Software Version Number: 1	Data File Format Number: 1	Build Version Number: 1	Error Count Since VI Started: 1	Manufacturer: Raytheon	 Model Number: RayMarine 120	 S/N: 	 Cal Date: 	 Wind Direction Offset: 0.00	 Slope (M)1: 0.00	 Offset (B)1: 0.00	 Slope (M)2: 0.00	 Offset (B)2: 0.00	 Slope (M)3: 0.00	 Offset (B)3: 0.00	 Slope (M)4: 0.00	 Offset (B)4: 0.00	 Slope (M)5: 0.00	 Offset (B)5: 0.00	 Slope (M)6: 0.00	 Offset (B)6: 0.00
Computer Date	Computer Time	GGA String
06/13/2015	08:00:00.528	$GPGGA,080001,2419.5124,N,08102.5954,W,1,9,1.6,14,M,,M,,*58
06/13/2015	08:00:01.528	$GPGGA,080002,2419.5127,N,08102.5957,W,1,9,1.5,14,M,,M,,*58
06/13/2015	08:00:02.518	$GPGGA,080003,2419.5128,N,08102.5962,W,1,9,1.5,14,M,,M,,*50
06/13/2015	08:00:03.558	$GPGGA,080004,2419.5131,N,08102.5965,W,1,9,1.5,14,M,,M,,*58
06/13/2015	08:00:04.518	$GPGGA,080005,2419.5134,N,08102.5970,W,1,9,1.5,14,M,,M,,*58
06/13/2015	08:00:05.518	$GPGGA,080006,2419.5136,N,08102.5975,W,1,9,1.5,14,M,,M,,*5C
06/13/2015	08:00:06.528	$GPGGA,080007,2419.5139,N,08102.5980,W,1,9,1.7,14,M,,M,,*5A
06/13/2015	08:00:07.558	$GPGGA,080008,2419.5142,N,08102.5986,W,1,9,1.5,14,M,,M,,*5D
06/13/2015	08:00:08.518	$GPGGA,080009,2419.5143,N,08102.5990,W,1,9,1.5,14,M,,M,,*5A
06/13/2015	08:00:09.578	$GPGGA,080010,2419.5146,N,08102.5995,W,1,7,1.8,14,M,,M,,*51
06/13/2015	08:00:10.518	$GPGGA,080011,2419.5146,N,08102.5999,W,1,7,1.7,14,M,,M,,*53
06/13/2015	08:00:12.628	$GPGGA,080013,2419.5152,N,08102.6009,W,1,9,1.7,14,M,,M,,*59
06/13/2015	08:00:13.618	$GPGGA,080014,2419.5153,N,08102.6015,W,1,8,1.7,14,M,,M,,*53
06/13/2015	08:00:14.499	$GPGGA,080015,2419.5157,N,08102.6017,W,1,8,1.6,13,M,,M,,*52
06/13/2015	08:00:15.518	$GPGGA,080016,2419.5161,N,08102.6019,W,1,8,1.7,13,M,,M,,*5B
06/13/2015	08:00:16.498	$GPGGA,080017,2419.5164,N,08102.6022,W,1,8,1.5,13,M,,M,,*55
06/13/2015	08:00:17.518	$GPGGA,080018,2419.5165,N,08102.6027,W,1,9,1.5,13,M,,M,,*5F
06/13/2015	08:00:18.508	$GPGGA,080019,2419.5168,N,08102.6033,W,1,9,1.5,13,M,,M,,*56
06/13/2015	08:00:19.518	$GPGGA,080020,2419.5170,N,08102.6038,W,1,9,1.5,13,M,,M,,*5E
06/13/2015	08:00:20.498	$GPGGA,080021,2419.5172,N,08102.6042,W,1,9,1.5,13,M,,M,,*50
06/13/2015	08:00:21.498	$GPGGA,080022,2419.5175,N,08102.6045,W,1,9,1.5,13,M,,M,,*53
06/13/2015	08:00:22.498	$GPGGA,080023,2419.5179,N,08102.6049,W,1,9,1.5,13,M,,M,,*52
06/13/2015	08:00:23.588	$GPGGA,080024,2419.5179,N,08102.6055,W,1,9,1.5,13,M,,M,,*58
06/13/2015	08:00:24.572	$GPGGA,080025,2419.5179,N,08102.6059,W,1,9,1.5,13,M,,M,,*55
06/13/2015	08:00:25.588	$GPGGA,080026,2419.5183,N,08102.6062,W,1,8,1.6,13,M,,M,,*59
06/13/2015	08:00:26.578	$GPGGA,080027,2419.5186,N,08102.6067,W,1,8,1.5,13,M,,M,,*5B
06/13/2015	08:00:27.618	$GPGGA,080028,2419.5188,N,08102.6073,W,1,9,1.5,13,M,,M,,*5E
06/13/2015	08:00:28.490	$GPGGA,080029,2419.5190,N,08102.6077,W,1,9,1.5,13,M,,M,,*52
06/13/2015	08:00:29.588	$GPGGA,080030,2419.5193,N,08102.6081,W,1,8,1.6,13,M,,M,,*52
06/13/2015	08:00:30.573	$GPGGA,080031,2419.5195,N,08102.6085,W,1,8,1.5,13,M,,M,,*52
06/13/2015	08:00:31.588	$GPGGA,080032,2419.5197,N,08102.6091,W,1,9,1.5,13,M,,M,,*57
06/13/2015	08:00:32.568	$GPGGA,080033,2419.5201,N,08102.6095,W,1,9,1.5,13,M,,M,,*5E
06/13/2015	08:00:33.598	$GPGGA,080034,2419.5203,N,08102.6100,W,1,9,1.5,13,M,,M,,*56
06/13/2015	08:00:34.570	$GPGGA,080035,2419.5206,N,08102.6105,W,1,9,1.5,13,M,,M,,*57
06/13/2015	08:00:35.608	$GPGGA,080036,2419.5210,N,08102.6109,W,1,9,1.5,13,M,,M,,*5F
06/13/2015	08:00:36.571	$GPGGA,080037,2419.5211,N,08102.6111,W,1,9,1.7,13,M,,M,,*54
06/13/2015	08:00:37.578	$GPGGA,080038,2419.5215,N,08102.6117,W,1,9,1.5,13,M,,M,,*5B
06/13/2015	08:00:38.548	$GPGGA,080039,2419.5219,N,08102.6124,W,1,9,1.5,13,M,,M,,*56
06/13/2015	08:00:39.578	$GPGGA,080040,2419.5224,N,08102.6129,W,1,9,1.5,13,M,,M,,*5B
06/13/2015	08:00:40.548	$GPGGA,080041,2419.5226,N,08102.6134,W,1,9,1.5,13,M,,M,,*54
06/13/2015	08:00:41.538	$GPGGA,080042,2419.5230,N,08102.6138,W,1,8,1.7,13,M,,M,,*5F
06/13/2015	08:00:42.538	$GPGGA,080043,2419.5235,N,08102.6142,W,1,8,1.7,13,M,,M,,*56
06/13/2015	08:00:43.548	$GPGGA,080044,2419.5237,N,08102.6145,W,1,8,1.7,13,M,,M,,*54
06/13/2015	08:00:44.548	$GPGGA,080045,2419.5240,N,08102.6150,W,1,8,1.5,13,M,,M,,*53
06/13/2015	08:00:45.538	$GPGGA,080046,2419.5244,N,08102.6156,W,1,9,1.5,13,M,,M,,*53
06/13/2015	08:00:46.528	$GPGGA,080047,2419.5247,N,08102.6161,W,1,9,1.5,13,M,,M,,*55
06/13/2015	08:00:47.538	$GPGGA,080048,2419.5251,N,08102.6167,W,1,8,1.7,13,M,,M,,*58
06/13/2015	08:00:48.538	$GPGGA,080049,2419.5257,N,08102.6171,W,1,8,1.7,13,M,,M,,*58
06/13/2015	08:00:49.529	$GPGGA,080050,2419.5260,N,08102.6172,W,1,8,1.7,13,M,,M,,*57
06/13/2015	08:00:50.528	$GPGGA,080051,2419.5262,N,08102.6178,W,1,8,1.5,13,M,,M,,*5C
06/13/2015	08:00:51.563	$GPGGA,080052,2419.5266,N,08102.6182,W,1,8,1.7,13,M,,M,,*5C
06/13/2015	08:00:52.538	$GPGGA,080053,2419.5269,N,08102.6189,W,1,8,1.7,13,M,,M,,*59
06/13/2015	08:00:53.548	$GPGGA,080054,2419.5275,N,08102.6193,W,1,8,1.7,13,M,,M,,*58
06/13/2015	08:00:54.518	$GPGGA,080055,2419.5277,N,08102.6199,W,1,8,1.7,13,M,,M,,*51
06/13/2015	08:00:55.562	$GPGGA,080056,2419.5280,N,08102.6203,W,1,8,1.7,13,M,,M,,*5A
06/13/2015	08:00:56.528	$GPGGA,080057,2419.5284,N,08102.6206,W,1,8,1.7,13,M,,M,,*5A
06/13/2015	08:00:57.528	$GPGGA,080058,2419.5289,N,08102.6208,W,1,8,1.7,13,M,,M,,*56
06/13/2015	08:00:58.518	$GPGGA,080059,2419.5293,N,08102.6214,W,1,8,1.7,13,M,,M,,*51
06/13/2015	08:00:59.577	$GPGGA,080100,2419.5294,N,08102.6221,W,1,9,1.5,13,M,,M,,*5E
06/13/2015	08:01:00.508	$GPGGA,080101,2419.5300,N,08102.6226,W,1,9,1.5,13,M,,M,,*54
06/13/2015	08:01:01.618	$GPGGA,080102,2419.5304,N,08102.6230,W,1,8,1.7,13,M,,M,,*57
06/13/2015	08:01:02.518	$GPGGA,080103,2419.5308,N,08102.6235,W,1,8,1.7,13,M,,M,,*5F
06/13/2015	08:01:03.548	$GPGGA,080104,2419.5312,N,08102.6237,W,1,8,1.7,13,M,,M,,*51
06/13/2015	08:01:04.618	$GPGGA,080105,2419.5315,N,08102.6241,W,1,8,1.7,13,M,,M,,*56
06/13/2015	08:01:05.618	$GPGGA,080106,2419.5316,N,08102.6247,W,1,9,1.5,13,M,,M,,*53
06/13/2015	08:01:06.588	$GPGGA,080107,2419.5322,N,08102.6254,W,1,9,1.5,13,M,,M,,*57
06/13/2015	08:01:07.618	$GPGGA,080108,2419.5327,N,08102.6258,W,1,8,1.7,13,M,,M,,*52
06/13/2015	08:01:08.608	$GPGGA,080109,2419.5329,N,08102.6264,W,1,8,1.7,13,M,,M,,*52
06/13/2015	08:01:09.518	$GPGGA,080110,2419.5331,N,08102.6268,W,1,8,1.7,13,M,,M,,*5F
06/13/2015	08:01:10.578	$GPGGA,080111,2419.5337,N,08102.6272,W,1,8,1.7,13,M,,M,,*53
06/13/2015	08:01:11.608	$GPGGA,080112,2419.5340,N,08102.6275,W,1,9,1.5,13,M,,M,,*54
06/13/2015	08:01:12.498	$GPGGA,080113,2419.5344,N,08102.6282,W,1,9,1.5,13,M,,M,,*59
06/13/2015	08:01:13.578	$GPGGA,080114,2419.5345,N,08102.6287,W,1,8,1.7,13,M,,M,,*59
06/13/2015	08:01:14.588	$GPGGA,080115,2419.5349,N,08102.6293,W,1,8,1.7,13,M,,M,,*51
06/13/2015	08:01:15.628	$GPGGA,080116,2419.5355,N,08102.6294,W,1,8,1.7,13,M,,M,,*58
06/13/2015	08:01:16.578	$GPGGA,080117,2419.5358,N,08102.6298,W,1,8,1.7,13,M,,M,,*58
06/13/2015	08:01:17.568	$GPGGA,080118,2419.5359,N,08102.6304,W,1,8,1.7,13,M,,M,,*52
06/13/2015	08:01:18.478	$GPGGA,080119,2419.5363,N,08102.6308,W,1,8,1.7,13,M,,M,,*56
06/13/2015	08:01:19.598	$GPGGA,080120,2419.5367,N,08102.6313,W,1,8,1.7,13,M,,M,,*52
06/13/2015	08:01:20.568	$GPGGA,080121,2419.5372,N,08102.6319,W,1,8,1.5,13,M,,M,,*5F
06/13/2015	08:01:21.560	$GPGGA,080122,2419.5374,N,08102.6323,W,1,8,1.7,13,M,,M,,*51
06/13/2015	08:01:22.559	$GPGGA,080123,2419.5376,N,08102.6326,W,1,8,1.7,13,M,,M,,*57
06/13/2015	08:01:23.618	$GPGGA,080124,2419.5378,N,08102.6329,W,1,9,1.5,13,M,,M,,*52
06/13/2015	08:01:24.563	$GPGGA,080125,2419.5381,N,08102.6333,W,1,9,1.5,13,M,,M,,*5E
06/13/2015	08:01:25.578	$GPGGA,080126,2419.5384,N,08102.6337,W,1,9,1.5,13,M,,M,,*5C
06/13/2015	08:01:26.558	$GPGGA,080127,2419.5387,N,08102.6341,W,1,9,1.5,13,M,,M,,*5F
06/13/2015	08:01:27.578	$GPGGA,080128,2419.5389,N,08102.6347,W,1,9,1.5,13,M,,M,,*58
06/13/2015	08:01:28.548	$GPGGA,080129,2419.5392,N,08102.6351,W,1,9,1.5,13,M,,M,,*54
06/13/2015	08:01:29.578	$GPGGA,080130,2419.5394,N,08102.6355,W,1,9,1.5,13,M,,M,,*5E
06/13/2015	08:01:30.559	$GPGGA,080131,2419.5396,N,08102.6359,W,1,9,1.5,14,M,,M,,*56
06/13/2015	08:01:31.578	$GPGGA,080132,2419.5399,N,08102.6362,W,1,9,1.5,14,M,,M,,*52
06/13/2015	08:01:32.558	$GPGGA,080133,2419.5403,N,08102.6367,W,1,9,1.5,14,M,,M,,*52
06/13/2015	08:01:33.568	$GPGGA,080134,2419.5405,N,08102.6373,W,1,9,1.5,14,M,,M,,*56
06/13/2015	08:01:34.548	$GPGGA,080135,2419.5406,N,08102.6378,W,1,9,1.6,14,M,,M,,*5C
06/13/2015	08:01:35.560	$GPGGA,080136,2419.5409,N,08102.6384,W,1,9,1.5,14,M,,M,,*50
06/13/2015	08:01:36.548	$GPGGA,080137,2419.5410,N,08102.6388,W,1,9,1.5,14,M,,M,,*55
06/13/2015	08:01:37.528	$GPGGA,080138,2419.5412,N,08102.6394,W,1,8,1.7,14,M,,M,,*56
06/13/2015	08:01:38.538	$GPGGA,080139,2419.5414,N,08102.6395,W,1,8,1.5,14,M,,M,,*52
06/13/2015	08:01:39.570	$GPGGA,080140,2419.5417,N,08102.6399,W,1,9,1.5,14,M,,M,,*52
06/13/2015	08:01:40.538	$GPGGA,080141,2419.5419,N,08102.6405,W,1,9,1.5,14,M,,M,,*5F
06/13/2015	08:01:41.570	$GPGGA,080142,2419.5421,N,08102.6409,W,1,9,1.5,14,M,,M,,*5B
06/13/2015	08:01:42.528	$GPGGA,080143,2419.5423,N,08102.6413,W,1,9,1.5,14,M,,M,,*53
06/13/2015	08:01:43.528	$GPGGA,080144,2419.5424,N,08102.6417,W,1,8,1.7,14,M,,M,,*54
06/13/2015	08:01:44.518	$GPGGA,080145,2419.5428,N,08102.6421,W,1,8,1.5,14,M,,M,,*5E
06/13/2015	08:01:45.518	$GPGGA,080146,2419.5431,N,08102.6427,W,1,9,1.5,14,M,,M,,*52
06/13/2015	08:01:46.538	$GPGGA,080147,2419.5434,N,08102.6432,W,1,9,1.8,14,M,,M,,*5F
06/13/2015	08:01:47.572	$GPGGA,080148,2419.5433,N,08102.6438,W,1,9,1.5,14,M,,M,,*50
06/13/2015	08:01:48.528	$GPGGA,080149,2419.5435,N,08102.6442,W,1,9,1.8,14,M,,M,,*57
06/13/2015	08:01:49.498	$GPGGA,080150,2419.5438,N,08102.6449,W,1,8,1.7,14,M,,M,,*57
06/13/2015	08:01:50.498	$GPGGA,080151,2419.5439,N,08102.6452,W,1,8,1.7,14,M,,M,,*5D
06/13/2015	08:01:51.528	$GPGGA,080152,2419.5441,N,08102.6456,W,1,9,1.5,14,M,,M,,*56
06/13/2015	08:01:52.508	$GPGGA,080153,2419.5443,N,08102.6461,W,1,9,1.7,14,M,,M,,*53
06/13/2015	08:01:53.498	$GPGGA,080154,2419.5445,N,08102.6467,W,1,8,1.6,15,M,,M,,*55
06/13/2015	08:01:54.518	$GPGGA,080155,2419.5446,N,08102.6471,W,1,8,1.5,15,M,,M,,*53
06/13/2015	08:01:55.661	$GPGGA,080156,2419.5449,N,08102.6475,W,1,9,1.5,15,M,,M,,*5A
06/13/2015	08:01:56.508	$GPGGA,080157,2419.5450,N,08102.6479,W,1,9,1.5,15,M,,M,,*5F
06/13/2015	08:01:57.508	$GPGGA,080158,2419.5452,N,08102.6485,W,1,9,1.5,15,M,,M,,*51
06/13/2015	08:01:58.508	$GPGGA,080159,2419.5453,N,08102.6488,W,1,9,1.5,15,M,,M,,*5C
06/13/2015	08:01:59.529	$GPGGA,080200,2419.5456,N,08102.6493,W,1,9,1.5,15,M,,M,,*5C
06/13/2015	08:02:00.508	$GPGGA,080201,2419.5459,N,08102.6499,W,1,9,1.5,15,M,,M,,*58
06/13/2015	08:02:01.878	$GPGGA,080202,2419.5461,N,08102.6503,W,1,9,1.5,15,M,,M,,*52
06/13/2015	08:02:02.588	$GPGGA,080203,2419.5463,N,08102.6507,W,1,9,1.5,15,M,,M,,*55
06/13/2015	08:02:03.628	$GPGGA,080204,2419.5464,N,08102.6511,W,1,9,1.5,15,M,,M,,*52
06/13/2015	08:02:04.588	$GPGGA,080205,2419.5466,N,08102.6515,W,1,9,1.5,16,M,,M,,*56
06/13/2015	08:02:05.588	$GPGGA,080206,2419.5468,N,08102.6521,W,1,9,1.5,16,M,,M,,*5C
06/13/2015	08:02:06.578	$GPGGA,080207,2419.5471,N,08102.6528,W,1,9,1.5,16,M,,M,,*5C
06/13/2015	08:02:07.588	$GPGGA,080208,2419.5475,N,08102.6533,W,1,9,1.5,16,M,,M,,*5D
06/13/2015	08:02:08.573	$GPGGA,080209,2419.5477,N,08102.6537,W,1,9,1.5,16,M,,M,,*5A
06/13/2015	08:02:09.588	$GPGGA,080210,2419.5479,N,08102.6542,W,1,9,1.5,16,M,,M,,*5E
06/13/2015	08:02:10.572	$GPGGA,080211,2419.5482,N,08102.6546,W,1,9,1.5,16,M,,M,,*5F
06/13/2015	08:02:11.598	$GPGGA,080212,2419.5485,N,08102.6550,W,1,9,1.5,16,M,,M,,*5C
06/13/2015	08:02:12.581	$GPGGA,080213,2419.5486,N,08102.6554,W,1,9,1.5,16,M,,M,,*5A
06/13/2015	08:02:13.578	$GPGGA,080214,2419.5490,N,08102.6559,W,1,9,1.5,16,M,,M,,*57
06/13/2015	08:02:14.564	$GPGGA,080215,2419.5493,N,08102.6564,W,1,9,1.5,16,M,,M,,*5B
06/13/2015	08:02:15.598	$GPGGA,080216,2419.5497,N,08102.6568,W,1,9,1.5,16,M,,M,,*50
06/13/2015	08:02:16.561	$GPGGA,080217,2419.5497,N,08102.6572,W,1,9,1.5,16,M,,M,,*5A
06/13/2015	08:02:17.572	$GPGGA,080218,2419.5500,N,08102.6575,W,1,9,1.5,16,M,,M,,*5D
06/13/2015	08:02:18.563	$GPGGA,080219,2419.5504,N,08102.6579,W,1,9,1.6,16,M,,M,,*57
06/13/2015	08:02:19.578	$GPGGA,080220,2419.5508,N,08102.6584,W,1,8,1.5,16,M,,M,,*51
06/13/2015	08:02:20.562	$GPGGA,080221,2419.5510,N,08102.6590,W,1,8,1.5,16,M,,M,,*5C
06/13/2015	08:02:21.576	$GPGGA,080222,2419.5513,N,08102.6594,W,1,9,1.5,16,M,,M,,*59
06/13/2015	08:02:22.538	$GPGGA,080223,2419.5515,N,08102.6598,W,1,9,1.5,16,M,,M,,*52
06/13/2015	08:02:23.561	$GPGGA,080224,2419.5518,N,08102.6602,W,1,9,1.5,16,M,,M,,*58
06/13/2015	08:02:24.548	$GPGGA,080225,2419.5521,N,08102.6607,W,1,9,1.6,16,M,,M,,*55
06/13/2015	08:02:25.548	$GPGGA,080226,2419.5526,N,08102.6609,W,1,8,1.5,16,M,,M,,*5D
06/13/2015	08:02:26.539	$GPGGA,080227,2419.5529,N,08102.6612,W,1,8,1.5,16,M,,M,,*59
06/13/2015	08:02:27.572	$GPGGA,080228,2419.5531,N,08102.6616,W,1,9,1.5,16,M,,M,,*5A
06/13/2015	08:02:28.538	$GPGGA,080229,2419.5536,N,08102.6619,W,1,9,1.5,16,M,,M,,*53
06/13/2015	08:02:29.548	$GPGGA,080230,2419.5539,N,08102.6623,W,1,9,1.5,16,M,,M,,*5D
06/13/2015	08:02:30.528	$GPGGA,080231,2419.5540,N,08102.6629,W,1,9,1.6,16,M,,M,,*5B
06/13/2015	08:02:31.608	$GPGGA,080232,2419.5543,N,08102.6633,W,1,8,1.5,16,M,,M,,*52
06/13/2015	08:02:32.548	$GPGGA,080233,2419.5547,N,08102.6634,W,1,8,1.5,16,M,,M,,*50
06/13/2015	08:02:33.558	$GPGGA,080234,2419.5550,N,08102.6638,W,1,9,1.5,16,M,,M,,*5C
06/13/2015	08:02:34.529	$GPGGA,080235,2419.5551,N,08102.6644,W,1,9,1.5,16,M,,M,,*57
06/13/2015	08:02:35.548	$GPGGA,080236,2419.5554,N,08102.6648,W,1,9,1.6,16,M,,M,,*5E
06/13/2015	08:02:36.528	$GPGGA,080237,2419.5557,N,08102.6652,W,1,9,1.5,16,M,,M,,*54
06/13/2015	08:02:37.528	$GPGGA,080238,2419.5560,N,08102.6658,W,1,9,1.6,16,M,,M,,*56
06/13/2015	08:02:38.508	$GPGGA,080239,2419.5564,N,08102.6662,W,1,9,1.7,16,M,,M,,*5B
06/13/2015	08:02:39.538	$GPGGA,080240,2419.5565,N,08102.6665,W,1,8,1.5,16,M,,M,,*50
06/13/2015	08:02:40.528	$GPGGA,080241,2419.5566,N,08102.6669,W,1,8,1.6,16,M,,M,,*5D
06/13/2015	08:02:41.628	$GPGGA,080242,2419.5571,N,08102.6673,W,1,8,1.6,16,M,,M,,*53
06/13/2015	08:02:42.528	$GPGGA,080243,2419.5572,N,08102.6680,W,1,8,1.5,16,M,,M,,*5E
06/13/2015	08:02:43.528	$GPGGA,080244,2419.5575,N,08102.6683,W,1,9,1.5,16,M,,M,,*5C
06/13/2015	08:02:44.498	$GPGGA,080245,2419.5580,N,08102.6687,W,1,9,1.7,16,M,,M,,*51
06/13/2015	08:02:45.508	$GPGGA,080246,2419.5583,N,08102.6691,W,1,8,1.5,16,M,,M,,*55
06/13/2015	08:02:46.608	$GPGGA,080247,2419.5583,N,08102.6694,W,1,8,1.5,16,M,,M,,*51
06/13/2015	08:02:47.608	$GPGGA,080248,2419.5584,N,08102.6696,W,1,8,1.5,16,M,,M,,*5B
06/13/2015	08:02:48.498	$GPGGA,080249,2419.5591,N,08102.6698,W,1,8,1.7,16,M,,M,,*52
06/13/2015	08:02:49.498	$GPGGA,080250,2419.5597,N,08102.6702,W,1,8,1.7,16,M,,M,,*5E
06/13/2015	08:02:50.588	$GPGGA,080251,2419.5600,N,08102.6706,W,1,8,1.7,16,M,,M,,*56
06/13/2015	08:02:51.629	$GPGGA,080252,2419.5602,N,08102.6712,W,1,8,1.7,16,M,,M,,*52
06/13/2015	08:02:52.598	$GPGGA,080253,2419.5605,N,08102.6717,W,1,8,1.8,16,M,,M,,*5E
06/13/2015	08:02:53.498	$GPGGA,080254,2419.5609,N,08102.6720,W,1,7,1.5,16,M,,M,,*53
06/13/2015	08:02:54.578	$GPGGA,080255,2419.5612,N,08102.6723,W,1,7,1.5,16,M,,M,,*5B
06/13/2015	08:02:55.608	$GPGGA,080256,2419.5613,N,08102.6728,W,1,9,1.5,16,M,,M,,*5C
06/13/2015	08:02:56.578	$GPGGA,080257,2419.5616,N,08102.6734,W,1,9,1.5,15,M,,M,,*56
06/13/2015	08:02:57.578	$GPGGA,080258,2419.5620,N,08102.6738,W,1,8,1.6,15,M,,M,,*52
06/13/2015	08:02:58.568	$GPGGA,080259,2419.5623,N,08102.6743,W,1,8,1.7,15,M,,M,,*5D
06/13/2015	08:02:59.608	$GPGGA,080300,2419.5623,N,08102.6749,W,1,8,1.7,15,M,,M,,*5A
06/13/2015	08:03:00.560	$GPGGA,080301,2419.5626,N,08102.6753,W,1,8,1.5,15,M,,M,,*57
06/13/2015	08:03:01.578	$GPGGA,080302,2419.5629,N,08102.6756,W,1,9,1.5,15,M,,M,,*5F
06/13/2015	08:03:02.562	$GPGGA,080303,2419.5631,N,08102.6760,W,1,9,1.6,15,M,,M,,*51
06/13/2015	08:03:03.574	$GPGGA,080304,2419.5634,N,08102.6767,W,1,9,1.5,15,M,,M,,*57
06/13/2015	08:03:04.558	$GPGGA,080305,2419.5636,N,08102.6774,W,1,9,1.5,15,M,,M,,*56
06/13/2015	08:03:05.548	$GPGGA,080306,2419.5638,N,08102.6778,W,1,8,1.7,15,M,,M,,*54
06/13/2015	08:03:06.570	$GPGGA,080307,2419.5641,N,08102.6781,W,1,8,1.7,15,M,,M,,*5D
06/13/2015	08:03:07.588	$GPGGA,080308,2419.5643,N,08102.6785,W,1,9,1.5,15,M,,M,,*57
06/13/2015	08:03:08.560	$GPGGA,080309,2419.5645,N,08102.6788,W,1,9,1.5,15,M,,M,,*5D
06/13/2015	08:03:09.567	$GPGGA,080310,2419.5648,N,08102.6792,W,1,9,1.5,15,M,,M,,*53
06/13/2015	08:03:10.548	$GPGGA,080311,2419.5652,N,08102.6796,W,1,9,1.6,15,M,,M,,*5E
06/13/2015	08:03:11.578	$GPGGA,080312,2419.5656,N,08102.6800,W,1,9,1.5,15,M,,M,,*5A
06/13/2015	08:03:12.538	$GPGGA,080313,2419.5658,N,08102.6806,W,1,9,1.7,15,M,,M,,*51
06/13/2015	08:03:13.574	$GPGGA,080314,2419.5662,N,08102.6811,W,1,9,1.5,15,M,,M,,*5B
06/13/2015	08:03:14.548	$GPGGA,080315,2419.5665,N,08102.6815,W,1,9,1.5,15,M,,M,,*59
06/13/2015	08:03:15.568	$GPGGA,080316,2419.5669,N,08102.6819,W,1,9,1.5,15,M,,M,,*5A
06/13/2015	08:03:16.538	$GPGGA,080317,2419.5670,N,08102.6824,W,1,9,1.6,15,M,,M,,*5E
06/13/2015	08:03:17.548	$GPGGA,080318,2419.5673,N,08102.6829,W,1,8,1.6,15,M,,M,,*5E
06/13/2015	08:03:18.528	$GPGGA,080319,2419.5674,N,08102.6835,W,1,8,1.6,15,M,,M,,*55
06/13/2015	08:03:19.528	$GPGGA,080320,2419.5680,N,08102.6837,W,1,9,1.5,15,M,,M,,*54
06/13/2015	08:03:20.538	$GPGGA,080321,2419.5683,N,08102.6840,W,1,9,1.5,15,M,,M,,*56
06/13/2015	08:03:21.549	$GPGGA,080322,2419.5685,N,08102.6844,W,1,9,1.5,15,M,,M,,*57
06/13/2015	08:03:22.528	$GPGGA,080323,2419.5688,N,08102.6847,W,1,9,1.5,15,M,,M,,*58
06/13/2015	08:03:23.538	$GPGGA,080324,2419.5692,N,08102.6850,W,1,9,1.5,15,M,,M,,*52
06/13/2015	08:03:24.628	$GPGGA,080325,2419.5695,N,08102.6854,W,1,9,1.5,15,M,,M,,*50
06/13/2015	08:03:25.528	$GPGGA,080326,2419.5698,N,08102.6860,W,1,9,1.5,15,M,,M,,*59
06/13/2015	08:03:26.529	$GPGGA,080327,2419.5699,N,08102.6864,W,1,9,1.5,15,M,,M,,*5D
06/13/2015	08:03:27.538	$GPGGA,080328,2419.5702,N,08102.6868,W,1,9,1.5,15,M,,M,,*5D
06/13/2015	08:03:28.628	$GPGGA,080329,2419.5706,N,08102.6871,W,1,9,1.5,15,M,,M,,*50
06/13/2015	08:03:29.528	$GPGGA,080330,2419.5710,N,08102.6876,W,1,8,1.7,14,M,,M,,*5A
06/13/2015	08:03:30.608	$GPGGA,080331,2419.5712,N,08102.6882,W,1,8,1.5,14,M,,M,,*50
06/13/2015	08:03:31.628	$GPGGA,080332,2419.5714,N,08102.6886,W,1,9,1.5,14,M,,M,,*50
06/13/2015	08:03:32.618	$GPGGA,080333,2419.5716,N,08102.6891,W,1,9,1.5,14,M,,M,,*55
06/13/2015	08:03:33.498	$GPGGA,080334,2419.5717,N,08102.6895,W,1,9,1.5,14,M,,M,,*57
06/13/2015	08:03:34.618	$GPGGA,080335,2419.5721,N,08102.6898,W,1,9,1.5,14,M,,M,,*5E
06/13/2015	08:03:35.528	$GPGGA,080336,2419.5724,N,08102.6904,W,1,9,1.5,14,M,,M,,*5C
06/13/2015	08:03:36.508	$GPGGA,080337,2419.5727,N,08102.6908,W,1,9,1.5,14,M,,M,,*52
06/13/2015	08:03:37.498	$GPGGA,080338,2419.5728,N,08102.6911,W,1,9,1.5,14,M,,M,,*5A
06/13/2015	08:03:38.488	$GPGGA,080339,2419.5728,N,08102.6915,W,1,9,1.5,14,M,,M,,*5F
06/13/2015	08:03:39.628	$GPGGA,080340,2419.5732,N,08102.6922,W,1,9,1.5,14,M,,M,,*5E
06/13/2015	08:03:40.508	$GPGGA,080341,2419.5735,N,08102.6926,W,1,9,1.7,14,M,,M,,*5E
06/13/2015	08:03:41.578	$GPGGA,080342,2419.5738,N,08102.6929,W,1,9,1.5,14,M,,M,,*5D
06/13/2015	08:03:42.578	$GPGGA,080343,2419.5741,N,08102.6933,W,1,9,1.5,14,M,,M,,*59
06/13/2015	08:03:43.488	$GPGGA,080344,2419.5742,N,08102.6937,W,1,8,1.7,14,M,,M,,*5A
06/13/2015	08:03:44.579	$GPGGA,080345,2419.5745,N,08102.6943,W,1,8,1.6,14,M,,M,,*5E
06/13/2015	08:03:45.568	$GPGGA,080346,2419.5748,N,08102.6948,W,1,8,1.6,14,M,,M,,*5B
06/13/2015	08:03:46.566	$GPGGA,080347,2419.5750,N,08102.6954,W,1,8,1.8,14,M,,M,,*50
06/13/2015	08:03:47.608	$GPGGA,080348,2419.5753,N,08102.6956,W,1,8,1.7,14,M,,M,,*51
06/13/2015	08:03:48.578	$GPGGA,080349,2419.5756,N,08102.6959,W,1,8,1.5,14,M,,M,,*58
06/13/2015	08:03:49.588	$GPGGA,080350,2419.5759,N,08102.6965,W,1,9,1.5,14,M,,M,,*51
06/13/2015	08:03:50.571	$GPGGA,080351,2419.5764,N,08102.6967,W,1,9,1.7,14,M,,M,,*5E
06/13/2015	08:03:51.608	$GPGGA,080352,2419.5766,N,08102.6969,W,1,9,1.5,14,M,,M,,*53
06/13/2015	08:03:52.562	$GPGGA,080353,2419.5768,N,08102.6973,W,1,9,1.5,14,M,,M,,*57
06/13/2015	08:03:53.578	$GPGGA,080354,2419.5773,N,08102.6976,W,1,9,1.5,14,M,,M,,*5F
06/13/2015	08:03:54.569	$GPGGA,080355,2419.5775,N,08102.6983,W,1,9,1.5,14,M,,M,,*52
06/13/2015	08:03:55.588	$GPGGA,080356,2419.5779,N,08102.6985,W,1,8,1.6,14,M,,M,,*59
06/13/2015	08:03:56.558	$GPGGA,080357,2419.5784,N,08102.6988,W,1,8,1.5,14,M,,M,,*54
06/13/2015	08:03:57.568	$GPGGA,080358,2419.5788,N,08102.6991,W,1,9,1.5,14,M,,M,,*5E
06/13/2015	08:03:58.548	$GPGGA,080359,2419.5789,N,08102.6994,W,1,9,1.5,14,M,,M,,*5B
06/13/2015	08:03:59.588	$GPGGA,080400,2419.5790,N,08102.6998,W,1,9,1.5,14,M,,M,,*54
06/13/2015	08:04:00.538	$GPGGA,080401,2419.5793,N,08102.7005,W,1,9,1.5,13,M,,M,,*5D
06/13/2015	08:04:01.569	$GPGGA,080402,2419.5796,N,08102.7010,W,1,8,1.6,13,M,,M,,*5D
06/13/2015	08:04:02.538	$GPGGA,080403,2419.5797,N,08102.7016,W,1,8,1.5,13,M,,M,,*58
06/13/2015	08:04:03.588	$GPGGA,080404,2419.5799,N,08102.7020,W,1,9,1.5,13,M,,M,,*55
06/13/2015	08:04:04.538	$GPGGA,080405,2419.5800,N,08102.7025,W,1,9,1.5,13,M,,M,,*5E
06/13/2015	08:04:05.548	$GPGGA,080406,2419.5803,N,08102.7030,W,1,8,1.6,13,M,,M,,*58
06/13/2015	08:04:06.528	$GPGGA,080407,2419.5804,N,08102.7034,W,1,8,1.5,13,M,,M,,*59
06/13/2015	08:04:07.538	$GPGGA,080408,2419.5807,N,08102.7039,W,1,9,1.5,13,M,,M,,*59
06/13/2015	08:04:08.538	$GPGGA,080409,2419.5811,N,08102.7043,W,1,9,1.5,13,M,,M,,*52
06/13/2015	08:04:09.528	$GPGGA,080410,2419.5814,N,08102.7048,W,1,9,1.5,13,M,,M,,*54
06/13/2015	08:04:10.539	$GPGGA,080411,2419.5815,N,08102.7053,W,1,9,1.5,13,M,,M,,*5E
06/13/2015	08:04:11.538	$GPGGA,080412,2419.5817,N,08102.7057,W,1,9,1.5,13,M,,M,,*5B
06/13/2015	08:04:12.518	$GPGGA,080413,2419.5820,N,08102.7060,W,1,9,1.5,13,M,,M,,*5A
06/13/2015	08:04:13.971	$GPGGA,080414,2419.5822,N,08102.7064,W,1,9,1.5,13,M,,M,,*5B
06/13/2015	08:04:14.518	$GPGGA,080415,2419.5825,N,08102.7070,W,1,9,1.5,13,M,,M,,*58
06/13/2015	08:04:15.559	$GPGGA,080416,2419.5826,N,08102.7074,W,1,9,1.5,13,M,,M,,*5C
06/13/2015	08:04:16.518	$GPGGA,080417,2419.5831,N,08102.7078,W,1,9,1.5,13,M,,M,,*57
06/13/2015	08:04:17.528	$GPGGA,080418,2419.5833,N,08102.7082,W,1,9,1.5,13,M,,M,,*5F
06/13/2015	08:04:18.618	$GPGGA,080419,2419.5835,N,08102.7086,W,1,9,1.5,13,M,,M,,*5C
06/13/2015	08:04:19.648	$GPGGA,080420,2419.5837,N,08102.7092,W,1,9,1.5,13,M,,M,,*51
06/13/2015	08:04:20.528	$GPGGA,080421,2419.5843,N,08102.7095,W,1,9,1.5,13,M,,M,,*54
06/13/2015	08:04:21.528	$GPGGA,080422,2419.5844,N,08102.7100,W,1,9,1.5,13,M,,M,,*5D
06/13/2015	08:04:22.518	$GPGGA,080423,2419.5847,N,08102.7106,W,1,9,1.5,13,M,,M,,*59
06/13/2015	08:04:23.608	$GPGGA,080424,2419.5850,N,08102.7108,W,1,9,1.5,13,M,,M,,*56
06/13/2015	08:04:24.488	$GPGGA,080425,2419.5854,N,08102.7113,W,1,9,1.5,13,M,,M,,*59
06/13/2015	08:04:25.508	$GPGGA,080426,2419.5857,N,08102.7117,W,1,8,1.6,13,M,,M,,*5F
06/13/2015	08:04:26.488	$GPGGA,080427,2419.5858,N,08102.7122,W,1,8,1.5,13,M,,M,,*54
06/13/2015	08:04:27.508	$GPGGA,080428,2419.5862,N,08102.7126,W,1,8,1.6,13,M,,M,,*55
06/13/2015	08:04:28.479	$GPGGA,080429,2419.5865,N,08102.7131,W,1,8,1.5,13,M,,M,,*56
06/13/2015	08:04:29.608	$GPGGA,080430,2419.5869,N,08102.7135,W,1,8,1.7,13,M,,M,,*54
06/13/2015	08:04:30.598	$GPGGA,080431,2419.5872,N,08102.7139,W,1,8,1.7,13,M,,M,,*53
06/13/2015	08:04:31.608	$GPGGA,080432,2419.5876,N,08102.7142,W,1,8,1.7,13,M,,M,,*58
06/13/2015	08:04:32.588	$GPGGA,080433,2419.5878,N,08102.7146,W,1,8,1.7,13,M,,M,,*53
06/13/2015	08:04:33.608	$GPGGA,080434,2419.5882,N,08102.7149,W,1,8,1.6,13,M,,M,,*5F
06/13/2015	08:04:34.488	$GPGGA,080435,2419.5886,N,08102.7155,W,1,8,1.5,13,M,,M,,*54
06/13/2015	08:04:36.619	$GPGGA,080437,2419.5891,N,08102.7164,W,1,7,1.7,13,M,,M,,*5F
06/13/2015	08:04:37.578	$GPGGA,080438,2419.5894,N,08102.7169,W,1,8,1.7,13,M,,M,,*57
06/13/2015	08:04:38.578	$GPGGA,080439,2419.5896,N,08102.7173,W,1,8,1.7,13,M,,M,,*5F
06/13/2015	08:04:39.578	$GPGGA,080440,2419.5898,N,08102.7178,W,1,8,1.6,13,M,,M,,*55
06/13/2015	08:04:40.571	$GPGGA,080441,2419.5901,N,08102.7182,W,1,8,1.5,13,M,,M,,*53
06/13/2015	08:04:41.578	$GPGGA,080442,2419.5904,N,08102.7186,W,1,8,1.6,13,M,,M,,*52
06/13/2015	08:04:42.572	$GPGGA,080443,2419.5909,N,08102.7191,W,1,8,1.7,13,M,,M,,*59
06/13/2015	08:04:43.578	$GPGGA,080444,2419.5912,N,08102.7196,W,1,8,1.7,13,M,,M,,*53
06/13/2015	08:04:44.561	$GPGGA,080445,2419.5915,N,08102.7200,W,1,8,1.7,13,M,,M,,*59
06/13/2015	08:04:45.548	$GPGGA,080446,2419.5914,N,08102.7201,W,1,7,1.8,13,M,,M,,*5A
06/13/2015	08:04:46.561	$GPGGA,080447,2419.5918,N,08102.7200,W,1,7,1.5,13,M,,M,,*5B
06/13/2015	08:04:47.576	$GPGGA,080448,2419.5922,N,08102.7207,W,1,8,1.6,13,M,,M,,*56
06/13/2015	08:04:48.562	$GPGGA,080449,2419.5925,N,08102.7212,W,1,8,1.6,14,M,,M,,*53
06/13/2015	08:04:49.580	$GPGGA,080450,2419.5927,N,08102.7218,W,1,8,1.6,14,M,,M,,*53
06/13/2015	08:04:50.548	$GPGGA,080451,2419.5930,N,08102.7222,W,1,8,1.5,14,M,,M,,*5E
06/13/2015	08:04:51.571	$GPGGA,080452,2419.5936,N,08102.7225,W,1,9,1.5,14,M,,M,,*5D
06/13/2015	08:04:52.548	$GPGGA,080453,2419.5937,N,08102.7229,W,1,9,1.7,14,M,,M,,*53
06/13/2015	08:04:53.573	$GPGGA,080454,2419.5940,N,08102.7233,W,1,9,1.5,14,M,,M,,*5D
06/13/2015	08:04:54.538	$GPGGA,080455,2419.5945,N,08102.7237,W,1,9,1.7,14,M,,M,,*5F
06/13/2015	08:04:55.577	$GPGGA,080456,2419.5948,N,08102.7243,W,1,9,1.5,14,M,,M,,*50
06/13/2015	08:04:56.548	$GPGGA,080457,2419.5952,N,08102.7247,W,1,9,1.5,14,M,,M,,*5E
06/13/2015	08:04:57.538	$GPGGA,080458,2419.5956,N,08102.7251,W,1,9,1.5,14,M,,M,,*52
06/13/2015	08:04:58.538	$GPGGA,080459,2419.5958,N,08102.7254,W,1,9,1.5,14,M,,M,,*58
06/13/2015	08:04:59.564	$GPGGA,080500,2419.5961,N,08102.7258,W,1,9,1.5,14,M,,M,,*53
06/13/2015	08:05:01.068	$GPGGA,080501,2419.5963,N,08102.7262,W,1,9,1.5,14,M,,M,,*59
06/13/2015	08:05:01.538	$GPGGA,080502,2419.5965,N,08102.7261,W,1,7,1.8,14,M,,M,,*5C
06/13/2015	08:05:02.528	$GPGGA,080503,2419.5967,N,08102.7265,W,1,7,1.5,14,M,,M,,*56
06/13/2015	08:05:03.548	$GPGGA,080504,2419.5973,N,08102.7269,W,1,9,1.5,14,M,,M,,*56
06/13/2015	08:05:04.648	$GPGGA,080505,2419.5974,N,08102.7272,W,1,9,1.5,14,M,,M,,*5A
06/13/2015	08:05:05.598	$GPGGA,080506,2419.5976,N,08102.7277,W,1,9,1.5,14,M,,M,,*5E
06/13/2015	08:05:06.598	$GPGGA,080507,2419.5977,N,08102.7280,W,1,9,1.5,14,M,,M,,*56
06/13/2015	08:05:07.518	$GPGGA,080508,2419.5981,N,08102.7283,W,1,9,1.5,14,M,,M,,*53
06/13/2015	08:05:08.508	$GPGGA,080509,2419.5984,N,08102.7287,W,1,9,1.5,14,M,,M,,*53
06/13/2015	08:05:09.688	$GPGGA,080510,2419.5985,N,08102.7290,W,1,9,1.5,15,M,,M,,*5D
06/13/2015	08:05:10.508	$GPGGA,080511,2419.5988,N,08102.7294,W,1,9,1.5,15,M,,M,,*55
06/13/2015	08:05:11.518	$GPGGA,080512,2419.5992,N,08102.7299,W,1,9,1.5,15,M,,M,,*50
06/13/2015	08:05:12.577	$GPGGA,080513,2419.5995,N,08102.7303,W,1,9,1.5,15,M,,M,,*54
06/13/2015	08:05:13.487	$GPGGA,080514,2419.5998,N,08102.7308,W,1,9,1.5,15,M,,M,,*55
06/13/2015	08:05:14.497	$GPGGA,080515,2419.5999,N,08102.7310,W,1,9,1.5,15,M,,M,,*5C
06/13/2015	08:05:15.507	$GPGGA,080516,2419.6002,N,08102.7313,W,1,9,1.5,15,M,,M,,*54
06/13/2015	08:05:16.577	$GPGGA,080517,2419.6006,N,08102.7316,W,1,9,1.5,15,M,,M,,*54
06/13/2015	08:05:17.677	$GPGGA,080518,2419.6009,N,08102.7320,W,1,9,1.5,15,M,,M,,*51
06/13/2015	08:05:18.497	$GPGGA,080519,2419.6012,N,08102.7327,W,1,9,1.5,15,M,,M,,*5D
06/13/2015	08:05:19.677	$GPGGA,080520,2419.6016,N,08102.7331,W,1,8,1.5,15,M,,M,,*55
06/13/2015	08:05:20.597	$GPGGA,080521,2419.6017,N,08102.7337,W,1,8,1.5,15,M,,M,,*53
06/13/2015	08:05:21.667	$GPGGA,080522,2419.6019,N,08102.7341,W,1,9,1.5,15,M,,M,,*5E
06/13/2015	08:05:22.568	$GPGGA,080523,2419.6021,N,08102.7344,W,1,9,1.5,15,M,,M,,*51
06/13/2015	08:05:23.668	$GPGGA,080524,2419.6024,N,08102.7346,W,1,9,1.5,15,M,,M,,*51
06/13/2015	08:05:24.618	$GPGGA,080525,2419.6028,N,08102.7350,W,1,9,1.5,15,M,,M,,*5B
06/13/2015	08:05:25.668	$GPGGA,080526,2419.6028,N,08102.7355,W,1,9,1.5,15,M,,M,,*5D
06/13/2015	08:05:26.558	$GPGGA,080527,2419.6031,N,08102.7359,W,1,9,1.5,15,M,,M,,*58
06/13/2015	08:05:27.628	$GPGGA,080528,2419.6034,N,08102.7363,W,1,9,1.5,15,M,,M,,*5B
06/13/2015	08:05:29.677	$GPGGA,080530,2419.6037,N,08102.7370,W,1,9,1.5,15,M,,M,,*53
06/13/2015	08:05:30.557	$GPGGA,080531,2419.6039,N,08102.7373,W,1,9,1.5,15,M,,M,,*5F
06/13/2015	08:05:31.667	$GPGGA,080532,2419.6042,N,08102.7377,W,1,9,1.5,15,M,,M,,*54
06/13/2015	08:05:32.577	$GPGGA,080533,2419.6045,N,08102.7381,W,1,9,1.5,15,M,,M,,*5B
06/13/2015	08:05:33.553	$GPGGA,080534,2419.6046,N,08102.7384,W,1,9,1.5,15,M,,M,,*5A
06/13/2015	08:05:34.537	$GPGGA,080535,2419.6048,N,08102.7388,W,1,9,1.5,15,M,,M,,*59
06/13/2015	08:05:35.648	$GPGGA,080536,2419.6049,N,08102.7392,W,1,9,1.6,15,M,,M,,*53
06/13/2015	08:05:36.567	$GPGGA,080537,2419.6050,N,08102.7395,W,1,9,1.6,15,M,,M,,*5D
06/13/2015	08:05:37.649	$GPGGA,080538,2419.6053,N,08102.7399,W,1,8,1.6,15,M,,M,,*5C
06/13/2015	08:05:38.567	$GPGGA,080539,2419.6056,N,08102.7403,W,1,8,1.5,15,M,,M,,*5F
06/13/2015	08:05:39.638	$GPGGA,080540,2419.6060,N,08102.7406,W,1,9,1.5,15,M,,M,,*50
06/13/2015	08:05:40.558	$GPGGA,080541,2419.6061,N,08102.7411,W,1,9,1.5,15,M,,M,,*56
06/13/2015	08:05:41.648	$GPGGA,080542,2419.6064,N,08102.7414,W,1,9,1.5,15,M,,M,,*55
06/13/2015	08:05:42.528	$GPGGA,080543,2419.6066,N,08102.7417,W,1,9,1.5,15,M,,M,,*55
06/13/2015	08:05:43.650	$GPGGA,080544,2419.6067,N,08102.7421,W,1,9,1.6,15,M,,M,,*55
06/13/2015	08:05:44.560	$GPGGA,080545,2419.6068,N,08102.7424,W,1,9,1.5,15,M,,M,,*5D
06/13/2015	08:05:45.588	$GPGGA,080546,2419.6071,N,08102.7429,W,1,9,1.5,15,M,,M,,*5B
06/13/2015	08:05:46.561	$GPGGA,080547,2419.6075,N,08102.7433,W,1,9,1.5,15,M,,M,,*55
06/13/2015	08:05:47.647	$GPGGA,080548,2419.6077,N,08102.7439,W,1,9,1.5,15,M,,M,,*52
06/13/2015	08:05:48.527	$GPGGA,080549,2419.6078,N,08102.7442,W,1,9,1.7,15,M,,M,,*52
06/13/2015	08:05:49.597	$GPGGA,080550,2419.6079,N,08102.7446,W,1,9,1.5,15,M,,M,,*5D
06/13/2015	08:05:50.527	$GPGGA,080551,2419.6081,N,08102.7449,W,1,9,1.5,15,M,,M,,*54
06/13/2015	08:05:51.607	$GPGGA,080552,2419.6082,N,08102.7451,W,1,9,1.5,15,M,,M,,*5D
06/13/2015	08:05:52.549	$GPGGA,080553,2419.6085,N,08102.7456,W,1,9,1.5,15,M,,M,,*5C
06/13/2015	08:05:53.617	$GPGGA,080554,2419.6086,N,08102.7460,W,1,9,1.6,15,M,,M,,*5E
06/13/2015	08:05:54.565	$GPGGA,080555,2419.6089,N,08102.7462,W,1,9,1.5,15,M,,M,,*51
06/13/2015	08:05:55.637	$GPGGA,080556,2419.6091,N,08102.7465,W,1,9,1.5,15,M,,M,,*5C
06/13/2015	08:05:56.527	$GPGGA,080557,2419.6093,N,08102.7468,W,1,9,1.5,15,M,,M,,*52
06/13/2015	08:05:57.628	$GPGGA,080558,2419.6095,N,08102.7472,W,1,9,1.5,15,M,,M,,*50
06/13/2015	08:05:58.488	$GPGGA,080559,2419.6096,N,08102.7476,W,1,9,1.5,15,M,,M,,*56
06/13/2015	08:05:59.598	$GPGGA,080600,2419.6099,N,08102.7480,W,1,9,1.5,15,M,,M,,*5F
06/13/2015	08:06:00.588	$GPGGA,080601,2419.6102,N,08102.7483,W,1,9,1.5,15,M,,M,,*5E
06/13/2015	08:06:01.568	$GPGGA,080602,2419.6104,N,08102.7489,W,1,9,1.5,15,M,,M,,*51
06/13/2015	08:06:02.598	$GPGGA,080603,2419.6106,N,08102.7493,W,1,9,1.7,15,M,,M,,*5B
06/13/2015	08:06:03.578	$GPGGA,080604,2419.6107,N,08102.7496,W,1,8,1.7,15,M,,M,,*59
06/13/2015	08:06:04.527	$GPGGA,080605,2419.6110,N,08102.7500,W,1,8,1.5,15,M,,M,,*52
06/13/2015	08:06:05.628	$GPGGA,080606,2419.6111,N,08102.7504,W,1,9,1.5,15,M,,M,,*55
06/13/2015	08:06:06.527	$GPGGA,080607,2419.6114,N,08102.7508,W,1,9,1.5,15,M,,M,,*5D
06/13/2015	08:06:07.577	$GPGGA,080608,2419.6115,N,08102.7512,W,1,9,1.5,15,M,,M,,*58
06/13/2015	08:06:08.587	$GPGGA,080609,2419.6118,N,08102.7516,W,1,9,1.5,15,M,,M,,*50
06/13/2015	08:06:09.481	$GPGGA,080610,2419.6120,N,08102.7520,W,1,9,1.5,15,M,,M,,*56
06/13/2015	08:06:10.577	$GPGGA,080611,2419.6121,N,08102.7525,W,1,9,1.5,15,M,,M,,*53
06/13/2015	08:06:11.617	$GPGGA,080612,2419.6124,N,08102.7529,W,1,9,1.5,15,M,,M,,*59
06/13/2015	08:06:12.577	$GPGGA,080613,2419.6126,N,08102.7530,W,1,9,1.5,15,M,,M,,*52
06/13/2015	08:06:13.587	$GPGGA,080614,2419.6129,N,08102.7536,W,1,9,1.5,15,M,,M,,*5C
06/13/2015	08:06:14.568	$GPGGA,080615,2419.6131,N,08102.7540,W,1,9,1.5,15,M,,M,,*55
06/13/2015	08:06:16.564	$GPGGA,080617,2419.6138,N,08102.7551,W,1,9,1.7,15,M,,M,,*5C
06/13/2015	08:06:17.588	$GPGGA,080618,2419.6140,N,08102.7554,W,1,8,1.7,15,M,,M,,*58
06/13/2015	08:06:18.563	$GPGGA,080619,2419.6140,N,08102.7559,W,1,8,1.7,15,M,,M,,*54
06/13/2015	08:06:19.588	$GPGGA,080620,2419.6143,N,08102.7563,W,1,8,1.7,15,M,,M,,*54
06/13/2015	08:06:20.552	$GPGGA,080621,2419.6147,N,08102.7569,W,1,8,1.5,15,M,,M,,*59
06/13/2015	08:06:21.578	$GPGGA,080622,2419.6151,N,08102.7572,W,1,9,1.5,15,M,,M,,*56
06/13/2015	08:06:23.027	$GPGGA,080623,2419.6154,N,08102.7579,W,1,9,1.8,15,M,,M,,*54
06/13/2015	08:06:23.597	$GPGGA,080624,2419.6156,N,08102.7583,W,1,7,1.7,15,M,,M,,*55
06/13/2015	08:06:24.550	$GPGGA,080625,2419.6158,N,08102.7587,W,1,7,1.7,15,M,,M,,*5E
06/13/2015	08:06:25.577	$GPGGA,080626,2419.6161,N,08102.7591,W,1,8,1.5,15,M,,M,,*5D
06/13/2015	08:06:26.560	$GPGGA,080627,2419.6162,N,08102.7595,W,1,8,1.5,15,M,,M,,*5B
06/13/2015	08:06:27.637	$GPGGA,080628,2419.6167,N,08102.7598,W,1,9,1.5,15,M,,M,,*5D
06/13/2015	08:06:28.537	$GPGGA,080629,2419.6169,N,08102.7603,W,1,9,1.7,15,M,,M,,*51
06/13/2015	08:06:29.561	$GPGGA,080630,2419.6169,N,08102.7603,W,1,8,1.7,15,M,,M,,*58
06/13/2015	08:06:30.549	$GPGGA,080631,2419.6172,N,08102.7608,W,1,8,1.7,15,M,,M,,*58
06/13/2015	08:06:31.597	$GPGGA,080632,2419.6179,N,08102.7619,W,1,8,1.5,15,M,,M,,*52
06/13/2015	08:06:33.028	$GPGGA,080633,2419.6180,N,08102.7623,W,1,8,1.6,15,M,,M,,*5F
06/13/2015	08:06:33.578	$GPGGA,080634,2419.6183,N,08102.7626,W,1,8,1.5,15,M,,M,,*5D
06/13/2015	08:06:34.528	$GPGGA,080635,2419.6186,N,08102.7630,W,1,8,1.5,15,M,,M,,*5E
06/13/2015	08:06:35.598	$GPGGA,080636,2419.6190,N,08102.7634,W,1,8,1.7,15,M,,M,,*5C
06/13/2015	08:06:36.528	$GPGGA,080637,2419.6191,N,08102.7637,W,1,8,1.5,15,M,,M,,*5D
06/13/2015	08:06:37.518	$GPGGA,080638,2419.6191,N,08102.7637,W,1,9,1.5,15,M,,M,,*53
06/13/2015	08:06:38.528	$GPGGA,080639,2419.6194,N,08102.7645,W,1,9,1.5,15,M,,M,,*52
06/13/2015	08:06:39.617	$GPGGA,080640,2419.6194,N,08102.7645,W,1,9,1.5,15,M,,M,,*5C
06/13/2015	08:06:40.517	$GPGGA,080641,2419.6201,N,08102.7653,W,1,9,1.7,15,M,,M,,*57
06/13/2015	08:06:41.537	$GPGGA,080642,2419.6201,N,08102.7653,W,1,8,1.7,15,M,,M,,*55
06/13/2015	08:06:42.608	$GPGGA,080643,2419.6207,N,08102.7659,W,1,8,1.7,15,M,,M,,*58
06/13/2015	08:06:43.587	$GPGGA,080644,2419.6209,N,08102.7662,W,1,7,1.5,15,M,,M,,*54
06/13/2015	08:06:44.497	$GPGGA,080645,2419.6209,N,08102.7662,W,1,7,1.5,15,M,,M,,*55
06/13/2015	08:06:45.649	$GPGGA,080646,2419.6216,N,08102.7667,W,1,9,1.5,15,M,,M,,*53
06/13/2015	08:06:46.627	$GPGGA,080647,2419.6221,N,08102.7671,W,1,9,1.5,15,M,,M,,*51
06/13/2015	08:06:47.627	$GPGGA,080648,2419.6223,N,08102.7675,W,1,8,1.7,15,M,,M,,*5B
06/13/2015	08:06:48.497	$GPGGA,080649,2419.6226,N,08102.7681,W,1,8,1.8,15,M,,M,,*5B
06/13/2015	08:06:49.608	$GPGGA,080650,2419.6230,N,08102.7684,W,1,7,1.8,15,M,,M,,*5E
06/13/2015	08:06:50.518	$GPGGA,080651,2419.6230,N,08102.7688,W,1,7,1.6,14,M,,M,,*5C
06/13/2015	08:06:51.528	$GPGGA,080652,2419.6230,N,08102.7688,W,1,8,1.6,14,M,,M,,*50
06/13/2015	08:06:52.498	$GPGGA,080653,2419.6240,N,08102.7692,W,1,8,1.7,14,M,,M,,*5C
06/13/2015	08:06:53.508	$GPGGA,080654,2419.6241,N,08102.7696,W,1,8,1.7,14,M,,M,,*5E
06/13/2015	08:06:54.578	$GPGGA,080655,2419.6244,N,08102.7700,W,1,8,1.5,14,M,,M,,*56
06/13/2015	08:06:55.628	$GPGGA,080656,2419.6248,N,08102.7704,W,1,8,1.7,14,M,,M,,*5F
06/13/2015	08:06:56.498	$GPGGA,080657,2419.6250,N,08102.7710,W,1,8,1.8,14,M,,M,,*5D
06/13/2015	08:06:57.559	$GPGGA,080658,2419.6250,N,08102.7710,W,1,8,1.7,14,M,,M,,*5D
06/13/2015	08:06:58.577	$GPGGA,080659,2419.6255,N,08102.7720,W,1,8,1.8,14,M,,M,,*55
06/13/2015	08:06:59.507	$GPGGA,080700,2419.6258,N,08102.7724,W,1,8,1.7,14,M,,M,,*5E
06/13/2015	08:07:00.477	$GPGGA,080701,2419.6259,N,08102.7727,W,1,8,1.7,14,M,,M,,*5D
06/13/2015	08:07:01.567	$GPGGA,080702,2419.6262,N,08102.7731,W,1,9,1.5,14,M,,M,,*52
06/13/2015	08:07:02.560	$GPGGA,080703,2419.6266,N,08102.7735,W,1,9,1.6,14,M,,M,,*50
06/13/2015	08:07:03.607	$GPGGA,080704,2419.6270,N,08102.7738,W,1,8,1.7,14,M,,M,,*5D
06/13/2015	08:07:04.560	$GPGGA,080705,2419.6272,N,08102.7743,W,1,8,1.7,14,M,,M,,*52
06/13/2015	08:07:05.587	$GPGGA,080706,2419.6274,N,08102.7746,W,1,8,1.7,14,M,,M,,*52
06/13/2015	08:07:06.562	$GPGGA,080707,2419.6277,N,08102.7749,W,1,8,1.7,14,M,,M,,*5F
06/13/2015	08:07:07.578	$GPGGA,080708,2419.6281,N,08102.7751,W,1,8,1.7,14,M,,M,,*50
06/13/2015	08:07:08.564	$GPGGA,080709,2419.6286,N,08102.7754,W,1,8,1.6,14,M,,M,,*52
06/13/2015	08:07:09.558	$GPGGA,080710,2419.6288,N,08102.7760,W,1,9,1.5,14,M,,M,,*51
06/13/2015	08:07:10.570	$GPGGA,080711,2419.6292,N,08102.7764,W,1,9,1.7,14,M,,M,,*5D
06/13/2015	08:07:11.588	$GPGGA,080712,2419.6297,N,08102.7767,W,1,8,1.7,14,M,,M,,*59
06/13/2015	08:07:12.556	$GPGGA,080713,2419.6301,N,08102.7768,W,1,8,1.7,14,M,,M,,*59
06/13/2015	08:07:13.562	$GPGGA,080714,2419.6302,N,08102.7774,W,1,8,1.7,14,M,,M,,*50
06/13/2015	08:07:14.561	$GPGGA,080715,2419.6305,N,08102.7776,W,1,8,1.8,14,M,,M,,*5B
06/13/2015	08:07:15.562	$GPGGA,080716,2419.6310,N,08102.7779,W,1,9,1.5,14,M,,M,,*5F
06/13/2015	08:07:16.537	$GPGGA,080717,2419.6315,N,08102.7783,W,1,9,1.5,14,M,,M,,*5E
06/13/2015	08:07:17.537	$GPGGA,080718,2419.6317,N,08102.7787,W,1,9,1.5,14,M,,M,,*57
06/13/2015	08:07:18.548	$GPGGA,080719,2419.6320,N,08102.7793,W,1,9,1.7,14,M,,M,,*55
06/13/2015	08:07:19.577	$GPGGA,080720,2419.6324,N,08102.7796,W,1,9,1.5,14,M,,M,,*5C
06/13/2015	08:07:20.527	$GPGGA,080721,2419.6328,N,08102.7800,W,1,9,1.6,14,M,,M,,*52
06/13/2015	08:07:21.527	$GPGGA,080722,2419.6331,N,08102.7803,W,1,8,1.6,14,M,,M,,*5B
06/13/2015	08:07:22.527	$GPGGA,080723,2419.6335,N,08102.7807,W,1,8,1.5,14,M,,M,,*59
06/13/2015	08:07:23.563	$GPGGA,080724,2419.6339,N,08102.7811,W,1,9,1.5,14,M,,M,,*54
06/13/2015	08:07:24.528	$GPGGA,080725,2419.6342,N,08102.7815,W,1,9,1.5,14,M,,M,,*5D
06/13/2015	08:07:25.552	$GPGGA,080726,2419.6345,N,08102.7819,W,1,9,1.5,14,M,,M,,*55
06/13/2015	08:07:26.518	$GPGGA,080727,2419.6349,N,08102.7823,W,1,9,1.5,14,M,,M,,*51
06/13/2015	08:07:27.562	$GPGGA,080728,2419.6353,N,08102.7827,W,1,9,1.5,14,M,,M,,*51
06/13/2015	08:07:28.518	$GPGGA,080729,2419.6356,N,08102.7832,W,1,9,1.5,14,M,,M,,*51
06/13/2015	08:07:29.528	$GPGGA,080730,2419.6360,N,08102.7834,W,1,9,1.5,14,M,,M,,*5A
06/13/2015	08:07:30.508	$GPGGA,080731,2419.6364,N,08102.7839,W,1,9,1.5,14,M,,M,,*52
06/13/2015	08:07:31.538	$GPGGA,080732,2419.6367,N,08102.7843,W,1,9,1.5,14,M,,M,,*5F
06/13/2015	08:07:32.517	$GPGGA,080733,2419.6371,N,08102.7847,W,1,9,1.5,14,M,,M,,*5D
06/13/2015	08:07:33.617	$GPGGA,080734,2419.6375,N,08102.7851,W,1,9,1.5,14,M,,M,,*59
06/13/2015	08:07:34.497	$GPGGA,080735,2419.6378,N,08102.7855,W,1,9,1.5,14,M,,M,,*51
06/13/2015	08:07:35.538	$GPGGA,080736,2419.6382,N,08102.7858,W,1,9,1.5,14,M,,M,,*5A
06/13/2015	08:07:36.517	$GPGGA,080737,2419.6385,N,08102.7861,W,1,9,1.5,14,M,,M,,*56
06/13/2015	08:07:37.607	$GPGGA,080738,2419.6389,N,08102.7865,W,1,9,1.5,14,M,,M,,*51
06/13/2015	08:07:38.507	$GPGGA,080739,2419.6393,N,08102.7868,W,1,9,1.5,14,M,,M,,*56
06/13/2015	08:07:39.527	$GPGGA,080740,2419.6396,N,08102.7872,W,1,9,1.5,14,M,,M,,*56
06/13/2015	08:07:40.507	$GPGGA,080741,2419.6400,N,08102.7877,W,1,9,1.7,14,M,,M,,*58
06/13/2015	08:07:41.618	$GPGGA,080742,2419.6404,N,08102.7880,W,1,9,1.5,14,M,,M,,*55
06/13/2015	08:07:42.498	$GPGGA,080743,2419.6409,N,08102.7883,W,1,9,1.5,14,M,,M,,*5A
06/13/2015	08:07:43.628	$GPGGA,080744,2419.6411,N,08102.7886,W,1,9,1.5,14,M,,M,,*51
06/13/2015	08:07:44.498	$GPGGA,080745,2419.6414,N,08102.7890,W,1,9,1.5,14,M,,M,,*52
06/13/2015	08:07:45.488	$GPGGA,080746,2419.6418,N,08102.7892,W,1,9,1.5,14,M,,M,,*5F
06/13/2015	08:07:46.588	$GPGGA,080747,2419.6422,N,08102.7895,W,1,9,1.5,14,M,,M,,*50
06/13/2015	08:07:47.598	$GPGGA,080748,2419.6427,N,08102.7901,W,1,9,1.5,14,M,,M,,*56
06/13/2015	08:07:48.578	$GPGGA,080749,2419.6428,N,08102.7904,W,1,9,1.7,14,M,,M,,*5F
06/13/2015	08:07:49.607	$GPGGA,080750,2419.6431,N,08102.7905,W,1,9,1.5,14,M,,M,,*5C
06/13/2015	08:07:50.567	$GPGGA,080751,2419.6435,N,08102.7908,W,1,9,1.5,14,M,,M,,*54
06/13/2015	08:07:52.097	$GPGGA,080752,2419.6436,N,08102.7910,W,1,9,1.5,14,M,,M,,*5D
06/13/2015	08:07:52.577	$GPGGA,080753,2419.6439,N,08102.7915,W,1,9,1.5,14,M,,M,,*56
06/13/2015	08:07:53.577	$GPGGA,080754,2419.6443,N,08102.7917,W,1,9,1.5,14,M,,M,,*5E
06/13/2015	08:07:54.567	$GPGGA,080755,2419.6449,N,08102.7923,W,1,9,1.5,15,M,,M,,*53
06/13/2015	08:07:55.567	$GPGGA,080756,2419.6451,N,08102.7927,W,1,9,1.5,15,M,,M,,*5D
06/13/2015	08:07:56.567	$GPGGA,080757,2419.6454,N,08102.7931,W,1,9,1.5,15,M,,M,,*5E
06/13/2015	08:07:57.577	$GPGGA,080758,2419.6458,N,08102.7933,W,1,9,1.5,15,M,,M,,*5F
06/13/2015	08:07:58.560	$GPGGA,080759,2419.6461,N,08102.7934,W,1,9,1.5,15,M,,M,,*53
06/13/2015	08:07:59.598	$GPGGA,080800,2419.6464,N,08102.7939,W,1,9,1.5,15,M,,M,,*58
06/13/2015	08:08:00.558	$GPGGA,080801,2419.6468,N,08102.7945,W,1,9,1.4,15,M,,M,,*5F
06/13/2015	08:08:01.549	$GPGGA,080802,2419.6472,N,08102.7951,W,1,10,1.4,15,M,,M,,*6A
06/13/2015	08:08:02.550	$GPGGA,080803,2419.6478,N,08102.7956,W,1,10,1.4,15,M,,M,,*66
06/13/2015	08:08:03.568	$GPGGA,080804,2419.6482,N,08102.7962,W,1,10,1.4,15,M,,M,,*63
06/13/2015	08:08:04.560	$GPGGA,080805,2419.6483,N,08102.7966,W,1,10,1.4,15,M,,M,,*67
06/13/2015	08:08:05.558	$GPGGA,080806,2419.6487,N,08102.7970,W,1,10,1.4,15,M,,M,,*67
06/13/2015	08:08:06.538	$GPGGA,080807,2419.6490,N,08102.7973,W,1,10,1.4,15,M,,M,,*63
06/13/2015	08:08:07.577	$GPGGA,080808,2419.6496,N,08102.7977,W,1,10,1.4,15,M,,M,,*6E
06/13/2015	08:08:08.548	$GPGGA,080809,2419.6500,N,08102.7982,W,1,10,1.4,15,M,,M,,*6B
06/13/2015	08:08:09.537	$GPGGA,080810,2419.6504,N,08102.7988,W,1,10,1.4,15,M,,M,,*6D
06/13/2015	08:08:10.549	$GPGGA,080811,2419.6507,N,08102.7991,W,1,10,1.4,15,M,,M,,*67
06/13/2015	08:08:11.648	$GPGGA,080812,2419.6511,N,08102.7995,W,1,10,1.4,15,M,,M,,*67
06/13/2015	08:08:12.547	$GPGGA,080813,2419.6514,N,08102.7998,W,1,10,1.4,15,M,,M,,*6E
06/13/2015	08:08:13.527	$GPGGA,080814,2419.6516,N,08102.8002,W,1,10,1.4,15,M,,M,,*6E
06/13/2015	08:08:14.537	$GPGGA,080815,2419.6522,N,08102.8004,W,1,10,1.4,16,M,,M,,*6D
06/13/2015	08:08:15.557	$GPGGA,080816,2419.6526,N,08102.8007,W,1,10,1.4,16,M,,M,,*69
06/13/2015	08:08:16.551	$GPGGA,080817,2419.6527,N,08102.8013,W,1,10,1.7,16,M,,M,,*6F
06/13/2015	08:08:17.528	$GPGGA,080818,2419.6530,N,08102.8016,W,1,8,1.7,16,M,,M,,*5A
06/13/2015	08:08:18.608	$GPGGA,080819,2419.6533,N,08102.8017,W,1,8,1.4,16,M,,M,,*5A
06/13/2015	08:08:19.538	$GPGGA,080820,2419.6537,N,08102.8020,W,1,10,1.4,16,M,,M,,*69
06/13/2015	08:08:20.528	$GPGGA,080821,2419.6540,N,08102.8022,W,1,10,1.4,16,M,,M,,*6A
06/13/2015	08:08:21.538	$GPGGA,080822,2419.6544,N,08102.8025,W,1,10,1.4,16,M,,M,,*6A
06/13/2015	08:08:22.598	$GPGGA,080823,2419.6548,N,08102.8029,W,1,10,1.4,16,M,,M,,*6B
06/13/2015	08:08:23.518	$GPGGA,080824,2419.6550,N,08102.8032,W,1,10,1.4,16,M,,M,,*6F
06/13/2015	08:08:24.517	$GPGGA,080825,2419.6552,N,08102.8035,W,1,10,1.4,16,M,,M,,*6B
06/13/2015	08:08:25.507	$GPGGA,080826,2419.6555,N,08102.8039,W,1,8,1.7,16,M,,M,,*59
06/13/2015	08:08:26.507	$GPGGA,080827,2419.6559,N,08102.8042,W,1,8,1.5,16,M,,M,,*5A
06/13/2015	08:08:27.607	$GPGGA,080828,2419.6563,N,08102.8046,W,1,10,1.4,16,M,,M,,*60
06/13/2015	08:08:28.507	$GPGGA,080829,2419.6566,N,08102.8050,W,1,10,1.4,16,M,,M,,*63
06/13/2015	08:08:29.597	$GPGGA,080830,2419.6570,N,08102.8056,W,1,10,1.4,16,M,,M,,*6A
06/13/2015	08:08:30.497	$GPGGA,080831,2419.6574,N,08102.8061,W,1,10,1.6,16,M,,M,,*69
06/13/2015	08:08:31.597	$GPGGA,080832,2419.6577,N,08102.8064,W,1,9,1.5,16,M,,M,,*57
06/13/2015	08:08:32.597	$GPGGA,080833,2419.6577,N,08102.8065,W,1,9,1.5,16,M,,M,,*57
06/13/2015	08:08:33.587	$GPGGA,080834,2419.6581,N,08102.8067,W,1,10,1.4,16,M,,M,,*62
06/13/2015	08:08:34.588	$GPGGA,080835,2419.6586,N,08102.8068,W,1,10,1.4,16,M,,M,,*6B
06/13/2015	08:08:35.498	$GPGGA,080836,2419.6591,N,08102.8072,W,1,10,1.4,17,M,,M,,*64
06/13/2015	08:08:36.577	$GPGGA,080837,2419.6594,N,08102.8078,W,1,10,1.5,17,M,,M,,*6B
06/13/2015	08:08:37.576	$GPGGA,080838,2419.6597,N,08102.8082,W,1,9,1.6,17,M,,M,,*59
06/13/2015	08:08:38.572	$GPGGA,080839,2419.6599,N,08102.8083,W,1,9,1.5,17,M,,M,,*54
06/13/2015	08:08:39.608	$GPGGA,080840,2419.6602,N,08102.8086,W,1,10,1.4,17,M,,M,,*67
06/13/2015	08:08:40.580	$GPGGA,080841,2419.6605,N,08102.8087,W,1,10,1.4,17,M,,M,,*60
06/13/2015	08:08:41.568	$GPGGA,080842,2419.6609,N,08102.8089,W,1,10,1.4,17,M,,M,,*61
06/13/2015	08:08:42.577	$GPGGA,080843,2419.6613,N,08102.8092,W,1,10,1.4,17,M,,M,,*61
06/13/2015	08:08:43.577	$GPGGA,080844,2419.6617,N,08102.8096,W,1,10,1.4,17,M,,M,,*66
06/13/2015	08:08:44.567	$GPGGA,080845,2419.6623,N,08102.8100,W,1,10,1.4,17,M,,M,,*6E
06/13/2015	08:08:45.577	$GPGGA,080846,2419.6627,N,08102.8103,W,1,10,1.4,17,M,,M,,*6A
06/13/2015	08:08:46.562	$GPGGA,080847,2419.6628,N,08102.8105,W,1,10,1.4,17,M,,M,,*62
06/13/2015	08:08:47.587	$GPGGA,080848,2419.6631,N,08102.8107,W,1,10,1.4,17,M,,M,,*67
06/13/2015	08:08:48.554	$GPGGA,080849,2419.6637,N,08102.8108,W,1,10,1.4,17,M,,M,,*6F
06/13/2015	08:08:49.577	$GPGGA,080850,2419.6639,N,08102.8114,W,1,10,1.4,17,M,,M,,*64
06/13/2015	08:08:50.563	$GPGGA,080851,2419.6644,N,08102.8118,W,1,10,1.4,17,M,,M,,*63
06/13/2015	08:08:51.588	$GPGGA,080852,2419.6649,N,08102.8123,W,1,10,1.4,17,M,,M,,*65
06/13/2015	08:08:52.551	$GPGGA,080853,2419.6652,N,08102.8125,W,1,10,1.4,17,M,,M,,*68
06/13/2015	08:08:53.578	$GPGGA,080854,2419.6653,N,08102.8129,W,1,10,1.4,17,M,,M,,*62
06/13/2015	08:08:54.556	$GPGGA,080855,2419.6656,N,08102.8130,W,1,10,1.4,17,M,,M,,*6E
06/13/2015	08:08:55.588	$GPGGA,080856,2419.6660,N,08102.8133,W,1,10,1.4,17,M,,M,,*6B
06/13/2015	08:08:56.538	$GPGGA,080857,2419.6664,N,08102.8139,W,1,10,1.4,17,M,,M,,*64
06/13/2015	08:08:57.538	$GPGGA,080858,2419.6669,N,08102.8143,W,1,10,1.4,17,M,,M,,*6B
06/13/2015	08:08:58.538	$GPGGA,080859,2419.6673,N,08102.8147,W,1,10,1.4,17,M,,M,,*65
06/13/2015	08:08:59.587	$GPGGA,080900,2419.6675,N,08102.8151,W,1,10,1.4,17,M,,M,,*69
06/13/2015	08:09:00.537	$GPGGA,080901,2419.6678,N,08102.8154,W,1,10,1.4,17,M,,M,,*60
06/13/2015	08:09:01.551	$GPGGA,080902,2419.6682,N,08102.8157,W,1,10,1.4,17,M,,M,,*65
06/13/2015	08:09:02.527	$GPGGA,080903,2419.6686,N,08102.8159,W,1,10,1.4,17,M,,M,,*6E
06/13/2015	08:09:03.567	$GPGGA,080904,2419.6689,N,08102.8165,W,1,10,1.4,17,M,,M,,*69
06/13/2015	08:09:04.527	$GPGGA,080905,2419.6693,N,08102.8168,W,1,10,1.4,17,M,,M,,*6E
06/13/2015	08:09:05.551	$GPGGA,080906,2419.6696,N,08102.8172,W,1,10,1.4,17,M,,M,,*63
06/13/2015	08:09:06.527	$GPGGA,080907,2419.6700,N,08102.8176,W,1,10,1.4,17,M,,M,,*68
06/13/2015	08:09:07.537	$GPGGA,080908,2419.6703,N,08102.8179,W,1,10,1.4,17,M,,M,,*6B
06/13/2015	08:09:08.527	$GPGGA,080909,2419.6707,N,08102.8180,W,1,10,1.4,17,M,,M,,*68
06/13/2015	08:09:09.608	$GPGGA,080910,2419.6710,N,08102.8184,W,1,10,1.4,17,M,,M,,*62
06/13/2015	08:09:10.518	$GPGGA,080911,2419.6711,N,08102.8188,W,1,10,1.4,17,M,,M,,*6E
06/13/2015	08:09:11.618	$GPGGA,080912,2419.6714,N,08102.8193,W,1,10,1.4,17,M,,M,,*62
06/13/2015	08:09:12.598	$GPGGA,080913,2419.6718,N,08102.8195,W,1,10,1.4,17,M,,M,,*69
06/13/2015	08:09:13.508	$GPGGA,080914,2419.6721,N,08102.8199,W,1,10,1.4,17,M,,M,,*68
06/13/2015	08:09:14.618	$GPGGA,080915,2419.6724,N,08102.8204,W,1,10,1.4,17,M,,M,,*6B
06/13/2015	08:09:15.608	$GPGGA,080916,2419.6729,N,08102.8205,W,1,9,1.5,17,M,,M,,*5D
06/13/2015	08:09:16.508	$GPGGA,080917,2419.6734,N,08102.8208,W,1,9,1.5,17,M,,M,,*5D
06/13/2015	08:09:17.517	$GPGGA,080918,2419.6738,N,08102.8212,W,1,9,1.5,17,M,,M,,*55
06/13/2015	08:09:18.587	$GPGGA,080919,2419.6740,N,08102.8215,W,1,9,1.5,17,M,,M,,*5C
06/13/2015	08:09:19.517	$GPGGA,080920,2419.6745,N,08102.8217,W,1,9,1.5,17,M,,M,,*51
06/13/2015	08:09:20.507	$GPGGA,080921,2419.6747,N,08102.8219,W,1,9,1.5,17,M,,M,,*5C
06/13/2015	08:09:21.497	$GPGGA,080922,2419.6750,N,08102.8223,W,1,9,1.5,17,M,,M,,*50
06/13/2015	08:09:22.497	$GPGGA,080923,2419.6754,N,08102.8226,W,1,9,1.5,17,M,,M,,*50
06/13/2015	08:09:23.627	$GPGGA,080924,2419.6758,N,08102.8230,W,1,9,1.5,17,M,,M,,*5C
06/13/2015	08:09:24.577	$GPGGA,080925,2419.6761,N,08102.8233,W,1,9,1.5,17,M,,M,,*54
06/13/2015	08:09:25.487	$GPGGA,080926,2419.6764,N,08102.8238,W,1,9,1.5,17,M,,M,,*59
06/13/2015	08:09:26.578	$GPGGA,080927,2419.6767,N,08102.8241,W,1,9,1.5,17,M,,M,,*55
06/13/2015	08:09:27.598	$GPGGA,080928,2419.6769,N,08102.8244,W,1,9,1.5,17,M,,M,,*51
06/13/2015	08:09:28.578	$GPGGA,080929,2419.6772,N,08102.8246,W,1,9,1.5,17,M,,M,,*58
06/13/2015	08:09:29.588	$GPGGA,080930,2419.6776,N,08102.8251,W,1,9,1.5,17,M,,M,,*52
06/13/2015	08:09:30.578	$GPGGA,080931,2419.6779,N,08102.8255,W,1,9,1.5,17,M,,M,,*58
06/13/2015	08:09:31.588	$GPGGA,080932,2419.6783,N,08102.8259,W,1,9,1.5,17,M,,M,,*52
06/13/2015	08:09:32.568	$GPGGA,080933,2419.6786,N,08102.8263,W,1,9,1.5,17,M,,M,,*5F
06/13/2015	08:09:33.568	$GPGGA,080934,2419.6792,N,08102.8267,W,1,9,1.5,17,M,,M,,*59
06/13/2015	08:09:34.567	$GPGGA,080935,2419.6794,N,08102.8270,W,1,9,1.5,17,M,,M,,*58
06/13/2015	08:09:35.587	$GPGGA,080936,2419.6797,N,08102.8273,W,1,9,1.5,17,M,,M,,*5B
06/13/2015	08:09:36.556	$GPGGA,080937,2419.6801,N,08102.8277,W,1,9,1.5,17,M,,M,,*5E
06/13/2015	08:09:37.550	$GPGGA,080938,2419.6807,N,08102.8280,W,1,9,1.5,17,M,,M,,*5F
06/13/2015	08:09:38.559	$GPGGA,080939,2419.6810,N,08102.8284,W,1,9,1.5,17,M,,M,,*5C
06/13/2015	08:09:39.597	$GPGGA,080940,2419.6812,N,08102.8289,W,1,9,1.5,17,M,,M,,*5D
06/13/2015	08:09:40.548	$GPGGA,080941,2419.6816,N,08102.8292,W,1,9,1.5,17,M,,M,,*52
06/13/2015	08:09:41.567	$GPGGA,080942,2419.6821,N,08102.8295,W,1,9,1.5,17,M,,M,,*52
06/13/2015	08:09:42.559	$GPGGA,080943,2419.6823,N,08102.8298,W,1,9,1.5,17,M,,M,,*5C
06/13/2015	08:09:43.552	$GPGGA,080944,2419.6828,N,08102.8300,W,1,9,1.5,17,M,,M,,*50
06/13/2015	08:09:44.551	$GPGGA,080945,2419.6830,N,08102.8305,W,1,9,1.5,17,M,,M,,*5D
06/13/2015	08:09:45.554	$GPGGA,080946,2419.6834,N,08102.8309,W,1,9,1.5,17,M,,M,,*56
06/13/2015	08:09:47.898	$GPGGA,080948,2419.6841,N,08102.8316,W,1,8,1.9,17,M,,M,,*59
06/13/2015	08:09:48.552	$GPGGA,080949,2419.6847,N,08102.8318,W,1,8,1.5,17,M,,M,,*5C
06/13/2015	08:09:49.538	$GPGGA,080950,2419.6850,N,08102.8322,W,1,9,1.5,17,M,,M,,*5A
06/13/2015	08:09:50.538	$GPGGA,080951,2419.6852,N,08102.8324,W,1,9,1.8,17,M,,M,,*52
06/13/2015	08:09:51.548	$GPGGA,080952,2419.6857,N,08102.8327,W,1,9,1.5,17,M,,M,,*5A
06/13/2015	08:09:52.537	$GPGGA,080953,2419.6861,N,08102.8332,W,1,9,1.8,17,M,,M,,*57
06/13/2015	08:09:53.517	$GPGGA,080954,2419.6865,N,08102.8335,W,1,9,1.5,17,M,,M,,*5E
06/13/2015	08:09:54.517	$GPGGA,080955,2419.6869,N,08102.8340,W,1,9,1.8,17,M,,M,,*5C
06/13/2015	08:09:55.577	$GPGGA,080956,2419.6873,N,08102.8342,W,1,9,1.5,17,M,,M,,*5B
06/13/2015	08:09:56.527	$GPGGA,080957,2419.6877,N,08102.8345,W,1,9,1.5,17,M,,M,,*59
06/13/2015	08:09:57.537	$GPGGA,080958,2419.6880,N,08102.8347,W,1,9,1.5,17,M,,M,,*5C
06/13/2015	08:09:58.528	$GPGGA,080959,2419.6884,N,08102.8349,W,1,9,1.5,17,M,,M,,*57
06/13/2015	08:09:59.537	$GPGGA,081000,2419.6887,N,08102.8353,W,1,9,1.5,17,M,,M,,*5B
06/13/2015	08:10:00.527	$GPGGA,081001,2419.6891,N,08102.8356,W,1,9,1.5,17,M,,M,,*58
06/13/2015	08:10:01.528	$GPGGA,081002,2419.6895,N,08102.8360,W,1,9,1.5,17,M,,M,,*5A
06/13/2015	08:10:02.508	$GPGGA,081003,2419.6899,N,08102.8364,W,1,9,1.5,17,M,,M,,*53
06/13/2015	08:10:03.538	$GPGGA,081004,2419.6902,N,08102.8368,W,1,9,1.5,17,M,,M,,*5B
06/13/2015	08:10:04.498	$GPGGA,081005,2419.6906,N,08102.8371,W,1,9,1.5,17,M,,M,,*56
06/13/2015	08:10:05.518	$GPGGA,081006,2419.6909,N,08102.8374,W,1,9,1.5,18,M,,M,,*50
06/13/2015	08:10:06.508	$GPGGA,081007,2419.6913,N,08102.8376,W,1,9,1.6,18,M,,M,,*5B
06/13/2015	08:10:07.668	$GPGGA,081008,2419.6917,N,08102.8379,W,1,9,1.5,18,M,,M,,*5C
06/13/2015	08:10:08.508	$GPGGA,081009,2419.6920,N,08102.8385,W,1,9,1.5,18,M,,M,,*5A
06/13/2015	08:10:09.597	$GPGGA,081010,2419.6926,N,08102.8386,W,1,8,1.8,18,M,,M,,*5B
06/13/2015	08:10:10.507	$GPGGA,081011,2419.6931,N,08102.8389,W,1,8,1.8,18,M,,M,,*53
06/13/2015	08:10:11.607	$GPGGA,081012,2419.6935,N,08102.8389,W,1,8,1.5,18,M,,M,,*59
06/13/2015	08:10:12.497	$GPGGA,081013,2419.6938,N,08102.8393,W,1,8,1.5,18,M,,M,,*5E
06/13/2015	08:10:13.587	$GPGGA,081014,2419.6942,N,08102.8396,W,1,9,1.5,18,M,,M,,*50
06/13/2015	08:10:14.587	$GPGGA,081015,2419.6946,N,08102.8400,W,1,9,1.5,18,M,,M,,*5D
06/13/2015	08:10:15.617	$GPGGA,081016,2419.6949,N,08102.8403,W,1,9,1.5,18,M,,M,,*52
06/13/2015	08:10:16.577	$GPGGA,081017,2419.6953,N,08102.8405,W,1,9,1.8,18,M,,M,,*53
06/13/2015	08:10:17.597	$GPGGA,081018,2419.6956,N,08102.8410,W,1,8,1.5,18,M,,M,,*51
06/13/2015	08:10:18.577	$GPGGA,081019,2419.6958,N,08102.8414,W,1,8,1.6,18,M,,M,,*59
06/13/2015	08:10:19.618	$GPGGA,081020,2419.6960,N,08102.8419,W,1,8,1.5,18,M,,M,,*56
06/13/2015	08:10:20.569	$GPGGA,081021,2419.6964,N,08102.8421,W,1,8,1.5,18,M,,M,,*58
06/13/2015	08:10:21.598	$GPGGA,081022,2419.6967,N,08102.8423,W,1,9,1.5,18,M,,M,,*5B
06/13/2015	08:10:22.562	$GPGGA,081023,2419.6971,N,08102.8428,W,1,9,1.6,18,M,,M,,*55
06/13/2015	08:10:23.598	$GPGGA,081024,2419.6973,N,08102.8432,W,1,8,1.6,18,M,,M,,*5A
06/13/2015	08:10:24.564	$GPGGA,081025,2419.6977,N,08102.8433,W,1,8,1.5,18,M,,M,,*5D
06/13/2015	08:10:25.598	$GPGGA,081026,2419.6978,N,08102.8436,W,1,9,1.6,18,M,,M,,*56
06/13/2015	08:10:28.054	$GPGGA,081028,2419.6985,N,08102.8443,W,1,9,1.5,18,M,,M,,*5B
06/13/2015	08:10:28.559	$GPGGA,081029,2419.6988,N,08102.8447,W,1,9,1.6,18,M,,M,,*50
06/13/2015	08:10:29.547	$GPGGA,081030,2419.6989,N,08102.8451,W,1,8,1.6,18,M,,M,,*5F
06/13/2015	08:10:30.559	$GPGGA,081031,2419.6992,N,08102.8455,W,1,8,1.6,18,M,,M,,*50
06/13/2015	08:10:31.577	$GPGGA,081032,2419.6995,N,08102.8458,W,1,8,1.5,18,M,,M,,*5A
06/13/2015	08:10:32.547	$GPGGA,081033,2419.6996,N,08102.8462,W,1,8,1.6,18,M,,M,,*52
06/13/2015	08:10:33.556	$GPGGA,081034,2419.6999,N,08102.8465,W,1,8,1.6,18,M,,M,,*5D
06/13/2015	08:10:34.537	$GPGGA,081035,2419.7002,N,08102.8469,W,1,8,1.6,18,M,,M,,*5A
06/13/2015	08:10:35.617	$GPGGA,081036,2419.7003,N,08102.8475,W,1,8,2.0,18,M,,M,,*50
06/13/2015	08:10:36.549	$GPGGA,081037,2419.7006,N,08102.8479,W,1,8,1.6,18,M,,M,,*5D
06/13/2015	08:10:37.538	$GPGGA,081038,2419.7010,N,08102.8480,W,1,8,1.5,18,M,,M,,*50
06/13/2015	08:10:38.538	$GPGGA,081039,2419.7011,N,08102.8483,W,1,8,1.5,18,M,,M,,*53
06/13/2015	08:10:39.588	$GPGGA,081040,2419.7011,N,08102.8486,W,1,9,1.8,18,M,,M,,*54
06/13/2015	08:10:40.818	$GPGGA,081041,2419.7014,N,08102.8488,W,1,9,1.5,18,M,,M,,*53
06/13/2015	08:10:41.553	$GPGGA,081042,2419.7018,N,08102.8493,W,1,9,1.6,18,M,,M,,*55
06/13/2015	08:10:42.554	$GPGGA,081043,2419.7021,N,08102.8498,W,1,9,1.6,18,M,,M,,*55
06/13/2015	08:10:43.568	$GPGGA,081044,2419.7023,N,08102.8502,W,1,8,1.5,18,M,,M,,*50
06/13/2015	08:10:44.527	$GPGGA,081045,2419.7025,N,08102.8504,W,1,8,1.5,18,M,,M,,*51
06/13/2015	08:10:45.550	$GPGGA,081046,2419.7028,N,08102.8506,W,1,9,1.6,18,M,,M,,*5F
06/13/2015	08:10:46.517	$GPGGA,081047,2419.7029,N,08102.8509,W,1,9,1.6,18,M,,M,,*50
06/13/2015	08:10:47.527	$GPGGA,081048,2419.7035,N,08102.8511,W,1,8,1.5,18,M,,M,,*59
06/13/2015	08:10:48.607	$GPGGA,081049,2419.7036,N,08102.8515,W,1,8,1.6,18,M,,M,,*5C
06/13/2015	08:10:49.548	$GPGGA,081050,2419.7039,N,08102.8520,W,1,8,1.6,18,M,,M,,*5D
06/13/2015	08:10:50.507	$GPGGA,081051,2419.7042,N,08102.8524,W,1,8,1.5,18,M,,M,,*57
06/13/2015	08:10:51.637	$GPGGA,081052,2419.7043,N,08102.8529,W,1,9,1.5,18,M,,M,,*59
06/13/2015	08:10:52.537	$GPGGA,081053,2419.7045,N,08102.8531,W,1,9,1.5,18,M,,M,,*57
06/13/2015	08:10:53.627	$GPGGA,081054,2419.7046,N,08102.8534,W,1,9,1.5,18,M,,M,,*56
06/13/2015	08:10:54.528	$GPGGA,081055,2419.7050,N,08102.8537,W,1,9,1.5,18,M,,M,,*53
06/13/2015	08:10:55.638	$GPGGA,081056,2419.7053,N,08102.8540,W,1,9,1.5,18,M,,M,,*53
06/13/2015	08:10:56.528	$GPGGA,081057,2419.7054,N,08102.8544,W,1,9,1.5,18,M,,M,,*51
06/13/2015	08:10:57.608	$GPGGA,081058,2419.7057,N,08102.8548,W,1,9,1.5,18,M,,M,,*51
06/13/2015	08:10:58.608	$GPGGA,081059,2419.7060,N,08102.8551,W,1,9,1.5,18,M,,M,,*5C
06/13/2015	08:10:59.553	$GPGGA,081100,2419.7063,N,08102.8552,W,1,9,1.5,18,M,,M,,*51
06/13/2015	08:11:00.578	$GPGGA,081101,2419.7067,N,08102.8555,W,1,9,1.5,18,M,,M,,*53
06/13/2015	08:11:01.628	$GPGGA,081102,2419.7068,N,08102.8558,W,1,9,1.5,18,M,,M,,*52
06/13/2015	08:11:02.507	$GPGGA,081103,2419.7071,N,08102.8562,W,1,9,1.5,18,M,,M,,*52
06/13/2015	08:11:03.588	$GPGGA,081104,2419.7074,N,08102.8566,W,1,9,1.5,18,M,,M,,*54
06/13/2015	08:11:04.567	$GPGGA,081105,2419.7078,N,08102.8569,W,1,9,1.5,18,M,,M,,*56
06/13/2015	08:11:05.577	$GPGGA,081106,2419.7081,N,08102.8571,W,1,9,1.5,18,M,,M,,*5A
06/13/2015	08:11:06.577	$GPGGA,081107,2419.7082,N,08102.8574,W,1,9,1.5,18,M,,M,,*5D
06/13/2015	08:11:07.587	$GPGGA,081108,2419.7085,N,08102.8577,W,1,9,1.5,18,M,,M,,*56
06/13/2015	08:11:08.567	$GPGGA,081109,2419.7087,N,08102.8580,W,1,9,1.5,18,M,,M,,*5D
06/13/2015	08:11:09.549	$GPGGA,081110,2419.7090,N,08102.8584,W,1,9,1.5,18,M,,M,,*57
06/13/2015	08:11:10.558	$GPGGA,081111,2419.7093,N,08102.8588,W,1,9,1.5,18,M,,M,,*59
06/13/2015	08:11:11.607	$GPGGA,081112,2419.7096,N,08102.8592,W,1,9,1.5,18,M,,M,,*54
06/13/2015	08:11:12.547	$GPGGA,081113,2419.7097,N,08102.8596,W,1,9,1.5,18,M,,M,,*50
06/13/2015	08:11:13.559	$GPGGA,081114,2419.7103,N,08102.8598,W,1,8,1.8,18,M,,M,,*59
06/13/2015	08:11:14.559	$GPGGA,081115,2419.7103,N,08102.8598,W,1,8,1.8,18,M,,M,,*58
06/13/2015	08:11:15.557	$GPGGA,081116,2419.7108,N,08102.8605,W,1,8,1.9,18,M,,M,,*56
06/13/2015	08:11:16.543	$GPGGA,081117,2419.7112,N,08102.8609,W,1,8,1.8,18,M,,M,,*51
06/13/2015	08:11:17.538	$GPGGA,081118,2419.7117,N,08102.8613,W,1,9,1.5,18,M,,M,,*5C
06/13/2015	08:11:18.551	$GPGGA,081119,2419.7121,N,08102.8620,W,1,9,1.5,18,M,,M,,*58
06/13/2015	08:11:19.576	$GPGGA,081120,2419.7125,N,08102.8623,W,1,9,1.5,18,M,,M,,*55
06/13/2015	08:11:20.549	$GPGGA,081121,2419.7129,N,08102.8624,W,1,9,1.5,18,M,,M,,*5F
06/13/2015	08:11:21.526	$GPGGA,081122,2419.7132,N,08102.8627,W,1,9,1.5,18,M,,M,,*55
06/13/2015	08:11:22.540	$GPGGA,081123,2419.7136,N,08102.8631,W,1,9,1.5,18,M,,M,,*57
06/13/2015	08:11:23.567	$GPGGA,081124,2419.7141,N,08102.8635,W,1,8,1.6,18,M,,M,,*56
06/13/2015	08:11:25.597	$GPGGA,081126,2419.7151,N,08102.8642,W,1,8,1.8,18,M,,M,,*5B
06/13/2015	08:11:26.537	$GPGGA,081127,2419.7154,N,08102.8643,W,1,8,1.5,18,M,,M,,*53
06/13/2015	08:11:28.554	$GPGGA,081129,2419.7162,N,08102.8649,W,1,9,1.5,19,M,,M,,*52
06/13/2015	08:11:29.517	$GPGGA,081130,2419.7164,N,08102.8652,W,1,9,1.5,19,M,,M,,*56
06/13/2015	08:11:30.527	$GPGGA,081131,2419.7166,N,08102.8656,W,1,9,1.5,19,M,,M,,*51
06/13/2015	08:11:31.577	$GPGGA,081132,2419.7170,N,08102.8660,W,1,8,1.9,19,M,,M,,*5D
06/13/2015	08:11:32.527	$GPGGA,081133,2419.7172,N,08102.8664,W,1,8,1.5,19,M,,M,,*56
06/13/2015	08:11:33.507	$GPGGA,081134,2419.7171,N,08102.8670,W,1,9,1.5,19,M,,M,,*56
06/13/2015	08:11:34.517	$GPGGA,081135,2419.7175,N,08102.8669,W,1,9,2.0,19,M,,M,,*5D
06/13/2015	08:11:35.542	$GPGGA,081136,2419.7177,N,08102.8671,W,1,8,1.6,19,M,,M,,*51
06/13/2015	08:11:36.507	$GPGGA,081137,2419.7180,N,08102.8676,W,1,8,1.5,19,M,,M,,*5C
06/13/2015	08:11:37.516	$GPGGA,081138,2419.7182,N,08102.8681,W,1,9,1.5,19,M,,M,,*58
06/13/2015	08:11:38.496	$GPGGA,081139,2419.7184,N,08102.8688,W,1,9,1.5,19,M,,M,,*56
06/13/2015	08:11:39.547	$GPGGA,081140,2419.7187,N,08102.8692,W,1,9,1.5,20,M,,M,,*5A
06/13/2015	08:11:40.507	$GPGGA,081141,2419.7190,N,08102.8696,W,1,9,1.6,20,M,,M,,*5A
06/13/2015	08:11:41.517	$GPGGA,081142,2419.7193,N,08102.8700,W,1,8,1.6,20,M,,M,,*55
06/13/2015	08:11:42.497	$GPGGA,081143,2419.7195,N,08102.8703,W,1,8,1.6,20,M,,M,,*51
06/13/2015	08:11:43.540	$GPGGA,081144,2419.7198,N,08102.8706,W,1,9,1.5,19,M,,M,,*56
06/13/2015	08:11:44.487	$GPGGA,081145,2419.7204,N,08102.8708,W,1,9,1.5,19,M,,M,,*5F
06/13/2015	08:11:45.477	$GPGGA,081146,2419.7206,N,08102.8714,W,1,9,1.5,19,M,,M,,*53
06/13/2015	08:11:46.487	$GPGGA,081147,2419.7209,N,08102.8719,W,1,9,1.5,19,M,,M,,*50
06/13/2015	08:11:47.597	$GPGGA,081148,2419.7213,N,08102.8723,W,1,8,1.6,19,M,,M,,*5F
06/13/2015	08:11:48.577	$GPGGA,081149,2419.7217,N,08102.8725,W,1,8,1.6,19,M,,M,,*5C
06/13/2015	08:11:49.607	$GPGGA,081150,2419.7219,N,08102.8728,W,1,9,1.5,19,M,,M,,*55
06/13/2015	08:11:50.577	$GPGGA,081151,2419.7220,N,08102.8732,W,1,9,1.5,19,M,,M,,*55
06/13/2015	08:11:51.617	$GPGGA,081152,2419.7224,N,08102.8735,W,1,8,1.6,19,M,,M,,*57
06/13/2015	08:11:52.487	$GPGGA,081153,2419.7230,N,08102.8739,W,1,8,1.5,19,M,,M,,*5C
06/13/2015	08:11:53.477	$GPGGA,081154,2419.7231,N,08102.8744,W,1,9,1.5,19,M,,M,,*51
06/13/2015	08:11:54.566	$GPGGA,081155,2419.7235,N,08102.8750,W,1,9,1.6,19,M,,M,,*52
