Software Version Number: 1	Data File Format Number: 1	Build Version Number: 1	Error Count Since VI Started: 1	Manufacturer: Raytheon	 Model Number: RayMarine 120	 S/N: 	 Cal Date: 	 Wind Direction Offset: 0.00	 Slope (M)1: 0.00	 Offset (B)1: 0.00	 Slope (M)2: 0.00	 Offset (B)2: 0.00	 Slope (M)3: 0.00	 Offset (B)3: 0.00	 Slope (M)4: 0.00	 Offset (B)4: 0.00	 Slope (M)5: 0.00	 Offset (B)5: 0.00	 Slope (M)6: 0.00	 Offset (B)6: 0.00
Computer Date	Computer Time	GGA String
06/15/2015	05:00:00.557	$GPGGA,050001,2423.2952,N,08052.6057,W,1,10,1.5,17,M,,M,,*67
06/15/2015	05:00:01.557	$GPGGA,050002,2423.2945,N,08052.6042,W,1,10,1.5,17,M,,M,,*66
06/15/2015	05:00:02.537	$GPGGA,050003,2423.2935,N,08052.6029,W,1,10,1.5,17,M,,M,,*6D
06/15/2015	05:00:03.567	$GPGGA,050004,2423.2928,N,08052.6012,W,1,10,1.5,17,M,,M,,*6E
06/15/2015	05:00:04.547	$GPGGA,050005,2423.2922,N,08052.5994,W,1,10,1.6,17,M,,M,,*62
06/15/2015	05:00:05.537	$GPGGA,050006,2423.2916,N,08052.5979,W,1,10,1.5,17,M,,M,,*66
06/15/2015	05:00:06.537	$GPGGA,050007,2423.2907,N,08052.5965,W,1,10,1.5,17,M,,M,,*6A
06/15/2015	05:00:07.537	$GPGGA,050008,2423.2899,N,08052.5950,W,1,10,1.5,17,M,,M,,*65
06/15/2015	05:00:08.537	$GPGGA,050009,2423.2893,N,08052.5933,W,1,10,1.5,17,M,,M,,*6B
06/15/2015	05:00:09.548	$GPGGA,050010,2423.2886,N,08052.5918,W,1,10,1.5,17,M,,M,,*6E
06/15/2015	05:00:10.528	$GPGGA,050011,2423.2878,N,08052.5903,W,1,10,1.5,17,M,,M,,*64
06/15/2015	05:00:11.568	$GPGGA,050012,2423.2871,N,08052.5886,W,1,10,1.5,17,M,,M,,*62
06/15/2015	05:00:12.517	$GPGGA,050013,2423.2863,N,08052.5871,W,1,10,1.5,17,M,,M,,*68
06/15/2015	05:00:13.547	$GPGGA,050014,2423.2854,N,08052.5858,W,1,10,1.5,17,M,,M,,*60
06/15/2015	05:00:14.505	$GPGGA,050015,2423.2849,N,08052.5841,W,1,10,1.5,17,M,,M,,*65
06/15/2015	05:00:15.537	$GPGGA,050016,2423.2842,N,08052.5823,W,1,10,1.5,17,M,,M,,*69
06/15/2015	05:00:16.527	$GPGGA,050017,2423.2833,N,08052.5811,W,1,10,1.5,17,M,,M,,*6F
06/15/2015	05:00:17.617	$GPGGA,050018,2423.2825,N,08052.5797,W,1,10,1.5,17,M,,M,,*66
06/15/2015	05:00:18.499	$GPGGA,050019,2423.2820,N,08052.5779,W,1,10,1.5,17,M,,M,,*62
06/15/2015	05:00:20.547	$GPGGA,050021,2423.2804,N,08052.5751,W,1,10,1.5,17,M,,M,,*65
06/15/2015	05:00:21.508	$GPGGA,050022,2423.2798,N,08052.5735,W,1,10,1.5,17,M,,M,,*6E
06/15/2015	05:00:22.487	$GPGGA,050023,2423.2792,N,08052.5718,W,1,10,1.5,17,M,,M,,*6A
06/15/2015	05:00:23.627	$GPGGA,050024,2423.2784,N,08052.5705,W,1,10,1.5,17,M,,M,,*66
06/15/2015	05:00:24.601	$GPGGA,050025,2423.2776,N,08052.5692,W,1,10,1.5,17,M,,M,,*65
06/15/2015	05:00:25.617	$GPGGA,050026,2423.2768,N,08052.5676,W,1,10,1.5,17,M,,M,,*63
06/15/2015	05:00:26.511	$GPGGA,050027,2423.2762,N,08052.5659,W,1,10,1.5,17,M,,M,,*65
06/15/2015	05:00:27.500	$GPGGA,050028,2423.2755,N,08052.5645,W,1,10,1.5,17,M,,M,,*63
06/15/2015	05:00:28.503	$GPGGA,050029,2423.2746,N,08052.5633,W,1,10,1.5,17,M,,M,,*61
06/15/2015	05:00:29.612	$GPGGA,050030,2423.2738,N,08052.5617,W,1,10,1.5,17,M,,M,,*66
06/15/2015	05:00:30.487	$GPGGA,050031,2423.2733,N,08052.5600,W,1,10,1.5,17,M,,M,,*6A
06/15/2015	05:00:31.602	$GPGGA,050032,2423.2726,N,08052.5585,W,1,10,1.5,17,M,,M,,*63
06/15/2015	05:00:32.567	$GPGGA,050033,2423.2717,N,08052.5573,W,1,10,1.5,17,M,,M,,*69
06/15/2015	05:00:33.577	$GPGGA,050034,2423.2710,N,08052.5558,W,1,10,1.5,17,M,,M,,*60
06/15/2015	05:00:34.577	$GPGGA,050035,2423.2704,N,08052.5542,W,1,10,1.5,17,M,,M,,*6F
06/15/2015	05:00:35.597	$GPGGA,050036,2423.2695,N,08052.5528,W,1,10,1.5,17,M,,M,,*69
06/15/2015	05:00:36.567	$GPGGA,050037,2423.2687,N,08052.5515,W,1,10,1.5,16,M,,M,,*64
06/15/2015	05:00:37.600	$GPGGA,050038,2423.2680,N,08052.5501,W,1,10,1.5,16,M,,M,,*69
06/15/2015	05:00:38.557	$GPGGA,050039,2423.2672,N,08052.5485,W,1,10,1.5,16,M,,M,,*68
06/15/2015	05:00:39.587	$GPGGA,050040,2423.2665,N,08052.5470,W,1,10,1.5,16,M,,M,,*6A
06/15/2015	05:00:40.577	$GPGGA,050041,2423.2656,N,08052.5458,W,1,10,1.5,16,M,,M,,*61
06/15/2015	05:00:41.577	$GPGGA,050042,2423.2650,N,08052.5444,W,1,10,1.5,16,M,,M,,*69
06/15/2015	05:00:42.547	$GPGGA,050043,2423.2643,N,08052.5428,W,1,10,1.5,16,M,,M,,*60
06/15/2015	05:00:43.557	$GPGGA,050044,2423.2633,N,08052.5413,W,1,10,1.5,16,M,,M,,*68
06/15/2015	05:00:44.558	$GPGGA,050045,2423.2625,N,08052.5401,W,1,10,1.5,16,M,,M,,*6D
06/15/2015	05:00:45.568	$GPGGA,050046,2423.2617,N,08052.5387,W,1,9,1.6,16,M,,M,,*5D
06/15/2015	05:00:46.548	$GPGGA,050047,2423.2610,N,08052.5371,W,1,9,1.5,16,M,,M,,*51
06/15/2015	05:00:47.587	$GPGGA,050048,2423.2601,N,08052.5357,W,1,10,1.5,16,M,,M,,*62
06/15/2015	05:00:48.537	$GPGGA,050049,2423.2593,N,08052.5343,W,1,10,1.5,16,M,,M,,*6E
06/15/2015	05:00:49.547	$GPGGA,050050,2423.2586,N,08052.5328,W,1,10,1.5,16,M,,M,,*6F
06/15/2015	05:00:50.547	$GPGGA,050051,2423.2578,N,08052.5313,W,1,10,1.5,16,M,,M,,*67
06/15/2015	05:00:51.567	$GPGGA,050052,2423.2571,N,08052.5301,W,1,10,1.5,16,M,,M,,*6E
06/15/2015	05:00:52.537	$GPGGA,050053,2423.2562,N,08052.5286,W,1,10,1.5,16,M,,M,,*63
06/15/2015	05:00:53.547	$GPGGA,050054,2423.2556,N,08052.5270,W,1,10,1.5,16,M,,M,,*6A
06/15/2015	05:00:54.537	$GPGGA,050055,2423.2550,N,08052.5257,W,1,10,1.5,16,M,,M,,*68
06/15/2015	05:00:55.537	$GPGGA,050056,2423.2540,N,08052.5243,W,1,10,1.5,16,M,,M,,*6F
06/15/2015	05:00:56.537	$GPGGA,050057,2423.2534,N,08052.5228,W,1,10,1.5,16,M,,M,,*60
06/15/2015	05:00:57.517	$GPGGA,050058,2423.2528,N,08052.5212,W,1,10,1.5,16,M,,M,,*6B
06/15/2015	05:00:58.537	$GPGGA,050059,2423.2520,N,08052.5199,W,1,10,1.5,16,M,,M,,*62
06/15/2015	05:00:59.567	$GPGGA,050100,2423.2514,N,08052.5184,W,1,10,1.5,16,M,,M,,*64
06/15/2015	05:01:00.517	$GPGGA,050101,2423.2507,N,08052.5168,W,1,10,1.5,16,M,,M,,*65
06/15/2015	05:01:01.518	$GPGGA,050102,2423.2498,N,08052.5155,W,1,10,1.5,16,M,,M,,*6F
06/15/2015	05:01:02.528	$GPGGA,050103,2423.2492,N,08052.5141,W,1,10,1.5,16,M,,M,,*61
06/15/2015	05:01:03.703	$GPGGA,050104,2423.2486,N,08052.5125,W,1,10,1.5,16,M,,M,,*61
06/15/2015	05:01:04.538	$GPGGA,050105,2423.2477,N,08052.5110,W,1,10,1.5,16,M,,M,,*68
06/15/2015	05:01:05.500	$GPGGA,050106,2423.2470,N,08052.5098,W,1,10,1.5,17,M,,M,,*6C
06/15/2015	05:01:06.637	$GPGGA,050107,2423.2466,N,08052.5083,W,1,10,1.5,17,M,,M,,*60
06/15/2015	05:01:07.701	$GPGGA,050108,2423.2458,N,08052.5067,W,1,10,1.5,17,M,,M,,*68
06/15/2015	05:01:08.517	$GPGGA,050109,2423.2450,N,08052.5054,W,1,10,1.5,17,M,,M,,*61
06/15/2015	05:01:09.487	$GPGGA,050110,2423.2444,N,08052.5041,W,1,10,1.5,17,M,,M,,*68
06/15/2015	05:01:10.508	$GPGGA,050111,2423.2438,N,08052.5025,W,1,10,1.5,17,M,,M,,*60
06/15/2015	05:01:11.699	$GPGGA,050112,2423.2431,N,08052.5012,W,1,10,1.5,17,M,,M,,*6E
06/15/2015	05:01:12.510	$GPGGA,050113,2423.2422,N,08052.4998,W,1,10,1.5,17,M,,M,,*67
06/15/2015	05:01:13.687	$GPGGA,050114,2423.2417,N,08052.4983,W,1,10,1.5,17,M,,M,,*6C
06/15/2015	05:01:14.499	$GPGGA,050115,2423.2412,N,08052.4968,W,1,10,1.5,17,M,,M,,*6D
06/15/2015	05:01:15.500	$GPGGA,050116,2423.2403,N,08052.4953,W,1,10,1.5,17,M,,M,,*66
06/15/2015	05:01:16.617	$GPGGA,050117,2423.2395,N,08052.4939,W,1,10,1.5,17,M,,M,,*63
06/15/2015	05:01:17.577	$GPGGA,050118,2423.2390,N,08052.4924,W,1,10,1.5,17,M,,M,,*65
06/15/2015	05:01:18.487	$GPGGA,050119,2423.2383,N,08052.4909,W,1,10,1.5,17,M,,M,,*69
06/15/2015	05:01:19.488	$GPGGA,050120,2423.2375,N,08052.4894,W,1,10,1.5,17,M,,M,,*6F
06/15/2015	05:01:20.578	$GPGGA,050121,2423.2366,N,08052.4881,W,1,10,1.5,17,M,,M,,*68
06/15/2015	05:01:21.668	$GPGGA,050122,2423.2361,N,08052.4865,W,1,10,1.5,17,M,,M,,*66
06/15/2015	05:01:22.567	$GPGGA,050123,2423.2354,N,08052.4848,W,1,10,1.5,17,M,,M,,*6E
06/15/2015	05:01:23.677	$GPGGA,050124,2423.2346,N,08052.4834,W,1,10,1.5,17,M,,M,,*61
06/15/2015	05:01:24.597	$GPGGA,050125,2423.2338,N,08052.4820,W,1,10,1.5,17,M,,M,,*6C
06/15/2015	05:01:25.667	$GPGGA,050126,2423.2332,N,08052.4803,W,1,10,1.5,17,M,,M,,*64
06/15/2015	05:01:26.587	$GPGGA,050127,2423.2325,N,08052.4787,W,1,10,1.5,17,M,,M,,*60
06/15/2015	05:01:27.667	$GPGGA,050128,2423.2318,N,08052.4773,W,1,10,1.5,17,M,,M,,*6A
06/15/2015	05:01:28.587	$GPGGA,050129,2423.2308,N,08052.4758,W,1,10,1.5,17,M,,M,,*63
06/15/2015	05:01:29.667	$GPGGA,050130,2423.2303,N,08052.4742,W,1,10,1.5,17,M,,M,,*6B
06/15/2015	05:01:30.577	$GPGGA,050131,2423.2296,N,08052.4726,W,1,10,1.5,17,M,,M,,*65
06/15/2015	05:01:31.677	$GPGGA,050132,2423.2289,N,08052.4711,W,1,10,1.5,17,M,,M,,*6C
06/15/2015	05:01:32.577	$GPGGA,050133,2423.2281,N,08052.4696,W,1,10,1.5,17,M,,M,,*6B
06/15/2015	05:01:33.677	$GPGGA,050134,2423.2274,N,08052.4679,W,1,10,1.5,17,M,,M,,*67
06/15/2015	05:01:34.577	$GPGGA,050135,2423.2268,N,08052.4664,W,1,10,1.5,17,M,,M,,*67
06/15/2015	05:01:35.657	$GPGGA,050136,2423.2261,N,08052.4650,W,1,10,1.5,17,M,,M,,*6A
06/15/2015	05:01:36.568	$GPGGA,050137,2423.2253,N,08052.4635,W,1,10,1.5,17,M,,M,,*69
06/15/2015	05:01:37.658	$GPGGA,050138,2423.2245,N,08052.4618,W,1,10,1.5,17,M,,M,,*6E
06/15/2015	05:01:38.568	$GPGGA,050139,2423.2242,N,08052.4604,W,1,10,1.5,17,M,,M,,*65
06/15/2015	05:01:39.538	$GPGGA,050140,2423.2234,N,08052.4591,W,1,10,1.5,16,M,,M,,*64
06/15/2015	05:01:40.567	$GPGGA,050141,2423.2224,N,08052.4576,W,1,10,1.5,16,M,,M,,*6D
06/15/2015	05:01:41.657	$GPGGA,050142,2423.2221,N,08052.4561,W,1,10,1.5,16,M,,M,,*6D
06/15/2015	05:01:42.527	$GPGGA,050143,2423.2218,N,08052.4546,W,1,10,1.5,16,M,,M,,*63
06/15/2015	05:01:43.637	$GPGGA,050144,2423.2208,N,08052.4533,W,1,10,1.5,16,M,,M,,*67
06/15/2015	05:01:44.557	$GPGGA,050145,2423.2202,N,08052.4520,W,1,10,1.5,16,M,,M,,*6E
06/15/2015	05:01:45.627	$GPGGA,050146,2423.2197,N,08052.4505,W,1,10,1.5,16,M,,M,,*65
06/15/2015	05:01:46.557	$GPGGA,050147,2423.2191,N,08052.4490,W,1,10,1.5,16,M,,M,,*6F
06/15/2015	05:01:47.587	$GPGGA,050148,2423.2184,N,08052.4476,W,1,10,1.5,16,M,,M,,*6C
06/15/2015	05:01:48.510	$GPGGA,050149,2423.2177,N,08052.4463,W,1,10,1.5,16,M,,M,,*65
06/15/2015	05:01:49.597	$GPGGA,050150,2423.2171,N,08052.4448,W,1,10,1.5,16,M,,M,,*62
06/15/2015	05:01:50.547	$GPGGA,050151,2423.2166,N,08052.4433,W,1,10,1.5,16,M,,M,,*69
06/15/2015	05:01:51.517	$GPGGA,050152,2423.2159,N,08052.4419,W,1,10,1.5,16,M,,M,,*6E
06/15/2015	05:01:52.607	$GPGGA,050153,2423.2152,N,08052.4406,W,1,10,1.5,16,M,,M,,*6A
06/15/2015	05:01:53.503	$GPGGA,050154,2423.2144,N,08052.4391,W,1,10,1.5,16,M,,M,,*63
06/15/2015	05:01:54.618	$GPGGA,050155,2423.2138,N,08052.4377,W,1,10,1.5,16,M,,M,,*61
06/15/2015	05:01:55.638	$GPGGA,050156,2423.2131,N,08052.4363,W,1,10,1.5,16,M,,M,,*6E
06/15/2015	05:01:56.618	$GPGGA,050157,2423.2124,N,08052.4349,W,1,10,1.5,16,M,,M,,*63
06/15/2015	05:01:58.067	$GPGGA,050158,2423.2116,N,08052.4336,W,1,10,1.5,16,M,,M,,*65
06/15/2015	05:01:59.637	$GPGGA,050200,2423.2103,N,08052.4305,W,1,10,1.5,16,M,,M,,*6F
06/15/2015	05:02:00.537	$GPGGA,050201,2423.2096,N,08052.4291,W,1,10,1.5,16,M,,M,,*6F
06/15/2015	05:02:01.577	$GPGGA,050202,2423.2086,N,08052.4277,W,1,10,1.5,16,M,,M,,*65
06/15/2015	05:02:02.517	$GPGGA,050203,2423.2081,N,08052.4263,W,1,10,1.5,16,M,,M,,*66
06/15/2015	05:02:03.647	$GPGGA,050204,2423.2076,N,08052.4247,W,1,10,1.5,16,M,,M,,*6F
06/15/2015	05:02:04.577	$GPGGA,050205,2423.2066,N,08052.4234,W,1,10,1.5,16,M,,M,,*6B
06/15/2015	05:02:05.577	$GPGGA,050206,2423.2058,N,08052.4221,W,1,10,1.5,16,M,,M,,*61
06/15/2015	05:02:06.577	$GPGGA,050207,2423.2054,N,08052.4206,W,1,10,1.5,16,M,,M,,*69
06/15/2015	05:02:07.577	$GPGGA,050208,2423.2047,N,08052.4191,W,1,10,1.5,16,M,,M,,*69
06/15/2015	05:02:08.567	$GPGGA,050209,2423.2038,N,08052.4178,W,1,10,1.5,16,M,,M,,*67
06/15/2015	05:02:09.577	$GPGGA,050210,2423.2030,N,08052.4165,W,1,10,1.6,16,M,,M,,*68
06/15/2015	05:02:10.567	$GPGGA,050211,2423.2025,N,08052.4148,W,1,10,1.5,16,M,,M,,*61
06/15/2015	05:02:11.567	$GPGGA,050212,2423.2019,N,08052.4132,W,1,10,1.5,16,M,,M,,*60
06/15/2015	05:02:12.557	$GPGGA,050213,2423.2011,N,08052.4119,W,1,10,1.5,16,M,,M,,*60
06/15/2015	05:02:13.617	$GPGGA,050214,2423.2003,N,08052.4104,W,1,10,1.5,16,M,,M,,*68
06/15/2015	05:02:14.547	$GPGGA,050215,2423.1998,N,08052.4088,W,1,10,1.5,16,M,,M,,*64
06/15/2015	05:02:15.566	$GPGGA,050216,2423.1990,N,08052.4075,W,1,10,1.5,16,M,,M,,*6D
06/15/2015	05:02:16.546	$GPGGA,050217,2423.1982,N,08052.4061,W,1,10,1.5,16,M,,M,,*6A
06/15/2015	05:02:17.556	$GPGGA,050218,2423.1976,N,08052.4044,W,1,10,1.5,16,M,,M,,*69
06/15/2015	05:02:18.556	$GPGGA,050219,2423.1968,N,08052.4030,W,1,10,1.5,16,M,,M,,*64
06/15/2015	05:02:19.636	$GPGGA,050220,2423.1960,N,08052.4017,W,1,10,1.5,16,M,,M,,*63
06/15/2015	05:02:20.536	$GPGGA,050221,2423.1953,N,08052.4001,W,1,10,1.5,16,M,,M,,*65
06/15/2015	05:02:21.590	$GPGGA,050222,2423.1947,N,08052.3986,W,1,10,1.5,16,M,,M,,*62
06/15/2015	05:02:22.537	$GPGGA,050223,2423.1938,N,08052.3974,W,1,10,1.5,16,M,,M,,*66
06/15/2015	05:02:23.607	$GPGGA,050224,2423.1931,N,08052.3959,W,1,10,1.5,16,M,,M,,*67
06/15/2015	05:02:24.537	$GPGGA,050225,2423.1924,N,08052.3943,W,1,10,1.5,16,M,,M,,*69
06/15/2015	05:02:25.567	$GPGGA,050226,2423.1915,N,08052.3931,W,1,10,1.5,16,M,,M,,*6D
06/15/2015	05:02:26.527	$GPGGA,050227,2423.1907,N,08052.3916,W,1,10,1.5,16,M,,M,,*6A
06/15/2015	05:02:27.590	$GPGGA,050228,2423.1902,N,08052.3900,W,1,10,1.5,16,M,,M,,*67
06/15/2015	05:02:28.537	$GPGGA,050229,2423.1893,N,08052.3886,W,1,10,1.5,16,M,,M,,*60
06/15/2015	05:02:29.577	$GPGGA,050230,2423.1884,N,08052.3874,W,1,10,1.5,17,M,,M,,*62
06/15/2015	05:02:30.527	$GPGGA,050231,2423.1877,N,08052.3858,W,1,10,1.5,17,M,,M,,*61
06/15/2015	05:02:31.567	$GPGGA,050232,2423.1877,N,08052.3858,W,1,10,1.5,17,M,,M,,*62
06/15/2015	05:02:32.516	$GPGGA,050233,2423.1862,N,08052.3829,W,1,10,1.5,17,M,,M,,*61
06/15/2015	05:02:33.556	$GPGGA,050234,2423.1862,N,08052.3829,W,1,10,1.5,17,M,,M,,*66
06/15/2015	05:02:34.526	$GPGGA,050235,2423.1846,N,08052.3799,W,1,10,1.5,17,M,,M,,*65
06/15/2015	05:02:35.536	$GPGGA,050236,2423.1846,N,08052.3799,W,1,10,1.5,17,M,,M,,*66
06/15/2015	05:02:36.546	$GPGGA,050237,2423.1830,N,08052.3770,W,1,10,1.5,17,M,,M,,*61
06/15/2015	05:02:37.599	$GPGGA,050238,2423.1830,N,08052.3770,W,1,10,1.5,17,M,,M,,*6E
06/15/2015	05:02:38.501	$GPGGA,050239,2423.1819,N,08052.3741,W,1,10,1.5,17,M,,M,,*66
06/15/2015	05:02:39.537	$GPGGA,050240,2423.1819,N,08052.3741,W,1,10,1.5,17,M,,M,,*68
06/15/2015	05:02:40.502	$GPGGA,050241,2423.1802,N,08052.3710,W,1,10,1.5,17,M,,M,,*67
06/15/2015	05:02:41.517	$GPGGA,050242,2423.1796,N,08052.3697,W,1,10,1.5,17,M,,M,,*68
06/15/2015	05:02:42.517	$GPGGA,050243,2423.1790,N,08052.3683,W,1,10,1.5,17,M,,M,,*6A
06/15/2015	05:02:43.517	$GPGGA,050244,2423.1790,N,08052.3683,W,1,10,1.5,17,M,,M,,*6D
06/15/2015	05:02:44.592	$GPGGA,050245,2423.1776,N,08052.3653,W,1,10,1.5,17,M,,M,,*69
06/15/2015	05:02:45.547	$GPGGA,050246,2423.1776,N,08052.3653,W,1,10,1.5,17,M,,M,,*6A
06/15/2015	05:02:46.577	$GPGGA,050247,2423.1762,N,08052.3625,W,1,10,1.5,17,M,,M,,*6F
06/15/2015	05:02:47.501	$GPGGA,050248,2423.1762,N,08052.3625,W,1,10,1.5,17,M,,M,,*60
06/15/2015	05:02:48.577	$GPGGA,050249,2423.1748,N,08052.3597,W,1,10,1.5,17,M,,M,,*63
06/15/2015	05:02:49.607	$GPGGA,050250,2423.1740,N,08052.3583,W,1,10,1.5,17,M,,M,,*66
06/15/2015	05:02:50.510	$GPGGA,050251,2423.1736,N,08052.3566,W,1,10,1.5,17,M,,M,,*6D
06/15/2015	05:02:51.600	$GPGGA,050252,2423.1730,N,08052.3551,W,1,10,1.5,17,M,,M,,*6C
06/15/2015	05:02:52.516	$GPGGA,050253,2423.1721,N,08052.3539,W,1,10,1.5,17,M,,M,,*63
06/15/2015	05:02:53.496	$GPGGA,050254,2423.1715,N,08052.3523,W,1,10,1.5,17,M,,M,,*68
06/15/2015	05:02:54.566	$GPGGA,050255,2423.1709,N,08052.3508,W,1,10,1.5,17,M,,M,,*6D
06/15/2015	05:02:55.616	$GPGGA,050256,2423.1702,N,08052.3494,W,1,10,1.5,17,M,,M,,*61
06/15/2015	05:02:56.556	$GPGGA,050257,2423.1695,N,08052.3478,W,1,10,1.5,17,M,,M,,*6D
06/15/2015	05:02:57.591	$GPGGA,050258,2423.1689,N,08052.3463,W,1,10,1.5,17,M,,M,,*65
06/15/2015	05:02:58.557	$GPGGA,050259,2423.1682,N,08052.3448,W,1,10,1.5,17,M,,M,,*66
06/15/2015	05:02:59.577	$GPGGA,050300,2423.1674,N,08052.3434,W,1,10,1.5,17,M,,M,,*69
06/15/2015	05:03:00.557	$GPGGA,050301,2423.1669,N,08052.3419,W,1,10,1.5,17,M,,M,,*6B
06/15/2015	05:03:01.587	$GPGGA,050302,2423.1661,N,08052.3404,W,1,10,1.5,17,M,,M,,*6C
06/15/2015	05:03:02.557	$GPGGA,050303,2423.1655,N,08052.3388,W,1,10,1.5,17,M,,M,,*69
06/15/2015	05:03:03.605	$GPGGA,050304,2423.1648,N,08052.3372,W,1,10,1.5,17,M,,M,,*67
06/15/2015	05:03:04.547	$GPGGA,050305,2423.1640,N,08052.3357,W,1,10,1.5,17,M,,M,,*69
06/15/2015	05:03:05.577	$GPGGA,050306,2423.1635,N,08052.3342,W,1,10,1.5,17,M,,M,,*6C
06/15/2015	05:03:06.547	$GPGGA,050307,2423.1628,N,08052.3325,W,1,10,1.5,17,M,,M,,*60
06/15/2015	05:03:07.586	$GPGGA,050308,2423.1620,N,08052.3310,W,1,10,1.5,16,M,,M,,*60
06/15/2015	05:03:08.536	$GPGGA,050309,2423.1613,N,08052.3294,W,1,10,1.5,16,M,,M,,*6C
06/15/2015	05:03:09.556	$GPGGA,050310,2423.1606,N,08052.3279,W,1,10,1.5,16,M,,M,,*63
06/15/2015	05:03:10.546	$GPGGA,050311,2423.1599,N,08052.3263,W,1,10,1.5,16,M,,M,,*6C
06/15/2015	05:03:11.593	$GPGGA,050312,2423.1592,N,08052.3247,W,1,10,1.5,16,M,,M,,*62
06/15/2015	05:03:12.536	$GPGGA,050313,2423.1584,N,08052.3232,W,1,10,1.5,16,M,,M,,*66
06/15/2015	05:03:13.996	$GPGGA,050314,2423.1577,N,08052.3217,W,1,10,1.5,16,M,,M,,*6A
06/15/2015	05:03:14.527	$GPGGA,050315,2423.1570,N,08052.3201,W,1,10,1.5,16,M,,M,,*6B
06/15/2015	05:03:15.567	$GPGGA,050316,2423.1563,N,08052.3187,W,1,10,1.5,16,M,,M,,*67
06/15/2015	05:03:16.517	$GPGGA,050317,2423.1553,N,08052.3173,W,1,10,1.5,16,M,,M,,*6E
06/15/2015	05:03:17.567	$GPGGA,050318,2423.1546,N,08052.3157,W,1,10,1.5,16,M,,M,,*63
06/15/2015	05:03:19.599	$GPGGA,050320,2423.1530,N,08052.3129,W,1,10,1.5,16,M,,M,,*60
06/15/2015	05:03:20.527	$GPGGA,050321,2423.1523,N,08052.3113,W,1,10,1.6,16,M,,M,,*69
06/15/2015	05:03:21.537	$GPGGA,050322,2423.1516,N,08052.3098,W,1,10,1.5,16,M,,M,,*6D
06/15/2015	05:03:22.507	$GPGGA,050323,2423.1508,N,08052.3083,W,1,10,1.5,16,M,,M,,*69
06/15/2015	05:03:23.547	$GPGGA,050324,2423.1501,N,08052.3069,W,1,10,1.5,16,M,,M,,*63
06/15/2015	05:03:24.517	$GPGGA,050325,2423.1491,N,08052.3055,W,1,10,1.5,16,M,,M,,*65
06/15/2015	05:03:25.526	$GPGGA,050326,2423.1485,N,08052.3041,W,1,10,1.5,16,M,,M,,*66
06/15/2015	05:03:26.498	$GPGGA,050327,2423.1477,N,08052.3028,W,1,10,1.7,16,M,,M,,*67
06/15/2015	05:03:27.536	$GPGGA,050328,2423.1470,N,08052.3014,W,1,10,1.5,16,M,,M,,*62
06/15/2015	05:03:28.500	$GPGGA,050329,2423.1463,N,08052.3001,W,1,10,1.5,16,M,,M,,*65
06/15/2015	05:03:29.526	$GPGGA,050330,2423.1454,N,08052.2988,W,1,10,1.5,16,M,,M,,*60
06/15/2015	05:03:30.498	$GPGGA,050331,2423.1448,N,08052.2975,W,1,10,1.5,16,M,,M,,*6E
06/15/2015	05:03:31.536	$GPGGA,050332,2423.1440,N,08052.2962,W,1,10,1.5,16,M,,M,,*63
06/15/2015	05:03:32.507	$GPGGA,050333,2423.1430,N,08052.2950,W,1,10,1.5,16,M,,M,,*64
06/15/2015	05:03:33.588	$GPGGA,050334,2423.1424,N,08052.2937,W,1,10,1.5,16,M,,M,,*67
06/15/2015	05:03:34.577	$GPGGA,050335,2423.1416,N,08052.2924,W,1,10,1.5,16,M,,M,,*65
06/15/2015	05:03:35.617	$GPGGA,050336,2423.1407,N,08052.2911,W,1,10,1.5,16,M,,M,,*60
06/15/2015	05:03:36.577	$GPGGA,050337,2423.1400,N,08052.2900,W,1,10,1.5,16,M,,M,,*66
06/15/2015	05:03:37.477	$GPGGA,050338,2423.1391,N,08052.2887,W,1,10,1.5,17,M,,M,,*69
06/15/2015	05:03:38.577	$GPGGA,050339,2423.1382,N,08052.2873,W,1,10,1.5,17,M,,M,,*61
06/15/2015	05:03:39.495	$GPGGA,050340,2423.1375,N,08052.2861,W,1,9,1.7,17,M,,M,,*5E
06/15/2015	05:03:40.577	$GPGGA,050341,2423.1366,N,08052.2850,W,1,9,1.5,17,M,,M,,*5D
06/15/2015	05:03:41.577	$GPGGA,050342,2423.1357,N,08052.2839,W,1,10,1.5,17,M,,M,,*6B
06/15/2015	05:03:42.576	$GPGGA,050343,2423.1347,N,08052.2825,W,1,10,1.5,17,M,,M,,*66
06/15/2015	05:03:43.576	$GPGGA,050344,2423.1340,N,08052.2812,W,1,10,1.5,17,M,,M,,*62
06/15/2015	05:03:44.556	$GPGGA,050345,2423.1330,N,08052.2803,W,1,10,1.5,17,M,,M,,*64
06/15/2015	05:03:45.556	$GPGGA,050346,2423.1319,N,08052.2790,W,1,10,1.5,17,M,,M,,*69
06/15/2015	05:03:46.556	$GPGGA,050347,2423.1311,N,08052.2775,W,1,10,1.7,17,M,,M,,*69
06/15/2015	05:03:47.598	$GPGGA,050348,2423.1304,N,08052.2762,W,1,10,1.5,17,M,,M,,*66
06/15/2015	05:03:48.556	$GPGGA,050349,2423.1293,N,08052.2752,W,1,10,1.5,17,M,,M,,*6B
06/15/2015	05:03:49.557	$GPGGA,050350,2423.1284,N,08052.2738,W,1,10,1.5,17,M,,M,,*69
06/15/2015	05:03:50.547	$GPGGA,050351,2423.1277,N,08052.2724,W,1,10,1.5,17,M,,M,,*69
06/15/2015	05:03:51.577	$GPGGA,050352,2423.1267,N,08052.2712,W,1,10,1.5,17,M,,M,,*6E
06/15/2015	05:03:52.547	$GPGGA,050353,2423.1257,N,08052.2699,W,1,10,1.5,17,M,,M,,*6E
06/15/2015	05:03:53.567	$GPGGA,050354,2423.1249,N,08052.2687,W,1,10,1.5,17,M,,M,,*69
06/15/2015	05:03:54.537	$GPGGA,050355,2423.1241,N,08052.2673,W,1,10,1.5,17,M,,M,,*6B
06/15/2015	05:03:55.547	$GPGGA,050356,2423.1232,N,08052.2659,W,1,10,1.5,17,M,,M,,*64
06/15/2015	05:03:56.547	$GPGGA,050357,2423.1223,N,08052.2649,W,1,10,1.5,17,M,,M,,*64
06/15/2015	05:03:57.537	$GPGGA,050358,2423.1216,N,08052.2636,W,1,10,1.5,17,M,,M,,*65
06/15/2015	05:03:58.537	$GPGGA,050359,2423.1207,N,08052.2621,W,1,10,1.5,17,M,,M,,*62
06/15/2015	05:03:59.587	$GPGGA,050400,2423.1198,N,08052.2608,W,1,10,1.5,17,M,,M,,*67
06/15/2015	05:04:00.536	$GPGGA,050401,2423.1190,N,08052.2595,W,1,10,1.5,17,M,,M,,*69
06/15/2015	05:04:01.526	$GPGGA,050402,2423.1181,N,08052.2583,W,1,10,1.5,17,M,,M,,*6D
06/15/2015	05:04:02.526	$GPGGA,050403,2423.1173,N,08052.2569,W,1,10,1.5,17,M,,M,,*65
06/15/2015	05:04:03.567	$GPGGA,050404,2423.1165,N,08052.2556,W,1,10,1.5,17,M,,M,,*69
06/15/2015	05:04:04.526	$GPGGA,050405,2423.1156,N,08052.2542,W,1,10,1.5,17,M,,M,,*6D
06/15/2015	05:04:05.546	$GPGGA,050406,2423.1148,N,08052.2527,W,1,10,1.5,17,M,,M,,*62
06/15/2015	05:04:06.516	$GPGGA,050407,2423.1140,N,08052.2515,W,1,10,1.5,17,M,,M,,*6A
06/15/2015	05:04:07.557	$GPGGA,050408,2423.1131,N,08052.2502,W,1,10,1.5,17,M,,M,,*65
06/15/2015	05:04:08.507	$GPGGA,050409,2423.1124,N,08052.2486,W,1,10,1.5,17,M,,M,,*6D
06/15/2015	05:04:09.547	$GPGGA,050410,2423.1117,N,08052.2471,W,1,10,1.5,17,M,,M,,*6D
06/15/2015	05:04:10.517	$GPGGA,050411,2423.1106,N,08052.2460,W,1,10,1.5,17,M,,M,,*6C
06/15/2015	05:04:11.537	$GPGGA,050412,2423.1098,N,08052.2446,W,1,10,1.5,17,M,,M,,*6D
06/15/2015	05:04:12.497	$GPGGA,050413,2423.1091,N,08052.2429,W,1,10,1.5,17,M,,M,,*6C
06/15/2015	05:04:13.507	$GPGGA,050414,2423.1083,N,08052.2415,W,1,10,1.5,17,M,,M,,*67
06/15/2015	05:04:14.497	$GPGGA,050415,2423.1075,N,08052.2403,W,1,10,1.5,17,M,,M,,*68
06/15/2015	05:04:15.517	$GPGGA,050416,2423.1068,N,08052.2387,W,1,10,1.5,17,M,,M,,*6C
06/15/2015	05:04:16.497	$GPGGA,050417,2423.1061,N,08052.2371,W,1,10,1.5,17,M,,M,,*6D
06/15/2015	05:04:17.616	$GPGGA,050418,2423.1053,N,08052.2359,W,1,10,1.5,17,M,,M,,*69
06/15/2015	05:04:18.506	$GPGGA,050419,2423.1043,N,08052.2344,W,1,10,1.5,16,M,,M,,*64
06/15/2015	05:04:19.536	$GPGGA,050420,2423.1037,N,08052.2328,W,1,10,1.5,16,M,,M,,*67
06/15/2015	05:04:20.498	$GPGGA,050421,2423.1030,N,08052.2313,W,1,10,1.5,16,M,,M,,*69
06/15/2015	05:04:21.488	$GPGGA,050422,2423.1022,N,08052.2299,W,1,10,1.5,16,M,,M,,*6A
06/15/2015	05:04:22.496	$GPGGA,050423,2423.1013,N,08052.2284,W,1,10,1.5,16,M,,M,,*65
06/15/2015	05:04:23.596	$GPGGA,050424,2423.1007,N,08052.2267,W,1,10,1.5,16,M,,M,,*6A
06/15/2015	05:04:24.497	$GPGGA,050425,2423.1000,N,08052.2252,W,1,10,1.5,16,M,,M,,*6A
06/15/2015	05:04:25.607	$GPGGA,050426,2423.0992,N,08052.2239,W,1,10,1.5,16,M,,M,,*67
06/15/2015	05:04:26.567	$GPGGA,050427,2423.0984,N,08052.2222,W,1,10,1.5,16,M,,M,,*6B
06/15/2015	05:04:27.617	$GPGGA,050428,2423.0977,N,08052.2207,W,1,10,1.5,16,M,,M,,*6F
06/15/2015	05:04:28.567	$GPGGA,050429,2423.0968,N,08052.2195,W,1,10,1.5,16,M,,M,,*68
06/15/2015	05:04:29.577	$GPGGA,050430,2423.0961,N,08052.2179,W,1,10,1.5,16,M,,M,,*6B
06/15/2015	05:04:30.567	$GPGGA,050431,2423.0956,N,08052.2162,W,1,10,1.5,16,M,,M,,*64
06/15/2015	05:04:31.587	$GPGGA,050432,2423.0947,N,08052.2149,W,1,10,1.5,16,M,,M,,*6E
06/15/2015	05:04:32.567	$GPGGA,050433,2423.0939,N,08052.2136,W,1,10,1.5,16,M,,M,,*6E
06/15/2015	05:04:33.567	$GPGGA,050434,2423.0931,N,08052.2120,W,1,10,1.5,16,M,,M,,*66
06/15/2015	05:04:34.566	$GPGGA,050435,2423.0925,N,08052.2104,W,1,10,1.5,16,M,,M,,*64
06/15/2015	05:04:35.576	$GPGGA,050436,2423.0916,N,08052.2091,W,1,10,1.5,16,M,,M,,*6A
06/15/2015	05:04:36.556	$GPGGA,050437,2423.0909,N,08052.2076,W,1,10,1.5,16,M,,M,,*6C
06/15/2015	05:04:37.576	$GPGGA,050438,2423.0902,N,08052.2061,W,1,10,1.5,16,M,,M,,*6E
06/15/2015	05:04:38.546	$GPGGA,050439,2423.0895,N,08052.2046,W,1,10,1.5,16,M,,M,,*65
06/15/2015	05:04:39.856	$GPGGA,050440,2423.0887,N,08052.2032,W,1,10,1.5,16,M,,M,,*6B
06/15/2015	05:04:40.556	$GPGGA,050441,2423.0880,N,08052.2018,W,1,10,1.5,16,M,,M,,*65
06/15/2015	05:04:41.537	$GPGGA,050442,2423.0872,N,08052.2002,W,1,9,1.6,16,M,,M,,*5B
06/15/2015	05:04:42.548	$GPGGA,050443,2423.0865,N,08052.1986,W,1,9,1.6,16,M,,M,,*5A
06/15/2015	05:04:43.577	$GPGGA,050444,2423.0858,N,08052.1973,W,1,10,1.5,16,M,,M,,*62
06/15/2015	05:04:44.537	$GPGGA,050445,2423.0849,N,08052.1960,W,1,10,1.5,16,M,,M,,*61
06/15/2015	05:04:45.527	$GPGGA,050446,2423.0841,N,08052.1944,W,1,10,1.5,16,M,,M,,*6C
06/15/2015	05:04:46.537	$GPGGA,050447,2423.0835,N,08052.1928,W,1,10,1.6,16,M,,M,,*67
06/15/2015	05:04:47.547	$GPGGA,050448,2423.0826,N,08052.1913,W,1,10,1.5,16,M,,M,,*61
06/15/2015	05:04:48.537	$GPGGA,050449,2423.0819,N,08052.1900,W,1,10,1.5,16,M,,M,,*6E
06/15/2015	05:04:49.557	$GPGGA,050450,2423.0812,N,08052.1885,W,1,10,1.5,16,M,,M,,*61
06/15/2015	05:04:50.517	$GPGGA,050451,2423.0804,N,08052.1867,W,1,10,1.5,16,M,,M,,*6B
06/15/2015	05:04:51.567	$GPGGA,050452,2423.0797,N,08052.1854,W,1,10,1.5,16,M,,M,,*6D
06/15/2015	05:04:52.516	$GPGGA,050453,2423.0787,N,08052.1841,W,1,10,1.5,16,M,,M,,*69
06/15/2015	05:04:53.546	$GPGGA,050454,2423.0780,N,08052.1827,W,1,10,1.5,16,M,,M,,*69
06/15/2015	05:04:54.516	$GPGGA,050455,2423.0772,N,08052.1810,W,1,10,1.5,16,M,,M,,*61
06/15/2015	05:04:55.546	$GPGGA,050456,2423.0764,N,08052.1797,W,1,10,1.5,16,M,,M,,*65
06/15/2015	05:04:56.516	$GPGGA,050457,2423.0754,N,08052.1785,W,1,10,1.5,16,M,,M,,*64
06/15/2015	05:04:57.516	$GPGGA,050458,2423.0746,N,08052.1771,W,1,10,1.5,16,M,,M,,*63
06/15/2015	05:04:58.516	$GPGGA,050459,2423.0739,N,08052.1756,W,1,10,1.5,16,M,,M,,*6F
06/15/2015	05:04:59.568	$GPGGA,050500,2423.0730,N,08052.1741,W,1,10,1.5,16,M,,M,,*6D
06/15/2015	05:05:00.617	$GPGGA,050501,2423.0721,N,08052.1729,W,1,10,1.5,16,M,,M,,*62
06/15/2015	05:05:01.493	$GPGGA,050502,2423.0710,N,08052.1716,W,1,10,1.5,16,M,,M,,*6F
06/15/2015	05:05:02.618	$GPGGA,050503,2423.0704,N,08052.1702,W,1,10,1.6,17,M,,M,,*6C
06/15/2015	05:05:03.637	$GPGGA,050504,2423.0696,N,08052.1688,W,1,10,1.5,17,M,,M,,*61
06/15/2015	05:05:04.517	$GPGGA,050505,2423.0686,N,08052.1677,W,1,10,1.5,17,M,,M,,*61
06/15/2015	05:05:05.510	$GPGGA,050506,2423.0677,N,08052.1667,W,1,10,1.5,17,M,,M,,*6D
06/15/2015	05:05:06.490	$GPGGA,050507,2423.0669,N,08052.1653,W,1,10,1.5,17,M,,M,,*64
06/15/2015	05:05:07.499	$GPGGA,050508,2423.0661,N,08052.1637,W,1,10,1.5,17,M,,M,,*61
06/15/2015	05:05:08.492	$GPGGA,050509,2423.0652,N,08052.1626,W,1,10,1.5,17,M,,M,,*60
06/15/2015	05:05:09.576	$GPGGA,050510,2423.0642,N,08052.1617,W,1,10,1.5,17,M,,M,,*6B
06/15/2015	05:05:10.590	$GPGGA,050511,2423.0634,N,08052.1601,W,1,10,1.6,17,M,,M,,*6F
06/15/2015	05:05:11.500	$GPGGA,050512,2423.0627,N,08052.1585,W,1,10,1.5,17,M,,M,,*62
06/15/2015	05:05:12.590	$GPGGA,050513,2423.0618,N,08052.1575,W,1,10,1.5,17,M,,M,,*60
06/15/2015	05:05:13.476	$GPGGA,050514,2423.0609,N,08052.1563,W,1,10,1.5,17,M,,M,,*60
06/15/2015	05:05:14.490	$GPGGA,050515,2423.0602,N,08052.1547,W,1,10,1.5,17,M,,M,,*6C
06/15/2015	05:05:15.604	$GPGGA,050516,2423.0593,N,08052.1531,W,1,10,1.5,17,M,,M,,*65
06/15/2015	05:05:16.589	$GPGGA,050517,2423.0583,N,08052.1519,W,1,10,1.6,17,M,,M,,*6C
06/15/2015	05:05:17.617	$GPGGA,050518,2423.0573,N,08052.1506,W,1,10,1.5,17,M,,M,,*61
06/15/2015	05:05:18.567	$GPGGA,050519,2423.0566,N,08052.1491,W,1,10,1.5,17,M,,M,,*6B
06/15/2015	05:05:19.577	$GPGGA,050520,2423.0557,N,08052.1476,W,1,10,1.5,17,M,,M,,*6A
06/15/2015	05:05:20.567	$GPGGA,050521,2423.0547,N,08052.1465,W,1,10,1.5,17,M,,M,,*68
06/15/2015	05:05:21.557	$GPGGA,050522,2423.0540,N,08052.1451,W,1,10,1.5,17,M,,M,,*6B
06/15/2015	05:05:22.547	$GPGGA,050523,2423.0531,N,08052.1434,W,1,10,1.7,17,M,,M,,*6D
06/15/2015	05:05:23.587	$GPGGA,050524,2423.0523,N,08052.1422,W,1,10,1.5,17,M,,M,,*6C
06/15/2015	05:05:24.547	$GPGGA,050525,2423.0515,N,08052.1411,W,1,10,1.5,17,M,,M,,*68
06/15/2015	05:05:25.557	$GPGGA,050526,2423.0506,N,08052.1395,W,1,10,1.5,17,M,,M,,*62
06/15/2015	05:05:26.557	$GPGGA,050527,2423.0498,N,08052.1380,W,1,10,1.5,17,M,,M,,*61
06/15/2015	05:05:27.556	$GPGGA,050528,2423.0488,N,08052.1369,W,1,10,1.5,17,M,,M,,*68
06/15/2015	05:05:28.546	$GPGGA,050529,2423.0479,N,08052.1356,W,1,10,1.5,17,M,,M,,*6B
06/15/2015	05:05:29.566	$GPGGA,050530,2423.0471,N,08052.1339,W,1,10,1.5,17,M,,M,,*62
06/15/2015	05:05:30.566	$GPGGA,050531,2423.0463,N,08052.1326,W,1,10,1.5,17,M,,M,,*6E
06/15/2015	05:05:31.576	$GPGGA,050532,2423.0453,N,08052.1315,W,1,10,1.5,17,M,,M,,*6E
06/15/2015	05:05:32.536	$GPGGA,050533,2423.0444,N,08052.1301,W,1,10,1.5,17,M,,M,,*6C
06/15/2015	05:05:33.556	$GPGGA,050534,2423.0437,N,08052.1286,W,1,10,1.5,17,M,,M,,*61
06/15/2015	05:05:34.547	$GPGGA,050535,2423.0428,N,08052.1274,W,1,10,1.5,17,M,,M,,*63
06/15/2015	05:05:35.567	$GPGGA,050536,2423.0419,N,08052.1262,W,1,10,1.5,17,M,,M,,*65
06/15/2015	05:05:36.537	$GPGGA,050537,2423.0411,N,08052.1247,W,1,10,1.5,17,M,,M,,*6B
06/15/2015	05:05:37.537	$GPGGA,050538,2423.0403,N,08052.1233,W,1,10,1.5,17,M,,M,,*64
06/15/2015	05:05:38.517	$GPGGA,050539,2423.0393,N,08052.1222,W,1,10,1.5,17,M,,M,,*6B
06/15/2015	05:05:39.567	$GPGGA,050540,2423.0385,N,08052.1207,W,1,10,1.5,17,M,,M,,*65
06/15/2015	05:05:40.527	$GPGGA,050541,2423.0378,N,08052.1192,W,1,10,1.5,17,M,,M,,*69
06/15/2015	05:05:41.537	$GPGGA,050542,2423.0368,N,08052.1180,W,1,10,1.5,17,M,,M,,*68
06/15/2015	05:05:42.517	$GPGGA,050543,2423.0358,N,08052.1168,W,1,10,1.5,17,M,,M,,*6C
06/15/2015	05:05:43.557	$GPGGA,050544,2423.0351,N,08052.1152,W,1,10,1.5,17,M,,M,,*6B
06/15/2015	05:05:44.506	$GPGGA,050545,2423.0345,N,08052.1136,W,1,10,1.5,17,M,,M,,*6D
06/15/2015	05:05:45.506	$GPGGA,050546,2423.0334,N,08052.1123,W,1,10,1.5,17,M,,M,,*6C
06/15/2015	05:05:46.600	$GPGGA,050547,2423.0324,N,08052.1111,W,1,10,1.5,17,M,,M,,*6D
06/15/2015	05:05:47.666	$GPGGA,050548,2423.0317,N,08052.1097,W,1,10,1.5,17,M,,M,,*6D
06/15/2015	05:05:48.516	$GPGGA,050549,2423.0311,N,08052.1081,W,1,10,1.5,17,M,,M,,*6D
06/15/2015	05:05:49.516	$GPGGA,050550,2423.0302,N,08052.1066,W,1,10,1.5,17,M,,M,,*6E
06/15/2015	05:05:50.504	$GPGGA,050551,2423.0292,N,08052.1053,W,1,10,1.5,17,M,,M,,*61
06/15/2015	05:05:51.517	$GPGGA,050552,2423.0285,N,08052.1040,W,1,10,1.5,17,M,,M,,*66
06/15/2015	05:05:52.501	$GPGGA,050553,2423.0278,N,08052.1023,W,1,10,1.6,17,M,,M,,*63
06/15/2015	05:05:53.517	$GPGGA,050554,2423.0270,N,08052.1009,W,1,10,1.5,17,M,,M,,*67
06/15/2015	05:05:54.508	$GPGGA,050555,2423.0262,N,08052.0996,W,1,10,1.5,17,M,,M,,*6B
06/15/2015	05:05:55.637	$GPGGA,050556,2423.0255,N,08052.0980,W,1,9,1.5,17,M,,M,,*53
06/15/2015	05:05:56.503	$GPGGA,050557,2423.0246,N,08052.0965,W,1,9,1.5,17,M,,M,,*5B
06/15/2015	05:05:57.591	$GPGGA,050558,2423.0237,N,08052.0951,W,1,10,1.5,17,M,,M,,*6D
06/15/2015	05:05:58.487	$GPGGA,050559,2423.0230,N,08052.0938,W,1,10,1.5,17,M,,M,,*64
06/15/2015	05:05:59.647	$GPGGA,050600,2423.0223,N,08052.0923,W,1,10,1.5,18,M,,M,,*6C
06/15/2015	05:06:00.588	$GPGGA,050601,2423.0215,N,08052.0908,W,1,10,1.5,18,M,,M,,*61
06/15/2015	05:06:01.477	$GPGGA,050602,2423.0206,N,08052.0895,W,1,10,1.5,18,M,,M,,*65
06/15/2015	05:06:02.576	$GPGGA,050603,2423.0198,N,08052.0881,W,1,10,1.5,18,M,,M,,*65
06/15/2015	05:06:03.626	$GPGGA,050604,2423.0190,N,08052.0867,W,1,10,1.5,18,M,,M,,*62
06/15/2015	05:06:04.576	$GPGGA,050605,2423.0181,N,08052.0854,W,1,10,1.5,18,M,,M,,*63
06/15/2015	05:06:05.606	$GPGGA,050606,2423.0172,N,08052.0840,W,1,10,1.5,18,M,,M,,*69
06/15/2015	05:06:06.588	$GPGGA,050607,2423.0166,N,08052.0825,W,1,10,1.7,18,M,,M,,*6C
06/15/2015	05:06:07.599	$GPGGA,050608,2423.0157,N,08052.0813,W,1,9,1.5,18,M,,M,,*5E
06/15/2015	05:06:08.566	$GPGGA,050609,2423.0148,N,08052.0801,W,1,9,1.5,18,M,,M,,*52
06/15/2015	05:06:09.592	$GPGGA,050610,2423.0140,N,08052.0786,W,1,10,1.5,18,M,,M,,*6A
06/15/2015	05:06:10.568	$GPGGA,050611,2423.0132,N,08052.0770,W,1,10,1.5,18,M,,M,,*67
06/15/2015	05:06:11.591	$GPGGA,050612,2423.0121,N,08052.0758,W,1,10,1.6,18,M,,M,,*6F
06/15/2015	05:06:12.557	$GPGGA,050613,2423.0111,N,08052.0745,W,1,10,1.5,18,M,,M,,*62
06/15/2015	05:06:13.567	$GPGGA,050614,2423.0105,N,08052.0729,W,1,10,1.5,18,M,,M,,*6A
06/15/2015	05:06:14.557	$GPGGA,050615,2423.0096,N,08052.0718,W,1,10,1.5,18,M,,M,,*62
06/15/2015	05:06:15.577	$GPGGA,050616,2423.0085,N,08052.0706,W,1,10,1.5,18,M,,M,,*6C
06/15/2015	05:06:16.547	$GPGGA,050617,2423.0078,N,08052.0693,W,1,10,1.5,18,M,,M,,*62
06/15/2015	05:06:17.537	$GPGGA,050618,2423.0070,N,08052.0680,W,1,10,1.5,18,M,,M,,*67
06/15/2015	05:06:18.557	$GPGGA,050619,2423.0060,N,08052.0668,W,1,10,1.5,18,M,,M,,*61
06/15/2015	05:06:20.576	$GPGGA,050621,2423.0045,N,08052.0644,W,1,10,1.5,18,M,,M,,*63
06/15/2015	05:06:21.546	$GPGGA,050622,2423.0036,N,08052.0633,W,1,10,1.5,18,M,,M,,*64
06/15/2015	05:06:22.546	$GPGGA,050623,2423.0027,N,08052.0619,W,1,10,1.5,18,M,,M,,*6D
06/15/2015	05:06:23.566	$GPGGA,050624,2423.0020,N,08052.0607,W,1,10,1.5,18,M,,M,,*62
06/15/2015	05:06:24.536	$GPGGA,050625,2423.0011,N,08052.0596,W,1,10,1.6,18,M,,M,,*69
06/15/2015	05:06:25.556	$GPGGA,050626,2423.0002,N,08052.0582,W,1,9,1.6,18,M,,M,,*55
06/15/2015	05:06:26.537	$GPGGA,050627,2422.9993,N,08052.0570,W,1,9,1.6,18,M,,M,,*50
06/15/2015	05:06:27.567	$GPGGA,050628,2422.9985,N,08052.0558,W,1,9,1.6,18,M,,M,,*52
06/15/2015	05:06:28.537	$GPGGA,050629,2422.9977,N,08052.0545,W,1,9,1.6,18,M,,M,,*52
06/15/2015	05:06:29.537	$GPGGA,050630,2422.9968,N,08052.0531,W,1,9,1.5,18,M,,M,,*54
06/15/2015	05:06:30.527	$GPGGA,050631,2422.9959,N,08052.0519,W,1,9,1.6,18,M,,M,,*5E
06/15/2015	05:06:31.647	$GPGGA,050632,2422.9951,N,08052.0507,W,1,9,1.5,18,M,,M,,*59
06/15/2015	05:06:32.527	$GPGGA,050633,2422.9942,N,08052.0494,W,1,9,1.5,18,M,,M,,*51
06/15/2015	05:06:33.527	$GPGGA,050634,2422.9933,N,08052.0481,W,1,10,1.6,18,M,,M,,*6F
06/15/2015	05:06:34.507	$GPGGA,050635,2422.9923,N,08052.0469,W,1,10,1.6,18,M,,M,,*69
06/15/2015	05:06:35.567	$GPGGA,050636,2422.9915,N,08052.0458,W,1,9,1.5,18,M,,M,,*56
06/15/2015	05:06:36.597	$GPGGA,050637,2422.9903,N,08052.0446,W,1,9,1.5,18,M,,M,,*5F
06/15/2015	05:06:37.536	$GPGGA,050638,2422.9894,N,08052.0433,W,1,10,1.6,18,M,,M,,*66
06/15/2015	05:06:38.598	$GPGGA,050639,2422.9884,N,08052.0421,W,1,10,1.6,18,M,,M,,*65
06/15/2015	05:06:39.526	$GPGGA,050640,2422.9875,N,08052.0409,W,1,9,1.6,18,M,,M,,*57
06/15/2015	05:06:40.516	$GPGGA,050641,2422.9865,N,08052.0396,W,1,9,1.6,18,M,,M,,*56
06/15/2015	05:06:41.616	$GPGGA,050642,2422.9855,N,08052.0383,W,1,9,1.6,18,M,,M,,*52
06/15/2015	05:06:42.516	$GPGGA,050643,2422.9845,N,08052.0371,W,1,9,1.6,18,M,,M,,*5F
06/15/2015	05:06:43.546	$GPGGA,050644,2422.9837,N,08052.0356,W,1,9,1.5,18,M,,M,,*5B
06/15/2015	05:06:44.598	$GPGGA,050645,2422.9828,N,08052.0344,W,1,9,1.5,18,M,,M,,*57
06/15/2015	05:06:45.489	$GPGGA,050646,2422.9818,N,08052.0332,W,1,10,1.6,18,M,,M,,*6D
06/15/2015	05:06:46.507	$GPGGA,050647,2422.9807,N,08052.0318,W,1,10,1.6,18,M,,M,,*6A
06/15/2015	05:06:47.597	$GPGGA,050648,2422.9798,N,08052.0305,W,1,9,1.5,18,M,,M,,*5B
06/15/2015	05:06:48.507	$GPGGA,050649,2422.9787,N,08052.0292,W,1,9,1.6,18,M,,M,,*58
06/15/2015	05:06:49.607	$GPGGA,050650,2422.9779,N,08052.0279,W,1,9,1.5,18,M,,M,,*57
06/15/2015	05:06:50.577	$GPGGA,050651,2422.9771,N,08052.0265,W,1,9,1.5,18,M,,M,,*53
06/15/2015	05:06:51.577	$GPGGA,050652,2422.9760,N,08052.0251,W,1,10,1.5,18,M,,M,,*6F
06/15/2015	05:06:52.577	$GPGGA,050653,2422.9750,N,08052.0238,W,1,10,1.5,18,M,,M,,*62
06/15/2015	05:06:53.589	$GPGGA,050654,2422.9742,N,08052.0222,W,1,10,1.5,18,M,,M,,*6D
06/15/2015	05:06:54.556	$GPGGA,050655,2422.9732,N,08052.0208,W,1,10,1.5,18,M,,M,,*63
06/15/2015	05:06:55.586	$GPGGA,050656,2422.9722,N,08052.0196,W,1,10,1.5,18,M,,M,,*65
06/15/2015	05:06:56.566	$GPGGA,050657,2422.9713,N,08052.0182,W,1,10,1.5,18,M,,M,,*63
06/15/2015	05:06:57.566	$GPGGA,050658,2422.9704,N,08052.0166,W,1,10,1.5,18,M,,M,,*60
06/15/2015	05:06:58.566	$GPGGA,050659,2422.9695,N,08052.0153,W,1,10,1.5,18,M,,M,,*6E
06/15/2015	05:06:59.576	$GPGGA,050700,2422.9684,N,08052.0143,W,1,10,1.6,18,M,,M,,*61
06/15/2015	05:07:00.556	$GPGGA,050701,2422.9673,N,08052.0127,W,1,10,1.6,18,M,,M,,*6A
06/15/2015	05:07:01.577	$GPGGA,050702,2422.9664,N,08052.0110,W,1,8,1.7,18,M,,M,,*53
06/15/2015	05:07:02.557	$GPGGA,050703,2422.9653,N,08052.0098,W,1,8,1.5,18,M,,M,,*55
06/15/2015	05:07:03.557	$GPGGA,050704,2422.9642,N,08052.0086,W,1,10,1.5,18,M,,M,,*64
06/15/2015	05:07:04.547	$GPGGA,050705,2422.9632,N,08052.0071,W,1,10,1.8,18,M,,M,,*67
06/15/2015	05:07:05.838	$GPGGA,050706,2422.9623,N,08052.0057,W,1,10,1.5,18,M,,M,,*6D
06/15/2015	05:07:06.547	$GPGGA,050707,2422.9613,N,08052.0043,W,1,10,1.5,18,M,,M,,*6A
06/15/2015	05:07:07.577	$GPGGA,050708,2422.9603,N,08052.0028,W,1,10,1.5,18,M,,M,,*69
06/15/2015	05:07:08.537	$GPGGA,050709,2422.9594,N,08052.0016,W,1,10,1.5,18,M,,M,,*68
06/15/2015	05:07:09.537	$GPGGA,050710,2422.9584,N,08052.0003,W,1,10,1.5,18,M,,M,,*65
06/15/2015	05:07:10.527	$GPGGA,050711,2422.9574,N,08051.9988,W,1,10,1.5,18,M,,M,,*6B
06/15/2015	05:07:11.589	$GPGGA,050712,2422.9567,N,08051.9973,W,1,10,1.5,18,M,,M,,*6E
06/15/2015	05:07:12.536	$GPGGA,050713,2422.9557,N,08051.9959,W,1,10,1.5,18,M,,M,,*64
06/15/2015	05:07:13.556	$GPGGA,050714,2422.9547,N,08051.9946,W,1,10,1.5,18,M,,M,,*6C
06/15/2015	05:07:14.526	$GPGGA,050715,2422.9538,N,08051.9932,W,1,10,1.5,18,M,,M,,*66
06/15/2015	05:07:15.566	$GPGGA,050716,2422.9530,N,08051.9916,W,1,10,1.5,18,M,,M,,*6B
06/15/2015	05:07:16.536	$GPGGA,050717,2422.9520,N,08051.9901,W,1,10,1.5,19,M,,M,,*6C
06/15/2015	05:07:17.546	$GPGGA,050718,2422.9511,N,08051.9887,W,1,10,1.5,19,M,,M,,*6E
06/15/2015	05:07:18.636	$GPGGA,050719,2422.9502,N,08051.9875,W,1,10,1.5,19,M,,M,,*60
06/15/2015	05:07:19.637	$GPGGA,050720,2422.9494,N,08051.9859,W,1,10,1.5,19,M,,M,,*6A
06/15/2015	05:07:21.113	$GPGGA,050721,2422.9484,N,08051.9844,W,1,10,1.5,19,M,,M,,*66
06/15/2015	05:07:21.627	$GPGGA,050722,2422.9475,N,08051.9833,W,1,10,1.5,19,M,,M,,*6B
06/15/2015	05:07:22.499	$GPGGA,050723,2422.9467,N,08051.9819,W,1,10,1.5,19,M,,M,,*61
06/15/2015	05:07:23.527	$GPGGA,050724,2422.9457,N,08051.9803,W,1,10,1.5,19,M,,M,,*6E
06/15/2015	05:07:24.517	$GPGGA,050725,2422.9449,N,08051.9790,W,1,10,1.5,19,M,,M,,*65
06/15/2015	05:07:25.608	$GPGGA,050726,2422.9438,N,08051.9778,W,1,10,1.5,19,M,,M,,*66
06/15/2015	05:07:26.501	$GPGGA,050727,2422.9429,N,08051.9764,W,1,10,1.5,19,M,,M,,*6A
06/15/2015	05:07:27.507	$GPGGA,050728,2422.9421,N,08051.9748,W,1,10,1.5,19,M,,M,,*63
06/15/2015	05:07:28.592	$GPGGA,050729,2422.9413,N,08051.9735,W,1,10,1.5,19,M,,M,,*69
06/15/2015	05:07:29.491	$GPGGA,050730,2422.9402,N,08051.9722,W,1,10,1.5,19,M,,M,,*67
06/15/2015	05:07:30.590	$GPGGA,050731,2422.9392,N,08051.9708,W,1,10,1.5,19,M,,M,,*60
06/15/2015	05:07:31.636	$GPGGA,050732,2422.9384,N,08051.9693,W,1,10,1.5,19,M,,M,,*67
06/15/2015	05:07:32.506	$GPGGA,050733,2422.9375,N,08051.9679,W,1,10,1.5,19,M,,M,,*6C
06/15/2015	05:07:33.486	$GPGGA,050734,2422.9366,N,08051.9666,W,1,10,1.5,19,M,,M,,*67
06/15/2015	05:07:34.489	$GPGGA,050735,2422.9355,N,08051.9652,W,1,10,1.5,19,M,,M,,*61
06/15/2015	05:07:35.618	$GPGGA,050736,2422.9346,N,08051.9638,W,1,10,1.5,19,M,,M,,*6C
06/15/2015	05:07:36.577	$GPGGA,050737,2422.9337,N,08051.9626,W,1,10,1.5,19,M,,M,,*64
06/15/2015	05:07:37.590	$GPGGA,050738,2422.9327,N,08051.9612,W,1,10,1.5,19,M,,M,,*6D
06/15/2015	05:07:38.596	$GPGGA,050739,2422.9319,N,08051.9596,W,1,10,1.5,19,M,,M,,*6E
06/15/2015	05:07:39.589	$GPGGA,050740,2422.9310,N,08051.9584,W,1,9,1.6,19,M,,M,,*51
06/15/2015	05:07:40.577	$GPGGA,050741,2422.9298,N,08051.9574,W,1,9,1.5,19,M,,M,,*5D
06/15/2015	05:07:41.567	$GPGGA,050742,2422.9290,N,08051.9560,W,1,9,1.6,19,M,,M,,*50
06/15/2015	05:07:42.577	$GPGGA,050743,2422.9283,N,08051.9545,W,1,9,1.5,19,M,,M,,*57
06/15/2015	05:07:43.603	$GPGGA,050744,2422.9274,N,08051.9532,W,1,10,1.5,19,M,,M,,*60
06/15/2015	05:07:44.557	$GPGGA,050745,2422.9265,N,08051.9520,W,1,10,1.5,19,M,,M,,*62
06/15/2015	05:07:45.606	$GPGGA,050746,2422.9254,N,08051.9506,W,1,10,1.5,19,M,,M,,*67
06/15/2015	05:07:46.557	$GPGGA,050747,2422.9247,N,08051.9491,W,1,10,1.5,19,M,,M,,*6B
06/15/2015	05:07:47.591	$GPGGA,050748,2422.9238,N,08051.9476,W,1,10,1.5,19,M,,M,,*65
06/15/2015	05:07:48.556	$GPGGA,050749,2422.9229,N,08051.9464,W,1,10,1.5,19,M,,M,,*67
06/15/2015	05:07:49.566	$GPGGA,050750,2422.9218,N,08051.9451,W,1,10,1.5,19,M,,M,,*6B
06/15/2015	05:07:50.556	$GPGGA,050751,2422.9211,N,08051.9436,W,1,10,1.5,19,M,,M,,*62
06/15/2015	05:07:51.589	$GPGGA,050752,2422.9201,N,08051.9422,W,1,10,1.5,20,M,,M,,*6F
06/15/2015	05:07:52.556	$GPGGA,050753,2422.9191,N,08051.9410,W,1,10,1.5,20,M,,M,,*65
06/15/2015	05:07:53.546	$GPGGA,050754,2422.9184,N,08051.9396,W,1,10,1.5,20,M,,M,,*6F
06/15/2015	05:07:54.547	$GPGGA,050755,2422.9175,N,08051.9381,W,1,10,1.5,20,M,,M,,*66
06/15/2015	05:07:55.547	$GPGGA,050756,2422.9166,N,08051.9369,W,1,10,1.5,20,M,,M,,*61
06/15/2015	05:07:56.537	$GPGGA,050757,2422.9156,N,08051.9355,W,1,10,1.5,20,M,,M,,*6C
06/15/2015	05:07:57.537	$GPGGA,050758,2422.9148,N,08051.9340,W,1,10,1.5,20,M,,M,,*68
06/15/2015	05:07:58.537	$GPGGA,050759,2422.9142,N,08051.9326,W,1,10,1.5,20,M,,M,,*63
06/15/2015	05:07:59.567	$GPGGA,050800,2422.9130,N,08051.9313,W,1,10,1.5,20,M,,M,,*63
06/15/2015	05:08:00.537	$GPGGA,050801,2422.9121,N,08051.9301,W,1,10,1.6,20,M,,M,,*62
06/15/2015	05:08:01.557	$GPGGA,050802,2422.9114,N,08051.9288,W,1,10,1.5,20,M,,M,,*64
06/15/2015	05:08:02.527	$GPGGA,050803,2422.9104,N,08051.9274,W,1,10,1.5,20,M,,M,,*67
06/15/2015	05:08:03.547	$GPGGA,050804,2422.9095,N,08051.9261,W,1,10,1.5,20,M,,M,,*6D
06/15/2015	05:08:04.597	$GPGGA,050805,2422.9086,N,08051.9248,W,1,10,1.5,20,M,,M,,*65
06/15/2015	05:08:05.498	$GPGGA,050806,2422.9077,N,08051.9236,W,1,10,1.5,20,M,,M,,*61
06/15/2015	05:08:06.516	$GPGGA,050807,2422.9066,N,08051.9222,W,1,10,1.6,20,M,,M,,*66
06/15/2015	05:08:08.896	$GPGGA,050809,2422.9049,N,08051.9196,W,1,10,1.5,20,M,,M,,*6A
06/15/2015	05:08:09.536	$GPGGA,050810,2422.9038,N,08051.9182,W,1,10,1.5,20,M,,M,,*61
06/15/2015	05:08:10.491	$GPGGA,050811,2422.9030,N,08051.9167,W,1,10,1.6,20,M,,M,,*60
06/15/2015	05:08:11.526	$GPGGA,050812,2422.9021,N,08051.9153,W,1,9,1.6,20,M,,M,,*5C
06/15/2015	05:08:12.501	$GPGGA,050813,2422.9012,N,08051.9138,W,1,9,1.5,20,M,,M,,*53
06/15/2015	05:08:13.506	$GPGGA,050814,2422.9001,N,08051.9126,W,1,10,1.5,20,M,,M,,*61
06/15/2015	05:08:14.579	$GPGGA,050815,2422.8991,N,08051.9113,W,1,10,1.5,20,M,,M,,*67
06/15/2015	05:08:15.592	$GPGGA,050816,2422.8983,N,08051.9097,W,1,8,1.7,20,M,,M,,*51
06/15/2015	05:08:16.492	$GPGGA,050817,2422.8973,N,08051.9084,W,1,8,1.5,20,M,,M,,*5F
06/15/2015	05:08:17.626	$GPGGA,050818,2422.8965,N,08051.9072,W,1,10,1.5,20,M,,M,,*67
06/15/2015	05:08:18.581	$GPGGA,050819,2422.8955,N,08051.9058,W,1,10,1.5,20,M,,M,,*6D
06/15/2015	05:08:19.506	$GPGGA,050820,2422.8947,N,08051.9044,W,1,10,1.5,20,M,,M,,*69
06/15/2015	05:08:20.566	$GPGGA,050821,2422.8938,N,08051.9030,W,1,10,1.5,20,M,,M,,*63
06/15/2015	05:08:21.480	$GPGGA,050822,2422.8929,N,08051.9019,W,1,10,1.5,20,M,,M,,*6B
06/15/2015	05:08:22.577	$GPGGA,050823,2422.8918,N,08051.9005,W,1,10,1.5,20,M,,M,,*65
06/15/2015	05:08:23.594	$GPGGA,050824,2422.8911,N,08051.8990,W,1,10,1.5,20,M,,M,,*6F
06/15/2015	05:08:24.566	$GPGGA,050825,2422.8901,N,08051.8977,W,1,10,1.5,20,M,,M,,*66
06/15/2015	05:08:25.566	$GPGGA,050826,2422.8891,N,08051.8965,W,1,10,1.5,20,M,,M,,*6E
06/15/2015	05:08:26.566	$GPGGA,050827,2422.8883,N,08051.8951,W,1,10,1.6,20,M,,M,,*68
06/15/2015	05:08:27.579	$GPGGA,050828,2422.8875,N,08051.8937,W,1,10,1.5,20,M,,M,,*6D
06/15/2015	05:08:28.567	$GPGGA,050829,2422.8865,N,08051.8924,W,1,10,1.5,20,M,,M,,*6F
06/15/2015	05:08:29.576	$GPGGA,050830,2422.8854,N,08051.8911,W,1,10,1.5,20,M,,M,,*63
06/15/2015	05:08:30.556	$GPGGA,050831,2422.8844,N,08051.8898,W,1,10,1.5,20,M,,M,,*63
06/15/2015	05:08:31.597	$GPGGA,050832,2422.8837,N,08051.8884,W,1,8,1.7,20,M,,M,,*52
06/15/2015	05:08:32.556	$GPGGA,050833,2422.8828,N,08051.8870,W,1,8,1.5,20,M,,M,,*54
06/15/2015	05:08:33.546	$GPGGA,050834,2422.8817,N,08051.8858,W,1,10,1.5,20,M,,M,,*6C
06/15/2015	05:08:34.546	$GPGGA,050835,2422.8807,N,08051.8846,W,1,10,1.6,20,M,,M,,*60
06/15/2015	05:08:35.594	$GPGGA,050836,2422.8799,N,08051.8832,W,1,9,1.6,20,M,,M,,*50
06/15/2015	05:08:36.546	$GPGGA,050837,2422.8790,N,08051.8819,W,1,9,1.5,20,M,,M,,*52
06/15/2015	05:08:37.536	$GPGGA,050838,2422.8781,N,08051.8806,W,1,10,1.5,19,M,,M,,*61
06/15/2015	05:08:38.546	$GPGGA,050839,2422.8770,N,08051.8793,W,1,10,1.5,19,M,,M,,*6D
06/15/2015	05:08:39.566	$GPGGA,050840,2422.8763,N,08051.8781,W,1,10,1.5,19,M,,M,,*62
06/15/2015	05:08:40.526	$GPGGA,050841,2422.8753,N,08051.8768,W,1,10,1.5,19,M,,M,,*67
06/15/2015	05:08:41.556	$GPGGA,050842,2422.8745,N,08051.8753,W,1,9,1.6,19,M,,M,,*50
06/15/2015	05:08:42.536	$GPGGA,050843,2422.8734,N,08051.8739,W,1,9,1.5,19,M,,M,,*58
06/15/2015	05:08:43.596	$GPGGA,050844,2422.8725,N,08051.8727,W,1,10,1.5,19,M,,M,,*68
06/15/2015	05:08:44.536	$GPGGA,050845,2422.8716,N,08051.8713,W,1,10,1.5,19,M,,M,,*6E
06/15/2015	05:08:45.516	$GPGGA,050846,2422.8707,N,08051.8698,W,1,10,1.5,19,M,,M,,*6F
06/15/2015	05:08:46.526	$GPGGA,050847,2422.8696,N,08051.8683,W,1,10,1.5,19,M,,M,,*6D
06/15/2015	05:08:47.566	$GPGGA,050848,2422.8689,N,08051.8671,W,1,10,1.5,19,M,,M,,*61
06/15/2015	05:08:48.516	$GPGGA,050849,2422.8680,N,08051.8658,W,1,10,1.5,19,M,,M,,*62
06/15/2015	05:08:49.506	$GPGGA,050850,2422.8670,N,08051.8643,W,1,10,1.5,19,M,,M,,*6F
06/15/2015	05:08:50.526	$GPGGA,050851,2422.8663,N,08051.8628,W,1,10,1.5,19,M,,M,,*61
06/15/2015	05:08:51.556	$GPGGA,050852,2422.8653,N,08051.8614,W,1,10,1.5,19,M,,M,,*6E
06/15/2015	05:08:52.506	$GPGGA,050853,2422.8644,N,08051.8603,W,1,10,1.5,19,M,,M,,*6F
06/15/2015	05:08:53.516	$GPGGA,050854,2422.8637,N,08051.8590,W,1,10,1.5,19,M,,M,,*65
06/15/2015	05:08:54.666	$GPGGA,050855,2422.8629,N,08051.8573,W,1,10,1.5,19,M,,M,,*66
06/15/2015	05:08:55.706	$GPGGA,050856,2422.8619,N,08051.8560,W,1,10,1.5,19,M,,M,,*64
06/15/2015	05:08:56.667	$GPGGA,050857,2422.8611,N,08051.8549,W,1,10,1.5,19,M,,M,,*66
06/15/2015	05:08:57.506	$GPGGA,050858,2422.8604,N,08051.8535,W,1,10,1.5,19,M,,M,,*66
06/15/2015	05:08:58.496	$GPGGA,050859,2422.8595,N,08051.8519,W,1,10,1.5,19,M,,M,,*62
06/15/2015	05:08:59.516	$GPGGA,050900,2422.8586,N,08051.8507,W,1,10,1.5,19,M,,M,,*62
06/15/2015	05:09:00.596	$GPGGA,050901,2422.8577,N,08051.8495,W,1,10,1.5,19,M,,M,,*67
06/15/2015	05:09:01.636	$GPGGA,050902,2422.8569,N,08051.8481,W,1,10,1.5,19,M,,M,,*6E
06/15/2015	05:09:02.506	$GPGGA,050903,2422.8562,N,08051.8466,W,1,10,1.5,19,M,,M,,*6D
06/15/2015	05:09:03.506	$GPGGA,050904,2422.8553,N,08051.8453,W,1,10,1.5,19,M,,M,,*6E
06/15/2015	05:09:04.477	$GPGGA,050905,2422.8543,N,08051.8440,W,1,10,1.5,19,M,,M,,*6C
06/15/2015	05:09:05.626	$GPGGA,050906,2422.8536,N,08051.8427,W,1,10,1.5,19,M,,M,,*6C
06/15/2015	05:09:06.476	$GPGGA,050907,2422.8528,N,08051.8413,W,1,10,1.5,19,M,,M,,*65
06/15/2015	05:09:07.686	$GPGGA,050908,2422.8518,N,08051.8399,W,1,10,1.5,19,M,,M,,*6C
06/15/2015	05:09:08.656	$GPGGA,050909,2422.8510,N,08051.8385,W,1,10,1.5,19,M,,M,,*68
06/15/2015	05:09:09.616	$GPGGA,050910,2422.8503,N,08051.8371,W,1,10,1.5,19,M,,M,,*69
06/15/2015	05:09:10.646	$GPGGA,050911,2422.8493,N,08051.8358,W,1,10,1.5,19,M,,M,,*6B
06/15/2015	05:09:11.646	$GPGGA,050912,2422.8485,N,08051.8345,W,1,10,1.5,19,M,,M,,*63
06/15/2015	05:09:12.636	$GPGGA,050913,2422.8477,N,08051.8330,W,1,10,1.5,19,M,,M,,*6D
06/15/2015	05:09:13.586	$GPGGA,050914,2422.8470,N,08051.8316,W,1,10,1.5,19,M,,M,,*69
06/15/2015	05:09:14.636	$GPGGA,050915,2422.8461,N,08051.8304,W,1,10,1.5,19,M,,M,,*6B
06/15/2015	05:09:15.636	$GPGGA,050916,2422.8452,N,08051.8290,W,1,10,1.5,19,M,,M,,*64
06/15/2015	05:09:16.556	$GPGGA,050917,2422.8445,N,08051.8276,W,1,10,1.5,19,M,,M,,*6B
06/15/2015	05:09:17.596	$GPGGA,050918,2422.8438,N,08051.8262,W,1,10,1.5,19,M,,M,,*6B
06/15/2015	05:09:18.546	$GPGGA,050919,2422.8428,N,08051.8249,W,1,10,1.5,19,M,,M,,*62
06/15/2015	05:09:19.606	$GPGGA,050920,2422.8421,N,08051.8235,W,1,10,1.5,19,M,,M,,*6A
06/15/2015	05:09:20.596	$GPGGA,050921,2422.8413,N,08051.8221,W,1,10,1.5,19,M,,M,,*6F
06/15/2015	05:09:21.616	$GPGGA,050922,2422.8403,N,08051.8206,W,1,10,1.5,19,M,,M,,*68
06/15/2015	05:09:22.636	$GPGGA,050923,2422.8394,N,08051.8194,W,1,10,1.5,19,M,,M,,*68
06/15/2015	05:09:23.606	$GPGGA,050924,2422.8387,N,08051.8181,W,1,10,1.5,19,M,,M,,*69
06/15/2015	05:09:24.590	$GPGGA,050925,2422.8378,N,08051.8167,W,1,10,1.5,19,M,,M,,*60
06/15/2015	05:09:25.576	$GPGGA,050926,2422.8370,N,08051.8152,W,1,10,1.5,19,M,,M,,*6D
06/15/2015	05:09:26.587	$GPGGA,050927,2422.8360,N,08051.8139,W,1,10,1.5,19,M,,M,,*60
06/15/2015	05:09:27.589	$GPGGA,050928,2422.8351,N,08051.8127,W,1,10,1.5,19,M,,M,,*62
06/15/2015	05:09:28.536	$GPGGA,050929,2422.8344,N,08051.8112,W,1,10,1.5,19,M,,M,,*61
06/15/2015	05:09:29.586	$GPGGA,050930,2422.8336,N,08051.8097,W,1,10,1.6,19,M,,M,,*63
06/15/2015	05:09:30.587	$GPGGA,050931,2422.8326,N,08051.8084,W,1,10,1.6,19,M,,M,,*61
06/15/2015	05:09:31.582	$GPGGA,050932,2422.8316,N,08051.8072,W,1,10,1.5,19,M,,M,,*6B
06/15/2015	05:09:32.588	$GPGGA,050933,2422.8307,N,08051.8058,W,1,10,1.5,18,M,,M,,*63
06/15/2015	05:09:33.566	$GPGGA,050934,2422.8299,N,08051.8043,W,1,10,1.5,18,M,,M,,*68
06/15/2015	05:09:34.578	$GPGGA,050935,2422.8290,N,08051.8029,W,1,10,1.5,18,M,,M,,*6C
06/15/2015	05:09:35.586	$GPGGA,050936,2422.8280,N,08051.8016,W,1,10,1.5,18,M,,M,,*62
06/15/2015	05:09:36.586	$GPGGA,050937,2422.8270,N,08051.8003,W,1,10,1.5,18,M,,M,,*68
06/15/2015	05:09:37.566	$GPGGA,050938,2422.8264,N,08051.7988,W,1,10,1.5,18,M,,M,,*67
06/15/2015	05:09:38.566	$GPGGA,050939,2422.8254,N,08051.7975,W,1,10,1.5,18,M,,M,,*67
06/15/2015	05:09:39.576	$GPGGA,050940,2422.8244,N,08051.7963,W,1,10,1.5,18,M,,M,,*6F
06/15/2015	05:09:40.506	$GPGGA,050941,2422.8236,N,08051.7948,W,1,10,1.5,18,M,,M,,*62
06/15/2015	05:09:41.546	$GPGGA,050942,2422.8228,N,08051.7934,W,1,10,1.5,18,M,,M,,*65
06/15/2015	05:09:42.616	$GPGGA,050943,2422.8218,N,08051.7924,W,1,10,1.6,18,M,,M,,*65
06/15/2015	05:09:43.556	$GPGGA,050944,2422.8208,N,08051.7910,W,1,9,1.6,18,M,,M,,*5C
06/15/2015	05:09:44.566	$GPGGA,050945,2422.8201,N,08051.7896,W,1,9,1.6,18,M,,M,,*5B
06/15/2015	05:09:45.626	$GPGGA,050946,2422.8192,N,08051.7885,W,1,9,1.5,18,M,,M,,*50
06/15/2015	05:09:47.596	$GPGGA,050947,2422.8181,N,08051.7873,W,1,9,1.6,18,M,,M,,*59
06/15/2015	05:09:47.626	$GPGGA,050948,2422.8175,N,08051.7859,W,1,9,1.5,18,M,,M,,*56
06/15/2015	05:09:48.867	$GPGGA,050949,2422.8168,N,08051.7845,W,1,9,1.5,18,M,,M,,*56
06/15/2015	05:09:49.616	$GPGGA,050950,2422.8158,N,08051.7831,W,1,10,1.5,18,M,,M,,*66
06/15/2015	05:09:50.556	$GPGGA,050951,2422.8150,N,08051.7819,W,1,10,1.5,18,M,,M,,*65
06/15/2015	05:09:51.616	$GPGGA,050952,2422.8142,N,08051.7806,W,1,10,1.6,18,M,,M,,*68
06/15/2015	05:09:52.536	$GPGGA,050953,2422.8134,N,08051.7795,W,1,10,1.6,18,M,,M,,*6D
06/15/2015	05:09:53.591	$GPGGA,050954,2422.8125,N,08051.7781,W,1,9,1.5,18,M,,M,,*54
06/15/2015	05:09:54.546	$GPGGA,050955,2422.8117,N,08051.7767,W,1,9,1.5,18,M,,M,,*5C
06/15/2015	05:09:55.591	$GPGGA,050956,2422.8109,N,08051.7756,W,1,10,1.5,18,M,,M,,*6A
06/15/2015	05:09:56.546	$GPGGA,050957,2422.8099,N,08051.7744,W,1,10,1.6,17,M,,M,,*6C
06/15/2015	05:09:57.578	$GPGGA,050958,2422.8093,N,08051.7728,W,1,9,1.5,17,M,,M,,*58
06/15/2015	05:09:58.566	$GPGGA,050959,2422.8087,N,08051.7715,W,1,9,1.5,17,M,,M,,*52
06/15/2015	05:09:59.626	$GPGGA,051000,2422.8077,N,08051.7703,W,1,10,1.5,18,M,,M,,*69
06/15/2015	05:10:00.566	$GPGGA,051001,2422.8069,N,08051.7690,W,1,10,1.5,18,M,,M,,*6C
06/15/2015	05:10:01.606	$GPGGA,051002,2422.8063,N,08051.7678,W,1,10,1.5,18,M,,M,,*63
06/15/2015	05:10:02.556	$GPGGA,051003,2422.8055,N,08051.7664,W,1,10,1.5,18,M,,M,,*6A
06/15/2015	05:10:03.595	$GPGGA,051004,2422.8046,N,08051.7650,W,1,10,1.5,18,M,,M,,*68
06/15/2015	05:10:04.546	$GPGGA,051005,2422.8038,N,08051.7639,W,1,10,1.5,18,M,,M,,*6F
06/15/2015	05:10:05.578	$GPGGA,051006,2422.8031,N,08051.7628,W,1,10,1.5,18,M,,M,,*65
06/15/2015	05:10:06.567	$GPGGA,051007,2422.8022,N,08051.7612,W,1,10,1.5,18,M,,M,,*6F
06/15/2015	05:10:07.616	$GPGGA,051008,2422.8015,N,08051.7598,W,1,10,1.5,18,M,,M,,*65
06/15/2015	05:10:08.556	$GPGGA,051009,2422.8006,N,08051.7589,W,1,10,1.5,18,M,,M,,*66
06/15/2015	05:10:09.546	$GPGGA,051010,2422.7998,N,08051.7576,W,1,10,1.5,18,M,,M,,*6F
06/15/2015	05:10:10.566	$GPGGA,051011,2422.7992,N,08051.7560,W,1,10,1.5,18,M,,M,,*63
06/15/2015	05:10:11.556	$GPGGA,051012,2422.7984,N,08051.7547,W,1,10,1.5,18,M,,M,,*62
06/15/2015	05:10:12.566	$GPGGA,051013,2422.7975,N,08051.7536,W,1,10,1.5,18,M,,M,,*6B
06/15/2015	05:10:13.566	$GPGGA,051014,2422.7968,N,08051.7523,W,1,10,1.5,18,M,,M,,*64
06/15/2015	05:10:14.556	$GPGGA,051015,2422.7961,N,08051.7508,W,1,10,1.5,18,M,,M,,*65
06/15/2015	05:10:15.566	$GPGGA,051016,2422.7953,N,08051.7494,W,1,10,1.5,18,M,,M,,*63
06/15/2015	05:10:16.546	$GPGGA,051017,2422.7943,N,08051.7483,W,1,10,1.5,18,M,,M,,*65
06/15/2015	05:10:17.566	$GPGGA,051018,2422.7935,N,08051.7470,W,1,10,1.5,18,M,,M,,*67
06/15/2015	05:10:18.536	$GPGGA,051019,2422.7928,N,08051.7455,W,1,10,1.5,18,M,,M,,*6D
06/15/2015	05:10:19.578	$GPGGA,051020,2422.7919,N,08051.7441,W,1,10,1.5,18,M,,M,,*60
06/15/2015	05:10:20.566	$GPGGA,051021,2422.7910,N,08051.7430,W,1,10,1.5,18,M,,M,,*6E
06/15/2015	05:10:21.536	$GPGGA,051022,2422.7903,N,08051.7417,W,1,10,1.5,18,M,,M,,*6A
06/15/2015	05:10:22.556	$GPGGA,051023,2422.7894,N,08051.7401,W,1,10,1.5,18,M,,M,,*63
06/15/2015	05:10:23.536	$GPGGA,051024,2422.7885,N,08051.7388,W,1,10,1.5,18,M,,M,,*62
06/15/2015	05:10:24.556	$GPGGA,051025,2422.7876,N,08051.7377,W,1,10,1.5,19,M,,M,,*6E
06/15/2015	05:10:25.516	$GPGGA,051026,2422.7868,N,08051.7363,W,1,10,1.5,19,M,,M,,*67
06/15/2015	05:10:26.616	$GPGGA,051027,2422.7860,N,08051.7348,W,1,10,1.5,19,M,,M,,*67
06/15/2015	05:10:27.556	$GPGGA,051028,2422.7852,N,08051.7334,W,1,10,1.5,19,M,,M,,*62
06/15/2015	05:10:28.566	$GPGGA,051029,2422.7842,N,08051.7323,W,1,10,1.5,19,M,,M,,*64
06/15/2015	05:10:29.536	$GPGGA,051030,2422.7834,N,08051.7309,W,1,10,1.5,19,M,,M,,*65
06/15/2015	05:10:30.506	$GPGGA,051031,2422.7834,N,08051.7309,W,1,10,1.5,19,M,,M,,*64
06/15/2015	05:10:31.506	$GPGGA,051032,2422.7817,N,08051.7280,W,1,10,1.5,19,M,,M,,*66
06/15/2015	05:10:32.626	$GPGGA,051033,2422.7807,N,08051.7269,W,1,10,1.5,19,M,,M,,*61
06/15/2015	05:10:33.626	$GPGGA,051034,2422.7799,N,08051.7255,W,1,10,1.5,19,M,,M,,*61
06/15/2015	05:10:34.587	$GPGGA,051035,2422.7791,N,08051.7239,W,1,10,1.5,19,M,,M,,*62
06/15/2015	05:10:35.497	$GPGGA,051036,2422.7784,N,08051.7225,W,1,10,1.5,19,M,,M,,*68
06/15/2015	05:10:36.596	$GPGGA,051037,2422.7774,N,08051.7215,W,1,10,1.5,19,M,,M,,*65
06/15/2015	05:10:37.492	$GPGGA,051038,2422.7764,N,08051.7201,W,1,10,1.5,19,M,,M,,*6E
06/15/2015	05:10:38.506	$GPGGA,051039,2422.7757,N,08051.7185,W,1,10,1.5,19,M,,M,,*60
06/15/2015	05:10:39.616	$GPGGA,051040,2422.7751,N,08051.7171,W,1,10,1.5,19,M,,M,,*63
06/15/2015	05:10:40.587	$GPGGA,051041,2422.7740,N,08051.7159,W,1,10,1.5,19,M,,M,,*68
06/15/2015	05:10:41.746	$GPGGA,051042,2422.7733,N,08051.7147,W,1,10,1.5,19,M,,M,,*60
06/15/2015	05:10:42.576	$GPGGA,051043,2422.7726,N,08051.7132,W,1,10,1.5,19,M,,M,,*67
06/15/2015	05:10:43.491	$GPGGA,051044,2422.7717,N,08051.7117,W,1,10,1.5,19,M,,M,,*65
06/15/2015	05:10:44.592	$GPGGA,051045,2422.7709,N,08051.7104,W,1,10,1.5,19,M,,M,,*69
06/15/2015	05:10:45.596	$GPGGA,051046,2422.7701,N,08051.7093,W,1,10,1.5,19,M,,M,,*6D
06/15/2015	05:10:46.579	$GPGGA,051047,2422.7691,N,08051.7078,W,1,10,1.5,19,M,,M,,*61
06/15/2015	05:10:47.596	$GPGGA,051048,2422.7684,N,08051.7063,W,1,10,1.5,19,M,,M,,*60
06/15/2015	05:10:48.566	$GPGGA,051049,2422.7677,N,08051.7050,W,1,10,1.5,19,M,,M,,*6D
06/15/2015	05:10:49.576	$GPGGA,051050,2422.7666,N,08051.7037,W,1,10,1.5,19,M,,M,,*64
06/15/2015	05:10:50.566	$GPGGA,051051,2422.7658,N,08051.7024,W,1,10,1.5,19,M,,M,,*6A
06/15/2015	05:10:51.566	$GPGGA,051052,2422.7654,N,08051.7011,W,1,10,1.5,19,M,,M,,*63
06/15/2015	05:10:52.566	$GPGGA,051053,2422.7644,N,08051.6997,W,1,10,1.5,19,M,,M,,*65
06/15/2015	05:10:53.589	$GPGGA,051054,2422.7636,N,08051.6983,W,1,10,1.5,19,M,,M,,*62
06/15/2015	05:10:54.556	$GPGGA,051055,2422.7629,N,08051.6971,W,1,10,1.5,19,M,,M,,*60
06/15/2015	05:10:55.596	$GPGGA,051056,2422.7621,N,08051.6957,W,1,10,1.5,19,M,,M,,*6F
06/15/2015	05:10:56.556	$GPGGA,051057,2422.7612,N,08051.6944,W,1,10,1.5,19,M,,M,,*6C
06/15/2015	05:10:57.566	$GPGGA,051058,2422.7604,N,08051.6930,W,1,10,1.5,19,M,,M,,*67
06/15/2015	05:10:58.546	$GPGGA,051059,2422.7596,N,08051.6918,W,1,10,1.5,19,M,,M,,*64
06/15/2015	05:10:59.597	$GPGGA,051100,2422.7587,N,08051.6906,W,1,10,1.5,19,M,,M,,*66
06/15/2015	05:11:00.556	$GPGGA,051101,2422.7578,N,08051.6892,W,1,10,1.5,19,M,,M,,*6B
06/15/2015	05:11:01.536	$GPGGA,051102,2422.7571,N,08051.6878,W,1,10,1.5,19,M,,M,,*65
06/15/2015	05:11:02.546	$GPGGA,051103,2422.7562,N,08051.6865,W,1,10,1.5,19,M,,M,,*6A
06/15/2015	05:11:03.577	$GPGGA,051104,2422.7553,N,08051.6853,W,1,10,1.5,19,M,,M,,*6A
06/15/2015	05:11:04.536	$GPGGA,051105,2422.7544,N,08051.6840,W,1,10,1.5,19,M,,M,,*6F
06/15/2015	05:11:05.526	$GPGGA,051106,2422.7538,N,08051.6825,W,1,10,1.5,19,M,,M,,*64
06/15/2015	05:11:06.536	$GPGGA,051107,2422.7528,N,08051.6812,W,1,10,1.5,19,M,,M,,*60
06/15/2015	05:11:07.526	$GPGGA,051108,2422.7518,N,08051.6800,W,1,10,1.5,19,M,,M,,*6F
06/15/2015	05:11:08.526	$GPGGA,051109,2422.7510,N,08051.6787,W,1,10,1.5,19,M,,M,,*66
06/15/2015	05:11:09.556	$GPGGA,051110,2422.7502,N,08051.6773,W,1,10,1.5,18,M,,M,,*67
06/15/2015	05:11:10.536	$GPGGA,051111,2422.7492,N,08051.6760,W,1,10,1.5,18,M,,M,,*6C
06/15/2015	05:11:11.536	$GPGGA,051112,2422.7485,N,08051.6748,W,1,9,1.6,18,M,,M,,*58
06/15/2015	05:11:12.526	$GPGGA,051113,2422.7477,N,08051.6735,W,1,9,1.5,18,M,,M,,*5D
06/15/2015	05:11:13.526	$GPGGA,051114,2422.7468,N,08051.6722,W,1,10,1.5,18,M,,M,,*6A
06/15/2015	05:11:14.536	$GPGGA,051115,2422.7459,N,08051.6710,W,1,10,1.5,18,M,,M,,*68
06/15/2015	05:11:15.626	$GPGGA,051116,2422.7450,N,08051.6699,W,1,9,1.6,18,M,,M,,*59
06/15/2015	05:11:16.517	$GPGGA,051117,2422.7442,N,08051.6684,W,1,9,1.6,18,M,,M,,*57
06/15/2015	05:11:17.536	$GPGGA,051118,2422.7434,N,08051.6671,W,1,10,1.5,18,M,,M,,*68
06/15/2015	05:11:18.516	$GPGGA,051119,2422.7426,N,08051.6661,W,1,10,1.5,18,M,,M,,*6B
06/15/2015	05:11:19.516	$GPGGA,051120,2422.7415,N,08051.6649,W,1,9,1.6,19,M,,M,,*51
06/15/2015	05:11:20.516	$GPGGA,051121,2422.7408,N,08051.6635,W,1,9,1.6,19,M,,M,,*57
06/15/2015	05:11:21.516	$GPGGA,051122,2422.7398,N,08051.6625,W,1,10,1.5,19,M,,M,,*60
06/15/2015	05:11:22.516	$GPGGA,051123,2422.7388,N,08051.6614,W,1,10,1.5,19,M,,M,,*62
06/15/2015	05:11:23.626	$GPGGA,051124,2422.7380,N,08051.6599,W,1,10,1.5,19,M,,M,,*6B
06/15/2015	05:11:24.606	$GPGGA,051125,2422.7373,N,08051.6586,W,1,10,1.5,19,M,,M,,*68
06/15/2015	05:11:25.588	$GPGGA,051126,2422.7362,N,08051.6576,W,1,10,1.5,19,M,,M,,*64
06/15/2015	05:11:26.587	$GPGGA,051127,2422.7352,N,08051.6563,W,1,10,1.7,19,M,,M,,*60
06/15/2015	05:11:27.506	$GPGGA,051128,2422.7344,N,08051.6550,W,1,9,1.6,19,M,,M,,*51
06/15/2015	05:11:28.587	$GPGGA,051129,2422.7336,N,08051.6538,W,1,9,1.6,19,M,,M,,*5B
06/15/2015	05:11:29.588	$GPGGA,051130,2422.7327,N,08051.6526,W,1,10,1.5,19,M,,M,,*67
06/15/2015	05:11:30.487	$GPGGA,051131,2422.7319,N,08051.6513,W,1,10,1.5,19,M,,M,,*6D
06/15/2015	05:11:31.591	$GPGGA,051132,2422.7310,N,08051.6501,W,1,10,1.5,19,M,,M,,*64
06/15/2015	05:11:32.566	$GPGGA,051133,2422.7300,N,08051.6489,W,1,10,1.6,19,M,,M,,*66
06/15/2015	05:11:33.596	$GPGGA,051134,2422.7293,N,08051.6476,W,1,10,1.5,19,M,,M,,*69
06/15/2015	05:11:34.566	$GPGGA,051135,2422.7285,N,08051.6463,W,1,10,1.5,19,M,,M,,*6B
06/15/2015	05:11:35.566	$GPGGA,051136,2422.7274,N,08051.6451,W,1,9,1.6,19,M,,M,,*5C
06/15/2015	05:11:36.556	$GPGGA,051137,2422.7264,N,08051.6439,W,1,9,1.5,19,M,,M,,*51
06/15/2015	05:11:37.591	$GPGGA,051138,2422.7257,N,08051.6424,W,1,10,1.5,19,M,,M,,*6A
06/15/2015	05:11:38.566	$GPGGA,051139,2422.7249,N,08051.6410,W,1,10,1.5,19,M,,M,,*63
06/15/2015	05:11:39.606	$GPGGA,051140,2422.7239,N,08051.6398,W,1,10,1.5,19,M,,M,,*6D
06/15/2015	05:11:40.556	$GPGGA,051141,2422.7229,N,08051.6385,W,1,10,1.8,19,M,,M,,*6C
06/15/2015	05:11:41.566	$GPGGA,051142,2422.7218,N,08051.6372,W,1,10,1.5,19,M,,M,,*68
06/15/2015	05:11:42.556	$GPGGA,051143,2422.7210,N,08051.6358,W,1,10,1.5,19,M,,M,,*69
06/15/2015	05:11:43.606	$GPGGA,051144,2422.7199,N,08051.6346,W,1,10,1.5,20,M,,M,,*69
06/15/2015	05:11:44.546	$GPGGA,051145,2422.7188,N,08051.6334,W,1,10,1.5,20,M,,M,,*6D
06/15/2015	05:11:45.566	$GPGGA,051146,2422.7180,N,08051.6321,W,1,10,1.5,20,M,,M,,*62
