Software Version Number: 1	Data File Format Number: 1	Build Version Number: 1	Error Count Since VI Started: 1	Manufacturer: Raytheon	 Model Number: RayMarine 120	 S/N: 	 Cal Date: 	 Wind Direction Offset: 0.00	 Slope (M)1: 0.00	 Offset (B)1: 0.00	 Slope (M)2: 0.00	 Offset (B)2: 0.00	 Slope (M)3: 0.00	 Offset (B)3: 0.00	 Slope (M)4: 0.00	 Offset (B)4: 0.00	 Slope (M)5: 0.00	 Offset (B)5: 0.00	 Slope (M)6: 0.00	 Offset (B)6: 0.00
Computer Date	Computer Time	GGA String
06/13/2015	07:00:00.599	$GPGGA,070001,2421.1194,N,08104.6114,W,1,10,1.5,18,M,,M,,*6D
06/13/2015	07:00:01.690	$GPGGA,070002,2421.1183,N,08104.6101,W,1,10,1.5,18,M,,M,,*6C
06/13/2015	07:00:02.510	$GPGGA,070003,2421.1172,N,08104.6088,W,1,10,1.5,18,M,,M,,*63
06/13/2015	07:00:03.540	$GPGGA,070004,2421.1163,N,08104.6076,W,1,10,1.5,18,M,,M,,*65
06/13/2015	07:00:04.510	$GPGGA,070005,2421.1152,N,08104.6063,W,1,10,1.5,18,M,,M,,*62
06/13/2015	07:00:05.700	$GPGGA,070006,2421.1140,N,08104.6050,W,1,10,1.5,18,M,,M,,*62
06/13/2015	07:00:06.620	$GPGGA,070007,2421.1130,N,08104.6037,W,1,10,1.5,18,M,,M,,*65
06/13/2015	07:00:07.700	$GPGGA,070008,2421.1122,N,08104.6023,W,1,10,1.5,18,M,,M,,*6C
06/13/2015	07:00:08.520	$GPGGA,070009,2421.1111,N,08104.6011,W,1,10,1.5,18,M,,M,,*6C
06/13/2015	07:00:09.672	$GPGGA,070010,2421.1100,N,08104.6000,W,1,10,1.5,17,M,,M,,*6B
06/13/2015	07:00:10.620	$GPGGA,070011,2421.1089,N,08104.5986,W,1,10,1.5,17,M,,M,,*6E
06/13/2015	07:00:11.600	$GPGGA,070012,2421.1082,N,08104.5972,W,1,10,1.5,17,M,,M,,*6D
06/13/2015	07:00:12.620	$GPGGA,070013,2421.1070,N,08104.5960,W,1,10,1.5,17,M,,M,,*62
06/13/2015	07:00:13.573	$GPGGA,070014,2421.1058,N,08104.5948,W,1,10,1.5,17,M,,M,,*65
06/13/2015	07:00:14.609	$GPGGA,070015,2421.1049,N,08104.5934,W,1,10,1.5,17,M,,M,,*6F
06/13/2015	07:00:15.672	$GPGGA,070016,2421.1039,N,08104.5920,W,1,10,1.5,17,M,,M,,*6E
06/13/2015	07:00:16.599	$GPGGA,070017,2421.1029,N,08104.5910,W,1,10,1.5,17,M,,M,,*6D
06/13/2015	07:00:17.669	$GPGGA,070018,2421.1021,N,08104.5898,W,1,10,1.5,17,M,,M,,*6B
06/13/2015	07:00:18.570	$GPGGA,070019,2421.1010,N,08104.5884,W,1,10,1.5,17,M,,M,,*65
06/13/2015	07:00:19.676	$GPGGA,070020,2421.0997,N,08104.5870,W,1,10,1.5,17,M,,M,,*63
06/13/2015	07:00:20.600	$GPGGA,070021,2421.0988,N,08104.5860,W,1,10,1.5,17,M,,M,,*6D
06/13/2015	07:00:21.561	$GPGGA,070022,2421.0978,N,08104.5850,W,1,10,1.5,17,M,,M,,*62
06/13/2015	07:00:22.587	$GPGGA,070023,2421.0966,N,08104.5835,W,1,10,1.5,17,M,,M,,*6F
06/13/2015	07:00:23.690	$GPGGA,070024,2421.0957,N,08104.5823,W,1,10,1.5,17,M,,M,,*6D
06/13/2015	07:00:24.585	$GPGGA,070025,2421.0948,N,08104.5815,W,1,10,1.5,17,M,,M,,*67
06/13/2015	07:00:25.660	$GPGGA,070026,2421.0935,N,08104.5805,W,1,10,1.5,17,M,,M,,*6F
06/13/2015	07:00:26.581	$GPGGA,070027,2421.0927,N,08104.5789,W,1,10,1.5,17,M,,M,,*66
06/13/2015	07:00:27.680	$GPGGA,070028,2421.0920,N,08104.5779,W,1,10,1.5,17,M,,M,,*61
06/13/2015	07:00:28.580	$GPGGA,070029,2421.0909,N,08104.5771,W,1,10,1.5,17,M,,M,,*63
06/13/2015	07:00:29.640	$GPGGA,070030,2421.0898,N,08104.5759,W,1,10,1.5,17,M,,M,,*68
06/13/2015	07:00:30.540	$GPGGA,070031,2421.0891,N,08104.5747,W,1,10,1.5,17,M,,M,,*6F
06/13/2015	07:00:31.549	$GPGGA,070032,2421.0882,N,08104.5737,W,1,10,1.5,17,M,,M,,*69
06/13/2015	07:00:32.573	$GPGGA,070033,2421.0871,N,08104.5727,W,1,10,1.5,17,M,,M,,*65
06/13/2015	07:00:33.539	$GPGGA,070034,2421.0862,N,08104.5717,W,1,10,1.5,17,M,,M,,*63
06/13/2015	07:00:34.583	$GPGGA,070035,2421.0851,N,08104.5705,W,1,10,1.5,17,M,,M,,*61
06/13/2015	07:00:35.549	$GPGGA,070036,2421.0844,N,08104.5693,W,1,10,1.5,17,M,,M,,*68
06/13/2015	07:00:36.570	$GPGGA,070037,2421.0833,N,08104.5682,W,1,10,1.5,17,M,,M,,*69
06/13/2015	07:00:37.610	$GPGGA,070038,2421.0822,N,08104.5672,W,1,10,1.5,17,M,,M,,*69
06/13/2015	07:00:38.573	$GPGGA,070039,2421.0815,N,08104.5662,W,1,10,1.5,17,M,,M,,*6D
06/13/2015	07:00:39.660	$GPGGA,070040,2421.0805,N,08104.5647,W,1,10,1.5,17,M,,M,,*65
06/13/2015	07:00:40.550	$GPGGA,070041,2421.0795,N,08104.5637,W,1,10,1.5,17,M,,M,,*65
06/13/2015	07:00:41.586	$GPGGA,070042,2421.0784,N,08104.5629,W,1,10,1.5,17,M,,M,,*69
06/13/2015	07:00:42.620	$GPGGA,070043,2421.0775,N,08104.5615,W,1,10,1.5,17,M,,M,,*69
06/13/2015	07:00:43.660	$GPGGA,070044,2421.0768,N,08104.5601,W,1,10,1.5,17,M,,M,,*67
06/13/2015	07:00:44.560	$GPGGA,070045,2421.0757,N,08104.5592,W,1,10,1.5,17,M,,M,,*63
06/13/2015	07:00:45.520	$GPGGA,070046,2421.0746,N,08104.5581,W,1,10,1.5,17,M,,M,,*62
06/13/2015	07:00:46.560	$GPGGA,070047,2421.0736,N,08104.5567,W,1,10,1.5,17,M,,M,,*6C
06/13/2015	07:00:47.610	$GPGGA,070048,2421.0728,N,08104.5554,W,1,10,1.5,17,M,,M,,*6C
06/13/2015	07:00:48.549	$GPGGA,070049,2421.0717,N,08104.5543,W,1,10,1.5,17,M,,M,,*67
06/13/2015	07:00:49.639	$GPGGA,070050,2421.0707,N,08104.5531,W,1,10,1.5,17,M,,M,,*6B
06/13/2015	07:00:50.549	$GPGGA,070051,2421.0697,N,08104.5517,W,1,10,1.5,17,M,,M,,*66
06/13/2015	07:00:51.650	$GPGGA,070052,2421.0687,N,08104.5505,W,1,10,1.5,17,M,,M,,*67
06/13/2015	07:00:52.549	$GPGGA,070053,2421.0678,N,08104.5492,W,1,10,1.5,17,M,,M,,*69
06/13/2015	07:00:53.599	$GPGGA,070054,2421.0667,N,08104.5479,W,1,10,1.5,17,M,,M,,*65
06/13/2015	07:00:54.530	$GPGGA,070055,2421.0658,N,08104.5465,W,1,10,1.5,17,M,,M,,*65
06/13/2015	07:00:55.621	$GPGGA,070056,2421.0648,N,08104.5452,W,1,10,1.5,17,M,,M,,*63
06/13/2015	07:00:56.610	$GPGGA,070057,2421.0636,N,08104.5441,W,1,10,1.5,17,M,,M,,*69
06/13/2015	07:00:57.590	$GPGGA,070058,2421.0627,N,08104.5426,W,1,10,1.5,17,M,,M,,*67
06/13/2015	07:00:58.600	$GPGGA,070059,2421.0618,N,08104.5410,W,1,10,1.5,17,M,,M,,*6F
06/13/2015	07:00:59.610	$GPGGA,070100,2421.0609,N,08104.5399,W,1,10,1.5,17,M,,M,,*64
06/13/2015	07:01:00.590	$GPGGA,070101,2421.0596,N,08104.5387,W,1,10,1.5,17,M,,M,,*6F
06/13/2015	07:01:01.584	$GPGGA,070102,2421.0587,N,08104.5372,W,1,10,1.5,17,M,,M,,*66
06/13/2015	07:01:02.583	$GPGGA,070103,2421.0580,N,08104.5358,W,1,10,1.5,17,M,,M,,*68
06/13/2015	07:01:03.640	$GPGGA,070104,2421.0567,N,08104.5346,W,1,10,1.5,17,M,,M,,*69
06/13/2015	07:01:04.583	$GPGGA,070105,2421.0557,N,08104.5333,W,1,10,1.7,17,M,,M,,*6B
06/13/2015	07:01:05.620	$GPGGA,070106,2421.0557,N,08104.5333,W,1,9,1.7,17,M,,M,,*50
06/13/2015	07:01:06.589	$GPGGA,070107,2421.0537,N,08104.5304,W,1,9,1.5,17,M,,M,,*51
06/13/2015	07:01:07.599	$GPGGA,070108,2421.0526,N,08104.5291,W,1,10,1.5,17,M,,M,,*6B
06/13/2015	07:01:08.570	$GPGGA,070109,2421.0516,N,08104.5277,W,1,10,1.5,17,M,,M,,*61
06/13/2015	07:01:09.649	$GPGGA,070110,2421.0508,N,08104.5261,W,1,10,1.5,17,M,,M,,*61
06/13/2015	07:01:10.582	$GPGGA,070111,2421.0495,N,08104.5248,W,1,10,1.5,17,M,,M,,*6E
06/13/2015	07:01:11.650	$GPGGA,070112,2421.0483,N,08104.5236,W,1,10,1.5,17,M,,M,,*63
06/13/2015	07:01:12.572	$GPGGA,070113,2421.0476,N,08104.5222,W,1,10,1.5,17,M,,M,,*6D
06/13/2015	07:01:13.600	$GPGGA,070114,2421.0466,N,08104.5206,W,1,10,1.5,17,M,,M,,*6D
06/13/2015	07:01:14.570	$GPGGA,070115,2421.0455,N,08104.5193,W,1,10,1.5,17,M,,M,,*63
06/13/2015	07:01:15.650	$GPGGA,070116,2421.0446,N,08104.5181,W,1,10,1.5,17,M,,M,,*61
06/13/2015	07:01:16.586	$GPGGA,070117,2421.0446,N,08104.5181,W,1,10,1.5,17,M,,M,,*60
06/13/2015	07:01:17.590	$GPGGA,070118,2421.0425,N,08104.5153,W,1,10,1.5,17,M,,M,,*65
06/13/2015	07:01:18.560	$GPGGA,070119,2421.0418,N,08104.5142,W,1,10,1.5,17,M,,M,,*6A
06/13/2015	07:01:19.640	$GPGGA,070120,2421.0408,N,08104.5129,W,1,10,1.5,17,M,,M,,*6C
06/13/2015	07:01:20.550	$GPGGA,070121,2421.0396,N,08104.5116,W,1,10,1.5,17,M,,M,,*61
06/13/2015	07:01:21.590	$GPGGA,070122,2421.0387,N,08104.5102,W,1,10,1.5,17,M,,M,,*67
06/13/2015	07:01:22.560	$GPGGA,070123,2421.0379,N,08104.5089,W,1,10,1.5,17,M,,M,,*65
06/13/2015	07:01:23.573	$GPGGA,070124,2421.0379,N,08104.5089,W,1,10,1.5,17,M,,M,,*62
06/13/2015	07:01:24.539	$GPGGA,070125,2421.0358,N,08104.5066,W,1,10,1.5,17,M,,M,,*61
06/13/2015	07:01:25.599	$GPGGA,070126,2421.0349,N,08104.5052,W,1,10,1.5,17,M,,M,,*65
06/13/2015	07:01:26.549	$GPGGA,070127,2421.0340,N,08104.5038,W,1,10,1.5,17,M,,M,,*61
06/13/2015	07:01:27.689	$GPGGA,070128,2421.0331,N,08104.5025,W,1,10,1.5,17,M,,M,,*64
06/13/2015	07:01:28.539	$GPGGA,070129,2421.0320,N,08104.5015,W,1,10,1.5,17,M,,M,,*66
06/13/2015	07:01:29.600	$GPGGA,070130,2421.0309,N,08104.5003,W,1,10,1.5,17,M,,M,,*62
06/13/2015	07:01:30.540	$GPGGA,070131,2421.0300,N,08104.4987,W,1,10,1.5,17,M,,M,,*6E
06/13/2015	07:01:31.550	$GPGGA,070132,2421.0300,N,08104.4987,W,1,10,1.5,17,M,,M,,*6D
06/13/2015	07:01:32.530	$GPGGA,070133,2421.0282,N,08104.4963,W,1,10,1.5,17,M,,M,,*6D
06/13/2015	07:01:33.660	$GPGGA,070134,2421.0273,N,08104.4950,W,1,10,1.5,17,M,,M,,*64
06/13/2015	07:01:34.550	$GPGGA,070135,2421.0262,N,08104.4939,W,1,10,1.5,17,M,,M,,*6A
06/13/2015	07:01:35.530	$GPGGA,070136,2421.0262,N,08104.4939,W,1,10,1.5,17,M,,M,,*69
06/13/2015	07:01:36.630	$GPGGA,070137,2421.0244,N,08104.4913,W,1,10,1.5,17,M,,M,,*64
06/13/2015	07:01:37.640	$GPGGA,070138,2421.0233,N,08104.4900,W,1,10,1.5,17,M,,M,,*69
06/13/2015	07:01:38.630	$GPGGA,070139,2421.0221,N,08104.4890,W,1,10,1.5,17,M,,M,,*63
06/13/2015	07:01:39.540	$GPGGA,070140,2421.0221,N,08104.4890,W,1,10,1.5,17,M,,M,,*6D
06/13/2015	07:01:40.620	$GPGGA,070141,2421.0202,N,08104.4865,W,1,10,1.5,17,M,,M,,*67
06/13/2015	07:01:41.639	$GPGGA,070142,2421.0192,N,08104.4854,W,1,10,1.5,17,M,,M,,*6C
06/13/2015	07:01:42.519	$GPGGA,070143,2421.0182,N,08104.4843,W,1,10,1.5,17,M,,M,,*6A
06/13/2015	07:01:43.619	$GPGGA,070144,2421.0172,N,08104.4829,W,1,10,1.5,17,M,,M,,*6E
06/13/2015	07:01:44.859	$GPGGA,070145,2421.0161,N,08104.4819,W,1,10,1.5,17,M,,M,,*6E
06/13/2015	07:01:45.630	$GPGGA,070146,2421.0150,N,08104.4810,W,1,10,1.5,17,M,,M,,*66
06/13/2015	07:01:46.610	$GPGGA,070147,2421.0140,N,08104.4796,W,1,10,1.5,17,M,,M,,*67
06/13/2015	07:01:47.640	$GPGGA,070148,2421.0130,N,08104.4783,W,1,10,1.5,17,M,,M,,*6B
06/13/2015	07:01:48.583	$GPGGA,070149,2421.0119,N,08104.4774,W,1,10,1.5,17,M,,M,,*69
06/13/2015	07:01:49.920	$GPGGA,070150,2421.0107,N,08104.4764,W,1,10,1.5,17,M,,M,,*6F
06/13/2015	07:01:50.581	$GPGGA,070151,2421.0098,N,08104.4751,W,1,10,1.5,17,M,,M,,*6F
06/13/2015	07:01:51.630	$GPGGA,070152,2421.0090,N,08104.4737,W,1,10,1.5,17,M,,M,,*64
06/13/2015	07:01:52.490	$GPGGA,070153,2421.0075,N,08104.4729,W,1,10,1.5,17,M,,M,,*61
06/13/2015	07:01:53.573	$GPGGA,070154,2421.0064,N,08104.4720,W,1,9,1.6,17,M,,M,,*54
06/13/2015	07:01:54.570	$GPGGA,070155,2421.0057,N,08104.4705,W,1,9,1.5,17,M,,M,,*51
06/13/2015	07:01:55.610	$GPGGA,070156,2421.0046,N,08104.4692,W,1,10,1.5,17,M,,M,,*65
06/13/2015	07:01:56.585	$GPGGA,070157,2421.0034,N,08104.4684,W,1,10,1.5,17,M,,M,,*66
06/13/2015	07:01:57.600	$GPGGA,070158,2421.0025,N,08104.4674,W,1,10,1.5,17,M,,M,,*66
06/13/2015	07:01:58.581	$GPGGA,070159,2421.0014,N,08104.4659,W,1,10,1.5,17,M,,M,,*6A
06/13/2015	07:01:59.609	$GPGGA,070200,2421.0003,N,08104.4648,W,1,10,1.5,17,M,,M,,*63
06/13/2015	07:02:00.581	$GPGGA,070201,2420.9993,N,08104.4638,W,1,10,1.5,17,M,,M,,*6D
06/13/2015	07:02:01.559	$GPGGA,070202,2420.9984,N,08104.4627,W,1,10,1.5,17,M,,M,,*66
06/13/2015	07:02:02.569	$GPGGA,070203,2420.9973,N,08104.4614,W,1,10,1.5,17,M,,M,,*6F
06/13/2015	07:02:03.589	$GPGGA,070204,2420.9962,N,08104.4602,W,1,10,1.5,17,M,,M,,*6F
06/13/2015	07:02:04.538	$GPGGA,070205,2420.9953,N,08104.4592,W,1,10,1.5,17,M,,M,,*66
06/13/2015	07:02:05.569	$GPGGA,070206,2420.9944,N,08104.4582,W,1,10,1.5,17,M,,M,,*62
06/13/2015	07:02:06.548	$GPGGA,070207,2420.9933,N,08104.4568,W,1,10,1.5,17,M,,M,,*67
06/13/2015	07:02:07.588	$GPGGA,070208,2420.9922,N,08104.4557,W,1,10,1.5,17,M,,M,,*64
06/13/2015	07:02:08.528	$GPGGA,070209,2420.9912,N,08104.4546,W,1,10,1.5,17,M,,M,,*66
06/13/2015	07:02:09.578	$GPGGA,070210,2420.9903,N,08104.4533,W,1,10,1.5,17,M,,M,,*6C
06/13/2015	07:02:10.528	$GPGGA,070211,2420.9892,N,08104.4523,W,1,10,1.5,17,M,,M,,*65
06/13/2015	07:02:11.572	$GPGGA,070212,2420.9881,N,08104.4512,W,1,10,1.5,17,M,,M,,*66
06/13/2015	07:02:12.528	$GPGGA,070213,2420.9872,N,08104.4498,W,1,10,1.5,17,M,,M,,*68
06/13/2015	07:02:13.562	$GPGGA,070214,2420.9861,N,08104.4484,W,1,10,1.5,17,M,,M,,*60
06/13/2015	07:02:14.538	$GPGGA,070215,2420.9851,N,08104.4475,W,1,10,1.5,17,M,,M,,*6C
06/13/2015	07:02:15.571	$GPGGA,070216,2420.9843,N,08104.4464,W,1,10,1.5,17,M,,M,,*6C
06/13/2015	07:02:16.527	$GPGGA,070217,2420.9832,N,08104.4450,W,1,10,1.5,17,M,,M,,*6C
06/13/2015	07:02:17.637	$GPGGA,070218,2420.9822,N,08104.4437,W,1,10,1.5,17,M,,M,,*63
06/13/2015	07:02:18.637	$GPGGA,070219,2420.9814,N,08104.4426,W,1,10,1.5,17,M,,M,,*67
06/13/2015	07:02:19.537	$GPGGA,070220,2420.9805,N,08104.4415,W,1,10,1.5,17,M,,M,,*6D
06/13/2015	07:02:20.507	$GPGGA,070221,2420.9796,N,08104.4403,W,1,10,1.5,17,M,,M,,*6E
06/13/2015	07:02:21.550	$GPGGA,070222,2420.9786,N,08104.4391,W,1,10,1.5,17,M,,M,,*60
06/13/2015	07:02:22.528	$GPGGA,070223,2420.9776,N,08104.4377,W,1,10,1.5,17,M,,M,,*66
06/13/2015	07:02:23.638	$GPGGA,070224,2420.9768,N,08104.4366,W,1,10,1.5,17,M,,M,,*6E
06/13/2015	07:02:24.518	$GPGGA,070225,2420.9760,N,08104.4357,W,1,10,1.5,17,M,,M,,*65
06/13/2015	07:02:25.608	$GPGGA,070226,2420.9751,N,08104.4343,W,1,10,1.5,17,M,,M,,*61
06/13/2015	07:02:26.518	$GPGGA,070227,2420.9742,N,08104.4330,W,1,10,1.5,17,M,,M,,*66
06/13/2015	07:02:27.538	$GPGGA,070228,2420.9735,N,08104.4320,W,1,10,1.5,17,M,,M,,*68
06/13/2015	07:02:28.508	$GPGGA,070229,2420.9726,N,08104.4308,W,1,10,1.5,17,M,,M,,*61
06/13/2015	07:02:29.608	$GPGGA,070230,2420.9717,N,08104.4297,W,1,10,1.5,17,M,,M,,*6C
06/13/2015	07:02:30.508	$GPGGA,070231,2420.9708,N,08104.4286,W,1,10,1.5,17,M,,M,,*63
06/13/2015	07:02:31.628	$GPGGA,070232,2420.9700,N,08104.4272,W,1,10,1.5,17,M,,M,,*63
06/13/2015	07:02:32.498	$GPGGA,070233,2420.9691,N,08104.4259,W,1,10,1.5,17,M,,M,,*62
06/13/2015	07:02:33.587	$GPGGA,070234,2420.9681,N,08104.4248,W,1,10,1.5,17,M,,M,,*64
06/13/2015	07:02:34.497	$GPGGA,070235,2420.9671,N,08104.4237,W,1,10,1.5,17,M,,M,,*62
06/13/2015	07:02:35.617	$GPGGA,070236,2420.9663,N,08104.4224,W,1,10,1.5,17,M,,M,,*60
06/13/2015	07:02:36.597	$GPGGA,070237,2420.9653,N,08104.4208,W,1,10,1.5,17,M,,M,,*6C
06/13/2015	07:02:37.597	$GPGGA,070238,2420.9643,N,08104.4196,W,1,10,1.5,17,M,,M,,*66
06/13/2015	07:02:38.578	$GPGGA,070239,2420.9633,N,08104.4187,W,1,10,1.5,17,M,,M,,*60
06/13/2015	07:02:39.628	$GPGGA,070240,2420.9624,N,08104.4174,W,1,10,1.5,17,M,,M,,*64
06/13/2015	07:02:40.571	$GPGGA,070241,2420.9614,N,08104.4159,W,1,10,1.5,17,M,,M,,*69
06/13/2015	07:02:41.588	$GPGGA,070242,2420.9605,N,08104.4149,W,1,10,1.5,17,M,,M,,*6B
06/13/2015	07:02:42.559	$GPGGA,070243,2420.9596,N,08104.4136,W,1,10,1.5,17,M,,M,,*6B
06/13/2015	07:02:43.618	$GPGGA,070244,2420.9587,N,08104.4122,W,1,10,1.5,17,M,,M,,*69
06/13/2015	07:02:44.577	$GPGGA,070245,2420.9577,N,08104.4111,W,1,10,1.5,17,M,,M,,*67
06/13/2015	07:02:45.578	$GPGGA,070246,2420.9568,N,08104.4099,W,1,10,1.5,17,M,,M,,*6B
06/13/2015	07:02:46.563	$GPGGA,070247,2420.9558,N,08104.4086,W,1,10,1.5,17,M,,M,,*67
06/13/2015	07:02:47.608	$GPGGA,070248,2420.9549,N,08104.4073,W,1,10,1.5,17,M,,M,,*62
06/13/2015	07:02:48.571	$GPGGA,070249,2420.9541,N,08104.4060,W,1,10,1.5,17,M,,M,,*69
06/13/2015	07:02:49.562	$GPGGA,070250,2420.9529,N,08104.4048,W,1,10,1.5,17,M,,M,,*65
06/13/2015	07:02:50.566	$GPGGA,070251,2420.9519,N,08104.4037,W,1,10,1.5,17,M,,M,,*6F
06/13/2015	07:02:51.587	$GPGGA,070252,2420.9511,N,08104.4023,W,1,10,1.5,17,M,,M,,*61
06/13/2015	07:02:52.547	$GPGGA,070253,2420.9502,N,08104.4009,W,1,10,1.5,17,M,,M,,*6A
06/13/2015	07:02:53.577	$GPGGA,070254,2420.9492,N,08104.3999,W,1,10,1.5,17,M,,M,,*62
06/13/2015	07:02:54.547	$GPGGA,070255,2420.9482,N,08104.3987,W,1,10,1.5,17,M,,M,,*6D
06/13/2015	07:02:55.587	$GPGGA,070256,2420.9472,N,08104.3972,W,1,10,1.5,17,M,,M,,*6B
06/13/2015	07:02:56.547	$GPGGA,070257,2420.9465,N,08104.3961,W,1,10,1.5,17,M,,M,,*6E
06/13/2015	07:02:57.576	$GPGGA,070258,2420.9454,N,08104.3949,W,1,10,1.5,17,M,,M,,*69
06/13/2015	07:02:58.548	$GPGGA,070259,2420.9445,N,08104.3935,W,1,10,1.5,17,M,,M,,*63
06/13/2015	07:02:59.588	$GPGGA,070300,2420.9436,N,08104.3923,W,1,10,1.5,17,M,,M,,*6D
06/13/2015	07:03:00.548	$GPGGA,070301,2420.9426,N,08104.3911,W,1,10,1.5,17,M,,M,,*6C
06/13/2015	07:03:01.562	$GPGGA,070302,2420.9417,N,08104.3896,W,1,10,1.5,17,M,,M,,*63
06/13/2015	07:03:02.528	$GPGGA,070303,2420.9408,N,08104.3883,W,1,10,1.5,17,M,,M,,*68
06/13/2015	07:03:03.574	$GPGGA,070304,2420.9398,N,08104.3873,W,1,10,1.5,17,M,,M,,*6E
06/13/2015	07:03:04.528	$GPGGA,070305,2420.9386,N,08104.3858,W,1,10,1.5,17,M,,M,,*69
06/13/2015	07:03:05.528	$GPGGA,070306,2420.9379,N,08104.3844,W,1,10,1.5,17,M,,M,,*67
06/13/2015	07:03:06.528	$GPGGA,070307,2420.9371,N,08104.3834,W,1,10,1.5,17,M,,M,,*69
06/13/2015	07:03:07.570	$GPGGA,070308,2420.9359,N,08104.3823,W,1,10,1.5,17,M,,M,,*6A
06/13/2015	07:03:08.517	$GPGGA,070309,2420.9350,N,08104.3812,W,1,10,1.5,17,M,,M,,*60
06/13/2015	07:03:09.537	$GPGGA,070310,2420.9341,N,08104.3798,W,1,10,1.5,17,M,,M,,*65
06/13/2015	07:03:10.527	$GPGGA,070311,2420.9332,N,08104.3786,W,1,10,1.5,17,M,,M,,*6F
06/13/2015	07:03:11.617	$GPGGA,070312,2420.9323,N,08104.3777,W,1,10,1.5,17,M,,M,,*62
06/13/2015	07:03:12.507	$GPGGA,070313,2420.9312,N,08104.3767,W,1,10,1.5,17,M,,M,,*60
06/13/2015	07:03:13.607	$GPGGA,070314,2420.9302,N,08104.3755,W,1,10,1.5,17,M,,M,,*67
06/13/2015	07:03:14.628	$GPGGA,070315,2420.9294,N,08104.3742,W,1,10,1.5,17,M,,M,,*6E
06/13/2015	07:03:15.538	$GPGGA,070316,2420.9284,N,08104.3730,W,1,10,1.5,17,M,,M,,*69
06/13/2015	07:03:16.498	$GPGGA,070317,2420.9273,N,08104.3721,W,1,10,1.5,17,M,,M,,*60
06/13/2015	07:03:17.638	$GPGGA,070318,2420.9265,N,08104.3713,W,1,10,1.5,17,M,,M,,*69
06/13/2015	07:03:18.508	$GPGGA,070319,2420.9254,N,08104.3701,W,1,10,1.5,17,M,,M,,*69
06/13/2015	07:03:19.518	$GPGGA,070320,2420.9244,N,08104.3688,W,1,10,1.5,17,M,,M,,*62
06/13/2015	07:03:20.508	$GPGGA,070321,2420.9236,N,08104.3680,W,1,10,1.5,17,M,,M,,*6E
06/13/2015	07:03:21.598	$GPGGA,070322,2420.9225,N,08104.3671,W,1,10,1.5,17,M,,M,,*61
06/13/2015	07:03:22.508	$GPGGA,070323,2420.9216,N,08104.3658,W,1,10,1.5,17,M,,M,,*6B
06/13/2015	07:03:23.528	$GPGGA,070324,2420.9207,N,08104.3646,W,1,10,1.5,17,M,,M,,*63
06/13/2015	07:03:24.478	$GPGGA,070325,2420.9197,N,08104.3637,W,1,10,1.5,17,M,,M,,*6E
06/13/2015	07:03:25.488	$GPGGA,070326,2420.9187,N,08104.3627,W,1,10,1.5,17,M,,M,,*6D
06/13/2015	07:03:26.587	$GPGGA,070327,2420.9179,N,08104.3616,W,1,10,1.5,17,M,,M,,*6F
06/13/2015	07:03:27.587	$GPGGA,070328,2420.9171,N,08104.3604,W,1,10,1.5,17,M,,M,,*6B
06/13/2015	07:03:28.587	$GPGGA,070329,2420.9160,N,08104.3592,W,1,10,1.5,17,M,,M,,*66
06/13/2015	07:03:29.577	$GPGGA,070330,2420.9150,N,08104.3583,W,1,10,1.5,17,M,,M,,*6D
06/13/2015	07:03:30.577	$GPGGA,070331,2420.9142,N,08104.3574,W,1,10,1.5,17,M,,M,,*67
06/13/2015	07:03:31.572	$GPGGA,070332,2420.9132,N,08104.3561,W,1,9,1.7,17,M,,M,,*5D
06/13/2015	07:03:32.560	$GPGGA,070333,2420.9124,N,08104.3551,W,1,9,1.5,17,M,,M,,*5A
06/13/2015	07:03:33.588	$GPGGA,070334,2420.9113,N,08104.3544,W,1,10,1.5,17,M,,M,,*65
06/13/2015	07:03:34.560	$GPGGA,070335,2420.9102,N,08104.3532,W,1,10,1.5,17,M,,M,,*65
06/13/2015	07:03:35.618	$GPGGA,070336,2420.9095,N,08104.3520,W,1,10,1.5,17,M,,M,,*6A
06/13/2015	07:03:36.571	$GPGGA,070337,2420.9088,N,08104.3510,W,1,10,1.5,17,M,,M,,*64
06/13/2015	07:03:37.574	$GPGGA,070338,2420.9074,N,08104.3501,W,1,10,1.5,18,M,,M,,*67
06/13/2015	07:03:38.560	$GPGGA,070339,2420.9064,N,08104.3489,W,1,10,1.5,18,M,,M,,*66
06/13/2015	07:03:39.588	$GPGGA,070340,2420.9057,N,08104.3474,W,1,10,1.5,18,M,,M,,*6A
06/13/2015	07:03:40.574	$GPGGA,070341,2420.9048,N,08104.3461,W,1,10,1.5,18,M,,M,,*61
06/13/2015	07:03:41.573	$GPGGA,070342,2420.9037,N,08104.3452,W,1,10,1.5,18,M,,M,,*6A
06/13/2015	07:03:42.564	$GPGGA,070343,2420.9028,N,08104.3441,W,1,10,1.5,18,M,,M,,*67
06/13/2015	07:03:43.547	$GPGGA,070344,2420.9019,N,08104.3426,W,1,10,1.5,18,M,,M,,*63
06/13/2015	07:03:44.547	$GPGGA,070345,2420.9012,N,08104.3413,W,1,10,1.5,18,M,,M,,*6F
06/13/2015	07:03:45.537	$GPGGA,070346,2420.9001,N,08104.3403,W,1,10,1.5,19,M,,M,,*6E
06/13/2015	07:03:46.547	$GPGGA,070347,2420.8991,N,08104.3388,W,1,10,1.5,19,M,,M,,*6A
06/13/2015	07:03:47.587	$GPGGA,070348,2420.8983,N,08104.3375,W,1,9,1.7,19,M,,M,,*5E
06/13/2015	07:03:48.537	$GPGGA,070349,2420.8974,N,08104.3362,W,1,9,1.5,19,M,,M,,*53
06/13/2015	07:03:49.538	$GPGGA,070350,2420.8965,N,08104.3348,W,1,10,1.5,19,M,,M,,*6B
06/13/2015	07:03:50.548	$GPGGA,070351,2420.8956,N,08104.3336,W,1,10,1.5,19,M,,M,,*63
06/13/2015	07:03:51.560	$GPGGA,070352,2420.8947,N,08104.3324,W,1,10,1.5,19,M,,M,,*63
06/13/2015	07:03:52.538	$GPGGA,070353,2420.8937,N,08104.3312,W,1,10,1.7,19,M,,M,,*62
06/13/2015	07:03:53.561	$GPGGA,070354,2420.8929,N,08104.3297,W,1,10,1.5,19,M,,M,,*64
06/13/2015	07:03:54.518	$GPGGA,070355,2420.8920,N,08104.3284,W,1,10,1.5,19,M,,M,,*6E
06/13/2015	07:03:55.576	$GPGGA,070356,2420.8911,N,08104.3272,W,1,10,1.5,19,M,,M,,*66
06/13/2015	07:03:56.518	$GPGGA,070357,2420.8900,N,08104.3261,W,1,10,1.7,19,M,,M,,*67
06/13/2015	07:03:57.618	$GPGGA,070358,2420.8893,N,08104.3245,W,1,10,1.5,19,M,,M,,*67
06/13/2015	07:03:58.528	$GPGGA,070359,2420.8884,N,08104.3233,W,1,10,1.5,19,M,,M,,*61
06/13/2015	07:03:59.562	$GPGGA,070400,2420.8875,N,08104.3221,W,1,10,1.5,19,M,,M,,*67
06/13/2015	07:04:00.528	$GPGGA,070401,2420.8866,N,08104.3207,W,1,10,1.5,19,M,,M,,*60
06/13/2015	07:04:01.527	$GPGGA,070402,2420.8857,N,08104.3196,W,1,10,1.5,19,M,,M,,*6A
06/13/2015	07:04:02.517	$GPGGA,070403,2420.8844,N,08104.3184,W,1,10,1.7,19,M,,M,,*68
06/13/2015	07:04:03.617	$GPGGA,070404,2420.8836,N,08104.3168,W,1,10,1.5,19,M,,M,,*6A
06/13/2015	07:04:04.527	$GPGGA,070405,2420.8828,N,08104.3153,W,1,10,1.5,19,M,,M,,*6C
06/13/2015	07:04:05.597	$GPGGA,070406,2420.8814,N,08104.3144,W,1,10,1.5,19,M,,M,,*66
06/13/2015	07:04:06.517	$GPGGA,070407,2420.8803,N,08104.3131,W,1,10,1.5,19,M,,M,,*63
06/13/2015	07:04:07.508	$GPGGA,070408,2420.8796,N,08104.3115,W,1,10,1.5,19,M,,M,,*69
06/13/2015	07:04:08.508	$GPGGA,070409,2420.8785,N,08104.3104,W,1,10,1.5,19,M,,M,,*6A
06/13/2015	07:04:09.638	$GPGGA,070410,2420.8774,N,08104.3094,W,1,10,1.5,19,M,,M,,*64
06/13/2015	07:04:10.598	$GPGGA,070411,2420.8764,N,08104.3080,W,1,10,1.5,19,M,,M,,*61
06/13/2015	07:04:11.508	$GPGGA,070412,2420.8753,N,08104.3065,W,1,10,1.5,19,M,,M,,*6D
06/13/2015	07:04:12.588	$GPGGA,070413,2420.8745,N,08104.3055,W,1,10,1.5,19,M,,M,,*68
06/13/2015	07:04:14.618	$GPGGA,070415,2420.8724,N,08104.3030,W,1,10,1.5,19,M,,M,,*6A
06/13/2015	07:04:15.628	$GPGGA,070416,2420.8714,N,08104.3018,W,1,10,1.5,20,M,,M,,*6A
06/13/2015	07:04:16.578	$GPGGA,070417,2420.8705,N,08104.3007,W,1,10,1.5,20,M,,M,,*65
06/13/2015	07:04:17.598	$GPGGA,070418,2420.8695,N,08104.2994,W,1,10,1.5,20,M,,M,,*60
06/13/2015	07:04:18.571	$GPGGA,070419,2420.8685,N,08104.2981,W,1,10,1.5,20,M,,M,,*64
06/13/2015	07:04:19.587	$GPGGA,070420,2420.8677,N,08104.2969,W,1,10,1.5,20,M,,M,,*65
06/13/2015	07:04:20.577	$GPGGA,070421,2420.8666,N,08104.2957,W,1,10,1.5,20,M,,M,,*69
06/13/2015	07:04:21.574	$GPGGA,070422,2420.8655,N,08104.2944,W,1,10,1.5,20,M,,M,,*68
06/13/2015	07:04:22.577	$GPGGA,070423,2420.8647,N,08104.2932,W,1,10,1.5,20,M,,M,,*6B
06/13/2015	07:04:23.587	$GPGGA,070424,2420.8638,N,08104.2920,W,1,10,1.5,20,M,,M,,*67
06/13/2015	07:04:24.564	$GPGGA,070425,2420.8629,N,08104.2907,W,1,10,1.5,20,M,,M,,*63
06/13/2015	07:04:25.578	$GPGGA,070426,2420.8618,N,08104.2895,W,1,10,1.5,20,M,,M,,*68
06/13/2015	07:04:26.571	$GPGGA,070427,2420.8607,N,08104.2884,W,1,10,1.5,20,M,,M,,*67
06/13/2015	07:04:27.618	$GPGGA,070428,2420.8598,N,08104.2870,W,1,10,1.5,20,M,,M,,*66
06/13/2015	07:04:28.572	$GPGGA,070429,2420.8590,N,08104.2858,W,1,10,1.5,20,M,,M,,*65
06/13/2015	07:04:29.569	$GPGGA,070430,2420.8579,N,08104.2846,W,1,10,1.5,20,M,,M,,*65
06/13/2015	07:04:30.548	$GPGGA,070431,2420.8569,N,08104.2833,W,1,10,1.5,20,M,,M,,*67
06/13/2015	07:04:31.578	$GPGGA,070432,2420.8560,N,08104.2821,W,1,10,1.5,20,M,,M,,*6E
06/13/2015	07:04:32.548	$GPGGA,070433,2420.8549,N,08104.2810,W,1,10,1.5,20,M,,M,,*66
06/13/2015	07:04:33.538	$GPGGA,070434,2420.8539,N,08104.2797,W,1,10,1.5,20,M,,M,,*66
06/13/2015	07:04:34.548	$GPGGA,070435,2420.8530,N,08104.2782,W,1,10,1.5,20,M,,M,,*6A
06/13/2015	07:04:35.577	$GPGGA,070436,2420.8521,N,08104.2770,W,1,10,1.5,20,M,,M,,*64
06/13/2015	07:04:36.547	$GPGGA,070437,2420.8508,N,08104.2762,W,1,10,1.5,20,M,,M,,*6D
06/13/2015	07:04:37.577	$GPGGA,070438,2420.8497,N,08104.2748,W,1,10,1.5,20,M,,M,,*6D
06/13/2015	07:04:38.547	$GPGGA,070439,2420.8490,N,08104.2732,W,1,10,1.5,20,M,,M,,*66
06/13/2015	07:04:39.537	$GPGGA,070440,2420.8481,N,08104.2722,W,1,10,1.5,20,M,,M,,*69
06/13/2015	07:04:40.547	$GPGGA,070441,2420.8468,N,08104.2710,W,1,10,1.5,20,M,,M,,*6E
06/13/2015	07:04:41.561	$GPGGA,070442,2420.8459,N,08104.2696,W,1,10,1.5,20,M,,M,,*60
06/13/2015	07:04:42.978	$GPGGA,070443,2420.8449,N,08104.2684,W,1,10,1.5,20,M,,M,,*63
06/13/2015	07:04:43.671	$GPGGA,070444,2420.8441,N,08104.2673,W,1,10,1.5,20,M,,M,,*64
06/13/2015	07:04:44.648	$GPGGA,070445,2420.8429,N,08104.2659,W,1,10,1.5,20,M,,M,,*63
06/13/2015	07:04:45.648	$GPGGA,070446,2420.8420,N,08104.2646,W,1,10,1.5,20,M,,M,,*67
06/13/2015	07:04:46.528	$GPGGA,070447,2420.8410,N,08104.2635,W,1,10,1.5,20,M,,M,,*61
06/13/2015	07:04:47.560	$GPGGA,070448,2420.8399,N,08104.2622,W,1,10,1.5,20,M,,M,,*6E
06/13/2015	07:04:48.518	$GPGGA,070449,2420.8391,N,08104.2609,W,1,10,1.5,20,M,,M,,*6E
06/13/2015	07:04:49.648	$GPGGA,070450,2420.8381,N,08104.2596,W,1,10,1.5,20,M,,M,,*62
06/13/2015	07:04:50.528	$GPGGA,070451,2420.8370,N,08104.2583,W,1,10,1.5,20,M,,M,,*69
06/13/2015	07:04:51.538	$GPGGA,070452,2420.8359,N,08104.2573,W,1,10,1.5,20,M,,M,,*6E
06/13/2015	07:04:52.498	$GPGGA,070453,2420.8351,N,08104.2559,W,1,10,1.5,19,M,,M,,*65
06/13/2015	07:04:53.517	$GPGGA,070454,2420.8340,N,08104.2545,W,1,10,1.5,19,M,,M,,*6F
06/13/2015	07:04:54.517	$GPGGA,070455,2420.8329,N,08104.2533,W,1,10,1.5,19,M,,M,,*60
06/13/2015	07:04:55.627	$GPGGA,070456,2420.8318,N,08104.2521,W,1,10,1.5,19,M,,M,,*62
06/13/2015	07:04:56.607	$GPGGA,070457,2420.8308,N,08104.2507,W,1,10,1.5,19,M,,M,,*66
06/13/2015	07:04:57.617	$GPGGA,070458,2420.8299,N,08104.2495,W,1,10,1.5,19,M,,M,,*6A
06/13/2015	07:04:58.597	$GPGGA,070459,2420.8288,N,08104.2482,W,1,10,1.5,19,M,,M,,*6D
06/13/2015	07:04:59.680	$GPGGA,070500,2420.8277,N,08104.2468,W,1,10,1.5,19,M,,M,,*64
06/13/2015	07:05:00.508	$GPGGA,070501,2420.8269,N,08104.2458,W,1,10,1.5,19,M,,M,,*69
06/13/2015	07:05:01.628	$GPGGA,070502,2420.8260,N,08104.2445,W,1,10,1.5,19,M,,M,,*6F
06/13/2015	07:05:02.588	$GPGGA,070503,2420.8248,N,08104.2432,W,1,10,1.5,19,M,,M,,*64
06/13/2015	07:05:03.638	$GPGGA,070504,2420.8239,N,08104.2422,W,1,10,1.5,19,M,,M,,*64
06/13/2015	07:05:04.588	$GPGGA,070505,2420.8230,N,08104.2410,W,1,10,1.5,19,M,,M,,*6D
06/13/2015	07:05:05.588	$GPGGA,070506,2420.8221,N,08104.2396,W,1,10,1.5,19,M,,M,,*67
06/13/2015	07:05:06.488	$GPGGA,070507,2420.8210,N,08104.2385,W,1,10,1.5,19,M,,M,,*66
06/13/2015	07:05:07.648	$GPGGA,070508,2420.8199,N,08104.2373,W,1,10,1.5,19,M,,M,,*62
06/13/2015	07:05:08.578	$GPGGA,070509,2420.8190,N,08104.2360,W,1,10,1.5,18,M,,M,,*69
06/13/2015	07:05:09.588	$GPGGA,070510,2420.8181,N,08104.2347,W,1,10,1.5,18,M,,M,,*64
06/13/2015	07:05:10.577	$GPGGA,070511,2420.8169,N,08104.2335,W,1,10,1.5,18,M,,M,,*66
06/13/2015	07:05:11.607	$GPGGA,070512,2420.8158,N,08104.2323,W,1,10,1.5,18,M,,M,,*60
06/13/2015	07:05:12.571	$GPGGA,070513,2420.8148,N,08104.2310,W,1,10,1.5,18,M,,M,,*60
06/13/2015	07:05:13.587	$GPGGA,070514,2420.8138,N,08104.2298,W,1,10,1.5,18,M,,M,,*61
06/13/2015	07:05:14.558	$GPGGA,070515,2420.8128,N,08104.2285,W,1,10,1.5,18,M,,M,,*6D
06/13/2015	07:05:15.627	$GPGGA,070516,2420.8117,N,08104.2271,W,1,10,1.5,18,M,,M,,*69
06/13/2015	07:05:16.572	$GPGGA,070517,2420.8106,N,08104.2259,W,1,10,1.5,18,M,,M,,*62
06/13/2015	07:05:17.588	$GPGGA,070518,2420.8094,N,08104.2247,W,1,10,1.5,18,M,,M,,*68
06/13/2015	07:05:18.574	$GPGGA,070519,2420.8087,N,08104.2233,W,1,10,1.5,18,M,,M,,*68
06/13/2015	07:05:19.648	$GPGGA,070520,2420.8076,N,08104.2219,W,1,10,1.5,18,M,,M,,*64
06/13/2015	07:05:20.561	$GPGGA,070521,2420.8063,N,08104.2208,W,1,10,1.5,18,M,,M,,*61
06/13/2015	07:05:21.578	$GPGGA,070522,2420.8052,N,08104.2194,W,1,10,1.5,18,M,,M,,*66
06/13/2015	07:05:22.561	$GPGGA,070523,2420.8044,N,08104.2180,W,1,10,1.5,18,M,,M,,*65
06/13/2015	07:05:23.598	$GPGGA,070524,2420.8034,N,08104.2168,W,1,10,1.5,18,M,,M,,*63
06/13/2015	07:05:24.548	$GPGGA,070525,2420.8022,N,08104.2154,W,1,10,1.5,18,M,,M,,*6A
06/13/2015	07:05:25.574	$GPGGA,070526,2420.8010,N,08104.2140,W,1,10,1.5,18,M,,M,,*6D
06/13/2015	07:05:26.548	$GPGGA,070527,2420.8001,N,08104.2128,W,1,10,1.5,18,M,,M,,*62
06/13/2015	07:05:27.588	$GPGGA,070528,2420.7991,N,08104.2114,W,1,10,1.5,17,M,,M,,*62
06/13/2015	07:05:28.547	$GPGGA,070529,2420.7981,N,08104.2100,W,1,10,1.5,17,M,,M,,*67
06/13/2015	07:05:29.569	$GPGGA,070530,2420.7970,N,08104.2087,W,1,10,1.5,17,M,,M,,*6F
06/13/2015	07:05:30.537	$GPGGA,070531,2420.7961,N,08104.2074,W,1,10,1.5,17,M,,M,,*62
06/13/2015	07:05:31.559	$GPGGA,070532,2420.7950,N,08104.2059,W,1,10,1.5,17,M,,M,,*6C
06/13/2015	07:05:32.547	$GPGGA,070533,2420.7940,N,08104.2044,W,1,10,1.5,17,M,,M,,*60
06/13/2015	07:05:33.565	$GPGGA,070534,2420.7930,N,08104.2031,W,1,10,1.7,17,M,,M,,*60
06/13/2015	07:05:34.528	$GPGGA,070535,2420.7918,N,08104.2020,W,1,10,1.5,17,M,,M,,*69
06/13/2015	07:05:35.572	$GPGGA,070536,2420.7910,N,08104.2004,W,1,10,1.5,17,M,,M,,*64
06/13/2015	07:05:36.560	$GPGGA,070537,2420.7901,N,08104.1991,W,1,10,1.5,17,M,,M,,*63
06/13/2015	07:05:37.518	$GPGGA,070538,2420.7889,N,08104.1980,W,1,10,1.5,17,M,,M,,*6D
06/13/2015	07:05:38.538	$GPGGA,070539,2420.7879,N,08104.1965,W,1,10,1.7,17,M,,M,,*6A
06/13/2015	07:05:39.619	$GPGGA,070540,2420.7872,N,08104.1951,W,1,9,1.5,17,M,,M,,*52
06/13/2015	07:05:40.518	$GPGGA,070541,2420.7861,N,08104.1938,W,1,9,1.5,17,M,,M,,*5E
06/13/2015	07:05:41.518	$GPGGA,070542,2420.7849,N,08104.1924,W,1,10,1.5,17,M,,M,,*62
06/13/2015	07:05:42.608	$GPGGA,070543,2420.7840,N,08104.1910,W,1,10,1.5,17,M,,M,,*6D
06/13/2015	07:05:43.551	$GPGGA,070544,2420.7831,N,08104.1895,W,1,10,1.7,17,M,,M,,*62
06/13/2015	07:05:44.528	$GPGGA,070545,2420.7821,N,08104.1882,W,1,10,1.7,17,M,,M,,*64
06/13/2015	07:05:45.517	$GPGGA,070546,2420.7813,N,08104.1868,W,1,9,1.5,17,M,,M,,*58
06/13/2015	07:05:46.587	$GPGGA,070547,2420.7802,N,08104.1854,W,1,9,1.5,17,M,,M,,*56
06/13/2015	07:05:47.548	$GPGGA,070548,2420.7792,N,08104.1843,W,1,10,1.5,17,M,,M,,*61
06/13/2015	07:05:48.517	$GPGGA,070549,2420.7784,N,08104.1829,W,1,10,1.5,17,M,,M,,*6B
06/13/2015	07:05:49.627	$GPGGA,070550,2420.7773,N,08104.1815,W,1,10,1.5,17,M,,M,,*64
06/13/2015	07:05:50.597	$GPGGA,070551,2420.7763,N,08104.1804,W,1,10,1.5,17,M,,M,,*64
06/13/2015	07:05:51.638	$GPGGA,070552,2420.7753,N,08104.1792,W,1,10,1.5,17,M,,M,,*64
06/13/2015	07:05:52.588	$GPGGA,070553,2420.7744,N,08104.1777,W,1,10,1.5,17,M,,M,,*68
06/13/2015	07:05:53.628	$GPGGA,070554,2420.7733,N,08104.1764,W,1,10,1.5,17,M,,M,,*6D
06/13/2015	07:05:54.598	$GPGGA,070555,2420.7723,N,08104.1751,W,1,10,1.5,17,M,,M,,*6B
06/13/2015	07:05:55.598	$GPGGA,070556,2420.7715,N,08104.1739,W,1,10,1.5,17,M,,M,,*63
06/13/2015	07:05:56.588	$GPGGA,070557,2420.7702,N,08104.1726,W,1,10,1.5,17,M,,M,,*6A
06/13/2015	07:05:57.588	$GPGGA,070558,2420.7691,N,08104.1713,W,1,10,1.5,17,M,,M,,*68
06/13/2015	07:05:59.638	$GPGGA,070600,2420.7674,N,08104.1687,W,1,10,1.5,17,M,,M,,*61
06/13/2015	07:06:00.588	$GPGGA,070601,2420.7664,N,08104.1676,W,1,10,1.5,17,M,,M,,*6F
06/13/2015	07:06:01.588	$GPGGA,070602,2420.7652,N,08104.1662,W,1,10,1.5,17,M,,M,,*6C
06/13/2015	07:06:02.575	$GPGGA,070603,2420.7643,N,08104.1647,W,1,10,1.5,17,M,,M,,*6A
06/13/2015	07:06:03.587	$GPGGA,070604,2420.7635,N,08104.1635,W,1,10,1.5,17,M,,M,,*69
06/13/2015	07:06:04.575	$GPGGA,070605,2420.7625,N,08104.1624,W,1,10,1.5,17,M,,M,,*69
06/13/2015	07:06:05.561	$GPGGA,070606,2420.7615,N,08104.1612,W,1,10,1.5,17,M,,M,,*6C
06/13/2015	07:06:06.572	$GPGGA,070607,2420.7607,N,08104.1597,W,1,10,1.5,17,M,,M,,*60
06/13/2015	07:06:07.587	$GPGGA,070608,2420.7596,N,08104.1584,W,1,10,1.5,17,M,,M,,*66
06/13/2015	07:06:08.560	$GPGGA,070609,2420.7589,N,08104.1574,W,1,10,1.5,17,M,,M,,*66
06/13/2015	07:06:09.575	$GPGGA,070610,2420.7589,N,08104.1574,W,1,10,1.5,17,M,,M,,*6E
06/13/2015	07:06:10.561	$GPGGA,070611,2420.7568,N,08104.1550,W,1,10,1.5,17,M,,M,,*66
06/13/2015	07:06:11.576	$GPGGA,070612,2420.7560,N,08104.1537,W,1,10,1.5,17,M,,M,,*6C
06/13/2015	07:06:12.588	$GPGGA,070613,2420.7549,N,08104.1525,W,1,10,1.5,17,M,,M,,*65
06/13/2015	07:06:13.839	$GPGGA,070614,2420.7539,N,08104.1516,W,1,10,1.5,17,M,,M,,*65
06/13/2015	07:06:14.548	$GPGGA,070615,2420.7531,N,08104.1504,W,1,10,1.5,17,M,,M,,*6F
06/13/2015	07:06:15.568	$GPGGA,070616,2420.7520,N,08104.1492,W,1,10,1.5,17,M,,M,,*62
06/13/2015	07:06:16.538	$GPGGA,070617,2420.7511,N,08104.1481,W,1,10,1.5,17,M,,M,,*63
06/13/2015	07:06:17.548	$GPGGA,070618,2420.7502,N,08104.1469,W,1,10,1.5,17,M,,M,,*68
06/13/2015	07:06:18.548	$GPGGA,070619,2420.7491,N,08104.1456,W,1,10,1.5,17,M,,M,,*6E
06/13/2015	07:06:19.568	$GPGGA,070620,2420.7482,N,08104.1446,W,1,10,1.5,17,M,,M,,*67
06/13/2015	07:06:20.537	$GPGGA,070621,2420.7473,N,08104.1434,W,1,10,1.5,17,M,,M,,*6D
06/13/2015	07:06:21.527	$GPGGA,070622,2420.7462,N,08104.1421,W,1,10,1.5,17,M,,M,,*6A
06/13/2015	07:06:22.537	$GPGGA,070623,2420.7451,N,08104.1407,W,1,10,1.5,17,M,,M,,*6F
06/13/2015	07:06:23.572	$GPGGA,070624,2420.7440,N,08104.1396,W,1,10,1.5,17,M,,M,,*67
06/13/2015	07:06:24.537	$GPGGA,070625,2420.7432,N,08104.1386,W,1,10,1.5,17,M,,M,,*62
06/13/2015	07:06:25.637	$GPGGA,070626,2420.7422,N,08104.1372,W,1,10,1.5,17,M,,M,,*6B
06/13/2015	07:06:26.528	$GPGGA,070627,2420.7410,N,08104.1360,W,1,10,1.5,17,M,,M,,*68
06/13/2015	07:06:27.560	$GPGGA,070628,2420.7401,N,08104.1350,W,1,10,1.5,17,M,,M,,*64
06/13/2015	07:06:28.618	$GPGGA,070629,2420.7392,N,08104.1339,W,1,10,1.5,17,M,,M,,*67
06/13/2015	07:06:29.518	$GPGGA,070630,2420.7383,N,08104.1325,W,1,10,1.5,17,M,,M,,*62
06/13/2015	07:06:30.518	$GPGGA,070631,2420.7372,N,08104.1315,W,1,10,1.5,17,M,,M,,*6E
06/13/2015	07:06:31.518	$GPGGA,070632,2420.7361,N,08104.1303,W,1,10,1.5,17,M,,M,,*68
06/13/2015	07:06:32.508	$GPGGA,070633,2420.7354,N,08104.1290,W,1,10,1.5,17,M,,M,,*64
06/13/2015	07:06:33.528	$GPGGA,070634,2420.7344,N,08104.1278,W,1,10,1.5,17,M,,M,,*64
06/13/2015	07:06:34.518	$GPGGA,070635,2420.7333,N,08104.1266,W,1,10,1.5,17,M,,M,,*6A
06/13/2015	07:06:35.538	$GPGGA,070636,2420.7325,N,08104.1254,W,1,10,1.5,17,M,,M,,*6F
06/13/2015	07:06:36.598	$GPGGA,070637,2420.7315,N,08104.1240,W,1,10,1.5,17,M,,M,,*68
06/13/2015	07:06:37.598	$GPGGA,070638,2420.7303,N,08104.1228,W,1,10,1.5,17,M,,M,,*6E
06/13/2015	07:06:38.497	$GPGGA,070639,2420.7296,N,08104.1215,W,1,10,1.5,17,M,,M,,*6C
06/13/2015	07:06:39.527	$GPGGA,070640,2420.7286,N,08104.1202,W,1,10,1.5,17,M,,M,,*65
06/13/2015	07:06:40.497	$GPGGA,070641,2420.7274,N,08104.1190,W,1,10,1.4,17,M,,M,,*60
06/13/2015	07:06:41.587	$GPGGA,070642,2420.7264,N,08104.1179,W,1,10,1.4,17,M,,M,,*65
06/13/2015	07:06:42.587	$GPGGA,070643,2420.7256,N,08104.1162,W,1,10,1.4,17,M,,M,,*6F
06/13/2015	07:06:43.617	$GPGGA,070644,2420.7247,N,08104.1148,W,1,10,1.4,17,M,,M,,*60
06/13/2015	07:06:44.498	$GPGGA,070645,2420.7235,N,08104.1138,W,1,10,1.4,17,M,,M,,*63
06/13/2015	07:06:45.618	$GPGGA,070646,2420.7225,N,08104.1125,W,1,9,1.7,17,M,,M,,*56
06/13/2015	07:06:47.628	$GPGGA,070648,2420.7208,N,08104.1097,W,1,10,1.5,17,M,,M,,*65
06/13/2015	07:06:48.573	$GPGGA,070649,2420.7197,N,08104.1086,W,1,10,1.6,17,M,,M,,*62
06/13/2015	07:06:49.588	$GPGGA,070650,2420.7188,N,08104.1073,W,1,10,1.5,17,M,,M,,*6D
06/13/2015	07:06:50.578	$GPGGA,070651,2420.7179,N,08104.1057,W,1,10,1.5,17,M,,M,,*64
06/13/2015	07:06:51.618	$GPGGA,070652,2420.7170,N,08104.1044,W,1,10,1.5,17,M,,M,,*6C
06/13/2015	07:06:52.563	$GPGGA,070653,2420.7160,N,08104.1030,W,1,10,1.4,17,M,,M,,*6E
06/13/2015	07:06:53.598	$GPGGA,070654,2420.7149,N,08104.1017,W,1,10,1.4,17,M,,M,,*67
06/13/2015	07:06:54.569	$GPGGA,070655,2420.7141,N,08104.1003,W,1,10,1.4,17,M,,M,,*6B
06/13/2015	07:06:55.607	$GPGGA,070656,2420.7132,N,08104.0988,W,1,10,1.4,17,M,,M,,*67
06/13/2015	07:06:56.570	$GPGGA,070657,2420.7121,N,08104.0975,W,1,10,1.4,17,M,,M,,*66
06/13/2015	07:06:57.570	$GPGGA,070658,2420.7110,N,08104.0962,W,1,10,1.4,17,M,,M,,*6D
06/13/2015	07:06:58.558	$GPGGA,070659,2420.7102,N,08104.0946,W,1,10,1.7,17,M,,M,,*6A
06/13/2015	07:06:59.607	$GPGGA,070700,2420.7092,N,08104.0933,W,1,10,1.4,17,M,,M,,*6E
06/13/2015	07:07:00.547	$GPGGA,070701,2420.7081,N,08104.0922,W,1,10,1.4,17,M,,M,,*6D
06/13/2015	07:07:01.538	$GPGGA,070702,2420.7072,N,08104.0908,W,1,10,1.4,17,M,,M,,*6A
06/13/2015	07:07:02.548	$GPGGA,070703,2420.7063,N,08104.0894,W,1,10,1.4,17,M,,M,,*6F
06/13/2015	07:07:03.552	$GPGGA,070704,2420.7051,N,08104.0883,W,1,10,1.4,17,M,,M,,*6F
06/13/2015	07:07:04.548	$GPGGA,070705,2420.7041,N,08104.0870,W,1,10,1.4,17,M,,M,,*63
06/13/2015	07:07:05.548	$GPGGA,070706,2420.7033,N,08104.0854,W,1,10,1.4,17,M,,M,,*63
06/13/2015	07:07:06.548	$GPGGA,070707,2420.7022,N,08104.0841,W,1,10,1.4,17,M,,M,,*66
06/13/2015	07:07:07.569	$GPGGA,070708,2420.7010,N,08104.0829,W,1,10,1.4,17,M,,M,,*66
06/13/2015	07:07:08.538	$GPGGA,070709,2420.7001,N,08104.0816,W,1,10,1.4,18,M,,M,,*64
06/13/2015	07:07:09.538	$GPGGA,070710,2420.6992,N,08104.0802,W,1,10,1.4,18,M,,M,,*6B
06/13/2015	07:07:10.538	$GPGGA,070711,2420.6982,N,08104.0788,W,1,10,1.4,18,M,,M,,*66
06/13/2015	07:07:11.562	$GPGGA,070712,2420.6971,N,08104.0775,W,1,10,1.4,18,M,,M,,*6B
06/13/2015	07:07:12.528	$GPGGA,070713,2420.6960,N,08104.0762,W,1,10,1.4,18,M,,M,,*6C
06/13/2015	07:07:13.817	$GPGGA,070714,2420.6950,N,08104.0750,W,1,10,1.4,18,M,,M,,*69
06/13/2015	07:07:14.527	$GPGGA,070715,2420.6942,N,08104.0737,W,1,10,1.4,18,M,,M,,*6A
06/13/2015	07:07:15.548	$GPGGA,070716,2420.6931,N,08104.0722,W,1,10,1.4,18,M,,M,,*69
06/13/2015	07:07:16.507	$GPGGA,070717,2420.6921,N,08104.0711,W,1,10,1.4,18,M,,M,,*69
06/13/2015	07:07:17.507	$GPGGA,070718,2420.6911,N,08104.0698,W,1,10,1.4,18,M,,M,,*65
06/13/2015	07:07:18.527	$GPGGA,070719,2420.6899,N,08104.0686,W,1,10,1.4,18,M,,M,,*6A
06/13/2015	07:07:19.628	$GPGGA,070720,2420.6888,N,08104.0674,W,1,10,1.4,18,M,,M,,*6D
06/13/2015	07:07:20.518	$GPGGA,070721,2420.6879,N,08104.0658,W,1,10,1.4,18,M,,M,,*6C
06/13/2015	07:07:21.528	$GPGGA,070722,2420.6868,N,08104.0648,W,1,10,1.4,18,M,,M,,*6E
06/13/2015	07:07:22.518	$GPGGA,070723,2420.6855,N,08104.0638,W,1,10,1.4,18,M,,M,,*66
06/13/2015	07:07:23.528	$GPGGA,070724,2420.6848,N,08104.0623,W,1,10,1.4,18,M,,M,,*67
06/13/2015	07:07:24.608	$GPGGA,070725,2420.6837,N,08104.0610,W,1,10,1.4,18,M,,M,,*6E
06/13/2015	07:07:25.508	$GPGGA,070726,2420.6823,N,08104.0600,W,1,10,1.4,18,M,,M,,*69
06/13/2015	07:07:26.588	$GPGGA,070727,2420.6813,N,08104.0588,W,1,10,1.4,18,M,,M,,*68
06/13/2015	07:07:27.518	$GPGGA,070728,2420.6803,N,08104.0572,W,1,10,1.4,18,M,,M,,*63
06/13/2015	07:07:28.588	$GPGGA,070729,2420.6791,N,08104.0562,W,1,10,1.4,18,M,,M,,*67
06/13/2015	07:07:29.598	$GPGGA,070730,2420.6781,N,08104.0554,W,1,10,1.4,18,M,,M,,*6B
06/13/2015	07:07:30.597	$GPGGA,070731,2420.6770,N,08104.0540,W,1,10,1.4,18,M,,M,,*61
06/13/2015	07:07:31.587	$GPGGA,070732,2420.6760,N,08104.0524,W,1,10,1.4,18,M,,M,,*61
06/13/2015	07:07:32.587	$GPGGA,070733,2420.6750,N,08104.0514,W,1,10,1.7,18,M,,M,,*63
06/13/2015	07:07:33.487	$GPGGA,070734,2420.6740,N,08104.0504,W,1,10,1.4,18,M,,M,,*67
06/13/2015	07:07:34.487	$GPGGA,070735,2420.6729,N,08104.0492,W,1,10,1.4,18,M,,M,,*67
06/13/2015	07:07:35.607	$GPGGA,070736,2420.6719,N,08104.0478,W,1,10,1.4,18,M,,M,,*63
06/13/2015	07:07:36.571	$GPGGA,070737,2420.6708,N,08104.0465,W,1,10,1.4,18,M,,M,,*6E
06/13/2015	07:07:37.608	$GPGGA,070738,2420.6701,N,08104.0455,W,1,10,1.4,18,M,,M,,*6B
06/13/2015	07:07:38.578	$GPGGA,070739,2420.6691,N,08104.0446,W,1,10,1.4,18,M,,M,,*60
06/13/2015	07:07:39.628	$GPGGA,070740,2420.6680,N,08104.0434,W,1,10,1.4,18,M,,M,,*6B
06/13/2015	07:07:40.578	$GPGGA,070741,2420.6672,N,08104.0420,W,1,10,1.4,18,M,,M,,*62
06/13/2015	07:07:41.588	$GPGGA,070742,2420.6664,N,08104.0409,W,1,10,1.4,18,M,,M,,*6D
06/13/2015	07:07:43.918	$GPGGA,070743,2420.6653,N,08104.0399,W,1,10,1.4,18,M,,M,,*66
06/13/2015	07:07:43.949	$GPGGA,070744,2420.6644,N,08104.0387,W,1,10,1.4,18,M,,M,,*68
06/13/2015	07:07:44.558	$GPGGA,070745,2420.6637,N,08104.0374,W,1,10,1.4,18,M,,M,,*61
06/13/2015	07:07:45.562	$GPGGA,070746,2420.6628,N,08104.0361,W,1,10,1.4,18,M,,M,,*68
06/13/2015	07:07:46.559	$GPGGA,070747,2420.6617,N,08104.0351,W,1,10,1.4,18,M,,M,,*66
06/13/2015	07:07:47.588	$GPGGA,070748,2420.6608,N,08104.0338,W,1,10,1.4,18,M,,M,,*68
06/13/2015	07:07:48.560	$GPGGA,070749,2420.6601,N,08104.0323,W,1,10,1.7,18,M,,M,,*69
06/13/2015	07:07:49.547	$GPGGA,070750,2420.6591,N,08104.0310,W,1,10,1.4,18,M,,M,,*68
06/13/2015	07:07:50.559	$GPGGA,070751,2420.6581,N,08104.0297,W,1,10,1.4,18,M,,M,,*66
06/13/2015	07:07:51.587	$GPGGA,070752,2420.6573,N,08104.0285,W,1,10,1.4,18,M,,M,,*6B
06/13/2015	07:07:52.547	$GPGGA,070753,2420.6564,N,08104.0272,W,1,10,1.4,18,M,,M,,*64
06/13/2015	07:07:53.537	$GPGGA,070754,2420.6554,N,08104.0257,W,1,10,1.4,18,M,,M,,*67
06/13/2015	07:07:54.558	$GPGGA,070755,2420.6546,N,08104.0244,W,1,10,1.4,18,M,,M,,*67
06/13/2015	07:07:55.548	$GPGGA,070756,2420.6539,N,08104.0235,W,1,10,1.4,18,M,,M,,*6A
06/13/2015	07:07:56.538	$GPGGA,070757,2420.6530,N,08104.0221,W,1,10,1.4,18,M,,M,,*67
06/13/2015	07:07:57.528	$GPGGA,070758,2420.6521,N,08104.0206,W,1,10,1.4,18,M,,M,,*6D
06/13/2015	07:07:58.698	$GPGGA,070759,2420.6513,N,08104.0194,W,1,10,1.4,18,M,,M,,*65
06/13/2015	07:07:59.548	$GPGGA,070800,2420.6506,N,08104.0185,W,1,10,1.4,18,M,,M,,*62
06/13/2015	07:08:00.538	$GPGGA,070801,2420.6496,N,08104.0173,W,1,10,1.5,18,M,,M,,*63
06/13/2015	07:08:01.538	$GPGGA,070802,2420.6488,N,08104.0158,W,1,10,1.4,18,M,,M,,*67
06/13/2015	07:08:02.528	$GPGGA,070803,2420.6481,N,08104.0147,W,1,10,1.4,18,M,,M,,*61
06/13/2015	07:08:03.560	$GPGGA,070804,2420.6471,N,08104.0136,W,1,9,1.6,18,M,,M,,*55
06/13/2015	07:08:04.497	$GPGGA,070805,2420.6460,N,08104.0124,W,1,9,1.5,18,M,,M,,*54
06/13/2015	07:08:05.647	$GPGGA,070806,2420.6454,N,08104.0111,W,1,9,1.4,18,M,,M,,*57
06/13/2015	07:08:06.606	$GPGGA,070807,2420.6447,N,08104.0099,W,1,9,1.4,18,M,,M,,*55
06/13/2015	07:08:07.517	$GPGGA,070808,2420.6433,N,08104.0088,W,1,10,1.4,18,M,,M,,*61
06/13/2015	07:08:08.496	$GPGGA,070809,2420.6423,N,08104.0076,W,1,10,1.4,18,M,,M,,*60
06/13/2015	07:08:09.486	$GPGGA,070810,2420.6418,N,08104.0062,W,1,8,2.2,18,M,,M,,*59
06/13/2015	07:08:10.656	$GPGGA,070811,2420.6411,N,08104.0049,W,1,8,1.4,18,M,,M,,*5D
06/13/2015	07:08:11.606	$GPGGA,070812,2420.6398,N,08104.0037,W,1,10,1.4,18,M,,M,,*68
06/13/2015	07:08:12.596	$GPGGA,070813,2420.6390,N,08104.0024,W,1,10,1.4,18,M,,M,,*63
06/13/2015	07:08:13.506	$GPGGA,070814,2420.6383,N,08104.0011,W,1,10,1.4,18,M,,M,,*60
06/13/2015	07:08:14.486	$GPGGA,070815,2420.6373,N,08103.9998,W,1,10,1.4,18,M,,M,,*68
06/13/2015	07:08:15.676	$GPGGA,070816,2420.6364,N,08103.9985,W,1,10,1.4,18,M,,M,,*61
06/13/2015	07:08:16.496	$GPGGA,070817,2420.6354,N,08103.9973,W,1,10,1.4,18,M,,M,,*6A
06/13/2015	07:08:17.636	$GPGGA,070818,2420.6346,N,08103.9962,W,1,10,1.4,18,M,,M,,*66
06/13/2015	07:08:18.576	$GPGGA,070819,2420.6335,N,08103.9949,W,1,10,1.4,18,M,,M,,*6A
06/13/2015	07:08:19.650	$GPGGA,070820,2420.6326,N,08103.9934,W,1,10,1.4,19,M,,M,,*69
06/13/2015	07:08:20.916	$GPGGA,070821,2420.6319,N,08103.9921,W,1,10,1.4,19,M,,M,,*60
06/13/2015	07:08:21.576	$GPGGA,070822,2420.6310,N,08103.9912,W,1,10,1.4,19,M,,M,,*6A
06/13/2015	07:08:22.648	$GPGGA,070823,2420.6299,N,08103.9900,W,1,10,1.4,19,M,,M,,*68
06/13/2015	07:08:23.660	$GPGGA,070824,2420.6292,N,08103.9884,W,1,10,1.4,19,M,,M,,*69
06/13/2015	07:08:24.655	$GPGGA,070825,2420.6283,N,08103.9871,W,1,10,1.4,19,M,,M,,*62
06/13/2015	07:08:25.616	$GPGGA,070826,2420.6271,N,08103.9862,W,1,10,1.4,19,M,,M,,*6E
06/13/2015	07:08:26.636	$GPGGA,070827,2420.6261,N,08103.9852,W,1,10,1.4,19,M,,M,,*6D
06/13/2015	07:08:27.616	$GPGGA,070828,2420.6253,N,08103.9838,W,1,10,1.4,19,M,,M,,*6F
06/13/2015	07:08:28.559	$GPGGA,070829,2420.6245,N,08103.9826,W,1,10,1.4,19,M,,M,,*66
06/13/2015	07:08:29.649	$GPGGA,070830,2420.6234,N,08103.9816,W,1,10,1.4,19,M,,M,,*6B
06/13/2015	07:08:30.636	$GPGGA,070831,2420.6223,N,08103.9804,W,1,10,1.4,19,M,,M,,*6F
06/13/2015	07:08:31.666	$GPGGA,070832,2420.6213,N,08103.9791,W,1,10,1.4,19,M,,M,,*6C
06/13/2015	07:08:32.916	$GPGGA,070833,2420.6205,N,08103.9779,W,1,10,1.4,19,M,,M,,*6C
06/13/2015	07:08:33.606	$GPGGA,070834,2420.6192,N,08103.9769,W,1,10,1.4,19,M,,M,,*67
06/13/2015	07:08:34.606	$GPGGA,070835,2420.6180,N,08103.9757,W,1,10,1.4,19,M,,M,,*68
06/13/2015	07:08:35.636	$GPGGA,070836,2420.6171,N,08103.9743,W,1,10,1.4,19,M,,M,,*60
06/13/2015	07:08:36.626	$GPGGA,070837,2420.6161,N,08103.9732,W,1,10,1.4,19,M,,M,,*66
06/13/2015	07:08:37.536	$GPGGA,070838,2420.6149,N,08103.9722,W,1,10,1.4,19,M,,M,,*62
06/13/2015	07:08:38.606	$GPGGA,070839,2420.6138,N,08103.9708,W,1,10,1.4,19,M,,M,,*6D
06/13/2015	07:08:39.637	$GPGGA,070840,2420.6129,N,08103.9696,W,1,10,1.4,19,M,,M,,*65
06/13/2015	07:08:40.536	$GPGGA,070841,2420.6118,N,08103.9687,W,1,10,1.4,19,M,,M,,*66
06/13/2015	07:08:41.576	$GPGGA,070842,2420.6108,N,08103.9674,W,1,10,1.4,19,M,,M,,*68
06/13/2015	07:08:42.606	$GPGGA,070843,2420.6096,N,08103.9661,W,1,10,1.4,19,M,,M,,*6B
06/13/2015	07:08:43.596	$GPGGA,070844,2420.6087,N,08103.9653,W,1,10,1.4,20,M,,M,,*67
06/13/2015	07:08:44.596	$GPGGA,070845,2420.6077,N,08103.9642,W,1,10,1.4,20,M,,M,,*69
06/13/2015	07:08:45.586	$GPGGA,070846,2420.6066,N,08103.9627,W,1,10,1.4,20,M,,M,,*69
06/13/2015	07:08:46.586	$GPGGA,070847,2420.6057,N,08103.9616,W,1,10,1.4,20,M,,M,,*68
06/13/2015	07:08:47.648	$GPGGA,070848,2420.6046,N,08103.9606,W,1,10,1.4,20,M,,M,,*66
06/13/2015	07:08:48.586	$GPGGA,070849,2420.6035,N,08103.9595,W,1,10,1.4,20,M,,M,,*6A
06/13/2015	07:08:49.586	$GPGGA,070850,2420.6025,N,08103.9583,W,1,10,1.4,20,M,,M,,*64
06/13/2015	07:08:50.586	$GPGGA,070851,2420.6014,N,08103.9570,W,1,10,1.4,20,M,,M,,*6B
06/13/2015	07:08:52.607	$GPGGA,070853,2420.5992,N,08103.9549,W,1,10,1.4,20,M,,M,,*67
06/13/2015	07:08:53.542	$GPGGA,070854,2420.5982,N,08103.9537,W,1,9,1.4,20,M,,M,,*50
06/13/2015	07:08:54.506	$GPGGA,070855,2420.5974,N,08103.9523,W,1,9,1.4,20,M,,M,,*5D
06/13/2015	07:08:55.576	$GPGGA,070856,2420.5963,N,08103.9510,W,1,10,1.4,20,M,,M,,*60
06/13/2015	07:08:56.496	$GPGGA,070857,2420.5952,N,08103.9503,W,1,10,1.4,20,M,,M,,*61
06/13/2015	07:08:57.597	$GPGGA,070858,2420.5941,N,08103.9491,W,1,10,1.4,20,M,,M,,*66
06/13/2015	07:08:58.626	$GPGGA,070859,2420.5932,N,08103.9476,W,1,10,1.4,20,M,,M,,*6A
06/13/2015	07:08:59.616	$GPGGA,070900,2420.5923,N,08103.9466,W,1,10,1.4,20,M,,M,,*66
06/13/2015	07:09:00.559	$GPGGA,070901,2420.5913,N,08103.9456,W,1,10,1.4,20,M,,M,,*67
06/13/2015	07:09:01.526	$GPGGA,070902,2420.5902,N,08103.9444,W,1,10,1.4,20,M,,M,,*67
06/13/2015	07:09:02.561	$GPGGA,070903,2420.5893,N,08103.9431,W,1,10,1.4,20,M,,M,,*6D
06/13/2015	07:09:03.559	$GPGGA,070904,2420.5884,N,08103.9417,W,1,10,1.7,20,M,,M,,*6B
06/13/2015	07:09:04.586	$GPGGA,070905,2420.5874,N,08103.9406,W,1,10,1.7,20,M,,M,,*65
06/13/2015	07:09:05.486	$GPGGA,070906,2420.5864,N,08103.9393,W,1,9,1.7,20,M,,M,,*54
06/13/2015	07:09:06.576	$GPGGA,070907,2420.5855,N,08103.9378,W,1,9,1.7,20,M,,M,,*52
06/13/2015	07:09:07.616	$GPGGA,070908,2420.5846,N,08103.9364,W,1,9,1.7,20,M,,M,,*52
06/13/2015	07:09:08.596	$GPGGA,070909,2420.5835,N,08103.9352,W,1,9,1.7,19,M,,M,,*58
06/13/2015	07:09:09.476	$GPGGA,070910,2420.5826,N,08103.9340,W,1,8,1.7,19,M,,M,,*50
06/13/2015	07:09:10.576	$GPGGA,070911,2420.5818,N,08103.9324,W,1,8,1.7,19,M,,M,,*5E
06/13/2015	07:09:11.547	$GPGGA,070912,2420.5807,N,08103.9312,W,1,9,1.7,19,M,,M,,*57
06/13/2015	07:09:12.566	$GPGGA,070913,2420.5795,N,08103.9303,W,1,9,1.7,19,M,,M,,*52
06/13/2015	07:09:13.576	$GPGGA,070914,2420.5786,N,08103.9288,W,1,9,1.7,19,M,,M,,*55
06/13/2015	07:09:14.577	$GPGGA,070915,2420.5779,N,08103.9273,W,1,9,2.2,19,M,,M,,*56
06/13/2015	07:09:15.606	$GPGGA,070916,2420.5768,N,08103.9261,W,1,8,1.7,19,M,,M,,*51
06/13/2015	07:09:16.566	$GPGGA,070917,2420.5757,N,08103.9249,W,1,8,1.7,19,M,,M,,*56
06/13/2015	07:09:17.576	$GPGGA,070918,2420.5748,N,08103.9233,W,1,9,1.7,19,M,,M,,*5B
06/13/2015	07:09:18.566	$GPGGA,070919,2420.5742,N,08103.9216,W,1,9,1.7,19,M,,M,,*57
06/13/2015	07:09:19.626	$GPGGA,070920,2420.5732,N,08103.9204,W,1,9,1.7,19,M,,M,,*59
06/13/2015	07:09:20.559	$GPGGA,070921,2420.5721,N,08103.9191,W,1,9,1.7,19,M,,M,,*55
06/13/2015	07:09:21.586	$GPGGA,070922,2420.5715,N,08103.9175,W,1,9,1.7,19,M,,M,,*5B
06/13/2015	07:09:22.548	$GPGGA,070923,2420.5706,N,08103.9161,W,1,9,1.7,19,M,,M,,*5D
06/13/2015	07:09:23.576	$GPGGA,070924,2420.5695,N,08103.9148,W,1,9,1.7,19,M,,M,,*5A
06/13/2015	07:09:24.558	$GPGGA,070925,2420.5688,N,08103.9133,W,1,9,1.7,19,M,,M,,*5B
06/13/2015	07:09:25.551	$GPGGA,070926,2420.5682,N,08103.9119,W,1,9,1.7,19,M,,M,,*5A
06/13/2015	07:09:26.559	$GPGGA,070927,2420.5670,N,08103.9109,W,1,9,1.7,19,M,,M,,*57
06/13/2015	07:09:27.586	$GPGGA,070928,2420.5660,N,08103.9094,W,1,9,1.7,19,M,,M,,*5C
06/13/2015	07:09:28.549	$GPGGA,070929,2420.5656,N,08103.9077,W,1,9,1.7,19,M,,M,,*55
06/13/2015	07:09:29.576	$GPGGA,070930,2420.5647,N,08103.9066,W,1,9,1.7,19,M,,M,,*5D
06/13/2015	07:09:30.556	$GPGGA,070931,2420.5635,N,08103.9057,W,1,9,1.7,19,M,,M,,*5B
06/13/2015	07:09:31.586	$GPGGA,070932,2420.5628,N,08103.9041,W,1,9,1.7,19,M,,M,,*53
06/13/2015	07:09:32.567	$GPGGA,070933,2420.5622,N,08103.9027,W,1,9,1.7,19,M,,M,,*58
06/13/2015	07:09:33.557	$GPGGA,070934,2420.5613,N,08103.9017,W,1,9,1.7,19,M,,M,,*5E
06/13/2015	07:09:34.537	$GPGGA,070935,2420.5605,N,08103.9006,W,1,9,1.7,19,M,,M,,*58
06/13/2015	07:09:35.550	$GPGGA,070936,2420.5596,N,08103.8991,W,1,9,1.7,19,M,,M,,*54
06/13/2015	07:09:36.557	$GPGGA,070937,2420.5588,N,08103.8978,W,1,9,1.7,19,M,,M,,*5D
06/13/2015	07:09:37.526	$GPGGA,070938,2420.5580,N,08103.8967,W,1,9,1.7,19,M,,M,,*54
06/13/2015	07:09:38.649	$GPGGA,070939,2420.5571,N,08103.8954,W,1,9,1.7,19,M,,M,,*5B
06/13/2015	07:09:39.566	$GPGGA,070940,2420.5562,N,08103.8940,W,1,9,1.7,19,M,,M,,*52
06/13/2015	07:09:40.559	$GPGGA,070941,2420.5553,N,08103.8928,W,1,9,1.7,19,M,,M,,*5F
06/13/2015	07:09:41.526	$GPGGA,070942,2420.5544,N,08103.8918,W,1,9,1.7,19,M,,M,,*59
06/13/2015	07:09:42.516	$GPGGA,070943,2420.5544,N,08103.8918,W,1,9,1.7,19,M,,M,,*58
06/13/2015	07:09:43.537	$GPGGA,070944,2420.5526,N,08103.8894,W,1,9,1.7,18,M,,M,,*5F
06/13/2015	07:09:44.606	$GPGGA,070945,2420.5517,N,08103.8883,W,1,9,1.7,18,M,,M,,*5A
06/13/2015	07:09:45.516	$GPGGA,070946,2420.5506,N,08103.8871,W,1,9,1.7,18,M,,M,,*54
06/13/2015	07:09:46.616	$GPGGA,070947,2420.5497,N,08103.8858,W,1,9,1.7,18,M,,M,,*57
06/13/2015	07:09:47.526	$GPGGA,070948,2420.5487,N,08103.8849,W,1,9,1.7,18,M,,M,,*59
06/13/2015	07:09:48.558	$GPGGA,070949,2420.5477,N,08103.8836,W,1,9,1.7,18,M,,M,,*5F
06/13/2015	07:09:49.487	$GPGGA,070950,2420.5468,N,08103.8825,W,1,9,1.7,18,M,,M,,*5B
06/13/2015	07:09:50.616	$GPGGA,070951,2420.5459,N,08103.8815,W,1,9,1.7,18,M,,M,,*5B
06/13/2015	07:09:51.626	$GPGGA,070952,2420.5447,N,08103.8803,W,1,9,1.7,18,M,,M,,*50
06/13/2015	07:09:52.616	$GPGGA,070953,2420.5437,N,08103.8793,W,1,9,1.7,18,M,,M,,*50
06/13/2015	07:09:53.537	$GPGGA,070954,2420.5429,N,08103.8786,W,1,9,1.7,18,M,,M,,*5C
06/13/2015	07:09:54.496	$GPGGA,070955,2420.5418,N,08103.8776,W,1,9,1.7,18,M,,M,,*50
06/13/2015	07:09:55.626	$GPGGA,070956,2420.5408,N,08103.8763,W,1,9,1.7,18,M,,M,,*56
06/13/2015	07:09:56.576	$GPGGA,070957,2420.5399,N,08103.8754,W,1,9,1.7,18,M,,M,,*5C
06/13/2015	07:09:57.606	$GPGGA,070958,2420.5388,N,08103.8745,W,1,8,1.8,18,M,,M,,*5D
06/13/2015	07:09:58.576	$GPGGA,070959,2420.5378,N,08103.8736,W,1,8,1.7,18,M,,M,,*58
06/13/2015	07:09:59.596	$GPGGA,071000,2420.5369,N,08103.8725,W,1,9,1.7,18,M,,M,,*5F
06/13/2015	07:10:00.576	$GPGGA,071001,2420.5360,N,08103.8712,W,1,9,1.7,18,M,,M,,*53
06/13/2015	07:10:01.566	$GPGGA,071002,2420.5349,N,08103.8703,W,1,9,1.7,18,M,,M,,*5B
06/13/2015	07:10:02.576	$GPGGA,071003,2420.5338,N,08103.8696,W,1,9,1.7,18,M,,M,,*51
06/13/2015	07:10:03.606	$GPGGA,071004,2420.5328,N,08103.8683,W,1,9,1.7,18,M,,M,,*53
06/13/2015	07:10:04.559	$GPGGA,071005,2420.5320,N,08103.8669,W,1,9,1.7,18,M,,M,,*5E
06/13/2015	07:10:05.596	$GPGGA,071006,2420.5310,N,08103.8660,W,1,9,1.7,18,M,,M,,*57
06/13/2015	07:10:06.566	$GPGGA,071007,2420.5298,N,08103.8650,W,1,9,1.7,18,M,,M,,*54
06/13/2015	07:10:07.597	$GPGGA,071008,2420.5288,N,08103.8638,W,1,9,1.7,18,M,,M,,*54
06/13/2015	07:10:08.554	$GPGGA,071009,2420.5280,N,08103.8626,W,1,9,1.7,18,M,,M,,*52
06/13/2015	07:10:09.576	$GPGGA,071010,2420.5269,N,08103.8613,W,1,9,1.7,18,M,,M,,*5B
06/13/2015	07:10:10.557	$GPGGA,071011,2420.5259,N,08103.8602,W,1,9,1.7,18,M,,M,,*59
06/13/2015	07:10:11.586	$GPGGA,071012,2420.5249,N,08103.8590,W,1,9,1.7,18,M,,M,,*53
06/13/2015	07:10:12.560	$GPGGA,071013,2420.5240,N,08103.8578,W,1,9,1.7,18,M,,M,,*5D
06/13/2015	07:10:13.576	$GPGGA,071014,2420.5231,N,08103.8565,W,1,9,1.7,18,M,,M,,*50
06/13/2015	07:10:14.542	$GPGGA,071015,2420.5221,N,08103.8552,W,1,9,1.7,18,M,,M,,*54
06/13/2015	07:10:15.576	$GPGGA,071016,2420.5212,N,08103.8540,W,1,9,1.7,18,M,,M,,*54
06/13/2015	07:10:16.548	$GPGGA,071017,2420.5204,N,08103.8526,W,1,9,1.7,18,M,,M,,*52
06/13/2015	07:10:17.566	$GPGGA,071018,2420.5193,N,08103.8515,W,1,8,1.7,18,M,,M,,*51
06/13/2015	07:10:18.550	$GPGGA,071019,2420.5183,N,08103.8503,W,1,8,1.7,18,M,,M,,*56
06/13/2015	07:10:19.586	$GPGGA,071020,2420.5176,N,08103.8488,W,1,9,1.7,18,M,,M,,*55
06/13/2015	07:10:20.551	$GPGGA,071021,2420.5166,N,08103.8476,W,1,9,1.7,18,M,,M,,*54
06/13/2015	07:10:21.550	$GPGGA,071022,2420.5155,N,08103.8466,W,1,9,1.7,18,M,,M,,*56
06/13/2015	07:10:22.536	$GPGGA,071023,2420.5146,N,08103.8452,W,1,9,2.2,18,M,,M,,*54
06/13/2015	07:10:23.560	$GPGGA,071024,2420.5137,N,08103.8436,W,1,8,1.7,18,M,,M,,*50
06/13/2015	07:10:24.527	$GPGGA,071025,2420.5125,N,08103.8425,W,1,8,1.7,18,M,,M,,*50
06/13/2015	07:10:25.560	$GPGGA,071026,2420.5118,N,08103.8416,W,1,9,1.7,18,M,,M,,*5C
06/13/2015	07:10:26.516	$GPGGA,071027,2420.5109,N,08103.8402,W,1,9,1.7,18,M,,M,,*58
06/13/2015	07:10:27.526	$GPGGA,071028,2420.5098,N,08103.8388,W,1,9,1.7,18,M,,M,,*5B
06/13/2015	07:10:28.526	$GPGGA,071029,2420.5090,N,08103.8378,W,1,9,1.7,18,M,,M,,*5D
06/13/2015	07:10:29.546	$GPGGA,071030,2420.5082,N,08103.8366,W,1,8,1.7,18,M,,M,,*58
06/13/2015	07:10:30.526	$GPGGA,071031,2420.5074,N,08103.8354,W,1,8,1.7,18,M,,M,,*51
06/13/2015	07:10:31.560	$GPGGA,071032,2420.5065,N,08103.8341,W,1,9,1.7,18,M,,M,,*57
06/13/2015	07:10:32.506	$GPGGA,071033,2420.5056,N,08103.8330,W,1,9,1.7,18,M,,M,,*50
06/13/2015	07:10:33.506	$GPGGA,071034,2420.5047,N,08103.8318,W,1,9,1.7,18,M,,M,,*5D
06/13/2015	07:10:34.507	$GPGGA,071035,2420.5040,N,08103.8304,W,1,9,1.7,18,M,,M,,*56
06/13/2015	07:10:35.527	$GPGGA,071036,2420.5031,N,08103.8292,W,1,9,1.7,18,M,,M,,*5D
06/13/2015	07:10:36.616	$GPGGA,071037,2420.5020,N,08103.8280,W,1,9,1.7,18,M,,M,,*5F
06/13/2015	07:10:37.596	$GPGGA,071038,2420.5011,N,08103.8268,W,1,9,1.7,18,M,,M,,*54
06/13/2015	07:10:38.506	$GPGGA,071039,2420.5005,N,08103.8255,W,1,9,1.7,18,M,,M,,*5E
06/13/2015	07:10:39.540	$GPGGA,071040,2420.4996,N,08103.8242,W,1,9,1.7,18,M,,M,,*54
06/13/2015	07:10:40.486	$GPGGA,071041,2420.4985,N,08103.8230,W,1,9,1.7,18,M,,M,,*52
06/13/2015	07:10:41.486	$GPGGA,071042,2420.4977,N,08103.8218,W,1,9,1.7,18,M,,M,,*56
06/13/2015	07:10:42.607	$GPGGA,071043,2420.4968,N,08103.8205,W,1,9,1.7,18,M,,M,,*55
06/13/2015	07:10:43.596	$GPGGA,071044,2420.4959,N,08103.8192,W,1,9,1.7,18,M,,M,,*5D
06/13/2015	07:10:44.486	$GPGGA,071045,2420.4949,N,08103.8180,W,1,9,1.7,18,M,,M,,*5E
06/13/2015	07:10:45.496	$GPGGA,071046,2420.4939,N,08103.8168,W,1,9,1.7,18,M,,M,,*5C
06/13/2015	07:10:46.576	$GPGGA,071047,2420.4931,N,08103.8156,W,1,9,1.7,18,M,,M,,*58
06/13/2015	07:10:47.486	$GPGGA,071048,2420.4922,N,08103.8143,W,1,9,1.7,18,M,,M,,*51
06/13/2015	07:10:48.576	$GPGGA,071049,2420.4913,N,08103.8129,W,1,9,1.7,18,M,,M,,*5E
06/13/2015	07:10:49.486	$GPGGA,071050,2420.4904,N,08103.8115,W,1,9,1.7,18,M,,M,,*5F
06/13/2015	07:10:50.576	$GPGGA,071051,2420.4895,N,08103.8104,W,1,9,1.7,18,M,,M,,*57
06/13/2015	07:10:51.606	$GPGGA,071052,2420.4885,N,08103.8092,W,1,9,1.7,18,M,,M,,*5B
06/13/2015	07:10:52.576	$GPGGA,071053,2420.4876,N,08103.8080,W,1,9,1.7,18,M,,M,,*55
06/13/2015	07:10:53.606	$GPGGA,071054,2420.4867,N,08103.8066,W,1,9,1.7,18,M,,M,,*5A
06/13/2015	07:10:54.561	$GPGGA,071055,2420.4857,N,08103.8055,W,1,9,1.7,18,M,,M,,*58
06/13/2015	07:10:55.586	$GPGGA,071056,2420.4846,N,08103.8044,W,1,9,1.7,18,M,,M,,*5B
06/13/2015	07:10:56.560	$GPGGA,071057,2420.4837,N,08103.8030,W,1,9,1.7,18,M,,M,,*5F
06/13/2015	07:10:57.566	$GPGGA,071058,2420.4828,N,08103.8016,W,1,9,1.7,18,M,,M,,*5A
06/13/2015	07:10:58.566	$GPGGA,071059,2420.4818,N,08103.8005,W,1,9,1.7,18,M,,M,,*5A
06/13/2015	07:10:59.597	$GPGGA,071100,2420.4807,N,08103.7995,W,1,8,1.7,18,M,,M,,*57
06/13/2015	07:11:00.560	$GPGGA,071101,2420.4797,N,08103.7979,W,1,8,1.7,18,M,,M,,*52
06/13/2015	07:11:01.566	$GPGGA,071102,2420.4789,N,08103.7967,W,1,9,1.7,18,M,,M,,*50
06/13/2015	07:11:02.547	$GPGGA,071103,2420.4779,N,08103.7958,W,1,9,1.7,18,M,,M,,*52
06/13/2015	07:11:03.586	$GPGGA,071104,2420.4768,N,08103.7945,W,1,9,1.7,18,M,,M,,*59
06/13/2015	07:11:04.549	$GPGGA,071105,2420.4760,N,08103.7931,W,1,9,1.7,18,M,,M,,*53
06/13/2015	07:11:05.562	$GPGGA,071106,2420.4751,N,08103.7919,W,1,9,1.7,18,M,,M,,*58
06/13/2015	07:11:06.549	$GPGGA,071107,2420.4739,N,08103.7908,W,1,9,1.7,18,M,,M,,*57
06/13/2015	07:11:07.563	$GPGGA,071108,2420.4731,N,08103.7895,W,1,9,1.7,18,M,,M,,*55
06/13/2015	07:11:08.536	$GPGGA,071109,2420.4722,N,08103.7882,W,1,9,1.7,18,M,,M,,*50
06/13/2015	07:11:09.565	$GPGGA,071110,2420.4713,N,08103.7872,W,1,9,1.7,18,M,,M,,*55
06/13/2015	07:11:10.526	$GPGGA,071111,2420.4702,N,08103.7859,W,1,9,1.7,18,M,,M,,*5D
06/13/2015	07:11:11.581	$GPGGA,071112,2420.4692,N,08103.7844,W,1,9,1.7,18,M,,M,,*5A
06/13/2015	07:11:12.526	$GPGGA,071113,2420.4684,N,08103.7833,W,1,9,1.7,18,M,,M,,*5C
06/13/2015	07:11:13.516	$GPGGA,071114,2420.4673,N,08103.7823,W,1,9,1.7,18,M,,M,,*52
06/13/2015	07:11:14.536	$GPGGA,071115,2420.4663,N,08103.7809,W,1,9,1.7,18,M,,M,,*5A
06/13/2015	07:11:15.550	$GPGGA,071116,2420.4655,N,08103.7795,W,1,9,1.7,18,M,,M,,*56
06/13/2015	07:11:16.526	$GPGGA,071117,2420.4643,N,08103.7784,W,1,9,1.7,18,M,,M,,*50
06/13/2015	07:11:17.537	$GPGGA,071118,2420.4633,N,08103.7773,W,1,9,1.7,17,M,,M,,*5F
06/13/2015	07:11:18.516	$GPGGA,071119,2420.4626,N,08103.7761,W,1,9,1.7,17,M,,M,,*59
06/13/2015	07:11:19.549	$GPGGA,071120,2420.4616,N,08103.7748,W,1,9,1.7,17,M,,M,,*5B
06/13/2015	07:11:20.516	$GPGGA,071121,2420.4603,N,08103.7736,W,1,9,1.7,17,M,,M,,*57
06/13/2015	07:11:21.506	$GPGGA,071122,2420.4594,N,08103.7723,W,1,9,1.7,17,M,,M,,*5D
06/13/2015	07:11:22.526	$GPGGA,071123,2420.4585,N,08103.7712,W,1,9,1.7,17,M,,M,,*5E
06/13/2015	07:11:23.537	$GPGGA,071124,2420.4576,N,08103.7698,W,1,9,1.7,17,M,,M,,*56
06/13/2015	07:11:24.496	$GPGGA,071125,2420.4565,N,08103.7687,W,1,9,1.7,17,M,,M,,*5B
06/13/2015	07:11:25.496	$GPGGA,071126,2420.4555,N,08103.7676,W,1,9,1.7,17,M,,M,,*55
06/13/2015	07:11:26.596	$GPGGA,071127,2420.4547,N,08103.7662,W,1,9,1.7,17,M,,M,,*52
06/13/2015	07:11:27.636	$GPGGA,071128,2420.4536,N,08103.7650,W,1,9,1.7,17,M,,M,,*5A
06/13/2015	07:11:28.606	$GPGGA,071129,2420.4526,N,08103.7639,W,1,9,1.7,17,M,,M,,*55
06/13/2015	07:11:29.626	$GPGGA,071130,2420.4516,N,08103.7626,W,1,9,1.7,17,M,,M,,*50
06/13/2015	07:11:30.506	$GPGGA,071131,2420.4507,N,08103.7612,W,1,9,1.7,17,M,,M,,*56
06/13/2015	07:11:31.636	$GPGGA,071132,2420.4498,N,08103.7599,W,1,9,1.7,17,M,,M,,*52
06/13/2015	07:11:32.506	$GPGGA,071133,2420.4487,N,08103.7587,W,1,9,1.7,17,M,,M,,*52
06/13/2015	07:11:33.586	$GPGGA,071134,2420.4478,N,08103.7575,W,1,9,1.7,17,M,,M,,*58
06/13/2015	07:11:34.497	$GPGGA,071135,2420.4468,N,08103.7560,W,1,9,1.7,17,M,,M,,*5C
06/13/2015	07:11:35.496	$GPGGA,071136,2420.4460,N,08103.7546,W,1,9,1.7,17,M,,M,,*53
06/13/2015	07:11:36.486	$GPGGA,071137,2420.4449,N,08103.7534,W,1,9,1.7,17,M,,M,,*5C
06/13/2015	07:11:37.486	$GPGGA,071138,2420.4438,N,08103.7523,W,1,9,1.7,17,M,,M,,*53
06/13/2015	07:11:38.576	$GPGGA,071139,2420.4429,N,08103.7508,W,1,9,1.7,17,M,,M,,*5B
06/13/2015	07:11:39.586	$GPGGA,071140,2420.4421,N,08103.7494,W,1,9,1.7,17,M,,M,,*59
06/13/2015	07:11:40.486	$GPGGA,071141,2420.4410,N,08103.7482,W,1,9,1.7,17,M,,M,,*5D
06/13/2015	07:11:41.566	$GPGGA,071142,2420.4398,N,08103.7470,W,1,8,1.7,17,M,,M,,*55
06/13/2015	07:11:42.576	$GPGGA,071143,2420.4390,N,08103.7457,W,1,8,2.2,17,M,,M,,*5F
06/13/2015	07:11:43.576	$GPGGA,071144,2420.4384,N,08103.7443,W,1,8,1.7,17,M,,M,,*5E
06/13/2015	07:11:44.558	$GPGGA,071145,2420.4371,N,08103.7429,W,1,8,1.7,17,M,,M,,*59
06/13/2015	07:11:45.596	$GPGGA,071146,2420.4359,N,08103.7419,W,1,9,1.7,17,M,,M,,*52
