Software Version Number: 1	Data File Format Number: 1	Build Version Number: 1	Error Count Since VI Started: 1	Manufacturer: Raytheon	 Model Number: RayMarine 120	 S/N: 	 Cal Date: 	 Wind Direction Offset: 0.00	 Slope (M)1: 0.00	 Offset (B)1: 0.00	 Slope (M)2: 0.00	 Offset (B)2: 0.00	 Slope (M)3: 0.00	 Offset (B)3: 0.00	 Slope (M)4: 0.00	 Offset (B)4: 0.00	 Slope (M)5: 0.00	 Offset (B)5: 0.00	 Slope (M)6: 0.00	 Offset (B)6: 0.00
Computer Date	Computer Time	GGA String
06/14/2015	02:00:01.523	$GPGGA,020001,2433.7225,N,08052.3588,W,1,10,1.7,20,M,,M,,*6B
06/14/2015	02:00:01.553	$GPGGA,020002,2433.7213,N,08052.3606,W,1,10,1.7,20,M,,M,,*68
06/14/2015	02:00:02.825	$GPGGA,020003,2433.7199,N,08052.3624,W,1,10,1.7,20,M,,M,,*68
06/14/2015	02:00:03.523	$GPGGA,020004,2433.7188,N,08052.3642,W,1,10,1.7,20,M,,M,,*6F
06/14/2015	02:00:04.593	$GPGGA,020005,2433.7173,N,08052.3660,W,1,10,1.7,20,M,,M,,*6A
06/14/2015	02:00:05.513	$GPGGA,020006,2433.7159,N,08052.3681,W,1,9,1.9,20,M,,M,,*58
06/14/2015	02:00:06.593	$GPGGA,020007,2433.7146,N,08052.3703,W,1,9,1.7,20,M,,M,,*52
06/14/2015	02:00:07.502	$GPGGA,020008,2433.7132,N,08052.3722,W,1,10,1.7,20,M,,M,,*65
06/14/2015	02:00:08.512	$GPGGA,020009,2433.7117,N,08052.3740,W,1,10,1.7,20,M,,M,,*67
06/14/2015	02:00:09.593	$GPGGA,020010,2433.7104,N,08052.3758,W,1,10,1.7,20,M,,M,,*64
06/14/2015	02:00:10.503	$GPGGA,020011,2433.7092,N,08052.3775,W,1,10,1.7,20,M,,M,,*64
06/14/2015	02:00:11.623	$GPGGA,020012,2433.7079,N,08052.3794,W,1,9,1.9,20,M,,M,,*5B
06/14/2015	02:00:12.503	$GPGGA,020013,2433.7063,N,08052.3813,W,1,9,1.7,20,M,,M,,*5F
06/14/2015	02:00:13.493	$GPGGA,020014,2433.7050,N,08052.3833,W,1,10,1.7,20,M,,M,,*62
06/14/2015	02:00:14.583	$GPGGA,020015,2433.7036,N,08052.3852,W,1,10,1.9,20,M,,M,,*6A
06/14/2015	02:00:15.603	$GPGGA,020016,2433.7020,N,08052.3871,W,1,10,1.7,20,M,,M,,*61
06/14/2015	02:00:16.573	$GPGGA,020017,2433.7007,N,08052.3891,W,1,10,1.7,20,M,,M,,*6B
06/14/2015	02:00:17.593	$GPGGA,020018,2433.6993,N,08052.3909,W,1,10,1.7,20,M,,M,,*61
06/14/2015	02:00:18.573	$GPGGA,020019,2433.6982,N,08052.3925,W,1,10,1.7,20,M,,M,,*6E
06/14/2015	02:00:19.583	$GPGGA,020020,2433.6967,N,08052.3942,W,1,9,1.9,20,M,,M,,*58
06/14/2015	02:00:20.565	$GPGGA,020021,2433.6953,N,08052.3961,W,1,9,1.7,20,M,,M,,*51
06/14/2015	02:00:21.593	$GPGGA,020022,2433.6938,N,08052.3981,W,1,10,1.7,20,M,,M,,*69
06/14/2015	02:00:22.573	$GPGGA,020023,2433.6924,N,08052.3999,W,1,10,1.7,20,M,,M,,*6C
06/14/2015	02:00:23.593	$GPGGA,020024,2433.6908,N,08052.4017,W,1,10,1.7,20,M,,M,,*6D
06/14/2015	02:00:24.553	$GPGGA,020025,2433.6895,N,08052.4036,W,1,10,1.7,20,M,,M,,*6A
06/14/2015	02:00:25.552	$GPGGA,020026,2433.6880,N,08052.4054,W,1,10,1.7,20,M,,M,,*69
06/14/2015	02:00:26.563	$GPGGA,020027,2433.6867,N,08052.4072,W,1,10,1.7,20,M,,M,,*65
06/14/2015	02:00:27.565	$GPGGA,020028,2433.6853,N,08052.4090,W,1,10,1.7,20,M,,M,,*61
06/14/2015	02:00:28.563	$GPGGA,020029,2433.6841,N,08052.4108,W,1,10,1.7,20,M,,M,,*63
06/14/2015	02:00:29.564	$GPGGA,020030,2433.6826,N,08052.4126,W,1,10,1.7,20,M,,M,,*66
06/14/2015	02:00:30.543	$GPGGA,020031,2433.6812,N,08052.4144,W,1,10,1.9,20,M,,M,,*6A
06/14/2015	02:00:31.593	$GPGGA,020032,2433.6799,N,08052.4165,W,1,9,1.9,20,M,,M,,*5E
06/14/2015	02:00:32.553	$GPGGA,020033,2433.6784,N,08052.4184,W,1,9,1.7,20,M,,M,,*52
06/14/2015	02:00:33.565	$GPGGA,020034,2433.6769,N,08052.4202,W,1,10,1.7,20,M,,M,,*63
06/14/2015	02:00:34.553	$GPGGA,020035,2433.6758,N,08052.4220,W,1,10,1.7,20,M,,M,,*60
06/14/2015	02:00:35.543	$GPGGA,020036,2433.6744,N,08052.4238,W,1,10,1.7,20,M,,M,,*67
06/14/2015	02:00:36.533	$GPGGA,020037,2433.6730,N,08052.4256,W,1,10,1.7,19,M,,M,,*67
06/14/2015	02:00:37.533	$GPGGA,020038,2433.6718,N,08052.4274,W,1,10,1.7,19,M,,M,,*62
06/14/2015	02:00:38.533	$GPGGA,020039,2433.6704,N,08052.4293,W,1,10,1.9,19,M,,M,,*69
06/14/2015	02:00:39.533	$GPGGA,020040,2433.6689,N,08052.4314,W,1,10,1.7,19,M,,M,,*63
06/14/2015	02:00:40.543	$GPGGA,020041,2433.6673,N,08052.4333,W,1,10,1.7,19,M,,M,,*62
06/14/2015	02:00:41.533	$GPGGA,020042,2433.6660,N,08052.4354,W,1,9,1.9,19,M,,M,,*54
06/14/2015	02:00:42.532	$GPGGA,020043,2433.6646,N,08052.4375,W,1,9,1.7,19,M,,M,,*5C
06/14/2015	02:00:43.712	$GPGGA,020044,2433.6631,N,08052.4393,W,1,10,1.7,19,M,,M,,*6B
06/14/2015	02:00:44.665	$GPGGA,020045,2433.6617,N,08052.4411,W,1,10,1.7,19,M,,M,,*63
06/14/2015	02:00:45.570	$GPGGA,020046,2433.6604,N,08052.4429,W,1,10,1.7,19,M,,M,,*69
06/14/2015	02:00:46.523	$GPGGA,020047,2433.6592,N,08052.4447,W,1,10,1.7,19,M,,M,,*6C
06/14/2015	02:00:47.543	$GPGGA,020048,2433.6578,N,08052.4465,W,1,10,1.7,19,M,,M,,*67
06/14/2015	02:00:48.513	$GPGGA,020049,2433.6564,N,08052.4484,W,1,10,1.7,19,M,,M,,*64
06/14/2015	02:00:49.513	$GPGGA,020050,2433.6550,N,08052.4503,W,1,10,1.7,19,M,,M,,*65
06/14/2015	02:00:50.503	$GPGGA,020051,2433.6535,N,08052.4523,W,1,10,1.7,19,M,,M,,*65
06/14/2015	02:00:51.703	$GPGGA,020052,2433.6521,N,08052.4543,W,1,10,1.7,19,M,,M,,*65
06/14/2015	02:00:52.647	$GPGGA,020053,2433.6507,N,08052.4561,W,1,10,1.7,19,M,,M,,*60
06/14/2015	02:00:53.693	$GPGGA,020054,2433.6494,N,08052.4581,W,1,10,1.7,19,M,,M,,*62
06/14/2015	02:00:54.593	$GPGGA,020055,2433.6480,N,08052.4599,W,1,10,1.7,19,M,,M,,*6F
06/14/2015	02:00:55.703	$GPGGA,020056,2433.6466,N,08052.4615,W,1,10,1.7,18,M,,M,,*62
06/14/2015	02:00:56.523	$GPGGA,020057,2433.6451,N,08052.4633,W,1,10,1.7,18,M,,M,,*63
06/14/2015	02:00:57.693	$GPGGA,020058,2433.6438,N,08052.4653,W,1,10,1.7,18,M,,M,,*65
06/14/2015	02:00:58.613	$GPGGA,020059,2433.6425,N,08052.4672,W,1,10,1.7,18,M,,M,,*6B
06/14/2015	02:00:59.692	$GPGGA,020100,2433.6411,N,08052.4690,W,1,9,1.7,18,M,,M,,*55
06/14/2015	02:01:00.632	$GPGGA,020101,2433.6396,N,08052.4711,W,1,9,1.7,18,M,,M,,*54
06/14/2015	02:01:01.583	$GPGGA,020102,2433.6383,N,08052.4730,W,1,10,1.7,18,M,,M,,*68
06/14/2015	02:01:02.583	$GPGGA,020103,2433.6369,N,08052.4749,W,1,10,1.7,18,M,,M,,*63
06/14/2015	02:01:03.703	$GPGGA,020104,2433.6355,N,08052.4769,W,1,10,1.7,18,M,,M,,*69
06/14/2015	02:01:04.573	$GPGGA,020105,2433.6342,N,08052.4787,W,1,10,1.7,18,M,,M,,*6E
06/14/2015	02:01:05.683	$GPGGA,020106,2433.6329,N,08052.4806,W,1,10,1.7,18,M,,M,,*66
06/14/2015	02:01:06.571	$GPGGA,020107,2433.6317,N,08052.4823,W,1,10,1.7,18,M,,M,,*6D
06/14/2015	02:01:07.683	$GPGGA,020108,2433.6302,N,08052.4842,W,1,9,1.9,18,M,,M,,*57
06/14/2015	02:01:08.593	$GPGGA,020109,2433.6289,N,08052.4863,W,1,9,1.7,18,M,,M,,*59
06/14/2015	02:01:09.674	$GPGGA,020110,2433.6275,N,08052.4881,W,1,10,1.7,18,M,,M,,*66
06/14/2015	02:01:10.570	$GPGGA,020111,2433.6261,N,08052.4902,W,1,10,1.7,18,M,,M,,*68
06/14/2015	02:01:11.683	$GPGGA,020112,2433.6248,N,08052.4922,W,1,9,1.7,18,M,,M,,*5A
06/14/2015	02:01:12.583	$GPGGA,020113,2433.6234,N,08052.4942,W,1,9,1.7,18,M,,M,,*56
06/14/2015	02:01:13.646	$GPGGA,020114,2433.6218,N,08052.4960,W,1,10,1.7,18,M,,M,,*67
06/14/2015	02:01:14.583	$GPGGA,020115,2433.6205,N,08052.4980,W,1,10,1.7,18,M,,M,,*64
06/14/2015	02:01:15.679	$GPGGA,020116,2433.6191,N,08052.4996,W,1,10,1.7,18,M,,M,,*6E
06/14/2015	02:01:16.583	$GPGGA,020117,2433.6177,N,08052.5014,W,1,10,2.2,18,M,,M,,*63
06/14/2015	02:01:17.673	$GPGGA,020118,2433.6165,N,08052.5032,W,1,10,1.7,19,M,,M,,*6C
06/14/2015	02:01:18.542	$GPGGA,020119,2433.6151,N,08052.5051,W,1,10,1.7,19,M,,M,,*6F
06/14/2015	02:01:19.673	$GPGGA,020120,2433.6136,N,08052.5069,W,1,9,1.9,19,M,,M,,*59
06/14/2015	02:01:20.583	$GPGGA,020121,2433.6122,N,08052.5088,W,1,9,1.9,19,M,,M,,*52
06/14/2015	02:01:21.648	$GPGGA,020122,2433.6107,N,08052.5108,W,1,9,1.9,19,M,,M,,*5F
06/14/2015	02:01:22.533	$GPGGA,020123,2433.6093,N,08052.5126,W,1,9,1.7,19,M,,M,,*50
06/14/2015	02:01:23.657	$GPGGA,020124,2433.6079,N,08052.5145,W,1,10,1.9,19,M,,M,,*60
06/14/2015	02:01:24.533	$GPGGA,020125,2433.6066,N,08052.5163,W,1,10,1.9,19,M,,M,,*6B
06/14/2015	02:01:25.523	$GPGGA,020126,2433.6053,N,08052.5181,W,1,10,1.7,19,M,,M,,*6C
06/14/2015	02:01:26.573	$GPGGA,020127,2433.6039,N,08052.5197,W,1,10,1.7,20,M,,M,,*6C
06/14/2015	02:01:27.672	$GPGGA,020128,2433.6025,N,08052.5215,W,1,10,1.7,20,M,,M,,*67
06/14/2015	02:01:28.643	$GPGGA,020129,2433.6012,N,08052.5233,W,1,10,1.7,20,M,,M,,*66
06/14/2015	02:01:29.643	$GPGGA,020130,2433.5999,N,08052.5253,W,1,10,1.7,20,M,,M,,*61
06/14/2015	02:01:30.565	$GPGGA,020131,2433.5983,N,08052.5271,W,1,10,1.7,20,M,,M,,*6B
06/14/2015	02:01:31.523	$GPGGA,020132,2433.5970,N,08052.5290,W,1,10,1.7,20,M,,M,,*6B
06/14/2015	02:01:32.543	$GPGGA,020133,2433.5956,N,08052.5311,W,1,10,1.7,20,M,,M,,*66
06/14/2015	02:01:33.593	$GPGGA,020134,2433.5939,N,08052.5329,W,1,10,1.7,20,M,,M,,*63
06/14/2015	02:01:34.632	$GPGGA,020135,2433.5927,N,08052.5348,W,1,10,1.7,20,M,,M,,*6A
06/14/2015	02:01:35.602	$GPGGA,020136,2433.5914,N,08052.5366,W,1,10,1.7,20,M,,M,,*65
06/14/2015	02:01:36.613	$GPGGA,020137,2433.5900,N,08052.5383,W,1,10,1.9,20,M,,M,,*64
06/14/2015	02:01:37.583	$GPGGA,020138,2433.5888,N,08052.5399,W,1,9,1.9,20,M,,M,,*59
06/14/2015	02:01:38.603	$GPGGA,020139,2433.5876,N,08052.5419,W,1,9,1.7,21,M,,M,,*59
06/14/2015	02:01:39.593	$GPGGA,020140,2433.5862,N,08052.5437,W,1,10,1.9,21,M,,M,,*68
06/14/2015	02:01:40.603	$GPGGA,020141,2433.5846,N,08052.5455,W,1,10,1.9,21,M,,M,,*6B
06/14/2015	02:01:41.503	$GPGGA,020142,2433.5831,N,08052.5474,W,1,9,1.9,21,M,,M,,*53
06/14/2015	02:01:42.593	$GPGGA,020143,2433.5818,N,08052.5495,W,1,9,1.7,21,M,,M,,*58
06/14/2015	02:01:43.603	$GPGGA,020144,2433.5804,N,08052.5513,W,1,10,1.7,21,M,,M,,*65
06/14/2015	02:01:44.603	$GPGGA,020145,2433.5789,N,08052.5529,W,1,10,1.9,21,M,,M,,*69
06/14/2015	02:01:45.593	$GPGGA,020146,2433.5775,N,08052.5547,W,1,9,1.7,21,M,,M,,*57
06/14/2015	02:01:46.513	$GPGGA,020147,2433.5762,N,08052.5564,W,1,9,1.9,21,M,,M,,*5F
06/14/2015	02:01:47.623	$GPGGA,020148,2433.5750,N,08052.5582,W,1,9,1.9,21,M,,M,,*59
06/14/2015	02:01:48.583	$GPGGA,020149,2433.5737,N,08052.5600,W,1,9,1.9,21,M,,M,,*50
06/14/2015	02:01:49.613	$GPGGA,020150,2433.5724,N,08052.5619,W,1,9,1.9,21,M,,M,,*52
06/14/2015	02:01:50.573	$GPGGA,020151,2433.5707,N,08052.5639,W,1,9,1.7,21,M,,M,,*5E
06/14/2015	02:01:51.603	$GPGGA,020152,2433.5693,N,08052.5658,W,1,10,1.7,21,M,,M,,*6E
06/14/2015	02:01:52.582	$GPGGA,020153,2433.5681,N,08052.5677,W,1,10,1.9,21,M,,M,,*6F
06/14/2015	02:01:53.642	$GPGGA,020154,2433.5665,N,08052.5697,W,1,9,1.9,21,M,,M,,*54
06/14/2015	02:01:54.568	$GPGGA,020155,2433.5652,N,08052.5715,W,1,9,1.7,21,M,,M,,*54
06/14/2015	02:01:55.613	$GPGGA,020156,2433.5638,N,08052.5734,W,1,10,1.7,21,M,,M,,*60
06/14/2015	02:01:56.573	$GPGGA,020157,2433.5623,N,08052.5753,W,1,10,1.7,21,M,,M,,*6A
06/14/2015	02:01:57.603	$GPGGA,020158,2433.5610,N,08052.5771,W,1,10,1.9,21,M,,M,,*6B
06/14/2015	02:01:58.563	$GPGGA,020159,2433.5598,N,08052.5791,W,1,10,1.9,21,M,,M,,*67
06/14/2015	02:01:59.613	$GPGGA,020200,2433.5584,N,08052.5809,W,1,9,1.7,21,M,,M,,*5D
06/14/2015	02:02:00.564	$GPGGA,020201,2433.5584,N,08052.5809,W,1,9,1.7,21,M,,M,,*5C
06/14/2015	02:02:01.583	$GPGGA,020202,2433.5569,N,08052.5827,W,1,10,1.7,21,M,,M,,*68
06/14/2015	02:02:02.573	$GPGGA,020203,2433.5541,N,08052.5867,W,1,10,1.7,21,M,,M,,*67
06/14/2015	02:02:03.653	$GPGGA,020204,2433.5526,N,08052.5886,W,1,10,1.7,21,M,,M,,*6E
06/14/2015	02:02:04.553	$GPGGA,020205,2433.5511,N,08052.5907,W,1,10,1.7,21,M,,M,,*63
06/14/2015	02:02:05.563	$GPGGA,020206,2433.5511,N,08052.5907,W,1,10,1.7,21,M,,M,,*60
06/14/2015	02:02:06.563	$GPGGA,020207,2433.5484,N,08052.5943,W,1,10,1.7,21,M,,M,,*6C
06/14/2015	02:02:07.623	$GPGGA,020208,2433.5471,N,08052.5961,W,1,10,1.7,21,M,,M,,*69
06/14/2015	02:02:08.544	$GPGGA,020209,2433.5459,N,08052.5977,W,1,10,1.9,21,M,,M,,*6B
06/14/2015	02:02:09.592	$GPGGA,020210,2433.5444,N,08052.5995,W,1,9,1.7,21,M,,M,,*55
06/14/2015	02:02:10.542	$GPGGA,020211,2433.5430,N,08052.6015,W,1,9,1.7,21,M,,M,,*55
06/14/2015	02:02:11.563	$GPGGA,020212,2433.5430,N,08052.6015,W,1,10,1.7,21,M,,M,,*6E
06/14/2015	02:02:12.543	$GPGGA,020213,2433.5416,N,08052.6035,W,1,10,1.7,21,M,,M,,*69
06/14/2015	02:02:13.566	$GPGGA,020214,2433.5403,N,08052.6053,W,1,9,1.9,21,M,,M,,*5C
06/14/2015	02:02:14.543	$GPGGA,020215,2433.5374,N,08052.6095,W,1,9,1.7,21,M,,M,,*5E
06/14/2015	02:02:15.583	$GPGGA,020216,2433.5359,N,08052.6113,W,1,10,1.7,21,M,,M,,*65
06/14/2015	02:02:16.556	$GPGGA,020217,2433.5345,N,08052.6132,W,1,10,1.7,21,M,,M,,*6A
06/14/2015	02:02:17.593	$GPGGA,020218,2433.5332,N,08052.6150,W,1,10,1.7,21,M,,M,,*61
06/14/2015	02:02:18.543	$GPGGA,020219,2433.5320,N,08052.6168,W,1,10,2.2,21,M,,M,,*6E
06/14/2015	02:02:19.603	$GPGGA,020220,2433.5305,N,08052.6185,W,1,9,1.9,21,M,,M,,*50
06/14/2015	02:02:20.523	$GPGGA,020221,2433.5305,N,08052.6185,W,1,9,1.9,21,M,,M,,*51
06/14/2015	02:02:21.543	$GPGGA,020222,2433.5291,N,08052.6203,W,1,9,1.9,21,M,,M,,*53
06/14/2015	02:02:22.603	$GPGGA,020223,2433.5263,N,08052.6241,W,1,9,1.7,21,M,,M,,*57
06/14/2015	02:02:23.633	$GPGGA,020224,2433.5247,N,08052.6261,W,1,10,1.7,21,M,,M,,*6C
06/14/2015	02:02:24.533	$GPGGA,020225,2433.5233,N,08052.6280,W,1,10,1.7,21,M,,M,,*61
06/14/2015	02:02:25.533	$GPGGA,020226,2433.5233,N,08052.6280,W,1,10,1.7,21,M,,M,,*62
06/14/2015	02:02:26.523	$GPGGA,020227,2433.5219,N,08052.6300,W,1,10,1.9,21,M,,M,,*6C
06/14/2015	02:02:27.542	$GPGGA,020228,2433.5193,N,08052.6337,W,1,9,2.2,21,M,,M,,*56
06/14/2015	02:02:28.513	$GPGGA,020229,2433.5180,N,08052.6355,W,1,9,1.7,21,M,,M,,*57
06/14/2015	02:02:29.513	$GPGGA,020230,2433.5180,N,08052.6355,W,1,10,1.7,21,M,,M,,*67
06/14/2015	02:02:30.594	$GPGGA,020231,2433.5155,N,08052.6391,W,1,10,1.7,21,M,,M,,*66
06/14/2015	02:02:31.513	$GPGGA,020232,2433.5155,N,08052.6391,W,1,10,1.7,21,M,,M,,*65
06/14/2015	02:02:32.503	$GPGGA,020233,2433.5127,N,08052.6430,W,1,10,1.7,21,M,,M,,*6D
06/14/2015	02:02:33.513	$GPGGA,020234,2433.5127,N,08052.6430,W,1,10,1.7,21,M,,M,,*6A
06/14/2015	02:02:34.583	$GPGGA,020235,2433.5098,N,08052.6470,W,1,10,1.9,21,M,,M,,*64
06/14/2015	02:02:35.603	$GPGGA,020236,2433.5082,N,08052.6488,W,1,9,1.9,21,M,,M,,*53
06/14/2015	02:02:36.593	$GPGGA,020237,2433.5067,N,08052.6507,W,1,9,1.7,21,M,,M,,*51
06/14/2015	02:02:37.583	$GPGGA,020238,2433.5054,N,08052.6526,W,1,10,1.7,21,M,,M,,*65
06/14/2015	02:02:38.573	$GPGGA,020239,2433.5042,N,08052.6546,W,1,10,1.7,21,M,,M,,*65
06/14/2015	02:02:39.603	$GPGGA,020240,2433.5027,N,08052.6562,W,1,10,1.7,22,M,,M,,*6D
06/14/2015	02:02:40.583	$GPGGA,020241,2433.5014,N,08052.6580,W,1,10,1.7,22,M,,M,,*60
06/14/2015	02:02:41.565	$GPGGA,020242,2433.5003,N,08052.6598,W,1,9,1.9,22,M,,M,,*5A
06/14/2015	02:02:42.573	$GPGGA,020243,2433.4991,N,08052.6616,W,1,9,1.7,22,M,,M,,*53
06/14/2015	02:02:43.603	$GPGGA,020244,2433.4975,N,08052.6636,W,1,10,1.7,22,M,,M,,*64
06/14/2015	02:02:44.563	$GPGGA,020245,2433.4962,N,08052.6654,W,1,10,1.7,22,M,,M,,*67
06/14/2015	02:02:45.592	$GPGGA,020246,2433.4948,N,08052.6673,W,1,9,1.9,22,M,,M,,*5F
06/14/2015	02:02:46.557	$GPGGA,020247,2433.4932,N,08052.6694,W,1,9,1.9,22,M,,M,,*5A
06/14/2015	02:02:47.603	$GPGGA,020248,2433.4917,N,08052.6712,W,1,10,1.7,22,M,,M,,*6B
06/14/2015	02:02:48.566	$GPGGA,020249,2433.4902,N,08052.6730,W,1,10,1.7,22,M,,M,,*6E
06/14/2015	02:02:49.583	$GPGGA,020250,2433.4890,N,08052.6749,W,1,10,1.7,22,M,,M,,*62
06/14/2015	02:02:50.553	$GPGGA,020251,2433.4876,N,08052.6767,W,1,10,1.7,22,M,,M,,*67
06/14/2015	02:02:51.583	$GPGGA,020252,2433.4862,N,08052.6783,W,1,9,1.9,22,M,,M,,*5D
06/14/2015	02:02:52.555	$GPGGA,020253,2433.4850,N,08052.6803,W,1,9,1.9,22,M,,M,,*5A
06/14/2015	02:02:53.573	$GPGGA,020254,2433.4836,N,08052.6824,W,1,9,1.9,22,M,,M,,*58
06/14/2015	02:02:54.543	$GPGGA,020255,2433.4819,N,08052.6842,W,1,9,1.7,21,M,,M,,*59
06/14/2015	02:02:55.593	$GPGGA,020256,2433.4804,N,08052.6862,W,1,10,1.7,21,M,,M,,*6C
06/14/2015	02:02:56.533	$GPGGA,020257,2433.4790,N,08052.6882,W,1,10,1.7,21,M,,M,,*61
06/14/2015	02:02:57.583	$GPGGA,020258,2433.4776,N,08052.6900,W,1,10,1.7,21,M,,M,,*6D
06/14/2015	02:02:58.543	$GPGGA,020259,2433.4762,N,08052.6918,W,1,10,1.7,21,M,,M,,*60
06/14/2015	02:02:59.623	$GPGGA,020300,2433.4749,N,08052.6936,W,1,10,1.7,21,M,,M,,*68
06/14/2015	02:03:00.543	$GPGGA,020301,2433.4735,N,08052.6955,W,1,10,1.7,21,M,,M,,*67
06/14/2015	02:03:01.563	$GPGGA,020302,2433.4722,N,08052.6973,W,1,10,1.7,21,M,,M,,*66
06/14/2015	02:03:02.542	$GPGGA,020303,2433.4709,N,08052.6991,W,1,10,1.9,21,M,,M,,*6C
06/14/2015	02:03:03.652	$GPGGA,020304,2433.4695,N,08052.7010,W,1,10,1.7,21,M,,M,,*60
06/14/2015	02:03:04.511	$GPGGA,020305,2433.4681,N,08052.7030,W,1,10,1.7,21,M,,M,,*66
06/14/2015	02:03:05.521	$GPGGA,020306,2433.4666,N,08052.7048,W,1,10,1.7,21,M,,M,,*63
06/14/2015	02:03:06.501	$GPGGA,020307,2433.4650,N,08052.7068,W,1,10,1.7,21,M,,M,,*65
06/14/2015	02:03:07.550	$GPGGA,020308,2433.4637,N,08052.7088,W,1,10,1.7,21,M,,M,,*65
06/14/2015	02:03:08.511	$GPGGA,020309,2433.4624,N,08052.7108,W,1,10,1.9,21,M,,M,,*61
06/14/2015	02:03:09.631	$GPGGA,020310,2433.4609,N,08052.7126,W,1,10,1.7,21,M,,M,,*64
06/14/2015	02:03:10.531	$GPGGA,020311,2433.4596,N,08052.7144,W,1,10,1.7,21,M,,M,,*64
06/14/2015	02:03:11.521	$GPGGA,020312,2433.4583,N,08052.7162,W,1,10,1.7,21,M,,M,,*67
06/14/2015	02:03:12.601	$GPGGA,020313,2433.4570,N,08052.7179,W,1,10,1.9,21,M,,M,,*6E
06/14/2015	02:03:13.511	$GPGGA,020314,2433.4559,N,08052.7200,W,1,9,2.2,21,M,,M,,*5F
06/14/2015	02:03:14.481	$GPGGA,020315,2433.4547,N,08052.7220,W,1,9,1.7,21,M,,M,,*55
06/14/2015	02:03:15.601	$GPGGA,020316,2433.4533,N,08052.7240,W,1,10,1.7,21,M,,M,,*6B
06/14/2015	02:03:16.501	$GPGGA,020317,2433.4519,N,08052.7261,W,1,10,1.9,21,M,,M,,*6F
06/14/2015	02:03:17.501	$GPGGA,020318,2433.4507,N,08052.7280,W,1,9,1.9,21,M,,M,,*58
06/14/2015	02:03:18.581	$GPGGA,020319,2433.4491,N,08052.7299,W,1,9,1.9,21,M,,M,,*5F
06/14/2015	02:03:19.500	$GPGGA,020320,2433.4476,N,08052.7319,W,1,10,1.7,21,M,,M,,*63
06/14/2015	02:03:20.590	$GPGGA,020321,2433.4462,N,08052.7337,W,1,10,1.7,21,M,,M,,*6B
06/14/2015	02:03:21.570	$GPGGA,020322,2433.4449,N,08052.7355,W,1,10,1.7,21,M,,M,,*65
06/14/2015	02:03:22.591	$GPGGA,020323,2433.4437,N,08052.7374,W,1,10,1.7,21,M,,M,,*6E
06/14/2015	02:03:23.861	$GPGGA,020324,2433.4425,N,08052.7395,W,1,8,3.0,21,M,,M,,*59
06/14/2015	02:03:24.571	$GPGGA,020325,2433.4411,N,08052.7413,W,1,8,1.7,21,M,,M,,*53
06/14/2015	02:03:25.591	$GPGGA,020326,2433.4399,N,08052.7433,W,1,10,1.7,21,M,,M,,*6C
06/14/2015	02:03:26.571	$GPGGA,020327,2433.4385,N,08052.7453,W,1,10,1.9,21,M,,M,,*68
06/14/2015	02:03:27.611	$GPGGA,020328,2433.4370,N,08052.7471,W,1,9,1.9,21,M,,M,,*55
06/14/2015	02:03:28.561	$GPGGA,020329,2433.4355,N,08052.7491,W,1,9,1.9,21,M,,M,,*5D
06/14/2015	02:03:29.581	$GPGGA,020330,2433.4341,N,08052.7509,W,1,10,1.7,21,M,,M,,*66
06/14/2015	02:03:30.564	$GPGGA,020331,2433.4327,N,08052.7527,W,1,10,1.7,21,M,,M,,*6B
06/14/2015	02:03:31.581	$GPGGA,020332,2433.4313,N,08052.7543,W,1,10,1.7,21,M,,M,,*6D
06/14/2015	02:03:32.561	$GPGGA,020333,2433.4301,N,08052.7561,W,1,10,1.7,21,M,,M,,*6F
06/14/2015	02:03:33.571	$GPGGA,020334,2433.4287,N,08052.7579,W,1,10,1.7,21,M,,M,,*6E
06/14/2015	02:03:34.553	$GPGGA,020335,2433.4273,N,08052.7597,W,1,10,1.7,21,M,,M,,*64
06/14/2015	02:03:35.581	$GPGGA,020336,2433.4258,N,08052.7616,W,1,10,1.7,21,M,,M,,*64
06/14/2015	02:03:36.554	$GPGGA,020337,2433.4244,N,08052.7635,W,1,10,1.7,21,M,,M,,*69
06/14/2015	02:03:37.545	$GPGGA,020338,2433.4229,N,08052.7655,W,1,10,1.7,21,M,,M,,*6B
06/14/2015	02:03:38.544	$GPGGA,020339,2433.4215,N,08052.7674,W,1,10,1.7,21,M,,M,,*66
06/14/2015	02:03:39.581	$GPGGA,020340,2433.4202,N,08052.7693,W,1,10,1.7,21,M,,M,,*67
06/14/2015	02:03:40.547	$GPGGA,020341,2433.4189,N,08052.7711,W,1,10,1.7,21,M,,M,,*6D
06/14/2015	02:03:41.531	$GPGGA,020342,2433.4175,N,08052.7729,W,1,10,1.7,21,M,,M,,*66
06/14/2015	02:03:42.541	$GPGGA,020343,2433.4164,N,08052.7749,W,1,10,1.7,21,M,,M,,*61
06/14/2015	02:03:43.571	$GPGGA,020344,2433.4150,N,08052.7767,W,1,10,1.7,21,M,,M,,*6D
06/14/2015	02:03:44.521	$GPGGA,020345,2433.4135,N,08052.7785,W,1,10,1.9,21,M,,M,,*6D
06/14/2015	02:03:45.521	$GPGGA,020346,2433.4122,N,08052.7805,W,1,10,1.7,21,M,,M,,*61
06/14/2015	02:03:46.543	$GPGGA,020347,2433.4108,N,08052.7826,W,1,10,1.7,21,M,,M,,*69
06/14/2015	02:03:47.541	$GPGGA,020348,2433.4095,N,08052.7847,W,1,10,1.7,21,M,,M,,*64
06/14/2015	02:03:48.521	$GPGGA,020349,2433.4081,N,08052.7865,W,1,10,1.7,21,M,,M,,*60
06/14/2015	02:03:49.521	$GPGGA,020350,2433.4067,N,08052.7883,W,1,10,1.7,21,M,,M,,*68
06/14/2015	02:03:50.549	$GPGGA,020351,2433.4055,N,08052.7905,W,1,10,1.7,21,M,,M,,*67
06/14/2015	02:03:51.649	$GPGGA,020352,2433.4042,N,08052.7924,W,1,10,1.7,21,M,,M,,*61
06/14/2015	02:03:52.531	$GPGGA,020353,2433.4028,N,08052.7944,W,1,10,1.7,22,M,,M,,*69
06/14/2015	02:03:53.545	$GPGGA,020354,2433.4016,N,08052.7962,W,1,10,1.7,22,M,,M,,*67
06/14/2015	02:03:54.500	$GPGGA,020355,2433.4001,N,08052.7982,W,1,10,1.9,22,M,,M,,*60
06/14/2015	02:03:55.520	$GPGGA,020356,2433.3985,N,08052.8000,W,1,10,1.7,22,M,,M,,*63
06/14/2015	02:03:56.520	$GPGGA,020357,2433.3970,N,08052.8020,W,1,10,1.7,22,M,,M,,*6A
06/14/2015	02:03:57.511	$GPGGA,020358,2433.3955,N,08052.8038,W,1,10,1.7,22,M,,M,,*6B
06/14/2015	02:03:58.591	$GPGGA,020359,2433.3940,N,08052.8056,W,1,10,1.7,22,M,,M,,*66
06/14/2015	02:03:59.531	$GPGGA,020400,2433.3925,N,08052.8076,W,1,10,1.7,22,M,,M,,*6C
06/14/2015	02:04:00.491	$GPGGA,020401,2433.3911,N,08052.8096,W,1,10,1.7,22,M,,M,,*64
06/14/2015	02:04:01.491	$GPGGA,020402,2433.3897,N,08052.8114,W,1,10,1.7,22,M,,M,,*63
06/14/2015	02:04:02.501	$GPGGA,020403,2433.3885,N,08052.8132,W,1,10,1.7,23,M,,M,,*64
06/14/2015	02:04:03.511	$GPGGA,020404,2433.3873,N,08052.8150,W,1,9,1.9,23,M,,M,,*58
06/14/2015	02:04:04.491	$GPGGA,020405,2433.3860,N,08052.8168,W,1,9,1.7,23,M,,M,,*5E
06/14/2015	02:04:05.491	$GPGGA,020406,2433.3846,N,08052.8186,W,1,10,1.7,23,M,,M,,*61
06/14/2015	02:04:06.501	$GPGGA,020407,2433.3833,N,08052.8204,W,1,10,1.7,23,M,,M,,*6B
06/14/2015	02:04:07.621	$GPGGA,020408,2433.3818,N,08052.8224,W,1,9,1.9,23,M,,M,,*59
06/14/2015	02:04:08.571	$GPGGA,020409,2433.3804,N,08052.8244,W,1,9,1.7,23,M,,M,,*5D
06/14/2015	02:04:09.571	$GPGGA,020410,2433.3789,N,08052.8262,W,1,9,1.9,23,M,,M,,*55
06/14/2015	02:04:10.571	$GPGGA,020411,2433.3777,N,08052.8280,W,1,9,1.7,23,M,,M,,*57
06/14/2015	02:04:11.620	$GPGGA,020412,2433.3763,N,08052.8298,W,1,10,1.7,23,M,,M,,*60
06/14/2015	02:04:12.580	$GPGGA,020413,2433.3749,N,08052.8316,W,1,10,1.7,23,M,,M,,*6E
06/14/2015	02:04:13.580	$GPGGA,020414,2433.3734,N,08052.8334,W,1,9,1.9,23,M,,M,,*55
06/14/2015	02:04:14.571	$GPGGA,020415,2433.3720,N,08052.8352,W,1,9,1.7,23,M,,M,,*5F
06/14/2015	02:04:15.611	$GPGGA,020416,2433.3705,N,08052.8370,W,1,10,1.7,23,M,,M,,*63
06/14/2015	02:04:16.571	$GPGGA,020417,2433.3691,N,08052.8387,W,1,10,1.7,23,M,,M,,*66
06/14/2015	02:04:17.581	$GPGGA,020418,2433.3676,N,08052.8405,W,1,10,1.7,23,M,,M,,*6D
06/14/2015	02:04:18.554	$GPGGA,020419,2433.3666,N,08052.8426,W,1,10,2.2,23,M,,M,,*6A
06/14/2015	02:04:19.561	$GPGGA,020420,2433.3653,N,08052.8444,W,1,10,1.7,23,M,,M,,*64
06/14/2015	02:04:20.561	$GPGGA,020421,2433.3640,N,08052.8461,W,1,10,1.7,23,M,,M,,*60
06/14/2015	02:04:21.581	$GPGGA,020422,2433.3627,N,08052.8479,W,1,10,1.7,23,M,,M,,*6B
06/14/2015	02:04:22.553	$GPGGA,020423,2433.3615,N,08052.8495,W,1,10,1.7,23,M,,M,,*69
06/14/2015	02:04:23.591	$GPGGA,020424,2433.3602,N,08052.8512,W,1,10,1.7,23,M,,M,,*66
06/14/2015	02:04:24.543	$GPGGA,020425,2433.3588,N,08052.8529,W,1,10,1.7,23,M,,M,,*6E
06/14/2015	02:04:25.571	$GPGGA,020426,2433.3576,N,08052.8544,W,1,10,1.7,22,M,,M,,*66
06/14/2015	02:04:26.541	$GPGGA,020427,2433.3564,N,08052.8562,W,1,10,1.7,22,M,,M,,*60
06/14/2015	02:04:27.571	$GPGGA,020428,2433.3553,N,08052.8577,W,1,10,1.7,22,M,,M,,*6F
06/14/2015	02:04:28.542	$GPGGA,020429,2433.3539,N,08052.8591,W,1,10,1.7,22,M,,M,,*6A
06/14/2015	02:04:29.570	$GPGGA,020430,2433.3528,N,08052.8605,W,1,10,1.7,22,M,,M,,*6C
06/14/2015	02:04:30.545	$GPGGA,020431,2433.3517,N,08052.8620,W,1,10,1.7,22,M,,M,,*66
06/14/2015	02:04:31.581	$GPGGA,020432,2433.3506,N,08052.8632,W,1,10,1.7,22,M,,M,,*66
06/14/2015	02:04:32.541	$GPGGA,020433,2433.3495,N,08052.8646,W,1,10,1.7,22,M,,M,,*6F
06/14/2015	02:04:33.521	$GPGGA,020434,2433.3486,N,08052.8661,W,1,10,1.7,22,M,,M,,*6F
06/14/2015	02:04:34.531	$GPGGA,020435,2433.3475,N,08052.8674,W,1,10,1.7,22,M,,M,,*66
06/14/2015	02:04:35.556	$GPGGA,020436,2433.3464,N,08052.8686,W,1,9,1.9,22,M,,M,,*5E
06/14/2015	02:04:36.511	$GPGGA,020437,2433.3456,N,08052.8700,W,1,9,1.7,22,M,,M,,*5F
06/14/2015	02:04:37.611	$GPGGA,020438,2433.3446,N,08052.8711,W,1,10,1.7,22,M,,M,,*69
06/14/2015	02:04:38.531	$GPGGA,020439,2433.3438,N,08052.8723,W,1,10,1.7,22,M,,M,,*60
06/14/2015	02:04:39.521	$GPGGA,020440,2433.3430,N,08052.8736,W,1,10,1.7,22,M,,M,,*62
06/14/2015	02:04:40.621	$GPGGA,020441,2433.3427,N,08052.8753,W,1,10,3.0,22,M,,M,,*63
06/14/2015	02:04:41.521	$GPGGA,020442,2433.3416,N,08052.8764,W,1,9,1.9,22,M,,M,,*55
06/14/2015	02:04:42.521	$GPGGA,020443,2433.3409,N,08052.8775,W,1,9,1.7,21,M,,M,,*57
06/14/2015	02:04:43.531	$GPGGA,020444,2433.3401,N,08052.8787,W,1,10,1.7,21,M,,M,,*6D
06/14/2015	02:04:44.591	$GPGGA,020445,2433.3392,N,08052.8797,W,1,10,2.2,21,M,,M,,*66
06/14/2015	02:04:45.631	$GPGGA,020446,2433.3384,N,08052.8806,W,1,10,1.7,21,M,,M,,*63
06/14/2015	02:04:46.511	$GPGGA,020447,2433.3377,N,08052.8815,W,1,10,1.7,21,M,,M,,*6C
06/14/2015	02:04:47.500	$GPGGA,020448,2433.3369,N,08052.8826,W,1,10,1.7,21,M,,M,,*6C
06/14/2015	02:04:48.600	$GPGGA,020449,2433.3360,N,08052.8837,W,1,10,1.7,21,M,,M,,*64
06/14/2015	02:04:49.591	$GPGGA,020450,2433.3353,N,08052.8848,W,1,10,1.7,21,M,,M,,*64
06/14/2015	02:04:50.581	$GPGGA,020451,2433.3345,N,08052.8860,W,1,10,1.7,21,M,,M,,*68
06/14/2015	02:04:51.621	$GPGGA,020452,2433.3338,N,08052.8870,W,1,9,1.9,21,M,,M,,*56
06/14/2015	02:04:52.591	$GPGGA,020453,2433.3333,N,08052.8880,W,1,9,1.7,21,M,,M,,*5D
06/14/2015	02:04:53.581	$GPGGA,020454,2433.3326,N,08052.8889,W,1,10,1.7,21,M,,M,,*6F
06/14/2015	02:04:54.591	$GPGGA,020455,2433.3319,N,08052.8900,W,1,10,1.7,21,M,,M,,*62
06/14/2015	02:04:55.591	$GPGGA,020456,2433.3311,N,08052.8910,W,1,10,1.7,21,M,,M,,*68
06/14/2015	02:04:56.581	$GPGGA,020457,2433.3304,N,08052.8920,W,1,10,1.7,21,M,,M,,*6E
06/14/2015	02:04:57.601	$GPGGA,020458,2433.3297,N,08052.8931,W,1,10,1.7,22,M,,M,,*69
06/14/2015	02:04:58.571	$GPGGA,020459,2433.3293,N,08052.8941,W,1,10,1.7,22,M,,M,,*6B
06/14/2015	02:04:59.611	$GPGGA,020500,2433.3286,N,08052.8950,W,1,10,1.7,22,M,,M,,*62
06/14/2015	02:05:00.571	$GPGGA,020501,2433.3279,N,08052.8960,W,1,10,1.7,22,M,,M,,*60
06/14/2015	02:05:01.571	$GPGGA,020502,2433.3273,N,08052.8968,W,1,10,1.7,22,M,,M,,*61
06/14/2015	02:05:02.571	$GPGGA,020503,2433.3268,N,08052.8978,W,1,10,1.7,22,M,,M,,*6B
06/14/2015	02:05:03.621	$GPGGA,020504,2433.3262,N,08052.8989,W,1,10,1.7,22,M,,M,,*68
06/14/2015	02:05:04.570	$GPGGA,020505,2433.3255,N,08052.8999,W,1,10,1.7,22,M,,M,,*6C
06/14/2015	02:05:05.570	$GPGGA,020506,2433.3250,N,08052.9010,W,1,10,1.7,22,M,,M,,*63
06/14/2015	02:05:06.561	$GPGGA,020507,2433.3246,N,08052.9021,W,1,10,1.7,22,M,,M,,*67
06/14/2015	02:05:07.591	$GPGGA,020508,2433.3239,N,08052.9029,W,1,10,1.7,22,M,,M,,*68
06/14/2015	02:05:08.561	$GPGGA,020509,2433.3233,N,08052.9039,W,1,10,1.7,22,M,,M,,*62
06/14/2015	02:05:09.561	$GPGGA,020510,2433.3229,N,08052.9047,W,1,9,1.8,23,M,,M,,*5E
06/14/2015	02:05:10.554	$GPGGA,020511,2433.3226,N,08052.9057,W,1,9,1.8,23,M,,M,,*51
06/14/2015	02:05:11.581	$GPGGA,020512,2433.3222,N,08052.9068,W,1,10,1.7,23,M,,M,,*6D
06/14/2015	02:05:12.551	$GPGGA,020513,2433.3217,N,08052.9079,W,1,10,1.7,23,M,,M,,*6A
06/14/2015	02:05:13.561	$GPGGA,020514,2433.3212,N,08052.9090,W,1,10,1.7,23,M,,M,,*6F
06/14/2015	02:05:14.541	$GPGGA,020515,2433.3207,N,08052.9098,W,1,10,1.7,23,M,,M,,*62
06/14/2015	02:05:15.581	$GPGGA,020516,2433.3203,N,08052.9108,W,1,10,1.7,23,M,,M,,*6D
06/14/2015	02:05:16.554	$GPGGA,020517,2433.3199,N,08052.9116,W,1,10,1.7,23,M,,M,,*63
06/14/2015	02:05:17.531	$GPGGA,020518,2433.3193,N,08052.9126,W,1,10,1.7,23,M,,M,,*65
06/14/2015	02:05:19.175	$GPGGA,020519,2433.3187,N,08052.9136,W,1,10,1.7,23,M,,M,,*60
06/14/2015	02:05:19.551	$GPGGA,020520,2433.3182,N,08052.9145,W,1,10,1.7,23,M,,M,,*6B
06/14/2015	02:05:20.531	$GPGGA,020521,2433.3176,N,08052.9155,W,1,10,1.7,23,M,,M,,*60
06/14/2015	02:05:21.560	$GPGGA,020522,2433.3170,N,08052.9165,W,1,10,1.7,24,M,,M,,*61
06/14/2015	02:05:22.541	$GPGGA,020523,2433.3165,N,08052.9173,W,1,10,1.7,24,M,,M,,*63
06/14/2015	02:05:23.547	$GPGGA,020524,2433.3160,N,08052.9181,W,1,10,1.7,24,M,,M,,*6C
06/14/2015	02:05:24.521	$GPGGA,020525,2433.3154,N,08052.9189,W,1,10,1.7,24,M,,M,,*62
06/14/2015	02:05:25.645	$GPGGA,020526,2433.3148,N,08052.9199,W,1,10,1.7,24,M,,M,,*6D
06/14/2015	02:05:26.631	$GPGGA,020527,2433.3142,N,08052.9209,W,1,10,1.7,24,M,,M,,*6C
06/14/2015	02:05:27.571	$GPGGA,020528,2433.3136,N,08052.9217,W,1,10,1.7,24,M,,M,,*6F
06/14/2015	02:05:28.522	$GPGGA,020529,2433.3131,N,08052.9227,W,1,10,1.7,24,M,,M,,*6A
06/14/2015	02:05:30.551	$GPGGA,020531,2433.3120,N,08052.9243,W,1,9,1.7,24,M,,M,,*59
06/14/2015	02:05:31.541	$GPGGA,020532,2433.3113,N,08052.9252,W,1,10,1.7,24,M,,M,,*62
06/14/2015	02:05:32.511	$GPGGA,020533,2433.3109,N,08052.9263,W,1,10,1.7,24,M,,M,,*6A
06/14/2015	02:05:33.512	$GPGGA,020534,2433.3103,N,08052.9271,W,1,9,2.0,23,M,,M,,*5F
06/14/2015	02:05:34.611	$GPGGA,020535,2433.3095,N,08052.9279,W,1,9,1.7,23,M,,M,,*5C
06/14/2015	02:05:35.511	$GPGGA,020536,2433.3089,N,08052.9288,W,1,10,1.7,23,M,,M,,*64
06/14/2015	02:05:36.591	$GPGGA,020537,2433.3083,N,08052.9297,W,1,10,1.7,23,M,,M,,*61
06/14/2015	02:05:37.621	$GPGGA,020538,2433.3076,N,08052.9306,W,1,10,1.7,23,M,,M,,*6D
06/14/2015	02:05:38.591	$GPGGA,020539,2433.3070,N,08052.9314,W,1,10,1.7,23,M,,M,,*69
06/14/2015	02:05:39.630	$GPGGA,020540,2433.3064,N,08052.9321,W,1,10,1.7,23,M,,M,,*64
06/14/2015	02:05:40.490	$GPGGA,020541,2433.3058,N,08052.9328,W,1,10,1.7,23,M,,M,,*63
06/14/2015	02:05:41.591	$GPGGA,020542,2433.3052,N,08052.9339,W,1,10,1.7,23,M,,M,,*6A
06/14/2015	02:05:42.591	$GPGGA,020543,2433.3046,N,08052.9347,W,1,10,1.7,23,M,,M,,*67
06/14/2015	02:05:43.661	$GPGGA,020544,2433.3040,N,08052.9355,W,1,10,1.7,23,M,,M,,*65
06/14/2015	02:05:44.581	$GPGGA,020545,2433.3033,N,08052.9362,W,1,10,1.7,23,M,,M,,*64
06/14/2015	02:05:45.581	$GPGGA,020546,2433.3029,N,08052.9371,W,1,10,2.0,23,M,,M,,*6A
06/14/2015	02:05:46.571	$GPGGA,020547,2433.3023,N,08052.9378,W,1,10,2.0,23,M,,M,,*68
06/14/2015	02:05:47.611	$GPGGA,020548,2433.3017,N,08052.9384,W,1,9,1.7,23,M,,M,,*5F
06/14/2015	02:05:48.591	$GPGGA,020549,2433.3011,N,08052.9393,W,1,9,2.0,23,M,,M,,*5A
06/14/2015	02:05:49.581	$GPGGA,020550,2433.3005,N,08052.9404,W,1,8,1.7,23,M,,M,,*5B
06/14/2015	02:05:50.571	$GPGGA,020551,2433.2999,N,08052.9412,W,1,8,1.7,23,M,,M,,*50
06/14/2015	02:05:51.591	$GPGGA,020552,2433.2994,N,08052.9420,W,1,10,1.7,23,M,,M,,*66
06/14/2015	02:05:52.571	$GPGGA,020553,2433.2990,N,08052.9429,W,1,10,1.7,23,M,,M,,*6A
06/14/2015	02:05:53.561	$GPGGA,020554,2433.2986,N,08052.9436,W,1,10,2.0,23,M,,M,,*60
06/14/2015	02:05:54.554	$GPGGA,020555,2433.2980,N,08052.9447,W,1,10,1.7,23,M,,M,,*65
06/14/2015	02:05:55.591	$GPGGA,020556,2433.2975,N,08052.9455,W,1,10,2.0,23,M,,M,,*6B
06/14/2015	02:05:56.553	$GPGGA,020557,2433.2968,N,08052.9465,W,1,10,1.7,23,M,,M,,*61
06/14/2015	02:05:57.553	$GPGGA,020558,2433.2964,N,08052.9473,W,1,10,1.7,23,M,,M,,*65
06/14/2015	02:05:58.551	$GPGGA,020559,2433.2961,N,08052.9481,W,1,10,1.7,23,M,,M,,*6C
06/14/2015	02:05:59.591	$GPGGA,020600,2433.2955,N,08052.9487,W,1,10,1.7,23,M,,M,,*62
06/14/2015	02:06:00.544	$GPGGA,020601,2433.2950,N,08052.9496,W,1,10,1.7,22,M,,M,,*67
06/14/2015	02:06:01.571	$GPGGA,020602,2433.2944,N,08052.9505,W,1,10,1.7,22,M,,M,,*6A
06/14/2015	02:06:02.547	$GPGGA,020603,2433.2939,N,08052.9514,W,1,10,2.0,22,M,,M,,*65
06/14/2015	02:06:03.581	$GPGGA,020604,2433.2934,N,08052.9521,W,1,9,1.7,22,M,,M,,*55
06/14/2015	02:06:04.562	$GPGGA,020605,2433.2929,N,08052.9530,W,1,9,1.7,22,M,,M,,*58
06/14/2015	02:06:05.531	$GPGGA,020606,2433.2925,N,08052.9538,W,1,10,2.0,22,M,,M,,*63
06/14/2015	02:06:06.549	$GPGGA,020607,2433.2919,N,08052.9546,W,1,10,1.7,22,M,,M,,*60
06/14/2015	02:06:07.581	$GPGGA,020608,2433.2911,N,08052.9553,W,1,10,1.7,22,M,,M,,*63
06/14/2015	02:06:08.521	$GPGGA,020609,2433.2906,N,08052.9561,W,1,10,1.7,22,M,,M,,*65
06/14/2015	02:06:09.521	$GPGGA,020610,2433.2901,N,08052.9572,W,1,10,1.7,22,M,,M,,*68
06/14/2015	02:06:10.543	$GPGGA,020611,2433.2896,N,08052.9581,W,1,10,1.7,22,M,,M,,*6A
06/14/2015	02:06:11.642	$GPGGA,020612,2433.2889,N,08052.9588,W,1,10,1.7,22,M,,M,,*6E
06/14/2015	02:06:12.511	$GPGGA,020613,2433.2885,N,08052.9595,W,1,10,1.7,22,M,,M,,*6F
06/14/2015	02:06:13.555	$GPGGA,020614,2433.2881,N,08052.9604,W,1,10,1.8,22,M,,M,,*68
06/14/2015	02:06:14.544	$GPGGA,020615,2433.2876,N,08052.9613,W,1,10,1.7,22,M,,M,,*68
06/14/2015	02:06:15.660	$GPGGA,020616,2433.2871,N,08052.9621,W,1,10,1.7,22,M,,M,,*6D
06/14/2015	02:06:16.545	$GPGGA,020617,2433.2865,N,08052.9629,W,1,10,2.0,22,M,,M,,*65
06/14/2015	02:06:17.601	$GPGGA,020618,2433.2860,N,08052.9639,W,1,9,1.7,22,M,,M,,*52
06/14/2015	02:06:18.501	$GPGGA,020619,2433.2857,N,08052.9647,W,1,9,1.7,22,M,,M,,*5E
06/14/2015	02:06:19.547	$GPGGA,020620,2433.2852,N,08052.9655,W,1,10,1.7,22,M,,M,,*6A
06/14/2015	02:06:20.511	$GPGGA,020621,2433.2847,N,08052.9661,W,1,10,1.7,22,M,,M,,*68
06/14/2015	02:06:21.601	$GPGGA,020622,2433.2843,N,08052.9671,W,1,10,1.7,22,M,,M,,*6E
06/14/2015	02:06:22.531	$GPGGA,020623,2433.2839,N,08052.9679,W,1,10,1.7,22,M,,M,,*6A
06/14/2015	02:06:23.601	$GPGGA,020624,2433.2833,N,08052.9689,W,1,10,1.7,22,M,,M,,*68
06/14/2015	02:06:24.501	$GPGGA,020625,2433.2828,N,08052.9697,W,1,10,1.8,22,M,,M,,*63
06/14/2015	02:06:25.591	$GPGGA,020626,2433.2824,N,08052.9705,W,1,9,1.7,22,M,,M,,*51
06/14/2015	02:06:26.591	$GPGGA,020627,2433.2820,N,08052.9714,W,1,9,1.7,22,M,,M,,*54
06/14/2015	02:06:27.611	$GPGGA,020628,2433.2814,N,08052.9719,W,1,10,1.7,22,M,,M,,*69
06/14/2015	02:06:28.501	$GPGGA,020629,2433.2810,N,08052.9727,W,1,10,1.8,22,M,,M,,*6E
06/14/2015	02:06:29.591	$GPGGA,020630,2433.2806,N,08052.9737,W,1,9,1.8,22,M,,M,,*58
06/14/2015	02:06:30.581	$GPGGA,020631,2433.2802,N,08052.9747,W,1,9,1.7,22,M,,M,,*55
06/14/2015	02:06:31.590	$GPGGA,020632,2433.2795,N,08052.9754,W,1,10,1.7,22,M,,M,,*6D
06/14/2015	02:06:32.580	$GPGGA,020633,2433.2791,N,08052.9763,W,1,10,1.7,22,M,,M,,*6C
06/14/2015	02:06:33.620	$GPGGA,020634,2433.2787,N,08052.9770,W,1,10,1.7,22,M,,M,,*6E
06/14/2015	02:06:34.581	$GPGGA,020635,2433.2784,N,08052.9779,W,1,10,1.7,22,M,,M,,*65
06/14/2015	02:06:35.611	$GPGGA,020636,2433.2778,N,08052.9787,W,1,10,1.7,22,M,,M,,*64
06/14/2015	02:06:36.571	$GPGGA,020637,2433.2773,N,08052.9795,W,1,10,1.7,22,M,,M,,*6D
06/14/2015	02:06:37.581	$GPGGA,020638,2433.2768,N,08052.9805,W,1,10,1.7,22,M,,M,,*6E
06/14/2015	02:06:38.571	$GPGGA,020639,2433.2763,N,08052.9814,W,1,10,1.7,22,M,,M,,*64
06/14/2015	02:06:39.601	$GPGGA,020640,2433.2759,N,08052.9823,W,1,10,1.7,22,M,,M,,*67
06/14/2015	02:06:40.561	$GPGGA,020641,2433.2755,N,08052.9830,W,1,10,1.7,22,M,,M,,*68
06/14/2015	02:06:41.571	$GPGGA,020642,2433.2751,N,08052.9837,W,1,10,1.7,22,M,,M,,*68
06/14/2015	02:06:42.556	$GPGGA,020643,2433.2745,N,08052.9846,W,1,10,1.7,22,M,,M,,*6A
06/14/2015	02:06:43.581	$GPGGA,020644,2433.2740,N,08052.9856,W,1,10,1.7,22,M,,M,,*69
06/14/2015	02:06:44.561	$GPGGA,020645,2433.2734,N,08052.9866,W,1,10,1.7,22,M,,M,,*68
06/14/2015	02:06:45.544	$GPGGA,020646,2433.2728,N,08052.9875,W,1,10,1.7,22,M,,M,,*64
06/14/2015	02:06:46.556	$GPGGA,020647,2433.2726,N,08052.9884,W,1,10,1.7,22,M,,M,,*65
06/14/2015	02:06:47.571	$GPGGA,020648,2433.2721,N,08052.9892,W,1,10,1.7,22,M,,M,,*6A
06/14/2015	02:06:48.552	$GPGGA,020649,2433.2716,N,08052.9899,W,1,10,1.7,22,M,,M,,*64
06/14/2015	02:06:49.540	$GPGGA,020650,2433.2710,N,08052.9908,W,1,10,1.7,22,M,,M,,*63
06/14/2015	02:06:50.542	$GPGGA,020651,2433.2705,N,08052.9917,W,1,10,1.7,22,M,,M,,*68
06/14/2015	02:06:51.563	$GPGGA,020652,2433.2701,N,08052.9928,W,1,10,1.7,22,M,,M,,*63
06/14/2015	02:06:52.531	$GPGGA,020653,2433.2695,N,08052.9936,W,1,10,1.7,22,M,,M,,*61
06/14/2015	02:06:53.548	$GPGGA,020654,2433.2690,N,08052.9944,W,1,10,1.7,22,M,,M,,*66
06/14/2015	02:06:54.531	$GPGGA,020655,2433.2686,N,08052.9953,W,1,10,1.7,22,M,,M,,*66
06/14/2015	02:06:55.571	$GPGGA,020656,2433.2680,N,08052.9960,W,1,10,1.7,22,M,,M,,*63
06/14/2015	02:06:56.641	$GPGGA,020657,2433.2676,N,08052.9968,W,1,10,1.7,22,M,,M,,*63
06/14/2015	02:06:57.631	$GPGGA,020658,2433.2672,N,08052.9978,W,1,10,1.7,22,M,,M,,*69
06/14/2015	02:06:58.511	$GPGGA,020659,2433.2666,N,08052.9986,W,1,10,1.7,22,M,,M,,*6C
06/14/2015	02:06:59.581	$GPGGA,020700,2433.2661,N,08052.9994,W,1,10,1.7,22,M,,M,,*65
06/14/2015	02:07:00.511	$GPGGA,020701,2433.2655,N,08053.0003,W,1,10,1.7,22,M,,M,,*6C
06/14/2015	02:07:01.644	$GPGGA,020702,2433.2652,N,08053.0011,W,1,10,1.7,22,M,,M,,*6B
06/14/2015	02:07:02.521	$GPGGA,020703,2433.2647,N,08053.0019,W,1,10,1.7,22,M,,M,,*66
06/14/2015	02:07:03.531	$GPGGA,020704,2433.2641,N,08053.0027,W,1,10,1.7,22,M,,M,,*6A
06/14/2015	02:07:04.521	$GPGGA,020705,2433.2635,N,08053.0036,W,1,10,1.7,22,M,,M,,*68
06/14/2015	02:07:05.611	$GPGGA,020706,2433.2632,N,08053.0045,W,1,10,1.7,21,M,,M,,*6B
06/14/2015	02:07:06.500	$GPGGA,020707,2433.2625,N,08053.0054,W,1,10,1.7,21,M,,M,,*6C
06/14/2015	02:07:07.510	$GPGGA,020708,2433.2621,N,08053.0061,W,1,10,1.7,21,M,,M,,*61
06/14/2015	02:07:08.500	$GPGGA,020709,2433.2616,N,08053.0070,W,1,10,1.7,21,M,,M,,*64
06/14/2015	02:07:09.501	$GPGGA,020710,2433.2610,N,08053.0079,W,1,10,1.7,21,M,,M,,*63
06/14/2015	02:07:10.591	$GPGGA,020711,2433.2604,N,08053.0087,W,1,10,1.7,21,M,,M,,*66
06/14/2015	02:07:11.511	$GPGGA,020712,2433.2599,N,08053.0094,W,1,10,1.7,21,M,,M,,*60
06/14/2015	02:07:12.501	$GPGGA,020713,2433.2596,N,08053.0105,W,1,10,1.7,21,M,,M,,*67
06/14/2015	02:07:13.491	$GPGGA,020714,2433.2589,N,08053.0113,W,1,9,2.0,21,M,,M,,*55
06/14/2015	02:07:15.655	$GPGGA,020716,2433.2578,N,08053.0130,W,1,10,1.7,21,M,,M,,*64
06/14/2015	02:07:16.581	$GPGGA,020717,2433.2574,N,08053.0138,W,1,10,1.7,21,M,,M,,*61
06/14/2015	02:07:17.581	$GPGGA,020718,2433.2568,N,08053.0145,W,1,10,1.7,21,M,,M,,*69
06/14/2015	02:07:18.581	$GPGGA,020719,2433.2561,N,08053.0153,W,1,10,1.7,21,M,,M,,*66
06/14/2015	02:07:19.591	$GPGGA,020720,2433.2557,N,08053.0163,W,1,10,1.7,21,M,,M,,*6A
06/14/2015	02:07:20.581	$GPGGA,020721,2433.2552,N,08053.0173,W,1,10,2.0,21,M,,M,,*6B
06/14/2015	02:07:21.591	$GPGGA,020722,2433.2545,N,08053.0181,W,1,10,1.7,21,M,,M,,*67
06/14/2015	02:07:22.581	$GPGGA,020723,2433.2540,N,08053.0186,W,1,10,1.7,21,M,,M,,*64
06/14/2015	02:07:23.571	$GPGGA,020724,2433.2536,N,08053.0195,W,1,9,2.0,21,M,,M,,*5C
06/14/2015	02:07:24.570	$GPGGA,020725,2433.2531,N,08053.0204,W,1,9,1.7,21,M,,M,,*55
06/14/2015	02:07:25.590	$GPGGA,020726,2433.2524,N,08053.0213,W,1,10,1.7,21,M,,M,,*6C
06/14/2015	02:07:26.561	$GPGGA,020727,2433.2520,N,08053.0221,W,1,10,1.7,21,M,,M,,*68
06/14/2015	02:07:27.591	$GPGGA,020728,2433.2513,N,08053.0229,W,1,10,1.7,21,M,,M,,*6F
06/14/2015	02:07:28.561	$GPGGA,020729,2433.2509,N,08053.0238,W,1,10,1.7,21,M,,M,,*65
06/14/2015	02:07:29.581	$GPGGA,020730,2433.2503,N,08053.0246,W,1,10,1.7,21,M,,M,,*6E
06/14/2015	02:07:30.561	$GPGGA,020731,2433.2497,N,08053.0253,W,1,10,1.7,21,M,,M,,*67
06/14/2015	02:07:31.591	$GPGGA,020732,2433.2491,N,08053.0260,W,1,10,1.7,21,M,,M,,*62
06/14/2015	02:07:32.561	$GPGGA,020733,2433.2486,N,08053.0268,W,1,10,1.8,21,M,,M,,*62
06/14/2015	02:07:33.571	$GPGGA,020734,2433.2482,N,08053.0276,W,1,10,1.7,21,M,,M,,*61
06/14/2015	02:07:34.551	$GPGGA,020735,2433.2477,N,08053.0285,W,1,10,1.7,21,M,,M,,*66
06/14/2015	02:07:35.581	$GPGGA,020736,2433.2473,N,08053.0293,W,1,10,1.7,21,M,,M,,*66
06/14/2015	02:07:36.542	$GPGGA,020737,2433.2467,N,08053.0300,W,1,10,1.7,21,M,,M,,*69
06/14/2015	02:07:37.545	$GPGGA,020738,2433.2462,N,08053.0307,W,1,10,1.7,21,M,,M,,*64
06/14/2015	02:07:38.545	$GPGGA,020739,2433.2457,N,08053.0314,W,1,10,1.7,21,M,,M,,*61
06/14/2015	02:07:39.563	$GPGGA,020740,2433.2451,N,08053.0322,W,1,9,2.0,21,M,,M,,*50
06/14/2015	02:07:40.521	$GPGGA,020741,2433.2446,N,08053.0330,W,1,9,1.7,21,M,,M,,*50
06/14/2015	02:07:41.530	$GPGGA,020742,2433.2440,N,08053.0339,W,1,10,1.7,21,M,,M,,*64
06/14/2015	02:07:42.530	$GPGGA,020743,2433.2437,N,08053.0345,W,1,10,1.7,21,M,,M,,*6E
06/14/2015	02:07:43.541	$GPGGA,020744,2433.2431,N,08053.0352,W,1,10,1.7,21,M,,M,,*69
06/14/2015	02:07:44.642	$GPGGA,020745,2433.2427,N,08053.0361,W,1,10,1.7,21,M,,M,,*6F
06/14/2015	02:07:45.555	$GPGGA,020746,2433.2423,N,08053.0368,W,1,9,2.0,21,M,,M,,*5D
06/14/2015	02:07:46.631	$GPGGA,020747,2433.2419,N,08053.0377,W,1,9,2.0,21,M,,M,,*5B
06/14/2015	02:07:47.545	$GPGGA,020748,2433.2412,N,08053.0384,W,1,10,1.7,21,M,,M,,*6F
06/14/2015	02:07:48.631	$GPGGA,020749,2433.2408,N,08053.0391,W,1,10,1.7,21,M,,M,,*61
06/14/2015	02:07:49.611	$GPGGA,020750,2433.2404,N,08053.0399,W,1,10,1.7,21,M,,M,,*6D
06/14/2015	02:07:50.521	$GPGGA,020751,2433.2398,N,08053.0406,W,1,10,1.7,21,M,,M,,*6F
06/14/2015	02:07:51.521	$GPGGA,020752,2433.2393,N,08053.0415,W,1,10,1.7,21,M,,M,,*65
06/14/2015	02:07:52.601	$GPGGA,020753,2433.2388,N,08053.0423,W,1,10,1.7,21,M,,M,,*6B
06/14/2015	02:07:53.641	$GPGGA,020754,2433.2383,N,08053.0430,W,1,10,1.7,21,M,,M,,*65
06/14/2015	02:07:54.621	$GPGGA,020755,2433.2377,N,08053.0435,W,1,10,1.7,21,M,,M,,*6A
06/14/2015	02:07:55.611	$GPGGA,020756,2433.2373,N,08053.0444,W,1,10,1.7,21,M,,M,,*6B
06/14/2015	02:07:56.542	$GPGGA,020757,2433.2368,N,08053.0451,W,1,10,1.7,21,M,,M,,*64
06/14/2015	02:07:57.611	$GPGGA,020758,2433.2362,N,08053.0457,W,1,10,1.7,21,M,,M,,*67
06/14/2015	02:07:58.501	$GPGGA,020759,2433.2357,N,08053.0466,W,1,10,1.7,21,M,,M,,*62
06/14/2015	02:07:59.510	$GPGGA,020800,2433.2352,N,08053.0473,W,1,10,1.7,21,M,,M,,*60
06/14/2015	02:08:00.493	$GPGGA,020801,2433.2347,N,08053.0480,W,1,10,1.7,21,M,,M,,*69
06/14/2015	02:08:01.491	$GPGGA,020802,2433.2343,N,08053.0488,W,1,10,1.7,21,M,,M,,*66
06/14/2015	02:08:03.068	$GPGGA,020803,2433.2338,N,08053.0495,W,1,10,1.7,21,M,,M,,*67
06/14/2015	02:08:03.621	$GPGGA,020804,2433.2334,N,08053.0502,W,1,10,1.7,21,M,,M,,*63
06/14/2015	02:08:04.581	$GPGGA,020805,2433.2330,N,08053.0510,W,1,10,1.7,21,M,,M,,*65
06/14/2015	02:08:05.601	$GPGGA,020806,2433.2325,N,08053.0518,W,1,10,1.7,21,M,,M,,*6A
06/14/2015	02:08:06.591	$GPGGA,020807,2433.2320,N,08053.0527,W,1,10,1.7,21,M,,M,,*62
06/14/2015	02:08:07.591	$GPGGA,020808,2433.2315,N,08053.0533,W,1,10,1.7,21,M,,M,,*6E
06/14/2015	02:08:08.581	$GPGGA,020809,2433.2311,N,08053.0539,W,1,10,1.7,21,M,,M,,*61
06/14/2015	02:08:09.581	$GPGGA,020810,2433.2307,N,08053.0547,W,1,10,1.7,21,M,,M,,*67
06/14/2015	02:08:10.571	$GPGGA,020811,2433.2303,N,08053.0556,W,1,10,1.7,21,M,,M,,*62
06/14/2015	02:08:11.611	$GPGGA,020812,2433.2298,N,08053.0563,W,1,9,1.9,21,M,,M,,*52
06/14/2015	02:08:12.571	$GPGGA,020813,2433.2294,N,08053.0571,W,1,9,1.7,21,M,,M,,*52
06/14/2015	02:08:13.581	$GPGGA,020814,2433.2291,N,08053.0579,W,1,9,1.9,21,M,,M,,*56
06/14/2015	02:08:14.553	$GPGGA,020815,2433.2287,N,08053.0587,W,1,9,1.7,21,M,,M,,*5F
06/14/2015	02:08:15.591	$GPGGA,020816,2433.2283,N,08053.0594,W,1,10,1.7,22,M,,M,,*61
06/14/2015	02:08:16.560	$GPGGA,020817,2433.2279,N,08053.0603,W,1,10,1.7,22,M,,M,,*68
06/14/2015	02:08:17.560	$GPGGA,020818,2433.2276,N,08053.0610,W,1,10,1.7,22,M,,M,,*6A
06/14/2015	02:08:18.553	$GPGGA,020819,2433.2272,N,08053.0618,W,1,10,1.7,22,M,,M,,*67
06/14/2015	02:08:19.591	$GPGGA,020820,2433.2267,N,08053.0625,W,1,9,1.9,22,M,,M,,*51
06/14/2015	02:08:20.551	$GPGGA,020821,2433.2263,N,08053.0634,W,1,9,1.9,22,M,,M,,*54
06/14/2015	02:08:21.550	$GPGGA,020822,2433.2257,N,08053.0643,W,1,9,1.9,22,M,,M,,*50
06/14/2015	02:08:22.565	$GPGGA,020823,2433.2253,N,08053.0651,W,1,9,1.7,22,M,,M,,*58
06/14/2015	02:08:23.561	$GPGGA,020824,2433.2249,N,08053.0658,W,1,10,1.7,22,M,,M,,*65
06/14/2015	02:08:24.561	$GPGGA,020825,2433.2244,N,08053.0665,W,1,10,1.7,22,M,,M,,*67
06/14/2015	02:08:25.558	$GPGGA,020826,2433.2242,N,08053.0673,W,1,10,1.7,22,M,,M,,*65
06/14/2015	02:08:26.548	$GPGGA,020827,2433.2238,N,08053.0683,W,1,10,1.9,22,M,,M,,*68
06/14/2015	02:08:27.547	$GPGGA,020828,2433.2231,N,08053.0691,W,1,10,1.7,22,M,,M,,*63
06/14/2015	02:08:28.544	$GPGGA,020829,2433.2226,N,08053.0699,W,1,10,1.7,22,M,,M,,*6C
06/14/2015	02:08:29.561	$GPGGA,020830,2433.2224,N,08053.0708,W,1,10,1.7,22,M,,M,,*6F
06/14/2015	02:08:30.691	$GPGGA,020831,2433.2220,N,08053.0715,W,1,10,1.7,22,M,,M,,*66
06/14/2015	02:08:31.691	$GPGGA,020832,2433.2214,N,08053.0723,W,1,10,1.9,22,M,,M,,*69
06/14/2015	02:08:32.551	$GPGGA,020833,2433.2210,N,08053.0731,W,1,10,1.9,22,M,,M,,*6F
06/14/2015	02:08:33.556	$GPGGA,020834,2433.2206,N,08053.0741,W,1,9,1.9,22,M,,M,,*50
06/14/2015	02:08:34.530	$GPGGA,020835,2433.2200,N,08053.0748,W,1,9,1.7,22,M,,M,,*50
06/14/2015	02:08:35.690	$GPGGA,020836,2433.2195,N,08053.0756,W,1,10,1.7,22,M,,M,,*6B
06/14/2015	02:08:36.711	$GPGGA,020837,2433.2191,N,08053.0764,W,1,10,1.7,22,M,,M,,*6F
06/14/2015	02:08:37.659	$GPGGA,020838,2433.2186,N,08053.0771,W,1,10,1.7,22,M,,M,,*62
06/14/2015	02:08:38.861	$GPGGA,020839,2433.2182,N,08053.0778,W,1,10,1.7,22,M,,M,,*6E
06/14/2015	02:08:39.691	$GPGGA,020840,2433.2177,N,08053.0787,W,1,10,2.0,22,M,,M,,*6E
06/14/2015	02:08:40.521	$GPGGA,020841,2433.2173,N,08053.0795,W,1,10,2.0,22,M,,M,,*68
06/14/2015	02:08:41.664	$GPGGA,020842,2433.2167,N,08053.0803,W,1,9,1.7,22,M,,M,,*52
06/14/2015	02:08:42.671	$GPGGA,020843,2433.2162,N,08053.0810,W,1,9,1.7,22,M,,M,,*54
06/14/2015	02:08:43.681	$GPGGA,020844,2433.2159,N,08053.0820,W,1,10,1.7,22,M,,M,,*60
06/14/2015	02:08:44.691	$GPGGA,020845,2433.2153,N,08053.0827,W,1,10,1.7,22,M,,M,,*6C
06/14/2015	02:08:45.511	$GPGGA,020846,2433.2149,N,08053.0834,W,1,10,1.7,22,M,,M,,*66
06/14/2015	02:08:46.591	$GPGGA,020847,2433.2145,N,08053.0840,W,1,10,1.7,22,M,,M,,*68
06/14/2015	02:08:47.671	$GPGGA,020848,2433.2141,N,08053.0849,W,1,10,1.7,22,M,,M,,*6A
06/14/2015	02:08:48.501	$GPGGA,020849,2433.2137,N,08053.0857,W,1,10,1.7,22,M,,M,,*65
06/14/2015	02:08:49.651	$GPGGA,020850,2433.2130,N,08053.0864,W,1,10,1.7,22,M,,M,,*6A
06/14/2015	02:08:50.662	$GPGGA,020851,2433.2124,N,08053.0871,W,1,10,1.7,22,M,,M,,*6A
06/14/2015	02:08:51.600	$GPGGA,020852,2433.2121,N,08053.0879,W,1,10,1.7,22,M,,M,,*64
06/14/2015	02:08:52.580	$GPGGA,020853,2433.2117,N,08053.0887,W,1,10,1.7,22,M,,M,,*61
06/14/2015	02:08:53.620	$GPGGA,020854,2433.2112,N,08053.0894,W,1,10,1.7,22,M,,M,,*61
06/14/2015	02:08:54.921	$GPGGA,020855,2433.2105,N,08053.0901,W,1,10,1.7,22,M,,M,,*6B
06/14/2015	02:08:55.646	$GPGGA,020856,2433.2101,N,08053.0910,W,1,10,1.7,22,M,,M,,*6C
06/14/2015	02:08:56.652	$GPGGA,020857,2433.2095,N,08053.0918,W,1,10,1.7,22,M,,M,,*69
06/14/2015	02:08:57.621	$GPGGA,020858,2433.2090,N,08053.0923,W,1,9,1.7,22,M,,M,,*53
06/14/2015	02:08:58.644	$GPGGA,020859,2433.2084,N,08053.0930,W,1,9,1.7,23,M,,M,,*54
06/14/2015	02:08:59.681	$GPGGA,020900,2433.2079,N,08053.0936,W,1,10,1.7,23,M,,M,,*65
06/14/2015	02:09:00.643	$GPGGA,020901,2433.2072,N,08053.0943,W,1,10,1.7,23,M,,M,,*6D
06/14/2015	02:09:01.621	$GPGGA,020902,2433.2067,N,08053.0950,W,1,10,1.7,23,M,,M,,*68
06/14/2015	02:09:02.621	$GPGGA,020903,2433.2061,N,08053.0955,W,1,10,1.7,23,M,,M,,*6A
06/14/2015	02:09:03.646	$GPGGA,020904,2433.2054,N,08053.0959,W,1,10,1.7,23,M,,M,,*67
06/14/2015	02:09:04.545	$GPGGA,020905,2433.2047,N,08053.0966,W,1,10,1.7,23,M,,M,,*68
06/14/2015	02:09:05.547	$GPGGA,020906,2433.2043,N,08053.0972,W,1,10,1.7,23,M,,M,,*6A
06/14/2015	02:09:06.621	$GPGGA,020907,2433.2036,N,08053.0979,W,1,10,1.7,23,M,,M,,*62
06/14/2015	02:09:07.649	$GPGGA,020908,2433.2030,N,08053.0986,W,1,10,1.7,23,M,,M,,*6B
06/14/2015	02:09:08.591	$GPGGA,020909,2433.2025,N,08053.0991,W,1,10,1.7,23,M,,M,,*68
06/14/2015	02:09:09.531	$GPGGA,020910,2433.2020,N,08053.0999,W,1,10,1.7,23,M,,M,,*6D
06/14/2015	02:09:10.600	$GPGGA,020911,2433.2015,N,08053.1008,W,1,10,1.7,24,M,,M,,*6D
06/14/2015	02:09:11.600	$GPGGA,020912,2433.2009,N,08053.1015,W,1,10,1.7,24,M,,M,,*6F
06/14/2015	02:09:12.600	$GPGGA,020913,2433.2004,N,08053.1020,W,1,10,1.7,24,M,,M,,*65
06/14/2015	02:09:13.560	$GPGGA,020914,2433.2000,N,08053.1027,W,1,10,1.7,24,M,,M,,*61
06/14/2015	02:09:14.600	$GPGGA,020915,2433.1994,N,08053.1037,W,1,10,1.7,24,M,,M,,*66
06/14/2015	02:09:15.600	$GPGGA,020916,2433.1989,N,08053.1044,W,1,9,1.7,24,M,,M,,*55
06/14/2015	02:09:16.580	$GPGGA,020917,2433.1982,N,08053.1051,W,1,9,1.7,24,M,,M,,*5B
06/14/2015	02:09:17.634	$GPGGA,020918,2433.1978,N,08053.1059,W,1,9,1.7,24,M,,M,,*59
06/14/2015	02:09:18.570	$GPGGA,020919,2433.1974,N,08053.1066,W,1,9,1.7,24,M,,M,,*58
06/14/2015	02:09:19.590	$GPGGA,020920,2433.1968,N,08053.1073,W,1,10,1.7,24,M,,M,,*63
06/14/2015	02:09:20.632	$GPGGA,020921,2433.1962,N,08053.1081,W,1,10,1.8,24,M,,M,,*6A
06/14/2015	02:09:21.620	$GPGGA,020922,2433.1960,N,08053.1087,W,1,9,2.0,24,M,,M,,*5E
06/14/2015	02:09:22.501	$GPGGA,020923,2433.1955,N,08053.1095,W,1,9,2.0,24,M,,M,,*5A
06/14/2015	02:09:23.511	$GPGGA,020924,2433.1951,N,08053.1102,W,1,10,1.7,24,M,,M,,*6A
06/14/2015	02:09:24.561	$GPGGA,020925,2433.1946,N,08053.1107,W,1,10,2.0,24,M,,M,,*6C
06/14/2015	02:09:25.551	$GPGGA,020926,2433.1942,N,08053.1114,W,1,9,2.0,24,M,,M,,*51
06/14/2015	02:09:26.610	$GPGGA,020927,2433.1937,N,08053.1121,W,1,9,1.7,24,M,,M,,*50
06/14/2015	02:09:27.580	$GPGGA,020928,2433.1931,N,08053.1131,W,1,10,1.7,24,M,,M,,*60
06/14/2015	02:09:28.590	$GPGGA,020929,2433.1924,N,08053.1139,W,1,10,1.7,24,M,,M,,*6D
06/14/2015	02:09:29.490	$GPGGA,020930,2433.1917,N,08053.1147,W,1,10,1.7,24,M,,M,,*6C
06/14/2015	02:09:30.590	$GPGGA,020931,2433.1911,N,08053.1156,W,1,10,1.7,25,M,,M,,*6A
06/14/2015	02:09:31.640	$GPGGA,020932,2433.1907,N,08053.1163,W,1,10,2.0,25,M,,M,,*6C
06/14/2015	02:09:34.180	$GPGGA,020934,2433.1898,N,08053.1176,W,1,10,1.7,25,M,,M,,*6D
06/14/2015	02:09:34.580	$GPGGA,020935,2433.1895,N,08053.1185,W,1,10,1.7,25,M,,M,,*6D
06/14/2015	02:09:35.590	$GPGGA,020936,2433.1888,N,08053.1193,W,1,10,1.7,25,M,,M,,*65
06/14/2015	02:09:36.570	$GPGGA,020937,2433.1884,N,08053.1200,W,1,10,1.7,25,M,,M,,*61
06/14/2015	02:09:37.600	$GPGGA,020938,2433.1878,N,08053.1208,W,1,10,2.2,25,M,,M,,*63
06/14/2015	02:09:38.580	$GPGGA,020939,2433.1873,N,08053.1215,W,1,10,2.2,25,M,,M,,*65
06/14/2015	02:09:39.611	$GPGGA,020940,2433.1867,N,08053.1221,W,1,9,2.0,25,M,,M,,*53
06/14/2015	02:09:40.561	$GPGGA,020941,2433.1863,N,08053.1229,W,1,9,1.7,24,M,,M,,*5B
06/14/2015	02:09:41.581	$GPGGA,020942,2433.1860,N,08053.1239,W,1,10,1.7,24,M,,M,,*62
06/14/2015	02:09:42.581	$GPGGA,020943,2433.1856,N,08053.1246,W,1,10,1.7,24,M,,M,,*6E
06/14/2015	02:09:43.581	$GPGGA,020944,2433.1850,N,08053.1254,W,1,10,1.7,24,M,,M,,*6C
06/14/2015	02:09:44.580	$GPGGA,020945,2433.1845,N,08053.1262,W,1,10,1.7,24,M,,M,,*6C
06/14/2015	02:09:45.560	$GPGGA,020946,2433.1841,N,08053.1272,W,1,10,1.7,24,M,,M,,*6A
06/14/2015	02:09:46.560	$GPGGA,020947,2433.1837,N,08053.1279,W,1,10,1.7,24,M,,M,,*61
06/14/2015	02:09:47.600	$GPGGA,020948,2433.1832,N,08053.1286,W,1,10,1.7,24,M,,M,,*6B
06/14/2015	02:09:48.560	$GPGGA,020949,2433.1827,N,08053.1293,W,1,10,1.7,24,M,,M,,*6A
06/14/2015	02:09:49.580	$GPGGA,020950,2433.1827,N,08053.1293,W,1,10,1.7,24,M,,M,,*62
06/14/2015	02:09:50.560	$GPGGA,020951,2433.1819,N,08053.1309,W,1,10,1.7,24,M,,M,,*6C
06/14/2015	02:09:51.580	$GPGGA,020952,2433.1813,N,08053.1318,W,1,10,1.7,24,M,,M,,*65
06/14/2015	02:09:52.560	$GPGGA,020953,2433.1808,N,08053.1326,W,1,10,1.7,24,M,,M,,*63
06/14/2015	02:09:53.541	$GPGGA,020954,2433.1805,N,08053.1334,W,1,10,1.7,24,M,,M,,*6A
06/14/2015	02:09:54.560	$GPGGA,020955,2433.1799,N,08053.1341,W,1,10,1.7,24,M,,M,,*63
06/14/2015	02:09:55.580	$GPGGA,020956,2433.1794,N,08053.1348,W,1,10,1.7,23,M,,M,,*63
06/14/2015	02:09:56.560	$GPGGA,020957,2433.1790,N,08053.1358,W,1,10,1.9,23,M,,M,,*69
06/14/2015	02:09:57.544	$GPGGA,020958,2433.1785,N,08053.1366,W,1,9,1.7,23,M,,M,,*59
06/14/2015	02:09:58.551	$GPGGA,020959,2433.1779,N,08053.1374,W,1,9,1.7,23,M,,M,,*58
06/14/2015	02:09:59.581	$GPGGA,021000,2433.1774,N,08053.1381,W,1,10,1.7,23,M,,M,,*63
06/14/2015	02:10:00.551	$GPGGA,021001,2433.1772,N,08053.1389,W,1,10,1.7,23,M,,M,,*6C
06/14/2015	02:10:01.540	$GPGGA,021002,2433.1768,N,08053.1396,W,1,10,1.7,23,M,,M,,*6A
06/14/2015	02:10:02.542	$GPGGA,021003,2433.1768,N,08053.1396,W,1,10,1.9,23,M,,M,,*65
06/14/2015	02:10:03.540	$GPGGA,021004,2433.1760,N,08053.1412,W,1,9,1.9,23,M,,M,,*59
06/14/2015	02:10:04.560	$GPGGA,021005,2433.1755,N,08053.1420,W,1,9,1.7,23,M,,M,,*51
06/14/2015	02:10:05.531	$GPGGA,021006,2433.1751,N,08053.1428,W,1,10,1.7,23,M,,M,,*66
06/14/2015	02:10:06.520	$GPGGA,021007,2433.1751,N,08053.1428,W,1,10,1.9,23,M,,M,,*69
06/14/2015	02:10:07.548	$GPGGA,021008,2433.1744,N,08053.1445,W,1,9,1.9,23,M,,M,,*51
06/14/2015	02:10:08.540	$GPGGA,021009,2433.1750,N,08053.1452,W,1,9,1.7,23,M,,M,,*5D
06/14/2015	02:10:09.520	$GPGGA,021010,2433.1745,N,08053.1460,W,1,10,1.7,23,M,,M,,*68
06/14/2015	02:10:10.520	$GPGGA,021011,2433.1745,N,08053.1460,W,1,10,1.9,23,M,,M,,*67
06/14/2015	02:10:11.531	$GPGGA,021012,2433.1733,N,08053.1477,W,1,9,1.9,23,M,,M,,*5B
06/14/2015	02:10:12.510	$GPGGA,021013,2433.1733,N,08053.1477,W,1,9,1.7,24,M,,M,,*53
06/14/2015	02:10:13.520	$GPGGA,021014,2433.1725,N,08053.1492,W,1,10,1.7,24,M,,M,,*60
06/14/2015	02:10:14.511	$GPGGA,021015,2433.1725,N,08053.1492,W,1,10,1.7,24,M,,M,,*61
06/14/2015	02:10:15.561	$GPGGA,021016,2433.1716,N,08053.1508,W,1,9,2.2,24,M,,M,,*5E
06/14/2015	02:10:16.591	$GPGGA,021017,2433.1711,N,08053.1515,W,1,9,2.2,24,M,,M,,*54
06/14/2015	02:10:17.611	$GPGGA,021018,2433.1707,N,08053.1524,W,1,10,1.7,24,M,,M,,*60
06/14/2015	02:10:19.053	$GPGGA,021019,2433.1702,N,08053.1533,W,1,10,1.7,24,M,,M,,*62
06/14/2015	02:10:19.510	$GPGGA,021020,2433.1697,N,08053.1542,W,1,10,1.7,24,M,,M,,*63
06/14/2015	02:10:20.580	$GPGGA,021021,2433.1691,N,08053.1548,W,1,10,1.7,24,M,,M,,*6E
06/14/2015	02:10:21.590	$GPGGA,021022,2433.1687,N,08053.1555,W,1,10,1.7,24,M,,M,,*66
06/14/2015	02:10:22.590	$GPGGA,021023,2433.1685,N,08053.1564,W,1,10,2.2,24,M,,M,,*61
06/14/2015	02:10:23.581	$GPGGA,021024,2433.1679,N,08053.1572,W,1,9,2.0,24,M,,M,,*58
06/14/2015	02:10:24.570	$GPGGA,021025,2433.1674,N,08053.1579,W,1,9,1.9,24,M,,M,,*55
06/14/2015	02:10:25.580	$GPGGA,021026,2433.1671,N,08053.1587,W,1,10,1.7,24,M,,M,,*64
06/14/2015	02:10:26.570	$GPGGA,021027,2433.1665,N,08053.1595,W,1,10,1.9,24,M,,M,,*6D
06/14/2015	02:10:27.580	$GPGGA,021028,2433.1660,N,08053.1602,W,1,10,1.7,24,M,,M,,*64
06/14/2015	02:10:28.630	$GPGGA,021029,2433.1655,N,08053.1611,W,1,10,1.7,24,M,,M,,*61
06/14/2015	02:10:29.570	$GPGGA,021030,2433.1651,N,08053.1619,W,1,9,1.9,24,M,,M,,*53
06/14/2015	02:10:30.570	$GPGGA,021031,2433.1647,N,08053.1627,W,1,9,1.9,24,M,,M,,*58
06/14/2015	02:10:31.581	$GPGGA,021032,2433.1644,N,08053.1636,W,1,8,2.2,24,M,,M,,*51
06/14/2015	02:10:32.561	$GPGGA,021033,2433.1643,N,08053.1644,W,1,8,1.7,24,M,,M,,*54
06/14/2015	02:10:33.581	$GPGGA,021034,2433.1639,N,08053.1654,W,1,10,1.7,24,M,,M,,*66
06/14/2015	02:10:34.551	$GPGGA,021035,2433.1635,N,08053.1659,W,1,10,1.7,24,M,,M,,*66
06/14/2015	02:10:35.561	$GPGGA,021036,2433.1629,N,08053.1667,W,1,10,1.7,24,M,,M,,*65
06/14/2015	02:10:36.560	$GPGGA,021037,2433.1625,N,08053.1676,W,1,10,1.9,24,M,,M,,*66
06/14/2015	02:10:37.570	$GPGGA,021038,2433.1621,N,08053.1684,W,1,10,1.7,24,M,,M,,*6E
06/14/2015	02:10:38.980	$GPGGA,021039,2433.1617,N,08053.1691,W,1,10,1.7,24,M,,M,,*6E
06/14/2015	02:10:39.580	$GPGGA,021040,2433.1613,N,08053.1699,W,1,10,1.7,24,M,,M,,*6C
06/14/2015	02:10:40.550	$GPGGA,021041,2433.1609,N,08053.1706,W,1,10,1.7,24,M,,M,,*61
06/14/2015	02:10:41.533	$GPGGA,021042,2433.1603,N,08053.1713,W,1,10,1.7,24,M,,M,,*6C
06/14/2015	02:10:42.550	$GPGGA,021043,2433.1599,N,08053.1721,W,1,10,1.7,24,M,,M,,*6C
06/14/2015	02:10:43.570	$GPGGA,021044,2433.1593,N,08053.1730,W,1,10,1.7,24,M,,M,,*61
06/14/2015	02:10:44.545	$GPGGA,021045,2433.1588,N,08053.1736,W,1,10,1.7,24,M,,M,,*6C
06/14/2015	02:10:45.531	$GPGGA,021046,2433.1582,N,08053.1745,W,1,10,1.7,24,M,,M,,*61
06/14/2015	02:10:46.545	$GPGGA,021047,2433.1577,N,08053.1752,W,1,10,2.0,24,M,,M,,*68
06/14/2015	02:10:47.560	$GPGGA,021048,2433.1572,N,08053.1759,W,1,9,2.0,23,M,,M,,*56
06/14/2015	02:10:48.549	$GPGGA,021049,2433.1566,N,08053.1767,W,1,9,1.7,23,M,,M,,*5B
06/14/2015	02:10:49.521	$GPGGA,021050,2433.1561,N,08053.1774,W,1,10,1.7,23,M,,M,,*6E
06/14/2015	02:10:50.521	$GPGGA,021051,2433.1557,N,08053.1782,W,1,10,1.8,23,M,,M,,*6C
06/14/2015	02:10:51.563	$GPGGA,021052,2433.1553,N,08053.1792,W,1,10,1.7,23,M,,M,,*65
06/14/2015	02:10:52.633	$GPGGA,021053,2433.1548,N,08053.1799,W,1,10,1.7,23,M,,M,,*65
06/14/2015	02:10:53.538	$GPGGA,021054,2433.1543,N,08053.1807,W,1,10,1.7,23,M,,M,,*61
06/14/2015	02:10:54.520	$GPGGA,021055,2433.1539,N,08053.1815,W,1,10,1.7,23,M,,M,,*6E
06/14/2015	02:10:55.543	$GPGGA,021056,2433.1535,N,08053.1822,W,1,10,1.7,22,M,,M,,*64
06/14/2015	02:10:56.600	$GPGGA,021057,2433.1530,N,08053.1831,W,1,10,1.7,22,M,,M,,*62
06/14/2015	02:10:57.643	$GPGGA,021058,2433.1526,N,08053.1839,W,1,10,1.7,22,M,,M,,*62
06/14/2015	02:10:58.500	$GPGGA,021059,2433.1520,N,08053.1847,W,1,10,1.7,22,M,,M,,*6C
06/14/2015	02:10:59.544	$GPGGA,021100,2433.1516,N,08053.1855,W,1,10,1.7,22,M,,M,,*67
06/14/2015	02:11:00.510	$GPGGA,021101,2433.1512,N,08053.1864,W,1,10,1.7,22,M,,M,,*60
06/14/2015	02:11:01.520	$GPGGA,021102,2433.1507,N,08053.1871,W,1,10,1.7,22,M,,M,,*63
06/14/2015	02:11:02.610	$GPGGA,021103,2433.1502,N,08053.1876,W,1,10,1.7,22,M,,M,,*60
06/14/2015	02:11:03.620	$GPGGA,021104,2433.1497,N,08053.1883,W,1,10,1.7,22,M,,M,,*60
06/14/2015	02:11:04.600	$GPGGA,021105,2433.1492,N,08053.1893,W,1,10,1.7,22,M,,M,,*65
06/14/2015	02:11:06.611	$GPGGA,021107,2433.1481,N,08053.1908,W,1,10,1.7,22,M,,M,,*66
06/14/2015	02:11:07.601	$GPGGA,021108,2433.1476,N,08053.1915,W,1,10,1.7,22,M,,M,,*6D
06/14/2015	02:11:08.591	$GPGGA,021109,2433.1472,N,08053.1922,W,1,10,1.7,22,M,,M,,*6C
06/14/2015	02:11:09.591	$GPGGA,021110,2433.1469,N,08053.1929,W,1,10,1.7,22,M,,M,,*65
06/14/2015	02:11:10.581	$GPGGA,021111,2433.1462,N,08053.1936,W,1,10,1.7,22,M,,M,,*61
06/14/2015	02:11:11.620	$GPGGA,021112,2433.1458,N,08053.1943,W,1,10,1.7,22,M,,M,,*69
06/14/2015	02:11:12.580	$GPGGA,021113,2433.1454,N,08053.1951,W,1,10,1.7,22,M,,M,,*67
06/14/2015	02:11:13.590	$GPGGA,021114,2433.1447,N,08053.1956,W,1,10,1.7,22,M,,M,,*65
06/14/2015	02:11:14.590	$GPGGA,021115,2433.1443,N,08053.1963,W,1,10,1.7,22,M,,M,,*66
06/14/2015	02:11:15.580	$GPGGA,021116,2433.1438,N,08053.1970,W,1,10,1.7,22,M,,M,,*6B
06/14/2015	02:11:16.580	$GPGGA,021117,2433.1433,N,08053.1976,W,1,10,1.7,22,M,,M,,*67
06/14/2015	02:11:17.600	$GPGGA,021118,2433.1429,N,08053.1984,W,1,9,2.0,21,M,,M,,*51
06/14/2015	02:11:18.580	$GPGGA,021119,2433.1425,N,08053.1991,W,1,9,2.3,21,M,,M,,*5B
06/14/2015	02:11:19.580	$GPGGA,021120,2433.1418,N,08053.1996,W,1,9,2.3,21,M,,M,,*58
06/14/2015	02:11:20.570	$GPGGA,021121,2433.1412,N,08053.2003,W,1,9,1.8,21,M,,M,,*5D
06/14/2015	02:11:21.560	$GPGGA,021122,2433.1408,N,08053.2010,W,1,10,1.7,21,M,,M,,*60
06/14/2015	02:11:22.570	$GPGGA,021123,2433.1402,N,08053.2016,W,1,10,2.0,21,M,,M,,*69
06/14/2015	02:11:23.590	$GPGGA,021124,2433.1396,N,08053.2021,W,1,10,1.7,21,M,,M,,*64
06/14/2015	02:11:24.551	$GPGGA,021125,2433.1393,N,08053.2027,W,1,10,1.7,21,M,,M,,*66
06/14/2015	02:11:25.561	$GPGGA,021126,2433.1389,N,08053.2034,W,1,10,1.7,21,M,,M,,*6C
06/14/2015	02:11:26.581	$GPGGA,021127,2433.1382,N,08053.2041,W,1,10,1.7,21,M,,M,,*64
06/14/2015	02:11:27.581	$GPGGA,021128,2433.1378,N,08053.2048,W,1,10,1.7,21,M,,M,,*67
06/14/2015	02:11:28.551	$GPGGA,021129,2433.1373,N,08053.2053,W,1,10,1.7,21,M,,M,,*67
06/14/2015	02:11:29.542	$GPGGA,021130,2433.1371,N,08053.2060,W,1,10,1.7,21,M,,M,,*6D
06/14/2015	02:11:30.544	$GPGGA,021131,2433.1366,N,08053.2066,W,1,10,1.9,21,M,,M,,*62
06/14/2015	02:11:31.580	$GPGGA,021132,2433.1364,N,08053.2074,W,1,10,1.7,21,M,,M,,*6E
06/14/2015	02:11:32.546	$GPGGA,021133,2433.1361,N,08053.2081,W,1,10,1.7,22,M,,M,,*63
06/14/2015	02:11:33.570	$GPGGA,021134,2433.1358,N,08053.2088,W,1,10,1.7,22,M,,M,,*67
06/14/2015	02:11:34.520	$GPGGA,021135,2433.1353,N,08053.2093,W,1,10,1.7,22,M,,M,,*67
06/14/2015	02:11:36.547	$GPGGA,021136,2433.1350,N,08053.2100,W,1,10,1.7,22,M,,M,,*6C
06/14/2015	02:11:36.560	$GPGGA,021137,2433.1348,N,08053.2108,W,1,10,1.7,22,M,,M,,*6C
06/14/2015	02:11:37.560	$GPGGA,021138,2433.1343,N,08053.2115,W,1,10,1.7,22,M,,M,,*64
06/14/2015	02:11:38.642	$GPGGA,021139,2433.1340,N,08053.2121,W,1,10,1.7,22,M,,M,,*61
06/14/2015	02:11:39.650	$GPGGA,021140,2433.1337,N,08053.2128,W,1,10,1.7,22,M,,M,,*66
06/14/2015	02:11:40.520	$GPGGA,021141,2433.1335,N,08053.2135,W,1,10,1.7,22,M,,M,,*69
06/14/2015	02:11:41.521	$GPGGA,021142,2433.1330,N,08053.2142,W,1,9,1.9,22,M,,M,,*59
06/14/2015	02:11:42.521	$GPGGA,021143,2433.1326,N,08053.2149,W,1,9,1.7,22,M,,M,,*5A
06/14/2015	02:11:43.621	$GPGGA,021144,2433.1324,N,08053.2155,W,1,10,1.7,22,M,,M,,*6A
06/14/2015	02:11:44.511	$GPGGA,021145,2433.1318,N,08053.2161,W,1,10,1.7,22,M,,M,,*63
06/14/2015	02:11:45.538	$GPGGA,021146,2433.1315,N,08053.2168,W,1,9,2.0,22,M,,M,,*58
