Software Version Number: 1	Data File Format Number: 1	Build Version Number: 1	Error Count Since VI Started: 1	Manufacturer: Raytheon	 Model Number: RayMarine 120	 S/N: 	 Cal Date: 	 Wind Direction Offset: 0.00	 Slope (M)1: 0.00	 Offset (B)1: 0.00	 Slope (M)2: 0.00	 Offset (B)2: 0.00	 Slope (M)3: 0.00	 Offset (B)3: 0.00	 Slope (M)4: 0.00	 Offset (B)4: 0.00	 Slope (M)5: 0.00	 Offset (B)5: 0.00	 Slope (M)6: 0.00	 Offset (B)6: 0.00
Computer Date	Computer Time	GGA String
06/10/2015	13:00:00.570	$GPGGA,130001,2528.3901,N,08009.5380,W,1,11,1.4,16,M,,M,,*68
06/10/2015	13:00:01.550	$GPGGA,130002,2528.3877,N,08009.5390,W,1,11,1.3,16,M,,M,,*6D
06/10/2015	13:00:02.549	$GPGGA,130003,2528.3854,N,08009.5398,W,1,11,1.3,16,M,,M,,*65
06/10/2015	13:00:03.599	$GPGGA,130004,2528.3830,N,08009.5408,W,1,11,1.3,16,M,,M,,*6E
06/10/2015	13:00:04.549	$GPGGA,130005,2528.3807,N,08009.5415,W,1,11,1.3,16,M,,M,,*67
06/10/2015	13:00:05.569	$GPGGA,130006,2528.3784,N,08009.5424,W,1,11,1.3,16,M,,M,,*62
06/10/2015	13:00:06.549	$GPGGA,130007,2528.3760,N,08009.5434,W,1,11,1.3,16,M,,M,,*68
06/10/2015	13:00:08.069	$GPGGA,130008,2528.3736,N,08009.5441,W,1,11,1.3,16,M,,M,,*66
06/10/2015	13:00:08.549	$GPGGA,130009,2528.3712,N,08009.5449,W,1,11,1.3,16,M,,M,,*69
06/10/2015	13:00:09.549	$GPGGA,130010,2528.3689,N,08009.5459,W,1,11,1.3,17,M,,M,,*62
06/10/2015	13:00:10.549	$GPGGA,130011,2528.3665,N,08009.5466,W,1,11,1.3,17,M,,M,,*6D
06/10/2015	13:00:11.549	$GPGGA,130012,2528.3641,N,08009.5475,W,1,11,1.3,17,M,,M,,*6A
06/10/2015	13:00:12.539	$GPGGA,130013,2528.3618,N,08009.5482,W,1,11,1.3,17,M,,M,,*6F
06/10/2015	13:00:13.540	$GPGGA,130014,2528.3596,N,08009.5489,W,1,10,1.4,17,M,,M,,*60
06/10/2015	13:00:14.550	$GPGGA,130015,2528.3573,N,08009.5498,W,1,10,1.3,17,M,,M,,*6D
06/10/2015	13:00:15.580	$GPGGA,130016,2528.3550,N,08009.5504,W,1,11,1.3,17,M,,M,,*6A
06/10/2015	13:00:16.530	$GPGGA,130017,2528.3528,N,08009.5513,W,1,11,1.4,17,M,,M,,*65
06/10/2015	13:00:17.551	$GPGGA,130018,2528.3503,N,08009.5521,W,1,11,1.3,17,M,,M,,*65
06/10/2015	13:00:18.530	$GPGGA,130019,2528.3481,N,08009.5531,W,1,11,1.3,17,M,,M,,*6E
06/10/2015	13:00:19.579	$GPGGA,130020,2528.3456,N,08009.5538,W,1,10,1.4,17,M,,M,,*61
06/10/2015	13:00:20.519	$GPGGA,130021,2528.3432,N,08009.5547,W,1,10,1.3,17,M,,M,,*6D
06/10/2015	13:00:21.519	$GPGGA,130022,2528.3409,N,08009.5556,W,1,11,1.3,17,M,,M,,*67
06/10/2015	13:00:22.519	$GPGGA,130023,2528.3387,N,08009.5564,W,1,11,1.3,17,M,,M,,*66
06/10/2015	13:00:23.549	$GPGGA,130024,2528.3363,N,08009.5574,W,1,11,1.3,17,M,,M,,*6A
06/10/2015	13:00:24.509	$GPGGA,130025,2528.3341,N,08009.5579,W,1,11,1.4,17,M,,M,,*61
06/10/2015	13:00:25.639	$GPGGA,130026,2528.3319,N,08009.5587,W,1,11,1.3,17,M,,M,,*69
06/10/2015	13:00:26.519	$GPGGA,130027,2528.3297,N,08009.5596,W,1,11,1.3,17,M,,M,,*6F
06/10/2015	13:00:27.529	$GPGGA,130028,2528.3273,N,08009.5604,W,1,11,1.3,17,M,,M,,*62
06/10/2015	13:00:28.509	$GPGGA,130029,2528.3251,N,08009.5614,W,1,11,1.3,17,M,,M,,*62
06/10/2015	13:00:29.509	$GPGGA,130030,2528.3228,N,08009.5623,W,1,11,1.3,17,M,,M,,*60
06/10/2015	13:00:30.609	$GPGGA,130031,2528.3205,N,08009.5632,W,1,11,1.4,17,M,,M,,*69
06/10/2015	13:00:31.620	$GPGGA,130032,2528.3182,N,08009.5643,W,1,10,1.4,17,M,,M,,*61
06/10/2015	13:00:32.610	$GPGGA,130033,2528.3159,N,08009.5651,W,1,10,1.4,17,M,,M,,*65
06/10/2015	13:00:33.630	$GPGGA,130034,2528.3138,N,08009.5662,W,1,10,1.3,17,M,,M,,*62
06/10/2015	13:00:34.600	$GPGGA,130035,2528.3116,N,08009.5672,W,1,10,1.3,17,M,,M,,*6E
06/10/2015	13:00:35.610	$GPGGA,130036,2528.3094,N,08009.5683,W,1,11,1.3,17,M,,M,,*69
06/10/2015	13:00:36.650	$GPGGA,130037,2528.3073,N,08009.5694,W,1,11,1.3,17,M,,M,,*67
06/10/2015	13:00:37.579	$GPGGA,130038,2528.3049,N,08009.5704,W,1,11,1.3,17,M,,M,,*69
06/10/2015	13:00:38.589	$GPGGA,130039,2528.3027,N,08009.5715,W,1,11,1.3,17,M,,M,,*60
06/10/2015	13:00:39.609	$GPGGA,130040,2528.3005,N,08009.5724,W,1,11,1.3,17,M,,M,,*6C
06/10/2015	13:00:40.579	$GPGGA,130041,2528.2983,N,08009.5735,W,1,11,1.3,18,M,,M,,*64
06/10/2015	13:00:41.599	$GPGGA,130042,2528.2961,N,08009.5746,W,1,11,1.3,18,M,,M,,*6F
06/10/2015	13:00:42.579	$GPGGA,130043,2528.2939,N,08009.5758,W,1,11,1.3,18,M,,M,,*6C
06/10/2015	13:00:43.659	$GPGGA,130044,2528.2916,N,08009.5767,W,1,11,1.3,18,M,,M,,*6A
06/10/2015	13:00:44.569	$GPGGA,130045,2528.2894,N,08009.5778,W,1,11,1.3,18,M,,M,,*6E
06/10/2015	13:00:45.579	$GPGGA,130046,2528.2872,N,08009.5789,W,1,11,1.3,18,M,,M,,*6B
06/10/2015	13:00:46.569	$GPGGA,130047,2528.2850,N,08009.5800,W,1,11,1.3,18,M,,M,,*64
06/10/2015	13:00:47.589	$GPGGA,130048,2528.2828,N,08009.5811,W,1,11,1.3,18,M,,M,,*64
06/10/2015	13:00:48.570	$GPGGA,130049,2528.2806,N,08009.5822,W,1,11,1.3,18,M,,M,,*69
06/10/2015	13:00:49.590	$GPGGA,130050,2528.2784,N,08009.5834,W,1,11,1.3,18,M,,M,,*63
06/10/2015	13:00:50.560	$GPGGA,130051,2528.2762,N,08009.5845,W,1,11,1.3,18,M,,M,,*6C
06/10/2015	13:00:51.600	$GPGGA,130052,2528.2739,N,08009.5856,W,1,11,1.3,18,M,,M,,*63
06/10/2015	13:00:52.560	$GPGGA,130053,2528.2716,N,08009.5865,W,1,11,1.3,18,M,,M,,*6F
06/10/2015	13:00:53.570	$GPGGA,130054,2528.2694,N,08009.5876,W,1,11,1.3,18,M,,M,,*61
06/10/2015	13:00:54.559	$GPGGA,130055,2528.2672,N,08009.5887,W,1,11,1.3,18,M,,M,,*66
06/10/2015	13:00:55.629	$GPGGA,130056,2528.2648,N,08009.5899,W,1,11,1.3,18,M,,M,,*63
06/10/2015	13:00:56.559	$GPGGA,130057,2528.2625,N,08009.5908,W,1,11,1.3,18,M,,M,,*60
06/10/2015	13:00:57.579	$GPGGA,130058,2528.2603,N,08009.5919,W,1,11,1.3,18,M,,M,,*6B
06/10/2015	13:00:58.550	$GPGGA,130059,2528.2580,N,08009.5929,W,1,11,1.3,18,M,,M,,*61
06/10/2015	13:00:59.579	$GPGGA,130100,2528.2557,N,08009.5939,W,1,11,1.4,18,M,,M,,*60
06/10/2015	13:01:00.529	$GPGGA,130101,2528.2534,N,08009.5950,W,1,11,1.4,17,M,,M,,*64
06/10/2015	13:01:01.529	$GPGGA,130102,2528.2513,N,08009.5961,W,1,10,1.3,17,M,,M,,*66
06/10/2015	13:01:02.559	$GPGGA,130103,2528.2489,N,08009.5969,W,1,10,1.4,17,M,,M,,*6A
06/10/2015	13:01:03.569	$GPGGA,130104,2528.2467,N,08009.5980,W,1,10,1.3,17,M,,M,,*6D
06/10/2015	13:01:04.549	$GPGGA,130105,2528.2445,N,08009.5990,W,1,10,1.3,17,M,,M,,*6D
06/10/2015	13:01:05.649	$GPGGA,130106,2528.2422,N,08009.6001,W,1,11,1.3,17,M,,M,,*6C
06/10/2015	13:01:06.555	$GPGGA,130107,2528.2401,N,08009.6011,W,1,11,1.3,17,M,,M,,*6D
06/10/2015	13:01:07.560	$GPGGA,130108,2528.2377,N,08009.6020,W,1,11,1.3,17,M,,M,,*66
06/10/2015	13:01:08.620	$GPGGA,130109,2528.2355,N,08009.6030,W,1,11,1.3,17,M,,M,,*66
06/10/2015	13:01:09.530	$GPGGA,130110,2528.2332,N,08009.6040,W,1,11,1.3,17,M,,M,,*68
06/10/2015	13:01:10.610	$GPGGA,130111,2528.2309,N,08009.6048,W,1,11,1.3,17,M,,M,,*69
06/10/2015	13:01:11.560	$GPGGA,130112,2528.2286,N,08009.6058,W,1,11,1.3,17,M,,M,,*6D
06/10/2015	13:01:12.509	$GPGGA,130113,2528.2264,N,08009.6066,W,1,11,1.4,17,M,,M,,*6A
06/10/2015	13:01:13.529	$GPGGA,130114,2528.2242,N,08009.6076,W,1,10,1.3,17,M,,M,,*6E
06/10/2015	13:01:14.529	$GPGGA,130115,2528.2220,N,08009.6084,W,1,10,1.3,17,M,,M,,*66
06/10/2015	13:01:15.649	$GPGGA,130116,2528.2196,N,08009.6094,W,1,11,1.3,17,M,,M,,*6B
06/10/2015	13:01:16.599	$GPGGA,130117,2528.2173,N,08009.6102,W,1,11,1.3,17,M,,M,,*6F
06/10/2015	13:01:17.589	$GPGGA,130118,2528.2150,N,08009.6111,W,1,11,1.3,17,M,,M,,*63
06/10/2015	13:01:18.599	$GPGGA,130119,2528.2127,N,08009.6120,W,1,11,1.3,17,M,,M,,*60
06/10/2015	13:01:19.609	$GPGGA,130120,2528.2104,N,08009.6128,W,1,11,1.3,17,M,,M,,*63
06/10/2015	13:01:20.619	$GPGGA,130121,2528.2081,N,08009.6138,W,1,11,1.3,17,M,,M,,*6F
06/10/2015	13:01:21.609	$GPGGA,130122,2528.2059,N,08009.6145,W,1,10,1.4,17,M,,M,,*65
06/10/2015	13:01:22.599	$GPGGA,130123,2528.2036,N,08009.6153,W,1,10,1.3,17,M,,M,,*6D
06/10/2015	13:01:23.620	$GPGGA,130124,2528.2012,N,08009.6163,W,1,11,1.3,17,M,,M,,*6E
06/10/2015	13:01:24.600	$GPGGA,130125,2528.1989,N,08009.6171,W,1,11,1.3,17,M,,M,,*64
06/10/2015	13:01:25.590	$GPGGA,130126,2528.1965,N,08009.6178,W,1,11,1.3,17,M,,M,,*6C
06/10/2015	13:01:26.590	$GPGGA,130127,2528.1942,N,08009.6188,W,1,11,1.3,17,M,,M,,*67
06/10/2015	13:01:27.610	$GPGGA,130128,2528.1918,N,08009.6196,W,1,11,1.3,17,M,,M,,*68
06/10/2015	13:01:29.040	$GPGGA,130129,2528.1895,N,08009.6206,W,1,11,1.3,17,M,,M,,*67
06/10/2015	13:01:29.569	$GPGGA,130130,2528.1871,N,08009.6214,W,1,11,1.3,17,M,,M,,*66
06/10/2015	13:01:30.579	$GPGGA,130131,2528.1848,N,08009.6222,W,1,11,1.3,17,M,,M,,*68
06/10/2015	13:01:31.589	$GPGGA,130132,2528.1825,N,08009.6230,W,1,11,1.3,17,M,,M,,*63
06/10/2015	13:01:32.569	$GPGGA,130133,2528.1801,N,08009.6239,W,1,11,1.3,17,M,,M,,*6D
06/10/2015	13:01:33.589	$GPGGA,130134,2528.1778,N,08009.6248,W,1,11,1.3,17,M,,M,,*6D
06/10/2015	13:01:34.569	$GPGGA,130135,2528.1755,N,08009.6257,W,1,11,1.3,17,M,,M,,*6D
06/10/2015	13:01:35.609	$GPGGA,130136,2528.1731,N,08009.6266,W,1,11,1.3,17,M,,M,,*6E
06/10/2015	13:01:36.559	$GPGGA,130137,2528.1708,N,08009.6275,W,1,11,1.4,17,M,,M,,*60
06/10/2015	13:01:37.579	$GPGGA,130138,2528.1684,N,08009.6283,W,1,10,1.4,17,M,,M,,*62
06/10/2015	13:01:38.569	$GPGGA,130139,2528.1661,N,08009.6293,W,1,10,1.3,17,M,,M,,*6E
06/10/2015	13:01:39.559	$GPGGA,130140,2528.1638,N,08009.6301,W,1,11,1.3,17,M,,M,,*67
06/10/2015	13:01:40.559	$GPGGA,130141,2528.1614,N,08009.6311,W,1,11,1.3,17,M,,M,,*69
06/10/2015	13:01:44.220	$GPGGA,130144,2528.1542,N,08009.6337,W,1,11,1.3,17,M,,M,,*68
06/10/2015	13:01:44.560	$GPGGA,130145,2528.1518,N,08009.6347,W,1,11,1.3,17,M,,M,,*61
06/10/2015	13:01:45.680	$GPGGA,130146,2528.1494,N,08009.6356,W,1,11,1.3,17,M,,M,,*67
06/10/2015	13:01:46.540	$GPGGA,130147,2528.1471,N,08009.6366,W,1,11,1.3,17,M,,M,,*6E
06/10/2015	13:01:47.550	$GPGGA,130148,2528.1448,N,08009.6376,W,1,11,1.3,17,M,,M,,*6A
06/10/2015	13:01:48.539	$GPGGA,130149,2528.1425,N,08009.6387,W,1,11,1.3,17,M,,M,,*6E
06/10/2015	13:01:49.689	$GPGGA,130150,2528.1402,N,08009.6396,W,1,11,1.3,17,M,,M,,*63
06/10/2015	13:01:50.649	$GPGGA,130151,2528.1378,N,08009.6405,W,1,11,1.3,17,M,,M,,*65
06/10/2015	13:01:51.659	$GPGGA,130152,2528.1357,N,08009.6416,W,1,10,1.4,17,M,,M,,*6F
06/10/2015	13:01:52.539	$GPGGA,130153,2528.1332,N,08009.6427,W,1,10,1.3,17,M,,M,,*68
06/10/2015	13:01:53.519	$GPGGA,130154,2528.1310,N,08009.6438,W,1,11,1.3,17,M,,M,,*60
06/10/2015	13:01:54.519	$GPGGA,130155,2528.1288,N,08009.6447,W,1,11,1.3,17,M,,M,,*69
06/10/2015	13:01:55.529	$GPGGA,130156,2528.1265,N,08009.6459,W,1,10,1.4,17,M,,M,,*60
06/10/2015	13:01:56.629	$GPGGA,130157,2528.1243,N,08009.6470,W,1,10,1.4,17,M,,M,,*6E
06/10/2015	13:01:57.639	$GPGGA,130158,2528.1220,N,08009.6479,W,1,11,1.3,17,M,,M,,*6B
06/10/2015	13:01:58.530	$GPGGA,130159,2528.1198,N,08009.6490,W,1,11,1.3,17,M,,M,,*6D
06/10/2015	13:01:59.700	$GPGGA,130200,2528.1176,N,08009.6501,W,1,10,1.4,17,M,,M,,*6D
06/10/2015	13:02:00.610	$GPGGA,130201,2528.1153,N,08009.6512,W,1,10,1.3,17,M,,M,,*6E
06/10/2015	13:02:01.510	$GPGGA,130202,2528.1131,N,08009.6522,W,1,10,1.4,17,M,,M,,*6D
06/10/2015	13:02:02.600	$GPGGA,130203,2528.1109,N,08009.6533,W,1,10,1.3,17,M,,M,,*60
06/10/2015	13:02:04.609	$GPGGA,130204,2528.1086,N,08009.6544,W,1,11,1.3,17,M,,M,,*60
06/10/2015	13:02:04.639	$GPGGA,130205,2528.1064,N,08009.6555,W,1,11,1.3,17,M,,M,,*6D
06/10/2015	13:02:05.609	$GPGGA,130206,2528.1042,N,08009.6566,W,1,11,1.3,17,M,,M,,*6A
06/10/2015	13:02:06.599	$GPGGA,130207,2528.1021,N,08009.6576,W,1,11,1.3,17,M,,M,,*6F
06/10/2015	13:02:07.599	$GPGGA,130208,2528.0997,N,08009.6587,W,1,11,1.3,17,M,,M,,*6B
06/10/2015	13:02:08.600	$GPGGA,130209,2528.0975,N,08009.6597,W,1,11,1.3,17,M,,M,,*67
06/10/2015	13:02:09.599	$GPGGA,130210,2528.0953,N,08009.6608,W,1,11,1.3,17,M,,M,,*6E
06/10/2015	13:02:10.589	$GPGGA,130211,2528.0930,N,08009.6618,W,1,11,1.3,17,M,,M,,*6B
06/10/2015	13:02:11.619	$GPGGA,130212,2528.0909,N,08009.6629,W,1,11,1.3,17,M,,M,,*60
06/10/2015	13:02:12.589	$GPGGA,130213,2528.0885,N,08009.6638,W,1,11,1.3,17,M,,M,,*64
06/10/2015	13:02:13.599	$GPGGA,130214,2528.0863,N,08009.6649,W,1,11,1.3,17,M,,M,,*6D
06/10/2015	13:02:14.579	$GPGGA,130215,2528.0840,N,08009.6659,W,1,11,1.3,17,M,,M,,*6C
06/10/2015	13:02:18.340	$GPGGA,130218,2528.0773,N,08009.6689,W,1,11,1.3,17,M,,M,,*63
06/10/2015	13:02:18.560	$GPGGA,130219,2528.0750,N,08009.6699,W,1,11,1.3,17,M,,M,,*62
06/10/2015	13:02:19.610	$GPGGA,130220,2528.0728,N,08009.6709,W,1,11,1.3,17,M,,M,,*6F
06/10/2015	13:02:20.580	$GPGGA,130221,2528.0705,N,08009.6720,W,1,11,1.3,17,M,,M,,*6A
06/10/2015	13:02:21.590	$GPGGA,130222,2528.0682,N,08009.6728,W,1,11,1.3,17,M,,M,,*6F
06/10/2015	13:02:22.569	$GPGGA,130223,2528.0660,N,08009.6738,W,1,11,1.3,17,M,,M,,*63
06/10/2015	13:02:23.579	$GPGGA,130224,2528.0638,N,08009.6749,W,1,11,1.3,17,M,,M,,*6F
06/10/2015	13:02:24.559	$GPGGA,130225,2528.0614,N,08009.6757,W,1,11,1.3,17,M,,M,,*6F
06/10/2015	13:02:25.550	$GPGGA,130226,2528.0591,N,08009.6767,W,1,11,1.3,17,M,,M,,*61
06/10/2015	13:02:26.569	$GPGGA,130227,2528.0569,N,08009.6777,W,1,11,1.3,17,M,,M,,*66
06/10/2015	13:02:27.579	$GPGGA,130228,2528.0546,N,08009.6785,W,1,11,1.3,17,M,,M,,*69
06/10/2015	13:02:28.559	$GPGGA,130229,2528.0522,N,08009.6795,W,1,11,1.3,17,M,,M,,*6B
06/10/2015	13:02:29.579	$GPGGA,130230,2528.0500,N,08009.6803,W,1,11,1.3,17,M,,M,,*63
06/10/2015	13:02:30.550	$GPGGA,130231,2528.0477,N,08009.6813,W,1,11,1.3,17,M,,M,,*62
06/10/2015	13:02:31.589	$GPGGA,130232,2528.0454,N,08009.6821,W,1,11,1.3,17,M,,M,,*61
06/10/2015	13:02:32.550	$GPGGA,130233,2528.0432,N,08009.6832,W,1,11,1.3,17,M,,M,,*62
06/10/2015	13:02:33.530	$GPGGA,130234,2528.0408,N,08009.6839,W,1,11,1.3,17,M,,M,,*67
06/10/2015	13:02:34.540	$GPGGA,130235,2528.0385,N,08009.6848,W,1,11,1.3,17,M,,M,,*62
06/10/2015	13:02:35.560	$GPGGA,130236,2528.0363,N,08009.6857,W,1,10,1.4,17,M,,M,,*61
06/10/2015	13:02:36.540	$GPGGA,130237,2528.0339,N,08009.6866,W,1,10,1.4,17,M,,M,,*6D
06/10/2015	13:02:37.540	$GPGGA,130238,2528.0316,N,08009.6875,W,1,10,1.4,17,M,,M,,*6D
06/10/2015	13:02:38.520	$GPGGA,130239,2528.0293,N,08009.6883,W,1,10,1.4,17,M,,M,,*69
06/10/2015	13:02:39.569	$GPGGA,130240,2528.0271,N,08009.6893,W,1,10,1.4,17,M,,M,,*6A
06/10/2015	13:02:40.529	$GPGGA,130241,2528.0247,N,08009.6901,W,1,10,1.4,17,M,,M,,*64
06/10/2015	13:02:41.530	$GPGGA,130242,2528.0224,N,08009.6909,W,1,11,1.3,17,M,,M,,*6C
06/10/2015	13:02:42.619	$GPGGA,130243,2528.0201,N,08009.6919,W,1,11,1.4,17,M,,M,,*6C
06/10/2015	13:02:43.649	$GPGGA,130244,2528.0179,N,08009.6927,W,1,11,1.3,17,M,,M,,*6D
06/10/2015	13:02:44.609	$GPGGA,130245,2528.0155,N,08009.6936,W,1,11,1.3,17,M,,M,,*62
06/10/2015	13:02:45.509	$GPGGA,130246,2528.0132,N,08009.6944,W,1,11,1.3,17,M,,M,,*65
06/10/2015	13:02:46.619	$GPGGA,130247,2528.0108,N,08009.6954,W,1,11,1.3,17,M,,M,,*6C
06/10/2015	13:02:47.659	$GPGGA,130248,2528.0085,N,08009.6962,W,1,11,1.3,17,M,,M,,*62
06/10/2015	13:02:48.609	$GPGGA,130249,2528.0062,N,08009.6972,W,1,11,1.3,17,M,,M,,*6B
06/10/2015	13:02:49.599	$GPGGA,130250,2528.0039,N,08009.6980,W,1,11,1.3,17,M,,M,,*60
06/10/2015	13:02:50.609	$GPGGA,130251,2528.0016,N,08009.6988,W,1,11,1.3,17,M,,M,,*64
06/10/2015	13:02:51.620	$GPGGA,130252,2527.9993,N,08009.6998,W,1,11,1.3,17,M,,M,,*64
06/10/2015	13:02:53.060	$GPGGA,130253,2527.9969,N,08009.7005,W,1,11,1.3,17,M,,M,,*6C
06/10/2015	13:02:53.600	$GPGGA,130254,2527.9946,N,08009.7014,W,1,11,1.3,17,M,,M,,*66
06/10/2015	13:02:54.610	$GPGGA,130255,2527.9922,N,08009.7023,W,1,11,1.3,17,M,,M,,*61
06/10/2015	13:02:55.630	$GPGGA,130256,2527.9899,N,08009.7032,W,1,11,1.3,17,M,,M,,*63
06/10/2015	13:02:56.580	$GPGGA,130257,2527.9876,N,08009.7041,W,1,11,1.3,17,M,,M,,*67
06/10/2015	13:02:57.609	$GPGGA,130258,2527.9854,N,08009.7049,W,1,11,1.3,17,M,,M,,*60
06/10/2015	13:02:58.579	$GPGGA,130259,2527.9830,N,08009.7059,W,1,11,1.3,17,M,,M,,*62
06/10/2015	13:02:59.649	$GPGGA,130300,2527.9807,N,08009.7067,W,1,11,1.3,17,M,,M,,*66
06/10/2015	13:03:00.590	$GPGGA,130301,2527.9783,N,08009.7077,W,1,11,1.3,17,M,,M,,*65
06/10/2015	13:03:01.589	$GPGGA,130302,2527.9760,N,08009.7085,W,1,11,1.3,17,M,,M,,*66
06/10/2015	13:03:04.109	$GPGGA,130304,2527.9714,N,08009.7103,W,1,11,1.3,17,M,,M,,*6C
06/10/2015	13:03:04.569	$GPGGA,130305,2527.9691,N,08009.7113,W,1,11,1.3,17,M,,M,,*60
06/10/2015	13:03:05.599	$GPGGA,130306,2527.9669,N,08009.7124,W,1,11,1.3,17,M,,M,,*60
06/10/2015	13:03:06.569	$GPGGA,130307,2527.9646,N,08009.7132,W,1,11,1.3,17,M,,M,,*6B
06/10/2015	13:03:07.619	$GPGGA,130308,2527.9624,N,08009.7142,W,1,10,1.4,17,M,,M,,*61
06/10/2015	13:03:08.580	$GPGGA,130309,2527.9601,N,08009.7153,W,1,10,1.3,17,M,,M,,*60
06/10/2015	13:03:09.560	$GPGGA,130310,2527.9579,N,08009.7162,W,1,11,1.3,17,M,,M,,*67
06/10/2015	13:03:10.570	$GPGGA,130311,2527.9556,N,08009.7172,W,1,11,1.3,17,M,,M,,*6A
06/10/2015	13:03:11.590	$GPGGA,130312,2527.9533,N,08009.7182,W,1,10,1.4,17,M,,M,,*63
06/10/2015	13:03:12.550	$GPGGA,130313,2527.9510,N,08009.7193,W,1,10,1.3,17,M,,M,,*64
06/10/2015	13:03:13.590	$GPGGA,130314,2527.9489,N,08009.7204,W,1,10,1.4,17,M,,M,,*68
06/10/2015	13:03:14.559	$GPGGA,130315,2527.9465,N,08009.7214,W,1,10,1.3,17,M,,M,,*6D
06/10/2015	13:03:15.569	$GPGGA,130316,2527.9442,N,08009.7225,W,1,11,1.3,17,M,,M,,*68
06/10/2015	13:03:16.539	$GPGGA,130317,2527.9420,N,08009.7234,W,1,11,1.3,17,M,,M,,*6D
06/10/2015	13:03:17.569	$GPGGA,130318,2527.9398,N,08009.7245,W,1,11,1.3,17,M,,M,,*60
06/10/2015	13:03:18.549	$GPGGA,130319,2527.9375,N,08009.7255,W,1,11,1.3,17,M,,M,,*63
06/10/2015	13:03:19.719	$GPGGA,130320,2527.9353,N,08009.7265,W,1,11,1.3,17,M,,M,,*6E
06/10/2015	13:03:20.549	$GPGGA,130321,2527.9331,N,08009.7276,W,1,11,1.3,17,M,,M,,*69
06/10/2015	13:03:21.539	$GPGGA,130322,2527.9308,N,08009.7287,W,1,11,1.3,17,M,,M,,*6E
06/10/2015	13:03:22.699	$GPGGA,130323,2527.9286,N,08009.7298,W,1,11,1.3,17,M,,M,,*66
06/10/2015	13:03:23.709	$GPGGA,130324,2527.9265,N,08009.7309,W,1,11,1.3,17,M,,M,,*65
06/10/2015	13:03:24.719	$GPGGA,130325,2527.9241,N,08009.7319,W,1,11,1.3,17,M,,M,,*63
06/10/2015	13:03:25.549	$GPGGA,130326,2527.9219,N,08009.7330,W,1,11,1.3,17,M,,M,,*66
06/10/2015	13:03:26.690	$GPGGA,130327,2527.9197,N,08009.7339,W,1,11,1.3,17,M,,M,,*6B
06/10/2015	13:03:27.700	$GPGGA,130328,2527.9175,N,08009.7350,W,1,11,1.3,17,M,,M,,*67
06/10/2015	13:03:28.540	$GPGGA,130329,2527.9153,N,08009.7360,W,1,11,1.3,17,M,,M,,*61
06/10/2015	13:03:29.690	$GPGGA,130330,2527.9131,N,08009.7371,W,1,11,1.3,17,M,,M,,*6D
06/10/2015	13:03:30.680	$GPGGA,130331,2527.9109,N,08009.7381,W,1,11,1.3,17,M,,M,,*68
06/10/2015	13:03:31.689	$GPGGA,130332,2527.9086,N,08009.7392,W,1,11,1.3,17,M,,M,,*6F
06/10/2015	13:03:32.529	$GPGGA,130333,2527.9064,N,08009.7402,W,1,11,1.3,17,M,,M,,*6C
06/10/2015	13:03:33.669	$GPGGA,130334,2527.9042,N,08009.7413,W,1,11,1.3,17,M,,M,,*6F
06/10/2015	13:03:34.699	$GPGGA,130335,2527.9019,N,08009.7424,W,1,11,1.3,17,M,,M,,*64
06/10/2015	13:03:35.699	$GPGGA,130336,2527.8996,N,08009.7435,W,1,11,1.3,17,M,,M,,*68
06/10/2015	13:03:36.599	$GPGGA,130337,2527.8974,N,08009.7444,W,1,11,1.3,17,M,,M,,*63
06/10/2015	13:03:37.599	$GPGGA,130338,2527.8951,N,08009.7456,W,1,11,1.3,17,M,,M,,*68
06/10/2015	13:03:38.669	$GPGGA,130339,2527.8929,N,08009.7465,W,1,11,1.3,17,M,,M,,*66
06/10/2015	13:03:39.699	$GPGGA,130340,2527.8907,N,08009.7475,W,1,11,1.3,17,M,,M,,*65
06/10/2015	13:03:40.589	$GPGGA,130341,2527.8884,N,08009.7486,W,1,11,1.3,17,M,,M,,*62
06/10/2015	13:03:41.679	$GPGGA,130342,2527.8862,N,08009.7496,W,1,11,1.3,17,M,,M,,*68
06/10/2015	13:03:43.079	$GPGGA,130343,2527.8839,N,08009.7505,W,1,11,1.3,17,M,,M,,*6C
06/10/2015	13:03:43.690	$GPGGA,130344,2527.8817,N,08009.7514,W,1,11,1.3,17,M,,M,,*67
06/10/2015	13:03:44.690	$GPGGA,130345,2527.8795,N,08009.7525,W,1,11,1.3,17,M,,M,,*61
06/10/2015	13:03:45.610	$GPGGA,130346,2527.8772,N,08009.7534,W,1,11,1.3,17,M,,M,,*6B
06/10/2015	13:03:46.660	$GPGGA,130347,2527.8750,N,08009.7543,W,1,11,1.3,17,M,,M,,*6A
06/10/2015	13:03:47.670	$GPGGA,130348,2527.8727,N,08009.7554,W,1,11,1.4,17,M,,M,,*64
06/10/2015	13:03:48.660	$GPGGA,130349,2527.8705,N,08009.7561,W,1,11,1.4,17,M,,M,,*63
06/10/2015	13:03:49.679	$GPGGA,130350,2527.8682,N,08009.7570,W,1,11,1.4,17,M,,M,,*65
06/10/2015	13:03:50.639	$GPGGA,130351,2527.8659,N,08009.7579,W,1,11,1.4,17,M,,M,,*6B
06/10/2015	13:03:51.619	$GPGGA,130352,2527.8636,N,08009.7590,W,1,10,1.3,17,M,,M,,*60
06/10/2015	13:03:52.639	$GPGGA,130353,2527.8613,N,08009.7598,W,1,10,1.3,17,M,,M,,*6E
06/10/2015	13:03:53.599	$GPGGA,130354,2527.8590,N,08009.7605,W,1,11,1.3,17,M,,M,,*67
06/10/2015	13:03:54.649	$GPGGA,130355,2527.8568,N,08009.7613,W,1,11,1.3,17,M,,M,,*66
06/10/2015	13:03:55.569	$GPGGA,130356,2527.8543,N,08009.7623,W,1,10,1.4,17,M,,M,,*69
06/10/2015	13:03:56.619	$GPGGA,130357,2527.8521,N,08009.7630,W,1,10,1.3,17,M,,M,,*69
06/10/2015	13:03:57.619	$GPGGA,130358,2527.8496,N,08009.7639,W,1,11,1.3,17,M,,M,,*63
06/10/2015	13:03:58.619	$GPGGA,130359,2527.8474,N,08009.7648,W,1,11,1.3,17,M,,M,,*68
06/10/2015	13:03:59.689	$GPGGA,130400,2527.8450,N,08009.7656,W,1,11,1.3,18,M,,M,,*65
06/10/2015	13:04:00.619	$GPGGA,130401,2527.8427,N,08009.7666,W,1,11,1.3,18,M,,M,,*67
06/10/2015	13:04:01.610	$GPGGA,130402,2527.8405,N,08009.7673,W,1,11,1.3,18,M,,M,,*60
06/10/2015	13:04:02.620	$GPGGA,130403,2527.8381,N,08009.7682,W,1,11,1.3,18,M,,M,,*64
06/10/2015	13:04:03.610	$GPGGA,130404,2527.8358,N,08009.7691,W,1,11,1.3,18,M,,M,,*65
06/10/2015	13:04:04.540	$GPGGA,130405,2527.8334,N,08009.7699,W,1,11,1.3,18,M,,M,,*66
06/10/2015	13:04:05.590	$GPGGA,130406,2527.8311,N,08009.7707,W,1,11,1.3,18,M,,M,,*64
06/10/2015	13:04:06.540	$GPGGA,130407,2527.8287,N,08009.7714,W,1,11,1.3,18,M,,M,,*69
06/10/2015	13:04:07.549	$GPGGA,130408,2527.8264,N,08009.7724,W,1,11,1.3,18,M,,M,,*68
06/10/2015	13:04:08.669	$GPGGA,130409,2527.8241,N,08009.7731,W,1,11,1.3,18,M,,M,,*6A
06/10/2015	13:04:09.529	$GPGGA,130410,2527.8218,N,08009.7740,W,1,11,1.3,18,M,,M,,*68
06/10/2015	13:04:10.529	$GPGGA,130411,2527.8194,N,08009.7749,W,1,11,1.3,18,M,,M,,*67
06/10/2015	13:04:11.669	$GPGGA,130412,2527.8171,N,08009.7757,W,1,11,1.3,19,M,,M,,*61
06/10/2015	13:04:12.609	$GPGGA,130413,2527.8148,N,08009.7767,W,1,11,1.3,19,M,,M,,*69
06/10/2015	13:04:13.629	$GPGGA,130414,2527.8125,N,08009.7775,W,1,11,1.3,19,M,,M,,*66
06/10/2015	13:04:14.599	$GPGGA,130415,2527.8102,N,08009.7783,W,1,11,1.3,19,M,,M,,*6B
06/10/2015	13:04:15.599	$GPGGA,130416,2527.8080,N,08009.7793,W,1,11,1.3,19,M,,M,,*62
06/10/2015	13:04:16.579	$GPGGA,130417,2527.8056,N,08009.7801,W,1,11,1.3,19,M,,M,,*6C
06/10/2015	13:04:17.659	$GPGGA,130418,2527.8033,N,08009.7812,W,1,11,1.3,19,M,,M,,*62
06/10/2015	13:04:18.630	$GPGGA,130419,2527.8011,N,08009.7822,W,1,11,1.3,19,M,,M,,*60
06/10/2015	13:04:19.670	$GPGGA,130420,2527.7988,N,08009.7832,W,1,11,1.3,19,M,,M,,*6D
06/10/2015	13:04:20.620	$GPGGA,130421,2527.7965,N,08009.7840,W,1,11,1.3,19,M,,M,,*6A
06/10/2015	13:04:21.640	$GPGGA,130422,2527.7943,N,08009.7850,W,1,11,1.3,19,M,,M,,*6C
06/10/2015	13:04:22.620	$GPGGA,130423,2527.7921,N,08009.7858,W,1,11,1.4,19,M,,M,,*66
06/10/2015	13:04:23.630	$GPGGA,130424,2527.7897,N,08009.7868,W,1,10,1.3,19,M,,M,,*68
06/10/2015	13:04:24.589	$GPGGA,130425,2527.7874,N,08009.7877,W,1,10,1.4,19,M,,M,,*6D
06/10/2015	13:04:25.499	$GPGGA,130426,2527.7852,N,08009.7887,W,1,10,1.4,19,M,,M,,*65
06/10/2015	13:04:26.569	$GPGGA,130427,2527.7829,N,08009.7897,W,1,10,1.4,19,M,,M,,*69
06/10/2015	13:04:27.599	$GPGGA,130428,2527.7806,N,08009.7906,W,1,10,1.3,19,M,,M,,*65
06/10/2015	13:04:28.599	$GPGGA,130429,2527.7784,N,08009.7917,W,1,10,1.3,19,M,,M,,*61
06/10/2015	13:04:29.619	$GPGGA,130430,2527.7784,N,08009.7917,W,1,11,1.3,19,M,,M,,*68
06/10/2015	13:04:30.589	$GPGGA,130431,2527.7737,N,08009.7937,W,1,11,1.3,19,M,,M,,*63
06/10/2015	13:04:31.619	$GPGGA,130432,2527.7715,N,08009.7948,W,1,11,1.3,19,M,,M,,*68
06/10/2015	13:04:32.629	$GPGGA,130433,2527.7691,N,08009.7959,W,1,11,1.3,19,M,,M,,*64
06/10/2015	13:04:33.609	$GPGGA,130434,2527.7669,N,08009.7969,W,1,11,1.3,19,M,,M,,*67
06/10/2015	13:04:34.599	$GPGGA,130435,2527.7646,N,08009.7980,W,1,11,1.3,19,M,,M,,*6C
06/10/2015	13:04:35.609	$GPGGA,130436,2527.7625,N,08009.7989,W,1,11,1.3,19,M,,M,,*63
06/10/2015	13:04:36.610	$GPGGA,130437,2527.7603,N,08009.8000,W,1,11,1.3,19,M,,M,,*61
06/10/2015	13:04:37.600	$GPGGA,130438,2527.7579,N,08009.8010,W,1,11,1.3,19,M,,M,,*61
06/10/2015	13:04:38.580	$GPGGA,130439,2527.7556,N,08009.8021,W,1,11,1.3,19,M,,M,,*6F
06/10/2015	13:04:39.610	$GPGGA,130440,2527.7534,N,08009.8033,W,1,11,1.3,19,M,,M,,*66
06/10/2015	13:04:40.570	$GPGGA,130441,2527.7513,N,08009.8043,W,1,11,1.3,19,M,,M,,*65
06/10/2015	13:04:41.569	$GPGGA,130442,2527.7488,N,08009.8054,W,1,11,1.3,19,M,,M,,*63
06/10/2015	13:04:42.579	$GPGGA,130443,2527.7466,N,08009.8064,W,1,11,1.3,19,M,,M,,*61
06/10/2015	13:04:43.589	$GPGGA,130444,2527.7444,N,08009.8075,W,1,11,1.3,19,M,,M,,*66
06/10/2015	13:04:44.579	$GPGGA,130445,2527.7444,N,08009.8075,W,1,11,1.3,19,M,,M,,*67
06/10/2015	13:04:45.609	$GPGGA,130446,2527.7399,N,08009.8096,W,1,11,1.3,19,M,,M,,*6E
06/10/2015	13:04:46.589	$GPGGA,130447,2527.7376,N,08009.8107,W,1,11,1.3,19,M,,M,,*67
06/10/2015	13:04:48.569	$GPGGA,130449,2527.7354,N,08009.8118,W,1,11,1.3,19,M,,M,,*67
06/10/2015	13:04:49.599	$GPGGA,130450,2527.7309,N,08009.8139,W,1,11,1.3,19,M,,M,,*64
06/10/2015	13:04:50.569	$GPGGA,130451,2527.7309,N,08009.8139,W,1,11,1.3,19,M,,M,,*65
06/10/2015	13:04:51.559	$GPGGA,130452,2527.7264,N,08009.8161,W,1,11,1.3,18,M,,M,,*60
06/10/2015	13:04:52.549	$GPGGA,130453,2527.7264,N,08009.8161,W,1,11,1.3,18,M,,M,,*61
06/10/2015	13:04:53.651	$GPGGA,130454,2527.7220,N,08009.8183,W,1,11,1.3,18,M,,M,,*6A
06/10/2015	13:04:54.600	$GPGGA,130455,2527.7220,N,08009.8183,W,1,11,1.3,18,M,,M,,*6B
06/10/2015	13:04:55.670	$GPGGA,130456,2527.7174,N,08009.8204,W,1,11,1.3,18,M,,M,,*66
06/10/2015	13:04:56.560	$GPGGA,130457,2527.7174,N,08009.8204,W,1,11,1.3,18,M,,M,,*67
06/10/2015	13:04:57.540	$GPGGA,130458,2527.7130,N,08009.8224,W,1,11,1.3,18,M,,M,,*6A
06/10/2015	13:04:58.580	$GPGGA,130459,2527.7106,N,08009.8234,W,1,11,1.3,18,M,,M,,*6F
06/10/2015	13:04:59.599	$GPGGA,130500,2527.7084,N,08009.8244,W,1,11,1.3,18,M,,M,,*6E
06/10/2015	13:05:00.650	$GPGGA,130501,2527.7061,N,08009.8255,W,1,11,1.3,18,M,,M,,*64
06/10/2015	13:05:01.539	$GPGGA,130502,2527.7039,N,08009.8264,W,1,11,1.3,18,M,,M,,*68
06/10/2015	13:05:02.540	$GPGGA,130503,2527.7039,N,08009.8264,W,1,11,1.3,18,M,,M,,*69
06/10/2015	13:05:03.669	$GPGGA,130504,2527.6993,N,08009.8284,W,1,11,1.3,18,M,,M,,*68
06/10/2015	13:05:04.649	$GPGGA,130505,2527.6971,N,08009.8293,W,1,11,1.3,18,M,,M,,*63
06/10/2015	13:05:05.629	$GPGGA,130506,2527.6949,N,08009.8303,W,1,11,1.3,18,M,,M,,*63
06/10/2015	13:05:06.620	$GPGGA,130507,2527.6926,N,08009.8313,W,1,11,1.3,18,M,,M,,*6A
06/10/2015	13:05:07.629	$GPGGA,130508,2527.6903,N,08009.8321,W,1,11,1.3,18,M,,M,,*63
06/10/2015	13:05:08.609	$GPGGA,130509,2527.6880,N,08009.8331,W,1,11,1.3,18,M,,M,,*69
06/10/2015	13:05:09.639	$GPGGA,130510,2527.6857,N,08009.8340,W,1,11,1.3,18,M,,M,,*6D
06/10/2015	13:05:10.609	$GPGGA,130511,2527.6835,N,08009.8349,W,1,11,1.3,18,M,,M,,*61
06/10/2015	13:05:11.640	$GPGGA,130512,2527.6812,N,08009.8358,W,1,10,1.4,18,M,,M,,*61
06/10/2015	13:05:12.610	$GPGGA,130513,2527.6787,N,08009.8367,W,1,10,1.3,18,M,,M,,*68
06/10/2015	13:05:13.510	$GPGGA,130514,2527.6765,N,08009.8376,W,1,11,1.3,18,M,,M,,*62
06/10/2015	13:05:14.610	$GPGGA,130515,2527.6742,N,08009.8385,W,1,11,1.4,18,M,,M,,*6D
06/10/2015	13:05:15.630	$GPGGA,130516,2527.6718,N,08009.8393,W,1,11,1.3,18,M,,M,,*61
06/10/2015	13:05:16.599	$GPGGA,130517,2527.6696,N,08009.8403,W,1,11,1.3,18,M,,M,,*69
06/10/2015	13:05:17.609	$GPGGA,130518,2527.6673,N,08009.8411,W,1,11,1.3,18,M,,M,,*6E
06/10/2015	13:05:18.599	$GPGGA,130519,2527.6650,N,08009.8419,W,1,11,1.3,18,M,,M,,*66
06/10/2015	13:05:19.639	$GPGGA,130520,2527.6628,N,08009.8428,W,1,11,1.3,17,M,,M,,*6E
06/10/2015	13:05:20.589	$GPGGA,130521,2527.6604,N,08009.8437,W,1,11,1.3,17,M,,M,,*6F
06/10/2015	13:05:21.589	$GPGGA,130522,2527.6581,N,08009.8446,W,1,11,1.3,17,M,,M,,*64
06/10/2015	13:05:22.589	$GPGGA,130523,2527.6557,N,08009.8454,W,1,11,1.3,17,M,,M,,*6D
06/10/2015	13:05:23.609	$GPGGA,130524,2527.6534,N,08009.8464,W,1,11,1.3,17,M,,M,,*6C
06/10/2015	13:05:24.609	$GPGGA,130525,2527.6512,N,08009.8472,W,1,11,1.3,17,M,,M,,*6E
06/10/2015	13:05:25.569	$GPGGA,130526,2527.6488,N,08009.8480,W,1,11,1.3,17,M,,M,,*62
06/10/2015	13:05:26.579	$GPGGA,130527,2527.6465,N,08009.8488,W,1,11,1.3,17,M,,M,,*68
06/10/2015	13:05:27.589	$GPGGA,130528,2527.6442,N,08009.8497,W,1,11,1.3,17,M,,M,,*6C
06/10/2015	13:05:28.580	$GPGGA,130529,2527.6420,N,08009.8506,W,1,11,1.3,17,M,,M,,*60
06/10/2015	13:05:29.570	$GPGGA,130530,2527.6397,N,08009.8515,W,1,11,1.3,17,M,,M,,*61
06/10/2015	13:05:30.560	$GPGGA,130531,2527.6375,N,08009.8523,W,1,11,1.3,17,M,,M,,*69
06/10/2015	13:05:31.570	$GPGGA,130532,2527.6351,N,08009.8533,W,1,11,1.3,17,M,,M,,*6D
06/10/2015	13:05:32.570	$GPGGA,130533,2527.6328,N,08009.8541,W,1,11,1.3,17,M,,M,,*67
06/10/2015	13:05:33.600	$GPGGA,130534,2527.6306,N,08009.8551,W,1,11,1.3,17,M,,M,,*6D
06/10/2015	13:05:34.549	$GPGGA,130535,2527.6282,N,08009.8560,W,1,11,1.3,17,M,,M,,*63
06/10/2015	13:05:35.579	$GPGGA,130536,2527.6259,N,08009.8569,W,1,11,1.3,17,M,,M,,*6F
06/10/2015	13:05:36.550	$GPGGA,130537,2527.6236,N,08009.8578,W,1,11,1.3,17,M,,M,,*67
06/10/2015	13:05:37.559	$GPGGA,130538,2527.6213,N,08009.8587,W,1,11,1.3,17,M,,M,,*6F
06/10/2015	13:05:38.539	$GPGGA,130539,2527.6189,N,08009.8596,W,1,11,1.3,17,M,,M,,*6E
06/10/2015	13:05:39.679	$GPGGA,130540,2527.6167,N,08009.8606,W,1,11,1.3,17,M,,M,,*6A
06/10/2015	13:05:40.569	$GPGGA,130541,2527.6144,N,08009.8616,W,1,11,1.3,17,M,,M,,*6B
06/10/2015	13:05:41.569	$GPGGA,130542,2527.6122,N,08009.8625,W,1,11,1.3,17,M,,M,,*68
06/10/2015	13:05:42.559	$GPGGA,130543,2527.6100,N,08009.8634,W,1,11,1.3,16,M,,M,,*68
06/10/2015	13:05:43.579	$GPGGA,130544,2527.6076,N,08009.8645,W,1,11,1.3,16,M,,M,,*69
06/10/2015	13:05:44.550	$GPGGA,130545,2527.6053,N,08009.8654,W,1,11,1.3,16,M,,M,,*6F
06/10/2015	13:05:45.539	$GPGGA,130546,2527.6031,N,08009.8663,W,1,11,1.3,16,M,,M,,*6C
06/10/2015	13:05:46.530	$GPGGA,130547,2527.6010,N,08009.8672,W,1,11,1.3,16,M,,M,,*6E
06/10/2015	13:05:47.650	$GPGGA,130548,2527.5988,N,08009.8682,W,1,10,1.4,16,M,,M,,*63
06/10/2015	13:05:48.553	$GPGGA,130549,2527.5965,N,08009.8690,W,1,10,1.4,16,M,,M,,*62
06/10/2015	13:05:49.520	$GPGGA,130550,2527.5943,N,08009.8699,W,1,11,1.3,16,M,,M,,*61
06/10/2015	13:05:50.540	$GPGGA,130551,2527.5921,N,08009.8710,W,1,11,1.3,16,M,,M,,*64
06/10/2015	13:05:51.539	$GPGGA,130552,2527.5900,N,08009.8718,W,1,11,1.3,16,M,,M,,*6C
06/10/2015	13:05:52.629	$GPGGA,130553,2527.5877,N,08009.8728,W,1,11,1.3,16,M,,M,,*6F
06/10/2015	13:05:53.650	$GPGGA,130554,2527.5854,N,08009.8739,W,1,11,1.3,16,M,,M,,*69
06/10/2015	13:05:54.629	$GPGGA,130555,2527.5833,N,08009.8748,W,1,11,1.3,16,M,,M,,*6F
06/10/2015	13:05:55.659	$GPGGA,130556,2527.5809,N,08009.8758,W,1,11,1.3,16,M,,M,,*64
06/10/2015	13:05:56.589	$GPGGA,130557,2527.5787,N,08009.8768,W,1,11,1.3,16,M,,M,,*6F
06/10/2015	13:05:58.599	$GPGGA,130559,2527.5742,N,08009.8790,W,1,11,1.3,16,M,,M,,*6F
06/10/2015	13:05:59.659	$GPGGA,130600,2527.5719,N,08009.8800,W,1,11,1.3,16,M,,M,,*68
06/10/2015	13:06:00.589	$GPGGA,130601,2527.5697,N,08009.8811,W,1,11,1.4,15,M,,M,,*6A
06/10/2015	13:06:01.609	$GPGGA,130602,2527.5675,N,08009.8822,W,1,11,1.3,15,M,,M,,*62
06/10/2015	13:06:02.579	$GPGGA,130603,2527.5653,N,08009.8833,W,1,11,1.3,15,M,,M,,*67
06/10/2015	13:06:03.599	$GPGGA,130604,2527.5631,N,08009.8844,W,1,11,1.3,15,M,,M,,*64
06/10/2015	13:06:04.599	$GPGGA,130605,2527.5609,N,08009.8853,W,1,11,1.3,15,M,,M,,*68
06/10/2015	13:06:05.599	$GPGGA,130606,2527.5587,N,08009.8865,W,1,11,1.3,15,M,,M,,*6B
06/10/2015	13:06:06.579	$GPGGA,130607,2527.5564,N,08009.8876,W,1,11,1.3,15,M,,M,,*65
06/10/2015	13:06:07.629	$GPGGA,130608,2527.5542,N,08009.8885,W,1,11,1.3,15,M,,M,,*62
06/10/2015	13:06:08.579	$GPGGA,130609,2527.5520,N,08009.8896,W,1,11,1.3,15,M,,M,,*65
06/10/2015	13:06:09.608	$GPGGA,130610,2527.5497,N,08009.8907,W,1,11,1.3,15,M,,M,,*69
06/10/2015	13:06:10.568	$GPGGA,130611,2527.5475,N,08009.8917,W,1,11,1.3,15,M,,M,,*65
06/10/2015	13:06:11.598	$GPGGA,130612,2527.5452,N,08009.8928,W,1,11,1.3,15,M,,M,,*6F
06/10/2015	13:06:12.568	$GPGGA,130613,2527.5430,N,08009.8939,W,1,11,1.3,15,M,,M,,*6A
06/10/2015	13:06:13.559	$GPGGA,130614,2527.5406,N,08009.8949,W,1,11,1.3,15,M,,M,,*6F
06/10/2015	13:06:14.569	$GPGGA,130615,2527.5385,N,08009.8960,W,1,11,1.4,15,M,,M,,*6E
06/10/2015	13:06:15.569	$GPGGA,130616,2527.5363,N,08009.8971,W,1,11,1.3,15,M,,M,,*62
06/10/2015	13:06:16.559	$GPGGA,130617,2527.5341,N,08009.8983,W,1,11,1.3,15,M,,M,,*6E
06/10/2015	13:06:17.569	$GPGGA,130618,2527.5320,N,08009.8995,W,1,11,1.3,15,M,,M,,*61
06/10/2015	13:06:18.549	$GPGGA,130619,2527.5298,N,08009.9006,W,1,11,1.3,15,M,,M,,*60
06/10/2015	13:06:19.579	$GPGGA,130620,2527.5275,N,08009.9017,W,1,11,1.3,15,M,,M,,*69
06/10/2015	13:06:20.539	$GPGGA,130621,2527.5252,N,08009.9026,W,1,11,1.3,15,M,,M,,*6F
06/10/2015	13:06:21.549	$GPGGA,130622,2527.5230,N,08009.9037,W,1,11,1.3,15,M,,M,,*68
06/10/2015	13:06:22.819	$GPGGA,130623,2527.5208,N,08009.9047,W,1,11,1.3,15,M,,M,,*65
06/10/2015	13:06:23.589	$GPGGA,130624,2527.5186,N,08009.9057,W,1,11,1.3,15,M,,M,,*66
06/10/2015	13:06:24.539	$GPGGA,130625,2527.5163,N,08009.9068,W,1,11,1.3,15,M,,M,,*60
06/10/2015	13:06:25.659	$GPGGA,130626,2527.5141,N,08009.9077,W,1,11,1.3,15,M,,M,,*6D
06/10/2015	13:06:26.528	$GPGGA,130627,2527.5118,N,08009.9089,W,1,11,1.3,15,M,,M,,*61
06/10/2015	13:06:27.568	$GPGGA,130628,2527.5096,N,08009.9098,W,1,11,1.3,15,M,,M,,*69
06/10/2015	13:06:28.528	$GPGGA,130629,2527.5074,N,08009.9108,W,1,11,1.3,15,M,,M,,*6C
06/10/2015	13:06:29.558	$GPGGA,130630,2527.5050,N,08009.9118,W,1,11,1.3,15,M,,M,,*63
06/10/2015	13:06:30.528	$GPGGA,130631,2527.5028,N,08009.9126,W,1,11,1.3,15,M,,M,,*60
06/10/2015	13:06:31.549	$GPGGA,130632,2527.5003,N,08009.9137,W,1,10,1.4,15,M,,M,,*6C
06/10/2015	13:06:32.639	$GPGGA,130633,2527.4980,N,08009.9147,W,1,10,1.3,15,M,,M,,*6E
06/10/2015	13:06:33.529	$GPGGA,130634,2527.4956,N,08009.9156,W,1,11,1.3,15,M,,M,,*63
06/10/2015	13:06:34.540	$GPGGA,130635,2527.4934,N,08009.9165,W,1,11,1.3,15,M,,M,,*66
06/10/2015	13:06:35.659	$GPGGA,130636,2527.4912,N,08009.9174,W,1,10,1.4,15,M,,M,,*67
06/10/2015	13:06:36.620	$GPGGA,130637,2527.4890,N,08009.9183,W,1,10,1.3,15,M,,M,,*62
06/10/2015	13:06:37.609	$GPGGA,130638,2527.4867,N,08009.9191,W,1,11,1.3,15,M,,M,,*67
06/10/2015	13:06:38.519	$GPGGA,130639,2527.4844,N,08009.9201,W,1,11,1.3,15,M,,M,,*6D
06/10/2015	13:06:39.649	$GPGGA,130640,2527.4821,N,08009.9209,W,1,11,1.3,15,M,,M,,*68
06/10/2015	13:06:40.609	$GPGGA,130641,2527.4797,N,08009.9219,W,1,11,1.3,15,M,,M,,*6A
06/10/2015	13:06:41.609	$GPGGA,130642,2527.4773,N,08009.9227,W,1,10,1.4,15,M,,M,,*68
06/10/2015	13:06:42.509	$GPGGA,130643,2527.4749,N,08009.9234,W,1,10,1.3,15,M,,M,,*65
06/10/2015	13:06:43.629	$GPGGA,130644,2527.4726,N,08009.9243,W,1,10,1.4,15,M,,M,,*6C
06/10/2015	13:06:44.508	$GPGGA,130645,2527.4703,N,08009.9252,W,1,10,1.4,15,M,,M,,*6A
06/10/2015	13:06:45.628	$GPGGA,130646,2527.4681,N,08009.9261,W,1,10,1.4,15,M,,M,,*62
06/10/2015	13:06:46.588	$GPGGA,130647,2527.4657,N,08009.9270,W,1,10,1.3,15,M,,M,,*6F
06/10/2015	13:06:47.598	$GPGGA,130648,2527.4634,N,08009.9279,W,1,11,1.3,15,M,,M,,*6D
06/10/2015	13:06:48.589	$GPGGA,130649,2527.4612,N,08009.9288,W,1,11,1.3,15,M,,M,,*66
06/10/2015	13:06:49.919	$GPGGA,130650,2527.4588,N,08009.9296,W,1,11,1.3,15,M,,M,,*61
06/10/2015	13:06:50.579	$GPGGA,130651,2527.4565,N,08009.9306,W,1,11,1.3,15,M,,M,,*6B
06/10/2015	13:06:51.599	$GPGGA,130652,2527.4541,N,08009.9314,W,1,11,1.3,15,M,,M,,*6D
06/10/2015	13:06:52.589	$GPGGA,130653,2527.4518,N,08009.9324,W,1,11,1.3,15,M,,M,,*63
06/10/2015	13:06:53.589	$GPGGA,130654,2527.4494,N,08009.9332,W,1,11,1.3,15,M,,M,,*66
06/10/2015	13:06:54.589	$GPGGA,130655,2527.4471,N,08009.9340,W,1,11,1.3,15,M,,M,,*69
06/10/2015	13:06:55.599	$GPGGA,130656,2527.4447,N,08009.9350,W,1,11,1.3,15,M,,M,,*6E
06/10/2015	13:06:56.579	$GPGGA,130657,2527.4424,N,08009.9358,W,1,11,1.3,15,M,,M,,*62
06/10/2015	13:06:57.589	$GPGGA,130658,2527.4402,N,08009.9368,W,1,11,1.3,15,M,,M,,*6A
06/10/2015	13:06:58.559	$GPGGA,130659,2527.4378,N,08009.9376,W,1,11,1.3,15,M,,M,,*6E
06/10/2015	13:06:59.619	$GPGGA,130700,2527.4355,N,08009.9386,W,1,11,1.3,15,M,,M,,*63
06/10/2015	13:07:00.559	$GPGGA,130701,2527.4331,N,08009.9394,W,1,11,1.3,15,M,,M,,*63
06/10/2015	13:07:01.558	$GPGGA,130702,2527.4308,N,08009.9404,W,1,11,1.3,15,M,,M,,*64
06/10/2015	13:07:02.558	$GPGGA,130703,2527.4285,N,08009.9411,W,1,11,1.3,15,M,,M,,*65
06/10/2015	13:07:03.558	$GPGGA,130704,2527.4261,N,08009.9422,W,1,11,1.3,15,M,,M,,*68
06/10/2015	13:07:04.558	$GPGGA,130705,2527.4238,N,08009.9430,W,1,11,1.3,15,M,,M,,*66
06/10/2015	13:07:05.588	$GPGGA,130706,2527.4215,N,08009.9440,W,1,11,1.3,15,M,,M,,*6D
06/10/2015	13:07:06.539	$GPGGA,130707,2527.4193,N,08009.9448,W,1,11,1.3,15,M,,M,,*69
06/10/2015	13:07:07.559	$GPGGA,130708,2527.4169,N,08009.9458,W,1,11,1.3,15,M,,M,,*62
06/10/2015	13:07:08.559	$GPGGA,130709,2527.4146,N,08009.9466,W,1,11,1.3,15,M,,M,,*63
06/10/2015	13:07:09.559	$GPGGA,130710,2527.4124,N,08009.9476,W,1,11,1.3,15,M,,M,,*6E
06/10/2015	13:07:10.549	$GPGGA,130711,2527.4100,N,08009.9485,W,1,11,1.3,15,M,,M,,*65
06/10/2015	13:07:11.559	$GPGGA,130712,2527.4077,N,08009.9494,W,1,11,1.3,15,M,,M,,*67
06/10/2015	13:07:12.649	$GPGGA,130713,2527.4054,N,08009.9505,W,1,11,1.3,15,M,,M,,*6E
06/10/2015	13:07:13.569	$GPGGA,130714,2527.4031,N,08009.9513,W,1,11,1.3,15,M,,M,,*6D
06/10/2015	13:07:14.529	$GPGGA,130715,2527.4008,N,08009.9523,W,1,11,1.4,15,M,,M,,*62
06/10/2015	13:07:15.549	$GPGGA,130716,2527.3987,N,08009.9532,W,1,11,1.3,15,M,,M,,*6F
06/10/2015	13:07:16.529	$GPGGA,130717,2527.3965,N,08009.9541,W,1,11,1.3,15,M,,M,,*66
06/10/2015	13:07:17.639	$GPGGA,130718,2527.3941,N,08009.9552,W,1,11,1.3,15,M,,M,,*6D
06/10/2015	13:07:18.519	$GPGGA,130719,2527.3918,N,08009.9560,W,1,11,1.4,15,M,,M,,*66
06/10/2015	13:07:19.638	$GPGGA,130720,2527.3893,N,08009.9570,W,1,11,1.3,15,M,,M,,*68
06/10/2015	13:07:20.539	$GPGGA,130721,2527.3871,N,08009.9581,W,1,11,1.3,15,M,,M,,*6B
06/10/2015	13:07:21.539	$GPGGA,130722,2527.3847,N,08009.9590,W,1,11,1.3,15,M,,M,,*6D
06/10/2015	13:07:22.528	$GPGGA,130723,2527.3824,N,08009.9599,W,1,11,1.3,15,M,,M,,*60
06/10/2015	13:07:23.669	$GPGGA,130724,2527.3800,N,08009.9608,W,1,11,1.3,15,M,,M,,*6A
06/10/2015	13:07:24.629	$GPGGA,130725,2527.3777,N,08009.9618,W,1,11,1.3,15,M,,M,,*65
06/10/2015	13:07:25.639	$GPGGA,130726,2527.3754,N,08009.9626,W,1,10,1.5,15,M,,M,,*6D
06/10/2015	13:07:26.599	$GPGGA,130727,2527.3731,N,08009.9636,W,1,10,1.3,15,M,,M,,*68
06/10/2015	13:07:27.649	$GPGGA,130728,2527.3708,N,08009.9646,W,1,10,1.4,15,M,,M,,*6D
06/10/2015	13:07:28.609	$GPGGA,130729,2527.3685,N,08009.9655,W,1,10,1.3,15,M,,M,,*6D
06/10/2015	13:07:29.659	$GPGGA,130730,2527.3661,N,08009.9664,W,1,11,1.3,15,M,,M,,*6C
06/10/2015	13:07:30.599	$GPGGA,130731,2527.3638,N,08009.9673,W,1,11,1.3,15,M,,M,,*67
06/10/2015	13:07:31.599	$GPGGA,130732,2527.3613,N,08009.9683,W,1,10,1.4,15,M,,M,,*64
06/10/2015	13:07:32.599	$GPGGA,130733,2527.3590,N,08009.9691,W,1,10,1.3,15,M,,M,,*69
06/10/2015	13:07:33.599	$GPGGA,130734,2527.3568,N,08009.9700,W,1,11,1.3,15,M,,M,,*61
06/10/2015	13:07:34.499	$GPGGA,130735,2527.3543,N,08009.9707,W,1,11,1.3,15,M,,M,,*6E
06/10/2015	13:07:35.509	$GPGGA,130736,2527.3521,N,08009.9715,W,1,10,1.4,16,M,,M,,*6F
06/10/2015	13:07:36.588	$GPGGA,130737,2527.3496,N,08009.9723,W,1,10,1.4,16,M,,M,,*66
06/10/2015	13:07:37.588	$GPGGA,130738,2527.3474,N,08009.9730,W,1,11,1.3,16,M,,M,,*61
06/10/2015	13:07:38.578	$GPGGA,130739,2527.3449,N,08009.9737,W,1,11,1.3,16,M,,M,,*69
06/10/2015	13:07:39.619	$GPGGA,130740,2527.3425,N,08009.9744,W,1,11,1.3,16,M,,M,,*69
06/10/2015	13:07:40.568	$GPGGA,130741,2527.3401,N,08009.9751,W,1,11,1.3,16,M,,M,,*6A
06/10/2015	13:07:41.589	$GPGGA,130742,2527.3378,N,08009.9756,W,1,11,1.3,16,M,,M,,*67
06/10/2015	13:07:42.579	$GPGGA,130743,2527.3354,N,08009.9762,W,1,11,1.4,16,M,,M,,*68
06/10/2015	13:07:43.629	$GPGGA,130744,2527.3331,N,08009.9769,W,1,11,1.3,16,M,,M,,*60
06/10/2015	13:07:44.589	$GPGGA,130745,2527.3307,N,08009.9773,W,1,11,1.3,16,M,,M,,*6F
06/10/2015	13:07:45.599	$GPGGA,130746,2527.3283,N,08009.9780,W,1,11,1.3,16,M,,M,,*6D
06/10/2015	13:07:46.569	$GPGGA,130747,2527.3258,N,08009.9784,W,1,11,1.3,17,M,,M,,*6F
06/10/2015	13:07:47.569	$GPGGA,130748,2527.3234,N,08009.9790,W,1,11,1.3,17,M,,M,,*6F
06/10/2015	13:07:48.569	$GPGGA,130749,2527.3210,N,08009.9794,W,1,11,1.4,17,M,,M,,*6B
06/10/2015	13:07:49.589	$GPGGA,130750,2527.3185,N,08009.9799,W,1,10,1.4,17,M,,M,,*60
06/10/2015	13:07:50.569	$GPGGA,130751,2527.3163,N,08009.9803,W,1,10,1.5,17,M,,M,,*64
06/10/2015	13:07:51.579	$GPGGA,130752,2527.3139,N,08009.9808,W,1,11,1.3,17,M,,M,,*64
06/10/2015	13:07:52.549	$GPGGA,130753,2527.3117,N,08009.9812,W,1,11,1.3,17,M,,M,,*62
06/10/2015	13:07:53.579	$GPGGA,130754,2527.3094,N,08009.9816,W,1,10,1.4,17,M,,M,,*6D
06/10/2015	13:07:54.568	$GPGGA,130755,2527.3071,N,08009.9819,W,1,10,1.4,17,M,,M,,*68
06/10/2015	13:07:55.558	$GPGGA,130756,2527.3045,N,08009.9823,W,1,10,1.4,18,M,,M,,*6A
06/10/2015	13:07:56.538	$GPGGA,130757,2527.3022,N,08009.9827,W,1,10,1.3,18,M,,M,,*69
06/10/2015	13:07:57.548	$GPGGA,130758,2527.2997,N,08009.9830,W,1,11,1.3,18,M,,M,,*67
06/10/2015	13:07:58.549	$GPGGA,130759,2527.2973,N,08009.9834,W,1,11,1.3,18,M,,M,,*68
06/10/2015	13:07:59.619	$GPGGA,130800,2527.2948,N,08009.9837,W,1,11,1.3,18,M,,M,,*60
06/10/2015	13:08:00.549	$GPGGA,130801,2527.2924,N,08009.9841,W,1,11,1.3,18,M,,M,,*6A
06/10/2015	13:08:01.529	$GPGGA,130802,2527.2900,N,08009.9842,W,1,11,1.3,19,M,,M,,*6D
06/10/2015	13:08:02.539	$GPGGA,130803,2527.2876,N,08009.9845,W,1,11,1.3,19,M,,M,,*6B
06/10/2015	13:08:03.559	$GPGGA,130804,2527.2851,N,08009.9848,W,1,11,1.3,19,M,,M,,*64
06/10/2015	13:08:04.539	$GPGGA,130805,2527.2827,N,08009.9849,W,1,11,1.3,19,M,,M,,*65
06/10/2015	13:08:05.629	$GPGGA,130806,2527.2803,N,08009.9850,W,1,11,1.3,19,M,,M,,*68
06/10/2015	13:08:06.529	$GPGGA,130807,2527.2778,N,08009.9852,W,1,11,1.3,19,M,,M,,*68
06/10/2015	13:08:07.549	$GPGGA,130808,2527.2755,N,08009.9853,W,1,11,1.3,19,M,,M,,*69
06/10/2015	13:08:08.519	$GPGGA,130809,2527.2729,N,08009.9855,W,1,11,1.3,20,M,,M,,*6F
06/10/2015	13:08:09.949	$GPGGA,130810,2527.2705,N,08009.9855,W,1,10,1.3,20,M,,M,,*68
06/10/2015	13:08:10.619	$GPGGA,130811,2527.2681,N,08009.9856,W,1,10,1.3,20,M,,M,,*67
06/10/2015	13:08:12.539	$GPGGA,130813,2527.2633,N,08009.9857,W,1,11,1.3,20,M,,M,,*6C
06/10/2015	13:08:13.618	$GPGGA,130814,2527.2610,N,08009.9857,W,1,10,1.4,20,M,,M,,*6C
06/10/2015	13:08:14.518	$GPGGA,130815,2527.2585,N,08009.9857,W,1,10,1.4,20,M,,M,,*62
06/10/2015	13:08:15.508	$GPGGA,130816,2527.2561,N,08009.9857,W,1,10,1.4,20,M,,M,,*6B
06/10/2015	13:08:16.609	$GPGGA,130817,2527.2536,N,08009.9859,W,1,10,1.3,20,M,,M,,*61
06/10/2015	13:08:17.599	$GPGGA,130818,2527.2511,N,08009.9858,W,1,11,1.3,20,M,,M,,*6B
06/10/2015	13:08:18.599	$GPGGA,130819,2527.2487,N,08009.9859,W,1,11,1.3,20,M,,M,,*65
06/10/2015	13:08:19.629	$GPGGA,130820,2527.2462,N,08009.9858,W,1,11,1.3,20,M,,M,,*65
06/10/2015	13:08:20.589	$GPGGA,130821,2527.2438,N,08009.9857,W,1,11,1.3,20,M,,M,,*64
06/10/2015	13:08:21.599	$GPGGA,130822,2527.2413,N,08009.9857,W,1,11,1.3,20,M,,M,,*6E
06/10/2015	13:08:22.599	$GPGGA,130823,2527.2390,N,08009.9856,W,1,11,1.3,20,M,,M,,*62
06/10/2015	13:08:23.619	$GPGGA,130824,2527.2365,N,08009.9856,W,1,11,1.4,20,M,,M,,*68
06/10/2015	13:08:24.609	$GPGGA,130825,2527.2341,N,08009.9855,W,1,11,1.3,20,M,,M,,*6B
06/10/2015	13:08:25.609	$GPGGA,130826,2527.2316,N,08009.9854,W,1,11,1.3,20,M,,M,,*6B
06/10/2015	13:08:26.579	$GPGGA,130827,2527.2292,N,08009.9853,W,1,11,1.3,20,M,,M,,*60
06/10/2015	13:08:27.609	$GPGGA,130828,2527.2268,N,08009.9851,W,1,11,1.3,20,M,,M,,*68
06/10/2015	13:08:28.569	$GPGGA,130829,2527.2243,N,08009.9850,W,1,11,1.3,20,M,,M,,*61
06/10/2015	13:08:29.618	$GPGGA,130830,2527.2220,N,08009.9849,W,1,11,1.3,20,M,,M,,*64
06/10/2015	13:08:30.568	$GPGGA,130831,2527.2195,N,08009.9847,W,1,11,1.3,20,M,,M,,*66
06/10/2015	13:08:31.598	$GPGGA,130832,2527.2170,N,08009.9846,W,1,11,1.3,20,M,,M,,*6F
06/10/2015	13:08:32.598	$GPGGA,130833,2527.2145,N,08009.9844,W,1,11,1.3,20,M,,M,,*6A
06/10/2015	13:08:33.569	$GPGGA,130834,2527.2121,N,08009.9843,W,1,11,1.3,20,M,,M,,*68
06/10/2015	13:08:34.569	$GPGGA,130835,2527.2096,N,08009.9842,W,1,11,1.3,20,M,,M,,*65
06/10/2015	13:08:35.609	$GPGGA,130836,2527.2072,N,08009.9840,W,1,11,1.3,20,M,,M,,*6E
06/10/2015	13:08:36.559	$GPGGA,130837,2527.2048,N,08009.9839,W,1,11,1.3,20,M,,M,,*68
06/10/2015	13:08:37.549	$GPGGA,130838,2527.2025,N,08009.9838,W,1,11,1.3,20,M,,M,,*6D
06/10/2015	13:08:38.559	$GPGGA,130839,2527.2000,N,08009.9836,W,1,11,1.4,20,M,,M,,*62
06/10/2015	13:08:39.629	$GPGGA,130840,2527.1975,N,08009.9835,W,1,10,1.3,20,M,,M,,*61
06/10/2015	13:08:40.579	$GPGGA,130841,2527.1951,N,08009.9834,W,1,10,1.3,20,M,,M,,*67
06/10/2015	13:08:41.569	$GPGGA,130842,2527.1927,N,08009.9834,W,1,11,1.3,20,M,,M,,*64
06/10/2015	13:08:42.539	$GPGGA,130843,2527.1903,N,08009.9834,W,1,11,1.3,19,M,,M,,*69
06/10/2015	13:08:43.589	$GPGGA,130844,2527.1878,N,08009.9832,W,1,11,1.3,19,M,,M,,*65
06/10/2015	13:08:44.589	$GPGGA,130845,2527.1855,N,08009.9831,W,1,11,1.3,19,M,,M,,*68
06/10/2015	13:08:45.549	$GPGGA,130846,2527.1830,N,08009.9829,W,1,11,1.3,19,M,,M,,*61
06/10/2015	13:08:47.099	$GPGGA,130847,2527.1806,N,08009.9828,W,1,11,1.3,19,M,,M,,*64
06/10/2015	13:08:47.598	$GPGGA,130848,2527.1781,N,08009.9827,W,1,11,1.3,19,M,,M,,*64
06/10/2015	13:08:48.538	$GPGGA,130849,2527.1758,N,08009.9825,W,1,11,1.4,19,M,,M,,*64
06/10/2015	13:08:49.658	$GPGGA,130850,2527.1732,N,08009.9822,W,1,10,1.3,19,M,,M,,*61
06/10/2015	13:08:50.558	$GPGGA,130851,2527.1708,N,08009.9819,W,1,10,1.3,19,M,,M,,*61
06/10/2015	13:08:51.569	$GPGGA,130852,2527.1683,N,08009.9817,W,1,11,1.3,18,M,,M,,*6E
06/10/2015	13:08:52.539	$GPGGA,130853,2527.1683,N,08009.9817,W,1,11,1.3,18,M,,M,,*6F
06/10/2015	13:08:53.639	$GPGGA,130854,2527.1635,N,08009.9814,W,1,11,1.3,18,M,,M,,*66
06/10/2015	13:08:54.619	$GPGGA,130855,2527.1610,N,08009.9813,W,1,11,1.4,18,M,,M,,*60
06/10/2015	13:08:55.579	$GPGGA,130856,2527.1585,N,08009.9812,W,1,10,1.3,18,M,,M,,*6B
06/10/2015	13:08:56.609	$GPGGA,130857,2527.1561,N,08009.9811,W,1,10,1.3,18,M,,M,,*63
06/10/2015	13:08:57.629	$GPGGA,130858,2527.1536,N,08009.9809,W,1,11,1.3,18,M,,M,,*66
06/10/2015	13:08:58.529	$GPGGA,130859,2527.1512,N,08009.9808,W,1,11,1.3,18,M,,M,,*60
06/10/2015	13:08:59.659	$GPGGA,130900,2527.1488,N,08009.9807,W,1,11,1.3,18,M,,M,,*60
06/10/2015	13:09:00.541	$GPGGA,130901,2527.1463,N,08009.9806,W,1,11,1.3,18,M,,M,,*65
06/10/2015	13:09:01.619	$GPGGA,130902,2527.1440,N,08009.9805,W,1,11,1.3,18,M,,M,,*64
06/10/2015	13:09:02.599	$GPGGA,130903,2527.1414,N,08009.9804,W,1,11,1.3,18,M,,M,,*65
06/10/2015	13:09:03.629	$GPGGA,130904,2527.1390,N,08009.9805,W,1,11,1.3,18,M,,M,,*68
06/10/2015	13:09:04.608	$GPGGA,130905,2527.1366,N,08009.9804,W,1,11,1.3,18,M,,M,,*61
06/10/2015	13:09:05.598	$GPGGA,130906,2527.1342,N,08009.9803,W,1,10,1.4,18,M,,M,,*65
06/10/2015	13:09:06.598	$GPGGA,130907,2527.1317,N,08009.9803,W,1,10,1.4,18,M,,M,,*64
06/10/2015	13:09:07.598	$GPGGA,130908,2527.1292,N,08009.9803,W,1,10,1.4,18,M,,M,,*67
06/10/2015	13:09:08.590	$GPGGA,130909,2527.1267,N,08009.9805,W,1,10,1.3,18,M,,M,,*6D
06/10/2015	13:09:09.610	$GPGGA,130910,2527.1242,N,08009.9804,W,1,11,1.3,17,M,,M,,*6D
06/10/2015	13:09:10.579	$GPGGA,130911,2527.1217,N,08009.9805,W,1,11,1.3,17,M,,M,,*6D
06/10/2015	13:09:11.629	$GPGGA,130912,2527.1191,N,08009.9805,W,1,10,1.4,17,M,,M,,*65
06/10/2015	13:09:12.599	$GPGGA,130913,2527.1166,N,08009.9805,W,1,10,1.3,17,M,,M,,*6B
06/10/2015	13:09:13.589	$GPGGA,130914,2527.1142,N,08009.9806,W,1,11,1.3,17,M,,M,,*68
06/10/2015	13:09:14.569	$GPGGA,130915,2527.1117,N,08009.9808,W,1,11,1.3,17,M,,M,,*67
06/10/2015	13:09:15.599	$GPGGA,130916,2527.1093,N,08009.9809,W,1,11,1.3,17,M,,M,,*68
06/10/2015	13:09:16.579	$GPGGA,130917,2527.1069,N,08009.9809,W,1,11,1.3,17,M,,M,,*6C
06/10/2015	13:09:17.579	$GPGGA,130918,2527.1046,N,08009.9810,W,1,11,1.3,17,M,,M,,*66
06/10/2015	13:09:18.569	$GPGGA,130919,2527.1022,N,08009.9812,W,1,11,1.3,17,M,,M,,*67
06/10/2015	13:09:19.599	$GPGGA,130920,2527.0999,N,08009.9813,W,1,11,1.3,17,M,,M,,*64
06/10/2015	13:09:20.569	$GPGGA,130921,2527.0974,N,08009.9814,W,1,11,1.3,17,M,,M,,*61
06/10/2015	13:09:21.578	$GPGGA,130922,2527.0950,N,08009.9816,W,1,11,1.3,17,M,,M,,*66
06/10/2015	13:09:23.578	$GPGGA,130923,2527.0925,N,08009.9816,W,1,11,1.3,17,M,,M,,*65
06/10/2015	13:09:23.608	$GPGGA,130924,2527.0901,N,08009.9817,W,1,11,1.3,17,M,,M,,*65
06/10/2015	13:09:24.558	$GPGGA,130925,2527.0877,N,08009.9819,W,1,11,1.3,17,M,,M,,*6A
06/10/2015	13:09:25.558	$GPGGA,130926,2527.0853,N,08009.9820,W,1,11,1.3,17,M,,M,,*65
06/10/2015	13:09:26.569	$GPGGA,130927,2527.0829,N,08009.9821,W,1,11,1.3,17,M,,M,,*68
06/10/2015	13:09:27.589	$GPGGA,130928,2527.0805,N,08009.9823,W,1,11,1.3,17,M,,M,,*6B
06/10/2015	13:09:28.559	$GPGGA,130929,2527.0781,N,08009.9824,W,1,11,1.3,17,M,,M,,*6E
06/10/2015	13:09:29.589	$GPGGA,130930,2527.0757,N,08009.9826,W,1,11,1.3,17,M,,M,,*6F
06/10/2015	13:09:30.549	$GPGGA,130931,2527.0732,N,08009.9827,W,1,11,1.3,17,M,,M,,*6C
06/10/2015	13:09:31.569	$GPGGA,130932,2527.0708,N,08009.9827,W,1,11,1.3,17,M,,M,,*66
06/10/2015	13:09:32.549	$GPGGA,130933,2527.0683,N,08009.9828,W,1,11,1.3,17,M,,M,,*6A
06/10/2015	13:09:33.559	$GPGGA,130934,2527.0659,N,08009.9828,W,1,11,1.3,17,M,,M,,*6A
06/10/2015	13:09:34.539	$GPGGA,130935,2527.0634,N,08009.9830,W,1,11,1.3,17,M,,M,,*69
06/10/2015	13:09:35.579	$GPGGA,130936,2527.0610,N,08009.9830,W,1,11,1.3,17,M,,M,,*6C
06/10/2015	13:09:36.649	$GPGGA,130937,2527.0585,N,08009.9830,W,1,11,1.3,17,M,,M,,*62
06/10/2015	13:09:37.529	$GPGGA,130938,2527.0562,N,08009.9830,W,1,11,1.3,17,M,,M,,*64
06/10/2015	13:09:38.619	$GPGGA,130939,2527.0537,N,08009.9831,W,1,11,1.4,17,M,,M,,*63
06/10/2015	13:09:39.558	$GPGGA,130940,2527.0513,N,08009.9831,W,1,10,1.4,17,M,,M,,*6A
06/10/2015	13:09:40.528	$GPGGA,130941,2527.0490,N,08009.9831,W,1,10,1.4,17,M,,M,,*61
06/10/2015	13:09:41.558	$GPGGA,130942,2527.0464,N,08009.9831,W,1,10,1.4,17,M,,M,,*69
06/10/2015	13:09:42.518	$GPGGA,130943,2527.0439,N,08009.9832,W,1,10,1.4,17,M,,M,,*63
06/10/2015	13:09:44.619	$GPGGA,130944,2527.0414,N,08009.9834,W,1,11,1.3,17,M,,M,,*6B
06/10/2015	13:09:44.649	$GPGGA,130945,2527.0389,N,08009.9833,W,1,11,1.3,17,M,,M,,*6E
06/10/2015	13:09:45.609	$GPGGA,130946,2527.0364,N,08009.9834,W,1,11,1.3,17,M,,M,,*69
06/10/2015	13:09:46.629	$GPGGA,130947,2527.0340,N,08009.9834,W,1,11,1.3,17,M,,M,,*6E
06/10/2015	13:09:47.619	$GPGGA,130948,2527.0316,N,08009.9834,W,1,11,1.3,17,M,,M,,*62
06/10/2015	13:09:48.519	$GPGGA,130949,2527.0291,N,08009.9834,W,1,11,1.3,17,M,,M,,*6D
06/10/2015	13:09:49.639	$GPGGA,130950,2527.0266,N,08009.9833,W,1,11,1.3,17,M,,M,,*6A
06/10/2015	13:09:50.609	$GPGGA,130951,2527.0241,N,08009.9834,W,1,11,1.3,17,M,,M,,*69
06/10/2015	13:09:51.639	$GPGGA,130952,2527.0217,N,08009.9833,W,1,10,1.4,17,M,,M,,*68
06/10/2015	13:09:52.599	$GPGGA,130953,2527.0193,N,08009.9834,W,1,10,1.4,17,M,,M,,*61
06/10/2015	13:09:53.619	$GPGGA,130954,2527.0169,N,08009.9833,W,1,10,1.4,17,M,,M,,*64
06/10/2015	13:09:54.589	$GPGGA,130955,2527.0144,N,08009.9832,W,1,10,1.4,17,M,,M,,*6B
06/10/2015	13:09:55.629	$GPGGA,130956,2527.0121,N,08009.9832,W,1,10,1.4,17,M,,M,,*6B
06/10/2015	13:09:56.588	$GPGGA,130957,2527.0096,N,08009.9829,W,1,10,1.4,17,M,,M,,*6D
06/10/2015	13:09:57.608	$GPGGA,130958,2527.0071,N,08009.9828,W,1,11,1.3,17,M,,M,,*6C
06/10/2015	13:09:58.868	$GPGGA,130959,2527.0047,N,08009.9827,W,1,11,1.4,17,M,,M,,*60
06/10/2015	13:09:59.639	$GPGGA,131000,2527.0023,N,08009.9826,W,1,11,1.3,17,M,,M,,*60
06/10/2015	13:10:00.578	$GPGGA,131001,2526.9998,N,08009.9824,W,1,11,1.3,17,M,,M,,*62
06/10/2015	13:10:01.599	$GPGGA,131002,2526.9974,N,08009.9823,W,1,11,1.3,17,M,,M,,*64
06/10/2015	13:10:02.579	$GPGGA,131003,2526.9950,N,08009.9822,W,1,11,1.3,17,M,,M,,*62
06/10/2015	13:10:03.579	$GPGGA,131004,2526.9926,N,08009.9821,W,1,11,1.3,17,M,,M,,*67
06/10/2015	13:10:04.579	$GPGGA,131005,2526.9902,N,08009.9819,W,1,11,1.3,17,M,,M,,*6B
06/10/2015	13:10:05.599	$GPGGA,131006,2526.9877,N,08009.9818,W,1,11,1.3,17,M,,M,,*6A
06/10/2015	13:10:06.569	$GPGGA,131007,2526.9854,N,08009.9817,W,1,11,1.3,17,M,,M,,*65
06/10/2015	13:10:07.599	$GPGGA,131008,2526.9829,N,08009.9816,W,1,11,1.3,17,M,,M,,*61
06/10/2015	13:10:08.559	$GPGGA,131009,2526.9805,N,08009.9815,W,1,11,1.3,17,M,,M,,*6D
06/10/2015	13:10:09.589	$GPGGA,131010,2526.9781,N,08009.9814,W,1,11,1.3,17,M,,M,,*67
06/10/2015	13:10:10.569	$GPGGA,131011,2526.9757,N,08009.9814,W,1,11,1.4,16,M,,M,,*6B
06/10/2015	13:10:11.569	$GPGGA,131012,2526.9733,N,08009.9814,W,1,10,1.4,16,M,,M,,*6B
06/10/2015	13:10:12.559	$GPGGA,131013,2526.9709,N,08009.9813,W,1,10,1.3,16,M,,M,,*63
06/10/2015	13:10:13.589	$GPGGA,131014,2526.9685,N,08009.9812,W,1,11,1.3,16,M,,M,,*61
06/10/2015	13:10:14.968	$GPGGA,131015,2526.9661,N,08009.9810,W,1,11,1.3,16,M,,M,,*68
06/10/2015	13:10:15.558	$GPGGA,131016,2526.9637,N,08009.9809,W,1,11,1.3,16,M,,M,,*60
06/10/2015	13:10:16.539	$GPGGA,131017,2526.9613,N,08009.9808,W,1,11,1.3,16,M,,M,,*66
06/10/2015	13:10:17.548	$GPGGA,131018,2526.9590,N,08009.9807,W,1,11,1.3,16,M,,M,,*6E
06/10/2015	13:10:18.659	$GPGGA,131019,2526.9565,N,08009.9805,W,1,11,1.3,16,M,,M,,*67
06/10/2015	13:10:19.589	$GPGGA,131020,2526.9541,N,08009.9804,W,1,11,1.3,16,M,,M,,*6A
06/10/2015	13:10:20.659	$GPGGA,131021,2526.9516,N,08009.9803,W,1,11,1.3,16,M,,M,,*6E
06/10/2015	13:10:21.549	$GPGGA,131022,2526.9492,N,08009.9802,W,1,11,1.3,16,M,,M,,*61
06/10/2015	13:10:22.549	$GPGGA,131023,2526.9468,N,08009.9801,W,1,11,1.3,16,M,,M,,*66
06/10/2015	13:10:23.659	$GPGGA,131024,2526.9444,N,08009.9800,W,1,11,1.3,16,M,,M,,*6E
06/10/2015	13:10:24.559	$GPGGA,131025,2526.9420,N,08009.9799,W,1,11,1.3,15,M,,M,,*61
06/10/2015	13:10:25.649	$GPGGA,131026,2526.9396,N,08009.9799,W,1,10,1.4,15,M,,M,,*6E
06/10/2015	13:10:26.539	$GPGGA,131027,2526.9372,N,08009.9798,W,1,10,1.3,15,M,,M,,*63
06/10/2015	13:10:27.629	$GPGGA,131028,2526.9348,N,08009.9798,W,1,11,1.3,15,M,,M,,*64
06/10/2015	13:10:28.619	$GPGGA,131029,2526.9323,N,08009.9797,W,1,11,1.3,15,M,,M,,*67
06/10/2015	13:10:29.529	$GPGGA,131030,2526.9299,N,08009.9796,W,1,11,1.3,15,M,,M,,*6E
06/10/2015	13:10:30.619	$GPGGA,131031,2526.9276,N,08009.9796,W,1,11,1.3,15,M,,M,,*6E
06/10/2015	13:10:31.540	$GPGGA,131032,2526.9250,N,08009.9796,W,1,11,1.3,15,M,,M,,*69
06/10/2015	13:10:32.608	$GPGGA,131033,2526.9226,N,08009.9796,W,1,11,1.3,15,M,,M,,*69
06/10/2015	13:10:33.518	$GPGGA,131034,2526.9202,N,08009.9795,W,1,11,1.3,15,M,,M,,*6B
06/10/2015	13:10:34.608	$GPGGA,131035,2526.9178,N,08009.9795,W,1,11,1.4,15,M,,M,,*63
06/10/2015	13:10:35.628	$GPGGA,131036,2526.9154,N,08009.9795,W,1,10,1.4,15,M,,M,,*6F
06/10/2015	13:10:36.609	$GPGGA,131037,2526.9129,N,08009.9795,W,1,10,1.4,15,M,,M,,*64
06/10/2015	13:10:37.620	$GPGGA,131038,2526.9104,N,08009.9796,W,1,11,1.3,15,M,,M,,*61
06/10/2015	13:10:38.599	$GPGGA,131039,2526.9079,N,08009.9798,W,1,11,1.3,15,M,,M,,*65
06/10/2015	13:10:39.669	$GPGGA,131040,2526.9054,N,08009.9798,W,1,11,1.3,15,M,,M,,*64
06/10/2015	13:10:40.599	$GPGGA,131041,2526.9030,N,08009.9798,W,1,11,1.3,15,M,,M,,*67
06/10/2015	13:10:41.609	$GPGGA,131042,2526.9005,N,08009.9799,W,1,11,1.3,15,M,,M,,*63
06/10/2015	13:10:42.589	$GPGGA,131043,2526.8980,N,08009.9799,W,1,11,1.3,15,M,,M,,*67
06/10/2015	13:10:43.649	$GPGGA,131044,2526.8956,N,08009.9801,W,1,11,1.3,15,M,,M,,*65
06/10/2015	13:10:44.589	$GPGGA,131045,2526.8932,N,08009.9801,W,1,11,1.3,15,M,,M,,*66
06/10/2015	13:10:45.599	$GPGGA,131046,2526.8907,N,08009.9802,W,1,11,1.3,15,M,,M,,*60
06/10/2015	13:10:46.619	$GPGGA,131047,2526.8883,N,08009.9803,W,1,11,1.3,15,M,,M,,*6D
06/10/2015	13:10:47.629	$GPGGA,131048,2526.8859,N,08009.9805,W,1,11,1.3,15,M,,M,,*63
06/10/2015	13:10:48.629	$GPGGA,131049,2526.8835,N,08009.9805,W,1,11,1.3,15,M,,M,,*68
06/10/2015	13:10:49.608	$GPGGA,131050,2526.8811,N,08009.9806,W,1,11,1.3,15,M,,M,,*65
06/10/2015	13:10:51.608	$GPGGA,131051,2526.8788,N,08009.9808,W,1,11,1.3,15,M,,M,,*65
06/10/2015	13:10:51.638	$GPGGA,131052,2526.8763,N,08009.9809,W,1,11,1.3,15,M,,M,,*62
06/10/2015	13:10:52.598	$GPGGA,131053,2526.8741,N,08009.9810,W,1,11,1.4,15,M,,M,,*6C
06/10/2015	13:10:53.569	$GPGGA,131054,2526.8714,N,08009.9810,W,1,11,1.3,15,M,,M,,*6C
06/10/2015	13:10:54.569	$GPGGA,131055,2526.8690,N,08009.9812,W,1,11,1.3,15,M,,M,,*62
06/10/2015	13:10:56.601	$GPGGA,131057,2526.8642,N,08009.9813,W,1,10,1.3,15,M,,M,,*6F
06/10/2015	13:10:57.559	$GPGGA,131058,2526.8618,N,08009.9814,W,1,10,1.4,15,M,,M,,*6F
06/10/2015	13:10:58.559	$GPGGA,131059,2526.8594,N,08009.9816,W,1,10,1.3,16,M,,M,,*6F
06/10/2015	13:10:59.619	$GPGGA,131100,2526.8571,N,08009.9817,W,1,10,1.4,16,M,,M,,*6F
06/10/2015	13:11:00.569	$GPGGA,131101,2526.8547,N,08009.9817,W,1,10,1.3,16,M,,M,,*6C
06/10/2015	13:11:01.559	$GPGGA,131102,2526.8523,N,08009.9819,W,1,11,1.3,16,M,,M,,*62
06/10/2015	13:11:02.549	$GPGGA,131103,2526.8500,N,08009.9819,W,1,11,1.3,16,M,,M,,*62
06/10/2015	13:11:03.549	$GPGGA,131104,2526.8475,N,08009.9820,W,1,11,1.3,16,M,,M,,*6C
06/10/2015	13:11:04.639	$GPGGA,131105,2526.8452,N,08009.9821,W,1,11,1.3,16,M,,M,,*69
06/10/2015	13:11:05.539	$GPGGA,131106,2526.8428,N,08009.9823,W,1,11,1.3,16,M,,M,,*65
06/10/2015	13:11:06.678	$GPGGA,131107,2526.8405,N,08009.9823,W,1,11,1.3,16,M,,M,,*6B
06/10/2015	13:11:07.588	$GPGGA,131108,2526.8380,N,08009.9824,W,1,10,1.4,16,M,,M,,*6F
06/10/2015	13:11:08.548	$GPGGA,131109,2526.8356,N,08009.9824,W,1,10,1.4,16,M,,M,,*65
06/10/2015	13:11:09.718	$GPGGA,131110,2526.8333,N,08009.9826,W,1,10,1.4,16,M,,M,,*6C
06/10/2015	13:11:10.548	$GPGGA,131111,2526.8308,N,08009.9825,W,1,10,1.4,16,M,,M,,*66
06/10/2015	13:11:11.729	$GPGGA,131112,2526.8284,N,08009.9826,W,1,10,1.4,16,M,,M,,*63
06/10/2015	13:11:12.549	$GPGGA,131113,2526.8260,N,08009.9827,W,1,10,1.4,16,M,,M,,*69
06/10/2015	13:11:13.719	$GPGGA,131114,2526.8236,N,08009.9826,W,1,10,1.4,16,M,,M,,*6C
06/10/2015	13:11:14.549	$GPGGA,131115,2526.8211,N,08009.9827,W,1,10,1.4,16,M,,M,,*69
06/10/2015	13:11:15.729	$GPGGA,131116,2526.8187,N,08009.9826,W,1,11,1.3,16,M,,M,,*61
06/10/2015	13:11:16.619	$GPGGA,131117,2526.8163,N,08009.9827,W,1,11,1.3,16,M,,M,,*6B
06/10/2015	13:11:17.529	$GPGGA,131118,2526.8138,N,08009.9826,W,1,11,1.3,16,M,,M,,*6B
06/10/2015	13:11:18.609	$GPGGA,131119,2526.8113,N,08009.9827,W,1,11,1.3,16,M,,M,,*62
06/10/2015	13:11:19.719	$GPGGA,131120,2526.8088,N,08009.9827,W,1,11,1.3,16,M,,M,,*6B
06/10/2015	13:11:20.639	$GPGGA,131121,2526.8063,N,08009.9827,W,1,11,1.3,16,M,,M,,*6F
06/10/2015	13:11:21.699	$GPGGA,131122,2526.8040,N,08009.9827,W,1,11,1.3,16,M,,M,,*6D
06/10/2015	13:11:22.609	$GPGGA,131123,2526.8015,N,08009.9827,W,1,11,1.3,16,M,,M,,*6C
06/10/2015	13:11:23.708	$GPGGA,131124,2526.7990,N,08009.9827,W,1,11,1.3,16,M,,M,,*60
06/10/2015	13:11:24.608	$GPGGA,131125,2526.7966,N,08009.9827,W,1,11,1.3,16,M,,M,,*68
06/10/2015	13:11:25.708	$GPGGA,131126,2526.7943,N,08009.9828,W,1,10,1.4,16,M,,M,,*65
06/10/2015	13:11:26.658	$GPGGA,131127,2526.7918,N,08009.9828,W,1,10,1.4,16,M,,M,,*6A
06/10/2015	13:11:27.688	$GPGGA,131128,2526.7894,N,08009.9828,W,1,10,1.3,16,M,,M,,*67
06/10/2015	13:11:28.629	$GPGGA,131129,2526.7870,N,08009.9828,W,1,10,1.3,16,M,,M,,*6C
06/10/2015	13:11:29.699	$GPGGA,131130,2526.7845,N,08009.9830,W,1,11,1.3,16,M,,M,,*6A
06/10/2015	13:11:30.589	$GPGGA,131131,2526.7821,N,08009.9829,W,1,11,1.3,16,M,,M,,*61
06/10/2015	13:11:31.679	$GPGGA,131132,2526.7796,N,08009.9830,W,1,11,1.4,16,M,,M,,*6E
06/10/2015	13:11:32.609	$GPGGA,131133,2526.7771,N,08009.9831,W,1,11,1.4,16,M,,M,,*67
06/10/2015	13:11:33.579	$GPGGA,131134,2526.7746,N,08009.9832,W,1,11,1.3,16,M,,M,,*60
06/10/2015	13:11:34.629	$GPGGA,131135,2526.7721,N,08009.9834,W,1,11,1.4,16,M,,M,,*61
06/10/2015	13:11:35.699	$GPGGA,131136,2526.7697,N,08009.9835,W,1,10,1.4,16,M,,M,,*6E
06/10/2015	13:11:36.599	$GPGGA,131137,2526.7672,N,08009.9837,W,1,10,1.3,16,M,,M,,*61
06/10/2015	13:11:37.689	$GPGGA,131138,2526.7648,N,08009.9839,W,1,11,1.3,16,M,,M,,*68
06/10/2015	13:11:38.599	$GPGGA,131139,2526.7625,N,08009.9841,W,1,11,1.3,16,M,,M,,*6D
06/10/2015	13:11:39.689	$GPGGA,131140,2526.7600,N,08009.9844,W,1,11,1.3,16,M,,M,,*61
06/10/2015	13:11:40.589	$GPGGA,131141,2526.7576,N,08009.9845,W,1,11,1.3,16,M,,M,,*63
06/10/2015	13:11:41.638	$GPGGA,131142,2526.7553,N,08009.9848,W,1,11,1.3,16,M,,M,,*6A
06/10/2015	13:11:42.598	$GPGGA,131143,2526.7531,N,08009.9852,W,1,11,1.3,16,M,,M,,*64
06/10/2015	13:11:43.578	$GPGGA,131144,2526.7506,N,08009.9855,W,1,11,1.3,16,M,,M,,*60
06/10/2015	13:11:44.568	$GPGGA,131145,2526.7482,N,08009.9857,W,1,11,1.3,16,M,,M,,*6E
06/10/2015	13:11:45.639	$GPGGA,131146,2526.7459,N,08009.9861,W,1,11,1.3,16,M,,M,,*6E
06/10/2015	13:11:46.589	$GPGGA,131147,2526.7435,N,08009.9864,W,1,11,1.3,16,M,,M,,*60
06/10/2015	13:11:47.669	$GPGGA,131148,2526.7411,N,08009.9868,W,1,11,1.3,16,M,,M,,*65
06/10/2015	13:11:48.589	$GPGGA,131149,2526.7388,N,08009.9873,W,1,11,1.3,16,M,,M,,*69
