Software Version Number: 1	Data File Format Number: 1	Build Version Number: 1	Error Count Since VI Started: 3	Manufacturer: Raytheon	 Model Number: RayMarine 120	 S/N: 	 Cal Date: 	 Wind Direction Offset: 0.00	 Slope (M)1: 0.00	 Offset (B)1: 0.00	 Slope (M)2: 0.00	 Offset (B)2: 0.00	 Slope (M)3: 0.00	 Offset (B)3: 0.00	 Slope (M)4: 0.00	 Offset (B)4: 0.00	 Slope (M)5: 0.00	 Offset (B)5: 0.00	 Slope (M)6: 0.00	 Offset (B)6: 0.00
Computer Date	Computer Time	GGA String
06/24/2015	16:00:00.497	$GPGGA,160001,2521.6252,N,08003.7410,W,1,10,1.3,9,M,,M,,*52
06/24/2015	16:00:01.607	$GPGGA,160002,2521.6261,N,08003.7421,W,1,11,1.3,9,M,,M,,*52
06/24/2015	16:00:02.571	$GPGGA,160003,2521.6269,N,08003.7428,W,1,11,1.3,9,M,,M,,*52
06/24/2015	16:00:03.617	$GPGGA,160004,2521.6277,N,08003.7435,W,1,11,1.3,9,M,,M,,*56
06/24/2015	16:00:04.584	$GPGGA,160005,2521.6287,N,08003.7443,W,1,11,1.4,9,M,,M,,*5E
06/24/2015	16:00:05.581	$GPGGA,160006,2521.6295,N,08003.7451,W,1,10,1.4,9,M,,M,,*5C
06/24/2015	16:00:06.580	$GPGGA,160007,2521.6302,N,08003.7460,W,1,10,1.3,9,M,,M,,*57
06/24/2015	16:00:07.587	$GPGGA,160008,2521.6310,N,08003.7468,W,1,11,1.3,9,M,,M,,*52
06/24/2015	16:00:08.569	$GPGGA,160009,2521.6320,N,08003.7478,W,1,11,1.3,9,M,,M,,*51
06/24/2015	16:00:09.587	$GPGGA,160010,2521.6328,N,08003.7485,W,1,11,1.3,9,M,,M,,*53
06/24/2015	16:00:10.568	$GPGGA,160011,2521.6335,N,08003.7493,W,1,11,1.4,9,M,,M,,*5E
06/24/2015	16:00:11.587	$GPGGA,160012,2521.6344,N,08003.7504,W,1,11,1.3,9,M,,M,,*53
06/24/2015	16:00:12.557	$GPGGA,160013,2521.6353,N,08003.7512,W,1,11,1.3,9,M,,M,,*53
06/24/2015	16:00:13.557	$GPGGA,160014,2521.6362,N,08003.7519,W,1,11,1.3,9,M,,M,,*5D
06/24/2015	16:00:14.576	$GPGGA,160015,2521.6370,N,08003.7527,W,1,11,1.4,9,M,,M,,*55
06/24/2015	16:00:15.587	$GPGGA,160016,2521.6377,N,08003.7536,W,1,10,1.4,9,M,,M,,*50
06/24/2015	16:00:16.547	$GPGGA,160017,2521.6385,N,08003.7543,W,1,10,1.4,9,M,,M,,*5E
06/24/2015	16:00:17.567	$GPGGA,160018,2521.6393,N,08003.7551,W,1,11,1.3,9,M,,M,,*53
06/24/2015	16:00:18.547	$GPGGA,160019,2521.6402,N,08003.7559,W,1,11,1.4,9,M,,M,,*52
06/24/2015	16:00:19.577	$GPGGA,160020,2521.6410,N,08003.7568,W,1,10,1.4,9,M,,M,,*58
06/24/2015	16:00:20.537	$GPGGA,160021,2521.6418,N,08003.7576,W,1,10,1.4,9,M,,M,,*5E
06/24/2015	16:00:21.527	$GPGGA,160022,2521.6425,N,08003.7583,W,1,10,1.4,9,M,,M,,*59
06/24/2015	16:00:22.537	$GPGGA,160023,2521.6433,N,08003.7591,W,1,10,1.4,9,M,,M,,*5C
06/24/2015	16:00:23.537	$GPGGA,160024,2521.6440,N,08003.7599,W,1,10,1.4,9,M,,M,,*57
06/24/2015	16:00:24.537	$GPGGA,160025,2521.6450,N,08003.7609,W,1,10,1.4,9,M,,M,,*5D
06/24/2015	16:00:25.537	$GPGGA,160026,2521.6458,N,08003.7619,W,1,11,1.3,9,M,,M,,*51
06/24/2015	16:00:26.527	$GPGGA,160027,2521.6465,N,08003.7626,W,1,11,1.4,9,M,,M,,*55
06/24/2015	16:00:27.537	$GPGGA,160028,2521.6472,N,08003.7634,W,1,10,1.4,9,M,,M,,*5E
06/24/2015	16:00:28.527	$GPGGA,160029,2521.6482,N,08003.7642,W,1,10,1.4,9,M,,M,,*51
06/24/2015	16:00:29.527	$GPGGA,160030,2521.6490,N,08003.7650,W,1,10,1.4,9,M,,M,,*59
06/24/2015	16:00:30.527	$GPGGA,160031,2521.6497,N,08003.7659,W,1,10,1.4,9,M,,M,,*56
06/24/2015	16:00:31.547	$GPGGA,160032,2521.6505,N,08003.7667,W,1,10,1.4,9,M,,M,,*52
06/24/2015	16:00:32.517	$GPGGA,160033,2521.6512,N,08003.7675,W,1,10,1.4,9,M,,M,,*56
06/24/2015	16:00:33.517	$GPGGA,160034,2521.6521,N,08003.7684,W,1,11,1.3,9,M,,M,,*59
06/24/2015	16:00:34.597	$GPGGA,160035,2521.6529,N,08003.7691,W,1,11,1.4,9,M,,M,,*53
06/24/2015	16:00:35.557	$GPGGA,160036,2521.6537,N,08003.7700,W,1,10,1.4,9,M,,M,,*57
06/24/2015	16:00:36.507	$GPGGA,160037,2521.6544,N,08003.7710,W,1,10,1.4,9,M,,M,,*53
06/24/2015	16:00:37.497	$GPGGA,160038,2521.6552,N,08003.7718,W,1,11,1.3,9,M,,M,,*55
06/24/2015	16:00:38.507	$GPGGA,160039,2521.6561,N,08003.7728,W,1,11,1.3,9,M,,M,,*57
06/24/2015	16:00:39.607	$GPGGA,160040,2521.6569,N,08003.7736,W,1,11,1.4,9,M,,M,,*59
06/24/2015	16:00:40.507	$GPGGA,160041,2521.6576,N,08003.7745,W,1,11,1.4,9,M,,M,,*52
06/24/2015	16:00:41.637	$GPGGA,160042,2521.6583,N,08003.7753,W,1,10,1.4,9,M,,M,,*5D
06/24/2015	16:00:42.487	$GPGGA,160043,2521.6591,N,08003.7760,W,1,10,1.4,9,M,,M,,*5F
06/24/2015	16:00:43.657	$GPGGA,160044,2521.6599,N,08003.7769,W,1,11,1.3,9,M,,M,,*5F
06/24/2015	16:00:44.587	$GPGGA,160045,2521.6606,N,08003.7778,W,1,11,1.3,9,M,,M,,*5B
06/24/2015	16:00:46.617	$GPGGA,160047,2521.6622,N,08003.7793,W,1,11,1.4,9,M,,M,,*5D
06/24/2015	16:00:47.597	$GPGGA,160048,2521.6630,N,08003.7801,W,1,10,1.4,9,M,,M,,*54
06/24/2015	16:00:48.587	$GPGGA,160049,2521.6637,N,08003.7811,W,1,10,1.3,9,M,,M,,*54
06/24/2015	16:00:49.597	$GPGGA,160050,2521.6645,N,08003.7818,W,1,11,1.3,9,M,,M,,*51
06/24/2015	16:00:50.580	$GPGGA,160051,2521.6653,N,08003.7827,W,1,11,1.4,9,M,,M,,*5C
06/24/2015	16:00:51.587	$GPGGA,160052,2521.6660,N,08003.7836,W,1,10,1.4,9,M,,M,,*5E
06/24/2015	16:00:52.567	$GPGGA,160053,2521.6667,N,08003.7843,W,1,10,1.4,9,M,,M,,*5A
06/24/2015	16:00:53.587	$GPGGA,160054,2521.6675,N,08003.7851,W,1,10,1.4,9,M,,M,,*5D
06/24/2015	16:00:54.568	$GPGGA,160055,2521.6682,N,08003.7858,W,1,10,1.3,9,M,,M,,*5A
06/24/2015	16:00:55.597	$GPGGA,160056,2521.6691,N,08003.7868,W,1,11,1.3,9,M,,M,,*59
06/24/2015	16:00:56.567	$GPGGA,160057,2521.6699,N,08003.7876,W,1,11,1.4,9,M,,M,,*58
06/24/2015	16:00:57.579	$GPGGA,160058,2521.6707,N,08003.7884,W,1,10,1.4,9,M,,M,,*5D
06/24/2015	16:00:58.558	$GPGGA,160059,2521.6714,N,08003.7892,W,1,10,1.4,9,M,,M,,*59
06/24/2015	16:00:59.597	$GPGGA,160100,2521.6721,N,08003.7901,W,1,10,1.4,9,M,,M,,*59
06/24/2015	16:01:00.547	$GPGGA,160101,2521.6729,N,08003.7908,W,1,10,1.4,9,M,,M,,*59
06/24/2015	16:01:01.568	$GPGGA,160102,2521.6738,N,08003.7915,W,1,10,1.4,9,M,,M,,*56
06/24/2015	16:01:03.627	$GPGGA,160104,2521.6754,N,08003.7933,W,1,10,1.4,9,M,,M,,*5E
06/24/2015	16:01:04.537	$GPGGA,160105,2521.6761,N,08003.7942,W,1,10,1.3,9,M,,M,,*58
06/24/2015	16:01:05.578	$GPGGA,160106,2521.6768,N,08003.7951,W,1,11,1.4,9,M,,M,,*56
06/24/2015	16:01:06.548	$GPGGA,160107,2521.6776,N,08003.7957,W,1,11,1.4,9,M,,M,,*5E
06/24/2015	16:01:07.568	$GPGGA,160108,2521.6785,N,08003.7969,W,1,10,1.3,9,M,,M,,*56
06/24/2015	16:01:08.547	$GPGGA,160109,2521.6793,N,08003.7977,W,1,10,1.3,9,M,,M,,*5F
06/24/2015	16:01:09.537	$GPGGA,160110,2521.6801,N,08003.7984,W,1,11,1.4,9,M,,M,,*59
06/24/2015	16:01:10.537	$GPGGA,160111,2521.6808,N,08003.7992,W,1,11,1.4,9,M,,M,,*56
06/24/2015	16:01:11.607	$GPGGA,160112,2521.6815,N,08003.8002,W,1,10,1.3,9,M,,M,,*50
06/24/2015	16:01:12.527	$GPGGA,160113,2521.6823,N,08003.8009,W,1,10,1.3,9,M,,M,,*5F
06/24/2015	16:01:13.547	$GPGGA,160114,2521.6830,N,08003.8018,W,1,11,1.4,9,M,,M,,*5C
06/24/2015	16:01:14.537	$GPGGA,160115,2521.6830,N,08003.8018,W,1,11,1.4,9,M,,M,,*5D
06/24/2015	16:01:15.567	$GPGGA,160116,2521.6846,N,08003.8036,W,1,10,1.3,9,M,,M,,*55
06/24/2015	16:01:16.547	$GPGGA,160117,2521.6854,N,08003.8045,W,1,10,1.3,9,M,,M,,*53
06/24/2015	16:01:17.517	$GPGGA,160118,2521.6862,N,08003.8053,W,1,11,1.4,9,M,,M,,*58
06/24/2015	16:01:18.507	$GPGGA,160119,2521.6870,N,08003.8060,W,1,11,1.4,9,M,,M,,*5A
06/24/2015	16:01:19.557	$GPGGA,160120,2521.6877,N,08003.8068,W,1,10,1.4,9,M,,M,,*5E
06/24/2015	16:01:20.517	$GPGGA,160121,2521.6884,N,08003.8078,W,1,10,1.4,9,M,,M,,*52
06/24/2015	16:01:21.507	$GPGGA,160122,2521.6893,N,08003.8085,W,1,10,1.4,9,M,,M,,*55
06/24/2015	16:01:22.507	$GPGGA,160123,2521.6901,N,08003.8094,W,1,10,1.4,9,M,,M,,*5E
06/24/2015	16:01:23.547	$GPGGA,160124,2521.6908,N,08003.8103,W,1,10,1.4,9,M,,M,,*5F
06/24/2015	16:01:24.497	$GPGGA,160125,2521.6915,N,08003.8111,W,1,10,1.4,9,M,,M,,*51
06/24/2015	16:01:25.517	$GPGGA,160126,2521.6923,N,08003.8118,W,1,10,1.4,9,M,,M,,*5E
06/24/2015	16:01:26.507	$GPGGA,160127,2521.6931,N,08003.8128,W,1,10,1.4,9,M,,M,,*5F
06/24/2015	16:01:27.607	$GPGGA,160128,2521.6938,N,08003.8136,W,1,10,1.4,9,M,,M,,*56
06/24/2015	16:01:28.507	$GPGGA,160129,2521.6945,N,08003.8144,W,1,10,1.4,9,M,,M,,*58
06/24/2015	16:01:29.597	$GPGGA,160130,2521.6955,N,08003.8152,W,1,10,1.4,9,M,,M,,*56
06/24/2015	16:01:30.527	$GPGGA,160131,2521.6964,N,08003.8161,W,1,10,1.4,9,M,,M,,*55
06/24/2015	16:01:31.589	$GPGGA,160132,2521.6971,N,08003.8170,W,1,10,1.4,9,M,,M,,*52
06/24/2015	16:01:32.585	$GPGGA,160133,2521.6978,N,08003.8179,W,1,10,1.4,9,M,,M,,*53
06/24/2015	16:01:33.607	$GPGGA,160134,2521.6985,N,08003.8187,W,1,10,1.4,9,M,,M,,*57
06/24/2015	16:01:34.589	$GPGGA,160135,2521.6995,N,08003.8197,W,1,10,1.4,9,M,,M,,*56
06/24/2015	16:01:35.607	$GPGGA,160136,2521.7003,N,08003.8204,W,1,10,1.4,8,M,,M,,*5A
06/24/2015	16:01:36.577	$GPGGA,160137,2521.7010,N,08003.8213,W,1,10,1.4,8,M,,M,,*5F
06/24/2015	16:01:37.587	$GPGGA,160138,2521.7018,N,08003.8222,W,1,10,1.4,8,M,,M,,*5A
06/24/2015	16:01:38.571	$GPGGA,160139,2521.7027,N,08003.8230,W,1,10,1.4,8,M,,M,,*54
06/24/2015	16:01:39.587	$GPGGA,160140,2521.7036,N,08003.8241,W,1,10,1.3,8,M,,M,,*5B
06/24/2015	16:01:40.579	$GPGGA,160141,2521.7043,N,08003.8248,W,1,10,1.3,8,M,,M,,*51
06/24/2015	16:01:41.557	$GPGGA,160142,2521.7052,N,08003.8256,W,1,10,1.4,8,M,,M,,*5A
06/24/2015	16:01:42.570	$GPGGA,160143,2521.7060,N,08003.8264,W,1,10,1.4,8,M,,M,,*5B
06/24/2015	16:01:43.587	$GPGGA,160144,2521.7068,N,08003.8275,W,1,10,1.4,8,M,,M,,*54
06/24/2015	16:01:44.547	$GPGGA,160145,2521.7076,N,08003.8284,W,1,10,1.3,8,M,,M,,*53
06/24/2015	16:01:45.568	$GPGGA,160146,2521.7085,N,08003.8292,W,1,11,1.3,8,M,,M,,*5A
06/24/2015	16:01:46.557	$GPGGA,160147,2521.7093,N,08003.8300,W,1,11,1.4,8,M,,M,,*51
06/24/2015	16:01:47.557	$GPGGA,160148,2521.7101,N,08003.8309,W,1,10,1.4,8,M,,M,,*5C
06/24/2015	16:01:48.557	$GPGGA,160149,2521.7108,N,08003.8316,W,1,10,1.4,8,M,,M,,*5A
06/24/2015	16:01:49.557	$GPGGA,160150,2521.7117,N,08003.8324,W,1,10,1.4,8,M,,M,,*5D
06/24/2015	16:01:50.547	$GPGGA,160151,2521.7126,N,08003.8332,W,1,10,1.3,8,M,,M,,*5E
06/24/2015	16:01:51.582	$GPGGA,160152,2521.7133,N,08003.8342,W,1,10,1.4,8,M,,M,,*59
06/24/2015	16:01:52.537	$GPGGA,160153,2521.7141,N,08003.8349,W,1,10,1.3,8,M,,M,,*51
06/24/2015	16:01:53.580	$GPGGA,160154,2521.7151,N,08003.8358,W,1,10,1.4,8,M,,M,,*50
06/24/2015	16:01:54.537	$GPGGA,160155,2521.7159,N,08003.8367,W,1,10,1.4,8,M,,M,,*55
06/24/2015	16:01:55.557	$GPGGA,160156,2521.7166,N,08003.8375,W,1,10,1.4,8,M,,M,,*59
06/24/2015	16:01:56.537	$GPGGA,160157,2521.7175,N,08003.8383,W,1,10,1.3,8,M,,M,,*54
06/24/2015	16:01:57.517	$GPGGA,160158,2521.7184,N,08003.8392,W,1,10,1.4,8,M,,M,,*52
06/24/2015	16:01:58.527	$GPGGA,160159,2521.7191,N,08003.8400,W,1,10,1.4,8,M,,M,,*5B
06/24/2015	16:01:59.574	$GPGGA,160200,2521.7199,N,08003.8407,W,1,10,1.4,8,M,,M,,*5B
06/24/2015	16:02:00.517	$GPGGA,160201,2521.7209,N,08003.8414,W,1,10,1.4,8,M,,M,,*52
06/24/2015	16:02:01.527	$GPGGA,160202,2521.7216,N,08003.8422,W,1,10,1.4,8,M,,M,,*5A
06/24/2015	16:02:02.527	$GPGGA,160203,2521.7224,N,08003.8433,W,1,10,1.4,8,M,,M,,*5A
06/24/2015	16:02:03.557	$GPGGA,160204,2521.7234,N,08003.8443,W,1,11,1.3,8,M,,M,,*5D
06/24/2015	16:02:04.527	$GPGGA,160205,2521.7242,N,08003.8451,W,1,11,1.3,8,M,,M,,*5E
06/24/2015	16:02:05.517	$GPGGA,160206,2521.7249,N,08003.8458,W,1,11,1.3,8,M,,M,,*5F
06/24/2015	16:02:06.517	$GPGGA,160207,2521.7258,N,08003.8465,W,1,11,1.4,8,M,,M,,*57
06/24/2015	16:02:07.537	$GPGGA,160208,2521.7267,N,08003.8473,W,1,10,1.4,8,M,,M,,*52
06/24/2015	16:02:08.497	$GPGGA,160209,2521.7276,N,08003.8483,W,1,10,1.3,8,M,,M,,*5B
06/24/2015	16:02:09.487	$GPGGA,160210,2521.7284,N,08003.8490,W,1,11,1.3,8,M,,M,,*5D
06/24/2015	16:02:10.507	$GPGGA,160211,2521.7292,N,08003.8497,W,1,11,1.4,8,M,,M,,*5B
06/24/2015	16:02:11.527	$GPGGA,160212,2521.7302,N,08003.8504,W,1,10,1.4,8,M,,M,,*5A
06/24/2015	16:02:12.597	$GPGGA,160213,2521.7310,N,08003.8513,W,1,10,1.3,8,M,,M,,*59
06/24/2015	16:02:13.487	$GPGGA,160214,2521.7318,N,08003.8522,W,1,11,1.3,8,M,,M,,*55
06/24/2015	16:02:14.589	$GPGGA,160215,2521.7328,N,08003.8530,W,1,11,1.3,8,M,,M,,*54
06/24/2015	16:02:15.597	$GPGGA,160216,2521.7338,N,08003.8537,W,1,11,1.3,8,M,,M,,*51
06/24/2015	16:02:16.497	$GPGGA,160217,2521.7346,N,08003.8546,W,1,11,1.3,8,M,,M,,*5F
06/24/2015	16:02:17.607	$GPGGA,160218,2521.7356,N,08003.8555,W,1,11,1.3,8,M,,M,,*53
06/24/2015	16:02:18.583	$GPGGA,160219,2521.7365,N,08003.8562,W,1,11,1.3,8,M,,M,,*56
06/24/2015	16:02:19.581	$GPGGA,160220,2521.7375,N,08003.8569,W,1,11,1.3,8,M,,M,,*56
06/24/2015	16:02:20.579	$GPGGA,160221,2521.7385,N,08003.8578,W,1,11,1.3,8,M,,M,,*58
06/24/2015	16:02:21.597	$GPGGA,160222,2521.7393,N,08003.8587,W,1,11,1.3,8,M,,M,,*5C
06/24/2015	16:02:22.568	$GPGGA,160223,2521.7404,N,08003.8595,W,1,11,1.3,8,M,,M,,*57
06/24/2015	16:02:23.597	$GPGGA,160224,2521.7414,N,08003.8602,W,1,11,1.3,8,M,,M,,*5C
06/24/2015	16:02:24.557	$GPGGA,160225,2521.7424,N,08003.8610,W,1,11,1.3,8,M,,M,,*5D
06/24/2015	16:02:25.584	$GPGGA,160226,2521.7433,N,08003.8616,W,1,10,1.4,8,M,,M,,*58
06/24/2015	16:02:26.570	$GPGGA,160227,2521.7446,N,08003.8624,W,1,10,1.3,8,M,,M,,*5D
06/24/2015	16:02:27.597	$GPGGA,160228,2521.7455,N,08003.8631,W,1,11,1.3,8,M,,M,,*55
06/24/2015	16:02:28.568	$GPGGA,160229,2521.7466,N,08003.8638,W,1,11,1.3,8,M,,M,,*5D
06/24/2015	16:02:29.577	$GPGGA,160230,2521.7477,N,08003.8645,W,1,11,1.3,8,M,,M,,*5F
06/24/2015	16:02:30.547	$GPGGA,160231,2521.7487,N,08003.8653,W,1,11,1.3,8,M,,M,,*56
06/24/2015	16:02:31.587	$GPGGA,160232,2521.7498,N,08003.8661,W,1,11,1.3,9,M,,M,,*5B
06/24/2015	16:02:32.557	$GPGGA,160233,2521.7508,N,08003.8670,W,1,11,1.4,9,M,,M,,*55
06/24/2015	16:02:33.567	$GPGGA,160234,2521.7519,N,08003.8676,W,1,11,1.3,9,M,,M,,*53
06/24/2015	16:02:34.547	$GPGGA,160235,2521.7530,N,08003.8685,W,1,11,1.3,9,M,,M,,*55
06/24/2015	16:02:35.577	$GPGGA,160236,2521.7541,N,08003.8692,W,1,11,1.3,9,M,,M,,*56
06/24/2015	16:02:36.557	$GPGGA,160237,2521.7551,N,08003.8700,W,1,11,1.4,9,M,,M,,*5B
06/24/2015	16:02:37.557	$GPGGA,160238,2521.7562,N,08003.8707,W,1,9,1.5,9,M,,M,,*6B
06/24/2015	16:02:38.527	$GPGGA,160239,2521.7574,N,08003.8714,W,1,9,1.4,9,M,,M,,*6E
06/24/2015	16:02:39.547	$GPGGA,160240,2521.7585,N,08003.8721,W,1,11,1.3,9,M,,M,,*56
06/24/2015	16:02:40.547	$GPGGA,160241,2521.7596,N,08003.8728,W,1,11,1.4,9,M,,M,,*5B
06/24/2015	16:02:41.527	$GPGGA,160242,2521.7607,N,08003.8736,W,1,10,1.4,9,M,,M,,*5D
06/24/2015	16:02:42.537	$GPGGA,160243,2521.7618,N,08003.8743,W,1,10,1.4,9,M,,M,,*50
06/24/2015	16:02:43.567	$GPGGA,160244,2521.7630,N,08003.8750,W,1,11,1.3,9,M,,M,,*59
06/24/2015	16:02:44.827	$GPGGA,160245,2521.7641,N,08003.8757,W,1,11,1.4,9,M,,M,,*5E
06/24/2015	16:02:45.557	$GPGGA,160246,2521.7653,N,08003.8764,W,1,10,1.4,9,M,,M,,*5F
06/24/2015	16:02:46.517	$GPGGA,160247,2521.7664,N,08003.8772,W,1,10,1.4,9,M,,M,,*5D
06/24/2015	16:02:47.647	$GPGGA,160248,2521.7675,N,08003.8780,W,1,10,1.4,9,M,,M,,*5F
06/24/2015	16:02:48.517	$GPGGA,160249,2521.7688,N,08003.8787,W,1,10,1.3,9,M,,M,,*5C
06/24/2015	16:02:49.527	$GPGGA,160250,2521.7700,N,08003.8795,W,1,10,1.4,9,M,,M,,*51
06/24/2015	16:02:50.607	$GPGGA,160251,2521.7711,N,08003.8804,W,1,10,1.3,10,M,,M,,*68
06/24/2015	16:02:51.647	$GPGGA,160252,2521.7722,N,08003.8811,W,1,11,1.3,10,M,,M,,*6E
06/24/2015	16:02:52.527	$GPGGA,160253,2521.7735,N,08003.8820,W,1,11,1.3,10,M,,M,,*6B
06/24/2015	16:02:53.497	$GPGGA,160254,2521.7747,N,08003.8827,W,1,11,1.3,10,M,,M,,*6E
06/24/2015	16:02:54.517	$GPGGA,160255,2521.7758,N,08003.8835,W,1,11,1.4,10,M,,M,,*65
06/24/2015	16:02:55.657	$GPGGA,160256,2521.7771,N,08003.8844,W,1,10,1.4,10,M,,M,,*6A
06/24/2015	16:02:56.517	$GPGGA,160257,2521.7783,N,08003.8852,W,1,10,1.3,10,M,,M,,*66
06/24/2015	16:02:57.597	$GPGGA,160258,2521.7794,N,08003.8860,W,1,11,1.3,10,M,,M,,*6F
06/24/2015	16:02:58.507	$GPGGA,160259,2521.7807,N,08003.8869,W,1,11,1.3,10,M,,M,,*62
06/24/2015	16:02:59.647	$GPGGA,160300,2521.7819,N,08003.8876,W,1,11,1.3,10,M,,M,,*6E
06/24/2015	16:03:00.507	$GPGGA,160301,2521.7831,N,08003.8884,W,1,11,1.4,10,M,,M,,*6F
06/24/2015	16:03:01.607	$GPGGA,160302,2521.7844,N,08003.8891,W,1,10,1.4,10,M,,M,,*6B
06/24/2015	16:03:02.579	$GPGGA,160303,2521.7856,N,08003.8900,W,1,10,1.4,10,M,,M,,*60
06/24/2015	16:03:03.617	$GPGGA,160304,2521.7867,N,08003.8909,W,1,11,1.3,10,M,,M,,*6A
06/24/2015	16:03:04.583	$GPGGA,160305,2521.7881,N,08003.8916,W,1,11,1.3,10,M,,M,,*6D
06/24/2015	16:03:05.597	$GPGGA,160306,2521.7892,N,08003.8924,W,1,11,1.3,10,M,,M,,*6D
06/24/2015	16:03:06.578	$GPGGA,160307,2521.7903,N,08003.8932,W,1,11,1.3,10,M,,M,,*62
06/24/2015	16:03:07.607	$GPGGA,160308,2521.7917,N,08003.8941,W,1,11,1.3,10,M,,M,,*6C
06/24/2015	16:03:08.580	$GPGGA,160309,2521.7930,N,08003.8949,W,1,11,1.3,10,M,,M,,*60
06/24/2015	16:03:09.587	$GPGGA,160310,2521.7942,N,08003.8956,W,1,11,1.3,10,M,,M,,*63
06/24/2015	16:03:10.579	$GPGGA,160311,2521.7953,N,08003.8963,W,1,11,1.3,10,M,,M,,*64
06/24/2015	16:03:11.607	$GPGGA,160312,2521.7967,N,08003.8970,W,1,11,1.3,10,M,,M,,*62
06/24/2015	16:03:12.557	$GPGGA,160313,2521.7979,N,08003.8975,W,1,11,1.3,11,M,,M,,*68
06/24/2015	16:03:13.587	$GPGGA,160314,2521.7990,N,08003.8982,W,1,11,1.3,11,M,,M,,*60
06/24/2015	16:03:14.567	$GPGGA,160315,2521.8001,N,08003.8988,W,1,11,1.3,11,M,,M,,*65
06/24/2015	16:03:15.597	$GPGGA,160316,2521.8015,N,08003.8995,W,1,11,1.3,11,M,,M,,*6F
06/24/2015	16:03:16.557	$GPGGA,160317,2521.8026,N,08003.9000,W,1,11,1.3,11,M,,M,,*6A
06/24/2015	16:03:17.574	$GPGGA,160318,2521.8037,N,08003.9006,W,1,11,1.3,11,M,,M,,*63
06/24/2015	16:03:18.547	$GPGGA,160319,2521.8050,N,08003.9010,W,1,11,1.3,11,M,,M,,*64
06/24/2015	16:03:19.557	$GPGGA,160320,2521.8062,N,08003.9014,W,1,11,1.3,11,M,,M,,*6B
06/24/2015	16:03:20.547	$GPGGA,160321,2521.8073,N,08003.9019,W,1,11,1.3,11,M,,M,,*67
06/24/2015	16:03:21.537	$GPGGA,160322,2521.8084,N,08003.9025,W,1,11,1.3,11,M,,M,,*63
06/24/2015	16:03:22.558	$GPGGA,160323,2521.8098,N,08003.9028,W,1,11,1.3,11,M,,M,,*62
06/24/2015	16:03:23.557	$GPGGA,160324,2521.8109,N,08003.9032,W,1,11,1.3,11,M,,M,,*67
06/24/2015	16:03:24.547	$GPGGA,160325,2521.8120,N,08003.9036,W,1,11,1.3,11,M,,M,,*69
06/24/2015	16:03:25.567	$GPGGA,160326,2521.8131,N,08003.9040,W,1,11,1.3,11,M,,M,,*6B
06/24/2015	16:03:26.537	$GPGGA,160327,2521.8144,N,08003.9044,W,1,11,1.3,11,M,,M,,*6C
06/24/2015	16:03:27.538	$GPGGA,160328,2521.8156,N,08003.9047,W,1,11,1.3,11,M,,M,,*63
06/24/2015	16:03:28.547	$GPGGA,160329,2521.8167,N,08003.9053,W,1,11,1.4,11,M,,M,,*62
06/24/2015	16:03:29.527	$GPGGA,160330,2521.8178,N,08003.9057,W,1,11,1.3,11,M,,M,,*67
06/24/2015	16:03:30.527	$GPGGA,160331,2521.8192,N,08003.9061,W,1,11,1.3,11,M,,M,,*67
06/24/2015	16:03:31.567	$GPGGA,160332,2521.8203,N,08003.9064,W,1,11,1.3,11,M,,M,,*6A
06/24/2015	16:03:32.527	$GPGGA,160333,2521.8214,N,08003.9068,W,1,11,1.3,11,M,,M,,*61
06/24/2015	16:03:33.557	$GPGGA,160334,2521.8224,N,08003.9072,W,1,11,1.3,11,M,,M,,*6E
06/24/2015	16:03:34.517	$GPGGA,160335,2521.8237,N,08003.9075,W,1,11,1.3,11,M,,M,,*6A
06/24/2015	16:03:35.617	$GPGGA,160336,2521.8248,N,08003.9079,W,1,11,1.3,11,M,,M,,*6D
06/24/2015	16:03:36.507	$GPGGA,160337,2521.8260,N,08003.9082,W,1,11,1.3,11,M,,M,,*62
06/24/2015	16:03:37.697	$GPGGA,160338,2521.8271,N,08003.9086,W,1,11,1.3,11,M,,M,,*69
06/24/2015	16:03:38.527	$GPGGA,160339,2521.8282,N,08003.9089,W,1,11,1.3,11,M,,M,,*6B
06/24/2015	16:03:39.697	$GPGGA,160340,2521.8293,N,08003.9090,W,1,11,1.4,11,M,,M,,*6A
06/24/2015	16:03:40.517	$GPGGA,160341,2521.8304,N,08003.9093,W,1,11,1.4,11,M,,M,,*67
06/24/2015	16:03:41.687	$GPGGA,160342,2521.8315,N,08003.9095,W,1,11,1.3,11,M,,M,,*65
06/24/2015	16:03:42.507	$GPGGA,160343,2521.8326,N,08003.9098,W,1,11,1.3,11,M,,M,,*69
06/24/2015	16:03:43.697	$GPGGA,160344,2521.8339,N,08003.9100,W,1,11,1.3,11,M,,M,,*60
06/24/2015	16:03:44.517	$GPGGA,160345,2521.8350,N,08003.9102,W,1,11,1.3,11,M,,M,,*6C
06/24/2015	16:03:45.687	$GPGGA,160346,2521.8361,N,08003.9105,W,1,11,1.3,11,M,,M,,*6A
06/24/2015	16:03:46.617	$GPGGA,160347,2521.8372,N,08003.9108,W,1,11,1.3,11,M,,M,,*64
06/24/2015	16:03:47.697	$GPGGA,160348,2521.8383,N,08003.9109,W,1,11,1.3,11,M,,M,,*64
06/24/2015	16:03:48.607	$GPGGA,160349,2521.8394,N,08003.9112,W,1,11,1.3,11,M,,M,,*69
06/24/2015	16:03:49.670	$GPGGA,160350,2521.8405,N,08003.9115,W,1,11,1.3,11,M,,M,,*69
06/24/2015	16:03:50.607	$GPGGA,160351,2521.8416,N,08003.9116,W,1,11,1.3,11,M,,M,,*69
06/24/2015	16:03:51.697	$GPGGA,160352,2521.8427,N,08003.9118,W,1,11,1.3,11,M,,M,,*66
06/24/2015	16:03:53.687	$GPGGA,160354,2521.8449,N,08003.9123,W,1,11,1.3,10,M,,M,,*61
06/24/2015	16:03:54.597	$GPGGA,160355,2521.8462,N,08003.9126,W,1,11,1.3,10,M,,M,,*6C
06/24/2015	16:03:55.687	$GPGGA,160356,2521.8473,N,08003.9127,W,1,11,1.3,10,M,,M,,*6E
06/24/2015	16:03:56.597	$GPGGA,160357,2521.8484,N,08003.9129,W,1,11,1.3,10,M,,M,,*69
06/24/2015	16:03:57.668	$GPGGA,160358,2521.8495,N,08003.9131,W,1,10,1.3,10,M,,M,,*6E
06/24/2015	16:03:58.557	$GPGGA,160359,2521.8506,N,08003.9133,W,1,10,1.3,10,M,,M,,*66
06/24/2015	16:03:59.687	$GPGGA,160400,2521.8517,N,08003.9136,W,1,11,1.3,10,M,,M,,*69
06/24/2015	16:04:00.587	$GPGGA,160401,2521.8528,N,08003.9137,W,1,11,1.3,10,M,,M,,*65
06/24/2015	16:04:01.657	$GPGGA,160402,2521.8541,N,08003.9138,W,1,11,1.3,10,M,,M,,*66
06/24/2015	16:04:02.577	$GPGGA,160403,2521.8552,N,08003.9140,W,1,11,1.3,10,M,,M,,*6A
06/24/2015	16:04:03.647	$GPGGA,160404,2521.8563,N,08003.9142,W,1,11,1.4,10,M,,M,,*6A
06/24/2015	16:04:04.587	$GPGGA,160405,2521.8574,N,08003.9144,W,1,11,1.4,10,M,,M,,*6B
06/24/2015	16:04:05.637	$GPGGA,160406,2521.8585,N,08003.9145,W,1,10,1.3,10,M,,M,,*61
06/24/2015	16:04:06.579	$GPGGA,160407,2521.8596,N,08003.9147,W,1,10,1.3,10,M,,M,,*60
06/24/2015	16:04:07.667	$GPGGA,160408,2521.8607,N,08003.9148,W,1,11,1.3,10,M,,M,,*6A
06/24/2015	16:04:08.557	$GPGGA,160409,2521.8620,N,08003.9149,W,1,11,1.5,10,M,,M,,*69
06/24/2015	16:04:09.637	$GPGGA,160410,2521.8631,N,08003.9151,W,1,11,1.5,10,M,,M,,*68
06/24/2015	16:04:10.574	$GPGGA,160411,2521.8643,N,08003.9151,W,1,11,1.5,11,M,,M,,*6D
06/24/2015	16:04:11.674	$GPGGA,160412,2521.8654,N,08003.9154,W,1,10,1.5,11,M,,M,,*6C
06/24/2015	16:04:12.537	$GPGGA,160413,2521.8665,N,08003.9155,W,1,10,1.5,11,M,,M,,*6E
06/24/2015	16:04:13.627	$GPGGA,160414,2521.8676,N,08003.9155,W,1,10,1.5,11,M,,M,,*6B
06/24/2015	16:04:14.557	$GPGGA,160415,2521.8687,N,08003.9156,W,1,10,1.5,11,M,,M,,*67
06/24/2015	16:04:15.648	$GPGGA,160416,2521.8701,N,08003.9158,W,1,9,1.6,11,M,,M,,*5E
06/24/2015	16:04:16.547	$GPGGA,160417,2521.8712,N,08003.9157,W,1,9,1.3,11,M,,M,,*57
06/24/2015	16:04:17.517	$GPGGA,160418,2521.8723,N,08003.9158,W,1,10,1.3,11,M,,M,,*6D
06/24/2015	16:04:18.517	$GPGGA,160419,2521.8734,N,08003.9159,W,1,10,1.6,11,M,,M,,*6E
06/24/2015	16:04:19.617	$GPGGA,160420,2521.8745,N,08003.9159,W,1,11,1.3,11,M,,M,,*66
06/24/2015	16:04:20.587	$GPGGA,160421,2521.8756,N,08003.9159,W,1,11,1.3,11,M,,M,,*65
06/24/2015	16:04:21.627	$GPGGA,160422,2521.8766,N,08003.9160,W,1,11,1.3,11,M,,M,,*6F
06/24/2015	16:04:22.547	$GPGGA,160423,2521.8777,N,08003.9162,W,1,11,1.3,11,M,,M,,*6C
06/24/2015	16:04:23.637	$GPGGA,160424,2521.8788,N,08003.9161,W,1,11,1.3,11,M,,M,,*68
06/24/2015	16:04:24.537	$GPGGA,160425,2521.8799,N,08003.9162,W,1,11,1.3,11,M,,M,,*6A
06/24/2015	16:04:25.627	$GPGGA,160426,2521.8810,N,08003.9163,W,1,11,1.3,11,M,,M,,*66
06/24/2015	16:04:26.527	$GPGGA,160427,2521.8820,N,08003.9165,W,1,11,1.3,11,M,,M,,*62
06/24/2015	16:04:27.607	$GPGGA,160428,2521.8831,N,08003.9164,W,1,11,1.3,12,M,,M,,*6F
06/24/2015	16:04:28.557	$GPGGA,160429,2521.8842,N,08003.9165,W,1,11,1.3,12,M,,M,,*6B
06/24/2015	16:04:29.617	$GPGGA,160430,2521.8852,N,08003.9166,W,1,11,1.3,12,M,,M,,*61
06/24/2015	16:04:30.537	$GPGGA,160431,2521.8863,N,08003.9167,W,1,11,1.3,12,M,,M,,*63
06/24/2015	16:04:31.607	$GPGGA,160432,2521.8874,N,08003.9167,W,1,11,1.3,12,M,,M,,*66
06/24/2015	16:04:32.547	$GPGGA,160433,2521.8884,N,08003.9169,W,1,11,1.3,12,M,,M,,*66
06/24/2015	16:04:33.597	$GPGGA,160434,2521.8893,N,08003.9169,W,1,11,1.3,12,M,,M,,*67
06/24/2015	16:04:34.597	$GPGGA,160435,2521.8904,N,08003.9170,W,1,11,1.3,12,M,,M,,*61
06/24/2015	16:04:35.607	$GPGGA,160436,2521.8915,N,08003.9170,W,1,11,1.3,12,M,,M,,*62
06/24/2015	16:04:36.581	$GPGGA,160437,2521.8925,N,08003.9171,W,1,11,1.3,12,M,,M,,*61
06/24/2015	16:04:37.567	$GPGGA,160438,2521.8936,N,08003.9173,W,1,11,1.4,12,M,,M,,*69
06/24/2015	16:04:38.582	$GPGGA,160439,2521.8947,N,08003.9176,W,1,11,1.3,12,M,,M,,*6C
06/24/2015	16:04:39.617	$GPGGA,160440,2521.8958,N,08003.9177,W,1,10,1.3,12,M,,M,,*6C
06/24/2015	16:04:40.584	$GPGGA,160441,2521.8969,N,08003.9177,W,1,10,1.3,12,M,,M,,*6F
06/24/2015	16:04:41.597	$GPGGA,160442,2521.8979,N,08003.9180,W,1,11,1.3,12,M,,M,,*64
06/24/2015	16:04:42.557	$GPGGA,160443,2521.8989,N,08003.9181,W,1,11,1.3,12,M,,M,,*6B
06/24/2015	16:04:43.617	$GPGGA,160444,2521.9000,N,08003.9181,W,1,11,1.3,12,M,,M,,*65
06/24/2015	16:04:44.557	$GPGGA,160445,2521.9011,N,08003.9181,W,1,11,1.5,12,M,,M,,*62
06/24/2015	16:04:45.607	$GPGGA,160446,2521.9021,N,08003.9183,W,1,10,1.5,12,M,,M,,*61
06/24/2015	16:04:46.571	$GPGGA,160447,2521.9032,N,08003.9184,W,1,10,1.5,12,M,,M,,*65
06/24/2015	16:04:47.617	$GPGGA,160448,2521.9041,N,08003.9184,W,1,10,1.5,12,M,,M,,*6E
06/24/2015	16:04:48.557	$GPGGA,160449,2521.9052,N,08003.9184,W,1,10,1.3,13,M,,M,,*6A
06/24/2015	16:04:49.587	$GPGGA,160450,2521.9062,N,08003.9185,W,1,11,1.4,13,M,,M,,*66
06/24/2015	16:04:50.547	$GPGGA,160451,2521.9072,N,08003.9187,W,1,11,1.4,13,M,,M,,*64
06/24/2015	16:04:51.587	$GPGGA,160452,2521.9081,N,08003.9186,W,1,11,1.3,13,M,,M,,*6D
06/24/2015	16:04:52.585	$GPGGA,160453,2521.9092,N,08003.9187,W,1,11,1.3,13,M,,M,,*6F
06/24/2015	16:04:53.580	$GPGGA,160454,2521.9102,N,08003.9188,W,1,11,1.3,13,M,,M,,*6F
06/24/2015	16:04:54.572	$GPGGA,160455,2521.9113,N,08003.9188,W,1,11,1.3,13,M,,M,,*6E
06/24/2015	16:04:55.589	$GPGGA,160456,2521.9123,N,08003.9188,W,1,10,1.3,13,M,,M,,*6F
06/24/2015	16:04:56.547	$GPGGA,160457,2521.9133,N,08003.9189,W,1,10,1.3,13,M,,M,,*6E
06/24/2015	16:04:57.597	$GPGGA,160458,2521.9142,N,08003.9189,W,1,11,1.4,13,M,,M,,*61
06/24/2015	16:04:58.537	$GPGGA,160459,2521.9152,N,08003.9191,W,1,11,1.4,13,M,,M,,*68
06/24/2015	16:04:59.672	$GPGGA,160500,2521.9160,N,08003.9190,W,1,11,1.3,13,M,,M,,*62
06/24/2015	16:05:00.537	$GPGGA,160501,2521.9171,N,08003.9191,W,1,11,1.3,13,M,,M,,*62
06/24/2015	16:05:01.586	$GPGGA,160502,2521.9180,N,08003.9192,W,1,11,1.3,13,M,,M,,*6C
06/24/2015	16:05:02.537	$GPGGA,160503,2521.9189,N,08003.9192,W,1,11,1.3,13,M,,M,,*64
06/24/2015	16:05:03.557	$GPGGA,160504,2521.9189,N,08003.9192,W,1,10,1.3,13,M,,M,,*62
06/24/2015	16:05:04.527	$GPGGA,160505,2521.9199,N,08003.9192,W,1,10,1.3,13,M,,M,,*62
06/24/2015	16:05:05.638	$GPGGA,160506,2521.9218,N,08003.9194,W,1,11,1.3,13,M,,M,,*6C
06/24/2015	16:05:06.517	$GPGGA,160507,2521.9229,N,08003.9193,W,1,11,1.3,13,M,,M,,*68
06/24/2015	16:05:07.537	$GPGGA,160508,2521.9229,N,08003.9193,W,1,11,1.3,13,M,,M,,*67
06/24/2015	16:05:08.527	$GPGGA,160509,2521.9250,N,08003.9193,W,1,11,1.3,13,M,,M,,*68
06/24/2015	16:05:09.647	$GPGGA,160510,2521.9258,N,08003.9195,W,1,11,1.3,13,M,,M,,*6E
06/24/2015	16:05:10.517	$GPGGA,160511,2521.9268,N,08003.9195,W,1,11,1.3,13,M,,M,,*6C
06/24/2015	16:05:11.627	$GPGGA,160512,2521.9279,N,08003.9193,W,1,10,1.5,14,M,,M,,*69
06/24/2015	16:05:12.507	$GPGGA,160513,2521.9287,N,08003.9192,W,1,10,1.6,14,M,,M,,*6B
06/24/2015	16:05:13.507	$GPGGA,160514,2521.9287,N,08003.9192,W,1,11,1.3,14,M,,M,,*68
06/24/2015	16:05:14.597	$GPGGA,160515,2521.9308,N,08003.9193,W,1,11,1.3,14,M,,M,,*6E
06/24/2015	16:05:15.627	$GPGGA,160516,2521.9319,N,08003.9190,W,1,11,1.3,14,M,,M,,*6E
06/24/2015	16:05:16.888	$GPGGA,160517,2521.9329,N,08003.9191,W,1,11,1.3,14,M,,M,,*6D
06/24/2015	16:05:17.626	$GPGGA,160518,2521.9339,N,08003.9192,W,1,11,1.3,14,M,,M,,*60
06/24/2015	16:05:18.576	$GPGGA,160519,2521.9348,N,08003.9190,W,1,11,1.3,14,M,,M,,*65
06/24/2015	16:05:19.606	$GPGGA,160520,2521.9359,N,08003.9188,W,1,10,1.5,14,M,,M,,*61
06/24/2015	16:05:20.576	$GPGGA,160521,2521.9370,N,08003.9191,W,1,10,1.3,14,M,,M,,*65
06/24/2015	16:05:21.576	$GPGGA,160522,2521.9380,N,08003.9190,W,1,11,1.3,14,M,,M,,*69
06/24/2015	16:05:22.576	$GPGGA,160523,2521.9390,N,08003.9189,W,1,11,1.3,14,M,,M,,*61
06/24/2015	16:05:23.606	$GPGGA,160524,2521.9399,N,08003.9188,W,1,11,1.3,14,M,,M,,*6E
06/24/2015	16:05:24.556	$GPGGA,160525,2521.9409,N,08003.9188,W,1,11,1.3,15,M,,M,,*60
06/24/2015	16:05:25.586	$GPGGA,160526,2521.9420,N,08003.9191,W,1,10,1.4,15,M,,M,,*66
06/24/2015	16:05:26.560	$GPGGA,160527,2521.9431,N,08003.9190,W,1,10,1.3,15,M,,M,,*61
06/24/2015	16:05:27.596	$GPGGA,160528,2521.9442,N,08003.9189,W,1,11,1.3,15,M,,M,,*63
06/24/2015	16:05:28.561	$GPGGA,160529,2521.9452,N,08003.9189,W,1,11,1.3,15,M,,M,,*63
06/24/2015	16:05:29.577	$GPGGA,160530,2521.9463,N,08003.9189,W,1,11,1.3,15,M,,M,,*69
06/24/2015	16:05:30.560	$GPGGA,160531,2521.9473,N,08003.9191,W,1,11,1.3,15,M,,M,,*60
06/24/2015	16:05:31.587	$GPGGA,160532,2521.9482,N,08003.9189,W,1,11,1.3,15,M,,M,,*64
06/24/2015	16:05:32.558	$GPGGA,160533,2521.9492,N,08003.9187,W,1,11,1.3,15,M,,M,,*6A
06/24/2015	16:05:33.570	$GPGGA,160534,2521.9503,N,08003.9187,W,1,11,1.3,15,M,,M,,*64
06/24/2015	16:05:34.569	$GPGGA,160535,2521.9514,N,08003.9188,W,1,11,1.3,15,M,,M,,*6C
06/24/2015	16:05:35.546	$GPGGA,160536,2521.9525,N,08003.9188,W,1,11,1.3,15,M,,M,,*6D
06/24/2015	16:05:36.536	$GPGGA,160537,2521.9534,N,08003.9187,W,1,11,1.4,15,M,,M,,*64
06/24/2015	16:05:37.558	$GPGGA,160538,2521.9543,N,08003.9187,W,1,10,1.4,15,M,,M,,*6A
06/24/2015	16:05:38.526	$GPGGA,160539,2521.9554,N,08003.9187,W,1,10,1.3,15,M,,M,,*6A
06/24/2015	16:05:39.546	$GPGGA,160540,2521.9565,N,08003.9188,W,1,11,1.3,16,M,,M,,*6B
06/24/2015	16:05:40.526	$GPGGA,160541,2521.9576,N,08003.9187,W,1,11,1.3,16,M,,M,,*67
06/24/2015	16:05:41.526	$GPGGA,160542,2521.9586,N,08003.9185,W,1,9,1.4,16,M,,M,,*57
06/24/2015	16:05:42.536	$GPGGA,160543,2521.9594,N,08003.9184,W,1,9,1.3,16,M,,M,,*53
06/24/2015	16:05:43.526	$GPGGA,160544,2521.9605,N,08003.9184,W,1,10,1.6,16,M,,M,,*62
06/24/2015	16:05:44.526	$GPGGA,160545,2521.9615,N,08003.9182,W,1,10,1.3,16,M,,M,,*61
06/24/2015	16:05:45.547	$GPGGA,160546,2521.9626,N,08003.9180,W,1,9,2.0,16,M,,M,,*58
06/24/2015	16:05:46.517	$GPGGA,160547,2521.9637,N,08003.9180,W,1,9,1.5,15,M,,M,,*5C
06/24/2015	16:05:47.579	$GPGGA,160548,2521.9648,N,08003.9180,W,1,9,1.6,15,M,,M,,*58
06/24/2015	16:05:48.527	$GPGGA,160549,2521.9659,N,08003.9177,W,1,9,1.5,15,M,,M,,*52
06/24/2015	16:05:49.527	$GPGGA,160550,2521.9669,N,08003.9176,W,1,9,1.6,15,M,,M,,*5B
06/24/2015	16:05:50.507	$GPGGA,160551,2521.9680,N,08003.9178,W,1,9,2.0,15,M,,M,,*56
06/24/2015	16:05:51.537	$GPGGA,160552,2521.9688,N,08003.9174,W,1,8,2.1,15,M,,M,,*51
06/24/2015	16:05:52.516	$GPGGA,160553,2521.9698,N,08003.9170,W,1,8,1.5,15,M,,M,,*52
06/24/2015	16:05:53.506	$GPGGA,160554,2521.9708,N,08003.9168,W,1,10,1.5,15,M,,M,,*6D
06/24/2015	16:05:54.506	$GPGGA,160555,2521.9716,N,08003.9164,W,1,10,1.6,15,M,,M,,*6C
06/24/2015	16:05:55.546	$GPGGA,160556,2521.9726,N,08003.9163,W,1,11,1.3,15,M,,M,,*6F
06/24/2015	16:05:56.496	$GPGGA,160557,2521.9734,N,08003.9163,W,1,11,2.0,15,M,,M,,*6D
06/24/2015	16:05:57.596	$GPGGA,160558,2521.9744,N,08003.9161,W,1,11,1.3,15,M,,M,,*67
06/24/2015	16:05:58.506	$GPGGA,160559,2521.9753,N,08003.9159,W,1,11,1.3,15,M,,M,,*6B
06/24/2015	16:05:59.616	$GPGGA,160600,2521.9763,N,08003.9156,W,1,10,1.5,15,M,,M,,*6F
06/24/2015	16:06:00.606	$GPGGA,160601,2521.9773,N,08003.9156,W,1,10,1.6,15,M,,M,,*6C
06/24/2015	16:06:01.606	$GPGGA,160602,2521.9782,N,08003.9154,W,1,10,1.6,15,M,,M,,*63
06/24/2015	16:06:02.496	$GPGGA,160603,2521.9792,N,08003.9151,W,1,10,1.3,15,M,,M,,*63
06/24/2015	16:06:03.607	$GPGGA,160604,2521.9802,N,08003.9150,W,1,11,1.3,15,M,,M,,*62
06/24/2015	16:06:04.581	$GPGGA,160605,2521.9810,N,08003.9151,W,1,11,1.3,15,M,,M,,*61
06/24/2015	16:06:05.577	$GPGGA,160606,2521.9820,N,08003.9148,W,1,11,1.3,15,M,,M,,*69
06/24/2015	16:06:06.477	$GPGGA,160607,2521.9829,N,08003.9145,W,1,11,1.5,15,M,,M,,*6A
06/24/2015	16:06:07.497	$GPGGA,160608,2521.9839,N,08003.9143,W,1,10,1.5,15,M,,M,,*63
06/24/2015	16:06:08.577	$GPGGA,160609,2521.9849,N,08003.9144,W,1,10,1.5,15,M,,M,,*62
06/24/2015	16:06:09.573	$GPGGA,160610,2521.9857,N,08003.9145,W,1,11,1.3,15,M,,M,,*63
06/24/2015	16:06:10.571	$GPGGA,160611,2521.9868,N,08003.9144,W,1,11,1.3,15,M,,M,,*6F
06/24/2015	16:06:11.606	$GPGGA,160612,2521.9878,N,08003.9142,W,1,11,1.3,15,M,,M,,*6B
06/24/2015	16:06:12.571	$GPGGA,160613,2521.9888,N,08003.9144,W,1,11,1.5,15,M,,M,,*65
06/24/2015	16:06:13.577	$GPGGA,160614,2521.9897,N,08003.9144,W,1,11,1.3,15,M,,M,,*6A
06/24/2015	16:06:14.574	$GPGGA,160615,2521.9907,N,08003.9143,W,1,11,1.3,15,M,,M,,*64
06/24/2015	16:06:15.616	$GPGGA,160616,2521.9917,N,08003.9141,W,1,11,1.3,15,M,,M,,*64
06/24/2015	16:06:16.557	$GPGGA,160617,2521.9926,N,08003.9141,W,1,11,1.3,15,M,,M,,*67
06/24/2015	16:06:17.560	$GPGGA,160618,2521.9937,N,08003.9141,W,1,11,1.3,15,M,,M,,*68
06/24/2015	16:06:18.556	$GPGGA,160619,2521.9947,N,08003.9141,W,1,11,1.3,15,M,,M,,*6E
06/24/2015	16:06:19.576	$GPGGA,160620,2521.9957,N,08003.9140,W,1,9,1.6,15,M,,M,,*58
06/24/2015	16:06:20.558	$GPGGA,160621,2521.9968,N,08003.9139,W,1,9,1.3,15,M,,M,,*5E
06/24/2015	16:06:21.537	$GPGGA,160622,2521.9979,N,08003.9140,W,1,10,1.4,15,M,,M,,*6C
06/24/2015	16:06:22.547	$GPGGA,160623,2521.9987,N,08003.9139,W,1,10,1.3,15,M,,M,,*65
06/24/2015	16:06:23.572	$GPGGA,160624,2521.9998,N,08003.9138,W,1,11,1.3,15,M,,M,,*6C
06/24/2015	16:06:24.561	$GPGGA,160625,2522.0009,N,08003.9136,W,1,11,1.3,15,M,,M,,*68
06/24/2015	16:06:25.527	$GPGGA,160626,2522.0019,N,08003.9137,W,1,11,1.3,15,M,,M,,*6B
06/24/2015	16:06:26.537	$GPGGA,160627,2522.0027,N,08003.9138,W,1,11,1.4,15,M,,M,,*6F
06/24/2015	16:06:27.576	$GPGGA,160628,2522.0038,N,08003.9136,W,1,11,1.3,15,M,,M,,*67
06/24/2015	16:06:28.516	$GPGGA,160629,2522.0048,N,08003.9138,W,1,11,1.8,15,M,,M,,*64
06/24/2015	16:06:29.556	$GPGGA,160630,2522.0058,N,08003.9138,W,1,11,1.3,15,M,,M,,*66
06/24/2015	16:06:31.576	$GPGGA,160632,2522.0077,N,08003.9138,W,1,11,1.3,15,M,,M,,*69
06/24/2015	16:06:32.506	$GPGGA,160633,2522.0087,N,08003.9138,W,1,11,1.3,15,M,,M,,*67
06/24/2015	16:06:33.506	$GPGGA,160634,2522.0096,N,08003.9137,W,1,11,1.3,15,M,,M,,*6F
06/24/2015	16:06:34.626	$GPGGA,160635,2522.0107,N,08003.9137,W,1,11,1.3,15,M,,M,,*67
06/24/2015	16:06:35.996	$GPGGA,160636,2522.0116,N,08003.9135,W,1,11,1.3,15,M,,M,,*66
06/24/2015	16:06:36.516	$GPGGA,160637,2522.0125,N,08003.9134,W,1,11,1.3,15,M,,M,,*66
06/24/2015	16:06:37.516	$GPGGA,160638,2522.0135,N,08003.9133,W,1,10,1.5,15,M,,M,,*68
06/24/2015	16:06:38.517	$GPGGA,160639,2522.0146,N,08003.9132,W,1,10,1.3,15,M,,M,,*6A
06/24/2015	16:06:39.617	$GPGGA,160640,2522.0154,N,08003.9129,W,1,11,1.3,15,M,,M,,*6C
06/24/2015	16:06:40.517	$GPGGA,160641,2522.0164,N,08003.9128,W,1,11,1.3,15,M,,M,,*6F
06/24/2015	16:06:41.517	$GPGGA,160642,2522.0175,N,08003.9129,W,1,11,1.3,15,M,,M,,*6D
06/24/2015	16:06:42.497	$GPGGA,160643,2522.0185,N,08003.9128,W,1,11,1.3,15,M,,M,,*62
06/24/2015	16:06:43.627	$GPGGA,160644,2522.0193,N,08003.9126,W,1,11,1.3,15,M,,M,,*6C
06/24/2015	16:06:44.507	$GPGGA,160645,2522.0203,N,08003.9126,W,1,11,1.3,16,M,,M,,*64
06/24/2015	16:06:45.586	$GPGGA,160646,2522.0212,N,08003.9126,W,1,10,1.5,16,M,,M,,*60
06/24/2015	16:06:46.496	$GPGGA,160647,2522.0222,N,08003.9126,W,1,10,1.5,16,M,,M,,*62
06/24/2015	16:06:47.596	$GPGGA,160648,2522.0232,N,08003.9125,W,1,10,1.5,16,M,,M,,*6F
06/24/2015	16:06:48.586	$GPGGA,160649,2522.0242,N,08003.9126,W,1,10,1.5,16,M,,M,,*6A
06/24/2015	16:06:49.596	$GPGGA,160650,2522.0251,N,08003.9124,W,1,10,1.5,16,M,,M,,*62
06/24/2015	16:06:50.576	$GPGGA,160651,2522.0261,N,08003.9123,W,1,10,1.5,16,M,,M,,*67
06/24/2015	16:06:51.486	$GPGGA,160652,2522.0269,N,08003.9126,W,1,10,1.5,16,M,,M,,*69
06/24/2015	16:06:52.576	$GPGGA,160653,2522.0280,N,08003.9126,W,1,10,1.5,16,M,,M,,*6F
06/24/2015	16:06:53.570	$GPGGA,160654,2522.0289,N,08003.9123,W,1,10,1.5,16,M,,M,,*64
06/24/2015	16:06:54.566	$GPGGA,160655,2522.0298,N,08003.9122,W,1,10,1.5,16,M,,M,,*64
06/24/2015	16:06:55.597	$GPGGA,160656,2522.0309,N,08003.9126,W,1,9,1.5,16,M,,M,,*52
06/24/2015	16:06:56.572	$GPGGA,160657,2522.0319,N,08003.9127,W,1,9,1.5,16,M,,M,,*53
06/24/2015	16:06:57.570	$GPGGA,160658,2522.0327,N,08003.9125,W,1,10,1.5,16,M,,M,,*6B
06/24/2015	16:06:58.569	$GPGGA,160659,2522.0337,N,08003.9124,W,1,10,1.5,16,M,,M,,*6A
06/24/2015	16:06:59.607	$GPGGA,160700,2522.0347,N,08003.9126,W,1,10,1.5,16,M,,M,,*62
06/24/2015	16:07:00.565	$GPGGA,160701,2522.0356,N,08003.9126,W,1,10,1.5,16,M,,M,,*63
06/24/2015	16:07:01.547	$GPGGA,160702,2522.0366,N,08003.9125,W,1,9,2.0,16,M,,M,,*5E
06/24/2015	16:07:02.558	$GPGGA,160703,2522.0376,N,08003.9124,W,1,9,1.5,15,M,,M,,*5A
06/24/2015	16:07:03.586	$GPGGA,160704,2522.0385,N,08003.9124,W,1,10,1.5,15,M,,M,,*69
06/24/2015	16:07:04.560	$GPGGA,160705,2522.0395,N,08003.9123,W,1,10,1.5,15,M,,M,,*6E
06/24/2015	16:07:05.536	$GPGGA,160706,2522.0403,N,08003.9122,W,1,10,1.5,15,M,,M,,*64
06/24/2015	16:07:06.536	$GPGGA,160707,2522.0413,N,08003.9122,W,1,10,1.5,15,M,,M,,*64
06/24/2015	16:07:07.574	$GPGGA,160708,2522.0421,N,08003.9122,W,1,10,1.5,15,M,,M,,*6A
06/24/2015	16:07:08.546	$GPGGA,160709,2522.0431,N,08003.9121,W,1,10,1.5,15,M,,M,,*69
06/24/2015	16:07:09.526	$GPGGA,160710,2522.0439,N,08003.9119,W,1,10,1.5,15,M,,M,,*62
06/24/2015	16:07:10.546	$GPGGA,160711,2522.0449,N,08003.9119,W,1,10,1.5,15,M,,M,,*64
06/24/2015	16:07:11.576	$GPGGA,160712,2522.0459,N,08003.9118,W,1,8,2.1,15,M,,M,,*59
06/24/2015	16:07:12.536	$GPGGA,160713,2522.0468,N,08003.9116,W,1,8,1.5,15,M,,M,,*53
06/24/2015	16:07:13.559	$GPGGA,160714,2522.0475,N,08003.9111,W,1,10,1.4,15,M,,M,,*67
06/24/2015	16:07:14.517	$GPGGA,160715,2522.0485,N,08003.9110,W,1,10,1.4,15,M,,M,,*68
06/24/2015	16:07:15.527	$GPGGA,160716,2522.0495,N,08003.9111,W,1,10,1.4,15,M,,M,,*6B
06/24/2015	16:07:16.527	$GPGGA,160717,2522.0503,N,08003.9109,W,1,10,1.5,15,M,,M,,*6C
06/24/2015	16:07:17.547	$GPGGA,160718,2522.0511,N,08003.9106,W,1,9,1.5,15,M,,M,,*57
06/24/2015	16:07:18.527	$GPGGA,160719,2522.0521,N,08003.9107,W,1,9,1.5,15,M,,M,,*54
06/24/2015	16:07:19.557	$GPGGA,160720,2522.0531,N,08003.9108,W,1,9,1.5,15,M,,M,,*50
06/24/2015	16:07:20.506	$GPGGA,160721,2522.0540,N,08003.9106,W,1,9,1.4,15,M,,M,,*58
06/24/2015	16:07:21.516	$GPGGA,160722,2522.0549,N,08003.9105,W,1,9,1.5,15,M,,M,,*50
06/24/2015	16:07:22.506	$GPGGA,160723,2522.0558,N,08003.9105,W,1,9,1.5,15,M,,M,,*51
06/24/2015	16:07:23.557	$GPGGA,160724,2522.0568,N,08003.9104,W,1,9,1.5,15,M,,M,,*54
06/24/2015	16:07:24.516	$GPGGA,160725,2522.0578,N,08003.9104,W,1,9,1.4,15,M,,M,,*55
06/24/2015	16:07:25.516	$GPGGA,160726,2522.0587,N,08003.9102,W,1,10,1.4,15,M,,M,,*68
06/24/2015	16:07:26.496	$GPGGA,160727,2522.0598,N,08003.9101,W,1,10,1.4,15,M,,M,,*64
06/24/2015	16:07:27.526	$GPGGA,160728,2522.0607,N,08003.9102,W,1,10,1.4,15,M,,M,,*6D
06/24/2015	16:07:28.596	$GPGGA,160729,2522.0616,N,08003.9102,W,1,10,1.5,15,M,,M,,*6D
06/24/2015	16:07:29.506	$GPGGA,160730,2522.0626,N,08003.9102,W,1,10,1.4,15,M,,M,,*67
06/24/2015	16:07:30.597	$GPGGA,160731,2522.0634,N,08003.9102,W,1,10,1.5,15,M,,M,,*64
06/24/2015	16:07:31.637	$GPGGA,160732,2522.0645,N,08003.9104,W,1,10,1.4,15,M,,M,,*66
06/24/2015	16:07:32.587	$GPGGA,160733,2522.0652,N,08003.9102,W,1,10,1.5,15,M,,M,,*66
06/24/2015	16:07:33.487	$GPGGA,160734,2522.0663,N,08003.9102,W,1,9,1.5,15,M,,M,,*5B
06/24/2015	16:07:34.567	$GPGGA,160735,2522.0673,N,08003.9104,W,1,9,1.5,15,M,,M,,*5D
06/24/2015	16:07:35.497	$GPGGA,160736,2522.0681,N,08003.9103,W,1,8,2.1,15,M,,M,,*52
06/24/2015	16:07:36.487	$GPGGA,160737,2522.0690,N,08003.9102,W,1,8,1.5,15,M,,M,,*55
06/24/2015	16:07:37.606	$GPGGA,160738,2522.0699,N,08003.9104,W,1,9,1.5,15,M,,M,,*54
06/24/2015	16:07:38.568	$GPGGA,160739,2522.0710,N,08003.9104,W,1,9,1.5,15,M,,M,,*55
06/24/2015	16:07:39.586	$GPGGA,160740,2522.0719,N,08003.9100,W,1,9,1.5,15,M,,M,,*56
06/24/2015	16:07:40.576	$GPGGA,160741,2522.0728,N,08003.9100,W,1,9,1.4,15,M,,M,,*54
06/24/2015	16:07:41.561	$GPGGA,160742,2522.0738,N,08003.9101,W,1,9,1.5,15,M,,M,,*56
06/24/2015	16:07:42.566	$GPGGA,160743,2522.0746,N,08003.9102,W,1,9,1.5,15,M,,M,,*5D
06/24/2015	16:07:43.576	$GPGGA,160744,2522.0756,N,08003.9100,W,1,9,1.5,15,M,,M,,*59
06/24/2015	16:07:44.559	$GPGGA,160745,2522.0764,N,08003.9099,W,1,9,1.5,15,M,,M,,*58
06/24/2015	16:07:45.556	$GPGGA,160746,2522.0774,N,08003.9100,W,1,9,1.5,15,M,,M,,*5B
06/24/2015	16:07:46.546	$GPGGA,160747,2522.0784,N,08003.9101,W,1,9,1.5,15,M,,M,,*54
06/24/2015	16:07:47.586	$GPGGA,160748,2522.0792,N,08003.9099,W,1,9,1.5,15,M,,M,,*5C
06/24/2015	16:07:48.558	$GPGGA,160749,2522.0800,N,08003.9098,W,1,9,1.5,15,M,,M,,*58
06/24/2015	16:07:49.547	$GPGGA,160750,2522.0810,N,08003.9100,W,1,9,1.5,15,M,,M,,*51
06/24/2015	16:07:50.557	$GPGGA,160751,2522.0818,N,08003.9101,W,1,9,1.5,15,M,,M,,*59
06/24/2015	16:07:51.567	$GPGGA,160752,2522.0828,N,08003.9100,W,1,9,1.5,15,M,,M,,*58
06/24/2015	16:07:52.557	$GPGGA,160753,2522.0836,N,08003.9100,W,1,9,1.5,15,M,,M,,*56
06/24/2015	16:07:53.559	$GPGGA,160754,2522.0847,N,08003.9102,W,1,9,1.5,15,M,,M,,*55
06/24/2015	16:07:54.537	$GPGGA,160755,2522.0855,N,08003.9102,W,1,9,1.5,15,M,,M,,*57
06/24/2015	16:07:55.546	$GPGGA,160756,2522.0864,N,08003.9101,W,1,9,1.5,14,M,,M,,*54
06/24/2015	16:07:56.536	$GPGGA,160757,2522.0872,N,08003.9102,W,1,9,1.5,14,M,,M,,*51
06/24/2015	16:07:57.526	$GPGGA,160758,2522.0883,N,08003.9102,W,1,9,1.5,14,M,,M,,*50
06/24/2015	16:07:58.517	$GPGGA,160759,2522.0891,N,08003.9102,W,1,9,1.6,14,M,,M,,*51
06/24/2015	16:07:59.576	$GPGGA,160800,2522.0901,N,08003.9102,W,1,8,1.7,14,M,,M,,*5A
06/24/2015	16:08:00.526	$GPGGA,160801,2522.0909,N,08003.9102,W,1,8,1.7,14,M,,M,,*53
06/24/2015	16:08:01.546	$GPGGA,160802,2522.0919,N,08003.9104,W,1,8,1.7,14,M,,M,,*57
06/24/2015	16:08:02.516	$GPGGA,160803,2522.0927,N,08003.9105,W,1,8,1.6,14,M,,M,,*5B
06/24/2015	16:08:03.536	$GPGGA,160804,2522.0936,N,08003.9107,W,1,9,1.6,14,M,,M,,*5F
06/24/2015	16:08:04.526	$GPGGA,160805,2522.0945,N,08003.9108,W,1,9,1.6,14,M,,M,,*55
06/24/2015	16:08:05.507	$GPGGA,160806,2522.0952,N,08003.9107,W,1,9,1.6,14,M,,M,,*5F
06/24/2015	16:08:06.527	$GPGGA,160807,2522.0961,N,08003.9109,W,1,9,1.6,14,M,,M,,*50
06/24/2015	16:08:07.647	$GPGGA,160808,2522.0970,N,08003.9111,W,1,9,1.6,14,M,,M,,*56
06/24/2015	16:08:08.627	$GPGGA,160809,2522.0980,N,08003.9111,W,1,9,1.6,14,M,,M,,*58
06/24/2015	16:08:09.497	$GPGGA,160810,2522.0988,N,08003.9109,W,1,9,1.6,14,M,,M,,*51
06/24/2015	16:08:10.517	$GPGGA,160811,2522.0997,N,08003.9109,W,1,9,1.6,14,M,,M,,*5E
06/24/2015	16:08:11.669	$GPGGA,160812,2522.1006,N,08003.9112,W,1,9,1.6,14,M,,M,,*57
06/24/2015	16:08:12.516	$GPGGA,160813,2522.1016,N,08003.9112,W,1,9,1.6,14,M,,M,,*57
06/24/2015	16:08:13.606	$GPGGA,160814,2522.1024,N,08003.9111,W,1,9,1.6,14,M,,M,,*52
06/24/2015	16:08:15.536	$GPGGA,160816,2522.1044,N,08003.9113,W,1,9,1.6,14,M,,M,,*54
06/24/2015	16:08:16.606	$GPGGA,160817,2522.1053,N,08003.9113,W,1,9,1.6,14,M,,M,,*53
06/24/2015	16:08:17.606	$GPGGA,160818,2522.1061,N,08003.9112,W,1,9,1.6,14,M,,M,,*5C
06/24/2015	16:08:18.496	$GPGGA,160819,2522.1071,N,08003.9112,W,1,9,1.6,14,M,,M,,*5C
06/24/2015	16:08:19.586	$GPGGA,160820,2522.1082,N,08003.9111,W,1,10,1.4,14,M,,M,,*63
06/24/2015	16:08:20.486	$GPGGA,160821,2522.1092,N,08003.9110,W,1,10,1.4,14,M,,M,,*62
06/24/2015	16:08:21.577	$GPGGA,160822,2522.1100,N,08003.9108,W,1,10,1.4,14,M,,M,,*62
06/24/2015	16:08:22.576	$GPGGA,160823,2522.1110,N,08003.9108,W,1,10,1.4,14,M,,M,,*62
06/24/2015	16:08:23.627	$GPGGA,160824,2522.1121,N,08003.9108,W,1,10,1.4,14,M,,M,,*67
06/24/2015	16:08:24.577	$GPGGA,160825,2522.1129,N,08003.9111,W,1,10,1.6,14,M,,M,,*64
06/24/2015	16:08:25.574	$GPGGA,160826,2522.1138,N,08003.9108,W,1,9,1.6,14,M,,M,,*57
06/24/2015	16:08:26.577	$GPGGA,160827,2522.1147,N,08003.9109,W,1,9,1.4,14,M,,M,,*5D
06/24/2015	16:08:27.597	$GPGGA,160828,2522.1157,N,08003.9111,W,1,10,1.4,14,M,,M,,*62
06/24/2015	16:08:28.573	$GPGGA,160829,2522.1167,N,08003.9111,W,1,10,1.4,14,M,,M,,*60
06/24/2015	16:08:29.587	$GPGGA,160830,2522.1176,N,08003.9109,W,1,10,1.4,14,M,,M,,*61
06/24/2015	16:08:30.576	$GPGGA,160831,2522.1185,N,08003.9109,W,1,10,1.4,14,M,,M,,*6C
06/24/2015	16:08:31.606	$GPGGA,160832,2522.1194,N,08003.9111,W,1,10,1.4,14,M,,M,,*66
06/24/2015	16:08:32.565	$GPGGA,160833,2522.1204,N,08003.9111,W,1,10,1.4,14,M,,M,,*6D
06/24/2015	16:08:33.571	$GPGGA,160834,2522.1212,N,08003.9110,W,1,10,1.4,14,M,,M,,*6C
06/24/2015	16:08:34.558	$GPGGA,160835,2522.1221,N,08003.9109,W,1,10,1.4,14,M,,M,,*65
06/24/2015	16:08:35.576	$GPGGA,160836,2522.1230,N,08003.9111,W,1,10,1.4,14,M,,M,,*6F
06/24/2015	16:08:36.557	$GPGGA,160837,2522.1241,N,08003.9111,W,1,10,1.4,14,M,,M,,*68
06/24/2015	16:08:37.556	$GPGGA,160838,2522.1250,N,08003.9109,W,1,10,1.6,14,M,,M,,*6C
06/24/2015	16:08:38.556	$GPGGA,160839,2522.1259,N,08003.9107,W,1,10,1.6,14,M,,M,,*6A
06/24/2015	16:08:39.571	$GPGGA,160840,2522.1269,N,08003.9108,W,1,9,1.4,14,M,,M,,*52
06/24/2015	16:08:40.547	$GPGGA,160841,2522.1277,N,08003.9111,W,1,9,1.4,14,M,,M,,*54
06/24/2015	16:08:41.537	$GPGGA,160842,2522.1287,N,08003.9108,W,1,10,1.4,14,M,,M,,*68
06/24/2015	16:08:42.537	$GPGGA,160843,2522.1295,N,08003.9108,W,1,10,1.4,14,M,,M,,*6A
06/24/2015	16:08:45.072	$GPGGA,160845,2522.1313,N,08003.9110,W,1,10,1.4,14,M,,M,,*6A
06/24/2015	16:08:45.527	$GPGGA,160846,2522.1321,N,08003.9111,W,1,10,1.6,14,M,,M,,*6B
06/24/2015	16:08:46.537	$GPGGA,160847,2522.1330,N,08003.9111,W,1,10,1.6,14,M,,M,,*6A
06/24/2015	16:08:47.570	$GPGGA,160848,2522.1339,N,08003.9111,W,1,9,1.6,14,M,,M,,*54
06/24/2015	16:08:48.526	$GPGGA,160849,2522.1349,N,08003.9111,W,1,9,1.4,14,M,,M,,*50
06/24/2015	16:08:49.559	$GPGGA,160850,2522.1357,N,08003.9112,W,1,10,1.4,14,M,,M,,*6C
06/24/2015	16:08:50.546	$GPGGA,160851,2522.1367,N,08003.9111,W,1,10,1.4,14,M,,M,,*6D
06/24/2015	16:08:51.636	$GPGGA,160852,2522.1378,N,08003.9110,W,1,10,1.4,14,M,,M,,*61
06/24/2015	16:08:52.536	$GPGGA,160853,2522.1388,N,08003.9111,W,1,10,1.4,14,M,,M,,*6E
06/24/2015	16:08:53.536	$GPGGA,160854,2522.1396,N,08003.9110,W,1,9,1.4,14,M,,M,,*5F
06/24/2015	16:08:54.626	$GPGGA,160855,2522.1406,N,08003.9111,W,1,9,1.4,14,M,,M,,*51
06/24/2015	16:08:55.516	$GPGGA,160856,2522.1415,N,08003.9110,W,1,10,1.4,14,M,,M,,*69
06/24/2015	16:08:56.506	$GPGGA,160857,2522.1425,N,08003.9111,W,1,10,1.4,14,M,,M,,*6A
06/24/2015	16:08:57.527	$GPGGA,160858,2522.1435,N,08003.9109,W,1,10,1.4,14,M,,M,,*6D
06/24/2015	16:08:58.597	$GPGGA,160859,2522.1443,N,08003.9108,W,1,10,1.4,14,M,,M,,*6C
06/24/2015	16:08:59.567	$GPGGA,160900,2522.1453,N,08003.9108,W,1,10,1.4,14,M,,M,,*60
06/24/2015	16:09:00.597	$GPGGA,160901,2522.1461,N,08003.9109,W,1,10,1.6,14,M,,M,,*63
06/24/2015	16:09:01.497	$GPGGA,160902,2522.1471,N,08003.9108,W,1,9,1.4,14,M,,M,,*5A
06/24/2015	16:09:02.587	$GPGGA,160903,2522.1480,N,08003.9106,W,1,9,1.4,14,M,,M,,*5B
06/24/2015	16:09:03.607	$GPGGA,160904,2522.1489,N,08003.9107,W,1,10,1.4,15,M,,M,,*6D
06/24/2015	16:09:04.507	$GPGGA,160905,2522.1497,N,08003.9106,W,1,10,1.4,15,M,,M,,*62
06/24/2015	16:09:05.586	$GPGGA,160906,2522.1507,N,08003.9108,W,1,10,1.4,15,M,,M,,*67
06/24/2015	16:09:06.496	$GPGGA,160907,2522.1515,N,08003.9107,W,1,10,1.4,15,M,,M,,*6A
06/24/2015	16:09:07.626	$GPGGA,160908,2522.1523,N,08003.9106,W,1,10,1.4,15,M,,M,,*61
06/24/2015	16:09:08.576	$GPGGA,160909,2522.1533,N,08003.9107,W,1,10,1.4,15,M,,M,,*60
06/24/2015	16:09:09.586	$GPGGA,160910,2522.1541,N,08003.9106,W,1,10,1.4,15,M,,M,,*6C
06/24/2015	16:09:10.856	$GPGGA,160911,2522.1552,N,08003.9105,W,1,10,1.4,15,M,,M,,*6C
06/24/2015	16:09:11.596	$GPGGA,160912,2522.1561,N,08003.9104,W,1,10,1.4,15,M,,M,,*6E
06/24/2015	16:09:12.576	$GPGGA,160913,2522.1570,N,08003.9104,W,1,10,1.4,15,M,,M,,*6F
06/24/2015	16:09:13.586	$GPGGA,160914,2522.1579,N,08003.9105,W,1,10,1.4,15,M,,M,,*60
06/24/2015	16:09:14.566	$GPGGA,160915,2522.1588,N,08003.9105,W,1,10,1.4,15,M,,M,,*6F
06/24/2015	16:09:15.607	$GPGGA,160916,2522.1597,N,08003.9103,W,1,10,1.4,15,M,,M,,*64
06/24/2015	16:09:16.567	$GPGGA,160917,2522.1605,N,08003.9101,W,1,10,1.7,15,M,,M,,*6C
06/24/2015	16:09:17.577	$GPGGA,160918,2522.1613,N,08003.9102,W,1,10,1.4,15,M,,M,,*64
06/24/2015	16:09:18.558	$GPGGA,160919,2522.1623,N,08003.9102,W,1,10,2.1,15,M,,M,,*60
06/24/2015	16:09:19.577	$GPGGA,160920,2522.1631,N,08003.9102,W,1,8,1.7,15,M,,M,,*55
06/24/2015	16:09:20.567	$GPGGA,160921,2522.1639,N,08003.9101,W,1,8,1.7,15,M,,M,,*5F
06/24/2015	16:09:21.557	$GPGGA,160922,2522.1649,N,08003.9099,W,1,10,1.4,15,M,,M,,*61
06/24/2015	16:09:22.559	$GPGGA,160923,2522.1656,N,08003.9098,W,1,10,1.4,15,M,,M,,*6F
06/24/2015	16:09:23.566	$GPGGA,160924,2522.1664,N,08003.9097,W,1,9,1.6,15,M,,M,,*5C
06/24/2015	16:09:24.546	$GPGGA,160925,2522.1674,N,08003.9095,W,1,9,1.4,15,M,,M,,*5C
06/24/2015	16:09:25.536	$GPGGA,160926,2522.1682,N,08003.9094,W,1,10,1.4,15,M,,M,,*6F
06/24/2015	16:09:26.546	$GPGGA,160927,2522.1691,N,08003.9092,W,1,10,1.4,15,M,,M,,*6A
06/24/2015	16:09:27.586	$GPGGA,160928,2522.1699,N,08003.9091,W,1,10,1.4,15,M,,M,,*6E
06/24/2015	16:09:28.556	$GPGGA,160929,2522.1709,N,08003.9093,W,1,10,1.4,15,M,,M,,*65
06/24/2015	16:09:29.526	$GPGGA,160930,2522.1717,N,08003.9091,W,1,9,1.7,15,M,,M,,*5B
06/24/2015	16:09:30.526	$GPGGA,160931,2522.1727,N,08003.9091,W,1,9,1.4,15,M,,M,,*5A
06/24/2015	16:09:31.556	$GPGGA,160932,2522.1736,N,08003.9093,W,1,9,1.7,15,M,,M,,*58
06/24/2015	16:09:32.536	$GPGGA,160933,2522.1747,N,08003.9093,W,1,9,2.1,15,M,,M,,*5A
06/24/2015	16:09:33.575	$GPGGA,160934,2522.1758,N,08003.9093,W,1,10,1.4,15,M,,M,,*6D
06/24/2015	16:09:34.537	$GPGGA,160935,2522.1767,N,08003.9092,W,1,10,1.7,15,M,,M,,*62
06/24/2015	16:09:35.557	$GPGGA,160936,2522.1776,N,08003.9093,W,1,9,1.6,15,M,,M,,*59
06/24/2015	16:09:36.527	$GPGGA,160937,2522.1785,N,08003.9094,W,1,9,1.7,15,M,,M,,*52
06/24/2015	16:09:37.627	$GPGGA,160938,2522.1794,N,08003.9090,W,1,9,1.6,15,M,,M,,*58
06/24/2015	16:09:38.517	$GPGGA,160939,2522.1804,N,08003.9089,W,1,9,1.4,15,M,,M,,*55
06/24/2015	16:09:39.537	$GPGGA,160940,2522.1812,N,08003.9090,W,1,9,1.6,15,M,,M,,*56
06/24/2015	16:09:40.507	$GPGGA,160941,2522.1822,N,08003.9093,W,1,9,1.4,15,M,,M,,*55
06/24/2015	16:09:41.616	$GPGGA,160942,2522.1830,N,08003.9092,W,1,8,2.1,15,M,,M,,*53
06/24/2015	16:09:42.516	$GPGGA,160943,2522.1841,N,08003.9093,W,1,8,1.6,15,M,,M,,*51
06/24/2015	16:09:43.626	$GPGGA,160944,2522.1850,N,08003.9093,W,1,9,1.6,15,M,,M,,*57
06/24/2015	16:09:44.516	$GPGGA,160945,2522.1859,N,08003.9094,W,1,9,1.4,15,M,,M,,*5A
06/24/2015	16:09:45.596	$GPGGA,160946,2522.1868,N,08003.9095,W,1,9,1.6,15,M,,M,,*58
06/24/2015	16:09:46.586	$GPGGA,160947,2522.1877,N,08003.9094,W,1,9,1.6,15,M,,M,,*56
06/24/2015	16:09:47.496	$GPGGA,160948,2522.1886,N,08003.9093,W,1,9,1.6,15,M,,M,,*50
06/24/2015	16:09:48.596	$GPGGA,160949,2522.1895,N,08003.9094,W,1,9,1.6,15,M,,M,,*54
06/24/2015	16:09:49.496	$GPGGA,160950,2522.1904,N,08003.9097,W,1,9,1.6,15,M,,M,,*56
06/24/2015	16:09:50.587	$GPGGA,160951,2522.1915,N,08003.9095,W,1,9,1.7,15,M,,M,,*54
06/24/2015	16:09:51.587	$GPGGA,160952,2522.1924,N,08003.9092,W,1,9,1.6,15,M,,M,,*53
06/24/2015	16:09:52.597	$GPGGA,160953,2522.1935,N,08003.9095,W,1,9,1.6,15,M,,M,,*55
06/24/2015	16:09:53.617	$GPGGA,160954,2522.1945,N,08003.9097,W,1,8,2.1,15,M,,M,,*52
06/24/2015	16:09:54.587	$GPGGA,160955,2522.1956,N,08003.9096,W,1,8,1.6,15,M,,M,,*54
06/24/2015	16:09:55.487	$GPGGA,160956,2522.1966,N,08003.9095,W,1,10,1.4,15,M,,M,,*6C
06/24/2015	16:09:56.572	$GPGGA,160957,2522.1974,N,08003.9094,W,1,10,2.1,15,M,,M,,*69
06/24/2015	16:09:57.586	$GPGGA,160958,2522.1984,N,08003.9097,W,1,9,1.6,15,M,,M,,*56
06/24/2015	16:09:58.571	$GPGGA,160959,2522.1993,N,08003.9097,W,1,9,1.6,15,M,,M,,*51
06/24/2015	16:09:59.606	$GPGGA,161000,2522.2003,N,08003.9094,W,1,9,1.6,15,M,,M,,*55
06/24/2015	16:10:00.556	$GPGGA,161001,2522.2011,N,08003.9097,W,1,9,1.6,15,M,,M,,*54
06/24/2015	16:10:01.586	$GPGGA,161002,2522.2021,N,08003.9097,W,1,10,1.4,15,M,,M,,*6E
06/24/2015	16:10:02.560	$GPGGA,161003,2522.2031,N,08003.9095,W,1,10,1.6,15,M,,M,,*6E
06/24/2015	16:10:03.586	$GPGGA,161004,2522.2039,N,08003.9094,W,1,10,1.4,15,M,,M,,*62
06/24/2015	16:10:05.596	$GPGGA,161006,2522.2057,N,08003.9094,W,1,10,1.4,15,M,,M,,*68
06/24/2015	16:10:06.546	$GPGGA,161007,2522.2065,N,08003.9092,W,1,10,1.4,15,M,,M,,*6E
06/24/2015	16:10:07.568	$GPGGA,161008,2522.2075,N,08003.9090,W,1,10,1.4,15,M,,M,,*62
06/24/2015	16:10:08.547	$GPGGA,161009,2522.2083,N,08003.9093,W,1,10,1.6,15,M,,M,,*6B
06/24/2015	16:10:09.575	$GPGGA,161010,2522.2092,N,08003.9092,W,1,7,1.9,15,M,,M,,*5B
06/24/2015	16:10:10.537	$GPGGA,161011,2522.2100,N,08003.9093,W,1,7,1.6,15,M,,M,,*5E
06/24/2015	16:10:11.575	$GPGGA,161012,2522.2108,N,08003.9093,W,1,10,1.4,15,M,,M,,*61
06/24/2015	16:10:12.547	$GPGGA,161013,2522.2118,N,08003.9094,W,1,10,1.4,15,M,,M,,*66
06/24/2015	16:10:13.547	$GPGGA,161014,2522.2126,N,08003.9094,W,1,10,1.4,15,M,,M,,*6C
06/24/2015	16:10:14.537	$GPGGA,161015,2522.2137,N,08003.9095,W,1,10,1.9,14,M,,M,,*60
06/24/2015	16:10:15.568	$GPGGA,161016,2522.2147,N,08003.9093,W,1,8,1.8,14,M,,M,,*5A
06/24/2015	16:10:17.575	$GPGGA,161018,2522.2166,N,08003.9093,W,1,10,1.4,14,M,,M,,*62
06/24/2015	16:10:18.516	$GPGGA,161019,2522.2177,N,08003.9094,W,1,10,1.4,14,M,,M,,*64
06/24/2015	16:10:19.566	$GPGGA,161020,2522.2186,N,08003.9094,W,1,8,1.8,14,M,,M,,*55
06/24/2015	16:10:20.516	$GPGGA,161021,2522.2194,N,08003.9094,W,1,8,1.8,14,M,,M,,*57
06/24/2015	16:10:21.646	$GPGGA,161022,2522.2202,N,08003.9095,W,1,8,1.7,14,M,,M,,*56
06/24/2015	16:10:22.516	$GPGGA,161023,2522.2213,N,08003.9097,W,1,8,1.4,14,M,,M,,*56
06/24/2015	16:10:23.636	$GPGGA,161024,2522.2223,N,08003.9096,W,1,10,1.4,14,M,,M,,*6A
06/24/2015	16:10:24.516	$GPGGA,161025,2522.2233,N,08003.9097,W,1,10,1.6,14,M,,M,,*69
06/24/2015	16:10:25.508	$GPGGA,161026,2522.2244,N,08003.9097,W,1,9,1.6,14,M,,M,,*52
06/24/2015	16:10:26.617	$GPGGA,161027,2522.2255,N,08003.9095,W,1,9,1.8,14,M,,M,,*5F
06/24/2015	16:10:27.517	$GPGGA,161028,2522.2263,N,08003.9097,W,1,10,1.4,14,M,,M,,*63
06/24/2015	16:10:28.507	$GPGGA,161029,2522.2274,N,08003.9097,W,1,10,1.6,14,M,,M,,*66
06/24/2015	16:10:29.597	$GPGGA,161030,2522.2282,N,08003.9097,W,1,8,1.8,14,M,,M,,*50
06/24/2015	16:10:30.497	$GPGGA,161031,2522.2292,N,08003.9096,W,1,8,1.8,14,M,,M,,*51
06/24/2015	16:10:31.607	$GPGGA,161032,2522.2302,N,08003.9097,W,1,10,1.4,14,M,,M,,*6E
06/24/2015	16:10:32.506	$GPGGA,161033,2522.2311,N,08003.9096,W,1,10,1.4,14,M,,M,,*6C
06/24/2015	16:10:33.606	$GPGGA,161034,2522.2321,N,08003.9097,W,1,9,1.6,14,M,,M,,*53
06/24/2015	16:10:34.576	$GPGGA,161035,2522.2329,N,08003.9097,W,1,9,1.4,14,M,,M,,*58
06/24/2015	16:10:35.636	$GPGGA,161036,2522.2339,N,08003.9097,W,1,10,1.4,14,M,,M,,*62
06/24/2015	16:10:36.496	$GPGGA,161037,2522.2349,N,08003.9097,W,1,10,1.4,14,M,,M,,*64
06/24/2015	16:10:37.596	$GPGGA,161038,2522.2357,N,08003.9098,W,1,10,1.4,14,M,,M,,*6B
06/24/2015	16:10:38.576	$GPGGA,161039,2522.2367,N,08003.9100,W,1,10,1.7,14,M,,M,,*6A
06/24/2015	16:10:39.596	$GPGGA,161040,2522.2374,N,08003.9102,W,1,9,1.6,14,M,,M,,*5D
06/24/2015	16:10:40.576	$GPGGA,161041,2522.2381,N,08003.9104,W,1,9,1.6,14,M,,M,,*50
06/24/2015	16:10:41.596	$GPGGA,161042,2522.2389,N,08003.9108,W,1,9,1.6,14,M,,M,,*57
06/24/2015	16:10:42.586	$GPGGA,161043,2522.2397,N,08003.9108,W,1,9,1.4,14,M,,M,,*5B
06/24/2015	16:10:43.577	$GPGGA,161044,2522.2406,N,08003.9108,W,1,9,1.6,14,M,,M,,*51
06/24/2015	16:10:44.569	$GPGGA,161045,2522.2415,N,08003.9107,W,1,9,1.6,14,M,,M,,*5D
06/24/2015	16:10:45.577	$GPGGA,161046,2522.2425,N,08003.9108,W,1,10,1.4,14,M,,M,,*68
06/24/2015	16:10:46.577	$GPGGA,161047,2522.2435,N,08003.9109,W,1,10,1.6,14,M,,M,,*6B
06/24/2015	16:10:47.587	$GPGGA,161048,2522.2444,N,08003.9108,W,1,9,1.6,14,M,,M,,*5B
06/24/2015	16:10:48.568	$GPGGA,161049,2522.2453,N,08003.9108,W,1,9,1.6,14,M,,M,,*5C
06/24/2015	16:10:49.547	$GPGGA,161050,2522.2462,N,08003.9109,W,1,9,1.6,14,M,,M,,*57
06/24/2015	16:10:50.572	$GPGGA,161051,2522.2472,N,08003.9108,W,1,9,1.6,14,M,,M,,*56
06/24/2015	16:10:51.569	$GPGGA,161052,2522.2482,N,08003.9108,W,1,9,1.6,14,M,,M,,*5A
06/24/2015	16:10:52.557	$GPGGA,161053,2522.2491,N,08003.9108,W,1,9,1.6,14,M,,M,,*59
06/24/2015	16:10:53.546	$GPGGA,161054,2522.2500,N,08003.9108,W,1,9,1.6,14,M,,M,,*57
06/24/2015	16:10:54.546	$GPGGA,161055,2522.2509,N,08003.9108,W,1,9,1.6,14,M,,M,,*5F
06/24/2015	16:10:55.576	$GPGGA,161056,2522.2519,N,08003.9108,W,1,9,1.6,14,M,,M,,*5D
06/24/2015	16:10:56.557	$GPGGA,161057,2522.2529,N,08003.9107,W,1,9,1.6,14,M,,M,,*50
06/24/2015	16:10:57.526	$GPGGA,161058,2522.2538,N,08003.9108,W,1,9,1.6,14,M,,M,,*50
06/24/2015	16:10:58.536	$GPGGA,161059,2522.2547,N,08003.9107,W,1,9,1.6,14,M,,M,,*56
06/24/2015	16:10:59.576	$GPGGA,161100,2522.2556,N,08003.9108,W,1,9,1.6,14,M,,M,,*54
06/24/2015	16:11:00.527	$GPGGA,161101,2522.2566,N,08003.9107,W,1,9,1.8,14,M,,M,,*57
06/24/2015	16:11:01.537	$GPGGA,161102,2522.2574,N,08003.9109,W,1,9,1.6,14,M,,M,,*57
06/24/2015	16:11:02.537	$GPGGA,161103,2522.2584,N,08003.9108,W,1,9,1.6,14,M,,M,,*58
06/24/2015	16:11:03.537	$GPGGA,161104,2522.2592,N,08003.9109,W,1,9,1.6,14,M,,M,,*59
06/24/2015	16:11:04.527	$GPGGA,161105,2522.2602,N,08003.9111,W,1,9,1.6,14,M,,M,,*5B
06/24/2015	16:11:05.563	$GPGGA,161106,2522.2612,N,08003.9110,W,1,8,1.8,14,M,,M,,*57
06/24/2015	16:11:06.537	$GPGGA,161107,2522.2621,N,08003.9109,W,1,8,1.6,14,M,,M,,*50
06/24/2015	16:11:07.573	$GPGGA,161108,2522.2628,N,08003.9111,W,1,9,1.6,14,M,,M,,*5E
06/24/2015	16:11:08.506	$GPGGA,161109,2522.2639,N,08003.9112,W,1,9,1.6,14,M,,M,,*5C
06/24/2015	16:11:09.506	$GPGGA,161110,2522.2648,N,08003.9111,W,1,9,1.6,14,M,,M,,*51
06/24/2015	16:11:10.958	$GPGGA,161111,2522.2656,N,08003.9109,W,1,9,1.6,14,M,,M,,*56
06/24/2015	16:11:11.550	$GPGGA,161112,2522.2664,N,08003.9106,W,1,8,2.1,14,M,,M,,*5E
06/24/2015	16:11:12.506	$GPGGA,161113,2522.2672,N,08003.9107,W,1,8,1.6,14,M,,M,,*5D
06/24/2015	16:11:13.496	$GPGGA,161114,2522.2682,N,08003.9104,W,1,8,1.7,14,M,,M,,*57
06/24/2015	16:11:14.657	$GPGGA,161115,2522.2690,N,08003.9103,W,1,8,1.7,14,M,,M,,*52
06/24/2015	16:11:15.658	$GPGGA,161116,2522.2701,N,08003.9101,W,1,8,1.6,14,M,,M,,*5B
06/24/2015	16:11:16.496	$GPGGA,161117,2522.2710,N,08003.9099,W,1,8,1.6,14,M,,M,,*5A
06/24/2015	16:11:17.486	$GPGGA,161118,2522.2719,N,08003.9098,W,1,9,1.6,14,M,,M,,*5C
06/24/2015	16:11:18.496	$GPGGA,161119,2522.2728,N,08003.9098,W,1,9,1.4,14,M,,M,,*5D
06/24/2015	16:11:19.660	$GPGGA,161120,2522.2736,N,08003.9096,W,1,9,1.7,14,M,,M,,*55
06/24/2015	16:11:20.660	$GPGGA,161121,2522.2746,N,08003.9097,W,1,9,1.6,14,M,,M,,*53
06/24/2015	16:11:21.496	$GPGGA,161122,2522.2755,N,08003.9097,W,1,9,1.6,14,M,,M,,*52
06/24/2015	16:11:22.486	$GPGGA,161123,2522.2766,N,08003.9095,W,1,9,1.6,14,M,,M,,*51
06/24/2015	16:11:23.616	$GPGGA,161124,2522.2776,N,08003.9093,W,1,9,1.6,15,M,,M,,*50
06/24/2015	16:11:24.576	$GPGGA,161125,2522.2784,N,08003.9094,W,1,9,1.6,15,M,,M,,*5B
06/24/2015	16:11:25.615	$GPGGA,161126,2522.2794,N,08003.9094,W,1,10,1.4,15,M,,M,,*63
06/24/2015	16:11:26.559	$GPGGA,161127,2522.2802,N,08003.9094,W,1,10,1.4,15,M,,M,,*62
06/24/2015	16:11:27.650	$GPGGA,161128,2522.2813,N,08003.9094,W,1,8,2.1,15,M,,M,,*52
06/24/2015	16:11:28.559	$GPGGA,161129,2522.2822,N,08003.9095,W,1,8,2.1,15,M,,M,,*50
06/24/2015	16:11:29.606	$GPGGA,161130,2522.2829,N,08003.9092,W,1,8,2.1,15,M,,M,,*54
06/24/2015	16:11:30.616	$GPGGA,161131,2522.2838,N,08003.9091,W,1,8,2.1,15,M,,M,,*56
06/24/2015	16:11:31.606	$GPGGA,161132,2522.2847,N,08003.9090,W,1,8,2.1,15,M,,M,,*5C
06/24/2015	16:11:32.626	$GPGGA,161133,2522.2854,N,08003.9087,W,1,8,1.6,15,M,,M,,*5D
06/24/2015	16:11:33.596	$GPGGA,161134,2522.2863,N,08003.9085,W,1,9,1.6,15,M,,M,,*5D
06/24/2015	16:11:34.596	$GPGGA,161135,2522.2872,N,08003.9083,W,1,9,1.6,15,M,,M,,*5A
06/24/2015	16:11:35.637	$GPGGA,161136,2522.2881,N,08003.9086,W,1,9,1.6,15,M,,M,,*50
06/24/2015	16:11:36.606	$GPGGA,161137,2522.2892,N,08003.9090,W,1,9,1.7,16,M,,M,,*56
06/24/2015	16:11:37.566	$GPGGA,161138,2522.2899,N,08003.9087,W,1,9,1.4,16,M,,M,,*57
06/24/2015	16:11:38.596	$GPGGA,161139,2522.2909,N,08003.9085,W,1,9,1.4,16,M,,M,,*5C
06/24/2015	16:11:39.626	$GPGGA,161140,2522.2917,N,08003.9086,W,1,9,1.4,16,M,,M,,*5E
06/24/2015	16:11:40.586	$GPGGA,161141,2522.2928,N,08003.9084,W,1,9,1.4,16,M,,M,,*51
06/24/2015	16:11:41.526	$GPGGA,161142,2522.2936,N,08003.9083,W,1,10,1.4,16,M,,M,,*62
06/24/2015	16:11:42.595	$GPGGA,161143,2522.2946,N,08003.9084,W,1,10,1.4,16,M,,M,,*63
06/24/2015	16:11:43.605	$GPGGA,161144,2522.2956,N,08003.9084,W,1,10,1.4,16,M,,M,,*65
06/24/2015	16:11:44.585	$GPGGA,161145,2522.2964,N,08003.9084,W,1,10,1.4,16,M,,M,,*65
06/24/2015	16:11:45.516	$GPGGA,161146,2522.2974,N,08003.9084,W,1,9,1.6,16,M,,M,,*5D
06/24/2015	16:11:46.596	$GPGGA,161147,2522.2982,N,08003.9086,W,1,9,1.6,16,M,,M,,*57
06/24/2015	16:11:47.576	$GPGGA,161148,2522.2993,N,08003.9087,W,1,10,1.4,16,M,,M,,*63
06/24/2015	16:11:48.516	$GPGGA,161149,2522.3001,N,08003.9084,W,1,10,1.7,16,M,,M,,*61
06/24/2015	16:11:49.559	$GPGGA,161150,2522.3011,N,08003.9083,W,1,10,1.4,16,M,,M,,*6C
06/24/2015	16:11:50.562	$GPGGA,161151,2522.3022,N,08003.9086,W,1,10,1.4,16,M,,M,,*68
06/24/2015	16:11:51.586	$GPGGA,161152,2522.3031,N,08003.9087,W,1,9,1.4,16,M,,M,,*50
