Software Version Number: 1	Data File Format Number: 1	Build Version Number: 1	Error Count Since VI Started: 3	Manufacturer: Raytheon	 Model Number: RayMarine 120	 S/N: 	 Cal Date: 	 Wind Direction Offset: 0.00	 Slope (M)1: 0.00	 Offset (B)1: 0.00	 Slope (M)2: 0.00	 Offset (B)2: 0.00	 Slope (M)3: 0.00	 Offset (B)3: 0.00	 Slope (M)4: 0.00	 Offset (B)4: 0.00	 Slope (M)5: 0.00	 Offset (B)5: 0.00	 Slope (M)6: 0.00	 Offset (B)6: 0.00
Computer Date	Computer Time	GGA String
06/26/2015	09:00:00.509	$GPGGA,090001,2537.6200,N,08000.5347,W,1,7,1.7,13,M,,M,,*51
06/26/2015	09:00:01.495	$GPGGA,090002,2537.6194,N,08000.5351,W,1,8,1.7,13,M,,M,,*54
06/26/2015	09:00:02.508	$GPGGA,090003,2537.6187,N,08000.5357,W,1,8,1.7,13,M,,M,,*51
06/26/2015	09:00:03.488	$GPGGA,090004,2537.6180,N,08000.5361,W,1,8,1.7,13,M,,M,,*54
06/26/2015	09:00:04.580	$GPGGA,090005,2537.6171,N,08000.5365,W,1,8,1.7,13,M,,M,,*5F
06/26/2015	09:00:05.598	$GPGGA,090006,2537.6165,N,08000.5370,W,1,8,1.7,13,M,,M,,*5D
06/26/2015	09:00:06.488	$GPGGA,090007,2537.6156,N,08000.5374,W,1,8,1.7,13,M,,M,,*58
06/26/2015	09:00:07.598	$GPGGA,090008,2537.6148,N,08000.5379,W,1,7,1.7,13,M,,M,,*5A
06/26/2015	09:00:08.478	$GPGGA,090009,2537.6142,N,08000.5383,W,1,7,1.7,13,M,,M,,*54
06/26/2015	09:00:09.598	$GPGGA,090010,2537.6135,N,08000.5387,W,1,9,1.7,13,M,,M,,*56
06/26/2015	09:00:10.481	$GPGGA,090011,2537.6127,N,08000.5391,W,1,9,1.7,13,M,,M,,*53
06/26/2015	09:00:11.628	$GPGGA,090012,2537.6119,N,08000.5394,W,1,8,1.6,13,M,,M,,*58
06/26/2015	09:00:12.567	$GPGGA,090013,2537.6112,N,08000.5398,W,1,8,1.6,12,M,,M,,*5F
06/26/2015	09:00:13.557	$GPGGA,090014,2537.6105,N,08000.5402,W,1,9,1.6,12,M,,M,,*5B
06/26/2015	09:00:14.557	$GPGGA,090015,2537.6098,N,08000.5406,W,1,9,1.6,12,M,,M,,*5B
06/26/2015	09:00:15.598	$GPGGA,090016,2537.6089,N,08000.5408,W,1,8,1.6,12,M,,M,,*57
06/26/2015	09:00:16.608	$GPGGA,090017,2537.6082,N,08000.5412,W,1,8,1.6,12,M,,M,,*56
06/26/2015	09:00:17.581	$GPGGA,090018,2537.6075,N,08000.5416,W,1,8,1.6,12,M,,M,,*55
06/26/2015	09:00:18.548	$GPGGA,090019,2537.6068,N,08000.5419,W,1,8,1.6,12,M,,M,,*57
06/26/2015	09:00:19.578	$GPGGA,090020,2537.6060,N,08000.5424,W,1,9,1.6,12,M,,M,,*5A
06/26/2015	09:00:20.558	$GPGGA,090021,2537.6053,N,08000.5428,W,1,9,1.6,12,M,,M,,*57
06/26/2015	09:00:21.538	$GPGGA,090022,2537.6046,N,08000.5433,W,1,9,1.6,12,M,,M,,*5A
06/26/2015	09:00:22.548	$GPGGA,090023,2537.6039,N,08000.5437,W,1,9,1.6,12,M,,M,,*57
06/26/2015	09:00:23.588	$GPGGA,090024,2537.6031,N,08000.5441,W,1,9,1.6,12,M,,M,,*59
06/26/2015	09:00:24.538	$GPGGA,090025,2537.6025,N,08000.5446,W,1,9,1.6,12,M,,M,,*5A
06/26/2015	09:00:25.558	$GPGGA,090026,2537.6018,N,08000.5451,W,1,9,1.6,12,M,,M,,*51
06/26/2015	09:00:26.548	$GPGGA,090027,2537.6010,N,08000.5455,W,1,9,1.6,12,M,,M,,*5C
06/26/2015	09:00:27.548	$GPGGA,090028,2537.6003,N,08000.5459,W,1,9,1.6,12,M,,M,,*5D
06/26/2015	09:00:28.528	$GPGGA,090029,2537.5996,N,08000.5463,W,1,9,1.6,12,M,,M,,*53
06/26/2015	09:00:29.567	$GPGGA,090030,2537.5988,N,08000.5467,W,1,9,1.6,12,M,,M,,*50
06/26/2015	09:00:30.807	$GPGGA,090031,2537.5981,N,08000.5471,W,1,9,1.6,12,M,,M,,*5F
06/26/2015	09:00:31.577	$GPGGA,090032,2537.5974,N,08000.5475,W,1,9,1.6,11,M,,M,,*51
06/26/2015	09:00:32.527	$GPGGA,090033,2537.5966,N,08000.5480,W,1,9,1.7,11,M,,M,,*58
06/26/2015	09:00:33.518	$GPGGA,090034,2537.5961,N,08000.5485,W,1,8,1.6,11,M,,M,,*5D
06/26/2015	09:00:34.518	$GPGGA,090035,2537.5953,N,08000.5488,W,1,8,1.7,11,M,,M,,*51
06/26/2015	09:00:35.559	$GPGGA,090036,2537.5945,N,08000.5492,W,1,8,1.7,11,M,,M,,*5E
06/26/2015	09:00:36.528	$GPGGA,090037,2537.5938,N,08000.5499,W,1,8,1.7,11,M,,M,,*5E
06/26/2015	09:00:37.528	$GPGGA,090038,2537.5930,N,08000.5502,W,1,8,1.7,11,M,,M,,*5A
06/26/2015	09:00:38.518	$GPGGA,090039,2537.5923,N,08000.5506,W,1,8,1.7,11,M,,M,,*5D
06/26/2015	09:00:39.518	$GPGGA,090040,2537.5914,N,08000.5511,W,1,8,1.7,11,M,,M,,*51
06/26/2015	09:00:40.528	$GPGGA,090041,2537.5906,N,08000.5516,W,1,8,1.7,11,M,,M,,*54
06/26/2015	09:00:41.498	$GPGGA,090042,2537.5898,N,08000.5520,W,1,8,1.7,11,M,,M,,*54
06/26/2015	09:00:42.508	$GPGGA,090043,2537.5891,N,08000.5525,W,1,8,1.7,11,M,,M,,*59
06/26/2015	09:00:43.558	$GPGGA,090044,2537.5883,N,08000.5529,W,1,8,1.7,11,M,,M,,*51
06/26/2015	09:00:44.498	$GPGGA,090045,2537.5876,N,08000.5533,W,1,8,1.6,11,M,,M,,*50
06/26/2015	09:00:45.528	$GPGGA,090046,2537.5869,N,08000.5538,W,1,9,1.7,11,M,,M,,*56
06/26/2015	09:00:46.518	$GPGGA,090047,2537.5862,N,08000.5543,W,1,9,1.7,11,M,,M,,*50
06/26/2015	09:00:47.637	$GPGGA,090048,2537.5854,N,08000.5549,W,1,8,1.7,11,M,,M,,*51
06/26/2015	09:00:48.497	$GPGGA,090049,2537.5845,N,08000.5553,W,1,8,1.7,11,M,,M,,*5B
06/26/2015	09:00:49.607	$GPGGA,090050,2537.5838,N,08000.5558,W,1,8,1.7,11,M,,M,,*52
06/26/2015	09:00:50.579	$GPGGA,090051,2537.5831,N,08000.5564,W,1,8,1.7,11,M,,M,,*55
06/26/2015	09:00:51.628	$GPGGA,090052,2537.5822,N,08000.5567,W,1,8,1.7,11,M,,M,,*57
06/26/2015	09:00:52.518	$GPGGA,090053,2537.5815,N,08000.5571,W,1,8,1.7,10,M,,M,,*54
06/26/2015	09:00:53.578	$GPGGA,090054,2537.5808,N,08000.5578,W,1,8,1.7,10,M,,M,,*56
06/26/2015	09:00:54.490	$GPGGA,090055,2537.5804,N,08000.5582,W,1,8,1.6,10,M,,M,,*5F
06/26/2015	09:00:55.548	$GPGGA,090056,2537.5795,N,08000.5585,W,1,9,1.7,10,M,,M,,*5C
06/26/2015	09:00:56.569	$GPGGA,090057,2537.5787,N,08000.5592,W,1,9,1.7,10,M,,M,,*58
06/26/2015	09:00:57.608	$GPGGA,090058,2537.5780,N,08000.5596,W,1,8,1.7,10,M,,M,,*55
06/26/2015	09:00:58.488	$GPGGA,090059,2537.5772,N,08000.5600,W,1,8,1.7,10,M,,M,,*55
06/26/2015	09:00:59.618	$GPGGA,090100,2537.5764,N,08000.5605,W,1,8,1.7,10,M,,M,,*5A
06/26/2015	09:01:00.568	$GPGGA,090101,2537.5757,N,08000.5611,W,1,8,1.7,10,M,,M,,*5E
06/26/2015	09:01:01.568	$GPGGA,090102,2537.5750,N,08000.5615,W,1,8,1.7,10,M,,M,,*5E
06/26/2015	09:01:02.558	$GPGGA,090103,2537.5741,N,08000.5621,W,1,8,1.7,10,M,,M,,*58
06/26/2015	09:01:03.608	$GPGGA,090104,2537.5733,N,08000.5625,W,1,8,1.7,10,M,,M,,*5E
06/26/2015	09:01:04.547	$GPGGA,090105,2537.5725,N,08000.5629,W,1,8,1.7,10,M,,M,,*54
06/26/2015	09:01:05.577	$GPGGA,090106,2537.5718,N,08000.5633,W,1,8,1.7,10,M,,M,,*52
06/26/2015	09:01:06.557	$GPGGA,090107,2537.5710,N,08000.5639,W,1,8,1.7,10,M,,M,,*51
06/26/2015	09:01:07.597	$GPGGA,090108,2537.5703,N,08000.5643,W,1,8,1.7,10,M,,M,,*51
06/26/2015	09:01:08.548	$GPGGA,090109,2537.5695,N,08000.5648,W,1,8,1.7,10,M,,M,,*55
06/26/2015	09:01:09.568	$GPGGA,090110,2537.5687,N,08000.5654,W,1,8,1.7,10,M,,M,,*53
06/26/2015	09:01:10.548	$GPGGA,090111,2537.5679,N,08000.5659,W,1,8,1.7,10,M,,M,,*5E
06/26/2015	09:01:11.579	$GPGGA,090112,2537.5671,N,08000.5663,W,1,8,1.7,10,M,,M,,*5C
06/26/2015	09:01:12.548	$GPGGA,090113,2537.5663,N,08000.5669,W,1,8,1.7,10,M,,M,,*54
06/26/2015	09:01:13.558	$GPGGA,090114,2537.5656,N,08000.5675,W,1,8,1.7,10,M,,M,,*58
06/26/2015	09:01:14.538	$GPGGA,090115,2537.5648,N,08000.5679,W,1,8,1.7,10,M,,M,,*5A
06/26/2015	09:01:15.548	$GPGGA,090116,2537.5640,N,08000.5683,W,1,8,1.7,10,M,,M,,*54
06/26/2015	09:01:16.538	$GPGGA,090117,2537.5632,N,08000.5688,W,1,8,1.6,10,M,,M,,*5A
06/26/2015	09:01:17.580	$GPGGA,090118,2537.5624,N,08000.5694,W,1,8,1.7,10,M,,M,,*5E
06/26/2015	09:01:18.528	$GPGGA,090119,2537.5616,N,08000.5698,W,1,8,1.7,10,M,,M,,*52
06/26/2015	09:01:19.558	$GPGGA,090120,2537.5609,N,08000.5704,W,1,8,1.7,9,M,,M,,*6A
06/26/2015	09:01:20.528	$GPGGA,090121,2537.5602,N,08000.5708,W,1,8,1.7,9,M,,M,,*6C
06/26/2015	09:01:21.508	$GPGGA,090122,2537.5593,N,08000.5712,W,1,8,1.7,9,M,,M,,*6F
06/26/2015	09:01:22.527	$GPGGA,090123,2537.5587,N,08000.5719,W,1,8,1.7,9,M,,M,,*60
06/26/2015	09:01:23.567	$GPGGA,090124,2537.5578,N,08000.5723,W,1,8,1.7,9,M,,M,,*6E
06/26/2015	09:01:24.517	$GPGGA,090125,2537.5570,N,08000.5727,W,1,8,1.7,9,M,,M,,*63
06/26/2015	09:01:25.558	$GPGGA,090126,2537.5563,N,08000.5733,W,1,8,1.7,9,M,,M,,*67
06/26/2015	09:01:26.518	$GPGGA,090127,2537.5555,N,08000.5737,W,1,8,1.7,9,M,,M,,*67
06/26/2015	09:01:27.528	$GPGGA,090128,2537.5548,N,08000.5741,W,1,8,1.7,9,M,,M,,*65
06/26/2015	09:01:28.500	$GPGGA,090129,2537.5540,N,08000.5745,W,1,8,1.7,9,M,,M,,*68
06/26/2015	09:01:29.528	$GPGGA,090130,2537.5533,N,08000.5749,W,1,8,1.7,9,M,,M,,*68
06/26/2015	09:01:30.498	$GPGGA,090131,2537.5526,N,08000.5755,W,1,8,1.7,9,M,,M,,*60
06/26/2015	09:01:31.518	$GPGGA,090132,2537.5517,N,08000.5759,W,1,8,1.7,9,M,,M,,*6D
06/26/2015	09:01:32.493	$GPGGA,090133,2537.5509,N,08000.5762,W,1,8,1.7,9,M,,M,,*6B
06/26/2015	09:01:33.502	$GPGGA,090134,2537.5502,N,08000.5767,W,1,8,1.7,9,M,,M,,*62
06/26/2015	09:01:34.498	$GPGGA,090135,2537.5494,N,08000.5771,W,1,8,1.7,9,M,,M,,*6A
06/26/2015	09:01:35.628	$GPGGA,090136,2537.5488,N,08000.5775,W,1,8,1.7,9,M,,M,,*60
06/26/2015	09:01:36.508	$GPGGA,090137,2537.5482,N,08000.5780,W,1,8,1.6,9,M,,M,,*60
06/26/2015	09:01:37.592	$GPGGA,090138,2537.5479,N,08000.5784,W,1,9,1.6,9,M,,M,,*6E
06/26/2015	09:01:38.588	$GPGGA,090139,2537.5472,N,08000.5788,W,1,9,1.6,9,M,,M,,*68
06/26/2015	09:01:39.617	$GPGGA,090140,2537.5466,N,08000.5791,W,1,9,1.6,9,M,,M,,*6B
06/26/2015	09:01:40.481	$GPGGA,090141,2537.5461,N,08000.5798,W,1,9,1.6,9,M,,M,,*64
06/26/2015	09:01:41.467	$GPGGA,090142,2537.5453,N,08000.5799,W,1,9,1.6,9,M,,M,,*67
06/26/2015	09:01:42.497	$GPGGA,090143,2537.5447,N,08000.5803,W,1,9,1.6,9,M,,M,,*6F
06/26/2015	09:01:43.509	$GPGGA,090144,2537.5440,N,08000.5809,W,1,9,1.6,9,M,,M,,*65
06/26/2015	09:01:44.483	$GPGGA,090145,2537.5433,N,08000.5811,W,1,9,1.6,10,M,,M,,*51
06/26/2015	09:01:45.568	$GPGGA,090146,2537.5426,N,08000.5814,W,1,9,1.6,10,M,,M,,*53
06/26/2015	09:01:46.568	$GPGGA,090147,2537.5419,N,08000.5818,W,1,9,1.6,10,M,,M,,*52
06/26/2015	09:01:47.578	$GPGGA,090148,2537.5412,N,08000.5822,W,1,9,1.6,10,M,,M,,*5F
06/26/2015	09:01:48.568	$GPGGA,090149,2537.5404,N,08000.5827,W,1,9,1.6,10,M,,M,,*5C
06/26/2015	09:01:49.588	$GPGGA,090150,2537.5396,N,08000.5831,W,1,9,1.6,10,M,,M,,*5F
06/26/2015	09:01:50.568	$GPGGA,090151,2537.5389,N,08000.5835,W,1,9,1.6,10,M,,M,,*54
06/26/2015	09:01:51.588	$GPGGA,090152,2537.5381,N,08000.5838,W,1,9,1.6,10,M,,M,,*52
06/26/2015	09:01:52.588	$GPGGA,090153,2537.5372,N,08000.5843,W,1,9,1.6,10,M,,M,,*53
06/26/2015	09:01:53.568	$GPGGA,090154,2537.5365,N,08000.5846,W,1,9,1.6,10,M,,M,,*57
06/26/2015	09:01:54.558	$GPGGA,090155,2537.5357,N,08000.5850,W,1,9,1.6,10,M,,M,,*50
06/26/2015	09:01:55.588	$GPGGA,090156,2537.5349,N,08000.5854,W,1,9,1.6,10,M,,M,,*58
06/26/2015	09:01:56.548	$GPGGA,090157,2537.5340,N,08000.5858,W,1,9,1.6,11,M,,M,,*5D
06/26/2015	09:01:57.578	$GPGGA,090158,2537.5332,N,08000.5863,W,1,9,1.6,11,M,,M,,*5F
06/26/2015	09:01:58.557	$GPGGA,090159,2537.5324,N,08000.5867,W,1,9,1.6,11,M,,M,,*5D
06/26/2015	09:01:59.587	$GPGGA,090200,2537.5316,N,08000.5871,W,1,8,1.7,11,M,,M,,*54
06/26/2015	09:02:00.538	$GPGGA,090201,2537.5306,N,08000.5875,W,1,8,1.7,11,M,,M,,*50
06/26/2015	09:02:01.538	$GPGGA,090202,2537.5302,N,08000.5879,W,1,8,1.7,11,M,,M,,*5B
06/26/2015	09:02:02.548	$GPGGA,090203,2537.5293,N,08000.5883,W,1,8,1.6,11,M,,M,,*57
06/26/2015	09:02:03.538	$GPGGA,090204,2537.5284,N,08000.5887,W,1,8,1.7,11,M,,M,,*53
06/26/2015	09:02:04.548	$GPGGA,090205,2537.5275,N,08000.5893,W,1,8,1.7,11,M,,M,,*59
06/26/2015	09:02:05.528	$GPGGA,090206,2537.5267,N,08000.5897,W,1,8,1.7,11,M,,M,,*5D
06/26/2015	09:02:06.548	$GPGGA,090207,2537.5257,N,08000.5901,W,1,8,1.7,11,M,,M,,*51
06/26/2015	09:02:07.568	$GPGGA,090208,2537.5249,N,08000.5907,W,1,8,1.7,11,M,,M,,*57
06/26/2015	09:02:08.528	$GPGGA,090209,2537.5241,N,08000.5911,W,1,8,1.7,11,M,,M,,*59
06/26/2015	09:02:09.528	$GPGGA,090210,2537.5233,N,08000.5917,W,1,8,1.7,11,M,,M,,*52
06/26/2015	09:02:10.528	$GPGGA,090211,2537.5226,N,08000.5921,W,1,8,1.7,11,M,,M,,*52
06/26/2015	09:02:11.538	$GPGGA,090212,2537.5217,N,08000.5925,W,1,8,1.7,11,M,,M,,*57
06/26/2015	09:02:12.518	$GPGGA,090213,2537.5211,N,08000.5930,W,1,8,1.7,11,M,,M,,*54
06/26/2015	09:02:13.548	$GPGGA,090214,2537.5202,N,08000.5936,W,1,9,1.6,11,M,,M,,*57
06/26/2015	09:02:14.497	$GPGGA,090215,2537.5194,N,08000.5941,W,1,9,1.7,11,M,,M,,*5B
06/26/2015	09:02:15.517	$GPGGA,090216,2537.5186,N,08000.5946,W,1,8,1.7,11,M,,M,,*5D
06/26/2015	09:02:16.507	$GPGGA,090217,2537.5179,N,08000.5951,W,1,8,1.7,11,M,,M,,*5A
06/26/2015	09:02:17.617	$GPGGA,090218,2537.5172,N,08000.5957,W,1,8,1.7,11,M,,M,,*58
06/26/2015	09:02:18.507	$GPGGA,090219,2537.5166,N,08000.5961,W,1,8,1.6,11,M,,M,,*58
06/26/2015	09:02:19.547	$GPGGA,090220,2537.5157,N,08000.5965,W,1,9,1.6,10,M,,M,,*54
06/26/2015	09:02:20.497	$GPGGA,090221,2537.5150,N,08000.5972,W,1,9,1.7,10,M,,M,,*55
06/26/2015	09:02:21.507	$GPGGA,090222,2537.5143,N,08000.5976,W,1,8,1.7,10,M,,M,,*51
06/26/2015	09:02:22.497	$GPGGA,090223,2537.5134,N,08000.5980,W,1,8,1.6,10,M,,M,,*58
06/26/2015	09:02:23.517	$GPGGA,090224,2537.5127,N,08000.5986,W,1,9,1.6,10,M,,M,,*5A
06/26/2015	09:02:24.487	$GPGGA,090225,2537.5121,N,08000.5991,W,1,9,1.7,10,M,,M,,*5A
06/26/2015	09:02:25.497	$GPGGA,090226,2537.5115,N,08000.5997,W,1,9,1.6,10,M,,M,,*59
06/26/2015	09:02:26.480	$GPGGA,090227,2537.5107,N,08000.6001,W,1,9,1.6,10,M,,M,,*5E
06/26/2015	09:02:27.507	$GPGGA,090228,2537.5098,N,08000.6006,W,1,8,1.7,10,M,,M,,*51
06/26/2015	09:02:28.571	$GPGGA,090229,2537.5092,N,08000.6012,W,1,8,1.7,10,M,,M,,*5F
06/26/2015	09:02:29.608	$GPGGA,090230,2537.5086,N,08000.6017,W,1,9,1.6,10,M,,M,,*57
06/26/2015	09:02:30.488	$GPGGA,090231,2537.5079,N,08000.6022,W,1,9,1.6,10,M,,M,,*50
06/26/2015	09:02:31.508	$GPGGA,090232,2537.5070,N,08000.6029,W,1,9,1.6,10,M,,M,,*51
06/26/2015	09:02:32.469	$GPGGA,090233,2537.5063,N,08000.6033,W,1,9,1.7,10,M,,M,,*58
06/26/2015	09:02:34.517	$GPGGA,090235,2537.5046,N,08000.6044,W,1,8,1.7,10,M,,M,,*58
06/26/2015	09:02:35.487	$GPGGA,090236,2537.5038,N,08000.6048,W,1,8,1.7,10,M,,M,,*5E
06/26/2015	09:02:36.557	$GPGGA,090237,2537.5031,N,08000.6053,W,1,8,1.7,10,M,,M,,*5C
06/26/2015	09:02:37.467	$GPGGA,090238,2537.5023,N,08000.6059,W,1,8,1.7,10,M,,M,,*5A
06/26/2015	09:02:38.557	$GPGGA,090239,2537.5015,N,08000.6063,W,1,8,1.7,10,M,,M,,*57
06/26/2015	09:02:39.567	$GPGGA,090240,2537.5007,N,08000.6069,W,1,8,1.7,10,M,,M,,*50
06/26/2015	09:02:40.557	$GPGGA,090241,2537.5000,N,08000.6073,W,1,8,1.7,10,M,,M,,*5D
06/26/2015	09:02:41.537	$GPGGA,090242,2537.4992,N,08000.6078,W,1,8,1.7,10,M,,M,,*56
06/26/2015	09:02:42.557	$GPGGA,090243,2537.4984,N,08000.6084,W,1,8,1.7,10,M,,M,,*53
06/26/2015	09:02:43.580	$GPGGA,090244,2537.4977,N,08000.6088,W,1,8,1.7,10,M,,M,,*54
06/26/2015	09:02:44.537	$GPGGA,090245,2537.4969,N,08000.6094,W,1,8,1.7,10,M,,M,,*57
06/26/2015	09:02:45.557	$GPGGA,090246,2537.4962,N,08000.6098,W,1,8,1.7,10,M,,M,,*53
06/26/2015	09:02:46.548	$GPGGA,090247,2537.4955,N,08000.6102,W,1,8,1.7,10,M,,M,,*54
06/26/2015	09:02:47.569	$GPGGA,090248,2537.4948,N,08000.6109,W,1,8,1.7,10,M,,M,,*5C
06/26/2015	09:02:48.548	$GPGGA,090249,2537.4939,N,08000.6113,W,1,8,1.7,10,M,,M,,*50
06/26/2015	09:02:49.537	$GPGGA,090250,2537.4931,N,08000.6117,W,1,8,1.7,10,M,,M,,*54
06/26/2015	09:02:50.537	$GPGGA,090251,2537.4924,N,08000.6123,W,1,8,1.7,10,M,,M,,*56
06/26/2015	09:02:51.580	$GPGGA,090252,2537.4916,N,08000.6127,W,1,8,1.7,10,M,,M,,*50
06/26/2015	09:02:52.527	$GPGGA,090253,2537.4909,N,08000.6131,W,1,8,1.7,10,M,,M,,*58
06/26/2015	09:02:53.557	$GPGGA,090254,2537.4901,N,08000.6135,W,1,8,1.7,10,M,,M,,*53
06/26/2015	09:02:54.527	$GPGGA,090255,2537.4894,N,08000.6141,W,1,8,1.7,9,M,,M,,*64
06/26/2015	09:02:55.557	$GPGGA,090256,2537.4887,N,08000.6145,W,1,8,1.7,9,M,,M,,*61
06/26/2015	09:02:56.527	$GPGGA,090257,2537.4879,N,08000.6149,W,1,8,1.7,9,M,,M,,*6D
06/26/2015	09:02:57.508	$GPGGA,090258,2537.4874,N,08000.6153,W,1,9,1.6,9,M,,M,,*64
06/26/2015	09:02:58.507	$GPGGA,090259,2537.4868,N,08000.6158,W,1,9,1.6,9,M,,M,,*63
06/26/2015	09:02:59.557	$GPGGA,090300,2537.4861,N,08000.6163,W,1,9,1.6,9,M,,M,,*6F
06/26/2015	09:03:00.517	$GPGGA,090301,2537.4857,N,08000.6165,W,1,9,1.6,9,M,,M,,*6D
06/26/2015	09:03:01.507	$GPGGA,090302,2537.4851,N,08000.6170,W,1,9,1.6,9,M,,M,,*6C
06/26/2015	09:03:02.517	$GPGGA,090303,2537.4845,N,08000.6174,W,1,9,1.6,9,M,,M,,*6C
06/26/2015	09:03:03.518	$GPGGA,090304,2537.4839,N,08000.6178,W,1,9,1.6,9,M,,M,,*6C
06/26/2015	09:03:04.498	$GPGGA,090305,2537.4833,N,08000.6181,W,1,9,1.6,10,M,,M,,*59
06/26/2015	09:03:05.508	$GPGGA,090306,2537.4825,N,08000.6185,W,1,9,1.6,10,M,,M,,*59
06/26/2015	09:03:06.508	$GPGGA,090307,2537.4819,N,08000.6190,W,1,9,1.6,10,M,,M,,*53
06/26/2015	09:03:07.517	$GPGGA,090308,2537.4811,N,08000.6194,W,1,9,1.6,10,M,,M,,*50
06/26/2015	09:03:08.507	$GPGGA,090309,2537.4804,N,08000.6199,W,1,9,1.6,10,M,,M,,*58
06/26/2015	09:03:09.517	$GPGGA,090310,2537.4797,N,08000.6203,W,1,9,1.6,10,M,,M,,*55
06/26/2015	09:03:10.487	$GPGGA,090311,2537.4789,N,08000.6207,W,1,9,1.6,10,M,,M,,*5F
06/26/2015	09:03:11.537	$GPGGA,090312,2537.4779,N,08000.6211,W,1,8,1.7,10,M,,M,,*54
06/26/2015	09:03:12.497	$GPGGA,090313,2537.4771,N,08000.6215,W,1,8,1.9,10,M,,M,,*57
06/26/2015	09:03:13.657	$GPGGA,090314,2537.4762,N,08000.6221,W,1,8,1.7,10,M,,M,,*5B
06/26/2015	09:03:14.497	$GPGGA,090315,2537.4754,N,08000.6225,W,1,8,1.7,10,M,,M,,*5B
06/26/2015	09:03:15.587	$GPGGA,090316,2537.4745,N,08000.6230,W,1,8,1.7,10,M,,M,,*5C
06/26/2015	09:03:16.471	$GPGGA,090317,2537.4736,N,08000.6236,W,1,8,1.7,10,M,,M,,*5F
06/26/2015	09:03:17.657	$GPGGA,090318,2537.4727,N,08000.6240,W,1,8,1.7,10,M,,M,,*51
06/26/2015	09:03:18.487	$GPGGA,090319,2537.4720,N,08000.6246,W,1,8,1.7,10,M,,M,,*51
06/26/2015	09:03:19.668	$GPGGA,090320,2537.4710,N,08000.6250,W,1,8,1.7,10,M,,M,,*5F
06/26/2015	09:03:20.608	$GPGGA,090321,2537.4702,N,08000.6255,W,1,8,1.7,10,M,,M,,*58
06/26/2015	09:03:21.470	$GPGGA,090322,2537.4695,N,08000.6261,W,1,8,1.7,10,M,,M,,*53
06/26/2015	09:03:22.571	$GPGGA,090323,2537.4686,N,08000.6264,W,1,8,1.7,10,M,,M,,*55
06/26/2015	09:03:23.658	$GPGGA,090324,2537.4678,N,08000.6268,W,1,8,1.7,10,M,,M,,*5F
06/26/2015	09:03:24.485	$GPGGA,090325,2537.4670,N,08000.6275,W,1,8,1.7,10,M,,M,,*5A
06/26/2015	09:03:25.657	$GPGGA,090326,2537.4662,N,08000.6279,W,1,8,1.7,10,M,,M,,*56
06/26/2015	09:03:26.557	$GPGGA,090327,2537.4655,N,08000.6283,W,1,8,1.7,10,M,,M,,*56
06/26/2015	09:03:27.685	$GPGGA,090328,2537.4646,N,08000.6288,W,1,8,1.7,10,M,,M,,*50
06/26/2015	09:03:28.587	$GPGGA,090329,2537.4638,N,08000.6293,W,1,8,1.7,10,M,,M,,*52
06/26/2015	09:03:29.657	$GPGGA,090330,2537.4631,N,08000.6297,W,1,8,1.7,10,M,,M,,*57
06/26/2015	09:03:30.579	$GPGGA,090331,2537.4623,N,08000.6302,W,1,8,1.7,10,M,,M,,*58
06/26/2015	09:03:31.557	$GPGGA,090332,2537.4615,N,08000.6306,W,1,8,1.7,9,M,,M,,*62
06/26/2015	09:03:32.587	$GPGGA,090333,2537.4608,N,08000.6311,W,1,8,1.7,9,M,,M,,*69
06/26/2015	09:03:33.617	$GPGGA,090334,2537.4601,N,08000.6316,W,1,8,1.7,9,M,,M,,*60
06/26/2015	09:03:34.587	$GPGGA,090335,2537.4592,N,08000.6322,W,1,8,1.7,9,M,,M,,*6F
06/26/2015	09:03:35.657	$GPGGA,090336,2537.4584,N,08000.6326,W,1,8,1.7,9,M,,M,,*6F
06/26/2015	09:03:36.572	$GPGGA,090337,2537.4577,N,08000.6331,W,1,8,1.7,9,M,,M,,*64
06/26/2015	09:03:37.637	$GPGGA,090338,2537.4569,N,08000.6337,W,1,8,1.7,9,M,,M,,*62
06/26/2015	09:03:38.548	$GPGGA,090339,2537.4561,N,08000.6341,W,1,8,1.7,9,M,,M,,*6A
06/26/2015	09:03:39.658	$GPGGA,090340,2537.4554,N,08000.6347,W,1,8,1.7,9,M,,M,,*64
06/26/2015	09:03:40.558	$GPGGA,090341,2537.4545,N,08000.6351,W,1,8,1.7,9,M,,M,,*62
06/26/2015	09:03:41.598	$GPGGA,090342,2537.4538,N,08000.6356,W,1,8,1.7,9,M,,M,,*6C
06/26/2015	09:03:42.557	$GPGGA,090343,2537.4531,N,08000.6362,W,1,8,1.7,9,M,,M,,*63
06/26/2015	09:03:43.647	$GPGGA,090344,2537.4523,N,08000.6366,W,1,8,1.7,9,M,,M,,*63
06/26/2015	09:03:44.547	$GPGGA,090345,2537.4515,N,08000.6370,W,1,8,1.7,9,M,,M,,*60
06/26/2015	09:03:45.517	$GPGGA,090346,2537.4509,N,08000.6376,W,1,8,1.7,9,M,,M,,*68
06/26/2015	09:03:46.537	$GPGGA,090347,2537.4501,N,08000.6381,W,1,8,1.6,9,M,,M,,*68
06/26/2015	09:03:47.637	$GPGGA,090348,2537.4493,N,08000.6385,W,1,8,1.7,9,M,,M,,*68
06/26/2015	09:03:48.507	$GPGGA,090349,2537.4486,N,08000.6389,W,1,8,1.7,9,M,,M,,*61
06/26/2015	09:03:49.507	$GPGGA,090350,2537.4478,N,08000.6395,W,1,8,1.7,9,M,,M,,*65
06/26/2015	09:03:50.537	$GPGGA,090351,2537.4471,N,08000.6400,W,1,8,1.7,9,M,,M,,*66
06/26/2015	09:03:51.507	$GPGGA,090352,2537.4464,N,08000.6405,W,1,9,1.6,9,M,,M,,*64
06/26/2015	09:03:52.537	$GPGGA,090353,2537.4457,N,08000.6409,W,1,9,1.7,9,M,,M,,*68
06/26/2015	09:03:53.580	$GPGGA,090354,2537.4453,N,08000.6416,W,1,8,1.7,9,M,,M,,*64
06/26/2015	09:03:54.547	$GPGGA,090355,2537.4444,N,08000.6420,W,1,8,1.7,9,M,,M,,*66
06/26/2015	09:03:55.628	$GPGGA,090356,2537.4437,N,08000.6424,W,1,8,1.7,9,M,,M,,*65
06/26/2015	09:03:56.898	$GPGGA,090357,2537.4429,N,08000.6431,W,1,8,1.7,9,M,,M,,*6F
06/26/2015	09:03:57.598	$GPGGA,090358,2537.4421,N,08000.6435,W,1,8,1.7,9,M,,M,,*6C
06/26/2015	09:03:58.528	$GPGGA,090359,2537.4413,N,08000.6441,W,1,8,1.7,9,M,,M,,*6F
06/26/2015	09:03:59.617	$GPGGA,090400,2537.4406,N,08000.6446,W,1,8,1.7,9,M,,M,,*67
06/26/2015	09:04:00.517	$GPGGA,090401,2537.4398,N,08000.6450,W,1,8,1.7,9,M,,M,,*61
06/26/2015	09:04:01.587	$GPGGA,090402,2537.4390,N,08000.6456,W,1,8,1.7,9,M,,M,,*6C
06/26/2015	09:04:02.517	$GPGGA,090403,2537.4384,N,08000.6460,W,1,8,1.7,9,M,,M,,*6D
06/26/2015	09:04:03.647	$GPGGA,090404,2537.4375,N,08000.6467,W,1,8,1.7,9,M,,M,,*63
06/26/2015	09:04:05.587	$GPGGA,090406,2537.4360,N,08000.6475,W,1,8,1.7,9,M,,M,,*66
06/26/2015	09:04:06.517	$GPGGA,090407,2537.4352,N,08000.6481,W,1,8,1.7,9,M,,M,,*6D
06/26/2015	09:04:07.617	$GPGGA,090408,2537.4345,N,08000.6485,W,1,8,1.7,9,M,,M,,*60
06/26/2015	09:04:08.587	$GPGGA,090409,2537.4337,N,08000.6489,W,1,8,1.7,9,M,,M,,*68
06/26/2015	09:04:09.547	$GPGGA,090410,2537.4330,N,08000.6495,W,1,8,1.7,9,M,,M,,*6A
06/26/2015	09:04:10.567	$GPGGA,090411,2537.4321,N,08000.6499,W,1,8,1.7,9,M,,M,,*67
06/26/2015	09:04:11.627	$GPGGA,090412,2537.4314,N,08000.6503,W,1,8,1.7,9,M,,M,,*60
06/26/2015	09:04:12.557	$GPGGA,090413,2537.4306,N,08000.6508,W,1,8,1.7,9,M,,M,,*69
06/26/2015	09:04:13.598	$GPGGA,090414,2537.4298,N,08000.6514,W,1,8,1.7,9,M,,M,,*65
06/26/2015	09:04:14.498	$GPGGA,090415,2537.4291,N,08000.6517,W,1,8,1.7,9,M,,M,,*6E
06/26/2015	09:04:15.578	$GPGGA,090416,2537.4283,N,08000.6521,W,1,8,1.7,9,M,,M,,*6B
06/26/2015	09:04:16.558	$GPGGA,090417,2537.4276,N,08000.6526,W,1,8,1.7,9,M,,M,,*67
06/26/2015	09:04:17.577	$GPGGA,090418,2537.4268,N,08000.6530,W,1,8,1.7,9,M,,M,,*60
06/26/2015	09:04:18.547	$GPGGA,090419,2537.4260,N,08000.6535,W,1,8,1.7,9,M,,M,,*6C
06/26/2015	09:04:19.607	$GPGGA,090420,2537.4254,N,08000.6539,W,1,8,1.7,9,M,,M,,*6D
06/26/2015	09:04:20.547	$GPGGA,090421,2537.4245,N,08000.6544,W,1,8,1.7,9,M,,M,,*66
06/26/2015	09:04:21.577	$GPGGA,090422,2537.4237,N,08000.6550,W,1,8,1.7,9,M,,M,,*65
06/26/2015	09:04:22.537	$GPGGA,090423,2537.4229,N,08000.6553,W,1,8,1.7,9,M,,M,,*68
06/26/2015	09:04:23.617	$GPGGA,090424,2537.4221,N,08000.6557,W,1,8,1.7,9,M,,M,,*63
06/26/2015	09:04:24.547	$GPGGA,090425,2537.4214,N,08000.6562,W,1,8,1.7,9,M,,M,,*62
06/26/2015	09:04:25.582	$GPGGA,090426,2537.4214,N,08000.6562,W,1,8,1.7,9,M,,M,,*61
06/26/2015	09:04:26.537	$GPGGA,090427,2537.4200,N,08000.6569,W,1,8,1.7,9,M,,M,,*6E
06/26/2015	09:04:27.587	$GPGGA,090428,2537.4200,N,08000.6569,W,1,8,1.7,9,M,,M,,*61
06/26/2015	09:04:28.537	$GPGGA,090429,2537.4184,N,08000.6579,W,1,8,1.7,9,M,,M,,*6E
06/26/2015	09:04:29.557	$GPGGA,090430,2537.4176,N,08000.6583,W,1,8,1.7,9,M,,M,,*6E
06/26/2015	09:04:30.527	$GPGGA,090431,2537.4169,N,08000.6586,W,1,8,1.7,9,M,,M,,*64
06/26/2015	09:04:31.628	$GPGGA,090432,2537.4161,N,08000.6591,W,1,8,1.7,9,M,,M,,*69
06/26/2015	09:04:32.528	$GPGGA,090433,2537.4153,N,08000.6595,W,1,8,1.7,9,M,,M,,*6D
06/26/2015	09:04:33.608	$GPGGA,090434,2537.4146,N,08000.6600,W,1,8,1.7,9,M,,M,,*61
06/26/2015	09:04:34.517	$GPGGA,090435,2537.4146,N,08000.6600,W,1,8,1.7,9,M,,M,,*60
06/26/2015	09:04:35.567	$GPGGA,090436,2537.4131,N,08000.6608,W,1,8,1.7,9,M,,M,,*6B
06/26/2015	09:04:36.518	$GPGGA,090437,2537.4124,N,08000.6612,W,1,8,1.7,9,M,,M,,*65
06/26/2015	09:04:37.568	$GPGGA,090438,2537.4115,N,08000.6618,W,1,8,1.7,9,M,,M,,*62
06/26/2015	09:04:38.517	$GPGGA,090439,2537.4108,N,08000.6622,W,1,8,1.7,9,M,,M,,*66
06/26/2015	09:04:39.547	$GPGGA,090440,2537.4108,N,08000.6622,W,1,8,1.7,9,M,,M,,*68
06/26/2015	09:04:40.507	$GPGGA,090441,2537.4092,N,08000.6630,W,1,8,1.7,9,M,,M,,*68
06/26/2015	09:04:41.579	$GPGGA,090442,2537.4085,N,08000.6636,W,1,8,1.7,9,M,,M,,*6B
06/26/2015	09:04:42.507	$GPGGA,090443,2537.4085,N,08000.6636,W,1,8,1.7,9,M,,M,,*6A
06/26/2015	09:04:43.547	$GPGGA,090444,2537.4077,N,08000.6640,W,1,8,1.7,9,M,,M,,*61
06/26/2015	09:04:44.497	$GPGGA,090445,2537.4063,N,08000.6648,W,1,8,1.7,9,M,,M,,*6D
06/26/2015	09:04:45.637	$GPGGA,090446,2537.4055,N,08000.6654,W,1,8,1.7,9,M,,M,,*66
06/26/2015	09:04:46.507	$GPGGA,090447,2537.4048,N,08000.6658,W,1,8,1.7,8,M,,M,,*66
06/26/2015	09:04:47.617	$GPGGA,090448,2537.4041,N,08000.6662,W,1,8,1.7,8,M,,M,,*69
06/26/2015	09:04:48.498	$GPGGA,090449,2537.4034,N,08000.6667,W,1,8,1.7,8,M,,M,,*6F
06/26/2015	09:04:49.518	$GPGGA,090450,2537.4034,N,08000.6667,W,1,8,1.7,8,M,,M,,*67
06/26/2015	09:04:50.484	$GPGGA,090451,2537.4017,N,08000.6676,W,1,8,1.7,8,M,,M,,*67
06/26/2015	09:04:51.627	$GPGGA,090452,2537.4010,N,08000.6680,W,1,8,1.7,8,M,,M,,*6A
06/26/2015	09:04:52.507	$GPGGA,090453,2537.4002,N,08000.6687,W,1,8,1.7,8,M,,M,,*6F
06/26/2015	09:04:53.497	$GPGGA,090454,2537.4002,N,08000.6687,W,1,8,1.7,8,M,,M,,*68
06/26/2015	09:04:54.577	$GPGGA,090455,2537.3988,N,08000.6695,W,1,8,1.7,8,M,,M,,*66
06/26/2015	09:04:55.984	$GPGGA,090456,2537.3981,N,08000.6702,W,1,8,1.7,8,M,,M,,*63
06/26/2015	09:04:56.487	$GPGGA,090457,2537.3973,N,08000.6705,W,1,8,1.7,8,M,,M,,*68
06/26/2015	09:04:57.581	$GPGGA,090458,2537.3966,N,08000.6710,W,1,8,1.7,8,M,,M,,*67
06/26/2015	09:04:58.597	$GPGGA,090459,2537.3959,N,08000.6716,W,1,8,1.7,8,M,,M,,*6C
06/26/2015	09:04:59.637	$GPGGA,090500,2537.3951,N,08000.6720,W,1,8,1.7,8,M,,M,,*6C
06/26/2015	09:05:00.580	$GPGGA,090501,2537.3944,N,08000.6725,W,1,8,1.7,8,M,,M,,*6C
06/26/2015	09:05:01.571	$GPGGA,090502,2537.3937,N,08000.6730,W,1,8,1.7,8,M,,M,,*6F
06/26/2015	09:05:02.570	$GPGGA,090503,2537.3929,N,08000.6735,W,1,8,1.7,8,M,,M,,*64
06/26/2015	09:05:03.584	$GPGGA,090504,2537.3922,N,08000.6741,W,1,8,1.7,8,M,,M,,*6B
06/26/2015	09:05:04.557	$GPGGA,090505,2537.3915,N,08000.6746,W,1,8,1.7,8,M,,M,,*69
06/26/2015	09:05:05.571	$GPGGA,090506,2537.3907,N,08000.6749,W,1,8,1.7,8,M,,M,,*66
06/26/2015	09:05:06.548	$GPGGA,090507,2537.3900,N,08000.6754,W,1,8,1.7,8,M,,M,,*6C
06/26/2015	09:05:07.598	$GPGGA,090508,2537.3893,N,08000.6760,W,1,7,1.9,8,M,,M,,*6E
06/26/2015	09:05:08.538	$GPGGA,090509,2537.3884,N,08000.6766,W,1,7,1.7,8,M,,M,,*61
06/26/2015	09:05:09.574	$GPGGA,090510,2537.3876,N,08000.6770,W,1,8,1.7,8,M,,M,,*6C
06/26/2015	09:05:10.547	$GPGGA,090511,2537.3868,N,08000.6777,W,1,8,1.7,8,M,,M,,*65
06/26/2015	09:05:11.597	$GPGGA,090512,2537.3860,N,08000.6782,W,1,8,1.7,8,M,,M,,*64
06/26/2015	09:05:12.547	$GPGGA,090513,2537.3853,N,08000.6788,W,1,8,1.7,8,M,,M,,*6F
06/26/2015	09:05:13.537	$GPGGA,090514,2537.3843,N,08000.6793,W,1,8,1.7,8,M,,M,,*63
06/26/2015	09:05:14.547	$GPGGA,090515,2537.3835,N,08000.6799,W,1,8,1.7,8,M,,M,,*69
06/26/2015	09:05:15.547	$GPGGA,090516,2537.3828,N,08000.6803,W,1,8,1.7,8,M,,M,,*6A
06/26/2015	09:05:16.537	$GPGGA,090517,2537.3819,N,08000.6810,W,1,8,1.7,8,M,,M,,*6B
06/26/2015	09:05:17.817	$GPGGA,090518,2537.3811,N,08000.6814,W,1,8,1.7,8,M,,M,,*68
06/26/2015	09:05:18.537	$GPGGA,090519,2537.3803,N,08000.6818,W,1,8,1.7,9,M,,M,,*67
06/26/2015	09:05:19.580	$GPGGA,090520,2537.3796,N,08000.6824,W,1,8,1.7,9,M,,M,,*61
06/26/2015	09:05:20.537	$GPGGA,090521,2537.3788,N,08000.6829,W,1,8,1.7,9,M,,M,,*62
06/26/2015	09:05:21.517	$GPGGA,090522,2537.3781,N,08000.6835,W,1,8,1.7,9,M,,M,,*65
06/26/2015	09:05:22.527	$GPGGA,090523,2537.3772,N,08000.6839,W,1,8,1.7,9,M,,M,,*64
06/26/2015	09:05:23.528	$GPGGA,090524,2537.3765,N,08000.6844,W,1,8,1.7,9,M,,M,,*6F
06/26/2015	09:05:24.518	$GPGGA,090525,2537.3757,N,08000.6850,W,1,8,1.7,9,M,,M,,*6A
06/26/2015	09:05:25.508	$GPGGA,090526,2537.3749,N,08000.6854,W,1,8,1.7,9,M,,M,,*62
06/26/2015	09:05:26.518	$GPGGA,090527,2537.3741,N,08000.6860,W,1,8,1.7,9,M,,M,,*6C
06/26/2015	09:05:27.557	$GPGGA,090528,2537.3734,N,08000.6864,W,1,8,1.7,9,M,,M,,*65
06/26/2015	09:05:28.507	$GPGGA,090529,2537.3727,N,08000.6869,W,1,8,1.7,9,M,,M,,*6B
06/26/2015	09:05:29.507	$GPGGA,090530,2537.3719,N,08000.6873,W,1,8,1.7,9,M,,M,,*65
06/26/2015	09:05:30.507	$GPGGA,090531,2537.3712,N,08000.6879,W,1,8,1.7,9,M,,M,,*65
06/26/2015	09:05:31.517	$GPGGA,090532,2537.3703,N,08000.6883,W,1,8,1.7,9,M,,M,,*63
06/26/2015	09:05:32.507	$GPGGA,090533,2537.3696,N,08000.6887,W,1,8,1.7,9,M,,M,,*6B
06/26/2015	09:05:33.497	$GPGGA,090534,2537.3689,N,08000.6893,W,1,8,1.7,9,M,,M,,*67
06/26/2015	09:05:34.487	$GPGGA,090535,2537.3681,N,08000.6897,W,1,8,1.7,9,M,,M,,*6A
06/26/2015	09:05:35.637	$GPGGA,090536,2537.3673,N,08000.6901,W,1,8,1.7,9,M,,M,,*6A
06/26/2015	09:05:36.487	$GPGGA,090537,2537.3666,N,08000.6905,W,1,8,1.7,9,M,,M,,*6B
06/26/2015	09:05:37.517	$GPGGA,090538,2537.3659,N,08000.6911,W,1,8,1.7,9,M,,M,,*6D
06/26/2015	09:05:38.487	$GPGGA,090539,2537.3651,N,08000.6915,W,1,8,1.7,9,M,,M,,*60
06/26/2015	09:05:39.517	$GPGGA,090540,2537.3643,N,08000.6919,W,1,8,1.7,9,M,,M,,*61
06/26/2015	09:05:40.498	$GPGGA,090541,2537.3636,N,08000.6925,W,1,8,1.7,9,M,,M,,*6D
06/26/2015	09:05:41.498	$GPGGA,090542,2537.3629,N,08000.6929,W,1,8,1.7,9,M,,M,,*6C
06/26/2015	09:05:42.479	$GPGGA,090543,2537.3622,N,08000.6933,W,1,8,1.7,9,M,,M,,*6D
06/26/2015	09:05:43.508	$GPGGA,090544,2537.3615,N,08000.6937,W,1,8,1.7,9,M,,M,,*6A
06/26/2015	09:05:44.471	$GPGGA,090545,2537.3606,N,08000.6943,W,1,8,1.7,9,M,,M,,*6A
06/26/2015	09:05:45.497	$GPGGA,090546,2537.3600,N,08000.6947,W,1,8,1.7,9,M,,M,,*6B
06/26/2015	09:05:46.478	$GPGGA,090547,2537.3591,N,08000.6951,W,1,8,1.7,9,M,,M,,*66
06/26/2015	09:05:47.487	$GPGGA,090548,2537.3583,N,08000.6955,W,1,8,1.7,9,M,,M,,*6E
06/26/2015	09:05:48.577	$GPGGA,090549,2537.3576,N,08000.6960,W,1,8,1.7,9,M,,M,,*63
06/26/2015	09:05:49.567	$GPGGA,090550,2537.3568,N,08000.6965,W,1,8,1.7,9,M,,M,,*61
06/26/2015	09:05:50.568	$GPGGA,090551,2537.3561,N,08000.6969,W,1,8,1.7,9,M,,M,,*65
06/26/2015	09:05:51.607	$GPGGA,090552,2537.3554,N,08000.6973,W,1,8,1.7,9,M,,M,,*6B
06/26/2015	09:05:52.577	$GPGGA,090553,2537.3546,N,08000.6977,W,1,8,1.7,9,M,,M,,*6D
06/26/2015	09:05:53.587	$GPGGA,090554,2537.3539,N,08000.6981,W,1,8,1.7,9,M,,M,,*6B
06/26/2015	09:05:54.817	$GPGGA,090555,2537.3531,N,08000.6987,W,1,8,1.7,9,M,,M,,*64
06/26/2015	09:05:55.587	$GPGGA,090556,2537.3525,N,08000.6991,W,1,8,1.7,9,M,,M,,*65
06/26/2015	09:05:56.557	$GPGGA,090557,2537.3517,N,08000.6994,W,1,8,1.7,9,M,,M,,*60
06/26/2015	09:05:57.547	$GPGGA,090558,2537.3510,N,08000.6999,W,1,8,1.7,9,M,,M,,*65
06/26/2015	09:05:58.558	$GPGGA,090559,2537.3503,N,08000.7005,W,1,8,1.7,9,M,,M,,*6B
06/26/2015	09:05:59.608	$GPGGA,090600,2537.3494,N,08000.7008,W,1,8,1.7,9,M,,M,,*66
06/26/2015	09:06:00.548	$GPGGA,090601,2537.3488,N,08000.7012,W,1,8,1.7,9,M,,M,,*61
06/26/2015	09:06:01.557	$GPGGA,090602,2537.3479,N,08000.7016,W,1,8,1.7,9,M,,M,,*68
06/26/2015	09:06:02.537	$GPGGA,090603,2537.3472,N,08000.7020,W,1,8,1.7,9,M,,M,,*67
06/26/2015	09:06:03.569	$GPGGA,090604,2537.3465,N,08000.7024,W,1,8,1.7,9,M,,M,,*62
06/26/2015	09:06:04.548	$GPGGA,090605,2537.3457,N,08000.7030,W,1,8,1.7,9,M,,M,,*67
06/26/2015	09:06:05.557	$GPGGA,090606,2537.3452,N,08000.7034,W,1,8,1.7,9,M,,M,,*65
06/26/2015	09:06:06.537	$GPGGA,090607,2537.3443,N,08000.7038,W,1,8,1.7,9,M,,M,,*68
06/26/2015	09:06:07.574	$GPGGA,090608,2537.3436,N,08000.7043,W,1,8,1.7,9,M,,M,,*69
06/26/2015	09:06:08.547	$GPGGA,090609,2537.3430,N,08000.7048,W,1,8,1.7,9,M,,M,,*65
06/26/2015	09:06:09.547	$GPGGA,090610,2537.3423,N,08000.7050,W,1,8,1.7,9,M,,M,,*66
06/26/2015	09:06:10.527	$GPGGA,090611,2537.3416,N,08000.7056,W,1,8,1.7,9,M,,M,,*67
06/26/2015	09:06:11.569	$GPGGA,090612,2537.3409,N,08000.7063,W,1,8,1.7,9,M,,M,,*6C
06/26/2015	09:06:12.517	$GPGGA,090613,2537.3400,N,08000.7066,W,1,8,1.7,9,M,,M,,*61
06/26/2015	09:06:13.507	$GPGGA,090614,2537.3393,N,08000.7070,W,1,8,1.7,9,M,,M,,*6C
06/26/2015	09:06:14.517	$GPGGA,090615,2537.3385,N,08000.7077,W,1,8,1.7,9,M,,M,,*6D
06/26/2015	09:06:15.558	$GPGGA,090616,2537.3378,N,08000.7081,W,1,8,1.7,9,M,,M,,*65
06/26/2015	09:06:16.508	$GPGGA,090617,2537.3370,N,08000.7085,W,1,8,1.7,9,M,,M,,*68
06/26/2015	09:06:17.508	$GPGGA,090618,2537.3363,N,08000.7090,W,1,8,1.7,9,M,,M,,*61
06/26/2015	09:06:18.628	$GPGGA,090619,2537.3356,N,08000.7095,W,1,8,1.7,9,M,,M,,*63
06/26/2015	09:06:19.527	$GPGGA,090620,2537.3348,N,08000.7099,W,1,8,1.7,9,M,,M,,*6A
06/26/2015	09:06:20.507	$GPGGA,090621,2537.3341,N,08000.7104,W,1,8,1.7,9,M,,M,,*67
06/26/2015	09:06:21.537	$GPGGA,090622,2537.3334,N,08000.7110,W,1,8,1.7,9,M,,M,,*63
06/26/2015	09:06:22.507	$GPGGA,090623,2537.3326,N,08000.7114,W,1,8,1.7,9,M,,M,,*65
06/26/2015	09:06:23.527	$GPGGA,090624,2537.3319,N,08000.7120,W,1,8,1.7,9,M,,M,,*69
06/26/2015	09:06:24.507	$GPGGA,090625,2537.3311,N,08000.7125,W,1,8,1.9,9,M,,M,,*6B
06/26/2015	09:06:25.497	$GPGGA,090626,2537.3304,N,08000.7131,W,1,8,1.7,9,M,,M,,*67
06/26/2015	09:06:26.487	$GPGGA,090627,2537.3297,N,08000.7135,W,1,8,1.7,9,M,,M,,*69
06/26/2015	09:06:27.517	$GPGGA,090628,2537.3289,N,08000.7139,W,1,8,1.7,9,M,,M,,*65
06/26/2015	09:06:28.507	$GPGGA,090629,2537.3281,N,08000.7144,W,1,8,1.9,9,M,,M,,*68
06/26/2015	09:06:29.507	$GPGGA,090630,2537.3275,N,08000.7150,W,1,7,1.9,9,M,,M,,*61
06/26/2015	09:06:30.472	$GPGGA,090631,2537.3266,N,08000.7153,W,1,7,1.7,9,M,,M,,*6F
06/26/2015	09:06:31.487	$GPGGA,090632,2537.3259,N,08000.7160,W,1,8,1.7,9,M,,M,,*6F
06/26/2015	09:06:32.487	$GPGGA,090633,2537.3251,N,08000.7164,W,1,8,1.7,9,M,,M,,*62
06/26/2015	09:06:33.468	$GPGGA,090634,2537.3244,N,08000.7169,W,1,8,1.7,9,M,,M,,*6C
06/26/2015	09:06:34.478	$GPGGA,090635,2537.3236,N,08000.7175,W,1,8,1.7,9,M,,M,,*65
06/26/2015	09:06:35.608	$GPGGA,090636,2537.3229,N,08000.7179,W,1,8,1.7,9,M,,M,,*64
06/26/2015	09:06:36.568	$GPGGA,090637,2537.3221,N,08000.7184,W,1,8,1.7,9,M,,M,,*6F
06/26/2015	09:06:37.569	$GPGGA,090638,2537.3214,N,08000.7189,W,1,8,1.7,8,M,,M,,*6A
06/26/2015	09:06:38.482	$GPGGA,090639,2537.3206,N,08000.7193,W,1,8,1.7,8,M,,M,,*63
06/26/2015	09:06:39.584	$GPGGA,090640,2537.3199,N,08000.7198,W,1,8,1.7,8,M,,M,,*63
06/26/2015	09:06:40.569	$GPGGA,090641,2537.3190,N,08000.7204,W,1,8,1.7,8,M,,M,,*6D
06/26/2015	09:06:41.557	$GPGGA,090642,2537.3182,N,08000.7207,W,1,8,1.7,8,M,,M,,*6E
06/26/2015	09:06:42.567	$GPGGA,090643,2537.3175,N,08000.7214,W,1,8,1.7,8,M,,M,,*65
06/26/2015	09:06:43.567	$GPGGA,090644,2537.3167,N,08000.7218,W,1,8,1.7,8,M,,M,,*6D
06/26/2015	09:06:44.977	$GPGGA,090645,2537.3159,N,08000.7223,W,1,8,1.7,8,M,,M,,*69
06/26/2015	09:06:45.577	$GPGGA,090646,2537.3152,N,08000.7229,W,1,8,1.7,8,M,,M,,*6B
06/26/2015	09:06:46.557	$GPGGA,090647,2537.3145,N,08000.7233,W,1,8,1.7,8,M,,M,,*67
06/26/2015	09:06:47.587	$GPGGA,090648,2537.3138,N,08000.7238,W,1,8,1.7,8,M,,M,,*69
06/26/2015	09:06:48.537	$GPGGA,090649,2537.3129,N,08000.7243,W,1,8,1.7,8,M,,M,,*64
06/26/2015	09:06:49.567	$GPGGA,090650,2537.3122,N,08000.7248,W,1,8,1.7,8,M,,M,,*6C
06/26/2015	09:06:50.538	$GPGGA,090651,2537.3114,N,08000.7254,W,1,8,1.7,8,M,,M,,*65
06/26/2015	09:06:51.589	$GPGGA,090652,2537.3107,N,08000.7258,W,1,8,1.7,8,M,,M,,*68
06/26/2015	09:06:52.538	$GPGGA,090653,2537.3099,N,08000.7262,W,1,8,1.7,9,M,,M,,*67
06/26/2015	09:06:53.538	$GPGGA,090654,2537.3092,N,08000.7267,W,1,8,1.7,9,M,,M,,*6E
06/26/2015	09:06:54.587	$GPGGA,090655,2537.3085,N,08000.7272,W,1,8,1.7,9,M,,M,,*6D
06/26/2015	09:06:55.557	$GPGGA,090656,2537.3077,N,08000.7277,W,1,8,1.7,9,M,,M,,*66
06/26/2015	09:06:56.527	$GPGGA,090657,2537.3070,N,08000.7283,W,1,8,1.7,9,M,,M,,*6B
06/26/2015	09:06:57.517	$GPGGA,090658,2537.3062,N,08000.7287,W,1,8,1.7,9,M,,M,,*63
06/26/2015	09:06:58.547	$GPGGA,090659,2537.3055,N,08000.7291,W,1,8,1.7,9,M,,M,,*61
06/26/2015	09:06:59.567	$GPGGA,090700,2537.3047,N,08000.7295,W,1,8,1.7,9,M,,M,,*6B
06/26/2015	09:07:00.537	$GPGGA,090701,2537.3040,N,08000.7301,W,1,8,1.7,9,M,,M,,*61
06/26/2015	09:07:01.537	$GPGGA,090702,2537.3033,N,08000.7305,W,1,8,1.7,9,M,,M,,*62
06/26/2015	09:07:02.527	$GPGGA,090703,2537.3024,N,08000.7309,W,1,8,1.7,9,M,,M,,*69
06/26/2015	09:07:03.567	$GPGGA,090704,2537.3017,N,08000.7314,W,1,8,1.7,9,M,,M,,*62
06/26/2015	09:07:04.517	$GPGGA,090705,2537.3009,N,08000.7319,W,1,8,1.7,9,M,,M,,*61
06/26/2015	09:07:05.507	$GPGGA,090706,2537.3001,N,08000.7323,W,1,8,1.7,9,M,,M,,*63
06/26/2015	09:07:06.518	$GPGGA,090707,2537.2993,N,08000.7327,W,1,8,1.7,9,M,,M,,*65
06/26/2015	09:07:07.527	$GPGGA,090708,2537.2986,N,08000.7331,W,1,8,1.7,9,M,,M,,*69
06/26/2015	09:07:08.498	$GPGGA,090709,2537.2979,N,08000.7337,W,1,8,1.7,9,M,,M,,*6E
06/26/2015	09:07:09.498	$GPGGA,090710,2537.2970,N,08000.7341,W,1,8,1.7,9,M,,M,,*6E
06/26/2015	09:07:10.508	$GPGGA,090711,2537.2963,N,08000.7344,W,1,8,1.8,9,M,,M,,*67
06/26/2015	09:07:11.617	$GPGGA,090712,2537.2955,N,08000.7349,W,1,8,1.8,9,M,,M,,*6C
06/26/2015	09:07:12.497	$GPGGA,090713,2537.2948,N,08000.7353,W,1,8,1.8,9,M,,M,,*6A
06/26/2015	09:07:13.517	$GPGGA,090714,2537.2940,N,08000.7356,W,1,8,1.8,9,M,,M,,*60
06/26/2015	09:07:14.507	$GPGGA,090715,2537.2932,N,08000.7361,W,1,8,1.8,9,M,,M,,*60
06/26/2015	09:07:15.607	$GPGGA,090716,2537.2925,N,08000.7366,W,1,8,1.8,9,M,,M,,*62
06/26/2015	09:07:16.487	$GPGGA,090717,2537.2917,N,08000.7370,W,1,8,1.8,9,M,,M,,*65
06/26/2015	09:07:17.507	$GPGGA,090718,2537.2910,N,08000.7374,W,1,8,1.8,9,M,,M,,*69
06/26/2015	09:07:18.497	$GPGGA,090719,2537.2903,N,08000.7379,W,1,8,1.8,9,M,,M,,*67
06/26/2015	09:07:19.527	$GPGGA,090720,2537.2894,N,08000.7384,W,1,8,1.8,9,M,,M,,*60
06/26/2015	09:07:20.487	$GPGGA,090721,2537.2887,N,08000.7388,W,1,8,1.8,9,M,,M,,*6F
06/26/2015	09:07:21.497	$GPGGA,090722,2537.2879,N,08000.7392,W,1,8,1.8,9,M,,M,,*66
06/26/2015	09:07:22.487	$GPGGA,090723,2537.2872,N,08000.7395,W,1,8,1.8,9,M,,M,,*6B
06/26/2015	09:07:23.480	$GPGGA,090724,2537.2864,N,08000.7400,W,1,8,1.8,9,M,,M,,*60
06/26/2015	09:07:24.569	$GPGGA,090725,2537.2857,N,08000.7406,W,1,8,1.8,9,M,,M,,*67
06/26/2015	09:07:25.580	$GPGGA,090726,2537.2849,N,08000.7410,W,1,8,1.8,9,M,,M,,*6C
06/26/2015	09:07:26.480	$GPGGA,090727,2537.2842,N,08000.7414,W,1,8,1.8,9,M,,M,,*62
06/26/2015	09:07:27.485	$GPGGA,090728,2537.2834,N,08000.7418,W,1,8,1.8,9,M,,M,,*60
06/26/2015	09:07:28.568	$GPGGA,090729,2537.2827,N,08000.7424,W,1,8,1.8,9,M,,M,,*6C
06/26/2015	09:07:29.587	$GPGGA,090730,2537.2818,N,08000.7428,W,1,8,1.8,9,M,,M,,*64
06/26/2015	09:07:30.557	$GPGGA,090731,2537.2811,N,08000.7431,W,1,8,1.8,9,M,,M,,*64
06/26/2015	09:07:31.627	$GPGGA,090732,2537.2803,N,08000.7436,W,1,8,1.8,9,M,,M,,*63
06/26/2015	09:07:32.557	$GPGGA,090733,2537.2795,N,08000.7442,W,1,8,1.8,9,M,,M,,*61
06/26/2015	09:07:33.557	$GPGGA,090734,2537.2788,N,08000.7446,W,1,8,1.8,9,M,,M,,*6E
06/26/2015	09:07:34.557	$GPGGA,090735,2537.2780,N,08000.7450,W,1,8,1.8,9,M,,M,,*60
06/26/2015	09:07:35.567	$GPGGA,090736,2537.2773,N,08000.7456,W,1,8,1.8,9,M,,M,,*69
06/26/2015	09:07:36.547	$GPGGA,090737,2537.2766,N,08000.7460,W,1,8,1.8,9,M,,M,,*69
06/26/2015	09:07:37.567	$GPGGA,090738,2537.2758,N,08000.7464,W,1,8,1.8,9,M,,M,,*6F
06/26/2015	09:07:39.579	$GPGGA,090740,2537.2744,N,08000.7473,W,1,8,1.8,9,M,,M,,*6B
06/26/2015	09:07:40.547	$GPGGA,090741,2537.2737,N,08000.7478,W,1,8,1.8,9,M,,M,,*65
06/26/2015	09:07:41.528	$GPGGA,090742,2537.2728,N,08000.7483,W,1,8,1.8,9,M,,M,,*6C
06/26/2015	09:07:42.537	$GPGGA,090743,2537.2720,N,08000.7487,W,1,8,1.8,9,M,,M,,*61
06/26/2015	09:07:43.568	$GPGGA,090744,2537.2712,N,08000.7493,W,1,8,1.8,9,M,,M,,*62
06/26/2015	09:07:44.538	$GPGGA,090745,2537.2705,N,08000.7497,W,1,8,1.8,9,M,,M,,*61
06/26/2015	09:07:45.528	$GPGGA,090746,2537.2697,N,08000.7503,W,1,8,1.8,9,M,,M,,*64
06/26/2015	09:07:46.537	$GPGGA,090747,2537.2690,N,08000.7507,W,1,8,1.8,8,M,,M,,*67
06/26/2015	09:07:47.583	$GPGGA,090748,2537.2682,N,08000.7512,W,1,8,1.8,8,M,,M,,*6F
06/26/2015	09:07:48.527	$GPGGA,090749,2537.2674,N,08000.7518,W,1,8,1.8,8,M,,M,,*6D
06/26/2015	09:07:49.557	$GPGGA,090750,2537.2668,N,08000.7522,W,1,8,1.8,8,M,,M,,*61
06/26/2015	09:07:50.527	$GPGGA,090751,2537.2659,N,08000.7529,W,1,8,1.8,8,M,,M,,*69
06/26/2015	09:07:51.557	$GPGGA,090752,2537.2651,N,08000.7533,W,1,8,1.8,8,M,,M,,*69
06/26/2015	09:07:52.507	$GPGGA,090753,2537.2644,N,08000.7538,W,1,8,1.8,8,M,,M,,*67
06/26/2015	09:07:53.517	$GPGGA,090754,2537.2637,N,08000.7543,W,1,8,1.8,8,M,,M,,*68
06/26/2015	09:07:54.517	$GPGGA,090755,2537.2629,N,08000.7547,W,1,8,1.8,8,M,,M,,*62
06/26/2015	09:07:55.557	$GPGGA,090756,2537.2622,N,08000.7554,W,1,8,1.8,8,M,,M,,*68
06/26/2015	09:07:56.927	$GPGGA,090757,2537.2614,N,08000.7558,W,1,8,1.8,8,M,,M,,*60
06/26/2015	09:07:57.537	$GPGGA,090758,2537.2607,N,08000.7562,W,1,8,1.8,8,M,,M,,*64
06/26/2015	09:07:58.497	$GPGGA,090759,2537.2599,N,08000.7568,W,1,8,1.8,8,M,,M,,*6B
06/26/2015	09:07:59.667	$GPGGA,090800,2537.2592,N,08000.7573,W,1,8,1.8,8,M,,M,,*69
06/26/2015	09:08:00.518	$GPGGA,090801,2537.2585,N,08000.7579,W,1,8,1.8,8,M,,M,,*64
06/26/2015	09:08:01.518	$GPGGA,090802,2537.2578,N,08000.7583,W,1,8,1.8,8,M,,M,,*60
06/26/2015	09:08:02.508	$GPGGA,090803,2537.2570,N,08000.7590,W,1,8,1.8,8,M,,M,,*6B
06/26/2015	09:08:03.548	$GPGGA,090804,2537.2562,N,08000.7594,W,1,8,1.8,8,M,,M,,*6B
06/26/2015	09:08:04.497	$GPGGA,090805,2537.2556,N,08000.7598,W,1,8,1.8,8,M,,M,,*61
06/26/2015	09:08:05.517	$GPGGA,090806,2537.2547,N,08000.7605,W,1,8,1.8,8,M,,M,,*65
06/26/2015	09:08:06.479	$GPGGA,090807,2537.2540,N,08000.7609,W,1,8,1.8,8,M,,M,,*6F
06/26/2015	09:08:07.597	$GPGGA,090808,2537.2533,N,08000.7613,W,1,8,1.8,8,M,,M,,*6F
06/26/2015	09:08:08.481	$GPGGA,090809,2537.2525,N,08000.7619,W,1,8,1.8,8,M,,M,,*63
06/26/2015	09:08:09.637	$GPGGA,090810,2537.2518,N,08000.7626,W,1,8,1.8,8,M,,M,,*69
06/26/2015	09:08:10.488	$GPGGA,090811,2537.2511,N,08000.7630,W,1,8,1.8,8,M,,M,,*66
06/26/2015	09:08:11.577	$GPGGA,090812,2537.2503,N,08000.7634,W,1,8,1.8,8,M,,M,,*62
06/26/2015	09:08:12.577	$GPGGA,090813,2537.2496,N,08000.7641,W,1,8,1.8,8,M,,M,,*6C
06/26/2015	09:08:13.479	$GPGGA,090814,2537.2488,N,08000.7645,W,1,8,1.8,8,M,,M,,*60
06/26/2015	09:08:14.474	$GPGGA,090815,2537.2480,N,08000.7650,W,1,8,1.8,8,M,,M,,*6D
06/26/2015	09:08:15.597	$GPGGA,090816,2537.2473,N,08000.7656,W,1,8,1.8,8,M,,M,,*64
06/26/2015	09:08:16.557	$GPGGA,090817,2537.2466,N,08000.7662,W,1,8,1.8,8,M,,M,,*66
06/26/2015	09:08:17.587	$GPGGA,090818,2537.2458,N,08000.7666,W,1,8,1.8,8,M,,M,,*60
06/26/2015	09:08:18.547	$GPGGA,090819,2537.2450,N,08000.7671,W,1,8,1.8,8,M,,M,,*6F
06/26/2015	09:08:19.607	$GPGGA,090820,2537.2444,N,08000.7677,W,1,8,1.8,8,M,,M,,*66
06/26/2015	09:08:20.557	$GPGGA,090821,2537.2435,N,08000.7681,W,1,8,1.8,8,M,,M,,*68
06/26/2015	09:08:21.566	$GPGGA,090822,2537.2428,N,08000.7686,W,1,8,1.8,8,M,,M,,*60
06/26/2015	09:08:22.557	$GPGGA,090823,2537.2420,N,08000.7691,W,1,8,1.8,8,M,,M,,*6F
06/26/2015	09:08:23.586	$GPGGA,090824,2537.2412,N,08000.7695,W,1,8,1.8,8,M,,M,,*6D
06/26/2015	09:08:24.536	$GPGGA,090825,2537.2405,N,08000.7702,W,1,8,1.8,8,M,,M,,*65
06/26/2015	09:08:25.556	$GPGGA,090826,2537.2397,N,08000.7706,W,1,8,1.8,8,M,,M,,*6E
06/26/2015	09:08:26.536	$GPGGA,090827,2537.2390,N,08000.7710,W,1,8,1.8,8,M,,M,,*6F
06/26/2015	09:08:27.576	$GPGGA,090828,2537.2383,N,08000.7715,W,1,8,1.8,8,M,,M,,*67
06/26/2015	09:08:28.537	$GPGGA,090829,2537.2375,N,08000.7721,W,1,8,1.8,8,M,,M,,*68
06/26/2015	09:08:29.567	$GPGGA,090830,2537.2367,N,08000.7724,W,1,8,1.8,8,M,,M,,*66
06/26/2015	09:08:30.528	$GPGGA,090831,2537.2359,N,08000.7728,W,1,8,1.8,8,M,,M,,*66
06/26/2015	09:08:31.557	$GPGGA,090832,2537.2351,N,08000.7735,W,1,8,1.8,8,M,,M,,*61
06/26/2015	09:08:32.518	$GPGGA,090833,2537.2344,N,08000.7739,W,1,8,1.8,8,M,,M,,*68
06/26/2015	09:08:33.537	$GPGGA,090834,2537.2336,N,08000.7743,W,1,8,1.8,8,M,,M,,*67
06/26/2015	09:08:34.517	$GPGGA,090835,2537.2328,N,08000.7749,W,1,8,1.8,8,M,,M,,*63
06/26/2015	09:08:35.558	$GPGGA,090836,2537.2320,N,08000.7753,W,1,8,1.8,8,M,,M,,*63
06/26/2015	09:08:36.527	$GPGGA,090837,2537.2312,N,08000.7757,W,1,8,1.8,8,M,,M,,*67
06/26/2015	09:08:37.517	$GPGGA,090838,2537.2305,N,08000.7761,W,1,8,1.8,8,M,,M,,*6B
06/26/2015	09:08:38.517	$GPGGA,090839,2537.2297,N,08000.7767,W,1,8,1.8,8,M,,M,,*66
06/26/2015	09:08:39.583	$GPGGA,090840,2537.2290,N,08000.7771,W,1,8,1.8,8,M,,M,,*68
06/26/2015	09:08:40.516	$GPGGA,090841,2537.2282,N,08000.7775,W,1,8,1.8,8,M,,M,,*6E
06/26/2015	09:08:41.536	$GPGGA,090842,2537.2274,N,08000.7779,W,1,8,1.8,8,M,,M,,*68
06/26/2015	09:08:42.506	$GPGGA,090843,2537.2267,N,08000.7785,W,1,8,1.8,8,M,,M,,*68
06/26/2015	09:08:43.536	$GPGGA,090844,2537.2260,N,08000.7789,W,1,8,1.8,8,M,,M,,*64
06/26/2015	09:08:44.516	$GPGGA,090845,2537.2251,N,08000.7793,W,1,8,1.8,8,M,,M,,*6C
06/26/2015	09:08:45.496	$GPGGA,090846,2537.2244,N,08000.7797,W,1,8,1.8,8,M,,M,,*6F
06/26/2015	09:08:46.517	$GPGGA,090847,2537.2236,N,08000.7801,W,1,8,1.8,8,M,,M,,*6B
06/26/2015	09:08:47.617	$GPGGA,090848,2537.2229,N,08000.7805,W,1,8,1.8,8,M,,M,,*6E
06/26/2015	09:08:48.507	$GPGGA,090849,2537.2222,N,08000.7811,W,1,8,1.8,8,M,,M,,*61
06/26/2015	09:08:49.507	$GPGGA,090850,2537.2214,N,08000.7814,W,1,8,1.8,8,M,,M,,*69
06/26/2015	09:08:50.497	$GPGGA,090851,2537.2206,N,08000.7818,W,1,8,1.8,8,M,,M,,*67
06/26/2015	09:08:51.517	$GPGGA,090852,2537.2199,N,08000.7822,W,1,8,1.8,8,M,,M,,*68
06/26/2015	09:08:52.487	$GPGGA,090853,2537.2191,N,08000.7826,W,1,8,1.8,8,M,,M,,*65
06/26/2015	09:08:53.507	$GPGGA,090854,2537.2184,N,08000.7832,W,1,8,1.8,8,M,,M,,*63
06/26/2015	09:08:54.507	$GPGGA,090855,2537.2177,N,08000.7836,W,1,8,1.8,8,M,,M,,*6A
06/26/2015	09:08:55.527	$GPGGA,090856,2537.2168,N,08000.7840,W,1,8,1.8,8,M,,M,,*66
06/26/2015	09:08:56.569	$GPGGA,090857,2537.2161,N,08000.7844,W,1,8,1.8,8,M,,M,,*6A
06/26/2015	09:08:57.470	$GPGGA,090858,2537.2153,N,08000.7848,W,1,8,1.8,8,M,,M,,*68
06/26/2015	09:08:58.486	$GPGGA,090859,2537.2146,N,08000.7852,W,1,8,1.8,8,M,,M,,*66
06/26/2015	09:08:59.546	$GPGGA,090900,2537.2138,N,08000.7857,W,1,8,1.8,8,M,,M,,*67
06/26/2015	09:09:00.558	$GPGGA,090901,2537.2131,N,08000.7861,W,1,8,1.8,8,M,,M,,*6A
06/26/2015	09:09:01.586	$GPGGA,090902,2537.2123,N,08000.7865,W,1,8,1.8,8,M,,M,,*6E
06/26/2015	09:09:02.486	$GPGGA,090903,2537.2116,N,08000.7869,W,1,8,1.8,8,M,,M,,*65
06/26/2015	09:09:03.597	$GPGGA,090904,2537.2108,N,08000.7874,W,1,8,1.8,8,M,,M,,*61
06/26/2015	09:09:04.561	$GPGGA,090905,2537.2101,N,08000.7879,W,1,8,1.8,8,M,,M,,*64
06/26/2015	09:09:05.557	$GPGGA,090906,2537.2094,N,08000.7883,W,1,8,1.8,8,M,,M,,*6F
06/26/2015	09:09:06.547	$GPGGA,090907,2537.2086,N,08000.7887,W,1,8,1.8,8,M,,M,,*69
06/26/2015	09:09:07.577	$GPGGA,090908,2537.2079,N,08000.7894,W,1,8,1.8,8,M,,M,,*64
06/26/2015	09:09:08.559	$GPGGA,090909,2537.2072,N,08000.7897,W,1,8,1.8,8,M,,M,,*6D
06/26/2015	09:09:09.560	$GPGGA,090910,2537.2063,N,08000.7901,W,1,8,1.8,8,M,,M,,*6B
06/26/2015	09:09:10.559	$GPGGA,090911,2537.2056,N,08000.7908,W,1,8,1.8,8,M,,M,,*65
06/26/2015	09:09:11.547	$GPGGA,090912,2537.2049,N,08000.7912,W,1,8,1.8,8,M,,M,,*63
06/26/2015	09:09:12.547	$GPGGA,090913,2537.2041,N,08000.7916,W,1,8,1.8,8,M,,M,,*6E
06/26/2015	09:09:13.597	$GPGGA,090914,2537.2034,N,08000.7923,W,1,8,1.8,8,M,,M,,*6D
06/26/2015	09:09:14.546	$GPGGA,090915,2537.2027,N,08000.7927,W,1,8,1.8,8,M,,M,,*6A
06/26/2015	09:09:15.557	$GPGGA,090916,2537.2019,N,08000.7931,W,1,8,1.9,8,M,,M,,*62
06/26/2015	09:09:16.536	$GPGGA,090917,2537.2010,N,08000.7937,W,1,8,1.9,8,M,,M,,*6C
06/26/2015	09:09:17.546	$GPGGA,090918,2537.2002,N,08000.7944,W,1,8,1.8,8,M,,M,,*65
06/26/2015	09:09:18.526	$GPGGA,090919,2537.1996,N,08000.7948,W,1,8,1.8,8,M,,M,,*6F
06/26/2015	09:09:19.566	$GPGGA,090920,2537.1989,N,08000.7952,W,1,8,1.8,8,M,,M,,*60
06/26/2015	09:09:20.536	$GPGGA,090921,2537.1982,N,08000.7959,W,1,8,1.9,8,M,,M,,*60
06/26/2015	09:09:21.517	$GPGGA,090922,2537.1974,N,08000.7963,W,1,7,1.9,8,M,,M,,*6C
06/26/2015	09:09:22.527	$GPGGA,090923,2537.1964,N,08000.7970,W,1,7,1.9,8,M,,M,,*6E
06/26/2015	09:09:23.557	$GPGGA,090924,2537.1957,N,08000.7975,W,1,8,1.8,8,M,,M,,*62
06/26/2015	09:09:24.517	$GPGGA,090925,2537.1950,N,08000.7980,W,1,8,1.8,8,M,,M,,*6E
06/26/2015	09:09:25.528	$GPGGA,090926,2537.1943,N,08000.7986,W,1,7,1.9,8,M,,M,,*67
06/26/2015	09:09:26.517	$GPGGA,090927,2537.1936,N,08000.7991,W,1,7,1.8,8,M,,M,,*63
06/26/2015	09:09:27.527	$GPGGA,090928,2537.1929,N,08000.7996,W,1,8,1.8,8,M,,M,,*6A
06/26/2015	09:09:28.517	$GPGGA,090929,2537.1922,N,08000.8002,W,1,8,1.9,8,M,,M,,*6A
06/26/2015	09:09:29.527	$GPGGA,090930,2537.1914,N,08000.8006,W,1,7,1.9,8,M,,M,,*6C
06/26/2015	09:09:30.517	$GPGGA,090931,2537.1906,N,08000.8013,W,1,7,1.8,8,M,,M,,*6B
06/26/2015	09:09:31.546	$GPGGA,090932,2537.1898,N,08000.8018,W,1,8,1.8,8,M,,M,,*6A
06/26/2015	09:09:32.496	$GPGGA,090933,2537.1890,N,08000.8024,W,1,8,1.8,8,M,,M,,*6C
06/26/2015	09:09:33.506	$GPGGA,090934,2537.1882,N,08000.8031,W,1,8,1.8,8,M,,M,,*6C
06/26/2015	09:09:34.536	$GPGGA,090935,2537.1874,N,08000.8035,W,1,8,1.8,8,M,,M,,*60
06/26/2015	09:09:35.506	$GPGGA,090936,2537.1866,N,08000.8040,W,1,8,1.8,8,M,,M,,*62
06/26/2015	09:09:36.506	$GPGGA,090937,2537.1859,N,08000.8046,W,1,8,1.8,8,M,,M,,*69
06/26/2015	09:09:37.526	$GPGGA,090938,2537.1852,N,08000.8051,W,1,8,1.8,8,M,,M,,*6B
06/26/2015	09:09:38.497	$GPGGA,090939,2537.1843,N,08000.8056,W,1,8,1.8,8,M,,M,,*6D
06/26/2015	09:09:39.627	$GPGGA,090940,2537.1837,N,08000.8061,W,1,8,1.8,8,M,,M,,*64
06/26/2015	09:09:40.487	$GPGGA,090941,2537.1828,N,08000.8067,W,1,8,1.8,8,M,,M,,*6D
06/26/2015	09:09:41.497	$GPGGA,090942,2537.1821,N,08000.8071,W,1,8,1.8,8,M,,M,,*60
06/26/2015	09:09:42.477	$GPGGA,090943,2537.1813,N,08000.8076,W,1,8,1.8,8,M,,M,,*67
06/26/2015	09:09:43.527	$GPGGA,090944,2537.1806,N,08000.8082,W,1,8,1.8,8,M,,M,,*6F
06/26/2015	09:09:44.597	$GPGGA,090945,2537.1798,N,08000.8087,W,1,8,1.8,9,M,,M,,*62
06/26/2015	09:09:45.587	$GPGGA,090946,2537.1791,N,08000.8092,W,1,8,1.8,9,M,,M,,*6C
06/26/2015	09:09:46.874	$GPGGA,090947,2537.1783,N,08000.8096,W,1,8,1.8,9,M,,M,,*6A
06/26/2015	09:09:47.507	$GPGGA,090948,2537.1776,N,08000.8101,W,1,8,1.8,9,M,,M,,*60
06/26/2015	09:09:48.470	$GPGGA,090949,2537.1768,N,08000.8107,W,1,8,1.8,9,M,,M,,*68
06/26/2015	09:09:49.606	$GPGGA,090950,2537.1760,N,08000.8111,W,1,8,1.8,9,M,,M,,*6F
06/26/2015	09:09:50.476	$GPGGA,090951,2537.1754,N,08000.8116,W,1,8,1.8,9,M,,M,,*6E
06/26/2015	09:09:51.576	$GPGGA,090952,2537.1747,N,08000.8121,W,1,8,1.8,9,M,,M,,*6B
06/26/2015	09:09:52.476	$GPGGA,090953,2537.1740,N,08000.8125,W,1,8,1.8,9,M,,M,,*69
06/26/2015	09:09:53.560	$GPGGA,090954,2537.1732,N,08000.8129,W,1,8,1.8,9,M,,M,,*67
06/26/2015	09:09:54.466	$GPGGA,090955,2537.1725,N,08000.8136,W,1,8,1.8,9,M,,M,,*6E
06/26/2015	09:09:55.587	$GPGGA,090956,2537.1718,N,08000.8139,W,1,8,1.8,9,M,,M,,*6C
06/26/2015	09:09:56.571	$GPGGA,090957,2537.1709,N,08000.8143,W,1,8,1.8,9,M,,M,,*60
06/26/2015	09:09:57.587	$GPGGA,090958,2537.1702,N,08000.8148,W,1,8,1.8,9,M,,M,,*6F
06/26/2015	09:09:58.547	$GPGGA,090959,2537.1694,N,08000.8154,W,1,8,1.8,9,M,,M,,*6D
06/26/2015	09:09:59.637	$GPGGA,091000,2537.1687,N,08000.8158,W,1,8,1.8,9,M,,M,,*67
06/26/2015	09:10:00.547	$GPGGA,091001,2537.1679,N,08000.8161,W,1,8,1.8,9,M,,M,,*6D
06/26/2015	09:10:01.547	$GPGGA,091002,2537.1672,N,08000.8166,W,1,8,1.8,9,M,,M,,*62
06/26/2015	09:10:02.567	$GPGGA,091003,2537.1664,N,08000.8172,W,1,8,1.8,9,M,,M,,*61
06/26/2015	09:10:03.560	$GPGGA,091004,2537.1657,N,08000.8176,W,1,8,1.8,9,M,,M,,*62
06/26/2015	09:10:04.537	$GPGGA,091005,2537.1649,N,08000.8179,W,1,8,1.8,9,M,,M,,*63
06/26/2015	09:10:05.557	$GPGGA,091006,2537.1642,N,08000.8183,W,1,8,1.8,8,M,,M,,*6F
06/26/2015	09:10:06.546	$GPGGA,091007,2537.1635,N,08000.8188,W,1,8,1.8,8,M,,M,,*65
06/26/2015	09:10:07.536	$GPGGA,091008,2537.1626,N,08000.8193,W,1,8,1.8,8,M,,M,,*62
06/26/2015	09:10:08.536	$GPGGA,091009,2537.1619,N,08000.8197,W,1,8,1.8,8,M,,M,,*6B
06/26/2015	09:10:09.526	$GPGGA,091010,2537.1611,N,08000.8201,W,1,8,1.8,8,M,,M,,*67
06/26/2015	09:10:10.536	$GPGGA,091011,2537.1603,N,08000.8205,W,1,8,1.8,8,M,,M,,*61
06/26/2015	09:10:11.526	$GPGGA,091012,2537.1596,N,08000.8210,W,1,8,1.8,8,M,,M,,*69
06/26/2015	09:10:13.587	$GPGGA,091014,2537.1581,N,08000.8219,W,1,8,1.8,8,M,,M,,*60
06/26/2015	09:10:14.527	$GPGGA,091015,2537.1573,N,08000.8223,W,1,8,1.8,8,M,,M,,*65
06/26/2015	09:10:15.567	$GPGGA,091016,2537.1566,N,08000.8226,W,1,8,1.8,8,M,,M,,*67
06/26/2015	09:10:16.517	$GPGGA,091017,2537.1559,N,08000.8230,W,1,8,1.8,8,M,,M,,*6D
06/26/2015	09:10:17.527	$GPGGA,091018,2537.1550,N,08000.8234,W,1,8,1.8,8,M,,M,,*6F
06/26/2015	09:10:18.507	$GPGGA,091019,2537.1542,N,08000.8240,W,1,8,1.8,8,M,,M,,*6E
06/26/2015	09:10:19.547	$GPGGA,091020,2537.1535,N,08000.8244,W,1,8,1.8,8,M,,M,,*60
06/26/2015	09:10:20.517	$GPGGA,091021,2537.1527,N,08000.8248,W,1,8,1.8,8,M,,M,,*6E
06/26/2015	09:10:21.497	$GPGGA,091022,2537.1519,N,08000.8251,W,1,8,1.8,8,M,,M,,*68
06/26/2015	09:10:22.507	$GPGGA,091023,2537.1512,N,08000.8256,W,1,8,1.8,8,M,,M,,*65
06/26/2015	09:10:23.537	$GPGGA,091024,2537.1505,N,08000.8260,W,1,8,1.8,8,M,,M,,*61
06/26/2015	09:10:24.496	$GPGGA,091025,2537.1495,N,08000.8264,W,1,8,1.8,8,M,,M,,*6C
06/26/2015	09:10:25.516	$GPGGA,091026,2537.1488,N,08000.8269,W,1,8,1.8,8,M,,M,,*6E
06/26/2015	09:10:26.496	$GPGGA,091027,2537.1481,N,08000.8273,W,1,8,1.8,8,M,,M,,*6D
06/26/2015	09:10:27.606	$GPGGA,091028,2537.1473,N,08000.8278,W,1,8,1.8,8,M,,M,,*64
06/26/2015	09:10:28.486	$GPGGA,091029,2537.1466,N,08000.8282,W,1,8,1.8,8,M,,M,,*64
06/26/2015	09:10:29.506	$GPGGA,091030,2537.1458,N,08000.8287,W,1,8,1.8,8,M,,M,,*64
06/26/2015	09:10:30.486	$GPGGA,091031,2537.1451,N,08000.8291,W,1,8,1.8,8,M,,M,,*6B
06/26/2015	09:10:31.487	$GPGGA,091032,2537.1443,N,08000.8296,W,1,8,1.8,8,M,,M,,*6C
06/26/2015	09:10:32.497	$GPGGA,091033,2537.1436,N,08000.8300,W,1,8,1.8,8,M,,M,,*61
06/26/2015	09:10:33.477	$GPGGA,091034,2537.1429,N,08000.8306,W,1,8,1.8,8,M,,M,,*6E
06/26/2015	09:10:34.587	$GPGGA,091035,2537.1420,N,08000.8310,W,1,8,1.8,8,M,,M,,*61
06/26/2015	09:10:35.507	$GPGGA,091036,2537.1413,N,08000.8316,W,1,8,1.8,8,M,,M,,*64
06/26/2015	09:10:36.477	$GPGGA,091037,2537.1405,N,08000.8320,W,1,8,1.8,8,M,,M,,*67
06/26/2015	09:10:37.467	$GPGGA,091038,2537.1398,N,08000.8324,W,1,8,1.8,8,M,,M,,*6F
06/26/2015	09:10:38.569	$GPGGA,091039,2537.1391,N,08000.8329,W,1,8,1.8,8,M,,M,,*6A
06/26/2015	09:10:39.587	$GPGGA,091040,2537.1383,N,08000.8335,W,1,8,1.8,8,M,,M,,*6A
06/26/2015	09:10:40.477	$GPGGA,091041,2537.1376,N,08000.8339,W,1,8,1.8,8,M,,M,,*6D
06/26/2015	09:10:41.606	$GPGGA,091042,2537.1368,N,08000.8343,W,1,8,1.8,8,M,,M,,*6C
06/26/2015	09:10:42.476	$GPGGA,091043,2537.1361,N,08000.8349,W,1,8,1.8,8,M,,M,,*6E
06/26/2015	09:10:43.586	$GPGGA,091044,2537.1354,N,08000.8354,W,1,7,1.9,8,M,,M,,*6D
06/26/2015	09:10:44.561	$GPGGA,091045,2537.1346,N,08000.8358,W,1,7,1.8,8,M,,M,,*62
06/26/2015	09:10:45.586	$GPGGA,091046,2537.1339,N,08000.8363,W,1,7,1.9,8,M,,M,,*60
06/26/2015	09:10:46.546	$GPGGA,091047,2537.1332,N,08000.8368,W,1,7,1.9,8,M,,M,,*61
06/26/2015	09:10:47.569	$GPGGA,091048,2537.1325,N,08000.8374,W,1,7,1.9,8,M,,M,,*65
06/26/2015	09:10:51.807	$GPGGA,091052,2537.1296,N,08000.8394,W,1,7,1.9,7,M,,M,,*66
06/26/2015	09:10:52.537	$GPGGA,091053,2537.1289,N,08000.8400,W,1,7,1.9,7,M,,M,,*63
06/26/2015	09:10:53.537	$GPGGA,091054,2537.1282,N,08000.8405,W,1,7,1.9,7,M,,M,,*6A
06/26/2015	09:10:54.577	$GPGGA,091055,2537.1275,N,08000.8410,W,1,7,1.9,7,M,,M,,*67
06/26/2015	09:10:55.557	$GPGGA,091056,2537.1267,N,08000.8414,W,1,7,1.9,7,M,,M,,*63
06/26/2015	09:10:56.527	$GPGGA,091057,2537.1260,N,08000.8421,W,1,7,1.9,7,M,,M,,*63
06/26/2015	09:10:57.527	$GPGGA,091058,2537.1253,N,08000.8426,W,1,7,1.9,7,M,,M,,*6B
06/26/2015	09:10:58.537	$GPGGA,091059,2537.1246,N,08000.8432,W,1,7,1.9,7,M,,M,,*6B
06/26/2015	09:10:59.596	$GPGGA,091100,2537.1238,N,08000.8437,W,1,7,1.9,7,M,,M,,*6A
06/26/2015	09:11:00.536	$GPGGA,091101,2537.1231,N,08000.8443,W,1,7,1.9,7,M,,M,,*61
06/26/2015	09:11:01.546	$GPGGA,091102,2537.1223,N,08000.8448,W,1,8,1.8,7,M,,M,,*64
06/26/2015	09:11:02.526	$GPGGA,091103,2537.1216,N,08000.8454,W,1,8,1.9,7,M,,M,,*6F
06/26/2015	09:11:03.556	$GPGGA,091104,2537.1208,N,08000.8459,W,1,7,1.9,7,M,,M,,*65
06/26/2015	09:11:04.516	$GPGGA,091105,2537.1201,N,08000.8465,W,1,7,1.9,7,M,,M,,*62
06/26/2015	09:11:05.507	$GPGGA,091106,2537.1194,N,08000.8469,W,1,7,1.9,7,M,,M,,*62
06/26/2015	09:11:06.517	$GPGGA,091107,2537.1185,N,08000.8476,W,1,7,1.9,7,M,,M,,*6D
06/26/2015	09:11:07.557	$GPGGA,091108,2537.1177,N,08000.8482,W,1,8,1.8,7,M,,M,,*6A
06/26/2015	09:11:08.507	$GPGGA,091109,2537.1169,N,08000.8486,W,1,8,1.8,7,M,,M,,*60
06/26/2015	09:11:09.527	$GPGGA,091110,2537.1162,N,08000.8493,W,1,8,1.8,7,M,,M,,*67
06/26/2015	09:11:10.507	$GPGGA,091111,2537.1154,N,08000.8497,W,1,8,1.8,7,M,,M,,*67
06/26/2015	09:11:11.547	$GPGGA,091112,2537.1147,N,08000.8502,W,1,8,1.8,7,M,,M,,*6B
06/26/2015	09:11:12.497	$GPGGA,091113,2537.1140,N,08000.8508,W,1,8,1.8,7,M,,M,,*67
06/26/2015	09:11:13.497	$GPGGA,091114,2537.1133,N,08000.8513,W,1,8,1.8,7,M,,M,,*6E
06/26/2015	09:11:14.507	$GPGGA,091115,2537.1124,N,08000.8517,W,1,8,1.8,7,M,,M,,*6D
06/26/2015	09:11:15.547	$GPGGA,091116,2537.1116,N,08000.8522,W,1,8,1.8,7,M,,M,,*69
06/26/2015	09:11:16.506	$GPGGA,091117,2537.1109,N,08000.8529,W,1,8,1.8,7,M,,M,,*6D
06/26/2015	09:11:17.506	$GPGGA,091118,2537.1102,N,08000.8533,W,1,8,1.8,7,M,,M,,*62
06/26/2015	09:11:18.476	$GPGGA,091119,2537.1094,N,08000.8537,W,1,8,1.8,7,M,,M,,*69
06/26/2015	09:11:19.526	$GPGGA,091120,2537.1087,N,08000.8544,W,1,8,1.8,7,M,,M,,*65
06/26/2015	09:11:20.496	$GPGGA,091121,2537.1079,N,08000.8548,W,1,8,1.8,7,M,,M,,*69
06/26/2015	09:11:21.626	$GPGGA,091122,2537.1071,N,08000.8553,W,1,8,1.8,7,M,,M,,*68
06/26/2015	09:11:22.486	$GPGGA,091123,2537.1064,N,08000.8558,W,1,8,1.8,7,M,,M,,*66
06/26/2015	09:11:23.488	$GPGGA,091124,2537.1057,N,08000.8563,W,1,8,1.8,7,M,,M,,*69
06/26/2015	09:11:24.487	$GPGGA,091125,2537.1048,N,08000.8569,W,1,8,1.8,7,M,,M,,*6C
06/26/2015	09:11:25.647	$GPGGA,091126,2537.1041,N,08000.8573,W,1,8,1.8,7,M,,M,,*6D
06/26/2015	09:11:26.568	$GPGGA,091127,2537.1033,N,08000.8577,W,1,8,1.8,7,M,,M,,*6D
06/26/2015	09:11:27.647	$GPGGA,091128,2537.1025,N,08000.8581,W,1,8,1.8,7,M,,M,,*6C
06/26/2015	09:11:28.487	$GPGGA,091129,2537.1018,N,08000.8585,W,1,8,1.8,7,M,,M,,*67
06/26/2015	09:11:29.473	$GPGGA,091130,2537.1010,N,08000.8591,W,1,8,1.8,7,M,,M,,*62
06/26/2015	09:11:30.478	$GPGGA,091131,2537.1003,N,08000.8595,W,1,8,1.8,7,M,,M,,*65
06/26/2015	09:11:31.670	$GPGGA,091132,2537.0995,N,08000.8599,W,1,8,1.8,7,M,,M,,*6D
06/26/2015	09:11:32.877	$GPGGA,091133,2537.0988,N,08000.8603,W,1,8,1.8,7,M,,M,,*60
06/26/2015	09:11:33.587	$GPGGA,091134,2537.0981,N,08000.8609,W,1,8,1.8,7,M,,M,,*64
06/26/2015	09:11:34.636	$GPGGA,091135,2537.0972,N,08000.8613,W,1,8,1.8,7,M,,M,,*62
06/26/2015	09:11:35.571	$GPGGA,091136,2537.0965,N,08000.8616,W,1,8,1.8,7,M,,M,,*62
06/26/2015	09:11:36.616	$GPGGA,091137,2537.0957,N,08000.8621,W,1,8,1.8,7,M,,M,,*66
06/26/2015	09:11:37.626	$GPGGA,091138,2537.0949,N,08000.8625,W,1,8,1.8,7,M,,M,,*62
06/26/2015	09:11:38.926	$GPGGA,091139,2537.0942,N,08000.8629,W,1,8,1.8,7,M,,M,,*64
06/26/2015	09:11:39.626	$GPGGA,091140,2537.0935,N,08000.8634,W,1,8,1.8,7,M,,M,,*66
06/26/2015	09:11:40.637	$GPGGA,091141,2537.0927,N,08000.8638,W,1,8,1.8,7,M,,M,,*68
06/26/2015	09:11:41.537	$GPGGA,091142,2537.0920,N,08000.8642,W,1,8,1.8,7,M,,M,,*61
06/26/2015	09:11:42.607	$GPGGA,091143,2537.0913,N,08000.8646,W,1,8,1.8,7,M,,M,,*64
06/26/2015	09:11:43.627	$GPGGA,091144,2537.0905,N,08000.8649,W,1,8,1.8,7,M,,M,,*6B
06/26/2015	09:11:44.607	$GPGGA,091145,2537.0898,N,08000.8653,W,1,8,1.8,7,M,,M,,*64
06/26/2015	09:11:45.577	$GPGGA,091146,2537.0891,N,08000.8658,W,1,8,1.8,7,M,,M,,*65
06/26/2015	09:11:46.617	$GPGGA,091147,2537.0882,N,08000.8663,W,1,8,1.8,7,M,,M,,*6E
06/26/2015	09:11:47.587	$GPGGA,091148,2537.0876,N,08000.8667,W,1,8,1.8,7,M,,M,,*6E
06/26/2015	09:11:48.527	$GPGGA,091149,2537.0869,N,08000.8671,W,1,8,1.8,7,M,,M,,*66
06/26/2015	09:11:49.597	$GPGGA,091150,2537.0860,N,08000.8674,W,1,8,1.8,7,M,,M,,*62
06/26/2015	09:11:50.587	$GPGGA,091151,2537.0852,N,08000.8679,W,1,8,1.8,7,M,,M,,*6F
06/26/2015	09:11:51.576	$GPGGA,091152,2537.0845,N,08000.8683,W,1,8,1.8,7,M,,M,,*6F
06/26/2015	09:11:52.516	$GPGGA,091153,2537.0837,N,08000.8688,W,1,8,1.8,7,M,,M,,*60
06/26/2015	09:11:53.546	$GPGGA,091154,2537.0830,N,08000.8692,W,1,8,1.8,7,M,,M,,*6B
06/26/2015	09:11:54.506	$GPGGA,091155,2537.0823,N,08000.8696,W,1,8,1.8,7,M,,M,,*6C
06/26/2015	09:11:55.626	$GPGGA,091156,2537.0815,N,08000.8700,W,1,8,1.8,7,M,,M,,*64
06/26/2015	09:11:56.506	$GPGGA,091157,2537.0808,N,08000.8706,W,1,8,1.8,7,M,,M,,*6F
06/26/2015	09:11:57.569	$GPGGA,091158,2537.0800,N,08000.8710,W,1,8,1.8,7,M,,M,,*6F
06/26/2015	09:11:58.588	$GPGGA,091159,2537.0793,N,08000.8715,W,1,8,1.8,7,M,,M,,*6E
06/26/2015	09:11:59.577	$GPGGA,091200,2537.0786,N,08000.8719,W,1,8,1.8,7,M,,M,,*69
06/26/2015	09:12:00.557	$GPGGA,091201,2537.0779,N,08000.8725,W,1,8,1.8,7,M,,M,,*67
06/26/2015	09:12:01.547	$GPGGA,091202,2537.0771,N,08000.8730,W,1,8,1.8,7,M,,M,,*68
