Software Version Number: 1	Data File Format Number: 1	Build Version Number: 1	Error Count Since VI Started: 3	Manufacturer: Raytheon	 Model Number: RayMarine 120	 S/N: 	 Cal Date: 	 Wind Direction Offset: 0.00	 Slope (M)1: 0.00	 Offset (B)1: 0.00	 Slope (M)2: 0.00	 Offset (B)2: 0.00	 Slope (M)3: 0.00	 Offset (B)3: 0.00	 Slope (M)4: 0.00	 Offset (B)4: 0.00	 Slope (M)5: 0.00	 Offset (B)5: 0.00	 Slope (M)6: 0.00	 Offset (B)6: 0.00
Computer Date	Computer Time	GGA String
06/21/2015	18:00:00.540	$GPGGA,180001,2423.7298,N,08132.4382,W,1,11,1.5,11,M,,M,,*6A
06/21/2015	18:00:01.530	$GPGGA,180002,2423.7286,N,08132.4373,W,1,11,1.5,11,M,,M,,*68
06/21/2015	18:00:02.650	$GPGGA,180003,2423.7272,N,08132.4365,W,1,11,1.5,11,M,,M,,*65
06/21/2015	18:00:03.574	$GPGGA,180004,2423.7260,N,08132.4356,W,1,11,1.5,11,M,,M,,*61
06/21/2015	18:00:04.520	$GPGGA,180005,2423.7249,N,08132.4347,W,1,11,1.5,11,M,,M,,*6B
06/21/2015	18:00:05.640	$GPGGA,180006,2423.7235,N,08132.4339,W,1,11,1.5,11,M,,M,,*6A
06/21/2015	18:00:06.530	$GPGGA,180007,2423.7222,N,08132.4331,W,1,11,1.5,11,M,,M,,*65
06/21/2015	18:00:07.540	$GPGGA,180008,2423.7210,N,08132.4322,W,1,11,1.5,11,M,,M,,*69
06/21/2015	18:00:08.640	$GPGGA,180009,2423.7197,N,08132.4313,W,1,11,1.5,11,M,,M,,*66
06/21/2015	18:00:09.650	$GPGGA,180010,2423.7184,N,08132.4305,W,1,11,1.5,11,M,,M,,*6B
06/21/2015	18:00:10.520	$GPGGA,180011,2423.7173,N,08132.4296,W,1,11,1.5,11,M,,M,,*69
06/21/2015	18:00:11.520	$GPGGA,180012,2423.7159,N,08132.4287,W,1,11,1.5,11,M,,M,,*62
06/21/2015	18:00:12.600	$GPGGA,180013,2423.7148,N,08132.4279,W,1,11,1.5,11,M,,M,,*62
06/21/2015	18:00:13.500	$GPGGA,180014,2423.7134,N,08132.4271,W,1,11,1.5,11,M,,M,,*66
06/21/2015	18:00:14.620	$GPGGA,180015,2423.7122,N,08132.4262,W,1,11,1.5,11,M,,M,,*62
06/21/2015	18:00:15.510	$GPGGA,180016,2423.7110,N,08132.4254,W,1,11,1.5,11,M,,M,,*65
06/21/2015	18:00:16.520	$GPGGA,180017,2423.7097,N,08132.4245,W,1,11,1.5,11,M,,M,,*6A
06/21/2015	18:00:17.510	$GPGGA,180018,2423.7085,N,08132.4236,W,1,11,1.5,11,M,,M,,*62
06/21/2015	18:00:18.590	$GPGGA,180019,2423.7072,N,08132.4228,W,1,11,1.5,11,M,,M,,*64
06/21/2015	18:00:19.630	$GPGGA,180020,2423.7059,N,08132.4219,W,1,11,1.5,11,M,,M,,*65
06/21/2015	18:00:20.502	$GPGGA,180021,2423.7047,N,08132.4210,W,1,11,1.5,11,M,,M,,*62
06/21/2015	18:00:21.490	$GPGGA,180022,2423.7034,N,08132.4201,W,1,11,1.5,11,M,,M,,*65
06/21/2015	18:00:22.590	$GPGGA,180023,2423.7021,N,08132.4193,W,1,11,1.5,11,M,,M,,*68
06/21/2015	18:00:23.620	$GPGGA,180024,2423.7008,N,08132.4184,W,1,11,1.5,11,M,,M,,*62
06/21/2015	18:00:24.600	$GPGGA,180025,2423.6996,N,08132.4175,W,1,11,1.5,11,M,,M,,*62
06/21/2015	18:00:25.610	$GPGGA,180026,2423.6983,N,08132.4166,W,1,11,1.5,11,M,,M,,*67
06/21/2015	18:00:26.580	$GPGGA,180027,2423.6969,N,08132.4158,W,1,11,1.5,11,M,,M,,*6F
06/21/2015	18:00:27.600	$GPGGA,180028,2423.6957,N,08132.4149,W,1,11,1.5,11,M,,M,,*6D
06/21/2015	18:00:28.580	$GPGGA,180029,2423.6944,N,08132.4141,W,1,11,1.5,10,M,,M,,*67
06/21/2015	18:00:29.600	$GPGGA,180030,2423.6931,N,08132.4133,W,1,11,1.5,10,M,,M,,*68
06/21/2015	18:00:30.580	$GPGGA,180031,2423.6918,N,08132.4124,W,1,11,1.5,10,M,,M,,*64
06/21/2015	18:00:31.580	$GPGGA,180032,2423.6906,N,08132.4116,W,1,11,1.5,10,M,,M,,*69
06/21/2015	18:00:32.570	$GPGGA,180033,2423.6892,N,08132.4108,W,1,11,1.5,10,M,,M,,*6B
06/21/2015	18:00:33.590	$GPGGA,180034,2423.6879,N,08132.4099,W,1,11,1.5,10,M,,M,,*60
06/21/2015	18:00:34.570	$GPGGA,180035,2423.6867,N,08132.4089,W,1,11,1.3,10,M,,M,,*69
06/21/2015	18:00:35.600	$GPGGA,180036,2423.6855,N,08132.4080,W,1,11,1.3,10,M,,M,,*62
06/21/2015	18:00:36.561	$GPGGA,180037,2423.6842,N,08132.4072,W,1,11,1.3,10,M,,M,,*68
06/21/2015	18:00:37.550	$GPGGA,180038,2423.6830,N,08132.4064,W,1,11,1.3,10,M,,M,,*65
06/21/2015	18:00:38.565	$GPGGA,180039,2423.6817,N,08132.4055,W,1,11,1.3,11,M,,M,,*62
06/21/2015	18:00:39.590	$GPGGA,180040,2423.6805,N,08132.4046,W,1,11,1.3,11,M,,M,,*6D
06/21/2015	18:00:40.560	$GPGGA,180041,2423.6792,N,08132.4038,W,1,11,1.3,11,M,,M,,*64
06/21/2015	18:00:41.590	$GPGGA,180042,2423.6779,N,08132.4031,W,1,11,1.3,11,M,,M,,*6B
06/21/2015	18:00:42.562	$GPGGA,180043,2423.6766,N,08132.4022,W,1,11,1.3,11,M,,M,,*66
06/21/2015	18:00:43.564	$GPGGA,180044,2423.6754,N,08132.4013,W,1,11,1.3,11,M,,M,,*62
06/21/2015	18:00:44.561	$GPGGA,180045,2423.6740,N,08132.4005,W,1,11,1.3,11,M,,M,,*61
06/21/2015	18:00:45.580	$GPGGA,180046,2423.6727,N,08132.3998,W,1,11,1.3,11,M,,M,,*69
06/21/2015	18:00:46.550	$GPGGA,180047,2423.6714,N,08132.3990,W,1,11,1.3,12,M,,M,,*63
06/21/2015	18:00:47.580	$GPGGA,180048,2423.6701,N,08132.3981,W,1,12,1.3,12,M,,M,,*6B
06/21/2015	18:00:48.530	$GPGGA,180049,2423.6689,N,08132.3976,W,1,12,1.4,12,M,,M,,*64
06/21/2015	18:00:49.540	$GPGGA,180050,2423.6676,N,08132.3970,W,1,12,1.3,12,M,,M,,*6D
06/21/2015	18:00:50.530	$GPGGA,180051,2423.6664,N,08132.3962,W,1,12,1.3,12,M,,M,,*6C
06/21/2015	18:00:51.580	$GPGGA,180052,2423.6651,N,08132.3954,W,1,12,1.3,12,M,,M,,*6C
06/21/2015	18:00:52.530	$GPGGA,180053,2423.6637,N,08132.3947,W,1,12,1.3,12,M,,M,,*6F
06/21/2015	18:00:53.620	$GPGGA,180054,2423.6624,N,08132.3940,W,1,12,1.3,12,M,,M,,*6D
06/21/2015	18:00:54.520	$GPGGA,180055,2423.6613,N,08132.3933,W,1,12,1.3,12,M,,M,,*6C
06/21/2015	18:00:55.550	$GPGGA,180056,2423.6599,N,08132.3925,W,1,12,1.3,12,M,,M,,*69
06/21/2015	18:00:56.520	$GPGGA,180057,2423.6585,N,08132.3918,W,1,12,1.3,12,M,,M,,*6B
06/21/2015	18:00:57.510	$GPGGA,180058,2423.6572,N,08132.3910,W,1,12,1.3,13,M,,M,,*65
06/21/2015	18:00:59.750	$GPGGA,180100,2423.6546,N,08132.3896,W,1,12,1.3,13,M,,M,,*61
06/21/2015	18:01:00.680	$GPGGA,180101,2423.6534,N,08132.3887,W,1,12,1.3,13,M,,M,,*65
06/21/2015	18:01:01.690	$GPGGA,180102,2423.6521,N,08132.3880,W,1,12,1.3,13,M,,M,,*65
06/21/2015	18:01:02.690	$GPGGA,180103,2423.6508,N,08132.3874,W,1,12,1.3,13,M,,M,,*64
06/21/2015	18:01:03.700	$GPGGA,180104,2423.6495,N,08132.3866,W,1,12,1.3,13,M,,M,,*65
06/21/2015	18:01:04.680	$GPGGA,180105,2423.6483,N,08132.3857,W,1,12,1.3,13,M,,M,,*61
06/21/2015	18:01:05.620	$GPGGA,180106,2423.6469,N,08132.3850,W,1,12,1.3,13,M,,M,,*61
06/21/2015	18:01:06.600	$GPGGA,180107,2423.6456,N,08132.3844,W,1,12,1.3,13,M,,M,,*69
06/21/2015	18:01:07.671	$GPGGA,180108,2423.6443,N,08132.3836,W,1,12,1.3,13,M,,M,,*67
06/21/2015	18:01:08.670	$GPGGA,180109,2423.6431,N,08132.3827,W,1,12,1.3,13,M,,M,,*63
06/21/2015	18:01:09.677	$GPGGA,180110,2423.6418,N,08132.3819,W,1,12,1.3,13,M,,M,,*6D
06/21/2015	18:01:10.666	$GPGGA,180111,2423.6404,N,08132.3813,W,1,12,1.3,13,M,,M,,*6B
06/21/2015	18:01:11.661	$GPGGA,180112,2423.6391,N,08132.3805,W,1,12,1.3,13,M,,M,,*64
06/21/2015	18:01:12.630	$GPGGA,180113,2423.6379,N,08132.3797,W,1,12,1.3,13,M,,M,,*67
06/21/2015	18:01:13.630	$GPGGA,180114,2423.6366,N,08132.3789,W,1,12,1.3,13,M,,M,,*61
06/21/2015	18:01:14.680	$GPGGA,180115,2423.6353,N,08132.3781,W,1,12,1.3,13,M,,M,,*6E
06/21/2015	18:01:15.590	$GPGGA,180116,2423.6340,N,08132.3773,W,1,12,1.3,13,M,,M,,*62
06/21/2015	18:01:16.671	$GPGGA,180117,2423.6328,N,08132.3766,W,1,12,1.6,13,M,,M,,*6C
06/21/2015	18:01:17.620	$GPGGA,180118,2423.6314,N,08132.3758,W,1,11,1.6,13,M,,M,,*62
06/21/2015	18:01:18.650	$GPGGA,180119,2423.6301,N,08132.3749,W,1,11,1.3,13,M,,M,,*62
06/21/2015	18:01:19.650	$GPGGA,180120,2423.6289,N,08132.3741,W,1,12,1.3,13,M,,M,,*62
06/21/2015	18:01:20.630	$GPGGA,180121,2423.6275,N,08132.3734,W,1,12,1.3,13,M,,M,,*62
06/21/2015	18:01:21.660	$GPGGA,180122,2423.6263,N,08132.3726,W,1,12,1.3,13,M,,M,,*65
06/21/2015	18:01:22.560	$GPGGA,180123,2423.6250,N,08132.3716,W,1,12,1.3,13,M,,M,,*67
06/21/2015	18:01:23.571	$GPGGA,180124,2423.6237,N,08132.3709,W,1,12,1.3,13,M,,M,,*6F
06/21/2015	18:01:24.630	$GPGGA,180125,2423.6224,N,08132.3702,W,1,12,1.3,13,M,,M,,*67
06/21/2015	18:01:25.550	$GPGGA,180126,2423.6212,N,08132.3692,W,1,12,1.3,13,M,,M,,*69
06/21/2015	18:01:26.630	$GPGGA,180127,2423.6199,N,08132.3683,W,1,12,1.3,14,M,,M,,*6F
06/21/2015	18:01:27.610	$GPGGA,180128,2423.6187,N,08132.3675,W,1,12,1.3,14,M,,M,,*66
06/21/2015	18:01:28.550	$GPGGA,180129,2423.6173,N,08132.3667,W,1,12,1.3,14,M,,M,,*6F
06/21/2015	18:01:29.650	$GPGGA,180130,2423.6160,N,08132.3657,W,1,12,1.3,14,M,,M,,*66
06/21/2015	18:01:30.610	$GPGGA,180131,2423.6148,N,08132.3649,W,1,12,1.3,14,M,,M,,*62
06/21/2015	18:01:31.610	$GPGGA,180132,2423.6135,N,08132.3641,W,1,12,1.3,14,M,,M,,*63
06/21/2015	18:01:32.540	$GPGGA,180133,2423.6122,N,08132.3632,W,1,12,1.3,14,M,,M,,*60
06/21/2015	18:01:33.562	$GPGGA,180134,2423.6111,N,08132.3623,W,1,12,1.3,14,M,,M,,*67
06/21/2015	18:01:34.620	$GPGGA,180135,2423.6098,N,08132.3615,W,1,12,1.3,14,M,,M,,*63
06/21/2015	18:01:35.600	$GPGGA,180136,2423.6084,N,08132.3606,W,1,12,1.3,14,M,,M,,*6F
06/21/2015	18:01:36.661	$GPGGA,180137,2423.6072,N,08132.3597,W,1,12,1.3,14,M,,M,,*6C
06/21/2015	18:01:37.590	$GPGGA,180138,2423.6060,N,08132.3589,W,1,12,1.3,14,M,,M,,*6F
06/21/2015	18:01:38.590	$GPGGA,180139,2423.6046,N,08132.3580,W,1,12,1.3,14,M,,M,,*63
06/21/2015	18:01:39.610	$GPGGA,180140,2423.6033,N,08132.3572,W,1,12,1.3,14,M,,M,,*62
06/21/2015	18:01:40.590	$GPGGA,180141,2423.6021,N,08132.3564,W,1,12,1.3,14,M,,M,,*67
06/21/2015	18:01:41.573	$GPGGA,180142,2423.6008,N,08132.3555,W,1,12,1.3,14,M,,M,,*6D
06/21/2015	18:01:42.590	$GPGGA,180143,2423.5996,N,08132.3546,W,1,12,1.3,14,M,,M,,*63
06/21/2015	18:01:43.600	$GPGGA,180144,2423.5983,N,08132.3539,W,1,12,1.3,14,M,,M,,*68
06/21/2015	18:01:44.590	$GPGGA,180145,2423.5970,N,08132.3530,W,1,12,1.3,14,M,,M,,*6C
06/21/2015	18:01:45.570	$GPGGA,180146,2423.5958,N,08132.3521,W,1,12,1.3,14,M,,M,,*65
06/21/2015	18:01:46.590	$GPGGA,180147,2423.5945,N,08132.3513,W,1,12,1.3,14,M,,M,,*69
06/21/2015	18:01:47.520	$GPGGA,180148,2423.5932,N,08132.3505,W,1,12,1.3,14,M,,M,,*61
06/21/2015	18:01:48.510	$GPGGA,180149,2423.5919,N,08132.3496,W,1,12,1.6,14,M,,M,,*67
06/21/2015	18:01:49.574	$GPGGA,180150,2423.5907,N,08132.3488,W,1,11,1.6,14,M,,M,,*6C
06/21/2015	18:01:50.580	$GPGGA,180151,2423.5894,N,08132.3481,W,1,11,1.3,14,M,,M,,*6A
06/21/2015	18:01:51.610	$GPGGA,180152,2423.5882,N,08132.3472,W,1,12,1.3,14,M,,M,,*61
06/21/2015	18:01:52.610	$GPGGA,180153,2423.5869,N,08132.3464,W,1,12,1.3,14,M,,M,,*62
06/21/2015	18:01:53.600	$GPGGA,180154,2423.5856,N,08132.3458,W,1,12,1.3,14,M,,M,,*66
06/21/2015	18:01:54.580	$GPGGA,180155,2423.5844,N,08132.3449,W,1,12,1.3,14,M,,M,,*64
06/21/2015	18:01:55.620	$GPGGA,180156,2423.5830,N,08132.3441,W,1,12,1.3,14,M,,M,,*6C
06/21/2015	18:01:56.610	$GPGGA,180157,2423.5817,N,08132.3434,W,1,12,1.3,14,M,,M,,*6A
06/21/2015	18:01:57.620	$GPGGA,180158,2423.5804,N,08132.3427,W,1,12,1.3,14,M,,M,,*65
06/21/2015	18:01:58.600	$GPGGA,180159,2423.5791,N,08132.3419,W,1,12,1.3,14,M,,M,,*6A
06/21/2015	18:01:59.650	$GPGGA,180200,2423.5779,N,08132.3412,W,1,12,1.3,14,M,,M,,*68
06/21/2015	18:02:01.086	$GPGGA,180201,2423.5765,N,08132.3405,W,1,12,1.3,14,M,,M,,*62
06/21/2015	18:02:01.590	$GPGGA,180202,2423.5752,N,08132.3398,W,1,12,1.3,14,M,,M,,*66
06/21/2015	18:02:02.590	$GPGGA,180203,2423.5739,N,08132.3390,W,1,12,1.3,14,M,,M,,*62
06/21/2015	18:02:03.610	$GPGGA,180204,2423.5726,N,08132.3382,W,1,12,1.3,14,M,,M,,*68
06/21/2015	18:02:04.580	$GPGGA,180205,2423.5714,N,08132.3375,W,1,12,1.3,14,M,,M,,*60
06/21/2015	18:02:05.600	$GPGGA,180206,2423.5699,N,08132.3367,W,1,12,1.3,14,M,,M,,*64
06/21/2015	18:02:06.590	$GPGGA,180207,2423.5686,N,08132.3359,W,1,12,1.3,14,M,,M,,*66
06/21/2015	18:02:07.610	$GPGGA,180208,2423.5674,N,08132.3351,W,1,12,1.3,14,M,,M,,*6C
06/21/2015	18:02:08.580	$GPGGA,180209,2423.5660,N,08132.3344,W,1,12,1.3,15,M,,M,,*6D
06/21/2015	18:02:09.610	$GPGGA,180210,2423.5647,N,08132.3336,W,1,12,1.3,15,M,,M,,*65
06/21/2015	18:02:10.580	$GPGGA,180211,2423.5634,N,08132.3328,W,1,12,1.3,15,M,,M,,*6F
06/21/2015	18:02:11.590	$GPGGA,180212,2423.5620,N,08132.3321,W,1,12,1.3,15,M,,M,,*60
06/21/2015	18:02:12.580	$GPGGA,180213,2423.5607,N,08132.3313,W,1,12,1.3,15,M,,M,,*65
06/21/2015	18:02:13.590	$GPGGA,180214,2423.5594,N,08132.3305,W,1,12,1.3,15,M,,M,,*6C
06/21/2015	18:02:14.590	$GPGGA,180215,2423.5581,N,08132.3298,W,1,12,1.3,15,M,,M,,*6C
06/21/2015	18:02:15.610	$GPGGA,180216,2423.5569,N,08132.3290,W,1,12,1.3,15,M,,M,,*61
06/21/2015	18:02:16.580	$GPGGA,180217,2423.5556,N,08132.3282,W,1,12,1.3,15,M,,M,,*6F
06/21/2015	18:02:17.580	$GPGGA,180218,2423.5544,N,08132.3274,W,1,12,1.3,15,M,,M,,*6A
06/21/2015	18:02:18.570	$GPGGA,180219,2423.5529,N,08132.3267,W,1,12,1.3,15,M,,M,,*62
06/21/2015	18:02:19.610	$GPGGA,180220,2423.5517,N,08132.3259,W,1,12,1.3,15,M,,M,,*68
06/21/2015	18:02:20.580	$GPGGA,180221,2423.5504,N,08132.3252,W,1,12,1.3,15,M,,M,,*60
06/21/2015	18:02:21.550	$GPGGA,180222,2423.5491,N,08132.3244,W,1,12,1.3,15,M,,M,,*69
06/21/2015	18:02:22.560	$GPGGA,180223,2423.5491,N,08132.3244,W,1,12,1.3,15,M,,M,,*68
06/21/2015	18:02:23.560	$GPGGA,180224,2423.5465,N,08132.3228,W,1,12,1.3,15,M,,M,,*6E
06/21/2015	18:02:24.600	$GPGGA,180225,2423.5452,N,08132.3221,W,1,12,1.3,15,M,,M,,*62
06/21/2015	18:02:25.550	$GPGGA,180226,2423.5439,N,08132.3213,W,1,12,1.3,15,M,,M,,*6D
06/21/2015	18:02:26.570	$GPGGA,180227,2423.5426,N,08132.3204,W,1,12,1.3,15,M,,M,,*64
06/21/2015	18:02:27.570	$GPGGA,180228,2423.5414,N,08132.3196,W,1,12,1.6,15,M,,M,,*67
06/21/2015	18:02:28.580	$GPGGA,180229,2423.5414,N,08132.3196,W,1,12,1.6,15,M,,M,,*66
06/21/2015	18:02:29.570	$GPGGA,180230,2423.5387,N,08132.3181,W,1,12,1.3,15,M,,M,,*60
06/21/2015	18:02:30.650	$GPGGA,180231,2423.5375,N,08132.3173,W,1,12,1.6,15,M,,M,,*64
06/21/2015	18:02:31.571	$GPGGA,180232,2423.5363,N,08132.3165,W,1,11,1.6,15,M,,M,,*64
06/21/2015	18:02:32.520	$GPGGA,180233,2423.5363,N,08132.3165,W,1,11,1.6,15,M,,M,,*65
06/21/2015	18:02:33.650	$GPGGA,180234,2423.5336,N,08132.3148,W,1,11,1.6,15,M,,M,,*6D
06/21/2015	18:02:34.570	$GPGGA,180235,2423.5323,N,08132.3140,W,1,11,1.6,15,M,,M,,*60
06/21/2015	18:02:35.550	$GPGGA,180236,2423.5310,N,08132.3131,W,1,11,1.6,15,M,,M,,*65
06/21/2015	18:02:36.580	$GPGGA,180237,2423.5298,N,08132.3122,W,1,11,1.3,15,M,,M,,*62
06/21/2015	18:02:37.610	$GPGGA,180238,2423.5285,N,08132.3113,W,1,12,1.3,15,M,,M,,*60
06/21/2015	18:02:38.530	$GPGGA,180239,2423.5285,N,08132.3113,W,1,12,1.4,15,M,,M,,*66
06/21/2015	18:02:39.530	$GPGGA,180240,2423.5259,N,08132.3098,W,1,11,1.4,15,M,,M,,*68
06/21/2015	18:02:40.600	$GPGGA,180241,2423.5246,N,08132.3090,W,1,11,1.3,15,M,,M,,*68
06/21/2015	18:02:41.630	$GPGGA,180242,2423.5233,N,08132.3081,W,1,12,1.3,15,M,,M,,*6A
06/21/2015	18:02:42.520	$GPGGA,180243,2423.5233,N,08132.3081,W,1,12,1.4,15,M,,M,,*6C
06/21/2015	18:02:43.650	$GPGGA,180244,2423.5208,N,08132.3067,W,1,12,1.3,15,M,,M,,*6C
06/21/2015	18:02:44.610	$GPGGA,180245,2423.5195,N,08132.3057,W,1,12,1.3,15,M,,M,,*69
06/21/2015	18:02:45.600	$GPGGA,180246,2423.5182,N,08132.3048,W,1,12,1.3,15,M,,M,,*62
06/21/2015	18:02:46.600	$GPGGA,180247,2423.5170,N,08132.3040,W,1,12,1.4,15,M,,M,,*61
06/21/2015	18:02:47.630	$GPGGA,180248,2423.5157,N,08132.3033,W,1,12,1.3,15,M,,M,,*68
06/21/2015	18:02:48.610	$GPGGA,180249,2423.5144,N,08132.3023,W,1,12,1.3,15,M,,M,,*6A
06/21/2015	18:02:49.620	$GPGGA,180250,2423.5132,N,08132.3014,W,1,11,1.4,15,M,,M,,*63
06/21/2015	18:02:50.580	$GPGGA,180251,2423.5119,N,08132.3006,W,1,11,1.4,15,M,,M,,*68
06/21/2015	18:02:51.630	$GPGGA,180252,2423.5107,N,08132.2997,W,1,12,1.3,15,M,,M,,*60
06/21/2015	18:02:52.585	$GPGGA,180253,2423.5094,N,08132.2987,W,1,12,1.3,15,M,,M,,*6B
06/21/2015	18:02:53.590	$GPGGA,180254,2423.5081,N,08132.2979,W,1,11,1.4,15,M,,M,,*6D
06/21/2015	18:02:54.590	$GPGGA,180255,2423.5068,N,08132.2971,W,1,11,1.3,15,M,,M,,*64
06/21/2015	18:02:55.600	$GPGGA,180256,2423.5056,N,08132.2962,W,1,12,1.3,15,M,,M,,*6B
06/21/2015	18:02:56.581	$GPGGA,180257,2423.5043,N,08132.2953,W,1,12,1.3,15,M,,M,,*6C
06/21/2015	18:02:57.590	$GPGGA,180258,2423.5031,N,08132.2945,W,1,12,1.3,15,M,,M,,*61
06/21/2015	18:02:58.575	$GPGGA,180259,2423.5018,N,08132.2937,W,1,12,1.3,15,M,,M,,*6E
06/21/2015	18:02:59.620	$GPGGA,180300,2423.5006,N,08132.2928,W,1,12,1.3,15,M,,M,,*62
06/21/2015	18:03:00.590	$GPGGA,180301,2423.4993,N,08132.2920,W,1,12,1.3,15,M,,M,,*6F
06/21/2015	18:03:01.585	$GPGGA,180302,2423.4980,N,08132.2913,W,1,12,1.3,15,M,,M,,*6E
06/21/2015	18:03:02.579	$GPGGA,180303,2423.4968,N,08132.2904,W,1,12,1.3,15,M,,M,,*6F
06/21/2015	18:03:03.610	$GPGGA,180304,2423.4955,N,08132.2895,W,1,12,1.3,15,M,,M,,*6F
06/21/2015	18:03:04.562	$GPGGA,180305,2423.4942,N,08132.2888,W,1,12,1.3,15,M,,M,,*64
06/21/2015	18:03:05.590	$GPGGA,180306,2423.4930,N,08132.2879,W,1,12,1.3,15,M,,M,,*6C
06/21/2015	18:03:06.564	$GPGGA,180307,2423.4917,N,08132.2870,W,1,12,1.3,15,M,,M,,*61
06/21/2015	18:03:07.600	$GPGGA,180308,2423.4905,N,08132.2862,W,1,12,1.3,15,M,,M,,*6E
06/21/2015	18:03:08.568	$GPGGA,180309,2423.4892,N,08132.2854,W,1,12,1.3,15,M,,M,,*65
06/21/2015	18:03:09.550	$GPGGA,180310,2423.4879,N,08132.2846,W,1,12,1.3,15,M,,M,,*6B
06/21/2015	18:03:10.540	$GPGGA,180311,2423.4866,N,08132.2838,W,1,12,1.3,15,M,,M,,*6D
06/21/2015	18:03:11.562	$GPGGA,180312,2423.4854,N,08132.2831,W,1,12,1.3,15,M,,M,,*66
06/21/2015	18:03:12.550	$GPGGA,180313,2423.4840,N,08132.2823,W,1,12,1.3,15,M,,M,,*61
06/21/2015	18:03:13.530	$GPGGA,180314,2423.4828,N,08132.2815,W,1,12,1.3,15,M,,M,,*6D
06/21/2015	18:03:14.561	$GPGGA,180315,2423.4815,N,08132.2806,W,1,12,1.3,15,M,,M,,*60
06/21/2015	18:03:15.550	$GPGGA,180316,2423.4803,N,08132.2799,W,1,11,1.4,15,M,,M,,*69
06/21/2015	18:03:16.530	$GPGGA,180317,2423.4789,N,08132.2791,W,1,11,1.3,15,M,,M,,*6A
06/21/2015	18:03:17.550	$GPGGA,180318,2423.4778,N,08132.2784,W,1,12,1.3,15,M,,M,,*6C
06/21/2015	18:03:18.550	$GPGGA,180319,2423.4764,N,08132.2776,W,1,12,1.3,15,M,,M,,*6D
06/21/2015	18:03:19.550	$GPGGA,180320,2423.4751,N,08132.2769,W,1,12,1.3,15,M,,M,,*6F
06/21/2015	18:03:20.520	$GPGGA,180321,2423.4738,N,08132.2761,W,1,12,1.3,15,M,,M,,*69
06/21/2015	18:03:21.520	$GPGGA,180322,2423.4725,N,08132.2752,W,1,12,1.3,15,M,,M,,*66
06/21/2015	18:03:22.620	$GPGGA,180323,2423.4713,N,08132.2744,W,1,12,1.3,15,M,,M,,*65
06/21/2015	18:03:23.550	$GPGGA,180324,2423.4699,N,08132.2736,W,1,12,1.3,15,M,,M,,*64
06/21/2015	18:03:24.610	$GPGGA,180325,2423.4685,N,08132.2728,W,1,12,1.3,15,M,,M,,*67
06/21/2015	18:03:25.530	$GPGGA,180326,2423.4673,N,08132.2720,W,1,12,1.3,15,M,,M,,*65
06/21/2015	18:03:26.620	$GPGGA,180327,2423.4659,N,08132.2712,W,1,12,1.3,15,M,,M,,*6D
06/21/2015	18:03:27.620	$GPGGA,180328,2423.4646,N,08132.2703,W,1,12,1.3,15,M,,M,,*6C
06/21/2015	18:03:28.520	$GPGGA,180329,2423.4633,N,08132.2695,W,1,12,1.3,15,M,,M,,*61
06/21/2015	18:03:29.600	$GPGGA,180330,2423.4620,N,08132.2688,W,1,12,1.3,15,M,,M,,*67
06/21/2015	18:03:30.600	$GPGGA,180331,2423.4608,N,08132.2679,W,1,12,1.3,15,M,,M,,*62
06/21/2015	18:03:31.610	$GPGGA,180332,2423.4594,N,08132.2671,W,1,12,1.3,15,M,,M,,*6F
06/21/2015	18:03:32.601	$GPGGA,180333,2423.4581,N,08132.2663,W,1,12,1.3,15,M,,M,,*69
06/21/2015	18:03:33.630	$GPGGA,180334,2423.4567,N,08132.2654,W,1,12,1.3,15,M,,M,,*62
06/21/2015	18:03:34.610	$GPGGA,180335,2423.4554,N,08132.2647,W,1,12,1.3,15,M,,M,,*61
06/21/2015	18:03:35.630	$GPGGA,180336,2423.4541,N,08132.2639,W,1,12,1.3,15,M,,M,,*6F
06/21/2015	18:03:36.590	$GPGGA,180337,2423.4527,N,08132.2630,W,1,12,1.3,15,M,,M,,*67
06/21/2015	18:03:37.600	$GPGGA,180338,2423.4514,N,08132.2621,W,1,12,1.3,15,M,,M,,*68
06/21/2015	18:03:38.590	$GPGGA,180339,2423.4501,N,08132.2615,W,1,12,1.6,15,M,,M,,*6F
06/21/2015	18:03:39.630	$GPGGA,180340,2423.4487,N,08132.2609,W,1,12,1.3,15,M,,M,,*66
06/21/2015	18:03:40.580	$GPGGA,180341,2423.4474,N,08132.2601,W,1,12,1.3,15,M,,M,,*63
06/21/2015	18:03:41.580	$GPGGA,180342,2423.4461,N,08132.2592,W,1,12,1.3,15,M,,M,,*6D
06/21/2015	18:03:42.580	$GPGGA,180343,2423.4449,N,08132.2584,W,1,12,1.3,15,M,,M,,*61
06/21/2015	18:03:43.600	$GPGGA,180344,2423.4435,N,08132.2576,W,1,12,1.3,15,M,,M,,*60
06/21/2015	18:03:44.590	$GPGGA,180345,2423.4422,N,08132.2568,W,1,12,1.3,15,M,,M,,*68
06/21/2015	18:03:45.590	$GPGGA,180346,2423.4409,N,08132.2559,W,1,12,1.3,15,M,,M,,*60
06/21/2015	18:03:46.566	$GPGGA,180347,2423.4396,N,08132.2549,W,1,12,1.3,15,M,,M,,*61
06/21/2015	18:03:47.610	$GPGGA,180348,2423.4384,N,08132.2541,W,1,12,1.3,15,M,,M,,*65
06/21/2015	18:03:48.570	$GPGGA,180349,2423.4370,N,08132.2534,W,1,12,1.3,15,M,,M,,*6D
06/21/2015	18:03:49.560	$GPGGA,180350,2423.4357,N,08132.2524,W,1,12,1.3,15,M,,M,,*61
06/21/2015	18:03:50.570	$GPGGA,180351,2423.4344,N,08132.2515,W,1,12,1.3,15,M,,M,,*60
06/21/2015	18:03:51.590	$GPGGA,180352,2423.4331,N,08132.2507,W,1,12,1.3,15,M,,M,,*62
06/21/2015	18:03:52.570	$GPGGA,180353,2423.4319,N,08132.2499,W,1,12,1.3,15,M,,M,,*6F
06/21/2015	18:03:53.550	$GPGGA,180354,2423.4305,N,08132.2489,W,1,12,1.3,15,M,,M,,*64
06/21/2015	18:03:54.550	$GPGGA,180355,2423.4292,N,08132.2480,W,1,12,1.3,15,M,,M,,*63
06/21/2015	18:03:55.580	$GPGGA,180356,2423.4279,N,08132.2472,W,1,12,1.3,15,M,,M,,*68
06/21/2015	18:03:56.560	$GPGGA,180357,2423.4266,N,08132.2463,W,1,12,1.3,15,M,,M,,*67
06/21/2015	18:03:57.563	$GPGGA,180358,2423.4254,N,08132.2454,W,1,12,1.3,15,M,,M,,*6D
06/21/2015	18:03:58.563	$GPGGA,180359,2423.4240,N,08132.2446,W,1,12,1.3,15,M,,M,,*6A
06/21/2015	18:03:59.630	$GPGGA,180400,2423.4227,N,08132.2437,W,1,12,1.3,15,M,,M,,*66
06/21/2015	18:04:00.540	$GPGGA,180401,2423.4215,N,08132.2428,W,1,12,1.3,15,M,,M,,*68
06/21/2015	18:04:01.573	$GPGGA,180402,2423.4201,N,08132.2420,W,1,12,1.3,15,M,,M,,*66
06/21/2015	18:04:02.662	$GPGGA,180403,2423.4189,N,08132.2411,W,1,12,1.3,15,M,,M,,*66
06/21/2015	18:04:03.540	$GPGGA,180404,2423.4176,N,08132.2402,W,1,12,1.3,15,M,,M,,*63
06/21/2015	18:04:04.650	$GPGGA,180405,2423.4164,N,08132.2393,W,1,12,1.3,15,M,,M,,*6E
06/21/2015	18:04:05.662	$GPGGA,180406,2423.4150,N,08132.2385,W,1,12,1.3,15,M,,M,,*6D
06/21/2015	18:04:06.530	$GPGGA,180407,2423.4137,N,08132.2376,W,1,12,1.3,15,M,,M,,*61
06/21/2015	18:04:07.663	$GPGGA,180408,2423.4124,N,08132.2367,W,1,12,1.3,15,M,,M,,*6C
06/21/2015	18:04:08.650	$GPGGA,180409,2423.4111,N,08132.2359,W,1,12,1.3,15,M,,M,,*66
06/21/2015	18:04:09.530	$GPGGA,180410,2423.4099,N,08132.2351,W,1,12,1.3,15,M,,M,,*67
06/21/2015	18:04:10.520	$GPGGA,180411,2423.4085,N,08132.2341,W,1,12,1.3,15,M,,M,,*6A
06/21/2015	18:04:11.630	$GPGGA,180412,2423.4073,N,08132.2332,W,1,12,1.3,15,M,,M,,*64
06/21/2015	18:04:12.541	$GPGGA,180413,2423.4060,N,08132.2325,W,1,12,1.3,15,M,,M,,*61
06/21/2015	18:04:13.520	$GPGGA,180414,2423.4048,N,08132.2317,W,1,12,1.3,15,M,,M,,*6D
06/21/2015	18:04:14.530	$GPGGA,180415,2423.4034,N,08132.2307,W,1,12,1.3,15,M,,M,,*66
06/21/2015	18:04:15.640	$GPGGA,180416,2423.4021,N,08132.2299,W,1,12,1.3,15,M,,M,,*67
06/21/2015	18:04:16.610	$GPGGA,180417,2423.4008,N,08132.2291,W,1,12,1.3,15,M,,M,,*65
06/21/2015	18:04:17.640	$GPGGA,180418,2423.3995,N,08132.2282,W,1,12,1.3,15,M,,M,,*62
06/21/2015	18:04:18.610	$GPGGA,180419,2423.3983,N,08132.2274,W,1,12,1.3,15,M,,M,,*6D
06/21/2015	18:04:19.640	$GPGGA,180420,2423.3969,N,08132.2266,W,1,12,1.3,15,M,,M,,*60
06/21/2015	18:04:20.600	$GPGGA,180421,2423.3956,N,08132.2257,W,1,12,1.3,15,M,,M,,*6F
06/21/2015	18:04:21.640	$GPGGA,180422,2423.3943,N,08132.2248,W,1,12,1.3,15,M,,M,,*66
06/21/2015	18:04:22.600	$GPGGA,180423,2423.3930,N,08132.2240,W,1,12,1.3,15,M,,M,,*6B
06/21/2015	18:04:23.630	$GPGGA,180424,2423.3918,N,08132.2232,W,1,12,1.3,15,M,,M,,*63
06/21/2015	18:04:25.020	$GPGGA,180425,2423.3904,N,08132.2223,W,1,12,1.3,15,M,,M,,*6F
06/21/2015	18:04:25.610	$GPGGA,180426,2423.3891,N,08132.2215,W,1,12,1.3,15,M,,M,,*64
06/21/2015	18:04:26.590	$GPGGA,180427,2423.3879,N,08132.2207,W,1,12,1.3,15,M,,M,,*60
06/21/2015	18:04:27.620	$GPGGA,180428,2423.3866,N,08132.2198,W,1,12,1.3,15,M,,M,,*64
06/21/2015	18:04:28.580	$GPGGA,180429,2423.3853,N,08132.2189,W,1,12,1.3,15,M,,M,,*63
06/21/2015	18:04:29.610	$GPGGA,180430,2423.3840,N,08132.2181,W,1,12,1.3,15,M,,M,,*61
06/21/2015	18:04:30.580	$GPGGA,180431,2423.3826,N,08132.2173,W,1,12,1.3,15,M,,M,,*6D
06/21/2015	18:04:31.620	$GPGGA,180432,2423.3813,N,08132.2165,W,1,12,1.3,15,M,,M,,*6F
06/21/2015	18:04:32.580	$GPGGA,180433,2423.3800,N,08132.2156,W,1,12,1.3,15,M,,M,,*6C
06/21/2015	18:04:33.590	$GPGGA,180434,2423.3788,N,08132.2149,W,1,12,1.3,15,M,,M,,*6A
06/21/2015	18:04:34.610	$GPGGA,180435,2423.3774,N,08132.2141,W,1,12,1.3,15,M,,M,,*60
06/21/2015	18:04:35.580	$GPGGA,180436,2423.3761,N,08132.2132,W,1,12,1.3,15,M,,M,,*63
06/21/2015	18:04:36.572	$GPGGA,180437,2423.3748,N,08132.2124,W,1,12,1.3,15,M,,M,,*6E
06/21/2015	18:04:37.590	$GPGGA,180438,2423.3735,N,08132.2116,W,1,12,1.3,15,M,,M,,*6A
06/21/2015	18:04:38.562	$GPGGA,180439,2423.3723,N,08132.2108,W,1,12,1.3,15,M,,M,,*63
06/21/2015	18:04:39.620	$GPGGA,180440,2423.3709,N,08132.2099,W,1,12,1.3,15,M,,M,,*6C
06/21/2015	18:04:40.590	$GPGGA,180441,2423.3696,N,08132.2092,W,1,12,1.3,14,M,,M,,*60
06/21/2015	18:04:41.560	$GPGGA,180442,2423.3683,N,08132.2084,W,1,12,1.3,14,M,,M,,*60
06/21/2015	18:04:42.560	$GPGGA,180443,2423.3670,N,08132.2075,W,1,12,1.3,14,M,,M,,*63
06/21/2015	18:04:43.620	$GPGGA,180444,2423.3658,N,08132.2067,W,1,12,1.3,14,M,,M,,*6D
06/21/2015	18:04:44.550	$GPGGA,180445,2423.3644,N,08132.2060,W,1,12,1.3,14,M,,M,,*66
06/21/2015	18:04:45.550	$GPGGA,180446,2423.3631,N,08132.2051,W,1,12,1.3,14,M,,M,,*65
06/21/2015	18:04:46.540	$GPGGA,180447,2423.3618,N,08132.2042,W,1,12,1.3,14,M,,M,,*6D
06/21/2015	18:04:47.590	$GPGGA,180448,2423.3605,N,08132.2035,W,1,12,1.3,14,M,,M,,*6E
06/21/2015	18:04:48.550	$GPGGA,180449,2423.3593,N,08132.2027,W,1,12,1.3,14,M,,M,,*60
06/21/2015	18:04:49.574	$GPGGA,180450,2423.3579,N,08132.2018,W,1,12,1.3,14,M,,M,,*60
06/21/2015	18:04:50.530	$GPGGA,180451,2423.3565,N,08132.2011,W,1,12,1.3,14,M,,M,,*65
06/21/2015	18:04:51.560	$GPGGA,180452,2423.3553,N,08132.2002,W,1,12,1.3,14,M,,M,,*61
06/21/2015	18:04:52.550	$GPGGA,180453,2423.3540,N,08132.1993,W,1,12,1.6,14,M,,M,,*65
06/21/2015	18:04:53.577	$GPGGA,180454,2423.3528,N,08132.1984,W,1,11,1.6,14,M,,M,,*69
06/21/2015	18:04:54.530	$GPGGA,180455,2423.3514,N,08132.1975,W,1,11,1.6,14,M,,M,,*69
06/21/2015	18:04:55.540	$GPGGA,180456,2423.3501,N,08132.1967,W,1,11,1.6,14,M,,M,,*6D
06/21/2015	18:04:57.592	$GPGGA,180458,2423.3475,N,08132.1949,W,1,11,1.6,14,M,,M,,*6D
06/21/2015	18:04:58.640	$GPGGA,180459,2423.3463,N,08132.1941,W,1,11,1.6,14,M,,M,,*63
06/21/2015	18:04:59.610	$GPGGA,180500,2423.3449,N,08132.1931,W,1,11,1.6,14,M,,M,,*61
06/21/2015	18:05:01.050	$GPGGA,180501,2423.3436,N,08132.1923,W,1,11,1.6,14,M,,M,,*6B
06/21/2015	18:05:01.550	$GPGGA,180502,2423.3423,N,08132.1915,W,1,11,1.6,14,M,,M,,*69
06/21/2015	18:05:02.530	$GPGGA,180503,2423.3410,N,08132.1906,W,1,11,1.6,14,M,,M,,*6A
06/21/2015	18:05:03.540	$GPGGA,180504,2423.3398,N,08132.1897,W,1,11,1.6,13,M,,M,,*64
06/21/2015	18:05:04.520	$GPGGA,180505,2423.3385,N,08132.1890,W,1,11,1.6,13,M,,M,,*6E
06/21/2015	18:05:05.530	$GPGGA,180506,2423.3371,N,08132.1881,W,1,11,1.6,13,M,,M,,*66
06/21/2015	18:05:06.510	$GPGGA,180507,2423.3358,N,08132.1873,W,1,11,1.6,13,M,,M,,*61
06/21/2015	18:05:07.520	$GPGGA,180508,2423.3346,N,08132.1866,W,1,11,1.6,13,M,,M,,*65
06/21/2015	18:05:08.600	$GPGGA,180509,2423.3333,N,08132.1858,W,1,11,1.6,13,M,,M,,*6B
06/21/2015	18:05:09.500	$GPGGA,180510,2423.3320,N,08132.1849,W,1,11,1.6,13,M,,M,,*61
06/21/2015	18:05:10.580	$GPGGA,180511,2423.3308,N,08132.1843,W,1,11,1.6,13,M,,M,,*60
06/21/2015	18:05:11.620	$GPGGA,180512,2423.3295,N,08132.1835,W,1,11,1.6,13,M,,M,,*67
06/21/2015	18:05:12.500	$GPGGA,180513,2423.3282,N,08132.1825,W,1,11,1.6,13,M,,M,,*61
06/21/2015	18:05:13.610	$GPGGA,180514,2423.3270,N,08132.1817,W,1,11,1.6,13,M,,M,,*6A
06/21/2015	18:05:14.590	$GPGGA,180515,2423.3257,N,08132.1812,W,1,11,1.6,13,M,,M,,*6B
06/21/2015	18:05:15.600	$GPGGA,180516,2423.3244,N,08132.1803,W,1,11,1.6,13,M,,M,,*6A
06/21/2015	18:05:16.580	$GPGGA,180517,2423.3232,N,08132.1794,W,1,11,1.6,13,M,,M,,*6B
06/21/2015	18:05:17.589	$GPGGA,180518,2423.3219,N,08132.1787,W,1,11,1.6,13,M,,M,,*6F
06/21/2015	18:05:18.569	$GPGGA,180519,2423.3206,N,08132.1780,W,1,11,1.6,13,M,,M,,*67
06/21/2015	18:05:19.589	$GPGGA,180520,2423.3194,N,08132.1772,W,1,11,1.6,13,M,,M,,*68
06/21/2015	18:05:20.569	$GPGGA,180521,2423.3181,N,08132.1763,W,1,11,1.6,12,M,,M,,*6C
06/21/2015	18:05:21.569	$GPGGA,180522,2423.3168,N,08132.1756,W,1,11,1.6,12,M,,M,,*6E
06/21/2015	18:05:22.569	$GPGGA,180523,2423.3156,N,08132.1749,W,1,11,1.6,12,M,,M,,*6C
06/21/2015	18:05:23.589	$GPGGA,180524,2423.3143,N,08132.1740,W,1,11,1.6,12,M,,M,,*66
06/21/2015	18:05:24.560	$GPGGA,180525,2423.3131,N,08132.1731,W,1,11,1.6,12,M,,M,,*64
06/21/2015	18:05:25.579	$GPGGA,180526,2423.3118,N,08132.1723,W,1,11,1.6,12,M,,M,,*6F
06/21/2015	18:05:26.570	$GPGGA,180527,2423.3105,N,08132.1716,W,1,11,1.6,12,M,,M,,*64
06/21/2015	18:05:27.579	$GPGGA,180528,2423.3092,N,08132.1708,W,1,11,1.6,12,M,,M,,*6B
06/21/2015	18:05:28.561	$GPGGA,180529,2423.3080,N,08132.1699,W,1,11,1.6,12,M,,M,,*60
06/21/2015	18:05:29.570	$GPGGA,180530,2423.3067,N,08132.1692,W,1,11,1.6,12,M,,M,,*6A
06/21/2015	18:05:30.556	$GPGGA,180531,2423.3053,N,08132.1683,W,1,11,1.6,12,M,,M,,*6C
06/21/2015	18:05:31.570	$GPGGA,180532,2423.3041,N,08132.1674,W,1,11,1.6,12,M,,M,,*64
06/21/2015	18:05:32.556	$GPGGA,180533,2423.3028,N,08132.1666,W,1,11,1.6,12,M,,M,,*69
06/21/2015	18:05:33.570	$GPGGA,180534,2423.3015,N,08132.1658,W,1,11,1.6,12,M,,M,,*6D
06/21/2015	18:05:34.540	$GPGGA,180535,2423.3002,N,08132.1650,W,1,11,1.6,12,M,,M,,*62
06/21/2015	18:05:35.553	$GPGGA,180536,2423.2990,N,08132.1641,W,1,11,1.6,12,M,,M,,*62
06/21/2015	18:05:36.529	$GPGGA,180537,2423.2976,N,08132.1633,W,1,11,1.6,12,M,,M,,*6E
06/21/2015	18:05:37.529	$GPGGA,180538,2423.2963,N,08132.1625,W,1,11,1.6,12,M,,M,,*62
06/21/2015	18:05:38.529	$GPGGA,180539,2423.2950,N,08132.1616,W,1,11,1.6,12,M,,M,,*63
06/21/2015	18:05:39.589	$GPGGA,180540,2423.2937,N,08132.1608,W,1,11,1.6,12,M,,M,,*63
06/21/2015	18:05:40.519	$GPGGA,180541,2423.2924,N,08132.1600,W,1,11,1.6,12,M,,M,,*68
06/21/2015	18:05:41.552	$GPGGA,180542,2423.2911,N,08132.1591,W,1,11,1.6,12,M,,M,,*66
06/21/2015	18:05:42.519	$GPGGA,180543,2423.2898,N,08132.1582,W,1,11,1.6,12,M,,M,,*65
06/21/2015	18:05:43.679	$GPGGA,180544,2423.2886,N,08132.1574,W,1,11,1.6,12,M,,M,,*64
06/21/2015	18:05:44.551	$GPGGA,180545,2423.2872,N,08132.1566,W,1,11,1.6,12,M,,M,,*6D
06/21/2015	18:05:45.530	$GPGGA,180546,2423.2859,N,08132.1557,W,1,11,1.6,11,M,,M,,*66
06/21/2015	18:05:46.520	$GPGGA,180547,2423.2847,N,08132.1548,W,1,11,1.6,11,M,,M,,*66
06/21/2015	18:05:47.520	$GPGGA,180548,2423.2833,N,08132.1539,W,1,11,1.6,11,M,,M,,*6C
06/21/2015	18:05:48.530	$GPGGA,180549,2423.2821,N,08132.1532,W,1,11,1.6,11,M,,M,,*65
06/21/2015	18:05:49.520	$GPGGA,180550,2423.2807,N,08132.1524,W,1,11,1.6,11,M,,M,,*6E
06/21/2015	18:05:50.500	$GPGGA,180551,2423.2794,N,08132.1514,W,1,11,1.6,11,M,,M,,*69
06/21/2015	18:05:51.530	$GPGGA,180552,2423.2782,N,08132.1506,W,1,11,1.6,11,M,,M,,*6E
06/21/2015	18:05:52.510	$GPGGA,180553,2423.2768,N,08132.1499,W,1,11,1.6,11,M,,M,,*6C
06/21/2015	18:05:53.619	$GPGGA,180554,2423.2755,N,08132.1490,W,1,11,1.6,11,M,,M,,*6C
06/21/2015	18:05:54.599	$GPGGA,180555,2423.2744,N,08132.1481,W,1,11,1.6,11,M,,M,,*6D
06/21/2015	18:05:55.509	$GPGGA,180556,2423.2730,N,08132.1472,W,1,11,1.6,11,M,,M,,*61
06/21/2015	18:05:56.509	$GPGGA,180557,2423.2717,N,08132.1465,W,1,11,1.6,11,M,,M,,*63
06/21/2015	18:05:57.609	$GPGGA,180558,2423.2704,N,08132.1456,W,1,11,1.6,11,M,,M,,*6E
06/21/2015	18:05:58.589	$GPGGA,180559,2423.2691,N,08132.1447,W,1,11,1.6,11,M,,M,,*62
06/21/2015	18:05:59.662	$GPGGA,180600,2423.2679,N,08132.1438,W,1,11,1.6,11,M,,M,,*63
06/21/2015	18:06:00.599	$GPGGA,180601,2423.2665,N,08132.1430,W,1,11,1.6,11,M,,M,,*67
06/21/2015	18:06:01.489	$GPGGA,180602,2423.2651,N,08132.1422,W,1,11,1.6,11,M,,M,,*60
06/21/2015	18:06:02.639	$GPGGA,180603,2423.2639,N,08132.1413,W,1,11,1.6,11,M,,M,,*6D
06/21/2015	18:06:03.620	$GPGGA,180604,2423.2626,N,08132.1404,W,1,11,1.6,11,M,,M,,*62
06/21/2015	18:06:04.580	$GPGGA,180605,2423.2614,N,08132.1395,W,1,11,1.6,11,M,,M,,*6D
06/21/2015	18:06:05.600	$GPGGA,180606,2423.2600,N,08132.1388,W,1,11,1.6,11,M,,M,,*67
06/21/2015	18:06:06.580	$GPGGA,180607,2423.2587,N,08132.1379,W,1,11,1.6,11,M,,M,,*64
06/21/2015	18:06:07.590	$GPGGA,180608,2423.2574,N,08132.1370,W,1,11,1.6,11,M,,M,,*6E
06/21/2015	18:06:08.573	$GPGGA,180609,2423.2561,N,08132.1361,W,1,11,1.6,11,M,,M,,*6B
06/21/2015	18:06:09.590	$GPGGA,180610,2423.2549,N,08132.1353,W,1,11,1.6,11,M,,M,,*68
06/21/2015	18:06:10.569	$GPGGA,180611,2423.2535,N,08132.1345,W,1,11,1.6,11,M,,M,,*65
06/21/2015	18:06:11.599	$GPGGA,180612,2423.2522,N,08132.1335,W,1,11,1.6,11,M,,M,,*67
06/21/2015	18:06:12.562	$GPGGA,180613,2423.2509,N,08132.1327,W,1,11,1.6,11,M,,M,,*6C
06/21/2015	18:06:13.850	$GPGGA,180614,2423.2497,N,08132.1319,W,1,11,1.6,11,M,,M,,*60
06/21/2015	18:06:14.564	$GPGGA,180615,2423.2484,N,08132.1311,W,1,11,1.6,11,M,,M,,*6B
06/21/2015	18:06:15.609	$GPGGA,180616,2423.2471,N,08132.1302,W,1,11,1.6,11,M,,M,,*60
06/21/2015	18:06:16.569	$GPGGA,180617,2423.2458,N,08132.1293,W,1,11,1.6,11,M,,M,,*63
06/21/2015	18:06:17.573	$GPGGA,180618,2423.2445,N,08132.1285,W,1,11,1.6,11,M,,M,,*67
06/21/2015	18:06:18.553	$GPGGA,180619,2423.2432,N,08132.1277,W,1,11,1.6,11,M,,M,,*6B
06/21/2015	18:06:19.589	$GPGGA,180620,2423.2419,N,08132.1268,W,1,11,1.6,11,M,,M,,*66
06/21/2015	18:06:20.555	$GPGGA,180621,2423.2406,N,08132.1260,W,1,11,1.6,11,M,,M,,*61
06/21/2015	18:06:21.540	$GPGGA,180622,2423.2393,N,08132.1252,W,1,11,1.6,11,M,,M,,*68
06/21/2015	18:06:22.553	$GPGGA,180623,2423.2380,N,08132.1243,W,1,11,1.6,11,M,,M,,*6B
06/21/2015	18:06:23.580	$GPGGA,180624,2423.2368,N,08132.1234,W,1,11,1.6,11,M,,M,,*6A
06/21/2015	18:06:24.564	$GPGGA,180625,2423.2354,N,08132.1227,W,1,11,1.6,11,M,,M,,*66
06/21/2015	18:06:25.560	$GPGGA,180626,2423.2341,N,08132.1218,W,1,11,1.6,11,M,,M,,*6D
06/21/2015	18:06:26.530	$GPGGA,180627,2423.2329,N,08132.1209,W,1,11,1.6,11,M,,M,,*62
06/21/2015	18:06:27.579	$GPGGA,180628,2423.2316,N,08132.1202,W,1,11,1.6,11,M,,M,,*6A
06/21/2015	18:06:28.563	$GPGGA,180629,2423.2303,N,08132.1193,W,1,11,1.6,11,M,,M,,*64
06/21/2015	18:06:29.609	$GPGGA,180630,2423.2289,N,08132.1184,W,1,11,1.6,11,M,,M,,*69
06/21/2015	18:06:30.550	$GPGGA,180631,2423.2278,N,08132.1177,W,1,11,1.6,11,M,,M,,*6A
06/21/2015	18:06:31.579	$GPGGA,180632,2423.2264,N,08132.1170,W,1,11,1.6,11,M,,M,,*63
06/21/2015	18:06:32.519	$GPGGA,180633,2423.2251,N,08132.1161,W,1,11,1.6,11,M,,M,,*64
06/21/2015	18:06:33.529	$GPGGA,180634,2423.2239,N,08132.1152,W,1,11,1.6,11,M,,M,,*6D
06/21/2015	18:06:34.529	$GPGGA,180635,2423.2226,N,08132.1145,W,1,11,1.6,12,M,,M,,*67
06/21/2015	18:06:35.560	$GPGGA,180636,2423.2213,N,08132.1138,W,1,11,1.6,12,M,,M,,*68
06/21/2015	18:06:36.509	$GPGGA,180637,2423.2202,N,08132.1129,W,1,11,1.6,12,M,,M,,*69
06/21/2015	18:06:37.539	$GPGGA,180638,2423.2188,N,08132.1120,W,1,11,1.6,12,M,,M,,*6E
06/21/2015	18:06:38.600	$GPGGA,180639,2423.2177,N,08132.1114,W,1,11,1.6,12,M,,M,,*68
06/21/2015	18:06:39.580	$GPGGA,180640,2423.2163,N,08132.1105,W,1,11,1.6,12,M,,M,,*63
06/21/2015	18:06:41.630	$GPGGA,180642,2423.2138,N,08132.1090,W,1,11,1.6,12,M,,M,,*62
06/21/2015	18:06:42.520	$GPGGA,180643,2423.2124,N,08132.1082,W,1,11,1.6,12,M,,M,,*6D
06/21/2015	18:06:43.553	$GPGGA,180644,2423.2112,N,08132.1072,W,1,11,1.6,12,M,,M,,*60
06/21/2015	18:06:44.540	$GPGGA,180645,2423.2099,N,08132.1065,W,1,11,1.6,12,M,,M,,*65
06/21/2015	18:06:45.619	$GPGGA,180646,2423.2086,N,08132.1058,W,1,11,1.6,12,M,,M,,*66
06/21/2015	18:06:47.629	$GPGGA,180648,2423.2061,N,08132.1040,W,1,11,1.6,12,M,,M,,*68
06/21/2015	18:06:48.509	$GPGGA,180649,2423.2048,N,08132.1034,W,1,11,1.6,12,M,,M,,*61
06/21/2015	18:06:49.553	$GPGGA,180650,2423.2034,N,08132.1026,W,1,11,1.6,12,M,,M,,*61
06/21/2015	18:06:50.499	$GPGGA,180651,2423.2022,N,08132.1017,W,1,11,1.6,12,M,,M,,*65
06/21/2015	18:06:51.589	$GPGGA,180652,2423.2010,N,08132.1010,W,1,11,1.6,12,M,,M,,*60
06/21/2015	18:06:52.589	$GPGGA,180653,2423.1996,N,08132.1003,W,1,11,1.6,12,M,,M,,*67
06/21/2015	18:06:53.609	$GPGGA,180654,2423.1984,N,08132.0994,W,1,11,1.6,12,M,,M,,*65
06/21/2015	18:06:54.569	$GPGGA,180655,2423.1971,N,08132.0986,W,1,11,1.6,12,M,,M,,*6D
06/21/2015	18:06:55.600	$GPGGA,180656,2423.1960,N,08132.0978,W,1,11,1.6,12,M,,M,,*6F
06/21/2015	18:06:56.580	$GPGGA,180657,2423.1946,N,08132.0970,W,1,11,1.6,12,M,,M,,*62
06/21/2015	18:06:57.591	$GPGGA,180658,2423.1933,N,08132.0962,W,1,11,1.6,12,M,,M,,*6C
06/21/2015	18:06:58.565	$GPGGA,180659,2423.1920,N,08132.0954,W,1,11,1.6,12,M,,M,,*6A
06/21/2015	18:06:59.600	$GPGGA,180700,2423.1908,N,08132.0945,W,1,11,1.6,12,M,,M,,*6D
06/21/2015	18:07:00.580	$GPGGA,180701,2423.1895,N,08132.0937,W,1,11,1.6,12,M,,M,,*6C
06/21/2015	18:07:01.564	$GPGGA,180702,2423.1882,N,08132.0929,W,1,11,1.6,12,M,,M,,*66
06/21/2015	18:07:02.562	$GPGGA,180703,2423.1870,N,08132.0920,W,1,11,1.6,12,M,,M,,*63
06/21/2015	18:07:03.978	$GPGGA,180704,2423.1856,N,08132.0912,W,1,11,1.6,12,M,,M,,*61
06/21/2015	18:07:04.570	$GPGGA,180705,2423.1843,N,08132.0904,W,1,11,1.6,12,M,,M,,*63
06/21/2015	18:07:05.579	$GPGGA,180706,2423.1831,N,08132.0895,W,1,11,1.6,12,M,,M,,*6C
06/21/2015	18:07:06.561	$GPGGA,180707,2423.1819,N,08132.0886,W,1,11,1.6,12,M,,M,,*65
06/21/2015	18:07:07.579	$GPGGA,180708,2423.1805,N,08132.0878,W,1,11,1.6,12,M,,M,,*66
06/21/2015	18:07:08.550	$GPGGA,180709,2423.1794,N,08132.0870,W,1,11,1.6,12,M,,M,,*68
06/21/2015	18:07:10.029	$GPGGA,180710,2423.1780,N,08132.0862,W,1,11,1.6,12,M,,M,,*66
06/21/2015	18:07:10.549	$GPGGA,180711,2423.1767,N,08132.0853,W,1,11,1.6,12,M,,M,,*6C
06/21/2015	18:07:11.589	$GPGGA,180712,2423.1755,N,08132.0844,W,1,11,1.6,12,M,,M,,*68
06/21/2015	18:07:12.539	$GPGGA,180713,2423.1743,N,08132.0836,W,1,11,1.6,12,M,,M,,*6B
06/21/2015	18:07:13.530	$GPGGA,180714,2423.1730,N,08132.0828,W,1,11,1.6,12,M,,M,,*67
06/21/2015	18:07:14.530	$GPGGA,180715,2423.1718,N,08132.0820,W,1,11,1.6,12,M,,M,,*64
06/21/2015	18:07:15.551	$GPGGA,180716,2423.1705,N,08132.0810,W,1,11,1.6,12,M,,M,,*68
06/21/2015	18:07:16.651	$GPGGA,180717,2423.1693,N,08132.0802,W,1,11,1.6,12,M,,M,,*64
06/21/2015	18:07:17.530	$GPGGA,180718,2423.1679,N,08132.0795,W,1,11,1.6,12,M,,M,,*6E
06/21/2015	18:07:18.540	$GPGGA,180719,2423.1667,N,08132.0785,W,1,11,1.6,12,M,,M,,*61
06/21/2015	18:07:19.564	$GPGGA,180720,2423.1654,N,08132.0776,W,1,11,1.6,12,M,,M,,*67
06/21/2015	18:07:20.539	$GPGGA,180721,2423.1642,N,08132.0768,W,1,11,1.6,12,M,,M,,*6E
06/21/2015	18:07:21.550	$GPGGA,180722,2423.1629,N,08132.0760,W,1,11,1.6,12,M,,M,,*68
06/21/2015	18:07:22.519	$GPGGA,180723,2423.1617,N,08132.0751,W,1,11,1.6,12,M,,M,,*66
06/21/2015	18:07:23.539	$GPGGA,180724,2423.1603,N,08132.0742,W,1,11,1.6,12,M,,M,,*66
06/21/2015	18:07:24.629	$GPGGA,180725,2423.1591,N,08132.0735,W,1,11,1.6,12,M,,M,,*6F
06/21/2015	18:07:25.609	$GPGGA,180726,2423.1578,N,08132.0727,W,1,11,1.6,12,M,,M,,*68
06/21/2015	18:07:26.509	$GPGGA,180727,2423.1566,N,08132.0717,W,1,11,1.6,12,M,,M,,*65
06/21/2015	18:07:27.561	$GPGGA,180728,2423.1554,N,08132.0708,W,1,11,1.6,12,M,,M,,*65
06/21/2015	18:07:28.509	$GPGGA,180729,2423.1541,N,08132.0702,W,1,11,1.6,12,M,,M,,*6A
06/21/2015	18:07:29.539	$GPGGA,180730,2423.1527,N,08132.0692,W,1,11,1.6,12,M,,M,,*6A
06/21/2015	18:07:30.510	$GPGGA,180731,2423.1516,N,08132.0683,W,1,11,1.6,12,M,,M,,*69
06/21/2015	18:07:31.530	$GPGGA,180732,2423.1503,N,08132.0675,W,1,11,1.6,12,M,,M,,*67
06/21/2015	18:07:32.500	$GPGGA,180733,2423.1490,N,08132.0667,W,1,11,1.6,12,M,,M,,*6E
06/21/2015	18:07:33.490	$GPGGA,180734,2423.1478,N,08132.0659,W,1,11,1.6,12,M,,M,,*62
06/21/2015	18:07:34.590	$GPGGA,180735,2423.1466,N,08132.0651,W,1,11,1.6,12,M,,M,,*64
06/21/2015	18:07:35.640	$GPGGA,180736,2423.1454,N,08132.0642,W,1,11,1.6,12,M,,M,,*64
06/21/2015	18:07:36.590	$GPGGA,180737,2423.1440,N,08132.0634,W,1,11,1.6,12,M,,M,,*61
06/21/2015	18:07:37.619	$GPGGA,180738,2423.1429,N,08132.0625,W,1,11,1.6,12,M,,M,,*61
06/21/2015	18:07:38.579	$GPGGA,180739,2423.1415,N,08132.0617,W,1,11,1.6,12,M,,M,,*6E
06/21/2015	18:07:39.652	$GPGGA,180740,2423.1402,N,08132.0609,W,1,11,1.6,12,M,,M,,*69
06/21/2015	18:07:40.589	$GPGGA,180741,2423.1390,N,08132.0601,W,1,11,1.6,12,M,,M,,*6C
06/21/2015	18:07:41.589	$GPGGA,180742,2423.1377,N,08132.0593,W,1,11,1.6,12,M,,M,,*6E
06/21/2015	18:07:42.579	$GPGGA,180743,2423.1364,N,08132.0585,W,1,11,1.6,12,M,,M,,*6A
06/21/2015	18:07:43.599	$GPGGA,180744,2423.1353,N,08132.0577,W,1,11,1.6,12,M,,M,,*64
06/21/2015	18:07:44.569	$GPGGA,180745,2423.1339,N,08132.0568,W,1,11,1.6,12,M,,M,,*67
06/21/2015	18:07:45.569	$GPGGA,180746,2423.1326,N,08132.0560,W,1,11,1.6,12,M,,M,,*62
06/21/2015	18:07:46.569	$GPGGA,180747,2423.1314,N,08132.0553,W,1,11,1.6,12,M,,M,,*62
06/21/2015	18:07:47.579	$GPGGA,180748,2423.1302,N,08132.0545,W,1,11,1.6,12,M,,M,,*6D
06/21/2015	18:07:48.570	$GPGGA,180749,2423.1289,N,08132.0535,W,1,11,1.6,12,M,,M,,*69
06/21/2015	18:07:49.560	$GPGGA,180750,2423.1277,N,08132.0527,W,1,11,1.6,12,M,,M,,*63
06/21/2015	18:07:50.560	$GPGGA,180751,2423.1263,N,08132.0520,W,1,11,1.6,12,M,,M,,*60
06/21/2015	18:07:51.590	$GPGGA,180752,2423.1250,N,08132.0511,W,1,11,1.6,12,M,,M,,*61
06/21/2015	18:07:52.560	$GPGGA,180753,2423.1238,N,08132.0503,W,1,11,1.6,12,M,,M,,*6D
06/21/2015	18:07:53.580	$GPGGA,180754,2423.1225,N,08132.0495,W,1,11,1.6,12,M,,M,,*68
06/21/2015	18:07:54.560	$GPGGA,180755,2423.1212,N,08132.0487,W,1,11,1.6,12,M,,M,,*6E
06/21/2015	18:07:55.589	$GPGGA,180756,2423.1199,N,08132.0478,W,1,11,1.6,12,M,,M,,*6D
06/21/2015	18:07:56.549	$GPGGA,180757,2423.1187,N,08132.0470,W,1,11,1.6,12,M,,M,,*6B
06/21/2015	18:07:57.549	$GPGGA,180758,2423.1173,N,08132.0462,W,1,11,1.6,12,M,,M,,*6C
06/21/2015	18:07:58.550	$GPGGA,180759,2423.1160,N,08132.0454,W,1,11,1.6,12,M,,M,,*6A
06/21/2015	18:07:59.589	$GPGGA,180800,2423.1148,N,08132.0446,W,1,11,1.6,12,M,,M,,*60
06/21/2015	18:08:00.551	$GPGGA,180801,2423.1135,N,08132.0437,W,1,11,1.6,12,M,,M,,*6D
06/21/2015	18:08:01.565	$GPGGA,180802,2423.1122,N,08132.0429,W,1,11,1.6,12,M,,M,,*67
06/21/2015	18:08:02.529	$GPGGA,180803,2423.1109,N,08132.0421,W,1,11,1.6,12,M,,M,,*67
06/21/2015	18:08:03.539	$GPGGA,180804,2423.1096,N,08132.0412,W,1,11,1.6,12,M,,M,,*67
06/21/2015	18:08:04.529	$GPGGA,180805,2423.1083,N,08132.0403,W,1,11,1.6,12,M,,M,,*62
06/21/2015	18:08:05.540	$GPGGA,180806,2423.1070,N,08132.0394,W,1,11,1.6,12,M,,M,,*64
06/21/2015	18:08:06.530	$GPGGA,180807,2423.1057,N,08132.0385,W,1,11,1.6,12,M,,M,,*60
06/21/2015	18:08:07.564	$GPGGA,180808,2423.1044,N,08132.0377,W,1,11,1.6,12,M,,M,,*60
06/21/2015	18:08:08.530	$GPGGA,180809,2423.1031,N,08132.0368,W,1,11,1.6,12,M,,M,,*6D
06/21/2015	18:08:09.552	$GPGGA,180810,2423.1018,N,08132.0358,W,1,11,1.6,12,M,,M,,*6D
06/21/2015	18:08:10.520	$GPGGA,180811,2423.1005,N,08132.0349,W,1,11,1.6,12,M,,M,,*60
06/21/2015	18:08:11.540	$GPGGA,180812,2423.0993,N,08132.0340,W,1,11,1.6,12,M,,M,,*6D
06/21/2015	18:08:12.509	$GPGGA,180813,2423.0981,N,08132.0331,W,1,11,1.6,12,M,,M,,*69
06/21/2015	18:08:13.629	$GPGGA,180814,2423.0967,N,08132.0321,W,1,11,1.6,12,M,,M,,*67
06/21/2015	18:08:14.609	$GPGGA,180815,2423.0956,N,08132.0311,W,1,11,1.6,12,M,,M,,*67
06/21/2015	18:08:15.530	$GPGGA,180816,2423.0943,N,08132.0304,W,1,10,1.6,12,M,,M,,*65
06/21/2015	18:08:16.499	$GPGGA,180817,2423.0931,N,08132.0295,W,1,10,1.6,12,M,,M,,*68
06/21/2015	18:08:17.599	$GPGGA,180818,2423.0918,N,08132.0285,W,1,11,1.6,12,M,,M,,*6C
06/21/2015	18:08:18.509	$GPGGA,180819,2423.0906,N,08132.0275,W,1,11,1.6,12,M,,M,,*6D
06/21/2015	18:08:19.629	$GPGGA,180820,2423.0894,N,08132.0265,W,1,11,1.6,12,M,,M,,*6C
06/21/2015	18:08:20.509	$GPGGA,180821,2423.0881,N,08132.0256,W,1,11,1.6,12,M,,M,,*69
06/21/2015	18:08:21.509	$GPGGA,180822,2423.0869,N,08132.0246,W,1,11,1.6,12,M,,M,,*6D
06/21/2015	18:08:22.509	$GPGGA,180823,2423.0858,N,08132.0236,W,1,11,1.6,12,M,,M,,*69
06/21/2015	18:08:23.620	$GPGGA,180824,2423.0844,N,08132.0225,W,1,11,1.6,12,M,,M,,*61
06/21/2015	18:08:24.590	$GPGGA,180825,2423.0833,N,08132.0216,W,1,11,1.6,12,M,,M,,*60
06/21/2015	18:08:26.100	$GPGGA,180826,2423.0820,N,08132.0206,W,1,11,1.6,12,M,,M,,*60
06/21/2015	18:08:26.590	$GPGGA,180827,2423.0808,N,08132.0195,W,1,11,1.6,12,M,,M,,*62
06/21/2015	18:08:27.590	$GPGGA,180828,2423.0797,N,08132.0186,W,1,11,1.6,12,M,,M,,*66
06/21/2015	18:08:28.580	$GPGGA,180829,2423.0784,N,08132.0176,W,1,11,1.6,12,M,,M,,*6A
06/21/2015	18:08:29.620	$GPGGA,180830,2423.0772,N,08132.0165,W,1,11,1.6,12,M,,M,,*69
06/21/2015	18:08:30.589	$GPGGA,180831,2423.0760,N,08132.0154,W,1,11,1.6,12,M,,M,,*69
06/21/2015	18:08:31.609	$GPGGA,180832,2423.0747,N,08132.0145,W,1,11,1.6,12,M,,M,,*6F
06/21/2015	18:08:32.589	$GPGGA,180833,2423.0735,N,08132.0135,W,1,11,1.6,12,M,,M,,*6C
06/21/2015	18:08:33.599	$GPGGA,180834,2423.0723,N,08132.0123,W,1,11,1.6,12,M,,M,,*6B
06/21/2015	18:08:34.579	$GPGGA,180835,2423.0711,N,08132.0113,W,1,11,1.6,12,M,,M,,*68
06/21/2015	18:08:35.609	$GPGGA,180836,2423.0699,N,08132.0104,W,1,11,1.6,12,M,,M,,*6C
06/21/2015	18:08:36.561	$GPGGA,180837,2423.0686,N,08132.0093,W,1,11,1.6,12,M,,M,,*6C
06/21/2015	18:08:37.589	$GPGGA,180838,2423.0675,N,08132.0082,W,1,10,1.6,12,M,,M,,*6E
06/21/2015	18:08:38.569	$GPGGA,180839,2423.0663,N,08132.0072,W,1,10,1.6,12,M,,M,,*67
06/21/2015	18:08:39.579	$GPGGA,180840,2423.0650,N,08132.0062,W,1,11,1.6,13,M,,M,,*68
06/21/2015	18:08:40.565	$GPGGA,180841,2423.0638,N,08132.0051,W,1,11,1.6,13,M,,M,,*67
06/21/2015	18:08:41.570	$GPGGA,180842,2423.0627,N,08132.0040,W,1,10,1.6,13,M,,M,,*6B
06/21/2015	18:08:42.564	$GPGGA,180843,2423.0613,N,08132.0030,W,1,10,1.6,13,M,,M,,*6A
06/21/2015	18:08:43.590	$GPGGA,180844,2423.0602,N,08132.0020,W,1,11,1.6,13,M,,M,,*6D
06/21/2015	18:08:44.552	$GPGGA,180845,2423.0588,N,08132.0009,W,1,11,1.6,13,M,,M,,*66
06/21/2015	18:08:45.540	$GPGGA,180846,2423.0575,N,08131.9998,W,1,10,1.6,13,M,,M,,*6D
06/21/2015	18:08:46.554	$GPGGA,180847,2423.0563,N,08131.9987,W,1,10,1.6,13,M,,M,,*65
06/21/2015	18:08:47.579	$GPGGA,180848,2423.0551,N,08131.9977,W,1,11,1.6,13,M,,M,,*65
06/21/2015	18:08:48.551	$GPGGA,180849,2423.0538,N,08131.9967,W,1,11,1.6,13,M,,M,,*6A
06/21/2015	18:08:49.539	$GPGGA,180850,2423.0526,N,08131.9957,W,1,11,1.6,13,M,,M,,*6E
06/21/2015	18:08:50.539	$GPGGA,180851,2423.0515,N,08131.9947,W,1,11,1.6,13,M,,M,,*6E
06/21/2015	18:08:51.589	$GPGGA,180852,2423.0501,N,08131.9937,W,1,11,1.6,13,M,,M,,*6F
06/21/2015	18:08:52.539	$GPGGA,180853,2423.0488,N,08131.9927,W,1,11,1.6,13,M,,M,,*6F
06/21/2015	18:08:53.529	$GPGGA,180854,2423.0477,N,08131.9918,W,1,11,1.6,13,M,,M,,*64
06/21/2015	18:08:54.529	$GPGGA,180855,2423.0464,N,08131.9908,W,1,11,1.6,13,M,,M,,*66
06/21/2015	18:08:55.539	$GPGGA,180856,2423.0451,N,08131.9898,W,1,10,1.6,13,M,,M,,*6A
06/21/2015	18:08:56.539	$GPGGA,180857,2423.0439,N,08131.9888,W,1,10,1.6,13,M,,M,,*64
06/21/2015	18:08:57.519	$GPGGA,180858,2423.0428,N,08131.9879,W,1,11,1.6,13,M,,M,,*64
06/21/2015	18:08:58.520	$GPGGA,180859,2423.0415,N,08131.9871,W,1,11,1.6,13,M,,M,,*63
06/21/2015	18:08:59.590	$GPGGA,180900,2423.0403,N,08131.9861,W,1,11,1.6,13,M,,M,,*68
06/21/2015	18:09:00.520	$GPGGA,180901,2423.0390,N,08131.9851,W,1,11,1.6,13,M,,M,,*67
06/21/2015	18:09:01.540	$GPGGA,180902,2423.0378,N,08131.9842,W,1,11,1.6,13,M,,M,,*60
06/21/2015	18:09:02.510	$GPGGA,180903,2423.0365,N,08131.9833,W,1,11,1.6,13,M,,M,,*6B
06/21/2015	18:09:03.555	$GPGGA,180904,2423.0353,N,08131.9823,W,1,11,1.6,13,M,,M,,*68
06/21/2015	18:09:04.540	$GPGGA,180905,2423.0340,N,08131.9814,W,1,11,1.6,13,M,,M,,*6F
06/21/2015	18:09:05.499	$GPGGA,180906,2423.0328,N,08131.9805,W,1,11,1.6,13,M,,M,,*62
06/21/2015	18:09:06.529	$GPGGA,180907,2423.0316,N,08131.9796,W,1,11,1.6,13,M,,M,,*6B
06/21/2015	18:09:07.709	$GPGGA,180908,2423.0302,N,08131.9786,W,1,11,1.6,13,M,,M,,*60
06/21/2015	18:09:08.529	$GPGGA,180909,2423.0291,N,08131.9777,W,1,11,1.6,13,M,,M,,*64
06/21/2015	18:09:09.689	$GPGGA,180910,2423.0277,N,08131.9768,W,1,11,1.6,13,M,,M,,*6A
06/21/2015	18:09:10.509	$GPGGA,180911,2423.0263,N,08131.9758,W,1,11,1.6,13,M,,M,,*6D
06/21/2015	18:09:11.699	$GPGGA,180912,2423.0251,N,08131.9749,W,1,11,1.6,13,M,,M,,*6F
06/21/2015	18:09:12.519	$GPGGA,180913,2423.0238,N,08131.9740,W,1,11,1.6,13,M,,M,,*68
06/21/2015	18:09:13.689	$GPGGA,180914,2423.0226,N,08131.9731,W,1,11,1.6,13,M,,M,,*66
06/21/2015	18:09:14.579	$GPGGA,180915,2423.0212,N,08131.9721,W,1,11,1.6,13,M,,M,,*61
06/21/2015	18:09:15.690	$GPGGA,180916,2423.0199,N,08131.9712,W,1,11,1.6,13,M,,M,,*62
06/21/2015	18:09:16.610	$GPGGA,180917,2423.0186,N,08131.9703,W,1,11,1.6,13,M,,M,,*6D
06/21/2015	18:09:17.680	$GPGGA,180918,2423.0173,N,08131.9694,W,1,11,1.6,13,M,,M,,*67
06/21/2015	18:09:18.610	$GPGGA,180919,2423.0161,N,08131.9685,W,1,11,1.6,13,M,,M,,*65
06/21/2015	18:09:19.680	$GPGGA,180920,2423.0148,N,08131.9675,W,1,11,1.6,13,M,,M,,*6B
06/21/2015	18:09:20.600	$GPGGA,180921,2423.0134,N,08131.9667,W,1,11,1.6,13,M,,M,,*62
06/21/2015	18:09:21.662	$GPGGA,180922,2423.0122,N,08131.9658,W,1,11,1.6,13,M,,M,,*6A
06/21/2015	18:09:22.599	$GPGGA,180923,2423.0109,N,08131.9648,W,1,11,1.6,13,M,,M,,*63
06/21/2015	18:09:23.689	$GPGGA,180924,2423.0096,N,08131.9639,W,1,11,1.6,13,M,,M,,*65
06/21/2015	18:09:24.569	$GPGGA,180925,2423.0083,N,08131.9630,W,1,11,1.6,13,M,,M,,*69
06/21/2015	18:09:25.669	$GPGGA,180926,2423.0070,N,08131.9621,W,1,11,1.6,13,M,,M,,*66
06/21/2015	18:09:26.589	$GPGGA,180927,2423.0057,N,08131.9611,W,1,11,1.6,13,M,,M,,*61
06/21/2015	18:09:27.679	$GPGGA,180928,2423.0044,N,08131.9602,W,1,11,1.6,13,M,,M,,*6E
06/21/2015	18:09:28.599	$GPGGA,180929,2423.0031,N,08131.9593,W,1,11,1.6,13,M,,M,,*66
06/21/2015	18:09:29.619	$GPGGA,180930,2423.0018,N,08131.9584,W,1,11,1.6,13,M,,M,,*63
06/21/2015	18:09:30.599	$GPGGA,180931,2423.0005,N,08131.9575,W,1,11,1.6,13,M,,M,,*60
06/21/2015	18:09:31.679	$GPGGA,180932,2422.9992,N,08131.9565,W,1,11,1.6,13,M,,M,,*6D
06/21/2015	18:09:32.589	$GPGGA,180933,2422.9980,N,08131.9556,W,1,11,1.6,13,M,,M,,*6F
06/21/2015	18:09:33.640	$GPGGA,180934,2422.9966,N,08131.9546,W,1,11,1.6,13,M,,M,,*61
06/21/2015	18:09:34.551	$GPGGA,180935,2422.9953,N,08131.9537,W,1,11,1.6,13,M,,M,,*60
06/21/2015	18:09:35.652	$GPGGA,180936,2422.9941,N,08131.9528,W,1,11,1.6,13,M,,M,,*6E
06/21/2015	18:09:36.540	$GPGGA,180937,2422.9927,N,08131.9518,W,1,11,1.6,13,M,,M,,*6C
06/21/2015	18:09:37.640	$GPGGA,180938,2422.9915,N,08131.9509,W,1,11,1.6,13,M,,M,,*62
06/21/2015	18:09:38.570	$GPGGA,180939,2422.9902,N,08131.9500,W,1,11,1.6,13,M,,M,,*6C
06/21/2015	18:09:39.640	$GPGGA,180940,2422.9890,N,08131.9490,W,1,11,1.6,13,M,,M,,*60
06/21/2015	18:09:40.529	$GPGGA,180941,2422.9877,N,08131.9480,W,1,11,1.6,13,M,,M,,*69
06/21/2015	18:09:41.639	$GPGGA,180942,2422.9865,N,08131.9472,W,1,11,1.6,13,M,,M,,*64
06/21/2015	18:09:42.589	$GPGGA,180943,2422.9851,N,08131.9462,W,1,11,1.6,13,M,,M,,*63
06/21/2015	18:09:43.649	$GPGGA,180944,2422.9839,N,08131.9452,W,1,11,1.6,13,M,,M,,*69
06/21/2015	18:09:44.669	$GPGGA,180945,2422.9827,N,08131.9443,W,1,11,1.6,13,M,,M,,*67
06/21/2015	18:09:45.619	$GPGGA,180946,2422.9814,N,08131.9433,W,1,11,1.6,13,M,,M,,*63
06/21/2015	18:09:46.562	$GPGGA,180947,2422.9803,N,08131.9424,W,1,11,1.6,13,M,,M,,*62
06/21/2015	18:09:47.609	$GPGGA,180948,2422.9790,N,08131.9414,W,1,11,1.6,13,M,,M,,*6B
06/21/2015	18:09:48.559	$GPGGA,180949,2422.9778,N,08131.9404,W,1,11,1.6,13,M,,M,,*6D
06/21/2015	18:09:49.619	$GPGGA,180950,2422.9764,N,08131.9394,W,1,11,1.6,13,M,,M,,*66
06/21/2015	18:09:50.550	$GPGGA,180951,2422.9753,N,08131.9385,W,1,11,1.6,13,M,,M,,*63
06/21/2015	18:09:51.610	$GPGGA,180952,2422.9740,N,08131.9375,W,1,11,1.6,13,M,,M,,*6D
06/21/2015	18:09:52.610	$GPGGA,180953,2422.9728,N,08131.9364,W,1,11,1.6,13,M,,M,,*62
06/21/2015	18:09:53.600	$GPGGA,180954,2422.9716,N,08131.9354,W,1,11,1.6,13,M,,M,,*6B
06/21/2015	18:09:54.630	$GPGGA,180955,2422.9704,N,08131.9344,W,1,11,1.6,13,M,,M,,*68
06/21/2015	18:09:55.630	$GPGGA,180956,2422.9691,N,08131.9333,W,1,11,1.6,13,M,,M,,*66
06/21/2015	18:09:56.540	$GPGGA,180957,2422.9680,N,08131.9323,W,1,11,1.6,13,M,,M,,*66
06/21/2015	18:09:57.499	$GPGGA,180958,2422.9667,N,08131.9314,W,1,11,1.6,13,M,,M,,*64
06/21/2015	18:09:58.549	$GPGGA,180959,2422.9655,N,08131.9303,W,1,11,1.6,13,M,,M,,*62
06/21/2015	18:09:59.669	$GPGGA,181000,2422.9643,N,08131.9295,W,1,10,1.6,13,M,,M,,*6E
06/21/2015	18:10:00.552	$GPGGA,181001,2422.9631,N,08131.9285,W,1,10,1.6,13,M,,M,,*6B
06/21/2015	18:10:01.619	$GPGGA,181002,2422.9620,N,08131.9276,W,1,11,1.6,13,M,,M,,*65
06/21/2015	18:10:02.539	$GPGGA,181003,2422.9608,N,08131.9266,W,1,11,1.6,13,M,,M,,*6F
06/21/2015	18:10:03.619	$GPGGA,181004,2422.9595,N,08131.9257,W,1,11,1.6,13,M,,M,,*6D
06/21/2015	18:10:04.589	$GPGGA,181005,2422.9583,N,08131.9247,W,1,11,1.6,13,M,,M,,*6A
06/21/2015	18:10:05.599	$GPGGA,181006,2422.9572,N,08131.9236,W,1,11,1.6,13,M,,M,,*61
06/21/2015	18:10:06.589	$GPGGA,181007,2422.9559,N,08131.9228,W,1,11,1.6,13,M,,M,,*66
06/21/2015	18:10:07.620	$GPGGA,181008,2422.9547,N,08131.9219,W,1,11,1.6,13,M,,M,,*64
06/21/2015	18:10:08.580	$GPGGA,181009,2422.9534,N,08131.9208,W,1,11,1.6,12,M,,M,,*60
06/21/2015	18:10:09.620	$GPGGA,181010,2422.9523,N,08131.9198,W,1,11,1.6,12,M,,M,,*64
06/21/2015	18:10:10.570	$GPGGA,181011,2422.9510,N,08131.9190,W,1,11,1.6,12,M,,M,,*6D
06/21/2015	18:10:11.640	$GPGGA,181012,2422.9497,N,08131.9179,W,1,11,1.6,12,M,,M,,*67
06/21/2015	18:10:12.570	$GPGGA,181013,2422.9486,N,08131.9169,W,1,11,1.6,12,M,,M,,*67
06/21/2015	18:10:13.600	$GPGGA,181014,2422.9473,N,08131.9160,W,1,11,1.6,12,M,,M,,*63
06/21/2015	18:10:14.570	$GPGGA,181015,2422.9460,N,08131.9151,W,1,11,1.6,12,M,,M,,*62
06/21/2015	18:10:15.599	$GPGGA,181016,2422.9449,N,08131.9140,W,1,11,1.6,12,M,,M,,*6A
06/21/2015	18:10:16.565	$GPGGA,181017,2422.9436,N,08131.9130,W,1,11,1.6,12,M,,M,,*64
06/21/2015	18:10:17.589	$GPGGA,181018,2422.9424,N,08131.9120,W,1,11,1.6,12,M,,M,,*69
06/21/2015	18:10:18.550	$GPGGA,181019,2422.9411,N,08131.9110,W,1,11,1.6,12,M,,M,,*6D
06/21/2015	18:10:19.609	$GPGGA,181020,2422.9398,N,08131.9100,W,1,11,1.6,12,M,,M,,*60
06/21/2015	18:10:20.549	$GPGGA,181021,2422.9386,N,08131.9090,W,1,11,1.6,12,M,,M,,*66
06/21/2015	18:10:21.579	$GPGGA,181022,2422.9373,N,08131.9079,W,1,11,1.6,12,M,,M,,*68
06/21/2015	18:10:22.559	$GPGGA,181023,2422.9361,N,08131.9069,W,1,11,1.6,12,M,,M,,*6B
06/21/2015	18:10:23.629	$GPGGA,181024,2422.9348,N,08131.9059,W,1,11,1.6,12,M,,M,,*64
06/21/2015	18:10:24.550	$GPGGA,181025,2422.9337,N,08131.9048,W,1,11,1.6,12,M,,M,,*6D
06/21/2015	18:10:25.590	$GPGGA,181026,2422.9324,N,08131.9040,W,1,11,1.6,12,M,,M,,*64
06/21/2015	18:10:26.554	$GPGGA,181027,2422.9312,N,08131.9030,W,1,11,1.6,12,M,,M,,*67
06/21/2015	18:10:27.600	$GPGGA,181028,2422.9299,N,08131.9019,W,1,11,1.6,12,M,,M,,*61
06/21/2015	18:10:28.570	$GPGGA,181029,2422.9286,N,08131.9010,W,1,11,1.6,12,M,,M,,*67
06/21/2015	18:10:29.600	$GPGGA,181030,2422.9273,N,08131.9001,W,1,11,1.6,12,M,,M,,*65
06/21/2015	18:10:30.530	$GPGGA,181031,2422.9261,N,08131.8990,W,1,11,1.6,12,M,,M,,*67
06/21/2015	18:10:31.610	$GPGGA,181032,2422.9248,N,08131.8980,W,1,11,1.6,12,M,,M,,*6E
06/21/2015	18:10:32.539	$GPGGA,181033,2422.9236,N,08131.8971,W,1,11,1.6,12,M,,M,,*68
06/21/2015	18:10:33.599	$GPGGA,181034,2422.9223,N,08131.8961,W,1,11,1.6,12,M,,M,,*6A
06/21/2015	18:10:34.563	$GPGGA,181035,2422.9223,N,08131.8961,W,1,11,1.6,12,M,,M,,*6B
06/21/2015	18:10:35.659	$GPGGA,181036,2422.9198,N,08131.8942,W,1,11,1.6,12,M,,M,,*6A
06/21/2015	18:10:36.553	$GPGGA,181037,2422.9185,N,08131.8933,W,1,11,1.7,12,M,,M,,*60
06/21/2015	18:10:37.579	$GPGGA,181038,2422.9173,N,08131.8922,W,1,10,1.6,12,M,,M,,*66
06/21/2015	18:10:38.539	$GPGGA,181039,2422.9161,N,08131.8912,W,1,10,1.6,12,M,,M,,*67
06/21/2015	18:10:39.651	$GPGGA,181040,2422.9148,N,08131.8902,W,1,11,1.6,12,M,,M,,*62
06/21/2015	18:10:40.519	$GPGGA,181041,2422.9135,N,08131.8892,W,1,11,1.6,12,M,,M,,*61
06/21/2015	18:10:41.669	$GPGGA,181042,2422.9124,N,08131.8883,W,1,11,1.6,12,M,,M,,*62
06/21/2015	18:10:42.630	$GPGGA,181043,2422.9111,N,08131.8873,W,1,11,1.6,12,M,,M,,*6A
06/21/2015	18:10:43.600	$GPGGA,181044,2422.9099,N,08131.8863,W,1,11,1.6,12,M,,M,,*6D
06/21/2015	18:10:44.610	$GPGGA,181045,2422.9085,N,08131.8852,W,1,11,1.6,12,M,,M,,*63
06/21/2015	18:10:45.570	$GPGGA,181046,2422.9085,N,08131.8852,W,1,11,1.6,12,M,,M,,*60
06/21/2015	18:10:46.500	$GPGGA,181047,2422.9060,N,08131.8834,W,1,11,1.6,12,M,,M,,*6A
06/21/2015	18:10:47.630	$GPGGA,181048,2422.9048,N,08131.8823,W,1,11,1.6,12,M,,M,,*69
06/21/2015	18:10:48.600	$GPGGA,181049,2422.9035,N,08131.8814,W,1,11,1.6,12,M,,M,,*66
06/21/2015	18:10:49.610	$GPGGA,181050,2422.9023,N,08131.8806,W,1,11,1.6,12,M,,M,,*6A
06/21/2015	18:10:50.589	$GPGGA,181051,2422.9009,N,08131.8794,W,1,11,1.6,12,M,,M,,*67
06/21/2015	18:10:51.639	$GPGGA,181052,2422.8997,N,08131.8784,W,1,11,1.6,13,M,,M,,*6B
06/21/2015	18:10:52.579	$GPGGA,181053,2422.8985,N,08131.8777,W,1,11,1.6,13,M,,M,,*65
06/21/2015	18:10:53.589	$GPGGA,181054,2422.8972,N,08131.8767,W,1,11,1.6,13,M,,M,,*6B
06/21/2015	18:10:54.589	$GPGGA,181055,2422.8960,N,08131.8756,W,1,11,1.6,13,M,,M,,*6B
06/21/2015	18:10:55.629	$GPGGA,181056,2422.8948,N,08131.8747,W,1,11,1.6,13,M,,M,,*62
06/21/2015	18:10:56.579	$GPGGA,181057,2422.8934,N,08131.8739,W,1,11,1.6,13,M,,M,,*61
06/21/2015	18:10:57.589	$GPGGA,181058,2422.8922,N,08131.8729,W,1,11,1.6,13,M,,M,,*68
06/21/2015	18:10:58.579	$GPGGA,181059,2422.8911,N,08131.8718,W,1,11,1.6,13,M,,M,,*6B
06/21/2015	18:10:59.619	$GPGGA,181100,2422.8897,N,08131.8709,W,1,11,1.6,13,M,,M,,*69
06/21/2015	18:11:00.580	$GPGGA,181101,2422.8884,N,08131.8701,W,1,11,1.6,13,M,,M,,*62
06/21/2015	18:11:01.590	$GPGGA,181102,2422.8872,N,08131.8690,W,1,11,1.6,13,M,,M,,*61
06/21/2015	18:11:02.570	$GPGGA,181103,2422.8860,N,08131.8680,W,1,11,1.6,13,M,,M,,*62
06/21/2015	18:11:03.590	$GPGGA,181104,2422.8847,N,08131.8671,W,1,11,1.6,13,M,,M,,*6E
06/21/2015	18:11:04.570	$GPGGA,181105,2422.8835,N,08131.8662,W,1,11,1.6,13,M,,M,,*68
06/21/2015	18:11:05.554	$GPGGA,181106,2422.8822,N,08131.8651,W,1,11,1.6,13,M,,M,,*6D
06/21/2015	18:11:06.563	$GPGGA,181107,2422.8811,N,08131.8641,W,1,11,1.6,13,M,,M,,*6D
06/21/2015	18:11:07.569	$GPGGA,181108,2422.8799,N,08131.8633,W,1,11,1.6,13,M,,M,,*68
06/21/2015	18:11:08.564	$GPGGA,181109,2422.8785,N,08131.8624,W,1,11,1.6,13,M,,M,,*62
06/21/2015	18:11:09.557	$GPGGA,181110,2422.8774,N,08131.8612,W,1,11,1.6,13,M,,M,,*61
06/21/2015	18:11:10.541	$GPGGA,181111,2422.8763,N,08131.8602,W,1,11,1.5,13,M,,M,,*64
06/21/2015	18:11:11.579	$GPGGA,181112,2422.8750,N,08131.8593,W,1,11,1.5,13,M,,M,,*6C
06/21/2015	18:11:12.539	$GPGGA,181113,2422.8737,N,08131.8584,W,1,11,1.5,13,M,,M,,*6A
06/21/2015	18:11:13.569	$GPGGA,181114,2422.8727,N,08131.8573,W,1,11,1.5,13,M,,M,,*64
06/21/2015	18:11:14.529	$GPGGA,181115,2422.8714,N,08131.8564,W,1,11,1.5,13,M,,M,,*63
06/21/2015	18:11:15.579	$GPGGA,181116,2422.8702,N,08131.8555,W,1,11,1.5,13,M,,M,,*65
06/21/2015	18:11:16.541	$GPGGA,181117,2422.8690,N,08131.8545,W,1,11,1.5,13,M,,M,,*6F
06/21/2015	18:11:17.519	$GPGGA,181118,2422.8678,N,08131.8535,W,1,11,1.5,13,M,,M,,*61
06/21/2015	18:11:18.540	$GPGGA,181119,2422.8665,N,08131.8525,W,1,11,1.5,13,M,,M,,*6D
06/21/2015	18:11:19.552	$GPGGA,181120,2422.8653,N,08131.8515,W,1,11,1.5,13,M,,M,,*61
06/21/2015	18:11:20.529	$GPGGA,181121,2422.8641,N,08131.8504,W,1,11,1.5,13,M,,M,,*63
06/21/2015	18:11:21.559	$GPGGA,181122,2422.8629,N,08131.8495,W,1,11,1.5,13,M,,M,,*67
06/21/2015	18:11:22.529	$GPGGA,181123,2422.8617,N,08131.8486,W,1,11,1.5,13,M,,M,,*69
06/21/2015	18:11:23.554	$GPGGA,181124,2422.8604,N,08131.8476,W,1,11,1.5,13,M,,M,,*63
06/21/2015	18:11:24.529	$GPGGA,181125,2422.8593,N,08131.8466,W,1,11,1.5,13,M,,M,,*6E
06/21/2015	18:11:25.528	$GPGGA,181126,2422.8580,N,08131.8456,W,1,11,1.5,13,M,,M,,*6C
06/21/2015	18:11:26.508	$GPGGA,181127,2422.8568,N,08131.8446,W,1,11,1.5,13,M,,M,,*6A
06/21/2015	18:11:27.542	$GPGGA,181128,2422.8557,N,08131.8437,W,1,11,1.5,13,M,,M,,*6F
06/21/2015	18:11:28.619	$GPGGA,181129,2422.8543,N,08131.8427,W,1,11,1.5,13,M,,M,,*6A
06/21/2015	18:11:29.609	$GPGGA,181130,2422.8531,N,08131.8417,W,1,11,1.5,13,M,,M,,*64
06/21/2015	18:11:30.619	$GPGGA,181131,2422.8519,N,08131.8407,W,1,11,1.5,13,M,,M,,*6E
06/21/2015	18:11:31.609	$GPGGA,181132,2422.8506,N,08131.8397,W,1,11,1.5,13,M,,M,,*6D
06/21/2015	18:11:32.509	$GPGGA,181133,2422.8494,N,08131.8387,W,1,11,1.5,13,M,,M,,*67
06/21/2015	18:11:33.619	$GPGGA,181134,2422.8481,N,08131.8377,W,1,11,1.5,13,M,,M,,*6B
06/21/2015	18:11:34.509	$GPGGA,181135,2422.8470,N,08131.8367,W,1,11,1.5,13,M,,M,,*65
06/21/2015	18:11:36.540	$GPGGA,181137,2422.8445,N,08131.8348,W,1,11,1.5,13,M,,M,,*6C
06/21/2015	18:11:37.629	$GPGGA,181138,2422.8432,N,08131.8337,W,1,11,1.5,13,M,,M,,*6B
06/21/2015	18:11:38.589	$GPGGA,181139,2422.8420,N,08131.8327,W,1,11,1.5,13,M,,M,,*68
06/21/2015	18:11:39.909	$GPGGA,181140,2422.8407,N,08131.8318,W,1,11,1.5,13,M,,M,,*6F
06/21/2015	18:11:40.499	$GPGGA,181141,2422.8394,N,08131.8307,W,1,11,1.5,13,M,,M,,*6D
06/21/2015	18:11:41.589	$GPGGA,181142,2422.8382,N,08131.8297,W,1,11,1.5,13,M,,M,,*61
06/21/2015	18:11:42.578	$GPGGA,181143,2422.8369,N,08131.8288,W,1,11,1.5,13,M,,M,,*6B
06/21/2015	18:11:43.608	$GPGGA,181144,2422.8356,N,08131.8279,W,1,11,1.5,13,M,,M,,*6E
06/21/2015	18:11:44.568	$GPGGA,181145,2422.8345,N,08131.8268,W,1,11,1.5,13,M,,M,,*6D
