Software Version Number: 1	Data File Format Number: 1	Build Version Number: 1	Error Count Since VI Started: 2	Manufacturer: Raytheon	 Model Number: RayMarine 120	 S/N: 	 Cal Date: 	 Wind Direction Offset: 0.00	 Slope (M)1: 0.00	 Offset (B)1: 0.00	 Slope (M)2: 0.00	 Offset (B)2: 0.00	 Slope (M)3: 0.00	 Offset (B)3: 0.00	 Slope (M)4: 0.00	 Offset (B)4: 0.00	 Slope (M)5: 0.00	 Offset (B)5: 0.00	 Slope (M)6: 0.00	 Offset (B)6: 0.00
Computer Date	Computer Time	GGA String
06/21/2015	12:00:00.577	$GPGGA,120001,2422.6255,N,08139.2317,W,1,11,1.4,12,M,,M,,*62
06/21/2015	12:00:01.588	$GPGGA,120002,2422.6245,N,08139.2306,W,1,11,1.4,12,M,,M,,*60
06/21/2015	12:00:02.588	$GPGGA,120003,2422.6232,N,08139.2293,W,1,11,1.4,12,M,,M,,*6C
06/21/2015	12:00:03.628	$GPGGA,120004,2422.6221,N,08139.2282,W,1,11,1.4,12,M,,M,,*69
06/21/2015	12:00:04.568	$GPGGA,120005,2422.6209,N,08139.2272,W,1,11,1.4,12,M,,M,,*6D
06/21/2015	12:00:05.648	$GPGGA,120006,2422.6198,N,08139.2259,W,1,11,1.4,12,M,,M,,*6C
06/21/2015	12:00:06.568	$GPGGA,120007,2422.6187,N,08139.2246,W,1,11,1.4,12,M,,M,,*6D
06/21/2015	12:00:07.618	$GPGGA,120008,2422.6176,N,08139.2235,W,1,11,1.4,12,M,,M,,*68
06/21/2015	12:00:08.578	$GPGGA,120009,2422.6165,N,08139.2224,W,1,11,1.4,12,M,,M,,*6B
06/21/2015	12:00:09.548	$GPGGA,120010,2422.6153,N,08139.2212,W,1,11,1.4,12,M,,M,,*63
06/21/2015	12:00:10.558	$GPGGA,120011,2422.6142,N,08139.2198,W,1,11,1.4,12,M,,M,,*63
06/21/2015	12:00:11.600	$GPGGA,120012,2422.6130,N,08139.2186,W,1,11,1.4,12,M,,M,,*6A
06/21/2015	12:00:12.587	$GPGGA,120013,2422.6118,N,08139.2175,W,1,11,1.4,12,M,,M,,*6D
06/21/2015	12:00:13.547	$GPGGA,120014,2422.6107,N,08139.2162,W,1,11,1.4,12,M,,M,,*62
06/21/2015	12:00:14.857	$GPGGA,120015,2422.6096,N,08139.2149,W,1,11,1.4,12,M,,M,,*63
06/21/2015	12:00:15.599	$GPGGA,120016,2422.6086,N,08139.2137,W,1,11,1.4,12,M,,M,,*68
06/21/2015	12:00:16.547	$GPGGA,120017,2422.6073,N,08139.2125,W,1,11,1.4,12,M,,M,,*60
06/21/2015	12:00:17.547	$GPGGA,120018,2422.6062,N,08139.2112,W,1,11,1.4,12,M,,M,,*6B
06/21/2015	12:00:18.547	$GPGGA,120019,2422.6051,N,08139.2099,W,1,11,1.4,12,M,,M,,*68
06/21/2015	12:00:19.628	$GPGGA,120020,2422.6039,N,08139.2086,W,1,11,1.4,12,M,,M,,*62
06/21/2015	12:00:20.548	$GPGGA,120021,2422.6028,N,08139.2074,W,1,11,1.4,12,M,,M,,*6E
06/21/2015	12:00:21.558	$GPGGA,120022,2422.6017,N,08139.2061,W,1,11,1.4,12,M,,M,,*65
06/21/2015	12:00:22.538	$GPGGA,120023,2422.6005,N,08139.2048,W,1,11,1.4,12,M,,M,,*6C
06/21/2015	12:00:23.598	$GPGGA,120024,2422.5994,N,08139.2035,W,1,11,1.4,12,M,,M,,*63
06/21/2015	12:00:24.568	$GPGGA,120025,2422.5983,N,08139.2023,W,1,11,1.4,12,M,,M,,*63
06/21/2015	12:00:25.518	$GPGGA,120026,2422.5971,N,08139.2009,W,1,11,1.4,12,M,,M,,*65
06/21/2015	12:00:26.618	$GPGGA,120027,2422.5959,N,08139.1995,W,1,11,1.4,12,M,,M,,*61
06/21/2015	12:00:27.578	$GPGGA,120028,2422.5948,N,08139.1982,W,1,11,1.4,12,M,,M,,*68
06/21/2015	12:00:28.528	$GPGGA,120029,2422.5938,N,08139.1970,W,1,11,1.4,12,M,,M,,*63
06/21/2015	12:00:29.537	$GPGGA,120030,2422.5925,N,08139.1956,W,1,11,1.4,12,M,,M,,*63
06/21/2015	12:00:30.547	$GPGGA,120031,2422.5914,N,08139.1944,W,1,11,1.4,12,M,,M,,*63
06/21/2015	12:00:31.647	$GPGGA,120032,2422.5903,N,08139.1931,W,1,11,1.4,12,M,,M,,*64
06/21/2015	12:00:32.527	$GPGGA,120033,2422.5891,N,08139.1918,W,1,11,1.4,12,M,,M,,*64
06/21/2015	12:00:33.637	$GPGGA,120034,2422.5880,N,08139.1905,W,1,11,1.4,11,M,,M,,*6C
06/21/2015	12:00:34.517	$GPGGA,120035,2422.5869,N,08139.1893,W,1,11,1.4,11,M,,M,,*64
06/21/2015	12:00:35.557	$GPGGA,120036,2422.5858,N,08139.1880,W,1,11,1.4,11,M,,M,,*67
06/21/2015	12:00:36.528	$GPGGA,120037,2422.5845,N,08139.1866,W,1,11,1.4,11,M,,M,,*62
06/21/2015	12:00:37.615	$GPGGA,120038,2422.5834,N,08139.1855,W,1,11,1.4,11,M,,M,,*6B
06/21/2015	12:00:38.603	$GPGGA,120039,2422.5822,N,08139.1843,W,1,11,1.4,11,M,,M,,*6A
06/21/2015	12:00:39.638	$GPGGA,120040,2422.5809,N,08139.1829,W,1,11,1.4,11,M,,M,,*61
06/21/2015	12:00:40.602	$GPGGA,120041,2422.5798,N,08139.1818,W,1,11,1.4,11,M,,M,,*65
06/21/2015	12:00:41.620	$GPGGA,120042,2422.5786,N,08139.1807,W,1,11,1.4,11,M,,M,,*67
06/21/2015	12:00:42.598	$GPGGA,120043,2422.5775,N,08139.1794,W,1,11,1.4,11,M,,M,,*6F
06/21/2015	12:00:43.614	$GPGGA,120044,2422.5764,N,08139.1782,W,1,11,1.4,11,M,,M,,*6F
06/21/2015	12:00:44.578	$GPGGA,120045,2422.5751,N,08139.1770,W,1,11,1.4,11,M,,M,,*65
06/21/2015	12:00:45.603	$GPGGA,120046,2422.5739,N,08139.1759,W,1,11,1.4,11,M,,M,,*63
06/21/2015	12:00:46.577	$GPGGA,120047,2422.5728,N,08139.1747,W,1,11,1.4,11,M,,M,,*6D
06/21/2015	12:00:47.617	$GPGGA,120048,2422.5715,N,08139.1736,W,1,11,1.4,11,M,,M,,*6A
06/21/2015	12:00:48.587	$GPGGA,120049,2422.5703,N,08139.1726,W,1,11,1.4,11,M,,M,,*6D
06/21/2015	12:00:49.587	$GPGGA,120050,2422.5692,N,08139.1714,W,1,11,1.4,11,M,,M,,*6D
06/21/2015	12:00:50.577	$GPGGA,120051,2422.5679,N,08139.1701,W,1,11,1.4,11,M,,M,,*6D
06/21/2015	12:00:51.602	$GPGGA,120052,2422.5667,N,08139.1692,W,1,11,1.4,11,M,,M,,*6A
06/21/2015	12:00:52.567	$GPGGA,120053,2422.5654,N,08139.1682,W,1,11,1.4,11,M,,M,,*6A
06/21/2015	12:00:53.577	$GPGGA,120054,2422.5642,N,08139.1669,W,1,11,1.4,11,M,,M,,*6F
06/21/2015	12:00:54.568	$GPGGA,120055,2422.5630,N,08139.1658,W,1,11,1.4,11,M,,M,,*69
06/21/2015	12:00:55.601	$GPGGA,120056,2422.5618,N,08139.1649,W,1,11,1.4,11,M,,M,,*60
06/21/2015	12:00:56.548	$GPGGA,120057,2422.5605,N,08139.1639,W,1,11,1.4,11,M,,M,,*6A
06/21/2015	12:00:57.578	$GPGGA,120058,2422.5592,N,08139.1628,W,1,11,1.4,11,M,,M,,*68
06/21/2015	12:00:58.558	$GPGGA,120059,2422.5581,N,08139.1616,W,1,11,1.4,11,M,,M,,*66
06/21/2015	12:00:59.618	$GPGGA,120100,2422.5569,N,08139.1606,W,1,11,1.4,11,M,,M,,*6C
06/21/2015	12:01:00.558	$GPGGA,120101,2422.5555,N,08139.1596,W,1,11,1.4,11,M,,M,,*68
06/21/2015	12:01:01.548	$GPGGA,120102,2422.5544,N,08139.1585,W,1,10,1.4,11,M,,M,,*68
06/21/2015	12:01:02.548	$GPGGA,120103,2422.5531,N,08139.1574,W,1,10,1.4,11,M,,M,,*65
06/21/2015	12:01:03.548	$GPGGA,120104,2422.5518,N,08139.1565,W,1,11,1.4,11,M,,M,,*68
06/21/2015	12:01:04.547	$GPGGA,120105,2422.5504,N,08139.1554,W,1,11,1.4,11,M,,M,,*66
06/21/2015	12:01:05.567	$GPGGA,120106,2422.5493,N,08139.1543,W,1,11,1.4,11,M,,M,,*6C
06/21/2015	12:01:06.537	$GPGGA,120107,2422.5480,N,08139.1534,W,1,11,1.4,11,M,,M,,*6F
06/21/2015	12:01:07.547	$GPGGA,120108,2422.5466,N,08139.1523,W,1,11,1.4,11,M,,M,,*6E
06/21/2015	12:01:08.527	$GPGGA,120109,2422.5455,N,08139.1511,W,1,11,1.4,11,M,,M,,*6E
06/21/2015	12:01:09.537	$GPGGA,120110,2422.5443,N,08139.1500,W,1,10,1.4,10,M,,M,,*61
06/21/2015	12:01:10.547	$GPGGA,120111,2422.5429,N,08139.1490,W,1,10,1.4,10,M,,M,,*64
06/21/2015	12:01:11.548	$GPGGA,120112,2422.5417,N,08139.1479,W,1,11,1.4,10,M,,M,,*6C
06/21/2015	12:01:12.568	$GPGGA,120113,2422.5405,N,08139.1468,W,1,11,1.4,10,M,,M,,*6E
06/21/2015	12:01:13.558	$GPGGA,120114,2422.5392,N,08139.1456,W,1,11,1.4,10,M,,M,,*6D
06/21/2015	12:01:14.528	$GPGGA,120115,2422.5380,N,08139.1446,W,1,11,1.4,10,M,,M,,*6E
06/21/2015	12:01:15.558	$GPGGA,120116,2422.5367,N,08139.1435,W,1,11,1.4,10,M,,M,,*60
06/21/2015	12:01:16.528	$GPGGA,120117,2422.5356,N,08139.1423,W,1,11,1.7,10,M,,M,,*67
06/21/2015	12:01:17.518	$GPGGA,120118,2422.5343,N,08139.1412,W,1,10,1.7,10,M,,M,,*6F
06/21/2015	12:01:18.510	$GPGGA,120119,2422.5331,N,08139.1403,W,1,10,1.4,10,M,,M,,*68
06/21/2015	12:01:19.648	$GPGGA,120120,2422.5317,N,08139.1393,W,1,10,1.7,10,M,,M,,*6B
06/21/2015	12:01:20.628	$GPGGA,120121,2422.5305,N,08139.1380,W,1,10,1.4,10,M,,M,,*68
06/21/2015	12:01:21.613	$GPGGA,120122,2422.5293,N,08139.1369,W,1,11,1.4,10,M,,M,,*63
06/21/2015	12:01:22.500	$GPGGA,120123,2422.5281,N,08139.1359,W,1,11,1.4,10,M,,M,,*62
06/21/2015	12:01:23.527	$GPGGA,120124,2422.5268,N,08139.1348,W,1,11,1.4,11,M,,M,,*63
06/21/2015	12:01:24.509	$GPGGA,120125,2422.5256,N,08139.1337,W,1,11,1.7,11,M,,M,,*64
06/21/2015	12:01:25.637	$GPGGA,120126,2422.5246,N,08139.1324,W,1,11,1.4,11,M,,M,,*67
06/21/2015	12:01:26.509	$GPGGA,120127,2422.5233,N,08139.1312,W,1,11,1.4,11,M,,M,,*61
06/21/2015	12:01:27.637	$GPGGA,120128,2422.5221,N,08139.1300,W,1,11,1.4,11,M,,M,,*6E
06/21/2015	12:01:28.598	$GPGGA,120129,2422.5210,N,08139.1287,W,1,11,1.4,11,M,,M,,*63
06/21/2015	12:01:29.615	$GPGGA,120130,2422.5198,N,08139.1275,W,1,11,1.4,11,M,,M,,*65
06/21/2015	12:01:30.588	$GPGGA,120131,2422.5186,N,08139.1262,W,1,11,1.4,11,M,,M,,*6D
06/21/2015	12:01:31.622	$GPGGA,120132,2422.5174,N,08139.1249,W,1,11,1.4,11,M,,M,,*6A
06/21/2015	12:01:32.588	$GPGGA,120133,2422.5161,N,08139.1237,W,1,11,1.4,11,M,,M,,*66
06/21/2015	12:01:33.598	$GPGGA,120134,2422.5150,N,08139.1225,W,1,11,1.4,11,M,,M,,*60
06/21/2015	12:01:34.578	$GPGGA,120135,2422.5139,N,08139.1212,W,1,11,1.4,11,M,,M,,*6A
06/21/2015	12:01:35.628	$GPGGA,120136,2422.5126,N,08139.1200,W,1,11,1.4,11,M,,M,,*64
06/21/2015	12:01:36.608	$GPGGA,120137,2422.5114,N,08139.1187,W,1,11,1.4,11,M,,M,,*68
06/21/2015	12:01:37.878	$GPGGA,120138,2422.5103,N,08139.1175,W,1,11,1.4,11,M,,M,,*6C
06/21/2015	12:01:38.578	$GPGGA,120139,2422.5090,N,08139.1162,W,1,11,1.4,11,M,,M,,*60
06/21/2015	12:01:39.587	$GPGGA,120140,2422.5078,N,08139.1149,W,1,11,1.4,11,M,,M,,*61
06/21/2015	12:01:40.577	$GPGGA,120141,2422.5067,N,08139.1136,W,1,11,1.4,11,M,,M,,*66
06/21/2015	12:01:41.577	$GPGGA,120142,2422.5054,N,08139.1125,W,1,11,1.4,11,M,,M,,*67
06/21/2015	12:01:42.567	$GPGGA,120143,2422.5042,N,08139.1112,W,1,11,1.4,11,M,,M,,*65
06/21/2015	12:01:43.597	$GPGGA,120144,2422.5031,N,08139.1098,W,1,11,1.4,11,M,,M,,*65
06/21/2015	12:01:44.557	$GPGGA,120145,2422.5018,N,08139.1087,W,1,11,1.4,11,M,,M,,*61
06/21/2015	12:01:45.587	$GPGGA,120146,2422.5006,N,08139.1076,W,1,11,1.4,11,M,,M,,*63
06/21/2015	12:01:46.558	$GPGGA,120147,2422.4995,N,08139.1062,W,1,11,1.4,11,M,,M,,*65
06/21/2015	12:01:47.588	$GPGGA,120148,2422.4984,N,08139.1049,W,1,11,1.4,11,M,,M,,*63
06/21/2015	12:01:48.558	$GPGGA,120149,2422.4970,N,08139.1037,W,1,11,1.4,11,M,,M,,*60
06/21/2015	12:01:49.548	$GPGGA,120150,2422.4958,N,08139.1025,W,1,11,1.4,11,M,,M,,*61
06/21/2015	12:01:50.548	$GPGGA,120151,2422.4948,N,08139.1012,W,1,11,1.4,11,M,,M,,*65
06/21/2015	12:01:51.558	$GPGGA,120152,2422.4935,N,08139.1000,W,1,11,1.4,11,M,,M,,*6F
06/21/2015	12:01:52.548	$GPGGA,120153,2422.4922,N,08139.0988,W,1,11,1.4,11,M,,M,,*60
06/21/2015	12:01:53.568	$GPGGA,120154,2422.4911,N,08139.0975,W,1,11,1.4,11,M,,M,,*65
06/21/2015	12:01:54.548	$GPGGA,120155,2422.4899,N,08139.0962,W,1,11,1.4,11,M,,M,,*63
06/21/2015	12:01:55.538	$GPGGA,120156,2422.4887,N,08139.0951,W,1,11,1.4,11,M,,M,,*6F
06/21/2015	12:01:56.547	$GPGGA,120157,2422.4875,N,08139.0938,W,1,11,1.4,11,M,,M,,*6C
06/21/2015	12:01:57.537	$GPGGA,120158,2422.4865,N,08139.0926,W,1,11,1.4,11,M,,M,,*6D
06/21/2015	12:01:58.537	$GPGGA,120159,2422.4852,N,08139.0914,W,1,11,1.4,11,M,,M,,*69
06/21/2015	12:01:59.557	$GPGGA,120200,2422.4840,N,08139.0902,W,1,11,1.4,11,M,,M,,*62
06/21/2015	12:02:00.527	$GPGGA,120201,2422.4828,N,08139.0889,W,1,11,1.4,11,M,,M,,*6F
06/21/2015	12:02:01.537	$GPGGA,120202,2422.4816,N,08139.0877,W,1,11,1.4,11,M,,M,,*60
06/21/2015	12:02:02.527	$GPGGA,120203,2422.4804,N,08139.0865,W,1,11,1.4,11,M,,M,,*61
06/21/2015	12:02:03.648	$GPGGA,120204,2422.4791,N,08139.0852,W,1,11,1.4,11,M,,M,,*61
06/21/2015	12:02:04.518	$GPGGA,120205,2422.4779,N,08139.0840,W,1,11,1.5,11,M,,M,,*64
06/21/2015	12:02:05.648	$GPGGA,120206,2422.4767,N,08139.0829,W,1,11,1.4,11,M,,M,,*66
06/21/2015	12:02:06.528	$GPGGA,120207,2422.4754,N,08139.0816,W,1,11,1.4,11,M,,M,,*6B
06/21/2015	12:02:07.648	$GPGGA,120208,2422.4742,N,08139.0802,W,1,11,1.4,11,M,,M,,*66
06/21/2015	12:02:08.615	$GPGGA,120209,2422.4731,N,08139.0791,W,1,11,1.4,11,M,,M,,*66
06/21/2015	12:02:09.499	$GPGGA,120210,2422.4717,N,08139.0781,W,1,11,1.4,11,M,,M,,*6B
06/21/2015	12:02:10.528	$GPGGA,120211,2422.4706,N,08139.0768,W,1,11,1.7,11,M,,M,,*6E
06/21/2015	12:02:11.638	$GPGGA,120212,2422.4695,N,08139.0754,W,1,11,1.4,11,M,,M,,*6A
06/21/2015	12:02:12.518	$GPGGA,120213,2422.4681,N,08139.0743,W,1,11,1.7,11,M,,M,,*6B
06/21/2015	12:02:13.508	$GPGGA,120214,2422.4667,N,08139.0734,W,1,11,1.4,11,M,,M,,*67
06/21/2015	12:02:14.587	$GPGGA,120215,2422.4655,N,08139.0722,W,1,11,1.4,11,M,,M,,*60
06/21/2015	12:02:15.617	$GPGGA,120216,2422.4643,N,08139.0708,W,1,11,1.4,11,M,,M,,*6C
06/21/2015	12:02:16.587	$GPGGA,120217,2422.4630,N,08139.0697,W,1,11,1.4,11,M,,M,,*6E
06/21/2015	12:02:17.617	$GPGGA,120218,2422.4617,N,08139.0687,W,1,11,1.4,11,M,,M,,*65
06/21/2015	12:02:18.587	$GPGGA,120219,2422.4605,N,08139.0675,W,1,11,1.4,11,M,,M,,*6A
06/21/2015	12:02:19.637	$GPGGA,120220,2422.4594,N,08139.0661,W,1,11,1.4,12,M,,M,,*6D
06/21/2015	12:02:20.587	$GPGGA,120221,2422.4580,N,08139.0650,W,1,11,1.4,12,M,,M,,*6B
06/21/2015	12:02:21.588	$GPGGA,120222,2422.4567,N,08139.0639,W,1,11,1.4,12,M,,M,,*6E
06/21/2015	12:02:22.600	$GPGGA,120223,2422.4555,N,08139.0628,W,1,11,1.4,12,M,,M,,*6E
06/21/2015	12:02:23.610	$GPGGA,120224,2422.4543,N,08139.0616,W,1,11,1.4,12,M,,M,,*63
06/21/2015	12:02:24.568	$GPGGA,120225,2422.4530,N,08139.0603,W,1,11,1.4,12,M,,M,,*62
06/21/2015	12:02:25.579	$GPGGA,120226,2422.4518,N,08139.0592,W,1,11,1.4,12,M,,M,,*60
06/21/2015	12:02:26.588	$GPGGA,120227,2422.4505,N,08139.0583,W,1,11,1.4,12,M,,M,,*6D
06/21/2015	12:02:27.601	$GPGGA,120228,2422.4492,N,08139.0571,W,1,11,1.4,12,M,,M,,*60
06/21/2015	12:02:28.578	$GPGGA,120229,2422.4480,N,08139.0558,W,1,11,1.4,12,M,,M,,*69
06/21/2015	12:02:29.558	$GPGGA,120230,2422.4468,N,08139.0546,W,1,11,1.4,12,M,,M,,*68
06/21/2015	12:02:30.568	$GPGGA,120231,2422.4455,N,08139.0536,W,1,11,1.4,12,M,,M,,*60
06/21/2015	12:02:31.597	$GPGGA,120232,2422.4443,N,08139.0523,W,1,11,1.4,12,M,,M,,*60
06/21/2015	12:02:32.557	$GPGGA,120233,2422.4431,N,08139.0510,W,1,11,1.4,12,M,,M,,*64
06/21/2015	12:02:33.578	$GPGGA,120234,2422.4419,N,08139.0500,W,1,11,1.4,12,M,,M,,*68
06/21/2015	12:02:34.557	$GPGGA,120235,2422.4406,N,08139.0488,W,1,11,1.4,12,M,,M,,*66
06/21/2015	12:02:35.557	$GPGGA,120236,2422.4395,N,08139.0474,W,1,11,1.4,12,M,,M,,*6B
06/21/2015	12:02:36.557	$GPGGA,120237,2422.4382,N,08139.0465,W,1,11,1.4,12,M,,M,,*6C
06/21/2015	12:02:37.567	$GPGGA,120238,2422.4370,N,08139.0454,W,1,11,1.4,13,M,,M,,*6D
06/21/2015	12:02:38.558	$GPGGA,120239,2422.4357,N,08139.0440,W,1,11,1.4,13,M,,M,,*6C
06/21/2015	12:02:39.558	$GPGGA,120240,2422.4346,N,08139.0427,W,1,11,1.4,13,M,,M,,*63
06/21/2015	12:02:40.558	$GPGGA,120241,2422.4334,N,08139.0420,W,1,11,1.7,13,M,,M,,*63
06/21/2015	12:02:41.568	$GPGGA,120242,2422.4321,N,08139.0409,W,1,11,1.4,13,M,,M,,*6C
06/21/2015	12:02:42.528	$GPGGA,120243,2422.4310,N,08139.0395,W,1,11,1.4,13,M,,M,,*6D
06/21/2015	12:02:43.558	$GPGGA,120244,2422.4299,N,08139.0382,W,1,11,1.4,13,M,,M,,*6C
06/21/2015	12:02:44.528	$GPGGA,120245,2422.4286,N,08139.0374,W,1,11,1.4,13,M,,M,,*6A
06/21/2015	12:02:45.548	$GPGGA,120246,2422.4274,N,08139.0362,W,1,11,1.4,13,M,,M,,*63
06/21/2015	12:02:46.518	$GPGGA,120247,2422.4263,N,08139.0347,W,1,11,1.4,13,M,,M,,*63
06/21/2015	12:02:47.578	$GPGGA,120248,2422.4252,N,08139.0335,W,1,10,1.7,13,M,,M,,*69
06/21/2015	12:02:48.518	$GPGGA,120249,2422.4240,N,08139.0326,W,1,10,1.4,13,M,,M,,*6A
06/21/2015	12:02:49.547	$GPGGA,120250,2422.4229,N,08139.0315,W,1,11,1.4,13,M,,M,,*6C
06/21/2015	12:02:50.510	$GPGGA,120251,2422.4218,N,08139.0302,W,1,11,1.4,13,M,,M,,*69
06/21/2015	12:02:51.567	$GPGGA,120252,2422.4205,N,08139.0290,W,1,11,1.4,13,M,,M,,*6C
06/21/2015	12:02:52.677	$GPGGA,120253,2422.4193,N,08139.0279,W,1,11,1.4,13,M,,M,,*66
06/21/2015	12:02:53.667	$GPGGA,120254,2422.4182,N,08139.0268,W,1,11,1.4,13,M,,M,,*61
06/21/2015	12:02:54.527	$GPGGA,120255,2422.4171,N,08139.0256,W,1,11,1.4,13,M,,M,,*61
06/21/2015	12:02:55.687	$GPGGA,120256,2422.4157,N,08139.0244,W,1,11,1.4,13,M,,M,,*65
06/21/2015	12:02:56.508	$GPGGA,120257,2422.4146,N,08139.0232,W,1,11,1.4,13,M,,M,,*65
06/21/2015	12:02:57.648	$GPGGA,120258,2422.4135,N,08139.0221,W,1,11,1.4,13,M,,M,,*6C
06/21/2015	12:02:58.508	$GPGGA,120259,2422.4122,N,08139.0209,W,1,11,1.4,13,M,,M,,*61
06/21/2015	12:02:59.568	$GPGGA,120300,2422.4110,N,08139.0196,W,1,11,1.4,13,M,,M,,*68
06/21/2015	12:03:00.668	$GPGGA,120301,2422.4099,N,08139.0183,W,1,11,1.4,13,M,,M,,*6D
06/21/2015	12:03:01.508	$GPGGA,120302,2422.4088,N,08139.0173,W,1,11,1.4,13,M,,M,,*61
06/21/2015	12:03:02.488	$GPGGA,120303,2422.4075,N,08139.0160,W,1,11,1.4,13,M,,M,,*60
06/21/2015	12:03:03.678	$GPGGA,120304,2422.4064,N,08139.0146,W,1,10,1.4,13,M,,M,,*62
06/21/2015	12:03:04.678	$GPGGA,120305,2422.4052,N,08139.0133,W,1,10,1.4,13,M,,M,,*64
06/21/2015	12:03:05.518	$GPGGA,120306,2422.4041,N,08139.0122,W,1,11,1.4,13,M,,M,,*64
06/21/2015	12:03:06.637	$GPGGA,120307,2422.4027,N,08139.0110,W,1,11,1.7,13,M,,M,,*67
06/21/2015	12:03:07.647	$GPGGA,120308,2422.4016,N,08139.0097,W,1,11,1.4,13,M,,M,,*67
06/21/2015	12:03:08.647	$GPGGA,120309,2422.4005,N,08139.0086,W,1,11,1.4,13,M,,M,,*64
06/21/2015	12:03:09.590	$GPGGA,120310,2422.3991,N,08139.0074,W,1,11,1.4,13,M,,M,,*62
06/21/2015	12:03:10.637	$GPGGA,120311,2422.3979,N,08139.0062,W,1,11,1.4,13,M,,M,,*62
06/21/2015	12:03:11.617	$GPGGA,120312,2422.3967,N,08139.0050,W,1,11,1.4,13,M,,M,,*6F
06/21/2015	12:03:12.627	$GPGGA,120313,2422.3955,N,08139.0039,W,1,11,1.4,13,M,,M,,*60
06/21/2015	12:03:13.557	$GPGGA,120314,2422.3943,N,08139.0026,W,1,11,1.4,13,M,,M,,*6E
06/21/2015	12:03:14.617	$GPGGA,120315,2422.3931,N,08139.0015,W,1,11,1.4,13,M,,M,,*6A
06/21/2015	12:03:15.608	$GPGGA,120316,2422.3918,N,08139.0004,W,1,11,1.4,13,M,,M,,*62
06/21/2015	12:03:16.617	$GPGGA,120317,2422.3906,N,08138.9992,W,1,11,1.4,13,M,,M,,*62
06/21/2015	12:03:17.590	$GPGGA,120318,2422.3895,N,08138.9979,W,1,11,1.4,13,M,,M,,*63
06/21/2015	12:03:18.627	$GPGGA,120319,2422.3882,N,08138.9968,W,1,11,1.4,13,M,,M,,*64
06/21/2015	12:03:19.608	$GPGGA,120320,2422.3868,N,08138.9957,W,1,10,1.7,14,M,,M,,*63
06/21/2015	12:03:20.604	$GPGGA,120321,2422.3857,N,08138.9944,W,1,10,1.7,14,M,,M,,*6C
06/21/2015	12:03:21.600	$GPGGA,120322,2422.3846,N,08138.9932,W,1,11,1.4,14,M,,M,,*6C
06/21/2015	12:03:22.605	$GPGGA,120323,2422.3832,N,08138.9921,W,1,11,1.4,14,M,,M,,*6C
06/21/2015	12:03:23.602	$GPGGA,120324,2422.3820,N,08138.9910,W,1,11,1.4,14,M,,M,,*6A
06/21/2015	12:03:24.590	$GPGGA,120325,2422.3807,N,08138.9899,W,1,11,1.4,14,M,,M,,*6E
06/21/2015	12:03:25.577	$GPGGA,120326,2422.3795,N,08138.9888,W,1,11,1.4,14,M,,M,,*69
06/21/2015	12:03:26.600	$GPGGA,120327,2422.3783,N,08138.9874,W,1,11,1.4,14,M,,M,,*6C
06/21/2015	12:03:27.537	$GPGGA,120328,2422.3771,N,08138.9863,W,1,10,1.7,14,M,,M,,*6A
06/21/2015	12:03:28.606	$GPGGA,120329,2422.3759,N,08138.9852,W,1,10,1.4,14,M,,M,,*60
06/21/2015	12:03:29.557	$GPGGA,120330,2422.3747,N,08138.9842,W,1,10,1.4,14,M,,M,,*66
06/21/2015	12:03:30.577	$GPGGA,120331,2422.3734,N,08138.9828,W,1,10,1.4,14,M,,M,,*6F
06/21/2015	12:03:31.617	$GPGGA,120332,2422.3723,N,08138.9817,W,1,11,1.4,14,M,,M,,*67
06/21/2015	12:03:32.868	$GPGGA,120333,2422.3710,N,08138.9805,W,1,11,1.4,14,M,,M,,*65
06/21/2015	12:03:33.577	$GPGGA,120334,2422.3698,N,08138.9794,W,1,11,1.4,14,M,,M,,*64
06/21/2015	12:03:34.577	$GPGGA,120335,2422.3687,N,08138.9782,W,1,11,1.4,14,M,,M,,*6C
06/21/2015	12:03:35.609	$GPGGA,120336,2422.3674,N,08138.9768,W,1,11,1.4,14,M,,M,,*67
06/21/2015	12:03:36.507	$GPGGA,120337,2422.3662,N,08138.9757,W,1,11,1.4,14,M,,M,,*6D
06/21/2015	12:03:37.547	$GPGGA,120338,2422.3649,N,08138.9747,W,1,10,1.4,14,M,,M,,*6B
06/21/2015	12:03:38.507	$GPGGA,120339,2422.3636,N,08138.9736,W,1,10,1.4,14,M,,M,,*64
06/21/2015	12:03:39.577	$GPGGA,120340,2422.3624,N,08138.9723,W,1,11,1.4,14,M,,M,,*6C
06/21/2015	12:03:40.500	$GPGGA,120341,2422.3612,N,08138.9712,W,1,11,1.4,14,M,,M,,*6A
06/21/2015	12:03:41.517	$GPGGA,120342,2422.3600,N,08138.9704,W,1,11,1.4,14,M,,M,,*6D
06/21/2015	12:03:42.557	$GPGGA,120343,2422.3587,N,08138.9692,W,1,11,1.4,14,M,,M,,*6E
06/21/2015	12:03:43.647	$GPGGA,120344,2422.3575,N,08138.9678,W,1,11,1.4,14,M,,M,,*60
06/21/2015	12:03:44.567	$GPGGA,120345,2422.3564,N,08138.9667,W,1,11,1.4,14,M,,M,,*6F
06/21/2015	12:03:45.589	$GPGGA,120346,2422.3550,N,08138.9657,W,1,11,1.4,14,M,,M,,*68
06/21/2015	12:03:46.589	$GPGGA,120347,2422.3539,N,08138.9645,W,1,11,1.4,14,M,,M,,*65
06/21/2015	12:03:47.637	$GPGGA,120348,2422.3526,N,08138.9632,W,1,11,1.4,14,M,,M,,*64
06/21/2015	12:03:48.587	$GPGGA,120349,2422.3515,N,08138.9621,W,1,11,1.4,14,M,,M,,*67
06/21/2015	12:03:49.617	$GPGGA,120350,2422.3501,N,08138.9611,W,1,11,1.4,14,M,,M,,*69
06/21/2015	12:03:50.589	$GPGGA,120351,2422.3489,N,08138.9599,W,1,11,1.4,14,M,,M,,*6A
06/21/2015	12:03:51.627	$GPGGA,120352,2422.3478,N,08138.9586,W,1,11,1.4,14,M,,M,,*69
06/21/2015	12:03:52.589	$GPGGA,120353,2422.3478,N,08138.9586,W,1,11,1.4,14,M,,M,,*68
06/21/2015	12:03:53.577	$GPGGA,120354,2422.3453,N,08138.9563,W,1,11,1.4,14,M,,M,,*6D
06/21/2015	12:03:54.587	$GPGGA,120355,2422.3442,N,08138.9552,W,1,11,1.4,14,M,,M,,*6E
06/21/2015	12:03:55.591	$GPGGA,120356,2422.3429,N,08138.9540,W,1,11,1.4,14,M,,M,,*63
06/21/2015	12:03:56.567	$GPGGA,120357,2422.3418,N,08138.9527,W,1,11,1.4,14,M,,M,,*61
06/21/2015	12:03:57.589	$GPGGA,120358,2422.3407,N,08138.9515,W,1,11,1.4,14,M,,M,,*61
06/21/2015	12:03:58.577	$GPGGA,120359,2422.3394,N,08138.9505,W,1,11,1.4,14,M,,M,,*6C
06/21/2015	12:03:59.589	$GPGGA,120400,2422.3383,N,08138.9492,W,1,11,1.6,14,M,,M,,*6C
06/21/2015	12:04:00.577	$GPGGA,120401,2422.3372,N,08138.9479,W,1,11,1.4,14,M,,M,,*64
06/21/2015	12:04:01.608	$GPGGA,120402,2422.3360,N,08138.9468,W,1,11,1.4,14,M,,M,,*64
06/21/2015	12:04:02.557	$GPGGA,120403,2422.3348,N,08138.9456,W,1,11,1.6,14,M,,M,,*60
06/21/2015	12:04:03.588	$GPGGA,120404,2422.3337,N,08138.9444,W,1,10,1.4,14,M,,M,,*6F
06/21/2015	12:04:04.557	$GPGGA,120405,2422.3326,N,08138.9432,W,1,10,1.4,14,M,,M,,*6F
06/21/2015	12:04:05.577	$GPGGA,120406,2422.3313,N,08138.9421,W,1,11,1.5,14,M,,M,,*68
06/21/2015	12:04:06.557	$GPGGA,120407,2422.3302,N,08138.9408,W,1,11,1.4,14,M,,M,,*63
06/21/2015	12:04:07.577	$GPGGA,120408,2422.3289,N,08138.9396,W,1,11,1.6,14,M,,M,,*6C
06/21/2015	12:04:08.567	$GPGGA,120409,2422.3277,N,08138.9384,W,1,11,1.4,14,M,,M,,*6D
06/21/2015	12:04:09.577	$GPGGA,120410,2422.3266,N,08138.9370,W,1,11,1.4,14,M,,M,,*6E
06/21/2015	12:04:10.557	$GPGGA,120411,2422.3266,N,08138.9370,W,1,11,1.4,14,M,,M,,*6F
06/21/2015	12:04:11.547	$GPGGA,120412,2422.3241,N,08138.9345,W,1,11,1.4,14,M,,M,,*6F
06/21/2015	12:04:12.567	$GPGGA,120413,2422.3241,N,08138.9345,W,1,11,1.4,14,M,,M,,*6E
06/21/2015	12:04:13.577	$GPGGA,120414,2422.3217,N,08138.9320,W,1,10,1.4,14,M,,M,,*68
06/21/2015	12:04:14.557	$GPGGA,120415,2422.3205,N,08138.9307,W,1,10,1.4,14,M,,M,,*6F
06/21/2015	12:04:15.537	$GPGGA,120416,2422.3193,N,08138.9297,W,1,11,1.4,14,M,,M,,*69
06/21/2015	12:04:16.557	$GPGGA,120417,2422.3193,N,08138.9297,W,1,11,1.4,14,M,,M,,*68
06/21/2015	12:04:17.567	$GPGGA,120418,2422.3168,N,08138.9272,W,1,11,1.4,14,M,,M,,*68
06/21/2015	12:04:18.557	$GPGGA,120419,2422.3157,N,08138.9260,W,1,11,1.4,14,M,,M,,*66
06/21/2015	12:04:19.567	$GPGGA,120420,2422.3145,N,08138.9249,W,1,11,1.4,14,M,,M,,*64
06/21/2015	12:04:20.547	$GPGGA,120421,2422.3145,N,08138.9249,W,1,11,1.4,14,M,,M,,*65
06/21/2015	12:04:21.627	$GPGGA,120422,2422.3120,N,08138.9224,W,1,11,1.4,14,M,,M,,*6E
06/21/2015	12:04:22.527	$GPGGA,120423,2422.3120,N,08138.9224,W,1,11,1.4,14,M,,M,,*6F
06/21/2015	12:04:23.557	$GPGGA,120424,2422.3094,N,08138.9201,W,1,11,1.4,14,M,,M,,*61
06/21/2015	12:04:24.607	$GPGGA,120425,2422.3082,N,08138.9188,W,1,11,1.4,14,M,,M,,*65
06/21/2015	12:04:25.527	$GPGGA,120426,2422.3069,N,08138.9177,W,1,11,1.4,14,M,,M,,*63
06/21/2015	12:04:26.547	$GPGGA,120427,2422.3057,N,08138.9165,W,1,11,1.4,14,M,,M,,*6C
06/21/2015	12:04:27.537	$GPGGA,120428,2422.3044,N,08138.9152,W,1,11,1.4,14,M,,M,,*65
06/21/2015	12:04:28.507	$GPGGA,120429,2422.3044,N,08138.9152,W,1,11,1.4,14,M,,M,,*64
06/21/2015	12:04:29.627	$GPGGA,120430,2422.3019,N,08138.9128,W,1,11,1.4,14,M,,M,,*69
06/21/2015	12:04:30.547	$GPGGA,120431,2422.3019,N,08138.9128,W,1,11,1.4,14,M,,M,,*68
06/21/2015	12:04:31.527	$GPGGA,120432,2422.2994,N,08138.9104,W,1,10,1.4,14,M,,M,,*69
06/21/2015	12:04:32.497	$GPGGA,120433,2422.2994,N,08138.9104,W,1,10,1.4,14,M,,M,,*68
06/21/2015	12:04:33.616	$GPGGA,120434,2422.2968,N,08138.9079,W,1,11,1.4,14,M,,M,,*66
06/21/2015	12:04:34.594	$GPGGA,120435,2422.2957,N,08138.9070,W,1,11,1.4,14,M,,M,,*62
06/21/2015	12:04:35.596	$GPGGA,120436,2422.2943,N,08138.9057,W,1,11,1.4,14,M,,M,,*61
06/21/2015	12:04:36.602	$GPGGA,120437,2422.2932,N,08138.9043,W,1,11,1.4,14,M,,M,,*63
06/21/2015	12:04:37.594	$GPGGA,120438,2422.2918,N,08138.9033,W,1,11,1.4,14,M,,M,,*63
06/21/2015	12:04:38.591	$GPGGA,120439,2422.2905,N,08138.9024,W,1,11,1.4,14,M,,M,,*68
06/21/2015	12:04:39.592	$GPGGA,120440,2422.2892,N,08138.9009,W,1,11,1.4,14,M,,M,,*66
06/21/2015	12:04:40.589	$GPGGA,120441,2422.2881,N,08138.8996,W,1,11,1.4,14,M,,M,,*6B
06/21/2015	12:04:41.590	$GPGGA,120442,2422.2869,N,08138.8988,W,1,11,1.4,14,M,,M,,*61
06/21/2015	12:04:42.577	$GPGGA,120443,2422.2856,N,08138.8976,W,1,11,1.4,14,M,,M,,*6D
06/21/2015	12:04:43.599	$GPGGA,120444,2422.2845,N,08138.8962,W,1,11,1.4,14,M,,M,,*6D
06/21/2015	12:04:44.567	$GPGGA,120445,2422.2834,N,08138.8951,W,1,11,1.4,14,M,,M,,*6A
06/21/2015	12:04:45.589	$GPGGA,120446,2422.2820,N,08138.8941,W,1,11,1.4,14,M,,M,,*6D
06/21/2015	12:04:46.577	$GPGGA,120447,2422.2809,N,08138.8928,W,1,11,1.4,14,M,,M,,*68
06/21/2015	12:04:47.589	$GPGGA,120448,2422.2799,N,08138.8916,W,1,11,1.4,14,M,,M,,*6C
06/21/2015	12:04:48.557	$GPGGA,120449,2422.2787,N,08138.8905,W,1,11,1.4,14,M,,M,,*60
06/21/2015	12:04:49.597	$GPGGA,120450,2422.2774,N,08138.8894,W,1,11,1.4,14,M,,M,,*6D
06/21/2015	12:04:50.547	$GPGGA,120451,2422.2763,N,08138.8881,W,1,11,1.4,14,M,,M,,*6E
06/21/2015	12:04:51.592	$GPGGA,120452,2422.2752,N,08138.8868,W,1,11,1.4,14,M,,M,,*68
06/21/2015	12:04:52.547	$GPGGA,120453,2422.2741,N,08138.8858,W,1,11,1.4,13,M,,M,,*6F
06/21/2015	12:04:53.557	$GPGGA,120454,2422.2728,N,08138.8846,W,1,11,1.4,13,M,,M,,*68
06/21/2015	12:04:54.547	$GPGGA,120455,2422.2717,N,08138.8833,W,1,11,1.4,13,M,,M,,*67
06/21/2015	12:04:55.547	$GPGGA,120456,2422.2706,N,08138.8822,W,1,11,1.4,13,M,,M,,*64
06/21/2015	12:04:56.537	$GPGGA,120457,2422.2694,N,08138.8810,W,1,11,1.4,13,M,,M,,*6E
06/21/2015	12:04:57.557	$GPGGA,120458,2422.2682,N,08138.8798,W,1,11,1.4,13,M,,M,,*69
06/21/2015	12:04:58.537	$GPGGA,120459,2422.2670,N,08138.8785,W,1,11,1.4,13,M,,M,,*69
06/21/2015	12:04:59.557	$GPGGA,120500,2422.2658,N,08138.8774,W,1,11,1.4,13,M,,M,,*60
06/21/2015	12:05:00.537	$GPGGA,120501,2422.2646,N,08138.8762,W,1,11,1.4,13,M,,M,,*69
06/21/2015	12:05:01.547	$GPGGA,120502,2422.2634,N,08138.8749,W,1,10,1.6,13,M,,M,,*65
06/21/2015	12:05:02.537	$GPGGA,120503,2422.2622,N,08138.8737,W,1,10,1.4,13,M,,M,,*68
06/21/2015	12:05:03.537	$GPGGA,120504,2422.2610,N,08138.8726,W,1,11,1.4,13,M,,M,,*6F
06/21/2015	12:05:04.527	$GPGGA,120505,2422.2598,N,08138.8714,W,1,11,1.4,13,M,,M,,*6C
06/21/2015	12:05:05.537	$GPGGA,120506,2422.2586,N,08138.8701,W,1,11,1.4,13,M,,M,,*64
06/21/2015	12:05:06.527	$GPGGA,120507,2422.2574,N,08138.8691,W,1,11,1.4,13,M,,M,,*60
06/21/2015	12:05:07.547	$GPGGA,120508,2422.2560,N,08138.8681,W,1,11,1.4,13,M,,M,,*6B
06/21/2015	12:05:08.616	$GPGGA,120509,2422.2549,N,08138.8668,W,1,11,1.4,13,M,,M,,*66
06/21/2015	12:05:09.627	$GPGGA,120510,2422.2536,N,08138.8655,W,1,11,1.4,13,M,,M,,*68
06/21/2015	12:05:10.527	$GPGGA,120511,2422.2524,N,08138.8644,W,1,11,1.4,13,M,,M,,*6A
06/21/2015	12:05:11.527	$GPGGA,120512,2422.2511,N,08138.8632,W,1,11,1.4,13,M,,M,,*6E
06/21/2015	12:05:12.600	$GPGGA,120513,2422.2500,N,08138.8619,W,1,11,1.4,13,M,,M,,*66
06/21/2015	12:05:13.537	$GPGGA,120514,2422.2488,N,08138.8605,W,1,11,1.4,13,M,,M,,*6D
06/21/2015	12:05:14.517	$GPGGA,120515,2422.2475,N,08138.8593,W,1,11,1.4,13,M,,M,,*62
06/21/2015	12:05:15.517	$GPGGA,120516,2422.2463,N,08138.8582,W,1,11,1.4,13,M,,M,,*66
06/21/2015	12:05:16.597	$GPGGA,120517,2422.2450,N,08138.8570,W,1,11,1.4,13,M,,M,,*6A
06/21/2015	12:05:17.617	$GPGGA,120518,2422.2437,N,08138.8558,W,1,11,1.4,13,M,,M,,*6E
06/21/2015	12:05:18.517	$GPGGA,120519,2422.2426,N,08138.8546,W,1,11,1.4,13,M,,M,,*60
06/21/2015	12:05:19.499	$GPGGA,120520,2422.2415,N,08138.8535,W,1,11,1.4,13,M,,M,,*6E
06/21/2015	12:05:20.591	$GPGGA,120521,2422.2401,N,08138.8522,W,1,11,1.4,13,M,,M,,*6C
06/21/2015	12:05:21.497	$GPGGA,120522,2422.2388,N,08138.8511,W,1,11,1.4,13,M,,M,,*69
06/21/2015	12:05:22.594	$GPGGA,120523,2422.2377,N,08138.8499,W,1,11,1.4,13,M,,M,,*69
06/21/2015	12:05:23.507	$GPGGA,120524,2422.2365,N,08138.8488,W,1,11,1.4,13,M,,M,,*6D
06/21/2015	12:05:24.587	$GPGGA,120525,2422.2351,N,08138.8477,W,1,11,1.4,13,M,,M,,*6B
06/21/2015	12:05:25.600	$GPGGA,120526,2422.2339,N,08138.8465,W,1,11,1.4,13,M,,M,,*65
06/21/2015	12:05:26.590	$GPGGA,120527,2422.2327,N,08138.8453,W,1,11,1.4,13,M,,M,,*6E
06/21/2015	12:05:27.589	$GPGGA,120528,2422.2314,N,08138.8441,W,1,11,1.4,13,M,,M,,*62
06/21/2015	12:05:28.577	$GPGGA,120529,2422.2303,N,08138.8429,W,1,11,1.4,13,M,,M,,*6B
06/21/2015	12:05:29.597	$GPGGA,120530,2422.2289,N,08138.8417,W,1,11,1.4,13,M,,M,,*6D
06/21/2015	12:05:30.567	$GPGGA,120531,2422.2276,N,08138.8406,W,1,11,1.4,13,M,,M,,*6C
06/21/2015	12:05:31.627	$GPGGA,120532,2422.2265,N,08138.8395,W,1,11,1.4,13,M,,M,,*60
06/21/2015	12:05:32.577	$GPGGA,120533,2422.2253,N,08138.8382,W,1,11,1.4,13,M,,M,,*62
06/21/2015	12:05:33.588	$GPGGA,120534,2422.2239,N,08138.8370,W,1,11,1.4,13,M,,M,,*64
06/21/2015	12:05:34.567	$GPGGA,120535,2422.2227,N,08138.8360,W,1,11,1.4,13,M,,M,,*6B
06/21/2015	12:05:35.590	$GPGGA,120536,2422.2214,N,08138.8348,W,1,11,1.4,13,M,,M,,*62
06/21/2015	12:05:36.567	$GPGGA,120537,2422.2202,N,08138.8335,W,1,11,1.4,13,M,,M,,*6E
06/21/2015	12:05:37.567	$GPGGA,120538,2422.2191,N,08138.8323,W,1,11,1.4,13,M,,M,,*6F
06/21/2015	12:05:38.557	$GPGGA,120539,2422.2177,N,08138.8313,W,1,11,1.4,13,M,,M,,*65
06/21/2015	12:05:39.591	$GPGGA,120540,2422.2166,N,08138.8301,W,1,11,1.4,13,M,,M,,*68
06/21/2015	12:05:40.557	$GPGGA,120541,2422.2153,N,08138.8287,W,1,11,1.4,13,M,,M,,*60
06/21/2015	12:05:41.547	$GPGGA,120542,2422.2141,N,08138.8275,W,1,11,1.4,13,M,,M,,*6D
06/21/2015	12:05:42.567	$GPGGA,120543,2422.2128,N,08138.8266,W,1,11,1.4,13,M,,M,,*61
06/21/2015	12:05:43.576	$GPGGA,120544,2422.2116,N,08138.8254,W,1,11,1.4,13,M,,M,,*6A
06/21/2015	12:05:44.547	$GPGGA,120545,2422.2104,N,08138.8241,W,1,11,1.4,13,M,,M,,*6C
06/21/2015	12:05:45.537	$GPGGA,120546,2422.2092,N,08138.8229,W,1,11,1.4,13,M,,M,,*6F
06/21/2015	12:05:46.547	$GPGGA,120547,2422.2080,N,08138.8218,W,1,11,1.4,13,M,,M,,*6F
06/21/2015	12:05:47.547	$GPGGA,120548,2422.2067,N,08138.8206,W,1,11,1.4,13,M,,M,,*66
06/21/2015	12:05:48.547	$GPGGA,120549,2422.2055,N,08138.8194,W,1,11,1.4,13,M,,M,,*6E
06/21/2015	12:05:49.567	$GPGGA,120550,2422.2044,N,08138.8183,W,1,11,1.4,13,M,,M,,*60
06/21/2015	12:05:50.547	$GPGGA,120551,2422.2031,N,08138.8171,W,1,11,1.4,13,M,,M,,*6E
06/21/2015	12:05:51.537	$GPGGA,120552,2422.2018,N,08138.8159,W,1,11,1.4,13,M,,M,,*6C
06/21/2015	12:05:52.527	$GPGGA,120553,2422.2007,N,08138.8148,W,1,11,1.4,13,M,,M,,*63
06/21/2015	12:05:53.548	$GPGGA,120554,2422.1996,N,08138.8137,W,1,11,1.4,13,M,,M,,*6E
06/21/2015	12:05:54.527	$GPGGA,120555,2422.1982,N,08138.8124,W,1,11,1.4,13,M,,M,,*68
06/21/2015	12:05:55.547	$GPGGA,120556,2422.1971,N,08138.8111,W,1,11,1.4,13,M,,M,,*61
06/21/2015	12:05:56.527	$GPGGA,120557,2422.1960,N,08138.8101,W,1,11,1.4,13,M,,M,,*61
06/21/2015	12:05:57.527	$GPGGA,120558,2422.1947,N,08138.8089,W,1,11,1.4,13,M,,M,,*6A
06/21/2015	12:05:58.547	$GPGGA,120559,2422.1935,N,08138.8076,W,1,11,1.4,12,M,,M,,*6F
06/21/2015	12:05:59.567	$GPGGA,120600,2422.1924,N,08138.8064,W,1,11,1.4,12,M,,M,,*63
06/21/2015	12:06:00.615	$GPGGA,120601,2422.1913,N,08138.8052,W,1,11,1.4,12,M,,M,,*63
06/21/2015	12:06:01.501	$GPGGA,120602,2422.1902,N,08138.8040,W,1,11,1.4,12,M,,M,,*63
06/21/2015	12:06:02.627	$GPGGA,120603,2422.1889,N,08138.8029,W,1,11,1.4,12,M,,M,,*6F
06/21/2015	12:06:03.627	$GPGGA,120604,2422.1877,N,08138.8017,W,1,11,1.4,12,M,,M,,*64
06/21/2015	12:06:04.517	$GPGGA,120605,2422.1866,N,08138.8005,W,1,11,1.4,12,M,,M,,*66
06/21/2015	12:06:05.490	$GPGGA,120606,2422.1855,N,08138.7993,W,1,11,1.4,12,M,,M,,*6C
06/21/2015	12:06:06.591	$GPGGA,120607,2422.1842,N,08138.7981,W,1,11,1.4,12,M,,M,,*68
06/21/2015	12:06:07.627	$GPGGA,120608,2422.1830,N,08138.7971,W,1,11,1.4,12,M,,M,,*6D
06/21/2015	12:06:08.598	$GPGGA,120609,2422.1819,N,08138.7960,W,1,11,1.4,12,M,,M,,*67
06/21/2015	12:06:09.617	$GPGGA,120610,2422.1806,N,08138.7946,W,1,11,1.4,12,M,,M,,*65
06/21/2015	12:06:10.501	$GPGGA,120611,2422.1794,N,08138.7936,W,1,11,1.6,12,M,,M,,*65
06/21/2015	12:06:11.627	$GPGGA,120612,2422.1783,N,08138.7925,W,1,11,1.4,12,M,,M,,*60
06/21/2015	12:06:12.589	$GPGGA,120613,2422.1770,N,08138.7914,W,1,11,1.4,12,M,,M,,*6F
06/21/2015	12:06:13.607	$GPGGA,120614,2422.1758,N,08138.7901,W,1,11,1.4,12,M,,M,,*66
06/21/2015	12:06:14.577	$GPGGA,120615,2422.1747,N,08138.7889,W,1,11,1.4,12,M,,M,,*68
06/21/2015	12:06:15.610	$GPGGA,120616,2422.1734,N,08138.7878,W,1,11,1.4,12,M,,M,,*61
06/21/2015	12:06:16.577	$GPGGA,120617,2422.1722,N,08138.7868,W,1,11,1.4,12,M,,M,,*66
06/21/2015	12:06:17.600	$GPGGA,120618,2422.1709,N,08138.7856,W,1,11,1.4,12,M,,M,,*6D
06/21/2015	12:06:18.606	$GPGGA,120619,2422.1698,N,08138.7844,W,1,11,1.4,12,M,,M,,*66
06/21/2015	12:06:19.627	$GPGGA,120620,2422.1686,N,08138.7834,W,1,11,1.4,12,M,,M,,*64
06/21/2015	12:06:20.577	$GPGGA,120621,2422.1673,N,08138.7823,W,1,11,1.4,12,M,,M,,*69
06/21/2015	12:06:21.577	$GPGGA,120622,2422.1661,N,08138.7811,W,1,11,1.4,12,M,,M,,*68
06/21/2015	12:06:22.567	$GPGGA,120623,2422.1649,N,08138.7799,W,1,11,1.4,12,M,,M,,*6C
06/21/2015	12:06:23.601	$GPGGA,120624,2422.1636,N,08138.7788,W,1,11,1.4,12,M,,M,,*63
06/21/2015	12:06:24.567	$GPGGA,120625,2422.1624,N,08138.7776,W,1,11,1.4,12,M,,M,,*60
06/21/2015	12:06:25.567	$GPGGA,120626,2422.1613,N,08138.7763,W,1,11,1.4,12,M,,M,,*63
06/21/2015	12:06:26.557	$GPGGA,120627,2422.1599,N,08138.7752,W,1,11,1.4,12,M,,M,,*61
06/21/2015	12:06:27.595	$GPGGA,120628,2422.1585,N,08138.7741,W,1,11,1.4,12,M,,M,,*61
06/21/2015	12:06:28.547	$GPGGA,120629,2422.1573,N,08138.7729,W,1,11,1.4,12,M,,M,,*67
06/21/2015	12:06:29.577	$GPGGA,120630,2422.1561,N,08138.7715,W,1,11,1.4,12,M,,M,,*63
06/21/2015	12:06:30.557	$GPGGA,120631,2422.1548,N,08138.7704,W,1,11,1.4,12,M,,M,,*69
06/21/2015	12:06:31.557	$GPGGA,120632,2422.1535,N,08138.7693,W,1,11,1.4,12,M,,M,,*6F
06/21/2015	12:06:32.557	$GPGGA,120633,2422.1523,N,08138.7682,W,1,11,1.4,12,M,,M,,*69
06/21/2015	12:06:33.537	$GPGGA,120634,2422.1510,N,08138.7668,W,1,11,1.4,12,M,,M,,*6A
06/21/2015	12:06:34.547	$GPGGA,120635,2422.1497,N,08138.7656,W,1,11,1.4,12,M,,M,,*68
06/21/2015	12:06:35.557	$GPGGA,120636,2422.1484,N,08138.7645,W,1,11,1.4,12,M,,M,,*6B
06/21/2015	12:06:36.547	$GPGGA,120637,2422.1472,N,08138.7633,W,1,11,1.4,12,M,,M,,*62
06/21/2015	12:06:37.567	$GPGGA,120638,2422.1459,N,08138.7620,W,1,11,1.4,12,M,,M,,*66
06/21/2015	12:06:38.527	$GPGGA,120639,2422.1447,N,08138.7607,W,1,11,1.4,12,M,,M,,*6D
06/21/2015	12:06:39.577	$GPGGA,120640,2422.1434,N,08138.7597,W,1,11,1.4,12,M,,M,,*6D
06/21/2015	12:06:40.527	$GPGGA,120641,2422.1422,N,08138.7584,W,1,11,1.4,12,M,,M,,*69
06/21/2015	12:06:41.567	$GPGGA,120642,2422.1409,N,08138.7570,W,1,11,1.4,12,M,,M,,*68
06/21/2015	12:06:42.527	$GPGGA,120643,2422.1396,N,08138.7558,W,1,11,1.4,12,M,,M,,*62
06/21/2015	12:06:43.567	$GPGGA,120644,2422.1383,N,08138.7548,W,1,11,1.4,12,M,,M,,*60
06/21/2015	12:06:44.507	$GPGGA,120645,2422.1371,N,08138.7534,W,1,11,1.4,12,M,,M,,*67
06/21/2015	12:06:45.637	$GPGGA,120646,2422.1359,N,08138.7520,W,1,11,1.4,12,M,,M,,*6B
06/21/2015	12:06:46.527	$GPGGA,120647,2422.1346,N,08138.7509,W,1,11,1.4,12,M,,M,,*6F
06/21/2015	12:06:47.617	$GPGGA,120648,2422.1333,N,08138.7497,W,1,11,1.4,12,M,,M,,*64
06/21/2015	12:06:48.507	$GPGGA,120649,2422.1321,N,08138.7483,W,1,11,1.4,12,M,,M,,*63
06/21/2015	12:06:49.507	$GPGGA,120650,2422.1310,N,08138.7470,W,1,11,1.4,12,M,,M,,*65
06/21/2015	12:06:50.600	$GPGGA,120651,2422.1296,N,08138.7459,W,1,11,1.4,12,M,,M,,*60
06/21/2015	12:06:51.647	$GPGGA,120652,2422.1283,N,08138.7447,W,1,11,1.4,12,M,,M,,*68
06/21/2015	12:06:52.517	$GPGGA,120653,2422.1271,N,08138.7433,W,1,11,1.4,12,M,,M,,*67
06/21/2015	12:06:53.616	$GPGGA,120654,2422.1259,N,08138.7419,W,1,11,1.4,12,M,,M,,*62
06/21/2015	12:06:54.603	$GPGGA,120655,2422.1246,N,08138.7407,W,1,11,1.4,12,M,,M,,*62
06/21/2015	12:06:55.637	$GPGGA,120656,2422.1234,N,08138.7396,W,1,11,1.4,12,M,,M,,*6B
06/21/2015	12:06:56.611	$GPGGA,120657,2422.1223,N,08138.7382,W,1,11,1.4,12,M,,M,,*69
06/21/2015	12:06:57.597	$GPGGA,120658,2422.1209,N,08138.7369,W,1,11,1.4,12,M,,M,,*6B
06/21/2015	12:06:58.595	$GPGGA,120659,2422.1196,N,08138.7358,W,1,11,1.4,12,M,,M,,*6D
06/21/2015	12:06:59.607	$GPGGA,120700,2422.1183,N,08138.7347,W,1,11,1.4,12,M,,M,,*6A
06/21/2015	12:07:00.587	$GPGGA,120701,2422.1170,N,08138.7332,W,1,11,1.4,12,M,,M,,*65
06/21/2015	12:07:01.587	$GPGGA,120702,2422.1158,N,08138.7319,W,1,11,1.4,12,M,,M,,*65
06/21/2015	12:07:02.577	$GPGGA,120703,2422.1145,N,08138.7308,W,1,11,1.4,12,M,,M,,*68
06/21/2015	12:07:03.617	$GPGGA,120704,2422.1133,N,08138.7296,W,1,11,1.4,12,M,,M,,*68
06/21/2015	12:07:04.577	$GPGGA,120705,2422.1120,N,08138.7283,W,1,11,1.4,12,M,,M,,*6F
06/21/2015	12:07:05.587	$GPGGA,120706,2422.1108,N,08138.7270,W,1,11,1.4,12,M,,M,,*6A
06/21/2015	12:07:06.567	$GPGGA,120707,2422.1095,N,08138.7257,W,1,11,1.4,12,M,,M,,*6B
06/21/2015	12:07:07.589	$GPGGA,120708,2422.1082,N,08138.7246,W,1,11,1.4,12,M,,M,,*62
06/21/2015	12:07:08.567	$GPGGA,120709,2422.1070,N,08138.7232,W,1,11,1.4,12,M,,M,,*6D
06/21/2015	12:07:09.590	$GPGGA,120710,2422.1057,N,08138.7219,W,1,11,1.4,12,M,,M,,*69
06/21/2015	12:07:10.567	$GPGGA,120711,2422.1044,N,08138.7207,W,1,11,1.4,12,M,,M,,*65
06/21/2015	12:07:11.587	$GPGGA,120712,2422.1032,N,08138.7195,W,1,11,1.4,12,M,,M,,*6F
06/21/2015	12:07:12.567	$GPGGA,120713,2422.1019,N,08138.7182,W,1,11,1.4,12,M,,M,,*61
06/21/2015	12:07:13.557	$GPGGA,120714,2422.1006,N,08138.7171,W,1,11,1.4,12,M,,M,,*64
06/21/2015	12:07:14.567	$GPGGA,120715,2422.0993,N,08138.7159,W,1,11,1.4,12,M,,M,,*6B
06/21/2015	12:07:15.567	$GPGGA,120716,2422.0981,N,08138.7145,W,1,11,1.4,12,M,,M,,*66
06/21/2015	12:07:16.557	$GPGGA,120717,2422.0968,N,08138.7134,W,1,11,1.4,12,M,,M,,*66
06/21/2015	12:07:17.547	$GPGGA,120718,2422.0956,N,08138.7122,W,1,11,1.4,12,M,,M,,*63
06/21/2015	12:07:18.557	$GPGGA,120719,2422.0942,N,08138.7108,W,1,11,1.4,12,M,,M,,*6F
06/21/2015	12:07:19.557	$GPGGA,120720,2422.0930,N,08138.7096,W,1,11,1.4,12,M,,M,,*66
06/21/2015	12:07:20.547	$GPGGA,120721,2422.0917,N,08138.7085,W,1,11,1.4,12,M,,M,,*60
06/21/2015	12:07:21.537	$GPGGA,120722,2422.0905,N,08138.7073,W,1,11,1.4,12,M,,M,,*69
06/21/2015	12:07:22.557	$GPGGA,120723,2422.0892,N,08138.7060,W,1,11,1.4,12,M,,M,,*65
06/21/2015	12:07:23.547	$GPGGA,120724,2422.0880,N,08138.7049,W,1,11,1.4,12,M,,M,,*6A
06/21/2015	12:07:24.527	$GPGGA,120725,2422.0866,N,08138.7037,W,1,11,1.4,12,M,,M,,*6A
06/21/2015	12:07:25.537	$GPGGA,120726,2422.0853,N,08138.7024,W,1,11,1.4,12,M,,M,,*6D
06/21/2015	12:07:26.537	$GPGGA,120727,2422.0841,N,08138.7012,W,1,11,1.4,12,M,,M,,*6A
06/21/2015	12:07:27.547	$GPGGA,120728,2422.0827,N,08138.7000,W,1,11,1.4,11,M,,M,,*65
06/21/2015	12:07:28.536	$GPGGA,120729,2422.0815,N,08138.6989,W,1,11,1.4,11,M,,M,,*6C
06/21/2015	12:07:29.527	$GPGGA,120730,2422.0802,N,08138.6976,W,1,11,1.4,11,M,,M,,*62
06/21/2015	12:07:30.517	$GPGGA,120731,2422.0789,N,08138.6964,W,1,11,1.4,11,M,,M,,*6C
06/21/2015	12:07:31.677	$GPGGA,120732,2422.0776,N,08138.6953,W,1,11,1.4,11,M,,M,,*6B
06/21/2015	12:07:32.517	$GPGGA,120733,2422.0764,N,08138.6941,W,1,11,1.4,11,M,,M,,*6A
06/21/2015	12:07:33.617	$GPGGA,120734,2422.0751,N,08138.6928,W,1,11,1.4,11,M,,M,,*64
06/21/2015	12:07:34.637	$GPGGA,120735,2422.0739,N,08138.6916,W,1,11,1.4,11,M,,M,,*66
06/21/2015	12:07:35.647	$GPGGA,120736,2422.0724,N,08138.6905,W,1,11,1.4,11,M,,M,,*6B
06/21/2015	12:07:37.677	$GPGGA,120738,2422.0700,N,08138.6879,W,1,11,1.4,11,M,,M,,*69
06/21/2015	12:07:38.504	$GPGGA,120739,2422.0687,N,08138.6868,W,1,11,1.4,11,M,,M,,*66
06/21/2015	12:07:39.627	$GPGGA,120740,2422.0674,N,08138.6857,W,1,11,1.4,11,M,,M,,*68
06/21/2015	12:07:40.517	$GPGGA,120741,2422.0661,N,08138.6843,W,1,11,1.4,11,M,,M,,*68
06/21/2015	12:07:41.617	$GPGGA,120742,2422.0649,N,08138.6831,W,1,11,1.4,11,M,,M,,*64
06/21/2015	12:07:42.595	$GPGGA,120743,2422.0638,N,08138.6820,W,1,11,1.4,11,M,,M,,*63
06/21/2015	12:07:43.617	$GPGGA,120744,2422.0624,N,08138.6808,W,1,11,1.4,11,M,,M,,*63
06/21/2015	12:07:44.497	$GPGGA,120745,2422.0611,N,08138.6795,W,1,11,1.4,11,M,,M,,*6F
06/21/2015	12:07:45.495	$GPGGA,120746,2422.0599,N,08138.6784,W,1,10,1.6,11,M,,M,,*6C
06/21/2015	12:07:46.601	$GPGGA,120747,2422.0587,N,08138.6772,W,1,10,1.4,11,M,,M,,*69
06/21/2015	12:07:47.617	$GPGGA,120748,2422.0573,N,08138.6760,W,1,11,1.4,11,M,,M,,*6F
06/21/2015	12:07:48.577	$GPGGA,120749,2422.0563,N,08138.6748,W,1,11,1.4,11,M,,M,,*65
06/21/2015	12:07:49.607	$GPGGA,120750,2422.0551,N,08138.6737,W,1,11,1.4,11,M,,M,,*64
06/21/2015	12:07:50.591	$GPGGA,120751,2422.0537,N,08138.6726,W,1,11,1.4,11,M,,M,,*65
06/21/2015	12:07:51.627	$GPGGA,120752,2422.0526,N,08138.6714,W,1,11,1.4,11,M,,M,,*67
06/21/2015	12:07:52.592	$GPGGA,120753,2422.0513,N,08138.6702,W,1,11,1.4,11,M,,M,,*67
06/21/2015	12:07:53.594	$GPGGA,120754,2422.0501,N,08138.6690,W,1,11,1.4,11,M,,M,,*69
06/21/2015	12:07:54.577	$GPGGA,120755,2422.0490,N,08138.6679,W,1,11,1.4,11,M,,M,,*66
06/21/2015	12:07:55.600	$GPGGA,120756,2422.0477,N,08138.6668,W,1,11,1.4,11,M,,M,,*6C
06/21/2015	12:07:56.568	$GPGGA,120757,2422.0465,N,08138.6656,W,1,11,1.4,11,M,,M,,*63
06/21/2015	12:07:57.587	$GPGGA,120758,2422.0453,N,08138.6644,W,1,11,1.4,11,M,,M,,*6A
06/21/2015	12:07:58.567	$GPGGA,120759,2422.0441,N,08138.6631,W,1,11,1.4,11,M,,M,,*6A
06/21/2015	12:07:59.627	$GPGGA,120800,2422.0428,N,08138.6620,W,1,11,1.4,11,M,,M,,*66
06/21/2015	12:08:00.567	$GPGGA,120801,2422.0415,N,08138.6609,W,1,11,1.4,11,M,,M,,*62
06/21/2015	12:08:01.547	$GPGGA,120802,2422.0403,N,08138.6595,W,1,11,1.4,11,M,,M,,*60
06/21/2015	12:08:02.567	$GPGGA,120803,2422.0392,N,08138.6582,W,1,11,1.4,11,M,,M,,*68
06/21/2015	12:08:03.593	$GPGGA,120804,2422.0379,N,08138.6571,W,1,11,1.4,11,M,,M,,*66
06/21/2015	12:08:04.557	$GPGGA,120805,2422.0367,N,08138.6559,W,1,11,1.4,12,M,,M,,*61
06/21/2015	12:08:05.537	$GPGGA,120806,2422.0356,N,08138.6545,W,1,11,1.4,12,M,,M,,*6D
06/21/2015	12:08:06.547	$GPGGA,120807,2422.0342,N,08138.6535,W,1,11,1.4,12,M,,M,,*6E
06/21/2015	12:08:07.557	$GPGGA,120808,2422.0331,N,08138.6524,W,1,11,1.4,12,M,,M,,*65
06/21/2015	12:08:08.547	$GPGGA,120809,2422.0318,N,08138.6509,W,1,11,1.4,12,M,,M,,*60
06/21/2015	12:08:10.567	$GPGGA,120811,2422.0294,N,08138.6488,W,1,11,1.4,12,M,,M,,*64
06/21/2015	12:08:11.567	$GPGGA,120812,2422.0281,N,08138.6475,W,1,11,1.4,12,M,,M,,*61
06/21/2015	12:08:12.557	$GPGGA,120813,2422.0269,N,08138.6461,W,1,11,1.4,12,M,,M,,*63
06/21/2015	12:08:13.557	$GPGGA,120814,2422.0258,N,08138.6451,W,1,11,1.4,12,M,,M,,*65
06/21/2015	12:08:14.547	$GPGGA,120815,2422.0245,N,08138.6441,W,1,11,1.4,12,M,,M,,*69
06/21/2015	12:08:15.596	$GPGGA,120816,2422.0233,N,08138.6427,W,1,11,1.4,12,M,,M,,*6B
06/21/2015	12:08:16.537	$GPGGA,120817,2422.0222,N,08138.6415,W,1,11,1.4,12,M,,M,,*6B
06/21/2015	12:08:17.547	$GPGGA,120818,2422.0210,N,08138.6405,W,1,11,1.4,12,M,,M,,*64
06/21/2015	12:08:18.517	$GPGGA,120819,2422.0198,N,08138.6393,W,1,11,1.4,12,M,,M,,*6E
06/21/2015	12:08:19.557	$GPGGA,120820,2422.0187,N,08138.6380,W,1,11,1.4,12,M,,M,,*68
06/21/2015	12:08:20.527	$GPGGA,120821,2422.0176,N,08138.6369,W,1,11,1.4,12,M,,M,,*60
06/21/2015	12:08:21.637	$GPGGA,120822,2422.0163,N,08138.6357,W,1,11,1.4,12,M,,M,,*6A
06/21/2015	12:08:22.527	$GPGGA,120823,2422.0151,N,08138.6345,W,1,11,1.4,12,M,,M,,*69
06/21/2015	12:08:23.617	$GPGGA,120824,2422.0141,N,08138.6334,W,1,11,1.4,12,M,,M,,*69
06/21/2015	12:08:24.627	$GPGGA,120825,2422.0128,N,08138.6321,W,1,11,1.4,12,M,,M,,*63
06/21/2015	12:08:25.637	$GPGGA,120826,2422.0116,N,08138.6310,W,1,11,1.4,12,M,,M,,*6F
06/21/2015	12:08:26.507	$GPGGA,120827,2422.0105,N,08138.6299,W,1,11,1.4,12,M,,M,,*6C
06/21/2015	12:08:27.567	$GPGGA,120828,2422.0094,N,08138.6287,W,1,11,1.4,12,M,,M,,*65
06/21/2015	12:08:28.599	$GPGGA,120829,2422.0081,N,08138.6274,W,1,11,1.4,12,M,,M,,*6C
06/21/2015	12:08:29.517	$GPGGA,120830,2422.0070,N,08138.6263,W,1,11,1.4,12,M,,M,,*6C
06/21/2015	12:08:30.599	$GPGGA,120831,2422.0058,N,08138.6254,W,1,11,1.4,12,M,,M,,*63
06/21/2015	12:08:31.637	$GPGGA,120832,2422.0046,N,08138.6243,W,1,11,1.4,12,M,,M,,*69
06/21/2015	12:08:32.598	$GPGGA,120833,2422.0036,N,08138.6229,W,1,11,1.4,12,M,,M,,*63
06/21/2015	12:08:33.627	$GPGGA,120834,2422.0025,N,08138.6219,W,1,11,1.4,12,M,,M,,*65
06/21/2015	12:08:34.589	$GPGGA,120835,2422.0013,N,08138.6210,W,1,11,1.4,12,M,,M,,*68
06/21/2015	12:08:35.607	$GPGGA,120836,2422.0002,N,08138.6198,W,1,11,1.4,12,M,,M,,*68
06/21/2015	12:08:36.588	$GPGGA,120837,2421.9991,N,08138.6185,W,1,11,1.4,12,M,,M,,*6C
06/21/2015	12:08:37.595	$GPGGA,120838,2421.9980,N,08138.6174,W,1,11,1.4,12,M,,M,,*6D
06/21/2015	12:08:38.577	$GPGGA,120839,2421.9967,N,08138.6163,W,1,11,1.4,12,M,,M,,*63
06/21/2015	12:08:39.607	$GPGGA,120840,2421.9956,N,08138.6152,W,1,11,1.4,12,M,,M,,*6D
06/21/2015	12:08:40.600	$GPGGA,120841,2421.9944,N,08138.6140,W,1,11,1.4,12,M,,M,,*6C
06/21/2015	12:08:41.591	$GPGGA,120842,2421.9932,N,08138.6129,W,1,11,1.4,12,M,,M,,*61
06/21/2015	12:08:42.567	$GPGGA,120843,2421.9921,N,08138.6118,W,1,11,1.4,11,M,,M,,*63
06/21/2015	12:08:43.608	$GPGGA,120844,2421.9909,N,08138.6106,W,1,11,1.4,11,M,,M,,*61
06/21/2015	12:08:44.577	$GPGGA,120845,2421.9897,N,08138.6095,W,1,11,1.4,11,M,,M,,*6D
06/21/2015	12:08:45.557	$GPGGA,120846,2421.9885,N,08138.6084,W,1,11,1.4,11,M,,M,,*6D
06/21/2015	12:08:46.567	$GPGGA,120847,2421.9873,N,08138.6071,W,1,11,1.4,11,M,,M,,*6F
06/21/2015	12:08:47.604	$GPGGA,120848,2421.9861,N,08138.6060,W,1,10,1.6,11,M,,M,,*60
06/21/2015	12:08:48.567	$GPGGA,120849,2421.9850,N,08138.6050,W,1,10,1.4,11,M,,M,,*62
06/21/2015	12:08:49.577	$GPGGA,120850,2421.9837,N,08138.6039,W,1,11,1.4,11,M,,M,,*65
06/21/2015	12:08:50.567	$GPGGA,120851,2421.9837,N,08138.6039,W,1,11,1.4,11,M,,M,,*64
06/21/2015	12:08:51.603	$GPGGA,120852,2421.9814,N,08138.6014,W,1,11,1.4,11,M,,M,,*69
06/21/2015	12:08:52.557	$GPGGA,120853,2421.9801,N,08138.6004,W,1,11,1.4,11,M,,M,,*6D
06/21/2015	12:08:53.557	$GPGGA,120854,2421.9789,N,08138.5993,W,1,11,1.4,11,M,,M,,*61
06/21/2015	12:08:54.537	$GPGGA,120855,2421.9778,N,08138.5981,W,1,11,1.4,11,M,,M,,*6D
06/21/2015	12:08:55.567	$GPGGA,120856,2421.9765,N,08138.5970,W,1,11,1.4,11,M,,M,,*6C
06/21/2015	12:08:56.557	$GPGGA,120857,2421.9753,N,08138.5959,W,1,11,1.4,11,M,,M,,*63
06/21/2015	12:08:57.567	$GPGGA,120858,2421.9742,N,08138.5947,W,1,11,1.4,11,M,,M,,*63
06/21/2015	12:08:58.547	$GPGGA,120859,2421.9728,N,08138.5937,W,1,11,1.4,11,M,,M,,*69
06/21/2015	12:08:59.557	$GPGGA,120900,2421.9716,N,08138.5925,W,1,11,1.4,11,M,,M,,*6A
06/21/2015	12:09:00.527	$GPGGA,120901,2421.9704,N,08138.5913,W,1,11,1.4,11,M,,M,,*6D
06/21/2015	12:09:01.537	$GPGGA,120902,2421.9692,N,08138.5901,W,1,11,1.4,12,M,,M,,*60
06/21/2015	12:09:02.537	$GPGGA,120903,2421.9679,N,08138.5890,W,1,11,1.4,12,M,,M,,*6D
06/21/2015	12:09:03.647	$GPGGA,120904,2421.9667,N,08138.5880,W,1,11,1.4,12,M,,M,,*64
06/21/2015	12:09:04.527	$GPGGA,120905,2421.9655,N,08138.5866,W,1,11,1.4,12,M,,M,,*6C
06/21/2015	12:09:05.617	$GPGGA,120906,2421.9644,N,08138.5853,W,1,11,1.4,12,M,,M,,*69
06/21/2015	12:09:06.514	$GPGGA,120907,2421.9631,N,08138.5842,W,1,11,1.4,12,M,,M,,*6A
06/21/2015	12:09:07.527	$GPGGA,120908,2421.9619,N,08138.5832,W,1,11,1.4,12,M,,M,,*68
06/21/2015	12:09:08.507	$GPGGA,120909,2421.9606,N,08138.5819,W,1,11,1.4,12,M,,M,,*6E
06/21/2015	12:09:09.627	$GPGGA,120910,2421.9594,N,08138.5806,W,1,11,1.4,12,M,,M,,*60
06/21/2015	12:09:10.517	$GPGGA,120911,2421.9581,N,08138.5796,W,1,11,1.4,12,M,,M,,*63
06/21/2015	12:09:11.637	$GPGGA,120912,2421.9568,N,08138.5786,W,1,11,1.4,12,M,,M,,*66
06/21/2015	12:09:12.517	$GPGGA,120913,2421.9556,N,08138.5774,W,1,11,1.4,12,M,,M,,*67
06/21/2015	12:09:13.616	$GPGGA,120914,2421.9544,N,08138.5760,W,1,11,1.4,12,M,,M,,*66
06/21/2015	12:09:14.516	$GPGGA,120915,2421.9532,N,08138.5749,W,1,11,1.4,12,M,,M,,*6D
06/21/2015	12:09:15.636	$GPGGA,120916,2421.9519,N,08138.5739,W,1,11,1.4,12,M,,M,,*60
06/21/2015	12:09:16.596	$GPGGA,120917,2421.9507,N,08138.5727,W,1,11,1.4,12,M,,M,,*61
06/21/2015	12:09:17.580	$GPGGA,120918,2421.9496,N,08138.5714,W,1,10,1.6,12,M,,M,,*64
06/21/2015	12:09:18.488	$GPGGA,120919,2421.9483,N,08138.5703,W,1,10,1.4,12,M,,M,,*65
06/21/2015	12:09:19.588	$GPGGA,120920,2421.9471,N,08138.5694,W,1,11,1.4,12,M,,M,,*6C
06/21/2015	12:09:20.578	$GPGGA,120921,2421.9457,N,08138.5682,W,1,11,1.4,12,M,,M,,*6E
06/21/2015	12:09:21.606	$GPGGA,120922,2421.9446,N,08138.5669,W,1,11,1.4,12,M,,M,,*68
06/21/2015	12:09:22.581	$GPGGA,120923,2421.9435,N,08138.5658,W,1,11,1.4,12,M,,M,,*6F
06/21/2015	12:09:23.592	$GPGGA,120924,2421.9421,N,08138.5647,W,1,11,1.4,12,M,,M,,*63
06/21/2015	12:09:24.577	$GPGGA,120925,2421.9409,N,08138.5636,W,1,11,1.4,12,M,,M,,*6E
06/21/2015	12:09:25.587	$GPGGA,120926,2421.9397,N,08138.5623,W,1,11,1.4,12,M,,M,,*69
06/21/2015	12:09:26.578	$GPGGA,120927,2421.9384,N,08138.5611,W,1,11,1.4,12,M,,M,,*6B
06/21/2015	12:09:27.581	$GPGGA,120928,2421.9372,N,08138.5601,W,1,11,1.4,12,M,,M,,*6C
06/21/2015	12:09:28.557	$GPGGA,120929,2421.9360,N,08138.5588,W,1,11,1.4,12,M,,M,,*6C
06/21/2015	12:09:29.587	$GPGGA,120930,2421.9348,N,08138.5574,W,1,11,1.4,12,M,,M,,*6D
06/21/2015	12:09:30.567	$GPGGA,120931,2421.9337,N,08138.5563,W,1,11,1.6,12,M,,M,,*60
06/21/2015	12:09:31.589	$GPGGA,120932,2421.9324,N,08138.5552,W,1,11,1.4,12,M,,M,,*61
06/21/2015	12:09:32.556	$GPGGA,120933,2421.9312,N,08138.5540,W,1,11,1.4,13,M,,M,,*67
06/21/2015	12:09:33.577	$GPGGA,120934,2421.9299,N,08138.5527,W,1,11,1.4,13,M,,M,,*63
06/21/2015	12:09:34.556	$GPGGA,120935,2421.9287,N,08138.5516,W,1,11,1.4,13,M,,M,,*6F
06/21/2015	12:09:36.586	$GPGGA,120937,2421.9263,N,08138.5493,W,1,11,1.4,13,M,,M,,*6B
06/21/2015	12:09:37.566	$GPGGA,120938,2421.9251,N,08138.5481,W,1,11,1.4,13,M,,M,,*66
06/21/2015	12:09:38.556	$GPGGA,120939,2421.9240,N,08138.5469,W,1,11,1.4,13,M,,M,,*61
06/21/2015	12:09:39.556	$GPGGA,120940,2421.9227,N,08138.5458,W,1,11,1.4,13,M,,M,,*6C
06/21/2015	12:09:40.546	$GPGGA,120941,2421.9215,N,08138.5446,W,1,11,1.4,13,M,,M,,*63
06/21/2015	12:09:41.537	$GPGGA,120942,2421.9202,N,08138.5433,W,1,11,1.4,13,M,,M,,*64
06/21/2015	12:09:42.547	$GPGGA,120943,2421.9191,N,08138.5421,W,1,11,1.4,13,M,,M,,*6F
06/21/2015	12:09:43.547	$GPGGA,120944,2421.9178,N,08138.5409,W,1,11,1.4,13,M,,M,,*65
06/21/2015	12:09:44.527	$GPGGA,120945,2421.9166,N,08138.5396,W,1,11,1.4,13,M,,M,,*6A
06/21/2015	12:09:45.557	$GPGGA,120946,2421.9154,N,08138.5383,W,1,11,1.4,13,M,,M,,*6C
06/21/2015	12:09:46.527	$GPGGA,120947,2421.9142,N,08138.5372,W,1,11,1.4,13,M,,M,,*64
06/21/2015	12:09:47.537	$GPGGA,120948,2421.9130,N,08138.5360,W,1,11,1.4,13,M,,M,,*6D
06/21/2015	12:09:48.526	$GPGGA,120949,2421.9117,N,08138.5347,W,1,11,1.4,13,M,,M,,*6C
06/21/2015	12:09:49.516	$GPGGA,120950,2421.9106,N,08138.5334,W,1,11,1.4,13,M,,M,,*60
06/21/2015	12:09:50.536	$GPGGA,120951,2421.9093,N,08138.5322,W,1,11,1.4,13,M,,M,,*6B
06/21/2015	12:09:51.546	$GPGGA,120952,2421.9081,N,08138.5310,W,1,11,1.4,13,M,,M,,*6A
06/21/2015	12:09:52.506	$GPGGA,120953,2421.9070,N,08138.5298,W,1,11,1.4,13,M,,M,,*64
06/21/2015	12:09:53.516	$GPGGA,120954,2421.9056,N,08138.5286,W,1,11,1.4,13,M,,M,,*68
06/21/2015	12:09:54.516	$GPGGA,120955,2421.9044,N,08138.5273,W,1,11,1.4,13,M,,M,,*60
06/21/2015	12:09:55.616	$GPGGA,120956,2421.9034,N,08138.5261,W,1,11,1.4,13,M,,M,,*67
06/21/2015	12:09:56.516	$GPGGA,120957,2421.9020,N,08138.5250,W,1,11,1.4,13,M,,M,,*61
06/21/2015	12:09:57.606	$GPGGA,120958,2421.9008,N,08138.5238,W,1,11,1.4,13,M,,M,,*6A
06/21/2015	12:09:58.496	$GPGGA,120959,2421.8996,N,08138.5225,W,1,11,1.4,13,M,,M,,*68
06/21/2015	12:09:59.517	$GPGGA,121000,2421.8983,N,08138.5214,W,1,11,1.4,13,M,,M,,*6A
06/21/2015	12:10:00.597	$GPGGA,121001,2421.8971,N,08138.5202,W,1,11,1.6,13,M,,M,,*63
06/21/2015	12:10:01.607	$GPGGA,121002,2421.8959,N,08138.5188,W,1,11,1.4,13,M,,M,,*69
06/21/2015	12:10:02.597	$GPGGA,121003,2421.8947,N,08138.5176,W,1,11,1.4,13,M,,M,,*66
06/21/2015	12:10:03.599	$GPGGA,121004,2421.8934,N,08138.5166,W,1,11,1.4,13,M,,M,,*64
06/21/2015	12:10:04.498	$GPGGA,121005,2421.8922,N,08138.5154,W,1,11,1.4,13,M,,M,,*63
06/21/2015	12:10:05.592	$GPGGA,121006,2421.8909,N,08138.5140,W,1,11,1.4,13,M,,M,,*6C
06/21/2015	12:10:06.580	$GPGGA,121007,2421.8897,N,08138.5129,W,1,11,1.4,13,M,,M,,*64
06/21/2015	12:10:07.600	$GPGGA,121008,2421.8884,N,08138.5119,W,1,11,1.4,13,M,,M,,*6A
06/21/2015	12:10:08.596	$GPGGA,121009,2421.8872,N,08138.5107,W,1,11,1.4,13,M,,M,,*6D
06/21/2015	12:10:09.592	$GPGGA,121010,2421.8860,N,08138.5095,W,1,11,1.4,13,M,,M,,*6C
06/21/2015	12:10:10.590	$GPGGA,121011,2421.8847,N,08138.5082,W,1,11,1.4,12,M,,M,,*6F
06/21/2015	12:10:11.606	$GPGGA,121012,2421.8835,N,08138.5071,W,1,11,1.4,12,M,,M,,*65
06/21/2015	12:10:12.582	$GPGGA,121013,2421.8822,N,08138.5060,W,1,11,1.4,12,M,,M,,*62
06/21/2015	12:10:13.566	$GPGGA,121014,2421.8810,N,08138.5049,W,1,11,1.4,12,M,,M,,*6F
06/21/2015	12:10:14.576	$GPGGA,121015,2421.8797,N,08138.5037,W,1,11,1.4,12,M,,M,,*67
06/21/2015	12:10:15.596	$GPGGA,121016,2421.8785,N,08138.5024,W,1,11,1.4,12,M,,M,,*65
06/21/2015	12:10:16.557	$GPGGA,121017,2421.8773,N,08138.5013,W,1,11,1.4,12,M,,M,,*69
06/21/2015	12:10:17.580	$GPGGA,121018,2421.8760,N,08138.5003,W,1,11,1.4,12,M,,M,,*65
06/21/2015	12:10:18.558	$GPGGA,121019,2421.8747,N,08138.4992,W,1,11,1.4,12,M,,M,,*61
06/21/2015	12:10:19.557	$GPGGA,121020,2421.8736,N,08138.4979,W,1,11,1.4,12,M,,M,,*68
06/21/2015	12:10:20.557	$GPGGA,121021,2421.8723,N,08138.4967,W,1,11,1.4,12,M,,M,,*62
06/21/2015	12:10:21.581	$GPGGA,121022,2421.8710,N,08138.4958,W,1,10,1.6,12,M,,M,,*6E
06/21/2015	12:10:22.557	$GPGGA,121023,2421.8698,N,08138.4948,W,1,10,1.4,12,M,,M,,*6D
06/21/2015	12:10:23.590	$GPGGA,121024,2421.8687,N,08138.4935,W,1,11,1.4,12,M,,M,,*6F
06/21/2015	12:10:24.546	$GPGGA,121025,2421.8673,N,08138.4923,W,1,11,1.4,12,M,,M,,*62
06/21/2015	12:10:25.587	$GPGGA,121026,2421.8661,N,08138.4913,W,1,11,1.4,12,M,,M,,*61
06/21/2015	12:10:26.546	$GPGGA,121027,2421.8648,N,08138.4901,W,1,11,1.4,12,M,,M,,*68
06/21/2015	12:10:27.556	$GPGGA,121028,2421.8636,N,08138.4889,W,1,10,1.6,12,M,,M,,*6C
06/21/2015	12:10:28.526	$GPGGA,121029,2421.8623,N,08138.4879,W,1,10,1.4,12,M,,M,,*64
06/21/2015	12:10:29.526	$GPGGA,121030,2421.8611,N,08138.4868,W,1,11,1.4,12,M,,M,,*6C
06/21/2015	12:10:30.536	$GPGGA,121031,2421.8600,N,08138.4855,W,1,11,1.4,12,M,,M,,*63
06/21/2015	12:10:31.546	$GPGGA,121032,2421.8586,N,08138.4843,W,1,11,1.4,12,M,,M,,*6A
06/21/2015	12:10:32.526	$GPGGA,121033,2421.8575,N,08138.4833,W,1,11,1.4,12,M,,M,,*60
06/21/2015	12:10:33.536	$GPGGA,121034,2421.8561,N,08138.4821,W,1,11,1.4,12,M,,M,,*61
06/21/2015	12:10:34.537	$GPGGA,121035,2421.8549,N,08138.4807,W,1,11,1.4,12,M,,M,,*6E
06/21/2015	12:10:35.577	$GPGGA,121036,2421.8539,N,08138.4797,W,1,11,1.4,12,M,,M,,*6C
06/21/2015	12:10:36.527	$GPGGA,121037,2421.8525,N,08138.4786,W,1,11,1.4,12,M,,M,,*60
06/21/2015	12:10:37.517	$GPGGA,121038,2421.8513,N,08138.4774,W,1,11,1.4,12,M,,M,,*67
06/21/2015	12:10:38.527	$GPGGA,121039,2421.8503,N,08138.4761,W,1,11,1.6,12,M,,M,,*61
06/21/2015	12:10:39.617	$GPGGA,121040,2421.8490,N,08138.4750,W,1,11,1.4,13,M,,M,,*65
06/21/2015	12:10:40.607	$GPGGA,121041,2421.8478,N,08138.4740,W,1,11,1.4,13,M,,M,,*63
06/21/2015	12:10:41.696	$GPGGA,121042,2421.8466,N,08138.4730,W,1,11,1.4,13,M,,M,,*68
06/21/2015	12:10:42.906	$GPGGA,121043,2421.8454,N,08138.4718,W,1,11,1.4,13,M,,M,,*62
06/21/2015	12:10:43.706	$GPGGA,121044,2421.8442,N,08138.4707,W,1,11,1.4,13,M,,M,,*6C
06/21/2015	12:10:44.646	$GPGGA,121045,2421.8430,N,08138.4698,W,1,11,1.4,13,M,,M,,*6F
06/21/2015	12:10:45.687	$GPGGA,121046,2421.8417,N,08138.4686,W,1,11,1.4,13,M,,M,,*66
06/21/2015	12:10:46.596	$GPGGA,121047,2421.8406,N,08138.4672,W,1,11,1.4,13,M,,M,,*6C
06/21/2015	12:10:47.706	$GPGGA,121048,2421.8395,N,08138.4662,W,1,11,1.4,13,M,,M,,*6F
06/21/2015	12:10:48.526	$GPGGA,121049,2421.8382,N,08138.4651,W,1,11,1.4,13,M,,M,,*68
06/21/2015	12:10:49.506	$GPGGA,121050,2421.8370,N,08138.4638,W,1,10,1.6,13,M,,M,,*61
06/21/2015	12:10:50.589	$GPGGA,121051,2421.8360,N,08138.4623,W,1,10,1.4,13,M,,M,,*69
06/21/2015	12:10:51.507	$GPGGA,121052,2421.8347,N,08138.4612,W,1,11,1.4,13,M,,M,,*6C
06/21/2015	12:10:52.587	$GPGGA,121053,2421.8334,N,08138.4601,W,1,11,1.4,13,M,,M,,*6B
06/21/2015	12:10:53.689	$GPGGA,121054,2421.8323,N,08138.4587,W,1,10,1.6,13,M,,M,,*64
06/21/2015	12:10:54.607	$GPGGA,121055,2421.8312,N,08138.4573,W,1,10,1.4,13,M,,M,,*6E
06/21/2015	12:10:55.687	$GPGGA,121056,2421.8299,N,08138.4562,W,1,11,1.4,13,M,,M,,*6E
06/21/2015	12:10:56.582	$GPGGA,121057,2421.8287,N,08138.4552,W,1,11,1.4,13,M,,M,,*63
06/21/2015	12:10:57.680	$GPGGA,121058,2421.8275,N,08138.4540,W,1,11,1.4,13,M,,M,,*62
06/21/2015	12:10:58.596	$GPGGA,121059,2421.8264,N,08138.4526,W,1,11,1.4,13,M,,M,,*63
06/21/2015	12:10:59.687	$GPGGA,121100,2421.8252,N,08138.4514,W,1,11,1.4,13,M,,M,,*6A
06/21/2015	12:11:00.609	$GPGGA,121101,2421.8240,N,08138.4503,W,1,11,1.4,13,M,,M,,*6E
06/21/2015	12:11:01.679	$GPGGA,121102,2421.8228,N,08138.4490,W,1,11,1.4,13,M,,M,,*68
06/21/2015	12:11:02.596	$GPGGA,121103,2421.8217,N,08138.4476,W,1,11,1.4,13,M,,M,,*6D
06/21/2015	12:11:03.678	$GPGGA,121104,2421.8204,N,08138.4464,W,1,11,1.4,13,M,,M,,*6B
06/21/2015	12:11:04.596	$GPGGA,121105,2421.8192,N,08138.4453,W,1,11,1.4,13,M,,M,,*62
06/21/2015	12:11:05.666	$GPGGA,121106,2421.8181,N,08138.4440,W,1,11,1.4,13,M,,M,,*61
06/21/2015	12:11:06.589	$GPGGA,121107,2421.8169,N,08138.4428,W,1,11,1.4,13,M,,M,,*68
06/21/2015	12:11:07.556	$GPGGA,121108,2421.8157,N,08138.4416,W,1,11,1.4,13,M,,M,,*67
06/21/2015	12:11:08.589	$GPGGA,121109,2421.8145,N,08138.4403,W,1,11,1.4,13,M,,M,,*61
06/21/2015	12:11:09.637	$GPGGA,121110,2421.8134,N,08138.4390,W,1,11,1.4,13,M,,M,,*62
06/21/2015	12:11:10.581	$GPGGA,121111,2421.8121,N,08138.4378,W,1,11,1.4,13,M,,M,,*61
06/21/2015	12:11:11.680	$GPGGA,121112,2421.8109,N,08138.4366,W,1,11,1.4,13,M,,M,,*67
06/21/2015	12:11:12.577	$GPGGA,121113,2421.8098,N,08138.4354,W,1,11,1.4,13,M,,M,,*6E
06/21/2015	12:11:13.657	$GPGGA,121114,2421.8087,N,08138.4341,W,1,11,1.4,13,M,,M,,*63
06/21/2015	12:11:14.537	$GPGGA,121115,2421.8073,N,08138.4329,W,1,11,1.4,13,M,,M,,*67
06/21/2015	12:11:15.637	$GPGGA,121116,2421.8062,N,08138.4317,W,1,10,1.4,13,M,,M,,*68
06/21/2015	12:11:16.536	$GPGGA,121117,2421.8051,N,08138.4304,W,1,10,1.4,13,M,,M,,*6B
06/21/2015	12:11:17.616	$GPGGA,121118,2421.8040,N,08138.4290,W,1,11,1.4,13,M,,M,,*69
06/21/2015	12:11:18.566	$GPGGA,121119,2421.8027,N,08138.4279,W,1,11,1.4,12,M,,M,,*6F
06/21/2015	12:11:19.666	$GPGGA,121120,2421.8016,N,08138.4268,W,1,11,1.4,12,M,,M,,*67
06/21/2015	12:11:20.866	$GPGGA,121121,2421.8004,N,08138.4255,W,1,11,1.4,12,M,,M,,*6B
06/21/2015	12:11:21.596	$GPGGA,121122,2421.7993,N,08138.4243,W,1,11,1.4,12,M,,M,,*67
06/21/2015	12:11:22.518	$GPGGA,121123,2421.7981,N,08138.4233,W,1,11,1.4,12,M,,M,,*62
06/21/2015	12:11:23.616	$GPGGA,121124,2421.7969,N,08138.4221,W,1,11,1.4,12,M,,M,,*60
06/21/2015	12:11:24.516	$GPGGA,121125,2421.7957,N,08138.4209,W,1,11,1.4,12,M,,M,,*66
06/21/2015	12:11:25.636	$GPGGA,121126,2421.7945,N,08138.4197,W,1,11,1.4,12,M,,M,,*62
06/21/2015	12:11:26.557	$GPGGA,121127,2421.7934,N,08138.4186,W,1,11,1.4,12,M,,M,,*65
06/21/2015	12:11:27.517	$GPGGA,121128,2421.7923,N,08138.4176,W,1,11,1.4,12,M,,M,,*63
06/21/2015	12:11:28.627	$GPGGA,121129,2421.7910,N,08138.4165,W,1,11,1.4,12,M,,M,,*60
06/21/2015	12:11:29.507	$GPGGA,121130,2421.7898,N,08138.4153,W,1,11,1.4,12,M,,M,,*6C
06/21/2015	12:11:30.537	$GPGGA,121131,2421.7887,N,08138.4142,W,1,11,1.4,12,M,,M,,*63
06/21/2015	12:11:31.517	$GPGGA,121132,2421.7875,N,08138.4131,W,1,11,1.4,12,M,,M,,*69
06/21/2015	12:11:32.607	$GPGGA,121133,2421.7863,N,08138.4120,W,1,11,1.4,12,M,,M,,*6F
06/21/2015	12:11:33.496	$GPGGA,121134,2421.7850,N,08138.4109,W,1,11,1.4,12,M,,M,,*63
06/21/2015	12:11:34.596	$GPGGA,121135,2421.7839,N,08138.4097,W,1,11,1.4,12,M,,M,,*6B
06/21/2015	12:11:35.616	$GPGGA,121136,2421.7827,N,08138.4086,W,1,11,1.4,12,M,,M,,*67
06/21/2015	12:11:36.547	$GPGGA,121137,2421.7814,N,08138.4075,W,1,11,1.4,12,M,,M,,*6A
06/21/2015	12:11:37.636	$GPGGA,121138,2421.7803,N,08138.4063,W,1,11,1.4,12,M,,M,,*64
06/21/2015	12:11:38.596	$GPGGA,121139,2421.7791,N,08138.4051,W,1,11,1.4,12,M,,M,,*60
06/21/2015	12:11:39.636	$GPGGA,121140,2421.7780,N,08138.4041,W,1,11,1.4,12,M,,M,,*6F
06/21/2015	12:11:40.546	$GPGGA,121141,2421.7766,N,08138.4029,W,1,11,1.4,12,M,,M,,*68
06/21/2015	12:11:41.586	$GPGGA,121142,2421.7755,N,08138.4017,W,1,11,1.4,12,M,,M,,*66
06/21/2015	12:11:42.591	$GPGGA,121143,2421.7744,N,08138.4006,W,1,11,1.4,12,M,,M,,*67
