Software Version Number: 1	Data File Format Number: 1	Build Version Number: 1	Error Count Since VI Started: 1	Manufacturer: Raytheon	 Model Number: RayMarine 120	 S/N: 	 Cal Date: 	 Wind Direction Offset: 0.00	 Slope (M)1: 0.00	 Offset (B)1: 0.00	 Slope (M)2: 0.00	 Offset (B)2: 0.00	 Slope (M)3: 0.00	 Offset (B)3: 0.00	 Slope (M)4: 0.00	 Offset (B)4: 0.00	 Slope (M)5: 0.00	 Offset (B)5: 0.00	 Slope (M)6: 0.00	 Offset (B)6: 0.00
Computer Date	Computer Time	GGA String
06/14/2015	23:00:00.566	$GPGGA,230001,2431.4142,N,08059.3501,W,1,8,1.7,15,M,,M,,*5E
06/14/2015	23:00:01.576	$GPGGA,230002,2431.4144,N,08059.3511,W,1,8,1.7,15,M,,M,,*5A
06/14/2015	23:00:02.566	$GPGGA,230003,2431.4145,N,08059.3519,W,1,8,1.7,15,M,,M,,*52
06/14/2015	23:00:03.585	$GPGGA,230004,2431.4146,N,08059.3529,W,1,8,1.7,15,M,,M,,*55
06/14/2015	23:00:05.075	$GPGGA,230005,2431.4148,N,08059.3538,W,1,8,1.7,15,M,,M,,*5A
06/14/2015	23:00:05.564	$GPGGA,230006,2431.4149,N,08059.3548,W,1,8,1.7,15,M,,M,,*5F
06/14/2015	23:00:06.544	$GPGGA,230007,2431.4149,N,08059.3559,W,1,8,1.7,15,M,,M,,*5E
06/14/2015	23:00:07.604	$GPGGA,230008,2431.4152,N,08059.3570,W,1,8,1.7,15,M,,M,,*50
06/14/2015	23:00:08.536	$GPGGA,230009,2431.4153,N,08059.3581,W,1,8,1.7,15,M,,M,,*5E
06/14/2015	23:00:09.554	$GPGGA,230010,2431.4153,N,08059.3594,W,1,8,1.7,15,M,,M,,*52
06/14/2015	23:00:10.534	$GPGGA,230011,2431.4156,N,08059.3605,W,1,8,1.7,15,M,,M,,*5D
06/14/2015	23:00:11.574	$GPGGA,230012,2431.4157,N,08059.3617,W,1,8,1.7,15,M,,M,,*5C
06/14/2015	23:00:12.537	$GPGGA,230013,2431.4160,N,08059.3629,W,1,8,1.7,15,M,,M,,*54
06/14/2015	23:00:13.544	$GPGGA,230014,2431.4162,N,08059.3642,W,1,8,1.7,15,M,,M,,*5C
06/14/2015	23:00:14.526	$GPGGA,230015,2431.4164,N,08059.3653,W,1,8,1.7,15,M,,M,,*5B
06/14/2015	23:00:15.564	$GPGGA,230016,2431.4164,N,08059.3667,W,1,8,1.7,15,M,,M,,*5F
06/14/2015	23:00:16.524	$GPGGA,230017,2431.4167,N,08059.3681,W,1,8,1.7,15,M,,M,,*55
06/14/2015	23:00:17.534	$GPGGA,230018,2431.4170,N,08059.3694,W,1,8,1.7,15,M,,M,,*58
06/14/2015	23:00:18.526	$GPGGA,230019,2431.4173,N,08059.3707,W,1,8,1.7,14,M,,M,,*50
06/14/2015	23:00:19.554	$GPGGA,230020,2431.4174,N,08059.3721,W,1,8,1.7,14,M,,M,,*59
06/14/2015	23:00:20.514	$GPGGA,230021,2431.4177,N,08059.3736,W,1,8,1.7,14,M,,M,,*5D
06/14/2015	23:00:21.503	$GPGGA,230022,2431.4178,N,08059.3750,W,1,8,1.7,14,M,,M,,*51
06/14/2015	23:00:22.626	$GPGGA,230023,2431.4181,N,08059.3764,W,1,8,1.7,14,M,,M,,*51
06/14/2015	23:00:23.534	$GPGGA,230024,2431.4184,N,08059.3779,W,1,8,1.7,14,M,,M,,*5F
06/14/2015	23:00:24.845	$GPGGA,230025,2431.4186,N,08059.3793,W,1,8,1.7,14,M,,M,,*58
06/14/2015	23:00:25.494	$GPGGA,230026,2431.4189,N,08059.3809,W,1,8,1.7,14,M,,M,,*58
06/14/2015	23:00:26.524	$GPGGA,230027,2431.4191,N,08059.3826,W,1,8,1.7,14,M,,M,,*5D
06/14/2015	23:00:27.544	$GPGGA,230028,2431.4193,N,08059.3840,W,1,8,1.7,14,M,,M,,*50
06/14/2015	23:00:28.584	$GPGGA,230029,2431.4196,N,08059.3856,W,1,8,1.7,14,M,,M,,*53
06/14/2015	23:00:29.627	$GPGGA,230030,2431.4200,N,08059.3873,W,1,8,1.7,14,M,,M,,*50
06/14/2015	23:00:30.514	$GPGGA,230031,2431.4203,N,08059.3888,W,1,8,1.7,14,M,,M,,*56
06/14/2015	23:00:31.554	$GPGGA,230032,2431.4206,N,08059.3905,W,1,8,1.7,14,M,,M,,*54
06/14/2015	23:00:32.584	$GPGGA,230033,2431.4207,N,08059.3920,W,1,8,1.7,14,M,,M,,*53
06/14/2015	23:00:33.594	$GPGGA,230034,2431.4209,N,08059.3936,W,1,8,1.7,14,M,,M,,*5D
06/14/2015	23:00:34.574	$GPGGA,230035,2431.4211,N,08059.3952,W,1,8,1.7,13,M,,M,,*50
06/14/2015	23:00:35.614	$GPGGA,230036,2431.4211,N,08059.3952,W,1,8,1.7,13,M,,M,,*53
06/14/2015	23:00:36.574	$GPGGA,230037,2431.4216,N,08059.3985,W,1,8,1.7,13,M,,M,,*5F
06/14/2015	23:00:37.574	$GPGGA,230038,2431.4218,N,08059.4003,W,1,8,1.7,13,M,,M,,*5E
06/14/2015	23:00:38.563	$GPGGA,230039,2431.4221,N,08059.4019,W,1,8,1.7,13,M,,M,,*5E
06/14/2015	23:00:39.584	$GPGGA,230040,2431.4224,N,08059.4035,W,1,8,1.7,13,M,,M,,*5B
06/14/2015	23:00:40.574	$GPGGA,230041,2431.4225,N,08059.4051,W,1,8,1.7,13,M,,M,,*59
06/14/2015	23:00:41.554	$GPGGA,230042,2431.4227,N,08059.4066,W,1,8,1.7,13,M,,M,,*5C
06/14/2015	23:00:42.564	$GPGGA,230043,2431.4229,N,08059.4082,W,1,8,1.7,13,M,,M,,*59
06/14/2015	23:00:43.619	$GPGGA,230044,2431.4231,N,08059.4100,W,1,8,1.7,13,M,,M,,*5C
06/14/2015	23:00:44.574	$GPGGA,230045,2431.4234,N,08059.4118,W,1,8,1.7,13,M,,M,,*51
06/14/2015	23:00:45.574	$GPGGA,230046,2431.4236,N,08059.4134,W,1,8,1.7,13,M,,M,,*5E
06/14/2015	23:00:46.544	$GPGGA,230047,2431.4238,N,08059.4151,W,1,8,1.7,13,M,,M,,*52
06/14/2015	23:00:47.594	$GPGGA,230048,2431.4240,N,08059.4166,W,1,8,1.7,13,M,,M,,*56
06/14/2015	23:00:48.554	$GPGGA,230049,2431.4240,N,08059.4166,W,1,8,1.7,13,M,,M,,*57
06/14/2015	23:00:49.574	$GPGGA,230050,2431.4242,N,08059.4198,W,1,8,1.7,13,M,,M,,*5C
06/14/2015	23:00:50.554	$GPGGA,230051,2431.4243,N,08059.4216,W,1,8,1.7,13,M,,M,,*59
06/14/2015	23:00:51.574	$GPGGA,230052,2431.4246,N,08059.4231,W,1,8,1.7,13,M,,M,,*5A
06/14/2015	23:00:52.554	$GPGGA,230053,2431.4247,N,08059.4249,W,1,8,1.7,13,M,,M,,*55
06/14/2015	23:00:53.564	$GPGGA,230054,2431.4249,N,08059.4266,W,1,8,1.7,13,M,,M,,*51
06/14/2015	23:00:54.544	$GPGGA,230055,2431.4250,N,08059.4282,W,1,8,1.7,13,M,,M,,*52
06/14/2015	23:00:55.554	$GPGGA,230056,2431.4250,N,08059.4299,W,1,8,1.7,13,M,,M,,*5B
06/14/2015	23:00:56.543	$GPGGA,230057,2431.4250,N,08059.4314,W,1,8,1.7,12,M,,M,,*5F
06/14/2015	23:00:57.537	$GPGGA,230058,2431.4251,N,08059.4331,W,1,8,1.7,12,M,,M,,*56
06/14/2015	23:00:58.527	$GPGGA,230059,2431.4253,N,08059.4347,W,1,8,1.7,12,M,,M,,*54
06/14/2015	23:00:59.574	$GPGGA,230100,2431.4254,N,08059.4364,W,1,8,1.7,12,M,,M,,*5F
06/14/2015	23:01:00.538	$GPGGA,230101,2431.4254,N,08059.4382,W,1,8,1.7,12,M,,M,,*56
06/14/2015	23:01:01.554	$GPGGA,230102,2431.4254,N,08059.4397,W,1,8,1.7,12,M,,M,,*51
06/14/2015	23:01:02.538	$GPGGA,230103,2431.4254,N,08059.4415,W,1,8,1.7,12,M,,M,,*5D
06/14/2015	23:01:03.554	$GPGGA,230104,2431.4256,N,08059.4431,W,1,8,1.7,12,M,,M,,*5E
06/14/2015	23:01:04.535	$GPGGA,230105,2431.4254,N,08059.4448,W,1,8,1.7,12,M,,M,,*53
06/14/2015	23:01:05.529	$GPGGA,230106,2431.4256,N,08059.4465,W,1,8,1.7,12,M,,M,,*5D
06/14/2015	23:01:06.504	$GPGGA,230107,2431.4257,N,08059.4481,W,1,8,1.7,12,M,,M,,*57
06/14/2015	23:01:07.554	$GPGGA,230108,2431.4256,N,08059.4498,W,1,8,1.7,12,M,,M,,*51
06/14/2015	23:01:08.604	$GPGGA,230109,2431.4254,N,08059.4512,W,1,8,2.6,12,M,,M,,*53
06/14/2015	23:01:09.538	$GPGGA,230110,2431.4256,N,08059.4530,W,1,7,1.7,12,M,,M,,*54
06/14/2015	23:01:10.494	$GPGGA,230111,2431.4254,N,08059.4541,W,1,7,2.6,12,M,,M,,*53
06/14/2015	23:01:11.533	$GPGGA,230112,2431.4252,N,08059.4552,W,1,7,2.1,12,M,,M,,*53
06/14/2015	23:01:12.494	$GPGGA,230113,2431.4250,N,08059.4567,W,1,7,1.7,12,M,,M,,*53
06/14/2015	23:01:13.493	$GPGGA,230114,2431.4251,N,08059.4585,W,1,7,1.7,13,M,,M,,*58
06/14/2015	23:01:14.494	$GPGGA,230115,2431.4251,N,08059.4603,W,1,7,2.6,13,M,,M,,*56
06/14/2015	23:01:15.628	$GPGGA,230116,2431.4251,N,08059.4620,W,1,6,2.6,13,M,,M,,*55
06/14/2015	23:01:16.504	$GPGGA,230117,2431.4253,N,08059.4633,W,1,6,2.6,13,M,,M,,*54
06/14/2015	23:01:17.594	$GPGGA,230118,2431.4251,N,08059.4644,W,1,7,2.1,13,M,,M,,*5F
06/14/2015	23:01:18.484	$GPGGA,230119,2431.4251,N,08059.4660,W,1,7,2.1,13,M,,M,,*58
06/14/2015	23:01:19.494	$GPGGA,230120,2431.4253,N,08059.4678,W,1,8,1.7,13,M,,M,,*53
06/14/2015	23:01:20.574	$GPGGA,230121,2431.4252,N,08059.4697,W,1,8,1.7,13,M,,M,,*52
06/14/2015	23:01:21.584	$GPGGA,230122,2431.4253,N,08059.4715,W,1,8,1.7,13,M,,M,,*5B
06/14/2015	23:01:22.494	$GPGGA,230123,2431.4252,N,08059.4733,W,1,8,1.7,13,M,,M,,*5F
06/14/2015	23:01:23.633	$GPGGA,230124,2431.4253,N,08059.4748,W,1,6,2.6,14,M,,M,,*5E
06/14/2015	23:01:24.564	$GPGGA,230125,2431.4254,N,08059.4763,W,1,6,1.7,14,M,,M,,*53
06/14/2015	23:01:25.564	$GPGGA,230126,2431.4254,N,08059.4779,W,1,8,1.7,14,M,,M,,*55
06/14/2015	23:01:26.574	$GPGGA,230127,2431.4254,N,08059.4796,W,1,8,1.7,14,M,,M,,*55
06/14/2015	23:01:27.614	$GPGGA,230128,2431.4256,N,08059.4814,W,1,8,1.7,14,M,,M,,*5D
06/14/2015	23:01:28.564	$GPGGA,230129,2431.4254,N,08059.4832,W,1,8,1.7,14,M,,M,,*5A
06/14/2015	23:01:29.584	$GPGGA,230130,2431.4254,N,08059.4849,W,1,7,1.7,14,M,,M,,*51
06/14/2015	23:01:30.574	$GPGGA,230131,2431.4254,N,08059.4864,W,1,7,1.7,14,M,,M,,*5F
06/14/2015	23:01:31.585	$GPGGA,230132,2431.4256,N,08059.4878,W,1,8,1.7,14,M,,M,,*5C
06/14/2015	23:01:32.564	$GPGGA,230133,2431.4257,N,08059.4892,W,1,8,1.7,14,M,,M,,*58
06/14/2015	23:01:33.574	$GPGGA,230134,2431.4256,N,08059.4907,W,1,8,1.7,14,M,,M,,*53
06/14/2015	23:01:34.544	$GPGGA,230135,2431.4258,N,08059.4924,W,1,8,1.7,14,M,,M,,*5D
06/14/2015	23:01:35.584	$GPGGA,230136,2431.4256,N,08059.4939,W,1,8,1.7,14,M,,M,,*5C
06/14/2015	23:01:36.538	$GPGGA,230137,2431.4258,N,08059.4957,W,1,8,1.7,14,M,,M,,*5B
06/14/2015	23:01:37.564	$GPGGA,230138,2431.4260,N,08059.4972,W,1,8,1.7,14,M,,M,,*58
06/14/2015	23:01:38.544	$GPGGA,230139,2431.4261,N,08059.4989,W,1,8,1.7,14,M,,M,,*5C
06/14/2015	23:01:39.564	$GPGGA,230140,2431.4261,N,08059.5004,W,1,8,1.7,14,M,,M,,*5F
06/14/2015	23:01:40.544	$GPGGA,230141,2431.4263,N,08059.5020,W,1,8,1.7,14,M,,M,,*5A
06/14/2015	23:01:41.564	$GPGGA,230142,2431.4265,N,08059.5036,W,1,8,1.7,14,M,,M,,*58
06/14/2015	23:01:42.544	$GPGGA,230143,2431.4265,N,08059.5051,W,1,8,1.7,14,M,,M,,*58
06/14/2015	23:01:43.584	$GPGGA,230144,2431.4267,N,08059.5069,W,1,8,1.7,14,M,,M,,*56
06/14/2015	23:01:44.534	$GPGGA,230145,2431.4268,N,08059.5084,W,1,8,1.7,14,M,,M,,*5B
06/14/2015	23:01:45.554	$GPGGA,230146,2431.4271,N,08059.5101,W,1,8,1.7,14,M,,M,,*5C
06/14/2015	23:01:46.534	$GPGGA,230147,2431.4272,N,08059.5119,W,1,8,1.7,14,M,,M,,*57
06/14/2015	23:01:47.574	$GPGGA,230148,2431.4276,N,08059.5135,W,1,8,1.7,14,M,,M,,*52
06/14/2015	23:01:48.531	$GPGGA,230149,2431.4278,N,08059.5152,W,1,8,1.7,14,M,,M,,*5C
06/14/2015	23:01:49.544	$GPGGA,230150,2431.4281,N,08059.5166,W,1,8,1.7,14,M,,M,,*55
06/14/2015	23:01:50.514	$GPGGA,230151,2431.4283,N,08059.5182,W,1,8,1.7,14,M,,M,,*5C
06/14/2015	23:01:51.534	$GPGGA,230152,2431.4286,N,08059.5199,W,1,8,1.7,14,M,,M,,*50
06/14/2015	23:01:52.525	$GPGGA,230153,2431.4289,N,08059.5215,W,1,8,1.7,14,M,,M,,*59
06/14/2015	23:01:53.527	$GPGGA,230154,2431.4290,N,08059.5232,W,1,8,1.7,14,M,,M,,*53
06/14/2015	23:01:54.530	$GPGGA,230155,2431.4294,N,08059.5250,W,1,8,1.7,14,M,,M,,*52
06/14/2015	23:01:55.534	$GPGGA,230156,2431.4296,N,08059.5267,W,1,8,1.7,14,M,,M,,*57
06/14/2015	23:01:56.514	$GPGGA,230157,2431.4299,N,08059.5282,W,1,8,1.7,14,M,,M,,*52
06/14/2015	23:01:57.627	$GPGGA,230158,2431.4303,N,08059.5298,W,1,8,1.7,14,M,,M,,*54
06/14/2015	23:01:58.494	$GPGGA,230159,2431.4307,N,08059.5314,W,1,8,1.7,14,M,,M,,*54
06/14/2015	23:01:59.544	$GPGGA,230200,2431.4311,N,08059.5330,W,1,8,1.7,14,M,,M,,*5A
06/14/2015	23:02:00.504	$GPGGA,230201,2431.4315,N,08059.5347,W,1,8,1.7,14,M,,M,,*5F
06/14/2015	23:02:01.604	$GPGGA,230202,2431.4319,N,08059.5365,W,1,8,1.7,14,M,,M,,*50
06/14/2015	23:02:02.584	$GPGGA,230203,2431.4323,N,08059.5383,W,1,8,1.7,14,M,,M,,*50
06/14/2015	23:02:03.526	$GPGGA,230204,2431.4326,N,08059.5397,W,1,7,1.7,14,M,,M,,*58
06/14/2015	23:02:04.594	$GPGGA,230205,2431.4330,N,08059.5410,W,1,7,1.7,14,M,,M,,*56
06/14/2015	23:02:05.584	$GPGGA,230206,2431.4336,N,08059.5426,W,1,8,1.7,14,M,,M,,*59
06/14/2015	23:02:06.584	$GPGGA,230207,2431.4341,N,08059.5439,W,1,8,1.7,14,M,,M,,*56
06/14/2015	23:02:07.614	$GPGGA,230208,2431.4344,N,08059.5455,W,1,8,1.7,14,M,,M,,*56
06/14/2015	23:02:08.584	$GPGGA,230209,2431.4348,N,08059.5471,W,1,8,1.7,14,M,,M,,*5D
06/14/2015	23:02:09.584	$GPGGA,230210,2431.4354,N,08059.5488,W,1,8,1.7,14,M,,M,,*5E
06/14/2015	23:02:10.494	$GPGGA,230211,2431.4357,N,08059.5506,W,1,8,1.7,14,M,,M,,*5B
06/14/2015	23:02:11.630	$GPGGA,230212,2431.4359,N,08059.5520,W,1,7,1.7,14,M,,M,,*5D
06/14/2015	23:02:12.564	$GPGGA,230213,2431.4363,N,08059.5538,W,1,7,1.7,14,M,,M,,*5C
06/14/2015	23:02:13.584	$GPGGA,230214,2431.4369,N,08059.5553,W,1,7,1.7,14,M,,M,,*5C
06/14/2015	23:02:14.564	$GPGGA,230215,2431.4373,N,08059.5568,W,1,7,1.7,14,M,,M,,*5E
06/14/2015	23:02:15.584	$GPGGA,230216,2431.4377,N,08059.5585,W,1,8,1.7,14,M,,M,,*55
06/14/2015	23:02:16.564	$GPGGA,230217,2431.4381,N,08059.5600,W,1,8,1.7,14,M,,M,,*53
06/14/2015	23:02:17.584	$GPGGA,230218,2431.4386,N,08059.5616,W,1,8,1.7,14,M,,M,,*5C
06/14/2015	23:02:18.564	$GPGGA,230219,2431.4388,N,08059.5632,W,1,8,1.7,14,M,,M,,*55
06/14/2015	23:02:19.584	$GPGGA,230220,2431.4393,N,08059.5647,W,1,8,1.7,14,M,,M,,*57
06/14/2015	23:02:20.554	$GPGGA,230221,2431.4395,N,08059.5661,W,1,8,2.1,14,M,,M,,*51
06/14/2015	23:02:21.564	$GPGGA,230222,2431.4398,N,08059.5676,W,1,8,1.7,14,M,,M,,*5C
06/14/2015	23:02:22.554	$GPGGA,230223,2431.4401,N,08059.5691,W,1,8,1.7,14,M,,M,,*53
06/14/2015	23:02:23.583	$GPGGA,230224,2431.4406,N,08059.5708,W,1,8,1.7,14,M,,M,,*52
06/14/2015	23:02:24.554	$GPGGA,230225,2431.4409,N,08059.5726,W,1,8,1.7,14,M,,M,,*50
06/14/2015	23:02:25.564	$GPGGA,230226,2431.4413,N,08059.5741,W,1,8,1.7,14,M,,M,,*59
06/14/2015	23:02:26.544	$GPGGA,230227,2431.4417,N,08059.5759,W,1,8,1.7,14,M,,M,,*55
06/14/2015	23:02:27.564	$GPGGA,230228,2431.4420,N,08059.5774,W,1,8,1.7,14,M,,M,,*51
06/14/2015	23:02:28.535	$GPGGA,230229,2431.4424,N,08059.5789,W,1,8,1.7,14,M,,M,,*56
06/14/2015	23:02:29.537	$GPGGA,230230,2431.4427,N,08059.5806,W,1,7,1.7,14,M,,M,,*5A
06/14/2015	23:02:30.535	$GPGGA,230231,2431.4433,N,08059.5824,W,1,7,1.7,14,M,,M,,*5E
06/14/2015	23:02:31.564	$GPGGA,230232,2431.4437,N,08059.5839,W,1,8,1.7,14,M,,M,,*5A
06/14/2015	23:02:32.541	$GPGGA,230233,2431.4441,N,08059.5857,W,1,8,1.7,14,M,,M,,*52
06/14/2015	23:02:33.564	$GPGGA,230234,2431.4445,N,08059.5874,W,1,8,1.7,14,M,,M,,*50
06/14/2015	23:02:34.527	$GPGGA,230235,2431.4449,N,08059.5892,W,1,8,1.7,14,M,,M,,*55
06/14/2015	23:02:35.544	$GPGGA,230236,2431.4453,N,08059.5907,W,1,8,1.7,14,M,,M,,*50
06/14/2015	23:02:36.514	$GPGGA,230237,2431.4456,N,08059.5923,W,1,8,1.7,14,M,,M,,*52
06/14/2015	23:02:37.514	$GPGGA,230238,2431.4458,N,08059.5940,W,1,8,1.7,14,M,,M,,*56
06/14/2015	23:02:38.654	$GPGGA,230239,2431.4460,N,08059.5957,W,1,8,1.7,14,M,,M,,*5A
06/14/2015	23:02:39.554	$GPGGA,230240,2431.4464,N,08059.5975,W,1,8,1.7,14,M,,M,,*50
06/14/2015	23:02:40.514	$GPGGA,230241,2431.4466,N,08059.5993,W,1,8,1.7,14,M,,M,,*5B
06/14/2015	23:02:41.539	$GPGGA,230242,2431.4467,N,08059.6011,W,1,8,1.7,14,M,,M,,*59
06/14/2015	23:02:42.504	$GPGGA,230243,2431.4469,N,08059.6026,W,1,8,1.7,14,M,,M,,*52
06/14/2015	23:02:43.526	$GPGGA,230244,2431.4470,N,08059.6042,W,1,8,1.7,14,M,,M,,*5F
06/14/2015	23:02:44.504	$GPGGA,230245,2431.4471,N,08059.6059,W,1,8,1.7,14,M,,M,,*55
06/14/2015	23:02:45.594	$GPGGA,230246,2431.4473,N,08059.6076,W,1,8,1.7,14,M,,M,,*59
06/14/2015	23:02:46.594	$GPGGA,230247,2431.4472,N,08059.6092,W,1,8,1.7,14,M,,M,,*53
06/14/2015	23:02:47.524	$GPGGA,230248,2431.4474,N,08059.6110,W,1,8,1.7,14,M,,M,,*51
06/14/2015	23:02:48.625	$GPGGA,230249,2431.4475,N,08059.6127,W,1,8,1.7,14,M,,M,,*55
06/14/2015	23:02:49.684	$GPGGA,230250,2431.4475,N,08059.6145,W,1,8,1.7,14,M,,M,,*59
06/14/2015	23:02:50.494	$GPGGA,230251,2431.4477,N,08059.6161,W,1,8,1.7,14,M,,M,,*5C
06/14/2015	23:02:51.684	$GPGGA,230252,2431.4476,N,08059.6178,W,1,7,1.7,14,M,,M,,*59
06/14/2015	23:02:52.514	$GPGGA,230253,2431.4478,N,08059.6196,W,1,7,1.7,14,M,,M,,*56
06/14/2015	23:02:53.684	$GPGGA,230254,2431.4478,N,08059.6212,W,1,7,1.7,14,M,,M,,*5E
06/14/2015	23:02:54.494	$GPGGA,230255,2431.4478,N,08059.6229,W,1,7,1.7,14,M,,M,,*57
06/14/2015	23:02:55.494	$GPGGA,230256,2431.4478,N,08059.6246,W,1,7,2.1,14,M,,M,,*58
06/14/2015	23:02:56.574	$GPGGA,230257,2431.4478,N,08059.6262,W,1,7,1.7,14,M,,M,,*5A
06/14/2015	23:02:57.574	$GPGGA,230258,2431.4476,N,08059.6280,W,1,8,1.7,14,M,,M,,*58
06/14/2015	23:02:58.603	$GPGGA,230259,2431.4477,N,08059.6297,W,1,8,1.7,13,M,,M,,*59
06/14/2015	23:02:59.694	$GPGGA,230300,2431.4478,N,08059.6313,W,1,7,1.7,13,M,,M,,*59
06/14/2015	23:03:00.594	$GPGGA,230301,2431.4476,N,08059.6327,W,1,7,1.7,13,M,,M,,*51
06/14/2015	23:03:01.674	$GPGGA,230302,2431.4477,N,08059.6344,W,1,8,2.1,13,M,,M,,*5C
06/14/2015	23:03:02.564	$GPGGA,230303,2431.4478,N,08059.6359,W,1,8,2.1,13,M,,M,,*5E
06/14/2015	23:03:03.684	$GPGGA,230304,2431.4472,N,08059.6370,W,1,7,2.1,13,M,,M,,*57
06/14/2015	23:03:04.554	$GPGGA,230305,2431.4471,N,08059.6389,W,1,7,1.7,14,M,,M,,*51
06/14/2015	23:03:05.664	$GPGGA,230306,2431.4471,N,08059.6405,W,1,7,1.7,14,M,,M,,*51
06/14/2015	23:03:06.554	$GPGGA,230307,2431.4471,N,08059.6420,W,1,7,1.7,14,M,,M,,*57
06/14/2015	23:03:07.674	$GPGGA,230308,2431.4471,N,08059.6435,W,1,7,2.1,14,M,,M,,*59
06/14/2015	23:03:08.584	$GPGGA,230309,2431.4471,N,08059.6450,W,1,7,1.7,14,M,,M,,*5E
06/14/2015	23:03:09.594	$GPGGA,230310,2431.4471,N,08059.6465,W,1,7,2.1,14,M,,M,,*55
06/14/2015	23:03:10.574	$GPGGA,230311,2431.4471,N,08059.6481,W,1,7,2.1,14,M,,M,,*5E
06/14/2015	23:03:11.674	$GPGGA,230312,2431.4471,N,08059.6499,W,1,8,1.7,14,M,,M,,*5E
06/14/2015	23:03:12.540	$GPGGA,230313,2431.4471,N,08059.6518,W,1,8,1.7,14,M,,M,,*57
06/14/2015	23:03:13.654	$GPGGA,230314,2431.4469,N,08059.6532,W,1,7,1.7,14,M,,M,,*5E
06/14/2015	23:03:14.574	$GPGGA,230315,2431.4470,N,08059.6548,W,1,7,1.7,14,M,,M,,*5A
06/14/2015	23:03:15.663	$GPGGA,230316,2431.4471,N,08059.6565,W,1,8,1.7,14,M,,M,,*58
06/14/2015	23:03:16.554	$GPGGA,230317,2431.4469,N,08059.6582,W,1,8,2.6,14,M,,M,,*5B
06/14/2015	23:03:17.654	$GPGGA,230318,2431.4468,N,08059.6597,W,1,8,1.7,14,M,,M,,*53
06/14/2015	23:03:18.574	$GPGGA,230319,2431.4470,N,08059.6613,W,1,8,1.7,14,M,,M,,*54
06/14/2015	23:03:19.654	$GPGGA,230320,2431.4468,N,08059.6630,W,1,8,1.7,14,M,,M,,*56
06/14/2015	23:03:20.564	$GPGGA,230321,2431.4469,N,08059.6647,W,1,8,1.7,14,M,,M,,*56
06/14/2015	23:03:21.604	$GPGGA,230322,2431.4468,N,08059.6663,W,1,8,1.7,14,M,,M,,*52
06/14/2015	23:03:22.527	$GPGGA,230323,2431.4470,N,08059.6680,W,1,8,1.7,14,M,,M,,*57
06/14/2015	23:03:23.654	$GPGGA,230324,2431.4469,N,08059.6696,W,1,8,1.7,14,M,,M,,*5F
06/14/2015	23:03:24.564	$GPGGA,230325,2431.4470,N,08059.6712,W,1,8,1.7,14,M,,M,,*5B
06/14/2015	23:03:25.628	$GPGGA,230326,2431.4469,N,08059.6730,W,1,8,1.7,14,M,,M,,*50
06/14/2015	23:03:26.564	$GPGGA,230327,2431.4470,N,08059.6745,W,1,8,1.7,15,M,,M,,*5A
06/14/2015	23:03:27.654	$GPGGA,230328,2431.4469,N,08059.6760,W,1,8,1.7,15,M,,M,,*5A
06/14/2015	23:03:28.631	$GPGGA,230329,2431.4471,N,08059.6777,W,1,8,1.7,15,M,,M,,*54
06/14/2015	23:03:29.594	$GPGGA,230330,2431.4471,N,08059.6792,W,1,8,1.7,15,M,,M,,*57
06/14/2015	23:03:30.544	$GPGGA,230331,2431.4471,N,08059.6807,W,1,8,1.7,15,M,,M,,*55
06/14/2015	23:03:31.594	$GPGGA,230332,2431.4474,N,08059.6824,W,1,8,1.7,15,M,,M,,*52
06/14/2015	23:03:32.494	$GPGGA,230333,2431.4475,N,08059.6840,W,1,8,1.7,15,M,,M,,*50
06/14/2015	23:03:33.627	$GPGGA,230334,2431.4477,N,08059.6857,W,1,8,1.7,15,M,,M,,*53
06/14/2015	23:03:34.554	$GPGGA,230335,2431.4478,N,08059.6875,W,1,8,1.7,15,M,,M,,*5D
06/14/2015	23:03:35.624	$GPGGA,230336,2431.4478,N,08059.6890,W,1,8,1.7,15,M,,M,,*55
06/14/2015	23:03:36.535	$GPGGA,230337,2431.4480,N,08059.6905,W,1,8,1.7,15,M,,M,,*5E
06/14/2015	23:03:37.584	$GPGGA,230338,2431.4481,N,08059.6920,W,1,8,1.7,15,M,,M,,*57
06/14/2015	23:03:38.604	$GPGGA,230339,2431.4482,N,08059.6936,W,1,8,1.7,15,M,,M,,*52
06/14/2015	23:03:39.584	$GPGGA,230340,2431.4484,N,08059.6954,W,1,8,1.7,15,M,,M,,*5E
06/14/2015	23:03:40.584	$GPGGA,230341,2431.4485,N,08059.6972,W,1,8,1.7,15,M,,M,,*5A
06/14/2015	23:03:41.594	$GPGGA,230342,2431.4489,N,08059.6988,W,1,8,1.7,15,M,,M,,*50
06/14/2015	23:03:42.524	$GPGGA,230343,2431.4489,N,08059.7005,W,1,8,1.7,15,M,,M,,*5C
06/14/2015	23:03:43.574	$GPGGA,230344,2431.4491,N,08059.7020,W,1,8,1.7,15,M,,M,,*55
06/14/2015	23:03:44.574	$GPGGA,230345,2431.4492,N,08059.7035,W,1,8,1.7,15,M,,M,,*53
06/14/2015	23:03:45.638	$GPGGA,230346,2431.4492,N,08059.7035,W,1,8,1.7,15,M,,M,,*50
06/14/2015	23:03:46.854	$GPGGA,230347,2431.4496,N,08059.7068,W,1,8,1.7,14,M,,M,,*5C
06/14/2015	23:03:47.614	$GPGGA,230348,2431.4499,N,08059.7085,W,1,8,1.7,14,M,,M,,*5F
06/14/2015	23:03:48.574	$GPGGA,230349,2431.4500,N,08059.7102,W,1,8,1.7,14,M,,M,,*51
06/14/2015	23:03:49.644	$GPGGA,230350,2431.4503,N,08059.7117,W,1,8,1.7,14,M,,M,,*5E
06/14/2015	23:03:50.564	$GPGGA,230351,2431.4505,N,08059.7132,W,1,8,1.7,14,M,,M,,*5E
06/14/2015	23:03:51.654	$GPGGA,230352,2431.4506,N,08059.7149,W,1,8,1.7,14,M,,M,,*52
06/14/2015	23:03:52.564	$GPGGA,230353,2431.4509,N,08059.7164,W,1,8,1.7,14,M,,M,,*53
06/14/2015	23:03:53.584	$GPGGA,230354,2431.4509,N,08059.7164,W,1,8,1.7,14,M,,M,,*54
06/14/2015	23:03:54.554	$GPGGA,230355,2431.4511,N,08059.7196,W,1,8,1.7,14,M,,M,,*51
06/14/2015	23:03:55.594	$GPGGA,230356,2431.4514,N,08059.7212,W,1,8,1.7,14,M,,M,,*58
06/14/2015	23:03:56.544	$GPGGA,230357,2431.4517,N,08059.7227,W,1,8,1.7,14,M,,M,,*5C
06/14/2015	23:03:57.584	$GPGGA,230358,2431.4518,N,08059.7243,W,1,8,1.7,14,M,,M,,*5E
06/14/2015	23:03:58.535	$GPGGA,230359,2431.4520,N,08059.7258,W,1,8,1.7,14,M,,M,,*5E
06/14/2015	23:03:59.604	$GPGGA,230400,2431.4521,N,08059.7273,W,1,8,1.7,14,M,,M,,*5D
06/14/2015	23:04:00.544	$GPGGA,230401,2431.4524,N,08059.7290,W,1,8,1.7,14,M,,M,,*54
06/14/2015	23:04:01.584	$GPGGA,230402,2431.4525,N,08059.7305,W,1,8,1.7,14,M,,M,,*5B
06/14/2015	23:04:02.529	$GPGGA,230403,2431.4527,N,08059.7321,W,1,8,1.7,14,M,,M,,*5E
06/14/2015	23:04:03.574	$GPGGA,230404,2431.4529,N,08059.7337,W,1,8,1.7,14,M,,M,,*50
06/14/2015	23:04:04.539	$GPGGA,230405,2431.4531,N,08059.7352,W,1,8,1.7,14,M,,M,,*5B
06/14/2015	23:04:05.544	$GPGGA,230406,2431.4531,N,08059.7352,W,1,8,1.7,14,M,,M,,*58
06/14/2015	23:04:06.536	$GPGGA,230407,2431.4534,N,08059.7384,W,1,8,1.7,14,M,,M,,*57
06/14/2015	23:04:07.644	$GPGGA,230408,2431.4536,N,08059.7399,W,1,8,1.7,14,M,,M,,*56
06/14/2015	23:04:08.537	$GPGGA,230409,2431.4538,N,08059.7415,W,1,8,1.7,14,M,,M,,*5A
06/14/2015	23:04:09.529	$GPGGA,230410,2431.4538,N,08059.7415,W,1,8,1.7,14,M,,M,,*52
06/14/2015	23:04:10.514	$GPGGA,230411,2431.4542,N,08059.7446,W,1,8,1.7,14,M,,M,,*58
06/14/2015	23:04:11.664	$GPGGA,230412,2431.4541,N,08059.7462,W,1,8,1.7,14,M,,M,,*5E
06/14/2015	23:04:12.545	$GPGGA,230413,2431.4543,N,08059.7478,W,1,8,1.7,14,M,,M,,*56
06/14/2015	23:04:13.538	$GPGGA,230414,2431.4543,N,08059.7478,W,1,8,1.7,14,M,,M,,*51
06/14/2015	23:04:14.514	$GPGGA,230415,2431.4547,N,08059.7511,W,1,8,1.7,14,M,,M,,*5A
06/14/2015	23:04:15.544	$GPGGA,230416,2431.4547,N,08059.7511,W,1,8,1.7,14,M,,M,,*59
06/14/2015	23:04:16.504	$GPGGA,230417,2431.4550,N,08059.7540,W,1,8,1.7,13,M,,M,,*5D
06/14/2015	23:04:17.528	$GPGGA,230418,2431.4550,N,08059.7558,W,1,8,1.7,13,M,,M,,*5B
06/14/2015	23:04:18.529	$GPGGA,230419,2431.4550,N,08059.7573,W,1,8,1.7,13,M,,M,,*53
06/14/2015	23:04:19.538	$GPGGA,230420,2431.4550,N,08059.7573,W,1,8,1.7,13,M,,M,,*59
06/14/2015	23:04:20.494	$GPGGA,230421,2431.4554,N,08059.7605,W,1,8,1.7,13,M,,M,,*5E
06/14/2015	23:04:21.494	$GPGGA,230422,2431.4554,N,08059.7605,W,1,8,1.7,13,M,,M,,*5D
06/14/2015	23:04:22.584	$GPGGA,230423,2431.4554,N,08059.7637,W,1,8,1.7,13,M,,M,,*5D
06/14/2015	23:04:23.664	$GPGGA,230424,2431.4557,N,08059.7653,W,1,8,1.7,13,M,,M,,*5B
06/14/2015	23:04:24.504	$GPGGA,230425,2431.4556,N,08059.7670,W,1,8,1.7,13,M,,M,,*5A
06/14/2015	23:04:25.583	$GPGGA,230426,2431.4557,N,08059.7684,W,1,8,1.7,13,M,,M,,*53
06/14/2015	23:04:26.594	$GPGGA,230427,2431.4560,N,08059.7700,W,1,8,1.7,13,M,,M,,*5B
06/14/2015	23:04:27.514	$GPGGA,230428,2431.4559,N,08059.7717,W,1,8,1.7,13,M,,M,,*58
06/14/2015	23:04:28.584	$GPGGA,230429,2431.4560,N,08059.7732,W,1,8,1.7,13,M,,M,,*54
06/14/2015	23:04:29.584	$GPGGA,230430,2431.4561,N,08059.7749,W,1,8,1.7,13,M,,M,,*51
06/14/2015	23:04:30.584	$GPGGA,230431,2431.4559,N,08059.7762,W,1,8,2.1,13,M,,M,,*57
06/14/2015	23:04:31.584	$GPGGA,230432,2431.4558,N,08059.7776,W,1,8,1.7,13,M,,M,,*55
06/14/2015	23:04:32.574	$GPGGA,230433,2431.4560,N,08059.7793,W,1,8,1.7,13,M,,M,,*54
06/14/2015	23:04:33.594	$GPGGA,230434,2431.4559,N,08059.7807,W,1,8,1.7,13,M,,M,,*5B
06/14/2015	23:04:34.574	$GPGGA,230435,2431.4561,N,08059.7822,W,1,8,1.7,13,M,,M,,*56
06/14/2015	23:04:35.614	$GPGGA,230436,2431.4561,N,08059.7837,W,1,8,1.7,13,M,,M,,*51
06/14/2015	23:04:36.564	$GPGGA,230437,2431.4558,N,08059.7851,W,1,8,2.1,13,M,,M,,*5F
06/14/2015	23:04:37.564	$GPGGA,230438,2431.4560,N,08059.7865,W,1,8,1.7,13,M,,M,,*59
06/14/2015	23:04:38.564	$GPGGA,230439,2431.4559,N,08059.7880,W,1,8,1.7,13,M,,M,,*59
06/14/2015	23:04:39.594	$GPGGA,230440,2431.4561,N,08059.7897,W,1,8,1.7,13,M,,M,,*5A
06/14/2015	23:04:40.554	$GPGGA,230441,2431.4561,N,08059.7912,W,1,8,1.7,14,M,,M,,*50
06/14/2015	23:04:41.574	$GPGGA,230442,2431.4561,N,08059.7927,W,1,7,1.7,14,M,,M,,*5A
06/14/2015	23:04:42.554	$GPGGA,230443,2431.4564,N,08059.7942,W,1,7,1.7,14,M,,M,,*5D
06/14/2015	23:04:43.593	$GPGGA,230444,2431.4565,N,08059.7957,W,1,8,1.7,14,M,,M,,*50
06/14/2015	23:04:44.544	$GPGGA,230445,2431.4567,N,08059.7973,W,1,8,1.7,14,M,,M,,*55
06/14/2015	23:04:45.544	$GPGGA,230446,2431.4568,N,08059.7991,W,1,8,1.7,14,M,,M,,*55
06/14/2015	23:04:46.544	$GPGGA,230447,2431.4571,N,08059.8009,W,1,8,1.7,14,M,,M,,*5B
06/14/2015	23:04:47.574	$GPGGA,230448,2431.4570,N,08059.8027,W,1,8,1.7,14,M,,M,,*59
06/14/2015	23:04:48.537	$GPGGA,230449,2431.4572,N,08059.8042,W,1,8,1.7,14,M,,M,,*59
06/14/2015	23:04:49.564	$GPGGA,230450,2431.4574,N,08059.8056,W,1,8,1.7,14,M,,M,,*52
06/14/2015	23:04:50.527	$GPGGA,230451,2431.4575,N,08059.8071,W,1,8,1.7,14,M,,M,,*57
06/14/2015	23:04:51.574	$GPGGA,230452,2431.4576,N,08059.8086,W,1,8,1.7,14,M,,M,,*5F
06/14/2015	23:04:52.544	$GPGGA,230453,2431.4576,N,08059.8103,W,1,8,1.7,14,M,,M,,*52
06/14/2015	23:04:53.564	$GPGGA,230454,2431.4578,N,08059.8121,W,1,8,1.7,14,M,,M,,*5B
06/14/2015	23:04:54.524	$GPGGA,230455,2431.4579,N,08059.8137,W,1,8,1.7,14,M,,M,,*5C
06/14/2015	23:04:55.554	$GPGGA,230456,2431.4582,N,08059.8155,W,1,8,1.7,14,M,,M,,*5F
06/14/2015	23:04:56.514	$GPGGA,230457,2431.4583,N,08059.8172,W,1,8,1.7,14,M,,M,,*5A
06/14/2015	23:04:57.528	$GPGGA,230458,2431.4583,N,08059.8186,W,1,8,1.7,14,M,,M,,*5E
06/14/2015	23:04:58.514	$GPGGA,230459,2431.4585,N,08059.8201,W,1,8,1.7,14,M,,M,,*55
06/14/2015	23:04:59.564	$GPGGA,230500,2431.4586,N,08059.8216,W,1,8,1.7,14,M,,M,,*5D
06/14/2015	23:05:00.504	$GPGGA,230501,2431.4587,N,08059.8233,W,1,8,1.7,14,M,,M,,*5A
06/14/2015	23:05:01.544	$GPGGA,230502,2431.4590,N,08059.8251,W,1,8,1.7,14,M,,M,,*5B
06/14/2015	23:05:02.504	$GPGGA,230503,2431.4590,N,08059.8267,W,1,8,1.7,14,M,,M,,*5F
06/14/2015	23:05:03.654	$GPGGA,230504,2431.4592,N,08059.8284,W,1,8,1.7,14,M,,M,,*57
06/14/2015	23:05:04.526	$GPGGA,230505,2431.4593,N,08059.8300,W,1,8,1.7,14,M,,M,,*5A
06/14/2015	23:05:05.494	$GPGGA,230506,2431.4594,N,08059.8316,W,1,8,1.7,14,M,,M,,*59
06/14/2015	23:05:06.614	$GPGGA,230507,2431.4597,N,08059.8331,W,1,8,1.7,14,M,,M,,*5E
06/14/2015	23:05:07.539	$GPGGA,230508,2431.4599,N,08059.8345,W,1,8,1.7,14,M,,M,,*5C
06/14/2015	23:05:08.494	$GPGGA,230509,2431.4600,N,08059.8363,W,1,8,1.7,14,M,,M,,*5A
06/14/2015	23:05:09.504	$GPGGA,230510,2431.4601,N,08059.8379,W,1,8,1.7,14,M,,M,,*58
06/14/2015	23:05:10.584	$GPGGA,230511,2431.4603,N,08059.8396,W,1,8,1.7,14,M,,M,,*5A
06/14/2015	23:05:11.594	$GPGGA,230512,2431.4604,N,08059.8411,W,1,8,1.7,14,M,,M,,*56
06/14/2015	23:05:12.584	$GPGGA,230513,2431.4607,N,08059.8426,W,1,8,1.7,14,M,,M,,*50
06/14/2015	23:05:13.594	$GPGGA,230514,2431.4608,N,08059.8443,W,1,8,1.7,14,M,,M,,*5B
06/14/2015	23:05:14.484	$GPGGA,230515,2431.4610,N,08059.8457,W,1,8,1.7,14,M,,M,,*56
06/14/2015	23:05:15.584	$GPGGA,230516,2431.4611,N,08059.8473,W,1,8,1.7,14,M,,M,,*52
06/14/2015	23:05:16.927	$GPGGA,230517,2431.4612,N,08059.8490,W,1,8,1.7,14,M,,M,,*5D
06/14/2015	23:05:17.594	$GPGGA,230518,2431.4614,N,08059.8506,W,1,8,1.7,14,M,,M,,*5A
06/14/2015	23:05:18.573	$GPGGA,230519,2431.4615,N,08059.8522,W,1,8,1.7,14,M,,M,,*5C
06/14/2015	23:05:19.584	$GPGGA,230520,2431.4617,N,08059.8538,W,1,8,1.7,14,M,,M,,*5F
06/14/2015	23:05:20.574	$GPGGA,230521,2431.4619,N,08059.8555,W,1,8,1.7,14,M,,M,,*5B
06/14/2015	23:05:21.594	$GPGGA,230522,2431.4619,N,08059.8570,W,1,8,1.7,14,M,,M,,*5F
06/14/2015	23:05:22.564	$GPGGA,230523,2431.4621,N,08059.8587,W,1,8,1.7,14,M,,M,,*5D
06/14/2015	23:05:23.594	$GPGGA,230524,2431.4622,N,08059.8602,W,1,8,1.7,14,M,,M,,*57
06/14/2015	23:05:24.574	$GPGGA,230525,2431.4622,N,08059.8618,W,1,8,1.7,14,M,,M,,*5D
06/14/2015	23:05:25.584	$GPGGA,230526,2431.4625,N,08059.8634,W,1,8,1.7,14,M,,M,,*57
06/14/2015	23:05:26.554	$GPGGA,230527,2431.4626,N,08059.8650,W,1,8,1.7,14,M,,M,,*57
06/14/2015	23:05:27.584	$GPGGA,230528,2431.4626,N,08059.8665,W,1,8,1.7,14,M,,M,,*5E
06/14/2015	23:05:28.554	$GPGGA,230529,2431.4628,N,08059.8681,W,1,8,1.7,13,M,,M,,*5C
06/14/2015	23:05:29.544	$GPGGA,230530,2431.4629,N,08059.8697,W,1,8,1.7,13,M,,M,,*52
06/14/2015	23:05:30.554	$GPGGA,230531,2431.4630,N,08059.8714,W,1,8,1.7,13,M,,M,,*51
06/14/2015	23:05:31.584	$GPGGA,230532,2431.4630,N,08059.8730,W,1,8,1.7,13,M,,M,,*54
06/14/2015	23:05:32.534	$GPGGA,230533,2431.4630,N,08059.8746,W,1,8,1.7,13,M,,M,,*54
06/14/2015	23:05:33.564	$GPGGA,230534,2431.4632,N,08059.8761,W,1,8,1.7,13,M,,M,,*54
06/14/2015	23:05:34.539	$GPGGA,230535,2431.4633,N,08059.8776,W,1,8,1.7,13,M,,M,,*52
06/14/2015	23:05:35.644	$GPGGA,230536,2431.4633,N,08059.8793,W,1,8,1.7,13,M,,M,,*5A
06/14/2015	23:05:36.545	$GPGGA,230537,2431.4635,N,08059.8809,W,1,8,1.7,13,M,,M,,*51
06/14/2015	23:05:37.538	$GPGGA,230538,2431.4636,N,08059.8826,W,1,8,1.7,13,M,,M,,*50
06/14/2015	23:05:38.644	$GPGGA,230539,2431.4635,N,08059.8844,W,1,8,1.7,13,M,,M,,*56
06/14/2015	23:05:39.574	$GPGGA,230540,2431.4637,N,08059.8858,W,1,8,1.7,13,M,,M,,*57
06/14/2015	23:05:40.754	$GPGGA,230541,2431.4637,N,08059.8873,W,1,8,1.7,13,M,,M,,*5F
06/14/2015	23:05:41.536	$GPGGA,230542,2431.4637,N,08059.8889,W,1,8,1.7,13,M,,M,,*59
06/14/2015	23:05:42.514	$GPGGA,230543,2431.4639,N,08059.8905,W,1,8,1.7,13,M,,M,,*53
06/14/2015	23:05:43.526	$GPGGA,230544,2431.4640,N,08059.8920,W,1,8,1.7,13,M,,M,,*5D
06/14/2015	23:05:44.514	$GPGGA,230545,2431.4641,N,08059.8938,W,1,8,1.7,13,M,,M,,*54
06/14/2015	23:05:45.525	$GPGGA,230546,2431.4643,N,08059.8953,W,1,8,1.7,13,M,,M,,*58
06/14/2015	23:05:46.527	$GPGGA,230547,2431.4644,N,08059.8970,W,1,8,1.7,13,M,,M,,*5F
06/14/2015	23:05:47.529	$GPGGA,230548,2431.4644,N,08059.8986,W,1,8,1.7,13,M,,M,,*59
06/14/2015	23:05:48.504	$GPGGA,230549,2431.4644,N,08059.9001,W,1,8,1.7,13,M,,M,,*5F
06/14/2015	23:05:49.604	$GPGGA,230550,2431.4647,N,08059.9017,W,1,8,1.7,13,M,,M,,*53
06/14/2015	23:05:50.504	$GPGGA,230551,2431.4648,N,08059.9032,W,1,8,1.7,13,M,,M,,*5A
06/14/2015	23:05:51.554	$GPGGA,230552,2431.4648,N,08059.9048,W,1,8,1.7,13,M,,M,,*54
06/14/2015	23:05:52.514	$GPGGA,230553,2431.4650,N,08059.9065,W,1,8,1.7,13,M,,M,,*53
06/14/2015	23:05:53.494	$GPGGA,230554,2431.4651,N,08059.9082,W,1,8,1.7,13,M,,M,,*5C
06/14/2015	23:05:54.615	$GPGGA,230555,2431.4650,N,08059.9098,W,1,8,1.7,13,M,,M,,*57
06/14/2015	23:05:55.604	$GPGGA,230556,2431.4651,N,08059.9115,W,1,8,1.7,13,M,,M,,*51
06/14/2015	23:05:56.494	$GPGGA,230557,2431.4652,N,08059.9130,W,1,8,1.7,13,M,,M,,*54
06/14/2015	23:05:57.504	$GPGGA,230558,2431.4654,N,08059.9147,W,1,8,1.7,13,M,,M,,*5D
06/14/2015	23:05:58.604	$GPGGA,230559,2431.4655,N,08059.9162,W,1,8,1.7,13,M,,M,,*5A
06/14/2015	23:05:59.627	$GPGGA,230600,2431.4655,N,08059.9178,W,1,8,1.7,13,M,,M,,*5E
06/14/2015	23:06:00.594	$GPGGA,230601,2431.4655,N,08059.9194,W,1,8,1.7,13,M,,M,,*5D
06/14/2015	23:06:01.574	$GPGGA,230602,2431.4658,N,08059.9212,W,1,8,1.7,13,M,,M,,*5E
06/14/2015	23:06:02.574	$GPGGA,230603,2431.4659,N,08059.9228,W,1,8,1.7,13,M,,M,,*57
06/14/2015	23:06:03.584	$GPGGA,230604,2431.4659,N,08059.9245,W,1,8,1.7,13,M,,M,,*5B
06/14/2015	23:06:04.564	$GPGGA,230605,2431.4659,N,08059.9261,W,1,8,1.7,13,M,,M,,*5C
06/14/2015	23:06:05.594	$GPGGA,230606,2431.4662,N,08059.9277,W,1,8,1.7,13,M,,M,,*50
06/14/2015	23:06:06.554	$GPGGA,230607,2431.4662,N,08059.9293,W,1,8,1.7,13,M,,M,,*5B
06/14/2015	23:06:07.564	$GPGGA,230608,2431.4664,N,08059.9310,W,1,8,1.7,13,M,,M,,*58
06/14/2015	23:06:08.564	$GPGGA,230609,2431.4665,N,08059.9325,W,1,8,1.7,12,M,,M,,*5F
06/14/2015	23:06:09.564	$GPGGA,230610,2431.4666,N,08059.9343,W,1,8,1.7,12,M,,M,,*54
06/14/2015	23:06:10.553	$GPGGA,230611,2431.4668,N,08059.9361,W,1,8,1.7,12,M,,M,,*5B
06/14/2015	23:06:11.573	$GPGGA,230612,2431.4669,N,08059.9376,W,1,8,1.7,12,M,,M,,*5F
06/14/2015	23:06:12.553	$GPGGA,230613,2431.4669,N,08059.9393,W,1,8,2.1,12,M,,M,,*50
06/14/2015	23:06:13.563	$GPGGA,230614,2431.4672,N,08059.9408,W,1,8,1.7,12,M,,M,,*5D
06/14/2015	23:06:14.553	$GPGGA,230615,2431.4673,N,08059.9426,W,1,8,1.7,12,M,,M,,*51
06/14/2015	23:06:15.573	$GPGGA,230616,2431.4675,N,08059.9443,W,1,8,1.7,12,M,,M,,*57
06/14/2015	23:06:16.543	$GPGGA,230617,2431.4676,N,08059.9458,W,1,8,1.6,12,M,,M,,*5E
06/14/2015	23:06:17.553	$GPGGA,230618,2431.4677,N,08059.9476,W,1,8,1.6,12,M,,M,,*5C
06/14/2015	23:06:18.543	$GPGGA,230619,2431.4677,N,08059.9492,W,1,8,1.6,12,M,,M,,*57
06/14/2015	23:06:19.563	$GPGGA,230620,2431.4680,N,08059.9509,W,1,8,1.6,12,M,,M,,*56
06/14/2015	23:06:20.523	$GPGGA,230621,2431.4680,N,08059.9525,W,1,8,1.6,12,M,,M,,*59
06/14/2015	23:06:21.523	$GPGGA,230622,2431.4680,N,08059.9541,W,1,8,1.6,12,M,,M,,*58
06/14/2015	23:06:22.534	$GPGGA,230623,2431.4683,N,08059.9559,W,1,8,1.6,12,M,,M,,*53
06/14/2015	23:06:23.574	$GPGGA,230624,2431.4684,N,08059.9575,W,1,8,1.6,12,M,,M,,*5D
06/14/2015	23:06:24.526	$GPGGA,230625,2431.4684,N,08059.9592,W,1,8,1.6,12,M,,M,,*55
06/14/2015	23:06:25.554	$GPGGA,230626,2431.4687,N,08059.9608,W,1,8,1.6,12,M,,M,,*55
06/14/2015	23:06:26.517	$GPGGA,230627,2431.4688,N,08059.9626,W,1,8,1.6,12,M,,M,,*57
06/14/2015	23:06:27.864	$GPGGA,230628,2431.4688,N,08059.9643,W,1,8,1.6,12,M,,M,,*5B
06/14/2015	23:06:28.519	$GPGGA,230629,2431.4690,N,08059.9660,W,1,8,1.6,12,M,,M,,*52
06/14/2015	23:06:29.543	$GPGGA,230630,2431.4691,N,08059.9678,W,1,8,1.6,12,M,,M,,*52
06/14/2015	23:06:30.523	$GPGGA,230631,2431.4693,N,08059.9694,W,1,8,1.6,12,M,,M,,*53
06/14/2015	23:06:31.523	$GPGGA,230632,2431.4694,N,08059.9711,W,1,8,1.6,12,M,,M,,*5B
06/14/2015	23:06:32.503	$GPGGA,230633,2431.4695,N,08059.9727,W,1,8,1.6,12,M,,M,,*5E
06/14/2015	23:06:33.503	$GPGGA,230634,2431.4697,N,08059.9744,W,1,8,1.6,12,M,,M,,*5E
06/14/2015	23:06:34.523	$GPGGA,230635,2431.4698,N,08059.9762,W,1,8,1.6,12,M,,M,,*54
06/14/2015	23:06:35.543	$GPGGA,230636,2431.4699,N,08059.9780,W,1,8,1.6,12,M,,M,,*5A
06/14/2015	23:06:37.493	$GPGGA,230637,2431.4701,N,08059.9798,W,1,8,1.6,12,M,,M,,*52
06/14/2015	23:06:37.525	$GPGGA,230638,2431.4700,N,08059.9814,W,1,8,1.6,12,M,,M,,*57
06/14/2015	23:06:38.503	$GPGGA,230639,2431.4702,N,08059.9831,W,1,8,1.6,12,M,,M,,*53
06/14/2015	23:06:39.604	$GPGGA,230640,2431.4702,N,08059.9848,W,1,8,1.6,12,M,,M,,*53
06/14/2015	23:06:40.604	$GPGGA,230641,2431.4705,N,08059.9864,W,1,8,1.6,12,M,,M,,*5B
06/14/2015	23:06:41.484	$GPGGA,230642,2431.4706,N,08059.9881,W,1,8,1.6,12,M,,M,,*50
06/14/2015	23:06:42.594	$GPGGA,230643,2431.4706,N,08059.9899,W,1,8,1.6,12,M,,M,,*58
06/14/2015	23:06:43.484	$GPGGA,230644,2431.4708,N,08059.9917,W,1,8,1.6,12,M,,M,,*56
06/14/2015	23:06:44.574	$GPGGA,230645,2431.4709,N,08059.9933,W,1,8,1.6,12,M,,M,,*50
06/14/2015	23:06:45.583	$GPGGA,230646,2431.4708,N,08059.9951,W,1,8,1.6,12,M,,M,,*56
06/14/2015	23:06:46.483	$GPGGA,230647,2431.4711,N,08059.9967,W,1,8,1.6,12,M,,M,,*5A
06/14/2015	23:06:47.573	$GPGGA,230648,2431.4712,N,08059.9985,W,1,8,1.6,12,M,,M,,*5A
06/14/2015	23:06:48.573	$GPGGA,230649,2431.4713,N,08100.0000,W,1,8,1.6,12,M,,M,,*5A
06/14/2015	23:06:49.573	$GPGGA,230650,2431.4713,N,08100.0018,W,1,8,1.6,12,M,,M,,*5B
06/14/2015	23:06:50.573	$GPGGA,230651,2431.4715,N,08100.0034,W,1,8,1.6,12,M,,M,,*52
06/14/2015	23:06:51.573	$GPGGA,230652,2431.4716,N,08100.0051,W,1,8,1.6,12,M,,M,,*51
06/14/2015	23:06:52.573	$GPGGA,230653,2431.4717,N,08100.0069,W,1,8,1.6,12,M,,M,,*5A
06/14/2015	23:06:53.603	$GPGGA,230654,2431.4717,N,08100.0085,W,1,8,1.6,12,M,,M,,*5F
06/14/2015	23:06:54.553	$GPGGA,230655,2431.4719,N,08100.0102,W,1,8,1.6,12,M,,M,,*5E
06/14/2015	23:06:55.614	$GPGGA,230656,2431.4720,N,08100.0119,W,1,8,1.6,12,M,,M,,*5D
06/14/2015	23:06:56.553	$GPGGA,230657,2431.4722,N,08100.0135,W,1,8,1.6,12,M,,M,,*50
06/14/2015	23:06:57.574	$GPGGA,230658,2431.4723,N,08100.0153,W,1,8,1.6,12,M,,M,,*5E
06/14/2015	23:06:58.564	$GPGGA,230659,2431.4724,N,08100.0170,W,1,8,1.6,12,M,,M,,*59
06/14/2015	23:06:59.594	$GPGGA,230700,2431.4724,N,08100.0186,W,1,8,1.6,12,M,,M,,*5D
06/14/2015	23:07:00.544	$GPGGA,230701,2431.4726,N,08100.0202,W,1,8,1.6,12,M,,M,,*51
06/14/2015	23:07:01.574	$GPGGA,230702,2431.4727,N,08100.0220,W,1,8,1.6,12,M,,M,,*53
06/14/2015	23:07:02.544	$GPGGA,230703,2431.4727,N,08100.0238,W,1,8,1.6,12,M,,M,,*5B
06/14/2015	23:07:03.583	$GPGGA,230704,2431.4730,N,08100.0256,W,1,8,1.6,12,M,,M,,*52
06/14/2015	23:07:04.543	$GPGGA,230705,2431.4729,N,08100.0272,W,1,8,1.6,12,M,,M,,*5D
06/14/2015	23:07:05.543	$GPGGA,230706,2431.4731,N,08100.0289,W,1,8,1.6,12,M,,M,,*53
06/14/2015	23:07:06.528	$GPGGA,230707,2431.4733,N,08100.0305,W,1,8,1.6,12,M,,M,,*55
06/14/2015	23:07:07.543	$GPGGA,230708,2431.4734,N,08100.0322,W,1,8,1.6,12,M,,M,,*58
06/14/2015	23:07:08.543	$GPGGA,230709,2431.4734,N,08100.0339,W,1,8,1.6,12,M,,M,,*53
06/14/2015	23:07:09.563	$GPGGA,230710,2431.4735,N,08100.0355,W,1,8,1.6,12,M,,M,,*50
06/14/2015	23:07:10.533	$GPGGA,230711,2431.4738,N,08100.0373,W,1,8,1.6,12,M,,M,,*58
06/14/2015	23:07:11.573	$GPGGA,230712,2431.4738,N,08100.0390,W,1,8,1.6,12,M,,M,,*56
06/14/2015	23:07:12.530	$GPGGA,230713,2431.4740,N,08100.0408,W,1,8,1.6,12,M,,M,,*5E
06/14/2015	23:07:13.543	$GPGGA,230714,2431.4742,N,08100.0424,W,1,8,1.6,12,M,,M,,*55
06/14/2015	23:07:14.524	$GPGGA,230715,2431.4742,N,08100.0441,W,1,8,1.6,12,M,,M,,*57
06/14/2015	23:07:15.554	$GPGGA,230716,2431.4744,N,08100.0457,W,1,8,1.6,12,M,,M,,*55
06/14/2015	23:07:16.504	$GPGGA,230717,2431.4745,N,08100.0474,W,1,8,1.6,12,M,,M,,*54
06/14/2015	23:07:17.530	$GPGGA,230718,2431.4745,N,08100.0491,W,1,8,1.6,12,M,,M,,*50
06/14/2015	23:07:18.518	$GPGGA,230719,2431.4748,N,08100.0509,W,1,8,1.6,12,M,,M,,*5C
06/14/2015	23:07:19.514	$GPGGA,230720,2431.4749,N,08100.0525,W,1,8,1.6,12,M,,M,,*59
06/14/2015	23:07:20.493	$GPGGA,230721,2431.4749,N,08100.0542,W,1,8,1.6,12,M,,M,,*59
06/14/2015	23:07:21.553	$GPGGA,230722,2431.4752,N,08100.0560,W,1,8,1.6,12,M,,M,,*50
06/14/2015	23:07:22.503	$GPGGA,230723,2431.4753,N,08100.0576,W,1,8,1.6,12,M,,M,,*57
06/14/2015	23:07:23.503	$GPGGA,230724,2431.4753,N,08100.0593,W,1,8,1.6,12,M,,M,,*5B
06/14/2015	23:07:24.493	$GPGGA,230725,2431.4755,N,08100.0611,W,1,8,1.6,12,M,,M,,*55
06/14/2015	23:07:25.603	$GPGGA,230726,2431.4756,N,08100.0628,W,1,8,1.6,12,M,,M,,*5F
06/14/2015	23:07:26.593	$GPGGA,230727,2431.4758,N,08100.0644,W,1,8,1.6,11,M,,M,,*59
06/14/2015	23:07:27.633	$GPGGA,230728,2431.4760,N,08100.0661,W,1,8,1.6,11,M,,M,,*5A
06/14/2015	23:07:28.503	$GPGGA,230729,2431.4760,N,08100.0679,W,1,8,1.6,11,M,,M,,*52
06/14/2015	23:07:29.493	$GPGGA,230730,2431.4760,N,08100.0695,W,1,8,1.6,11,M,,M,,*58
06/14/2015	23:07:30.583	$GPGGA,230731,2431.4762,N,08100.0712,W,1,8,1.6,11,M,,M,,*55
06/14/2015	23:07:31.614	$GPGGA,230732,2431.4763,N,08100.0728,W,1,8,1.6,11,M,,M,,*5E
06/14/2015	23:07:32.574	$GPGGA,230733,2431.4764,N,08100.0745,W,1,8,1.6,11,M,,M,,*53
06/14/2015	23:07:33.604	$GPGGA,230734,2431.4766,N,08100.0763,W,1,8,1.6,11,M,,M,,*52
06/14/2015	23:07:34.564	$GPGGA,230735,2431.4767,N,08100.0780,W,1,8,1.6,11,M,,M,,*5F
06/14/2015	23:07:35.604	$GPGGA,230736,2431.4770,N,08100.0795,W,1,8,1.6,11,M,,M,,*5E
06/14/2015	23:07:36.564	$GPGGA,230737,2431.4769,N,08100.0811,W,1,8,1.6,11,M,,M,,*54
06/14/2015	23:07:37.574	$GPGGA,230738,2431.4771,N,08100.0828,W,1,8,1.6,11,M,,M,,*58
06/14/2015	23:07:38.573	$GPGGA,230739,2431.4774,N,08100.0846,W,1,8,1.6,11,M,,M,,*54
06/14/2015	23:07:39.593	$GPGGA,230740,2431.4773,N,08100.0864,W,1,8,1.6,11,M,,M,,*5D
06/14/2015	23:07:40.563	$GPGGA,230741,2431.4776,N,08100.0882,W,1,8,1.6,11,M,,M,,*51
06/14/2015	23:07:41.553	$GPGGA,230742,2431.4778,N,08100.0899,W,1,8,1.6,11,M,,M,,*56
06/14/2015	23:07:42.563	$GPGGA,230743,2431.4778,N,08100.0914,W,1,8,1.6,11,M,,M,,*53
06/14/2015	23:07:43.613	$GPGGA,230744,2431.4780,N,08100.0929,W,1,8,1.6,11,M,,M,,*5D
06/14/2015	23:07:44.563	$GPGGA,230745,2431.4781,N,08100.0946,W,1,8,1.6,11,M,,M,,*54
06/14/2015	23:07:45.583	$GPGGA,230746,2431.4782,N,08100.0962,W,1,8,1.6,11,M,,M,,*52
06/14/2015	23:07:46.553	$GPGGA,230747,2431.4784,N,08100.0980,W,1,8,1.6,11,M,,M,,*59
06/14/2015	23:07:47.583	$GPGGA,230748,2431.4785,N,08100.0998,W,1,8,1.6,11,M,,M,,*5E
06/14/2015	23:07:48.543	$GPGGA,230749,2431.4785,N,08100.1016,W,1,8,1.6,11,M,,M,,*51
06/14/2015	23:07:49.534	$GPGGA,230750,2431.4789,N,08100.1033,W,1,8,1.6,11,M,,M,,*52
06/14/2015	23:07:50.544	$GPGGA,230751,2431.4789,N,08100.1048,W,1,8,2.0,11,M,,M,,*5A
06/14/2015	23:07:51.574	$GPGGA,230752,2431.4789,N,08100.1062,W,1,7,1.6,11,M,,M,,*5B
06/14/2015	23:07:52.554	$GPGGA,230753,2431.4789,N,08100.1078,W,1,7,1.6,11,M,,M,,*51
06/14/2015	23:07:53.564	$GPGGA,230754,2431.4792,N,08100.1095,W,1,8,1.6,11,M,,M,,*50
06/14/2015	23:07:54.534	$GPGGA,230755,2431.4791,N,08100.1111,W,1,8,1.6,11,M,,M,,*5F
06/14/2015	23:07:55.573	$GPGGA,230756,2431.4792,N,08100.1128,W,1,8,1.6,11,M,,M,,*55
06/14/2015	23:07:56.524	$GPGGA,230757,2431.4792,N,08100.1145,W,1,8,1.6,11,M,,M,,*5F
06/14/2015	23:07:57.543	$GPGGA,230758,2431.4795,N,08100.1161,W,1,8,1.6,11,M,,M,,*51
06/14/2015	23:07:58.533	$GPGGA,230759,2431.4794,N,08100.1178,W,1,8,1.6,11,M,,M,,*59
06/14/2015	23:07:59.573	$GPGGA,230800,2431.4796,N,08100.1194,W,1,8,1.6,11,M,,M,,*5A
06/14/2015	23:08:00.526	$GPGGA,230801,2431.4796,N,08100.1210,W,1,8,1.6,11,M,,M,,*54
06/14/2015	23:08:01.553	$GPGGA,230802,2431.4796,N,08100.1226,W,1,8,1.6,11,M,,M,,*52
06/14/2015	23:08:02.523	$GPGGA,230803,2431.4796,N,08100.1243,W,1,8,1.6,11,M,,M,,*50
06/14/2015	23:08:03.543	$GPGGA,230804,2431.4798,N,08100.1261,W,1,8,1.6,11,M,,M,,*59
06/14/2015	23:08:04.627	$GPGGA,230805,2431.4799,N,08100.1277,W,1,8,1.6,12,M,,M,,*5D
06/14/2015	23:08:05.533	$GPGGA,230806,2431.4799,N,08100.1294,W,1,8,1.6,12,M,,M,,*53
06/14/2015	23:08:06.521	$GPGGA,230807,2431.4800,N,08100.1311,W,1,8,1.6,12,M,,M,,*51
06/14/2015	23:08:07.534	$GPGGA,230808,2431.4800,N,08100.1329,W,1,8,1.6,12,M,,M,,*55
06/14/2015	23:08:08.604	$GPGGA,230809,2431.4802,N,08100.1345,W,1,8,1.6,12,M,,M,,*5C
06/14/2015	23:08:09.525	$GPGGA,230810,2431.4801,N,08100.1362,W,1,8,1.6,12,M,,M,,*52
06/14/2015	23:08:10.518	$GPGGA,230811,2431.4803,N,08100.1380,W,1,8,1.6,12,M,,M,,*5D
06/14/2015	23:08:11.534	$GPGGA,230812,2431.4803,N,08100.1398,W,1,8,1.6,12,M,,M,,*57
06/14/2015	23:08:12.521	$GPGGA,230813,2431.4806,N,08100.1413,W,1,8,1.6,12,M,,M,,*57
06/14/2015	23:08:13.525	$GPGGA,230814,2431.4807,N,08100.1431,W,1,8,1.6,12,M,,M,,*51
06/14/2015	23:08:14.493	$GPGGA,230815,2431.4807,N,08100.1447,W,1,8,1.6,12,M,,M,,*51
06/14/2015	23:08:15.525	$GPGGA,230816,2431.4807,N,08100.1465,W,1,8,1.6,12,M,,M,,*52
06/14/2015	23:08:16.503	$GPGGA,230817,2431.4809,N,08100.1483,W,1,8,1.6,12,M,,M,,*55
06/14/2015	23:08:17.503	$GPGGA,230818,2431.4810,N,08100.1500,W,1,8,1.6,12,M,,M,,*58
06/14/2015	23:08:18.574	$GPGGA,230819,2431.4810,N,08100.1517,W,1,8,1.6,12,M,,M,,*5F
06/14/2015	23:08:19.593	$GPGGA,230820,2431.4810,N,08100.1535,W,1,8,1.6,12,M,,M,,*55
06/14/2015	23:08:20.493	$GPGGA,230821,2431.4813,N,08100.1551,W,1,8,1.6,12,M,,M,,*55
06/14/2015	23:08:21.593	$GPGGA,230822,2431.4814,N,08100.1568,W,1,8,1.6,12,M,,M,,*5B
06/14/2015	23:08:22.573	$GPGGA,230823,2431.4814,N,08100.1586,W,1,8,1.6,12,M,,M,,*5A
06/14/2015	23:08:23.593	$GPGGA,230824,2431.4814,N,08100.1601,W,1,8,1.6,12,M,,M,,*51
06/14/2015	23:08:24.574	$GPGGA,230825,2431.4817,N,08100.1619,W,1,8,1.6,12,M,,M,,*5A
06/14/2015	23:08:25.574	$GPGGA,230826,2431.4818,N,08100.1637,W,1,8,1.6,12,M,,M,,*5A
06/14/2015	23:08:26.574	$GPGGA,230827,2431.4818,N,08100.1655,W,1,8,1.6,12,M,,M,,*5F
06/14/2015	23:08:27.564	$GPGGA,230828,2431.4820,N,08100.1673,W,1,8,1.6,12,M,,M,,*5F
06/14/2015	23:08:28.574	$GPGGA,230829,2431.4821,N,08100.1689,W,1,8,1.6,12,M,,M,,*5A
06/14/2015	23:08:29.574	$GPGGA,230830,2431.4821,N,08100.1705,W,1,8,1.6,12,M,,M,,*57
06/14/2015	23:08:30.553	$GPGGA,230831,2431.4823,N,08100.1721,W,1,8,1.6,12,M,,M,,*52
06/14/2015	23:08:31.583	$GPGGA,230832,2431.4825,N,08100.1738,W,1,8,1.6,12,M,,M,,*5F
06/14/2015	23:08:32.553	$GPGGA,230833,2431.4825,N,08100.1754,W,1,8,1.6,12,M,,M,,*54
06/14/2015	23:08:33.573	$GPGGA,230834,2431.4827,N,08100.1772,W,1,8,1.6,12,M,,M,,*55
06/14/2015	23:08:34.553	$GPGGA,230835,2431.4828,N,08100.1790,W,1,8,1.6,12,M,,M,,*57
06/14/2015	23:08:35.573	$GPGGA,230836,2431.4828,N,08100.1807,W,1,8,1.6,12,M,,M,,*55
06/14/2015	23:08:36.553	$GPGGA,230837,2431.4831,N,08100.1824,W,1,8,1.6,12,M,,M,,*5D
06/14/2015	23:08:37.533	$GPGGA,230838,2431.4832,N,08100.1840,W,1,8,1.6,12,M,,M,,*53
06/14/2015	23:08:38.553	$GPGGA,230839,2431.4834,N,08100.1857,W,1,8,1.6,12,M,,M,,*52
06/14/2015	23:08:39.573	$GPGGA,230840,2431.4836,N,08100.1873,W,1,8,1.6,12,M,,M,,*58
06/14/2015	23:08:40.525	$GPGGA,230841,2431.4836,N,08100.1889,W,1,8,1.6,12,M,,M,,*5C
06/14/2015	23:08:41.544	$GPGGA,230842,2431.4838,N,08100.1907,W,1,8,1.6,12,M,,M,,*56
06/14/2015	23:08:42.534	$GPGGA,230843,2431.4839,N,08100.1925,W,1,8,1.6,12,M,,M,,*56
06/14/2015	23:08:43.574	$GPGGA,230844,2431.4842,N,08100.1943,W,1,8,1.6,12,M,,M,,*5D
06/14/2015	23:08:44.525	$GPGGA,230845,2431.4843,N,08100.1959,W,1,8,1.6,12,M,,M,,*56
06/14/2015	23:08:45.534	$GPGGA,230846,2431.4843,N,08100.1976,W,1,8,1.6,12,M,,M,,*58
06/14/2015	23:08:46.517	$GPGGA,230847,2431.4846,N,08100.1992,W,1,8,1.6,12,M,,M,,*56
06/14/2015	23:08:47.554	$GPGGA,230848,2431.4846,N,08100.2009,W,1,8,1.6,12,M,,M,,*51
06/14/2015	23:08:48.525	$GPGGA,230849,2431.4847,N,08100.2025,W,1,8,1.6,12,M,,M,,*5F
06/14/2015	23:08:49.518	$GPGGA,230850,2431.4849,N,08100.2043,W,1,8,1.6,12,M,,M,,*59
06/14/2015	23:08:50.524	$GPGGA,230851,2431.4850,N,08100.2061,W,1,8,1.6,12,M,,M,,*50
06/14/2015	23:08:51.523	$GPGGA,230852,2431.4852,N,08100.2081,W,1,8,1.6,12,M,,M,,*5F
06/14/2015	23:08:52.503	$GPGGA,230853,2431.4854,N,08100.2097,W,1,8,1.6,12,M,,M,,*5F
06/14/2015	23:08:53.503	$GPGGA,230854,2431.4854,N,08100.2113,W,1,8,1.6,12,M,,M,,*55
06/14/2015	23:08:54.603	$GPGGA,230855,2431.4857,N,08100.2129,W,1,8,1.6,12,M,,M,,*5E
06/14/2015	23:08:55.643	$GPGGA,230856,2431.4857,N,08100.2146,W,1,8,1.6,12,M,,M,,*54
06/14/2015	23:08:56.503	$GPGGA,230857,2431.4859,N,08100.2164,W,1,8,1.6,12,M,,M,,*5B
06/14/2015	23:08:57.524	$GPGGA,230858,2431.4860,N,08100.2180,W,1,8,1.6,12,M,,M,,*54
06/14/2015	23:08:58.593	$GPGGA,230859,2431.4861,N,08100.2198,W,1,8,1.6,12,M,,M,,*5D
06/14/2015	23:08:59.664	$GPGGA,230900,2431.4861,N,08100.2216,W,1,8,1.6,12,M,,M,,*55
06/14/2015	23:09:00.494	$GPGGA,230901,2431.4863,N,08100.2233,W,1,8,1.6,12,M,,M,,*51
06/14/2015	23:09:01.504	$GPGGA,230902,2431.4865,N,08100.2251,W,1,8,1.6,12,M,,M,,*50
06/14/2015	23:09:02.484	$GPGGA,230903,2431.4865,N,08100.2266,W,1,8,1.6,12,M,,M,,*55
06/14/2015	23:09:03.634	$GPGGA,230904,2431.4867,N,08100.2283,W,1,8,1.6,12,M,,M,,*5B
06/14/2015	23:09:04.604	$GPGGA,230905,2431.4868,N,08100.2301,W,1,8,1.6,12,M,,M,,*5E
06/14/2015	23:09:05.483	$GPGGA,230906,2431.4868,N,08100.2319,W,1,8,1.6,12,M,,M,,*54
06/14/2015	23:09:06.483	$GPGGA,230907,2431.4870,N,08100.2337,W,1,8,1.6,12,M,,M,,*50
06/14/2015	23:09:07.483	$GPGGA,230908,2431.4871,N,08100.2353,W,1,8,1.6,12,M,,M,,*5C
06/14/2015	23:09:08.583	$GPGGA,230909,2431.4872,N,08100.2370,W,1,8,2.0,12,M,,M,,*5A
06/14/2015	23:09:09.563	$GPGGA,230910,2431.4872,N,08100.2385,W,1,8,1.6,12,M,,M,,*5D
06/14/2015	23:09:10.573	$GPGGA,230911,2431.4872,N,08100.2402,W,1,8,1.6,12,M,,M,,*54
06/14/2015	23:09:11.583	$GPGGA,230912,2431.4874,N,08100.2417,W,1,8,1.6,12,M,,M,,*55
06/14/2015	23:09:12.573	$GPGGA,230913,2431.4873,N,08100.2435,W,1,8,1.6,12,M,,M,,*53
06/14/2015	23:09:14.603	$GPGGA,230915,2431.4874,N,08100.2471,W,1,8,1.6,12,M,,M,,*52
06/14/2015	23:09:15.593	$GPGGA,230916,2431.4875,N,08100.2486,W,1,8,1.6,12,M,,M,,*58
06/14/2015	23:09:16.564	$GPGGA,230917,2431.4876,N,08100.2503,W,1,8,1.6,12,M,,M,,*56
06/14/2015	23:09:17.574	$GPGGA,230918,2431.4878,N,08100.2518,W,1,8,1.6,12,M,,M,,*5D
06/14/2015	23:09:18.544	$GPGGA,230919,2431.4879,N,08100.2536,W,1,8,1.6,13,M,,M,,*50
06/14/2015	23:09:19.574	$GPGGA,230920,2431.4879,N,08100.2552,W,1,8,1.6,13,M,,M,,*58
06/14/2015	23:09:20.554	$GPGGA,230921,2431.4879,N,08100.2570,W,1,8,1.6,13,M,,M,,*59
06/14/2015	23:09:21.534	$GPGGA,230922,2431.4879,N,08100.2587,W,1,8,1.6,13,M,,M,,*52
06/14/2015	23:09:22.544	$GPGGA,230923,2431.4881,N,08100.2605,W,1,8,1.6,13,M,,M,,*5D
06/14/2015	23:09:23.573	$GPGGA,230924,2431.4882,N,08100.2621,W,1,8,1.6,13,M,,M,,*5F
06/14/2015	23:09:24.543	$GPGGA,230925,2431.4883,N,08100.2637,W,1,8,1.6,13,M,,M,,*58
06/14/2015	23:09:25.533	$GPGGA,230926,2431.4883,N,08100.2653,W,1,8,1.6,13,M,,M,,*59
06/14/2015	23:09:26.543	$GPGGA,230927,2431.4885,N,08100.2670,W,1,8,1.6,13,M,,M,,*5F
06/14/2015	23:09:27.563	$GPGGA,230928,2431.4886,N,08100.2688,W,1,8,1.6,13,M,,M,,*54
06/14/2015	23:09:28.543	$GPGGA,230929,2431.4886,N,08100.2706,W,1,8,1.6,13,M,,M,,*52
06/14/2015	23:09:29.525	$GPGGA,230930,2431.4888,N,08100.2724,W,1,8,1.6,13,M,,M,,*54
06/14/2015	23:09:30.531	$GPGGA,230931,2431.4889,N,08100.2742,W,1,8,1.6,13,M,,M,,*54
06/14/2015	23:09:31.573	$GPGGA,230932,2431.4888,N,08100.2758,W,1,8,1.6,13,M,,M,,*5D
06/14/2015	23:09:32.517	$GPGGA,230933,2431.4890,N,08100.2776,W,1,8,2.0,13,M,,M,,*5C
06/14/2015	23:09:33.515	$GPGGA,230934,2431.4893,N,08100.2793,W,1,8,1.6,13,M,,M,,*56
06/14/2015	23:09:34.522	$GPGGA,230935,2431.4892,N,08100.2807,W,1,8,1.6,13,M,,M,,*54
06/14/2015	23:09:35.554	$GPGGA,230936,2431.4893,N,08100.2825,W,1,8,1.6,13,M,,M,,*56
06/14/2015	23:09:36.529	$GPGGA,230937,2431.4894,N,08100.2843,W,1,8,1.6,13,M,,M,,*50
06/14/2015	23:09:37.529	$GPGGA,230938,2431.4896,N,08100.2861,W,1,8,1.6,13,M,,M,,*5D
06/14/2015	23:09:38.504	$GPGGA,230939,2431.4895,N,08100.2879,W,1,8,1.6,13,M,,M,,*56
06/14/2015	23:09:39.518	$GPGGA,230940,2431.4897,N,08100.2895,W,1,8,1.6,13,M,,M,,*58
06/14/2015	23:09:40.632	$GPGGA,230941,2431.4897,N,08100.2912,W,1,8,1.6,13,M,,M,,*57
06/14/2015	23:09:41.529	$GPGGA,230942,2431.4899,N,08100.2926,W,1,8,1.6,13,M,,M,,*5D
06/14/2015	23:09:42.493	$GPGGA,230943,2431.4900,N,08100.2942,W,1,8,1.6,13,M,,M,,*5F
06/14/2015	23:09:43.543	$GPGGA,230944,2431.4901,N,08100.2959,W,1,8,1.6,13,M,,M,,*53
06/14/2015	23:09:44.519	$GPGGA,230945,2431.4901,N,08100.2978,W,1,8,1.6,13,M,,M,,*51
06/14/2015	23:09:45.635	$GPGGA,230946,2431.4903,N,08100.2998,W,1,8,1.6,13,M,,M,,*5E
06/14/2015	23:09:46.503	$GPGGA,230947,2431.4904,N,08100.3016,W,1,8,1.6,13,M,,M,,*56
06/14/2015	23:09:47.532	$GPGGA,230948,2431.4903,N,08100.3032,W,1,8,1.6,13,M,,M,,*58
06/14/2015	23:09:48.603	$GPGGA,230949,2431.4904,N,08100.3049,W,1,8,1.6,13,M,,M,,*52
06/14/2015	23:09:49.583	$GPGGA,230950,2431.4907,N,08100.3064,W,1,8,1.6,13,M,,M,,*56
06/14/2015	23:09:50.583	$GPGGA,230951,2431.4906,N,08100.3081,W,1,8,1.6,13,M,,M,,*5D
06/14/2015	23:09:51.604	$GPGGA,230952,2431.4908,N,08100.3097,W,1,8,1.6,13,M,,M,,*57
06/14/2015	23:09:52.584	$GPGGA,230953,2431.4910,N,08100.3115,W,1,8,1.6,13,M,,M,,*54
06/14/2015	23:09:53.574	$GPGGA,230954,2431.4911,N,08100.3134,W,1,8,1.6,13,M,,M,,*51
06/14/2015	23:09:54.574	$GPGGA,230955,2431.4911,N,08100.3152,W,1,8,1.6,13,M,,M,,*50
06/14/2015	23:09:55.584	$GPGGA,230956,2431.4912,N,08100.3170,W,1,8,1.6,13,M,,M,,*50
06/14/2015	23:09:56.564	$GPGGA,230957,2431.4914,N,08100.3186,W,1,8,1.6,13,M,,M,,*5E
06/14/2015	23:09:57.564	$GPGGA,230958,2431.4915,N,08100.3202,W,1,8,1.6,13,M,,M,,*5F
06/14/2015	23:09:58.573	$GPGGA,230959,2431.4917,N,08100.3219,W,1,8,1.6,13,M,,M,,*56
06/14/2015	23:09:59.683	$GPGGA,231000,2431.4918,N,08100.3234,W,1,8,1.6,13,M,,M,,*52
06/14/2015	23:10:00.563	$GPGGA,231001,2431.4919,N,08100.3252,W,1,8,1.6,13,M,,M,,*52
06/14/2015	23:10:01.553	$GPGGA,231002,2431.4919,N,08100.3270,W,1,8,1.6,13,M,,M,,*51
06/14/2015	23:10:02.563	$GPGGA,231003,2431.4921,N,08100.3288,W,1,8,1.6,13,M,,M,,*5C
06/14/2015	23:10:03.573	$GPGGA,231004,2431.4922,N,08100.3306,W,1,8,1.6,13,M,,M,,*5F
06/14/2015	23:10:04.563	$GPGGA,231005,2431.4921,N,08100.3321,W,1,8,1.6,13,M,,M,,*58
06/14/2015	23:10:05.574	$GPGGA,231006,2431.4922,N,08100.3338,W,1,8,1.6,13,M,,M,,*50
06/14/2015	23:10:06.553	$GPGGA,231007,2431.4925,N,08100.3353,W,1,8,1.6,13,M,,M,,*5B
06/14/2015	23:10:07.583	$GPGGA,231008,2431.4926,N,08100.3371,W,1,8,1.6,13,M,,M,,*57
06/14/2015	23:10:08.553	$GPGGA,231009,2431.4926,N,08100.3387,W,1,8,1.6,13,M,,M,,*5F
06/14/2015	23:10:09.544	$GPGGA,231010,2431.4928,N,08100.3404,W,1,8,1.6,13,M,,M,,*55
06/14/2015	23:10:10.544	$GPGGA,231011,2431.4927,N,08100.3421,W,1,8,1.6,13,M,,M,,*5C
06/14/2015	23:10:11.574	$GPGGA,231012,2431.4930,N,08100.3439,W,1,8,1.6,13,M,,M,,*50
06/14/2015	23:10:12.544	$GPGGA,231013,2431.4930,N,08100.3455,W,1,8,1.6,13,M,,M,,*5B
06/14/2015	23:10:13.554	$GPGGA,231014,2431.4932,N,08100.3472,W,1,8,1.6,13,M,,M,,*5B
06/14/2015	23:10:14.534	$GPGGA,231015,2431.4933,N,08100.3490,W,1,8,1.6,13,M,,M,,*57
06/14/2015	23:10:15.553	$GPGGA,231016,2431.4935,N,08100.3505,W,1,8,1.6,13,M,,M,,*5F
06/14/2015	23:10:16.533	$GPGGA,231017,2431.4936,N,08100.3522,W,1,8,1.6,13,M,,M,,*58
06/14/2015	23:10:17.563	$GPGGA,231018,2431.4935,N,08100.3540,W,1,8,1.6,13,M,,M,,*50
06/14/2015	23:10:18.839	$GPGGA,231019,2431.4937,N,08100.3556,W,1,8,1.6,13,M,,M,,*54
06/14/2015	23:10:19.573	$GPGGA,231020,2431.4940,N,08100.3573,W,1,8,1.6,13,M,,M,,*59
06/14/2015	23:10:20.513	$GPGGA,231021,2431.4941,N,08100.3591,W,1,8,1.6,13,M,,M,,*55
06/14/2015	23:10:21.513	$GPGGA,231022,2431.4943,N,08100.3609,W,1,8,1.6,13,M,,M,,*56
06/14/2015	23:10:22.613	$GPGGA,231023,2431.4944,N,08100.3625,W,1,8,1.6,13,M,,M,,*5E
06/14/2015	23:10:23.543	$GPGGA,231024,2431.4946,N,08100.3642,W,1,8,1.6,13,M,,M,,*5A
06/14/2015	23:10:24.515	$GPGGA,231025,2431.4947,N,08100.3658,W,1,8,1.6,13,M,,M,,*51
06/14/2015	23:10:25.503	$GPGGA,231026,2431.4948,N,08100.3674,W,1,8,1.6,13,M,,M,,*53
06/14/2015	23:10:26.504	$GPGGA,231027,2431.4950,N,08100.3692,W,1,8,1.6,12,M,,M,,*52
06/14/2015	23:10:27.529	$GPGGA,231028,2431.4951,N,08100.3707,W,1,8,1.6,12,M,,M,,*51
06/14/2015	23:10:28.504	$GPGGA,231029,2431.4953,N,08100.3725,W,1,8,1.6,12,M,,M,,*52
06/14/2015	23:10:29.517	$GPGGA,231030,2431.4954,N,08100.3743,W,1,8,1.6,12,M,,M,,*5D
06/14/2015	23:10:30.494	$GPGGA,231031,2431.4955,N,08100.3761,W,1,8,1.6,12,M,,M,,*5D
06/14/2015	23:10:31.674	$GPGGA,231032,2431.4957,N,08100.3779,W,1,8,1.6,12,M,,M,,*55
06/14/2015	23:10:32.504	$GPGGA,231033,2431.4958,N,08100.3795,W,1,8,1.6,12,M,,M,,*59
06/14/2015	23:10:33.484	$GPGGA,231034,2431.4958,N,08100.3811,W,1,8,1.6,12,M,,M,,*5D
06/14/2015	23:10:34.503	$GPGGA,231035,2431.4961,N,08100.3827,W,1,8,1.6,12,M,,M,,*53
06/14/2015	23:10:35.493	$GPGGA,231036,2431.4962,N,08100.3844,W,1,8,1.6,12,M,,M,,*56
06/14/2015	23:10:36.503	$GPGGA,231037,2431.4962,N,08100.3862,W,1,8,1.6,12,M,,M,,*53
06/14/2015	23:10:37.583	$GPGGA,231038,2431.4964,N,08100.3880,W,1,8,1.6,12,M,,M,,*56
06/14/2015	23:10:38.653	$GPGGA,231039,2431.4965,N,08100.3898,W,1,8,1.6,12,M,,M,,*5F
06/14/2015	23:10:39.683	$GPGGA,231040,2431.4966,N,08100.3914,W,1,8,1.6,12,M,,M,,*57
06/14/2015	23:10:40.583	$GPGGA,231041,2431.4966,N,08100.3931,W,1,8,1.6,12,M,,M,,*51
06/14/2015	23:10:41.603	$GPGGA,231042,2431.4966,N,08100.3946,W,1,8,1.6,12,M,,M,,*52
06/14/2015	23:10:43.731	$GPGGA,231044,2431.4969,N,08100.3981,W,1,8,1.6,12,M,,M,,*50
06/14/2015	23:10:44.654	$GPGGA,231045,2431.4971,N,08100.3999,W,1,8,1.6,12,M,,M,,*51
06/14/2015	23:10:45.606	$GPGGA,231046,2431.4972,N,08100.4015,W,1,8,1.6,12,M,,M,,*5B
06/14/2015	23:10:46.564	$GPGGA,231047,2431.4971,N,08100.4033,W,1,8,1.6,12,M,,M,,*5D
06/14/2015	23:10:47.664	$GPGGA,231048,2431.4973,N,08100.4051,W,1,8,1.6,12,M,,M,,*54
06/14/2015	23:10:48.554	$GPGGA,231049,2431.4973,N,08100.4068,W,1,8,1.6,12,M,,M,,*5F
06/14/2015	23:10:49.654	$GPGGA,231050,2431.4973,N,08100.4083,W,1,8,1.6,12,M,,M,,*52
06/14/2015	23:10:50.616	$GPGGA,231051,2431.4975,N,08100.4100,W,1,8,1.6,12,M,,M,,*5F
06/14/2015	23:10:51.614	$GPGGA,231052,2431.4977,N,08100.4118,W,1,8,1.6,12,M,,M,,*57
06/14/2015	23:10:52.625	$GPGGA,231053,2431.4977,N,08100.4133,W,1,8,1.6,12,M,,M,,*5F
06/14/2015	23:10:53.603	$GPGGA,231054,2431.4979,N,08100.4151,W,1,8,1.6,12,M,,M,,*52
06/14/2015	23:10:54.633	$GPGGA,231055,2431.4980,N,08100.4166,W,1,8,1.6,12,M,,M,,*51
06/14/2015	23:10:55.643	$GPGGA,231056,2431.4980,N,08100.4183,W,1,8,1.6,12,M,,M,,*59
06/14/2015	23:10:56.533	$GPGGA,231057,2431.4980,N,08100.4198,W,1,8,1.6,12,M,,M,,*52
06/14/2015	23:10:57.533	$GPGGA,231058,2431.4980,N,08100.4213,W,1,8,1.6,12,M,,M,,*5D
06/14/2015	23:10:58.593	$GPGGA,231059,2431.4982,N,08100.4230,W,1,8,1.6,12,M,,M,,*5F
06/14/2015	23:10:59.663	$GPGGA,231100,2431.4984,N,08100.4245,W,1,8,1.6,12,M,,M,,*56
06/14/2015	23:11:00.603	$GPGGA,231101,2431.4984,N,08100.4263,W,1,8,1.6,12,M,,M,,*53
06/14/2015	23:11:01.524	$GPGGA,231102,2431.4984,N,08100.4278,W,1,8,1.6,12,M,,M,,*5A
06/14/2015	23:11:02.584	$GPGGA,231103,2431.4986,N,08100.4296,W,1,8,1.6,12,M,,M,,*59
06/14/2015	23:11:03.534	$GPGGA,231104,2431.4987,N,08100.4313,W,1,8,1.6,12,M,,M,,*53
06/14/2015	23:11:04.604	$GPGGA,231105,2431.4985,N,08100.4328,W,1,8,1.6,12,M,,M,,*58
06/14/2015	23:11:05.574	$GPGGA,231106,2431.4987,N,08100.4344,W,1,8,1.6,12,M,,M,,*53
06/14/2015	23:11:06.584	$GPGGA,231107,2431.4987,N,08100.4361,W,1,8,1.6,12,M,,M,,*55
06/14/2015	23:11:07.584	$GPGGA,231108,2431.4988,N,08100.4379,W,1,8,1.6,12,M,,M,,*5C
06/14/2015	23:11:08.633	$GPGGA,231109,2431.4988,N,08100.4395,W,1,8,1.6,12,M,,M,,*5F
06/14/2015	23:11:09.643	$GPGGA,231110,2431.4990,N,08100.4412,W,1,8,1.6,12,M,,M,,*56
06/14/2015	23:11:10.503	$GPGGA,231111,2431.4991,N,08100.4430,W,1,8,1.6,12,M,,M,,*56
06/14/2015	23:11:11.516	$GPGGA,231112,2431.4991,N,08100.4447,W,1,8,1.6,12,M,,M,,*55
06/14/2015	23:11:12.504	$GPGGA,231113,2431.4991,N,08100.4463,W,1,8,1.6,12,M,,M,,*52
06/14/2015	23:11:13.533	$GPGGA,231114,2431.4993,N,08100.4480,W,1,8,1.6,12,M,,M,,*5A
06/14/2015	23:11:14.503	$GPGGA,231115,2431.4995,N,08100.4496,W,1,8,1.6,12,M,,M,,*5A
06/14/2015	23:11:15.573	$GPGGA,231116,2431.4995,N,08100.4513,W,1,8,1.6,12,M,,M,,*55
06/14/2015	23:11:16.563	$GPGGA,231117,2431.4995,N,08100.4530,W,1,8,1.6,12,M,,M,,*55
06/14/2015	23:11:17.523	$GPGGA,231118,2431.4997,N,08100.4548,W,1,8,1.6,12,M,,M,,*57
06/14/2015	23:11:18.493	$GPGGA,231119,2431.4998,N,08100.4564,W,1,8,1.6,12,M,,M,,*57
06/14/2015	23:11:19.564	$GPGGA,231120,2431.5000,N,08100.4581,W,1,8,1.6,12,M,,M,,*5F
06/14/2015	23:11:20.584	$GPGGA,231121,2431.5002,N,08100.4599,W,1,8,1.6,12,M,,M,,*55
06/14/2015	23:11:21.624	$GPGGA,231122,2431.5002,N,08100.4615,W,1,8,1.6,12,M,,M,,*51
06/14/2015	23:11:22.554	$GPGGA,231123,2431.5004,N,08100.4632,W,1,8,1.6,12,M,,M,,*53
06/14/2015	23:11:23.564	$GPGGA,231124,2431.5005,N,08100.4649,W,1,8,1.6,12,M,,M,,*59
06/14/2015	23:11:24.594	$GPGGA,231125,2431.5008,N,08100.4664,W,1,8,1.6,12,M,,M,,*5A
06/14/2015	23:11:25.503	$GPGGA,231126,2431.5009,N,08100.4682,W,1,8,1.6,12,M,,M,,*50
06/14/2015	23:11:26.553	$GPGGA,231127,2431.5011,N,08100.4698,W,1,8,1.6,12,M,,M,,*53
06/14/2015	23:11:27.593	$GPGGA,231128,2431.5013,N,08100.4715,W,1,8,1.6,12,M,,M,,*5A
06/14/2015	23:11:29.635	$GPGGA,231130,2431.5016,N,08100.4751,W,1,8,1.6,12,M,,M,,*56
06/14/2015	23:11:30.563	$GPGGA,231131,2431.5018,N,08100.4767,W,1,8,1.6,12,M,,M,,*5C
06/14/2015	23:11:31.603	$GPGGA,231132,2431.5020,N,08100.4783,W,1,8,1.6,12,M,,M,,*5E
06/14/2015	23:11:32.563	$GPGGA,231133,2431.5023,N,08100.4798,W,1,8,1.6,12,M,,M,,*56
06/14/2015	23:11:33.563	$GPGGA,231134,2431.5026,N,08100.4816,W,1,8,1.6,12,M,,M,,*5D
06/14/2015	23:11:34.583	$GPGGA,231135,2431.5027,N,08100.4832,W,1,8,1.6,12,M,,M,,*5B
06/14/2015	23:11:35.616	$GPGGA,231136,2431.5030,N,08100.4850,W,1,8,1.6,12,M,,M,,*5A
06/14/2015	23:11:36.574	$GPGGA,231137,2431.5033,N,08100.4867,W,1,8,1.6,12,M,,M,,*5C
06/14/2015	23:11:37.574	$GPGGA,231138,2431.5036,N,08100.4884,W,1,8,1.6,12,M,,M,,*5B
06/14/2015	23:11:38.564	$GPGGA,231139,2431.5038,N,08100.4900,W,1,8,1.6,12,M,,M,,*59
06/14/2015	23:11:39.594	$GPGGA,231140,2431.5041,N,08100.4917,W,1,8,1.6,12,M,,M,,*5F
06/14/2015	23:11:40.554	$GPGGA,231141,2431.5044,N,08100.4933,W,1,8,1.6,12,M,,M,,*5D
06/14/2015	23:11:41.574	$GPGGA,231142,2431.5048,N,08100.4950,W,1,8,1.6,12,M,,M,,*57
06/14/2015	23:11:42.594	$GPGGA,231143,2431.5051,N,08100.4967,W,1,8,1.6,12,M,,M,,*5A
06/14/2015	23:11:43.613	$GPGGA,231144,2431.5053,N,08100.4985,W,1,8,1.6,12,M,,M,,*53
06/14/2015	23:11:44.553	$GPGGA,231145,2431.5053,N,08100.4985,W,1,8,1.6,12,M,,M,,*52
06/14/2015	23:11:45.563	$GPGGA,231146,2431.5060,N,08100.5019,W,1,8,1.6,12,M,,M,,*5C
06/14/2015	23:11:46.543	$GPGGA,231147,2431.5063,N,08100.5036,W,1,8,1.6,13,M,,M,,*52
06/14/2015	23:11:47.563	$GPGGA,231148,2431.5065,N,08100.5054,W,1,8,1.6,13,M,,M,,*5F
06/14/2015	23:11:48.593	$GPGGA,231149,2431.5067,N,08100.5070,W,1,8,1.6,13,M,,M,,*5A
06/14/2015	23:11:49.573	$GPGGA,231150,2431.5071,N,08100.5088,W,1,8,1.6,13,M,,M,,*52
06/14/2015	23:11:50.563	$GPGGA,231151,2431.5074,N,08100.5105,W,1,8,1.6,13,M,,M,,*52
