Software Version Number: 1	Data File Format Number: 1	Build Version Number: 1	Error Count Since VI Started: 3	Manufacturer: Raytheon	 Model Number: RayMarine 120	 S/N: 	 Cal Date: 	 Wind Direction Offset: 0.00	 Slope (M)1: 0.00	 Offset (B)1: 0.00	 Slope (M)2: 0.00	 Offset (B)2: 0.00	 Slope (M)3: 0.00	 Offset (B)3: 0.00	 Slope (M)4: 0.00	 Offset (B)4: 0.00	 Slope (M)5: 0.00	 Offset (B)5: 0.00	 Slope (M)6: 0.00	 Offset (B)6: 0.00
Computer Date	Computer Time	GGA String
06/24/2015	20:00:00.569	$GPGGA,200001,2532.8237,N,08002.8360,W,1,10,1.5,14,M,,M,,*6C
06/24/2015	20:00:01.577	$GPGGA,200002,2532.8241,N,08002.8355,W,1,10,1.5,14,M,,M,,*68
06/24/2015	20:00:02.557	$GPGGA,200003,2532.8243,N,08002.8351,W,1,10,1.5,14,M,,M,,*6F
06/24/2015	20:00:03.585	$GPGGA,200004,2532.8246,N,08002.8347,W,1,10,1.5,14,M,,M,,*6A
06/24/2015	20:00:04.545	$GPGGA,200005,2532.8250,N,08002.8342,W,1,10,1.5,14,M,,M,,*69
06/24/2015	20:00:05.545	$GPGGA,200006,2532.8253,N,08002.8338,W,1,10,1.5,14,M,,M,,*64
06/24/2015	20:00:06.545	$GPGGA,200007,2532.8257,N,08002.8333,W,1,10,1.5,14,M,,M,,*6A
06/24/2015	20:00:07.595	$GPGGA,200008,2532.8259,N,08002.8329,W,1,10,1.5,14,M,,M,,*60
06/24/2015	20:00:08.545	$GPGGA,200009,2532.8261,N,08002.8325,W,1,10,1.5,14,M,,M,,*66
06/24/2015	20:00:09.574	$GPGGA,200010,2532.8264,N,08002.8320,W,1,10,1.5,14,M,,M,,*6E
06/24/2015	20:00:10.544	$GPGGA,200011,2532.8268,N,08002.8315,W,1,10,1.5,14,M,,M,,*65
06/24/2015	20:00:11.570	$GPGGA,200012,2532.8271,N,08002.8311,W,1,10,1.5,14,M,,M,,*6A
06/24/2015	20:00:12.534	$GPGGA,200013,2532.8274,N,08002.8306,W,1,10,1.7,14,M,,M,,*6A
06/24/2015	20:00:13.570	$GPGGA,200014,2532.8275,N,08002.8301,W,1,10,1.5,14,M,,M,,*69
06/24/2015	20:00:14.534	$GPGGA,200015,2532.8279,N,08002.8297,W,1,10,1.5,14,M,,M,,*6A
06/24/2015	20:00:15.572	$GPGGA,200016,2532.8282,N,08002.8293,W,1,10,1.5,14,M,,M,,*69
06/24/2015	20:00:16.524	$GPGGA,200017,2532.8285,N,08002.8288,W,1,10,1.5,14,M,,M,,*65
06/24/2015	20:00:17.524	$GPGGA,200018,2532.8289,N,08002.8284,W,1,10,1.5,14,M,,M,,*6A
06/24/2015	20:00:18.515	$GPGGA,200019,2532.8290,N,08002.8279,W,1,10,1.5,14,M,,M,,*61
06/24/2015	20:00:19.535	$GPGGA,200020,2532.8293,N,08002.8275,W,1,10,1.5,14,M,,M,,*64
06/24/2015	20:00:20.525	$GPGGA,200021,2532.8297,N,08002.8271,W,1,10,1.5,14,M,,M,,*65
06/24/2015	20:00:21.545	$GPGGA,200022,2532.8300,N,08002.8266,W,1,10,1.5,14,M,,M,,*6F
06/24/2015	20:00:22.525	$GPGGA,200023,2532.8302,N,08002.8262,W,1,10,1.5,14,M,,M,,*68
06/24/2015	20:00:23.525	$GPGGA,200024,2532.8304,N,08002.8257,W,1,9,1.7,14,M,,M,,*55
06/24/2015	20:00:24.515	$GPGGA,200025,2532.8307,N,08002.8253,W,1,9,1.5,14,M,,M,,*51
06/24/2015	20:00:25.525	$GPGGA,200026,2532.8310,N,08002.8250,W,1,10,1.5,15,M,,M,,*6E
06/24/2015	20:00:26.514	$GPGGA,200027,2532.8311,N,08002.8246,W,1,10,1.5,15,M,,M,,*69
06/24/2015	20:00:27.644	$GPGGA,200028,2532.8315,N,08002.8241,W,1,10,1.5,15,M,,M,,*65
06/24/2015	20:00:28.514	$GPGGA,200029,2532.8317,N,08002.8237,W,1,10,1.5,15,M,,M,,*67
06/24/2015	20:00:29.494	$GPGGA,200030,2532.8318,N,08002.8233,W,1,10,1.5,15,M,,M,,*64
06/24/2015	20:00:30.604	$GPGGA,200031,2532.8322,N,08002.8229,W,1,10,1.5,15,M,,M,,*67
06/24/2015	20:00:31.604	$GPGGA,200032,2532.8324,N,08002.8225,W,1,10,1.5,15,M,,M,,*6E
06/24/2015	20:00:32.504	$GPGGA,200033,2532.8326,N,08002.8220,W,1,10,1.5,15,M,,M,,*68
06/24/2015	20:00:33.584	$GPGGA,200034,2532.8328,N,08002.8215,W,1,10,1.5,15,M,,M,,*67
06/24/2015	20:00:34.494	$GPGGA,200035,2532.8331,N,08002.8211,W,1,10,1.5,15,M,,M,,*6A
06/24/2015	20:00:35.605	$GPGGA,200036,2532.8332,N,08002.8206,W,1,10,1.5,15,M,,M,,*6C
06/24/2015	20:00:36.575	$GPGGA,200037,2532.8335,N,08002.8201,W,1,10,1.5,15,M,,M,,*6D
06/24/2015	20:00:37.585	$GPGGA,200038,2532.8336,N,08002.8197,W,1,10,1.5,15,M,,M,,*6D
06/24/2015	20:00:38.585	$GPGGA,200039,2532.8340,N,08002.8194,W,1,10,1.5,15,M,,M,,*6E
06/24/2015	20:00:39.615	$GPGGA,200040,2532.8342,N,08002.8188,W,1,10,1.5,15,M,,M,,*6F
06/24/2015	20:00:40.585	$GPGGA,200041,2532.8344,N,08002.8183,W,1,10,1.5,15,M,,M,,*63
06/24/2015	20:00:41.585	$GPGGA,200042,2532.8347,N,08002.8181,W,1,10,1.5,15,M,,M,,*61
06/24/2015	20:00:42.575	$GPGGA,200043,2532.8349,N,08002.8178,W,1,10,1.5,15,M,,M,,*68
06/24/2015	20:00:44.604	$GPGGA,200045,2532.8354,N,08002.8168,W,1,10,1.5,15,M,,M,,*63
06/24/2015	20:00:45.554	$GPGGA,200046,2532.8357,N,08002.8165,W,1,10,1.5,15,M,,M,,*6E
06/24/2015	20:00:46.564	$GPGGA,200047,2532.8360,N,08002.8161,W,1,10,1.5,15,M,,M,,*6F
06/24/2015	20:00:47.584	$GPGGA,200048,2532.8362,N,08002.8157,W,1,10,1.5,15,M,,M,,*67
06/24/2015	20:00:48.555	$GPGGA,200049,2532.8365,N,08002.8153,W,1,10,1.5,15,M,,M,,*65
06/24/2015	20:00:49.544	$GPGGA,200050,2532.8368,N,08002.8150,W,1,10,1.5,15,M,,M,,*63
06/24/2015	20:00:50.554	$GPGGA,200051,2532.8371,N,08002.8146,W,1,10,1.5,15,M,,M,,*6D
06/24/2015	20:00:51.566	$GPGGA,200052,2532.8373,N,08002.8142,W,1,10,1.5,15,M,,M,,*68
06/24/2015	20:00:52.554	$GPGGA,200053,2532.8376,N,08002.8139,W,1,10,1.5,15,M,,M,,*60
06/24/2015	20:00:53.545	$GPGGA,200054,2532.8379,N,08002.8135,W,1,10,1.5,15,M,,M,,*64
06/24/2015	20:00:54.545	$GPGGA,200055,2532.8382,N,08002.8131,W,1,10,1.5,15,M,,M,,*65
06/24/2015	20:00:55.585	$GPGGA,200056,2532.8383,N,08002.8127,W,1,10,1.5,15,M,,M,,*60
06/24/2015	20:00:56.535	$GPGGA,200057,2532.8387,N,08002.8123,W,1,10,1.5,15,M,,M,,*61
06/24/2015	20:00:57.535	$GPGGA,200058,2532.8390,N,08002.8119,W,1,10,1.5,15,M,,M,,*61
06/24/2015	20:00:58.545	$GPGGA,200059,2532.8391,N,08002.8116,W,1,10,1.5,15,M,,M,,*6E
06/24/2015	20:00:59.585	$GPGGA,200100,2532.8394,N,08002.8112,W,1,10,1.5,15,M,,M,,*62
06/24/2015	20:01:00.535	$GPGGA,200101,2532.8397,N,08002.8108,W,1,10,1.5,15,M,,M,,*6B
06/24/2015	20:01:01.544	$GPGGA,200102,2532.8398,N,08002.8104,W,1,10,1.5,15,M,,M,,*6B
06/24/2015	20:01:02.514	$GPGGA,200103,2532.8401,N,08002.8100,W,1,10,1.5,15,M,,M,,*69
06/24/2015	20:01:03.544	$GPGGA,200104,2532.8404,N,08002.8097,W,1,10,1.5,15,M,,M,,*64
06/24/2015	20:01:04.514	$GPGGA,200105,2532.8405,N,08002.8093,W,1,10,1.5,15,M,,M,,*60
06/24/2015	20:01:05.524	$GPGGA,200106,2532.8409,N,08002.8089,W,1,10,1.5,15,M,,M,,*64
06/24/2015	20:01:06.514	$GPGGA,200107,2532.8411,N,08002.8085,W,1,10,1.5,15,M,,M,,*60
06/24/2015	20:01:07.544	$GPGGA,200108,2532.8412,N,08002.8082,W,1,10,1.5,15,M,,M,,*6B
06/24/2015	20:01:08.504	$GPGGA,200109,2532.8415,N,08002.8078,W,1,10,1.5,15,M,,M,,*68
06/24/2015	20:01:09.524	$GPGGA,200110,2532.8418,N,08002.8074,W,1,10,1.5,14,M,,M,,*60
06/24/2015	20:01:10.505	$GPGGA,200111,2532.8419,N,08002.8070,W,1,10,1.5,14,M,,M,,*64
06/24/2015	20:01:11.513	$GPGGA,200112,2532.8422,N,08002.8066,W,1,10,1.5,14,M,,M,,*68
06/24/2015	20:01:12.483	$GPGGA,200113,2532.8425,N,08002.8061,W,1,10,1.5,14,M,,M,,*69
06/24/2015	20:01:13.593	$GPGGA,200114,2532.8427,N,08002.8057,W,1,10,1.5,14,M,,M,,*69
06/24/2015	20:01:14.493	$GPGGA,200115,2532.8429,N,08002.8053,W,1,10,1.5,14,M,,M,,*62
06/24/2015	20:01:15.633	$GPGGA,200116,2532.8432,N,08002.8049,W,1,10,1.5,14,M,,M,,*60
06/24/2015	20:01:16.493	$GPGGA,200117,2532.8434,N,08002.8045,W,1,10,1.5,14,M,,M,,*6B
06/24/2015	20:01:17.613	$GPGGA,200118,2532.8436,N,08002.8040,W,1,10,1.5,14,M,,M,,*63
06/24/2015	20:01:18.483	$GPGGA,200119,2532.8440,N,08002.8036,W,1,10,1.5,14,M,,M,,*62
06/24/2015	20:01:19.592	$GPGGA,200120,2532.8443,N,08002.8031,W,1,10,1.5,14,M,,M,,*6C
06/24/2015	20:01:20.482	$GPGGA,200121,2532.8445,N,08002.8027,W,1,10,1.5,14,M,,M,,*6C
06/24/2015	20:01:21.592	$GPGGA,200122,2532.8448,N,08002.8023,W,1,10,1.5,14,M,,M,,*66
06/24/2015	20:01:22.562	$GPGGA,200123,2532.8449,N,08002.8019,W,1,10,1.5,14,M,,M,,*6F
06/24/2015	20:01:23.582	$GPGGA,200124,2532.8452,N,08002.8014,W,1,10,1.5,14,M,,M,,*6F
06/24/2015	20:01:24.562	$GPGGA,200125,2532.8455,N,08002.8010,W,1,10,1.5,14,M,,M,,*6D
06/24/2015	20:01:25.582	$GPGGA,200126,2532.8458,N,08002.8006,W,1,10,1.5,14,M,,M,,*64
06/24/2015	20:01:26.562	$GPGGA,200127,2532.8461,N,08002.8001,W,1,10,1.5,14,M,,M,,*68
06/24/2015	20:01:27.592	$GPGGA,200128,2532.8463,N,08002.7996,W,1,10,1.5,14,M,,M,,*6D
06/24/2015	20:01:28.559	$GPGGA,200129,2532.8466,N,08002.7992,W,1,10,1.5,14,M,,M,,*6D
06/24/2015	20:01:29.573	$GPGGA,200130,2532.8469,N,08002.7988,W,1,10,1.5,14,M,,M,,*61
06/24/2015	20:01:30.544	$GPGGA,200131,2532.8470,N,08002.7983,W,1,10,1.5,14,M,,M,,*63
06/24/2015	20:01:31.583	$GPGGA,200132,2532.8474,N,08002.7979,W,1,10,1.5,14,M,,M,,*61
06/24/2015	20:01:32.553	$GPGGA,200133,2532.8477,N,08002.7974,W,1,10,1.5,14,M,,M,,*6E
06/24/2015	20:01:33.563	$GPGGA,200134,2532.8480,N,08002.7970,W,1,10,1.5,14,M,,M,,*65
06/24/2015	20:01:34.545	$GPGGA,200135,2532.8483,N,08002.7965,W,1,10,1.5,14,M,,M,,*63
06/24/2015	20:01:35.573	$GPGGA,200136,2532.8485,N,08002.7960,W,1,10,1.5,14,M,,M,,*63
06/24/2015	20:01:36.543	$GPGGA,200137,2532.8488,N,08002.7956,W,1,10,1.5,14,M,,M,,*6A
06/24/2015	20:01:37.544	$GPGGA,200138,2532.8491,N,08002.7952,W,1,10,1.5,14,M,,M,,*69
06/24/2015	20:01:38.543	$GPGGA,200139,2532.8494,N,08002.7947,W,1,10,1.5,14,M,,M,,*69
06/24/2015	20:01:39.572	$GPGGA,200140,2532.8497,N,08002.7943,W,1,10,1.5,14,M,,M,,*60
06/24/2015	20:01:40.532	$GPGGA,200141,2532.8499,N,08002.7939,W,1,10,1.5,14,M,,M,,*62
06/24/2015	20:01:41.522	$GPGGA,200142,2532.8502,N,08002.7934,W,1,10,1.5,14,M,,M,,*6F
06/24/2015	20:01:42.532	$GPGGA,200143,2532.8505,N,08002.7929,W,1,10,1.5,14,M,,M,,*65
06/24/2015	20:01:43.532	$GPGGA,200144,2532.8508,N,08002.7925,W,1,10,1.5,14,M,,M,,*63
06/24/2015	20:01:44.532	$GPGGA,200145,2532.8510,N,08002.7921,W,1,10,1.7,14,M,,M,,*6D
06/24/2015	20:01:45.513	$GPGGA,200146,2532.8513,N,08002.7916,W,1,10,1.5,14,M,,M,,*6B
06/24/2015	20:01:46.523	$GPGGA,200147,2532.8516,N,08002.7912,W,1,10,1.5,14,M,,M,,*6B
06/24/2015	20:01:47.544	$GPGGA,200148,2532.8519,N,08002.7908,W,1,10,1.5,14,M,,M,,*60
06/24/2015	20:01:48.523	$GPGGA,200149,2532.8521,N,08002.7904,W,1,10,1.5,14,M,,M,,*66
06/24/2015	20:01:49.523	$GPGGA,200150,2532.8524,N,08002.7899,W,1,10,1.5,14,M,,M,,*6E
06/24/2015	20:01:50.513	$GPGGA,200151,2532.8527,N,08002.7895,W,1,10,1.5,14,M,,M,,*60
06/24/2015	20:01:51.563	$GPGGA,200152,2532.8530,N,08002.7892,W,1,10,1.5,14,M,,M,,*62
06/24/2015	20:01:52.523	$GPGGA,200153,2532.8532,N,08002.7887,W,1,10,1.5,14,M,,M,,*65
06/24/2015	20:01:53.613	$GPGGA,200154,2532.8535,N,08002.7883,W,1,10,1.5,14,M,,M,,*61
06/24/2015	20:01:54.492	$GPGGA,200155,2532.8538,N,08002.7879,W,1,10,1.5,14,M,,M,,*68
06/24/2015	20:01:55.532	$GPGGA,200156,2532.8541,N,08002.7875,W,1,10,1.5,14,M,,M,,*69
06/24/2015	20:01:56.492	$GPGGA,200157,2532.8544,N,08002.7870,W,1,10,1.5,14,M,,M,,*68
06/24/2015	20:01:57.512	$GPGGA,200158,2532.8546,N,08002.7866,W,1,10,1.5,14,M,,M,,*62
06/24/2015	20:01:58.582	$GPGGA,200159,2532.8549,N,08002.7862,W,1,10,1.5,14,M,,M,,*68
06/24/2015	20:01:59.642	$GPGGA,200200,2532.8552,N,08002.7858,W,1,10,1.5,14,M,,M,,*64
06/24/2015	20:02:00.502	$GPGGA,200201,2532.8553,N,08002.7853,W,1,10,1.5,14,M,,M,,*6F
06/24/2015	20:02:01.612	$GPGGA,200202,2532.8557,N,08002.7849,W,1,10,1.5,14,M,,M,,*63
06/24/2015	20:02:02.492	$GPGGA,200203,2532.8560,N,08002.7845,W,1,10,1.5,14,M,,M,,*6A
06/24/2015	20:02:03.633	$GPGGA,200204,2532.8563,N,08002.7841,W,1,10,1.5,14,M,,M,,*6A
06/24/2015	20:02:04.493	$GPGGA,200205,2532.8564,N,08002.7836,W,1,10,1.5,14,M,,M,,*6C
06/24/2015	20:02:05.623	$GPGGA,200206,2532.8568,N,08002.7833,W,1,10,1.5,14,M,,M,,*66
06/24/2015	20:02:06.573	$GPGGA,200207,2532.8571,N,08002.7829,W,1,10,1.5,14,M,,M,,*64
06/24/2015	20:02:07.603	$GPGGA,200208,2532.8573,N,08002.7824,W,1,10,1.5,14,M,,M,,*64
06/24/2015	20:02:08.573	$GPGGA,200209,2532.8575,N,08002.7821,W,1,10,1.5,14,M,,M,,*66
06/24/2015	20:02:09.593	$GPGGA,200210,2532.8579,N,08002.7818,W,1,10,1.5,14,M,,M,,*68
06/24/2015	20:02:10.563	$GPGGA,200211,2532.8582,N,08002.7814,W,1,10,1.5,14,M,,M,,*61
06/24/2015	20:02:11.612	$GPGGA,200212,2532.8585,N,08002.7809,W,1,10,1.7,14,M,,M,,*6B
06/24/2015	20:02:12.562	$GPGGA,200213,2532.8588,N,08002.7808,W,1,10,1.5,14,M,,M,,*64
06/24/2015	20:02:13.582	$GPGGA,200214,2532.8589,N,08002.7805,W,1,10,1.5,14,M,,M,,*6F
06/24/2015	20:02:14.562	$GPGGA,200215,2532.8593,N,08002.7801,W,1,10,1.5,14,M,,M,,*61
06/24/2015	20:02:15.622	$GPGGA,200216,2532.8596,N,08002.7797,W,1,10,1.5,14,M,,M,,*67
06/24/2015	20:02:16.559	$GPGGA,200217,2532.8597,N,08002.7794,W,1,10,1.5,14,M,,M,,*64
06/24/2015	20:02:17.572	$GPGGA,200218,2532.8600,N,08002.7790,W,1,10,1.5,14,M,,M,,*62
06/24/2015	20:02:18.555	$GPGGA,200219,2532.8604,N,08002.7786,W,1,10,1.5,14,M,,M,,*60
06/24/2015	20:02:19.582	$GPGGA,200220,2532.8607,N,08002.7783,W,1,10,1.5,14,M,,M,,*6C
06/24/2015	20:02:20.553	$GPGGA,200221,2532.8610,N,08002.7780,W,1,10,1.5,14,M,,M,,*68
06/24/2015	20:02:21.563	$GPGGA,200222,2532.8611,N,08002.7775,W,1,10,1.5,14,M,,M,,*60
06/24/2015	20:02:22.543	$GPGGA,200223,2532.8615,N,08002.7772,W,1,10,1.5,14,M,,M,,*62
06/24/2015	20:02:23.545	$GPGGA,200224,2532.8618,N,08002.7768,W,1,10,1.5,14,M,,M,,*63
06/24/2015	20:02:24.545	$GPGGA,200225,2532.8620,N,08002.7764,W,1,10,1.5,14,M,,M,,*65
06/24/2015	20:02:25.523	$GPGGA,200226,2532.8622,N,08002.7761,W,1,10,1.5,14,M,,M,,*61
06/24/2015	20:02:26.546	$GPGGA,200227,2532.8625,N,08002.7757,W,1,10,1.5,14,M,,M,,*62
06/24/2015	20:02:27.573	$GPGGA,200228,2532.8628,N,08002.7754,W,1,10,1.5,14,M,,M,,*63
06/24/2015	20:02:28.533	$GPGGA,200229,2532.8631,N,08002.7750,W,1,10,1.5,14,M,,M,,*6E
06/24/2015	20:02:29.558	$GPGGA,200230,2532.8633,N,08002.7747,W,1,10,1.5,14,M,,M,,*62
06/24/2015	20:02:31.632	$GPGGA,200232,2532.8638,N,08002.7739,W,1,10,1.5,14,M,,M,,*62
06/24/2015	20:02:32.532	$GPGGA,200233,2532.8640,N,08002.7736,W,1,10,1.5,14,M,,M,,*63
06/24/2015	20:02:33.522	$GPGGA,200234,2532.8643,N,08002.7732,W,1,10,1.5,14,M,,M,,*63
06/24/2015	20:02:34.512	$GPGGA,200235,2532.8646,N,08002.7729,W,1,10,1.5,14,M,,M,,*6D
06/24/2015	20:02:35.543	$GPGGA,200236,2532.8647,N,08002.7725,W,1,10,1.5,14,M,,M,,*63
06/24/2015	20:02:36.522	$GPGGA,200237,2532.8647,N,08002.7725,W,1,10,1.5,14,M,,M,,*62
06/24/2015	20:02:37.502	$GPGGA,200238,2532.8653,N,08002.7718,W,1,10,1.5,14,M,,M,,*66
06/24/2015	20:02:38.603	$GPGGA,200239,2532.8656,N,08002.7714,W,1,10,1.5,14,M,,M,,*6E
06/24/2015	20:02:39.563	$GPGGA,200240,2532.8658,N,08002.7711,W,1,10,1.5,14,M,,M,,*6B
06/24/2015	20:02:40.503	$GPGGA,200241,2532.8661,N,08002.7707,W,1,10,1.5,14,M,,M,,*67
06/24/2015	20:02:41.523	$GPGGA,200242,2532.8664,N,08002.7703,W,1,10,1.5,14,M,,M,,*65
06/24/2015	20:02:42.513	$GPGGA,200243,2532.8665,N,08002.7699,W,1,10,1.5,14,M,,M,,*67
06/24/2015	20:02:43.623	$GPGGA,200244,2532.8668,N,08002.7696,W,1,10,1.5,14,M,,M,,*62
06/24/2015	20:02:44.523	$GPGGA,200245,2532.8671,N,08002.7693,W,1,10,1.5,14,M,,M,,*6E
06/24/2015	20:02:45.613	$GPGGA,200246,2532.8674,N,08002.7688,W,1,10,1.5,14,M,,M,,*62
06/24/2015	20:02:46.602	$GPGGA,200247,2532.8675,N,08002.7685,W,1,10,1.5,14,M,,M,,*6F
06/24/2015	20:02:47.592	$GPGGA,200248,2532.8676,N,08002.7682,W,1,10,1.5,14,M,,M,,*64
06/24/2015	20:02:48.492	$GPGGA,200249,2532.8680,N,08002.7677,W,1,10,1.5,14,M,,M,,*66
06/24/2015	20:02:49.502	$GPGGA,200250,2532.8683,N,08002.7673,W,1,10,1.5,14,M,,M,,*69
06/24/2015	20:02:50.582	$GPGGA,200251,2532.8685,N,08002.7669,W,1,10,1.5,14,M,,M,,*65
06/24/2015	20:02:51.592	$GPGGA,200252,2532.8687,N,08002.7667,W,1,10,1.5,14,M,,M,,*6A
06/24/2015	20:02:52.502	$GPGGA,200253,2532.8690,N,08002.7662,W,1,10,1.5,14,M,,M,,*68
06/24/2015	20:02:53.582	$GPGGA,200254,2532.8691,N,08002.7658,W,1,10,1.5,14,M,,M,,*67
06/24/2015	20:02:54.562	$GPGGA,200255,2532.8694,N,08002.7655,W,1,10,1.5,14,M,,M,,*6E
06/24/2015	20:02:55.583	$GPGGA,200256,2532.8698,N,08002.7652,W,1,10,1.5,14,M,,M,,*66
06/24/2015	20:02:56.573	$GPGGA,200257,2532.8700,N,08002.7648,W,1,10,1.5,14,M,,M,,*6C
06/24/2015	20:02:57.873	$GPGGA,200258,2532.8701,N,08002.7644,W,1,10,1.5,14,M,,M,,*6E
06/24/2015	20:02:58.565	$GPGGA,200259,2532.8705,N,08002.7641,W,1,10,1.5,14,M,,M,,*6E
06/24/2015	20:02:59.955	$GPGGA,200300,2532.8708,N,08002.7638,W,1,10,1.5,14,M,,M,,*60
06/24/2015	20:03:00.569	$GPGGA,200301,2532.8709,N,08002.7634,W,1,10,1.5,14,M,,M,,*6C
06/24/2015	20:03:01.561	$GPGGA,200302,2532.8712,N,08002.7630,W,1,10,1.5,14,M,,M,,*61
06/24/2015	20:03:02.562	$GPGGA,200303,2532.8715,N,08002.7627,W,1,10,1.5,14,M,,M,,*61
06/24/2015	20:03:03.613	$GPGGA,200304,2532.8718,N,08002.7624,W,1,10,1.5,14,M,,M,,*68
06/24/2015	20:03:04.556	$GPGGA,200305,2532.8721,N,08002.7619,W,1,10,1.5,14,M,,M,,*6D
06/24/2015	20:03:05.562	$GPGGA,200306,2532.8723,N,08002.7616,W,1,10,1.5,14,M,,M,,*63
06/24/2015	20:03:06.546	$GPGGA,200307,2532.8727,N,08002.7613,W,1,10,1.5,14,M,,M,,*63
06/24/2015	20:03:07.572	$GPGGA,200308,2532.8729,N,08002.7609,W,1,10,1.5,14,M,,M,,*69
06/24/2015	20:03:08.532	$GPGGA,200309,2532.8732,N,08002.7604,W,1,10,1.5,14,M,,M,,*6F
06/24/2015	20:03:09.570	$GPGGA,200310,2532.8736,N,08002.7601,W,1,10,1.5,14,M,,M,,*66
06/24/2015	20:03:10.543	$GPGGA,200311,2532.8738,N,08002.7597,W,1,10,1.5,14,M,,M,,*65
06/24/2015	20:03:11.572	$GPGGA,200312,2532.8741,N,08002.7593,W,1,10,1.5,14,M,,M,,*6C
06/24/2015	20:03:12.542	$GPGGA,200313,2532.8744,N,08002.7589,W,1,10,1.7,14,M,,M,,*61
06/24/2015	20:03:13.523	$GPGGA,200314,2532.8747,N,08002.7586,W,1,10,1.5,14,M,,M,,*68
06/24/2015	20:03:14.533	$GPGGA,200315,2532.8751,N,08002.7583,W,1,10,1.5,14,M,,M,,*6B
06/24/2015	20:03:15.554	$GPGGA,200316,2532.8752,N,08002.7579,W,1,10,1.5,14,M,,M,,*6E
06/24/2015	20:03:16.533	$GPGGA,200317,2532.8755,N,08002.7575,W,1,10,1.5,14,M,,M,,*64
06/24/2015	20:03:17.523	$GPGGA,200318,2532.8759,N,08002.7571,W,1,10,1.5,14,M,,M,,*63
06/24/2015	20:03:18.523	$GPGGA,200319,2532.8761,N,08002.7568,W,1,10,1.5,14,M,,M,,*61
06/24/2015	20:03:19.563	$GPGGA,200320,2532.8763,N,08002.7563,W,1,10,1.5,14,M,,M,,*62
06/24/2015	20:03:20.523	$GPGGA,200321,2532.8768,N,08002.7559,W,1,10,1.5,14,M,,M,,*61
06/24/2015	20:03:21.545	$GPGGA,200322,2532.8770,N,08002.7556,W,1,10,1.5,14,M,,M,,*64
06/24/2015	20:03:22.522	$GPGGA,200323,2532.8773,N,08002.7551,W,1,10,1.5,14,M,,M,,*61
06/24/2015	20:03:23.562	$GPGGA,200324,2532.8776,N,08002.7546,W,1,9,2.3,14,M,,M,,*58
06/24/2015	20:03:24.512	$GPGGA,200325,2532.8779,N,08002.7541,W,1,9,1.5,14,M,,M,,*54
06/24/2015	20:03:25.549	$GPGGA,200326,2532.8781,N,08002.7537,W,1,10,1.5,14,M,,M,,*69
06/24/2015	20:03:26.522	$GPGGA,200327,2532.8784,N,08002.7532,W,1,10,1.5,14,M,,M,,*68
06/24/2015	20:03:27.532	$GPGGA,200328,2532.8787,N,08002.7526,W,1,10,1.5,14,M,,M,,*61
06/24/2015	20:03:28.612	$GPGGA,200329,2532.8790,N,08002.7522,W,1,10,1.5,14,M,,M,,*62
06/24/2015	20:03:29.612	$GPGGA,200330,2532.8792,N,08002.7518,W,1,10,1.5,14,M,,M,,*61
06/24/2015	20:03:30.503	$GPGGA,200331,2532.8795,N,08002.7513,W,1,10,1.5,14,M,,M,,*6C
06/24/2015	20:03:31.633	$GPGGA,200332,2532.8798,N,08002.7509,W,1,10,1.5,14,M,,M,,*69
06/24/2015	20:03:32.594	$GPGGA,200333,2532.8801,N,08002.7505,W,1,10,1.5,15,M,,M,,*6A
06/24/2015	20:03:33.513	$GPGGA,200334,2532.8803,N,08002.7500,W,1,10,1.5,15,M,,M,,*6A
06/24/2015	20:03:34.583	$GPGGA,200335,2532.8806,N,08002.7496,W,1,10,1.5,15,M,,M,,*60
06/24/2015	20:03:35.593	$GPGGA,200336,2532.8810,N,08002.7492,W,1,10,1.5,15,M,,M,,*60
06/24/2015	20:03:36.573	$GPGGA,200337,2532.8810,N,08002.7488,W,1,10,1.5,15,M,,M,,*6A
06/24/2015	20:03:37.613	$GPGGA,200338,2532.8815,N,08002.7483,W,1,10,1.5,15,M,,M,,*6B
06/24/2015	20:03:38.483	$GPGGA,200339,2532.8817,N,08002.7479,W,1,10,1.5,15,M,,M,,*6D
06/24/2015	20:03:39.582	$GPGGA,200340,2532.8820,N,08002.7476,W,1,10,1.5,15,M,,M,,*68
06/24/2015	20:03:40.572	$GPGGA,200341,2532.8823,N,08002.7471,W,1,10,1.5,15,M,,M,,*6D
06/24/2015	20:03:41.582	$GPGGA,200342,2532.8826,N,08002.7466,W,1,10,1.5,15,M,,M,,*6D
06/24/2015	20:03:42.572	$GPGGA,200343,2532.8828,N,08002.7463,W,1,10,1.5,15,M,,M,,*67
06/24/2015	20:03:43.612	$GPGGA,200344,2532.8831,N,08002.7460,W,1,10,1.5,15,M,,M,,*6B
06/24/2015	20:03:44.557	$GPGGA,200345,2532.8833,N,08002.7454,W,1,10,1.5,15,M,,M,,*6F
06/24/2015	20:03:45.582	$GPGGA,200346,2532.8835,N,08002.7451,W,1,10,1.5,15,M,,M,,*6F
06/24/2015	20:03:46.555	$GPGGA,200347,2532.8839,N,08002.7447,W,1,10,1.5,15,M,,M,,*65
06/24/2015	20:03:47.592	$GPGGA,200348,2532.8841,N,08002.7443,W,1,10,1.5,15,M,,M,,*61
06/24/2015	20:03:48.573	$GPGGA,200349,2532.8842,N,08002.7438,W,1,10,1.5,15,M,,M,,*6F
06/24/2015	20:03:49.573	$GPGGA,200350,2532.8845,N,08002.7435,W,1,10,1.5,16,M,,M,,*6E
06/24/2015	20:03:50.555	$GPGGA,200351,2532.8848,N,08002.7431,W,1,10,1.5,16,M,,M,,*66
06/24/2015	20:03:51.583	$GPGGA,200352,2532.8849,N,08002.7427,W,1,10,1.5,16,M,,M,,*63
06/24/2015	20:03:52.556	$GPGGA,200353,2532.8852,N,08002.7423,W,1,10,1.5,16,M,,M,,*6C
06/24/2015	20:03:53.533	$GPGGA,200354,2532.8855,N,08002.7419,W,1,10,1.5,16,M,,M,,*65
06/24/2015	20:03:54.545	$GPGGA,200355,2532.8857,N,08002.7415,W,1,10,1.5,16,M,,M,,*6A
06/24/2015	20:03:55.573	$GPGGA,200356,2532.8860,N,08002.7412,W,1,10,1.5,16,M,,M,,*6A
06/24/2015	20:03:56.542	$GPGGA,200357,2532.8862,N,08002.7407,W,1,10,1.5,16,M,,M,,*6D
06/24/2015	20:03:57.532	$GPGGA,200358,2532.8864,N,08002.7403,W,1,10,1.5,16,M,,M,,*60
06/24/2015	20:03:58.543	$GPGGA,200359,2532.8867,N,08002.7400,W,1,10,1.5,16,M,,M,,*61
06/24/2015	20:03:59.554	$GPGGA,200400,2532.8868,N,08002.7396,W,1,10,1.5,16,M,,M,,*6D
06/24/2015	20:04:00.532	$GPGGA,200401,2532.8871,N,08002.7391,W,1,10,1.5,16,M,,M,,*63
06/24/2015	20:04:01.522	$GPGGA,200402,2532.8873,N,08002.7387,W,1,10,1.5,16,M,,M,,*65
06/24/2015	20:04:02.532	$GPGGA,200403,2532.8875,N,08002.7383,W,1,10,1.5,16,M,,M,,*66
06/24/2015	20:04:03.532	$GPGGA,200404,2532.8878,N,08002.7379,W,1,10,1.5,16,M,,M,,*69
06/24/2015	20:04:04.512	$GPGGA,200405,2532.8880,N,08002.7375,W,1,10,1.5,16,M,,M,,*63
06/24/2015	20:04:05.544	$GPGGA,200406,2532.8882,N,08002.7371,W,1,10,1.5,16,M,,M,,*66
06/24/2015	20:04:06.933	$GPGGA,200407,2532.8885,N,08002.7367,W,1,10,1.5,16,M,,M,,*67
06/24/2015	20:04:07.533	$GPGGA,200408,2532.8886,N,08002.7363,W,1,10,1.5,16,M,,M,,*6F
06/24/2015	20:04:08.633	$GPGGA,200409,2532.8889,N,08002.7359,W,1,10,1.5,16,M,,M,,*68
06/24/2015	20:04:09.624	$GPGGA,200410,2532.8892,N,08002.7354,W,1,10,1.5,15,M,,M,,*64
06/24/2015	20:04:10.503	$GPGGA,200411,2532.8893,N,08002.7351,W,1,10,1.5,15,M,,M,,*61
06/24/2015	20:04:11.533	$GPGGA,200412,2532.8896,N,08002.7348,W,1,10,1.5,15,M,,M,,*6F
06/24/2015	20:04:12.493	$GPGGA,200413,2532.8899,N,08002.7343,W,1,10,1.5,15,M,,M,,*6A
06/24/2015	20:04:13.513	$GPGGA,200414,2532.8902,N,08002.7340,W,1,10,1.5,15,M,,M,,*6D
06/24/2015	20:04:14.502	$GPGGA,200415,2532.8904,N,08002.7338,W,1,10,1.5,15,M,,M,,*65
06/24/2015	20:04:15.532	$GPGGA,200416,2532.8906,N,08002.7333,W,1,10,1.5,15,M,,M,,*6F
06/24/2015	20:04:16.492	$GPGGA,200417,2532.8909,N,08002.7329,W,1,10,1.5,15,M,,M,,*6A
06/24/2015	20:04:17.512	$GPGGA,200418,2532.8911,N,08002.7326,W,1,10,1.5,15,M,,M,,*63
06/24/2015	20:04:18.492	$GPGGA,200419,2532.8914,N,08002.7322,W,1,10,1.5,15,M,,M,,*63
06/24/2015	20:04:19.592	$GPGGA,200420,2532.8917,N,08002.7318,W,1,10,1.5,15,M,,M,,*63
06/24/2015	20:04:20.602	$GPGGA,200421,2532.8918,N,08002.7315,W,1,10,1.5,15,M,,M,,*60
06/24/2015	20:04:21.492	$GPGGA,200422,2532.8921,N,08002.7312,W,1,10,1.5,15,M,,M,,*6E
06/24/2015	20:04:22.582	$GPGGA,200423,2532.8924,N,08002.7306,W,1,10,1.5,15,M,,M,,*6F
06/24/2015	20:04:23.603	$GPGGA,200424,2532.8927,N,08002.7304,W,1,10,1.5,15,M,,M,,*69
06/24/2015	20:04:24.493	$GPGGA,200425,2532.8929,N,08002.7301,W,1,10,1.5,15,M,,M,,*63
06/24/2015	20:04:25.583	$GPGGA,200426,2532.8932,N,08002.7296,W,1,10,1.5,15,M,,M,,*65
06/24/2015	20:04:26.583	$GPGGA,200427,2532.8935,N,08002.7293,W,1,10,1.5,15,M,,M,,*66
06/24/2015	20:04:27.583	$GPGGA,200428,2532.8938,N,08002.7291,W,1,10,1.5,15,M,,M,,*66
06/24/2015	20:04:28.561	$GPGGA,200429,2532.8940,N,08002.7287,W,1,10,1.5,15,M,,M,,*6F
06/24/2015	20:04:29.583	$GPGGA,200430,2532.8943,N,08002.7283,W,1,10,1.5,15,M,,M,,*60
06/24/2015	20:04:30.563	$GPGGA,200431,2532.8946,N,08002.7280,W,1,10,1.5,15,M,,M,,*67
06/24/2015	20:04:31.572	$GPGGA,200432,2532.8949,N,08002.7277,W,1,10,1.5,15,M,,M,,*63
06/24/2015	20:04:32.562	$GPGGA,200433,2532.8951,N,08002.7273,W,1,10,1.5,14,M,,M,,*6E
06/24/2015	20:04:33.572	$GPGGA,200434,2532.8954,N,08002.7269,W,1,10,1.5,14,M,,M,,*67
06/24/2015	20:04:34.554	$GPGGA,200435,2532.8958,N,08002.7266,W,1,10,1.5,14,M,,M,,*65
06/24/2015	20:04:35.582	$GPGGA,200436,2532.8960,N,08002.7262,W,1,10,1.5,14,M,,M,,*69
06/24/2015	20:04:36.544	$GPGGA,200437,2532.8962,N,08002.7258,W,1,10,1.5,14,M,,M,,*63
06/24/2015	20:04:37.572	$GPGGA,200438,2532.8965,N,08002.7255,W,1,10,1.5,14,M,,M,,*66
06/24/2015	20:04:38.561	$GPGGA,200439,2532.8968,N,08002.7251,W,1,10,1.5,14,M,,M,,*6E
06/24/2015	20:04:39.592	$GPGGA,200440,2532.8971,N,08002.7247,W,1,10,1.5,14,M,,M,,*6F
06/24/2015	20:04:40.533	$GPGGA,200441,2532.8974,N,08002.7243,W,1,10,1.5,14,M,,M,,*6F
06/24/2015	20:04:41.547	$GPGGA,200442,2532.8976,N,08002.7239,W,1,10,1.5,14,M,,M,,*63
06/24/2015	20:04:42.548	$GPGGA,200443,2532.8979,N,08002.7235,W,1,10,1.5,14,M,,M,,*61
06/24/2015	20:04:43.603	$GPGGA,200444,2532.8980,N,08002.7231,W,1,10,1.5,14,M,,M,,*64
06/24/2015	20:04:44.543	$GPGGA,200445,2532.8983,N,08002.7227,W,1,10,1.5,14,M,,M,,*61
06/24/2015	20:04:45.533	$GPGGA,200446,2532.8986,N,08002.7223,W,1,10,1.5,14,M,,M,,*63
06/24/2015	20:04:46.547	$GPGGA,200447,2532.8989,N,08002.7219,W,1,10,1.5,14,M,,M,,*64
06/24/2015	20:04:47.567	$GPGGA,200448,2532.8992,N,08002.7214,W,1,10,1.5,14,M,,M,,*6C
06/24/2015	20:04:48.547	$GPGGA,200449,2532.8994,N,08002.7211,W,1,10,1.5,14,M,,M,,*6E
06/24/2015	20:04:49.522	$GPGGA,200450,2532.8996,N,08002.7206,W,1,10,1.5,14,M,,M,,*62
06/24/2015	20:04:50.532	$GPGGA,200451,2532.8998,N,08002.7202,W,1,10,1.5,14,M,,M,,*69
06/24/2015	20:04:51.532	$GPGGA,200452,2532.9001,N,08002.7198,W,1,10,1.5,13,M,,M,,*65
06/24/2015	20:04:52.532	$GPGGA,200453,2532.9004,N,08002.7193,W,1,10,1.7,13,M,,M,,*68
06/24/2015	20:04:53.544	$GPGGA,200454,2532.9007,N,08002.7189,W,1,10,1.5,13,M,,M,,*65
06/24/2015	20:04:54.522	$GPGGA,200455,2532.9010,N,08002.7185,W,1,10,1.5,13,M,,M,,*6E
06/24/2015	20:04:55.702	$GPGGA,200456,2532.9012,N,08002.7182,W,1,10,1.5,13,M,,M,,*68
06/24/2015	20:04:56.512	$GPGGA,200457,2532.9015,N,08002.7177,W,1,10,1.5,13,M,,M,,*64
06/24/2015	20:04:57.542	$GPGGA,200458,2532.9018,N,08002.7173,W,1,10,1.5,13,M,,M,,*62
06/24/2015	20:04:58.513	$GPGGA,200459,2532.9019,N,08002.7170,W,1,10,1.5,13,M,,M,,*61
06/24/2015	20:04:59.543	$GPGGA,200500,2532.9022,N,08002.7167,W,1,10,1.5,13,M,,M,,*62
06/24/2015	20:05:00.503	$GPGGA,200501,2532.9026,N,08002.7162,W,1,10,1.5,13,M,,M,,*62
06/24/2015	20:05:01.523	$GPGGA,200502,2532.9027,N,08002.7159,W,1,10,1.5,13,M,,M,,*68
06/24/2015	20:05:02.493	$GPGGA,200503,2532.9030,N,08002.7156,W,1,10,1.5,13,M,,M,,*60
06/24/2015	20:05:03.523	$GPGGA,200504,2532.9033,N,08002.7151,W,1,10,1.5,13,M,,M,,*63
06/24/2015	20:05:04.503	$GPGGA,200505,2532.9037,N,08002.7147,W,1,10,1.5,13,M,,M,,*61
06/24/2015	20:05:05.673	$GPGGA,200506,2532.9040,N,08002.7145,W,1,10,1.5,13,M,,M,,*60
06/24/2015	20:05:06.612	$GPGGA,200507,2532.9041,N,08002.7140,W,1,10,1.5,13,M,,M,,*65
06/24/2015	20:05:08.166	$GPGGA,200508,2532.9044,N,08002.7135,W,1,10,1.5,13,M,,M,,*6D
06/24/2015	20:05:08.582	$GPGGA,200509,2532.9048,N,08002.7132,W,1,10,1.5,13,M,,M,,*67
06/24/2015	20:05:09.682	$GPGGA,200510,2532.9050,N,08002.7128,W,1,10,1.5,13,M,,M,,*6D
06/24/2015	20:05:10.492	$GPGGA,200511,2532.9052,N,08002.7123,W,1,10,1.5,13,M,,M,,*65
06/24/2015	20:05:11.672	$GPGGA,200512,2532.9057,N,08002.7119,W,1,10,1.5,13,M,,M,,*6A
06/24/2015	20:05:12.602	$GPGGA,200513,2532.9059,N,08002.7115,W,1,10,1.5,13,M,,M,,*69
06/24/2015	20:05:13.672	$GPGGA,200514,2532.9061,N,08002.7110,W,1,10,1.5,13,M,,M,,*60
06/24/2015	20:05:14.572	$GPGGA,200515,2532.9065,N,08002.7105,W,1,10,1.7,13,M,,M,,*63
06/24/2015	20:05:15.673	$GPGGA,200516,2532.9068,N,08002.7102,W,1,10,1.5,13,M,,M,,*68
06/24/2015	20:05:16.593	$GPGGA,200517,2532.9070,N,08002.7098,W,1,10,1.5,13,M,,M,,*62
06/24/2015	20:05:17.663	$GPGGA,200518,2532.9072,N,08002.7092,W,1,9,1.5,13,M,,M,,*5D
06/24/2015	20:05:18.583	$GPGGA,200519,2532.9076,N,08002.7087,W,1,9,1.5,13,M,,M,,*5C
06/24/2015	20:05:20.075	$GPGGA,200520,2532.9077,N,08002.7083,W,1,10,1.5,13,M,,M,,*6B
06/24/2015	20:05:20.603	$GPGGA,200521,2532.9081,N,08002.7079,W,1,10,1.5,13,M,,M,,*66
06/24/2015	20:05:21.653	$GPGGA,200522,2532.9084,N,08002.7075,W,1,10,1.5,13,M,,M,,*6C
06/24/2015	20:05:22.583	$GPGGA,200523,2532.9086,N,08002.7070,W,1,10,1.5,13,M,,M,,*6A
06/24/2015	20:05:23.662	$GPGGA,200524,2532.9088,N,08002.7067,W,1,10,1.5,13,M,,M,,*65
06/24/2015	20:05:24.582	$GPGGA,200525,2532.9091,N,08002.7063,W,1,10,1.5,13,M,,M,,*68
06/24/2015	20:05:25.662	$GPGGA,200526,2532.9094,N,08002.7059,W,1,10,1.5,13,M,,M,,*67
06/24/2015	20:05:26.582	$GPGGA,200527,2532.9095,N,08002.7055,W,1,10,1.5,13,M,,M,,*6B
06/24/2015	20:05:27.672	$GPGGA,200528,2532.9099,N,08002.7050,W,1,10,1.5,13,M,,M,,*6D
06/24/2015	20:05:28.572	$GPGGA,200529,2532.9102,N,08002.7046,W,1,10,1.7,13,M,,M,,*6A
06/24/2015	20:05:29.632	$GPGGA,200530,2532.9104,N,08002.7042,W,1,9,1.5,13,M,,M,,*5A
06/24/2015	20:05:30.562	$GPGGA,200531,2532.9106,N,08002.7038,W,1,9,1.5,13,M,,M,,*54
06/24/2015	20:05:31.542	$GPGGA,200532,2532.9109,N,08002.7034,W,1,10,1.5,13,M,,M,,*6C
06/24/2015	20:05:32.532	$GPGGA,200533,2532.9112,N,08002.7031,W,1,10,1.5,13,M,,M,,*62
06/24/2015	20:05:33.523	$GPGGA,200534,2532.9115,N,08002.7028,W,1,10,1.5,13,M,,M,,*6A
06/24/2015	20:05:34.563	$GPGGA,200535,2532.9117,N,08002.7024,W,1,10,1.5,13,M,,M,,*65
06/24/2015	20:05:35.633	$GPGGA,200536,2532.9120,N,08002.7020,W,1,10,1.5,13,M,,M,,*66
06/24/2015	20:05:36.513	$GPGGA,200537,2532.9124,N,08002.7017,W,1,10,1.5,13,M,,M,,*67
06/24/2015	20:05:37.603	$GPGGA,200538,2532.9126,N,08002.7013,W,1,10,1.5,13,M,,M,,*6E
06/24/2015	20:05:38.556	$GPGGA,200539,2532.9128,N,08002.7009,W,1,10,1.5,13,M,,M,,*6A
06/24/2015	20:05:39.603	$GPGGA,200540,2532.9131,N,08002.7005,W,1,10,1.5,13,M,,M,,*60
06/24/2015	20:05:40.513	$GPGGA,200541,2532.9135,N,08002.7002,W,1,10,1.5,13,M,,M,,*62
06/24/2015	20:05:41.502	$GPGGA,200542,2532.9137,N,08002.6997,W,1,10,1.5,13,M,,M,,*67
06/24/2015	20:05:42.502	$GPGGA,200543,2532.9141,N,08002.6993,W,1,10,1.5,13,M,,M,,*63
06/24/2015	20:05:43.622	$GPGGA,200544,2532.9142,N,08002.6991,W,1,10,1.5,13,M,,M,,*65
06/24/2015	20:05:44.502	$GPGGA,200545,2532.9145,N,08002.6986,W,1,10,1.5,13,M,,M,,*65
06/24/2015	20:05:45.622	$GPGGA,200546,2532.9148,N,08002.6981,W,1,10,1.5,13,M,,M,,*6C
06/24/2015	20:05:46.533	$GPGGA,200547,2532.9151,N,08002.6978,W,1,10,1.5,13,M,,M,,*63
06/24/2015	20:05:47.622	$GPGGA,200548,2532.9153,N,08002.6975,W,1,10,1.5,13,M,,M,,*63
06/24/2015	20:05:48.544	$GPGGA,200549,2532.9156,N,08002.6970,W,1,10,1.5,13,M,,M,,*62
06/24/2015	20:05:49.592	$GPGGA,200550,2532.9159,N,08002.6966,W,1,10,1.5,13,M,,M,,*62
06/24/2015	20:05:50.593	$GPGGA,200551,2532.9160,N,08002.6963,W,1,10,1.5,14,M,,M,,*6B
06/24/2015	20:05:51.633	$GPGGA,200552,2532.9164,N,08002.6959,W,1,10,1.5,14,M,,M,,*65
06/24/2015	20:05:52.533	$GPGGA,200553,2532.9167,N,08002.6954,W,1,10,1.5,14,M,,M,,*6A
06/24/2015	20:05:53.583	$GPGGA,200554,2532.9169,N,08002.6950,W,1,10,1.5,14,M,,M,,*67
06/24/2015	20:05:54.513	$GPGGA,200555,2532.9171,N,08002.6947,W,1,10,1.5,14,M,,M,,*69
06/24/2015	20:05:55.603	$GPGGA,200556,2532.9174,N,08002.6943,W,1,10,1.5,14,M,,M,,*6B
06/24/2015	20:05:56.583	$GPGGA,200557,2532.9177,N,08002.6938,W,1,10,1.5,14,M,,M,,*65
06/24/2015	20:05:57.613	$GPGGA,200558,2532.9178,N,08002.6935,W,1,10,1.5,14,M,,M,,*68
06/24/2015	20:05:58.572	$GPGGA,200559,2532.9182,N,08002.6931,W,1,10,1.5,14,M,,M,,*68
06/24/2015	20:05:59.602	$GPGGA,200600,2532.9184,N,08002.6927,W,1,10,1.6,14,M,,M,,*65
06/24/2015	20:06:00.572	$GPGGA,200601,2532.9188,N,08002.6923,W,1,10,1.5,14,M,,M,,*6F
06/24/2015	20:06:01.592	$GPGGA,200602,2532.9191,N,08002.6921,W,1,10,1.5,14,M,,M,,*66
06/24/2015	20:06:02.562	$GPGGA,200603,2532.9193,N,08002.6917,W,1,10,1.5,14,M,,M,,*60
06/24/2015	20:06:03.612	$GPGGA,200604,2532.9196,N,08002.6913,W,1,10,1.5,14,M,,M,,*66
06/24/2015	20:06:04.562	$GPGGA,200605,2532.9200,N,08002.6909,W,1,10,1.5,14,M,,M,,*60
06/24/2015	20:06:05.592	$GPGGA,200606,2532.9200,N,08002.6906,W,1,10,1.5,14,M,,M,,*6C
06/24/2015	20:06:06.562	$GPGGA,200607,2532.9200,N,08002.6906,W,1,10,1.5,14,M,,M,,*6D
06/24/2015	20:06:07.592	$GPGGA,200608,2532.9207,N,08002.6897,W,1,10,1.5,14,M,,M,,*6C
06/24/2015	20:06:08.559	$GPGGA,200609,2532.9209,N,08002.6894,W,1,10,1.5,14,M,,M,,*60
06/24/2015	20:06:09.603	$GPGGA,200610,2532.9211,N,08002.6891,W,1,10,1.5,14,M,,M,,*64
06/24/2015	20:06:10.553	$GPGGA,200611,2532.9214,N,08002.6886,W,1,10,1.5,14,M,,M,,*66
06/24/2015	20:06:11.603	$GPGGA,200612,2532.9216,N,08002.6881,W,1,10,1.5,14,M,,M,,*60
06/24/2015	20:06:12.546	$GPGGA,200613,2532.9218,N,08002.6879,W,1,10,1.5,14,M,,M,,*68
06/24/2015	20:06:13.623	$GPGGA,200614,2532.9221,N,08002.6875,W,1,10,1.5,14,M,,M,,*69
06/24/2015	20:06:14.543	$GPGGA,200615,2532.9221,N,08002.6875,W,1,10,1.5,14,M,,M,,*68
06/24/2015	20:06:15.603	$GPGGA,200616,2532.9225,N,08002.6866,W,1,10,1.5,14,M,,M,,*6D
06/24/2015	20:06:16.542	$GPGGA,200617,2532.9227,N,08002.6863,W,1,10,1.5,14,M,,M,,*6B
06/24/2015	20:06:17.612	$GPGGA,200618,2532.9229,N,08002.6858,W,1,10,1.5,14,M,,M,,*62
06/24/2015	20:06:18.542	$GPGGA,200619,2532.9232,N,08002.6854,W,1,10,1.5,14,M,,M,,*65
06/24/2015	20:06:19.632	$GPGGA,200620,2532.9232,N,08002.6854,W,1,10,1.5,14,M,,M,,*6F
06/24/2015	20:06:20.542	$GPGGA,200621,2532.9236,N,08002.6845,W,1,10,1.5,14,M,,M,,*6A
06/24/2015	20:06:21.555	$GPGGA,200622,2532.9236,N,08002.6845,W,1,10,1.5,14,M,,M,,*69
06/24/2015	20:06:22.547	$GPGGA,200623,2532.9240,N,08002.6838,W,1,10,1.5,14,M,,M,,*63
06/24/2015	20:06:23.572	$GPGGA,200624,2532.9240,N,08002.6838,W,1,10,1.5,14,M,,M,,*64
06/24/2015	20:06:24.532	$GPGGA,200625,2532.9245,N,08002.6829,W,1,10,1.5,14,M,,M,,*60
06/24/2015	20:06:25.533	$GPGGA,200626,2532.9245,N,08002.6829,W,1,10,1.5,14,M,,M,,*63
06/24/2015	20:06:26.513	$GPGGA,200627,2532.9247,N,08002.6825,W,1,10,1.5,14,M,,M,,*6C
06/24/2015	20:06:27.563	$GPGGA,200628,2532.9249,N,08002.6821,W,1,10,1.5,14,M,,M,,*69
06/24/2015	20:06:28.523	$GPGGA,200629,2532.9254,N,08002.6813,W,1,10,1.5,14,M,,M,,*65
06/24/2015	20:06:29.533	$GPGGA,200630,2532.9254,N,08002.6813,W,1,10,1.5,14,M,,M,,*6D
06/24/2015	20:06:30.513	$GPGGA,200631,2532.9258,N,08002.6805,W,1,10,1.5,14,M,,M,,*67
06/24/2015	20:06:31.583	$GPGGA,200632,2532.9261,N,08002.6800,W,1,10,1.5,14,M,,M,,*6B
06/24/2015	20:06:32.593	$GPGGA,200633,2532.9264,N,08002.6796,W,1,10,1.5,14,M,,M,,*6F
06/24/2015	20:06:33.522	$GPGGA,200634,2532.9264,N,08002.6796,W,1,10,1.5,14,M,,M,,*68
06/24/2015	20:06:34.522	$GPGGA,200635,2532.9269,N,08002.6787,W,1,10,1.5,14,M,,M,,*64
06/24/2015	20:06:35.612	$GPGGA,200636,2532.9272,N,08002.6783,W,1,10,1.5,14,M,,M,,*69
06/24/2015	20:06:36.492	$GPGGA,200637,2532.9275,N,08002.6779,W,1,10,1.5,14,M,,M,,*6A
06/24/2015	20:06:37.582	$GPGGA,200638,2532.9278,N,08002.6774,W,1,10,1.5,14,M,,M,,*65
06/24/2015	20:06:38.502	$GPGGA,200639,2532.9279,N,08002.6770,W,1,10,1.5,13,M,,M,,*66
06/24/2015	20:06:39.632	$GPGGA,200640,2532.9283,N,08002.6766,W,1,10,1.5,13,M,,M,,*6A
06/24/2015	20:06:40.572	$GPGGA,200641,2532.9286,N,08002.6761,W,1,10,1.5,13,M,,M,,*69
06/24/2015	20:06:41.622	$GPGGA,200642,2532.9289,N,08002.6757,W,1,10,1.5,13,M,,M,,*60
06/24/2015	20:06:42.582	$GPGGA,200643,2532.9290,N,08002.6754,W,1,10,1.5,13,M,,M,,*6A
06/24/2015	20:06:43.633	$GPGGA,200644,2532.9294,N,08002.6749,W,1,10,1.5,13,M,,M,,*65
06/24/2015	20:06:44.573	$GPGGA,200645,2532.9296,N,08002.6744,W,1,10,1.5,13,M,,M,,*6B
06/24/2015	20:06:46.065	$GPGGA,200646,2532.9297,N,08002.6740,W,1,10,1.5,13,M,,M,,*6D
06/24/2015	20:06:46.573	$GPGGA,200647,2532.9301,N,08002.6736,W,1,10,1.5,13,M,,M,,*63
06/24/2015	20:06:47.603	$GPGGA,200648,2532.9301,N,08002.6736,W,1,10,1.5,13,M,,M,,*6C
06/24/2015	20:06:48.563	$GPGGA,200649,2532.9307,N,08002.6727,W,1,10,1.5,13,M,,M,,*6B
06/24/2015	20:06:49.583	$GPGGA,200650,2532.9310,N,08002.6723,W,1,10,1.5,13,M,,M,,*61
06/24/2015	20:06:50.553	$GPGGA,200651,2532.9312,N,08002.6718,W,1,10,1.5,13,M,,M,,*6A
06/24/2015	20:06:51.592	$GPGGA,200652,2532.9316,N,08002.6714,W,1,10,1.5,13,M,,M,,*61
06/24/2015	20:06:52.554	$GPGGA,200653,2532.9319,N,08002.6710,W,1,10,1.5,13,M,,M,,*6B
06/24/2015	20:06:53.582	$GPGGA,200654,2532.9321,N,08002.6705,W,1,10,1.5,13,M,,M,,*63
06/24/2015	20:06:54.552	$GPGGA,200655,2532.9325,N,08002.6701,W,1,10,1.5,13,M,,M,,*62
06/24/2015	20:06:55.562	$GPGGA,200656,2532.9326,N,08002.6697,W,1,10,1.5,13,M,,M,,*6C
06/24/2015	20:06:56.822	$GPGGA,200657,2532.9329,N,08002.6692,W,1,10,1.5,13,M,,M,,*67
06/24/2015	20:06:57.573	$GPGGA,200658,2532.9333,N,08002.6688,W,1,10,1.5,13,M,,M,,*68
06/24/2015	20:06:58.552	$GPGGA,200659,2532.9336,N,08002.6684,W,1,10,1.5,13,M,,M,,*60
06/24/2015	20:06:59.592	$GPGGA,200700,2532.9339,N,08002.6680,W,1,10,1.5,13,M,,M,,*66
06/24/2015	20:07:00.543	$GPGGA,200701,2532.9343,N,08002.6676,W,1,10,1.5,13,M,,M,,*63
06/24/2015	20:07:01.553	$GPGGA,200702,2532.9346,N,08002.6671,W,1,10,1.5,13,M,,M,,*62
06/24/2015	20:07:02.556	$GPGGA,200703,2532.9348,N,08002.6667,W,1,10,1.5,13,M,,M,,*6A
06/24/2015	20:07:03.543	$GPGGA,200704,2532.9351,N,08002.6663,W,1,10,1.5,13,M,,M,,*61
06/24/2015	20:07:04.544	$GPGGA,200705,2532.9354,N,08002.6658,W,1,10,1.5,13,M,,M,,*6D
06/24/2015	20:07:05.533	$GPGGA,200706,2532.9357,N,08002.6654,W,1,10,1.5,13,M,,M,,*61
06/24/2015	20:07:06.523	$GPGGA,200707,2532.9359,N,08002.6651,W,1,10,1.5,13,M,,M,,*6B
06/24/2015	20:07:07.563	$GPGGA,200708,2532.9363,N,08002.6646,W,1,10,1.5,13,M,,M,,*6B
06/24/2015	20:07:08.532	$GPGGA,200709,2532.9366,N,08002.6642,W,1,10,1.5,13,M,,M,,*6B
06/24/2015	20:07:09.532	$GPGGA,200710,2532.9370,N,08002.6639,W,1,10,1.5,13,M,,M,,*68
06/24/2015	20:07:10.522	$GPGGA,200711,2532.9372,N,08002.6634,W,1,10,1.5,13,M,,M,,*66
06/24/2015	20:07:11.645	$GPGGA,200712,2532.9375,N,08002.6629,W,1,10,1.5,13,M,,M,,*6E
06/24/2015	20:07:12.502	$GPGGA,200713,2532.9377,N,08002.6626,W,1,10,1.5,13,M,,M,,*62
06/24/2015	20:07:13.512	$GPGGA,200714,2532.9380,N,08002.6622,W,1,10,1.5,13,M,,M,,*69
06/24/2015	20:07:14.512	$GPGGA,200715,2532.9383,N,08002.6617,W,1,10,1.5,13,M,,M,,*6D
06/24/2015	20:07:15.548	$GPGGA,200716,2532.9386,N,08002.6613,W,1,10,1.5,13,M,,M,,*6F
06/24/2015	20:07:16.502	$GPGGA,200717,2532.9388,N,08002.6610,W,1,10,1.5,13,M,,M,,*63
06/24/2015	20:07:17.612	$GPGGA,200718,2532.9391,N,08002.6606,W,1,10,1.5,13,M,,M,,*63
06/24/2015	20:07:18.592	$GPGGA,200719,2532.9395,N,08002.6601,W,1,10,1.5,13,M,,M,,*61
06/24/2015	20:07:19.522	$GPGGA,200720,2532.9398,N,08002.6598,W,1,10,1.5,13,M,,M,,*65
06/24/2015	20:07:20.512	$GPGGA,200721,2532.9399,N,08002.6594,W,1,10,1.5,13,M,,M,,*69
06/24/2015	20:07:21.512	$GPGGA,200722,2532.9402,N,08002.6589,W,1,10,1.5,13,M,,M,,*63
06/24/2015	20:07:22.482	$GPGGA,200723,2532.9406,N,08002.6585,W,1,10,1.5,13,M,,M,,*6A
06/24/2015	20:07:23.634	$GPGGA,200724,2532.9408,N,08002.6582,W,1,10,1.5,13,M,,M,,*64
06/24/2015	20:07:24.492	$GPGGA,200725,2532.9409,N,08002.6578,W,1,10,1.5,13,M,,M,,*61
06/24/2015	20:07:25.602	$GPGGA,200726,2532.9413,N,08002.6573,W,1,10,1.5,13,M,,M,,*62
06/24/2015	20:07:26.481	$GPGGA,200727,2532.9416,N,08002.6570,W,1,10,1.5,13,M,,M,,*65
06/24/2015	20:07:27.501	$GPGGA,200728,2532.9419,N,08002.6567,W,1,10,1.5,13,M,,M,,*63
06/24/2015	20:07:28.572	$GPGGA,200729,2532.9422,N,08002.6562,W,1,10,1.5,13,M,,M,,*6F
06/24/2015	20:07:29.602	$GPGGA,200730,2532.9424,N,08002.6558,W,1,10,1.5,13,M,,M,,*68
06/24/2015	20:07:30.562	$GPGGA,200731,2532.9426,N,08002.6555,W,1,10,1.5,13,M,,M,,*66
06/24/2015	20:07:31.612	$GPGGA,200732,2532.9428,N,08002.6550,W,1,10,1.5,13,M,,M,,*6E
06/24/2015	20:07:32.553	$GPGGA,200733,2532.9431,N,08002.6546,W,1,10,1.5,13,M,,M,,*60
06/24/2015	20:07:33.592	$GPGGA,200734,2532.9433,N,08002.6543,W,1,10,1.5,13,M,,M,,*60
06/24/2015	20:07:34.562	$GPGGA,200735,2532.9435,N,08002.6538,W,1,10,1.5,13,M,,M,,*6B
06/24/2015	20:07:35.572	$GPGGA,200736,2532.9438,N,08002.6534,W,1,10,1.5,13,M,,M,,*69
06/24/2015	20:07:36.562	$GPGGA,200737,2532.9441,N,08002.6531,W,1,10,1.5,13,M,,M,,*63
06/24/2015	20:07:37.572	$GPGGA,200738,2532.9442,N,08002.6527,W,1,10,1.5,13,M,,M,,*68
06/24/2015	20:07:38.542	$GPGGA,200739,2532.9445,N,08002.6522,W,1,10,1.5,13,M,,M,,*6B
06/24/2015	20:07:39.582	$GPGGA,200740,2532.9448,N,08002.6519,W,1,10,1.5,13,M,,M,,*60
06/24/2015	20:07:40.552	$GPGGA,200741,2532.9449,N,08002.6515,W,1,10,1.5,13,M,,M,,*6C
06/24/2015	20:07:41.572	$GPGGA,200742,2532.9453,N,08002.6511,W,1,10,1.5,13,M,,M,,*60
06/24/2015	20:07:42.544	$GPGGA,200743,2532.9455,N,08002.6507,W,1,10,1.5,13,M,,M,,*60
06/24/2015	20:07:43.571	$GPGGA,200744,2532.9456,N,08002.6503,W,1,10,1.5,13,M,,M,,*60
06/24/2015	20:07:44.544	$GPGGA,200745,2532.9459,N,08002.6498,W,1,10,1.5,13,M,,M,,*6D
06/24/2015	20:07:45.544	$GPGGA,200746,2532.9462,N,08002.6494,W,1,10,1.5,13,M,,M,,*6A
06/24/2015	20:07:46.536	$GPGGA,200747,2532.9464,N,08002.6490,W,1,10,1.5,13,M,,M,,*69
06/24/2015	20:07:47.562	$GPGGA,200748,2532.9466,N,08002.6486,W,1,10,1.5,13,M,,M,,*63
06/24/2015	20:07:48.544	$GPGGA,200749,2532.9467,N,08002.6482,W,1,10,1.5,13,M,,M,,*67
06/24/2015	20:07:49.562	$GPGGA,200750,2532.9471,N,08002.6478,W,1,10,1.5,13,M,,M,,*6D
06/24/2015	20:07:50.542	$GPGGA,200751,2532.9473,N,08002.6474,W,1,10,1.5,13,M,,M,,*62
06/24/2015	20:07:51.532	$GPGGA,200752,2532.9474,N,08002.6470,W,1,10,1.5,13,M,,M,,*62
06/24/2015	20:07:52.532	$GPGGA,200753,2532.9478,N,08002.6466,W,1,10,1.5,13,M,,M,,*68
06/24/2015	20:07:53.548	$GPGGA,200754,2532.9480,N,08002.6461,W,1,10,1.5,13,M,,M,,*6F
06/24/2015	20:07:54.522	$GPGGA,200755,2532.9482,N,08002.6457,W,1,10,1.5,13,M,,M,,*69
06/24/2015	20:07:55.552	$GPGGA,200756,2532.9484,N,08002.6453,W,1,10,1.5,13,M,,M,,*68
06/24/2015	20:07:56.522	$GPGGA,200757,2532.9487,N,08002.6449,W,1,10,1.5,13,M,,M,,*61
06/24/2015	20:07:57.522	$GPGGA,200758,2532.9489,N,08002.6445,W,1,10,1.5,13,M,,M,,*6C
06/24/2015	20:07:58.502	$GPGGA,200759,2532.9492,N,08002.6441,W,1,10,1.5,13,M,,M,,*63
06/24/2015	20:07:59.534	$GPGGA,200800,2532.9493,N,08002.6436,W,1,10,1.5,13,M,,M,,*61
06/24/2015	20:08:00.502	$GPGGA,200801,2532.9496,N,08002.6432,W,1,10,1.5,13,M,,M,,*61
06/24/2015	20:08:01.511	$GPGGA,200802,2532.9500,N,08002.6429,W,1,10,1.5,13,M,,M,,*66
06/24/2015	20:08:02.591	$GPGGA,200803,2532.9502,N,08002.6424,W,1,10,1.5,13,M,,M,,*68
06/24/2015	20:08:03.522	$GPGGA,200804,2532.9503,N,08002.6419,W,1,10,1.5,13,M,,M,,*60
06/24/2015	20:08:04.492	$GPGGA,200805,2532.9507,N,08002.6415,W,1,10,1.5,13,M,,M,,*69
06/24/2015	20:08:05.512	$GPGGA,200806,2532.9510,N,08002.6412,W,1,9,1.7,13,M,,M,,*51
06/24/2015	20:08:06.502	$GPGGA,200807,2532.9511,N,08002.6408,W,1,9,1.5,13,M,,M,,*58
06/24/2015	20:08:07.592	$GPGGA,200808,2532.9514,N,08002.6404,W,1,10,1.5,13,M,,M,,*66
06/24/2015	20:08:08.482	$GPGGA,200809,2532.9518,N,08002.6401,W,1,10,1.5,13,M,,M,,*6E
06/24/2015	20:08:09.492	$GPGGA,200810,2532.9521,N,08002.6398,W,1,10,1.5,13,M,,M,,*6B
06/24/2015	20:08:10.492	$GPGGA,200811,2532.9524,N,08002.6393,W,1,10,1.5,13,M,,M,,*64
06/24/2015	20:08:11.612	$GPGGA,200812,2532.9527,N,08002.6389,W,1,10,1.5,13,M,,M,,*6F
06/24/2015	20:08:12.492	$GPGGA,200813,2532.9529,N,08002.6386,W,1,10,1.5,13,M,,M,,*6F
06/24/2015	20:08:14.502	$GPGGA,200815,2532.9535,N,08002.6377,W,1,10,1.5,13,M,,M,,*6A
06/24/2015	20:08:15.492	$GPGGA,200816,2532.9538,N,08002.6372,W,1,9,1.7,13,M,,M,,*5B
06/24/2015	20:08:16.572	$GPGGA,200817,2532.9540,N,08002.6369,W,1,9,1.7,13,M,,M,,*5F
06/24/2015	20:08:17.572	$GPGGA,200818,2532.9543,N,08002.6365,W,1,10,1.5,13,M,,M,,*65
06/24/2015	20:08:18.571	$GPGGA,200819,2532.9546,N,08002.6361,W,1,10,1.5,13,M,,M,,*65
06/24/2015	20:08:19.601	$GPGGA,200820,2532.9549,N,08002.6357,W,1,10,1.5,13,M,,M,,*65
06/24/2015	20:08:20.562	$GPGGA,200821,2532.9550,N,08002.6353,W,1,10,1.5,13,M,,M,,*68
06/24/2015	20:08:21.582	$GPGGA,200822,2532.9553,N,08002.6348,W,1,10,1.5,13,M,,M,,*62
06/24/2015	20:08:22.552	$GPGGA,200823,2532.9556,N,08002.6344,W,1,10,1.5,13,M,,M,,*6A
06/24/2015	20:08:23.592	$GPGGA,200824,2532.9558,N,08002.6341,W,1,10,1.5,14,M,,M,,*61
06/24/2015	20:08:24.552	$GPGGA,200825,2532.9561,N,08002.6337,W,1,10,1.5,14,M,,M,,*6B
06/24/2015	20:08:25.562	$GPGGA,200826,2532.9564,N,08002.6332,W,1,10,1.5,14,M,,M,,*68
06/24/2015	20:08:26.552	$GPGGA,200827,2532.9567,N,08002.6328,W,1,10,1.5,14,M,,M,,*61
06/24/2015	20:08:27.572	$GPGGA,200828,2532.9570,N,08002.6325,W,1,10,1.5,14,M,,M,,*65
06/24/2015	20:08:28.552	$GPGGA,200829,2532.9572,N,08002.6320,W,1,10,1.5,14,M,,M,,*63
06/24/2015	20:08:29.562	$GPGGA,200830,2532.9575,N,08002.6316,W,1,9,1.7,14,M,,M,,*53
06/24/2015	20:08:30.548	$GPGGA,200831,2532.9578,N,08002.6312,W,1,9,1.5,14,M,,M,,*59
06/24/2015	20:08:31.572	$GPGGA,200832,2532.9581,N,08002.6309,W,1,10,1.5,14,M,,M,,*6E
06/24/2015	20:08:32.544	$GPGGA,200833,2532.9583,N,08002.6304,W,1,10,1.5,14,M,,M,,*60
06/24/2015	20:08:33.532	$GPGGA,200834,2532.9586,N,08002.6300,W,1,10,1.5,14,M,,M,,*66
06/24/2015	20:08:34.552	$GPGGA,200835,2532.9589,N,08002.6296,W,1,10,1.5,14,M,,M,,*66
06/24/2015	20:08:35.572	$GPGGA,200836,2532.9592,N,08002.6293,W,1,10,1.5,14,M,,M,,*6A
06/24/2015	20:08:37.581	$GPGGA,200838,2532.9597,N,08002.6284,W,1,10,1.5,15,M,,M,,*66
06/24/2015	20:08:38.532	$GPGGA,200839,2532.9600,N,08002.6280,W,1,10,1.5,15,M,,M,,*6E
06/24/2015	20:08:39.572	$GPGGA,200840,2532.9601,N,08002.6276,W,1,10,1.5,15,M,,M,,*68
06/24/2015	20:08:40.532	$GPGGA,200841,2532.9604,N,08002.6272,W,1,10,1.5,15,M,,M,,*68
06/24/2015	20:08:41.536	$GPGGA,200842,2532.9608,N,08002.6268,W,1,10,1.5,15,M,,M,,*6C
06/24/2015	20:08:42.522	$GPGGA,200843,2532.9610,N,08002.6263,W,1,10,1.5,15,M,,M,,*6F
06/24/2015	20:08:43.562	$GPGGA,200844,2532.9612,N,08002.6259,W,1,10,1.5,15,M,,M,,*63
06/24/2015	20:08:44.512	$GPGGA,200845,2532.9615,N,08002.6254,W,1,10,1.5,15,M,,M,,*68
06/24/2015	20:08:45.533	$GPGGA,200846,2532.9618,N,08002.6251,W,1,10,1.5,15,M,,M,,*63
06/24/2015	20:08:46.512	$GPGGA,200847,2532.9619,N,08002.6247,W,1,10,1.5,15,M,,M,,*64
06/24/2015	20:08:47.612	$GPGGA,200848,2532.9622,N,08002.6242,W,1,10,1.5,15,M,,M,,*66
06/24/2015	20:08:48.492	$GPGGA,200849,2532.9626,N,08002.6237,W,1,10,1.5,15,M,,M,,*61
06/24/2015	20:08:49.512	$GPGGA,200850,2532.9628,N,08002.6234,W,1,10,1.5,15,M,,M,,*64
06/24/2015	20:08:50.522	$GPGGA,200851,2532.9630,N,08002.6230,W,1,10,1.5,15,M,,M,,*68
06/24/2015	20:08:51.535	$GPGGA,200852,2532.9633,N,08002.6225,W,1,10,1.5,15,M,,M,,*6C
06/24/2015	20:08:52.502	$GPGGA,200853,2532.9636,N,08002.6221,W,1,10,1.5,15,M,,M,,*6C
06/24/2015	20:08:53.591	$GPGGA,200854,2532.9637,N,08002.6217,W,1,10,1.5,15,M,,M,,*6F
06/24/2015	20:08:54.581	$GPGGA,200855,2532.9641,N,08002.6213,W,1,10,1.6,15,M,,M,,*68
06/24/2015	20:08:55.512	$GPGGA,200856,2532.9647,N,08002.6210,W,1,10,1.5,15,M,,M,,*6D
06/24/2015	20:08:56.502	$GPGGA,200857,2532.9648,N,08002.6206,W,1,10,1.5,15,M,,M,,*64
06/24/2015	20:08:57.492	$GPGGA,200858,2532.9651,N,08002.6203,W,1,9,1.6,16,M,,M,,*5E
06/24/2015	20:08:58.472	$GPGGA,200859,2532.9655,N,08002.6198,W,1,9,1.5,16,M,,M,,*59
06/24/2015	20:08:59.582	$GPGGA,200900,2532.9659,N,08002.6194,W,1,9,1.6,16,M,,M,,*57
06/24/2015	20:09:00.562	$GPGGA,200901,2532.9659,N,08002.6190,W,1,9,1.5,16,M,,M,,*51
06/24/2015	20:09:01.472	$GPGGA,200902,2532.9662,N,08002.6185,W,1,10,1.5,16,M,,M,,*66
06/24/2015	20:09:02.562	$GPGGA,200903,2532.9664,N,08002.6179,W,1,10,1.6,16,M,,M,,*61
06/24/2015	20:09:03.572	$GPGGA,200904,2532.9666,N,08002.6175,W,1,10,1.5,16,M,,M,,*6B
06/24/2015	20:09:04.572	$GPGGA,200905,2532.9669,N,08002.6172,W,1,10,1.6,16,M,,M,,*61
06/24/2015	20:09:05.562	$GPGGA,200906,2532.9670,N,08002.6167,W,1,10,1.5,16,M,,M,,*6D
06/24/2015	20:09:06.562	$GPGGA,200907,2532.9673,N,08002.6163,W,1,10,1.5,16,M,,M,,*6B
06/24/2015	20:09:07.592	$GPGGA,200908,2532.9677,N,08002.6160,W,1,9,1.6,16,M,,M,,*58
06/24/2015	20:09:08.562	$GPGGA,200909,2532.9677,N,08002.6155,W,1,9,1.5,16,M,,M,,*5C
06/24/2015	20:09:09.592	$GPGGA,200910,2532.9680,N,08002.6151,W,1,9,1.6,16,M,,M,,*5B
06/24/2015	20:09:10.555	$GPGGA,200911,2532.9684,N,08002.6148,W,1,9,1.5,16,M,,M,,*55
06/24/2015	20:09:11.581	$GPGGA,200912,2532.9684,N,08002.6144,W,1,10,1.5,16,M,,M,,*62
06/24/2015	20:09:12.826	$GPGGA,200913,2532.9688,N,08002.6140,W,1,10,1.5,16,M,,M,,*6B
06/24/2015	20:09:13.549	$GPGGA,200914,2532.9691,N,08002.6137,W,1,10,1.5,16,M,,M,,*64
06/24/2015	20:09:14.548	$GPGGA,200915,2532.9694,N,08002.6132,W,1,10,1.5,16,M,,M,,*65
06/24/2015	20:09:15.572	$GPGGA,200916,2532.9695,N,08002.6128,W,1,10,1.5,16,M,,M,,*6C
06/24/2015	20:09:16.547	$GPGGA,200917,2532.9698,N,08002.6125,W,1,10,1.5,16,M,,M,,*6D
06/24/2015	20:09:17.562	$GPGGA,200918,2532.9701,N,08002.6120,W,1,10,1.5,16,M,,M,,*66
06/24/2015	20:09:18.532	$GPGGA,200919,2532.9704,N,08002.6116,W,1,10,1.5,16,M,,M,,*67
06/24/2015	20:09:19.582	$GPGGA,200920,2532.9706,N,08002.6112,W,1,10,1.5,16,M,,M,,*6B
06/24/2015	20:09:20.550	$GPGGA,200921,2532.9709,N,08002.6108,W,1,10,1.5,16,M,,M,,*6E
06/24/2015	20:09:21.522	$GPGGA,200922,2532.9712,N,08002.6103,W,1,10,1.5,16,M,,M,,*6C
06/24/2015	20:09:22.532	$GPGGA,200923,2532.9715,N,08002.6099,W,1,10,1.5,16,M,,M,,*68
06/24/2015	20:09:23.533	$GPGGA,200924,2532.9716,N,08002.6095,W,1,10,1.5,16,M,,M,,*60
06/24/2015	20:09:24.533	$GPGGA,200925,2532.9719,N,08002.6091,W,1,10,1.5,16,M,,M,,*6A
06/24/2015	20:09:25.535	$GPGGA,200926,2532.9722,N,08002.6086,W,1,10,1.5,16,M,,M,,*67
06/24/2015	20:09:26.512	$GPGGA,200927,2532.9724,N,08002.6082,W,1,10,1.5,16,M,,M,,*64
06/24/2015	20:09:27.545	$GPGGA,200928,2532.9727,N,08002.6077,W,1,10,1.5,16,M,,M,,*62
06/24/2015	20:09:28.511	$GPGGA,200929,2532.9730,N,08002.6073,W,1,10,1.5,16,M,,M,,*61
06/24/2015	20:09:29.512	$GPGGA,200930,2532.9733,N,08002.6068,W,1,10,1.5,16,M,,M,,*60
06/24/2015	20:09:30.622	$GPGGA,200931,2532.9734,N,08002.6064,W,1,10,1.5,16,M,,M,,*6A
06/24/2015	20:09:31.547	$GPGGA,200932,2532.9738,N,08002.6059,W,1,10,1.5,16,M,,M,,*6B
06/24/2015	20:09:32.522	$GPGGA,200933,2532.9740,N,08002.6054,W,1,10,1.7,16,M,,M,,*6A
06/24/2015	20:09:33.561	$GPGGA,200934,2532.9742,N,08002.6050,W,1,10,1.5,16,M,,M,,*69
06/24/2015	20:09:34.502	$GPGGA,200935,2532.9745,N,08002.6045,W,1,10,1.5,16,M,,M,,*6B
06/24/2015	20:09:35.562	$GPGGA,200936,2532.9748,N,08002.6040,W,1,10,1.5,16,M,,M,,*60
06/24/2015	20:09:36.492	$GPGGA,200937,2532.9751,N,08002.6035,W,1,10,1.5,16,M,,M,,*6B
06/24/2015	20:09:37.512	$GPGGA,200938,2532.9753,N,08002.6031,W,1,10,1.5,16,M,,M,,*62
06/24/2015	20:09:38.512	$GPGGA,200939,2532.9756,N,08002.6026,W,1,10,1.5,16,M,,M,,*60
06/24/2015	20:09:39.602	$GPGGA,200940,2532.9759,N,08002.6022,W,1,10,1.5,16,M,,M,,*65
06/24/2015	20:09:40.502	$GPGGA,200941,2532.9762,N,08002.6017,W,1,10,1.5,16,M,,M,,*6A
06/24/2015	20:09:41.602	$GPGGA,200942,2532.9763,N,08002.6013,W,1,10,1.5,16,M,,M,,*6C
06/24/2015	20:09:42.492	$GPGGA,200943,2532.9767,N,08002.6008,W,1,10,1.5,16,M,,M,,*63
06/24/2015	20:09:43.622	$GPGGA,200944,2532.9770,N,08002.6003,W,1,10,1.5,16,M,,M,,*69
06/24/2015	20:09:44.582	$GPGGA,200945,2532.9773,N,08002.5998,W,1,10,1.5,16,M,,M,,*63
06/24/2015	20:09:45.482	$GPGGA,200946,2532.9776,N,08002.5994,W,1,10,1.5,16,M,,M,,*69
06/24/2015	20:09:46.581	$GPGGA,200947,2532.9778,N,08002.5989,W,1,10,1.5,16,M,,M,,*6A
06/24/2015	20:09:47.611	$GPGGA,200948,2532.9781,N,08002.5983,W,1,10,1.5,16,M,,M,,*69
06/24/2015	20:09:48.562	$GPGGA,200949,2532.9784,N,08002.5978,W,1,10,1.5,16,M,,M,,*69
06/24/2015	20:09:49.592	$GPGGA,200950,2532.9787,N,08002.5974,W,1,10,1.5,16,M,,M,,*6E
06/24/2015	20:09:50.572	$GPGGA,200951,2532.9789,N,08002.5968,W,1,10,1.5,16,M,,M,,*6C
06/24/2015	20:09:51.634	$GPGGA,200952,2532.9792,N,08002.5962,W,1,10,1.5,16,M,,M,,*6F
06/24/2015	20:09:52.572	$GPGGA,200953,2532.9796,N,08002.5958,W,1,10,1.5,16,M,,M,,*63
06/24/2015	20:09:53.572	$GPGGA,200954,2532.9798,N,08002.5953,W,1,10,1.5,16,M,,M,,*61
06/24/2015	20:09:54.562	$GPGGA,200955,2532.9800,N,08002.5947,W,1,10,1.5,16,M,,M,,*6B
06/24/2015	20:09:55.612	$GPGGA,200956,2532.9803,N,08002.5943,W,1,10,1.5,16,M,,M,,*6F
06/24/2015	20:09:56.562	$GPGGA,200957,2532.9806,N,08002.5938,W,1,10,1.5,16,M,,M,,*67
06/24/2015	20:09:57.582	$GPGGA,200958,2532.9809,N,08002.5932,W,1,10,1.5,16,M,,M,,*6D
06/24/2015	20:09:58.552	$GPGGA,200959,2532.9811,N,08002.5927,W,1,10,1.5,16,M,,M,,*61
06/24/2015	20:09:59.592	$GPGGA,201000,2532.9814,N,08002.5922,W,1,10,1.5,16,M,,M,,*65
06/24/2015	20:10:00.552	$GPGGA,201001,2532.9818,N,08002.5917,W,1,10,1.5,16,M,,M,,*6E
06/24/2015	20:10:01.545	$GPGGA,201002,2532.9820,N,08002.5912,W,1,10,1.5,16,M,,M,,*63
06/24/2015	20:10:02.822	$GPGGA,201003,2532.9824,N,08002.5907,W,1,10,1.5,16,M,,M,,*62
06/24/2015	20:10:03.571	$GPGGA,201004,2532.9825,N,08002.5901,W,1,10,1.5,16,M,,M,,*62
06/24/2015	20:10:04.551	$GPGGA,201005,2532.9828,N,08002.5896,W,1,10,1.5,16,M,,M,,*61
06/24/2015	20:10:05.562	$GPGGA,201006,2532.9832,N,08002.5891,W,1,10,1.5,16,M,,M,,*6E
06/24/2015	20:10:06.542	$GPGGA,201007,2532.9835,N,08002.5885,W,1,10,1.5,16,M,,M,,*6D
06/24/2015	20:10:07.572	$GPGGA,201008,2532.9838,N,08002.5880,W,1,10,1.5,16,M,,M,,*6A
06/24/2015	20:10:08.522	$GPGGA,201009,2532.9841,N,08002.5875,W,1,10,1.5,16,M,,M,,*6F
06/24/2015	20:10:09.552	$GPGGA,201010,2532.9845,N,08002.5869,W,1,10,1.5,16,M,,M,,*6E
06/24/2015	20:10:10.532	$GPGGA,201011,2532.9846,N,08002.5865,W,1,10,1.5,16,M,,M,,*60
06/24/2015	20:10:11.544	$GPGGA,201012,2532.9850,N,08002.5859,W,1,10,1.5,16,M,,M,,*6B
06/24/2015	20:10:12.534	$GPGGA,201013,2532.9854,N,08002.5853,W,1,10,1.5,16,M,,M,,*64
06/24/2015	20:10:13.533	$GPGGA,201014,2532.9857,N,08002.5849,W,1,10,1.5,16,M,,M,,*6B
06/24/2015	20:10:14.546	$GPGGA,201015,2532.9860,N,08002.5844,W,1,10,1.5,16,M,,M,,*63
06/24/2015	20:10:15.582	$GPGGA,201016,2532.9863,N,08002.5838,W,1,10,1.5,15,M,,M,,*6B
06/24/2015	20:10:16.622	$GPGGA,201017,2532.9865,N,08002.5833,W,1,10,1.5,15,M,,M,,*67
06/24/2015	20:10:17.512	$GPGGA,201018,2532.9868,N,08002.5828,W,1,10,1.5,15,M,,M,,*6F
06/24/2015	20:10:18.512	$GPGGA,201019,2532.9872,N,08002.5823,W,1,10,1.5,15,M,,M,,*6E
06/24/2015	20:10:19.542	$GPGGA,201020,2532.9875,N,08002.5818,W,1,10,1.5,15,M,,M,,*6B
06/24/2015	20:10:20.536	$GPGGA,201021,2532.9878,N,08002.5813,W,1,10,1.5,15,M,,M,,*6C
06/24/2015	20:10:21.521	$GPGGA,201022,2532.9879,N,08002.5808,W,1,10,1.5,15,M,,M,,*64
06/24/2015	20:10:22.591	$GPGGA,201023,2532.9883,N,08002.5803,W,1,10,1.5,15,M,,M,,*6B
06/24/2015	20:10:23.632	$GPGGA,201024,2532.9886,N,08002.5798,W,1,9,1.5,15,M,,M,,*5C
06/24/2015	20:10:24.522	$GPGGA,201025,2532.9888,N,08002.5794,W,1,9,1.5,15,M,,M,,*5F
06/24/2015	20:10:25.622	$GPGGA,201026,2532.9890,N,08002.5789,W,1,10,1.5,15,M,,M,,*61
06/24/2015	20:10:26.582	$GPGGA,201027,2532.9893,N,08002.5784,W,1,10,1.5,15,M,,M,,*6E
06/24/2015	20:10:27.592	$GPGGA,201028,2532.9896,N,08002.5780,W,1,10,1.5,15,M,,M,,*60
06/24/2015	20:10:28.512	$GPGGA,201029,2532.9899,N,08002.5776,W,1,10,1.5,15,M,,M,,*67
06/24/2015	20:10:29.492	$GPGGA,201030,2532.9901,N,08002.5771,W,1,10,1.5,15,M,,M,,*68
06/24/2015	20:10:30.502	$GPGGA,201031,2532.9904,N,08002.5766,W,1,10,1.5,15,M,,M,,*6A
06/24/2015	20:10:31.582	$GPGGA,201032,2532.9906,N,08002.5762,W,1,10,1.5,15,M,,M,,*6F
06/24/2015	20:10:32.572	$GPGGA,201033,2532.9908,N,08002.5757,W,1,10,1.5,15,M,,M,,*66
06/24/2015	20:10:33.572	$GPGGA,201034,2532.9911,N,08002.5752,W,1,10,1.5,15,M,,M,,*6C
06/24/2015	20:10:34.572	$GPGGA,201035,2532.9914,N,08002.5748,W,1,10,1.5,15,M,,M,,*63
06/24/2015	20:10:35.602	$GPGGA,201036,2532.9915,N,08002.5743,W,1,10,1.5,15,M,,M,,*6A
06/24/2015	20:10:36.562	$GPGGA,201037,2532.9919,N,08002.5739,W,1,10,1.5,15,M,,M,,*6A
06/24/2015	20:10:37.592	$GPGGA,201038,2532.9921,N,08002.5735,W,1,10,1.5,15,M,,M,,*62
06/24/2015	20:10:39.622	$GPGGA,201040,2532.9929,N,08002.5727,W,1,10,1.5,15,M,,M,,*66
06/24/2015	20:10:40.572	$GPGGA,201041,2532.9930,N,08002.5723,W,1,10,1.5,15,M,,M,,*6B
06/24/2015	20:10:41.582	$GPGGA,201042,2532.9933,N,08002.5718,W,1,9,1.6,15,M,,M,,*58
06/24/2015	20:10:42.562	$GPGGA,201043,2532.9935,N,08002.5714,W,1,9,1.5,15,M,,M,,*50
06/24/2015	20:10:43.582	$GPGGA,201044,2532.9937,N,08002.5710,W,1,9,1.6,15,M,,M,,*52
06/24/2015	20:10:44.552	$GPGGA,201045,2532.9941,N,08002.5706,W,1,9,1.6,15,M,,M,,*55
06/24/2015	20:10:45.562	$GPGGA,201046,2532.9944,N,08002.5702,W,1,10,1.5,15,M,,M,,*6C
06/24/2015	20:10:46.552	$GPGGA,201047,2532.9947,N,08002.5698,W,1,10,1.5,15,M,,M,,*6C
06/24/2015	20:10:47.572	$GPGGA,201048,2532.9948,N,08002.5694,W,1,9,1.6,16,M,,M,,*58
06/24/2015	20:10:48.548	$GPGGA,201049,2532.9953,N,08002.5690,W,1,9,1.6,16,M,,M,,*57
06/24/2015	20:10:49.562	$GPGGA,201050,2532.9955,N,08002.5685,W,1,10,1.5,16,M,,M,,*66
06/24/2015	20:10:50.537	$GPGGA,201051,2532.9955,N,08002.5681,W,1,10,1.5,16,M,,M,,*63
06/24/2015	20:10:51.572	$GPGGA,201052,2532.9955,N,08002.5675,W,1,9,1.6,16,M,,M,,*50
06/24/2015	20:10:52.536	$GPGGA,201053,2532.9959,N,08002.5671,W,1,9,1.5,16,M,,M,,*5A
06/24/2015	20:10:53.562	$GPGGA,201054,2532.9962,N,08002.5668,W,1,10,1.5,16,M,,M,,*65
06/24/2015	20:10:54.522	$GPGGA,201055,2532.9965,N,08002.5664,W,1,10,1.5,16,M,,M,,*6F
06/24/2015	20:10:55.562	$GPGGA,201056,2532.9966,N,08002.5659,W,1,9,1.6,16,M,,M,,*5A
06/24/2015	20:10:56.537	$GPGGA,201057,2532.9969,N,08002.5654,W,1,9,1.5,16,M,,M,,*5A
06/24/2015	20:10:57.511	$GPGGA,201058,2532.9973,N,08002.5651,W,1,10,1.5,16,M,,M,,*63
06/24/2015	20:10:58.532	$GPGGA,201059,2532.9975,N,08002.5647,W,1,10,1.5,16,M,,M,,*63
06/24/2015	20:10:59.572	$GPGGA,201100,2532.9977,N,08002.5642,W,1,10,1.5,16,M,,M,,*69
06/24/2015	20:11:00.522	$GPGGA,201101,2532.9980,N,08002.5638,W,1,10,1.5,16,M,,M,,*6D
06/24/2015	20:11:01.547	$GPGGA,201102,2532.9983,N,08002.5635,W,1,10,1.5,17,M,,M,,*61
06/24/2015	20:11:02.512	$GPGGA,201103,2532.9986,N,08002.5630,W,1,10,1.5,17,M,,M,,*60
06/24/2015	20:11:03.570	$GPGGA,201104,2532.9988,N,08002.5626,W,1,10,1.5,17,M,,M,,*6E
06/24/2015	20:11:04.512	$GPGGA,201105,2532.9991,N,08002.5622,W,1,10,1.5,17,M,,M,,*63
06/24/2015	20:11:05.502	$GPGGA,201106,2532.9994,N,08002.5618,W,1,10,1.5,17,M,,M,,*6C
06/24/2015	20:11:06.602	$GPGGA,201107,2532.9997,N,08002.5613,W,1,10,1.5,17,M,,M,,*65
06/24/2015	20:11:07.522	$GPGGA,201108,2532.9998,N,08002.5609,W,1,10,1.5,17,M,,M,,*6E
06/24/2015	20:11:08.592	$GPGGA,201109,2533.0002,N,08002.5605,W,1,10,1.5,17,M,,M,,*61
06/24/2015	20:11:09.512	$GPGGA,201110,2533.0005,N,08002.5600,W,1,10,1.5,17,M,,M,,*6B
06/24/2015	20:11:10.592	$GPGGA,201111,2533.0006,N,08002.5596,W,1,10,1.5,17,M,,M,,*65
06/24/2015	20:11:11.502	$GPGGA,201112,2533.0009,N,08002.5591,W,1,10,1.5,17,M,,M,,*6E
06/24/2015	20:11:12.502	$GPGGA,201113,2533.0013,N,08002.5587,W,1,10,1.5,17,M,,M,,*63
06/24/2015	20:11:13.591	$GPGGA,201114,2533.0015,N,08002.5582,W,1,10,1.5,17,M,,M,,*67
06/24/2015	20:11:14.501	$GPGGA,201115,2533.0016,N,08002.5578,W,1,10,1.5,17,M,,M,,*60
06/24/2015	20:11:16.612	$GPGGA,201117,2533.0023,N,08002.5569,W,1,10,1.5,17,M,,M,,*64
06/24/2015	20:11:17.612	$GPGGA,201118,2533.0024,N,08002.5565,W,1,10,1.5,17,M,,M,,*60
06/24/2015	20:11:18.502	$GPGGA,201119,2533.0029,N,08002.5561,W,1,10,1.5,17,M,,M,,*68
06/24/2015	20:11:19.582	$GPGGA,201120,2533.0031,N,08002.5555,W,1,10,1.5,17,M,,M,,*6C
06/24/2015	20:11:20.582	$GPGGA,201121,2533.0034,N,08002.5551,W,1,10,1.5,17,M,,M,,*6C
06/24/2015	20:11:21.602	$GPGGA,201122,2533.0037,N,08002.5548,W,1,10,1.5,17,M,,M,,*64
06/24/2015	20:11:22.572	$GPGGA,201123,2533.0040,N,08002.5543,W,1,10,1.5,17,M,,M,,*6E
06/24/2015	20:11:23.602	$GPGGA,201124,2533.0042,N,08002.5539,W,1,10,1.5,17,M,,M,,*66
06/24/2015	20:11:24.562	$GPGGA,201125,2533.0045,N,08002.5534,W,1,10,1.5,17,M,,M,,*6D
06/24/2015	20:11:25.582	$GPGGA,201126,2533.0049,N,08002.5530,W,1,10,1.5,17,M,,M,,*66
06/24/2015	20:11:26.562	$GPGGA,201127,2533.0052,N,08002.5526,W,1,10,1.5,17,M,,M,,*6A
06/24/2015	20:11:27.592	$GPGGA,201128,2533.0056,N,08002.5521,W,1,10,1.5,17,M,,M,,*66
06/24/2015	20:11:28.552	$GPGGA,201129,2533.0058,N,08002.5516,W,1,10,1.5,17,M,,M,,*6D
06/24/2015	20:11:29.572	$GPGGA,201130,2533.0060,N,08002.5512,W,1,10,1.5,17,M,,M,,*6A
06/24/2015	20:11:30.546	$GPGGA,201131,2533.0065,N,08002.5507,W,1,10,1.5,17,M,,M,,*6A
06/24/2015	20:11:31.591	$GPGGA,201132,2533.0067,N,08002.5503,W,1,10,1.5,17,M,,M,,*6F
06/24/2015	20:11:32.551	$GPGGA,201133,2533.0070,N,08002.5498,W,1,10,1.5,17,M,,M,,*6B
06/24/2015	20:11:33.562	$GPGGA,201134,2533.0073,N,08002.5494,W,1,10,1.5,17,M,,M,,*63
06/24/2015	20:11:34.549	$GPGGA,201135,2533.0076,N,08002.5489,W,1,10,1.5,17,M,,M,,*6B
06/24/2015	20:11:35.552	$GPGGA,201136,2533.0080,N,08002.5485,W,1,10,1.5,17,M,,M,,*6D
06/24/2015	20:11:36.545	$GPGGA,201137,2533.0083,N,08002.5480,W,1,10,1.5,17,M,,M,,*6A
06/24/2015	20:11:37.533	$GPGGA,201138,2533.0085,N,08002.5476,W,1,10,1.5,17,M,,M,,*6A
06/24/2015	20:11:38.542	$GPGGA,201139,2533.0088,N,08002.5471,W,1,10,1.5,17,M,,M,,*61
06/24/2015	20:11:39.562	$GPGGA,201140,2533.0092,N,08002.5467,W,1,10,1.5,17,M,,M,,*63
06/24/2015	20:11:40.547	$GPGGA,201141,2533.0094,N,08002.5463,W,1,10,1.5,17,M,,M,,*60
06/24/2015	20:11:41.522	$GPGGA,201142,2533.0096,N,08002.5458,W,1,10,1.5,17,M,,M,,*69
06/24/2015	20:11:42.522	$GPGGA,201143,2533.0100,N,08002.5453,W,1,10,1.7,17,M,,M,,*6F
06/24/2015	20:11:43.539	$GPGGA,201144,2533.0105,N,08002.5450,W,1,10,1.5,17,M,,M,,*6C
06/24/2015	20:11:44.546	$GPGGA,201145,2533.0107,N,08002.5445,W,1,10,1.5,17,M,,M,,*6B
06/24/2015	20:11:45.512	$GPGGA,201146,2533.0110,N,08002.5440,W,1,10,1.5,17,M,,M,,*6B
