Software Version Number: 1	Data File Format Number: 1	Build Version Number: 1	Error Count Since VI Started: 3	Manufacturer: Raytheon	 Model Number: RayMarine 120	 S/N: 	 Cal Date: 	 Wind Direction Offset: 0.00	 Slope (M)1: 0.00	 Offset (B)1: 0.00	 Slope (M)2: 0.00	 Offset (B)2: 0.00	 Slope (M)3: 0.00	 Offset (B)3: 0.00	 Slope (M)4: 0.00	 Offset (B)4: 0.00	 Slope (M)5: 0.00	 Offset (B)5: 0.00	 Slope (M)6: 0.00	 Offset (B)6: 0.00
Computer Date	Computer Time	GGA String
06/26/2015	08:00:00.535	$GPGGA,080001,2540.3435,N,07959.0734,W,1,8,2.2,13,M,,M,,*53
06/26/2015	08:00:01.565	$GPGGA,080002,2540.3435,N,07959.0734,W,1,8,2.2,13,M,,M,,*50
06/26/2015	08:00:03.635	$GPGGA,080004,2540.3413,N,07959.0748,W,1,8,1.5,13,M,,M,,*5D
06/26/2015	08:00:04.525	$GPGGA,080005,2540.3406,N,07959.0752,W,1,8,1.5,13,M,,M,,*53
06/26/2015	08:00:05.955	$GPGGA,080006,2540.3406,N,07959.0752,W,1,9,1.5,13,M,,M,,*51
06/26/2015	08:00:06.515	$GPGGA,080007,2540.3393,N,07959.0760,W,1,9,1.5,14,M,,M,,*5D
06/26/2015	08:00:07.675	$GPGGA,080008,2540.3387,N,07959.0767,W,1,9,1.5,14,M,,M,,*50
06/26/2015	08:00:08.526	$GPGGA,080009,2540.3380,N,07959.0773,W,1,9,1.5,14,M,,M,,*53
06/26/2015	08:00:09.656	$GPGGA,080010,2540.3372,N,07959.0778,W,1,9,1.5,14,M,,M,,*5D
06/26/2015	08:00:10.525	$GPGGA,080011,2540.3372,N,07959.0778,W,1,9,1.5,14,M,,M,,*5C
06/26/2015	08:00:11.655	$GPGGA,080012,2540.3360,N,07959.0791,W,1,9,1.5,14,M,,M,,*5B
06/26/2015	08:00:12.615	$GPGGA,080013,2540.3353,N,07959.0798,W,1,9,1.5,14,M,,M,,*53
06/26/2015	08:00:13.625	$GPGGA,080014,2540.3353,N,07959.0798,W,1,9,1.5,14,M,,M,,*54
06/26/2015	08:00:14.598	$GPGGA,080015,2540.3341,N,07959.0811,W,1,9,1.5,14,M,,M,,*58
06/26/2015	08:00:15.635	$GPGGA,080016,2540.3335,N,07959.0818,W,1,9,1.5,14,M,,M,,*51
06/26/2015	08:00:16.505	$GPGGA,080017,2540.3329,N,07959.0825,W,1,9,1.5,15,M,,M,,*52
06/26/2015	08:00:17.600	$GPGGA,080018,2540.3322,N,07959.0831,W,1,9,1.5,15,M,,M,,*53
06/26/2015	08:00:18.495	$GPGGA,080019,2540.3316,N,07959.0838,W,1,9,1.5,15,M,,M,,*5C
06/26/2015	08:00:19.605	$GPGGA,080020,2540.3311,N,07959.0845,W,1,9,1.5,15,M,,M,,*5B
06/26/2015	08:00:20.585	$GPGGA,080021,2540.3304,N,07959.0853,W,1,9,1.5,15,M,,M,,*59
06/26/2015	08:00:21.597	$GPGGA,080022,2540.3297,N,07959.0860,W,1,9,1.5,15,M,,M,,*51
06/26/2015	08:00:22.575	$GPGGA,080023,2540.3291,N,07959.0867,W,1,9,1.5,15,M,,M,,*51
06/26/2015	08:00:23.598	$GPGGA,080024,2540.3286,N,07959.0874,W,1,9,1.5,15,M,,M,,*52
06/26/2015	08:00:25.646	$GPGGA,080026,2540.3279,N,07959.0881,W,1,9,1.5,15,M,,M,,*5A
06/26/2015	08:00:26.566	$GPGGA,080027,2540.3266,N,07959.0894,W,1,9,1.5,15,M,,M,,*51
06/26/2015	08:00:28.595	$GPGGA,080029,2540.3254,N,07959.0908,W,1,9,1.5,15,M,,M,,*5A
06/26/2015	08:00:29.588	$GPGGA,080030,2540.3248,N,07959.0915,W,1,9,1.5,15,M,,M,,*53
06/26/2015	08:00:30.555	$GPGGA,080031,2540.3242,N,07959.0922,W,1,9,1.5,15,M,,M,,*5C
06/26/2015	08:00:31.595	$GPGGA,080032,2540.3235,N,07959.0929,W,1,9,1.5,15,M,,M,,*54
06/26/2015	08:00:32.555	$GPGGA,080033,2540.3229,N,07959.0936,W,1,9,1.5,15,M,,M,,*56
06/26/2015	08:00:33.545	$GPGGA,080034,2540.3223,N,07959.0943,W,1,9,1.5,15,M,,M,,*59
06/26/2015	08:00:34.555	$GPGGA,080035,2540.3217,N,07959.0950,W,1,9,1.5,15,M,,M,,*5D
06/26/2015	08:00:35.586	$GPGGA,080036,2540.3210,N,07959.0957,W,1,9,1.5,15,M,,M,,*5E
06/26/2015	08:00:36.545	$GPGGA,080037,2540.3204,N,07959.0965,W,1,9,1.5,15,M,,M,,*5B
06/26/2015	08:00:37.565	$GPGGA,080038,2540.3199,N,07959.0970,W,1,9,1.5,15,M,,M,,*57
06/26/2015	08:00:38.545	$GPGGA,080039,2540.3192,N,07959.0976,W,1,9,1.5,15,M,,M,,*5B
06/26/2015	08:00:39.598	$GPGGA,080040,2540.3186,N,07959.0984,W,1,9,1.5,15,M,,M,,*5D
06/26/2015	08:00:40.535	$GPGGA,080041,2540.3179,N,07959.0990,W,1,9,1.5,15,M,,M,,*59
06/26/2015	08:00:41.575	$GPGGA,080042,2540.3174,N,07959.0997,W,1,9,1.5,15,M,,M,,*50
06/26/2015	08:00:42.545	$GPGGA,080043,2540.3167,N,07959.1004,W,1,9,1.5,15,M,,M,,*51
06/26/2015	08:00:43.666	$GPGGA,080044,2540.3161,N,07959.1011,W,1,9,1.5,15,M,,M,,*54
06/26/2015	08:00:44.536	$GPGGA,080045,2540.3154,N,07959.1016,W,1,9,1.5,15,M,,M,,*54
06/26/2015	08:00:45.565	$GPGGA,080046,2540.3148,N,07959.1022,W,1,9,1.5,15,M,,M,,*5D
06/26/2015	08:00:46.545	$GPGGA,080047,2540.3142,N,07959.1030,W,1,9,1.5,15,M,,M,,*55
06/26/2015	08:00:48.025	$GPGGA,080048,2540.3135,N,07959.1035,W,1,9,1.5,15,M,,M,,*5F
06/26/2015	08:00:48.525	$GPGGA,080049,2540.3129,N,07959.1041,W,1,9,1.5,15,M,,M,,*50
06/26/2015	08:00:49.545	$GPGGA,080050,2540.3122,N,07959.1048,W,1,9,1.5,15,M,,M,,*5A
06/26/2015	08:00:50.515	$GPGGA,080051,2540.3116,N,07959.1053,W,1,9,1.5,14,M,,M,,*57
06/26/2015	08:00:51.575	$GPGGA,080052,2540.3109,N,07959.1059,W,1,9,1.5,14,M,,M,,*50
06/26/2015	08:00:52.525	$GPGGA,080053,2540.3102,N,07959.1066,W,1,9,1.5,14,M,,M,,*56
06/26/2015	08:00:53.515	$GPGGA,080054,2540.3096,N,07959.1071,W,1,9,1.5,14,M,,M,,*5B
06/26/2015	08:00:54.525	$GPGGA,080055,2540.3089,N,07959.1077,W,1,9,1.5,14,M,,M,,*52
06/26/2015	08:00:55.645	$GPGGA,080056,2540.3083,N,07959.1082,W,1,8,2.2,14,M,,M,,*54
06/26/2015	08:00:56.535	$GPGGA,080057,2540.3077,N,07959.1089,W,1,8,1.5,14,M,,M,,*51
06/26/2015	08:00:57.599	$GPGGA,080058,2540.3070,N,07959.1095,W,1,9,1.5,14,M,,M,,*55
06/26/2015	08:00:58.515	$GPGGA,080059,2540.3063,N,07959.1102,W,1,9,1.5,14,M,,M,,*59
06/26/2015	08:00:59.685	$GPGGA,080100,2540.3057,N,07959.1106,W,1,9,1.5,14,M,,M,,*57
06/26/2015	08:01:00.526	$GPGGA,080101,2540.3051,N,07959.1111,W,1,9,1.5,14,M,,M,,*56
06/26/2015	08:01:01.606	$GPGGA,080102,2540.3044,N,07959.1117,W,1,9,1.5,14,M,,M,,*57
06/26/2015	08:01:02.516	$GPGGA,080103,2540.3036,N,07959.1120,W,1,9,2.2,14,M,,M,,*53
06/26/2015	08:01:04.119	$GPGGA,080104,2540.3029,N,07959.1124,W,1,9,1.5,14,M,,M,,*5A
06/26/2015	08:01:04.508	$GPGGA,080105,2540.3023,N,07959.1129,W,1,9,1.5,14,M,,M,,*5C
06/26/2015	08:01:05.625	$GPGGA,080106,2540.3016,N,07959.1134,W,1,9,1.5,14,M,,M,,*55
06/26/2015	08:01:06.588	$GPGGA,080107,2540.3009,N,07959.1138,W,1,9,1.5,14,M,,M,,*56
06/26/2015	08:01:07.597	$GPGGA,080108,2540.3002,N,07959.1143,W,1,9,1.5,14,M,,M,,*5E
06/26/2015	08:01:08.575	$GPGGA,080109,2540.2997,N,07959.1149,W,1,9,1.5,14,M,,M,,*51
06/26/2015	08:01:09.625	$GPGGA,080110,2540.2990,N,07959.1154,W,1,9,1.5,14,M,,M,,*52
06/26/2015	08:01:10.595	$GPGGA,080111,2540.2982,N,07959.1158,W,1,9,1.5,14,M,,M,,*5C
06/26/2015	08:01:11.605	$GPGGA,080112,2540.2975,N,07959.1163,W,1,9,1.5,14,M,,M,,*5F
06/26/2015	08:01:12.575	$GPGGA,080113,2540.2969,N,07959.1170,W,1,9,1.5,14,M,,M,,*51
06/26/2015	08:01:13.585	$GPGGA,080114,2540.2962,N,07959.1175,W,1,9,1.5,14,M,,M,,*58
06/26/2015	08:01:14.565	$GPGGA,080115,2540.2955,N,07959.1181,W,1,9,1.5,15,M,,M,,*57
06/26/2015	08:01:15.585	$GPGGA,080116,2540.2948,N,07959.1188,W,1,8,2.2,15,M,,M,,*54
06/26/2015	08:01:16.555	$GPGGA,080117,2540.2941,N,07959.1193,W,1,8,2.2,15,M,,M,,*56
06/26/2015	08:01:17.555	$GPGGA,080118,2540.2935,N,07959.1199,W,1,8,2.2,15,M,,M,,*50
06/26/2015	08:01:18.555	$GPGGA,080119,2540.2928,N,07959.1207,W,1,8,2.2,15,M,,M,,*59
06/26/2015	08:01:19.585	$GPGGA,080120,2540.2921,N,07959.1211,W,1,9,1.5,15,M,,M,,*58
06/26/2015	08:01:20.544	$GPGGA,080121,2540.2914,N,07959.1217,W,1,9,1.5,15,M,,M,,*59
06/26/2015	08:01:21.565	$GPGGA,080122,2540.2906,N,07959.1221,W,1,9,1.5,15,M,,M,,*5C
06/26/2015	08:01:22.544	$GPGGA,080123,2540.2899,N,07959.1225,W,1,9,1.5,15,M,,M,,*5E
06/26/2015	08:01:23.544	$GPGGA,080124,2540.2893,N,07959.1230,W,1,9,1.5,15,M,,M,,*57
06/26/2015	08:01:24.554	$GPGGA,080125,2540.2885,N,07959.1236,W,1,9,1.5,15,M,,M,,*57
06/26/2015	08:01:25.544	$GPGGA,080126,2540.2878,N,07959.1241,W,1,9,1.5,15,M,,M,,*56
06/26/2015	08:01:26.544	$GPGGA,080127,2540.2872,N,07959.1247,W,1,9,1.5,15,M,,M,,*5B
06/26/2015	08:01:27.554	$GPGGA,080128,2540.2864,N,07959.1253,W,1,9,1.5,15,M,,M,,*56
06/26/2015	08:01:28.535	$GPGGA,080129,2540.2858,N,07959.1259,W,1,9,1.5,15,M,,M,,*52
06/26/2015	08:01:29.578	$GPGGA,080130,2540.2852,N,07959.1265,W,1,9,1.5,15,M,,M,,*5F
06/26/2015	08:01:30.535	$GPGGA,080131,2540.2845,N,07959.1272,W,1,9,1.5,15,M,,M,,*5E
06/26/2015	08:01:31.545	$GPGGA,080132,2540.2838,N,07959.1277,W,1,9,1.5,15,M,,M,,*52
06/26/2015	08:01:32.535	$GPGGA,080133,2540.2831,N,07959.1284,W,1,9,1.5,15,M,,M,,*56
06/26/2015	08:01:33.555	$GPGGA,080134,2540.2825,N,07959.1290,W,1,9,1.5,15,M,,M,,*51
06/26/2015	08:01:34.535	$GPGGA,080135,2540.2818,N,07959.1297,W,1,9,1.5,15,M,,M,,*59
06/26/2015	08:01:35.555	$GPGGA,080136,2540.2811,N,07959.1304,W,1,9,1.5,15,M,,M,,*58
06/26/2015	08:01:36.525	$GPGGA,080137,2540.2805,N,07959.1309,W,1,9,1.5,15,M,,M,,*51
06/26/2015	08:01:37.515	$GPGGA,080138,2540.2798,N,07959.1315,W,1,9,1.5,16,M,,M,,*5B
06/26/2015	08:01:38.634	$GPGGA,080139,2540.2792,N,07959.1322,W,1,9,1.5,16,M,,M,,*54
06/26/2015	08:01:39.534	$GPGGA,080140,2540.2786,N,07959.1329,W,1,9,1.5,16,M,,M,,*54
06/26/2015	08:01:40.835	$GPGGA,080141,2540.2780,N,07959.1335,W,1,9,1.5,16,M,,M,,*5E
06/26/2015	08:01:41.514	$GPGGA,080142,2540.2773,N,07959.1342,W,1,9,1.5,16,M,,M,,*51
06/26/2015	08:01:42.504	$GPGGA,080143,2540.2766,N,07959.1351,W,1,9,1.5,16,M,,M,,*56
06/26/2015	08:01:43.534	$GPGGA,080144,2540.2759,N,07959.1356,W,1,9,1.5,16,M,,M,,*5A
06/26/2015	08:01:44.494	$GPGGA,080145,2540.2753,N,07959.1363,W,1,9,1.5,16,M,,M,,*57
06/26/2015	08:01:45.504	$GPGGA,080146,2540.2747,N,07959.1371,W,1,9,1.5,16,M,,M,,*52
06/26/2015	08:01:46.505	$GPGGA,080147,2540.2741,N,07959.1378,W,1,9,1.5,16,M,,M,,*5C
06/26/2015	08:01:47.525	$GPGGA,080148,2540.2734,N,07959.1384,W,1,9,1.5,16,M,,M,,*52
06/26/2015	08:01:48.495	$GPGGA,080149,2540.2728,N,07959.1391,W,1,9,1.5,16,M,,M,,*5A
06/26/2015	08:01:49.505	$GPGGA,080150,2540.2722,N,07959.1398,W,1,9,1.5,16,M,,M,,*51
06/26/2015	08:01:50.486	$GPGGA,080151,2540.2715,N,07959.1405,W,1,9,1.5,16,M,,M,,*57
06/26/2015	08:01:51.595	$GPGGA,080152,2540.2709,N,07959.1412,W,1,9,1.5,16,M,,M,,*5F
06/26/2015	08:01:52.495	$GPGGA,080153,2540.2704,N,07959.1418,W,1,9,1.5,16,M,,M,,*59
06/26/2015	08:01:53.615	$GPGGA,080154,2540.2697,N,07959.1425,W,1,9,1.5,16,M,,M,,*5B
06/26/2015	08:01:54.595	$GPGGA,080155,2540.2690,N,07959.1431,W,1,9,1.5,16,M,,M,,*58
06/26/2015	08:01:55.594	$GPGGA,080156,2540.2684,N,07959.1438,W,1,9,1.5,16,M,,M,,*57
06/26/2015	08:01:56.585	$GPGGA,080157,2540.2679,N,07959.1445,W,1,9,1.5,15,M,,M,,*5D
06/26/2015	08:01:57.584	$GPGGA,080158,2540.2672,N,07959.1452,W,1,9,1.5,15,M,,M,,*5F
06/26/2015	08:01:59.934	$GPGGA,080200,2540.2658,N,07959.1464,W,1,9,1.5,15,M,,M,,*5C
06/26/2015	08:02:00.574	$GPGGA,080201,2540.2651,N,07959.1470,W,1,9,1.5,15,M,,M,,*51
06/26/2015	08:02:01.584	$GPGGA,080202,2540.2644,N,07959.1477,W,1,9,1.5,15,M,,M,,*51
06/26/2015	08:02:02.575	$GPGGA,080203,2540.2637,N,07959.1483,W,1,9,1.5,15,M,,M,,*5F
06/26/2015	08:02:03.595	$GPGGA,080204,2540.2632,N,07959.1489,W,1,9,1.5,15,M,,M,,*57
06/26/2015	08:02:04.555	$GPGGA,080205,2540.2625,N,07959.1495,W,1,9,1.5,15,M,,M,,*5D
06/26/2015	08:02:05.575	$GPGGA,080206,2540.2617,N,07959.1501,W,1,9,1.5,15,M,,M,,*53
06/26/2015	08:02:06.565	$GPGGA,080207,2540.2611,N,07959.1508,W,1,9,1.5,15,M,,M,,*5D
06/26/2015	08:02:07.585	$GPGGA,080208,2540.2604,N,07959.1514,W,1,9,1.5,15,M,,M,,*5B
06/26/2015	08:02:08.555	$GPGGA,080209,2540.2597,N,07959.1519,W,1,9,1.5,15,M,,M,,*5E
06/26/2015	08:02:09.576	$GPGGA,080210,2540.2592,N,07959.1526,W,1,9,1.5,15,M,,M,,*5F
06/26/2015	08:02:10.555	$GPGGA,080211,2540.2585,N,07959.1532,W,1,9,1.5,15,M,,M,,*5D
06/26/2015	08:02:11.565	$GPGGA,080212,2540.2576,N,07959.1536,W,1,9,1.5,15,M,,M,,*56
06/26/2015	08:02:12.555	$GPGGA,080213,2540.2570,N,07959.1543,W,1,9,1.5,15,M,,M,,*53
06/26/2015	08:02:13.554	$GPGGA,080214,2540.2563,N,07959.1550,W,1,8,2.2,15,M,,M,,*51
06/26/2015	08:02:14.554	$GPGGA,080215,2540.2556,N,07959.1554,W,1,8,1.5,15,M,,M,,*56
06/26/2015	08:02:15.544	$GPGGA,080216,2540.2550,N,07959.1561,W,1,8,2.2,15,M,,M,,*51
06/26/2015	08:02:16.544	$GPGGA,080217,2540.2543,N,07959.1566,W,1,8,2.2,15,M,,M,,*55
06/26/2015	08:02:17.524	$GPGGA,080218,2540.2538,N,07959.1572,W,1,9,1.5,15,M,,M,,*56
06/26/2015	08:02:18.544	$GPGGA,080219,2540.2531,N,07959.1576,W,1,9,1.5,15,M,,M,,*5A
06/26/2015	08:02:19.588	$GPGGA,080220,2540.2523,N,07959.1582,W,1,9,1.5,15,M,,M,,*58
06/26/2015	08:02:20.534	$GPGGA,080221,2540.2516,N,07959.1589,W,1,9,2.2,15,M,,M,,*50
06/26/2015	08:02:21.535	$GPGGA,080222,2540.2509,N,07959.1593,W,1,8,2.2,15,M,,M,,*57
06/26/2015	08:02:22.515	$GPGGA,080223,2540.2502,N,07959.1597,W,1,8,1.5,15,M,,M,,*5D
06/26/2015	08:02:23.555	$GPGGA,080224,2540.2496,N,07959.1602,W,1,8,2.2,15,M,,M,,*5D
06/26/2015	08:02:24.515	$GPGGA,080225,2540.2489,N,07959.1608,W,1,8,1.8,15,M,,M,,*51
06/26/2015	08:02:25.625	$GPGGA,080226,2540.2484,N,07959.1612,W,1,9,1.8,15,M,,M,,*55
06/26/2015	08:02:26.605	$GPGGA,080227,2540.2477,N,07959.1618,W,1,9,1.8,15,M,,M,,*52
06/26/2015	08:02:27.525	$GPGGA,080228,2540.2469,N,07959.1623,W,1,9,1.8,15,M,,M,,*5A
06/26/2015	08:02:28.625	$GPGGA,080229,2540.2462,N,07959.1629,W,1,9,1.8,15,M,,M,,*5A
06/26/2015	08:02:29.505	$GPGGA,080230,2540.2456,N,07959.1633,W,1,10,1.4,15,M,,M,,*6A
06/26/2015	08:02:30.514	$GPGGA,080231,2540.2449,N,07959.1638,W,1,10,1.4,15,M,,M,,*6E
06/26/2015	08:02:31.524	$GPGGA,080232,2540.2444,N,07959.1644,W,1,9,1.8,15,M,,M,,*5F
06/26/2015	08:02:32.944	$GPGGA,080233,2540.2435,N,07959.1651,W,1,9,1.4,15,M,,M,,*50
06/26/2015	08:02:33.514	$GPGGA,080234,2540.2430,N,07959.1656,W,1,10,1.4,15,M,,M,,*6D
06/26/2015	08:02:34.504	$GPGGA,080235,2540.2422,N,07959.1662,W,1,10,1.4,15,M,,M,,*68
06/26/2015	08:02:35.504	$GPGGA,080236,2540.2415,N,07959.1666,W,1,10,1.4,15,M,,M,,*6B
06/26/2015	08:02:36.597	$GPGGA,080237,2540.2408,N,07959.1673,W,1,10,1.4,15,M,,M,,*62
06/26/2015	08:02:37.504	$GPGGA,080238,2540.2402,N,07959.1678,W,1,10,1.4,15,M,,M,,*6C
06/26/2015	08:02:38.587	$GPGGA,080239,2540.2395,N,07959.1684,W,1,10,1.4,15,M,,M,,*67
06/26/2015	08:02:39.681	$GPGGA,080240,2540.2388,N,07959.1688,W,1,10,1.4,15,M,,M,,*69
06/26/2015	08:02:40.591	$GPGGA,080241,2540.2383,N,07959.1695,W,1,10,1.4,15,M,,M,,*6F
06/26/2015	08:02:41.635	$GPGGA,080242,2540.2376,N,07959.1702,W,1,10,1.4,15,M,,M,,*69
06/26/2015	08:02:42.495	$GPGGA,080243,2540.2369,N,07959.1705,W,1,10,1.4,15,M,,M,,*61
06/26/2015	08:02:43.589	$GPGGA,080244,2540.2363,N,07959.1713,W,1,9,1.8,15,M,,M,,*5F
06/26/2015	08:02:44.578	$GPGGA,080245,2540.2357,N,07959.1720,W,1,9,1.4,15,M,,M,,*55
06/26/2015	08:02:45.595	$GPGGA,080246,2540.2351,N,07959.1725,W,1,10,1.4,15,M,,M,,*6D
06/26/2015	08:02:46.565	$GPGGA,080247,2540.2345,N,07959.1731,W,1,10,1.4,15,M,,M,,*6C
06/26/2015	08:02:47.605	$GPGGA,080248,2540.2339,N,07959.1738,W,1,10,1.4,15,M,,M,,*61
06/26/2015	08:02:48.575	$GPGGA,080249,2540.2333,N,07959.1745,W,1,10,1.4,15,M,,M,,*60
06/26/2015	08:02:49.604	$GPGGA,080250,2540.2326,N,07959.1752,W,1,10,1.4,15,M,,M,,*6A
06/26/2015	08:02:50.579	$GPGGA,080251,2540.2320,N,07959.1757,W,1,10,1.4,15,M,,M,,*68
06/26/2015	08:02:52.604	$GPGGA,080253,2540.2307,N,07959.1771,W,1,10,1.4,15,M,,M,,*6B
06/26/2015	08:02:53.574	$GPGGA,080254,2540.2299,N,07959.1779,W,1,9,1.5,15,M,,M,,*5B
06/26/2015	08:02:54.564	$GPGGA,080255,2540.2292,N,07959.1785,W,1,9,1.5,15,M,,M,,*52
06/26/2015	08:02:55.588	$GPGGA,080256,2540.2285,N,07959.1792,W,1,9,1.5,15,M,,M,,*51
06/26/2015	08:02:56.555	$GPGGA,080257,2540.2278,N,07959.1799,W,1,9,1.5,15,M,,M,,*59
06/26/2015	08:02:57.577	$GPGGA,080258,2540.2271,N,07959.1806,W,1,9,1.5,15,M,,M,,*56
06/26/2015	08:02:58.555	$GPGGA,080259,2540.2264,N,07959.1813,W,1,9,1.5,15,M,,M,,*57
06/26/2015	08:02:59.655	$GPGGA,080300,2540.2257,N,07959.1821,W,1,9,1.5,15,M,,M,,*5B
06/26/2015	08:03:00.555	$GPGGA,080301,2540.2250,N,07959.1826,W,1,9,1.5,15,M,,M,,*5A
06/26/2015	08:03:01.535	$GPGGA,080302,2540.2244,N,07959.1832,W,1,9,1.5,15,M,,M,,*59
06/26/2015	08:03:02.545	$GPGGA,080303,2540.2238,N,07959.1839,W,1,9,1.5,15,M,,M,,*58
06/26/2015	08:03:03.576	$GPGGA,080304,2540.2231,N,07959.1846,W,1,9,1.5,15,M,,M,,*5E
06/26/2015	08:03:04.545	$GPGGA,080305,2540.2224,N,07959.1853,W,1,9,1.5,15,M,,M,,*5F
06/26/2015	08:03:05.544	$GPGGA,080306,2540.2220,N,07959.1857,W,1,9,1.5,15,M,,M,,*5C
06/26/2015	08:03:06.524	$GPGGA,080307,2540.2214,N,07959.1864,W,1,9,1.4,15,M,,M,,*5B
06/26/2015	08:03:07.587	$GPGGA,080308,2540.2207,N,07959.1871,W,1,10,1.4,15,M,,M,,*6A
06/26/2015	08:03:08.534	$GPGGA,080309,2540.2202,N,07959.1875,W,1,10,1.4,15,M,,M,,*6A
06/26/2015	08:03:09.534	$GPGGA,080310,2540.2195,N,07959.1882,W,1,9,1.8,15,M,,M,,*53
06/26/2015	08:03:10.524	$GPGGA,080311,2540.2188,N,07959.1887,W,1,9,1.8,15,M,,M,,*5B
06/26/2015	08:03:11.564	$GPGGA,080312,2540.2181,N,07959.1893,W,1,10,1.4,15,M,,M,,*60
06/26/2015	08:03:12.534	$GPGGA,080313,2540.2175,N,07959.1898,W,1,10,1.4,15,M,,M,,*61
06/26/2015	08:03:13.515	$GPGGA,080314,2540.2169,N,07959.1904,W,1,9,1.8,15,M,,M,,*5B
06/26/2015	08:03:14.545	$GPGGA,080315,2540.2162,N,07959.1909,W,1,9,1.8,15,M,,M,,*5C
06/26/2015	08:03:15.576	$GPGGA,080316,2540.2155,N,07959.1915,W,1,10,1.4,15,M,,M,,*62
06/26/2015	08:03:16.635	$GPGGA,080317,2540.2148,N,07959.1920,W,1,10,1.8,15,M,,M,,*65
06/26/2015	08:03:17.635	$GPGGA,080318,2540.2141,N,07959.1926,W,1,9,1.8,15,M,,M,,*5D
06/26/2015	08:03:18.505	$GPGGA,080319,2540.2135,N,07959.1931,W,1,9,1.8,15,M,,M,,*59
06/26/2015	08:03:19.535	$GPGGA,080320,2540.2128,N,07959.1936,W,1,10,1.4,16,M,,M,,*6F
06/26/2015	08:03:20.515	$GPGGA,080321,2540.2122,N,07959.1940,W,1,10,1.8,16,M,,M,,*69
06/26/2015	08:03:21.605	$GPGGA,080322,2540.2115,N,07959.1947,W,1,9,1.8,16,M,,M,,*51
06/26/2015	08:03:22.605	$GPGGA,080323,2540.2108,N,07959.1949,W,1,9,1.4,16,M,,M,,*5E
06/26/2015	08:03:23.614	$GPGGA,080324,2540.2101,N,07959.1952,W,1,10,1.4,16,M,,M,,*62
06/26/2015	08:03:24.614	$GPGGA,080325,2540.2094,N,07959.1958,W,1,10,1.4,16,M,,M,,*64
06/26/2015	08:03:25.634	$GPGGA,080326,2540.2086,N,07959.1962,W,1,10,1.4,16,M,,M,,*6D
06/26/2015	08:03:26.614	$GPGGA,080327,2540.2079,N,07959.1965,W,1,10,1.4,16,M,,M,,*6B
06/26/2015	08:03:27.624	$GPGGA,080328,2540.2072,N,07959.1969,W,1,10,1.4,16,M,,M,,*63
06/26/2015	08:03:28.584	$GPGGA,080329,2540.2063,N,07959.1973,W,1,10,1.4,16,M,,M,,*69
06/26/2015	08:03:29.644	$GPGGA,080330,2540.2056,N,07959.1976,W,1,10,1.4,17,M,,M,,*63
06/26/2015	08:03:30.586	$GPGGA,080331,2540.2049,N,07959.1980,W,1,10,1.4,17,M,,M,,*65
06/26/2015	08:03:31.646	$GPGGA,080332,2540.2043,N,07959.1983,W,1,10,1.4,17,M,,M,,*6F
06/26/2015	08:03:32.586	$GPGGA,080333,2540.2034,N,07959.1988,W,1,10,1.4,17,M,,M,,*65
06/26/2015	08:03:33.595	$GPGGA,080334,2540.2027,N,07959.1991,W,1,10,1.4,17,M,,M,,*68
06/26/2015	08:03:34.605	$GPGGA,080335,2540.2020,N,07959.1995,W,1,10,1.4,17,M,,M,,*6A
06/26/2015	08:03:36.625	$GPGGA,080337,2540.2005,N,07959.2003,W,1,10,1.4,17,M,,M,,*6A
06/26/2015	08:03:37.595	$GPGGA,080338,2540.1997,N,07959.2009,W,1,10,1.4,17,M,,M,,*6E
06/26/2015	08:03:38.576	$GPGGA,080339,2540.1990,N,07959.2012,W,1,10,1.4,17,M,,M,,*62
06/26/2015	08:03:39.615	$GPGGA,080340,2540.1983,N,07959.2016,W,1,10,1.4,17,M,,M,,*6A
06/26/2015	08:03:40.564	$GPGGA,080341,2540.1975,N,07959.2020,W,1,10,1.4,18,M,,M,,*68
06/26/2015	08:03:41.585	$GPGGA,080342,2540.1967,N,07959.2023,W,1,10,1.4,18,M,,M,,*6B
06/26/2015	08:03:42.564	$GPGGA,080343,2540.1960,N,07959.2027,W,1,10,1.4,18,M,,M,,*69
06/26/2015	08:03:43.594	$GPGGA,080344,2540.1953,N,07959.2032,W,1,10,1.4,18,M,,M,,*6A
06/26/2015	08:03:44.574	$GPGGA,080345,2540.1945,N,07959.2035,W,1,10,1.4,18,M,,M,,*6B
06/26/2015	08:03:45.554	$GPGGA,080346,2540.1937,N,07959.2038,W,1,10,1.4,18,M,,M,,*60
06/26/2015	08:03:46.564	$GPGGA,080347,2540.1931,N,07959.2043,W,1,10,1.4,18,M,,M,,*6B
06/26/2015	08:03:47.594	$GPGGA,080348,2540.1922,N,07959.2045,W,1,10,1.4,18,M,,M,,*60
06/26/2015	08:03:48.555	$GPGGA,080349,2540.1915,N,07959.2049,W,1,10,1.4,18,M,,M,,*69
06/26/2015	08:03:49.555	$GPGGA,080350,2540.1907,N,07959.2055,W,1,10,1.4,18,M,,M,,*6F
06/26/2015	08:03:50.545	$GPGGA,080351,2540.1900,N,07959.2057,W,1,10,1.4,18,M,,M,,*6B
06/26/2015	08:03:51.615	$GPGGA,080352,2540.1892,N,07959.2060,W,1,10,1.4,18,M,,M,,*66
06/26/2015	08:03:52.535	$GPGGA,080353,2540.1885,N,07959.2066,W,1,10,1.4,18,M,,M,,*67
06/26/2015	08:03:53.535	$GPGGA,080354,2540.1878,N,07959.2070,W,1,10,1.4,18,M,,M,,*65
06/26/2015	08:03:54.555	$GPGGA,080355,2540.1871,N,07959.2074,W,1,10,1.4,18,M,,M,,*69
06/26/2015	08:03:55.585	$GPGGA,080356,2540.1864,N,07959.2077,W,1,10,1.4,18,M,,M,,*6D
06/26/2015	08:03:56.535	$GPGGA,080357,2540.1856,N,07959.2081,W,1,10,1.5,18,M,,M,,*65
06/26/2015	08:03:57.555	$GPGGA,080358,2540.1850,N,07959.2085,W,1,9,1.4,18,M,,M,,*51
06/26/2015	08:03:58.544	$GPGGA,080359,2540.1844,N,07959.2088,W,1,9,1.4,18,M,,M,,*58
06/26/2015	08:03:59.664	$GPGGA,080400,2540.1837,N,07959.2092,W,1,10,1.4,18,M,,M,,*64
06/26/2015	08:04:00.554	$GPGGA,080401,2540.1831,N,07959.2095,W,1,10,1.4,18,M,,M,,*64
06/26/2015	08:04:01.544	$GPGGA,080402,2540.1825,N,07959.2099,W,1,10,1.4,18,M,,M,,*6E
06/26/2015	08:04:02.534	$GPGGA,080403,2540.1819,N,07959.2104,W,1,10,1.4,18,M,,M,,*65
06/26/2015	08:04:03.575	$GPGGA,080404,2540.1810,N,07959.2107,W,1,10,1.8,18,M,,M,,*64
06/26/2015	08:04:04.644	$GPGGA,080405,2540.1802,N,07959.2113,W,1,10,1.8,18,M,,M,,*63
06/26/2015	08:04:05.555	$GPGGA,080406,2540.1795,N,07959.2117,W,1,9,1.8,18,M,,M,,*5D
06/26/2015	08:04:06.535	$GPGGA,080407,2540.1788,N,07959.2122,W,1,9,1.8,18,M,,M,,*56
06/26/2015	08:04:07.585	$GPGGA,080408,2540.1781,N,07959.2126,W,1,9,1.8,18,M,,M,,*54
06/26/2015	08:04:08.515	$GPGGA,080409,2540.1774,N,07959.2132,W,1,9,1.8,18,M,,M,,*5A
06/26/2015	08:04:09.515	$GPGGA,080410,2540.1767,N,07959.2137,W,1,9,1.4,18,M,,M,,*59
06/26/2015	08:04:10.595	$GPGGA,080411,2540.1760,N,07959.2142,W,1,9,1.4,18,M,,M,,*5D
06/26/2015	08:04:11.565	$GPGGA,080412,2540.1754,N,07959.2146,W,1,8,1.8,18,M,,M,,*50
06/26/2015	08:04:13.635	$GPGGA,080414,2540.1742,N,07959.2160,W,1,10,1.4,18,M,,M,,*60
06/26/2015	08:04:14.625	$GPGGA,080415,2540.1736,N,07959.2165,W,1,10,1.8,18,M,,M,,*6B
06/26/2015	08:04:15.624	$GPGGA,080416,2540.1729,N,07959.2171,W,1,9,1.8,18,M,,M,,*5B
06/26/2015	08:04:16.584	$GPGGA,080417,2540.1722,N,07959.2178,W,1,9,1.4,18,M,,M,,*54
06/26/2015	08:04:17.604	$GPGGA,080418,2540.1715,N,07959.2182,W,1,10,1.4,18,M,,M,,*62
06/26/2015	08:04:18.594	$GPGGA,080419,2540.1709,N,07959.2187,W,1,10,1.8,18,M,,M,,*67
06/26/2015	08:04:19.644	$GPGGA,080420,2540.1701,N,07959.2193,W,1,9,1.8,18,M,,M,,*58
06/26/2015	08:04:20.584	$GPGGA,080421,2540.1694,N,07959.2198,W,1,9,1.8,18,M,,M,,*5F
06/26/2015	08:04:21.576	$GPGGA,080422,2540.1689,N,07959.2204,W,1,9,1.8,18,M,,M,,*56
06/26/2015	08:04:22.580	$GPGGA,080423,2540.1682,N,07959.2211,W,1,9,1.8,18,M,,M,,*58
06/26/2015	08:04:23.615	$GPGGA,080424,2540.1673,N,07959.2216,W,1,10,1.4,18,M,,M,,*62
06/26/2015	08:04:24.585	$GPGGA,080425,2540.1666,N,07959.2222,W,1,10,1.4,18,M,,M,,*60
06/26/2015	08:04:25.595	$GPGGA,080426,2540.1660,N,07959.2229,W,1,10,1.4,19,M,,M,,*6F
06/26/2015	08:04:26.575	$GPGGA,080427,2540.1653,N,07959.2233,W,1,10,1.8,19,M,,M,,*69
06/26/2015	08:04:27.625	$GPGGA,080428,2540.1646,N,07959.2240,W,1,10,1.4,19,M,,M,,*6A
06/26/2015	08:04:28.581	$GPGGA,080429,2540.1638,N,07959.2244,W,1,10,1.8,19,M,,M,,*6A
06/26/2015	08:04:29.605	$GPGGA,080430,2540.1632,N,07959.2251,W,1,10,1.4,19,M,,M,,*60
06/26/2015	08:04:30.565	$GPGGA,080431,2540.1624,N,07959.2258,W,1,10,1.4,19,M,,M,,*6F
06/26/2015	08:04:31.584	$GPGGA,080432,2540.1617,N,07959.2262,W,1,10,1.4,19,M,,M,,*65
06/26/2015	08:04:32.565	$GPGGA,080433,2540.1610,N,07959.2269,W,1,10,1.8,19,M,,M,,*64
06/26/2015	08:04:33.574	$GPGGA,080434,2540.1601,N,07959.2273,W,1,9,1.8,19,M,,M,,*50
06/26/2015	08:04:34.564	$GPGGA,080435,2540.1595,N,07959.2276,W,1,9,1.4,19,M,,M,,*56
06/26/2015	08:04:35.584	$GPGGA,080436,2540.1586,N,07959.2281,W,1,10,1.4,19,M,,M,,*67
06/26/2015	08:04:36.554	$GPGGA,080437,2540.1579,N,07959.2287,W,1,10,1.8,19,M,,M,,*6C
06/26/2015	08:04:37.564	$GPGGA,080438,2540.1572,N,07959.2294,W,1,9,1.8,19,M,,M,,*52
06/26/2015	08:04:38.544	$GPGGA,080439,2540.1564,N,07959.2298,W,1,9,1.8,19,M,,M,,*58
06/26/2015	08:04:39.604	$GPGGA,080440,2540.1557,N,07959.2302,W,1,9,1.8,19,M,,M,,*54
06/26/2015	08:04:40.535	$GPGGA,080441,2540.1550,N,07959.2309,W,1,9,1.8,19,M,,M,,*59
06/26/2015	08:04:41.575	$GPGGA,080442,2540.1543,N,07959.2314,W,1,9,1.8,19,M,,M,,*54
06/26/2015	08:04:42.545	$GPGGA,080443,2540.1535,N,07959.2319,W,1,9,1.8,19,M,,M,,*59
06/26/2015	08:04:43.545	$GPGGA,080444,2540.1527,N,07959.2323,W,1,9,1.8,19,M,,M,,*54
06/26/2015	08:04:44.625	$GPGGA,080445,2540.1521,N,07959.2330,W,1,9,1.4,19,M,,M,,*5D
06/26/2015	08:04:45.565	$GPGGA,080446,2540.1513,N,07959.2334,W,1,10,1.4,19,M,,M,,*63
06/26/2015	08:04:46.545	$GPGGA,080447,2540.1506,N,07959.2338,W,1,10,1.8,19,M,,M,,*66
06/26/2015	08:04:47.655	$GPGGA,080448,2540.1498,N,07959.2342,W,1,9,1.8,19,M,,M,,*5A
06/26/2015	08:04:48.965	$GPGGA,080449,2540.1491,N,07959.2348,W,1,9,1.4,19,M,,M,,*54
06/26/2015	08:04:49.535	$GPGGA,080450,2540.1483,N,07959.2352,W,1,10,1.4,19,M,,M,,*6C
06/26/2015	08:04:50.534	$GPGGA,080451,2540.1476,N,07959.2355,W,1,10,1.4,19,M,,M,,*60
06/26/2015	08:04:51.574	$GPGGA,080452,2540.1469,N,07959.2360,W,1,9,1.5,19,M,,M,,*52
06/26/2015	08:04:52.514	$GPGGA,080453,2540.1461,N,07959.2364,W,1,9,1.5,19,M,,M,,*5F
06/26/2015	08:04:53.524	$GPGGA,080454,2540.1454,N,07959.2367,W,1,10,1.4,19,M,,M,,*64
06/26/2015	08:04:54.514	$GPGGA,080455,2540.1447,N,07959.2373,W,1,10,1.4,19,M,,M,,*62
06/26/2015	08:04:55.554	$GPGGA,080456,2540.1440,N,07959.2378,W,1,10,1.4,19,M,,M,,*6D
06/26/2015	08:04:56.524	$GPGGA,080457,2540.1432,N,07959.2381,W,1,10,1.4,19,M,,M,,*6F
06/26/2015	08:04:57.604	$GPGGA,080458,2540.1425,N,07959.2386,W,1,10,1.4,19,M,,M,,*61
06/26/2015	08:04:58.515	$GPGGA,080459,2540.1418,N,07959.2392,W,1,10,1.4,19,M,,M,,*6B
06/26/2015	08:04:59.655	$GPGGA,080500,2540.1411,N,07959.2395,W,1,10,1.4,19,M,,M,,*68
06/26/2015	08:05:00.605	$GPGGA,080501,2540.1402,N,07959.2399,W,1,10,1.4,19,M,,M,,*67
06/26/2015	08:05:01.635	$GPGGA,080502,2540.1395,N,07959.2406,W,1,10,1.4,19,M,,M,,*6C
06/26/2015	08:05:02.595	$GPGGA,080503,2540.1389,N,07959.2410,W,1,10,1.4,19,M,,M,,*67
06/26/2015	08:05:03.635	$GPGGA,080504,2540.1380,N,07959.2413,W,1,10,1.4,19,M,,M,,*6A
06/26/2015	08:05:04.605	$GPGGA,080505,2540.1372,N,07959.2417,W,1,10,1.4,19,M,,M,,*62
06/26/2015	08:05:05.615	$GPGGA,080506,2540.1365,N,07959.2424,W,1,10,1.4,19,M,,M,,*67
06/26/2015	08:05:06.493	$GPGGA,080507,2540.1357,N,07959.2426,W,1,10,1.4,19,M,,M,,*65
06/26/2015	08:05:07.595	$GPGGA,080508,2540.1349,N,07959.2431,W,1,10,1.4,19,M,,M,,*63
06/26/2015	08:05:08.587	$GPGGA,080509,2540.1342,N,07959.2436,W,1,10,1.4,19,M,,M,,*6E
06/26/2015	08:05:09.604	$GPGGA,080510,2540.1335,N,07959.2440,W,1,10,1.4,19,M,,M,,*67
06/26/2015	08:05:10.592	$GPGGA,080511,2540.1326,N,07959.2444,W,1,10,1.4,19,M,,M,,*60
06/26/2015	08:05:11.624	$GPGGA,080512,2540.1319,N,07959.2450,W,1,10,1.4,19,M,,M,,*6A
06/26/2015	08:05:12.588	$GPGGA,080513,2540.1311,N,07959.2454,W,1,10,1.4,19,M,,M,,*67
06/26/2015	08:05:13.604	$GPGGA,080514,2540.1303,N,07959.2458,W,1,10,1.4,19,M,,M,,*6F
06/26/2015	08:05:14.576	$GPGGA,080515,2540.1297,N,07959.2462,W,1,10,1.4,19,M,,M,,*6B
06/26/2015	08:05:15.591	$GPGGA,080516,2540.1289,N,07959.2467,W,1,10,1.4,19,M,,M,,*62
06/26/2015	08:05:16.579	$GPGGA,080517,2540.1282,N,07959.2471,W,1,10,1.4,19,M,,M,,*6F
06/26/2015	08:05:18.605	$GPGGA,080519,2540.1268,N,07959.2480,W,1,10,1.4,18,M,,M,,*6A
06/26/2015	08:05:19.605	$GPGGA,080520,2540.1260,N,07959.2486,W,1,10,1.4,18,M,,M,,*6E
06/26/2015	08:05:20.555	$GPGGA,080521,2540.1253,N,07959.2489,W,1,10,1.4,18,M,,M,,*60
06/26/2015	08:05:21.594	$GPGGA,080522,2540.1246,N,07959.2493,W,1,10,1.4,18,M,,M,,*6C
06/26/2015	08:05:22.555	$GPGGA,080523,2540.1239,N,07959.2498,W,1,10,1.4,18,M,,M,,*6E
06/26/2015	08:05:23.591	$GPGGA,080524,2540.1232,N,07959.2503,W,1,10,1.4,18,M,,M,,*61
06/26/2015	08:05:24.565	$GPGGA,080525,2540.1225,N,07959.2507,W,1,10,1.4,18,M,,M,,*62
06/26/2015	08:05:25.554	$GPGGA,080526,2540.1218,N,07959.2511,W,1,9,1.8,18,M,,M,,*5C
06/26/2015	08:05:26.554	$GPGGA,080527,2540.1212,N,07959.2516,W,1,9,1.8,18,M,,M,,*50
06/26/2015	08:05:27.579	$GPGGA,080528,2540.1203,N,07959.2520,W,1,9,1.8,18,M,,M,,*5A
06/26/2015	08:05:28.544	$GPGGA,080529,2540.1196,N,07959.2525,W,1,9,1.8,18,M,,M,,*51
06/26/2015	08:05:29.554	$GPGGA,080530,2540.1190,N,07959.2529,W,1,9,1.8,18,M,,M,,*53
06/26/2015	08:05:30.544	$GPGGA,080531,2540.1182,N,07959.2533,W,1,9,1.8,18,M,,M,,*5A
06/26/2015	08:05:31.544	$GPGGA,080532,2540.1176,N,07959.2540,W,1,9,1.8,18,M,,M,,*56
06/26/2015	08:05:32.624	$GPGGA,080533,2540.1167,N,07959.2543,W,1,9,1.8,18,M,,M,,*54
06/26/2015	08:05:33.545	$GPGGA,080534,2540.1160,N,07959.2547,W,1,10,1.4,18,M,,M,,*64
06/26/2015	08:05:34.545	$GPGGA,080535,2540.1152,N,07959.2554,W,1,10,1.8,18,M,,M,,*6A
06/26/2015	08:05:35.545	$GPGGA,080536,2540.1145,N,07959.2561,W,1,8,1.8,18,M,,M,,*50
06/26/2015	08:05:36.515	$GPGGA,080537,2540.1138,N,07959.2565,W,1,8,1.4,18,M,,M,,*53
06/26/2015	08:05:37.525	$GPGGA,080538,2540.1131,N,07959.2569,W,1,10,1.4,18,M,,M,,*60
06/26/2015	08:05:38.615	$GPGGA,080539,2540.1125,N,07959.2576,W,1,10,1.8,18,M,,M,,*66
06/26/2015	08:05:39.589	$GPGGA,080540,2540.1118,N,07959.2580,W,1,10,1.4,18,M,,M,,*63
06/26/2015	08:05:40.615	$GPGGA,080541,2540.1111,N,07959.2585,W,1,10,1.4,17,M,,M,,*61
06/26/2015	08:05:41.525	$GPGGA,080542,2540.1104,N,07959.2590,W,1,10,1.4,17,M,,M,,*62
06/26/2015	08:05:42.525	$GPGGA,080543,2540.1097,N,07959.2595,W,1,10,1.4,17,M,,M,,*6D
06/26/2015	08:05:43.644	$GPGGA,080544,2540.1090,N,07959.2601,W,1,10,1.4,17,M,,M,,*63
06/26/2015	08:05:44.534	$GPGGA,080545,2540.1083,N,07959.2606,W,1,10,1.4,17,M,,M,,*67
06/26/2015	08:05:45.624	$GPGGA,080546,2540.1076,N,07959.2612,W,1,10,1.4,17,M,,M,,*6B
06/26/2015	08:05:46.524	$GPGGA,080547,2540.1068,N,07959.2616,W,1,10,1.4,17,M,,M,,*61
06/26/2015	08:05:47.624	$GPGGA,080548,2540.1061,N,07959.2623,W,1,10,1.4,17,M,,M,,*61
06/26/2015	08:05:48.524	$GPGGA,080549,2540.1054,N,07959.2627,W,1,10,1.4,17,M,,M,,*62
06/26/2015	08:05:49.614	$GPGGA,080550,2540.1047,N,07959.2633,W,1,10,1.4,17,M,,M,,*6D
06/26/2015	08:05:50.605	$GPGGA,080551,2540.1040,N,07959.2637,W,1,10,1.4,17,M,,M,,*6F
06/26/2015	08:05:51.625	$GPGGA,080552,2540.1033,N,07959.2644,W,1,10,1.4,18,M,,M,,*63
06/26/2015	08:05:52.595	$GPGGA,080553,2540.1026,N,07959.2649,W,1,10,1.4,18,M,,M,,*6B
06/26/2015	08:05:53.625	$GPGGA,080554,2540.1018,N,07959.2653,W,1,10,1.4,18,M,,M,,*6A
06/26/2015	08:05:54.595	$GPGGA,080555,2540.1011,N,07959.2659,W,1,10,1.4,18,M,,M,,*68
06/26/2015	08:05:55.605	$GPGGA,080556,2540.1004,N,07959.2666,W,1,10,1.4,18,M,,M,,*63
06/26/2015	08:05:56.595	$GPGGA,080557,2540.0997,N,07959.2670,W,1,10,1.4,18,M,,M,,*67
06/26/2015	08:05:57.605	$GPGGA,080558,2540.0989,N,07959.2675,W,1,10,1.4,18,M,,M,,*62
06/26/2015	08:05:58.585	$GPGGA,080559,2540.0981,N,07959.2680,W,1,10,1.8,18,M,,M,,*6D
06/26/2015	08:05:59.625	$GPGGA,080600,2540.0974,N,07959.2684,W,1,10,1.4,18,M,,M,,*60
06/26/2015	08:06:00.586	$GPGGA,080601,2540.0967,N,07959.2689,W,1,10,1.4,18,M,,M,,*6E
06/26/2015	08:06:01.564	$GPGGA,080602,2540.0960,N,07959.2695,W,1,10,1.4,18,M,,M,,*67
06/26/2015	08:06:02.577	$GPGGA,080603,2540.0952,N,07959.2700,W,1,10,1.4,18,M,,M,,*6A
06/26/2015	08:06:03.614	$GPGGA,080604,2540.0945,N,07959.2706,W,1,9,1.8,18,M,,M,,*59
06/26/2015	08:06:04.578	$GPGGA,080605,2540.0938,N,07959.2710,W,1,9,1.4,18,M,,M,,*59
06/26/2015	08:06:05.564	$GPGGA,080606,2540.0930,N,07959.2714,W,1,10,1.4,18,M,,M,,*6E
06/26/2015	08:06:06.564	$GPGGA,080607,2540.0923,N,07959.2720,W,1,10,1.8,18,M,,M,,*66
06/26/2015	08:06:07.594	$GPGGA,080608,2540.0917,N,07959.2728,W,1,10,1.4,18,M,,M,,*6A
06/26/2015	08:06:08.565	$GPGGA,080609,2540.0910,N,07959.2732,W,1,10,1.4,18,M,,M,,*67
06/26/2015	08:06:09.589	$GPGGA,080610,2540.0903,N,07959.2738,W,1,9,1.8,18,M,,M,,*53
06/26/2015	08:06:10.565	$GPGGA,080611,2540.0896,N,07959.2746,W,1,9,1.8,18,M,,M,,*56
06/26/2015	08:06:11.575	$GPGGA,080612,2540.0888,N,07959.2749,W,1,10,1.4,18,M,,M,,*61
06/26/2015	08:06:12.565	$GPGGA,080613,2540.0881,N,07959.2756,W,1,10,1.4,18,M,,M,,*67
06/26/2015	08:06:13.576	$GPGGA,080614,2540.0874,N,07959.2761,W,1,10,1.4,18,M,,M,,*6E
06/26/2015	08:06:14.565	$GPGGA,080615,2540.0867,N,07959.2765,W,1,10,1.4,18,M,,M,,*69
06/26/2015	08:06:15.586	$GPGGA,080616,2540.0859,N,07959.2769,W,1,10,1.4,18,M,,M,,*6B
06/26/2015	08:06:16.565	$GPGGA,080617,2540.0852,N,07959.2775,W,1,10,1.4,18,M,,M,,*6C
06/26/2015	08:06:17.694	$GPGGA,080618,2540.0845,N,07959.2779,W,1,10,1.4,18,M,,M,,*69
06/26/2015	08:06:18.534	$GPGGA,080619,2540.0838,N,07959.2785,W,1,10,1.4,18,M,,M,,*61
06/26/2015	08:06:19.604	$GPGGA,080620,2540.0831,N,07959.2789,W,1,10,1.4,18,M,,M,,*6E
06/26/2015	08:06:20.544	$GPGGA,080621,2540.0823,N,07959.2794,W,1,10,1.4,18,M,,M,,*60
06/26/2015	08:06:21.534	$GPGGA,080622,2540.0815,N,07959.2798,W,1,10,1.4,18,M,,M,,*6A
06/26/2015	08:06:22.534	$GPGGA,080623,2540.0809,N,07959.2803,W,1,10,1.5,18,M,,M,,*6A
06/26/2015	08:06:23.564	$GPGGA,080624,2540.0801,N,07959.2807,W,1,10,1.4,18,M,,M,,*60
06/26/2015	08:06:24.544	$GPGGA,080625,2540.0794,N,07959.2811,W,1,10,1.4,18,M,,M,,*65
06/26/2015	08:06:26.666	$GPGGA,080627,2540.0779,N,07959.2821,W,1,10,1.4,18,M,,M,,*67
06/26/2015	08:06:27.705	$GPGGA,080628,2540.0773,N,07959.2825,W,1,10,1.4,18,M,,M,,*66
06/26/2015	08:06:29.588	$GPGGA,080630,2540.0758,N,07959.2832,W,1,10,1.4,18,M,,M,,*60
06/26/2015	08:06:30.515	$GPGGA,080631,2540.0751,N,07959.2836,W,1,10,1.4,18,M,,M,,*6C
06/26/2015	08:06:31.525	$GPGGA,080632,2540.0744,N,07959.2840,W,1,10,1.4,18,M,,M,,*6A
06/26/2015	08:06:32.605	$GPGGA,080633,2540.0737,N,07959.2843,W,1,10,1.4,18,M,,M,,*6C
06/26/2015	08:06:33.655	$GPGGA,080634,2540.0729,N,07959.2847,W,1,10,1.4,18,M,,M,,*60
06/26/2015	08:06:34.695	$GPGGA,080635,2540.0722,N,07959.2852,W,1,10,1.4,18,M,,M,,*6E
06/26/2015	08:06:35.684	$GPGGA,080636,2540.0714,N,07959.2855,W,1,10,1.4,18,M,,M,,*6F
06/26/2015	08:06:36.674	$GPGGA,080637,2540.0707,N,07959.2859,W,1,10,1.4,18,M,,M,,*60
06/26/2015	08:06:37.624	$GPGGA,080638,2540.0700,N,07959.2865,W,1,10,1.4,18,M,,M,,*67
06/26/2015	08:06:38.594	$GPGGA,080639,2540.0692,N,07959.2869,W,1,10,1.4,18,M,,M,,*60
06/26/2015	08:06:39.694	$GPGGA,080640,2540.0685,N,07959.2872,W,1,10,1.4,18,M,,M,,*62
06/26/2015	08:06:40.665	$GPGGA,080641,2540.0677,N,07959.2876,W,1,10,1.4,18,M,,M,,*6A
06/26/2015	08:06:41.594	$GPGGA,080642,2540.0670,N,07959.2881,W,1,10,1.4,18,M,,M,,*66
06/26/2015	08:06:42.584	$GPGGA,080643,2540.0663,N,07959.2884,W,1,10,1.4,18,M,,M,,*60
06/26/2015	08:06:43.688	$GPGGA,080644,2540.0656,N,07959.2887,W,1,10,1.4,18,M,,M,,*62
06/26/2015	08:06:44.665	$GPGGA,080645,2540.0648,N,07959.2892,W,1,10,1.4,18,M,,M,,*68
06/26/2015	08:06:45.625	$GPGGA,080646,2540.0640,N,07959.2897,W,1,10,1.4,18,M,,M,,*66
06/26/2015	08:06:46.655	$GPGGA,080647,2540.0634,N,07959.2901,W,1,10,1.4,18,M,,M,,*6A
06/26/2015	08:06:47.655	$GPGGA,080648,2540.0627,N,07959.2905,W,1,10,1.4,18,M,,M,,*63
06/26/2015	08:06:48.665	$GPGGA,080649,2540.0620,N,07959.2909,W,1,10,1.4,18,M,,M,,*69
06/26/2015	08:06:49.645	$GPGGA,080650,2540.0612,N,07959.2913,W,1,10,1.4,18,M,,M,,*6B
06/26/2015	08:06:50.635	$GPGGA,080651,2540.0605,N,07959.2917,W,1,10,1.4,18,M,,M,,*68
06/26/2015	08:06:51.645	$GPGGA,080652,2540.0598,N,07959.2923,W,1,10,1.4,18,M,,M,,*6B
06/26/2015	08:06:52.654	$GPGGA,080653,2540.0591,N,07959.2927,W,1,10,1.4,18,M,,M,,*67
06/26/2015	08:06:53.654	$GPGGA,080654,2540.0582,N,07959.2931,W,1,10,1.8,18,M,,M,,*69
06/26/2015	08:06:54.564	$GPGGA,080655,2540.0575,N,07959.2937,W,1,10,1.8,18,M,,M,,*66
06/26/2015	08:06:55.624	$GPGGA,080656,2540.0569,N,07959.2944,W,1,9,1.8,18,M,,M,,*54
06/26/2015	08:06:56.624	$GPGGA,080657,2540.0562,N,07959.2948,W,1,9,1.4,18,M,,M,,*5E
06/26/2015	08:06:57.554	$GPGGA,080658,2540.0555,N,07959.2953,W,1,10,1.4,18,M,,M,,*67
06/26/2015	08:06:58.634	$GPGGA,080659,2540.0547,N,07959.2959,W,1,10,1.8,18,M,,M,,*63
06/26/2015	08:06:59.664	$GPGGA,080700,2540.0540,N,07959.2963,W,1,9,1.8,18,M,,M,,*58
06/26/2015	08:07:00.605	$GPGGA,080701,2540.0533,N,07959.2969,W,1,9,1.8,18,M,,M,,*57
06/26/2015	08:07:01.625	$GPGGA,080702,2540.0526,N,07959.2974,W,1,9,1.8,18,M,,M,,*5C
06/26/2015	08:07:02.545	$GPGGA,080703,2540.0519,N,07959.2980,W,1,9,1.8,18,M,,M,,*5A
06/26/2015	08:07:04.113	$GPGGA,080704,2540.0512,N,07959.2984,W,1,9,1.8,18,M,,M,,*52
06/26/2015	08:07:04.615	$GPGGA,080705,2540.0506,N,07959.2991,W,1,9,1.8,18,M,,M,,*52
06/26/2015	08:07:05.535	$GPGGA,080706,2540.0499,N,07959.2996,W,1,9,1.8,18,M,,M,,*51
06/26/2015	08:07:06.605	$GPGGA,080707,2540.0492,N,07959.3002,W,1,9,1.8,18,M,,M,,*5E
06/26/2015	08:07:07.595	$GPGGA,080708,2540.0486,N,07959.3009,W,1,9,1.8,18,M,,M,,*5F
06/26/2015	08:07:08.615	$GPGGA,080709,2540.0479,N,07959.3014,W,1,9,1.8,18,M,,M,,*52
06/26/2015	08:07:09.615	$GPGGA,080710,2540.0471,N,07959.3020,W,1,9,1.8,18,M,,M,,*55
06/26/2015	08:07:10.534	$GPGGA,080711,2540.0464,N,07959.3024,W,1,9,1.8,18,M,,M,,*54
06/26/2015	08:07:11.604	$GPGGA,080712,2540.0457,N,07959.3031,W,1,9,1.8,18,M,,M,,*53
06/26/2015	08:07:12.514	$GPGGA,080713,2540.0450,N,07959.3036,W,1,9,1.8,18,M,,M,,*52
06/26/2015	08:07:13.571	$GPGGA,080714,2540.0443,N,07959.3042,W,1,9,1.8,18,M,,M,,*54
06/26/2015	08:07:14.514	$GPGGA,080715,2540.0435,N,07959.3046,W,1,9,1.8,18,M,,M,,*50
06/26/2015	08:07:15.614	$GPGGA,080716,2540.0428,N,07959.3051,W,1,9,1.8,18,M,,M,,*59
06/26/2015	08:07:16.564	$GPGGA,080717,2540.0421,N,07959.3057,W,1,9,1.8,18,M,,M,,*57
06/26/2015	08:07:17.634	$GPGGA,080718,2540.0414,N,07959.3061,W,1,9,1.8,18,M,,M,,*5B
06/26/2015	08:07:18.554	$GPGGA,080719,2540.0406,N,07959.3067,W,1,9,1.8,18,M,,M,,*5F
06/26/2015	08:07:19.578	$GPGGA,080720,2540.0399,N,07959.3072,W,1,9,1.8,17,M,,M,,*5F
06/26/2015	08:07:20.504	$GPGGA,080721,2540.0392,N,07959.3078,W,1,9,1.8,17,M,,M,,*5F
06/26/2015	08:07:21.544	$GPGGA,080722,2540.0385,N,07959.3082,W,1,9,1.8,17,M,,M,,*5F
06/26/2015	08:07:22.494	$GPGGA,080723,2540.0378,N,07959.3089,W,1,9,1.8,17,M,,M,,*57
06/26/2015	08:07:23.514	$GPGGA,080724,2540.0370,N,07959.3093,W,1,9,1.8,17,M,,M,,*53
06/26/2015	08:07:24.577	$GPGGA,080725,2540.0363,N,07959.3098,W,1,9,1.8,17,M,,M,,*5B
06/26/2015	08:07:25.634	$GPGGA,080726,2540.0356,N,07959.3103,W,1,9,1.8,17,M,,M,,*5D
06/26/2015	08:07:26.614	$GPGGA,080727,2540.0349,N,07959.3110,W,1,9,1.8,17,M,,M,,*50
06/26/2015	08:07:27.593	$GPGGA,080728,2540.0340,N,07959.3114,W,1,9,1.8,17,M,,M,,*52
06/26/2015	08:07:28.584	$GPGGA,080729,2540.0332,N,07959.3118,W,1,9,1.8,17,M,,M,,*5A
06/26/2015	08:07:29.594	$GPGGA,080730,2540.0325,N,07959.3125,W,1,9,1.8,17,M,,M,,*5A
06/26/2015	08:07:30.584	$GPGGA,080731,2540.0318,N,07959.3129,W,1,9,1.8,17,M,,M,,*59
06/26/2015	08:07:31.604	$GPGGA,080732,2540.0310,N,07959.3133,W,1,9,1.8,17,M,,M,,*59
06/26/2015	08:07:32.554	$GPGGA,080733,2540.0303,N,07959.3139,W,1,9,1.8,17,M,,M,,*50
06/26/2015	08:07:33.584	$GPGGA,080734,2540.0295,N,07959.3144,W,1,9,1.8,17,M,,M,,*53
06/26/2015	08:07:34.584	$GPGGA,080735,2540.0287,N,07959.3150,W,1,9,1.8,17,M,,M,,*54
06/26/2015	08:07:35.604	$GPGGA,080736,2540.0280,N,07959.3154,W,1,9,1.8,17,M,,M,,*54
06/26/2015	08:07:36.577	$GPGGA,080737,2540.0273,N,07959.3159,W,1,9,1.8,17,M,,M,,*54
06/26/2015	08:07:37.584	$GPGGA,080738,2540.0264,N,07959.3163,W,1,9,1.8,17,M,,M,,*54
06/26/2015	08:07:38.564	$GPGGA,080739,2540.0257,N,07959.3168,W,1,9,2.3,17,M,,M,,*56
06/26/2015	08:07:39.594	$GPGGA,080740,2540.0249,N,07959.3175,W,1,8,2.3,17,M,,M,,*5A
06/26/2015	08:07:40.581	$GPGGA,080741,2540.0242,N,07959.3177,W,1,8,1.8,17,M,,M,,*5A
06/26/2015	08:07:41.594	$GPGGA,080742,2540.0235,N,07959.3179,W,1,9,1.8,17,M,,M,,*56
06/26/2015	08:07:42.565	$GPGGA,080743,2540.0227,N,07959.3184,W,1,9,2.3,17,M,,M,,*5E
06/26/2015	08:07:43.614	$GPGGA,080744,2540.0220,N,07959.3190,W,1,8,1.8,17,M,,M,,*52
06/26/2015	08:07:44.604	$GPGGA,080745,2540.0212,N,07959.3191,W,1,8,1.8,17,M,,M,,*53
06/26/2015	08:07:45.566	$GPGGA,080746,2540.0205,N,07959.3194,W,1,9,1.8,17,M,,M,,*52
06/26/2015	08:07:46.554	$GPGGA,080747,2540.0197,N,07959.3201,W,1,9,2.3,17,M,,M,,*5C
06/26/2015	08:07:47.580	$GPGGA,080748,2540.0190,N,07959.3206,W,1,8,2.3,17,M,,M,,*52
06/26/2015	08:07:48.554	$GPGGA,080749,2540.0181,N,07959.3212,W,1,8,2.3,17,M,,M,,*56
06/26/2015	08:07:49.578	$GPGGA,080750,2540.0174,N,07959.3216,W,1,8,1.8,17,M,,M,,*58
06/26/2015	08:07:50.554	$GPGGA,080751,2540.0166,N,07959.3223,W,1,8,2.3,17,M,,M,,*54
06/26/2015	08:07:51.577	$GPGGA,080752,2540.0159,N,07959.3226,W,1,8,2.3,17,M,,M,,*5E
06/26/2015	08:07:52.570	$GPGGA,080753,2540.0151,N,07959.3233,W,1,8,2.3,17,M,,M,,*53
06/26/2015	08:07:53.544	$GPGGA,080754,2540.0143,N,07959.3235,W,1,8,2.3,17,M,,M,,*51
06/26/2015	08:07:54.566	$GPGGA,080755,2540.0135,N,07959.3241,W,1,8,1.8,17,M,,M,,*5A
06/26/2015	08:07:55.582	$GPGGA,080756,2540.0127,N,07959.3245,W,1,9,1.8,17,M,,M,,*5F
06/26/2015	08:07:56.554	$GPGGA,080757,2540.0121,N,07959.3248,W,1,9,1.8,17,M,,M,,*55
06/26/2015	08:07:57.554	$GPGGA,080758,2540.0114,N,07959.3251,W,1,9,1.8,17,M,,M,,*54
06/26/2015	08:07:58.534	$GPGGA,080759,2540.0114,N,07959.3251,W,1,9,1.8,17,M,,M,,*55
06/26/2015	08:07:59.584	$GPGGA,080800,2540.0099,N,07959.3258,W,1,9,1.8,17,M,,M,,*5B
06/26/2015	08:08:00.534	$GPGGA,080801,2540.0099,N,07959.3258,W,1,9,1.8,17,M,,M,,*5A
06/26/2015	08:08:01.554	$GPGGA,080802,2540.0085,N,07959.3266,W,1,9,2.3,17,M,,M,,*51
06/26/2015	08:08:02.533	$GPGGA,080803,2540.0085,N,07959.3266,W,1,9,2.3,17,M,,M,,*50
06/26/2015	08:08:03.578	$GPGGA,080804,2540.0070,N,07959.3271,W,1,9,1.8,17,M,,M,,*53
06/26/2015	08:08:04.554	$GPGGA,080805,2540.0070,N,07959.3271,W,1,9,1.8,17,M,,M,,*52
06/26/2015	08:08:05.524	$GPGGA,080806,2540.0056,N,07959.3274,W,1,9,1.8,17,M,,M,,*50
06/26/2015	08:08:06.554	$GPGGA,080807,2540.0056,N,07959.3274,W,1,9,1.8,17,M,,M,,*51
06/26/2015	08:08:07.534	$GPGGA,080808,2540.0042,N,07959.3278,W,1,9,1.8,17,M,,M,,*57
06/26/2015	08:08:08.514	$GPGGA,080809,2540.0042,N,07959.3278,W,1,9,1.8,17,M,,M,,*56
06/26/2015	08:08:09.634	$GPGGA,080810,2540.0027,N,07959.3284,W,1,9,1.8,17,M,,M,,*5E
06/26/2015	08:08:10.624	$GPGGA,080811,2540.0018,N,07959.3287,W,1,9,1.8,17,M,,M,,*50
06/26/2015	08:08:11.634	$GPGGA,080812,2540.0011,N,07959.3288,W,1,9,1.8,18,M,,M,,*5A
06/26/2015	08:08:12.534	$GPGGA,080813,2540.0011,N,07959.3288,W,1,9,1.8,18,M,,M,,*5B
06/26/2015	08:08:13.624	$GPGGA,080814,2539.9995,N,07959.3296,W,1,9,1.8,18,M,,M,,*51
06/26/2015	08:08:14.584	$GPGGA,080815,2539.9987,N,07959.3299,W,1,9,1.8,18,M,,M,,*5C
06/26/2015	08:08:15.514	$GPGGA,080816,2539.9980,N,07959.3302,W,1,9,1.8,18,M,,M,,*5B
06/26/2015	08:08:16.534	$GPGGA,080817,2539.9980,N,07959.3302,W,1,9,1.8,18,M,,M,,*5A
06/26/2015	08:08:17.594	$GPGGA,080818,2539.9963,N,07959.3311,W,1,9,1.8,19,M,,M,,*5B
06/26/2015	08:08:18.594	$GPGGA,080819,2539.9955,N,07959.3313,W,1,9,1.8,19,M,,M,,*5D
06/26/2015	08:08:19.634	$GPGGA,080820,2539.9948,N,07959.3318,W,1,9,1.8,19,M,,M,,*50
06/26/2015	08:08:20.573	$GPGGA,080821,2539.9940,N,07959.3322,W,1,9,1.8,19,M,,M,,*50
06/26/2015	08:08:21.574	$GPGGA,080822,2539.9932,N,07959.3324,W,1,9,1.8,19,M,,M,,*50
06/26/2015	08:08:22.578	$GPGGA,080823,2539.9926,N,07959.3327,W,1,9,1.8,19,M,,M,,*57
06/26/2015	08:08:23.604	$GPGGA,080824,2539.9917,N,07959.3332,W,1,9,1.8,19,M,,M,,*56
06/26/2015	08:08:24.564	$GPGGA,080825,2539.9909,N,07959.3334,W,1,9,1.8,19,M,,M,,*5E
06/26/2015	08:08:25.565	$GPGGA,080826,2539.9902,N,07959.3335,W,1,9,1.8,19,M,,M,,*57
06/26/2015	08:08:26.574	$GPGGA,080827,2539.9894,N,07959.3339,W,1,9,1.8,19,M,,M,,*54
06/26/2015	08:08:27.584	$GPGGA,080828,2539.9886,N,07959.3343,W,1,9,1.8,19,M,,M,,*55
06/26/2015	08:08:28.576	$GPGGA,080829,2539.9879,N,07959.3345,W,1,9,1.8,19,M,,M,,*52
06/26/2015	08:08:29.576	$GPGGA,080830,2539.9872,N,07959.3349,W,1,9,1.8,19,M,,M,,*5D
06/26/2015	08:08:30.565	$GPGGA,080831,2539.9863,N,07959.3353,W,1,9,1.8,19,M,,M,,*57
06/26/2015	08:08:31.594	$GPGGA,080832,2539.9856,N,07959.3356,W,1,9,1.8,19,M,,M,,*57
06/26/2015	08:08:32.815	$GPGGA,080833,2539.9848,N,07959.3357,W,1,9,1.8,19,M,,M,,*58
06/26/2015	08:08:33.574	$GPGGA,080834,2539.9841,N,07959.3361,W,1,9,1.8,19,M,,M,,*53
06/26/2015	08:08:34.554	$GPGGA,080835,2539.9833,N,07959.3363,W,1,9,1.8,19,M,,M,,*55
06/26/2015	08:08:35.594	$GPGGA,080836,2539.9826,N,07959.3367,W,1,9,1.8,19,M,,M,,*56
06/26/2015	08:08:36.554	$GPGGA,080837,2539.9819,N,07959.3371,W,1,9,1.8,20,M,,M,,*56
06/26/2015	08:08:37.564	$GPGGA,080838,2539.9811,N,07959.3374,W,1,9,1.8,20,M,,M,,*54
06/26/2015	08:08:38.544	$GPGGA,080839,2539.9804,N,07959.3375,W,1,9,1.8,20,M,,M,,*50
06/26/2015	08:08:39.584	$GPGGA,080840,2539.9796,N,07959.3381,W,1,9,1.8,20,M,,M,,*51
06/26/2015	08:08:40.544	$GPGGA,080841,2539.9789,N,07959.3383,W,1,9,1.8,20,M,,M,,*5C
06/26/2015	08:08:41.554	$GPGGA,080842,2539.9781,N,07959.3386,W,1,9,1.8,20,M,,M,,*52
06/26/2015	08:08:42.554	$GPGGA,080843,2539.9774,N,07959.3390,W,1,9,1.8,20,M,,M,,*5E
06/26/2015	08:08:43.565	$GPGGA,080844,2539.9767,N,07959.3396,W,1,9,1.8,20,M,,M,,*5D
06/26/2015	08:08:44.544	$GPGGA,080845,2539.9758,N,07959.3399,W,1,9,2.3,20,M,,M,,*57
06/26/2015	08:08:45.554	$GPGGA,080846,2539.9753,N,07959.3401,W,1,9,1.8,20,M,,M,,*51
06/26/2015	08:08:46.524	$GPGGA,080847,2539.9744,N,07959.3404,W,1,9,1.8,20,M,,M,,*53
06/26/2015	08:08:47.554	$GPGGA,080848,2539.9738,N,07959.3407,W,1,9,1.8,20,M,,M,,*54
06/26/2015	08:08:48.524	$GPGGA,080849,2539.9731,N,07959.3411,W,1,9,1.8,20,M,,M,,*5B
06/26/2015	08:08:49.524	$GPGGA,080850,2539.9722,N,07959.3415,W,1,9,1.8,20,M,,M,,*55
06/26/2015	08:08:50.534	$GPGGA,080851,2539.9715,N,07959.3419,W,1,9,1.8,20,M,,M,,*5C
06/26/2015	08:08:51.565	$GPGGA,080852,2539.9708,N,07959.3425,W,1,9,1.8,20,M,,M,,*5C
06/26/2015	08:08:52.514	$GPGGA,080853,2539.9700,N,07959.3428,W,1,9,1.8,20,M,,M,,*58
06/26/2015	08:08:53.524	$GPGGA,080854,2539.9692,N,07959.3433,W,1,9,1.8,19,M,,M,,*55
06/26/2015	08:08:54.524	$GPGGA,080855,2539.9685,N,07959.3437,W,1,9,1.8,19,M,,M,,*56
06/26/2015	08:08:55.533	$GPGGA,080856,2539.9677,N,07959.3441,W,1,9,1.8,19,M,,M,,*59
06/26/2015	08:08:56.514	$GPGGA,080857,2539.9670,N,07959.3446,W,1,9,1.8,19,M,,M,,*58
06/26/2015	08:08:57.625	$GPGGA,080858,2539.9663,N,07959.3450,W,1,9,1.8,19,M,,M,,*52
06/26/2015	08:08:58.514	$GPGGA,080859,2539.9655,N,07959.3454,W,1,9,1.8,19,M,,M,,*52
06/26/2015	08:08:59.664	$GPGGA,080900,2539.9648,N,07959.3458,W,1,9,1.8,19,M,,M,,*5F
06/26/2015	08:09:00.514	$GPGGA,080901,2539.9641,N,07959.3464,W,1,9,1.8,19,M,,M,,*58
06/26/2015	08:09:01.494	$GPGGA,080902,2539.9632,N,07959.3468,W,1,9,1.8,19,M,,M,,*53
06/26/2015	08:09:02.604	$GPGGA,080903,2539.9626,N,07959.3472,W,1,9,1.8,19,M,,M,,*5C
06/26/2015	08:09:03.514	$GPGGA,080904,2539.9617,N,07959.3476,W,1,9,1.8,19,M,,M,,*5D
06/26/2015	08:09:04.584	$GPGGA,080905,2539.9610,N,07959.3482,W,1,9,1.8,19,M,,M,,*50
06/26/2015	08:09:05.494	$GPGGA,080906,2539.9602,N,07959.3484,W,1,9,1.8,19,M,,M,,*56
06/26/2015	08:09:06.576	$GPGGA,080907,2539.9595,N,07959.3490,W,1,9,1.8,19,M,,M,,*5F
06/26/2015	08:09:07.604	$GPGGA,080908,2539.9587,N,07959.3494,W,1,9,1.8,19,M,,M,,*57
06/26/2015	08:09:08.584	$GPGGA,080909,2539.9580,N,07959.3497,W,1,9,1.8,19,M,,M,,*52
06/26/2015	08:09:09.604	$GPGGA,080910,2539.9573,N,07959.3502,W,1,9,1.8,19,M,,M,,*5B
06/26/2015	08:09:10.576	$GPGGA,080911,2539.9566,N,07959.3506,W,1,9,1.8,19,M,,M,,*5A
06/26/2015	08:09:11.624	$GPGGA,080912,2539.9559,N,07959.3512,W,1,9,1.8,19,M,,M,,*50
06/26/2015	08:09:12.578	$GPGGA,080913,2539.9551,N,07959.3516,W,1,9,1.8,19,M,,M,,*5D
06/26/2015	08:09:13.594	$GPGGA,080914,2539.9544,N,07959.3519,W,1,9,1.8,19,M,,M,,*51
06/26/2015	08:09:14.577	$GPGGA,080915,2539.9537,N,07959.3524,W,1,9,1.8,19,M,,M,,*5A
06/26/2015	08:09:15.594	$GPGGA,080916,2539.9530,N,07959.3530,W,1,9,1.8,19,M,,M,,*5B
06/26/2015	08:09:16.577	$GPGGA,080917,2539.9523,N,07959.3534,W,1,9,1.8,18,M,,M,,*5D
06/26/2015	08:09:17.584	$GPGGA,080918,2539.9516,N,07959.3538,W,1,9,1.8,18,M,,M,,*58
06/26/2015	08:09:18.554	$GPGGA,080919,2539.9508,N,07959.3544,W,1,9,1.8,18,M,,M,,*5D
06/26/2015	08:09:19.594	$GPGGA,080920,2539.9501,N,07959.3548,W,1,9,1.8,18,M,,M,,*52
06/26/2015	08:09:20.554	$GPGGA,080921,2539.9494,N,07959.3551,W,1,9,1.8,18,M,,M,,*56
06/26/2015	08:09:21.584	$GPGGA,080922,2539.9487,N,07959.3555,W,1,9,1.8,18,M,,M,,*53
06/26/2015	08:09:22.554	$GPGGA,080923,2539.9479,N,07959.3562,W,1,9,1.8,18,M,,M,,*57
06/26/2015	08:09:23.584	$GPGGA,080924,2539.9472,N,07959.3566,W,1,8,2.3,18,M,,M,,*56
06/26/2015	08:09:24.554	$GPGGA,080925,2539.9464,N,07959.3570,W,1,8,2.3,18,M,,M,,*57
06/26/2015	08:09:25.544	$GPGGA,080926,2539.9457,N,07959.3574,W,1,8,2.3,18,M,,M,,*50
06/26/2015	08:09:26.554	$GPGGA,080927,2539.9449,N,07959.3580,W,1,8,2.9,18,M,,M,,*5F
06/26/2015	08:09:27.564	$GPGGA,080928,2539.9439,N,07959.3581,W,1,8,2.3,18,M,,M,,*5C
06/26/2015	08:09:28.544	$GPGGA,080929,2539.9431,N,07959.3584,W,1,8,1.8,18,M,,M,,*58
06/26/2015	08:09:29.584	$GPGGA,080930,2539.9424,N,07959.3587,W,1,9,1.8,18,M,,M,,*56
06/26/2015	08:09:30.545	$GPGGA,080931,2539.9417,N,07959.3591,W,1,9,1.8,18,M,,M,,*50
06/26/2015	08:09:31.544	$GPGGA,080932,2539.9407,N,07959.3592,W,1,9,1.8,18,M,,M,,*51
06/26/2015	08:09:32.534	$GPGGA,080933,2539.9399,N,07959.3595,W,1,9,1.8,18,M,,M,,*57
06/26/2015	08:09:33.564	$GPGGA,080934,2539.9391,N,07959.3598,W,1,9,1.8,18,M,,M,,*55
06/26/2015	08:09:34.544	$GPGGA,080935,2539.9382,N,07959.3600,W,1,9,1.8,18,M,,M,,*54
06/26/2015	08:09:35.567	$GPGGA,080936,2539.9374,N,07959.3603,W,1,9,1.8,18,M,,M,,*5D
06/26/2015	08:09:36.534	$GPGGA,080937,2539.9367,N,07959.3606,W,1,9,1.8,18,M,,M,,*5B
06/26/2015	08:09:37.554	$GPGGA,080938,2539.9359,N,07959.3609,W,1,9,1.8,18,M,,M,,*56
06/26/2015	08:09:38.534	$GPGGA,080939,2539.9352,N,07959.3611,W,1,9,1.8,19,M,,M,,*54
06/26/2015	08:09:39.544	$GPGGA,080940,2539.9343,N,07959.3616,W,1,9,1.8,19,M,,M,,*5D
06/26/2015	08:09:41.004	$GPGGA,080941,2539.9335,N,07959.3620,W,1,9,2.3,19,M,,M,,*50
06/26/2015	08:09:41.514	$GPGGA,080942,2539.9328,N,07959.3621,W,1,9,1.8,19,M,,M,,*56
06/26/2015	08:09:42.524	$GPGGA,080943,2539.9320,N,07959.3625,W,1,9,1.8,19,M,,M,,*5B
06/26/2015	08:09:43.634	$GPGGA,080944,2539.9312,N,07959.3632,W,1,8,2.3,19,M,,M,,*52
06/26/2015	08:09:44.524	$GPGGA,080945,2539.9305,N,07959.3632,W,1,8,1.8,19,M,,M,,*5D
06/26/2015	08:09:45.624	$GPGGA,080946,2539.9297,N,07959.3635,W,1,9,1.8,20,M,,M,,*58
06/26/2015	08:09:46.514	$GPGGA,080947,2539.9290,N,07959.3639,W,1,9,1.8,20,M,,M,,*52
06/26/2015	08:09:47.633	$GPGGA,080948,2539.9281,N,07959.3643,W,1,8,2.3,20,M,,M,,*59
06/26/2015	08:09:48.614	$GPGGA,080949,2539.9274,N,07959.3645,W,1,8,2.3,20,M,,M,,*54
06/26/2015	08:09:49.604	$GPGGA,080950,2539.9267,N,07959.3645,W,1,9,1.8,20,M,,M,,*57
06/26/2015	08:09:50.504	$GPGGA,080951,2539.9261,N,07959.3646,W,1,9,1.8,20,M,,M,,*53
06/26/2015	08:09:51.504	$GPGGA,080952,2539.9254,N,07959.3647,W,1,9,1.8,20,M,,M,,*57
06/26/2015	08:09:52.604	$GPGGA,080953,2539.9247,N,07959.3649,W,1,9,1.8,20,M,,M,,*5A
06/26/2015	08:09:53.604	$GPGGA,080954,2539.9240,N,07959.3652,W,1,9,1.8,21,M,,M,,*51
06/26/2015	08:09:54.514	$GPGGA,080955,2539.9232,N,07959.3656,W,1,9,1.8,21,M,,M,,*51
06/26/2015	08:09:55.524	$GPGGA,080956,2539.9225,N,07959.3658,W,1,9,1.8,21,M,,M,,*5A
06/26/2015	08:09:56.494	$GPGGA,080957,2539.9218,N,07959.3660,W,1,9,1.8,21,M,,M,,*5E
06/26/2015	08:09:57.594	$GPGGA,080958,2539.9211,N,07959.3663,W,1,9,1.8,21,M,,M,,*5B
06/26/2015	08:09:58.574	$GPGGA,080959,2539.9203,N,07959.3668,W,1,9,1.8,21,M,,M,,*52
06/26/2015	08:09:59.634	$GPGGA,081000,2539.9196,N,07959.3671,W,1,9,1.8,22,M,,M,,*52
06/26/2015	08:10:00.580	$GPGGA,081001,2539.9189,N,07959.3676,W,1,9,1.8,22,M,,M,,*5A
06/26/2015	08:10:01.604	$GPGGA,081002,2539.9180,N,07959.3683,W,1,8,2.3,22,M,,M,,*53
06/26/2015	08:10:02.565	$GPGGA,081003,2539.9173,N,07959.3689,W,1,8,2.3,22,M,,M,,*54
06/26/2015	08:10:03.604	$GPGGA,081004,2539.9167,N,07959.3690,W,1,8,2.3,22,M,,M,,*5E
06/26/2015	08:10:04.566	$GPGGA,081005,2539.9160,N,07959.3694,W,1,8,2.3,22,M,,M,,*5C
06/26/2015	08:10:05.604	$GPGGA,081006,2539.9153,N,07959.3700,W,1,9,1.8,22,M,,M,,*5A
06/26/2015	08:10:06.564	$GPGGA,081007,2539.9144,N,07959.3704,W,1,9,2.3,22,M,,M,,*51
06/26/2015	08:10:07.584	$GPGGA,081008,2539.9137,N,07959.3710,W,1,8,2.3,22,M,,M,,*5E
06/26/2015	08:10:08.576	$GPGGA,081009,2539.9129,N,07959.3714,W,1,8,2.3,21,M,,M,,*57
06/26/2015	08:10:09.577	$GPGGA,081010,2539.9121,N,07959.3719,W,1,8,2.3,21,M,,M,,*5A
06/26/2015	08:10:10.554	$GPGGA,081011,2539.9113,N,07959.3723,W,1,8,2.3,21,M,,M,,*53
06/26/2015	08:10:11.585	$GPGGA,081012,2539.9104,N,07959.3728,W,1,8,2.3,21,M,,M,,*5D
06/26/2015	08:10:12.544	$GPGGA,081013,2539.9099,N,07959.3732,W,1,8,2.3,21,M,,M,,*52
06/26/2015	08:10:13.579	$GPGGA,081014,2539.9091,N,07959.3733,W,1,8,2.3,21,M,,M,,*5C
06/26/2015	08:10:14.554	$GPGGA,081015,2539.9084,N,07959.3736,W,1,8,1.8,21,M,,M,,*54
06/26/2015	08:10:15.576	$GPGGA,081016,2539.9077,N,07959.3741,W,1,9,1.8,20,M,,M,,*5B
06/26/2015	08:10:16.544	$GPGGA,081017,2539.9070,N,07959.3746,W,1,9,1.8,20,M,,M,,*5A
06/26/2015	08:10:17.585	$GPGGA,081018,2539.9063,N,07959.3747,W,1,9,1.8,20,M,,M,,*56
06/26/2015	08:10:18.534	$GPGGA,081019,2539.9055,N,07959.3753,W,1,9,1.8,20,M,,M,,*57
06/26/2015	08:10:19.577	$GPGGA,081020,2539.9048,N,07959.3757,W,1,9,1.8,20,M,,M,,*55
06/26/2015	08:10:20.534	$GPGGA,081021,2539.9041,N,07959.3761,W,1,9,1.8,20,M,,M,,*58
06/26/2015	08:10:21.564	$GPGGA,081022,2539.9032,N,07959.3764,W,1,9,1.8,20,M,,M,,*5A
06/26/2015	08:10:22.543	$GPGGA,081023,2539.9025,N,07959.3768,W,1,9,1.8,20,M,,M,,*51
06/26/2015	08:10:23.577	$GPGGA,081024,2539.9017,N,07959.3772,W,1,9,1.8,20,M,,M,,*5C
06/26/2015	08:10:24.544	$GPGGA,081025,2539.9010,N,07959.3776,W,1,9,1.8,20,M,,M,,*5E
06/26/2015	08:10:25.544	$GPGGA,081026,2539.9003,N,07959.3782,W,1,9,1.8,20,M,,M,,*54
06/26/2015	08:10:26.514	$GPGGA,081027,2539.8995,N,07959.3786,W,1,9,1.8,19,M,,M,,*5C
06/26/2015	08:10:27.544	$GPGGA,081028,2539.8988,N,07959.3790,W,1,9,1.8,19,M,,M,,*58
06/26/2015	08:10:28.524	$GPGGA,081029,2539.8981,N,07959.3794,W,1,9,1.8,19,M,,M,,*54
06/26/2015	08:10:29.544	$GPGGA,081030,2539.8974,N,07959.3800,W,1,9,1.8,19,M,,M,,*54
06/26/2015	08:10:30.524	$GPGGA,081031,2539.8966,N,07959.3804,W,1,9,1.8,19,M,,M,,*52
06/26/2015	08:10:32.082	$GPGGA,081032,2539.8960,N,07959.3808,W,1,8,2.1,19,M,,M,,*50
06/26/2015	08:10:32.524	$GPGGA,081033,2539.8956,N,07959.3813,W,1,8,1.8,19,M,,M,,*54
06/26/2015	08:10:33.514	$GPGGA,081034,2539.8951,N,07959.3819,W,1,9,1.8,19,M,,M,,*5F
06/26/2015	08:10:34.504	$GPGGA,081035,2539.8945,N,07959.3822,W,1,9,1.8,18,M,,M,,*52
06/26/2015	08:10:35.514	$GPGGA,081036,2539.8940,N,07959.3827,W,1,9,1.8,18,M,,M,,*51
06/26/2015	08:10:36.594	$GPGGA,081037,2539.8932,N,07959.3833,W,1,9,1.8,18,M,,M,,*50
06/26/2015	08:10:37.624	$GPGGA,081038,2539.8924,N,07959.3835,W,1,9,1.8,18,M,,M,,*5E
06/26/2015	08:10:38.494	$GPGGA,081039,2539.8918,N,07959.3840,W,1,9,1.8,18,M,,M,,*52
06/26/2015	08:10:39.554	$GPGGA,081040,2539.8911,N,07959.3845,W,1,9,1.8,17,M,,M,,*5F
06/26/2015	08:10:40.514	$GPGGA,081041,2539.8902,N,07959.3849,W,1,9,1.8,17,M,,M,,*50
06/26/2015	08:10:41.484	$GPGGA,081042,2539.8894,N,07959.3852,W,1,9,1.8,17,M,,M,,*57
06/26/2015	08:10:42.584	$GPGGA,081043,2539.8887,N,07959.3858,W,1,9,2.3,17,M,,M,,*56
06/26/2015	08:10:43.594	$GPGGA,081044,2539.8882,N,07959.3862,W,1,8,2.3,17,M,,M,,*5C
06/26/2015	08:10:44.594	$GPGGA,081045,2539.8873,N,07959.3865,W,1,8,1.8,16,M,,M,,*5D
06/26/2015	08:10:45.584	$GPGGA,081046,2539.8866,N,07959.3869,W,1,9,1.8,16,M,,M,,*57
06/26/2015	08:10:46.494	$GPGGA,081047,2539.8857,N,07959.3873,W,1,9,2.3,16,M,,M,,*57
06/26/2015	08:10:48.604	$GPGGA,081049,2539.8839,N,07959.3881,W,1,7,2.3,16,M,,M,,*52
06/26/2015	08:10:49.614	$GPGGA,081050,2539.8831,N,07959.3884,W,1,9,1.8,16,M,,M,,*51
06/26/2015	08:10:50.575	$GPGGA,081051,2539.8824,N,07959.3887,W,1,9,1.8,16,M,,M,,*57
06/26/2015	08:10:51.594	$GPGGA,081052,2539.8817,N,07959.3889,W,1,9,1.8,15,M,,M,,*59
06/26/2015	08:10:52.574	$GPGGA,081053,2539.8810,N,07959.3892,W,1,9,1.8,15,M,,M,,*55
06/26/2015	08:10:53.594	$GPGGA,081054,2539.8802,N,07959.3895,W,1,9,1.8,15,M,,M,,*56
06/26/2015	08:10:54.584	$GPGGA,081055,2539.8795,N,07959.3898,W,1,9,1.8,15,M,,M,,*5B
06/26/2015	08:10:55.594	$GPGGA,081056,2539.8788,N,07959.3902,W,1,9,1.8,15,M,,M,,*56
06/26/2015	08:10:56.584	$GPGGA,081057,2539.8781,N,07959.3905,W,1,9,1.8,15,M,,M,,*59
06/26/2015	08:10:57.583	$GPGGA,081058,2539.8772,N,07959.3909,W,1,9,1.8,15,M,,M,,*56
06/26/2015	08:10:58.554	$GPGGA,081059,2539.8765,N,07959.3913,W,1,9,1.8,15,M,,M,,*5A
06/26/2015	08:10:59.594	$GPGGA,081100,2539.8757,N,07959.3914,W,1,9,1.8,15,M,,M,,*51
06/26/2015	08:11:00.554	$GPGGA,081101,2539.8750,N,07959.3917,W,1,9,2.3,15,M,,M,,*5C
06/26/2015	08:11:01.574	$GPGGA,081102,2539.8743,N,07959.3920,W,1,9,1.8,15,M,,M,,*51
06/26/2015	08:11:02.554	$GPGGA,081103,2539.8736,N,07959.3921,W,1,9,1.8,15,M,,M,,*53
06/26/2015	08:11:03.584	$GPGGA,081104,2539.8728,N,07959.3923,W,1,9,1.8,15,M,,M,,*59
06/26/2015	08:11:04.544	$GPGGA,081105,2539.8721,N,07959.3925,W,1,9,1.8,15,M,,M,,*57
06/26/2015	08:11:05.579	$GPGGA,081106,2539.8714,N,07959.3927,W,1,9,1.8,15,M,,M,,*50
06/26/2015	08:11:06.554	$GPGGA,081107,2539.8707,N,07959.3930,W,1,9,1.8,15,M,,M,,*55
06/26/2015	08:11:07.584	$GPGGA,081108,2539.8699,N,07959.3931,W,1,9,1.8,15,M,,M,,*5D
06/26/2015	08:11:08.544	$GPGGA,081109,2539.8692,N,07959.3934,W,1,9,1.8,15,M,,M,,*52
06/26/2015	08:11:09.534	$GPGGA,081110,2539.8684,N,07959.3936,W,1,9,1.8,15,M,,M,,*5F
06/26/2015	08:11:10.534	$GPGGA,081111,2539.8676,N,07959.3939,W,1,9,1.8,15,M,,M,,*5C
06/26/2015	08:11:11.554	$GPGGA,081112,2539.8669,N,07959.3942,W,1,9,1.8,15,M,,M,,*5D
06/26/2015	08:11:12.544	$GPGGA,081113,2539.8661,N,07959.3945,W,1,9,1.8,15,M,,M,,*53
06/26/2015	08:11:13.554	$GPGGA,081114,2539.8654,N,07959.3947,W,1,9,1.8,15,M,,M,,*50
06/26/2015	08:11:14.534	$GPGGA,081115,2539.8647,N,07959.3950,W,1,9,1.8,15,M,,M,,*55
06/26/2015	08:11:15.576	$GPGGA,081116,2539.8640,N,07959.3953,W,1,9,1.8,15,M,,M,,*52
06/26/2015	08:11:16.634	$GPGGA,081117,2539.8631,N,07959.3956,W,1,9,1.8,15,M,,M,,*50
06/26/2015	08:11:17.534	$GPGGA,081118,2539.8624,N,07959.3959,W,1,9,1.8,15,M,,M,,*54
06/26/2015	08:11:18.534	$GPGGA,081119,2539.8617,N,07959.3961,W,1,9,1.8,15,M,,M,,*5E
06/26/2015	08:11:19.654	$GPGGA,081120,2539.8608,N,07959.3964,W,1,9,1.8,15,M,,M,,*5F
06/26/2015	08:11:20.524	$GPGGA,081121,2539.8601,N,07959.3967,W,1,9,1.8,15,M,,M,,*54
06/26/2015	08:11:21.504	$GPGGA,081122,2539.8593,N,07959.3970,W,1,9,1.8,15,M,,M,,*59
06/26/2015	08:11:22.524	$GPGGA,081123,2539.8586,N,07959.3972,W,1,9,1.8,15,M,,M,,*5E
06/26/2015	08:11:23.654	$GPGGA,081124,2539.8578,N,07959.3975,W,1,9,1.8,15,M,,M,,*5F
06/26/2015	08:11:24.624	$GPGGA,081125,2539.8571,N,07959.3978,W,1,9,1.8,15,M,,M,,*5A
06/26/2015	08:11:25.524	$GPGGA,081126,2539.8564,N,07959.3981,W,1,9,1.8,15,M,,M,,*5B
06/26/2015	08:11:26.504	$GPGGA,081127,2539.8555,N,07959.3986,W,1,9,1.8,15,M,,M,,*5F
06/26/2015	08:11:27.524	$GPGGA,081128,2539.8547,N,07959.3990,W,1,8,2.3,15,M,,M,,*5D
06/26/2015	08:11:28.614	$GPGGA,081129,2539.8540,N,07959.3995,W,1,8,2.9,15,M,,M,,*54
06/26/2015	08:11:29.634	$GPGGA,081130,2539.8531,N,07959.3999,W,1,7,2.3,15,M,,M,,*53
06/26/2015	08:11:30.504	$GPGGA,081131,2539.8522,N,07959.4003,W,1,7,2.3,15,M,,M,,*5D
06/26/2015	08:11:31.504	$GPGGA,081132,2539.8514,N,07959.4007,W,1,8,2.3,15,M,,M,,*50
06/26/2015	08:11:32.593	$GPGGA,081133,2539.8506,N,07959.4010,W,1,8,1.8,15,M,,M,,*5C
06/26/2015	08:11:33.604	$GPGGA,081134,2539.8499,N,07959.4014,W,1,9,1.8,15,M,,M,,*59
06/26/2015	08:11:34.584	$GPGGA,081135,2539.8490,N,07959.4014,W,1,9,1.8,15,M,,M,,*51
06/26/2015	08:11:35.634	$GPGGA,081136,2539.8482,N,07959.4018,W,1,9,1.8,15,M,,M,,*5D
06/26/2015	08:11:36.584	$GPGGA,081137,2539.8475,N,07959.4022,W,1,9,1.8,15,M,,M,,*5D
06/26/2015	08:11:37.594	$GPGGA,081138,2539.8466,N,07959.4026,W,1,9,2.3,16,M,,M,,*5F
06/26/2015	08:11:38.575	$GPGGA,081139,2539.8459,N,07959.4029,W,1,9,1.8,16,M,,M,,*55
06/26/2015	08:11:39.614	$GPGGA,081140,2539.8452,N,07959.4035,W,1,9,1.8,16,M,,M,,*5D
06/26/2015	08:11:40.575	$GPGGA,081141,2539.8443,N,07959.4039,W,1,9,2.3,16,M,,M,,*58
06/26/2015	08:11:41.584	$GPGGA,081142,2539.8435,N,07959.4044,W,1,8,2.3,16,M,,M,,*51
06/26/2015	08:11:42.566	$GPGGA,081143,2539.8428,N,07959.4050,W,1,8,2.3,16,M,,M,,*59
06/26/2015	08:11:43.604	$GPGGA,081144,2539.8420,N,07959.4055,W,1,8,1.8,16,M,,M,,*5B
06/26/2015	08:11:44.565	$GPGGA,081145,2539.8413,N,07959.4058,W,1,8,1.8,16,M,,M,,*57
06/26/2015	08:11:45.594	$GPGGA,081146,2539.8406,N,07959.4064,W,1,9,1.8,16,M,,M,,*5E
06/26/2015	08:11:46.566	$GPGGA,081147,2539.8399,N,07959.4068,W,1,9,2.3,16,M,,M,,*5A
06/26/2015	08:11:47.594	$GPGGA,081148,2539.8391,N,07959.4072,W,1,8,2.3,16,M,,M,,*57
06/26/2015	08:11:48.554	$GPGGA,081149,2539.8384,N,07959.4077,W,1,8,2.3,16,M,,M,,*57
06/26/2015	08:11:49.568	$GPGGA,081150,2539.8377,N,07959.4079,W,1,8,1.8,16,M,,M,,*55
06/26/2015	08:11:50.564	$GPGGA,081151,2539.8370,N,07959.4084,W,1,8,2.3,16,M,,M,,*59
06/26/2015	08:11:51.624	$GPGGA,081152,2539.8362,N,07959.4091,W,1,8,1.8,16,M,,M,,*55
06/26/2015	08:11:52.554	$GPGGA,081153,2539.8355,N,07959.4095,W,1,8,1.8,16,M,,M,,*54
06/26/2015	08:11:53.584	$GPGGA,081154,2539.8347,N,07959.4100,W,1,9,1.8,16,M,,M,,*5C
06/26/2015	08:11:54.554	$GPGGA,081155,2539.8341,N,07959.4104,W,1,9,1.8,16,M,,M,,*5F
06/26/2015	08:11:55.594	$GPGGA,081156,2539.8334,N,07959.4108,W,1,9,1.8,16,M,,M,,*52
06/26/2015	08:11:56.534	$GPGGA,081157,2539.8326,N,07959.4111,W,1,9,1.8,16,M,,M,,*58
