Software Version Number: 1	Data File Format Number: 1	Build Version Number: 1	Error Count Since VI Started: 3	Manufacturer: Raytheon	 Model Number: RayMarine 120	 S/N: 	 Cal Date: 	 Wind Direction Offset: 0.00	 Slope (M)1: 0.00	 Offset (B)1: 0.00	 Slope (M)2: 0.00	 Offset (B)2: 0.00	 Slope (M)3: 0.00	 Offset (B)3: 0.00	 Slope (M)4: 0.00	 Offset (B)4: 0.00	 Slope (M)5: 0.00	 Offset (B)5: 0.00	 Slope (M)6: 0.00	 Offset (B)6: 0.00
Computer Date	Computer Time	GGA String
06/21/2015	17:00:00.618	$GPGGA,170001,2427.4527,N,08135.4868,W,1,11,1.5,17,M,,M,,*6F
06/21/2015	17:00:01.507	$GPGGA,170002,2427.4536,N,08135.4870,W,1,10,1.5,17,M,,M,,*64
06/21/2015	17:00:02.577	$GPGGA,170003,2427.4547,N,08135.4869,W,1,10,1.5,17,M,,M,,*6B
06/21/2015	17:00:03.617	$GPGGA,170004,2427.4557,N,08135.4870,W,1,11,1.4,17,M,,M,,*65
06/21/2015	17:00:04.577	$GPGGA,170005,2427.4568,N,08135.4870,W,1,11,1.4,17,M,,M,,*68
06/21/2015	17:00:05.569	$GPGGA,170006,2427.4578,N,08135.4873,W,1,11,1.4,17,M,,M,,*69
06/21/2015	17:00:06.570	$GPGGA,170007,2427.4587,N,08135.4872,W,1,11,1.4,17,M,,M,,*69
06/21/2015	17:00:07.617	$GPGGA,170008,2427.4597,N,08135.4873,W,1,11,1.4,17,M,,M,,*66
06/21/2015	17:00:08.577	$GPGGA,170009,2427.4608,N,08135.4874,W,1,11,1.4,17,M,,M,,*65
06/21/2015	17:00:09.567	$GPGGA,170010,2427.4618,N,08135.4873,W,1,11,1.4,17,M,,M,,*6B
06/21/2015	17:00:10.837	$GPGGA,170011,2427.4629,N,08135.4874,W,1,11,1.5,17,M,,M,,*6E
06/21/2015	17:00:11.568	$GPGGA,170012,2427.4639,N,08135.4875,W,1,11,1.4,17,M,,M,,*6C
06/21/2015	17:00:12.547	$GPGGA,170013,2427.4648,N,08135.4877,W,1,11,1.5,17,M,,M,,*68
06/21/2015	17:00:13.580	$GPGGA,170014,2427.4658,N,08135.4877,W,1,10,1.5,17,M,,M,,*6F
06/21/2015	17:00:14.558	$GPGGA,170015,2427.4668,N,08135.4877,W,1,10,1.5,17,M,,M,,*6D
06/21/2015	17:00:15.608	$GPGGA,170016,2427.4677,N,08135.4876,W,1,11,1.4,17,M,,M,,*61
06/21/2015	17:00:16.558	$GPGGA,170017,2427.4686,N,08135.4877,W,1,11,1.4,17,M,,M,,*6F
06/21/2015	17:00:17.558	$GPGGA,170018,2427.4694,N,08135.4877,W,1,10,1.5,17,M,,M,,*63
06/21/2015	17:00:18.558	$GPGGA,170019,2427.4702,N,08135.4877,W,1,10,1.5,17,M,,M,,*6C
06/21/2015	17:00:19.587	$GPGGA,170020,2427.4712,N,08135.4876,W,1,11,1.4,17,M,,M,,*66
06/21/2015	17:00:20.537	$GPGGA,170021,2427.4722,N,08135.4877,W,1,11,1.4,17,M,,M,,*65
06/21/2015	17:00:21.567	$GPGGA,170022,2427.4731,N,08135.4876,W,1,11,1.4,18,M,,M,,*6A
06/21/2015	17:00:22.547	$GPGGA,170023,2427.4738,N,08135.4877,W,1,11,1.4,18,M,,M,,*63
06/21/2015	17:00:23.547	$GPGGA,170024,2427.4747,N,08135.4875,W,1,10,1.5,18,M,,M,,*6E
06/21/2015	17:00:24.547	$GPGGA,170025,2427.4756,N,08135.4874,W,1,10,1.5,18,M,,M,,*6E
06/21/2015	17:00:25.527	$GPGGA,170026,2427.4763,N,08135.4873,W,1,11,1.4,18,M,,M,,*6C
06/21/2015	17:00:26.557	$GPGGA,170027,2427.4771,N,08135.4874,W,1,11,1.4,18,M,,M,,*69
06/21/2015	17:00:27.547	$GPGGA,170028,2427.4780,N,08135.4872,W,1,11,1.4,18,M,,M,,*6E
06/21/2015	17:00:28.537	$GPGGA,170029,2427.4787,N,08135.4870,W,1,11,1.4,18,M,,M,,*6A
06/21/2015	17:00:29.557	$GPGGA,170030,2427.4796,N,08135.4870,W,1,10,1.5,18,M,,M,,*62
06/21/2015	17:00:30.628	$GPGGA,170031,2427.4805,N,08135.4868,W,1,10,1.4,18,M,,M,,*6E
06/21/2015	17:00:31.568	$GPGGA,170032,2427.4813,N,08135.4867,W,1,11,1.4,18,M,,M,,*64
06/21/2015	17:00:32.518	$GPGGA,170033,2427.4820,N,08135.4865,W,1,11,1.4,18,M,,M,,*67
06/21/2015	17:00:33.528	$GPGGA,170034,2427.4828,N,08135.4863,W,1,11,1.4,18,M,,M,,*6E
06/21/2015	17:00:34.508	$GPGGA,170035,2427.4835,N,08135.4861,W,1,11,1.4,18,M,,M,,*61
06/21/2015	17:00:35.528	$GPGGA,170036,2427.4842,N,08135.4859,W,1,11,1.4,18,M,,M,,*69
06/21/2015	17:00:36.527	$GPGGA,170037,2427.4850,N,08135.4858,W,1,11,1.4,18,M,,M,,*6A
06/21/2015	17:00:37.517	$GPGGA,170038,2427.4857,N,08135.4855,W,1,11,1.4,18,M,,M,,*6F
06/21/2015	17:00:38.627	$GPGGA,170039,2427.4864,N,08135.4852,W,1,11,1.5,18,M,,M,,*68
06/21/2015	17:00:39.607	$GPGGA,170040,2427.4871,N,08135.4850,W,1,10,1.5,18,M,,M,,*61
06/21/2015	17:00:40.507	$GPGGA,170041,2427.4879,N,08135.4848,W,1,10,1.5,18,M,,M,,*61
06/21/2015	17:00:41.607	$GPGGA,170042,2427.4886,N,08135.4845,W,1,11,1.4,18,M,,M,,*6F
06/21/2015	17:00:42.507	$GPGGA,170043,2427.4892,N,08135.4843,W,1,11,1.4,18,M,,M,,*6D
06/21/2015	17:00:43.507	$GPGGA,170044,2427.4899,N,08135.4839,W,1,11,1.4,18,M,,M,,*6C
06/21/2015	17:00:44.587	$GPGGA,170045,2427.4906,N,08135.4837,W,1,11,1.4,18,M,,M,,*64
06/21/2015	17:00:45.607	$GPGGA,170046,2427.4912,N,08135.4833,W,1,11,1.4,18,M,,M,,*66
06/21/2015	17:00:46.587	$GPGGA,170047,2427.4919,N,08135.4831,W,1,11,1.4,17,M,,M,,*61
06/21/2015	17:00:47.597	$GPGGA,170048,2427.4926,N,08135.4828,W,1,11,1.4,17,M,,M,,*6A
06/21/2015	17:00:48.598	$GPGGA,170049,2427.4933,N,08135.4824,W,1,11,1.4,17,M,,M,,*63
06/21/2015	17:00:49.618	$GPGGA,170050,2427.4940,N,08135.4820,W,1,11,1.4,17,M,,M,,*6B
06/21/2015	17:00:50.598	$GPGGA,170051,2427.4948,N,08135.4818,W,1,11,1.4,17,M,,M,,*69
06/21/2015	17:00:51.628	$GPGGA,170052,2427.4955,N,08135.4815,W,1,11,1.4,17,M,,M,,*6B
06/21/2015	17:00:52.580	$GPGGA,170053,2427.4961,N,08135.4811,W,1,11,1.4,17,M,,M,,*69
06/21/2015	17:00:53.582	$GPGGA,170054,2427.4968,N,08135.4807,W,1,11,1.4,17,M,,M,,*60
06/21/2015	17:00:54.579	$GPGGA,170055,2427.4975,N,08135.4804,W,1,11,1.6,17,M,,M,,*6C
06/21/2015	17:00:55.647	$GPGGA,170056,2427.4982,N,08135.4800,W,1,11,1.4,17,M,,M,,*61
06/21/2015	17:00:56.574	$GPGGA,170057,2427.4987,N,08135.4795,W,1,11,1.4,17,M,,M,,*66
06/21/2015	17:00:57.597	$GPGGA,170058,2427.4995,N,08135.4790,W,1,11,1.4,17,M,,M,,*6F
06/21/2015	17:00:58.569	$GPGGA,170059,2427.5001,N,08135.4787,W,1,11,1.4,17,M,,M,,*6D
06/21/2015	17:00:59.597	$GPGGA,170100,2427.5006,N,08135.4782,W,1,11,1.4,17,M,,M,,*62
06/21/2015	17:01:00.837	$GPGGA,170101,2427.5013,N,08135.4777,W,1,11,1.4,17,M,,M,,*6D
06/21/2015	17:01:01.547	$GPGGA,170102,2427.5020,N,08135.4773,W,1,11,1.4,17,M,,M,,*6A
06/21/2015	17:01:02.567	$GPGGA,170103,2427.5026,N,08135.4769,W,1,11,1.4,17,M,,M,,*66
06/21/2015	17:01:03.582	$GPGGA,170104,2427.5031,N,08135.4764,W,1,10,1.5,17,M,,M,,*6A
06/21/2015	17:01:04.547	$GPGGA,170105,2427.5037,N,08135.4759,W,1,10,1.4,17,M,,M,,*62
06/21/2015	17:01:05.548	$GPGGA,170106,2427.5042,N,08135.4755,W,1,11,1.4,17,M,,M,,*6E
06/21/2015	17:01:06.558	$GPGGA,170107,2427.5049,N,08135.4749,W,1,11,1.5,17,M,,M,,*68
06/21/2015	17:01:07.571	$GPGGA,170108,2427.5055,N,08135.4745,W,1,11,1.4,17,M,,M,,*67
06/21/2015	17:01:08.558	$GPGGA,170109,2427.5060,N,08135.4741,W,1,11,1.4,17,M,,M,,*64
06/21/2015	17:01:09.538	$GPGGA,170110,2427.5067,N,08135.4735,W,1,11,1.4,17,M,,M,,*68
06/21/2015	17:01:10.558	$GPGGA,170111,2427.5071,N,08135.4730,W,1,11,1.4,17,M,,M,,*6B
06/21/2015	17:01:11.597	$GPGGA,170112,2427.5078,N,08135.4725,W,1,11,1.4,17,M,,M,,*65
06/21/2015	17:01:12.537	$GPGGA,170113,2427.5084,N,08135.4720,W,1,11,1.4,17,M,,M,,*62
06/21/2015	17:01:13.527	$GPGGA,170114,2427.5089,N,08135.4714,W,1,11,1.4,17,M,,M,,*6F
06/21/2015	17:01:14.547	$GPGGA,170115,2427.5094,N,08135.4708,W,1,11,1.5,17,M,,M,,*6E
06/21/2015	17:01:15.597	$GPGGA,170116,2427.5099,N,08135.4703,W,1,11,1.4,17,M,,M,,*6A
06/21/2015	17:01:16.537	$GPGGA,170117,2427.5106,N,08135.4698,W,1,11,1.4,17,M,,M,,*6F
06/21/2015	17:01:17.537	$GPGGA,170118,2427.5112,N,08135.4693,W,1,11,1.4,17,M,,M,,*6E
06/21/2015	17:01:18.537	$GPGGA,170119,2427.5116,N,08135.4687,W,1,11,1.4,17,M,,M,,*6E
06/21/2015	17:01:19.577	$GPGGA,170120,2427.5121,N,08135.4681,W,1,11,1.4,17,M,,M,,*66
06/21/2015	17:01:20.527	$GPGGA,170121,2427.5127,N,08135.4676,W,1,11,1.4,17,M,,M,,*69
06/21/2015	17:01:21.527	$GPGGA,170122,2427.5132,N,08135.4671,W,1,11,1.4,17,M,,M,,*69
06/21/2015	17:01:22.537	$GPGGA,170123,2427.5136,N,08135.4664,W,1,11,1.4,17,M,,M,,*68
06/21/2015	17:01:23.658	$GPGGA,170124,2427.5141,N,08135.4658,W,1,11,1.4,17,M,,M,,*60
06/21/2015	17:01:24.528	$GPGGA,170125,2427.5146,N,08135.4653,W,1,11,1.4,17,M,,M,,*6D
06/21/2015	17:01:25.570	$GPGGA,170126,2427.5150,N,08135.4647,W,1,11,1.4,17,M,,M,,*6C
06/21/2015	17:01:26.608	$GPGGA,170127,2427.5154,N,08135.4640,W,1,11,1.4,17,M,,M,,*6E
06/21/2015	17:01:27.538	$GPGGA,170128,2427.5159,N,08135.4635,W,1,11,1.4,17,M,,M,,*6E
06/21/2015	17:01:28.518	$GPGGA,170129,2427.5164,N,08135.4629,W,1,11,1.4,17,M,,M,,*6C
06/21/2015	17:01:29.517	$GPGGA,170130,2427.5168,N,08135.4619,W,1,10,1.6,17,M,,M,,*68
06/21/2015	17:01:30.517	$GPGGA,170131,2427.5172,N,08135.4612,W,1,10,1.4,17,M,,M,,*6B
06/21/2015	17:01:31.669	$GPGGA,170132,2427.5178,N,08135.4606,W,1,11,1.4,17,M,,M,,*66
06/21/2015	17:01:32.517	$GPGGA,170133,2427.5181,N,08135.4600,W,1,11,1.4,17,M,,M,,*67
06/21/2015	17:01:33.607	$GPGGA,170134,2427.5185,N,08135.4593,W,1,11,1.4,17,M,,M,,*6D
06/21/2015	17:01:34.508	$GPGGA,170135,2427.5189,N,08135.4586,W,1,11,1.4,17,M,,M,,*64
06/21/2015	17:01:35.647	$GPGGA,170136,2427.5193,N,08135.4579,W,1,11,1.4,17,M,,M,,*6C
06/21/2015	17:01:36.507	$GPGGA,170137,2427.5197,N,08135.4571,W,1,11,1.4,17,M,,M,,*61
06/21/2015	17:01:37.597	$GPGGA,170138,2427.5200,N,08135.4564,W,1,10,1.4,17,M,,M,,*66
06/21/2015	17:01:38.657	$GPGGA,170139,2427.5204,N,08135.4559,W,1,10,1.4,17,M,,M,,*6D
06/21/2015	17:01:39.617	$GPGGA,170140,2427.5208,N,08135.4552,W,1,11,1.4,17,M,,M,,*65
06/21/2015	17:01:41.008	$GPGGA,170141,2427.5211,N,08135.4545,W,1,11,1.4,17,M,,M,,*6A
06/21/2015	17:01:41.578	$GPGGA,170142,2427.5212,N,08135.4538,W,1,11,1.5,17,M,,M,,*61
06/21/2015	17:01:42.638	$GPGGA,170143,2427.5217,N,08135.4533,W,1,11,1.6,17,M,,M,,*6D
06/21/2015	17:01:43.618	$GPGGA,170144,2427.5219,N,08135.4527,W,1,10,1.6,17,M,,M,,*60
06/21/2015	17:01:44.583	$GPGGA,170145,2427.5222,N,08135.4520,W,1,10,1.6,17,M,,M,,*6E
06/21/2015	17:01:45.628	$GPGGA,170146,2427.5225,N,08135.4515,W,1,10,1.6,18,M,,M,,*63
06/21/2015	17:01:46.580	$GPGGA,170147,2427.5226,N,08135.4510,W,1,10,1.4,18,M,,M,,*66
06/21/2015	17:01:47.597	$GPGGA,170148,2427.5229,N,08135.4506,W,1,11,1.4,18,M,,M,,*60
06/21/2015	17:01:48.567	$GPGGA,170149,2427.5230,N,08135.4500,W,1,11,1.4,18,M,,M,,*6F
06/21/2015	17:01:49.587	$GPGGA,170150,2427.5233,N,08135.4494,W,1,11,1.4,18,M,,M,,*68
06/21/2015	17:01:50.569	$GPGGA,170151,2427.5235,N,08135.4488,W,1,11,1.4,18,M,,M,,*62
06/21/2015	17:01:51.647	$GPGGA,170152,2427.5237,N,08135.4481,W,1,11,1.4,18,M,,M,,*6A
06/21/2015	17:01:52.569	$GPGGA,170153,2427.5239,N,08135.4475,W,1,11,1.6,18,M,,M,,*6C
06/21/2015	17:01:53.581	$GPGGA,170154,2427.5240,N,08135.4470,W,1,10,1.6,18,M,,M,,*61
06/21/2015	17:01:54.557	$GPGGA,170155,2427.5242,N,08135.4462,W,1,10,1.4,18,M,,M,,*63
06/21/2015	17:01:55.647	$GPGGA,170156,2427.5244,N,08135.4455,W,1,11,1.4,18,M,,M,,*63
06/21/2015	17:01:56.547	$GPGGA,170157,2427.5244,N,08135.4448,W,1,11,1.4,18,M,,M,,*6E
06/21/2015	17:01:57.567	$GPGGA,170158,2427.5246,N,08135.4441,W,1,11,1.4,18,M,,M,,*6A
06/21/2015	17:01:58.538	$GPGGA,170159,2427.5247,N,08135.4435,W,1,11,1.4,19,M,,M,,*68
06/21/2015	17:01:59.608	$GPGGA,170200,2427.5247,N,08135.4428,W,1,11,1.4,19,M,,M,,*6B
06/21/2015	17:02:00.548	$GPGGA,170201,2427.5248,N,08135.4421,W,1,11,1.4,19,M,,M,,*6C
06/21/2015	17:02:01.538	$GPGGA,170202,2427.5250,N,08135.4413,W,1,11,1.6,19,M,,M,,*65
06/21/2015	17:02:02.558	$GPGGA,170203,2427.5251,N,08135.4406,W,1,11,1.4,19,M,,M,,*63
06/21/2015	17:02:03.588	$GPGGA,170204,2427.5251,N,08135.4400,W,1,11,1.4,19,M,,M,,*62
06/21/2015	17:02:04.537	$GPGGA,170205,2427.5251,N,08135.4392,W,1,11,1.4,19,M,,M,,*6F
06/21/2015	17:02:05.537	$GPGGA,170206,2427.5251,N,08135.4386,W,1,11,1.4,19,M,,M,,*69
06/21/2015	17:02:06.537	$GPGGA,170207,2427.5251,N,08135.4379,W,1,11,1.4,19,M,,M,,*68
06/21/2015	17:02:07.582	$GPGGA,170208,2427.5251,N,08135.4373,W,1,10,1.4,19,M,,M,,*6C
06/21/2015	17:02:09.547	$GPGGA,170209,2427.5251,N,08135.4369,W,1,10,1.6,19,M,,M,,*64
06/21/2015	17:02:09.580	$GPGGA,170210,2427.5249,N,08135.4363,W,1,10,1.5,19,M,,M,,*6C
06/21/2015	17:02:10.537	$GPGGA,170211,2427.5250,N,08135.4359,W,1,10,1.6,19,M,,M,,*6F
06/21/2015	17:02:11.557	$GPGGA,170212,2427.5248,N,08135.4352,W,1,10,1.5,19,M,,M,,*6D
06/21/2015	17:02:12.537	$GPGGA,170213,2427.5247,N,08135.4345,W,1,10,1.4,19,M,,M,,*64
06/21/2015	17:02:13.617	$GPGGA,170214,2427.5246,N,08135.4338,W,1,11,1.4,19,M,,M,,*69
06/21/2015	17:02:14.527	$GPGGA,170215,2427.5245,N,08135.4331,W,1,11,1.4,19,M,,M,,*62
06/21/2015	17:02:15.568	$GPGGA,170216,2427.5244,N,08135.4325,W,1,11,1.4,19,M,,M,,*65
06/21/2015	17:02:16.598	$GPGGA,170217,2427.5242,N,08135.4317,W,1,11,1.4,19,M,,M,,*63
06/21/2015	17:02:17.518	$GPGGA,170218,2427.5241,N,08135.4311,W,1,11,1.4,19,M,,M,,*69
06/21/2015	17:02:18.618	$GPGGA,170219,2427.5239,N,08135.4304,W,1,11,1.4,19,M,,M,,*63
06/21/2015	17:02:19.618	$GPGGA,170220,2427.5237,N,08135.4297,W,1,11,1.4,19,M,,M,,*6C
06/21/2015	17:02:20.528	$GPGGA,170221,2427.5237,N,08135.4291,W,1,11,1.4,19,M,,M,,*6B
06/21/2015	17:02:21.607	$GPGGA,170222,2427.5234,N,08135.4285,W,1,11,1.4,19,M,,M,,*6E
06/21/2015	17:02:22.607	$GPGGA,170223,2427.5233,N,08135.4278,W,1,11,1.4,19,M,,M,,*6A
06/21/2015	17:02:23.617	$GPGGA,170224,2427.5231,N,08135.4272,W,1,11,1.4,19,M,,M,,*65
06/21/2015	17:02:24.597	$GPGGA,170225,2427.5230,N,08135.4266,W,1,11,1.4,19,M,,M,,*60
06/21/2015	17:02:25.597	$GPGGA,170226,2427.5228,N,08135.4261,W,1,11,1.4,19,M,,M,,*6D
06/21/2015	17:02:26.577	$GPGGA,170227,2427.5226,N,08135.4255,W,1,11,1.4,19,M,,M,,*65
06/21/2015	17:02:27.587	$GPGGA,170228,2427.5226,N,08135.4249,W,1,11,1.4,19,M,,M,,*67
06/21/2015	17:02:28.587	$GPGGA,170229,2427.5223,N,08135.4244,W,1,11,1.4,19,M,,M,,*6E
06/21/2015	17:02:29.597	$GPGGA,170230,2427.5221,N,08135.4239,W,1,11,1.4,19,M,,M,,*6E
06/21/2015	17:02:30.607	$GPGGA,170231,2427.5219,N,08135.4233,W,1,11,1.4,19,M,,M,,*6E
06/21/2015	17:02:31.617	$GPGGA,170232,2427.5219,N,08135.4227,W,1,11,1.4,19,M,,M,,*68
06/21/2015	17:02:32.567	$GPGGA,170233,2427.5215,N,08135.4222,W,1,11,1.4,19,M,,M,,*60
06/21/2015	17:02:33.598	$GPGGA,170234,2427.5213,N,08135.4217,W,1,11,1.4,19,M,,M,,*67
06/21/2015	17:02:34.588	$GPGGA,170235,2427.5212,N,08135.4212,W,1,11,1.4,19,M,,M,,*62
06/21/2015	17:02:35.608	$GPGGA,170236,2427.5209,N,08135.4207,W,1,11,1.4,19,M,,M,,*6F
06/21/2015	17:02:36.569	$GPGGA,170237,2427.5208,N,08135.4202,W,1,11,1.4,19,M,,M,,*6A
06/21/2015	17:02:37.558	$GPGGA,170238,2427.5205,N,08135.4198,W,1,11,1.4,19,M,,M,,*68
06/21/2015	17:02:38.570	$GPGGA,170239,2427.5204,N,08135.4192,W,1,11,1.4,19,M,,M,,*62
06/21/2015	17:02:39.567	$GPGGA,170240,2427.5201,N,08135.4187,W,1,11,1.4,19,M,,M,,*6D
06/21/2015	17:02:40.577	$GPGGA,170241,2427.5197,N,08135.4183,W,1,11,1.4,19,M,,M,,*64
06/21/2015	17:02:41.569	$GPGGA,170242,2427.5195,N,08135.4178,W,1,11,1.4,19,M,,M,,*61
06/21/2015	17:02:42.557	$GPGGA,170243,2427.5192,N,08135.4173,W,1,11,1.4,19,M,,M,,*6C
06/21/2015	17:02:43.568	$GPGGA,170244,2427.5190,N,08135.4168,W,1,11,1.4,19,M,,M,,*63
06/21/2015	17:02:44.557	$GPGGA,170245,2427.5186,N,08135.4164,W,1,11,1.4,19,M,,M,,*69
06/21/2015	17:02:45.557	$GPGGA,170246,2427.5183,N,08135.4160,W,1,11,1.4,19,M,,M,,*6B
06/21/2015	17:02:46.547	$GPGGA,170247,2427.5181,N,08135.4155,W,1,11,1.4,19,M,,M,,*6E
06/21/2015	17:02:47.587	$GPGGA,170248,2427.5179,N,08135.4151,W,1,11,1.4,19,M,,M,,*62
06/21/2015	17:02:48.547	$GPGGA,170249,2427.5174,N,08135.4147,W,1,11,1.4,19,M,,M,,*69
06/21/2015	17:02:49.547	$GPGGA,170250,2427.5172,N,08135.4143,W,1,11,1.4,19,M,,M,,*63
06/21/2015	17:02:50.558	$GPGGA,170251,2427.5168,N,08135.4139,W,1,11,1.4,19,M,,M,,*64
06/21/2015	17:02:51.568	$GPGGA,170252,2427.5165,N,08135.4136,W,1,11,1.4,19,M,,M,,*65
06/21/2015	17:02:52.528	$GPGGA,170253,2427.5161,N,08135.4131,W,1,11,1.4,19,M,,M,,*67
06/21/2015	17:02:53.538	$GPGGA,170254,2427.5157,N,08135.4126,W,1,11,1.4,19,M,,M,,*63
06/21/2015	17:02:54.528	$GPGGA,170255,2427.5154,N,08135.4122,W,1,11,1.4,19,M,,M,,*65
06/21/2015	17:02:55.569	$GPGGA,170256,2427.5150,N,08135.4119,W,1,11,1.4,19,M,,M,,*6A
06/21/2015	17:02:56.647	$GPGGA,170257,2427.5146,N,08135.4114,W,1,11,1.5,19,M,,M,,*60
06/21/2015	17:02:57.547	$GPGGA,170258,2427.5141,N,08135.4110,W,1,11,1.4,18,M,,M,,*6C
06/21/2015	17:02:58.637	$GPGGA,170259,2427.5137,N,08135.4107,W,1,11,1.4,18,M,,M,,*6A
06/21/2015	17:02:59.682	$GPGGA,170300,2427.5133,N,08135.4104,W,1,10,1.5,18,M,,M,,*60
06/21/2015	17:03:00.517	$GPGGA,170301,2427.5129,N,08135.4100,W,1,10,1.4,18,M,,M,,*6F
06/21/2015	17:03:01.537	$GPGGA,170302,2427.5125,N,08135.4096,W,1,11,1.4,18,M,,M,,*6F
06/21/2015	17:03:02.517	$GPGGA,170303,2427.5119,N,08135.4093,W,1,11,1.4,18,M,,M,,*64
06/21/2015	17:03:03.547	$GPGGA,170304,2427.5115,N,08135.4090,W,1,11,1.4,18,M,,M,,*6C
06/21/2015	17:03:04.507	$GPGGA,170305,2427.5110,N,08135.4086,W,1,11,1.4,18,M,,M,,*6F
06/21/2015	17:03:05.627	$GPGGA,170306,2427.5104,N,08135.4082,W,1,11,1.4,18,M,,M,,*6D
06/21/2015	17:03:06.507	$GPGGA,170307,2427.5099,N,08135.4079,W,1,11,1.4,18,M,,M,,*6D
06/21/2015	17:03:07.507	$GPGGA,170308,2427.5093,N,08135.4076,W,1,11,1.4,18,M,,M,,*67
06/21/2015	17:03:08.508	$GPGGA,170309,2427.5089,N,08135.4072,W,1,11,1.4,18,M,,M,,*69
06/21/2015	17:03:09.638	$GPGGA,170310,2427.5082,N,08135.4069,W,1,11,1.4,18,M,,M,,*60
06/21/2015	17:03:10.508	$GPGGA,170311,2427.5076,N,08135.4066,W,1,11,1.4,18,M,,M,,*65
06/21/2015	17:03:11.628	$GPGGA,170312,2427.5070,N,08135.4061,W,1,11,1.4,18,M,,M,,*67
06/21/2015	17:03:12.588	$GPGGA,170313,2427.5065,N,08135.4057,W,1,11,1.4,18,M,,M,,*67
06/21/2015	17:03:13.628	$GPGGA,170314,2427.5058,N,08135.4055,W,1,11,1.4,18,M,,M,,*6C
06/21/2015	17:03:14.587	$GPGGA,170315,2427.5052,N,08135.4051,W,1,11,1.4,18,M,,M,,*63
06/21/2015	17:03:15.617	$GPGGA,170316,2427.5046,N,08135.4047,W,1,11,1.4,18,M,,M,,*62
06/21/2015	17:03:16.578	$GPGGA,170317,2427.5039,N,08135.4043,W,1,11,1.4,18,M,,M,,*6F
06/21/2015	17:03:17.597	$GPGGA,170318,2427.5033,N,08135.4039,W,1,11,1.4,18,M,,M,,*67
06/21/2015	17:03:18.587	$GPGGA,170319,2427.5025,N,08135.4036,W,1,11,1.4,18,M,,M,,*6E
06/21/2015	17:03:19.607	$GPGGA,170320,2427.5020,N,08135.4033,W,1,11,1.4,18,M,,M,,*64
06/21/2015	17:03:21.027	$GPGGA,170321,2427.5013,N,08135.4029,W,1,11,1.4,18,M,,M,,*6E
06/21/2015	17:03:21.568	$GPGGA,170322,2427.5005,N,08135.4024,W,1,11,1.4,18,M,,M,,*67
06/21/2015	17:03:22.567	$GPGGA,170323,2427.4998,N,08135.4021,W,1,11,1.4,18,M,,M,,*6F
06/21/2015	17:03:23.607	$GPGGA,170324,2427.4991,N,08135.4019,W,1,11,1.4,18,M,,M,,*6A
06/21/2015	17:03:24.580	$GPGGA,170325,2427.4984,N,08135.4015,W,1,11,1.4,18,M,,M,,*63
06/21/2015	17:03:25.598	$GPGGA,170326,2427.4977,N,08135.4010,W,1,11,1.4,18,M,,M,,*69
06/21/2015	17:03:26.572	$GPGGA,170327,2427.4969,N,08135.4007,W,1,11,1.4,18,M,,M,,*61
06/21/2015	17:03:27.598	$GPGGA,170328,2427.4962,N,08135.4005,W,1,11,1.4,18,M,,M,,*67
06/21/2015	17:03:28.568	$GPGGA,170329,2427.4955,N,08135.4002,W,1,11,1.4,18,M,,M,,*65
06/21/2015	17:03:29.578	$GPGGA,170330,2427.4948,N,08135.3996,W,1,11,1.4,17,M,,M,,*6D
06/21/2015	17:03:30.579	$GPGGA,170331,2427.4940,N,08135.3993,W,1,11,1.4,17,M,,M,,*61
06/21/2015	17:03:31.597	$GPGGA,170332,2427.4933,N,08135.3992,W,1,11,1.4,17,M,,M,,*67
06/21/2015	17:03:32.547	$GPGGA,170333,2427.4926,N,08135.3987,W,1,11,1.4,17,M,,M,,*66
06/21/2015	17:03:33.570	$GPGGA,170334,2427.4919,N,08135.3982,W,1,11,1.4,17,M,,M,,*68
06/21/2015	17:03:34.557	$GPGGA,170335,2427.4910,N,08135.3980,W,1,11,1.4,17,M,,M,,*62
06/21/2015	17:03:35.557	$GPGGA,170336,2427.4903,N,08135.3978,W,1,11,1.4,17,M,,M,,*64
06/21/2015	17:03:36.557	$GPGGA,170337,2427.4895,N,08135.3973,W,1,11,1.4,17,M,,M,,*60
06/21/2015	17:03:37.547	$GPGGA,170338,2427.4887,N,08135.3969,W,1,11,1.4,17,M,,M,,*67
06/21/2015	17:03:38.547	$GPGGA,170339,2427.4880,N,08135.3966,W,1,11,1.4,17,M,,M,,*6E
06/21/2015	17:03:39.547	$GPGGA,170340,2427.4872,N,08135.3963,W,1,11,1.4,17,M,,M,,*68
06/21/2015	17:03:40.557	$GPGGA,170341,2427.4865,N,08135.3958,W,1,11,1.4,17,M,,M,,*67
06/21/2015	17:03:41.537	$GPGGA,170342,2427.4857,N,08135.3955,W,1,11,1.4,17,M,,M,,*68
06/21/2015	17:03:42.527	$GPGGA,170343,2427.4850,N,08135.3951,W,1,11,1.4,17,M,,M,,*6A
06/21/2015	17:03:43.580	$GPGGA,170344,2427.4841,N,08135.3947,W,1,11,1.4,17,M,,M,,*6A
06/21/2015	17:03:44.648	$GPGGA,170345,2427.4833,N,08135.3943,W,1,11,1.4,17,M,,M,,*6A
06/21/2015	17:03:45.558	$GPGGA,170346,2427.4825,N,08135.3939,W,1,11,1.4,17,M,,M,,*63
06/21/2015	17:03:46.548	$GPGGA,170347,2427.4818,N,08135.3935,W,1,11,1.4,17,M,,M,,*60
06/21/2015	17:03:47.548	$GPGGA,170348,2427.4808,N,08135.3931,W,1,11,1.4,16,M,,M,,*6B
06/21/2015	17:03:48.637	$GPGGA,170349,2427.4800,N,08135.3926,W,1,11,1.5,16,M,,M,,*65
06/21/2015	17:03:49.647	$GPGGA,170350,2427.4792,N,08135.3922,W,1,11,1.4,16,M,,M,,*6C
06/21/2015	17:03:50.628	$GPGGA,170351,2427.4785,N,08135.3918,W,1,11,1.5,16,M,,M,,*63
06/21/2015	17:03:51.647	$GPGGA,170352,2427.4778,N,08135.3915,W,1,11,1.4,16,M,,M,,*6E
06/21/2015	17:03:52.527	$GPGGA,170353,2427.4771,N,08135.3912,W,1,11,1.4,16,M,,M,,*61
06/21/2015	17:03:53.527	$GPGGA,170354,2427.4762,N,08135.3908,W,1,11,1.4,16,M,,M,,*6F
06/21/2015	17:03:54.517	$GPGGA,170355,2427.4755,N,08135.3904,W,1,11,1.4,16,M,,M,,*66
06/21/2015	17:03:55.637	$GPGGA,170356,2427.4749,N,08135.3900,W,1,11,1.4,16,M,,M,,*6C
06/21/2015	17:03:56.627	$GPGGA,170357,2427.4739,N,08135.3896,W,1,11,1.4,16,M,,M,,*64
06/21/2015	17:03:57.607	$GPGGA,170358,2427.4731,N,08135.3891,W,1,10,1.5,16,M,,M,,*64
06/21/2015	17:03:58.517	$GPGGA,170359,2427.4724,N,08135.3886,W,1,10,1.4,16,M,,M,,*66
06/21/2015	17:04:00.618	$GPGGA,170401,2427.4706,N,08135.3877,W,1,11,1.4,16,M,,M,,*63
06/21/2015	17:04:01.628	$GPGGA,170402,2427.4698,N,08135.3872,W,1,11,1.4,16,M,,M,,*63
06/21/2015	17:04:02.608	$GPGGA,170403,2427.4691,N,08135.3869,W,1,11,1.5,16,M,,M,,*60
06/21/2015	17:04:03.598	$GPGGA,170404,2427.4682,N,08135.3866,W,1,11,1.4,16,M,,M,,*6B
06/21/2015	17:04:04.588	$GPGGA,170405,2427.4675,N,08135.3862,W,1,11,1.4,16,M,,M,,*66
06/21/2015	17:04:05.608	$GPGGA,170406,2427.4667,N,08135.3858,W,1,11,1.4,15,M,,M,,*6C
06/21/2015	17:04:06.577	$GPGGA,170407,2427.4659,N,08135.3855,W,1,11,1.4,15,M,,M,,*6D
06/21/2015	17:04:07.617	$GPGGA,170408,2427.4651,N,08135.3851,W,1,11,1.4,15,M,,M,,*6E
06/21/2015	17:04:08.579	$GPGGA,170409,2427.4644,N,08135.3847,W,1,11,1.4,15,M,,M,,*6C
06/21/2015	17:04:09.567	$GPGGA,170410,2427.4637,N,08135.3843,W,1,11,1.4,15,M,,M,,*64
06/21/2015	17:04:10.567	$GPGGA,170411,2427.4628,N,08135.3839,W,1,11,1.4,15,M,,M,,*66
06/21/2015	17:04:11.587	$GPGGA,170412,2427.4620,N,08135.3836,W,1,11,1.4,15,M,,M,,*62
06/21/2015	17:04:12.571	$GPGGA,170413,2427.4612,N,08135.3832,W,1,11,1.4,15,M,,M,,*66
06/21/2015	17:04:13.577	$GPGGA,170414,2427.4604,N,08135.3828,W,1,11,1.4,15,M,,M,,*6D
06/21/2015	17:04:14.547	$GPGGA,170415,2427.4597,N,08135.3824,W,1,11,1.4,15,M,,M,,*69
06/21/2015	17:04:15.597	$GPGGA,170416,2427.4588,N,08135.3821,W,1,11,1.4,15,M,,M,,*61
06/21/2015	17:04:16.568	$GPGGA,170417,2427.4580,N,08135.3817,W,1,11,1.4,15,M,,M,,*6D
06/21/2015	17:04:17.577	$GPGGA,170418,2427.4572,N,08135.3812,W,1,11,1.4,15,M,,M,,*6A
06/21/2015	17:04:18.547	$GPGGA,170419,2427.4565,N,08135.3809,W,1,11,1.4,15,M,,M,,*67
06/21/2015	17:04:19.587	$GPGGA,170420,2427.4556,N,08135.3806,W,1,11,1.4,15,M,,M,,*62
06/21/2015	17:04:20.557	$GPGGA,170421,2427.4548,N,08135.3801,W,1,11,1.4,15,M,,M,,*6B
06/21/2015	17:04:21.547	$GPGGA,170422,2427.4540,N,08135.3796,W,1,11,1.4,15,M,,M,,*61
06/21/2015	17:04:22.558	$GPGGA,170423,2427.4532,N,08135.3793,W,1,11,1.4,15,M,,M,,*60
06/21/2015	17:04:23.586	$GPGGA,170424,2427.4525,N,08135.3790,W,1,11,1.4,15,M,,M,,*62
06/21/2015	17:04:24.558	$GPGGA,170425,2427.4515,N,08135.3785,W,1,11,1.4,15,M,,M,,*64
06/21/2015	17:04:25.576	$GPGGA,170426,2427.4507,N,08135.3780,W,1,11,1.4,15,M,,M,,*61
06/21/2015	17:04:26.526	$GPGGA,170427,2427.4500,N,08135.3778,W,1,11,1.4,14,M,,M,,*61
06/21/2015	17:04:27.546	$GPGGA,170428,2427.4491,N,08135.3774,W,1,11,1.4,14,M,,M,,*6B
06/21/2015	17:04:28.537	$GPGGA,170429,2427.4483,N,08135.3768,W,1,11,1.4,14,M,,M,,*64
06/21/2015	17:04:29.560	$GPGGA,170430,2427.4474,N,08135.3764,W,1,11,1.4,14,M,,M,,*68
06/21/2015	17:04:30.527	$GPGGA,170431,2427.4467,N,08135.3761,W,1,11,1.4,14,M,,M,,*6E
06/21/2015	17:04:31.567	$GPGGA,170432,2427.4458,N,08135.3758,W,1,11,1.4,14,M,,M,,*6B
06/21/2015	17:04:32.527	$GPGGA,170433,2427.4450,N,08135.3752,W,1,11,1.4,14,M,,M,,*68
06/21/2015	17:04:33.537	$GPGGA,170434,2427.4442,N,08135.3748,W,1,11,1.4,14,M,,M,,*67
06/21/2015	17:04:34.507	$GPGGA,170435,2427.4435,N,08135.3746,W,1,11,1.4,14,M,,M,,*68
06/21/2015	17:04:35.597	$GPGGA,170436,2427.4426,N,08135.3742,W,1,11,1.4,14,M,,M,,*6D
06/21/2015	17:04:36.507	$GPGGA,170437,2427.4418,N,08135.3737,W,1,11,1.4,14,M,,M,,*63
06/21/2015	17:04:37.517	$GPGGA,170438,2427.4409,N,08135.3733,W,1,10,1.5,14,M,,M,,*68
06/21/2015	17:04:38.507	$GPGGA,170439,2427.4402,N,08135.3730,W,1,10,1.5,14,M,,M,,*61
06/21/2015	17:04:39.617	$GPGGA,170440,2427.4393,N,08135.3725,W,1,11,1.4,14,M,,M,,*64
06/21/2015	17:04:40.497	$GPGGA,170441,2427.4385,N,08135.3722,W,1,11,1.4,14,M,,M,,*65
06/21/2015	17:04:41.696	$GPGGA,170442,2427.4378,N,08135.3719,W,1,11,1.4,14,M,,M,,*6C
06/21/2015	17:04:42.516	$GPGGA,170443,2427.4370,N,08135.3714,W,1,11,1.4,14,M,,M,,*68
06/21/2015	17:04:43.996	$GPGGA,170444,2427.4361,N,08135.3709,W,1,10,1.5,14,M,,M,,*63
06/21/2015	17:04:44.516	$GPGGA,170445,2427.4352,N,08135.3706,W,1,10,1.5,14,M,,M,,*6D
06/21/2015	17:04:45.687	$GPGGA,170446,2427.4344,N,08135.3701,W,1,11,1.5,14,M,,M,,*6F
06/21/2015	17:04:46.507	$GPGGA,170447,2427.4337,N,08135.3697,W,1,11,1.5,14,M,,M,,*64
06/21/2015	17:04:47.697	$GPGGA,170448,2427.4328,N,08135.3694,W,1,11,1.5,14,M,,M,,*66
06/21/2015	17:04:48.597	$GPGGA,170449,2427.4319,N,08135.3689,W,1,11,1.5,14,M,,M,,*69
06/21/2015	17:04:49.577	$GPGGA,170450,2427.4312,N,08135.3685,W,1,10,1.5,14,M,,M,,*67
06/21/2015	17:04:50.577	$GPGGA,170451,2427.4305,N,08135.3681,W,1,10,1.4,14,M,,M,,*65
06/21/2015	17:04:51.687	$GPGGA,170452,2427.4296,N,08135.3677,W,1,11,1.4,13,M,,M,,*62
06/21/2015	17:04:52.607	$GPGGA,170453,2427.4287,N,08135.3672,W,1,11,1.4,13,M,,M,,*66
06/21/2015	17:04:53.677	$GPGGA,170454,2427.4279,N,08135.3668,W,1,11,1.4,13,M,,M,,*6B
06/21/2015	17:04:54.567	$GPGGA,170455,2427.4272,N,08135.3663,W,1,11,1.4,13,M,,M,,*6A
06/21/2015	17:04:55.707	$GPGGA,170456,2427.4265,N,08135.3660,W,1,10,1.4,13,M,,M,,*6D
06/21/2015	17:04:56.567	$GPGGA,170457,2427.4258,N,08135.3657,W,1,10,1.4,13,M,,M,,*66
06/21/2015	17:04:57.687	$GPGGA,170458,2427.4250,N,08135.3652,W,1,11,1.4,13,M,,M,,*65
06/21/2015	17:04:58.596	$GPGGA,170459,2427.4241,N,08135.3646,W,1,11,1.7,13,M,,M,,*62
06/21/2015	17:04:59.696	$GPGGA,170500,2427.4233,N,08135.3642,W,1,9,1.7,13,M,,M,,*57
06/21/2015	17:05:00.606	$GPGGA,170501,2427.4225,N,08135.3638,W,1,9,1.4,13,M,,M,,*5F
06/21/2015	17:05:01.568	$GPGGA,170502,2427.4218,N,08135.3633,W,1,10,1.5,13,M,,M,,*60
06/21/2015	17:05:02.596	$GPGGA,170503,2427.4209,N,08135.3628,W,1,10,1.4,13,M,,M,,*6A
06/21/2015	17:05:03.677	$GPGGA,170504,2427.4203,N,08135.3626,W,1,11,1.4,13,M,,M,,*68
06/21/2015	17:05:04.587	$GPGGA,170505,2427.4196,N,08135.3622,W,1,11,1.4,13,M,,M,,*62
06/21/2015	17:05:05.547	$GPGGA,170506,2427.4189,N,08135.3618,W,1,11,1.4,13,M,,M,,*66
06/21/2015	17:05:06.577	$GPGGA,170507,2427.4183,N,08135.3614,W,1,11,1.4,13,M,,M,,*61
06/21/2015	17:05:07.677	$GPGGA,170508,2427.4175,N,08135.3611,W,1,11,1.4,13,M,,M,,*62
06/21/2015	17:05:08.577	$GPGGA,170509,2427.4167,N,08135.3606,W,1,11,1.4,14,M,,M,,*61
06/21/2015	17:05:09.537	$GPGGA,170510,2427.4160,N,08135.3601,W,1,11,1.4,14,M,,M,,*69
06/21/2015	17:05:10.577	$GPGGA,170511,2427.4153,N,08135.3597,W,1,11,1.4,14,M,,M,,*64
06/21/2015	17:05:11.764	$GPGGA,170512,2427.4144,N,08135.3593,W,1,11,1.4,14,M,,M,,*65
06/21/2015	17:05:12.567	$GPGGA,170513,2427.4137,N,08135.3588,W,1,11,1.4,14,M,,M,,*6A
06/21/2015	17:05:13.537	$GPGGA,170514,2427.4129,N,08135.3583,W,1,11,1.4,14,M,,M,,*69
06/21/2015	17:05:14.577	$GPGGA,170515,2427.4121,N,08135.3579,W,1,11,1.4,14,M,,M,,*65
06/21/2015	17:05:15.677	$GPGGA,170516,2427.4114,N,08135.3574,W,1,11,1.4,14,M,,M,,*6D
06/21/2015	17:05:16.558	$GPGGA,170517,2427.4106,N,08135.3568,W,1,11,1.4,14,M,,M,,*62
06/21/2015	17:05:17.636	$GPGGA,170518,2427.4097,N,08135.3564,W,1,10,1.4,14,M,,M,,*69
06/21/2015	17:05:18.526	$GPGGA,170519,2427.4089,N,08135.3559,W,1,10,1.4,14,M,,M,,*69
06/21/2015	17:05:19.646	$GPGGA,170520,2427.4081,N,08135.3553,W,1,11,1.4,14,M,,M,,*60
06/21/2015	17:05:20.568	$GPGGA,170521,2427.4073,N,08135.3547,W,1,11,1.4,15,M,,M,,*68
06/21/2015	17:05:21.597	$GPGGA,170522,2427.4066,N,08135.3543,W,1,11,1.4,15,M,,M,,*6B
06/21/2015	17:05:22.547	$GPGGA,170523,2427.4057,N,08135.3539,W,1,11,1.4,15,M,,M,,*65
06/21/2015	17:05:23.647	$GPGGA,170524,2427.4049,N,08135.3533,W,1,11,1.4,15,M,,M,,*67
06/21/2015	17:05:24.547	$GPGGA,170525,2427.4041,N,08135.3529,W,1,11,1.4,15,M,,M,,*65
06/21/2015	17:05:25.617	$GPGGA,170526,2427.4034,N,08135.3524,W,1,11,1.4,15,M,,M,,*69
06/21/2015	17:05:26.507	$GPGGA,170527,2427.4025,N,08135.3520,W,1,11,1.4,15,M,,M,,*6C
06/21/2015	17:05:27.608	$GPGGA,170528,2427.4018,N,08135.3515,W,1,11,1.4,15,M,,M,,*6B
06/21/2015	17:05:29.037	$GPGGA,170529,2427.4010,N,08135.3509,W,1,11,1.4,15,M,,M,,*6F
06/21/2015	17:05:29.661	$GPGGA,170530,2427.4002,N,08135.3504,W,1,11,1.4,15,M,,M,,*69
06/21/2015	17:05:30.557	$GPGGA,170531,2427.3994,N,08135.3500,W,1,11,1.4,15,M,,M,,*6D
06/21/2015	17:05:31.607	$GPGGA,170532,2427.3985,N,08135.3494,W,1,11,1.4,15,M,,M,,*62
06/21/2015	17:05:32.527	$GPGGA,170533,2427.3977,N,08135.3488,W,1,11,1.5,15,M,,M,,*62
06/21/2015	17:05:33.666	$GPGGA,170534,2427.3969,N,08135.3483,W,1,10,1.4,15,M,,M,,*61
06/21/2015	17:05:34.596	$GPGGA,170535,2427.3960,N,08135.3477,W,1,10,1.4,15,M,,M,,*62
06/21/2015	17:05:35.646	$GPGGA,170536,2427.3952,N,08135.3472,W,1,11,1.4,15,M,,M,,*64
06/21/2015	17:05:36.536	$GPGGA,170537,2427.3943,N,08135.3466,W,1,11,1.4,15,M,,M,,*60
06/21/2015	17:05:37.586	$GPGGA,170538,2427.3936,N,08135.3461,W,1,11,1.4,15,M,,M,,*6A
06/21/2015	17:05:38.577	$GPGGA,170539,2427.3927,N,08135.3456,W,1,11,1.4,15,M,,M,,*6F
06/21/2015	17:05:39.637	$GPGGA,170540,2427.3918,N,08135.3451,W,1,11,1.6,15,M,,M,,*68
06/21/2015	17:05:40.587	$GPGGA,170541,2427.3911,N,08135.3445,W,1,11,1.4,15,M,,M,,*67
06/21/2015	17:05:41.597	$GPGGA,170542,2427.3900,N,08135.3439,W,1,11,1.4,15,M,,M,,*6F
06/21/2015	17:05:42.577	$GPGGA,170543,2427.3893,N,08135.3435,W,1,11,1.6,15,M,,M,,*6B
06/21/2015	17:05:43.617	$GPGGA,170544,2427.3883,N,08135.3429,W,1,10,1.6,15,M,,M,,*61
06/21/2015	17:05:44.577	$GPGGA,170545,2427.3876,N,08135.3425,W,1,10,1.4,15,M,,M,,*64
06/21/2015	17:05:45.647	$GPGGA,170546,2427.3867,N,08135.3420,W,1,11,1.6,15,M,,M,,*61
06/21/2015	17:05:46.567	$GPGGA,170547,2427.3859,N,08135.3414,W,1,11,1.4,15,M,,M,,*68
06/21/2015	17:05:47.667	$GPGGA,170548,2427.3859,N,08135.3414,W,1,11,1.4,15,M,,M,,*67
06/21/2015	17:05:48.577	$GPGGA,170549,2427.3842,N,08135.3404,W,1,11,1.4,15,M,,M,,*6D
06/21/2015	17:05:49.597	$GPGGA,170550,2427.3842,N,08135.3404,W,1,11,1.4,15,M,,M,,*65
06/21/2015	17:05:50.567	$GPGGA,170551,2427.3824,N,08135.3394,W,1,11,1.4,15,M,,M,,*6A
06/21/2015	17:05:51.606	$GPGGA,170552,2427.3817,N,08135.3389,W,1,11,1.4,15,M,,M,,*65
06/21/2015	17:05:52.556	$GPGGA,170553,2427.3807,N,08135.3384,W,1,11,1.4,15,M,,M,,*68
06/21/2015	17:05:53.596	$GPGGA,170554,2427.3799,N,08135.3379,W,1,11,1.4,15,M,,M,,*65
06/21/2015	17:05:54.556	$GPGGA,170555,2427.3789,N,08135.3374,W,1,11,1.5,15,M,,M,,*69
06/21/2015	17:05:55.658	$GPGGA,170556,2427.3781,N,08135.3368,W,1,10,1.5,14,M,,M,,*6F
06/21/2015	17:05:57.297	$GPGGA,170557,2427.3771,N,08135.3363,W,1,10,1.5,14,M,,M,,*6A
06/21/2015	17:05:57.587	$GPGGA,170558,2427.3763,N,08135.3358,W,1,10,1.5,14,M,,M,,*6E
06/21/2015	17:05:58.557	$GPGGA,170559,2427.3753,N,08135.3353,W,1,10,1.4,14,M,,M,,*66
06/21/2015	17:05:59.617	$GPGGA,170600,2427.3745,N,08135.3348,W,1,11,1.4,14,M,,M,,*65
06/21/2015	17:06:00.563	$GPGGA,170601,2427.3736,N,08135.3344,W,1,11,1.4,14,M,,M,,*6C
06/21/2015	17:06:01.577	$GPGGA,170602,2427.3727,N,08135.3340,W,1,11,1.4,14,M,,M,,*6B
06/21/2015	17:06:02.547	$GPGGA,170603,2427.3719,N,08135.3336,W,1,11,1.4,14,M,,M,,*66
06/21/2015	17:06:03.647	$GPGGA,170604,2427.3710,N,08135.3331,W,1,11,1.4,14,M,,M,,*6F
06/21/2015	17:06:04.537	$GPGGA,170605,2427.3702,N,08135.3328,W,1,11,1.4,14,M,,M,,*65
06/21/2015	17:06:05.607	$GPGGA,170606,2427.3694,N,08135.3323,W,1,11,1.4,14,M,,M,,*63
06/21/2015	17:06:06.537	$GPGGA,170607,2427.3685,N,08135.3318,W,1,11,1.4,14,M,,M,,*6A
06/21/2015	17:06:07.607	$GPGGA,170608,2427.3676,N,08135.3314,W,1,11,1.4,14,M,,M,,*65
06/21/2015	17:06:08.536	$GPGGA,170609,2427.3667,N,08135.3310,W,1,11,1.4,13,M,,M,,*67
06/21/2015	17:06:10.597	$GPGGA,170611,2427.3649,N,08135.3301,W,1,11,1.4,13,M,,M,,*62
06/21/2015	17:06:11.560	$GPGGA,170612,2427.3641,N,08135.3296,W,1,11,1.4,13,M,,M,,*66
06/21/2015	17:06:12.536	$GPGGA,170613,2427.3633,N,08135.3292,W,1,11,1.4,13,M,,M,,*66
06/21/2015	17:06:13.527	$GPGGA,170614,2427.3633,N,08135.3292,W,1,11,1.4,13,M,,M,,*61
06/21/2015	17:06:14.607	$GPGGA,170615,2427.3615,N,08135.3283,W,1,11,1.4,13,M,,M,,*64
06/21/2015	17:06:15.660	$GPGGA,170616,2427.3615,N,08135.3283,W,1,11,1.4,13,M,,M,,*67
06/21/2015	17:06:16.527	$GPGGA,170617,2427.3597,N,08135.3275,W,1,11,1.4,13,M,,M,,*66
06/21/2015	17:06:17.527	$GPGGA,170618,2427.3588,N,08135.3269,W,1,11,1.4,13,M,,M,,*6A
06/21/2015	17:06:18.607	$GPGGA,170619,2427.3579,N,08135.3265,W,1,11,1.4,13,M,,M,,*69
06/21/2015	17:06:19.647	$GPGGA,170620,2427.3571,N,08135.3263,W,1,11,1.4,13,M,,M,,*6D
06/21/2015	17:06:20.527	$GPGGA,170621,2427.3562,N,08135.3257,W,1,11,1.4,13,M,,M,,*69
06/21/2015	17:06:21.637	$GPGGA,170622,2427.3553,N,08135.3251,W,1,11,1.4,13,M,,M,,*6E
06/21/2015	17:06:22.517	$GPGGA,170623,2427.3544,N,08135.3249,W,1,11,1.4,13,M,,M,,*60
06/21/2015	17:06:23.627	$GPGGA,170624,2427.3535,N,08135.3245,W,1,11,1.4,13,M,,M,,*6D
06/21/2015	17:06:24.507	$GPGGA,170625,2427.3526,N,08135.3239,W,1,11,1.4,13,M,,M,,*65
06/21/2015	17:06:25.907	$GPGGA,170626,2427.3526,N,08135.3239,W,1,11,1.4,13,M,,M,,*66
06/21/2015	17:06:26.586	$GPGGA,170627,2427.3510,N,08135.3231,W,1,11,1.5,13,M,,M,,*6B
06/21/2015	17:06:27.626	$GPGGA,170628,2427.3500,N,08135.3228,W,1,11,1.4,13,M,,M,,*6C
06/21/2015	17:06:28.596	$GPGGA,170629,2427.3492,N,08135.3222,W,1,11,1.4,13,M,,M,,*6D
06/21/2015	17:06:29.596	$GPGGA,170630,2427.3482,N,08135.3216,W,1,11,1.4,13,M,,M,,*63
06/21/2015	17:06:30.577	$GPGGA,170631,2427.3474,N,08135.3213,W,1,11,1.5,13,M,,M,,*6F
06/21/2015	17:06:31.627	$GPGGA,170632,2427.3465,N,08135.3209,W,1,11,1.4,13,M,,M,,*66
06/21/2015	17:06:32.577	$GPGGA,170633,2427.3456,N,08135.3204,W,1,11,1.5,13,M,,M,,*6B
06/21/2015	17:06:33.597	$GPGGA,170634,2427.3448,N,08135.3199,W,1,10,1.5,13,M,,M,,*65
06/21/2015	17:06:35.617	$GPGGA,170636,2427.3431,N,08135.3191,W,1,11,1.4,13,M,,M,,*61
06/21/2015	17:06:36.577	$GPGGA,170637,2427.3423,N,08135.3186,W,1,11,1.4,13,M,,M,,*65
06/21/2015	17:06:37.587	$GPGGA,170638,2427.3414,N,08135.3181,W,1,11,1.4,13,M,,M,,*69
06/21/2015	17:06:38.571	$GPGGA,170639,2427.3405,N,08135.3176,W,1,11,1.4,13,M,,M,,*60
06/21/2015	17:06:39.607	$GPGGA,170640,2427.3396,N,08135.3171,W,1,10,1.6,13,M,,M,,*67
06/21/2015	17:06:40.557	$GPGGA,170641,2427.3388,N,08135.3167,W,1,10,1.7,13,M,,M,,*6F
06/21/2015	17:06:41.558	$GPGGA,170642,2427.3380,N,08135.3163,W,1,11,1.4,13,M,,M,,*62
06/21/2015	17:06:42.547	$GPGGA,170643,2427.3371,N,08135.3156,W,1,11,1.4,13,M,,M,,*6B
06/21/2015	17:06:43.586	$GPGGA,170644,2427.3363,N,08135.3152,W,1,10,1.6,13,M,,M,,*68
06/21/2015	17:06:44.566	$GPGGA,170645,2427.3355,N,08135.3148,W,1,10,1.4,13,M,,M,,*65
06/21/2015	17:06:45.576	$GPGGA,170646,2427.3346,N,08135.3142,W,1,10,1.6,13,M,,M,,*6C
06/21/2015	17:06:46.556	$GPGGA,170647,2427.3337,N,08135.3137,W,1,10,1.6,13,M,,M,,*69
06/21/2015	17:06:47.576	$GPGGA,170648,2427.3330,N,08135.3133,W,1,10,1.6,13,M,,M,,*65
06/21/2015	17:06:48.557	$GPGGA,170649,2427.3322,N,08135.3128,W,1,10,1.4,13,M,,M,,*6F
06/21/2015	17:06:49.537	$GPGGA,170650,2427.3315,N,08135.3123,W,1,11,1.4,13,M,,M,,*69
06/21/2015	17:06:50.557	$GPGGA,170651,2427.3306,N,08135.3119,W,1,11,1.4,13,M,,M,,*63
06/21/2015	17:06:51.577	$GPGGA,170652,2427.3298,N,08135.3114,W,1,11,1.4,13,M,,M,,*6B
06/21/2015	17:06:52.547	$GPGGA,170653,2427.3290,N,08135.3109,W,1,11,1.4,13,M,,M,,*6E
06/21/2015	17:06:53.577	$GPGGA,170654,2427.3282,N,08135.3104,W,1,11,1.4,13,M,,M,,*67
06/21/2015	17:06:54.527	$GPGGA,170655,2427.3273,N,08135.3098,W,1,11,1.4,13,M,,M,,*6C
06/21/2015	17:06:55.587	$GPGGA,170656,2427.3264,N,08135.3094,W,1,11,1.4,13,M,,M,,*65
06/21/2015	17:06:56.547	$GPGGA,170657,2427.3257,N,08135.3090,W,1,11,1.4,13,M,,M,,*60
06/21/2015	17:06:57.537	$GPGGA,170658,2427.3248,N,08135.3084,W,1,11,1.4,13,M,,M,,*64
06/21/2015	17:06:58.537	$GPGGA,170659,2427.3239,N,08135.3077,W,1,11,1.4,13,M,,M,,*6F
06/21/2015	17:06:59.677	$GPGGA,170700,2427.3232,N,08135.3074,W,1,10,1.5,14,M,,M,,*6D
06/21/2015	17:07:00.537	$GPGGA,170701,2427.3223,N,08135.3069,W,1,10,1.4,14,M,,M,,*61
06/21/2015	17:07:01.546	$GPGGA,170702,2427.3215,N,08135.3063,W,1,11,1.4,14,M,,M,,*6C
06/21/2015	17:07:02.516	$GPGGA,170703,2427.3207,N,08135.3057,W,1,11,1.4,14,M,,M,,*69
06/21/2015	17:07:03.546	$GPGGA,170704,2427.3200,N,08135.3055,W,1,10,1.5,14,M,,M,,*6B
06/21/2015	17:07:04.516	$GPGGA,170705,2427.3192,N,08135.3050,W,1,10,1.4,14,M,,M,,*66
06/21/2015	17:07:05.638	$GPGGA,170706,2427.3183,N,08135.3043,W,1,11,1.4,14,M,,M,,*66
06/21/2015	17:07:06.517	$GPGGA,170707,2427.3175,N,08135.3038,W,1,11,1.5,14,M,,M,,*63
06/21/2015	17:07:07.559	$GPGGA,170708,2427.3167,N,08135.3033,W,1,11,1.4,14,M,,M,,*65
06/21/2015	17:07:08.517	$GPGGA,170709,2427.3159,N,08135.3028,W,1,11,1.6,14,M,,M,,*61
06/21/2015	17:07:09.607	$GPGGA,170710,2427.3152,N,08135.3024,W,1,11,1.4,14,M,,M,,*6C
06/21/2015	17:07:10.517	$GPGGA,170711,2427.3145,N,08135.3020,W,1,11,1.4,14,M,,M,,*6F
06/21/2015	17:07:11.647	$GPGGA,170712,2427.3138,N,08135.3013,W,1,11,1.4,14,M,,M,,*66
06/21/2015	17:07:12.517	$GPGGA,170713,2427.3129,N,08135.3008,W,1,11,1.4,14,M,,M,,*6D
06/21/2015	17:07:13.507	$GPGGA,170714,2427.3120,N,08135.3004,W,1,10,1.5,15,M,,M,,*6E
06/21/2015	17:07:14.587	$GPGGA,170715,2427.3110,N,08135.2997,W,1,10,1.4,15,M,,M,,*6F
06/21/2015	17:07:15.637	$GPGGA,170716,2427.3102,N,08135.2990,W,1,11,1.4,15,M,,M,,*69
06/21/2015	17:07:16.597	$GPGGA,170717,2427.3093,N,08135.2985,W,1,11,1.6,15,M,,M,,*67
06/21/2015	17:07:17.617	$GPGGA,170718,2427.3084,N,08135.2981,W,1,11,1.4,15,M,,M,,*68
06/21/2015	17:07:18.586	$GPGGA,170719,2427.3075,N,08135.2975,W,1,11,1.6,15,M,,M,,*6E
06/21/2015	17:07:19.587	$GPGGA,170720,2427.3066,N,08135.2968,W,1,10,1.6,15,M,,M,,*6B
06/21/2015	17:07:20.586	$GPGGA,170721,2427.3057,N,08135.2963,W,1,10,1.6,15,M,,M,,*63
06/21/2015	17:07:21.596	$GPGGA,170722,2427.3049,N,08135.2959,W,1,10,1.6,15,M,,M,,*66
06/21/2015	17:07:22.566	$GPGGA,170723,2427.3040,N,08135.2952,W,1,10,1.6,15,M,,M,,*65
06/21/2015	17:07:23.617	$GPGGA,170724,2427.3031,N,08135.2947,W,1,10,1.6,15,M,,M,,*60
06/21/2015	17:07:24.577	$GPGGA,170725,2427.3023,N,08135.2942,W,1,10,1.4,15,M,,M,,*65
06/21/2015	17:07:25.567	$GPGGA,170726,2427.3016,N,08135.2938,W,1,10,1.6,15,M,,M,,*6F
06/21/2015	17:07:26.567	$GPGGA,170727,2427.3008,N,08135.2933,W,1,10,1.4,15,M,,M,,*68
06/21/2015	17:07:27.617	$GPGGA,170728,2427.2999,N,08135.2927,W,1,11,1.4,15,M,,M,,*63
06/21/2015	17:07:28.577	$GPGGA,170729,2427.2990,N,08135.2922,W,1,11,1.6,15,M,,M,,*6C
06/21/2015	17:07:29.577	$GPGGA,170730,2427.2982,N,08135.2917,W,1,10,1.6,14,M,,M,,*61
06/21/2015	17:07:30.567	$GPGGA,170731,2427.2975,N,08135.2912,W,1,10,1.4,14,M,,M,,*6F
06/21/2015	17:07:31.587	$GPGGA,170732,2427.2965,N,08135.2908,W,1,11,1.4,14,M,,M,,*67
06/21/2015	17:07:32.567	$GPGGA,170733,2427.2957,N,08135.2903,W,1,11,1.4,14,M,,M,,*6C
06/21/2015	17:07:33.563	$GPGGA,170734,2427.2950,N,08135.2897,W,1,11,1.4,14,M,,M,,*60
06/21/2015	17:07:34.557	$GPGGA,170735,2427.2941,N,08135.2894,W,1,11,1.4,14,M,,M,,*62
06/21/2015	17:07:35.557	$GPGGA,170736,2427.2933,N,08135.2889,W,1,11,1.4,14,M,,M,,*68
06/21/2015	17:07:36.546	$GPGGA,170737,2427.2924,N,08135.2884,W,1,11,1.4,14,M,,M,,*62
06/21/2015	17:07:37.546	$GPGGA,170738,2427.2915,N,08135.2878,W,1,10,1.5,14,M,,M,,*6C
06/21/2015	17:07:38.558	$GPGGA,170739,2427.2907,N,08135.2874,W,1,10,1.5,14,M,,M,,*62
06/21/2015	17:07:39.586	$GPGGA,170740,2427.2899,N,08135.2870,W,1,10,1.5,14,M,,M,,*6E
06/21/2015	17:07:40.538	$GPGGA,170741,2427.2892,N,08135.2865,W,1,10,1.4,14,M,,M,,*61
06/21/2015	17:07:41.537	$GPGGA,170742,2427.2883,N,08135.2861,W,1,11,1.4,14,M,,M,,*67
06/21/2015	17:07:42.547	$GPGGA,170743,2427.2875,N,08135.2857,W,1,11,1.4,14,M,,M,,*6A
06/21/2015	17:07:43.567	$GPGGA,170744,2427.2867,N,08135.2853,W,1,11,1.4,14,M,,M,,*6A
06/21/2015	17:07:44.527	$GPGGA,170745,2427.2859,N,08135.2848,W,1,11,1.4,14,M,,M,,*6C
06/21/2015	17:07:45.557	$GPGGA,170746,2427.2851,N,08135.2844,W,1,11,1.4,14,M,,M,,*6B
06/21/2015	17:07:46.627	$GPGGA,170747,2427.2843,N,08135.2840,W,1,11,1.4,14,M,,M,,*6D
06/21/2015	17:07:47.547	$GPGGA,170748,2427.2834,N,08135.2836,W,1,11,1.4,14,M,,M,,*63
06/21/2015	17:07:48.518	$GPGGA,170749,2427.2827,N,08135.2831,W,1,11,1.4,14,M,,M,,*67
06/21/2015	17:07:49.617	$GPGGA,170750,2427.2818,N,08135.2827,W,1,11,1.4,14,M,,M,,*64
06/21/2015	17:07:50.517	$GPGGA,170751,2427.2810,N,08135.2822,W,1,11,1.4,14,M,,M,,*68
06/21/2015	17:07:51.637	$GPGGA,170752,2427.2802,N,08135.2818,W,1,11,1.4,14,M,,M,,*61
06/21/2015	17:07:52.537	$GPGGA,170753,2427.2793,N,08135.2813,W,1,11,1.4,14,M,,M,,*6C
06/21/2015	17:07:53.786	$GPGGA,170754,2427.2784,N,08135.2809,W,1,11,1.4,14,M,,M,,*66
06/21/2015	17:07:54.516	$GPGGA,170755,2427.2776,N,08135.2804,W,1,11,1.4,14,M,,M,,*67
06/21/2015	17:07:55.616	$GPGGA,170756,2427.2767,N,08135.2800,W,1,11,1.4,14,M,,M,,*60
06/21/2015	17:07:56.516	$GPGGA,170757,2427.2758,N,08135.2796,W,1,11,1.4,14,M,,M,,*6D
06/21/2015	17:07:57.516	$GPGGA,170758,2427.2749,N,08135.2791,W,1,11,1.4,14,M,,M,,*65
06/21/2015	17:07:58.517	$GPGGA,170759,2427.2741,N,08135.2786,W,1,11,1.4,14,M,,M,,*6A
06/21/2015	17:07:59.617	$GPGGA,170800,2427.2733,N,08135.2782,W,1,11,1.4,14,M,,M,,*68
06/21/2015	17:08:00.597	$GPGGA,170801,2427.2723,N,08135.2777,W,1,11,1.4,14,M,,M,,*62
06/21/2015	17:08:01.627	$GPGGA,170802,2427.2715,N,08135.2773,W,1,11,1.4,14,M,,M,,*60
06/21/2015	17:08:02.517	$GPGGA,170803,2427.2706,N,08135.2768,W,1,11,1.4,14,M,,M,,*69
06/21/2015	17:08:03.637	$GPGGA,170804,2427.2697,N,08135.2763,W,1,11,1.4,14,M,,M,,*6C
06/21/2015	17:08:04.587	$GPGGA,170805,2427.2688,N,08135.2759,W,1,11,1.4,14,M,,M,,*6A
06/21/2015	17:08:05.627	$GPGGA,170806,2427.2679,N,08135.2754,W,1,11,1.4,14,M,,M,,*6A
06/21/2015	17:08:06.577	$GPGGA,170807,2427.2672,N,08135.2750,W,1,11,1.4,14,M,,M,,*64
06/21/2015	17:08:07.627	$GPGGA,170808,2427.2662,N,08135.2745,W,1,11,1.4,14,M,,M,,*6E
06/21/2015	17:08:08.577	$GPGGA,170809,2427.2654,N,08135.2739,W,1,11,1.4,14,M,,M,,*61
06/21/2015	17:08:09.607	$GPGGA,170810,2427.2644,N,08135.2735,W,1,10,1.5,14,M,,M,,*64
06/21/2015	17:08:10.577	$GPGGA,170811,2427.2635,N,08135.2732,W,1,10,1.4,14,M,,M,,*65
06/21/2015	17:08:11.586	$GPGGA,170812,2427.2626,N,08135.2726,W,1,11,1.4,14,M,,M,,*60
06/21/2015	17:08:12.576	$GPGGA,170813,2427.2618,N,08135.2721,W,1,11,1.5,14,M,,M,,*6A
06/21/2015	17:08:13.586	$GPGGA,170814,2427.2610,N,08135.2718,W,1,11,1.4,14,M,,M,,*6E
06/21/2015	17:08:14.867	$GPGGA,170815,2427.2601,N,08135.2713,W,1,11,1.4,14,M,,M,,*64
06/21/2015	17:08:15.587	$GPGGA,170816,2427.2594,N,08135.2709,W,1,10,1.5,14,M,,M,,*63
06/21/2015	17:08:16.577	$GPGGA,170817,2427.2585,N,08135.2703,W,1,10,1.4,14,M,,M,,*69
06/21/2015	17:08:17.587	$GPGGA,170818,2427.2576,N,08135.2699,W,1,10,1.6,14,M,,M,,*6A
06/21/2015	17:08:18.558	$GPGGA,170819,2427.2568,N,08135.2696,W,1,10,1.6,14,M,,M,,*6B
06/21/2015	17:08:19.597	$GPGGA,170820,2427.2560,N,08135.2690,W,1,11,1.4,14,M,,M,,*6C
06/21/2015	17:08:20.562	$GPGGA,170821,2427.2551,N,08135.2685,W,1,11,1.6,14,M,,M,,*69
06/21/2015	17:08:21.607	$GPGGA,170822,2427.2544,N,08135.2681,W,1,10,1.6,14,M,,M,,*6B
06/21/2015	17:08:22.569	$GPGGA,170823,2427.2535,N,08135.2676,W,1,10,1.6,14,M,,M,,*64
06/21/2015	17:08:23.557	$GPGGA,170824,2427.2527,N,08135.2671,W,1,10,1.6,14,M,,M,,*67
06/21/2015	17:08:24.559	$GPGGA,170825,2427.2520,N,08135.2667,W,1,10,1.4,14,M,,M,,*64
06/21/2015	17:08:25.537	$GPGGA,170826,2427.2513,N,08135.2663,W,1,11,1.4,14,M,,M,,*62
06/21/2015	17:08:26.557	$GPGGA,170827,2427.2505,N,08135.2658,W,1,11,1.4,14,M,,M,,*6C
06/21/2015	17:08:27.587	$GPGGA,170828,2427.2496,N,08135.2652,W,1,11,1.4,14,M,,M,,*62
06/21/2015	17:08:28.546	$GPGGA,170829,2427.2489,N,08135.2648,W,1,11,1.4,14,M,,M,,*66
06/21/2015	17:08:29.536	$GPGGA,170830,2427.2481,N,08135.2642,W,1,11,1.4,14,M,,M,,*6C
06/21/2015	17:08:30.546	$GPGGA,170831,2427.2473,N,08135.2636,W,1,11,1.5,14,M,,M,,*62
06/21/2015	17:08:31.546	$GPGGA,170832,2427.2466,N,08135.2632,W,1,10,1.5,14,M,,M,,*60
06/21/2015	17:08:32.546	$GPGGA,170833,2427.2458,N,08135.2629,W,1,10,1.5,14,M,,M,,*66
06/21/2015	17:08:33.561	$GPGGA,170834,2427.2449,N,08135.2622,W,1,11,1.4,14,M,,M,,*6A
06/21/2015	17:08:34.547	$GPGGA,170835,2427.2442,N,08135.2617,W,1,11,1.5,14,M,,M,,*67
06/21/2015	17:08:35.557	$GPGGA,170836,2427.2433,N,08135.2612,W,1,11,1.4,14,M,,M,,*66
06/21/2015	17:08:36.537	$GPGGA,170837,2427.2426,N,08135.2607,W,1,11,1.5,14,M,,M,,*66
06/21/2015	17:08:37.517	$GPGGA,170838,2427.2416,N,08135.2603,W,1,10,1.7,15,M,,M,,*6C
06/21/2015	17:08:38.637	$GPGGA,170839,2427.2408,N,08135.2599,W,1,10,1.4,15,M,,M,,*61
06/21/2015	17:08:39.647	$GPGGA,170840,2427.2398,N,08135.2595,W,1,11,1.4,15,M,,M,,*6C
06/21/2015	17:08:40.527	$GPGGA,170841,2427.2390,N,08135.2591,W,1,11,1.5,15,M,,M,,*60
06/21/2015	17:08:41.507	$GPGGA,170842,2427.2383,N,08135.2585,W,1,11,1.5,15,M,,M,,*64
06/21/2015	17:08:42.627	$GPGGA,170843,2427.2373,N,08135.2582,W,1,11,1.8,15,M,,M,,*60
06/21/2015	17:08:43.537	$GPGGA,170844,2427.2365,N,08135.2576,W,1,11,1.5,15,M,,M,,*66
06/21/2015	17:08:44.517	$GPGGA,170845,2427.2356,N,08135.2571,W,1,11,1.5,15,M,,M,,*60
06/21/2015	17:08:45.527	$GPGGA,170846,2427.2348,N,08135.2566,W,1,10,1.7,15,M,,M,,*69
06/21/2015	17:08:46.506	$GPGGA,170847,2427.2339,N,08135.2558,W,1,10,1.5,16,M,,M,,*62
06/21/2015	17:08:47.526	$GPGGA,170848,2427.2332,N,08135.2551,W,1,10,1.7,16,M,,M,,*6D
06/21/2015	17:08:48.516	$GPGGA,170849,2427.2323,N,08135.2546,W,1,10,1.5,16,M,,M,,*68
06/21/2015	17:08:49.616	$GPGGA,170850,2427.2314,N,08135.2539,W,1,11,1.5,16,M,,M,,*6D
06/21/2015	17:08:50.517	$GPGGA,170851,2427.2305,N,08135.2532,W,1,11,1.5,16,M,,M,,*67
06/21/2015	17:08:51.528	$GPGGA,170852,2427.2296,N,08135.2526,W,1,11,1.5,16,M,,M,,*6A
06/21/2015	17:08:52.597	$GPGGA,170853,2427.2287,N,08135.2520,W,1,11,1.5,16,M,,M,,*6D
06/21/2015	17:08:53.637	$GPGGA,170854,2427.2278,N,08135.2514,W,1,11,1.5,16,M,,M,,*6D
06/21/2015	17:08:54.587	$GPGGA,170855,2427.2269,N,08135.2507,W,1,11,1.5,16,M,,M,,*6E
06/21/2015	17:08:55.617	$GPGGA,170856,2427.2260,N,08135.2499,W,1,11,1.5,16,M,,M,,*62
06/21/2015	17:08:56.587	$GPGGA,170857,2427.2251,N,08135.2493,W,1,11,1.5,16,M,,M,,*6B
06/21/2015	17:08:57.577	$GPGGA,170858,2427.2242,N,08135.2487,W,1,11,1.5,16,M,,M,,*63
06/21/2015	17:08:58.587	$GPGGA,170859,2427.2231,N,08135.2479,W,1,11,1.5,16,M,,M,,*67
06/21/2015	17:08:59.597	$GPGGA,170900,2427.2224,N,08135.2473,W,1,10,1.6,17,M,,M,,*67
06/21/2015	17:09:00.587	$GPGGA,170901,2427.2214,N,08135.2466,W,1,10,1.5,17,M,,M,,*62
06/21/2015	17:09:01.597	$GPGGA,170902,2427.2204,N,08135.2459,W,1,11,1.5,17,M,,M,,*6D
06/21/2015	17:09:02.577	$GPGGA,170903,2427.2195,N,08135.2452,W,1,11,1.5,17,M,,M,,*6C
06/21/2015	17:09:03.606	$GPGGA,170904,2427.2184,N,08135.2445,W,1,10,1.7,17,M,,M,,*6E
06/21/2015	17:09:04.573	$GPGGA,170905,2427.2173,N,08135.2439,W,1,10,1.5,17,M,,M,,*6E
06/21/2015	17:09:05.576	$GPGGA,170906,2427.2163,N,08135.2431,W,1,11,1.5,17,M,,M,,*65
06/21/2015	17:09:06.568	$GPGGA,170907,2427.2152,N,08135.2424,W,1,11,1.5,17,M,,M,,*62
06/21/2015	17:09:07.587	$GPGGA,170908,2427.2141,N,08135.2416,W,1,10,1.5,17,M,,M,,*6F
06/21/2015	17:09:08.557	$GPGGA,170909,2427.2130,N,08135.2408,W,1,10,1.7,17,M,,M,,*65
06/21/2015	17:09:09.577	$GPGGA,170910,2427.2119,N,08135.2400,W,1,9,1.7,17,M,,M,,*56
06/21/2015	17:09:10.565	$GPGGA,170911,2427.2108,N,08135.2394,W,1,9,1.7,17,M,,M,,*5D
06/21/2015	17:09:11.587	$GPGGA,170912,2427.2097,N,08135.2387,W,1,10,1.5,17,M,,M,,*61
06/21/2015	17:09:12.557	$GPGGA,170913,2427.2086,N,08135.2379,W,1,10,1.5,17,M,,M,,*61
06/21/2015	17:09:13.587	$GPGGA,170914,2427.2076,N,08135.2373,W,1,10,1.5,17,M,,M,,*63
06/21/2015	17:09:14.558	$GPGGA,170915,2427.2065,N,08135.2367,W,1,10,1.5,17,M,,M,,*65
06/21/2015	17:09:15.587	$GPGGA,170916,2427.2054,N,08135.2360,W,1,10,1.5,17,M,,M,,*63
06/21/2015	17:09:16.547	$GPGGA,170917,2427.2043,N,08135.2353,W,1,10,1.5,17,M,,M,,*64
06/21/2015	17:09:17.547	$GPGGA,170918,2427.2031,N,08135.2347,W,1,11,1.5,17,M,,M,,*6A
06/21/2015	17:09:18.547	$GPGGA,170919,2427.2019,N,08135.2340,W,1,11,1.5,17,M,,M,,*66
06/21/2015	17:09:19.567	$GPGGA,170920,2427.2007,N,08135.2332,W,1,10,1.6,17,M,,M,,*64
06/21/2015	17:09:20.547	$GPGGA,170921,2427.1996,N,08135.2326,W,1,10,1.6,16,M,,M,,*63
06/21/2015	17:09:21.570	$GPGGA,170922,2427.1982,N,08135.2318,W,1,9,1.7,16,M,,M,,*51
06/21/2015	17:09:22.546	$GPGGA,170923,2427.1968,N,08135.2311,W,1,9,1.6,16,M,,M,,*5C
06/21/2015	17:09:23.576	$GPGGA,170924,2427.1956,N,08135.2304,W,1,10,1.6,16,M,,M,,*6A
06/21/2015	17:09:24.526	$GPGGA,170925,2427.1944,N,08135.2299,W,1,10,1.6,16,M,,M,,*6D
06/21/2015	17:09:25.547	$GPGGA,170926,2427.1933,N,08135.2293,W,1,11,1.5,16,M,,M,,*66
06/21/2015	17:09:26.527	$GPGGA,170927,2427.1922,N,08135.2286,W,1,11,1.5,16,M,,M,,*63
06/21/2015	17:09:27.547	$GPGGA,170928,2427.1910,N,08135.2281,W,1,10,1.5,16,M,,M,,*6B
06/21/2015	17:09:28.538	$GPGGA,170929,2427.1898,N,08135.2276,W,1,10,1.5,16,M,,M,,*63
06/21/2015	17:09:29.617	$GPGGA,170930,2427.1886,N,08135.2270,W,1,11,1.5,16,M,,M,,*63
06/21/2015	17:09:30.527	$GPGGA,170931,2427.1874,N,08135.2264,W,1,11,1.5,16,M,,M,,*6A
06/21/2015	17:09:31.547	$GPGGA,170932,2427.1862,N,08135.2259,W,1,11,1.5,16,M,,M,,*60
06/21/2015	17:09:32.517	$GPGGA,170933,2427.1850,N,08135.2255,W,1,11,1.5,16,M,,M,,*6C
06/21/2015	17:09:33.648	$GPGGA,170934,2427.1839,N,08135.2249,W,1,11,1.5,16,M,,M,,*69
06/21/2015	17:09:34.527	$GPGGA,170935,2427.1826,N,08135.2243,W,1,11,1.5,16,M,,M,,*6C
06/21/2015	17:09:35.637	$GPGGA,170936,2427.1814,N,08135.2239,W,1,11,1.5,16,M,,M,,*63
06/21/2015	17:09:36.527	$GPGGA,170937,2427.1802,N,08135.2233,W,1,11,1.5,16,M,,M,,*6F
06/21/2015	17:09:37.627	$GPGGA,170938,2427.1790,N,08135.2227,W,1,11,1.5,16,M,,M,,*61
06/21/2015	17:09:38.606	$GPGGA,170939,2427.1776,N,08135.2221,W,1,11,1.5,16,M,,M,,*6E
06/21/2015	17:09:39.646	$GPGGA,170940,2427.1765,N,08135.2216,W,1,11,1.5,16,M,,M,,*66
06/21/2015	17:09:40.596	$GPGGA,170941,2427.1751,N,08135.2210,W,1,11,1.5,16,M,,M,,*66
06/21/2015	17:09:41.636	$GPGGA,170942,2427.1738,N,08135.2203,W,1,11,1.5,16,M,,M,,*68
06/21/2015	17:09:42.597	$GPGGA,170943,2427.1725,N,08135.2197,W,1,11,1.5,16,M,,M,,*6B
06/21/2015	17:09:43.597	$GPGGA,170944,2427.1711,N,08135.2191,W,1,10,1.5,16,M,,M,,*6C
06/21/2015	17:09:44.597	$GPGGA,170945,2427.1698,N,08135.2185,W,1,10,1.5,16,M,,M,,*68
06/21/2015	17:09:45.517	$GPGGA,170946,2427.1684,N,08135.2178,W,1,10,1.5,16,M,,M,,*64
06/21/2015	17:09:46.597	$GPGGA,170947,2427.1671,N,08135.2172,W,1,10,1.6,16,M,,M,,*66
06/21/2015	17:09:47.617	$GPGGA,170948,2427.1658,N,08135.2167,W,1,10,1.5,16,M,,M,,*65
06/21/2015	17:09:48.577	$GPGGA,170949,2427.1646,N,08135.2161,W,1,10,1.6,16,M,,M,,*6E
06/21/2015	17:09:49.607	$GPGGA,170950,2427.1633,N,08135.2154,W,1,10,1.6,16,M,,M,,*62
06/21/2015	17:09:50.597	$GPGGA,170951,2427.1619,N,08135.2148,W,1,10,1.6,16,M,,M,,*66
06/21/2015	17:09:51.637	$GPGGA,170952,2427.1606,N,08135.2143,W,1,10,1.6,16,M,,M,,*60
06/21/2015	17:09:52.577	$GPGGA,170953,2427.1593,N,08135.2136,W,1,10,1.6,16,M,,M,,*6C
06/21/2015	17:09:53.587	$GPGGA,170954,2427.1581,N,08135.2130,W,1,10,1.6,16,M,,M,,*6E
06/21/2015	17:09:54.577	$GPGGA,170955,2427.1567,N,08135.2123,W,1,10,1.6,16,M,,M,,*65
06/21/2015	17:09:55.597	$GPGGA,170956,2427.1553,N,08135.2117,W,1,10,1.6,16,M,,M,,*66
06/21/2015	17:09:56.572	$GPGGA,170957,2427.1541,N,08135.2110,W,1,10,1.6,15,M,,M,,*60
06/21/2015	17:09:57.576	$GPGGA,170958,2427.1527,N,08135.2103,W,1,10,1.6,15,M,,M,,*6D
06/21/2015	17:09:58.576	$GPGGA,170959,2427.1514,N,08135.2097,W,1,10,1.5,15,M,,M,,*63
06/21/2015	17:09:59.606	$GPGGA,171000,2427.1501,N,08135.2091,W,1,11,1.5,15,M,,M,,*64
06/21/2015	17:10:00.558	$GPGGA,171001,2427.1489,N,08135.2085,W,1,11,1.5,15,M,,M,,*61
06/21/2015	17:10:01.547	$GPGGA,171002,2427.1476,N,08135.2078,W,1,11,1.5,15,M,,M,,*60
06/21/2015	17:10:02.807	$GPGGA,171003,2427.1463,N,08135.2072,W,1,11,1.5,15,M,,M,,*6F
06/21/2015	17:10:03.587	$GPGGA,171004,2427.1451,N,08135.2066,W,1,11,1.5,15,M,,M,,*6C
06/21/2015	17:10:04.564	$GPGGA,171005,2427.1438,N,08135.2059,W,1,11,1.5,15,M,,M,,*6E
06/21/2015	17:10:05.547	$GPGGA,171006,2427.1426,N,08135.2051,W,1,11,1.6,15,M,,M,,*69
06/21/2015	17:10:06.547	$GPGGA,171007,2427.1413,N,08135.2046,W,1,11,1.5,15,M,,M,,*6B
06/21/2015	17:10:07.627	$GPGGA,171008,2427.1401,N,08135.2040,W,1,10,1.5,15,M,,M,,*60
06/21/2015	17:10:08.547	$GPGGA,171009,2427.1389,N,08135.2032,W,1,10,1.7,15,M,,M,,*61
06/21/2015	17:10:09.547	$GPGGA,171010,2427.1377,N,08135.2025,W,1,9,1.5,15,M,,M,,*54
06/21/2015	17:10:10.551	$GPGGA,171011,2427.1364,N,08135.2018,W,1,9,1.5,15,M,,M,,*59
06/21/2015	17:10:11.577	$GPGGA,171012,2427.1350,N,08135.2010,W,1,10,1.8,15,M,,M,,*60
06/21/2015	17:10:12.527	$GPGGA,171013,2427.1336,N,08135.2004,W,1,10,1.5,15,M,,M,,*69
06/21/2015	17:10:13.556	$GPGGA,171014,2427.1325,N,08135.1996,W,1,10,1.7,15,M,,M,,*6F
06/21/2015	17:10:14.536	$GPGGA,171015,2427.1312,N,08135.1989,W,1,10,1.5,15,M,,M,,*66
06/21/2015	17:10:15.596	$GPGGA,171016,2427.1299,N,08135.1983,W,1,11,1.7,15,M,,M,,*6E
06/21/2015	17:10:16.526	$GPGGA,171017,2427.1288,N,08135.1975,W,1,11,1.7,15,M,,M,,*66
06/21/2015	17:10:17.650	$GPGGA,171018,2427.1275,N,08135.1965,W,1,10,1.7,15,M,,M,,*6B
06/21/2015	17:10:18.526	$GPGGA,171019,2427.1263,N,08135.1958,W,1,10,1.5,16,M,,M,,*62
06/21/2015	17:10:19.636	$GPGGA,171020,2427.1250,N,08135.1950,W,1,11,1.5,16,M,,M,,*61
06/21/2015	17:10:20.526	$GPGGA,171021,2427.1237,N,08135.1940,W,1,11,2.2,16,M,,M,,*64
06/21/2015	17:10:21.526	$GPGGA,171022,2427.1223,N,08135.1935,W,1,8,1.5,16,M,,M,,*5C
06/21/2015	17:10:22.516	$GPGGA,171023,2427.1212,N,08135.1929,W,1,8,1.7,16,M,,M,,*50
06/21/2015	17:10:23.546	$GPGGA,171024,2427.1200,N,08135.1922,W,1,10,1.7,16,M,,M,,*66
06/21/2015	17:10:24.517	$GPGGA,171025,2427.1187,N,08135.1914,W,1,10,1.5,16,M,,M,,*6C
06/21/2015	17:10:25.626	$GPGGA,171026,2427.1174,N,08135.1905,W,1,11,1.5,16,M,,M,,*62
06/21/2015	17:10:26.586	$GPGGA,171027,2427.1163,N,08135.1898,W,1,11,1.5,17,M,,M,,*61
06/21/2015	17:10:27.556	$GPGGA,171028,2427.1151,N,08135.1891,W,1,11,1.5,17,M,,M,,*66
06/21/2015	17:10:28.587	$GPGGA,171029,2427.1138,N,08135.1883,W,1,11,1.5,17,M,,M,,*6B
06/21/2015	17:10:29.597	$GPGGA,171030,2427.1126,N,08135.1874,W,1,11,1.5,17,M,,M,,*64
06/21/2015	17:10:30.517	$GPGGA,171031,2427.1115,N,08135.1866,W,1,11,1.5,17,M,,M,,*66
06/21/2015	17:10:31.616	$GPGGA,171032,2427.1101,N,08135.1858,W,1,11,1.5,17,M,,M,,*6D
06/21/2015	17:10:32.586	$GPGGA,171033,2427.1089,N,08135.1850,W,1,11,1.5,17,M,,M,,*65
06/21/2015	17:10:33.596	$GPGGA,171034,2427.1077,N,08135.1841,W,1,11,1.5,17,M,,M,,*63
06/21/2015	17:10:34.576	$GPGGA,171035,2427.1065,N,08135.1833,W,1,11,1.5,17,M,,M,,*64
06/21/2015	17:10:35.606	$GPGGA,171036,2427.1053,N,08135.1824,W,1,11,1.5,17,M,,M,,*64
06/21/2015	17:10:36.576	$GPGGA,171037,2427.1041,N,08135.1816,W,1,11,1.5,18,M,,M,,*68
06/21/2015	17:10:37.596	$GPGGA,171038,2427.1028,N,08135.1808,W,1,11,1.5,18,M,,M,,*67
06/21/2015	17:10:38.566	$GPGGA,171039,2427.1017,N,08135.1798,W,1,11,1.5,18,M,,M,,*6C
06/21/2015	17:10:39.596	$GPGGA,171040,2427.1004,N,08135.1790,W,1,11,1.7,18,M,,M,,*6A
06/21/2015	17:10:40.558	$GPGGA,171041,2427.0992,N,08135.1781,W,1,11,1.5,18,M,,M,,*6E
06/21/2015	17:10:41.566	$GPGGA,171042,2427.0979,N,08135.1772,W,1,11,1.5,18,M,,M,,*64
06/21/2015	17:10:42.557	$GPGGA,171043,2427.0967,N,08135.1762,W,1,11,1.5,18,M,,M,,*6B
06/21/2015	17:10:43.586	$GPGGA,171044,2427.0956,N,08135.1752,W,1,11,1.5,18,M,,M,,*6D
06/21/2015	17:10:44.561	$GPGGA,171045,2427.0943,N,08135.1743,W,1,11,1.6,18,M,,M,,*6B
06/21/2015	17:10:45.587	$GPGGA,171046,2427.0931,N,08135.1734,W,1,10,1.6,18,M,,M,,*6C
06/21/2015	17:10:46.554	$GPGGA,171047,2427.0920,N,08135.1724,W,1,10,1.6,18,M,,M,,*6C
06/21/2015	17:10:47.567	$GPGGA,171048,2427.0907,N,08135.1714,W,1,10,1.6,18,M,,M,,*65
06/21/2015	17:10:48.549	$GPGGA,171049,2427.0895,N,08135.1705,W,1,10,1.5,19,M,,M,,*6C
06/21/2015	17:10:49.566	$GPGGA,171050,2427.0884,N,08135.1695,W,1,10,1.6,19,M,,M,,*6F
06/21/2015	17:10:50.551	$GPGGA,171051,2427.0872,N,08135.1685,W,1,10,1.5,19,M,,M,,*65
06/21/2015	17:10:51.549	$GPGGA,171052,2427.0862,N,08135.1676,W,1,10,1.6,19,M,,M,,*68
06/21/2015	17:10:52.550	$GPGGA,171053,2427.0851,N,08135.1667,W,1,10,1.5,19,M,,M,,*6A
06/21/2015	17:10:53.536	$GPGGA,171054,2427.0840,N,08135.1658,W,1,11,1.5,19,M,,M,,*60
06/21/2015	17:10:54.536	$GPGGA,171055,2427.0829,N,08135.1648,W,1,11,1.5,19,M,,M,,*6F
06/21/2015	17:10:55.557	$GPGGA,171056,2427.0816,N,08135.1638,W,1,11,1.5,19,M,,M,,*67
06/21/2015	17:10:56.536	$GPGGA,171057,2427.0804,N,08135.1629,W,1,11,1.5,19,M,,M,,*65
06/21/2015	17:10:57.526	$GPGGA,171058,2427.0793,N,08135.1618,W,1,11,1.5,19,M,,M,,*69
06/21/2015	17:10:58.516	$GPGGA,171059,2427.0780,N,08135.1608,W,1,11,1.5,20,M,,M,,*61
06/21/2015	17:10:59.576	$GPGGA,171100,2427.0769,N,08135.1599,W,1,11,1.5,20,M,,M,,*60
06/21/2015	17:11:00.526	$GPGGA,171101,2427.0757,N,08135.1589,W,1,11,1.5,20,M,,M,,*6D
06/21/2015	17:11:01.536	$GPGGA,171102,2427.0746,N,08135.1579,W,1,11,1.5,20,M,,M,,*61
06/21/2015	17:11:02.526	$GPGGA,171103,2427.0734,N,08135.1570,W,1,11,1.5,20,M,,M,,*6C
06/21/2015	17:11:03.552	$GPGGA,171104,2427.0722,N,08135.1560,W,1,11,1.5,20,M,,M,,*6D
06/21/2015	17:11:04.537	$GPGGA,171105,2427.0710,N,08135.1550,W,1,11,1.5,20,M,,M,,*6E
06/21/2015	17:11:05.607	$GPGGA,171106,2427.0699,N,08135.1540,W,1,11,1.5,20,M,,M,,*6C
06/21/2015	17:11:06.636	$GPGGA,171107,2427.0686,N,08135.1531,W,1,11,1.5,20,M,,M,,*65
06/21/2015	17:11:07.616	$GPGGA,171108,2427.0675,N,08135.1521,W,1,11,1.5,20,M,,M,,*67
06/21/2015	17:11:08.506	$GPGGA,171109,2427.0664,N,08135.1511,W,1,11,1.5,20,M,,M,,*65
06/21/2015	17:11:09.496	$GPGGA,171110,2427.0652,N,08135.1501,W,1,11,1.5,20,M,,M,,*69
06/21/2015	17:11:10.516	$GPGGA,171111,2427.0640,N,08135.1491,W,1,11,1.5,20,M,,M,,*63
06/21/2015	17:11:11.616	$GPGGA,171112,2427.0629,N,08135.1481,W,1,11,1.5,20,M,,M,,*6E
06/21/2015	17:11:12.516	$GPGGA,171113,2427.0617,N,08135.1471,W,1,11,1.5,20,M,,M,,*6D
06/21/2015	17:11:13.496	$GPGGA,171114,2427.0605,N,08135.1461,W,1,10,1.6,20,M,,M,,*6A
06/21/2015	17:11:14.506	$GPGGA,171115,2427.0593,N,08135.1451,W,1,10,1.5,20,M,,M,,*67
06/21/2015	17:11:15.606	$GPGGA,171116,2427.0582,N,08135.1441,W,1,11,1.5,20,M,,M,,*64
06/21/2015	17:11:16.506	$GPGGA,171117,2427.0570,N,08135.1430,W,1,11,1.5,20,M,,M,,*6E
06/21/2015	17:11:17.586	$GPGGA,171118,2427.0558,N,08135.1421,W,1,11,1.5,20,M,,M,,*6B
06/21/2015	17:11:18.586	$GPGGA,171119,2427.0546,N,08135.1412,W,1,11,1.5,20,M,,M,,*65
06/21/2015	17:11:19.626	$GPGGA,171120,2427.0535,N,08135.1401,W,1,11,1.5,20,M,,M,,*69
06/21/2015	17:11:20.577	$GPGGA,171121,2427.0524,N,08135.1392,W,1,11,1.5,20,M,,M,,*65
06/21/2015	17:11:21.597	$GPGGA,171122,2427.0512,N,08135.1383,W,1,11,1.5,20,M,,M,,*63
06/21/2015	17:11:22.587	$GPGGA,171123,2427.0500,N,08135.1372,W,1,11,1.5,20,M,,M,,*6F
06/21/2015	17:11:23.596	$GPGGA,171124,2427.0488,N,08135.1362,W,1,11,1.5,20,M,,M,,*68
06/21/2015	17:11:24.586	$GPGGA,171125,2427.0477,N,08135.1353,W,1,11,1.6,20,M,,M,,*68
06/21/2015	17:11:25.586	$GPGGA,171126,2427.0465,N,08135.1344,W,1,11,1.5,20,M,,M,,*6D
06/21/2015	17:11:26.576	$GPGGA,171127,2427.0453,N,08135.1334,W,1,11,1.5,20,M,,M,,*6E
06/21/2015	17:11:27.586	$GPGGA,171128,2427.0443,N,08135.1324,W,1,11,1.5,20,M,,M,,*61
06/21/2015	17:11:28.576	$GPGGA,171129,2427.0430,N,08135.1315,W,1,11,1.5,20,M,,M,,*66
06/21/2015	17:11:29.586	$GPGGA,171130,2427.0417,N,08135.1306,W,1,11,1.5,20,M,,M,,*69
06/21/2015	17:11:30.566	$GPGGA,171131,2427.0405,N,08135.1295,W,1,11,1.5,20,M,,M,,*60
06/21/2015	17:11:31.586	$GPGGA,171132,2427.0394,N,08135.1285,W,1,10,1.6,19,M,,M,,*65
06/21/2015	17:11:32.566	$GPGGA,171133,2427.0382,N,08135.1277,W,1,10,1.5,19,M,,M,,*6D
06/21/2015	17:11:33.558	$GPGGA,171134,2427.0370,N,08135.1268,W,1,11,1.5,19,M,,M,,*68
06/21/2015	17:11:34.566	$GPGGA,171135,2427.0358,N,08135.1258,W,1,11,1.5,19,M,,M,,*60
06/21/2015	17:11:35.596	$GPGGA,171136,2427.0346,N,08135.1249,W,1,11,1.5,19,M,,M,,*6C
06/21/2015	17:11:36.558	$GPGGA,171137,2427.0334,N,08135.1240,W,1,11,1.5,19,M,,M,,*61
06/21/2015	17:11:37.536	$GPGGA,171138,2427.0322,N,08135.1230,W,1,11,1.5,19,M,,M,,*6E
06/21/2015	17:11:38.547	$GPGGA,171139,2427.0310,N,08135.1221,W,1,11,1.5,19,M,,M,,*6E
06/21/2015	17:11:39.587	$GPGGA,171140,2427.0298,N,08135.1212,W,1,11,1.5,19,M,,M,,*61
06/21/2015	17:11:40.549	$GPGGA,171141,2427.0285,N,08135.1203,W,1,11,1.5,19,M,,M,,*6C
06/21/2015	17:11:41.536	$GPGGA,171142,2427.0273,N,08135.1193,W,1,11,1.5,19,M,,M,,*6C
06/21/2015	17:11:42.546	$GPGGA,171143,2427.0260,N,08135.1184,W,1,11,1.5,19,M,,M,,*69
