Software Version Number: 1	Data File Format Number: 1	Build Version Number: 1	Error Count Since VI Started: 1	Manufacturer: Raytheon	 Model Number: RayMarine 120	 S/N: 	 Cal Date: 	 Wind Direction Offset: 0.00	 Slope (M)1: 0.00	 Offset (B)1: 0.00	 Slope (M)2: 0.00	 Offset (B)2: 0.00	 Slope (M)3: 0.00	 Offset (B)3: 0.00	 Slope (M)4: 0.00	 Offset (B)4: 0.00	 Slope (M)5: 0.00	 Offset (B)5: 0.00	 Slope (M)6: 0.00	 Offset (B)6: 0.00
Computer Date	Computer Time	GGA String
06/11/2015	14:00:00.530	$GPGGA,140001,2427.2909,N,08125.5550,W,1,7,1.9,14,M,,M,,*54
06/11/2015	14:00:01.560	$GPGGA,140002,2427.2913,N,08125.5540,W,1,7,1.9,14,M,,M,,*5D
06/11/2015	14:00:02.530	$GPGGA,140003,2427.2914,N,08125.5528,W,1,7,1.9,13,M,,M,,*52
06/11/2015	14:00:03.580	$GPGGA,140004,2427.2917,N,08125.5518,W,1,7,1.9,13,M,,M,,*55
06/11/2015	14:00:04.539	$GPGGA,140005,2427.2921,N,08125.5508,W,1,7,1.9,13,M,,M,,*50
06/11/2015	14:00:05.549	$GPGGA,140006,2427.2924,N,08125.5496,W,1,7,1.9,13,M,,M,,*50
06/11/2015	14:00:06.529	$GPGGA,140007,2427.2928,N,08125.5485,W,1,7,1.9,13,M,,M,,*5F
06/11/2015	14:00:07.559	$GPGGA,140008,2427.2931,N,08125.5475,W,1,7,1.9,13,M,,M,,*57
06/11/2015	14:00:08.509	$GPGGA,140009,2427.2935,N,08125.5464,W,1,7,1.9,13,M,,M,,*52
06/11/2015	14:00:09.529	$GPGGA,140010,2427.2938,N,08125.5453,W,1,7,1.9,13,M,,M,,*53
06/11/2015	14:00:10.512	$GPGGA,140011,2427.2941,N,08125.5443,W,1,7,1.9,13,M,,M,,*5D
06/11/2015	14:00:11.539	$GPGGA,140012,2427.2943,N,08125.5432,W,1,7,1.9,13,M,,M,,*5A
06/11/2015	14:00:12.602	$GPGGA,140013,2427.2948,N,08125.5422,W,1,7,1.9,13,M,,M,,*51
06/11/2015	14:00:13.619	$GPGGA,140014,2427.2950,N,08125.5411,W,1,7,1.9,13,M,,M,,*5F
06/11/2015	14:00:14.499	$GPGGA,140015,2427.2953,N,08125.5401,W,1,7,1.9,13,M,,M,,*5C
06/11/2015	14:00:15.539	$GPGGA,140016,2427.2956,N,08125.5390,W,1,7,1.9,13,M,,M,,*55
06/11/2015	14:00:16.609	$GPGGA,140017,2427.2960,N,08125.5380,W,1,7,1.9,13,M,,M,,*50
06/11/2015	14:00:17.602	$GPGGA,140018,2427.2959,N,08125.5372,W,1,7,1.9,13,M,,M,,*58
06/11/2015	14:00:18.610	$GPGGA,140019,2427.2961,N,08125.5364,W,1,7,1.7,13,M,,M,,*5B
06/11/2015	14:00:19.620	$GPGGA,140020,2427.2961,N,08125.5357,W,1,8,1.7,13,M,,M,,*5E
06/11/2015	14:00:20.501	$GPGGA,140021,2427.2961,N,08125.5349,W,1,8,1.7,13,M,,M,,*50
06/11/2015	14:00:21.590	$GPGGA,140022,2427.2964,N,08125.5340,W,1,8,1.7,13,M,,M,,*5F
06/11/2015	14:00:23.039	$GPGGA,140023,2427.2966,N,08125.5331,W,1,8,1.7,13,M,,M,,*5A
06/11/2015	14:00:23.629	$GPGGA,140024,2427.2967,N,08125.5322,W,1,8,1.7,13,M,,M,,*5E
06/11/2015	14:00:24.569	$GPGGA,140025,2427.2968,N,08125.5312,W,1,8,1.7,13,M,,M,,*53
06/11/2015	14:00:25.489	$GPGGA,140026,2427.2970,N,08125.5303,W,1,8,1.7,13,M,,M,,*59
06/11/2015	14:00:26.569	$GPGGA,140027,2427.2972,N,08125.5294,W,1,8,1.7,13,M,,M,,*55
06/11/2015	14:00:28.609	$GPGGA,140029,2427.2975,N,08125.5275,W,1,8,1.7,14,M,,M,,*54
06/11/2015	14:00:29.580	$GPGGA,140030,2427.2978,N,08125.5265,W,1,8,1.7,14,M,,M,,*50
06/11/2015	14:00:30.569	$GPGGA,140031,2427.2981,N,08125.5255,W,1,8,1.7,14,M,,M,,*54
06/11/2015	14:00:31.589	$GPGGA,140032,2427.2982,N,08125.5246,W,1,8,1.7,14,M,,M,,*56
06/11/2015	14:00:32.569	$GPGGA,140033,2427.2984,N,08125.5235,W,1,8,1.7,14,M,,M,,*55
06/11/2015	14:00:33.579	$GPGGA,140034,2427.2986,N,08125.5225,W,1,8,1.7,14,M,,M,,*51
06/11/2015	14:00:34.549	$GPGGA,140035,2427.2988,N,08125.5215,W,1,8,1.7,14,M,,M,,*5D
06/11/2015	14:00:35.590	$GPGGA,140036,2427.2990,N,08125.5205,W,1,8,1.7,14,M,,M,,*56
06/11/2015	14:00:36.560	$GPGGA,140037,2427.2993,N,08125.5195,W,1,8,1.7,14,M,,M,,*5E
06/11/2015	14:00:38.591	$GPGGA,140039,2427.2997,N,08125.5174,W,1,8,1.7,14,M,,M,,*5B
06/11/2015	14:00:39.579	$GPGGA,140040,2427.3000,N,08125.5164,W,1,8,1.7,14,M,,M,,*52
06/11/2015	14:00:40.549	$GPGGA,140041,2427.3004,N,08125.5153,W,1,8,1.7,14,M,,M,,*53
06/11/2015	14:00:41.539	$GPGGA,140042,2427.3006,N,08125.5143,W,1,8,1.7,15,M,,M,,*52
06/11/2015	14:00:42.539	$GPGGA,140043,2427.3008,N,08125.5131,W,1,8,1.7,15,M,,M,,*58
06/11/2015	14:00:43.549	$GPGGA,140044,2427.3011,N,08125.5122,W,1,8,1.7,15,M,,M,,*55
06/11/2015	14:00:44.549	$GPGGA,140045,2427.3013,N,08125.5112,W,1,8,1.7,15,M,,M,,*55
06/11/2015	14:00:45.549	$GPGGA,140046,2427.3015,N,08125.5101,W,1,8,1.7,15,M,,M,,*52
06/11/2015	14:00:46.529	$GPGGA,140047,2427.3018,N,08125.5091,W,1,8,1.7,15,M,,M,,*56
06/11/2015	14:00:47.529	$GPGGA,140048,2427.3022,N,08125.5081,W,1,8,1.7,15,M,,M,,*51
06/11/2015	14:00:48.519	$GPGGA,140049,2427.3024,N,08125.5071,W,1,8,1.7,15,M,,M,,*59
06/11/2015	14:00:49.539	$GPGGA,140050,2427.3026,N,08125.5060,W,1,8,1.7,15,M,,M,,*53
06/11/2015	14:00:50.539	$GPGGA,140051,2427.3029,N,08125.5050,W,1,8,1.7,15,M,,M,,*5E
06/11/2015	14:00:51.569	$GPGGA,140052,2427.3032,N,08125.5039,W,1,8,1.7,15,M,,M,,*58
06/11/2015	14:00:52.529	$GPGGA,140053,2427.3033,N,08125.5029,W,1,8,1.7,15,M,,M,,*59
06/11/2015	14:00:53.513	$GPGGA,140054,2427.3036,N,08125.5018,W,1,8,1.7,15,M,,M,,*59
06/11/2015	14:00:54.530	$GPGGA,140055,2427.3040,N,08125.5008,W,1,8,1.7,15,M,,M,,*58
06/11/2015	14:00:55.520	$GPGGA,140056,2427.3042,N,08125.4998,W,1,8,1.7,15,M,,M,,*58
06/11/2015	14:00:56.620	$GPGGA,140057,2427.3044,N,08125.4988,W,1,8,1.7,15,M,,M,,*5E
06/11/2015	14:00:57.621	$GPGGA,140058,2427.3047,N,08125.4977,W,1,8,1.7,15,M,,M,,*52
06/11/2015	14:00:58.510	$GPGGA,140059,2427.3051,N,08125.4968,W,1,8,1.7,15,M,,M,,*5A
06/11/2015	14:00:59.529	$GPGGA,140100,2427.3053,N,08125.4958,W,1,8,1.7,15,M,,M,,*56
06/11/2015	14:01:00.499	$GPGGA,140101,2427.3055,N,08125.4947,W,1,8,1.7,15,M,,M,,*5F
06/11/2015	14:01:01.489	$GPGGA,140102,2427.3058,N,08125.4938,W,1,8,1.7,15,M,,M,,*59
06/11/2015	14:01:02.502	$GPGGA,140103,2427.3061,N,08125.4928,W,1,8,1.7,15,M,,M,,*53
06/11/2015	14:01:03.619	$GPGGA,140104,2427.3062,N,08125.4917,W,1,8,1.7,15,M,,M,,*5B
06/11/2015	14:01:04.489	$GPGGA,140105,2427.3065,N,08125.4909,W,1,8,1.7,15,M,,M,,*52
06/11/2015	14:01:05.489	$GPGGA,140106,2427.3071,N,08125.4897,W,1,8,1.7,15,M,,M,,*52
06/11/2015	14:01:06.489	$GPGGA,140107,2427.3073,N,08125.4884,W,1,8,1.9,15,M,,M,,*5D
06/11/2015	14:01:07.489	$GPGGA,140108,2427.3075,N,08125.4875,W,1,7,1.9,15,M,,M,,*55
06/11/2015	14:01:08.499	$GPGGA,140109,2427.3078,N,08125.4868,W,1,7,1.7,15,M,,M,,*5B
06/11/2015	14:01:09.489	$GPGGA,140110,2427.3080,N,08125.4858,W,1,8,1.7,15,M,,M,,*58
06/11/2015	14:01:10.580	$GPGGA,140111,2427.3083,N,08125.4846,W,1,8,1.7,15,M,,M,,*55
06/11/2015	14:01:11.612	$GPGGA,140112,2427.3084,N,08125.4839,W,1,7,1.9,15,M,,M,,*58
06/11/2015	14:01:12.490	$GPGGA,140113,2427.3090,N,08125.4828,W,1,7,1.7,15,M,,M,,*52
06/11/2015	14:01:13.570	$GPGGA,140114,2427.3091,N,08125.4819,W,1,7,1.9,15,M,,M,,*58
06/11/2015	14:01:14.579	$GPGGA,140115,2427.3094,N,08125.4809,W,1,7,1.7,15,M,,M,,*53
06/11/2015	14:01:15.579	$GPGGA,140116,2427.3098,N,08125.4797,W,1,7,1.9,15,M,,M,,*5A
06/11/2015	14:01:16.569	$GPGGA,140117,2427.3102,N,08125.4787,W,1,7,1.9,15,M,,M,,*58
06/11/2015	14:01:17.559	$GPGGA,140118,2427.3105,N,08125.4777,W,1,7,1.9,15,M,,M,,*5F
06/11/2015	14:01:18.569	$GPGGA,140119,2427.3109,N,08125.4767,W,1,7,1.9,15,M,,M,,*53
06/11/2015	14:01:19.600	$GPGGA,140120,2427.3112,N,08125.4756,W,1,7,1.9,15,M,,M,,*51
06/11/2015	14:01:20.559	$GPGGA,140121,2427.3115,N,08125.4746,W,1,7,1.9,15,M,,M,,*56
06/11/2015	14:01:21.590	$GPGGA,140122,2427.3119,N,08125.4737,W,1,7,1.9,15,M,,M,,*5F
06/11/2015	14:01:22.549	$GPGGA,140123,2427.3123,N,08125.4727,W,1,7,1.7,15,M,,M,,*58
06/11/2015	14:01:23.601	$GPGGA,140124,2427.3125,N,08125.4717,W,1,7,1.9,15,M,,M,,*54
06/11/2015	14:01:24.559	$GPGGA,140125,2427.3127,N,08125.4708,W,1,7,1.9,15,M,,M,,*59
06/11/2015	14:01:25.559	$GPGGA,140126,2427.3130,N,08125.4698,W,1,7,1.9,15,M,,M,,*54
06/11/2015	14:01:26.549	$GPGGA,140127,2427.3134,N,08125.4689,W,1,7,1.9,15,M,,M,,*51
06/11/2015	14:01:27.549	$GPGGA,140128,2427.3136,N,08125.4681,W,1,7,1.9,15,M,,M,,*54
06/11/2015	14:01:28.540	$GPGGA,140129,2427.3138,N,08125.4671,W,1,7,1.9,15,M,,M,,*54
06/11/2015	14:01:29.560	$GPGGA,140130,2427.3141,N,08125.4662,W,1,7,1.9,15,M,,M,,*50
06/11/2015	14:01:30.540	$GPGGA,140131,2427.3144,N,08125.4654,W,1,7,1.9,15,M,,M,,*51
06/11/2015	14:01:31.580	$GPGGA,140132,2427.3147,N,08125.4645,W,1,7,1.9,14,M,,M,,*50
06/11/2015	14:01:32.539	$GPGGA,140133,2427.3149,N,08125.4636,W,1,7,1.9,14,M,,M,,*5B
06/11/2015	14:01:33.529	$GPGGA,140134,2427.3152,N,08125.4627,W,1,7,1.9,14,M,,M,,*56
06/11/2015	14:01:34.519	$GPGGA,140135,2427.3155,N,08125.4617,W,1,7,1.9,14,M,,M,,*53
06/11/2015	14:01:35.569	$GPGGA,140136,2427.3158,N,08125.4609,W,1,7,1.9,14,M,,M,,*52
06/11/2015	14:01:36.529	$GPGGA,140137,2427.3162,N,08125.4600,W,1,7,1.9,14,M,,M,,*53
06/11/2015	14:01:37.519	$GPGGA,140138,2427.3163,N,08125.4590,W,1,7,1.9,14,M,,M,,*57
06/11/2015	14:01:38.519	$GPGGA,140139,2427.3166,N,08125.4581,W,1,7,1.9,14,M,,M,,*53
06/11/2015	14:01:39.549	$GPGGA,140140,2427.3169,N,08125.4573,W,1,7,1.9,14,M,,M,,*5F
06/11/2015	14:01:40.519	$GPGGA,140141,2427.3172,N,08125.4564,W,1,7,1.9,14,M,,M,,*52
06/11/2015	14:01:41.529	$GPGGA,140142,2427.3174,N,08125.4555,W,1,7,1.9,14,M,,M,,*55
06/11/2015	14:01:42.509	$GPGGA,140143,2427.3176,N,08125.4546,W,1,7,1.9,14,M,,M,,*54
06/11/2015	14:01:43.539	$GPGGA,140144,2427.3178,N,08125.4537,W,1,7,1.9,14,M,,M,,*5B
06/11/2015	14:01:44.511	$GPGGA,140145,2427.3181,N,08125.4529,W,1,7,1.9,14,M,,M,,*53
06/11/2015	14:01:45.608	$GPGGA,140146,2427.3184,N,08125.4520,W,1,7,1.9,14,M,,M,,*5C
06/11/2015	14:01:46.510	$GPGGA,140147,2427.3187,N,08125.4511,W,1,7,1.9,14,M,,M,,*5C
06/11/2015	14:01:47.540	$GPGGA,140148,2427.3188,N,08125.4503,W,1,7,1.9,14,M,,M,,*5F
06/11/2015	14:01:48.490	$GPGGA,140149,2427.3191,N,08125.4494,W,1,7,1.9,14,M,,M,,*59
06/11/2015	14:01:49.501	$GPGGA,140150,2427.3192,N,08125.4486,W,1,7,1.9,14,M,,M,,*51
06/11/2015	14:01:50.613	$GPGGA,140151,2427.3192,N,08125.4481,W,1,7,1.9,14,M,,M,,*57
06/11/2015	14:01:51.607	$GPGGA,140152,2427.3194,N,08125.4473,W,1,8,1.7,14,M,,M,,*5E
06/11/2015	14:01:52.501	$GPGGA,140153,2427.3195,N,08125.4467,W,1,8,1.7,14,M,,M,,*5B
06/11/2015	14:01:53.619	$GPGGA,140154,2427.3196,N,08125.4460,W,1,8,1.7,14,M,,M,,*58
06/11/2015	14:01:54.489	$GPGGA,140155,2427.3199,N,08125.4451,W,1,8,1.7,14,M,,M,,*54
06/11/2015	14:01:55.599	$GPGGA,140156,2427.3201,N,08125.4444,W,1,8,1.7,14,M,,M,,*51
06/11/2015	14:01:56.579	$GPGGA,140157,2427.3203,N,08125.4436,W,1,8,1.7,14,M,,M,,*57
06/11/2015	14:01:57.603	$GPGGA,140158,2427.3205,N,08125.4428,W,1,8,1.7,14,M,,M,,*51
06/11/2015	14:01:58.569	$GPGGA,140159,2427.3206,N,08125.4421,W,1,8,1.7,14,M,,M,,*5A
06/11/2015	14:01:59.602	$GPGGA,140200,2427.3209,N,08125.4413,W,1,8,1.7,14,M,,M,,*5B
06/11/2015	14:02:00.579	$GPGGA,140201,2427.3210,N,08125.4405,W,1,8,1.7,14,M,,M,,*55
06/11/2015	14:02:01.579	$GPGGA,140202,2427.3212,N,08125.4398,W,1,8,1.7,14,M,,M,,*57
06/11/2015	14:02:02.569	$GPGGA,140203,2427.3214,N,08125.4389,W,1,8,1.7,14,M,,M,,*50
06/11/2015	14:02:03.630	$GPGGA,140204,2427.3217,N,08125.4381,W,1,8,1.7,15,M,,M,,*5D
06/11/2015	14:02:04.560	$GPGGA,140205,2427.3219,N,08125.4372,W,1,8,1.7,15,M,,M,,*5E
06/11/2015	14:02:05.580	$GPGGA,140206,2427.3220,N,08125.4364,W,1,8,1.7,15,M,,M,,*50
06/11/2015	14:02:06.550	$GPGGA,140207,2427.3223,N,08125.4355,W,1,8,1.7,15,M,,M,,*50
06/11/2015	14:02:07.580	$GPGGA,140208,2427.3225,N,08125.4346,W,1,8,1.7,15,M,,M,,*5B
06/11/2015	14:02:08.559	$GPGGA,140209,2427.3228,N,08125.4337,W,1,8,1.7,15,M,,M,,*51
06/11/2015	14:02:09.549	$GPGGA,140210,2427.3231,N,08125.4328,W,1,8,1.7,15,M,,M,,*5F
06/11/2015	14:02:10.549	$GPGGA,140211,2427.3232,N,08125.4318,W,1,8,1.7,15,M,,M,,*5E
06/11/2015	14:02:11.603	$GPGGA,140212,2427.3235,N,08125.4309,W,1,8,1.7,15,M,,M,,*5A
06/11/2015	14:02:12.539	$GPGGA,140213,2427.3239,N,08125.4299,W,1,8,1.7,15,M,,M,,*5F
06/11/2015	14:02:13.539	$GPGGA,140214,2427.3242,N,08125.4289,W,1,8,1.7,15,M,,M,,*55
06/11/2015	14:02:14.539	$GPGGA,140215,2427.3242,N,08125.4280,W,1,8,1.9,15,M,,M,,*53
06/11/2015	14:02:15.905	$GPGGA,140216,2427.3246,N,08125.4270,W,1,8,1.7,15,M,,M,,*55
06/11/2015	14:02:16.549	$GPGGA,140217,2427.3248,N,08125.4261,W,1,8,1.7,15,M,,M,,*5A
06/11/2015	14:02:17.539	$GPGGA,140218,2427.3250,N,08125.4250,W,1,8,1.7,15,M,,M,,*5E
06/11/2015	14:02:18.539	$GPGGA,140219,2427.3250,N,08125.4243,W,1,8,1.9,15,M,,M,,*53
06/11/2015	14:02:19.539	$GPGGA,140220,2427.3255,N,08125.4231,W,1,8,1.7,15,M,,M,,*57
06/11/2015	14:02:20.540	$GPGGA,140221,2427.3257,N,08125.4221,W,1,8,1.9,15,M,,M,,*5B
06/11/2015	14:02:21.520	$GPGGA,140222,2427.3260,N,08125.4209,W,1,7,1.9,15,M,,M,,*59
06/11/2015	14:02:22.530	$GPGGA,140223,2427.3264,N,08125.4198,W,1,7,1.9,15,M,,M,,*57
06/11/2015	14:02:23.580	$GPGGA,140224,2427.3268,N,08125.4188,W,1,7,1.9,15,M,,M,,*5D
06/11/2015	14:02:24.529	$GPGGA,140225,2427.3271,N,08125.4177,W,1,7,1.9,15,M,,M,,*54
06/11/2015	14:02:25.939	$GPGGA,140226,2427.3274,N,08125.4166,W,1,7,1.9,15,M,,M,,*52
06/11/2015	14:02:26.629	$GPGGA,140227,2427.3277,N,08125.4156,W,1,7,1.9,15,M,,M,,*53
06/11/2015	14:02:28.579	$GPGGA,140229,2427.3282,N,08125.4136,W,1,7,1.9,15,M,,M,,*51
06/11/2015	14:02:29.549	$GPGGA,140230,2427.3285,N,08125.4125,W,1,7,1.9,15,M,,M,,*5C
06/11/2015	14:02:30.501	$GPGGA,140231,2427.3288,N,08125.4115,W,1,7,1.9,15,M,,M,,*53
06/11/2015	14:02:31.529	$GPGGA,140232,2427.3290,N,08125.4104,W,1,7,1.9,15,M,,M,,*59
06/11/2015	14:02:32.501	$GPGGA,140233,2427.3293,N,08125.4094,W,1,7,1.9,15,M,,M,,*53
06/11/2015	14:02:33.629	$GPGGA,140234,2427.3295,N,08125.4086,W,1,7,1.9,15,M,,M,,*51
06/11/2015	14:02:34.502	$GPGGA,140235,2427.3297,N,08125.4076,W,1,7,1.9,15,M,,M,,*5D
06/11/2015	14:02:35.619	$GPGGA,140236,2427.3300,N,08125.4065,W,1,7,1.9,15,M,,M,,*53
06/11/2015	14:02:36.611	$GPGGA,140237,2427.3302,N,08125.4056,W,1,7,1.9,15,M,,M,,*50
06/11/2015	14:02:37.619	$GPGGA,140238,2427.3304,N,08125.4047,W,1,7,1.9,15,M,,M,,*59
06/11/2015	14:02:38.504	$GPGGA,140239,2427.3307,N,08125.4037,W,1,7,1.9,15,M,,M,,*5C
06/11/2015	14:02:39.650	$GPGGA,140240,2427.3308,N,08125.4027,W,1,7,1.9,15,M,,M,,*5C
06/11/2015	14:02:40.507	$GPGGA,140241,2427.3311,N,08125.4017,W,1,7,1.9,15,M,,M,,*56
06/11/2015	14:02:41.590	$GPGGA,140242,2427.3314,N,08125.4008,W,1,7,1.9,14,M,,M,,*5F
06/11/2015	14:02:42.479	$GPGGA,140243,2427.3317,N,08125.3998,W,1,7,1.9,14,M,,M,,*5A
06/11/2015	14:02:43.502	$GPGGA,140244,2427.3318,N,08125.3988,W,1,7,1.9,14,M,,M,,*53
06/11/2015	14:02:44.579	$GPGGA,140245,2427.3321,N,08125.3979,W,1,7,1.9,14,M,,M,,*56
06/11/2015	14:02:45.579	$GPGGA,140246,2427.3324,N,08125.3969,W,1,7,1.9,14,M,,M,,*51
06/11/2015	14:02:46.569	$GPGGA,140247,2427.3326,N,08125.3960,W,1,7,1.7,14,M,,M,,*55
06/11/2015	14:02:47.600	$GPGGA,140248,2427.3326,N,08125.3951,W,1,8,1.7,14,M,,M,,*57
06/11/2015	14:02:48.569	$GPGGA,140249,2427.3328,N,08125.3944,W,1,8,1.7,14,M,,M,,*5C
06/11/2015	14:02:49.559	$GPGGA,140250,2427.3329,N,08125.3936,W,1,8,1.7,14,M,,M,,*50
06/11/2015	14:02:50.559	$GPGGA,140251,2427.3329,N,08125.3927,W,1,8,1.7,14,M,,M,,*51
06/11/2015	14:02:51.604	$GPGGA,140252,2427.3331,N,08125.3919,W,1,8,1.7,14,M,,M,,*56
06/11/2015	14:02:52.559	$GPGGA,140253,2427.3333,N,08125.3913,W,1,8,1.7,14,M,,M,,*5F
06/11/2015	14:02:53.581	$GPGGA,140254,2427.3335,N,08125.3904,W,1,8,1.7,14,M,,M,,*58
06/11/2015	14:02:54.559	$GPGGA,140255,2427.3334,N,08125.3896,W,1,8,1.7,14,M,,M,,*52
06/11/2015	14:02:55.580	$GPGGA,140256,2427.3336,N,08125.3889,W,1,8,1.7,14,M,,M,,*5D
06/11/2015	14:02:56.550	$GPGGA,140257,2427.3340,N,08125.3880,W,1,8,1.7,14,M,,M,,*54
06/11/2015	14:02:57.570	$GPGGA,140258,2427.3343,N,08125.3870,W,1,8,1.9,14,M,,M,,*59
06/11/2015	14:02:58.550	$GPGGA,140259,2427.3346,N,08125.3861,W,1,8,1.9,14,M,,M,,*5D
06/11/2015	14:02:59.629	$GPGGA,140300,2427.3350,N,08125.3851,W,1,7,1.9,14,M,,M,,*5B
06/11/2015	14:03:00.539	$GPGGA,140301,2427.3351,N,08125.3841,W,1,7,1.9,14,M,,M,,*5A
06/11/2015	14:03:01.529	$GPGGA,140302,2427.3355,N,08125.3832,W,1,7,1.9,14,M,,M,,*59
06/11/2015	14:03:02.549	$GPGGA,140303,2427.3360,N,08125.3824,W,1,7,1.9,14,M,,M,,*59
06/11/2015	14:03:03.569	$GPGGA,140304,2427.3362,N,08125.3814,W,1,7,1.9,14,M,,M,,*5F
06/11/2015	14:03:04.529	$GPGGA,140305,2427.3365,N,08125.3804,W,1,7,1.9,14,M,,M,,*58
06/11/2015	14:03:05.529	$GPGGA,140306,2427.3369,N,08125.3796,W,1,7,1.9,14,M,,M,,*53
06/11/2015	14:03:06.529	$GPGGA,140307,2427.3372,N,08125.3787,W,1,7,1.9,14,M,,M,,*58
06/11/2015	14:03:07.611	$GPGGA,140308,2427.3373,N,08125.3777,W,1,7,1.9,14,M,,M,,*59
06/11/2015	14:03:08.549	$GPGGA,140309,2427.3378,N,08125.3768,W,1,7,1.9,14,M,,M,,*5D
06/11/2015	14:03:09.549	$GPGGA,140310,2427.3380,N,08125.3761,W,1,7,1.7,14,M,,M,,*55
06/11/2015	14:03:10.529	$GPGGA,140311,2427.3380,N,08125.3755,W,1,7,1.7,14,M,,M,,*53
06/11/2015	14:03:11.639	$GPGGA,140312,2427.3383,N,08125.3745,W,1,8,1.9,14,M,,M,,*53
06/11/2015	14:03:12.519	$GPGGA,140313,2427.3386,N,08125.3739,W,1,8,1.7,14,M,,M,,*52
06/11/2015	14:03:13.510	$GPGGA,140314,2427.3389,N,08125.3731,W,1,8,1.7,14,M,,M,,*52
06/11/2015	14:03:14.610	$GPGGA,140315,2427.3390,N,08125.3723,W,1,8,1.7,14,M,,M,,*58
06/11/2015	14:03:15.550	$GPGGA,140316,2427.3394,N,08125.3713,W,1,8,1.9,14,M,,M,,*52
06/11/2015	14:03:16.530	$GPGGA,140317,2427.3396,N,08125.3708,W,1,8,1.7,14,M,,M,,*55
06/11/2015	14:03:17.612	$GPGGA,140318,2427.3398,N,08125.3700,W,1,8,1.7,14,M,,M,,*5C
06/11/2015	14:03:18.519	$GPGGA,140319,2427.3401,N,08125.3690,W,1,8,1.9,14,M,,M,,*5C
06/11/2015	14:03:19.649	$GPGGA,140320,2427.3405,N,08125.3679,W,1,7,1.9,14,M,,M,,*5A
06/11/2015	14:03:20.606	$GPGGA,140321,2427.3411,N,08125.3670,W,1,7,1.9,14,M,,M,,*57
06/11/2015	14:03:21.629	$GPGGA,140322,2427.3412,N,08125.3664,W,1,7,1.9,14,M,,M,,*52
06/11/2015	14:03:22.519	$GPGGA,140323,2427.3415,N,08125.3655,W,1,7,1.7,14,M,,M,,*58
06/11/2015	14:03:23.599	$GPGGA,140324,2427.3419,N,08125.3645,W,1,8,1.9,14,M,,M,,*53
06/11/2015	14:03:24.579	$GPGGA,140325,2427.3423,N,08125.3636,W,1,8,1.9,14,M,,M,,*5F
06/11/2015	14:03:25.599	$GPGGA,140326,2427.3427,N,08125.3627,W,1,7,1.9,14,M,,M,,*57
06/11/2015	14:03:26.504	$GPGGA,140327,2427.3432,N,08125.3618,W,1,7,1.9,14,M,,M,,*5E
06/11/2015	14:03:27.600	$GPGGA,140328,2427.3434,N,08125.3608,W,1,7,1.9,14,M,,M,,*56
06/11/2015	14:03:28.589	$GPGGA,140329,2427.3438,N,08125.3600,W,1,7,1.9,14,M,,M,,*53
06/11/2015	14:03:29.569	$GPGGA,140330,2427.3441,N,08125.3591,W,1,7,1.9,14,M,,M,,*5E
06/11/2015	14:03:30.580	$GPGGA,140331,2427.3447,N,08125.3582,W,1,7,1.9,14,M,,M,,*5B
06/11/2015	14:03:31.600	$GPGGA,140332,2427.3449,N,08125.3573,W,1,7,1.9,14,M,,M,,*58
06/11/2015	14:03:32.570	$GPGGA,140333,2427.3452,N,08125.3564,W,1,7,1.9,14,M,,M,,*55
06/11/2015	14:03:33.570	$GPGGA,140334,2427.3456,N,08125.3556,W,1,7,1.9,14,M,,M,,*57
06/11/2015	14:03:34.569	$GPGGA,140335,2427.3459,N,08125.3547,W,1,7,1.9,14,M,,M,,*59
06/11/2015	14:03:35.609	$GPGGA,140336,2427.3463,N,08125.3539,W,1,7,1.9,14,M,,M,,*5A
06/11/2015	14:03:36.559	$GPGGA,140337,2427.3466,N,08125.3531,W,1,7,1.9,14,M,,M,,*56
06/11/2015	14:03:37.579	$GPGGA,140338,2427.3469,N,08125.3522,W,1,7,1.9,14,M,,M,,*54
06/11/2015	14:03:38.549	$GPGGA,140339,2427.3470,N,08125.3514,W,1,7,1.9,14,M,,M,,*58
06/11/2015	14:03:39.579	$GPGGA,140340,2427.3474,N,08125.3506,W,1,7,1.9,14,M,,M,,*51
06/11/2015	14:03:40.549	$GPGGA,140341,2427.3477,N,08125.3497,W,1,7,1.9,14,M,,M,,*5A
06/11/2015	14:03:41.549	$GPGGA,140342,2427.3481,N,08125.3488,W,1,7,1.9,14,M,,M,,*5E
06/11/2015	14:03:42.549	$GPGGA,140343,2427.3478,N,08125.3483,W,1,7,1.9,14,M,,M,,*52
06/11/2015	14:03:43.579	$GPGGA,140344,2427.3479,N,08125.3478,W,1,8,1.7,14,M,,M,,*51
06/11/2015	14:03:44.549	$GPGGA,140345,2427.3478,N,08125.3473,W,1,8,1.7,14,M,,M,,*5A
06/11/2015	14:03:45.559	$GPGGA,140346,2427.3480,N,08125.3466,W,1,8,1.7,14,M,,M,,*5A
06/11/2015	14:03:46.539	$GPGGA,140347,2427.3481,N,08125.3460,W,1,8,1.7,14,M,,M,,*5C
06/11/2015	14:03:47.559	$GPGGA,140348,2427.3483,N,08125.3452,W,1,8,1.7,14,M,,M,,*50
06/11/2015	14:03:48.540	$GPGGA,140349,2427.3484,N,08125.3445,W,1,8,1.7,14,M,,M,,*50
06/11/2015	14:03:49.530	$GPGGA,140350,2427.3487,N,08125.3438,W,1,8,1.7,14,M,,M,,*51
06/11/2015	14:03:50.550	$GPGGA,140351,2427.3490,N,08125.3429,W,1,8,1.7,14,M,,M,,*56
06/11/2015	14:03:51.569	$GPGGA,140352,2427.3491,N,08125.3421,W,1,8,1.7,14,M,,M,,*5C
06/11/2015	14:03:52.539	$GPGGA,140353,2427.3492,N,08125.3413,W,1,8,1.7,14,M,,M,,*5F
06/11/2015	14:03:53.519	$GPGGA,140354,2427.3495,N,08125.3405,W,1,8,1.7,14,M,,M,,*58
06/11/2015	14:03:54.529	$GPGGA,140355,2427.3498,N,08125.3396,W,1,8,1.7,14,M,,M,,*59
06/11/2015	14:03:55.529	$GPGGA,140356,2427.3499,N,08125.3388,W,1,8,1.7,14,M,,M,,*54
06/11/2015	14:03:56.509	$GPGGA,140357,2427.3502,N,08125.3381,W,1,8,1.7,14,M,,M,,*5F
06/11/2015	14:03:57.529	$GPGGA,140358,2427.3505,N,08125.3372,W,1,8,1.7,15,M,,M,,*5A
06/11/2015	14:03:58.494	$GPGGA,140359,2427.3508,N,08125.3363,W,1,8,1.7,15,M,,M,,*56
06/11/2015	14:03:59.529	$GPGGA,140400,2427.3510,N,08125.3355,W,1,8,1.7,15,M,,M,,*51
06/11/2015	14:04:00.609	$GPGGA,140401,2427.3513,N,08125.3345,W,1,8,1.7,15,M,,M,,*52
06/11/2015	14:04:01.509	$GPGGA,140402,2427.3517,N,08125.3336,W,1,7,1.9,15,M,,M,,*50
06/11/2015	14:04:02.502	$GPGGA,140403,2427.3520,N,08125.3326,W,1,7,1.7,15,M,,M,,*5A
06/11/2015	14:04:03.519	$GPGGA,140404,2427.3521,N,08125.3318,W,1,8,1.7,15,M,,M,,*5E
06/11/2015	14:04:04.489	$GPGGA,140405,2427.3524,N,08125.3309,W,1,8,1.7,15,M,,M,,*5A
06/11/2015	14:04:05.579	$GPGGA,140406,2427.3528,N,08125.3300,W,1,8,1.7,15,M,,M,,*5C
06/11/2015	14:04:06.599	$GPGGA,140407,2427.3531,N,08125.3289,W,1,8,1.9,15,M,,M,,*5B
06/11/2015	14:04:07.592	$GPGGA,140408,2427.3534,N,08125.3279,W,1,7,1.9,15,M,,M,,*51
06/11/2015	14:04:08.489	$GPGGA,140409,2427.3538,N,08125.3270,W,1,7,1.9,15,M,,M,,*55
06/11/2015	14:04:09.500	$GPGGA,140410,2427.3542,N,08125.3259,W,1,7,1.9,15,M,,M,,*5B
06/11/2015	14:04:10.579	$GPGGA,140411,2427.3544,N,08125.3250,W,1,7,1.9,15,M,,M,,*55
06/11/2015	14:04:11.578	$GPGGA,140412,2427.3546,N,08125.3240,W,1,7,1.9,15,M,,M,,*55
06/11/2015	14:04:12.569	$GPGGA,140413,2427.3550,N,08125.3231,W,1,7,1.9,15,M,,M,,*55
06/11/2015	14:04:13.591	$GPGGA,140414,2427.3548,N,08125.3227,W,1,7,1.9,15,M,,M,,*5C
06/11/2015	14:04:14.568	$GPGGA,140415,2427.3552,N,08125.3217,W,1,7,1.7,15,M,,M,,*5B
06/11/2015	14:04:15.602	$GPGGA,140416,2427.3555,N,08125.3207,W,1,7,1.9,15,M,,M,,*50
06/11/2015	14:04:16.569	$GPGGA,140417,2427.3559,N,08125.3198,W,1,7,1.9,15,M,,M,,*58
06/11/2015	14:04:17.579	$GPGGA,140418,2427.3560,N,08125.3188,W,1,7,1.9,15,M,,M,,*5C
06/11/2015	14:04:18.559	$GPGGA,140419,2427.3564,N,08125.3178,W,1,7,1.9,15,M,,M,,*56
06/11/2015	14:04:19.579	$GPGGA,140420,2427.3567,N,08125.3168,W,1,7,1.9,15,M,,M,,*5E
06/11/2015	14:04:20.559	$GPGGA,140421,2427.3570,N,08125.3159,W,1,7,1.9,15,M,,M,,*5B
06/11/2015	14:04:21.549	$GPGGA,140422,2427.3571,N,08125.3150,W,1,7,1.9,15,M,,M,,*50
06/11/2015	14:04:22.549	$GPGGA,140423,2427.3575,N,08125.3140,W,1,7,1.9,15,M,,M,,*54
06/11/2015	14:04:23.591	$GPGGA,140424,2427.3578,N,08125.3131,W,1,7,1.9,15,M,,M,,*58
06/11/2015	14:04:24.539	$GPGGA,140425,2427.3579,N,08125.3122,W,1,7,1.9,15,M,,M,,*5A
06/11/2015	14:04:25.539	$GPGGA,140426,2427.3582,N,08125.3112,W,1,7,1.9,15,M,,M,,*5E
06/11/2015	14:04:26.538	$GPGGA,140427,2427.3585,N,08125.3103,W,1,7,1.9,15,M,,M,,*58
06/11/2015	14:04:27.568	$GPGGA,140428,2427.3586,N,08125.3094,W,1,7,1.9,15,M,,M,,*5B
06/11/2015	14:04:28.538	$GPGGA,140429,2427.3589,N,08125.3084,W,1,7,1.9,15,M,,M,,*54
06/11/2015	14:04:29.538	$GPGGA,140430,2427.3592,N,08125.3074,W,1,7,1.9,15,M,,M,,*59
06/11/2015	14:04:30.538	$GPGGA,140431,2427.3593,N,08125.3065,W,1,7,1.9,14,M,,M,,*58
06/11/2015	14:04:31.568	$GPGGA,140432,2427.3596,N,08125.3056,W,1,7,1.9,14,M,,M,,*5E
06/11/2015	14:04:32.538	$GPGGA,140433,2427.3599,N,08125.3046,W,1,7,1.9,14,M,,M,,*51
06/11/2015	14:04:33.549	$GPGGA,140434,2427.3600,N,08125.3037,W,1,7,1.9,14,M,,M,,*53
06/11/2015	14:04:34.529	$GPGGA,140435,2427.3603,N,08125.3029,W,1,7,1.9,14,M,,M,,*5E
06/11/2015	14:04:35.569	$GPGGA,140436,2427.3604,N,08125.3020,W,1,7,1.9,14,M,,M,,*53
06/11/2015	14:04:36.519	$GPGGA,140437,2427.3607,N,08125.3011,W,1,7,1.9,14,M,,M,,*53
06/11/2015	14:04:37.509	$GPGGA,140438,2427.3609,N,08125.3002,W,1,7,1.9,14,M,,M,,*50
06/11/2015	14:04:38.899	$GPGGA,140439,2427.3611,N,08125.2993,W,1,7,1.9,14,M,,M,,*58
06/11/2015	14:04:39.529	$GPGGA,140440,2427.3613,N,08125.2984,W,1,7,1.9,14,M,,M,,*52
06/11/2015	14:04:40.519	$GPGGA,140441,2427.3615,N,08125.2976,W,1,7,1.9,14,M,,M,,*58
06/11/2015	14:04:41.519	$GPGGA,140442,2427.3618,N,08125.2967,W,1,7,1.9,14,M,,M,,*56
06/11/2015	14:04:42.509	$GPGGA,140443,2427.3620,N,08125.2958,W,1,7,1.9,14,M,,M,,*50
06/11/2015	14:04:43.529	$GPGGA,140444,2427.3622,N,08125.2949,W,1,7,1.9,14,M,,M,,*55
06/11/2015	14:04:44.518	$GPGGA,140445,2427.3622,N,08125.2943,W,1,7,1.9,14,M,,M,,*5E
06/11/2015	14:04:45.618	$GPGGA,140446,2427.3622,N,08125.2936,W,1,8,1.7,14,M,,M,,*5E
06/11/2015	14:04:46.518	$GPGGA,140447,2427.3622,N,08125.2930,W,1,8,1.7,14,M,,M,,*59
06/11/2015	14:04:47.538	$GPGGA,140448,2427.3622,N,08125.2924,W,1,8,1.7,14,M,,M,,*53
06/11/2015	14:04:48.508	$GPGGA,140449,2427.3624,N,08125.2917,W,1,8,1.7,14,M,,M,,*54
06/11/2015	14:04:49.578	$GPGGA,140450,2427.3623,N,08125.2910,W,1,8,1.7,14,M,,M,,*5C
06/11/2015	14:04:50.609	$GPGGA,140451,2427.3625,N,08125.2902,W,1,8,1.7,14,M,,M,,*58
06/11/2015	14:04:51.619	$GPGGA,140452,2427.3628,N,08125.2895,W,1,8,1.7,14,M,,M,,*59
06/11/2015	14:04:52.492	$GPGGA,140453,2427.3629,N,08125.2889,W,1,8,1.7,14,M,,M,,*54
06/11/2015	14:04:53.609	$GPGGA,140454,2427.3629,N,08125.2881,W,1,7,1.8,14,M,,M,,*5B
06/11/2015	14:04:54.492	$GPGGA,140455,2427.3632,N,08125.2875,W,1,7,1.7,15,M,,M,,*55
06/11/2015	14:04:55.619	$GPGGA,140456,2427.3635,N,08125.2869,W,1,8,1.7,15,M,,M,,*53
06/11/2015	14:04:56.497	$GPGGA,140457,2427.3636,N,08125.2860,W,1,8,1.7,15,M,,M,,*58
06/11/2015	14:04:57.597	$GPGGA,140458,2427.3636,N,08125.2852,W,1,8,1.7,15,M,,M,,*56
06/11/2015	14:04:58.579	$GPGGA,140459,2427.3640,N,08125.2845,W,1,8,1.7,15,M,,M,,*50
06/11/2015	14:04:59.629	$GPGGA,140500,2427.3644,N,08125.2837,W,1,8,1.7,15,M,,M,,*5C
06/11/2015	14:05:00.559	$GPGGA,140501,2427.3647,N,08125.2828,W,1,8,1.9,15,M,,M,,*5E
06/11/2015	14:05:01.594	$GPGGA,140502,2427.3649,N,08125.2817,W,1,7,1.9,15,M,,M,,*50
06/11/2015	14:05:02.568	$GPGGA,140503,2427.3654,N,08125.2809,W,1,7,1.9,15,M,,M,,*52
06/11/2015	14:05:03.578	$GPGGA,140504,2427.3658,N,08125.2802,W,1,7,1.9,15,M,,M,,*52
06/11/2015	14:05:04.558	$GPGGA,140505,2427.3660,N,08125.2792,W,1,7,1.9,15,M,,M,,*5E
06/11/2015	14:05:05.568	$GPGGA,140506,2427.3662,N,08125.2782,W,1,7,1.9,15,M,,M,,*5E
06/11/2015	14:05:06.548	$GPGGA,140507,2427.3667,N,08125.2775,W,1,7,1.9,15,M,,M,,*52
06/11/2015	14:05:07.590	$GPGGA,140508,2427.3669,N,08125.2767,W,1,7,1.9,15,M,,M,,*50
06/11/2015	14:05:08.559	$GPGGA,140509,2427.3672,N,08125.2757,W,1,7,1.9,15,M,,M,,*58
06/11/2015	14:05:09.549	$GPGGA,140510,2427.3676,N,08125.2749,W,1,7,1.9,15,M,,M,,*5B
06/11/2015	14:05:10.539	$GPGGA,140511,2427.3679,N,08125.2742,W,1,7,1.9,15,M,,M,,*5E
06/11/2015	14:05:11.579	$GPGGA,140512,2427.3683,N,08125.2733,W,1,7,1.9,15,M,,M,,*5E
06/11/2015	14:05:12.539	$GPGGA,140513,2427.3685,N,08125.2724,W,1,7,1.9,15,M,,M,,*5F
06/11/2015	14:05:13.559	$GPGGA,140514,2427.3687,N,08125.2716,W,1,7,1.9,15,M,,M,,*5B
06/11/2015	14:05:14.539	$GPGGA,140515,2427.3690,N,08125.2708,W,1,7,1.9,15,M,,M,,*53
06/11/2015	14:05:15.549	$GPGGA,140516,2427.3694,N,08125.2700,W,1,7,1.9,15,M,,M,,*5C
06/11/2015	14:05:16.529	$GPGGA,140517,2427.3697,N,08125.2691,W,1,7,1.9,15,M,,M,,*57
06/11/2015	14:05:17.569	$GPGGA,140518,2427.3698,N,08125.2683,W,1,7,1.9,15,M,,M,,*54
06/11/2015	14:05:18.529	$GPGGA,140519,2427.3703,N,08125.2675,W,1,7,1.9,15,M,,M,,*5F
06/11/2015	14:05:19.558	$GPGGA,140520,2427.3705,N,08125.2667,W,1,7,1.9,15,M,,M,,*50
06/11/2015	14:05:20.538	$GPGGA,140521,2427.3708,N,08125.2658,W,1,7,1.9,15,M,,M,,*50
06/11/2015	14:05:21.548	$GPGGA,140522,2427.3711,N,08125.2650,W,1,7,1.9,15,M,,M,,*53
06/11/2015	14:05:22.528	$GPGGA,140523,2427.3714,N,08125.2641,W,1,7,1.9,15,M,,M,,*57
06/11/2015	14:05:23.518	$GPGGA,140524,2427.3716,N,08125.2634,W,1,7,1.9,15,M,,M,,*50
06/11/2015	14:05:24.508	$GPGGA,140525,2427.3719,N,08125.2624,W,1,7,1.9,15,M,,M,,*5F
06/11/2015	14:05:25.509	$GPGGA,140526,2427.3723,N,08125.2616,W,1,7,1.9,15,M,,M,,*54
06/11/2015	14:05:26.519	$GPGGA,140527,2427.3726,N,08125.2609,W,1,7,1.9,15,M,,M,,*5E
06/11/2015	14:05:27.550	$GPGGA,140528,2427.3729,N,08125.2601,W,1,7,1.9,15,M,,M,,*56
06/11/2015	14:05:28.509	$GPGGA,140529,2427.3732,N,08125.2592,W,1,7,1.9,15,M,,M,,*54
06/11/2015	14:05:29.509	$GPGGA,140530,2427.3734,N,08125.2584,W,1,7,1.9,15,M,,M,,*5D
06/11/2015	14:05:30.509	$GPGGA,140531,2427.3737,N,08125.2576,W,1,7,1.9,15,M,,M,,*52
06/11/2015	14:05:31.529	$GPGGA,140532,2427.3741,N,08125.2568,W,1,7,1.9,15,M,,M,,*5F
06/11/2015	14:05:32.591	$GPGGA,140533,2427.3743,N,08125.2560,W,1,7,1.9,15,M,,M,,*54
06/11/2015	14:05:33.490	$GPGGA,140534,2427.3745,N,08125.2551,W,1,7,1.9,15,M,,M,,*57
06/11/2015	14:05:34.499	$GPGGA,140535,2427.3748,N,08125.2543,W,1,7,1.9,15,M,,M,,*58
06/11/2015	14:05:35.659	$GPGGA,140536,2427.3752,N,08125.2536,W,1,7,1.9,15,M,,M,,*52
06/11/2015	14:05:36.658	$GPGGA,140537,2427.3755,N,08125.2527,W,1,7,1.9,15,M,,M,,*54
06/11/2015	14:05:37.658	$GPGGA,140538,2427.3756,N,08125.2518,W,1,8,1.7,15,M,,M,,*55
06/11/2015	14:05:38.648	$GPGGA,140539,2427.3759,N,08125.2510,W,1,8,1.7,15,M,,M,,*53
06/11/2015	14:05:40.668	$GPGGA,140541,2427.3766,N,08125.2495,W,1,8,1.7,15,M,,M,,*5C
06/11/2015	14:05:41.478	$GPGGA,140542,2427.3768,N,08125.2487,W,1,8,1.7,15,M,,M,,*52
06/11/2015	14:05:42.638	$GPGGA,140543,2427.3770,N,08125.2479,W,1,8,1.7,15,M,,M,,*5B
06/11/2015	14:05:43.659	$GPGGA,140544,2427.3773,N,08125.2472,W,1,8,1.7,15,M,,M,,*54
06/11/2015	14:05:44.639	$GPGGA,140545,2427.3776,N,08125.2464,W,1,8,1.7,15,M,,M,,*57
06/11/2015	14:05:45.599	$GPGGA,140546,2427.3777,N,08125.2456,W,1,8,1.7,15,M,,M,,*54
06/11/2015	14:05:46.639	$GPGGA,140547,2427.3780,N,08125.2447,W,1,8,1.7,15,M,,M,,*5D
06/11/2015	14:05:47.569	$GPGGA,140548,2427.3781,N,08125.2440,W,1,8,1.7,15,M,,M,,*54
06/11/2015	14:05:48.619	$GPGGA,140549,2427.3784,N,08125.2433,W,1,8,1.7,15,M,,M,,*54
06/11/2015	14:05:49.599	$GPGGA,140550,2427.3787,N,08125.2425,W,1,8,1.7,15,M,,M,,*58
06/11/2015	14:05:50.629	$GPGGA,140551,2427.3788,N,08125.2417,W,1,8,1.7,15,M,,M,,*57
06/11/2015	14:05:51.629	$GPGGA,140552,2427.3791,N,08125.2409,W,1,8,1.7,15,M,,M,,*53
06/11/2015	14:05:52.549	$GPGGA,140553,2427.3794,N,08125.2401,W,1,8,1.7,15,M,,M,,*5F
06/11/2015	14:05:53.600	$GPGGA,140554,2427.3795,N,08125.2394,W,1,8,1.8,15,M,,M,,*5D
06/11/2015	14:05:54.628	$GPGGA,140555,2427.3798,N,08125.2388,W,1,8,1.8,15,M,,M,,*5C
06/11/2015	14:05:55.608	$GPGGA,140556,2427.3799,N,08125.2381,W,1,8,1.7,15,M,,M,,*58
06/11/2015	14:05:56.618	$GPGGA,140557,2427.3802,N,08125.2374,W,1,8,1.7,15,M,,M,,*5E
06/11/2015	14:05:57.538	$GPGGA,140558,2427.3805,N,08125.2367,W,1,8,1.7,15,M,,M,,*54
06/11/2015	14:05:58.608	$GPGGA,140559,2427.3808,N,08125.2360,W,1,8,1.7,15,M,,M,,*5F
06/11/2015	14:05:59.618	$GPGGA,140600,2427.3810,N,08125.2352,W,1,8,1.7,15,M,,M,,*58
06/11/2015	14:06:00.592	$GPGGA,140601,2427.3810,N,08125.2344,W,1,8,1.9,15,M,,M,,*50
06/11/2015	14:06:01.609	$GPGGA,140602,2427.3813,N,08125.2336,W,1,7,1.9,15,M,,M,,*5A
06/11/2015	14:06:03.029	$GPGGA,140603,2427.3817,N,08125.2329,W,1,7,1.9,15,M,,M,,*51
06/11/2015	14:06:03.619	$GPGGA,140604,2427.3819,N,08125.2320,W,1,7,1.9,15,M,,M,,*51
06/11/2015	14:06:04.602	$GPGGA,140605,2427.3820,N,08125.2312,W,1,7,1.9,15,M,,M,,*5B
06/11/2015	14:06:05.519	$GPGGA,140606,2427.3823,N,08125.2305,W,1,7,1.9,15,M,,M,,*5D
06/11/2015	14:06:06.593	$GPGGA,140607,2427.3826,N,08125.2296,W,1,7,1.9,15,M,,M,,*52
06/11/2015	14:06:07.529	$GPGGA,140608,2427.3827,N,08125.2288,W,1,7,1.9,15,M,,M,,*53
06/11/2015	14:06:08.579	$GPGGA,140609,2427.3830,N,08125.2280,W,1,7,1.9,15,M,,M,,*5C
06/11/2015	14:06:09.569	$GPGGA,140610,2427.3833,N,08125.2272,W,1,7,1.9,15,M,,M,,*5A
06/11/2015	14:06:10.579	$GPGGA,140611,2427.3834,N,08125.2263,W,1,7,1.9,15,M,,M,,*5C
06/11/2015	14:06:11.578	$GPGGA,140612,2427.3837,N,08125.2254,W,1,7,1.9,15,M,,M,,*58
06/11/2015	14:06:12.508	$GPGGA,140613,2427.3839,N,08125.2246,W,1,7,1.9,15,M,,M,,*54
06/11/2015	14:06:13.538	$GPGGA,140614,2427.3842,N,08125.2237,W,1,7,1.9,15,M,,M,,*59
06/11/2015	14:06:14.558	$GPGGA,140615,2427.3842,N,08125.2228,W,1,7,1.9,15,M,,M,,*56
06/11/2015	14:06:15.596	$GPGGA,140616,2427.3846,N,08125.2220,W,1,7,1.9,15,M,,M,,*59
06/11/2015	14:06:16.498	$GPGGA,140617,2427.3849,N,08125.2212,W,1,7,1.9,15,M,,M,,*56
06/11/2015	14:06:17.538	$GPGGA,140618,2427.3850,N,08125.2202,W,1,7,1.9,15,M,,M,,*50
06/11/2015	14:06:18.549	$GPGGA,140619,2427.3852,N,08125.2192,W,1,7,1.9,15,M,,M,,*59
06/11/2015	14:06:19.639	$GPGGA,140620,2427.3855,N,08125.2186,W,1,7,1.9,15,M,,M,,*51
06/11/2015	14:06:20.549	$GPGGA,140621,2427.3859,N,08125.2177,W,1,7,1.9,15,M,,M,,*52
06/11/2015	14:06:21.589	$GPGGA,140622,2427.3860,N,08125.2168,W,1,7,1.9,15,M,,M,,*55
06/11/2015	14:06:22.594	$GPGGA,140623,2427.3862,N,08125.2160,W,1,7,1.9,15,M,,M,,*5E
06/11/2015	14:06:23.504	$GPGGA,140624,2427.3864,N,08125.2152,W,1,7,1.9,15,M,,M,,*5E
06/11/2015	14:06:24.579	$GPGGA,140625,2427.3867,N,08125.2144,W,1,7,1.9,15,M,,M,,*5B
06/11/2015	14:06:25.609	$GPGGA,140626,2427.3867,N,08125.2136,W,1,7,1.9,15,M,,M,,*5D
06/11/2015	14:06:26.549	$GPGGA,140627,2427.3871,N,08125.2128,W,1,7,1.9,15,M,,M,,*54
06/11/2015	14:06:27.619	$GPGGA,140628,2427.3873,N,08125.2122,W,1,7,1.9,15,M,,M,,*53
06/11/2015	14:06:28.579	$GPGGA,140629,2427.3875,N,08125.2115,W,1,7,1.9,15,M,,M,,*50
06/11/2015	14:06:29.568	$GPGGA,140630,2427.3875,N,08125.2107,W,1,7,1.9,15,M,,M,,*5B
06/11/2015	14:06:30.593	$GPGGA,140631,2427.3878,N,08125.2101,W,1,7,1.9,15,M,,M,,*51
06/11/2015	14:06:31.618	$GPGGA,140632,2427.3881,N,08125.2094,W,1,7,1.9,15,M,,M,,*59
06/11/2015	14:06:32.558	$GPGGA,140633,2427.3882,N,08125.2087,W,1,7,1.9,15,M,,M,,*59
06/11/2015	14:06:33.608	$GPGGA,140634,2427.3882,N,08125.2080,W,1,7,1.9,15,M,,M,,*59
06/11/2015	14:06:34.558	$GPGGA,140635,2427.3884,N,08125.2077,W,1,7,1.7,15,M,,M,,*58
06/11/2015	14:06:35.590	$GPGGA,140636,2427.3883,N,08125.2071,W,1,8,1.7,15,M,,M,,*55
06/11/2015	14:06:36.559	$GPGGA,140637,2427.3882,N,08125.2068,W,1,8,1.7,15,M,,M,,*5D
06/11/2015	14:06:37.569	$GPGGA,140638,2427.3882,N,08125.2065,W,1,8,1.7,15,M,,M,,*5F
06/11/2015	14:06:38.559	$GPGGA,140639,2427.3884,N,08125.2059,W,1,8,1.7,15,M,,M,,*57
06/11/2015	14:06:39.579	$GPGGA,140640,2427.3885,N,08125.2052,W,1,8,1.9,15,M,,M,,*5D
06/11/2015	14:06:40.549	$GPGGA,140641,2427.3888,N,08125.2046,W,1,8,1.7,15,M,,M,,*5A
06/11/2015	14:06:41.559	$GPGGA,140642,2427.3889,N,08125.2040,W,1,8,1.7,15,M,,M,,*5E
06/11/2015	14:06:42.579	$GPGGA,140643,2427.3891,N,08125.2035,W,1,8,1.7,15,M,,M,,*54
06/11/2015	14:06:43.579	$GPGGA,140644,2427.3893,N,08125.2028,W,1,8,1.9,15,M,,M,,*53
06/11/2015	14:06:44.559	$GPGGA,140645,2427.3896,N,08125.2022,W,1,8,1.9,15,M,,M,,*5D
06/11/2015	14:06:45.606	$GPGGA,140646,2427.3896,N,08125.2016,W,1,7,1.9,15,M,,M,,*56
06/11/2015	14:06:46.618	$GPGGA,140647,2427.3899,N,08125.2010,W,1,7,1.9,15,M,,M,,*5E
06/11/2015	14:06:47.568	$GPGGA,140648,2427.3900,N,08125.2006,W,1,7,1.8,15,M,,M,,*56
06/11/2015	14:06:48.568	$GPGGA,140649,2427.3902,N,08125.2002,W,1,7,1.7,15,M,,M,,*5E
06/11/2015	14:06:49.548	$GPGGA,140650,2427.3901,N,08125.1999,W,1,8,1.7,15,M,,M,,*52
06/11/2015	14:06:50.558	$GPGGA,140651,2427.3904,N,08125.1997,W,1,8,1.7,15,M,,M,,*58
06/11/2015	14:06:51.578	$GPGGA,140652,2427.3904,N,08125.1995,W,1,8,1.7,15,M,,M,,*59
06/11/2015	14:06:52.559	$GPGGA,140653,2427.3904,N,08125.1992,W,1,8,1.7,15,M,,M,,*5F
06/11/2015	14:06:53.529	$GPGGA,140654,2427.3906,N,08125.1989,W,1,8,1.7,15,M,,M,,*50
06/11/2015	14:06:54.549	$GPGGA,140655,2427.3906,N,08125.1989,W,1,8,1.7,15,M,,M,,*51
06/11/2015	14:06:55.539	$GPGGA,140656,2427.3906,N,08125.1982,W,1,8,1.7,15,M,,M,,*59
06/11/2015	14:06:56.549	$GPGGA,140657,2427.3907,N,08125.1979,W,1,8,1.7,15,M,,M,,*5D
06/11/2015	14:06:57.529	$GPGGA,140658,2427.3909,N,08125.1976,W,1,8,1.7,15,M,,M,,*53
06/11/2015	14:06:58.629	$GPGGA,140659,2427.3910,N,08125.1972,W,1,8,1.7,15,M,,M,,*5E
06/11/2015	14:06:59.679	$GPGGA,140700,2427.3909,N,08125.1968,W,1,8,1.7,15,M,,M,,*50
06/11/2015	14:07:01.143	$GPGGA,140701,2427.3909,N,08125.1968,W,1,8,1.7,15,M,,M,,*51
06/11/2015	14:07:01.629	$GPGGA,140702,2427.3913,N,08125.1963,W,1,8,1.7,15,M,,M,,*52
06/11/2015	14:07:02.519	$GPGGA,140703,2427.3913,N,08125.1963,W,1,8,1.7,15,M,,M,,*53
06/11/2015	14:07:03.529	$GPGGA,140704,2427.3915,N,08125.1954,W,1,7,2.0,15,M,,M,,*5D
06/11/2015	14:07:04.508	$GPGGA,140705,2427.3915,N,08125.1954,W,1,7,2.0,15,M,,M,,*5C
06/11/2015	14:07:05.508	$GPGGA,140706,2427.3921,N,08125.1946,W,1,8,1.7,15,M,,M,,*50
06/11/2015	14:07:06.495	$GPGGA,140707,2427.3921,N,08125.1946,W,1,8,2.0,15,M,,M,,*55
06/11/2015	14:07:07.513	$GPGGA,140708,2427.3924,N,08125.1938,W,1,7,2.0,15,M,,M,,*59
06/11/2015	14:07:08.608	$GPGGA,140709,2427.3925,N,08125.1934,W,1,7,2.0,15,M,,M,,*55
06/11/2015	14:07:09.500	$GPGGA,140710,2427.3928,N,08125.1930,W,1,7,2.0,15,M,,M,,*54
06/11/2015	14:07:10.606	$GPGGA,140711,2427.3929,N,08125.1927,W,1,7,2.0,15,M,,M,,*52
06/11/2015	14:07:11.609	$GPGGA,140712,2427.3931,N,08125.1922,W,1,7,2.0,15,M,,M,,*5D
06/11/2015	14:07:12.579	$GPGGA,140713,2427.3932,N,08125.1919,W,1,7,2.0,15,M,,M,,*57
06/11/2015	14:07:13.611	$GPGGA,140714,2427.3933,N,08125.1915,W,1,7,2.0,15,M,,M,,*5D
06/11/2015	14:07:14.569	$GPGGA,140715,2427.3936,N,08125.1912,W,1,7,2.0,15,M,,M,,*5E
06/11/2015	14:07:15.611	$GPGGA,140716,2427.3936,N,08125.1910,W,1,7,2.0,15,M,,M,,*5F
06/11/2015	14:07:16.579	$GPGGA,140717,2427.3939,N,08125.1907,W,1,7,2.0,15,M,,M,,*57
06/11/2015	14:07:17.590	$GPGGA,140718,2427.3940,N,08125.1904,W,1,7,2.0,15,M,,M,,*55
06/11/2015	14:07:18.579	$GPGGA,140719,2427.3940,N,08125.1902,W,1,7,2.0,15,M,,M,,*52
06/11/2015	14:07:19.604	$GPGGA,140720,2427.3942,N,08125.1899,W,1,7,2.0,15,M,,M,,*59
06/11/2015	14:07:20.559	$GPGGA,140721,2427.3943,N,08125.1897,W,1,7,2.0,15,M,,M,,*57
06/11/2015	14:07:21.588	$GPGGA,140722,2427.3945,N,08125.1894,W,1,7,2.0,15,M,,M,,*51
06/11/2015	14:07:22.568	$GPGGA,140723,2427.3944,N,08125.1892,W,1,7,2.0,15,M,,M,,*57
06/11/2015	14:07:23.589	$GPGGA,140724,2427.3947,N,08125.1889,W,1,7,2.0,15,M,,M,,*59
06/11/2015	14:07:24.548	$GPGGA,140725,2427.3949,N,08125.1887,W,1,7,2.0,15,M,,M,,*58
06/11/2015	14:07:25.568	$GPGGA,140726,2427.3950,N,08125.1885,W,1,7,2.0,15,M,,M,,*51
06/11/2015	14:07:26.558	$GPGGA,140727,2427.3949,N,08125.1882,W,1,7,2.0,15,M,,M,,*5F
06/11/2015	14:07:27.578	$GPGGA,140728,2427.3951,N,08125.1881,W,1,7,2.0,15,M,,M,,*5A
06/11/2015	14:07:28.539	$GPGGA,140729,2427.3953,N,08125.1880,W,1,7,2.0,15,M,,M,,*58
06/11/2015	14:07:29.569	$GPGGA,140730,2427.3954,N,08125.1877,W,1,7,2.0,15,M,,M,,*5F
06/11/2015	14:07:30.549	$GPGGA,140731,2427.3954,N,08125.1875,W,1,7,2.0,15,M,,M,,*5C
06/11/2015	14:07:31.569	$GPGGA,140732,2427.3954,N,08125.1874,W,1,7,2.0,15,M,,M,,*5E
06/11/2015	14:07:32.529	$GPGGA,140733,2427.3954,N,08125.1875,W,1,7,2.0,15,M,,M,,*5E
06/11/2015	14:07:33.559	$GPGGA,140734,2427.3954,N,08125.1875,W,1,8,1.7,15,M,,M,,*52
06/11/2015	14:07:34.529	$GPGGA,140735,2427.3954,N,08125.1875,W,1,8,1.7,15,M,,M,,*53
06/11/2015	14:07:35.559	$GPGGA,140736,2427.3954,N,08125.1872,W,1,8,1.7,15,M,,M,,*57
06/11/2015	14:07:36.519	$GPGGA,140737,2427.3956,N,08125.1872,W,1,8,2.0,15,M,,M,,*50
06/11/2015	14:07:37.549	$GPGGA,140738,2427.3955,N,08125.1871,W,1,8,1.7,15,M,,M,,*5B
06/11/2015	14:07:38.519	$GPGGA,140739,2427.3956,N,08125.1870,W,1,8,1.7,15,M,,M,,*58
06/11/2015	14:07:39.538	$GPGGA,140740,2427.3957,N,08125.1869,W,1,8,1.7,15,M,,M,,*5F
06/11/2015	14:07:40.528	$GPGGA,140741,2427.3956,N,08125.1868,W,1,8,1.7,15,M,,M,,*5E
06/11/2015	14:07:41.538	$GPGGA,140742,2427.3957,N,08125.1867,W,1,8,1.7,15,M,,M,,*53
06/11/2015	14:07:42.508	$GPGGA,140743,2427.3958,N,08125.1865,W,1,8,1.7,15,M,,M,,*5F
06/11/2015	14:07:43.538	$GPGGA,140744,2427.3961,N,08125.1863,W,1,7,2.0,15,M,,M,,*5F
06/11/2015	14:07:44.618	$GPGGA,140745,2427.3962,N,08125.1861,W,1,7,2.0,15,M,,M,,*5F
06/11/2015	14:07:45.501	$GPGGA,140746,2427.3964,N,08125.1858,W,1,7,2.0,15,M,,M,,*50
06/11/2015	14:07:46.509	$GPGGA,140747,2427.3965,N,08125.1858,W,1,7,2.0,15,M,,M,,*50
06/11/2015	14:07:47.519	$GPGGA,140748,2427.3968,N,08125.1857,W,1,6,2.5,15,M,,M,,*59
06/11/2015	14:07:48.500	$GPGGA,140749,2427.3969,N,08125.1855,W,1,6,2.0,15,M,,M,,*5E
06/11/2015	14:07:49.493	$GPGGA,140750,2427.3969,N,08125.1853,W,1,7,2.0,15,M,,M,,*51
06/11/2015	14:07:50.509	$GPGGA,140751,2427.3972,N,08125.1852,W,1,7,2.0,15,M,,M,,*5B
06/11/2015	14:07:51.619	$GPGGA,140752,2427.3976,N,08125.1851,W,1,7,2.0,15,M,,M,,*5F
06/11/2015	14:07:52.609	$GPGGA,140753,2427.3976,N,08125.1853,W,1,7,2.0,15,M,,M,,*5C
06/11/2015	14:07:53.505	$GPGGA,140754,2427.3978,N,08125.1851,W,1,8,1.7,15,M,,M,,*5C
06/11/2015	14:07:54.502	$GPGGA,140755,2427.3979,N,08125.1851,W,1,8,1.7,15,M,,M,,*5C
06/11/2015	14:07:55.509	$GPGGA,140756,2427.3978,N,08125.1853,W,1,8,1.7,15,M,,M,,*5C
06/11/2015	14:07:56.578	$GPGGA,140757,2427.3980,N,08125.1852,W,1,8,1.7,15,M,,M,,*5B
06/11/2015	14:07:57.618	$GPGGA,140758,2427.3982,N,08125.1851,W,1,8,1.7,15,M,,M,,*55
06/11/2015	14:07:58.578	$GPGGA,140759,2427.3980,N,08125.1854,W,1,8,2.0,15,M,,M,,*57
06/11/2015	14:07:59.599	$GPGGA,140800,2427.3983,N,08125.1853,W,1,8,1.7,15,M,,M,,*54
06/11/2015	14:08:00.578	$GPGGA,140801,2427.3981,N,08125.1853,W,1,8,2.0,15,M,,M,,*53
06/11/2015	14:08:01.568	$GPGGA,140802,2427.3983,N,08125.1854,W,1,8,1.7,16,M,,M,,*52
06/11/2015	14:08:02.578	$GPGGA,140803,2427.3983,N,08125.1855,W,1,8,1.7,16,M,,M,,*52
06/11/2015	14:08:03.594	$GPGGA,140804,2427.3983,N,08125.1855,W,1,8,1.7,16,M,,M,,*55
06/11/2015	14:08:04.569	$GPGGA,140805,2427.3983,N,08125.1855,W,1,8,2.0,16,M,,M,,*50
06/11/2015	14:08:05.559	$GPGGA,140806,2427.3983,N,08125.1855,W,1,8,1.7,16,M,,M,,*57
06/11/2015	14:08:06.569	$GPGGA,140807,2427.3983,N,08125.1855,W,1,8,1.7,16,M,,M,,*56
06/11/2015	14:08:07.570	$GPGGA,140808,2427.3983,N,08125.1855,W,1,8,1.7,16,M,,M,,*59
06/11/2015	14:08:08.550	$GPGGA,140809,2427.3983,N,08125.1854,W,1,8,1.7,16,M,,M,,*59
06/11/2015	14:08:09.569	$GPGGA,140810,2427.3983,N,08125.1853,W,1,8,1.7,17,M,,M,,*57
06/11/2015	14:08:10.569	$GPGGA,140811,2427.3983,N,08125.1853,W,1,8,1.7,17,M,,M,,*56
06/11/2015	14:08:11.579	$GPGGA,140812,2427.3983,N,08125.1853,W,1,8,1.7,17,M,,M,,*55
06/11/2015	14:08:12.549	$GPGGA,140813,2427.3983,N,08125.1852,W,1,8,1.7,17,M,,M,,*55
06/11/2015	14:08:13.559	$GPGGA,140814,2427.3983,N,08125.1853,W,1,8,1.7,17,M,,M,,*53
06/11/2015	14:08:14.548	$GPGGA,140815,2427.3983,N,08125.1853,W,1,8,1.7,17,M,,M,,*52
06/11/2015	14:08:15.588	$GPGGA,140816,2427.3983,N,08125.1852,W,1,8,1.7,18,M,,M,,*5F
06/11/2015	14:08:16.538	$GPGGA,140817,2427.3985,N,08125.1853,W,1,8,1.7,18,M,,M,,*59
06/11/2015	14:08:17.568	$GPGGA,140818,2427.3986,N,08125.1853,W,1,8,1.7,18,M,,M,,*55
06/11/2015	14:08:18.528	$GPGGA,140819,2427.3985,N,08125.1854,W,1,8,1.7,18,M,,M,,*50
06/11/2015	14:08:19.558	$GPGGA,140820,2427.3987,N,08125.1854,W,1,8,1.7,18,M,,M,,*58
06/11/2015	14:08:20.529	$GPGGA,140821,2427.3987,N,08125.1854,W,1,8,1.7,18,M,,M,,*59
06/11/2015	14:08:21.559	$GPGGA,140822,2427.3987,N,08125.1854,W,1,8,1.7,19,M,,M,,*5B
06/11/2015	14:08:22.529	$GPGGA,140823,2427.3987,N,08125.1855,W,1,8,1.7,19,M,,M,,*5B
06/11/2015	14:08:23.560	$GPGGA,140824,2427.3989,N,08125.1857,W,1,8,1.7,19,M,,M,,*50
06/11/2015	14:08:24.529	$GPGGA,140825,2427.3988,N,08125.1856,W,1,8,1.7,19,M,,M,,*51
06/11/2015	14:08:25.539	$GPGGA,140826,2427.3989,N,08125.1855,W,1,7,2.0,19,M,,M,,*5B
06/11/2015	14:08:26.509	$GPGGA,140827,2427.3988,N,08125.1861,W,1,7,2.0,19,M,,M,,*5C
06/11/2015	14:08:27.519	$GPGGA,140828,2427.3990,N,08125.1860,W,1,8,1.7,19,M,,M,,*50
06/11/2015	14:08:28.529	$GPGGA,140829,2427.3992,N,08125.1859,W,1,8,2.0,19,M,,M,,*5D
06/11/2015	14:08:29.949	$GPGGA,140830,2427.3993,N,08125.1858,W,1,8,1.7,19,M,,M,,*51
06/11/2015	14:08:31.590	$GPGGA,140832,2427.3996,N,08125.1861,W,1,8,1.7,19,M,,M,,*5C
06/11/2015	14:08:32.521	$GPGGA,140833,2427.3995,N,08125.1861,W,1,8,2.0,19,M,,M,,*5A
06/11/2015	14:08:33.618	$GPGGA,140834,2427.3997,N,08125.1862,W,1,7,2.0,19,M,,M,,*53
06/11/2015	14:08:34.518	$GPGGA,140835,2427.3996,N,08125.1864,W,1,7,2.0,19,M,,M,,*55
06/11/2015	14:08:35.618	$GPGGA,140836,2427.3997,N,08125.1863,W,1,7,2.0,19,M,,M,,*50
06/11/2015	14:08:36.508	$GPGGA,140837,2427.3998,N,08125.1864,W,1,7,2.0,19,M,,M,,*59
06/11/2015	14:08:37.590	$GPGGA,140838,2427.3997,N,08125.1868,W,1,7,2.0,19,M,,M,,*55
06/11/2015	14:08:38.491	$GPGGA,140839,2427.3997,N,08125.1871,W,1,7,1.7,19,M,,M,,*58
06/11/2015	14:08:39.619	$GPGGA,140840,2427.3996,N,08125.1870,W,1,8,1.7,19,M,,M,,*59
06/11/2015	14:08:40.503	$GPGGA,140841,2427.3995,N,08125.1872,W,1,8,1.7,19,M,,M,,*59
06/11/2015	14:08:41.599	$GPGGA,140842,2427.3996,N,08125.1876,W,1,8,1.7,19,M,,M,,*5D
06/11/2015	14:08:42.579	$GPGGA,140843,2427.3994,N,08125.1879,W,1,8,1.7,19,M,,M,,*51
06/11/2015	14:08:43.619	$GPGGA,140844,2427.3994,N,08125.1878,W,1,8,1.7,19,M,,M,,*57
06/11/2015	14:08:44.579	$GPGGA,140845,2427.3994,N,08125.1882,W,1,8,1.7,19,M,,M,,*53
06/11/2015	14:08:45.569	$GPGGA,140846,2427.3994,N,08125.1884,W,1,8,1.7,19,M,,M,,*56
06/11/2015	14:08:46.569	$GPGGA,140847,2427.3994,N,08125.1886,W,1,8,1.7,19,M,,M,,*55
06/11/2015	14:08:47.599	$GPGGA,140848,2427.3992,N,08125.1885,W,1,8,1.7,19,M,,M,,*5F
06/11/2015	14:08:48.569	$GPGGA,140849,2427.3993,N,08125.1887,W,1,8,1.7,19,M,,M,,*5D
06/11/2015	14:08:49.578	$GPGGA,140850,2427.3994,N,08125.1889,W,1,8,1.7,19,M,,M,,*5C
06/11/2015	14:08:50.568	$GPGGA,140851,2427.3994,N,08125.1889,W,1,8,1.7,19,M,,M,,*5D
06/11/2015	14:08:51.599	$GPGGA,140852,2427.3994,N,08125.1888,W,1,7,2.0,19,M,,M,,*54
06/11/2015	14:08:52.558	$GPGGA,140853,2427.3996,N,08125.1887,W,1,7,1.7,19,M,,M,,*5C
06/11/2015	14:08:53.568	$GPGGA,140854,2427.3997,N,08125.1886,W,1,8,1.7,19,M,,M,,*54
06/11/2015	14:08:54.568	$GPGGA,140855,2427.4001,N,08125.1885,W,1,8,1.7,19,M,,M,,*57
06/11/2015	14:08:55.589	$GPGGA,140856,2427.4004,N,08125.1882,W,1,8,1.7,19,M,,M,,*56
06/11/2015	14:08:56.559	$GPGGA,140857,2427.4008,N,08125.1878,W,1,8,1.7,19,M,,M,,*5E
06/11/2015	14:08:57.569	$GPGGA,140858,2427.4012,N,08125.1875,W,1,8,1.7,19,M,,M,,*57
06/11/2015	14:08:58.549	$GPGGA,140859,2427.4019,N,08125.1871,W,1,8,1.7,19,M,,M,,*59
06/11/2015	14:08:59.589	$GPGGA,140900,2427.4026,N,08125.1866,W,1,8,1.7,19,M,,M,,*5E
06/11/2015	14:09:00.549	$GPGGA,140901,2427.4034,N,08125.1860,W,1,8,1.7,19,M,,M,,*5A
06/11/2015	14:09:01.569	$GPGGA,140902,2427.4043,N,08125.1852,W,1,8,1.7,19,M,,M,,*58
06/11/2015	14:09:02.559	$GPGGA,140903,2427.4052,N,08125.1846,W,1,8,1.7,19,M,,M,,*5C
06/11/2015	14:09:03.579	$GPGGA,140904,2427.4066,N,08125.1840,W,1,8,1.7,20,M,,M,,*50
06/11/2015	14:09:04.539	$GPGGA,140905,2427.4076,N,08125.1831,W,1,8,2.0,20,M,,M,,*52
06/11/2015	14:09:05.539	$GPGGA,140906,2427.4088,N,08125.1821,W,1,8,1.7,20,M,,M,,*55
06/11/2015	14:09:06.528	$GPGGA,140907,2427.4102,N,08125.1814,W,1,8,1.7,20,M,,M,,*51
06/11/2015	14:09:07.578	$GPGGA,140908,2427.4117,N,08125.1807,W,1,8,1.7,20,M,,M,,*58
06/11/2015	14:09:08.538	$GPGGA,140909,2427.4131,N,08125.1798,W,1,8,1.7,20,M,,M,,*54
06/11/2015	14:09:09.558	$GPGGA,140910,2427.4146,N,08125.1789,W,1,8,1.7,20,M,,M,,*5C
06/11/2015	14:09:10.528	$GPGGA,140911,2427.4164,N,08125.1780,W,1,8,1.7,20,M,,M,,*54
06/11/2015	14:09:11.528	$GPGGA,140912,2427.4181,N,08125.1773,W,1,8,1.7,20,M,,M,,*50
06/11/2015	14:09:12.508	$GPGGA,140913,2427.4199,N,08125.1766,W,1,8,1.7,20,M,,M,,*5C
06/11/2015	14:09:13.509	$GPGGA,140914,2427.4217,N,08125.1757,W,1,8,1.7,20,M,,M,,*5C
06/11/2015	14:09:14.619	$GPGGA,140915,2427.4236,N,08125.1748,W,1,8,1.7,20,M,,M,,*50
06/11/2015	14:09:15.619	$GPGGA,140916,2427.4256,N,08125.1745,W,1,7,2.0,20,M,,M,,*53
06/11/2015	14:09:16.504	$GPGGA,140917,2427.4276,N,08125.1739,W,1,7,1.7,20,M,,M,,*5F
06/11/2015	14:09:17.609	$GPGGA,140918,2427.4294,N,08125.1732,W,1,8,1.7,20,M,,M,,*58
06/11/2015	14:09:18.509	$GPGGA,140919,2427.4315,N,08125.1726,W,1,8,1.7,20,M,,M,,*54
06/11/2015	14:09:19.529	$GPGGA,140920,2427.4334,N,08125.1724,W,1,8,1.7,20,M,,M,,*5F
06/11/2015	14:09:20.500	$GPGGA,140921,2427.4355,N,08125.1721,W,1,8,1.7,20,M,,M,,*5C
06/11/2015	14:09:21.759	$GPGGA,140922,2427.4376,N,08125.1716,W,1,8,1.7,20,M,,M,,*5A
06/11/2015	14:09:23.530	$GPGGA,140924,2427.4417,N,08125.1713,W,1,8,1.7,20,M,,M,,*59
06/11/2015	14:09:24.504	$GPGGA,140925,2427.4440,N,08125.1711,W,1,8,1.7,19,M,,M,,*52
06/11/2015	14:09:25.488	$GPGGA,140926,2427.4462,N,08125.1710,W,1,7,2.0,19,M,,M,,*5B
06/11/2015	14:09:26.590	$GPGGA,140927,2427.4482,N,08125.1712,W,1,7,1.7,19,M,,M,,*52
06/11/2015	14:09:27.638	$GPGGA,140928,2427.4503,N,08125.1711,W,1,8,1.7,19,M,,M,,*59
06/11/2015	14:09:28.578	$GPGGA,140929,2427.4524,N,08125.1713,W,1,8,1.7,19,M,,M,,*5F
06/11/2015	14:09:29.568	$GPGGA,140930,2427.4545,N,08125.1716,W,1,8,1.7,19,M,,M,,*55
06/11/2015	14:09:30.579	$GPGGA,140931,2427.4565,N,08125.1719,W,1,8,1.7,19,M,,M,,*59
06/11/2015	14:09:31.590	$GPGGA,140932,2427.4586,N,08125.1723,W,1,8,1.7,19,M,,M,,*5E
06/11/2015	14:09:32.569	$GPGGA,140933,2427.4605,N,08125.1727,W,1,8,1.8,19,M,,M,,*5C
06/11/2015	14:09:33.589	$GPGGA,140934,2427.4626,N,08125.1731,W,1,8,1.7,19,M,,M,,*52
06/11/2015	14:09:34.560	$GPGGA,140935,2427.4647,N,08125.1738,W,1,8,1.7,19,M,,M,,*5D
06/11/2015	14:09:35.619	$GPGGA,140936,2427.4666,N,08125.1745,W,1,8,1.7,19,M,,M,,*57
06/11/2015	14:09:36.559	$GPGGA,140937,2427.4686,N,08125.1752,W,1,8,1.7,19,M,,M,,*5E
06/11/2015	14:09:37.590	$GPGGA,140938,2427.4705,N,08125.1759,W,1,8,1.7,19,M,,M,,*50
06/11/2015	14:09:38.559	$GPGGA,140939,2427.4724,N,08125.1767,W,1,8,1.7,19,M,,M,,*5F
06/11/2015	14:09:39.607	$GPGGA,140940,2427.4742,N,08125.1777,W,1,8,1.7,19,M,,M,,*50
06/11/2015	14:09:40.559	$GPGGA,140941,2427.4762,N,08125.1785,W,1,8,1.7,19,M,,M,,*5E
06/11/2015	14:09:41.548	$GPGGA,140942,2427.4781,N,08125.1796,W,1,8,1.7,19,M,,M,,*52
06/11/2015	14:09:42.558	$GPGGA,140943,2427.4799,N,08125.1807,W,1,8,1.7,19,M,,M,,*5D
06/11/2015	14:09:43.591	$GPGGA,140944,2427.4817,N,08125.1819,W,1,8,1.7,19,M,,M,,*5C
06/11/2015	14:09:44.549	$GPGGA,140945,2427.4835,N,08125.1832,W,1,8,1.7,19,M,,M,,*54
06/11/2015	14:09:45.558	$GPGGA,140946,2427.4852,N,08125.1846,W,1,8,1.7,19,M,,M,,*55
06/11/2015	14:09:46.538	$GPGGA,140947,2427.4868,N,08125.1860,W,1,8,1.7,19,M,,M,,*59
06/11/2015	14:09:47.578	$GPGGA,140948,2427.4885,N,08125.1873,W,1,8,1.7,19,M,,M,,*57
06/11/2015	14:09:48.530	$GPGGA,140949,2427.4901,N,08125.1889,W,1,8,1.7,19,M,,M,,*5E
06/11/2015	14:09:49.559	$GPGGA,140950,2427.4915,N,08125.1905,W,1,8,1.7,19,M,,M,,*56
06/11/2015	14:09:51.819	$GPGGA,140952,2427.4947,N,08125.1940,W,1,8,1.7,19,M,,M,,*52
06/11/2015	14:09:52.529	$GPGGA,140953,2427.4962,N,08125.1958,W,1,8,1.7,19,M,,M,,*5D
06/11/2015	14:09:53.519	$GPGGA,140954,2427.4976,N,08125.1976,W,1,8,1.7,19,M,,M,,*53
06/11/2015	14:09:54.529	$GPGGA,140955,2427.4987,N,08125.1995,W,1,8,2.0,19,M,,M,,*55
06/11/2015	14:09:55.569	$GPGGA,140956,2427.5000,N,08125.2014,W,1,8,1.7,19,M,,M,,*56
06/11/2015	14:09:56.519	$GPGGA,140957,2427.5011,N,08125.2034,W,1,8,1.7,19,M,,M,,*55
06/11/2015	14:09:57.509	$GPGGA,140958,2427.5022,N,08125.2055,W,1,8,1.7,19,M,,M,,*5D
06/11/2015	14:09:58.629	$GPGGA,140959,2427.5033,N,08125.2074,W,1,8,1.7,19,M,,M,,*5F
06/11/2015	14:09:59.678	$GPGGA,141000,2427.5044,N,08125.2096,W,1,8,1.7,19,M,,M,,*57
06/11/2015	14:10:00.603	$GPGGA,141001,2427.5053,N,08125.2118,W,1,8,1.7,19,M,,M,,*57
06/11/2015	14:10:01.538	$GPGGA,141002,2427.5063,N,08125.2140,W,1,8,1.7,19,M,,M,,*5A
06/11/2015	14:10:02.599	$GPGGA,141003,2427.5071,N,08125.2161,W,1,8,1.7,19,M,,M,,*5B
06/11/2015	14:10:03.508	$GPGGA,141004,2427.5080,N,08125.2183,W,1,8,1.7,19,M,,M,,*5E
06/11/2015	14:10:04.508	$GPGGA,141005,2427.5088,N,08125.2204,W,1,8,1.7,19,M,,M,,*5B
06/11/2015	14:10:05.599	$GPGGA,141006,2427.5095,N,08125.2226,W,1,8,1.7,19,M,,M,,*54
06/11/2015	14:10:06.609	$GPGGA,141007,2427.5102,N,08125.2248,W,1,8,1.7,19,M,,M,,*52
06/11/2015	14:10:07.529	$GPGGA,141008,2427.5107,N,08125.2270,W,1,8,1.7,19,M,,M,,*53
06/11/2015	14:10:09.049	$GPGGA,141009,2427.5114,N,08125.2294,W,1,8,1.7,19,M,,M,,*5A
06/11/2015	14:10:09.600	$GPGGA,141010,2427.5120,N,08125.2317,W,1,8,1.7,19,M,,M,,*5F
06/11/2015	14:10:10.500	$GPGGA,141011,2427.5124,N,08125.2341,W,1,8,1.7,19,M,,M,,*59
06/11/2015	14:10:11.499	$GPGGA,141012,2427.5128,N,08125.2364,W,1,8,1.7,19,M,,M,,*51
06/11/2015	14:10:12.579	$GPGGA,141013,2427.5131,N,08125.2388,W,1,8,1.7,19,M,,M,,*5A
06/11/2015	14:10:13.590	$GPGGA,141014,2427.5134,N,08125.2411,W,1,8,1.8,19,M,,M,,*50
06/11/2015	14:10:14.579	$GPGGA,141015,2427.5135,N,08125.2436,W,1,8,1.7,19,M,,M,,*5A
06/11/2015	14:10:15.639	$GPGGA,141016,2427.5138,N,08125.2461,W,1,8,1.7,19,M,,M,,*56
06/11/2015	14:10:16.578	$GPGGA,141017,2427.5137,N,08125.2486,W,1,8,1.7,19,M,,M,,*51
06/11/2015	14:10:17.590	$GPGGA,141018,2427.5138,N,08125.2511,W,1,8,1.7,19,M,,M,,*5E
06/11/2015	14:10:18.568	$GPGGA,141019,2427.5137,N,08125.2534,W,1,8,1.8,19,M,,M,,*58
06/11/2015	14:10:19.605	$GPGGA,141020,2427.5138,N,08125.2558,W,1,7,1.7,19,M,,M,,*57
06/11/2015	14:10:20.568	$GPGGA,141021,2427.5135,N,08125.2580,W,1,7,1.7,19,M,,M,,*5E
06/11/2015	14:10:21.588	$GPGGA,141022,2427.5134,N,08125.2603,W,1,8,1.7,19,M,,M,,*5B
06/11/2015	14:10:22.568	$GPGGA,141023,2427.5132,N,08125.2626,W,1,8,1.7,19,M,,M,,*5B
06/11/2015	14:10:23.593	$GPGGA,141024,2427.5129,N,08125.2648,W,1,8,1.7,19,M,,M,,*5E
06/11/2015	14:10:24.559	$GPGGA,141025,2427.5126,N,08125.2670,W,1,8,2.0,19,M,,M,,*5F
06/11/2015	14:10:25.559	$GPGGA,141026,2427.5121,N,08125.2693,W,1,7,1.7,19,M,,M,,*5D
06/11/2015	14:10:26.559	$GPGGA,141027,2427.5116,N,08125.2717,W,1,7,1.7,19,M,,M,,*55
06/11/2015	14:10:27.593	$GPGGA,141028,2427.5111,N,08125.2740,W,1,8,1.7,19,M,,M,,*50
06/11/2015	14:10:28.549	$GPGGA,141029,2427.5105,N,08125.2764,W,1,8,1.7,19,M,,M,,*52
06/11/2015	14:10:29.839	$GPGGA,141030,2427.5099,N,08125.2787,W,1,8,1.7,19,M,,M,,*53
06/11/2015	14:10:30.549	$GPGGA,141031,2427.5093,N,08125.2811,W,1,8,1.7,18,M,,M,,*59
06/11/2015	14:10:31.579	$GPGGA,141032,2427.5087,N,08125.2834,W,1,8,1.7,18,M,,M,,*58
06/11/2015	14:10:32.549	$GPGGA,141033,2427.5081,N,08125.2858,W,1,8,1.7,18,M,,M,,*55
06/11/2015	14:10:33.549	$GPGGA,141034,2427.5076,N,08125.2881,W,1,8,1.7,18,M,,M,,*5E
06/11/2015	14:10:34.548	$GPGGA,141035,2427.5070,N,08125.2905,W,1,8,1.7,18,M,,M,,*54
06/11/2015	14:10:35.558	$GPGGA,141036,2427.5064,N,08125.2930,W,1,8,1.7,18,M,,M,,*54
06/11/2015	14:10:36.538	$GPGGA,141037,2427.5060,N,08125.2955,W,1,8,1.7,18,M,,M,,*52
06/11/2015	14:10:37.538	$GPGGA,141038,2427.5054,N,08125.2978,W,1,8,1.7,18,M,,M,,*55
06/11/2015	14:10:38.548	$GPGGA,141039,2427.5049,N,08125.3002,W,1,8,1.7,18,M,,M,,*5D
06/11/2015	14:10:39.548	$GPGGA,141040,2427.5044,N,08125.3027,W,1,8,1.7,18,M,,M,,*59
06/11/2015	14:10:40.529	$GPGGA,141041,2427.5040,N,08125.3050,W,1,8,1.7,18,M,,M,,*5C
06/11/2015	14:10:41.529	$GPGGA,141042,2427.5034,N,08125.3074,W,1,8,1.7,18,M,,M,,*5A
06/11/2015	14:10:42.629	$GPGGA,141043,2427.5029,N,08125.3100,W,1,8,1.7,18,M,,M,,*55
06/11/2015	14:10:43.569	$GPGGA,141044,2427.5024,N,08125.3125,W,1,8,1.7,18,M,,M,,*58
06/11/2015	14:10:44.519	$GPGGA,141045,2427.5020,N,08125.3150,W,1,8,1.7,18,M,,M,,*5F
06/11/2015	14:10:45.539	$GPGGA,141046,2427.5014,N,08125.3176,W,1,8,1.7,18,M,,M,,*5F
06/11/2015	14:10:46.539	$GPGGA,141047,2427.5009,N,08125.3202,W,1,8,1.7,18,M,,M,,*52
06/11/2015	14:10:47.659	$GPGGA,141048,2427.5003,N,08125.3228,W,1,8,1.7,18,M,,M,,*5F
06/11/2015	14:10:48.530	$GPGGA,141049,2427.4998,N,08125.3255,W,1,8,1.7,18,M,,M,,*5E
06/11/2015	14:10:49.599	$GPGGA,141050,2427.4993,N,08125.3278,W,1,8,1.7,18,M,,M,,*52
06/11/2015	14:10:50.599	$GPGGA,141051,2427.4988,N,08125.3302,W,1,8,1.7,18,M,,M,,*55
06/11/2015	14:10:52.124	$GPGGA,141052,2427.4984,N,08125.3325,W,1,8,1.7,18,M,,M,,*5F
06/11/2015	14:10:52.590	$GPGGA,141053,2427.4980,N,08125.3349,W,1,8,1.7,18,M,,M,,*50
06/11/2015	14:10:53.608	$GPGGA,141054,2427.4973,N,08125.3372,W,1,8,1.7,18,M,,M,,*53
06/11/2015	14:10:54.593	$GPGGA,141055,2427.4967,N,08125.3399,W,1,8,1.7,18,M,,M,,*52
06/11/2015	14:10:55.558	$GPGGA,141056,2427.4962,N,08125.3423,W,1,8,1.7,18,M,,M,,*52
06/11/2015	14:10:56.578	$GPGGA,141057,2427.4957,N,08125.3450,W,1,8,1.7,18,M,,M,,*51
06/11/2015	14:10:57.578	$GPGGA,141058,2427.4951,N,08125.3475,W,1,8,1.7,18,M,,M,,*5F
06/11/2015	14:10:58.567	$GPGGA,141059,2427.4945,N,08125.3499,W,1,8,1.7,18,M,,M,,*59
06/11/2015	14:10:59.597	$GPGGA,141100,2427.4941,N,08125.3523,W,1,8,1.7,17,M,,M,,*5F
06/11/2015	14:11:00.567	$GPGGA,141101,2427.4937,N,08125.3548,W,1,8,1.7,17,M,,M,,*52
06/11/2015	14:11:01.586	$GPGGA,141102,2427.4931,N,08125.3571,W,1,8,1.7,17,M,,M,,*5D
06/11/2015	14:11:02.557	$GPGGA,141103,2427.4926,N,08125.3595,W,1,8,1.7,17,M,,M,,*50
06/11/2015	14:11:03.580	$GPGGA,141104,2427.4921,N,08125.3620,W,1,8,1.7,17,M,,M,,*5D
06/11/2015	14:11:04.567	$GPGGA,141105,2427.4917,N,08125.3645,W,1,8,1.7,17,M,,M,,*5A
06/11/2015	14:11:05.557	$GPGGA,141106,2427.4912,N,08125.3671,W,1,8,1.7,17,M,,M,,*5B
06/11/2015	14:11:06.567	$GPGGA,141107,2427.4908,N,08125.3696,W,1,8,1.7,17,M,,M,,*58
06/11/2015	14:11:07.581	$GPGGA,141108,2427.4902,N,08125.3721,W,1,8,1.7,17,M,,M,,*50
06/11/2015	14:11:08.547	$GPGGA,141109,2427.4897,N,08125.3746,W,1,8,1.7,17,M,,M,,*5D
06/11/2015	14:11:09.546	$GPGGA,141110,2427.4892,N,08125.3769,W,1,8,1.7,17,M,,M,,*5D
06/11/2015	14:11:10.556	$GPGGA,141111,2427.4888,N,08125.3793,W,1,8,1.7,17,M,,M,,*52
06/11/2015	14:11:11.591	$GPGGA,141112,2427.4883,N,08125.3818,W,1,8,1.7,17,M,,M,,*56
06/11/2015	14:11:12.546	$GPGGA,141113,2427.4879,N,08125.3841,W,1,8,1.7,17,M,,M,,*5E
06/11/2015	14:11:13.536	$GPGGA,141114,2427.4873,N,08125.3866,W,1,8,1.7,17,M,,M,,*56
06/11/2015	14:11:14.556	$GPGGA,141115,2427.4868,N,08125.3891,W,1,8,1.7,17,M,,M,,*55
06/11/2015	14:11:15.566	$GPGGA,141116,2427.4863,N,08125.3916,W,1,8,1.7,17,M,,M,,*53
06/11/2015	14:11:16.537	$GPGGA,141117,2427.4858,N,08125.3941,W,1,8,1.7,17,M,,M,,*58
06/11/2015	14:11:17.557	$GPGGA,141118,2427.4854,N,08125.3967,W,1,8,1.7,17,M,,M,,*5F
06/11/2015	14:11:18.537	$GPGGA,141119,2427.4850,N,08125.3990,W,1,8,1.7,17,M,,M,,*52
06/11/2015	14:11:19.537	$GPGGA,141120,2427.4844,N,08125.4014,W,1,8,1.7,17,M,,M,,*5F
06/11/2015	14:11:20.527	$GPGGA,141121,2427.4839,N,08125.4039,W,1,8,1.7,17,M,,M,,*5B
06/11/2015	14:11:21.557	$GPGGA,141122,2427.4834,N,08125.4062,W,1,8,1.7,17,M,,M,,*5B
06/11/2015	14:11:22.517	$GPGGA,141123,2427.4829,N,08125.4086,W,1,8,1.7,17,M,,M,,*5C
06/11/2015	14:11:23.547	$GPGGA,141124,2427.4825,N,08125.4111,W,1,8,1.7,17,M,,M,,*58
06/11/2015	14:11:24.507	$GPGGA,141125,2427.4819,N,08125.4136,W,1,8,1.7,17,M,,M,,*53
06/11/2015	14:11:25.527	$GPGGA,141126,2427.4814,N,08125.4160,W,1,8,1.7,17,M,,M,,*5E
06/11/2015	14:11:26.526	$GPGGA,141127,2427.4808,N,08125.4187,W,1,8,1.7,17,M,,M,,*5B
06/11/2015	14:11:27.546	$GPGGA,141128,2427.4803,N,08125.4210,W,1,8,1.7,17,M,,M,,*52
06/11/2015	14:11:28.506	$GPGGA,141129,2427.4797,N,08125.4235,W,1,8,1.7,17,M,,M,,*56
06/11/2015	14:11:29.526	$GPGGA,141130,2427.4792,N,08125.4259,W,1,8,1.7,17,M,,M,,*51
06/11/2015	14:11:30.516	$GPGGA,141131,2427.4787,N,08125.4283,W,1,8,1.7,17,M,,M,,*53
06/11/2015	14:11:31.526	$GPGGA,141132,2427.4782,N,08125.4308,W,1,8,1.7,17,M,,M,,*57
06/11/2015	14:11:32.490	$GPGGA,141133,2427.4778,N,08125.4332,W,1,8,1.7,17,M,,M,,*5A
06/11/2015	14:11:33.617	$GPGGA,141134,2427.4772,N,08125.4357,W,1,8,1.7,16,M,,M,,*55
06/11/2015	14:11:34.507	$GPGGA,141135,2427.4767,N,08125.4382,W,1,8,1.7,16,M,,M,,*58
06/11/2015	14:11:35.497	$GPGGA,141136,2427.4761,N,08125.4405,W,1,8,1.7,16,M,,M,,*55
06/11/2015	14:11:36.607	$GPGGA,141137,2427.4756,N,08125.4429,W,1,8,1.7,16,M,,M,,*5E
06/11/2015	14:11:37.507	$GPGGA,141138,2427.4751,N,08125.4454,W,1,8,1.7,16,M,,M,,*5C
06/11/2015	14:11:38.587	$GPGGA,141139,2427.4746,N,08125.4478,W,1,8,1.7,16,M,,M,,*55
06/11/2015	14:11:39.617	$GPGGA,141140,2427.4742,N,08125.4502,W,1,8,1.7,16,M,,M,,*53
06/11/2015	14:11:40.597	$GPGGA,141141,2427.4736,N,08125.4527,W,1,8,1.7,16,M,,M,,*56
06/11/2015	14:11:41.493	$GPGGA,141142,2427.4731,N,08125.4550,W,1,8,1.7,16,M,,M,,*52
06/11/2015	14:11:42.567	$GPGGA,141143,2427.4725,N,08125.4574,W,1,8,1.7,16,M,,M,,*50
06/11/2015	14:11:43.493	$GPGGA,141144,2427.4721,N,08125.4599,W,1,8,1.7,16,M,,M,,*50
06/11/2015	14:11:44.583	$GPGGA,141145,2427.4716,N,08125.4624,W,1,8,1.7,16,M,,M,,*50
06/11/2015	14:11:45.567	$GPGGA,141146,2427.4710,N,08125.4647,W,1,8,1.7,16,M,,M,,*50
06/11/2015	14:11:46.566	$GPGGA,141147,2427.4706,N,08125.4672,W,1,8,1.7,16,M,,M,,*50
06/11/2015	14:11:47.606	$GPGGA,141148,2427.4702,N,08125.4697,W,1,8,1.7,16,M,,M,,*50
06/11/2015	14:11:48.566	$GPGGA,141149,2427.4696,N,08125.4720,W,1,8,1.7,16,M,,M,,*50
06/11/2015	14:11:49.556	$GPGGA,141150,2427.4691,N,08125.4744,W,1,8,1.7,16,M,,M,,*5D
06/11/2015	14:11:50.557	$GPGGA,141151,2427.4686,N,08125.4769,W,1,8,1.7,16,M,,M,,*55
06/11/2015	14:11:51.617	$GPGGA,141152,2427.4681,N,08125.4792,W,1,8,1.7,16,M,,M,,*55
06/11/2015	14:11:52.557	$GPGGA,141153,2427.4677,N,08125.4817,W,1,8,1.7,16,M,,M,,*5F
06/11/2015	14:11:53.547	$GPGGA,141154,2427.4673,N,08125.4841,W,1,8,1.7,16,M,,M,,*5F
06/11/2015	14:11:54.557	$GPGGA,141155,2427.4668,N,08125.4866,W,1,8,1.7,16,M,,M,,*51
