Software Version Number: 1	Data File Format Number: 1	Build Version Number: 1	Error Count Since VI Started: 1	Manufacturer: Raytheon	 Model Number: RayMarine 120	 S/N: 	 Cal Date: 	 Wind Direction Offset: 0.00	 Slope (M)1: 0.00	 Offset (B)1: 0.00	 Slope (M)2: 0.00	 Offset (B)2: 0.00	 Slope (M)3: 0.00	 Offset (B)3: 0.00	 Slope (M)4: 0.00	 Offset (B)4: 0.00	 Slope (M)5: 0.00	 Offset (B)5: 0.00	 Slope (M)6: 0.00	 Offset (B)6: 0.00
Computer Date	Computer Time	GGA String
06/18/2015	06:00:00.549	$GPGGA,060001,2541.4402,N,07942.0354,W,1,9,2.0,15,M,,M,,*52
06/18/2015	06:00:01.559	$GPGGA,060002,2541.4405,N,07942.0337,W,1,9,2.0,15,M,,M,,*53
06/18/2015	06:00:02.539	$GPGGA,060003,2541.4404,N,07942.0319,W,1,9,2.0,15,M,,M,,*5F
06/18/2015	06:00:03.560	$GPGGA,060004,2541.4406,N,07942.0302,W,1,9,2.0,15,M,,M,,*50
06/18/2015	06:00:04.540	$GPGGA,060005,2541.4408,N,07942.0284,W,1,9,2.0,15,M,,M,,*50
06/18/2015	06:00:05.530	$GPGGA,060006,2541.4409,N,07942.0267,W,1,9,2.0,15,M,,M,,*5F
06/18/2015	06:00:06.540	$GPGGA,060007,2541.4409,N,07942.0249,W,1,9,2.0,15,M,,M,,*52
06/18/2015	06:00:07.540	$GPGGA,060008,2541.4412,N,07942.0232,W,1,9,2.0,15,M,,M,,*5B
06/18/2015	06:00:08.520	$GPGGA,060009,2541.4413,N,07942.0214,W,1,9,2.0,15,M,,M,,*5F
06/18/2015	06:00:09.840	$GPGGA,060010,2541.4413,N,07942.0197,W,1,9,2.0,15,M,,M,,*5F
06/18/2015	06:00:10.530	$GPGGA,060011,2541.4413,N,07942.0180,W,1,9,2.0,15,M,,M,,*58
06/18/2015	06:00:11.530	$GPGGA,060012,2541.4416,N,07942.0162,W,1,9,2.0,15,M,,M,,*52
06/18/2015	06:00:12.530	$GPGGA,060013,2541.4415,N,07942.0145,W,1,9,2.0,15,M,,M,,*55
06/18/2015	06:00:13.530	$GPGGA,060014,2541.4417,N,07942.0128,W,1,9,2.0,15,M,,M,,*5B
06/18/2015	06:00:14.520	$GPGGA,060015,2541.4417,N,07942.0109,W,1,9,2.0,15,M,,M,,*59
06/18/2015	06:00:15.520	$GPGGA,060016,2541.4419,N,07942.0092,W,1,9,2.0,15,M,,M,,*57
06/18/2015	06:00:16.500	$GPGGA,060017,2541.4420,N,07942.0075,W,1,9,2.0,15,M,,M,,*55
06/18/2015	06:00:17.529	$GPGGA,060018,2541.4420,N,07942.0058,W,1,9,2.0,15,M,,M,,*55
06/18/2015	06:00:18.509	$GPGGA,060019,2541.4420,N,07942.0040,W,1,9,2.0,15,M,,M,,*5D
06/18/2015	06:00:19.629	$GPGGA,060020,2541.4422,N,07942.0023,W,1,8,2.3,15,M,,M,,*52
06/18/2015	06:00:20.509	$GPGGA,060021,2541.4423,N,07942.0005,W,1,8,2.0,15,M,,M,,*55
06/18/2015	06:00:21.520	$GPGGA,060022,2541.4424,N,07941.9988,W,1,9,2.0,15,M,,M,,*56
06/18/2015	06:00:22.500	$GPGGA,060023,2541.4426,N,07941.9970,W,1,9,2.0,15,M,,M,,*52
06/18/2015	06:00:23.620	$GPGGA,060024,2541.4427,N,07941.9952,W,1,9,2.0,15,M,,M,,*54
06/18/2015	06:00:24.510	$GPGGA,060025,2541.4426,N,07941.9935,W,1,9,2.0,15,M,,M,,*55
06/18/2015	06:00:25.580	$GPGGA,060026,2541.4427,N,07941.9918,W,1,9,2.0,15,M,,M,,*58
06/18/2015	06:00:26.580	$GPGGA,060027,2541.4430,N,07941.9900,W,1,9,2.0,15,M,,M,,*56
06/18/2015	06:00:27.500	$GPGGA,060028,2541.4431,N,07941.9883,W,1,9,2.0,15,M,,M,,*52
06/18/2015	06:00:28.580	$GPGGA,060029,2541.4431,N,07941.9866,W,1,9,2.0,15,M,,M,,*58
06/18/2015	06:00:29.590	$GPGGA,060030,2541.4434,N,07941.9848,W,1,9,2.0,15,M,,M,,*59
06/18/2015	06:00:30.571	$GPGGA,060031,2541.4435,N,07941.9830,W,1,9,2.0,15,M,,M,,*56
06/18/2015	06:00:31.600	$GPGGA,060032,2541.4437,N,07941.9813,W,1,9,2.0,15,M,,M,,*56
06/18/2015	06:00:32.580	$GPGGA,060033,2541.4438,N,07941.9795,W,1,9,2.0,15,M,,M,,*59
06/18/2015	06:00:33.570	$GPGGA,060034,2541.4440,N,07941.9778,W,1,9,2.0,15,M,,M,,*52
06/18/2015	06:00:34.559	$GPGGA,060035,2541.4441,N,07941.9761,W,1,9,2.0,15,M,,M,,*5A
06/18/2015	06:00:35.972	$GPGGA,060036,2541.4442,N,07941.9744,W,1,9,2.0,15,M,,M,,*5D
06/18/2015	06:00:36.559	$GPGGA,060037,2541.4445,N,07941.9726,W,1,9,2.0,15,M,,M,,*5F
06/18/2015	06:00:37.599	$GPGGA,060038,2541.4445,N,07941.9709,W,1,9,2.0,15,M,,M,,*5D
06/18/2015	06:00:38.560	$GPGGA,060039,2541.4446,N,07941.9691,W,1,9,2.0,15,M,,M,,*5F
06/18/2015	06:00:39.590	$GPGGA,060040,2541.4449,N,07941.9674,W,1,9,2.0,15,M,,M,,*55
06/18/2015	06:00:40.560	$GPGGA,060041,2541.4449,N,07941.9656,W,1,9,2.0,15,M,,M,,*54
06/18/2015	06:00:41.580	$GPGGA,060042,2541.4451,N,07941.9639,W,1,9,2.0,15,M,,M,,*57
06/18/2015	06:00:42.550	$GPGGA,060043,2541.4453,N,07941.9621,W,1,9,2.0,15,M,,M,,*5D
06/18/2015	06:00:43.580	$GPGGA,060044,2541.4455,N,07941.9603,W,1,9,2.0,15,M,,M,,*5C
06/18/2015	06:00:44.540	$GPGGA,060045,2541.4456,N,07941.9586,W,1,9,2.0,15,M,,M,,*50
06/18/2015	06:00:45.560	$GPGGA,060046,2541.4458,N,07941.9568,W,1,9,2.0,15,M,,M,,*5D
06/18/2015	06:00:46.540	$GPGGA,060047,2541.4460,N,07941.9551,W,1,9,2.0,15,M,,M,,*5D
06/18/2015	06:00:47.580	$GPGGA,060048,2541.4460,N,07941.9534,W,1,9,2.0,15,M,,M,,*51
06/18/2015	06:00:48.540	$GPGGA,060049,2541.4462,N,07941.9516,W,1,9,2.0,15,M,,M,,*52
06/18/2015	06:00:49.530	$GPGGA,060050,2541.4464,N,07941.9498,W,1,9,2.0,15,M,,M,,*5B
06/18/2015	06:00:50.540	$GPGGA,060051,2541.4464,N,07941.9480,W,1,9,2.0,15,M,,M,,*53
06/18/2015	06:00:51.580	$GPGGA,060052,2541.4467,N,07941.9462,W,1,9,2.0,15,M,,M,,*5F
06/18/2015	06:00:52.539	$GPGGA,060053,2541.4467,N,07941.9444,W,1,9,2.0,15,M,,M,,*5A
06/18/2015	06:00:53.529	$GPGGA,060054,2541.4470,N,07941.9427,W,1,9,2.0,15,M,,M,,*5E
06/18/2015	06:00:54.539	$GPGGA,060055,2541.4471,N,07941.9409,W,1,9,2.0,15,M,,M,,*52
06/18/2015	06:00:55.570	$GPGGA,060056,2541.4474,N,07941.9392,W,1,9,2.0,15,M,,M,,*51
06/18/2015	06:00:56.530	$GPGGA,060057,2541.4475,N,07941.9374,W,1,9,2.0,15,M,,M,,*59
06/18/2015	06:00:57.550	$GPGGA,060058,2541.4478,N,07941.9356,W,1,9,2.0,15,M,,M,,*5B
06/18/2015	06:00:58.510	$GPGGA,060059,2541.4478,N,07941.9339,W,1,9,2.0,15,M,,M,,*53
06/18/2015	06:00:59.530	$GPGGA,060100,2541.4480,N,07941.9322,W,1,9,2.0,15,M,,M,,*53
06/18/2015	06:01:00.510	$GPGGA,060101,2541.4482,N,07941.9304,W,1,9,2.0,15,M,,M,,*54
06/18/2015	06:01:01.510	$GPGGA,060102,2541.4484,N,07941.9287,W,1,9,2.0,15,M,,M,,*5B
06/18/2015	06:01:02.530	$GPGGA,060103,2541.4485,N,07941.9268,W,1,9,2.0,15,M,,M,,*5A
06/18/2015	06:01:03.520	$GPGGA,060104,2541.4487,N,07941.9251,W,1,9,2.0,15,M,,M,,*55
06/18/2015	06:01:04.500	$GPGGA,060105,2541.4488,N,07941.9234,W,1,9,2.0,15,M,,M,,*58
06/18/2015	06:01:05.530	$GPGGA,060106,2541.4489,N,07941.9215,W,1,9,2.0,15,M,,M,,*59
06/18/2015	06:01:06.490	$GPGGA,060107,2541.4491,N,07941.9199,W,1,9,2.0,15,M,,M,,*56
06/18/2015	06:01:07.530	$GPGGA,060108,2541.4492,N,07941.9181,W,1,9,2.0,15,M,,M,,*53
06/18/2015	06:01:08.500	$GPGGA,060109,2541.4493,N,07941.9164,W,1,9,2.0,15,M,,M,,*58
06/18/2015	06:01:09.489	$GPGGA,060110,2541.4495,N,07941.9147,W,1,9,2.0,15,M,,M,,*57
06/18/2015	06:01:10.489	$GPGGA,060111,2541.4496,N,07941.9129,W,1,9,2.0,15,M,,M,,*5D
06/18/2015	06:01:11.510	$GPGGA,060112,2541.4498,N,07941.9112,W,1,9,2.0,15,M,,M,,*58
06/18/2015	06:01:12.499	$GPGGA,060113,2541.4500,N,07941.9094,W,1,9,2.0,15,M,,M,,*56
06/18/2015	06:01:13.919	$GPGGA,060114,2541.4500,N,07941.9077,W,1,9,2.0,15,M,,M,,*5C
06/18/2015	06:01:14.489	$GPGGA,060115,2541.4502,N,07941.9060,W,1,9,2.0,15,M,,M,,*59
06/18/2015	06:01:15.679	$GPGGA,060116,2541.4503,N,07941.9042,W,1,9,2.0,16,M,,M,,*58
06/18/2015	06:01:16.560	$GPGGA,060117,2541.4505,N,07941.9025,W,1,9,2.0,16,M,,M,,*5E
06/18/2015	06:01:17.660	$GPGGA,060118,2541.4506,N,07941.9008,W,1,9,2.0,16,M,,M,,*5D
06/18/2015	06:01:18.469	$GPGGA,060119,2541.4507,N,07941.8990,W,1,9,2.0,16,M,,M,,*54
06/18/2015	06:01:19.679	$GPGGA,060120,2541.4510,N,07941.8973,W,1,9,2.0,16,M,,M,,*55
06/18/2015	06:01:20.559	$GPGGA,060121,2541.4510,N,07941.8956,W,1,9,2.0,16,M,,M,,*53
06/18/2015	06:01:21.649	$GPGGA,060122,2541.4513,N,07941.8939,W,1,9,2.0,16,M,,M,,*5A
06/18/2015	06:01:22.579	$GPGGA,060123,2541.4514,N,07941.8921,W,1,9,2.0,16,M,,M,,*55
06/18/2015	06:01:23.660	$GPGGA,060124,2541.4514,N,07941.8904,W,1,9,2.0,16,M,,M,,*55
06/18/2015	06:01:24.550	$GPGGA,060125,2541.4516,N,07941.8886,W,1,9,2.0,16,M,,M,,*5D
06/18/2015	06:01:25.660	$GPGGA,060126,2541.4517,N,07941.8869,W,1,9,2.0,16,M,,M,,*5E
06/18/2015	06:01:26.550	$GPGGA,060127,2541.4518,N,07941.8852,W,1,9,2.0,16,M,,M,,*58
06/18/2015	06:01:27.660	$GPGGA,060128,2541.4520,N,07941.8835,W,1,9,2.0,16,M,,M,,*5D
06/18/2015	06:01:28.569	$GPGGA,060129,2541.4521,N,07941.8818,W,1,9,2.0,16,M,,M,,*52
06/18/2015	06:01:29.639	$GPGGA,060130,2541.4523,N,07941.8800,W,1,9,2.0,16,M,,M,,*51
06/18/2015	06:01:30.569	$GPGGA,060131,2541.4524,N,07941.8783,W,1,9,2.0,16,M,,M,,*53
06/18/2015	06:01:31.659	$GPGGA,060132,2541.4525,N,07941.8766,W,1,9,2.0,16,M,,M,,*5A
06/18/2015	06:01:32.569	$GPGGA,060133,2541.4525,N,07941.8749,W,1,9,2.3,16,M,,M,,*55
06/18/2015	06:01:33.649	$GPGGA,060134,2541.4527,N,07941.8732,W,1,8,2.3,16,M,,M,,*5D
06/18/2015	06:01:34.529	$GPGGA,060135,2541.4528,N,07941.8715,W,1,8,2.0,16,M,,M,,*55
06/18/2015	06:01:35.659	$GPGGA,060136,2541.4529,N,07941.8699,W,1,9,2.0,16,M,,M,,*53
06/18/2015	06:01:36.561	$GPGGA,060137,2541.4529,N,07941.8681,W,1,9,2.0,16,M,,M,,*5B
06/18/2015	06:01:37.599	$GPGGA,060138,2541.4532,N,07941.8665,W,1,9,2.0,16,M,,M,,*54
06/18/2015	06:01:38.560	$GPGGA,060139,2541.4531,N,07941.8648,W,1,9,2.0,16,M,,M,,*59
06/18/2015	06:01:39.529	$GPGGA,060140,2541.4532,N,07941.8631,W,1,9,2.0,16,M,,M,,*5A
06/18/2015	06:01:40.549	$GPGGA,060141,2541.4535,N,07941.8614,W,1,9,2.0,16,M,,M,,*5B
06/18/2015	06:01:41.520	$GPGGA,060142,2541.4536,N,07941.8598,W,1,9,2.0,16,M,,M,,*5C
06/18/2015	06:01:42.510	$GPGGA,060143,2541.4536,N,07941.8581,W,1,9,2.0,16,M,,M,,*55
06/18/2015	06:01:43.630	$GPGGA,060144,2541.4538,N,07941.8563,W,1,9,2.0,16,M,,M,,*50
06/18/2015	06:01:44.539	$GPGGA,060145,2541.4539,N,07941.8546,W,1,9,2.0,16,M,,M,,*57
06/18/2015	06:01:45.509	$GPGGA,060146,2541.4539,N,07941.8529,W,1,8,2.3,16,M,,M,,*5F
06/18/2015	06:01:46.562	$GPGGA,060147,2541.4540,N,07941.8511,W,1,8,2.0,16,M,,M,,*58
06/18/2015	06:01:47.609	$GPGGA,060148,2541.4542,N,07941.8494,W,1,9,2.0,16,M,,M,,*58
06/18/2015	06:01:48.549	$GPGGA,060149,2541.4541,N,07941.8477,W,1,9,2.0,16,M,,M,,*57
06/18/2015	06:01:49.569	$GPGGA,060150,2541.4543,N,07941.8459,W,1,9,2.0,16,M,,M,,*51
06/18/2015	06:01:50.539	$GPGGA,060151,2541.4545,N,07941.8442,W,1,9,2.0,16,M,,M,,*5C
06/18/2015	06:01:51.629	$GPGGA,060152,2541.4546,N,07941.8425,W,1,9,2.0,16,M,,M,,*5D
06/18/2015	06:01:52.609	$GPGGA,060153,2541.4547,N,07941.8408,W,1,9,2.0,16,M,,M,,*52
06/18/2015	06:01:53.629	$GPGGA,060154,2541.4550,N,07941.8391,W,1,9,2.0,16,M,,M,,*54
06/18/2015	06:01:54.529	$GPGGA,060155,2541.4550,N,07941.8373,W,1,9,2.0,16,M,,M,,*59
06/18/2015	06:01:55.639	$GPGGA,060156,2541.4552,N,07941.8357,W,1,9,2.0,16,M,,M,,*5E
06/18/2015	06:01:56.529	$GPGGA,060157,2541.4554,N,07941.8340,W,1,9,2.0,16,M,,M,,*5F
06/18/2015	06:01:57.619	$GPGGA,060158,2541.4556,N,07941.8323,W,1,9,2.0,16,M,,M,,*57
06/18/2015	06:01:58.600	$GPGGA,060159,2541.4557,N,07941.8305,W,1,9,2.0,16,M,,M,,*53
06/18/2015	06:01:59.640	$GPGGA,060200,2541.4558,N,07941.8288,W,1,9,2.0,16,M,,M,,*57
06/18/2015	06:02:00.520	$GPGGA,060201,2541.4560,N,07941.8270,W,1,9,2.0,16,M,,M,,*5A
06/18/2015	06:02:01.580	$GPGGA,060202,2541.4561,N,07941.8253,W,1,9,2.0,16,M,,M,,*59
06/18/2015	06:02:02.579	$GPGGA,060203,2541.4564,N,07941.8236,W,1,9,2.0,16,M,,M,,*5E
06/18/2015	06:02:03.589	$GPGGA,060204,2541.4565,N,07941.8218,W,1,9,2.0,16,M,,M,,*54
06/18/2015	06:02:04.509	$GPGGA,060205,2541.4565,N,07941.8201,W,1,9,2.0,16,M,,M,,*5D
06/18/2015	06:02:05.559	$GPGGA,060206,2541.4568,N,07941.8183,W,1,9,2.0,16,M,,M,,*5A
06/18/2015	06:02:06.569	$GPGGA,060207,2541.4570,N,07941.8165,W,1,9,2.0,16,M,,M,,*5A
06/18/2015	06:02:07.579	$GPGGA,060208,2541.4572,N,07941.8147,W,1,9,2.0,16,M,,M,,*57
06/18/2015	06:02:08.560	$GPGGA,060209,2541.4574,N,07941.8129,W,1,9,2.0,16,M,,M,,*58
06/18/2015	06:02:09.579	$GPGGA,060210,2541.4575,N,07941.8111,W,1,9,2.0,16,M,,M,,*5A
06/18/2015	06:02:10.561	$GPGGA,060211,2541.4576,N,07941.8093,W,1,9,2.0,16,M,,M,,*53
06/18/2015	06:02:11.629	$GPGGA,060212,2541.4579,N,07941.8075,W,1,9,2.0,16,M,,M,,*57
06/18/2015	06:02:12.549	$GPGGA,060213,2541.4581,N,07941.8058,W,1,9,2.0,16,M,,M,,*5E
06/18/2015	06:02:13.569	$GPGGA,060214,2541.4583,N,07941.8040,W,1,9,2.0,16,M,,M,,*52
06/18/2015	06:02:14.560	$GPGGA,060215,2541.4585,N,07941.8022,W,1,9,2.0,16,M,,M,,*51
06/18/2015	06:02:15.579	$GPGGA,060216,2541.4587,N,07941.8004,W,1,9,2.0,16,M,,M,,*54
06/18/2015	06:02:16.550	$GPGGA,060217,2541.4590,N,07941.7986,W,1,9,2.0,16,M,,M,,*5F
06/18/2015	06:02:17.561	$GPGGA,060218,2541.4590,N,07941.7968,W,1,9,2.0,16,M,,M,,*50
06/18/2015	06:02:18.550	$GPGGA,060219,2541.4593,N,07941.7950,W,1,9,2.0,16,M,,M,,*59
06/18/2015	06:02:19.629	$GPGGA,060220,2541.4596,N,07941.7933,W,1,9,2.0,16,M,,M,,*53
06/18/2015	06:02:20.539	$GPGGA,060221,2541.4597,N,07941.7914,W,1,9,2.0,16,M,,M,,*56
06/18/2015	06:02:21.569	$GPGGA,060222,2541.4599,N,07941.7897,W,1,9,2.0,16,M,,M,,*51
06/18/2015	06:02:22.539	$GPGGA,060223,2541.4601,N,07941.7879,W,1,9,2.0,16,M,,M,,*52
06/18/2015	06:02:23.589	$GPGGA,060224,2541.4603,N,07941.7861,W,1,9,2.0,16,M,,M,,*5E
06/18/2015	06:02:24.539	$GPGGA,060225,2541.4604,N,07941.7844,W,1,9,2.0,16,M,,M,,*5F
06/18/2015	06:02:25.560	$GPGGA,060226,2541.4607,N,07941.7826,W,1,9,2.0,16,M,,M,,*5B
06/18/2015	06:02:26.529	$GPGGA,060227,2541.4608,N,07941.7809,W,1,9,2.0,16,M,,M,,*58
06/18/2015	06:02:27.569	$GPGGA,060228,2541.4608,N,07941.7809,W,1,9,2.0,16,M,,M,,*57
06/18/2015	06:02:28.529	$GPGGA,060229,2541.4612,N,07941.7774,W,1,9,2.0,16,M,,M,,*58
06/18/2015	06:02:29.569	$GPGGA,060230,2541.4614,N,07941.7757,W,1,9,2.0,16,M,,M,,*57
06/18/2015	06:02:30.539	$GPGGA,060231,2541.4615,N,07941.7739,W,1,9,2.0,16,M,,M,,*5F
06/18/2015	06:02:31.629	$GPGGA,060232,2541.4615,N,07941.7739,W,1,9,2.0,16,M,,M,,*5C
06/18/2015	06:02:32.509	$GPGGA,060233,2541.4619,N,07941.7704,W,1,9,2.0,16,M,,M,,*5F
06/18/2015	06:02:33.610	$GPGGA,060234,2541.4619,N,07941.7704,W,1,9,2.0,16,M,,M,,*58
06/18/2015	06:02:34.510	$GPGGA,060235,2541.4622,N,07941.7669,W,1,9,2.0,16,M,,M,,*5B
06/18/2015	06:02:35.540	$GPGGA,060236,2541.4622,N,07941.7669,W,1,9,2.0,16,M,,M,,*58
06/18/2015	06:02:36.520	$GPGGA,060237,2541.4626,N,07941.7634,W,1,9,2.0,16,M,,M,,*55
06/18/2015	06:02:37.569	$GPGGA,060238,2541.4626,N,07941.7616,W,1,9,2.0,16,M,,M,,*5A
06/18/2015	06:02:38.519	$GPGGA,060239,2541.4629,N,07941.7599,W,1,9,2.0,16,M,,M,,*50
06/18/2015	06:02:39.549	$GPGGA,060240,2541.4629,N,07941.7599,W,1,9,2.0,16,M,,M,,*5E
06/18/2015	06:02:40.509	$GPGGA,060241,2541.4630,N,07941.7582,W,1,9,2.0,16,M,,M,,*5D
06/18/2015	06:02:41.619	$GPGGA,060242,2541.4633,N,07941.7547,W,1,9,2.0,16,M,,M,,*54
06/18/2015	06:02:42.609	$GPGGA,060243,2541.4633,N,07941.7530,W,1,9,2.0,16,M,,M,,*55
06/18/2015	06:02:43.529	$GPGGA,060244,2541.4633,N,07941.7530,W,1,9,2.0,16,M,,M,,*52
06/18/2015	06:02:44.499	$GPGGA,060245,2541.4635,N,07941.7496,W,1,9,2.0,16,M,,M,,*58
06/18/2015	06:02:45.569	$GPGGA,060246,2541.4637,N,07941.7478,W,1,9,2.0,16,M,,M,,*59
06/18/2015	06:02:46.499	$GPGGA,060247,2541.4637,N,07941.7462,W,1,9,2.0,16,M,,M,,*53
06/18/2015	06:02:47.589	$GPGGA,060248,2541.4639,N,07941.7444,W,1,9,2.0,16,M,,M,,*56
06/18/2015	06:02:48.499	$GPGGA,060249,2541.4639,N,07941.7444,W,1,9,2.0,16,M,,M,,*57
06/18/2015	06:02:49.569	$GPGGA,060250,2541.4641,N,07941.7410,W,1,9,2.0,16,M,,M,,*51
06/18/2015	06:02:50.479	$GPGGA,060251,2541.4641,N,07941.7393,W,1,9,2.0,16,M,,M,,*5C
06/18/2015	06:02:51.630	$GPGGA,060252,2541.4641,N,07941.7393,W,1,9,2.0,16,M,,M,,*5F
06/18/2015	06:02:52.570	$GPGGA,060253,2541.4644,N,07941.7359,W,1,9,2.0,16,M,,M,,*5D
06/18/2015	06:02:53.560	$GPGGA,060254,2541.4643,N,07941.7342,W,1,9,2.0,16,M,,M,,*57
06/18/2015	06:02:54.560	$GPGGA,060255,2541.4644,N,07941.7325,W,1,9,2.0,16,M,,M,,*50
06/18/2015	06:02:55.609	$GPGGA,060256,2541.4648,N,07941.7307,W,1,9,2.0,16,M,,M,,*5F
06/18/2015	06:02:56.560	$GPGGA,060257,2541.4648,N,07941.7290,W,1,9,2.0,16,M,,M,,*51
06/18/2015	06:02:57.559	$GPGGA,060258,2541.4648,N,07941.7273,W,1,9,2.0,16,M,,M,,*53
06/18/2015	06:02:58.819	$GPGGA,060259,2541.4651,N,07941.7256,W,1,9,2.0,16,M,,M,,*5D
06/18/2015	06:02:59.579	$GPGGA,060300,2541.4651,N,07941.7238,W,1,9,2.0,16,M,,M,,*58
06/18/2015	06:03:00.569	$GPGGA,060301,2541.4652,N,07941.7221,W,1,9,2.0,16,M,,M,,*52
06/18/2015	06:03:01.569	$GPGGA,060302,2541.4654,N,07941.7204,W,1,9,2.0,16,M,,M,,*50
06/18/2015	06:03:02.560	$GPGGA,060303,2541.4655,N,07941.7187,W,1,9,2.0,16,M,,M,,*58
06/18/2015	06:03:03.579	$GPGGA,060304,2541.4655,N,07941.7169,W,1,9,2.0,16,M,,M,,*5F
06/18/2015	06:03:04.539	$GPGGA,060305,2541.4657,N,07941.7152,W,1,9,2.0,16,M,,M,,*54
06/18/2015	06:03:05.569	$GPGGA,060306,2541.4659,N,07941.7135,W,1,9,2.0,16,M,,M,,*58
06/18/2015	06:03:06.539	$GPGGA,060307,2541.4659,N,07941.7117,W,1,9,2.0,16,M,,M,,*59
06/18/2015	06:03:07.579	$GPGGA,060308,2541.4662,N,07941.7100,W,1,9,2.0,16,M,,M,,*58
06/18/2015	06:03:08.540	$GPGGA,060309,2541.4662,N,07941.7083,W,1,9,2.0,16,M,,M,,*53
06/18/2015	06:03:09.530	$GPGGA,060310,2541.4665,N,07941.7066,W,1,9,2.0,16,M,,M,,*57
06/18/2015	06:03:10.540	$GPGGA,060311,2541.4666,N,07941.7049,W,1,9,2.0,16,M,,M,,*58
06/18/2015	06:03:11.570	$GPGGA,060312,2541.4666,N,07941.7031,W,1,9,2.0,16,M,,M,,*54
06/18/2015	06:03:12.539	$GPGGA,060313,2541.4668,N,07941.7014,W,1,9,2.0,16,M,,M,,*5C
06/18/2015	06:03:14.000	$GPGGA,060314,2541.4669,N,07941.6996,W,1,9,2.0,16,M,,M,,*58
06/18/2015	06:03:14.529	$GPGGA,060315,2541.4670,N,07941.6979,W,1,9,2.0,16,M,,M,,*50
06/18/2015	06:03:15.550	$GPGGA,060316,2541.4673,N,07941.6961,W,1,9,2.0,16,M,,M,,*59
06/18/2015	06:03:16.529	$GPGGA,060317,2541.4673,N,07941.6943,W,1,9,2.0,16,M,,M,,*58
06/18/2015	06:03:17.549	$GPGGA,060318,2541.4675,N,07941.6926,W,1,9,2.0,16,M,,M,,*52
06/18/2015	06:03:18.509	$GPGGA,060319,2541.4677,N,07941.6908,W,1,9,2.0,16,M,,M,,*5D
06/18/2015	06:03:19.539	$GPGGA,060320,2541.4680,N,07941.6890,W,1,9,2.0,16,M,,M,,*5F
06/18/2015	06:03:20.509	$GPGGA,060321,2541.4680,N,07941.6873,W,1,9,2.0,16,M,,M,,*53
06/18/2015	06:03:21.519	$GPGGA,060322,2541.4682,N,07941.6855,W,1,9,2.0,16,M,,M,,*56
06/18/2015	06:03:22.509	$GPGGA,060323,2541.4684,N,07941.6837,W,1,9,2.0,16,M,,M,,*55
06/18/2015	06:03:23.549	$GPGGA,060324,2541.4686,N,07941.6819,W,1,9,2.0,16,M,,M,,*5C
06/18/2015	06:03:24.499	$GPGGA,060325,2541.4687,N,07941.6801,W,1,9,2.0,16,M,,M,,*55
06/18/2015	06:03:25.509	$GPGGA,060326,2541.4688,N,07941.6784,W,1,9,2.0,16,M,,M,,*5B
06/18/2015	06:03:26.500	$GPGGA,060327,2541.4690,N,07941.6766,W,1,9,2.0,16,M,,M,,*5F
06/18/2015	06:03:27.630	$GPGGA,060328,2541.4691,N,07941.6748,W,1,9,2.0,16,M,,M,,*5D
06/18/2015	06:03:28.610	$GPGGA,060329,2541.4693,N,07941.6731,W,1,9,2.0,16,M,,M,,*50
06/18/2015	06:03:29.599	$GPGGA,060330,2541.4695,N,07941.6713,W,1,9,2.0,16,M,,M,,*5E
06/18/2015	06:03:30.499	$GPGGA,060331,2541.4695,N,07941.6696,W,1,9,2.0,16,M,,M,,*53
06/18/2015	06:03:31.529	$GPGGA,060332,2541.4698,N,07941.6678,W,1,9,2.0,16,M,,M,,*5D
06/18/2015	06:03:32.489	$GPGGA,060333,2541.4698,N,07941.6660,W,1,9,2.0,16,M,,M,,*55
06/18/2015	06:03:33.489	$GPGGA,060334,2541.4701,N,07941.6642,W,1,9,2.0,15,M,,M,,*50
06/18/2015	06:03:34.579	$GPGGA,060335,2541.4702,N,07941.6625,W,1,9,2.0,15,M,,M,,*53
06/18/2015	06:03:35.629	$GPGGA,060336,2541.4704,N,07941.6607,W,1,9,2.0,15,M,,M,,*56
06/18/2015	06:03:36.499	$GPGGA,060337,2541.4706,N,07941.6590,W,1,9,2.0,15,M,,M,,*58
06/18/2015	06:03:37.589	$GPGGA,060338,2541.4706,N,07941.6572,W,1,9,2.0,15,M,,M,,*5B
06/18/2015	06:03:38.579	$GPGGA,060339,2541.4708,N,07941.6554,W,1,9,2.0,15,M,,M,,*50
06/18/2015	06:03:39.589	$GPGGA,060340,2541.4709,N,07941.6537,W,1,9,2.0,15,M,,M,,*5A
06/18/2015	06:03:40.569	$GPGGA,060341,2541.4712,N,07941.6519,W,1,9,2.0,15,M,,M,,*5D
06/18/2015	06:03:41.609	$GPGGA,060342,2541.4713,N,07941.6501,W,1,9,2.0,15,M,,M,,*56
06/18/2015	06:03:42.561	$GPGGA,060343,2541.4715,N,07941.6483,W,1,9,2.0,15,M,,M,,*5A
06/18/2015	06:03:43.580	$GPGGA,060344,2541.4716,N,07941.6466,W,1,9,2.0,15,M,,M,,*55
06/18/2015	06:03:44.570	$GPGGA,060345,2541.4719,N,07941.6449,W,1,9,2.0,15,M,,M,,*56
06/18/2015	06:03:45.570	$GPGGA,060346,2541.4720,N,07941.6431,W,1,9,2.0,15,M,,M,,*50
06/18/2015	06:03:46.560	$GPGGA,060347,2541.4722,N,07941.6414,W,1,9,2.0,15,M,,M,,*54
06/18/2015	06:03:47.579	$GPGGA,060348,2541.4723,N,07941.6396,W,1,9,2.0,15,M,,M,,*57
06/18/2015	06:03:48.549	$GPGGA,060349,2541.4724,N,07941.6379,W,1,9,2.0,15,M,,M,,*50
06/18/2015	06:03:49.569	$GPGGA,060350,2541.4727,N,07941.6361,W,1,9,2.0,15,M,,M,,*52
06/18/2015	06:03:50.549	$GPGGA,060351,2541.4727,N,07941.6343,W,1,9,2.0,15,M,,M,,*53
06/18/2015	06:03:51.579	$GPGGA,060352,2541.4729,N,07941.6326,W,1,9,2.0,15,M,,M,,*5D
06/18/2015	06:03:52.549	$GPGGA,060353,2541.4731,N,07941.6308,W,1,9,2.0,15,M,,M,,*59
06/18/2015	06:03:53.569	$GPGGA,060354,2541.4734,N,07941.6290,W,1,9,2.0,15,M,,M,,*5B
06/18/2015	06:03:54.539	$GPGGA,060355,2541.4734,N,07941.6273,W,1,9,2.0,15,M,,M,,*57
06/18/2015	06:03:55.579	$GPGGA,060356,2541.4735,N,07941.6256,W,1,9,2.0,15,M,,M,,*52
06/18/2015	06:03:56.549	$GPGGA,060357,2541.4738,N,07941.6238,W,1,9,2.0,15,M,,M,,*56
06/18/2015	06:03:57.539	$GPGGA,060358,2541.4740,N,07941.6221,W,1,9,2.0,15,M,,M,,*5E
06/18/2015	06:03:58.529	$GPGGA,060359,2541.4741,N,07941.6203,W,1,9,2.0,15,M,,M,,*5E
06/18/2015	06:03:59.579	$GPGGA,060400,2541.4742,N,07941.6186,W,1,9,2.0,15,M,,M,,*58
06/18/2015	06:04:00.539	$GPGGA,060401,2541.4744,N,07941.6168,W,1,9,2.0,15,M,,M,,*5F
06/18/2015	06:04:01.540	$GPGGA,060402,2541.4745,N,07941.6150,W,1,9,2.0,15,M,,M,,*56
06/18/2015	06:04:02.530	$GPGGA,060403,2541.4747,N,07941.6133,W,1,9,2.0,15,M,,M,,*50
06/18/2015	06:04:03.530	$GPGGA,060404,2541.4749,N,07941.6115,W,1,9,2.0,15,M,,M,,*5D
06/18/2015	06:04:05.819	$GPGGA,060406,2541.4752,N,07941.6080,W,1,9,2.0,15,M,,M,,*58
06/18/2015	06:04:06.519	$GPGGA,060407,2541.4753,N,07941.6062,W,1,9,2.0,15,M,,M,,*54
06/18/2015	06:04:07.519	$GPGGA,060408,2541.4755,N,07941.6045,W,1,9,2.0,15,M,,M,,*58
06/18/2015	06:04:08.499	$GPGGA,060409,2541.4756,N,07941.6027,W,1,9,2.0,15,M,,M,,*5E
06/18/2015	06:04:09.509	$GPGGA,060410,2541.4758,N,07941.6010,W,1,9,2.0,15,M,,M,,*5C
06/18/2015	06:04:10.509	$GPGGA,060411,2541.4759,N,07941.5993,W,1,9,2.0,15,M,,M,,*5D
06/18/2015	06:04:11.539	$GPGGA,060412,2541.4760,N,07941.5975,W,1,9,2.0,15,M,,M,,*5C
06/18/2015	06:04:12.519	$GPGGA,060413,2541.4760,N,07941.5958,W,1,9,2.0,15,M,,M,,*52
06/18/2015	06:04:13.589	$GPGGA,060414,2541.4763,N,07941.5941,W,1,9,2.0,15,M,,M,,*5E
06/18/2015	06:04:14.519	$GPGGA,060415,2541.4763,N,07941.5923,W,1,9,2.0,15,M,,M,,*5B
06/18/2015	06:04:15.509	$GPGGA,060416,2541.4764,N,07941.5906,W,1,9,2.0,15,M,,M,,*58
06/18/2015	06:04:16.579	$GPGGA,060417,2541.4767,N,07941.5889,W,1,9,2.0,15,M,,M,,*5C
06/18/2015	06:04:17.579	$GPGGA,060418,2541.4769,N,07941.5872,W,1,9,2.0,15,M,,M,,*59
06/18/2015	06:04:18.490	$GPGGA,060419,2541.4770,N,07941.5855,W,1,9,2.0,15,M,,M,,*55
06/18/2015	06:04:19.630	$GPGGA,060420,2541.4771,N,07941.5838,W,1,9,2.0,15,M,,M,,*55
06/18/2015	06:04:20.600	$GPGGA,060421,2541.4773,N,07941.5821,W,1,9,2.0,15,M,,M,,*5E
06/18/2015	06:04:21.579	$GPGGA,060422,2541.4772,N,07941.5803,W,1,9,2.0,15,M,,M,,*5C
06/18/2015	06:04:22.489	$GPGGA,060423,2541.4773,N,07941.5787,W,1,9,2.0,15,M,,M,,*5F
06/18/2015	06:04:23.599	$GPGGA,060424,2541.4774,N,07941.5769,W,1,9,2.0,15,M,,M,,*5F
06/18/2015	06:04:24.489	$GPGGA,060425,2541.4777,N,07941.5752,W,1,9,2.0,15,M,,M,,*55
06/18/2015	06:04:25.479	$GPGGA,060426,2541.4776,N,07941.5735,W,1,9,2.0,15,M,,M,,*56
06/18/2015	06:04:26.570	$GPGGA,060427,2541.4778,N,07941.5718,W,1,9,2.0,15,M,,M,,*56
06/18/2015	06:04:27.629	$GPGGA,060428,2541.4778,N,07941.5701,W,1,9,2.0,15,M,,M,,*51
06/18/2015	06:04:29.789	$GPGGA,060430,2541.4779,N,07941.5666,W,1,9,2.0,15,M,,M,,*59
06/18/2015	06:04:30.569	$GPGGA,060431,2541.4781,N,07941.5649,W,1,9,2.0,15,M,,M,,*52
06/18/2015	06:04:31.589	$GPGGA,060432,2541.4781,N,07941.5632,W,1,9,2.0,15,M,,M,,*5D
06/18/2015	06:04:32.569	$GPGGA,060433,2541.4782,N,07941.5615,W,1,9,2.0,15,M,,M,,*5A
06/18/2015	06:04:33.569	$GPGGA,060434,2541.4782,N,07941.5598,W,1,9,2.0,15,M,,M,,*5B
06/18/2015	06:04:34.559	$GPGGA,060435,2541.4784,N,07941.5580,W,1,9,2.0,15,M,,M,,*55
06/18/2015	06:04:35.579	$GPGGA,060436,2541.4785,N,07941.5563,W,1,9,2.0,15,M,,M,,*5A
06/18/2015	06:04:36.550	$GPGGA,060437,2541.4785,N,07941.5546,W,1,9,2.0,15,M,,M,,*5C
06/18/2015	06:04:37.550	$GPGGA,060438,2541.4787,N,07941.5529,W,1,9,2.0,15,M,,M,,*58
06/18/2015	06:04:38.540	$GPGGA,060439,2541.4788,N,07941.5512,W,1,9,2.0,15,M,,M,,*5E
06/18/2015	06:04:39.569	$GPGGA,060440,2541.4789,N,07941.5494,W,1,9,2.0,15,M,,M,,*5E
06/18/2015	06:04:40.549	$GPGGA,060441,2541.4791,N,07941.5477,W,1,9,2.0,15,M,,M,,*5B
06/18/2015	06:04:41.559	$GPGGA,060442,2541.4792,N,07941.5460,W,1,9,2.0,15,M,,M,,*5D
06/18/2015	06:04:42.539	$GPGGA,060443,2541.4792,N,07941.5442,W,1,9,2.0,15,M,,M,,*5C
06/18/2015	06:04:43.579	$GPGGA,060444,2541.4794,N,07941.5425,W,1,9,2.0,14,M,,M,,*5D
06/18/2015	06:04:44.549	$GPGGA,060445,2541.4796,N,07941.5408,W,1,9,2.0,14,M,,M,,*51
06/18/2015	06:04:45.519	$GPGGA,060446,2541.4796,N,07941.5390,W,1,9,2.0,14,M,,M,,*54
06/18/2015	06:04:46.529	$GPGGA,060447,2541.4798,N,07941.5373,W,1,9,2.0,14,M,,M,,*56
06/18/2015	06:04:47.559	$GPGGA,060448,2541.4799,N,07941.5355,W,1,9,2.0,14,M,,M,,*5C
06/18/2015	06:04:48.529	$GPGGA,060449,2541.4802,N,07941.5338,W,1,9,2.0,14,M,,M,,*5B
06/18/2015	06:04:49.539	$GPGGA,060450,2541.4803,N,07941.5320,W,1,9,2.0,14,M,,M,,*5B
06/18/2015	06:04:50.509	$GPGGA,060451,2541.4803,N,07941.5303,W,1,9,2.0,14,M,,M,,*5B
06/18/2015	06:04:51.549	$GPGGA,060452,2541.4806,N,07941.5285,W,1,9,2.0,14,M,,M,,*52
06/18/2015	06:04:52.509	$GPGGA,060453,2541.4807,N,07941.5268,W,1,9,2.0,14,M,,M,,*51
06/18/2015	06:04:53.550	$GPGGA,060454,2541.4809,N,07941.5250,W,1,9,2.0,14,M,,M,,*53
06/18/2015	06:04:54.520	$GPGGA,060455,2541.4810,N,07941.5232,W,1,9,2.0,14,M,,M,,*5E
06/18/2015	06:04:55.530	$GPGGA,060456,2541.4811,N,07941.5215,W,1,9,2.0,14,M,,M,,*59
06/18/2015	06:04:56.510	$GPGGA,060457,2541.4814,N,07941.5197,W,1,9,2.0,14,M,,M,,*54
06/18/2015	06:04:57.529	$GPGGA,060458,2541.4816,N,07941.5179,W,1,9,2.0,14,M,,M,,*59
06/18/2015	06:04:58.499	$GPGGA,060459,2541.4818,N,07941.5162,W,1,9,2.0,14,M,,M,,*5C
06/18/2015	06:04:59.529	$GPGGA,060500,2541.4818,N,07941.5144,W,1,9,2.0,14,M,,M,,*55
06/18/2015	06:05:00.519	$GPGGA,060501,2541.4821,N,07941.5126,W,1,9,2.0,14,M,,M,,*5A
06/18/2015	06:05:01.509	$GPGGA,060502,2541.4824,N,07941.5109,W,1,9,2.0,14,M,,M,,*51
06/18/2015	06:05:02.489	$GPGGA,060503,2541.4825,N,07941.5092,W,1,9,2.0,14,M,,M,,*52
06/18/2015	06:05:03.509	$GPGGA,060504,2541.4827,N,07941.5074,W,1,9,2.0,14,M,,M,,*5F
06/18/2015	06:05:04.489	$GPGGA,060505,2541.4828,N,07941.5056,W,1,9,2.0,14,M,,M,,*51
06/18/2015	06:05:05.579	$GPGGA,060506,2541.4831,N,07941.5039,W,1,9,2.0,14,M,,M,,*53
06/18/2015	06:05:06.599	$GPGGA,060507,2541.4832,N,07941.5021,W,1,9,2.2,14,M,,M,,*5A
06/18/2015	06:05:07.499	$GPGGA,060508,2541.4834,N,07941.5005,W,1,9,2.0,14,M,,M,,*57
06/18/2015	06:05:08.579	$GPGGA,060509,2541.4836,N,07941.4987,W,1,9,2.0,14,M,,M,,*56
06/18/2015	06:05:09.609	$GPGGA,060510,2541.4836,N,07941.4970,W,1,9,2.0,14,M,,M,,*56
06/18/2015	06:05:10.489	$GPGGA,060511,2541.4839,N,07941.4952,W,1,9,2.0,14,M,,M,,*58
06/18/2015	06:05:11.500	$GPGGA,060512,2541.4841,N,07941.4935,W,1,9,2.0,14,M,,M,,*55
06/18/2015	06:05:12.480	$GPGGA,060513,2541.4842,N,07941.4918,W,1,9,2.0,14,M,,M,,*58
06/18/2015	06:05:13.480	$GPGGA,060514,2541.4843,N,07941.4900,W,1,9,2.0,14,M,,M,,*57
06/18/2015	06:05:14.560	$GPGGA,060515,2541.4845,N,07941.4883,W,1,9,2.0,14,M,,M,,*5A
06/18/2015	06:05:15.579	$GPGGA,060516,2541.4846,N,07941.4866,W,1,9,2.0,14,M,,M,,*51
06/18/2015	06:05:16.569	$GPGGA,060517,2541.4849,N,07941.4849,W,1,9,2.0,14,M,,M,,*52
06/18/2015	06:05:17.579	$GPGGA,060518,2541.4850,N,07941.4832,W,1,9,2.0,14,M,,M,,*59
06/18/2015	06:05:18.562	$GPGGA,060519,2541.4852,N,07941.4815,W,1,9,2.0,14,M,,M,,*5F
06/18/2015	06:05:19.589	$GPGGA,060520,2541.4853,N,07941.4797,W,1,9,2.0,14,M,,M,,*51
06/18/2015	06:05:20.569	$GPGGA,060521,2541.4854,N,07941.4780,W,1,9,2.0,15,M,,M,,*50
06/18/2015	06:05:21.549	$GPGGA,060522,2541.4857,N,07941.4763,W,1,9,2.0,15,M,,M,,*5D
06/18/2015	06:05:22.559	$GPGGA,060523,2541.4857,N,07941.4745,W,1,9,2.0,15,M,,M,,*58
06/18/2015	06:05:23.579	$GPGGA,060524,2541.4859,N,07941.4729,W,1,9,2.0,15,M,,M,,*5B
06/18/2015	06:05:24.549	$GPGGA,060525,2541.4860,N,07941.4712,W,1,9,2.0,15,M,,M,,*58
06/18/2015	06:05:25.559	$GPGGA,060526,2541.4861,N,07941.4694,W,1,9,2.0,15,M,,M,,*55
06/18/2015	06:05:26.549	$GPGGA,060527,2541.4863,N,07941.4678,W,1,9,2.0,15,M,,M,,*54
06/18/2015	06:05:27.579	$GPGGA,060528,2541.4864,N,07941.4660,W,1,9,2.0,15,M,,M,,*55
06/18/2015	06:05:28.550	$GPGGA,060529,2541.4865,N,07941.4643,W,1,9,2.0,15,M,,M,,*54
06/18/2015	06:05:29.560	$GPGGA,060530,2541.4865,N,07941.4626,W,1,9,2.0,15,M,,M,,*5F
06/18/2015	06:05:30.540	$GPGGA,060531,2541.4867,N,07941.4609,W,1,9,2.0,15,M,,M,,*51
06/18/2015	06:05:31.579	$GPGGA,060532,2541.4866,N,07941.4592,W,1,9,2.0,15,M,,M,,*52
06/18/2015	06:05:32.539	$GPGGA,060533,2541.4868,N,07941.4575,W,1,9,2.0,15,M,,M,,*54
06/18/2015	06:05:33.530	$GPGGA,060534,2541.4870,N,07941.4558,W,1,9,2.0,15,M,,M,,*55
06/18/2015	06:05:34.529	$GPGGA,060535,2541.4869,N,07941.4541,W,1,9,2.0,15,M,,M,,*54
06/18/2015	06:05:35.539	$GPGGA,060536,2541.4871,N,07941.4524,W,1,9,2.0,15,M,,M,,*5D
06/18/2015	06:05:36.539	$GPGGA,060537,2541.4872,N,07941.4507,W,1,9,2.0,15,M,,M,,*5E
06/18/2015	06:05:37.509	$GPGGA,060538,2541.4872,N,07941.4490,W,1,9,2.0,15,M,,M,,*5E
06/18/2015	06:05:38.529	$GPGGA,060539,2541.4874,N,07941.4473,W,1,9,2.0,15,M,,M,,*54
06/18/2015	06:05:39.539	$GPGGA,060540,2541.4875,N,07941.4456,W,1,9,2.0,15,M,,M,,*5C
06/18/2015	06:05:40.509	$GPGGA,060541,2541.4875,N,07941.4438,W,1,9,2.0,15,M,,M,,*55
06/18/2015	06:05:41.539	$GPGGA,060542,2541.4875,N,07941.4422,W,1,9,2.0,15,M,,M,,*5D
06/18/2015	06:05:42.529	$GPGGA,060543,2541.4878,N,07941.4404,W,1,9,2.0,15,M,,M,,*55
06/18/2015	06:05:43.559	$GPGGA,060544,2541.4879,N,07941.4387,W,1,9,2.0,15,M,,M,,*5F
06/18/2015	06:05:44.509	$GPGGA,060545,2541.4879,N,07941.4370,W,1,9,2.0,15,M,,M,,*56
06/18/2015	06:05:45.519	$GPGGA,060546,2541.4879,N,07941.4352,W,1,9,2.0,15,M,,M,,*55
06/18/2015	06:05:46.500	$GPGGA,060547,2541.4882,N,07941.4335,W,1,9,2.0,15,M,,M,,*51
06/18/2015	06:05:47.520	$GPGGA,060548,2541.4881,N,07941.4318,W,1,9,2.0,15,M,,M,,*52
06/18/2015	06:05:48.490	$GPGGA,060549,2541.4883,N,07941.4300,W,1,9,2.0,15,M,,M,,*58
06/18/2015	06:05:49.489	$GPGGA,060550,2541.4883,N,07941.4283,W,1,9,2.0,15,M,,M,,*5A
06/18/2015	06:05:50.499	$GPGGA,060551,2541.4885,N,07941.4266,W,1,9,2.0,15,M,,M,,*56
06/18/2015	06:05:51.509	$GPGGA,060552,2541.4886,N,07941.4248,W,1,9,2.0,15,M,,M,,*5A
06/18/2015	06:05:52.489	$GPGGA,060553,2541.4888,N,07941.4231,W,1,9,2.0,16,M,,M,,*58
06/18/2015	06:05:53.509	$GPGGA,060554,2541.4890,N,07941.4213,W,1,9,2.0,16,M,,M,,*56
06/18/2015	06:05:54.489	$GPGGA,060555,2541.4890,N,07941.4196,W,1,9,2.0,16,M,,M,,*59
06/18/2015	06:05:55.489	$GPGGA,060556,2541.4890,N,07941.4179,W,1,9,2.0,16,M,,M,,*5B
06/18/2015	06:05:56.589	$GPGGA,060557,2541.4893,N,07941.4161,W,1,9,2.0,16,M,,M,,*50
06/18/2015	06:05:57.599	$GPGGA,060558,2541.4893,N,07941.4144,W,1,9,2.0,16,M,,M,,*58
06/18/2015	06:05:58.489	$GPGGA,060559,2541.4894,N,07941.4126,W,1,9,2.0,16,M,,M,,*5A
06/18/2015	06:05:59.629	$GPGGA,060600,2541.4897,N,07941.4108,W,1,9,2.0,16,M,,M,,*5A
06/18/2015	06:06:00.579	$GPGGA,060601,2541.4897,N,07941.4091,W,1,9,2.0,16,M,,M,,*5A
06/18/2015	06:06:01.589	$GPGGA,060602,2541.4900,N,07941.4073,W,1,9,2.0,16,M,,M,,*5A
06/18/2015	06:06:02.579	$GPGGA,060603,2541.4901,N,07941.4056,W,1,9,2.0,16,M,,M,,*5D
06/18/2015	06:06:03.610	$GPGGA,060604,2541.4903,N,07941.4038,W,1,9,2.0,16,M,,M,,*50
06/18/2015	06:06:04.570	$GPGGA,060605,2541.4904,N,07941.4020,W,1,9,2.0,16,M,,M,,*5F
06/18/2015	06:06:05.600	$GPGGA,060606,2541.4904,N,07941.4003,W,1,9,2.0,16,M,,M,,*5D
06/18/2015	06:06:06.569	$GPGGA,060607,2541.4907,N,07941.3985,W,1,9,2.0,16,M,,M,,*5F
06/18/2015	06:06:07.629	$GPGGA,060608,2541.4908,N,07941.3968,W,1,9,2.0,16,M,,M,,*5C
06/18/2015	06:06:08.559	$GPGGA,060609,2541.4910,N,07941.3950,W,1,9,2.0,16,M,,M,,*5F
06/18/2015	06:06:09.589	$GPGGA,060610,2541.4911,N,07941.3933,W,1,9,2.0,16,M,,M,,*53
06/18/2015	06:06:10.549	$GPGGA,060611,2541.4914,N,07941.3916,W,1,9,2.0,16,M,,M,,*50
06/18/2015	06:06:11.629	$GPGGA,060612,2541.4915,N,07941.3898,W,1,9,2.0,16,M,,M,,*55
06/18/2015	06:06:12.549	$GPGGA,060613,2541.4918,N,07941.3881,W,1,9,2.0,16,M,,M,,*51
06/18/2015	06:06:13.559	$GPGGA,060614,2541.4919,N,07941.3864,W,1,9,2.0,16,M,,M,,*5C
06/18/2015	06:06:14.549	$GPGGA,060615,2541.4921,N,07941.3847,W,1,9,2.0,16,M,,M,,*57
06/18/2015	06:06:15.569	$GPGGA,060616,2541.4922,N,07941.3830,W,1,9,2.0,16,M,,M,,*57
06/18/2015	06:06:16.539	$GPGGA,060617,2541.4924,N,07941.3813,W,1,9,2.0,16,M,,M,,*51
06/18/2015	06:06:17.539	$GPGGA,060618,2541.4925,N,07941.3796,W,1,9,2.0,16,M,,M,,*5D
06/18/2015	06:06:18.539	$GPGGA,060619,2541.4926,N,07941.3778,W,1,9,2.0,16,M,,M,,*5F
06/18/2015	06:06:19.569	$GPGGA,060620,2541.4929,N,07941.3762,W,1,9,2.0,16,M,,M,,*51
06/18/2015	06:06:20.539	$GPGGA,060621,2541.4930,N,07941.3745,W,1,9,2.0,16,M,,M,,*5D
06/18/2015	06:06:21.530	$GPGGA,060622,2541.4932,N,07941.3727,W,1,9,2.0,16,M,,M,,*58
06/18/2015	06:06:22.540	$GPGGA,060623,2541.4933,N,07941.3710,W,1,9,2.0,16,M,,M,,*5C
06/18/2015	06:06:23.570	$GPGGA,060624,2541.4936,N,07941.3693,W,1,9,2.0,16,M,,M,,*54
06/18/2015	06:06:24.529	$GPGGA,060625,2541.4937,N,07941.3675,W,1,9,2.0,16,M,,M,,*5C
06/18/2015	06:06:25.549	$GPGGA,060626,2541.4939,N,07941.3658,W,1,9,2.0,16,M,,M,,*5E
06/18/2015	06:06:26.549	$GPGGA,060627,2541.4940,N,07941.3641,W,1,9,2.0,16,M,,M,,*59
06/18/2015	06:06:27.549	$GPGGA,060628,2541.4940,N,07941.3624,W,1,9,2.0,15,M,,M,,*56
06/18/2015	06:06:28.529	$GPGGA,060629,2541.4943,N,07941.3606,W,1,9,2.0,15,M,,M,,*54
06/18/2015	06:06:29.549	$GPGGA,060630,2541.4944,N,07941.3589,W,1,9,2.0,15,M,,M,,*5F
06/18/2015	06:06:30.540	$GPGGA,060631,2541.4946,N,07941.3572,W,1,9,2.0,15,M,,M,,*58
06/18/2015	06:06:31.539	$GPGGA,060632,2541.4947,N,07941.3554,W,1,9,2.0,15,M,,M,,*5E
06/18/2015	06:06:32.619	$GPGGA,060633,2541.4950,N,07941.3536,W,1,9,2.0,15,M,,M,,*5D
06/18/2015	06:06:33.539	$GPGGA,060634,2541.4951,N,07941.3520,W,1,9,2.0,15,M,,M,,*5C
06/18/2015	06:06:34.620	$GPGGA,060635,2541.4951,N,07941.3502,W,1,9,2.0,15,M,,M,,*5D
06/18/2015	06:06:35.649	$GPGGA,060636,2541.4954,N,07941.3484,W,1,9,2.0,15,M,,M,,*54
06/18/2015	06:06:36.519	$GPGGA,060637,2541.4955,N,07941.3467,W,1,9,2.0,15,M,,M,,*59
06/18/2015	06:06:37.589	$GPGGA,060638,2541.4957,N,07941.3449,W,1,9,2.0,15,M,,M,,*58
06/18/2015	06:06:38.520	$GPGGA,060639,2541.4958,N,07941.3432,W,1,9,2.0,15,M,,M,,*5A
06/18/2015	06:06:39.550	$GPGGA,060640,2541.4959,N,07941.3415,W,1,9,2.0,15,M,,M,,*50
06/18/2015	06:06:40.590	$GPGGA,060641,2541.4959,N,07941.3415,W,1,9,2.0,15,M,,M,,*51
06/18/2015	06:06:41.589	$GPGGA,060642,2541.4962,N,07941.3380,W,1,9,2.0,15,M,,M,,*51
06/18/2015	06:06:42.609	$GPGGA,060643,2541.4964,N,07941.3362,W,1,9,2.0,15,M,,M,,*5A
06/18/2015	06:06:43.619	$GPGGA,060644,2541.4965,N,07941.3345,W,1,9,2.0,15,M,,M,,*59
06/18/2015	06:06:44.579	$GPGGA,060645,2541.4966,N,07941.3327,W,1,9,2.0,15,M,,M,,*5F
06/18/2015	06:06:45.579	$GPGGA,060646,2541.4968,N,07941.3310,W,1,9,2.0,15,M,,M,,*56
06/18/2015	06:06:46.489	$GPGGA,060647,2541.4969,N,07941.3293,W,1,9,2.0,15,M,,M,,*5C
06/18/2015	06:06:47.609	$GPGGA,060648,2541.4971,N,07941.3275,W,1,9,2.0,15,M,,M,,*52
06/18/2015	06:06:48.579	$GPGGA,060649,2541.4972,N,07941.3258,W,1,9,2.0,15,M,,M,,*5F
06/18/2015	06:06:49.579	$GPGGA,060650,2541.4973,N,07941.3241,W,1,9,2.0,15,M,,M,,*5E
06/18/2015	06:06:50.569	$GPGGA,060651,2541.4976,N,07941.3224,W,1,9,2.0,15,M,,M,,*59
06/18/2015	06:06:51.609	$GPGGA,060652,2541.4975,N,07941.3207,W,1,9,2.0,15,M,,M,,*58
06/18/2015	06:06:52.562	$GPGGA,060653,2541.4977,N,07941.3190,W,1,9,2.0,15,M,,M,,*56
06/18/2015	06:06:53.579	$GPGGA,060654,2541.4979,N,07941.3172,W,1,9,2.0,15,M,,M,,*53
06/18/2015	06:06:54.559	$GPGGA,060655,2541.4978,N,07941.3156,W,1,9,2.0,15,M,,M,,*55
06/18/2015	06:06:55.599	$GPGGA,060656,2541.4980,N,07941.3139,W,1,9,2.0,15,M,,M,,*58
06/18/2015	06:06:56.550	$GPGGA,060657,2541.4980,N,07941.3122,W,1,9,2.0,15,M,,M,,*53
06/18/2015	06:06:57.570	$GPGGA,060658,2541.4982,N,07941.3106,W,1,9,2.0,15,M,,M,,*58
06/18/2015	06:06:58.562	$GPGGA,060659,2541.4983,N,07941.3088,W,1,9,2.0,15,M,,M,,*5F
06/18/2015	06:06:59.609	$GPGGA,060700,2541.4984,N,07941.3072,W,1,9,2.0,15,M,,M,,*50
06/18/2015	06:07:00.549	$GPGGA,060701,2541.4984,N,07941.3055,W,1,9,2.0,15,M,,M,,*54
06/18/2015	06:07:01.562	$GPGGA,060702,2541.4986,N,07941.3038,W,1,9,2.0,15,M,,M,,*5E
06/18/2015	06:07:02.549	$GPGGA,060703,2541.4985,N,07941.3021,W,1,9,2.0,15,M,,M,,*54
06/18/2015	06:07:03.569	$GPGGA,060704,2541.4987,N,07941.3005,W,1,9,2.0,15,M,,M,,*57
06/18/2015	06:07:04.549	$GPGGA,060705,2541.4986,N,07941.2987,W,1,9,2.0,15,M,,M,,*55
06/18/2015	06:07:06.559	$GPGGA,060707,2541.4988,N,07941.2953,W,1,9,2.0,15,M,,M,,*50
06/18/2015	06:07:07.579	$GPGGA,060708,2541.4991,N,07941.2936,W,1,9,2.0,15,M,,M,,*54
06/18/2015	06:07:08.529	$GPGGA,060709,2541.4991,N,07941.2918,W,1,9,2.0,15,M,,M,,*59
06/18/2015	06:07:09.550	$GPGGA,060710,2541.4991,N,07941.2901,W,1,9,2.0,15,M,,M,,*59
06/18/2015	06:07:10.529	$GPGGA,060711,2541.4993,N,07941.2884,W,1,9,2.0,15,M,,M,,*56
06/18/2015	06:07:11.559	$GPGGA,060712,2541.4995,N,07941.2867,W,1,9,2.0,15,M,,M,,*5E
06/18/2015	06:07:12.509	$GPGGA,060713,2541.4995,N,07941.2849,W,1,9,2.0,15,M,,M,,*53
06/18/2015	06:07:13.539	$GPGGA,060714,2541.4995,N,07941.2832,W,1,9,2.0,15,M,,M,,*58
06/18/2015	06:07:14.529	$GPGGA,060715,2541.4997,N,07941.2815,W,1,9,2.0,15,M,,M,,*5E
06/18/2015	06:07:15.549	$GPGGA,060716,2541.4998,N,07941.2797,W,1,9,2.0,15,M,,M,,*57
06/18/2015	06:07:16.498	$GPGGA,060717,2541.4997,N,07941.2780,W,1,9,2.0,15,M,,M,,*5F
06/18/2015	06:07:17.518	$GPGGA,060718,2541.4998,N,07941.2763,W,1,9,2.0,15,M,,M,,*52
06/18/2015	06:07:18.518	$GPGGA,060719,2541.5001,N,07941.2746,W,1,9,2.0,15,M,,M,,*5C
06/18/2015	06:07:19.558	$GPGGA,060720,2541.5002,N,07941.2729,W,1,9,2.0,15,M,,M,,*5C
06/18/2015	06:07:20.498	$GPGGA,060721,2541.5004,N,07941.2711,W,1,9,2.0,15,M,,M,,*50
06/18/2015	06:07:21.488	$GPGGA,060722,2541.5003,N,07941.2694,W,1,9,2.0,15,M,,M,,*58
06/18/2015	06:07:22.478	$GPGGA,060723,2541.5005,N,07941.2676,W,1,9,2.0,15,M,,M,,*53
06/18/2015	06:07:23.498	$GPGGA,060724,2541.5006,N,07941.2658,W,1,9,2.0,15,M,,M,,*5B
06/18/2015	06:07:24.479	$GPGGA,060725,2541.5008,N,07941.2641,W,1,9,2.0,15,M,,M,,*5C
06/18/2015	06:07:25.489	$GPGGA,060726,2541.5009,N,07941.2625,W,1,9,2.0,15,M,,M,,*5C
06/18/2015	06:07:26.489	$GPGGA,060727,2541.5011,N,07941.2607,W,1,9,2.0,15,M,,M,,*54
06/18/2015	06:07:27.509	$GPGGA,060728,2541.5013,N,07941.2590,W,1,9,2.0,15,M,,M,,*54
06/18/2015	06:07:28.579	$GPGGA,060729,2541.5013,N,07941.2572,W,1,9,2.0,15,M,,M,,*59
06/18/2015	06:07:29.599	$GPGGA,060730,2541.5015,N,07941.2555,W,1,9,2.0,15,M,,M,,*52
06/18/2015	06:07:30.489	$GPGGA,060731,2541.5018,N,07941.2538,W,1,9,2.0,15,M,,M,,*55
06/18/2015	06:07:31.499	$GPGGA,060732,2541.5020,N,07941.2521,W,1,9,2.0,15,M,,M,,*55
06/18/2015	06:07:32.479	$GPGGA,060733,2541.5020,N,07941.2504,W,1,9,2.2,15,M,,M,,*51
06/18/2015	06:07:33.469	$GPGGA,060734,2541.5020,N,07941.2488,W,1,9,2.0,15,M,,M,,*51
06/18/2015	06:07:34.568	$GPGGA,060735,2541.5022,N,07941.2470,W,1,9,2.0,15,M,,M,,*55
06/18/2015	06:07:35.478	$GPGGA,060736,2541.5024,N,07941.2452,W,1,9,2.0,15,M,,M,,*50
06/18/2015	06:07:36.988	$GPGGA,060737,2541.5026,N,07941.2436,W,1,9,2.2,15,M,,M,,*53
06/18/2015	06:07:37.578	$GPGGA,060738,2541.5025,N,07941.2421,W,1,9,2.0,15,M,,M,,*5B
06/18/2015	06:07:38.559	$GPGGA,060739,2541.5027,N,07941.2404,W,1,9,2.0,15,M,,M,,*5F
06/18/2015	06:07:39.568	$GPGGA,060740,2541.5031,N,07941.2385,W,1,9,2.0,15,M,,M,,*58
06/18/2015	06:07:40.558	$GPGGA,060741,2541.5034,N,07941.2367,W,1,9,2.2,15,M,,M,,*52
06/18/2015	06:07:41.569	$GPGGA,060742,2541.5033,N,07941.2352,W,1,8,2.2,15,M,,M,,*51
06/18/2015	06:07:42.550	$GPGGA,060743,2541.5036,N,07941.2334,W,1,8,2.0,15,M,,M,,*57
06/18/2015	06:07:43.569	$GPGGA,060744,2541.5038,N,07941.2316,W,1,9,2.0,15,M,,M,,*5F
06/18/2015	06:07:44.559	$GPGGA,060745,2541.5042,N,07941.2298,W,1,9,2.0,15,M,,M,,*54
06/18/2015	06:07:45.559	$GPGGA,060746,2541.5042,N,07941.2281,W,1,8,2.2,15,M,,M,,*5C
06/18/2015	06:07:46.539	$GPGGA,060747,2541.5045,N,07941.2264,W,1,8,2.0,15,M,,M,,*53
06/18/2015	06:07:47.570	$GPGGA,060748,2541.5049,N,07941.2246,W,1,9,2.0,15,M,,M,,*51
06/18/2015	06:07:48.529	$GPGGA,060749,2541.5052,N,07941.2228,W,1,9,2.2,15,M,,M,,*50
06/18/2015	06:07:49.549	$GPGGA,060750,2541.5052,N,07941.2212,W,1,8,2.2,15,M,,M,,*50
06/18/2015	06:07:50.539	$GPGGA,060751,2541.5053,N,07941.2195,W,1,8,2.0,15,M,,M,,*5E
06/18/2015	06:07:51.558	$GPGGA,060752,2541.5056,N,07941.2177,W,1,9,2.0,15,M,,M,,*55
06/18/2015	06:07:52.518	$GPGGA,060753,2541.5060,N,07941.2159,W,1,9,2.0,15,M,,M,,*5D
06/18/2015	06:07:53.558	$GPGGA,060754,2541.5060,N,07941.2143,W,1,9,2.0,15,M,,M,,*51
06/18/2015	06:07:54.518	$GPGGA,060755,2541.5062,N,07941.2125,W,1,9,2.0,15,M,,M,,*52
06/18/2015	06:07:55.528	$GPGGA,060756,2541.5065,N,07941.2107,W,1,9,2.0,15,M,,M,,*56
06/18/2015	06:07:56.528	$GPGGA,060757,2541.5066,N,07941.2090,W,1,9,2.0,15,M,,M,,*5B
06/18/2015	06:07:57.528	$GPGGA,060758,2541.5067,N,07941.2073,W,1,9,2.0,15,M,,M,,*58
06/18/2015	06:07:58.519	$GPGGA,060759,2541.5070,N,07941.2055,W,1,9,2.0,15,M,,M,,*5B
06/18/2015	06:07:59.599	$GPGGA,060800,2541.5070,N,07941.2038,W,1,9,2.0,15,M,,M,,*53
06/18/2015	06:08:00.519	$GPGGA,060801,2541.5071,N,07941.2021,W,1,9,2.0,15,M,,M,,*5B
06/18/2015	06:08:01.519	$GPGGA,060802,2541.5073,N,07941.2004,W,1,9,2.0,15,M,,M,,*5D
06/18/2015	06:08:02.519	$GPGGA,060803,2541.5074,N,07941.1987,W,1,9,2.0,15,M,,M,,*5A
06/18/2015	06:08:03.529	$GPGGA,060804,2541.5076,N,07941.1970,W,1,9,2.0,15,M,,M,,*57
06/18/2015	06:08:04.499	$GPGGA,060805,2541.5075,N,07941.1953,W,1,9,2.0,15,M,,M,,*54
06/18/2015	06:08:05.509	$GPGGA,060806,2541.5077,N,07941.1936,W,1,9,2.0,15,M,,M,,*56
06/18/2015	06:08:06.519	$GPGGA,060807,2541.5078,N,07941.1918,W,1,9,2.0,15,M,,M,,*54
06/18/2015	06:08:07.529	$GPGGA,060808,2541.5078,N,07941.1902,W,1,9,2.0,15,M,,M,,*50
06/18/2015	06:08:08.589	$GPGGA,060809,2541.5080,N,07941.1885,W,1,9,2.0,15,M,,M,,*58
06/18/2015	06:08:09.598	$GPGGA,060810,2541.5081,N,07941.1868,W,1,9,2.0,15,M,,M,,*52
06/18/2015	06:08:10.488	$GPGGA,060811,2541.5080,N,07941.1851,W,1,9,2.0,15,M,,M,,*58
06/18/2015	06:08:11.598	$GPGGA,060812,2541.5081,N,07941.1834,W,1,9,2.0,15,M,,M,,*59
06/18/2015	06:08:12.498	$GPGGA,060813,2541.5081,N,07941.1817,W,1,9,2.0,15,M,,M,,*59
06/18/2015	06:08:13.578	$GPGGA,060814,2541.5083,N,07941.1800,W,1,9,2.0,15,M,,M,,*5A
06/18/2015	06:08:14.498	$GPGGA,060815,2541.5084,N,07941.1783,W,1,9,2.0,15,M,,M,,*58
06/18/2015	06:08:15.628	$GPGGA,060816,2541.5082,N,07941.1766,W,1,9,2.0,15,M,,M,,*56
06/18/2015	06:08:16.599	$GPGGA,060817,2541.5085,N,07941.1749,W,1,9,2.0,15,M,,M,,*5D
06/18/2015	06:08:17.579	$GPGGA,060818,2541.5085,N,07941.1732,W,1,9,2.0,15,M,,M,,*5E
06/18/2015	06:08:18.579	$GPGGA,060819,2541.5085,N,07941.1715,W,1,9,2.0,15,M,,M,,*5A
06/18/2015	06:08:19.599	$GPGGA,060820,2541.5085,N,07941.1699,W,1,9,2.0,15,M,,M,,*55
06/18/2015	06:08:20.569	$GPGGA,060821,2541.5088,N,07941.1681,W,1,9,2.0,15,M,,M,,*50
06/18/2015	06:08:21.589	$GPGGA,060822,2541.5089,N,07941.1663,W,1,9,2.0,15,M,,M,,*5E
06/18/2015	06:08:22.569	$GPGGA,060823,2541.5087,N,07941.1647,W,1,9,2.0,15,M,,M,,*57
06/18/2015	06:08:23.599	$GPGGA,060824,2541.5089,N,07941.1629,W,1,9,2.0,15,M,,M,,*56
06/18/2015	06:08:24.563	$GPGGA,060825,2541.5091,N,07941.1612,W,1,9,2.0,15,M,,M,,*56
06/18/2015	06:08:25.569	$GPGGA,060826,2541.5092,N,07941.1595,W,1,9,2.0,15,M,,M,,*5A
06/18/2015	06:08:26.558	$GPGGA,060827,2541.5092,N,07941.1578,W,1,9,2.0,15,M,,M,,*58
06/18/2015	06:08:27.578	$GPGGA,060828,2541.5094,N,07941.1561,W,1,9,2.0,15,M,,M,,*59
06/18/2015	06:08:28.558	$GPGGA,060829,2541.5095,N,07941.1543,W,1,9,2.0,15,M,,M,,*59
06/18/2015	06:08:29.558	$GPGGA,060830,2541.5094,N,07941.1526,W,1,9,2.0,15,M,,M,,*53
06/18/2015	06:08:30.558	$GPGGA,060831,2541.5096,N,07941.1509,W,1,9,2.0,15,M,,M,,*5D
06/18/2015	06:08:31.558	$GPGGA,060832,2541.5098,N,07941.1491,W,1,9,2.0,15,M,,M,,*50
06/18/2015	06:08:32.538	$GPGGA,060833,2541.5099,N,07941.1474,W,1,9,2.0,15,M,,M,,*5B
06/18/2015	06:08:33.559	$GPGGA,060834,2541.5099,N,07941.1456,W,1,9,2.0,15,M,,M,,*5C
06/18/2015	06:08:34.529	$GPGGA,060835,2541.5102,N,07941.1439,W,1,9,2.0,15,M,,M,,*57
06/18/2015	06:08:35.569	$GPGGA,060836,2541.5103,N,07941.1421,W,1,9,2.0,15,M,,M,,*5C
06/18/2015	06:08:36.539	$GPGGA,060837,2541.5103,N,07941.1404,W,1,9,2.0,15,M,,M,,*5A
06/18/2015	06:08:37.539	$GPGGA,060838,2541.5105,N,07941.1386,W,1,9,2.0,15,M,,M,,*5E
06/18/2015	06:08:38.530	$GPGGA,060839,2541.5107,N,07941.1369,W,1,9,2.0,15,M,,M,,*5C
06/18/2015	06:08:39.559	$GPGGA,060840,2541.5107,N,07941.1351,W,1,9,2.0,15,M,,M,,*59
06/18/2015	06:08:40.519	$GPGGA,060841,2541.5110,N,07941.1334,W,1,9,2.0,15,M,,M,,*5D
06/18/2015	06:08:41.559	$GPGGA,060842,2541.5110,N,07941.1317,W,1,9,2.0,15,M,,M,,*5F
06/18/2015	06:08:42.519	$GPGGA,060843,2541.5113,N,07941.1299,W,1,9,2.0,15,M,,M,,*5A
06/18/2015	06:08:43.529	$GPGGA,060844,2541.5114,N,07941.1282,W,1,8,2.1,15,M,,M,,*50
06/18/2015	06:08:44.528	$GPGGA,060845,2541.5116,N,07941.1265,W,1,8,2.0,15,M,,M,,*5B
06/18/2015	06:08:45.550	$GPGGA,060846,2541.5117,N,07941.1247,W,1,9,2.0,15,M,,M,,*58
06/18/2015	06:08:46.519	$GPGGA,060847,2541.5120,N,07941.1229,W,1,9,2.1,15,M,,M,,*54
06/18/2015	06:08:47.558	$GPGGA,060848,2541.5121,N,07941.1212,W,1,8,2.1,15,M,,M,,*53
06/18/2015	06:08:48.508	$GPGGA,060849,2541.5123,N,07941.1194,W,1,8,2.0,15,M,,M,,*5C
06/18/2015	06:08:49.498	$GPGGA,060850,2541.5125,N,07941.1177,W,1,9,2.0,15,M,,M,,*5E
06/18/2015	06:08:50.508	$GPGGA,060851,2541.5128,N,07941.1159,W,1,9,2.1,15,M,,M,,*5F
06/18/2015	06:08:51.529	$GPGGA,060852,2541.5128,N,07941.1142,W,1,8,2.1,15,M,,M,,*57
06/18/2015	06:08:52.510	$GPGGA,060853,2541.5132,N,07941.1124,W,1,8,2.0,15,M,,M,,*5C
06/18/2015	06:08:53.599	$GPGGA,060854,2541.5132,N,07941.1106,W,1,9,2.0,15,M,,M,,*5A
06/18/2015	06:08:54.489	$GPGGA,060855,2541.5135,N,07941.1088,W,1,9,2.0,15,M,,M,,*5B
06/18/2015	06:08:55.539	$GPGGA,060856,2541.5136,N,07941.1071,W,1,8,2.1,15,M,,M,,*5D
06/18/2015	06:08:56.659	$GPGGA,060857,2541.5138,N,07941.1055,W,1,8,2.1,16,M,,M,,*57
06/18/2015	06:08:57.619	$GPGGA,060858,2541.5139,N,07941.1038,W,1,9,2.0,16,M,,M,,*52
06/18/2015	06:08:58.669	$GPGGA,060859,2541.5142,N,07941.1020,W,1,9,2.0,16,M,,M,,*56
06/18/2015	06:08:59.669	$GPGGA,060900,2541.5141,N,07941.1004,W,1,8,2.0,16,M,,M,,*5F
06/18/2015	06:09:00.499	$GPGGA,060901,2541.5143,N,07941.0986,W,1,8,2.0,16,M,,M,,*5E
06/18/2015	06:09:01.508	$GPGGA,060902,2541.5146,N,07941.0968,W,1,9,2.0,16,M,,M,,*59
06/18/2015	06:09:02.478	$GPGGA,060903,2541.5149,N,07941.0950,W,1,9,2.1,16,M,,M,,*5D
06/18/2015	06:09:03.498	$GPGGA,060904,2541.5150,N,07941.0932,W,1,8,2.1,16,M,,M,,*57
06/18/2015	06:09:04.488	$GPGGA,060905,2541.5152,N,07941.0915,W,1,8,2.0,16,M,,M,,*50
06/18/2015	06:09:05.588	$GPGGA,060906,2541.5154,N,07941.0897,W,1,9,2.0,17,M,,M,,*5E
06/18/2015	06:09:06.638	$GPGGA,060907,2541.5156,N,07941.0879,W,1,9,2.0,17,M,,M,,*5D
06/18/2015	06:09:07.578	$GPGGA,060908,2541.5157,N,07941.0861,W,1,9,2.0,17,M,,M,,*5A
06/18/2015	06:09:08.649	$GPGGA,060909,2541.5159,N,07941.0843,W,1,9,2.0,17,M,,M,,*55
06/18/2015	06:09:09.629	$GPGGA,060910,2541.5161,N,07941.0826,W,1,9,2.0,17,M,,M,,*55
06/18/2015	06:09:10.639	$GPGGA,060911,2541.5163,N,07941.0808,W,1,9,2.0,17,M,,M,,*5A
06/18/2015	06:09:11.629	$GPGGA,060912,2541.5164,N,07941.0791,W,1,9,2.0,17,M,,M,,*51
06/18/2015	06:09:12.639	$GPGGA,060913,2541.5165,N,07941.0774,W,1,9,2.0,17,M,,M,,*5A
06/18/2015	06:09:13.550	$GPGGA,060914,2541.5168,N,07941.0756,W,1,9,2.0,17,M,,M,,*50
06/18/2015	06:09:14.549	$GPGGA,060915,2541.5170,N,07941.0739,W,1,9,2.0,17,M,,M,,*51
06/18/2015	06:09:15.559	$GPGGA,060916,2541.5171,N,07941.0721,W,1,9,2.0,17,M,,M,,*5A
06/18/2015	06:09:16.629	$GPGGA,060917,2541.5172,N,07941.0704,W,1,9,2.0,17,M,,M,,*5F
06/18/2015	06:09:17.599	$GPGGA,060918,2541.5174,N,07941.0687,W,1,9,2.0,17,M,,M,,*5C
06/18/2015	06:09:18.619	$GPGGA,060919,2541.5175,N,07941.0669,W,1,9,2.0,17,M,,M,,*5C
06/18/2015	06:09:19.598	$GPGGA,060920,2541.5175,N,07941.0653,W,1,9,2.0,18,M,,M,,*50
06/18/2015	06:09:20.618	$GPGGA,060921,2541.5178,N,07941.0635,W,1,9,2.0,18,M,,M,,*5C
06/18/2015	06:09:21.578	$GPGGA,060922,2541.5179,N,07941.0617,W,1,9,2.0,18,M,,M,,*5E
06/18/2015	06:09:22.528	$GPGGA,060923,2541.5181,N,07941.0600,W,1,9,2.0,18,M,,M,,*5E
06/18/2015	06:09:23.628	$GPGGA,060924,2541.5182,N,07941.0583,W,1,9,2.0,18,M,,M,,*52
06/18/2015	06:09:24.588	$GPGGA,060925,2541.5182,N,07941.0566,W,1,9,2.0,18,M,,M,,*58
06/18/2015	06:09:25.608	$GPGGA,060926,2541.5183,N,07941.0549,W,1,9,2.0,18,M,,M,,*57
06/18/2015	06:09:26.599	$GPGGA,060927,2541.5185,N,07941.0532,W,1,9,2.0,18,M,,M,,*5C
06/18/2015	06:09:27.579	$GPGGA,060928,2541.5186,N,07941.0514,W,1,9,2.0,18,M,,M,,*54
06/18/2015	06:09:28.589	$GPGGA,060929,2541.5186,N,07941.0497,W,1,9,2.0,18,M,,M,,*5F
06/18/2015	06:09:29.539	$GPGGA,060930,2541.5188,N,07941.0480,W,1,9,2.0,18,M,,M,,*5F
06/18/2015	06:09:30.529	$GPGGA,060931,2541.5189,N,07941.0463,W,1,9,2.0,18,M,,M,,*52
06/18/2015	06:09:31.609	$GPGGA,060932,2541.5190,N,07941.0445,W,1,9,2.0,18,M,,M,,*5D
06/18/2015	06:09:32.589	$GPGGA,060933,2541.5190,N,07941.0428,W,1,9,2.0,18,M,,M,,*57
06/18/2015	06:09:33.509	$GPGGA,060934,2541.5192,N,07941.0411,W,1,9,2.0,18,M,,M,,*58
06/18/2015	06:09:34.569	$GPGGA,060935,2541.5193,N,07941.0393,W,1,9,2.0,18,M,,M,,*55
06/18/2015	06:09:35.579	$GPGGA,060936,2541.5195,N,07941.0376,W,1,9,2.0,18,M,,M,,*5B
06/18/2015	06:09:36.568	$GPGGA,060937,2541.5196,N,07941.0358,W,1,9,2.0,18,M,,M,,*55
06/18/2015	06:09:37.618	$GPGGA,060938,2541.5195,N,07941.0341,W,1,9,2.0,18,M,,M,,*51
06/18/2015	06:09:38.558	$GPGGA,060939,2541.5197,N,07941.0323,W,1,9,2.0,18,M,,M,,*56
06/18/2015	06:09:39.508	$GPGGA,060940,2541.5200,N,07941.0305,W,1,9,2.0,18,M,,M,,*51
06/18/2015	06:09:40.598	$GPGGA,060941,2541.5201,N,07941.0289,W,1,9,2.0,18,M,,M,,*54
06/18/2015	06:09:41.488	$GPGGA,060942,2541.5201,N,07941.0271,W,1,9,2.0,18,M,,M,,*50
06/18/2015	06:09:42.568	$GPGGA,060943,2541.5203,N,07941.0254,W,1,9,2.0,18,M,,M,,*54
06/18/2015	06:09:43.569	$GPGGA,060944,2541.5204,N,07941.0236,W,1,9,2.0,18,M,,M,,*50
06/18/2015	06:09:44.559	$GPGGA,060945,2541.5207,N,07941.0218,W,1,9,2.0,18,M,,M,,*5E
06/18/2015	06:09:45.529	$GPGGA,060946,2541.5208,N,07941.0202,W,1,9,2.0,18,M,,M,,*59
06/18/2015	06:09:46.550	$GPGGA,060947,2541.5210,N,07941.0184,W,1,9,2.0,18,M,,M,,*5C
06/18/2015	06:09:47.569	$GPGGA,060948,2541.5211,N,07941.0167,W,1,9,2.0,18,M,,M,,*5F
06/18/2015	06:09:48.559	$GPGGA,060949,2541.5210,N,07941.0151,W,1,9,2.0,18,M,,M,,*5A
06/18/2015	06:09:49.569	$GPGGA,060950,2541.5214,N,07941.0133,W,1,9,2.0,18,M,,M,,*52
06/18/2015	06:09:50.550	$GPGGA,060951,2541.5215,N,07941.0115,W,1,9,2.0,18,M,,M,,*56
06/18/2015	06:09:51.559	$GPGGA,060952,2541.5215,N,07941.0098,W,1,9,2.0,18,M,,M,,*51
06/18/2015	06:09:52.579	$GPGGA,060953,2541.5217,N,07941.0081,W,1,9,2.0,18,M,,M,,*5A
06/18/2015	06:09:53.599	$GPGGA,060954,2541.5219,N,07941.0064,W,1,9,2.0,18,M,,M,,*58
06/18/2015	06:09:54.568	$GPGGA,060955,2541.5221,N,07941.0046,W,1,9,2.0,18,M,,M,,*52
06/18/2015	06:09:55.618	$GPGGA,060956,2541.5222,N,07941.0029,W,1,9,2.0,18,M,,M,,*5B
06/18/2015	06:09:56.568	$GPGGA,060957,2541.5222,N,07941.0012,W,1,9,2.0,18,M,,M,,*52
06/18/2015	06:09:57.588	$GPGGA,060958,2541.5225,N,07940.9994,W,1,9,2.0,18,M,,M,,*55
06/18/2015	06:09:58.558	$GPGGA,060959,2541.5226,N,07940.9977,W,1,9,2.0,18,M,,M,,*5A
06/18/2015	06:09:59.598	$GPGGA,061000,2541.5228,N,07940.9960,W,1,9,2.0,18,M,,M,,*56
06/18/2015	06:10:00.568	$GPGGA,061001,2541.5229,N,07940.9942,W,1,9,2.0,18,M,,M,,*56
06/18/2015	06:10:01.589	$GPGGA,061002,2541.5230,N,07940.9925,W,1,9,2.0,18,M,,M,,*5C
06/18/2015	06:10:02.559	$GPGGA,061003,2541.5232,N,07940.9907,W,1,9,2.0,18,M,,M,,*5F
06/18/2015	06:10:03.569	$GPGGA,061004,2541.5233,N,07940.9889,W,1,9,2.3,18,M,,M,,*5D
06/18/2015	06:10:04.569	$GPGGA,061005,2541.5235,N,07940.9871,W,1,9,3.0,18,M,,M,,*5F
06/18/2015	06:10:05.569	$GPGGA,061006,2541.5236,N,07940.9854,W,1,7,3.0,18,M,,M,,*56
06/18/2015	06:10:06.550	$GPGGA,061007,2541.5237,N,07940.9836,W,1,7,2.3,18,M,,M,,*50
06/18/2015	06:10:07.579	$GPGGA,061008,2541.5240,N,07940.9818,W,1,8,3.0,17,M,,M,,*51
06/18/2015	06:10:08.549	$GPGGA,061009,2541.5242,N,07940.9800,W,1,8,3.0,17,M,,M,,*5B
06/18/2015	06:10:09.559	$GPGGA,061010,2541.5241,N,07940.9784,W,1,7,2.3,17,M,,M,,*5E
06/18/2015	06:10:10.550	$GPGGA,061011,2541.5244,N,07940.9767,W,1,7,2.3,17,M,,M,,*57
06/18/2015	06:10:11.588	$GPGGA,061012,2541.5246,N,07940.9749,W,1,8,3.0,17,M,,M,,*57
06/18/2015	06:10:12.568	$GPGGA,061013,2541.5247,N,07940.9731,W,1,8,2.3,17,M,,M,,*5A
06/18/2015	06:10:13.578	$GPGGA,061014,2541.5247,N,07940.9713,W,1,8,3.0,17,M,,M,,*5F
06/18/2015	06:10:14.549	$GPGGA,061015,2541.5250,N,07940.9696,W,1,8,2.3,17,M,,M,,*56
06/18/2015	06:10:15.568	$GPGGA,061016,2541.5251,N,07940.9678,W,1,8,3.0,17,M,,M,,*56
06/18/2015	06:10:16.568	$GPGGA,061017,2541.5253,N,07940.9661,W,1,8,2.3,17,M,,M,,*5F
06/18/2015	06:10:17.549	$GPGGA,061018,2541.5255,N,07940.9645,W,1,8,2.3,17,M,,M,,*50
06/18/2015	06:10:18.539	$GPGGA,061019,2541.5257,N,07940.9626,W,1,8,3.0,17,M,,M,,*54
06/18/2015	06:10:19.569	$GPGGA,061020,2541.5258,N,07940.9608,W,1,7,3.0,17,M,,M,,*52
06/18/2015	06:10:20.554	$GPGGA,061021,2541.5261,N,07940.9591,W,1,7,2.3,17,M,,M,,*58
06/18/2015	06:10:21.550	$GPGGA,061022,2541.5262,N,07940.9574,W,1,8,2.3,17,M,,M,,*5C
06/18/2015	06:10:22.519	$GPGGA,061023,2541.5262,N,07940.9574,W,1,8,2.3,17,M,,M,,*5D
06/18/2015	06:10:23.559	$GPGGA,061024,2541.5265,N,07940.9539,W,1,8,2.3,17,M,,M,,*54
06/18/2015	06:10:24.539	$GPGGA,061025,2541.5266,N,07940.9522,W,1,8,2.3,17,M,,M,,*5C
06/18/2015	06:10:25.509	$GPGGA,061026,2541.5268,N,07940.9505,W,1,8,2.3,17,M,,M,,*54
06/18/2015	06:10:26.599	$GPGGA,061027,2541.5269,N,07940.9488,W,1,8,2.3,17,M,,M,,*50
06/18/2015	06:10:27.550	$GPGGA,061028,2541.5272,N,07940.9470,W,1,8,2.3,17,M,,M,,*52
06/18/2015	06:10:28.529	$GPGGA,061029,2541.5272,N,07940.9470,W,1,8,2.3,17,M,,M,,*53
06/18/2015	06:10:29.618	$GPGGA,061030,2541.5273,N,07940.9435,W,1,8,2.3,17,M,,M,,*5B
06/18/2015	06:10:30.508	$GPGGA,061031,2541.5273,N,07940.9435,W,1,8,2.3,17,M,,M,,*5A
06/18/2015	06:10:31.528	$GPGGA,061032,2541.5276,N,07940.9400,W,1,8,2.3,17,M,,M,,*5A
06/18/2015	06:10:32.588	$GPGGA,061033,2541.5277,N,07940.9383,W,1,8,2.3,17,M,,M,,*56
06/18/2015	06:10:33.608	$GPGGA,061034,2541.5279,N,07940.9365,W,1,8,2.3,17,M,,M,,*57
06/18/2015	06:10:34.578	$GPGGA,061035,2541.5280,N,07940.9348,W,1,8,2.3,17,M,,M,,*5F
06/18/2015	06:10:35.498	$GPGGA,061036,2541.5282,N,07940.9331,W,1,8,2.3,17,M,,M,,*50
06/18/2015	06:10:36.599	$GPGGA,061037,2541.5283,N,07940.9314,W,1,8,2.3,17,M,,M,,*57
06/18/2015	06:10:37.569	$GPGGA,061038,2541.5284,N,07940.9297,W,1,8,2.3,17,M,,M,,*55
06/18/2015	06:10:38.599	$GPGGA,061039,2541.5284,N,07940.9279,W,1,8,2.3,17,M,,M,,*54
06/18/2015	06:10:39.509	$GPGGA,061040,2541.5286,N,07940.9261,W,1,8,2.3,17,M,,M,,*51
06/18/2015	06:10:40.589	$GPGGA,061041,2541.5287,N,07940.9245,W,1,8,2.3,17,M,,M,,*57
06/18/2015	06:10:41.599	$GPGGA,061042,2541.5287,N,07940.9227,W,1,8,2.3,17,M,,M,,*50
06/18/2015	06:10:42.559	$GPGGA,061043,2541.5289,N,07940.9210,W,1,8,2.3,17,M,,M,,*5B
06/18/2015	06:10:43.589	$GPGGA,061044,2541.5288,N,07940.9193,W,1,8,2.3,17,M,,M,,*55
06/18/2015	06:10:44.569	$GPGGA,061045,2541.5290,N,07940.9175,W,1,8,2.3,17,M,,M,,*55
06/18/2015	06:10:45.589	$GPGGA,061046,2541.5291,N,07940.9158,W,1,8,2.3,17,M,,M,,*58
06/18/2015	06:10:46.558	$GPGGA,061047,2541.5293,N,07940.9140,W,1,8,2.3,17,M,,M,,*52
06/18/2015	06:10:47.568	$GPGGA,061048,2541.5294,N,07940.9123,W,1,8,2.3,17,M,,M,,*5F
06/18/2015	06:10:48.558	$GPGGA,061049,2541.5294,N,07940.9106,W,1,8,2.3,17,M,,M,,*59
06/18/2015	06:10:49.588	$GPGGA,061050,2541.5295,N,07940.9089,W,1,8,2.3,17,M,,M,,*56
06/18/2015	06:10:50.548	$GPGGA,061051,2541.5297,N,07940.9072,W,1,8,2.3,17,M,,M,,*51
06/18/2015	06:10:51.568	$GPGGA,061052,2541.5296,N,07940.9055,W,1,8,2.3,17,M,,M,,*56
06/18/2015	06:10:52.558	$GPGGA,061053,2541.5298,N,07940.9038,W,1,8,2.3,16,M,,M,,*53
06/18/2015	06:10:54.009	$GPGGA,061054,2541.5300,N,07940.9019,W,1,8,2.3,16,M,,M,,*57
06/18/2015	06:10:54.539	$GPGGA,061055,2541.5299,N,07940.9002,W,1,8,2.3,16,M,,M,,*5D
06/18/2015	06:10:55.549	$GPGGA,061056,2541.5301,N,07940.8985,W,1,8,2.3,16,M,,M,,*59
06/18/2015	06:10:56.549	$GPGGA,061057,2541.5302,N,07940.8967,W,1,8,2.3,16,M,,M,,*57
06/18/2015	06:10:57.569	$GPGGA,061058,2541.5302,N,07940.8950,W,1,8,2.3,16,M,,M,,*5C
06/18/2015	06:10:58.539	$GPGGA,061059,2541.5304,N,07940.8933,W,1,8,2.3,16,M,,M,,*5E
06/18/2015	06:10:59.579	$GPGGA,061100,2541.5305,N,07940.8915,W,1,8,2.3,16,M,,M,,*56
06/18/2015	06:11:00.539	$GPGGA,061101,2541.5305,N,07940.8897,W,1,8,2.3,16,M,,M,,*5C
06/18/2015	06:11:01.559	$GPGGA,061102,2541.5307,N,07940.8880,W,1,8,2.3,16,M,,M,,*5B
06/18/2015	06:11:02.529	$GPGGA,061103,2541.5308,N,07940.8862,W,1,8,2.3,16,M,,M,,*59
06/18/2015	06:11:03.569	$GPGGA,061104,2541.5309,N,07940.8845,W,1,8,2.3,16,M,,M,,*5A
06/18/2015	06:11:04.518	$GPGGA,061105,2541.5309,N,07940.8827,W,1,8,2.3,16,M,,M,,*5F
06/18/2015	06:11:05.552	$GPGGA,061106,2541.5311,N,07940.8810,W,1,8,2.3,16,M,,M,,*51
06/18/2015	06:11:06.518	$GPGGA,061107,2541.5313,N,07940.8792,W,1,8,2.3,16,M,,M,,*57
06/18/2015	06:11:07.558	$GPGGA,061108,2541.5313,N,07940.8775,W,1,8,2.3,16,M,,M,,*51
06/18/2015	06:11:08.518	$GPGGA,061109,2541.5315,N,07940.8757,W,1,8,2.3,16,M,,M,,*56
06/18/2015	06:11:09.518	$GPGGA,061110,2541.5316,N,07940.8739,W,1,8,2.3,16,M,,M,,*55
06/18/2015	06:11:10.518	$GPGGA,061111,2541.5316,N,07940.8722,W,1,8,2.3,16,M,,M,,*5E
06/18/2015	06:11:11.550	$GPGGA,061112,2541.5319,N,07940.8704,W,1,8,2.3,16,M,,M,,*56
06/18/2015	06:11:12.499	$GPGGA,061113,2541.5320,N,07940.8686,W,1,8,2.3,16,M,,M,,*56
06/18/2015	06:11:13.529	$GPGGA,061114,2541.5320,N,07940.8669,W,1,8,2.3,16,M,,M,,*50
06/18/2015	06:11:14.619	$GPGGA,061115,2541.5323,N,07940.8651,W,1,8,2.3,16,M,,M,,*59
06/18/2015	06:11:15.529	$GPGGA,061116,2541.5324,N,07940.8632,W,1,8,2.3,16,M,,M,,*58
06/18/2015	06:11:16.589	$GPGGA,061117,2541.5326,N,07940.8614,W,1,8,3.0,16,M,,M,,*5D
06/18/2015	06:11:17.519	$GPGGA,061118,2541.5327,N,07940.8596,W,1,8,2.3,16,M,,M,,*58
06/18/2015	06:11:18.589	$GPGGA,061119,2541.5330,N,07940.8577,W,1,8,3.0,16,M,,M,,*52
06/18/2015	06:11:19.519	$GPGGA,061120,2541.5331,N,07940.8559,W,1,8,2.3,15,M,,M,,*54
06/18/2015	06:11:20.509	$GPGGA,061121,2541.5333,N,07940.8542,W,1,8,2.3,15,M,,M,,*5D
06/18/2015	06:11:21.508	$GPGGA,061122,2541.5334,N,07940.8524,W,1,8,2.3,15,M,,M,,*59
06/18/2015	06:11:22.599	$GPGGA,061123,2541.5336,N,07940.8506,W,1,8,3.0,15,M,,M,,*58
06/18/2015	06:11:23.588	$GPGGA,061124,2541.5337,N,07940.8488,W,1,8,2.3,15,M,,M,,*5B
06/18/2015	06:11:24.588	$GPGGA,061125,2541.5338,N,07940.8470,W,1,8,2.3,15,M,,M,,*52
06/18/2015	06:11:25.478	$GPGGA,061126,2541.5341,N,07940.8453,W,1,8,2.3,15,M,,M,,*5E
06/18/2015	06:11:26.598	$GPGGA,061127,2541.5341,N,07940.8435,W,1,8,2.3,15,M,,M,,*5F
06/18/2015	06:11:27.578	$GPGGA,061128,2541.5344,N,07940.8419,W,1,8,2.3,15,M,,M,,*5B
06/18/2015	06:11:28.489	$GPGGA,061129,2541.5347,N,07940.8401,W,1,8,2.3,15,M,,M,,*50
06/18/2015	06:11:29.479	$GPGGA,061130,2541.5348,N,07940.8384,W,1,8,2.3,15,M,,M,,*5D
06/18/2015	06:11:30.579	$GPGGA,061131,2541.5349,N,07940.8367,W,1,8,2.3,15,M,,M,,*50
06/18/2015	06:11:31.579	$GPGGA,061132,2541.5351,N,07940.8349,W,1,8,2.3,15,M,,M,,*56
06/18/2015	06:11:32.560	$GPGGA,061133,2541.5354,N,07940.8331,W,1,8,2.3,15,M,,M,,*5D
06/18/2015	06:11:33.589	$GPGGA,061134,2541.5356,N,07940.8313,W,1,8,2.3,15,M,,M,,*58
06/18/2015	06:11:34.551	$GPGGA,061135,2541.5356,N,07940.8295,W,1,8,2.3,15,M,,M,,*56
06/18/2015	06:11:35.589	$GPGGA,061136,2541.5359,N,07940.8278,W,1,8,2.3,15,M,,M,,*59
06/18/2015	06:11:36.559	$GPGGA,061137,2541.5360,N,07940.8259,W,1,8,2.3,15,M,,M,,*51
06/18/2015	06:11:37.569	$GPGGA,061138,2541.5363,N,07940.8241,W,1,7,2.9,15,M,,M,,*51
06/18/2015	06:11:38.549	$GPGGA,061139,2541.5363,N,07940.8223,W,1,7,2.3,15,M,,M,,*5E
06/18/2015	06:11:39.568	$GPGGA,061140,2541.5366,N,07940.8205,W,1,8,2.3,15,M,,M,,*5E
06/18/2015	06:11:40.548	$GPGGA,061141,2541.5367,N,07940.8188,W,1,8,2.3,15,M,,M,,*58
06/18/2015	06:11:41.568	$GPGGA,061142,2541.5369,N,07940.8170,W,1,8,2.3,15,M,,M,,*52
06/18/2015	06:11:42.538	$GPGGA,061143,2541.5370,N,07940.8153,W,1,8,2.3,15,M,,M,,*5A
06/18/2015	06:11:43.578	$GPGGA,061144,2541.5372,N,07940.8135,W,1,8,2.3,15,M,,M,,*5F
06/18/2015	06:11:45.018	$GPGGA,061145,2541.5373,N,07940.8118,W,1,8,2.3,15,M,,M,,*50
06/18/2015	06:11:45.558	$GPGGA,061146,2541.5374,N,07940.8101,W,1,8,2.3,16,M,,M,,*5F
06/18/2015	06:11:46.539	$GPGGA,061147,2541.5377,N,07940.8083,W,1,8,2.3,16,M,,M,,*56
06/18/2015	06:11:47.569	$GPGGA,061148,2541.5378,N,07940.8066,W,1,8,2.3,16,M,,M,,*5D
06/18/2015	06:11:49.589	$GPGGA,061150,2541.5380,N,07940.8031,W,1,8,2.3,16,M,,M,,*51
06/18/2015	06:11:50.539	$GPGGA,061151,2541.5381,N,07940.8014,W,1,8,2.3,16,M,,M,,*56
06/18/2015	06:11:51.569	$GPGGA,061152,2541.5383,N,07940.7997,W,1,8,2.3,16,M,,M,,*5A
