Software Version Number: 1	Data File Format Number: 1	Build Version Number: 1	Error Count Since VI Started: 3	Manufacturer: Raytheon	 Model Number: RayMarine 120	 S/N: 	 Cal Date: 	 Wind Direction Offset: 0.00	 Slope (M)1: 0.00	 Offset (B)1: 0.00	 Slope (M)2: 0.00	 Offset (B)2: 0.00	 Slope (M)3: 0.00	 Offset (B)3: 0.00	 Slope (M)4: 0.00	 Offset (B)4: 0.00	 Slope (M)5: 0.00	 Offset (B)5: 0.00	 Slope (M)6: 0.00	 Offset (B)6: 0.00
Computer Date	Computer Time	GGA String
06/21/2015	21:00:00.572	$GPGGA,210001,2425.8734,N,08130.3718,W,1,9,1.5,15,M,,M,,*55
06/21/2015	21:00:01.562	$GPGGA,210002,2425.8734,N,08130.3719,W,1,10,1.5,15,M,,M,,*6F
06/21/2015	21:00:02.562	$GPGGA,210003,2425.8734,N,08130.3719,W,1,10,1.5,15,M,,M,,*6E
06/21/2015	21:00:03.603	$GPGGA,210004,2425.8734,N,08130.3718,W,1,11,1.5,15,M,,M,,*69
06/21/2015	21:00:04.563	$GPGGA,210005,2425.8734,N,08130.3718,W,1,11,1.5,15,M,,M,,*68
06/21/2015	21:00:05.573	$GPGGA,210006,2425.8732,N,08130.3719,W,1,11,1.5,16,M,,M,,*6F
06/21/2015	21:00:06.545	$GPGGA,210007,2425.8733,N,08130.3721,W,1,11,1.5,16,M,,M,,*64
06/21/2015	21:00:07.572	$GPGGA,210008,2425.8731,N,08130.3722,W,1,9,2.4,16,M,,M,,*51
06/21/2015	21:00:08.562	$GPGGA,210009,2425.8730,N,08130.3723,W,1,9,1.5,16,M,,M,,*52
06/21/2015	21:00:09.572	$GPGGA,210010,2425.8730,N,08130.3726,W,1,10,1.5,16,M,,M,,*67
06/21/2015	21:00:10.543	$GPGGA,210011,2425.8727,N,08130.3726,W,1,10,2.4,16,M,,M,,*62
06/21/2015	21:00:11.572	$GPGGA,210012,2425.8727,N,08130.3730,W,1,10,1.5,16,M,,M,,*64
06/21/2015	21:00:12.543	$GPGGA,210013,2425.8725,N,08130.3732,W,1,10,2.4,17,M,,M,,*66
06/21/2015	21:00:13.552	$GPGGA,210014,2425.8723,N,08130.3733,W,1,10,1.5,17,M,,M,,*64
06/21/2015	21:00:14.542	$GPGGA,210015,2425.8721,N,08130.3736,W,1,10,1.5,17,M,,M,,*62
06/21/2015	21:00:15.562	$GPGGA,210016,2425.8720,N,08130.3739,W,1,11,1.5,17,M,,M,,*6E
06/21/2015	21:00:16.542	$GPGGA,210017,2425.8718,N,08130.3739,W,1,11,1.5,17,M,,M,,*64
06/21/2015	21:00:17.522	$GPGGA,210018,2425.8716,N,08130.3741,W,1,11,1.5,17,M,,M,,*6A
06/21/2015	21:00:18.532	$GPGGA,210019,2425.8716,N,08130.3744,W,1,11,2.1,17,M,,M,,*69
06/21/2015	21:00:19.562	$GPGGA,210020,2425.8714,N,08130.3742,W,1,10,2.1,17,M,,M,,*66
06/21/2015	21:00:20.533	$GPGGA,210021,2425.8713,N,08130.3746,W,1,10,1.5,17,M,,M,,*63
06/21/2015	21:00:21.523	$GPGGA,210022,2425.8712,N,08130.3748,W,1,11,1.5,18,M,,M,,*61
06/21/2015	21:00:22.523	$GPGGA,210023,2425.8712,N,08130.3750,W,1,11,1.5,18,M,,M,,*69
06/21/2015	21:00:23.533	$GPGGA,210024,2425.8712,N,08130.3754,W,1,11,1.5,18,M,,M,,*6A
06/21/2015	21:00:24.513	$GPGGA,210025,2425.8710,N,08130.3755,W,1,11,1.5,18,M,,M,,*68
06/21/2015	21:00:25.532	$GPGGA,210026,2425.8709,N,08130.3755,W,1,11,1.5,18,M,,M,,*63
06/21/2015	21:00:26.522	$GPGGA,210027,2425.8709,N,08130.3755,W,1,11,1.5,18,M,,M,,*62
06/21/2015	21:00:27.552	$GPGGA,210028,2425.8711,N,08130.3755,W,1,11,1.5,18,M,,M,,*64
06/21/2015	21:00:28.622	$GPGGA,210029,2425.8710,N,08130.3754,W,1,11,1.5,18,M,,M,,*65
06/21/2015	21:00:29.522	$GPGGA,210030,2425.8712,N,08130.3754,W,1,11,1.5,18,M,,M,,*6F
06/21/2015	21:00:30.512	$GPGGA,210031,2425.8714,N,08130.3753,W,1,11,1.5,18,M,,M,,*6F
06/21/2015	21:00:31.622	$GPGGA,210032,2425.8715,N,08130.3752,W,1,11,1.5,18,M,,M,,*6C
06/21/2015	21:00:32.602	$GPGGA,210033,2425.8716,N,08130.3753,W,1,11,2.1,19,M,,M,,*69
06/21/2015	21:00:33.492	$GPGGA,210034,2425.8718,N,08130.3750,W,1,11,1.5,19,M,,M,,*64
06/21/2015	21:00:34.492	$GPGGA,210035,2425.8719,N,08130.3747,W,1,11,1.5,19,M,,M,,*62
06/21/2015	21:00:35.632	$GPGGA,210036,2425.8721,N,08130.3744,W,1,10,1.5,19,M,,M,,*68
06/21/2015	21:00:36.512	$GPGGA,210037,2425.8723,N,08130.3743,W,1,10,1.5,19,M,,M,,*6C
06/21/2015	21:00:37.482	$GPGGA,210038,2425.8725,N,08130.3741,W,1,11,1.5,19,M,,M,,*66
06/21/2015	21:00:38.603	$GPGGA,210039,2425.8727,N,08130.3739,W,1,11,1.5,19,M,,M,,*6A
06/21/2015	21:00:39.613	$GPGGA,210040,2425.8730,N,08130.3737,W,1,10,1.5,19,M,,M,,*6D
06/21/2015	21:00:40.503	$GPGGA,210041,2425.8733,N,08130.3734,W,1,10,1.5,19,M,,M,,*6C
06/21/2015	21:00:41.483	$GPGGA,210042,2425.8737,N,08130.3731,W,1,10,1.5,19,M,,M,,*6E
06/21/2015	21:00:42.582	$GPGGA,210043,2425.8741,N,08130.3728,W,1,10,1.5,19,M,,M,,*66
06/21/2015	21:00:43.482	$GPGGA,210044,2425.8745,N,08130.3724,W,1,10,1.5,19,M,,M,,*69
06/21/2015	21:00:44.582	$GPGGA,210045,2425.8750,N,08130.3719,W,1,10,1.5,19,M,,M,,*62
06/21/2015	21:00:45.562	$GPGGA,210046,2425.8754,N,08130.3715,W,1,11,1.5,19,M,,M,,*68
06/21/2015	21:00:46.562	$GPGGA,210047,2425.8759,N,08130.3710,W,1,11,1.5,19,M,,M,,*61
06/21/2015	21:00:47.602	$GPGGA,210048,2425.8763,N,08130.3706,W,1,9,1.7,19,M,,M,,*5B
06/21/2015	21:00:48.553	$GPGGA,210049,2425.8769,N,08130.3702,W,1,9,1.5,19,M,,M,,*56
06/21/2015	21:00:49.554	$GPGGA,210050,2425.8773,N,08130.3697,W,1,10,2.1,19,M,,M,,*67
06/21/2015	21:00:50.562	$GPGGA,210051,2425.8777,N,08130.3693,W,1,10,2.1,19,M,,M,,*66
06/21/2015	21:00:51.562	$GPGGA,210052,2425.8784,N,08130.3690,W,1,9,2.4,19,M,,M,,*57
06/21/2015	21:00:52.552	$GPGGA,210053,2425.8790,N,08130.3686,W,1,9,2.8,19,M,,M,,*58
06/21/2015	21:00:53.562	$GPGGA,210054,2425.8795,N,08130.3682,W,1,8,2.8,19,M,,M,,*5F
06/21/2015	21:00:54.552	$GPGGA,210055,2425.8801,N,08130.3678,W,1,8,2.8,19,M,,M,,*59
06/21/2015	21:00:55.593	$GPGGA,210056,2425.8805,N,08130.3671,W,1,8,2.8,19,M,,M,,*57
06/21/2015	21:00:56.544	$GPGGA,210057,2425.8809,N,08130.3669,W,1,8,1.7,19,M,,M,,*5F
06/21/2015	21:00:57.544	$GPGGA,210058,2425.8812,N,08130.3662,W,1,10,1.5,18,M,,M,,*6B
06/21/2015	21:00:58.558	$GPGGA,210059,2425.8815,N,08130.3656,W,1,10,1.6,18,M,,M,,*69
06/21/2015	21:00:59.593	$GPGGA,210100,2425.8817,N,08130.3651,W,1,9,1.6,18,M,,M,,*59
06/21/2015	21:01:00.543	$GPGGA,210101,2425.8820,N,08130.3645,W,1,9,1.6,18,M,,M,,*59
06/21/2015	21:01:01.532	$GPGGA,210102,2425.8824,N,08130.3641,W,1,9,1.6,18,M,,M,,*5A
06/21/2015	21:01:02.532	$GPGGA,210103,2425.8828,N,08130.3636,W,1,9,1.5,18,M,,M,,*54
06/21/2015	21:01:03.562	$GPGGA,210104,2425.8831,N,08130.3630,W,1,11,1.5,19,M,,M,,*65
06/21/2015	21:01:04.532	$GPGGA,210105,2425.8835,N,08130.3625,W,1,11,1.5,19,M,,M,,*64
06/21/2015	21:01:05.522	$GPGGA,210106,2425.8838,N,08130.3621,W,1,9,1.6,19,M,,M,,*54
06/21/2015	21:01:06.522	$GPGGA,210107,2425.8839,N,08130.3616,W,1,9,1.8,19,M,,M,,*5E
06/21/2015	21:01:07.554	$GPGGA,210108,2425.8842,N,08130.3612,W,1,9,1.7,19,M,,M,,*56
06/21/2015	21:01:08.522	$GPGGA,210109,2425.8845,N,08130.3608,W,1,9,1.5,19,M,,M,,*59
06/21/2015	21:01:09.512	$GPGGA,210110,2425.8848,N,08130.3603,W,1,11,1.5,19,M,,M,,*6E
06/21/2015	21:01:10.522	$GPGGA,210111,2425.8850,N,08130.3597,W,1,11,1.5,20,M,,M,,*62
06/21/2015	21:01:11.522	$GPGGA,210112,2425.8855,N,08130.3592,W,1,10,1.5,20,M,,M,,*60
06/21/2015	21:01:12.512	$GPGGA,210113,2425.8857,N,08130.3587,W,1,10,1.7,20,M,,M,,*65
06/21/2015	21:01:13.523	$GPGGA,210114,2425.8862,N,08130.3581,W,1,8,1.7,20,M,,M,,*5B
06/21/2015	21:01:14.513	$GPGGA,210115,2425.8864,N,08130.3579,W,1,8,1.7,20,M,,M,,*5B
06/21/2015	21:01:15.533	$GPGGA,210116,2425.8868,N,08130.3577,W,1,9,2.2,20,M,,M,,*5D
06/21/2015	21:01:16.513	$GPGGA,210117,2425.8871,N,08130.3575,W,1,9,2.2,20,M,,M,,*56
06/21/2015	21:01:18.558	$GPGGA,210119,2425.8875,N,08130.3566,W,1,11,1.5,19,M,,M,,*69
06/21/2015	21:01:19.532	$GPGGA,210120,2425.8878,N,08130.3561,W,1,10,1.5,19,M,,M,,*68
06/21/2015	21:01:20.492	$GPGGA,210121,2425.8881,N,08130.3556,W,1,10,1.5,19,M,,M,,*6B
06/21/2015	21:01:21.512	$GPGGA,210122,2425.8882,N,08130.3551,W,1,10,1.5,19,M,,M,,*6C
06/21/2015	21:01:22.482	$GPGGA,210123,2425.8884,N,08130.3548,W,1,10,1.5,19,M,,M,,*63
06/21/2015	21:01:23.542	$GPGGA,210124,2425.8886,N,08130.3544,W,1,11,1.5,19,M,,M,,*6B
06/21/2015	21:01:24.512	$GPGGA,210125,2425.8889,N,08130.3540,W,1,11,1.7,19,M,,M,,*63
06/21/2015	21:01:25.592	$GPGGA,210126,2425.8892,N,08130.3536,W,1,8,1.7,19,M,,M,,*53
06/21/2015	21:01:26.492	$GPGGA,210127,2425.8893,N,08130.3532,W,1,8,1.7,19,M,,M,,*57
06/21/2015	21:01:27.512	$GPGGA,210128,2425.8895,N,08130.3530,W,1,9,1.7,19,M,,M,,*5D
06/21/2015	21:01:28.482	$GPGGA,210129,2425.8896,N,08130.3527,W,1,9,1.7,19,M,,M,,*59
06/21/2015	21:01:29.572	$GPGGA,210130,2425.8900,N,08130.3524,W,1,9,1.7,19,M,,M,,*5C
06/21/2015	21:01:30.473	$GPGGA,210131,2425.8902,N,08130.3521,W,1,9,1.7,19,M,,M,,*5A
06/21/2015	21:01:31.583	$GPGGA,210132,2425.8904,N,08130.3518,W,1,9,1.7,19,M,,M,,*55
06/21/2015	21:01:32.483	$GPGGA,210133,2425.8907,N,08130.3516,W,1,9,1.9,19,M,,M,,*57
06/21/2015	21:01:33.573	$GPGGA,210134,2425.8909,N,08130.3513,W,1,9,1.7,19,M,,M,,*55
06/21/2015	21:01:34.483	$GPGGA,210135,2425.8911,N,08130.3510,W,1,9,1.7,19,M,,M,,*5E
06/21/2015	21:01:35.582	$GPGGA,210136,2425.8914,N,08130.3507,W,1,9,1.7,19,M,,M,,*5E
06/21/2015	21:01:36.572	$GPGGA,210137,2425.8915,N,08130.3505,W,1,9,1.7,19,M,,M,,*5C
06/21/2015	21:01:37.557	$GPGGA,210138,2425.8918,N,08130.3503,W,1,9,1.7,19,M,,M,,*58
06/21/2015	21:01:38.562	$GPGGA,210139,2425.8920,N,08130.3501,W,1,9,1.7,19,M,,M,,*50
06/21/2015	21:01:39.582	$GPGGA,210140,2425.8922,N,08130.3499,W,1,9,1.7,19,M,,M,,*5C
06/21/2015	21:01:40.562	$GPGGA,210141,2425.8924,N,08130.3497,W,1,9,1.7,19,M,,M,,*55
06/21/2015	21:01:41.562	$GPGGA,210142,2425.8925,N,08130.3495,W,1,9,1.7,19,M,,M,,*55
06/21/2015	21:01:42.557	$GPGGA,210143,2425.8927,N,08130.3493,W,1,9,1.5,19,M,,M,,*52
06/21/2015	21:01:43.556	$GPGGA,210144,2425.8929,N,08130.3491,W,1,10,1.5,19,M,,M,,*61
06/21/2015	21:01:44.558	$GPGGA,210145,2425.8929,N,08130.3490,W,1,10,1.5,18,M,,M,,*60
06/21/2015	21:01:45.556	$GPGGA,210146,2425.8929,N,08130.3489,W,1,11,1.4,18,M,,M,,*6B
06/21/2015	21:01:46.558	$GPGGA,210147,2425.8931,N,08130.3487,W,1,11,1.4,18,M,,M,,*6D
06/21/2015	21:01:47.572	$GPGGA,210148,2425.8932,N,08130.3485,W,1,11,1.4,18,M,,M,,*63
06/21/2015	21:01:48.543	$GPGGA,210149,2425.8933,N,08130.3483,W,1,11,1.5,18,M,,M,,*64
06/21/2015	21:01:49.561	$GPGGA,210150,2425.8935,N,08130.3482,W,1,10,1.5,18,M,,M,,*6A
06/21/2015	21:01:50.543	$GPGGA,210151,2425.8936,N,08130.3483,W,1,10,1.5,18,M,,M,,*69
06/21/2015	21:01:51.563	$GPGGA,210152,2425.8936,N,08130.3482,W,1,11,1.4,18,M,,M,,*6B
06/21/2015	21:01:52.546	$GPGGA,210153,2425.8939,N,08130.3479,W,1,11,2.1,18,M,,M,,*67
06/21/2015	21:01:53.522	$GPGGA,210154,2425.8938,N,08130.3476,W,1,11,1.4,18,M,,M,,*68
06/21/2015	21:01:54.532	$GPGGA,210155,2425.8940,N,08130.3477,W,1,11,1.5,18,M,,M,,*66
06/21/2015	21:01:55.532	$GPGGA,210156,2425.8942,N,08130.3479,W,1,9,2.2,18,M,,M,,*54
06/21/2015	21:01:56.532	$GPGGA,210157,2425.8943,N,08130.3477,W,1,9,2.2,18,M,,M,,*5A
06/21/2015	21:01:57.552	$GPGGA,210158,2425.8945,N,08130.3474,W,1,9,2.2,18,M,,M,,*50
06/21/2015	21:01:58.512	$GPGGA,210159,2425.8946,N,08130.3471,W,1,9,1.5,17,M,,M,,*5C
06/21/2015	21:01:59.556	$GPGGA,210200,2425.8947,N,08130.3470,W,1,10,1.5,17,M,,M,,*6B
06/21/2015	21:02:00.522	$GPGGA,210201,2425.8947,N,08130.3468,W,1,10,1.7,17,M,,M,,*61
06/21/2015	21:02:01.513	$GPGGA,210202,2425.8949,N,08130.3465,W,1,9,1.7,17,M,,M,,*59
06/21/2015	21:02:02.522	$GPGGA,210203,2425.8950,N,08130.3463,W,1,9,1.5,17,M,,M,,*54
06/21/2015	21:02:03.553	$GPGGA,210204,2425.8951,N,08130.3461,W,1,9,1.5,17,M,,M,,*50
06/21/2015	21:02:04.512	$GPGGA,210205,2425.8951,N,08130.3460,W,1,9,1.5,17,M,,M,,*50
06/21/2015	21:02:05.533	$GPGGA,210206,2425.8954,N,08130.3459,W,1,10,1.5,17,M,,M,,*64
06/21/2015	21:02:06.523	$GPGGA,210207,2425.8956,N,08130.3457,W,1,10,1.5,17,M,,M,,*69
06/21/2015	21:02:07.543	$GPGGA,210208,2425.8955,N,08130.3456,W,1,9,1.5,17,M,,M,,*5C
06/21/2015	21:02:08.493	$GPGGA,210209,2425.8958,N,08130.3457,W,1,9,1.5,17,M,,M,,*51
06/21/2015	21:02:09.523	$GPGGA,210210,2425.8958,N,08130.3455,W,1,10,1.5,17,M,,M,,*63
06/21/2015	21:02:10.592	$GPGGA,210211,2425.8958,N,08130.3453,W,1,10,1.5,17,M,,M,,*64
06/21/2015	21:02:11.512	$GPGGA,210212,2425.8961,N,08130.3454,W,1,9,1.5,17,M,,M,,*52
06/21/2015	21:02:12.502	$GPGGA,210213,2425.8961,N,08130.3455,W,1,9,1.5,17,M,,M,,*52
06/21/2015	21:02:13.612	$GPGGA,210214,2425.8964,N,08130.3457,W,1,9,2.2,17,M,,M,,*56
06/21/2015	21:02:14.602	$GPGGA,210215,2425.8963,N,08130.3454,W,1,9,2.2,17,M,,M,,*53
06/21/2015	21:02:15.622	$GPGGA,210216,2425.8962,N,08130.3457,W,1,9,1.5,17,M,,M,,*56
06/21/2015	21:02:16.492	$GPGGA,210217,2425.8964,N,08130.3456,W,1,9,1.5,17,M,,M,,*50
06/21/2015	21:02:17.603	$GPGGA,210218,2425.8965,N,08130.3457,W,1,10,1.5,17,M,,M,,*67
06/21/2015	21:02:18.492	$GPGGA,210219,2425.8968,N,08130.3453,W,1,10,2.2,17,M,,M,,*6B
06/21/2015	21:02:19.603	$GPGGA,210220,2425.8971,N,08130.3454,W,1,9,1.5,17,M,,M,,*52
06/21/2015	21:02:20.572	$GPGGA,210221,2425.8972,N,08130.3453,W,1,9,2.2,17,M,,M,,*53
06/21/2015	21:02:21.582	$GPGGA,210222,2425.8975,N,08130.3454,W,1,9,2.2,17,M,,M,,*50
06/21/2015	21:02:22.562	$GPGGA,210223,2425.8976,N,08130.3453,W,1,9,2.2,17,M,,M,,*55
06/21/2015	21:02:23.583	$GPGGA,210224,2425.8979,N,08130.3454,W,1,9,2.2,17,M,,M,,*5A
06/21/2015	21:02:24.563	$GPGGA,210225,2425.8980,N,08130.3452,W,1,9,2.2,16,M,,M,,*5A
06/21/2015	21:02:25.573	$GPGGA,210226,2425.8983,N,08130.3452,W,1,10,2.1,16,M,,M,,*61
06/21/2015	21:02:26.563	$GPGGA,210227,2425.8985,N,08130.3452,W,1,10,2.2,16,M,,M,,*65
06/21/2015	21:02:27.582	$GPGGA,210228,2425.8987,N,08130.3451,W,1,9,2.2,16,M,,M,,*53
06/21/2015	21:02:28.562	$GPGGA,210229,2425.8987,N,08130.3450,W,1,9,2.2,16,M,,M,,*53
06/21/2015	21:02:29.562	$GPGGA,210230,2425.8990,N,08130.3450,W,1,9,2.2,16,M,,M,,*5D
06/21/2015	21:02:30.552	$GPGGA,210231,2425.8992,N,08130.3450,W,1,9,2.8,15,M,,M,,*57
06/21/2015	21:02:31.562	$GPGGA,210232,2425.8994,N,08130.3450,W,1,7,3.4,15,M,,M,,*51
06/21/2015	21:02:32.552	$GPGGA,210233,2425.8996,N,08130.3448,W,1,7,3.4,15,M,,M,,*5B
06/21/2015	21:02:33.562	$GPGGA,210234,2425.8997,N,08130.3448,W,1,8,2.5,15,M,,M,,*52
06/21/2015	21:02:34.548	$GPGGA,210235,2425.8998,N,08130.3448,W,1,8,2.1,14,M,,M,,*59
06/21/2015	21:02:35.572	$GPGGA,210236,2425.8998,N,08130.3446,W,1,7,3.4,14,M,,M,,*5F
06/21/2015	21:02:36.562	$GPGGA,210237,2425.9000,N,08130.3441,W,1,7,2.2,14,M,,M,,*57
06/21/2015	21:02:37.532	$GPGGA,210238,2425.9001,N,08130.3441,W,1,10,1.5,14,M,,M,,*6B
06/21/2015	21:02:38.547	$GPGGA,210239,2425.9004,N,08130.3441,W,1,10,2.2,14,M,,M,,*6B
06/21/2015	21:02:39.562	$GPGGA,210240,2425.9003,N,08130.3441,W,1,8,2.2,14,M,,M,,*5B
06/21/2015	21:02:40.523	$GPGGA,210241,2425.9005,N,08130.3441,W,1,8,2.2,14,M,,M,,*5C
06/21/2015	21:02:41.523	$GPGGA,210242,2425.9008,N,08130.3440,W,1,8,2.2,13,M,,M,,*54
06/21/2015	21:02:42.523	$GPGGA,210243,2425.9008,N,08130.3441,W,1,8,2.2,13,M,,M,,*54
06/21/2015	21:02:43.555	$GPGGA,210244,2425.9008,N,08130.3440,W,1,8,2.2,13,M,,M,,*52
06/21/2015	21:02:44.523	$GPGGA,210245,2425.9010,N,08130.3441,W,1,8,2.2,13,M,,M,,*5B
06/21/2015	21:02:45.522	$GPGGA,210246,2425.9011,N,08130.3441,W,1,9,2.1,13,M,,M,,*5B
06/21/2015	21:02:46.522	$GPGGA,210247,2425.9012,N,08130.3441,W,1,9,2.1,13,M,,M,,*59
06/21/2015	21:02:47.563	$GPGGA,210248,2425.9012,N,08130.3435,W,1,8,2.2,13,M,,M,,*57
06/21/2015	21:02:48.532	$GPGGA,210249,2425.9014,N,08130.3437,W,1,8,1.5,13,M,,M,,*56
06/21/2015	21:02:49.513	$GPGGA,210250,2425.9015,N,08130.3436,W,1,10,2.1,13,M,,M,,*60
06/21/2015	21:02:50.632	$GPGGA,210251,2425.9016,N,08130.3433,W,1,10,1.4,13,M,,M,,*61
06/21/2015	21:02:51.562	$GPGGA,210252,2425.9019,N,08130.3430,W,1,11,1.4,13,M,,M,,*6F
06/21/2015	21:02:52.502	$GPGGA,210253,2425.9019,N,08130.3427,W,1,11,1.5,13,M,,M,,*69
06/21/2015	21:02:53.513	$GPGGA,210254,2425.9022,N,08130.3428,W,1,9,1.5,13,M,,M,,*50
06/21/2015	21:02:54.502	$GPGGA,210255,2425.9023,N,08130.3432,W,1,9,2.2,13,M,,M,,*5F
06/21/2015	21:02:55.522	$GPGGA,210256,2425.9023,N,08130.3432,W,1,9,2.1,13,M,,M,,*5F
06/21/2015	21:02:56.502	$GPGGA,210257,2425.9023,N,08130.3433,W,1,9,2.2,13,M,,M,,*5C
06/21/2015	21:02:57.492	$GPGGA,210258,2425.9026,N,08130.3434,W,1,9,2.2,13,M,,M,,*51
06/21/2015	21:02:58.513	$GPGGA,210259,2425.9027,N,08130.3434,W,1,9,2.2,13,M,,M,,*51
06/21/2015	21:02:59.683	$GPGGA,210300,2425.9029,N,08130.3434,W,1,7,1.5,13,M,,M,,*58
06/21/2015	21:03:00.513	$GPGGA,210301,2425.9030,N,08130.3436,W,1,7,1.5,13,M,,M,,*53
06/21/2015	21:03:01.564	$GPGGA,210302,2425.9033,N,08130.3435,W,1,9,2.2,13,M,,M,,*5A
06/21/2015	21:03:02.492	$GPGGA,210303,2425.9034,N,08130.3436,W,1,9,2.2,13,M,,M,,*5F
06/21/2015	21:03:03.492	$GPGGA,210304,2425.9034,N,08130.3432,W,1,9,2.2,12,M,,M,,*5D
06/21/2015	21:03:04.592	$GPGGA,210305,2425.9036,N,08130.3429,W,1,9,1.5,12,M,,M,,*50
06/21/2015	21:03:05.582	$GPGGA,210306,2425.9037,N,08130.3425,W,1,10,1.5,12,M,,M,,*66
06/21/2015	21:03:06.482	$GPGGA,210307,2425.9037,N,08130.3422,W,1,10,1.5,12,M,,M,,*60
06/21/2015	21:03:07.632	$GPGGA,210308,2425.9039,N,08130.3421,W,1,9,1.5,12,M,,M,,*5A
06/21/2015	21:03:08.582	$GPGGA,210309,2425.9040,N,08130.3419,W,1,9,1.5,12,M,,M,,*5E
06/21/2015	21:03:09.582	$GPGGA,210310,2425.9039,N,08130.3418,W,1,10,1.4,12,M,,M,,*60
06/21/2015	21:03:10.572	$GPGGA,210311,2425.9041,N,08130.3416,W,1,10,1.4,12,M,,M,,*60
06/21/2015	21:03:11.662	$GPGGA,210312,2425.9043,N,08130.3415,W,1,11,1.5,12,M,,M,,*62
06/21/2015	21:03:12.582	$GPGGA,210313,2425.9044,N,08130.3414,W,1,11,1.4,13,M,,M,,*65
06/21/2015	21:03:13.592	$GPGGA,210314,2425.9044,N,08130.3412,W,1,11,1.4,13,M,,M,,*64
06/21/2015	21:03:14.562	$GPGGA,210315,2425.9045,N,08130.3411,W,1,11,1.4,13,M,,M,,*67
06/21/2015	21:03:15.613	$GPGGA,210316,2425.9047,N,08130.3410,W,1,11,1.4,13,M,,M,,*67
06/21/2015	21:03:16.563	$GPGGA,210317,2425.9048,N,08130.3409,W,1,11,1.4,13,M,,M,,*61
06/21/2015	21:03:17.583	$GPGGA,210318,2425.9048,N,08130.3410,W,1,11,1.4,13,M,,M,,*66
06/21/2015	21:03:18.563	$GPGGA,210319,2425.9050,N,08130.3408,W,1,11,1.4,13,M,,M,,*67
06/21/2015	21:03:19.583	$GPGGA,210320,2425.9051,N,08130.3408,W,1,11,1.4,14,M,,M,,*6B
06/21/2015	21:03:20.552	$GPGGA,210321,2425.9052,N,08130.3407,W,1,11,1.4,14,M,,M,,*66
06/21/2015	21:03:21.592	$GPGGA,210322,2425.9052,N,08130.3407,W,1,11,1.4,14,M,,M,,*65
06/21/2015	21:03:22.552	$GPGGA,210323,2425.9055,N,08130.3406,W,1,11,1.4,14,M,,M,,*62
06/21/2015	21:03:23.582	$GPGGA,210324,2425.9055,N,08130.3405,W,1,11,1.4,14,M,,M,,*66
06/21/2015	21:03:24.542	$GPGGA,210325,2425.9058,N,08130.3405,W,1,11,1.4,14,M,,M,,*6A
06/21/2015	21:03:25.562	$GPGGA,210326,2425.9059,N,08130.3404,W,1,11,1.4,14,M,,M,,*69
06/21/2015	21:03:26.532	$GPGGA,210327,2425.9061,N,08130.3404,W,1,11,1.4,15,M,,M,,*62
06/21/2015	21:03:27.612	$GPGGA,210328,2425.9062,N,08130.3404,W,1,11,1.4,15,M,,M,,*6E
06/21/2015	21:03:28.532	$GPGGA,210329,2425.9063,N,08130.3404,W,1,11,1.4,15,M,,M,,*6E
06/21/2015	21:03:29.562	$GPGGA,210330,2425.9065,N,08130.3405,W,1,11,1.4,15,M,,M,,*61
06/21/2015	21:03:30.552	$GPGGA,210331,2425.9066,N,08130.3405,W,1,11,1.4,15,M,,M,,*63
06/21/2015	21:03:31.572	$GPGGA,210332,2425.9066,N,08130.3405,W,1,11,1.4,15,M,,M,,*60
06/21/2015	21:03:32.532	$GPGGA,210333,2425.9069,N,08130.3405,W,1,11,1.4,15,M,,M,,*6E
06/21/2015	21:03:33.533	$GPGGA,210334,2425.9070,N,08130.3404,W,1,11,1.5,15,M,,M,,*61
06/21/2015	21:03:34.533	$GPGGA,210335,2425.9073,N,08130.3404,W,1,11,1.5,16,M,,M,,*60
06/21/2015	21:03:35.564	$GPGGA,210336,2425.9073,N,08130.3404,W,1,10,1.5,16,M,,M,,*62
06/21/2015	21:03:36.543	$GPGGA,210337,2425.9076,N,08130.3404,W,1,10,1.5,16,M,,M,,*66
06/21/2015	21:03:37.522	$GPGGA,210338,2425.9077,N,08130.3405,W,1,10,1.5,16,M,,M,,*69
06/21/2015	21:03:38.542	$GPGGA,210339,2425.9080,N,08130.3405,W,1,10,1.5,16,M,,M,,*60
06/21/2015	21:03:39.552	$GPGGA,210340,2425.9081,N,08130.3405,W,1,9,1.5,16,M,,M,,*57
06/21/2015	21:03:40.522	$GPGGA,210341,2425.9083,N,08130.3405,W,1,9,1.5,16,M,,M,,*54
06/21/2015	21:03:41.522	$GPGGA,210342,2425.9084,N,08130.3405,W,1,10,1.5,16,M,,M,,*68
06/21/2015	21:03:42.522	$GPGGA,210343,2425.9086,N,08130.3405,W,1,10,1.5,16,M,,M,,*6B
06/21/2015	21:03:43.532	$GPGGA,210344,2425.9085,N,08130.3407,W,1,9,1.4,16,M,,M,,*54
06/21/2015	21:03:44.502	$GPGGA,210345,2425.9087,N,08130.3407,W,1,9,1.4,16,M,,M,,*57
06/21/2015	21:03:45.532	$GPGGA,210346,2425.9088,N,08130.3407,W,1,11,1.4,16,M,,M,,*62
06/21/2015	21:03:46.522	$GPGGA,210347,2425.9090,N,08130.3407,W,1,11,1.4,16,M,,M,,*6A
06/21/2015	21:03:47.612	$GPGGA,210348,2425.9089,N,08130.3407,W,1,11,1.4,16,M,,M,,*6D
06/21/2015	21:03:48.612	$GPGGA,210349,2425.9091,N,08130.3408,W,1,11,1.5,16,M,,M,,*6B
06/21/2015	21:03:49.512	$GPGGA,210350,2425.9092,N,08130.3410,W,1,10,1.4,16,M,,M,,*69
06/21/2015	21:03:50.603	$GPGGA,210351,2425.9094,N,08130.3409,W,1,10,1.5,16,M,,M,,*67
06/21/2015	21:03:51.643	$GPGGA,210352,2425.9095,N,08130.3410,W,1,10,1.5,16,M,,M,,*6D
06/21/2015	21:03:52.583	$GPGGA,210353,2425.9099,N,08130.3414,W,1,10,2.4,16,M,,M,,*66
06/21/2015	21:03:53.603	$GPGGA,210354,2425.9099,N,08130.3419,W,1,8,1.5,16,M,,M,,*57
06/21/2015	21:03:54.513	$GPGGA,210355,2425.9099,N,08130.3419,W,1,8,1.5,16,M,,M,,*56
06/21/2015	21:03:55.622	$GPGGA,210356,2425.9102,N,08130.3420,W,1,11,1.4,16,M,,M,,*65
06/21/2015	21:03:56.582	$GPGGA,210357,2425.9104,N,08130.3421,W,1,11,1.4,16,M,,M,,*63
06/21/2015	21:03:57.582	$GPGGA,210358,2425.9105,N,08130.3420,W,1,11,1.4,16,M,,M,,*6C
06/21/2015	21:03:58.582	$GPGGA,210359,2425.9106,N,08130.3419,W,1,11,1.4,16,M,,M,,*64
06/21/2015	21:03:59.582	$GPGGA,210400,2425.9108,N,08130.3418,W,1,10,1.5,16,M,,M,,*60
06/21/2015	21:04:00.572	$GPGGA,210401,2425.9107,N,08130.3418,W,1,10,1.5,16,M,,M,,*6E
06/21/2015	21:04:01.602	$GPGGA,210402,2425.9110,N,08130.3423,W,1,10,1.5,16,M,,M,,*63
06/21/2015	21:04:02.572	$GPGGA,210403,2425.9112,N,08130.3426,W,1,10,2.1,16,M,,M,,*62
06/21/2015	21:04:03.572	$GPGGA,210404,2425.9113,N,08130.3425,W,1,10,2.1,16,M,,M,,*67
06/21/2015	21:04:04.562	$GPGGA,210405,2425.9115,N,08130.3424,W,1,10,1.5,16,M,,M,,*66
06/21/2015	21:04:05.562	$GPGGA,210406,2425.9116,N,08130.3425,W,1,9,1.4,16,M,,M,,*5E
06/21/2015	21:04:06.562	$GPGGA,210407,2425.9117,N,08130.3425,W,1,9,1.4,16,M,,M,,*5E
06/21/2015	21:04:07.563	$GPGGA,210408,2425.9117,N,08130.3428,W,1,11,1.4,16,M,,M,,*65
06/21/2015	21:04:08.553	$GPGGA,210409,2425.9120,N,08130.3429,W,1,11,1.4,16,M,,M,,*61
06/21/2015	21:04:09.583	$GPGGA,210410,2425.9122,N,08130.3432,W,1,10,2.1,16,M,,M,,*66
06/21/2015	21:04:10.554	$GPGGA,210411,2425.9123,N,08130.3426,W,1,10,2.1,16,M,,M,,*63
06/21/2015	21:04:11.573	$GPGGA,210412,2425.9124,N,08130.3424,W,1,11,1.4,16,M,,M,,*62
06/21/2015	21:04:12.556	$GPGGA,210413,2425.9124,N,08130.3425,W,1,11,1.4,16,M,,M,,*62
06/21/2015	21:04:13.542	$GPGGA,210414,2425.9127,N,08130.3422,W,1,11,1.4,16,M,,M,,*61
06/21/2015	21:04:14.553	$GPGGA,210415,2425.9128,N,08130.3422,W,1,11,1.5,16,M,,M,,*6E
06/21/2015	21:04:16.545	$GPGGA,210416,2425.9128,N,08130.3420,W,1,10,1.5,16,M,,M,,*6E
06/21/2015	21:04:16.572	$GPGGA,210417,2425.9130,N,08130.3419,W,1,10,1.5,16,M,,M,,*6C
06/21/2015	21:04:17.553	$GPGGA,210418,2425.9131,N,08130.3418,W,1,9,1.5,16,M,,M,,*5B
06/21/2015	21:04:18.542	$GPGGA,210419,2425.9133,N,08130.3417,W,1,9,1.5,16,M,,M,,*57
06/21/2015	21:04:19.562	$GPGGA,210420,2425.9134,N,08130.3416,W,1,9,1.5,16,M,,M,,*5B
06/21/2015	21:04:20.992	$GPGGA,210421,2425.9135,N,08130.3417,W,1,9,1.5,17,M,,M,,*5B
06/21/2015	21:04:21.522	$GPGGA,210422,2425.9137,N,08130.3415,W,1,9,1.5,17,M,,M,,*58
06/21/2015	21:04:22.532	$GPGGA,210423,2425.9138,N,08130.3417,W,1,9,1.5,17,M,,M,,*54
06/21/2015	21:04:23.532	$GPGGA,210424,2425.9138,N,08130.3416,W,1,11,1.4,17,M,,M,,*6A
06/21/2015	21:04:24.522	$GPGGA,210425,2425.9139,N,08130.3417,W,1,11,1.5,17,M,,M,,*6A
06/21/2015	21:04:25.556	$GPGGA,210426,2425.9142,N,08130.3416,W,1,10,1.5,17,M,,M,,*65
06/21/2015	21:04:26.645	$GPGGA,210427,2425.9142,N,08130.3417,W,1,10,1.5,17,M,,M,,*65
06/21/2015	21:04:27.553	$GPGGA,210428,2425.9144,N,08130.3418,W,1,11,1.4,18,M,,M,,*6C
06/21/2015	21:04:28.523	$GPGGA,210429,2425.9143,N,08130.3418,W,1,11,1.4,18,M,,M,,*6A
06/21/2015	21:04:29.533	$GPGGA,210430,2425.9146,N,08130.3419,W,1,11,1.4,18,M,,M,,*66
06/21/2015	21:04:30.502	$GPGGA,210431,2425.9148,N,08130.3419,W,1,11,1.4,18,M,,M,,*69
06/21/2015	21:04:31.622	$GPGGA,210432,2425.9149,N,08130.3421,W,1,11,1.4,18,M,,M,,*60
06/21/2015	21:04:32.512	$GPGGA,210433,2425.9149,N,08130.3421,W,1,11,1.4,18,M,,M,,*61
06/21/2015	21:04:33.612	$GPGGA,210434,2425.9152,N,08130.3422,W,1,11,1.4,18,M,,M,,*6F
06/21/2015	21:04:34.502	$GPGGA,210435,2425.9153,N,08130.3422,W,1,11,1.4,18,M,,M,,*6F
06/21/2015	21:04:35.602	$GPGGA,210436,2425.9153,N,08130.3425,W,1,11,1.4,18,M,,M,,*6B
06/21/2015	21:04:36.512	$GPGGA,210437,2425.9155,N,08130.3425,W,1,11,1.6,18,M,,M,,*6E
06/21/2015	21:04:37.622	$GPGGA,210438,2425.9156,N,08130.3425,W,1,10,1.4,18,M,,M,,*61
06/21/2015	21:04:38.502	$GPGGA,210439,2425.9157,N,08130.3426,W,1,10,1.4,18,M,,M,,*62
06/21/2015	21:04:39.612	$GPGGA,210440,2425.9157,N,08130.3428,W,1,11,1.4,18,M,,M,,*63
06/21/2015	21:04:40.502	$GPGGA,210441,2425.9160,N,08130.3429,W,1,11,1.4,18,M,,M,,*67
06/21/2015	21:04:41.602	$GPGGA,210442,2425.9160,N,08130.3429,W,1,11,1.4,18,M,,M,,*64
06/21/2015	21:04:42.492	$GPGGA,210443,2425.9162,N,08130.3430,W,1,11,1.4,19,M,,M,,*6E
06/21/2015	21:04:43.503	$GPGGA,210444,2425.9164,N,08130.3432,W,1,11,1.4,19,M,,M,,*6D
06/21/2015	21:04:44.573	$GPGGA,210445,2425.9164,N,08130.3432,W,1,11,1.4,19,M,,M,,*6C
06/21/2015	21:04:45.613	$GPGGA,210446,2425.9166,N,08130.3433,W,1,11,1.4,19,M,,M,,*6C
06/21/2015	21:04:46.573	$GPGGA,210447,2425.9167,N,08130.3434,W,1,11,1.4,19,M,,M,,*6B
06/21/2015	21:04:47.612	$GPGGA,210448,2425.9169,N,08130.3436,W,1,11,1.4,18,M,,M,,*69
06/21/2015	21:04:48.582	$GPGGA,210449,2425.9170,N,08130.3436,W,1,11,1.4,18,M,,M,,*60
06/21/2015	21:04:49.592	$GPGGA,210450,2425.9171,N,08130.3436,W,1,11,1.4,18,M,,M,,*69
06/21/2015	21:04:50.572	$GPGGA,210451,2425.9173,N,08130.3436,W,1,11,1.4,18,M,,M,,*6A
06/21/2015	21:04:52.075	$GPGGA,210452,2425.9174,N,08130.3437,W,1,11,1.4,18,M,,M,,*6F
06/21/2015	21:04:52.572	$GPGGA,210453,2425.9175,N,08130.3439,W,1,11,1.4,18,M,,M,,*61
06/21/2015	21:04:53.582	$GPGGA,210454,2425.9178,N,08130.3438,W,1,11,1.4,18,M,,M,,*6A
06/21/2015	21:04:54.562	$GPGGA,210455,2425.9178,N,08130.3439,W,1,11,1.4,18,M,,M,,*6A
06/21/2015	21:04:55.592	$GPGGA,210456,2425.9180,N,08130.3440,W,1,11,1.4,18,M,,M,,*60
06/21/2015	21:04:56.551	$GPGGA,210457,2425.9182,N,08130.3440,W,1,11,1.5,18,M,,M,,*62
06/21/2015	21:04:57.572	$GPGGA,210458,2425.9182,N,08130.3440,W,1,10,1.5,18,M,,M,,*6C
06/21/2015	21:04:58.542	$GPGGA,210459,2425.9184,N,08130.3441,W,1,10,1.5,18,M,,M,,*6A
06/21/2015	21:04:59.582	$GPGGA,210500,2425.9185,N,08130.3443,W,1,10,1.5,18,M,,M,,*64
06/21/2015	21:05:00.555	$GPGGA,210501,2425.9186,N,08130.3442,W,1,10,1.5,18,M,,M,,*67
06/21/2015	21:05:01.563	$GPGGA,210502,2425.9189,N,08130.3444,W,1,9,1.6,18,M,,M,,*56
06/21/2015	21:05:02.545	$GPGGA,210503,2425.9192,N,08130.3447,W,1,9,1.5,18,M,,M,,*5D
06/21/2015	21:05:03.573	$GPGGA,210504,2425.9193,N,08130.3450,W,1,10,1.5,18,M,,M,,*65
06/21/2015	21:05:04.542	$GPGGA,210505,2425.9196,N,08130.3450,W,1,10,1.5,18,M,,M,,*61
06/21/2015	21:05:05.532	$GPGGA,210506,2425.9198,N,08130.3454,W,1,10,1.5,18,M,,M,,*68
06/21/2015	21:05:06.545	$GPGGA,210507,2425.9199,N,08130.3455,W,1,10,1.5,18,M,,M,,*69
06/21/2015	21:05:07.562	$GPGGA,210508,2425.9200,N,08130.3457,W,1,11,1.4,18,M,,M,,*67
06/21/2015	21:05:08.522	$GPGGA,210509,2425.9203,N,08130.3458,W,1,11,1.4,18,M,,M,,*6A
06/21/2015	21:05:09.542	$GPGGA,210510,2425.9204,N,08130.3461,W,1,11,1.4,18,M,,M,,*6F
06/21/2015	21:05:10.532	$GPGGA,210511,2425.9207,N,08130.3461,W,1,11,1.4,18,M,,M,,*6D
06/21/2015	21:05:11.533	$GPGGA,210512,2425.9209,N,08130.3461,W,1,11,1.4,18,M,,M,,*60
06/21/2015	21:05:12.512	$GPGGA,210513,2425.9210,N,08130.3462,W,1,11,1.4,18,M,,M,,*6A
06/21/2015	21:05:13.536	$GPGGA,210514,2425.9211,N,08130.3464,W,1,11,1.4,18,M,,M,,*6A
06/21/2015	21:05:14.622	$GPGGA,210515,2425.9213,N,08130.3463,W,1,11,1.4,18,M,,M,,*6E
06/21/2015	21:05:15.548	$GPGGA,210516,2425.9214,N,08130.3464,W,1,11,1.4,18,M,,M,,*6D
06/21/2015	21:05:16.503	$GPGGA,210517,2425.9216,N,08130.3465,W,1,11,1.4,18,M,,M,,*6F
06/21/2015	21:05:17.622	$GPGGA,210518,2425.9218,N,08130.3465,W,1,11,1.4,18,M,,M,,*6E
06/21/2015	21:05:18.502	$GPGGA,210519,2425.9218,N,08130.3464,W,1,11,1.4,18,M,,M,,*6E
06/21/2015	21:05:19.622	$GPGGA,210520,2425.9221,N,08130.3465,W,1,10,1.5,18,M,,M,,*6F
06/21/2015	21:05:20.502	$GPGGA,210521,2425.9221,N,08130.3463,W,1,10,1.5,18,M,,M,,*68
06/21/2015	21:05:21.512	$GPGGA,210522,2425.9224,N,08130.3468,W,1,10,1.5,18,M,,M,,*65
06/21/2015	21:05:22.511	$GPGGA,210523,2425.9225,N,08130.3469,W,1,10,1.4,18,M,,M,,*65
06/21/2015	21:05:23.601	$GPGGA,210524,2425.9228,N,08130.3469,W,1,10,1.4,18,M,,M,,*6F
06/21/2015	21:05:24.501	$GPGGA,210525,2425.9229,N,08130.3470,W,1,10,1.4,18,M,,M,,*67
06/21/2015	21:05:25.581	$GPGGA,210526,2425.9232,N,08130.3472,W,1,11,1.4,18,M,,M,,*6D
06/21/2015	21:05:26.491	$GPGGA,210527,2425.9234,N,08130.3473,W,1,11,1.4,18,M,,M,,*6B
06/21/2015	21:05:27.501	$GPGGA,210528,2425.9236,N,08130.3475,W,1,11,1.4,18,M,,M,,*60
06/21/2015	21:05:28.572	$GPGGA,210529,2425.9238,N,08130.3475,W,1,11,1.4,17,M,,M,,*60
06/21/2015	21:05:29.582	$GPGGA,210530,2425.9239,N,08130.3476,W,1,11,1.4,17,M,,M,,*6A
06/21/2015	21:05:30.482	$GPGGA,210531,2425.9240,N,08130.3477,W,1,11,1.4,17,M,,M,,*64
06/21/2015	21:05:31.602	$GPGGA,210532,2425.9243,N,08130.3477,W,1,11,1.4,17,M,,M,,*64
06/21/2015	21:05:32.892	$GPGGA,210533,2425.9245,N,08130.3479,W,1,11,1.4,17,M,,M,,*6D
06/21/2015	21:05:33.592	$GPGGA,210534,2425.9246,N,08130.3480,W,1,11,1.4,17,M,,M,,*6F
06/21/2015	21:05:34.572	$GPGGA,210535,2425.9249,N,08130.3480,W,1,11,1.4,17,M,,M,,*61
06/21/2015	21:05:35.572	$GPGGA,210536,2425.9250,N,08130.3480,W,1,11,1.4,17,M,,M,,*6A
06/21/2015	21:05:36.572	$GPGGA,210537,2425.9251,N,08130.3482,W,1,11,1.4,17,M,,M,,*68
06/21/2015	21:05:37.582	$GPGGA,210538,2425.9254,N,08130.3483,W,1,11,1.4,17,M,,M,,*63
06/21/2015	21:05:38.552	$GPGGA,210539,2425.9256,N,08130.3482,W,1,11,1.4,17,M,,M,,*61
06/21/2015	21:05:39.581	$GPGGA,210540,2425.9258,N,08130.3483,W,1,11,1.4,17,M,,M,,*60
06/21/2015	21:05:40.571	$GPGGA,210541,2425.9258,N,08130.3484,W,1,11,1.4,17,M,,M,,*66
06/21/2015	21:05:41.561	$GPGGA,210542,2425.9261,N,08130.3484,W,1,11,1.4,17,M,,M,,*6F
06/21/2015	21:05:42.561	$GPGGA,210543,2425.9263,N,08130.3484,W,1,11,1.4,17,M,,M,,*6C
06/21/2015	21:05:43.561	$GPGGA,210544,2425.9265,N,08130.3486,W,1,11,1.4,17,M,,M,,*6F
06/21/2015	21:05:44.542	$GPGGA,210545,2425.9267,N,08130.3486,W,1,11,1.4,17,M,,M,,*6C
06/21/2015	21:05:45.562	$GPGGA,210546,2425.9268,N,08130.3487,W,1,11,1.4,17,M,,M,,*61
06/21/2015	21:05:46.545	$GPGGA,210547,2425.9271,N,08130.3488,W,1,11,1.4,17,M,,M,,*67
06/21/2015	21:05:47.572	$GPGGA,210548,2425.9272,N,08130.3488,W,1,11,1.4,17,M,,M,,*6B
06/21/2015	21:05:49.562	$GPGGA,210549,2425.9275,N,08130.3490,W,1,11,1.4,17,M,,M,,*64
06/21/2015	21:05:49.592	$GPGGA,210550,2425.9276,N,08130.3489,W,1,11,1.4,17,M,,M,,*67
06/21/2015	21:05:50.533	$GPGGA,210551,2425.9279,N,08130.3490,W,1,11,1.4,17,M,,M,,*61
06/21/2015	21:05:51.572	$GPGGA,210552,2425.9282,N,08130.3491,W,1,11,1.4,17,M,,M,,*67
06/21/2015	21:05:52.543	$GPGGA,210553,2425.9283,N,08130.3493,W,1,11,1.4,17,M,,M,,*65
06/21/2015	21:05:53.522	$GPGGA,210554,2425.9285,N,08130.3492,W,1,11,1.4,17,M,,M,,*65
06/21/2015	21:05:54.522	$GPGGA,210555,2425.9286,N,08130.3493,W,1,11,1.4,17,M,,M,,*66
06/21/2015	21:05:55.533	$GPGGA,210556,2425.9289,N,08130.3493,W,1,11,1.4,17,M,,M,,*6A
06/21/2015	21:05:56.535	$GPGGA,210557,2425.9290,N,08130.3494,W,1,11,1.4,17,M,,M,,*64
06/21/2015	21:05:57.521	$GPGGA,210558,2425.9293,N,08130.3495,W,1,10,1.5,17,M,,M,,*69
06/21/2015	21:05:58.521	$GPGGA,210559,2425.9294,N,08130.3495,W,1,10,1.4,17,M,,M,,*6E
06/21/2015	21:05:59.561	$GPGGA,210600,2425.9297,N,08130.3497,W,1,11,1.4,17,M,,M,,*61
06/21/2015	21:06:00.532	$GPGGA,210601,2425.9299,N,08130.3496,W,1,11,1.4,17,M,,M,,*6F
06/21/2015	21:06:01.541	$GPGGA,210602,2425.9301,N,08130.3497,W,1,11,1.4,17,M,,M,,*6D
06/21/2015	21:06:02.521	$GPGGA,210603,2425.9301,N,08130.3498,W,1,11,1.7,17,M,,M,,*60
06/21/2015	21:06:03.542	$GPGGA,210604,2425.9304,N,08130.3498,W,1,9,1.6,17,M,,M,,*5A
06/21/2015	21:06:04.652	$GPGGA,210605,2425.9305,N,08130.3499,W,1,9,1.5,17,M,,M,,*58
06/21/2015	21:06:05.522	$GPGGA,210606,2425.9307,N,08130.3502,W,1,11,1.4,17,M,,M,,*62
06/21/2015	21:06:06.602	$GPGGA,210607,2425.9310,N,08130.3504,W,1,11,1.4,17,M,,M,,*63
06/21/2015	21:06:07.522	$GPGGA,210608,2425.9311,N,08130.3504,W,1,11,1.4,17,M,,M,,*6D
06/21/2015	21:06:08.512	$GPGGA,210609,2425.9312,N,08130.3504,W,1,11,1.5,17,M,,M,,*6E
06/21/2015	21:06:09.492	$GPGGA,210610,2425.9315,N,08130.3505,W,1,10,1.5,17,M,,M,,*61
06/21/2015	21:06:10.512	$GPGGA,210611,2425.9316,N,08130.3505,W,1,10,1.5,17,M,,M,,*63
06/21/2015	21:06:11.692	$GPGGA,210612,2425.9319,N,08130.3506,W,1,10,1.5,17,M,,M,,*6C
06/21/2015	21:06:12.582	$GPGGA,210613,2425.9321,N,08130.3505,W,1,10,1.5,17,M,,M,,*65
06/21/2015	21:06:13.482	$GPGGA,210614,2425.9323,N,08130.3506,W,1,10,1.5,17,M,,M,,*63
06/21/2015	21:06:14.501	$GPGGA,210615,2425.9325,N,08130.3508,W,1,10,1.5,17,M,,M,,*6A
06/21/2015	21:06:15.591	$GPGGA,210616,2425.9326,N,08130.3508,W,1,11,1.4,18,M,,M,,*65
06/21/2015	21:06:16.642	$GPGGA,210617,2425.9330,N,08130.3509,W,1,11,1.4,18,M,,M,,*62
06/21/2015	21:06:17.491	$GPGGA,210618,2425.9332,N,08130.3511,W,1,11,1.4,18,M,,M,,*66
06/21/2015	21:06:18.571	$GPGGA,210619,2425.9334,N,08130.3512,W,1,11,1.4,18,M,,M,,*62
06/21/2015	21:06:19.491	$GPGGA,210620,2425.9337,N,08130.3512,W,1,11,1.4,18,M,,M,,*6B
06/21/2015	21:06:20.602	$GPGGA,210621,2425.9340,N,08130.3512,W,1,11,1.4,18,M,,M,,*6A
06/21/2015	21:06:21.692	$GPGGA,210622,2425.9343,N,08130.3513,W,1,11,1.4,18,M,,M,,*6B
06/21/2015	21:06:22.622	$GPGGA,210623,2425.9346,N,08130.3513,W,1,11,1.4,18,M,,M,,*6F
06/21/2015	21:06:23.682	$GPGGA,210624,2425.9348,N,08130.3515,W,1,11,1.4,18,M,,M,,*60
06/21/2015	21:06:24.562	$GPGGA,210625,2425.9351,N,08130.3514,W,1,11,1.4,18,M,,M,,*68
06/21/2015	21:06:25.662	$GPGGA,210626,2425.9354,N,08130.3515,W,1,11,1.4,18,M,,M,,*6F
06/21/2015	21:06:26.622	$GPGGA,210627,2425.9355,N,08130.3515,W,1,11,1.4,18,M,,M,,*6F
06/21/2015	21:06:27.672	$GPGGA,210628,2425.9359,N,08130.3519,W,1,11,1.4,18,M,,M,,*60
06/21/2015	21:06:28.592	$GPGGA,210629,2425.9362,N,08130.3520,W,1,11,2.1,18,M,,M,,*65
06/21/2015	21:06:29.662	$GPGGA,210630,2425.9363,N,08130.3523,W,1,10,2.1,18,M,,M,,*6E
06/21/2015	21:06:30.582	$GPGGA,210631,2425.9366,N,08130.3526,W,1,10,2.1,18,M,,M,,*6F
06/21/2015	21:06:31.672	$GPGGA,210632,2425.9370,N,08130.3527,W,1,10,2.1,17,M,,M,,*65
06/21/2015	21:06:32.591	$GPGGA,210633,2425.9373,N,08130.3530,W,1,10,2.1,17,M,,M,,*61
06/21/2015	21:06:33.651	$GPGGA,210634,2425.9375,N,08130.3531,W,1,10,2.1,17,M,,M,,*61
06/21/2015	21:06:34.571	$GPGGA,210635,2425.9377,N,08130.3533,W,1,10,2.1,17,M,,M,,*60
06/21/2015	21:06:35.661	$GPGGA,210636,2425.9380,N,08130.3533,W,1,10,2.1,17,M,,M,,*6B
06/21/2015	21:06:36.571	$GPGGA,210637,2425.9384,N,08130.3534,W,1,10,2.1,17,M,,M,,*69
06/21/2015	21:06:37.925	$GPGGA,210638,2425.9386,N,08130.3535,W,1,10,2.1,16,M,,M,,*64
06/21/2015	21:06:38.562	$GPGGA,210639,2425.9388,N,08130.3537,W,1,10,2.1,16,M,,M,,*69
06/21/2015	21:06:39.662	$GPGGA,210640,2425.9391,N,08130.3537,W,1,10,2.1,16,M,,M,,*6F
06/21/2015	21:06:40.562	$GPGGA,210641,2425.9394,N,08130.3538,W,1,10,2.1,16,M,,M,,*64
06/21/2015	21:06:41.632	$GPGGA,210642,2425.9395,N,08130.3538,W,1,10,2.1,15,M,,M,,*65
06/21/2015	21:06:42.552	$GPGGA,210643,2425.9398,N,08130.3541,W,1,10,2.4,15,M,,M,,*62
06/21/2015	21:06:43.644	$GPGGA,210644,2425.9402,N,08130.3542,W,1,9,2.4,15,M,,M,,*5A
06/21/2015	21:06:44.552	$GPGGA,210645,2425.9406,N,08130.3542,W,1,9,2.1,15,M,,M,,*5A
06/21/2015	21:06:45.612	$GPGGA,210646,2425.9408,N,08130.3544,W,1,10,2.1,14,M,,M,,*68
06/21/2015	21:06:46.552	$GPGGA,210647,2425.9411,N,08130.3543,W,1,10,2.1,14,M,,M,,*66
06/21/2015	21:06:47.652	$GPGGA,210648,2425.9413,N,08130.3544,W,1,10,2.1,14,M,,M,,*6C
06/21/2015	21:06:48.522	$GPGGA,210649,2425.9416,N,08130.3545,W,1,10,2.1,14,M,,M,,*69
06/21/2015	21:06:49.633	$GPGGA,210650,2425.9419,N,08130.3544,W,1,10,2.1,14,M,,M,,*6F
06/21/2015	21:06:50.551	$GPGGA,210651,2425.9420,N,08130.3545,W,1,10,2.1,13,M,,M,,*62
06/21/2015	21:06:51.661	$GPGGA,210652,2425.9424,N,08130.3545,W,1,10,2.4,13,M,,M,,*60
06/21/2015	21:06:52.561	$GPGGA,210653,2425.9427,N,08130.3545,W,1,10,2.4,13,M,,M,,*62
06/21/2015	21:06:53.621	$GPGGA,210654,2425.9430,N,08130.3546,W,1,9,2.4,13,M,,M,,*58
06/21/2015	21:06:54.501	$GPGGA,210655,2425.9431,N,08130.3546,W,1,9,2.4,13,M,,M,,*58
06/21/2015	21:06:55.592	$GPGGA,210656,2425.9435,N,08130.3546,W,1,9,2.4,12,M,,M,,*5E
06/21/2015	21:06:56.492	$GPGGA,210657,2425.9438,N,08130.3546,W,1,9,2.4,12,M,,M,,*52
06/21/2015	21:06:57.622	$GPGGA,210658,2425.9441,N,08130.3546,W,1,9,2.4,12,M,,M,,*53
06/21/2015	21:06:58.532	$GPGGA,210659,2425.9442,N,08130.3548,W,1,9,2.4,12,M,,M,,*5F
06/21/2015	21:06:59.622	$GPGGA,210700,2425.9445,N,08130.3547,W,1,9,2.4,11,M,,M,,*59
06/21/2015	21:07:00.551	$GPGGA,210701,2425.9449,N,08130.3548,W,1,9,2.4,11,M,,M,,*5B
06/21/2015	21:07:01.622	$GPGGA,210702,2425.9452,N,08130.3548,W,1,9,2.4,11,M,,M,,*52
06/21/2015	21:07:02.602	$GPGGA,210703,2425.9453,N,08130.3549,W,1,9,2.4,11,M,,M,,*53
06/21/2015	21:07:03.636	$GPGGA,210704,2425.9456,N,08130.3548,W,1,9,2.4,11,M,,M,,*50
06/21/2015	21:07:04.522	$GPGGA,210705,2425.9459,N,08130.3549,W,1,9,2.4,10,M,,M,,*5E
06/21/2015	21:07:05.582	$GPGGA,210706,2425.9460,N,08130.3549,W,1,9,2.4,10,M,,M,,*57
06/21/2015	21:07:06.522	$GPGGA,210707,2425.9464,N,08130.3547,W,1,9,2.4,10,M,,M,,*5C
06/21/2015	21:07:07.611	$GPGGA,210708,2425.9467,N,08130.3548,W,1,9,2.4,10,M,,M,,*5F
06/21/2015	21:07:08.571	$GPGGA,210709,2425.9467,N,08130.3549,W,1,9,2.4,10,M,,M,,*5F
06/21/2015	21:07:09.611	$GPGGA,210710,2425.9471,N,08130.3548,W,1,9,2.4,10,M,,M,,*51
06/21/2015	21:07:10.561	$GPGGA,210711,2425.9474,N,08130.3547,W,1,9,2.4,9,M,,M,,*62
06/21/2015	21:07:11.591	$GPGGA,210712,2425.9475,N,08130.3548,W,1,9,2.4,9,M,,M,,*6F
06/21/2015	21:07:12.571	$GPGGA,210713,2425.9478,N,08130.3548,W,1,9,2.4,9,M,,M,,*63
06/21/2015	21:07:13.592	$GPGGA,210714,2425.9481,N,08130.3547,W,1,9,2.4,9,M,,M,,*6D
06/21/2015	21:07:14.562	$GPGGA,210715,2425.9484,N,08130.3548,W,1,9,2.4,9,M,,M,,*66
06/21/2015	21:07:15.612	$GPGGA,210716,2425.9485,N,08130.3546,W,1,9,2.4,9,M,,M,,*6A
06/21/2015	21:07:16.552	$GPGGA,210717,2425.9489,N,08130.3546,W,1,9,2.4,9,M,,M,,*67
06/21/2015	21:07:17.622	$GPGGA,210718,2425.9491,N,08130.3545,W,1,9,2.4,9,M,,M,,*62
06/21/2015	21:07:18.543	$GPGGA,210719,2425.9493,N,08130.3545,W,1,9,2.4,9,M,,M,,*61
06/21/2015	21:07:19.582	$GPGGA,210720,2425.9496,N,08130.3546,W,1,9,2.4,8,M,,M,,*6C
06/21/2015	21:07:20.552	$GPGGA,210721,2425.9498,N,08130.3545,W,1,9,2.7,8,M,,M,,*63
06/21/2015	21:07:21.635	$GPGGA,210722,2425.9502,N,08130.3548,W,1,8,2.4,8,M,,M,,*6D
06/21/2015	21:07:22.545	$GPGGA,210723,2425.9505,N,08130.3547,W,1,8,2.4,8,M,,M,,*64
06/21/2015	21:07:23.602	$GPGGA,210724,2425.9505,N,08130.3547,W,1,9,2.4,8,M,,M,,*62
06/21/2015	21:07:24.542	$GPGGA,210725,2425.9510,N,08130.3548,W,1,9,2.4,8,M,,M,,*68
06/21/2015	21:07:25.571	$GPGGA,210726,2425.9511,N,08130.3547,W,1,9,2.4,8,M,,M,,*65
06/21/2015	21:07:26.544	$GPGGA,210727,2425.9514,N,08130.3546,W,1,9,2.7,8,M,,M,,*63
06/21/2015	21:07:27.642	$GPGGA,210728,2425.9517,N,08130.3545,W,1,8,2.7,8,M,,M,,*6D
06/21/2015	21:07:28.521	$GPGGA,210729,2425.9518,N,08130.3545,W,1,8,2.4,8,M,,M,,*60
06/21/2015	21:07:29.611	$GPGGA,210730,2425.9521,N,08130.3546,W,1,9,2.4,8,M,,M,,*60
06/21/2015	21:07:30.552	$GPGGA,210731,2425.9524,N,08130.3546,W,1,9,2.4,7,M,,M,,*6B
06/21/2015	21:07:31.646	$GPGGA,210732,2425.9527,N,08130.3546,W,1,9,2.4,7,M,,M,,*6B
06/21/2015	21:07:32.533	$GPGGA,210733,2425.9529,N,08130.3548,W,1,9,2.4,7,M,,M,,*6A
06/21/2015	21:07:33.562	$GPGGA,210734,2425.9532,N,08130.3548,W,1,9,2.4,7,M,,M,,*67
06/21/2015	21:07:34.522	$GPGGA,210735,2425.9535,N,08130.3547,W,1,9,2.4,7,M,,M,,*6E
06/21/2015	21:07:35.582	$GPGGA,210736,2425.9538,N,08130.3546,W,1,9,2.7,7,M,,M,,*62
06/21/2015	21:07:36.522	$GPGGA,210737,2425.9539,N,08130.3548,W,1,9,2.4,7,M,,M,,*6F
06/21/2015	21:07:37.536	$GPGGA,210738,2425.9539,N,08130.3548,W,1,9,2.4,7,M,,M,,*60
06/21/2015	21:07:38.522	$GPGGA,210739,2425.9543,N,08130.3548,W,1,9,2.4,7,M,,M,,*6C
06/21/2015	21:07:39.553	$GPGGA,210740,2425.9545,N,08130.3546,W,1,9,2.4,7,M,,M,,*6A
06/21/2015	21:07:40.512	$GPGGA,210741,2425.9545,N,08130.3546,W,1,9,2.4,7,M,,M,,*6B
06/21/2015	21:07:41.552	$GPGGA,210742,2425.9550,N,08130.3546,W,1,9,2.4,7,M,,M,,*6C
06/21/2015	21:07:42.521	$GPGGA,210743,2425.9552,N,08130.3545,W,1,9,2.4,7,M,,M,,*6C
06/21/2015	21:07:43.581	$GPGGA,210744,2425.9554,N,08130.3544,W,1,9,2.4,7,M,,M,,*6C
06/21/2015	21:07:44.501	$GPGGA,210745,2425.9557,N,08130.3544,W,1,9,2.4,7,M,,M,,*6E
06/21/2015	21:07:45.581	$GPGGA,210746,2425.9560,N,08130.3544,W,1,8,2.7,7,M,,M,,*6B
06/21/2015	21:07:46.581	$GPGGA,210747,2425.9561,N,08130.3542,W,1,8,2.7,7,M,,M,,*6D
06/21/2015	21:07:47.631	$GPGGA,210748,2425.9564,N,08130.3542,W,1,9,2.4,7,M,,M,,*65
06/21/2015	21:07:48.502	$GPGGA,210749,2425.9565,N,08130.3542,W,1,9,2.4,7,M,,M,,*65
06/21/2015	21:07:49.635	$GPGGA,210750,2425.9568,N,08130.3541,W,1,9,2.4,7,M,,M,,*63
06/21/2015	21:07:50.502	$GPGGA,210751,2425.9570,N,08130.3540,W,1,9,2.4,8,M,,M,,*65
06/21/2015	21:07:51.492	$GPGGA,210752,2425.9570,N,08130.3540,W,1,9,2.4,8,M,,M,,*66
06/21/2015	21:07:52.482	$GPGGA,210753,2425.9574,N,08130.3538,W,1,9,2.4,8,M,,M,,*6C
06/21/2015	21:07:53.512	$GPGGA,210754,2425.9574,N,08130.3538,W,1,9,2.4,8,M,,M,,*6B
06/21/2015	21:07:54.572	$GPGGA,210755,2425.9579,N,08130.3537,W,1,9,2.4,8,M,,M,,*68
06/21/2015	21:07:55.647	$GPGGA,210756,2425.9579,N,08130.3537,W,1,9,2.4,8,M,,M,,*6B
06/21/2015	21:07:56.502	$GPGGA,210757,2425.9581,N,08130.3536,W,1,9,2.4,8,M,,M,,*6C
06/21/2015	21:07:57.572	$GPGGA,210758,2425.9585,N,08130.3533,W,1,9,2.4,8,M,,M,,*62
06/21/2015	21:07:58.562	$GPGGA,210759,2425.9587,N,08130.3533,W,1,9,2.4,9,M,,M,,*60
06/21/2015	21:07:59.652	$GPGGA,210800,2425.9590,N,08130.3533,W,1,9,2.4,9,M,,M,,*65
06/21/2015	21:08:00.571	$GPGGA,210801,2425.9593,N,08130.3531,W,1,9,2.4,9,M,,M,,*65
06/21/2015	21:08:01.601	$GPGGA,210802,2425.9594,N,08130.3530,W,1,9,2.4,9,M,,M,,*60
06/21/2015	21:08:02.561	$GPGGA,210803,2425.9597,N,08130.3530,W,1,9,2.4,9,M,,M,,*62
06/21/2015	21:08:03.591	$GPGGA,210804,2425.9599,N,08130.3529,W,1,9,2.4,9,M,,M,,*63
06/21/2015	21:08:04.561	$GPGGA,210805,2425.9601,N,08130.3528,W,1,9,2.4,9,M,,M,,*61
06/21/2015	21:08:05.552	$GPGGA,210806,2425.9604,N,08130.3529,W,1,9,2.4,9,M,,M,,*66
06/21/2015	21:08:06.562	$GPGGA,210807,2425.9605,N,08130.3526,W,1,9,2.4,9,M,,M,,*69
06/21/2015	21:08:07.582	$GPGGA,210808,2425.9608,N,08130.3525,W,1,9,2.4,9,M,,M,,*68
06/21/2015	21:08:08.544	$GPGGA,210809,2425.9610,N,08130.3526,W,1,9,2.4,9,M,,M,,*63
06/21/2015	21:08:09.562	$GPGGA,210810,2425.9612,N,08130.3524,W,1,9,2.4,9,M,,M,,*6B
06/21/2015	21:08:10.543	$GPGGA,210811,2425.9614,N,08130.3523,W,1,9,2.4,9,M,,M,,*6B
06/21/2015	21:08:11.592	$GPGGA,210812,2425.9615,N,08130.3522,W,1,9,2.4,9,M,,M,,*68
06/21/2015	21:08:12.562	$GPGGA,210813,2425.9619,N,08130.3522,W,1,9,2.4,9,M,,M,,*65
06/21/2015	21:08:13.562	$GPGGA,210814,2425.9621,N,08130.3522,W,1,9,2.4,9,M,,M,,*69
06/21/2015	21:08:14.547	$GPGGA,210815,2425.9622,N,08130.3520,W,1,9,2.4,9,M,,M,,*69
06/21/2015	21:08:15.572	$GPGGA,210816,2425.9625,N,08130.3520,W,1,9,2.4,9,M,,M,,*6D
06/21/2015	21:08:16.544	$GPGGA,210817,2425.9628,N,08130.3520,W,1,9,2.4,9,M,,M,,*61
06/21/2015	21:08:17.561	$GPGGA,210818,2425.9630,N,08130.3519,W,1,9,2.4,9,M,,M,,*6D
06/21/2015	21:08:18.543	$GPGGA,210819,2425.9632,N,08130.3518,W,1,9,2.4,9,M,,M,,*6F
06/21/2015	21:08:19.561	$GPGGA,210820,2425.9635,N,08130.3517,W,1,9,2.4,9,M,,M,,*6D
06/21/2015	21:08:20.542	$GPGGA,210821,2425.9636,N,08130.3517,W,1,9,2.4,9,M,,M,,*6F
06/21/2015	21:08:21.521	$GPGGA,210822,2425.9639,N,08130.3516,W,1,9,2.4,9,M,,M,,*62
06/21/2015	21:08:22.533	$GPGGA,210823,2425.9641,N,08130.3515,W,1,9,2.3,9,M,,M,,*68
06/21/2015	21:08:23.562	$GPGGA,210824,2425.9643,N,08130.3514,W,1,9,2.3,9,M,,M,,*6C
06/21/2015	21:08:24.544	$GPGGA,210825,2425.9646,N,08130.3515,W,1,9,2.3,9,M,,M,,*69
06/21/2015	21:08:25.552	$GPGGA,210826,2425.9648,N,08130.3513,W,1,9,2.3,9,M,,M,,*62
06/21/2015	21:08:26.522	$GPGGA,210827,2425.9650,N,08130.3512,W,1,9,2.3,9,M,,M,,*6B
06/21/2015	21:08:27.543	$GPGGA,210828,2425.9652,N,08130.3512,W,1,9,2.3,9,M,,M,,*66
06/21/2015	21:08:28.522	$GPGGA,210829,2425.9655,N,08130.3511,W,1,9,2.3,9,M,,M,,*63
06/21/2015	21:08:29.502	$GPGGA,210830,2425.9657,N,08130.3510,W,1,9,2.3,9,M,,M,,*68
06/21/2015	21:08:30.612	$GPGGA,210831,2425.9659,N,08130.3511,W,1,9,2.3,9,M,,M,,*66
06/21/2015	21:08:31.633	$GPGGA,210832,2425.9661,N,08130.3509,W,1,9,2.3,9,M,,M,,*67
06/21/2015	21:08:32.492	$GPGGA,210833,2425.9664,N,08130.3508,W,1,9,2.3,9,M,,M,,*62
06/21/2015	21:08:33.512	$GPGGA,210834,2425.9666,N,08130.3509,W,1,9,2.3,9,M,,M,,*66
06/21/2015	21:08:34.491	$GPGGA,210835,2425.9668,N,08130.3508,W,1,9,2.3,9,M,,M,,*68
06/21/2015	21:08:35.549	$GPGGA,210836,2425.9670,N,08130.3507,W,1,9,2.3,9,M,,M,,*6D
06/21/2015	21:08:36.491	$GPGGA,210837,2425.9673,N,08130.3508,W,1,9,2.3,9,M,,M,,*60
06/21/2015	21:08:37.511	$GPGGA,210838,2425.9675,N,08130.3507,W,1,9,2.3,9,M,,M,,*66
06/21/2015	21:08:38.591	$GPGGA,210839,2425.9677,N,08130.3506,W,1,9,2.3,9,M,,M,,*64
06/21/2015	21:08:39.621	$GPGGA,210840,2425.9679,N,08130.3505,W,1,9,2.3,9,M,,M,,*67
06/21/2015	21:08:40.492	$GPGGA,210841,2425.9680,N,08130.3505,W,1,9,2.3,9,M,,M,,*60
06/21/2015	21:08:41.482	$GPGGA,210842,2425.9682,N,08130.3505,W,1,9,2.3,9,M,,M,,*61
06/21/2015	21:08:42.582	$GPGGA,210843,2425.9684,N,08130.3505,W,1,9,2.3,9,M,,M,,*66
06/21/2015	21:08:43.492	$GPGGA,210844,2425.9684,N,08130.3505,W,1,9,2.3,8,M,,M,,*60
06/21/2015	21:08:44.562	$GPGGA,210845,2425.9686,N,08130.3504,W,1,9,2.3,8,M,,M,,*62
06/21/2015	21:08:45.522	$GPGGA,210846,2425.9687,N,08130.3504,W,1,9,2.3,8,M,,M,,*60
06/21/2015	21:08:46.572	$GPGGA,210847,2425.9688,N,08130.3504,W,1,9,2.3,8,M,,M,,*6E
06/21/2015	21:08:47.482	$GPGGA,210848,2425.9690,N,08130.3504,W,1,9,2.3,8,M,,M,,*68
06/21/2015	21:08:48.562	$GPGGA,210849,2425.9689,N,08130.3503,W,1,9,2.3,8,M,,M,,*66
06/21/2015	21:08:49.562	$GPGGA,210850,2425.9691,N,08130.3504,W,1,9,2.3,8,M,,M,,*60
06/21/2015	21:08:50.472	$GPGGA,210851,2425.9691,N,08130.3503,W,1,9,2.3,8,M,,M,,*66
06/21/2015	21:08:51.612	$GPGGA,210852,2425.9694,N,08130.3504,W,1,8,2.5,8,M,,M,,*60
06/21/2015	21:08:52.561	$GPGGA,210853,2425.9695,N,08130.3502,W,1,8,2.3,8,M,,M,,*60
06/21/2015	21:08:53.571	$GPGGA,210854,2425.9697,N,08130.3502,W,1,9,2.3,8,M,,M,,*64
06/21/2015	21:08:54.561	$GPGGA,210855,2425.9698,N,08130.3502,W,1,9,2.5,8,M,,M,,*6C
06/21/2015	21:08:55.611	$GPGGA,210856,2425.9698,N,08130.3502,W,1,9,2.3,8,M,,M,,*69
06/21/2015	21:08:56.551	$GPGGA,210857,2425.9698,N,08130.3501,W,1,9,2.3,8,M,,M,,*6B
06/21/2015	21:08:57.561	$GPGGA,210858,2425.9699,N,08130.3501,W,1,9,2.3,8,M,,M,,*65
06/21/2015	21:08:58.542	$GPGGA,210859,2425.9699,N,08130.3501,W,1,9,2.3,9,M,,M,,*65
06/21/2015	21:09:00.572	$GPGGA,210901,2425.9702,N,08130.3501,W,1,9,2.3,9,M,,M,,*6A
06/21/2015	21:09:01.572	$GPGGA,210902,2425.9702,N,08130.3499,W,1,9,2.3,9,M,,M,,*69
06/21/2015	21:09:02.546	$GPGGA,210903,2425.9702,N,08130.3498,W,1,9,2.3,9,M,,M,,*69
06/21/2015	21:09:03.572	$GPGGA,210904,2425.9702,N,08130.3498,W,1,9,2.3,9,M,,M,,*6E
06/21/2015	21:09:04.522	$GPGGA,210905,2425.9704,N,08130.3498,W,1,9,2.5,9,M,,M,,*6F
06/21/2015	21:09:05.552	$GPGGA,210906,2425.9705,N,08130.3497,W,1,8,2.6,9,M,,M,,*60
06/21/2015	21:09:06.552	$GPGGA,210907,2425.9704,N,08130.3498,W,1,8,2.3,10,M,,M,,*52
06/21/2015	21:09:07.562	$GPGGA,210908,2425.9706,N,08130.3498,W,1,6,3.6,10,M,,M,,*55
06/21/2015	21:09:08.533	$GPGGA,210909,2425.9706,N,08130.3497,W,1,6,2.3,10,M,,M,,*5F
06/21/2015	21:09:09.541	$GPGGA,210910,2425.9706,N,08130.3496,W,1,9,2.3,10,M,,M,,*59
06/21/2015	21:09:10.531	$GPGGA,210911,2425.9708,N,08130.3497,W,1,9,2.3,10,M,,M,,*57
06/21/2015	21:09:11.581	$GPGGA,210912,2425.9707,N,08130.3496,W,1,8,2.6,11,M,,M,,*5F
06/21/2015	21:09:12.534	$GPGGA,210913,2425.9708,N,08130.3495,W,1,8,2.3,11,M,,M,,*57
06/21/2015	21:09:13.551	$GPGGA,210914,2425.9709,N,08130.3494,W,1,9,2.3,11,M,,M,,*51
06/21/2015	21:09:14.521	$GPGGA,210915,2425.9709,N,08130.3495,W,1,9,2.3,11,M,,M,,*51
06/21/2015	21:09:15.543	$GPGGA,210916,2425.9709,N,08130.3494,W,1,9,2.3,12,M,,M,,*50
06/21/2015	21:09:16.502	$GPGGA,210917,2425.9711,N,08130.3494,W,1,9,2.3,12,M,,M,,*58
06/21/2015	21:09:17.542	$GPGGA,210918,2425.9712,N,08130.3495,W,1,8,2.4,12,M,,M,,*53
06/21/2015	21:09:18.522	$GPGGA,210919,2425.9713,N,08130.3497,W,1,8,2.4,12,M,,M,,*51
06/21/2015	21:09:19.532	$GPGGA,210920,2425.9711,N,08130.3496,W,1,8,2.4,13,M,,M,,*59
06/21/2015	21:09:20.512	$GPGGA,210921,2425.9712,N,08130.3497,W,1,8,2.3,13,M,,M,,*5D
06/21/2015	21:09:21.532	$GPGGA,210922,2425.9711,N,08130.3496,W,1,9,2.3,13,M,,M,,*5D
06/21/2015	21:09:22.512	$GPGGA,210923,2425.9712,N,08130.3497,W,1,9,2.3,13,M,,M,,*5E
06/21/2015	21:09:23.533	$GPGGA,210924,2425.9711,N,08130.3498,W,1,9,2.3,14,M,,M,,*52
06/21/2015	21:09:24.492	$GPGGA,210925,2425.9710,N,08130.3499,W,1,9,2.3,14,M,,M,,*53
06/21/2015	21:09:25.492	$GPGGA,210926,2425.9711,N,08130.3499,W,1,9,2.3,14,M,,M,,*51
06/21/2015	21:09:26.492	$GPGGA,210927,2425.9710,N,08130.3501,W,1,9,2.3,14,M,,M,,*51
06/21/2015	21:09:27.611	$GPGGA,210928,2425.9711,N,08130.3502,W,1,9,2.3,14,M,,M,,*5C
06/21/2015	21:09:28.501	$GPGGA,210929,2425.9709,N,08130.3502,W,1,9,2.3,14,M,,M,,*54
06/21/2015	21:09:29.581	$GPGGA,210930,2425.9709,N,08130.3504,W,1,9,2.3,14,M,,M,,*5A
06/21/2015	21:09:30.481	$GPGGA,210931,2425.9709,N,08130.3504,W,1,9,2.3,15,M,,M,,*5A
06/21/2015	21:09:31.491	$GPGGA,210932,2425.9709,N,08130.3505,W,1,9,2.3,15,M,,M,,*58
06/21/2015	21:09:32.572	$GPGGA,210933,2425.9709,N,08130.3506,W,1,9,2.3,15,M,,M,,*5A
06/21/2015	21:09:33.903	$GPGGA,210934,2425.9709,N,08130.3508,W,1,9,2.3,15,M,,M,,*53
06/21/2015	21:09:34.492	$GPGGA,210935,2425.9711,N,08130.3508,W,1,9,2.6,15,M,,M,,*5E
06/21/2015	21:09:35.602	$GPGGA,210936,2425.9712,N,08130.3508,W,1,8,2.5,15,M,,M,,*5C
06/21/2015	21:09:36.492	$GPGGA,210937,2425.9711,N,08130.3509,W,1,8,2.6,15,M,,M,,*5C
06/21/2015	21:09:37.582	$GPGGA,210938,2425.9713,N,08130.3506,W,1,7,2.8,15,M,,M,,*5F
06/21/2015	21:09:38.562	$GPGGA,210939,2425.9716,N,08130.3508,W,1,7,2.6,15,M,,M,,*5B
06/21/2015	21:09:39.603	$GPGGA,210940,2425.9715,N,08130.3506,W,1,8,2.6,15,M,,M,,*57
06/21/2015	21:09:40.562	$GPGGA,210941,2425.9716,N,08130.3506,W,1,8,2.6,15,M,,M,,*55
06/21/2015	21:09:41.572	$GPGGA,210942,2425.9717,N,08130.3505,W,1,9,2.3,15,M,,M,,*50
06/21/2015	21:09:42.562	$GPGGA,210943,2425.9719,N,08130.3505,W,1,9,2.3,15,M,,M,,*5F
06/21/2015	21:09:43.612	$GPGGA,210944,2425.9718,N,08130.3505,W,1,9,2.3,15,M,,M,,*59
06/21/2015	21:09:44.561	$GPGGA,210945,2425.9720,N,08130.3504,W,1,9,2.3,15,M,,M,,*52
06/21/2015	21:09:45.561	$GPGGA,210946,2425.9720,N,08130.3504,W,1,9,2.3,15,M,,M,,*51
06/21/2015	21:09:46.551	$GPGGA,210947,2425.9720,N,08130.3505,W,1,9,2.3,15,M,,M,,*51
06/21/2015	21:09:47.591	$GPGGA,210948,2425.9720,N,08130.3505,W,1,8,2.5,15,M,,M,,*59
06/21/2015	21:09:48.551	$GPGGA,210949,2425.9720,N,08130.3509,W,1,8,2.5,15,M,,M,,*54
06/21/2015	21:09:49.545	$GPGGA,210950,2425.9722,N,08130.3509,W,1,9,2.3,15,M,,M,,*59
06/21/2015	21:09:50.552	$GPGGA,210951,2425.9723,N,08130.3506,W,1,9,2.5,15,M,,M,,*50
06/21/2015	21:09:51.582	$GPGGA,210952,2425.9722,N,08130.3504,W,1,9,2.3,15,M,,M,,*56
06/21/2015	21:09:52.542	$GPGGA,210953,2425.9724,N,08130.3502,W,1,9,2.3,15,M,,M,,*57
06/21/2015	21:09:53.552	$GPGGA,210954,2425.9724,N,08130.3504,W,1,9,2.3,15,M,,M,,*56
06/21/2015	21:09:54.534	$GPGGA,210955,2425.9726,N,08130.3502,W,1,9,2.5,15,M,,M,,*55
06/21/2015	21:09:55.562	$GPGGA,210956,2425.9727,N,08130.3502,W,1,9,2.3,15,M,,M,,*51
06/21/2015	21:09:56.552	$GPGGA,210957,2425.9727,N,08130.3499,W,1,9,2.5,15,M,,M,,*55
06/21/2015	21:09:57.533	$GPGGA,210958,2425.9727,N,08130.3501,W,1,9,2.3,15,M,,M,,*5C
06/21/2015	21:09:58.532	$GPGGA,210959,2425.9729,N,08130.3502,W,1,9,2.5,15,M,,M,,*56
06/21/2015	21:09:59.572	$GPGGA,211000,2425.9730,N,08130.3504,W,1,8,2.5,15,M,,M,,*5D
06/21/2015	21:10:00.537	$GPGGA,211001,2425.9731,N,08130.3502,W,1,8,2.5,15,M,,M,,*5B
06/21/2015	21:10:01.535	$GPGGA,211002,2425.9731,N,08130.3500,W,1,9,2.3,15,M,,M,,*5D
06/21/2015	21:10:02.522	$GPGGA,211003,2425.9731,N,08130.3501,W,1,9,2.3,15,M,,M,,*5D
06/21/2015	21:10:04.551	$GPGGA,211005,2425.9734,N,08130.3502,W,1,9,2.5,15,M,,M,,*5B
06/21/2015	21:10:05.511	$GPGGA,211006,2425.9734,N,08130.3501,W,1,9,2.3,15,M,,M,,*5D
06/21/2015	21:10:06.621	$GPGGA,211007,2425.9735,N,08130.3500,W,1,9,2.3,15,M,,M,,*5C
06/21/2015	21:10:07.511	$GPGGA,211008,2425.9737,N,08130.3499,W,1,9,2.3,15,M,,M,,*50
06/21/2015	21:10:08.512	$GPGGA,211009,2425.9738,N,08130.3499,W,1,9,2.3,15,M,,M,,*5E
06/21/2015	21:10:09.512	$GPGGA,211010,2425.9738,N,08130.3499,W,1,9,2.3,15,M,,M,,*56
06/21/2015	21:10:10.612	$GPGGA,211011,2425.9738,N,08130.3501,W,1,9,2.5,15,M,,M,,*51
06/21/2015	21:10:11.543	$GPGGA,211012,2425.9741,N,08130.3499,W,1,8,2.5,15,M,,M,,*5D
06/21/2015	21:10:12.502	$GPGGA,211013,2425.9740,N,08130.3499,W,1,8,2.3,15,M,,M,,*5B
06/21/2015	21:10:13.492	$GPGGA,211014,2425.9742,N,08130.3499,W,1,9,2.3,15,M,,M,,*5F
06/21/2015	21:10:14.612	$GPGGA,211015,2425.9744,N,08130.3498,W,1,9,2.3,15,M,,M,,*59
06/21/2015	21:10:15.502	$GPGGA,211016,2425.9745,N,08130.3497,W,1,9,2.3,15,M,,M,,*54
06/21/2015	21:10:16.612	$GPGGA,211017,2425.9745,N,08130.3495,W,1,9,2.3,15,M,,M,,*57
06/21/2015	21:10:17.582	$GPGGA,211018,2425.9747,N,08130.3494,W,1,9,2.3,15,M,,M,,*5B
06/21/2015	21:10:18.482	$GPGGA,211019,2425.9748,N,08130.3493,W,1,9,2.3,14,M,,M,,*53
06/21/2015	21:10:19.591	$GPGGA,211020,2425.9749,N,08130.3493,W,1,9,2.3,14,M,,M,,*58
06/21/2015	21:10:20.571	$GPGGA,211021,2425.9749,N,08130.3492,W,1,9,2.3,14,M,,M,,*58
06/21/2015	21:10:21.581	$GPGGA,211022,2425.9751,N,08130.3493,W,1,9,2.3,14,M,,M,,*53
06/21/2015	21:10:22.581	$GPGGA,211023,2425.9750,N,08130.3491,W,1,9,2.3,14,M,,M,,*51
06/21/2015	21:10:23.581	$GPGGA,211024,2425.9753,N,08130.3490,W,1,9,2.3,14,M,,M,,*54
06/21/2015	21:10:24.591	$GPGGA,211025,2425.9753,N,08130.3490,W,1,9,2.3,14,M,,M,,*55
06/21/2015	21:10:25.572	$GPGGA,211026,2425.9755,N,08130.3491,W,1,9,2.3,14,M,,M,,*51
06/21/2015	21:10:26.572	$GPGGA,211027,2425.9754,N,08130.3490,W,1,9,2.3,14,M,,M,,*50
06/21/2015	21:10:27.582	$GPGGA,211028,2425.9756,N,08130.3491,W,1,9,2.3,14,M,,M,,*5C
06/21/2015	21:10:28.582	$GPGGA,211029,2425.9758,N,08130.3491,W,1,9,2.3,14,M,,M,,*53
06/21/2015	21:10:29.582	$GPGGA,211030,2425.9757,N,08130.3490,W,1,9,2.3,14,M,,M,,*55
06/21/2015	21:10:30.562	$GPGGA,211031,2425.9759,N,08130.3491,W,1,9,2.3,14,M,,M,,*5B
06/21/2015	21:10:31.592	$GPGGA,211032,2425.9760,N,08130.3491,W,1,9,2.3,14,M,,M,,*52
06/21/2015	21:10:32.562	$GPGGA,211033,2425.9760,N,08130.3491,W,1,9,2.3,14,M,,M,,*53
06/21/2015	21:10:33.572	$GPGGA,211034,2425.9762,N,08130.3493,W,1,9,2.3,14,M,,M,,*54
06/21/2015	21:10:34.552	$GPGGA,211035,2425.9763,N,08130.3492,W,1,9,2.3,14,M,,M,,*55
06/21/2015	21:10:35.612	$GPGGA,211036,2425.9764,N,08130.3493,W,1,9,2.3,14,M,,M,,*50
06/21/2015	21:10:36.562	$GPGGA,211037,2425.9766,N,08130.3493,W,1,9,2.3,14,M,,M,,*53
06/21/2015	21:10:37.561	$GPGGA,211038,2425.9767,N,08130.3493,W,1,9,2.3,14,M,,M,,*5D
06/21/2015	21:10:38.551	$GPGGA,211039,2425.9767,N,08130.3493,W,1,9,2.3,13,M,,M,,*5B
06/21/2015	21:10:39.581	$GPGGA,211040,2425.9769,N,08130.3494,W,1,9,2.3,13,M,,M,,*5C
06/21/2015	21:10:40.551	$GPGGA,211041,2425.9770,N,08130.3494,W,1,9,2.3,13,M,,M,,*55
06/21/2015	21:10:41.541	$GPGGA,211042,2425.9771,N,08130.3494,W,1,9,2.3,13,M,,M,,*57
06/21/2015	21:10:42.542	$GPGGA,211043,2425.9771,N,08130.3494,W,1,9,2.3,13,M,,M,,*56
06/21/2015	21:10:43.552	$GPGGA,211044,2425.9773,N,08130.3495,W,1,9,2.3,13,M,,M,,*52
06/21/2015	21:10:44.542	$GPGGA,211045,2425.9774,N,08130.3495,W,1,9,2.3,13,M,,M,,*54
06/21/2015	21:10:45.542	$GPGGA,211046,2425.9774,N,08130.3494,W,1,9,2.3,13,M,,M,,*56
06/21/2015	21:10:46.542	$GPGGA,211047,2425.9776,N,08130.3494,W,1,9,2.3,13,M,,M,,*55
06/21/2015	21:10:47.562	$GPGGA,211048,2425.9777,N,08130.3494,W,1,9,2.3,13,M,,M,,*5B
06/21/2015	21:10:48.532	$GPGGA,211049,2425.9778,N,08130.3495,W,1,9,2.3,13,M,,M,,*54
06/21/2015	21:10:49.562	$GPGGA,211050,2425.9778,N,08130.3495,W,1,9,2.3,13,M,,M,,*5C
06/21/2015	21:10:50.512	$GPGGA,211051,2425.9781,N,08130.3495,W,1,9,2.3,13,M,,M,,*5B
06/21/2015	21:10:51.542	$GPGGA,211052,2425.9781,N,08130.3495,W,1,9,2.3,13,M,,M,,*58
06/21/2015	21:10:52.522	$GPGGA,211053,2425.9782,N,08130.3495,W,1,9,2.3,13,M,,M,,*5A
06/21/2015	21:10:53.552	$GPGGA,211054,2425.9784,N,08130.3495,W,1,9,2.3,13,M,,M,,*5B
06/21/2015	21:10:54.531	$GPGGA,211055,2425.9785,N,08130.3495,W,1,9,2.3,13,M,,M,,*5B
06/21/2015	21:10:55.532	$GPGGA,211056,2425.9787,N,08130.3497,W,1,9,2.3,12,M,,M,,*59
06/21/2015	21:10:56.635	$GPGGA,211057,2425.9788,N,08130.3496,W,1,9,2.3,12,M,,M,,*56
06/21/2015	21:10:57.522	$GPGGA,211058,2425.9789,N,08130.3497,W,1,9,2.3,12,M,,M,,*59
06/21/2015	21:10:58.501	$GPGGA,211059,2425.9791,N,08130.3497,W,1,9,2.3,12,M,,M,,*51
06/21/2015	21:10:59.671	$GPGGA,211100,2425.9792,N,08130.3497,W,1,9,2.3,12,M,,M,,*5F
06/21/2015	21:11:00.512	$GPGGA,211101,2425.9792,N,08130.3498,W,1,9,2.3,12,M,,M,,*51
06/21/2015	21:11:01.532	$GPGGA,211102,2425.9795,N,08130.3498,W,1,9,2.3,12,M,,M,,*55
06/21/2015	21:11:02.613	$GPGGA,211103,2425.9796,N,08130.3498,W,1,9,2.3,12,M,,M,,*57
06/21/2015	21:11:03.502	$GPGGA,211104,2425.9796,N,08130.3499,W,1,9,2.3,12,M,,M,,*51
06/21/2015	21:11:04.502	$GPGGA,211105,2425.9798,N,08130.3499,W,1,9,2.3,12,M,,M,,*5E
06/21/2015	21:11:05.482	$GPGGA,211106,2425.9799,N,08130.3499,W,1,9,2.3,12,M,,M,,*5C
06/21/2015	21:11:06.582	$GPGGA,211107,2425.9800,N,08130.3501,W,1,9,2.3,12,M,,M,,*52
06/21/2015	21:11:07.592	$GPGGA,211108,2425.9802,N,08130.3500,W,1,9,2.3,12,M,,M,,*5E
06/21/2015	21:11:08.644	$GPGGA,211109,2425.9803,N,08130.3501,W,1,9,2.3,12,M,,M,,*5F
06/21/2015	21:11:09.492	$GPGGA,211110,2425.9805,N,08130.3501,W,1,9,2.3,12,M,,M,,*51
06/21/2015	21:11:10.572	$GPGGA,211111,2425.9806,N,08130.3501,W,1,9,2.3,11,M,,M,,*50
06/21/2015	21:11:11.492	$GPGGA,211112,2425.9807,N,08130.3501,W,1,9,2.3,11,M,,M,,*52
06/21/2015	21:11:12.571	$GPGGA,211113,2425.9809,N,08130.3501,W,1,9,2.3,11,M,,M,,*5D
06/21/2015	21:11:13.571	$GPGGA,211114,2425.9810,N,08130.3502,W,1,9,2.3,11,M,,M,,*51
06/21/2015	21:11:14.571	$GPGGA,211115,2425.9811,N,08130.3502,W,1,9,2.3,11,M,,M,,*51
06/21/2015	21:11:15.601	$GPGGA,211116,2425.9814,N,08130.3502,W,1,9,2.3,11,M,,M,,*57
06/21/2015	21:11:16.561	$GPGGA,211117,2425.9814,N,08130.3502,W,1,9,2.3,11,M,,M,,*56
06/21/2015	21:11:17.571	$GPGGA,211118,2425.9817,N,08130.3504,W,1,9,2.3,11,M,,M,,*5C
06/21/2015	21:11:18.551	$GPGGA,211119,2425.9818,N,08130.3503,W,1,9,2.3,11,M,,M,,*55
06/21/2015	21:11:19.601	$GPGGA,211120,2425.9820,N,08130.3504,W,1,9,2.3,11,M,,M,,*53
06/21/2015	21:11:20.551	$GPGGA,211121,2425.9821,N,08130.3503,W,1,9,2.3,11,M,,M,,*54
06/21/2015	21:11:21.561	$GPGGA,211122,2425.9823,N,08130.3504,W,1,9,2.3,11,M,,M,,*52
06/21/2015	21:11:22.551	$GPGGA,211123,2425.9824,N,08130.3503,W,1,9,2.3,11,M,,M,,*53
06/21/2015	21:11:23.581	$GPGGA,211124,2425.9825,N,08130.3504,W,1,9,2.3,11,M,,M,,*52
06/21/2015	21:11:24.541	$GPGGA,211125,2425.9827,N,08130.3503,W,1,9,2.3,11,M,,M,,*56
06/21/2015	21:11:25.561	$GPGGA,211126,2425.9828,N,08130.3504,W,1,9,2.3,11,M,,M,,*5D
06/21/2015	21:11:26.551	$GPGGA,211127,2425.9829,N,08130.3504,W,1,9,2.3,11,M,,M,,*5D
06/21/2015	21:11:27.581	$GPGGA,211128,2425.9832,N,08130.3504,W,1,9,2.3,10,M,,M,,*59
06/21/2015	21:11:28.542	$GPGGA,211129,2425.9832,N,08130.3503,W,1,9,2.3,10,M,,M,,*5F
06/21/2015	21:11:29.525	$GPGGA,211130,2425.9835,N,08130.3504,W,1,9,2.3,10,M,,M,,*57
06/21/2015	21:11:30.537	$GPGGA,211131,2425.9836,N,08130.3504,W,1,9,2.3,10,M,,M,,*55
06/21/2015	21:11:31.561	$GPGGA,211132,2425.9838,N,08130.3504,W,1,9,2.3,10,M,,M,,*58
06/21/2015	21:11:32.523	$GPGGA,211133,2425.9839,N,08130.3503,W,1,9,2.3,10,M,,M,,*5F
06/21/2015	21:11:33.521	$GPGGA,211134,2425.9841,N,08130.3504,W,1,9,2.3,10,M,,M,,*50
06/21/2015	21:11:34.531	$GPGGA,211135,2425.9842,N,08130.3504,W,1,9,2.3,10,M,,M,,*52
06/21/2015	21:11:35.561	$GPGGA,211136,2425.9843,N,08130.3503,W,1,9,2.3,10,M,,M,,*57
06/21/2015	21:11:36.533	$GPGGA,211137,2425.9845,N,08130.3504,W,1,9,2.3,10,M,,M,,*57
06/21/2015	21:11:37.541	$GPGGA,211138,2425.9846,N,08130.3503,W,1,9,2.3,10,M,,M,,*5C
06/21/2015	21:11:38.522	$GPGGA,211139,2425.9847,N,08130.3504,W,1,9,2.3,10,M,,M,,*5B
06/21/2015	21:11:39.551	$GPGGA,211140,2425.9850,N,08130.3502,W,1,9,2.3,10,M,,M,,*55
06/21/2015	21:11:40.521	$GPGGA,211141,2425.9850,N,08130.3502,W,1,9,2.3,10,M,,M,,*54
06/21/2015	21:11:41.551	$GPGGA,211142,2425.9853,N,08130.3502,W,1,9,2.3,10,M,,M,,*54
06/21/2015	21:11:42.534	$GPGGA,211143,2425.9854,N,08130.3501,W,1,9,2.3,10,M,,M,,*51
06/21/2015	21:11:43.541	$GPGGA,211144,2425.9856,N,08130.3501,W,1,9,2.3,10,M,,M,,*54
06/21/2015	21:11:44.591	$GPGGA,211145,2425.9857,N,08130.3501,W,1,9,2.3,9,M,,M,,*6C
06/21/2015	21:11:46.152	$GPGGA,211146,2425.9859,N,08130.3501,W,1,9,2.3,9,M,,M,,*61
06/21/2015	21:11:46.512	$GPGGA,211147,2425.9860,N,08130.3500,W,1,9,2.3,9,M,,M,,*6B
06/21/2015	21:11:47.522	$GPGGA,211148,2425.9861,N,08130.3501,W,1,9,2.3,9,M,,M,,*64
06/21/2015	21:11:48.511	$GPGGA,211149,2425.9864,N,08130.3501,W,1,9,2.3,9,M,,M,,*60
