Software Version Number: 1	Data File Format Number: 1	Build Version Number: 1	Error Count Since VI Started: 3	Manufacturer: Raytheon	 Model Number: RayMarine 120	 S/N: 	 Cal Date: 	 Wind Direction Offset: 0.00	 Slope (M)1: 0.00	 Offset (B)1: 0.00	 Slope (M)2: 0.00	 Offset (B)2: 0.00	 Slope (M)3: 0.00	 Offset (B)3: 0.00	 Slope (M)4: 0.00	 Offset (B)4: 0.00	 Slope (M)5: 0.00	 Offset (B)5: 0.00	 Slope (M)6: 0.00	 Offset (B)6: 0.00
Computer Date	Computer Time	GGA String
06/23/2015	10:00:00.488	$GPGGA,100001,2454.1460,N,08023.9230,W,1,9,1.5,11,M,,M,,*58
06/23/2015	10:00:01.568	$GPGGA,100002,2454.1475,N,08023.9208,W,1,9,1.5,11,M,,M,,*54
06/23/2015	10:00:02.568	$GPGGA,100003,2454.1490,N,08023.9185,W,1,9,1.5,11,M,,M,,*58
06/23/2015	10:00:03.588	$GPGGA,100004,2454.1508,N,08023.9163,W,1,9,1.5,11,M,,M,,*57
06/23/2015	10:00:05.608	$GPGGA,100006,2454.1540,N,08023.9119,W,1,9,1.5,11,M,,M,,*54
06/23/2015	10:00:06.556	$GPGGA,100007,2454.1557,N,08023.9097,W,1,9,1.5,11,M,,M,,*54
06/23/2015	10:00:07.608	$GPGGA,100008,2454.1573,N,08023.9075,W,1,9,1.5,11,M,,M,,*51
06/23/2015	10:00:08.588	$GPGGA,100009,2454.1590,N,08023.9053,W,1,9,1.5,11,M,,M,,*59
06/23/2015	10:00:09.558	$GPGGA,100010,2454.1606,N,08023.9031,W,1,9,1.5,11,M,,M,,*59
06/23/2015	10:00:10.557	$GPGGA,100011,2454.1623,N,08023.9009,W,1,9,1.5,11,M,,M,,*54
06/23/2015	10:00:11.577	$GPGGA,100012,2454.1639,N,08023.8987,W,1,9,1.5,11,M,,M,,*52
06/23/2015	10:00:12.541	$GPGGA,100013,2454.1656,N,08023.8965,W,1,9,1.5,11,M,,M,,*56
06/23/2015	10:00:13.587	$GPGGA,100014,2454.1674,N,08023.8943,W,1,9,1.5,11,M,,M,,*55
06/23/2015	10:00:14.539	$GPGGA,100015,2454.1691,N,08023.8921,W,1,9,1.5,11,M,,M,,*5B
06/23/2015	10:00:15.567	$GPGGA,100016,2454.1707,N,08023.8900,W,1,9,1.5,11,M,,M,,*55
06/23/2015	10:00:16.538	$GPGGA,100017,2454.1725,N,08023.8878,W,1,9,1.5,11,M,,M,,*5A
06/23/2015	10:00:17.551	$GPGGA,100018,2454.1742,N,08023.8856,W,1,9,1.5,11,M,,M,,*58
06/23/2015	10:00:18.517	$GPGGA,100019,2454.1760,N,08023.8835,W,1,9,1.5,11,M,,M,,*5C
06/23/2015	10:00:19.557	$GPGGA,100020,2454.1776,N,08023.8813,W,1,9,1.5,11,M,,M,,*55
06/23/2015	10:00:20.544	$GPGGA,100021,2454.1794,N,08023.8791,W,1,9,1.5,11,M,,M,,*5D
06/23/2015	10:00:21.517	$GPGGA,100022,2454.1811,N,08023.8770,W,1,9,1.5,11,M,,M,,*53
06/23/2015	10:00:22.527	$GPGGA,100023,2454.1829,N,08023.8748,W,1,9,1.5,11,M,,M,,*52
06/23/2015	10:00:23.557	$GPGGA,100024,2454.1846,N,08023.8727,W,1,9,1.5,11,M,,M,,*55
06/23/2015	10:00:24.527	$GPGGA,100025,2454.1862,N,08023.8705,W,1,9,1.5,11,M,,M,,*52
06/23/2015	10:00:25.507	$GPGGA,100026,2454.1880,N,08023.8684,W,1,9,1.5,11,M,,M,,*55
06/23/2015	10:00:26.517	$GPGGA,100027,2454.1898,N,08023.8662,W,1,9,1.5,11,M,,M,,*55
06/23/2015	10:00:27.527	$GPGGA,100028,2454.1916,N,08023.8640,W,1,9,1.5,11,M,,M,,*5D
06/23/2015	10:00:28.507	$GPGGA,100029,2454.1933,N,08023.8619,W,1,9,1.5,11,M,,M,,*57
06/23/2015	10:00:29.507	$GPGGA,100030,2454.1952,N,08023.8598,W,1,9,1.5,11,M,,M,,*52
06/23/2015	10:00:30.597	$GPGGA,100031,2454.1967,N,08023.8576,W,1,9,1.5,11,M,,M,,*55
06/23/2015	10:00:31.552	$GPGGA,100032,2454.1985,N,08023.8555,W,1,9,1.5,11,M,,M,,*5B
06/23/2015	10:00:32.607	$GPGGA,100033,2454.2003,N,08023.8533,W,1,9,1.5,11,M,,M,,*5E
06/23/2015	10:00:33.587	$GPGGA,100034,2454.2021,N,08023.8512,W,1,9,1.5,11,M,,M,,*5A
06/23/2015	10:00:34.517	$GPGGA,100035,2454.2039,N,08023.8490,W,1,9,1.5,11,M,,M,,*59
06/23/2015	10:00:35.639	$GPGGA,100036,2454.2057,N,08023.8469,W,1,9,1.5,11,M,,M,,*54
06/23/2015	10:00:36.607	$GPGGA,100037,2454.2074,N,08023.8448,W,1,9,1.5,11,M,,M,,*57
06/23/2015	10:00:37.597	$GPGGA,100038,2454.2090,N,08023.8426,W,1,9,1.5,11,M,,M,,*5A
06/23/2015	10:00:38.577	$GPGGA,100039,2454.2108,N,08023.8405,W,1,9,1.5,11,M,,M,,*5A
06/23/2015	10:00:39.587	$GPGGA,100040,2454.2126,N,08023.8384,W,1,9,1.5,11,M,,M,,*56
06/23/2015	10:00:40.497	$GPGGA,100041,2454.2143,N,08023.8362,W,1,9,1.5,11,M,,M,,*5C
06/23/2015	10:00:41.477	$GPGGA,100042,2454.2159,N,08023.8341,W,1,9,1.5,11,M,,M,,*55
06/23/2015	10:00:42.567	$GPGGA,100043,2454.2179,N,08023.8320,W,1,9,1.5,11,M,,M,,*51
06/23/2015	10:00:43.617	$GPGGA,100044,2454.2195,N,08023.8299,W,1,9,1.5,11,M,,M,,*57
06/23/2015	10:00:44.567	$GPGGA,100045,2454.2211,N,08023.8276,W,1,9,1.5,11,M,,M,,*58
06/23/2015	10:00:45.567	$GPGGA,100046,2454.2229,N,08023.8256,W,1,9,1.5,11,M,,M,,*52
06/23/2015	10:00:46.567	$GPGGA,100047,2454.2245,N,08023.8234,W,1,9,1.5,11,M,,M,,*5D
06/23/2015	10:00:47.587	$GPGGA,100048,2454.2262,N,08023.8212,W,1,9,1.5,11,M,,M,,*53
06/23/2015	10:00:48.557	$GPGGA,100049,2454.2278,N,08023.8190,W,1,9,1.5,11,M,,M,,*50
06/23/2015	10:00:49.587	$GPGGA,100050,2454.2296,N,08023.8168,W,1,9,1.5,11,M,,M,,*5F
06/23/2015	10:00:50.557	$GPGGA,100051,2454.2311,N,08023.8146,W,1,9,1.5,10,M,,M,,*5D
06/23/2015	10:00:51.567	$GPGGA,100052,2454.2328,N,08023.8123,W,1,9,1.5,10,M,,M,,*57
06/23/2015	10:00:52.557	$GPGGA,100053,2454.2345,N,08023.8101,W,1,9,1.5,10,M,,M,,*5D
06/23/2015	10:00:53.550	$GPGGA,100054,2454.2361,N,08023.8080,W,1,9,1.5,10,M,,M,,*54
06/23/2015	10:00:54.557	$GPGGA,100055,2454.2378,N,08023.8057,W,1,9,1.5,10,M,,M,,*57
06/23/2015	10:00:55.567	$GPGGA,100056,2454.2394,N,08023.8035,W,1,9,1.5,10,M,,M,,*52
06/23/2015	10:00:56.538	$GPGGA,100057,2454.2411,N,08023.8013,W,1,9,1.5,10,M,,M,,*5D
06/23/2015	10:00:57.557	$GPGGA,100058,2454.2428,N,08023.7990,W,1,9,1.5,10,M,,M,,*55
06/23/2015	10:00:58.537	$GPGGA,100059,2454.2444,N,08023.7968,W,1,9,1.5,10,M,,M,,*59
06/23/2015	10:00:59.577	$GPGGA,100100,2454.2462,N,08023.7946,W,1,9,1.5,10,M,,M,,*5C
06/23/2015	10:01:00.552	$GPGGA,100101,2454.2477,N,08023.7923,W,1,9,1.5,10,M,,M,,*5A
06/23/2015	10:01:01.527	$GPGGA,100102,2454.2491,N,08023.7900,W,1,9,1.5,10,M,,M,,*50
06/23/2015	10:01:02.540	$GPGGA,100103,2454.2509,N,08023.7878,W,1,9,1.5,10,M,,M,,*5F
06/23/2015	10:01:03.577	$GPGGA,100104,2454.2527,N,08023.7857,W,1,8,1.7,10,M,,M,,*5A
06/23/2015	10:01:04.527	$GPGGA,100105,2454.2542,N,08023.7833,W,1,8,1.5,10,M,,M,,*58
06/23/2015	10:01:05.552	$GPGGA,100106,2454.2558,N,08023.7811,W,1,9,1.5,10,M,,M,,*51
06/23/2015	10:01:06.527	$GPGGA,100107,2454.2574,N,08023.7790,W,1,9,1.5,10,M,,M,,*58
06/23/2015	10:01:07.538	$GPGGA,100108,2454.2589,N,08023.7766,W,1,9,1.5,10,M,,M,,*5C
06/23/2015	10:01:08.527	$GPGGA,100109,2454.2606,N,08023.7744,W,1,9,1.5,10,M,,M,,*59
06/23/2015	10:01:09.540	$GPGGA,100110,2454.2621,N,08023.7722,W,1,9,1.5,10,M,,M,,*54
06/23/2015	10:01:10.517	$GPGGA,100111,2454.2639,N,08023.7700,W,1,9,1.5,10,M,,M,,*5C
06/23/2015	10:01:11.567	$GPGGA,100112,2454.2654,N,08023.7678,W,1,9,1.5,10,M,,M,,*5A
06/23/2015	10:01:12.517	$GPGGA,100113,2454.2671,N,08023.7656,W,1,9,1.5,10,M,,M,,*50
06/23/2015	10:01:13.507	$GPGGA,100114,2454.2688,N,08023.7633,W,1,9,1.5,10,M,,M,,*52
06/23/2015	10:01:14.517	$GPGGA,100115,2454.2703,N,08023.7611,W,1,9,1.5,10,M,,M,,*51
06/23/2015	10:01:15.557	$GPGGA,100116,2454.2719,N,08023.7589,W,1,9,1.5,10,M,,M,,*5B
06/23/2015	10:01:16.497	$GPGGA,100117,2454.2736,N,08023.7567,W,1,9,1.5,10,M,,M,,*57
06/23/2015	10:01:17.517	$GPGGA,100118,2454.2751,N,08023.7545,W,1,9,1.5,10,M,,M,,*59
06/23/2015	10:01:18.617	$GPGGA,100119,2454.2769,N,08023.7523,W,1,9,1.5,10,M,,M,,*53
06/23/2015	10:01:19.537	$GPGGA,100120,2454.2784,N,08023.7501,W,1,9,1.5,10,M,,M,,*5A
06/23/2015	10:01:20.587	$GPGGA,100121,2454.2802,N,08023.7479,W,1,9,1.5,9,M,,M,,*6C
06/23/2015	10:01:21.527	$GPGGA,100122,2454.2819,N,08023.7458,W,1,9,1.5,9,M,,M,,*66
06/23/2015	10:01:22.507	$GPGGA,100123,2454.2836,N,08023.7435,W,1,9,1.5,9,M,,M,,*61
06/23/2015	10:01:23.597	$GPGGA,100124,2454.2852,N,08023.7413,W,1,9,1.5,9,M,,M,,*60
06/23/2015	10:01:24.487	$GPGGA,100125,2454.2870,N,08023.7392,W,1,9,1.5,9,M,,M,,*6F
06/23/2015	10:01:25.587	$GPGGA,100126,2454.2887,N,08023.7370,W,1,9,1.5,9,M,,M,,*68
06/23/2015	10:01:26.487	$GPGGA,100127,2454.2903,N,08023.7348,W,1,9,1.5,9,M,,M,,*6F
06/23/2015	10:01:27.517	$GPGGA,100128,2454.2921,N,08023.7328,W,1,9,1.5,9,M,,M,,*66
06/23/2015	10:01:28.477	$GPGGA,100129,2454.2938,N,08023.7307,W,1,9,1.5,9,M,,M,,*62
06/23/2015	10:01:29.467	$GPGGA,100130,2454.2954,N,08023.7285,W,1,9,1.5,9,M,,M,,*6B
06/23/2015	10:01:30.497	$GPGGA,100131,2454.2972,N,08023.7264,W,1,9,1.5,9,M,,M,,*61
06/23/2015	10:01:31.577	$GPGGA,100132,2454.2990,N,08023.7243,W,1,9,1.5,9,M,,M,,*6B
06/23/2015	10:01:32.477	$GPGGA,100133,2454.3007,N,08023.7221,W,1,9,1.5,9,M,,M,,*68
06/23/2015	10:01:33.477	$GPGGA,100134,2454.3024,N,08023.7200,W,1,9,1.5,9,M,,M,,*6D
06/23/2015	10:01:34.567	$GPGGA,100135,2454.3043,N,08023.7180,W,1,9,1.5,9,M,,M,,*66
06/23/2015	10:01:35.577	$GPGGA,100136,2454.3060,N,08023.7157,W,1,9,1.5,9,M,,M,,*6E
06/23/2015	10:01:36.557	$GPGGA,100137,2454.3076,N,08023.7135,W,1,9,1.5,9,M,,M,,*6C
06/23/2015	10:01:37.567	$GPGGA,100138,2454.3096,N,08023.7115,W,1,9,1.5,9,M,,M,,*6F
06/23/2015	10:01:38.557	$GPGGA,100139,2454.3112,N,08023.7095,W,1,9,1.5,9,M,,M,,*6A
06/23/2015	10:01:39.577	$GPGGA,100140,2454.3129,N,08023.7072,W,1,9,1.5,9,M,,M,,*65
06/23/2015	10:01:40.547	$GPGGA,100141,2454.3147,N,08023.7051,W,1,9,1.5,9,M,,M,,*6D
06/23/2015	10:01:41.567	$GPGGA,100142,2454.3165,N,08023.7031,W,1,9,1.5,9,M,,M,,*68
06/23/2015	10:01:42.549	$GPGGA,100143,2454.3181,N,08023.7009,W,1,9,1.5,9,M,,M,,*68
06/23/2015	10:01:43.577	$GPGGA,100144,2454.3199,N,08023.6989,W,1,9,1.5,9,M,,M,,*66
06/23/2015	10:01:44.550	$GPGGA,100145,2454.3217,N,08023.6967,W,1,9,1.5,9,M,,M,,*62
06/23/2015	10:01:45.557	$GPGGA,100146,2454.3235,N,08023.6946,W,1,9,1.5,9,M,,M,,*62
06/23/2015	10:01:46.549	$GPGGA,100147,2454.3250,N,08023.6925,W,1,9,1.5,9,M,,M,,*65
06/23/2015	10:01:47.587	$GPGGA,100148,2454.3268,N,08023.6903,W,1,9,1.5,9,M,,M,,*65
06/23/2015	10:01:48.557	$GPGGA,100149,2454.3286,N,08023.6883,W,1,9,1.5,9,M,,M,,*6D
06/23/2015	10:01:49.527	$GPGGA,100150,2454.3302,N,08023.6861,W,1,9,1.5,9,M,,M,,*64
06/23/2015	10:01:50.540	$GPGGA,100151,2454.3320,N,08023.6840,W,1,9,1.5,9,M,,M,,*66
06/23/2015	10:01:51.539	$GPGGA,100152,2454.3336,N,08023.6820,W,1,9,1.5,9,M,,M,,*64
06/23/2015	10:01:52.527	$GPGGA,100153,2454.3354,N,08023.6797,W,1,9,1.5,9,M,,M,,*62
06/23/2015	10:01:53.549	$GPGGA,100154,2454.3371,N,08023.6776,W,1,9,1.5,9,M,,M,,*6D
06/23/2015	10:01:54.527	$GPGGA,100155,2454.3389,N,08023.6755,W,1,9,1.5,9,M,,M,,*6A
06/23/2015	10:01:55.567	$GPGGA,100156,2454.3405,N,08023.6733,W,1,9,1.5,9,M,,M,,*6A
06/23/2015	10:01:56.527	$GPGGA,100157,2454.3420,N,08023.6710,W,1,9,1.5,9,M,,M,,*6D
06/23/2015	10:01:57.549	$GPGGA,100158,2454.3438,N,08023.6689,W,1,9,1.5,9,M,,M,,*6A
06/23/2015	10:01:58.517	$GPGGA,100159,2454.3456,N,08023.6667,W,1,9,1.5,9,M,,M,,*63
06/23/2015	10:01:59.567	$GPGGA,100200,2454.3470,N,08023.6645,W,1,9,1.5,9,M,,M,,*68
06/23/2015	10:02:00.517	$GPGGA,100201,2454.3488,N,08023.6623,W,1,9,1.5,9,M,,M,,*6E
06/23/2015	10:02:01.517	$GPGGA,100202,2454.3506,N,08023.6602,W,1,9,1.5,9,M,,M,,*69
06/23/2015	10:02:02.517	$GPGGA,100203,2454.3521,N,08023.6580,W,1,9,1.5,9,M,,M,,*64
06/23/2015	10:02:03.550	$GPGGA,100204,2454.3538,N,08023.6557,W,1,9,1.5,9,M,,M,,*61
06/23/2015	10:02:04.497	$GPGGA,100205,2454.3553,N,08023.6535,W,1,9,1.5,9,M,,M,,*69
06/23/2015	10:02:05.627	$GPGGA,100206,2454.3571,N,08023.6513,W,1,9,1.5,9,M,,M,,*6E
06/23/2015	10:02:06.497	$GPGGA,100207,2454.3588,N,08023.6491,W,1,9,1.5,9,M,,M,,*62
06/23/2015	10:02:07.507	$GPGGA,100208,2454.3604,N,08023.6469,W,1,9,1.5,9,M,,M,,*6D
06/23/2015	10:02:08.587	$GPGGA,100209,2454.3621,N,08023.6446,W,1,9,1.5,9,M,,M,,*66
06/23/2015	10:02:09.497	$GPGGA,100210,2454.3638,N,08023.6425,W,1,9,1.5,9,M,,M,,*63
06/23/2015	10:02:10.517	$GPGGA,100211,2454.3656,N,08023.6403,W,1,9,1.5,9,M,,M,,*6E
06/23/2015	10:02:11.640	$GPGGA,100212,2454.3672,N,08023.6380,W,1,9,1.5,9,M,,M,,*67
06/23/2015	10:02:12.497	$GPGGA,100213,2454.3687,N,08023.6357,W,1,9,1.5,9,M,,M,,*66
06/23/2015	10:02:13.617	$GPGGA,100214,2454.3705,N,08023.6337,W,1,9,1.5,9,M,,M,,*6C
06/23/2015	10:02:14.497	$GPGGA,100215,2454.3723,N,08023.6315,W,1,9,1.5,9,M,,M,,*69
06/23/2015	10:02:15.627	$GPGGA,100216,2454.3737,N,08023.6293,W,1,9,1.5,9,M,,M,,*60
06/23/2015	10:02:16.597	$GPGGA,100217,2454.3755,N,08023.6271,W,1,9,1.5,9,M,,M,,*69
06/23/2015	10:02:17.477	$GPGGA,100218,2454.3773,N,08023.6250,W,1,9,1.5,9,M,,M,,*61
06/23/2015	10:02:18.577	$GPGGA,100219,2454.3790,N,08023.6228,W,1,9,1.5,9,M,,M,,*62
06/23/2015	10:02:19.487	$GPGGA,100220,2454.3806,N,08023.6206,W,1,9,1.5,9,M,,M,,*64
06/23/2015	10:02:20.577	$GPGGA,100221,2454.3823,N,08023.6184,W,1,9,1.5,9,M,,M,,*6B
06/23/2015	10:02:21.477	$GPGGA,100222,2454.3841,N,08023.6163,W,1,9,1.5,9,M,,M,,*65
06/23/2015	10:02:22.567	$GPGGA,100223,2454.3857,N,08023.6141,W,1,9,1.5,9,M,,M,,*63
06/23/2015	10:02:23.627	$GPGGA,100224,2454.3874,N,08023.6118,W,1,9,1.5,9,M,,M,,*69
06/23/2015	10:02:24.567	$GPGGA,100225,2454.3892,N,08023.6097,W,1,9,1.5,9,M,,M,,*66
06/23/2015	10:02:25.587	$GPGGA,100226,2454.3910,N,08023.6075,W,1,9,1.5,9,M,,M,,*62
06/23/2015	10:02:26.549	$GPGGA,100227,2454.3927,N,08023.6053,W,1,9,1.5,9,M,,M,,*63
06/23/2015	10:02:27.587	$GPGGA,100228,2454.3943,N,08023.6031,W,1,9,1.5,9,M,,M,,*6A
06/23/2015	10:02:28.553	$GPGGA,100229,2454.3961,N,08023.6010,W,1,9,1.5,9,M,,M,,*68
06/23/2015	10:02:29.548	$GPGGA,100230,2454.3979,N,08023.5988,W,1,9,1.5,9,M,,M,,*62
06/23/2015	10:02:30.548	$GPGGA,100231,2454.3996,N,08023.5965,W,1,9,1.5,9,M,,M,,*61
06/23/2015	10:02:31.577	$GPGGA,100232,2454.4014,N,08023.5944,W,1,9,1.5,9,M,,M,,*65
06/23/2015	10:02:32.550	$GPGGA,100233,2454.4033,N,08023.5923,W,1,9,1.5,9,M,,M,,*60
06/23/2015	10:02:33.557	$GPGGA,100234,2454.4050,N,08023.5901,W,1,9,1.5,9,M,,M,,*62
06/23/2015	10:02:34.538	$GPGGA,100235,2454.4066,N,08023.5879,W,1,9,1.5,9,M,,M,,*68
06/23/2015	10:02:35.887	$GPGGA,100236,2454.4084,N,08023.5858,W,1,9,1.5,9,M,,M,,*64
06/23/2015	10:02:36.537	$GPGGA,100237,2454.4102,N,08023.5836,W,1,9,1.5,9,M,,M,,*62
06/23/2015	10:02:38.017	$GPGGA,100238,2454.4120,N,08023.5814,W,1,9,1.5,9,M,,M,,*6D
06/23/2015	10:02:38.547	$GPGGA,100239,2454.4137,N,08023.5792,W,1,9,1.5,9,M,,M,,*6B
06/23/2015	10:02:39.607	$GPGGA,100240,2454.4155,N,08023.5771,W,1,9,1.5,9,M,,M,,*6C
06/23/2015	10:02:40.527	$GPGGA,100241,2454.4173,N,08023.5750,W,1,9,1.5,9,M,,M,,*6A
06/23/2015	10:02:41.527	$GPGGA,100242,2454.4189,N,08023.5728,W,1,9,1.5,9,M,,M,,*63
06/23/2015	10:02:42.527	$GPGGA,100243,2454.4207,N,08023.5706,W,1,9,1.5,9,M,,M,,*6B
06/23/2015	10:02:43.548	$GPGGA,100244,2454.4224,N,08023.5684,W,1,9,1.5,9,M,,M,,*66
06/23/2015	10:02:44.527	$GPGGA,100245,2454.4243,N,08023.5663,W,1,9,1.5,9,M,,M,,*6F
06/23/2015	10:02:45.507	$GPGGA,100246,2454.4258,N,08023.5641,W,1,9,1.5,9,M,,M,,*66
06/23/2015	10:02:46.538	$GPGGA,100247,2454.4276,N,08023.5620,W,1,9,1.5,9,M,,M,,*6C
06/23/2015	10:02:47.557	$GPGGA,100248,2454.4294,N,08023.5598,W,1,9,1.5,9,M,,M,,*6F
06/23/2015	10:02:48.517	$GPGGA,100249,2454.4312,N,08023.5577,W,1,9,1.5,9,M,,M,,*60
06/23/2015	10:02:49.538	$GPGGA,100250,2454.4329,N,08023.5555,W,1,9,1.5,9,M,,M,,*60
06/23/2015	10:02:50.639	$GPGGA,100251,2454.4347,N,08023.5532,W,1,9,1.5,9,M,,M,,*68
06/23/2015	10:02:51.553	$GPGGA,100252,2454.4365,N,08023.5512,W,1,9,1.5,9,M,,M,,*69
06/23/2015	10:02:52.517	$GPGGA,100253,2454.4381,N,08023.5491,W,1,9,1.5,9,M,,M,,*68
06/23/2015	10:02:53.907	$GPGGA,100254,2454.4398,N,08023.5468,W,1,9,1.5,9,M,,M,,*61
06/23/2015	10:02:54.507	$GPGGA,100255,2454.4416,N,08023.5447,W,1,9,1.5,9,M,,M,,*6C
06/23/2015	10:02:56.654	$GPGGA,100257,2454.4451,N,08023.5404,W,1,9,1.5,9,M,,M,,*6A
06/23/2015	10:02:57.517	$GPGGA,100258,2454.4467,N,08023.5382,W,1,9,1.5,9,M,,M,,*69
06/23/2015	10:02:58.587	$GPGGA,100259,2454.4484,N,08023.5360,W,1,9,1.5,9,M,,M,,*69
06/23/2015	10:02:59.617	$GPGGA,100300,2454.4500,N,08023.5338,W,1,9,1.5,9,M,,M,,*64
06/23/2015	10:03:00.527	$GPGGA,100301,2454.4518,N,08023.5316,W,1,9,1.5,9,M,,M,,*60
06/23/2015	10:03:01.607	$GPGGA,100302,2454.4535,N,08023.5295,W,1,9,1.5,9,M,,M,,*66
06/23/2015	10:03:02.507	$GPGGA,100303,2454.4552,N,08023.5272,W,1,9,1.5,9,M,,M,,*6F
06/23/2015	10:03:03.538	$GPGGA,100304,2454.4568,N,08023.5250,W,1,9,1.5,9,M,,M,,*61
06/23/2015	10:03:04.487	$GPGGA,100305,2454.4585,N,08023.5230,W,1,9,1.5,9,M,,M,,*65
06/23/2015	10:03:05.567	$GPGGA,100306,2454.4603,N,08023.5208,W,1,9,1.5,9,M,,M,,*60
06/23/2015	10:03:06.577	$GPGGA,100307,2454.4618,N,08023.5186,W,1,9,1.5,9,M,,M,,*6E
06/23/2015	10:03:07.508	$GPGGA,100308,2454.4633,N,08023.5164,W,1,9,1.5,9,M,,M,,*64
06/23/2015	10:03:08.567	$GPGGA,100309,2454.4652,N,08023.5143,W,1,9,1.5,9,M,,M,,*67
06/23/2015	10:03:09.577	$GPGGA,100310,2454.4666,N,08023.5121,W,1,9,1.5,9,M,,M,,*6C
06/23/2015	10:03:10.557	$GPGGA,100311,2454.4683,N,08023.5098,W,1,9,1.5,9,M,,M,,*65
06/23/2015	10:03:11.587	$GPGGA,100312,2454.4699,N,08023.5078,W,1,9,1.5,9,M,,M,,*63
06/23/2015	10:03:12.567	$GPGGA,100313,2454.4699,N,08023.5078,W,1,9,1.5,9,M,,M,,*62
06/23/2015	10:03:13.567	$GPGGA,100314,2454.4731,N,08023.5033,W,1,8,1.5,9,M,,M,,*68
06/23/2015	10:03:14.557	$GPGGA,100315,2454.4747,N,08023.5010,W,1,8,1.5,9,M,,M,,*69
06/23/2015	10:03:15.577	$GPGGA,100316,2454.4763,N,08023.4989,W,1,9,1.7,9,M,,M,,*67
06/23/2015	10:03:16.557	$GPGGA,100317,2454.4778,N,08023.4966,W,1,9,1.7,9,M,,M,,*6D
06/23/2015	10:03:17.539	$GPGGA,100318,2454.4794,N,08023.4943,W,1,9,1.5,9,M,,M,,*65
06/23/2015	10:03:18.557	$GPGGA,100319,2454.4810,N,08023.4920,W,1,9,1.5,9,M,,M,,*62
06/23/2015	10:03:19.577	$GPGGA,100320,2454.4828,N,08023.4898,W,1,9,1.5,9,M,,M,,*61
06/23/2015	10:03:20.547	$GPGGA,100321,2454.4843,N,08023.4876,W,1,9,1.5,9,M,,M,,*6D
06/23/2015	10:03:21.557	$GPGGA,100322,2454.4861,N,08023.4853,W,1,9,1.5,9,M,,M,,*69
06/23/2015	10:03:22.550	$GPGGA,100323,2454.4861,N,08023.4853,W,1,9,1.5,9,M,,M,,*68
06/23/2015	10:03:23.577	$GPGGA,100324,2454.4896,N,08023.4811,W,1,9,1.5,9,M,,M,,*61
06/23/2015	10:03:24.537	$GPGGA,100325,2454.4912,N,08023.4789,W,1,9,1.5,9,M,,M,,*63
06/23/2015	10:03:25.542	$GPGGA,100326,2454.4930,N,08023.4766,W,1,9,1.5,9,M,,M,,*61
06/23/2015	10:03:26.539	$GPGGA,100327,2454.4948,N,08023.4745,W,1,9,1.5,9,M,,M,,*6E
06/23/2015	10:03:27.567	$GPGGA,100328,2454.4966,N,08023.4724,W,1,9,1.5,9,M,,M,,*6A
06/23/2015	10:03:28.527	$GPGGA,100329,2454.4984,N,08023.4703,W,1,9,1.5,9,M,,M,,*62
06/23/2015	10:03:29.527	$GPGGA,100330,2454.5000,N,08023.4681,W,1,9,1.5,9,M,,M,,*65
06/23/2015	10:03:30.518	$GPGGA,100331,2454.5016,N,08023.4659,W,1,9,1.5,9,M,,M,,*66
06/23/2015	10:03:31.549	$GPGGA,100332,2454.5036,N,08023.4639,W,1,9,1.5,9,M,,M,,*61
06/23/2015	10:03:32.527	$GPGGA,100333,2454.5053,N,08023.4618,W,1,9,1.5,9,M,,M,,*60
06/23/2015	10:03:33.543	$GPGGA,100334,2454.5070,N,08023.4595,W,1,9,1.5,9,M,,M,,*60
06/23/2015	10:03:34.527	$GPGGA,100335,2454.5088,N,08023.4574,W,1,9,1.5,9,M,,M,,*69
06/23/2015	10:03:35.527	$GPGGA,100336,2454.5107,N,08023.4555,W,1,9,1.5,9,M,,M,,*6F
06/23/2015	10:03:36.517	$GPGGA,100337,2454.5123,N,08023.4532,W,1,9,1.5,9,M,,M,,*69
06/23/2015	10:03:37.538	$GPGGA,100338,2454.5139,N,08023.4511,W,1,9,1.5,9,M,,M,,*6C
06/23/2015	10:03:38.497	$GPGGA,100339,2454.5157,N,08023.4491,W,1,9,1.5,9,M,,M,,*6C
06/23/2015	10:03:39.527	$GPGGA,100340,2454.5175,N,08023.4469,W,1,9,1.5,9,M,,M,,*65
06/23/2015	10:03:40.507	$GPGGA,100341,2454.5192,N,08023.4448,W,1,9,1.5,9,M,,M,,*6E
06/23/2015	10:03:41.527	$GPGGA,100342,2454.5211,N,08023.4427,W,1,9,1.5,9,M,,M,,*6C
06/23/2015	10:03:42.507	$GPGGA,100343,2454.5226,N,08023.4405,W,1,9,1.5,9,M,,M,,*69
06/23/2015	10:03:43.527	$GPGGA,100344,2454.5244,N,08023.4384,W,1,9,1.5,9,M,,M,,*64
06/23/2015	10:03:44.497	$GPGGA,100345,2454.5262,N,08023.4363,W,1,9,1.5,9,M,,M,,*68
06/23/2015	10:03:45.507	$GPGGA,100346,2454.5279,N,08023.4342,W,1,9,1.5,9,M,,M,,*62
06/23/2015	10:03:46.497	$GPGGA,100347,2454.5294,N,08023.4320,W,1,9,1.5,9,M,,M,,*64
06/23/2015	10:03:47.627	$GPGGA,100348,2454.5313,N,08023.4299,W,1,9,1.5,9,M,,M,,*66
06/23/2015	10:03:48.497	$GPGGA,100349,2454.5330,N,08023.4278,W,1,9,1.5,9,M,,M,,*69
06/23/2015	10:03:49.607	$GPGGA,100350,2454.5347,N,08023.4256,W,1,9,1.5,9,M,,M,,*6D
06/23/2015	10:03:50.498	$GPGGA,100351,2454.5365,N,08023.4235,W,1,9,1.5,9,M,,M,,*69
06/23/2015	10:03:51.627	$GPGGA,100352,2454.5381,N,08023.4213,W,1,9,1.5,9,M,,M,,*64
06/23/2015	10:03:52.577	$GPGGA,100353,2454.5398,N,08023.4191,W,1,9,1.5,9,M,,M,,*64
06/23/2015	10:03:53.477	$GPGGA,100354,2454.5416,N,08023.4170,W,1,9,1.5,9,M,,M,,*6D
06/23/2015	10:03:54.567	$GPGGA,100355,2454.5432,N,08023.4148,W,1,9,1.5,9,M,,M,,*61
06/23/2015	10:03:55.617	$GPGGA,100356,2454.5450,N,08023.4126,W,1,9,1.5,9,M,,M,,*6E
06/23/2015	10:03:56.557	$GPGGA,100357,2454.5467,N,08023.4104,W,1,9,1.5,9,M,,M,,*6B
06/23/2015	10:03:57.577	$GPGGA,100358,2454.5484,N,08023.4083,W,1,9,1.5,9,M,,M,,*67
06/23/2015	10:03:58.559	$GPGGA,100359,2454.5500,N,08023.4060,W,1,9,1.5,9,M,,M,,*66
06/23/2015	10:03:59.607	$GPGGA,100400,2454.5517,N,08023.4038,W,1,9,1.5,9,M,,M,,*66
06/23/2015	10:04:00.567	$GPGGA,100401,2454.5533,N,08023.4017,W,1,9,1.5,9,M,,M,,*6C
06/23/2015	10:04:01.577	$GPGGA,100402,2454.5550,N,08023.3994,W,1,8,1.7,9,M,,M,,*6C
06/23/2015	10:04:02.557	$GPGGA,100403,2454.5565,N,08023.3972,W,1,8,1.5,9,M,,M,,*61
06/23/2015	10:04:03.577	$GPGGA,100404,2454.5580,N,08023.3949,W,1,9,1.5,9,M,,M,,*64
06/23/2015	10:04:04.557	$GPGGA,100405,2454.5597,N,08023.3927,W,1,9,1.5,9,M,,M,,*6B
06/23/2015	10:04:05.567	$GPGGA,100406,2454.5613,N,08023.3906,W,1,9,1.5,9,M,,M,,*64
06/23/2015	10:04:06.557	$GPGGA,100407,2454.5629,N,08023.3883,W,1,9,1.5,9,M,,M,,*60
06/23/2015	10:04:07.577	$GPGGA,100408,2454.5647,N,08023.3861,W,1,9,1.5,9,M,,M,,*6B
06/23/2015	10:04:08.550	$GPGGA,100409,2454.5663,N,08023.3839,W,1,9,1.5,9,M,,M,,*61
06/23/2015	10:04:09.557	$GPGGA,100410,2454.5680,N,08023.3816,W,1,9,1.5,9,M,,M,,*69
06/23/2015	10:04:10.537	$GPGGA,100411,2454.5696,N,08023.3795,W,1,9,1.5,9,M,,M,,*6B
06/23/2015	10:04:11.577	$GPGGA,100412,2454.5712,N,08023.3772,W,1,9,1.5,9,M,,M,,*6C
06/23/2015	10:04:12.539	$GPGGA,100413,2454.5728,N,08023.3750,W,1,9,1.5,9,M,,M,,*64
06/23/2015	10:04:13.554	$GPGGA,100414,2454.5746,N,08023.3729,W,1,9,1.5,9,M,,M,,*65
06/23/2015	10:04:14.543	$GPGGA,100415,2454.5761,N,08023.3706,W,1,9,1.5,9,M,,M,,*6C
06/23/2015	10:04:15.557	$GPGGA,100416,2454.5779,N,08023.3684,W,1,9,1.5,9,M,,M,,*6D
06/23/2015	10:04:16.540	$GPGGA,100417,2454.5797,N,08023.3662,W,1,9,1.5,9,M,,M,,*64
06/23/2015	10:04:17.539	$GPGGA,100418,2454.5811,N,08023.3639,W,1,9,1.5,10,M,,M,,*5C
06/23/2015	10:04:18.539	$GPGGA,100419,2454.5829,N,08023.3618,W,1,9,1.5,10,M,,M,,*55
06/23/2015	10:04:19.567	$GPGGA,100420,2454.5847,N,08023.3597,W,1,9,1.5,10,M,,M,,*53
06/23/2015	10:04:20.527	$GPGGA,100421,2454.5862,N,08023.3574,W,1,9,1.5,10,M,,M,,*58
06/23/2015	10:04:21.550	$GPGGA,100422,2454.5880,N,08023.3552,W,1,9,1.5,10,M,,M,,*53
06/23/2015	10:04:22.527	$GPGGA,100423,2454.5898,N,08023.3530,W,1,9,1.5,10,M,,M,,*5F
06/23/2015	10:04:23.550	$GPGGA,100424,2454.5915,N,08023.3509,W,1,9,1.5,10,M,,M,,*56
06/23/2015	10:04:24.527	$GPGGA,100425,2454.5932,N,08023.3487,W,1,9,1.5,10,M,,M,,*55
06/23/2015	10:04:25.548	$GPGGA,100426,2454.5948,N,08023.3464,W,1,9,1.5,10,M,,M,,*56
06/23/2015	10:04:26.507	$GPGGA,100427,2454.5966,N,08023.3444,W,1,9,1.5,10,M,,M,,*59
06/23/2015	10:04:27.537	$GPGGA,100428,2454.5983,N,08023.3423,W,1,9,1.5,10,M,,M,,*5C
06/23/2015	10:04:28.497	$GPGGA,100429,2454.5999,N,08023.3400,W,1,9,1.5,10,M,,M,,*57
06/23/2015	10:04:29.517	$GPGGA,100430,2454.6016,N,08023.3378,W,1,9,1.5,10,M,,M,,*5A
06/23/2015	10:04:30.517	$GPGGA,100431,2454.6034,N,08023.3356,W,1,9,1.5,10,M,,M,,*57
06/23/2015	10:04:31.627	$GPGGA,100432,2454.6052,N,08023.3336,W,1,9,1.5,10,M,,M,,*52
06/23/2015	10:04:32.586	$GPGGA,100433,2454.6070,N,08023.3314,W,1,9,1.5,10,M,,M,,*53
06/23/2015	10:04:33.487	$GPGGA,100434,2454.6086,N,08023.3292,W,1,9,1.5,10,M,,M,,*52
06/23/2015	10:04:34.497	$GPGGA,100435,2454.6104,N,08023.3271,W,1,9,1.5,10,M,,M,,*55
06/23/2015	10:04:35.607	$GPGGA,100436,2454.6122,N,08023.3250,W,1,9,1.5,10,M,,M,,*51
06/23/2015	10:04:36.607	$GPGGA,100437,2454.6139,N,08023.3230,W,1,9,1.5,10,M,,M,,*5C
06/23/2015	10:04:37.577	$GPGGA,100438,2454.6156,N,08023.3208,W,1,9,1.5,10,M,,M,,*51
06/23/2015	10:04:38.497	$GPGGA,100439,2454.6172,N,08023.3187,W,1,9,1.5,10,M,,M,,*52
06/23/2015	10:04:39.517	$GPGGA,100440,2454.6190,N,08023.3167,W,1,9,1.5,10,M,,M,,*5E
06/23/2015	10:04:40.577	$GPGGA,100441,2454.6208,N,08023.3146,W,1,9,1.5,10,M,,M,,*5E
06/23/2015	10:04:41.487	$GPGGA,100442,2454.6223,N,08023.3125,W,1,9,1.5,10,M,,M,,*51
06/23/2015	10:04:42.587	$GPGGA,100443,2454.6241,N,08023.3104,W,1,9,1.5,10,M,,M,,*57
06/23/2015	10:04:43.607	$GPGGA,100444,2454.6259,N,08023.3084,W,1,9,1.5,10,M,,M,,*50
06/23/2015	10:04:44.567	$GPGGA,100445,2454.6276,N,08023.3063,W,1,9,1.5,10,M,,M,,*55
06/23/2015	10:04:46.080	$GPGGA,100446,2454.6294,N,08023.3041,W,1,9,1.5,10,M,,M,,*5A
06/23/2015	10:04:46.567	$GPGGA,100447,2454.6310,N,08023.3021,W,1,9,1.5,10,M,,M,,*50
06/23/2015	10:04:47.587	$GPGGA,100448,2454.6328,N,08023.3000,W,1,9,1.5,10,M,,M,,*57
06/23/2015	10:04:48.577	$GPGGA,100449,2454.6346,N,08023.2978,W,1,9,1.5,10,M,,M,,*59
06/23/2015	10:04:49.607	$GPGGA,100450,2454.6363,N,08023.2957,W,1,9,1.5,10,M,,M,,*5B
06/23/2015	10:04:50.567	$GPGGA,100451,2454.6380,N,08023.2936,W,1,9,1.5,10,M,,M,,*50
06/23/2015	10:04:51.607	$GPGGA,100452,2454.6398,N,08023.2915,W,1,9,1.5,10,M,,M,,*5B
06/23/2015	10:04:52.550	$GPGGA,100453,2454.6414,N,08023.2894,W,1,9,1.5,10,M,,M,,*51
06/23/2015	10:04:53.557	$GPGGA,100454,2454.6432,N,08023.2872,W,1,9,1.5,10,M,,M,,*5A
06/23/2015	10:04:54.577	$GPGGA,100455,2454.6449,N,08023.2851,W,1,9,1.5,10,M,,M,,*56
06/23/2015	10:04:55.577	$GPGGA,100456,2454.6467,N,08023.2830,W,1,9,1.5,10,M,,M,,*5E
06/23/2015	10:04:56.551	$GPGGA,100457,2454.6483,N,08023.2808,W,1,9,1.5,10,M,,M,,*5E
06/23/2015	10:04:57.554	$GPGGA,100458,2454.6501,N,08023.2787,W,1,9,1.5,10,M,,M,,*52
06/23/2015	10:04:58.554	$GPGGA,100459,2454.6519,N,08023.2765,W,1,9,1.5,10,M,,M,,*56
06/23/2015	10:04:59.687	$GPGGA,100500,2454.6536,N,08023.2743,W,1,9,1.5,10,M,,M,,*52
06/23/2015	10:05:00.527	$GPGGA,100501,2454.6554,N,08023.2722,W,1,9,1.5,10,M,,M,,*50
06/23/2015	10:05:01.557	$GPGGA,100502,2454.6570,N,08023.2701,W,1,9,1.5,10,M,,M,,*54
06/23/2015	10:05:02.545	$GPGGA,100503,2454.6588,N,08023.2678,W,1,9,1.5,10,M,,M,,*5D
06/23/2015	10:05:03.550	$GPGGA,100504,2454.6605,N,08023.2658,W,1,9,1.5,10,M,,M,,*5E
06/23/2015	10:05:04.537	$GPGGA,100505,2454.6622,N,08023.2635,W,1,9,1.5,10,M,,M,,*51
06/23/2015	10:05:05.555	$GPGGA,100506,2454.6638,N,08023.2613,W,1,9,1.5,10,M,,M,,*5D
06/23/2015	10:05:06.527	$GPGGA,100507,2454.6656,N,08023.2592,W,1,9,1.5,10,M,,M,,*5E
06/23/2015	10:05:07.557	$GPGGA,100508,2454.6674,N,08023.2571,W,1,9,1.5,10,M,,M,,*5C
06/23/2015	10:05:08.527	$GPGGA,100509,2454.6689,N,08023.2548,W,1,9,1.5,10,M,,M,,*55
06/23/2015	10:05:09.527	$GPGGA,100510,2454.6707,N,08023.2527,W,1,9,1.5,10,M,,M,,*53
06/23/2015	10:05:10.507	$GPGGA,100511,2454.6725,N,08023.2505,W,1,9,1.5,10,M,,M,,*52
06/23/2015	10:05:11.537	$GPGGA,100512,2454.6742,N,08023.2484,W,1,9,1.5,10,M,,M,,*58
06/23/2015	10:05:12.507	$GPGGA,100513,2454.6757,N,08023.2461,W,1,9,1.5,10,M,,M,,*56
06/23/2015	10:05:13.517	$GPGGA,100514,2454.6775,N,08023.2439,W,1,9,1.5,10,M,,M,,*5C
06/23/2015	10:05:14.527	$GPGGA,100515,2454.6792,N,08023.2417,W,1,9,1.5,10,M,,M,,*58
06/23/2015	10:05:15.540	$GPGGA,100516,2454.6808,N,08023.2396,W,1,9,1.5,10,M,,M,,*59
06/23/2015	10:05:16.640	$GPGGA,100517,2454.6826,N,08023.2373,W,1,9,1.5,10,M,,M,,*5F
06/23/2015	10:05:17.517	$GPGGA,100518,2454.6841,N,08023.2351,W,1,9,1.5,10,M,,M,,*51
06/23/2015	10:05:18.517	$GPGGA,100519,2454.6859,N,08023.2329,W,1,9,1.5,10,M,,M,,*56
06/23/2015	10:05:19.639	$GPGGA,100520,2454.6876,N,08023.2307,W,1,9,1.5,10,M,,M,,*5D
06/23/2015	10:05:20.507	$GPGGA,100521,2454.6891,N,08023.2284,W,1,9,1.5,9,M,,M,,*67
06/23/2015	10:05:21.517	$GPGGA,100522,2454.6906,N,08023.2261,W,1,8,2.2,9,M,,M,,*65
06/23/2015	10:05:22.487	$GPGGA,100523,2454.6924,N,08023.2240,W,1,8,2.2,9,M,,M,,*67
06/23/2015	10:05:23.517	$GPGGA,100524,2454.6941,N,08023.2217,W,1,9,1.5,9,M,,M,,*64
06/23/2015	10:05:24.627	$GPGGA,100525,2454.6959,N,08023.2195,W,1,9,1.5,9,M,,M,,*65
06/23/2015	10:05:25.667	$GPGGA,100526,2454.6975,N,08023.2174,W,1,9,1.5,9,M,,M,,*67
06/23/2015	10:05:26.577	$GPGGA,100527,2454.6993,N,08023.2151,W,1,9,1.5,9,M,,M,,*69
06/23/2015	10:05:27.497	$GPGGA,100528,2454.7010,N,08023.2129,W,1,9,1.5,9,M,,M,,*6A
06/23/2015	10:05:28.487	$GPGGA,100529,2454.7027,N,08023.2108,W,1,9,1.5,9,M,,M,,*6C
06/23/2015	10:05:29.577	$GPGGA,100530,2454.7043,N,08023.2086,W,1,9,1.5,10,M,,M,,*59
06/23/2015	10:05:30.607	$GPGGA,100531,2454.7060,N,08023.2063,W,1,9,1.5,10,M,,M,,*52
06/23/2015	10:05:32.597	$GPGGA,100532,2454.7076,N,08023.2041,W,1,9,1.5,10,M,,M,,*56
06/23/2015	10:05:32.627	$GPGGA,100533,2454.7094,N,08023.2020,W,1,9,1.5,10,M,,M,,*5C
06/23/2015	10:05:33.567	$GPGGA,100534,2454.7112,N,08023.1998,W,1,9,1.5,10,M,,M,,*5D
06/23/2015	10:05:34.567	$GPGGA,100535,2454.7129,N,08023.1976,W,1,9,1.5,10,M,,M,,*54
06/23/2015	10:05:35.667	$GPGGA,100536,2454.7146,N,08023.1954,W,1,9,1.5,10,M,,M,,*5E
06/23/2015	10:05:36.617	$GPGGA,100537,2454.7164,N,08023.1933,W,1,9,1.5,10,M,,M,,*5E
06/23/2015	10:05:37.667	$GPGGA,100538,2454.7182,N,08023.1912,W,1,9,1.5,10,M,,M,,*5A
06/23/2015	10:05:38.587	$GPGGA,100539,2454.7198,N,08023.1890,W,1,9,1.5,10,M,,M,,*5B
06/23/2015	10:05:39.667	$GPGGA,100540,2454.7216,N,08023.1867,W,1,9,1.5,10,M,,M,,*58
06/23/2015	10:05:40.587	$GPGGA,100541,2454.7234,N,08023.1847,W,1,9,1.5,11,M,,M,,*5A
06/23/2015	10:05:41.657	$GPGGA,100542,2454.7252,N,08023.1826,W,1,9,1.5,11,M,,M,,*5E
06/23/2015	10:05:42.586	$GPGGA,100543,2454.7269,N,08023.1803,W,1,9,1.5,11,M,,M,,*50
06/23/2015	10:05:43.667	$GPGGA,100544,2454.7285,N,08023.1783,W,1,9,1.5,11,M,,M,,*52
06/23/2015	10:05:44.540	$GPGGA,100545,2454.7305,N,08023.1762,W,1,9,1.5,11,M,,M,,*55
06/23/2015	10:05:45.607	$GPGGA,100546,2454.7321,N,08023.1741,W,1,9,1.5,11,M,,M,,*51
06/23/2015	10:05:46.567	$GPGGA,100547,2454.7339,N,08023.1720,W,1,9,1.5,11,M,,M,,*5E
06/23/2015	10:05:47.667	$GPGGA,100548,2454.7357,N,08023.1698,W,1,9,1.5,11,M,,M,,*5B
06/23/2015	10:05:48.547	$GPGGA,100549,2454.7372,N,08023.1677,W,1,9,1.5,11,M,,M,,*5C
06/23/2015	10:05:49.527	$GPGGA,100550,2454.7390,N,08023.1656,W,1,9,1.5,11,M,,M,,*5B
06/23/2015	10:05:50.538	$GPGGA,100551,2454.7408,N,08023.1635,W,1,9,1.5,11,M,,M,,*59
06/23/2015	10:05:51.677	$GPGGA,100552,2454.7425,N,08023.1613,W,1,9,1.5,11,M,,M,,*51
06/23/2015	10:05:52.557	$GPGGA,100553,2454.7443,N,08023.1592,W,1,9,1.5,11,M,,M,,*5A
06/23/2015	10:05:53.627	$GPGGA,100554,2454.7458,N,08023.1571,W,1,9,1.5,11,M,,M,,*5A
06/23/2015	10:05:54.547	$GPGGA,100555,2454.7476,N,08023.1548,W,1,9,1.5,11,M,,M,,*5D
06/23/2015	10:05:55.651	$GPGGA,100556,2454.7493,N,08023.1527,W,1,9,1.5,11,M,,M,,*5C
06/23/2015	10:05:56.557	$GPGGA,100557,2454.7509,N,08023.1507,W,1,9,1.5,11,M,,M,,*5D
06/23/2015	10:05:57.517	$GPGGA,100558,2454.7527,N,08023.1485,W,1,9,1.5,11,M,,M,,*55
06/23/2015	10:05:58.557	$GPGGA,100559,2454.7542,N,08023.1462,W,1,9,1.5,11,M,,M,,*5E
06/23/2015	10:05:59.527	$GPGGA,100600,2454.7560,N,08023.1441,W,1,9,1.5,11,M,,M,,*50
06/23/2015	10:06:00.507	$GPGGA,100601,2454.7578,N,08023.1420,W,1,9,1.5,11,M,,M,,*5F
06/23/2015	10:06:01.597	$GPGGA,100602,2454.7595,N,08023.1398,W,1,9,1.5,11,M,,M,,*5B
06/23/2015	10:06:02.507	$GPGGA,100603,2454.7610,N,08023.1376,W,1,9,1.5,11,M,,M,,*54
06/23/2015	10:06:03.507	$GPGGA,100604,2454.7628,N,08023.1355,W,1,9,1.5,11,M,,M,,*59
06/23/2015	10:06:04.597	$GPGGA,100605,2454.7646,N,08023.1333,W,1,9,1.5,11,M,,M,,*50
06/23/2015	10:06:05.627	$GPGGA,100606,2454.7661,N,08023.1311,W,1,9,1.5,11,M,,M,,*56
06/23/2015	10:06:06.550	$GPGGA,100607,2454.7679,N,08023.1289,W,1,9,1.5,11,M,,M,,*5E
06/23/2015	10:06:07.627	$GPGGA,100608,2454.7697,N,08023.1268,W,1,9,1.5,11,M,,M,,*5E
06/23/2015	10:06:08.538	$GPGGA,100609,2454.7714,N,08023.1246,W,1,9,1.5,11,M,,M,,*59
06/23/2015	10:06:09.577	$GPGGA,100610,2454.7729,N,08023.1224,W,1,9,1.5,11,M,,M,,*5B
06/23/2015	10:06:10.527	$GPGGA,100611,2454.7747,N,08023.1202,W,1,9,1.5,11,M,,M,,*56
06/23/2015	10:06:11.497	$GPGGA,100612,2454.7764,N,08023.1179,W,1,9,1.5,11,M,,M,,*5B
06/23/2015	10:06:12.507	$GPGGA,100613,2454.7780,N,08023.1158,W,1,9,1.5,11,M,,M,,*53
06/23/2015	10:06:13.607	$GPGGA,100614,2454.7798,N,08023.1136,W,1,9,1.5,11,M,,M,,*55
06/23/2015	10:06:14.528	$GPGGA,100615,2454.7813,N,08023.1113,W,1,9,1.5,11,M,,M,,*5F
06/23/2015	10:06:15.587	$GPGGA,100616,2454.7831,N,08023.1092,W,1,9,1.5,11,M,,M,,*54
06/23/2015	10:06:16.577	$GPGGA,100617,2454.7849,N,08023.1069,W,1,9,1.5,11,M,,M,,*5E
06/23/2015	10:06:17.576	$GPGGA,100618,2454.7865,N,08023.1047,W,1,9,1.5,11,M,,M,,*53
06/23/2015	10:06:18.577	$GPGGA,100619,2454.7881,N,08023.1025,W,1,9,1.5,11,M,,M,,*5C
06/23/2015	10:06:19.640	$GPGGA,100620,2454.7899,N,08023.1003,W,1,9,1.5,11,M,,M,,*5B
06/23/2015	10:06:20.567	$GPGGA,100621,2454.7916,N,08023.0981,W,1,9,1.5,11,M,,M,,*5E
06/23/2015	10:06:21.568	$GPGGA,100622,2454.7932,N,08023.0958,W,1,9,1.5,11,M,,M,,*5F
06/23/2015	10:06:22.567	$GPGGA,100623,2454.7950,N,08023.0938,W,1,9,1.5,11,M,,M,,*5C
06/23/2015	10:06:23.628	$GPGGA,100624,2454.7950,N,08023.0938,W,1,9,1.5,11,M,,M,,*5B
06/23/2015	10:06:24.567	$GPGGA,100625,2454.7984,N,08023.0894,W,1,9,1.5,11,M,,M,,*54
06/23/2015	10:06:25.577	$GPGGA,100626,2454.8000,N,08023.0873,W,1,9,1.5,10,M,,M,,*55
06/23/2015	10:06:26.567	$GPGGA,100627,2454.8018,N,08023.0851,W,1,9,1.5,10,M,,M,,*5D
06/23/2015	10:06:27.607	$GPGGA,100628,2454.8035,N,08023.0829,W,1,9,1.5,10,M,,M,,*52
06/23/2015	10:06:28.567	$GPGGA,100629,2454.8053,N,08023.0807,W,1,9,1.5,10,M,,M,,*5F
06/23/2015	10:06:29.567	$GPGGA,100630,2454.8071,N,08023.0785,W,1,9,1.5,10,M,,M,,*52
06/23/2015	10:06:30.557	$GPGGA,100631,2454.8087,N,08023.0764,W,1,9,1.5,10,M,,M,,*55
06/23/2015	10:06:31.617	$GPGGA,100632,2454.8087,N,08023.0764,W,1,9,1.5,10,M,,M,,*56
06/23/2015	10:06:32.549	$GPGGA,100633,2454.8122,N,08023.0721,W,1,9,1.5,10,M,,M,,*58
06/23/2015	10:06:33.597	$GPGGA,100634,2454.8138,N,08023.0700,W,1,9,1.5,10,M,,M,,*57
06/23/2015	10:06:34.547	$GPGGA,100635,2454.8156,N,08023.0678,W,1,9,1.5,10,M,,M,,*50
06/23/2015	10:06:35.587	$GPGGA,100636,2454.8173,N,08023.0657,W,1,9,1.5,10,M,,M,,*59
06/23/2015	10:06:36.557	$GPGGA,100637,2454.8190,N,08023.0635,W,1,9,1.5,10,M,,M,,*51
06/23/2015	10:06:37.557	$GPGGA,100638,2454.8206,N,08023.0614,W,1,9,1.5,10,M,,M,,*51
06/23/2015	10:06:38.538	$GPGGA,100639,2454.8206,N,08023.0614,W,1,9,1.5,10,M,,M,,*50
06/23/2015	10:06:39.607	$GPGGA,100640,2454.8242,N,08023.0572,W,1,9,1.5,10,M,,M,,*5D
06/23/2015	10:06:40.538	$GPGGA,100641,2454.8257,N,08023.0551,W,1,9,1.5,10,M,,M,,*59
06/23/2015	10:06:41.548	$GPGGA,100642,2454.8257,N,08023.0551,W,1,9,1.5,10,M,,M,,*5A
06/23/2015	10:06:42.539	$GPGGA,100643,2454.8293,N,08023.0508,W,1,9,1.5,10,M,,M,,*5F
06/23/2015	10:06:43.587	$GPGGA,100644,2454.8310,N,08023.0488,W,1,9,1.5,10,M,,M,,*5B
06/23/2015	10:06:44.527	$GPGGA,100645,2454.8328,N,08023.0467,W,1,9,1.5,10,M,,M,,*50
06/23/2015	10:06:45.587	$GPGGA,100646,2454.8344,N,08023.0445,W,1,9,1.5,10,M,,M,,*59
06/23/2015	10:06:46.527	$GPGGA,100647,2454.8361,N,08023.0424,W,1,9,1.5,10,M,,M,,*58
06/23/2015	10:06:47.539	$GPGGA,100648,2454.8361,N,08023.0424,W,1,9,1.5,10,M,,M,,*57
06/23/2015	10:06:48.617	$GPGGA,100649,2454.8396,N,08023.0381,W,1,9,1.5,10,M,,M,,*56
06/23/2015	10:06:49.567	$GPGGA,100650,2454.8412,N,08023.0359,W,1,9,1.5,10,M,,M,,*50
06/23/2015	10:06:50.537	$GPGGA,100651,2454.8430,N,08023.0338,W,1,9,1.5,10,M,,M,,*56
06/23/2015	10:06:51.847	$GPGGA,100652,2454.8430,N,08023.0338,W,1,9,1.5,10,M,,M,,*55
06/23/2015	10:06:52.516	$GPGGA,100653,2454.8463,N,08023.0294,W,1,9,1.5,10,M,,M,,*55
06/23/2015	10:06:53.527	$GPGGA,100654,2454.8463,N,08023.0294,W,1,9,1.5,10,M,,M,,*52
06/23/2015	10:06:54.617	$GPGGA,100655,2454.8499,N,08023.0251,W,1,9,1.5,10,M,,M,,*5F
06/23/2015	10:06:55.917	$GPGGA,100656,2454.8516,N,08023.0229,W,1,9,1.5,10,M,,M,,*55
06/23/2015	10:06:56.487	$GPGGA,100657,2454.8532,N,08023.0207,W,1,9,1.5,10,M,,M,,*5E
06/23/2015	10:06:57.557	$GPGGA,100658,2454.8549,N,08023.0186,W,1,9,1.5,10,M,,M,,*57
06/23/2015	10:06:58.527	$GPGGA,100659,2454.8568,N,08023.0164,W,1,9,1.5,10,M,,M,,*59
06/23/2015	10:06:59.637	$GPGGA,100700,2454.8584,N,08023.0142,W,1,9,1.5,10,M,,M,,*52
06/23/2015	10:07:00.507	$GPGGA,100701,2454.8600,N,08023.0120,W,1,9,1.5,10,M,,M,,*58
06/23/2015	10:07:01.587	$GPGGA,100702,2454.8618,N,08023.0098,W,1,9,1.5,10,M,,M,,*50
06/23/2015	10:07:02.587	$GPGGA,100703,2454.8636,N,08023.0076,W,1,9,1.5,10,M,,M,,*5D
06/23/2015	10:07:03.507	$GPGGA,100704,2454.8636,N,08023.0076,W,1,9,1.5,9,M,,M,,*62
06/23/2015	10:07:04.487	$GPGGA,100705,2454.8669,N,08023.0033,W,1,9,1.5,9,M,,M,,*68
06/23/2015	10:07:05.597	$GPGGA,100706,2454.8687,N,08023.0011,W,1,9,1.5,9,M,,M,,*6B
06/23/2015	10:07:06.577	$GPGGA,100707,2454.8704,N,08022.9989,W,1,9,1.5,9,M,,M,,*60
06/23/2015	10:07:07.587	$GPGGA,100708,2454.8722,N,08022.9969,W,1,9,1.5,9,M,,M,,*65
06/23/2015	10:07:08.567	$GPGGA,100709,2454.8738,N,08022.9946,W,1,9,1.5,9,M,,M,,*62
06/23/2015	10:07:09.577	$GPGGA,100710,2454.8755,N,08022.9924,W,1,9,1.5,9,M,,M,,*65
06/23/2015	10:07:10.567	$GPGGA,100711,2454.8773,N,08022.9903,W,1,9,1.5,9,M,,M,,*65
06/23/2015	10:07:11.565	$GPGGA,100712,2454.8791,N,08022.9882,W,1,9,1.5,9,M,,M,,*62
06/23/2015	10:07:12.555	$GPGGA,100713,2454.8806,N,08022.9859,W,1,9,1.5,9,M,,M,,*64
06/23/2015	10:07:13.565	$GPGGA,100714,2454.8824,N,08022.9839,W,1,9,1.5,9,M,,M,,*65
06/23/2015	10:07:14.545	$GPGGA,100715,2454.8842,N,08022.9818,W,1,9,1.5,9,M,,M,,*67
06/23/2015	10:07:15.555	$GPGGA,100716,2454.8842,N,08022.9818,W,1,9,1.5,9,M,,M,,*64
06/23/2015	10:07:16.555	$GPGGA,100717,2454.8875,N,08022.9773,W,1,9,1.5,9,M,,M,,*63
06/23/2015	10:07:17.555	$GPGGA,100718,2454.8892,N,08022.9752,W,1,9,1.5,9,M,,M,,*66
06/23/2015	10:07:18.545	$GPGGA,100719,2454.8909,N,08022.9730,W,1,9,1.5,9,M,,M,,*60
06/23/2015	10:07:19.585	$GPGGA,100720,2454.8925,N,08022.9708,W,1,9,1.5,9,M,,M,,*6F
06/23/2015	10:07:20.536	$GPGGA,100721,2454.8942,N,08022.9686,W,1,9,1.5,9,M,,M,,*68
06/23/2015	10:07:21.527	$GPGGA,100722,2454.8958,N,08022.9664,W,1,9,1.5,9,M,,M,,*6C
06/23/2015	10:07:22.535	$GPGGA,100723,2454.8975,N,08022.9642,W,1,9,1.5,9,M,,M,,*66
06/23/2015	10:07:23.565	$GPGGA,100724,2454.8992,N,08022.9621,W,1,9,1.5,9,M,,M,,*6D
06/23/2015	10:07:24.515	$GPGGA,100725,2454.9010,N,08022.9599,W,1,9,1.5,9,M,,M,,*6E
06/23/2015	10:07:25.555	$GPGGA,100726,2454.9026,N,08022.9576,W,1,9,1.5,9,M,,M,,*69
06/23/2015	10:07:26.528	$GPGGA,100727,2454.9041,N,08022.9554,W,1,9,1.5,9,M,,M,,*69
06/23/2015	10:07:27.554	$GPGGA,100728,2454.9059,N,08022.9532,W,1,9,1.5,9,M,,M,,*6F
06/23/2015	10:07:28.515	$GPGGA,100729,2454.9077,N,08022.9511,W,1,9,1.5,9,M,,M,,*63
06/23/2015	10:07:29.515	$GPGGA,100730,2454.9091,N,08022.9487,W,1,9,1.5,9,M,,M,,*6D
06/23/2015	10:07:30.515	$GPGGA,100731,2454.9109,N,08022.9466,W,1,9,1.5,9,M,,M,,*63
06/23/2015	10:07:31.575	$GPGGA,100732,2454.9127,N,08022.9444,W,1,9,1.5,9,M,,M,,*6C
06/23/2015	10:07:32.505	$GPGGA,100733,2454.9142,N,08022.9421,W,1,9,1.5,9,M,,M,,*6D
06/23/2015	10:07:33.528	$GPGGA,100734,2454.9160,N,08022.9399,W,1,9,1.5,9,M,,M,,*6E
06/23/2015	10:07:34.495	$GPGGA,100735,2454.9177,N,08022.9377,W,1,9,1.5,9,M,,M,,*69
06/23/2015	10:07:35.515	$GPGGA,100736,2454.9193,N,08022.9355,W,1,9,1.5,9,M,,M,,*60
06/23/2015	10:07:36.615	$GPGGA,100737,2454.9210,N,08022.9333,W,1,9,1.5,8,M,,M,,*68
06/23/2015	10:07:37.495	$GPGGA,100738,2454.9227,N,08022.9311,W,1,9,1.5,8,M,,M,,*63
06/23/2015	10:07:38.505	$GPGGA,100739,2454.9245,N,08022.9290,W,1,9,1.5,8,M,,M,,*6E
06/23/2015	10:07:39.515	$GPGGA,100740,2454.9261,N,08022.9267,W,1,9,1.5,8,M,,M,,*6E
06/23/2015	10:07:40.585	$GPGGA,100741,2454.9278,N,08022.9246,W,1,9,1.5,8,M,,M,,*64
06/23/2015	10:07:41.505	$GPGGA,100742,2454.9296,N,08022.9225,W,1,9,1.5,8,M,,M,,*62
06/23/2015	10:07:42.475	$GPGGA,100743,2454.9312,N,08022.9203,W,1,9,1.5,8,M,,M,,*6A
06/23/2015	10:07:43.515	$GPGGA,100744,2454.9329,N,08022.9181,W,1,9,1.5,8,M,,M,,*6C
06/23/2015	10:07:44.485	$GPGGA,100745,2454.9347,N,08022.9160,W,1,9,1.5,8,M,,M,,*6A
06/23/2015	10:07:45.585	$GPGGA,100746,2454.9365,N,08022.9139,W,1,9,1.5,8,M,,M,,*65
06/23/2015	10:07:46.485	$GPGGA,100747,2454.9381,N,08022.9117,W,1,9,1.5,8,M,,M,,*62
06/23/2015	10:07:47.495	$GPGGA,100748,2454.9398,N,08022.9094,W,1,9,1.5,8,M,,M,,*6F
06/23/2015	10:07:48.585	$GPGGA,100749,2454.9417,N,08022.9075,W,1,9,1.5,8,M,,M,,*61
06/23/2015	10:07:49.585	$GPGGA,100750,2454.9435,N,08022.9054,W,1,9,1.5,8,M,,M,,*6A
06/23/2015	10:07:50.485	$GPGGA,100751,2454.9451,N,08022.9031,W,1,9,1.5,8,M,,M,,*6A
06/23/2015	10:07:51.595	$GPGGA,100752,2454.9469,N,08022.9009,W,1,9,1.5,8,M,,M,,*69
06/23/2015	10:07:52.475	$GPGGA,100753,2454.9488,N,08022.8989,W,1,9,1.5,8,M,,M,,*67
06/23/2015	10:07:53.575	$GPGGA,100754,2454.9506,N,08022.8968,W,1,9,1.5,8,M,,M,,*68
06/23/2015	10:07:54.555	$GPGGA,100755,2454.9521,N,08022.8945,W,1,9,1.5,8,M,,M,,*63
06/23/2015	10:07:55.605	$GPGGA,100756,2454.9539,N,08022.8925,W,1,9,1.5,8,M,,M,,*6F
06/23/2015	10:07:56.555	$GPGGA,100757,2454.9558,N,08022.8904,W,1,9,1.5,8,M,,M,,*6A
06/23/2015	10:07:57.555	$GPGGA,100758,2454.9576,N,08022.8882,W,1,9,1.5,8,M,,M,,*66
06/23/2015	10:07:58.555	$GPGGA,100759,2454.9593,N,08022.8861,W,1,9,1.5,8,M,,M,,*61
06/23/2015	10:07:59.595	$GPGGA,100800,2454.9611,N,08022.8840,W,1,9,1.5,8,M,,M,,*68
06/23/2015	10:08:00.555	$GPGGA,100801,2454.9628,N,08022.8819,W,1,9,1.5,8,M,,M,,*6F
06/23/2015	10:08:01.537	$GPGGA,100802,2454.9646,N,08022.8798,W,1,9,1.5,8,M,,M,,*62
06/23/2015	10:08:02.538	$GPGGA,100803,2454.9662,N,08022.8777,W,1,9,1.5,8,M,,M,,*64
06/23/2015	10:08:03.575	$GPGGA,100804,2454.9680,N,08022.8756,W,1,9,1.5,8,M,,M,,*6C
06/23/2015	10:08:04.540	$GPGGA,100805,2454.9698,N,08022.8734,W,1,9,1.6,8,M,,M,,*63
06/23/2015	10:08:05.555	$GPGGA,100806,2454.9715,N,08022.8714,W,1,9,1.6,8,M,,M,,*66
06/23/2015	10:08:06.539	$GPGGA,100807,2454.9733,N,08022.8694,W,1,9,1.6,8,M,,M,,*6A
06/23/2015	10:08:07.575	$GPGGA,100808,2454.9749,N,08022.8672,W,1,9,1.6,8,M,,M,,*60
06/23/2015	10:08:08.536	$GPGGA,100809,2454.9767,N,08022.8651,W,1,9,1.6,8,M,,M,,*6C
06/23/2015	10:08:09.529	$GPGGA,100810,2454.9784,N,08022.8630,W,1,9,1.6,8,M,,M,,*6E
06/23/2015	10:08:10.526	$GPGGA,100811,2454.9802,N,08022.8609,W,1,9,1.6,8,M,,M,,*64
06/23/2015	10:08:11.555	$GPGGA,100812,2454.9818,N,08022.8588,W,1,9,1.6,8,M,,M,,*66
06/23/2015	10:08:12.545	$GPGGA,100813,2454.9835,N,08022.8566,W,1,9,1.6,8,M,,M,,*68
06/23/2015	10:08:13.526	$GPGGA,100814,2454.9852,N,08022.8544,W,1,9,1.6,8,M,,M,,*6E
06/23/2015	10:08:14.532	$GPGGA,100815,2454.9868,N,08022.8523,W,1,9,1.6,8,M,,M,,*67
06/23/2015	10:08:15.555	$GPGGA,100816,2454.9886,N,08022.8501,W,1,9,1.6,8,M,,M,,*64
06/23/2015	10:08:16.515	$GPGGA,100817,2454.9903,N,08022.8479,W,1,9,1.7,8,M,,M,,*66
06/23/2015	10:08:17.539	$GPGGA,100818,2454.9919,N,08022.8457,W,1,9,1.6,8,M,,M,,*6F
06/23/2015	10:08:18.530	$GPGGA,100819,2454.9935,N,08022.8435,W,1,9,1.6,8,M,,M,,*64
06/23/2015	10:08:19.545	$GPGGA,100820,2454.9951,N,08022.8413,W,1,9,1.6,8,M,,M,,*68
06/23/2015	10:08:20.505	$GPGGA,100821,2454.9968,N,08022.8390,W,1,9,1.6,8,M,,M,,*6F
06/23/2015	10:08:21.515	$GPGGA,100822,2454.9984,N,08022.8369,W,1,9,1.6,8,M,,M,,*68
06/23/2015	10:08:22.628	$GPGGA,100823,2455.0001,N,08022.8346,W,1,9,1.6,8,M,,M,,*68
06/23/2015	10:08:23.545	$GPGGA,100824,2455.0016,N,08022.8324,W,1,9,1.6,8,M,,M,,*6D
06/23/2015	10:08:24.515	$GPGGA,100825,2455.0033,N,08022.8303,W,1,9,1.6,8,M,,M,,*6E
06/23/2015	10:08:25.485	$GPGGA,100826,2455.0049,N,08022.8280,W,1,9,1.6,8,M,,M,,*6A
06/23/2015	10:08:26.505	$GPGGA,100827,2455.0066,N,08022.8257,W,1,9,1.6,8,M,,M,,*6C
06/23/2015	10:08:27.595	$GPGGA,100828,2455.0083,N,08022.8236,W,1,9,1.6,8,M,,M,,*6F
06/23/2015	10:08:28.495	$GPGGA,100829,2455.0099,N,08022.8214,W,1,9,1.6,8,M,,M,,*65
06/23/2015	10:08:29.495	$GPGGA,100830,2455.0117,N,08022.8192,W,1,8,1.7,8,M,,M,,*67
06/23/2015	10:08:30.575	$GPGGA,100831,2455.0135,N,08022.8170,W,1,8,1.6,8,M,,M,,*6B
06/23/2015	10:08:31.505	$GPGGA,100832,2455.0150,N,08022.8149,W,1,9,1.6,8,M,,M,,*60
06/23/2015	10:08:32.595	$GPGGA,100833,2455.0168,N,08022.8126,W,1,9,1.6,8,M,,M,,*63
06/23/2015	10:08:33.495	$GPGGA,100834,2455.0182,N,08022.8104,W,1,9,1.6,8,M,,M,,*60
06/23/2015	10:08:34.575	$GPGGA,100835,2455.0200,N,08022.8082,W,1,9,1.6,8,M,,M,,*67
06/23/2015	10:08:35.605	$GPGGA,100836,2455.0217,N,08022.8060,W,1,9,1.6,8,M,,M,,*6E
06/23/2015	10:08:36.595	$GPGGA,100837,2455.0233,N,08022.8038,W,1,9,1.6,8,M,,M,,*64
06/23/2015	10:08:37.574	$GPGGA,100838,2455.0248,N,08022.8016,W,1,9,1.6,8,M,,M,,*6B
06/23/2015	10:08:38.485	$GPGGA,100839,2455.0266,N,08022.7994,W,1,9,1.6,8,M,,M,,*6A
06/23/2015	10:08:39.485	$GPGGA,100840,2455.0283,N,08022.7972,W,1,9,1.6,8,M,,M,,*67
06/23/2015	10:08:40.575	$GPGGA,100841,2455.0298,N,08022.7950,W,1,9,1.6,8,M,,M,,*6C
06/23/2015	10:08:41.565	$GPGGA,100842,2455.0316,N,08022.7928,W,1,9,1.6,8,M,,M,,*67
06/23/2015	10:08:42.555	$GPGGA,100843,2455.0333,N,08022.7906,W,1,9,1.6,8,M,,M,,*6D
06/23/2015	10:08:43.595	$GPGGA,100844,2455.0349,N,08022.7884,W,1,9,1.6,8,M,,M,,*6C
06/23/2015	10:08:44.555	$GPGGA,100845,2455.0367,N,08022.7862,W,1,9,1.6,8,M,,M,,*69
06/23/2015	10:08:45.555	$GPGGA,100846,2455.0385,N,08022.7841,W,1,9,1.6,8,M,,M,,*67
06/23/2015	10:08:46.555	$GPGGA,100847,2455.0402,N,08022.7819,W,1,9,1.6,8,M,,M,,*63
06/23/2015	10:08:47.605	$GPGGA,100848,2455.0417,N,08022.7797,W,1,9,1.6,9,M,,M,,*60
06/23/2015	10:08:48.545	$GPGGA,100849,2455.0435,N,08022.7775,W,1,9,1.6,9,M,,M,,*6D
06/23/2015	10:08:49.575	$GPGGA,100850,2455.0453,N,08022.7754,W,1,9,1.6,9,M,,M,,*66
06/23/2015	10:08:50.535	$GPGGA,100851,2455.0471,N,08022.7732,W,1,9,1.6,9,M,,M,,*67
06/23/2015	10:08:51.565	$GPGGA,100852,2455.0488,N,08022.7709,W,1,9,1.6,9,M,,M,,*6A
06/23/2015	10:08:52.825	$GPGGA,100853,2455.0507,N,08022.7689,W,1,9,1.6,9,M,,M,,*64
06/23/2015	10:08:53.527	$GPGGA,100854,2455.0525,N,08022.7668,W,1,9,1.6,9,M,,M,,*6C
06/23/2015	10:08:54.545	$GPGGA,100855,2455.0540,N,08022.7645,W,1,9,1.6,9,M,,M,,*61
06/23/2015	10:08:55.565	$GPGGA,100856,2455.0558,N,08022.7624,W,1,9,1.6,9,M,,M,,*6C
06/23/2015	10:08:56.527	$GPGGA,100857,2455.0576,N,08022.7603,W,1,9,1.6,9,M,,M,,*64
06/23/2015	10:08:57.535	$GPGGA,100858,2455.0594,N,08022.7581,W,1,9,1.6,9,M,,M,,*6E
06/23/2015	10:08:58.538	$GPGGA,100859,2455.0611,N,08022.7559,W,1,9,1.6,9,M,,M,,*64
06/23/2015	10:08:59.575	$GPGGA,100900,2455.0629,N,08022.7538,W,1,9,1.6,9,M,,M,,*65
06/23/2015	10:09:00.515	$GPGGA,100901,2455.0645,N,08022.7517,W,1,9,1.6,9,M,,M,,*63
06/23/2015	10:09:01.536	$GPGGA,100902,2455.0663,N,08022.7495,W,1,9,1.6,9,M,,M,,*6F
06/23/2015	10:09:02.515	$GPGGA,100903,2455.0681,N,08022.7474,W,1,9,1.6,9,M,,M,,*6D
06/23/2015	10:09:03.527	$GPGGA,100904,2455.0698,N,08022.7452,W,1,9,1.6,9,M,,M,,*66
06/23/2015	10:09:04.525	$GPGGA,100905,2455.0716,N,08022.7431,W,1,9,1.6,9,M,,M,,*65
06/23/2015	10:09:05.538	$GPGGA,100906,2455.0732,N,08022.7410,W,1,9,1.6,9,M,,M,,*63
06/23/2015	10:09:06.527	$GPGGA,100907,2455.0750,N,08022.7387,W,1,9,1.6,9,M,,M,,*6F
06/23/2015	10:09:07.545	$GPGGA,100908,2455.0768,N,08022.7367,W,1,9,1.6,9,M,,M,,*65
06/23/2015	10:09:08.505	$GPGGA,100909,2455.0785,N,08022.7347,W,1,9,1.6,9,M,,M,,*65
06/23/2015	10:09:09.543	$GPGGA,100910,2455.0802,N,08022.7324,W,1,9,1.6,9,M,,M,,*68
06/23/2015	10:09:10.515	$GPGGA,100911,2455.0818,N,08022.7303,W,1,9,1.6,9,M,,M,,*67
06/23/2015	10:09:11.525	$GPGGA,100912,2455.0836,N,08022.7283,W,1,9,1.6,9,M,,M,,*61
06/23/2015	10:09:12.504	$GPGGA,100913,2455.0854,N,08022.7261,W,1,9,1.6,9,M,,M,,*68
06/23/2015	10:09:13.495	$GPGGA,100914,2455.0871,N,08022.7241,W,1,9,1.6,9,M,,M,,*6A
06/23/2015	10:09:14.520	$GPGGA,100915,2455.0889,N,08022.7220,W,1,9,1.6,9,M,,M,,*6B
06/23/2015	10:09:15.595	$GPGGA,100916,2455.0905,N,08022.7199,W,1,9,1.6,9,M,,M,,*6C
06/23/2015	10:09:16.485	$GPGGA,100917,2455.0923,N,08022.7178,W,1,9,1.6,9,M,,M,,*66
06/23/2015	10:09:17.595	$GPGGA,100918,2455.0941,N,08022.7157,W,1,9,1.6,9,M,,M,,*60
06/23/2015	10:09:18.495	$GPGGA,100919,2455.0958,N,08022.7136,W,1,9,1.6,9,M,,M,,*6E
06/23/2015	10:09:19.595	$GPGGA,100920,2455.0976,N,08022.7115,W,1,9,1.6,9,M,,M,,*69
06/23/2015	10:09:20.485	$GPGGA,100921,2455.0992,N,08022.7093,W,1,9,1.6,9,M,,M,,*6D
06/23/2015	10:09:21.495	$GPGGA,100922,2455.1010,N,08022.7072,W,1,9,1.6,9,M,,M,,*63
06/23/2015	10:09:22.475	$GPGGA,100923,2455.1028,N,08022.7050,W,1,9,1.6,9,M,,M,,*69
06/23/2015	10:09:24.605	$GPGGA,100925,2455.1064,N,08022.7007,W,1,9,1.6,9,M,,M,,*65
06/23/2015	10:09:25.585	$GPGGA,100926,2455.1081,N,08022.6986,W,1,9,1.6,9,M,,M,,*6C
06/23/2015	10:09:26.485	$GPGGA,100927,2455.1097,N,08022.6964,W,1,9,1.6,9,M,,M,,*66
06/23/2015	10:09:27.575	$GPGGA,100928,2455.1115,N,08022.6942,W,1,9,1.6,9,M,,M,,*66
06/23/2015	10:09:28.555	$GPGGA,100929,2455.1133,N,08022.6921,W,1,9,1.6,9,M,,M,,*66
06/23/2015	10:09:29.555	$GPGGA,100930,2455.1150,N,08022.6899,W,1,9,1.6,9,M,,M,,*69
06/23/2015	10:09:30.565	$GPGGA,100931,2455.1167,N,08022.6877,W,1,9,1.6,9,M,,M,,*6C
06/23/2015	10:09:31.565	$GPGGA,100932,2455.1183,N,08022.6856,W,1,9,1.6,9,M,,M,,*66
06/23/2015	10:09:32.555	$GPGGA,100933,2455.1201,N,08022.6834,W,1,9,1.6,9,M,,M,,*6A
06/23/2015	10:09:33.575	$GPGGA,100934,2455.1218,N,08022.6813,W,1,9,1.6,9,M,,M,,*60
06/23/2015	10:09:34.555	$GPGGA,100935,2455.1234,N,08022.6791,W,1,9,1.6,9,M,,M,,*6A
06/23/2015	10:09:35.585	$GPGGA,100936,2455.1252,N,08022.6769,W,1,9,1.6,9,M,,M,,*6E
06/23/2015	10:09:36.541	$GPGGA,100937,2455.1270,N,08022.6748,W,1,9,1.6,9,M,,M,,*6C
06/23/2015	10:09:37.565	$GPGGA,100938,2455.1287,N,08022.6725,W,1,9,1.6,9,M,,M,,*60
06/23/2015	10:09:38.536	$GPGGA,100939,2455.1302,N,08022.6704,W,1,9,1.6,9,M,,M,,*6E
06/23/2015	10:09:39.565	$GPGGA,100940,2455.1319,N,08022.6682,W,1,8,2.3,9,M,,M,,*62
06/23/2015	10:09:40.555	$GPGGA,100941,2455.1335,N,08022.6660,W,1,8,1.7,9,M,,M,,*66
06/23/2015	10:09:41.540	$GPGGA,100942,2455.1352,N,08022.6638,W,1,9,1.6,8,M,,M,,*68
06/23/2015	10:09:42.545	$GPGGA,100943,2455.1368,N,08022.6615,W,1,9,1.6,8,M,,M,,*6F
06/23/2015	10:09:43.585	$GPGGA,100944,2455.1386,N,08022.6594,W,1,9,1.6,8,M,,M,,*62
06/23/2015	10:09:44.538	$GPGGA,100945,2455.1404,N,08022.6572,W,1,9,1.6,8,M,,M,,*66
06/23/2015	10:09:45.535	$GPGGA,100946,2455.1422,N,08022.6550,W,1,9,1.6,8,M,,M,,*61
06/23/2015	10:09:46.540	$GPGGA,100947,2455.1440,N,08022.6528,W,1,9,1.6,8,M,,M,,*6B
06/23/2015	10:09:47.564	$GPGGA,100948,2455.1458,N,08022.6507,W,1,9,1.6,8,M,,M,,*60
06/23/2015	10:09:48.534	$GPGGA,100949,2455.1476,N,08022.6485,W,1,9,1.6,8,M,,M,,*66
06/23/2015	10:09:49.545	$GPGGA,100950,2455.1494,N,08022.6463,W,1,9,1.6,8,M,,M,,*6A
06/23/2015	10:09:50.528	$GPGGA,100951,2455.1511,N,08022.6442,W,1,9,1.6,8,M,,M,,*64
06/23/2015	10:09:51.565	$GPGGA,100952,2455.1529,N,08022.6419,W,1,9,1.6,8,M,,M,,*62
06/23/2015	10:09:52.535	$GPGGA,100953,2455.1547,N,08022.6398,W,1,9,1.6,8,M,,M,,*65
06/23/2015	10:09:53.505	$GPGGA,100954,2455.1563,N,08022.6376,W,1,9,1.6,8,M,,M,,*64
06/23/2015	10:09:54.515	$GPGGA,100955,2455.1581,N,08022.6353,W,1,9,1.6,8,M,,M,,*6E
06/23/2015	10:09:55.565	$GPGGA,100956,2455.1599,N,08022.6332,W,1,9,1.6,8,M,,M,,*63
06/23/2015	10:09:56.515	$GPGGA,100957,2455.1617,N,08022.6311,W,1,9,1.6,8,M,,M,,*66
06/23/2015	10:09:57.515	$GPGGA,100958,2455.1635,N,08022.6289,W,1,9,1.6,8,M,,M,,*69
06/23/2015	10:09:58.495	$GPGGA,100959,2455.1652,N,08022.6267,W,1,9,1.6,8,M,,M,,*69
06/23/2015	10:09:59.575	$GPGGA,101000,2455.1670,N,08022.6245,W,1,9,1.6,9,M,,M,,*6C
06/23/2015	10:10:00.495	$GPGGA,101001,2455.1686,N,08022.6224,W,1,9,1.6,9,M,,M,,*63
06/23/2015	10:10:01.515	$GPGGA,101002,2455.1703,N,08022.6202,W,1,9,1.6,9,M,,M,,*68
06/23/2015	10:10:02.495	$GPGGA,101003,2455.1721,N,08022.6180,W,1,9,1.6,9,M,,M,,*60
06/23/2015	10:10:03.533	$GPGGA,101004,2455.1739,N,08022.6159,W,1,9,1.6,9,M,,M,,*6A
06/23/2015	10:10:04.505	$GPGGA,101005,2455.1756,N,08022.6137,W,1,9,1.6,9,M,,M,,*6A
06/23/2015	10:10:05.485	$GPGGA,101006,2455.1774,N,08022.6115,W,1,9,1.6,9,M,,M,,*69
06/23/2015	10:10:06.495	$GPGGA,101007,2455.1792,N,08022.6094,W,1,9,1.6,9,M,,M,,*68
06/23/2015	10:10:07.655	$GPGGA,101008,2455.1808,N,08022.6072,W,1,9,1.6,9,M,,M,,*63
06/23/2015	10:10:08.485	$GPGGA,101009,2455.1826,N,08022.6051,W,1,9,1.6,9,M,,M,,*6F
06/23/2015	10:10:09.495	$GPGGA,101010,2455.1844,N,08022.6030,W,1,9,1.6,9,M,,M,,*64
06/23/2015	10:10:10.485	$GPGGA,101011,2455.1862,N,08022.6009,W,1,9,1.6,9,M,,M,,*6B
06/23/2015	10:10:11.495	$GPGGA,101012,2455.1877,N,08022.5986,W,1,9,1.6,9,M,,M,,*61
06/23/2015	10:10:12.565	$GPGGA,101013,2455.1895,N,08022.5965,W,1,9,1.6,9,M,,M,,*61
06/23/2015	10:10:13.605	$GPGGA,101014,2455.1913,N,08022.5945,W,1,9,1.6,9,M,,M,,*6B
06/23/2015	10:10:14.565	$GPGGA,101015,2455.1931,N,08022.5923,W,1,9,1.6,9,M,,M,,*6A
06/23/2015	10:10:15.585	$GPGGA,101016,2455.1948,N,08022.5901,W,1,9,1.6,9,M,,M,,*67
06/23/2015	10:10:16.575	$GPGGA,101017,2455.1966,N,08022.5879,W,1,9,1.6,9,M,,M,,*64
06/23/2015	10:10:17.585	$GPGGA,101018,2455.1984,N,08022.5858,W,1,9,1.6,9,M,,M,,*64
06/23/2015	10:10:18.555	$GPGGA,101019,2455.2000,N,08022.5836,W,1,9,1.6,9,M,,M,,*6B
06/23/2015	10:10:19.637	$GPGGA,101020,2455.2017,N,08022.5814,W,1,9,1.6,9,M,,M,,*67
06/23/2015	10:10:20.565	$GPGGA,101021,2455.2035,N,08022.5793,W,1,9,1.6,9,M,,M,,*66
06/23/2015	10:10:21.565	$GPGGA,101022,2455.2052,N,08022.5772,W,1,9,1.6,9,M,,M,,*6B
06/23/2015	10:10:22.544	$GPGGA,101023,2455.2068,N,08022.5749,W,1,9,1.6,9,M,,M,,*6B
06/23/2015	10:10:23.595	$GPGGA,101024,2455.2086,N,08022.5728,W,1,9,1.6,9,M,,M,,*6B
06/23/2015	10:10:24.555	$GPGGA,101025,2455.2103,N,08022.5706,W,1,9,1.6,9,M,,M,,*6A
06/23/2015	10:10:25.565	$GPGGA,101026,2455.2121,N,08022.5684,W,1,9,1.6,9,M,,M,,*62
06/23/2015	10:10:26.545	$GPGGA,101027,2455.2137,N,08022.5663,W,1,9,1.6,9,M,,M,,*6D
06/23/2015	10:10:27.595	$GPGGA,101028,2455.2154,N,08022.5640,W,1,9,1.6,9,M,,M,,*66
06/23/2015	10:10:28.815	$GPGGA,101029,2455.2170,N,08022.5619,W,1,9,1.6,9,M,,M,,*6D
06/23/2015	10:10:29.555	$GPGGA,101030,2455.2188,N,08022.5597,W,1,9,1.6,9,M,,M,,*67
06/23/2015	10:10:30.539	$GPGGA,101031,2455.2205,N,08022.5575,W,1,9,1.6,9,M,,M,,*6C
06/23/2015	10:10:31.565	$GPGGA,101032,2455.2220,N,08022.5553,W,1,9,1.6,9,M,,M,,*6C
06/23/2015	10:10:32.540	$GPGGA,101033,2455.2238,N,08022.5530,W,1,9,1.6,9,M,,M,,*61
06/23/2015	10:10:33.955	$GPGGA,101034,2455.2255,N,08022.5509,W,1,9,1.6,9,M,,M,,*67
06/23/2015	10:10:34.529	$GPGGA,101035,2455.2273,N,08022.5487,W,1,9,1.6,9,M,,M,,*65
06/23/2015	10:10:35.555	$GPGGA,101036,2455.2289,N,08022.5464,W,1,9,1.6,9,M,,M,,*6E
06/23/2015	10:10:36.533	$GPGGA,101037,2455.2305,N,08022.5442,W,1,9,1.6,9,M,,M,,*6E
06/23/2015	10:10:37.545	$GPGGA,101038,2455.2323,N,08022.5420,W,1,9,1.6,9,M,,M,,*61
06/23/2015	10:10:38.525	$GPGGA,101039,2455.2339,N,08022.5398,W,1,9,1.6,9,M,,M,,*6F
06/23/2015	10:10:39.529	$GPGGA,101040,2455.2357,N,08022.5377,W,1,9,1.7,9,M,,M,,*69
06/23/2015	10:10:40.505	$GPGGA,101041,2455.2374,N,08022.5355,W,1,9,1.6,9,M,,M,,*68
06/23/2015	10:10:41.530	$GPGGA,101042,2455.2392,N,08022.5333,W,1,9,1.6,9,M,,M,,*63
06/23/2015	10:10:42.535	$GPGGA,101043,2455.2410,N,08022.5311,W,1,9,1.6,9,M,,M,,*6F
06/23/2015	10:10:43.555	$GPGGA,101044,2455.2426,N,08022.5289,W,1,9,1.6,9,M,,M,,*6D
06/23/2015	10:10:44.515	$GPGGA,101045,2455.2444,N,08022.5266,W,1,9,1.6,9,M,,M,,*69
06/23/2015	10:10:45.535	$GPGGA,101046,2455.2461,N,08022.5245,W,1,9,1.6,9,M,,M,,*6C
06/23/2015	10:10:46.515	$GPGGA,101047,2455.2477,N,08022.5222,W,1,9,1.6,9,M,,M,,*6B
06/23/2015	10:10:47.545	$GPGGA,101048,2455.2495,N,08022.5200,W,1,9,1.6,9,M,,M,,*68
06/23/2015	10:10:48.515	$GPGGA,101049,2455.2513,N,08022.5178,W,1,9,1.6,9,M,,M,,*6A
06/23/2015	10:10:49.595	$GPGGA,101050,2455.2530,N,08022.5155,W,1,9,1.6,9,M,,M,,*6C
06/23/2015	10:10:50.615	$GPGGA,101051,2455.2545,N,08022.5132,W,1,9,1.6,9,M,,M,,*6E
06/23/2015	10:10:51.595	$GPGGA,101052,2455.2565,N,08022.5111,W,1,9,1.6,9,M,,M,,*6E
06/23/2015	10:10:52.585	$GPGGA,101053,2455.2581,N,08022.5088,W,1,9,1.6,9,M,,M,,*64
06/23/2015	10:10:53.615	$GPGGA,101054,2455.2598,N,08022.5066,W,1,9,1.6,9,M,,M,,*6B
06/23/2015	10:10:54.515	$GPGGA,101055,2455.2614,N,08022.5043,W,1,9,1.6,9,M,,M,,*6A
06/23/2015	10:10:55.595	$GPGGA,101056,2455.2632,N,08022.5022,W,1,9,1.6,9,M,,M,,*6A
06/23/2015	10:10:56.495	$GPGGA,101057,2455.2650,N,08022.5000,W,1,9,1.6,9,M,,M,,*6F
06/23/2015	10:10:57.494	$GPGGA,101058,2455.2667,N,08022.4977,W,1,9,1.6,9,M,,M,,*6C
06/23/2015	10:10:58.485	$GPGGA,101059,2455.2685,N,08022.4956,W,1,9,1.6,9,M,,M,,*62
06/23/2015	10:10:59.585	$GPGGA,101100,2455.2703,N,08022.4934,W,1,9,1.6,9,M,,M,,*64
06/23/2015	10:11:00.565	$GPGGA,101101,2455.2719,N,08022.4912,W,1,9,1.6,9,M,,M,,*6A
06/23/2015	10:11:01.485	$GPGGA,101102,2455.2737,N,08022.4890,W,1,9,1.6,9,M,,M,,*6E
06/23/2015	10:11:02.565	$GPGGA,101103,2455.2755,N,08022.4869,W,1,9,1.6,9,M,,M,,*6D
06/23/2015	10:11:03.615	$GPGGA,101104,2455.2773,N,08022.4846,W,1,9,1.6,9,M,,M,,*63
06/23/2015	10:11:04.565	$GPGGA,101105,2455.2790,N,08022.4825,W,1,9,1.6,9,M,,M,,*6A
06/23/2015	10:11:05.585	$GPGGA,101106,2455.2809,N,08022.4803,W,1,9,1.6,9,M,,M,,*62
06/23/2015	10:11:06.555	$GPGGA,101107,2455.2826,N,08022.4781,W,1,9,1.6,10,M,,M,,*53
06/23/2015	10:11:07.605	$GPGGA,101108,2455.2844,N,08022.4759,W,1,9,1.6,10,M,,M,,*5D
06/23/2015	10:11:08.555	$GPGGA,101109,2455.2862,N,08022.4737,W,1,9,1.6,10,M,,M,,*50
06/23/2015	10:11:09.565	$GPGGA,101110,2455.2880,N,08022.4717,W,1,9,1.6,10,M,,M,,*56
06/23/2015	10:11:10.555	$GPGGA,101111,2455.2898,N,08022.4695,W,1,9,1.6,10,M,,M,,*55
06/23/2015	10:11:11.565	$GPGGA,101112,2455.2914,N,08022.4672,W,1,9,1.6,10,M,,M,,*5A
06/23/2015	10:11:12.555	$GPGGA,101113,2455.2932,N,08022.4651,W,1,9,1.6,10,M,,M,,*5E
06/23/2015	10:11:13.545	$GPGGA,101114,2455.2950,N,08022.4630,W,1,9,1.6,10,M,,M,,*5A
06/23/2015	10:11:14.545	$GPGGA,101115,2455.2967,N,08022.4608,W,1,9,1.6,10,M,,M,,*54
06/23/2015	10:11:15.545	$GPGGA,101116,2455.2984,N,08022.4585,W,1,9,1.6,10,M,,M,,*5C
06/23/2015	10:11:16.555	$GPGGA,101117,2455.3003,N,08022.4565,W,1,9,1.6,10,M,,M,,*54
06/23/2015	10:11:17.535	$GPGGA,101118,2455.3021,N,08022.4544,W,1,9,1.6,10,M,,M,,*58
06/23/2015	10:11:18.555	$GPGGA,101119,2455.3036,N,08022.4521,W,1,9,1.6,10,M,,M,,*5C
06/23/2015	10:11:19.565	$GPGGA,101120,2455.3054,N,08022.4500,W,1,9,1.6,10,M,,M,,*51
06/23/2015	10:11:20.526	$GPGGA,101121,2455.3072,N,08022.4479,W,1,9,1.6,10,M,,M,,*5B
06/23/2015	10:11:21.536	$GPGGA,101122,2455.3090,N,08022.4457,W,1,9,1.6,10,M,,M,,*58
06/23/2015	10:11:22.539	$GPGGA,101123,2455.3105,N,08022.4435,W,1,9,1.6,10,M,,M,,*50
06/23/2015	10:11:23.555	$GPGGA,101124,2455.3123,N,08022.4413,W,1,9,1.6,10,M,,M,,*57
06/23/2015	10:11:24.535	$GPGGA,101125,2455.3141,N,08022.4392,W,1,9,1.6,10,M,,M,,*5C
06/23/2015	10:11:25.515	$GPGGA,101126,2455.3158,N,08022.4370,W,1,9,1.6,10,M,,M,,*5B
06/23/2015	10:11:26.525	$GPGGA,101127,2455.3174,N,08022.4347,W,1,9,1.6,10,M,,M,,*50
06/23/2015	10:11:27.545	$GPGGA,101128,2455.3192,N,08022.4326,W,1,9,1.6,10,M,,M,,*50
06/23/2015	10:11:28.527	$GPGGA,101129,2455.3210,N,08022.4303,W,1,9,1.6,10,M,,M,,*5F
06/23/2015	10:11:29.531	$GPGGA,101130,2455.3227,N,08022.4281,W,1,9,1.6,10,M,,M,,*58
06/23/2015	10:11:30.505	$GPGGA,101131,2455.3245,N,08022.4260,W,1,9,1.6,10,M,,M,,*52
06/23/2015	10:11:31.535	$GPGGA,101132,2455.3261,N,08022.4238,W,1,9,1.6,10,M,,M,,*5A
06/23/2015	10:11:32.514	$GPGGA,101133,2455.3277,N,08022.4214,W,1,9,1.6,10,M,,M,,*52
06/23/2015	10:11:33.528	$GPGGA,101134,2455.3295,N,08022.4192,W,1,9,1.6,10,M,,M,,*54
06/23/2015	10:11:34.615	$GPGGA,101135,2455.3313,N,08022.4171,W,1,9,1.6,10,M,,M,,*57
06/23/2015	10:11:35.525	$GPGGA,101136,2455.3329,N,08022.4148,W,1,9,1.6,10,M,,M,,*57
06/23/2015	10:11:36.515	$GPGGA,101137,2455.3346,N,08022.4125,W,1,9,1.6,10,M,,M,,*54
06/23/2015	10:11:37.615	$GPGGA,101138,2455.3364,N,08022.4106,W,1,9,1.6,10,M,,M,,*5A
06/23/2015	10:11:38.505	$GPGGA,101139,2455.3382,N,08022.4083,W,1,9,1.6,10,M,,M,,*5F
06/23/2015	10:11:39.515	$GPGGA,101140,2455.3398,N,08022.4061,W,1,9,1.6,10,M,,M,,*56
06/23/2015	10:11:40.495	$GPGGA,101141,2455.3416,N,08022.4040,W,1,9,1.6,10,M,,M,,*55
06/23/2015	10:11:41.485	$GPGGA,101142,2455.3434,N,08022.4018,W,1,9,1.6,10,M,,M,,*5B
06/23/2015	10:11:42.495	$GPGGA,101143,2455.3451,N,08022.3997,W,1,9,1.6,10,M,,M,,*50
06/23/2015	10:11:43.496	$GPGGA,101144,2455.3467,N,08022.3974,W,1,9,1.6,10,M,,M,,*5F
06/23/2015	10:11:44.485	$GPGGA,101145,2455.3484,N,08022.3952,W,1,9,1.6,10,M,,M,,*57
06/23/2015	10:11:45.475	$GPGGA,101146,2455.3503,N,08022.3931,W,1,9,1.6,10,M,,M,,*5F
06/23/2015	10:11:46.585	$GPGGA,101147,2455.3521,N,08022.3909,W,1,9,1.6,10,M,,M,,*55
06/23/2015	10:11:47.585	$GPGGA,101148,2455.3538,N,08022.3887,W,1,9,1.6,9,M,,M,,*6D
06/23/2015	10:11:48.575	$GPGGA,101149,2455.3556,N,08022.3865,W,1,9,1.6,9,M,,M,,*68
06/23/2015	10:11:49.475	$GPGGA,101150,2455.3574,N,08022.3843,W,1,9,1.6,9,M,,M,,*64
06/23/2015	10:11:50.565	$GPGGA,101151,2455.3592,N,08022.3822,W,1,9,1.6,9,M,,M,,*6A
06/23/2015	10:11:51.585	$GPGGA,101152,2455.3609,N,08022.3799,W,1,9,1.6,9,M,,M,,*67
06/23/2015	10:11:52.575	$GPGGA,101153,2455.3625,N,08022.3777,W,1,9,1.6,9,M,,M,,*68
06/23/2015	10:11:53.575	$GPGGA,101154,2455.3643,N,08022.3755,W,1,9,1.6,9,M,,M,,*6F
06/23/2015	10:11:54.565	$GPGGA,101155,2455.3661,N,08022.3734,W,1,9,1.6,9,M,,M,,*69
06/23/2015	10:11:55.575	$GPGGA,101156,2455.3678,N,08022.3710,W,1,9,1.6,9,M,,M,,*64
