Software Version Number: 1	Data File Format Number: 1	Build Version Number: 1	Error Count Since VI Started: 1	Manufacturer: Raytheon	 Model Number: RayMarine 120	 S/N: 	 Cal Date: 	 Wind Direction Offset: 0.00	 Slope (M)1: 0.00	 Offset (B)1: 0.00	 Slope (M)2: 0.00	 Offset (B)2: 0.00	 Slope (M)3: 0.00	 Offset (B)3: 0.00	 Slope (M)4: 0.00	 Offset (B)4: 0.00	 Slope (M)5: 0.00	 Offset (B)5: 0.00	 Slope (M)6: 0.00	 Offset (B)6: 0.00
Computer Date	Computer Time	GGA String
06/15/2015	01:00:00.547	$GPGGA,010001,2433.2975,N,08109.8637,W,1,9,1.7,17,M,,M,,*5C
06/15/2015	01:00:01.567	$GPGGA,010002,2433.2969,N,08109.8630,W,1,9,1.7,17,M,,M,,*55
06/15/2015	01:00:02.557	$GPGGA,010003,2433.2964,N,08109.8625,W,1,9,1.7,17,M,,M,,*5D
06/15/2015	01:00:03.597	$GPGGA,010004,2433.2961,N,08109.8618,W,1,9,1.7,17,M,,M,,*51
06/15/2015	01:00:04.567	$GPGGA,010005,2433.2957,N,08109.8611,W,1,9,1.7,17,M,,M,,*5C
06/15/2015	01:00:05.557	$GPGGA,010006,2433.2951,N,08109.8606,W,1,9,1.7,17,M,,M,,*5F
06/15/2015	01:00:06.557	$GPGGA,010007,2433.2948,N,08109.8600,W,1,9,1.7,17,M,,M,,*50
06/15/2015	01:00:07.547	$GPGGA,010008,2433.2944,N,08109.8591,W,1,9,1.7,17,M,,M,,*58
06/15/2015	01:00:08.557	$GPGGA,010009,2433.2944,N,08109.8591,W,1,9,1.7,17,M,,M,,*59
06/15/2015	01:00:09.557	$GPGGA,010010,2433.2935,N,08109.8580,W,1,9,1.7,17,M,,M,,*57
06/15/2015	01:00:10.547	$GPGGA,010011,2433.2932,N,08109.8573,W,1,9,1.7,17,M,,M,,*5D
06/15/2015	01:00:11.557	$GPGGA,010012,2433.2928,N,08109.8565,W,1,9,2.1,16,M,,M,,*56
06/15/2015	01:00:12.577	$GPGGA,010013,2433.2923,N,08109.8559,W,1,9,2.1,16,M,,M,,*53
06/15/2015	01:00:13.557	$GPGGA,010014,2433.2919,N,08109.8551,W,1,8,1.7,16,M,,M,,*51
06/15/2015	01:00:14.537	$GPGGA,010015,2433.2916,N,08109.8545,W,1,8,1.7,16,M,,M,,*5A
06/15/2015	01:00:15.557	$GPGGA,010016,2433.2914,N,08109.8537,W,1,9,1.7,16,M,,M,,*5F
06/15/2015	01:00:16.537	$GPGGA,010017,2433.2910,N,08109.8530,W,1,9,1.8,16,M,,M,,*52
06/15/2015	01:00:17.547	$GPGGA,010018,2433.2904,N,08109.8523,W,1,8,2.1,16,M,,M,,*51
06/15/2015	01:00:18.547	$GPGGA,010019,2433.2898,N,08109.8518,W,1,8,1.7,16,M,,M,,*59
06/15/2015	01:00:19.557	$GPGGA,010020,2433.2896,N,08109.8513,W,1,9,1.7,16,M,,M,,*57
06/15/2015	01:00:20.632	$GPGGA,010021,2433.2892,N,08109.8507,W,1,9,1.7,16,M,,M,,*57
06/15/2015	01:00:21.507	$GPGGA,010022,2433.2888,N,08109.8500,W,1,9,1.7,16,M,,M,,*58
06/15/2015	01:00:22.597	$GPGGA,010023,2433.2885,N,08109.8495,W,1,9,1.7,16,M,,M,,*59
06/15/2015	01:00:23.547	$GPGGA,010024,2433.2880,N,08109.8491,W,1,9,1.7,16,M,,M,,*5F
06/15/2015	01:00:24.531	$GPGGA,010025,2433.2880,N,08109.8491,W,1,9,1.7,16,M,,M,,*5E
06/15/2015	01:00:26.040	$GPGGA,010026,2433.2874,N,08109.8477,W,1,9,1.7,16,M,,M,,*5E
06/15/2015	01:00:26.547	$GPGGA,010027,2433.2870,N,08109.8472,W,1,9,1.7,16,M,,M,,*5E
06/15/2015	01:00:27.557	$GPGGA,010028,2433.2868,N,08109.8466,W,1,9,1.7,16,M,,M,,*5D
06/15/2015	01:00:28.507	$GPGGA,010029,2433.2868,N,08109.8466,W,1,9,1.7,16,M,,M,,*5C
06/15/2015	01:00:29.597	$GPGGA,010030,2433.2861,N,08109.8453,W,1,9,1.7,16,M,,M,,*5B
06/15/2015	01:00:30.537	$GPGGA,010031,2433.2861,N,08109.8453,W,1,9,1.7,17,M,,M,,*5B
06/15/2015	01:00:31.497	$GPGGA,010032,2433.2856,N,08109.8440,W,1,9,1.7,17,M,,M,,*5E
06/15/2015	01:00:32.587	$GPGGA,010033,2433.2852,N,08109.8435,W,1,9,1.7,17,M,,M,,*59
06/15/2015	01:00:33.617	$GPGGA,010034,2433.2849,N,08109.8428,W,1,9,1.7,17,M,,M,,*58
06/15/2015	01:00:34.497	$GPGGA,010035,2433.2849,N,08109.8428,W,1,9,1.7,17,M,,M,,*59
06/15/2015	01:00:35.797	$GPGGA,010036,2433.2843,N,08109.8413,W,1,9,1.7,17,M,,M,,*58
06/15/2015	01:00:36.519	$GPGGA,010037,2433.2843,N,08109.8413,W,1,9,1.7,17,M,,M,,*59
06/15/2015	01:00:37.587	$GPGGA,010038,2433.2838,N,08109.8401,W,1,9,1.7,17,M,,M,,*59
06/15/2015	01:00:38.587	$GPGGA,010039,2433.2834,N,08109.8393,W,1,9,1.7,17,M,,M,,*58
06/15/2015	01:00:39.487	$GPGGA,010040,2433.2831,N,08109.8386,W,1,9,1.7,18,M,,M,,*58
06/15/2015	01:00:40.567	$GPGGA,010041,2433.2827,N,08109.8380,W,1,9,1.7,18,M,,M,,*58
06/15/2015	01:00:41.567	$GPGGA,010042,2433.2824,N,08109.8373,W,1,9,1.7,18,M,,M,,*54
06/15/2015	01:00:42.567	$GPGGA,010043,2433.2822,N,08109.8365,W,1,9,1.7,18,M,,M,,*54
06/15/2015	01:00:43.587	$GPGGA,010044,2433.2818,N,08109.8357,W,1,9,1.7,18,M,,M,,*5B
06/15/2015	01:00:44.557	$GPGGA,010045,2433.2814,N,08109.8353,W,1,9,2.1,18,M,,M,,*57
06/15/2015	01:00:45.587	$GPGGA,010046,2433.2813,N,08109.8346,W,1,9,1.7,18,M,,M,,*52
06/15/2015	01:00:46.547	$GPGGA,010047,2433.2809,N,08109.8338,W,1,9,1.7,18,M,,M,,*51
06/15/2015	01:00:47.587	$GPGGA,010048,2433.2806,N,08109.8332,W,1,9,1.7,18,M,,M,,*5B
06/15/2015	01:00:48.557	$GPGGA,010049,2433.2804,N,08109.8327,W,1,9,1.7,18,M,,M,,*5C
06/15/2015	01:00:49.537	$GPGGA,010050,2433.2802,N,08109.8320,W,1,9,1.7,18,M,,M,,*55
06/15/2015	01:00:50.547	$GPGGA,010051,2433.2798,N,08109.8313,W,1,9,1.7,19,M,,M,,*59
06/15/2015	01:00:51.577	$GPGGA,010052,2433.2798,N,08109.8305,W,1,9,1.7,19,M,,M,,*5D
06/15/2015	01:00:52.537	$GPGGA,010053,2433.2794,N,08109.8299,W,1,9,1.7,19,M,,M,,*54
06/15/2015	01:00:53.597	$GPGGA,010054,2433.2791,N,08109.8293,W,1,9,1.7,19,M,,M,,*5C
06/15/2015	01:00:54.557	$GPGGA,010055,2433.2791,N,08109.8293,W,1,9,1.7,19,M,,M,,*5D
06/15/2015	01:00:55.567	$GPGGA,010056,2433.2785,N,08109.8278,W,1,9,1.7,19,M,,M,,*5E
06/15/2015	01:00:56.531	$GPGGA,010057,2433.2782,N,08109.8274,W,1,9,2.1,19,M,,M,,*51
06/15/2015	01:00:57.557	$GPGGA,010058,2433.2780,N,08109.8269,W,1,9,1.7,19,M,,M,,*55
06/15/2015	01:00:58.537	$GPGGA,010059,2433.2776,N,08109.8261,W,1,9,1.7,19,M,,M,,*55
06/15/2015	01:00:59.567	$GPGGA,010100,2433.2773,N,08109.8255,W,1,8,2.1,19,M,,M,,*5E
06/15/2015	01:01:00.524	$GPGGA,010101,2433.2771,N,08109.8250,W,1,8,2.1,19,M,,M,,*58
06/15/2015	01:01:01.537	$GPGGA,010102,2433.2768,N,08109.8243,W,1,9,1.7,19,M,,M,,*55
06/15/2015	01:01:02.521	$GPGGA,010103,2433.2766,N,08109.8236,W,1,9,1.7,19,M,,M,,*58
06/15/2015	01:01:03.567	$GPGGA,010104,2433.2763,N,08109.8230,W,1,9,1.7,19,M,,M,,*5C
06/15/2015	01:01:04.823	$GPGGA,010105,2433.2762,N,08109.8223,W,1,9,1.7,19,M,,M,,*5E
06/15/2015	01:01:05.557	$GPGGA,010106,2433.2757,N,08109.8218,W,1,9,1.7,19,M,,M,,*53
06/15/2015	01:01:06.507	$GPGGA,010107,2433.2753,N,08109.8212,W,1,9,1.7,19,M,,M,,*5C
06/15/2015	01:01:07.529	$GPGGA,010108,2433.2751,N,08109.8206,W,1,9,1.7,19,M,,M,,*54
06/15/2015	01:01:08.528	$GPGGA,010109,2433.2747,N,08109.8199,W,1,9,1.7,19,M,,M,,*57
06/15/2015	01:01:09.507	$GPGGA,010110,2433.2744,N,08109.8194,W,1,9,1.7,19,M,,M,,*51
06/15/2015	01:01:10.618	$GPGGA,010111,2433.2738,N,08109.8189,W,1,9,1.7,19,M,,M,,*57
06/15/2015	01:01:11.637	$GPGGA,010112,2433.2735,N,08109.8182,W,1,9,1.7,19,M,,M,,*52
06/15/2015	01:01:12.507	$GPGGA,010113,2433.2730,N,08109.8176,W,1,9,1.7,19,M,,M,,*5D
06/15/2015	01:01:13.487	$GPGGA,010114,2433.2726,N,08109.8171,W,1,9,1.7,19,M,,M,,*5A
06/15/2015	01:01:14.620	$GPGGA,010115,2433.2722,N,08109.8165,W,1,9,1.7,19,M,,M,,*5A
06/15/2015	01:01:15.622	$GPGGA,010116,2433.2717,N,08109.8159,W,1,8,1.8,18,M,,M,,*5F
06/15/2015	01:01:16.497	$GPGGA,010117,2433.2710,N,08109.8152,W,1,8,1.8,18,M,,M,,*52
06/15/2015	01:01:17.487	$GPGGA,010118,2433.2706,N,08109.8146,W,1,9,1.7,18,M,,M,,*51
06/15/2015	01:01:18.587	$GPGGA,010119,2433.2704,N,08109.8140,W,1,9,1.7,18,M,,M,,*54
06/15/2015	01:01:19.497	$GPGGA,010120,2433.2698,N,08109.8135,W,1,9,1.7,18,M,,M,,*58
06/15/2015	01:01:20.597	$GPGGA,010121,2433.2694,N,08109.8130,W,1,9,1.7,18,M,,M,,*50
06/15/2015	01:01:21.477	$GPGGA,010122,2433.2691,N,08109.8123,W,1,9,1.7,18,M,,M,,*54
06/15/2015	01:01:22.587	$GPGGA,010123,2433.2687,N,08109.8117,W,1,9,1.7,18,M,,M,,*55
06/15/2015	01:01:23.587	$GPGGA,010124,2433.2681,N,08109.8114,W,1,9,1.7,18,M,,M,,*57
06/15/2015	01:01:24.497	$GPGGA,010125,2433.2676,N,08109.8109,W,1,9,1.7,18,M,,M,,*52
06/15/2015	01:01:25.587	$GPGGA,010126,2433.2673,N,08109.8100,W,1,9,1.7,18,M,,M,,*5D
06/15/2015	01:01:26.567	$GPGGA,010127,2433.2669,N,08109.8095,W,1,9,1.7,18,M,,M,,*5A
06/15/2015	01:01:27.621	$GPGGA,010128,2433.2663,N,08109.8092,W,1,9,1.7,18,M,,M,,*58
06/15/2015	01:01:28.567	$GPGGA,010129,2433.2659,N,08109.8085,W,1,9,1.7,18,M,,M,,*56
06/15/2015	01:01:29.587	$GPGGA,010130,2433.2654,N,08109.8078,W,1,9,1.7,18,M,,M,,*51
06/15/2015	01:01:30.567	$GPGGA,010131,2433.2650,N,08109.8074,W,1,9,1.7,18,M,,M,,*58
06/15/2015	01:01:31.567	$GPGGA,010132,2433.2644,N,08109.8072,W,1,9,1.7,18,M,,M,,*58
06/15/2015	01:01:32.557	$GPGGA,010133,2433.2639,N,08109.8066,W,1,9,1.7,18,M,,M,,*56
06/15/2015	01:01:34.587	$GPGGA,010135,2433.2630,N,08109.8059,W,1,9,1.7,18,M,,M,,*55
06/15/2015	01:01:35.577	$GPGGA,010136,2433.2625,N,08109.8055,W,1,9,1.7,18,M,,M,,*5E
06/15/2015	01:01:36.557	$GPGGA,010137,2433.2621,N,08109.8050,W,1,9,1.7,18,M,,M,,*5E
06/15/2015	01:01:37.537	$GPGGA,010138,2433.2615,N,08109.8046,W,1,8,1.8,18,M,,M,,*5F
06/15/2015	01:01:38.547	$GPGGA,010139,2433.2611,N,08109.8043,W,1,8,1.7,18,M,,M,,*50
06/15/2015	01:01:39.577	$GPGGA,010140,2433.2608,N,08109.8038,W,1,9,1.7,18,M,,M,,*5B
06/15/2015	01:01:40.547	$GPGGA,010141,2433.2603,N,08109.8032,W,1,9,1.6,18,M,,M,,*5A
06/15/2015	01:01:41.567	$GPGGA,010142,2433.2600,N,08109.8029,W,1,9,1.6,18,M,,M,,*50
06/15/2015	01:01:42.537	$GPGGA,010143,2433.2598,N,08109.8024,W,1,9,1.6,18,M,,M,,*5E
06/15/2015	01:01:43.568	$GPGGA,010144,2433.2593,N,08109.8019,W,1,8,1.7,18,M,,M,,*5C
06/15/2015	01:01:44.537	$GPGGA,010145,2433.2589,N,08109.8015,W,1,8,1.6,18,M,,M,,*5B
06/15/2015	01:01:45.528	$GPGGA,010146,2433.2583,N,08109.8011,W,1,9,1.6,18,M,,M,,*57
06/15/2015	01:01:46.537	$GPGGA,010147,2433.2579,N,08109.8006,W,1,9,1.6,18,M,,M,,*55
06/15/2015	01:01:47.577	$GPGGA,010148,2433.2576,N,08109.8000,W,1,10,1.6,18,M,,M,,*6B
06/15/2015	01:01:48.527	$GPGGA,010149,2433.2571,N,08109.7995,W,1,10,1.6,18,M,,M,,*67
06/15/2015	01:01:49.557	$GPGGA,010150,2433.2565,N,08109.7992,W,1,10,1.6,18,M,,M,,*6D
06/15/2015	01:01:50.518	$GPGGA,010151,2433.2560,N,08109.7988,W,1,10,1.6,18,M,,M,,*62
06/15/2015	01:01:51.527	$GPGGA,010152,2433.2557,N,08109.7982,W,1,10,1.6,18,M,,M,,*6F
06/15/2015	01:01:52.521	$GPGGA,010153,2433.2552,N,08109.7976,W,1,10,1.6,18,M,,M,,*60
06/15/2015	01:01:53.507	$GPGGA,010154,2433.2547,N,08109.7971,W,1,9,1.6,18,M,,M,,*5C
06/15/2015	01:01:54.536	$GPGGA,010155,2433.2542,N,08109.7966,W,1,9,1.6,18,M,,M,,*5E
06/15/2015	01:01:55.557	$GPGGA,010156,2433.2538,N,08109.7961,W,1,10,1.6,19,M,,M,,*6E
06/15/2015	01:01:56.519	$GPGGA,010157,2433.2533,N,08109.7958,W,1,10,1.6,19,M,,M,,*6E
06/15/2015	01:01:57.617	$GPGGA,010158,2433.2527,N,08109.7952,W,1,10,1.6,19,M,,M,,*6E
06/15/2015	01:01:58.523	$GPGGA,010159,2433.2523,N,08109.7947,W,1,10,1.6,19,M,,M,,*6F
06/15/2015	01:01:59.657	$GPGGA,010200,2433.2518,N,08109.7941,W,1,10,1.6,19,M,,M,,*6E
06/15/2015	01:02:00.525	$GPGGA,010201,2433.2514,N,08109.7935,W,1,10,1.6,19,M,,M,,*60
06/15/2015	01:02:01.631	$GPGGA,010202,2433.2509,N,08109.7930,W,1,10,1.6,19,M,,M,,*6A
06/15/2015	01:02:02.617	$GPGGA,010203,2433.2504,N,08109.7924,W,1,10,1.6,19,M,,M,,*63
06/15/2015	01:02:03.537	$GPGGA,010204,2433.2500,N,08109.7917,W,1,10,1.6,19,M,,M,,*60
06/15/2015	01:02:04.597	$GPGGA,010205,2433.2495,N,08109.7911,W,1,10,1.6,19,M,,M,,*6A
06/15/2015	01:02:06.627	$GPGGA,010207,2433.2485,N,08109.7900,W,1,10,1.7,19,M,,M,,*68
06/15/2015	01:02:07.619	$GPGGA,010208,2433.2481,N,08109.7894,W,1,10,1.6,19,M,,M,,*6E
06/15/2015	01:02:08.587	$GPGGA,010209,2433.2477,N,08109.7886,W,1,10,1.6,19,M,,M,,*65
06/15/2015	01:02:09.587	$GPGGA,010210,2433.2471,N,08109.7880,W,1,10,1.6,19,M,,M,,*6D
06/15/2015	01:02:10.577	$GPGGA,010211,2433.2467,N,08109.7875,W,1,10,1.6,19,M,,M,,*61
06/15/2015	01:02:11.597	$GPGGA,010212,2433.2463,N,08109.7869,W,1,10,1.6,19,M,,M,,*6B
06/15/2015	01:02:12.587	$GPGGA,010213,2433.2460,N,08109.7861,W,1,10,1.6,19,M,,M,,*61
06/15/2015	01:02:13.597	$GPGGA,010214,2433.2455,N,08109.7855,W,1,10,1.6,19,M,,M,,*67
06/15/2015	01:02:14.577	$GPGGA,010215,2433.2450,N,08109.7850,W,1,10,1.6,19,M,,M,,*66
06/15/2015	01:02:15.577	$GPGGA,010216,2433.2446,N,08109.7844,W,1,10,1.6,19,M,,M,,*67
06/15/2015	01:02:16.557	$GPGGA,010217,2433.2442,N,08109.7837,W,1,10,1.6,19,M,,M,,*66
06/15/2015	01:02:17.597	$GPGGA,010218,2433.2437,N,08109.7830,W,1,10,1.6,19,M,,M,,*6C
06/15/2015	01:02:18.597	$GPGGA,010219,2433.2433,N,08109.7825,W,1,10,1.6,19,M,,M,,*6D
06/15/2015	01:02:19.607	$GPGGA,010220,2433.2430,N,08109.7818,W,1,9,1.7,19,M,,M,,*53
06/15/2015	01:02:20.557	$GPGGA,010221,2433.2424,N,08109.7811,W,1,9,1.6,19,M,,M,,*5F
06/15/2015	01:02:21.547	$GPGGA,010222,2433.2421,N,08109.7806,W,1,10,1.6,19,M,,M,,*67
06/15/2015	01:02:22.557	$GPGGA,010223,2433.2417,N,08109.7800,W,1,10,1.6,19,M,,M,,*65
06/15/2015	01:02:23.567	$GPGGA,010224,2433.2412,N,08109.7793,W,1,10,1.6,19,M,,M,,*62
06/15/2015	01:02:24.557	$GPGGA,010225,2433.2410,N,08109.7788,W,1,10,2.2,19,M,,M,,*6C
06/15/2015	01:02:25.557	$GPGGA,010226,2433.2406,N,08109.7783,W,1,10,1.6,19,M,,M,,*64
06/15/2015	01:02:26.547	$GPGGA,010227,2433.2401,N,08109.7776,W,1,10,1.7,19,M,,M,,*69
06/15/2015	01:02:27.577	$GPGGA,010228,2433.2397,N,08109.7772,W,1,9,2.1,19,M,,M,,*57
06/15/2015	01:02:28.547	$GPGGA,010229,2433.2393,N,08109.7767,W,1,9,1.6,19,M,,M,,*52
06/15/2015	01:02:29.567	$GPGGA,010230,2433.2390,N,08109.7761,W,1,10,1.6,19,M,,M,,*67
06/15/2015	01:02:30.537	$GPGGA,010231,2433.2385,N,08109.7756,W,1,10,1.6,19,M,,M,,*66
06/15/2015	01:02:31.567	$GPGGA,010232,2433.2383,N,08109.7749,W,1,10,1.6,20,M,,M,,*67
06/15/2015	01:02:32.529	$GPGGA,010233,2433.2376,N,08109.7743,W,1,10,2.2,20,M,,M,,*61
06/15/2015	01:02:33.537	$GPGGA,010234,2433.2373,N,08109.7737,W,1,9,2.1,20,M,,M,,*5B
06/15/2015	01:02:34.528	$GPGGA,010235,2433.2368,N,08109.7730,W,1,9,1.6,20,M,,M,,*53
06/15/2015	01:02:35.537	$GPGGA,010236,2433.2365,N,08109.7724,W,1,9,2.1,20,M,,M,,*5C
06/15/2015	01:02:36.527	$GPGGA,010237,2433.2362,N,08109.7717,W,1,9,1.6,20,M,,M,,*5E
06/15/2015	01:02:37.523	$GPGGA,010238,2433.2358,N,08109.7709,W,1,10,1.6,21,M,,M,,*6E
06/15/2015	01:02:38.529	$GPGGA,010239,2433.2354,N,08109.7703,W,1,10,1.6,21,M,,M,,*69
06/15/2015	01:02:39.557	$GPGGA,010240,2433.2351,N,08109.7696,W,1,9,2.1,21,M,,M,,*53
06/15/2015	01:02:40.519	$GPGGA,010241,2433.2350,N,08109.7689,W,1,9,1.6,21,M,,M,,*59
06/15/2015	01:02:41.530	$GPGGA,010242,2433.2346,N,08109.7681,W,1,10,1.6,21,M,,M,,*6D
06/15/2015	01:02:42.527	$GPGGA,010243,2433.2343,N,08109.7674,W,1,10,1.6,21,M,,M,,*63
06/15/2015	01:02:43.547	$GPGGA,010244,2433.2340,N,08109.7668,W,1,9,2.1,21,M,,M,,*56
06/15/2015	01:02:44.520	$GPGGA,010245,2433.2336,N,08109.7662,W,1,9,2.1,21,M,,M,,*5C
06/15/2015	01:02:45.517	$GPGGA,010246,2433.2332,N,08109.7655,W,1,9,1.7,21,M,,M,,*5A
06/15/2015	01:02:46.619	$GPGGA,010247,2433.2328,N,08109.7649,W,1,9,1.6,21,M,,M,,*5C
06/15/2015	01:02:47.597	$GPGGA,010248,2433.2326,N,08109.7643,W,1,9,2.1,22,M,,M,,*50
06/15/2015	01:02:48.619	$GPGGA,010249,2433.2322,N,08109.7635,W,1,9,1.6,22,M,,M,,*50
06/15/2015	01:02:49.587	$GPGGA,010250,2433.2318,N,08109.7628,W,1,10,1.6,22,M,,M,,*65
06/15/2015	01:02:50.497	$GPGGA,010251,2433.2316,N,08109.7622,W,1,10,2.1,22,M,,M,,*64
06/15/2015	01:02:51.628	$GPGGA,010252,2433.2314,N,08109.7614,W,1,10,1.6,22,M,,M,,*64
06/15/2015	01:02:52.507	$GPGGA,010253,2433.2311,N,08109.7606,W,1,10,1.6,22,M,,M,,*63
06/15/2015	01:02:53.607	$GPGGA,010254,2433.2310,N,08109.7599,W,1,10,1.6,22,M,,M,,*60
06/15/2015	01:02:54.498	$GPGGA,010255,2433.2305,N,08109.7593,W,1,10,1.6,22,M,,M,,*6F
06/15/2015	01:02:55.607	$GPGGA,010256,2433.2301,N,08109.7588,W,1,9,2.0,22,M,,M,,*5F
06/15/2015	01:02:57.519	$GPGGA,010258,2433.2291,N,08109.7578,W,1,10,1.6,22,M,,M,,*6B
06/15/2015	01:02:58.487	$GPGGA,010259,2433.2289,N,08109.7572,W,1,10,1.6,22,M,,M,,*69
06/15/2015	01:02:59.497	$GPGGA,010300,2433.2287,N,08109.7564,W,1,9,2.0,23,M,,M,,*51
06/15/2015	01:03:00.567	$GPGGA,010301,2433.2285,N,08109.7556,W,1,9,1.8,23,M,,M,,*58
06/15/2015	01:03:01.468	$GPGGA,010302,2433.2280,N,08109.7549,W,1,10,1.6,23,M,,M,,*66
06/15/2015	01:03:02.567	$GPGGA,010303,2433.2276,N,08109.7542,W,1,10,1.9,23,M,,M,,*6A
06/15/2015	01:03:03.577	$GPGGA,010304,2433.2273,N,08109.7536,W,1,9,1.8,23,M,,M,,*52
06/15/2015	01:03:04.567	$GPGGA,010305,2433.2271,N,08109.7530,W,1,9,1.6,23,M,,M,,*59
06/15/2015	01:03:05.577	$GPGGA,010306,2433.2264,N,08109.7522,W,1,10,1.6,23,M,,M,,*65
06/15/2015	01:03:06.557	$GPGGA,010307,2433.2260,N,08109.7514,W,1,10,1.6,23,M,,M,,*65
06/15/2015	01:03:07.597	$GPGGA,010308,2433.2257,N,08109.7507,W,1,10,1.6,23,M,,M,,*6C
06/15/2015	01:03:08.557	$GPGGA,010309,2433.2253,N,08109.7502,W,1,10,1.6,23,M,,M,,*6C
06/15/2015	01:03:09.547	$GPGGA,010310,2433.2249,N,08109.7496,W,1,10,1.6,24,M,,M,,*64
06/15/2015	01:03:10.557	$GPGGA,010311,2433.2244,N,08109.7488,W,1,10,1.6,24,M,,M,,*67
06/15/2015	01:03:11.597	$GPGGA,010312,2433.2240,N,08109.7482,W,1,9,1.7,24,M,,M,,*53
06/15/2015	01:03:12.557	$GPGGA,010313,2433.2235,N,08109.7478,W,1,9,1.6,24,M,,M,,*54
06/15/2015	01:03:13.537	$GPGGA,010314,2433.2232,N,08109.7471,W,1,10,1.6,24,M,,M,,*65
06/15/2015	01:03:14.547	$GPGGA,010315,2433.2229,N,08109.7463,W,1,10,1.6,24,M,,M,,*6D
06/15/2015	01:03:15.587	$GPGGA,010316,2433.2225,N,08109.7459,W,1,10,1.6,24,M,,M,,*6B
06/15/2015	01:03:16.547	$GPGGA,010317,2433.2220,N,08109.7454,W,1,10,1.6,24,M,,M,,*62
06/15/2015	01:03:17.547	$GPGGA,010318,2433.2217,N,08109.7447,W,1,10,1.6,24,M,,M,,*6B
06/15/2015	01:03:18.547	$GPGGA,010319,2433.2213,N,08109.7441,W,1,10,1.6,24,M,,M,,*68
06/15/2015	01:03:19.557	$GPGGA,010320,2433.2209,N,08109.7435,W,1,10,1.6,24,M,,M,,*6A
06/15/2015	01:03:20.528	$GPGGA,010321,2433.2204,N,08109.7429,W,1,10,1.6,24,M,,M,,*6B
06/15/2015	01:03:21.537	$GPGGA,010322,2433.2199,N,08109.7423,W,1,9,1.8,24,M,,M,,*53
06/15/2015	01:03:22.531	$GPGGA,010323,2433.2196,N,08109.7418,W,1,9,1.7,24,M,,M,,*5A
06/15/2015	01:03:23.537	$GPGGA,010324,2433.2192,N,08109.7413,W,1,10,1.6,24,M,,M,,*6B
06/15/2015	01:03:24.517	$GPGGA,010325,2433.2188,N,08109.7407,W,1,10,1.6,24,M,,M,,*64
06/15/2015	01:03:25.508	$GPGGA,010326,2433.2184,N,08109.7402,W,1,10,1.6,24,M,,M,,*6E
06/15/2015	01:03:26.632	$GPGGA,010327,2433.2179,N,08109.7397,W,1,10,1.6,24,M,,M,,*66
06/15/2015	01:03:27.547	$GPGGA,010328,2433.2177,N,08109.7390,W,1,10,1.6,24,M,,M,,*60
06/15/2015	01:03:28.507	$GPGGA,010329,2433.2171,N,08109.7386,W,1,10,1.6,24,M,,M,,*60
06/15/2015	01:03:29.517	$GPGGA,010330,2433.2166,N,08109.7379,W,1,10,1.6,24,M,,M,,*6E
06/15/2015	01:03:30.517	$GPGGA,010331,2433.2161,N,08109.7373,W,1,10,1.6,24,M,,M,,*62
06/15/2015	01:03:31.577	$GPGGA,010332,2433.2157,N,08109.7369,W,1,10,1.6,24,M,,M,,*6F
06/15/2015	01:03:32.520	$GPGGA,010333,2433.2152,N,08109.7364,W,1,10,1.6,23,M,,M,,*61
06/15/2015	01:03:33.630	$GPGGA,010334,2433.2148,N,08109.7356,W,1,10,1.6,23,M,,M,,*6C
06/15/2015	01:03:34.507	$GPGGA,010335,2433.2143,N,08109.7350,W,1,10,1.6,23,M,,M,,*60
06/15/2015	01:03:35.607	$GPGGA,010336,2433.2137,N,08109.7347,W,1,10,1.6,23,M,,M,,*66
06/15/2015	01:03:36.497	$GPGGA,010337,2433.2135,N,08109.7341,W,1,10,1.6,23,M,,M,,*63
06/15/2015	01:03:37.497	$GPGGA,010338,2433.2130,N,08109.7335,W,1,10,1.6,23,M,,M,,*6A
06/15/2015	01:03:38.597	$GPGGA,010339,2433.2123,N,08109.7330,W,1,10,1.6,23,M,,M,,*6C
06/15/2015	01:03:39.498	$GPGGA,010340,2433.2120,N,08109.7325,W,1,10,1.6,23,M,,M,,*65
06/15/2015	01:03:40.497	$GPGGA,010341,2433.2116,N,08109.7319,W,1,10,1.6,23,M,,M,,*6E
06/15/2015	01:03:41.625	$GPGGA,010342,2433.2112,N,08109.7314,W,1,10,1.6,23,M,,M,,*64
06/15/2015	01:03:42.497	$GPGGA,010343,2433.2108,N,08109.7310,W,1,10,1.6,23,M,,M,,*6A
06/15/2015	01:03:43.657	$GPGGA,010344,2433.2102,N,08109.7303,W,1,10,1.6,23,M,,M,,*65
06/15/2015	01:03:44.487	$GPGGA,010345,2433.2098,N,08109.7297,W,1,10,1.6,23,M,,M,,*6A
06/15/2015	01:03:45.477	$GPGGA,010346,2433.2094,N,08109.7292,W,1,10,1.6,23,M,,M,,*60
06/15/2015	01:03:46.567	$GPGGA,010347,2433.2090,N,08109.7286,W,1,10,1.6,23,M,,M,,*60
06/15/2015	01:03:47.607	$GPGGA,010348,2433.2086,N,08109.7279,W,1,10,1.6,23,M,,M,,*68
06/15/2015	01:03:48.567	$GPGGA,010349,2433.2081,N,08109.7274,W,1,10,1.6,23,M,,M,,*63
06/15/2015	01:03:49.587	$GPGGA,010350,2433.2076,N,08109.7269,W,1,10,1.6,23,M,,M,,*6F
06/15/2015	01:03:50.577	$GPGGA,010351,2433.2072,N,08109.7262,W,1,10,1.6,23,M,,M,,*61
06/15/2015	01:03:51.597	$GPGGA,010352,2433.2068,N,08109.7256,W,1,10,1.6,23,M,,M,,*6E
06/15/2015	01:03:52.567	$GPGGA,010353,2433.2063,N,08109.7251,W,1,10,1.6,23,M,,M,,*63
06/15/2015	01:03:53.557	$GPGGA,010354,2433.2057,N,08109.7246,W,1,10,1.6,22,M,,M,,*64
06/15/2015	01:03:54.567	$GPGGA,010355,2433.2054,N,08109.7238,W,1,10,1.6,22,M,,M,,*6F
06/15/2015	01:03:55.597	$GPGGA,010356,2433.2051,N,08109.7233,W,1,10,1.6,22,M,,M,,*62
06/15/2015	01:03:56.558	$GPGGA,010357,2433.2044,N,08109.7228,W,1,10,1.6,22,M,,M,,*6D
06/15/2015	01:03:57.587	$GPGGA,010358,2433.2040,N,08109.7222,W,1,10,1.6,22,M,,M,,*6C
06/15/2015	01:03:58.557	$GPGGA,010359,2433.2038,N,08109.7216,W,1,10,1.6,22,M,,M,,*65
06/15/2015	01:03:59.641	$GPGGA,010400,2433.2033,N,08109.7210,W,1,10,1.6,22,M,,M,,*63
06/15/2015	01:04:00.547	$GPGGA,010401,2433.2029,N,08109.7204,W,1,10,1.6,22,M,,M,,*6C
06/15/2015	01:04:01.567	$GPGGA,010402,2433.2025,N,08109.7197,W,1,10,1.6,22,M,,M,,*6A
06/15/2015	01:04:02.547	$GPGGA,010403,2433.2021,N,08109.7192,W,1,10,1.6,22,M,,M,,*6A
06/15/2015	01:04:03.618	$GPGGA,010404,2433.2016,N,08109.7184,W,1,10,1.6,22,M,,M,,*6E
06/15/2015	01:04:04.837	$GPGGA,010405,2433.2012,N,08109.7178,W,1,10,1.6,22,M,,M,,*68
06/15/2015	01:04:05.537	$GPGGA,010406,2433.2008,N,08109.7173,W,1,10,1.6,22,M,,M,,*6B
06/15/2015	01:04:06.527	$GPGGA,010407,2433.2004,N,08109.7167,W,1,10,1.6,21,M,,M,,*60
06/15/2015	01:04:07.557	$GPGGA,010408,2433.2000,N,08109.7160,W,1,10,1.6,21,M,,M,,*6C
06/15/2015	01:04:08.537	$GPGGA,010409,2433.1996,N,08109.7153,W,1,10,1.6,21,M,,M,,*68
06/15/2015	01:04:10.990	$GPGGA,010411,2433.1987,N,08109.7141,W,1,10,1.6,21,M,,M,,*62
06/15/2015	01:04:11.566	$GPGGA,010412,2433.1984,N,08109.7134,W,1,10,1.6,21,M,,M,,*60
06/15/2015	01:04:12.526	$GPGGA,010413,2433.1982,N,08109.7127,W,1,10,1.6,21,M,,M,,*65
06/15/2015	01:04:13.526	$GPGGA,010414,2433.1976,N,08109.7121,W,1,10,1.6,21,M,,M,,*6F
06/15/2015	01:04:14.509	$GPGGA,010415,2433.1971,N,08109.7114,W,1,10,1.7,21,M,,M,,*6E
06/15/2015	01:04:15.546	$GPGGA,010416,2433.1969,N,08109.7108,W,1,9,1.6,21,M,,M,,*50
06/15/2015	01:04:16.516	$GPGGA,010417,2433.1965,N,08109.7101,W,1,9,1.6,21,M,,M,,*54
06/15/2015	01:04:17.526	$GPGGA,010418,2433.1961,N,08109.7094,W,1,10,1.6,21,M,,M,,*6A
06/15/2015	01:04:18.756	$GPGGA,010419,2433.1958,N,08109.7087,W,1,10,2.0,20,M,,M,,*67
06/15/2015	01:04:19.536	$GPGGA,010420,2433.1953,N,08109.7083,W,1,9,1.6,20,M,,M,,*5F
06/15/2015	01:04:20.522	$GPGGA,010421,2433.1950,N,08109.7077,W,1,9,1.7,21,M,,M,,*56
06/15/2015	01:04:21.507	$GPGGA,010422,2433.1949,N,08109.7070,W,1,9,1.6,21,M,,M,,*5B
06/15/2015	01:04:22.487	$GPGGA,010423,2433.1945,N,08109.7064,W,1,9,2.2,21,M,,M,,*54
06/15/2015	01:04:23.618	$GPGGA,010424,2433.1940,N,08109.7059,W,1,8,2.0,21,M,,M,,*5B
06/15/2015	01:04:24.517	$GPGGA,010425,2433.1937,N,08109.7052,W,1,8,1.6,21,M,,M,,*54
06/15/2015	01:04:25.577	$GPGGA,010426,2433.1935,N,08109.7044,W,1,10,1.6,21,M,,M,,*6B
06/15/2015	01:04:26.527	$GPGGA,010427,2433.1932,N,08109.7037,W,1,10,1.6,21,M,,M,,*69
06/15/2015	01:04:27.537	$GPGGA,010428,2433.1929,N,08109.7031,W,1,10,1.8,21,M,,M,,*64
06/15/2015	01:04:28.596	$GPGGA,010429,2433.1927,N,08109.7025,W,1,10,1.8,21,M,,M,,*6E
06/15/2015	01:04:29.586	$GPGGA,010430,2433.1922,N,08109.7020,W,1,9,1.6,21,M,,M,,*50
06/15/2015	01:04:30.576	$GPGGA,010431,2433.1915,N,08109.7017,W,1,9,1.6,21,M,,M,,*51
06/15/2015	01:04:31.576	$GPGGA,010432,2433.1911,N,08109.7014,W,1,10,1.6,22,M,,M,,*6E
06/15/2015	01:04:32.486	$GPGGA,010433,2433.1908,N,08109.7007,W,1,10,1.7,22,M,,M,,*64
06/15/2015	01:04:33.586	$GPGGA,010434,2433.1906,N,08109.7001,W,1,9,2.0,22,M,,M,,*57
06/15/2015	01:04:34.556	$GPGGA,010435,2433.1903,N,08109.6994,W,1,9,2.0,22,M,,M,,*57
06/15/2015	01:04:35.586	$GPGGA,010436,2433.1899,N,08109.6987,W,1,9,2.0,22,M,,M,,*54
06/15/2015	01:04:36.566	$GPGGA,010437,2433.1895,N,08109.6981,W,1,9,1.6,23,M,,M,,*5B
06/15/2015	01:04:37.556	$GPGGA,010438,2433.1893,N,08109.6974,W,1,10,1.6,23,M,,M,,*60
06/15/2015	01:04:38.556	$GPGGA,010439,2433.1889,N,08109.6968,W,1,10,1.6,23,M,,M,,*67
06/15/2015	01:04:39.587	$GPGGA,010440,2433.1886,N,08109.6960,W,1,10,1.6,23,M,,M,,*6E
06/15/2015	01:04:40.557	$GPGGA,010441,2433.1884,N,08109.6954,W,1,10,1.6,23,M,,M,,*6A
06/15/2015	01:04:41.537	$GPGGA,010442,2433.1882,N,08109.6948,W,1,9,2.0,24,M,,M,,*58
06/15/2015	01:04:42.547	$GPGGA,010443,2433.1879,N,08109.6939,W,1,9,1.6,24,M,,M,,*5E
06/15/2015	01:04:43.557	$GPGGA,010444,2433.1877,N,08109.6932,W,1,10,1.6,24,M,,M,,*64
06/15/2015	01:04:44.557	$GPGGA,010445,2433.1874,N,08109.6928,W,1,10,2.0,24,M,,M,,*68
06/15/2015	01:04:45.557	$GPGGA,010446,2433.1871,N,08109.6922,W,1,10,1.6,24,M,,M,,*61
06/15/2015	01:04:46.546	$GPGGA,010447,2433.1868,N,08109.6914,W,1,10,1.6,24,M,,M,,*6D
06/15/2015	01:04:47.536	$GPGGA,010448,2433.1866,N,08109.6909,W,1,9,2.0,24,M,,M,,*5D
06/15/2015	01:04:48.536	$GPGGA,010449,2433.1862,N,08109.6905,W,1,9,2.0,24,M,,M,,*54
06/15/2015	01:04:49.556	$GPGGA,010450,2433.1859,N,08109.6899,W,1,10,1.6,25,M,,M,,*6C
06/15/2015	01:04:50.536	$GPGGA,010451,2433.1856,N,08109.6893,W,1,10,1.6,25,M,,M,,*68
06/15/2015	01:04:51.566	$GPGGA,010452,2433.1852,N,08109.6889,W,1,9,2.0,25,M,,M,,*59
06/15/2015	01:04:52.526	$GPGGA,010453,2433.1849,N,08109.6884,W,1,9,1.6,25,M,,M,,*5A
06/15/2015	01:04:53.519	$GPGGA,010454,2433.1846,N,08109.6878,W,1,10,1.6,25,M,,M,,*69
06/15/2015	01:04:54.518	$GPGGA,010455,2433.1842,N,08109.6873,W,1,10,2.0,25,M,,M,,*62
06/15/2015	01:04:55.536	$GPGGA,010456,2433.1839,N,08109.6867,W,1,10,1.6,25,M,,M,,*6D
06/15/2015	01:04:56.536	$GPGGA,010457,2433.1837,N,08109.6861,W,1,10,1.6,25,M,,M,,*64
06/15/2015	01:04:57.511	$GPGGA,010458,2433.1834,N,08109.6856,W,1,10,1.6,25,M,,M,,*6C
06/15/2015	01:04:58.511	$GPGGA,010459,2433.1831,N,08109.6850,W,1,10,1.6,25,M,,M,,*6E
06/15/2015	01:04:59.557	$GPGGA,010500,2433.1828,N,08109.6844,W,1,10,1.6,25,M,,M,,*6E
06/15/2015	01:05:00.520	$GPGGA,010501,2433.1825,N,08109.6840,W,1,10,1.6,25,M,,M,,*66
06/15/2015	01:05:01.497	$GPGGA,010502,2433.1823,N,08109.6834,W,1,10,1.6,25,M,,M,,*60
06/15/2015	01:05:02.509	$GPGGA,010503,2433.1819,N,08109.6827,W,1,10,1.6,25,M,,M,,*6A
06/15/2015	01:05:03.536	$GPGGA,010504,2433.1816,N,08109.6821,W,1,10,1.6,25,M,,M,,*64
06/15/2015	01:05:04.524	$GPGGA,010505,2433.1813,N,08109.6816,W,1,10,1.6,25,M,,M,,*64
06/15/2015	01:05:05.518	$GPGGA,010506,2433.1810,N,08109.6810,W,1,10,1.6,25,M,,M,,*62
06/15/2015	01:05:06.496	$GPGGA,010507,2433.1806,N,08109.6803,W,1,10,1.6,25,M,,M,,*66
06/15/2015	01:05:08.012	$GPGGA,010508,2433.1802,N,08109.6797,W,1,11,1.3,25,M,,M,,*6B
06/15/2015	01:05:08.516	$GPGGA,010509,2433.1799,N,08109.6792,W,1,11,1.6,25,M,,M,,*67
06/15/2015	01:05:09.596	$GPGGA,010510,2433.1795,N,08109.6786,W,1,10,1.6,25,M,,M,,*67
06/15/2015	01:05:10.496	$GPGGA,010511,2433.1791,N,08109.6779,W,1,10,1.7,25,M,,M,,*63
06/15/2015	01:05:11.596	$GPGGA,010512,2433.1790,N,08109.6775,W,1,10,1.6,25,M,,M,,*6C
06/15/2015	01:05:12.496	$GPGGA,010513,2433.1785,N,08109.6769,W,1,10,1.6,25,M,,M,,*64
06/15/2015	01:05:13.586	$GPGGA,010514,2433.1781,N,08109.6762,W,1,10,1.6,25,M,,M,,*6C
06/15/2015	01:05:14.487	$GPGGA,010515,2433.1778,N,08109.6757,W,1,10,1.6,25,M,,M,,*6D
06/15/2015	01:05:15.587	$GPGGA,010516,2433.1776,N,08109.6753,W,1,10,1.6,24,M,,M,,*65
06/15/2015	01:05:16.567	$GPGGA,010517,2433.1770,N,08109.6747,W,1,10,1.6,24,M,,M,,*67
06/15/2015	01:05:17.477	$GPGGA,010518,2433.1767,N,08109.6742,W,1,10,1.6,24,M,,M,,*6B
06/15/2015	01:05:18.477	$GPGGA,010519,2433.1765,N,08109.6737,W,1,10,1.6,24,M,,M,,*6A
06/15/2015	01:05:19.615	$GPGGA,010520,2433.1760,N,08109.6732,W,1,10,1.6,24,M,,M,,*60
06/15/2015	01:05:20.567	$GPGGA,010521,2433.1756,N,08109.6726,W,1,10,1.6,24,M,,M,,*61
06/15/2015	01:05:21.586	$GPGGA,010522,2433.1754,N,08109.6721,W,1,10,1.6,24,M,,M,,*67
06/15/2015	01:05:22.576	$GPGGA,010523,2433.1748,N,08109.6717,W,1,10,1.6,24,M,,M,,*6E
06/15/2015	01:05:23.586	$GPGGA,010524,2433.1744,N,08109.6712,W,1,10,1.6,24,M,,M,,*60
06/15/2015	01:05:24.566	$GPGGA,010525,2433.1742,N,08109.6708,W,1,10,1.6,24,M,,M,,*6C
06/15/2015	01:05:25.586	$GPGGA,010526,2433.1736,N,08109.6701,W,1,10,1.6,24,M,,M,,*65
06/15/2015	01:05:26.546	$GPGGA,010527,2433.1732,N,08109.6695,W,1,10,1.3,24,M,,M,,*69
06/15/2015	01:05:27.566	$GPGGA,010528,2433.1729,N,08109.6693,W,1,10,1.6,24,M,,M,,*6F
06/15/2015	01:05:28.556	$GPGGA,010529,2433.1725,N,08109.6688,W,1,10,1.6,24,M,,M,,*68
06/15/2015	01:05:29.566	$GPGGA,010530,2433.1722,N,08109.6682,W,1,10,1.6,24,M,,M,,*6D
06/15/2015	01:05:30.547	$GPGGA,010531,2433.1720,N,08109.6679,W,1,10,1.6,24,M,,M,,*6A
06/15/2015	01:05:31.577	$GPGGA,010532,2433.1716,N,08109.6675,W,1,10,1.6,24,M,,M,,*60
06/15/2015	01:05:32.547	$GPGGA,010533,2433.1712,N,08109.6670,W,1,10,1.6,24,M,,M,,*60
06/15/2015	01:05:33.557	$GPGGA,010534,2433.1707,N,08109.6665,W,1,10,1.6,23,M,,M,,*60
06/15/2015	01:05:34.537	$GPGGA,010535,2433.1704,N,08109.6661,W,1,10,1.3,23,M,,M,,*63
06/15/2015	01:05:35.567	$GPGGA,010536,2433.1700,N,08109.6656,W,1,11,1.3,23,M,,M,,*61
06/15/2015	01:05:36.547	$GPGGA,010537,2433.1695,N,08109.6651,W,1,11,1.3,23,M,,M,,*6A
06/15/2015	01:05:37.527	$GPGGA,010538,2433.1691,N,08109.6647,W,1,11,1.3,23,M,,M,,*66
06/15/2015	01:05:38.536	$GPGGA,010539,2433.1689,N,08109.6643,W,1,11,1.3,23,M,,M,,*6A
06/15/2015	01:05:39.556	$GPGGA,010540,2433.1687,N,08109.6638,W,1,10,1.6,23,M,,M,,*62
06/15/2015	01:05:40.536	$GPGGA,010541,2433.1684,N,08109.6635,W,1,10,1.6,23,M,,M,,*6D
06/15/2015	01:05:41.526	$GPGGA,010542,2433.1682,N,08109.6631,W,1,10,1.6,23,M,,M,,*6C
06/15/2015	01:05:42.526	$GPGGA,010543,2433.1678,N,08109.6626,W,1,10,1.3,23,M,,M,,*6B
06/15/2015	01:05:43.516	$GPGGA,010544,2433.1675,N,08109.6622,W,1,10,1.6,23,M,,M,,*60
06/15/2015	01:05:44.506	$GPGGA,010545,2433.1674,N,08109.6618,W,1,10,1.6,23,M,,M,,*69
06/15/2015	01:05:45.536	$GPGGA,010546,2433.1673,N,08109.6613,W,1,10,1.6,23,M,,M,,*66
06/15/2015	01:05:46.507	$GPGGA,010547,2433.1671,N,08109.6609,W,1,10,1.6,23,M,,M,,*6E
06/15/2015	01:05:47.526	$GPGGA,010548,2433.1667,N,08109.6605,W,1,10,1.6,23,M,,M,,*6A
06/15/2015	01:05:48.521	$GPGGA,010549,2433.1664,N,08109.6600,W,1,10,1.6,23,M,,M,,*6D
06/15/2015	01:05:50.697	$GPGGA,010551,2433.1660,N,08109.6592,W,1,10,1.6,22,M,,M,,*69
06/15/2015	01:05:51.527	$GPGGA,010552,2433.1657,N,08109.6588,W,1,10,1.6,22,M,,M,,*65
06/15/2015	01:05:52.509	$GPGGA,010553,2433.1654,N,08109.6585,W,1,10,2.0,22,M,,M,,*6F
06/15/2015	01:05:53.618	$GPGGA,010554,2433.1651,N,08109.6583,W,1,10,1.6,22,M,,M,,*6E
06/15/2015	01:05:54.487	$GPGGA,010555,2433.1649,N,08109.6577,W,1,10,1.6,22,M,,M,,*6D
06/15/2015	01:05:55.519	$GPGGA,010556,2433.1646,N,08109.6573,W,1,9,2.0,22,M,,M,,*58
06/15/2015	01:05:56.496	$GPGGA,010557,2433.1642,N,08109.6572,W,1,9,2.0,22,M,,M,,*5C
06/15/2015	01:05:57.622	$GPGGA,010558,2433.1639,N,08109.6567,W,1,10,1.6,22,M,,M,,*66
06/15/2015	01:05:58.586	$GPGGA,010559,2433.1637,N,08109.6562,W,1,10,1.6,22,M,,M,,*6C
06/15/2015	01:05:59.606	$GPGGA,010600,2433.1630,N,08109.6562,W,1,9,2.0,22,M,,M,,*59
06/15/2015	01:06:00.586	$GPGGA,010601,2433.1628,N,08109.6557,W,1,9,1.6,22,M,,M,,*52
06/15/2015	01:06:01.476	$GPGGA,010602,2433.1626,N,08109.6552,W,1,9,2.0,22,M,,M,,*5F
06/15/2015	01:06:02.566	$GPGGA,010603,2433.1624,N,08109.6548,W,1,9,1.6,22,M,,M,,*52
06/15/2015	01:06:03.596	$GPGGA,010604,2433.1621,N,08109.6542,W,1,10,1.6,22,M,,M,,*62
06/15/2015	01:06:04.566	$GPGGA,010605,2433.1619,N,08109.6536,W,1,10,1.6,22,M,,M,,*6B
06/15/2015	01:06:05.566	$GPGGA,010606,2433.1617,N,08109.6532,W,1,9,2.0,22,M,,M,,*5F
06/15/2015	01:06:06.557	$GPGGA,010607,2433.1613,N,08109.6529,W,1,9,2.0,22,M,,M,,*50
06/15/2015	01:06:07.597	$GPGGA,010608,2433.1613,N,08109.6523,W,1,10,1.6,22,M,,M,,*68
06/15/2015	01:06:08.567	$GPGGA,010609,2433.1610,N,08109.6517,W,1,10,1.6,22,M,,M,,*6D
06/15/2015	01:06:09.587	$GPGGA,010610,2433.1607,N,08109.6513,W,1,10,1.6,22,M,,M,,*67
06/15/2015	01:06:10.567	$GPGGA,010611,2433.1606,N,08109.6507,W,1,10,1.6,21,M,,M,,*61
06/15/2015	01:06:11.567	$GPGGA,010612,2433.1603,N,08109.6503,W,1,9,1.8,21,M,,M,,*55
06/15/2015	01:06:12.547	$GPGGA,010613,2433.1599,N,08109.6500,W,1,9,2.0,21,M,,M,,*5C
06/15/2015	01:06:13.566	$GPGGA,010614,2433.1599,N,08109.6495,W,1,9,1.8,21,M,,M,,*5D
06/15/2015	01:06:14.546	$GPGGA,010615,2433.1595,N,08109.6488,W,1,9,1.6,21,M,,M,,*52
06/15/2015	01:06:15.586	$GPGGA,010616,2433.1591,N,08109.6484,W,1,10,1.6,21,M,,M,,*61
06/15/2015	01:06:16.546	$GPGGA,010617,2433.1588,N,08109.6480,W,1,10,1.6,21,M,,M,,*6C
06/15/2015	01:06:17.536	$GPGGA,010618,2433.1585,N,08109.6473,W,1,10,1.6,21,M,,M,,*62
06/15/2015	01:06:18.546	$GPGGA,010619,2433.1582,N,08109.6469,W,1,10,1.7,21,M,,M,,*6E
06/15/2015	01:06:19.546	$GPGGA,010620,2433.1579,N,08109.6464,W,1,10,1.6,21,M,,M,,*6C
06/15/2015	01:06:20.546	$GPGGA,010621,2433.1577,N,08109.6457,W,1,10,1.6,21,M,,M,,*63
06/15/2015	01:06:22.576	$GPGGA,010623,2433.1571,N,08109.6449,W,1,10,1.7,21,M,,M,,*69
06/15/2015	01:06:24.567	$GPGGA,010625,2433.1567,N,08109.6437,W,1,10,1.6,21,M,,M,,*60
06/15/2015	01:06:25.567	$GPGGA,010626,2433.1566,N,08109.6433,W,1,10,1.6,21,M,,M,,*66
06/15/2015	01:06:26.527	$GPGGA,010627,2433.1561,N,08109.6428,W,1,10,1.3,21,M,,M,,*6F
06/15/2015	01:06:27.527	$GPGGA,010628,2433.1559,N,08109.6423,W,1,11,1.3,21,M,,M,,*61
06/15/2015	01:06:28.527	$GPGGA,010629,2433.1557,N,08109.6417,W,1,11,1.6,21,M,,M,,*6C
06/15/2015	01:06:29.515	$GPGGA,010630,2433.1555,N,08109.6411,W,1,10,1.6,22,M,,M,,*62
06/15/2015	01:06:30.527	$GPGGA,010631,2433.1550,N,08109.6407,W,1,10,1.6,22,M,,M,,*61
06/15/2015	01:06:31.566	$GPGGA,010632,2433.1548,N,08109.6403,W,1,10,1.6,22,M,,M,,*6F
06/15/2015	01:06:32.526	$GPGGA,010633,2433.1548,N,08109.6397,W,1,10,1.6,22,M,,M,,*64
06/15/2015	01:06:33.556	$GPGGA,010634,2433.1544,N,08109.6391,W,1,10,1.6,22,M,,M,,*69
06/15/2015	01:06:34.510	$GPGGA,010635,2433.1538,N,08109.6387,W,1,10,1.6,22,M,,M,,*64
06/15/2015	01:06:35.706	$GPGGA,010636,2433.1536,N,08109.6382,W,1,11,1.3,22,M,,M,,*68
06/15/2015	01:06:36.515	$GPGGA,010637,2433.1534,N,08109.6376,W,1,11,1.3,22,M,,M,,*60
06/15/2015	01:06:37.696	$GPGGA,010638,2433.1530,N,08109.6371,W,1,11,1.3,22,M,,M,,*6C
06/15/2015	01:06:38.646	$GPGGA,010639,2433.1524,N,08109.6366,W,1,11,1.3,22,M,,M,,*6E
06/15/2015	01:06:39.546	$GPGGA,010640,2433.1521,N,08109.6360,W,1,11,1.3,22,M,,M,,*63
06/15/2015	01:06:40.496	$GPGGA,010641,2433.1519,N,08109.6357,W,1,11,1.3,22,M,,M,,*6D
06/15/2015	01:06:41.498	$GPGGA,010642,2433.1516,N,08109.6353,W,1,10,1.4,22,M,,M,,*63
06/15/2015	01:06:42.498	$GPGGA,010643,2433.1512,N,08109.6348,W,1,10,1.3,22,M,,M,,*6B
06/15/2015	01:06:43.517	$GPGGA,010644,2433.1510,N,08109.6343,W,1,10,1.6,22,M,,M,,*60
06/15/2015	01:06:44.497	$GPGGA,010645,2433.1507,N,08109.6339,W,1,10,1.6,22,M,,M,,*6A
06/15/2015	01:06:45.517	$GPGGA,010646,2433.1505,N,08109.6336,W,1,10,1.6,22,M,,M,,*64
06/15/2015	01:06:46.487	$GPGGA,010647,2433.1505,N,08109.6332,W,1,10,1.7,22,M,,M,,*60
06/15/2015	01:06:47.497	$GPGGA,010648,2433.1502,N,08109.6327,W,1,10,1.6,22,M,,M,,*6D
06/15/2015	01:06:48.486	$GPGGA,010649,2433.1499,N,08109.6323,W,1,10,1.6,22,M,,M,,*6B
06/15/2015	01:06:49.576	$GPGGA,010650,2433.1497,N,08109.6319,W,1,10,1.6,22,M,,M,,*64
06/15/2015	01:06:50.576	$GPGGA,010651,2433.1494,N,08109.6314,W,1,10,1.3,21,M,,M,,*6D
06/15/2015	01:06:51.486	$GPGGA,010652,2433.1491,N,08109.6309,W,1,10,1.6,21,M,,M,,*62
06/15/2015	01:06:52.596	$GPGGA,010653,2433.1489,N,08109.6306,W,1,10,1.6,21,M,,M,,*65
06/15/2015	01:06:53.626	$GPGGA,010654,2433.1488,N,08109.6302,W,1,10,1.6,21,M,,M,,*67
06/15/2015	01:06:54.618	$GPGGA,010655,2433.1484,N,08109.6297,W,1,10,1.3,21,M,,M,,*62
06/15/2015	01:06:55.686	$GPGGA,010656,2433.1481,N,08109.6292,W,1,11,1.3,21,M,,M,,*60
06/15/2015	01:06:56.586	$GPGGA,010657,2433.1477,N,08109.6288,W,1,11,1.3,21,M,,M,,*63
06/15/2015	01:06:57.677	$GPGGA,010658,2433.1474,N,08109.6284,W,1,11,1.3,21,M,,M,,*63
06/15/2015	01:06:58.556	$GPGGA,010659,2433.1471,N,08109.6279,W,1,11,1.3,21,M,,M,,*65
06/15/2015	01:06:59.667	$GPGGA,010700,2433.1467,N,08109.6275,W,1,11,1.3,21,M,,M,,*63
06/15/2015	01:07:00.587	$GPGGA,010701,2433.1465,N,08109.6270,W,1,11,1.3,21,M,,M,,*65
06/15/2015	01:07:01.667	$GPGGA,010702,2433.1461,N,08109.6266,W,1,11,1.3,21,M,,M,,*65
06/15/2015	01:07:02.587	$GPGGA,010703,2433.1458,N,08109.6262,W,1,11,1.3,21,M,,M,,*6A
06/15/2015	01:07:03.627	$GPGGA,010704,2433.1455,N,08109.6256,W,1,11,1.3,21,M,,M,,*67
06/15/2015	01:07:04.577	$GPGGA,010705,2433.1452,N,08109.6252,W,1,11,1.3,21,M,,M,,*65
06/15/2015	01:07:05.637	$GPGGA,010706,2433.1449,N,08109.6248,W,1,11,1.3,21,M,,M,,*67
06/15/2015	01:07:06.566	$GPGGA,010707,2433.1447,N,08109.6244,W,1,11,1.3,21,M,,M,,*64
06/15/2015	01:07:07.636	$GPGGA,010708,2433.1442,N,08109.6239,W,1,11,1.3,21,M,,M,,*64
06/15/2015	01:07:08.567	$GPGGA,010709,2433.1440,N,08109.6234,W,1,11,1.3,21,M,,M,,*6A
06/15/2015	01:07:09.526	$GPGGA,010710,2433.1438,N,08109.6229,W,1,11,1.3,21,M,,M,,*61
06/15/2015	01:07:10.566	$GPGGA,010711,2433.1434,N,08109.6226,W,1,11,1.6,21,M,,M,,*66
06/15/2015	01:07:11.656	$GPGGA,010712,2433.1432,N,08109.6223,W,1,10,1.6,21,M,,M,,*67
06/15/2015	01:07:12.556	$GPGGA,010713,2433.1430,N,08109.6217,W,1,10,1.6,21,M,,M,,*63
06/15/2015	01:07:13.526	$GPGGA,010714,2433.1426,N,08109.6213,W,1,10,1.6,21,M,,M,,*67
06/15/2015	01:07:14.646	$GPGGA,010715,2433.1424,N,08109.6209,W,1,10,1.3,21,M,,M,,*6A
06/15/2015	01:07:15.636	$GPGGA,010716,2433.1423,N,08109.6204,W,1,11,1.3,21,M,,M,,*62
06/15/2015	01:07:16.557	$GPGGA,010717,2433.1419,N,08109.6201,W,1,11,1.3,21,M,,M,,*6F
06/15/2015	01:07:17.647	$GPGGA,010718,2433.1416,N,08109.6197,W,1,11,1.3,21,M,,M,,*63
06/15/2015	01:07:18.517	$GPGGA,010719,2433.1413,N,08109.6191,W,1,11,1.3,21,M,,M,,*61
06/15/2015	01:07:19.917	$GPGGA,010720,2433.1411,N,08109.6187,W,1,10,1.7,21,M,,M,,*6B
06/15/2015	01:07:20.527	$GPGGA,010721,2433.1408,N,08109.6184,W,1,10,1.7,21,M,,M,,*61
06/15/2015	01:07:21.620	$GPGGA,010722,2433.1405,N,08109.6179,W,1,10,1.6,21,M,,M,,*6C
06/15/2015	01:07:22.557	$GPGGA,010723,2433.1404,N,08109.6175,W,1,10,1.6,20,M,,M,,*61
06/15/2015	01:07:23.636	$GPGGA,010724,2433.1402,N,08109.6171,W,1,10,1.6,20,M,,M,,*64
06/15/2015	01:07:24.518	$GPGGA,010725,2433.1398,N,08109.6166,W,1,10,1.6,20,M,,M,,*67
06/15/2015	01:07:25.596	$GPGGA,010726,2433.1395,N,08109.6162,W,1,10,1.7,20,M,,M,,*6C
06/15/2015	01:07:26.546	$GPGGA,010727,2433.1394,N,08109.6158,W,1,10,1.6,20,M,,M,,*64
06/15/2015	01:07:27.626	$GPGGA,010728,2433.1393,N,08109.6153,W,1,10,1.6,20,M,,M,,*67
06/15/2015	01:07:28.609	$GPGGA,010729,2433.1389,N,08109.6149,W,1,10,1.7,20,M,,M,,*67
06/15/2015	01:07:29.586	$GPGGA,010730,2433.1387,N,08109.6145,W,1,9,1.6,20,M,,M,,*54
06/15/2015	01:07:30.546	$GPGGA,010731,2433.1385,N,08109.6141,W,1,9,2.0,20,M,,M,,*56
06/15/2015	01:07:31.626	$GPGGA,010732,2433.1382,N,08109.6137,W,1,9,1.6,20,M,,M,,*56
06/15/2015	01:07:32.586	$GPGGA,010733,2433.1378,N,08109.6134,W,1,9,1.6,20,M,,M,,*51
06/15/2015	01:07:33.586	$GPGGA,010734,2433.1376,N,08109.6129,W,1,10,2.2,20,M,,M,,*6B
06/15/2015	01:07:34.477	$GPGGA,010735,2433.1373,N,08109.6124,W,1,10,2.2,20,M,,M,,*62
06/15/2015	01:07:35.587	$GPGGA,010736,2433.1369,N,08109.6122,W,1,9,1.6,20,M,,M,,*53
06/15/2015	01:07:36.567	$GPGGA,010737,2433.1367,N,08109.6117,W,1,9,1.6,20,M,,M,,*5A
06/15/2015	01:07:37.618	$GPGGA,010738,2433.1365,N,08109.6112,W,1,10,1.6,20,M,,M,,*6A
06/15/2015	01:07:38.567	$GPGGA,010739,2433.1362,N,08109.6107,W,1,10,2.0,20,M,,M,,*6D
06/15/2015	01:07:39.627	$GPGGA,010740,2433.1359,N,08109.6102,W,1,9,2.0,20,M,,M,,*56
06/15/2015	01:07:40.567	$GPGGA,010741,2433.1357,N,08109.6097,W,1,9,1.7,20,M,,M,,*50
06/15/2015	01:07:41.576	$GPGGA,010742,2433.1357,N,08109.6094,W,1,9,1.6,20,M,,M,,*51
06/15/2015	01:07:42.566	$GPGGA,010743,2433.1354,N,08109.6090,W,1,9,1.6,20,M,,M,,*57
06/15/2015	01:07:43.576	$GPGGA,010744,2433.1350,N,08109.6085,W,1,10,2.0,20,M,,M,,*6D
06/15/2015	01:07:44.566	$GPGGA,010745,2433.1348,N,08109.6081,W,1,10,2.0,20,M,,M,,*61
06/15/2015	01:07:45.616	$GPGGA,010746,2433.1347,N,08109.6077,W,1,9,1.6,20,M,,M,,*59
06/15/2015	01:07:46.556	$GPGGA,010747,2433.1343,N,08109.6073,W,1,9,1.3,20,M,,M,,*5D
06/15/2015	01:07:47.620	$GPGGA,010748,2433.1342,N,08109.6068,W,1,11,1.6,20,M,,M,,*65
06/15/2015	01:07:48.546	$GPGGA,010749,2433.1339,N,08109.6062,W,1,11,1.6,21,M,,M,,*63
06/15/2015	01:07:49.577	$GPGGA,010750,2433.1336,N,08109.6059,W,1,10,1.6,21,M,,M,,*6D
06/15/2015	01:07:50.556	$GPGGA,010751,2433.1335,N,08109.6055,W,1,10,1.6,21,M,,M,,*63
06/15/2015	01:07:51.617	$GPGGA,010752,2433.1331,N,08109.6050,W,1,10,1.6,21,M,,M,,*61
06/15/2015	01:07:52.548	$GPGGA,010753,2433.1328,N,08109.6046,W,1,10,1.6,21,M,,M,,*6F
06/15/2015	01:07:53.610	$GPGGA,010754,2433.1325,N,08109.6041,W,1,10,1.3,21,M,,M,,*67
06/15/2015	01:07:54.547	$GPGGA,010755,2433.1321,N,08109.6036,W,1,10,1.3,21,M,,M,,*62
06/15/2015	01:07:55.610	$GPGGA,010756,2433.1318,N,08109.6031,W,1,11,1.6,21,M,,M,,*68
06/15/2015	01:07:56.547	$GPGGA,010757,2433.1315,N,08109.6027,W,1,11,1.6,21,M,,M,,*63
06/15/2015	01:07:57.567	$GPGGA,010758,2433.1313,N,08109.6022,W,1,10,1.6,21,M,,M,,*6E
06/15/2015	01:07:58.546	$GPGGA,010759,2433.1311,N,08109.6018,W,1,10,1.6,21,M,,M,,*64
06/15/2015	01:07:59.610	$GPGGA,010800,2433.1308,N,08109.6014,W,1,10,1.6,21,M,,M,,*63
06/15/2015	01:08:00.536	$GPGGA,010801,2433.1306,N,08109.6009,W,1,10,1.6,21,M,,M,,*60
06/15/2015	01:08:01.646	$GPGGA,010802,2433.1301,N,08109.6005,W,1,10,1.6,21,M,,M,,*68
06/15/2015	01:08:02.521	$GPGGA,010803,2433.1299,N,08109.6000,W,1,10,1.3,21,M,,M,,*69
06/15/2015	01:08:03.576	$GPGGA,010804,2433.1299,N,08109.6000,W,1,11,1.3,21,M,,M,,*6F
06/15/2015	01:08:04.546	$GPGGA,010805,2433.1292,N,08109.5991,W,1,11,1.3,21,M,,M,,*67
06/15/2015	01:08:05.556	$GPGGA,010806,2433.1292,N,08109.5991,W,1,11,1.3,21,M,,M,,*64
06/15/2015	01:08:06.526	$GPGGA,010807,2433.1285,N,08109.5982,W,1,11,1.3,21,M,,M,,*61
06/15/2015	01:08:07.596	$GPGGA,010808,2433.1282,N,08109.5978,W,1,10,1.3,21,M,,M,,*6D
06/15/2015	01:08:08.526	$GPGGA,010809,2433.1282,N,08109.5978,W,1,10,1.3,21,M,,M,,*6C
06/15/2015	01:08:10.537	$GPGGA,010811,2433.1270,N,08109.5962,W,1,11,1.4,21,M,,M,,*65
06/15/2015	01:08:11.637	$GPGGA,010812,2433.1266,N,08109.5957,W,1,11,1.3,21,M,,M,,*60
06/15/2015	01:08:12.618	$GPGGA,010813,2433.1263,N,08109.5952,W,1,11,1.3,21,M,,M,,*61
06/15/2015	01:08:13.610	$GPGGA,010814,2433.1259,N,08109.5947,W,1,9,1.5,21,M,,M,,*54
06/15/2015	01:08:14.508	$GPGGA,010815,2433.1256,N,08109.5941,W,1,9,1.6,22,M,,M,,*5C
06/15/2015	01:08:15.621	$GPGGA,010816,2433.1254,N,08109.5937,W,1,11,1.3,22,M,,M,,*60
06/15/2015	01:08:16.586	$GPGGA,010817,2433.1252,N,08109.5932,W,1,11,1.3,22,M,,M,,*62
06/15/2015	01:08:17.606	$GPGGA,010818,2433.1249,N,08109.5927,W,1,11,1.3,22,M,,M,,*63
06/15/2015	01:08:18.486	$GPGGA,010819,2433.1247,N,08109.5922,W,1,11,1.6,22,M,,M,,*6C
06/15/2015	01:08:19.526	$GPGGA,010820,2433.1245,N,08109.5918,W,1,10,1.6,22,M,,M,,*6C
06/15/2015	01:08:20.586	$GPGGA,010821,2433.1241,N,08109.5914,W,1,10,1.6,22,M,,M,,*65
06/15/2015	01:08:21.487	$GPGGA,010822,2433.1241,N,08109.5914,W,1,11,1.3,22,M,,M,,*62
06/15/2015	01:08:22.606	$GPGGA,010823,2433.1237,N,08109.5904,W,1,11,1.6,22,M,,M,,*66
06/15/2015	01:08:23.596	$GPGGA,010824,2433.1234,N,08109.5900,W,1,10,1.6,22,M,,M,,*67
06/15/2015	01:08:24.566	$GPGGA,010825,2433.1230,N,08109.5896,W,1,10,1.3,22,M,,M,,*69
06/15/2015	01:08:25.596	$GPGGA,010826,2433.1227,N,08109.5890,W,1,11,1.3,22,M,,M,,*6B
06/15/2015	01:08:26.577	$GPGGA,010827,2433.1223,N,08109.5885,W,1,11,1.3,22,M,,M,,*6A
06/15/2015	01:08:27.607	$GPGGA,010828,2433.1221,N,08109.5881,W,1,11,1.3,22,M,,M,,*63
06/15/2015	01:08:28.577	$GPGGA,010829,2433.1219,N,08109.5877,W,1,11,1.3,22,M,,M,,*60
06/15/2015	01:08:29.587	$GPGGA,010830,2433.1214,N,08109.5872,W,1,10,1.6,22,M,,M,,*64
06/15/2015	01:08:30.567	$GPGGA,010831,2433.1210,N,08109.5867,W,1,10,1.3,22,M,,M,,*60
06/15/2015	01:08:31.608	$GPGGA,010832,2433.1211,N,08109.5863,W,1,11,1.3,22,M,,M,,*67
06/15/2015	01:08:32.557	$GPGGA,010833,2433.1207,N,08109.5859,W,1,11,1.3,22,M,,M,,*68
06/15/2015	01:08:33.566	$GPGGA,010834,2433.1203,N,08109.5854,W,1,11,1.3,22,M,,M,,*66
06/15/2015	01:08:34.556	$GPGGA,010835,2433.1198,N,08109.5850,W,1,11,1.6,22,M,,M,,*67
06/15/2015	01:08:35.587	$GPGGA,010836,2433.1201,N,08109.5847,W,1,10,1.6,22,M,,M,,*60
06/15/2015	01:08:36.546	$GPGGA,010837,2433.1199,N,08109.5843,W,1,10,1.6,22,M,,M,,*67
06/15/2015	01:08:37.546	$GPGGA,010838,2433.1194,N,08109.5840,W,1,11,1.3,22,M,,M,,*62
06/15/2015	01:08:38.556	$GPGGA,010839,2433.1192,N,08109.5836,W,1,11,1.3,22,M,,M,,*64
06/15/2015	01:08:39.586	$GPGGA,010840,2433.1191,N,08109.5832,W,1,10,1.6,22,M,,M,,*69
06/15/2015	01:08:40.546	$GPGGA,010841,2433.1188,N,08109.5829,W,1,10,1.6,22,M,,M,,*6A
06/15/2015	01:08:41.566	$GPGGA,010842,2433.1185,N,08109.5826,W,1,10,1.6,22,M,,M,,*6B
06/15/2015	01:08:42.546	$GPGGA,010843,2433.1184,N,08109.5821,W,1,10,1.6,22,M,,M,,*6C
06/15/2015	01:08:43.566	$GPGGA,010844,2433.1181,N,08109.5816,W,1,10,1.6,22,M,,M,,*6A
06/15/2015	01:08:44.537	$GPGGA,010845,2433.1177,N,08109.5813,W,1,10,1.6,22,M,,M,,*67
06/15/2015	01:08:45.567	$GPGGA,010846,2433.1173,N,08109.5810,W,1,10,1.6,22,M,,M,,*63
06/15/2015	01:08:46.547	$GPGGA,010847,2433.1174,N,08109.5805,W,1,10,1.6,22,M,,M,,*61
06/15/2015	01:08:47.537	$GPGGA,010848,2433.1170,N,08109.5801,W,1,10,1.6,22,M,,M,,*6E
06/15/2015	01:08:48.537	$GPGGA,010849,2433.1166,N,08109.5797,W,1,10,1.6,22,M,,M,,*68
06/15/2015	01:08:49.527	$GPGGA,010850,2433.1165,N,08109.5793,W,1,10,1.6,22,M,,M,,*67
06/15/2015	01:08:50.527	$GPGGA,010851,2433.1162,N,08109.5789,W,1,10,1.6,22,M,,M,,*6A
06/15/2015	01:08:51.536	$GPGGA,010852,2433.1159,N,08109.5784,W,1,10,1.6,22,M,,M,,*6C
06/15/2015	01:08:52.519	$GPGGA,010853,2433.1158,N,08109.5780,W,1,10,1.6,22,M,,M,,*68
06/15/2015	01:08:53.516	$GPGGA,010854,2433.1154,N,08109.5775,W,1,9,1.8,21,M,,M,,*5C
06/15/2015	01:08:54.519	$GPGGA,010855,2433.1151,N,08109.5770,W,1,9,1.6,21,M,,M,,*53
06/15/2015	01:08:55.526	$GPGGA,010856,2433.1148,N,08109.5765,W,1,9,2.0,21,M,,M,,*59
06/15/2015	01:08:56.496	$GPGGA,010857,2433.1144,N,08109.5762,W,1,9,1.6,21,M,,M,,*56
06/15/2015	01:08:57.616	$GPGGA,010858,2433.1141,N,08109.5758,W,1,9,1.8,21,M,,M,,*5B
06/15/2015	01:08:58.496	$GPGGA,010859,2433.1140,N,08109.5754,W,1,9,1.6,21,M,,M,,*59
06/15/2015	01:08:59.546	$GPGGA,010900,2433.1137,N,08109.5749,W,1,9,2.0,21,M,,M,,*5D
06/15/2015	01:09:00.486	$GPGGA,010901,2433.1133,N,08109.5745,W,1,9,1.6,21,M,,M,,*51
06/15/2015	01:09:01.610	$GPGGA,010902,2433.1131,N,08109.5739,W,1,10,1.6,21,M,,M,,*63
06/15/2015	01:09:02.487	$GPGGA,010903,2433.1129,N,08109.5735,W,1,10,2.0,21,M,,M,,*62
06/15/2015	01:09:03.608	$GPGGA,010904,2433.1126,N,08109.5730,W,1,9,2.0,21,M,,M,,*57
06/15/2015	01:09:04.497	$GPGGA,010905,2433.1124,N,08109.5724,W,1,9,1.6,21,M,,M,,*54
06/15/2015	01:09:05.597	$GPGGA,010906,2433.1122,N,08109.5719,W,1,10,1.6,21,M,,M,,*67
06/15/2015	01:09:06.597	$GPGGA,010907,2433.1119,N,08109.5714,W,1,10,1.7,21,M,,M,,*62
06/15/2015	01:09:07.487	$GPGGA,010908,2433.1118,N,08109.5710,W,1,10,1.6,21,M,,M,,*69
06/15/2015	01:09:08.586	$GPGGA,010909,2433.1115,N,08109.5705,W,1,10,1.6,21,M,,M,,*61
06/15/2015	01:09:09.596	$GPGGA,010910,2433.1112,N,08109.5700,W,1,10,1.6,21,M,,M,,*6B
06/15/2015	01:09:10.506	$GPGGA,010911,2433.1108,N,08109.5695,W,1,10,1.6,21,M,,M,,*6C
06/15/2015	01:09:11.608	$GPGGA,010912,2433.1106,N,08109.5690,W,1,9,1.7,21,M,,M,,*5D
06/15/2015	01:09:12.587	$GPGGA,010913,2433.1104,N,08109.5686,W,1,9,1.6,21,M,,M,,*58
06/15/2015	01:09:13.567	$GPGGA,010914,2433.1102,N,08109.5681,W,1,10,1.6,21,M,,M,,*66
06/15/2015	01:09:14.566	$GPGGA,010915,2433.1097,N,08109.5676,W,1,10,1.6,21,M,,M,,*62
06/15/2015	01:09:15.620	$GPGGA,010916,2433.1093,N,08109.5670,W,1,10,1.4,21,M,,M,,*61
06/15/2015	01:09:16.556	$GPGGA,010917,2433.1090,N,08109.5664,W,1,10,1.3,21,M,,M,,*61
06/15/2015	01:09:17.586	$GPGGA,010918,2433.1087,N,08109.5658,W,1,11,1.3,21,M,,M,,*66
06/15/2015	01:09:18.556	$GPGGA,010919,2433.1082,N,08109.5653,W,1,11,1.3,21,M,,M,,*69
06/15/2015	01:09:19.610	$GPGGA,010920,2433.1082,N,08109.5648,W,1,11,1.3,21,M,,M,,*69
06/15/2015	01:09:20.557	$GPGGA,010921,2433.1079,N,08109.5643,W,1,11,1.6,21,M,,M,,*62
06/15/2015	01:09:21.547	$GPGGA,010922,2433.1076,N,08109.5639,W,1,9,1.7,21,M,,M,,*5B
06/15/2015	01:09:22.557	$GPGGA,010923,2433.1073,N,08109.5634,W,1,9,1.3,21,M,,M,,*56
06/15/2015	01:09:23.557	$GPGGA,010924,2433.1071,N,08109.5628,W,1,10,1.6,21,M,,M,,*63
06/15/2015	01:09:24.557	$GPGGA,010925,2433.1069,N,08109.5623,W,1,10,1.6,22,M,,M,,*63
06/15/2015	01:09:25.547	$GPGGA,010926,2433.1066,N,08109.5619,W,1,10,1.6,22,M,,M,,*66
06/15/2015	01:09:26.556	$GPGGA,010927,2433.1061,N,08109.5613,W,1,10,1.3,22,M,,M,,*6F
06/15/2015	01:09:27.586	$GPGGA,010928,2433.1059,N,08109.5606,W,1,11,1.3,22,M,,M,,*6E
06/15/2015	01:09:28.546	$GPGGA,010929,2433.1057,N,08109.5603,W,1,11,1.3,22,M,,M,,*64
06/15/2015	01:09:29.576	$GPGGA,010930,2433.1053,N,08109.5598,W,1,11,1.3,22,M,,M,,*69
06/15/2015	01:09:30.546	$GPGGA,010931,2433.1049,N,08109.5592,W,1,11,1.3,22,M,,M,,*69
06/15/2015	01:09:31.546	$GPGGA,010932,2433.1046,N,08109.5588,W,1,11,1.3,22,M,,M,,*6E
06/15/2015	01:09:32.536	$GPGGA,010933,2433.1043,N,08109.5583,W,1,11,1.3,22,M,,M,,*61
06/15/2015	01:09:33.526	$GPGGA,010934,2433.1040,N,08109.5578,W,1,10,1.4,22,M,,M,,*67
06/15/2015	01:09:34.546	$GPGGA,010935,2433.1035,N,08109.5574,W,1,10,1.3,22,M,,M,,*6F
06/15/2015	01:09:35.619	$GPGGA,010936,2433.1031,N,08109.5569,W,1,11,1.3,22,M,,M,,*65
06/15/2015	01:09:36.527	$GPGGA,010937,2433.1031,N,08109.5563,W,1,11,1.6,22,M,,M,,*6B
06/15/2015	01:09:37.557	$GPGGA,010938,2433.1028,N,08109.5559,W,1,10,1.6,22,M,,M,,*64
06/15/2015	01:09:38.637	$GPGGA,010939,2433.1022,N,08109.5556,W,1,10,1.6,22,M,,M,,*60
06/15/2015	01:09:39.527	$GPGGA,010940,2433.1019,N,08109.5551,W,1,10,1.6,22,M,,M,,*61
06/15/2015	01:09:40.527	$GPGGA,010941,2433.1018,N,08109.5545,W,1,10,1.3,22,M,,M,,*61
06/15/2015	01:09:41.527	$GPGGA,010942,2433.1014,N,08109.5542,W,1,10,1.6,22,M,,M,,*6C
06/15/2015	01:09:42.527	$GPGGA,010943,2433.1011,N,08109.5539,W,1,10,1.3,22,M,,M,,*61
06/15/2015	01:09:43.626	$GPGGA,010944,2433.1010,N,08109.5534,W,1,11,1.3,22,M,,M,,*6B
06/15/2015	01:09:44.526	$GPGGA,010945,2433.1007,N,08109.5529,W,1,11,1.3,22,M,,M,,*60
06/15/2015	01:09:45.626	$GPGGA,010946,2433.1004,N,08109.5525,W,1,11,1.3,22,M,,M,,*6C
06/15/2015	01:09:46.612	$GPGGA,010947,2433.1000,N,08109.5520,W,1,11,1.3,22,M,,M,,*6C
06/15/2015	01:09:47.656	$GPGGA,010948,2433.0997,N,08109.5515,W,1,11,1.3,21,M,,M,,*60
06/15/2015	01:09:48.608	$GPGGA,010949,2433.0994,N,08109.5510,W,1,11,1.3,21,M,,M,,*67
06/15/2015	01:09:49.516	$GPGGA,010950,2433.0989,N,08109.5506,W,1,11,1.3,21,M,,M,,*64
06/15/2015	01:09:50.596	$GPGGA,010951,2433.0985,N,08109.5501,W,1,11,1.4,21,M,,M,,*69
06/15/2015	01:09:51.596	$GPGGA,010952,2433.0982,N,08109.5495,W,1,11,1.3,21,M,,M,,*66
06/15/2015	01:09:52.596	$GPGGA,010953,2433.0977,N,08109.5489,W,1,11,1.6,21,M,,M,,*65
06/15/2015	01:09:53.496	$GPGGA,010954,2433.0974,N,08109.5486,W,1,11,1.3,21,M,,M,,*6B
06/15/2015	01:09:54.497	$GPGGA,010955,2433.0970,N,08109.5481,W,1,11,1.6,21,M,,M,,*6C
06/15/2015	01:09:55.497	$GPGGA,010956,2433.0966,N,08109.5475,W,1,10,1.6,21,M,,M,,*62
06/15/2015	01:09:56.577	$GPGGA,010957,2433.0965,N,08109.5470,W,1,10,1.7,21,M,,M,,*64
06/15/2015	01:09:57.587	$GPGGA,010958,2433.0960,N,08109.5466,W,1,10,1.6,21,M,,M,,*68
06/15/2015	01:09:58.577	$GPGGA,010959,2433.0957,N,08109.5462,W,1,10,1.3,21,M,,M,,*6C
06/15/2015	01:09:59.610	$GPGGA,011000,2433.0956,N,08109.5457,W,1,11,1.3,21,M,,M,,*6E
06/15/2015	01:10:00.567	$GPGGA,011001,2433.0953,N,08109.5452,W,1,11,1.3,21,M,,M,,*6F
06/15/2015	01:10:01.586	$GPGGA,011002,2433.0949,N,08109.5448,W,1,10,1.6,21,M,,M,,*68
06/15/2015	01:10:02.566	$GPGGA,011003,2433.0946,N,08109.5443,W,1,10,1.6,21,M,,M,,*6D
06/15/2015	01:10:03.606	$GPGGA,011004,2433.0945,N,08109.5439,W,1,10,1.6,21,M,,M,,*64
06/15/2015	01:10:04.566	$GPGGA,011005,2433.0941,N,08109.5434,W,1,10,1.6,21,M,,M,,*6C
06/15/2015	01:10:05.566	$GPGGA,011006,2433.0938,N,08109.5430,W,1,11,1.3,21,M,,M,,*61
06/15/2015	01:10:06.546	$GPGGA,011007,2433.0935,N,08109.5425,W,1,11,1.3,21,M,,M,,*69
06/15/2015	01:10:07.596	$GPGGA,011008,2433.0934,N,08109.5420,W,1,11,1.3,21,M,,M,,*62
06/15/2015	01:10:08.547	$GPGGA,011009,2433.0931,N,08109.5416,W,1,11,1.6,21,M,,M,,*66
06/15/2015	01:10:09.536	$GPGGA,011010,2433.0928,N,08109.5410,W,1,11,1.3,21,M,,M,,*65
06/15/2015	01:10:10.546	$GPGGA,011011,2433.0927,N,08109.5405,W,1,11,1.3,21,M,,M,,*6F
06/15/2015	01:10:11.556	$GPGGA,011012,2433.0923,N,08109.5401,W,1,11,1.3,21,M,,M,,*6C
06/15/2015	01:10:12.536	$GPGGA,011013,2433.0919,N,08109.5398,W,1,11,1.3,21,M,,M,,*63
06/15/2015	01:10:13.556	$GPGGA,011014,2433.0916,N,08109.5393,W,1,10,1.6,21,M,,M,,*64
06/15/2015	01:10:14.526	$GPGGA,011015,2433.0912,N,08109.5386,W,1,10,1.3,21,M,,M,,*60
06/15/2015	01:10:15.566	$GPGGA,011016,2433.0909,N,08109.5382,W,1,11,1.3,21,M,,M,,*6C
06/15/2015	01:10:16.536	$GPGGA,011017,2433.0901,N,08109.5377,W,1,11,1.6,21,M,,M,,*6A
06/15/2015	01:10:17.516	$GPGGA,011018,2433.0899,N,08109.5372,W,1,11,1.3,21,M,,M,,*65
06/15/2015	01:10:18.525	$GPGGA,011019,2433.0898,N,08109.5368,W,1,11,1.6,21,M,,M,,*6B
06/15/2015	01:10:19.565	$GPGGA,011020,2433.0893,N,08109.5364,W,1,10,1.6,21,M,,M,,*67
06/15/2015	01:10:20.525	$GPGGA,011021,2433.0891,N,08109.5360,W,1,10,1.6,21,M,,M,,*60
06/15/2015	01:10:21.525	$GPGGA,011022,2433.0889,N,08109.5356,W,1,10,1.6,21,M,,M,,*6F
06/15/2015	01:10:22.526	$GPGGA,011023,2433.0887,N,08109.5351,W,1,10,1.6,21,M,,M,,*67
06/15/2015	01:10:23.546	$GPGGA,011024,2433.0883,N,08109.5347,W,1,9,2.0,21,M,,M,,*5E
06/15/2015	01:10:24.510	$GPGGA,011025,2433.0880,N,08109.5345,W,1,9,1.6,21,M,,M,,*5B
06/15/2015	01:10:25.636	$GPGGA,011026,2433.0880,N,08109.5342,W,1,10,1.6,21,M,,M,,*67
06/15/2015	01:10:26.516	$GPGGA,011027,2433.0877,N,08109.5338,W,1,10,1.4,21,M,,M,,*61
06/15/2015	01:10:27.514	$GPGGA,011028,2433.0874,N,08109.5335,W,1,9,2.0,21,M,,M,,*5F
06/15/2015	01:10:28.506	$GPGGA,011029,2433.0875,N,08109.5332,W,1,9,1.6,21,M,,M,,*5D
06/15/2015	01:10:29.536	$GPGGA,011030,2433.0873,N,08109.5327,W,1,10,1.6,22,M,,M,,*6C
06/15/2015	01:10:30.586	$GPGGA,011031,2433.0869,N,08109.5322,W,1,10,1.6,22,M,,M,,*63
06/15/2015	01:10:31.512	$GPGGA,011032,2433.0865,N,08109.5318,W,1,11,1.3,22,M,,M,,*61
06/15/2015	01:10:32.500	$GPGGA,011033,2433.0864,N,08109.5313,W,1,11,1.6,22,M,,M,,*6F
06/15/2015	01:10:33.596	$GPGGA,011034,2433.0863,N,08109.5310,W,1,10,1.6,22,M,,M,,*6D
06/15/2015	01:10:34.517	$GPGGA,011035,2433.0860,N,08109.5307,W,1,10,1.3,22,M,,M,,*6C
06/15/2015	01:10:35.598	$GPGGA,011036,2433.0858,N,08109.5301,W,1,10,1.6,22,M,,M,,*67
06/15/2015	01:10:36.495	$GPGGA,011037,2433.0856,N,08109.5297,W,1,10,1.6,22,M,,M,,*66
06/15/2015	01:10:37.614	$GPGGA,011038,2433.0853,N,08109.5293,W,1,10,1.6,22,M,,M,,*68
06/15/2015	01:10:38.585	$GPGGA,011039,2433.0851,N,08109.5288,W,1,10,1.6,22,M,,M,,*61
06/15/2015	01:10:39.619	$GPGGA,011040,2433.0848,N,08109.5283,W,1,10,1.6,22,M,,M,,*6C
06/15/2015	01:10:40.496	$GPGGA,011041,2433.0847,N,08109.5279,W,1,10,1.6,22,M,,M,,*67
06/15/2015	01:10:41.576	$GPGGA,011042,2433.0845,N,08109.5275,W,1,10,1.6,22,M,,M,,*6A
06/15/2015	01:10:42.498	$GPGGA,011043,2433.0841,N,08109.5270,W,1,10,1.6,22,M,,M,,*6A
06/15/2015	01:10:43.604	$GPGGA,011044,2433.0838,N,08109.5265,W,1,10,1.6,22,M,,M,,*67
06/15/2015	01:10:44.576	$GPGGA,011045,2433.0836,N,08109.5260,W,1,10,1.3,22,M,,M,,*68
06/15/2015	01:10:45.600	$GPGGA,011046,2433.0833,N,08109.5255,W,1,10,1.6,22,M,,M,,*6D
06/15/2015	01:10:46.566	$GPGGA,011047,2433.0831,N,08109.5251,W,1,10,1.6,22,M,,M,,*6A
06/15/2015	01:10:47.626	$GPGGA,011048,2433.0829,N,08109.5246,W,1,10,1.6,22,M,,M,,*6A
06/15/2015	01:10:48.566	$GPGGA,011049,2433.0827,N,08109.5241,W,1,10,1.6,22,M,,M,,*62
06/15/2015	01:10:49.556	$GPGGA,011050,2433.0824,N,08109.5235,W,1,10,1.6,22,M,,M,,*6A
06/15/2015	01:10:50.556	$GPGGA,011051,2433.0820,N,08109.5231,W,1,10,1.6,22,M,,M,,*6B
06/15/2015	01:10:51.576	$GPGGA,011052,2433.0817,N,08109.5227,W,1,10,1.6,22,M,,M,,*6B
06/15/2015	01:10:52.556	$GPGGA,011053,2433.0812,N,08109.5220,W,1,10,1.3,22,M,,M,,*6D
06/15/2015	01:10:53.565	$GPGGA,011054,2433.0806,N,08109.5213,W,1,11,1.3,22,M,,M,,*6E
06/15/2015	01:10:54.555	$GPGGA,011055,2433.0804,N,08109.5210,W,1,11,1.4,22,M,,M,,*69
06/15/2015	01:10:55.597	$GPGGA,011056,2433.0801,N,08109.5205,W,1,11,1.3,22,M,,M,,*6C
06/15/2015	01:10:56.555	$GPGGA,011057,2433.0797,N,08109.5200,W,1,11,1.3,22,M,,M,,*68
06/15/2015	01:10:57.546	$GPGGA,011058,2433.0794,N,08109.5195,W,1,11,1.3,23,M,,M,,*6A
06/15/2015	01:10:58.546	$GPGGA,011059,2433.0791,N,08109.5190,W,1,11,1.3,23,M,,M,,*6B
06/15/2015	01:10:59.636	$GPGGA,011100,2433.0789,N,08109.5185,W,1,10,1.6,23,M,,M,,*6F
06/15/2015	01:11:00.546	$GPGGA,011101,2433.0787,N,08109.5181,W,1,10,1.3,23,M,,M,,*61
06/15/2015	01:11:01.537	$GPGGA,011102,2433.0782,N,08109.5177,W,1,11,1.3,23,M,,M,,*6F
06/15/2015	01:11:02.526	$GPGGA,011103,2433.0779,N,08109.5171,W,1,11,1.3,23,M,,M,,*6C
06/15/2015	01:11:03.546	$GPGGA,011104,2433.0777,N,08109.5166,W,1,10,1.6,23,M,,M,,*67
06/15/2015	01:11:04.526	$GPGGA,011105,2433.0775,N,08109.5163,W,1,10,1.3,23,M,,M,,*64
06/15/2015	01:11:05.546	$GPGGA,011106,2433.0769,N,08109.5158,W,1,11,1.3,23,M,,M,,*63
06/15/2015	01:11:06.526	$GPGGA,011107,2433.0768,N,08109.5153,W,1,11,1.4,23,M,,M,,*6F
06/15/2015	01:11:07.576	$GPGGA,011108,2433.0764,N,08109.5148,W,1,11,1.3,23,M,,M,,*61
06/15/2015	01:11:08.516	$GPGGA,011109,2433.0761,N,08109.5144,W,1,11,1.3,23,M,,M,,*69
06/15/2015	01:11:09.546	$GPGGA,011110,2433.0757,N,08109.5140,W,1,11,1.3,23,M,,M,,*60
06/15/2015	01:11:10.526	$GPGGA,011111,2433.0754,N,08109.5135,W,1,11,1.4,23,M,,M,,*67
06/15/2015	01:11:11.565	$GPGGA,011112,2433.0751,N,08109.5130,W,1,10,1.4,23,M,,M,,*65
06/15/2015	01:11:12.535	$GPGGA,011113,2433.0746,N,08109.5126,W,1,10,1.4,23,M,,M,,*65
06/15/2015	01:11:13.505	$GPGGA,011114,2433.0744,N,08109.5121,W,1,9,1.7,23,M,,M,,*5C
06/15/2015	01:11:14.516	$GPGGA,011115,2433.0743,N,08109.5116,W,1,9,1.7,23,M,,M,,*5E
06/15/2015	01:11:15.616	$GPGGA,011116,2433.0739,N,08109.5111,W,1,10,1.4,23,M,,M,,*6C
06/15/2015	01:11:16.512	$GPGGA,011117,2433.0733,N,08109.5106,W,1,10,1.4,23,M,,M,,*61
06/15/2015	01:11:17.516	$GPGGA,011118,2433.0729,N,08109.5100,W,1,10,1.4,23,M,,M,,*63
06/15/2015	01:11:18.597	$GPGGA,011119,2433.0724,N,08109.5094,W,1,10,1.4,23,M,,M,,*63
06/15/2015	01:11:19.526	$GPGGA,011120,2433.0721,N,08109.5090,W,1,10,1.4,23,M,,M,,*68
06/15/2015	01:11:20.607	$GPGGA,011121,2433.0717,N,08109.5084,W,1,10,1.4,23,M,,M,,*69
06/15/2015	01:11:21.608	$GPGGA,011122,2433.0714,N,08109.5079,W,1,10,1.5,23,M,,M,,*6A
06/15/2015	01:11:22.510	$GPGGA,011123,2433.0710,N,08109.5073,W,1,10,1.5,23,M,,M,,*65
06/15/2015	01:11:23.606	$GPGGA,011124,2433.0704,N,08109.5068,W,1,9,1.5,23,M,,M,,*55
06/15/2015	01:11:24.502	$GPGGA,011125,2433.0703,N,08109.5064,W,1,9,1.5,23,M,,M,,*5F
06/15/2015	01:11:25.616	$GPGGA,011126,2433.0701,N,08109.5059,W,1,8,1.9,22,M,,M,,*5C
06/15/2015	01:11:26.496	$GPGGA,011127,2433.0697,N,08109.5053,W,1,8,1.9,22,M,,M,,*59
06/15/2015	01:11:27.586	$GPGGA,011128,2433.0694,N,08109.5049,W,1,9,1.5,22,M,,M,,*53
06/15/2015	01:11:28.585	$GPGGA,011129,2433.0690,N,08109.5043,W,1,9,1.5,22,M,,M,,*5C
06/15/2015	01:11:29.597	$GPGGA,011130,2433.0686,N,08109.5038,W,1,9,1.5,22,M,,M,,*5F
06/15/2015	01:11:30.575	$GPGGA,011131,2433.0685,N,08109.5032,W,1,9,1.5,22,M,,M,,*57
06/15/2015	01:11:31.626	$GPGGA,011132,2433.0682,N,08109.5028,W,1,9,1.5,22,M,,M,,*58
06/15/2015	01:11:32.566	$GPGGA,011133,2433.0679,N,08109.5024,W,1,9,1.5,22,M,,M,,*51
06/15/2015	01:11:33.607	$GPGGA,011134,2433.0676,N,08109.5019,W,1,9,1.5,22,M,,M,,*57
06/15/2015	01:11:34.566	$GPGGA,011135,2433.0674,N,08109.5013,W,1,9,1.5,22,M,,M,,*5E
06/15/2015	01:11:35.598	$GPGGA,011136,2433.0672,N,08109.5009,W,1,9,1.5,22,M,,M,,*50
06/15/2015	01:11:36.566	$GPGGA,011137,2433.0668,N,08109.5006,W,1,9,1.9,22,M,,M,,*59
06/15/2015	01:11:37.566	$GPGGA,011138,2433.0667,N,08109.5000,W,1,8,1.5,21,M,,M,,*51
06/15/2015	01:11:38.556	$GPGGA,011139,2433.0664,N,08109.4994,W,1,8,1.5,21,M,,M,,*56
06/15/2015	01:11:39.586	$GPGGA,011140,2433.0661,N,08109.4991,W,1,9,1.9,21,M,,M,,*55
06/15/2015	01:11:40.546	$GPGGA,011141,2433.0659,N,08109.4987,W,1,9,1.9,21,M,,M,,*58
06/15/2015	01:11:41.536	$GPGGA,011142,2433.0657,N,08109.4982,W,1,8,1.9,21,M,,M,,*51
06/15/2015	01:11:42.546	$GPGGA,011143,2433.0654,N,08109.4977,W,1,8,1.9,21,M,,M,,*59
06/15/2015	01:11:43.616	$GPGGA,011144,2433.0652,N,08109.4972,W,1,8,1.9,20,M,,M,,*5C
06/15/2015	01:11:44.546	$GPGGA,011145,2433.0650,N,08109.4968,W,1,8,1.9,20,M,,M,,*54
06/15/2015	01:11:45.556	$GPGGA,011146,2433.0648,N,08109.4963,W,1,8,1.9,20,M,,M,,*55
06/15/2015	01:11:46.545	$GPGGA,011147,2433.0646,N,08109.4959,W,1,8,1.9,20,M,,M,,*53
06/15/2015	01:11:47.565	$GPGGA,011148,2433.0642,N,08109.4953,W,1,8,1.9,20,M,,M,,*52
06/15/2015	01:11:48.525	$GPGGA,011149,2433.0641,N,08109.4947,W,1,8,1.9,20,M,,M,,*55
06/15/2015	01:11:50.556	$GPGGA,011151,2433.0634,N,08109.4938,W,1,8,1.5,19,M,,M,,*50
06/15/2015	01:11:51.576	$GPGGA,011152,2433.0631,N,08109.4932,W,1,9,1.5,19,M,,M,,*5D
