Software Version Number: 1	Data File Format Number: 1	Build Version Number: 1	Error Count Since VI Started: 1	Manufacturer: Raytheon	 Model Number: RayMarine 120	 S/N: 	 Cal Date: 	 Wind Direction Offset: 0.00	 Slope (M)1: 0.00	 Offset (B)1: 0.00	 Slope (M)2: 0.00	 Offset (B)2: 0.00	 Slope (M)3: 0.00	 Offset (B)3: 0.00	 Slope (M)4: 0.00	 Offset (B)4: 0.00	 Slope (M)5: 0.00	 Offset (B)5: 0.00	 Slope (M)6: 0.00	 Offset (B)6: 0.00
Computer Date	Computer Time	GGA String
06/14/2015	09:00:00.582	$GPGGA,090001,2436.7249,N,08049.5116,W,1,11,1.6,21,M,,M,,*61
06/14/2015	09:00:01.593	$GPGGA,090002,2436.7256,N,08049.5103,W,1,11,1.4,21,M,,M,,*6A
06/14/2015	09:00:02.583	$GPGGA,090003,2436.7258,N,08049.5089,W,1,11,1.4,21,M,,M,,*66
06/14/2015	09:00:03.613	$GPGGA,090004,2436.7263,N,08049.5076,W,1,11,1.4,21,M,,M,,*69
06/14/2015	09:00:04.573	$GPGGA,090005,2436.7274,N,08049.5063,W,1,11,1.4,21,M,,M,,*6A
06/14/2015	09:00:05.583	$GPGGA,090006,2436.7278,N,08049.5050,W,1,11,1.4,21,M,,M,,*65
06/14/2015	09:00:06.573	$GPGGA,090007,2436.7282,N,08049.5037,W,1,11,1.4,21,M,,M,,*60
06/14/2015	09:00:07.614	$GPGGA,090008,2436.7291,N,08049.5022,W,1,10,1.6,21,M,,M,,*6A
06/14/2015	09:00:08.583	$GPGGA,090009,2436.7299,N,08049.5008,W,1,10,1.4,21,M,,M,,*69
06/14/2015	09:00:09.553	$GPGGA,090010,2436.7303,N,08049.4995,W,1,11,1.4,21,M,,M,,*6E
06/14/2015	09:00:10.563	$GPGGA,090011,2436.7310,N,08049.4981,W,1,11,1.4,21,M,,M,,*68
06/14/2015	09:00:11.593	$GPGGA,090012,2436.7320,N,08049.4967,W,1,10,1.6,21,M,,M,,*63
06/14/2015	09:00:12.553	$GPGGA,090013,2436.7325,N,08049.4953,W,1,10,1.4,21,M,,M,,*62
06/14/2015	09:00:13.573	$GPGGA,090014,2436.7328,N,08049.4939,W,1,11,1.4,20,M,,M,,*64
06/14/2015	09:00:14.563	$GPGGA,090015,2436.7338,N,08049.4926,W,1,11,1.4,20,M,,M,,*6A
06/14/2015	09:00:15.593	$GPGGA,090016,2436.7346,N,08049.4914,W,1,11,1.4,20,M,,M,,*61
06/14/2015	09:00:16.563	$GPGGA,090017,2436.7350,N,08049.4898,W,1,11,1.4,20,M,,M,,*62
06/14/2015	09:00:17.572	$GPGGA,090018,2436.7356,N,08049.4884,W,1,11,1.4,20,M,,M,,*66
06/14/2015	09:00:18.542	$GPGGA,090019,2436.7365,N,08049.4872,W,1,11,1.8,20,M,,M,,*62
06/14/2015	09:00:19.553	$GPGGA,090020,2436.7374,N,08049.4859,W,1,11,1.4,20,M,,M,,*6D
06/14/2015	09:00:20.543	$GPGGA,090021,2436.7379,N,08049.4845,W,1,11,1.4,20,M,,M,,*6C
06/14/2015	09:00:21.533	$GPGGA,090022,2436.7386,N,08049.4831,W,1,11,1.4,20,M,,M,,*6C
06/14/2015	09:00:22.533	$GPGGA,090023,2436.7392,N,08049.4816,W,1,11,1.8,20,M,,M,,*61
06/14/2015	09:00:23.543	$GPGGA,090024,2436.7400,N,08049.4802,W,1,11,1.4,20,M,,M,,*63
06/14/2015	09:00:24.533	$GPGGA,090025,2436.7408,N,08049.4788,W,1,11,1.4,20,M,,M,,*67
06/14/2015	09:00:25.543	$GPGGA,090026,2436.7415,N,08049.4773,W,1,11,1.4,20,M,,M,,*6C
06/14/2015	09:00:26.543	$GPGGA,090027,2436.7422,N,08049.4760,W,1,11,1.8,20,M,,M,,*67
06/14/2015	09:00:27.531	$GPGGA,090028,2436.7430,N,08049.4746,W,1,10,1.8,20,M,,M,,*6E
06/14/2015	09:00:28.643	$GPGGA,090029,2436.7437,N,08049.4731,W,1,10,1.4,20,M,,M,,*64
06/14/2015	09:00:29.533	$GPGGA,090030,2436.7446,N,08049.4717,W,1,11,1.4,20,M,,M,,*6F
06/14/2015	09:00:30.517	$GPGGA,090031,2436.7451,N,08049.4703,W,1,11,1.8,20,M,,M,,*61
06/14/2015	09:00:31.643	$GPGGA,090032,2436.7458,N,08049.4687,W,1,10,1.8,20,M,,M,,*67
06/14/2015	09:00:32.633	$GPGGA,090033,2436.7468,N,08049.4673,W,1,10,1.4,20,M,,M,,*62
06/14/2015	09:00:33.633	$GPGGA,090034,2436.7475,N,08049.4656,W,1,11,1.4,20,M,,M,,*6F
06/14/2015	09:00:34.618	$GPGGA,090035,2436.7480,N,08049.4642,W,1,11,1.4,20,M,,M,,*61
06/14/2015	09:00:35.614	$GPGGA,090036,2436.7491,N,08049.4631,W,1,10,1.8,20,M,,M,,*6B
06/14/2015	09:00:36.529	$GPGGA,090037,2436.7500,N,08049.4617,W,1,10,1.4,20,M,,M,,*6B
06/14/2015	09:00:37.618	$GPGGA,090038,2436.7505,N,08049.4600,W,1,11,1.4,20,M,,M,,*66
06/14/2015	09:00:38.503	$GPGGA,090039,2436.7513,N,08049.4591,W,1,11,1.8,20,M,,M,,*67
06/14/2015	09:00:39.503	$GPGGA,090040,2436.7523,N,08049.4580,W,1,10,1.8,20,M,,M,,*6B
06/14/2015	09:00:40.603	$GPGGA,090041,2436.7531,N,08049.4564,W,1,10,1.4,20,M,,M,,*6F
06/14/2015	09:00:41.593	$GPGGA,090042,2436.7536,N,08049.4549,W,1,10,1.8,20,M,,M,,*68
06/14/2015	09:00:42.515	$GPGGA,090043,2436.7544,N,08049.4540,W,1,10,1.8,20,M,,M,,*65
06/14/2015	09:00:43.622	$GPGGA,090044,2436.7552,N,08049.4528,W,1,10,1.8,20,M,,M,,*6B
06/14/2015	09:00:44.593	$GPGGA,090045,2436.7560,N,08049.4513,W,1,10,1.8,20,M,,M,,*63
06/14/2015	09:00:45.583	$GPGGA,090046,2436.7566,N,08049.4500,W,1,10,1.4,20,M,,M,,*68
06/14/2015	09:00:46.593	$GPGGA,090047,2436.7573,N,08049.4484,W,1,10,1.4,20,M,,M,,*60
06/14/2015	09:00:47.603	$GPGGA,090048,2436.7581,N,08049.4472,W,1,10,1.4,20,M,,M,,*6B
06/14/2015	09:00:48.583	$GPGGA,090049,2436.7589,N,08049.4459,W,1,10,1.8,20,M,,M,,*67
06/14/2015	09:00:49.603	$GPGGA,090050,2436.7596,N,08049.4446,W,1,11,1.4,20,M,,M,,*62
06/14/2015	09:00:50.573	$GPGGA,090051,2436.7606,N,08049.4431,W,1,11,1.4,20,M,,M,,*69
06/14/2015	09:00:51.603	$GPGGA,090052,2436.7614,N,08049.4419,W,1,10,1.4,20,M,,M,,*62
06/14/2015	09:00:52.562	$GPGGA,090053,2436.7617,N,08049.4406,W,1,10,1.8,20,M,,M,,*62
06/14/2015	09:00:53.592	$GPGGA,090054,2436.7625,N,08049.4391,W,1,11,1.4,20,M,,M,,*60
06/14/2015	09:00:54.573	$GPGGA,090055,2436.7634,N,08049.4378,W,1,11,1.4,20,M,,M,,*66
06/14/2015	09:00:55.593	$GPGGA,090056,2436.7641,N,08049.4364,W,1,11,1.4,20,M,,M,,*6A
06/14/2015	09:00:56.563	$GPGGA,090057,2436.7646,N,08049.4350,W,1,11,1.4,20,M,,M,,*6B
06/14/2015	09:00:57.553	$GPGGA,090058,2436.7653,N,08049.4336,W,1,11,1.4,20,M,,M,,*60
06/14/2015	09:00:58.563	$GPGGA,090059,2436.7661,N,08049.4323,W,1,11,1.4,20,M,,M,,*64
06/14/2015	09:00:59.573	$GPGGA,090100,2436.7668,N,08049.4308,W,1,11,1.4,20,M,,M,,*69
06/14/2015	09:01:00.574	$GPGGA,090101,2436.7675,N,08049.4293,W,1,11,1.4,20,M,,M,,*67
06/14/2015	09:01:01.543	$GPGGA,090102,2436.7682,N,08049.4280,W,1,11,1.4,20,M,,M,,*6E
06/14/2015	09:01:02.563	$GPGGA,090103,2436.7689,N,08049.4266,W,1,11,1.4,20,M,,M,,*6C
06/14/2015	09:01:03.583	$GPGGA,090104,2436.7697,N,08049.4251,W,1,11,1.4,20,M,,M,,*60
06/14/2015	09:01:04.543	$GPGGA,090105,2436.7704,N,08049.4237,W,1,11,1.8,20,M,,M,,*66
06/14/2015	09:01:05.563	$GPGGA,090106,2436.7710,N,08049.4222,W,1,10,1.8,20,M,,M,,*65
06/14/2015	09:01:06.533	$GPGGA,090107,2436.7717,N,08049.4206,W,1,10,1.4,20,M,,M,,*69
06/14/2015	09:01:07.573	$GPGGA,090108,2436.7726,N,08049.4193,W,1,11,1.4,20,M,,M,,*6A
06/14/2015	09:01:08.533	$GPGGA,090109,2436.7733,N,08049.4177,W,1,11,1.8,20,M,,M,,*69
06/14/2015	09:01:09.563	$GPGGA,090110,2436.7739,N,08049.4164,W,1,11,1.4,20,M,,M,,*65
06/14/2015	09:01:10.532	$GPGGA,090111,2436.7747,N,08049.4150,W,1,11,1.4,20,M,,M,,*6A
06/14/2015	09:01:11.632	$GPGGA,090112,2436.7753,N,08049.4132,W,1,11,1.4,20,M,,M,,*68
06/14/2015	09:01:12.512	$GPGGA,090113,2436.7758,N,08049.4117,W,1,11,1.4,20,M,,M,,*65
06/14/2015	09:01:13.522	$GPGGA,090114,2436.7765,N,08049.4101,W,1,11,1.4,20,M,,M,,*6B
06/14/2015	09:01:14.512	$GPGGA,090115,2436.7769,N,08049.4085,W,1,11,1.4,20,M,,M,,*6B
06/14/2015	09:01:15.532	$GPGGA,090116,2436.7776,N,08049.4070,W,1,11,1.4,20,M,,M,,*6C
06/14/2015	09:01:16.522	$GPGGA,090117,2436.7784,N,08049.4055,W,1,11,1.4,20,M,,M,,*67
06/14/2015	09:01:17.504	$GPGGA,090118,2436.7791,N,08049.4042,W,1,11,1.4,20,M,,M,,*6A
06/14/2015	09:01:18.522	$GPGGA,090119,2436.7794,N,08049.4026,W,1,11,1.8,20,M,,M,,*60
06/14/2015	09:01:19.642	$GPGGA,090120,2436.7802,N,08049.4011,W,1,11,1.4,20,M,,M,,*62
06/14/2015	09:01:20.513	$GPGGA,090121,2436.7811,N,08049.3999,W,1,11,1.4,20,M,,M,,*6F
06/14/2015	09:01:21.517	$GPGGA,090122,2436.7816,N,08049.3984,W,1,11,1.4,20,M,,M,,*67
06/14/2015	09:01:22.516	$GPGGA,090123,2436.7820,N,08049.3968,W,1,11,1.4,20,M,,M,,*61
06/14/2015	09:01:23.605	$GPGGA,090124,2436.7829,N,08049.3955,W,1,11,1.4,20,M,,M,,*61
06/14/2015	09:01:24.493	$GPGGA,090125,2436.7838,N,08049.3941,W,1,11,1.4,20,M,,M,,*65
06/14/2015	09:01:25.643	$GPGGA,090126,2436.7842,N,08049.3926,W,1,11,1.4,20,M,,M,,*6A
06/14/2015	09:01:26.503	$GPGGA,090127,2436.7849,N,08049.3910,W,1,11,1.6,20,M,,M,,*67
06/14/2015	09:01:27.604	$GPGGA,090128,2436.7856,N,08049.3895,W,1,11,1.4,20,M,,M,,*68
06/14/2015	09:01:28.510	$GPGGA,090129,2436.7862,N,08049.3879,W,1,11,1.4,20,M,,M,,*6C
06/14/2015	09:01:29.582	$GPGGA,090130,2436.7870,N,08049.3866,W,1,11,1.4,20,M,,M,,*69
06/14/2015	09:01:30.603	$GPGGA,090131,2436.7878,N,08049.3851,W,1,11,1.4,20,M,,M,,*64
06/14/2015	09:01:31.612	$GPGGA,090132,2436.7883,N,08049.3834,W,1,11,1.4,20,M,,M,,*60
06/14/2015	09:01:32.572	$GPGGA,090133,2436.7888,N,08049.3821,W,1,11,1.4,20,M,,M,,*6E
06/14/2015	09:01:33.592	$GPGGA,090134,2436.7895,N,08049.3806,W,1,11,1.4,20,M,,M,,*60
06/14/2015	09:01:34.582	$GPGGA,090135,2436.7903,N,08049.3791,W,1,11,1.6,20,M,,M,,*6C
06/14/2015	09:01:35.604	$GPGGA,090136,2436.7909,N,08049.3778,W,1,11,1.4,20,M,,M,,*60
06/14/2015	09:01:36.572	$GPGGA,090137,2436.7912,N,08049.3762,W,1,11,1.4,20,M,,M,,*60
06/14/2015	09:01:37.582	$GPGGA,090138,2436.7917,N,08049.3749,W,1,11,1.4,20,M,,M,,*63
06/14/2015	09:01:38.562	$GPGGA,090139,2436.7925,N,08049.3736,W,1,11,1.4,20,M,,M,,*6B
06/14/2015	09:01:39.593	$GPGGA,090140,2436.7932,N,08049.3720,W,1,11,1.4,20,M,,M,,*64
06/14/2015	09:01:40.563	$GPGGA,090141,2436.7935,N,08049.3708,W,1,11,1.4,20,M,,M,,*68
06/14/2015	09:01:41.553	$GPGGA,090142,2436.7942,N,08049.3695,W,1,11,1.4,20,M,,M,,*6E
06/14/2015	09:01:42.563	$GPGGA,090143,2436.7948,N,08049.3680,W,1,11,1.4,21,M,,M,,*60
06/14/2015	09:01:43.563	$GPGGA,090144,2436.7954,N,08049.3667,W,1,11,1.4,21,M,,M,,*63
06/14/2015	09:01:44.553	$GPGGA,090145,2436.7960,N,08049.3652,W,1,11,1.4,21,M,,M,,*63
06/14/2015	09:01:45.572	$GPGGA,090146,2436.7966,N,08049.3638,W,1,11,1.4,21,M,,M,,*6A
06/14/2015	09:01:46.562	$GPGGA,090147,2436.7972,N,08049.3624,W,1,11,1.4,21,M,,M,,*63
06/14/2015	09:01:47.552	$GPGGA,090148,2436.7979,N,08049.3610,W,1,11,1.4,21,M,,M,,*60
06/14/2015	09:01:48.552	$GPGGA,090149,2436.7986,N,08049.3594,W,1,11,1.4,21,M,,M,,*6E
06/14/2015	09:01:49.543	$GPGGA,090150,2436.7990,N,08049.3580,W,1,11,1.4,21,M,,M,,*64
06/14/2015	09:01:50.552	$GPGGA,090151,2436.7999,N,08049.3568,W,1,11,1.4,21,M,,M,,*6A
06/14/2015	09:01:51.552	$GPGGA,090152,2436.8006,N,08049.3552,W,1,11,1.4,21,M,,M,,*60
06/14/2015	09:01:52.542	$GPGGA,090153,2436.8014,N,08049.3538,W,1,11,1.8,21,M,,M,,*62
06/14/2015	09:01:53.532	$GPGGA,090154,2436.8019,N,08049.3525,W,1,10,1.8,21,M,,M,,*65
06/14/2015	09:01:54.532	$GPGGA,090155,2436.8026,N,08049.3512,W,1,10,1.8,21,M,,M,,*6C
06/14/2015	09:01:55.542	$GPGGA,090156,2436.8036,N,08049.3499,W,1,10,1.8,21,M,,M,,*6C
06/14/2015	09:01:56.572	$GPGGA,090157,2436.8043,N,08049.3484,W,1,10,1.8,21,M,,M,,*63
06/14/2015	09:01:57.543	$GPGGA,090158,2436.8050,N,08049.3470,W,1,10,1.8,21,M,,M,,*65
06/14/2015	09:01:58.533	$GPGGA,090159,2436.8058,N,08049.3459,W,1,10,1.8,21,M,,M,,*67
06/14/2015	09:01:59.563	$GPGGA,090200,2436.8066,N,08049.3445,W,1,10,1.8,21,M,,M,,*68
06/14/2015	09:02:00.533	$GPGGA,090201,2436.8073,N,08049.3431,W,1,10,1.8,21,M,,M,,*6E
06/14/2015	09:02:01.543	$GPGGA,090202,2436.8082,N,08049.3417,W,1,10,1.8,21,M,,M,,*67
06/14/2015	09:02:02.507	$GPGGA,090203,2436.8091,N,08049.3403,W,1,10,1.8,21,M,,M,,*61
06/14/2015	09:02:03.522	$GPGGA,090204,2436.8101,N,08049.3392,W,1,9,2.2,21,M,,M,,*50
06/14/2015	09:02:04.622	$GPGGA,090205,2436.8111,N,08049.3377,W,1,9,1.8,20,M,,M,,*53
06/14/2015	09:02:05.542	$GPGGA,090206,2436.8118,N,08049.3364,W,1,10,1.8,20,M,,M,,*63
06/14/2015	09:02:06.502	$GPGGA,090207,2436.8126,N,08049.3352,W,1,10,1.8,20,M,,M,,*6A
06/14/2015	09:02:07.552	$GPGGA,090208,2436.8136,N,08049.3338,W,1,10,1.8,20,M,,M,,*68
06/14/2015	09:02:09.507	$GPGGA,090209,2436.8143,N,08049.3327,W,1,10,2.2,20,M,,M,,*6C
06/14/2015	09:02:09.532	$GPGGA,090210,2436.8149,N,08049.3314,W,1,10,1.8,20,M,,M,,*67
06/14/2015	09:02:10.614	$GPGGA,090211,2436.8159,N,08049.3300,W,1,10,1.8,20,M,,M,,*62
06/14/2015	09:02:11.622	$GPGGA,090212,2436.8166,N,08049.3289,W,1,9,2.2,20,M,,M,,*5C
06/14/2015	09:02:12.520	$GPGGA,090213,2436.8172,N,08049.3275,W,1,9,1.8,20,M,,M,,*52
06/14/2015	09:02:13.582	$GPGGA,090214,2436.8178,N,08049.3263,W,1,10,1.8,19,M,,M,,*6A
06/14/2015	09:02:14.493	$GPGGA,090215,2436.8187,N,08049.3251,W,1,10,1.8,19,M,,M,,*6A
06/14/2015	09:02:15.593	$GPGGA,090216,2436.8195,N,08049.3236,W,1,10,1.8,19,M,,M,,*6B
06/14/2015	09:02:16.493	$GPGGA,090217,2436.8199,N,08049.3224,W,1,10,1.8,19,M,,M,,*65
06/14/2015	09:02:17.614	$GPGGA,090218,2436.8205,N,08049.3211,W,1,10,1.8,19,M,,M,,*6A
06/14/2015	09:02:18.493	$GPGGA,090219,2436.8214,N,08049.3198,W,1,10,1.8,19,M,,M,,*69
06/14/2015	09:02:19.609	$GPGGA,090220,2436.8221,N,08049.3185,W,1,10,1.8,19,M,,M,,*69
06/14/2015	09:02:20.573	$GPGGA,090221,2436.8227,N,08049.3172,W,1,10,1.8,19,M,,M,,*66
06/14/2015	09:02:21.592	$GPGGA,090222,2436.8234,N,08049.3160,W,1,10,1.8,19,M,,M,,*64
06/14/2015	09:02:22.992	$GPGGA,090223,2436.8242,N,08049.3146,W,1,10,1.8,19,M,,M,,*60
06/14/2015	09:02:23.592	$GPGGA,090224,2436.8249,N,08049.3132,W,1,10,1.8,19,M,,M,,*6F
06/14/2015	09:02:24.572	$GPGGA,090225,2436.8256,N,08049.3120,W,1,10,1.8,19,M,,M,,*63
06/14/2015	09:02:25.562	$GPGGA,090226,2436.8264,N,08049.3107,W,1,10,1.8,19,M,,M,,*64
06/14/2015	09:02:26.562	$GPGGA,090227,2436.8271,N,08049.3092,W,1,10,1.8,19,M,,M,,*6C
06/14/2015	09:02:27.572	$GPGGA,090228,2436.8275,N,08049.3077,W,1,10,1.8,19,M,,M,,*6C
06/14/2015	09:02:28.562	$GPGGA,090229,2436.8285,N,08049.3065,W,1,10,1.8,19,M,,M,,*61
06/14/2015	09:02:29.572	$GPGGA,090230,2436.8293,N,08049.3053,W,1,10,1.8,19,M,,M,,*6B
06/14/2015	09:02:30.572	$GPGGA,090231,2436.8300,N,08049.3040,W,1,10,1.8,19,M,,M,,*63
06/14/2015	09:02:31.583	$GPGGA,090232,2436.8306,N,08049.3025,W,1,10,1.8,19,M,,M,,*65
06/14/2015	09:02:32.553	$GPGGA,090233,2436.8315,N,08049.3011,W,1,10,1.8,19,M,,M,,*61
06/14/2015	09:02:33.563	$GPGGA,090234,2436.8321,N,08049.2999,W,1,9,2.2,19,M,,M,,*58
06/14/2015	09:02:34.553	$GPGGA,090235,2436.8328,N,08049.2987,W,1,9,1.8,19,M,,M,,*56
06/14/2015	09:02:35.583	$GPGGA,090236,2436.8335,N,08049.2973,W,1,10,1.8,19,M,,M,,*6A
06/14/2015	09:02:36.553	$GPGGA,090237,2436.8340,N,08049.2959,W,1,10,1.8,19,M,,M,,*61
06/14/2015	09:02:37.572	$GPGGA,090238,2436.8347,N,08049.2947,W,1,10,1.8,19,M,,M,,*66
06/14/2015	09:02:38.532	$GPGGA,090239,2436.8354,N,08049.2933,W,1,10,1.8,19,M,,M,,*66
06/14/2015	09:02:39.582	$GPGGA,090240,2436.8361,N,08049.2918,W,1,10,1.8,19,M,,M,,*67
06/14/2015	09:02:40.552	$GPGGA,090241,2436.8368,N,08049.2909,W,1,10,1.8,19,M,,M,,*6F
06/14/2015	09:02:41.532	$GPGGA,090242,2436.8373,N,08049.2893,W,1,10,1.8,19,M,,M,,*64
06/14/2015	09:02:42.542	$GPGGA,090243,2436.8380,N,08049.2878,W,1,10,1.8,19,M,,M,,*6C
06/14/2015	09:02:43.542	$GPGGA,090244,2436.8387,N,08049.2868,W,1,10,1.8,19,M,,M,,*6D
06/14/2015	09:02:44.542	$GPGGA,090245,2436.8394,N,08049.2855,W,1,10,2.2,19,M,,M,,*69
06/14/2015	09:02:45.520	$GPGGA,090246,2436.8401,N,08049.2840,W,1,10,1.8,19,M,,M,,*6C
06/14/2015	09:02:46.532	$GPGGA,090247,2436.8407,N,08049.2830,W,1,10,1.8,19,M,,M,,*6C
06/14/2015	09:02:47.532	$GPGGA,090248,2436.8415,N,08049.2815,W,1,10,1.8,19,M,,M,,*67
06/14/2015	09:02:48.515	$GPGGA,090249,2436.8422,N,08049.2802,W,1,10,2.2,19,M,,M,,*6D
06/14/2015	09:02:49.521	$GPGGA,090250,2436.8427,N,08049.2793,W,1,10,1.8,19,M,,M,,*6E
06/14/2015	09:02:50.511	$GPGGA,090251,2436.8436,N,08049.2778,W,1,10,1.8,19,M,,M,,*6A
06/14/2015	09:02:51.543	$GPGGA,090252,2436.8441,N,08049.2766,W,1,10,1.8,18,M,,M,,*67
06/14/2015	09:02:52.523	$GPGGA,090253,2436.8445,N,08049.2755,W,1,10,1.8,18,M,,M,,*62
06/14/2015	09:02:53.553	$GPGGA,090254,2436.8449,N,08049.2741,W,1,10,1.8,18,M,,M,,*6C
06/14/2015	09:02:54.518	$GPGGA,090255,2436.8456,N,08049.2729,W,1,10,1.8,18,M,,M,,*6D
06/14/2015	09:02:55.652	$GPGGA,090256,2436.8462,N,08049.2718,W,1,10,1.8,18,M,,M,,*6B
06/14/2015	09:02:56.518	$GPGGA,090257,2436.8466,N,08049.2703,W,1,10,1.8,18,M,,M,,*64
06/14/2015	09:02:57.521	$GPGGA,090258,2436.8470,N,08049.2690,W,1,10,1.8,19,M,,M,,*66
06/14/2015	09:02:58.606	$GPGGA,090259,2436.8477,N,08049.2679,W,1,10,1.8,19,M,,M,,*67
06/14/2015	09:02:59.642	$GPGGA,090300,2436.8484,N,08049.2665,W,1,10,1.8,19,M,,M,,*6B
06/14/2015	09:03:00.529	$GPGGA,090301,2436.8488,N,08049.2652,W,1,10,1.8,19,M,,M,,*62
06/14/2015	09:03:01.617	$GPGGA,090302,2436.8494,N,08049.2638,W,1,10,1.8,19,M,,M,,*60
06/14/2015	09:03:02.505	$GPGGA,090303,2436.8501,N,08049.2625,W,1,10,1.8,19,M,,M,,*60
06/14/2015	09:03:03.662	$GPGGA,090304,2436.8506,N,08049.2612,W,1,10,1.8,19,M,,M,,*64
06/14/2015	09:03:04.592	$GPGGA,090305,2436.8513,N,08049.2598,W,1,10,1.8,19,M,,M,,*60
06/14/2015	09:03:05.492	$GPGGA,090306,2436.8517,N,08049.2583,W,1,10,1.8,19,M,,M,,*6D
06/14/2015	09:03:06.593	$GPGGA,090307,2436.8524,N,08049.2568,W,1,10,1.8,20,M,,M,,*63
06/14/2015	09:03:07.619	$GPGGA,090308,2436.8531,N,08049.2555,W,1,10,1.8,20,M,,M,,*66
06/14/2015	09:03:08.493	$GPGGA,090309,2436.8538,N,08049.2541,W,1,10,1.8,20,M,,M,,*6B
06/14/2015	09:03:09.573	$GPGGA,090310,2436.8545,N,08049.2525,W,1,10,1.8,20,M,,M,,*6B
06/14/2015	09:03:10.583	$GPGGA,090311,2436.8553,N,08049.2512,W,1,10,1.8,20,M,,M,,*69
06/14/2015	09:03:11.620	$GPGGA,090312,2436.8560,N,08049.2498,W,1,10,1.8,20,M,,M,,*69
06/14/2015	09:03:12.562	$GPGGA,090313,2436.8566,N,08049.2482,W,1,10,1.8,20,M,,M,,*65
06/14/2015	09:03:13.592	$GPGGA,090314,2436.8573,N,08049.2468,W,1,10,1.8,20,M,,M,,*62
06/14/2015	09:03:14.572	$GPGGA,090315,2436.8579,N,08049.2454,W,1,10,1.8,20,M,,M,,*66
06/14/2015	09:03:15.592	$GPGGA,090316,2436.8586,N,08049.2439,W,1,10,1.8,20,M,,M,,*6E
06/14/2015	09:03:16.562	$GPGGA,090317,2436.8595,N,08049.2424,W,1,10,1.8,20,M,,M,,*61
06/14/2015	09:03:17.562	$GPGGA,090318,2436.8602,N,08049.2410,W,1,10,1.8,20,M,,M,,*64
06/14/2015	09:03:18.562	$GPGGA,090319,2436.8607,N,08049.2395,W,1,10,1.8,20,M,,M,,*6A
06/14/2015	09:03:19.592	$GPGGA,090320,2436.8615,N,08049.2380,W,1,10,1.8,20,M,,M,,*67
06/14/2015	09:03:20.562	$GPGGA,090321,2436.8625,N,08049.2366,W,1,10,1.8,20,M,,M,,*6D
06/14/2015	09:03:21.592	$GPGGA,090322,2436.8631,N,08049.2351,W,1,10,1.8,20,M,,M,,*6F
06/14/2015	09:03:22.552	$GPGGA,090323,2436.8636,N,08049.2335,W,1,10,1.8,20,M,,M,,*6B
06/14/2015	09:03:23.582	$GPGGA,090324,2436.8644,N,08049.2322,W,1,10,1.8,21,M,,M,,*6E
06/14/2015	09:03:24.543	$GPGGA,090325,2436.8654,N,08049.2308,W,1,10,1.8,21,M,,M,,*66
06/14/2015	09:03:25.583	$GPGGA,090326,2436.8661,N,08049.2291,W,1,10,1.8,21,M,,M,,*62
06/14/2015	09:03:26.543	$GPGGA,090327,2436.8668,N,08049.2277,W,1,10,1.8,21,M,,M,,*62
06/14/2015	09:03:27.593	$GPGGA,090328,2436.8675,N,08049.2266,W,1,10,1.8,21,M,,M,,*61
06/14/2015	09:03:28.543	$GPGGA,090329,2436.8683,N,08049.2251,W,1,10,1.8,21,M,,M,,*6D
06/14/2015	09:03:29.543	$GPGGA,090330,2436.8690,N,08049.2235,W,1,10,1.8,21,M,,M,,*65
06/14/2015	09:03:30.542	$GPGGA,090331,2436.8697,N,08049.2223,W,1,10,1.8,21,M,,M,,*64
06/14/2015	09:03:31.582	$GPGGA,090332,2436.8705,N,08049.2210,W,1,10,1.8,20,M,,M,,*6C
06/14/2015	09:03:32.542	$GPGGA,090333,2436.8714,N,08049.2197,W,1,10,1.8,20,M,,M,,*61
06/14/2015	09:03:33.562	$GPGGA,090334,2436.8719,N,08049.2183,W,1,10,1.8,20,M,,M,,*6E
06/14/2015	09:03:34.542	$GPGGA,090335,2436.8727,N,08049.2167,W,1,10,1.8,20,M,,M,,*68
06/14/2015	09:03:35.552	$GPGGA,090336,2436.8734,N,08049.2157,W,1,10,1.8,20,M,,M,,*6A
06/14/2015	09:03:36.532	$GPGGA,090337,2436.8744,N,08049.2147,W,1,10,1.8,20,M,,M,,*6D
06/14/2015	09:03:37.552	$GPGGA,090338,2436.8751,N,08049.2131,W,1,10,1.8,20,M,,M,,*67
06/14/2015	09:03:38.552	$GPGGA,090339,2436.8756,N,08049.2116,W,1,10,1.8,20,M,,M,,*64
06/14/2015	09:03:39.572	$GPGGA,090340,2436.8766,N,08049.2107,W,1,10,1.8,20,M,,M,,*69
06/14/2015	09:03:40.522	$GPGGA,090341,2436.8773,N,08049.2095,W,1,10,1.8,20,M,,M,,*66
06/14/2015	09:03:41.623	$GPGGA,090342,2436.8781,N,08049.2082,W,1,10,1.8,20,M,,M,,*6E
06/14/2015	09:03:42.523	$GPGGA,090343,2436.8788,N,08049.2069,W,1,10,1.8,20,M,,M,,*63
06/14/2015	09:03:43.573	$GPGGA,090344,2436.8795,N,08049.2056,W,1,10,1.8,20,M,,M,,*64
06/14/2015	09:03:44.604	$GPGGA,090345,2436.8802,N,08049.2044,W,1,10,1.8,20,M,,M,,*67
06/14/2015	09:03:45.623	$GPGGA,090346,2436.8812,N,08049.2034,W,1,10,1.8,19,M,,M,,*68
06/14/2015	09:03:46.514	$GPGGA,090347,2436.8820,N,08049.2020,W,1,10,1.8,19,M,,M,,*6D
06/14/2015	09:03:47.602	$GPGGA,090348,2436.8826,N,08049.2006,W,1,10,1.8,19,M,,M,,*60
06/14/2015	09:03:48.503	$GPGGA,090349,2436.8833,N,08049.1995,W,1,10,1.8,19,M,,M,,*65
06/14/2015	09:03:49.632	$GPGGA,090350,2436.8839,N,08049.1982,W,1,10,1.8,19,M,,M,,*61
06/14/2015	09:03:50.522	$GPGGA,090351,2436.8849,N,08049.1969,W,1,10,1.8,19,M,,M,,*62
06/14/2015	09:03:51.592	$GPGGA,090352,2436.8857,N,08049.1958,W,1,10,1.8,19,M,,M,,*6C
06/14/2015	09:03:52.512	$GPGGA,090353,2436.8862,N,08049.1943,W,1,10,1.8,19,M,,M,,*61
06/14/2015	09:03:53.592	$GPGGA,090354,2436.8868,N,08049.1929,W,1,10,1.8,19,M,,M,,*60
06/14/2015	09:03:54.593	$GPGGA,090355,2436.8868,N,08049.1929,W,1,10,1.8,19,M,,M,,*61
06/14/2015	09:03:55.552	$GPGGA,090356,2436.8884,N,08049.1903,W,1,10,1.8,18,M,,M,,*69
06/14/2015	09:03:56.572	$GPGGA,090357,2436.8891,N,08049.1890,W,1,10,1.8,18,M,,M,,*67
06/14/2015	09:03:57.582	$GPGGA,090358,2436.8896,N,08049.1876,W,1,10,1.8,18,M,,M,,*67
06/14/2015	09:03:58.592	$GPGGA,090359,2436.8904,N,08049.1861,W,1,10,1.8,18,M,,M,,*6A
06/14/2015	09:03:59.593	$GPGGA,090400,2436.8911,N,08049.1848,W,1,10,1.8,18,M,,M,,*6E
06/14/2015	09:04:00.583	$GPGGA,090401,2436.8917,N,08049.1833,W,1,10,1.8,18,M,,M,,*65
06/14/2015	09:04:01.563	$GPGGA,090402,2436.8924,N,08049.1819,W,1,10,1.8,18,M,,M,,*6E
06/14/2015	09:04:02.573	$GPGGA,090403,2436.8932,N,08049.1806,W,1,10,1.8,18,M,,M,,*66
06/14/2015	09:04:03.593	$GPGGA,090404,2436.8932,N,08049.1791,W,1,9,2.2,18,M,,M,,*51
06/14/2015	09:04:04.562	$GPGGA,090405,2436.8936,N,08049.1774,W,1,9,1.8,18,M,,M,,*56
06/14/2015	09:04:05.582	$GPGGA,090406,2436.8943,N,08049.1760,W,1,9,1.8,18,M,,M,,*52
06/14/2015	09:04:06.552	$GPGGA,090407,2436.8947,N,08049.1749,W,1,9,1.8,18,M,,M,,*5C
06/14/2015	09:04:07.602	$GPGGA,090408,2436.8953,N,08049.1734,W,1,10,2.2,18,M,,M,,*6D
06/14/2015	09:04:08.552	$GPGGA,090409,2436.8957,N,08049.1719,W,1,10,2.2,18,M,,M,,*67
06/14/2015	09:04:09.562	$GPGGA,090410,2436.8964,N,08049.1706,W,1,10,2.2,18,M,,M,,*61
06/14/2015	09:04:10.832	$GPGGA,090411,2436.8969,N,08049.1692,W,1,10,2.2,18,M,,M,,*61
06/14/2015	09:04:11.552	$GPGGA,090412,2436.8974,N,08049.1679,W,1,9,2.2,18,M,,M,,*53
06/14/2015	09:04:12.542	$GPGGA,090413,2436.8979,N,08049.1665,W,1,9,2.3,18,M,,M,,*53
06/14/2015	09:04:13.562	$GPGGA,090414,2436.8983,N,08049.1649,W,1,8,2.3,18,M,,M,,*5E
06/14/2015	09:04:14.542	$GPGGA,090415,2436.8987,N,08049.1637,W,1,8,2.2,18,M,,M,,*53
06/14/2015	09:04:15.572	$GPGGA,090416,2436.8990,N,08049.1625,W,1,9,2.2,18,M,,M,,*54
06/14/2015	09:04:16.533	$GPGGA,090417,2436.8994,N,08049.1610,W,1,9,1.8,18,M,,M,,*5E
06/14/2015	09:04:17.563	$GPGGA,090418,2436.8998,N,08049.1595,W,1,10,1.8,18,M,,M,,*6B
06/14/2015	09:04:18.533	$GPGGA,090419,2436.9003,N,08049.1582,W,1,10,2.3,18,M,,M,,*6E
06/14/2015	09:04:19.573	$GPGGA,090420,2436.9008,N,08049.1568,W,1,9,2.2,18,M,,M,,*52
06/14/2015	09:04:20.523	$GPGGA,090421,2436.9012,N,08049.1554,W,1,9,2.2,18,M,,M,,*57
06/14/2015	09:04:21.543	$GPGGA,090422,2436.9014,N,08049.1538,W,1,8,2.3,18,M,,M,,*58
06/14/2015	09:04:22.522	$GPGGA,090423,2436.9015,N,08049.1526,W,1,8,1.8,19,M,,M,,*5E
06/14/2015	09:04:23.562	$GPGGA,090424,2436.9022,N,08049.1512,W,1,9,2.2,19,M,,M,,*52
06/14/2015	09:04:24.522	$GPGGA,090425,2436.9029,N,08049.1498,W,1,9,2.2,19,M,,M,,*5B
06/14/2015	09:04:25.532	$GPGGA,090426,2436.9033,N,08049.1483,W,1,9,2.2,19,M,,M,,*59
06/14/2015	09:04:26.512	$GPGGA,090427,2436.9037,N,08049.1466,W,1,9,2.3,19,M,,M,,*56
06/14/2015	09:04:27.532	$GPGGA,090428,2436.9044,N,08049.1452,W,1,9,2.2,19,M,,M,,*5B
06/14/2015	09:04:28.513	$GPGGA,090429,2436.9048,N,08049.1439,W,1,9,2.2,19,M,,M,,*5B
06/14/2015	09:04:29.516	$GPGGA,090430,2436.9052,N,08049.1423,W,1,9,2.2,19,M,,M,,*53
06/14/2015	09:04:30.515	$GPGGA,090431,2436.9055,N,08049.1408,W,1,9,1.8,19,M,,M,,*55
06/14/2015	09:04:31.642	$GPGGA,090432,2436.9059,N,08049.1395,W,1,10,1.8,19,M,,M,,*61
06/14/2015	09:04:32.602	$GPGGA,090433,2436.9065,N,08049.1382,W,1,10,1.8,19,M,,M,,*69
06/14/2015	09:04:33.632	$GPGGA,090434,2436.9069,N,08049.1365,W,1,9,1.8,19,M,,M,,*53
06/14/2015	09:04:34.504	$GPGGA,090435,2436.9076,N,08049.1351,W,1,9,1.8,19,M,,M,,*5B
06/14/2015	09:04:35.633	$GPGGA,090436,2436.9083,N,08049.1337,W,1,9,2.2,19,M,,M,,*5B
06/14/2015	09:04:36.493	$GPGGA,090437,2436.9088,N,08049.1323,W,1,9,2.4,19,M,,M,,*52
06/14/2015	09:04:37.504	$GPGGA,090438,2436.9095,N,08049.1306,W,1,8,2.4,19,M,,M,,*57
06/14/2015	09:04:38.593	$GPGGA,090439,2436.9102,N,08049.1291,W,1,8,1.8,19,M,,M,,*59
06/14/2015	09:04:39.602	$GPGGA,090440,2436.9109,N,08049.1278,W,1,10,1.8,19,M,,M,,*62
06/14/2015	09:04:40.514	$GPGGA,090441,2436.9117,N,08049.1264,W,1,10,2.2,19,M,,M,,*68
06/14/2015	09:04:41.593	$GPGGA,090442,2436.9124,N,08049.1249,W,1,9,2.2,19,M,,M,,*5C
06/14/2015	09:04:42.572	$GPGGA,090443,2436.9127,N,08049.1232,W,1,9,1.8,19,M,,M,,*5B
06/14/2015	09:04:43.604	$GPGGA,090444,2436.9131,N,08049.1218,W,1,10,1.8,19,M,,M,,*6B
06/14/2015	09:04:44.582	$GPGGA,090445,2436.9137,N,08049.1205,W,1,10,1.8,19,M,,M,,*60
06/14/2015	09:04:45.572	$GPGGA,090446,2436.9145,N,08049.1190,W,1,10,1.8,19,M,,M,,*69
06/14/2015	09:04:46.582	$GPGGA,090447,2436.9152,N,08049.1175,W,1,10,1.8,19,M,,M,,*65
06/14/2015	09:04:47.604	$GPGGA,090448,2436.9156,N,08049.1160,W,1,10,1.8,19,M,,M,,*6A
06/14/2015	09:04:48.572	$GPGGA,090449,2436.9164,N,08049.1146,W,1,10,1.8,19,M,,M,,*6E
06/14/2015	09:04:49.592	$GPGGA,090450,2436.9173,N,08049.1133,W,1,10,1.8,20,M,,M,,*68
06/14/2015	09:04:50.562	$GPGGA,090451,2436.9180,N,08049.1117,W,1,10,1.8,20,M,,M,,*63
06/14/2015	09:04:51.593	$GPGGA,090452,2436.9186,N,08049.1103,W,1,10,1.8,20,M,,M,,*63
06/14/2015	09:04:52.573	$GPGGA,090453,2436.9195,N,08049.1089,W,1,10,1.8,20,M,,M,,*63
06/14/2015	09:04:53.553	$GPGGA,090454,2436.9203,N,08049.1074,W,1,10,1.8,20,M,,M,,*6A
06/14/2015	09:04:54.573	$GPGGA,090455,2436.9210,N,08049.1059,W,1,10,1.8,20,M,,M,,*66
06/14/2015	09:04:55.593	$GPGGA,090456,2436.9217,N,08049.1044,W,1,10,1.8,20,M,,M,,*6E
06/14/2015	09:04:56.553	$GPGGA,090457,2436.9227,N,08049.1031,W,1,10,1.8,20,M,,M,,*6E
06/14/2015	09:04:57.562	$GPGGA,090458,2436.9232,N,08049.1015,W,1,10,1.8,20,M,,M,,*63
06/14/2015	09:04:58.562	$GPGGA,090459,2436.9240,N,08049.0999,W,1,10,1.8,20,M,,M,,*6B
06/14/2015	09:04:59.592	$GPGGA,090500,2436.9250,N,08049.0989,W,1,10,1.8,20,M,,M,,*66
06/14/2015	09:05:00.562	$GPGGA,090501,2436.9258,N,08049.0975,W,1,10,1.8,20,M,,M,,*6C
06/14/2015	09:05:01.532	$GPGGA,090502,2436.9265,N,08049.0956,W,1,10,1.8,20,M,,M,,*60
06/14/2015	09:05:02.552	$GPGGA,090503,2436.9272,N,08049.0945,W,1,10,1.8,19,M,,M,,*6F
06/14/2015	09:05:03.572	$GPGGA,090504,2436.9281,N,08049.0934,W,1,10,1.8,19,M,,M,,*62
06/14/2015	09:05:04.552	$GPGGA,090505,2436.9289,N,08049.0919,W,1,10,1.8,19,M,,M,,*64
06/14/2015	09:05:05.562	$GPGGA,090506,2436.9296,N,08049.0905,W,1,10,1.8,19,M,,M,,*64
06/14/2015	09:05:06.532	$GPGGA,090507,2436.9301,N,08049.0892,W,1,10,1.8,19,M,,M,,*65
06/14/2015	09:05:07.562	$GPGGA,090508,2436.9310,N,08049.0879,W,1,10,1.8,19,M,,M,,*6F
06/14/2015	09:05:08.523	$GPGGA,090509,2436.9318,N,08049.0867,W,1,10,1.8,19,M,,M,,*69
06/14/2015	09:05:09.526	$GPGGA,090510,2436.9323,N,08049.0853,W,1,10,1.8,19,M,,M,,*6E
06/14/2015	09:05:10.543	$GPGGA,090511,2436.9332,N,08049.0838,W,1,10,1.8,19,M,,M,,*62
06/14/2015	09:05:11.653	$GPGGA,090512,2436.9340,N,08049.0826,W,1,10,1.8,19,M,,M,,*6B
06/14/2015	09:05:12.517	$GPGGA,090513,2436.9346,N,08049.0813,W,1,10,1.8,19,M,,M,,*6A
06/14/2015	09:05:13.533	$GPGGA,090514,2436.9352,N,08049.0798,W,1,10,1.8,19,M,,M,,*64
06/14/2015	09:05:14.532	$GPGGA,090515,2436.9362,N,08049.0786,W,1,10,1.8,19,M,,M,,*69
06/14/2015	09:05:15.642	$GPGGA,090516,2436.9370,N,08049.0773,W,1,10,1.8,19,M,,M,,*63
06/14/2015	09:05:16.515	$GPGGA,090517,2436.9375,N,08049.0758,W,1,10,1.8,19,M,,M,,*6E
06/14/2015	09:05:17.527	$GPGGA,090518,2436.9380,N,08049.0744,W,1,10,1.8,19,M,,M,,*66
06/14/2015	09:05:18.522	$GPGGA,090519,2436.9388,N,08049.0730,W,1,10,1.8,18,M,,M,,*6D
06/14/2015	09:05:19.532	$GPGGA,090520,2436.9395,N,08049.0718,W,1,10,1.8,18,M,,M,,*61
06/14/2015	09:05:20.512	$GPGGA,090521,2436.9399,N,08049.0702,W,1,10,1.8,18,M,,M,,*67
06/14/2015	09:05:21.621	$GPGGA,090522,2436.9406,N,08049.0686,W,1,10,1.8,18,M,,M,,*68
06/14/2015	09:05:22.502	$GPGGA,090523,2436.9416,N,08049.0675,W,1,10,1.8,18,M,,M,,*64
06/14/2015	09:05:23.507	$GPGGA,090524,2436.9423,N,08049.0661,W,1,10,1.8,18,M,,M,,*60
06/14/2015	09:05:24.592	$GPGGA,090525,2436.9424,N,08049.0645,W,1,10,2.2,18,M,,M,,*69
06/14/2015	09:05:25.606	$GPGGA,090526,2436.9431,N,08049.0631,W,1,10,1.8,18,M,,M,,*64
06/14/2015	09:05:26.509	$GPGGA,090527,2436.9438,N,08049.0618,W,1,10,2.2,18,M,,M,,*6E
06/14/2015	09:05:27.633	$GPGGA,090528,2436.9444,N,08049.0603,W,1,10,1.8,18,M,,M,,*69
06/14/2015	09:05:29.511	$GPGGA,090529,2436.9446,N,08049.0587,W,1,10,1.8,18,M,,M,,*65
06/14/2015	09:05:29.533	$GPGGA,090530,2436.9455,N,08049.0573,W,1,10,1.8,18,M,,M,,*64
06/14/2015	09:05:30.583	$GPGGA,090531,2436.9460,N,08049.0559,W,1,10,2.2,18,M,,M,,*62
06/14/2015	09:05:31.608	$GPGGA,090532,2436.9467,N,08049.0542,W,1,10,1.8,18,M,,M,,*65
06/14/2015	09:05:32.582	$GPGGA,090533,2436.9471,N,08049.0527,W,1,10,1.8,18,M,,M,,*60
06/14/2015	09:05:33.592	$GPGGA,090534,2436.9480,N,08049.0513,W,1,10,1.8,18,M,,M,,*6E
06/14/2015	09:05:34.582	$GPGGA,090535,2436.9485,N,08049.0498,W,1,10,1.8,18,M,,M,,*68
06/14/2015	09:05:35.592	$GPGGA,090536,2436.9489,N,08049.0482,W,1,10,1.8,18,M,,M,,*6C
06/14/2015	09:05:36.572	$GPGGA,090537,2436.9496,N,08049.0466,W,1,10,2.2,18,M,,M,,*60
06/14/2015	09:05:37.605	$GPGGA,090538,2436.9502,N,08049.0450,W,1,9,2.2,18,M,,M,,*5E
06/14/2015	09:05:38.572	$GPGGA,090539,2436.9507,N,08049.0436,W,1,9,2.2,18,M,,M,,*5A
06/14/2015	09:05:39.572	$GPGGA,090540,2436.9514,N,08049.0421,W,1,9,2.2,17,M,,M,,*5F
06/14/2015	09:05:40.562	$GPGGA,090541,2436.9518,N,08049.0403,W,1,9,2.3,17,M,,M,,*53
06/14/2015	09:05:41.552	$GPGGA,090542,2436.9523,N,08049.0388,W,1,9,2.2,17,M,,M,,*5D
06/14/2015	09:05:42.562	$GPGGA,090543,2436.9529,N,08049.0374,W,1,9,2.3,17,M,,M,,*54
06/14/2015	09:05:43.592	$GPGGA,090544,2436.9535,N,08049.0358,W,1,8,2.3,17,M,,M,,*51
06/14/2015	09:05:44.563	$GPGGA,090545,2436.9538,N,08049.0343,W,1,8,2.2,17,M,,M,,*56
06/14/2015	09:05:45.553	$GPGGA,090546,2436.9542,N,08049.0328,W,1,9,2.2,17,M,,M,,*54
06/14/2015	09:05:46.553	$GPGGA,090547,2436.9547,N,08049.0312,W,1,9,2.3,17,M,,M,,*58
06/14/2015	09:05:47.573	$GPGGA,090548,2436.9553,N,08049.0295,W,1,8,2.3,17,M,,M,,*5D
06/14/2015	09:05:48.553	$GPGGA,090549,2436.9563,N,08049.0281,W,1,8,2.2,17,M,,M,,*5B
06/14/2015	09:05:49.562	$GPGGA,090550,2436.9567,N,08049.0265,W,1,10,1.8,17,M,,M,,*6D
06/14/2015	09:05:50.552	$GPGGA,090551,2436.9572,N,08049.0248,W,1,10,1.8,17,M,,M,,*67
06/14/2015	09:05:51.582	$GPGGA,090552,2436.9576,N,08049.0233,W,1,10,1.8,17,M,,M,,*6C
06/14/2015	09:05:52.552	$GPGGA,090553,2436.9582,N,08049.0217,W,1,10,2.2,17,M,,M,,*69
06/14/2015	09:05:53.532	$GPGGA,090554,2436.9585,N,08049.0201,W,1,9,2.2,16,M,,M,,*57
06/14/2015	09:05:54.542	$GPGGA,090555,2436.9586,N,08049.0189,W,1,9,1.8,16,M,,M,,*5F
06/14/2015	09:05:55.582	$GPGGA,090556,2436.9590,N,08049.0173,W,1,10,1.8,16,M,,M,,*66
06/14/2015	09:05:56.532	$GPGGA,090557,2436.9594,N,08049.0155,W,1,10,1.8,16,M,,M,,*67
06/14/2015	09:05:57.552	$GPGGA,090558,2436.9597,N,08049.0143,W,1,10,1.8,16,M,,M,,*6C
06/14/2015	09:05:58.542	$GPGGA,090559,2436.9603,N,08049.0132,W,1,10,1.8,16,M,,M,,*65
06/14/2015	09:05:59.542	$GPGGA,090600,2436.9608,N,08049.0116,W,1,8,2.4,16,M,,M,,*51
06/14/2015	09:06:00.532	$GPGGA,090601,2436.9614,N,08049.0101,W,1,8,2.6,16,M,,M,,*59
06/14/2015	09:06:01.543	$GPGGA,090602,2436.9619,N,08049.0089,W,1,10,1.8,16,M,,M,,*62
06/14/2015	09:06:02.516	$GPGGA,090603,2436.9622,N,08049.0078,W,1,10,1.8,17,M,,M,,*64
06/14/2015	09:06:03.533	$GPGGA,090604,2436.9626,N,08049.0067,W,1,9,2.2,17,M,,M,,*58
06/14/2015	09:06:04.513	$GPGGA,090605,2436.9633,N,08049.0054,W,1,9,2.2,17,M,,M,,*5D
06/14/2015	09:06:06.553	$GPGGA,090607,2436.9641,N,08049.0028,W,1,9,1.8,17,M,,M,,*58
06/14/2015	09:06:07.522	$GPGGA,090608,2436.9647,N,08049.0017,W,1,10,1.8,17,M,,M,,*65
06/14/2015	09:06:08.605	$GPGGA,090609,2436.9652,N,08049.0006,W,1,10,1.8,17,M,,M,,*60
06/14/2015	09:06:09.703	$GPGGA,090610,2436.9658,N,08048.9992,W,1,10,1.8,18,M,,M,,*61
06/14/2015	09:06:10.512	$GPGGA,090611,2436.9664,N,08048.9978,W,1,10,1.8,18,M,,M,,*6B
06/14/2015	09:06:11.504	$GPGGA,090612,2436.9669,N,08048.9967,W,1,10,1.8,18,M,,M,,*6B
06/14/2015	09:06:12.512	$GPGGA,090613,2436.9673,N,08048.9957,W,1,10,1.8,18,M,,M,,*62
06/14/2015	09:06:13.503	$GPGGA,090614,2436.9680,N,08048.9943,W,1,10,1.8,18,M,,M,,*6C
06/14/2015	09:06:14.610	$GPGGA,090615,2436.9687,N,08048.9929,W,1,10,1.9,18,M,,M,,*67
06/14/2015	09:06:15.512	$GPGGA,090616,2436.9694,N,08048.9917,W,1,10,1.8,18,M,,M,,*6A
06/14/2015	09:06:16.582	$GPGGA,090617,2436.9697,N,08048.9906,W,1,10,1.8,18,M,,M,,*68
06/14/2015	09:06:17.682	$GPGGA,090618,2436.9704,N,08048.9895,W,1,10,1.8,19,M,,M,,*66
06/14/2015	09:06:18.615	$GPGGA,090619,2436.9712,N,08048.9883,W,1,10,1.8,19,M,,M,,*67
06/14/2015	09:06:19.693	$GPGGA,090620,2436.9717,N,08048.9869,W,1,10,1.8,19,M,,M,,*6C
06/14/2015	09:06:20.573	$GPGGA,090621,2436.9723,N,08048.9855,W,1,10,1.8,19,M,,M,,*65
06/14/2015	09:06:21.683	$GPGGA,090622,2436.9730,N,08048.9845,W,1,10,1.8,19,M,,M,,*65
06/14/2015	09:06:22.604	$GPGGA,090623,2436.9740,N,08048.9834,W,1,10,1.8,19,M,,M,,*65
06/14/2015	09:06:23.693	$GPGGA,090624,2436.9745,N,08048.9820,W,1,10,1.8,19,M,,M,,*62
06/14/2015	09:06:24.615	$GPGGA,090625,2436.9749,N,08048.9806,W,1,10,1.8,19,M,,M,,*6B
06/14/2015	09:06:25.562	$GPGGA,090626,2436.9758,N,08048.9792,W,1,10,1.8,19,M,,M,,*6A
06/14/2015	09:06:26.562	$GPGGA,090627,2436.9764,N,08048.9781,W,1,10,1.8,19,M,,M,,*66
06/14/2015	09:06:27.682	$GPGGA,090628,2436.9771,N,08048.9770,W,1,10,1.8,19,M,,M,,*63
06/14/2015	09:06:28.603	$GPGGA,090629,2436.9777,N,08048.9755,W,1,10,1.8,19,M,,M,,*63
06/14/2015	09:06:29.643	$GPGGA,090630,2436.9785,N,08048.9741,W,1,10,2.2,19,M,,M,,*6A
06/14/2015	09:06:30.592	$GPGGA,090631,2436.9791,N,08048.9730,W,1,10,1.8,19,M,,M,,*61
06/14/2015	09:06:31.672	$GPGGA,090632,2436.9796,N,08048.9718,W,1,10,1.8,19,M,,M,,*6F
06/14/2015	09:06:32.582	$GPGGA,090633,2436.9803,N,08048.9704,W,1,10,1.8,19,M,,M,,*60
06/14/2015	09:06:33.642	$GPGGA,090634,2436.9810,N,08048.9692,W,1,10,1.8,19,M,,M,,*6B
06/14/2015	09:06:34.582	$GPGGA,090635,2436.9814,N,08048.9678,W,1,10,1.8,19,M,,M,,*6A
06/14/2015	09:06:35.682	$GPGGA,090636,2436.9821,N,08048.9663,W,1,10,1.8,19,M,,M,,*65
06/14/2015	09:06:36.583	$GPGGA,090637,2436.9831,N,08048.9651,W,1,10,1.8,19,M,,M,,*64
06/14/2015	09:06:37.553	$GPGGA,090638,2436.9836,N,08048.9639,W,1,10,1.8,19,M,,M,,*62
06/14/2015	09:06:38.983	$GPGGA,090639,2436.9842,N,08048.9625,W,1,10,1.8,19,M,,M,,*6D
06/14/2015	09:06:39.663	$GPGGA,090640,2436.9849,N,08048.9610,W,1,10,1.8,19,M,,M,,*6E
06/14/2015	09:06:40.543	$GPGGA,090641,2436.9857,N,08048.9597,W,1,10,1.8,19,M,,M,,*6C
06/14/2015	09:06:41.633	$GPGGA,090642,2436.9863,N,08048.9586,W,1,10,1.8,19,M,,M,,*68
06/14/2015	09:06:42.582	$GPGGA,090643,2436.9868,N,08048.9572,W,1,10,1.8,19,M,,M,,*69
06/14/2015	09:06:44.062	$GPGGA,090644,2436.9875,N,08048.9557,W,1,10,1.8,19,M,,M,,*65
06/14/2015	09:06:44.522	$GPGGA,090645,2436.9882,N,08048.9543,W,1,10,1.8,19,M,,M,,*69
06/14/2015	09:06:45.604	$GPGGA,090646,2436.9889,N,08048.9531,W,1,10,1.8,19,M,,M,,*64
06/14/2015	09:06:46.522	$GPGGA,090647,2436.9894,N,08048.9518,W,1,10,1.8,19,M,,M,,*62
06/14/2015	09:06:47.662	$GPGGA,090648,2436.9901,N,08048.9503,W,1,10,1.8,19,M,,M,,*6A
06/14/2015	09:06:48.562	$GPGGA,090649,2436.9907,N,08048.9490,W,1,10,1.8,19,M,,M,,*66
06/14/2015	09:06:49.615	$GPGGA,090650,2436.9914,N,08048.9478,W,1,10,1.8,19,M,,M,,*6A
06/14/2015	09:06:50.552	$GPGGA,090651,2436.9919,N,08048.9463,W,1,10,1.8,19,M,,M,,*6C
06/14/2015	09:06:51.652	$GPGGA,090652,2436.9924,N,08048.9450,W,1,10,1.8,19,M,,M,,*61
06/14/2015	09:06:52.632	$GPGGA,090653,2436.9930,N,08048.9435,W,1,10,1.8,19,M,,M,,*66
06/14/2015	09:06:53.602	$GPGGA,090654,2436.9937,N,08048.9422,W,1,10,2.2,19,M,,M,,*69
06/14/2015	09:06:54.504	$GPGGA,090655,2436.9944,N,08048.9410,W,1,10,2.2,19,M,,M,,*6D
06/14/2015	09:06:55.605	$GPGGA,090656,2436.9948,N,08048.9394,W,1,9,1.8,19,M,,M,,*58
06/14/2015	09:06:56.618	$GPGGA,090657,2436.9954,N,08048.9380,W,1,9,1.8,19,M,,M,,*51
06/14/2015	09:06:57.607	$GPGGA,090658,2436.9962,N,08048.9367,W,1,10,1.8,19,M,,M,,*6A
06/14/2015	09:06:58.553	$GPGGA,090659,2436.9966,N,08048.9353,W,1,10,2.2,19,M,,M,,*61
06/14/2015	09:06:59.614	$GPGGA,090700,2436.9972,N,08048.9339,W,1,9,2.2,19,M,,M,,*5D
06/14/2015	09:07:00.542	$GPGGA,090701,2436.9979,N,08048.9325,W,1,9,1.8,19,M,,M,,*53
06/14/2015	09:07:01.642	$GPGGA,090702,2436.9984,N,08048.9310,W,1,10,1.8,19,M,,M,,*6C
06/14/2015	09:07:02.604	$GPGGA,090703,2436.9987,N,08048.9295,W,1,10,1.8,19,M,,M,,*62
06/14/2015	09:07:03.507	$GPGGA,090704,2436.9995,N,08048.9282,W,1,10,1.8,19,M,,M,,*60
06/14/2015	09:07:04.582	$GPGGA,090705,2437.0004,N,08048.9269,W,1,10,2.2,19,M,,M,,*64
06/14/2015	09:07:05.572	$GPGGA,090706,2437.0008,N,08048.9252,W,1,9,1.8,18,M,,M,,*53
06/14/2015	09:07:06.512	$GPGGA,090707,2437.0013,N,08048.9238,W,1,9,1.8,18,M,,M,,*54
06/14/2015	09:07:07.573	$GPGGA,090708,2437.0019,N,08048.9224,W,1,10,2.3,18,M,,M,,*6C
06/14/2015	09:07:08.573	$GPGGA,090709,2437.0027,N,08048.9209,W,1,10,2.2,18,M,,M,,*6E
06/14/2015	09:07:09.612	$GPGGA,090710,2437.0031,N,08048.9195,W,1,9,1.8,18,M,,M,,*56
06/14/2015	09:07:10.572	$GPGGA,090711,2437.0037,N,08048.9180,W,1,9,2.2,18,M,,M,,*5C
06/14/2015	09:07:11.582	$GPGGA,090712,2437.0044,N,08048.9165,W,1,9,2.2,18,M,,M,,*50
06/14/2015	09:07:12.562	$GPGGA,090713,2437.0051,N,08048.9152,W,1,9,1.8,18,M,,M,,*58
06/14/2015	09:07:13.572	$GPGGA,090714,2437.0055,N,08048.9135,W,1,10,1.8,18,M,,M,,*62
06/14/2015	09:07:14.552	$GPGGA,090715,2437.0060,N,08048.9121,W,1,10,2.2,18,M,,M,,*69
06/14/2015	09:07:15.602	$GPGGA,090716,2437.0069,N,08048.9107,W,1,9,2.2,18,M,,M,,*5F
06/14/2015	09:07:16.552	$GPGGA,090717,2437.0076,N,08048.9092,W,1,9,2.2,18,M,,M,,*5D
06/14/2015	09:07:17.671	$GPGGA,090718,2437.0077,N,08048.9075,W,1,9,1.8,18,M,,M,,*53
06/14/2015	09:07:18.541	$GPGGA,090719,2437.0083,N,08048.9062,W,1,9,2.2,18,M,,M,,*56
06/14/2015	09:07:19.581	$GPGGA,090720,2437.0092,N,08048.9048,W,1,9,2.2,18,M,,M,,*54
06/14/2015	09:07:20.541	$GPGGA,090721,2437.0096,N,08048.9032,W,1,9,1.8,18,M,,M,,*55
06/14/2015	09:07:21.571	$GPGGA,090722,2437.0100,N,08048.9018,W,1,10,2.2,18,M,,M,,*61
06/14/2015	09:07:22.542	$GPGGA,090723,2437.0107,N,08048.9003,W,1,10,2.3,18,M,,M,,*6C
06/14/2015	09:07:23.598	$GPGGA,090724,2437.0114,N,08048.8988,W,1,8,2.2,18,M,,M,,*5A
06/14/2015	09:07:24.532	$GPGGA,090725,2437.0121,N,08048.8974,W,1,8,2.2,18,M,,M,,*5E
06/14/2015	09:07:25.552	$GPGGA,090726,2437.0121,N,08048.8974,W,1,9,2.2,18,M,,M,,*5C
06/14/2015	09:07:26.532	$GPGGA,090727,2437.0132,N,08048.8943,W,1,9,2.2,18,M,,M,,*5B
06/14/2015	09:07:27.582	$GPGGA,090728,2437.0138,N,08048.8928,W,1,9,1.8,18,M,,M,,*5A
06/14/2015	09:07:28.542	$GPGGA,090729,2437.0143,N,08048.8913,W,1,9,1.8,18,M,,M,,*5F
06/14/2015	09:07:29.582	$GPGGA,090730,2437.0148,N,08048.8898,W,1,10,2.3,18,M,,M,,*6E
06/14/2015	09:07:31.572	$GPGGA,090731,2437.0156,N,08048.8883,W,1,10,2.4,18,M,,M,,*6D
06/14/2015	09:07:31.604	$GPGGA,090732,2437.0160,N,08048.8869,W,1,8,1.9,18,M,,M,,*58
06/14/2015	09:07:32.522	$GPGGA,090733,2437.0161,N,08048.8858,W,1,8,1.9,18,M,,M,,*5A
06/14/2015	09:07:33.562	$GPGGA,090734,2437.0164,N,08048.8845,W,1,10,1.8,18,M,,M,,*6C
06/14/2015	09:07:34.521	$GPGGA,090735,2437.0172,N,08048.8831,W,1,10,2.2,18,M,,M,,*60
06/14/2015	09:07:35.581	$GPGGA,090736,2437.0177,N,08048.8820,W,1,8,2.2,19,M,,M,,*5E
06/14/2015	09:07:36.513	$GPGGA,090737,2437.0179,N,08048.8807,W,1,8,2.2,19,M,,M,,*54
06/14/2015	09:07:37.581	$GPGGA,090738,2437.0185,N,08048.8795,W,1,9,2.2,19,M,,M,,*5D
06/14/2015	09:07:38.521	$GPGGA,090739,2437.0190,N,08048.8784,W,1,9,2.2,19,M,,M,,*58
06/14/2015	09:07:39.642	$GPGGA,090740,2437.0193,N,08048.8772,W,1,9,2.2,19,M,,M,,*5C
06/14/2015	09:07:40.522	$GPGGA,090741,2437.0197,N,08048.8760,W,1,9,2.2,18,M,,M,,*5B
06/14/2015	09:07:41.512	$GPGGA,090742,2437.0197,N,08048.8760,W,1,9,2.2,18,M,,M,,*58
06/14/2015	09:07:42.597	$GPGGA,090743,2437.0204,N,08048.8742,W,1,9,2.2,18,M,,M,,*50
06/14/2015	09:07:43.642	$GPGGA,090744,2437.0204,N,08048.8742,W,1,9,2.2,18,M,,M,,*57
06/14/2015	09:07:44.505	$GPGGA,090745,2437.0210,N,08048.8720,W,1,9,2.2,18,M,,M,,*57
06/14/2015	09:07:45.522	$GPGGA,090746,2437.0210,N,08048.8720,W,1,9,2.2,18,M,,M,,*54
06/14/2015	09:07:46.512	$GPGGA,090747,2437.0212,N,08048.8711,W,1,9,2.2,18,M,,M,,*55
06/14/2015	09:07:47.622	$GPGGA,090748,2437.0217,N,08048.8693,W,1,9,2.2,18,M,,M,,*54
06/14/2015	09:07:48.510	$GPGGA,090749,2437.0219,N,08048.8684,W,1,9,2.2,18,M,,M,,*5D
06/14/2015	09:07:49.497	$GPGGA,090750,2437.0219,N,08048.8684,W,1,9,2.2,18,M,,M,,*55
06/14/2015	09:07:50.572	$GPGGA,090751,2437.0222,N,08048.8666,W,1,9,2.2,18,M,,M,,*50
06/14/2015	09:07:51.493	$GPGGA,090752,2437.0222,N,08048.8666,W,1,8,2.4,18,M,,M,,*54
06/14/2015	09:07:52.491	$GPGGA,090753,2437.0226,N,08048.8649,W,1,8,2.4,18,M,,M,,*5C
06/14/2015	09:07:53.505	$GPGGA,090754,2437.0229,N,08048.8642,W,1,9,2.2,17,M,,M,,*57
06/14/2015	09:07:54.481	$GPGGA,090755,2437.0228,N,08048.8634,W,1,9,2.2,17,M,,M,,*56
06/14/2015	09:07:55.595	$GPGGA,090756,2437.0229,N,08048.8626,W,1,9,2.2,17,M,,M,,*57
06/14/2015	09:07:56.571	$GPGGA,090757,2437.0229,N,08048.8618,W,1,9,2.4,17,M,,M,,*5D
06/14/2015	09:07:57.604	$GPGGA,090758,2437.0229,N,08048.8611,W,1,8,2.4,17,M,,M,,*5A
06/14/2015	09:07:58.562	$GPGGA,090759,2437.0233,N,08048.8605,W,1,8,2.4,17,M,,M,,*55
06/14/2015	09:07:59.612	$GPGGA,090800,2437.0233,N,08048.8600,W,1,9,2.2,17,M,,M,,*54
06/14/2015	09:08:00.562	$GPGGA,090801,2437.0229,N,08048.8594,W,1,9,2.2,17,M,,M,,*50
06/14/2015	09:08:01.572	$GPGGA,090802,2437.0229,N,08048.8588,W,1,9,2.2,17,M,,M,,*5E
06/14/2015	09:08:02.572	$GPGGA,090803,2437.0230,N,08048.8583,W,1,9,2.4,16,M,,M,,*5B
06/14/2015	09:08:03.572	$GPGGA,090804,2437.0230,N,08048.8578,W,1,9,2.2,16,M,,M,,*5E
06/14/2015	09:08:04.552	$GPGGA,090805,2437.0228,N,08048.8573,W,1,9,2.4,16,M,,M,,*5B
06/14/2015	09:08:05.582	$GPGGA,090806,2437.0229,N,08048.8569,W,1,9,2.2,16,M,,M,,*54
06/14/2015	09:08:06.542	$GPGGA,090807,2437.0227,N,08048.8565,W,1,9,2.4,16,M,,M,,*51
06/14/2015	09:08:07.582	$GPGGA,090808,2437.0226,N,08048.8560,W,1,8,2.4,16,M,,M,,*5B
06/14/2015	09:08:08.542	$GPGGA,090809,2437.0228,N,08048.8554,W,1,8,2.4,16,M,,M,,*53
06/14/2015	09:08:09.571	$GPGGA,090810,2437.0226,N,08048.8551,W,1,9,2.2,16,M,,M,,*57
06/14/2015	09:08:10.551	$GPGGA,090811,2437.0223,N,08048.8549,W,1,9,2.4,16,M,,M,,*5C
06/14/2015	09:08:11.581	$GPGGA,090812,2437.0225,N,08048.8544,W,1,9,2.2,16,M,,M,,*52
06/14/2015	09:08:12.541	$GPGGA,090813,2437.0226,N,08048.8540,W,1,9,2.2,15,M,,M,,*57
06/14/2015	09:08:13.561	$GPGGA,090814,2437.0223,N,08048.8538,W,1,9,2.2,15,M,,M,,*5A
06/14/2015	09:08:14.542	$GPGGA,090815,2437.0221,N,08048.8538,W,1,9,2.2,15,M,,M,,*59
06/14/2015	09:08:15.572	$GPGGA,090816,2437.0222,N,08048.8535,W,1,8,2.4,15,M,,M,,*53
06/14/2015	09:08:16.522	$GPGGA,090817,2437.0221,N,08048.8530,W,1,8,2.3,15,M,,M,,*53
06/14/2015	09:08:17.562	$GPGGA,090818,2437.0220,N,08048.8530,W,1,8,2.3,15,M,,M,,*5D
06/14/2015	09:08:18.522	$GPGGA,090819,2437.0219,N,08048.8531,W,1,8,2.2,15,M,,M,,*56
06/14/2015	09:08:19.572	$GPGGA,090820,2437.0221,N,08048.8530,W,1,9,2.2,15,M,,M,,*57
06/14/2015	09:08:20.532	$GPGGA,090821,2437.0220,N,08048.8527,W,1,9,2.2,15,M,,M,,*51
06/14/2015	09:08:21.552	$GPGGA,090822,2437.0221,N,08048.8527,W,1,9,2.2,15,M,,M,,*53
06/14/2015	09:08:22.532	$GPGGA,090823,2437.0219,N,08048.8527,W,1,9,2.2,15,M,,M,,*59
06/14/2015	09:08:23.562	$GPGGA,090824,2437.0219,N,08048.8525,W,1,9,2.2,15,M,,M,,*5C
06/14/2015	09:08:24.522	$GPGGA,090825,2437.0219,N,08048.8523,W,1,9,2.3,15,M,,M,,*5A
06/14/2015	09:08:25.532	$GPGGA,090826,2437.0217,N,08048.8524,W,1,9,2.2,15,M,,M,,*51
06/14/2015	09:08:26.503	$GPGGA,090827,2437.0216,N,08048.8523,W,1,9,2.4,15,M,,M,,*50
06/14/2015	09:08:27.531	$GPGGA,090828,2437.0215,N,08048.8519,W,1,8,2.4,15,M,,M,,*54
06/14/2015	09:08:28.511	$GPGGA,090829,2437.0215,N,08048.8519,W,1,8,2.2,15,M,,M,,*53
06/14/2015	09:08:29.951	$GPGGA,090830,2437.0213,N,08048.8522,W,1,9,2.2,15,M,,M,,*54
06/14/2015	09:08:30.521	$GPGGA,090831,2437.0214,N,08048.8520,W,1,9,2.2,15,M,,M,,*50
06/14/2015	09:08:31.521	$GPGGA,090832,2437.0211,N,08048.8518,W,1,9,2.2,14,M,,M,,*5C
06/14/2015	09:08:32.512	$GPGGA,090833,2437.0210,N,08048.8519,W,1,9,2.2,14,M,,M,,*5D
06/14/2015	09:08:33.612	$GPGGA,090834,2437.0211,N,08048.8519,W,1,9,2.2,14,M,,M,,*5B
06/14/2015	09:08:34.506	$GPGGA,090835,2437.0209,N,08048.8519,W,1,9,2.2,14,M,,M,,*53
06/14/2015	09:08:35.522	$GPGGA,090836,2437.0208,N,08048.8518,W,1,9,2.2,14,M,,M,,*50
06/14/2015	09:08:36.492	$GPGGA,090837,2437.0208,N,08048.8519,W,1,9,2.2,14,M,,M,,*50
06/14/2015	09:08:37.642	$GPGGA,090838,2437.0208,N,08048.8519,W,1,9,2.2,14,M,,M,,*5F
06/14/2015	09:08:38.504	$GPGGA,090839,2437.0206,N,08048.8518,W,1,9,2.2,14,M,,M,,*51
06/14/2015	09:08:39.622	$GPGGA,090840,2437.0205,N,08048.8519,W,1,9,2.2,14,M,,M,,*5D
06/14/2015	09:08:40.572	$GPGGA,090841,2437.0207,N,08048.8522,W,1,9,2.2,14,M,,M,,*56
06/14/2015	09:08:41.572	$GPGGA,090842,2437.0208,N,08048.8522,W,1,9,2.2,14,M,,M,,*5A
06/14/2015	09:08:42.505	$GPGGA,090843,2437.0205,N,08048.8520,W,1,9,2.2,14,M,,M,,*54
06/14/2015	09:08:43.582	$GPGGA,090844,2437.0206,N,08048.8522,W,1,9,2.2,14,M,,M,,*52
06/14/2015	09:08:44.571	$GPGGA,090845,2437.0207,N,08048.8524,W,1,9,2.2,14,M,,M,,*54
06/14/2015	09:08:45.591	$GPGGA,090846,2437.0208,N,08048.8524,W,1,9,2.2,14,M,,M,,*58
06/14/2015	09:08:46.571	$GPGGA,090847,2437.0208,N,08048.8524,W,1,9,2.2,14,M,,M,,*59
06/14/2015	09:08:47.571	$GPGGA,090848,2437.0206,N,08048.8524,W,1,9,2.2,14,M,,M,,*58
06/14/2015	09:08:48.571	$GPGGA,090849,2437.0211,N,08048.8526,W,1,9,3.0,14,M,,M,,*5E
06/14/2015	09:08:49.552	$GPGGA,090850,2437.0212,N,08048.8527,W,1,9,2.2,14,M,,M,,*57
06/14/2015	09:08:50.562	$GPGGA,090851,2437.0214,N,08048.8527,W,1,9,2.2,13,M,,M,,*57
06/14/2015	09:08:51.582	$GPGGA,090852,2437.0215,N,08048.8529,W,1,9,2.2,13,M,,M,,*5B
06/14/2015	09:08:52.562	$GPGGA,090853,2437.0217,N,08048.8530,W,1,9,2.2,13,M,,M,,*50
06/14/2015	09:08:54.572	$GPGGA,090855,2437.0217,N,08048.8531,W,1,9,2.2,13,M,,M,,*57
06/14/2015	09:08:55.582	$GPGGA,090856,2437.0219,N,08048.8534,W,1,9,2.2,13,M,,M,,*5F
06/14/2015	09:08:56.542	$GPGGA,090857,2437.0219,N,08048.8535,W,1,9,2.2,12,M,,M,,*5E
06/14/2015	09:08:57.552	$GPGGA,090858,2437.0219,N,08048.8535,W,1,9,2.2,12,M,,M,,*51
06/14/2015	09:08:58.552	$GPGGA,090859,2437.0221,N,08048.8537,W,1,9,2.2,12,M,,M,,*59
06/14/2015	09:08:59.582	$GPGGA,090900,2437.0222,N,08048.8538,W,1,9,2.2,12,M,,M,,*58
06/14/2015	09:09:00.542	$GPGGA,090901,2437.0222,N,08048.8540,W,1,9,2.2,12,M,,M,,*56
06/14/2015	09:09:01.572	$GPGGA,090902,2437.0221,N,08048.8540,W,1,9,2.2,11,M,,M,,*55
06/14/2015	09:09:02.541	$GPGGA,090903,2437.0222,N,08048.8542,W,1,9,2.2,11,M,,M,,*55
06/14/2015	09:09:03.571	$GPGGA,090904,2437.0225,N,08048.8545,W,1,9,2.2,11,M,,M,,*52
06/14/2015	09:09:04.521	$GPGGA,090905,2437.0223,N,08048.8545,W,1,9,2.2,11,M,,M,,*55
06/14/2015	09:09:05.531	$GPGGA,090906,2437.0224,N,08048.8544,W,1,9,2.2,11,M,,M,,*50
06/14/2015	09:09:06.532	$GPGGA,090907,2437.0225,N,08048.8548,W,1,9,2.7,11,M,,M,,*59
06/14/2015	09:09:07.572	$GPGGA,090908,2437.0224,N,08048.8549,W,1,9,2.2,11,M,,M,,*53
06/14/2015	09:09:08.552	$GPGGA,090909,2437.0223,N,08048.8551,W,1,9,2.2,10,M,,M,,*5D
06/14/2015	09:09:09.518	$GPGGA,090910,2437.0225,N,08048.8553,W,1,9,2.2,10,M,,M,,*51
06/14/2015	09:09:10.532	$GPGGA,090911,2437.0224,N,08048.8555,W,1,9,2.2,10,M,,M,,*57
06/14/2015	09:09:11.532	$GPGGA,090912,2437.0225,N,08048.8555,W,1,8,3.0,10,M,,M,,*57
06/14/2015	09:09:12.511	$GPGGA,090913,2437.0222,N,08048.8558,W,1,8,2.2,10,M,,M,,*5F
06/14/2015	09:09:13.522	$GPGGA,090914,2437.0224,N,08048.8562,W,1,9,2.2,10,M,,M,,*56
06/14/2015	09:09:14.507	$GPGGA,090915,2437.0221,N,08048.8563,W,1,9,2.2,10,M,,M,,*53
06/14/2015	09:09:15.542	$GPGGA,090916,2437.0219,N,08048.8564,W,1,8,3.0,10,M,,M,,*5E
06/14/2015	09:09:16.506	$GPGGA,090917,2437.0219,N,08048.8567,W,1,8,3.0,10,M,,M,,*5C
06/14/2015	09:09:17.812	$GPGGA,090918,2437.0216,N,08048.8570,W,1,9,2.2,10,M,,M,,*58
06/14/2015	09:09:18.593	$GPGGA,090919,2437.0215,N,08048.8571,W,1,9,3.0,10,M,,M,,*58
06/14/2015	09:09:19.541	$GPGGA,090920,2437.0215,N,08048.8576,W,1,9,2.2,10,M,,M,,*56
06/14/2015	09:09:20.591	$GPGGA,090921,2437.0213,N,08048.8580,W,1,9,2.2,10,M,,M,,*58
06/14/2015	09:09:21.505	$GPGGA,090922,2437.0211,N,08048.8581,W,1,9,2.2,10,M,,M,,*58
06/14/2015	09:09:22.508	$GPGGA,090923,2437.0209,N,08048.8584,W,1,9,2.2,10,M,,M,,*55
06/14/2015	09:09:23.505	$GPGGA,090924,2437.0208,N,08048.8587,W,1,9,2.2,10,M,,M,,*50
06/14/2015	09:09:24.582	$GPGGA,090925,2437.0206,N,08048.8591,W,1,9,2.2,10,M,,M,,*58
06/14/2015	09:09:25.583	$GPGGA,090926,2437.0204,N,08048.8595,W,1,9,2.2,10,M,,M,,*5D
06/14/2015	09:09:26.502	$GPGGA,090927,2437.0202,N,08048.8596,W,1,9,2.2,10,M,,M,,*59
06/14/2015	09:09:27.593	$GPGGA,090928,2437.0199,N,08048.8600,W,1,9,2.2,10,M,,M,,*5B
06/14/2015	09:09:28.492	$GPGGA,090929,2437.0200,N,08048.8605,W,1,9,2.9,10,M,,M,,*57
06/14/2015	09:09:29.482	$GPGGA,090930,2437.0199,N,08048.8607,W,1,9,2.2,10,M,,M,,*55
06/14/2015	09:09:30.494	$GPGGA,090931,2437.0201,N,08048.8611,W,1,9,2.2,10,M,,M,,*51
06/14/2015	09:09:31.612	$GPGGA,090932,2437.0201,N,08048.8614,W,1,9,2.2,9,M,,M,,*6F
06/14/2015	09:09:32.562	$GPGGA,090933,2437.0201,N,08048.8617,W,1,9,2.2,9,M,,M,,*6D
06/14/2015	09:09:33.562	$GPGGA,090934,2437.0199,N,08048.8621,W,1,9,2.2,9,M,,M,,*6D
06/14/2015	09:09:34.562	$GPGGA,090935,2437.0200,N,08048.8627,W,1,9,2.2,9,M,,M,,*69
06/14/2015	09:09:35.593	$GPGGA,090936,2437.0197,N,08048.8631,W,1,9,2.2,9,M,,M,,*60
06/14/2015	09:09:36.552	$GPGGA,090937,2437.0194,N,08048.8634,W,1,9,2.2,9,M,,M,,*67
06/14/2015	09:09:37.581	$GPGGA,090938,2437.0192,N,08048.8638,W,1,9,2.2,8,M,,M,,*63
06/14/2015	09:09:38.561	$GPGGA,090939,2437.0190,N,08048.8642,W,1,9,2.2,8,M,,M,,*6D
06/14/2015	09:09:39.581	$GPGGA,090940,2437.0186,N,08048.8646,W,1,9,2.2,8,M,,M,,*60
06/14/2015	09:09:40.551	$GPGGA,090941,2437.0183,N,08048.8650,W,1,9,2.2,8,M,,M,,*63
06/14/2015	09:09:41.562	$GPGGA,090942,2437.0180,N,08048.8656,W,1,9,2.2,8,M,,M,,*65
06/14/2015	09:09:42.553	$GPGGA,090943,2437.0177,N,08048.8660,W,1,9,2.2,7,M,,M,,*66
06/14/2015	09:09:43.604	$GPGGA,090944,2437.0175,N,08048.8664,W,1,9,2.2,7,M,,M,,*67
06/14/2015	09:09:44.542	$GPGGA,090945,2437.0172,N,08048.8670,W,1,9,2.2,7,M,,M,,*64
06/14/2015	09:09:45.562	$GPGGA,090946,2437.0168,N,08048.8672,W,1,9,2.2,7,M,,M,,*6E
06/14/2015	09:09:46.542	$GPGGA,090947,2437.0164,N,08048.8678,W,1,9,2.2,7,M,,M,,*69
06/14/2015	09:09:47.572	$GPGGA,090948,2437.0164,N,08048.8685,W,1,9,2.2,7,M,,M,,*64
06/14/2015	09:09:48.532	$GPGGA,090949,2437.0161,N,08048.8689,W,1,9,2.2,7,M,,M,,*6C
06/14/2015	09:09:49.552	$GPGGA,090950,2437.0155,N,08048.8692,W,1,9,2.2,7,M,,M,,*69
06/14/2015	09:09:50.522	$GPGGA,090951,2437.0154,N,08048.8699,W,1,9,2.7,7,M,,M,,*67
06/14/2015	09:09:51.562	$GPGGA,090952,2437.0154,N,08048.8704,W,1,9,2.2,7,M,,M,,*64
06/14/2015	09:09:52.542	$GPGGA,090953,2437.0150,N,08048.8707,W,1,9,2.2,7,M,,M,,*62
06/14/2015	09:09:53.542	$GPGGA,090954,2437.0144,N,08048.8711,W,1,9,2.2,7,M,,M,,*67
06/14/2015	09:09:54.531	$GPGGA,090955,2437.0148,N,08048.8718,W,1,9,2.9,7,M,,M,,*68
06/14/2015	09:09:55.531	$GPGGA,090956,2437.0143,N,08048.8725,W,1,9,2.2,7,M,,M,,*65
06/14/2015	09:09:56.521	$GPGGA,090957,2437.0139,N,08048.8729,W,1,9,2.9,7,M,,M,,*6E
06/14/2015	09:09:57.511	$GPGGA,090958,2437.0134,N,08048.8735,W,1,9,2.2,7,M,,M,,*6A
06/14/2015	09:09:58.531	$GPGGA,090959,2437.0130,N,08048.8739,W,1,9,2.2,7,M,,M,,*63
06/14/2015	09:09:59.552	$GPGGA,091000,2437.0131,N,08048.8746,W,1,8,2.9,7,M,,M,,*64
06/14/2015	09:10:00.522	$GPGGA,091001,2437.0127,N,08048.8751,W,1,8,2.7,7,M,,M,,*6A
06/14/2015	09:10:01.532	$GPGGA,091002,2437.0125,N,08048.8757,W,1,7,3.2,7,M,,M,,*66
06/14/2015	09:10:02.522	$GPGGA,091003,2437.0121,N,08048.8764,W,1,7,2.7,8,M,,M,,*68
06/14/2015	09:10:03.652	$GPGGA,091004,2437.0121,N,08048.8770,W,1,7,3.2,8,M,,M,,*6E
06/14/2015	09:10:04.522	$GPGGA,091005,2437.0118,N,08048.8775,W,1,7,2.2,8,M,,M,,*61
06/14/2015	09:10:05.505	$GPGGA,091006,2437.0116,N,08048.8782,W,1,9,2.2,8,M,,M,,*6A
06/14/2015	09:10:06.498	$GPGGA,091007,2437.0114,N,08048.8788,W,1,9,2.2,8,M,,M,,*63
06/14/2015	09:10:07.522	$GPGGA,091008,2437.0112,N,08048.8795,W,1,8,2.9,8,M,,M,,*6C
06/14/2015	09:10:08.512	$GPGGA,091009,2437.0109,N,08048.8802,W,1,8,2.2,8,M,,M,,*6D
06/14/2015	09:10:09.512	$GPGGA,091010,2437.0107,N,08048.8808,W,1,9,2.2,8,M,,M,,*60
06/14/2015	09:10:10.503	$GPGGA,091011,2437.0104,N,08048.8815,W,1,9,2.2,9,M,,M,,*6F
06/14/2015	09:10:11.502	$GPGGA,091012,2437.0101,N,08048.8820,W,1,9,2.2,9,M,,M,,*6F
06/14/2015	09:10:12.502	$GPGGA,091013,2437.0099,N,08048.8826,W,1,9,2.2,9,M,,M,,*68
06/14/2015	09:10:13.594	$GPGGA,091014,2437.0097,N,08048.8833,W,1,9,2.2,9,M,,M,,*65
06/14/2015	09:10:14.581	$GPGGA,091015,2437.0096,N,08048.8841,W,1,9,2.2,9,M,,M,,*60
06/14/2015	09:10:15.602	$GPGGA,091016,2437.0094,N,08048.8849,W,1,9,2.2,9,M,,M,,*69
06/14/2015	09:10:16.582	$GPGGA,091017,2437.0092,N,08048.8855,W,1,9,2.2,10,M,,M,,*5B
06/14/2015	09:10:17.593	$GPGGA,091018,2437.0090,N,08048.8862,W,1,9,2.2,10,M,,M,,*52
06/14/2015	09:10:18.582	$GPGGA,091019,2437.0089,N,08048.8869,W,1,9,2.5,10,M,,M,,*57
06/14/2015	09:10:19.582	$GPGGA,091020,2437.0089,N,08048.8876,W,1,9,2.2,10,M,,M,,*54
06/14/2015	09:10:20.562	$GPGGA,091021,2437.0086,N,08048.8884,W,1,9,2.2,10,M,,M,,*57
06/14/2015	09:10:21.596	$GPGGA,091022,2437.0085,N,08048.8891,W,1,9,2.2,11,M,,M,,*52
06/14/2015	09:10:22.572	$GPGGA,091023,2437.0082,N,08048.8899,W,1,9,2.2,11,M,,M,,*5C
06/14/2015	09:10:23.582	$GPGGA,091024,2437.0080,N,08048.8907,W,1,9,2.2,11,M,,M,,*5F
06/14/2015	09:10:24.562	$GPGGA,091025,2437.0078,N,08048.8916,W,1,9,2.2,11,M,,M,,*59
06/14/2015	09:10:25.572	$GPGGA,091026,2437.0076,N,08048.8923,W,1,9,2.2,11,M,,M,,*52
06/14/2015	09:10:26.562	$GPGGA,091027,2437.0074,N,08048.8931,W,1,9,2.2,12,M,,M,,*51
06/14/2015	09:10:27.582	$GPGGA,091028,2437.0072,N,08048.8938,W,1,9,2.2,12,M,,M,,*51
06/14/2015	09:10:28.552	$GPGGA,091029,2437.0073,N,08048.8946,W,1,9,2.5,12,M,,M,,*5F
06/14/2015	09:10:29.561	$GPGGA,091030,2437.0071,N,08048.8954,W,1,9,2.2,12,M,,M,,*51
06/14/2015	09:10:30.561	$GPGGA,091031,2437.0068,N,08048.8961,W,1,9,2.2,12,M,,M,,*5E
06/14/2015	09:10:31.599	$GPGGA,091032,2437.0065,N,08048.8968,W,1,9,2.2,13,M,,M,,*58
06/14/2015	09:10:32.561	$GPGGA,091033,2437.0067,N,08048.8978,W,1,9,2.2,13,M,,M,,*5A
06/14/2015	09:10:33.571	$GPGGA,091034,2437.0064,N,08048.8985,W,1,9,2.2,13,M,,M,,*5C
06/14/2015	09:10:34.542	$GPGGA,091035,2437.0061,N,08048.8995,W,1,9,2.2,13,M,,M,,*59
06/14/2015	09:10:35.562	$GPGGA,091036,2437.0060,N,08048.9003,W,1,9,2.2,13,M,,M,,*5C
06/14/2015	09:10:36.542	$GPGGA,091037,2437.0058,N,08048.9011,W,1,9,2.2,13,M,,M,,*55
06/14/2015	09:10:37.562	$GPGGA,091038,2437.0056,N,08048.9019,W,1,9,2.2,13,M,,M,,*5C
06/14/2015	09:10:38.542	$GPGGA,091039,2437.0056,N,08048.9025,W,1,9,2.2,13,M,,M,,*52
06/14/2015	09:10:39.572	$GPGGA,091040,2437.0054,N,08048.9033,W,1,9,2.2,14,M,,M,,*5E
06/14/2015	09:10:41.072	$GPGGA,091041,2437.0053,N,08048.9043,W,1,9,2.2,14,M,,M,,*5F
06/14/2015	09:10:41.542	$GPGGA,091042,2437.0050,N,08048.9050,W,1,9,2.2,14,M,,M,,*5D
06/14/2015	09:10:42.532	$GPGGA,091043,2437.0047,N,08048.9059,W,1,9,2.2,14,M,,M,,*53
06/14/2015	09:10:43.532	$GPGGA,091044,2437.0048,N,08048.9069,W,1,9,2.2,14,M,,M,,*58
06/14/2015	09:10:44.532	$GPGGA,091045,2437.0046,N,08048.9077,W,1,9,2.2,14,M,,M,,*58
06/14/2015	09:10:45.552	$GPGGA,091046,2437.0043,N,08048.9083,W,1,9,2.2,14,M,,M,,*55
06/14/2015	09:10:46.512	$GPGGA,091047,2437.0042,N,08048.9090,W,1,9,2.2,14,M,,M,,*57
06/14/2015	09:10:47.551	$GPGGA,091048,2437.0042,N,08048.9098,W,1,8,2.7,14,M,,M,,*54
06/14/2015	09:10:48.521	$GPGGA,091049,2437.0039,N,08048.9108,W,1,8,3.2,14,M,,M,,*55
06/14/2015	09:10:49.531	$GPGGA,091050,2437.0038,N,08048.9118,W,1,8,2.7,14,M,,M,,*59
06/14/2015	09:10:50.521	$GPGGA,091051,2437.0035,N,08048.9129,W,1,8,2.7,15,M,,M,,*56
06/14/2015	09:10:51.532	$GPGGA,091052,2437.0033,N,08048.9137,W,1,9,2.2,15,M,,M,,*58
06/14/2015	09:10:52.512	$GPGGA,091053,2437.0032,N,08048.9144,W,1,9,2.2,15,M,,M,,*5C
06/14/2015	09:10:53.512	$GPGGA,091054,2437.0029,N,08048.9149,W,1,9,2.2,15,M,,M,,*5C
06/14/2015	09:10:54.622	$GPGGA,091055,2437.0027,N,08048.9158,W,1,9,2.2,15,M,,M,,*53
06/14/2015	09:10:55.532	$GPGGA,091056,2437.0027,N,08048.9169,W,1,9,2.2,15,M,,M,,*52
06/14/2015	09:10:56.509	$GPGGA,091057,2437.0027,N,08048.9180,W,1,9,2.2,15,M,,M,,*54
06/14/2015	09:10:57.622	$GPGGA,091058,2437.0023,N,08048.9188,W,1,9,2.2,15,M,,M,,*57
06/14/2015	09:10:58.509	$GPGGA,091059,2437.0021,N,08048.9198,W,1,9,2.2,15,M,,M,,*55
06/14/2015	09:10:59.562	$GPGGA,091100,2437.0020,N,08048.9205,W,1,9,2.2,16,M,,M,,*5D
06/14/2015	09:11:00.599	$GPGGA,091101,2437.0018,N,08048.9212,W,1,9,2.2,16,M,,M,,*51
06/14/2015	09:11:01.612	$GPGGA,091102,2437.0016,N,08048.9219,W,1,9,2.2,16,M,,M,,*57
06/14/2015	09:11:02.508	$GPGGA,091103,2437.0016,N,08048.9228,W,1,9,2.2,16,M,,M,,*54
06/14/2015	09:11:03.603	$GPGGA,091104,2437.0015,N,08048.9239,W,1,9,2.2,16,M,,M,,*50
06/14/2015	09:11:04.502	$GPGGA,091105,2437.0013,N,08048.9249,W,1,9,2.2,16,M,,M,,*50
06/14/2015	09:11:06.031	$GPGGA,091106,2437.0010,N,08048.9256,W,1,9,2.2,16,M,,M,,*5E
06/14/2015	09:11:06.581	$GPGGA,091107,2437.0009,N,08048.9263,W,1,9,2.2,16,M,,M,,*51
06/14/2015	09:11:07.605	$GPGGA,091108,2437.0007,N,08048.9271,W,1,9,2.2,16,M,,M,,*53
06/14/2015	09:11:08.571	$GPGGA,091109,2437.0008,N,08048.9279,W,1,9,2.2,16,M,,M,,*55
06/14/2015	09:11:09.605	$GPGGA,091110,2437.0004,N,08048.9288,W,1,9,2.2,17,M,,M,,*5E
06/14/2015	09:11:10.572	$GPGGA,091111,2437.0003,N,08048.9299,W,1,9,2.2,17,M,,M,,*58
06/14/2015	09:11:11.603	$GPGGA,091112,2437.0004,N,08048.9307,W,1,9,2.2,17,M,,M,,*5A
06/14/2015	09:11:12.572	$GPGGA,091113,2437.0002,N,08048.9315,W,1,9,2.2,17,M,,M,,*5E
06/14/2015	09:11:13.582	$GPGGA,091114,2436.9998,N,08048.9321,W,1,9,2.7,17,M,,M,,*59
06/14/2015	09:11:14.562	$GPGGA,091115,2436.9996,N,08048.9328,W,1,9,2.7,17,M,,M,,*5F
06/14/2015	09:11:15.593	$GPGGA,091116,2436.9997,N,08048.9335,W,1,8,2.2,17,M,,M,,*55
06/14/2015	09:11:16.572	$GPGGA,091117,2436.9998,N,08048.9343,W,1,8,2.2,17,M,,M,,*5A
06/14/2015	09:11:17.572	$GPGGA,091118,2436.9995,N,08048.9353,W,1,9,2.5,17,M,,M,,*5F
06/14/2015	09:11:18.552	$GPGGA,091119,2436.9992,N,08048.9361,W,1,9,2.7,17,M,,M,,*5A
06/14/2015	09:11:19.582	$GPGGA,091120,2436.9991,N,08048.9368,W,1,8,2.2,17,M,,M,,*5E
06/14/2015	09:11:20.542	$GPGGA,091121,2436.9991,N,08048.9378,W,1,8,2.2,18,M,,M,,*51
06/14/2015	09:11:21.572	$GPGGA,091122,2436.9991,N,08048.9387,W,1,9,2.2,18,M,,M,,*53
06/14/2015	09:11:22.551	$GPGGA,091123,2436.9987,N,08048.9393,W,1,9,2.7,18,M,,M,,*55
06/14/2015	09:11:23.581	$GPGGA,091124,2436.9986,N,08048.9400,W,1,8,2.2,18,M,,M,,*5A
06/14/2015	09:11:24.551	$GPGGA,091125,2436.9987,N,08048.9408,W,1,8,2.2,18,M,,M,,*52
06/14/2015	09:11:25.571	$GPGGA,091126,2436.9985,N,08048.9415,W,1,9,2.2,18,M,,M,,*5E
06/14/2015	09:11:26.542	$GPGGA,091127,2436.9984,N,08048.9423,W,1,9,2.2,19,M,,M,,*5A
06/14/2015	09:11:27.582	$GPGGA,091128,2436.9982,N,08048.9429,W,1,9,2.3,19,M,,M,,*58
06/14/2015	09:11:28.532	$GPGGA,091129,2436.9983,N,08048.9437,W,1,9,2.7,19,M,,M,,*53
06/14/2015	09:11:29.542	$GPGGA,091130,2436.9980,N,08048.9448,W,1,8,2.3,19,M,,M,,*55
06/14/2015	09:11:30.532	$GPGGA,091131,2436.9978,N,08048.9458,W,1,8,3.2,19,M,,M,,*52
06/14/2015	09:11:31.562	$GPGGA,091132,2436.9977,N,08048.9467,W,1,7,2.5,19,M,,M,,*5B
06/14/2015	09:11:32.552	$GPGGA,091133,2436.9975,N,08048.9477,W,1,7,2.3,19,M,,M,,*5F
06/14/2015	09:11:33.532	$GPGGA,091134,2436.9973,N,08048.9485,W,1,9,2.2,20,M,,M,,*56
06/14/2015	09:11:34.542	$GPGGA,091135,2436.9973,N,08048.9492,W,1,9,2.5,20,M,,M,,*56
06/14/2015	09:11:35.532	$GPGGA,091136,2436.9973,N,08048.9501,W,1,8,2.6,20,M,,M,,*5C
06/14/2015	09:11:36.632	$GPGGA,091137,2436.9971,N,08048.9509,W,1,8,2.2,20,M,,M,,*53
06/14/2015	09:11:37.542	$GPGGA,091138,2436.9968,N,08048.9520,W,1,9,2.7,20,M,,M,,*5B
06/14/2015	09:11:38.622	$GPGGA,091139,2436.9966,N,08048.9531,W,1,9,2.7,20,M,,M,,*54
06/14/2015	09:11:39.551	$GPGGA,091140,2436.9966,N,08048.9539,W,1,8,2.3,20,M,,M,,*57
06/14/2015	09:11:40.506	$GPGGA,091141,2436.9964,N,08048.9548,W,1,8,2.5,20,M,,M,,*54
06/14/2015	09:11:41.831	$GPGGA,091142,2436.9963,N,08048.9556,W,1,8,2.3,20,M,,M,,*59
06/14/2015	09:11:42.511	$GPGGA,091143,2436.9962,N,08048.9564,W,1,8,2.7,20,M,,M,,*5C
06/14/2015	09:11:43.531	$GPGGA,091144,2436.9960,N,08048.9574,W,1,8,2.7,20,M,,M,,*58
06/14/2015	09:11:44.522	$GPGGA,091145,2436.9959,N,08048.9584,W,1,8,2.3,20,M,,M,,*58
06/14/2015	09:11:45.542	$GPGGA,091146,2436.9958,N,08048.9592,W,1,9,2.2,20,M,,M,,*5D
