Software Version Number: 1	Data File Format Number: 1	Build Version Number: 1	Error Count Since VI Started: 1	Manufacturer: Raytheon	 Model Number: RayMarine 120	 S/N: 	 Cal Date: 	 Wind Direction Offset: 0.00	 Slope (M)1: 0.00	 Offset (B)1: 0.00	 Slope (M)2: 0.00	 Offset (B)2: 0.00	 Slope (M)3: 0.00	 Offset (B)3: 0.00	 Slope (M)4: 0.00	 Offset (B)4: 0.00	 Slope (M)5: 0.00	 Offset (B)5: 0.00	 Slope (M)6: 0.00	 Offset (B)6: 0.00
Computer Date	Computer Time	GGA String
06/17/2015	08:00:01.608	$GPGGA,080002,2508.6844,N,08009.4284,W,1,9,1.6,16,M,,M,,*59
06/17/2015	08:00:02.568	$GPGGA,080003,2508.6862,N,08009.4278,W,1,9,1.6,16,M,,M,,*5F
06/17/2015	08:00:03.578	$GPGGA,080004,2508.6879,N,08009.4272,W,1,9,1.6,16,M,,M,,*58
06/17/2015	08:00:04.568	$GPGGA,080005,2508.6895,N,08009.4266,W,1,9,1.6,16,M,,M,,*5E
06/17/2015	08:00:05.588	$GPGGA,080006,2508.6913,N,08009.4259,W,1,9,1.6,16,M,,M,,*5E
06/17/2015	08:00:06.579	$GPGGA,080007,2508.6931,N,08009.4253,W,1,9,1.6,16,M,,M,,*55
06/17/2015	08:00:07.568	$GPGGA,080008,2508.6949,N,08009.4248,W,1,9,1.6,16,M,,M,,*5F
06/17/2015	08:00:08.558	$GPGGA,080009,2508.6966,N,08009.4242,W,1,9,1.6,16,M,,M,,*59
06/17/2015	08:00:09.588	$GPGGA,080010,2508.6982,N,08009.4235,W,1,9,1.6,16,M,,M,,*5B
06/17/2015	08:00:10.558	$GPGGA,080011,2508.6999,N,08009.4229,W,1,9,1.6,15,M,,M,,*5E
06/17/2015	08:00:11.568	$GPGGA,080012,2508.7018,N,08009.4225,W,1,8,1.9,15,M,,M,,*5E
06/17/2015	08:00:13.018	$GPGGA,080013,2508.7035,N,08009.4218,W,1,8,1.6,15,M,,M,,*51
06/17/2015	08:00:13.568	$GPGGA,080014,2508.7052,N,08009.4212,W,1,9,1.6,15,M,,M,,*5C
06/17/2015	08:00:14.558	$GPGGA,080015,2508.7071,N,08009.4208,W,1,9,1.6,15,M,,M,,*57
06/17/2015	08:00:15.558	$GPGGA,080016,2508.7087,N,08009.4201,W,1,9,1.6,15,M,,M,,*54
06/17/2015	08:00:16.549	$GPGGA,080017,2508.7104,N,08009.4194,W,1,9,1.6,15,M,,M,,*50
06/17/2015	08:00:17.559	$GPGGA,080018,2508.7122,N,08009.4189,W,1,9,1.6,15,M,,M,,*57
06/17/2015	08:00:18.539	$GPGGA,080019,2508.7140,N,08009.4183,W,1,9,1.6,15,M,,M,,*58
06/17/2015	08:00:19.568	$GPGGA,080020,2508.7158,N,08009.4176,W,1,9,1.6,15,M,,M,,*51
06/17/2015	08:00:20.538	$GPGGA,080021,2508.7176,N,08009.4171,W,1,9,1.6,15,M,,M,,*5B
06/17/2015	08:00:21.558	$GPGGA,080022,2508.7194,N,08009.4165,W,1,9,1.6,15,M,,M,,*51
06/17/2015	08:00:22.538	$GPGGA,080023,2508.7209,N,08009.4158,W,1,9,1.6,15,M,,M,,*59
06/17/2015	08:00:23.578	$GPGGA,080024,2508.7227,N,08009.4153,W,1,9,1.6,15,M,,M,,*59
06/17/2015	08:00:24.528	$GPGGA,080025,2508.7247,N,08009.4147,W,1,9,1.6,15,M,,M,,*5B
06/17/2015	08:00:25.518	$GPGGA,080026,2508.7263,N,08009.4141,W,1,9,1.6,15,M,,M,,*58
06/17/2015	08:00:26.528	$GPGGA,080027,2508.7281,N,08009.4135,W,1,9,1.6,15,M,,M,,*56
06/17/2015	08:00:27.558	$GPGGA,080028,2508.7299,N,08009.4129,W,1,9,1.6,15,M,,M,,*5D
06/17/2015	08:00:28.528	$GPGGA,080029,2508.7317,N,08009.4123,W,1,9,1.6,15,M,,M,,*51
06/17/2015	08:00:29.538	$GPGGA,080030,2508.7335,N,08009.4116,W,1,9,1.6,15,M,,M,,*5F
06/17/2015	08:00:30.528	$GPGGA,080031,2508.7353,N,08009.4109,W,1,9,1.6,15,M,,M,,*50
06/17/2015	08:00:31.548	$GPGGA,080032,2508.7372,N,08009.4105,W,1,9,1.6,15,M,,M,,*5C
06/17/2015	08:00:32.508	$GPGGA,080033,2508.7389,N,08009.4098,W,1,9,1.6,15,M,,M,,*5C
06/17/2015	08:00:33.528	$GPGGA,080034,2508.7406,N,08009.4091,W,1,9,1.6,15,M,,M,,*52
06/17/2015	08:00:34.509	$GPGGA,080035,2508.7424,N,08009.4086,W,1,9,1.6,15,M,,M,,*55
06/17/2015	08:00:35.539	$GPGGA,080036,2508.7441,N,08009.4081,W,1,9,1.6,15,M,,M,,*52
06/17/2015	08:00:36.500	$GPGGA,080037,2508.7459,N,08009.4073,W,1,9,1.6,15,M,,M,,*57
06/17/2015	08:00:37.498	$GPGGA,080038,2508.7477,N,08009.4067,W,1,9,1.6,14,M,,M,,*50
06/17/2015	08:00:38.508	$GPGGA,080039,2508.7494,N,08009.4061,W,1,9,1.6,14,M,,M,,*5A
06/17/2015	08:00:39.608	$GPGGA,080040,2508.7513,N,08009.4055,W,1,9,1.6,14,M,,M,,*5D
06/17/2015	08:00:40.510	$GPGGA,080041,2508.7529,N,08009.4049,W,1,9,1.6,14,M,,M,,*58
06/17/2015	08:00:41.488	$GPGGA,080042,2508.7545,N,08009.4043,W,1,9,1.6,14,M,,M,,*5B
06/17/2015	08:00:42.608	$GPGGA,080043,2508.7563,N,08009.4036,W,1,9,1.6,14,M,,M,,*5C
06/17/2015	08:00:43.628	$GPGGA,080044,2508.7580,N,08009.4031,W,1,9,1.6,14,M,,M,,*51
06/17/2015	08:00:44.500	$GPGGA,080045,2508.7598,N,08009.4025,W,1,9,1.6,14,M,,M,,*5C
06/17/2015	08:00:45.588	$GPGGA,080046,2508.7614,N,08009.4017,W,1,9,1.6,14,M,,M,,*59
06/17/2015	08:00:46.479	$GPGGA,080047,2508.7634,N,08009.4013,W,1,9,1.6,14,M,,M,,*5E
06/17/2015	08:00:47.511	$GPGGA,080048,2508.7650,N,08009.4008,W,1,8,1.6,14,M,,M,,*58
06/17/2015	08:00:48.568	$GPGGA,080049,2508.7668,N,08009.4001,W,1,8,1.6,14,M,,M,,*5B
06/17/2015	08:00:49.600	$GPGGA,080050,2508.7686,N,08009.3994,W,1,9,1.6,14,M,,M,,*50
06/17/2015	08:00:50.499	$GPGGA,080051,2508.7704,N,08009.3990,W,1,9,1.6,14,M,,M,,*5E
06/17/2015	08:00:51.609	$GPGGA,080052,2508.7722,N,08009.3983,W,1,8,1.6,14,M,,M,,*5A
06/17/2015	08:00:52.559	$GPGGA,080053,2508.7736,N,08009.3974,W,1,8,1.6,14,M,,M,,*56
06/17/2015	08:00:53.579	$GPGGA,080054,2508.7751,N,08009.3967,W,1,9,1.6,14,M,,M,,*53
06/17/2015	08:00:54.568	$GPGGA,080055,2508.7769,N,08009.3963,W,1,9,1.6,14,M,,M,,*5D
06/17/2015	08:00:55.618	$GPGGA,080056,2508.7786,N,08009.3956,W,1,9,1.6,14,M,,M,,*59
06/17/2015	08:00:56.558	$GPGGA,080057,2508.7802,N,08009.3948,W,1,9,1.6,14,M,,M,,*54
06/17/2015	08:00:57.578	$GPGGA,080058,2508.7819,N,08009.3943,W,1,9,1.6,14,M,,M,,*5A
06/17/2015	08:00:58.558	$GPGGA,080059,2508.7836,N,08009.3937,W,1,9,1.6,14,M,,M,,*55
06/17/2015	08:00:59.628	$GPGGA,080100,2508.7852,N,08009.3929,W,1,9,1.6,14,M,,M,,*55
06/17/2015	08:01:00.558	$GPGGA,080101,2508.7867,N,08009.3923,W,1,9,1.6,14,M,,M,,*58
06/17/2015	08:01:01.568	$GPGGA,080102,2508.7888,N,08009.3919,W,1,9,1.6,14,M,,M,,*53
06/17/2015	08:01:02.538	$GPGGA,080103,2508.7903,N,08009.3912,W,1,9,1.6,14,M,,M,,*5B
06/17/2015	08:01:03.578	$GPGGA,080104,2508.7920,N,08009.3904,W,1,9,1.6,14,M,,M,,*5A
06/17/2015	08:01:04.538	$GPGGA,080105,2508.7938,N,08009.3899,W,1,9,1.6,14,M,,M,,*57
06/17/2015	08:01:05.538	$GPGGA,080106,2508.7954,N,08009.3894,W,1,9,1.6,14,M,,M,,*53
06/17/2015	08:01:06.548	$GPGGA,080107,2508.7972,N,08009.3887,W,1,9,1.6,14,M,,M,,*54
06/17/2015	08:01:07.548	$GPGGA,080108,2508.7990,N,08009.3881,W,1,9,1.6,14,M,,M,,*51
06/17/2015	08:01:08.528	$GPGGA,080109,2508.8008,N,08009.3875,W,1,9,1.6,14,M,,M,,*5C
06/17/2015	08:01:09.549	$GPGGA,080110,2508.8025,N,08009.3868,W,1,9,1.6,14,M,,M,,*57
06/17/2015	08:01:10.539	$GPGGA,080111,2508.8040,N,08009.3862,W,1,9,1.6,14,M,,M,,*5F
06/17/2015	08:01:12.568	$GPGGA,080113,2508.8076,N,08009.3849,W,1,9,1.6,14,M,,M,,*51
06/17/2015	08:01:13.528	$GPGGA,080114,2508.8091,N,08009.3842,W,1,9,1.6,14,M,,M,,*54
06/17/2015	08:01:14.538	$GPGGA,080115,2508.8109,N,08009.3838,W,1,9,1.6,14,M,,M,,*58
06/17/2015	08:01:15.568	$GPGGA,080116,2508.8127,N,08009.3831,W,1,9,1.6,14,M,,M,,*5E
06/17/2015	08:01:17.548	$GPGGA,080118,2508.8159,N,08009.3817,W,1,9,1.6,14,M,,M,,*5D
06/17/2015	08:01:18.528	$GPGGA,080119,2508.8177,N,08009.3812,W,1,9,1.6,14,M,,M,,*55
06/17/2015	08:01:19.558	$GPGGA,080120,2508.8194,N,08009.3804,W,1,8,1.6,14,M,,M,,*54
06/17/2015	08:01:20.518	$GPGGA,080121,2508.8210,N,08009.3797,W,1,8,1.6,14,M,,M,,*5F
06/17/2015	08:01:21.538	$GPGGA,080122,2508.8230,N,08009.3794,W,1,9,1.6,14,M,,M,,*5C
06/17/2015	08:01:22.508	$GPGGA,080123,2508.8246,N,08009.3788,W,1,9,1.6,14,M,,M,,*51
06/17/2015	08:01:23.518	$GPGGA,080124,2508.8263,N,08009.3780,W,1,8,1.6,14,M,,M,,*58
06/17/2015	08:01:24.500	$GPGGA,080125,2508.8279,N,08009.3775,W,1,8,1.6,14,M,,M,,*58
06/17/2015	08:01:25.508	$GPGGA,080126,2508.8297,N,08009.3772,W,1,9,1.6,14,M,,M,,*5D
06/17/2015	08:01:26.509	$GPGGA,080127,2508.8314,N,08009.3764,W,1,9,1.6,14,M,,M,,*51
06/17/2015	08:01:27.559	$GPGGA,080128,2508.8331,N,08009.3759,W,1,8,1.9,14,M,,M,,*59
06/17/2015	08:01:28.609	$GPGGA,080129,2508.8350,N,08009.3756,W,1,8,1.6,14,M,,M,,*5F
06/17/2015	08:01:29.628	$GPGGA,080130,2508.8368,N,08009.3751,W,1,9,1.6,15,M,,M,,*5B
06/17/2015	08:01:30.499	$GPGGA,080131,2508.8385,N,08009.3743,W,1,9,1.6,15,M,,M,,*5A
06/17/2015	08:01:31.618	$GPGGA,080132,2508.8401,N,08009.3738,W,1,8,1.6,15,M,,M,,*5F
06/17/2015	08:01:32.498	$GPGGA,080133,2508.8419,N,08009.3734,W,1,8,1.6,15,M,,M,,*5B
06/17/2015	08:01:33.488	$GPGGA,080134,2508.8436,N,08009.3726,W,1,9,1.6,15,M,,M,,*53
06/17/2015	08:01:34.498	$GPGGA,080135,2508.8454,N,08009.3720,W,1,9,1.6,15,M,,M,,*50
06/17/2015	08:01:35.598	$GPGGA,080136,2508.8470,N,08009.3714,W,1,9,1.6,15,M,,M,,*52
06/17/2015	08:01:36.488	$GPGGA,080137,2508.8488,N,08009.3709,W,1,9,1.6,15,M,,M,,*58
06/17/2015	08:01:37.608	$GPGGA,080138,2508.8506,N,08009.3703,W,1,8,1.6,15,M,,M,,*5B
06/17/2015	08:01:38.578	$GPGGA,080139,2508.8524,N,08009.3696,W,1,8,1.6,15,M,,M,,*57
06/17/2015	08:01:39.648	$GPGGA,080140,2508.8541,N,08009.3691,W,1,9,1.6,15,M,,M,,*5C
06/17/2015	08:01:40.578	$GPGGA,080141,2508.8557,N,08009.3686,W,1,9,1.6,15,M,,M,,*5C
06/17/2015	08:01:41.578	$GPGGA,080142,2508.8577,N,08009.3679,W,1,9,1.6,15,M,,M,,*5D
06/17/2015	08:01:42.568	$GPGGA,080143,2508.8593,N,08009.3673,W,1,9,1.6,15,M,,M,,*5C
06/17/2015	08:01:43.608	$GPGGA,080144,2508.8609,N,08009.3668,W,1,9,1.6,15,M,,M,,*51
06/17/2015	08:01:44.559	$GPGGA,080145,2508.8626,N,08009.3661,W,1,9,1.6,15,M,,M,,*54
06/17/2015	08:01:45.579	$GPGGA,080146,2508.8643,N,08009.3655,W,1,9,1.6,16,M,,M,,*50
06/17/2015	08:01:46.578	$GPGGA,080147,2508.8658,N,08009.3649,W,1,9,1.9,16,M,,M,,*59
06/17/2015	08:01:47.618	$GPGGA,080148,2508.8676,N,08009.3644,W,1,8,1.6,16,M,,M,,*59
06/17/2015	08:01:48.849	$GPGGA,080149,2508.8693,N,08009.3637,W,1,8,1.6,16,M,,M,,*57
06/17/2015	08:01:49.578	$GPGGA,080150,2508.8708,N,08009.3630,W,1,9,1.6,16,M,,M,,*5A
06/17/2015	08:01:50.558	$GPGGA,080151,2508.8727,N,08009.3626,W,1,9,1.6,16,M,,M,,*51
06/17/2015	08:01:51.578	$GPGGA,080152,2508.8744,N,08009.3618,W,1,8,1.6,16,M,,M,,*5B
06/17/2015	08:01:52.538	$GPGGA,080153,2508.8759,N,08009.3611,W,1,8,1.6,16,M,,M,,*5F
06/17/2015	08:01:53.568	$GPGGA,080154,2508.8779,N,08009.3607,W,1,9,1.6,16,M,,M,,*5C
06/17/2015	08:01:54.548	$GPGGA,080155,2508.8795,N,08009.3602,W,1,9,1.6,16,M,,M,,*5A
06/17/2015	08:01:55.578	$GPGGA,080156,2508.8813,N,08009.3594,W,1,9,1.6,16,M,,M,,*54
06/17/2015	08:01:56.548	$GPGGA,080157,2508.8830,N,08009.3588,W,1,9,1.6,16,M,,M,,*59
06/17/2015	08:01:57.568	$GPGGA,080158,2508.8848,N,08009.3584,W,1,9,1.6,16,M,,M,,*55
06/17/2015	08:01:58.538	$GPGGA,080159,2508.8867,N,08009.3577,W,1,9,1.6,16,M,,M,,*55
06/17/2015	08:01:59.588	$GPGGA,080200,2508.8882,N,08009.3570,W,1,8,1.6,16,M,,M,,*57
06/17/2015	08:02:00.528	$GPGGA,080201,2508.8899,N,08009.3565,W,1,8,1.6,16,M,,M,,*58
06/17/2015	08:02:01.539	$GPGGA,080202,2508.8917,N,08009.3559,W,1,9,1.6,16,M,,M,,*52
06/17/2015	08:02:02.529	$GPGGA,080203,2508.8932,N,08009.3551,W,1,9,1.6,16,M,,M,,*5C
06/17/2015	08:02:03.539	$GPGGA,080204,2508.8947,N,08009.3545,W,1,9,1.6,16,M,,M,,*5C
06/17/2015	08:02:04.528	$GPGGA,080205,2508.8965,N,08009.3539,W,1,9,1.6,16,M,,M,,*56
06/17/2015	08:02:05.518	$GPGGA,080206,2508.8982,N,08009.3534,W,1,9,1.6,16,M,,M,,*51
06/17/2015	08:02:06.528	$GPGGA,080207,2508.9000,N,08009.3527,W,1,9,1.6,16,M,,M,,*50
06/17/2015	08:02:07.578	$GPGGA,080208,2508.9016,N,08009.3521,W,1,8,1.6,16,M,,M,,*5F
06/17/2015	08:02:08.528	$GPGGA,080209,2508.9034,N,08009.3516,W,1,8,1.6,16,M,,M,,*5A
06/17/2015	08:02:09.518	$GPGGA,080210,2508.9051,N,08009.3510,W,1,9,1.6,16,M,,M,,*56
06/17/2015	08:02:10.628	$GPGGA,080211,2508.9066,N,08009.3505,W,1,9,1.6,16,M,,M,,*57
06/17/2015	08:02:11.558	$GPGGA,080212,2508.9084,N,08009.3497,W,1,9,1.6,16,M,,M,,*52
06/17/2015	08:02:12.508	$GPGGA,080213,2508.9102,N,08009.3492,W,1,9,1.6,16,M,,M,,*59
06/17/2015	08:02:13.509	$GPGGA,080214,2508.9120,N,08009.3490,W,1,8,1.6,16,M,,M,,*5D
06/17/2015	08:02:14.598	$GPGGA,080215,2508.9138,N,08009.3483,W,1,8,1.6,16,M,,M,,*57
06/17/2015	08:02:15.548	$GPGGA,080216,2508.9155,N,08009.3476,W,1,9,1.6,16,M,,M,,*54
06/17/2015	08:02:16.509	$GPGGA,080217,2508.9171,N,08009.3474,W,1,9,1.6,16,M,,M,,*51
06/17/2015	08:02:17.488	$GPGGA,080218,2508.9188,N,08009.3468,W,1,9,1.6,16,M,,M,,*55
06/17/2015	08:02:19.569	$GPGGA,080220,2508.9220,N,08009.3455,W,1,9,1.6,16,M,,M,,*51
06/17/2015	08:02:20.509	$GPGGA,080221,2508.9238,N,08009.3451,W,1,9,1.6,16,M,,M,,*5D
06/17/2015	08:02:21.618	$GPGGA,080222,2508.9254,N,08009.3444,W,1,9,1.6,16,M,,M,,*50
06/17/2015	08:02:22.508	$GPGGA,080223,2508.9269,N,08009.3437,W,1,9,1.6,16,M,,M,,*5B
06/17/2015	08:02:23.548	$GPGGA,080224,2508.9287,N,08009.3433,W,1,9,1.6,16,M,,M,,*58
06/17/2015	08:02:24.598	$GPGGA,080225,2508.9307,N,08009.3429,W,1,9,1.6,16,M,,M,,*5B
06/17/2015	08:02:25.588	$GPGGA,080226,2508.9323,N,08009.3422,W,1,8,1.6,16,M,,M,,*54
06/17/2015	08:02:26.488	$GPGGA,080227,2508.9323,N,08009.3422,W,1,8,1.6,16,M,,M,,*55
06/17/2015	08:02:27.508	$GPGGA,080228,2508.9359,N,08009.3412,W,1,9,1.6,16,M,,M,,*55
06/17/2015	08:02:28.568	$GPGGA,080229,2508.9376,N,08009.3405,W,1,9,1.6,16,M,,M,,*5F
06/17/2015	08:02:29.599	$GPGGA,080230,2508.9391,N,08009.3398,W,1,9,1.6,16,M,,M,,*5D
06/17/2015	08:02:30.568	$GPGGA,080231,2508.9409,N,08009.3394,W,1,9,1.6,16,M,,M,,*56
06/17/2015	08:02:31.598	$GPGGA,080232,2508.9424,N,08009.3387,W,1,9,1.6,16,M,,M,,*58
06/17/2015	08:02:32.558	$GPGGA,080233,2508.9444,N,08009.3381,W,1,9,1.6,16,M,,M,,*59
06/17/2015	08:02:33.568	$GPGGA,080234,2508.9460,N,08009.3376,W,1,8,1.6,16,M,,M,,*51
06/17/2015	08:02:34.568	$GPGGA,080235,2508.9478,N,08009.3369,W,1,8,1.6,16,M,,M,,*57
06/17/2015	08:02:35.608	$GPGGA,080236,2508.9492,N,08009.3362,W,1,9,1.6,16,M,,M,,*5A
06/17/2015	08:02:36.569	$GPGGA,080237,2508.9507,N,08009.3355,W,1,9,1.9,16,M,,M,,*5D
06/17/2015	08:02:37.549	$GPGGA,080238,2508.9528,N,08009.3350,W,1,8,1.9,15,M,,M,,*58
06/17/2015	08:02:38.549	$GPGGA,080239,2508.9543,N,08009.3344,W,1,8,1.6,15,M,,M,,*5E
06/17/2015	08:02:39.578	$GPGGA,080240,2508.9561,N,08009.3338,W,1,9,1.6,15,M,,M,,*5A
06/17/2015	08:02:40.558	$GPGGA,080241,2508.9581,N,08009.3332,W,1,9,1.6,15,M,,M,,*5F
06/17/2015	08:02:41.558	$GPGGA,080242,2508.9601,N,08009.3327,W,1,9,1.6,15,M,,M,,*53
06/17/2015	08:02:42.548	$GPGGA,080243,2508.9601,N,08009.3327,W,1,9,1.6,15,M,,M,,*52
06/17/2015	08:02:43.568	$GPGGA,080244,2508.9630,N,08009.3312,W,1,8,1.9,15,M,,M,,*5F
06/17/2015	08:02:44.548	$GPGGA,080245,2508.9648,N,08009.3306,W,1,8,1.6,15,M,,M,,*5B
06/17/2015	08:02:45.558	$GPGGA,080246,2508.9666,N,08009.3300,W,1,9,1.6,15,M,,M,,*53
06/17/2015	08:02:46.538	$GPGGA,080247,2508.9684,N,08009.3295,W,1,9,1.6,15,M,,M,,*53
06/17/2015	08:02:47.578	$GPGGA,080248,2508.9701,N,08009.3286,W,1,9,1.6,15,M,,M,,*52
06/17/2015	08:02:48.548	$GPGGA,080249,2508.9720,N,08009.3282,W,1,9,1.6,15,M,,M,,*54
06/17/2015	08:02:49.528	$GPGGA,080250,2508.9740,N,08009.3279,W,1,8,1.6,15,M,,M,,*5F
06/17/2015	08:02:50.528	$GPGGA,080251,2508.9759,N,08009.3271,W,1,8,1.6,15,M,,M,,*5E
06/17/2015	08:02:51.538	$GPGGA,080252,2508.9777,N,08009.3265,W,1,9,1.6,15,M,,M,,*55
06/17/2015	08:02:52.528	$GPGGA,080253,2508.9796,N,08009.3262,W,1,9,1.6,15,M,,M,,*5C
06/17/2015	08:02:53.979	$GPGGA,080254,2508.9814,N,08009.3255,W,1,9,1.6,15,M,,M,,*5A
06/17/2015	08:02:54.539	$GPGGA,080255,2508.9829,N,08009.3249,W,1,9,1.6,15,M,,M,,*58
06/17/2015	08:02:55.529	$GPGGA,080256,2508.9847,N,08009.3245,W,1,9,1.6,15,M,,M,,*5F
06/17/2015	08:02:56.528	$GPGGA,080257,2508.9865,N,08009.3238,W,1,9,1.6,15,M,,M,,*54
06/17/2015	08:02:57.558	$GPGGA,080258,2508.9882,N,08009.3232,W,1,9,1.6,15,M,,M,,*58
06/17/2015	08:02:58.508	$GPGGA,080259,2508.9899,N,08009.3228,W,1,9,1.6,15,M,,M,,*58
06/17/2015	08:02:59.518	$GPGGA,080300,2508.9918,N,08009.3222,W,1,9,1.6,15,M,,M,,*57
06/17/2015	08:03:00.538	$GPGGA,080301,2508.9933,N,08009.3215,W,1,9,1.6,15,M,,M,,*5B
06/17/2015	08:03:01.538	$GPGGA,080302,2508.9950,N,08009.3211,W,1,9,1.6,15,M,,M,,*59
06/17/2015	08:03:02.508	$GPGGA,080303,2508.9969,N,08009.3207,W,1,9,1.6,15,M,,M,,*55
06/17/2015	08:03:03.518	$GPGGA,080304,2508.9986,N,08009.3200,W,1,9,1.6,15,M,,M,,*54
06/17/2015	08:03:04.488	$GPGGA,080305,2509.0002,N,08009.3194,W,1,9,1.6,15,M,,M,,*56
06/17/2015	08:03:05.508	$GPGGA,080306,2509.0020,N,08009.3190,W,1,9,1.6,15,M,,M,,*51
06/17/2015	08:03:06.490	$GPGGA,080307,2509.0038,N,08009.3184,W,1,9,1.6,15,M,,M,,*5C
06/17/2015	08:03:07.518	$GPGGA,080308,2509.0055,N,08009.3177,W,1,9,1.6,15,M,,M,,*54
06/17/2015	08:03:08.494	$GPGGA,080309,2509.0073,N,08009.3172,W,1,9,1.6,15,M,,M,,*54
06/17/2015	08:03:09.578	$GPGGA,080310,2509.0092,N,08009.3168,W,1,8,1.6,15,M,,M,,*59
06/17/2015	08:03:10.488	$GPGGA,080311,2509.0110,N,08009.3162,W,1,8,1.6,15,M,,M,,*59
06/17/2015	08:03:11.489	$GPGGA,080312,2509.0128,N,08009.3155,W,1,9,1.6,15,M,,M,,*54
06/17/2015	08:03:12.468	$GPGGA,080313,2509.0146,N,08009.3151,W,1,9,1.6,15,M,,M,,*59
06/17/2015	08:03:13.468	$GPGGA,080314,2509.0164,N,08009.3146,W,1,8,1.6,15,M,,M,,*59
06/17/2015	08:03:14.568	$GPGGA,080315,2509.0179,N,08009.3137,W,1,8,1.6,15,M,,M,,*52
06/17/2015	08:03:15.477	$GPGGA,080316,2509.0197,N,08009.3130,W,1,9,1.6,15,M,,M,,*57
06/17/2015	08:03:16.567	$GPGGA,080317,2509.0212,N,08009.3124,W,1,9,1.6,15,M,,M,,*5D
06/17/2015	08:03:17.597	$GPGGA,080318,2509.0229,N,08009.3117,W,1,9,1.6,15,M,,M,,*5A
06/17/2015	08:03:18.567	$GPGGA,080319,2509.0248,N,08009.3111,W,1,9,1.6,15,M,,M,,*5A
06/17/2015	08:03:19.577	$GPGGA,080320,2509.0268,N,08009.3106,W,1,8,1.6,15,M,,M,,*55
06/17/2015	08:03:20.547	$GPGGA,080321,2509.0284,N,08009.3099,W,1,8,1.6,15,M,,M,,*51
06/17/2015	08:03:21.567	$GPGGA,080322,2509.0301,N,08009.3092,W,1,9,1.6,15,M,,M,,*54
06/17/2015	08:03:22.558	$GPGGA,080323,2509.0319,N,08009.3085,W,1,9,1.4,15,M,,M,,*58
06/17/2015	08:03:23.558	$GPGGA,080324,2509.0338,N,08009.3080,W,1,9,1.4,15,M,,M,,*59
06/17/2015	08:03:24.548	$GPGGA,080325,2509.0356,N,08009.3073,W,1,9,1.5,15,M,,M,,*5D
06/17/2015	08:03:25.548	$GPGGA,080326,2509.0374,N,08009.3066,W,1,9,1.4,15,M,,M,,*5B
06/17/2015	08:03:26.538	$GPGGA,080327,2509.0392,N,08009.3059,W,1,9,1.4,15,M,,M,,*5E
06/17/2015	08:03:27.578	$GPGGA,080328,2509.0410,N,08009.3053,W,1,9,1.4,15,M,,M,,*56
06/17/2015	08:03:28.538	$GPGGA,080329,2509.0428,N,08009.3046,W,1,9,1.4,15,M,,M,,*58
06/17/2015	08:03:29.558	$GPGGA,080330,2509.0446,N,08009.3040,W,1,9,1.4,15,M,,M,,*5E
06/17/2015	08:03:30.538	$GPGGA,080331,2509.0464,N,08009.3033,W,1,9,1.4,15,M,,M,,*5B
06/17/2015	08:03:31.547	$GPGGA,080332,2509.0482,N,08009.3026,W,1,9,1.4,15,M,,M,,*54
06/17/2015	08:03:32.537	$GPGGA,080333,2509.0500,N,08009.3021,W,1,9,1.4,15,M,,M,,*59
06/17/2015	08:03:33.537	$GPGGA,080334,2509.0518,N,08009.3015,W,1,9,1.4,15,M,,M,,*50
06/17/2015	08:03:34.537	$GPGGA,080335,2509.0536,N,08009.3008,W,1,9,1.4,15,M,,M,,*51
06/17/2015	08:03:35.567	$GPGGA,080336,2509.0554,N,08009.3002,W,1,9,1.4,15,M,,M,,*5C
06/17/2015	08:03:36.527	$GPGGA,080337,2509.0572,N,08009.2997,W,1,9,1.4,15,M,,M,,*5D
06/17/2015	08:03:37.537	$GPGGA,080338,2509.0591,N,08009.2990,W,1,9,1.4,15,M,,M,,*58
06/17/2015	08:03:38.537	$GPGGA,080339,2509.0608,N,08009.2984,W,1,9,1.5,15,M,,M,,*5E
06/17/2015	08:03:39.568	$GPGGA,080340,2509.0626,N,08009.2978,W,1,9,1.4,15,M,,M,,*5E
06/17/2015	08:03:40.518	$GPGGA,080341,2509.0645,N,08009.2973,W,1,9,1.4,15,M,,M,,*51
06/17/2015	08:03:41.558	$GPGGA,080342,2509.0662,N,08009.2967,W,1,9,1.4,15,M,,M,,*52
06/17/2015	08:03:42.518	$GPGGA,080343,2509.0677,N,08009.2960,W,1,9,1.5,15,M,,M,,*51
06/17/2015	08:03:43.548	$GPGGA,080344,2509.0696,N,08009.2955,W,1,9,1.4,15,M,,M,,*5E
06/17/2015	08:03:44.508	$GPGGA,080345,2509.0714,N,08009.2948,W,1,9,1.5,15,M,,M,,*59
06/17/2015	08:03:45.508	$GPGGA,080346,2509.0731,N,08009.2941,W,1,9,1.4,15,M,,M,,*55
06/17/2015	08:03:46.628	$GPGGA,080347,2509.0750,N,08009.2935,W,1,9,1.4,15,M,,M,,*50
06/17/2015	08:03:47.628	$GPGGA,080348,2509.0767,N,08009.2929,W,1,10,1.4,15,M,,M,,*6E
06/17/2015	08:03:48.508	$GPGGA,080349,2509.0782,N,08009.2921,W,1,10,1.4,15,M,,M,,*6C
06/17/2015	08:03:49.507	$GPGGA,080350,2509.0800,N,08009.2915,W,1,10,1.4,15,M,,M,,*66
06/17/2015	08:03:50.489	$GPGGA,080351,2509.0817,N,08009.2910,W,1,10,1.4,15,M,,M,,*64
06/17/2015	08:03:51.507	$GPGGA,080352,2509.0833,N,08009.2903,W,1,10,1.4,15,M,,M,,*63
06/17/2015	08:03:52.587	$GPGGA,080353,2509.0850,N,08009.2895,W,1,10,1.4,15,M,,M,,*69
06/17/2015	08:03:53.489	$GPGGA,080354,2509.0867,N,08009.2890,W,1,10,1.4,15,M,,M,,*6F
06/17/2015	08:03:54.497	$GPGGA,080355,2509.0885,N,08009.2885,W,1,10,1.4,15,M,,M,,*66
06/17/2015	08:03:55.617	$GPGGA,080356,2509.0901,N,08009.2877,W,1,10,1.4,15,M,,M,,*65
06/17/2015	08:03:56.487	$GPGGA,080357,2509.0918,N,08009.2869,W,1,10,1.5,15,M,,M,,*62
06/17/2015	08:03:57.588	$GPGGA,080358,2509.0934,N,08009.2866,W,1,10,1.4,15,M,,M,,*6D
06/17/2015	08:03:58.598	$GPGGA,080359,2509.0952,N,08009.2859,W,1,10,1.4,15,M,,M,,*60
06/17/2015	08:03:59.548	$GPGGA,080400,2509.0969,N,08009.2850,W,1,9,1.5,15,M,,M,,*53
06/17/2015	08:04:00.478	$GPGGA,080401,2509.0987,N,08009.2845,W,1,9,1.4,15,M,,M,,*57
06/17/2015	08:04:01.608	$GPGGA,080402,2509.1003,N,08009.2839,W,1,9,1.5,15,M,,M,,*5A
06/17/2015	08:04:02.478	$GPGGA,080403,2509.1021,N,08009.2832,W,1,9,1.4,15,M,,M,,*51
06/17/2015	08:04:03.578	$GPGGA,080404,2509.1037,N,08009.2823,W,1,9,1.5,15,M,,M,,*50
06/17/2015	08:04:04.568	$GPGGA,080405,2509.1053,N,08009.2818,W,1,9,1.4,15,M,,M,,*5A
06/17/2015	08:04:05.578	$GPGGA,080406,2509.1071,N,08009.2812,W,1,10,1.4,15,M,,M,,*6B
06/17/2015	08:04:06.557	$GPGGA,080407,2509.1088,N,08009.2805,W,1,10,1.4,15,M,,M,,*6A
06/17/2015	08:04:07.597	$GPGGA,080408,2509.1104,N,08009.2797,W,1,10,1.4,15,M,,M,,*64
06/17/2015	08:04:08.567	$GPGGA,080409,2509.1122,N,08009.2793,W,1,10,1.4,15,M,,M,,*65
06/17/2015	08:04:09.587	$GPGGA,080410,2509.1140,N,08009.2787,W,1,9,1.5,15,M,,M,,*55
06/17/2015	08:04:10.557	$GPGGA,080411,2509.1156,N,08009.2780,W,1,9,1.4,15,M,,M,,*55
06/17/2015	08:04:11.597	$GPGGA,080412,2509.1174,N,08009.2773,W,1,10,1.4,15,M,,M,,*62
06/17/2015	08:04:12.557	$GPGGA,080413,2509.1189,N,08009.2767,W,1,10,1.4,15,M,,M,,*64
06/17/2015	08:04:13.557	$GPGGA,080414,2509.1207,N,08009.2763,W,1,10,1.4,15,M,,M,,*62
06/17/2015	08:04:14.558	$GPGGA,080415,2509.1223,N,08009.2755,W,1,10,1.5,15,M,,M,,*61
06/17/2015	08:04:15.578	$GPGGA,080416,2509.1241,N,08009.2748,W,1,10,1.4,15,M,,M,,*6B
06/17/2015	08:04:16.538	$GPGGA,080417,2509.1256,N,08009.2744,W,1,10,1.4,15,M,,M,,*60
06/17/2015	08:04:17.568	$GPGGA,080418,2509.1274,N,08009.2738,W,1,10,1.4,15,M,,M,,*64
06/17/2015	08:04:18.548	$GPGGA,080419,2509.1291,N,08009.2731,W,1,10,1.4,15,M,,M,,*67
06/17/2015	08:04:19.578	$GPGGA,080420,2509.1306,N,08009.2723,W,1,10,1.4,15,M,,M,,*61
06/17/2015	08:04:20.548	$GPGGA,080421,2509.1324,N,08009.2718,W,1,10,1.4,15,M,,M,,*68
06/17/2015	08:04:21.558	$GPGGA,080422,2509.1341,N,08009.2712,W,1,10,1.4,15,M,,M,,*62
06/17/2015	08:04:22.548	$GPGGA,080423,2509.1357,N,08009.2704,W,1,10,1.4,15,M,,M,,*63
06/17/2015	08:04:23.577	$GPGGA,080424,2509.1373,N,08009.2697,W,1,10,1.4,15,M,,M,,*69
06/17/2015	08:04:24.537	$GPGGA,080425,2509.1389,N,08009.2691,W,1,10,1.4,15,M,,M,,*6B
06/17/2015	08:04:25.527	$GPGGA,080426,2509.1406,N,08009.2684,W,1,10,1.4,15,M,,M,,*6C
06/17/2015	08:04:26.527	$GPGGA,080427,2509.1422,N,08009.2677,W,1,10,1.4,15,M,,M,,*67
06/17/2015	08:04:27.547	$GPGGA,080428,2509.1440,N,08009.2672,W,1,10,1.4,15,M,,M,,*69
06/17/2015	08:04:28.517	$GPGGA,080429,2509.1458,N,08009.2664,W,1,10,1.5,15,M,,M,,*67
06/17/2015	08:04:29.517	$GPGGA,080430,2509.1474,N,08009.2657,W,1,10,1.4,15,M,,M,,*60
06/17/2015	08:04:30.527	$GPGGA,080431,2509.1490,N,08009.2651,W,1,10,1.4,15,M,,M,,*6D
06/17/2015	08:04:31.558	$GPGGA,080432,2509.1505,N,08009.2643,W,1,10,1.4,15,M,,M,,*60
06/17/2015	08:04:32.528	$GPGGA,080433,2509.1523,N,08009.2637,W,1,10,1.4,15,M,,M,,*66
06/17/2015	08:04:33.548	$GPGGA,080434,2509.1540,N,08009.2631,W,1,10,1.4,15,M,,M,,*62
06/17/2015	08:04:34.508	$GPGGA,080435,2509.1557,N,08009.2623,W,1,10,1.4,15,M,,M,,*66
06/17/2015	08:04:35.558	$GPGGA,080436,2509.1573,N,08009.2617,W,1,10,1.4,15,M,,M,,*64
06/17/2015	08:04:36.668	$GPGGA,080437,2509.1590,N,08009.2611,W,1,10,1.4,15,M,,M,,*6E
06/17/2015	08:04:37.658	$GPGGA,080438,2509.1609,N,08009.2604,W,1,10,1.5,15,M,,M,,*67
06/17/2015	08:04:38.598	$GPGGA,080439,2509.1622,N,08009.2596,W,1,10,1.5,15,M,,M,,*67
06/17/2015	08:04:39.518	$GPGGA,080440,2509.1639,N,08009.2589,W,1,10,1.4,15,M,,M,,*6C
06/17/2015	08:04:40.668	$GPGGA,080441,2509.1657,N,08009.2584,W,1,10,1.4,15,M,,M,,*68
06/17/2015	08:04:41.488	$GPGGA,080442,2509.1674,N,08009.2577,W,1,10,1.4,15,M,,M,,*66
06/17/2015	08:04:42.507	$GPGGA,080443,2509.1692,N,08009.2571,W,1,10,1.4,15,M,,M,,*69
06/17/2015	08:04:43.597	$GPGGA,080444,2509.1710,N,08009.2565,W,1,10,1.4,15,M,,M,,*60
06/17/2015	08:04:44.488	$GPGGA,080445,2509.1727,N,08009.2557,W,1,10,1.5,15,M,,M,,*65
06/17/2015	08:04:45.507	$GPGGA,080446,2509.1743,N,08009.2551,W,1,10,1.4,15,M,,M,,*63
06/17/2015	08:04:46.657	$GPGGA,080447,2509.1760,N,08009.2546,W,1,10,1.4,15,M,,M,,*65
06/17/2015	08:04:47.677	$GPGGA,080448,2509.1776,N,08009.2537,W,1,10,1.4,15,M,,M,,*6B
06/17/2015	08:04:48.497	$GPGGA,080449,2509.1794,N,08009.2531,W,1,10,1.4,15,M,,M,,*60
06/17/2015	08:04:49.648	$GPGGA,080450,2509.1812,N,08009.2528,W,1,8,1.4,15,M,,M,,*58
06/17/2015	08:04:50.490	$GPGGA,080451,2509.1830,N,08009.2521,W,1,8,1.4,15,M,,M,,*50
06/17/2015	08:04:51.658	$GPGGA,080452,2509.1847,N,08009.2511,W,1,10,1.4,15,M,,M,,*69
06/17/2015	08:04:52.489	$GPGGA,080453,2509.1865,N,08009.2508,W,1,10,1.4,15,M,,M,,*60
06/17/2015	08:04:54.018	$GPGGA,080454,2509.1883,N,08009.2504,W,1,9,1.4,15,M,,M,,*5B
06/17/2015	08:04:54.638	$GPGGA,080455,2509.1898,N,08009.2494,W,1,9,1.4,15,M,,M,,*58
06/17/2015	08:04:55.648	$GPGGA,080456,2509.1913,N,08009.2486,W,1,10,1.4,15,M,,M,,*62
06/17/2015	08:04:56.568	$GPGGA,080457,2509.1931,N,08009.2483,W,1,10,1.4,15,M,,M,,*66
06/17/2015	08:04:57.588	$GPGGA,080458,2509.1949,N,08009.2477,W,1,10,1.4,15,M,,M,,*6D
06/17/2015	08:04:58.637	$GPGGA,080459,2509.1964,N,08009.2468,W,1,10,1.4,15,M,,M,,*6D
06/17/2015	08:04:59.637	$GPGGA,080500,2509.1982,N,08009.2462,W,1,10,1.4,15,M,,M,,*62
06/17/2015	08:05:00.637	$GPGGA,080501,2509.2000,N,08009.2459,W,1,10,1.4,15,M,,M,,*6B
06/17/2015	08:05:01.547	$GPGGA,080502,2509.2017,N,08009.2451,W,1,10,1.4,15,M,,M,,*66
06/17/2015	08:05:02.547	$GPGGA,080503,2509.2034,N,08009.2443,W,1,10,1.4,15,M,,M,,*65
06/17/2015	08:05:03.607	$GPGGA,080504,2509.2052,N,08009.2439,W,1,10,1.4,15,M,,M,,*6F
06/17/2015	08:05:04.597	$GPGGA,080505,2509.2070,N,08009.2435,W,1,10,1.4,15,M,,M,,*62
06/17/2015	08:05:05.607	$GPGGA,080506,2509.2086,N,08009.2426,W,1,10,1.4,15,M,,M,,*6A
06/17/2015	08:05:06.618	$GPGGA,080507,2509.2104,N,08009.2419,W,1,10,1.4,15,M,,M,,*6C
06/17/2015	08:05:07.648	$GPGGA,080508,2509.2122,N,08009.2416,W,1,10,1.4,15,M,,M,,*68
06/17/2015	08:05:08.608	$GPGGA,080509,2509.2140,N,08009.2409,W,1,10,1.4,15,M,,M,,*63
06/17/2015	08:05:09.538	$GPGGA,080510,2509.2155,N,08009.2400,W,1,10,1.4,15,M,,M,,*66
06/17/2015	08:05:10.528	$GPGGA,080511,2509.2173,N,08009.2395,W,1,10,1.4,15,M,,M,,*68
06/17/2015	08:05:11.589	$GPGGA,080512,2509.2191,N,08009.2391,W,1,10,1.4,15,M,,M,,*63
06/17/2015	08:05:12.588	$GPGGA,080513,2509.2208,N,08009.2384,W,1,10,1.4,15,M,,M,,*65
06/17/2015	08:05:13.588	$GPGGA,080514,2509.2224,N,08009.2377,W,1,10,1.4,15,M,,M,,*60
06/17/2015	08:05:14.518	$GPGGA,080515,2509.2242,N,08009.2372,W,1,10,1.4,15,M,,M,,*64
06/17/2015	08:05:15.628	$GPGGA,080516,2509.2260,N,08009.2366,W,1,10,1.4,15,M,,M,,*62
06/17/2015	08:05:16.517	$GPGGA,080517,2509.2276,N,08009.2359,W,1,10,1.4,15,M,,M,,*68
06/17/2015	08:05:17.607	$GPGGA,080518,2509.2295,N,08009.2354,W,1,10,1.5,15,M,,M,,*66
06/17/2015	08:05:18.587	$GPGGA,080519,2509.2311,N,08009.2347,W,1,10,1.4,15,M,,M,,*69
06/17/2015	08:05:19.627	$GPGGA,080520,2509.2328,N,08009.2341,W,1,10,1.5,15,M,,M,,*6E
06/17/2015	08:05:20.567	$GPGGA,080521,2509.2345,N,08009.2335,W,1,10,1.4,15,M,,M,,*66
06/17/2015	08:05:21.567	$GPGGA,080522,2509.2364,N,08009.2329,W,1,10,1.4,15,M,,M,,*6B
06/17/2015	08:05:22.507	$GPGGA,080523,2509.2379,N,08009.2322,W,1,10,1.4,15,M,,M,,*6D
06/17/2015	08:05:23.587	$GPGGA,080524,2509.2397,N,08009.2317,W,1,10,1.5,15,M,,M,,*6D
06/17/2015	08:05:24.508	$GPGGA,080525,2509.2415,N,08009.2312,W,1,10,1.5,15,M,,M,,*64
06/17/2015	08:05:25.528	$GPGGA,080526,2509.2430,N,08009.2304,W,1,10,1.4,15,M,,M,,*66
06/17/2015	08:05:26.568	$GPGGA,080527,2509.2447,N,08009.2296,W,1,10,1.4,15,M,,M,,*6D
06/17/2015	08:05:27.508	$GPGGA,080528,2509.2465,N,08009.2291,W,1,9,1.5,15,M,,M,,*5C
06/17/2015	08:05:28.488	$GPGGA,080529,2509.2482,N,08009.2285,W,1,9,1.4,15,M,,M,,*50
06/17/2015	08:05:29.588	$GPGGA,080530,2509.2498,N,08009.2276,W,1,10,1.4,15,M,,M,,*67
06/17/2015	08:05:30.568	$GPGGA,080531,2509.2513,N,08009.2269,W,1,10,1.4,15,M,,M,,*6A
06/17/2015	08:05:31.568	$GPGGA,080532,2509.2531,N,08009.2266,W,1,10,1.4,15,M,,M,,*66
06/17/2015	08:05:32.558	$GPGGA,080533,2509.2549,N,08009.2258,W,1,10,1.4,15,M,,M,,*65
06/17/2015	08:05:33.488	$GPGGA,080534,2509.2565,N,08009.2250,W,1,10,1.4,15,M,,M,,*64
06/17/2015	08:05:34.547	$GPGGA,080535,2509.2583,N,08009.2246,W,1,10,1.4,15,M,,M,,*6A
06/17/2015	08:05:35.557	$GPGGA,080536,2509.2600,N,08009.2240,W,1,10,1.4,15,M,,M,,*67
06/17/2015	08:05:36.477	$GPGGA,080537,2509.2616,N,08009.2232,W,1,10,1.4,15,M,,M,,*64
06/17/2015	08:05:37.507	$GPGGA,080538,2509.2635,N,08009.2227,W,1,10,1.5,15,M,,M,,*6F
06/17/2015	08:05:38.587	$GPGGA,080539,2509.2650,N,08009.2222,W,1,10,1.4,15,M,,M,,*69
06/17/2015	08:05:39.557	$GPGGA,080540,2509.2668,N,08009.2215,W,1,10,1.5,15,M,,M,,*69
06/17/2015	08:05:40.547	$GPGGA,080541,2509.2686,N,08009.2209,W,1,10,1.5,15,M,,M,,*65
06/17/2015	08:05:41.588	$GPGGA,080542,2509.2704,N,08009.2205,W,1,9,1.4,15,M,,M,,*58
06/17/2015	08:05:42.568	$GPGGA,080543,2509.2719,N,08009.2198,W,1,9,1.4,15,M,,M,,*52
06/17/2015	08:05:43.618	$GPGGA,080544,2509.2737,N,08009.2190,W,1,10,1.4,15,M,,M,,*69
06/17/2015	08:05:44.568	$GPGGA,080545,2509.2754,N,08009.2186,W,1,10,1.4,15,M,,M,,*6A
06/17/2015	08:05:45.558	$GPGGA,080546,2509.2772,N,08009.2181,W,1,10,1.4,15,M,,M,,*6A
06/17/2015	08:05:46.568	$GPGGA,080547,2509.2789,N,08009.2174,W,1,10,1.4,15,M,,M,,*65
06/17/2015	08:05:47.618	$GPGGA,080548,2509.2805,N,08009.2166,W,1,10,1.4,15,M,,M,,*62
06/17/2015	08:05:48.568	$GPGGA,080549,2509.2823,N,08009.2163,W,1,10,1.5,15,M,,M,,*63
06/17/2015	08:05:49.558	$GPGGA,080550,2509.2841,N,08009.2159,W,1,9,1.4,15,M,,M,,*5F
06/17/2015	08:05:50.548	$GPGGA,080551,2509.2858,N,08009.2150,W,1,9,1.4,15,M,,M,,*5F
06/17/2015	08:05:51.588	$GPGGA,080552,2509.2874,N,08009.2144,W,1,10,1.4,15,M,,M,,*6F
06/17/2015	08:05:52.567	$GPGGA,080553,2509.2892,N,08009.2139,W,1,10,1.4,15,M,,M,,*6C
06/17/2015	08:05:53.567	$GPGGA,080554,2509.2909,N,08009.2133,W,1,10,1.4,15,M,,M,,*62
06/17/2015	08:05:54.547	$GPGGA,080555,2509.2927,N,08009.2126,W,1,10,1.5,15,M,,M,,*6A
06/17/2015	08:05:55.607	$GPGGA,080556,2509.2943,N,08009.2120,W,1,9,1.4,15,M,,M,,*54
06/17/2015	08:05:56.547	$GPGGA,080557,2509.2961,N,08009.2114,W,1,9,1.4,15,M,,M,,*52
06/17/2015	08:05:57.567	$GPGGA,080558,2509.2977,N,08009.2107,W,1,10,1.4,15,M,,M,,*60
06/17/2015	08:05:58.537	$GPGGA,080559,2509.2993,N,08009.2100,W,1,10,1.5,15,M,,M,,*6D
06/17/2015	08:05:59.578	$GPGGA,080600,2509.3011,N,08009.2096,W,1,9,1.4,15,M,,M,,*57
06/17/2015	08:06:00.538	$GPGGA,080601,2509.3029,N,08009.2090,W,1,9,1.4,15,M,,M,,*5B
06/17/2015	08:06:01.538	$GPGGA,080602,2509.3046,N,08009.2083,W,1,10,1.4,15,M,,M,,*6B
06/17/2015	08:06:02.548	$GPGGA,080603,2509.3064,N,08009.2079,W,1,10,1.5,15,M,,M,,*6E
06/17/2015	08:06:03.568	$GPGGA,080604,2509.3082,N,08009.2074,W,1,9,1.4,15,M,,M,,*55
06/17/2015	08:06:04.548	$GPGGA,080605,2509.3100,N,08009.2066,W,1,9,1.5,15,M,,M,,*5D
06/17/2015	08:06:05.558	$GPGGA,080606,2509.3118,N,08009.2061,W,1,9,1.5,15,M,,M,,*50
06/17/2015	08:06:06.548	$GPGGA,080607,2509.3136,N,08009.2057,W,1,9,1.4,15,M,,M,,*59
06/17/2015	08:06:07.568	$GPGGA,080608,2509.3154,N,08009.2050,W,1,10,1.4,15,M,,M,,*6D
06/17/2015	08:06:08.577	$GPGGA,080609,2509.3172,N,08009.2044,W,1,10,1.4,15,M,,M,,*6D
06/17/2015	08:06:09.517	$GPGGA,080610,2509.3188,N,08009.2039,W,1,10,1.4,15,M,,M,,*6A
06/17/2015	08:06:10.547	$GPGGA,080611,2509.3206,N,08009.2032,W,1,10,1.5,15,M,,M,,*64
06/17/2015	08:06:11.517	$GPGGA,080612,2509.3223,N,08009.2026,W,1,9,1.5,15,M,,M,,*5D
06/17/2015	08:06:12.517	$GPGGA,080613,2509.3239,N,08009.2021,W,1,9,1.4,15,M,,M,,*51
06/17/2015	08:06:13.537	$GPGGA,080614,2509.3257,N,08009.2015,W,1,10,1.4,15,M,,M,,*61
06/17/2015	08:06:14.627	$GPGGA,080615,2509.3274,N,08009.2008,W,1,10,1.4,15,M,,M,,*6D
06/17/2015	08:06:15.557	$GPGGA,080616,2509.3290,N,08009.2003,W,1,10,1.4,15,M,,M,,*6F
06/17/2015	08:06:16.508	$GPGGA,080617,2509.3290,N,08009.2003,W,1,10,1.4,15,M,,M,,*6E
06/17/2015	08:06:17.518	$GPGGA,080618,2509.3326,N,08009.1991,W,1,10,1.4,15,M,,M,,*6C
06/17/2015	08:06:18.508	$GPGGA,080619,2509.3326,N,08009.1991,W,1,10,1.4,15,M,,M,,*6D
06/17/2015	08:06:19.518	$GPGGA,080620,2509.3361,N,08009.1980,W,1,10,1.4,15,M,,M,,*64
06/17/2015	08:06:20.498	$GPGGA,080621,2509.3361,N,08009.1980,W,1,10,1.5,15,M,,M,,*64
06/17/2015	08:06:21.618	$GPGGA,080622,2509.3396,N,08009.1968,W,1,9,1.5,15,M,,M,,*51
06/17/2015	08:06:22.508	$GPGGA,080623,2509.3396,N,08009.1968,W,1,9,1.4,15,M,,M,,*51
06/17/2015	08:06:23.598	$GPGGA,080624,2509.3430,N,08009.1957,W,1,9,1.5,15,M,,M,,*50
06/17/2015	08:06:24.508	$GPGGA,080625,2509.3430,N,08009.1957,W,1,9,1.4,15,M,,M,,*50
06/17/2015	08:06:25.578	$GPGGA,080626,2509.3465,N,08009.1945,W,1,10,1.4,15,M,,M,,*68
06/17/2015	08:06:26.587	$GPGGA,080627,2509.3481,N,08009.1937,W,1,10,1.4,15,M,,M,,*66
06/17/2015	08:06:27.588	$GPGGA,080628,2509.3499,N,08009.1932,W,1,10,1.4,15,M,,M,,*65
06/17/2015	08:06:28.588	$GPGGA,080629,2509.3517,N,08009.1928,W,1,10,1.4,15,M,,M,,*68
06/17/2015	08:06:29.607	$GPGGA,080630,2509.3535,N,08009.1921,W,1,10,1.4,15,M,,M,,*69
06/17/2015	08:06:30.567	$GPGGA,080631,2509.3550,N,08009.1913,W,1,10,1.5,15,M,,M,,*6B
06/17/2015	08:06:31.617	$GPGGA,080632,2509.3568,N,08009.1908,W,1,10,1.4,15,M,,M,,*68
06/17/2015	08:06:32.568	$GPGGA,080633,2509.3585,N,08009.1902,W,1,10,1.4,15,M,,M,,*60
06/17/2015	08:06:33.587	$GPGGA,080634,2509.3602,N,08009.1895,W,1,10,1.4,15,M,,M,,*64
06/17/2015	08:06:34.558	$GPGGA,080635,2509.3618,N,08009.1889,W,1,10,1.4,15,M,,M,,*63
06/17/2015	08:06:35.598	$GPGGA,080636,2509.3636,N,08009.1883,W,1,10,1.4,15,M,,M,,*66
06/17/2015	08:06:36.558	$GPGGA,080637,2509.3653,N,08009.1876,W,1,10,1.4,15,M,,M,,*6E
06/17/2015	08:06:37.568	$GPGGA,080638,2509.3669,N,08009.1870,W,1,10,1.4,15,M,,M,,*6E
06/17/2015	08:06:38.568	$GPGGA,080639,2509.3687,N,08009.1864,W,1,10,1.4,15,M,,M,,*6A
06/17/2015	08:06:39.589	$GPGGA,080640,2509.3705,N,08009.1859,W,1,10,1.4,15,M,,M,,*61
06/17/2015	08:06:40.548	$GPGGA,080641,2509.3723,N,08009.1853,W,1,10,1.4,15,M,,M,,*6E
06/17/2015	08:06:41.578	$GPGGA,080642,2509.3744,N,08009.1847,W,1,9,1.5,15,M,,M,,*50
06/17/2015	08:06:42.558	$GPGGA,080643,2509.3762,N,08009.1842,W,1,9,1.4,15,M,,M,,*51
06/17/2015	08:06:43.577	$GPGGA,080644,2509.3779,N,08009.1837,W,1,10,1.4,15,M,,M,,*66
06/17/2015	08:06:44.547	$GPGGA,080645,2509.3798,N,08009.1830,W,1,10,1.4,15,M,,M,,*6F
06/17/2015	08:06:45.547	$GPGGA,080646,2509.3816,N,08009.1824,W,1,9,1.5,15,M,,M,,*59
06/17/2015	08:06:46.547	$GPGGA,080647,2509.3833,N,08009.1818,W,1,9,1.5,15,M,,M,,*50
06/17/2015	08:06:47.557	$GPGGA,080648,2509.3850,N,08009.1813,W,1,10,1.4,15,M,,M,,*68
06/17/2015	08:06:48.547	$GPGGA,080649,2509.3867,N,08009.1806,W,1,10,1.4,15,M,,M,,*69
06/17/2015	08:06:49.558	$GPGGA,080650,2509.3885,N,08009.1799,W,1,10,1.4,15,M,,M,,*64
06/17/2015	08:06:50.527	$GPGGA,080651,2509.3902,N,08009.1794,W,1,10,1.5,15,M,,M,,*67
06/17/2015	08:06:51.568	$GPGGA,080652,2509.3921,N,08009.1787,W,1,10,1.4,15,M,,M,,*66
06/17/2015	08:06:52.538	$GPGGA,080653,2509.3936,N,08009.1778,W,1,10,1.5,15,M,,M,,*60
06/17/2015	08:06:53.548	$GPGGA,080654,2509.3953,N,08009.1772,W,1,10,1.4,15,M,,M,,*6F
06/17/2015	08:06:54.538	$GPGGA,080655,2509.3971,N,08009.1767,W,1,10,1.4,15,M,,M,,*6A
06/17/2015	08:06:55.538	$GPGGA,080656,2509.3987,N,08009.1760,W,1,10,1.4,15,M,,M,,*67
06/17/2015	08:06:56.538	$GPGGA,080657,2509.4005,N,08009.1753,W,1,10,1.4,15,M,,M,,*62
06/17/2015	08:06:57.548	$GPGGA,080658,2509.4023,N,08009.1748,W,1,10,1.4,15,M,,M,,*63
06/17/2015	08:06:58.538	$GPGGA,080659,2509.4040,N,08009.1741,W,1,10,1.4,15,M,,M,,*6E
06/17/2015	08:06:59.558	$GPGGA,080700,2509.4058,N,08009.1735,W,1,10,1.4,15,M,,M,,*69
06/17/2015	08:07:00.508	$GPGGA,080701,2509.4076,N,08009.1728,W,1,10,1.4,15,M,,M,,*68
06/17/2015	08:07:01.527	$GPGGA,080702,2509.4094,N,08009.1722,W,1,9,1.5,15,M,,M,,*54
06/17/2015	08:07:02.507	$GPGGA,080703,2509.4110,N,08009.1716,W,1,9,1.4,15,M,,M,,*5E
06/17/2015	08:07:03.527	$GPGGA,080704,2509.4128,N,08009.1709,W,1,10,1.4,15,M,,M,,*64
06/17/2015	08:07:04.497	$GPGGA,080705,2509.4146,N,08009.1702,W,1,10,1.4,15,M,,M,,*66
06/17/2015	08:07:05.507	$GPGGA,080706,2509.4163,N,08009.1696,W,1,10,1.4,15,M,,M,,*6E
06/17/2015	08:07:06.617	$GPGGA,080707,2509.4181,N,08009.1690,W,1,10,1.4,15,M,,M,,*65
06/17/2015	08:07:07.627	$GPGGA,080708,2509.4199,N,08009.1682,W,1,10,1.4,15,M,,M,,*60
06/17/2015	08:07:08.507	$GPGGA,080709,2509.4214,N,08009.1675,W,1,10,1.5,15,M,,M,,*6E
06/17/2015	08:07:09.608	$GPGGA,080710,2509.4235,N,08009.1669,W,1,10,1.4,15,M,,M,,*69
06/17/2015	08:07:10.508	$GPGGA,080711,2509.4253,N,08009.1662,W,1,10,1.4,15,M,,M,,*63
06/17/2015	08:07:11.608	$GPGGA,080712,2509.4269,N,08009.1656,W,1,9,1.5,15,M,,M,,*57
06/17/2015	08:07:12.498	$GPGGA,080713,2509.4287,N,08009.1649,W,1,9,1.4,15,M,,M,,*59
06/17/2015	08:07:13.488	$GPGGA,080714,2509.4305,N,08009.1642,W,1,10,1.4,15,M,,M,,*66
06/17/2015	08:07:14.589	$GPGGA,080715,2509.4321,N,08009.1635,W,1,10,1.4,15,M,,M,,*61
06/17/2015	08:07:16.528	$GPGGA,080717,2509.4355,N,08009.1621,W,1,10,1.4,15,M,,M,,*65
06/17/2015	08:07:17.578	$GPGGA,080718,2509.4373,N,08009.1615,W,1,10,1.4,15,M,,M,,*69
06/17/2015	08:07:18.591	$GPGGA,080719,2509.4391,N,08009.1608,W,1,10,1.4,15,M,,M,,*68
06/17/2015	08:07:19.607	$GPGGA,080720,2509.4406,N,08009.1601,W,1,10,1.4,15,M,,M,,*62
06/17/2015	08:07:20.580	$GPGGA,080721,2509.4424,N,08009.1595,W,1,10,1.4,14,M,,M,,*6C
06/17/2015	08:07:21.587	$GPGGA,080722,2509.4442,N,08009.1588,W,1,10,1.4,14,M,,M,,*63
06/17/2015	08:07:22.567	$GPGGA,080723,2509.4459,N,08009.1581,W,1,10,1.4,14,M,,M,,*61
06/17/2015	08:07:23.597	$GPGGA,080724,2509.4477,N,08009.1576,W,1,10,1.4,14,M,,M,,*62
06/17/2015	08:07:24.567	$GPGGA,080725,2509.4493,N,08009.1569,W,1,10,1.4,14,M,,M,,*67
06/17/2015	08:07:25.577	$GPGGA,080726,2509.4511,N,08009.1561,W,1,10,1.4,14,M,,M,,*67
06/17/2015	08:07:26.568	$GPGGA,080727,2509.4529,N,08009.1556,W,1,10,1.5,14,M,,M,,*68
06/17/2015	08:07:27.588	$GPGGA,080728,2509.4547,N,08009.1550,W,1,10,1.4,14,M,,M,,*68
06/17/2015	08:07:28.548	$GPGGA,080729,2509.4564,N,08009.1542,W,1,10,1.4,14,M,,M,,*6B
06/17/2015	08:07:29.558	$GPGGA,080730,2509.4582,N,08009.1537,W,1,10,1.4,14,M,,M,,*69
06/17/2015	08:07:30.558	$GPGGA,080731,2509.4599,N,08009.1532,W,1,10,1.5,14,M,,M,,*66
06/17/2015	08:07:31.578	$GPGGA,080732,2509.4617,N,08009.1524,W,1,9,1.5,14,M,,M,,*5F
06/17/2015	08:07:32.538	$GPGGA,080733,2509.4633,N,08009.1518,W,1,9,1.4,14,M,,M,,*56
06/17/2015	08:07:33.558	$GPGGA,080734,2509.4650,N,08009.1512,W,1,10,1.4,14,M,,M,,*66
06/17/2015	08:07:34.548	$GPGGA,080735,2509.4668,N,08009.1505,W,1,10,1.4,14,M,,M,,*6A
06/17/2015	08:07:35.548	$GPGGA,080736,2509.4684,N,08009.1498,W,1,10,1.4,14,M,,M,,*6E
06/17/2015	08:07:36.547	$GPGGA,080737,2509.4702,N,08009.1492,W,1,10,1.4,14,M,,M,,*6A
06/17/2015	08:07:37.537	$GPGGA,080738,2509.4719,N,08009.1486,W,1,10,1.4,14,M,,M,,*6A
06/17/2015	08:07:38.547	$GPGGA,080739,2509.4734,N,08009.1479,W,1,10,1.4,14,M,,M,,*64
06/17/2015	08:07:39.577	$GPGGA,080740,2509.4752,N,08009.1472,W,1,10,1.4,14,M,,M,,*61
06/17/2015	08:07:40.537	$GPGGA,080741,2509.4771,N,08009.1467,W,1,10,1.4,14,M,,M,,*65
06/17/2015	08:07:41.537	$GPGGA,080742,2509.4788,N,08009.1460,W,1,9,1.5,14,M,,M,,*5E
06/17/2015	08:07:42.527	$GPGGA,080743,2509.4805,N,08009.1454,W,1,9,1.4,14,M,,M,,*53
06/17/2015	08:07:43.557	$GPGGA,080744,2509.4823,N,08009.1446,W,1,10,1.4,14,M,,M,,*6B
06/17/2015	08:07:44.538	$GPGGA,080745,2509.4839,N,08009.1440,W,1,10,1.4,14,M,,M,,*67
06/17/2015	08:07:45.558	$GPGGA,080746,2509.4856,N,08009.1433,W,1,10,1.4,14,M,,M,,*69
06/17/2015	08:07:46.528	$GPGGA,080747,2509.4872,N,08009.1427,W,1,10,1.4,14,M,,M,,*6B
06/17/2015	08:07:47.528	$GPGGA,080748,2509.4890,N,08009.1419,W,1,10,1.4,14,M,,M,,*65
06/17/2015	08:07:48.528	$GPGGA,080749,2509.4908,N,08009.1413,W,1,10,1.4,14,M,,M,,*6E
06/17/2015	08:07:49.548	$GPGGA,080750,2509.4926,N,08009.1407,W,1,10,1.4,14,M,,M,,*6F
06/17/2015	08:07:50.518	$GPGGA,080751,2509.4944,N,08009.1400,W,1,10,1.4,14,M,,M,,*6D
06/17/2015	08:07:51.528	$GPGGA,080752,2509.4962,N,08009.1394,W,1,9,1.5,14,M,,M,,*59
06/17/2015	08:07:52.518	$GPGGA,080753,2509.4980,N,08009.1390,W,1,9,1.4,14,M,,M,,*51
06/17/2015	08:07:53.517	$GPGGA,080754,2509.4998,N,08009.1382,W,1,10,1.4,14,M,,M,,*64
06/17/2015	08:07:54.497	$GPGGA,080755,2509.5016,N,08009.1376,W,1,10,1.4,14,M,,M,,*60
06/17/2015	08:07:55.537	$GPGGA,080756,2509.5034,N,08009.1370,W,1,9,1.5,14,M,,M,,*5C
06/17/2015	08:07:56.497	$GPGGA,080757,2509.5052,N,08009.1363,W,1,9,1.5,14,M,,M,,*5F
06/17/2015	08:07:57.517	$GPGGA,080758,2509.5069,N,08009.1358,W,1,10,1.4,14,M,,M,,*69
06/17/2015	08:07:58.497	$GPGGA,080759,2509.5085,N,08009.1349,W,1,10,1.4,14,M,,M,,*6A
06/17/2015	08:07:59.527	$GPGGA,080800,2509.5103,N,08009.1343,W,1,10,1.4,14,M,,M,,*6C
06/17/2015	08:08:00.507	$GPGGA,080801,2509.5121,N,08009.1339,W,1,10,1.5,14,M,,M,,*61
06/17/2015	08:08:01.498	$GPGGA,080802,2509.5139,N,08009.1332,W,1,9,1.5,14,M,,M,,*58
06/17/2015	08:08:02.498	$GPGGA,080803,2509.5157,N,08009.1324,W,1,9,1.4,14,M,,M,,*57
06/17/2015	08:08:03.638	$GPGGA,080804,2509.5175,N,08009.1319,W,1,10,1.4,14,M,,M,,*66
06/17/2015	08:08:04.588	$GPGGA,080805,2509.5193,N,08009.1313,W,1,10,1.4,14,M,,M,,*65
06/17/2015	08:08:05.618	$GPGGA,080806,2509.5211,N,08009.1306,W,1,10,1.4,14,M,,M,,*6B
06/17/2015	08:08:06.568	$GPGGA,080807,2509.5228,N,08009.1298,W,1,10,1.4,14,M,,M,,*66
06/17/2015	08:08:07.628	$GPGGA,080808,2509.5244,N,08009.1292,W,1,10,1.4,14,M,,M,,*69
06/17/2015	08:08:08.568	$GPGGA,080809,2509.5262,N,08009.1287,W,1,10,1.4,14,M,,M,,*68
06/17/2015	08:08:09.578	$GPGGA,080810,2509.5280,N,08009.1279,W,1,10,1.4,14,M,,M,,*6D
06/17/2015	08:08:10.578	$GPGGA,080811,2509.5297,N,08009.1271,W,1,10,1.4,14,M,,M,,*62
06/17/2015	08:08:11.577	$GPGGA,080812,2509.5315,N,08009.1265,W,1,10,1.4,14,M,,M,,*6F
06/17/2015	08:08:12.557	$GPGGA,080813,2509.5333,N,08009.1260,W,1,10,1.4,14,M,,M,,*6F
06/17/2015	08:08:13.587	$GPGGA,080814,2509.5349,N,08009.1252,W,1,10,1.4,14,M,,M,,*64
06/17/2015	08:08:14.567	$GPGGA,080815,2509.5367,N,08009.1243,W,1,10,1.4,14,M,,M,,*69
06/17/2015	08:08:15.577	$GPGGA,080816,2509.5385,N,08009.1239,W,1,10,1.4,14,M,,M,,*6B
06/17/2015	08:08:16.567	$GPGGA,080817,2509.5402,N,08009.1233,W,1,10,1.4,14,M,,M,,*68
06/17/2015	08:08:17.567	$GPGGA,080818,2509.5419,N,08009.1224,W,1,10,1.4,14,M,,M,,*6B
06/17/2015	08:08:18.557	$GPGGA,080819,2509.5435,N,08009.1216,W,1,10,1.4,14,M,,M,,*65
06/17/2015	08:08:19.589	$GPGGA,080820,2509.5453,N,08009.1212,W,1,10,1.4,14,M,,M,,*6B
06/17/2015	08:08:20.548	$GPGGA,080821,2509.5471,N,08009.1206,W,1,10,1.4,14,M,,M,,*6F
06/17/2015	08:08:21.558	$GPGGA,080822,2509.5488,N,08009.1196,W,1,10,1.4,14,M,,M,,*60
06/17/2015	08:08:22.548	$GPGGA,080823,2509.5506,N,08009.1191,W,1,10,1.4,14,M,,M,,*61
06/17/2015	08:08:23.568	$GPGGA,080824,2509.5522,N,08009.1186,W,1,10,1.4,14,M,,M,,*66
06/17/2015	08:08:24.538	$GPGGA,080825,2509.5540,N,08009.1177,W,1,10,1.4,14,M,,M,,*6D
06/17/2015	08:08:25.548	$GPGGA,080826,2509.5558,N,08009.1170,W,1,10,1.4,14,M,,M,,*60
06/17/2015	08:08:26.548	$GPGGA,080827,2509.5576,N,08009.1166,W,1,10,1.4,14,M,,M,,*6A
06/17/2015	08:08:27.578	$GPGGA,080828,2509.5593,N,08009.1159,W,1,10,1.4,14,M,,M,,*62
06/17/2015	08:08:28.547	$GPGGA,080829,2509.5609,N,08009.1150,W,1,10,1.4,14,M,,M,,*6A
06/17/2015	08:08:29.567	$GPGGA,080830,2509.5627,N,08009.1146,W,1,10,1.4,14,M,,M,,*69
06/17/2015	08:08:30.537	$GPGGA,080831,2509.5645,N,08009.1139,W,1,10,1.4,14,M,,M,,*64
06/17/2015	08:08:31.537	$GPGGA,080832,2509.5662,N,08009.1132,W,1,10,1.4,14,M,,M,,*69
06/17/2015	08:08:32.537	$GPGGA,080833,2509.5680,N,08009.1126,W,1,10,1.5,14,M,,M,,*60
06/17/2015	08:08:33.517	$GPGGA,080834,2509.5698,N,08009.1120,W,1,10,1.4,14,M,,M,,*69
06/17/2015	08:08:34.517	$GPGGA,080835,2509.5716,N,08009.1113,W,1,10,1.4,14,M,,M,,*6F
06/17/2015	08:08:35.537	$GPGGA,080836,2509.5734,N,08009.1107,W,1,9,1.5,14,M,,M,,*50
06/17/2015	08:08:36.518	$GPGGA,080837,2509.5750,N,08009.1101,W,1,9,1.5,14,M,,M,,*55
06/17/2015	08:08:37.538	$GPGGA,080838,2509.5768,N,08009.1094,W,1,10,1.4,14,M,,M,,*65
06/17/2015	08:08:38.528	$GPGGA,080839,2509.5786,N,08009.1087,W,1,10,1.4,14,M,,M,,*66
06/17/2015	08:08:39.538	$GPGGA,080840,2509.5803,N,08009.1081,W,1,10,1.4,14,M,,M,,*6C
06/17/2015	08:08:40.508	$GPGGA,080841,2509.5822,N,08009.1074,W,1,10,1.4,14,M,,M,,*64
06/17/2015	08:08:41.518	$GPGGA,080842,2509.5839,N,08009.1067,W,1,9,1.5,14,M,,M,,*56
06/17/2015	08:08:42.598	$GPGGA,080843,2509.5855,N,08009.1060,W,1,9,1.4,14,M,,M,,*5B
06/17/2015	08:08:43.638	$GPGGA,080844,2509.5872,N,08009.1053,W,1,10,1.4,14,M,,M,,*61
06/17/2015	08:08:44.538	$GPGGA,080845,2509.5887,N,08009.1046,W,1,10,1.4,14,M,,M,,*6E
06/17/2015	08:08:45.508	$GPGGA,080846,2509.5905,N,08009.1040,W,1,10,1.4,14,M,,M,,*60
06/17/2015	08:08:46.497	$GPGGA,080847,2509.5923,N,08009.1033,W,1,10,1.4,14,M,,M,,*61
06/17/2015	08:08:47.617	$GPGGA,080848,2509.5941,N,08009.1027,W,1,9,1.5,14,M,,M,,*56
06/17/2015	08:08:48.497	$GPGGA,080849,2509.5958,N,08009.1021,W,1,9,1.4,14,M,,M,,*58
06/17/2015	08:08:49.497	$GPGGA,080850,2509.5974,N,08009.1013,W,1,10,1.4,14,M,,M,,*67
06/17/2015	08:08:50.488	$GPGGA,080851,2509.5992,N,08009.1006,W,1,10,1.4,14,M,,M,,*6A
06/17/2015	08:08:51.487	$GPGGA,080852,2509.6010,N,08009.1002,W,1,9,1.5,14,M,,M,,*54
06/17/2015	08:08:52.488	$GPGGA,080853,2509.6028,N,08009.0995,W,1,9,1.4,14,M,,M,,*59
06/17/2015	08:08:53.487	$GPGGA,080854,2509.6046,N,08009.0987,W,1,10,1.4,14,M,,M,,*6D
06/17/2015	08:08:54.488	$GPGGA,080855,2509.6060,N,08009.0981,W,1,10,1.5,14,M,,M,,*6F
06/17/2015	08:08:55.498	$GPGGA,080856,2509.6079,N,08009.0977,W,1,10,1.4,14,M,,M,,*6C
06/17/2015	08:08:56.590	$GPGGA,080857,2509.6096,N,08009.0969,W,1,10,1.5,14,M,,M,,*62
06/17/2015	08:08:57.618	$GPGGA,080858,2509.6113,N,08009.0960,W,1,10,1.4,14,M,,M,,*69
06/17/2015	08:08:58.568	$GPGGA,080859,2509.6129,N,08009.0956,W,1,10,1.4,14,M,,M,,*64
06/17/2015	08:08:59.608	$GPGGA,080900,2509.6147,N,08009.0950,W,1,10,1.4,14,M,,M,,*67
06/17/2015	08:09:00.568	$GPGGA,080901,2509.6162,N,08009.0941,W,1,10,1.4,14,M,,M,,*61
06/17/2015	08:09:01.589	$GPGGA,080902,2509.6180,N,08009.0934,W,1,10,1.4,14,M,,M,,*6C
06/17/2015	08:09:02.558	$GPGGA,080903,2509.6197,N,08009.0930,W,1,10,1.4,14,M,,M,,*6F
06/17/2015	08:09:03.597	$GPGGA,080904,2509.6214,N,08009.0922,W,1,10,1.4,14,M,,M,,*63
06/17/2015	08:09:04.857	$GPGGA,080905,2509.6230,N,08009.0914,W,1,10,1.4,14,M,,M,,*61
06/17/2015	08:09:05.567	$GPGGA,080906,2509.6245,N,08009.0908,W,1,10,1.4,14,M,,M,,*6D
06/17/2015	08:09:06.547	$GPGGA,080907,2509.6263,N,08009.0902,W,1,10,1.4,14,M,,M,,*62
06/17/2015	08:09:07.578	$GPGGA,080908,2509.6280,N,08009.0894,W,1,10,1.4,14,M,,M,,*6E
06/17/2015	08:09:08.537	$GPGGA,080909,2509.6297,N,08009.0888,W,1,10,1.4,14,M,,M,,*64
06/17/2015	08:09:09.557	$GPGGA,080910,2509.6315,N,08009.0882,W,1,10,1.4,14,M,,M,,*6D
06/17/2015	08:09:10.537	$GPGGA,080911,2509.6333,N,08009.0874,W,1,10,1.4,14,M,,M,,*61
06/17/2015	08:09:11.597	$GPGGA,080912,2509.6349,N,08009.0868,W,1,10,1.4,14,M,,M,,*62
06/17/2015	08:09:12.537	$GPGGA,080913,2509.6367,N,08009.0862,W,1,10,1.4,14,M,,M,,*65
06/17/2015	08:09:13.557	$GPGGA,080914,2509.6385,N,08009.0854,W,1,10,1.4,14,M,,M,,*6B
06/17/2015	08:09:14.537	$GPGGA,080915,2509.6400,N,08009.0848,W,1,10,1.4,14,M,,M,,*6D
06/17/2015	08:09:15.557	$GPGGA,080916,2509.6418,N,08009.0842,W,1,10,1.4,14,M,,M,,*6D
06/17/2015	08:09:16.527	$GPGGA,080917,2509.6436,N,08009.0836,W,1,10,1.4,14,M,,M,,*63
06/17/2015	08:09:17.557	$GPGGA,080918,2509.6453,N,08009.0828,W,1,10,1.4,14,M,,M,,*60
06/17/2015	08:09:18.517	$GPGGA,080919,2509.6471,N,08009.0822,W,1,10,1.5,14,M,,M,,*6A
06/17/2015	08:09:19.567	$GPGGA,080920,2509.6489,N,08009.0816,W,1,10,1.4,14,M,,M,,*61
06/17/2015	08:09:20.527	$GPGGA,080921,2509.6505,N,08009.0809,W,1,10,1.4,14,M,,M,,*6B
06/17/2015	08:09:21.526	$GPGGA,080922,2509.6523,N,08009.0802,W,1,10,1.4,14,M,,M,,*67
06/17/2015	08:09:22.517	$GPGGA,080923,2509.6541,N,08009.0795,W,1,10,1.5,14,M,,M,,*62
06/17/2015	08:09:23.547	$GPGGA,080924,2509.6559,N,08009.0790,W,1,10,1.4,14,M,,M,,*68
06/17/2015	08:09:24.517	$GPGGA,080925,2509.6576,N,08009.0783,W,1,10,1.4,14,M,,M,,*66
06/17/2015	08:09:25.537	$GPGGA,080926,2509.6594,N,08009.0776,W,1,10,1.4,14,M,,M,,*63
06/17/2015	08:09:26.507	$GPGGA,080927,2509.6610,N,08009.0769,W,1,10,1.5,14,M,,M,,*62
06/17/2015	08:09:27.517	$GPGGA,080928,2509.6628,N,08009.0762,W,1,10,1.4,14,M,,M,,*6C
06/17/2015	08:09:28.617	$GPGGA,080929,2509.6646,N,08009.0755,W,1,10,1.5,14,M,,M,,*60
06/17/2015	08:09:29.517	$GPGGA,080930,2509.6664,N,08009.0748,W,1,9,1.5,14,M,,M,,*5C
06/17/2015	08:09:30.517	$GPGGA,080931,2509.6681,N,08009.0741,W,1,9,1.4,14,M,,M,,*5E
06/17/2015	08:09:31.657	$GPGGA,080932,2509.6696,N,08009.0734,W,1,10,1.4,14,M,,M,,*61
06/17/2015	08:09:32.497	$GPGGA,080933,2509.6714,N,08009.0727,W,1,10,1.4,14,M,,M,,*69
06/17/2015	08:09:33.527	$GPGGA,080934,2509.6731,N,08009.0719,W,1,10,1.4,14,M,,M,,*64
06/17/2015	08:09:34.507	$GPGGA,080935,2509.6747,N,08009.0712,W,1,10,1.4,14,M,,M,,*6F
06/17/2015	08:09:35.657	$GPGGA,080936,2509.6768,N,08009.0706,W,1,9,1.4,14,M,,M,,*5C
06/17/2015	08:09:36.507	$GPGGA,080937,2509.6786,N,08009.0699,W,1,9,1.4,14,M,,M,,*5A
06/17/2015	08:09:37.507	$GPGGA,080938,2509.6805,N,08009.0691,W,1,10,1.4,14,M,,M,,*61
06/17/2015	08:09:38.486	$GPGGA,080939,2509.6823,N,08009.0685,W,1,10,1.5,14,M,,M,,*60
06/17/2015	08:09:39.497	$GPGGA,080940,2509.6843,N,08009.0679,W,1,10,1.4,14,M,,M,,*6A
06/17/2015	08:09:40.577	$GPGGA,080941,2509.6861,N,08009.0671,W,1,10,1.4,14,M,,M,,*63
06/17/2015	08:09:41.597	$GPGGA,080942,2509.6879,N,08009.0664,W,1,10,1.5,14,M,,M,,*6C
06/17/2015	08:09:42.487	$GPGGA,080943,2509.6898,N,08009.0659,W,1,10,1.5,14,M,,M,,*6C
06/17/2015	08:09:43.587	$GPGGA,080944,2509.6917,N,08009.0652,W,1,10,1.4,14,M,,M,,*67
06/17/2015	08:09:44.567	$GPGGA,080945,2509.6935,N,08009.0645,W,1,10,1.4,14,M,,M,,*60
06/17/2015	08:09:45.577	$GPGGA,080946,2509.6953,N,08009.0638,W,1,10,1.5,14,M,,M,,*68
06/17/2015	08:09:46.567	$GPGGA,080947,2509.6971,N,08009.0631,W,1,10,1.4,14,M,,M,,*61
06/17/2015	08:09:47.597	$GPGGA,080948,2509.6987,N,08009.0623,W,1,10,1.4,14,M,,M,,*64
06/17/2015	08:09:48.567	$GPGGA,080949,2509.7003,N,08009.0615,W,1,10,1.4,14,M,,M,,*64
06/17/2015	08:09:49.567	$GPGGA,080950,2509.7021,N,08009.0608,W,1,10,1.4,14,M,,M,,*60
06/17/2015	08:09:50.558	$GPGGA,080951,2509.7039,N,08009.0602,W,1,10,1.4,14,M,,M,,*62
06/17/2015	08:09:51.597	$GPGGA,080952,2509.7057,N,08009.0595,W,1,10,1.4,14,M,,M,,*64
06/17/2015	08:09:52.557	$GPGGA,080953,2509.7075,N,08009.0586,W,1,10,1.4,14,M,,M,,*67
06/17/2015	08:09:53.567	$GPGGA,080954,2509.7093,N,08009.0580,W,1,10,1.4,14,M,,M,,*6E
06/17/2015	08:09:54.557	$GPGGA,080955,2509.7112,N,08009.0574,W,1,10,1.4,14,M,,M,,*6C
06/17/2015	08:09:55.577	$GPGGA,080956,2509.7129,N,08009.0567,W,1,10,1.4,14,M,,M,,*65
06/17/2015	08:09:56.847	$GPGGA,080957,2509.7147,N,08009.0560,W,1,10,1.4,14,M,,M,,*6B
06/17/2015	08:09:57.567	$GPGGA,080958,2509.7165,N,08009.0552,W,1,10,1.4,14,M,,M,,*65
06/17/2015	08:09:58.547	$GPGGA,080959,2509.7182,N,08009.0546,W,1,10,1.4,14,M,,M,,*68
06/17/2015	08:09:59.589	$GPGGA,081000,2509.7199,N,08009.0539,W,1,10,1.4,14,M,,M,,*6E
06/17/2015	08:10:00.537	$GPGGA,081001,2509.7217,N,08009.0531,W,1,10,1.5,14,M,,M,,*63
06/17/2015	08:10:01.557	$GPGGA,081002,2509.7237,N,08009.0525,W,1,9,1.5,14,M,,M,,*5F
06/17/2015	08:10:02.527	$GPGGA,081003,2509.7255,N,08009.0520,W,1,9,1.4,14,M,,M,,*5E
06/17/2015	08:10:03.607	$GPGGA,081004,2509.7273,N,08009.0513,W,1,10,1.4,14,M,,M,,*65
06/17/2015	08:10:04.537	$GPGGA,081005,2509.7289,N,08009.0505,W,1,10,1.4,14,M,,M,,*66
06/17/2015	08:10:05.547	$GPGGA,081006,2509.7307,N,08009.0498,W,1,10,1.4,14,M,,M,,*67
06/17/2015	08:10:06.527	$GPGGA,081007,2509.7324,N,08009.0491,W,1,10,1.6,14,M,,M,,*6C
06/17/2015	08:10:07.557	$GPGGA,081008,2509.7342,N,08009.0485,W,1,9,1.4,14,M,,M,,*5C
06/17/2015	08:10:08.507	$GPGGA,081009,2509.7359,N,08009.0477,W,1,9,1.4,14,M,,M,,*5A
06/17/2015	08:10:09.547	$GPGGA,081010,2509.7378,N,08009.0469,W,1,10,1.4,14,M,,M,,*66
06/17/2015	08:10:10.527	$GPGGA,081011,2509.7397,N,08009.0465,W,1,10,1.5,14,M,,M,,*6B
06/17/2015	08:10:11.547	$GPGGA,081012,2509.7415,N,08009.0458,W,1,9,1.4,14,M,,M,,*52
06/17/2015	08:10:12.527	$GPGGA,081013,2509.7432,N,08009.0449,W,1,9,1.4,14,M,,M,,*56
06/17/2015	08:10:13.527	$GPGGA,081014,2509.7448,N,08009.0443,W,1,10,1.4,14,M,,M,,*6E
06/17/2015	08:10:14.527	$GPGGA,081015,2509.7468,N,08009.0439,W,1,10,1.5,14,M,,M,,*61
06/17/2015	08:10:15.547	$GPGGA,081016,2509.7484,N,08009.0430,W,1,9,1.4,14,M,,M,,*50
06/17/2015	08:10:16.517	$GPGGA,081017,2509.7502,N,08009.0423,W,1,9,1.5,14,M,,M,,*5D
06/17/2015	08:10:17.527	$GPGGA,081018,2509.7520,N,08009.0419,W,1,9,1.4,14,M,,M,,*5A
06/17/2015	08:10:18.517	$GPGGA,081019,2509.7538,N,08009.0413,W,1,9,1.4,14,M,,M,,*58
06/17/2015	08:10:19.527	$GPGGA,081020,2509.7555,N,08009.0404,W,1,10,1.4,14,M,,M,,*67
06/17/2015	08:10:20.497	$GPGGA,081021,2509.7573,N,08009.0398,W,1,10,1.5,14,M,,M,,*61
06/17/2015	08:10:21.517	$GPGGA,081022,2509.7591,N,08009.0394,W,1,9,1.5,14,M,,M,,*5A
06/17/2015	08:10:22.497	$GPGGA,081023,2509.7607,N,08009.0386,W,1,9,1.4,14,M,,M,,*55
06/17/2015	08:10:23.527	$GPGGA,081024,2509.7624,N,08009.0378,W,1,10,1.4,14,M,,M,,*6A
06/17/2015	08:10:24.607	$GPGGA,081025,2509.7642,N,08009.0373,W,1,10,1.4,14,M,,M,,*60
06/17/2015	08:10:25.517	$GPGGA,081026,2509.7661,N,08009.0367,W,1,10,1.5,14,M,,M,,*66
06/17/2015	08:10:26.597	$GPGGA,081027,2509.7675,N,08009.0358,W,1,10,1.5,14,M,,M,,*6E
06/17/2015	08:10:27.547	$GPGGA,081028,2509.7692,N,08009.0351,W,1,10,1.4,14,M,,M,,*60
06/17/2015	08:10:28.577	$GPGGA,081029,2509.7711,N,08009.0346,W,1,10,1.4,14,M,,M,,*6D
06/17/2015	08:10:29.597	$GPGGA,081030,2509.7728,N,08009.0339,W,1,10,1.4,14,M,,M,,*67
06/17/2015	08:10:30.577	$GPGGA,081031,2509.7744,N,08009.0331,W,1,10,1.5,14,M,,M,,*65
06/17/2015	08:10:31.588	$GPGGA,081032,2509.7762,N,08009.0325,W,1,9,1.5,14,M,,M,,*5F
06/17/2015	08:10:32.567	$GPGGA,081033,2509.7780,N,08009.0320,W,1,9,1.4,14,M,,M,,*56
06/17/2015	08:10:33.577	$GPGGA,081034,2509.7797,N,08009.0312,W,1,10,1.4,14,M,,M,,*6E
06/17/2015	08:10:34.568	$GPGGA,081035,2509.7813,N,08009.0304,W,1,10,1.4,14,M,,M,,*6B
06/17/2015	08:10:35.577	$GPGGA,081036,2509.7831,N,08009.0298,W,1,10,1.4,14,M,,M,,*6C
06/17/2015	08:10:36.827	$GPGGA,081037,2509.7849,N,08009.0293,W,1,10,1.4,14,M,,M,,*69
06/17/2015	08:10:37.578	$GPGGA,081038,2509.7866,N,08009.0284,W,1,9,1.4,14,M,,M,,*55
06/17/2015	08:10:38.567	$GPGGA,081039,2509.7883,N,08009.0278,W,1,9,1.4,14,M,,M,,*5C
06/17/2015	08:10:39.577	$GPGGA,081040,2509.7899,N,08009.0274,W,1,9,1.4,14,M,,M,,*55
06/17/2015	08:10:40.558	$GPGGA,081041,2509.7914,N,08009.0265,W,1,9,1.4,14,M,,M,,*50
06/17/2015	08:10:41.567	$GPGGA,081042,2509.7932,N,08009.0258,W,1,10,1.5,14,M,,M,,*60
06/17/2015	08:10:42.557	$GPGGA,081043,2509.7949,N,08009.0254,W,1,10,1.5,14,M,,M,,*61
06/17/2015	08:10:43.577	$GPGGA,081044,2509.7968,N,08009.0247,W,1,10,1.4,13,M,,M,,*61
06/17/2015	08:10:44.547	$GPGGA,081045,2509.7984,N,08009.0241,W,1,10,1.4,13,M,,M,,*64
06/17/2015	08:10:45.997	$GPGGA,081046,2509.8000,N,08009.0235,W,1,10,1.4,13,M,,M,,*6E
06/17/2015	08:10:46.547	$GPGGA,081047,2509.8018,N,08009.0229,W,1,10,1.4,13,M,,M,,*6B
06/17/2015	08:10:47.577	$GPGGA,081048,2509.8035,N,08009.0223,W,1,10,1.4,13,M,,M,,*61
06/17/2015	08:10:48.546	$GPGGA,081049,2509.8051,N,08009.0217,W,1,10,1.4,13,M,,M,,*65
06/17/2015	08:10:49.557	$GPGGA,081050,2509.8069,N,08009.0210,W,1,10,1.4,13,M,,M,,*61
06/17/2015	08:10:50.547	$GPGGA,081051,2509.8086,N,08009.0204,W,1,10,1.4,13,M,,M,,*64
06/17/2015	08:10:51.567	$GPGGA,081052,2509.8104,N,08009.0198,W,1,10,1.4,13,M,,M,,*6A
06/17/2015	08:10:52.537	$GPGGA,081053,2509.8120,N,08009.0192,W,1,10,1.4,13,M,,M,,*67
06/17/2015	08:10:53.527	$GPGGA,081054,2509.8138,N,08009.0185,W,1,10,1.4,13,M,,M,,*6F
06/17/2015	08:10:54.537	$GPGGA,081055,2509.8155,N,08009.0179,W,1,10,1.4,13,M,,M,,*66
06/17/2015	08:10:55.567	$GPGGA,081056,2509.8172,N,08009.0173,W,1,10,1.4,13,M,,M,,*6A
06/17/2015	08:10:56.527	$GPGGA,081057,2509.8190,N,08009.0166,W,1,10,1.4,13,M,,M,,*63
06/17/2015	08:10:57.537	$GPGGA,081058,2509.8208,N,08009.0159,W,1,9,1.5,13,M,,M,,*5B
06/17/2015	08:10:58.527	$GPGGA,081059,2509.8224,N,08009.0154,W,1,9,1.4,13,M,,M,,*58
06/17/2015	08:10:59.567	$GPGGA,081100,2509.8242,N,08009.0146,W,1,10,1.4,13,M,,M,,*6E
06/17/2015	08:11:00.537	$GPGGA,081101,2509.8259,N,08009.0140,W,1,10,1.4,13,M,,M,,*63
06/17/2015	08:11:01.537	$GPGGA,081102,2509.8277,N,08009.0134,W,1,10,1.4,13,M,,M,,*6F
06/17/2015	08:11:02.517	$GPGGA,081103,2509.8295,N,08009.0127,W,1,10,1.5,13,M,,M,,*61
06/17/2015	08:11:03.517	$GPGGA,081104,2509.8311,N,08009.0121,W,1,10,1.4,13,M,,M,,*6C
06/17/2015	08:11:04.627	$GPGGA,081105,2509.8329,N,08009.0115,W,1,10,1.4,13,M,,M,,*61
06/17/2015	08:11:06.548	$GPGGA,081107,2509.8364,N,08009.0101,W,1,10,1.4,13,M,,M,,*6F
06/17/2015	08:11:07.527	$GPGGA,081108,2509.8380,N,08009.0096,W,1,10,1.4,13,M,,M,,*65
06/17/2015	08:11:08.597	$GPGGA,081109,2509.8398,N,08009.0088,W,1,10,1.4,13,M,,M,,*62
06/17/2015	08:11:09.507	$GPGGA,081110,2509.8415,N,08009.0081,W,1,10,1.4,13,M,,M,,*61
06/17/2015	08:11:10.507	$GPGGA,081111,2509.8433,N,08009.0076,W,1,10,1.5,13,M,,M,,*6D
06/17/2015	08:11:11.527	$GPGGA,081112,2509.8451,N,08009.0069,W,1,10,1.5,13,M,,M,,*64
06/17/2015	08:11:12.608	$GPGGA,081113,2509.8466,N,08009.0062,W,1,10,1.5,13,M,,M,,*6A
06/17/2015	08:11:13.507	$GPGGA,081114,2509.8484,N,08009.0056,W,1,10,1.5,13,M,,M,,*66
06/17/2015	08:11:14.487	$GPGGA,081115,2509.8503,N,08009.0050,W,1,10,1.5,13,M,,M,,*6F
06/17/2015	08:11:15.597	$GPGGA,081116,2509.8519,N,08009.0043,W,1,10,1.5,13,M,,M,,*65
06/17/2015	08:11:16.497	$GPGGA,081117,2509.8537,N,08009.0036,W,1,10,1.4,13,M,,M,,*6B
06/17/2015	08:11:17.597	$GPGGA,081118,2509.8553,N,08009.0030,W,1,9,1.5,13,M,,M,,*59
06/17/2015	08:11:18.487	$GPGGA,081119,2509.8570,N,08009.0023,W,1,9,1.4,13,M,,M,,*5A
06/17/2015	08:11:19.627	$GPGGA,081120,2509.8588,N,08009.0015,W,1,10,1.4,13,M,,M,,*6A
06/17/2015	08:11:20.578	$GPGGA,081121,2509.8604,N,08009.0008,W,1,10,1.4,13,M,,M,,*60
06/17/2015	08:11:21.577	$GPGGA,081122,2509.8621,N,08009.0001,W,1,10,1.4,13,M,,M,,*6D
06/17/2015	08:11:22.567	$GPGGA,081123,2509.8639,N,08008.9995,W,1,10,1.5,13,M,,M,,*68
06/17/2015	08:11:23.586	$GPGGA,081124,2509.8656,N,08008.9990,W,1,10,1.5,13,M,,M,,*63
06/17/2015	08:11:24.567	$GPGGA,081125,2509.8672,N,08008.9981,W,1,10,1.5,13,M,,M,,*64
06/17/2015	08:11:25.597	$GPGGA,081126,2509.8690,N,08008.9975,W,1,10,1.5,13,M,,M,,*60
06/17/2015	08:11:26.567	$GPGGA,081127,2509.8708,N,08008.9972,W,1,10,1.5,13,M,,M,,*66
06/17/2015	08:11:27.567	$GPGGA,081128,2509.8723,N,08008.9965,W,1,9,1.5,13,M,,M,,*5E
06/17/2015	08:11:28.557	$GPGGA,081129,2509.8740,N,08008.9956,W,1,9,1.6,13,M,,M,,*59
06/17/2015	08:11:29.577	$GPGGA,081130,2509.8755,N,08008.9952,W,1,10,1.5,13,M,,M,,*6A
06/17/2015	08:11:30.557	$GPGGA,081131,2509.8774,N,08008.9948,W,1,10,1.5,13,M,,M,,*63
06/17/2015	08:11:31.587	$GPGGA,081132,2509.8792,N,08008.9939,W,1,9,1.5,13,M,,M,,*56
06/17/2015	08:11:32.547	$GPGGA,081133,2509.8808,N,08008.9932,W,1,9,1.5,13,M,,M,,*50
06/17/2015	08:11:33.567	$GPGGA,081134,2509.8824,N,08008.9929,W,1,10,1.5,13,M,,M,,*6B
06/17/2015	08:11:34.537	$GPGGA,081135,2509.8841,N,08008.9922,W,1,10,1.5,13,M,,M,,*62
06/17/2015	08:11:35.577	$GPGGA,081136,2509.8857,N,08008.9915,W,1,10,1.5,13,M,,M,,*62
06/17/2015	08:11:36.557	$GPGGA,081137,2509.8875,N,08008.9910,W,1,10,1.5,13,M,,M,,*66
06/17/2015	08:11:37.547	$GPGGA,081138,2509.8893,N,08008.9905,W,1,9,1.5,13,M,,M,,*5D
06/17/2015	08:11:38.537	$GPGGA,081139,2509.8911,N,08008.9899,W,1,9,1.5,13,M,,M,,*53
06/17/2015	08:11:39.567	$GPGGA,081140,2509.8927,N,08008.9893,W,1,10,1.5,13,M,,M,,*6A
06/17/2015	08:11:40.547	$GPGGA,081141,2509.8943,N,08008.9887,W,1,10,1.5,13,M,,M,,*6C
06/17/2015	08:11:41.527	$GPGGA,081142,2509.8962,N,08008.9883,W,1,10,1.5,13,M,,M,,*68
06/17/2015	08:11:42.537	$GPGGA,081143,2509.8979,N,08008.9876,W,1,10,1.5,13,M,,M,,*69
06/17/2015	08:11:43.567	$GPGGA,081144,2509.8997,N,08008.9868,W,1,9,1.5,13,M,,M,,*59
06/17/2015	08:11:44.537	$GPGGA,081145,2509.9015,N,08008.9865,W,1,9,1.5,13,M,,M,,*57
06/17/2015	08:11:45.517	$GPGGA,081146,2509.9033,N,08008.9860,W,1,9,1.5,13,M,,M,,*55
06/17/2015	08:11:46.527	$GPGGA,081147,2509.9050,N,08008.9852,W,1,9,1.5,13,M,,M,,*50
06/17/2015	08:11:47.537	$GPGGA,081148,2509.9066,N,08008.9845,W,1,10,1.5,13,M,,M,,*64
06/17/2015	08:11:48.547	$GPGGA,081149,2509.9083,N,08008.9841,W,1,10,1.5,13,M,,M,,*6A
06/17/2015	08:11:49.517	$GPGGA,081150,2509.9102,N,08008.9835,W,1,10,1.5,13,M,,M,,*69
