Software Version Number: 1	Data File Format Number: 1	Build Version Number: 1	Error Count Since VI Started: 3	Manufacturer: Raytheon	 Model Number: RayMarine 120	 S/N: 	 Cal Date: 	 Wind Direction Offset: 0.00	 Slope (M)1: 0.00	 Offset (B)1: 0.00	 Slope (M)2: 0.00	 Offset (B)2: 0.00	 Slope (M)3: 0.00	 Offset (B)3: 0.00	 Slope (M)4: 0.00	 Offset (B)4: 0.00	 Slope (M)5: 0.00	 Offset (B)5: 0.00	 Slope (M)6: 0.00	 Offset (B)6: 0.00
Computer Date	Computer Time	GGA String
06/26/2015	23:00:00.593	$GPGGA,230001,2617.9729,N,07958.7684,W,1,10,1.3,22,M,,M,,*6A
06/26/2015	23:00:01.563	$GPGGA,230002,2617.9731,N,07958.7683,W,1,10,1.3,22,M,,M,,*67
06/26/2015	23:00:02.583	$GPGGA,230003,2617.9731,N,07958.7684,W,1,10,1.3,22,M,,M,,*61
06/26/2015	23:00:03.603	$GPGGA,230004,2617.9731,N,07958.7683,W,1,10,1.3,22,M,,M,,*61
06/26/2015	23:00:04.563	$GPGGA,230005,2617.9731,N,07958.7684,W,1,10,1.3,22,M,,M,,*67
06/26/2015	23:00:05.593	$GPGGA,230006,2617.9731,N,07958.7683,W,1,10,1.3,22,M,,M,,*63
06/26/2015	23:00:06.563	$GPGGA,230007,2617.9733,N,07958.7684,W,1,10,1.3,22,M,,M,,*67
06/26/2015	23:00:07.603	$GPGGA,230008,2617.9732,N,07958.7683,W,1,10,1.3,21,M,,M,,*6D
06/26/2015	23:00:08.553	$GPGGA,230009,2617.9733,N,07958.7684,W,1,10,1.3,21,M,,M,,*6A
06/26/2015	23:00:09.593	$GPGGA,230010,2617.9734,N,07958.7683,W,1,10,1.3,21,M,,M,,*62
06/26/2015	23:00:10.553	$GPGGA,230011,2617.9733,N,07958.7684,W,1,10,1.3,21,M,,M,,*63
06/26/2015	23:00:11.583	$GPGGA,230012,2617.9734,N,07958.7684,W,1,10,1.3,21,M,,M,,*67
06/26/2015	23:00:12.543	$GPGGA,230013,2617.9734,N,07958.7684,W,1,10,1.3,21,M,,M,,*66
06/26/2015	23:00:13.533	$GPGGA,230014,2617.9735,N,07958.7685,W,1,10,1.3,21,M,,M,,*61
06/26/2015	23:00:14.543	$GPGGA,230015,2617.9737,N,07958.7685,W,1,10,1.3,21,M,,M,,*62
06/26/2015	23:00:15.610	$GPGGA,230016,2617.9736,N,07958.7684,W,1,10,1.3,21,M,,M,,*61
06/26/2015	23:00:16.542	$GPGGA,230017,2617.9738,N,07958.7684,W,1,10,1.3,21,M,,M,,*6E
06/26/2015	23:00:17.562	$GPGGA,230018,2617.9738,N,07958.7685,W,1,10,1.3,21,M,,M,,*60
06/26/2015	23:00:18.532	$GPGGA,230019,2617.9738,N,07958.7686,W,1,10,1.3,20,M,,M,,*63
06/26/2015	23:00:19.616	$GPGGA,230020,2617.9738,N,07958.7685,W,1,10,1.3,20,M,,M,,*6A
06/26/2015	23:00:20.522	$GPGGA,230021,2617.9740,N,07958.7685,W,1,10,1.3,20,M,,M,,*64
06/26/2015	23:00:21.522	$GPGGA,230022,2617.9739,N,07958.7686,W,1,10,1.3,20,M,,M,,*6A
06/26/2015	23:00:22.542	$GPGGA,230023,2617.9741,N,07958.7686,W,1,10,1.3,20,M,,M,,*64
06/26/2015	23:00:23.642	$GPGGA,230024,2617.9740,N,07958.7685,W,1,10,1.3,20,M,,M,,*61
06/26/2015	23:00:24.605	$GPGGA,230025,2617.9742,N,07958.7686,W,1,10,1.3,20,M,,M,,*61
06/26/2015	23:00:25.504	$GPGGA,230026,2617.9742,N,07958.7686,W,1,10,1.3,20,M,,M,,*62
06/26/2015	23:00:26.542	$GPGGA,230027,2617.9742,N,07958.7686,W,1,10,1.3,20,M,,M,,*63
06/26/2015	23:00:27.632	$GPGGA,230028,2617.9744,N,07958.7686,W,1,10,1.3,20,M,,M,,*6A
06/26/2015	23:00:28.533	$GPGGA,230029,2617.9745,N,07958.7686,W,1,10,1.3,20,M,,M,,*6A
06/26/2015	23:00:29.633	$GPGGA,230030,2617.9744,N,07958.7688,W,1,10,1.3,19,M,,M,,*67
06/26/2015	23:00:30.523	$GPGGA,230031,2617.9745,N,07958.7686,W,1,10,1.3,19,M,,M,,*69
06/26/2015	23:00:31.543	$GPGGA,230032,2617.9745,N,07958.7686,W,1,10,1.3,19,M,,M,,*6A
06/26/2015	23:00:32.504	$GPGGA,230033,2617.9745,N,07958.7686,W,1,10,1.3,19,M,,M,,*6B
06/26/2015	23:00:33.942	$GPGGA,230034,2617.9747,N,07958.7688,W,1,10,1.4,19,M,,M,,*67
06/26/2015	23:00:34.522	$GPGGA,230035,2617.9746,N,07958.7686,W,1,10,1.3,19,M,,M,,*6E
06/26/2015	23:00:35.622	$GPGGA,230036,2617.9748,N,07958.7686,W,1,10,1.3,19,M,,M,,*63
06/26/2015	23:00:36.610	$GPGGA,230037,2617.9749,N,07958.7688,W,1,10,1.3,19,M,,M,,*6D
06/26/2015	23:00:37.492	$GPGGA,230038,2617.9749,N,07958.7688,W,1,10,1.3,19,M,,M,,*62
06/26/2015	23:00:38.582	$GPGGA,230039,2617.9751,N,07958.7687,W,1,10,1.3,19,M,,M,,*65
06/26/2015	23:00:39.582	$GPGGA,230040,2617.9752,N,07958.7688,W,1,10,1.3,19,M,,M,,*67
06/26/2015	23:00:40.582	$GPGGA,230041,2617.9753,N,07958.7687,W,1,10,1.3,18,M,,M,,*69
06/26/2015	23:00:41.592	$GPGGA,230042,2617.9753,N,07958.7688,W,1,10,1.3,18,M,,M,,*65
06/26/2015	23:00:42.562	$GPGGA,230043,2617.9755,N,07958.7688,W,1,10,1.3,18,M,,M,,*62
06/26/2015	23:00:43.592	$GPGGA,230044,2617.9756,N,07958.7689,W,1,10,1.3,18,M,,M,,*67
06/26/2015	23:00:44.572	$GPGGA,230045,2617.9756,N,07958.7689,W,1,10,1.3,18,M,,M,,*66
06/26/2015	23:00:45.582	$GPGGA,230046,2617.9756,N,07958.7689,W,1,10,1.3,18,M,,M,,*65
06/26/2015	23:00:46.563	$GPGGA,230047,2617.9758,N,07958.7689,W,1,10,1.3,18,M,,M,,*6A
06/26/2015	23:00:47.613	$GPGGA,230048,2617.9759,N,07958.7689,W,1,10,1.3,18,M,,M,,*64
06/26/2015	23:00:48.563	$GPGGA,230049,2617.9760,N,07958.7691,W,1,10,1.3,18,M,,M,,*66
06/26/2015	23:00:49.583	$GPGGA,230050,2617.9760,N,07958.7690,W,1,10,1.3,18,M,,M,,*6F
06/26/2015	23:00:50.562	$GPGGA,230051,2617.9762,N,07958.7691,W,1,10,1.3,18,M,,M,,*6D
06/26/2015	23:00:51.592	$GPGGA,230052,2617.9763,N,07958.7690,W,1,10,1.3,18,M,,M,,*6E
06/26/2015	23:00:52.562	$GPGGA,230053,2617.9763,N,07958.7691,W,1,10,1.3,18,M,,M,,*6E
06/26/2015	23:00:53.552	$GPGGA,230054,2617.9763,N,07958.7691,W,1,10,1.3,17,M,,M,,*66
06/26/2015	23:00:54.542	$GPGGA,230055,2617.9764,N,07958.7691,W,1,10,1.3,17,M,,M,,*60
06/26/2015	23:00:55.582	$GPGGA,230056,2617.9766,N,07958.7691,W,1,10,1.3,17,M,,M,,*61
06/26/2015	23:00:56.542	$GPGGA,230057,2617.9767,N,07958.7692,W,1,10,1.3,17,M,,M,,*62
06/26/2015	23:00:57.572	$GPGGA,230058,2617.9767,N,07958.7692,W,1,10,1.3,17,M,,M,,*6D
06/26/2015	23:00:58.532	$GPGGA,230059,2617.9767,N,07958.7691,W,1,10,1.3,17,M,,M,,*6F
06/26/2015	23:00:59.572	$GPGGA,230100,2617.9769,N,07958.7692,W,1,10,1.3,17,M,,M,,*6F
06/26/2015	23:01:00.542	$GPGGA,230101,2617.9770,N,07958.7693,W,1,10,1.3,17,M,,M,,*67
06/26/2015	23:01:01.572	$GPGGA,230102,2617.9771,N,07958.7692,W,1,10,1.3,17,M,,M,,*64
06/26/2015	23:01:02.522	$GPGGA,230103,2617.9771,N,07958.7692,W,1,10,1.3,17,M,,M,,*65
06/26/2015	23:01:03.543	$GPGGA,230104,2617.9773,N,07958.7693,W,1,10,1.3,17,M,,M,,*61
06/26/2015	23:01:04.533	$GPGGA,230105,2617.9772,N,07958.7693,W,1,10,1.3,17,M,,M,,*61
06/26/2015	23:01:05.543	$GPGGA,230106,2617.9774,N,07958.7692,W,1,10,1.3,17,M,,M,,*65
06/26/2015	23:01:06.533	$GPGGA,230107,2617.9774,N,07958.7693,W,1,10,1.3,17,M,,M,,*65
06/26/2015	23:01:07.563	$GPGGA,230108,2617.9774,N,07958.7693,W,1,10,1.3,17,M,,M,,*6A
06/26/2015	23:01:08.632	$GPGGA,230109,2617.9776,N,07958.7693,W,1,10,1.3,17,M,,M,,*69
06/26/2015	23:01:09.552	$GPGGA,230110,2617.9777,N,07958.7693,W,1,10,1.3,17,M,,M,,*60
06/26/2015	23:01:10.512	$GPGGA,230111,2617.9778,N,07958.7693,W,1,10,1.3,17,M,,M,,*6E
06/26/2015	23:01:11.552	$GPGGA,230112,2617.9778,N,07958.7693,W,1,10,1.3,17,M,,M,,*6D
06/26/2015	23:01:12.514	$GPGGA,230113,2617.9778,N,07958.7693,W,1,10,1.3,17,M,,M,,*6C
06/26/2015	23:01:13.513	$GPGGA,230114,2617.9778,N,07958.7693,W,1,10,1.3,17,M,,M,,*6B
06/26/2015	23:01:14.512	$GPGGA,230115,2617.9778,N,07958.7695,W,1,10,1.5,17,M,,M,,*6A
06/26/2015	23:01:15.532	$GPGGA,230116,2617.9780,N,07958.7694,W,1,9,1.5,17,M,,M,,*57
06/26/2015	23:01:16.513	$GPGGA,230117,2617.9779,N,07958.7695,W,1,9,1.5,17,M,,M,,*51
06/26/2015	23:01:17.614	$GPGGA,230118,2617.9781,N,07958.7694,W,1,9,1.5,17,M,,M,,*58
06/26/2015	23:01:18.612	$GPGGA,230119,2617.9780,N,07958.7695,W,1,9,1.5,17,M,,M,,*59
06/26/2015	23:01:19.513	$GPGGA,230120,2617.9781,N,07958.7694,W,1,9,1.5,17,M,,M,,*53
06/26/2015	23:01:20.482	$GPGGA,230121,2617.9781,N,07958.7695,W,1,9,1.5,17,M,,M,,*53
06/26/2015	23:01:21.603	$GPGGA,230122,2617.9782,N,07958.7694,W,1,9,1.5,17,M,,M,,*52
06/26/2015	23:01:22.517	$GPGGA,230123,2617.9784,N,07958.7695,W,1,9,1.5,17,M,,M,,*54
06/26/2015	23:01:23.623	$GPGGA,230124,2617.9783,N,07958.7693,W,1,9,1.5,17,M,,M,,*52
06/26/2015	23:01:24.606	$GPGGA,230125,2617.9785,N,07958.7692,W,1,9,1.5,16,M,,M,,*55
06/26/2015	23:01:25.605	$GPGGA,230126,2617.9785,N,07958.7693,W,1,9,1.5,16,M,,M,,*57
06/26/2015	23:01:26.582	$GPGGA,230127,2617.9785,N,07958.7692,W,1,9,1.5,16,M,,M,,*57
06/26/2015	23:01:27.622	$GPGGA,230128,2617.9788,N,07958.7690,W,1,9,1.5,16,M,,M,,*57
06/26/2015	23:01:28.572	$GPGGA,230129,2617.9789,N,07958.7691,W,1,9,1.3,16,M,,M,,*50
06/26/2015	23:01:29.572	$GPGGA,230130,2617.9791,N,07958.7691,W,1,8,2.0,16,M,,M,,*50
06/26/2015	23:01:30.473	$GPGGA,230131,2617.9792,N,07958.7691,W,1,8,1.5,16,M,,M,,*54
06/26/2015	23:01:31.592	$GPGGA,230132,2617.9794,N,07958.7691,W,1,9,1.5,16,M,,M,,*50
06/26/2015	23:01:32.562	$GPGGA,230133,2617.9795,N,07958.7691,W,1,9,1.3,16,M,,M,,*56
06/26/2015	23:01:33.572	$GPGGA,230134,2617.9794,N,07958.7690,W,1,10,1.3,16,M,,M,,*69
06/26/2015	23:01:34.572	$GPGGA,230135,2617.9798,N,07958.7689,W,1,10,1.5,17,M,,M,,*6B
06/26/2015	23:01:35.582	$GPGGA,230136,2617.9799,N,07958.7689,W,1,10,1.3,17,M,,M,,*6F
06/26/2015	23:01:36.562	$GPGGA,230137,2617.9800,N,07958.7689,W,1,10,1.3,17,M,,M,,*61
06/26/2015	23:01:37.562	$GPGGA,230138,2617.9802,N,07958.7689,W,1,10,1.3,17,M,,M,,*6C
06/26/2015	23:01:38.563	$GPGGA,230139,2617.9803,N,07958.7691,W,1,10,1.5,17,M,,M,,*63
06/26/2015	23:01:39.563	$GPGGA,230140,2617.9803,N,07958.7692,W,1,10,1.3,17,M,,M,,*68
06/26/2015	23:01:40.553	$GPGGA,230141,2617.9803,N,07958.7693,W,1,10,1.5,17,M,,M,,*6E
06/26/2015	23:01:41.573	$GPGGA,230142,2617.9803,N,07958.7693,W,1,10,1.3,18,M,,M,,*64
06/26/2015	23:01:42.543	$GPGGA,230143,2617.9803,N,07958.7695,W,1,10,1.3,18,M,,M,,*63
06/26/2015	23:01:43.572	$GPGGA,230144,2617.9803,N,07958.7694,W,1,9,1.5,18,M,,M,,*5B
06/26/2015	23:01:44.552	$GPGGA,230145,2617.9805,N,07958.7693,W,1,9,1.5,18,M,,M,,*5B
06/26/2015	23:01:45.552	$GPGGA,230146,2617.9804,N,07958.7693,W,1,10,1.3,18,M,,M,,*67
06/26/2015	23:01:46.542	$GPGGA,230147,2617.9803,N,07958.7693,W,1,10,1.5,19,M,,M,,*66
06/26/2015	23:01:47.562	$GPGGA,230148,2617.9803,N,07958.7693,W,1,9,1.5,19,M,,M,,*51
06/26/2015	23:01:48.532	$GPGGA,230149,2617.9803,N,07958.7692,W,1,9,1.5,19,M,,M,,*51
06/26/2015	23:01:49.562	$GPGGA,230150,2617.9803,N,07958.7693,W,1,10,1.3,19,M,,M,,*66
06/26/2015	23:01:50.532	$GPGGA,230151,2617.9803,N,07958.7693,W,1,10,1.3,19,M,,M,,*67
06/26/2015	23:01:51.552	$GPGGA,230152,2617.9803,N,07958.7692,W,1,9,1.5,19,M,,M,,*5B
06/26/2015	23:01:52.522	$GPGGA,230153,2617.9806,N,07958.7691,W,1,9,1.5,19,M,,M,,*5C
06/26/2015	23:01:53.562	$GPGGA,230154,2617.9807,N,07958.7690,W,1,10,1.3,19,M,,M,,*65
06/26/2015	23:01:54.522	$GPGGA,230155,2617.9807,N,07958.7691,W,1,10,1.5,19,M,,M,,*63
06/26/2015	23:01:55.542	$GPGGA,230156,2617.9807,N,07958.7689,W,1,9,1.5,19,M,,M,,*51
06/26/2015	23:01:56.520	$GPGGA,230157,2617.9809,N,07958.7689,W,1,9,1.5,19,M,,M,,*5E
06/26/2015	23:01:57.523	$GPGGA,230158,2617.9808,N,07958.7688,W,1,10,1.3,19,M,,M,,*6F
06/26/2015	23:01:58.603	$GPGGA,230159,2617.9810,N,07958.7688,W,1,10,1.3,19,M,,M,,*67
06/26/2015	23:01:59.683	$GPGGA,230200,2617.9811,N,07958.7688,W,1,10,1.3,19,M,,M,,*69
06/26/2015	23:02:00.522	$GPGGA,230201,2617.9813,N,07958.7686,W,1,10,1.3,19,M,,M,,*64
06/26/2015	23:02:01.532	$GPGGA,230202,2617.9814,N,07958.7685,W,1,10,1.3,19,M,,M,,*63
06/26/2015	23:02:02.508	$GPGGA,230203,2617.9817,N,07958.7685,W,1,10,1.3,19,M,,M,,*61
06/26/2015	23:02:03.632	$GPGGA,230204,2617.9818,N,07958.7684,W,1,10,1.3,19,M,,M,,*68
06/26/2015	23:02:04.492	$GPGGA,230205,2617.9821,N,07958.7684,W,1,10,1.3,20,M,,M,,*69
06/26/2015	23:02:05.617	$GPGGA,230206,2617.9823,N,07958.7683,W,1,10,1.3,20,M,,M,,*6F
06/26/2015	23:02:06.592	$GPGGA,230207,2617.9824,N,07958.7684,W,1,10,1.3,20,M,,M,,*6E
06/26/2015	23:02:07.618	$GPGGA,230208,2617.9825,N,07958.7683,W,1,10,1.3,20,M,,M,,*67
06/26/2015	23:02:08.502	$GPGGA,230209,2617.9825,N,07958.7684,W,1,10,1.3,20,M,,M,,*61
06/26/2015	23:02:09.602	$GPGGA,230210,2617.9827,N,07958.7683,W,1,9,1.4,20,M,,M,,*53
06/26/2015	23:02:10.502	$GPGGA,230211,2617.9826,N,07958.7684,W,1,9,1.3,20,M,,M,,*53
06/26/2015	23:02:11.622	$GPGGA,230212,2617.9828,N,07958.7683,W,1,9,1.5,20,M,,M,,*5F
06/26/2015	23:02:12.582	$GPGGA,230213,2617.9828,N,07958.7684,W,1,9,1.3,20,M,,M,,*5F
06/26/2015	23:02:13.604	$GPGGA,230214,2617.9828,N,07958.7683,W,1,10,1.3,20,M,,M,,*67
06/26/2015	23:02:14.573	$GPGGA,230215,2617.9829,N,07958.7682,W,1,10,1.3,20,M,,M,,*66
06/26/2015	23:02:15.623	$GPGGA,230216,2617.9831,N,07958.7684,W,1,10,1.3,20,M,,M,,*6A
06/26/2015	23:02:16.573	$GPGGA,230217,2617.9832,N,07958.7683,W,1,10,1.3,20,M,,M,,*6F
06/26/2015	23:02:17.583	$GPGGA,230218,2617.9832,N,07958.7684,W,1,10,1.3,20,M,,M,,*67
06/26/2015	23:02:18.562	$GPGGA,230219,2617.9834,N,07958.7683,W,1,10,1.3,20,M,,M,,*67
06/26/2015	23:02:19.615	$GPGGA,230220,2617.9835,N,07958.7685,W,1,9,1.4,20,M,,M,,*55
06/26/2015	23:02:20.572	$GPGGA,230221,2617.9836,N,07958.7686,W,1,9,1.3,20,M,,M,,*53
06/26/2015	23:02:21.572	$GPGGA,230222,2617.9839,N,07958.7688,W,1,10,1.3,20,M,,M,,*69
06/26/2015	23:02:22.572	$GPGGA,230223,2617.9839,N,07958.7688,W,1,10,1.3,20,M,,M,,*68
06/26/2015	23:02:23.582	$GPGGA,230224,2617.9839,N,07958.7688,W,1,10,1.3,20,M,,M,,*6F
06/26/2015	23:02:24.562	$GPGGA,230225,2617.9841,N,07958.7688,W,1,10,1.4,20,M,,M,,*66
06/26/2015	23:02:25.562	$GPGGA,230226,2617.9842,N,07958.7689,W,1,10,1.3,20,M,,M,,*60
06/26/2015	23:02:26.572	$GPGGA,230227,2617.9843,N,07958.7691,W,1,10,1.3,20,M,,M,,*69
06/26/2015	23:02:27.592	$GPGGA,230228,2617.9843,N,07958.7690,W,1,10,1.3,20,M,,M,,*67
06/26/2015	23:02:28.552	$GPGGA,230229,2617.9845,N,07958.7691,W,1,10,1.3,20,M,,M,,*61
06/26/2015	23:02:29.543	$GPGGA,230230,2617.9846,N,07958.7690,W,1,10,1.3,20,M,,M,,*6B
06/26/2015	23:02:30.552	$GPGGA,230231,2617.9846,N,07958.7691,W,1,10,1.3,20,M,,M,,*6B
06/26/2015	23:02:31.583	$GPGGA,230232,2617.9846,N,07958.7691,W,1,10,1.3,20,M,,M,,*68
06/26/2015	23:02:32.533	$GPGGA,230233,2617.9847,N,07958.7692,W,1,10,1.4,20,M,,M,,*6C
06/26/2015	23:02:33.564	$GPGGA,230234,2617.9847,N,07958.7691,W,1,10,1.3,20,M,,M,,*6F
06/26/2015	23:02:34.523	$GPGGA,230235,2617.9847,N,07958.7691,W,1,10,1.3,20,M,,M,,*6E
06/26/2015	23:02:35.542	$GPGGA,230236,2617.9847,N,07958.7691,W,1,10,1.3,20,M,,M,,*6D
06/26/2015	23:02:36.532	$GPGGA,230237,2617.9846,N,07958.7691,W,1,10,1.4,20,M,,M,,*6A
06/26/2015	23:02:37.552	$GPGGA,230238,2617.9846,N,07958.7690,W,1,9,1.4,20,M,,M,,*5C
06/26/2015	23:02:38.516	$GPGGA,230239,2617.9846,N,07958.7691,W,1,9,1.3,20,M,,M,,*5B
06/26/2015	23:02:39.682	$GPGGA,230240,2617.9846,N,07958.7690,W,1,10,1.3,20,M,,M,,*6C
06/26/2015	23:02:40.692	$GPGGA,230241,2617.9846,N,07958.7691,W,1,10,1.3,20,M,,M,,*6C
06/26/2015	23:02:41.672	$GPGGA,230242,2617.9845,N,07958.7690,W,1,9,1.4,20,M,,M,,*52
06/26/2015	23:02:42.514	$GPGGA,230243,2617.9846,N,07958.7689,W,1,9,1.4,20,M,,M,,*58
06/26/2015	23:02:43.532	$GPGGA,230244,2617.9846,N,07958.7689,W,1,10,1.3,20,M,,M,,*60
06/26/2015	23:02:44.516	$GPGGA,230245,2617.9846,N,07958.7689,W,1,10,1.3,20,M,,M,,*61
06/26/2015	23:02:45.652	$GPGGA,230246,2617.9846,N,07958.7689,W,1,9,1.4,20,M,,M,,*5D
06/26/2015	23:02:46.518	$GPGGA,230247,2617.9847,N,07958.7689,W,1,9,1.4,20,M,,M,,*5D
06/26/2015	23:02:47.682	$GPGGA,230248,2617.9849,N,07958.7691,W,1,10,1.3,20,M,,M,,*6A
06/26/2015	23:02:48.519	$GPGGA,230249,2617.9850,N,07958.7690,W,1,10,1.3,20,M,,M,,*62
06/26/2015	23:02:49.633	$GPGGA,230250,2617.9850,N,07958.7691,W,1,10,1.3,20,M,,M,,*6B
06/26/2015	23:02:50.673	$GPGGA,230251,2617.9852,N,07958.7690,W,1,10,1.3,20,M,,M,,*69
06/26/2015	23:02:51.503	$GPGGA,230252,2617.9851,N,07958.7691,W,1,10,1.3,20,M,,M,,*68
06/26/2015	23:02:52.653	$GPGGA,230253,2617.9852,N,07958.7689,W,1,10,1.3,20,M,,M,,*63
06/26/2015	23:02:53.642	$GPGGA,230254,2617.9853,N,07958.7691,W,1,10,1.3,20,M,,M,,*6C
06/26/2015	23:02:54.506	$GPGGA,230255,2617.9854,N,07958.7690,W,1,10,1.3,20,M,,M,,*6B
06/26/2015	23:02:55.672	$GPGGA,230256,2617.9854,N,07958.7689,W,1,10,1.5,20,M,,M,,*66
06/26/2015	23:02:56.662	$GPGGA,230257,2617.9856,N,07958.7688,W,1,10,1.3,20,M,,M,,*62
06/26/2015	23:02:57.582	$GPGGA,230258,2617.9859,N,07958.7688,W,1,10,1.3,20,M,,M,,*62
06/26/2015	23:02:58.572	$GPGGA,230259,2617.9861,N,07958.7687,W,1,10,1.3,20,M,,M,,*67
06/26/2015	23:02:59.682	$GPGGA,230300,2617.9863,N,07958.7686,W,1,10,1.5,20,M,,M,,*6F
06/26/2015	23:03:00.582	$GPGGA,230301,2617.9861,N,07958.7686,W,1,10,1.5,20,M,,M,,*6C
06/26/2015	23:03:01.632	$GPGGA,230302,2617.9863,N,07958.7686,W,1,9,1.5,20,M,,M,,*55
06/26/2015	23:03:02.632	$GPGGA,230303,2617.9862,N,07958.7686,W,1,9,1.5,20,M,,M,,*55
06/26/2015	23:03:03.592	$GPGGA,230304,2617.9863,N,07958.7686,W,1,9,1.5,20,M,,M,,*53
06/26/2015	23:03:04.562	$GPGGA,230305,2617.9862,N,07958.7685,W,1,9,1.5,20,M,,M,,*50
06/26/2015	23:03:06.593	$GPGGA,230307,2617.9863,N,07958.7685,W,1,9,1.5,20,M,,M,,*53
06/26/2015	23:03:07.663	$GPGGA,230308,2617.9864,N,07958.7685,W,1,9,1.3,20,M,,M,,*5D
06/26/2015	23:03:08.553	$GPGGA,230309,2617.9865,N,07958.7683,W,1,9,1.3,20,M,,M,,*5B
06/26/2015	23:03:09.609	$GPGGA,230310,2617.9867,N,07958.7684,W,1,10,1.3,20,M,,M,,*6E
06/26/2015	23:03:10.621	$GPGGA,230311,2617.9868,N,07958.7683,W,1,10,1.3,20,M,,M,,*67
06/26/2015	23:03:11.652	$GPGGA,230312,2617.9870,N,07958.7682,W,1,10,1.3,20,M,,M,,*6C
06/26/2015	23:03:12.552	$GPGGA,230313,2617.9871,N,07958.7680,W,1,10,1.6,20,M,,M,,*6B
06/26/2015	23:03:13.592	$GPGGA,230314,2617.9872,N,07958.7679,W,1,9,2.0,20,M,,M,,*54
06/26/2015	23:03:14.614	$GPGGA,230315,2617.9872,N,07958.7680,W,1,9,2.0,20,M,,M,,*53
06/26/2015	23:03:15.642	$GPGGA,230316,2617.9875,N,07958.7678,W,1,9,1.5,20,M,,M,,*56
06/26/2015	23:03:16.611	$GPGGA,230317,2617.9874,N,07958.7677,W,1,9,1.5,20,M,,M,,*59
06/26/2015	23:03:17.592	$GPGGA,230318,2617.9875,N,07958.7677,W,1,9,1.5,20,M,,M,,*57
06/26/2015	23:03:18.615	$GPGGA,230319,2617.9876,N,07958.7677,W,1,9,1.5,20,M,,M,,*55
06/26/2015	23:03:19.552	$GPGGA,230320,2617.9876,N,07958.7674,W,1,9,1.5,20,M,,M,,*5C
06/26/2015	23:03:20.592	$GPGGA,230321,2617.9878,N,07958.7674,W,1,9,1.3,20,M,,M,,*55
06/26/2015	23:03:21.617	$GPGGA,230322,2617.9879,N,07958.7677,W,1,9,1.5,20,M,,M,,*52
06/26/2015	23:03:22.522	$GPGGA,230323,2617.9881,N,07958.7676,W,1,9,1.3,20,M,,M,,*53
06/26/2015	23:03:23.593	$GPGGA,230324,2617.9880,N,07958.7675,W,1,10,1.3,20,M,,M,,*6E
06/26/2015	23:03:24.523	$GPGGA,230325,2617.9882,N,07958.7674,W,1,10,1.3,20,M,,M,,*6C
06/26/2015	23:03:25.523	$GPGGA,230326,2617.9881,N,07958.7673,W,1,10,1.3,20,M,,M,,*6B
06/26/2015	23:03:26.593	$GPGGA,230327,2617.9883,N,07958.7673,W,1,10,1.3,20,M,,M,,*68
06/26/2015	23:03:27.653	$GPGGA,230328,2617.9883,N,07958.7672,W,1,10,1.5,20,M,,M,,*60
06/26/2015	23:03:28.532	$GPGGA,230329,2617.9883,N,07958.7673,W,1,10,1.5,20,M,,M,,*60
06/26/2015	23:03:29.512	$GPGGA,230330,2617.9883,N,07958.7672,W,1,9,1.5,20,M,,M,,*51
06/26/2015	23:03:30.582	$GPGGA,230331,2617.9883,N,07958.7673,W,1,9,1.5,20,M,,M,,*51
06/26/2015	23:03:31.642	$GPGGA,230332,2617.9883,N,07958.7671,W,1,9,1.5,20,M,,M,,*50
06/26/2015	23:03:32.572	$GPGGA,230333,2617.9883,N,07958.7671,W,1,9,1.5,20,M,,M,,*51
06/26/2015	23:03:34.562	$GPGGA,230335,2617.9885,N,07958.7671,W,1,9,1.5,20,M,,M,,*51
06/26/2015	23:03:36.094	$GPGGA,230336,2617.9884,N,07958.7670,W,1,9,1.5,20,M,,M,,*52
06/26/2015	23:03:36.572	$GPGGA,230337,2617.9886,N,07958.7670,W,1,9,1.3,20,M,,M,,*57
06/26/2015	23:03:37.492	$GPGGA,230338,2617.9885,N,07958.7670,W,1,10,1.3,20,M,,M,,*63
06/26/2015	23:03:38.592	$GPGGA,230339,2617.9886,N,07958.7669,W,1,10,1.4,20,M,,M,,*6E
06/26/2015	23:03:39.613	$GPGGA,230340,2617.9888,N,07958.7670,W,1,9,1.3,20,M,,M,,*59
06/26/2015	23:03:40.593	$GPGGA,230341,2617.9890,N,07958.7669,W,1,9,1.3,20,M,,M,,*59
06/26/2015	23:03:41.593	$GPGGA,230342,2617.9890,N,07958.7670,W,1,10,1.3,20,M,,M,,*6A
06/26/2015	23:03:42.593	$GPGGA,230343,2617.9893,N,07958.7670,W,1,10,1.3,20,M,,M,,*68
06/26/2015	23:03:43.623	$GPGGA,230344,2617.9893,N,07958.7669,W,1,10,1.3,20,M,,M,,*67
06/26/2015	23:03:44.604	$GPGGA,230345,2617.9893,N,07958.7670,W,1,10,1.4,20,M,,M,,*69
06/26/2015	23:03:45.582	$GPGGA,230346,2617.9893,N,07958.7669,W,1,9,1.4,20,M,,M,,*5A
06/26/2015	23:03:46.582	$GPGGA,230347,2617.9894,N,07958.7670,W,1,9,1.4,20,M,,M,,*54
06/26/2015	23:03:47.632	$GPGGA,230348,2617.9897,N,07958.7670,W,1,9,1.3,20,M,,M,,*5F
06/26/2015	23:03:48.572	$GPGGA,230349,2617.9899,N,07958.7669,W,1,9,1.3,20,M,,M,,*58
06/26/2015	23:03:49.592	$GPGGA,230350,2617.9900,N,07958.7670,W,1,10,1.4,20,M,,M,,*66
06/26/2015	23:03:50.572	$GPGGA,230351,2617.9901,N,07958.7670,W,1,10,1.3,20,M,,M,,*61
06/26/2015	23:03:51.615	$GPGGA,230352,2617.9903,N,07958.7671,W,1,10,1.9,20,M,,M,,*6B
06/26/2015	23:03:52.582	$GPGGA,230353,2617.9904,N,07958.7670,W,1,10,1.3,20,M,,M,,*66
06/26/2015	23:03:53.592	$GPGGA,230354,2617.9904,N,07958.7670,W,1,10,1.4,20,M,,M,,*66
06/26/2015	23:03:54.562	$GPGGA,230355,2617.9906,N,07958.7671,W,1,10,1.4,20,M,,M,,*64
06/26/2015	23:03:55.613	$GPGGA,230356,2617.9905,N,07958.7670,W,1,9,1.4,20,M,,M,,*5D
06/26/2015	23:03:56.552	$GPGGA,230357,2617.9907,N,07958.7671,W,1,9,1.4,20,M,,M,,*5F
06/26/2015	23:03:57.572	$GPGGA,230358,2617.9906,N,07958.7673,W,1,9,1.4,20,M,,M,,*53
06/26/2015	23:03:58.563	$GPGGA,230359,2617.9906,N,07958.7673,W,1,9,1.4,20,M,,M,,*52
06/26/2015	23:03:59.593	$GPGGA,230400,2617.9908,N,07958.7673,W,1,9,1.4,20,M,,M,,*57
06/26/2015	23:04:00.563	$GPGGA,230401,2617.9908,N,07958.7672,W,1,9,1.4,20,M,,M,,*57
06/26/2015	23:04:01.543	$GPGGA,230402,2617.9908,N,07958.7673,W,1,9,1.4,20,M,,M,,*55
06/26/2015	23:04:02.563	$GPGGA,230403,2617.9908,N,07958.7672,W,1,9,1.4,20,M,,M,,*55
06/26/2015	23:04:03.612	$GPGGA,230404,2617.9911,N,07958.7673,W,1,9,1.3,20,M,,M,,*5C
06/26/2015	23:04:04.562	$GPGGA,230405,2617.9911,N,07958.7673,W,1,9,1.4,20,M,,M,,*5A
06/26/2015	23:04:05.532	$GPGGA,230406,2617.9912,N,07958.7673,W,1,9,1.4,20,M,,M,,*5A
06/26/2015	23:04:06.562	$GPGGA,230407,2617.9912,N,07958.7673,W,1,9,1.4,20,M,,M,,*5B
06/26/2015	23:04:07.562	$GPGGA,230408,2617.9914,N,07958.7673,W,1,9,1.4,20,M,,M,,*52
06/26/2015	23:04:08.552	$GPGGA,230409,2617.9914,N,07958.7673,W,1,9,1.4,20,M,,M,,*53
06/26/2015	23:04:09.552	$GPGGA,230410,2617.9915,N,07958.7673,W,1,9,1.4,20,M,,M,,*5A
06/26/2015	23:04:10.532	$GPGGA,230411,2617.9915,N,07958.7673,W,1,9,1.4,20,M,,M,,*5B
06/26/2015	23:04:11.572	$GPGGA,230412,2617.9917,N,07958.7674,W,1,9,1.4,20,M,,M,,*5D
06/26/2015	23:04:12.532	$GPGGA,230413,2617.9917,N,07958.7674,W,1,9,1.4,20,M,,M,,*5C
06/26/2015	23:04:13.642	$GPGGA,230414,2617.9919,N,07958.7674,W,1,10,1.3,20,M,,M,,*6A
06/26/2015	23:04:14.522	$GPGGA,230415,2617.9919,N,07958.7674,W,1,10,1.3,20,M,,M,,*6B
06/26/2015	23:04:15.533	$GPGGA,230416,2617.9919,N,07958.7675,W,1,9,1.4,20,M,,M,,*56
06/26/2015	23:04:16.523	$GPGGA,230417,2617.9919,N,07958.7675,W,1,9,1.3,20,M,,M,,*50
06/26/2015	23:04:17.643	$GPGGA,230418,2617.9922,N,07958.7677,W,1,10,1.3,20,M,,M,,*6D
06/26/2015	23:04:18.633	$GPGGA,230419,2617.9924,N,07958.7676,W,1,10,1.3,20,M,,M,,*6B
06/26/2015	23:04:19.523	$GPGGA,230420,2617.9923,N,07958.7677,W,1,10,1.3,20,M,,M,,*67
06/26/2015	23:04:20.602	$GPGGA,230421,2617.9925,N,07958.7677,W,1,10,1.3,20,M,,M,,*60
06/26/2015	23:04:21.632	$GPGGA,230422,2617.9926,N,07958.7676,W,1,10,1.3,20,M,,M,,*61
06/26/2015	23:04:22.593	$GPGGA,230423,2617.9926,N,07958.7677,W,1,10,1.3,20,M,,M,,*61
06/26/2015	23:04:23.622	$GPGGA,230424,2617.9928,N,07958.7678,W,1,9,1.5,20,M,,M,,*59
06/26/2015	23:04:24.614	$GPGGA,230425,2617.9927,N,07958.7678,W,1,9,1.3,20,M,,M,,*51
06/26/2015	23:04:25.532	$GPGGA,230426,2617.9929,N,07958.7677,W,1,9,1.5,20,M,,M,,*55
06/26/2015	23:04:26.542	$GPGGA,230427,2617.9929,N,07958.7677,W,1,9,1.5,20,M,,M,,*54
06/26/2015	23:04:27.605	$GPGGA,230428,2617.9930,N,07958.7678,W,1,9,1.5,20,M,,M,,*5C
06/26/2015	23:04:28.592	$GPGGA,230429,2617.9930,N,07958.7677,W,1,9,1.5,20,M,,M,,*52
06/26/2015	23:04:29.616	$GPGGA,230430,2617.9933,N,07958.7676,W,1,9,1.5,20,M,,M,,*58
06/26/2015	23:04:30.592	$GPGGA,230431,2617.9933,N,07958.7675,W,1,9,1.3,20,M,,M,,*5C
06/26/2015	23:04:31.632	$GPGGA,230432,2617.9936,N,07958.7674,W,1,10,1.3,20,M,,M,,*63
06/26/2015	23:04:32.582	$GPGGA,230433,2617.9937,N,07958.7673,W,1,10,1.3,20,M,,M,,*64
06/26/2015	23:04:33.630	$GPGGA,230434,2617.9937,N,07958.7673,W,1,10,1.3,20,M,,M,,*63
06/26/2015	23:04:34.583	$GPGGA,230435,2617.9940,N,07958.7672,W,1,10,1.3,20,M,,M,,*63
06/26/2015	23:04:35.616	$GPGGA,230436,2617.9940,N,07958.7671,W,1,10,1.3,20,M,,M,,*63
06/26/2015	23:04:36.573	$GPGGA,230437,2617.9940,N,07958.7671,W,1,10,1.3,20,M,,M,,*62
06/26/2015	23:04:37.593	$GPGGA,230438,2617.9941,N,07958.7673,W,1,10,1.3,20,M,,M,,*6E
06/26/2015	23:04:38.572	$GPGGA,230439,2617.9943,N,07958.7671,W,1,10,1.3,20,M,,M,,*6F
06/26/2015	23:04:39.592	$GPGGA,230440,2617.9944,N,07958.7670,W,1,10,1.3,20,M,,M,,*67
06/26/2015	23:04:40.562	$GPGGA,230441,2617.9944,N,07958.7670,W,1,10,1.3,20,M,,M,,*66
06/26/2015	23:04:41.582	$GPGGA,230442,2617.9946,N,07958.7670,W,1,10,1.3,20,M,,M,,*67
06/26/2015	23:04:42.582	$GPGGA,230443,2617.9945,N,07958.7670,W,1,10,1.3,20,M,,M,,*65
06/26/2015	23:04:43.572	$GPGGA,230444,2617.9947,N,07958.7668,W,1,10,1.3,20,M,,M,,*69
06/26/2015	23:04:44.562	$GPGGA,230445,2617.9948,N,07958.7667,W,1,10,1.3,20,M,,M,,*68
06/26/2015	23:04:45.582	$GPGGA,230446,2617.9948,N,07958.7668,W,1,10,1.3,20,M,,M,,*64
06/26/2015	23:04:46.552	$GPGGA,230447,2617.9950,N,07958.7668,W,1,10,1.3,20,M,,M,,*6C
06/26/2015	23:04:47.562	$GPGGA,230448,2617.9951,N,07958.7668,W,1,10,1.3,20,M,,M,,*62
06/26/2015	23:04:48.562	$GPGGA,230449,2617.9950,N,07958.7667,W,1,10,1.3,20,M,,M,,*6D
06/26/2015	23:04:49.582	$GPGGA,230450,2617.9951,N,07958.7667,W,1,10,1.3,20,M,,M,,*64
06/26/2015	23:04:50.563	$GPGGA,230451,2617.9953,N,07958.7667,W,1,10,1.3,20,M,,M,,*67
06/26/2015	23:04:51.573	$GPGGA,230452,2617.9954,N,07958.7667,W,1,10,1.3,20,M,,M,,*63
06/26/2015	23:04:52.543	$GPGGA,230453,2617.9953,N,07958.7666,W,1,10,1.3,20,M,,M,,*64
06/26/2015	23:04:53.573	$GPGGA,230454,2617.9955,N,07958.7666,W,1,10,1.3,20,M,,M,,*65
06/26/2015	23:04:54.533	$GPGGA,230455,2617.9955,N,07958.7666,W,1,10,1.3,20,M,,M,,*64
06/26/2015	23:04:55.582	$GPGGA,230456,2617.9957,N,07958.7665,W,1,10,1.3,20,M,,M,,*66
06/26/2015	23:04:56.532	$GPGGA,230457,2617.9956,N,07958.7666,W,1,10,1.3,20,M,,M,,*65
06/26/2015	23:04:57.542	$GPGGA,230458,2617.9958,N,07958.7665,W,1,10,1.3,20,M,,M,,*67
06/26/2015	23:04:58.542	$GPGGA,230459,2617.9956,N,07958.7666,W,1,10,1.3,20,M,,M,,*6B
06/26/2015	23:04:59.572	$GPGGA,230500,2617.9957,N,07958.7664,W,1,9,1.5,20,M,,M,,*5B
06/26/2015	23:05:00.514	$GPGGA,230501,2617.9955,N,07958.7664,W,1,9,1.5,20,M,,M,,*58
06/26/2015	23:05:01.616	$GPGGA,230502,2617.9955,N,07958.7664,W,1,9,1.5,19,M,,M,,*51
06/26/2015	23:05:02.505	$GPGGA,230503,2617.9955,N,07958.7664,W,1,9,1.5,19,M,,M,,*50
06/26/2015	23:05:03.562	$GPGGA,230504,2617.9955,N,07958.7664,W,1,9,1.5,19,M,,M,,*57
06/26/2015	23:05:04.522	$GPGGA,230505,2617.9955,N,07958.7664,W,1,9,1.5,19,M,,M,,*56
06/26/2015	23:05:05.616	$GPGGA,230506,2617.9955,N,07958.7664,W,1,9,1.5,19,M,,M,,*55
06/26/2015	23:05:06.513	$GPGGA,230507,2617.9957,N,07958.7664,W,1,9,1.5,19,M,,M,,*56
06/26/2015	23:05:07.542	$GPGGA,230508,2617.9956,N,07958.7664,W,1,9,1.5,19,M,,M,,*58
06/26/2015	23:05:08.504	$GPGGA,230509,2617.9957,N,07958.7664,W,1,9,1.5,19,M,,M,,*58
06/26/2015	23:05:09.643	$GPGGA,230510,2617.9962,N,07958.7662,W,1,9,1.5,19,M,,M,,*50
06/26/2015	23:05:10.618	$GPGGA,230511,2617.9962,N,07958.7663,W,1,9,1.3,19,M,,M,,*56
06/26/2015	23:05:11.516	$GPGGA,230512,2617.9960,N,07958.7662,W,1,9,1.5,19,M,,M,,*50
06/26/2015	23:05:12.605	$GPGGA,230513,2617.9962,N,07958.7663,W,1,9,1.5,19,M,,M,,*52
06/26/2015	23:05:13.506	$GPGGA,230514,2617.9962,N,07958.7663,W,1,9,1.5,18,M,,M,,*54
06/26/2015	23:05:14.582	$GPGGA,230515,2617.9962,N,07958.7661,W,1,9,1.5,18,M,,M,,*57
06/26/2015	23:05:16.083	$GPGGA,230516,2617.9962,N,07958.7662,W,1,9,1.5,18,M,,M,,*57
06/26/2015	23:05:16.582	$GPGGA,230517,2617.9964,N,07958.7663,W,1,9,1.5,18,M,,M,,*51
06/26/2015	23:05:17.613	$GPGGA,230518,2617.9963,N,07958.7662,W,1,10,1.3,18,M,,M,,*66
06/26/2015	23:05:18.582	$GPGGA,230519,2617.9964,N,07958.7661,W,1,10,1.3,18,M,,M,,*63
06/26/2015	23:05:19.605	$GPGGA,230520,2617.9965,N,07958.7663,W,1,10,1.3,18,M,,M,,*6A
06/26/2015	23:05:20.582	$GPGGA,230521,2617.9966,N,07958.7662,W,1,10,1.3,18,M,,M,,*69
06/26/2015	23:05:21.582	$GPGGA,230522,2617.9966,N,07958.7663,W,1,10,1.3,18,M,,M,,*6B
06/26/2015	23:05:22.572	$GPGGA,230523,2617.9968,N,07958.7661,W,1,10,1.3,18,M,,M,,*66
06/26/2015	23:05:24.562	$GPGGA,230525,2617.9969,N,07958.7661,W,1,10,1.3,18,M,,M,,*61
06/26/2015	23:05:25.593	$GPGGA,230526,2617.9973,N,07958.7662,W,1,9,1.4,18,M,,M,,*55
06/26/2015	23:05:26.563	$GPGGA,230527,2617.9973,N,07958.7663,W,1,9,1.3,17,M,,M,,*5D
06/26/2015	23:05:27.594	$GPGGA,230528,2617.9975,N,07958.7662,W,1,10,1.3,17,M,,M,,*6D
06/26/2015	23:05:28.573	$GPGGA,230529,2617.9976,N,07958.7663,W,1,10,1.3,17,M,,M,,*6E
06/26/2015	23:05:29.573	$GPGGA,230530,2617.9975,N,07958.7662,W,1,10,1.3,17,M,,M,,*64
06/26/2015	23:05:31.615	$GPGGA,230531,2617.9977,N,07958.7663,W,1,10,1.4,17,M,,M,,*61
06/26/2015	23:05:31.642	$GPGGA,230532,2617.9977,N,07958.7663,W,1,10,1.3,17,M,,M,,*65
06/26/2015	23:05:32.562	$GPGGA,230533,2617.9977,N,07958.7663,W,1,10,1.5,17,M,,M,,*62
06/26/2015	23:05:33.542	$GPGGA,230534,2617.9979,N,07958.7663,W,1,8,1.6,17,M,,M,,*51
06/26/2015	23:05:34.552	$GPGGA,230535,2617.9978,N,07958.7662,W,1,8,1.5,17,M,,M,,*53
06/26/2015	23:05:36.542	$GPGGA,230537,2617.9980,N,07958.7662,W,1,9,1.3,17,M,,M,,*51
06/26/2015	23:05:38.552	$GPGGA,230539,2617.9983,N,07958.7663,W,1,10,1.3,17,M,,M,,*65
06/26/2015	23:05:39.542	$GPGGA,230540,2617.9984,N,07958.7663,W,1,10,1.3,17,M,,M,,*6C
06/26/2015	23:05:40.542	$GPGGA,230541,2617.9986,N,07958.7663,W,1,10,1.3,17,M,,M,,*6F
06/26/2015	23:05:41.522	$GPGGA,230542,2617.9987,N,07958.7664,W,1,10,1.3,17,M,,M,,*6A
06/26/2015	23:05:42.532	$GPGGA,230543,2617.9986,N,07958.7663,W,1,10,1.4,17,M,,M,,*6A
06/26/2015	23:05:43.553	$GPGGA,230544,2617.9985,N,07958.7662,W,1,9,1.4,17,M,,M,,*57
06/26/2015	23:05:47.533	$GPGGA,230548,2617.9994,N,07958.7666,W,1,10,1.3,17,M,,M,,*60
06/26/2015	23:05:48.616	$GPGGA,230549,2617.9995,N,07958.7665,W,1,10,1.3,17,M,,M,,*63
06/26/2015	23:05:49.519	$GPGGA,230550,2617.9997,N,07958.7666,W,1,10,1.3,17,M,,M,,*6A
06/26/2015	23:05:50.512	$GPGGA,230551,2617.9998,N,07958.7666,W,1,10,1.3,17,M,,M,,*64
06/26/2015	23:05:51.532	$GPGGA,230552,2617.9997,N,07958.7666,W,1,9,1.5,17,M,,M,,*56
06/26/2015	23:05:52.606	$GPGGA,230553,2617.9996,N,07958.7666,W,1,9,1.4,17,M,,M,,*57
06/26/2015	23:05:54.506	$GPGGA,230555,2617.9995,N,07958.7667,W,1,10,1.3,17,M,,M,,*6C
06/26/2015	23:05:55.620	$GPGGA,230556,2617.9995,N,07958.7667,W,1,10,1.3,16,M,,M,,*6E
06/26/2015	23:05:56.602	$GPGGA,230557,2617.9997,N,07958.7667,W,1,10,1.3,16,M,,M,,*6D
06/26/2015	23:05:57.606	$GPGGA,230558,2617.9996,N,07958.7666,W,1,10,1.3,16,M,,M,,*62
06/26/2015	23:05:58.512	$GPGGA,230559,2617.9997,N,07958.7667,W,1,10,1.3,16,M,,M,,*63
06/26/2015	23:05:59.619	$GPGGA,230600,2617.9998,N,07958.7668,W,1,10,1.3,16,M,,M,,*6C
06/26/2015	23:06:01.593	$GPGGA,230602,2617.9998,N,07958.7667,W,1,10,1.3,16,M,,M,,*61
06/26/2015	23:06:02.583	$GPGGA,230603,2617.9998,N,07958.7667,W,1,10,1.3,16,M,,M,,*60
06/26/2015	23:06:03.625	$GPGGA,230604,2617.9998,N,07958.7668,W,1,10,1.3,16,M,,M,,*68
06/26/2015	23:06:04.583	$GPGGA,230605,2618.0000,N,07958.7668,W,1,10,1.3,16,M,,M,,*67
06/26/2015	23:06:05.602	$GPGGA,230606,2618.0001,N,07958.7667,W,1,10,1.3,16,M,,M,,*6A
06/26/2015	23:06:06.582	$GPGGA,230607,2618.0002,N,07958.7667,W,1,10,1.3,16,M,,M,,*68
06/26/2015	23:06:07.602	$GPGGA,230608,2618.0002,N,07958.7667,W,1,10,1.3,16,M,,M,,*67
06/26/2015	23:06:08.572	$GPGGA,230609,2618.0002,N,07958.7667,W,1,10,1.3,16,M,,M,,*66
06/26/2015	23:06:09.592	$GPGGA,230610,2618.0002,N,07958.7666,W,1,9,1.5,16,M,,M,,*51
06/26/2015	23:06:10.572	$GPGGA,230611,2618.0004,N,07958.7666,W,1,9,1.5,16,M,,M,,*56
06/26/2015	23:06:11.602	$GPGGA,230612,2618.0005,N,07958.7666,W,1,9,1.5,16,M,,M,,*54
06/26/2015	23:06:12.562	$GPGGA,230613,2618.0005,N,07958.7666,W,1,9,1.5,16,M,,M,,*55
06/26/2015	23:06:13.572	$GPGGA,230614,2618.0005,N,07958.7665,W,1,9,1.5,16,M,,M,,*51
06/26/2015	23:06:14.562	$GPGGA,230615,2618.0008,N,07958.7666,W,1,9,1.5,16,M,,M,,*5E
06/26/2015	23:06:15.582	$GPGGA,230616,2618.0007,N,07958.7666,W,1,9,1.5,16,M,,M,,*52
06/26/2015	23:06:16.552	$GPGGA,230617,2618.0009,N,07958.7666,W,1,9,1.5,16,M,,M,,*5D
06/26/2015	23:06:17.562	$GPGGA,230618,2618.0009,N,07958.7665,W,1,9,1.5,16,M,,M,,*51
06/26/2015	23:06:19.572	$GPGGA,230620,2618.0010,N,07958.7665,W,1,8,1.8,16,M,,M,,*5E
06/26/2015	23:06:20.542	$GPGGA,230621,2618.0011,N,07958.7666,W,1,8,1.5,16,M,,M,,*50
06/26/2015	23:06:21.582	$GPGGA,230622,2618.0012,N,07958.7664,W,1,9,1.5,16,M,,M,,*53
06/26/2015	23:06:22.532	$GPGGA,230623,2618.0013,N,07958.7664,W,1,9,1.3,16,M,,M,,*55
06/26/2015	23:06:23.551	$GPGGA,230624,2618.0013,N,07958.7664,W,1,10,1.3,16,M,,M,,*6A
06/26/2015	23:06:24.521	$GPGGA,230625,2618.0013,N,07958.7664,W,1,10,1.3,16,M,,M,,*6B
06/26/2015	23:06:25.561	$GPGGA,230626,2618.0013,N,07958.7664,W,1,10,1.3,16,M,,M,,*68
06/26/2015	23:06:26.521	$GPGGA,230627,2618.0013,N,07958.7664,W,1,10,1.3,16,M,,M,,*69
06/26/2015	23:06:27.542	$GPGGA,230628,2618.0013,N,07958.7666,W,1,10,1.3,16,M,,M,,*64
06/26/2015	23:06:29.526	$GPGGA,230630,2618.0016,N,07958.7665,W,1,10,1.3,16,M,,M,,*6B
06/26/2015	23:06:30.632	$GPGGA,230631,2618.0016,N,07958.7666,W,1,10,1.3,16,M,,M,,*69
06/26/2015	23:06:32.512	$GPGGA,230633,2618.0019,N,07958.7666,W,1,10,1.3,16,M,,M,,*64
06/26/2015	23:06:33.642	$GPGGA,230634,2618.0020,N,07958.7665,W,1,10,1.3,16,M,,M,,*6A
06/26/2015	23:06:34.522	$GPGGA,230635,2618.0020,N,07958.7666,W,1,10,1.3,16,M,,M,,*68
06/26/2015	23:06:35.512	$GPGGA,230636,2618.0020,N,07958.7666,W,1,10,1.3,16,M,,M,,*6B
06/26/2015	23:06:36.512	$GPGGA,230637,2618.0022,N,07958.7665,W,1,10,1.3,16,M,,M,,*6B
06/26/2015	23:06:37.512	$GPGGA,230638,2618.0023,N,07958.7664,W,1,10,1.3,16,M,,M,,*64
06/26/2015	23:06:38.532	$GPGGA,230639,2618.0023,N,07958.7664,W,1,10,1.3,16,M,,M,,*65
06/26/2015	23:06:39.642	$GPGGA,230640,2618.0023,N,07958.7664,W,1,10,1.3,16,M,,M,,*6B
06/26/2015	23:06:40.606	$GPGGA,230641,2618.0024,N,07958.7664,W,1,10,1.3,16,M,,M,,*6D
06/26/2015	23:06:41.592	$GPGGA,230642,2618.0024,N,07958.7663,W,1,10,1.3,17,M,,M,,*68
06/26/2015	23:06:42.581	$GPGGA,230643,2618.0024,N,07958.7662,W,1,10,1.3,17,M,,M,,*68
06/26/2015	23:06:43.504	$GPGGA,230644,2618.0026,N,07958.7663,W,1,10,1.3,17,M,,M,,*6C
06/26/2015	23:06:44.491	$GPGGA,230645,2618.0025,N,07958.7662,W,1,10,1.3,17,M,,M,,*6F
06/26/2015	23:06:46.602	$GPGGA,230647,2618.0027,N,07958.7660,W,1,10,1.3,17,M,,M,,*6D
06/26/2015	23:06:47.606	$GPGGA,230648,2618.0027,N,07958.7659,W,1,10,1.3,17,M,,M,,*68
06/26/2015	23:06:56.561	$GPGGA,230657,2618.0031,N,07958.7659,W,1,10,1.5,17,M,,M,,*67
06/26/2015	23:06:57.551	$GPGGA,230658,2618.0031,N,07958.7659,W,1,9,1.5,17,M,,M,,*50
06/26/2015	23:06:58.561	$GPGGA,230659,2618.0033,N,07958.7660,W,1,9,1.3,17,M,,M,,*5F
06/26/2015	23:06:59.592	$GPGGA,230700,2618.0032,N,07958.7660,W,1,9,1.5,18,M,,M,,*5A
06/26/2015	23:07:00.551	$GPGGA,230701,2618.0031,N,07958.7659,W,1,9,1.5,18,M,,M,,*52
06/26/2015	23:07:01.581	$GPGGA,230702,2618.0031,N,07958.7659,W,1,10,1.3,18,M,,M,,*6F
06/26/2015	23:07:02.551	$GPGGA,230703,2618.0031,N,07958.7659,W,1,10,1.5,18,M,,M,,*68
06/26/2015	23:07:03.572	$GPGGA,230704,2618.0033,N,07958.7659,W,1,9,1.5,18,M,,M,,*55
06/26/2015	23:07:04.532	$GPGGA,230705,2618.0032,N,07958.7659,W,1,9,1.5,18,M,,M,,*55
06/26/2015	23:07:05.562	$GPGGA,230706,2618.0031,N,07958.7658,W,1,9,1.5,18,M,,M,,*54
06/26/2015	23:07:06.532	$GPGGA,230707,2618.0033,N,07958.7659,W,1,9,1.8,18,M,,M,,*5B
06/26/2015	23:07:07.552	$GPGGA,230708,2618.0032,N,07958.7659,W,1,9,1.5,18,M,,M,,*58
06/26/2015	23:07:08.542	$GPGGA,230709,2618.0031,N,07958.7659,W,1,9,1.5,18,M,,M,,*5A
06/26/2015	23:07:09.552	$GPGGA,230710,2618.0031,N,07958.7658,W,1,10,1.3,18,M,,M,,*6D
06/26/2015	23:07:10.542	$GPGGA,230711,2618.0031,N,07958.7659,W,1,10,1.5,18,M,,M,,*6B
06/26/2015	23:07:11.572	$GPGGA,230712,2618.0034,N,07958.7657,W,1,9,1.5,18,M,,M,,*5B
06/26/2015	23:07:12.522	$GPGGA,230713,2618.0034,N,07958.7657,W,1,9,1.3,18,M,,M,,*5C
06/26/2015	23:07:13.522	$GPGGA,230714,2618.0036,N,07958.7656,W,1,10,1.3,18,M,,M,,*60
06/26/2015	23:07:14.532	$GPGGA,230715,2618.0034,N,07958.7656,W,1,10,1.3,18,M,,M,,*63
06/26/2015	23:07:15.651	$GPGGA,230716,2618.0033,N,07958.7657,W,1,10,1.3,19,M,,M,,*67
06/26/2015	23:07:16.531	$GPGGA,230717,2618.0034,N,07958.7656,W,1,10,1.3,19,M,,M,,*60
06/26/2015	23:07:17.531	$GPGGA,230718,2618.0033,N,07958.7656,W,1,10,1.3,19,M,,M,,*68
06/26/2015	23:07:18.511	$GPGGA,230719,2618.0034,N,07958.7656,W,1,10,1.3,19,M,,M,,*6E
06/26/2015	23:07:19.571	$GPGGA,230720,2618.0033,N,07958.7656,W,1,10,1.3,19,M,,M,,*63
06/26/2015	23:07:20.511	$GPGGA,230721,2618.0034,N,07958.7656,W,1,10,1.3,19,M,,M,,*65
06/26/2015	23:07:21.642	$GPGGA,230722,2618.0033,N,07958.7656,W,1,10,1.3,19,M,,M,,*61
06/26/2015	23:07:22.505	$GPGGA,230723,2618.0034,N,07958.7656,W,1,10,1.3,19,M,,M,,*67
06/26/2015	23:07:23.704	$GPGGA,230724,2618.0032,N,07958.7656,W,1,9,1.3,19,M,,M,,*5E
06/26/2015	23:07:24.612	$GPGGA,230725,2618.0034,N,07958.7656,W,1,9,1.5,19,M,,M,,*5F
06/26/2015	23:07:25.612	$GPGGA,230726,2618.0033,N,07958.7656,W,1,9,1.5,19,M,,M,,*5B
06/26/2015	23:07:26.498	$GPGGA,230727,2618.0034,N,07958.7655,W,1,9,1.5,19,M,,M,,*5E
06/26/2015	23:07:27.602	$GPGGA,230728,2618.0034,N,07958.7655,W,1,10,1.3,19,M,,M,,*6F
06/26/2015	23:07:28.502	$GPGGA,230729,2618.0034,N,07958.7655,W,1,10,1.3,19,M,,M,,*6E
06/26/2015	23:07:29.592	$GPGGA,230730,2618.0034,N,07958.7655,W,1,10,1.3,19,M,,M,,*66
06/26/2015	23:07:30.594	$GPGGA,230731,2618.0034,N,07958.7656,W,1,10,1.3,19,M,,M,,*64
06/26/2015	23:07:31.642	$GPGGA,230732,2618.0034,N,07958.7656,W,1,10,1.3,19,M,,M,,*67
06/26/2015	23:07:32.581	$GPGGA,230733,2618.0034,N,07958.7655,W,1,10,1.3,19,M,,M,,*65
06/26/2015	23:07:34.581	$GPGGA,230735,2618.0036,N,07958.7655,W,1,10,1.3,19,M,,M,,*61
06/26/2015	23:07:35.603	$GPGGA,230736,2618.0035,N,07958.7655,W,1,10,1.3,19,M,,M,,*61
06/26/2015	23:07:36.581	$GPGGA,230737,2618.0036,N,07958.7655,W,1,10,1.3,19,M,,M,,*63
06/26/2015	23:07:37.581	$GPGGA,230738,2618.0035,N,07958.7655,W,1,10,1.3,19,M,,M,,*6F
06/26/2015	23:07:38.582	$GPGGA,230739,2618.0036,N,07958.7656,W,1,10,1.3,19,M,,M,,*6E
06/26/2015	23:07:39.612	$GPGGA,230740,2618.0035,N,07958.7655,W,1,10,1.3,19,M,,M,,*60
06/26/2015	23:07:40.572	$GPGGA,230741,2618.0037,N,07958.7656,W,1,10,1.3,19,M,,M,,*60
06/26/2015	23:07:41.582	$GPGGA,230742,2618.0036,N,07958.7656,W,1,10,1.5,19,M,,M,,*64
06/26/2015	23:07:42.572	$GPGGA,230743,2618.0037,N,07958.7656,W,1,10,1.3,19,M,,M,,*62
06/26/2015	23:07:43.600	$GPGGA,230744,2618.0036,N,07958.7657,W,1,10,1.3,19,M,,M,,*65
06/26/2015	23:07:44.562	$GPGGA,230745,2618.0037,N,07958.7657,W,1,10,1.3,19,M,,M,,*65
06/26/2015	23:07:45.582	$GPGGA,230746,2618.0035,N,07958.7659,W,1,10,1.3,19,M,,M,,*6A
06/26/2015	23:07:46.572	$GPGGA,230747,2618.0037,N,07958.7658,W,1,10,1.3,19,M,,M,,*68
06/26/2015	23:07:47.562	$GPGGA,230748,2618.0036,N,07958.7659,W,1,10,1.3,19,M,,M,,*67
06/26/2015	23:07:48.552	$GPGGA,230749,2618.0037,N,07958.7658,W,1,10,1.3,19,M,,M,,*66
06/26/2015	23:07:49.562	$GPGGA,230750,2618.0036,N,07958.7659,W,1,10,1.3,19,M,,M,,*6E
06/26/2015	23:07:50.551	$GPGGA,230751,2618.0037,N,07958.7659,W,1,10,1.3,19,M,,M,,*6E
06/26/2015	23:07:51.597	$GPGGA,230752,2618.0036,N,07958.7659,W,1,10,1.3,19,M,,M,,*6C
06/26/2015	23:07:52.531	$GPGGA,230753,2618.0037,N,07958.7659,W,1,10,1.3,19,M,,M,,*6C
06/26/2015	23:07:53.571	$GPGGA,230754,2618.0036,N,07958.7659,W,1,10,1.3,19,M,,M,,*6A
06/26/2015	23:07:54.541	$GPGGA,230755,2618.0038,N,07958.7659,W,1,10,1.5,18,M,,M,,*62
06/26/2015	23:07:55.581	$GPGGA,230756,2618.0038,N,07958.7659,W,1,9,1.3,18,M,,M,,*5F
06/26/2015	23:07:56.562	$GPGGA,230757,2618.0038,N,07958.7659,W,1,9,1.3,18,M,,M,,*5E
06/26/2015	23:07:57.833	$GPGGA,230758,2618.0038,N,07958.7660,W,1,10,1.3,18,M,,M,,*63
06/26/2015	23:07:58.552	$GPGGA,230759,2618.0036,N,07958.7662,W,1,10,1.3,18,M,,M,,*6E
06/26/2015	23:07:59.622	$GPGGA,230800,2618.0037,N,07958.7663,W,1,10,1.3,18,M,,M,,*6D
06/26/2015	23:08:00.542	$GPGGA,230801,2618.0036,N,07958.7662,W,1,10,1.3,18,M,,M,,*6C
06/26/2015	23:08:01.552	$GPGGA,230802,2618.0037,N,07958.7663,W,1,10,1.3,18,M,,M,,*6F
06/26/2015	23:08:02.522	$GPGGA,230803,2618.0035,N,07958.7664,W,1,10,1.3,18,M,,M,,*6B
06/26/2015	23:08:03.602	$GPGGA,230804,2618.0036,N,07958.7664,W,1,10,1.3,18,M,,M,,*6F
06/26/2015	23:08:04.522	$GPGGA,230805,2618.0035,N,07958.7664,W,1,10,1.3,18,M,,M,,*6D
06/26/2015	23:08:05.532	$GPGGA,230806,2618.0036,N,07958.7666,W,1,10,1.3,18,M,,M,,*6F
06/26/2015	23:08:06.542	$GPGGA,230807,2618.0034,N,07958.7666,W,1,10,1.3,18,M,,M,,*6C
06/26/2015	23:08:07.607	$GPGGA,230808,2618.0034,N,07958.7666,W,1,10,1.3,18,M,,M,,*63
06/26/2015	23:08:08.531	$GPGGA,230809,2618.0034,N,07958.7667,W,1,10,1.3,18,M,,M,,*63
06/26/2015	23:08:09.521	$GPGGA,230810,2618.0034,N,07958.7667,W,1,10,1.3,18,M,,M,,*6B
06/26/2015	23:08:10.511	$GPGGA,230811,2618.0034,N,07958.7667,W,1,10,1.5,18,M,,M,,*6C
06/26/2015	23:08:11.603	$GPGGA,230812,2618.0034,N,07958.7667,W,1,9,1.3,18,M,,M,,*51
06/26/2015	23:08:12.511	$GPGGA,230813,2618.0034,N,07958.7670,W,1,9,1.5,18,M,,M,,*50
06/26/2015	23:08:13.595	$GPGGA,230814,2618.0033,N,07958.7669,W,1,9,1.3,18,M,,M,,*5E
06/26/2015	23:08:14.512	$GPGGA,230815,2618.0032,N,07958.7668,W,1,9,1.3,18,M,,M,,*5F
06/26/2015	23:08:15.612	$GPGGA,230816,2618.0031,N,07958.7670,W,1,9,1.3,18,M,,M,,*56
06/26/2015	23:08:16.592	$GPGGA,230817,2618.0031,N,07958.7670,W,1,9,1.3,18,M,,M,,*57
06/26/2015	23:08:18.022	$GPGGA,230818,2618.0031,N,07958.7670,W,1,10,1.3,18,M,,M,,*60
06/26/2015	23:08:18.595	$GPGGA,230819,2618.0031,N,07958.7669,W,1,10,1.3,18,M,,M,,*69
06/26/2015	23:08:19.605	$GPGGA,230820,2618.0033,N,07958.7670,W,1,10,1.3,18,M,,M,,*69
06/26/2015	23:08:20.582	$GPGGA,230821,2618.0034,N,07958.7669,W,1,10,1.3,18,M,,M,,*67
06/26/2015	23:08:21.612	$GPGGA,230822,2618.0034,N,07958.7670,W,1,10,1.3,18,M,,M,,*6C
06/26/2015	23:08:22.572	$GPGGA,230823,2618.0034,N,07958.7668,W,1,10,1.3,18,M,,M,,*64
06/26/2015	23:08:23.612	$GPGGA,230824,2618.0036,N,07958.7668,W,1,10,1.3,18,M,,M,,*61
06/26/2015	23:08:24.502	$GPGGA,230825,2618.0037,N,07958.7670,W,1,10,1.5,18,M,,M,,*6E
06/26/2015	23:08:25.571	$GPGGA,230826,2618.0038,N,07958.7670,W,1,9,1.5,18,M,,M,,*5A
06/26/2015	23:08:26.581	$GPGGA,230827,2618.0038,N,07958.7670,W,1,9,1.5,18,M,,M,,*5B
06/26/2015	23:08:27.591	$GPGGA,230828,2618.0040,N,07958.7670,W,1,10,1.3,18,M,,M,,*65
06/26/2015	23:08:28.561	$GPGGA,230829,2618.0039,N,07958.7670,W,1,10,1.3,18,M,,M,,*6A
06/26/2015	23:08:29.593	$GPGGA,230830,2618.0041,N,07958.7670,W,1,10,1.3,18,M,,M,,*6D
06/26/2015	23:08:30.561	$GPGGA,230831,2618.0040,N,07958.7669,W,1,10,1.3,18,M,,M,,*65
06/26/2015	23:08:31.594	$GPGGA,230832,2618.0041,N,07958.7668,W,1,10,1.3,18,M,,M,,*66
06/26/2015	23:08:32.563	$GPGGA,230833,2618.0042,N,07958.7668,W,1,10,1.5,18,M,,M,,*62
06/26/2015	23:08:33.562	$GPGGA,230834,2618.0042,N,07958.7667,W,1,9,1.5,18,M,,M,,*52
06/26/2015	23:08:34.562	$GPGGA,230835,2618.0042,N,07958.7667,W,1,9,1.3,18,M,,M,,*55
06/26/2015	23:08:35.582	$GPGGA,230836,2618.0042,N,07958.7664,W,1,9,1.5,18,M,,M,,*53
06/26/2015	23:08:42.541	$GPGGA,230843,2618.0044,N,07958.7663,W,1,10,1.3,18,M,,M,,*6E
06/26/2015	23:08:43.531	$GPGGA,230844,2618.0045,N,07958.7663,W,1,10,1.3,18,M,,M,,*68
06/26/2015	23:08:44.541	$GPGGA,230845,2618.0044,N,07958.7662,W,1,10,1.5,18,M,,M,,*6F
06/26/2015	23:08:46.522	$GPGGA,230847,2618.0045,N,07958.7662,W,1,9,1.5,18,M,,M,,*54
06/26/2015	23:08:47.651	$GPGGA,230848,2618.0047,N,07958.7663,W,1,10,1.3,18,M,,M,,*66
06/26/2015	23:08:48.522	$GPGGA,230849,2618.0046,N,07958.7661,W,1,10,1.3,18,M,,M,,*64
06/26/2015	23:08:49.512	$GPGGA,230850,2618.0047,N,07958.7660,W,1,10,1.3,18,M,,M,,*6C
06/26/2015	23:08:50.632	$GPGGA,230851,2618.0048,N,07958.7662,W,1,10,1.3,18,M,,M,,*60
06/26/2015	23:08:51.542	$GPGGA,230852,2618.0047,N,07958.7660,W,1,10,1.3,18,M,,M,,*6E
06/26/2015	23:08:52.522	$GPGGA,230853,2618.0048,N,07958.7658,W,1,10,1.3,18,M,,M,,*6B
06/26/2015	23:08:53.502	$GPGGA,230854,2618.0047,N,07958.7659,W,1,10,1.3,18,M,,M,,*62
06/26/2015	23:08:54.522	$GPGGA,230855,2618.0049,N,07958.7659,W,1,10,1.3,18,M,,M,,*6D
06/26/2015	23:08:55.532	$GPGGA,230856,2618.0049,N,07958.7657,W,1,10,1.3,18,M,,M,,*60
06/26/2015	23:08:56.592	$GPGGA,230857,2618.0049,N,07958.7656,W,1,10,1.3,18,M,,M,,*60
06/26/2015	23:08:57.592	$GPGGA,230858,2618.0049,N,07958.7657,W,1,10,1.3,18,M,,M,,*6E
06/26/2015	23:08:58.593	$GPGGA,230859,2618.0049,N,07958.7657,W,1,10,1.3,18,M,,M,,*6F
06/26/2015	23:08:59.612	$GPGGA,230900,2618.0049,N,07958.7656,W,1,10,1.3,18,M,,M,,*63
06/26/2015	23:09:01.521	$GPGGA,230902,2618.0049,N,07958.7655,W,1,9,1.5,18,M,,M,,*5C
06/26/2015	23:09:02.492	$GPGGA,230903,2618.0051,N,07958.7654,W,1,9,1.3,18,M,,M,,*53
06/26/2015	23:09:03.651	$GPGGA,230904,2618.0050,N,07958.7655,W,1,10,1.3,18,M,,M,,*6C
06/26/2015	23:09:04.591	$GPGGA,230905,2618.0052,N,07958.7654,W,1,10,1.3,18,M,,M,,*6E
06/26/2015	23:09:05.592	$GPGGA,230906,2618.0052,N,07958.7655,W,1,10,1.3,18,M,,M,,*6C
06/26/2015	23:09:06.595	$GPGGA,230907,2618.0053,N,07958.7654,W,1,10,1.3,18,M,,M,,*6D
06/26/2015	23:09:07.592	$GPGGA,230908,2618.0053,N,07958.7655,W,1,10,1.3,18,M,,M,,*63
06/26/2015	23:09:08.572	$GPGGA,230909,2618.0055,N,07958.7653,W,1,10,1.3,18,M,,M,,*62
06/26/2015	23:09:09.593	$GPGGA,230910,2618.0056,N,07958.7653,W,1,10,1.3,18,M,,M,,*69
06/26/2015	23:09:10.582	$GPGGA,230911,2618.0056,N,07958.7653,W,1,10,1.3,18,M,,M,,*68
06/26/2015	23:09:11.612	$GPGGA,230912,2618.0056,N,07958.7653,W,1,10,1.3,18,M,,M,,*6B
06/26/2015	23:09:12.562	$GPGGA,230913,2618.0056,N,07958.7653,W,1,10,1.3,18,M,,M,,*6A
06/26/2015	23:09:13.602	$GPGGA,230914,2618.0056,N,07958.7655,W,1,10,1.3,18,M,,M,,*6B
06/26/2015	23:09:14.572	$GPGGA,230915,2618.0058,N,07958.7654,W,1,10,1.4,18,M,,M,,*62
06/26/2015	23:09:15.592	$GPGGA,230916,2618.0059,N,07958.7655,W,1,10,1.3,18,M,,M,,*66
06/26/2015	23:09:16.562	$GPGGA,230917,2618.0060,N,07958.7655,W,1,10,1.3,18,M,,M,,*6D
06/26/2015	23:09:17.581	$GPGGA,230918,2618.0060,N,07958.7655,W,1,10,1.3,18,M,,M,,*62
06/26/2015	23:09:18.551	$GPGGA,230919,2618.0060,N,07958.7656,W,1,10,1.4,18,M,,M,,*67
06/26/2015	23:09:19.571	$GPGGA,230920,2618.0060,N,07958.7656,W,1,10,1.3,18,M,,M,,*6A
06/26/2015	23:09:20.561	$GPGGA,230921,2618.0062,N,07958.7657,W,1,10,1.3,18,M,,M,,*68
06/26/2015	23:09:21.581	$GPGGA,230922,2618.0061,N,07958.7659,W,1,10,1.3,18,M,,M,,*66
06/26/2015	23:09:22.551	$GPGGA,230923,2618.0063,N,07958.7658,W,1,10,1.3,18,M,,M,,*64
06/26/2015	23:09:23.582	$GPGGA,230924,2618.0062,N,07958.7659,W,1,10,1.3,18,M,,M,,*63
06/26/2015	23:09:24.553	$GPGGA,230925,2618.0063,N,07958.7658,W,1,10,1.4,18,M,,M,,*65
06/26/2015	23:09:25.532	$GPGGA,230926,2618.0062,N,07958.7659,W,1,10,1.3,18,M,,M,,*61
06/26/2015	23:09:26.542	$GPGGA,230927,2618.0063,N,07958.7658,W,1,10,1.3,18,M,,M,,*60
06/26/2015	23:09:27.582	$GPGGA,230928,2618.0062,N,07958.7659,W,1,10,1.3,18,M,,M,,*6F
06/26/2015	23:09:28.532	$GPGGA,230929,2618.0063,N,07958.7658,W,1,10,1.3,18,M,,M,,*6E
06/26/2015	23:09:29.562	$GPGGA,230930,2618.0063,N,07958.7659,W,1,10,1.3,18,M,,M,,*67
06/26/2015	23:09:30.542	$GPGGA,230931,2618.0063,N,07958.7659,W,1,10,1.3,18,M,,M,,*66
06/26/2015	23:09:31.542	$GPGGA,230932,2618.0063,N,07958.7659,W,1,10,1.3,18,M,,M,,*65
06/26/2015	23:09:32.542	$GPGGA,230933,2618.0065,N,07958.7659,W,1,10,1.3,18,M,,M,,*62
06/26/2015	23:09:33.552	$GPGGA,230934,2618.0064,N,07958.7659,W,1,10,1.3,18,M,,M,,*64
06/26/2015	23:09:34.512	$GPGGA,230935,2618.0063,N,07958.7659,W,1,10,1.3,18,M,,M,,*62
06/26/2015	23:09:35.541	$GPGGA,230936,2618.0063,N,07958.7660,W,1,10,1.3,17,M,,M,,*64
06/26/2015	23:09:36.521	$GPGGA,230937,2618.0065,N,07958.7659,W,1,10,1.3,17,M,,M,,*69
06/26/2015	23:09:37.551	$GPGGA,230938,2618.0064,N,07958.7659,W,1,10,1.3,17,M,,M,,*67
06/26/2015	23:09:38.511	$GPGGA,230939,2618.0065,N,07958.7660,W,1,10,1.5,17,M,,M,,*6B
06/26/2015	23:09:39.531	$GPGGA,230940,2618.0063,N,07958.7660,W,1,10,1.3,17,M,,M,,*65
06/26/2015	23:09:40.603	$GPGGA,230941,2618.0062,N,07958.7659,W,1,10,1.4,17,M,,M,,*68
06/26/2015	23:09:41.512	$GPGGA,230942,2618.0063,N,07958.7658,W,1,9,1.5,17,M,,M,,*52
06/26/2015	23:09:42.592	$GPGGA,230943,2618.0060,N,07958.7662,W,1,9,1.5,17,M,,M,,*59
06/26/2015	23:09:43.513	$GPGGA,230944,2618.0057,N,07958.7663,W,1,10,1.3,17,M,,M,,*65
06/26/2015	23:09:44.609	$GPGGA,230945,2618.0056,N,07958.7663,W,1,10,1.3,17,M,,M,,*65
06/26/2015	23:09:45.504	$GPGGA,230946,2618.0056,N,07958.7664,W,1,10,1.3,17,M,,M,,*61
06/26/2015	23:09:46.594	$GPGGA,230947,2618.0056,N,07958.7664,W,1,10,1.3,17,M,,M,,*60
06/26/2015	23:09:47.962	$GPGGA,230948,2618.0053,N,07958.7664,W,1,10,1.3,17,M,,M,,*6A
06/26/2015	23:09:48.602	$GPGGA,230949,2618.0053,N,07958.7666,W,1,10,1.3,17,M,,M,,*69
06/26/2015	23:09:49.592	$GPGGA,230950,2618.0052,N,07958.7666,W,1,10,1.3,17,M,,M,,*60
06/26/2015	23:09:50.582	$GPGGA,230951,2618.0052,N,07958.7666,W,1,10,1.3,17,M,,M,,*61
06/26/2015	23:09:51.592	$GPGGA,230952,2618.0052,N,07958.7665,W,1,10,1.3,17,M,,M,,*61
06/26/2015	23:09:52.581	$GPGGA,230953,2618.0051,N,07958.7666,W,1,10,1.3,18,M,,M,,*6F
06/26/2015	23:09:53.581	$GPGGA,230954,2618.0052,N,07958.7667,W,1,10,1.3,18,M,,M,,*6A
06/26/2015	23:09:54.581	$GPGGA,230955,2618.0051,N,07958.7665,W,1,10,1.3,18,M,,M,,*6A
06/26/2015	23:09:55.602	$GPGGA,230956,2618.0052,N,07958.7666,W,1,10,1.3,18,M,,M,,*69
06/26/2015	23:09:56.571	$GPGGA,230957,2618.0051,N,07958.7666,W,1,10,1.3,18,M,,M,,*6B
06/26/2015	23:09:57.591	$GPGGA,230958,2618.0050,N,07958.7667,W,1,10,1.3,18,M,,M,,*64
06/26/2015	23:09:58.582	$GPGGA,230959,2618.0051,N,07958.7666,W,1,10,1.3,18,M,,M,,*65
06/26/2015	23:09:59.632	$GPGGA,231000,2618.0050,N,07958.7665,W,1,10,1.3,18,M,,M,,*63
06/26/2015	23:10:00.884	$GPGGA,231001,2618.0051,N,07958.7666,W,1,10,1.3,18,M,,M,,*60
06/26/2015	23:10:01.595	$GPGGA,231002,2618.0049,N,07958.7665,W,1,10,1.3,18,M,,M,,*69
06/26/2015	23:10:02.562	$GPGGA,231003,2618.0049,N,07958.7666,W,1,10,1.3,18,M,,M,,*6B
06/26/2015	23:10:03.592	$GPGGA,231004,2618.0051,N,07958.7665,W,1,10,1.3,18,M,,M,,*66
06/26/2015	23:10:04.572	$GPGGA,231005,2618.0050,N,07958.7666,W,1,10,1.3,18,M,,M,,*65
06/26/2015	23:10:05.842	$GPGGA,231006,2618.0051,N,07958.7665,W,1,10,1.3,18,M,,M,,*64
06/26/2015	23:10:06.562	$GPGGA,231007,2618.0050,N,07958.7664,W,1,10,1.3,18,M,,M,,*65
06/26/2015	23:10:07.562	$GPGGA,231008,2618.0051,N,07958.7663,W,1,10,1.3,18,M,,M,,*6C
06/26/2015	23:10:08.842	$GPGGA,231009,2618.0050,N,07958.7663,W,1,10,1.3,18,M,,M,,*6C
06/26/2015	23:10:09.542	$GPGGA,231010,2618.0051,N,07958.7663,W,1,10,1.3,18,M,,M,,*65
06/26/2015	23:10:10.551	$GPGGA,231011,2618.0050,N,07958.7663,W,1,10,1.3,18,M,,M,,*65
06/26/2015	23:10:11.561	$GPGGA,231012,2618.0051,N,07958.7662,W,1,10,1.3,18,M,,M,,*66
06/26/2015	23:10:12.541	$GPGGA,231013,2618.0049,N,07958.7661,W,1,10,1.3,18,M,,M,,*6D
06/26/2015	23:10:13.531	$GPGGA,231014,2618.0051,N,07958.7662,W,1,10,1.3,18,M,,M,,*60
06/26/2015	23:10:14.551	$GPGGA,231015,2618.0050,N,07958.7661,W,1,10,1.3,18,M,,M,,*63
06/26/2015	23:10:15.582	$GPGGA,231016,2618.0051,N,07958.7660,W,1,10,1.3,18,M,,M,,*60
06/26/2015	23:10:16.552	$GPGGA,231017,2618.0049,N,07958.7660,W,1,10,1.3,18,M,,M,,*68
06/26/2015	23:10:17.702	$GPGGA,231018,2618.0049,N,07958.7660,W,1,10,1.3,18,M,,M,,*67
06/26/2015	23:10:18.542	$GPGGA,231019,2618.0051,N,07958.7659,W,1,10,1.3,18,M,,M,,*65
06/26/2015	23:10:19.572	$GPGGA,231020,2618.0049,N,07958.7659,W,1,10,1.3,18,M,,M,,*66
06/26/2015	23:10:20.532	$GPGGA,231021,2618.0049,N,07958.7658,W,1,10,1.4,18,M,,M,,*61
06/26/2015	23:10:21.522	$GPGGA,231022,2618.0049,N,07958.7656,W,1,9,1.4,18,M,,M,,*54
06/26/2015	23:10:22.652	$GPGGA,231023,2618.0049,N,07958.7656,W,1,9,1.4,18,M,,M,,*55
06/26/2015	23:10:23.532	$GPGGA,231024,2618.0049,N,07958.7656,W,1,10,1.3,17,M,,M,,*62
06/26/2015	23:10:24.522	$GPGGA,231025,2618.0049,N,07958.7656,W,1,10,1.3,17,M,,M,,*63
06/26/2015	23:10:25.506	$GPGGA,231026,2618.0049,N,07958.7655,W,1,10,1.3,17,M,,M,,*63
06/26/2015	23:10:26.642	$GPGGA,231027,2618.0049,N,07958.7655,W,1,10,1.3,17,M,,M,,*62
06/26/2015	23:10:27.541	$GPGGA,231028,2618.0049,N,07958.7655,W,1,10,1.3,17,M,,M,,*6D
06/26/2015	23:10:28.651	$GPGGA,231029,2618.0049,N,07958.7654,W,1,10,1.4,17,M,,M,,*6A
06/26/2015	23:10:29.511	$GPGGA,231030,2618.0049,N,07958.7655,W,1,10,1.3,17,M,,M,,*64
06/26/2015	23:10:30.621	$GPGGA,231031,2618.0049,N,07958.7654,W,1,10,1.3,17,M,,M,,*64
06/26/2015	23:10:31.692	$GPGGA,231032,2618.0049,N,07958.7653,W,1,10,1.3,17,M,,M,,*60
06/26/2015	23:10:32.511	$GPGGA,231033,2618.0049,N,07958.7652,W,1,10,1.3,17,M,,M,,*60
06/26/2015	23:10:33.708	$GPGGA,231034,2618.0051,N,07958.7653,W,1,10,1.3,17,M,,M,,*6F
06/26/2015	23:10:34.622	$GPGGA,231035,2618.0050,N,07958.7655,W,1,10,1.3,17,M,,M,,*69
06/26/2015	23:10:35.708	$GPGGA,231036,2618.0051,N,07958.7652,W,1,10,1.3,17,M,,M,,*6C
06/26/2015	23:10:36.632	$GPGGA,231037,2618.0050,N,07958.7652,W,1,10,1.3,17,M,,M,,*6C
06/26/2015	23:10:37.682	$GPGGA,231038,2618.0052,N,07958.7653,W,1,9,1.5,17,M,,M,,*5E
06/26/2015	23:10:38.572	$GPGGA,231039,2618.0051,N,07958.7653,W,1,9,1.3,17,M,,M,,*5A
06/26/2015	23:10:39.504	$GPGGA,231040,2618.0052,N,07958.7652,W,1,10,1.3,17,M,,M,,*6E
06/26/2015	23:10:40.572	$GPGGA,231041,2618.0052,N,07958.7651,W,1,10,1.5,17,M,,M,,*6A
06/26/2015	23:10:41.682	$GPGGA,231042,2618.0053,N,07958.7652,W,1,9,1.5,17,M,,M,,*53
06/26/2015	23:10:42.602	$GPGGA,231043,2618.0053,N,07958.7651,W,1,9,1.3,17,M,,M,,*57
06/26/2015	23:10:43.706	$GPGGA,231044,2618.0053,N,07958.7652,W,1,10,1.3,17,M,,M,,*6B
06/26/2015	23:10:45.125	$GPGGA,231045,2618.0053,N,07958.7651,W,1,10,1.3,17,M,,M,,*69
06/26/2015	23:10:45.681	$GPGGA,231046,2618.0053,N,07958.7650,W,1,10,1.3,17,M,,M,,*6B
06/26/2015	23:10:46.592	$GPGGA,231047,2618.0053,N,07958.7650,W,1,10,1.3,17,M,,M,,*6A
06/26/2015	23:10:47.661	$GPGGA,231048,2618.0053,N,07958.7650,W,1,10,1.3,17,M,,M,,*65
06/26/2015	23:10:48.561	$GPGGA,231049,2618.0053,N,07958.7650,W,1,10,1.3,17,M,,M,,*64
06/26/2015	23:10:49.671	$GPGGA,231050,2618.0053,N,07958.7650,W,1,10,1.3,17,M,,M,,*6C
06/26/2015	23:10:50.552	$GPGGA,231051,2618.0053,N,07958.7650,W,1,10,1.3,17,M,,M,,*6D
06/26/2015	23:10:51.652	$GPGGA,231052,2618.0053,N,07958.7650,W,1,10,1.3,17,M,,M,,*6E
06/26/2015	23:10:52.552	$GPGGA,231053,2618.0053,N,07958.7650,W,1,10,1.3,17,M,,M,,*6F
06/26/2015	23:10:53.672	$GPGGA,231054,2618.0053,N,07958.7649,W,1,10,1.3,17,M,,M,,*60
06/26/2015	23:10:54.572	$GPGGA,231055,2618.0053,N,07958.7649,W,1,10,1.3,17,M,,M,,*61
06/26/2015	23:10:55.682	$GPGGA,231056,2618.0052,N,07958.7650,W,1,10,1.3,17,M,,M,,*6B
06/26/2015	23:10:56.592	$GPGGA,231057,2618.0052,N,07958.7650,W,1,10,1.3,17,M,,M,,*6A
06/26/2015	23:10:57.642	$GPGGA,231058,2618.0052,N,07958.7649,W,1,10,1.3,17,M,,M,,*6D
06/26/2015	23:10:58.572	$GPGGA,231059,2618.0052,N,07958.7649,W,1,10,1.3,17,M,,M,,*6C
06/26/2015	23:10:59.672	$GPGGA,231100,2618.0052,N,07958.7650,W,1,10,1.3,17,M,,M,,*69
06/26/2015	23:11:00.582	$GPGGA,231101,2618.0052,N,07958.7649,W,1,10,1.5,17,M,,M,,*66
06/26/2015	23:11:01.652	$GPGGA,231102,2618.0052,N,07958.7648,W,1,8,1.5,17,M,,M,,*5D
06/26/2015	23:11:02.531	$GPGGA,231103,2618.0052,N,07958.7649,W,1,8,1.5,17,M,,M,,*5D
06/26/2015	23:11:03.671	$GPGGA,231104,2618.0051,N,07958.7650,W,1,10,1.4,17,M,,M,,*69
06/26/2015	23:11:04.561	$GPGGA,231105,2618.0050,N,07958.7650,W,1,10,1.4,17,M,,M,,*69
06/26/2015	23:11:05.621	$GPGGA,231106,2618.0051,N,07958.7650,W,1,9,1.3,16,M,,M,,*55
06/26/2015	23:11:06.551	$GPGGA,231107,2618.0049,N,07958.7652,W,1,9,1.3,16,M,,M,,*5F
06/26/2015	23:11:07.631	$GPGGA,231108,2618.0049,N,07958.7652,W,1,10,1.4,16,M,,M,,*6F
06/26/2015	23:11:08.572	$GPGGA,231109,2618.0047,N,07958.7652,W,1,10,1.4,16,M,,M,,*60
06/26/2015	23:11:09.642	$GPGGA,231110,2618.0048,N,07958.7652,W,1,9,1.3,16,M,,M,,*58
06/26/2015	23:11:11.673	$GPGGA,231112,2618.0046,N,07958.7655,W,1,10,1.4,16,M,,M,,*6C
06/26/2015	23:11:12.612	$GPGGA,231113,2618.0045,N,07958.7654,W,1,10,1.3,16,M,,M,,*68
06/26/2015	23:11:13.602	$GPGGA,231114,2618.0044,N,07958.7655,W,1,10,1.4,16,M,,M,,*68
06/26/2015	23:11:14.521	$GPGGA,231115,2618.0043,N,07958.7655,W,1,10,1.4,16,M,,M,,*6E
06/26/2015	23:11:15.652	$GPGGA,231116,2618.0042,N,07958.7654,W,1,9,1.3,16,M,,M,,*52
06/26/2015	23:11:16.542	$GPGGA,231117,2618.0042,N,07958.7655,W,1,9,1.4,16,M,,M,,*55
06/26/2015	23:11:17.642	$GPGGA,231118,2618.0044,N,07958.7655,W,1,9,1.3,16,M,,M,,*5B
06/26/2015	23:11:18.542	$GPGGA,231119,2618.0042,N,07958.7655,W,1,9,1.4,16,M,,M,,*5B
06/26/2015	23:11:19.632	$GPGGA,231120,2618.0042,N,07958.7655,W,1,9,1.4,16,M,,M,,*51
06/26/2015	23:11:20.541	$GPGGA,231121,2618.0042,N,07958.7655,W,1,9,1.3,16,M,,M,,*57
06/26/2015	23:11:21.591	$GPGGA,231122,2618.0042,N,07958.7655,W,1,10,1.3,16,M,,M,,*6C
06/26/2015	23:11:22.603	$GPGGA,231123,2618.0042,N,07958.7656,W,1,10,1.3,16,M,,M,,*6E
06/26/2015	23:11:23.661	$GPGGA,231124,2618.0042,N,07958.7656,W,1,10,1.4,16,M,,M,,*6E
06/26/2015	23:11:24.581	$GPGGA,231125,2618.0042,N,07958.7656,W,1,10,1.3,16,M,,M,,*68
06/26/2015	23:11:25.652	$GPGGA,231126,2618.0044,N,07958.7657,W,1,10,1.3,17,M,,M,,*6D
06/26/2015	23:11:26.582	$GPGGA,231127,2618.0043,N,07958.7657,W,1,10,1.3,17,M,,M,,*6B
06/26/2015	23:11:27.652	$GPGGA,231128,2618.0044,N,07958.7657,W,1,10,1.3,17,M,,M,,*63
06/26/2015	23:11:28.593	$GPGGA,231129,2618.0045,N,07958.7657,W,1,10,1.3,17,M,,M,,*63
06/26/2015	23:11:29.622	$GPGGA,231130,2618.0043,N,07958.7657,W,1,10,1.4,17,M,,M,,*6A
06/26/2015	23:11:30.582	$GPGGA,231131,2618.0044,N,07958.7657,W,1,10,1.3,17,M,,M,,*6B
06/26/2015	23:11:31.611	$GPGGA,231132,2618.0045,N,07958.7659,W,1,10,1.3,17,M,,M,,*67
06/26/2015	23:11:32.572	$GPGGA,231133,2618.0044,N,07958.7658,W,1,10,1.3,17,M,,M,,*66
06/26/2015	23:11:33.612	$GPGGA,231134,2618.0043,N,07958.7659,W,1,10,1.3,17,M,,M,,*67
06/26/2015	23:11:34.562	$GPGGA,231135,2618.0044,N,07958.7658,W,1,10,1.3,17,M,,M,,*60
06/26/2015	23:11:35.592	$GPGGA,231136,2618.0044,N,07958.7658,W,1,10,1.3,17,M,,M,,*63
06/26/2015	23:11:36.562	$GPGGA,231137,2618.0044,N,07958.7658,W,1,10,1.3,17,M,,M,,*62
06/26/2015	23:11:37.605	$GPGGA,231138,2618.0042,N,07958.7659,W,1,10,1.3,17,M,,M,,*6A
06/26/2015	23:11:38.561	$GPGGA,231139,2618.0042,N,07958.7658,W,1,10,1.3,17,M,,M,,*6A
06/26/2015	23:11:39.641	$GPGGA,231140,2618.0042,N,07958.7659,W,1,10,1.3,17,M,,M,,*65
06/26/2015	23:11:40.561	$GPGGA,231141,2618.0042,N,07958.7659,W,1,10,1.3,17,M,,M,,*64
06/26/2015	23:11:41.581	$GPGGA,231142,2618.0042,N,07958.7659,W,1,10,1.3,17,M,,M,,*67
06/26/2015	23:11:42.542	$GPGGA,231143,2618.0040,N,07958.7659,W,1,10,1.3,16,M,,M,,*65
06/26/2015	23:11:43.572	$GPGGA,231144,2618.0041,N,07958.7660,W,1,10,1.3,16,M,,M,,*69
06/26/2015	23:11:44.542	$GPGGA,231145,2618.0039,N,07958.7659,W,1,10,1.4,16,M,,M,,*6A
06/26/2015	23:11:45.642	$GPGGA,231146,2618.0039,N,07958.7659,W,1,9,1.4,16,M,,M,,*51
06/26/2015	23:11:46.532	$GPGGA,231147,2618.0038,N,07958.7659,W,1,9,1.3,16,M,,M,,*56
06/26/2015	23:11:47.609	$GPGGA,231148,2618.0038,N,07958.7659,W,1,10,1.3,16,M,,M,,*61
06/26/2015	23:11:48.532	$GPGGA,231149,2618.0038,N,07958.7659,W,1,10,1.3,16,M,,M,,*60
06/26/2015	23:11:49.562	$GPGGA,231150,2618.0038,N,07958.7659,W,1,10,1.3,16,M,,M,,*68
06/26/2015	23:11:50.552	$GPGGA,231151,2618.0038,N,07958.7659,W,1,10,1.4,16,M,,M,,*6E
06/26/2015	23:11:51.542	$GPGGA,231152,2618.0038,N,07958.7659,W,1,9,1.4,16,M,,M,,*55
06/26/2015	23:11:52.642	$GPGGA,231153,2618.0038,N,07958.7659,W,1,9,1.4,16,M,,M,,*54
06/26/2015	23:11:53.652	$GPGGA,231154,2618.0038,N,07958.7659,W,1,10,1.3,16,M,,M,,*6C
06/26/2015	23:11:54.512	$GPGGA,231155,2618.0040,N,07958.7659,W,1,10,1.3,16,M,,M,,*62
06/26/2015	23:11:55.581	$GPGGA,231156,2618.0038,N,07958.7659,W,1,10,1.4,16,M,,M,,*69
06/26/2015	23:11:56.531	$GPGGA,231157,2618.0038,N,07958.7659,W,1,10,1.4,16,M,,M,,*68
06/26/2015	23:11:57.581	$GPGGA,231158,2618.0036,N,07958.7658,W,1,9,1.3,16,M,,M,,*57
06/26/2015	23:11:58.604	$GPGGA,231159,2618.0035,N,07958.7657,W,1,9,1.3,16,M,,M,,*5A
06/26/2015	23:11:59.531	$GPGGA,231200,2618.0035,N,07958.7657,W,1,10,1.3,16,M,,M,,*6D
06/26/2015	23:12:00.505	$GPGGA,231201,2618.0035,N,07958.7659,W,1,10,1.3,16,M,,M,,*62
06/26/2015	23:12:01.522	$GPGGA,231202,2618.0036,N,07958.7657,W,1,10,1.3,16,M,,M,,*6C
06/26/2015	23:12:02.605	$GPGGA,231203,2618.0035,N,07958.7657,W,1,10,1.3,16,M,,M,,*6E
06/26/2015	23:12:03.663	$GPGGA,231204,2618.0036,N,07958.7659,W,1,10,1.3,16,M,,M,,*64
06/26/2015	23:12:04.605	$GPGGA,231205,2618.0037,N,07958.7658,W,1,10,1.3,16,M,,M,,*65
06/26/2015	23:12:05.632	$GPGGA,231206,2618.0036,N,07958.7659,W,1,10,1.3,16,M,,M,,*66
06/26/2015	23:12:06.592	$GPGGA,231207,2618.0037,N,07958.7658,W,1,10,1.3,16,M,,M,,*67
06/26/2015	23:12:07.622	$GPGGA,231208,2618.0038,N,07958.7659,W,1,10,1.3,16,M,,M,,*66
06/26/2015	23:12:08.592	$GPGGA,231209,2618.0038,N,07958.7658,W,1,10,1.3,16,M,,M,,*66
06/26/2015	23:12:09.582	$GPGGA,231210,2618.0038,N,07958.7659,W,1,10,1.3,16,M,,M,,*6F
06/26/2015	23:12:10.582	$GPGGA,231211,2618.0038,N,07958.7657,W,1,10,1.3,16,M,,M,,*60
06/26/2015	23:12:11.584	$GPGGA,231212,2618.0038,N,07958.7659,W,1,10,1.3,16,M,,M,,*6D
06/26/2015	23:12:12.581	$GPGGA,231213,2618.0038,N,07958.7658,W,1,10,1.3,16,M,,M,,*6D
06/26/2015	23:12:13.581	$GPGGA,231214,2618.0038,N,07958.7659,W,1,10,1.3,16,M,,M,,*6B
