Software Version Number: 1	Data File Format Number: 1	Build Version Number: 1	Error Count Since VI Started: 1	Manufacturer: Raytheon	 Model Number: RayMarine 120	 S/N: 	 Cal Date: 	 Wind Direction Offset: 0.00	 Slope (M)1: 0.00	 Offset (B)1: 0.00	 Slope (M)2: 0.00	 Offset (B)2: 0.00	 Slope (M)3: 0.00	 Offset (B)3: 0.00	 Slope (M)4: 0.00	 Offset (B)4: 0.00	 Slope (M)5: 0.00	 Offset (B)5: 0.00	 Slope (M)6: 0.00	 Offset (B)6: 0.00
Computer Date	Computer Time	GGA String
06/16/2015	18:00:00.544	$GPGGA,180001,2425.9850,N,08057.6289,W,1,11,1.6,16,M,,M,,*62
06/16/2015	18:00:01.554	$GPGGA,180002,2425.9861,N,08057.6279,W,1,11,1.6,16,M,,M,,*6C
06/16/2015	18:00:02.524	$GPGGA,180003,2425.9872,N,08057.6271,W,1,11,1.6,16,M,,M,,*67
06/16/2015	18:00:03.564	$GPGGA,180004,2425.9885,N,08057.6263,W,1,11,1.6,16,M,,M,,*6B
06/16/2015	18:00:04.644	$GPGGA,180005,2425.9896,N,08057.6253,W,1,11,1.6,16,M,,M,,*6B
06/16/2015	18:00:05.524	$GPGGA,180006,2425.9907,N,08057.6242,W,1,11,1.6,16,M,,M,,*61
06/16/2015	18:00:06.524	$GPGGA,180007,2425.9918,N,08057.6234,W,1,11,1.6,16,M,,M,,*6F
06/16/2015	18:00:07.534	$GPGGA,180008,2425.9929,N,08057.6226,W,1,11,1.6,16,M,,M,,*61
06/16/2015	18:00:08.524	$GPGGA,180009,2425.9940,N,08057.6216,W,1,11,1.6,16,M,,M,,*6C
06/16/2015	18:00:09.504	$GPGGA,180010,2425.9951,N,08057.6207,W,1,11,1.6,16,M,,M,,*64
06/16/2015	18:00:10.524	$GPGGA,180011,2425.9962,N,08057.6198,W,1,11,1.6,16,M,,M,,*60
06/16/2015	18:00:11.614	$GPGGA,180012,2425.9973,N,08057.6189,W,1,11,1.6,16,M,,M,,*63
06/16/2015	18:00:12.514	$GPGGA,180013,2425.9984,N,08057.6180,W,1,11,1.6,16,M,,M,,*63
06/16/2015	18:00:13.614	$GPGGA,180014,2425.9995,N,08057.6171,W,1,11,1.6,16,M,,M,,*6A
06/16/2015	18:00:14.504	$GPGGA,180015,2426.0005,N,08057.6161,W,1,11,1.6,16,M,,M,,*60
06/16/2015	18:00:15.623	$GPGGA,180016,2426.0016,N,08057.6152,W,1,11,1.6,16,M,,M,,*61
06/16/2015	18:00:16.504	$GPGGA,180017,2426.0027,N,08057.6144,W,1,11,1.6,16,M,,M,,*65
06/16/2015	18:00:17.624	$GPGGA,180018,2426.0040,N,08057.6134,W,1,11,1.6,16,M,,M,,*6C
06/16/2015	18:00:18.584	$GPGGA,180019,2426.0051,N,08057.6124,W,1,11,1.6,16,M,,M,,*6C
06/16/2015	18:00:19.634	$GPGGA,180020,2426.0062,N,08057.6115,W,1,11,1.6,16,M,,M,,*64
06/16/2015	18:00:20.594	$GPGGA,180021,2426.0073,N,08057.6106,W,1,11,1.6,16,M,,M,,*67
06/16/2015	18:00:21.604	$GPGGA,180022,2426.0085,N,08057.6098,W,1,11,1.6,16,M,,M,,*6B
06/16/2015	18:00:22.594	$GPGGA,180023,2426.0096,N,08057.6089,W,1,11,1.6,16,M,,M,,*68
06/16/2015	18:00:23.604	$GPGGA,180024,2426.0106,N,08057.6078,W,1,11,1.6,16,M,,M,,*69
06/16/2015	18:00:24.584	$GPGGA,180025,2426.0117,N,08057.6069,W,1,11,1.6,16,M,,M,,*68
06/16/2015	18:00:25.579	$GPGGA,180026,2426.0130,N,08057.6063,W,1,11,1.6,16,M,,M,,*64
06/16/2015	18:00:26.584	$GPGGA,180027,2426.0141,N,08057.6053,W,1,11,1.7,16,M,,M,,*61
06/16/2015	18:00:27.604	$GPGGA,180028,2426.0153,N,08057.6043,W,1,11,1.6,16,M,,M,,*6D
06/16/2015	18:00:28.564	$GPGGA,180029,2426.0164,N,08057.6035,W,1,11,1.6,16,M,,M,,*69
06/16/2015	18:00:29.594	$GPGGA,180030,2426.0175,N,08057.6028,W,1,11,1.6,16,M,,M,,*6D
06/16/2015	18:00:30.594	$GPGGA,180031,2426.0186,N,08057.6018,W,1,11,1.6,16,M,,M,,*63
06/16/2015	18:00:31.614	$GPGGA,180032,2426.0197,N,08057.6008,W,1,11,1.6,16,M,,M,,*61
06/16/2015	18:00:32.564	$GPGGA,180033,2426.0208,N,08057.6000,W,1,11,1.6,16,M,,M,,*6D
06/16/2015	18:00:33.553	$GPGGA,180034,2426.0219,N,08057.5991,W,1,11,1.6,16,M,,M,,*68
06/16/2015	18:00:34.575	$GPGGA,180035,2426.0230,N,08057.5981,W,1,11,1.6,16,M,,M,,*63
06/16/2015	18:00:35.594	$GPGGA,180036,2426.0242,N,08057.5973,W,1,11,1.6,16,M,,M,,*68
06/16/2015	18:00:36.554	$GPGGA,180037,2426.0253,N,08057.5964,W,1,11,1.6,16,M,,M,,*6F
06/16/2015	18:00:37.565	$GPGGA,180038,2426.0264,N,08057.5955,W,1,11,1.6,16,M,,M,,*66
06/16/2015	18:00:38.554	$GPGGA,180039,2426.0275,N,08057.5946,W,1,11,1.6,16,M,,M,,*65
06/16/2015	18:00:39.564	$GPGGA,180040,2426.0284,N,08057.5938,W,1,11,1.6,16,M,,M,,*6C
06/16/2015	18:00:40.554	$GPGGA,180041,2426.0297,N,08057.5930,W,1,11,1.6,16,M,,M,,*67
06/16/2015	18:00:41.534	$GPGGA,180042,2426.0308,N,08057.5921,W,1,11,1.6,16,M,,M,,*63
06/16/2015	18:00:42.544	$GPGGA,180043,2426.0319,N,08057.5911,W,1,11,1.6,16,M,,M,,*61
06/16/2015	18:00:43.585	$GPGGA,180044,2426.0330,N,08057.5903,W,1,11,1.6,16,M,,M,,*6E
06/16/2015	18:00:44.544	$GPGGA,180045,2426.0341,N,08057.5895,W,1,11,1.6,16,M,,M,,*67
06/16/2015	18:00:45.534	$GPGGA,180046,2426.0352,N,08057.5885,W,1,11,1.6,16,M,,M,,*67
06/16/2015	18:00:46.544	$GPGGA,180047,2426.0363,N,08057.5876,W,1,11,1.6,16,M,,M,,*68
06/16/2015	18:00:47.534	$GPGGA,180048,2426.0374,N,08057.5868,W,1,11,1.6,16,M,,M,,*6E
06/16/2015	18:00:48.524	$GPGGA,180049,2426.0385,N,08057.5859,W,1,11,1.9,16,M,,M,,*6C
06/16/2015	18:00:49.544	$GPGGA,180050,2426.0396,N,08057.5849,W,1,11,1.6,16,M,,M,,*68
06/16/2015	18:00:50.543	$GPGGA,180051,2426.0407,N,08057.5840,W,1,11,1.6,16,M,,M,,*6F
06/16/2015	18:00:51.544	$GPGGA,180052,2426.0420,N,08057.5830,W,1,11,1.6,16,M,,M,,*6E
06/16/2015	18:00:52.524	$GPGGA,180053,2426.0430,N,08057.5820,W,1,11,1.6,16,M,,M,,*6F
06/16/2015	18:00:53.534	$GPGGA,180054,2426.0441,N,08057.5811,W,1,11,1.6,16,M,,M,,*6C
06/16/2015	18:00:54.524	$GPGGA,180055,2426.0453,N,08057.5802,W,1,11,1.6,16,M,,M,,*6C
06/16/2015	18:00:55.644	$GPGGA,180056,2426.0464,N,08057.5791,W,1,11,1.6,16,M,,M,,*6E
06/16/2015	18:00:56.524	$GPGGA,180057,2426.0475,N,08057.5782,W,1,11,1.6,16,M,,M,,*6D
06/16/2015	18:00:57.644	$GPGGA,180058,2426.0486,N,08057.5774,W,1,11,1.6,16,M,,M,,*67
06/16/2015	18:00:58.624	$GPGGA,180059,2426.0497,N,08057.5764,W,1,11,1.6,16,M,,M,,*67
06/16/2015	18:00:59.693	$GPGGA,180100,2426.0508,N,08057.5755,W,1,11,1.6,16,M,,M,,*6F
06/16/2015	18:01:00.604	$GPGGA,180101,2426.0519,N,08057.5746,W,1,11,1.6,17,M,,M,,*6D
06/16/2015	18:01:01.514	$GPGGA,180102,2426.0532,N,08057.5737,W,1,11,1.6,17,M,,M,,*61
06/16/2015	18:01:02.494	$GPGGA,180103,2426.0543,N,08057.5728,W,1,11,1.6,17,M,,M,,*68
06/16/2015	18:01:03.634	$GPGGA,180104,2426.0554,N,08057.5721,W,1,11,1.6,17,M,,M,,*60
06/16/2015	18:01:04.504	$GPGGA,180105,2426.0565,N,08057.5712,W,1,11,1.6,17,M,,M,,*63
06/16/2015	18:01:05.594	$GPGGA,180106,2426.0576,N,08057.5702,W,1,11,1.6,17,M,,M,,*63
06/16/2015	18:01:06.594	$GPGGA,180107,2426.0587,N,08057.5695,W,1,11,1.6,17,M,,M,,*63
06/16/2015	18:01:07.634	$GPGGA,180108,2426.0598,N,08057.5688,W,1,11,1.6,17,M,,M,,*6E
06/16/2015	18:01:08.593	$GPGGA,180109,2426.0609,N,08057.5679,W,1,11,1.6,17,M,,M,,*6A
06/16/2015	18:01:09.604	$GPGGA,180110,2426.0620,N,08057.5670,W,1,11,1.6,17,M,,M,,*60
06/16/2015	18:01:10.584	$GPGGA,180111,2426.0633,N,08057.5662,W,1,11,1.6,17,M,,M,,*60
06/16/2015	18:01:11.635	$GPGGA,180112,2426.0644,N,08057.5655,W,1,11,1.6,17,M,,M,,*67
06/16/2015	18:01:12.585	$GPGGA,180113,2426.0655,N,08057.5646,W,1,11,1.6,17,M,,M,,*64
06/16/2015	18:01:13.576	$GPGGA,180114,2426.0667,N,08057.5637,W,1,11,1.6,17,M,,M,,*64
06/16/2015	18:01:14.574	$GPGGA,180115,2426.0677,N,08057.5629,W,1,11,1.6,17,M,,M,,*6B
06/16/2015	18:01:15.624	$GPGGA,180116,2426.0688,N,08057.5621,W,1,11,1.6,17,M,,M,,*60
06/16/2015	18:01:16.575	$GPGGA,180117,2426.0699,N,08057.5613,W,1,11,1.6,17,M,,M,,*60
06/16/2015	18:01:17.579	$GPGGA,180118,2426.0710,N,08057.5606,W,1,11,1.6,17,M,,M,,*6B
06/16/2015	18:01:18.577	$GPGGA,180119,2426.0721,N,08057.5597,W,1,11,1.6,17,M,,M,,*63
06/16/2015	18:01:19.604	$GPGGA,180120,2426.0732,N,08057.5589,W,1,11,1.6,17,M,,M,,*64
06/16/2015	18:01:20.586	$GPGGA,180121,2426.0742,N,08057.5581,W,1,11,1.6,17,M,,M,,*6A
06/16/2015	18:01:21.587	$GPGGA,180122,2426.0753,N,08057.5574,W,1,11,1.6,17,M,,M,,*63
06/16/2015	18:01:22.564	$GPGGA,180123,2426.0766,N,08057.5564,W,1,11,1.6,17,M,,M,,*65
06/16/2015	18:01:23.584	$GPGGA,180124,2426.0777,N,08057.5556,W,1,11,1.6,17,M,,M,,*63
06/16/2015	18:01:24.554	$GPGGA,180125,2426.0788,N,08057.5549,W,1,11,1.7,17,M,,M,,*6D
06/16/2015	18:01:25.581	$GPGGA,180126,2426.0797,N,08057.5540,W,1,10,1.6,17,M,,M,,*69
06/16/2015	18:01:26.554	$GPGGA,180127,2426.0808,N,08057.5530,W,1,10,1.6,17,M,,M,,*66
06/16/2015	18:01:27.578	$GPGGA,180128,2426.0820,N,08057.5521,W,1,11,1.6,17,M,,M,,*62
06/16/2015	18:01:28.554	$GPGGA,180129,2426.0831,N,08057.5512,W,1,11,1.6,17,M,,M,,*63
06/16/2015	18:01:29.579	$GPGGA,180130,2426.0840,N,08057.5502,W,1,11,1.6,17,M,,M,,*6C
06/16/2015	18:01:30.534	$GPGGA,180131,2426.0851,N,08057.5493,W,1,11,1.6,17,M,,M,,*64
06/16/2015	18:01:31.624	$GPGGA,180132,2426.0862,N,08057.5483,W,1,11,1.6,17,M,,M,,*66
06/16/2015	18:01:32.544	$GPGGA,180133,2426.0873,N,08057.5474,W,1,11,1.6,17,M,,M,,*6F
06/16/2015	18:01:33.524	$GPGGA,180134,2426.0886,N,08057.5465,W,1,11,1.6,17,M,,M,,*62
06/16/2015	18:01:34.534	$GPGGA,180135,2426.0897,N,08057.5456,W,1,11,1.6,17,M,,M,,*63
06/16/2015	18:01:35.624	$GPGGA,180136,2426.0908,N,08057.5447,W,1,11,1.6,17,M,,M,,*67
06/16/2015	18:01:36.524	$GPGGA,180137,2426.0919,N,08057.5437,W,1,11,1.6,17,M,,M,,*61
06/16/2015	18:01:37.554	$GPGGA,180138,2426.0930,N,08057.5428,W,1,11,1.6,17,M,,M,,*6B
06/16/2015	18:01:38.534	$GPGGA,180139,2426.0943,N,08057.5421,W,1,11,1.7,17,M,,M,,*66
06/16/2015	18:01:39.564	$GPGGA,180140,2426.0954,N,08057.5412,W,1,10,1.6,17,M,,M,,*6E
06/16/2015	18:01:40.534	$GPGGA,180141,2426.0966,N,08057.5402,W,1,10,1.6,17,M,,M,,*6F
06/16/2015	18:01:41.614	$GPGGA,180142,2426.0977,N,08057.5394,W,1,11,1.6,17,M,,M,,*65
06/16/2015	18:01:42.624	$GPGGA,180143,2426.0988,N,08057.5385,W,1,11,1.6,17,M,,M,,*64
06/16/2015	18:01:43.653	$GPGGA,180144,2426.0999,N,08057.5376,W,1,11,1.6,17,M,,M,,*6F
06/16/2015	18:01:44.614	$GPGGA,180145,2426.1010,N,08057.5366,W,1,11,1.6,17,M,,M,,*66
06/16/2015	18:01:45.504	$GPGGA,180146,2426.1021,N,08057.5357,W,1,11,1.6,17,M,,M,,*65
06/16/2015	18:01:46.594	$GPGGA,180147,2426.1032,N,08057.5349,W,1,11,1.6,17,M,,M,,*69
06/16/2015	18:01:47.634	$GPGGA,180148,2426.1045,N,08057.5339,W,1,11,1.6,17,M,,M,,*61
06/16/2015	18:01:48.534	$GPGGA,180149,2426.1055,N,08057.5331,W,1,11,1.6,17,M,,M,,*69
06/16/2015	18:01:49.589	$GPGGA,180150,2426.1067,N,08057.5323,W,1,11,1.6,17,M,,M,,*63
06/16/2015	18:01:50.644	$GPGGA,180151,2426.1078,N,08057.5313,W,1,11,1.6,17,M,,M,,*6F
06/16/2015	18:01:51.854	$GPGGA,180152,2426.1089,N,08057.5304,W,1,11,1.6,17,M,,M,,*64
06/16/2015	18:01:52.596	$GPGGA,180153,2426.1100,N,08057.5296,W,1,11,1.6,17,M,,M,,*6F
06/16/2015	18:01:53.594	$GPGGA,180154,2426.1113,N,08057.5287,W,1,11,1.6,17,M,,M,,*6A
06/16/2015	18:01:54.594	$GPGGA,180155,2426.1124,N,08057.5277,W,1,11,1.6,17,M,,M,,*60
06/16/2015	18:01:55.604	$GPGGA,180156,2426.1135,N,08057.5268,W,1,11,1.6,17,M,,M,,*6D
06/16/2015	18:01:56.578	$GPGGA,180157,2426.1147,N,08057.5260,W,1,11,1.6,17,M,,M,,*61
06/16/2015	18:01:57.604	$GPGGA,180158,2426.1158,N,08057.5252,W,1,11,1.6,17,M,,M,,*61
06/16/2015	18:01:58.586	$GPGGA,180159,2426.1169,N,08057.5242,W,1,11,1.6,17,M,,M,,*63
06/16/2015	18:01:59.624	$GPGGA,180200,2426.1180,N,08057.5233,W,1,11,1.6,17,M,,M,,*6D
06/16/2015	18:02:00.503	$GPGGA,180201,2426.1193,N,08057.5226,W,1,11,1.7,17,M,,M,,*6B
06/16/2015	18:02:01.577	$GPGGA,180202,2426.1204,N,08057.5217,W,1,10,1.7,17,M,,M,,*66
06/16/2015	18:02:02.575	$GPGGA,180203,2426.1215,N,08057.5206,W,1,10,1.9,17,M,,M,,*69
06/16/2015	18:02:03.586	$GPGGA,180204,2426.1226,N,08057.5198,W,1,11,1.6,17,M,,M,,*64
06/16/2015	18:02:04.854	$GPGGA,180205,2426.1237,N,08057.5191,W,1,11,1.6,17,M,,M,,*6C
06/16/2015	18:02:05.584	$GPGGA,180206,2426.1248,N,08057.5180,W,1,11,1.6,17,M,,M,,*67
06/16/2015	18:02:06.554	$GPGGA,180207,2426.1259,N,08057.5172,W,1,11,1.6,17,M,,M,,*6B
06/16/2015	18:02:07.594	$GPGGA,180208,2426.1272,N,08057.5165,W,1,11,1.6,17,M,,M,,*6B
06/16/2015	18:02:08.554	$GPGGA,180209,2426.1284,N,08057.5155,W,1,11,1.6,17,M,,M,,*60
06/16/2015	18:02:09.576	$GPGGA,180210,2426.1294,N,08057.5145,W,1,11,1.6,17,M,,M,,*68
06/16/2015	18:02:10.554	$GPGGA,180211,2426.1305,N,08057.5138,W,1,11,1.6,17,M,,M,,*6A
06/16/2015	18:02:11.564	$GPGGA,180212,2426.1317,N,08057.5131,W,1,11,1.6,17,M,,M,,*63
06/16/2015	18:02:12.554	$GPGGA,180213,2426.1328,N,08057.5121,W,1,11,1.6,17,M,,M,,*6F
06/16/2015	18:02:13.576	$GPGGA,180214,2426.1339,N,08057.5111,W,1,11,1.6,17,M,,M,,*6B
06/16/2015	18:02:14.554	$GPGGA,180215,2426.1349,N,08057.5104,W,1,11,1.6,17,M,,M,,*69
06/16/2015	18:02:15.585	$GPGGA,180216,2426.1362,N,08057.5095,W,1,10,1.9,16,M,,M,,*65
06/16/2015	18:02:16.544	$GPGGA,180217,2426.1373,N,08057.5084,W,1,10,1.6,16,M,,M,,*6B
06/16/2015	18:02:17.534	$GPGGA,180218,2426.1382,N,08057.5074,W,1,11,1.6,16,M,,M,,*64
06/16/2015	18:02:18.543	$GPGGA,180219,2426.1395,N,08057.5067,W,1,11,1.6,16,M,,M,,*61
06/16/2015	18:02:20.004	$GPGGA,180220,2426.1407,N,08057.5059,W,1,11,1.6,16,M,,M,,*6A
06/16/2015	18:02:20.534	$GPGGA,180221,2426.1417,N,08057.5050,W,1,11,1.7,16,M,,M,,*62
06/16/2015	18:02:21.524	$GPGGA,180222,2426.1428,N,08057.5040,W,1,10,1.9,16,M,,M,,*63
06/16/2015	18:02:22.534	$GPGGA,180223,2426.1439,N,08057.5030,W,1,10,1.6,16,M,,M,,*6A
06/16/2015	18:02:23.554	$GPGGA,180224,2426.1450,N,08057.5020,W,1,11,1.6,16,M,,M,,*62
06/16/2015	18:02:24.534	$GPGGA,180225,2426.1461,N,08057.5011,W,1,11,1.6,16,M,,M,,*63
06/16/2015	18:02:25.524	$GPGGA,180226,2426.1472,N,08057.5003,W,1,11,1.6,16,M,,M,,*61
06/16/2015	18:02:26.614	$GPGGA,180227,2426.1483,N,08057.4992,W,1,11,1.6,16,M,,M,,*6E
06/16/2015	18:02:27.534	$GPGGA,180228,2426.1494,N,08057.4983,W,1,11,1.6,16,M,,M,,*67
06/16/2015	18:02:28.524	$GPGGA,180229,2426.1505,N,08057.4974,W,1,11,1.6,16,M,,M,,*67
06/16/2015	18:02:29.624	$GPGGA,180230,2426.1516,N,08057.4966,W,1,11,1.6,16,M,,M,,*6E
06/16/2015	18:02:30.524	$GPGGA,180231,2426.1527,N,08057.4957,W,1,11,1.6,16,M,,M,,*6F
06/16/2015	18:02:31.624	$GPGGA,180232,2426.1540,N,08057.4948,W,1,11,1.6,16,M,,M,,*63
06/16/2015	18:02:32.504	$GPGGA,180233,2426.1551,N,08057.4939,W,1,11,1.6,16,M,,M,,*64
06/16/2015	18:02:33.624	$GPGGA,180234,2426.1562,N,08057.4931,W,1,11,1.6,16,M,,M,,*6B
06/16/2015	18:02:34.495	$GPGGA,180235,2426.1573,N,08057.4922,W,1,11,1.6,16,M,,M,,*68
06/16/2015	18:02:35.643	$GPGGA,180236,2426.1584,N,08057.4912,W,1,11,1.6,16,M,,M,,*60
06/16/2015	18:02:36.604	$GPGGA,180237,2426.1595,N,08057.4902,W,1,11,1.6,16,M,,M,,*60
06/16/2015	18:02:37.624	$GPGGA,180238,2426.1606,N,08057.4896,W,1,11,1.6,16,M,,M,,*6A
06/16/2015	18:02:38.494	$GPGGA,180239,2426.1619,N,08057.4887,W,1,11,1.6,16,M,,M,,*65
06/16/2015	18:02:39.594	$GPGGA,180240,2426.1628,N,08057.4877,W,1,10,1.7,16,M,,M,,*66
06/16/2015	18:02:40.588	$GPGGA,180241,2426.1639,N,08057.4869,W,1,10,1.6,16,M,,M,,*69
06/16/2015	18:02:41.594	$GPGGA,180242,2426.1652,N,08057.4861,W,1,11,1.6,16,M,,M,,*6E
06/16/2015	18:02:42.589	$GPGGA,180243,2426.1663,N,08057.4852,W,1,11,1.6,16,M,,M,,*6D
06/16/2015	18:02:43.497	$GPGGA,180244,2426.1674,N,08057.4843,W,1,11,1.6,16,M,,M,,*6C
06/16/2015	18:02:44.577	$GPGGA,180245,2426.1684,N,08057.4837,W,1,11,2.0,16,M,,M,,*64
06/16/2015	18:02:45.589	$GPGGA,180246,2426.1695,N,08057.4829,W,1,10,1.9,17,M,,M,,*62
06/16/2015	18:02:46.585	$GPGGA,180247,2426.1706,N,08057.4823,W,1,10,1.9,17,M,,M,,*62
06/16/2015	18:02:47.592	$GPGGA,180248,2426.1717,N,08057.4814,W,1,10,1.9,17,M,,M,,*69
06/16/2015	18:02:48.579	$GPGGA,180249,2426.1728,N,08057.4805,W,1,10,1.6,17,M,,M,,*6B
06/16/2015	18:02:49.594	$GPGGA,180250,2426.1740,N,08057.4797,W,1,11,1.6,17,M,,M,,*68
06/16/2015	18:02:50.577	$GPGGA,180251,2426.1750,N,08057.4788,W,1,11,1.6,17,M,,M,,*66
06/16/2015	18:02:51.580	$GPGGA,180252,2426.1761,N,08057.4779,W,1,11,1.6,17,M,,M,,*69
06/16/2015	18:02:52.554	$GPGGA,180253,2426.1774,N,08057.4770,W,1,11,1.9,18,M,,M,,*65
06/16/2015	18:02:54.604	$GPGGA,180255,2426.1794,N,08057.4749,W,1,11,1.7,18,M,,M,,*69
06/16/2015	18:02:55.586	$GPGGA,180256,2426.1807,N,08057.4742,W,1,11,1.6,18,M,,M,,*65
06/16/2015	18:02:56.554	$GPGGA,180257,2426.1819,N,08057.4735,W,1,11,1.9,18,M,,M,,*64
06/16/2015	18:02:57.544	$GPGGA,180258,2426.1830,N,08057.4727,W,1,10,1.9,18,M,,M,,*62
06/16/2015	18:02:58.554	$GPGGA,180259,2426.1841,N,08057.4718,W,1,10,1.6,18,M,,M,,*66
06/16/2015	18:02:59.584	$GPGGA,180300,2426.1852,N,08057.4710,W,1,10,1.9,19,M,,M,,*6F
06/16/2015	18:03:00.544	$GPGGA,180301,2426.1863,N,08057.4702,W,1,10,1.9,19,M,,M,,*6F
06/16/2015	18:03:01.534	$GPGGA,180302,2426.1875,N,08057.4693,W,1,11,1.6,19,M,,M,,*6C
06/16/2015	18:03:02.554	$GPGGA,180303,2426.1886,N,08057.4683,W,1,11,1.6,19,M,,M,,*60
06/16/2015	18:03:03.564	$GPGGA,180304,2426.1897,N,08057.4677,W,1,10,2.0,19,M,,M,,*68
06/16/2015	18:03:04.524	$GPGGA,180305,2426.1909,N,08057.4669,W,1,10,1.9,19,M,,M,,*6A
06/16/2015	18:03:05.544	$GPGGA,180306,2426.1919,N,08057.4661,W,1,11,1.6,19,M,,M,,*6E
06/16/2015	18:03:06.524	$GPGGA,180307,2426.1931,N,08057.4652,W,1,11,1.9,19,M,,M,,*6A
06/16/2015	18:03:07.554	$GPGGA,180308,2426.1942,N,08057.4642,W,1,10,2.0,19,M,,M,,*6B
06/16/2015	18:03:08.514	$GPGGA,180309,2426.1953,N,08057.4633,W,1,10,2.0,19,M,,M,,*6C
06/16/2015	18:03:09.524	$GPGGA,180310,2426.1964,N,08057.4626,W,1,11,1.6,19,M,,M,,*60
06/16/2015	18:03:10.513	$GPGGA,180311,2426.1975,N,08057.4618,W,1,11,1.9,19,M,,M,,*63
06/16/2015	18:03:11.533	$GPGGA,180312,2426.1988,N,08057.4608,W,1,10,1.9,19,M,,M,,*62
06/16/2015	18:03:12.503	$GPGGA,180313,2426.1999,N,08057.4599,W,1,10,2.3,19,M,,M,,*61
06/16/2015	18:03:13.543	$GPGGA,180314,2426.2010,N,08057.4594,W,1,10,1.9,19,M,,M,,*69
06/16/2015	18:03:14.503	$GPGGA,180315,2426.2021,N,08057.4584,W,1,10,1.9,19,M,,M,,*6B
06/16/2015	18:03:15.523	$GPGGA,180316,2426.2032,N,08057.4575,W,1,10,2.0,19,M,,M,,*6E
06/16/2015	18:03:16.503	$GPGGA,180317,2426.2043,N,08057.4567,W,1,10,2.3,19,M,,M,,*69
06/16/2015	18:03:17.593	$GPGGA,180318,2426.2054,N,08057.4560,W,1,10,1.9,19,M,,M,,*6E
06/16/2015	18:03:18.493	$GPGGA,180319,2426.2065,N,08057.4550,W,1,10,1.9,19,M,,M,,*6E
06/16/2015	18:03:19.513	$GPGGA,180320,2426.2076,N,08057.4542,W,1,10,1.9,19,M,,M,,*65
06/16/2015	18:03:20.583	$GPGGA,180321,2426.2087,N,08057.4534,W,1,10,1.9,19,M,,M,,*6B
06/16/2015	18:03:21.503	$GPGGA,180322,2426.2099,N,08057.4526,W,1,11,1.6,19,M,,M,,*6A
06/16/2015	18:03:22.478	$GPGGA,180323,2426.2111,N,08057.4516,W,1,11,1.6,19,M,,M,,*69
06/16/2015	18:03:23.494	$GPGGA,180324,2426.2121,N,08057.4510,W,1,10,2.0,19,M,,M,,*6F
06/16/2015	18:03:24.584	$GPGGA,180325,2426.2130,N,08057.4508,W,1,10,1.9,19,M,,M,,*6D
06/16/2015	18:03:25.574	$GPGGA,180326,2426.2141,N,08057.4500,W,1,11,1.6,19,M,,M,,*6E
06/16/2015	18:03:26.584	$GPGGA,180327,2426.2151,N,08057.4492,W,1,11,1.6,19,M,,M,,*64
06/16/2015	18:03:27.524	$GPGGA,180328,2426.2162,N,08057.4485,W,1,11,1.6,20,M,,M,,*67
06/16/2015	18:03:28.566	$GPGGA,180329,2426.2173,N,08057.4479,W,1,11,1.9,20,M,,M,,*6A
06/16/2015	18:03:29.593	$GPGGA,180330,2426.2184,N,08057.4469,W,1,11,1.6,20,M,,M,,*64
06/16/2015	18:03:30.573	$GPGGA,180331,2426.2195,N,08057.4460,W,1,11,1.6,20,M,,M,,*6C
06/16/2015	18:03:31.583	$GPGGA,180332,2426.2206,N,08057.4451,W,1,10,1.9,21,M,,M,,*6B
06/16/2015	18:03:32.475	$GPGGA,180333,2426.2217,N,08057.4442,W,1,10,1.9,21,M,,M,,*68
06/16/2015	18:03:33.583	$GPGGA,180334,2426.2229,N,08057.4433,W,1,10,1.9,21,M,,M,,*64
06/16/2015	18:03:34.553	$GPGGA,180335,2426.2240,N,08057.4426,W,1,10,1.6,21,M,,M,,*61
06/16/2015	18:03:35.583	$GPGGA,180336,2426.2252,N,08057.4416,W,1,11,1.6,21,M,,M,,*63
06/16/2015	18:03:36.553	$GPGGA,180337,2426.2263,N,08057.4405,W,1,11,2.3,22,M,,M,,*67
06/16/2015	18:03:37.553	$GPGGA,180338,2426.2274,N,08057.4397,W,1,9,2.3,22,M,,M,,*5B
06/16/2015	18:03:38.823	$GPGGA,180339,2426.2285,N,08057.4390,W,1,9,1.9,22,M,,M,,*5A
06/16/2015	18:03:39.575	$GPGGA,180340,2426.2296,N,08057.4380,W,1,10,1.9,22,M,,M,,*6F
06/16/2015	18:03:40.594	$GPGGA,180341,2426.2307,N,08057.4368,W,1,10,1.9,22,M,,M,,*61
06/16/2015	18:03:41.544	$GPGGA,180342,2426.2320,N,08057.4359,W,1,10,2.0,22,M,,M,,*6F
06/16/2015	18:03:42.544	$GPGGA,180343,2426.2332,N,08057.4351,W,1,10,1.6,22,M,,M,,*60
06/16/2015	18:03:43.544	$GPGGA,180344,2426.2342,N,08057.4341,W,1,11,1.6,22,M,,M,,*60
06/16/2015	18:03:44.544	$GPGGA,180345,2426.2353,N,08057.4330,W,1,11,1.6,22,M,,M,,*67
06/16/2015	18:03:45.553	$GPGGA,180346,2426.2365,N,08057.4323,W,1,11,1.6,22,M,,M,,*63
06/16/2015	18:03:46.543	$GPGGA,180347,2426.2375,N,08057.4316,W,1,11,1.9,22,M,,M,,*6A
06/16/2015	18:03:47.573	$GPGGA,180348,2426.2386,N,08057.4306,W,1,11,1.6,22,M,,M,,*67
06/16/2015	18:03:48.543	$GPGGA,180349,2426.2399,N,08057.4295,W,1,11,1.6,22,M,,M,,*63
06/16/2015	18:03:49.553	$GPGGA,180350,2426.2410,N,08057.4288,W,1,11,1.6,22,M,,M,,*61
06/16/2015	18:03:50.523	$GPGGA,180351,2426.2422,N,08057.4281,W,1,11,2.3,22,M,,M,,*6E
06/16/2015	18:03:51.563	$GPGGA,180352,2426.2433,N,08057.4271,W,1,11,1.6,22,M,,M,,*64
06/16/2015	18:03:52.523	$GPGGA,180353,2426.2444,N,08057.4260,W,1,11,1.6,22,M,,M,,*65
06/16/2015	18:03:53.553	$GPGGA,180354,2426.2455,N,08057.4252,W,1,9,2.3,22,M,,M,,*5C
06/16/2015	18:03:54.523	$GPGGA,180355,2426.2468,N,08057.4244,W,1,9,2.3,21,M,,M,,*57
06/16/2015	18:03:55.543	$GPGGA,180356,2426.2479,N,08057.4231,W,1,9,2.3,21,M,,M,,*56
06/16/2015	18:03:56.503	$GPGGA,180357,2426.2490,N,08057.4220,W,1,9,1.6,21,M,,M,,*56
06/16/2015	18:03:57.534	$GPGGA,180358,2426.2502,N,08057.4212,W,1,10,2.0,21,M,,M,,*6F
06/16/2015	18:03:58.524	$GPGGA,180359,2426.2513,N,08057.4204,W,1,10,1.9,21,M,,M,,*63
06/16/2015	18:03:59.534	$GPGGA,180400,2426.2523,N,08057.4199,W,1,9,2.3,21,M,,M,,*5D
06/16/2015	18:04:00.504	$GPGGA,180401,2426.2533,N,08057.4192,W,1,9,1.6,21,M,,M,,*50
06/16/2015	18:04:01.534	$GPGGA,180402,2426.2545,N,08057.4184,W,1,11,1.6,21,M,,M,,*6C
06/16/2015	18:04:02.514	$GPGGA,180403,2426.2555,N,08057.4178,W,1,11,1.9,21,M,,M,,*60
06/16/2015	18:04:03.693	$GPGGA,180404,2426.2567,N,08057.4171,W,1,11,1.6,21,M,,M,,*60
06/16/2015	18:04:04.653	$GPGGA,180405,2426.2578,N,08057.4162,W,1,11,1.6,21,M,,M,,*6D
06/16/2015	18:04:05.493	$GPGGA,180406,2426.2589,N,08057.4152,W,1,11,1.6,21,M,,M,,*63
06/16/2015	18:04:06.493	$GPGGA,180407,2426.2599,N,08057.4146,W,1,11,2.0,21,M,,M,,*63
06/16/2015	18:04:07.503	$GPGGA,180408,2426.2610,N,08057.4138,W,1,11,1.6,21,M,,M,,*62
06/16/2015	18:04:08.493	$GPGGA,180409,2426.2621,N,08057.4128,W,1,11,1.6,21,M,,M,,*60
06/16/2015	18:04:09.503	$GPGGA,180410,2426.2632,N,08057.4119,W,1,11,1.6,21,M,,M,,*68
06/16/2015	18:04:10.573	$GPGGA,180411,2426.2643,N,08057.4111,W,1,11,2.0,21,M,,M,,*62
06/16/2015	18:04:11.703	$GPGGA,180412,2426.2654,N,08057.4101,W,1,11,1.6,21,M,,M,,*63
06/16/2015	18:04:12.583	$GPGGA,180413,2426.2664,N,08057.4092,W,1,11,1.6,21,M,,M,,*6A
06/16/2015	18:04:13.682	$GPGGA,180414,2426.2675,N,08057.4086,W,1,11,1.6,22,M,,M,,*6B
06/16/2015	18:04:14.604	$GPGGA,180415,2426.2686,N,08057.4077,W,1,11,1.6,22,M,,M,,*68
06/16/2015	18:04:15.690	$GPGGA,180416,2426.2697,N,08057.4067,W,1,11,1.6,22,M,,M,,*6A
06/16/2015	18:04:16.634	$GPGGA,180417,2426.2708,N,08057.4059,W,1,11,1.6,22,M,,M,,*61
06/16/2015	18:04:17.580	$GPGGA,180418,2426.2719,N,08057.4051,W,1,11,1.6,22,M,,M,,*66
06/16/2015	18:04:18.594	$GPGGA,180419,2426.2732,N,08057.4044,W,1,11,1.6,22,M,,M,,*6A
06/16/2015	18:04:19.574	$GPGGA,180420,2426.2743,N,08057.4036,W,1,11,1.6,22,M,,M,,*63
06/16/2015	18:04:20.613	$GPGGA,180421,2426.2754,N,08057.4026,W,1,11,2.0,22,M,,M,,*60
06/16/2015	18:04:21.669	$GPGGA,180422,2426.2765,N,08057.4018,W,1,10,2.0,22,M,,M,,*6D
06/16/2015	18:04:22.583	$GPGGA,180423,2426.2777,N,08057.4012,W,1,10,1.6,22,M,,M,,*60
06/16/2015	18:04:23.682	$GPGGA,180424,2426.2789,N,08057.4003,W,1,11,1.6,22,M,,M,,*67
06/16/2015	18:04:24.583	$GPGGA,180425,2426.2800,N,08057.3992,W,1,11,2.0,22,M,,M,,*6B
06/16/2015	18:04:25.653	$GPGGA,180426,2426.2811,N,08057.3984,W,1,10,2.0,22,M,,M,,*6E
06/16/2015	18:04:26.574	$GPGGA,180427,2426.2823,N,08057.3976,W,1,10,2.3,22,M,,M,,*60
06/16/2015	18:04:27.670	$GPGGA,180428,2426.2834,N,08057.3968,W,1,10,2.0,22,M,,M,,*65
06/16/2015	18:04:28.573	$GPGGA,180429,2426.2845,N,08057.3959,W,1,10,1.6,22,M,,M,,*65
06/16/2015	18:04:29.643	$GPGGA,180430,2426.2856,N,08057.3949,W,1,10,2.0,22,M,,M,,*6B
06/16/2015	18:04:30.564	$GPGGA,180431,2426.2867,N,08057.3942,W,1,10,2.0,22,M,,M,,*63
06/16/2015	18:04:31.664	$GPGGA,180432,2426.2878,N,08057.3933,W,1,10,1.6,22,M,,M,,*6D
06/16/2015	18:04:32.569	$GPGGA,180433,2426.2892,N,08057.3925,W,1,10,1.6,22,M,,M,,*6F
06/16/2015	18:04:33.644	$GPGGA,180434,2426.2902,N,08057.3915,W,1,11,1.9,21,M,,M,,*6E
06/16/2015	18:04:34.564	$GPGGA,180435,2426.2912,N,08057.3908,W,1,11,1.9,21,M,,M,,*62
06/16/2015	18:04:35.654	$GPGGA,180436,2426.2924,N,08057.3900,W,1,10,1.9,21,M,,M,,*6D
06/16/2015	18:04:36.524	$GPGGA,180437,2426.2935,N,08057.3891,W,1,10,1.6,21,M,,M,,*6A
06/16/2015	18:04:37.633	$GPGGA,180438,2426.2946,N,08057.3880,W,1,11,1.6,21,M,,M,,*60
06/16/2015	18:04:38.523	$GPGGA,180439,2426.2957,N,08057.3872,W,1,11,2.0,21,M,,M,,*69
06/16/2015	18:04:39.613	$GPGGA,180440,2426.2968,N,08057.3865,W,1,11,1.6,21,M,,M,,*68
06/16/2015	18:04:40.513	$GPGGA,180441,2426.2979,N,08057.3856,W,1,11,1.6,21,M,,M,,*69
06/16/2015	18:04:41.603	$GPGGA,180442,2426.2990,N,08057.3848,W,1,11,1.6,21,M,,M,,*62
06/16/2015	18:04:42.553	$GPGGA,180443,2426.3001,N,08057.3843,W,1,11,1.6,21,M,,M,,*68
06/16/2015	18:04:43.603	$GPGGA,180444,2426.3013,N,08057.3835,W,1,11,1.6,21,M,,M,,*6D
06/16/2015	18:04:44.503	$GPGGA,180445,2426.3024,N,08057.3827,W,1,11,1.6,21,M,,M,,*6B
06/16/2015	18:04:45.583	$GPGGA,180446,2426.3035,N,08057.3819,W,1,10,1.9,21,M,,M,,*6B
06/16/2015	18:04:46.623	$GPGGA,180447,2426.3046,N,08057.3810,W,1,10,1.6,21,M,,M,,*68
06/16/2015	18:04:47.613	$GPGGA,180448,2426.3058,N,08057.3802,W,1,11,1.6,21,M,,M,,*6A
06/16/2015	18:04:48.493	$GPGGA,180449,2426.3069,N,08057.3792,W,1,11,1.6,21,M,,M,,*6F
06/16/2015	18:04:49.624	$GPGGA,180450,2426.3080,N,08057.3784,W,1,10,1.9,21,M,,M,,*69
06/16/2015	18:04:50.534	$GPGGA,180451,2426.3091,N,08057.3776,W,1,10,1.6,21,M,,M,,*6A
06/16/2015	18:04:51.624	$GPGGA,180452,2426.3104,N,08057.3765,W,1,11,2.3,21,M,,M,,*61
06/16/2015	18:04:52.484	$GPGGA,180453,2426.3115,N,08057.3754,W,1,11,2.3,21,M,,M,,*62
06/16/2015	18:04:53.614	$GPGGA,180454,2426.3127,N,08057.3747,W,1,10,1.6,21,M,,M,,*61
06/16/2015	18:04:54.524	$GPGGA,180455,2426.3138,N,08057.3741,W,1,10,1.6,20,M,,M,,*69
06/16/2015	18:04:55.643	$GPGGA,180456,2426.3148,N,08057.3732,W,1,11,1.6,20,M,,M,,*68
06/16/2015	18:04:56.583	$GPGGA,180457,2426.3159,N,08057.3723,W,1,11,2.0,20,M,,M,,*6C
06/16/2015	18:04:57.633	$GPGGA,180458,2426.3172,N,08057.3715,W,1,10,1.6,20,M,,M,,*6B
06/16/2015	18:04:58.573	$GPGGA,180459,2426.3184,N,08057.3706,W,1,10,1.9,20,M,,M,,*6E
06/16/2015	18:04:59.613	$GPGGA,180500,2426.3195,N,08057.3695,W,1,10,1.9,20,M,,M,,*68
06/16/2015	18:05:00.583	$GPGGA,180501,2426.3205,N,08057.3689,W,1,10,1.9,20,M,,M,,*6E
06/16/2015	18:05:01.593	$GPGGA,180502,2426.3217,N,08057.3682,W,1,10,1.9,20,M,,M,,*65
06/16/2015	18:05:02.513	$GPGGA,180503,2426.3228,N,08057.3671,W,1,10,2.3,20,M,,M,,*6D
06/16/2015	18:05:03.593	$GPGGA,180504,2426.3241,N,08057.3661,W,1,9,2.3,20,M,,M,,*5C
06/16/2015	18:05:04.565	$GPGGA,180505,2426.3250,N,08057.3653,W,1,9,1.6,20,M,,M,,*5A
06/16/2015	18:05:05.573	$GPGGA,180506,2426.3263,N,08057.3644,W,1,11,1.6,20,M,,M,,*66
06/16/2015	18:05:06.575	$GPGGA,180507,2426.3274,N,08057.3634,W,1,11,1.6,20,M,,M,,*66
06/16/2015	18:05:07.604	$GPGGA,180508,2426.3285,N,08057.3626,W,1,11,1.6,20,M,,M,,*64
06/16/2015	18:05:08.554	$GPGGA,180509,2426.3296,N,08057.3617,W,1,11,1.6,20,M,,M,,*65
06/16/2015	18:05:09.624	$GPGGA,180510,2426.3307,N,08057.3607,W,1,11,1.6,20,M,,M,,*65
06/16/2015	18:05:10.564	$GPGGA,180511,2426.3318,N,08057.3598,W,1,11,1.6,20,M,,M,,*6F
06/16/2015	18:05:11.584	$GPGGA,180512,2426.3329,N,08057.3590,W,1,11,1.6,20,M,,M,,*66
06/16/2015	18:05:12.553	$GPGGA,180513,2426.3340,N,08057.3581,W,1,11,1.6,20,M,,M,,*68
06/16/2015	18:05:13.573	$GPGGA,180514,2426.3340,N,08057.3581,W,1,11,1.6,20,M,,M,,*6F
06/16/2015	18:05:14.573	$GPGGA,180515,2426.3362,N,08057.3564,W,1,11,1.6,20,M,,M,,*65
06/16/2015	18:05:15.633	$GPGGA,180516,2426.3373,N,08057.3554,W,1,11,1.6,20,M,,M,,*65
06/16/2015	18:05:16.543	$GPGGA,180517,2426.3386,N,08057.3547,W,1,11,1.6,20,M,,M,,*6C
06/16/2015	18:05:17.623	$GPGGA,180518,2426.3397,N,08057.3540,W,1,11,1.6,20,M,,M,,*64
06/16/2015	18:05:18.553	$GPGGA,180519,2426.3408,N,08057.3529,W,1,11,1.6,20,M,,M,,*6B
06/16/2015	18:05:19.623	$GPGGA,180520,2426.3419,N,08057.3519,W,1,11,2.0,20,M,,M,,*67
06/16/2015	18:05:20.543	$GPGGA,180521,2426.3430,N,08057.3513,W,1,11,2.0,20,M,,M,,*67
06/16/2015	18:05:21.574	$GPGGA,180522,2426.3441,N,08057.3504,W,1,11,1.6,20,M,,M,,*61
06/16/2015	18:05:22.523	$GPGGA,180523,2426.3452,N,08057.3493,W,1,11,2.3,20,M,,M,,*6B
06/16/2015	18:05:23.603	$GPGGA,180524,2426.3463,N,08057.3485,W,1,9,1.9,20,M,,M,,*59
06/16/2015	18:05:24.534	$GPGGA,180525,2426.3476,N,08057.3477,W,1,9,1.9,20,M,,M,,*51
06/16/2015	18:05:25.584	$GPGGA,180526,2426.3488,N,08057.3469,W,1,10,1.6,20,M,,M,,*6B
06/16/2015	18:05:26.534	$GPGGA,180527,2426.3499,N,08057.3459,W,1,10,2.0,20,M,,M,,*6C
06/16/2015	18:05:27.554	$GPGGA,180528,2426.3510,N,08057.3450,W,1,10,2.0,20,M,,M,,*6A
06/16/2015	18:05:28.534	$GPGGA,180529,2426.3521,N,08057.3445,W,1,10,1.6,20,M,,M,,*68
06/16/2015	18:05:29.644	$GPGGA,180530,2426.3532,N,08057.3436,W,1,11,1.6,20,M,,M,,*67
06/16/2015	18:05:30.623	$GPGGA,180531,2426.3545,N,08057.3427,W,1,11,1.6,20,M,,M,,*66
06/16/2015	18:05:31.603	$GPGGA,180532,2426.3545,N,08057.3427,W,1,11,1.6,20,M,,M,,*65
06/16/2015	18:05:32.513	$GPGGA,180533,2426.3567,N,08057.3412,W,1,11,2.3,20,M,,M,,*64
06/16/2015	18:05:33.633	$GPGGA,180534,2426.3567,N,08057.3412,W,1,11,1.6,20,M,,M,,*65
06/16/2015	18:05:34.523	$GPGGA,180535,2426.3589,N,08057.3394,W,1,11,1.6,20,M,,M,,*6D
06/16/2015	18:05:35.534	$GPGGA,180536,2426.3589,N,08057.3394,W,1,11,1.6,20,M,,M,,*6E
06/16/2015	18:05:36.503	$GPGGA,180537,2426.3611,N,08057.3377,W,1,11,1.6,20,M,,M,,*60
06/16/2015	18:05:37.493	$GPGGA,180538,2426.3611,N,08057.3377,W,1,11,1.6,20,M,,M,,*6F
06/16/2015	18:05:38.593	$GPGGA,180539,2426.3633,N,08057.3357,W,1,11,1.6,20,M,,M,,*6C
06/16/2015	18:05:39.633	$GPGGA,180540,2426.3646,N,08057.3349,W,1,11,1.6,20,M,,M,,*6F
06/16/2015	18:05:40.503	$GPGGA,180541,2426.3657,N,08057.3339,W,1,11,1.6,21,M,,M,,*68
06/16/2015	18:05:41.504	$GPGGA,180542,2426.3657,N,08057.3339,W,1,11,1.6,21,M,,M,,*6B
06/16/2015	18:05:42.494	$GPGGA,180543,2426.3680,N,08057.3320,W,1,11,1.6,21,M,,M,,*68
06/16/2015	18:05:43.524	$GPGGA,180544,2426.3680,N,08057.3320,W,1,9,2.3,21,M,,M,,*50
06/16/2015	18:05:44.478	$GPGGA,180545,2426.3703,N,08057.3303,W,1,9,1.9,21,M,,M,,*53
06/16/2015	18:05:45.614	$GPGGA,180546,2426.3714,N,08057.3297,W,1,10,2.0,21,M,,M,,*68
06/16/2015	18:05:46.577	$GPGGA,180547,2426.3726,N,08057.3289,W,1,10,1.6,21,M,,M,,*62
06/16/2015	18:05:47.623	$GPGGA,180548,2426.3737,N,08057.3281,W,1,11,1.6,22,M,,M,,*67
06/16/2015	18:05:48.578	$GPGGA,180549,2426.3748,N,08057.3272,W,1,11,1.6,22,M,,M,,*62
06/16/2015	18:05:49.613	$GPGGA,180550,2426.3761,N,08057.3262,W,1,11,1.6,22,M,,M,,*60
06/16/2015	18:05:50.575	$GPGGA,180551,2426.3773,N,08057.3254,W,1,11,2.0,22,M,,M,,*62
06/16/2015	18:05:51.613	$GPGGA,180552,2426.3784,N,08057.3249,W,1,10,1.9,22,M,,M,,*6E
06/16/2015	18:05:52.563	$GPGGA,180553,2426.3797,N,08057.3241,W,1,10,1.6,22,M,,M,,*6A
06/16/2015	18:05:53.563	$GPGGA,180554,2426.3809,N,08057.3230,W,1,11,1.6,22,M,,M,,*62
06/16/2015	18:05:54.553	$GPGGA,180555,2426.3820,N,08057.3220,W,1,11,2.3,22,M,,M,,*6F
06/16/2015	18:05:55.603	$GPGGA,180556,2426.3834,N,08057.3209,W,1,9,2.3,22,M,,M,,*5B
06/16/2015	18:05:56.553	$GPGGA,180557,2426.3845,N,08057.3200,W,1,9,1.6,22,M,,M,,*53
06/16/2015	18:05:57.543	$GPGGA,180558,2426.3857,N,08057.3189,W,1,11,1.6,22,M,,M,,*64
06/16/2015	18:05:58.553	$GPGGA,180559,2426.3868,N,08057.3178,W,1,11,1.6,22,M,,M,,*67
06/16/2015	18:05:59.614	$GPGGA,180600,2426.3881,N,08057.3170,W,1,10,2.0,22,M,,M,,*63
06/16/2015	18:06:00.554	$GPGGA,180601,2426.3893,N,08057.3162,W,1,10,2.3,22,M,,M,,*61
06/16/2015	18:06:01.566	$GPGGA,180602,2426.3904,N,08057.3153,W,1,10,2.0,22,M,,M,,*6C
06/16/2015	18:06:02.984	$GPGGA,180603,2426.3915,N,08057.3145,W,1,10,1.6,21,M,,M,,*6C
06/16/2015	18:06:03.567	$GPGGA,180604,2426.3925,N,08057.3134,W,1,11,1.6,21,M,,M,,*6F
06/16/2015	18:06:04.544	$GPGGA,180605,2426.3938,N,08057.3124,W,1,11,2.0,21,M,,M,,*66
06/16/2015	18:06:05.533	$GPGGA,180606,2426.3950,N,08057.3115,W,1,10,2.0,21,M,,M,,*68
06/16/2015	18:06:06.543	$GPGGA,180607,2426.3961,N,08057.3104,W,1,10,1.6,21,M,,M,,*6E
06/16/2015	18:06:07.566	$GPGGA,180608,2426.3972,N,08057.3094,W,1,11,1.6,21,M,,M,,*6A
06/16/2015	18:06:08.533	$GPGGA,180609,2426.3983,N,08057.3084,W,1,11,2.3,21,M,,M,,*62
06/16/2015	18:06:09.523	$GPGGA,180610,2426.3996,N,08057.3075,W,1,10,2.0,21,M,,M,,*62
06/16/2015	18:06:10.533	$GPGGA,180611,2426.4007,N,08057.3065,W,1,10,1.7,21,M,,M,,*60
06/16/2015	18:06:11.563	$GPGGA,180612,2426.4016,N,08057.3055,W,1,10,2.0,21,M,,M,,*64
06/16/2015	18:06:12.533	$GPGGA,180613,2426.4029,N,08057.3046,W,1,10,1.6,21,M,,M,,*6E
06/16/2015	18:06:13.533	$GPGGA,180614,2426.4040,N,08057.3036,W,1,10,1.9,21,M,,M,,*6E
06/16/2015	18:06:14.513	$GPGGA,180615,2426.4050,N,08057.3029,W,1,10,2.3,21,M,,M,,*69
06/16/2015	18:06:15.553	$GPGGA,180616,2426.4062,N,08057.3025,W,1,11,1.6,21,M,,M,,*60
06/16/2015	18:06:16.514	$GPGGA,180617,2426.4072,N,08057.3019,W,1,11,1.6,21,M,,M,,*6F
06/16/2015	18:06:17.534	$GPGGA,180618,2426.4081,N,08057.3012,W,1,11,1.6,21,M,,M,,*67
06/16/2015	18:06:18.504	$GPGGA,180619,2426.4092,N,08057.3003,W,1,11,1.9,21,M,,M,,*6B
06/16/2015	18:06:19.544	$GPGGA,180620,2426.4105,N,08057.2994,W,1,10,1.9,21,M,,M,,*69
06/16/2015	18:06:20.504	$GPGGA,180621,2426.4115,N,08057.2986,W,1,10,1.9,21,M,,M,,*6A
06/16/2015	18:06:21.534	$GPGGA,180622,2426.4126,N,08057.2978,W,1,11,1.6,21,M,,M,,*66
06/16/2015	18:06:22.493	$GPGGA,180623,2426.4138,N,08057.2966,W,1,11,1.6,22,M,,M,,*64
06/16/2015	18:06:23.533	$GPGGA,180624,2426.4149,N,08057.2955,W,1,9,2.3,22,M,,M,,*5A
06/16/2015	18:06:24.503	$GPGGA,180625,2426.4160,N,08057.2950,W,1,9,2.3,22,M,,M,,*55
06/16/2015	18:06:25.513	$GPGGA,180626,2426.4171,N,08057.2941,W,1,10,1.9,22,M,,M,,*67
06/16/2015	18:06:26.593	$GPGGA,180627,2426.4182,N,08057.2930,W,1,10,1.9,22,M,,M,,*6C
06/16/2015	18:06:27.503	$GPGGA,180628,2426.4193,N,08057.2920,W,1,11,1.6,22,M,,M,,*6C
06/16/2015	18:06:28.574	$GPGGA,180629,2426.4206,N,08057.2910,W,1,11,1.9,23,M,,M,,*6F
06/16/2015	18:06:29.483	$GPGGA,180630,2426.4218,N,08057.2900,W,1,10,2.0,23,M,,M,,*62
06/16/2015	18:06:30.575	$GPGGA,180631,2426.4229,N,08057.2889,W,1,10,2.0,23,M,,M,,*61
06/16/2015	18:06:31.513	$GPGGA,180632,2426.4240,N,08057.2879,W,1,10,2.0,23,M,,M,,*62
06/16/2015	18:06:32.583	$GPGGA,180633,2426.4251,N,08057.2871,W,1,10,2.0,23,M,,M,,*6B
06/16/2015	18:06:33.476	$GPGGA,180634,2426.4265,N,08057.2860,W,1,11,1.6,23,M,,M,,*6F
06/16/2015	18:06:34.569	$GPGGA,180635,2426.4276,N,08057.2852,W,1,11,2.3,23,M,,M,,*6B
06/16/2015	18:06:35.624	$GPGGA,180636,2426.4289,N,08057.2845,W,1,8,2.7,23,M,,M,,*52
06/16/2015	18:06:36.566	$GPGGA,180637,2426.4300,N,08057.2837,W,1,8,1.6,23,M,,M,,*54
06/16/2015	18:06:37.584	$GPGGA,180638,2426.4312,N,08057.2827,W,1,10,1.7,23,M,,M,,*61
06/16/2015	18:06:38.574	$GPGGA,180639,2426.4323,N,08057.2818,W,1,10,2.0,23,M,,M,,*6A
06/16/2015	18:06:39.585	$GPGGA,180640,2426.4337,N,08057.2810,W,1,10,1.7,23,M,,M,,*6D
06/16/2015	18:06:40.569	$GPGGA,180641,2426.4347,N,08057.2801,W,1,10,2.0,23,M,,M,,*6F
06/16/2015	18:06:41.578	$GPGGA,180642,2426.4359,N,08057.2792,W,1,11,1.6,22,M,,M,,*63
06/16/2015	18:06:42.565	$GPGGA,180643,2426.4370,N,08057.2785,W,1,11,1.6,22,M,,M,,*6F
06/16/2015	18:06:43.583	$GPGGA,180644,2426.4381,N,08057.2777,W,1,11,1.6,22,M,,M,,*6B
06/16/2015	18:06:44.553	$GPGGA,180645,2426.4393,N,08057.2769,W,1,11,1.6,22,M,,M,,*66
06/16/2015	18:06:45.543	$GPGGA,180646,2426.4404,N,08057.2761,W,1,10,1.7,22,M,,M,,*64
06/16/2015	18:06:46.553	$GPGGA,180647,2426.4416,N,08057.2752,W,1,10,1.6,23,M,,M,,*66
06/16/2015	18:06:48.003	$GPGGA,180648,2426.4427,N,08057.2743,W,1,11,1.6,23,M,,M,,*6A
06/16/2015	18:06:48.534	$GPGGA,180649,2426.4440,N,08057.2737,W,1,11,1.7,23,M,,M,,*68
06/16/2015	18:06:49.533	$GPGGA,180650,2426.4452,N,08057.2729,W,1,11,1.6,23,M,,M,,*6D
06/16/2015	18:06:50.543	$GPGGA,180651,2426.4464,N,08057.2718,W,1,11,1.6,23,M,,M,,*6B
06/16/2015	18:06:51.582	$GPGGA,180652,2426.4474,N,08057.2707,W,1,11,1.6,23,M,,M,,*67
06/16/2015	18:06:52.524	$GPGGA,180653,2426.4488,N,08057.2696,W,1,11,2.0,23,M,,M,,*69
06/16/2015	18:06:53.534	$GPGGA,180654,2426.4500,N,08057.2687,W,1,11,1.6,23,M,,M,,*6A
06/16/2015	18:06:54.544	$GPGGA,180655,2426.4511,N,08057.2676,W,1,11,1.6,23,M,,M,,*65
06/16/2015	18:06:55.584	$GPGGA,180656,2426.4524,N,08057.2666,W,1,11,1.6,23,M,,M,,*61
06/16/2015	18:06:56.524	$GPGGA,180657,2426.4536,N,08057.2657,W,1,11,1.6,23,M,,M,,*61
06/16/2015	18:06:57.543	$GPGGA,180658,2426.4547,N,08057.2648,W,1,11,1.6,23,M,,M,,*66
06/16/2015	18:06:58.643	$GPGGA,180659,2426.4560,N,08057.2638,W,1,11,1.6,23,M,,M,,*65
06/16/2015	18:06:59.553	$GPGGA,180700,2426.4572,N,08057.2630,W,1,11,1.6,23,M,,M,,*63
06/16/2015	18:07:00.534	$GPGGA,180701,2426.4583,N,08057.2621,W,1,11,1.6,22,M,,M,,*6D
06/16/2015	18:07:01.613	$GPGGA,180702,2426.4596,N,08057.2611,W,1,11,1.6,22,M,,M,,*69
06/16/2015	18:07:02.633	$GPGGA,180703,2426.4608,N,08057.2603,W,1,11,1.6,22,M,,M,,*6F
06/16/2015	18:07:03.533	$GPGGA,180704,2426.4619,N,08057.2595,W,1,11,1.6,22,M,,M,,*64
06/16/2015	18:07:04.623	$GPGGA,180705,2426.4630,N,08057.2587,W,1,11,1.7,22,M,,M,,*6C
06/16/2015	18:07:05.623	$GPGGA,180706,2426.4641,N,08057.2578,W,1,11,1.6,22,M,,M,,*68
06/16/2015	18:07:06.513	$GPGGA,180707,2426.4654,N,08057.2571,W,1,11,1.6,22,M,,M,,*64
06/16/2015	18:07:07.613	$GPGGA,180708,2426.4665,N,08057.2562,W,1,11,1.6,22,M,,M,,*6B
06/16/2015	18:07:08.503	$GPGGA,180709,2426.4677,N,08057.2554,W,1,11,1.6,22,M,,M,,*6C
06/16/2015	18:07:09.504	$GPGGA,180710,2426.4688,N,08057.2546,W,1,11,1.6,22,M,,M,,*67
06/16/2015	18:07:10.594	$GPGGA,180711,2426.4699,N,08057.2538,W,1,11,1.6,22,M,,M,,*6F
06/16/2015	18:07:11.604	$GPGGA,180712,2426.4712,N,08057.2529,W,1,11,1.6,22,M,,M,,*6E
06/16/2015	18:07:12.504	$GPGGA,180713,2426.4724,N,08057.2520,W,1,11,1.6,22,M,,M,,*63
06/16/2015	18:07:13.624	$GPGGA,180714,2426.4735,N,08057.2512,W,1,11,1.6,22,M,,M,,*65
06/16/2015	18:07:14.584	$GPGGA,180715,2426.4748,N,08057.2504,W,1,11,1.6,22,M,,M,,*69
06/16/2015	18:07:15.593	$GPGGA,180716,2426.4759,N,08057.2495,W,1,11,1.6,22,M,,M,,*63
06/16/2015	18:07:16.583	$GPGGA,180717,2426.4771,N,08057.2487,W,1,11,1.6,22,M,,M,,*6B
06/16/2015	18:07:17.613	$GPGGA,180718,2426.4782,N,08057.2479,W,1,11,1.6,22,M,,M,,*69
06/16/2015	18:07:18.583	$GPGGA,180719,2426.4794,N,08057.2469,W,1,11,1.6,22,M,,M,,*6E
06/16/2015	18:07:19.613	$GPGGA,180720,2426.4806,N,08057.2461,W,1,11,1.6,22,M,,M,,*68
06/16/2015	18:07:20.583	$GPGGA,180721,2426.4818,N,08057.2453,W,1,11,1.6,22,M,,M,,*67
06/16/2015	18:07:21.583	$GPGGA,180722,2426.4829,N,08057.2443,W,1,11,1.6,22,M,,M,,*67
06/16/2015	18:07:22.573	$GPGGA,180723,2426.4842,N,08057.2435,W,1,11,2.0,22,M,,M,,*6F
06/16/2015	18:07:23.603	$GPGGA,180724,2426.4854,N,08057.2426,W,1,11,1.6,22,M,,M,,*68
06/16/2015	18:07:24.563	$GPGGA,180725,2426.4865,N,08057.2419,W,1,11,1.6,22,M,,M,,*67
06/16/2015	18:07:25.583	$GPGGA,180726,2426.4878,N,08057.2410,W,1,11,1.6,22,M,,M,,*61
06/16/2015	18:07:26.554	$GPGGA,180727,2426.4890,N,08057.2400,W,1,11,1.6,22,M,,M,,*67
06/16/2015	18:07:27.885	$GPGGA,180728,2426.4901,N,08057.2393,W,1,11,1.6,22,M,,M,,*6C
06/16/2015	18:07:28.569	$GPGGA,180729,2426.4914,N,08057.2386,W,1,11,1.6,22,M,,M,,*6D
06/16/2015	18:07:29.574	$GPGGA,180730,2426.4926,N,08057.2377,W,1,11,1.6,22,M,,M,,*6A
06/16/2015	18:07:30.564	$GPGGA,180731,2426.4937,N,08057.2368,W,1,11,1.6,22,M,,M,,*65
06/16/2015	18:07:31.584	$GPGGA,180732,2426.4950,N,08057.2360,W,1,11,1.6,22,M,,M,,*6F
06/16/2015	18:07:32.553	$GPGGA,180733,2426.4962,N,08057.2352,W,1,11,1.6,22,M,,M,,*6E
06/16/2015	18:07:33.543	$GPGGA,180734,2426.4973,N,08057.2343,W,1,11,1.6,22,M,,M,,*69
06/16/2015	18:07:34.553	$GPGGA,180735,2426.4986,N,08057.2334,W,1,11,1.6,22,M,,M,,*62
06/16/2015	18:07:35.553	$GPGGA,180736,2426.4998,N,08057.2326,W,1,11,1.6,22,M,,M,,*6D
06/16/2015	18:07:36.553	$GPGGA,180737,2426.5009,N,08057.2318,W,1,11,1.6,22,M,,M,,*61
06/16/2015	18:07:37.553	$GPGGA,180738,2426.5022,N,08057.2308,W,1,11,1.6,22,M,,M,,*66
06/16/2015	18:07:38.543	$GPGGA,180739,2426.5034,N,08057.2299,W,1,11,1.6,23,M,,M,,*68
06/16/2015	18:07:39.543	$GPGGA,180740,2426.5045,N,08057.2291,W,1,11,1.6,23,M,,M,,*68
06/16/2015	18:07:40.954	$GPGGA,180741,2426.5058,N,08057.2282,W,1,11,1.6,23,M,,M,,*67
06/16/2015	18:07:41.533	$GPGGA,180742,2426.5070,N,08057.2272,W,1,11,1.6,23,M,,M,,*61
06/16/2015	18:07:42.523	$GPGGA,180743,2426.5081,N,08057.2264,W,1,11,1.6,23,M,,M,,*69
06/16/2015	18:07:43.543	$GPGGA,180744,2426.5092,N,08057.2255,W,1,11,1.6,23,M,,M,,*6E
06/16/2015	18:07:44.524	$GPGGA,180745,2426.5105,N,08057.2245,W,1,11,1.6,23,M,,M,,*61
06/16/2015	18:07:45.644	$GPGGA,180746,2426.5116,N,08057.2236,W,1,11,1.6,23,M,,M,,*64
06/16/2015	18:07:46.534	$GPGGA,180747,2426.5128,N,08057.2229,W,1,11,1.6,23,M,,M,,*66
06/16/2015	18:07:47.544	$GPGGA,180748,2426.5141,N,08057.2220,W,1,11,1.6,23,M,,M,,*6F
06/16/2015	18:07:48.524	$GPGGA,180749,2426.5152,N,08057.2210,W,1,11,1.6,23,M,,M,,*6F
06/16/2015	18:07:49.514	$GPGGA,180750,2426.5164,N,08057.2201,W,1,11,1.6,23,M,,M,,*62
06/16/2015	18:07:50.523	$GPGGA,180751,2426.5177,N,08057.2193,W,1,11,1.6,23,M,,M,,*69
06/16/2015	18:07:51.553	$GPGGA,180752,2426.5189,N,08057.2185,W,1,11,1.6,22,M,,M,,*6D
06/16/2015	18:07:52.603	$GPGGA,180753,2426.5200,N,08057.2175,W,1,11,1.6,22,M,,M,,*61
06/16/2015	18:07:53.603	$GPGGA,180754,2426.5211,N,08057.2166,W,1,11,1.6,22,M,,M,,*64
06/16/2015	18:07:54.503	$GPGGA,180755,2426.5225,N,08057.2159,W,1,11,1.6,22,M,,M,,*6E
06/16/2015	18:07:55.613	$GPGGA,180756,2426.5237,N,08057.2150,W,1,11,1.6,22,M,,M,,*67
06/16/2015	18:07:56.593	$GPGGA,180757,2426.5248,N,08057.2141,W,1,11,1.6,22,M,,M,,*6E
06/16/2015	18:07:57.623	$GPGGA,180758,2426.5261,N,08057.2132,W,1,11,1.6,22,M,,M,,*6E
06/16/2015	18:07:58.593	$GPGGA,180759,2426.5273,N,08057.2125,W,1,11,1.6,22,M,,M,,*6A
06/16/2015	18:07:59.513	$GPGGA,180800,2426.5286,N,08057.2116,W,1,11,1.6,22,M,,M,,*63
06/16/2015	18:08:00.493	$GPGGA,180801,2426.5298,N,08057.2106,W,1,11,1.6,22,M,,M,,*6C
06/16/2015	18:08:01.584	$GPGGA,180802,2426.5311,N,08057.2099,W,1,11,1.6,22,M,,M,,*68
06/16/2015	18:08:02.584	$GPGGA,180803,2426.5323,N,08057.2090,W,1,11,1.6,22,M,,M,,*61
06/16/2015	18:08:03.604	$GPGGA,180804,2426.5334,N,08057.2080,W,1,11,1.6,22,M,,M,,*61
06/16/2015	18:08:04.584	$GPGGA,180805,2426.5345,N,08057.2073,W,1,11,1.6,22,M,,M,,*6A
06/16/2015	18:08:05.573	$GPGGA,180806,2426.5359,N,08057.2066,W,1,11,1.6,22,M,,M,,*60
06/16/2015	18:08:06.569	$GPGGA,180807,2426.5372,N,08057.2055,W,1,11,1.6,22,M,,M,,*68
06/16/2015	18:08:07.593	$GPGGA,180808,2426.5381,N,08057.2046,W,1,11,1.6,22,M,,M,,*69
06/16/2015	18:08:08.578	$GPGGA,180809,2426.5395,N,08057.2041,W,1,11,1.6,22,M,,M,,*6A
06/16/2015	18:08:09.577	$GPGGA,180810,2426.5406,N,08057.2032,W,1,11,1.6,22,M,,M,,*6B
06/16/2015	18:08:10.834	$GPGGA,180811,2426.5417,N,08057.2022,W,1,11,1.6,22,M,,M,,*6B
06/16/2015	18:08:11.593	$GPGGA,180812,2426.5428,N,08057.2014,W,1,11,1.6,22,M,,M,,*61
06/16/2015	18:08:12.566	$GPGGA,180813,2426.5441,N,08057.2007,W,1,11,1.6,22,M,,M,,*6D
06/16/2015	18:08:13.577	$GPGGA,180814,2426.5452,N,08057.1999,W,1,11,1.6,22,M,,M,,*65
06/16/2015	18:08:14.566	$GPGGA,180815,2426.5463,N,08057.1988,W,1,11,1.6,22,M,,M,,*66
06/16/2015	18:08:15.603	$GPGGA,180816,2426.5475,N,08057.1981,W,1,11,1.6,22,M,,M,,*6B
06/16/2015	18:08:16.577	$GPGGA,180817,2426.5486,N,08057.1973,W,1,11,1.6,22,M,,M,,*6B
06/16/2015	18:08:17.583	$GPGGA,180818,2426.5497,N,08057.1965,W,1,11,1.6,21,M,,M,,*60
06/16/2015	18:08:18.544	$GPGGA,180819,2426.5510,N,08057.1956,W,1,11,1.6,21,M,,M,,*6F
06/16/2015	18:08:19.586	$GPGGA,180820,2426.5521,N,08057.1947,W,1,11,1.6,21,M,,M,,*67
06/16/2015	18:08:20.554	$GPGGA,180821,2426.5533,N,08057.1939,W,1,11,1.6,21,M,,M,,*6C
06/16/2015	18:08:21.577	$GPGGA,180822,2426.5544,N,08057.1931,W,1,11,1.6,21,M,,M,,*67
06/16/2015	18:08:22.544	$GPGGA,180823,2426.5555,N,08057.1922,W,1,11,1.6,21,M,,M,,*64
06/16/2015	18:08:23.604	$GPGGA,180824,2426.5566,N,08057.1913,W,1,11,1.6,21,M,,M,,*61
06/16/2015	18:08:24.554	$GPGGA,180825,2426.5579,N,08057.1906,W,1,11,1.6,21,M,,M,,*6A
06/16/2015	18:08:25.573	$GPGGA,180826,2426.5591,N,08057.1897,W,1,11,1.6,21,M,,M,,*66
06/16/2015	18:08:26.543	$GPGGA,180827,2426.5602,N,08057.1888,W,1,11,1.6,21,M,,M,,*60
06/16/2015	18:08:27.543	$GPGGA,180828,2426.5615,N,08057.1881,W,1,11,1.6,21,M,,M,,*60
06/16/2015	18:08:28.543	$GPGGA,180829,2426.5626,N,08057.1873,W,1,11,1.6,21,M,,M,,*6C
06/16/2015	18:08:29.566	$GPGGA,180830,2426.5637,N,08057.1863,W,1,11,1.6,21,M,,M,,*65
06/16/2015	18:08:30.533	$GPGGA,180831,2426.5648,N,08057.1855,W,1,11,1.6,21,M,,M,,*69
06/16/2015	18:08:31.678	$GPGGA,180832,2426.5662,N,08057.1847,W,1,11,1.6,21,M,,M,,*61
06/16/2015	18:08:32.523	$GPGGA,180833,2426.5673,N,08057.1838,W,1,11,1.6,21,M,,M,,*68
06/16/2015	18:08:33.613	$GPGGA,180834,2426.5684,N,08057.1828,W,1,11,1.6,21,M,,M,,*66
06/16/2015	18:08:34.523	$GPGGA,180835,2426.5695,N,08057.1821,W,1,11,1.6,21,M,,M,,*6E
06/16/2015	18:08:35.665	$GPGGA,180836,2426.5708,N,08057.1811,W,1,11,1.6,21,M,,M,,*6B
06/16/2015	18:08:36.524	$GPGGA,180837,2426.5719,N,08057.1801,W,1,11,1.6,21,M,,M,,*6B
06/16/2015	18:08:37.534	$GPGGA,180838,2426.5731,N,08057.1794,W,1,11,1.6,21,M,,M,,*6D
06/16/2015	18:08:38.514	$GPGGA,180839,2426.5742,N,08057.1786,W,1,11,1.6,21,M,,M,,*6B
06/16/2015	18:08:39.672	$GPGGA,180840,2426.5753,N,08057.1775,W,1,11,1.6,21,M,,M,,*69
06/16/2015	18:08:40.514	$GPGGA,180841,2426.5764,N,08057.1766,W,1,11,1.6,21,M,,M,,*6E
06/16/2015	18:08:41.667	$GPGGA,180842,2426.5778,N,08057.1758,W,1,11,2.0,21,M,,M,,*68
06/16/2015	18:08:42.523	$GPGGA,180843,2426.5789,N,08057.1749,W,1,11,2.0,21,M,,M,,*67
06/16/2015	18:08:43.633	$GPGGA,180844,2426.5799,N,08057.1742,W,1,11,1.6,21,M,,M,,*6F
06/16/2015	18:08:44.593	$GPGGA,180845,2426.5810,N,08057.1735,W,1,11,1.6,21,M,,M,,*60
06/16/2015	18:08:45.603	$GPGGA,180846,2426.5822,N,08057.1728,W,1,11,1.6,21,M,,M,,*6E
06/16/2015	18:08:46.593	$GPGGA,180847,2426.5833,N,08057.1720,W,1,11,1.6,21,M,,M,,*67
06/16/2015	18:08:47.643	$GPGGA,180848,2426.5843,N,08057.1712,W,1,11,1.6,21,M,,M,,*6E
06/16/2015	18:08:48.593	$GPGGA,180849,2426.5854,N,08057.1705,W,1,11,1.6,21,M,,M,,*6F
06/16/2015	18:08:49.593	$GPGGA,180850,2426.5865,N,08057.1696,W,1,11,1.6,21,M,,M,,*6E
06/16/2015	18:08:50.573	$GPGGA,180851,2426.5876,N,08057.1688,W,1,11,1.6,21,M,,M,,*62
06/16/2015	18:08:51.613	$GPGGA,180852,2426.5887,N,08057.1680,W,1,11,1.6,21,M,,M,,*67
06/16/2015	18:08:52.583	$GPGGA,180853,2426.5898,N,08057.1670,W,1,11,1.6,21,M,,M,,*67
06/16/2015	18:08:53.593	$GPGGA,180854,2426.5911,N,08057.1662,W,1,11,1.6,22,M,,M,,*60
06/16/2015	18:08:54.570	$GPGGA,180855,2426.5922,N,08057.1654,W,1,11,1.6,22,M,,M,,*64
06/16/2015	18:08:55.614	$GPGGA,180856,2426.5933,N,08057.1645,W,1,11,1.6,22,M,,M,,*67
06/16/2015	18:08:56.567	$GPGGA,180857,2426.5944,N,08057.1636,W,1,11,1.6,22,M,,M,,*62
06/16/2015	18:08:57.584	$GPGGA,180858,2426.5955,N,08057.1626,W,1,11,1.6,22,M,,M,,*6C
06/16/2015	18:08:58.575	$GPGGA,180859,2426.5966,N,08057.1619,W,1,11,1.6,22,M,,M,,*61
06/16/2015	18:08:59.634	$GPGGA,180900,2426.5977,N,08057.1612,W,1,11,1.6,22,M,,M,,*67
06/16/2015	18:09:00.583	$GPGGA,180901,2426.5988,N,08057.1601,W,1,11,1.6,22,M,,M,,*64
06/16/2015	18:09:01.553	$GPGGA,180902,2426.5999,N,08057.1592,W,1,11,1.6,22,M,,M,,*6E
06/16/2015	18:09:02.564	$GPGGA,180903,2426.6010,N,08057.1584,W,1,11,1.6,22,M,,M,,*63
06/16/2015	18:09:03.566	$GPGGA,180904,2426.6023,N,08057.1576,W,1,11,1.6,22,M,,M,,*69
06/16/2015	18:09:04.543	$GPGGA,180905,2426.6034,N,08057.1566,W,1,11,1.6,22,M,,M,,*6F
06/16/2015	18:09:05.543	$GPGGA,180906,2426.6044,N,08057.1558,W,1,11,1.6,22,M,,M,,*66
06/16/2015	18:09:06.543	$GPGGA,180907,2426.6056,N,08057.1549,W,1,11,1.6,22,M,,M,,*64
06/16/2015	18:09:07.573	$GPGGA,180908,2426.6068,N,08057.1540,W,1,11,1.6,22,M,,M,,*6F
06/16/2015	18:09:08.533	$GPGGA,180909,2426.6078,N,08057.1531,W,1,11,1.6,22,M,,M,,*69
06/16/2015	18:09:09.554	$GPGGA,180910,2426.6089,N,08057.1522,W,1,11,1.6,22,M,,M,,*6D
06/16/2015	18:09:10.523	$GPGGA,180911,2426.6100,N,08057.1513,W,1,11,1.6,22,M,,M,,*6E
06/16/2015	18:09:11.614	$GPGGA,180912,2426.6111,N,08057.1505,W,1,11,1.6,22,M,,M,,*6A
06/16/2015	18:09:12.533	$GPGGA,180913,2426.6124,N,08057.1497,W,1,11,1.6,21,M,,M,,*64
06/16/2015	18:09:13.533	$GPGGA,180914,2426.6135,N,08057.1487,W,1,11,1.6,21,M,,M,,*62
06/16/2015	18:09:14.643	$GPGGA,180915,2426.6144,N,08057.1479,W,1,11,1.6,21,M,,M,,*64
06/16/2015	18:09:15.556	$GPGGA,180916,2426.6157,N,08057.1472,W,1,11,1.6,21,M,,M,,*6E
06/16/2015	18:09:16.633	$GPGGA,180917,2426.6168,N,08057.1463,W,1,11,1.6,21,M,,M,,*63
06/16/2015	18:09:17.922	$GPGGA,180918,2426.6179,N,08057.1453,W,1,11,1.6,21,M,,M,,*6F
06/16/2015	18:09:18.542	$GPGGA,180919,2426.6190,N,08057.1445,W,1,11,1.6,21,M,,M,,*6E
06/16/2015	18:09:19.572	$GPGGA,180920,2426.6203,N,08057.1438,W,1,11,1.6,21,M,,M,,*67
06/16/2015	18:09:20.522	$GPGGA,180921,2426.6214,N,08057.1429,W,1,11,1.6,21,M,,M,,*60
06/16/2015	18:09:21.613	$GPGGA,180922,2426.6225,N,08057.1420,W,1,11,1.6,21,M,,M,,*68
06/16/2015	18:09:22.603	$GPGGA,180923,2426.6236,N,08057.1411,W,1,11,1.6,21,M,,M,,*69
06/16/2015	18:09:23.558	$GPGGA,180924,2426.6248,N,08057.1404,W,1,11,1.6,21,M,,M,,*63
06/16/2015	18:09:24.523	$GPGGA,180925,2426.6259,N,08057.1396,W,1,11,1.6,21,M,,M,,*6E
06/16/2015	18:09:25.623	$GPGGA,180926,2426.6270,N,08057.1387,W,1,11,1.6,21,M,,M,,*66
06/16/2015	18:09:26.593	$GPGGA,180927,2426.6281,N,08057.1377,W,1,11,1.6,20,M,,M,,*67
06/16/2015	18:09:27.633	$GPGGA,180928,2426.6292,N,08057.1371,W,1,11,1.6,20,M,,M,,*6C
06/16/2015	18:09:28.593	$GPGGA,180929,2426.6305,N,08057.1363,W,1,11,1.6,20,M,,M,,*61
06/16/2015	18:09:29.603	$GPGGA,180930,2426.6315,N,08057.1354,W,1,11,1.6,20,M,,M,,*6C
06/16/2015	18:09:30.503	$GPGGA,180931,2426.6326,N,08057.1345,W,1,11,1.6,20,M,,M,,*6D
06/16/2015	18:09:31.543	$GPGGA,180932,2426.6338,N,08057.1337,W,1,11,1.6,20,M,,M,,*64
06/16/2015	18:09:32.583	$GPGGA,180933,2426.6349,N,08057.1330,W,1,11,1.6,20,M,,M,,*64
06/16/2015	18:09:33.573	$GPGGA,180934,2426.6360,N,08057.1321,W,1,11,1.6,20,M,,M,,*68
06/16/2015	18:09:34.575	$GPGGA,180935,2426.6371,N,08057.1311,W,1,11,1.6,20,M,,M,,*6A
06/16/2015	18:09:35.592	$GPGGA,180936,2426.6382,N,08057.1304,W,1,11,1.6,20,M,,M,,*61
06/16/2015	18:09:36.582	$GPGGA,180937,2426.6395,N,08057.1297,W,1,11,1.6,20,M,,M,,*6D
06/16/2015	18:09:37.602	$GPGGA,180938,2426.6407,N,08057.1288,W,1,11,1.6,20,M,,M,,*60
06/16/2015	18:09:38.572	$GPGGA,180939,2426.6417,N,08057.1279,W,1,11,1.6,20,M,,M,,*6E
06/16/2015	18:09:39.603	$GPGGA,180940,2426.6429,N,08057.1271,W,1,11,1.6,20,M,,M,,*65
06/16/2015	18:09:40.573	$GPGGA,180941,2426.6440,N,08057.1264,W,1,11,1.6,19,M,,M,,*65
06/16/2015	18:09:41.573	$GPGGA,180942,2426.6453,N,08057.1255,W,1,11,1.6,19,M,,M,,*66
06/16/2015	18:09:42.568	$GPGGA,180943,2426.6464,N,08057.1245,W,1,11,1.6,19,M,,M,,*62
06/16/2015	18:09:43.583	$GPGGA,180944,2426.6475,N,08057.1237,W,1,11,1.6,19,M,,M,,*60
06/16/2015	18:09:44.565	$GPGGA,180945,2426.6487,N,08057.1229,W,1,11,1.6,19,M,,M,,*63
06/16/2015	18:09:45.573	$GPGGA,180946,2426.6497,N,08057.1221,W,1,11,1.6,19,M,,M,,*69
06/16/2015	18:09:46.557	$GPGGA,180947,2426.6510,N,08057.1212,W,1,11,1.6,19,M,,M,,*66
06/16/2015	18:09:47.583	$GPGGA,180948,2426.6521,N,08057.1203,W,1,11,1.6,19,M,,M,,*6B
06/16/2015	18:09:48.558	$GPGGA,180949,2426.6532,N,08057.1195,W,1,11,1.6,19,M,,M,,*64
06/16/2015	18:09:49.573	$GPGGA,180950,2426.6544,N,08057.1187,W,1,11,1.6,19,M,,M,,*6E
06/16/2015	18:09:50.556	$GPGGA,180951,2426.6555,N,08057.1180,W,1,11,1.6,19,M,,M,,*68
06/16/2015	18:09:51.583	$GPGGA,180952,2426.6565,N,08057.1171,W,1,11,1.6,19,M,,M,,*66
06/16/2015	18:09:52.557	$GPGGA,180953,2426.6576,N,08057.1163,W,1,11,1.6,19,M,,M,,*66
06/16/2015	18:09:53.532	$GPGGA,180954,2426.6587,N,08057.1154,W,1,11,1.6,19,M,,M,,*6B
06/16/2015	18:09:54.522	$GPGGA,180955,2426.6598,N,08057.1146,W,1,11,1.6,19,M,,M,,*67
06/16/2015	18:09:55.562	$GPGGA,180956,2426.6609,N,08057.1138,W,1,11,1.6,19,M,,M,,*66
06/16/2015	18:09:56.533	$GPGGA,180957,2426.6620,N,08057.1129,W,1,11,1.6,19,M,,M,,*6C
06/16/2015	18:09:57.533	$GPGGA,180958,2426.6631,N,08057.1121,W,1,10,1.6,19,M,,M,,*6A
06/16/2015	18:09:58.523	$GPGGA,180959,2426.6642,N,08057.1114,W,1,10,1.6,19,M,,M,,*69
06/16/2015	18:09:59.564	$GPGGA,181000,2426.6653,N,08057.1105,W,1,11,1.6,19,M,,M,,*6C
06/16/2015	18:10:00.524	$GPGGA,181001,2426.6664,N,08057.1096,W,1,11,1.6,19,M,,M,,*62
06/16/2015	18:10:01.556	$GPGGA,181002,2426.6675,N,08057.1089,W,1,11,1.6,19,M,,M,,*6F
06/16/2015	18:10:02.523	$GPGGA,181003,2426.6686,N,08057.1080,W,1,11,1.6,19,M,,M,,*6B
06/16/2015	18:10:03.643	$GPGGA,181004,2426.6698,N,08057.1070,W,1,11,1.6,19,M,,M,,*6C
06/16/2015	18:10:04.523	$GPGGA,181005,2426.6709,N,08057.1063,W,1,11,1.6,19,M,,M,,*66
06/16/2015	18:10:05.623	$GPGGA,181006,2426.6721,N,08057.1056,W,1,11,1.6,19,M,,M,,*69
06/16/2015	18:10:06.503	$GPGGA,181007,2426.6732,N,08057.1046,W,1,11,1.6,19,M,,M,,*6B
06/16/2015	18:10:07.533	$GPGGA,181008,2426.6742,N,08057.1037,W,1,11,1.6,19,M,,M,,*65
06/16/2015	18:10:08.513	$GPGGA,181009,2426.6754,N,08057.1029,W,1,11,1.6,19,M,,M,,*6C
06/16/2015	18:10:09.503	$GPGGA,181010,2426.6765,N,08057.1021,W,1,11,1.6,19,M,,M,,*6E
06/16/2015	18:10:10.502	$GPGGA,181011,2426.6776,N,08057.1012,W,1,11,1.6,19,M,,M,,*6D
06/16/2015	18:10:11.602	$GPGGA,181012,2426.6786,N,08057.1004,W,1,11,1.6,19,M,,M,,*66
06/16/2015	18:10:12.592	$GPGGA,181013,2426.6799,N,08057.0996,W,1,11,1.6,19,M,,M,,*6A
06/16/2015	18:10:13.492	$GPGGA,181014,2426.6808,N,08057.0986,W,1,11,1.6,19,M,,M,,*6B
06/16/2015	18:10:14.523	$GPGGA,181015,2426.6819,N,08057.0977,W,1,11,1.6,19,M,,M,,*64
06/16/2015	18:10:15.503	$GPGGA,181016,2426.6832,N,08057.0969,W,1,11,1.6,19,M,,M,,*61
06/16/2015	18:10:16.583	$GPGGA,181017,2426.6843,N,08057.0961,W,1,11,1.6,19,M,,M,,*6E
06/16/2015	18:10:17.593	$GPGGA,181018,2426.6854,N,08057.0952,W,1,11,1.6,19,M,,M,,*67
06/16/2015	18:10:18.583	$GPGGA,181019,2426.6866,N,08057.0942,W,1,11,1.6,19,M,,M,,*66
06/16/2015	18:10:19.623	$GPGGA,181020,2426.6877,N,08057.0934,W,1,11,1.6,19,M,,M,,*6D
06/16/2015	18:10:20.583	$GPGGA,181021,2426.6888,N,08057.0927,W,1,11,1.6,19,M,,M,,*6E
06/16/2015	18:10:21.583	$GPGGA,181022,2426.6898,N,08057.0918,W,1,11,1.6,19,M,,M,,*60
06/16/2015	18:10:22.564	$GPGGA,181023,2426.6909,N,08057.0907,W,1,11,1.6,19,M,,M,,*66
06/16/2015	18:10:23.603	$GPGGA,181024,2426.6922,N,08057.0901,W,1,11,1.6,19,M,,M,,*6E
06/16/2015	18:10:24.573	$GPGGA,181025,2426.6934,N,08057.0894,W,1,11,1.6,19,M,,M,,*65
06/16/2015	18:10:25.583	$GPGGA,181026,2426.6944,N,08057.0883,W,1,11,1.6,19,M,,M,,*67
06/16/2015	18:10:26.573	$GPGGA,181027,2426.6955,N,08057.0874,W,1,11,1.6,19,M,,M,,*6E
06/16/2015	18:10:27.582	$GPGGA,181028,2426.6966,N,08057.0867,W,1,10,1.6,19,M,,M,,*62
06/16/2015	18:10:28.562	$GPGGA,181029,2426.6977,N,08057.0858,W,1,10,1.6,19,M,,M,,*6F
06/16/2015	18:10:29.582	$GPGGA,181030,2426.6988,N,08057.0849,W,1,11,1.6,19,M,,M,,*66
06/16/2015	18:10:30.553	$GPGGA,181031,2426.6999,N,08057.0839,W,1,11,1.6,19,M,,M,,*60
06/16/2015	18:10:31.593	$GPGGA,181032,2426.7010,N,08057.0831,W,1,10,1.6,19,M,,M,,*63
06/16/2015	18:10:32.557	$GPGGA,181033,2426.7021,N,08057.0823,W,1,10,1.6,19,M,,M,,*63
06/16/2015	18:10:33.573	$GPGGA,181034,2426.7031,N,08057.0812,W,1,11,1.6,19,M,,M,,*66
06/16/2015	18:10:34.543	$GPGGA,181035,2426.7042,N,08057.0803,W,1,11,1.6,19,M,,M,,*63
06/16/2015	18:10:35.554	$GPGGA,181036,2426.7053,N,08057.0794,W,1,11,1.6,19,M,,M,,*61
06/16/2015	18:10:36.545	$GPGGA,181037,2426.7064,N,08057.0785,W,1,11,1.6,19,M,,M,,*64
06/16/2015	18:10:37.556	$GPGGA,181038,2426.7074,N,08057.0775,W,1,11,1.6,19,M,,M,,*65
06/16/2015	18:10:38.543	$GPGGA,181039,2426.7085,N,08057.0765,W,1,11,1.6,19,M,,M,,*6B
06/16/2015	18:10:39.573	$GPGGA,181040,2426.7096,N,08057.0757,W,1,11,1.6,19,M,,M,,*66
06/16/2015	18:10:40.543	$GPGGA,181041,2426.7107,N,08057.0748,W,1,11,1.6,19,M,,M,,*60
06/16/2015	18:10:41.533	$GPGGA,181042,2426.7118,N,08057.0738,W,1,11,1.6,19,M,,M,,*6A
06/16/2015	18:10:42.533	$GPGGA,181043,2426.7130,N,08057.0731,W,1,11,1.6,19,M,,M,,*68
06/16/2015	18:10:43.573	$GPGGA,181044,2426.7141,N,08057.0721,W,1,10,1.6,19,M,,M,,*69
06/16/2015	18:10:44.533	$GPGGA,181045,2426.7152,N,08057.0712,W,1,10,1.6,19,M,,M,,*6A
06/16/2015	18:10:45.522	$GPGGA,181046,2426.7165,N,08057.0706,W,1,10,1.6,19,M,,M,,*68
06/16/2015	18:10:46.522	$GPGGA,181047,2426.7177,N,08057.0697,W,1,10,1.6,19,M,,M,,*63
06/16/2015	18:10:48.568	$GPGGA,181049,2426.7198,N,08057.0680,W,1,11,1.6,19,M,,M,,*6B
06/16/2015	18:10:49.563	$GPGGA,181050,2426.7209,N,08057.0671,W,1,11,1.6,19,M,,M,,*66
06/16/2015	18:10:50.523	$GPGGA,181051,2426.7220,N,08057.0662,W,1,11,1.6,19,M,,M,,*6E
06/16/2015	18:10:51.664	$GPGGA,181052,2426.7233,N,08057.0655,W,1,10,1.6,20,M,,M,,*60
06/16/2015	18:10:52.513	$GPGGA,181053,2426.7245,N,08057.0647,W,1,10,1.6,20,M,,M,,*63
06/16/2015	18:10:53.523	$GPGGA,181054,2426.7256,N,08057.0638,W,1,11,1.6,20,M,,M,,*6F
06/16/2015	18:10:54.503	$GPGGA,181055,2426.7267,N,08057.0629,W,1,11,1.6,20,M,,M,,*6C
06/16/2015	18:10:55.533	$GPGGA,181056,2426.7278,N,08057.0620,W,1,11,1.6,20,M,,M,,*68
06/16/2015	18:10:56.503	$GPGGA,181057,2426.7289,N,08057.0612,W,1,11,1.6,20,M,,M,,*66
06/16/2015	18:10:57.593	$GPGGA,181058,2426.7300,N,08057.0603,W,1,11,1.6,20,M,,M,,*69
06/16/2015	18:10:58.513	$GPGGA,181059,2426.7313,N,08057.0594,W,1,11,1.6,20,M,,M,,*67
06/16/2015	18:10:59.613	$GPGGA,181100,2426.7324,N,08057.0585,W,1,11,1.6,20,M,,M,,*6E
06/16/2015	18:11:00.503	$GPGGA,181101,2426.7336,N,08057.0576,W,1,11,1.6,20,M,,M,,*60
06/16/2015	18:11:01.593	$GPGGA,181102,2426.7347,N,08057.0569,W,1,11,1.6,20,M,,M,,*6B
06/16/2015	18:11:02.592	$GPGGA,181103,2426.7360,N,08057.0561,W,1,11,1.6,20,M,,M,,*67
06/16/2015	18:11:03.622	$GPGGA,181104,2426.7371,N,08057.0551,W,1,11,1.6,20,M,,M,,*63
06/16/2015	18:11:04.582	$GPGGA,181105,2426.7382,N,08057.0542,W,1,11,1.6,20,M,,M,,*6C
06/16/2015	18:11:05.592	$GPGGA,181106,2426.7393,N,08057.0535,W,1,11,1.6,20,M,,M,,*6F
06/16/2015	18:11:08.126	$GPGGA,181108,2426.7415,N,08057.0516,W,1,11,1.6,20,M,,M,,*69
06/16/2015	18:11:08.573	$GPGGA,181109,2426.7428,N,08057.0507,W,1,11,1.6,20,M,,M,,*66
06/16/2015	18:11:09.583	$GPGGA,181110,2426.7440,N,08057.0500,W,1,11,1.6,20,M,,M,,*67
06/16/2015	18:11:10.583	$GPGGA,181111,2426.7451,N,08057.0491,W,1,11,1.6,20,M,,M,,*6F
06/16/2015	18:11:11.623	$GPGGA,181112,2426.7462,N,08057.0482,W,1,11,1.6,20,M,,M,,*6E
06/16/2015	18:11:12.573	$GPGGA,181113,2426.7473,N,08057.0472,W,1,11,1.6,20,M,,M,,*60
06/16/2015	18:11:13.583	$GPGGA,181114,2426.7484,N,08057.0464,W,1,11,1.6,20,M,,M,,*68
06/16/2015	18:11:14.566	$GPGGA,181115,2426.7497,N,08057.0456,W,1,11,1.6,20,M,,M,,*6A
06/16/2015	18:11:15.593	$GPGGA,181116,2426.7508,N,08057.0448,W,1,11,1.6,20,M,,M,,*61
06/16/2015	18:11:16.563	$GPGGA,181117,2426.7519,N,08057.0438,W,1,11,1.6,20,M,,M,,*67
06/16/2015	18:11:17.554	$GPGGA,181118,2426.7530,N,08057.0429,W,1,11,1.6,20,M,,M,,*63
06/16/2015	18:11:18.564	$GPGGA,181119,2426.7541,N,08057.0421,W,1,11,1.6,20,M,,M,,*6C
06/16/2015	18:11:19.593	$GPGGA,181120,2426.7552,N,08057.0413,W,1,11,1.6,20,M,,M,,*65
06/16/2015	18:11:20.555	$GPGGA,181121,2426.7563,N,08057.0403,W,1,11,1.6,20,M,,M,,*67
06/16/2015	18:11:21.542	$GPGGA,181122,2426.7574,N,08057.0394,W,1,11,1.6,20,M,,M,,*6B
06/16/2015	18:11:22.552	$GPGGA,181123,2426.7585,N,08057.0386,W,1,11,1.6,20,M,,M,,*67
06/16/2015	18:11:23.572	$GPGGA,181124,2426.7596,N,08057.0377,W,1,11,1.6,20,M,,M,,*6C
06/16/2015	18:11:24.543	$GPGGA,181125,2426.7607,N,08057.0367,W,1,11,1.6,20,M,,M,,*67
06/16/2015	18:11:25.555	$GPGGA,181126,2426.7620,N,08057.0359,W,1,11,1.6,20,M,,M,,*6C
06/16/2015	18:11:26.544	$GPGGA,181127,2426.7631,N,08057.0352,W,1,11,1.6,20,M,,M,,*66
06/16/2015	18:11:27.543	$GPGGA,181128,2426.7642,N,08057.0343,W,1,11,1.6,20,M,,M,,*6D
06/16/2015	18:11:28.543	$GPGGA,181129,2426.7653,N,08057.0332,W,1,11,1.6,20,M,,M,,*6A
06/16/2015	18:11:29.523	$GPGGA,181130,2426.7664,N,08057.0324,W,1,11,1.6,20,M,,M,,*61
06/16/2015	18:11:30.533	$GPGGA,181131,2426.7677,N,08057.0317,W,1,11,1.6,20,M,,M,,*62
06/16/2015	18:11:31.563	$GPGGA,181132,2426.7688,N,08057.0308,W,1,11,1.6,20,M,,M,,*6F
06/16/2015	18:11:32.513	$GPGGA,181133,2426.7697,N,08057.0297,W,1,11,1.6,20,M,,M,,*67
06/16/2015	18:11:33.533	$GPGGA,181134,2426.7710,N,08057.0289,W,1,10,1.6,20,M,,M,,*60
06/16/2015	18:11:34.523	$GPGGA,181135,2426.7722,N,08057.0283,W,1,10,1.6,20,M,,M,,*6A
06/16/2015	18:11:35.533	$GPGGA,181136,2426.7733,N,08057.0273,W,1,11,1.6,20,M,,M,,*67
06/16/2015	18:11:36.683	$GPGGA,181137,2426.7744,N,08057.0263,W,1,11,1.6,20,M,,M,,*67
06/16/2015	18:11:37.532	$GPGGA,181138,2426.7755,N,08057.0257,W,1,11,1.6,20,M,,M,,*6F
06/16/2015	18:11:38.522	$GPGGA,181139,2426.7766,N,08057.0248,W,1,11,1.6,20,M,,M,,*60
06/16/2015	18:11:39.553	$GPGGA,181140,2426.7777,N,08057.0237,W,1,11,1.6,20,M,,M,,*66
06/16/2015	18:11:40.522	$GPGGA,181141,2426.7787,N,08057.0231,W,1,11,1.6,20,M,,M,,*6E
06/16/2015	18:11:41.669	$GPGGA,181142,2426.7798,N,08057.0223,W,1,11,1.6,20,M,,M,,*60
06/16/2015	18:11:42.503	$GPGGA,181143,2426.7809,N,08057.0212,W,1,11,1.6,20,M,,M,,*64
