Software Version Number: 1	Data File Format Number: 1	Build Version Number: 1	Error Count Since VI Started: 1	Manufacturer: Raytheon	 Model Number: RayMarine 120	 S/N: 	 Cal Date: 	 Wind Direction Offset: 0.00	 Slope (M)1: 0.00	 Offset (B)1: 0.00	 Slope (M)2: 0.00	 Offset (B)2: 0.00	 Slope (M)3: 0.00	 Offset (B)3: 0.00	 Slope (M)4: 0.00	 Offset (B)4: 0.00	 Slope (M)5: 0.00	 Offset (B)5: 0.00	 Slope (M)6: 0.00	 Offset (B)6: 0.00
Computer Date	Computer Time	GGA String
06/13/2015	10:00:00.568	$GPGGA,100001,2415.6496,N,08058.8749,W,1,9,1.6,16,M,,M,,*51
06/13/2015	10:00:01.657	$GPGGA,100002,2415.6487,N,08058.8738,W,1,9,1.6,16,M,,M,,*54
06/13/2015	10:00:02.572	$GPGGA,100003,2415.6478,N,08058.8727,W,1,9,1.6,16,M,,M,,*5B
06/13/2015	10:00:03.542	$GPGGA,100004,2415.6471,N,08058.8717,W,1,9,1.6,16,M,,M,,*56
06/13/2015	10:00:04.532	$GPGGA,100005,2415.6463,N,08058.8706,W,1,9,1.6,16,M,,M,,*54
06/13/2015	10:00:05.622	$GPGGA,100006,2415.6455,N,08058.8694,W,1,8,1.6,16,M,,M,,*59
06/13/2015	10:00:06.564	$GPGGA,100007,2415.6447,N,08058.8681,W,1,8,1.6,16,M,,M,,*5F
06/13/2015	10:00:07.655	$GPGGA,100008,2415.6440,N,08058.8672,W,1,9,1.6,16,M,,M,,*5A
06/13/2015	10:00:08.522	$GPGGA,100009,2415.6430,N,08058.8663,W,1,9,1.6,16,M,,M,,*5C
06/13/2015	10:00:09.592	$GPGGA,100010,2415.6422,N,08058.8651,W,1,9,1.6,15,M,,M,,*55
06/13/2015	10:00:10.522	$GPGGA,100011,2415.6413,N,08058.8639,W,1,9,1.6,15,M,,M,,*58
06/13/2015	10:00:11.532	$GPGGA,100012,2415.6406,N,08058.8631,W,1,9,1.6,15,M,,M,,*57
06/13/2015	10:00:12.522	$GPGGA,100013,2415.6397,N,08058.8623,W,1,9,1.6,15,M,,M,,*5A
06/13/2015	10:00:13.512	$GPGGA,100014,2415.6389,N,08058.8610,W,1,9,1.6,15,M,,M,,*52
06/13/2015	10:00:14.554	$GPGGA,100015,2415.6380,N,08058.8598,W,1,9,1.6,15,M,,M,,*59
06/13/2015	10:00:15.664	$GPGGA,100016,2415.6372,N,08058.8590,W,1,9,1.6,15,M,,M,,*5F
06/13/2015	10:00:16.502	$GPGGA,100017,2415.6364,N,08058.8583,W,1,9,1.6,15,M,,M,,*5B
06/13/2015	10:00:17.573	$GPGGA,100018,2415.6355,N,08058.8573,W,1,9,1.6,15,M,,M,,*59
06/13/2015	10:00:18.541	$GPGGA,100019,2415.6347,N,08058.8559,W,1,9,1.6,15,M,,M,,*53
06/13/2015	10:00:19.632	$GPGGA,100020,2415.6339,N,08058.8550,W,1,9,1.6,15,M,,M,,*59
06/13/2015	10:00:20.622	$GPGGA,100021,2415.6330,N,08058.8544,W,1,9,1.6,15,M,,M,,*54
06/13/2015	10:00:21.622	$GPGGA,100022,2415.6322,N,08058.8536,W,1,9,1.6,15,M,,M,,*51
06/13/2015	10:00:22.492	$GPGGA,100023,2415.6313,N,08058.8524,W,1,9,1.6,15,M,,M,,*51
06/13/2015	10:00:23.592	$GPGGA,100024,2415.6306,N,08058.8513,W,1,9,1.6,15,M,,M,,*56
06/13/2015	10:00:24.532	$GPGGA,100025,2415.6299,N,08058.8506,W,1,9,1.6,15,M,,M,,*54
06/13/2015	10:00:25.592	$GPGGA,100026,2415.6290,N,08058.8499,W,1,9,1.6,15,M,,M,,*59
06/13/2015	10:00:26.482	$GPGGA,100027,2415.6282,N,08058.8489,W,1,9,1.6,15,M,,M,,*5A
06/13/2015	10:00:27.592	$GPGGA,100028,2415.6274,N,08058.8479,W,1,9,1.6,15,M,,M,,*53
06/13/2015	10:00:28.522	$GPGGA,100029,2415.6265,N,08058.8469,W,1,9,1.6,15,M,,M,,*53
06/13/2015	10:00:29.570	$GPGGA,100030,2415.6259,N,08058.8460,W,1,9,1.6,15,M,,M,,*5D
06/13/2015	10:00:30.592	$GPGGA,100031,2415.6250,N,08058.8452,W,1,9,1.6,15,M,,M,,*54
06/13/2015	10:00:31.582	$GPGGA,100032,2415.6241,N,08058.8444,W,1,9,1.6,15,M,,M,,*50
06/13/2015	10:00:32.582	$GPGGA,100033,2415.6234,N,08058.8432,W,1,9,1.6,15,M,,M,,*52
06/13/2015	10:00:33.572	$GPGGA,100034,2415.6227,N,08058.8421,W,1,9,1.6,15,M,,M,,*55
06/13/2015	10:00:34.512	$GPGGA,100035,2415.6218,N,08058.8412,W,1,9,1.6,15,M,,M,,*58
06/13/2015	10:00:35.641	$GPGGA,100036,2415.6212,N,08058.8403,W,1,9,1.6,15,M,,M,,*51
06/13/2015	10:00:36.582	$GPGGA,100037,2415.6203,N,08058.8392,W,1,9,1.6,15,M,,M,,*5F
06/13/2015	10:00:37.602	$GPGGA,100038,2415.6195,N,08058.8381,W,1,9,1.6,15,M,,M,,*5E
06/13/2015	10:00:38.562	$GPGGA,100039,2415.6189,N,08058.8372,W,1,9,1.6,15,M,,M,,*5E
06/13/2015	10:00:39.592	$GPGGA,100040,2415.6181,N,08058.8363,W,1,9,1.6,15,M,,M,,*58
06/13/2015	10:00:40.558	$GPGGA,100041,2415.6172,N,08058.8351,W,1,9,1.6,15,M,,M,,*54
06/13/2015	10:00:41.572	$GPGGA,100042,2415.6166,N,08058.8341,W,1,9,1.6,15,M,,M,,*53
06/13/2015	10:00:42.562	$GPGGA,100043,2415.6166,N,08058.8341,W,1,9,1.6,15,M,,M,,*52
06/13/2015	10:00:43.632	$GPGGA,100044,2415.6149,N,08058.8322,W,1,9,1.6,15,M,,M,,*5D
06/13/2015	10:00:44.564	$GPGGA,100045,2415.6142,N,08058.8310,W,1,9,1.6,15,M,,M,,*56
06/13/2015	10:00:45.642	$GPGGA,100046,2415.6136,N,08058.8298,W,1,9,1.6,15,M,,M,,*57
06/13/2015	10:00:46.559	$GPGGA,100047,2415.6129,N,08058.8288,W,1,9,1.6,15,M,,M,,*59
06/13/2015	10:00:47.592	$GPGGA,100048,2415.6119,N,08058.8278,W,1,9,1.6,15,M,,M,,*5A
06/13/2015	10:00:48.552	$GPGGA,100049,2415.6111,N,08058.8268,W,1,9,1.6,15,M,,M,,*52
06/13/2015	10:00:49.582	$GPGGA,100050,2415.6104,N,08058.8257,W,1,9,1.6,15,M,,M,,*52
06/13/2015	10:00:50.563	$GPGGA,100051,2415.6096,N,08058.8245,W,1,9,1.6,15,M,,M,,*5A
06/13/2015	10:00:51.572	$GPGGA,100052,2415.6087,N,08058.8233,W,1,9,1.6,15,M,,M,,*58
06/13/2015	10:00:52.542	$GPGGA,100053,2415.6082,N,08058.8223,W,1,9,1.6,15,M,,M,,*5D
06/13/2015	10:00:53.563	$GPGGA,100054,2415.6073,N,08058.8212,W,1,9,1.6,15,M,,M,,*56
06/13/2015	10:00:54.532	$GPGGA,100055,2415.6064,N,08058.8202,W,1,9,1.6,15,M,,M,,*50
06/13/2015	10:00:55.602	$GPGGA,100056,2415.6057,N,08058.8193,W,1,9,1.6,15,M,,M,,*58
06/13/2015	10:00:56.532	$GPGGA,100057,2415.6050,N,08058.8182,W,1,9,1.6,15,M,,M,,*5E
06/13/2015	10:00:57.572	$GPGGA,100058,2415.6042,N,08058.8170,W,1,9,1.6,15,M,,M,,*5F
06/13/2015	10:00:58.522	$GPGGA,100059,2415.6036,N,08058.8161,W,1,9,1.6,15,M,,M,,*5D
06/13/2015	10:00:59.552	$GPGGA,100100,2415.6036,N,08058.8161,W,1,9,1.6,15,M,,M,,*50
06/13/2015	10:01:00.642	$GPGGA,100101,2415.6018,N,08058.8141,W,1,9,1.6,15,M,,M,,*5F
06/13/2015	10:01:01.912	$GPGGA,100102,2415.6013,N,08058.8130,W,1,9,1.6,15,M,,M,,*51
06/13/2015	10:01:02.532	$GPGGA,100103,2415.6013,N,08058.8130,W,1,9,1.6,15,M,,M,,*50
06/13/2015	10:01:03.552	$GPGGA,100104,2415.6008,N,08058.8119,W,1,9,1.6,15,M,,M,,*56
06/13/2015	10:01:04.512	$GPGGA,100105,2415.5989,N,08058.8100,W,1,9,1.6,15,M,,M,,*5C
06/13/2015	10:01:05.602	$GPGGA,100106,2415.5989,N,08058.8100,W,1,9,1.6,15,M,,M,,*5F
06/13/2015	10:01:06.522	$GPGGA,100107,2415.5978,N,08058.8076,W,1,9,1.6,15,M,,M,,*50
06/13/2015	10:01:07.522	$GPGGA,100108,2415.5978,N,08058.8076,W,1,9,1.6,15,M,,M,,*5F
06/13/2015	10:01:08.522	$GPGGA,100109,2415.5963,N,08058.8060,W,1,9,1.6,15,M,,M,,*53
06/13/2015	10:01:09.572	$GPGGA,100110,2415.5956,N,08058.8047,W,1,9,1.6,15,M,,M,,*58
06/13/2015	10:01:10.531	$GPGGA,100111,2415.5948,N,08058.8035,W,1,9,1.6,15,M,,M,,*53
06/13/2015	10:01:11.521	$GPGGA,100112,2415.5941,N,08058.8025,W,1,9,1.6,15,M,,M,,*58
06/13/2015	10:01:12.601	$GPGGA,100113,2415.5932,N,08058.8015,W,1,9,1.6,15,M,,M,,*5E
06/13/2015	10:01:13.511	$GPGGA,100114,2415.5927,N,08058.8004,W,1,9,1.6,14,M,,M,,*5C
06/13/2015	10:01:14.491	$GPGGA,100115,2415.5919,N,08058.7993,W,1,9,1.6,14,M,,M,,*58
06/13/2015	10:01:15.561	$GPGGA,100116,2415.5919,N,08058.7993,W,1,9,1.6,14,M,,M,,*5B
06/13/2015	10:01:16.591	$GPGGA,100117,2415.5903,N,08058.7971,W,1,9,1.6,14,M,,M,,*5D
06/13/2015	10:01:17.581	$GPGGA,100118,2415.5896,N,08058.7960,W,1,9,1.6,14,M,,M,,*5F
06/13/2015	10:01:18.501	$GPGGA,100119,2415.5888,N,08058.7947,W,1,9,1.6,14,M,,M,,*54
06/13/2015	10:01:19.621	$GPGGA,100120,2415.5880,N,08058.7938,W,1,9,1.6,14,M,,M,,*5E
06/13/2015	10:01:20.591	$GPGGA,100121,2415.5872,N,08058.7927,W,1,9,1.6,14,M,,M,,*5C
06/13/2015	10:01:24.602	$GPGGA,100125,2415.5841,N,08058.7880,W,1,9,1.6,14,M,,M,,*54
06/13/2015	10:01:25.592	$GPGGA,100126,2415.5834,N,08058.7868,W,1,9,1.6,14,M,,M,,*53
06/13/2015	10:01:26.557	$GPGGA,100127,2415.5826,N,08058.7857,W,1,9,1.6,14,M,,M,,*5D
06/13/2015	10:01:27.572	$GPGGA,100128,2415.5817,N,08058.7846,W,1,9,1.6,14,M,,M,,*50
06/13/2015	10:01:28.558	$GPGGA,100129,2415.5811,N,08058.7833,W,1,9,1.7,14,M,,M,,*54
06/13/2015	10:01:29.561	$GPGGA,100130,2415.5804,N,08058.7821,W,1,9,1.6,14,M,,M,,*5A
06/13/2015	10:01:30.543	$GPGGA,100131,2415.5795,N,08058.7811,W,1,9,1.6,14,M,,M,,*5F
06/13/2015	10:01:31.571	$GPGGA,100132,2415.5786,N,08058.7801,W,1,9,1.6,14,M,,M,,*5F
06/13/2015	10:01:32.551	$GPGGA,100133,2415.5779,N,08058.7789,W,1,9,1.6,14,M,,M,,*51
06/13/2015	10:01:33.547	$GPGGA,100134,2415.5770,N,08058.7777,W,1,8,1.7,14,M,,M,,*5E
06/13/2015	10:01:34.549	$GPGGA,100135,2415.5761,N,08058.7769,W,1,8,1.6,14,M,,M,,*51
06/13/2015	10:01:35.571	$GPGGA,100136,2415.5761,N,08058.7769,W,1,9,1.6,14,M,,M,,*53
06/13/2015	10:01:36.531	$GPGGA,100137,2415.5743,N,08058.7748,W,1,9,1.6,14,M,,M,,*51
06/13/2015	10:01:38.001	$GPGGA,100138,2415.5734,N,08058.7738,W,1,9,1.6,14,M,,M,,*59
06/13/2015	10:01:38.556	$GPGGA,100139,2415.5725,N,08058.7728,W,1,9,1.6,14,M,,M,,*59
06/13/2015	10:01:39.572	$GPGGA,100140,2415.5717,N,08058.7718,W,1,9,1.6,14,M,,M,,*55
06/13/2015	10:01:40.532	$GPGGA,100141,2415.5708,N,08058.7707,W,1,9,1.6,14,M,,M,,*54
06/13/2015	10:01:41.564	$GPGGA,100142,2415.5699,N,08058.7695,W,1,9,1.6,14,M,,M,,*54
06/13/2015	10:01:42.532	$GPGGA,100143,2415.5688,N,08058.7687,W,1,9,1.6,14,M,,M,,*56
06/13/2015	10:01:43.562	$GPGGA,100144,2415.5679,N,08058.7679,W,1,9,1.6,14,M,,M,,*5E
06/13/2015	10:01:44.522	$GPGGA,100145,2415.5672,N,08058.7667,W,1,9,1.6,14,M,,M,,*5B
06/13/2015	10:01:45.542	$GPGGA,100146,2415.5663,N,08058.7656,W,1,9,1.6,14,M,,M,,*5A
06/13/2015	10:01:46.531	$GPGGA,100147,2415.5652,N,08058.7650,W,1,9,1.6,14,M,,M,,*5F
06/13/2015	10:01:47.561	$GPGGA,100148,2415.5645,N,08058.7639,W,1,9,1.6,14,M,,M,,*59
06/13/2015	10:01:48.511	$GPGGA,100149,2415.5635,N,08058.7628,W,1,9,1.6,14,M,,M,,*5F
06/13/2015	10:01:49.552	$GPGGA,100150,2415.5627,N,08058.7620,W,1,9,1.6,14,M,,M,,*5C
06/13/2015	10:01:50.511	$GPGGA,100151,2415.5617,N,08058.7611,W,1,9,1.6,14,M,,M,,*5C
06/13/2015	10:01:51.571	$GPGGA,100152,2415.5609,N,08058.7602,W,1,9,1.6,14,M,,M,,*52
06/13/2015	10:01:52.511	$GPGGA,100153,2415.5598,N,08058.7592,W,1,9,1.6,14,M,,M,,*52
06/13/2015	10:01:53.541	$GPGGA,100154,2415.5589,N,08058.7582,W,1,9,1.6,14,M,,M,,*54
06/13/2015	10:01:54.521	$GPGGA,100155,2415.5582,N,08058.7571,W,1,9,1.6,14,M,,M,,*52
06/13/2015	10:01:55.555	$GPGGA,100156,2415.5571,N,08058.7562,W,1,9,1.6,14,M,,M,,*5F
06/13/2015	10:01:56.501	$GPGGA,100157,2415.5562,N,08058.7553,W,1,9,1.6,14,M,,M,,*5E
06/13/2015	10:01:57.602	$GPGGA,100158,2415.5552,N,08058.7545,W,1,9,1.6,14,M,,M,,*55
06/13/2015	10:01:58.512	$GPGGA,100159,2415.5544,N,08058.7532,W,1,9,1.6,14,M,,M,,*53
06/13/2015	10:01:59.654	$GPGGA,100200,2415.5535,N,08058.7523,W,1,9,1.6,14,M,,M,,*5A
06/13/2015	10:02:00.512	$GPGGA,100201,2415.5526,N,08058.7516,W,1,9,1.6,14,M,,M,,*5F
06/13/2015	10:02:01.512	$GPGGA,100202,2415.5517,N,08058.7506,W,1,9,1.6,13,M,,M,,*58
06/13/2015	10:02:02.482	$GPGGA,100203,2415.5508,N,08058.7493,W,1,9,1.6,13,M,,M,,*5A
06/13/2015	10:02:03.531	$GPGGA,100204,2415.5499,N,08058.7482,W,1,9,1.6,13,M,,M,,*54
06/13/2015	10:02:04.491	$GPGGA,100205,2415.5491,N,08058.7475,W,1,9,1.6,13,M,,M,,*55
06/13/2015	10:02:05.581	$GPGGA,100206,2415.5482,N,08058.7467,W,1,9,1.6,13,M,,M,,*57
06/13/2015	10:02:06.601	$GPGGA,100207,2415.5473,N,08058.7453,W,1,9,1.6,13,M,,M,,*5F
06/13/2015	10:02:07.511	$GPGGA,100208,2415.5465,N,08058.7442,W,1,9,1.6,13,M,,M,,*57
06/13/2015	10:02:08.491	$GPGGA,100209,2415.5459,N,08058.7435,W,1,9,1.6,13,M,,M,,*59
06/13/2015	10:02:09.491	$GPGGA,100210,2415.5450,N,08058.7425,W,1,9,1.6,13,M,,M,,*59
06/13/2015	10:02:10.561	$GPGGA,100211,2415.5443,N,08058.7414,W,1,9,1.6,13,M,,M,,*58
06/13/2015	10:02:11.491	$GPGGA,100212,2415.5434,N,08058.7404,W,1,9,1.6,13,M,,M,,*5A
06/13/2015	10:02:12.461	$GPGGA,100213,2415.5426,N,08058.7394,W,1,9,1.6,13,M,,M,,*56
06/13/2015	10:02:13.471	$GPGGA,100214,2415.5418,N,08058.7384,W,1,8,1.7,13,M,,M,,*5D
06/13/2015	10:02:14.562	$GPGGA,100215,2415.5410,N,08058.7375,W,1,8,1.6,13,M,,M,,*5B
06/13/2015	10:02:15.582	$GPGGA,100216,2415.5399,N,08058.7366,W,1,9,1.6,13,M,,M,,*5D
06/13/2015	10:02:16.553	$GPGGA,100217,2415.5392,N,08058.7355,W,1,9,1.6,13,M,,M,,*57
06/13/2015	10:02:17.572	$GPGGA,100218,2415.5385,N,08058.7342,W,1,9,1.6,13,M,,M,,*58
06/13/2015	10:02:18.545	$GPGGA,100219,2415.5376,N,08058.7333,W,1,9,1.6,13,M,,M,,*53
06/13/2015	10:02:19.582	$GPGGA,100220,2415.5367,N,08058.7323,W,1,9,1.6,13,M,,M,,*58
06/13/2015	10:02:20.553	$GPGGA,100221,2415.5358,N,08058.7312,W,1,9,1.6,13,M,,M,,*57
06/13/2015	10:02:21.561	$GPGGA,100222,2415.5351,N,08058.7301,W,1,9,1.6,13,M,,M,,*5F
06/13/2015	10:02:22.554	$GPGGA,100223,2415.5345,N,08058.7287,W,1,9,1.6,13,M,,M,,*54
06/13/2015	10:02:23.581	$GPGGA,100224,2415.5335,N,08058.7278,W,1,9,1.6,13,M,,M,,*54
06/13/2015	10:02:24.544	$GPGGA,100225,2415.5327,N,08058.7270,W,1,9,1.6,14,M,,M,,*59
06/13/2015	10:02:25.531	$GPGGA,100226,2415.5320,N,08058.7258,W,1,9,1.6,14,M,,M,,*57
06/13/2015	10:02:26.557	$GPGGA,100227,2415.5311,N,08058.7247,W,1,9,1.6,14,M,,M,,*5A
06/13/2015	10:02:27.541	$GPGGA,100228,2415.5304,N,08058.7237,W,1,9,1.6,14,M,,M,,*56
06/13/2015	10:02:28.545	$GPGGA,100229,2415.5295,N,08058.7225,W,1,9,1.6,14,M,,M,,*5D
06/13/2015	10:02:29.552	$GPGGA,100230,2415.5287,N,08058.7213,W,1,9,1.6,14,M,,M,,*53
06/13/2015	10:02:30.531	$GPGGA,100231,2415.5280,N,08058.7206,W,1,9,1.6,14,M,,M,,*51
06/13/2015	10:02:31.561	$GPGGA,100232,2415.5270,N,08058.7196,W,1,9,1.6,14,M,,M,,*57
06/13/2015	10:02:32.532	$GPGGA,100233,2415.5263,N,08058.7182,W,1,9,1.6,14,M,,M,,*51
06/13/2015	10:02:33.552	$GPGGA,100234,2415.5257,N,08058.7171,W,1,9,1.6,14,M,,M,,*5D
06/13/2015	10:02:34.522	$GPGGA,100235,2415.5249,N,08058.7161,W,1,9,1.6,14,M,,M,,*52
06/13/2015	10:02:36.532	$GPGGA,100236,2415.5239,N,08058.7152,W,1,9,1.6,14,M,,M,,*56
06/13/2015	10:02:36.562	$GPGGA,100237,2415.5233,N,08058.7140,W,1,9,1.6,14,M,,M,,*5E
06/13/2015	10:02:37.522	$GPGGA,100238,2415.5227,N,08058.7127,W,1,9,1.6,14,M,,M,,*55
06/13/2015	10:02:38.531	$GPGGA,100239,2415.5219,N,08058.7117,W,1,9,1.6,14,M,,M,,*5A
06/13/2015	10:02:39.551	$GPGGA,100240,2415.5210,N,08058.7109,W,1,9,1.6,14,M,,M,,*52
06/13/2015	10:02:40.511	$GPGGA,100241,2415.5202,N,08058.7097,W,1,9,1.6,14,M,,M,,*56
06/13/2015	10:02:41.501	$GPGGA,100242,2415.5197,N,08058.7085,W,1,9,1.6,14,M,,M,,*59
06/13/2015	10:02:42.511	$GPGGA,100243,2415.5190,N,08058.7075,W,1,9,1.6,14,M,,M,,*50
06/13/2015	10:02:43.544	$GPGGA,100244,2415.5180,N,08058.7065,W,1,9,1.6,14,M,,M,,*57
06/13/2015	10:02:44.621	$GPGGA,100245,2415.5173,N,08058.7053,W,1,9,1.6,14,M,,M,,*5F
06/13/2015	10:02:45.831	$GPGGA,100246,2415.5166,N,08058.7042,W,1,9,1.6,14,M,,M,,*58
06/13/2015	10:02:46.491	$GPGGA,100247,2415.5158,N,08058.7030,W,1,9,1.7,14,M,,M,,*50
06/13/2015	10:02:47.511	$GPGGA,100248,2415.5150,N,08058.7019,W,1,9,1.6,14,M,,M,,*5D
06/13/2015	10:02:48.511	$GPGGA,100249,2415.5143,N,08058.7009,W,1,9,1.6,14,M,,M,,*5F
06/13/2015	10:02:49.502	$GPGGA,100250,2415.5134,N,08058.6998,W,1,9,1.6,14,M,,M,,*57
06/13/2015	10:02:50.512	$GPGGA,100251,2415.5125,N,08058.6986,W,1,9,1.6,14,M,,M,,*59
06/13/2015	10:02:51.522	$GPGGA,100252,2415.5117,N,08058.6978,W,1,9,1.6,14,M,,M,,*5A
06/13/2015	10:02:52.492	$GPGGA,100253,2415.5109,N,08058.6968,W,1,9,1.6,14,M,,M,,*55
06/13/2015	10:02:53.482	$GPGGA,100254,2415.5099,N,08058.6955,W,1,9,1.6,14,M,,M,,*54
06/13/2015	10:02:54.572	$GPGGA,100255,2415.5092,N,08058.6945,W,1,9,1.6,14,M,,M,,*5F
06/13/2015	10:02:55.591	$GPGGA,100256,2415.5085,N,08058.6939,W,1,9,1.6,14,M,,M,,*51
06/13/2015	10:02:56.601	$GPGGA,100257,2415.5074,N,08058.6929,W,1,9,1.6,14,M,,M,,*5F
06/13/2015	10:02:57.491	$GPGGA,100258,2415.5067,N,08058.6915,W,1,9,1.6,14,M,,M,,*5D
06/13/2015	10:02:58.491	$GPGGA,100259,2415.5061,N,08058.6904,W,1,9,1.6,14,M,,M,,*5A
06/13/2015	10:02:59.631	$GPGGA,100300,2415.5053,N,08058.6896,W,1,9,1.6,14,M,,M,,*5C
06/13/2015	10:03:00.501	$GPGGA,100301,2415.5043,N,08058.6887,W,1,9,1.7,14,M,,M,,*5D
06/13/2015	10:03:01.561	$GPGGA,100302,2415.5038,N,08058.6876,W,1,9,1.6,14,M,,M,,*5D
06/13/2015	10:03:02.561	$GPGGA,100303,2415.5031,N,08058.6867,W,1,9,1.6,14,M,,M,,*55
06/13/2015	10:03:03.571	$GPGGA,100304,2415.5023,N,08058.6857,W,1,9,1.6,14,M,,M,,*52
06/13/2015	10:03:04.571	$GPGGA,100305,2415.5014,N,08058.6847,W,1,9,1.6,14,M,,M,,*56
06/13/2015	10:03:05.571	$GPGGA,100306,2415.5007,N,08058.6837,W,1,9,1.6,14,M,,M,,*50
06/13/2015	10:03:06.561	$GPGGA,100307,2415.5000,N,08058.6827,W,1,9,1.6,14,M,,M,,*57
06/13/2015	10:03:07.562	$GPGGA,100308,2415.4993,N,08058.6819,W,1,9,1.6,14,M,,M,,*57
06/13/2015	10:03:08.554	$GPGGA,100309,2415.4986,N,08058.6809,W,1,9,1.6,15,M,,M,,*52
06/13/2015	10:03:09.582	$GPGGA,100310,2415.4978,N,08058.6797,W,1,8,1.7,15,M,,M,,*53
06/13/2015	10:03:10.556	$GPGGA,100311,2415.4973,N,08058.6788,W,1,8,1.6,15,M,,M,,*56
06/13/2015	10:03:11.561	$GPGGA,100312,2415.4964,N,08058.6781,W,1,9,1.6,15,M,,M,,*5B
06/13/2015	10:03:12.558	$GPGGA,100313,2415.4956,N,08058.6770,W,1,9,1.6,15,M,,M,,*55
06/13/2015	10:03:13.561	$GPGGA,100314,2415.4951,N,08058.6761,W,1,9,1.6,15,M,,M,,*55
06/13/2015	10:03:14.545	$GPGGA,100315,2415.4944,N,08058.6754,W,1,9,1.6,15,M,,M,,*56
06/13/2015	10:03:15.571	$GPGGA,100316,2415.4934,N,08058.6743,W,1,9,1.6,15,M,,M,,*54
06/13/2015	10:03:16.542	$GPGGA,100317,2415.4930,N,08058.6730,W,1,9,1.6,15,M,,M,,*55
06/13/2015	10:03:17.554	$GPGGA,100318,2415.4921,N,08058.6722,W,1,9,1.6,15,M,,M,,*59
06/13/2015	10:03:18.531	$GPGGA,100319,2415.4912,N,08058.6718,W,1,9,1.6,15,M,,M,,*51
06/13/2015	10:03:20.095	$GPGGA,100320,2415.4905,N,08058.6710,W,1,9,1.6,15,M,,M,,*55
06/13/2015	10:03:20.531	$GPGGA,100321,2415.4899,N,08058.6697,W,1,9,1.6,15,M,,M,,*5E
06/13/2015	10:03:21.545	$GPGGA,100322,2415.4891,N,08058.6690,W,1,9,1.6,15,M,,M,,*52
06/13/2015	10:03:22.531	$GPGGA,100323,2415.4883,N,08058.6684,W,1,9,1.6,15,M,,M,,*55
06/13/2015	10:03:23.571	$GPGGA,100324,2415.4875,N,08058.6674,W,1,9,1.6,15,M,,M,,*54
06/13/2015	10:03:24.512	$GPGGA,100325,2415.4868,N,08058.6664,W,1,9,1.6,15,M,,M,,*58
06/13/2015	10:03:25.532	$GPGGA,100326,2415.4861,N,08058.6656,W,1,9,1.6,15,M,,M,,*53
06/13/2015	10:03:26.522	$GPGGA,100327,2415.4851,N,08058.6649,W,1,9,1.6,15,M,,M,,*5F
06/13/2015	10:03:27.562	$GPGGA,100328,2415.4844,N,08058.6640,W,1,9,1.6,15,M,,M,,*5D
06/13/2015	10:03:28.522	$GPGGA,100329,2415.4836,N,08058.6629,W,1,9,1.6,15,M,,M,,*56
06/13/2015	10:03:29.502	$GPGGA,100330,2415.4827,N,08058.6619,W,1,9,1.6,15,M,,M,,*5D
06/13/2015	10:03:30.521	$GPGGA,100331,2415.4818,N,08058.6612,W,1,9,1.6,15,M,,M,,*5B
06/13/2015	10:03:31.556	$GPGGA,100332,2415.4811,N,08058.6602,W,1,9,1.6,15,M,,M,,*50
06/13/2015	10:03:32.521	$GPGGA,100333,2415.4803,N,08058.6591,W,1,9,1.6,15,M,,M,,*5B
06/13/2015	10:03:33.511	$GPGGA,100334,2415.4796,N,08058.6581,W,1,9,1.6,15,M,,M,,*5E
06/13/2015	10:03:35.511	$GPGGA,100336,2415.4778,N,08058.6564,W,1,9,1.6,15,M,,M,,*57
06/13/2015	10:03:36.511	$GPGGA,100337,2415.4771,N,08058.6553,W,1,9,1.6,15,M,,M,,*5B
06/13/2015	10:03:37.521	$GPGGA,100338,2415.4762,N,08058.6540,W,1,9,1.6,15,M,,M,,*54
06/13/2015	10:03:38.501	$GPGGA,100339,2415.4753,N,08058.6531,W,1,9,1.6,15,M,,M,,*51
06/13/2015	10:03:39.521	$GPGGA,100340,2415.4745,N,08058.6522,W,1,9,1.6,15,M,,M,,*5A
06/13/2015	10:03:40.501	$GPGGA,100341,2415.4736,N,08058.6510,W,1,9,1.6,15,M,,M,,*5E
06/13/2015	10:03:41.501	$GPGGA,100342,2415.4727,N,08058.6501,W,1,9,1.6,15,M,,M,,*5D
06/13/2015	10:03:42.602	$GPGGA,100343,2415.4720,N,08058.6492,W,1,9,1.6,15,M,,M,,*50
06/13/2015	10:03:43.602	$GPGGA,100344,2415.4711,N,08058.6479,W,1,9,1.6,15,M,,M,,*50
06/13/2015	10:03:44.492	$GPGGA,100345,2415.4703,N,08058.6469,W,1,9,1.6,15,M,,M,,*53
06/13/2015	10:03:45.502	$GPGGA,100346,2415.4696,N,08058.6460,W,1,9,1.6,15,M,,M,,*54
06/13/2015	10:03:46.492	$GPGGA,100347,2415.4688,N,08058.6450,W,1,9,1.6,15,M,,M,,*59
06/13/2015	10:03:47.581	$GPGGA,100348,2415.4679,N,08058.6440,W,1,9,1.6,15,M,,M,,*59
06/13/2015	10:03:48.571	$GPGGA,100349,2415.4671,N,08058.6427,W,1,9,1.6,15,M,,M,,*51
06/13/2015	10:03:49.481	$GPGGA,100350,2415.4662,N,08058.6417,W,1,9,1.6,15,M,,M,,*58
06/13/2015	10:03:50.491	$GPGGA,100351,2415.4655,N,08058.6409,W,1,9,1.6,15,M,,M,,*52
06/13/2015	10:03:51.581	$GPGGA,100352,2415.4646,N,08058.6397,W,1,9,1.6,15,M,,M,,*53
06/13/2015	10:03:52.471	$GPGGA,100353,2415.4641,N,08058.6385,W,1,9,1.6,15,M,,M,,*56
06/13/2015	10:03:53.581	$GPGGA,100354,2415.4631,N,08058.6376,W,1,9,1.6,15,M,,M,,*5A
06/13/2015	10:03:54.561	$GPGGA,100355,2415.4622,N,08058.6364,W,1,9,1.6,15,M,,M,,*5A
06/13/2015	10:03:55.581	$GPGGA,100356,2415.4615,N,08058.6352,W,1,9,1.6,15,M,,M,,*58
06/13/2015	10:03:56.554	$GPGGA,100357,2415.4608,N,08058.6342,W,1,9,1.6,15,M,,M,,*54
06/13/2015	10:03:57.561	$GPGGA,100358,2415.4599,N,08058.6330,W,1,9,1.6,15,M,,M,,*55
06/13/2015	10:03:58.556	$GPGGA,100359,2415.4591,N,08058.6319,W,1,9,1.6,15,M,,M,,*57
06/13/2015	10:03:59.592	$GPGGA,100400,2415.4585,N,08058.6309,W,1,9,1.6,15,M,,M,,*58
06/13/2015	10:04:00.556	$GPGGA,100401,2415.4577,N,08058.6297,W,1,9,1.6,15,M,,M,,*52
06/13/2015	10:04:01.572	$GPGGA,100402,2415.4569,N,08058.6286,W,1,9,1.6,15,M,,M,,*5E
06/13/2015	10:04:02.546	$GPGGA,100403,2415.4562,N,08058.6276,W,1,9,1.6,15,M,,M,,*5B
06/13/2015	10:04:03.572	$GPGGA,100404,2415.4554,N,08058.6265,W,1,9,1.6,15,M,,M,,*5B
06/13/2015	10:04:04.532	$GPGGA,100405,2415.4547,N,08058.6252,W,1,9,1.6,15,M,,M,,*5C
06/13/2015	10:04:05.563	$GPGGA,100406,2415.4540,N,08058.6242,W,1,9,1.6,15,M,,M,,*59
06/13/2015	10:04:06.544	$GPGGA,100407,2415.4531,N,08058.6232,W,1,9,1.6,15,M,,M,,*59
06/13/2015	10:04:07.581	$GPGGA,100408,2415.4523,N,08058.6222,W,1,9,1.6,15,M,,M,,*54
06/13/2015	10:04:08.557	$GPGGA,100409,2415.4518,N,08058.6209,W,1,9,1.6,15,M,,M,,*54
06/13/2015	10:04:09.546	$GPGGA,100410,2415.4509,N,08058.6198,W,1,9,1.6,15,M,,M,,*57
06/13/2015	10:04:10.521	$GPGGA,100411,2415.4501,N,08058.6189,W,1,9,1.6,15,M,,M,,*5E
06/13/2015	10:04:14.691	$GPGGA,100415,2415.4469,N,08058.6147,W,1,9,1.6,15,M,,M,,*57
06/13/2015	10:04:15.562	$GPGGA,100416,2415.4461,N,08058.6136,W,1,9,1.6,15,M,,M,,*5A
06/13/2015	10:04:16.522	$GPGGA,100417,2415.4453,N,08058.6129,W,1,9,1.6,15,M,,M,,*54
06/13/2015	10:04:17.532	$GPGGA,100418,2415.4445,N,08058.6118,W,1,9,1.6,15,M,,M,,*5E
06/13/2015	10:04:18.532	$GPGGA,100419,2415.4438,N,08058.6106,W,1,9,1.6,15,M,,M,,*5A
06/13/2015	10:04:19.522	$GPGGA,100420,2415.4431,N,08058.6098,W,1,9,1.6,15,M,,M,,*5F
06/13/2015	10:04:20.502	$GPGGA,100421,2415.4421,N,08058.6087,W,1,9,1.6,15,M,,M,,*51
06/13/2015	10:04:21.522	$GPGGA,100422,2415.4413,N,08058.6075,W,1,9,1.6,15,M,,M,,*5E
06/13/2015	10:04:22.502	$GPGGA,100423,2415.4407,N,08058.6065,W,1,9,1.6,15,M,,M,,*5B
06/13/2015	10:04:23.511	$GPGGA,100424,2415.4400,N,08058.6058,W,1,9,1.6,15,M,,M,,*55
06/13/2015	10:04:24.602	$GPGGA,100425,2415.4390,N,08058.6049,W,1,9,1.6,15,M,,M,,*5A
06/13/2015	10:04:25.511	$GPGGA,100426,2415.4384,N,08058.6036,W,1,9,1.6,15,M,,M,,*54
06/13/2015	10:04:26.511	$GPGGA,100427,2415.4378,N,08058.6027,W,1,9,1.6,15,M,,M,,*56
06/13/2015	10:04:27.531	$GPGGA,100428,2415.4370,N,08058.6021,W,1,9,1.6,15,M,,M,,*57
06/13/2015	10:04:28.501	$GPGGA,100429,2415.4362,N,08058.6010,W,1,9,1.6,15,M,,M,,*57
06/13/2015	10:04:29.511	$GPGGA,100430,2415.4356,N,08058.5999,W,1,9,1.6,15,M,,M,,*53
06/13/2015	10:04:30.581	$GPGGA,100431,2415.4349,N,08058.5992,W,1,9,1.6,15,M,,M,,*57
06/13/2015	10:04:31.550	$GPGGA,100432,2415.4341,N,08058.5984,W,1,9,1.6,15,M,,M,,*5B
06/13/2015	10:04:32.591	$GPGGA,100433,2415.4335,N,08058.5972,W,1,9,1.6,15,M,,M,,*50
06/13/2015	10:04:33.591	$GPGGA,100434,2415.4330,N,08058.5963,W,1,9,1.6,15,M,,M,,*52
06/13/2015	10:04:34.492	$GPGGA,100435,2415.4319,N,08058.5957,W,1,9,1.6,15,M,,M,,*5F
06/13/2015	10:04:35.592	$GPGGA,100436,2415.4312,N,08058.5949,W,1,9,1.6,15,M,,M,,*58
06/13/2015	10:04:36.572	$GPGGA,100437,2415.4306,N,08058.5938,W,1,9,1.6,15,M,,M,,*5A
06/13/2015	10:04:37.482	$GPGGA,100438,2415.4298,N,08058.5929,W,1,9,1.6,15,M,,M,,*53
06/13/2015	10:04:38.482	$GPGGA,100439,2415.4290,N,08058.5923,W,1,9,1.6,15,M,,M,,*50
06/13/2015	10:04:39.492	$GPGGA,100440,2415.4281,N,08058.5915,W,1,9,1.6,15,M,,M,,*5B
06/13/2015	10:04:40.561	$GPGGA,100441,2415.4276,N,08058.5903,W,1,9,1.6,15,M,,M,,*55
06/13/2015	10:04:41.571	$GPGGA,100442,2415.4266,N,08058.5895,W,1,9,1.6,15,M,,M,,*59
06/13/2015	10:04:42.571	$GPGGA,100443,2415.4258,N,08058.5892,W,1,9,1.6,15,M,,M,,*52
06/13/2015	10:04:43.481	$GPGGA,100444,2415.4249,N,08058.5882,W,1,9,1.6,15,M,,M,,*54
06/13/2015	10:04:44.554	$GPGGA,100445,2415.4243,N,08058.5871,W,1,9,1.6,15,M,,M,,*53
06/13/2015	10:04:45.581	$GPGGA,100446,2415.4234,N,08058.5863,W,1,9,1.6,15,M,,M,,*53
06/13/2015	10:04:46.561	$GPGGA,100447,2415.4226,N,08058.5856,W,1,9,1.6,15,M,,M,,*57
06/13/2015	10:04:47.581	$GPGGA,100448,2415.4218,N,08058.5847,W,1,9,1.6,15,M,,M,,*55
06/13/2015	10:04:48.561	$GPGGA,100449,2415.4209,N,08058.5838,W,1,9,1.6,15,M,,M,,*5C
06/13/2015	10:04:49.551	$GPGGA,100450,2415.4202,N,08058.5828,W,1,8,1.6,15,M,,M,,*5F
06/13/2015	10:04:50.554	$GPGGA,100451,2415.4193,N,08058.5818,W,1,8,1.6,15,M,,M,,*56
06/13/2015	10:04:51.592	$GPGGA,100452,2415.4186,N,08058.5810,W,1,9,1.6,15,M,,M,,*58
06/13/2015	10:04:52.554	$GPGGA,100453,2415.4179,N,08058.5803,W,1,9,1.6,15,M,,M,,*5B
06/13/2015	10:04:53.562	$GPGGA,100454,2415.4171,N,08058.5794,W,1,9,1.6,15,M,,M,,*55
06/13/2015	10:04:54.551	$GPGGA,100455,2415.4164,N,08058.5783,W,1,9,1.6,15,M,,M,,*56
06/13/2015	10:04:55.572	$GPGGA,100456,2415.4156,N,08058.5773,W,1,9,1.6,15,M,,M,,*5B
06/13/2015	10:04:56.552	$GPGGA,100457,2415.4147,N,08058.5765,W,1,9,1.6,15,M,,M,,*5D
06/13/2015	10:04:57.531	$GPGGA,100458,2415.4139,N,08058.5756,W,1,9,1.6,15,M,,M,,*5B
06/13/2015	10:04:58.548	$GPGGA,100459,2415.4133,N,08058.5746,W,1,9,1.6,15,M,,M,,*51
06/13/2015	10:04:59.591	$GPGGA,100500,2415.4126,N,08058.5735,W,1,9,1.6,15,M,,M,,*5C
06/13/2015	10:05:00.531	$GPGGA,100501,2415.4117,N,08058.5725,W,1,9,1.6,15,M,,M,,*5E
06/13/2015	10:05:01.531	$GPGGA,100502,2415.4110,N,08058.5717,W,1,9,1.6,15,M,,M,,*5B
06/13/2015	10:05:02.521	$GPGGA,100503,2415.4106,N,08058.5709,W,1,9,1.6,15,M,,M,,*52
06/13/2015	10:05:03.571	$GPGGA,100504,2415.4097,N,08058.5697,W,1,9,1.6,15,M,,M,,*5A
06/13/2015	10:05:04.531	$GPGGA,100505,2415.4089,N,08058.5686,W,1,9,1.6,15,M,,M,,*54
06/13/2015	10:05:05.551	$GPGGA,100506,2415.4082,N,08058.5680,W,1,9,1.6,15,M,,M,,*5A
06/13/2015	10:05:06.531	$GPGGA,100507,2415.4077,N,08058.5673,W,1,9,1.6,15,M,,M,,*5D
06/13/2015	10:05:07.561	$GPGGA,100508,2415.4072,N,08058.5663,W,1,9,1.6,15,M,,M,,*56
06/13/2015	10:05:08.521	$GPGGA,100509,2415.4066,N,08058.5653,W,1,9,1.6,15,M,,M,,*51
06/13/2015	10:05:09.522	$GPGGA,100510,2415.4057,N,08058.5646,W,1,9,1.6,15,M,,M,,*5F
06/13/2015	10:05:10.532	$GPGGA,100511,2415.4052,N,08058.5640,W,1,9,1.6,15,M,,M,,*5D
06/13/2015	10:05:12.522	$GPGGA,100512,2415.4048,N,08058.5632,W,1,9,1.6,15,M,,M,,*50
06/13/2015	10:05:12.562	$GPGGA,100513,2415.4041,N,08058.5623,W,1,9,1.6,15,M,,M,,*58
06/13/2015	10:05:13.532	$GPGGA,100514,2415.4034,N,08058.5616,W,1,9,1.6,15,M,,M,,*5B
06/13/2015	10:05:14.532	$GPGGA,100515,2415.4030,N,08058.5607,W,1,9,1.6,15,M,,M,,*5E
06/13/2015	10:05:15.621	$GPGGA,100516,2415.4023,N,08058.5599,W,1,9,1.6,15,M,,M,,*5B
06/13/2015	10:05:16.611	$GPGGA,100517,2415.4016,N,08058.5592,W,1,9,1.6,14,M,,M,,*56
06/13/2015	10:05:17.611	$GPGGA,100518,2415.4009,N,08058.5584,W,1,9,1.6,14,M,,M,,*50
06/13/2015	10:05:18.521	$GPGGA,100519,2415.4002,N,08058.5575,W,1,9,1.6,14,M,,M,,*54
06/13/2015	10:05:19.545	$GPGGA,100520,2415.3995,N,08058.5566,W,1,9,1.6,14,M,,M,,*5C
06/13/2015	10:05:20.601	$GPGGA,100521,2415.3989,N,08058.5560,W,1,9,1.6,14,M,,M,,*56
06/13/2015	10:05:21.501	$GPGGA,100522,2415.3983,N,08058.5552,W,1,8,1.6,14,M,,M,,*5F
06/13/2015	10:05:22.481	$GPGGA,100523,2415.3976,N,08058.5541,W,1,8,1.6,14,M,,M,,*56
06/13/2015	10:05:23.521	$GPGGA,100524,2415.3969,N,08058.5532,W,1,8,1.6,14,M,,M,,*5B
06/13/2015	10:05:24.571	$GPGGA,100525,2415.3960,N,08058.5526,W,1,8,1.6,14,M,,M,,*56
06/13/2015	10:05:25.501	$GPGGA,100526,2415.3952,N,08058.5516,W,1,9,1.6,14,M,,M,,*56
06/13/2015	10:05:26.572	$GPGGA,100527,2415.3947,N,08058.5505,W,1,9,1.6,14,M,,M,,*51
06/13/2015	10:05:27.582	$GPGGA,100528,2415.3940,N,08058.5496,W,1,9,1.6,14,M,,M,,*52
06/13/2015	10:05:28.572	$GPGGA,100529,2415.3931,N,08058.5486,W,1,9,1.6,14,M,,M,,*54
06/13/2015	10:05:29.572	$GPGGA,100530,2415.3924,N,08058.5477,W,1,9,1.6,15,M,,M,,*57
06/13/2015	10:05:30.492	$GPGGA,100531,2415.3918,N,08058.5469,W,1,9,1.6,15,M,,M,,*56
06/13/2015	10:05:31.572	$GPGGA,100532,2415.3909,N,08058.5459,W,1,8,1.6,15,M,,M,,*57
06/13/2015	10:05:32.561	$GPGGA,100533,2415.3901,N,08058.5452,W,1,8,1.6,15,M,,M,,*55
06/13/2015	10:05:33.561	$GPGGA,100534,2415.3893,N,08058.5442,W,1,9,1.6,15,M,,M,,*58
06/13/2015	10:05:34.561	$GPGGA,100535,2415.3886,N,08058.5432,W,1,9,1.6,15,M,,M,,*5A
06/13/2015	10:05:35.572	$GPGGA,100536,2415.3879,N,08058.5423,W,1,9,1.6,15,M,,M,,*59
06/13/2015	10:05:36.561	$GPGGA,100537,2415.3871,N,08058.5414,W,1,9,1.6,15,M,,M,,*54
06/13/2015	10:05:37.571	$GPGGA,100538,2415.3864,N,08058.5404,W,1,9,1.6,15,M,,M,,*5E
06/13/2015	10:05:38.542	$GPGGA,100539,2415.3855,N,08058.5393,W,1,9,1.6,15,M,,M,,*54
06/13/2015	10:05:39.581	$GPGGA,100540,2415.3849,N,08058.5382,W,1,9,1.6,15,M,,M,,*57
06/13/2015	10:05:40.553	$GPGGA,100541,2415.3842,N,08058.5372,W,1,9,1.6,15,M,,M,,*52
06/13/2015	10:05:41.561	$GPGGA,100542,2415.3832,N,08058.5360,W,1,9,1.6,15,M,,M,,*55
06/13/2015	10:05:42.541	$GPGGA,100543,2415.3826,N,08058.5350,W,1,9,1.6,15,M,,M,,*52
06/13/2015	10:05:43.571	$GPGGA,100544,2415.3820,N,08058.5339,W,1,9,1.6,15,M,,M,,*5C
06/13/2015	10:05:44.532	$GPGGA,100545,2415.3812,N,08058.5327,W,1,9,1.6,15,M,,M,,*53
06/13/2015	10:05:45.556	$GPGGA,100546,2415.3804,N,08058.5318,W,1,9,1.6,15,M,,M,,*5B
06/13/2015	10:05:46.532	$GPGGA,100547,2415.3797,N,08058.5308,W,1,9,1.6,15,M,,M,,*5E
06/13/2015	10:05:47.542	$GPGGA,100548,2415.3790,N,08058.5294,W,1,9,1.6,15,M,,M,,*52
06/13/2015	10:05:48.542	$GPGGA,100549,2415.3784,N,08058.5280,W,1,9,1.6,15,M,,M,,*53
06/13/2015	10:05:49.532	$GPGGA,100550,2415.3777,N,08058.5273,W,1,9,1.6,15,M,,M,,*5B
06/13/2015	10:05:50.531	$GPGGA,100551,2415.3767,N,08058.5263,W,1,9,1.6,15,M,,M,,*5A
06/13/2015	10:05:51.561	$GPGGA,100552,2415.3761,N,08058.5250,W,1,9,1.6,15,M,,M,,*5F
06/13/2015	10:05:52.531	$GPGGA,100553,2415.3755,N,08058.5237,W,1,9,1.6,15,M,,M,,*58
06/13/2015	10:05:53.511	$GPGGA,100554,2415.3747,N,08058.5226,W,1,9,1.6,15,M,,M,,*5C
06/13/2015	10:05:54.522	$GPGGA,100555,2415.3739,N,08058.5216,W,1,9,1.6,15,M,,M,,*57
06/13/2015	10:05:55.532	$GPGGA,100556,2415.3732,N,08058.5206,W,1,9,1.6,15,M,,M,,*5E
06/13/2015	10:05:56.521	$GPGGA,100557,2415.3725,N,08058.5195,W,1,9,1.6,15,M,,M,,*50
06/13/2015	10:05:57.542	$GPGGA,100558,2415.3717,N,08058.5183,W,1,9,1.6,15,M,,M,,*59
06/13/2015	10:05:58.501	$GPGGA,100559,2415.3710,N,08058.5173,W,1,9,1.6,15,M,,M,,*50
06/13/2015	10:05:59.542	$GPGGA,100600,2415.3703,N,08058.5164,W,1,9,1.6,15,M,,M,,*5B
06/13/2015	10:06:00.621	$GPGGA,100601,2415.3696,N,08058.5152,W,1,9,1.6,15,M,,M,,*52
06/13/2015	10:06:01.542	$GPGGA,100602,2415.3690,N,08058.5141,W,1,9,1.6,15,M,,M,,*55
06/13/2015	10:06:02.492	$GPGGA,100603,2415.3683,N,08058.5133,W,1,9,1.7,15,M,,M,,*52
06/13/2015	10:06:03.502	$GPGGA,100604,2415.3676,N,08058.5123,W,1,9,1.6,15,M,,M,,*5F
06/13/2015	10:06:04.512	$GPGGA,100605,2415.3669,N,08058.5111,W,1,9,1.6,15,M,,M,,*51
06/13/2015	10:06:05.502	$GPGGA,100606,2415.3662,N,08058.5102,W,1,9,1.6,15,M,,M,,*5B
06/13/2015	10:06:06.612	$GPGGA,100607,2415.3653,N,08058.5094,W,1,9,1.6,15,M,,M,,*56
06/13/2015	10:06:08.511	$GPGGA,100608,2415.3644,N,08058.5083,W,1,9,1.6,15,M,,M,,*59
06/13/2015	10:06:08.542	$GPGGA,100609,2415.3638,N,08058.5073,W,1,9,1.6,15,M,,M,,*5C
06/13/2015	10:06:09.491	$GPGGA,100610,2415.3633,N,08058.5063,W,1,9,1.6,15,M,,M,,*5E
06/13/2015	10:06:10.481	$GPGGA,100611,2415.3623,N,08058.5054,W,1,9,1.6,15,M,,M,,*5A
06/13/2015	10:06:11.491	$GPGGA,100612,2415.3615,N,08058.5046,W,1,9,1.6,15,M,,M,,*5F
06/13/2015	10:06:12.481	$GPGGA,100613,2415.3608,N,08058.5036,W,1,9,1.6,15,M,,M,,*55
06/13/2015	10:06:13.481	$GPGGA,100614,2415.3601,N,08058.5026,W,1,9,1.6,15,M,,M,,*5A
06/13/2015	10:06:14.481	$GPGGA,100615,2415.3593,N,08058.5018,W,1,9,1.6,15,M,,M,,*5E
06/13/2015	10:06:15.621	$GPGGA,100616,2415.3586,N,08058.5010,W,1,8,1.6,15,M,,M,,*50
06/13/2015	10:06:16.581	$GPGGA,100617,2415.3578,N,08058.5000,W,1,8,1.6,15,M,,M,,*51
06/13/2015	10:06:17.571	$GPGGA,100618,2415.3570,N,08058.4989,W,1,9,1.6,15,M,,M,,*5E
06/13/2015	10:06:18.481	$GPGGA,100619,2415.3562,N,08058.4982,W,1,9,1.6,15,M,,M,,*57
06/13/2015	10:06:19.582	$GPGGA,100620,2415.3555,N,08058.4972,W,1,7,1.9,15,M,,M,,*57
06/13/2015	10:06:20.572	$GPGGA,100621,2415.3547,N,08058.4962,W,1,7,1.6,15,M,,M,,*5B
06/13/2015	10:06:21.562	$GPGGA,100622,2415.3539,N,08058.4953,W,1,9,1.6,15,M,,M,,*5D
06/13/2015	10:06:22.572	$GPGGA,100623,2415.3531,N,08058.4943,W,1,9,1.6,15,M,,M,,*55
06/13/2015	10:06:23.602	$GPGGA,100624,2415.3525,N,08058.4932,W,1,9,1.6,15,M,,M,,*51
06/13/2015	10:06:24.572	$GPGGA,100625,2415.3517,N,08058.4926,W,1,9,1.6,15,M,,M,,*54
06/13/2015	10:06:25.571	$GPGGA,100626,2415.3506,N,08058.4917,W,1,8,1.6,15,M,,M,,*54
06/13/2015	10:06:26.559	$GPGGA,100627,2415.3499,N,08058.4908,W,1,8,1.6,15,M,,M,,*5C
06/13/2015	10:06:27.581	$GPGGA,100628,2415.3492,N,08058.4898,W,1,9,1.6,15,M,,M,,*51
06/13/2015	10:06:28.560	$GPGGA,100629,2415.3483,N,08058.4888,W,1,9,1.6,15,M,,M,,*51
06/13/2015	10:06:29.544	$GPGGA,100630,2415.3474,N,08058.4881,W,1,9,1.6,16,M,,M,,*5B
06/13/2015	10:06:30.551	$GPGGA,100631,2415.3465,N,08058.4870,W,1,9,1.6,16,M,,M,,*54
06/13/2015	10:06:31.552	$GPGGA,100632,2415.3459,N,08058.4857,W,1,9,1.6,16,M,,M,,*5D
06/13/2015	10:06:32.552	$GPGGA,100633,2415.3452,N,08058.4847,W,1,9,1.6,16,M,,M,,*56
06/13/2015	10:06:33.531	$GPGGA,100634,2415.3441,N,08058.4841,W,1,9,1.6,16,M,,M,,*55
06/13/2015	10:06:34.544	$GPGGA,100635,2415.3431,N,08058.4832,W,1,9,1.6,16,M,,M,,*57
06/13/2015	10:06:35.571	$GPGGA,100636,2415.3425,N,08058.4818,W,1,9,1.6,16,M,,M,,*59
06/13/2015	10:06:36.532	$GPGGA,100637,2415.3418,N,08058.4806,W,1,9,1.6,16,M,,M,,*59
06/13/2015	10:06:37.562	$GPGGA,100638,2415.3409,N,08058.4799,W,1,9,1.6,16,M,,M,,*5F
06/13/2015	10:06:38.522	$GPGGA,100639,2415.3399,N,08058.4789,W,1,9,1.6,16,M,,M,,*51
06/13/2015	10:06:39.562	$GPGGA,100640,2415.3392,N,08058.4777,W,1,9,1.6,16,M,,M,,*55
06/13/2015	10:06:40.532	$GPGGA,100641,2415.3385,N,08058.4765,W,1,9,1.6,16,M,,M,,*51
06/13/2015	10:06:41.532	$GPGGA,100642,2415.3376,N,08058.4754,W,1,9,1.6,16,M,,M,,*5C
06/13/2015	10:06:42.531	$GPGGA,100643,2415.3369,N,08058.4746,W,1,9,1.6,16,M,,M,,*50
06/13/2015	10:06:43.542	$GPGGA,100644,2415.3362,N,08058.4738,W,1,9,1.6,16,M,,M,,*55
06/13/2015	10:06:44.521	$GPGGA,100645,2415.3353,N,08058.4726,W,1,9,1.6,16,M,,M,,*59
06/13/2015	10:06:45.521	$GPGGA,100646,2415.3346,N,08058.4714,W,1,9,1.6,16,M,,M,,*5F
06/13/2015	10:06:46.511	$GPGGA,100647,2415.3340,N,08058.4705,W,1,9,1.6,16,M,,M,,*58
06/13/2015	10:06:47.561	$GPGGA,100648,2415.3331,N,08058.4695,W,1,9,1.6,16,M,,M,,*59
06/13/2015	10:06:48.521	$GPGGA,100649,2415.3324,N,08058.4686,W,1,9,1.7,16,M,,M,,*5F
06/13/2015	10:06:49.511	$GPGGA,100650,2415.3315,N,08058.4676,W,1,9,1.6,16,M,,M,,*5B
06/13/2015	10:06:50.501	$GPGGA,100651,2415.3307,N,08058.4665,W,1,9,1.6,16,M,,M,,*5B
06/13/2015	10:06:51.531	$GPGGA,100652,2415.3301,N,08058.4655,W,1,9,1.6,16,M,,M,,*5D
06/13/2015	10:06:52.521	$GPGGA,100653,2415.3293,N,08058.4647,W,1,9,1.6,16,M,,M,,*55
06/13/2015	10:06:53.611	$GPGGA,100654,2415.3286,N,08058.4636,W,1,9,1.6,16,M,,M,,*50
06/13/2015	10:06:54.502	$GPGGA,100655,2415.3279,N,08058.4625,W,1,9,1.6,16,M,,M,,*53
06/13/2015	10:06:55.532	$GPGGA,100656,2415.3270,N,08058.4615,W,1,9,1.6,16,M,,M,,*5A
06/13/2015	10:06:56.512	$GPGGA,100657,2415.3262,N,08058.4605,W,1,9,1.6,16,M,,M,,*59
06/13/2015	10:06:57.512	$GPGGA,100658,2415.3257,N,08058.4595,W,1,9,1.6,16,M,,M,,*5A
06/13/2015	10:06:58.492	$GPGGA,100659,2415.3250,N,08058.4582,W,1,9,1.6,16,M,,M,,*5A
06/13/2015	10:06:59.522	$GPGGA,100700,2415.3241,N,08058.4571,W,1,9,1.6,16,M,,M,,*5B
06/13/2015	10:07:00.481	$GPGGA,100701,2415.3235,N,08058.4564,W,1,9,1.6,16,M,,M,,*5D
06/13/2015	10:07:01.581	$GPGGA,100702,2415.3228,N,08058.4557,W,1,9,1.6,16,M,,M,,*52
06/13/2015	10:07:02.611	$GPGGA,100703,2415.3221,N,08058.4546,W,1,9,1.6,16,M,,M,,*5A
06/13/2015	10:07:03.831	$GPGGA,100704,2415.3214,N,08058.4534,W,1,9,1.6,16,M,,M,,*5E
06/13/2015	10:07:04.561	$GPGGA,100705,2415.3206,N,08058.4525,W,1,9,1.6,16,M,,M,,*5C
06/13/2015	10:07:05.571	$GPGGA,100706,2415.3199,N,08058.4517,W,1,9,1.6,16,M,,M,,*5B
06/13/2015	10:07:06.471	$GPGGA,100707,2415.3193,N,08058.4509,W,1,9,1.6,16,M,,M,,*5F
06/13/2015	10:07:07.591	$GPGGA,100708,2415.3186,N,08058.4500,W,1,9,1.6,16,M,,M,,*5D
06/13/2015	10:07:08.561	$GPGGA,100709,2415.3179,N,08058.4488,W,1,9,1.6,17,M,,M,,*5C
06/13/2015	10:07:09.561	$GPGGA,100710,2415.3172,N,08058.4478,W,1,9,1.6,17,M,,M,,*50
06/13/2015	10:07:10.561	$GPGGA,100711,2415.3164,N,08058.4470,W,1,9,1.5,17,M,,M,,*5D
06/13/2015	10:07:11.581	$GPGGA,100712,2415.3158,N,08058.4462,W,1,9,1.5,17,M,,M,,*52
06/13/2015	10:07:12.546	$GPGGA,100713,2415.3152,N,08058.4452,W,1,9,1.5,17,M,,M,,*5A
06/13/2015	10:07:13.571	$GPGGA,100714,2415.3145,N,08058.4441,W,1,9,1.5,17,M,,M,,*59
06/13/2015	10:07:14.551	$GPGGA,100715,2415.3138,N,08058.4431,W,1,9,1.5,17,M,,M,,*55
06/13/2015	10:07:15.561	$GPGGA,100716,2415.3129,N,08058.4422,W,1,9,1.5,16,M,,M,,*55
06/13/2015	10:07:16.551	$GPGGA,100717,2415.3123,N,08058.4413,W,1,9,1.5,16,M,,M,,*5C
06/13/2015	10:07:17.530	$GPGGA,100718,2415.3116,N,08058.4402,W,1,9,1.5,16,M,,M,,*55
06/13/2015	10:07:18.533	$GPGGA,100719,2415.3106,N,08058.4392,W,1,9,1.7,16,M,,M,,*59
06/13/2015	10:07:19.570	$GPGGA,100720,2415.3099,N,08058.4384,W,1,9,1.5,16,M,,M,,*51
06/13/2015	10:07:20.541	$GPGGA,100721,2415.3094,N,08058.4375,W,1,9,1.5,16,M,,M,,*53
06/13/2015	10:07:21.550	$GPGGA,100722,2415.3085,N,08058.4365,W,1,9,1.5,16,M,,M,,*51
06/13/2015	10:07:22.541	$GPGGA,100723,2415.3077,N,08058.4356,W,1,9,1.5,16,M,,M,,*5D
06/13/2015	10:07:23.571	$GPGGA,100724,2415.3070,N,08058.4345,W,1,9,1.5,16,M,,M,,*5F
06/13/2015	10:07:24.543	$GPGGA,100725,2415.3063,N,08058.4335,W,1,9,1.5,16,M,,M,,*5B
06/13/2015	10:07:25.544	$GPGGA,100726,2415.3056,N,08058.4327,W,1,9,1.5,16,M,,M,,*5D
06/13/2015	10:07:26.521	$GPGGA,100727,2415.3048,N,08058.4319,W,1,9,1.6,16,M,,M,,*5D
06/13/2015	10:07:27.571	$GPGGA,100728,2415.3040,N,08058.4307,W,1,9,1.5,16,M,,M,,*56
06/13/2015	10:07:28.533	$GPGGA,100729,2415.3033,N,08058.4296,W,1,9,1.5,16,M,,M,,*5A
06/13/2015	10:07:29.511	$GPGGA,100730,2415.3026,N,08058.4289,W,1,9,1.5,16,M,,M,,*58
06/13/2015	10:07:30.521	$GPGGA,100731,2415.3017,N,08058.4282,W,1,9,1.5,16,M,,M,,*50
06/13/2015	10:07:31.521	$GPGGA,100732,2415.3009,N,08058.4271,W,1,9,1.5,16,M,,M,,*50
06/13/2015	10:07:32.511	$GPGGA,100733,2415.3001,N,08058.4260,W,1,9,1.8,16,M,,M,,*54
06/13/2015	10:07:33.511	$GPGGA,100734,2415.2992,N,08058.4252,W,1,9,1.5,16,M,,M,,*5D
06/13/2015	10:07:34.511	$GPGGA,100735,2415.2983,N,08058.4243,W,1,9,1.5,16,M,,M,,*5C
06/13/2015	10:07:35.510	$GPGGA,100736,2415.2975,N,08058.4233,W,1,8,1.6,16,M,,M,,*53
06/13/2015	10:07:36.500	$GPGGA,100737,2415.2966,N,08058.4224,W,1,8,1.5,16,M,,M,,*55
06/13/2015	10:07:37.500	$GPGGA,100738,2415.2958,N,08058.4215,W,1,9,1.5,16,M,,M,,*54
06/13/2015	10:07:38.500	$GPGGA,100739,2415.2950,N,08058.4203,W,1,9,1.5,16,M,,M,,*5A
06/13/2015	10:07:39.521	$GPGGA,100740,2415.2943,N,08058.4195,W,1,9,1.5,16,M,,M,,*5A
06/13/2015	10:07:40.511	$GPGGA,100741,2415.2934,N,08058.4185,W,1,9,1.5,16,M,,M,,*5A
06/13/2015	10:07:41.491	$GPGGA,100742,2415.2925,N,08058.4175,W,1,9,1.5,16,M,,M,,*56
06/13/2015	10:07:42.501	$GPGGA,100743,2415.2918,N,08058.4164,W,1,9,1.5,16,M,,M,,*59
06/13/2015	10:07:43.521	$GPGGA,100744,2415.2908,N,08058.4154,W,1,9,1.5,16,M,,M,,*5C
06/13/2015	10:07:44.481	$GPGGA,100745,2415.2899,N,08058.4144,W,1,9,1.5,16,M,,M,,*55
06/13/2015	10:07:45.581	$GPGGA,100746,2415.2892,N,08058.4134,W,1,8,1.6,16,M,,M,,*58
06/13/2015	10:07:46.491	$GPGGA,100747,2415.2883,N,08058.4123,W,1,8,1.6,16,M,,M,,*5F
06/13/2015	10:07:47.491	$GPGGA,100748,2415.2874,N,08058.4113,W,1,9,1.5,16,M,,M,,*59
06/13/2015	10:07:48.581	$GPGGA,100749,2415.2864,N,08058.4102,W,1,9,1.5,16,M,,M,,*59
06/13/2015	10:07:49.481	$GPGGA,100750,2415.2857,N,08058.4092,W,1,9,1.5,16,M,,M,,*59
06/13/2015	10:07:50.571	$GPGGA,100751,2415.2851,N,08058.4083,W,1,9,1.7,16,M,,M,,*5C
06/13/2015	10:07:51.661	$GPGGA,100752,2415.2841,N,08058.4072,W,1,9,1.5,16,M,,M,,*52
06/13/2015	10:07:52.490	$GPGGA,100753,2415.2833,N,08058.4060,W,1,9,1.5,16,M,,M,,*55
06/13/2015	10:07:53.470	$GPGGA,100754,2415.2827,N,08058.4051,W,1,9,1.5,16,M,,M,,*55
06/13/2015	10:07:54.562	$GPGGA,100755,2415.2817,N,08058.4042,W,1,9,1.5,16,M,,M,,*55
06/13/2015	10:07:55.650	$GPGGA,100756,2415.2809,N,08058.4031,W,1,9,1.5,16,M,,M,,*5D
06/13/2015	10:07:56.635	$GPGGA,100757,2415.2802,N,08058.4020,W,1,9,1.5,16,M,,M,,*57
06/13/2015	10:07:57.648	$GPGGA,100758,2415.2795,N,08058.4011,W,1,9,1.5,16,M,,M,,*5B
06/13/2015	10:07:58.561	$GPGGA,100759,2415.2786,N,08058.4001,W,1,9,1.5,16,M,,M,,*59
06/13/2015	10:07:59.651	$GPGGA,100800,2415.2778,N,08058.3989,W,1,9,1.5,16,M,,M,,*55
06/13/2015	10:08:00.634	$GPGGA,100801,2415.2773,N,08058.3978,W,1,9,1.5,16,M,,M,,*51
06/13/2015	10:08:01.581	$GPGGA,100802,2415.2763,N,08058.3968,W,1,8,1.7,16,M,,M,,*51
06/13/2015	10:08:02.621	$GPGGA,100803,2415.2755,N,08058.3959,W,1,8,1.5,16,M,,M,,*55
06/13/2015	10:08:03.644	$GPGGA,100804,2415.2749,N,08058.3948,W,1,9,1.7,16,M,,M,,*5C
06/13/2015	10:08:04.621	$GPGGA,100805,2415.2741,N,08058.3937,W,1,9,1.7,16,M,,M,,*5D
06/13/2015	10:08:05.591	$GPGGA,100806,2415.2731,N,08058.3928,W,1,9,1.5,16,M,,M,,*55
06/13/2015	10:08:06.544	$GPGGA,100807,2415.2722,N,08058.3919,W,1,9,1.5,16,M,,M,,*54
06/13/2015	10:08:07.634	$GPGGA,100808,2415.2716,N,08058.3909,W,1,9,1.5,16,M,,M,,*5D
06/13/2015	10:08:08.611	$GPGGA,100809,2415.2708,N,08058.3899,W,1,9,1.5,16,M,,M,,*5B
06/13/2015	10:08:09.581	$GPGGA,100810,2415.2699,N,08058.3888,W,1,9,1.5,16,M,,M,,*5A
06/13/2015	10:08:10.600	$GPGGA,100811,2415.2691,N,08058.3879,W,1,9,1.5,16,M,,M,,*5D
06/13/2015	10:08:11.632	$GPGGA,100812,2415.2682,N,08058.3869,W,1,9,1.5,16,M,,M,,*5D
06/13/2015	10:08:13.600	$GPGGA,100814,2415.2670,N,08058.3847,W,1,8,1.7,16,M,,M,,*59
06/13/2015	10:08:14.581	$GPGGA,100815,2415.2661,N,08058.3836,W,1,8,1.5,16,M,,M,,*5C
06/13/2015	10:08:15.621	$GPGGA,100816,2415.2652,N,08058.3828,W,1,9,1.5,16,M,,M,,*51
06/13/2015	10:08:16.582	$GPGGA,100817,2415.2645,N,08058.3817,W,1,9,1.5,16,M,,M,,*5A
06/13/2015	10:08:17.571	$GPGGA,100818,2415.2639,N,08058.3806,W,1,9,1.5,16,M,,M,,*5E
06/13/2015	10:08:18.581	$GPGGA,100819,2415.2632,N,08058.3795,W,1,9,1.5,16,M,,M,,*51
06/13/2015	10:08:19.601	$GPGGA,100820,2415.2622,N,08058.3784,W,1,9,1.5,16,M,,M,,*5A
06/13/2015	10:08:20.571	$GPGGA,100821,2415.2615,N,08058.3775,W,1,9,1.5,16,M,,M,,*51
06/13/2015	10:08:21.571	$GPGGA,100822,2415.2608,N,08058.3763,W,1,9,1.5,16,M,,M,,*59
06/13/2015	10:08:22.571	$GPGGA,100823,2415.2600,N,08058.3749,W,1,9,1.5,16,M,,M,,*58
06/13/2015	10:08:23.561	$GPGGA,100824,2415.2594,N,08058.3739,W,1,9,1.5,16,M,,M,,*56
06/13/2015	10:08:24.561	$GPGGA,100825,2415.2587,N,08058.3731,W,1,9,1.5,16,M,,M,,*5D
06/13/2015	10:08:25.501	$GPGGA,100826,2415.2578,N,08058.3720,W,1,9,1.5,16,M,,M,,*5E
06/13/2015	10:08:26.561	$GPGGA,100827,2415.2572,N,08058.3707,W,1,9,1.5,16,M,,M,,*50
06/13/2015	10:08:27.631	$GPGGA,100828,2415.2565,N,08058.3695,W,1,9,1.5,16,M,,M,,*53
06/13/2015	10:08:28.500	$GPGGA,100829,2415.2558,N,08058.3685,W,1,9,1.5,16,M,,M,,*5D
06/13/2015	10:08:29.530	$GPGGA,100830,2415.2551,N,08058.3674,W,1,9,1.5,16,M,,M,,*52
06/13/2015	10:08:30.490	$GPGGA,100831,2415.2545,N,08058.3663,W,1,9,1.5,16,M,,M,,*50
06/13/2015	10:08:31.560	$GPGGA,100832,2415.2536,N,08058.3651,W,1,9,1.5,16,M,,M,,*56
06/13/2015	10:08:32.491	$GPGGA,100833,2415.2529,N,08058.3641,W,1,9,1.5,16,M,,M,,*58
06/13/2015	10:08:33.532	$GPGGA,100834,2415.2524,N,08058.3631,W,1,9,1.5,16,M,,M,,*55
06/13/2015	10:08:34.541	$GPGGA,100835,2415.2517,N,08058.3618,W,1,9,1.5,16,M,,M,,*5F
06/13/2015	10:08:35.551	$GPGGA,100836,2415.2510,N,08058.3608,W,1,9,1.6,16,M,,M,,*59
06/13/2015	10:08:36.551	$GPGGA,100837,2415.2503,N,08058.3597,W,1,9,1.5,16,M,,M,,*5C
06/13/2015	10:08:37.582	$GPGGA,100838,2415.2495,N,08058.3588,W,1,9,1.5,16,M,,M,,*53
06/13/2015	10:08:38.541	$GPGGA,100839,2415.2488,N,08058.3578,W,1,9,1.5,16,M,,M,,*51
06/13/2015	10:08:39.551	$GPGGA,100840,2415.2481,N,08058.3566,W,1,9,1.5,16,M,,M,,*59
06/13/2015	10:08:40.536	$GPGGA,100841,2415.2474,N,08058.3557,W,1,9,1.5,16,M,,M,,*50
06/13/2015	10:08:41.591	$GPGGA,100842,2415.2466,N,08058.3549,W,1,9,1.5,16,M,,M,,*5F
06/13/2015	10:08:42.581	$GPGGA,100843,2415.2458,N,08058.3538,W,1,9,1.5,16,M,,M,,*55
06/13/2015	10:08:43.621	$GPGGA,100844,2415.2451,N,08058.3526,W,1,9,1.5,16,M,,M,,*54
06/13/2015	10:08:44.561	$GPGGA,100845,2415.2445,N,08058.3514,W,1,9,1.5,16,M,,M,,*51
06/13/2015	10:08:45.560	$GPGGA,100846,2415.2437,N,08058.3506,W,1,9,1.5,16,M,,M,,*54
06/13/2015	10:08:46.570	$GPGGA,100847,2415.2427,N,08058.3496,W,1,9,1.5,16,M,,M,,*5C
06/13/2015	10:08:47.570	$GPGGA,100848,2415.2423,N,08058.3483,W,1,9,1.7,16,M,,M,,*51
06/13/2015	10:08:48.560	$GPGGA,100849,2415.2416,N,08058.3471,W,1,9,1.7,16,M,,M,,*5B
06/13/2015	10:08:49.581	$GPGGA,100850,2415.2405,N,08058.3462,W,1,8,1.5,16,M,,M,,*50
06/13/2015	10:08:50.551	$GPGGA,100851,2415.2398,N,08058.3452,W,1,8,1.5,16,M,,M,,*51
06/13/2015	10:08:51.561	$GPGGA,100852,2415.2393,N,08058.3441,W,1,9,1.7,16,M,,M,,*58
06/13/2015	10:08:52.561	$GPGGA,100853,2415.2385,N,08058.3431,W,1,9,1.7,16,M,,M,,*59
06/13/2015	10:08:53.571	$GPGGA,100854,2415.2376,N,08058.3421,W,1,8,1.5,16,M,,M,,*50
06/13/2015	10:08:54.551	$GPGGA,100855,2415.2370,N,08058.3408,W,1,8,1.5,16,M,,M,,*5C
06/13/2015	10:08:55.601	$GPGGA,100856,2415.2366,N,08058.3397,W,1,9,1.7,16,M,,M,,*5A
06/13/2015	10:08:56.571	$GPGGA,100857,2415.2356,N,08058.3390,W,1,9,1.5,16,M,,M,,*5D
06/13/2015	10:08:57.551	$GPGGA,100858,2415.2347,N,08058.3382,W,1,9,1.5,16,M,,M,,*51
06/13/2015	10:08:58.545	$GPGGA,100859,2415.2341,N,08058.3370,W,1,9,1.5,16,M,,M,,*5B
06/13/2015	10:08:59.581	$GPGGA,100900,2415.2334,N,08058.3358,W,1,9,1.5,17,M,,M,,*5F
06/13/2015	10:09:00.545	$GPGGA,100901,2415.2325,N,08058.3352,W,1,9,1.5,17,M,,M,,*54
06/13/2015	10:09:01.551	$GPGGA,100902,2415.2318,N,08058.3341,W,1,9,1.5,17,M,,M,,*5B
06/13/2015	10:09:02.533	$GPGGA,100903,2415.2318,N,08058.3341,W,1,9,1.5,17,M,,M,,*5A
06/13/2015	10:09:03.570	$GPGGA,100904,2415.2304,N,08058.3320,W,1,9,1.5,17,M,,M,,*57
06/13/2015	10:09:04.580	$GPGGA,100905,2415.2296,N,08058.3312,W,1,9,1.6,17,M,,M,,*5E
06/13/2015	10:09:05.535	$GPGGA,100906,2415.2289,N,08058.3300,W,1,8,1.5,17,M,,M,,*52
06/13/2015	10:09:06.533	$GPGGA,100907,2415.2282,N,08058.3288,W,1,8,1.5,17,M,,M,,*59
06/13/2015	10:09:07.571	$GPGGA,100908,2415.2273,N,08058.3278,W,1,9,1.5,17,M,,M,,*56
06/13/2015	10:09:08.544	$GPGGA,100909,2415.2265,N,08058.3267,W,1,9,1.6,17,M,,M,,*5D
06/13/2015	10:09:09.546	$GPGGA,100910,2415.2257,N,08058.3258,W,1,8,1.6,17,M,,M,,*59
06/13/2015	10:09:10.521	$GPGGA,100911,2415.2257,N,08058.3258,W,1,8,1.6,17,M,,M,,*58
06/13/2015	10:09:11.561	$GPGGA,100912,2415.2239,N,08058.3240,W,1,9,1.5,17,M,,M,,*58
06/13/2015	10:09:12.548	$GPGGA,100913,2415.2232,N,08058.3227,W,1,9,1.5,17,M,,M,,*53
06/13/2015	10:09:13.521	$GPGGA,100914,2415.2227,N,08058.3221,W,1,9,1.5,17,M,,M,,*56
06/13/2015	10:09:14.535	$GPGGA,100915,2415.2220,N,08058.3217,W,1,9,1.5,17,M,,M,,*55
06/13/2015	10:09:15.552	$GPGGA,100916,2415.2213,N,08058.3207,W,1,9,1.5,17,M,,M,,*57
06/13/2015	10:09:16.539	$GPGGA,100917,2415.2206,N,08058.3195,W,1,9,1.5,17,M,,M,,*5A
06/13/2015	10:09:17.511	$GPGGA,100918,2415.2202,N,08058.3190,W,1,9,1.5,17,M,,M,,*54
06/13/2015	10:09:18.521	$GPGGA,100919,2415.2195,N,08058.3186,W,1,9,1.5,17,M,,M,,*5F
06/13/2015	10:09:19.551	$GPGGA,100920,2415.2191,N,08058.3176,W,1,8,1.5,17,M,,M,,*5F
06/13/2015	10:09:20.542	$GPGGA,100921,2415.2185,N,08058.3164,W,1,8,1.5,17,M,,M,,*58
06/13/2015	10:09:21.520	$GPGGA,100922,2415.2180,N,08058.3155,W,1,9,1.5,17,M,,M,,*5D
06/13/2015	10:09:22.545	$GPGGA,100923,2415.2173,N,08058.3150,W,1,9,1.5,17,M,,M,,*55
06/13/2015	10:09:23.520	$GPGGA,100924,2415.2167,N,08058.3143,W,1,9,1.5,17,M,,M,,*55
06/13/2015	10:09:24.501	$GPGGA,100925,2415.2167,N,08058.3143,W,1,9,1.5,17,M,,M,,*54
06/13/2015	10:09:25.491	$GPGGA,100926,2415.2155,N,08058.3123,W,1,9,1.5,17,M,,M,,*50
06/13/2015	10:09:26.581	$GPGGA,100927,2415.2148,N,08058.3115,W,1,9,1.5,17,M,,M,,*58
06/13/2015	10:09:27.611	$GPGGA,100928,2415.2141,N,08058.3107,W,1,9,1.5,17,M,,M,,*5D
06/13/2015	10:09:28.591	$GPGGA,100929,2415.2134,N,08058.3097,W,1,9,1.5,17,M,,M,,*56
06/13/2015	10:09:29.491	$GPGGA,100930,2415.2128,N,08058.3088,W,1,9,1.5,17,M,,M,,*5D
06/13/2015	10:09:30.481	$GPGGA,100931,2415.2128,N,08058.3088,W,1,9,1.6,17,M,,M,,*5F
06/13/2015	10:09:31.491	$GPGGA,100932,2415.2112,N,08058.3072,W,1,9,1.5,17,M,,M,,*53
06/13/2015	10:09:32.581	$GPGGA,100933,2415.2106,N,08058.3062,W,1,9,1.5,17,M,,M,,*56
06/13/2015	10:09:33.471	$GPGGA,100934,2415.2098,N,08058.3053,W,1,9,1.5,17,M,,M,,*55
06/13/2015	10:09:34.581	$GPGGA,100935,2415.2091,N,08058.3044,W,1,9,1.5,17,M,,M,,*5B
06/13/2015	10:09:35.481	$GPGGA,100936,2415.2083,N,08058.3035,W,1,8,1.6,17,M,,M,,*5F
06/13/2015	10:09:36.561	$GPGGA,100937,2415.2076,N,08058.3026,W,1,8,1.5,17,M,,M,,*55
06/13/2015	10:09:37.590	$GPGGA,100938,2415.2069,N,08058.3015,W,1,9,1.5,17,M,,M,,*55
06/13/2015	10:09:38.550	$GPGGA,100939,2415.2059,N,08058.3005,W,1,9,1.5,17,M,,M,,*56
06/13/2015	10:09:39.580	$GPGGA,100940,2415.2052,N,08058.2997,W,1,9,1.5,17,M,,M,,*50
06/13/2015	10:09:40.845	$GPGGA,100941,2415.2047,N,08058.2986,W,1,9,1.5,17,M,,M,,*55
06/13/2015	10:09:41.571	$GPGGA,100942,2415.2037,N,08058.2976,W,1,8,1.7,17,M,,M,,*5D
06/13/2015	10:09:42.551	$GPGGA,100943,2415.2029,N,08058.2966,W,1,8,1.5,17,M,,M,,*50
06/13/2015	10:09:43.581	$GPGGA,100944,2415.2021,N,08058.2956,W,1,9,1.5,17,M,,M,,*5D
06/13/2015	10:09:44.561	$GPGGA,100945,2415.2014,N,08058.2947,W,1,9,1.5,17,M,,M,,*5A
06/13/2015	10:09:45.546	$GPGGA,100946,2415.2007,N,08058.2939,W,1,9,1.5,17,M,,M,,*52
06/13/2015	10:09:46.551	$GPGGA,100947,2415.1998,N,08058.2928,W,1,9,1.5,17,M,,M,,*5F
06/13/2015	10:09:47.581	$GPGGA,100948,2415.1992,N,08058.2917,W,1,9,1.5,17,M,,M,,*56
06/13/2015	10:09:48.542	$GPGGA,100949,2415.1985,N,08058.2909,W,1,9,1.5,17,M,,M,,*5E
06/13/2015	10:09:49.571	$GPGGA,100950,2415.1975,N,08058.2899,W,1,8,1.6,17,M,,M,,*53
06/13/2015	10:09:50.534	$GPGGA,100951,2415.1968,N,08058.2890,W,1,8,1.5,17,M,,M,,*54
06/13/2015	10:09:51.571	$GPGGA,100952,2415.1962,N,08058.2879,W,1,9,1.5,17,M,,M,,*5B
06/13/2015	10:09:52.535	$GPGGA,100953,2415.1954,N,08058.2870,W,1,9,1.5,17,M,,M,,*56
06/13/2015	10:09:53.551	$GPGGA,100954,2415.1945,N,08058.2863,W,1,9,1.5,17,M,,M,,*53
06/13/2015	10:09:54.533	$GPGGA,100955,2415.1938,N,08058.2851,W,1,9,1.5,17,M,,M,,*59
06/13/2015	10:09:55.570	$GPGGA,100956,2415.1932,N,08058.2838,W,1,9,1.5,17,M,,M,,*5F
06/13/2015	10:09:56.520	$GPGGA,100957,2415.1925,N,08058.2833,W,1,9,1.5,17,M,,M,,*53
06/13/2015	10:09:57.533	$GPGGA,100958,2415.1915,N,08058.2827,W,1,9,1.5,17,M,,M,,*5A
06/13/2015	10:09:58.532	$GPGGA,100959,2415.1908,N,08058.2812,W,1,9,1.5,17,M,,M,,*51
06/13/2015	10:09:59.561	$GPGGA,101000,2415.1904,N,08058.2801,W,1,9,1.5,17,M,,M,,*5B
06/13/2015	10:10:00.521	$GPGGA,101001,2415.1897,N,08058.2794,W,1,9,1.5,17,M,,M,,*52
06/13/2015	10:10:01.551	$GPGGA,101002,2415.1888,N,08058.2784,W,1,9,1.5,17,M,,M,,*5E
06/13/2015	10:10:02.511	$GPGGA,101003,2415.1882,N,08058.2776,W,1,9,1.5,17,M,,M,,*58
06/13/2015	10:10:03.543	$GPGGA,101004,2415.1878,N,08058.2765,W,1,9,1.5,18,M,,M,,*57
06/13/2015	10:10:04.501	$GPGGA,101005,2415.1871,N,08058.2754,W,1,9,1.5,18,M,,M,,*5D
06/13/2015	10:10:05.521	$GPGGA,101006,2415.1863,N,08058.2744,W,1,9,1.5,18,M,,M,,*5C
06/13/2015	10:10:06.521	$GPGGA,101007,2415.1856,N,08058.2736,W,1,9,1.5,18,M,,M,,*5E
06/13/2015	10:10:07.621	$GPGGA,101008,2415.1852,N,08058.2726,W,1,9,1.5,18,M,,M,,*54
06/13/2015	10:10:08.521	$GPGGA,101009,2415.1843,N,08058.2715,W,1,9,1.5,18,M,,M,,*55
06/13/2015	10:10:09.521	$GPGGA,101010,2415.1837,N,08058.2706,W,1,9,1.5,18,M,,M,,*5C
06/13/2015	10:10:10.501	$GPGGA,101011,2415.1831,N,08058.2697,W,1,9,1.5,18,M,,M,,*52
06/13/2015	10:10:11.511	$GPGGA,101012,2415.1823,N,08058.2685,W,1,9,1.5,18,M,,M,,*51
06/13/2015	10:10:12.490	$GPGGA,101013,2415.1815,N,08058.2675,W,1,9,1.5,18,M,,M,,*5A
06/13/2015	10:10:13.510	$GPGGA,101014,2415.1810,N,08058.2666,W,1,9,1.5,18,M,,M,,*5A
06/13/2015	10:10:14.580	$GPGGA,101015,2415.1803,N,08058.2657,W,1,9,1.5,18,M,,M,,*5B
06/13/2015	10:10:15.600	$GPGGA,101016,2415.1795,N,08058.2647,W,1,9,1.5,18,M,,M,,*59
06/13/2015	10:10:16.581	$GPGGA,101017,2415.1790,N,08058.2635,W,1,9,1.5,18,M,,M,,*58
06/13/2015	10:10:17.621	$GPGGA,101018,2415.1783,N,08058.2628,W,1,9,1.5,18,M,,M,,*59
06/13/2015	10:10:18.571	$GPGGA,101019,2415.1776,N,08058.2621,W,1,9,1.5,18,M,,M,,*5B
06/13/2015	10:10:19.581	$GPGGA,101020,2415.1768,N,08058.2609,W,1,9,1.5,18,M,,M,,*54
06/13/2015	10:10:20.581	$GPGGA,101021,2415.1762,N,08058.2597,W,1,9,1.5,18,M,,M,,*5B
06/13/2015	10:10:21.481	$GPGGA,101022,2415.1755,N,08058.2588,W,1,9,1.5,18,M,,M,,*52
06/13/2015	10:10:22.581	$GPGGA,101023,2415.1748,N,08058.2581,W,1,9,1.5,18,M,,M,,*56
06/13/2015	10:10:23.581	$GPGGA,101024,2415.1741,N,08058.2572,W,1,9,1.5,18,M,,M,,*54
06/13/2015	10:10:24.571	$GPGGA,101025,2415.1733,N,08058.2562,W,1,9,1.5,18,M,,M,,*51
06/13/2015	10:10:25.571	$GPGGA,101026,2415.1726,N,08058.2551,W,1,9,1.5,18,M,,M,,*56
06/13/2015	10:10:26.561	$GPGGA,101027,2415.1720,N,08058.2543,W,1,9,1.5,18,M,,M,,*52
06/13/2015	10:10:27.601	$GPGGA,101028,2415.1712,N,08058.2534,W,1,9,1.5,18,M,,M,,*5C
06/13/2015	10:10:28.553	$GPGGA,101029,2415.1705,N,08058.2524,W,1,9,1.5,18,M,,M,,*5A
06/13/2015	10:10:29.571	$GPGGA,101030,2415.1698,N,08058.2515,W,1,9,1.5,17,M,,M,,*5A
06/13/2015	10:10:30.570	$GPGGA,101031,2415.1691,N,08058.2507,W,1,9,1.6,17,M,,M,,*52
06/13/2015	10:10:31.560	$GPGGA,101032,2415.1683,N,08058.2500,W,1,9,1.5,17,M,,M,,*56
06/13/2015	10:10:32.550	$GPGGA,101033,2415.1675,N,08058.2490,W,1,9,1.6,17,M,,M,,*55
06/13/2015	10:10:33.570	$GPGGA,101034,2415.1668,N,08058.2480,W,1,9,1.5,17,M,,M,,*5C
06/13/2015	10:10:34.561	$GPGGA,101035,2415.1661,N,08058.2474,W,1,9,1.5,17,M,,M,,*5F
06/13/2015	10:10:35.581	$GPGGA,101036,2415.1653,N,08058.2467,W,1,8,1.6,17,M,,M,,*5D
06/13/2015	10:10:36.549	$GPGGA,101037,2415.1646,N,08058.2456,W,1,8,1.5,17,M,,M,,*59
06/13/2015	10:10:37.543	$GPGGA,101038,2415.1640,N,08058.2446,W,1,8,1.6,17,M,,M,,*52
06/13/2015	10:10:38.555	$GPGGA,101039,2415.1630,N,08058.2440,W,1,8,1.5,17,M,,M,,*51
06/13/2015	10:10:39.571	$GPGGA,101040,2415.1621,N,08058.2433,W,1,9,1.5,17,M,,M,,*5A
06/13/2015	10:10:40.554	$GPGGA,101041,2415.1617,N,08058.2423,W,1,9,1.8,17,M,,M,,*52
06/13/2015	10:10:41.551	$GPGGA,101042,2415.1608,N,08058.2414,W,1,9,1.5,17,M,,M,,*56
06/13/2015	10:10:42.537	$GPGGA,101043,2415.1602,N,08058.2408,W,1,9,1.8,17,M,,M,,*5D
06/13/2015	10:10:43.571	$GPGGA,101044,2415.1593,N,08058.2399,W,1,8,1.6,17,M,,M,,*51
06/13/2015	10:10:44.521	$GPGGA,101045,2415.1588,N,08058.2390,W,1,8,1.9,17,M,,M,,*5C
06/13/2015	10:10:45.563	$GPGGA,101046,2415.1578,N,08058.2382,W,1,9,1.5,17,M,,M,,*5E
06/13/2015	10:10:46.521	$GPGGA,101047,2415.1572,N,08058.2376,W,1,9,1.9,17,M,,M,,*52
06/13/2015	10:10:47.552	$GPGGA,101048,2415.1563,N,08058.2368,W,1,7,1.6,17,M,,M,,*53
06/13/2015	10:10:48.520	$GPGGA,101049,2415.1555,N,08058.2360,W,1,7,1.9,17,M,,M,,*50
06/13/2015	10:10:49.520	$GPGGA,101050,2415.1545,N,08058.2349,W,1,9,1.5,17,M,,M,,*50
06/13/2015	10:10:50.510	$GPGGA,101051,2415.1537,N,08058.2340,W,1,9,1.5,17,M,,M,,*5D
06/13/2015	10:10:51.563	$GPGGA,101052,2415.1531,N,08058.2333,W,1,9,1.5,17,M,,M,,*5C
06/13/2015	10:10:52.521	$GPGGA,101053,2415.1523,N,08058.2325,W,1,9,1.5,17,M,,M,,*59
06/13/2015	10:10:53.511	$GPGGA,101054,2415.1513,N,08058.2317,W,1,9,1.5,17,M,,M,,*5C
06/13/2015	10:10:54.521	$GPGGA,101055,2415.1505,N,08058.2309,W,1,9,1.5,17,M,,M,,*55
06/13/2015	10:10:55.532	$GPGGA,101056,2415.1498,N,08058.2298,W,1,9,1.5,18,M,,M,,*55
06/13/2015	10:10:56.511	$GPGGA,101057,2415.1491,N,08058.2289,W,1,9,1.5,18,M,,M,,*5D
06/13/2015	10:10:57.511	$GPGGA,101058,2415.1483,N,08058.2282,W,1,9,1.5,18,M,,M,,*5A
06/13/2015	10:10:58.611	$GPGGA,101059,2415.1474,N,08058.2274,W,1,9,1.5,18,M,,M,,*5A
06/13/2015	10:10:59.631	$GPGGA,101100,2415.1467,N,08058.2264,W,1,9,1.5,18,M,,M,,*54
06/13/2015	10:11:00.501	$GPGGA,101101,2415.1460,N,08058.2254,W,1,9,1.5,18,M,,M,,*51
06/13/2015	10:11:01.601	$GPGGA,101102,2415.1452,N,08058.2245,W,1,9,1.5,18,M,,M,,*53
06/13/2015	10:11:02.501	$GPGGA,101103,2415.1444,N,08058.2236,W,1,9,1.5,18,M,,M,,*51
06/13/2015	10:11:03.521	$GPGGA,101104,2415.1436,N,08058.2225,W,1,9,1.5,18,M,,M,,*51
06/13/2015	10:11:04.491	$GPGGA,101105,2415.1429,N,08058.2215,W,1,9,1.5,18,M,,M,,*5D
06/13/2015	10:11:05.480	$GPGGA,101106,2415.1422,N,08058.2205,W,1,9,1.5,18,M,,M,,*54
06/13/2015	10:11:06.580	$GPGGA,101107,2415.1413,N,08058.2195,W,1,9,1.5,18,M,,M,,*5D
06/13/2015	10:11:07.581	$GPGGA,101108,2415.1404,N,08058.2185,W,1,9,1.5,18,M,,M,,*55
06/13/2015	10:11:08.500	$GPGGA,101109,2415.1397,N,08058.2176,W,1,9,1.5,18,M,,M,,*55
06/13/2015	10:11:09.481	$GPGGA,101110,2415.1390,N,08058.2164,W,1,9,1.5,18,M,,M,,*59
06/13/2015	10:11:10.571	$GPGGA,101111,2415.1382,N,08058.2152,W,1,9,1.5,18,M,,M,,*5E
06/13/2015	10:11:11.491	$GPGGA,101112,2415.1375,N,08058.2141,W,1,9,1.5,18,M,,M,,*57
06/13/2015	10:11:12.481	$GPGGA,101113,2415.1365,N,08058.2133,W,1,9,1.5,18,M,,M,,*52
06/13/2015	10:11:13.561	$GPGGA,101114,2415.1358,N,08058.2126,W,1,8,1.8,18,M,,M,,*53
06/13/2015	10:11:14.571	$GPGGA,101115,2415.1351,N,08058.2114,W,1,8,1.5,18,M,,M,,*57
06/13/2015	10:11:15.591	$GPGGA,101116,2415.1346,N,08058.2101,W,1,9,1.5,18,M,,M,,*57
06/13/2015	10:11:16.551	$GPGGA,101117,2415.1339,N,08058.2095,W,1,9,1.5,18,M,,M,,*52
06/13/2015	10:11:17.601	$GPGGA,101118,2415.1331,N,08058.2088,W,1,9,1.5,18,M,,M,,*59
06/13/2015	10:11:18.552	$GPGGA,101119,2415.1324,N,08058.2079,W,1,9,1.5,18,M,,M,,*52
06/13/2015	10:11:19.591	$GPGGA,101120,2415.1317,N,08058.2069,W,1,9,1.5,18,M,,M,,*59
06/13/2015	10:11:20.571	$GPGGA,101121,2415.1310,N,08058.2060,W,1,9,1.5,18,M,,M,,*56
06/13/2015	10:11:21.571	$GPGGA,101122,2415.1304,N,08058.2051,W,1,9,1.5,18,M,,M,,*52
06/13/2015	10:11:22.560	$GPGGA,101123,2415.1296,N,08058.2042,W,1,9,1.5,18,M,,M,,*5B
06/13/2015	10:11:23.580	$GPGGA,101124,2415.1288,N,08058.2034,W,1,9,1.5,18,M,,M,,*52
06/13/2015	10:11:24.560	$GPGGA,101125,2415.1281,N,08058.2024,W,1,9,1.5,18,M,,M,,*5B
06/13/2015	10:11:25.560	$GPGGA,101126,2415.1274,N,08058.2013,W,1,9,1.5,18,M,,M,,*56
06/13/2015	10:11:26.547	$GPGGA,101127,2415.1267,N,08058.2004,W,1,9,1.5,18,M,,M,,*53
06/13/2015	10:11:27.551	$GPGGA,101128,2415.1259,N,08058.1995,W,1,9,1.5,18,M,,M,,*53
06/13/2015	10:11:28.551	$GPGGA,101129,2415.1252,N,08058.1984,W,1,9,1.5,18,M,,M,,*59
06/13/2015	10:11:29.551	$GPGGA,101130,2415.1245,N,08058.1973,W,1,9,1.5,18,M,,M,,*5F
06/13/2015	10:11:30.550	$GPGGA,101131,2415.1238,N,08058.1962,W,1,9,1.5,18,M,,M,,*54
06/13/2015	10:11:31.571	$GPGGA,101132,2415.1230,N,08058.1952,W,1,9,1.5,17,M,,M,,*53
06/13/2015	10:11:32.547	$GPGGA,101133,2415.1221,N,08058.1943,W,1,9,1.5,17,M,,M,,*52
06/13/2015	10:11:33.521	$GPGGA,101134,2415.1214,N,08058.1932,W,1,9,1.5,17,M,,M,,*55
06/13/2015	10:11:34.532	$GPGGA,101135,2415.1208,N,08058.1922,W,1,9,1.5,17,M,,M,,*58
06/13/2015	10:11:35.551	$GPGGA,101136,2415.1199,N,08058.1913,W,1,9,1.5,17,M,,M,,*52
06/13/2015	10:11:36.535	$GPGGA,101137,2415.1191,N,08058.1901,W,1,9,1.5,17,M,,M,,*58
06/13/2015	10:11:37.547	$GPGGA,101138,2415.1185,N,08058.1890,W,1,9,1.5,17,M,,M,,*5B
06/13/2015	10:11:38.531	$GPGGA,101139,2415.1176,N,08058.1880,W,1,9,1.5,17,M,,M,,*57
06/13/2015	10:11:39.535	$GPGGA,101140,2415.1169,N,08058.1873,W,1,9,1.5,17,M,,M,,*5B
06/13/2015	10:11:40.520	$GPGGA,101141,2415.1162,N,08058.1864,W,1,9,1.5,17,M,,M,,*57
06/13/2015	10:11:41.510	$GPGGA,101142,2415.1154,N,08058.1852,W,1,9,1.5,17,M,,M,,*54
06/13/2015	10:11:42.520	$GPGGA,101143,2415.1147,N,08058.1841,W,1,9,1.5,17,M,,M,,*55
06/13/2015	10:11:43.650	$GPGGA,101144,2415.1140,N,08058.1834,W,1,9,1.5,17,M,,M,,*57
06/13/2015	10:11:44.621	$GPGGA,101145,2415.1131,N,08058.1826,W,1,9,1.5,17,M,,M,,*53
06/13/2015	10:11:45.549	$GPGGA,101146,2415.1123,N,08058.1817,W,1,9,1.5,17,M,,M,,*51
06/13/2015	10:11:46.501	$GPGGA,101147,2415.1115,N,08058.1809,W,1,9,1.5,17,M,,M,,*5A
06/13/2015	10:11:47.532	$GPGGA,101148,2415.1106,N,08058.1799,W,1,8,1.6,17,M,,M,,*53
06/13/2015	10:11:48.491	$GPGGA,101149,2415.1101,N,08058.1789,W,1,8,1.5,17,M,,M,,*57
06/13/2015	10:11:49.491	$GPGGA,101150,2415.1093,N,08058.1784,W,1,9,1.5,17,M,,M,,*59
06/13/2015	10:11:50.501	$GPGGA,101151,2415.1084,N,08058.1778,W,1,9,1.5,16,M,,M,,*5C
06/13/2015	10:11:51.511	$GPGGA,101152,2415.1077,N,08058.1770,W,1,9,1.5,16,M,,M,,*5B
06/13/2015	10:11:52.511	$GPGGA,101153,2415.1070,N,08058.1760,W,1,9,1.5,16,M,,M,,*5C
06/13/2015	10:11:53.491	$GPGGA,101154,2415.1062,N,08058.1753,W,1,9,1.5,16,M,,M,,*58
06/13/2015	10:11:54.581	$GPGGA,101155,2415.1054,N,08058.1747,W,1,9,1.6,16,M,,M,,*5A
06/13/2015	10:11:55.491	$GPGGA,101156,2415.1046,N,08058.1736,W,1,9,1.5,16,M,,M,,*5F
