Software Version Number: 1	Data File Format Number: 1	Build Version Number: 1	Error Count Since VI Started: 1	Manufacturer: Raytheon	 Model Number: RayMarine 120	 S/N: 	 Cal Date: 	 Wind Direction Offset: 0.00	 Slope (M)1: 0.00	 Offset (B)1: 0.00	 Slope (M)2: 0.00	 Offset (B)2: 0.00	 Slope (M)3: 0.00	 Offset (B)3: 0.00	 Slope (M)4: 0.00	 Offset (B)4: 0.00	 Slope (M)5: 0.00	 Offset (B)5: 0.00	 Slope (M)6: 0.00	 Offset (B)6: 0.00
Computer Date	Computer Time	GGA String
06/15/2015	20:00:00.545	$GPGGA,200001,2424.3994,N,08054.1166,W,1,11,1.3,24,M,,M,,*69
06/15/2015	20:00:01.566	$GPGGA,200002,2424.4001,N,08054.1149,W,1,11,1.3,24,M,,M,,*65
06/15/2015	20:00:02.546	$GPGGA,200003,2424.4005,N,08054.1132,W,1,11,1.3,24,M,,M,,*6C
06/15/2015	20:00:03.586	$GPGGA,200004,2424.4008,N,08054.1116,W,1,11,1.3,24,M,,M,,*60
06/15/2015	20:00:04.546	$GPGGA,200005,2424.4012,N,08054.1098,W,1,11,1.3,24,M,,M,,*6D
06/15/2015	20:00:05.646	$GPGGA,200006,2424.4016,N,08054.1081,W,1,11,1.3,24,M,,M,,*62
06/15/2015	20:00:06.526	$GPGGA,200007,2424.4021,N,08054.1063,W,1,11,1.3,24,M,,M,,*6B
06/15/2015	20:00:07.576	$GPGGA,200008,2424.4023,N,08054.1045,W,1,11,1.3,24,M,,M,,*62
06/15/2015	20:00:08.526	$GPGGA,200009,2424.4026,N,08054.1027,W,1,11,1.4,24,M,,M,,*65
06/15/2015	20:00:09.546	$GPGGA,200010,2424.4027,N,08054.1008,W,1,11,1.3,24,M,,M,,*66
06/15/2015	20:00:10.526	$GPGGA,200011,2424.4032,N,08054.0991,W,1,11,1.3,24,M,,M,,*6B
06/15/2015	20:00:11.626	$GPGGA,200012,2424.4034,N,08054.0972,W,1,11,1.3,24,M,,M,,*63
06/15/2015	20:00:12.526	$GPGGA,200013,2424.4034,N,08054.0953,W,1,11,1.3,24,M,,M,,*61
06/15/2015	20:00:13.619	$GPGGA,200014,2424.4037,N,08054.0934,W,1,11,1.3,24,M,,M,,*64
06/15/2015	20:00:14.616	$GPGGA,200015,2424.4040,N,08054.0916,W,1,11,1.3,24,M,,M,,*65
06/15/2015	20:00:15.636	$GPGGA,200016,2424.4039,N,08054.0899,W,1,10,1.3,24,M,,M,,*6F
06/15/2015	20:00:16.518	$GPGGA,200017,2424.4040,N,08054.0879,W,1,10,1.3,24,M,,M,,*6E
06/15/2015	20:00:17.635	$GPGGA,200018,2424.4043,N,08054.0860,W,1,11,1.3,24,M,,M,,*6B
06/15/2015	20:00:18.605	$GPGGA,200019,2424.4042,N,08054.0843,W,1,11,1.3,24,M,,M,,*6A
06/15/2015	20:00:19.606	$GPGGA,200020,2424.4041,N,08054.0824,W,1,11,1.3,24,M,,M,,*62
06/15/2015	20:00:20.507	$GPGGA,200021,2424.4044,N,08054.0804,W,1,11,1.3,24,M,,M,,*64
06/15/2015	20:00:21.617	$GPGGA,200022,2424.4044,N,08054.0784,W,1,10,1.3,24,M,,M,,*61
06/15/2015	20:00:22.586	$GPGGA,200023,2424.4042,N,08054.0766,W,1,10,1.3,24,M,,M,,*6A
06/15/2015	20:00:23.606	$GPGGA,200024,2424.4043,N,08054.0747,W,1,11,1.3,24,M,,M,,*6E
06/15/2015	20:00:24.596	$GPGGA,200025,2424.4044,N,08054.0725,W,1,11,1.3,24,M,,M,,*6C
06/15/2015	20:00:25.586	$GPGGA,200026,2424.4042,N,08054.0705,W,1,11,1.3,23,M,,M,,*6C
06/15/2015	20:00:26.577	$GPGGA,200027,2424.4041,N,08054.0685,W,1,11,1.3,23,M,,M,,*67
06/15/2015	20:00:27.609	$GPGGA,200028,2424.4041,N,08054.0664,W,1,9,1.4,23,M,,M,,*59
06/15/2015	20:00:28.576	$GPGGA,200029,2424.4043,N,08054.0641,W,1,9,1.3,23,M,,M,,*5A
06/15/2015	20:00:29.606	$GPGGA,200030,2424.4041,N,08054.0622,W,1,11,1.3,23,M,,M,,*6C
06/15/2015	20:00:30.576	$GPGGA,200031,2424.4039,N,08054.0600,W,1,11,1.3,23,M,,M,,*62
06/15/2015	20:00:31.608	$GPGGA,200032,2424.4041,N,08054.0575,W,1,11,1.3,23,M,,M,,*6F
06/15/2015	20:00:32.566	$GPGGA,200033,2424.4041,N,08054.0554,W,1,11,1.3,23,M,,M,,*6D
06/15/2015	20:00:33.596	$GPGGA,200034,2424.4038,N,08054.0533,W,1,11,1.3,23,M,,M,,*65
06/15/2015	20:00:34.566	$GPGGA,200035,2424.4037,N,08054.0509,W,1,11,1.3,23,M,,M,,*62
06/15/2015	20:00:35.595	$GPGGA,200036,2424.4037,N,08054.0487,W,1,11,1.3,23,M,,M,,*66
06/15/2015	20:00:36.576	$GPGGA,200037,2424.4035,N,08054.0465,W,1,11,1.3,23,M,,M,,*69
06/15/2015	20:00:37.557	$GPGGA,200038,2424.4034,N,08054.0442,W,1,11,1.3,23,M,,M,,*62
06/15/2015	20:00:38.556	$GPGGA,200039,2424.4034,N,08054.0418,W,1,11,1.3,23,M,,M,,*6C
06/15/2015	20:00:40.619	$GPGGA,200041,2424.4030,N,08054.0371,W,1,11,1.3,23,M,,M,,*6F
06/15/2015	20:00:41.556	$GPGGA,200042,2424.4028,N,08054.0348,W,1,11,1.3,23,M,,M,,*6F
06/15/2015	20:00:42.556	$GPGGA,200043,2424.4027,N,08054.0324,W,1,11,1.3,23,M,,M,,*6B
06/15/2015	20:00:43.586	$GPGGA,200044,2424.4025,N,08054.0299,W,1,11,1.3,23,M,,M,,*69
06/15/2015	20:00:44.556	$GPGGA,200045,2424.4021,N,08054.0277,W,1,11,1.3,23,M,,M,,*6C
06/15/2015	20:00:46.576	$GPGGA,200047,2424.4021,N,08054.0228,W,1,11,1.4,23,M,,M,,*63
06/15/2015	20:00:47.556	$GPGGA,200048,2424.4017,N,08054.0207,W,1,11,1.3,23,M,,M,,*63
06/15/2015	20:00:48.546	$GPGGA,200049,2424.4013,N,08054.0184,W,1,11,1.3,23,M,,M,,*6E
06/15/2015	20:00:49.536	$GPGGA,200050,2424.4012,N,08054.0159,W,1,11,1.3,23,M,,M,,*67
06/15/2015	20:00:50.646	$GPGGA,200051,2424.4009,N,08054.0134,W,1,11,1.3,23,M,,M,,*67
06/15/2015	20:00:51.576	$GPGGA,200052,2424.4005,N,08054.0111,W,1,11,1.3,23,M,,M,,*6F
06/15/2015	20:00:52.545	$GPGGA,200053,2424.4001,N,08054.0089,W,1,11,1.3,23,M,,M,,*6A
06/15/2015	20:00:53.625	$GPGGA,200054,2424.3997,N,08054.0062,W,1,10,1.3,23,M,,M,,*68
06/15/2015	20:00:54.646	$GPGGA,200055,2424.3992,N,08054.0039,W,1,10,1.3,23,M,,M,,*62
06/15/2015	20:00:55.526	$GPGGA,200056,2424.3985,N,08054.0017,W,1,10,1.4,23,M,,M,,*6C
06/15/2015	20:00:56.616	$GPGGA,200057,2424.3980,N,08053.9994,W,1,10,1.3,23,M,,M,,*63
06/15/2015	20:00:57.518	$GPGGA,200058,2424.3974,N,08053.9969,W,1,11,1.3,23,M,,M,,*64
06/15/2015	20:00:58.526	$GPGGA,200059,2424.3969,N,08053.9947,W,1,11,1.5,23,M,,M,,*63
06/15/2015	20:00:59.626	$GPGGA,200100,2424.3960,N,08053.9926,W,1,10,1.5,23,M,,M,,*61
06/15/2015	20:01:00.510	$GPGGA,200101,2424.3954,N,08053.9902,W,1,10,1.3,23,M,,M,,*67
06/15/2015	20:01:01.527	$GPGGA,200102,2424.3951,N,08053.9879,W,1,10,1.5,23,M,,M,,*6A
06/15/2015	20:01:02.510	$GPGGA,200103,2424.3944,N,08053.9855,W,1,10,1.8,23,M,,M,,*6C
06/15/2015	20:01:03.636	$GPGGA,200104,2424.3937,N,08053.9834,W,1,9,1.8,23,M,,M,,*50
06/15/2015	20:01:04.513	$GPGGA,200105,2424.3933,N,08053.9811,W,1,9,1.5,23,M,,M,,*5F
06/15/2015	20:01:05.586	$GPGGA,200106,2424.3929,N,08053.9784,W,1,10,1.5,23,M,,M,,*6C
06/15/2015	20:01:07.006	$GPGGA,200107,2424.3923,N,08053.9762,W,1,10,1.3,23,M,,M,,*69
06/15/2015	20:01:07.616	$GPGGA,200108,2424.3914,N,08053.9741,W,1,10,1.5,23,M,,M,,*65
06/15/2015	20:01:08.586	$GPGGA,200109,2424.3911,N,08053.9716,W,1,10,1.6,23,M,,M,,*60
06/15/2015	20:01:09.596	$GPGGA,200110,2424.3906,N,08053.9691,W,1,11,1.3,23,M,,M,,*64
06/15/2015	20:01:10.575	$GPGGA,200111,2424.3898,N,08053.9670,W,1,11,1.3,23,M,,M,,*6C
06/15/2015	20:01:11.605	$GPGGA,200112,2424.3893,N,08053.9648,W,1,10,1.3,23,M,,M,,*6E
06/15/2015	20:01:12.575	$GPGGA,200113,2424.3886,N,08053.9622,W,1,10,1.3,23,M,,M,,*67
06/15/2015	20:01:13.602	$GPGGA,200114,2424.3880,N,08053.9601,W,1,11,1.3,23,M,,M,,*66
06/15/2015	20:01:14.565	$GPGGA,200115,2424.3871,N,08053.9578,W,1,11,1.3,23,M,,M,,*64
06/15/2015	20:01:15.625	$GPGGA,200116,2424.3864,N,08053.9554,W,1,11,1.3,23,M,,M,,*6D
06/15/2015	20:01:16.575	$GPGGA,200117,2424.3858,N,08053.9533,W,1,11,1.3,23,M,,M,,*62
06/15/2015	20:01:17.575	$GPGGA,200118,2424.3850,N,08053.9510,W,1,11,1.3,23,M,,M,,*64
06/15/2015	20:01:18.565	$GPGGA,200119,2424.3842,N,08053.9488,W,1,11,1.3,23,M,,M,,*66
06/15/2015	20:01:19.575	$GPGGA,200120,2424.3836,N,08053.9465,W,1,11,1.3,23,M,,M,,*6C
06/15/2015	20:01:20.555	$GPGGA,200121,2424.3829,N,08053.9445,W,1,11,1.3,23,M,,M,,*61
06/15/2015	20:01:21.545	$GPGGA,200122,2424.3819,N,08053.9423,W,1,11,1.3,23,M,,M,,*61
06/15/2015	20:01:22.566	$GPGGA,200123,2424.3812,N,08053.9398,W,1,11,1.8,23,M,,M,,*67
06/15/2015	20:01:23.911	$GPGGA,200124,2424.3806,N,08053.9377,W,1,11,1.3,23,M,,M,,*6F
06/15/2015	20:01:24.556	$GPGGA,200125,2424.3796,N,08053.9355,W,1,11,1.3,23,M,,M,,*68
06/15/2015	20:01:25.576	$GPGGA,200126,2424.3788,N,08053.9332,W,1,11,1.3,23,M,,M,,*65
06/15/2015	20:01:26.556	$GPGGA,200127,2424.3781,N,08053.9315,W,1,11,1.8,23,M,,M,,*63
06/15/2015	20:01:27.555	$GPGGA,200128,2424.3773,N,08053.9293,W,1,11,1.3,23,M,,M,,*65
06/15/2015	20:01:28.545	$GPGGA,200129,2424.3766,N,08053.9270,W,1,11,1.3,23,M,,M,,*6D
06/15/2015	20:01:29.545	$GPGGA,200130,2424.3759,N,08053.9249,W,1,10,1.5,23,M,,M,,*64
06/15/2015	20:01:30.545	$GPGGA,200131,2424.3749,N,08053.9226,W,1,10,1.5,23,M,,M,,*6D
06/15/2015	20:01:31.585	$GPGGA,200132,2424.3743,N,08053.9203,W,1,11,1.3,23,M,,M,,*64
06/15/2015	20:01:32.545	$GPGGA,200133,2424.3735,N,08053.9181,W,1,11,1.3,23,M,,M,,*6D
06/15/2015	20:01:33.525	$GPGGA,200134,2424.3727,N,08053.9158,W,1,11,1.3,23,M,,M,,*6D
06/15/2015	20:01:34.545	$GPGGA,200135,2424.3720,N,08053.9137,W,1,11,1.5,23,M,,M,,*64
06/15/2015	20:01:35.575	$GPGGA,200136,2424.3713,N,08053.9114,W,1,11,1.3,23,M,,M,,*60
06/15/2015	20:01:36.535	$GPGGA,200137,2424.3706,N,08053.9091,W,1,11,1.3,24,M,,M,,*6E
06/15/2015	20:01:37.555	$GPGGA,200138,2424.3699,N,08053.9067,W,1,10,1.5,24,M,,M,,*68
06/15/2015	20:01:38.515	$GPGGA,200139,2424.3692,N,08053.9044,W,1,10,1.5,24,M,,M,,*63
06/15/2015	20:01:39.546	$GPGGA,200140,2424.3685,N,08053.9021,W,1,10,1.5,24,M,,M,,*68
06/15/2015	20:01:40.617	$GPGGA,200141,2424.3677,N,08053.8996,W,1,10,1.3,24,M,,M,,*66
06/15/2015	20:01:41.636	$GPGGA,200142,2424.3669,N,08053.8973,W,1,11,1.3,24,M,,M,,*60
06/15/2015	20:01:42.526	$GPGGA,200143,2424.3662,N,08053.8951,W,1,11,1.3,24,M,,M,,*6A
06/15/2015	20:01:44.118	$GPGGA,200144,2424.3653,N,08053.8928,W,1,11,1.3,24,M,,M,,*61
06/15/2015	20:01:44.516	$GPGGA,200145,2424.3647,N,08053.8905,W,1,11,1.3,24,M,,M,,*6A
06/15/2015	20:01:45.619	$GPGGA,200146,2424.3640,N,08053.8883,W,1,11,1.3,24,M,,M,,*61
06/15/2015	20:01:46.515	$GPGGA,200147,2424.3629,N,08053.8860,W,1,11,1.3,24,M,,M,,*62
06/15/2015	20:01:47.625	$GPGGA,200148,2424.3622,N,08053.8838,W,1,11,1.3,24,M,,M,,*6B
06/15/2015	20:01:48.515	$GPGGA,200149,2424.3615,N,08053.8816,W,1,11,1.3,24,M,,M,,*62
06/15/2015	20:01:49.602	$GPGGA,200150,2424.3606,N,08053.8792,W,1,10,1.3,24,M,,M,,*6A
06/15/2015	20:01:50.596	$GPGGA,200151,2424.3597,N,08053.8769,W,1,10,1.3,24,M,,M,,*64
06/15/2015	20:01:51.925	$GPGGA,200152,2424.3590,N,08053.8748,W,1,11,1.3,24,M,,M,,*62
06/15/2015	20:01:52.585	$GPGGA,200153,2424.3582,N,08053.8726,W,1,11,1.3,24,M,,M,,*68
06/15/2015	20:01:53.603	$GPGGA,200154,2424.3572,N,08053.8702,W,1,11,1.3,24,M,,M,,*66
06/15/2015	20:01:54.595	$GPGGA,200155,2424.3564,N,08053.8682,W,1,11,1.3,24,M,,M,,*69
06/15/2015	20:01:55.645	$GPGGA,200156,2424.3554,N,08053.8660,W,1,11,1.3,23,M,,M,,*62
06/15/2015	20:01:56.586	$GPGGA,200157,2424.3546,N,08053.8636,W,1,11,1.3,23,M,,M,,*63
06/15/2015	20:01:57.608	$GPGGA,200158,2424.3539,N,08053.8615,W,1,11,1.3,23,M,,M,,*65
06/15/2015	20:01:58.576	$GPGGA,200159,2424.3530,N,08053.8593,W,1,11,1.3,23,M,,M,,*60
06/15/2015	20:01:59.626	$GPGGA,200200,2424.3521,N,08053.8571,W,1,11,1.3,23,M,,M,,*63
06/15/2015	20:02:00.576	$GPGGA,200201,2424.3512,N,08053.8550,W,1,11,1.3,23,M,,M,,*61
06/15/2015	20:02:01.596	$GPGGA,200202,2424.3503,N,08053.8529,W,1,11,1.4,23,M,,M,,*6B
06/15/2015	20:02:02.565	$GPGGA,200203,2424.3494,N,08053.8507,W,1,11,1.4,23,M,,M,,*69
06/15/2015	20:02:03.625	$GPGGA,200204,2424.3488,N,08053.8486,W,1,10,1.3,23,M,,M,,*6D
06/15/2015	20:02:04.565	$GPGGA,200205,2424.3478,N,08053.8466,W,1,10,1.4,23,M,,M,,*6A
06/15/2015	20:02:05.575	$GPGGA,200206,2424.3467,N,08053.8445,W,1,10,1.4,23,M,,M,,*66
06/15/2015	20:02:06.565	$GPGGA,200207,2424.3459,N,08053.8424,W,1,10,1.3,23,M,,M,,*6A
06/15/2015	20:02:07.600	$GPGGA,200208,2424.3452,N,08053.8401,W,1,11,1.3,23,M,,M,,*68
06/15/2015	20:02:08.555	$GPGGA,200209,2424.3442,N,08053.8379,W,1,11,1.4,23,M,,M,,*67
06/15/2015	20:02:09.545	$GPGGA,200210,2424.3431,N,08053.8360,W,1,10,1.4,23,M,,M,,*62
06/15/2015	20:02:10.545	$GPGGA,200211,2424.3420,N,08053.8337,W,1,10,1.3,23,M,,M,,*66
06/15/2015	20:02:11.585	$GPGGA,200212,2424.3412,N,08053.8315,W,1,11,1.3,23,M,,M,,*65
06/15/2015	20:02:12.555	$GPGGA,200213,2424.3403,N,08053.8295,W,1,11,1.4,23,M,,M,,*6A
06/15/2015	20:02:13.575	$GPGGA,200214,2424.3393,N,08053.8275,W,1,10,1.3,23,M,,M,,*6B
06/15/2015	20:02:14.556	$GPGGA,200215,2424.3387,N,08053.8255,W,1,10,1.3,23,M,,M,,*6D
06/15/2015	20:02:16.026	$GPGGA,200216,2424.3378,N,08053.8235,W,1,11,1.4,23,M,,M,,*6E
06/15/2015	20:02:16.546	$GPGGA,200217,2424.3366,N,08053.8214,W,1,11,1.4,23,M,,M,,*63
06/15/2015	20:02:17.546	$GPGGA,200218,2424.3358,N,08053.8192,W,1,10,1.3,23,M,,M,,*6A
06/15/2015	20:02:18.526	$GPGGA,200219,2424.3349,N,08053.8172,W,1,10,1.4,23,M,,M,,*62
06/15/2015	20:02:19.556	$GPGGA,200220,2424.3338,N,08053.8151,W,1,10,1.4,23,M,,M,,*6F
06/15/2015	20:02:20.535	$GPGGA,200221,2424.3329,N,08053.8131,W,1,10,1.3,23,M,,M,,*6F
06/15/2015	20:02:21.555	$GPGGA,200222,2424.3322,N,08053.8110,W,1,11,1.4,23,M,,M,,*62
06/15/2015	20:02:22.525	$GPGGA,200223,2424.3311,N,08053.8090,W,1,11,1.3,23,M,,M,,*6D
06/15/2015	20:02:23.600	$GPGGA,200224,2424.3301,N,08053.8070,W,1,11,1.3,23,M,,M,,*65
06/15/2015	20:02:24.545	$GPGGA,200225,2424.3293,N,08053.8049,W,1,11,1.4,23,M,,M,,*63
06/15/2015	20:02:25.615	$GPGGA,200226,2424.3282,N,08053.8029,W,1,10,1.3,23,M,,M,,*60
06/15/2015	20:02:26.525	$GPGGA,200227,2424.3272,N,08053.8010,W,1,10,1.3,23,M,,M,,*64
06/15/2015	20:02:27.575	$GPGGA,200228,2424.3264,N,08053.7988,W,1,11,1.3,23,M,,M,,*6A
06/15/2015	20:02:28.625	$GPGGA,200229,2424.3253,N,08053.7967,W,1,11,1.3,22,M,,M,,*6F
06/15/2015	20:02:29.515	$GPGGA,200230,2424.3253,N,08053.7967,W,1,11,1.3,22,M,,M,,*67
06/15/2015	20:02:30.625	$GPGGA,200231,2424.3232,N,08053.7927,W,1,11,1.3,22,M,,M,,*65
06/15/2015	20:02:31.616	$GPGGA,200232,2424.3222,N,08053.7906,W,1,10,1.3,22,M,,M,,*65
06/15/2015	20:02:32.601	$GPGGA,200233,2424.3210,N,08053.7885,W,1,10,1.3,22,M,,M,,*6F
06/15/2015	20:02:33.616	$GPGGA,200234,2424.3199,N,08053.7866,W,1,11,1.3,22,M,,M,,*66
06/15/2015	20:02:34.601	$GPGGA,200235,2424.3189,N,08053.7846,W,1,11,1.3,22,M,,M,,*64
06/15/2015	20:02:35.626	$GPGGA,200236,2424.3179,N,08053.7824,W,1,11,1.3,22,M,,M,,*6C
06/15/2015	20:02:36.597	$GPGGA,200237,2424.3168,N,08053.7805,W,1,11,1.3,22,M,,M,,*6E
06/15/2015	20:02:37.615	$GPGGA,200238,2424.3157,N,08053.7784,W,1,11,1.3,22,M,,M,,*6B
06/15/2015	20:02:38.598	$GPGGA,200239,2424.3146,N,08053.7763,W,1,11,1.3,22,M,,M,,*63
06/15/2015	20:02:39.625	$GPGGA,200240,2424.3134,N,08053.7743,W,1,11,1.3,22,M,,M,,*6A
06/15/2015	20:02:40.595	$GPGGA,200241,2424.3123,N,08053.7723,W,1,11,1.3,22,M,,M,,*6B
06/15/2015	20:02:41.598	$GPGGA,200242,2424.3112,N,08053.7702,W,1,11,1.3,22,M,,M,,*69
06/15/2015	20:02:42.585	$GPGGA,200243,2424.3102,N,08053.7681,W,1,11,1.3,22,M,,M,,*63
06/15/2015	20:02:43.615	$GPGGA,200244,2424.3089,N,08053.7661,W,1,11,1.3,22,M,,M,,*68
06/15/2015	20:02:44.565	$GPGGA,200245,2424.3076,N,08053.7643,W,1,11,1.3,22,M,,M,,*69
06/15/2015	20:02:45.597	$GPGGA,200246,2424.3064,N,08053.7620,W,1,11,1.3,21,M,,M,,*6F
06/15/2015	20:02:46.575	$GPGGA,200247,2424.3055,N,08053.7597,W,1,11,1.3,21,M,,M,,*63
06/15/2015	20:02:47.575	$GPGGA,200248,2424.3040,N,08053.7580,W,1,11,1.3,21,M,,M,,*6E
06/15/2015	20:02:48.565	$GPGGA,200249,2424.3027,N,08053.7562,W,1,11,1.3,21,M,,M,,*62
06/15/2015	20:02:49.607	$GPGGA,200250,2424.3017,N,08053.7539,W,1,11,1.3,21,M,,M,,*67
06/15/2015	20:02:50.566	$GPGGA,200251,2424.3005,N,08053.7518,W,1,11,1.3,21,M,,M,,*66
06/15/2015	20:02:51.566	$GPGGA,200252,2424.2997,N,08053.7500,W,1,10,1.4,21,M,,M,,*69
06/15/2015	20:02:52.566	$GPGGA,200253,2424.2984,N,08053.7479,W,1,10,1.3,21,M,,M,,*62
06/15/2015	20:02:53.546	$GPGGA,200254,2424.2975,N,08053.7459,W,1,11,1.3,21,M,,M,,*68
06/15/2015	20:02:54.566	$GPGGA,200255,2424.2964,N,08053.7438,W,1,11,1.3,21,M,,M,,*6E
06/15/2015	20:02:55.575	$GPGGA,200256,2424.2951,N,08053.7418,W,1,11,1.3,21,M,,M,,*69
06/15/2015	20:02:56.565	$GPGGA,200257,2424.2940,N,08053.7401,W,1,11,1.3,21,M,,M,,*60
06/15/2015	20:02:57.545	$GPGGA,200258,2424.2928,N,08053.7381,W,1,11,1.3,21,M,,M,,*6E
06/15/2015	20:02:58.545	$GPGGA,200259,2424.2916,N,08053.7359,W,1,11,1.3,21,M,,M,,*67
06/15/2015	20:02:59.598	$GPGGA,200300,2424.2904,N,08053.7339,W,1,10,1.5,21,M,,M,,*68
06/15/2015	20:03:00.555	$GPGGA,200301,2424.2890,N,08053.7321,W,1,10,1.3,21,M,,M,,*6A
06/15/2015	20:03:01.545	$GPGGA,200302,2424.2878,N,08053.7300,W,1,11,1.3,21,M,,M,,*6D
06/15/2015	20:03:02.545	$GPGGA,200303,2424.2867,N,08053.7280,W,1,11,1.3,21,M,,M,,*6B
06/15/2015	20:03:03.575	$GPGGA,200304,2424.2853,N,08053.7262,W,1,11,1.3,21,M,,M,,*67
06/15/2015	20:03:04.525	$GPGGA,200305,2424.2841,N,08053.7243,W,1,11,1.5,21,M,,M,,*60
06/15/2015	20:03:05.565	$GPGGA,200306,2424.2831,N,08053.7224,W,1,11,1.3,21,M,,M,,*63
06/15/2015	20:03:06.526	$GPGGA,200307,2424.2817,N,08053.7206,W,1,11,1.3,21,M,,M,,*66
06/15/2015	20:03:07.536	$GPGGA,200308,2424.2802,N,08053.7186,W,1,11,1.3,21,M,,M,,*66
06/15/2015	20:03:08.546	$GPGGA,200309,2424.2791,N,08053.7165,W,1,11,2.2,21,M,,M,,*6D
06/15/2015	20:03:09.646	$GPGGA,200310,2424.2778,N,08053.7148,W,1,11,1.3,21,M,,M,,*6F
06/15/2015	20:03:10.526	$GPGGA,200311,2424.2764,N,08053.7131,W,1,11,1.3,21,M,,M,,*6D
06/15/2015	20:03:11.546	$GPGGA,200312,2424.2752,N,08053.7109,W,1,11,1.3,21,M,,M,,*60
06/15/2015	20:03:12.512	$GPGGA,200313,2424.2740,N,08053.7091,W,1,11,1.3,21,M,,M,,*62
06/15/2015	20:03:13.545	$GPGGA,200314,2424.2726,N,08053.7073,W,1,10,1.4,21,M,,M,,*6F
06/15/2015	20:03:14.508	$GPGGA,200315,2424.2712,N,08053.7052,W,1,10,1.5,21,M,,M,,*6B
06/15/2015	20:03:15.565	$GPGGA,200316,2424.2701,N,08053.7033,W,1,11,1.3,21,M,,M,,*6A
06/15/2015	20:03:16.515	$GPGGA,200317,2424.2687,N,08053.7014,W,1,11,1.6,21,M,,M,,*64
06/15/2015	20:03:17.615	$GPGGA,200318,2424.2674,N,08053.6996,W,1,10,1.4,21,M,,M,,*66
06/15/2015	20:03:18.525	$GPGGA,200319,2424.2666,N,08053.6978,W,1,10,1.3,21,M,,M,,*63
06/15/2015	20:03:19.507	$GPGGA,200320,2424.2654,N,08053.6959,W,1,11,1.3,21,M,,M,,*6A
06/15/2015	20:03:20.598	$GPGGA,200321,2424.2639,N,08053.6943,W,1,11,1.4,21,M,,M,,*6C
06/15/2015	20:03:21.625	$GPGGA,200322,2424.2627,N,08053.6925,W,1,11,1.3,21,M,,M,,*67
06/15/2015	20:03:22.597	$GPGGA,200323,2424.2615,N,08053.6905,W,1,11,1.4,21,M,,M,,*62
06/15/2015	20:03:23.601	$GPGGA,200324,2424.2601,N,08053.6889,W,1,11,1.3,21,M,,M,,*62
06/15/2015	20:03:24.586	$GPGGA,200325,2424.2589,N,08053.6875,W,1,11,1.3,21,M,,M,,*63
06/15/2015	20:03:25.601	$GPGGA,200326,2424.2576,N,08053.6856,W,1,11,1.3,21,M,,M,,*61
06/15/2015	20:03:26.619	$GPGGA,200327,2424.2565,N,08053.6838,W,1,11,1.3,21,M,,M,,*6A
06/15/2015	20:03:27.636	$GPGGA,200328,2424.2552,N,08053.6822,W,1,11,1.3,21,M,,M,,*6A
06/15/2015	20:03:28.586	$GPGGA,200329,2424.2538,N,08053.6806,W,1,11,1.3,21,M,,M,,*61
06/15/2015	20:03:29.576	$GPGGA,200330,2424.2524,N,08053.6788,W,1,10,1.4,21,M,,M,,*6B
06/15/2015	20:03:30.575	$GPGGA,200331,2424.2510,N,08053.6769,W,1,10,1.4,21,M,,M,,*62
06/15/2015	20:03:31.606	$GPGGA,200332,2424.2495,N,08053.6753,W,1,10,1.4,21,M,,M,,*64
06/15/2015	20:03:32.575	$GPGGA,200333,2424.2482,N,08053.6738,W,1,10,1.4,21,M,,M,,*6E
06/15/2015	20:03:33.565	$GPGGA,200334,2424.2467,N,08053.6719,W,1,11,1.3,21,M,,M,,*67
06/15/2015	20:03:34.575	$GPGGA,200335,2424.2455,N,08053.6701,W,1,11,1.3,21,M,,M,,*6E
06/15/2015	20:03:35.599	$GPGGA,200336,2424.2439,N,08053.6685,W,1,11,1.3,21,M,,M,,*6A
06/15/2015	20:03:36.565	$GPGGA,200337,2424.2426,N,08053.6670,W,1,11,1.3,21,M,,M,,*6F
06/15/2015	20:03:37.599	$GPGGA,200338,2424.2410,N,08053.6652,W,1,10,1.4,21,M,,M,,*63
06/15/2015	20:03:38.565	$GPGGA,200339,2424.2398,N,08053.6635,W,1,10,1.4,21,M,,M,,*64
06/15/2015	20:03:39.605	$GPGGA,200340,2424.2384,N,08053.6621,W,1,11,1.3,21,M,,M,,*64
06/15/2015	20:03:40.565	$GPGGA,200341,2424.2369,N,08053.6606,W,1,11,1.4,21,M,,M,,*64
06/15/2015	20:03:41.576	$GPGGA,200342,2424.2356,N,08053.6588,W,1,10,1.4,21,M,,M,,*6F
06/15/2015	20:03:42.557	$GPGGA,200343,2424.2344,N,08053.6572,W,1,10,1.4,20,M,,M,,*69
06/15/2015	20:03:43.556	$GPGGA,200344,2424.2328,N,08053.6558,W,1,11,1.3,20,M,,M,,*6A
06/15/2015	20:03:44.546	$GPGGA,200345,2424.2314,N,08053.6542,W,1,11,1.4,20,M,,M,,*68
06/15/2015	20:03:45.536	$GPGGA,200346,2424.2300,N,08053.6524,W,1,10,1.4,20,M,,M,,*6F
06/15/2015	20:03:46.536	$GPGGA,200347,2424.2286,N,08053.6508,W,1,10,1.3,20,M,,M,,*68
06/15/2015	20:03:47.555	$GPGGA,200348,2424.2272,N,08053.6494,W,1,11,1.3,20,M,,M,,*69
06/15/2015	20:03:48.535	$GPGGA,200349,2424.2256,N,08053.6479,W,1,11,1.3,20,M,,M,,*6D
06/15/2015	20:03:49.545	$GPGGA,200350,2424.2242,N,08053.6461,W,1,11,1.3,20,M,,M,,*69
06/15/2015	20:03:50.545	$GPGGA,200351,2424.2227,N,08053.6445,W,1,11,1.3,20,M,,M,,*6D
06/15/2015	20:03:51.565	$GPGGA,200352,2424.2211,N,08053.6430,W,1,11,1.3,20,M,,M,,*69
06/15/2015	20:03:52.535	$GPGGA,200353,2424.2196,N,08053.6415,W,1,11,1.4,20,M,,M,,*64
06/15/2015	20:03:53.555	$GPGGA,200354,2424.2184,N,08053.6398,W,1,10,1.4,20,M,,M,,*63
06/15/2015	20:03:54.515	$GPGGA,200355,2424.2168,N,08053.6381,W,1,10,1.4,20,M,,M,,*68
06/15/2015	20:03:55.555	$GPGGA,200356,2424.2152,N,08053.6367,W,1,10,1.4,20,M,,M,,*6A
06/15/2015	20:03:56.545	$GPGGA,200357,2424.2135,N,08053.6352,W,1,10,1.7,20,M,,M,,*6F
06/15/2015	20:03:57.545	$GPGGA,200358,2424.2120,N,08053.6337,W,1,10,1.4,20,M,,M,,*64
06/15/2015	20:03:58.525	$GPGGA,200359,2424.2104,N,08053.6321,W,1,10,1.4,20,M,,M,,*64
06/15/2015	20:03:59.686	$GPGGA,200400,2424.2090,N,08053.6307,W,1,10,1.4,20,M,,M,,*67
06/15/2015	20:04:00.636	$GPGGA,200401,2424.2074,N,08053.6293,W,1,10,1.4,20,M,,M,,*60
06/15/2015	20:04:01.546	$GPGGA,200402,2424.2058,N,08053.6276,W,1,10,1.4,20,M,,M,,*66
06/15/2015	20:04:02.509	$GPGGA,200403,2424.2043,N,08053.6261,W,1,10,1.4,20,M,,M,,*6B
06/15/2015	20:04:03.526	$GPGGA,200404,2424.2027,N,08053.6247,W,1,10,1.4,20,M,,M,,*6A
06/15/2015	20:04:04.508	$GPGGA,200405,2424.2011,N,08053.6234,W,1,10,1.4,20,M,,M,,*6A
06/15/2015	20:04:05.605	$GPGGA,200406,2424.1996,N,08053.6219,W,1,10,1.4,20,M,,M,,*63
06/15/2015	20:04:06.515	$GPGGA,200407,2424.1982,N,08053.6203,W,1,10,1.4,20,M,,M,,*6C
06/15/2015	20:04:07.509	$GPGGA,200408,2424.1967,N,08053.6191,W,1,10,1.4,20,M,,M,,*60
06/15/2015	20:04:08.595	$GPGGA,200409,2424.1953,N,08053.6180,W,1,10,1.3,20,M,,M,,*61
06/15/2015	20:04:09.595	$GPGGA,200410,2424.1937,N,08053.6166,W,1,11,1.3,20,M,,M,,*62
06/15/2015	20:04:10.512	$GPGGA,200411,2424.1922,N,08053.6150,W,1,11,1.3,20,M,,M,,*62
06/15/2015	20:04:11.635	$GPGGA,200412,2424.1906,N,08053.6136,W,1,10,1.4,20,M,,M,,*61
06/15/2015	20:04:12.597	$GPGGA,200413,2424.1891,N,08053.6124,W,1,10,1.4,20,M,,M,,*6C
06/15/2015	20:04:13.615	$GPGGA,200414,2424.1874,N,08053.6111,W,1,11,1.3,20,M,,M,,*60
06/15/2015	20:04:14.575	$GPGGA,200415,2424.1859,N,08053.6096,W,1,11,1.4,20,M,,M,,*67
06/15/2015	20:04:15.615	$GPGGA,200416,2424.1846,N,08053.6081,W,1,10,1.4,20,M,,M,,*6D
06/15/2015	20:04:16.586	$GPGGA,200417,2424.1830,N,08053.6068,W,1,10,1.3,20,M,,M,,*6D
06/15/2015	20:04:17.576	$GPGGA,200418,2424.1814,N,08053.6055,W,1,11,1.3,20,M,,M,,*6B
06/15/2015	20:04:18.576	$GPGGA,200419,2424.1801,N,08053.6041,W,1,11,1.3,20,M,,M,,*6B
06/15/2015	20:04:19.601	$GPGGA,200420,2424.1784,N,08053.6027,W,1,11,1.3,20,M,,M,,*63
06/15/2015	20:04:20.576	$GPGGA,200421,2424.1769,N,08053.6015,W,1,11,1.4,20,M,,M,,*67
06/15/2015	20:04:21.612	$GPGGA,200422,2424.1754,N,08053.6000,W,1,11,1.3,20,M,,M,,*69
06/15/2015	20:04:22.565	$GPGGA,200423,2424.1740,N,08053.5987,W,1,11,1.3,20,M,,M,,*68
06/15/2015	20:04:23.599	$GPGGA,200424,2424.1722,N,08053.5975,W,1,11,1.3,20,M,,M,,*66
06/15/2015	20:04:24.555	$GPGGA,200425,2424.1709,N,08053.5963,W,1,11,2.2,20,M,,M,,*6B
06/15/2015	20:04:25.565	$GPGGA,200426,2424.1694,N,08053.5949,W,1,11,1.3,20,M,,M,,*67
06/15/2015	20:04:26.566	$GPGGA,200427,2424.1679,N,08053.5935,W,1,11,1.3,20,M,,M,,*6E
06/15/2015	20:04:27.585	$GPGGA,200428,2424.1665,N,08053.5925,W,1,11,1.3,20,M,,M,,*6D
06/15/2015	20:04:28.555	$GPGGA,200429,2424.1650,N,08053.5913,W,1,11,1.4,21,M,,M,,*69
06/15/2015	20:04:29.585	$GPGGA,200430,2424.1636,N,08053.5898,W,1,11,1.3,21,M,,M,,*64
06/15/2015	20:04:30.565	$GPGGA,200431,2424.1621,N,08053.5885,W,1,11,1.3,21,M,,M,,*6F
06/15/2015	20:04:31.585	$GPGGA,200432,2424.1606,N,08053.5874,W,1,11,1.3,21,M,,M,,*67
06/15/2015	20:04:32.545	$GPGGA,200433,2424.1589,N,08053.5861,W,1,11,1.3,21,M,,M,,*66
06/15/2015	20:04:33.575	$GPGGA,200434,2424.1572,N,08053.5848,W,1,11,1.3,21,M,,M,,*6E
06/15/2015	20:04:34.536	$GPGGA,200435,2424.1556,N,08053.5837,W,1,11,1.4,21,M,,M,,*66
06/15/2015	20:04:35.556	$GPGGA,200436,2424.1537,N,08053.5825,W,1,10,1.4,21,M,,M,,*60
06/15/2015	20:04:36.546	$GPGGA,200437,2424.1521,N,08053.5812,W,1,10,1.3,21,M,,M,,*65
06/15/2015	20:04:37.526	$GPGGA,200438,2424.1505,N,08053.5801,W,1,11,1.3,21,M,,M,,*6F
06/15/2015	20:04:38.546	$GPGGA,200439,2424.1489,N,08053.5790,W,1,11,1.3,21,M,,M,,*6C
06/15/2015	20:04:39.875	$GPGGA,200440,2424.1474,N,08053.5777,W,1,11,1.3,21,M,,M,,*69
06/15/2015	20:04:40.525	$GPGGA,200441,2424.1458,N,08053.5767,W,1,11,1.5,21,M,,M,,*61
06/15/2015	20:04:41.525	$GPGGA,200442,2424.1441,N,08053.5758,W,1,11,1.3,21,M,,M,,*60
06/15/2015	20:04:42.615	$GPGGA,200443,2424.1424,N,08053.5748,W,1,11,1.3,21,M,,M,,*63
06/15/2015	20:04:43.535	$GPGGA,200444,2424.1408,N,08053.5737,W,1,11,1.3,21,M,,M,,*62
06/15/2015	20:04:44.535	$GPGGA,200445,2424.1393,N,08053.5729,W,1,11,1.3,21,M,,M,,*69
06/15/2015	20:04:45.685	$GPGGA,200446,2424.1376,N,08053.5721,W,1,11,1.3,21,M,,M,,*69
06/15/2015	20:04:46.515	$GPGGA,200447,2424.1361,N,08053.5713,W,1,11,1.3,21,M,,M,,*6F
06/15/2015	20:04:47.685	$GPGGA,200448,2424.1346,N,08053.5706,W,1,11,1.3,20,M,,M,,*60
06/15/2015	20:04:48.535	$GPGGA,200449,2424.1328,N,08053.5699,W,1,11,1.3,20,M,,M,,*6E
06/15/2015	20:04:49.812	$GPGGA,200450,2424.1312,N,08053.5692,W,1,10,1.4,20,M,,M,,*62
06/15/2015	20:04:50.605	$GPGGA,200451,2424.1296,N,08053.5688,W,1,10,1.4,20,M,,M,,*65
06/15/2015	20:04:51.686	$GPGGA,200452,2424.1281,N,08053.5683,W,1,10,1.3,20,M,,M,,*6C
06/15/2015	20:04:52.676	$GPGGA,200453,2424.1270,N,08053.5675,W,1,10,1.3,20,M,,M,,*6A
06/15/2015	20:04:53.597	$GPGGA,200454,2424.1252,N,08053.5672,W,1,11,1.3,20,M,,M,,*6B
06/15/2015	20:04:54.596	$GPGGA,200455,2424.1241,N,08053.5668,W,1,11,1.3,20,M,,M,,*63
06/15/2015	20:04:55.646	$GPGGA,200456,2424.1230,N,08053.5663,W,1,11,1.3,20,M,,M,,*6D
06/15/2015	20:04:56.676	$GPGGA,200457,2424.1219,N,08053.5659,W,1,11,1.3,20,M,,M,,*6E
06/15/2015	20:04:57.585	$GPGGA,200458,2424.1209,N,08053.5656,W,1,11,1.3,20,M,,M,,*6F
06/15/2015	20:04:58.665	$GPGGA,200459,2424.1199,N,08053.5652,W,1,11,1.5,20,M,,M,,*66
06/15/2015	20:04:59.685	$GPGGA,200500,2424.1189,N,08053.5648,W,1,11,1.3,20,M,,M,,*67
06/15/2015	20:05:00.645	$GPGGA,200501,2424.1178,N,08053.5647,W,1,11,1.3,20,M,,M,,*67
06/15/2015	20:05:01.625	$GPGGA,200502,2424.1169,N,08053.5644,W,1,11,1.3,20,M,,M,,*67
06/15/2015	20:05:02.655	$GPGGA,200503,2424.1160,N,08053.5640,W,1,11,1.3,20,M,,M,,*6B
06/15/2015	20:05:03.675	$GPGGA,200504,2424.1151,N,08053.5638,W,1,10,1.5,20,M,,M,,*66
06/15/2015	20:05:04.645	$GPGGA,200505,2424.1144,N,08053.5635,W,1,10,1.3,20,M,,M,,*68
06/15/2015	20:05:05.625	$GPGGA,200506,2424.1136,N,08053.5632,W,1,10,1.3,20,M,,M,,*69
06/15/2015	20:05:06.645	$GPGGA,200507,2424.1127,N,08053.5629,W,1,10,1.6,20,M,,M,,*67
06/15/2015	20:05:07.665	$GPGGA,200508,2424.1118,N,08053.5627,W,1,9,1.4,20,M,,M,,*50
06/15/2015	20:05:08.565	$GPGGA,200509,2424.1109,N,08053.5623,W,1,9,1.4,20,M,,M,,*55
06/15/2015	20:05:09.616	$GPGGA,200510,2424.1104,N,08053.5622,W,1,9,1.6,20,M,,M,,*53
06/15/2015	20:05:10.636	$GPGGA,200511,2424.1095,N,08053.5623,W,1,9,1.4,20,M,,M,,*58
06/15/2015	20:05:11.646	$GPGGA,200512,2424.1086,N,08053.5620,W,1,9,2.1,20,M,,M,,*5C
06/15/2015	20:05:12.626	$GPGGA,200513,2424.1078,N,08053.5616,W,1,9,2.1,20,M,,M,,*59
06/15/2015	20:05:13.597	$GPGGA,200514,2424.1072,N,08053.5615,W,1,9,2.1,20,M,,M,,*57
06/15/2015	20:05:14.635	$GPGGA,200515,2424.1066,N,08053.5615,W,1,9,2.1,20,M,,M,,*53
06/15/2015	20:05:15.615	$GPGGA,200516,2424.1058,N,08053.5612,W,1,9,2.1,20,M,,M,,*5A
06/15/2015	20:05:16.625	$GPGGA,200517,2424.1051,N,08053.5608,W,1,9,2.1,20,M,,M,,*59
06/15/2015	20:05:17.585	$GPGGA,200518,2424.1048,N,08053.5607,W,1,9,2.1,20,M,,M,,*51
06/15/2015	20:05:18.609	$GPGGA,200519,2424.1044,N,08053.5608,W,1,9,1.3,20,M,,M,,*52
06/15/2015	20:05:19.606	$GPGGA,200520,2424.1040,N,08053.5605,W,1,11,1.3,20,M,,M,,*68
06/15/2015	20:05:20.535	$GPGGA,200521,2424.1035,N,08053.5601,W,1,11,1.3,20,M,,M,,*6F
06/15/2015	20:05:21.535	$GPGGA,200522,2424.1030,N,08053.5601,W,1,10,1.4,20,M,,M,,*6F
06/15/2015	20:05:22.595	$GPGGA,200523,2424.1026,N,08053.5599,W,1,10,1.4,21,M,,M,,*6A
06/15/2015	20:05:23.615	$GPGGA,200524,2424.1021,N,08053.5596,W,1,10,1.4,21,M,,M,,*65
06/15/2015	20:05:24.525	$GPGGA,200525,2424.1017,N,08053.5594,W,1,10,1.4,21,M,,M,,*63
06/15/2015	20:05:25.525	$GPGGA,200526,2424.1014,N,08053.5592,W,1,10,1.4,21,M,,M,,*65
06/15/2015	20:05:26.600	$GPGGA,200527,2424.1010,N,08053.5590,W,1,10,1.3,21,M,,M,,*65
06/15/2015	20:05:27.636	$GPGGA,200528,2424.1007,N,08053.5586,W,1,11,1.3,21,M,,M,,*6A
06/15/2015	20:05:28.603	$GPGGA,200529,2424.1003,N,08053.5585,W,1,11,1.3,21,M,,M,,*6C
06/15/2015	20:05:29.576	$GPGGA,200530,2424.1000,N,08053.5584,W,1,11,1.3,21,M,,M,,*66
06/15/2015	20:05:30.586	$GPGGA,200531,2424.0996,N,08053.5580,W,1,11,1.4,21,M,,M,,*63
06/15/2015	20:05:31.646	$GPGGA,200532,2424.0992,N,08053.5578,W,1,10,1.4,21,M,,M,,*62
06/15/2015	20:05:32.515	$GPGGA,200533,2424.0988,N,08053.5577,W,1,10,1.4,21,M,,M,,*67
06/15/2015	20:05:33.555	$GPGGA,200534,2424.0983,N,08053.5575,W,1,10,1.4,21,M,,M,,*69
06/15/2015	20:05:34.635	$GPGGA,200535,2424.0979,N,08053.5573,W,1,10,1.4,21,M,,M,,*6B
06/15/2015	20:05:35.615	$GPGGA,200536,2424.0975,N,08053.5570,W,1,10,1.3,21,M,,M,,*60
06/15/2015	20:05:36.605	$GPGGA,200537,2424.0974,N,08053.5569,W,1,10,1.3,21,M,,M,,*68
06/15/2015	20:05:37.565	$GPGGA,200538,2424.0972,N,08053.5568,W,1,11,1.3,21,M,,M,,*61
06/15/2015	20:05:38.685	$GPGGA,200539,2424.0968,N,08053.5565,W,1,11,1.3,21,M,,M,,*66
06/15/2015	20:05:39.645	$GPGGA,200540,2424.0964,N,08053.5562,W,1,11,1.3,21,M,,M,,*63
06/15/2015	20:05:40.625	$GPGGA,200541,2424.0961,N,08053.5563,W,1,11,1.4,21,M,,M,,*61
06/15/2015	20:05:41.608	$GPGGA,200542,2424.0958,N,08053.5562,W,1,10,1.4,21,M,,M,,*68
06/15/2015	20:05:42.565	$GPGGA,200543,2424.0953,N,08053.5559,W,1,10,1.4,21,M,,M,,*6A
06/15/2015	20:05:43.605	$GPGGA,200544,2424.0948,N,08053.5557,W,1,10,1.6,21,M,,M,,*6B
06/15/2015	20:05:44.586	$GPGGA,200545,2424.0948,N,08053.5555,W,1,10,1.5,21,M,,M,,*6B
06/15/2015	20:05:45.616	$GPGGA,200546,2424.0945,N,08053.5552,W,1,10,1.3,21,M,,M,,*64
06/15/2015	20:05:46.598	$GPGGA,200547,2424.0942,N,08053.5550,W,1,10,1.5,21,M,,M,,*66
06/15/2015	20:05:47.616	$GPGGA,200548,2424.0938,N,08053.5550,W,1,10,1.4,21,M,,M,,*65
06/15/2015	20:05:48.586	$GPGGA,200549,2424.0932,N,08053.5549,W,1,10,1.4,21,M,,M,,*66
06/15/2015	20:05:49.605	$GPGGA,200550,2424.0927,N,08053.5548,W,1,10,1.4,21,M,,M,,*6B
06/15/2015	20:05:50.615	$GPGGA,200551,2424.0925,N,08053.5547,W,1,10,1.3,21,M,,M,,*60
06/15/2015	20:05:51.625	$GPGGA,200552,2424.0923,N,08053.5547,W,1,11,1.3,21,M,,M,,*64
06/15/2015	20:05:52.608	$GPGGA,200553,2424.0919,N,08053.5546,W,1,11,1.5,21,M,,M,,*6B
06/15/2015	20:05:53.603	$GPGGA,200554,2424.0916,N,08053.5545,W,1,10,1.3,21,M,,M,,*67
06/15/2015	20:05:54.595	$GPGGA,200555,2424.0912,N,08053.5544,W,1,10,1.3,21,M,,M,,*63
06/15/2015	20:05:55.611	$GPGGA,200556,2424.0909,N,08053.5545,W,1,11,1.3,22,M,,M,,*69
06/15/2015	20:05:56.585	$GPGGA,200557,2424.0906,N,08053.5546,W,1,11,1.3,22,M,,M,,*64
06/15/2015	20:05:57.555	$GPGGA,200558,2424.0906,N,08053.5546,W,1,11,1.3,22,M,,M,,*6B
06/15/2015	20:05:58.575	$GPGGA,200559,2424.0898,N,08053.5543,W,1,11,1.3,22,M,,M,,*69
06/15/2015	20:05:59.615	$GPGGA,200600,2424.0896,N,08053.5546,W,1,11,1.3,22,M,,M,,*6D
06/15/2015	20:06:00.575	$GPGGA,200601,2424.0892,N,08053.5545,W,1,11,1.3,22,M,,M,,*6B
06/15/2015	20:06:01.566	$GPGGA,200602,2424.0888,N,08053.5546,W,1,11,1.3,22,M,,M,,*60
06/15/2015	20:06:02.586	$GPGGA,200603,2424.0885,N,08053.5547,W,1,11,1.3,22,M,,M,,*6D
06/15/2015	20:06:03.566	$GPGGA,200604,2424.0882,N,08053.5547,W,1,11,1.3,22,M,,M,,*6D
06/15/2015	20:06:04.586	$GPGGA,200605,2424.0878,N,08053.5547,W,1,11,1.3,22,M,,M,,*69
06/15/2015	20:06:05.556	$GPGGA,200606,2424.0876,N,08053.5549,W,1,11,1.3,22,M,,M,,*6A
06/15/2015	20:06:06.602	$GPGGA,200607,2424.0872,N,08053.5549,W,1,11,1.3,22,M,,M,,*6F
06/15/2015	20:06:07.585	$GPGGA,200608,2424.0869,N,08053.5550,W,1,11,1.3,22,M,,M,,*62
06/15/2015	20:06:08.655	$GPGGA,200609,2424.0864,N,08053.5550,W,1,11,1.3,22,M,,M,,*6E
06/15/2015	20:06:09.645	$GPGGA,200610,2424.0862,N,08053.5551,W,1,11,1.3,22,M,,M,,*61
06/15/2015	20:06:10.555	$GPGGA,200611,2424.0858,N,08053.5553,W,1,11,1.3,22,M,,M,,*6B
06/15/2015	20:06:11.585	$GPGGA,200612,2424.0855,N,08053.5552,W,1,11,1.3,22,M,,M,,*64
06/15/2015	20:06:12.635	$GPGGA,200613,2424.0852,N,08053.5553,W,1,11,1.3,22,M,,M,,*63
06/15/2015	20:06:13.545	$GPGGA,200614,2424.0849,N,08053.5556,W,1,11,1.3,22,M,,M,,*6B
06/15/2015	20:06:14.535	$GPGGA,200615,2424.0849,N,08053.5556,W,1,11,1.3,22,M,,M,,*6A
06/15/2015	20:06:15.665	$GPGGA,200616,2424.0841,N,08053.5556,W,1,11,1.3,22,M,,M,,*61
06/15/2015	20:06:16.645	$GPGGA,200617,2424.0840,N,08053.5556,W,1,11,1.4,22,M,,M,,*66
06/15/2015	20:06:17.615	$GPGGA,200618,2424.0837,N,08053.5557,W,1,11,1.3,22,M,,M,,*6F
06/15/2015	20:06:18.625	$GPGGA,200619,2424.0834,N,08053.5558,W,1,11,1.3,22,M,,M,,*62
06/15/2015	20:06:19.526	$GPGGA,200620,2424.0831,N,08053.5560,W,1,11,1.3,22,M,,M,,*66
06/15/2015	20:06:20.615	$GPGGA,200621,2424.0829,N,08053.5559,W,1,11,1.5,22,M,,M,,*62
06/15/2015	20:06:21.626	$GPGGA,200622,2424.0826,N,08053.5561,W,1,11,1.3,22,M,,M,,*63
06/15/2015	20:06:22.616	$GPGGA,200623,2424.0824,N,08053.5563,W,1,11,1.3,22,M,,M,,*62
06/15/2015	20:06:23.616	$GPGGA,200624,2424.0822,N,08053.5562,W,1,11,1.3,22,M,,M,,*62
06/15/2015	20:06:24.525	$GPGGA,200625,2424.0822,N,08053.5562,W,1,11,1.3,22,M,,M,,*63
06/15/2015	20:06:25.625	$GPGGA,200626,2424.0816,N,08053.5565,W,1,11,1.3,22,M,,M,,*60
06/15/2015	20:06:26.607	$GPGGA,200627,2424.0813,N,08053.5567,W,1,11,1.3,22,M,,M,,*66
06/15/2015	20:06:27.645	$GPGGA,200628,2424.0811,N,08053.5569,W,1,11,1.3,22,M,,M,,*65
06/15/2015	20:06:28.595	$GPGGA,200629,2424.0808,N,08053.5571,W,1,11,1.3,22,M,,M,,*65
06/15/2015	20:06:30.635	$GPGGA,200631,2424.0805,N,08053.5574,W,1,11,1.3,22,M,,M,,*64
06/15/2015	20:06:31.615	$GPGGA,200632,2424.0802,N,08053.5575,W,1,11,1.3,22,M,,M,,*61
06/15/2015	20:06:32.585	$GPGGA,200633,2424.0800,N,08053.5578,W,1,11,1.3,22,M,,M,,*6F
06/15/2015	20:06:33.605	$GPGGA,200634,2424.0799,N,08053.5579,W,1,10,1.4,22,M,,M,,*60
06/15/2015	20:06:34.585	$GPGGA,200635,2424.0797,N,08053.5582,W,1,10,1.5,22,M,,M,,*6A
06/15/2015	20:06:35.615	$GPGGA,200636,2424.0797,N,08053.5583,W,1,11,1.3,22,M,,M,,*6F
06/15/2015	20:06:36.586	$GPGGA,200637,2424.0797,N,08053.5585,W,1,11,1.5,22,M,,M,,*6E
06/15/2015	20:06:37.586	$GPGGA,200638,2424.0794,N,08053.5586,W,1,10,1.5,22,M,,M,,*60
06/15/2015	20:06:38.586	$GPGGA,200639,2424.0793,N,08053.5587,W,1,10,1.5,22,M,,M,,*67
06/15/2015	20:06:39.607	$GPGGA,200640,2424.0793,N,08053.5590,W,1,10,1.5,22,M,,M,,*6F
06/15/2015	20:06:40.586	$GPGGA,200641,2424.0791,N,08053.5592,W,1,10,1.3,22,M,,M,,*68
06/15/2015	20:06:41.597	$GPGGA,200642,2424.0789,N,08053.5596,W,1,11,1.3,22,M,,M,,*67
06/15/2015	20:06:42.565	$GPGGA,200643,2424.0787,N,08053.5596,W,1,11,1.3,22,M,,M,,*68
06/15/2015	20:06:43.565	$GPGGA,200644,2424.0789,N,08053.5598,W,1,10,1.4,22,M,,M,,*69
06/15/2015	20:06:44.565	$GPGGA,200645,2424.0789,N,08053.5601,W,1,10,1.3,22,M,,M,,*6C
06/15/2015	20:06:45.585	$GPGGA,200646,2424.0788,N,08053.5603,W,1,11,1.3,22,M,,M,,*6D
06/15/2015	20:06:46.555	$GPGGA,200647,2424.0786,N,08053.5607,W,1,11,1.4,22,M,,M,,*61
06/15/2015	20:06:47.565	$GPGGA,200648,2424.0786,N,08053.5608,W,1,10,1.4,22,M,,M,,*60
06/15/2015	20:06:48.555	$GPGGA,200649,2424.0786,N,08053.5611,W,1,10,1.4,22,M,,M,,*69
06/15/2015	20:06:49.545	$GPGGA,200650,2424.0786,N,08053.5614,W,1,10,1.4,22,M,,M,,*64
06/15/2015	20:06:50.565	$GPGGA,200651,2424.0786,N,08053.5615,W,1,10,1.3,22,M,,M,,*63
06/15/2015	20:06:51.595	$GPGGA,200652,2424.0786,N,08053.5618,W,1,11,1.3,22,M,,M,,*6C
06/15/2015	20:06:52.545	$GPGGA,200653,2424.0786,N,08053.5619,W,1,11,1.4,22,M,,M,,*6B
06/15/2015	20:06:53.556	$GPGGA,200654,2424.0786,N,08053.5622,W,1,11,1.3,22,M,,M,,*63
06/15/2015	20:06:54.546	$GPGGA,200655,2424.0786,N,08053.5625,W,1,11,1.3,22,M,,M,,*65
06/15/2015	20:06:55.666	$GPGGA,200656,2424.0784,N,08053.5629,W,1,11,1.3,22,M,,M,,*68
06/15/2015	20:06:57.578	$GPGGA,200658,2424.0789,N,08053.5633,W,1,11,1.3,22,M,,M,,*60
06/15/2015	20:06:58.536	$GPGGA,200659,2424.0788,N,08053.5636,W,1,11,1.3,22,M,,M,,*65
06/15/2015	20:06:59.575	$GPGGA,200700,2424.0789,N,08053.5639,W,1,11,1.3,22,M,,M,,*66
06/15/2015	20:07:00.615	$GPGGA,200701,2424.0790,N,08053.5643,W,1,11,1.3,22,M,,M,,*62
06/15/2015	20:07:01.625	$GPGGA,200702,2424.0792,N,08053.5645,W,1,11,1.3,22,M,,M,,*65
06/15/2015	20:07:02.545	$GPGGA,200703,2424.0793,N,08053.5648,W,1,11,1.3,21,M,,M,,*6B
06/15/2015	20:07:03.655	$GPGGA,200704,2424.0793,N,08053.5651,W,1,11,1.3,21,M,,M,,*64
06/15/2015	20:07:04.615	$GPGGA,200705,2424.0796,N,08053.5655,W,1,11,1.3,21,M,,M,,*64
06/15/2015	20:07:05.505	$GPGGA,200706,2424.0797,N,08053.5658,W,1,11,1.3,21,M,,M,,*6B
06/15/2015	20:07:06.605	$GPGGA,200707,2424.0797,N,08053.5661,W,1,11,1.3,21,M,,M,,*60
06/15/2015	20:07:07.625	$GPGGA,200708,2424.0800,N,08053.5665,W,1,11,1.3,21,M,,M,,*6A
06/15/2015	20:07:08.605	$GPGGA,200709,2424.0802,N,08053.5668,W,1,11,1.3,21,M,,M,,*64
06/15/2015	20:07:09.502	$GPGGA,200710,2424.0803,N,08053.5670,W,1,11,1.3,21,M,,M,,*64
06/15/2015	20:07:10.604	$GPGGA,200711,2424.0804,N,08053.5673,W,1,11,1.3,21,M,,M,,*61
06/15/2015	20:07:11.625	$GPGGA,200712,2424.0807,N,08053.5676,W,1,11,1.3,21,M,,M,,*64
06/15/2015	20:07:12.589	$GPGGA,200713,2424.0807,N,08053.5680,W,1,11,1.3,21,M,,M,,*6C
06/15/2015	20:07:13.615	$GPGGA,200714,2424.0810,N,08053.5683,W,1,11,1.3,21,M,,M,,*6E
06/15/2015	20:07:14.598	$GPGGA,200715,2424.0811,N,08053.5687,W,1,11,1.3,21,M,,M,,*6A
06/15/2015	20:07:15.595	$GPGGA,200716,2424.0813,N,08053.5690,W,1,11,1.3,21,M,,M,,*6D
06/15/2015	20:07:16.595	$GPGGA,200717,2424.0815,N,08053.5694,W,1,11,1.3,20,M,,M,,*6F
06/15/2015	20:07:17.602	$GPGGA,200718,2424.0815,N,08053.5697,W,1,11,1.3,20,M,,M,,*63
06/15/2015	20:07:18.574	$GPGGA,200719,2424.0818,N,08053.5701,W,1,11,1.3,20,M,,M,,*61
06/15/2015	20:07:19.604	$GPGGA,200720,2424.0820,N,08053.5706,W,1,11,1.3,20,M,,M,,*67
06/15/2015	20:07:20.564	$GPGGA,200721,2424.0821,N,08053.5710,W,1,11,1.3,20,M,,M,,*60
06/15/2015	20:07:21.599	$GPGGA,200722,2424.0822,N,08053.5715,W,1,11,1.3,20,M,,M,,*65
06/15/2015	20:07:22.575	$GPGGA,200723,2424.0825,N,08053.5717,W,1,11,1.3,20,M,,M,,*61
06/15/2015	20:07:23.605	$GPGGA,200724,2424.0826,N,08053.5722,W,1,11,1.3,20,M,,M,,*63
06/15/2015	20:07:24.575	$GPGGA,200725,2424.0829,N,08053.5726,W,1,11,1.3,20,M,,M,,*69
06/15/2015	20:07:25.586	$GPGGA,200726,2424.0829,N,08053.5730,W,1,11,1.3,20,M,,M,,*6D
06/15/2015	20:07:26.565	$GPGGA,200727,2424.0832,N,08053.5734,W,1,11,1.3,20,M,,M,,*62
06/15/2015	20:07:27.587	$GPGGA,200728,2424.0833,N,08053.5738,W,1,11,1.3,20,M,,M,,*60
06/15/2015	20:07:28.555	$GPGGA,200729,2424.0836,N,08053.5744,W,1,11,1.3,20,M,,M,,*6F
06/15/2015	20:07:29.545	$GPGGA,200730,2424.0836,N,08053.5746,W,1,11,1.3,20,M,,M,,*65
06/15/2015	20:07:30.555	$GPGGA,200731,2424.0840,N,08053.5751,W,1,11,1.3,20,M,,M,,*63
06/15/2015	20:07:31.555	$GPGGA,200732,2424.0842,N,08053.5755,W,1,11,1.3,20,M,,M,,*66
06/15/2015	20:07:32.555	$GPGGA,200733,2424.0843,N,08053.5760,W,1,11,1.3,20,M,,M,,*60
06/15/2015	20:07:33.535	$GPGGA,200734,2424.0844,N,08053.5764,W,1,11,1.3,20,M,,M,,*64
06/15/2015	20:07:34.554	$GPGGA,200735,2424.0847,N,08053.5770,W,1,11,1.3,20,M,,M,,*63
06/15/2015	20:07:35.554	$GPGGA,200736,2424.0847,N,08053.5773,W,1,11,1.3,20,M,,M,,*63
06/15/2015	20:07:36.534	$GPGGA,200737,2424.0850,N,08053.5777,W,1,11,1.3,20,M,,M,,*60
06/15/2015	20:07:37.564	$GPGGA,200738,2424.0851,N,08053.5781,W,1,11,1.3,20,M,,M,,*67
06/15/2015	20:07:38.544	$GPGGA,200739,2424.0853,N,08053.5787,W,1,11,1.3,20,M,,M,,*62
06/15/2015	20:07:39.555	$GPGGA,200740,2424.0854,N,08053.5791,W,1,11,1.3,20,M,,M,,*6C
06/15/2015	20:07:40.525	$GPGGA,200741,2424.0855,N,08053.5795,W,1,11,1.3,20,M,,M,,*68
06/15/2015	20:07:41.535	$GPGGA,200742,2424.0857,N,08053.5799,W,1,11,1.3,20,M,,M,,*65
06/15/2015	20:07:42.515	$GPGGA,200743,2424.0858,N,08053.5805,W,1,11,1.3,19,M,,M,,*6B
06/15/2015	20:07:43.555	$GPGGA,200744,2424.0861,N,08053.5809,W,1,11,1.3,19,M,,M,,*6A
06/15/2015	20:07:44.525	$GPGGA,200745,2424.0860,N,08053.5813,W,1,11,1.3,19,M,,M,,*61
06/15/2015	20:07:45.615	$GPGGA,200746,2424.0862,N,08053.5817,W,1,11,1.3,19,M,,M,,*64
06/15/2015	20:07:46.525	$GPGGA,200747,2424.0864,N,08053.5821,W,1,11,1.3,19,M,,M,,*66
06/15/2015	20:07:47.635	$GPGGA,200748,2424.0865,N,08053.5827,W,1,11,1.3,19,M,,M,,*6E
06/15/2015	20:07:48.525	$GPGGA,200749,2424.0865,N,08053.5831,W,1,11,1.3,19,M,,M,,*68
06/15/2015	20:07:49.605	$GPGGA,200750,2424.0868,N,08053.5835,W,1,11,1.3,19,M,,M,,*69
06/15/2015	20:07:50.515	$GPGGA,200751,2424.0869,N,08053.5840,W,1,11,1.3,19,M,,M,,*6B
06/15/2015	20:07:51.535	$GPGGA,200752,2424.0869,N,08053.5843,W,1,11,1.3,19,M,,M,,*6B
06/15/2015	20:07:52.514	$GPGGA,200753,2424.0871,N,08053.5849,W,1,11,1.3,19,M,,M,,*69
06/15/2015	20:07:53.604	$GPGGA,200754,2424.0872,N,08053.5853,W,1,11,1.3,19,M,,M,,*66
06/15/2015	20:07:54.604	$GPGGA,200755,2424.0873,N,08053.5856,W,1,11,1.3,19,M,,M,,*63
06/15/2015	20:07:55.644	$GPGGA,200756,2424.0873,N,08053.5861,W,1,11,1.3,19,M,,M,,*64
06/15/2015	20:07:56.605	$GPGGA,200757,2424.0876,N,08053.5865,W,1,11,1.3,19,M,,M,,*64
06/15/2015	20:07:57.502	$GPGGA,200758,2424.0876,N,08053.5870,W,1,11,1.3,19,M,,M,,*6F
06/15/2015	20:07:58.596	$GPGGA,200759,2424.0878,N,08053.5874,W,1,11,1.3,19,M,,M,,*64
06/15/2015	20:07:59.625	$GPGGA,200800,2424.0877,N,08053.5878,W,1,11,1.3,19,M,,M,,*64
06/15/2015	20:08:00.585	$GPGGA,200801,2424.0879,N,08053.5882,W,1,11,1.3,19,M,,M,,*6E
06/15/2015	20:08:01.605	$GPGGA,200802,2424.0880,N,08053.5886,W,1,11,1.3,19,M,,M,,*6F
06/15/2015	20:08:02.587	$GPGGA,200803,2424.0880,N,08053.5890,W,1,11,1.3,19,M,,M,,*69
06/15/2015	20:08:03.599	$GPGGA,200804,2424.0882,N,08053.5896,W,1,11,1.3,19,M,,M,,*6A
06/15/2015	20:08:04.589	$GPGGA,200805,2424.0883,N,08053.5900,W,1,11,1.3,19,M,,M,,*64
06/15/2015	20:08:05.595	$GPGGA,200806,2424.0883,N,08053.5904,W,1,11,1.3,19,M,,M,,*63
06/15/2015	20:08:06.575	$GPGGA,200807,2424.0883,N,08053.5908,W,1,11,1.3,19,M,,M,,*6E
06/15/2015	20:08:07.605	$GPGGA,200808,2424.0883,N,08053.5912,W,1,11,1.3,19,M,,M,,*6A
06/15/2015	20:08:08.585	$GPGGA,200809,2424.0886,N,08053.5917,W,1,11,1.3,19,M,,M,,*6B
06/15/2015	20:08:09.587	$GPGGA,200810,2424.0887,N,08053.5921,W,1,11,1.3,19,M,,M,,*67
06/15/2015	20:08:10.564	$GPGGA,200811,2424.0887,N,08053.5925,W,1,11,1.3,19,M,,M,,*62
06/15/2015	20:08:11.599	$GPGGA,200812,2424.0887,N,08053.5929,W,1,11,1.3,19,M,,M,,*6D
06/15/2015	20:08:12.564	$GPGGA,200813,2424.0887,N,08053.5933,W,1,11,1.3,19,M,,M,,*67
06/15/2015	20:08:13.554	$GPGGA,200814,2424.0887,N,08053.5937,W,1,11,1.3,19,M,,M,,*64
06/15/2015	20:08:14.565	$GPGGA,200815,2424.0889,N,08053.5940,W,1,11,1.3,19,M,,M,,*6B
06/15/2015	20:08:15.601	$GPGGA,200816,2424.0890,N,08053.5946,W,1,11,1.3,19,M,,M,,*66
06/15/2015	20:08:16.545	$GPGGA,200817,2424.0891,N,08053.5950,W,1,11,1.3,19,M,,M,,*61
06/15/2015	20:08:17.575	$GPGGA,200818,2424.0891,N,08053.5955,W,1,11,1.3,19,M,,M,,*6B
06/15/2015	20:08:18.555	$GPGGA,200819,2424.0893,N,08053.5958,W,1,11,1.4,19,M,,M,,*62
06/15/2015	20:08:19.575	$GPGGA,200820,2424.0894,N,08053.5962,W,1,11,1.3,19,M,,M,,*61
06/15/2015	20:08:20.555	$GPGGA,200821,2424.0894,N,08053.5966,W,1,11,1.3,19,M,,M,,*64
06/15/2015	20:08:21.535	$GPGGA,200822,2424.0894,N,08053.5970,W,1,10,1.4,19,M,,M,,*66
06/15/2015	20:08:22.555	$GPGGA,200823,2424.0896,N,08053.5975,W,1,10,1.3,19,M,,M,,*67
06/15/2015	20:08:24.575	$GPGGA,200825,2424.0898,N,08053.5984,W,1,11,1.3,19,M,,M,,*60
06/15/2015	20:08:25.545	$GPGGA,200826,2424.0900,N,08053.5988,W,1,11,1.3,19,M,,M,,*6F
06/15/2015	20:08:26.535	$GPGGA,200827,2424.0899,N,08053.5993,W,1,11,1.3,19,M,,M,,*65
06/15/2015	20:08:27.574	$GPGGA,200828,2424.0902,N,08053.5997,W,1,10,1.4,19,M,,M,,*6B
06/15/2015	20:08:28.524	$GPGGA,200829,2424.0905,N,08053.6001,W,1,10,1.3,19,M,,M,,*6F
06/15/2015	20:08:29.986	$GPGGA,200830,2424.0908,N,08053.6006,W,1,11,1.3,19,M,,M,,*6C
06/15/2015	20:08:30.534	$GPGGA,200831,2424.0909,N,08053.6011,W,1,11,1.3,19,M,,M,,*6A
06/15/2015	20:08:31.555	$GPGGA,200832,2424.0909,N,08053.6015,W,1,11,1.3,19,M,,M,,*6D
06/15/2015	20:08:32.515	$GPGGA,200833,2424.0912,N,08053.6019,W,1,11,1.3,19,M,,M,,*6A
06/15/2015	20:08:33.535	$GPGGA,200834,2424.0914,N,08053.6024,W,1,11,1.3,19,M,,M,,*65
06/15/2015	20:08:34.525	$GPGGA,200835,2424.0916,N,08053.6029,W,1,11,1.3,19,M,,M,,*6B
06/15/2015	20:08:35.625	$GPGGA,200836,2424.0918,N,08053.6033,W,1,11,1.3,19,M,,M,,*6D
06/15/2015	20:08:36.515	$GPGGA,200837,2424.0919,N,08053.6037,W,1,11,1.3,19,M,,M,,*69
06/15/2015	20:08:37.505	$GPGGA,200838,2424.0920,N,08053.6040,W,1,11,1.3,19,M,,M,,*6C
06/15/2015	20:08:38.525	$GPGGA,200839,2424.0923,N,08053.6045,W,1,11,1.3,19,M,,M,,*6B
06/15/2015	20:08:39.625	$GPGGA,200840,2424.0925,N,08053.6049,W,1,11,1.3,19,M,,M,,*6F
06/15/2015	20:08:40.605	$GPGGA,200841,2424.0927,N,08053.6055,W,1,11,1.3,19,M,,M,,*61
06/15/2015	20:08:41.593	$GPGGA,200842,2424.0927,N,08053.6059,W,1,11,1.3,19,M,,M,,*6E
06/15/2015	20:08:42.605	$GPGGA,200843,2424.0930,N,08053.6063,W,1,11,1.3,19,M,,M,,*60
06/15/2015	20:08:43.635	$GPGGA,200844,2424.0932,N,08053.6067,W,1,11,1.3,19,M,,M,,*61
06/15/2015	20:08:44.504	$GPGGA,200845,2424.0934,N,08053.6071,W,1,11,1.3,19,M,,M,,*61
06/15/2015	20:08:45.594	$GPGGA,200846,2424.0937,N,08053.6076,W,1,11,1.3,19,M,,M,,*66
06/15/2015	20:08:46.594	$GPGGA,200847,2424.0938,N,08053.6080,W,1,11,1.3,19,M,,M,,*61
06/15/2015	20:08:47.594	$GPGGA,200848,2424.0938,N,08053.6085,W,1,11,1.3,19,M,,M,,*6B
06/15/2015	20:08:48.586	$GPGGA,200849,2424.0941,N,08053.6091,W,1,11,1.3,19,M,,M,,*61
06/15/2015	20:08:49.585	$GPGGA,200850,2424.0944,N,08053.6094,W,1,11,1.3,19,M,,M,,*69
06/15/2015	20:08:50.585	$GPGGA,200851,2424.0945,N,08053.6098,W,1,11,1.3,19,M,,M,,*65
06/15/2015	20:08:51.605	$GPGGA,200852,2424.0945,N,08053.6102,W,1,11,1.3,19,M,,M,,*64
06/15/2015	20:08:52.590	$GPGGA,200853,2424.0948,N,08053.6106,W,1,11,1.3,19,M,,M,,*6C
06/15/2015	20:08:53.915	$GPGGA,200854,2424.0951,N,08053.6111,W,1,11,1.3,19,M,,M,,*65
06/15/2015	20:08:54.575	$GPGGA,200855,2424.0952,N,08053.6116,W,1,11,1.3,19,M,,M,,*60
06/15/2015	20:08:55.605	$GPGGA,200856,2424.0952,N,08053.6120,W,1,11,1.3,19,M,,M,,*66
06/15/2015	20:08:56.575	$GPGGA,200857,2424.0955,N,08053.6124,W,1,11,1.3,19,M,,M,,*64
06/15/2015	20:08:57.555	$GPGGA,200858,2424.0956,N,08053.6128,W,1,11,1.3,19,M,,M,,*64
06/15/2015	20:08:58.565	$GPGGA,200859,2424.0959,N,08053.6134,W,1,11,1.3,19,M,,M,,*67
06/15/2015	20:08:59.615	$GPGGA,200900,2424.0961,N,08053.6138,W,1,11,1.3,19,M,,M,,*6D
06/15/2015	20:09:00.565	$GPGGA,200901,2424.0962,N,08053.6142,W,1,11,1.3,19,M,,M,,*62
06/15/2015	20:09:01.555	$GPGGA,200902,2424.0963,N,08053.6146,W,1,11,1.3,19,M,,M,,*64
06/15/2015	20:09:02.554	$GPGGA,200903,2424.0966,N,08053.6152,W,1,11,1.3,19,M,,M,,*65
06/15/2015	20:09:03.564	$GPGGA,200904,2424.0966,N,08053.6156,W,1,11,1.3,19,M,,M,,*66
06/15/2015	20:09:04.564	$GPGGA,200905,2424.0966,N,08053.6160,W,1,11,1.4,19,M,,M,,*65
06/15/2015	20:09:05.574	$GPGGA,200906,2424.0967,N,08053.6163,W,1,10,1.4,19,M,,M,,*65
06/15/2015	20:09:06.565	$GPGGA,200907,2424.0969,N,08053.6167,W,1,10,1.4,19,M,,M,,*6E
06/15/2015	20:09:07.555	$GPGGA,200908,2424.0970,N,08053.6171,W,1,10,1.4,19,M,,M,,*6E
06/15/2015	20:09:08.545	$GPGGA,200909,2424.0970,N,08053.6175,W,1,10,1.4,19,M,,M,,*6B
06/15/2015	20:09:09.575	$GPGGA,200910,2424.0970,N,08053.6179,W,1,10,1.4,19,M,,M,,*6F
06/15/2015	20:09:10.555	$GPGGA,200911,2424.0973,N,08053.6183,W,1,10,1.4,19,M,,M,,*68
06/15/2015	20:09:11.545	$GPGGA,200912,2424.0974,N,08053.6188,W,1,10,1.4,19,M,,M,,*67
06/15/2015	20:09:12.545	$GPGGA,200913,2424.0974,N,08053.6192,W,1,10,1.4,19,M,,M,,*6D
06/15/2015	20:09:13.565	$GPGGA,200914,2424.0974,N,08053.6196,W,1,10,1.4,18,M,,M,,*6F
06/15/2015	20:09:14.545	$GPGGA,200915,2424.0977,N,08053.6199,W,1,10,1.4,18,M,,M,,*62
06/15/2015	20:09:15.545	$GPGGA,200916,2424.0977,N,08053.6203,W,1,10,1.4,18,M,,M,,*61
06/15/2015	20:09:16.545	$GPGGA,200917,2424.0977,N,08053.6207,W,1,10,1.4,18,M,,M,,*64
06/15/2015	20:09:17.555	$GPGGA,200918,2424.0980,N,08053.6211,W,1,10,1.4,18,M,,M,,*64
06/15/2015	20:09:18.635	$GPGGA,200919,2424.0981,N,08053.6217,W,1,10,1.4,18,M,,M,,*62
06/15/2015	20:09:19.534	$GPGGA,200920,2424.0983,N,08053.6219,W,1,10,1.4,18,M,,M,,*64
06/15/2015	20:09:20.514	$GPGGA,200921,2424.0984,N,08053.6223,W,1,10,1.4,18,M,,M,,*6B
06/15/2015	20:09:21.514	$GPGGA,200922,2424.0985,N,08053.6228,W,1,10,1.4,18,M,,M,,*62
06/15/2015	20:09:23.589	$GPGGA,200924,2424.0986,N,08053.6236,W,1,10,1.4,17,M,,M,,*67
06/15/2015	20:09:24.625	$GPGGA,200925,2424.0988,N,08053.6239,W,1,10,1.4,17,M,,M,,*67
06/15/2015	20:09:25.605	$GPGGA,200926,2424.0991,N,08053.6243,W,1,10,1.4,17,M,,M,,*61
06/15/2015	20:09:26.605	$GPGGA,200927,2424.0989,N,08053.6248,W,1,10,1.4,17,M,,M,,*62
06/15/2015	20:09:27.615	$GPGGA,200928,2424.0991,N,08053.6253,W,1,10,1.4,17,M,,M,,*6E
06/15/2015	20:09:28.525	$GPGGA,200929,2424.0994,N,08053.6257,W,1,10,1.4,17,M,,M,,*6E
06/15/2015	20:09:29.499	$GPGGA,200930,2424.0993,N,08053.6261,W,1,10,1.4,17,M,,M,,*64
06/15/2015	20:09:30.604	$GPGGA,200931,2424.0995,N,08053.6264,W,1,10,1.4,17,M,,M,,*66
06/15/2015	20:09:31.605	$GPGGA,200932,2424.0995,N,08053.6268,W,1,10,1.4,17,M,,M,,*69
06/15/2015	20:09:33.035	$GPGGA,200933,2424.0997,N,08053.6272,W,1,10,1.4,17,M,,M,,*61
06/15/2015	20:09:33.597	$GPGGA,200934,2424.0998,N,08053.6275,W,1,10,1.4,17,M,,M,,*6E
06/15/2015	20:09:34.489	$GPGGA,200935,2424.0999,N,08053.6279,W,1,10,1.4,17,M,,M,,*62
06/15/2015	20:09:35.665	$GPGGA,200936,2424.0999,N,08053.6283,W,1,10,1.4,16,M,,M,,*65
06/15/2015	20:09:36.586	$GPGGA,200937,2424.1002,N,08053.6286,W,1,10,1.4,16,M,,M,,*6B
06/15/2015	20:09:37.598	$GPGGA,200938,2424.1003,N,08053.6290,W,1,10,1.4,16,M,,M,,*62
06/15/2015	20:09:38.587	$GPGGA,200939,2424.1003,N,08053.6293,W,1,10,1.4,16,M,,M,,*60
06/15/2015	20:09:39.624	$GPGGA,200940,2424.1005,N,08053.6297,W,1,10,1.4,16,M,,M,,*6C
06/15/2015	20:09:40.574	$GPGGA,200941,2424.1006,N,08053.6301,W,1,10,1.4,16,M,,M,,*60
06/15/2015	20:09:41.605	$GPGGA,200942,2424.1006,N,08053.6304,W,1,10,1.4,16,M,,M,,*66
06/15/2015	20:09:42.575	$GPGGA,200943,2424.1009,N,08053.6308,W,1,10,1.4,16,M,,M,,*64
06/15/2015	20:09:43.601	$GPGGA,200944,2424.1010,N,08053.6311,W,1,10,1.4,16,M,,M,,*63
06/15/2015	20:09:44.575	$GPGGA,200945,2424.1010,N,08053.6315,W,1,10,1.4,16,M,,M,,*66
06/15/2015	20:09:45.589	$GPGGA,200946,2424.1012,N,08053.6318,W,1,10,1.4,16,M,,M,,*6A
06/15/2015	20:09:46.575	$GPGGA,200947,2424.1013,N,08053.6320,W,1,10,1.4,16,M,,M,,*61
06/15/2015	20:09:47.605	$GPGGA,200948,2424.1014,N,08053.6324,W,1,10,1.4,16,M,,M,,*6D
06/15/2015	20:09:48.555	$GPGGA,200949,2424.1016,N,08053.6327,W,1,10,1.4,16,M,,M,,*6D
06/15/2015	20:09:49.555	$GPGGA,200950,2424.1015,N,08053.6330,W,1,10,1.4,16,M,,M,,*60
06/15/2015	20:09:50.555	$GPGGA,200951,2424.1017,N,08053.6334,W,1,10,1.4,16,M,,M,,*67
06/15/2015	20:09:51.625	$GPGGA,200952,2424.1019,N,08053.6338,W,1,10,1.4,15,M,,M,,*65
06/15/2015	20:09:52.545	$GPGGA,200953,2424.1020,N,08053.6341,W,1,10,1.4,15,M,,M,,*60
06/15/2015	20:09:53.535	$GPGGA,200954,2424.1021,N,08053.6344,W,1,10,1.4,15,M,,M,,*63
06/15/2015	20:09:54.544	$GPGGA,200955,2424.1021,N,08053.6348,W,1,10,1.4,15,M,,M,,*6E
06/15/2015	20:09:55.601	$GPGGA,200956,2424.1023,N,08053.6352,W,1,10,1.4,15,M,,M,,*64
06/15/2015	20:09:56.544	$GPGGA,200957,2424.1024,N,08053.6356,W,1,10,1.4,15,M,,M,,*66
06/15/2015	20:09:57.565	$GPGGA,200958,2424.1026,N,08053.6359,W,1,10,1.4,15,M,,M,,*64
06/15/2015	20:09:58.544	$GPGGA,200959,2424.1028,N,08053.6363,W,1,10,1.4,15,M,,M,,*62
06/15/2015	20:09:59.591	$GPGGA,201000,2424.1028,N,08053.6366,W,1,10,1.4,15,M,,M,,*63
06/15/2015	20:10:00.535	$GPGGA,201001,2424.1028,N,08053.6370,W,1,10,1.4,15,M,,M,,*65
06/15/2015	20:10:01.556	$GPGGA,201002,2424.1030,N,08053.6373,W,1,10,1.4,15,M,,M,,*6C
06/15/2015	20:10:02.535	$GPGGA,201003,2424.1031,N,08053.6377,W,1,10,1.4,15,M,,M,,*68
06/15/2015	20:10:03.555	$GPGGA,201004,2424.1031,N,08053.6380,W,1,10,1.4,15,M,,M,,*67
06/15/2015	20:10:04.525	$GPGGA,201005,2424.1034,N,08053.6384,W,1,10,1.4,15,M,,M,,*67
06/15/2015	20:10:05.545	$GPGGA,201006,2424.1035,N,08053.6387,W,1,10,1.4,15,M,,M,,*66
06/15/2015	20:10:06.525	$GPGGA,201007,2424.1035,N,08053.6391,W,1,10,1.4,15,M,,M,,*60
06/15/2015	20:10:07.565	$GPGGA,201008,2424.1037,N,08053.6394,W,1,10,1.4,15,M,,M,,*68
06/15/2015	20:10:08.515	$GPGGA,201009,2424.1039,N,08053.6396,W,1,10,1.4,15,M,,M,,*65
06/15/2015	20:10:09.535	$GPGGA,201010,2424.1041,N,08053.6400,W,1,10,1.4,15,M,,M,,*6A
06/15/2015	20:10:10.625	$GPGGA,201011,2424.1042,N,08053.6403,W,1,10,1.4,15,M,,M,,*6B
06/15/2015	20:10:11.545	$GPGGA,201012,2424.1044,N,08053.6406,W,1,10,1.4,15,M,,M,,*6B
06/15/2015	20:10:12.524	$GPGGA,201013,2424.1043,N,08053.6409,W,1,10,1.4,15,M,,M,,*62
06/15/2015	20:10:13.506	$GPGGA,201014,2424.1046,N,08053.6413,W,1,10,1.4,15,M,,M,,*6B
06/15/2015	20:10:14.514	$GPGGA,201015,2424.1048,N,08053.6416,W,1,10,1.4,15,M,,M,,*61
06/15/2015	20:10:15.554	$GPGGA,201016,2424.1049,N,08053.6420,W,1,10,1.4,15,M,,M,,*66
06/15/2015	20:10:16.515	$GPGGA,201017,2424.1050,N,08053.6423,W,1,10,1.4,15,M,,M,,*6C
06/15/2015	20:10:17.587	$GPGGA,201018,2424.1052,N,08053.6425,W,1,10,1.4,15,M,,M,,*67
06/15/2015	20:10:18.599	$GPGGA,201019,2424.1055,N,08053.6428,W,1,10,1.4,15,M,,M,,*6C
06/15/2015	20:10:19.598	$GPGGA,201020,2424.1057,N,08053.6432,W,1,10,1.4,15,M,,M,,*6F
06/15/2015	20:10:20.592	$GPGGA,201021,2424.1057,N,08053.6436,W,1,10,1.4,15,M,,M,,*6A
06/15/2015	20:10:21.605	$GPGGA,201022,2424.1060,N,08053.6439,W,1,10,1.4,15,M,,M,,*62
06/15/2015	20:10:22.586	$GPGGA,201023,2424.1061,N,08053.6443,W,1,10,1.4,15,M,,M,,*6F
06/15/2015	20:10:23.585	$GPGGA,201024,2424.1064,N,08053.6447,W,1,10,1.4,15,M,,M,,*69
06/15/2015	20:10:24.586	$GPGGA,201025,2424.1064,N,08053.6452,W,1,10,1.4,15,M,,M,,*6C
06/15/2015	20:10:25.575	$GPGGA,201026,2424.1067,N,08053.6456,W,1,10,1.4,15,M,,M,,*68
06/15/2015	20:10:26.575	$GPGGA,201027,2424.1068,N,08053.6460,W,1,10,1.4,15,M,,M,,*63
06/15/2015	20:10:27.588	$GPGGA,201028,2424.1071,N,08053.6464,W,1,10,1.4,15,M,,M,,*60
06/15/2015	20:10:28.586	$GPGGA,201029,2424.1073,N,08053.6470,W,1,10,1.4,15,M,,M,,*66
06/15/2015	20:10:29.594	$GPGGA,201030,2424.1075,N,08053.6474,W,1,10,1.4,15,M,,M,,*6C
06/15/2015	20:10:30.574	$GPGGA,201031,2424.1075,N,08053.6478,W,1,10,1.4,15,M,,M,,*61
06/15/2015	20:10:31.587	$GPGGA,201032,2424.1078,N,08053.6483,W,1,10,1.4,15,M,,M,,*6B
06/15/2015	20:10:32.554	$GPGGA,201033,2424.1081,N,08053.6489,W,1,10,1.4,15,M,,M,,*66
06/15/2015	20:10:33.587	$GPGGA,201034,2424.1082,N,08053.6495,W,1,10,1.4,15,M,,M,,*6F
06/15/2015	20:10:34.555	$GPGGA,201035,2424.1084,N,08053.6499,W,1,10,1.4,15,M,,M,,*64
06/15/2015	20:10:35.585	$GPGGA,201036,2424.1085,N,08053.6506,W,1,10,1.4,15,M,,M,,*61
06/15/2015	20:10:36.555	$GPGGA,201037,2424.1088,N,08053.6510,W,1,10,1.4,15,M,,M,,*6A
06/15/2015	20:10:37.575	$GPGGA,201038,2424.1089,N,08053.6515,W,1,10,1.4,15,M,,M,,*61
06/15/2015	20:10:38.545	$GPGGA,201039,2424.1089,N,08053.6521,W,1,10,1.4,15,M,,M,,*67
06/15/2015	20:10:39.588	$GPGGA,201040,2424.1091,N,08053.6528,W,1,10,1.4,15,M,,M,,*69
06/15/2015	20:10:40.545	$GPGGA,201041,2424.1093,N,08053.6533,W,1,10,1.4,15,M,,M,,*60
06/15/2015	20:10:41.565	$GPGGA,201042,2424.1093,N,08053.6539,W,1,10,1.4,15,M,,M,,*69
06/15/2015	20:10:42.545	$GPGGA,201043,2424.1095,N,08053.6546,W,1,10,1.4,15,M,,M,,*66
06/15/2015	20:10:43.585	$GPGGA,201044,2424.1096,N,08053.6551,W,1,10,1.4,15,M,,M,,*64
06/15/2015	20:10:44.545	$GPGGA,201045,2424.1097,N,08053.6557,W,1,10,1.4,15,M,,M,,*62
06/15/2015	20:10:45.525	$GPGGA,201046,2424.1099,N,08053.6564,W,1,10,1.4,15,M,,M,,*6F
06/15/2015	20:10:46.535	$GPGGA,201047,2424.1100,N,08053.6569,W,1,10,1.4,15,M,,M,,*62
06/15/2015	20:10:47.544	$GPGGA,201048,2424.1103,N,08053.6576,W,1,10,1.4,15,M,,M,,*60
06/15/2015	20:10:48.534	$GPGGA,201049,2424.1104,N,08053.6583,W,1,10,1.4,15,M,,M,,*6C
06/15/2015	20:10:49.554	$GPGGA,201050,2424.1104,N,08053.6590,W,1,10,1.4,15,M,,M,,*66
06/15/2015	20:10:50.524	$GPGGA,201051,2424.1106,N,08053.6597,W,1,10,1.4,15,M,,M,,*62
06/15/2015	20:10:51.535	$GPGGA,201052,2424.1107,N,08053.6604,W,1,10,1.4,15,M,,M,,*69
06/15/2015	20:10:52.615	$GPGGA,201053,2424.1107,N,08053.6611,W,1,10,1.4,15,M,,M,,*6C
06/15/2015	20:10:53.525	$GPGGA,201054,2424.1109,N,08053.6618,W,1,10,1.4,15,M,,M,,*6C
06/15/2015	20:10:54.525	$GPGGA,201055,2424.1110,N,08053.6626,W,1,10,1.4,15,M,,M,,*68
06/15/2015	20:10:55.555	$GPGGA,201056,2424.1111,N,08053.6633,W,1,10,1.4,15,M,,M,,*6E
06/15/2015	20:10:56.525	$GPGGA,201057,2424.1111,N,08053.6640,W,1,10,1.4,15,M,,M,,*6B
06/15/2015	20:10:57.625	$GPGGA,201058,2424.1114,N,08053.6647,W,1,10,1.4,15,M,,M,,*66
06/15/2015	20:10:58.515	$GPGGA,201059,2424.1113,N,08053.6655,W,1,10,1.4,15,M,,M,,*63
06/15/2015	20:10:59.565	$GPGGA,201100,2424.1114,N,08053.6662,W,1,10,1.4,15,M,,M,,*6D
06/15/2015	20:11:00.505	$GPGGA,201101,2424.1115,N,08053.6669,W,1,10,1.4,15,M,,M,,*66
06/15/2015	20:11:01.515	$GPGGA,201102,2424.1115,N,08053.6676,W,1,10,1.4,15,M,,M,,*6B
06/15/2015	20:11:02.598	$GPGGA,201103,2424.1117,N,08053.6684,W,1,10,1.4,15,M,,M,,*65
06/15/2015	20:11:03.605	$GPGGA,201104,2424.1116,N,08053.6691,W,1,10,1.4,15,M,,M,,*67
06/15/2015	20:11:04.601	$GPGGA,201105,2424.1118,N,08053.6698,W,1,10,1.4,15,M,,M,,*61
06/15/2015	20:11:05.634	$GPGGA,201106,2424.1117,N,08053.6706,W,1,10,1.4,15,M,,M,,*6B
06/15/2015	20:11:06.584	$GPGGA,201107,2424.1118,N,08053.6714,W,1,10,1.4,15,M,,M,,*66
06/15/2015	20:11:07.614	$GPGGA,201108,2424.1118,N,08053.6723,W,1,10,1.4,15,M,,M,,*6D
06/15/2015	20:11:08.584	$GPGGA,201109,2424.1118,N,08053.6730,W,1,10,1.4,15,M,,M,,*6E
06/15/2015	20:11:09.605	$GPGGA,201110,2424.1120,N,08053.6736,W,1,10,1.4,15,M,,M,,*6B
06/15/2015	20:11:10.586	$GPGGA,201111,2424.1121,N,08053.6745,W,1,10,1.4,15,M,,M,,*6F
06/15/2015	20:11:11.586	$GPGGA,201112,2424.1122,N,08053.6752,W,1,10,1.4,15,M,,M,,*69
06/15/2015	20:11:12.587	$GPGGA,201113,2424.1122,N,08053.6760,W,1,10,1.4,15,M,,M,,*69
06/15/2015	20:11:13.566	$GPGGA,201114,2424.1122,N,08053.6768,W,1,10,1.4,15,M,,M,,*66
06/15/2015	20:11:14.575	$GPGGA,201115,2424.1122,N,08053.6775,W,1,10,1.4,15,M,,M,,*6B
06/15/2015	20:11:15.595	$GPGGA,201116,2424.1124,N,08053.6782,W,1,10,1.4,15,M,,M,,*66
06/15/2015	20:11:16.565	$GPGGA,201117,2424.1125,N,08053.6790,W,1,10,1.4,15,M,,M,,*65
06/15/2015	20:11:17.575	$GPGGA,201118,2424.1125,N,08053.6799,W,1,10,1.4,15,M,,M,,*63
06/15/2015	20:11:18.555	$GPGGA,201119,2424.1126,N,08053.6806,W,1,10,1.4,15,M,,M,,*68
06/15/2015	20:11:19.605	$GPGGA,201120,2424.1126,N,08053.6814,W,1,10,1.4,15,M,,M,,*61
06/15/2015	20:11:20.565	$GPGGA,201121,2424.1128,N,08053.6821,W,1,10,1.4,15,M,,M,,*68
06/15/2015	20:11:21.575	$GPGGA,201122,2424.1129,N,08053.6828,W,1,10,1.4,15,M,,M,,*63
06/15/2015	20:11:22.554	$GPGGA,201123,2424.1129,N,08053.6836,W,1,10,1.4,15,M,,M,,*6D
06/15/2015	20:11:23.587	$GPGGA,201124,2424.1129,N,08053.6844,W,1,10,1.4,15,M,,M,,*6F
06/15/2015	20:11:24.554	$GPGGA,201125,2424.1131,N,08053.6851,W,1,10,1.4,15,M,,M,,*63
06/15/2015	20:11:25.864	$GPGGA,201126,2424.1130,N,08053.6860,W,1,10,1.4,15,M,,M,,*63
06/15/2015	20:11:26.555	$GPGGA,201127,2424.1132,N,08053.6868,W,1,10,1.4,15,M,,M,,*68
06/15/2015	20:11:27.586	$GPGGA,201128,2424.1133,N,08053.6875,W,1,10,1.4,15,M,,M,,*6A
06/15/2015	20:11:28.535	$GPGGA,201129,2424.1133,N,08053.6883,W,1,10,1.4,15,M,,M,,*62
06/15/2015	20:11:29.545	$GPGGA,201130,2424.1135,N,08053.6891,W,1,10,1.4,15,M,,M,,*6F
06/15/2015	20:11:30.555	$GPGGA,201131,2424.1136,N,08053.6900,W,1,10,1.4,15,M,,M,,*64
06/15/2015	20:11:31.575	$GPGGA,201132,2424.1139,N,08053.6908,W,1,10,1.4,15,M,,M,,*60
06/15/2015	20:11:32.545	$GPGGA,201133,2424.1140,N,08053.6918,W,1,10,1.4,15,M,,M,,*6E
06/15/2015	20:11:33.535	$GPGGA,201134,2424.1140,N,08053.6926,W,1,10,1.4,15,M,,M,,*64
06/15/2015	20:11:34.525	$GPGGA,201135,2424.1142,N,08053.6934,W,1,10,1.4,15,M,,M,,*64
06/15/2015	20:11:35.575	$GPGGA,201136,2424.1143,N,08053.6944,W,1,10,1.4,15,M,,M,,*61
06/15/2015	20:11:36.525	$GPGGA,201137,2424.1146,N,08053.6951,W,1,10,1.4,15,M,,M,,*61
06/15/2015	20:11:37.675	$GPGGA,201138,2424.1147,N,08053.6960,W,1,10,1.4,15,M,,M,,*6D
06/15/2015	20:11:38.515	$GPGGA,201139,2424.1151,N,08053.6969,W,1,10,1.4,15,M,,M,,*62
06/15/2015	20:11:39.544	$GPGGA,201140,2424.1153,N,08053.6976,W,1,9,1.7,15,M,,M,,*5B
06/15/2015	20:11:40.524	$GPGGA,201141,2424.1156,N,08053.6984,W,1,9,1.4,15,M,,M,,*51
06/15/2015	20:11:41.514	$GPGGA,201142,2424.1158,N,08053.6992,W,1,10,1.4,15,M,,M,,*63
06/15/2015	20:11:42.624	$GPGGA,201143,2424.1161,N,08053.7001,W,1,10,1.4,15,M,,M,,*6A
06/15/2015	20:11:43.614	$GPGGA,201144,2424.1164,N,08053.7009,W,1,10,1.4,15,M,,M,,*60
06/15/2015	20:11:44.505	$GPGGA,201145,2424.1165,N,08053.7019,W,1,10,1.4,15,M,,M,,*61
06/15/2015	20:11:45.615	$GPGGA,201146,2424.1169,N,08053.7027,W,1,10,1.4,15,M,,M,,*63
