Software Version Number: 1	Data File Format Number: 1	Build Version Number: 1	Error Count Since VI Started: 3	Manufacturer: Raytheon	 Model Number: RayMarine 120	 S/N: 	 Cal Date: 	 Wind Direction Offset: 0.00	 Slope (M)1: 0.00	 Offset (B)1: 0.00	 Slope (M)2: 0.00	 Offset (B)2: 0.00	 Slope (M)3: 0.00	 Offset (B)3: 0.00	 Slope (M)4: 0.00	 Offset (B)4: 0.00	 Slope (M)5: 0.00	 Offset (B)5: 0.00	 Slope (M)6: 0.00	 Offset (B)6: 0.00
Computer Date	Computer Time	GGA String
06/25/2015	17:00:00.538	$GPGGA,170001,2538.6714,N,07950.7721,W,1,10,1.6,15,M,,M,,*65
06/25/2015	17:00:01.559	$GPGGA,170002,2538.6736,N,07950.7742,W,1,10,1.6,15,M,,M,,*63
06/25/2015	17:00:02.553	$GPGGA,170003,2538.6758,N,07950.7767,W,1,10,1.6,15,M,,M,,*6D
06/25/2015	17:00:03.579	$GPGGA,170004,2538.6779,N,07950.7790,W,1,9,2.4,15,M,,M,,*58
06/25/2015	17:00:04.550	$GPGGA,170005,2538.6801,N,07950.7811,W,1,9,2.4,15,M,,M,,*5F
06/25/2015	17:00:05.555	$GPGGA,170006,2538.6823,N,07950.7836,W,1,10,1.6,15,M,,M,,*60
06/25/2015	17:00:06.538	$GPGGA,170007,2538.6844,N,07950.7855,W,1,10,2.4,15,M,,M,,*64
06/25/2015	17:00:07.561	$GPGGA,170008,2538.6866,N,07950.7879,W,1,10,1.6,15,M,,M,,*64
06/25/2015	17:00:08.538	$GPGGA,170009,2538.6890,N,07950.7905,W,1,10,2.4,15,M,,M,,*67
06/25/2015	17:00:09.538	$GPGGA,170010,2538.6912,N,07950.7926,W,1,10,1.6,15,M,,M,,*64
06/25/2015	17:00:10.528	$GPGGA,170011,2538.6933,N,07950.7948,W,1,10,1.6,15,M,,M,,*6E
06/25/2015	17:00:11.550	$GPGGA,170012,2538.6955,N,07950.7970,W,1,10,1.6,15,M,,M,,*66
06/25/2015	17:00:12.518	$GPGGA,170013,2538.6977,N,07950.7992,W,1,10,1.6,15,M,,M,,*6B
06/25/2015	17:00:13.528	$GPGGA,170014,2538.6999,N,07950.8014,W,1,10,1.6,15,M,,M,,*64
06/25/2015	17:00:14.528	$GPGGA,170015,2538.7021,N,07950.8036,W,1,10,1.6,15,M,,M,,*6E
06/25/2015	17:00:15.528	$GPGGA,170016,2538.7043,N,07950.8058,W,1,10,1.6,15,M,,M,,*61
06/25/2015	17:00:16.528	$GPGGA,170017,2538.7065,N,07950.8082,W,1,10,1.6,15,M,,M,,*63
06/25/2015	17:00:17.508	$GPGGA,170018,2538.7087,N,07950.8107,W,1,9,2.4,15,M,,M,,*55
06/25/2015	17:00:18.518	$GPGGA,170019,2538.7110,N,07950.8129,W,1,9,2.4,15,M,,M,,*57
06/25/2015	17:00:19.548	$GPGGA,170020,2538.7133,N,07950.8154,W,1,9,2.4,15,M,,M,,*56
06/25/2015	17:00:20.989	$GPGGA,170021,2538.7155,N,07950.8176,W,1,9,2.4,15,M,,M,,*57
06/25/2015	17:00:21.509	$GPGGA,170022,2538.7177,N,07950.8197,W,1,10,1.6,15,M,,M,,*62
06/25/2015	17:00:22.499	$GPGGA,170023,2538.7198,N,07950.8215,W,1,10,1.6,15,M,,M,,*6B
06/25/2015	17:00:23.528	$GPGGA,170024,2538.7222,N,07950.8238,W,1,10,1.6,15,M,,M,,*61
06/25/2015	17:00:24.488	$GPGGA,170025,2538.7245,N,07950.8262,W,1,10,2.4,15,M,,M,,*6F
06/25/2015	17:00:25.508	$GPGGA,170026,2538.7267,N,07950.8280,W,1,9,2.4,15,M,,M,,*58
06/25/2015	17:00:26.578	$GPGGA,170027,2538.7289,N,07950.8302,W,1,9,1.6,15,M,,M,,*53
06/25/2015	17:00:27.608	$GPGGA,170028,2538.7313,N,07950.8325,W,1,10,1.6,15,M,,M,,*63
06/25/2015	17:00:28.498	$GPGGA,170029,2538.7336,N,07950.8349,W,1,10,2.4,15,M,,M,,*6E
06/25/2015	17:00:29.578	$GPGGA,170030,2538.7360,N,07950.8371,W,1,9,2.4,15,M,,M,,*56
06/25/2015	17:00:30.478	$GPGGA,170031,2538.7382,N,07950.8396,W,1,9,2.4,15,M,,M,,*52
06/25/2015	17:00:31.588	$GPGGA,170032,2538.7406,N,07950.8418,W,1,9,2.4,15,M,,M,,*5B
06/25/2015	17:00:32.578	$GPGGA,170033,2538.7429,N,07950.8441,W,1,9,2.4,15,M,,M,,*5B
06/25/2015	17:00:33.598	$GPGGA,170034,2538.7451,N,07950.8465,W,1,9,2.4,15,M,,M,,*55
06/25/2015	17:00:34.578	$GPGGA,170035,2538.7475,N,07950.8487,W,1,9,2.4,14,M,,M,,*5F
06/25/2015	17:00:35.618	$GPGGA,170036,2538.7498,N,07950.8511,W,1,9,2.4,14,M,,M,,*51
06/25/2015	17:00:36.568	$GPGGA,170037,2538.7522,N,07950.8533,W,1,9,2.4,14,M,,M,,*50
06/25/2015	17:00:37.568	$GPGGA,170038,2538.7545,N,07950.8555,W,1,9,2.4,14,M,,M,,*5E
06/25/2015	17:00:38.569	$GPGGA,170039,2538.7569,N,07950.8577,W,1,9,2.4,14,M,,M,,*51
06/25/2015	17:00:39.599	$GPGGA,170040,2538.7592,N,07950.8598,W,1,10,1.6,14,M,,M,,*63
06/25/2015	17:00:40.568	$GPGGA,170041,2538.7614,N,07950.8618,W,1,10,1.6,13,M,,M,,*63
06/25/2015	17:00:41.562	$GPGGA,170042,2538.7638,N,07950.8642,W,1,10,1.6,13,M,,M,,*61
06/25/2015	17:00:42.561	$GPGGA,170043,2538.7661,N,07950.8663,W,1,10,2.5,13,M,,M,,*6F
06/25/2015	17:00:43.608	$GPGGA,170044,2538.7685,N,07950.8685,W,1,9,2.5,13,M,,M,,*52
06/25/2015	17:00:44.559	$GPGGA,170045,2538.7708,N,07950.8708,W,1,9,2.5,13,M,,M,,*53
06/25/2015	17:00:45.538	$GPGGA,170046,2538.7730,N,07950.8730,W,1,10,1.6,13,M,,M,,*68
06/25/2015	17:00:46.538	$GPGGA,170047,2538.7751,N,07950.8754,W,1,10,1.9,13,M,,M,,*63
06/25/2015	17:00:47.578	$GPGGA,170048,2538.7773,N,07950.8775,W,1,10,1.6,13,M,,M,,*60
06/25/2015	17:00:48.558	$GPGGA,170049,2538.7797,N,07950.8797,W,1,10,1.6,13,M,,M,,*67
06/25/2015	17:00:49.565	$GPGGA,170050,2538.7818,N,07950.8818,W,1,10,1.6,13,M,,M,,*6F
06/25/2015	17:00:50.548	$GPGGA,170051,2538.7840,N,07950.8838,W,1,10,1.6,13,M,,M,,*61
06/25/2015	17:00:51.569	$GPGGA,170052,2538.7863,N,07950.8859,W,1,10,1.6,13,M,,M,,*64
06/25/2015	17:00:52.554	$GPGGA,170053,2538.7885,N,07950.8880,W,1,10,1.6,13,M,,M,,*69
06/25/2015	17:00:53.528	$GPGGA,170054,2538.7906,N,07950.8902,W,1,10,1.6,14,M,,M,,*68
06/25/2015	17:00:54.538	$GPGGA,170055,2538.7930,N,07950.8927,W,1,10,1.6,14,M,,M,,*6B
06/25/2015	17:00:55.566	$GPGGA,170056,2538.7953,N,07950.8949,W,1,9,2.5,14,M,,M,,*5D
06/25/2015	17:00:56.539	$GPGGA,170057,2538.7975,N,07950.8970,W,1,9,1.6,15,M,,M,,*53
06/25/2015	17:00:57.519	$GPGGA,170058,2538.7997,N,07950.8992,W,1,10,1.6,15,M,,M,,*64
06/25/2015	17:00:58.528	$GPGGA,170059,2538.8019,N,07950.9012,W,1,10,1.6,15,M,,M,,*65
06/25/2015	17:00:59.551	$GPGGA,170100,2538.8042,N,07950.9035,W,1,10,1.6,15,M,,M,,*63
06/25/2015	17:01:00.518	$GPGGA,170101,2538.8065,N,07950.9057,W,1,10,1.6,15,M,,M,,*63
06/25/2015	17:01:01.551	$GPGGA,170102,2538.8087,N,07950.9080,W,1,10,1.6,15,M,,M,,*66
06/25/2015	17:01:02.528	$GPGGA,170103,2538.8109,N,07950.9100,W,1,10,2.5,16,M,,M,,*6A
06/25/2015	17:01:03.528	$GPGGA,170104,2538.8131,N,07950.9122,W,1,10,1.6,16,M,,M,,*66
06/25/2015	17:01:04.508	$GPGGA,170105,2538.8155,N,07950.9144,W,1,10,1.6,16,M,,M,,*65
06/25/2015	17:01:05.508	$GPGGA,170106,2538.8177,N,07950.9165,W,1,10,1.6,16,M,,M,,*65
06/25/2015	17:01:06.618	$GPGGA,170107,2538.8199,N,07950.9188,W,1,10,1.6,16,M,,M,,*67
06/25/2015	17:01:07.508	$GPGGA,170108,2538.8221,N,07950.9212,W,1,9,2.5,17,M,,M,,*51
06/25/2015	17:01:08.598	$GPGGA,170109,2538.8245,N,07950.9234,W,1,9,1.6,17,M,,M,,*56
06/25/2015	17:01:09.498	$GPGGA,170110,2538.8267,N,07950.9257,W,1,10,1.6,17,M,,M,,*63
06/25/2015	17:01:10.598	$GPGGA,170111,2538.8289,N,07950.9281,W,1,10,1.6,17,M,,M,,*69
06/25/2015	17:01:11.598	$GPGGA,170112,2538.8311,N,07950.9303,W,1,10,1.6,17,M,,M,,*61
06/25/2015	17:01:12.498	$GPGGA,170113,2538.8333,N,07950.9326,W,1,10,1.6,17,M,,M,,*67
06/25/2015	17:01:13.599	$GPGGA,170114,2538.8355,N,07950.9350,W,1,10,1.6,17,M,,M,,*61
06/25/2015	17:01:14.499	$GPGGA,170115,2538.8378,N,07950.9372,W,1,10,1.6,17,M,,M,,*6F
06/25/2015	17:01:15.609	$GPGGA,170116,2538.8400,N,07950.9395,W,1,10,1.6,17,M,,M,,*6D
06/25/2015	17:01:16.488	$GPGGA,170117,2538.8422,N,07950.9418,W,1,10,1.6,17,M,,M,,*6E
06/25/2015	17:01:17.578	$GPGGA,170118,2538.8443,N,07950.9440,W,1,10,1.6,17,M,,M,,*6B
06/25/2015	17:01:18.498	$GPGGA,170119,2538.8465,N,07950.9462,W,1,10,1.6,17,M,,M,,*6E
06/25/2015	17:01:19.588	$GPGGA,170120,2538.8485,N,07950.9484,W,1,9,2.5,17,M,,M,,*5A
06/25/2015	17:01:20.588	$GPGGA,170121,2538.8506,N,07950.9505,W,1,9,1.6,17,M,,M,,*59
06/25/2015	17:01:21.478	$GPGGA,170122,2538.8528,N,07950.9527,W,1,10,1.6,17,M,,M,,*6E
06/25/2015	17:01:22.568	$GPGGA,170123,2538.8550,N,07950.9548,W,1,10,1.6,17,M,,M,,*69
06/25/2015	17:01:23.578	$GPGGA,170124,2538.8573,N,07950.9570,W,1,10,1.6,17,M,,M,,*64
06/25/2015	17:01:24.578	$GPGGA,170125,2538.8595,N,07950.9592,W,1,10,1.6,17,M,,M,,*61
06/25/2015	17:01:25.588	$GPGGA,170126,2538.8617,N,07950.9615,W,1,10,1.6,17,M,,M,,*67
06/25/2015	17:01:26.558	$GPGGA,170127,2538.8639,N,07950.9637,W,1,10,1.6,17,M,,M,,*6A
06/25/2015	17:01:27.598	$GPGGA,170128,2538.8661,N,07950.9660,W,1,10,1.6,17,M,,M,,*6A
06/25/2015	17:01:28.568	$GPGGA,170129,2538.8683,N,07950.9682,W,1,10,1.6,18,M,,M,,*64
06/25/2015	17:01:29.578	$GPGGA,170130,2538.8705,N,07950.9704,W,1,10,1.6,18,M,,M,,*6C
06/25/2015	17:01:30.559	$GPGGA,170131,2538.8727,N,07950.9726,W,1,10,1.6,18,M,,M,,*6D
06/25/2015	17:01:31.589	$GPGGA,170132,2538.8750,N,07950.9748,W,1,10,1.6,18,M,,M,,*66
06/25/2015	17:01:32.559	$GPGGA,170133,2538.8772,N,07950.9770,W,1,10,1.6,18,M,,M,,*6C
06/25/2015	17:01:33.568	$GPGGA,170134,2538.8794,N,07950.9794,W,1,10,1.6,18,M,,M,,*69
06/25/2015	17:01:34.560	$GPGGA,170135,2538.8816,N,07950.9816,W,1,10,1.6,18,M,,M,,*68
06/25/2015	17:01:35.578	$GPGGA,170136,2538.8839,N,07950.9837,W,1,10,1.6,18,M,,M,,*65
06/25/2015	17:01:36.549	$GPGGA,170137,2538.8860,N,07950.9860,W,1,10,1.6,18,M,,M,,*6A
06/25/2015	17:01:37.548	$GPGGA,170138,2538.8882,N,07950.9884,W,1,10,1.6,18,M,,M,,*63
06/25/2015	17:01:38.552	$GPGGA,170139,2538.8906,N,07950.9906,W,1,10,1.6,18,M,,M,,*64
06/25/2015	17:01:39.548	$GPGGA,170140,2538.8928,N,07950.9928,W,1,10,1.6,18,M,,M,,*6A
06/25/2015	17:01:40.548	$GPGGA,170141,2538.8951,N,07950.9950,W,1,10,1.6,18,M,,M,,*6A
06/25/2015	17:01:41.548	$GPGGA,170142,2538.8972,N,07950.9972,W,1,10,1.6,18,M,,M,,*68
06/25/2015	17:01:42.539	$GPGGA,170143,2538.8996,N,07950.9993,W,1,10,1.6,18,M,,M,,*6C
06/25/2015	17:01:43.538	$GPGGA,170144,2538.9018,N,07951.0015,W,1,10,1.6,18,M,,M,,*6A
06/25/2015	17:01:44.528	$GPGGA,170145,2538.9041,N,07951.0037,W,1,10,1.6,18,M,,M,,*67
06/25/2015	17:01:45.518	$GPGGA,170146,2538.9063,N,07951.0059,W,1,10,1.6,18,M,,M,,*6C
06/25/2015	17:01:46.528	$GPGGA,170147,2538.9087,N,07951.0081,W,1,10,1.6,18,M,,M,,*62
06/25/2015	17:01:47.548	$GPGGA,170148,2538.9110,N,07951.0105,W,1,10,1.6,18,M,,M,,*6F
06/25/2015	17:01:48.539	$GPGGA,170149,2538.9134,N,07951.0126,W,1,10,1.6,18,M,,M,,*69
06/25/2015	17:01:49.519	$GPGGA,170150,2538.9156,N,07951.0148,W,1,10,1.6,18,M,,M,,*6D
06/25/2015	17:01:50.518	$GPGGA,170151,2538.9178,N,07951.0170,W,1,10,1.9,18,M,,M,,*64
06/25/2015	17:01:51.538	$GPGGA,170152,2538.9202,N,07951.0192,W,1,10,1.6,18,M,,M,,*6A
06/25/2015	17:01:52.508	$GPGGA,170153,2538.9225,N,07951.0214,W,1,10,1.6,18,M,,M,,*63
06/25/2015	17:01:53.518	$GPGGA,170154,2538.9247,N,07951.0236,W,1,10,1.6,18,M,,M,,*60
06/25/2015	17:01:54.498	$GPGGA,170155,2538.9269,N,07951.0260,W,1,10,1.6,18,M,,M,,*6E
06/25/2015	17:01:55.538	$GPGGA,170156,2538.9293,N,07951.0282,W,1,10,1.6,18,M,,M,,*64
06/25/2015	17:01:56.518	$GPGGA,170157,2538.9315,N,07951.0303,W,1,10,1.6,18,M,,M,,*62
06/25/2015	17:01:57.628	$GPGGA,170158,2538.9339,N,07951.0325,W,1,10,1.6,18,M,,M,,*67
06/25/2015	17:01:58.498	$GPGGA,170159,2538.9362,N,07951.0347,W,1,10,1.6,18,M,,M,,*6C
06/25/2015	17:01:59.529	$GPGGA,170200,2538.9384,N,07951.0368,W,1,10,1.6,18,M,,M,,*66
06/25/2015	17:02:00.488	$GPGGA,170201,2538.9408,N,07951.0390,W,1,10,1.6,18,M,,M,,*63
06/25/2015	17:02:01.538	$GPGGA,170202,2538.9431,N,07951.0412,W,1,10,1.6,18,M,,M,,*67
06/25/2015	17:02:02.488	$GPGGA,170203,2538.9453,N,07951.0434,W,1,10,1.6,18,M,,M,,*66
06/25/2015	17:02:03.668	$GPGGA,170204,2538.9477,N,07951.0456,W,1,10,1.6,18,M,,M,,*63
06/25/2015	17:02:04.648	$GPGGA,170205,2538.9499,N,07951.0478,W,1,10,1.6,18,M,,M,,*6E
06/25/2015	17:02:05.639	$GPGGA,170206,2538.9521,N,07951.0502,W,1,10,1.6,18,M,,M,,*63
06/25/2015	17:02:06.529	$GPGGA,170207,2538.9545,N,07951.0524,W,1,10,1.6,18,M,,M,,*64
06/25/2015	17:02:07.669	$GPGGA,170208,2538.9568,N,07951.0546,W,1,10,1.6,18,M,,M,,*60
06/25/2015	17:02:08.568	$GPGGA,170209,2538.9590,N,07951.0568,W,1,10,1.6,18,M,,M,,*6A
06/25/2015	17:02:09.618	$GPGGA,170210,2538.9614,N,07951.0590,W,1,10,1.6,18,M,,M,,*6A
06/25/2015	17:02:10.648	$GPGGA,170211,2538.9637,N,07951.0612,W,1,10,1.6,18,M,,M,,*63
06/25/2015	17:02:11.658	$GPGGA,170212,2538.9659,N,07951.0636,W,1,10,1.6,17,M,,M,,*61
06/25/2015	17:02:12.638	$GPGGA,170213,2538.9682,N,07951.0658,W,1,10,1.6,17,M,,M,,*6E
06/25/2015	17:02:13.618	$GPGGA,170214,2538.9704,N,07951.0680,W,1,10,1.6,17,M,,M,,*63
06/25/2015	17:02:14.628	$GPGGA,170215,2538.9727,N,07951.0704,W,1,10,1.6,17,M,,M,,*6E
06/25/2015	17:02:15.648	$GPGGA,170216,2538.9749,N,07951.0726,W,1,10,1.6,17,M,,M,,*65
06/25/2015	17:02:16.628	$GPGGA,170217,2538.9771,N,07951.0748,W,1,10,1.6,17,M,,M,,*67
06/25/2015	17:02:17.588	$GPGGA,170218,2538.9795,N,07951.0770,W,1,10,1.6,17,M,,M,,*69
06/25/2015	17:02:18.628	$GPGGA,170219,2538.9817,N,07951.0792,W,1,10,1.6,17,M,,M,,*61
06/25/2015	17:02:19.598	$GPGGA,170220,2538.9839,N,07951.0816,W,1,10,1.6,17,M,,M,,*64
06/25/2015	17:02:20.538	$GPGGA,170221,2538.9861,N,07951.0838,W,1,10,1.6,17,M,,M,,*64
06/25/2015	17:02:21.598	$GPGGA,170222,2538.9883,N,07951.0860,W,1,10,1.6,17,M,,M,,*66
06/25/2015	17:02:22.608	$GPGGA,170223,2538.9906,N,07951.0882,W,1,10,1.6,17,M,,M,,*67
06/25/2015	17:02:23.619	$GPGGA,170224,2538.9928,N,07951.0905,W,1,10,1.6,17,M,,M,,*62
06/25/2015	17:02:24.619	$GPGGA,170225,2538.9951,N,07951.0928,W,1,10,1.6,17,M,,M,,*62
06/25/2015	17:02:25.608	$GPGGA,170226,2538.9973,N,07951.0950,W,1,10,1.6,16,M,,M,,*6F
06/25/2015	17:02:26.608	$GPGGA,170227,2538.9995,N,07951.0972,W,1,10,1.6,16,M,,M,,*66
06/25/2015	17:02:27.588	$GPGGA,170228,2539.0018,N,07951.0994,W,1,10,1.6,16,M,,M,,*65
06/25/2015	17:02:28.588	$GPGGA,170229,2539.0040,N,07951.1017,W,1,10,1.6,16,M,,M,,*6A
06/25/2015	17:02:29.529	$GPGGA,170230,2539.0062,N,07951.1040,W,1,10,1.6,16,M,,M,,*60
06/25/2015	17:02:30.588	$GPGGA,170231,2539.0085,N,07951.1062,W,1,10,1.6,16,M,,M,,*68
06/25/2015	17:02:31.608	$GPGGA,170232,2539.0107,N,07951.1084,W,1,10,1.6,16,M,,M,,*68
06/25/2015	17:02:32.578	$GPGGA,170233,2539.0130,N,07951.1107,W,1,10,1.6,16,M,,M,,*67
06/25/2015	17:02:33.518	$GPGGA,170234,2539.0152,N,07951.1129,W,1,10,1.6,16,M,,M,,*68
06/25/2015	17:02:34.588	$GPGGA,170235,2539.0174,N,07951.1152,W,1,10,1.6,16,M,,M,,*61
06/25/2015	17:02:35.588	$GPGGA,170236,2539.0196,N,07951.1172,W,1,10,1.6,16,M,,M,,*6C
06/25/2015	17:02:36.518	$GPGGA,170237,2539.0218,N,07951.1194,W,1,10,1.6,16,M,,M,,*60
06/25/2015	17:02:37.553	$GPGGA,170238,2539.0240,N,07951.1217,W,1,10,1.6,16,M,,M,,*6A
06/25/2015	17:02:39.038	$GPGGA,170239,2539.0262,N,07951.1239,W,1,10,1.6,16,M,,M,,*67
06/25/2015	17:02:39.598	$GPGGA,170240,2539.0284,N,07951.1261,W,1,10,1.6,16,M,,M,,*6C
06/25/2015	17:02:40.579	$GPGGA,170241,2539.0307,N,07951.1283,W,1,10,1.6,16,M,,M,,*6B
06/25/2015	17:02:41.509	$GPGGA,170242,2539.0329,N,07951.1306,W,1,10,1.6,16,M,,M,,*68
06/25/2015	17:02:42.619	$GPGGA,170243,2539.0352,N,07951.1329,W,1,10,1.6,16,M,,M,,*68
06/25/2015	17:02:43.608	$GPGGA,170244,2539.0374,N,07951.1351,W,1,10,1.6,16,M,,M,,*64
06/25/2015	17:02:44.488	$GPGGA,170245,2539.0396,N,07951.1373,W,1,10,1.6,16,M,,M,,*69
06/25/2015	17:02:45.618	$GPGGA,170246,2539.0419,N,07951.1395,W,1,10,1.6,16,M,,M,,*62
06/25/2015	17:02:46.552	$GPGGA,170247,2539.0442,N,07951.1416,W,1,10,1.6,16,M,,M,,*61
06/25/2015	17:02:47.568	$GPGGA,170248,2539.0464,N,07951.1436,W,1,10,1.9,16,M,,M,,*67
06/25/2015	17:02:48.598	$GPGGA,170249,2539.0486,N,07951.1460,W,1,10,2.5,16,M,,M,,*66
06/25/2015	17:02:49.588	$GPGGA,170250,2539.0510,N,07951.1481,W,1,9,1.6,15,M,,M,,*54
06/25/2015	17:02:50.588	$GPGGA,170251,2539.0533,N,07951.1506,W,1,9,2.5,15,M,,M,,*5A
06/25/2015	17:02:51.568	$GPGGA,170252,2539.0558,N,07951.1528,W,1,9,2.5,15,M,,M,,*58
06/25/2015	17:02:52.548	$GPGGA,170253,2539.0582,N,07951.1550,W,1,9,1.6,15,M,,M,,*51
06/25/2015	17:02:53.858	$GPGGA,170254,2539.0605,N,07951.1572,W,1,10,1.6,15,M,,M,,*62
06/25/2015	17:02:54.568	$GPGGA,170255,2539.0627,N,07951.1593,W,1,10,1.6,15,M,,M,,*6C
06/25/2015	17:02:55.588	$GPGGA,170256,2539.0652,N,07951.1613,W,1,10,1.6,15,M,,M,,*66
06/25/2015	17:02:56.578	$GPGGA,170257,2539.0674,N,07951.1634,W,1,10,1.6,15,M,,M,,*66
06/25/2015	17:02:57.598	$GPGGA,170258,2539.0698,N,07951.1656,W,1,10,1.6,15,M,,M,,*6F
06/25/2015	17:02:58.564	$GPGGA,170259,2539.0721,N,07951.1677,W,1,10,1.6,14,M,,M,,*6F
06/25/2015	17:02:59.609	$GPGGA,170300,2539.0746,N,07951.1698,W,1,10,1.6,14,M,,M,,*62
06/25/2015	17:03:00.568	$GPGGA,170301,2539.0770,N,07951.1719,W,1,10,1.6,14,M,,M,,*6E
06/25/2015	17:03:01.578	$GPGGA,170302,2539.0793,N,07951.1738,W,1,10,1.6,14,M,,M,,*63
06/25/2015	17:03:02.561	$GPGGA,170303,2539.0818,N,07951.1759,W,1,10,1.6,14,M,,M,,*69
06/25/2015	17:03:04.096	$GPGGA,170304,2539.0843,N,07951.1781,W,1,10,1.6,14,M,,M,,*65
06/25/2015	17:03:04.568	$GPGGA,170305,2539.0867,N,07951.1801,W,1,10,1.6,14,M,,M,,*65
06/25/2015	17:03:05.570	$GPGGA,170306,2539.0891,N,07951.1822,W,1,10,1.6,14,M,,M,,*6E
06/25/2015	17:03:06.588	$GPGGA,170307,2539.0916,N,07951.1842,W,1,10,1.6,14,M,,M,,*67
06/25/2015	17:03:07.618	$GPGGA,170308,2539.0941,N,07951.1864,W,1,10,1.6,14,M,,M,,*6E
06/25/2015	17:03:08.565	$GPGGA,170309,2539.0966,N,07951.1883,W,1,10,1.6,14,M,,M,,*63
06/25/2015	17:03:09.568	$GPGGA,170310,2539.0991,N,07951.1904,W,1,10,1.6,14,M,,M,,*6D
06/25/2015	17:03:10.549	$GPGGA,170311,2539.1016,N,07951.1923,W,1,10,1.6,14,M,,M,,*6E
06/25/2015	17:03:11.578	$GPGGA,170312,2539.1041,N,07951.1944,W,1,10,1.6,14,M,,M,,*6E
06/25/2015	17:03:12.538	$GPGGA,170313,2539.1041,N,07951.1944,W,1,10,1.6,14,M,,M,,*6F
06/25/2015	17:03:13.569	$GPGGA,170314,2539.1091,N,07951.1985,W,1,10,1.6,14,M,,M,,*68
06/25/2015	17:03:14.572	$GPGGA,170315,2539.1115,N,07951.2005,W,1,10,1.6,14,M,,M,,*66
06/25/2015	17:03:15.589	$GPGGA,170316,2539.1140,N,07951.2025,W,1,10,1.6,14,M,,M,,*67
06/25/2015	17:03:16.566	$GPGGA,170317,2539.1165,N,07951.2046,W,1,10,1.6,14,M,,M,,*64
06/25/2015	17:03:17.570	$GPGGA,170318,2539.1190,N,07951.2066,W,1,10,1.6,14,M,,M,,*63
06/25/2015	17:03:18.565	$GPGGA,170319,2539.1190,N,07951.2066,W,1,10,1.6,14,M,,M,,*62
06/25/2015	17:03:19.571	$GPGGA,170320,2539.1241,N,07951.2106,W,1,10,1.6,14,M,,M,,*60
06/25/2015	17:03:20.561	$GPGGA,170321,2539.1266,N,07951.2126,W,1,10,1.6,14,M,,M,,*66
06/25/2015	17:03:21.528	$GPGGA,170322,2539.1291,N,07951.2146,W,1,10,1.6,14,M,,M,,*6B
06/25/2015	17:03:22.528	$GPGGA,170323,2539.1291,N,07951.2146,W,1,10,1.6,14,M,,M,,*6A
06/25/2015	17:03:23.564	$GPGGA,170324,2539.1339,N,07951.2187,W,1,10,1.7,15,M,,M,,*63
06/25/2015	17:03:24.572	$GPGGA,170325,2539.1339,N,07951.2187,W,1,10,1.7,15,M,,M,,*62
06/25/2015	17:03:25.528	$GPGGA,170326,2539.1391,N,07951.2227,W,1,10,1.6,15,M,,M,,*6B
06/25/2015	17:03:26.562	$GPGGA,170327,2539.1391,N,07951.2227,W,1,10,1.6,15,M,,M,,*6A
06/25/2015	17:03:27.618	$GPGGA,170328,2539.1440,N,07951.2266,W,1,10,1.6,15,M,,M,,*6B
06/25/2015	17:03:28.528	$GPGGA,170329,2539.1440,N,07951.2266,W,1,10,1.6,15,M,,M,,*6A
06/25/2015	17:03:29.508	$GPGGA,170330,2539.1490,N,07951.2305,W,1,10,1.6,15,M,,M,,*6B
06/25/2015	17:03:30.538	$GPGGA,170331,2539.1490,N,07951.2305,W,1,10,1.6,14,M,,M,,*6B
06/25/2015	17:03:31.608	$GPGGA,170332,2539.1540,N,07951.2345,W,1,10,1.6,14,M,,M,,*60
06/25/2015	17:03:32.538	$GPGGA,170333,2539.1540,N,07951.2345,W,1,10,1.6,14,M,,M,,*61
06/25/2015	17:03:33.589	$GPGGA,170334,2539.1590,N,07951.2386,W,1,10,1.6,14,M,,M,,*64
06/25/2015	17:03:34.509	$GPGGA,170335,2539.1590,N,07951.2386,W,1,10,1.6,14,M,,M,,*65
06/25/2015	17:03:35.508	$GPGGA,170336,2539.1638,N,07951.2426,W,1,10,1.6,14,M,,M,,*6A
06/25/2015	17:03:36.549	$GPGGA,170337,2539.1663,N,07951.2447,W,1,10,1.6,14,M,,M,,*62
06/25/2015	17:03:37.498	$GPGGA,170338,2539.1686,N,07951.2467,W,1,10,1.6,14,M,,M,,*64
06/25/2015	17:03:38.588	$GPGGA,170339,2539.1711,N,07951.2489,W,1,10,1.6,14,M,,M,,*6A
06/25/2015	17:03:39.618	$GPGGA,170340,2539.1735,N,07951.2509,W,1,10,1.6,14,M,,M,,*6B
06/25/2015	17:03:40.578	$GPGGA,170341,2539.1760,N,07951.2533,W,1,10,1.6,14,M,,M,,*63
06/25/2015	17:03:41.598	$GPGGA,170342,2539.1785,N,07951.2554,W,1,9,2.5,13,M,,M,,*55
06/25/2015	17:03:42.568	$GPGGA,170343,2539.1808,N,07951.2573,W,1,9,2.5,13,M,,M,,*5B
06/25/2015	17:03:43.608	$GPGGA,170344,2539.1832,N,07951.2595,W,1,10,1.6,13,M,,M,,*65
06/25/2015	17:03:44.588	$GPGGA,170345,2539.1855,N,07951.2617,W,1,10,1.6,13,M,,M,,*6C
06/25/2015	17:03:45.598	$GPGGA,170346,2539.1879,N,07951.2639,W,1,9,2.5,13,M,,M,,*55
06/25/2015	17:03:46.568	$GPGGA,170347,2539.1902,N,07951.2660,W,1,9,2.5,13,M,,M,,*55
06/25/2015	17:03:47.598	$GPGGA,170348,2539.1924,N,07951.2681,W,1,10,1.6,13,M,,M,,*69
06/25/2015	17:03:48.568	$GPGGA,170349,2539.1949,N,07951.2703,W,1,10,1.6,13,M,,M,,*68
06/25/2015	17:03:49.568	$GPGGA,170350,2539.1973,N,07951.2725,W,1,10,1.6,13,M,,M,,*6D
06/25/2015	17:03:50.569	$GPGGA,170351,2539.1996,N,07951.2747,W,1,10,1.6,13,M,,M,,*63
06/25/2015	17:03:51.599	$GPGGA,170352,2539.2018,N,07951.2768,W,1,10,1.6,13,M,,M,,*61
06/25/2015	17:03:52.562	$GPGGA,170353,2539.2042,N,07951.2789,W,1,10,1.6,13,M,,M,,*60
06/25/2015	17:03:53.568	$GPGGA,170354,2539.2065,N,07951.2811,W,1,10,1.6,13,M,,M,,*6C
06/25/2015	17:03:54.560	$GPGGA,170355,2539.2087,N,07951.2832,W,1,10,2.5,13,M,,M,,*60
06/25/2015	17:03:55.588	$GPGGA,170356,2539.2111,N,07951.2854,W,1,10,1.6,13,M,,M,,*6D
06/25/2015	17:03:56.562	$GPGGA,170357,2539.2135,N,07951.2876,W,1,10,1.6,12,M,,M,,*6B
06/25/2015	17:03:57.538	$GPGGA,170358,2539.2158,N,07951.2898,W,1,10,1.6,12,M,,M,,*6F
06/25/2015	17:03:58.549	$GPGGA,170359,2539.2182,N,07951.2919,W,1,10,1.6,12,M,,M,,*61
06/25/2015	17:03:59.578	$GPGGA,170400,2539.2206,N,07951.2942,W,1,10,1.6,12,M,,M,,*6B
06/25/2015	17:04:00.538	$GPGGA,170401,2539.2229,N,07951.2966,W,1,10,2.5,12,M,,M,,*61
06/25/2015	17:04:01.528	$GPGGA,170402,2539.2253,N,07951.2985,W,1,9,2.5,12,M,,M,,*5A
06/25/2015	17:04:02.538	$GPGGA,170403,2539.2276,N,07951.3007,W,1,9,1.6,12,M,,M,,*5E
06/25/2015	17:04:03.555	$GPGGA,170404,2539.2299,N,07951.3028,W,1,10,1.6,12,M,,M,,*6D
06/25/2015	17:04:04.538	$GPGGA,170405,2539.2321,N,07951.3049,W,1,10,1.6,12,M,,M,,*69
06/25/2015	17:04:05.518	$GPGGA,170406,2539.2346,N,07951.3071,W,1,10,1.6,12,M,,M,,*60
06/25/2015	17:04:06.538	$GPGGA,170407,2539.2370,N,07951.3092,W,1,10,1.6,12,M,,M,,*69
06/25/2015	17:04:07.538	$GPGGA,170408,2539.2393,N,07951.3114,W,1,10,1.6,12,M,,M,,*64
06/25/2015	17:04:08.519	$GPGGA,170409,2539.2417,N,07951.3134,W,1,10,1.6,12,M,,M,,*6C
06/25/2015	17:04:09.519	$GPGGA,170410,2539.2440,N,07951.3155,W,1,10,1.6,12,M,,M,,*61
06/25/2015	17:04:10.538	$GPGGA,170411,2539.2465,N,07951.3176,W,1,10,1.6,12,M,,M,,*66
06/25/2015	17:04:11.538	$GPGGA,170412,2539.2488,N,07951.3198,W,1,10,1.6,12,M,,M,,*66
06/25/2015	17:04:12.628	$GPGGA,170413,2539.2512,N,07951.3219,W,1,10,2.5,12,M,,M,,*6F
06/25/2015	17:04:13.538	$GPGGA,170414,2539.2536,N,07951.3237,W,1,9,1.7,12,M,,M,,*5B
06/25/2015	17:04:14.508	$GPGGA,170415,2539.2560,N,07951.3259,W,1,9,1.6,12,M,,M,,*50
06/25/2015	17:04:15.528	$GPGGA,170416,2539.2585,N,07951.3280,W,1,9,2.5,12,M,,M,,*5C
06/25/2015	17:04:16.518	$GPGGA,170417,2539.2610,N,07951.3302,W,1,9,2.5,12,M,,M,,*59
06/25/2015	17:04:17.498	$GPGGA,170418,2539.2635,N,07951.3321,W,1,10,1.6,12,M,,M,,*68
06/25/2015	17:04:18.608	$GPGGA,170419,2539.2657,N,07951.3342,W,1,10,1.6,12,M,,M,,*68
06/25/2015	17:04:19.608	$GPGGA,170420,2539.2682,N,07951.3363,W,1,10,1.6,12,M,,M,,*69
06/25/2015	17:04:20.508	$GPGGA,170421,2539.2707,N,07951.3382,W,1,10,1.6,12,M,,M,,*6B
06/25/2015	17:04:21.628	$GPGGA,170422,2539.2732,N,07951.3401,W,1,10,1.6,12,M,,M,,*62
06/25/2015	17:04:22.508	$GPGGA,170423,2539.2755,N,07951.3421,W,1,10,1.6,12,M,,M,,*60
06/25/2015	17:04:23.588	$GPGGA,170424,2539.2780,N,07951.3443,W,1,10,1.6,12,M,,M,,*6B
06/25/2015	17:04:24.578	$GPGGA,170425,2539.2805,N,07951.3461,W,1,10,1.6,12,M,,M,,*68
06/25/2015	17:04:25.609	$GPGGA,170426,2539.2830,N,07951.3482,W,1,10,1.6,12,M,,M,,*60
06/25/2015	17:04:26.589	$GPGGA,170427,2539.2855,N,07951.3501,W,1,10,1.6,12,M,,M,,*68
06/25/2015	17:04:27.619	$GPGGA,170428,2539.2878,N,07951.3522,W,1,10,1.6,12,M,,M,,*69
06/25/2015	17:04:28.578	$GPGGA,170429,2539.2903,N,07951.3541,W,1,10,1.6,12,M,,M,,*60
06/25/2015	17:04:29.588	$GPGGA,170430,2539.2928,N,07951.3562,W,1,10,1.6,12,M,,M,,*60
06/25/2015	17:04:30.568	$GPGGA,170431,2539.2953,N,07951.3584,W,1,10,1.6,12,M,,M,,*65
06/25/2015	17:04:31.608	$GPGGA,170432,2539.2978,N,07951.3603,W,1,10,1.6,12,M,,M,,*63
06/25/2015	17:04:32.578	$GPGGA,170433,2539.3003,N,07951.3624,W,1,10,1.6,13,M,,M,,*62
06/25/2015	17:04:33.588	$GPGGA,170434,2539.3028,N,07951.3646,W,1,10,1.6,13,M,,M,,*68
06/25/2015	17:04:34.568	$GPGGA,170435,2539.3051,N,07951.3667,W,1,10,1.6,13,M,,M,,*64
06/25/2015	17:04:35.588	$GPGGA,170436,2539.3076,N,07951.3689,W,1,10,1.6,13,M,,M,,*62
06/25/2015	17:04:36.568	$GPGGA,170437,2539.3101,N,07951.3708,W,1,10,1.6,13,M,,M,,*6A
06/25/2015	17:04:37.551	$GPGGA,170438,2539.3125,N,07951.3729,W,1,10,1.6,13,M,,M,,*60
06/25/2015	17:04:38.559	$GPGGA,170439,2539.3148,N,07951.3751,W,1,10,1.6,13,M,,M,,*65
06/25/2015	17:04:39.568	$GPGGA,170440,2539.3173,N,07951.3772,W,1,10,1.6,13,M,,M,,*62
06/25/2015	17:04:40.563	$GPGGA,170441,2539.3198,N,07951.3793,W,1,10,1.6,13,M,,M,,*69
06/25/2015	17:04:41.561	$GPGGA,170442,2539.3223,N,07951.3815,W,1,10,1.6,13,M,,M,,*68
06/25/2015	17:04:42.560	$GPGGA,170443,2539.3246,N,07951.3837,W,1,10,1.6,13,M,,M,,*6A
06/25/2015	17:04:43.579	$GPGGA,170444,2539.3271,N,07951.3858,W,1,10,1.6,13,M,,M,,*60
06/25/2015	17:04:44.539	$GPGGA,170445,2539.3295,N,07951.3878,W,1,10,1.6,13,M,,M,,*69
06/25/2015	17:04:45.568	$GPGGA,170446,2539.3318,N,07951.3899,W,1,10,1.6,13,M,,M,,*61
06/25/2015	17:04:46.528	$GPGGA,170447,2539.3340,N,07951.3920,W,1,10,1.6,13,M,,M,,*6E
06/25/2015	17:04:47.565	$GPGGA,170448,2539.3365,N,07951.3942,W,1,10,1.6,13,M,,M,,*62
06/25/2015	17:04:48.552	$GPGGA,170449,2539.3390,N,07951.3963,W,1,10,1.6,13,M,,M,,*6A
06/25/2015	17:04:49.552	$GPGGA,170450,2539.3414,N,07951.3986,W,1,10,1.6,13,M,,M,,*62
06/25/2015	17:04:50.528	$GPGGA,170451,2539.3438,N,07951.4007,W,1,10,1.6,13,M,,M,,*6A
06/25/2015	17:04:51.538	$GPGGA,170452,2539.3462,N,07951.4029,W,1,10,1.6,13,M,,M,,*6A
06/25/2015	17:04:52.528	$GPGGA,170453,2539.3487,N,07951.4050,W,1,10,1.6,13,M,,M,,*6E
06/25/2015	17:04:53.528	$GPGGA,170454,2539.3510,N,07951.4072,W,1,10,1.6,13,M,,M,,*66
06/25/2015	17:04:55.568	$GPGGA,170456,2539.3557,N,07951.4115,W,1,10,1.6,13,M,,M,,*67
06/25/2015	17:04:56.508	$GPGGA,170457,2539.3581,N,07951.4136,W,1,10,1.6,13,M,,M,,*6C
06/25/2015	17:04:57.638	$GPGGA,170458,2539.3604,N,07951.4158,W,1,10,1.6,13,M,,M,,*65
06/25/2015	17:04:58.528	$GPGGA,170459,2539.3628,N,07951.4180,W,1,10,1.6,13,M,,M,,*6F
06/25/2015	17:04:59.588	$GPGGA,170500,2539.3653,N,07951.4201,W,1,10,1.6,13,M,,M,,*64
06/25/2015	17:05:00.499	$GPGGA,170501,2539.3676,N,07951.4221,W,1,10,1.6,13,M,,M,,*60
06/25/2015	17:05:01.599	$GPGGA,170502,2539.3700,N,07951.4243,W,1,10,1.6,13,M,,M,,*67
06/25/2015	17:05:02.509	$GPGGA,170503,2539.3723,N,07951.4266,W,1,10,1.6,13,M,,M,,*60
06/25/2015	17:05:03.550	$GPGGA,170504,2539.3747,N,07951.4285,W,1,10,1.6,13,M,,M,,*68
06/25/2015	17:05:04.598	$GPGGA,170505,2539.3770,N,07951.4307,W,1,10,1.6,12,M,,M,,*67
06/25/2015	17:05:05.498	$GPGGA,170506,2539.3795,N,07951.4331,W,1,10,1.6,12,M,,M,,*6A
06/25/2015	17:05:06.508	$GPGGA,170507,2539.3819,N,07951.4353,W,1,10,1.6,12,M,,M,,*64
06/25/2015	17:05:07.618	$GPGGA,170508,2539.3842,N,07951.4373,W,1,10,1.6,12,M,,M,,*67
06/25/2015	17:05:08.498	$GPGGA,170509,2539.3867,N,07951.4395,W,1,10,1.6,12,M,,M,,*69
06/25/2015	17:05:09.588	$GPGGA,170510,2539.3891,N,07951.4416,W,1,10,1.6,12,M,,M,,*64
06/25/2015	17:05:10.588	$GPGGA,170511,2539.3914,N,07951.4438,W,1,10,1.6,12,M,,M,,*65
06/25/2015	17:05:11.638	$GPGGA,170512,2539.3938,N,07951.4459,W,1,10,1.6,12,M,,M,,*6F
06/25/2015	17:05:12.588	$GPGGA,170513,2539.3961,N,07951.4481,W,1,10,1.6,12,M,,M,,*67
06/25/2015	17:05:13.588	$GPGGA,170514,2539.3985,N,07951.4503,W,1,10,1.6,12,M,,M,,*61
06/25/2015	17:05:14.588	$GPGGA,170515,2539.4008,N,07951.4525,W,1,10,1.6,12,M,,M,,*6F
06/25/2015	17:05:15.588	$GPGGA,170516,2539.4034,N,07951.4546,W,1,10,1.6,12,M,,M,,*66
06/25/2015	17:05:16.578	$GPGGA,170517,2539.4058,N,07951.4567,W,1,10,1.6,12,M,,M,,*6E
06/25/2015	17:05:17.599	$GPGGA,170518,2539.4081,N,07951.4588,W,1,10,1.6,12,M,,M,,*64
06/25/2015	17:05:18.559	$GPGGA,170519,2539.4105,N,07951.4610,W,1,10,1.6,12,M,,M,,*6A
06/25/2015	17:05:19.569	$GPGGA,170520,2539.4130,N,07951.4631,W,1,10,1.6,12,M,,M,,*65
06/25/2015	17:05:20.568	$GPGGA,170521,2539.4153,N,07951.4651,W,1,10,1.6,12,M,,M,,*67
06/25/2015	17:05:21.578	$GPGGA,170522,2539.4177,N,07951.4672,W,1,10,1.6,12,M,,M,,*63
06/25/2015	17:05:22.559	$GPGGA,170523,2539.4202,N,07951.4694,W,1,10,1.6,12,M,,M,,*6B
06/25/2015	17:05:23.598	$GPGGA,170524,2539.4227,N,07951.4715,W,1,10,1.6,12,M,,M,,*63
06/25/2015	17:05:24.564	$GPGGA,170525,2539.4250,N,07951.4736,W,1,10,1.6,12,M,,M,,*63
06/25/2015	17:05:25.578	$GPGGA,170526,2539.4275,N,07951.4758,W,1,10,1.6,12,M,,M,,*6F
06/25/2015	17:05:26.556	$GPGGA,170527,2539.4300,N,07951.4780,W,1,10,1.6,12,M,,M,,*68
06/25/2015	17:05:27.588	$GPGGA,170528,2539.4323,N,07951.4801,W,1,10,1.6,12,M,,M,,*60
06/25/2015	17:05:28.548	$GPGGA,170529,2539.4348,N,07951.4823,W,1,10,1.6,12,M,,M,,*6C
06/25/2015	17:05:29.568	$GPGGA,170530,2539.4372,N,07951.4844,W,1,10,1.6,12,M,,M,,*6C
06/25/2015	17:05:30.563	$GPGGA,170531,2539.4395,N,07951.4864,W,1,10,1.6,12,M,,M,,*66
06/25/2015	17:05:31.552	$GPGGA,170532,2539.4420,N,07951.4885,W,1,10,1.6,12,M,,M,,*63
06/25/2015	17:05:32.550	$GPGGA,170533,2539.4445,N,07951.4906,W,1,10,1.6,12,M,,M,,*6B
06/25/2015	17:05:33.538	$GPGGA,170534,2539.4469,N,07951.4928,W,1,10,1.6,12,M,,M,,*6E
06/25/2015	17:05:34.551	$GPGGA,170535,2539.4493,N,07951.4949,W,1,10,1.7,12,M,,M,,*6C
06/25/2015	17:05:35.579	$GPGGA,170536,2539.4518,N,07951.4969,W,1,10,1.6,12,M,,M,,*6E
06/25/2015	17:05:36.539	$GPGGA,170537,2539.4543,N,07951.4989,W,1,10,1.6,12,M,,M,,*6F
06/25/2015	17:05:37.529	$GPGGA,170538,2539.4567,N,07951.5011,W,1,10,1.6,12,M,,M,,*6F
06/25/2015	17:05:38.528	$GPGGA,170539,2539.4592,N,07951.5032,W,1,10,1.6,12,M,,M,,*65
06/25/2015	17:05:39.551	$GPGGA,170540,2539.4617,N,07951.5051,W,1,10,1.6,12,M,,M,,*60
06/25/2015	17:05:40.528	$GPGGA,170541,2539.4641,N,07951.5072,W,1,10,1.6,12,M,,M,,*63
06/25/2015	17:05:41.528	$GPGGA,170542,2539.4665,N,07951.5094,W,1,10,1.6,11,M,,M,,*6D
06/25/2015	17:05:42.528	$GPGGA,170543,2539.4690,N,07951.5113,W,1,10,1.6,11,M,,M,,*68
06/25/2015	17:05:43.568	$GPGGA,170544,2539.4715,N,07951.5134,W,1,10,1.6,11,M,,M,,*66
06/25/2015	17:05:44.528	$GPGGA,170545,2539.4738,N,07951.5155,W,1,10,1.6,11,M,,M,,*6F
06/25/2015	17:05:45.528	$GPGGA,170546,2539.4763,N,07951.5175,W,1,10,1.6,11,M,,M,,*60
06/25/2015	17:05:46.508	$GPGGA,170547,2539.4788,N,07951.5195,W,1,10,1.6,11,M,,M,,*6A
06/25/2015	17:05:47.528	$GPGGA,170548,2539.4813,N,07951.5217,W,1,10,1.6,11,M,,M,,*61
06/25/2015	17:05:48.628	$GPGGA,170549,2539.4836,N,07951.5236,W,1,10,1.6,11,M,,M,,*64
06/25/2015	17:05:49.618	$GPGGA,170550,2539.4860,N,07951.5257,W,1,10,1.6,11,M,,M,,*68
06/25/2015	17:05:50.498	$GPGGA,170551,2539.4885,N,07951.5278,W,1,10,1.6,11,M,,M,,*6F
06/25/2015	17:05:53.119	$GPGGA,170553,2539.4933,N,07951.5319,W,1,10,1.6,11,M,,M,,*67
06/25/2015	17:05:53.599	$GPGGA,170554,2539.4957,N,07951.5340,W,1,10,1.6,11,M,,M,,*6E
06/25/2015	17:05:54.509	$GPGGA,170555,2539.4982,N,07951.5361,W,1,10,1.6,11,M,,M,,*64
06/25/2015	17:05:55.618	$GPGGA,170556,2539.5005,N,07951.5381,W,1,10,1.6,11,M,,M,,*6E
06/25/2015	17:05:56.588	$GPGGA,170557,2539.5031,N,07951.5402,W,1,10,1.6,11,M,,M,,*64
06/25/2015	17:05:57.598	$GPGGA,170558,2539.5055,N,07951.5423,W,1,10,1.6,11,M,,M,,*6A
06/25/2015	17:05:58.498	$GPGGA,170559,2539.5078,N,07951.5444,W,1,10,1.6,11,M,,M,,*65
06/25/2015	17:05:59.648	$GPGGA,170600,2539.5103,N,07951.5464,W,1,10,1.6,11,M,,M,,*65
06/25/2015	17:06:00.588	$GPGGA,170601,2539.5125,N,07951.5485,W,1,10,1.6,11,M,,M,,*6F
06/25/2015	17:06:01.618	$GPGGA,170602,2539.5150,N,07951.5506,W,1,10,1.6,11,M,,M,,*64
06/25/2015	17:06:02.588	$GPGGA,170603,2539.5174,N,07951.5527,W,1,10,1.6,11,M,,M,,*60
06/25/2015	17:06:03.618	$GPGGA,170604,2539.5199,N,07951.5550,W,1,10,1.6,11,M,,M,,*64
06/25/2015	17:06:04.578	$GPGGA,170605,2539.5222,N,07951.5568,W,1,10,2.5,11,M,,M,,*6D
06/25/2015	17:06:05.578	$GPGGA,170606,2539.5247,N,07951.5592,W,1,10,1.6,11,M,,M,,*68
06/25/2015	17:06:06.578	$GPGGA,170607,2539.5269,N,07951.5611,W,1,10,2.5,11,M,,M,,*6D
06/25/2015	17:06:07.598	$GPGGA,170608,2539.5294,N,07951.5632,W,1,10,1.6,11,M,,M,,*61
06/25/2015	17:06:08.561	$GPGGA,170609,2539.5318,N,07951.5652,W,1,10,1.6,11,M,,M,,*63
06/25/2015	17:06:09.588	$GPGGA,170610,2539.5341,N,07951.5673,W,1,10,1.6,11,M,,M,,*64
06/25/2015	17:06:10.563	$GPGGA,170611,2539.5365,N,07951.5694,W,1,10,1.6,11,M,,M,,*6A
06/25/2015	17:06:11.577	$GPGGA,170612,2539.5388,N,07951.5716,W,1,10,1.6,11,M,,M,,*61
06/25/2015	17:06:12.555	$GPGGA,170613,2539.5414,N,07951.5740,W,1,10,1.6,11,M,,M,,*61
06/25/2015	17:06:13.556	$GPGGA,170614,2539.5439,N,07951.5762,W,1,9,2.5,11,M,,M,,*51
06/25/2015	17:06:14.537	$GPGGA,170615,2539.5463,N,07951.5781,W,1,9,2.5,11,M,,M,,*52
06/25/2015	17:06:15.566	$GPGGA,170616,2539.5486,N,07951.5803,W,1,10,1.6,11,M,,M,,*67
06/25/2015	17:06:16.537	$GPGGA,170617,2539.5511,N,07951.5822,W,1,10,1.6,11,M,,M,,*6A
06/25/2015	17:06:17.526	$GPGGA,170618,2539.5533,N,07951.5843,W,1,10,1.6,11,M,,M,,*62
06/25/2015	17:06:18.541	$GPGGA,170619,2539.5558,N,07951.5864,W,1,10,1.6,11,M,,M,,*6B
06/25/2015	17:06:19.566	$GPGGA,170620,2539.5582,N,07951.5889,W,1,10,1.6,11,M,,M,,*65
06/25/2015	17:06:20.526	$GPGGA,170621,2539.5607,N,07951.5910,W,1,10,2.5,11,M,,M,,*6B
06/25/2015	17:06:21.526	$GPGGA,170622,2539.5630,N,07951.5932,W,1,10,1.6,11,M,,M,,*6C
06/25/2015	17:06:22.543	$GPGGA,170623,2539.5654,N,07951.5950,W,1,10,2.5,11,M,,M,,*6B
06/25/2015	17:06:23.540	$GPGGA,170624,2539.5678,N,07951.5970,W,1,10,1.6,11,M,,M,,*60
06/25/2015	17:06:24.526	$GPGGA,170625,2539.5702,N,07951.5990,W,1,10,1.6,11,M,,M,,*63
06/25/2015	17:06:25.526	$GPGGA,170626,2539.5725,N,07951.6012,W,1,10,1.6,11,M,,M,,*65
06/25/2015	17:06:26.526	$GPGGA,170627,2539.5749,N,07951.6031,W,1,10,1.6,11,M,,M,,*6F
06/25/2015	17:06:27.566	$GPGGA,170628,2539.5773,N,07951.6052,W,1,10,1.6,11,M,,M,,*6C
06/25/2015	17:06:28.527	$GPGGA,170629,2539.5797,N,07951.6074,W,1,10,1.6,11,M,,M,,*63
06/25/2015	17:06:29.507	$GPGGA,170630,2539.5821,N,07951.6095,W,1,10,1.6,11,M,,M,,*66
06/25/2015	17:06:30.516	$GPGGA,170631,2539.5844,N,07951.6116,W,1,10,1.6,12,M,,M,,*6D
06/25/2015	17:06:31.566	$GPGGA,170632,2539.5868,N,07951.6138,W,1,10,1.6,12,M,,M,,*6C
06/25/2015	17:06:32.616	$GPGGA,170633,2539.5893,N,07951.6157,W,1,10,1.6,12,M,,M,,*60
06/25/2015	17:06:33.626	$GPGGA,170634,2539.5916,N,07951.6178,W,1,10,1.6,12,M,,M,,*66
06/25/2015	17:06:34.506	$GPGGA,170635,2539.5940,N,07951.6199,W,1,10,1.6,12,M,,M,,*6B
06/25/2015	17:06:35.656	$GPGGA,170636,2539.5963,N,07951.6221,W,1,10,1.6,12,M,,M,,*69
06/25/2015	17:06:36.486	$GPGGA,170637,2539.5988,N,07951.6241,W,1,10,1.6,12,M,,M,,*6B
06/25/2015	17:06:37.596	$GPGGA,170638,2539.6013,N,07951.6261,W,1,10,1.6,12,M,,M,,*6E
06/25/2015	17:06:38.496	$GPGGA,170639,2539.6037,N,07951.6283,W,1,10,1.6,12,M,,M,,*65
06/25/2015	17:06:39.496	$GPGGA,170640,2539.6060,N,07951.6304,W,1,10,1.6,12,M,,M,,*67
06/25/2015	17:06:40.586	$GPGGA,170641,2539.6085,N,07951.6324,W,1,10,1.6,12,M,,M,,*6F
06/25/2015	17:06:41.606	$GPGGA,170642,2539.6110,N,07951.6345,W,1,10,1.6,12,M,,M,,*66
06/25/2015	17:06:42.506	$GPGGA,170643,2539.6135,N,07951.6366,W,1,10,1.6,12,M,,M,,*61
06/25/2015	17:06:43.596	$GPGGA,170644,2539.6160,N,07951.6387,W,1,10,1.6,12,M,,M,,*69
06/25/2015	17:06:44.586	$GPGGA,170645,2539.6185,N,07951.6407,W,1,10,1.6,12,M,,M,,*6C
06/25/2015	17:06:45.487	$GPGGA,170646,2539.6209,N,07951.6428,W,1,10,1.6,12,M,,M,,*65
06/25/2015	17:06:46.577	$GPGGA,170647,2539.6234,N,07951.6449,W,1,10,1.6,12,M,,M,,*6D
06/25/2015	17:06:47.656	$GPGGA,170648,2539.6259,N,07951.6470,W,1,10,1.6,12,M,,M,,*63
06/25/2015	17:06:48.566	$GPGGA,170649,2539.6284,N,07951.6490,W,1,10,1.6,12,M,,M,,*6C
06/25/2015	17:06:49.586	$GPGGA,170650,2539.6310,N,07951.6510,W,1,10,1.6,12,M,,M,,*61
06/25/2015	17:06:50.566	$GPGGA,170651,2539.6335,N,07951.6530,W,1,10,1.6,12,M,,M,,*65
06/25/2015	17:06:51.906	$GPGGA,170652,2539.6360,N,07951.6550,W,1,10,1.6,12,M,,M,,*60
06/25/2015	17:06:52.566	$GPGGA,170653,2539.6386,N,07951.6569,W,1,10,1.6,12,M,,M,,*63
06/25/2015	17:06:53.576	$GPGGA,170654,2539.6413,N,07951.6589,W,1,10,1.6,12,M,,M,,*61
06/25/2015	17:06:54.556	$GPGGA,170655,2539.6438,N,07951.6608,W,1,10,1.6,12,M,,M,,*63
06/25/2015	17:06:55.586	$GPGGA,170656,2539.6464,N,07951.6627,W,1,10,1.6,12,M,,M,,*64
06/25/2015	17:06:56.547	$GPGGA,170657,2539.6490,N,07951.6647,W,1,10,1.6,12,M,,M,,*68
06/25/2015	17:06:57.566	$GPGGA,170658,2539.6516,N,07951.6665,W,1,10,1.6,12,M,,M,,*68
06/25/2015	17:06:58.606	$GPGGA,170659,2539.6543,N,07951.6684,W,1,10,1.6,12,M,,M,,*66
06/25/2015	17:06:59.596	$GPGGA,170700,2539.6569,N,07951.6705,W,1,10,1.6,12,M,,M,,*6B
06/25/2015	17:07:00.547	$GPGGA,170701,2539.6595,N,07951.6723,W,1,10,1.6,12,M,,M,,*6D
06/25/2015	17:07:01.536	$GPGGA,170702,2539.6622,N,07951.6741,W,1,10,1.6,12,M,,M,,*65
06/25/2015	17:07:02.566	$GPGGA,170703,2539.6648,N,07951.6760,W,1,10,1.6,12,M,,M,,*6B
06/25/2015	17:07:03.617	$GPGGA,170704,2539.6674,N,07951.6779,W,1,10,1.6,12,M,,M,,*6B
06/25/2015	17:07:04.538	$GPGGA,170705,2539.6700,N,07951.6799,W,1,10,1.6,12,M,,M,,*66
06/25/2015	17:07:05.548	$GPGGA,170706,2539.6728,N,07951.6817,W,1,10,1.6,12,M,,M,,*66
06/25/2015	17:07:06.536	$GPGGA,170707,2539.6754,N,07951.6835,W,1,10,1.6,12,M,,M,,*6C
06/25/2015	17:07:07.586	$GPGGA,170708,2539.6779,N,07951.6855,W,1,10,1.6,12,M,,M,,*6A
06/25/2015	17:07:08.556	$GPGGA,170709,2539.6807,N,07951.6873,W,1,10,1.6,12,M,,M,,*69
06/25/2015	17:07:09.536	$GPGGA,170710,2539.6833,N,07951.6893,W,1,10,1.6,12,M,,M,,*68
06/25/2015	17:07:10.536	$GPGGA,170711,2539.6859,N,07951.6911,W,1,10,1.6,12,M,,M,,*6E
06/25/2015	17:07:11.556	$GPGGA,170712,2539.6886,N,07951.6930,W,1,10,1.6,12,M,,M,,*6C
06/25/2015	17:07:12.506	$GPGGA,170713,2539.6913,N,07951.6949,W,1,10,1.6,12,M,,M,,*6E
06/25/2015	17:07:13.526	$GPGGA,170714,2539.6940,N,07951.6969,W,1,10,1.6,12,M,,M,,*6D
06/25/2015	17:07:14.526	$GPGGA,170715,2539.6967,N,07951.6988,W,1,10,1.6,12,M,,M,,*66
06/25/2015	17:07:15.536	$GPGGA,170716,2539.6992,N,07951.7008,W,1,10,1.6,12,M,,M,,*6F
06/25/2015	17:07:16.537	$GPGGA,170717,2539.7018,N,07951.7025,W,1,10,1.6,12,M,,M,,*6B
06/25/2015	17:07:17.506	$GPGGA,170718,2539.7046,N,07951.7045,W,1,10,1.6,12,M,,M,,*69
06/25/2015	17:07:18.516	$GPGGA,170719,2539.7072,N,07951.7064,W,1,10,1.6,12,M,,M,,*6C
06/25/2015	17:07:19.546	$GPGGA,170720,2539.7097,N,07951.7084,W,1,10,1.6,12,M,,M,,*63
06/25/2015	17:07:20.497	$GPGGA,170721,2539.7123,N,07951.7103,W,1,10,1.6,12,M,,M,,*62
06/25/2015	17:07:21.517	$GPGGA,170722,2539.7151,N,07951.7122,W,1,10,1.6,12,M,,M,,*67
06/25/2015	17:07:22.516	$GPGGA,170723,2539.7177,N,07951.7142,W,1,10,1.6,12,M,,M,,*64
06/25/2015	17:07:23.606	$GPGGA,170724,2539.7202,N,07951.7161,W,1,10,1.6,12,M,,M,,*63
06/25/2015	17:07:24.516	$GPGGA,170725,2539.7229,N,07951.7182,W,1,10,1.6,12,M,,M,,*66
06/25/2015	17:07:25.516	$GPGGA,170726,2539.7255,N,07951.7200,W,1,10,1.6,12,M,,M,,*67
06/25/2015	17:07:26.506	$GPGGA,170727,2539.7280,N,07951.7219,W,1,10,1.6,12,M,,M,,*66
06/25/2015	17:07:27.656	$GPGGA,170728,2539.7305,N,07951.7240,W,1,10,1.6,12,M,,M,,*69
06/25/2015	17:07:28.526	$GPGGA,170729,2539.7331,N,07951.7258,W,1,10,1.6,12,M,,M,,*66
06/25/2015	17:07:29.586	$GPGGA,170730,2539.7357,N,07951.7277,W,1,10,1.6,12,M,,M,,*63
06/25/2015	17:07:30.496	$GPGGA,170731,2539.7382,N,07951.7298,W,1,10,1.6,12,M,,M,,*6B
06/25/2015	17:07:31.617	$GPGGA,170732,2539.7408,N,07951.7319,W,1,10,1.6,12,M,,M,,*65
06/25/2015	17:07:32.576	$GPGGA,170733,2539.7435,N,07951.7338,W,1,10,1.6,12,M,,M,,*69
06/25/2015	17:07:33.576	$GPGGA,170734,2539.7459,N,07951.7359,W,1,10,1.6,12,M,,M,,*63
06/25/2015	17:07:34.576	$GPGGA,170735,2539.7484,N,07951.7377,W,1,10,1.6,12,M,,M,,*6E
06/25/2015	17:07:36.072	$GPGGA,170736,2539.7509,N,07951.7397,W,1,10,1.6,12,M,,M,,*67
06/25/2015	17:07:36.576	$GPGGA,170737,2539.7534,N,07951.7417,W,1,10,1.6,12,M,,M,,*67
06/25/2015	17:07:37.576	$GPGGA,170738,2539.7560,N,07951.7436,W,1,10,1.6,12,M,,M,,*6A
06/25/2015	17:07:38.567	$GPGGA,170739,2539.7585,N,07951.7457,W,1,10,1.6,12,M,,M,,*67
06/25/2015	17:07:39.607	$GPGGA,170740,2539.7610,N,07951.7478,W,1,10,1.6,12,M,,M,,*6B
06/25/2015	17:07:40.556	$GPGGA,170741,2539.7635,N,07951.7498,W,1,10,1.6,12,M,,M,,*63
06/25/2015	17:07:41.576	$GPGGA,170742,2539.7661,N,07951.7518,W,1,10,1.6,12,M,,M,,*68
06/25/2015	17:07:42.554	$GPGGA,170743,2539.7686,N,07951.7540,W,1,10,1.6,12,M,,M,,*6D
06/25/2015	17:07:43.576	$GPGGA,170744,2539.7711,N,07951.7559,W,1,10,1.6,12,M,,M,,*6D
06/25/2015	17:07:44.552	$GPGGA,170745,2539.7737,N,07951.7579,W,1,10,1.6,12,M,,M,,*6A
06/25/2015	17:07:45.566	$GPGGA,170746,2539.7761,N,07951.7598,W,1,10,1.6,12,M,,M,,*65
06/25/2015	17:07:46.554	$GPGGA,170747,2539.7786,N,07951.7619,W,1,10,1.6,12,M,,M,,*67
06/25/2015	17:07:47.566	$GPGGA,170748,2539.7811,N,07951.7638,W,1,10,1.6,12,M,,M,,*6A
06/25/2015	17:07:48.550	$GPGGA,170749,2539.7836,N,07951.7659,W,1,10,1.6,12,M,,M,,*69
06/25/2015	17:07:49.536	$GPGGA,170750,2539.7862,N,07951.7680,W,1,10,1.6,12,M,,M,,*64
06/25/2015	17:07:50.558	$GPGGA,170751,2539.7887,N,07951.7699,W,1,10,1.6,12,M,,M,,*66
06/25/2015	17:07:51.576	$GPGGA,170752,2539.7912,N,07951.7720,W,1,10,1.6,12,M,,M,,*6B
06/25/2015	17:07:52.526	$GPGGA,170753,2539.7938,N,07951.7740,W,1,10,1.6,12,M,,M,,*64
06/25/2015	17:07:53.526	$GPGGA,170754,2539.7963,N,07951.7761,W,1,10,1.6,12,M,,M,,*6E
06/25/2015	17:07:54.541	$GPGGA,170755,2539.7988,N,07951.7782,W,1,10,1.6,12,M,,M,,*67
06/25/2015	17:07:55.567	$GPGGA,170756,2539.8013,N,07951.7801,W,1,10,1.6,12,M,,M,,*64
06/25/2015	17:07:56.542	$GPGGA,170757,2539.8039,N,07951.7822,W,1,10,1.6,12,M,,M,,*6C
06/25/2015	17:07:57.516	$GPGGA,170758,2539.8064,N,07951.7843,W,1,10,1.6,12,M,,M,,*6C
06/25/2015	17:07:58.526	$GPGGA,170759,2539.8089,N,07951.7862,W,1,10,1.6,12,M,,M,,*6D
06/25/2015	17:07:59.606	$GPGGA,170800,2539.8115,N,07951.7883,W,1,10,1.6,12,M,,M,,*65
06/25/2015	17:08:00.506	$GPGGA,170801,2539.8140,N,07951.7904,W,1,10,1.6,12,M,,M,,*6A
06/25/2015	17:08:01.626	$GPGGA,170802,2539.8165,N,07951.7923,W,1,10,1.6,12,M,,M,,*6B
06/25/2015	17:08:02.506	$GPGGA,170803,2539.8191,N,07951.7944,W,1,10,1.6,12,M,,M,,*60
06/25/2015	17:08:03.636	$GPGGA,170804,2539.8217,N,07951.7963,W,1,10,1.6,12,M,,M,,*6F
06/25/2015	17:08:04.526	$GPGGA,170805,2539.8242,N,07951.7984,W,1,10,1.6,12,M,,M,,*67
06/25/2015	17:08:05.496	$GPGGA,170806,2539.8268,N,07951.8004,W,1,10,1.6,12,M,,M,,*62
06/25/2015	17:08:06.516	$GPGGA,170807,2539.8293,N,07951.8024,W,1,10,1.6,12,M,,M,,*65
06/25/2015	17:08:07.526	$GPGGA,170808,2539.8321,N,07951.8045,W,1,10,1.6,12,M,,M,,*65
06/25/2015	17:08:08.496	$GPGGA,170809,2539.8346,N,07951.8065,W,1,10,1.6,12,M,,M,,*67
06/25/2015	17:08:09.496	$GPGGA,170810,2539.8371,N,07951.8085,W,1,10,1.6,12,M,,M,,*65
06/25/2015	17:08:10.496	$GPGGA,170811,2539.8397,N,07951.8104,W,1,10,1.6,12,M,,M,,*64
06/25/2015	17:08:11.526	$GPGGA,170812,2539.8423,N,07951.8123,W,1,10,1.6,12,M,,M,,*6A
06/25/2015	17:08:12.486	$GPGGA,170813,2539.8448,N,07951.8143,W,1,10,1.6,12,M,,M,,*60
06/25/2015	17:08:13.627	$GPGGA,170814,2539.8474,N,07951.8163,W,1,10,1.6,12,M,,M,,*6A
06/25/2015	17:08:14.497	$GPGGA,170815,2539.8499,N,07951.8181,W,1,10,1.6,12,M,,M,,*64
06/25/2015	17:08:15.506	$GPGGA,170816,2539.8526,N,07951.8201,W,1,10,1.6,12,M,,M,,*69
06/25/2015	17:08:16.586	$GPGGA,170817,2539.8552,N,07951.8222,W,1,10,1.6,12,M,,M,,*6A
06/25/2015	17:08:17.576	$GPGGA,170818,2539.8578,N,07951.8241,W,1,10,1.6,12,M,,M,,*68
06/25/2015	17:08:18.576	$GPGGA,170819,2539.8604,N,07951.8259,W,1,10,1.6,12,M,,M,,*68
06/25/2015	17:08:19.596	$GPGGA,170820,2539.8629,N,07951.8278,W,1,10,1.6,12,M,,M,,*6E
06/25/2015	17:08:20.576	$GPGGA,170821,2539.8654,N,07951.8298,W,1,10,1.6,12,M,,M,,*6B
06/25/2015	17:08:21.586	$GPGGA,170822,2539.8680,N,07951.8317,W,1,10,1.6,12,M,,M,,*67
06/25/2015	17:08:22.566	$GPGGA,170823,2539.8707,N,07951.8336,W,1,10,1.6,12,M,,M,,*6B
06/25/2015	17:08:23.606	$GPGGA,170824,2539.8733,N,07951.8356,W,1,10,1.6,12,M,,M,,*6D
06/25/2015	17:08:24.556	$GPGGA,170825,2539.8759,N,07951.8374,W,1,10,1.6,12,M,,M,,*60
06/25/2015	17:08:25.576	$GPGGA,170826,2539.8786,N,07951.8393,W,1,10,1.6,12,M,,M,,*68
06/25/2015	17:08:26.556	$GPGGA,170827,2539.8812,N,07951.8412,W,1,10,1.6,13,M,,M,,*64
06/25/2015	17:08:27.586	$GPGGA,170828,2539.8838,N,07951.8432,W,1,10,1.6,13,M,,M,,*61
06/25/2015	17:08:28.556	$GPGGA,170829,2539.8864,N,07951.8452,W,1,10,1.6,13,M,,M,,*6F
06/25/2015	17:08:29.548	$GPGGA,170830,2539.8889,N,07951.8472,W,1,10,1.6,13,M,,M,,*66
06/25/2015	17:08:30.557	$GPGGA,170831,2539.8917,N,07951.8490,W,1,10,1.6,13,M,,M,,*6D
06/25/2015	17:08:31.567	$GPGGA,170832,2539.8942,N,07951.8509,W,1,10,1.6,13,M,,M,,*6F
06/25/2015	17:08:32.547	$GPGGA,170833,2539.8968,N,07951.8530,W,1,10,1.6,13,M,,M,,*6C
06/25/2015	17:08:33.541	$GPGGA,170834,2539.8994,N,07951.8548,W,1,10,1.6,13,M,,M,,*67
06/25/2015	17:08:34.549	$GPGGA,170835,2539.9021,N,07951.8567,W,1,10,1.6,13,M,,M,,*6D
06/25/2015	17:08:35.547	$GPGGA,170836,2539.9045,N,07951.8587,W,1,10,1.6,13,M,,M,,*62
06/25/2015	17:08:36.547	$GPGGA,170837,2539.9072,N,07951.8605,W,1,10,1.6,13,M,,M,,*6E
06/25/2015	17:08:37.566	$GPGGA,170838,2539.9098,N,07951.8624,W,1,10,1.6,13,M,,M,,*66
06/25/2015	17:08:38.536	$GPGGA,170839,2539.9123,N,07951.8642,W,1,10,1.6,13,M,,M,,*66
06/25/2015	17:08:39.566	$GPGGA,170840,2539.9148,N,07951.8661,W,1,10,1.6,13,M,,M,,*64
06/25/2015	17:08:40.541	$GPGGA,170841,2539.9173,N,07951.8679,W,1,10,1.6,13,M,,M,,*64
06/25/2015	17:08:41.556	$GPGGA,170842,2539.9198,N,07951.8696,W,1,10,1.6,13,M,,M,,*63
06/25/2015	17:08:42.536	$GPGGA,170843,2539.9221,N,07951.8714,W,1,10,1.6,13,M,,M,,*68
06/25/2015	17:08:43.556	$GPGGA,170844,2539.9245,N,07951.8732,W,1,10,1.6,13,M,,M,,*69
06/25/2015	17:08:44.526	$GPGGA,170845,2539.9268,N,07951.8748,W,1,10,1.6,13,M,,M,,*6A
06/25/2015	17:08:45.516	$GPGGA,170846,2539.9292,N,07951.8764,W,1,10,1.6,13,M,,M,,*62
06/25/2015	17:08:46.526	$GPGGA,170847,2539.9314,N,07951.8780,W,1,10,1.6,13,M,,M,,*66
06/25/2015	17:08:47.526	$GPGGA,170848,2539.9337,N,07951.8795,W,1,10,1.6,13,M,,M,,*6C
06/25/2015	17:08:48.507	$GPGGA,170849,2539.9359,N,07951.8811,W,1,10,1.6,13,M,,M,,*66
06/25/2015	17:08:49.517	$GPGGA,170850,2539.9380,N,07951.8826,W,1,10,1.6,13,M,,M,,*6E
06/25/2015	17:08:50.526	$GPGGA,170851,2539.9402,N,07951.8840,W,1,10,1.6,13,M,,M,,*62
06/25/2015	17:08:51.526	$GPGGA,170852,2539.9424,N,07951.8855,W,1,10,1.6,13,M,,M,,*61
06/25/2015	17:08:52.516	$GPGGA,170853,2539.9445,N,07951.8869,W,1,10,1.6,13,M,,M,,*68
06/25/2015	17:08:53.643	$GPGGA,170854,2539.9467,N,07951.8881,W,1,10,1.6,13,M,,M,,*69
06/25/2015	17:08:54.506	$GPGGA,170855,2539.9488,N,07951.8895,W,1,10,1.6,13,M,,M,,*6C
06/25/2015	17:08:55.606	$GPGGA,170856,2539.9509,N,07951.8907,W,1,10,1.6,13,M,,M,,*6D
06/25/2015	17:08:56.596	$GPGGA,170857,2539.9529,N,07951.8920,W,1,10,1.6,13,M,,M,,*6B
06/25/2015	17:08:57.586	$GPGGA,170858,2539.9550,N,07951.8931,W,1,10,1.6,13,M,,M,,*6A
06/25/2015	17:08:58.486	$GPGGA,170859,2539.9570,N,07951.8943,W,1,10,1.6,13,M,,M,,*6C
06/25/2015	17:08:59.549	$GPGGA,170900,2539.9590,N,07951.8956,W,1,10,1.6,13,M,,M,,*6B
06/25/2015	17:09:00.496	$GPGGA,170901,2539.9611,N,07951.8965,W,1,10,1.6,13,M,,M,,*60
06/25/2015	17:09:01.626	$GPGGA,170902,2539.9630,N,07951.8977,W,1,10,1.6,13,M,,M,,*63
06/25/2015	17:09:02.586	$GPGGA,170903,2539.9651,N,07951.8988,W,1,10,1.6,13,M,,M,,*65
06/25/2015	17:09:03.636	$GPGGA,170904,2539.9669,N,07951.8997,W,1,10,1.6,13,M,,M,,*67
06/25/2015	17:09:04.576	$GPGGA,170905,2539.9690,N,07951.9007,W,1,10,1.6,13,M,,M,,*61
06/25/2015	17:09:05.597	$GPGGA,170906,2539.9709,N,07951.9017,W,1,10,1.6,13,M,,M,,*62
06/25/2015	17:09:06.567	$GPGGA,170907,2539.9727,N,07951.9028,W,1,10,1.6,13,M,,M,,*63
06/25/2015	17:09:07.626	$GPGGA,170908,2539.9748,N,07951.9036,W,1,10,1.6,13,M,,M,,*6A
06/25/2015	17:09:08.566	$GPGGA,170909,2539.9767,N,07951.9046,W,1,10,1.6,13,M,,M,,*61
06/25/2015	17:09:09.586	$GPGGA,170910,2539.9785,N,07951.9054,W,1,10,1.6,13,M,,M,,*66
06/25/2015	17:09:10.566	$GPGGA,170911,2539.9805,N,07951.9064,W,1,10,1.6,13,M,,M,,*63
06/25/2015	17:09:11.606	$GPGGA,170912,2539.9824,N,07951.9072,W,1,10,1.6,13,M,,M,,*64
06/25/2015	17:09:12.556	$GPGGA,170913,2539.9842,N,07951.9080,W,1,10,1.6,13,M,,M,,*68
06/25/2015	17:09:13.576	$GPGGA,170914,2539.9861,N,07951.9090,W,1,10,1.6,13,M,,M,,*6F
06/25/2015	17:09:14.566	$GPGGA,170915,2539.9879,N,07951.9098,W,1,10,1.6,13,M,,M,,*6F
06/25/2015	17:09:15.596	$GPGGA,170916,2539.9899,N,07951.9105,W,1,10,1.6,13,M,,M,,*67
06/25/2015	17:09:16.556	$GPGGA,170917,2539.9918,N,07951.9115,W,1,10,1.6,13,M,,M,,*6F
06/25/2015	17:09:17.556	$GPGGA,170918,2539.9937,N,07951.9122,W,1,10,1.6,13,M,,M,,*69
06/25/2015	17:09:18.557	$GPGGA,170919,2539.9957,N,07951.9129,W,1,10,1.6,13,M,,M,,*65
06/25/2015	17:09:19.586	$GPGGA,170920,2539.9976,N,07951.9137,W,1,10,1.6,13,M,,M,,*63
06/25/2015	17:09:20.551	$GPGGA,170921,2539.9995,N,07951.9145,W,1,10,1.6,13,M,,M,,*6A
06/25/2015	17:09:21.556	$GPGGA,170922,2540.0015,N,07951.9154,W,1,10,1.6,13,M,,M,,*6F
06/25/2015	17:09:22.536	$GPGGA,170923,2540.0034,N,07951.9160,W,1,10,1.6,13,M,,M,,*6A
06/25/2015	17:09:23.587	$GPGGA,170924,2540.0053,N,07951.9169,W,1,10,1.6,13,M,,M,,*65
06/25/2015	17:09:24.554	$GPGGA,170925,2540.0074,N,07951.9176,W,1,10,1.6,13,M,,M,,*6F
06/25/2015	17:09:25.539	$GPGGA,170926,2540.0094,N,07951.9183,W,1,10,1.6,13,M,,M,,*68
06/25/2015	17:09:26.536	$GPGGA,170927,2540.0114,N,07951.9191,W,1,10,1.6,13,M,,M,,*63
06/25/2015	17:09:27.557	$GPGGA,170928,2540.0134,N,07951.9196,W,1,9,2.5,13,M,,M,,*51
06/25/2015	17:09:28.539	$GPGGA,170929,2540.0154,N,07951.9202,W,1,9,1.6,13,M,,M,,*58
06/25/2015	17:09:29.540	$GPGGA,170930,2540.0175,N,07951.9207,W,1,10,1.6,13,M,,M,,*6E
06/25/2015	17:09:30.526	$GPGGA,170931,2540.0195,N,07951.9213,W,1,10,1.6,13,M,,M,,*64
06/25/2015	17:09:31.556	$GPGGA,170932,2540.0215,N,07951.9220,W,1,10,1.6,13,M,,M,,*6C
06/25/2015	17:09:33.826	$GPGGA,170933,2540.0236,N,07951.9225,W,1,10,1.6,13,M,,M,,*69
06/25/2015	17:09:33.856	$GPGGA,170934,2540.0255,N,07951.9230,W,1,10,1.6,13,M,,M,,*6F
06/25/2015	17:09:34.516	$GPGGA,170935,2540.0276,N,07951.9234,W,1,10,1.6,13,M,,M,,*6B
06/25/2015	17:09:35.548	$GPGGA,170936,2540.0297,N,07951.9241,W,1,10,1.6,14,M,,M,,*62
06/25/2015	17:09:36.516	$GPGGA,170937,2540.0318,N,07951.9245,W,1,10,1.6,14,M,,M,,*61
06/25/2015	17:09:37.506	$GPGGA,170938,2540.0340,N,07951.9250,W,1,10,1.6,14,M,,M,,*67
06/25/2015	17:09:38.506	$GPGGA,170939,2540.0360,N,07951.9256,W,1,10,1.6,14,M,,M,,*62
06/25/2015	17:09:39.539	$GPGGA,170940,2540.0381,N,07951.9261,W,1,8,2.8,14,M,,M,,*53
06/25/2015	17:09:40.497	$GPGGA,170941,2540.0403,N,07951.9267,W,1,8,1.7,14,M,,M,,*55
06/25/2015	17:09:41.687	$GPGGA,170942,2540.0424,N,07951.9272,W,1,9,1.7,14,M,,M,,*56
06/25/2015	17:09:42.506	$GPGGA,170943,2540.0446,N,07951.9277,W,1,9,1.7,14,M,,M,,*56
06/25/2015	17:09:43.550	$GPGGA,170944,2540.0468,N,07951.9279,W,1,10,1.7,14,M,,M,,*6B
06/25/2015	17:09:44.596	$GPGGA,170945,2540.0489,N,07951.9282,W,1,10,1.7,14,M,,M,,*61
06/25/2015	17:09:45.496	$GPGGA,170946,2540.0511,N,07951.9285,W,1,10,1.7,14,M,,M,,*65
06/25/2015	17:09:46.626	$GPGGA,170947,2540.0532,N,07951.9288,W,1,10,1.7,14,M,,M,,*68
06/25/2015	17:09:47.506	$GPGGA,170948,2540.0554,N,07951.9290,W,1,10,1.7,14,M,,M,,*6E
06/25/2015	17:09:48.496	$GPGGA,170949,2540.0575,N,07951.9292,W,1,10,1.7,14,M,,M,,*6E
06/25/2015	17:09:49.686	$GPGGA,170950,2540.0594,N,07951.9295,W,1,10,1.7,15,M,,M,,*6F
06/25/2015	17:09:50.577	$GPGGA,170951,2540.0616,N,07951.9296,W,1,10,1.7,15,M,,M,,*64
06/25/2015	17:09:51.696	$GPGGA,170952,2540.0637,N,07951.9297,W,1,10,1.7,15,M,,M,,*65
06/25/2015	17:09:52.576	$GPGGA,170953,2540.0658,N,07951.9299,W,1,10,1.7,15,M,,M,,*63
06/25/2015	17:09:53.666	$GPGGA,170954,2540.0678,N,07951.9300,W,1,10,1.7,15,M,,M,,*67
06/25/2015	17:09:54.597	$GPGGA,170955,2540.0699,N,07951.9301,W,1,10,1.7,15,M,,M,,*68
06/25/2015	17:09:55.576	$GPGGA,170956,2540.0721,N,07951.9303,W,1,10,1.7,15,M,,M,,*6B
06/25/2015	17:09:56.596	$GPGGA,170957,2540.0742,N,07951.9304,W,1,10,1.7,16,M,,M,,*6B
06/25/2015	17:09:57.676	$GPGGA,170958,2540.0763,N,07951.9304,W,1,10,1.7,16,M,,M,,*67
06/25/2015	17:09:58.587	$GPGGA,170959,2540.0784,N,07951.9306,W,1,10,1.7,16,M,,M,,*6D
06/25/2015	17:09:59.677	$GPGGA,171000,2540.0804,N,07951.9306,W,1,10,1.7,16,M,,M,,*6E
06/25/2015	17:10:00.586	$GPGGA,171001,2540.0825,N,07951.9305,W,1,10,1.7,16,M,,M,,*6F
06/25/2015	17:10:01.656	$GPGGA,171002,2540.0846,N,07951.9304,W,1,10,1.7,16,M,,M,,*68
06/25/2015	17:10:02.586	$GPGGA,171003,2540.0865,N,07951.9304,W,1,10,1.7,16,M,,M,,*68
06/25/2015	17:10:03.556	$GPGGA,171004,2540.0885,N,07951.9302,W,1,9,1.7,16,M,,M,,*5F
06/25/2015	17:10:04.576	$GPGGA,171005,2540.0905,N,07951.9300,W,1,9,1.7,16,M,,M,,*55
06/25/2015	17:10:05.656	$GPGGA,171006,2540.0923,N,07951.9299,W,1,10,1.7,16,M,,M,,*6B
06/25/2015	17:10:06.586	$GPGGA,171007,2540.0944,N,07951.9298,W,1,10,1.7,16,M,,M,,*6A
06/25/2015	17:10:07.646	$GPGGA,171008,2540.0963,N,07951.9295,W,1,10,1.7,16,M,,M,,*6D
06/25/2015	17:10:08.586	$GPGGA,171009,2540.0981,N,07951.9292,W,1,10,1.7,16,M,,M,,*67
06/25/2015	17:10:09.649	$GPGGA,171010,2540.1002,N,07951.9290,W,1,10,1.7,16,M,,M,,*6E
06/25/2015	17:10:10.566	$GPGGA,171011,2540.1021,N,07951.9288,W,1,10,1.7,16,M,,M,,*67
06/25/2015	17:10:11.656	$GPGGA,171012,2540.1041,N,07951.9284,W,1,10,1.7,16,M,,M,,*6E
06/25/2015	17:10:12.566	$GPGGA,171013,2540.1060,N,07951.9282,W,1,10,1.7,16,M,,M,,*6A
06/25/2015	17:10:13.526	$GPGGA,171014,2540.1079,N,07951.9279,W,1,10,1.7,16,M,,M,,*61
06/25/2015	17:10:14.556	$GPGGA,171015,2540.1099,N,07951.9276,W,1,10,1.7,16,M,,M,,*61
06/25/2015	17:10:15.651	$GPGGA,171016,2540.1117,N,07951.9272,W,1,10,1.7,16,M,,M,,*61
06/25/2015	17:10:16.567	$GPGGA,171017,2540.1136,N,07951.9269,W,1,10,1.7,16,M,,M,,*69
06/25/2015	17:10:17.636	$GPGGA,171018,2540.1154,N,07951.9266,W,1,10,1.7,16,M,,M,,*6D
06/25/2015	17:10:18.554	$GPGGA,171019,2540.1172,N,07951.9263,W,1,10,1.7,16,M,,M,,*6D
06/25/2015	17:10:19.616	$GPGGA,171020,2540.1190,N,07951.9260,W,1,10,1.7,15,M,,M,,*6B
06/25/2015	17:10:20.516	$GPGGA,171021,2540.1208,N,07951.9258,W,1,10,1.7,15,M,,M,,*63
06/25/2015	17:10:21.606	$GPGGA,171022,2540.1225,N,07951.9256,W,1,10,1.7,15,M,,M,,*61
06/25/2015	17:10:22.549	$GPGGA,171023,2540.1241,N,07951.9253,W,1,10,1.7,15,M,,M,,*67
06/25/2015	17:10:23.596	$GPGGA,171024,2540.1258,N,07951.9250,W,1,10,1.7,15,M,,M,,*6B
06/25/2015	17:10:24.558	$GPGGA,171025,2540.1274,N,07951.9248,W,1,10,1.7,15,M,,M,,*6D
06/25/2015	17:10:25.636	$GPGGA,171026,2540.1291,N,07951.9246,W,1,10,1.7,15,M,,M,,*6B
06/25/2015	17:10:26.537	$GPGGA,171027,2540.1308,N,07951.9244,W,1,10,1.7,15,M,,M,,*69
06/25/2015	17:10:27.606	$GPGGA,171028,2540.1324,N,07951.9242,W,1,10,1.7,15,M,,M,,*6E
06/25/2015	17:10:28.616	$GPGGA,171029,2540.1339,N,07951.9240,W,1,10,1.7,15,M,,M,,*61
06/25/2015	17:10:29.606	$GPGGA,171030,2540.1355,N,07951.9238,W,1,10,1.7,15,M,,M,,*6C
06/25/2015	17:10:30.540	$GPGGA,171031,2540.1370,N,07951.9236,W,1,10,1.7,15,M,,M,,*64
06/25/2015	17:10:31.596	$GPGGA,171032,2540.1385,N,07951.9235,W,1,10,1.7,15,M,,M,,*6E
06/25/2015	17:10:32.542	$GPGGA,171033,2540.1402,N,07951.9233,W,1,10,1.7,15,M,,M,,*61
06/25/2015	17:10:33.617	$GPGGA,171034,2540.1417,N,07951.9232,W,1,10,1.7,15,M,,M,,*63
06/25/2015	17:10:34.543	$GPGGA,171035,2540.1432,N,07951.9230,W,1,10,1.7,15,M,,M,,*67
06/25/2015	17:10:35.643	$GPGGA,171036,2540.1447,N,07951.9229,W,1,10,1.7,15,M,,M,,*6E
06/25/2015	17:10:36.557	$GPGGA,171037,2540.1462,N,07951.9227,W,1,10,1.7,15,M,,M,,*66
06/25/2015	17:10:37.586	$GPGGA,171038,2540.1478,N,07951.9226,W,1,10,2.0,15,M,,M,,*67
06/25/2015	17:10:38.586	$GPGGA,171039,2540.1493,N,07951.9225,W,1,10,1.7,15,M,,M,,*64
06/25/2015	17:10:39.586	$GPGGA,171040,2540.1508,N,07951.9223,W,1,10,1.7,15,M,,M,,*6F
06/25/2015	17:10:40.586	$GPGGA,171041,2540.1523,N,07951.9221,W,1,10,1.7,15,M,,M,,*65
06/25/2015	17:10:41.616	$GPGGA,171042,2540.1537,N,07951.9219,W,1,10,1.7,15,M,,M,,*68
06/25/2015	17:10:42.576	$GPGGA,171043,2540.1552,N,07951.9218,W,1,10,1.7,15,M,,M,,*6B
06/25/2015	17:10:43.638	$GPGGA,171044,2540.1566,N,07951.9216,W,1,10,1.7,15,M,,M,,*65
06/25/2015	17:10:44.566	$GPGGA,171045,2540.1580,N,07951.9214,W,1,10,1.7,15,M,,M,,*6E
06/25/2015	17:10:45.616	$GPGGA,171046,2540.1594,N,07951.9212,W,1,10,1.7,15,M,,M,,*6E
06/25/2015	17:10:46.556	$GPGGA,171047,2540.1609,N,07951.9210,W,1,10,1.7,15,M,,M,,*6A
06/25/2015	17:10:47.616	$GPGGA,171048,2540.1624,N,07951.9209,W,1,10,2.5,15,M,,M,,*63
06/25/2015	17:10:48.556	$GPGGA,171049,2540.1635,N,07951.9204,W,1,10,1.7,15,M,,M,,*6E
06/25/2015	17:10:49.596	$GPGGA,171050,2540.1649,N,07951.9201,W,1,10,1.7,15,M,,M,,*68
06/25/2015	17:10:50.567	$GPGGA,171051,2540.1664,N,07951.9199,W,1,10,1.7,15,M,,M,,*64
06/25/2015	17:10:51.597	$GPGGA,171052,2540.1678,N,07951.9197,W,1,10,1.7,15,M,,M,,*64
06/25/2015	17:10:52.556	$GPGGA,171053,2540.1691,N,07951.9195,W,1,10,2.5,15,M,,M,,*61
06/25/2015	17:10:53.626	$GPGGA,171054,2540.1703,N,07951.9193,W,1,9,2.5,15,M,,M,,*52
06/25/2015	17:10:54.554	$GPGGA,171055,2540.1717,N,07951.9189,W,1,9,1.7,15,M,,M,,*5C
06/25/2015	17:10:55.596	$GPGGA,171056,2540.1731,N,07951.9187,W,1,10,1.7,15,M,,M,,*6D
06/25/2015	17:10:56.541	$GPGGA,171057,2540.1743,N,07951.9184,W,1,10,1.7,15,M,,M,,*6A
06/25/2015	17:10:57.637	$GPGGA,171058,2540.1754,N,07951.9182,W,1,10,1.7,16,M,,M,,*66
06/25/2015	17:10:58.546	$GPGGA,171059,2540.1767,N,07951.9180,W,1,10,1.7,16,M,,M,,*65
06/25/2015	17:10:59.606	$GPGGA,171100,2540.1779,N,07951.9178,W,1,10,1.7,16,M,,M,,*60
06/25/2015	17:11:00.546	$GPGGA,171101,2540.1792,N,07951.9175,W,1,10,1.7,16,M,,M,,*69
06/25/2015	17:11:01.586	$GPGGA,171102,2540.1804,N,07951.9173,W,1,10,1.7,16,M,,M,,*6C
06/25/2015	17:11:02.536	$GPGGA,171103,2540.1816,N,07951.9172,W,1,10,1.7,17,M,,M,,*6E
06/25/2015	17:11:03.576	$GPGGA,171104,2540.1829,N,07951.9170,W,1,10,1.7,17,M,,M,,*67
06/25/2015	17:11:04.526	$GPGGA,171105,2540.1840,N,07951.9168,W,1,10,1.7,17,M,,M,,*60
06/25/2015	17:11:05.576	$GPGGA,171106,2540.1852,N,07951.9167,W,1,9,1.7,17,M,,M,,*57
06/25/2015	17:11:06.536	$GPGGA,171107,2540.1863,N,07951.9166,W,1,9,1.7,17,M,,M,,*55
06/25/2015	17:11:07.576	$GPGGA,171108,2540.1877,N,07951.9165,W,1,10,2.5,17,M,,M,,*65
06/25/2015	17:11:08.539	$GPGGA,171109,2540.1888,N,07951.9165,W,1,10,2.5,17,M,,M,,*64
06/25/2015	17:11:12.906	$GPGGA,171111,2540.1913,N,07951.9162,W,1,10,1.7,17,M,,M,,*68
06/25/2015	17:11:12.966	$GPGGA,171113,2540.1938,N,07951.9157,W,1,10,1.7,17,M,,M,,*65
06/25/2015	17:11:13.526	$GPGGA,171114,2540.1938,N,07951.9157,W,1,10,1.7,17,M,,M,,*62
06/25/2015	17:11:14.517	$GPGGA,171115,2540.1960,N,07951.9151,W,1,10,1.7,18,M,,M,,*67
06/25/2015	17:11:15.548	$GPGGA,171116,2540.1971,N,07951.9146,W,1,10,1.7,18,M,,M,,*62
06/25/2015	17:11:16.536	$GPGGA,171117,2540.1982,N,07951.9142,W,1,10,2.4,18,M,,M,,*6B
06/25/2015	17:11:17.526	$GPGGA,171118,2540.1982,N,07951.9142,W,1,8,2.4,18,M,,M,,*5D
06/25/2015	17:11:18.506	$GPGGA,171119,2540.2003,N,07951.9136,W,1,8,1.7,18,M,,M,,*5C
06/25/2015	17:11:19.606	$GPGGA,171120,2540.2014,N,07951.9132,W,1,9,2.0,18,M,,M,,*51
06/25/2015	17:11:20.596	$GPGGA,171121,2540.2025,N,07951.9127,W,1,9,2.0,18,M,,M,,*56
06/25/2015	17:11:21.606	$GPGGA,171122,2540.2036,N,07951.9122,W,1,10,1.7,18,M,,M,,*6E
06/25/2015	17:11:22.506	$GPGGA,171123,2540.2049,N,07951.9117,W,1,10,1.7,18,M,,M,,*61
06/25/2015	17:11:23.641	$GPGGA,171124,2540.2060,N,07951.9111,W,1,10,1.7,18,M,,M,,*6B
06/25/2015	17:11:24.586	$GPGGA,171125,2540.2071,N,07951.9106,W,1,10,1.7,18,M,,M,,*6C
06/25/2015	17:11:25.587	$GPGGA,171126,2540.2082,N,07951.9100,W,1,10,1.7,18,M,,M,,*65
06/25/2015	17:11:26.587	$GPGGA,171127,2540.2093,N,07951.9094,W,1,10,1.7,18,M,,M,,*68
06/25/2015	17:11:27.626	$GPGGA,171128,2540.2104,N,07951.9089,W,1,10,1.7,19,M,,M,,*65
06/25/2015	17:11:28.576	$GPGGA,171129,2540.2115,N,07951.9083,W,1,10,1.7,19,M,,M,,*6E
06/25/2015	17:11:29.596	$GPGGA,171130,2540.2126,N,07951.9077,W,1,10,1.7,19,M,,M,,*6D
06/25/2015	17:11:30.566	$GPGGA,171131,2540.2137,N,07951.9070,W,1,10,1.7,19,M,,M,,*6B
06/25/2015	17:11:31.616	$GPGGA,171132,2540.2148,N,07951.9064,W,1,10,1.7,19,M,,M,,*65
06/25/2015	17:11:32.556	$GPGGA,171133,2540.2159,N,07951.9058,W,1,10,1.7,19,M,,M,,*6B
06/25/2015	17:11:33.586	$GPGGA,171134,2540.2169,N,07951.9051,W,1,10,1.7,19,M,,M,,*66
06/25/2015	17:11:34.566	$GPGGA,171135,2540.2180,N,07951.9045,W,1,10,1.7,19,M,,M,,*65
06/25/2015	17:11:35.566	$GPGGA,171136,2540.2190,N,07951.9038,W,1,10,1.7,19,M,,M,,*6D
06/25/2015	17:11:36.566	$GPGGA,171137,2540.2199,N,07951.9030,W,1,10,1.7,18,M,,M,,*6C
06/25/2015	17:11:37.576	$GPGGA,171138,2540.2209,N,07951.9023,W,1,10,1.7,18,M,,M,,*6B
06/25/2015	17:11:38.556	$GPGGA,171139,2540.2220,N,07951.9016,W,1,10,1.7,18,M,,M,,*67
06/25/2015	17:11:39.586	$GPGGA,171140,2540.2231,N,07951.9009,W,1,10,1.7,18,M,,M,,*67
06/25/2015	17:11:40.546	$GPGGA,171141,2540.2241,N,07951.9002,W,1,10,1.7,18,M,,M,,*6A
06/25/2015	17:11:41.566	$GPGGA,171142,2540.2249,N,07951.8995,W,1,10,1.7,18,M,,M,,*67
06/25/2015	17:11:42.546	$GPGGA,171143,2540.2260,N,07951.8987,W,1,10,1.7,18,M,,M,,*6E
06/25/2015	17:11:43.577	$GPGGA,171144,2540.2270,N,07951.8980,W,1,10,1.7,18,M,,M,,*6F
06/25/2015	17:11:44.547	$GPGGA,171145,2540.2278,N,07951.8972,W,1,10,1.7,18,M,,M,,*6B
