Software Version Number: 1	Data File Format Number: 1	Build Version Number: 1	Error Count Since VI Started: 1	Manufacturer: Raytheon	 Model Number: RayMarine 120	 S/N: 	 Cal Date: 	 Wind Direction Offset: 0.00	 Slope (M)1: 0.00	 Offset (B)1: 0.00	 Slope (M)2: 0.00	 Offset (B)2: 0.00	 Slope (M)3: 0.00	 Offset (B)3: 0.00	 Slope (M)4: 0.00	 Offset (B)4: 0.00	 Slope (M)5: 0.00	 Offset (B)5: 0.00	 Slope (M)6: 0.00	 Offset (B)6: 0.00
Computer Date	Computer Time	GGA String
06/11/2015	18:00:00.576	$GPGGA,180001,2426.9982,N,08127.8587,W,1,11,1.5,20,M,,M,,*68
06/11/2015	18:00:01.584	$GPGGA,180002,2426.9977,N,08127.8607,W,1,11,1.5,20,M,,M,,*6A
06/11/2015	18:00:02.584	$GPGGA,180003,2426.9971,N,08127.8627,W,1,11,1.6,20,M,,M,,*6C
06/11/2015	18:00:03.584	$GPGGA,180004,2426.9966,N,08127.8647,W,1,10,1.6,20,M,,M,,*6A
06/11/2015	18:00:04.576	$GPGGA,180005,2426.9960,N,08127.8670,W,1,10,1.6,20,M,,M,,*69
06/11/2015	18:00:05.594	$GPGGA,180006,2426.9955,N,08127.8690,W,1,11,1.5,20,M,,M,,*60
06/11/2015	18:00:06.564	$GPGGA,180007,2426.9948,N,08127.8711,W,1,11,1.5,20,M,,M,,*65
06/11/2015	18:00:07.604	$GPGGA,180008,2426.9941,N,08127.8733,W,1,10,1.6,20,M,,M,,*61
06/11/2015	18:00:08.574	$GPGGA,180009,2426.9937,N,08127.8755,W,1,10,1.6,20,M,,M,,*61
06/11/2015	18:00:09.554	$GPGGA,180010,2426.9930,N,08127.8776,W,1,11,1.5,20,M,,M,,*6D
06/11/2015	18:00:10.563	$GPGGA,180011,2426.9924,N,08127.8797,W,1,11,1.5,20,M,,M,,*66
06/11/2015	18:00:11.583	$GPGGA,180012,2426.9919,N,08127.8819,W,1,11,1.5,20,M,,M,,*62
06/11/2015	18:00:12.563	$GPGGA,180013,2426.9915,N,08127.8840,W,1,11,1.5,20,M,,M,,*63
06/11/2015	18:00:13.553	$GPGGA,180014,2426.9909,N,08127.8862,W,1,11,1.5,20,M,,M,,*69
06/11/2015	18:00:14.563	$GPGGA,180015,2426.9904,N,08127.8884,W,1,11,1.5,20,M,,M,,*6D
06/11/2015	18:00:15.563	$GPGGA,180016,2426.9899,N,08127.8905,W,1,11,1.5,20,M,,M,,*63
06/11/2015	18:00:16.564	$GPGGA,180017,2426.9893,N,08127.8927,W,1,11,1.5,20,M,,M,,*68
06/11/2015	18:00:17.544	$GPGGA,180018,2426.9887,N,08127.8949,W,1,11,1.5,20,M,,M,,*6A
06/11/2015	18:00:18.534	$GPGGA,180019,2426.9883,N,08127.8971,W,1,11,1.5,20,M,,M,,*64
06/11/2015	18:00:19.544	$GPGGA,180020,2426.9876,N,08127.8995,W,1,11,1.5,20,M,,M,,*6E
06/11/2015	18:00:20.534	$GPGGA,180021,2426.9870,N,08127.9017,W,1,11,1.6,20,M,,M,,*68
06/11/2015	18:00:21.564	$GPGGA,180022,2426.9865,N,08127.9039,W,1,10,1.6,20,M,,M,,*62
06/11/2015	18:00:22.524	$GPGGA,180023,2426.9859,N,08127.9061,W,1,10,1.5,20,M,,M,,*62
06/11/2015	18:00:23.544	$GPGGA,180024,2426.9854,N,08127.9082,W,1,11,1.5,20,M,,M,,*64
06/11/2015	18:00:24.544	$GPGGA,180025,2426.9847,N,08127.9104,W,1,11,1.5,20,M,,M,,*68
06/11/2015	18:00:25.544	$GPGGA,180026,2426.9840,N,08127.9127,W,1,10,1.6,20,M,,M,,*6F
06/11/2015	18:00:26.624	$GPGGA,180027,2426.9834,N,08127.9151,W,1,10,1.6,20,M,,M,,*6C
06/11/2015	18:00:27.654	$GPGGA,180028,2426.9827,N,08127.9173,W,1,11,1.5,20,M,,M,,*63
06/11/2015	18:00:28.643	$GPGGA,180029,2426.9821,N,08127.9195,W,1,11,1.5,19,M,,M,,*66
06/11/2015	18:00:29.513	$GPGGA,180030,2426.9815,N,08127.9219,W,1,11,1.5,19,M,,M,,*6E
06/11/2015	18:00:30.523	$GPGGA,180031,2426.9808,N,08127.9241,W,1,11,1.6,19,M,,M,,*6D
06/11/2015	18:00:31.523	$GPGGA,180032,2426.9803,N,08127.9263,W,1,11,1.5,19,M,,M,,*66
06/11/2015	18:00:32.603	$GPGGA,180033,2426.9797,N,08127.9285,W,1,11,1.5,19,M,,M,,*6D
06/11/2015	18:00:33.604	$GPGGA,180034,2426.9791,N,08127.9308,W,1,11,1.5,19,M,,M,,*68
06/11/2015	18:00:34.524	$GPGGA,180035,2426.9785,N,08127.9332,W,1,11,1.5,19,M,,M,,*65
06/11/2015	18:00:35.514	$GPGGA,180036,2426.9780,N,08127.9354,W,1,11,1.5,19,M,,M,,*63
06/11/2015	18:00:36.614	$GPGGA,180037,2426.9773,N,08127.9376,W,1,11,1.5,19,M,,M,,*6E
06/11/2015	18:00:37.505	$GPGGA,180038,2426.9768,N,08127.9400,W,1,11,1.5,19,M,,M,,*6D
06/11/2015	18:00:38.514	$GPGGA,180039,2426.9762,N,08127.9422,W,1,11,1.5,19,M,,M,,*66
06/11/2015	18:00:39.514	$GPGGA,180040,2426.9755,N,08127.9444,W,1,11,1.5,19,M,,M,,*6C
06/11/2015	18:00:40.597	$GPGGA,180041,2426.9749,N,08127.9466,W,1,11,1.6,19,M,,M,,*63
06/11/2015	18:00:41.624	$GPGGA,180042,2426.9744,N,08127.9490,W,1,11,1.5,19,M,,M,,*67
06/11/2015	18:00:42.591	$GPGGA,180043,2426.9738,N,08127.9512,W,1,11,1.5,19,M,,M,,*66
06/11/2015	18:00:43.604	$GPGGA,180044,2426.9732,N,08127.9534,W,1,11,1.5,19,M,,M,,*6F
06/11/2015	18:00:44.598	$GPGGA,180045,2426.9726,N,08127.9557,W,1,11,1.5,19,M,,M,,*6E
06/11/2015	18:00:45.603	$GPGGA,180046,2426.9720,N,08127.9581,W,1,10,1.6,19,M,,M,,*62
06/11/2015	18:00:46.588	$GPGGA,180047,2426.9713,N,08127.9603,W,1,10,1.5,19,M,,M,,*69
06/11/2015	18:00:47.603	$GPGGA,180048,2426.9706,N,08127.9624,W,1,11,1.5,19,M,,M,,*66
06/11/2015	18:00:48.576	$GPGGA,180049,2426.9699,N,08127.9647,W,1,11,1.5,19,M,,M,,*65
06/11/2015	18:00:49.577	$GPGGA,180050,2426.9693,N,08127.9669,W,1,11,1.5,19,M,,M,,*6B
06/11/2015	18:00:50.589	$GPGGA,180051,2426.9686,N,08127.9693,W,1,11,1.6,19,M,,M,,*68
06/11/2015	18:00:51.624	$GPGGA,180052,2426.9679,N,08127.9715,W,1,10,1.6,19,M,,M,,*65
06/11/2015	18:00:52.574	$GPGGA,180053,2426.9673,N,08127.9737,W,1,10,1.5,19,M,,M,,*6D
06/11/2015	18:00:53.564	$GPGGA,180054,2426.9666,N,08127.9761,W,1,11,1.5,19,M,,M,,*6C
06/11/2015	18:00:54.575	$GPGGA,180055,2426.9660,N,08127.9783,W,1,11,1.5,19,M,,M,,*67
06/11/2015	18:00:55.587	$GPGGA,180056,2426.9653,N,08127.9806,W,1,11,1.5,19,M,,M,,*66
06/11/2015	18:00:56.566	$GPGGA,180057,2426.9648,N,08127.9830,W,1,11,1.5,19,M,,M,,*68
06/11/2015	18:00:57.579	$GPGGA,180058,2426.9641,N,08127.9852,W,1,11,1.5,19,M,,M,,*6A
06/11/2015	18:00:58.576	$GPGGA,180059,2426.9633,N,08127.9874,W,1,11,1.5,19,M,,M,,*6A
06/11/2015	18:00:59.604	$GPGGA,180100,2426.9626,N,08127.9895,W,1,10,1.6,19,M,,M,,*6E
06/11/2015	18:01:00.544	$GPGGA,180101,2426.9619,N,08127.9918,W,1,10,1.5,19,M,,M,,*64
06/11/2015	18:01:01.585	$GPGGA,180102,2426.9612,N,08127.9939,W,1,11,1.5,19,M,,M,,*6E
06/11/2015	18:01:02.554	$GPGGA,180103,2426.9605,N,08127.9962,W,1,11,1.5,19,M,,M,,*67
06/11/2015	18:01:03.590	$GPGGA,180104,2426.9599,N,08127.9985,W,1,11,1.5,19,M,,M,,*6F
06/11/2015	18:01:04.553	$GPGGA,180105,2426.9592,N,08128.0007,W,1,11,1.6,19,M,,M,,*63
06/11/2015	18:01:05.533	$GPGGA,180106,2426.9585,N,08128.0030,W,1,11,1.5,19,M,,M,,*61
06/11/2015	18:01:06.544	$GPGGA,180107,2426.9579,N,08128.0051,W,1,11,1.5,19,M,,M,,*64
06/11/2015	18:01:07.663	$GPGGA,180108,2426.9572,N,08128.0073,W,1,11,1.5,19,M,,M,,*60
06/11/2015	18:01:08.534	$GPGGA,180109,2426.9565,N,08128.0094,W,1,11,1.5,19,M,,M,,*6E
06/11/2015	18:01:09.855	$GPGGA,180110,2426.9557,N,08128.0116,W,1,11,1.5,18,M,,M,,*6D
06/11/2015	18:01:10.524	$GPGGA,180111,2426.9550,N,08128.0138,W,1,11,1.5,18,M,,M,,*67
06/11/2015	18:01:11.554	$GPGGA,180112,2426.9543,N,08128.0160,W,1,10,1.6,18,M,,M,,*69
06/11/2015	18:01:12.624	$GPGGA,180113,2426.9536,N,08128.0184,W,1,10,1.5,18,M,,M,,*63
06/11/2015	18:01:13.544	$GPGGA,180114,2426.9529,N,08128.0206,W,1,11,1.5,18,M,,M,,*62
06/11/2015	18:01:14.544	$GPGGA,180115,2426.9522,N,08128.0228,W,1,11,1.5,18,M,,M,,*64
06/11/2015	18:01:15.634	$GPGGA,180116,2426.9515,N,08128.0250,W,1,11,1.5,18,M,,M,,*6C
06/11/2015	18:01:16.514	$GPGGA,180117,2426.9508,N,08128.0272,W,1,11,1.5,18,M,,M,,*61
06/11/2015	18:01:17.614	$GPGGA,180118,2426.9501,N,08128.0296,W,1,11,1.5,18,M,,M,,*6D
06/11/2015	18:01:18.524	$GPGGA,180119,2426.9496,N,08128.0316,W,1,11,1.5,18,M,,M,,*6A
06/11/2015	18:01:19.634	$GPGGA,180120,2426.9489,N,08128.0339,W,1,11,1.5,18,M,,M,,*63
06/11/2015	18:01:21.163	$GPGGA,180121,2426.9480,N,08128.0361,W,1,11,1.5,18,M,,M,,*66
06/11/2015	18:01:21.613	$GPGGA,180122,2426.9473,N,08128.0383,W,1,11,1.5,18,M,,M,,*65
06/11/2015	18:01:22.513	$GPGGA,180123,2426.9467,N,08128.0405,W,1,11,1.5,18,M,,M,,*68
06/11/2015	18:01:23.643	$GPGGA,180124,2426.9460,N,08128.0426,W,1,11,1.5,18,M,,M,,*69
06/11/2015	18:01:24.513	$GPGGA,180125,2426.9451,N,08128.0448,W,1,11,1.5,18,M,,M,,*62
06/11/2015	18:01:25.614	$GPGGA,180126,2426.9443,N,08128.0470,W,1,11,1.5,18,M,,M,,*69
06/11/2015	18:01:26.614	$GPGGA,180127,2426.9435,N,08128.0492,W,1,11,1.5,18,M,,M,,*65
06/11/2015	18:01:27.614	$GPGGA,180128,2426.9427,N,08128.0514,W,1,11,1.5,18,M,,M,,*66
06/11/2015	18:01:28.586	$GPGGA,180129,2426.9418,N,08128.0535,W,1,11,1.5,18,M,,M,,*68
06/11/2015	18:01:29.604	$GPGGA,180130,2426.9410,N,08128.0556,W,1,11,1.5,18,M,,M,,*6D
06/11/2015	18:01:30.580	$GPGGA,180131,2426.9402,N,08128.0578,W,1,11,1.5,18,M,,M,,*63
06/11/2015	18:01:31.634	$GPGGA,180132,2426.9393,N,08128.0598,W,1,11,1.5,18,M,,M,,*61
06/11/2015	18:01:32.584	$GPGGA,180133,2426.9384,N,08128.0621,W,1,11,1.5,18,M,,M,,*67
06/11/2015	18:01:33.594	$GPGGA,180134,2426.9375,N,08128.0641,W,1,11,1.5,18,M,,M,,*68
06/11/2015	18:01:34.578	$GPGGA,180135,2426.9366,N,08128.0663,W,1,11,1.5,18,M,,M,,*6B
06/11/2015	18:01:35.614	$GPGGA,180136,2426.9355,N,08128.0684,W,1,10,1.8,18,M,,M,,*6D
06/11/2015	18:01:36.564	$GPGGA,180137,2426.9345,N,08128.0705,W,1,10,2.0,18,M,,M,,*6E
06/11/2015	18:01:37.594	$GPGGA,180138,2426.9337,N,08128.0727,W,1,10,1.6,18,M,,M,,*61
06/11/2015	18:01:38.588	$GPGGA,180139,2426.9326,N,08128.0748,W,1,10,1.5,18,M,,M,,*6A
06/11/2015	18:01:39.576	$GPGGA,180140,2426.9316,N,08128.0770,W,1,11,1.5,18,M,,M,,*6D
06/11/2015	18:01:40.563	$GPGGA,180141,2426.9305,N,08128.0789,W,1,11,1.5,18,M,,M,,*68
06/11/2015	18:01:41.580	$GPGGA,180142,2426.9295,N,08128.0810,W,1,11,1.5,18,M,,M,,*6C
06/11/2015	18:01:42.563	$GPGGA,180143,2426.9284,N,08128.0831,W,1,11,1.5,18,M,,M,,*6E
06/11/2015	18:01:43.604	$GPGGA,180144,2426.9274,N,08128.0853,W,1,11,1.5,18,M,,M,,*62
06/11/2015	18:01:44.554	$GPGGA,180145,2426.9263,N,08128.0874,W,1,11,1.5,18,M,,M,,*60
06/11/2015	18:01:45.564	$GPGGA,180146,2426.9254,N,08128.0894,W,1,11,1.5,19,M,,M,,*68
06/11/2015	18:01:46.554	$GPGGA,180147,2426.9242,N,08128.0914,W,1,11,1.6,19,M,,M,,*64
06/11/2015	18:01:47.586	$GPGGA,180148,2426.9230,N,08128.0936,W,1,10,1.8,19,M,,M,,*61
06/11/2015	18:01:48.544	$GPGGA,180149,2426.9218,N,08128.0957,W,1,10,1.6,19,M,,M,,*63
06/11/2015	18:01:49.564	$GPGGA,180150,2426.9208,N,08128.0976,W,1,11,1.6,19,M,,M,,*68
06/11/2015	18:01:50.544	$GPGGA,180151,2426.9197,N,08128.0995,W,1,11,1.8,20,M,,M,,*65
06/11/2015	18:01:51.588	$GPGGA,180152,2426.9186,N,08128.1015,W,1,10,1.8,20,M,,M,,*67
06/11/2015	18:01:52.544	$GPGGA,180153,2426.9175,N,08128.1033,W,1,10,1.8,20,M,,M,,*6E
06/11/2015	18:01:53.575	$GPGGA,180154,2426.9164,N,08128.1053,W,1,10,1.8,20,M,,M,,*6F
06/11/2015	18:01:54.524	$GPGGA,180155,2426.9154,N,08128.1073,W,1,10,1.5,21,M,,M,,*63
06/11/2015	18:01:55.553	$GPGGA,180156,2426.9143,N,08128.1091,W,1,10,1.8,21,M,,M,,*67
06/11/2015	18:01:56.523	$GPGGA,180157,2426.9131,N,08128.1111,W,1,10,1.8,21,M,,M,,*6A
06/11/2015	18:01:57.533	$GPGGA,180158,2426.9120,N,08128.1131,W,1,10,1.8,21,M,,M,,*67
06/11/2015	18:01:58.533	$GPGGA,180159,2426.9110,N,08128.1150,W,1,10,1.8,21,M,,M,,*62
06/11/2015	18:01:59.584	$GPGGA,180200,2426.9099,N,08128.1170,W,1,10,1.8,21,M,,M,,*6F
06/11/2015	18:02:00.524	$GPGGA,180201,2426.9088,N,08128.1189,W,1,10,1.8,21,M,,M,,*68
06/11/2015	18:02:01.524	$GPGGA,180202,2426.9077,N,08128.1208,W,1,10,1.8,21,M,,M,,*61
06/11/2015	18:02:02.525	$GPGGA,180203,2426.9066,N,08128.1229,W,1,10,1.8,22,M,,M,,*60
06/11/2015	18:02:03.575	$GPGGA,180204,2426.9054,N,08128.1250,W,1,11,1.6,22,M,,M,,*67
06/11/2015	18:02:04.604	$GPGGA,180205,2426.9042,N,08128.1272,W,1,11,1.6,22,M,,M,,*61
06/11/2015	18:02:05.634	$GPGGA,180206,2426.9031,N,08128.1291,W,1,11,1.8,22,M,,M,,*65
06/11/2015	18:02:06.514	$GPGGA,180207,2426.9020,N,08128.1311,W,1,11,1.8,22,M,,M,,*6D
06/11/2015	18:02:07.677	$GPGGA,180208,2426.9009,N,08128.1330,W,1,10,1.8,22,M,,M,,*6B
06/11/2015	18:02:08.514	$GPGGA,180209,2426.8998,N,08128.1349,W,1,10,1.8,22,M,,M,,*64
06/11/2015	18:02:09.614	$GPGGA,180210,2426.8987,N,08128.1369,W,1,10,1.8,22,M,,M,,*60
06/11/2015	18:02:10.604	$GPGGA,180211,2426.8976,N,08128.1391,W,1,10,1.6,22,M,,M,,*66
06/11/2015	18:02:11.654	$GPGGA,180212,2426.8965,N,08128.1412,W,1,11,1.6,22,M,,M,,*6A
06/11/2015	18:02:12.585	$GPGGA,180213,2426.8952,N,08128.1434,W,1,11,1.6,22,M,,M,,*6B
06/11/2015	18:02:13.613	$GPGGA,180214,2426.8941,N,08128.1454,W,1,11,1.6,22,M,,M,,*68
06/11/2015	18:02:14.584	$GPGGA,180215,2426.8930,N,08128.1475,W,1,11,1.6,22,M,,M,,*6C
06/11/2015	18:02:15.613	$GPGGA,180216,2426.8920,N,08128.1496,W,1,11,1.6,23,M,,M,,*62
06/11/2015	18:02:16.585	$GPGGA,180217,2426.8908,N,08128.1517,W,1,11,1.6,23,M,,M,,*61
06/11/2015	18:02:17.613	$GPGGA,180218,2426.8898,N,08128.1536,W,1,11,1.6,23,M,,M,,*65
06/11/2015	18:02:18.584	$GPGGA,180219,2426.8887,N,08128.1557,W,1,11,1.6,23,M,,M,,*6D
06/11/2015	18:02:19.614	$GPGGA,180220,2426.8875,N,08128.1579,W,1,11,1.6,23,M,,M,,*66
06/11/2015	18:02:20.584	$GPGGA,180221,2426.8865,N,08128.1597,W,1,11,1.8,23,M,,M,,*68
06/11/2015	18:02:21.604	$GPGGA,180222,2426.8854,N,08128.1618,W,1,10,1.6,23,M,,M,,*62
06/11/2015	18:02:22.578	$GPGGA,180223,2426.8843,N,08128.1640,W,1,10,1.6,23,M,,M,,*68
06/11/2015	18:02:23.604	$GPGGA,180224,2426.8833,N,08128.1658,W,1,11,1.6,23,M,,M,,*60
06/11/2015	18:02:24.564	$GPGGA,180225,2426.8824,N,08128.1676,W,1,11,1.8,23,M,,M,,*65
06/11/2015	18:02:25.587	$GPGGA,180226,2426.8813,N,08128.1696,W,1,10,1.6,23,M,,M,,*63
06/11/2015	18:02:26.564	$GPGGA,180227,2426.8802,N,08128.1716,W,1,10,1.6,23,M,,M,,*6B
06/11/2015	18:02:27.596	$GPGGA,180228,2426.8792,N,08128.1736,W,1,11,1.6,23,M,,M,,*61
06/11/2015	18:02:28.564	$GPGGA,180229,2426.8782,N,08128.1756,W,1,11,1.6,23,M,,M,,*67
06/11/2015	18:02:29.544	$GPGGA,180230,2426.8771,N,08128.1775,W,1,11,1.7,23,M,,M,,*63
06/11/2015	18:02:30.578	$GPGGA,180231,2426.8763,N,08128.1795,W,1,11,1.6,23,M,,M,,*6E
06/11/2015	18:02:31.603	$GPGGA,180232,2426.8753,N,08128.1814,W,1,11,1.8,23,M,,M,,*66
06/11/2015	18:02:32.553	$GPGGA,180233,2426.8745,N,08128.1832,W,1,11,1.8,23,M,,M,,*64
06/11/2015	18:02:33.563	$GPGGA,180234,2426.8735,N,08128.1850,W,1,10,1.8,23,M,,M,,*61
06/11/2015	18:02:34.533	$GPGGA,180235,2426.8727,N,08128.1869,W,1,10,1.8,23,M,,M,,*69
06/11/2015	18:02:35.579	$GPGGA,180236,2426.8717,N,08128.1890,W,1,10,1.6,23,M,,M,,*61
06/11/2015	18:02:36.554	$GPGGA,180237,2426.8707,N,08128.1911,W,1,10,1.6,23,M,,M,,*69
06/11/2015	18:02:37.644	$GPGGA,180238,2426.8698,N,08128.1930,W,1,11,1.6,23,M,,M,,*63
06/11/2015	18:02:38.524	$GPGGA,180239,2426.8689,N,08128.1948,W,1,11,1.6,23,M,,M,,*6D
06/11/2015	18:02:39.604	$GPGGA,180240,2426.8681,N,08128.1965,W,1,11,1.6,23,M,,M,,*64
06/11/2015	18:02:40.524	$GPGGA,180241,2426.8673,N,08128.1980,W,1,11,1.8,23,M,,M,,*6D
06/11/2015	18:02:41.524	$GPGGA,180242,2426.8666,N,08128.1994,W,1,10,1.6,23,M,,M,,*60
06/11/2015	18:02:42.624	$GPGGA,180243,2426.8659,N,08128.2014,W,1,10,1.6,23,M,,M,,*6F
06/11/2015	18:02:43.580	$GPGGA,180244,2426.8651,N,08128.2031,W,1,11,1.6,23,M,,M,,*66
06/11/2015	18:02:44.534	$GPGGA,180245,2426.8644,N,08128.2046,W,1,11,1.8,23,M,,M,,*6D
06/11/2015	18:02:45.514	$GPGGA,180246,2426.8638,N,08128.2061,W,1,10,1.8,23,M,,M,,*61
06/11/2015	18:02:46.534	$GPGGA,180247,2426.8631,N,08128.2075,W,1,10,1.8,23,M,,M,,*6C
06/11/2015	18:02:47.581	$GPGGA,180248,2426.8625,N,08128.2088,W,1,10,1.8,23,M,,M,,*64
06/11/2015	18:02:48.523	$GPGGA,180249,2426.8618,N,08128.2103,W,1,10,1.6,23,M,,M,,*67
06/11/2015	18:02:49.623	$GPGGA,180250,2426.8612,N,08128.2117,W,1,11,1.6,23,M,,M,,*61
06/11/2015	18:02:50.533	$GPGGA,180251,2426.8606,N,08128.2132,W,1,11,1.6,23,M,,M,,*62
06/11/2015	18:02:51.533	$GPGGA,180252,2426.8600,N,08128.2144,W,1,11,1.6,22,M,,M,,*67
06/11/2015	18:02:52.603	$GPGGA,180253,2426.8594,N,08128.2157,W,1,11,1.6,22,M,,M,,*6A
06/11/2015	18:02:53.634	$GPGGA,180254,2426.8589,N,08128.2171,W,1,10,1.6,22,M,,M,,*64
06/11/2015	18:02:54.604	$GPGGA,180255,2426.8583,N,08128.2184,W,1,10,1.6,22,M,,M,,*65
06/11/2015	18:02:55.624	$GPGGA,180256,2426.8577,N,08128.2198,W,1,11,1.6,22,M,,M,,*61
06/11/2015	18:02:56.591	$GPGGA,180257,2426.8571,N,08128.2211,W,1,11,1.6,22,M,,M,,*64
06/11/2015	18:02:57.590	$GPGGA,180258,2426.8566,N,08128.2225,W,1,11,1.6,22,M,,M,,*6A
06/11/2015	18:02:58.592	$GPGGA,180259,2426.8561,N,08128.2238,W,1,11,1.6,22,M,,M,,*60
06/11/2015	18:02:59.624	$GPGGA,180300,2426.8555,N,08128.2251,W,1,11,1.6,22,M,,M,,*65
06/11/2015	18:03:00.584	$GPGGA,180301,2426.8549,N,08128.2263,W,1,11,1.6,22,M,,M,,*68
06/11/2015	18:03:01.604	$GPGGA,180302,2426.8542,N,08128.2276,W,1,11,1.6,22,M,,M,,*64
06/11/2015	18:03:02.577	$GPGGA,180303,2426.8536,N,08128.2290,W,1,11,1.6,22,M,,M,,*6E
06/11/2015	18:03:03.614	$GPGGA,180304,2426.8531,N,08128.2302,W,1,11,1.6,22,M,,M,,*64
06/11/2015	18:03:04.590	$GPGGA,180305,2426.8525,N,08128.2316,W,1,11,1.6,22,M,,M,,*65
06/11/2015	18:03:05.595	$GPGGA,180306,2426.8519,N,08128.2327,W,1,11,1.6,22,M,,M,,*6B
06/11/2015	18:03:06.563	$GPGGA,180307,2426.8513,N,08128.2338,W,1,11,1.6,22,M,,M,,*6E
06/11/2015	18:03:07.613	$GPGGA,180308,2426.8508,N,08128.2352,W,1,11,1.6,22,M,,M,,*67
06/11/2015	18:03:08.575	$GPGGA,180309,2426.8503,N,08128.2363,W,1,11,1.6,22,M,,M,,*6F
06/11/2015	18:03:09.573	$GPGGA,180310,2426.8497,N,08128.2374,W,1,11,1.6,22,M,,M,,*6D
06/11/2015	18:03:10.579	$GPGGA,180311,2426.8492,N,08128.2384,W,1,11,1.6,22,M,,M,,*66
06/11/2015	18:03:11.587	$GPGGA,180312,2426.8488,N,08128.2393,W,1,10,1.8,22,M,,M,,*67
06/11/2015	18:03:12.564	$GPGGA,180313,2426.8482,N,08128.2406,W,1,10,1.8,22,M,,M,,*67
06/11/2015	18:03:13.554	$GPGGA,180314,2426.8476,N,08128.2417,W,1,11,1.6,22,M,,M,,*64
06/11/2015	18:03:14.554	$GPGGA,180315,2426.8470,N,08128.2428,W,1,11,1.6,22,M,,M,,*6F
06/11/2015	18:03:15.564	$GPGGA,180316,2426.8464,N,08128.2439,W,1,11,1.6,22,M,,M,,*69
06/11/2015	18:03:16.544	$GPGGA,180317,2426.8459,N,08128.2450,W,1,11,1.6,22,M,,M,,*69
06/11/2015	18:03:17.544	$GPGGA,180318,2426.8453,N,08128.2461,W,1,10,1.7,22,M,,M,,*6E
06/11/2015	18:03:18.554	$GPGGA,180319,2426.8448,N,08128.2472,W,1,10,1.6,22,M,,M,,*66
06/11/2015	18:03:19.554	$GPGGA,180320,2426.8443,N,08128.2483,W,1,11,1.6,22,M,,M,,*68
06/11/2015	18:03:20.544	$GPGGA,180321,2426.8438,N,08128.2494,W,1,11,1.6,22,M,,M,,*63
06/11/2015	18:03:21.534	$GPGGA,180322,2426.8432,N,08128.2504,W,1,11,1.6,22,M,,M,,*62
06/11/2015	18:03:22.534	$GPGGA,180323,2426.8427,N,08128.2514,W,1,11,1.7,22,M,,M,,*67
06/11/2015	18:03:23.543	$GPGGA,180324,2426.8423,N,08128.2525,W,1,10,1.8,22,M,,M,,*68
06/11/2015	18:03:24.543	$GPGGA,180325,2426.8417,N,08128.2533,W,1,10,1.8,21,M,,M,,*6A
06/11/2015	18:03:25.533	$GPGGA,180326,2426.8412,N,08128.2543,W,1,10,1.8,21,M,,M,,*6B
06/11/2015	18:03:26.534	$GPGGA,180327,2426.8407,N,08128.2554,W,1,10,1.8,21,M,,M,,*68
06/11/2015	18:03:27.578	$GPGGA,180328,2426.8402,N,08128.2565,W,1,10,1.8,21,M,,M,,*60
06/11/2015	18:03:28.534	$GPGGA,180329,2426.8396,N,08128.2574,W,1,10,1.6,21,M,,M,,*65
06/11/2015	18:03:29.634	$GPGGA,180330,2426.8391,N,08128.2585,W,1,11,1.6,21,M,,M,,*65
06/11/2015	18:03:30.534	$GPGGA,180331,2426.8385,N,08128.2597,W,1,11,1.6,21,M,,M,,*62
06/11/2015	18:03:31.682	$GPGGA,180332,2426.8381,N,08128.2605,W,1,11,1.6,21,M,,M,,*6D
06/11/2015	18:03:32.634	$GPGGA,180333,2426.8376,N,08128.2615,W,1,11,1.8,21,M,,M,,*6B
06/11/2015	18:03:33.634	$GPGGA,180334,2426.8369,N,08128.2623,W,1,10,1.8,21,M,,M,,*66
06/11/2015	18:03:34.604	$GPGGA,180335,2426.8365,N,08128.2634,W,1,10,1.6,21,M,,M,,*63
06/11/2015	18:03:35.554	$GPGGA,180336,2426.8360,N,08128.2642,W,1,11,1.6,21,M,,M,,*65
06/11/2015	18:03:36.524	$GPGGA,180337,2426.8355,N,08128.2652,W,1,11,1.9,21,M,,M,,*6C
06/11/2015	18:03:37.594	$GPGGA,180338,2426.8349,N,08128.2662,W,1,9,1.9,21,M,,M,,*54
06/11/2015	18:03:38.604	$GPGGA,180339,2426.8344,N,08128.2673,W,1,9,1.6,21,M,,M,,*57
06/11/2015	18:03:39.624	$GPGGA,180340,2426.8338,N,08128.2684,W,1,11,1.6,21,M,,M,,*63
06/11/2015	18:03:40.593	$GPGGA,180341,2426.8333,N,08128.2693,W,1,11,1.6,21,M,,M,,*6F
06/11/2015	18:03:41.613	$GPGGA,180342,2426.8327,N,08128.2703,W,1,11,1.6,21,M,,M,,*61
06/11/2015	18:03:42.603	$GPGGA,180343,2426.8322,N,08128.2713,W,1,11,1.6,21,M,,M,,*64
06/11/2015	18:03:43.623	$GPGGA,180344,2426.8317,N,08128.2724,W,1,11,1.6,21,M,,M,,*61
06/11/2015	18:03:44.586	$GPGGA,180345,2426.8311,N,08128.2733,W,1,11,1.6,21,M,,M,,*60
06/11/2015	18:03:45.604	$GPGGA,180346,2426.8305,N,08128.2742,W,1,11,1.6,21,M,,M,,*60
06/11/2015	18:03:46.594	$GPGGA,180347,2426.8301,N,08128.2751,W,1,11,1.6,21,M,,M,,*67
06/11/2015	18:03:47.644	$GPGGA,180348,2426.8297,N,08128.2761,W,1,10,1.8,21,M,,M,,*6A
06/11/2015	18:03:48.576	$GPGGA,180349,2426.8291,N,08128.2771,W,1,10,1.6,21,M,,M,,*62
06/11/2015	18:03:49.604	$GPGGA,180350,2426.8286,N,08128.2780,W,1,11,1.6,21,M,,M,,*63
06/11/2015	18:03:50.574	$GPGGA,180351,2426.8281,N,08128.2789,W,1,11,1.6,21,M,,M,,*6C
06/11/2015	18:03:51.604	$GPGGA,180352,2426.8277,N,08128.2797,W,1,10,1.8,21,M,,M,,*66
06/11/2015	18:03:52.575	$GPGGA,180353,2426.8271,N,08128.2805,W,1,10,1.8,21,M,,M,,*65
06/11/2015	18:03:53.577	$GPGGA,180354,2426.8266,N,08128.2814,W,1,10,1.8,21,M,,M,,*64
06/11/2015	18:03:54.576	$GPGGA,180355,2426.8261,N,08128.2825,W,1,10,1.6,21,M,,M,,*6E
06/11/2015	18:03:55.604	$GPGGA,180356,2426.8257,N,08128.2833,W,1,11,1.6,21,M,,M,,*6E
06/11/2015	18:03:56.564	$GPGGA,180357,2426.8251,N,08128.2840,W,1,11,1.8,21,M,,M,,*63
06/11/2015	18:03:57.583	$GPGGA,180358,2426.8246,N,08128.2851,W,1,10,1.8,21,M,,M,,*6B
06/11/2015	18:03:58.563	$GPGGA,180359,2426.8242,N,08128.2859,W,1,10,1.6,21,M,,M,,*68
06/11/2015	18:03:59.613	$GPGGA,180400,2426.8236,N,08128.2869,W,1,9,2.0,21,M,,M,,*5E
06/11/2015	18:04:00.543	$GPGGA,180401,2426.8232,N,08128.2880,W,1,9,1.7,21,M,,M,,*58
06/11/2015	18:04:01.563	$GPGGA,180402,2426.8228,N,08128.2888,W,1,11,1.6,21,M,,M,,*60
06/11/2015	18:04:02.545	$GPGGA,180403,2426.8222,N,08128.2897,W,1,11,1.8,21,M,,M,,*6B
06/11/2015	18:04:03.588	$GPGGA,180404,2426.8218,N,08128.2906,W,1,10,1.7,21,M,,M,,*62
06/11/2015	18:04:04.554	$GPGGA,180405,2426.8215,N,08128.2916,W,1,10,1.6,21,M,,M,,*6E
06/11/2015	18:04:05.554	$GPGGA,180406,2426.8210,N,08128.2926,W,1,11,1.6,21,M,,M,,*6A
06/11/2015	18:04:06.544	$GPGGA,180407,2426.8207,N,08128.2935,W,1,11,1.7,21,M,,M,,*6E
06/11/2015	18:04:07.564	$GPGGA,180408,2426.8203,N,08128.2945,W,1,11,1.6,21,M,,M,,*63
06/11/2015	18:04:08.555	$GPGGA,180409,2426.8197,N,08128.2955,W,1,11,1.6,22,M,,M,,*6E
06/11/2015	18:04:09.534	$GPGGA,180410,2426.8192,N,08128.2964,W,1,11,1.6,22,M,,M,,*61
06/11/2015	18:04:10.534	$GPGGA,180411,2426.8188,N,08128.2973,W,1,11,1.6,22,M,,M,,*6D
06/11/2015	18:04:11.564	$GPGGA,180412,2426.8185,N,08128.2984,W,1,11,1.6,22,M,,M,,*6B
06/11/2015	18:04:12.544	$GPGGA,180413,2426.8179,N,08128.2993,W,1,11,1.6,22,M,,M,,*6F
06/11/2015	18:04:13.534	$GPGGA,180414,2426.8174,N,08128.3003,W,1,11,1.6,22,M,,M,,*64
06/11/2015	18:04:14.544	$GPGGA,180415,2426.8170,N,08128.3013,W,1,11,1.6,22,M,,M,,*60
06/11/2015	18:04:15.663	$GPGGA,180416,2426.8165,N,08128.3024,W,1,11,1.6,22,M,,M,,*63
06/11/2015	18:04:16.623	$GPGGA,180417,2426.8160,N,08128.3032,W,1,11,1.6,22,M,,M,,*60
06/11/2015	18:04:17.644	$GPGGA,180418,2426.8156,N,08128.3042,W,1,11,1.6,22,M,,M,,*6D
06/11/2015	18:04:18.613	$GPGGA,180419,2426.8152,N,08128.3053,W,1,11,1.6,22,M,,M,,*68
06/11/2015	18:04:19.613	$GPGGA,180420,2426.8146,N,08128.3063,W,1,11,1.6,22,M,,M,,*64
06/11/2015	18:04:20.604	$GPGGA,180421,2426.8142,N,08128.3072,W,1,11,1.6,22,M,,M,,*61
06/11/2015	18:04:21.604	$GPGGA,180422,2426.8138,N,08128.3082,W,1,11,1.6,22,M,,M,,*60
06/11/2015	18:04:22.604	$GPGGA,180423,2426.8132,N,08128.3092,W,1,11,1.6,23,M,,M,,*6B
06/11/2015	18:04:23.524	$GPGGA,180424,2426.8128,N,08128.3100,W,1,11,1.6,23,M,,M,,*6D
06/11/2015	18:04:24.594	$GPGGA,180425,2426.8123,N,08128.3111,W,1,11,1.6,23,M,,M,,*67
06/11/2015	18:04:25.624	$GPGGA,180426,2426.8118,N,08128.3119,W,1,11,1.6,23,M,,M,,*64
06/11/2015	18:04:26.596	$GPGGA,180427,2426.8113,N,08128.3130,W,1,11,1.6,23,M,,M,,*65
06/11/2015	18:04:27.624	$GPGGA,180428,2426.8109,N,08128.3139,W,1,11,1.6,23,M,,M,,*68
06/11/2015	18:04:28.594	$GPGGA,180429,2426.8105,N,08128.3147,W,1,11,1.6,23,M,,M,,*6C
06/11/2015	18:04:29.624	$GPGGA,180430,2426.8100,N,08128.3158,W,1,11,1.6,23,M,,M,,*6F
06/11/2015	18:04:30.594	$GPGGA,180431,2426.8096,N,08128.3166,W,1,11,1.6,23,M,,M,,*6D
06/11/2015	18:04:31.614	$GPGGA,180432,2426.8092,N,08128.3176,W,1,10,1.8,23,M,,M,,*64
06/11/2015	18:04:32.588	$GPGGA,180433,2426.8088,N,08128.3184,W,1,10,1.6,23,M,,M,,*6D
06/11/2015	18:04:33.613	$GPGGA,180434,2426.8083,N,08128.3194,W,1,10,1.8,23,M,,M,,*6E
06/11/2015	18:04:34.587	$GPGGA,180435,2426.8080,N,08128.3204,W,1,10,1.9,23,M,,M,,*67
06/11/2015	18:04:35.613	$GPGGA,180436,2426.8076,N,08128.3215,W,1,10,1.6,23,M,,M,,*62
06/11/2015	18:04:36.586	$GPGGA,180437,2426.8071,N,08128.3224,W,1,10,1.6,23,M,,M,,*66
06/11/2015	18:04:37.584	$GPGGA,180438,2426.8066,N,08128.3235,W,1,11,1.6,23,M,,M,,*6E
06/11/2015	18:04:38.574	$GPGGA,180439,2426.8063,N,08128.3244,W,1,11,1.6,23,M,,M,,*6C
06/11/2015	18:04:39.594	$GPGGA,180440,2426.8059,N,08128.3255,W,1,9,1.9,23,M,,M,,*5D
06/11/2015	18:04:40.564	$GPGGA,180441,2426.8055,N,08128.3264,W,1,9,1.6,23,M,,M,,*5D
06/11/2015	18:04:41.594	$GPGGA,180442,2426.8052,N,08128.3274,W,1,10,1.8,23,M,,M,,*6E
06/11/2015	18:04:42.564	$GPGGA,180443,2426.8047,N,08128.3284,W,1,10,1.6,23,M,,M,,*6A
06/11/2015	18:04:43.604	$GPGGA,180444,2426.8044,N,08128.3293,W,1,11,1.6,23,M,,M,,*69
06/11/2015	18:04:44.564	$GPGGA,180445,2426.8040,N,08128.3302,W,1,11,1.9,22,M,,M,,*6B
06/11/2015	18:04:45.564	$GPGGA,180446,2426.8036,N,08128.3313,W,1,9,1.9,22,M,,M,,*50
06/11/2015	18:04:46.554	$GPGGA,180447,2426.8033,N,08128.3322,W,1,9,1.8,22,M,,M,,*57
06/11/2015	18:04:47.564	$GPGGA,180448,2426.8026,N,08128.3331,W,1,11,1.6,22,M,,M,,*69
06/11/2015	18:04:48.544	$GPGGA,180449,2426.8022,N,08128.3340,W,1,11,1.6,22,M,,M,,*6A
06/11/2015	18:04:49.544	$GPGGA,180450,2426.8018,N,08128.3352,W,1,10,1.6,22,M,,M,,*69
06/11/2015	18:04:50.553	$GPGGA,180451,2426.8013,N,08128.3361,W,1,10,1.6,22,M,,M,,*63
06/11/2015	18:04:51.583	$GPGGA,180452,2426.8008,N,08128.3371,W,1,11,1.6,22,M,,M,,*6A
06/11/2015	18:04:52.553	$GPGGA,180453,2426.8002,N,08128.3381,W,1,11,1.6,22,M,,M,,*6E
06/11/2015	18:04:53.543	$GPGGA,180454,2426.7999,N,08128.3392,W,1,10,1.6,22,M,,M,,*6E
06/11/2015	18:04:54.533	$GPGGA,180455,2426.7994,N,08128.3401,W,1,10,1.6,22,M,,M,,*6F
06/11/2015	18:04:55.590	$GPGGA,180456,2426.7990,N,08128.3410,W,1,11,1.6,22,M,,M,,*69
06/11/2015	18:04:56.544	$GPGGA,180457,2426.7986,N,08128.3421,W,1,11,1.6,22,M,,M,,*6D
06/11/2015	18:04:57.677	$GPGGA,180458,2426.7982,N,08128.3432,W,1,11,1.6,22,M,,M,,*64
06/11/2015	18:04:58.544	$GPGGA,180459,2426.7977,N,08128.3440,W,1,11,1.6,22,M,,M,,*6A
06/11/2015	18:04:59.704	$GPGGA,180500,2426.7971,N,08128.3450,W,1,11,1.6,22,M,,M,,*60
06/11/2015	18:05:00.534	$GPGGA,180501,2426.7968,N,08128.3459,W,1,11,1.6,22,M,,M,,*60
06/11/2015	18:05:01.634	$GPGGA,180502,2426.7962,N,08128.3468,W,1,11,1.6,22,M,,M,,*6B
06/11/2015	18:05:02.544	$GPGGA,180503,2426.7957,N,08128.3477,W,1,11,1.6,22,M,,M,,*62
06/11/2015	18:05:03.686	$GPGGA,180504,2426.7952,N,08128.3487,W,1,11,1.6,22,M,,M,,*6F
06/11/2015	18:05:04.684	$GPGGA,180505,2426.7948,N,08128.3497,W,1,11,1.6,22,M,,M,,*64
06/11/2015	18:05:05.604	$GPGGA,180506,2426.7944,N,08128.3508,W,1,11,1.6,22,M,,M,,*6C
06/11/2015	18:05:06.524	$GPGGA,180507,2426.7939,N,08128.3516,W,1,11,1.6,22,M,,M,,*68
06/11/2015	18:05:07.693	$GPGGA,180508,2426.7935,N,08128.3526,W,1,11,1.6,22,M,,M,,*68
06/11/2015	18:05:08.523	$GPGGA,180509,2426.7932,N,08128.3534,W,1,11,1.6,22,M,,M,,*6D
06/11/2015	18:05:09.654	$GPGGA,180510,2426.7928,N,08128.3544,W,1,11,1.6,22,M,,M,,*69
06/11/2015	18:05:10.593	$GPGGA,180511,2426.7922,N,08128.3553,W,1,11,1.6,22,M,,M,,*64
06/11/2015	18:05:11.980	$GPGGA,180512,2426.7918,N,08128.3562,W,1,11,1.6,22,M,,M,,*6C
06/11/2015	18:05:12.513	$GPGGA,180513,2426.7914,N,08128.3570,W,1,11,1.6,22,M,,M,,*62
06/11/2015	18:05:13.584	$GPGGA,180514,2426.7910,N,08128.3580,W,1,10,1.8,22,M,,M,,*61
06/11/2015	18:05:14.585	$GPGGA,180515,2426.7904,N,08128.3588,W,1,10,1.6,22,M,,M,,*63
06/11/2015	18:05:15.654	$GPGGA,180516,2426.7899,N,08128.3598,W,1,11,1.6,22,M,,M,,*65
06/11/2015	18:05:16.594	$GPGGA,180517,2426.7896,N,08128.3606,W,1,11,1.6,22,M,,M,,*6F
06/11/2015	18:05:17.614	$GPGGA,180518,2426.7892,N,08128.3616,W,1,9,1.8,22,M,,M,,*52
06/11/2015	18:05:18.654	$GPGGA,180519,2426.7886,N,08128.3624,W,1,9,1.8,22,M,,M,,*57
06/11/2015	18:05:19.654	$GPGGA,180520,2426.7882,N,08128.3635,W,1,11,1.6,22,M,,M,,*6E
06/11/2015	18:05:20.634	$GPGGA,180521,2426.7878,N,08128.3645,W,1,11,1.6,22,M,,M,,*6D
06/11/2015	18:05:21.664	$GPGGA,180522,2426.7872,N,08128.3653,W,1,11,1.6,22,M,,M,,*63
06/11/2015	18:05:22.644	$GPGGA,180523,2426.7867,N,08128.3663,W,1,11,1.6,22,M,,M,,*65
06/11/2015	18:05:23.588	$GPGGA,180524,2426.7863,N,08128.3672,W,1,11,1.6,22,M,,M,,*66
06/11/2015	18:05:24.624	$GPGGA,180525,2426.7856,N,08128.3681,W,1,11,1.6,22,M,,M,,*6D
06/11/2015	18:05:25.563	$GPGGA,180526,2426.7851,N,08128.3690,W,1,11,1.6,22,M,,M,,*69
06/11/2015	18:05:26.623	$GPGGA,180527,2426.7847,N,08128.3699,W,1,11,1.6,22,M,,M,,*66
06/11/2015	18:05:27.623	$GPGGA,180528,2426.7842,N,08128.3707,W,1,11,1.6,22,M,,M,,*6A
06/11/2015	18:05:28.563	$GPGGA,180529,2426.7838,N,08128.3717,W,1,11,1.8,22,M,,M,,*69
06/11/2015	18:05:29.623	$GPGGA,180530,2426.7832,N,08128.3726,W,1,11,1.6,22,M,,M,,*67
06/11/2015	18:05:30.554	$GPGGA,180531,2426.7827,N,08128.3735,W,1,11,1.6,22,M,,M,,*60
06/11/2015	18:05:31.644	$GPGGA,180532,2426.7822,N,08128.3744,W,1,10,1.6,22,M,,M,,*61
06/11/2015	18:05:32.544	$GPGGA,180533,2426.7818,N,08128.3754,W,1,10,1.6,22,M,,M,,*68
06/11/2015	18:05:33.579	$GPGGA,180534,2426.7813,N,08128.3764,W,1,11,1.6,22,M,,M,,*66
06/11/2015	18:05:34.544	$GPGGA,180535,2426.7809,N,08128.3772,W,1,11,1.6,22,M,,M,,*6B
06/11/2015	18:05:35.614	$GPGGA,180536,2426.7802,N,08128.3783,W,1,10,1.6,22,M,,M,,*6C
06/11/2015	18:05:36.604	$GPGGA,180537,2426.7798,N,08128.3793,W,1,10,1.6,22,M,,M,,*60
06/11/2015	18:05:37.589	$GPGGA,180538,2426.7794,N,08128.3801,W,1,11,1.7,22,M,,M,,*67
06/11/2015	18:05:38.594	$GPGGA,180539,2426.7787,N,08128.3811,W,1,11,1.6,22,M,,M,,*64
06/11/2015	18:05:39.682	$GPGGA,180540,2426.7782,N,08128.3820,W,1,11,1.6,22,M,,M,,*6D
06/11/2015	18:05:40.554	$GPGGA,180541,2426.7778,N,08128.3829,W,1,11,1.6,22,M,,M,,*60
06/11/2015	18:05:41.582	$GPGGA,180542,2426.7774,N,08128.3837,W,1,11,1.8,22,M,,M,,*6E
06/11/2015	18:05:42.595	$GPGGA,180543,2426.7769,N,08128.3845,W,1,11,1.8,22,M,,M,,*66
06/11/2015	18:05:43.593	$GPGGA,180544,2426.7766,N,08128.3855,W,1,10,1.6,22,M,,M,,*60
06/11/2015	18:05:44.523	$GPGGA,180545,2426.7759,N,08128.3863,W,1,10,1.6,22,M,,M,,*68
06/11/2015	18:05:45.623	$GPGGA,180546,2426.7755,N,08128.3873,W,1,11,1.6,22,M,,M,,*67
06/11/2015	18:05:46.643	$GPGGA,180547,2426.7751,N,08128.3881,W,1,11,1.9,22,M,,M,,*60
06/11/2015	18:05:47.523	$GPGGA,180548,2426.7745,N,08128.3891,W,1,10,1.9,22,M,,M,,*6A
06/11/2015	18:05:48.614	$GPGGA,180549,2426.7738,N,08128.3902,W,1,10,1.6,22,M,,M,,*65
06/11/2015	18:05:49.634	$GPGGA,180550,2426.7734,N,08128.3912,W,1,11,1.6,22,M,,M,,*61
06/11/2015	18:05:50.614	$GPGGA,180551,2426.7729,N,08128.3920,W,1,11,1.6,22,M,,M,,*6D
06/11/2015	18:05:51.654	$GPGGA,180552,2426.7724,N,08128.3930,W,1,11,1.6,22,M,,M,,*62
06/11/2015	18:05:52.624	$GPGGA,180553,2426.7719,N,08128.3938,W,1,11,1.6,22,M,,M,,*65
06/11/2015	18:05:53.544	$GPGGA,180554,2426.7715,N,08128.3946,W,1,11,1.9,22,M,,M,,*68
06/11/2015	18:05:54.604	$GPGGA,180555,2426.7709,N,08128.3957,W,1,11,1.6,22,M,,M,,*6B
06/11/2015	18:05:55.604	$GPGGA,180556,2426.7704,N,08128.3967,W,1,11,1.6,22,M,,M,,*66
06/11/2015	18:05:56.604	$GPGGA,180557,2426.7699,N,08128.3977,W,1,11,1.6,22,M,,M,,*63
06/11/2015	18:05:57.594	$GPGGA,180558,2426.7694,N,08128.3986,W,1,11,1.6,22,M,,M,,*6F
06/11/2015	18:05:58.583	$GPGGA,180559,2426.7690,N,08128.3995,W,1,11,1.6,22,M,,M,,*68
06/11/2015	18:05:59.623	$GPGGA,180600,2426.7686,N,08128.4003,W,1,11,1.6,22,M,,M,,*61
06/11/2015	18:06:00.572	$GPGGA,180601,2426.7680,N,08128.4014,W,1,11,1.6,22,M,,M,,*60
06/11/2015	18:06:01.592	$GPGGA,180602,2426.7675,N,08128.4022,W,1,11,1.6,22,M,,M,,*6C
06/11/2015	18:06:02.573	$GPGGA,180603,2426.7670,N,08128.4030,W,1,11,1.6,22,M,,M,,*6B
06/11/2015	18:06:03.622	$GPGGA,180604,2426.7665,N,08128.4040,W,1,11,1.6,22,M,,M,,*6F
06/11/2015	18:06:04.573	$GPGGA,180605,2426.7661,N,08128.4050,W,1,11,1.6,22,M,,M,,*6B
06/11/2015	18:06:05.602	$GPGGA,180606,2426.7661,N,08128.4050,W,1,11,1.6,22,M,,M,,*68
06/11/2015	18:06:06.592	$GPGGA,180607,2426.7651,N,08128.4068,W,1,11,1.6,22,M,,M,,*61
06/11/2015	18:06:07.602	$GPGGA,180608,2426.7647,N,08128.4079,W,1,11,1.6,22,M,,M,,*69
06/11/2015	18:06:08.582	$GPGGA,180609,2426.7643,N,08128.4087,W,1,11,1.6,22,M,,M,,*6D
06/11/2015	18:06:09.574	$GPGGA,180610,2426.7639,N,08128.4097,W,1,10,1.6,22,M,,M,,*68
06/11/2015	18:06:10.565	$GPGGA,180611,2426.7633,N,08128.4108,W,1,10,1.6,22,M,,M,,*64
06/11/2015	18:06:11.592	$GPGGA,180612,2426.7633,N,08128.4108,W,1,11,1.6,22,M,,M,,*66
06/11/2015	18:06:12.569	$GPGGA,180613,2426.7623,N,08128.4127,W,1,11,1.6,22,M,,M,,*6B
06/11/2015	18:06:13.565	$GPGGA,180614,2426.7618,N,08128.4137,W,1,11,1.6,22,M,,M,,*65
06/11/2015	18:06:14.563	$GPGGA,180615,2426.7618,N,08128.4137,W,1,11,1.6,22,M,,M,,*64
06/11/2015	18:06:15.613	$GPGGA,180616,2426.7609,N,08128.4156,W,1,11,1.6,22,M,,M,,*60
06/11/2015	18:06:16.584	$GPGGA,180617,2426.7603,N,08128.4166,W,1,11,1.6,22,M,,M,,*68
06/11/2015	18:06:18.592	$GPGGA,180619,2426.7596,N,08128.4185,W,1,11,1.6,22,M,,M,,*64
06/11/2015	18:06:19.566	$GPGGA,180620,2426.7590,N,08128.4195,W,1,11,1.6,22,M,,M,,*69
06/11/2015	18:06:20.542	$GPGGA,180621,2426.7590,N,08128.4195,W,1,11,1.6,22,M,,M,,*68
06/11/2015	18:06:21.542	$GPGGA,180622,2426.7580,N,08128.4213,W,1,10,1.6,22,M,,M,,*66
06/11/2015	18:06:22.553	$GPGGA,180623,2426.7580,N,08128.4213,W,1,10,1.6,22,M,,M,,*67
06/11/2015	18:06:23.582	$GPGGA,180624,2426.7569,N,08128.4232,W,1,10,1.6,22,M,,M,,*64
06/11/2015	18:06:24.542	$GPGGA,180625,2426.7569,N,08128.4232,W,1,10,1.6,22,M,,M,,*65
06/11/2015	18:06:25.642	$GPGGA,180626,2426.7560,N,08128.4252,W,1,11,1.6,22,M,,M,,*68
06/11/2015	18:06:26.532	$GPGGA,180627,2426.7556,N,08128.4260,W,1,11,1.6,22,M,,M,,*6D
06/11/2015	18:06:27.642	$GPGGA,180628,2426.7550,N,08128.4270,W,1,10,1.6,22,M,,M,,*64
06/11/2015	18:06:28.542	$GPGGA,180629,2426.7550,N,08128.4270,W,1,10,1.6,22,M,,M,,*65
06/11/2015	18:06:29.565	$GPGGA,180630,2426.7542,N,08128.4289,W,1,10,1.6,22,M,,M,,*68
06/11/2015	18:06:30.532	$GPGGA,180631,2426.7542,N,08128.4289,W,1,10,1.6,22,M,,M,,*69
06/11/2015	18:06:31.642	$GPGGA,180632,2426.7533,N,08128.4308,W,1,10,1.6,22,M,,M,,*64
06/11/2015	18:06:32.532	$GPGGA,180633,2426.7533,N,08128.4308,W,1,10,1.6,22,M,,M,,*65
06/11/2015	18:06:33.603	$GPGGA,180634,2426.7523,N,08128.4326,W,1,11,1.6,22,M,,M,,*6E
06/11/2015	18:06:34.523	$GPGGA,180635,2426.7523,N,08128.4326,W,1,11,1.6,22,M,,M,,*6F
06/11/2015	18:06:35.522	$GPGGA,180636,2426.7514,N,08128.4346,W,1,11,1.6,22,M,,M,,*6E
06/11/2015	18:06:36.512	$GPGGA,180637,2426.7510,N,08128.4355,W,1,11,1.6,22,M,,M,,*69
06/11/2015	18:06:37.492	$GPGGA,180638,2426.7506,N,08128.4364,W,1,11,1.6,22,M,,M,,*63
06/11/2015	18:06:38.602	$GPGGA,180639,2426.7502,N,08128.4375,W,1,11,1.6,22,M,,M,,*66
06/11/2015	18:06:39.602	$GPGGA,180640,2426.7498,N,08128.4383,W,1,10,1.6,22,M,,M,,*62
06/11/2015	18:06:40.592	$GPGGA,180641,2426.7493,N,08128.4393,W,1,10,1.6,22,M,,M,,*69
06/11/2015	18:06:41.612	$GPGGA,180642,2426.7489,N,08128.4402,W,1,11,1.6,22,M,,M,,*6F
06/11/2015	18:06:42.582	$GPGGA,180643,2426.7485,N,08128.4411,W,1,11,1.6,22,M,,M,,*60
06/11/2015	18:06:43.632	$GPGGA,180644,2426.7480,N,08128.4420,W,1,11,1.6,22,M,,M,,*60
06/11/2015	18:06:44.592	$GPGGA,180645,2426.7475,N,08128.4429,W,1,11,1.6,22,M,,M,,*62
06/11/2015	18:06:45.602	$GPGGA,180646,2426.7473,N,08128.4440,W,1,10,1.6,22,M,,M,,*69
06/11/2015	18:06:46.592	$GPGGA,180647,2426.7469,N,08128.4449,W,1,10,1.6,22,M,,M,,*6A
06/11/2015	18:06:47.602	$GPGGA,180648,2426.7464,N,08128.4458,W,1,11,1.6,22,M,,M,,*69
06/11/2015	18:06:48.568	$GPGGA,180649,2426.7459,N,08128.4469,W,1,11,1.6,21,M,,M,,*67
06/11/2015	18:06:49.572	$GPGGA,180650,2426.7455,N,08128.4477,W,1,11,1.6,21,M,,M,,*6C
06/11/2015	18:06:50.579	$GPGGA,180651,2426.7450,N,08128.4487,W,1,11,1.6,21,M,,M,,*67
06/11/2015	18:06:51.593	$GPGGA,180652,2426.7448,N,08128.4496,W,1,10,1.6,21,M,,M,,*6C
06/11/2015	18:06:52.569	$GPGGA,180653,2426.7444,N,08128.4506,W,1,10,1.6,21,M,,M,,*69
06/11/2015	18:06:53.592	$GPGGA,180654,2426.7438,N,08128.4516,W,1,11,1.6,21,M,,M,,*65
06/11/2015	18:06:54.567	$GPGGA,180655,2426.7434,N,08128.4525,W,1,11,1.6,21,M,,M,,*68
06/11/2015	18:06:55.592	$GPGGA,180656,2426.7430,N,08128.4534,W,1,11,1.6,21,M,,M,,*6F
06/11/2015	18:06:56.573	$GPGGA,180657,2426.7426,N,08128.4545,W,1,11,1.6,21,M,,M,,*6F
06/11/2015	18:06:57.552	$GPGGA,180658,2426.7420,N,08128.4553,W,1,10,1.6,21,M,,M,,*60
06/11/2015	18:06:58.552	$GPGGA,180659,2426.7416,N,08128.4563,W,1,10,1.6,21,M,,M,,*67
06/11/2015	18:06:59.592	$GPGGA,180700,2426.7411,N,08128.4572,W,1,11,1.6,21,M,,M,,*6C
06/11/2015	18:07:00.552	$GPGGA,180701,2426.7406,N,08128.4582,W,1,11,1.6,21,M,,M,,*64
06/11/2015	18:07:01.532	$GPGGA,180702,2426.7401,N,08128.4592,W,1,10,1.6,21,M,,M,,*60
06/11/2015	18:07:02.552	$GPGGA,180703,2426.7397,N,08128.4600,W,1,10,1.6,21,M,,M,,*61
06/11/2015	18:07:03.576	$GPGGA,180704,2426.7392,N,08128.4610,W,1,10,1.6,21,M,,M,,*62
06/11/2015	18:07:04.552	$GPGGA,180705,2426.7388,N,08128.4620,W,1,10,1.6,21,M,,M,,*6B
06/11/2015	18:07:05.542	$GPGGA,180706,2426.7384,N,08128.4628,W,1,11,1.6,21,M,,M,,*6D
06/11/2015	18:07:06.532	$GPGGA,180707,2426.7379,N,08128.4639,W,1,11,1.6,21,M,,M,,*6E
06/11/2015	18:07:07.666	$GPGGA,180708,2426.7374,N,08128.4647,W,1,11,1.6,21,M,,M,,*65
06/11/2015	18:07:08.533	$GPGGA,180709,2426.7369,N,08128.4657,W,1,11,1.6,21,M,,M,,*69
06/11/2015	18:07:09.533	$GPGGA,180710,2426.7365,N,08128.4667,W,1,10,1.6,21,M,,M,,*6F
06/11/2015	18:07:10.532	$GPGGA,180711,2426.7361,N,08128.4675,W,1,10,1.6,20,M,,M,,*68
06/11/2015	18:07:11.632	$GPGGA,180712,2426.7355,N,08128.4684,W,1,10,1.6,20,M,,M,,*62
06/11/2015	18:07:12.533	$GPGGA,180713,2426.7351,N,08128.4694,W,1,10,1.6,20,M,,M,,*66
06/11/2015	18:07:13.612	$GPGGA,180714,2426.7347,N,08128.4704,W,1,11,1.6,20,M,,M,,*6F
06/11/2015	18:07:14.542	$GPGGA,180715,2426.7343,N,08128.4714,W,1,11,1.6,20,M,,M,,*6B
06/11/2015	18:07:15.622	$GPGGA,180716,2426.7338,N,08128.4723,W,1,11,1.6,20,M,,M,,*60
06/11/2015	18:07:16.523	$GPGGA,180717,2426.7334,N,08128.4733,W,1,11,1.6,20,M,,M,,*6C
06/11/2015	18:07:17.542	$GPGGA,180718,2426.7330,N,08128.4743,W,1,10,1.6,20,M,,M,,*61
06/11/2015	18:07:18.602	$GPGGA,180719,2426.7325,N,08128.4754,W,1,10,1.9,20,M,,M,,*6D
06/11/2015	18:07:19.532	$GPGGA,180720,2426.7322,N,08128.4763,W,1,11,1.6,20,M,,M,,*6A
06/11/2015	18:07:20.522	$GPGGA,180721,2426.7318,N,08128.4773,W,1,11,1.9,20,M,,M,,*6C
06/11/2015	18:07:21.602	$GPGGA,180722,2426.7314,N,08128.4783,W,1,11,1.6,20,M,,M,,*63
06/11/2015	18:07:22.602	$GPGGA,180723,2426.7309,N,08128.4794,W,1,11,1.6,20,M,,M,,*68
06/11/2015	18:07:23.602	$GPGGA,180724,2426.7303,N,08128.4803,W,1,11,1.6,20,M,,M,,*64
06/11/2015	18:07:24.602	$GPGGA,180725,2426.7297,N,08128.4813,W,1,11,1.6,20,M,,M,,*68
06/11/2015	18:07:25.593	$GPGGA,180726,2426.7292,N,08128.4824,W,1,11,1.6,20,M,,M,,*6A
06/11/2015	18:07:26.583	$GPGGA,180727,2426.7289,N,08128.4834,W,1,11,1.6,20,M,,M,,*60
06/11/2015	18:07:27.602	$GPGGA,180728,2426.7283,N,08128.4844,W,1,11,1.6,20,M,,M,,*62
06/11/2015	18:07:28.592	$GPGGA,180729,2426.7278,N,08128.4855,W,1,11,1.6,20,M,,M,,*67
06/11/2015	18:07:29.602	$GPGGA,180730,2426.7272,N,08128.4864,W,1,11,1.6,20,M,,M,,*67
06/11/2015	18:07:30.578	$GPGGA,180731,2426.7268,N,08128.4874,W,1,11,1.6,20,M,,M,,*6C
06/11/2015	18:07:31.602	$GPGGA,180732,2426.7263,N,08128.4882,W,1,10,1.6,20,M,,M,,*6C
06/11/2015	18:07:32.582	$GPGGA,180733,2426.7258,N,08128.4892,W,1,10,1.6,20,M,,M,,*64
06/11/2015	18:07:33.592	$GPGGA,180734,2426.7254,N,08128.4902,W,1,11,1.6,20,M,,M,,*66
06/11/2015	18:07:34.572	$GPGGA,180735,2426.7251,N,08128.4911,W,1,11,1.6,20,M,,M,,*60
06/11/2015	18:07:35.602	$GPGGA,180736,2426.7246,N,08128.4918,W,1,10,1.9,19,M,,M,,*68
06/11/2015	18:07:36.573	$GPGGA,180737,2426.7242,N,08128.4926,W,1,10,1.9,19,M,,M,,*60
06/11/2015	18:07:37.563	$GPGGA,180738,2426.7238,N,08128.4936,W,1,11,1.6,19,M,,M,,*6D
06/11/2015	18:07:38.564	$GPGGA,180739,2426.7234,N,08128.4946,W,1,11,1.6,19,M,,M,,*67
06/11/2015	18:07:39.602	$GPGGA,180740,2426.7228,N,08128.4956,W,1,11,1.6,19,M,,M,,*65
06/11/2015	18:07:40.565	$GPGGA,180741,2426.7224,N,08128.4964,W,1,11,1.6,19,M,,M,,*69
06/11/2015	18:07:41.582	$GPGGA,180742,2426.7220,N,08128.4973,W,1,11,1.6,19,M,,M,,*68
06/11/2015	18:07:42.564	$GPGGA,180743,2426.7214,N,08128.4982,W,1,11,1.6,19,M,,M,,*60
06/11/2015	18:07:43.583	$GPGGA,180744,2426.7208,N,08128.4991,W,1,11,1.6,19,M,,M,,*68
06/11/2015	18:07:44.563	$GPGGA,180745,2426.7203,N,08128.5000,W,1,11,1.6,19,M,,M,,*62
06/11/2015	18:07:45.568	$GPGGA,180746,2426.7198,N,08128.5009,W,1,11,1.6,19,M,,M,,*69
06/11/2015	18:07:46.552	$GPGGA,180747,2426.7193,N,08128.5018,W,1,11,1.6,19,M,,M,,*63
06/11/2015	18:07:47.582	$GPGGA,180748,2426.7188,N,08128.5026,W,1,10,1.9,18,M,,M,,*64
06/11/2015	18:07:48.532	$GPGGA,180749,2426.7184,N,08128.5036,W,1,10,1.6,18,M,,M,,*67
06/11/2015	18:07:49.532	$GPGGA,180750,2426.7177,N,08128.5045,W,1,11,1.6,18,M,,M,,*66
06/11/2015	18:07:50.532	$GPGGA,180751,2426.7171,N,08128.5054,W,1,11,1.6,18,M,,M,,*61
06/11/2015	18:07:51.552	$GPGGA,180752,2426.7166,N,08128.5065,W,1,11,1.6,18,M,,M,,*66
06/11/2015	18:07:52.522	$GPGGA,180753,2426.7161,N,08128.5073,W,1,11,1.6,18,M,,M,,*67
06/11/2015	18:07:53.552	$GPGGA,180754,2426.7155,N,08128.5083,W,1,11,1.6,18,M,,M,,*68
06/11/2015	18:07:54.542	$GPGGA,180755,2426.7150,N,08128.5091,W,1,11,1.6,18,M,,M,,*6F
06/11/2015	18:07:55.552	$GPGGA,180756,2426.7145,N,08128.5101,W,1,11,1.6,18,M,,M,,*60
06/11/2015	18:07:56.532	$GPGGA,180757,2426.7141,N,08128.5109,W,1,11,1.6,18,M,,M,,*6D
06/11/2015	18:07:57.632	$GPGGA,180758,2426.7135,N,08128.5119,W,1,11,1.6,18,M,,M,,*60
06/11/2015	18:07:58.522	$GPGGA,180759,2426.7130,N,08128.5127,W,1,11,1.6,18,M,,M,,*69
06/11/2015	18:07:59.552	$GPGGA,180800,2426.7126,N,08128.5137,W,1,11,1.6,18,M,,M,,*6C
06/11/2015	18:08:00.523	$GPGGA,180801,2426.7121,N,08128.5146,W,1,11,1.6,18,M,,M,,*6C
06/11/2015	18:08:02.100	$GPGGA,180802,2426.7117,N,08128.5155,W,1,10,1.7,18,M,,M,,*68
06/11/2015	18:08:02.602	$GPGGA,180803,2426.7112,N,08128.5166,W,1,10,1.6,18,M,,M,,*6D
06/11/2015	18:08:03.643	$GPGGA,180804,2426.7108,N,08128.5174,W,1,10,1.6,18,M,,M,,*62
06/11/2015	18:08:04.522	$GPGGA,180805,2426.7102,N,08128.5184,W,1,10,1.6,19,M,,M,,*67
06/11/2015	18:08:05.632	$GPGGA,180806,2426.7098,N,08128.5195,W,1,11,1.6,19,M,,M,,*67
06/11/2015	18:08:06.602	$GPGGA,180807,2426.7094,N,08128.5203,W,1,11,1.6,19,M,,M,,*66
06/11/2015	18:08:07.602	$GPGGA,180808,2426.7090,N,08128.5213,W,1,11,1.6,19,M,,M,,*6C
06/11/2015	18:08:08.602	$GPGGA,180809,2426.7085,N,08128.5224,W,1,11,1.6,19,M,,M,,*6D
06/11/2015	18:08:09.622	$GPGGA,180810,2426.7080,N,08128.5232,W,1,11,1.6,19,M,,M,,*67
06/11/2015	18:08:10.592	$GPGGA,180811,2426.7076,N,08128.5242,W,1,11,1.6,19,M,,M,,*68
06/11/2015	18:08:11.632	$GPGGA,180812,2426.7072,N,08128.5251,W,1,11,1.6,19,M,,M,,*6D
06/11/2015	18:08:12.583	$GPGGA,180813,2426.7067,N,08128.5261,W,1,11,1.6,19,M,,M,,*6B
06/11/2015	18:08:13.592	$GPGGA,180814,2426.7062,N,08128.5271,W,1,11,1.6,19,M,,M,,*68
06/11/2015	18:08:14.583	$GPGGA,180815,2426.7057,N,08128.5280,W,1,11,1.6,19,M,,M,,*61
06/11/2015	18:08:15.612	$GPGGA,180816,2426.7054,N,08128.5289,W,1,11,1.6,20,M,,M,,*62
06/11/2015	18:08:16.575	$GPGGA,180817,2426.7049,N,08128.5300,W,1,11,1.6,20,M,,M,,*6F
06/11/2015	18:08:17.602	$GPGGA,180818,2426.7044,N,08128.5308,W,1,11,1.6,20,M,,M,,*65
06/11/2015	18:08:18.583	$GPGGA,180819,2426.7038,N,08128.5318,W,1,11,1.6,20,M,,M,,*6E
06/11/2015	18:08:19.603	$GPGGA,180820,2426.7034,N,08128.5327,W,1,11,1.6,20,M,,M,,*64
06/11/2015	18:08:20.595	$GPGGA,180821,2426.7030,N,08128.5337,W,1,11,1.6,20,M,,M,,*60
06/11/2015	18:08:21.602	$GPGGA,180822,2426.7025,N,08128.5347,W,1,10,1.6,20,M,,M,,*61
06/11/2015	18:08:22.568	$GPGGA,180823,2426.7019,N,08128.5355,W,1,10,1.6,20,M,,M,,*6C
06/11/2015	18:08:23.602	$GPGGA,180824,2426.7015,N,08128.5366,W,1,11,1.6,20,M,,M,,*66
06/11/2015	18:08:24.574	$GPGGA,180825,2426.7011,N,08128.5376,W,1,11,1.6,20,M,,M,,*62
06/11/2015	18:08:25.552	$GPGGA,180826,2426.7007,N,08128.5384,W,1,11,1.6,20,M,,M,,*6B
06/11/2015	18:08:26.564	$GPGGA,180827,2426.7001,N,08128.5394,W,1,11,1.6,20,M,,M,,*6D
06/11/2015	18:08:27.592	$GPGGA,180828,2426.6997,N,08128.5405,W,1,11,1.6,20,M,,M,,*6A
06/11/2015	18:08:28.565	$GPGGA,180829,2426.6991,N,08128.5415,W,1,11,1.6,20,M,,M,,*6C
06/11/2015	18:08:29.566	$GPGGA,180830,2426.6986,N,08128.5423,W,1,11,1.6,21,M,,M,,*66
06/11/2015	18:08:30.563	$GPGGA,180831,2426.6982,N,08128.5434,W,1,11,1.6,21,M,,M,,*65
06/11/2015	18:08:31.552	$GPGGA,180832,2426.6978,N,08128.5444,W,1,11,1.6,21,M,,M,,*64
06/11/2015	18:08:32.552	$GPGGA,180833,2426.6972,N,08128.5452,W,1,11,1.6,21,M,,M,,*68
06/11/2015	18:08:33.576	$GPGGA,180834,2426.6967,N,08128.5462,W,1,11,1.6,21,M,,M,,*68
06/11/2015	18:08:34.552	$GPGGA,180835,2426.6964,N,08128.5473,W,1,11,1.6,21,M,,M,,*6A
06/11/2015	18:08:35.583	$GPGGA,180836,2426.6958,N,08128.5481,W,1,11,1.6,21,M,,M,,*6B
06/11/2015	18:08:36.553	$GPGGA,180837,2426.6954,N,08128.5491,W,1,11,1.6,21,M,,M,,*67
06/11/2015	18:08:37.542	$GPGGA,180838,2426.6950,N,08128.5500,W,1,11,1.6,21,M,,M,,*65
06/11/2015	18:08:38.542	$GPGGA,180839,2426.6945,N,08128.5510,W,1,11,1.6,21,M,,M,,*61
06/11/2015	18:08:39.563	$GPGGA,180840,2426.6942,N,08128.5520,W,1,11,1.6,21,M,,M,,*6B
06/11/2015	18:08:40.522	$GPGGA,180841,2426.6937,N,08128.5529,W,1,11,1.6,21,M,,M,,*61
06/11/2015	18:08:41.542	$GPGGA,180842,2426.6933,N,08128.5538,W,1,11,1.6,21,M,,M,,*66
06/11/2015	18:08:42.652	$GPGGA,180843,2426.6927,N,08128.5547,W,1,11,1.6,21,M,,M,,*6A
06/11/2015	18:08:43.542	$GPGGA,180844,2426.6924,N,08128.5556,W,1,11,1.6,21,M,,M,,*6E
06/11/2015	18:08:44.632	$GPGGA,180845,2426.6920,N,08128.5567,W,1,11,1.9,21,M,,M,,*66
06/11/2015	18:08:45.512	$GPGGA,180846,2426.6917,N,08128.5575,W,1,11,1.6,21,M,,M,,*6D
06/11/2015	18:08:46.522	$GPGGA,180847,2426.6911,N,08128.5585,W,1,11,1.6,20,M,,M,,*64
06/11/2015	18:08:47.612	$GPGGA,180848,2426.6907,N,08128.5593,W,1,11,1.6,20,M,,M,,*6B
06/11/2015	18:08:48.502	$GPGGA,180849,2426.6904,N,08128.5603,W,1,11,1.9,20,M,,M,,*6C
06/11/2015	18:08:49.512	$GPGGA,180850,2426.6902,N,08128.5608,W,1,10,1.9,20,M,,M,,*68
06/11/2015	18:08:50.512	$GPGGA,180851,2426.6896,N,08128.5618,W,1,10,1.6,20,M,,M,,*6B
06/11/2015	18:08:51.642	$GPGGA,180852,2426.6892,N,08128.5629,W,1,11,1.6,20,M,,M,,*6F
06/11/2015	18:08:52.522	$GPGGA,180853,2426.6888,N,08128.5637,W,1,11,1.6,20,M,,M,,*6A
06/11/2015	18:08:53.623	$GPGGA,180854,2426.6884,N,08128.5647,W,1,11,1.6,20,M,,M,,*66
06/11/2015	18:08:54.603	$GPGGA,180855,2426.6878,N,08128.5658,W,1,11,1.9,20,M,,M,,*65
06/11/2015	18:08:55.622	$GPGGA,180856,2426.6874,N,08128.5668,W,1,11,1.6,20,M,,M,,*66
06/11/2015	18:08:56.592	$GPGGA,180857,2426.6870,N,08128.5677,W,1,11,1.6,20,M,,M,,*6D
06/11/2015	18:08:57.612	$GPGGA,180858,2426.6864,N,08128.5688,W,1,11,1.6,20,M,,M,,*67
06/11/2015	18:08:58.582	$GPGGA,180859,2426.6860,N,08128.5698,W,1,11,1.6,20,M,,M,,*63
06/11/2015	18:08:59.668	$GPGGA,180900,2426.6855,N,08128.5708,W,1,11,1.6,20,M,,M,,*60
06/11/2015	18:09:00.576	$GPGGA,180901,2426.6850,N,08128.5717,W,1,11,1.6,20,M,,M,,*6A
06/11/2015	18:09:01.602	$GPGGA,180902,2426.6846,N,08128.5726,W,1,11,1.6,20,M,,M,,*6C
06/11/2015	18:09:02.582	$GPGGA,180903,2426.6842,N,08128.5734,W,1,11,1.9,20,M,,M,,*65
06/11/2015	18:09:03.592	$GPGGA,180904,2426.6837,N,08128.5744,W,1,9,1.9,20,M,,M,,*5E
06/11/2015	18:09:04.576	$GPGGA,180905,2426.6832,N,08128.5753,W,1,9,1.6,20,M,,M,,*53
06/11/2015	18:09:05.582	$GPGGA,180906,2426.6828,N,08128.5763,W,1,11,1.6,20,M,,M,,*61
06/11/2015	18:09:06.565	$GPGGA,180907,2426.6824,N,08128.5773,W,1,11,1.6,20,M,,M,,*6D
06/11/2015	18:09:07.592	$GPGGA,180908,2426.6819,N,08128.5782,W,1,10,1.6,20,M,,M,,*63
06/11/2015	18:09:08.572	$GPGGA,180909,2426.6813,N,08128.5791,W,1,10,1.6,20,M,,M,,*6A
06/11/2015	18:09:09.575	$GPGGA,180910,2426.6809,N,08128.5800,W,1,11,1.6,20,M,,M,,*6F
06/11/2015	18:09:10.581	$GPGGA,180911,2426.6806,N,08128.5810,W,1,11,1.6,20,M,,M,,*60
06/11/2015	18:09:11.603	$GPGGA,180912,2426.6801,N,08128.5820,W,1,11,1.6,20,M,,M,,*67
06/11/2015	18:09:12.567	$GPGGA,180913,2426.6796,N,08128.5828,W,1,11,1.6,20,M,,M,,*6F
06/11/2015	18:09:13.552	$GPGGA,180914,2426.6791,N,08128.5838,W,1,11,1.6,20,M,,M,,*6E
06/11/2015	18:09:14.552	$GPGGA,180915,2426.6786,N,08128.5849,W,1,11,1.6,20,M,,M,,*6F
06/11/2015	18:09:15.583	$GPGGA,180916,2426.6781,N,08128.5857,W,1,10,1.6,20,M,,M,,*65
06/11/2015	18:09:16.552	$GPGGA,180917,2426.6776,N,08128.5867,W,1,10,1.6,20,M,,M,,*6F
06/11/2015	18:09:17.578	$GPGGA,180918,2426.6772,N,08128.5876,W,1,11,1.6,20,M,,M,,*65
06/11/2015	18:09:18.532	$GPGGA,180919,2426.6769,N,08128.5887,W,1,11,1.7,20,M,,M,,*61
06/11/2015	18:09:19.602	$GPGGA,180920,2426.6765,N,08128.5896,W,1,11,1.6,20,M,,M,,*66
06/11/2015	18:09:20.543	$GPGGA,180921,2426.6760,N,08128.5905,W,1,11,1.6,20,M,,M,,*69
06/11/2015	18:09:21.532	$GPGGA,180922,2426.6756,N,08128.5914,W,1,11,1.6,20,M,,M,,*6F
06/11/2015	18:09:22.542	$GPGGA,180923,2426.6752,N,08128.5921,W,1,11,1.9,20,M,,M,,*63
06/11/2015	18:09:23.574	$GPGGA,180924,2426.6748,N,08128.5929,W,1,10,1.9,20,M,,M,,*66
06/11/2015	18:09:24.522	$GPGGA,180925,2426.6743,N,08128.5939,W,1,10,1.9,20,M,,M,,*6D
06/11/2015	18:09:25.542	$GPGGA,180926,2426.6738,N,08128.5947,W,1,11,1.6,20,M,,M,,*65
06/11/2015	18:09:26.532	$GPGGA,180927,2426.6733,N,08128.5957,W,1,11,1.6,20,M,,M,,*6E
06/11/2015	18:09:27.632	$GPGGA,180928,2426.6729,N,08128.5965,W,1,11,1.6,20,M,,M,,*6B
06/11/2015	18:09:28.543	$GPGGA,180929,2426.6725,N,08128.5975,W,1,11,1.6,20,M,,M,,*67
06/11/2015	18:09:29.513	$GPGGA,180930,2426.6718,N,08128.5983,W,1,11,1.6,20,M,,M,,*68
06/11/2015	18:09:30.532	$GPGGA,180931,2426.6714,N,08128.5993,W,1,11,1.9,20,M,,M,,*6B
06/11/2015	18:09:31.652	$GPGGA,180932,2426.6709,N,08128.6001,W,1,10,1.6,20,M,,M,,*6B
06/11/2015	18:09:32.522	$GPGGA,180933,2426.6703,N,08128.6009,W,1,10,1.6,20,M,,M,,*68
06/11/2015	18:09:33.667	$GPGGA,180934,2426.6698,N,08128.6019,W,1,11,1.6,20,M,,M,,*6C
06/11/2015	18:09:34.602	$GPGGA,180935,2426.6693,N,08128.6029,W,1,11,1.6,20,M,,M,,*65
06/11/2015	18:09:36.052	$GPGGA,180936,2426.6689,N,08128.6037,W,1,11,1.6,20,M,,M,,*62
06/11/2015	18:09:36.622	$GPGGA,180937,2426.6683,N,08128.6044,W,1,11,1.9,20,M,,M,,*62
06/11/2015	18:09:37.622	$GPGGA,180938,2426.6678,N,08128.6053,W,1,10,1.6,20,M,,M,,*61
06/11/2015	18:09:38.602	$GPGGA,180939,2426.6672,N,08128.6063,W,1,10,1.6,20,M,,M,,*69
06/11/2015	18:09:39.612	$GPGGA,180940,2426.6667,N,08128.6073,W,1,11,1.6,20,M,,M,,*63
06/11/2015	18:09:40.602	$GPGGA,180941,2426.6661,N,08128.6084,W,1,11,1.6,20,M,,M,,*6C
06/11/2015	18:09:41.602	$GPGGA,180942,2426.6656,N,08128.6092,W,1,11,1.6,20,M,,M,,*6C
06/11/2015	18:09:42.602	$GPGGA,180943,2426.6651,N,08128.6102,W,1,11,1.6,20,M,,M,,*62
06/11/2015	18:09:43.542	$GPGGA,180944,2426.6647,N,08128.6110,W,1,11,1.6,20,M,,M,,*61
06/11/2015	18:09:44.592	$GPGGA,180945,2426.6640,N,08128.6120,W,1,11,1.6,20,M,,M,,*64
06/11/2015	18:09:45.613	$GPGGA,180946,2426.6636,N,08128.6128,W,1,11,1.6,20,M,,M,,*6E
06/11/2015	18:09:46.583	$GPGGA,180947,2426.6631,N,08128.6138,W,1,11,1.6,20,M,,M,,*69
06/11/2015	18:09:47.622	$GPGGA,180948,2426.6626,N,08128.6147,W,1,11,1.6,20,M,,M,,*68
06/11/2015	18:09:49.043	$GPGGA,180949,2426.6620,N,08128.6156,W,1,11,1.6,20,M,,M,,*6F
06/11/2015	18:09:49.592	$GPGGA,180950,2426.6617,N,08128.6163,W,1,11,1.6,20,M,,M,,*65
06/11/2015	18:09:50.572	$GPGGA,180951,2426.6613,N,08128.6172,W,1,11,1.6,20,M,,M,,*60
06/11/2015	18:09:51.622	$GPGGA,180952,2426.6607,N,08128.6181,W,1,10,1.6,20,M,,M,,*6B
06/11/2015	18:09:52.575	$GPGGA,180953,2426.6602,N,08128.6189,W,1,10,1.6,20,M,,M,,*67
06/11/2015	18:09:53.592	$GPGGA,180954,2426.6597,N,08128.6197,W,1,11,1.6,20,M,,M,,*61
06/11/2015	18:09:54.602	$GPGGA,180955,2426.6592,N,08128.6207,W,1,11,1.6,20,M,,M,,*6F
06/11/2015	18:09:55.592	$GPGGA,180956,2426.6588,N,08128.6217,W,1,10,1.7,20,M,,M,,*66
06/11/2015	18:09:56.569	$GPGGA,180957,2426.6584,N,08128.6225,W,1,10,1.6,20,M,,M,,*6B
06/11/2015	18:09:57.568	$GPGGA,180958,2426.6579,N,08128.6233,W,1,11,1.9,20,M,,M,,*6F
06/11/2015	18:09:58.572	$GPGGA,180959,2426.6577,N,08128.6243,W,1,11,1.6,20,M,,M,,*68
06/11/2015	18:09:59.665	$GPGGA,181000,2426.6571,N,08128.6254,W,1,11,1.6,20,M,,M,,*6C
06/11/2015	18:10:00.552	$GPGGA,181001,2426.6567,N,08128.6264,W,1,11,1.6,20,M,,M,,*69
06/11/2015	18:10:01.566	$GPGGA,181002,2426.6563,N,08128.6272,W,1,11,1.6,20,M,,M,,*69
06/11/2015	18:10:02.566	$GPGGA,181003,2426.6559,N,08128.6283,W,1,11,1.6,20,M,,M,,*6F
06/11/2015	18:10:03.633	$GPGGA,181004,2426.6555,N,08128.6291,W,1,11,1.6,20,M,,M,,*67
06/11/2015	18:10:04.543	$GPGGA,181005,2426.6549,N,08128.6301,W,1,11,1.6,20,M,,M,,*63
06/11/2015	18:10:05.552	$GPGGA,181006,2426.6545,N,08128.6311,W,1,11,1.6,20,M,,M,,*6D
06/11/2015	18:10:06.652	$GPGGA,181007,2426.6541,N,08128.6322,W,1,11,1.6,20,M,,M,,*68
06/11/2015	18:10:08.043	$GPGGA,181008,2426.6536,N,08128.6331,W,1,11,1.6,20,M,,M,,*65
06/11/2015	18:10:08.570	$GPGGA,181009,2426.6532,N,08128.6341,W,1,11,1.6,20,M,,M,,*67
06/11/2015	18:10:10.867	$GPGGA,181011,2426.6523,N,08128.6360,W,1,11,1.6,20,M,,M,,*6D
06/11/2015	18:10:11.565	$GPGGA,181012,2426.6517,N,08128.6370,W,1,11,1.6,20,M,,M,,*68
06/11/2015	18:10:12.522	$GPGGA,181013,2426.6513,N,08128.6380,W,1,11,1.6,20,M,,M,,*62
06/11/2015	18:10:13.522	$GPGGA,181014,2426.6509,N,08128.6389,W,1,11,1.6,20,M,,M,,*67
06/11/2015	18:10:14.542	$GPGGA,181015,2426.6505,N,08128.6398,W,1,11,1.6,20,M,,M,,*6A
06/11/2015	18:10:15.652	$GPGGA,181016,2426.6501,N,08128.6409,W,1,11,1.6,20,M,,M,,*62
06/11/2015	18:10:16.902	$GPGGA,181017,2426.6495,N,08128.6420,W,1,11,1.6,20,M,,M,,*64
06/11/2015	18:10:17.522	$GPGGA,181018,2426.6491,N,08128.6428,W,1,11,1.6,20,M,,M,,*67
06/11/2015	18:10:18.612	$GPGGA,181019,2426.6487,N,08128.6438,W,1,11,1.6,20,M,,M,,*60
06/11/2015	18:10:19.642	$GPGGA,181020,2426.6483,N,08128.6446,W,1,11,1.6,20,M,,M,,*67
06/11/2015	18:10:20.533	$GPGGA,181021,2426.6478,N,08128.6456,W,1,11,1.6,20,M,,M,,*63
06/11/2015	18:10:21.613	$GPGGA,181022,2426.6474,N,08128.6464,W,1,11,1.6,20,M,,M,,*6D
06/11/2015	18:10:22.602	$GPGGA,181023,2426.6470,N,08128.6474,W,1,11,1.6,20,M,,M,,*69
06/11/2015	18:10:23.668	$GPGGA,181024,2426.6466,N,08128.6485,W,1,11,1.6,20,M,,M,,*67
06/11/2015	18:10:24.602	$GPGGA,181025,2426.6462,N,08128.6493,W,1,11,1.6,20,M,,M,,*65
06/11/2015	18:10:25.612	$GPGGA,181026,2426.6458,N,08128.6503,W,1,11,1.6,20,M,,M,,*67
06/11/2015	18:10:26.602	$GPGGA,181027,2426.6458,N,08128.6503,W,1,11,1.6,20,M,,M,,*66
06/11/2015	18:10:27.602	$GPGGA,181028,2426.6449,N,08128.6521,W,1,11,1.6,21,M,,M,,*68
06/11/2015	18:10:28.592	$GPGGA,181029,2426.6445,N,08128.6532,W,1,11,1.6,21,M,,M,,*67
06/11/2015	18:10:29.592	$GPGGA,181030,2426.6440,N,08128.6540,W,1,11,1.6,21,M,,M,,*6F
06/11/2015	18:10:30.583	$GPGGA,181031,2426.6436,N,08128.6550,W,1,11,1.6,21,M,,M,,*6E
06/11/2015	18:10:31.602	$GPGGA,181032,2426.6433,N,08128.6558,W,1,11,1.9,21,M,,M,,*6F
06/11/2015	18:10:32.587	$GPGGA,181033,2426.6429,N,08128.6565,W,1,11,1.9,21,M,,M,,*6B
06/11/2015	18:10:33.602	$GPGGA,181034,2426.6425,N,08128.6573,W,1,11,1.6,21,M,,M,,*68
06/11/2015	18:10:34.575	$GPGGA,181035,2426.6422,N,08128.6582,W,1,11,1.9,20,M,,M,,*6E
06/11/2015	18:10:35.582	$GPGGA,181036,2426.6418,N,08128.6593,W,1,10,1.9,20,M,,M,,*65
06/11/2015	18:10:36.576	$GPGGA,181037,2426.6412,N,08128.6604,W,1,10,1.6,20,M,,M,,*6C
06/11/2015	18:10:37.562	$GPGGA,181038,2426.6407,N,08128.6612,W,1,11,1.6,20,M,,M,,*61
06/11/2015	18:10:38.563	$GPGGA,181039,2426.6402,N,08128.6622,W,1,11,1.6,20,M,,M,,*66
06/11/2015	18:10:39.603	$GPGGA,181040,2426.6398,N,08128.6633,W,1,11,1.6,20,M,,M,,*6C
06/11/2015	18:10:40.552	$GPGGA,181041,2426.6393,N,08128.6642,W,1,11,1.6,20,M,,M,,*60
06/11/2015	18:10:41.582	$GPGGA,181042,2426.6389,N,08128.6652,W,1,11,1.6,21,M,,M,,*68
06/11/2015	18:10:42.566	$GPGGA,181043,2426.6383,N,08128.6662,W,1,11,1.6,21,M,,M,,*60
06/11/2015	18:10:43.602	$GPGGA,181044,2426.6379,N,08128.6673,W,1,11,1.6,21,M,,M,,*62
06/11/2015	18:10:44.552	$GPGGA,181045,2426.6375,N,08128.6681,W,1,11,1.6,21,M,,M,,*62
06/11/2015	18:10:45.574	$GPGGA,181046,2426.6369,N,08128.6691,W,1,11,1.6,21,M,,M,,*6D
06/11/2015	18:10:46.566	$GPGGA,181047,2426.6365,N,08128.6701,W,1,11,1.6,21,M,,M,,*68
06/11/2015	18:10:47.575	$GPGGA,181048,2426.6361,N,08128.6712,W,1,11,1.6,21,M,,M,,*61
06/11/2015	18:10:48.552	$GPGGA,181049,2426.6357,N,08128.6721,W,1,11,1.6,21,M,,M,,*65
06/11/2015	18:10:49.532	$GPGGA,181050,2426.6350,N,08128.6728,W,1,9,1.7,21,M,,M,,*5B
06/11/2015	18:10:50.552	$GPGGA,181051,2426.6346,N,08128.6738,W,1,9,1.6,21,M,,M,,*5D
06/11/2015	18:10:51.582	$GPGGA,181052,2426.6342,N,08128.6748,W,1,11,1.6,21,M,,M,,*64
06/11/2015	18:10:52.652	$GPGGA,181053,2426.6336,N,08128.6756,W,1,11,1.6,21,M,,M,,*69
06/11/2015	18:10:53.552	$GPGGA,181054,2426.6330,N,08128.6764,W,1,11,1.6,21,M,,M,,*69
06/11/2015	18:10:54.522	$GPGGA,181055,2426.6325,N,08128.6771,W,1,11,1.6,22,M,,M,,*6B
06/11/2015	18:10:55.543	$GPGGA,181056,2426.6321,N,08128.6781,W,1,10,1.9,22,M,,M,,*6D
06/11/2015	18:10:56.643	$GPGGA,181057,2426.6317,N,08128.6790,W,1,10,1.9,22,M,,M,,*69
06/11/2015	18:10:57.565	$GPGGA,181058,2426.6311,N,08128.6797,W,1,11,1.6,22,M,,M,,*69
06/11/2015	18:10:58.532	$GPGGA,181059,2426.6306,N,08128.6807,W,1,11,1.9,22,M,,M,,*67
06/11/2015	18:10:59.682	$GPGGA,181100,2426.6301,N,08128.6817,W,1,11,1.6,22,M,,M,,*63
06/11/2015	18:11:00.532	$GPGGA,181101,2426.6296,N,08128.6825,W,1,11,1.6,22,M,,M,,*6C
06/11/2015	18:11:01.622	$GPGGA,181102,2426.6292,N,08128.6835,W,1,11,1.6,22,M,,M,,*6A
06/11/2015	18:11:02.532	$GPGGA,181103,2426.6288,N,08128.6842,W,1,11,1.6,22,M,,M,,*60
06/11/2015	18:11:03.622	$GPGGA,181104,2426.6281,N,08128.6851,W,1,10,1.9,22,M,,M,,*62
06/11/2015	18:11:04.622	$GPGGA,181105,2426.6277,N,08128.6861,W,1,10,1.6,22,M,,M,,*66
06/11/2015	18:11:05.642	$GPGGA,181106,2426.6271,N,08128.6869,W,1,11,1.6,22,M,,M,,*6A
06/11/2015	18:11:06.512	$GPGGA,181107,2426.6266,N,08128.6879,W,1,11,1.6,22,M,,M,,*6C
06/11/2015	18:11:07.642	$GPGGA,181108,2426.6260,N,08128.6887,W,1,11,1.6,22,M,,M,,*64
06/11/2015	18:11:08.602	$GPGGA,181109,2426.6256,N,08128.6897,W,1,11,1.6,22,M,,M,,*61
06/11/2015	18:11:09.622	$GPGGA,181110,2426.6250,N,08128.6907,W,1,11,1.6,22,M,,M,,*67
06/11/2015	18:11:11.602	$GPGGA,181111,2426.6245,N,08128.6913,W,1,11,1.6,22,M,,M,,*67
06/11/2015	18:11:11.632	$GPGGA,181112,2426.6241,N,08128.6922,W,1,11,1.6,22,M,,M,,*62
06/11/2015	18:11:12.602	$GPGGA,181113,2426.6235,N,08128.6931,W,1,11,1.6,22,M,,M,,*62
06/11/2015	18:11:13.613	$GPGGA,181114,2426.6230,N,08128.6940,W,1,11,1.6,22,M,,M,,*66
06/11/2015	18:11:14.583	$GPGGA,181115,2426.6225,N,08128.6948,W,1,11,1.6,22,M,,M,,*6B
06/11/2015	18:11:15.592	$GPGGA,181116,2426.6219,N,08128.6956,W,1,11,1.6,22,M,,M,,*68
06/11/2015	18:11:16.592	$GPGGA,181117,2426.6216,N,08128.6965,W,1,11,1.9,22,M,,M,,*69
06/11/2015	18:11:17.602	$GPGGA,181118,2426.6210,N,08128.6973,W,1,11,1.6,22,M,,M,,*68
06/11/2015	18:11:18.582	$GPGGA,181119,2426.6205,N,08128.6980,W,1,11,1.6,22,M,,M,,*61
06/11/2015	18:11:19.612	$GPGGA,181120,2426.6199,N,08128.6988,W,1,11,1.6,22,M,,M,,*65
06/11/2015	18:11:20.592	$GPGGA,181121,2426.6195,N,08128.6998,W,1,11,1.6,22,M,,M,,*69
06/11/2015	18:11:21.574	$GPGGA,181122,2426.6190,N,08128.7006,W,1,11,1.6,22,M,,M,,*60
06/11/2015	18:11:22.563	$GPGGA,181123,2426.6185,N,08128.7014,W,1,11,1.6,22,M,,M,,*66
06/11/2015	18:11:23.612	$GPGGA,181124,2426.6180,N,08128.7023,W,1,11,1.6,22,M,,M,,*60
06/11/2015	18:11:24.574	$GPGGA,181125,2426.6174,N,08128.7031,W,1,11,1.6,22,M,,M,,*69
06/11/2015	18:11:25.582	$GPGGA,181126,2426.6170,N,08128.7041,W,1,11,1.6,22,M,,M,,*69
06/11/2015	18:11:26.563	$GPGGA,181127,2426.6165,N,08128.7050,W,1,11,1.9,22,M,,M,,*63
06/11/2015	18:11:27.602	$GPGGA,181128,2426.6158,N,08128.7059,W,1,11,1.6,21,M,,M,,*67
06/11/2015	18:11:28.563	$GPGGA,181129,2426.6153,N,08128.7070,W,1,11,1.6,21,M,,M,,*66
06/11/2015	18:11:29.572	$GPGGA,181130,2426.6149,N,08128.7077,W,1,11,1.6,21,M,,M,,*62
06/11/2015	18:11:30.564	$GPGGA,181131,2426.6144,N,08128.7086,W,1,11,1.9,21,M,,M,,*6F
06/11/2015	18:11:31.574	$GPGGA,181132,2426.6138,N,08128.7095,W,1,11,1.6,21,M,,M,,*6A
06/11/2015	18:11:32.568	$GPGGA,181133,2426.6133,N,08128.7106,W,1,11,1.6,21,M,,M,,*6B
06/11/2015	18:11:33.562	$GPGGA,181134,2426.6129,N,08128.7114,W,1,11,1.6,21,M,,M,,*64
06/11/2015	18:11:34.552	$GPGGA,181135,2426.6123,N,08128.7124,W,1,11,1.9,21,M,,M,,*63
06/11/2015	18:11:35.575	$GPGGA,181136,2426.6117,N,08128.7132,W,1,11,1.6,21,M,,M,,*6F
06/11/2015	18:11:36.552	$GPGGA,181137,2426.6112,N,08128.7142,W,1,11,1.9,21,M,,M,,*63
06/11/2015	18:11:37.532	$GPGGA,181138,2426.6107,N,08128.7150,W,1,10,1.9,21,M,,M,,*6A
06/11/2015	18:11:38.552	$GPGGA,181139,2426.6104,N,08128.7158,W,1,10,1.9,21,M,,M,,*60
06/11/2015	18:11:40.553	$GPGGA,181141,2426.6093,N,08128.7180,W,1,10,1.7,21,M,,M,,*6B
06/11/2015	18:11:41.522	$GPGGA,181142,2426.6088,N,08128.7190,W,1,10,1.6,21,M,,M,,*62
06/11/2015	18:11:42.533	$GPGGA,181143,2426.6086,N,08128.7201,W,1,10,1.6,21,M,,M,,*66
