Software Version Number: 1	Data File Format Number: 1	Build Version Number: 1	Error Count Since VI Started: 3	Manufacturer: Raytheon	 Model Number: RayMarine 120	 S/N: 	 Cal Date: 	 Wind Direction Offset: 0.00	 Slope (M)1: 0.00	 Offset (B)1: 0.00	 Slope (M)2: 0.00	 Offset (B)2: 0.00	 Slope (M)3: 0.00	 Offset (B)3: 0.00	 Slope (M)4: 0.00	 Offset (B)4: 0.00	 Slope (M)5: 0.00	 Offset (B)5: 0.00	 Slope (M)6: 0.00	 Offset (B)6: 0.00
Computer Date	Computer Time	GGA String
06/22/2015	18:00:00.597	$GPGGA,180001,2420.9400,N,08201.5737,W,1,10,1.6,17,M,,M,,*6C
06/22/2015	18:00:01.620	$GPGGA,180002,2420.9386,N,08201.5735,W,1,10,1.6,17,M,,M,,*64
06/22/2015	18:00:02.567	$GPGGA,180003,2420.9371,N,08201.5732,W,1,10,1.6,17,M,,M,,*6A
06/22/2015	18:00:03.597	$GPGGA,180004,2420.9359,N,08201.5733,W,1,10,1.6,18,M,,M,,*69
06/22/2015	18:00:04.556	$GPGGA,180005,2420.9344,N,08201.5734,W,1,10,1.6,18,M,,M,,*63
06/22/2015	18:00:05.577	$GPGGA,180006,2420.9330,N,08201.5733,W,1,11,1.6,18,M,,M,,*65
06/22/2015	18:00:06.547	$GPGGA,180007,2420.9314,N,08201.5731,W,1,11,1.6,18,M,,M,,*60
06/22/2015	18:00:07.607	$GPGGA,180008,2420.9301,N,08201.5733,W,1,10,1.6,18,M,,M,,*68
06/22/2015	18:00:09.024	$GPGGA,180009,2420.9288,N,08201.5733,W,1,10,1.6,18,M,,M,,*69
06/22/2015	18:00:09.567	$GPGGA,180010,2420.9273,N,08201.5732,W,1,11,1.6,18,M,,M,,*65
06/22/2015	18:00:10.567	$GPGGA,180011,2420.9258,N,08201.5731,W,1,11,1.6,18,M,,M,,*6E
06/22/2015	18:00:11.587	$GPGGA,180012,2420.9245,N,08201.5733,W,1,10,1.6,18,M,,M,,*62
06/22/2015	18:00:12.557	$GPGGA,180013,2420.9230,N,08201.5732,W,1,10,1.6,18,M,,M,,*60
06/22/2015	18:00:13.567	$GPGGA,180014,2420.9214,N,08201.5730,W,1,11,1.6,18,M,,M,,*62
06/22/2015	18:00:14.537	$GPGGA,180015,2420.9200,N,08201.5730,W,1,11,1.6,18,M,,M,,*66
06/22/2015	18:00:15.567	$GPGGA,180016,2420.9186,N,08201.5731,W,1,11,1.6,18,M,,M,,*69
06/22/2015	18:00:16.537	$GPGGA,180017,2420.9171,N,08201.5729,W,1,11,1.6,18,M,,M,,*69
06/22/2015	18:00:18.537	$GPGGA,180019,2420.9140,N,08201.5727,W,1,11,1.8,18,M,,M,,*65
06/22/2015	18:00:19.567	$GPGGA,180020,2420.9125,N,08201.5726,W,1,10,1.6,18,M,,M,,*62
06/22/2015	18:00:20.537	$GPGGA,180021,2420.9110,N,08201.5723,W,1,10,1.6,18,M,,M,,*60
06/22/2015	18:00:21.546	$GPGGA,180022,2420.9095,N,08201.5721,W,1,11,1.6,18,M,,M,,*6C
06/22/2015	18:00:22.536	$GPGGA,180023,2420.9081,N,08201.5719,W,1,11,1.6,18,M,,M,,*63
06/22/2015	18:00:23.527	$GPGGA,180024,2420.9066,N,08201.5718,W,1,11,1.6,18,M,,M,,*6C
06/22/2015	18:00:24.527	$GPGGA,180025,2420.9052,N,08201.5717,W,1,11,1.6,18,M,,M,,*65
06/22/2015	18:00:25.507	$GPGGA,180026,2420.9034,N,08201.5719,W,1,10,2.3,18,M,,M,,*6F
06/22/2015	18:00:26.527	$GPGGA,180027,2420.9019,N,08201.5716,W,1,10,1.6,18,M,,M,,*68
06/22/2015	18:00:27.557	$GPGGA,180028,2420.9003,N,08201.5715,W,1,11,1.6,18,M,,M,,*6E
06/22/2015	18:00:28.520	$GPGGA,180029,2420.8988,N,08201.5713,W,1,11,1.6,18,M,,M,,*62
06/22/2015	18:00:29.527	$GPGGA,180030,2420.8974,N,08201.5711,W,1,11,1.6,18,M,,M,,*6B
06/22/2015	18:00:30.507	$GPGGA,180031,2420.8959,N,08201.5709,W,1,11,1.6,19,M,,M,,*6D
06/22/2015	18:00:31.527	$GPGGA,180032,2420.8945,N,08201.5706,W,1,11,1.6,19,M,,M,,*6C
06/22/2015	18:00:32.517	$GPGGA,180033,2420.8930,N,08201.5704,W,1,11,1.6,19,M,,M,,*6D
06/22/2015	18:00:33.497	$GPGGA,180034,2420.8915,N,08201.5703,W,1,11,1.6,19,M,,M,,*6A
06/22/2015	18:00:34.647	$GPGGA,180035,2420.8900,N,08201.5702,W,1,11,2.3,19,M,,M,,*68
06/22/2015	18:00:35.697	$GPGGA,180036,2420.8884,N,08201.5700,W,1,11,2.3,19,M,,M,,*64
06/22/2015	18:00:36.507	$GPGGA,180037,2420.8869,N,08201.5698,W,1,11,2.3,19,M,,M,,*66
06/22/2015	18:00:37.507	$GPGGA,180038,2420.8853,N,08201.5696,W,1,10,2.3,19,M,,M,,*6F
06/22/2015	18:00:38.487	$GPGGA,180039,2420.8839,N,08201.5694,W,1,10,1.6,19,M,,M,,*66
06/22/2015	18:00:39.696	$GPGGA,180040,2420.8824,N,08201.5692,W,1,11,1.6,20,M,,M,,*69
06/22/2015	18:00:40.507	$GPGGA,180041,2420.8810,N,08201.5689,W,1,11,1.6,20,M,,M,,*65
06/22/2015	18:00:41.667	$GPGGA,180042,2420.8794,N,08201.5686,W,1,11,1.6,20,M,,M,,*6A
06/22/2015	18:00:42.497	$GPGGA,180043,2420.8781,N,08201.5683,W,1,11,1.6,20,M,,M,,*6A
06/22/2015	18:00:43.677	$GPGGA,180044,2420.8765,N,08201.5679,W,1,11,1.6,20,M,,M,,*62
06/22/2015	18:00:44.629	$GPGGA,180045,2420.8750,N,08201.5675,W,1,11,1.6,20,M,,M,,*69
06/22/2015	18:00:45.667	$GPGGA,180046,2420.8735,N,08201.5673,W,1,11,1.6,20,M,,M,,*6F
06/22/2015	18:00:47.677	$GPGGA,180048,2420.8706,N,08201.5664,W,1,10,1.6,20,M,,M,,*66
06/22/2015	18:00:48.629	$GPGGA,180049,2420.8691,N,08201.5661,W,1,10,1.6,20,M,,M,,*6D
06/22/2015	18:00:49.567	$GPGGA,180050,2420.8676,N,08201.5659,W,1,11,1.6,20,M,,M,,*66
06/22/2015	18:00:50.607	$GPGGA,180051,2420.8661,N,08201.5656,W,1,11,1.6,20,M,,M,,*6E
06/22/2015	18:00:51.677	$GPGGA,180052,2420.8647,N,08201.5651,W,1,10,1.6,20,M,,M,,*6F
06/22/2015	18:00:52.587	$GPGGA,180053,2420.8633,N,08201.5647,W,1,10,1.6,20,M,,M,,*6A
06/22/2015	18:00:53.657	$GPGGA,180054,2420.8617,N,08201.5643,W,1,11,1.6,20,M,,M,,*6E
06/22/2015	18:00:54.557	$GPGGA,180055,2420.8602,N,08201.5640,W,1,11,1.6,20,M,,M,,*68
06/22/2015	18:00:55.677	$GPGGA,180056,2420.8588,N,08201.5635,W,1,11,1.6,20,M,,M,,*68
06/22/2015	18:00:56.576	$GPGGA,180057,2420.8575,N,08201.5630,W,1,11,1.6,20,M,,M,,*6E
06/22/2015	18:00:57.656	$GPGGA,180058,2420.8559,N,08201.5626,W,1,11,1.6,20,M,,M,,*68
06/22/2015	18:00:58.597	$GPGGA,180059,2420.8546,N,08201.5622,W,1,11,1.6,20,M,,M,,*63
06/22/2015	18:00:59.677	$GPGGA,180100,2420.8530,N,08201.5617,W,1,11,1.6,19,M,,M,,*63
06/22/2015	18:01:00.537	$GPGGA,180101,2420.8515,N,08201.5611,W,1,11,1.6,19,M,,M,,*63
06/22/2015	18:01:01.657	$GPGGA,180102,2420.8501,N,08201.5606,W,1,10,1.6,19,M,,M,,*62
06/22/2015	18:01:02.567	$GPGGA,180103,2420.8485,N,08201.5602,W,1,10,1.6,19,M,,M,,*6A
06/22/2015	18:01:03.657	$GPGGA,180104,2420.8471,N,08201.5598,W,1,10,1.6,19,M,,M,,*66
06/22/2015	18:01:04.577	$GPGGA,180105,2420.8456,N,08201.5592,W,1,10,1.6,19,M,,M,,*68
06/22/2015	18:01:05.527	$GPGGA,180106,2420.8441,N,08201.5587,W,1,10,1.6,19,M,,M,,*69
06/22/2015	18:01:06.557	$GPGGA,180107,2420.8425,N,08201.5582,W,1,10,1.6,19,M,,M,,*6F
06/22/2015	18:01:07.537	$GPGGA,180108,2420.8411,N,08201.5577,W,1,10,1.6,19,M,,M,,*6D
06/22/2015	18:01:08.522	$GPGGA,180109,2420.8396,N,08201.5572,W,1,10,1.6,19,M,,M,,*61
06/22/2015	18:01:09.630	$GPGGA,180110,2420.8380,N,08201.5567,W,1,10,1.6,19,M,,M,,*6A
06/22/2015	18:01:10.567	$GPGGA,180111,2420.8364,N,08201.5562,W,1,10,1.6,19,M,,M,,*64
06/22/2015	18:01:11.531	$GPGGA,180112,2420.8351,N,08201.5557,W,1,11,1.6,19,M,,M,,*66
06/22/2015	18:01:12.567	$GPGGA,180113,2420.8335,N,08201.5552,W,1,11,1.6,18,M,,M,,*61
06/22/2015	18:01:13.628	$GPGGA,180114,2420.8320,N,08201.5547,W,1,10,1.6,18,M,,M,,*67
06/22/2015	18:01:14.556	$GPGGA,180115,2420.8305,N,08201.5544,W,1,10,1.6,18,M,,M,,*62
06/22/2015	18:01:15.637	$GPGGA,180116,2420.8290,N,08201.5540,W,1,11,1.6,18,M,,M,,*69
06/22/2015	18:01:16.557	$GPGGA,180117,2420.8275,N,08201.5538,W,1,11,2.3,18,M,,M,,*6A
06/22/2015	18:01:17.597	$GPGGA,180118,2420.8259,N,08201.5535,W,1,10,2.3,18,M,,M,,*67
06/22/2015	18:01:18.497	$GPGGA,180119,2420.8246,N,08201.5532,W,1,10,2.3,18,M,,M,,*6F
06/22/2015	18:01:19.597	$GPGGA,180120,2420.8232,N,08201.5527,W,1,11,1.6,18,M,,M,,*65
06/22/2015	18:01:20.497	$GPGGA,180121,2420.8217,N,08201.5524,W,1,11,1.6,18,M,,M,,*60
06/22/2015	18:01:21.597	$GPGGA,180122,2420.8201,N,08201.5517,W,1,11,1.6,18,M,,M,,*64
06/22/2015	18:01:22.620	$GPGGA,180123,2420.8186,N,08201.5512,W,1,11,1.6,18,M,,M,,*6C
06/22/2015	18:01:23.619	$GPGGA,180124,2420.8171,N,08201.5511,W,1,10,1.6,18,M,,M,,*61
06/22/2015	18:01:24.527	$GPGGA,180125,2420.8157,N,08201.5507,W,1,10,1.6,18,M,,M,,*63
06/22/2015	18:01:25.577	$GPGGA,180126,2420.8142,N,08201.5503,W,1,11,1.6,18,M,,M,,*61
06/22/2015	18:01:26.587	$GPGGA,180127,2420.8127,N,08201.5499,W,1,11,1.6,17,M,,M,,*6E
06/22/2015	18:01:27.587	$GPGGA,180128,2420.8111,N,08201.5497,W,1,11,2.3,17,M,,M,,*6C
06/22/2015	18:01:28.487	$GPGGA,180129,2420.8095,N,08201.5494,W,1,11,2.3,17,M,,M,,*63
06/22/2015	18:01:29.587	$GPGGA,180130,2420.8080,N,08201.5491,W,1,11,1.6,17,M,,M,,*6C
06/22/2015	18:01:30.527	$GPGGA,180131,2420.8065,N,08201.5486,W,1,11,1.6,17,M,,M,,*60
06/22/2015	18:01:31.596	$GPGGA,180132,2420.8049,N,08201.5481,W,1,10,1.6,17,M,,M,,*6B
06/22/2015	18:01:32.586	$GPGGA,180133,2420.8033,N,08201.5478,W,1,10,1.6,17,M,,M,,*61
06/22/2015	18:01:33.597	$GPGGA,180134,2420.8019,N,08201.5473,W,1,11,1.6,17,M,,M,,*64
06/22/2015	18:01:34.599	$GPGGA,180135,2420.8004,N,08201.5468,W,1,11,1.6,17,M,,M,,*63
06/22/2015	18:01:35.617	$GPGGA,180136,2420.7987,N,08201.5464,W,1,11,1.6,17,M,,M,,*61
06/22/2015	18:01:36.567	$GPGGA,180137,2420.7975,N,08201.5460,W,1,11,1.6,17,M,,M,,*69
06/22/2015	18:01:37.597	$GPGGA,180138,2420.7958,N,08201.5456,W,1,11,1.8,17,M,,M,,*62
06/22/2015	18:01:38.567	$GPGGA,180139,2420.7943,N,08201.5453,W,1,11,1.6,17,M,,M,,*62
06/22/2015	18:01:39.617	$GPGGA,180140,2420.7928,N,08201.5449,W,1,11,1.8,17,M,,M,,*64
06/22/2015	18:01:40.567	$GPGGA,180141,2420.7914,N,08201.5444,W,1,11,1.6,17,M,,M,,*69
06/22/2015	18:01:41.587	$GPGGA,180142,2420.7899,N,08201.5438,W,1,11,1.6,17,M,,M,,*65
06/22/2015	18:01:42.567	$GPGGA,180143,2420.7885,N,08201.5433,W,1,11,1.6,17,M,,M,,*62
06/22/2015	18:01:43.607	$GPGGA,180144,2420.7870,N,08201.5428,W,1,10,1.6,17,M,,M,,*64
06/22/2015	18:01:44.557	$GPGGA,180145,2420.7856,N,08201.5421,W,1,10,1.6,17,M,,M,,*68
06/22/2015	18:01:45.587	$GPGGA,180146,2420.7842,N,08201.5414,W,1,10,1.6,17,M,,M,,*68
06/22/2015	18:01:46.547	$GPGGA,180147,2420.7827,N,08201.5410,W,1,10,1.6,17,M,,M,,*6E
06/22/2015	18:01:47.597	$GPGGA,180148,2420.7813,N,08201.5405,W,1,11,1.6,17,M,,M,,*63
06/22/2015	18:01:49.576	$GPGGA,180150,2420.7784,N,08201.5392,W,1,11,1.6,17,M,,M,,*62
06/22/2015	18:01:50.577	$GPGGA,180151,2420.7771,N,08201.5387,W,1,11,1.6,17,M,,M,,*6D
06/22/2015	18:01:51.617	$GPGGA,180152,2420.7757,N,08201.5381,W,1,11,1.6,17,M,,M,,*6C
06/22/2015	18:01:53.567	$GPGGA,180154,2420.7728,N,08201.5369,W,1,11,1.6,17,M,,M,,*64
06/22/2015	18:01:54.537	$GPGGA,180155,2420.7715,N,08201.5364,W,1,11,1.6,17,M,,M,,*66
06/22/2015	18:01:55.577	$GPGGA,180156,2420.7701,N,08201.5358,W,1,11,1.6,17,M,,M,,*6F
06/22/2015	18:01:56.519	$GPGGA,180157,2420.7687,N,08201.5352,W,1,11,1.6,17,M,,M,,*6B
06/22/2015	18:01:57.537	$GPGGA,180158,2420.7687,N,08201.5352,W,1,11,1.6,17,M,,M,,*64
06/22/2015	18:01:58.527	$GPGGA,180159,2420.7658,N,08201.5341,W,1,11,1.6,17,M,,M,,*65
06/22/2015	18:01:59.597	$GPGGA,180200,2420.7644,N,08201.5334,W,1,11,1.6,17,M,,M,,*65
06/22/2015	18:02:00.530	$GPGGA,180201,2420.7630,N,08201.5328,W,1,11,1.6,17,M,,M,,*6A
06/22/2015	18:02:01.597	$GPGGA,180202,2420.7630,N,08201.5328,W,1,11,1.6,17,M,,M,,*69
06/22/2015	18:02:02.533	$GPGGA,180203,2420.7603,N,08201.5317,W,1,11,1.6,17,M,,M,,*64
06/22/2015	18:02:03.567	$GPGGA,180204,2420.7603,N,08201.5317,W,1,11,1.6,17,M,,M,,*63
06/22/2015	18:02:04.520	$GPGGA,180205,2420.7574,N,08201.5304,W,1,11,1.6,17,M,,M,,*63
06/22/2015	18:02:05.537	$GPGGA,180206,2420.7574,N,08201.5304,W,1,11,1.6,17,M,,M,,*60
06/22/2015	18:02:06.507	$GPGGA,180207,2420.7545,N,08201.5292,W,1,11,1.6,17,M,,M,,*6D
06/22/2015	18:02:07.526	$GPGGA,180208,2420.7545,N,08201.5292,W,1,11,1.6,17,M,,M,,*62
06/22/2015	18:02:09.617	$GPGGA,180210,2420.7502,N,08201.5273,W,1,11,1.6,17,M,,M,,*67
06/22/2015	18:02:10.507	$GPGGA,180211,2420.7487,N,08201.5267,W,1,11,1.6,17,M,,M,,*6F
06/22/2015	18:02:11.637	$GPGGA,180212,2420.7487,N,08201.5267,W,1,11,1.6,17,M,,M,,*6C
06/22/2015	18:02:12.587	$GPGGA,180213,2420.7458,N,08201.5255,W,1,11,1.6,17,M,,M,,*6E
06/22/2015	18:02:13.523	$GPGGA,180214,2420.7458,N,08201.5255,W,1,11,1.6,17,M,,M,,*69
06/22/2015	18:02:15.507	$GPGGA,180216,2420.7430,N,08201.5241,W,1,11,1.6,17,M,,M,,*60
06/22/2015	18:02:16.487	$GPGGA,180217,2420.7401,N,08201.5230,W,1,11,1.6,17,M,,M,,*65
06/22/2015	18:02:17.497	$GPGGA,180218,2420.7401,N,08201.5230,W,1,11,1.6,17,M,,M,,*6A
06/22/2015	18:02:18.577	$GPGGA,180219,2420.7372,N,08201.5214,W,1,11,1.6,17,M,,M,,*6E
06/22/2015	18:02:19.507	$GPGGA,180220,2420.7357,N,08201.5209,W,1,11,1.6,17,M,,M,,*6F
06/22/2015	18:02:20.487	$GPGGA,180221,2420.7344,N,08201.5203,W,1,11,1.6,17,M,,M,,*66
06/22/2015	18:02:21.587	$GPGGA,180222,2420.7329,N,08201.5195,W,1,11,1.6,17,M,,M,,*62
06/22/2015	18:02:22.867	$GPGGA,180223,2420.7315,N,08201.5188,W,1,11,1.6,17,M,,M,,*60
06/22/2015	18:02:23.607	$GPGGA,180224,2420.7301,N,08201.5181,W,1,11,1.6,17,M,,M,,*6B
06/22/2015	18:02:24.576	$GPGGA,180225,2420.7286,N,08201.5175,W,1,11,1.6,17,M,,M,,*6F
06/22/2015	18:02:25.587	$GPGGA,180226,2420.7272,N,08201.5168,W,1,11,1.6,17,M,,M,,*6B
06/22/2015	18:02:26.577	$GPGGA,180227,2420.7260,N,08201.5159,W,1,11,1.6,17,M,,M,,*6B
06/22/2015	18:02:27.597	$GPGGA,180228,2420.7244,N,08201.5153,W,1,11,1.6,17,M,,M,,*68
06/22/2015	18:02:28.577	$GPGGA,180229,2420.7231,N,08201.5147,W,1,11,1.6,16,M,,M,,*6F
06/22/2015	18:02:29.587	$GPGGA,180230,2420.7217,N,08201.5138,W,1,11,1.6,16,M,,M,,*6B
06/22/2015	18:02:30.557	$GPGGA,180231,2420.7203,N,08201.5130,W,1,11,1.6,16,M,,M,,*67
06/22/2015	18:02:31.597	$GPGGA,180232,2420.7189,N,08201.5124,W,1,11,1.6,16,M,,M,,*60
06/22/2015	18:02:32.557	$GPGGA,180233,2420.7175,N,08201.5117,W,1,11,1.6,16,M,,M,,*62
06/22/2015	18:02:33.567	$GPGGA,180234,2420.7161,N,08201.5107,W,1,11,1.6,16,M,,M,,*61
06/22/2015	18:02:34.557	$GPGGA,180235,2420.7148,N,08201.5099,W,1,11,1.6,16,M,,M,,*6D
06/22/2015	18:02:35.587	$GPGGA,180236,2420.7134,N,08201.5092,W,1,11,1.6,16,M,,M,,*6E
06/22/2015	18:02:36.537	$GPGGA,180237,2420.7119,N,08201.5084,W,1,11,1.6,16,M,,M,,*67
06/22/2015	18:02:37.537	$GPGGA,180238,2420.7106,N,08201.5075,W,1,11,1.6,16,M,,M,,*68
06/22/2015	18:02:38.537	$GPGGA,180239,2420.7094,N,08201.5066,W,1,11,1.6,16,M,,M,,*61
06/22/2015	18:02:39.567	$GPGGA,180240,2420.7079,N,08201.5059,W,1,11,1.6,16,M,,M,,*60
06/22/2015	18:02:40.537	$GPGGA,180241,2420.7065,N,08201.5051,W,1,11,1.6,16,M,,M,,*64
06/22/2015	18:02:41.536	$GPGGA,180242,2420.7051,N,08201.5040,W,1,11,1.6,16,M,,M,,*60
06/22/2015	18:02:42.536	$GPGGA,180243,2420.7038,N,08201.5032,W,1,11,1.6,16,M,,M,,*6B
06/22/2015	18:02:43.577	$GPGGA,180244,2420.7023,N,08201.5026,W,1,11,1.6,16,M,,M,,*63
06/22/2015	18:02:44.527	$GPGGA,180245,2420.7009,N,08201.5016,W,1,11,1.6,16,M,,M,,*69
06/22/2015	18:02:45.527	$GPGGA,180246,2420.6997,N,08201.5006,W,1,11,1.6,16,M,,M,,*64
06/22/2015	18:02:46.528	$GPGGA,180247,2420.6983,N,08201.4999,W,1,11,1.6,16,M,,M,,*6E
06/22/2015	18:02:47.547	$GPGGA,180248,2420.6968,N,08201.4991,W,1,11,1.6,16,M,,M,,*6C
06/22/2015	18:02:48.537	$GPGGA,180249,2420.6956,N,08201.4980,W,1,11,1.6,15,M,,M,,*63
06/22/2015	18:02:49.557	$GPGGA,180250,2420.6943,N,08201.4970,W,1,11,1.6,15,M,,M,,*60
06/22/2015	18:02:50.527	$GPGGA,180251,2420.6928,N,08201.4964,W,1,11,1.6,15,M,,M,,*69
06/22/2015	18:02:51.547	$GPGGA,180252,2420.6915,N,08201.4955,W,1,11,1.6,15,M,,M,,*66
06/22/2015	18:02:52.629	$GPGGA,180253,2420.6902,N,08201.4945,W,1,11,1.6,15,M,,M,,*60
06/22/2015	18:02:54.547	$GPGGA,180255,2420.6875,N,08201.4929,W,1,11,1.6,15,M,,M,,*6D
06/22/2015	18:02:55.557	$GPGGA,180256,2420.6862,N,08201.4920,W,1,11,1.6,15,M,,M,,*61
06/22/2015	18:02:56.517	$GPGGA,180257,2420.6849,N,08201.4910,W,1,11,1.6,15,M,,M,,*6A
06/22/2015	18:02:57.517	$GPGGA,180258,2420.6835,N,08201.4900,W,1,10,1.6,15,M,,M,,*6E
06/22/2015	18:02:58.497	$GPGGA,180259,2420.6821,N,08201.4891,W,1,10,1.6,15,M,,M,,*63
06/22/2015	18:03:00.487	$GPGGA,180301,2420.6795,N,08201.4871,W,1,11,1.6,15,M,,M,,*60
06/22/2015	18:03:01.517	$GPGGA,180302,2420.6781,N,08201.4861,W,1,10,1.6,15,M,,M,,*66
06/22/2015	18:03:02.487	$GPGGA,180303,2420.6768,N,08201.4852,W,1,10,1.6,14,M,,M,,*61
06/22/2015	18:03:03.630	$GPGGA,180304,2420.6755,N,08201.4843,W,1,11,1.6,14,M,,M,,*69
06/22/2015	18:03:04.507	$GPGGA,180305,2420.6741,N,08201.4834,W,1,11,1.6,14,M,,M,,*6D
06/22/2015	18:03:05.628	$GPGGA,180306,2420.6729,N,08201.4825,W,1,11,1.6,14,M,,M,,*60
06/22/2015	18:03:06.577	$GPGGA,180307,2420.6715,N,08201.4815,W,1,11,1.6,14,M,,M,,*6D
06/22/2015	18:03:07.507	$GPGGA,180308,2420.6702,N,08201.4806,W,1,11,1.6,14,M,,M,,*66
06/22/2015	18:03:08.577	$GPGGA,180309,2420.6689,N,08201.4797,W,1,11,1.6,14,M,,M,,*62
06/22/2015	18:03:09.487	$GPGGA,180310,2420.6676,N,08201.4787,W,1,11,1.6,14,M,,M,,*6B
06/22/2015	18:03:10.577	$GPGGA,180311,2420.6664,N,08201.4777,W,1,11,1.6,14,M,,M,,*66
06/22/2015	18:03:11.597	$GPGGA,180312,2420.6650,N,08201.4768,W,1,11,1.6,14,M,,M,,*6C
06/22/2015	18:03:12.577	$GPGGA,180313,2420.6637,N,08201.4757,W,1,11,1.6,14,M,,M,,*60
06/22/2015	18:03:13.597	$GPGGA,180314,2420.6624,N,08201.4747,W,1,11,1.6,14,M,,M,,*64
06/22/2015	18:03:14.557	$GPGGA,180315,2420.6611,N,08201.4738,W,1,11,1.6,14,M,,M,,*6B
06/22/2015	18:03:15.597	$GPGGA,180316,2420.6599,N,08201.4728,W,1,11,1.6,14,M,,M,,*6A
06/22/2015	18:03:16.576	$GPGGA,180317,2420.6585,N,08201.4717,W,1,11,1.6,14,M,,M,,*6A
06/22/2015	18:03:17.576	$GPGGA,180318,2420.6571,N,08201.4708,W,1,11,1.6,13,M,,M,,*67
06/22/2015	18:03:18.577	$GPGGA,180319,2420.6557,N,08201.4699,W,1,11,2.3,13,M,,M,,*6D
06/22/2015	18:03:19.607	$GPGGA,180320,2420.6544,N,08201.4688,W,1,11,1.6,13,M,,M,,*63
06/22/2015	18:03:20.547	$GPGGA,180321,2420.6530,N,08201.4680,W,1,11,2.3,13,M,,M,,*6F
06/22/2015	18:03:21.577	$GPGGA,180322,2420.6517,N,08201.4669,W,1,11,1.6,14,M,,M,,*6F
06/22/2015	18:03:22.557	$GPGGA,180323,2420.6505,N,08201.4658,W,1,11,1.6,14,M,,M,,*6F
06/22/2015	18:03:23.587	$GPGGA,180324,2420.6491,N,08201.4649,W,1,11,1.6,14,M,,M,,*64
06/22/2015	18:03:24.547	$GPGGA,180325,2420.6478,N,08201.4637,W,1,11,1.6,14,M,,M,,*6B
06/22/2015	18:03:25.567	$GPGGA,180326,2420.6466,N,08201.4626,W,1,11,1.6,14,M,,M,,*67
06/22/2015	18:03:26.547	$GPGGA,180327,2420.6454,N,08201.4614,W,1,11,1.6,14,M,,M,,*66
06/22/2015	18:03:27.577	$GPGGA,180328,2420.6441,N,08201.4603,W,1,11,1.6,14,M,,M,,*6B
06/22/2015	18:03:28.547	$GPGGA,180329,2420.6429,N,08201.4591,W,1,11,2.3,14,M,,M,,*6A
06/22/2015	18:03:29.533	$GPGGA,180330,2420.6418,N,08201.4579,W,1,11,1.6,15,M,,M,,*61
06/22/2015	18:03:30.534	$GPGGA,180331,2420.6405,N,08201.4566,W,1,11,1.6,15,M,,M,,*62
06/22/2015	18:03:31.537	$GPGGA,180332,2420.6394,N,08201.4553,W,1,11,1.6,15,M,,M,,*68
06/22/2015	18:03:32.531	$GPGGA,180333,2420.6383,N,08201.4540,W,1,11,1.6,15,M,,M,,*6D
06/22/2015	18:03:33.517	$GPGGA,180334,2420.6372,N,08201.4528,W,1,11,1.6,15,M,,M,,*6A
06/22/2015	18:03:34.536	$GPGGA,180335,2420.6360,N,08201.4516,W,1,11,1.6,15,M,,M,,*65
06/22/2015	18:03:36.531	$GPGGA,180337,2420.6339,N,08201.4490,W,1,11,1.6,15,M,,M,,*64
06/22/2015	18:03:37.539	$GPGGA,180338,2420.6326,N,08201.4478,W,1,11,1.6,15,M,,M,,*63
06/22/2015	18:03:38.519	$GPGGA,180339,2420.6315,N,08201.4465,W,1,11,1.6,15,M,,M,,*6E
06/22/2015	18:03:39.567	$GPGGA,180340,2420.6304,N,08201.4452,W,1,11,1.6,15,M,,M,,*64
06/22/2015	18:03:40.532	$GPGGA,180341,2420.6293,N,08201.4439,W,1,11,1.6,15,M,,M,,*67
06/22/2015	18:03:41.547	$GPGGA,180342,2420.6282,N,08201.4426,W,1,11,1.6,15,M,,M,,*6A
06/22/2015	18:03:42.507	$GPGGA,180343,2420.6271,N,08201.4413,W,1,11,1.6,16,M,,M,,*62
06/22/2015	18:03:43.557	$GPGGA,180344,2420.6260,N,08201.4399,W,1,11,1.6,16,M,,M,,*60
06/22/2015	18:03:44.507	$GPGGA,180345,2420.6250,N,08201.4386,W,1,11,1.6,16,M,,M,,*6C
06/22/2015	18:03:45.517	$GPGGA,180346,2420.6239,N,08201.4372,W,1,11,1.6,16,M,,M,,*6B
06/22/2015	18:03:46.957	$GPGGA,180347,2420.6228,N,08201.4359,W,1,11,1.6,16,M,,M,,*63
06/22/2015	18:03:47.507	$GPGGA,180348,2420.6217,N,08201.4345,W,1,11,1.6,16,M,,M,,*6D
06/22/2015	18:03:48.507	$GPGGA,180349,2420.6207,N,08201.4333,W,1,11,1.6,16,M,,M,,*6C
06/22/2015	18:03:49.518	$GPGGA,180350,2420.6196,N,08201.4318,W,1,11,1.6,15,M,,M,,*65
06/22/2015	18:03:50.587	$GPGGA,180351,2420.6185,N,08201.4304,W,1,11,1.6,15,M,,M,,*6B
06/22/2015	18:03:51.506	$GPGGA,180352,2420.6174,N,08201.4292,W,1,11,1.6,15,M,,M,,*68
06/22/2015	18:03:52.486	$GPGGA,180353,2420.6163,N,08201.4278,W,1,11,1.6,15,M,,M,,*6B
06/22/2015	18:03:53.587	$GPGGA,180354,2420.6153,N,08201.4264,W,1,11,1.6,15,M,,M,,*62
06/22/2015	18:03:54.497	$GPGGA,180355,2420.6142,N,08201.4251,W,1,11,1.6,15,M,,M,,*65
06/22/2015	18:03:55.634	$GPGGA,180356,2420.6131,N,08201.4238,W,1,11,1.6,15,M,,M,,*6D
06/22/2015	18:03:56.587	$GPGGA,180357,2420.6120,N,08201.4224,W,1,11,1.6,15,M,,M,,*61
06/22/2015	18:03:57.587	$GPGGA,180358,2420.6111,N,08201.4210,W,1,11,1.6,15,M,,M,,*6B
06/22/2015	18:03:58.577	$GPGGA,180359,2420.6100,N,08201.4197,W,1,11,1.6,15,M,,M,,*66
06/22/2015	18:03:59.617	$GPGGA,180400,2420.6089,N,08201.4184,W,1,11,1.6,15,M,,M,,*6F
06/22/2015	18:04:00.587	$GPGGA,180401,2420.6078,N,08201.4170,W,1,11,1.6,15,M,,M,,*6B
06/22/2015	18:04:01.587	$GPGGA,180402,2420.6068,N,08201.4157,W,1,11,1.6,15,M,,M,,*6C
06/22/2015	18:04:02.567	$GPGGA,180403,2420.6057,N,08201.4144,W,1,11,1.6,15,M,,M,,*63
06/22/2015	18:04:03.597	$GPGGA,180404,2420.6046,N,08201.4130,W,1,11,1.6,15,M,,M,,*67
06/22/2015	18:04:04.567	$GPGGA,180405,2420.6035,N,08201.4118,W,1,11,1.6,15,M,,M,,*68
06/22/2015	18:04:05.567	$GPGGA,180406,2420.6024,N,08201.4104,W,1,11,1.6,15,M,,M,,*66
06/22/2015	18:04:06.567	$GPGGA,180407,2420.6014,N,08201.4090,W,1,11,1.6,15,M,,M,,*68
06/22/2015	18:04:07.577	$GPGGA,180408,2420.6003,N,08201.4078,W,1,11,1.6,15,M,,M,,*67
06/22/2015	18:04:08.557	$GPGGA,180409,2420.5992,N,08201.4065,W,1,11,1.6,15,M,,M,,*68
06/22/2015	18:04:09.556	$GPGGA,180410,2420.5982,N,08201.4050,W,1,11,1.6,15,M,,M,,*67
06/22/2015	18:04:10.557	$GPGGA,180411,2420.5971,N,08201.4038,W,1,11,1.6,15,M,,M,,*64
06/22/2015	18:04:11.577	$GPGGA,180412,2420.5959,N,08201.4027,W,1,11,1.6,15,M,,M,,*63
06/22/2015	18:04:12.557	$GPGGA,180413,2420.5948,N,08201.4013,W,1,11,1.6,15,M,,M,,*65
06/22/2015	18:04:13.537	$GPGGA,180414,2420.5938,N,08201.3999,W,1,11,1.6,15,M,,M,,*69
06/22/2015	18:04:14.547	$GPGGA,180415,2420.5927,N,08201.3989,W,1,11,1.6,15,M,,M,,*67
06/22/2015	18:04:15.577	$GPGGA,180416,2420.5914,N,08201.3978,W,1,11,1.6,15,M,,M,,*6A
06/22/2015	18:04:16.537	$GPGGA,180417,2420.5903,N,08201.3963,W,1,11,1.6,15,M,,M,,*67
06/22/2015	18:04:17.577	$GPGGA,180418,2420.5893,N,08201.3951,W,1,11,1.6,15,M,,M,,*61
06/22/2015	18:04:18.537	$GPGGA,180419,2420.5881,N,08201.3941,W,1,11,1.6,14,M,,M,,*63
06/22/2015	18:04:19.557	$GPGGA,180420,2420.5869,N,08201.3929,W,1,11,1.6,14,M,,M,,*61
06/22/2015	18:04:20.537	$GPGGA,180421,2420.5859,N,08201.3916,W,1,11,1.6,14,M,,M,,*6F
06/22/2015	18:04:21.557	$GPGGA,180422,2420.5847,N,08201.3905,W,1,11,1.6,14,M,,M,,*61
06/22/2015	18:04:22.537	$GPGGA,180423,2420.5835,N,08201.3894,W,1,11,1.6,14,M,,M,,*6C
06/22/2015	18:04:24.047	$GPGGA,180424,2420.5823,N,08201.3883,W,1,11,1.6,14,M,,M,,*6A
06/22/2015	18:04:24.537	$GPGGA,180425,2420.5813,N,08201.3871,W,1,11,1.6,15,M,,M,,*64
06/22/2015	18:04:25.517	$GPGGA,180426,2420.5801,N,08201.3860,W,1,11,1.6,15,M,,M,,*64
06/22/2015	18:04:26.516	$GPGGA,180427,2420.5789,N,08201.3848,W,1,11,1.6,15,M,,M,,*60
06/22/2015	18:04:27.557	$GPGGA,180428,2420.5779,N,08201.3837,W,1,11,1.6,15,M,,M,,*68
06/22/2015	18:04:28.537	$GPGGA,180429,2420.5766,N,08201.3826,W,1,11,1.6,15,M,,M,,*67
06/22/2015	18:04:29.627	$GPGGA,180430,2420.5755,N,08201.3815,W,1,11,1.6,15,M,,M,,*6F
06/22/2015	18:04:30.527	$GPGGA,180431,2420.5743,N,08201.3803,W,1,11,1.6,15,M,,M,,*6E
06/22/2015	18:04:31.517	$GPGGA,180432,2420.5732,N,08201.3792,W,1,11,1.6,15,M,,M,,*6C
06/22/2015	18:04:32.518	$GPGGA,180433,2420.5718,N,08201.3783,W,1,11,2.3,15,M,,M,,*63
06/22/2015	18:04:33.597	$GPGGA,180434,2420.5706,N,08201.3773,W,1,11,1.6,15,M,,M,,*62
06/22/2015	18:04:35.627	$GPGGA,180436,2420.5683,N,08201.3750,W,1,11,1.6,15,M,,M,,*6D
06/22/2015	18:04:36.497	$GPGGA,180437,2420.5671,N,08201.3738,W,1,11,1.6,15,M,,M,,*6F
06/22/2015	18:04:37.587	$GPGGA,180438,2420.5659,N,08201.3727,W,1,10,2.3,15,M,,M,,*63
06/22/2015	18:04:38.587	$GPGGA,180439,2420.5647,N,08201.3716,W,1,10,1.6,15,M,,M,,*69
06/22/2015	18:04:39.647	$GPGGA,180440,2420.5635,N,08201.3704,W,1,11,1.6,15,M,,M,,*60
06/22/2015	18:04:40.597	$GPGGA,180441,2420.5624,N,08201.3693,W,1,11,1.6,15,M,,M,,*6E
06/22/2015	18:04:41.621	$GPGGA,180442,2420.5612,N,08201.3682,W,1,11,1.6,15,M,,M,,*68
06/22/2015	18:04:42.487	$GPGGA,180443,2420.5602,N,08201.3670,W,1,11,1.6,15,M,,M,,*65
06/22/2015	18:04:43.606	$GPGGA,180444,2420.5591,N,08201.3658,W,1,11,1.6,16,M,,M,,*62
06/22/2015	18:04:44.586	$GPGGA,180445,2420.5578,N,08201.3646,W,1,11,1.6,16,M,,M,,*6B
06/22/2015	18:04:45.597	$GPGGA,180446,2420.5567,N,08201.3635,W,1,11,1.6,16,M,,M,,*62
06/22/2015	18:04:46.587	$GPGGA,180447,2420.5555,N,08201.3623,W,1,11,1.6,16,M,,M,,*65
06/22/2015	18:04:47.597	$GPGGA,180448,2420.5544,N,08201.3611,W,1,11,1.6,16,M,,M,,*6B
06/22/2015	18:04:49.597	$GPGGA,180450,2420.5522,N,08201.3589,W,1,11,1.6,16,M,,M,,*60
06/22/2015	18:04:50.577	$GPGGA,180451,2420.5510,N,08201.3576,W,1,11,1.6,16,M,,M,,*60
06/22/2015	18:04:51.597	$GPGGA,180452,2420.5499,N,08201.3565,W,1,11,1.6,16,M,,M,,*61
06/22/2015	18:04:52.557	$GPGGA,180453,2420.5487,N,08201.3554,W,1,11,1.6,16,M,,M,,*6D
06/22/2015	18:04:53.587	$GPGGA,180454,2420.5476,N,08201.3541,W,1,11,1.6,16,M,,M,,*60
06/22/2015	18:04:54.557	$GPGGA,180455,2420.5465,N,08201.3529,W,1,11,1.6,16,M,,M,,*6D
06/22/2015	18:04:55.587	$GPGGA,180456,2420.5454,N,08201.3517,W,1,11,1.6,16,M,,M,,*61
06/22/2015	18:04:56.557	$GPGGA,180457,2420.5443,N,08201.3506,W,1,11,1.6,16,M,,M,,*66
06/22/2015	18:04:57.577	$GPGGA,180458,2420.5432,N,08201.3494,W,1,11,1.6,16,M,,M,,*65
06/22/2015	18:04:58.557	$GPGGA,180459,2420.5421,N,08201.3481,W,1,11,1.6,16,M,,M,,*62
06/22/2015	18:04:59.597	$GPGGA,180500,2420.5410,N,08201.3470,W,1,11,1.6,17,M,,M,,*62
06/22/2015	18:05:00.537	$GPGGA,180501,2420.5399,N,08201.3458,W,1,11,1.6,17,M,,M,,*6F
06/22/2015	18:05:01.536	$GPGGA,180502,2420.5387,N,08201.3446,W,1,11,1.6,17,M,,M,,*6C
06/22/2015	18:05:02.547	$GPGGA,180503,2420.5376,N,08201.3434,W,1,11,1.6,17,M,,M,,*66
06/22/2015	18:05:03.547	$GPGGA,180504,2420.5367,N,08201.3422,W,1,11,1.6,17,M,,M,,*66
06/22/2015	18:05:04.547	$GPGGA,180505,2420.5356,N,08201.3410,W,1,11,1.6,17,M,,M,,*64
06/22/2015	18:05:05.527	$GPGGA,180506,2420.5345,N,08201.3398,W,1,11,1.6,17,M,,M,,*62
06/22/2015	18:05:06.547	$GPGGA,180507,2420.5333,N,08201.3386,W,1,11,1.6,17,M,,M,,*6D
06/22/2015	18:05:07.587	$GPGGA,180508,2420.5323,N,08201.3374,W,1,11,1.6,17,M,,M,,*6E
06/22/2015	18:05:08.859	$GPGGA,180509,2420.5313,N,08201.3362,W,1,11,1.6,17,M,,M,,*6B
06/22/2015	18:05:09.537	$GPGGA,180510,2420.5302,N,08201.3350,W,1,11,1.6,17,M,,M,,*62
06/22/2015	18:05:10.527	$GPGGA,180511,2420.5291,N,08201.3338,W,1,11,1.6,17,M,,M,,*66
06/22/2015	18:05:11.547	$GPGGA,180512,2420.5281,N,08201.3325,W,1,11,1.6,17,M,,M,,*68
06/22/2015	18:05:12.830	$GPGGA,180513,2420.5271,N,08201.3313,W,1,11,1.6,17,M,,M,,*63
06/22/2015	18:05:13.523	$GPGGA,180514,2420.5260,N,08201.3302,W,1,11,1.6,17,M,,M,,*64
06/22/2015	18:05:14.527	$GPGGA,180515,2420.5251,N,08201.3289,W,1,11,1.6,17,M,,M,,*65
06/22/2015	18:05:15.529	$GPGGA,180516,2420.5240,N,08201.3277,W,1,11,1.6,17,M,,M,,*67
06/22/2015	18:05:16.527	$GPGGA,180517,2420.5229,N,08201.3265,W,1,11,1.6,17,M,,M,,*6A
06/22/2015	18:05:17.507	$GPGGA,180518,2420.5219,N,08201.3254,W,1,11,1.6,17,M,,M,,*64
06/22/2015	18:05:18.526	$GPGGA,180519,2420.5208,N,08201.3241,W,1,11,1.6,17,M,,M,,*61
06/22/2015	18:05:19.516	$GPGGA,180520,2420.5197,N,08201.3228,W,1,11,1.6,17,M,,M,,*61
06/22/2015	18:05:21.647	$GPGGA,180522,2420.5176,N,08201.3203,W,1,11,1.6,17,M,,M,,*65
06/22/2015	18:05:22.507	$GPGGA,180523,2420.5166,N,08201.3191,W,1,11,1.6,17,M,,M,,*6D
06/22/2015	18:05:23.537	$GPGGA,180524,2420.5155,N,08201.3179,W,1,11,1.6,17,M,,M,,*6C
06/22/2015	18:05:24.637	$GPGGA,180525,2420.5146,N,08201.3166,W,1,11,1.6,17,M,,M,,*61
06/22/2015	18:05:25.627	$GPGGA,180526,2420.5135,N,08201.3153,W,1,11,1.6,17,M,,M,,*60
06/22/2015	18:05:26.497	$GPGGA,180527,2420.5125,N,08201.3141,W,1,11,1.6,17,M,,M,,*63
06/22/2015	18:05:27.607	$GPGGA,180528,2420.5114,N,08201.3129,W,1,11,1.6,17,M,,M,,*60
06/22/2015	18:05:28.507	$GPGGA,180529,2420.5103,N,08201.3117,W,1,11,1.6,17,M,,M,,*6A
06/22/2015	18:05:30.497	$GPGGA,180531,2420.5082,N,08201.3092,W,1,11,1.6,16,M,,M,,*66
06/22/2015	18:05:31.497	$GPGGA,180532,2420.5071,N,08201.3080,W,1,11,1.6,16,M,,M,,*6A
06/22/2015	18:05:33.477	$GPGGA,180534,2420.5050,N,08201.3055,W,1,11,1.6,16,M,,M,,*67
06/22/2015	18:05:34.577	$GPGGA,180535,2420.5039,N,08201.3044,W,1,11,1.6,16,M,,M,,*69
06/22/2015	18:05:35.619	$GPGGA,180536,2420.5029,N,08201.3032,W,1,11,1.6,16,M,,M,,*6A
06/22/2015	18:05:36.576	$GPGGA,180537,2420.5017,N,08201.3020,W,1,11,1.6,16,M,,M,,*65
06/22/2015	18:05:37.587	$GPGGA,180538,2420.5006,N,08201.3008,W,1,11,1.6,16,M,,M,,*60
06/22/2015	18:05:39.638	$GPGGA,180540,2420.4985,N,08201.2986,W,1,11,1.6,16,M,,M,,*62
06/22/2015	18:05:40.567	$GPGGA,180541,2420.4974,N,08201.2974,W,1,11,1.6,16,M,,M,,*60
06/22/2015	18:05:41.597	$GPGGA,180542,2420.4963,N,08201.2962,W,1,11,1.6,16,M,,M,,*62
06/22/2015	18:05:42.567	$GPGGA,180543,2420.4952,N,08201.2951,W,1,11,1.6,16,M,,M,,*61
06/22/2015	18:05:43.637	$GPGGA,180544,2420.4941,N,08201.2939,W,1,11,1.6,16,M,,M,,*6A
06/22/2015	18:05:44.587	$GPGGA,180545,2420.4931,N,08201.2928,W,1,11,1.6,16,M,,M,,*6C
06/22/2015	18:05:45.587	$GPGGA,180546,2420.4920,N,08201.2917,W,1,11,1.6,16,M,,M,,*63
06/22/2015	18:05:46.557	$GPGGA,180547,2420.4909,N,08201.2905,W,1,11,1.6,16,M,,M,,*6A
06/22/2015	18:05:48.037	$GPGGA,180548,2420.4897,N,08201.2894,W,1,11,1.6,16,M,,M,,*6A
06/22/2015	18:05:48.547	$GPGGA,180549,2420.4887,N,08201.2883,W,1,11,1.6,16,M,,M,,*6C
06/22/2015	18:05:49.557	$GPGGA,180550,2420.4875,N,08201.2872,W,1,11,1.6,16,M,,M,,*67
06/22/2015	18:05:50.547	$GPGGA,180551,2420.4865,N,08201.2861,W,1,11,2.3,16,M,,M,,*63
06/22/2015	18:05:51.577	$GPGGA,180552,2420.4854,N,08201.2851,W,1,10,1.6,16,M,,M,,*66
06/22/2015	18:05:52.557	$GPGGA,180553,2420.4843,N,08201.2840,W,1,10,1.6,16,M,,M,,*61
06/22/2015	18:05:53.566	$GPGGA,180554,2420.4830,N,08201.2829,W,1,11,1.6,16,M,,M,,*6C
06/22/2015	18:05:54.546	$GPGGA,180555,2420.4819,N,08201.2818,W,1,11,1.6,16,M,,M,,*64
06/22/2015	18:05:55.547	$GPGGA,180556,2420.4808,N,08201.2809,W,1,11,1.6,16,M,,M,,*67
06/22/2015	18:05:56.547	$GPGGA,180557,2420.4796,N,08201.2798,W,1,11,1.6,16,M,,M,,*69
06/22/2015	18:05:57.537	$GPGGA,180558,2420.4785,N,08201.2786,W,1,11,1.6,16,M,,M,,*6B
06/22/2015	18:05:58.777	$GPGGA,180559,2420.4775,N,08201.2777,W,1,11,1.6,16,M,,M,,*6B
06/22/2015	18:05:59.587	$GPGGA,180600,2420.4763,N,08201.2767,W,1,11,1.6,16,M,,M,,*62
06/22/2015	18:06:01.517	$GPGGA,180602,2420.4743,N,08201.2745,W,1,11,1.6,17,M,,M,,*63
06/22/2015	18:06:02.527	$GPGGA,180603,2420.4731,N,08201.2735,W,1,11,1.6,17,M,,M,,*60
06/22/2015	18:06:03.547	$GPGGA,180604,2420.4721,N,08201.2725,W,1,11,1.6,17,M,,M,,*67
06/22/2015	18:06:04.518	$GPGGA,180605,2420.4711,N,08201.2713,W,1,11,1.6,17,M,,M,,*60
06/22/2015	18:06:05.530	$GPGGA,180606,2420.4700,N,08201.2701,W,1,11,1.6,17,M,,M,,*60
06/22/2015	18:06:06.627	$GPGGA,180607,2420.4689,N,08201.2690,W,1,11,1.6,17,M,,M,,*68
06/22/2015	18:06:08.527	$GPGGA,180609,2420.4668,N,08201.2668,W,1,11,1.6,17,M,,M,,*6E
06/22/2015	18:06:10.497	$GPGGA,180611,2420.4648,N,08201.2645,W,1,11,1.6,17,M,,M,,*6A
06/22/2015	18:06:11.546	$GPGGA,180612,2420.4637,N,08201.2634,W,1,11,1.6,17,M,,M,,*67
06/22/2015	18:06:12.517	$GPGGA,180613,2420.4626,N,08201.2624,W,1,11,1.6,17,M,,M,,*67
06/22/2015	18:06:13.497	$GPGGA,180614,2420.4615,N,08201.2612,W,1,11,1.6,17,M,,M,,*65
06/22/2015	18:06:14.520	$GPGGA,180615,2420.4605,N,08201.2600,W,1,11,1.6,17,M,,M,,*66
06/22/2015	18:06:15.607	$GPGGA,180616,2420.4594,N,08201.2588,W,1,11,1.6,17,M,,M,,*6D
06/22/2015	18:06:16.521	$GPGGA,180617,2420.4583,N,08201.2577,W,1,11,1.6,17,M,,M,,*6A
06/22/2015	18:06:17.597	$GPGGA,180618,2420.4573,N,08201.2565,W,1,11,1.6,17,M,,M,,*69
06/22/2015	18:06:19.007	$GPGGA,180619,2420.4563,N,08201.2553,W,1,11,1.6,17,M,,M,,*6C
06/22/2015	18:06:19.630	$GPGGA,180620,2420.4552,N,08201.2541,W,1,11,1.6,17,M,,M,,*67
06/22/2015	18:06:20.577	$GPGGA,180621,2420.4543,N,08201.2529,W,1,11,1.6,17,M,,M,,*68
06/22/2015	18:06:21.577	$GPGGA,180622,2420.4532,N,08201.2518,W,1,11,1.6,17,M,,M,,*6F
06/22/2015	18:06:22.577	$GPGGA,180623,2420.4521,N,08201.2506,W,1,11,1.6,17,M,,M,,*63
06/22/2015	18:06:23.617	$GPGGA,180624,2420.4511,N,08201.2493,W,1,11,1.6,17,M,,M,,*6A
06/22/2015	18:06:24.577	$GPGGA,180625,2420.4502,N,08201.2482,W,1,11,1.6,17,M,,M,,*69
06/22/2015	18:06:25.577	$GPGGA,180626,2420.4491,N,08201.2471,W,1,11,1.6,17,M,,M,,*6D
06/22/2015	18:06:26.577	$GPGGA,180627,2420.4480,N,08201.2459,W,1,11,1.6,17,M,,M,,*66
06/22/2015	18:06:27.619	$GPGGA,180628,2420.4471,N,08201.2446,W,1,11,1.6,17,M,,M,,*69
06/22/2015	18:06:28.566	$GPGGA,180629,2420.4460,N,08201.2435,W,1,11,1.6,17,M,,M,,*6C
06/22/2015	18:06:29.586	$GPGGA,180630,2420.4450,N,08201.2424,W,1,11,1.6,17,M,,M,,*67
06/22/2015	18:06:30.557	$GPGGA,180631,2420.4440,N,08201.2412,W,1,11,1.6,17,M,,M,,*62
06/22/2015	18:06:31.597	$GPGGA,180632,2420.4431,N,08201.2399,W,1,11,1.6,17,M,,M,,*63
06/22/2015	18:06:32.557	$GPGGA,180633,2420.4421,N,08201.2387,W,1,11,1.6,17,M,,M,,*6C
06/22/2015	18:06:33.577	$GPGGA,180634,2420.4410,N,08201.2376,W,1,11,1.6,17,M,,M,,*67
06/22/2015	18:06:34.557	$GPGGA,180635,2420.4399,N,08201.2364,W,1,11,1.6,17,M,,M,,*63
06/22/2015	18:06:35.557	$GPGGA,180636,2420.4390,N,08201.2351,W,1,11,1.6,17,M,,M,,*6F
06/22/2015	18:06:37.577	$GPGGA,180638,2420.4370,N,08201.2330,W,1,11,1.6,17,M,,M,,*68
06/22/2015	18:06:38.537	$GPGGA,180639,2420.4359,N,08201.2317,W,1,11,1.6,17,M,,M,,*67
06/22/2015	18:06:39.587	$GPGGA,180640,2420.4349,N,08201.2304,W,1,11,1.6,17,M,,M,,*6A
06/22/2015	18:06:40.537	$GPGGA,180641,2420.4338,N,08201.2293,W,1,11,1.6,17,M,,M,,*62
06/22/2015	18:06:41.587	$GPGGA,180642,2420.4328,N,08201.2282,W,1,11,1.6,17,M,,M,,*60
06/22/2015	18:06:42.537	$GPGGA,180643,2420.4319,N,08201.2269,W,1,11,1.6,17,M,,M,,*66
06/22/2015	18:06:43.587	$GPGGA,180644,2420.4307,N,08201.2257,W,1,11,1.6,17,M,,M,,*63
06/22/2015	18:06:44.547	$GPGGA,180645,2420.4297,N,08201.2246,W,1,11,1.6,17,M,,M,,*6A
06/22/2015	18:06:46.526	$GPGGA,180647,2420.4276,N,08201.2222,W,1,11,1.6,17,M,,M,,*65
06/22/2015	18:06:47.537	$GPGGA,180648,2420.4265,N,08201.2211,W,1,11,1.6,17,M,,M,,*68
06/22/2015	18:06:49.957	$GPGGA,180650,2420.4244,N,08201.2188,W,1,11,1.6,17,M,,M,,*61
06/22/2015	18:06:50.517	$GPGGA,180651,2420.4233,N,08201.2176,W,1,11,1.6,17,M,,M,,*61
06/22/2015	18:06:51.527	$GPGGA,180652,2420.4223,N,08201.2164,W,1,11,1.6,17,M,,M,,*60
06/22/2015	18:06:52.537	$GPGGA,180653,2420.4213,N,08201.2153,W,1,11,1.6,17,M,,M,,*66
06/22/2015	18:06:53.607	$GPGGA,180654,2420.4202,N,08201.2141,W,1,11,1.6,17,M,,M,,*62
06/22/2015	18:06:54.522	$GPGGA,180655,2420.4191,N,08201.2130,W,1,11,1.6,17,M,,M,,*6C
06/22/2015	18:06:55.627	$GPGGA,180656,2420.4180,N,08201.2118,W,1,11,1.6,17,M,,M,,*65
06/22/2015	18:06:56.497	$GPGGA,180657,2420.4171,N,08201.2107,W,1,11,1.6,17,M,,M,,*64
06/22/2015	18:06:57.527	$GPGGA,180658,2420.4158,N,08201.2095,W,1,11,1.6,17,M,,M,,*6A
06/22/2015	18:06:58.517	$GPGGA,180659,2420.4148,N,08201.2084,W,1,11,1.6,17,M,,M,,*6A
06/22/2015	18:06:59.647	$GPGGA,180700,2420.4138,N,08201.2074,W,1,11,1.6,17,M,,M,,*6F
06/22/2015	18:07:00.523	$GPGGA,180701,2420.4126,N,08201.2062,W,1,11,1.6,17,M,,M,,*66
06/22/2015	18:07:01.487	$GPGGA,180702,2420.4117,N,08201.2050,W,1,11,1.6,17,M,,M,,*66
06/22/2015	18:07:02.587	$GPGGA,180703,2420.4106,N,08201.2040,W,1,11,1.6,16,M,,M,,*67
06/22/2015	18:07:03.607	$GPGGA,180704,2420.4095,N,08201.2028,W,1,11,1.6,16,M,,M,,*65
06/22/2015	18:07:05.587	$GPGGA,180705,2420.4083,N,08201.2017,W,1,11,1.5,16,M,,M,,*6C
06/22/2015	18:07:05.626	$GPGGA,180706,2420.4072,N,08201.2005,W,1,11,1.5,16,M,,M,,*62
06/22/2015	18:07:06.497	$GPGGA,180707,2420.4063,N,08201.1994,W,1,11,1.5,16,M,,M,,*61
06/22/2015	18:07:07.607	$GPGGA,180708,2420.4052,N,08201.1982,W,1,11,1.5,16,M,,M,,*6B
06/22/2015	18:07:08.587	$GPGGA,180709,2420.4041,N,08201.1972,W,1,11,1.5,16,M,,M,,*67
06/22/2015	18:07:09.607	$GPGGA,180710,2420.4030,N,08201.1959,W,1,11,1.5,16,M,,M,,*60
06/22/2015	18:07:10.587	$GPGGA,180711,2420.4019,N,08201.1947,W,1,11,1.5,16,M,,M,,*65
06/22/2015	18:07:11.597	$GPGGA,180712,2420.4008,N,08201.1937,W,1,11,1.5,16,M,,M,,*61
06/22/2015	18:07:12.607	$GPGGA,180713,2420.3997,N,08201.1925,W,1,11,1.5,16,M,,M,,*6B
06/22/2015	18:07:13.587	$GPGGA,180714,2420.3987,N,08201.1912,W,1,11,1.5,16,M,,M,,*69
06/22/2015	18:07:14.577	$GPGGA,180715,2420.3977,N,08201.1900,W,1,11,1.5,16,M,,M,,*64
06/22/2015	18:07:15.607	$GPGGA,180716,2420.3965,N,08201.1889,W,1,11,1.5,16,M,,M,,*64
06/22/2015	18:07:16.567	$GPGGA,180717,2420.3955,N,08201.1878,W,1,11,1.5,16,M,,M,,*68
06/22/2015	18:07:17.597	$GPGGA,180718,2420.3944,N,08201.1864,W,1,11,1.5,16,M,,M,,*6A
06/22/2015	18:07:18.567	$GPGGA,180719,2420.3934,N,08201.1852,W,1,11,1.5,16,M,,M,,*69
06/22/2015	18:07:19.587	$GPGGA,180720,2420.3924,N,08201.1841,W,1,10,1.7,16,M,,M,,*63
06/22/2015	18:07:20.557	$GPGGA,180721,2420.3913,N,08201.1828,W,1,10,1.5,16,M,,M,,*6B
06/22/2015	18:07:21.576	$GPGGA,180722,2420.3904,N,08201.1814,W,1,11,1.5,16,M,,M,,*60
06/22/2015	18:07:22.567	$GPGGA,180723,2420.3894,N,08201.1802,W,1,11,1.5,16,M,,M,,*6E
06/22/2015	18:07:23.597	$GPGGA,180724,2420.3884,N,08201.1790,W,1,11,1.5,16,M,,M,,*6C
06/22/2015	18:07:24.567	$GPGGA,180725,2420.3875,N,08201.1777,W,1,11,1.5,16,M,,M,,*6A
06/22/2015	18:07:25.547	$GPGGA,180726,2420.3865,N,08201.1765,W,1,11,1.5,16,M,,M,,*6B
06/22/2015	18:07:26.547	$GPGGA,180727,2420.3857,N,08201.1752,W,1,11,1.5,16,M,,M,,*6F
06/22/2015	18:07:27.577	$GPGGA,180728,2420.3846,N,08201.1739,W,1,11,1.5,16,M,,M,,*6D
06/22/2015	18:07:28.547	$GPGGA,180729,2420.3836,N,08201.1727,W,1,11,1.5,16,M,,M,,*64
06/22/2015	18:07:29.577	$GPGGA,180730,2420.3826,N,08201.1714,W,1,11,1.5,16,M,,M,,*6D
06/22/2015	18:07:30.537	$GPGGA,180731,2420.3817,N,08201.1701,W,1,11,1.5,16,M,,M,,*6A
06/22/2015	18:07:31.567	$GPGGA,180732,2420.3808,N,08201.1688,W,1,11,1.5,16,M,,M,,*67
06/22/2015	18:07:32.529	$GPGGA,180733,2420.3799,N,08201.1675,W,1,11,1.5,16,M,,M,,*63
06/22/2015	18:07:33.567	$GPGGA,180734,2420.3789,N,08201.1661,W,1,11,1.5,16,M,,M,,*60
06/22/2015	18:07:34.533	$GPGGA,180735,2420.3781,N,08201.1648,W,1,11,1.5,16,M,,M,,*62
06/22/2015	18:07:35.547	$GPGGA,180736,2420.3770,N,08201.1635,W,1,11,1.5,16,M,,M,,*65
06/22/2015	18:07:36.527	$GPGGA,180737,2420.3761,N,08201.1621,W,1,11,1.5,16,M,,M,,*61
06/22/2015	18:07:37.537	$GPGGA,180738,2420.3752,N,08201.1609,W,1,11,1.5,16,M,,M,,*64
06/22/2015	18:07:38.533	$GPGGA,180739,2420.3742,N,08201.1596,W,1,11,1.5,16,M,,M,,*61
06/22/2015	18:07:39.566	$GPGGA,180740,2420.3734,N,08201.1582,W,1,11,1.5,16,M,,M,,*6B
06/22/2015	18:07:40.507	$GPGGA,180741,2420.3725,N,08201.1568,W,1,11,1.5,16,M,,M,,*6E
06/22/2015	18:07:41.507	$GPGGA,180742,2420.3716,N,08201.1554,W,1,11,1.5,16,M,,M,,*62
06/22/2015	18:07:42.529	$GPGGA,180743,2420.3707,N,08201.1541,W,1,11,1.5,16,M,,M,,*67
06/22/2015	18:07:43.547	$GPGGA,180744,2420.3699,N,08201.1528,W,1,11,1.5,16,M,,M,,*69
06/22/2015	18:07:44.507	$GPGGA,180745,2420.3690,N,08201.1513,W,1,11,1.5,16,M,,M,,*69
06/22/2015	18:07:45.637	$GPGGA,180746,2420.3682,N,08201.1499,W,1,11,1.5,16,M,,M,,*6A
06/22/2015	18:07:46.619	$GPGGA,180747,2420.3673,N,08201.1487,W,1,11,1.5,16,M,,M,,*6A
06/22/2015	18:07:47.507	$GPGGA,180748,2420.3663,N,08201.1473,W,1,11,1.5,15,M,,M,,*6C
06/22/2015	18:07:48.597	$GPGGA,180749,2420.3656,N,08201.1458,W,1,11,1.5,15,M,,M,,*62
06/22/2015	18:07:49.637	$GPGGA,180750,2420.3648,N,08201.1445,W,1,11,1.5,15,M,,M,,*69
06/22/2015	18:07:50.587	$GPGGA,180751,2420.3640,N,08201.1431,W,1,11,1.5,15,M,,M,,*63
06/22/2015	18:07:51.517	$GPGGA,180752,2420.3631,N,08201.1417,W,1,11,1.5,15,M,,M,,*62
06/22/2015	18:07:52.597	$GPGGA,180753,2420.3623,N,08201.1403,W,1,11,1.5,15,M,,M,,*65
06/22/2015	18:07:53.497	$GPGGA,180754,2420.3615,N,08201.1389,W,1,11,1.5,15,M,,M,,*62
06/22/2015	18:07:54.597	$GPGGA,180755,2420.3607,N,08201.1375,W,1,11,1.5,15,M,,M,,*63
06/22/2015	18:07:55.607	$GPGGA,180756,2420.3600,N,08201.1362,W,1,11,1.5,15,M,,M,,*61
06/22/2015	18:07:56.586	$GPGGA,180757,2420.3591,N,08201.1347,W,1,11,1.5,15,M,,M,,*6C
06/22/2015	18:07:58.097	$GPGGA,180758,2420.3583,N,08201.1333,W,1,11,1.5,15,M,,M,,*63
06/22/2015	18:07:58.597	$GPGGA,180759,2420.3575,N,08201.1319,W,1,11,1.5,15,M,,M,,*63
06/22/2015	18:07:59.628	$GPGGA,180800,2420.3568,N,08201.1305,W,1,11,1.5,15,M,,M,,*61
06/22/2015	18:08:00.567	$GPGGA,180801,2420.3558,N,08201.1290,W,1,11,1.5,15,M,,M,,*6E
06/22/2015	18:08:01.597	$GPGGA,180802,2420.3550,N,08201.1277,W,1,11,1.5,15,M,,M,,*6C
06/22/2015	18:08:02.577	$GPGGA,180803,2420.3542,N,08201.1263,W,1,11,1.5,15,M,,M,,*6B
06/22/2015	18:08:03.617	$GPGGA,180804,2420.3535,N,08201.1248,W,1,11,1.5,15,M,,M,,*65
06/22/2015	18:08:04.567	$GPGGA,180805,2420.3526,N,08201.1234,W,1,11,1.5,15,M,,M,,*6D
06/22/2015	18:08:05.587	$GPGGA,180806,2420.3518,N,08201.1221,W,1,11,1.5,15,M,,M,,*67
06/22/2015	18:08:06.557	$GPGGA,180807,2420.3510,N,08201.1206,W,1,11,1.5,15,M,,M,,*6B
06/22/2015	18:08:07.577	$GPGGA,180808,2420.3503,N,08201.1192,W,1,11,1.5,15,M,,M,,*68
06/22/2015	18:08:08.557	$GPGGA,180809,2420.3495,N,08201.1179,W,1,11,1.5,15,M,,M,,*62
06/22/2015	18:08:09.557	$GPGGA,180810,2420.3486,N,08201.1165,W,1,11,1.5,15,M,,M,,*65
06/22/2015	18:08:10.557	$GPGGA,180811,2420.3478,N,08201.1150,W,1,11,1.5,15,M,,M,,*63
06/22/2015	18:08:11.587	$GPGGA,180812,2420.3471,N,08201.1136,W,1,11,1.5,15,M,,M,,*69
06/22/2015	18:08:12.567	$GPGGA,180813,2420.3463,N,08201.1122,W,1,11,1.5,15,M,,M,,*6E
06/22/2015	18:08:13.556	$GPGGA,180814,2420.3453,N,08201.1109,W,1,11,1.5,15,M,,M,,*63
06/22/2015	18:08:14.546	$GPGGA,180815,2420.3445,N,08201.1096,W,1,11,1.5,14,M,,M,,*63
06/22/2015	18:08:15.567	$GPGGA,180816,2420.3438,N,08201.1082,W,1,11,1.5,14,M,,M,,*6F
06/22/2015	18:08:16.557	$GPGGA,180817,2420.3428,N,08201.1068,W,1,11,1.5,14,M,,M,,*6B
06/22/2015	18:08:17.567	$GPGGA,180818,2420.3420,N,08201.1055,W,1,11,1.5,14,M,,M,,*62
06/22/2015	18:08:18.537	$GPGGA,180819,2420.3412,N,08201.1042,W,1,11,1.5,14,M,,M,,*64
06/22/2015	18:08:19.597	$GPGGA,180820,2420.3403,N,08201.1029,W,1,11,1.5,14,M,,M,,*63
06/22/2015	18:08:20.527	$GPGGA,180821,2420.3395,N,08201.1014,W,1,11,1.5,14,M,,M,,*64
06/22/2015	18:08:21.557	$GPGGA,180822,2420.3387,N,08201.1002,W,1,11,1.5,14,M,,M,,*63
06/22/2015	18:08:22.537	$GPGGA,180823,2420.3378,N,08201.0990,W,1,11,1.5,14,M,,M,,*61
06/22/2015	18:08:23.577	$GPGGA,180824,2420.3369,N,08201.0976,W,1,11,1.5,14,M,,M,,*6E
06/22/2015	18:08:24.547	$GPGGA,180825,2420.3362,N,08201.0962,W,1,11,1.5,14,M,,M,,*61
06/22/2015	18:08:25.531	$GPGGA,180826,2420.3352,N,08201.0950,W,1,11,1.5,14,M,,M,,*60
06/22/2015	18:08:27.537	$GPGGA,180828,2420.3334,N,08201.0924,W,1,11,1.5,14,M,,M,,*6D
06/22/2015	18:08:28.537	$GPGGA,180829,2420.3326,N,08201.0910,W,1,11,1.5,14,M,,M,,*68
06/22/2015	18:08:29.537	$GPGGA,180830,2420.3316,N,08201.0898,W,1,11,1.5,14,M,,M,,*62
06/22/2015	18:08:30.527	$GPGGA,180831,2420.3307,N,08201.0886,W,1,11,1.5,14,M,,M,,*6C
06/22/2015	18:08:31.556	$GPGGA,180832,2420.3299,N,08201.0872,W,1,11,1.5,14,M,,M,,*62
06/22/2015	18:08:32.850	$GPGGA,180833,2420.3290,N,08201.0858,W,1,11,1.5,14,M,,M,,*62
06/22/2015	18:08:33.530	$GPGGA,180834,2420.3281,N,08201.0846,W,1,11,1.5,14,M,,M,,*6A
06/22/2015	18:08:34.527	$GPGGA,180835,2420.3272,N,08201.0834,W,1,11,1.5,14,M,,M,,*62
06/22/2015	18:08:35.529	$GPGGA,180836,2420.3264,N,08201.0820,W,1,11,1.5,13,M,,M,,*64
06/22/2015	18:08:36.497	$GPGGA,180837,2420.3254,N,08201.0808,W,1,11,1.5,13,M,,M,,*6C
06/22/2015	18:08:37.647	$GPGGA,180838,2420.3244,N,08201.0796,W,1,11,1.5,13,M,,M,,*6A
06/22/2015	18:08:38.518	$GPGGA,180839,2420.3235,N,08201.0783,W,1,11,1.5,13,M,,M,,*69
06/22/2015	18:08:39.517	$GPGGA,180840,2420.3226,N,08201.0770,W,1,11,1.5,13,M,,M,,*69
06/22/2015	18:08:40.507	$GPGGA,180841,2420.3217,N,08201.0758,W,1,11,1.5,13,M,,M,,*60
06/22/2015	18:08:41.617	$GPGGA,180842,2420.3208,N,08201.0744,W,1,11,1.5,13,M,,M,,*60
06/22/2015	18:08:42.507	$GPGGA,180843,2420.3199,N,08201.0732,W,1,11,1.5,13,M,,M,,*6B
06/22/2015	18:08:44.657	$GPGGA,180845,2420.3181,N,08201.0706,W,1,11,1.5,13,M,,M,,*63
06/22/2015	18:08:46.587	$GPGGA,180847,2420.3163,N,08201.0680,W,1,11,1.5,13,M,,M,,*62
06/22/2015	18:08:47.657	$GPGGA,180848,2420.3153,N,08201.0668,W,1,11,1.5,13,M,,M,,*68
06/22/2015	18:08:48.646	$GPGGA,180849,2420.3145,N,08201.0653,W,1,11,1.5,13,M,,M,,*66
06/22/2015	18:08:49.606	$GPGGA,180850,2420.3136,N,08201.0640,W,1,11,1.5,13,M,,M,,*68
06/22/2015	18:08:50.631	$GPGGA,180851,2420.3127,N,08201.0628,W,1,11,1.5,13,M,,M,,*67
06/22/2015	18:08:51.618	$GPGGA,180852,2420.3118,N,08201.0615,W,1,11,1.5,13,M,,M,,*66
06/22/2015	18:08:52.567	$GPGGA,180853,2420.3109,N,08201.0601,W,1,11,1.5,13,M,,M,,*62
06/22/2015	18:08:53.607	$GPGGA,180854,2420.3102,N,08201.0588,W,1,11,1.5,13,M,,M,,*6C
06/22/2015	18:08:54.637	$GPGGA,180855,2420.3091,N,08201.0576,W,1,11,1.5,13,M,,M,,*67
06/22/2015	18:08:55.628	$GPGGA,180856,2420.3082,N,08201.0562,W,1,11,1.5,13,M,,M,,*63
06/22/2015	18:08:56.621	$GPGGA,180857,2420.3074,N,08201.0548,W,1,11,1.5,13,M,,M,,*63
06/22/2015	18:08:57.557	$GPGGA,180858,2420.3065,N,08201.0536,W,1,11,1.5,13,M,,M,,*65
06/22/2015	18:08:58.557	$GPGGA,180859,2420.3056,N,08201.0523,W,1,11,1.5,13,M,,M,,*60
06/22/2015	18:08:59.624	$GPGGA,180900,2420.3047,N,08201.0509,W,1,11,1.5,13,M,,M,,*65
06/22/2015	18:09:00.608	$GPGGA,180901,2420.3040,N,08201.0496,W,1,11,1.5,13,M,,M,,*64
06/22/2015	18:09:01.547	$GPGGA,180902,2420.3029,N,08201.0483,W,1,11,1.5,13,M,,M,,*6C
06/22/2015	18:09:02.607	$GPGGA,180903,2420.3022,N,08201.0469,W,1,11,1.5,13,M,,M,,*62
06/22/2015	18:09:03.607	$GPGGA,180904,2420.3012,N,08201.0455,W,1,11,1.5,13,M,,M,,*69
06/22/2015	18:09:04.607	$GPGGA,180905,2420.3004,N,08201.0441,W,1,11,1.5,13,M,,M,,*6A
06/22/2015	18:09:06.536	$GPGGA,180907,2420.2987,N,08201.0415,W,1,11,1.5,13,M,,M,,*6A
06/22/2015	18:09:07.607	$GPGGA,180908,2420.2979,N,08201.0401,W,1,11,1.5,13,M,,M,,*61
06/22/2015	18:09:08.587	$GPGGA,180909,2420.2969,N,08201.0387,W,1,11,1.5,13,M,,M,,*68
06/22/2015	18:09:09.587	$GPGGA,180910,2420.2961,N,08201.0374,W,1,11,1.5,13,M,,M,,*64
06/22/2015	18:09:11.623	$GPGGA,180912,2420.2944,N,08201.0346,W,1,11,1.5,12,M,,M,,*61
06/22/2015	18:09:12.533	$GPGGA,180913,2420.2936,N,08201.0332,W,1,11,1.5,12,M,,M,,*66
06/22/2015	18:09:13.593	$GPGGA,180914,2420.2928,N,08201.0317,W,1,11,1.5,12,M,,M,,*69
06/22/2015	18:09:14.623	$GPGGA,180915,2420.2919,N,08201.0304,W,1,11,1.5,12,M,,M,,*68
06/22/2015	18:09:15.643	$GPGGA,180916,2420.2910,N,08201.0290,W,1,11,1.5,12,M,,M,,*6E
06/22/2015	18:09:16.533	$GPGGA,180917,2420.2903,N,08201.0275,W,1,11,1.5,12,M,,M,,*66
06/22/2015	18:09:17.613	$GPGGA,180918,2420.2896,N,08201.0262,W,1,11,1.5,12,M,,M,,*62
06/22/2015	18:09:18.583	$GPGGA,180919,2420.2886,N,08201.0248,W,1,11,1.5,12,M,,M,,*6A
06/22/2015	18:09:19.593	$GPGGA,180920,2420.2878,N,08201.0233,W,1,11,1.5,12,M,,M,,*6D
06/22/2015	18:09:20.493	$GPGGA,180921,2420.2870,N,08201.0219,W,1,11,1.5,12,M,,M,,*6C
06/22/2015	18:09:22.643	$GPGGA,180923,2420.2853,N,08201.0191,W,1,11,1.5,12,M,,M,,*6C
06/22/2015	18:09:23.608	$GPGGA,180924,2420.2845,N,08201.0177,W,1,11,1.5,12,M,,M,,*64
06/22/2015	18:09:24.582	$GPGGA,180925,2420.2838,N,08201.0163,W,1,11,1.5,12,M,,M,,*6A
06/22/2015	18:09:25.604	$GPGGA,180926,2420.2829,N,08201.0149,W,1,11,1.5,12,M,,M,,*61
06/22/2015	18:09:26.582	$GPGGA,180927,2420.2820,N,08201.0136,W,1,11,1.5,12,M,,M,,*61
06/22/2015	18:09:27.582	$GPGGA,180928,2420.2813,N,08201.0120,W,1,11,1.5,12,M,,M,,*69
06/22/2015	18:09:28.615	$GPGGA,180929,2420.2804,N,08201.0106,W,1,11,1.5,12,M,,M,,*6A
06/22/2015	18:09:29.606	$GPGGA,180930,2420.2795,N,08201.0093,W,1,11,1.5,12,M,,M,,*68
06/22/2015	18:09:30.605	$GPGGA,180931,2420.2787,N,08201.0079,W,1,11,1.5,12,M,,M,,*6E
06/22/2015	18:09:31.583	$GPGGA,180932,2420.2780,N,08201.0063,W,1,11,1.5,12,M,,M,,*61
06/22/2015	18:09:32.605	$GPGGA,180933,2420.2771,N,08201.0049,W,1,11,1.5,12,M,,M,,*66
06/22/2015	18:09:33.573	$GPGGA,180934,2420.2763,N,08201.0036,W,1,11,1.5,12,M,,M,,*6A
06/22/2015	18:09:34.583	$GPGGA,180935,2420.2755,N,08201.0022,W,1,11,1.5,12,M,,M,,*6B
06/22/2015	18:09:35.623	$GPGGA,180936,2420.2746,N,08201.0007,W,1,11,1.5,12,M,,M,,*6D
06/22/2015	18:09:36.583	$GPGGA,180937,2420.2738,N,08200.9993,W,1,11,1.5,12,M,,M,,*69
06/22/2015	18:09:37.593	$GPGGA,180938,2420.2729,N,08200.9979,W,1,11,1.5,12,M,,M,,*62
06/22/2015	18:09:38.613	$GPGGA,180939,2420.2722,N,08200.9965,W,1,11,1.5,12,M,,M,,*65
06/22/2015	18:09:39.593	$GPGGA,180940,2420.2713,N,08200.9951,W,1,11,1.5,12,M,,M,,*6E
06/22/2015	18:09:40.606	$GPGGA,180941,2420.2705,N,08200.9936,W,1,11,1.5,11,M,,M,,*6A
06/22/2015	18:09:41.582	$GPGGA,180942,2420.2697,N,08200.9922,W,1,11,1.5,11,M,,M,,*66
06/22/2015	18:09:42.562	$GPGGA,180943,2420.2688,N,08200.9908,W,1,11,1.5,11,M,,M,,*61
06/22/2015	18:09:43.605	$GPGGA,180944,2420.2679,N,08200.9894,W,1,11,1.5,11,M,,M,,*6C
06/22/2015	18:09:44.552	$GPGGA,180945,2420.2672,N,08200.9880,W,1,11,1.5,11,M,,M,,*63
06/22/2015	18:09:45.593	$GPGGA,180946,2420.2662,N,08200.9866,W,1,11,1.5,11,M,,M,,*69
06/22/2015	18:09:46.573	$GPGGA,180947,2420.2654,N,08200.9853,W,1,11,1.5,11,M,,M,,*6B
06/22/2015	18:09:47.583	$GPGGA,180948,2420.2644,N,08200.9838,W,1,11,1.5,11,M,,M,,*68
06/22/2015	18:09:48.553	$GPGGA,180949,2420.2635,N,08200.9824,W,1,11,1.5,11,M,,M,,*62
06/22/2015	18:09:49.614	$GPGGA,180950,2420.2627,N,08200.9810,W,1,11,1.5,11,M,,M,,*6E
06/22/2015	18:09:50.563	$GPGGA,180951,2420.2627,N,08200.9810,W,1,11,1.5,11,M,,M,,*6F
06/22/2015	18:09:51.593	$GPGGA,180952,2420.2608,N,08200.9783,W,1,11,1.5,11,M,,M,,*64
06/22/2015	18:09:52.543	$GPGGA,180953,2420.2598,N,08200.9769,W,1,11,1.5,11,M,,M,,*6B
06/22/2015	18:09:53.563	$GPGGA,180954,2420.2590,N,08200.9755,W,1,11,1.5,11,M,,M,,*6B
06/22/2015	18:09:54.573	$GPGGA,180955,2420.2582,N,08200.9740,W,1,11,1.5,11,M,,M,,*6D
06/22/2015	18:09:55.593	$GPGGA,180956,2420.2571,N,08200.9727,W,1,11,1.5,11,M,,M,,*63
06/22/2015	18:09:56.553	$GPGGA,180957,2420.2562,N,08200.9714,W,1,11,1.5,11,M,,M,,*60
06/22/2015	18:09:57.523	$GPGGA,180958,2420.2554,N,08200.9699,W,1,11,1.5,11,M,,M,,*6E
06/22/2015	18:09:58.552	$GPGGA,180959,2420.2554,N,08200.9699,W,1,11,1.5,11,M,,M,,*6F
06/22/2015	18:09:59.532	$GPGGA,181000,2420.2535,N,08200.9672,W,1,11,1.5,11,M,,M,,*69
06/22/2015	18:10:00.532	$GPGGA,181001,2420.2535,N,08200.9672,W,1,11,1.5,11,M,,M,,*68
06/22/2015	18:10:01.542	$GPGGA,181002,2420.2516,N,08200.9644,W,1,11,1.5,11,M,,M,,*6F
06/22/2015	18:10:02.532	$GPGGA,181003,2420.2516,N,08200.9644,W,1,11,1.5,11,M,,M,,*6E
06/22/2015	18:10:03.553	$GPGGA,181004,2420.2498,N,08200.9616,W,1,11,1.5,11,M,,M,,*69
06/22/2015	18:10:08.613	$GPGGA,181009,2420.2450,N,08200.9547,W,1,11,1.5,11,M,,M,,*67
06/22/2015	18:10:09.623	$GPGGA,181010,2420.2441,N,08200.9534,W,1,11,1.5,11,M,,M,,*6B
06/22/2015	18:10:10.523	$GPGGA,181011,2420.2441,N,08200.9534,W,1,11,1.5,11,M,,M,,*6A
06/22/2015	18:10:11.814	$GPGGA,181012,2420.2422,N,08200.9507,W,1,11,1.5,11,M,,M,,*6C
06/22/2015	18:10:15.493	$GPGGA,181016,2420.2386,N,08200.9452,W,1,11,1.5,11,M,,M,,*60
06/22/2015	18:10:16.532	$GPGGA,181017,2420.2386,N,08200.9452,W,1,11,1.5,11,M,,M,,*61
06/22/2015	18:10:17.602	$GPGGA,181018,2420.2369,N,08200.9425,W,1,11,1.5,11,M,,M,,*6F
06/22/2015	18:10:18.522	$GPGGA,181019,2420.2369,N,08200.9425,W,1,11,1.5,11,M,,M,,*6E
06/22/2015	18:10:19.612	$GPGGA,181020,2420.2351,N,08200.9397,W,1,11,1.5,11,M,,M,,*61
06/22/2015	18:10:20.573	$GPGGA,181021,2420.2343,N,08200.9383,W,1,11,1.5,11,M,,M,,*66
06/22/2015	18:10:24.573	$GPGGA,181025,2420.2307,N,08200.9328,W,1,11,1.5,11,M,,M,,*63
06/22/2015	18:10:27.613	$GPGGA,181028,2420.2281,N,08200.9287,W,1,11,1.5,11,M,,M,,*65
06/22/2015	18:10:30.603	$GPGGA,181031,2420.2255,N,08200.9246,W,1,11,1.5,11,M,,M,,*69
06/22/2015	18:10:31.563	$GPGGA,181032,2420.2246,N,08200.9233,W,1,11,1.5,11,M,,M,,*6A
06/22/2015	18:10:33.612	$GPGGA,181033,2420.2238,N,08200.9220,W,1,11,1.5,11,M,,M,,*60
06/22/2015	18:10:33.642	$GPGGA,181034,2420.2229,N,08200.9206,W,1,11,1.5,11,M,,M,,*63
06/22/2015	18:10:34.822	$GPGGA,181035,2420.2220,N,08200.9192,W,1,11,1.5,11,M,,M,,*65
06/22/2015	18:10:35.582	$GPGGA,181036,2420.2213,N,08200.9179,W,1,11,1.5,11,M,,M,,*63
06/22/2015	18:10:37.023	$GPGGA,181037,2420.2203,N,08200.9165,W,1,11,1.5,11,M,,M,,*6E
06/22/2015	18:10:37.562	$GPGGA,181038,2420.2195,N,08200.9151,W,1,11,1.5,11,M,,M,,*6A
06/22/2015	18:10:38.543	$GPGGA,181039,2420.2186,N,08200.9138,W,1,11,1.5,11,M,,M,,*66
06/22/2015	18:10:39.553	$GPGGA,181040,2420.2178,N,08200.9124,W,1,11,1.5,11,M,,M,,*64
06/22/2015	18:10:40.543	$GPGGA,181041,2420.2169,N,08200.9110,W,1,11,1.5,11,M,,M,,*62
06/22/2015	18:10:41.523	$GPGGA,181042,2420.2161,N,08200.9096,W,1,11,1.5,11,M,,M,,*66
06/22/2015	18:10:42.543	$GPGGA,181043,2420.2153,N,08200.9083,W,1,11,1.5,11,M,,M,,*62
06/22/2015	18:10:43.583	$GPGGA,181044,2420.2144,N,08200.9069,W,1,11,1.5,11,M,,M,,*67
06/22/2015	18:10:44.514	$GPGGA,181045,2420.2137,N,08200.9054,W,1,11,1.5,11,M,,M,,*6C
06/22/2015	18:10:45.520	$GPGGA,181046,2420.2128,N,08200.9040,W,1,11,1.5,11,M,,M,,*64
06/22/2015	18:10:46.533	$GPGGA,181047,2420.2119,N,08200.9027,W,1,11,1.5,11,M,,M,,*66
06/22/2015	18:10:47.533	$GPGGA,181048,2420.2112,N,08200.9012,W,1,11,1.5,11,M,,M,,*64
06/22/2015	18:10:48.513	$GPGGA,181049,2420.2104,N,08200.8998,W,1,11,1.5,11,M,,M,,*68
06/22/2015	18:10:49.513	$GPGGA,181050,2420.2095,N,08200.8986,W,1,11,1.5,11,M,,M,,*66
06/22/2015	18:10:50.513	$GPGGA,181051,2420.2086,N,08200.8972,W,1,11,1.5,11,M,,M,,*6E
06/22/2015	18:10:51.542	$GPGGA,181052,2420.2079,N,08200.8957,W,1,11,1.5,11,M,,M,,*6A
06/22/2015	18:10:52.522	$GPGGA,181053,2420.2072,N,08200.8943,W,1,11,1.5,11,M,,M,,*65
06/22/2015	18:10:53.512	$GPGGA,181054,2420.2062,N,08200.8931,W,1,11,1.5,11,M,,M,,*66
06/22/2015	18:10:54.952	$GPGGA,181055,2420.2054,N,08200.8918,W,1,11,1.5,11,M,,M,,*69
06/22/2015	18:10:55.623	$GPGGA,181056,2420.2047,N,08200.8902,W,1,11,1.5,11,M,,M,,*63
06/22/2015	18:10:56.513	$GPGGA,181057,2420.2038,N,08200.8889,W,1,11,1.5,11,M,,M,,*68
06/22/2015	18:10:57.513	$GPGGA,181058,2420.2029,N,08200.8877,W,1,11,1.5,11,M,,M,,*66
06/22/2015	18:10:58.618	$GPGGA,181059,2420.2021,N,08200.8863,W,1,11,1.5,11,M,,M,,*6A
06/22/2015	18:10:59.643	$GPGGA,181100,2420.2014,N,08200.8848,W,1,11,1.5,11,M,,M,,*68
06/22/2015	18:11:00.593	$GPGGA,181101,2420.2004,N,08200.8835,W,1,11,1.5,11,M,,M,,*62
06/22/2015	18:11:01.593	$GPGGA,181102,2420.1996,N,08200.8822,W,1,11,1.5,11,M,,M,,*66
06/22/2015	18:11:02.583	$GPGGA,181103,2420.1987,N,08200.8808,W,1,11,1.5,11,M,,M,,*6F
06/22/2015	18:11:03.617	$GPGGA,181104,2420.1979,N,08200.8794,W,1,11,1.5,11,M,,M,,*63
06/22/2015	18:11:04.593	$GPGGA,181105,2420.1971,N,08200.8780,W,1,11,1.5,11,M,,M,,*6F
06/22/2015	18:11:05.614	$GPGGA,181106,2420.1961,N,08200.8767,W,1,11,1.5,10,M,,M,,*65
06/22/2015	18:11:06.583	$GPGGA,181107,2420.1953,N,08200.8753,W,1,11,1.5,10,M,,M,,*62
06/22/2015	18:11:07.608	$GPGGA,181108,2420.1945,N,08200.8739,W,1,11,1.5,10,M,,M,,*66
06/22/2015	18:11:08.572	$GPGGA,181109,2420.1936,N,08200.8726,W,1,11,1.5,10,M,,M,,*6D
06/22/2015	18:11:09.592	$GPGGA,181110,2420.1927,N,08200.8712,W,1,11,1.5,10,M,,M,,*62
06/22/2015	18:11:10.572	$GPGGA,181111,2420.1919,N,08200.8698,W,1,11,1.5,10,M,,M,,*6D
06/22/2015	18:11:11.603	$GPGGA,181112,2420.1910,N,08200.8684,W,1,11,1.5,10,M,,M,,*6A
06/22/2015	18:11:12.562	$GPGGA,181113,2420.1902,N,08200.8671,W,1,11,1.5,10,M,,M,,*62
06/22/2015	18:11:13.583	$GPGGA,181114,2420.1893,N,08200.8657,W,1,11,1.5,10,M,,M,,*68
06/22/2015	18:11:14.573	$GPGGA,181115,2420.1884,N,08200.8643,W,1,11,1.5,10,M,,M,,*6A
06/22/2015	18:11:15.583	$GPGGA,181116,2420.1875,N,08200.8630,W,1,11,1.5,10,M,,M,,*63
06/22/2015	18:11:16.563	$GPGGA,181117,2420.1866,N,08200.8616,W,1,11,1.5,10,M,,M,,*64
06/22/2015	18:11:17.573	$GPGGA,181118,2420.1859,N,08200.8601,W,1,11,1.5,10,M,,M,,*61
06/22/2015	18:11:18.573	$GPGGA,181119,2420.1849,N,08200.8588,W,1,11,1.5,10,M,,M,,*63
06/22/2015	18:11:19.553	$GPGGA,181120,2420.1839,N,08200.8574,W,1,11,1.5,10,M,,M,,*6D
06/22/2015	18:11:20.553	$GPGGA,181121,2420.1830,N,08200.8560,W,1,11,1.5,10,M,,M,,*60
06/22/2015	18:11:21.543	$GPGGA,181122,2420.1823,N,08200.8546,W,1,11,1.5,10,M,,M,,*65
06/22/2015	18:11:22.553	$GPGGA,181123,2420.1812,N,08200.8532,W,1,11,1.5,10,M,,M,,*65
06/22/2015	18:11:23.583	$GPGGA,181124,2420.1803,N,08200.8519,W,1,11,1.5,10,M,,M,,*6B
06/22/2015	18:11:24.543	$GPGGA,181125,2420.1794,N,08200.8505,W,1,11,1.5,10,M,,M,,*66
06/22/2015	18:11:25.533	$GPGGA,181126,2420.1785,N,08200.8490,W,1,11,1.5,10,M,,M,,*68
06/22/2015	18:11:26.542	$GPGGA,181127,2420.1776,N,08200.8476,W,1,11,1.5,10,M,,M,,*6D
06/22/2015	18:11:27.572	$GPGGA,181128,2420.1767,N,08200.8464,W,1,11,1.5,10,M,,M,,*61
06/22/2015	18:11:28.542	$GPGGA,181129,2420.1758,N,08200.8450,W,1,11,1.5,10,M,,M,,*6B
06/22/2015	18:11:29.532	$GPGGA,181130,2420.1748,N,08200.8435,W,1,11,1.5,10,M,,M,,*61
06/22/2015	18:11:30.533	$GPGGA,181131,2420.1740,N,08200.8422,W,1,11,1.5,10,M,,M,,*6E
06/22/2015	18:11:31.533	$GPGGA,181132,2420.1730,N,08200.8409,W,1,11,1.5,10,M,,M,,*63
06/22/2015	18:11:32.533	$GPGGA,181133,2420.1721,N,08200.8395,W,1,11,1.5,10,M,,M,,*60
06/22/2015	18:11:33.543	$GPGGA,181134,2420.1712,N,08200.8381,W,1,11,1.5,10,M,,M,,*62
06/22/2015	18:11:34.533	$GPGGA,181135,2420.1703,N,08200.8367,W,1,11,1.5,10,M,,M,,*6B
06/22/2015	18:11:35.533	$GPGGA,181136,2420.1694,N,08200.8354,W,1,11,1.5,10,M,,M,,*67
06/22/2015	18:11:36.543	$GPGGA,181137,2420.1685,N,08200.8340,W,1,11,1.5,10,M,,M,,*63
06/22/2015	18:11:37.543	$GPGGA,181138,2420.1676,N,08200.8326,W,1,11,1.5,10,M,,M,,*60
06/22/2015	18:11:38.515	$GPGGA,181139,2420.1667,N,08200.8313,W,1,11,1.5,10,M,,M,,*67
06/22/2015	18:11:39.543	$GPGGA,181140,2420.1658,N,08200.8298,W,1,11,1.5,10,M,,M,,*67
06/22/2015	18:11:40.506	$GPGGA,181141,2420.1649,N,08200.8285,W,1,11,1.5,10,M,,M,,*6A
06/22/2015	18:11:41.513	$GPGGA,181142,2420.1639,N,08200.8270,W,1,11,1.5,10,M,,M,,*64
06/22/2015	18:11:42.493	$GPGGA,181143,2420.1631,N,08200.8256,W,1,11,1.5,10,M,,M,,*69
06/22/2015	18:11:43.932	$GPGGA,181144,2420.1622,N,08200.8243,W,1,11,1.5,10,M,,M,,*68
06/22/2015	18:11:44.512	$GPGGA,181145,2420.1613,N,08200.8229,W,1,11,1.5,10,M,,M,,*67
06/22/2015	18:11:45.613	$GPGGA,181146,2420.1604,N,08200.8215,W,1,11,1.5,10,M,,M,,*6D
06/22/2015	18:11:46.513	$GPGGA,181147,2420.1595,N,08200.8201,W,1,11,1.5,10,M,,M,,*62
06/22/2015	18:11:47.614	$GPGGA,181148,2420.1586,N,08200.8186,W,1,11,1.5,10,M,,M,,*63
06/22/2015	18:11:48.603	$GPGGA,181149,2420.1577,N,08200.8173,W,1,11,1.5,10,M,,M,,*66
06/22/2015	18:11:49.593	$GPGGA,181150,2420.1567,N,08200.8160,W,1,11,1.5,10,M,,M,,*6D
06/22/2015	18:11:50.533	$GPGGA,181151,2420.1559,N,08200.8145,W,1,11,1.5,10,M,,M,,*66
06/22/2015	18:11:51.593	$GPGGA,181152,2420.1549,N,08200.8131,W,1,11,1.5,10,M,,M,,*67
06/22/2015	18:11:52.493	$GPGGA,181153,2420.1541,N,08200.8117,W,1,11,1.5,10,M,,M,,*6A
06/22/2015	18:11:53.593	$GPGGA,181154,2420.1531,N,08200.8104,W,1,11,1.5,10,M,,M,,*68
06/22/2015	18:11:54.483	$GPGGA,181155,2420.1523,N,08200.8090,W,1,11,1.5,10,M,,M,,*66
06/22/2015	18:11:56.853	$GPGGA,181157,2420.1505,N,08200.8061,W,1,11,1.5,10,M,,M,,*6E
06/22/2015	18:11:57.603	$GPGGA,181158,2420.1495,N,08200.8048,W,1,11,1.5,10,M,,M,,*62
06/22/2015	18:11:58.573	$GPGGA,181159,2420.1487,N,08200.8034,W,1,11,1.5,10,M,,M,,*6B
06/22/2015	18:11:59.603	$GPGGA,181200,2420.1478,N,08200.8019,W,1,11,1.5,10,M,,M,,*6B
06/22/2015	18:12:00.563	$GPGGA,181201,2420.1469,N,08200.8005,W,1,11,1.5,10,M,,M,,*67
06/22/2015	18:12:01.562	$GPGGA,181202,2420.1460,N,08200.7992,W,1,11,1.5,10,M,,M,,*65
06/22/2015	18:12:02.572	$GPGGA,181203,2420.1451,N,08200.7978,W,1,11,1.5,10,M,,M,,*62
06/22/2015	18:12:03.604	$GPGGA,181204,2420.1442,N,08200.7963,W,1,11,1.5,10,M,,M,,*6D
06/22/2015	18:12:04.562	$GPGGA,181205,2420.1433,N,08200.7950,W,1,11,1.5,10,M,,M,,*6A
06/22/2015	18:12:05.583	$GPGGA,181206,2420.1424,N,08200.7936,W,1,11,1.5,10,M,,M,,*6F
06/22/2015	18:12:06.553	$GPGGA,181207,2420.1415,N,08200.7921,W,1,11,1.5,10,M,,M,,*6A
06/22/2015	18:12:07.583	$GPGGA,181208,2420.1406,N,08200.7907,W,1,11,1.5,10,M,,M,,*63
06/22/2015	18:12:08.543	$GPGGA,181209,2420.1398,N,08200.7894,W,1,11,1.5,10,M,,M,,*69
06/22/2015	18:12:09.563	$GPGGA,181210,2420.1389,N,08200.7880,W,1,11,1.5,10,M,,M,,*64
06/22/2015	18:12:10.563	$GPGGA,181211,2420.1379,N,08200.7865,W,1,11,1.5,10,M,,M,,*61
06/22/2015	18:12:11.583	$GPGGA,181212,2420.1372,N,08200.7852,W,1,11,1.5,10,M,,M,,*6D
06/22/2015	18:12:12.563	$GPGGA,181213,2420.1364,N,08200.7838,W,1,11,1.5,10,M,,M,,*67
06/22/2015	18:12:13.543	$GPGGA,181214,2420.1354,N,08200.7824,W,1,11,1.5,10,M,,M,,*6E
06/22/2015	18:12:14.553	$GPGGA,181215,2420.1346,N,08200.7810,W,1,11,1.5,10,M,,M,,*6B
06/22/2015	18:12:15.543	$GPGGA,181216,2420.1339,N,08200.7797,W,1,11,1.5,10,M,,M,,*60
06/22/2015	18:12:16.533	$GPGGA,181217,2420.1329,N,08200.7783,W,1,11,1.5,10,M,,M,,*65
06/22/2015	18:12:17.523	$GPGGA,181218,2420.1321,N,08200.7769,W,1,11,1.5,10,M,,M,,*66
06/22/2015	18:12:18.542	$GPGGA,181219,2420.1313,N,08200.7756,W,1,11,1.5,10,M,,M,,*6A
06/22/2015	18:12:19.532	$GPGGA,181220,2420.1304,N,08200.7742,W,1,11,1.5,10,M,,M,,*63
06/22/2015	18:12:20.542	$GPGGA,181221,2420.1296,N,08200.7728,W,1,11,1.5,10,M,,M,,*64
06/22/2015	18:12:21.515	$GPGGA,181222,2420.1288,N,08200.7715,W,1,11,1.5,10,M,,M,,*66
