Software Version Number: 1	Data File Format Number: 1	Build Version Number: 1	Error Count Since VI Started: 2	Manufacturer: Raytheon	 Model Number: RayMarine 120	 S/N: 	 Cal Date: 	 Wind Direction Offset: 0.00	 Slope (M)1: 0.00	 Offset (B)1: 0.00	 Slope (M)2: 0.00	 Offset (B)2: 0.00	 Slope (M)3: 0.00	 Offset (B)3: 0.00	 Slope (M)4: 0.00	 Offset (B)4: 0.00	 Slope (M)5: 0.00	 Offset (B)5: 0.00	 Slope (M)6: 0.00	 Offset (B)6: 0.00
Computer Date	Computer Time	GGA String
06/21/2015	11:00:00.646	$GPGGA,110001,2426.6504,N,08141.5092,W,1,9,1.7,12,M,,M,,*5A
06/21/2015	11:00:01.618	$GPGGA,110002,2426.6505,N,08141.5094,W,1,10,1.6,12,M,,M,,*67
06/21/2015	11:00:02.566	$GPGGA,110003,2426.6507,N,08141.5092,W,1,10,1.6,12,M,,M,,*62
06/21/2015	11:00:03.667	$GPGGA,110004,2426.6506,N,08141.5090,W,1,10,1.6,12,M,,M,,*66
06/21/2015	11:00:04.558	$GPGGA,110005,2426.6508,N,08141.5090,W,1,10,1.7,12,M,,M,,*68
06/21/2015	11:00:05.597	$GPGGA,110006,2426.6507,N,08141.5089,W,1,9,1.7,12,M,,M,,*54
06/21/2015	11:00:06.547	$GPGGA,110007,2426.6508,N,08141.5088,W,1,9,1.6,12,M,,M,,*5A
06/21/2015	11:00:07.567	$GPGGA,110008,2426.6510,N,08141.5088,W,1,10,1.6,12,M,,M,,*64
06/21/2015	11:00:08.609	$GPGGA,110009,2426.6512,N,08141.5088,W,1,10,1.6,12,M,,M,,*67
06/21/2015	11:00:09.547	$GPGGA,110010,2426.6512,N,08141.5087,W,1,10,1.6,12,M,,M,,*60
06/21/2015	11:00:10.607	$GPGGA,110011,2426.6512,N,08141.5085,W,1,10,1.7,12,M,,M,,*62
06/21/2015	11:00:11.609	$GPGGA,110012,2426.6514,N,08141.5085,W,1,10,1.6,12,M,,M,,*66
06/21/2015	11:00:12.606	$GPGGA,110013,2426.6515,N,08141.5085,W,1,10,1.6,12,M,,M,,*66
06/21/2015	11:00:13.566	$GPGGA,110014,2426.6516,N,08141.5085,W,1,10,1.6,12,M,,M,,*62
06/21/2015	11:00:14.596	$GPGGA,110015,2426.6518,N,08141.5083,W,1,10,1.6,12,M,,M,,*6B
06/21/2015	11:00:15.608	$GPGGA,110016,2426.6519,N,08141.5082,W,1,9,1.7,12,M,,M,,*51
06/21/2015	11:00:16.609	$GPGGA,110017,2426.6523,N,08141.5083,W,1,9,1.6,12,M,,M,,*59
06/21/2015	11:00:17.536	$GPGGA,110018,2426.6525,N,08141.5084,W,1,10,1.6,12,M,,M,,*6F
06/21/2015	11:00:18.536	$GPGGA,110019,2426.6526,N,08141.5083,W,1,10,1.6,12,M,,M,,*6A
06/21/2015	11:00:19.606	$GPGGA,110020,2426.6529,N,08141.5083,W,1,10,1.6,12,M,,M,,*6F
06/21/2015	11:00:20.520	$GPGGA,110021,2426.6530,N,08141.5083,W,1,10,1.6,12,M,,M,,*66
06/21/2015	11:00:21.577	$GPGGA,110022,2426.6532,N,08141.5082,W,1,10,1.6,12,M,,M,,*66
06/21/2015	11:00:22.587	$GPGGA,110023,2426.6531,N,08141.5083,W,1,10,1.6,12,M,,M,,*65
06/21/2015	11:00:23.608	$GPGGA,110024,2426.6533,N,08141.5081,W,1,10,1.6,12,M,,M,,*62
06/21/2015	11:00:24.577	$GPGGA,110025,2426.6534,N,08141.5080,W,1,10,1.6,12,M,,M,,*65
06/21/2015	11:00:25.557	$GPGGA,110026,2426.6534,N,08141.5079,W,1,10,1.6,12,M,,M,,*60
06/21/2015	11:00:26.587	$GPGGA,110027,2426.6537,N,08141.5078,W,1,10,1.6,12,M,,M,,*63
06/21/2015	11:00:27.616	$GPGGA,110028,2426.6537,N,08141.5079,W,1,10,1.6,12,M,,M,,*6D
06/21/2015	11:00:28.608	$GPGGA,110029,2426.6540,N,08141.5078,W,1,10,1.6,12,M,,M,,*6D
06/21/2015	11:00:29.536	$GPGGA,110030,2426.6541,N,08141.5079,W,1,10,1.6,12,M,,M,,*65
06/21/2015	11:00:30.566	$GPGGA,110031,2426.6543,N,08141.5076,W,1,10,1.6,12,M,,M,,*69
06/21/2015	11:00:31.626	$GPGGA,110032,2426.6544,N,08141.5076,W,1,10,1.6,12,M,,M,,*6D
06/21/2015	11:00:32.566	$GPGGA,110033,2426.6545,N,08141.5076,W,1,10,1.6,12,M,,M,,*6D
06/21/2015	11:00:33.626	$GPGGA,110034,2426.6548,N,08141.5076,W,1,10,1.6,12,M,,M,,*67
06/21/2015	11:00:34.596	$GPGGA,110035,2426.6548,N,08141.5075,W,1,10,1.6,12,M,,M,,*65
06/21/2015	11:00:35.616	$GPGGA,110036,2426.6551,N,08141.5074,W,1,10,1.6,12,M,,M,,*6F
06/21/2015	11:00:36.617	$GPGGA,110037,2426.6552,N,08141.5076,W,1,10,1.6,12,M,,M,,*6F
06/21/2015	11:00:37.618	$GPGGA,110038,2426.6554,N,08141.5074,W,1,10,1.9,12,M,,M,,*6B
06/21/2015	11:00:38.597	$GPGGA,110039,2426.6555,N,08141.5074,W,1,10,1.9,12,M,,M,,*6B
06/21/2015	11:00:39.609	$GPGGA,110040,2426.6557,N,08141.5074,W,1,9,1.6,12,M,,M,,*50
06/21/2015	11:00:40.597	$GPGGA,110041,2426.6558,N,08141.5074,W,1,9,1.6,12,M,,M,,*5E
06/21/2015	11:00:41.898	$GPGGA,110042,2426.6559,N,08141.5074,W,1,10,1.6,12,M,,M,,*64
06/21/2015	11:00:42.597	$GPGGA,110043,2426.6561,N,08141.5074,W,1,10,1.9,12,M,,M,,*61
06/21/2015	11:00:44.876	$GPGGA,110045,2426.6563,N,08141.5071,W,1,9,1.6,12,M,,M,,*57
06/21/2015	11:00:45.596	$GPGGA,110046,2426.6565,N,08141.5072,W,1,10,1.6,12,M,,M,,*69
06/21/2015	11:00:46.576	$GPGGA,110047,2426.6566,N,08141.5072,W,1,10,1.6,12,M,,M,,*6B
06/21/2015	11:00:47.606	$GPGGA,110048,2426.6568,N,08141.5070,W,1,10,1.9,12,M,,M,,*67
06/21/2015	11:00:48.586	$GPGGA,110049,2426.6569,N,08141.5070,W,1,10,1.6,12,M,,M,,*68
06/21/2015	11:00:49.586	$GPGGA,110050,2426.6570,N,08141.5070,W,1,10,1.6,12,M,,M,,*68
06/21/2015	11:00:50.576	$GPGGA,110051,2426.6572,N,08141.5070,W,1,10,1.6,12,M,,M,,*6B
06/21/2015	11:00:51.586	$GPGGA,110052,2426.6571,N,08141.5068,W,1,10,1.7,12,M,,M,,*63
06/21/2015	11:00:52.566	$GPGGA,110053,2426.6571,N,08141.5068,W,1,10,1.7,12,M,,M,,*62
06/21/2015	11:00:53.596	$GPGGA,110054,2426.6576,N,08141.5069,W,1,10,1.6,12,M,,M,,*62
06/21/2015	11:00:54.566	$GPGGA,110055,2426.6577,N,08141.5067,W,1,10,1.7,12,M,,M,,*6D
06/21/2015	11:00:55.566	$GPGGA,110056,2426.6577,N,08141.5066,W,1,9,1.6,12,M,,M,,*56
06/21/2015	11:00:56.617	$GPGGA,110057,2426.6577,N,08141.5065,W,1,9,1.6,12,M,,M,,*54
06/21/2015	11:00:57.557	$GPGGA,110058,2426.6579,N,08141.5064,W,1,10,1.7,12,M,,M,,*6D
06/21/2015	11:00:58.557	$GPGGA,110059,2426.6579,N,08141.5064,W,1,10,1.7,12,M,,M,,*6C
06/21/2015	11:00:59.597	$GPGGA,110100,2426.6581,N,08141.5065,W,1,10,1.6,12,M,,M,,*66
06/21/2015	11:01:00.587	$GPGGA,110101,2426.6584,N,08141.5065,W,1,10,1.6,13,M,,M,,*63
06/21/2015	11:01:01.557	$GPGGA,110102,2426.6586,N,08141.5064,W,1,10,1.6,13,M,,M,,*63
06/21/2015	11:01:02.576	$GPGGA,110103,2426.6588,N,08141.5065,W,1,10,1.6,13,M,,M,,*6D
06/21/2015	11:01:03.586	$GPGGA,110104,2426.6590,N,08141.5064,W,1,10,1.6,13,M,,M,,*62
06/21/2015	11:01:04.566	$GPGGA,110105,2426.6591,N,08141.5065,W,1,10,1.6,13,M,,M,,*63
06/21/2015	11:01:05.546	$GPGGA,110106,2426.6592,N,08141.5064,W,1,10,1.6,13,M,,M,,*62
06/21/2015	11:01:06.626	$GPGGA,110107,2426.6595,N,08141.5063,W,1,10,1.6,13,M,,M,,*63
06/21/2015	11:01:07.546	$GPGGA,110108,2426.6595,N,08141.5061,W,1,9,1.9,13,M,,M,,*59
06/21/2015	11:01:08.556	$GPGGA,110109,2426.6595,N,08141.5061,W,1,9,1.7,13,M,,M,,*56
06/21/2015	11:01:09.556	$GPGGA,110110,2426.6599,N,08141.5063,W,1,10,1.9,13,M,,M,,*66
06/21/2015	11:01:10.576	$GPGGA,110111,2426.6599,N,08141.5063,W,1,10,1.9,13,M,,M,,*67
06/21/2015	11:01:11.566	$GPGGA,110112,2426.6602,N,08141.5062,W,1,10,1.6,13,M,,M,,*6B
06/21/2015	11:01:12.566	$GPGGA,110113,2426.6605,N,08141.5062,W,1,10,1.9,13,M,,M,,*62
06/21/2015	11:01:13.527	$GPGGA,110114,2426.6606,N,08141.5062,W,1,9,1.9,13,M,,M,,*5E
06/21/2015	11:01:14.557	$GPGGA,110115,2426.6608,N,08141.5062,W,1,9,1.9,13,M,,M,,*51
06/21/2015	11:01:15.537	$GPGGA,110116,2426.6609,N,08141.5061,W,1,9,1.9,13,M,,M,,*50
06/21/2015	11:01:16.620	$GPGGA,110117,2426.6609,N,08141.5060,W,1,9,1.9,13,M,,M,,*50
06/21/2015	11:01:17.647	$GPGGA,110118,2426.6610,N,08141.5061,W,1,10,1.6,13,M,,M,,*61
06/21/2015	11:01:18.617	$GPGGA,110119,2426.6612,N,08141.5062,W,1,10,1.6,13,M,,M,,*61
06/21/2015	11:01:19.627	$GPGGA,110120,2426.6611,N,08141.5062,W,1,10,1.6,13,M,,M,,*68
06/21/2015	11:01:20.607	$GPGGA,110121,2426.6613,N,08141.5062,W,1,10,1.6,13,M,,M,,*6B
06/21/2015	11:01:21.608	$GPGGA,110122,2426.6613,N,08141.5062,W,1,10,1.6,13,M,,M,,*68
06/21/2015	11:01:22.607	$GPGGA,110123,2426.6613,N,08141.5063,W,1,10,1.6,13,M,,M,,*68
06/21/2015	11:01:23.646	$GPGGA,110124,2426.6615,N,08141.5063,W,1,10,1.6,13,M,,M,,*69
06/21/2015	11:01:24.596	$GPGGA,110125,2426.6616,N,08141.5062,W,1,10,1.6,14,M,,M,,*6D
06/21/2015	11:01:25.619	$GPGGA,110126,2426.6617,N,08141.5062,W,1,10,1.6,14,M,,M,,*6F
06/21/2015	11:01:26.586	$GPGGA,110127,2426.6619,N,08141.5061,W,1,10,1.6,14,M,,M,,*63
06/21/2015	11:01:27.626	$GPGGA,110128,2426.6620,N,08141.5060,W,1,9,1.9,14,M,,M,,*50
06/21/2015	11:01:28.586	$GPGGA,110129,2426.6622,N,08141.5059,W,1,9,1.9,14,M,,M,,*59
06/21/2015	11:01:30.606	$GPGGA,110131,2426.6624,N,08141.5058,W,1,9,1.9,14,M,,M,,*57
06/21/2015	11:01:31.627	$GPGGA,110132,2426.6627,N,08141.5057,W,1,9,1.9,14,M,,M,,*58
06/21/2015	11:01:32.577	$GPGGA,110133,2426.6625,N,08141.5058,W,1,9,1.9,14,M,,M,,*54
06/21/2015	11:01:33.577	$GPGGA,110134,2426.6627,N,08141.5057,W,1,10,1.6,14,M,,M,,*69
06/21/2015	11:01:34.577	$GPGGA,110135,2426.6630,N,08141.5056,W,1,10,1.9,14,M,,M,,*60
06/21/2015	11:01:35.597	$GPGGA,110136,2426.6631,N,08141.5055,W,1,9,1.9,14,M,,M,,*59
06/21/2015	11:01:36.577	$GPGGA,110137,2426.6631,N,08141.5054,W,1,9,1.9,14,M,,M,,*59
06/21/2015	11:01:37.586	$GPGGA,110138,2426.6631,N,08141.5055,W,1,10,1.6,14,M,,M,,*60
06/21/2015	11:01:38.576	$GPGGA,110139,2426.6631,N,08141.5055,W,1,10,1.6,14,M,,M,,*61
06/21/2015	11:01:39.607	$GPGGA,110140,2426.6633,N,08141.5055,W,1,10,1.6,14,M,,M,,*6D
06/21/2015	11:01:40.566	$GPGGA,110141,2426.6634,N,08141.5055,W,1,10,1.6,14,M,,M,,*6B
06/21/2015	11:01:41.596	$GPGGA,110142,2426.6633,N,08141.5055,W,1,10,1.6,14,M,,M,,*6F
06/21/2015	11:01:42.566	$GPGGA,110143,2426.6635,N,08141.5055,W,1,10,1.6,14,M,,M,,*68
06/21/2015	11:01:43.596	$GPGGA,110144,2426.6635,N,08141.5054,W,1,10,1.6,14,M,,M,,*6E
06/21/2015	11:01:44.566	$GPGGA,110145,2426.6635,N,08141.5054,W,1,10,1.6,14,M,,M,,*6F
06/21/2015	11:01:45.546	$GPGGA,110146,2426.6637,N,08141.5053,W,1,10,1.6,14,M,,M,,*69
06/21/2015	11:01:46.556	$GPGGA,110147,2426.6638,N,08141.5054,W,1,10,1.6,14,M,,M,,*60
06/21/2015	11:01:47.586	$GPGGA,110148,2426.6639,N,08141.5052,W,1,10,1.6,14,M,,M,,*68
06/21/2015	11:01:48.557	$GPGGA,110149,2426.6641,N,08141.5052,W,1,10,1.6,14,M,,M,,*66
06/21/2015	11:01:49.587	$GPGGA,110150,2426.6640,N,08141.5051,W,1,10,1.6,14,M,,M,,*6C
06/21/2015	11:01:50.557	$GPGGA,110151,2426.6642,N,08141.5050,W,1,10,1.6,14,M,,M,,*6E
06/21/2015	11:01:51.577	$GPGGA,110152,2426.6645,N,08141.5048,W,1,9,1.9,14,M,,M,,*54
06/21/2015	11:01:52.537	$GPGGA,110153,2426.6646,N,08141.5048,W,1,9,1.9,14,M,,M,,*56
06/21/2015	11:01:53.547	$GPGGA,110154,2426.6646,N,08141.5047,W,1,10,1.6,14,M,,M,,*69
06/21/2015	11:01:54.547	$GPGGA,110155,2426.6648,N,08141.5046,W,1,10,1.6,14,M,,M,,*67
06/21/2015	11:01:55.536	$GPGGA,110156,2426.6649,N,08141.5045,W,1,10,1.6,14,M,,M,,*66
06/21/2015	11:01:56.646	$GPGGA,110157,2426.6652,N,08141.5043,W,1,10,1.9,14,M,,M,,*64
06/21/2015	11:01:57.626	$GPGGA,110158,2426.6653,N,08141.5042,W,1,10,1.6,14,M,,M,,*64
06/21/2015	11:01:58.526	$GPGGA,110159,2426.6653,N,08141.5043,W,1,10,1.6,14,M,,M,,*64
06/21/2015	11:01:59.566	$GPGGA,110200,2426.6655,N,08141.5041,W,1,10,1.6,14,M,,M,,*6F
06/21/2015	11:02:00.536	$GPGGA,110201,2426.6656,N,08141.5041,W,1,10,1.6,14,M,,M,,*6D
06/21/2015	11:02:01.620	$GPGGA,110202,2426.6656,N,08141.5041,W,1,10,1.6,14,M,,M,,*6E
06/21/2015	11:02:02.518	$GPGGA,110203,2426.6657,N,08141.5040,W,1,10,1.6,14,M,,M,,*6F
06/21/2015	11:02:03.646	$GPGGA,110204,2426.6659,N,08141.5040,W,1,10,1.6,14,M,,M,,*66
06/21/2015	11:02:04.616	$GPGGA,110205,2426.6660,N,08141.5039,W,1,10,1.6,14,M,,M,,*63
06/21/2015	11:02:05.522	$GPGGA,110206,2426.6662,N,08141.5037,W,1,10,1.6,14,M,,M,,*6C
06/21/2015	11:02:06.525	$GPGGA,110207,2426.6661,N,08141.5037,W,1,10,1.9,14,M,,M,,*61
06/21/2015	11:02:07.507	$GPGGA,110208,2426.6664,N,08141.5036,W,1,9,1.6,14,M,,M,,*5D
06/21/2015	11:02:08.505	$GPGGA,110209,2426.6667,N,08141.5033,W,1,9,1.9,14,M,,M,,*55
06/21/2015	11:02:09.606	$GPGGA,110210,2426.6669,N,08141.5033,W,1,8,1.8,14,M,,M,,*53
06/21/2015	11:02:10.585	$GPGGA,110211,2426.6671,N,08141.5033,W,1,8,1.6,14,M,,M,,*55
06/21/2015	11:02:11.606	$GPGGA,110212,2426.6674,N,08141.5032,W,1,10,1.6,14,M,,M,,*6B
06/21/2015	11:02:12.584	$GPGGA,110213,2426.6677,N,08141.5030,W,1,10,1.6,14,M,,M,,*6B
06/21/2015	11:02:13.614	$GPGGA,110214,2426.6678,N,08141.5030,W,1,10,1.6,14,M,,M,,*63
06/21/2015	11:02:14.584	$GPGGA,110215,2426.6680,N,08141.5028,W,1,10,1.6,14,M,,M,,*6C
06/21/2015	11:02:15.624	$GPGGA,110216,2426.6682,N,08141.5026,W,1,10,1.6,14,M,,M,,*63
06/21/2015	11:02:16.584	$GPGGA,110217,2426.6682,N,08141.5026,W,1,10,1.6,14,M,,M,,*62
06/21/2015	11:02:17.584	$GPGGA,110218,2426.6685,N,08141.5026,W,1,10,1.6,14,M,,M,,*6A
06/21/2015	11:02:18.594	$GPGGA,110219,2426.6685,N,08141.5025,W,1,10,1.6,14,M,,M,,*68
06/21/2015	11:02:19.604	$GPGGA,110220,2426.6686,N,08141.5022,W,1,10,1.6,14,M,,M,,*66
06/21/2015	11:02:20.574	$GPGGA,110221,2426.6688,N,08141.5021,W,1,10,1.6,14,M,,M,,*6A
06/21/2015	11:02:21.594	$GPGGA,110222,2426.6689,N,08141.5022,W,1,10,1.6,14,M,,M,,*6B
06/21/2015	11:02:22.564	$GPGGA,110223,2426.6691,N,08141.5021,W,1,10,1.6,14,M,,M,,*60
06/21/2015	11:02:23.594	$GPGGA,110224,2426.6690,N,08141.5019,W,1,10,1.6,14,M,,M,,*6D
06/21/2015	11:02:24.565	$GPGGA,110225,2426.6692,N,08141.5018,W,1,10,1.6,14,M,,M,,*6F
06/21/2015	11:02:25.585	$GPGGA,110226,2426.6693,N,08141.5018,W,1,10,1.6,14,M,,M,,*6D
06/21/2015	11:02:26.565	$GPGGA,110227,2426.6693,N,08141.5018,W,1,10,1.6,14,M,,M,,*6C
06/21/2015	11:02:27.605	$GPGGA,110228,2426.6695,N,08141.5017,W,1,10,1.6,14,M,,M,,*6A
06/21/2015	11:02:28.545	$GPGGA,110229,2426.6696,N,08141.5016,W,1,10,1.6,14,M,,M,,*69
06/21/2015	11:02:29.545	$GPGGA,110230,2426.6696,N,08141.5014,W,1,10,1.6,14,M,,M,,*63
06/21/2015	11:02:30.554	$GPGGA,110231,2426.6698,N,08141.5015,W,1,10,1.6,14,M,,M,,*6D
06/21/2015	11:02:31.564	$GPGGA,110232,2426.6699,N,08141.5014,W,1,10,1.6,14,M,,M,,*6E
06/21/2015	11:02:32.544	$GPGGA,110233,2426.6700,N,08141.5011,W,1,10,1.9,14,M,,M,,*64
06/21/2015	11:02:33.564	$GPGGA,110234,2426.6700,N,08141.5010,W,1,10,1.6,14,M,,M,,*6D
06/21/2015	11:02:34.544	$GPGGA,110235,2426.6702,N,08141.5011,W,1,10,1.6,14,M,,M,,*6F
06/21/2015	11:02:35.544	$GPGGA,110236,2426.6703,N,08141.5010,W,1,10,1.6,14,M,,M,,*6C
06/21/2015	11:02:36.544	$GPGGA,110237,2426.6702,N,08141.5009,W,1,10,1.9,14,M,,M,,*6B
06/21/2015	11:02:37.524	$GPGGA,110238,2426.6704,N,08141.5007,W,1,9,1.9,14,M,,M,,*54
06/21/2015	11:02:38.534	$GPGGA,110239,2426.6707,N,08141.5006,W,1,9,1.7,14,M,,M,,*59
06/21/2015	11:02:39.544	$GPGGA,110240,2426.6709,N,08141.5007,W,1,9,1.7,14,M,,M,,*58
06/21/2015	11:02:40.534	$GPGGA,110241,2426.6711,N,08141.5006,W,1,9,1.6,14,M,,M,,*50
06/21/2015	11:02:41.525	$GPGGA,110242,2426.6711,N,08141.5005,W,1,10,1.6,14,M,,M,,*68
06/21/2015	11:02:42.535	$GPGGA,110243,2426.6711,N,08141.5004,W,1,10,1.9,14,M,,M,,*67
06/21/2015	11:02:43.535	$GPGGA,110244,2426.6713,N,08141.5005,W,1,10,1.6,14,M,,M,,*6C
06/21/2015	11:02:44.635	$GPGGA,110245,2426.6714,N,08141.5005,W,1,10,1.7,14,M,,M,,*6B
06/21/2015	11:02:45.535	$GPGGA,110246,2426.6716,N,08141.5005,W,1,10,1.6,14,M,,M,,*6B
06/21/2015	11:02:46.606	$GPGGA,110247,2426.6715,N,08141.5004,W,1,10,1.6,14,M,,M,,*68
06/21/2015	11:02:47.624	$GPGGA,110248,2426.6717,N,08141.5004,W,1,10,1.6,14,M,,M,,*65
06/21/2015	11:02:48.524	$GPGGA,110249,2426.6718,N,08141.5004,W,1,10,1.6,14,M,,M,,*6B
06/21/2015	11:02:49.598	$GPGGA,110250,2426.6718,N,08141.5004,W,1,10,1.6,14,M,,M,,*63
06/21/2015	11:02:50.604	$GPGGA,110251,2426.6720,N,08141.5004,W,1,10,1.6,15,M,,M,,*68
06/21/2015	11:02:51.614	$GPGGA,110252,2426.6721,N,08141.5004,W,1,10,1.6,15,M,,M,,*6A
06/21/2015	11:02:52.614	$GPGGA,110253,2426.6721,N,08141.5003,W,1,10,1.6,15,M,,M,,*6C
06/21/2015	11:02:53.597	$GPGGA,110254,2426.6722,N,08141.5002,W,1,10,1.6,15,M,,M,,*69
06/21/2015	11:02:54.509	$GPGGA,110255,2426.6724,N,08141.5004,W,1,10,1.6,15,M,,M,,*68
06/21/2015	11:02:55.644	$GPGGA,110256,2426.6725,N,08141.5002,W,1,10,1.6,15,M,,M,,*6C
06/21/2015	11:02:56.594	$GPGGA,110257,2426.6727,N,08141.5003,W,1,10,1.9,15,M,,M,,*61
06/21/2015	11:02:57.594	$GPGGA,110258,2426.6726,N,08141.5002,W,1,10,1.6,15,M,,M,,*61
06/21/2015	11:02:58.595	$GPGGA,110259,2426.6728,N,08141.5003,W,1,10,1.6,15,M,,M,,*6F
06/21/2015	11:02:59.615	$GPGGA,110300,2426.6727,N,08141.5002,W,1,10,1.6,15,M,,M,,*6C
06/21/2015	11:03:00.596	$GPGGA,110301,2426.6729,N,08141.5004,W,1,10,1.6,15,M,,M,,*65
06/21/2015	11:03:01.585	$GPGGA,110302,2426.6729,N,08141.5004,W,1,10,1.6,15,M,,M,,*66
06/21/2015	11:03:02.585	$GPGGA,110303,2426.6729,N,08141.5004,W,1,10,1.6,15,M,,M,,*67
06/21/2015	11:03:03.615	$GPGGA,110304,2426.6729,N,08141.5003,W,1,10,1.6,15,M,,M,,*67
06/21/2015	11:03:04.575	$GPGGA,110305,2426.6731,N,08141.5004,W,1,10,1.6,15,M,,M,,*68
06/21/2015	11:03:05.594	$GPGGA,110306,2426.6732,N,08141.5003,W,1,10,1.6,15,M,,M,,*6F
06/21/2015	11:03:06.574	$GPGGA,110307,2426.6732,N,08141.5004,W,1,10,1.6,15,M,,M,,*69
06/21/2015	11:03:07.605	$GPGGA,110308,2426.6734,N,08141.5003,W,1,10,1.6,15,M,,M,,*67
06/21/2015	11:03:08.574	$GPGGA,110309,2426.6733,N,08141.5001,W,1,10,1.6,15,M,,M,,*63
06/21/2015	11:03:09.564	$GPGGA,110310,2426.6735,N,08141.5000,W,1,10,1.6,15,M,,M,,*6C
06/21/2015	11:03:10.564	$GPGGA,110311,2426.6736,N,08141.5000,W,1,10,1.6,15,M,,M,,*6E
06/21/2015	11:03:11.584	$GPGGA,110312,2426.6736,N,08141.5000,W,1,10,1.6,15,M,,M,,*6D
06/21/2015	11:03:12.554	$GPGGA,110313,2426.6738,N,08141.4999,W,1,10,1.6,16,M,,M,,*69
06/21/2015	11:03:13.574	$GPGGA,110314,2426.6739,N,08141.4997,W,1,10,1.6,16,M,,M,,*61
06/21/2015	11:03:14.554	$GPGGA,110315,2426.6738,N,08141.4996,W,1,10,1.6,16,M,,M,,*60
06/21/2015	11:03:15.596	$GPGGA,110316,2426.6740,N,08141.4996,W,1,10,1.6,16,M,,M,,*6C
06/21/2015	11:03:16.555	$GPGGA,110317,2426.6743,N,08141.4995,W,1,10,1.9,16,M,,M,,*62
06/21/2015	11:03:17.585	$GPGGA,110318,2426.6742,N,08141.4994,W,1,9,1.9,16,M,,M,,*55
06/21/2015	11:03:18.555	$GPGGA,110319,2426.6743,N,08141.4993,W,1,9,1.6,16,M,,M,,*5D
06/21/2015	11:03:19.555	$GPGGA,110320,2426.6745,N,08141.4993,W,1,10,1.6,16,M,,M,,*69
06/21/2015	11:03:20.555	$GPGGA,110321,2426.6746,N,08141.4991,W,1,10,1.6,16,M,,M,,*69
06/21/2015	11:03:21.535	$GPGGA,110322,2426.6747,N,08141.4991,W,1,10,1.6,16,M,,M,,*6B
06/21/2015	11:03:22.544	$GPGGA,110323,2426.6747,N,08141.4990,W,1,10,1.6,16,M,,M,,*6B
06/21/2015	11:03:23.574	$GPGGA,110324,2426.6750,N,08141.4988,W,1,9,1.9,15,M,,M,,*57
06/21/2015	11:03:24.544	$GPGGA,110325,2426.6750,N,08141.4986,W,1,9,1.9,15,M,,M,,*58
06/21/2015	11:03:25.534	$GPGGA,110326,2426.6751,N,08141.4987,W,1,10,1.6,15,M,,M,,*6C
06/21/2015	11:03:26.534	$GPGGA,110327,2426.6753,N,08141.4987,W,1,10,1.6,15,M,,M,,*6F
06/21/2015	11:03:27.554	$GPGGA,110328,2426.6754,N,08141.4985,W,1,9,1.9,15,M,,M,,*52
06/21/2015	11:03:28.634	$GPGGA,110329,2426.6754,N,08141.4986,W,1,9,1.9,15,M,,M,,*50
06/21/2015	11:03:29.644	$GPGGA,110330,2426.6754,N,08141.4984,W,1,10,1.5,15,M,,M,,*6E
06/21/2015	11:03:30.544	$GPGGA,110331,2426.6756,N,08141.4983,W,1,10,1.5,15,M,,M,,*6A
06/21/2015	11:03:31.564	$GPGGA,110332,2426.6757,N,08141.4982,W,1,9,1.9,15,M,,M,,*5D
06/21/2015	11:03:32.544	$GPGGA,110333,2426.6758,N,08141.4982,W,1,9,1.9,14,M,,M,,*52
06/21/2015	11:03:33.509	$GPGGA,110334,2426.6756,N,08141.4985,W,1,9,1.9,14,M,,M,,*5C
06/21/2015	11:03:34.525	$GPGGA,110335,2426.6757,N,08141.4984,W,1,9,1.5,14,M,,M,,*51
06/21/2015	11:03:35.635	$GPGGA,110336,2426.6758,N,08141.4985,W,1,10,1.5,14,M,,M,,*64
06/21/2015	11:03:36.606	$GPGGA,110337,2426.6760,N,08141.4984,W,1,10,1.9,14,M,,M,,*63
06/21/2015	11:03:37.515	$GPGGA,110338,2426.6761,N,08141.4982,W,1,9,1.9,14,M,,M,,*53
06/21/2015	11:03:38.617	$GPGGA,110339,2426.6761,N,08141.4980,W,1,9,1.9,14,M,,M,,*50
06/21/2015	11:03:39.634	$GPGGA,110340,2426.6761,N,08141.4982,W,1,10,1.5,14,M,,M,,*68
06/21/2015	11:03:40.514	$GPGGA,110341,2426.6764,N,08141.4981,W,1,10,1.5,14,M,,M,,*6F
06/21/2015	11:03:41.614	$GPGGA,110342,2426.6765,N,08141.4979,W,1,9,1.9,14,M,,M,,*5E
06/21/2015	11:03:42.498	$GPGGA,110343,2426.6765,N,08141.4977,W,1,9,1.9,14,M,,M,,*51
06/21/2015	11:03:43.606	$GPGGA,110344,2426.6767,N,08141.4978,W,1,9,1.9,14,M,,M,,*5B
06/21/2015	11:03:44.597	$GPGGA,110345,2426.6768,N,08141.4977,W,1,9,1.5,14,M,,M,,*56
06/21/2015	11:03:45.624	$GPGGA,110346,2426.6768,N,08141.4976,W,1,10,1.5,14,M,,M,,*6C
06/21/2015	11:03:46.594	$GPGGA,110347,2426.6768,N,08141.4976,W,1,10,1.5,14,M,,M,,*6D
06/21/2015	11:03:47.606	$GPGGA,110348,2426.6769,N,08141.4975,W,1,10,1.5,14,M,,M,,*60
06/21/2015	11:03:48.584	$GPGGA,110349,2426.6772,N,08141.4974,W,1,10,1.9,13,M,,M,,*61
06/21/2015	11:03:49.585	$GPGGA,110350,2426.6772,N,08141.4973,W,1,9,1.9,13,M,,M,,*56
06/21/2015	11:03:50.596	$GPGGA,110351,2426.6774,N,08141.4973,W,1,9,1.5,13,M,,M,,*5D
06/21/2015	11:03:51.615	$GPGGA,110352,2426.6773,N,08141.4975,W,1,10,1.5,13,M,,M,,*67
06/21/2015	11:03:52.585	$GPGGA,110353,2426.6775,N,08141.4973,W,1,10,1.5,13,M,,M,,*66
06/21/2015	11:03:53.585	$GPGGA,110354,2426.6776,N,08141.4971,W,1,9,1.9,13,M,,M,,*54
06/21/2015	11:03:54.575	$GPGGA,110355,2426.6776,N,08141.4973,W,1,9,1.5,13,M,,M,,*5B
06/21/2015	11:03:55.635	$GPGGA,110356,2426.6776,N,08141.4972,W,1,10,1.5,13,M,,M,,*61
06/21/2015	11:03:56.575	$GPGGA,110357,2426.6778,N,08141.4971,W,1,10,1.9,13,M,,M,,*61
06/21/2015	11:03:57.584	$GPGGA,110358,2426.6779,N,08141.4971,W,1,9,1.9,13,M,,M,,*57
06/21/2015	11:03:58.564	$GPGGA,110359,2426.6778,N,08141.4971,W,1,9,1.9,13,M,,M,,*57
06/21/2015	11:03:59.634	$GPGGA,110400,2426.6779,N,08141.4972,W,1,10,1.5,13,M,,M,,*6A
06/21/2015	11:04:00.555	$GPGGA,110401,2426.6781,N,08141.4972,W,1,10,1.5,13,M,,M,,*6C
06/21/2015	11:04:01.574	$GPGGA,110402,2426.6782,N,08141.4971,W,1,9,1.9,13,M,,M,,*5B
06/21/2015	11:04:02.554	$GPGGA,110403,2426.6783,N,08141.4969,W,1,9,1.9,13,M,,M,,*52
06/21/2015	11:04:03.584	$GPGGA,110404,2426.6783,N,08141.4971,W,1,9,1.9,13,M,,M,,*5C
06/21/2015	11:04:04.545	$GPGGA,110405,2426.6783,N,08141.4971,W,1,9,1.5,13,M,,M,,*51
06/21/2015	11:04:05.574	$GPGGA,110406,2426.6783,N,08141.4971,W,1,10,1.5,13,M,,M,,*6A
06/21/2015	11:04:06.554	$GPGGA,110407,2426.6783,N,08141.4971,W,1,10,1.7,13,M,,M,,*69
06/21/2015	11:04:07.595	$GPGGA,110408,2426.6785,N,08141.4971,W,1,10,1.5,13,M,,M,,*62
06/21/2015	11:04:08.544	$GPGGA,110409,2426.6784,N,08141.4970,W,1,10,1.5,13,M,,M,,*63
06/21/2015	11:04:09.555	$GPGGA,110410,2426.6786,N,08141.4971,W,1,10,1.5,13,M,,M,,*68
06/21/2015	11:04:10.555	$GPGGA,110411,2426.6787,N,08141.4972,W,1,10,1.7,13,M,,M,,*69
06/21/2015	11:04:11.545	$GPGGA,110412,2426.6787,N,08141.4971,W,1,10,1.5,13,M,,M,,*6B
06/21/2015	11:04:12.535	$GPGGA,110413,2426.6790,N,08141.4970,W,1,10,1.7,13,M,,M,,*6F
06/21/2015	11:04:13.575	$GPGGA,110414,2426.6790,N,08141.4971,W,1,10,1.5,13,M,,M,,*6B
06/21/2015	11:04:14.535	$GPGGA,110415,2426.6793,N,08141.4971,W,1,10,1.5,13,M,,M,,*69
06/21/2015	11:04:15.911	$GPGGA,110416,2426.6794,N,08141.4969,W,1,10,1.5,13,M,,M,,*64
06/21/2015	11:04:16.524	$GPGGA,110417,2426.6796,N,08141.4968,W,1,10,2.2,13,M,,M,,*62
06/21/2015	11:04:17.524	$GPGGA,110418,2426.6797,N,08141.4968,W,1,9,1.9,13,M,,M,,*5C
06/21/2015	11:04:18.534	$GPGGA,110419,2426.6800,N,08141.4968,W,1,9,1.9,13,M,,M,,*5C
06/21/2015	11:04:19.534	$GPGGA,110420,2426.6801,N,08141.4968,W,1,9,1.9,13,M,,M,,*57
06/21/2015	11:04:20.524	$GPGGA,110421,2426.6803,N,08141.4966,W,1,9,1.9,13,M,,M,,*5A
06/21/2015	11:04:21.644	$GPGGA,110422,2426.6805,N,08141.4967,W,1,8,1.9,13,M,,M,,*5F
06/21/2015	11:04:22.512	$GPGGA,110423,2426.6807,N,08141.4966,W,1,8,1.9,13,M,,M,,*5D
06/21/2015	11:04:23.544	$GPGGA,110424,2426.6808,N,08141.4967,W,1,9,1.9,13,M,,M,,*55
06/21/2015	11:04:24.508	$GPGGA,110425,2426.6810,N,08141.4966,W,1,9,1.9,13,M,,M,,*5C
06/21/2015	11:04:25.503	$GPGGA,110426,2426.6812,N,08141.4965,W,1,9,1.9,13,M,,M,,*5E
06/21/2015	11:04:26.625	$GPGGA,110427,2426.6814,N,08141.4965,W,1,9,1.9,13,M,,M,,*59
06/21/2015	11:04:27.515	$GPGGA,110428,2426.6815,N,08141.4965,W,1,9,1.9,13,M,,M,,*57
06/21/2015	11:04:28.606	$GPGGA,110429,2426.6814,N,08141.4963,W,1,9,2.2,13,M,,M,,*59
06/21/2015	11:04:29.503	$GPGGA,110430,2426.6815,N,08141.4962,W,1,8,2.2,13,M,,M,,*50
06/21/2015	11:04:30.596	$GPGGA,110431,2426.6815,N,08141.4961,W,1,8,2.2,13,M,,M,,*52
06/21/2015	11:04:31.511	$GPGGA,110432,2426.6818,N,08141.4960,W,1,8,2.2,13,M,,M,,*5D
06/21/2015	11:04:32.597	$GPGGA,110433,2426.6819,N,08141.4959,W,1,8,1.9,13,M,,M,,*5F
06/21/2015	11:04:33.508	$GPGGA,110434,2426.6819,N,08141.4960,W,1,9,1.9,13,M,,M,,*53
06/21/2015	11:04:34.508	$GPGGA,110435,2426.6821,N,08141.4960,W,1,9,1.9,13,M,,M,,*59
06/21/2015	11:04:35.654	$GPGGA,110436,2426.6822,N,08141.4958,W,1,9,1.9,13,M,,M,,*52
06/21/2015	11:04:36.503	$GPGGA,110437,2426.6823,N,08141.4958,W,1,9,1.9,13,M,,M,,*52
06/21/2015	11:04:37.484	$GPGGA,110438,2426.6823,N,08141.4958,W,1,9,1.9,13,M,,M,,*5D
06/21/2015	11:04:38.584	$GPGGA,110439,2426.6825,N,08141.4958,W,1,9,1.9,13,M,,M,,*5A
06/21/2015	11:04:39.499	$GPGGA,110440,2426.6826,N,08141.4957,W,1,9,1.9,13,M,,M,,*58
06/21/2015	11:04:40.574	$GPGGA,110441,2426.6826,N,08141.4956,W,1,9,1.9,13,M,,M,,*58
06/21/2015	11:04:42.574	$GPGGA,110442,2426.6825,N,08141.4958,W,1,9,1.5,13,M,,M,,*5A
06/21/2015	11:04:42.604	$GPGGA,110443,2426.6828,N,08141.4958,W,1,9,1.9,13,M,,M,,*5A
06/21/2015	11:04:43.614	$GPGGA,110444,2426.6827,N,08141.4955,W,1,9,2.2,13,M,,M,,*57
06/21/2015	11:04:44.565	$GPGGA,110445,2426.6828,N,08141.4954,W,1,9,2.2,12,M,,M,,*59
06/21/2015	11:04:45.585	$GPGGA,110446,2426.6829,N,08141.4954,W,1,8,1.9,12,M,,M,,*52
06/21/2015	11:04:46.565	$GPGGA,110447,2426.6827,N,08141.4954,W,1,8,1.7,12,M,,M,,*53
06/21/2015	11:04:47.605	$GPGGA,110448,2426.6828,N,08141.4957,W,1,9,1.5,12,M,,M,,*53
06/21/2015	11:04:48.565	$GPGGA,110449,2426.6830,N,08141.4957,W,1,9,1.9,12,M,,M,,*57
06/21/2015	11:04:49.574	$GPGGA,110450,2426.6832,N,08141.4957,W,1,9,1.9,13,M,,M,,*5C
06/21/2015	11:04:50.564	$GPGGA,110451,2426.6831,N,08141.4955,W,1,9,1.7,13,M,,M,,*52
06/21/2015	11:04:51.597	$GPGGA,110452,2426.6833,N,08141.4954,W,1,9,1.5,13,M,,M,,*50
06/21/2015	11:04:52.554	$GPGGA,110453,2426.6834,N,08141.4956,W,1,9,1.5,13,M,,M,,*54
06/21/2015	11:04:53.574	$GPGGA,110454,2426.6836,N,08141.4955,W,1,10,1.9,13,M,,M,,*66
06/21/2015	11:04:54.544	$GPGGA,110455,2426.6837,N,08141.4954,W,1,10,1.9,13,M,,M,,*67
06/21/2015	11:04:55.554	$GPGGA,110456,2426.6837,N,08141.4953,W,1,9,1.7,13,M,,M,,*55
06/21/2015	11:04:56.544	$GPGGA,110457,2426.6840,N,08141.4953,W,1,9,1.5,13,M,,M,,*56
06/21/2015	11:04:57.564	$GPGGA,110458,2426.6839,N,08141.4952,W,1,10,2.2,13,M,,M,,*6A
06/21/2015	11:04:58.544	$GPGGA,110459,2426.6840,N,08141.4951,W,1,10,1.7,13,M,,M,,*60
06/21/2015	11:04:59.601	$GPGGA,110500,2426.6841,N,08141.4953,W,1,9,1.7,13,M,,M,,*56
06/21/2015	11:05:00.524	$GPGGA,110501,2426.6841,N,08141.4954,W,1,9,1.5,13,M,,M,,*52
06/21/2015	11:05:01.565	$GPGGA,110502,2426.6844,N,08141.4953,W,1,10,1.9,13,M,,M,,*67
06/21/2015	11:05:02.525	$GPGGA,110503,2426.6844,N,08141.4952,W,1,10,1.9,13,M,,M,,*67
06/21/2015	11:05:03.575	$GPGGA,110504,2426.6846,N,08141.4951,W,1,9,2.2,13,M,,M,,*51
06/21/2015	11:05:04.535	$GPGGA,110505,2426.6847,N,08141.4953,W,1,9,1.9,13,M,,M,,*5B
06/21/2015	11:05:05.555	$GPGGA,110506,2426.6848,N,08141.4948,W,1,9,1.7,13,M,,M,,*53
06/21/2015	11:05:06.545	$GPGGA,110507,2426.6848,N,08141.4949,W,1,9,1.9,13,M,,M,,*5D
06/21/2015	11:05:07.554	$GPGGA,110508,2426.6852,N,08141.4950,W,1,9,1.9,13,M,,M,,*51
06/21/2015	11:05:08.534	$GPGGA,110509,2426.6854,N,08141.4950,W,1,9,1.9,13,M,,M,,*56
06/21/2015	11:05:09.544	$GPGGA,110510,2426.6853,N,08141.4948,W,1,9,1.9,13,M,,M,,*50
06/21/2015	11:05:10.605	$GPGGA,110511,2426.6852,N,08141.4951,W,1,9,1.9,13,M,,M,,*58
06/21/2015	11:05:11.654	$GPGGA,110512,2426.6854,N,08141.4953,W,1,10,1.5,13,M,,M,,*6B
06/21/2015	11:05:12.534	$GPGGA,110513,2426.6854,N,08141.4953,W,1,10,1.5,13,M,,M,,*6A
06/21/2015	11:05:13.644	$GPGGA,110514,2426.6855,N,08141.4952,W,1,10,1.5,13,M,,M,,*6D
06/21/2015	11:05:14.614	$GPGGA,110515,2426.6855,N,08141.4953,W,1,10,1.5,13,M,,M,,*6D
06/21/2015	11:05:15.575	$GPGGA,110516,2426.6857,N,08141.4952,W,1,10,1.5,13,M,,M,,*6D
06/21/2015	11:05:16.595	$GPGGA,110517,2426.6858,N,08141.4951,W,1,10,1.5,13,M,,M,,*60
06/21/2015	11:05:17.614	$GPGGA,110518,2426.6859,N,08141.4950,W,1,10,1.5,13,M,,M,,*6F
06/21/2015	11:05:18.524	$GPGGA,110519,2426.6861,N,08141.4950,W,1,10,1.6,13,M,,M,,*66
06/21/2015	11:05:19.608	$GPGGA,110520,2426.6862,N,08141.4948,W,1,9,1.5,13,M,,M,,*5D
06/21/2015	11:05:20.598	$GPGGA,110521,2426.6862,N,08141.4945,W,1,9,1.5,13,M,,M,,*51
06/21/2015	11:05:21.606	$GPGGA,110522,2426.6865,N,08141.4946,W,1,10,1.5,13,M,,M,,*6E
06/21/2015	11:05:22.506	$GPGGA,110523,2426.6866,N,08141.4945,W,1,10,1.5,13,M,,M,,*6F
06/21/2015	11:05:23.635	$GPGGA,110524,2426.6866,N,08141.4944,W,1,10,1.5,13,M,,M,,*69
06/21/2015	11:05:24.584	$GPGGA,110525,2426.6866,N,08141.4943,W,1,10,1.5,13,M,,M,,*6F
06/21/2015	11:05:25.604	$GPGGA,110526,2426.6868,N,08141.4942,W,1,10,1.5,13,M,,M,,*63
06/21/2015	11:05:26.584	$GPGGA,110527,2426.6869,N,08141.4943,W,1,10,1.5,13,M,,M,,*62
06/21/2015	11:05:27.634	$GPGGA,110528,2426.6870,N,08141.4943,W,1,10,1.5,13,M,,M,,*65
06/21/2015	11:05:28.574	$GPGGA,110529,2426.6870,N,08141.4942,W,1,10,1.5,13,M,,M,,*65
06/21/2015	11:05:30.034	$GPGGA,110530,2426.6873,N,08141.4941,W,1,10,1.5,14,M,,M,,*6A
06/21/2015	11:05:30.564	$GPGGA,110531,2426.6873,N,08141.4942,W,1,10,1.5,14,M,,M,,*68
06/21/2015	11:05:31.605	$GPGGA,110532,2426.6875,N,08141.4941,W,1,10,1.5,14,M,,M,,*6E
06/21/2015	11:05:32.574	$GPGGA,110533,2426.6874,N,08141.4940,W,1,10,1.5,14,M,,M,,*6F
06/21/2015	11:05:33.584	$GPGGA,110534,2426.6877,N,08141.4939,W,1,10,1.5,14,M,,M,,*65
06/21/2015	11:05:34.574	$GPGGA,110535,2426.6877,N,08141.4939,W,1,10,1.5,14,M,,M,,*64
06/21/2015	11:05:35.604	$GPGGA,110536,2426.6879,N,08141.4939,W,1,10,1.5,14,M,,M,,*69
06/21/2015	11:05:36.556	$GPGGA,110537,2426.6880,N,08141.4939,W,1,10,1.5,14,M,,M,,*6E
06/21/2015	11:05:37.585	$GPGGA,110538,2426.6881,N,08141.4937,W,1,10,1.5,14,M,,M,,*6E
06/21/2015	11:05:38.565	$GPGGA,110539,2426.6883,N,08141.4935,W,1,10,1.9,14,M,,M,,*63
06/21/2015	11:05:39.597	$GPGGA,110540,2426.6884,N,08141.4935,W,1,9,1.9,14,M,,M,,*52
06/21/2015	11:05:40.555	$GPGGA,110541,2426.6884,N,08141.4936,W,1,9,1.5,14,M,,M,,*5C
06/21/2015	11:05:41.585	$GPGGA,110542,2426.6886,N,08141.4936,W,1,10,1.5,14,M,,M,,*65
06/21/2015	11:05:42.544	$GPGGA,110543,2426.6887,N,08141.4935,W,1,10,1.5,14,M,,M,,*66
06/21/2015	11:05:43.564	$GPGGA,110544,2426.6888,N,08141.4935,W,1,10,1.5,14,M,,M,,*6E
06/21/2015	11:05:44.554	$GPGGA,110545,2426.6888,N,08141.4935,W,1,10,1.5,14,M,,M,,*6F
06/21/2015	11:05:45.544	$GPGGA,110546,2426.6890,N,08141.4935,W,1,10,1.5,14,M,,M,,*65
06/21/2015	11:05:46.554	$GPGGA,110547,2426.6891,N,08141.4933,W,1,10,1.5,14,M,,M,,*63
06/21/2015	11:05:47.664	$GPGGA,110548,2426.6893,N,08141.4933,W,1,10,1.5,14,M,,M,,*6E
06/21/2015	11:05:48.544	$GPGGA,110549,2426.6894,N,08141.4933,W,1,10,1.5,14,M,,M,,*68
06/21/2015	11:05:49.564	$GPGGA,110550,2426.6895,N,08141.4933,W,1,10,1.5,14,M,,M,,*61
06/21/2015	11:05:50.534	$GPGGA,110551,2426.6895,N,08141.4932,W,1,10,1.7,14,M,,M,,*63
06/21/2015	11:05:51.574	$GPGGA,110552,2426.6898,N,08141.4932,W,1,10,1.5,14,M,,M,,*6F
06/21/2015	11:05:52.544	$GPGGA,110553,2426.6898,N,08141.4932,W,1,10,1.5,14,M,,M,,*6E
06/21/2015	11:05:53.554	$GPGGA,110554,2426.6901,N,08141.4931,W,1,10,1.5,14,M,,M,,*6B
06/21/2015	11:05:54.645	$GPGGA,110555,2426.6902,N,08141.4932,W,1,10,1.7,14,M,,M,,*68
06/21/2015	11:05:55.555	$GPGGA,110556,2426.6904,N,08141.4931,W,1,10,1.5,14,M,,M,,*6C
06/21/2015	11:05:56.525	$GPGGA,110557,2426.6905,N,08141.4930,W,1,10,1.5,14,M,,M,,*6D
06/21/2015	11:05:57.625	$GPGGA,110558,2426.6906,N,08141.4931,W,1,10,1.5,14,M,,M,,*60
06/21/2015	11:05:58.535	$GPGGA,110559,2426.6908,N,08141.4930,W,1,10,1.5,14,M,,M,,*6E
06/21/2015	11:05:59.634	$GPGGA,110600,2426.6909,N,08141.4931,W,1,10,1.5,14,M,,M,,*61
06/21/2015	11:06:00.524	$GPGGA,110601,2426.6911,N,08141.4929,W,1,10,1.5,14,M,,M,,*60
06/21/2015	11:06:01.604	$GPGGA,110602,2426.6912,N,08141.4929,W,1,10,1.5,14,M,,M,,*60
06/21/2015	11:06:02.614	$GPGGA,110603,2426.6913,N,08141.4928,W,1,10,1.5,14,M,,M,,*61
06/21/2015	11:06:03.624	$GPGGA,110604,2426.6915,N,08141.4929,W,1,10,1.5,14,M,,M,,*61
06/21/2015	11:06:04.514	$GPGGA,110605,2426.6916,N,08141.4928,W,1,10,1.5,14,M,,M,,*62
06/21/2015	11:06:05.598	$GPGGA,110606,2426.6917,N,08141.4927,W,1,10,1.5,14,M,,M,,*6F
06/21/2015	11:06:06.594	$GPGGA,110607,2426.6917,N,08141.4928,W,1,10,1.5,14,M,,M,,*61
06/21/2015	11:06:07.634	$GPGGA,110608,2426.6917,N,08141.4926,W,1,10,1.5,14,M,,M,,*60
06/21/2015	11:06:08.611	$GPGGA,110609,2426.6920,N,08141.4926,W,1,10,1.5,14,M,,M,,*65
06/21/2015	11:06:09.624	$GPGGA,110610,2426.6920,N,08141.4926,W,1,10,1.5,14,M,,M,,*6D
06/21/2015	11:06:10.595	$GPGGA,110611,2426.6922,N,08141.4925,W,1,10,1.5,13,M,,M,,*6A
06/21/2015	11:06:11.597	$GPGGA,110612,2426.6923,N,08141.4924,W,1,10,1.5,13,M,,M,,*69
06/21/2015	11:06:12.585	$GPGGA,110613,2426.6924,N,08141.4923,W,1,10,1.5,13,M,,M,,*68
06/21/2015	11:06:13.608	$GPGGA,110614,2426.6926,N,08141.4924,W,1,10,1.5,13,M,,M,,*6A
06/21/2015	11:06:14.586	$GPGGA,110615,2426.6927,N,08141.4924,W,1,10,1.5,13,M,,M,,*6A
06/21/2015	11:06:15.597	$GPGGA,110616,2426.6926,N,08141.4923,W,1,10,1.5,13,M,,M,,*6F
06/21/2015	11:06:16.585	$GPGGA,110617,2426.6927,N,08141.4922,W,1,10,1.5,13,M,,M,,*6E
06/21/2015	11:06:17.574	$GPGGA,110618,2426.6930,N,08141.4924,W,1,10,1.5,13,M,,M,,*61
06/21/2015	11:06:18.584	$GPGGA,110619,2426.6931,N,08141.4923,W,1,10,1.5,13,M,,M,,*66
06/21/2015	11:06:19.614	$GPGGA,110620,2426.6931,N,08141.4922,W,1,10,1.5,13,M,,M,,*6D
06/21/2015	11:06:20.564	$GPGGA,110621,2426.6933,N,08141.4921,W,1,10,1.5,13,M,,M,,*6D
06/21/2015	11:06:21.574	$GPGGA,110622,2426.6934,N,08141.4921,W,1,10,1.5,13,M,,M,,*69
06/21/2015	11:06:22.574	$GPGGA,110623,2426.6935,N,08141.4921,W,1,10,1.5,13,M,,M,,*69
06/21/2015	11:06:23.595	$GPGGA,110624,2426.6935,N,08141.4920,W,1,10,1.5,13,M,,M,,*6F
06/21/2015	11:06:24.574	$GPGGA,110625,2426.6937,N,08141.4921,W,1,10,1.5,13,M,,M,,*6D
06/21/2015	11:06:25.584	$GPGGA,110626,2426.6938,N,08141.4920,W,1,10,1.5,13,M,,M,,*60
06/21/2015	11:06:26.564	$GPGGA,110627,2426.6938,N,08141.4919,W,1,10,1.5,13,M,,M,,*6B
06/21/2015	11:06:27.596	$GPGGA,110628,2426.6940,N,08141.4920,W,1,10,1.5,13,M,,M,,*61
06/21/2015	11:06:28.564	$GPGGA,110629,2426.6941,N,08141.4919,W,1,10,1.5,13,M,,M,,*6B
06/21/2015	11:06:29.545	$GPGGA,110630,2426.6942,N,08141.4920,W,1,10,1.5,13,M,,M,,*6A
06/21/2015	11:06:30.555	$GPGGA,110631,2426.6942,N,08141.4918,W,1,10,1.5,13,M,,M,,*60
06/21/2015	11:06:31.575	$GPGGA,110632,2426.6944,N,08141.4917,W,1,10,1.5,13,M,,M,,*6A
06/21/2015	11:06:32.555	$GPGGA,110633,2426.6945,N,08141.4917,W,1,10,1.5,13,M,,M,,*6A
06/21/2015	11:06:33.535	$GPGGA,110634,2426.6946,N,08141.4918,W,1,10,1.5,13,M,,M,,*61
06/21/2015	11:06:34.554	$GPGGA,110635,2426.6946,N,08141.4917,W,1,10,1.5,13,M,,M,,*6F
06/21/2015	11:06:35.594	$GPGGA,110636,2426.6948,N,08141.4916,W,1,10,1.5,13,M,,M,,*63
06/21/2015	11:06:36.544	$GPGGA,110637,2426.6949,N,08141.4915,W,1,10,1.5,13,M,,M,,*60
06/21/2015	11:06:37.544	$GPGGA,110638,2426.6951,N,08141.4915,W,1,10,1.5,13,M,,M,,*66
06/21/2015	11:06:38.524	$GPGGA,110639,2426.6952,N,08141.4914,W,1,10,1.5,13,M,,M,,*65
06/21/2015	11:06:39.534	$GPGGA,110640,2426.6953,N,08141.4914,W,1,10,1.5,13,M,,M,,*6A
06/21/2015	11:06:40.644	$GPGGA,110641,2426.6953,N,08141.4913,W,1,10,1.5,13,M,,M,,*6C
06/21/2015	11:06:41.524	$GPGGA,110642,2426.6956,N,08141.4912,W,1,10,1.5,13,M,,M,,*6B
06/21/2015	11:06:42.624	$GPGGA,110643,2426.6958,N,08141.4913,W,1,10,1.5,13,M,,M,,*65
06/21/2015	11:06:43.624	$GPGGA,110644,2426.6959,N,08141.4913,W,1,10,1.5,13,M,,M,,*63
06/21/2015	11:06:44.524	$GPGGA,110645,2426.6960,N,08141.4911,W,1,10,1.5,13,M,,M,,*6A
06/21/2015	11:06:45.534	$GPGGA,110646,2426.6960,N,08141.4909,W,1,10,1.5,13,M,,M,,*60
06/21/2015	11:06:46.525	$GPGGA,110647,2426.6964,N,08141.4910,W,1,10,1.5,13,M,,M,,*6D
06/21/2015	11:06:47.645	$GPGGA,110648,2426.6964,N,08141.4910,W,1,10,1.5,13,M,,M,,*62
06/21/2015	11:06:48.535	$GPGGA,110649,2426.6967,N,08141.4908,W,1,10,1.5,13,M,,M,,*69
06/21/2015	11:06:49.615	$GPGGA,110650,2426.6967,N,08141.4907,W,1,10,1.5,13,M,,M,,*6E
06/21/2015	11:06:50.515	$GPGGA,110651,2426.6970,N,08141.4907,W,1,10,1.5,13,M,,M,,*69
06/21/2015	11:06:51.645	$GPGGA,110652,2426.6971,N,08141.4907,W,1,10,1.5,12,M,,M,,*6A
06/21/2015	11:06:52.607	$GPGGA,110653,2426.6973,N,08141.4907,W,1,10,1.5,12,M,,M,,*69
06/21/2015	11:06:53.624	$GPGGA,110654,2426.6974,N,08141.4906,W,1,10,1.5,12,M,,M,,*68
06/21/2015	11:06:54.595	$GPGGA,110655,2426.6974,N,08141.4905,W,1,10,1.5,12,M,,M,,*6A
06/21/2015	11:06:55.624	$GPGGA,110656,2426.6975,N,08141.4906,W,1,10,1.5,12,M,,M,,*6B
06/21/2015	11:06:56.604	$GPGGA,110657,2426.6978,N,08141.4905,W,1,10,1.5,12,M,,M,,*64
06/21/2015	11:06:57.624	$GPGGA,110658,2426.6978,N,08141.4906,W,1,10,1.5,12,M,,M,,*68
06/21/2015	11:06:58.584	$GPGGA,110659,2426.6980,N,08141.4903,W,1,10,1.5,12,M,,M,,*6B
06/21/2015	11:06:59.634	$GPGGA,110700,2426.6981,N,08141.4902,W,1,10,1.5,12,M,,M,,*66
06/21/2015	11:07:00.595	$GPGGA,110701,2426.6982,N,08141.4902,W,1,10,1.5,12,M,,M,,*64
06/21/2015	11:07:01.606	$GPGGA,110702,2426.6984,N,08141.4902,W,1,10,1.5,12,M,,M,,*61
06/21/2015	11:07:02.604	$GPGGA,110703,2426.6985,N,08141.4901,W,1,10,1.5,12,M,,M,,*62
06/21/2015	11:07:03.615	$GPGGA,110704,2426.6985,N,08141.4900,W,1,10,1.5,12,M,,M,,*64
06/21/2015	11:07:04.575	$GPGGA,110705,2426.6987,N,08141.4900,W,1,10,1.5,12,M,,M,,*67
06/21/2015	11:07:05.595	$GPGGA,110706,2426.6988,N,08141.4899,W,1,10,1.5,12,M,,M,,*6A
06/21/2015	11:07:06.595	$GPGGA,110707,2426.6989,N,08141.4898,W,1,10,1.5,12,M,,M,,*6B
06/21/2015	11:07:07.606	$GPGGA,110708,2426.6992,N,08141.4899,W,1,10,1.5,11,M,,M,,*6C
06/21/2015	11:07:08.565	$GPGGA,110709,2426.6992,N,08141.4898,W,1,10,1.5,11,M,,M,,*6C
06/21/2015	11:07:09.606	$GPGGA,110710,2426.6992,N,08141.4896,W,1,10,1.5,11,M,,M,,*6A
06/21/2015	11:07:10.564	$GPGGA,110711,2426.6995,N,08141.4896,W,1,10,1.5,11,M,,M,,*6C
06/21/2015	11:07:11.595	$GPGGA,110712,2426.6996,N,08141.4896,W,1,10,1.5,11,M,,M,,*6C
06/21/2015	11:07:12.565	$GPGGA,110713,2426.6996,N,08141.4895,W,1,10,1.5,11,M,,M,,*6E
06/21/2015	11:07:13.554	$GPGGA,110714,2426.6998,N,08141.4894,W,1,10,1.5,11,M,,M,,*66
06/21/2015	11:07:14.564	$GPGGA,110715,2426.6999,N,08141.4893,W,1,10,1.5,11,M,,M,,*61
06/21/2015	11:07:15.584	$GPGGA,110716,2426.7000,N,08141.4893,W,1,10,1.5,11,M,,M,,*6A
06/21/2015	11:07:16.564	$GPGGA,110717,2426.7000,N,08141.4892,W,1,10,1.5,11,M,,M,,*6A
06/21/2015	11:07:17.584	$GPGGA,110718,2426.7002,N,08141.4892,W,1,10,1.5,11,M,,M,,*67
06/21/2015	11:07:18.544	$GPGGA,110719,2426.7003,N,08141.4891,W,1,10,1.5,11,M,,M,,*64
06/21/2015	11:07:19.574	$GPGGA,110720,2426.7003,N,08141.4890,W,1,10,1.5,11,M,,M,,*6F
06/21/2015	11:07:20.544	$GPGGA,110721,2426.7005,N,08141.4889,W,1,10,1.5,11,M,,M,,*60
06/21/2015	11:07:21.545	$GPGGA,110722,2426.7006,N,08141.4889,W,1,10,1.5,11,M,,M,,*60
06/21/2015	11:07:22.555	$GPGGA,110723,2426.7007,N,08141.4889,W,1,10,1.5,11,M,,M,,*60
06/21/2015	11:07:23.575	$GPGGA,110724,2426.7009,N,08141.4888,W,1,10,1.5,11,M,,M,,*68
06/21/2015	11:07:24.535	$GPGGA,110725,2426.7010,N,08141.4887,W,1,10,1.5,11,M,,M,,*6E
06/21/2015	11:07:25.555	$GPGGA,110726,2426.7010,N,08141.4888,W,1,10,1.5,11,M,,M,,*62
06/21/2015	11:07:26.545	$GPGGA,110727,2426.7013,N,08141.4887,W,1,10,1.5,10,M,,M,,*6E
06/21/2015	11:07:27.594	$GPGGA,110728,2426.7012,N,08141.4886,W,1,10,1.5,10,M,,M,,*61
06/21/2015	11:07:28.674	$GPGGA,110729,2426.7014,N,08141.4885,W,1,10,1.5,10,M,,M,,*65
06/21/2015	11:07:29.534	$GPGGA,110730,2426.7016,N,08141.4885,W,1,10,1.5,10,M,,M,,*6F
06/21/2015	11:07:30.524	$GPGGA,110731,2426.7017,N,08141.4884,W,1,10,1.5,10,M,,M,,*6E
06/21/2015	11:07:31.554	$GPGGA,110732,2426.7016,N,08141.4883,W,1,10,1.5,10,M,,M,,*6B
06/21/2015	11:07:32.524	$GPGGA,110733,2426.7018,N,08141.4884,W,1,10,1.5,10,M,,M,,*63
06/21/2015	11:07:33.534	$GPGGA,110734,2426.7020,N,08141.4883,W,1,10,1.5,10,M,,M,,*68
06/21/2015	11:07:34.644	$GPGGA,110735,2426.7021,N,08141.4882,W,1,10,1.5,10,M,,M,,*69
06/21/2015	11:07:35.624	$GPGGA,110736,2426.7024,N,08141.4882,W,1,10,1.5,10,M,,M,,*6F
06/21/2015	11:07:36.514	$GPGGA,110737,2426.7025,N,08141.4884,W,1,10,1.9,10,M,,M,,*65
06/21/2015	11:07:37.698	$GPGGA,110738,2426.7029,N,08141.4884,W,1,10,1.5,10,M,,M,,*6A
06/21/2015	11:07:38.907	$GPGGA,110739,2426.7029,N,08141.4883,W,1,10,1.5,10,M,,M,,*6C
06/21/2015	11:07:39.710	$GPGGA,110740,2426.7031,N,08141.4884,W,1,10,1.5,10,M,,M,,*6C
06/21/2015	11:07:40.645	$GPGGA,110741,2426.7032,N,08141.4886,W,1,10,1.5,10,M,,M,,*6C
06/21/2015	11:07:41.698	$GPGGA,110742,2426.7031,N,08141.4886,W,1,10,1.5,10,M,,M,,*6C
06/21/2015	11:07:42.600	$GPGGA,110743,2426.7032,N,08141.4886,W,1,10,1.9,10,M,,M,,*62
06/21/2015	11:07:43.698	$GPGGA,110744,2426.7032,N,08141.4888,W,1,10,1.5,10,M,,M,,*67
06/21/2015	11:07:44.634	$GPGGA,110745,2426.7032,N,08141.4888,W,1,10,1.5,11,M,,M,,*67
06/21/2015	11:07:45.684	$GPGGA,110746,2426.7031,N,08141.4891,W,1,10,1.5,11,M,,M,,*6F
06/21/2015	11:07:46.624	$GPGGA,110747,2426.7030,N,08141.4892,W,1,10,1.5,11,M,,M,,*6C
06/21/2015	11:07:47.709	$GPGGA,110748,2426.7029,N,08141.4892,W,1,10,1.5,11,M,,M,,*6B
06/21/2015	11:07:48.614	$GPGGA,110749,2426.7029,N,08141.4893,W,1,10,1.5,11,M,,M,,*6B
06/21/2015	11:07:49.584	$GPGGA,110750,2426.7027,N,08141.4895,W,1,10,1.5,11,M,,M,,*6B
06/21/2015	11:07:50.614	$GPGGA,110751,2426.7025,N,08141.4897,W,1,10,1.5,11,M,,M,,*6A
06/21/2015	11:07:51.697	$GPGGA,110752,2426.7023,N,08141.4896,W,1,10,1.5,11,M,,M,,*6E
06/21/2015	11:07:52.574	$GPGGA,110753,2426.7022,N,08141.4897,W,1,10,1.5,11,M,,M,,*6F
06/21/2015	11:07:53.703	$GPGGA,110754,2426.7020,N,08141.4899,W,1,10,1.5,11,M,,M,,*64
06/21/2015	11:07:54.574	$GPGGA,110755,2426.7018,N,08141.4900,W,1,10,1.5,11,M,,M,,*6F
06/21/2015	11:07:55.703	$GPGGA,110756,2426.7016,N,08141.4900,W,1,10,1.5,11,M,,M,,*62
06/21/2015	11:07:56.598	$GPGGA,110757,2426.7012,N,08141.4900,W,1,10,1.7,11,M,,M,,*65
06/21/2015	11:07:57.655	$GPGGA,110758,2426.7010,N,08141.4900,W,1,10,1.5,11,M,,M,,*6A
06/21/2015	11:07:58.565	$GPGGA,110759,2426.7008,N,08141.4902,W,1,10,1.5,11,M,,M,,*60
06/21/2015	11:07:59.704	$GPGGA,110800,2426.7005,N,08141.4901,W,1,10,1.5,11,M,,M,,*6D
06/21/2015	11:08:00.565	$GPGGA,110801,2426.7003,N,08141.4902,W,1,10,1.5,11,M,,M,,*69
06/21/2015	11:08:01.675	$GPGGA,110802,2426.7001,N,08141.4903,W,1,9,1.5,11,M,,M,,*51
06/21/2015	11:08:02.554	$GPGGA,110803,2426.7000,N,08141.4903,W,1,9,1.5,11,M,,M,,*51
06/21/2015	11:08:03.564	$GPGGA,110804,2426.6996,N,08141.4903,W,1,10,1.5,11,M,,M,,*69
06/21/2015	11:08:04.584	$GPGGA,110805,2426.6994,N,08141.4903,W,1,10,1.5,11,M,,M,,*6A
06/21/2015	11:08:05.544	$GPGGA,110806,2426.6991,N,08141.4906,W,1,10,1.5,11,M,,M,,*69
06/21/2015	11:08:06.574	$GPGGA,110807,2426.6989,N,08141.4905,W,1,10,1.5,11,M,,M,,*62
06/21/2015	11:08:07.544	$GPGGA,110808,2426.6985,N,08141.4906,W,1,10,1.5,11,M,,M,,*62
06/21/2015	11:08:08.574	$GPGGA,110809,2426.6983,N,08141.4908,W,1,10,1.7,11,M,,M,,*69
06/21/2015	11:08:09.654	$GPGGA,110810,2426.6982,N,08141.4908,W,1,10,1.5,11,M,,M,,*62
06/21/2015	11:08:10.534	$GPGGA,110811,2426.6979,N,08141.4908,W,1,10,1.9,11,M,,M,,*6B
06/21/2015	11:08:11.614	$GPGGA,110812,2426.6976,N,08141.4907,W,1,9,1.7,11,M,,M,,*5E
06/21/2015	11:08:12.644	$GPGGA,110813,2426.6977,N,08141.4908,W,1,9,1.5,11,M,,M,,*53
06/21/2015	11:08:13.524	$GPGGA,110814,2426.6974,N,08141.4908,W,1,10,1.5,11,M,,M,,*6F
06/21/2015	11:08:14.524	$GPGGA,110815,2426.6971,N,08141.4908,W,1,10,1.5,11,M,,M,,*6B
06/21/2015	11:08:15.644	$GPGGA,110816,2426.6968,N,08141.4908,W,1,9,1.5,12,M,,M,,*5B
06/21/2015	11:08:16.514	$GPGGA,110817,2426.6965,N,08141.4910,W,1,9,1.5,12,M,,M,,*5E
06/21/2015	11:08:17.604	$GPGGA,110818,2426.6964,N,08141.4908,W,1,10,1.5,12,M,,M,,*61
06/21/2015	11:08:18.514	$GPGGA,110819,2426.6960,N,08141.4907,W,1,10,1.5,12,M,,M,,*6B
06/21/2015	11:08:19.623	$GPGGA,110820,2426.6957,N,08141.4908,W,1,10,1.5,12,M,,M,,*6A
06/21/2015	11:08:20.543	$GPGGA,110821,2426.6954,N,08141.4910,W,1,10,1.5,12,M,,M,,*61
06/21/2015	11:08:21.603	$GPGGA,110822,2426.6950,N,08141.4907,W,1,10,1.5,12,M,,M,,*60
06/21/2015	11:08:22.553	$GPGGA,110823,2426.6946,N,08141.4905,W,1,10,1.5,12,M,,M,,*64
06/21/2015	11:08:23.633	$GPGGA,110824,2426.6942,N,08141.4906,W,1,10,1.5,12,M,,M,,*64
06/21/2015	11:08:24.554	$GPGGA,110825,2426.6938,N,08141.4905,W,1,10,1.9,12,M,,M,,*67
06/21/2015	11:08:25.645	$GPGGA,110826,2426.6933,N,08141.4906,W,1,9,1.5,12,M,,M,,*58
06/21/2015	11:08:26.524	$GPGGA,110827,2426.6929,N,08141.4902,W,1,9,1.5,12,M,,M,,*56
06/21/2015	11:08:27.624	$GPGGA,110828,2426.6925,N,08141.4901,W,1,10,1.5,12,M,,M,,*6E
06/21/2015	11:08:28.614	$GPGGA,110829,2426.6920,N,08141.4900,W,1,10,1.5,12,M,,M,,*6B
06/21/2015	11:08:29.644	$GPGGA,110830,2426.6917,N,08141.4898,W,1,10,1.5,12,M,,M,,*67
06/21/2015	11:08:30.586	$GPGGA,110831,2426.6911,N,08141.4896,W,1,10,1.5,12,M,,M,,*6E
06/21/2015	11:08:31.594	$GPGGA,110832,2426.6906,N,08141.4895,W,1,10,1.5,12,M,,M,,*68
06/21/2015	11:08:32.594	$GPGGA,110833,2426.6902,N,08141.4892,W,1,10,1.5,12,M,,M,,*6A
06/21/2015	11:08:33.604	$GPGGA,110834,2426.6896,N,08141.4890,W,1,10,1.5,13,M,,M,,*62
06/21/2015	11:08:34.587	$GPGGA,110835,2426.6896,N,08141.4890,W,1,10,1.5,13,M,,M,,*63
06/21/2015	11:08:35.614	$GPGGA,110836,2426.6888,N,08141.4887,W,1,10,1.5,13,M,,M,,*69
06/21/2015	11:08:36.598	$GPGGA,110837,2426.6882,N,08141.4884,W,1,10,1.5,13,M,,M,,*61
06/21/2015	11:08:37.603	$GPGGA,110838,2426.6877,N,08141.4881,W,1,10,1.5,13,M,,M,,*61
06/21/2015	11:08:38.573	$GPGGA,110839,2426.6873,N,08141.4878,W,1,10,1.5,13,M,,M,,*62
06/21/2015	11:08:39.643	$GPGGA,110840,2426.6868,N,08141.4876,W,1,10,1.5,13,M,,M,,*68
06/21/2015	11:08:40.583	$GPGGA,110841,2426.6863,N,08141.4873,W,1,10,1.5,13,M,,M,,*67
06/21/2015	11:08:41.604	$GPGGA,110842,2426.6859,N,08141.4870,W,1,10,1.5,13,M,,M,,*6E
06/21/2015	11:08:42.574	$GPGGA,110843,2426.6855,N,08141.4866,W,1,10,1.5,13,M,,M,,*64
06/21/2015	11:08:43.624	$GPGGA,110844,2426.6849,N,08141.4863,W,1,10,1.5,13,M,,M,,*6B
06/21/2015	11:08:44.564	$GPGGA,110845,2426.6844,N,08141.4860,W,1,10,1.5,13,M,,M,,*64
06/21/2015	11:08:45.599	$GPGGA,110846,2426.6839,N,08141.4856,W,1,10,1.5,13,M,,M,,*68
06/21/2015	11:08:46.564	$GPGGA,110847,2426.6834,N,08141.4852,W,1,10,1.5,13,M,,M,,*60
06/21/2015	11:08:47.614	$GPGGA,110848,2426.6830,N,08141.4848,W,1,10,1.5,13,M,,M,,*60
06/21/2015	11:08:48.554	$GPGGA,110849,2426.6824,N,08141.4843,W,1,10,1.5,13,M,,M,,*6F
06/21/2015	11:08:49.594	$GPGGA,110850,2426.6819,N,08141.4840,W,1,10,1.5,13,M,,M,,*6A
06/21/2015	11:08:50.574	$GPGGA,110851,2426.6814,N,08141.4837,W,1,10,1.5,13,M,,M,,*66
06/21/2015	11:08:51.601	$GPGGA,110852,2426.6814,N,08141.4837,W,1,10,1.5,13,M,,M,,*65
06/21/2015	11:08:52.564	$GPGGA,110853,2426.6805,N,08141.4827,W,1,10,1.5,13,M,,M,,*65
06/21/2015	11:08:53.644	$GPGGA,110854,2426.6799,N,08141.4823,W,1,10,1.5,13,M,,M,,*6C
06/21/2015	11:08:54.553	$GPGGA,110855,2426.6794,N,08141.4819,W,1,10,1.9,13,M,,M,,*65
06/21/2015	11:08:55.623	$GPGGA,110856,2426.6787,N,08141.4815,W,1,9,1.5,13,M,,M,,*5C
06/21/2015	11:08:56.533	$GPGGA,110857,2426.6783,N,08141.4810,W,1,9,1.5,13,M,,M,,*5C
06/21/2015	11:08:57.573	$GPGGA,110858,2426.6783,N,08141.4810,W,1,10,1.5,13,M,,M,,*6B
06/21/2015	11:08:58.553	$GPGGA,110859,2426.6776,N,08141.4806,W,1,10,1.5,13,M,,M,,*67
06/21/2015	11:08:59.564	$GPGGA,110900,2426.6770,N,08141.4802,W,1,10,1.5,13,M,,M,,*68
06/21/2015	11:09:00.534	$GPGGA,110901,2426.6760,N,08141.4792,W,1,10,1.5,13,M,,M,,*6E
06/21/2015	11:09:01.597	$GPGGA,110902,2426.6754,N,08141.4788,W,1,10,1.5,13,M,,M,,*61
06/21/2015	11:09:02.544	$GPGGA,110903,2426.6748,N,08141.4783,W,1,10,1.5,13,M,,M,,*66
06/21/2015	11:09:03.564	$GPGGA,110904,2426.6748,N,08141.4783,W,1,10,1.5,13,M,,M,,*61
06/21/2015	11:09:04.534	$GPGGA,110905,2426.6737,N,08141.4773,W,1,10,1.5,13,M,,M,,*67
06/21/2015	11:09:05.634	$GPGGA,110906,2426.6731,N,08141.4768,W,1,10,1.5,13,M,,M,,*68
06/21/2015	11:09:06.534	$GPGGA,110907,2426.6725,N,08141.4763,W,1,10,1.5,13,M,,M,,*67
06/21/2015	11:09:07.634	$GPGGA,110908,2426.6720,N,08141.4758,W,1,10,1.5,13,M,,M,,*65
06/21/2015	11:09:08.524	$GPGGA,110909,2426.6714,N,08141.4753,W,1,10,1.5,13,M,,M,,*68
06/21/2015	11:09:09.644	$GPGGA,110910,2426.6708,N,08141.4748,W,1,10,1.5,13,M,,M,,*67
06/21/2015	11:09:10.524	$GPGGA,110911,2426.6702,N,08141.4743,W,1,10,1.5,13,M,,M,,*67
06/21/2015	11:09:11.654	$GPGGA,110912,2426.6697,N,08141.4737,W,1,10,1.5,13,M,,M,,*6A
06/21/2015	11:09:12.513	$GPGGA,110913,2426.6691,N,08141.4733,W,1,10,1.5,13,M,,M,,*69
06/21/2015	11:09:13.613	$GPGGA,110914,2426.6684,N,08141.4728,W,1,10,1.5,13,M,,M,,*60
06/21/2015	11:09:14.603	$GPGGA,110915,2426.6678,N,08141.4722,W,1,10,1.5,13,M,,M,,*68
06/21/2015	11:09:15.643	$GPGGA,110916,2426.6678,N,08141.4722,W,1,10,1.5,13,M,,M,,*6B
06/21/2015	11:09:16.594	$GPGGA,110917,2426.6666,N,08141.4712,W,1,10,1.5,13,M,,M,,*66
06/21/2015	11:09:17.624	$GPGGA,110918,2426.6660,N,08141.4707,W,1,10,1.5,13,M,,M,,*6B
06/21/2015	11:09:18.597	$GPGGA,110919,2426.6653,N,08141.4702,W,1,10,1.5,13,M,,M,,*6F
06/21/2015	11:09:20.147	$GPGGA,110920,2426.6647,N,08141.4698,W,1,10,1.5,13,M,,M,,*62
06/21/2015	11:09:20.597	$GPGGA,110921,2426.6640,N,08141.4693,W,1,10,1.5,13,M,,M,,*6F
06/21/2015	11:09:21.614	$GPGGA,110922,2426.6633,N,08141.4687,W,1,10,1.5,13,M,,M,,*6D
06/21/2015	11:09:22.586	$GPGGA,110923,2426.6628,N,08141.4683,W,1,10,1.5,13,M,,M,,*62
06/21/2015	11:09:23.604	$GPGGA,110924,2426.6620,N,08141.4679,W,1,10,1.5,13,M,,M,,*68
06/21/2015	11:09:24.585	$GPGGA,110925,2426.6614,N,08141.4674,W,1,10,1.5,13,M,,M,,*63
06/21/2015	11:09:25.574	$GPGGA,110926,2426.6607,N,08141.4669,W,1,10,1.5,13,M,,M,,*6E
06/21/2015	11:09:26.574	$GPGGA,110927,2426.6600,N,08141.4665,W,1,10,1.5,13,M,,M,,*64
06/21/2015	11:09:27.624	$GPGGA,110928,2426.6593,N,08141.4660,W,1,10,1.5,13,M,,M,,*67
06/21/2015	11:09:28.574	$GPGGA,110929,2426.6586,N,08141.4654,W,1,10,1.5,13,M,,M,,*65
06/21/2015	11:09:29.603	$GPGGA,110930,2426.6579,N,08141.4651,W,1,10,1.5,13,M,,M,,*68
06/21/2015	11:09:30.563	$GPGGA,110931,2426.6572,N,08141.4647,W,1,10,1.5,13,M,,M,,*65
06/21/2015	11:09:31.613	$GPGGA,110932,2426.6566,N,08141.4640,W,1,10,1.5,13,M,,M,,*64
06/21/2015	11:09:32.563	$GPGGA,110933,2426.6559,N,08141.4636,W,1,10,1.9,13,M,,M,,*64
06/21/2015	11:09:33.594	$GPGGA,110934,2426.6549,N,08141.4635,W,1,10,1.5,13,M,,M,,*6D
06/21/2015	11:09:34.554	$GPGGA,110935,2426.6541,N,08141.4633,W,1,10,1.5,13,M,,M,,*62
06/21/2015	11:09:35.584	$GPGGA,110936,2426.6534,N,08141.4627,W,1,10,1.5,13,M,,M,,*66
06/21/2015	11:09:36.554	$GPGGA,110937,2426.6527,N,08141.4622,W,1,10,1.9,13,M,,M,,*6C
06/21/2015	11:09:37.544	$GPGGA,110938,2426.6519,N,08141.4619,W,1,10,1.5,13,M,,M,,*6A
06/21/2015	11:09:38.554	$GPGGA,110939,2426.6512,N,08141.4614,W,1,10,1.5,13,M,,M,,*6D
06/21/2015	11:09:39.598	$GPGGA,110940,2426.6505,N,08141.4609,W,1,10,1.5,13,M,,M,,*69
06/21/2015	11:09:40.554	$GPGGA,110941,2426.6498,N,08141.4604,W,1,10,1.9,13,M,,M,,*6C
06/21/2015	11:09:41.544	$GPGGA,110942,2426.6491,N,08141.4598,W,1,9,1.9,13,M,,M,,*58
06/21/2015	11:09:42.544	$GPGGA,110943,2426.6484,N,08141.4595,W,1,9,1.5,13,M,,M,,*5C
06/21/2015	11:09:43.554	$GPGGA,110944,2426.6476,N,08141.4593,W,1,10,1.5,13,M,,M,,*68
06/21/2015	11:09:44.554	$GPGGA,110945,2426.6469,N,08141.4588,W,1,10,1.7,13,M,,M,,*6F
06/21/2015	11:09:45.524	$GPGGA,110946,2426.6461,N,08141.4584,W,1,10,1.5,13,M,,M,,*6A
06/21/2015	11:09:46.544	$GPGGA,110947,2426.6454,N,08141.4580,W,1,10,1.5,13,M,,M,,*69
06/21/2015	11:09:47.573	$GPGGA,110948,2426.6445,N,08141.4576,W,1,10,1.5,13,M,,M,,*6F
06/21/2015	11:09:48.533	$GPGGA,110949,2426.6438,N,08141.4572,W,1,10,1.7,13,M,,M,,*62
06/21/2015	11:09:49.543	$GPGGA,110950,2426.6430,N,08141.4568,W,1,9,1.7,13,M,,M,,*51
06/21/2015	11:09:50.523	$GPGGA,110951,2426.6423,N,08141.4563,W,1,9,1.7,13,M,,M,,*59
06/21/2015	11:09:51.524	$GPGGA,110952,2426.6415,N,08141.4560,W,1,9,1.7,13,M,,M,,*5C
06/21/2015	11:09:52.634	$GPGGA,110953,2426.6408,N,08141.4557,W,1,9,1.7,13,M,,M,,*55
06/21/2015	11:09:53.534	$GPGGA,110954,2426.6401,N,08141.4552,W,1,10,1.5,13,M,,M,,*64
06/21/2015	11:09:54.524	$GPGGA,110955,2426.6394,N,08141.4549,W,1,10,1.5,13,M,,M,,*64
06/21/2015	11:09:55.564	$GPGGA,110956,2426.6386,N,08141.4546,W,1,9,1.7,13,M,,M,,*51
06/21/2015	11:09:56.624	$GPGGA,110957,2426.6378,N,08141.4541,W,1,9,1.7,13,M,,M,,*56
06/21/2015	11:09:57.634	$GPGGA,110958,2426.6371,N,08141.4537,W,1,10,1.5,13,M,,M,,*6B
06/21/2015	11:09:58.524	$GPGGA,110959,2426.6362,N,08141.4533,W,1,10,1.5,13,M,,M,,*6C
06/21/2015	11:09:59.634	$GPGGA,111000,2426.6355,N,08141.4530,W,1,10,1.5,13,M,,M,,*6F
06/21/2015	11:10:00.504	$GPGGA,111001,2426.6347,N,08141.4525,W,1,10,1.7,13,M,,M,,*6B
06/21/2015	11:10:01.514	$GPGGA,111002,2426.6342,N,08141.4522,W,1,9,1.7,13,M,,M,,*52
06/21/2015	11:10:02.586	$GPGGA,111003,2426.6335,N,08141.4519,W,1,9,1.5,13,M,,M,,*59
06/21/2015	11:10:03.614	$GPGGA,111004,2426.6328,N,08141.4515,W,1,10,1.5,13,M,,M,,*66
06/21/2015	11:10:04.597	$GPGGA,111005,2426.6321,N,08141.4510,W,1,10,1.5,13,M,,M,,*6B
06/21/2015	11:10:05.613	$GPGGA,111006,2426.6314,N,08141.4507,W,1,10,1.5,13,M,,M,,*68
06/21/2015	11:10:06.589	$GPGGA,111007,2426.6307,N,08141.4503,W,1,10,1.5,13,M,,M,,*6F
06/21/2015	11:10:07.623	$GPGGA,111008,2426.6300,N,08141.4499,W,1,10,1.5,13,M,,M,,*65
06/21/2015	11:10:08.587	$GPGGA,111009,2426.6293,N,08141.4495,W,1,10,1.5,13,M,,M,,*63
06/21/2015	11:10:09.599	$GPGGA,111010,2426.6286,N,08141.4492,W,1,10,1.5,13,M,,M,,*68
06/21/2015	11:10:10.590	$GPGGA,111011,2426.6279,N,08141.4488,W,1,10,1.5,13,M,,M,,*62
06/21/2015	11:10:11.596	$GPGGA,111012,2426.6272,N,08141.4485,W,1,10,1.5,13,M,,M,,*67
06/21/2015	11:10:12.574	$GPGGA,111013,2426.6264,N,08141.4481,W,1,10,1.5,13,M,,M,,*65
06/21/2015	11:10:13.596	$GPGGA,111014,2426.6257,N,08141.4476,W,1,10,1.5,13,M,,M,,*6A
06/21/2015	11:10:14.594	$GPGGA,111015,2426.6252,N,08141.4472,W,1,10,1.5,13,M,,M,,*6A
06/21/2015	11:10:15.602	$GPGGA,111016,2426.6243,N,08141.4468,W,1,10,1.5,13,M,,M,,*62
06/21/2015	11:10:16.575	$GPGGA,111017,2426.6235,N,08141.4465,W,1,10,1.5,13,M,,M,,*6F
06/21/2015	11:10:17.604	$GPGGA,111018,2426.6228,N,08141.4460,W,1,10,1.5,12,M,,M,,*68
06/21/2015	11:10:18.574	$GPGGA,111019,2426.6221,N,08141.4455,W,1,10,1.5,12,M,,M,,*66
06/21/2015	11:10:19.604	$GPGGA,111020,2426.6214,N,08141.4452,W,1,10,1.5,12,M,,M,,*6D
06/21/2015	11:10:20.564	$GPGGA,111021,2426.6206,N,08141.4449,W,1,10,1.5,12,M,,M,,*65
06/21/2015	11:10:21.564	$GPGGA,111022,2426.6200,N,08141.4443,W,1,10,1.5,12,M,,M,,*6A
06/21/2015	11:10:22.563	$GPGGA,111023,2426.6194,N,08141.4438,W,1,10,1.5,12,M,,M,,*69
06/21/2015	11:10:24.563	$GPGGA,111024,2426.6185,N,08141.4435,W,1,10,1.5,12,M,,M,,*63
06/21/2015	11:10:24.594	$GPGGA,111025,2426.6180,N,08141.4431,W,1,10,1.5,12,M,,M,,*63
06/21/2015	11:10:25.586	$GPGGA,111026,2426.6171,N,08141.4426,W,1,9,1.9,12,M,,M,,*5C
06/21/2015	11:10:26.544	$GPGGA,111027,2426.6165,N,08141.4421,W,1,9,1.5,12,M,,M,,*53
06/21/2015	11:10:27.574	$GPGGA,111028,2426.6158,N,08141.4418,W,1,10,1.5,12,M,,M,,*60
06/21/2015	11:10:28.554	$GPGGA,111029,2426.6149,N,08141.4414,W,1,10,1.5,12,M,,M,,*6D
06/21/2015	11:10:29.554	$GPGGA,111030,2426.6142,N,08141.4409,W,1,10,1.5,12,M,,M,,*62
06/21/2015	11:10:30.545	$GPGGA,111031,2426.6136,N,08141.4404,W,1,10,1.4,12,M,,M,,*6C
06/21/2015	11:10:31.587	$GPGGA,111032,2426.6129,N,08141.4400,W,1,11,1.4,12,M,,M,,*64
06/21/2015	11:10:32.544	$GPGGA,111033,2426.6122,N,08141.4396,W,1,11,1.4,12,M,,M,,*66
06/21/2015	11:10:33.554	$GPGGA,111034,2426.6115,N,08141.4390,W,1,11,1.4,12,M,,M,,*63
06/21/2015	11:10:34.534	$GPGGA,111035,2426.6108,N,08141.4386,W,1,11,1.4,12,M,,M,,*69
06/21/2015	11:10:35.654	$GPGGA,111036,2426.6101,N,08141.4382,W,1,11,1.4,13,M,,M,,*66
06/21/2015	11:10:36.544	$GPGGA,111037,2426.6094,N,08141.4378,W,1,11,1.4,13,M,,M,,*6F
06/21/2015	11:10:37.524	$GPGGA,111038,2426.6087,N,08141.4373,W,1,11,1.4,13,M,,M,,*69
06/21/2015	11:10:38.544	$GPGGA,111039,2426.6080,N,08141.4368,W,1,11,1.4,13,M,,M,,*65
06/21/2015	11:10:39.563	$GPGGA,111040,2426.6073,N,08141.4364,W,1,11,1.4,13,M,,M,,*6B
06/21/2015	11:10:40.533	$GPGGA,111041,2426.6066,N,08141.4359,W,1,11,1.4,13,M,,M,,*60
06/21/2015	11:10:41.644	$GPGGA,111042,2426.6059,N,08141.4354,W,1,11,1.4,13,M,,M,,*62
06/21/2015	11:10:42.634	$GPGGA,111043,2426.6053,N,08141.4349,W,1,11,1.4,13,M,,M,,*65
06/21/2015	11:10:43.623	$GPGGA,111044,2426.6046,N,08141.4345,W,1,11,1.4,13,M,,M,,*6A
06/21/2015	11:10:44.524	$GPGGA,111045,2426.6039,N,08141.4340,W,1,11,1.4,13,M,,M,,*66
06/21/2015	11:10:45.624	$GPGGA,111046,2426.6033,N,08141.4335,W,1,11,1.4,13,M,,M,,*6D
06/21/2015	11:10:46.614	$GPGGA,111047,2426.6025,N,08141.4330,W,1,11,1.4,13,M,,M,,*6E
06/21/2015	11:10:47.654	$GPGGA,111048,2426.6017,N,08141.4325,W,1,11,1.4,13,M,,M,,*64
06/21/2015	11:10:48.514	$GPGGA,111049,2426.6011,N,08141.4321,W,1,11,1.5,13,M,,M,,*66
06/21/2015	11:10:49.634	$GPGGA,111050,2426.6005,N,08141.4316,W,1,11,1.4,14,M,,M,,*69
06/21/2015	11:10:50.614	$GPGGA,111051,2426.5999,N,08141.4311,W,1,11,1.4,14,M,,M,,*60
06/21/2015	11:10:51.624	$GPGGA,111052,2426.5990,N,08141.4306,W,1,11,1.4,14,M,,M,,*6C
06/21/2015	11:10:52.596	$GPGGA,111053,2426.5984,N,08141.4302,W,1,11,1.4,14,M,,M,,*6C
06/21/2015	11:10:53.614	$GPGGA,111054,2426.5976,N,08141.4299,W,1,10,1.5,14,M,,M,,*65
06/21/2015	11:10:54.594	$GPGGA,111055,2426.5970,N,08141.4293,W,1,10,1.5,14,M,,M,,*68
06/21/2015	11:10:55.624	$GPGGA,111056,2426.5964,N,08141.4287,W,1,11,1.4,14,M,,M,,*6B
06/21/2015	11:10:56.586	$GPGGA,111057,2426.5957,N,08141.4284,W,1,11,1.4,14,M,,M,,*69
06/21/2015	11:10:57.585	$GPGGA,111058,2426.5950,N,08141.4280,W,1,11,1.4,14,M,,M,,*65
06/21/2015	11:10:58.587	$GPGGA,111059,2426.5942,N,08141.4275,W,1,11,1.4,14,M,,M,,*6D
06/21/2015	11:10:59.613	$GPGGA,111100,2426.5938,N,08141.4270,W,1,10,1.5,14,M,,M,,*68
06/21/2015	11:11:00.583	$GPGGA,111101,2426.5928,N,08141.4267,W,1,10,1.4,14,M,,M,,*6F
06/21/2015	11:11:01.599	$GPGGA,111102,2426.5923,N,08141.4262,W,1,11,1.4,14,M,,M,,*63
06/21/2015	11:11:02.587	$GPGGA,111103,2426.5916,N,08141.4256,W,1,11,1.4,14,M,,M,,*63
06/21/2015	11:11:03.598	$GPGGA,111104,2426.5910,N,08141.4252,W,1,10,1.7,14,M,,M,,*64
06/21/2015	11:11:04.586	$GPGGA,111105,2426.5903,N,08141.4248,W,1,10,1.7,14,M,,M,,*6C
06/21/2015	11:11:05.564	$GPGGA,111106,2426.5896,N,08141.4244,W,1,11,1.4,14,M,,M,,*6C
06/21/2015	11:11:07.634	$GPGGA,111108,2426.5883,N,08141.4236,W,1,11,1.4,14,M,,M,,*63
06/21/2015	11:11:08.564	$GPGGA,111109,2426.5876,N,08141.4232,W,1,11,1.4,14,M,,M,,*6C
06/21/2015	11:11:09.564	$GPGGA,111110,2426.5869,N,08141.4226,W,1,11,1.4,14,M,,M,,*6F
06/21/2015	11:11:10.834	$GPGGA,111111,2426.5862,N,08141.4222,W,1,11,1.4,14,M,,M,,*61
06/21/2015	11:11:11.565	$GPGGA,111112,2426.5854,N,08141.4219,W,1,11,1.4,14,M,,M,,*6F
06/21/2015	11:11:12.564	$GPGGA,111113,2426.5847,N,08141.4215,W,1,11,1.4,14,M,,M,,*60
06/21/2015	11:11:13.554	$GPGGA,111114,2426.5841,N,08141.4210,W,1,11,1.4,14,M,,M,,*64
06/21/2015	11:11:14.553	$GPGGA,111115,2426.5833,N,08141.4206,W,1,11,1.4,14,M,,M,,*67
06/21/2015	11:11:15.594	$GPGGA,111116,2426.5826,N,08141.4202,W,1,11,1.4,14,M,,M,,*64
06/21/2015	11:11:16.543	$GPGGA,111117,2426.5819,N,08141.4197,W,1,11,1.4,14,M,,M,,*66
06/21/2015	11:11:17.584	$GPGGA,111118,2426.5812,N,08141.4193,W,1,11,1.4,14,M,,M,,*66
06/21/2015	11:11:18.543	$GPGGA,111119,2426.5805,N,08141.4189,W,1,11,1.4,14,M,,M,,*6A
06/21/2015	11:11:19.564	$GPGGA,111120,2426.5797,N,08141.4185,W,1,11,1.4,14,M,,M,,*68
06/21/2015	11:11:20.534	$GPGGA,111121,2426.5793,N,08141.4180,W,1,11,1.4,14,M,,M,,*68
06/21/2015	11:11:21.554	$GPGGA,111122,2426.5786,N,08141.4176,W,1,10,1.7,14,M,,M,,*64
06/21/2015	11:11:22.544	$GPGGA,111123,2426.5779,N,08141.4173,W,1,10,1.4,14,M,,M,,*63
06/21/2015	11:11:23.554	$GPGGA,111124,2426.5770,N,08141.4169,W,1,11,1.4,14,M,,M,,*67
06/21/2015	11:11:24.544	$GPGGA,111125,2426.5764,N,08141.4165,W,1,11,1.5,14,M,,M,,*6E
06/21/2015	11:11:25.534	$GPGGA,111126,2426.5757,N,08141.4162,W,1,10,1.5,14,M,,M,,*6B
06/21/2015	11:11:26.624	$GPGGA,111127,2426.5750,N,08141.4159,W,1,10,1.4,14,M,,M,,*64
06/21/2015	11:11:27.634	$GPGGA,111128,2426.5744,N,08141.4154,W,1,11,1.4,14,M,,M,,*62
06/21/2015	11:11:28.534	$GPGGA,111129,2426.5739,N,08141.4149,W,1,11,1.4,14,M,,M,,*65
06/21/2015	11:11:29.514	$GPGGA,111130,2426.5732,N,08141.4146,W,1,11,1.4,14,M,,M,,*69
06/21/2015	11:11:30.534	$GPGGA,111131,2426.5724,N,08141.4143,W,1,11,1.4,14,M,,M,,*6A
06/21/2015	11:11:31.624	$GPGGA,111132,2426.5717,N,08141.4138,W,1,10,1.4,14,M,,M,,*64
06/21/2015	11:11:32.513	$GPGGA,111133,2426.5711,N,08141.4133,W,1,10,1.4,14,M,,M,,*68
06/21/2015	11:11:33.523	$GPGGA,111134,2426.5703,N,08141.4130,W,1,10,1.4,14,M,,M,,*6F
06/21/2015	11:11:34.933	$GPGGA,111135,2426.5696,N,08141.4127,W,1,10,1.4,14,M,,M,,*65
06/21/2015	11:11:35.643	$GPGGA,111136,2426.5692,N,08141.4125,W,1,10,1.4,14,M,,M,,*60
06/21/2015	11:11:36.514	$GPGGA,111137,2426.5686,N,08141.4122,W,1,10,1.4,14,M,,M,,*63
06/21/2015	11:11:37.604	$GPGGA,111138,2426.5679,N,08141.4120,W,1,11,1.4,14,M,,M,,*6F
06/21/2015	11:11:38.504	$GPGGA,111139,2426.5672,N,08141.4117,W,1,11,1.4,14,M,,M,,*61
06/21/2015	11:11:39.604	$GPGGA,111140,2426.5665,N,08141.4113,W,1,10,1.4,14,M,,M,,*6C
06/21/2015	11:11:40.594	$GPGGA,111141,2426.5660,N,08141.4111,W,1,10,1.4,14,M,,M,,*6A
06/21/2015	11:11:41.584	$GPGGA,111142,2426.5652,N,08141.4108,W,1,11,1.4,14,M,,M,,*61
06/21/2015	11:11:42.514	$GPGGA,111143,2426.5645,N,08141.4104,W,1,11,1.4,14,M,,M,,*6A
06/21/2015	11:11:43.624	$GPGGA,111144,2426.5638,N,08141.4100,W,1,10,1.4,14,M,,M,,*62
