Software Version Number: 1	Data File Format Number: 1	Build Version Number: 1	Error Count Since VI Started: 1	Manufacturer: Raytheon	 Model Number: RayMarine 120	 S/N: 	 Cal Date: 	 Wind Direction Offset: 0.00	 Slope (M)1: 0.00	 Offset (B)1: 0.00	 Slope (M)2: 0.00	 Offset (B)2: 0.00	 Slope (M)3: 0.00	 Offset (B)3: 0.00	 Slope (M)4: 0.00	 Offset (B)4: 0.00	 Slope (M)5: 0.00	 Offset (B)5: 0.00	 Slope (M)6: 0.00	 Offset (B)6: 0.00
Computer Date	Computer Time	GGA String
06/13/2015	09:00:00.611	$GPGGA,090001,2418.9644,N,08102.3572,W,1,10,1.5,18,M,,M,,*6C
06/13/2015	09:00:01.591	$GPGGA,090002,2418.9633,N,08102.3560,W,1,9,1.4,18,M,,M,,*55
06/13/2015	09:00:02.611	$GPGGA,090003,2418.9622,N,08102.3548,W,1,9,1.4,18,M,,M,,*5E
06/13/2015	09:00:03.641	$GPGGA,090004,2418.9612,N,08102.3537,W,1,10,1.4,18,M,,M,,*6A
06/13/2015	09:00:04.570	$GPGGA,090005,2418.9599,N,08102.3528,W,1,10,1.4,18,M,,M,,*65
06/13/2015	09:00:05.600	$GPGGA,090006,2418.9588,N,08102.3518,W,1,10,1.4,18,M,,M,,*65
06/13/2015	09:00:06.580	$GPGGA,090007,2418.9577,N,08102.3505,W,1,10,1.4,18,M,,M,,*68
06/13/2015	09:00:07.610	$GPGGA,090008,2418.9566,N,08102.3494,W,1,11,1.4,18,M,,M,,*6F
06/13/2015	09:00:08.580	$GPGGA,090009,2418.9556,N,08102.3485,W,1,11,1.4,18,M,,M,,*6D
06/13/2015	09:00:09.580	$GPGGA,090010,2418.9544,N,08102.3474,W,1,10,1.4,18,M,,M,,*69
06/13/2015	09:00:10.570	$GPGGA,090011,2418.9533,N,08102.3460,W,1,10,1.4,18,M,,M,,*6D
06/13/2015	09:00:11.600	$GPGGA,090012,2418.9522,N,08102.3452,W,1,11,1.4,18,M,,M,,*6E
06/13/2015	09:00:12.570	$GPGGA,090013,2418.9514,N,08102.3445,W,1,11,1.4,18,M,,M,,*6C
06/13/2015	09:00:13.580	$GPGGA,090014,2418.9502,N,08102.3432,W,1,11,1.4,18,M,,M,,*6C
06/13/2015	09:00:14.560	$GPGGA,090015,2418.9491,N,08102.3421,W,1,11,1.4,18,M,,M,,*64
06/13/2015	09:00:15.610	$GPGGA,090016,2418.9480,N,08102.3414,W,1,11,1.4,18,M,,M,,*61
06/13/2015	09:00:16.567	$GPGGA,090017,2418.9471,N,08102.3406,W,1,11,1.4,18,M,,M,,*6D
06/13/2015	09:00:17.555	$GPGGA,090018,2418.9461,N,08102.3396,W,1,11,1.4,18,M,,M,,*6D
06/13/2015	09:00:18.555	$GPGGA,090019,2418.9451,N,08102.3385,W,1,11,1.5,18,M,,M,,*6C
06/13/2015	09:00:19.567	$GPGGA,090020,2418.9440,N,08102.3374,W,1,11,1.4,18,M,,M,,*69
06/13/2015	09:00:20.560	$GPGGA,090021,2418.9428,N,08102.3365,W,1,11,1.4,18,M,,M,,*66
06/13/2015	09:00:21.542	$GPGGA,090022,2418.9418,N,08102.3357,W,1,10,1.4,18,M,,M,,*66
06/13/2015	09:00:22.556	$GPGGA,090023,2418.9408,N,08102.3346,W,1,10,1.4,18,M,,M,,*66
06/13/2015	09:00:23.552	$GPGGA,090024,2418.9396,N,08102.3336,W,1,10,1.4,18,M,,M,,*66
06/13/2015	09:00:24.551	$GPGGA,090025,2418.9385,N,08102.3326,W,1,10,1.4,18,M,,M,,*64
06/13/2015	09:00:26.580	$GPGGA,090027,2418.9366,N,08102.3305,W,1,10,1.4,18,M,,M,,*6A
06/13/2015	09:00:27.543	$GPGGA,090028,2418.9355,N,08102.3294,W,1,10,1.4,18,M,,M,,*6C
06/13/2015	09:00:28.540	$GPGGA,090029,2418.9344,N,08102.3285,W,1,10,1.4,18,M,,M,,*6D
06/13/2015	09:00:29.562	$GPGGA,090030,2418.9335,N,08102.3277,W,1,11,1.4,18,M,,M,,*6F
06/13/2015	09:00:30.640	$GPGGA,090031,2418.9324,N,08102.3269,W,1,11,1.5,17,M,,M,,*6F
06/13/2015	09:00:31.661	$GPGGA,090032,2418.9312,N,08102.3254,W,1,11,1.4,17,M,,M,,*66
06/13/2015	09:00:32.520	$GPGGA,090033,2418.9302,N,08102.3247,W,1,11,1.4,17,M,,M,,*64
06/13/2015	09:00:33.530	$GPGGA,090034,2418.9294,N,08102.3243,W,1,10,1.4,17,M,,M,,*68
06/13/2015	09:00:34.529	$GPGGA,090035,2418.9283,N,08102.3234,W,1,10,1.4,17,M,,M,,*6F
06/13/2015	09:00:35.566	$GPGGA,090036,2418.9272,N,08102.3224,W,1,11,1.4,17,M,,M,,*62
06/13/2015	09:00:36.519	$GPGGA,090037,2418.9261,N,08102.3217,W,1,11,1.4,17,M,,M,,*61
06/13/2015	09:00:37.529	$GPGGA,090038,2418.9250,N,08102.3212,W,1,10,1.4,17,M,,M,,*68
06/13/2015	09:00:38.509	$GPGGA,090039,2418.9238,N,08102.3200,W,1,10,1.4,17,M,,M,,*64
06/13/2015	09:00:39.640	$GPGGA,090040,2418.9230,N,08102.3189,W,1,8,1.6,17,M,,M,,*5B
06/13/2015	09:00:40.520	$GPGGA,090041,2418.9218,N,08102.3181,W,1,8,1.4,17,M,,M,,*5A
06/13/2015	09:00:41.620	$GPGGA,090042,2418.9207,N,08102.3173,W,1,10,1.4,17,M,,M,,*63
06/13/2015	09:00:42.520	$GPGGA,090043,2418.9196,N,08102.3164,W,1,10,1.5,17,M,,M,,*6E
06/13/2015	09:00:43.640	$GPGGA,090044,2418.9187,N,08102.3154,W,1,9,1.5,17,M,,M,,*52
06/13/2015	09:00:44.520	$GPGGA,090045,2418.9175,N,08102.3143,W,1,9,1.4,17,M,,M,,*59
06/13/2015	09:00:45.600	$GPGGA,090046,2418.9164,N,08102.3138,W,1,11,1.4,17,M,,M,,*6F
06/13/2015	09:00:46.590	$GPGGA,090047,2418.9156,N,08102.3134,W,1,11,1.4,17,M,,M,,*63
06/13/2015	09:00:47.630	$GPGGA,090048,2418.9146,N,08102.3125,W,1,10,1.4,17,M,,M,,*6C
06/13/2015	09:00:48.500	$GPGGA,090049,2418.9135,N,08102.3113,W,1,10,1.4,17,M,,M,,*6C
06/13/2015	09:00:49.600	$GPGGA,090050,2418.9126,N,08102.3107,W,1,11,1.4,17,M,,M,,*62
06/13/2015	09:00:50.490	$GPGGA,090051,2418.9113,N,08102.3102,W,1,11,1.4,17,M,,M,,*60
06/13/2015	09:00:51.629	$GPGGA,090052,2418.9104,N,08102.3093,W,1,10,1.4,17,M,,M,,*6D
06/13/2015	09:00:52.579	$GPGGA,090053,2418.9095,N,08102.3083,W,1,10,1.4,17,M,,M,,*64
06/13/2015	09:00:53.589	$GPGGA,090054,2418.9084,N,08102.3076,W,1,11,1.4,17,M,,M,,*68
06/13/2015	09:00:54.579	$GPGGA,090055,2418.9075,N,08102.3071,W,1,11,1.4,17,M,,M,,*60
06/13/2015	09:00:55.629	$GPGGA,090056,2418.9066,N,08102.3062,W,1,11,1.4,17,M,,M,,*63
06/13/2015	09:00:56.579	$GPGGA,090057,2418.9054,N,08102.3051,W,1,11,1.8,17,M,,M,,*6F
06/13/2015	09:00:57.590	$GPGGA,090058,2418.9043,N,08102.3041,W,1,10,1.4,17,M,,M,,*6A
06/13/2015	09:00:58.570	$GPGGA,090059,2418.9034,N,08102.3033,W,1,10,1.4,17,M,,M,,*6E
06/13/2015	09:00:59.640	$GPGGA,090100,2418.9025,N,08102.3024,W,1,10,1.4,17,M,,M,,*65
06/13/2015	09:01:00.570	$GPGGA,090101,2418.9013,N,08102.3012,W,1,10,1.4,17,M,,M,,*64
06/13/2015	09:01:01.580	$GPGGA,090102,2418.9005,N,08102.3003,W,1,9,1.5,17,M,,M,,*59
06/13/2015	09:01:02.553	$GPGGA,090103,2418.8995,N,08102.2995,W,1,9,1.4,17,M,,M,,*5F
06/13/2015	09:01:03.590	$GPGGA,090104,2418.8985,N,08102.2986,W,1,10,1.4,17,M,,M,,*63
06/13/2015	09:01:04.564	$GPGGA,090105,2418.8976,N,08102.2976,W,1,10,1.4,17,M,,M,,*61
06/13/2015	09:01:05.546	$GPGGA,090106,2418.8970,N,08102.2967,W,1,10,1.4,17,M,,M,,*64
06/13/2015	09:01:06.555	$GPGGA,090107,2418.8958,N,08102.2957,W,1,10,1.4,17,M,,M,,*6C
06/13/2015	09:01:07.580	$GPGGA,090108,2418.8948,N,08102.2949,W,1,11,1.4,18,M,,M,,*63
06/13/2015	09:01:08.553	$GPGGA,090109,2418.8942,N,08102.2938,W,1,11,1.4,18,M,,M,,*6E
06/13/2015	09:01:09.579	$GPGGA,090110,2418.8933,N,08102.2927,W,1,10,1.4,18,M,,M,,*6F
06/13/2015	09:01:10.554	$GPGGA,090111,2418.8923,N,08102.2920,W,1,10,1.4,18,M,,M,,*68
06/13/2015	09:01:11.579	$GPGGA,090112,2418.8914,N,08102.2909,W,1,11,1.4,18,M,,M,,*65
06/13/2015	09:01:12.551	$GPGGA,090113,2418.8904,N,08102.2897,W,1,11,1.4,18,M,,M,,*63
06/13/2015	09:01:13.539	$GPGGA,090114,2418.8896,N,08102.2888,W,1,11,1.4,18,M,,M,,*60
06/13/2015	09:01:14.544	$GPGGA,090115,2418.8886,N,08102.2879,W,1,11,1.4,18,M,,M,,*6E
06/13/2015	09:01:15.565	$GPGGA,090116,2418.8876,N,08102.2868,W,1,11,1.4,18,M,,M,,*62
06/13/2015	09:01:16.540	$GPGGA,090117,2418.8866,N,08102.2855,W,1,11,1.4,18,M,,M,,*6C
06/13/2015	09:01:17.550	$GPGGA,090118,2418.8857,N,08102.2845,W,1,11,1.4,19,M,,M,,*61
06/13/2015	09:01:18.520	$GPGGA,090119,2418.8848,N,08102.2837,W,1,11,1.4,19,M,,M,,*6B
06/13/2015	09:01:19.570	$GPGGA,090120,2418.8837,N,08102.2826,W,1,11,1.4,19,M,,M,,*69
06/13/2015	09:01:20.640	$GPGGA,090121,2418.8829,N,08102.2814,W,1,11,1.4,19,M,,M,,*66
06/13/2015	09:01:21.658	$GPGGA,090122,2418.8821,N,08102.2802,W,1,11,1.4,19,M,,M,,*6A
06/13/2015	09:01:22.530	$GPGGA,090123,2418.8810,N,08102.2793,W,1,11,1.4,19,M,,M,,*6E
06/13/2015	09:01:23.540	$GPGGA,090124,2418.8800,N,08102.2782,W,1,11,1.4,19,M,,M,,*68
06/13/2015	09:01:24.620	$GPGGA,090125,2418.8792,N,08102.2772,W,1,11,1.4,19,M,,M,,*62
06/13/2015	09:01:25.530	$GPGGA,090126,2418.8783,N,08102.2759,W,1,11,1.4,19,M,,M,,*68
06/13/2015	09:01:26.509	$GPGGA,090127,2418.8773,N,08102.2748,W,1,11,1.4,19,M,,M,,*66
06/13/2015	09:01:27.653	$GPGGA,090128,2418.8763,N,08102.2738,W,1,11,1.4,19,M,,M,,*6F
06/13/2015	09:01:28.519	$GPGGA,090129,2418.8753,N,08102.2729,W,1,11,1.4,19,M,,M,,*6D
06/13/2015	09:01:29.609	$GPGGA,090130,2418.8745,N,08102.2716,W,1,11,1.4,19,M,,M,,*6E
06/13/2015	09:01:30.599	$GPGGA,090131,2418.8735,N,08102.2705,W,1,11,1.4,19,M,,M,,*6A
06/13/2015	09:01:31.529	$GPGGA,090132,2418.8724,N,08102.2695,W,1,10,1.4,19,M,,M,,*60
06/13/2015	09:01:32.590	$GPGGA,090133,2418.8712,N,08102.2684,W,1,10,1.4,19,M,,M,,*64
06/13/2015	09:01:33.490	$GPGGA,090134,2418.8705,N,08102.2673,W,1,10,1.4,19,M,,M,,*6D
06/13/2015	09:01:34.510	$GPGGA,090135,2418.8696,N,08102.2665,W,1,10,1.5,19,M,,M,,*61
06/13/2015	09:01:35.630	$GPGGA,090136,2418.8683,N,08102.2655,W,1,10,1.4,20,M,,M,,*6E
06/13/2015	09:01:36.590	$GPGGA,090137,2418.8676,N,08102.2643,W,1,10,1.4,20,M,,M,,*62
06/13/2015	09:01:37.590	$GPGGA,090138,2418.8667,N,08102.2632,W,1,11,1.4,20,M,,M,,*6A
06/13/2015	09:01:38.510	$GPGGA,090139,2418.8654,N,08102.2623,W,1,11,1.4,20,M,,M,,*6B
06/13/2015	09:01:39.610	$GPGGA,090140,2418.8645,N,08102.2617,W,1,9,1.5,20,M,,M,,*5A
06/13/2015	09:01:40.590	$GPGGA,090141,2418.8637,N,08102.2607,W,1,9,1.4,20,M,,M,,*5E
06/13/2015	09:01:41.600	$GPGGA,090142,2418.8624,N,08102.2597,W,1,11,1.4,20,M,,M,,*6C
06/13/2015	09:01:42.580	$GPGGA,090143,2418.8613,N,08102.2588,W,1,11,1.4,20,M,,M,,*67
06/13/2015	09:01:43.620	$GPGGA,090144,2418.8606,N,08102.2579,W,1,11,1.4,19,M,,M,,*60
06/13/2015	09:01:44.569	$GPGGA,090145,2418.8595,N,08102.2571,W,1,11,1.4,19,M,,M,,*60
06/13/2015	09:01:45.599	$GPGGA,090146,2418.8586,N,08102.2566,W,1,10,1.4,19,M,,M,,*66
06/13/2015	09:01:46.569	$GPGGA,090147,2418.8576,N,08102.2557,W,1,10,1.4,19,M,,M,,*6A
06/13/2015	09:01:47.609	$GPGGA,090148,2418.8568,N,08102.2546,W,1,10,1.4,19,M,,M,,*6A
06/13/2015	09:01:48.579	$GPGGA,090149,2418.8557,N,08102.2538,W,1,10,1.4,19,M,,M,,*6E
06/13/2015	09:01:50.600	$GPGGA,090151,2418.8535,N,08102.2519,W,1,9,1.4,19,M,,M,,*58
06/13/2015	09:01:51.600	$GPGGA,090152,2418.8525,N,08102.2511,W,1,11,1.4,19,M,,M,,*6B
06/13/2015	09:01:52.563	$GPGGA,090153,2418.8514,N,08102.2505,W,1,11,1.5,19,M,,M,,*6C
06/13/2015	09:01:53.565	$GPGGA,090154,2418.8504,N,08102.2493,W,1,11,1.4,19,M,,M,,*65
06/13/2015	09:01:54.562	$GPGGA,090155,2418.8494,N,08102.2484,W,1,11,1.4,19,M,,M,,*6A
06/13/2015	09:01:55.570	$GPGGA,090156,2418.8484,N,08102.2479,W,1,10,1.4,19,M,,M,,*6B
06/13/2015	09:01:56.551	$GPGGA,090157,2418.8474,N,08102.2469,W,1,10,1.4,19,M,,M,,*64
06/13/2015	09:01:57.590	$GPGGA,090158,2418.8464,N,08102.2457,W,1,10,1.4,19,M,,M,,*67
06/13/2015	09:01:58.562	$GPGGA,090159,2418.8454,N,08102.2448,W,1,10,1.4,19,M,,M,,*6B
06/13/2015	09:01:59.590	$GPGGA,090200,2418.8443,N,08102.2440,W,1,10,1.4,19,M,,M,,*6A
06/13/2015	09:02:00.565	$GPGGA,090201,2418.8434,N,08102.2432,W,1,10,1.4,19,M,,M,,*6E
06/13/2015	09:02:01.539	$GPGGA,090202,2418.8423,N,08102.2419,W,1,11,1.4,19,M,,M,,*63
06/13/2015	09:02:02.552	$GPGGA,090203,2418.8416,N,08102.2412,W,1,11,1.6,19,M,,M,,*6D
06/13/2015	09:02:03.551	$GPGGA,090204,2418.8406,N,08102.2405,W,1,11,1.4,19,M,,M,,*6F
06/13/2015	09:02:04.552	$GPGGA,090205,2418.8395,N,08102.2396,W,1,11,1.5,19,M,,M,,*6F
06/13/2015	09:02:05.562	$GPGGA,090206,2418.8387,N,08102.2386,W,1,11,1.4,19,M,,M,,*6F
06/13/2015	09:02:06.529	$GPGGA,090207,2418.8377,N,08102.2380,W,1,11,1.4,19,M,,M,,*67
06/13/2015	09:02:07.550	$GPGGA,090208,2418.8366,N,08102.2373,W,1,11,1.4,19,M,,M,,*64
06/13/2015	09:02:08.530	$GPGGA,090209,2418.8358,N,08102.2362,W,1,11,1.4,19,M,,M,,*68
06/13/2015	09:02:09.530	$GPGGA,090210,2418.8349,N,08102.2354,W,1,10,1.4,19,M,,M,,*64
06/13/2015	09:02:10.530	$GPGGA,090211,2418.8338,N,08102.2349,W,1,10,1.4,19,M,,M,,*6F
06/13/2015	09:02:11.540	$GPGGA,090212,2418.8327,N,08102.2340,W,1,10,1.4,19,M,,M,,*6B
06/13/2015	09:02:12.520	$GPGGA,090213,2418.8319,N,08102.2330,W,1,10,1.4,19,M,,M,,*60
06/13/2015	09:02:13.540	$GPGGA,090214,2418.8311,N,08102.2321,W,1,10,1.4,19,M,,M,,*6F
06/13/2015	09:02:14.520	$GPGGA,090215,2418.8297,N,08102.2313,W,1,10,1.4,19,M,,M,,*60
06/13/2015	09:02:15.552	$GPGGA,090216,2418.8287,N,08102.2304,W,1,10,1.4,19,M,,M,,*64
06/13/2015	09:02:16.520	$GPGGA,090217,2418.8279,N,08102.2291,W,1,10,1.5,19,M,,M,,*68
06/13/2015	09:02:17.500	$GPGGA,090218,2418.8268,N,08102.2282,W,1,9,1.5,19,M,,M,,*5D
06/13/2015	09:02:18.520	$GPGGA,090219,2418.8255,N,08102.2274,W,1,9,1.4,19,M,,M,,*5A
06/13/2015	09:02:19.689	$GPGGA,090220,2418.8246,N,08102.2264,W,1,10,1.4,19,M,,M,,*6B
06/13/2015	09:02:20.519	$GPGGA,090221,2418.8235,N,08102.2253,W,1,10,1.4,19,M,,M,,*6A
06/13/2015	09:02:21.599	$GPGGA,090222,2418.8224,N,08102.2245,W,1,10,1.4,19,M,,M,,*6E
06/13/2015	09:02:22.509	$GPGGA,090223,2418.8212,N,08102.2235,W,1,10,1.4,19,M,,M,,*6D
06/13/2015	09:02:23.689	$GPGGA,090224,2418.8203,N,08102.2224,W,1,10,1.4,19,M,,M,,*6A
06/13/2015	09:02:24.670	$GPGGA,090225,2418.8192,N,08102.2216,W,1,10,1.4,19,M,,M,,*61
06/13/2015	09:02:25.630	$GPGGA,090226,2418.8181,N,08102.2207,W,1,11,1.4,19,M,,M,,*61
06/13/2015	09:02:26.671	$GPGGA,090227,2418.8169,N,08102.2197,W,1,11,1.4,19,M,,M,,*6C
06/13/2015	09:02:27.690	$GPGGA,090228,2418.8159,N,08102.2189,W,1,11,1.4,19,M,,M,,*6F
06/13/2015	09:02:28.580	$GPGGA,090229,2418.8150,N,08102.2180,W,1,11,1.4,19,M,,M,,*6E
06/13/2015	09:02:29.640	$GPGGA,090230,2418.8140,N,08102.2170,W,1,10,1.4,19,M,,M,,*69
06/13/2015	09:02:30.666	$GPGGA,090231,2418.8130,N,08102.2162,W,1,10,1.4,19,M,,M,,*6C
06/13/2015	09:02:31.600	$GPGGA,090232,2418.8120,N,08102.2156,W,1,10,1.4,19,M,,M,,*69
06/13/2015	09:02:32.580	$GPGGA,090233,2418.8109,N,08102.2144,W,1,10,1.4,19,M,,M,,*60
06/13/2015	09:02:33.630	$GPGGA,090234,2418.8102,N,08102.2133,W,1,11,1.4,19,M,,M,,*6D
06/13/2015	09:02:34.640	$GPGGA,090235,2418.8092,N,08102.2127,W,1,11,1.4,18,M,,M,,*60
06/13/2015	09:02:35.662	$GPGGA,090236,2418.8081,N,08102.2117,W,1,11,1.4,18,M,,M,,*62
06/13/2015	09:02:36.650	$GPGGA,090237,2418.8071,N,08102.2105,W,1,11,1.4,18,M,,M,,*6F
06/13/2015	09:02:37.619	$GPGGA,090238,2418.8062,N,08102.2096,W,1,11,1.4,18,M,,M,,*69
06/13/2015	09:02:38.649	$GPGGA,090239,2418.8053,N,08102.2089,W,1,11,1.5,18,M,,M,,*65
06/13/2015	09:02:39.619	$GPGGA,090240,2418.8045,N,08102.2078,W,1,9,1.5,18,M,,M,,*5B
06/13/2015	09:02:40.561	$GPGGA,090241,2418.8037,N,08102.2069,W,1,9,1.4,18,M,,M,,*5E
06/13/2015	09:02:41.610	$GPGGA,090242,2418.8027,N,08102.2060,W,1,10,1.4,18,M,,M,,*6D
06/13/2015	09:02:42.562	$GPGGA,090243,2418.8015,N,08102.2047,W,1,10,1.5,18,M,,M,,*69
06/13/2015	09:02:43.610	$GPGGA,090244,2418.8008,N,08102.2036,W,1,10,1.4,18,M,,M,,*65
06/13/2015	09:02:45.111	$GPGGA,090245,2418.7999,N,08102.2028,W,1,10,1.4,18,M,,M,,*65
06/13/2015	09:02:45.620	$GPGGA,090246,2418.7987,N,08102.2018,W,1,11,1.4,18,M,,M,,*6B
06/13/2015	09:02:46.569	$GPGGA,090247,2418.7980,N,08102.2006,W,1,11,1.4,18,M,,M,,*62
06/13/2015	09:02:47.620	$GPGGA,090248,2418.7973,N,08102.1996,W,1,11,1.4,18,M,,M,,*62
06/13/2015	09:02:48.555	$GPGGA,090249,2418.7961,N,08102.1987,W,1,11,1.4,18,M,,M,,*60
06/13/2015	09:02:49.580	$GPGGA,090250,2418.7952,N,08102.1977,W,1,11,1.4,18,M,,M,,*67
06/13/2015	09:02:50.610	$GPGGA,090251,2418.7945,N,08102.1966,W,1,11,1.4,18,M,,M,,*60
06/13/2015	09:02:51.640	$GPGGA,090252,2418.7935,N,08102.1955,W,1,11,1.4,18,M,,M,,*64
06/13/2015	09:02:52.540	$GPGGA,090253,2418.7926,N,08102.1945,W,1,11,1.4,18,M,,M,,*66
06/13/2015	09:02:53.580	$GPGGA,090254,2418.7917,N,08102.1933,W,1,11,1.4,18,M,,M,,*62
06/13/2015	09:02:54.529	$GPGGA,090255,2418.7908,N,08102.1925,W,1,11,1.4,18,M,,M,,*6A
06/13/2015	09:02:55.619	$GPGGA,090256,2418.7898,N,08102.1915,W,1,11,1.4,18,M,,M,,*62
06/13/2015	09:02:56.639	$GPGGA,090257,2418.7889,N,08102.1902,W,1,11,1.4,18,M,,M,,*65
06/13/2015	09:02:57.569	$GPGGA,090258,2418.7881,N,08102.1894,W,1,11,1.4,18,M,,M,,*6C
06/13/2015	09:02:58.650	$GPGGA,090259,2418.7872,N,08102.1887,W,1,11,1.4,18,M,,M,,*63
06/13/2015	09:02:59.690	$GPGGA,090300,2418.7861,N,08102.1875,W,1,11,1.4,18,M,,M,,*61
06/13/2015	09:03:00.600	$GPGGA,090301,2418.7854,N,08102.1865,W,1,11,1.4,18,M,,M,,*67
06/13/2015	09:03:01.580	$GPGGA,090302,2418.7846,N,08102.1858,W,1,11,1.4,18,M,,M,,*69
06/13/2015	09:03:02.580	$GPGGA,090303,2418.7836,N,08102.1848,W,1,11,1.5,18,M,,M,,*6F
06/13/2015	09:03:03.590	$GPGGA,090304,2418.7827,N,08102.1836,W,1,9,1.5,18,M,,M,,*58
06/13/2015	09:03:04.580	$GPGGA,090305,2418.7818,N,08102.1827,W,1,9,1.4,18,M,,M,,*54
06/13/2015	09:03:05.510	$GPGGA,090306,2418.7809,N,08102.1819,W,1,11,1.4,18,M,,M,,*63
06/13/2015	09:03:06.510	$GPGGA,090307,2418.7802,N,08102.1810,W,1,11,1.4,18,M,,M,,*60
06/13/2015	09:03:07.590	$GPGGA,090308,2418.7794,N,08102.1799,W,1,11,1.4,18,M,,M,,*61
06/13/2015	09:03:08.510	$GPGGA,090309,2418.7785,N,08102.1790,W,1,11,1.4,18,M,,M,,*69
06/13/2015	09:03:09.600	$GPGGA,090310,2418.7774,N,08102.1782,W,1,10,1.4,18,M,,M,,*6D
06/13/2015	09:03:10.562	$GPGGA,090311,2418.7766,N,08102.1772,W,1,10,1.4,18,M,,M,,*60
06/13/2015	09:03:11.639	$GPGGA,090312,2418.7757,N,08102.1760,W,1,11,1.4,18,M,,M,,*63
06/13/2015	09:03:12.609	$GPGGA,090313,2418.7746,N,08102.1752,W,1,11,1.4,18,M,,M,,*63
06/13/2015	09:03:13.609	$GPGGA,090314,2418.7735,N,08102.1746,W,1,11,1.4,18,M,,M,,*65
06/13/2015	09:03:14.609	$GPGGA,090315,2418.7727,N,08102.1734,W,1,11,1.4,18,M,,M,,*62
06/13/2015	09:03:15.609	$GPGGA,090316,2418.7717,N,08102.1724,W,1,10,1.4,18,M,,M,,*62
06/13/2015	09:03:17.620	$GPGGA,090318,2418.7695,N,08102.1709,W,1,11,1.5,18,M,,M,,*68
06/13/2015	09:03:18.562	$GPGGA,090319,2418.7684,N,08102.1696,W,1,11,1.4,18,M,,M,,*6F
06/13/2015	09:03:19.630	$GPGGA,090320,2418.7675,N,08102.1688,W,1,10,1.4,18,M,,M,,*65
06/13/2015	09:03:20.590	$GPGGA,090321,2418.7665,N,08102.1680,W,1,10,1.4,18,M,,M,,*6D
06/13/2015	09:03:21.600	$GPGGA,090322,2418.7654,N,08102.1670,W,1,11,1.4,18,M,,M,,*62
06/13/2015	09:03:22.580	$GPGGA,090323,2418.7654,N,08102.1670,W,1,11,1.4,18,M,,M,,*63
06/13/2015	09:03:23.620	$GPGGA,090324,2418.7634,N,08102.1652,W,1,11,1.4,18,M,,M,,*62
06/13/2015	09:03:24.580	$GPGGA,090325,2418.7623,N,08102.1643,W,1,11,1.4,18,M,,M,,*65
06/13/2015	09:03:25.590	$GPGGA,090326,2418.7611,N,08102.1633,W,1,11,1.4,18,M,,M,,*60
06/13/2015	09:03:26.590	$GPGGA,090327,2418.7601,N,08102.1624,W,1,11,1.4,18,M,,M,,*66
06/13/2015	09:03:27.600	$GPGGA,090328,2418.7592,N,08102.1615,W,1,10,1.4,18,M,,M,,*63
06/13/2015	09:03:28.570	$GPGGA,090329,2418.7579,N,08102.1605,W,1,10,1.5,18,M,,M,,*67
06/13/2015	09:03:29.579	$GPGGA,090330,2418.7569,N,08102.1595,W,1,9,1.4,18,M,,M,,*5D
06/13/2015	09:03:30.569	$GPGGA,090331,2418.7557,N,08102.1587,W,1,9,1.4,18,M,,M,,*52
06/13/2015	09:03:31.599	$GPGGA,090332,2418.7546,N,08102.1576,W,1,11,1.4,18,M,,M,,*66
06/13/2015	09:03:32.569	$GPGGA,090333,2418.7535,N,08102.1566,W,1,11,1.4,18,M,,M,,*62
06/13/2015	09:03:33.569	$GPGGA,090334,2418.7524,N,08102.1556,W,1,10,1.4,18,M,,M,,*67
06/13/2015	09:03:34.570	$GPGGA,090335,2418.7513,N,08102.1547,W,1,10,1.4,18,M,,M,,*62
06/13/2015	09:03:35.630	$GPGGA,090336,2418.7503,N,08102.1537,W,1,11,1.4,18,M,,M,,*66
06/13/2015	09:03:36.568	$GPGGA,090337,2418.7492,N,08102.1528,W,1,11,1.4,18,M,,M,,*60
06/13/2015	09:03:37.580	$GPGGA,090338,2418.7480,N,08102.1517,W,1,10,1.4,18,M,,M,,*61
06/13/2015	09:03:38.553	$GPGGA,090339,2418.7469,N,08102.1507,W,1,10,1.5,18,M,,M,,*67
06/13/2015	09:03:39.580	$GPGGA,090340,2418.7460,N,08102.1499,W,1,9,1.4,18,M,,M,,*5F
06/13/2015	09:03:40.563	$GPGGA,090341,2418.7449,N,08102.1491,W,1,9,1.8,18,M,,M,,*51
06/13/2015	09:03:41.555	$GPGGA,090342,2418.7439,N,08102.1479,W,1,9,1.8,18,M,,M,,*53
06/13/2015	09:03:42.570	$GPGGA,090343,2418.7426,N,08102.1466,W,1,9,1.5,18,M,,M,,*5F
06/13/2015	09:03:43.580	$GPGGA,090344,2418.7415,N,08102.1457,W,1,9,1.4,18,M,,M,,*5B
06/13/2015	09:03:44.654	$GPGGA,090345,2418.7405,N,08102.1451,W,1,9,1.4,18,M,,M,,*5D
06/13/2015	09:03:45.570	$GPGGA,090346,2418.7395,N,08102.1441,W,1,10,1.4,18,M,,M,,*69
06/13/2015	09:03:46.549	$GPGGA,090347,2418.7395,N,08102.1441,W,1,10,1.4,18,M,,M,,*68
06/13/2015	09:03:47.579	$GPGGA,090348,2418.7373,N,08102.1421,W,1,11,1.5,18,M,,M,,*69
06/13/2015	09:03:48.651	$GPGGA,090349,2418.7361,N,08102.1414,W,1,11,1.5,18,M,,M,,*6D
06/13/2015	09:03:49.519	$GPGGA,090350,2418.7350,N,08102.1403,W,1,11,1.4,18,M,,M,,*60
06/13/2015	09:03:50.655	$GPGGA,090351,2418.7340,N,08102.1394,W,1,11,1.4,18,M,,M,,*69
06/13/2015	09:03:51.662	$GPGGA,090352,2418.7329,N,08102.1387,W,1,11,1.4,18,M,,M,,*67
06/13/2015	09:03:52.630	$GPGGA,090353,2418.7318,N,08102.1376,W,1,11,1.4,18,M,,M,,*6A
06/13/2015	09:03:53.640	$GPGGA,090354,2418.7307,N,08102.1366,W,1,11,1.4,18,M,,M,,*62
06/13/2015	09:03:54.610	$GPGGA,090355,2418.7294,N,08102.1356,W,1,11,1.4,18,M,,M,,*6B
06/13/2015	09:03:55.540	$GPGGA,090356,2418.7285,N,08102.1347,W,1,8,1.6,18,M,,M,,*52
06/13/2015	09:03:56.610	$GPGGA,090357,2418.7275,N,08102.1338,W,1,8,1.4,18,M,,M,,*56
06/13/2015	09:03:57.630	$GPGGA,090358,2418.7263,N,08102.1329,W,1,10,1.4,18,M,,M,,*67
06/13/2015	09:03:58.530	$GPGGA,090359,2418.7263,N,08102.1329,W,1,10,1.4,18,M,,M,,*66
06/13/2015	09:03:59.640	$GPGGA,090400,2418.7245,N,08102.1312,W,1,11,1.4,19,M,,M,,*61
06/13/2015	09:04:00.600	$GPGGA,090401,2418.7235,N,08102.1305,W,1,11,1.4,19,M,,M,,*61
06/13/2015	09:04:01.500	$GPGGA,090402,2418.7224,N,08102.1297,W,1,10,1.8,19,M,,M,,*65
06/13/2015	09:04:02.600	$GPGGA,090403,2418.7215,N,08102.1289,W,1,10,1.4,19,M,,M,,*65
06/13/2015	09:04:03.639	$GPGGA,090404,2418.7206,N,08102.1276,W,1,11,1.4,19,M,,M,,*61
06/13/2015	09:04:04.589	$GPGGA,090405,2418.7195,N,08102.1267,W,1,11,1.4,19,M,,M,,*69
06/13/2015	09:04:05.609	$GPGGA,090406,2418.7185,N,08102.1260,W,1,11,1.4,19,M,,M,,*6C
06/13/2015	09:04:06.589	$GPGGA,090407,2418.7173,N,08102.1249,W,1,11,1.4,19,M,,M,,*6F
06/13/2015	09:04:07.619	$GPGGA,090408,2418.7164,N,08102.1237,W,1,11,1.4,19,M,,M,,*6F
06/13/2015	09:04:08.589	$GPGGA,090409,2418.7155,N,08102.1225,W,1,11,1.4,19,M,,M,,*6F
06/13/2015	09:04:09.600	$GPGGA,090410,2418.7143,N,08102.1218,W,1,11,1.4,19,M,,M,,*6E
06/13/2015	09:04:10.600	$GPGGA,090411,2418.7134,N,08102.1210,W,1,11,1.4,19,M,,M,,*67
06/13/2015	09:04:11.590	$GPGGA,090412,2418.7126,N,08102.1198,W,1,10,1.4,19,M,,M,,*65
06/13/2015	09:04:12.590	$GPGGA,090413,2418.7116,N,08102.1187,W,1,10,1.5,19,M,,M,,*68
06/13/2015	09:04:13.590	$GPGGA,090414,2418.7106,N,08102.1179,W,1,11,1.4,19,M,,M,,*6F
06/13/2015	09:04:14.580	$GPGGA,090415,2418.7096,N,08102.1168,W,1,11,1.4,19,M,,M,,*66
06/13/2015	09:04:15.600	$GPGGA,090416,2418.7087,N,08102.1158,W,1,9,1.5,19,M,,M,,*5E
06/13/2015	09:04:16.580	$GPGGA,090417,2418.7087,N,08102.1158,W,1,9,1.4,19,M,,M,,*5E
06/13/2015	09:04:17.570	$GPGGA,090418,2418.7069,N,08102.1140,W,1,11,1.4,19,M,,M,,*61
06/13/2015	09:04:18.580	$GPGGA,090419,2418.7061,N,08102.1130,W,1,11,1.4,19,M,,M,,*6F
06/13/2015	09:04:19.600	$GPGGA,090420,2418.7050,N,08102.1118,W,1,11,1.4,19,M,,M,,*6D
06/13/2015	09:04:20.567	$GPGGA,090421,2418.7041,N,08102.1108,W,1,11,1.4,19,M,,M,,*6D
06/13/2015	09:04:21.564	$GPGGA,090422,2418.7030,N,08102.1099,W,1,11,1.4,19,M,,M,,*61
06/13/2015	09:04:22.564	$GPGGA,090423,2418.7021,N,08102.1088,W,1,11,1.4,19,M,,M,,*60
06/13/2015	09:04:23.569	$GPGGA,090424,2418.7012,N,08102.1076,W,1,11,1.4,20,M,,M,,*6C
06/13/2015	09:04:24.563	$GPGGA,090425,2418.7002,N,08102.1065,W,1,11,1.4,20,M,,M,,*6E
06/13/2015	09:04:25.554	$GPGGA,090426,2418.6992,N,08102.1056,W,1,11,1.4,20,M,,M,,*6C
06/13/2015	09:04:26.566	$GPGGA,090427,2418.6982,N,08102.1044,W,1,11,1.4,20,M,,M,,*6F
06/13/2015	09:04:27.555	$GPGGA,090428,2418.6971,N,08102.1033,W,1,10,1.4,20,M,,M,,*6D
06/13/2015	09:04:28.556	$GPGGA,090429,2418.6962,N,08102.1023,W,1,10,1.4,20,M,,M,,*6F
06/13/2015	09:04:29.540	$GPGGA,090430,2418.6953,N,08102.1010,W,1,11,1.4,20,M,,M,,*64
06/13/2015	09:04:30.568	$GPGGA,090431,2418.6942,N,08102.1000,W,1,11,1.4,20,M,,M,,*64
06/13/2015	09:04:31.570	$GPGGA,090432,2418.6931,N,08102.0991,W,1,11,1.4,20,M,,M,,*63
06/13/2015	09:04:32.550	$GPGGA,090433,2418.6921,N,08102.0978,W,1,11,1.5,20,M,,M,,*65
06/13/2015	09:04:33.563	$GPGGA,090434,2418.6911,N,08102.0969,W,1,10,1.4,20,M,,M,,*61
06/13/2015	09:04:34.540	$GPGGA,090435,2418.6902,N,08102.0959,W,1,10,1.4,20,M,,M,,*61
06/13/2015	09:04:35.570	$GPGGA,090436,2418.6889,N,08102.0945,W,1,8,1.6,20,M,,M,,*56
06/13/2015	09:04:36.540	$GPGGA,090437,2418.6877,N,08102.0940,W,1,8,1.5,20,M,,M,,*50
06/13/2015	09:04:37.560	$GPGGA,090438,2418.6870,N,08102.0933,W,1,11,1.4,20,M,,M,,*65
06/13/2015	09:04:38.529	$GPGGA,090439,2418.6862,N,08102.0921,W,1,11,1.4,20,M,,M,,*64
06/13/2015	09:04:39.551	$GPGGA,090440,2418.6852,N,08102.0912,W,1,11,1.4,20,M,,M,,*69
06/13/2015	09:04:40.554	$GPGGA,090441,2418.6839,N,08102.0907,W,1,11,1.4,20,M,,M,,*61
06/13/2015	09:04:41.539	$GPGGA,090442,2418.6830,N,08102.0897,W,1,10,1.4,20,M,,M,,*62
06/13/2015	09:04:42.609	$GPGGA,090443,2418.6824,N,08102.0885,W,1,10,1.4,20,M,,M,,*65
06/13/2015	09:04:43.553	$GPGGA,090444,2418.6813,N,08102.0878,W,1,11,1.4,20,M,,M,,*65
06/13/2015	09:04:44.620	$GPGGA,090445,2418.6801,N,08102.0869,W,1,11,1.4,20,M,,M,,*67
06/13/2015	09:04:45.653	$GPGGA,090446,2418.6791,N,08102.0858,W,1,11,1.4,20,M,,M,,*60
06/13/2015	09:04:46.520	$GPGGA,090447,2418.6781,N,08102.0849,W,1,11,1.4,20,M,,M,,*60
06/13/2015	09:04:47.541	$GPGGA,090448,2418.6769,N,08102.0838,W,1,9,1.5,20,M,,M,,*57
06/13/2015	09:04:48.620	$GPGGA,090449,2418.6760,N,08102.0826,W,1,9,1.5,20,M,,M,,*50
06/13/2015	09:04:49.500	$GPGGA,090450,2418.6752,N,08102.0823,W,1,9,1.5,20,M,,M,,*5C
06/13/2015	09:04:50.590	$GPGGA,090451,2418.6740,N,08102.0814,W,1,9,1.5,20,M,,M,,*5A
06/13/2015	09:04:51.520	$GPGGA,090452,2418.6729,N,08102.0802,W,1,11,1.4,20,M,,M,,*69
06/13/2015	09:04:52.590	$GPGGA,090453,2418.6719,N,08102.0791,W,1,11,1.4,20,M,,M,,*6E
06/13/2015	09:04:53.490	$GPGGA,090454,2418.6711,N,08102.0784,W,1,11,1.4,20,M,,M,,*65
06/13/2015	09:04:54.590	$GPGGA,090455,2418.6697,N,08102.0772,W,1,11,1.8,20,M,,M,,*6E
06/13/2015	09:04:55.630	$GPGGA,090456,2418.6686,N,08102.0760,W,1,10,1.4,20,M,,M,,*63
06/13/2015	09:04:56.589	$GPGGA,090457,2418.6678,N,08102.0752,W,1,10,1.4,20,M,,M,,*62
06/13/2015	09:04:57.619	$GPGGA,090458,2418.6669,N,08102.0742,W,1,10,1.4,20,M,,M,,*6C
06/13/2015	09:04:58.579	$GPGGA,090459,2418.6657,N,08102.0731,W,1,10,1.4,20,M,,M,,*64
06/13/2015	09:04:59.639	$GPGGA,090500,2418.6646,N,08102.0723,W,1,10,1.4,20,M,,M,,*6A
06/13/2015	09:05:00.589	$GPGGA,090501,2418.6637,N,08102.0712,W,1,10,1.4,21,M,,M,,*6E
06/13/2015	09:05:01.600	$GPGGA,090502,2418.6628,N,08102.0701,W,1,10,1.4,21,M,,M,,*61
06/13/2015	09:05:02.580	$GPGGA,090503,2418.6615,N,08102.0693,W,1,10,1.4,21,M,,M,,*64
06/13/2015	09:05:03.580	$GPGGA,090504,2418.6606,N,08102.0684,W,1,11,1.4,21,M,,M,,*66
06/13/2015	09:05:04.570	$GPGGA,090505,2418.6599,N,08102.0674,W,1,11,1.4,21,M,,M,,*6D
06/13/2015	09:05:05.600	$GPGGA,090506,2418.6588,N,08102.0665,W,1,10,1.4,21,M,,M,,*6F
06/13/2015	09:05:06.570	$GPGGA,090507,2418.6577,N,08102.0656,W,1,10,1.4,21,M,,M,,*6E
06/13/2015	09:05:07.600	$GPGGA,090508,2418.6566,N,08102.0644,W,1,11,1.4,21,M,,M,,*63
06/13/2015	09:05:08.563	$GPGGA,090509,2418.6557,N,08102.0634,W,1,11,1.4,21,M,,M,,*67
06/13/2015	09:05:09.580	$GPGGA,090510,2418.6549,N,08102.0627,W,1,9,1.5,21,M,,M,,*5A
06/13/2015	09:05:10.562	$GPGGA,090511,2418.6538,N,08102.0618,W,1,9,1.4,21,M,,M,,*50
06/13/2015	09:05:11.570	$GPGGA,090512,2418.6528,N,08102.0607,W,1,11,1.4,21,M,,M,,*65
06/13/2015	09:05:12.554	$GPGGA,090513,2418.6519,N,08102.0598,W,1,11,1.4,21,M,,M,,*63
06/13/2015	09:05:13.599	$GPGGA,090514,2418.6509,N,08102.0592,W,1,11,1.4,21,M,,M,,*6F
06/13/2015	09:05:14.562	$GPGGA,090515,2418.6501,N,08102.0583,W,1,11,1.4,21,M,,M,,*66
06/13/2015	09:05:15.569	$GPGGA,090516,2418.6492,N,08102.0575,W,1,10,1.4,21,M,,M,,*66
06/13/2015	09:05:16.554	$GPGGA,090517,2418.6480,N,08102.0565,W,1,10,1.4,21,M,,M,,*65
06/13/2015	09:05:17.553	$GPGGA,090518,2418.6470,N,08102.0557,W,1,11,1.4,21,M,,M,,*65
06/13/2015	09:05:18.565	$GPGGA,090519,2418.6462,N,08102.0550,W,1,11,1.4,21,M,,M,,*60
06/13/2015	09:05:19.590	$GPGGA,090520,2418.6454,N,08102.0544,W,1,11,1.4,21,M,,M,,*6A
06/13/2015	09:05:20.562	$GPGGA,090521,2418.6444,N,08102.0537,W,1,11,1.4,21,M,,M,,*6E
06/13/2015	09:05:21.530	$GPGGA,090522,2418.6434,N,08102.0526,W,1,11,1.4,21,M,,M,,*6A
06/13/2015	09:05:22.540	$GPGGA,090523,2418.6425,N,08102.0517,W,1,11,1.4,21,M,,M,,*69
06/13/2015	09:05:23.559	$GPGGA,090524,2418.6414,N,08102.0510,W,1,10,1.4,21,M,,M,,*6A
06/13/2015	09:05:24.540	$GPGGA,090525,2418.6405,N,08102.0503,W,1,10,1.4,21,M,,M,,*69
06/13/2015	09:05:25.530	$GPGGA,090526,2418.6398,N,08102.0495,W,1,11,1.4,21,M,,M,,*66
06/13/2015	09:05:26.540	$GPGGA,090527,2418.6386,N,08102.0483,W,1,11,1.8,21,M,,M,,*63
06/13/2015	09:05:27.580	$GPGGA,090528,2418.6377,N,08102.0475,W,1,11,1.4,21,M,,M,,*67
06/13/2015	09:05:28.530	$GPGGA,090529,2418.6367,N,08102.0468,W,1,11,1.4,21,M,,M,,*6B
06/13/2015	09:05:29.520	$GPGGA,090530,2418.6355,N,08102.0460,W,1,10,1.4,21,M,,M,,*6B
06/13/2015	09:05:30.530	$GPGGA,090531,2418.6346,N,08102.0449,W,1,10,1.4,21,M,,M,,*63
06/13/2015	09:05:31.669	$GPGGA,090532,2418.6337,N,08102.0439,W,1,10,1.4,21,M,,M,,*61
06/13/2015	09:05:32.629	$GPGGA,090533,2418.6328,N,08102.0434,W,1,10,1.4,21,M,,M,,*63
06/13/2015	09:05:33.639	$GPGGA,090534,2418.6317,N,08102.0429,W,1,11,1.4,21,M,,M,,*65
06/13/2015	09:05:34.609	$GPGGA,090535,2418.6308,N,08102.0418,W,1,11,1.4,21,M,,M,,*68
06/13/2015	09:05:35.519	$GPGGA,090536,2418.6299,N,08102.0407,W,1,11,1.4,21,M,,M,,*6C
06/13/2015	09:05:36.600	$GPGGA,090537,2418.6290,N,08102.0402,W,1,11,1.4,21,M,,M,,*61
06/13/2015	09:05:37.630	$GPGGA,090538,2418.6281,N,08102.0394,W,1,11,1.4,21,M,,M,,*66
06/13/2015	09:05:38.610	$GPGGA,090539,2418.6273,N,08102.0386,W,1,11,1.4,21,M,,M,,*69
06/13/2015	09:05:39.652	$GPGGA,090540,2418.6264,N,08102.0378,W,1,11,1.4,21,M,,M,,*60
06/13/2015	09:05:40.600	$GPGGA,090541,2418.6255,N,08102.0374,W,1,11,1.4,21,M,,M,,*6F
06/13/2015	09:05:41.600	$GPGGA,090542,2418.6249,N,08102.0365,W,1,11,1.4,21,M,,M,,*61
06/13/2015	09:05:42.600	$GPGGA,090543,2418.6241,N,08102.0356,W,1,11,1.4,21,M,,M,,*68
06/13/2015	09:05:43.510	$GPGGA,090544,2418.6230,N,08102.0348,W,1,10,1.4,21,M,,M,,*67
06/13/2015	09:05:44.590	$GPGGA,090545,2418.6220,N,08102.0342,W,1,10,1.4,21,M,,M,,*6D
06/13/2015	09:05:45.600	$GPGGA,090546,2418.6216,N,08102.0332,W,1,11,1.4,21,M,,M,,*6D
06/13/2015	09:05:46.590	$GPGGA,090547,2418.6205,N,08102.0323,W,1,11,1.4,21,M,,M,,*6E
06/13/2015	09:05:47.630	$GPGGA,090548,2418.6196,N,08102.0316,W,1,10,1.4,21,M,,M,,*6F
06/13/2015	09:05:48.589	$GPGGA,090549,2418.6187,N,08102.0308,W,1,10,1.5,21,M,,M,,*60
06/13/2015	09:05:49.579	$GPGGA,090550,2418.6177,N,08102.0299,W,1,11,1.4,21,M,,M,,*6E
06/13/2015	09:05:50.599	$GPGGA,090551,2418.6169,N,08102.0292,W,1,11,1.4,21,M,,M,,*6B
06/13/2015	09:05:51.609	$GPGGA,090552,2418.6161,N,08102.0283,W,1,9,1.5,21,M,,M,,*58
06/13/2015	09:05:52.579	$GPGGA,090553,2418.6154,N,08102.0275,W,1,9,1.4,21,M,,M,,*57
06/13/2015	09:05:53.579	$GPGGA,090554,2418.6145,N,08102.0267,W,1,10,1.4,21,M,,M,,*6B
06/13/2015	09:05:54.570	$GPGGA,090555,2418.6138,N,08102.0258,W,1,10,1.5,21,M,,M,,*6D
06/13/2015	09:05:55.620	$GPGGA,090556,2418.6129,N,08102.0249,W,1,10,1.4,21,M,,M,,*6F
06/13/2015	09:05:56.580	$GPGGA,090557,2418.6120,N,08102.0242,W,1,10,1.4,21,M,,M,,*6C
06/13/2015	09:05:57.570	$GPGGA,090558,2418.6112,N,08102.0232,W,1,11,1.4,21,M,,M,,*64
06/13/2015	09:05:58.570	$GPGGA,090559,2418.6104,N,08102.0223,W,1,11,1.4,21,M,,M,,*62
06/13/2015	09:05:59.630	$GPGGA,090600,2418.6093,N,08102.0216,W,1,10,1.4,21,M,,M,,*65
06/13/2015	09:06:00.570	$GPGGA,090601,2418.6086,N,08102.0208,W,1,10,1.4,21,M,,M,,*6F
06/13/2015	09:06:01.580	$GPGGA,090602,2418.6078,N,08102.0197,W,1,10,1.4,21,M,,M,,*68
06/13/2015	09:06:02.555	$GPGGA,090603,2418.6066,N,08102.0189,W,1,10,1.4,21,M,,M,,*69
06/13/2015	09:06:03.590	$GPGGA,090604,2418.6057,N,08102.0179,W,1,10,1.4,21,M,,M,,*63
06/13/2015	09:06:04.545	$GPGGA,090605,2418.6049,N,08102.0165,W,1,10,1.5,21,M,,M,,*61
06/13/2015	09:06:05.544	$GPGGA,090606,2418.6037,N,08102.0156,W,1,9,1.5,21,M,,M,,*53
06/13/2015	09:06:06.539	$GPGGA,090607,2418.6028,N,08102.0147,W,1,9,1.4,21,M,,M,,*5D
06/13/2015	09:06:07.551	$GPGGA,090608,2418.6019,N,08102.0135,W,1,9,1.5,21,M,,M,,*54
06/13/2015	09:06:09.789	$GPGGA,090609,2418.6010,N,08102.0124,W,1,9,1.5,21,M,,M,,*5C
06/13/2015	09:06:09.819	$GPGGA,090610,2418.5999,N,08102.0115,W,1,11,1.4,21,M,,M,,*65
06/13/2015	09:06:10.540	$GPGGA,090611,2418.5990,N,08102.0103,W,1,11,1.4,21,M,,M,,*6A
06/13/2015	09:06:11.553	$GPGGA,090612,2418.5981,N,08102.0093,W,1,11,1.4,21,M,,M,,*61
06/13/2015	09:06:12.539	$GPGGA,090613,2418.5970,N,08102.0083,W,1,11,1.4,21,M,,M,,*6F
06/13/2015	09:06:13.519	$GPGGA,090614,2418.5960,N,08102.0072,W,1,11,1.4,21,M,,M,,*67
06/13/2015	09:06:14.519	$GPGGA,090615,2418.5952,N,08102.0060,W,1,11,1.4,21,M,,M,,*64
06/13/2015	09:06:15.545	$GPGGA,090616,2418.5941,N,08102.0049,W,1,11,1.4,21,M,,M,,*6E
06/13/2015	09:06:16.529	$GPGGA,090617,2418.5930,N,08102.0038,W,1,11,1.4,21,M,,M,,*6F
06/13/2015	09:06:17.529	$GPGGA,090618,2418.5921,N,08102.0027,W,1,9,1.4,21,M,,M,,*57
06/13/2015	09:06:18.529	$GPGGA,090619,2418.5909,N,08102.0015,W,1,9,1.4,21,M,,M,,*5D
06/13/2015	09:06:19.629	$GPGGA,090620,2418.5898,N,08102.0004,W,1,10,1.4,21,M,,M,,*66
06/13/2015	09:06:20.519	$GPGGA,090621,2418.5887,N,08101.9993,W,1,10,1.4,21,M,,M,,*64
06/13/2015	09:06:21.609	$GPGGA,090622,2418.5878,N,08101.9979,W,1,10,1.4,21,M,,M,,*63
06/13/2015	09:06:22.645	$GPGGA,090623,2418.5867,N,08101.9970,W,1,10,1.4,21,M,,M,,*65
06/13/2015	09:06:23.609	$GPGGA,090624,2418.5854,N,08101.9960,W,1,10,1.4,21,M,,M,,*63
06/13/2015	09:06:24.620	$GPGGA,090625,2418.5847,N,08101.9946,W,1,10,1.5,20,M,,M,,*64
06/13/2015	09:06:25.609	$GPGGA,090626,2418.5838,N,08101.9933,W,1,11,1.4,20,M,,M,,*6D
06/13/2015	09:06:26.619	$GPGGA,090627,2418.5824,N,08101.9925,W,1,11,1.4,20,M,,M,,*66
06/13/2015	09:06:27.520	$GPGGA,090628,2418.5815,N,08101.9916,W,1,9,1.5,20,M,,M,,*53
06/13/2015	09:06:28.489	$GPGGA,090629,2418.5808,N,08101.9904,W,1,9,1.4,20,M,,M,,*5C
06/13/2015	09:06:29.609	$GPGGA,090630,2418.5797,N,08101.9889,W,1,8,1.9,20,M,,M,,*55
06/13/2015	09:06:30.489	$GPGGA,090631,2418.5786,N,08101.9881,W,1,8,1.4,20,M,,M,,*51
06/13/2015	09:06:31.589	$GPGGA,090632,2418.5777,N,08101.9872,W,1,9,1.5,20,M,,M,,*50
06/13/2015	09:06:32.580	$GPGGA,090633,2418.5766,N,08101.9858,W,1,9,1.4,20,M,,M,,*58
06/13/2015	09:06:33.599	$GPGGA,090634,2418.5757,N,08101.9848,W,1,9,1.5,20,M,,M,,*5D
06/13/2015	09:06:34.579	$GPGGA,090635,2418.5746,N,08101.9841,W,1,9,1.4,20,M,,M,,*54
06/13/2015	09:06:35.629	$GPGGA,090636,2418.5737,N,08101.9830,W,1,10,1.4,20,M,,M,,*6F
06/13/2015	09:06:36.569	$GPGGA,090637,2418.5728,N,08101.9820,W,1,10,1.5,20,M,,M,,*60
06/13/2015	09:06:37.589	$GPGGA,090638,2418.5719,N,08101.9812,W,1,10,1.4,20,M,,M,,*6D
06/13/2015	09:06:38.589	$GPGGA,090639,2418.5711,N,08101.9806,W,1,10,1.5,20,M,,M,,*60
06/13/2015	09:06:39.643	$GPGGA,090640,2418.5703,N,08101.9793,W,1,10,1.4,20,M,,M,,*6F
06/13/2015	09:06:40.570	$GPGGA,090641,2418.5692,N,08101.9784,W,1,10,1.4,20,M,,M,,*61
06/13/2015	09:06:41.599	$GPGGA,090642,2418.5681,N,08101.9774,W,1,10,1.4,20,M,,M,,*6F
06/13/2015	09:06:42.569	$GPGGA,090643,2418.5672,N,08101.9763,W,1,10,1.5,20,M,,M,,*65
06/13/2015	09:06:43.600	$GPGGA,090644,2418.5661,N,08101.9754,W,1,9,1.5,20,M,,M,,*5C
06/13/2015	09:06:44.569	$GPGGA,090645,2418.5652,N,08101.9746,W,1,9,1.4,20,M,,M,,*5F
06/13/2015	09:06:45.589	$GPGGA,090646,2418.5642,N,08101.9735,W,1,10,1.4,20,M,,M,,*61
06/13/2015	09:06:46.552	$GPGGA,090647,2418.5634,N,08101.9725,W,1,10,1.4,20,M,,M,,*60
06/13/2015	09:06:47.589	$GPGGA,090648,2418.5624,N,08101.9718,W,1,11,1.4,20,M,,M,,*61
06/13/2015	09:06:48.559	$GPGGA,090649,2418.5614,N,08101.9711,W,1,11,1.4,20,M,,M,,*6A
06/13/2015	09:06:49.553	$GPGGA,090650,2418.5605,N,08101.9699,W,1,11,1.4,20,M,,M,,*63
06/13/2015	09:06:50.559	$GPGGA,090651,2418.5594,N,08101.9691,W,1,11,1.4,20,M,,M,,*61
06/13/2015	09:06:51.559	$GPGGA,090652,2418.5582,N,08101.9684,W,1,11,1.4,20,M,,M,,*61
06/13/2015	09:06:52.557	$GPGGA,090653,2418.5573,N,08101.9673,W,1,11,1.4,20,M,,M,,*66
06/13/2015	09:06:53.541	$GPGGA,090654,2418.5565,N,08101.9664,W,1,11,1.4,20,M,,M,,*60
06/13/2015	09:06:54.559	$GPGGA,090655,2418.5555,N,08101.9657,W,1,11,1.4,20,M,,M,,*62
06/13/2015	09:06:55.549	$GPGGA,090656,2418.5544,N,08101.9648,W,1,10,1.4,20,M,,M,,*6E
06/13/2015	09:06:56.652	$GPGGA,090657,2418.5533,N,08101.9639,W,1,10,1.4,20,M,,M,,*69
06/13/2015	09:06:57.540	$GPGGA,090658,2418.5523,N,08101.9629,W,1,11,1.4,20,M,,M,,*67
06/13/2015	09:06:58.540	$GPGGA,090659,2418.5513,N,08101.9621,W,1,11,1.4,20,M,,M,,*6D
06/13/2015	09:06:59.552	$GPGGA,090700,2418.5502,N,08101.9614,W,1,10,1.4,20,M,,M,,*67
06/13/2015	09:07:00.539	$GPGGA,090701,2418.5491,N,08101.9606,W,1,10,1.4,20,M,,M,,*6E
06/13/2015	09:07:01.579	$GPGGA,090702,2418.5482,N,08101.9597,W,1,11,1.4,20,M,,M,,*65
06/13/2015	09:07:02.542	$GPGGA,090703,2418.5471,N,08101.9587,W,1,11,1.4,20,M,,M,,*69
06/13/2015	09:07:03.654	$GPGGA,090704,2418.5463,N,08101.9578,W,1,10,1.4,20,M,,M,,*6C
06/13/2015	09:07:04.519	$GPGGA,090705,2418.5452,N,08101.9571,W,1,10,1.4,20,M,,M,,*66
06/13/2015	09:07:05.652	$GPGGA,090706,2418.5440,N,08101.9561,W,1,11,1.4,20,M,,M,,*66
06/13/2015	09:07:06.519	$GPGGA,090707,2418.5432,N,08101.9550,W,1,11,1.4,20,M,,M,,*60
06/13/2015	09:07:07.542	$GPGGA,090708,2418.5423,N,08101.9542,W,1,10,1.4,20,M,,M,,*6D
06/13/2015	09:07:08.529	$GPGGA,090709,2418.5412,N,08101.9536,W,1,10,1.4,20,M,,M,,*6D
06/13/2015	09:07:09.520	$GPGGA,090710,2418.5403,N,08101.9527,W,1,11,1.4,20,M,,M,,*64
06/13/2015	09:07:10.619	$GPGGA,090711,2418.5393,N,08101.9515,W,1,11,1.4,20,M,,M,,*6A
06/13/2015	09:07:11.669	$GPGGA,090712,2418.5385,N,08101.9505,W,1,10,1.4,20,M,,M,,*6E
06/13/2015	09:07:12.499	$GPGGA,090713,2418.5375,N,08101.9499,W,1,10,1.4,20,M,,M,,*64
06/13/2015	09:07:13.529	$GPGGA,090714,2418.5364,N,08101.9494,W,1,11,1.4,20,M,,M,,*6F
06/13/2015	09:07:14.610	$GPGGA,090715,2418.5356,N,08101.9484,W,1,11,1.4,20,M,,M,,*6E
06/13/2015	09:07:15.620	$GPGGA,090716,2418.5346,N,08101.9473,W,1,11,1.4,20,M,,M,,*64
06/13/2015	09:07:16.599	$GPGGA,090717,2418.5336,N,08101.9463,W,1,11,1.4,20,M,,M,,*63
06/13/2015	09:07:17.599	$GPGGA,090718,2418.5327,N,08101.9457,W,1,10,1.4,20,M,,M,,*6A
06/13/2015	09:07:18.609	$GPGGA,090719,2418.5316,N,08101.9449,W,1,10,1.4,20,M,,M,,*66
06/13/2015	09:07:19.520	$GPGGA,090720,2418.5309,N,08101.9437,W,1,10,1.4,20,M,,M,,*6B
06/13/2015	09:07:20.609	$GPGGA,090721,2418.5300,N,08101.9428,W,1,10,1.4,20,M,,M,,*6D
06/13/2015	09:07:21.509	$GPGGA,090722,2418.5289,N,08101.9420,W,1,11,1.4,20,M,,M,,*67
06/13/2015	09:07:22.579	$GPGGA,090723,2418.5281,N,08101.9414,W,1,11,1.4,20,M,,M,,*69
06/13/2015	09:07:23.619	$GPGGA,090724,2418.5271,N,08101.9403,W,1,11,1.5,20,M,,M,,*66
06/13/2015	09:07:24.589	$GPGGA,090725,2418.5262,N,08101.9394,W,1,11,1.4,20,M,,M,,*6D
06/13/2015	09:07:25.609	$GPGGA,090726,2418.5252,N,08101.9384,W,1,10,1.4,20,M,,M,,*6D
06/13/2015	09:07:26.589	$GPGGA,090727,2418.5244,N,08101.9373,W,1,10,1.4,20,M,,M,,*63
06/13/2015	09:07:27.609	$GPGGA,090728,2418.5234,N,08101.9369,W,1,11,1.8,20,M,,M,,*6D
06/13/2015	09:07:28.569	$GPGGA,090729,2418.5224,N,08101.9360,W,1,11,1.8,20,M,,M,,*64
06/13/2015	09:07:29.569	$GPGGA,090730,2418.5217,N,08101.9349,W,1,10,1.8,20,M,,M,,*66
06/13/2015	09:07:30.579	$GPGGA,090731,2418.5209,N,08101.9344,W,1,10,1.8,20,M,,M,,*65
06/13/2015	09:07:31.599	$GPGGA,090732,2418.5197,N,08101.9335,W,1,9,1.9,20,M,,M,,*5D
06/13/2015	09:07:32.570	$GPGGA,090733,2418.5190,N,08101.9322,W,1,9,1.8,20,M,,M,,*5C
06/13/2015	09:07:33.589	$GPGGA,090734,2418.5183,N,08101.9315,W,1,9,1.8,19,M,,M,,*57
06/13/2015	09:07:34.569	$GPGGA,090735,2418.5172,N,08101.9304,W,1,9,1.8,19,M,,M,,*58
06/13/2015	09:07:35.609	$GPGGA,090736,2418.5162,N,08101.9293,W,1,9,1.8,19,M,,M,,*55
06/13/2015	09:07:36.559	$GPGGA,090737,2418.5155,N,08101.9284,W,1,9,1.8,19,M,,M,,*56
06/13/2015	09:07:37.569	$GPGGA,090738,2418.5145,N,08101.9272,W,1,9,1.8,19,M,,M,,*51
06/13/2015	09:07:38.569	$GPGGA,090739,2418.5133,N,08101.9263,W,1,9,1.9,19,M,,M,,*50
06/13/2015	09:07:39.589	$GPGGA,090740,2418.5125,N,08101.9255,W,1,8,1.8,18,M,,M,,*5D
06/13/2015	09:07:40.553	$GPGGA,090741,2418.5115,N,08101.9243,W,1,8,1.8,18,M,,M,,*58
06/13/2015	09:07:41.579	$GPGGA,090742,2418.5107,N,08101.9233,W,1,9,1.8,18,M,,M,,*5E
06/13/2015	09:07:42.541	$GPGGA,090743,2418.5096,N,08101.9222,W,1,9,1.8,18,M,,M,,*56
06/13/2015	09:07:43.589	$GPGGA,090744,2418.5085,N,08101.9211,W,1,9,2.0,18,M,,M,,*58
06/13/2015	09:07:44.541	$GPGGA,090745,2418.5076,N,08101.9199,W,1,9,1.9,18,M,,M,,*5C
06/13/2015	09:07:45.569	$GPGGA,090746,2418.5067,N,08101.9188,W,1,8,1.8,17,M,,M,,*50
06/13/2015	09:07:46.549	$GPGGA,090747,2418.5057,N,08101.9177,W,1,8,1.8,17,M,,M,,*52
06/13/2015	09:07:47.629	$GPGGA,090748,2418.5045,N,08101.9165,W,1,9,1.9,17,M,,M,,*5D
06/13/2015	09:07:48.554	$GPGGA,090749,2418.5036,N,08101.9154,W,1,9,1.9,17,M,,M,,*5A
06/13/2015	09:07:49.553	$GPGGA,090750,2418.5027,N,08101.9142,W,1,8,2.0,17,M,,M,,*5E
06/13/2015	09:07:50.541	$GPGGA,090751,2418.5017,N,08101.9132,W,1,8,1.9,17,M,,M,,*51
06/13/2015	09:07:51.543	$GPGGA,090752,2418.5006,N,08101.9124,W,1,8,1.8,17,M,,M,,*54
06/13/2015	09:07:52.529	$GPGGA,090753,2418.4997,N,08101.9113,W,1,8,1.9,16,M,,M,,*51
06/13/2015	09:07:53.540	$GPGGA,090754,2418.4986,N,08101.9101,W,1,8,1.8,16,M,,M,,*54
06/13/2015	09:07:54.542	$GPGGA,090755,2418.4977,N,08101.9093,W,1,8,1.9,16,M,,M,,*50
06/13/2015	09:07:55.559	$GPGGA,090756,2418.4967,N,08101.9086,W,1,8,1.8,16,M,,M,,*57
06/13/2015	09:07:56.529	$GPGGA,090757,2418.4955,N,08101.9075,W,1,8,1.8,16,M,,M,,*5B
06/13/2015	09:07:57.654	$GPGGA,090758,2418.4948,N,08101.9064,W,1,9,1.8,16,M,,M,,*59
06/13/2015	09:07:58.542	$GPGGA,090759,2418.4938,N,08101.9056,W,1,9,1.8,16,M,,M,,*5E
06/13/2015	09:07:59.654	$GPGGA,090800,2418.4926,N,08101.9046,W,1,9,1.8,16,M,,M,,*53
06/13/2015	09:08:00.529	$GPGGA,090801,2418.4917,N,08101.9035,W,1,9,1.8,16,M,,M,,*54
06/13/2015	09:08:01.519	$GPGGA,090802,2418.4908,N,08101.9025,W,1,10,1.8,16,M,,M,,*60
06/13/2015	09:08:02.509	$GPGGA,090803,2418.4898,N,08101.9016,W,1,10,1.8,16,M,,M,,*69
06/13/2015	09:08:03.559	$GPGGA,090804,2418.4888,N,08101.9008,W,1,10,1.8,16,M,,M,,*60
06/13/2015	09:08:04.499	$GPGGA,090805,2418.4877,N,08101.8998,W,1,10,1.8,16,M,,M,,*60
06/13/2015	09:08:05.509	$GPGGA,090806,2418.4866,N,08101.8987,W,1,9,1.8,16,M,,M,,*55
06/13/2015	09:08:06.589	$GPGGA,090807,2418.4857,N,08101.8975,W,1,9,1.8,16,M,,M,,*5B
06/13/2015	09:08:07.552	$GPGGA,090808,2418.4846,N,08101.8966,W,1,8,1.8,15,M,,M,,*54
06/13/2015	09:08:08.519	$GPGGA,090809,2418.4834,N,08101.8959,W,1,8,1.8,15,M,,M,,*5C
06/13/2015	09:08:09.519	$GPGGA,090810,2418.4825,N,08101.8950,W,1,9,1.8,15,M,,M,,*5C
06/13/2015	09:08:10.579	$GPGGA,090811,2418.4815,N,08101.8939,W,1,9,1.8,15,M,,M,,*51
06/13/2015	09:08:11.609	$GPGGA,090812,2418.4804,N,08101.8931,W,1,10,1.8,15,M,,M,,*62
06/13/2015	09:08:12.509	$GPGGA,090813,2418.4794,N,08101.8925,W,1,10,1.8,15,M,,M,,*60
06/13/2015	09:08:14.091	$GPGGA,090814,2418.4783,N,08101.8914,W,1,9,1.8,15,M,,M,,*5B
06/13/2015	09:08:14.589	$GPGGA,090815,2418.4773,N,08101.8905,W,1,9,1.8,15,M,,M,,*55
06/13/2015	09:08:15.589	$GPGGA,090816,2418.4762,N,08101.8899,W,1,10,1.8,15,M,,M,,*6A
06/13/2015	09:08:16.579	$GPGGA,090817,2418.4751,N,08101.8890,W,1,10,1.8,15,M,,M,,*62
06/13/2015	09:08:17.579	$GPGGA,090818,2418.4743,N,08101.8881,W,1,10,1.8,15,M,,M,,*6E
06/13/2015	09:08:18.569	$GPGGA,090819,2418.4732,N,08101.8873,W,1,10,1.8,15,M,,M,,*64
06/13/2015	09:08:19.609	$GPGGA,090820,2418.4720,N,08101.8865,W,1,10,1.8,15,M,,M,,*6A
06/13/2015	09:08:20.569	$GPGGA,090821,2418.4713,N,08101.8857,W,1,10,1.8,15,M,,M,,*6A
06/13/2015	09:08:21.569	$GPGGA,090822,2418.4702,N,08101.8847,W,1,10,1.8,15,M,,M,,*68
06/13/2015	09:08:22.579	$GPGGA,090823,2418.4689,N,08101.8839,W,1,10,1.8,15,M,,M,,*62
06/13/2015	09:08:23.619	$GPGGA,090824,2418.4680,N,08101.8831,W,1,10,1.8,15,M,,M,,*64
06/13/2015	09:08:24.560	$GPGGA,090825,2418.4670,N,08101.8820,W,1,10,1.8,15,M,,M,,*6A
06/13/2015	09:08:25.550	$GPGGA,090826,2418.4659,N,08101.8810,W,1,10,1.8,15,M,,M,,*61
06/13/2015	09:08:27.631	$GPGGA,090828,2418.4637,N,08101.8793,W,1,10,1.8,15,M,,M,,*63
06/13/2015	09:08:28.559	$GPGGA,090829,2418.4628,N,08101.8784,W,1,10,1.8,15,M,,M,,*6A
06/13/2015	09:08:29.569	$GPGGA,090830,2418.4616,N,08101.8773,W,1,10,1.8,15,M,,M,,*67
06/13/2015	09:08:30.549	$GPGGA,090831,2418.4605,N,08101.8763,W,1,10,1.8,15,M,,M,,*65
06/13/2015	09:08:31.559	$GPGGA,090832,2418.4596,N,08101.8755,W,1,9,1.8,15,M,,M,,*52
06/13/2015	09:08:32.549	$GPGGA,090833,2418.4585,N,08101.8746,W,1,9,1.8,16,M,,M,,*50
06/13/2015	09:08:33.569	$GPGGA,090834,2418.4576,N,08101.8737,W,1,10,1.8,16,M,,M,,*65
06/13/2015	09:08:34.551	$GPGGA,090835,2418.4565,N,08101.8728,W,1,10,1.8,16,M,,M,,*68
06/13/2015	09:08:35.569	$GPGGA,090836,2418.4554,N,08101.8715,W,1,9,1.8,16,M,,M,,*5F
06/13/2015	09:08:36.549	$GPGGA,090837,2418.4544,N,08101.8706,W,1,9,1.8,16,M,,M,,*5D
06/13/2015	09:08:37.569	$GPGGA,090838,2418.4532,N,08101.8700,W,1,10,1.8,16,M,,M,,*6D
06/13/2015	09:08:38.549	$GPGGA,090839,2418.4521,N,08101.8689,W,1,10,1.8,16,M,,M,,*6E
06/13/2015	09:08:39.579	$GPGGA,090840,2418.4514,N,08101.8679,W,1,10,1.8,16,M,,M,,*69
06/13/2015	09:08:40.545	$GPGGA,090841,2418.4502,N,08101.8668,W,1,10,1.8,16,M,,M,,*6F
06/13/2015	09:08:41.544	$GPGGA,090842,2418.4490,N,08101.8658,W,1,7,2.0,16,M,,M,,*58
06/13/2015	09:08:42.520	$GPGGA,090843,2418.4480,N,08101.8645,W,1,7,1.8,16,M,,M,,*5F
06/13/2015	09:08:43.569	$GPGGA,090844,2418.4469,N,08101.8635,W,1,9,1.8,16,M,,M,,*56
06/13/2015	09:08:44.529	$GPGGA,090845,2418.4457,N,08101.8625,W,1,9,2.0,16,M,,M,,*50
06/13/2015	09:08:45.519	$GPGGA,090846,2418.4449,N,08101.8619,W,1,7,2.0,16,M,,M,,*5D
06/13/2015	09:08:46.519	$GPGGA,090847,2418.4440,N,08101.8609,W,1,7,1.8,16,M,,M,,*5F
06/13/2015	09:08:47.562	$GPGGA,090848,2418.4431,N,08101.8602,W,1,10,1.8,16,M,,M,,*6B
06/13/2015	09:08:48.539	$GPGGA,090849,2418.4420,N,08101.8591,W,1,10,1.8,16,M,,M,,*63
06/13/2015	09:08:49.609	$GPGGA,090850,2418.4411,N,08101.8579,W,1,10,1.8,16,M,,M,,*6F
06/13/2015	09:08:50.519	$GPGGA,090851,2418.4404,N,08101.8572,W,1,10,1.8,16,M,,M,,*61
06/13/2015	09:08:51.619	$GPGGA,090852,2418.4392,N,08101.8562,W,1,9,1.9,16,M,,M,,*52
06/13/2015	09:08:52.519	$GPGGA,090853,2418.4382,N,08101.8551,W,1,9,1.9,16,M,,M,,*52
06/13/2015	09:08:53.509	$GPGGA,090854,2418.4373,N,08101.8539,W,1,10,1.8,16,M,,M,,*6C
06/13/2015	09:08:54.519	$GPGGA,090855,2418.4363,N,08101.8531,W,1,10,1.8,16,M,,M,,*64
06/13/2015	09:08:55.651	$GPGGA,090856,2418.4352,N,08101.8520,W,1,9,2.2,16,M,,M,,*54
06/13/2015	09:08:56.519	$GPGGA,090857,2418.4341,N,08101.8511,W,1,9,1.8,16,M,,M,,*5C
06/13/2015	09:08:57.509	$GPGGA,090858,2418.4332,N,08101.8500,W,1,10,1.8,16,M,,M,,*6F
06/13/2015	09:08:58.509	$GPGGA,090859,2418.4321,N,08101.8489,W,1,10,1.8,16,M,,M,,*6C
06/13/2015	09:08:59.642	$GPGGA,090900,2418.4310,N,08101.8479,W,1,8,2.4,16,M,,M,,*5A
06/13/2015	09:09:00.510	$GPGGA,090901,2418.4302,N,08101.8469,W,1,8,1.8,16,M,,M,,*56
06/13/2015	09:09:01.589	$GPGGA,090902,2418.4294,N,08101.8457,W,1,10,1.8,17,M,,M,,*6E
06/13/2015	09:09:02.579	$GPGGA,090903,2418.4283,N,08101.8447,W,1,10,1.8,17,M,,M,,*68
06/13/2015	09:09:03.599	$GPGGA,090904,2418.4272,N,08101.8436,W,1,10,1.8,17,M,,M,,*67
06/13/2015	09:09:04.579	$GPGGA,090905,2418.4263,N,08101.8425,W,1,10,1.8,17,M,,M,,*64
06/13/2015	09:09:05.589	$GPGGA,090906,2418.4251,N,08101.8416,W,1,9,2.2,17,M,,M,,*57
06/13/2015	09:09:06.579	$GPGGA,090907,2418.4240,N,08101.8406,W,1,9,1.8,17,M,,M,,*5E
06/13/2015	09:09:08.073	$GPGGA,090908,2418.4230,N,08101.8392,W,1,10,1.8,18,M,,M,,*6B
06/13/2015	09:09:08.579	$GPGGA,090909,2418.4220,N,08101.8381,W,1,10,1.8,18,M,,M,,*69
06/13/2015	09:09:09.609	$GPGGA,090910,2418.4211,N,08101.8371,W,1,10,1.8,18,M,,M,,*6C
06/13/2015	09:09:10.569	$GPGGA,090911,2418.4200,N,08101.8358,W,1,10,1.9,18,M,,M,,*67
06/13/2015	09:09:11.599	$GPGGA,090912,2418.4193,N,08101.8347,W,1,10,1.8,18,M,,M,,*62
06/13/2015	09:09:12.579	$GPGGA,090913,2418.4185,N,08101.8338,W,1,10,1.8,18,M,,M,,*6C
06/13/2015	09:09:13.555	$GPGGA,090914,2418.4176,N,08101.8327,W,1,10,1.8,19,M,,M,,*68
06/13/2015	09:09:14.551	$GPGGA,090915,2418.4168,N,08101.8316,W,1,10,1.8,19,M,,M,,*64
06/13/2015	09:09:15.589	$GPGGA,090916,2418.4160,N,08101.8305,W,1,10,1.8,19,M,,M,,*6D
06/13/2015	09:09:16.570	$GPGGA,090917,2418.4150,N,08101.8294,W,1,10,1.8,19,M,,M,,*66
06/13/2015	09:09:17.551	$GPGGA,090918,2418.4142,N,08101.8284,W,1,8,1.9,19,M,,M,,*53
06/13/2015	09:09:18.559	$GPGGA,090919,2418.4131,N,08101.8274,W,1,8,1.9,19,M,,M,,*59
06/13/2015	09:09:19.589	$GPGGA,090920,2418.4124,N,08101.8265,W,1,9,1.8,19,M,,M,,*57
06/13/2015	09:09:20.559	$GPGGA,090921,2418.4113,N,08101.8256,W,1,9,1.8,19,M,,M,,*52
06/13/2015	09:09:21.569	$GPGGA,090922,2418.4101,N,08101.8244,W,1,8,1.9,19,M,,M,,*51
06/13/2015	09:09:22.550	$GPGGA,090923,2418.4092,N,08101.8229,W,1,8,1.8,19,M,,M,,*51
06/13/2015	09:09:23.569	$GPGGA,090924,2418.4082,N,08101.8219,W,1,8,1.9,19,M,,M,,*55
06/13/2015	09:09:24.559	$GPGGA,090925,2418.4073,N,08101.8213,W,1,8,2.0,19,M,,M,,*5A
06/13/2015	09:09:25.559	$GPGGA,090926,2418.4064,N,08101.8202,W,1,9,1.8,19,M,,M,,*55
06/13/2015	09:09:26.529	$GPGGA,090927,2418.4054,N,08101.8190,W,1,9,1.8,19,M,,M,,*5F
06/13/2015	09:09:27.551	$GPGGA,090928,2418.4044,N,08101.8182,W,1,10,1.8,19,M,,M,,*6A
06/13/2015	09:09:29.546	$GPGGA,090929,2418.4036,N,08101.8174,W,1,10,1.8,19,M,,M,,*67
06/13/2015	09:09:29.569	$GPGGA,090930,2418.4028,N,08101.8162,W,1,10,1.8,19,M,,M,,*67
06/13/2015	09:09:30.529	$GPGGA,090931,2418.4019,N,08101.8155,W,1,10,1.9,19,M,,M,,*61
06/13/2015	09:09:31.542	$GPGGA,090932,2418.4007,N,08101.8150,W,1,10,1.8,19,M,,M,,*69
06/13/2015	09:09:32.546	$GPGGA,090933,2418.4001,N,08101.8139,W,1,10,1.9,19,M,,M,,*60
06/13/2015	09:09:33.529	$GPGGA,090934,2418.3990,N,08101.8129,W,1,9,1.8,19,M,,M,,*59
06/13/2015	09:09:34.530	$GPGGA,090935,2418.3978,N,08101.8122,W,1,9,1.8,19,M,,M,,*55
06/13/2015	09:09:35.560	$GPGGA,090936,2418.3966,N,08101.8115,W,1,10,1.8,19,M,,M,,*65
06/13/2015	09:09:36.529	$GPGGA,090937,2418.3958,N,08101.8106,W,1,10,1.8,19,M,,M,,*6B
06/13/2015	09:09:37.619	$GPGGA,090938,2418.3948,N,08101.8099,W,1,9,1.8,19,M,,M,,*5A
06/13/2015	09:09:38.509	$GPGGA,090939,2418.3937,N,08101.8093,W,1,9,1.8,19,M,,M,,*59
06/13/2015	09:09:39.529	$GPGGA,090940,2418.3927,N,08101.8081,W,1,9,1.8,19,M,,M,,*55
06/13/2015	09:09:40.609	$GPGGA,090941,2418.3916,N,08101.8072,W,1,9,1.8,19,M,,M,,*5A
06/13/2015	09:09:41.499	$GPGGA,090942,2418.3905,N,08101.8069,W,1,9,1.8,19,M,,M,,*51
06/13/2015	09:09:42.499	$GPGGA,090943,2418.3897,N,08101.8062,W,1,9,1.8,19,M,,M,,*51
06/13/2015	09:09:43.645	$GPGGA,090944,2418.3887,N,08101.8052,W,1,9,1.8,19,M,,M,,*54
06/13/2015	09:09:44.629	$GPGGA,090945,2418.3873,N,08101.8045,W,1,9,1.8,19,M,,M,,*58
06/13/2015	09:09:45.509	$GPGGA,090946,2418.3861,N,08101.8037,W,1,10,1.8,19,M,,M,,*65
06/13/2015	09:09:46.509	$GPGGA,090947,2418.3853,N,08101.8029,W,1,10,1.8,19,M,,M,,*6A
06/13/2015	09:09:47.619	$GPGGA,090948,2418.3843,N,08101.8022,W,1,10,1.8,19,M,,M,,*6F
06/13/2015	09:09:48.509	$GPGGA,090949,2418.3831,N,08101.8015,W,1,10,1.8,19,M,,M,,*6F
06/13/2015	09:09:50.499	$GPGGA,090951,2418.3810,N,08101.7998,W,1,10,1.8,19,M,,M,,*66
06/13/2015	09:09:51.645	$GPGGA,090952,2418.3799,N,08101.7988,W,1,10,1.8,19,M,,M,,*6A
06/13/2015	09:09:52.580	$GPGGA,090953,2418.3789,N,08101.7978,W,1,10,1.8,19,M,,M,,*65
06/13/2015	09:09:53.589	$GPGGA,090954,2418.3779,N,08101.7971,W,1,10,1.8,19,M,,M,,*64
06/13/2015	09:09:54.589	$GPGGA,090955,2418.3767,N,08101.7961,W,1,10,1.8,19,M,,M,,*6B
06/13/2015	09:09:56.609	$GPGGA,090957,2418.3746,N,08101.7943,W,1,9,1.8,19,M,,M,,*52
06/13/2015	09:09:57.569	$GPGGA,090958,2418.3735,N,08101.7932,W,1,10,1.8,19,M,,M,,*67
06/13/2015	09:09:58.579	$GPGGA,090959,2418.3725,N,08101.7922,W,1,10,1.8,19,M,,M,,*66
06/13/2015	09:09:59.629	$GPGGA,091000,2418.3714,N,08101.7912,W,1,9,1.8,18,M,,M,,*5A
06/13/2015	09:10:00.569	$GPGGA,091001,2418.3705,N,08101.7904,W,1,9,1.8,18,M,,M,,*5C
06/13/2015	09:10:01.569	$GPGGA,091002,2418.3694,N,08101.7894,W,1,10,1.8,18,M,,M,,*66
06/13/2015	09:10:03.643	$GPGGA,091004,2418.3673,N,08101.7872,W,1,9,1.8,18,M,,M,,*59
06/13/2015	09:10:04.569	$GPGGA,091005,2418.3661,N,08101.7863,W,1,9,1.9,18,M,,M,,*5A
06/13/2015	09:10:05.559	$GPGGA,091006,2418.3651,N,08101.7851,W,1,8,1.9,18,M,,M,,*5A
06/13/2015	09:10:06.559	$GPGGA,091007,2418.3642,N,08101.7841,W,1,8,1.8,18,M,,M,,*59
06/13/2015	09:10:07.599	$GPGGA,091008,2418.3631,N,08101.7833,W,1,9,1.8,18,M,,M,,*56
06/13/2015	09:10:08.551	$GPGGA,091009,2418.3619,N,08101.7822,W,1,9,1.8,18,M,,M,,*5D
06/13/2015	09:10:09.570	$GPGGA,091010,2418.3609,N,08101.7809,W,1,9,1.8,18,M,,M,,*5D
06/13/2015	09:10:10.540	$GPGGA,091011,2418.3600,N,08101.7800,W,1,9,1.8,18,M,,M,,*5C
06/13/2015	09:10:11.559	$GPGGA,091012,2418.3588,N,08101.7791,W,1,9,1.8,18,M,,M,,*5B
06/13/2015	09:10:12.552	$GPGGA,091013,2418.3579,N,08101.7780,W,1,9,1.8,18,M,,M,,*54
06/13/2015	09:10:13.559	$GPGGA,091014,2418.3571,N,08101.7769,W,1,9,1.8,18,M,,M,,*5C
06/13/2015	09:10:14.553	$GPGGA,091015,2418.3559,N,08101.7759,W,1,9,1.8,18,M,,M,,*54
06/13/2015	09:10:15.559	$GPGGA,091016,2418.3549,N,08101.7747,W,1,9,1.8,18,M,,M,,*59
06/13/2015	09:10:16.542	$GPGGA,091017,2418.3541,N,08101.7738,W,1,9,1.8,18,M,,M,,*58
06/13/2015	09:10:17.559	$GPGGA,091018,2418.3531,N,08101.7730,W,1,10,1.8,18,M,,M,,*60
06/13/2015	09:10:18.529	$GPGGA,091019,2418.3521,N,08101.7721,W,1,10,1.8,18,M,,M,,*60
06/13/2015	09:10:19.539	$GPGGA,091020,2418.3511,N,08101.7711,W,1,8,1.9,18,M,,M,,*52
06/13/2015	09:10:20.659	$GPGGA,091021,2418.3500,N,08101.7696,W,1,8,1.8,18,M,,M,,*5C
06/13/2015	09:10:21.540	$GPGGA,091022,2418.3492,N,08101.7687,W,1,10,1.8,18,M,,M,,*6C
06/13/2015	09:10:22.539	$GPGGA,091023,2418.3481,N,08101.7679,W,1,10,2.2,18,M,,M,,*67
06/13/2015	09:10:23.709	$GPGGA,091024,2418.3470,N,08101.7669,W,1,9,2.2,18,M,,M,,*57
06/13/2015	09:10:24.529	$GPGGA,091025,2418.3460,N,08101.7657,W,1,9,2.2,18,M,,M,,*5A
06/13/2015	09:10:25.709	$GPGGA,091026,2418.3452,N,08101.7647,W,1,9,2.2,18,M,,M,,*59
06/13/2015	09:10:26.520	$GPGGA,091027,2418.3441,N,08101.7640,W,1,9,2.2,18,M,,M,,*5D
06/13/2015	09:10:27.541	$GPGGA,091028,2418.3430,N,08101.7628,W,1,9,2.2,18,M,,M,,*5A
06/13/2015	09:10:28.509	$GPGGA,091029,2418.3420,N,08101.7617,W,1,9,2.2,18,M,,M,,*56
06/13/2015	09:10:29.519	$GPGGA,091030,2418.3410,N,08101.7608,W,1,9,2.2,18,M,,M,,*53
06/13/2015	09:10:30.509	$GPGGA,091031,2418.3402,N,08101.7600,W,1,9,2.2,18,M,,M,,*59
06/13/2015	09:10:31.552	$GPGGA,091032,2418.3393,N,08101.7589,W,1,8,2.2,18,M,,M,,*56
06/13/2015	09:10:32.519	$GPGGA,091033,2418.3380,N,08101.7579,W,1,8,2.8,18,M,,M,,*50
06/13/2015	09:10:33.689	$GPGGA,091034,2418.3372,N,08101.7566,W,1,9,2.2,19,M,,M,,*5E
06/13/2015	09:10:34.499	$GPGGA,091035,2418.3364,N,08101.7558,W,1,9,2.2,19,M,,M,,*55
06/13/2015	09:10:35.699	$GPGGA,091036,2418.3354,N,08101.7548,W,1,9,2.2,19,M,,M,,*54
06/13/2015	09:10:36.589	$GPGGA,091037,2418.3345,N,08101.7537,W,1,9,2.4,19,M,,M,,*5B
06/13/2015	09:10:37.679	$GPGGA,091038,2418.3337,N,08101.7527,W,1,8,2.4,19,M,,M,,*51
06/13/2015	09:10:38.629	$GPGGA,091039,2418.3326,N,08101.7521,W,1,8,2.6,19,M,,M,,*54
06/13/2015	09:10:39.699	$GPGGA,091040,2418.3315,N,08101.7511,W,1,8,2.4,19,M,,M,,*5B
06/13/2015	09:10:40.619	$GPGGA,091041,2418.3307,N,08101.7503,W,1,8,2.2,19,M,,M,,*5C
06/13/2015	09:10:41.679	$GPGGA,091042,2418.3297,N,08101.7496,W,1,9,2.4,19,M,,M,,*5D
06/13/2015	09:10:42.489	$GPGGA,091043,2418.3286,N,08101.7488,W,1,9,2.4,19,M,,M,,*53
06/13/2015	09:10:44.170	$GPGGA,091044,2418.3279,N,08101.7478,W,1,8,2.4,19,M,,M,,*5A
06/13/2015	09:10:44.630	$GPGGA,091045,2418.3271,N,08101.7467,W,1,8,2.2,19,M,,M,,*5B
06/13/2015	09:10:45.679	$GPGGA,091046,2418.3259,N,08101.7457,W,1,9,2.2,19,M,,M,,*50
06/13/2015	09:10:46.569	$GPGGA,091047,2418.3250,N,08101.7446,W,1,9,2.2,19,M,,M,,*58
06/13/2015	09:10:47.689	$GPGGA,091048,2418.3243,N,08101.7438,W,1,8,2.2,19,M,,M,,*5D
06/13/2015	09:10:48.609	$GPGGA,091049,2418.3234,N,08101.7430,W,1,8,2.3,19,M,,M,,*55
06/13/2015	09:10:49.679	$GPGGA,091050,2418.3223,N,08101.7422,W,1,8,2.4,20,M,,M,,*55
06/13/2015	09:10:50.559	$GPGGA,091051,2418.3214,N,08101.7409,W,1,8,2.4,20,M,,M,,*59
06/13/2015	09:10:51.669	$GPGGA,091052,2418.3205,N,08101.7396,W,1,8,2.6,20,M,,M,,*59
06/13/2015	09:10:52.589	$GPGGA,091053,2418.3196,N,08101.7387,W,1,8,2.6,20,M,,M,,*51
06/13/2015	09:10:53.669	$GPGGA,091054,2418.3187,N,08101.7378,W,1,7,2.4,20,M,,M,,*5B
06/13/2015	09:10:54.589	$GPGGA,091055,2418.3177,N,08101.7369,W,1,7,2.2,20,M,,M,,*53
06/13/2015	09:10:55.689	$GPGGA,091056,2418.3167,N,08101.7356,W,1,9,2.2,20,M,,M,,*53
06/13/2015	09:10:56.580	$GPGGA,091057,2418.3158,N,08101.7347,W,1,9,2.2,20,M,,M,,*5E
06/13/2015	09:10:57.669	$GPGGA,091058,2418.3148,N,08101.7342,W,1,9,2.2,20,M,,M,,*55
06/13/2015	09:10:58.579	$GPGGA,091059,2418.3139,N,08101.7333,W,1,9,2.2,20,M,,M,,*54
06/13/2015	09:10:59.679	$GPGGA,091100,2418.3129,N,08101.7322,W,1,9,2.2,20,M,,M,,*58
06/13/2015	09:11:00.541	$GPGGA,091101,2418.3121,N,08101.7313,W,1,9,2.2,20,M,,M,,*53
06/13/2015	09:11:01.540	$GPGGA,091102,2418.3111,N,08101.7307,W,1,9,2.2,20,M,,M,,*56
06/13/2015	09:11:02.570	$GPGGA,091103,2418.3102,N,08101.7297,W,1,9,2.2,20,M,,M,,*5D
06/13/2015	09:11:03.659	$GPGGA,091104,2418.3093,N,08101.7287,W,1,8,2.4,20,M,,M,,*55
06/13/2015	09:11:04.569	$GPGGA,091105,2418.3084,N,08101.7278,W,1,8,2.2,20,M,,M,,*54
06/13/2015	09:11:05.651	$GPGGA,091106,2418.3074,N,08101.7269,W,1,9,2.2,20,M,,M,,*59
06/13/2015	09:11:06.559	$GPGGA,091107,2418.3063,N,08101.7259,W,1,9,2.2,20,M,,M,,*5D
06/13/2015	09:11:07.669	$GPGGA,091108,2418.3055,N,08101.7247,W,1,9,2.2,20,M,,M,,*58
06/13/2015	09:11:08.559	$GPGGA,091109,2418.3044,N,08101.7239,W,1,9,2.2,20,M,,M,,*50
06/13/2015	09:11:09.642	$GPGGA,091110,2418.3034,N,08101.7232,W,1,9,2.2,20,M,,M,,*54
06/13/2015	09:11:10.559	$GPGGA,091111,2418.3026,N,08101.7222,W,1,9,2.2,20,M,,M,,*57
06/13/2015	09:11:11.679	$GPGGA,091112,2418.3012,N,08101.7211,W,1,9,2.2,20,M,,M,,*53
06/13/2015	09:11:12.569	$GPGGA,091113,2418.3001,N,08101.7203,W,1,9,2.2,20,M,,M,,*53
06/13/2015	09:11:13.519	$GPGGA,091114,2418.2992,N,08101.7197,W,1,9,2.2,20,M,,M,,*58
06/13/2015	09:11:14.652	$GPGGA,091115,2418.2983,N,08101.7190,W,1,9,2.4,20,M,,M,,*58
06/13/2015	09:11:15.644	$GPGGA,091116,2418.2973,N,08101.7178,W,1,8,2.4,20,M,,M,,*53
06/13/2015	09:11:16.559	$GPGGA,091117,2418.2962,N,08101.7168,W,1,8,2.4,20,M,,M,,*53
06/13/2015	09:11:17.599	$GPGGA,091118,2418.2951,N,08101.7162,W,1,8,2.2,20,M,,M,,*50
06/13/2015	09:11:18.551	$GPGGA,091119,2418.2941,N,08101.7155,W,1,8,2.4,20,M,,M,,*52
06/13/2015	09:11:19.600	$GPGGA,091120,2418.2933,N,08101.7147,W,1,8,2.4,20,M,,M,,*5E
06/13/2015	09:11:20.500	$GPGGA,091121,2418.2923,N,08101.7137,W,1,8,2.4,20,M,,M,,*59
06/13/2015	09:11:21.649	$GPGGA,091122,2418.2911,N,08101.7126,W,1,8,2.2,20,M,,M,,*5D
06/13/2015	09:11:22.551	$GPGGA,091123,2418.2901,N,08101.7120,W,1,8,2.2,20,M,,M,,*5B
06/13/2015	09:11:23.669	$GPGGA,091124,2418.2893,N,08101.7113,W,1,9,2.2,20,M,,M,,*57
06/13/2015	09:11:24.599	$GPGGA,091125,2418.2885,N,08101.7105,W,1,9,2.2,20,M,,M,,*56
06/13/2015	09:11:25.619	$GPGGA,091126,2418.2874,N,08101.7097,W,1,9,2.2,20,M,,M,,*51
06/13/2015	09:11:26.619	$GPGGA,091127,2418.2863,N,08101.7088,W,1,9,2.2,20,M,,M,,*58
06/13/2015	09:11:27.599	$GPGGA,091128,2418.2856,N,08101.7081,W,1,9,2.4,20,M,,M,,*5E
06/13/2015	09:11:28.529	$GPGGA,091129,2418.2847,N,08101.7072,W,1,9,2.5,20,M,,M,,*52
06/13/2015	09:11:29.589	$GPGGA,091130,2418.2838,N,08101.7063,W,1,7,2.4,20,M,,M,,*5D
06/13/2015	09:11:30.519	$GPGGA,091131,2418.2831,N,08101.7054,W,1,7,2.4,19,M,,M,,*5B
06/13/2015	09:11:31.640	$GPGGA,091132,2418.2822,N,08101.7045,W,1,8,2.6,19,M,,M,,*57
06/13/2015	09:11:32.600	$GPGGA,091133,2418.2814,N,08101.7036,W,1,8,2.6,19,M,,M,,*57
06/13/2015	09:11:33.579	$GPGGA,091134,2418.2803,N,08101.7026,W,1,7,2.3,19,M,,M,,*5D
06/13/2015	09:11:34.579	$GPGGA,091135,2418.2796,N,08101.7015,W,1,7,2.2,19,M,,M,,*5E
06/13/2015	09:11:35.609	$GPGGA,091136,2418.2788,N,08101.7008,W,1,9,2.3,19,M,,M,,*51
06/13/2015	09:11:36.570	$GPGGA,091137,2418.2778,N,08101.7000,W,1,9,2.2,19,M,,M,,*56
06/13/2015	09:11:37.590	$GPGGA,091138,2418.2769,N,08101.6994,W,1,9,2.2,19,M,,M,,*5C
06/13/2015	09:11:38.579	$GPGGA,091139,2418.2762,N,08101.6984,W,1,9,2.2,19,M,,M,,*57
06/13/2015	09:11:39.609	$GPGGA,091140,2418.2752,N,08101.6971,W,1,9,2.2,19,M,,M,,*50
06/13/2015	09:11:40.569	$GPGGA,091141,2418.2744,N,08101.6965,W,1,9,2.4,19,M,,M,,*55
06/13/2015	09:11:41.629	$GPGGA,091142,2418.2733,N,08101.6959,W,1,8,2.5,19,M,,M,,*59
06/13/2015	09:11:42.569	$GPGGA,091143,2418.2726,N,08101.6947,W,1,8,2.2,19,M,,M,,*54
06/13/2015	09:11:43.589	$GPGGA,091144,2418.2720,N,08101.6936,W,1,9,2.4,19,M,,M,,*54
06/13/2015	09:11:44.569	$GPGGA,091145,2418.2709,N,08101.6929,W,1,9,2.4,19,M,,M,,*50
06/13/2015	09:11:45.599	$GPGGA,091146,2418.2701,N,08101.6919,W,1,8,2.2,19,M,,M,,*5F
06/13/2015	09:11:46.560	$GPGGA,091147,2418.2695,N,08101.6908,W,1,8,2.4,18,M,,M,,*55
06/13/2015	09:11:47.619	$GPGGA,091148,2418.2687,N,08101.6898,W,1,8,2.4,18,M,,M,,*51
06/13/2015	09:11:48.579	$GPGGA,091149,2418.2677,N,08101.6890,W,1,8,2.4,18,M,,M,,*57
06/13/2015	09:11:49.579	$GPGGA,091150,2418.2669,N,08101.6879,W,1,8,2.4,18,M,,M,,*57
