Software Version Number: 1	Data File Format Number: 1	Build Version Number: 1	Error Count Since VI Started: 1	Manufacturer: Raytheon	 Model Number: RayMarine 120	 S/N: 	 Cal Date: 	 Wind Direction Offset: 0.00	 Slope (M)1: 0.00	 Offset (B)1: 0.00	 Slope (M)2: 0.00	 Offset (B)2: 0.00	 Slope (M)3: 0.00	 Offset (B)3: 0.00	 Slope (M)4: 0.00	 Offset (B)4: 0.00	 Slope (M)5: 0.00	 Offset (B)5: 0.00	 Slope (M)6: 0.00	 Offset (B)6: 0.00
Computer Date	Computer Time	GGA String
06/16/2015	11:00:00.527	$GPGGA,110001,2421.2538,N,08114.5965,W,1,10,1.5,14,M,,M,,*6B
06/16/2015	11:00:01.557	$GPGGA,110002,2421.2538,N,08114.5977,W,1,10,1.5,14,M,,M,,*6B
06/16/2015	11:00:02.518	$GPGGA,110003,2421.2538,N,08114.5988,W,1,10,1.5,14,M,,M,,*6A
06/16/2015	11:00:03.547	$GPGGA,110004,2421.2538,N,08114.5999,W,1,10,1.5,14,M,,M,,*6D
06/16/2015	11:00:04.527	$GPGGA,110005,2421.2540,N,08114.6011,W,1,10,1.5,14,M,,M,,*69
06/16/2015	11:00:05.506	$GPGGA,110006,2421.2539,N,08114.6022,W,1,10,1.5,14,M,,M,,*64
06/16/2015	11:00:06.536	$GPGGA,110007,2421.2541,N,08114.6034,W,1,10,1.5,14,M,,M,,*6D
06/16/2015	11:00:07.576	$GPGGA,110008,2421.2540,N,08114.6046,W,1,10,1.5,14,M,,M,,*66
06/16/2015	11:00:08.519	$GPGGA,110009,2421.2541,N,08114.6058,W,1,10,1.5,14,M,,M,,*69
06/16/2015	11:00:09.637	$GPGGA,110010,2421.2540,N,08114.6069,W,1,10,1.5,14,M,,M,,*62
06/16/2015	11:00:10.627	$GPGGA,110011,2421.2542,N,08114.6080,W,1,10,1.5,14,M,,M,,*66
06/16/2015	11:00:11.657	$GPGGA,110012,2421.2542,N,08114.6092,W,1,10,1.5,14,M,,M,,*66
06/16/2015	11:00:12.518	$GPGGA,110013,2421.2542,N,08114.6103,W,1,10,1.5,14,M,,M,,*6E
06/16/2015	11:00:13.497	$GPGGA,110014,2421.2542,N,08114.6116,W,1,10,1.5,14,M,,M,,*6D
06/16/2015	11:00:14.617	$GPGGA,110015,2421.2542,N,08114.6128,W,1,10,1.5,14,M,,M,,*61
06/16/2015	11:00:15.607	$GPGGA,110016,2421.2544,N,08114.6141,W,1,10,1.5,14,M,,M,,*6B
06/16/2015	11:00:16.497	$GPGGA,110017,2421.2543,N,08114.6152,W,1,10,1.5,14,M,,M,,*6F
06/16/2015	11:00:17.519	$GPGGA,110018,2421.2544,N,08114.6163,W,1,10,1.5,13,M,,M,,*62
06/16/2015	11:00:18.507	$GPGGA,110019,2421.2545,N,08114.6174,W,1,10,1.5,13,M,,M,,*64
06/16/2015	11:00:19.637	$GPGGA,110020,2421.2544,N,08114.6185,W,1,10,1.5,13,M,,M,,*61
06/16/2015	11:00:20.507	$GPGGA,110021,2421.2543,N,08114.6197,W,1,10,1.5,13,M,,M,,*64
06/16/2015	11:00:21.597	$GPGGA,110022,2421.2544,N,08114.6210,W,1,10,1.5,13,M,,M,,*6C
06/16/2015	11:00:22.596	$GPGGA,110023,2421.2545,N,08114.6221,W,1,10,1.5,13,M,,M,,*6E
06/16/2015	11:00:23.496	$GPGGA,110024,2421.2544,N,08114.6232,W,1,10,1.5,13,M,,M,,*6A
06/16/2015	11:00:24.486	$GPGGA,110025,2421.2545,N,08114.6243,W,1,10,1.5,13,M,,M,,*6C
06/16/2015	11:00:25.606	$GPGGA,110026,2421.2543,N,08114.6254,W,1,10,1.5,13,M,,M,,*6F
06/16/2015	11:00:26.587	$GPGGA,110027,2421.2544,N,08114.6265,W,1,10,1.5,13,M,,M,,*6B
06/16/2015	11:00:27.597	$GPGGA,110028,2421.2543,N,08114.6277,W,1,10,1.5,13,M,,M,,*60
06/16/2015	11:00:28.577	$GPGGA,110029,2421.2544,N,08114.6290,W,1,10,1.5,13,M,,M,,*6F
06/16/2015	11:00:29.597	$GPGGA,110030,2421.2543,N,08114.6301,W,1,10,1.5,13,M,,M,,*69
06/16/2015	11:00:30.567	$GPGGA,110031,2421.2544,N,08114.6312,W,1,10,1.5,13,M,,M,,*6D
06/16/2015	11:00:31.597	$GPGGA,110032,2421.2542,N,08114.6323,W,1,10,1.5,13,M,,M,,*6A
06/16/2015	11:00:32.557	$GPGGA,110033,2421.2542,N,08114.6335,W,1,10,1.5,13,M,,M,,*6C
06/16/2015	11:00:33.587	$GPGGA,110034,2421.2542,N,08114.6347,W,1,10,1.5,13,M,,M,,*6E
06/16/2015	11:00:34.567	$GPGGA,110035,2421.2542,N,08114.6358,W,1,10,1.5,13,M,,M,,*61
06/16/2015	11:00:35.597	$GPGGA,110036,2421.2542,N,08114.6370,W,1,10,1.5,13,M,,M,,*68
06/16/2015	11:00:36.557	$GPGGA,110037,2421.2540,N,08114.6383,W,1,10,1.5,13,M,,M,,*67
06/16/2015	11:00:37.577	$GPGGA,110038,2421.2541,N,08114.6394,W,1,10,1.5,13,M,,M,,*6F
06/16/2015	11:00:38.547	$GPGGA,110039,2421.2539,N,08114.6405,W,1,10,1.5,13,M,,M,,*6E
06/16/2015	11:00:39.577	$GPGGA,110040,2421.2540,N,08114.6416,W,1,10,1.5,13,M,,M,,*6C
06/16/2015	11:00:40.556	$GPGGA,110041,2421.2539,N,08114.6428,W,1,10,1.5,13,M,,M,,*6E
06/16/2015	11:00:41.556	$GPGGA,110042,2421.2538,N,08114.6439,W,1,10,1.5,12,M,,M,,*6D
06/16/2015	11:00:42.546	$GPGGA,110043,2421.2538,N,08114.6452,W,1,10,1.5,12,M,,M,,*61
06/16/2015	11:00:43.606	$GPGGA,110044,2421.2538,N,08114.6463,W,1,10,1.5,12,M,,M,,*64
06/16/2015	11:00:44.547	$GPGGA,110045,2421.2538,N,08114.6474,W,1,10,1.5,12,M,,M,,*63
06/16/2015	11:00:45.537	$GPGGA,110046,2421.2536,N,08114.6486,W,1,10,1.5,12,M,,M,,*63
06/16/2015	11:00:46.547	$GPGGA,110047,2421.2538,N,08114.6499,W,1,10,1.5,12,M,,M,,*62
06/16/2015	11:00:47.567	$GPGGA,110048,2421.2538,N,08114.6510,W,1,10,1.9,12,M,,M,,*61
06/16/2015	11:00:48.532	$GPGGA,110049,2421.2535,N,08114.6521,W,1,10,1.5,12,M,,M,,*63
06/16/2015	11:00:49.530	$GPGGA,110050,2421.2536,N,08114.6532,W,1,10,1.5,12,M,,M,,*6A
06/16/2015	11:00:50.537	$GPGGA,110051,2421.2535,N,08114.6544,W,1,10,1.5,12,M,,M,,*69
06/16/2015	11:00:51.577	$GPGGA,110052,2421.2536,N,08114.6557,W,1,10,1.5,12,M,,M,,*6B
06/16/2015	11:00:52.537	$GPGGA,110053,2421.2535,N,08114.6568,W,1,10,1.5,12,M,,M,,*65
06/16/2015	11:00:53.521	$GPGGA,110054,2421.2536,N,08114.6579,W,1,10,1.5,12,M,,M,,*61
06/16/2015	11:00:54.531	$GPGGA,110055,2421.2535,N,08114.6590,W,1,10,1.5,12,M,,M,,*64
06/16/2015	11:00:55.637	$GPGGA,110056,2421.2536,N,08114.6602,W,1,10,1.5,12,M,,M,,*6C
06/16/2015	11:00:56.519	$GPGGA,110057,2421.2537,N,08114.6613,W,1,10,1.5,12,M,,M,,*6C
06/16/2015	11:00:57.532	$GPGGA,110058,2421.2535,N,08114.6624,W,1,10,1.5,12,M,,M,,*65
06/16/2015	11:00:58.546	$GPGGA,110059,2421.2537,N,08114.6637,W,1,10,1.5,12,M,,M,,*64
06/16/2015	11:00:59.586	$GPGGA,110100,2421.2538,N,08114.6647,W,1,10,1.5,12,M,,M,,*61
06/16/2015	11:01:00.529	$GPGGA,110101,2421.2538,N,08114.6659,W,1,10,1.5,12,M,,M,,*6F
06/16/2015	11:01:01.531	$GPGGA,110102,2421.2538,N,08114.6671,W,1,10,1.5,12,M,,M,,*66
06/16/2015	11:01:02.597	$GPGGA,110103,2421.2538,N,08114.6683,W,1,10,1.5,12,M,,M,,*6A
06/16/2015	11:01:03.607	$GPGGA,110104,2421.2538,N,08114.6694,W,1,10,1.5,12,M,,M,,*6B
06/16/2015	11:01:04.538	$GPGGA,110105,2421.2538,N,08114.6705,W,1,10,1.5,12,M,,M,,*63
06/16/2015	11:01:05.587	$GPGGA,110106,2421.2538,N,08114.6717,W,1,10,1.5,12,M,,M,,*63
06/16/2015	11:01:06.531	$GPGGA,110107,2421.2538,N,08114.6730,W,1,10,1.5,12,M,,M,,*67
06/16/2015	11:01:07.557	$GPGGA,110108,2421.2538,N,08114.6741,W,1,10,1.5,12,M,,M,,*6E
06/16/2015	11:01:08.587	$GPGGA,110109,2421.2538,N,08114.6754,W,1,10,1.5,12,M,,M,,*6B
06/16/2015	11:01:09.587	$GPGGA,110110,2421.2540,N,08114.6767,W,1,10,1.5,12,M,,M,,*6C
06/16/2015	11:01:10.607	$GPGGA,110111,2421.2539,N,08114.6777,W,1,10,1.5,12,M,,M,,*62
06/16/2015	11:01:11.621	$GPGGA,110112,2421.2540,N,08114.6788,W,1,10,1.5,12,M,,M,,*6F
06/16/2015	11:01:12.507	$GPGGA,110113,2421.2539,N,08114.6799,W,1,10,1.5,12,M,,M,,*60
06/16/2015	11:01:13.587	$GPGGA,110114,2421.2540,N,08114.6811,W,1,10,1.5,12,M,,M,,*66
06/16/2015	11:01:14.577	$GPGGA,110115,2421.2539,N,08114.6824,W,1,10,1.5,12,M,,M,,*6F
06/16/2015	11:01:15.606	$GPGGA,110116,2421.2540,N,08114.6836,W,1,10,1.5,12,M,,M,,*61
06/16/2015	11:01:16.576	$GPGGA,110117,2421.2541,N,08114.6848,W,1,10,1.5,12,M,,M,,*68
06/16/2015	11:01:17.586	$GPGGA,110118,2421.2539,N,08114.6861,W,1,10,1.5,12,M,,M,,*63
06/16/2015	11:01:18.566	$GPGGA,110119,2421.2541,N,08114.6871,W,1,10,1.5,12,M,,M,,*6C
06/16/2015	11:01:19.597	$GPGGA,110120,2421.2540,N,08114.6883,W,1,10,1.5,12,M,,M,,*6A
06/16/2015	11:01:20.567	$GPGGA,110121,2421.2539,N,08114.6895,W,1,10,1.5,12,M,,M,,*62
06/16/2015	11:01:21.587	$GPGGA,110122,2421.2540,N,08114.6908,W,1,10,1.5,12,M,,M,,*6A
06/16/2015	11:01:22.567	$GPGGA,110123,2421.2541,N,08114.6920,W,1,10,1.5,12,M,,M,,*60
06/16/2015	11:01:23.597	$GPGGA,110124,2421.2540,N,08114.6933,W,1,10,1.5,12,M,,M,,*64
06/16/2015	11:01:24.567	$GPGGA,110125,2421.2539,N,08114.6944,W,1,10,1.5,12,M,,M,,*6B
06/16/2015	11:01:25.567	$GPGGA,110126,2421.2540,N,08114.6955,W,1,10,1.5,12,M,,M,,*66
06/16/2015	11:01:26.557	$GPGGA,110127,2421.2539,N,08114.6967,W,1,10,1.5,12,M,,M,,*68
06/16/2015	11:01:27.587	$GPGGA,110128,2421.2540,N,08114.6980,W,1,10,1.5,12,M,,M,,*60
06/16/2015	11:01:28.557	$GPGGA,110129,2421.2539,N,08114.6991,W,1,10,1.5,12,M,,M,,*6F
06/16/2015	11:01:29.567	$GPGGA,110130,2421.2540,N,08114.7002,W,1,10,1.5,12,M,,M,,*6B
06/16/2015	11:01:30.557	$GPGGA,110131,2421.2541,N,08114.7014,W,1,10,1.5,12,M,,M,,*6C
06/16/2015	11:01:31.587	$GPGGA,110132,2421.2540,N,08114.7025,W,1,10,1.5,12,M,,M,,*6C
06/16/2015	11:01:32.556	$GPGGA,110133,2421.2539,N,08114.7038,W,1,10,1.5,12,M,,M,,*6F
06/16/2015	11:01:33.566	$GPGGA,110134,2421.2540,N,08114.7050,W,1,10,1.5,12,M,,M,,*68
06/16/2015	11:01:34.546	$GPGGA,110135,2421.2539,N,08114.7061,W,1,10,1.5,12,M,,M,,*65
06/16/2015	11:01:35.546	$GPGGA,110136,2421.2540,N,08114.7074,W,1,10,1.5,12,M,,M,,*6C
06/16/2015	11:01:36.527	$GPGGA,110137,2421.2539,N,08114.7085,W,1,10,1.5,12,M,,M,,*6D
06/16/2015	11:01:37.537	$GPGGA,110138,2421.2540,N,08114.7095,W,1,10,1.5,12,M,,M,,*6D
06/16/2015	11:01:38.537	$GPGGA,110139,2421.2539,N,08114.7107,W,1,10,1.5,12,M,,M,,*68
06/16/2015	11:01:39.537	$GPGGA,110140,2421.2540,N,08114.7120,W,1,10,1.5,12,M,,M,,*6D
06/16/2015	11:01:40.547	$GPGGA,110141,2421.2538,N,08114.7132,W,1,10,1.5,12,M,,M,,*60
06/16/2015	11:01:41.557	$GPGGA,110142,2421.2538,N,08114.7143,W,1,9,1.7,12,M,,M,,*5F
06/16/2015	11:01:42.527	$GPGGA,110143,2421.2538,N,08114.7155,W,1,9,1.5,12,M,,M,,*5B
06/16/2015	11:01:43.547	$GPGGA,110144,2421.2538,N,08114.7167,W,1,10,1.5,12,M,,M,,*65
06/16/2015	11:01:44.537	$GPGGA,110145,2421.2538,N,08114.7178,W,1,10,1.5,12,M,,M,,*6A
06/16/2015	11:01:45.517	$GPGGA,110146,2421.2538,N,08114.7189,W,1,10,1.5,12,M,,M,,*67
06/16/2015	11:01:46.527	$GPGGA,110147,2421.2538,N,08114.7200,W,1,10,1.5,12,M,,M,,*64
06/16/2015	11:01:47.519	$GPGGA,110148,2421.2535,N,08114.7212,W,1,10,1.5,12,M,,M,,*65
06/16/2015	11:01:48.527	$GPGGA,110149,2421.2536,N,08114.7225,W,1,10,1.5,12,M,,M,,*63
06/16/2015	11:01:49.521	$GPGGA,110150,2421.2537,N,08114.7236,W,1,10,1.5,12,M,,M,,*68
06/16/2015	11:01:50.497	$GPGGA,110151,2421.2535,N,08114.7247,W,1,10,1.5,12,M,,M,,*6D
06/16/2015	11:01:51.536	$GPGGA,110152,2421.2534,N,08114.7258,W,1,10,1.5,12,M,,M,,*61
06/16/2015	11:01:52.496	$GPGGA,110153,2421.2534,N,08114.7269,W,1,10,1.5,12,M,,M,,*62
06/16/2015	11:01:53.518	$GPGGA,110154,2421.2534,N,08114.7280,W,1,10,1.5,13,M,,M,,*63
06/16/2015	11:01:54.597	$GPGGA,110155,2421.2533,N,08114.7292,W,1,10,1.5,13,M,,M,,*66
06/16/2015	11:01:55.631	$GPGGA,110156,2421.2534,N,08114.7305,W,1,10,1.5,13,M,,M,,*6D
06/16/2015	11:01:56.597	$GPGGA,110157,2421.2533,N,08114.7316,W,1,10,1.5,13,M,,M,,*69
06/16/2015	11:01:57.607	$GPGGA,110158,2421.2534,N,08114.7328,W,1,9,1.7,13,M,,M,,*56
06/16/2015	11:01:58.587	$GPGGA,110159,2421.2533,N,08114.7341,W,1,9,1.5,13,M,,M,,*5D
06/16/2015	11:01:59.629	$GPGGA,110200,2421.2532,N,08114.7352,W,1,10,1.5,13,M,,M,,*69
06/16/2015	11:02:00.497	$GPGGA,110201,2421.2533,N,08114.7363,W,1,10,1.5,13,M,,M,,*6B
06/16/2015	11:02:01.597	$GPGGA,110202,2421.2532,N,08114.7374,W,1,10,1.5,13,M,,M,,*6F
06/16/2015	11:02:02.597	$GPGGA,110203,2421.2533,N,08114.7385,W,1,10,1.5,13,M,,M,,*61
06/16/2015	11:02:03.587	$GPGGA,110204,2421.2531,N,08114.7397,W,1,10,1.5,13,M,,M,,*67
06/16/2015	11:02:04.577	$GPGGA,110205,2421.2531,N,08114.7410,W,1,10,1.6,13,M,,M,,*6D
06/16/2015	11:02:05.567	$GPGGA,110206,2421.2531,N,08114.7421,W,1,10,1.6,13,M,,M,,*6C
06/16/2015	11:02:06.567	$GPGGA,110207,2421.2531,N,08114.7433,W,1,10,1.6,13,M,,M,,*6E
06/16/2015	11:02:07.596	$GPGGA,110208,2421.2531,N,08114.7446,W,1,10,1.6,13,M,,M,,*63
06/16/2015	11:02:08.557	$GPGGA,110209,2421.2531,N,08114.7457,W,1,10,1.6,13,M,,M,,*62
06/16/2015	11:02:09.577	$GPGGA,110210,2421.2531,N,08114.7468,W,1,10,1.6,13,M,,M,,*66
06/16/2015	11:02:10.546	$GPGGA,110211,2421.2531,N,08114.7480,W,1,10,1.5,13,M,,M,,*62
06/16/2015	11:02:11.586	$GPGGA,110212,2421.2531,N,08114.7493,W,1,10,1.5,13,M,,M,,*63
06/16/2015	11:02:12.556	$GPGGA,110213,2421.2529,N,08114.7504,W,1,10,1.5,13,M,,M,,*64
06/16/2015	11:02:13.556	$GPGGA,110214,2421.2528,N,08114.7516,W,1,10,1.5,13,M,,M,,*61
06/16/2015	11:02:14.556	$GPGGA,110215,2421.2529,N,08114.7529,W,1,10,1.5,13,M,,M,,*6D
06/16/2015	11:02:15.576	$GPGGA,110216,2421.2530,N,08114.7540,W,1,10,1.5,13,M,,M,,*69
06/16/2015	11:02:16.546	$GPGGA,110217,2421.2528,N,08114.7551,W,1,10,1.6,13,M,,M,,*62
06/16/2015	11:02:17.566	$GPGGA,110218,2421.2530,N,08114.7563,W,1,10,1.6,13,M,,M,,*65
06/16/2015	11:02:18.536	$GPGGA,110219,2421.2529,N,08114.7574,W,1,10,1.6,13,M,,M,,*6A
06/16/2015	11:02:19.566	$GPGGA,110220,2421.2528,N,08114.7587,W,1,10,1.6,13,M,,M,,*6D
06/16/2015	11:02:20.536	$GPGGA,110221,2421.2529,N,08114.7599,W,1,10,1.6,13,M,,M,,*62
06/16/2015	11:02:21.526	$GPGGA,110222,2421.2528,N,08114.7610,W,1,10,1.6,13,M,,M,,*62
06/16/2015	11:02:22.537	$GPGGA,110223,2421.2530,N,08114.7623,W,1,10,1.6,13,M,,M,,*6A
06/16/2015	11:02:23.537	$GPGGA,110224,2421.2529,N,08114.7634,W,1,10,1.6,13,M,,M,,*63
06/16/2015	11:02:24.537	$GPGGA,110225,2421.2530,N,08114.7645,W,1,10,1.6,13,M,,M,,*6C
06/16/2015	11:02:25.536	$GPGGA,110226,2421.2529,N,08114.7656,W,1,10,1.6,13,M,,M,,*65
06/16/2015	11:02:26.518	$GPGGA,110227,2421.2530,N,08114.7668,W,1,10,1.6,13,M,,M,,*61
06/16/2015	11:02:27.526	$GPGGA,110228,2421.2529,N,08114.7681,W,1,10,1.6,13,M,,M,,*61
06/16/2015	11:02:28.526	$GPGGA,110229,2421.2531,N,08114.7693,W,1,10,1.6,13,M,,M,,*6A
06/16/2015	11:02:29.526	$GPGGA,110230,2421.2531,N,08114.7704,W,1,10,1.6,13,M,,M,,*6D
06/16/2015	11:02:30.510	$GPGGA,110231,2421.2531,N,08114.7715,W,1,10,1.6,13,M,,M,,*6C
06/16/2015	11:02:31.566	$GPGGA,110232,2421.2531,N,08114.7727,W,1,10,1.6,13,M,,M,,*6E
06/16/2015	11:02:32.509	$GPGGA,110233,2421.2531,N,08114.7738,W,1,10,1.6,13,M,,M,,*61
06/16/2015	11:02:33.536	$GPGGA,110234,2421.2531,N,08114.7750,W,1,10,1.6,13,M,,M,,*68
06/16/2015	11:02:34.506	$GPGGA,110235,2421.2531,N,08114.7764,W,1,10,1.6,13,M,,M,,*6E
06/16/2015	11:02:35.546	$GPGGA,110236,2421.2531,N,08114.7775,W,1,10,1.6,13,M,,M,,*6D
06/16/2015	11:02:36.596	$GPGGA,110237,2421.2533,N,08114.7785,W,1,10,1.6,13,M,,M,,*61
06/16/2015	11:02:37.496	$GPGGA,110238,2421.2532,N,08114.7796,W,1,10,1.6,13,M,,M,,*6D
06/16/2015	11:02:39.033	$GPGGA,110239,2421.2531,N,08114.7807,W,1,10,1.6,13,M,,M,,*68
06/16/2015	11:02:39.637	$GPGGA,110240,2421.2531,N,08114.7818,W,1,10,1.6,13,M,,M,,*68
06/16/2015	11:02:40.509	$GPGGA,110241,2421.2533,N,08114.7832,W,1,10,1.6,13,M,,M,,*63
06/16/2015	11:02:41.627	$GPGGA,110242,2421.2531,N,08114.7843,W,1,10,1.6,13,M,,M,,*64
06/16/2015	11:02:42.496	$GPGGA,110243,2421.2531,N,08114.7855,W,1,10,1.6,13,M,,M,,*62
06/16/2015	11:02:43.496	$GPGGA,110244,2421.2533,N,08114.7866,W,1,10,1.6,13,M,,M,,*67
06/16/2015	11:02:44.586	$GPGGA,110245,2421.2532,N,08114.7877,W,1,10,1.6,13,M,,M,,*67
06/16/2015	11:02:45.586	$GPGGA,110246,2421.2533,N,08114.7887,W,1,10,1.6,13,M,,M,,*6A
06/16/2015	11:02:46.586	$GPGGA,110247,2421.2532,N,08114.7899,W,1,10,1.6,13,M,,M,,*65
06/16/2015	11:02:47.626	$GPGGA,110248,2421.2534,N,08114.7912,W,1,10,1.6,13,M,,M,,*6E
06/16/2015	11:02:48.576	$GPGGA,110249,2421.2532,N,08114.7923,W,1,10,1.6,13,M,,M,,*6B
06/16/2015	11:02:49.488	$GPGGA,110250,2421.2533,N,08114.7935,W,1,10,1.6,13,M,,M,,*65
06/16/2015	11:02:50.566	$GPGGA,110251,2421.2532,N,08114.7946,W,1,10,1.6,13,M,,M,,*61
06/16/2015	11:02:51.606	$GPGGA,110252,2421.2533,N,08114.7957,W,1,10,1.6,13,M,,M,,*63
06/16/2015	11:02:52.576	$GPGGA,110253,2421.2532,N,08114.7969,W,1,10,1.6,13,M,,M,,*6E
06/16/2015	11:02:53.596	$GPGGA,110254,2421.2533,N,08114.7980,W,1,10,1.6,13,M,,M,,*6F
06/16/2015	11:02:54.556	$GPGGA,110255,2421.2532,N,08114.7991,W,1,10,1.6,13,M,,M,,*6F
06/16/2015	11:02:55.596	$GPGGA,110256,2421.2531,N,08114.8003,W,1,10,1.6,13,M,,M,,*62
06/16/2015	11:02:56.557	$GPGGA,110257,2421.2531,N,08114.8016,W,1,10,1.6,13,M,,M,,*67
06/16/2015	11:02:57.587	$GPGGA,110258,2421.2531,N,08114.8027,W,1,10,1.6,13,M,,M,,*6A
06/16/2015	11:02:58.557	$GPGGA,110259,2421.2531,N,08114.8038,W,1,10,1.6,13,M,,M,,*65
06/16/2015	11:02:59.608	$GPGGA,110300,2421.2531,N,08114.8049,W,1,10,1.6,13,M,,M,,*6E
06/16/2015	11:03:00.566	$GPGGA,110301,2421.2531,N,08114.8060,W,1,10,1.6,13,M,,M,,*64
06/16/2015	11:03:01.546	$GPGGA,110302,2421.2531,N,08114.8072,W,1,10,1.6,13,M,,M,,*64
06/16/2015	11:03:02.556	$GPGGA,110303,2421.2531,N,08114.8085,W,1,10,1.6,13,M,,M,,*6D
06/16/2015	11:03:03.586	$GPGGA,110304,2421.2531,N,08114.8096,W,1,10,1.6,13,M,,M,,*68
06/16/2015	11:03:04.556	$GPGGA,110305,2421.2531,N,08114.8108,W,1,10,1.6,13,M,,M,,*6F
06/16/2015	11:03:05.536	$GPGGA,110306,2421.2529,N,08114.8119,W,1,10,1.6,13,M,,M,,*65
06/16/2015	11:03:06.546	$GPGGA,110307,2421.2530,N,08114.8130,W,1,10,1.6,13,M,,M,,*67
06/16/2015	11:03:07.576	$GPGGA,110308,2421.2531,N,08114.8143,W,1,10,1.6,13,M,,M,,*6D
06/16/2015	11:03:08.536	$GPGGA,110309,2421.2531,N,08114.8154,W,1,10,1.6,13,M,,M,,*6A
06/16/2015	11:03:10.066	$GPGGA,110310,2421.2529,N,08114.8165,W,1,10,1.6,13,M,,M,,*69
06/16/2015	11:03:10.536	$GPGGA,110311,2421.2528,N,08114.8176,W,1,10,1.6,13,M,,M,,*6B
06/16/2015	11:03:11.566	$GPGGA,110312,2421.2530,N,08114.8188,W,1,10,1.6,13,M,,M,,*60
06/16/2015	11:03:13.586	$GPGGA,110314,2421.2528,N,08114.8212,W,1,10,1.6,13,M,,M,,*6F
06/16/2015	11:03:14.527	$GPGGA,110315,2421.2530,N,08114.8224,W,1,10,1.6,13,M,,M,,*62
06/16/2015	11:03:15.547	$GPGGA,110316,2421.2529,N,08114.8235,W,1,10,1.6,13,M,,M,,*69
06/16/2015	11:03:16.808	$GPGGA,110317,2421.2528,N,08114.8248,W,1,10,1.6,13,M,,M,,*63
06/16/2015	11:03:17.526	$GPGGA,110318,2421.2530,N,08114.8259,W,1,10,1.6,13,M,,M,,*65
06/16/2015	11:03:18.519	$GPGGA,110319,2421.2529,N,08114.8270,W,1,10,1.6,12,M,,M,,*66
06/16/2015	11:03:19.566	$GPGGA,110320,2421.2528,N,08114.8282,W,1,10,1.6,12,M,,M,,*60
06/16/2015	11:03:20.507	$GPGGA,110321,2421.2530,N,08114.8293,W,1,10,1.6,12,M,,M,,*68
06/16/2015	11:03:21.526	$GPGGA,110322,2421.2529,N,08114.8306,W,1,10,1.6,12,M,,M,,*6E
06/16/2015	11:03:22.536	$GPGGA,110323,2421.2528,N,08114.8316,W,1,10,1.6,12,M,,M,,*6F
06/16/2015	11:03:23.516	$GPGGA,110324,2421.2529,N,08114.8328,W,1,10,1.6,12,M,,M,,*64
06/16/2015	11:03:24.516	$GPGGA,110325,2421.2528,N,08114.8340,W,1,10,1.6,12,M,,M,,*6A
06/16/2015	11:03:25.686	$GPGGA,110326,2421.2529,N,08114.8352,W,1,10,1.6,12,M,,M,,*6B
06/16/2015	11:03:26.506	$GPGGA,110327,2421.2527,N,08114.8363,W,1,10,1.6,12,M,,M,,*66
06/16/2015	11:03:27.536	$GPGGA,110328,2421.2527,N,08114.8374,W,1,10,1.6,12,M,,M,,*6F
06/16/2015	11:03:28.507	$GPGGA,110329,2421.2527,N,08114.8385,W,1,10,1.6,12,M,,M,,*60
06/16/2015	11:03:29.686	$GPGGA,110330,2421.2527,N,08114.8397,W,1,10,1.6,12,M,,M,,*6B
06/16/2015	11:03:30.506	$GPGGA,110331,2421.2525,N,08114.8410,W,1,10,1.6,12,M,,M,,*60
06/16/2015	11:03:31.527	$GPGGA,110332,2421.2526,N,08114.8421,W,1,10,1.6,12,M,,M,,*62
06/16/2015	11:03:32.821	$GPGGA,110333,2421.2525,N,08114.8432,W,1,10,1.6,12,M,,M,,*62
06/16/2015	11:03:33.497	$GPGGA,110334,2421.2524,N,08114.8443,W,1,10,1.6,12,M,,M,,*62
06/16/2015	11:03:34.577	$GPGGA,110335,2421.2524,N,08114.8454,W,1,10,1.6,12,M,,M,,*65
06/16/2015	11:03:35.507	$GPGGA,110336,2421.2524,N,08114.8465,W,1,10,1.6,12,M,,M,,*64
06/16/2015	11:03:36.577	$GPGGA,110337,2421.2523,N,08114.8476,W,1,10,1.6,12,M,,M,,*60
06/16/2015	11:03:37.676	$GPGGA,110338,2421.2522,N,08114.8490,W,1,10,1.6,12,M,,M,,*66
06/16/2015	11:03:38.487	$GPGGA,110339,2421.2523,N,08114.8502,W,1,10,1.6,12,M,,M,,*6C
06/16/2015	11:03:39.696	$GPGGA,110340,2421.2522,N,08114.8513,W,1,10,1.6,12,M,,M,,*63
06/16/2015	11:03:40.610	$GPGGA,110341,2421.2521,N,08114.8523,W,1,10,1.6,12,M,,M,,*62
06/16/2015	11:03:41.676	$GPGGA,110342,2421.2523,N,08114.8533,W,1,10,1.6,12,M,,M,,*62
06/16/2015	11:03:42.606	$GPGGA,110343,2421.2522,N,08114.8545,W,1,10,1.6,12,M,,M,,*63
06/16/2015	11:03:43.676	$GPGGA,110344,2421.2521,N,08114.8556,W,1,10,1.6,12,M,,M,,*65
06/16/2015	11:03:44.586	$GPGGA,110345,2421.2520,N,08114.8569,W,1,10,1.6,12,M,,M,,*69
06/16/2015	11:03:45.676	$GPGGA,110346,2421.2520,N,08114.8580,W,1,10,1.6,12,M,,M,,*6D
06/16/2015	11:03:46.596	$GPGGA,110347,2421.2520,N,08114.8591,W,1,10,1.6,12,M,,M,,*6C
06/16/2015	11:03:47.646	$GPGGA,110348,2421.2522,N,08114.8600,W,1,10,1.6,12,M,,M,,*6A
06/16/2015	11:03:48.596	$GPGGA,110349,2421.2520,N,08114.8611,W,1,10,1.6,12,M,,M,,*69
06/16/2015	11:03:49.557	$GPGGA,110350,2421.2520,N,08114.8624,W,1,10,1.6,12,M,,M,,*67
06/16/2015	11:03:50.587	$GPGGA,110351,2421.2520,N,08114.8634,W,1,10,1.6,12,M,,M,,*67
06/16/2015	11:03:51.667	$GPGGA,110352,2421.2520,N,08114.8645,W,1,10,1.6,12,M,,M,,*62
06/16/2015	11:03:52.576	$GPGGA,110353,2421.2520,N,08114.8656,W,1,10,1.6,12,M,,M,,*61
06/16/2015	11:03:53.656	$GPGGA,110354,2421.2520,N,08114.8667,W,1,10,1.6,12,M,,M,,*64
06/16/2015	11:03:54.576	$GPGGA,110355,2421.2520,N,08114.8678,W,1,10,1.6,12,M,,M,,*6B
06/16/2015	11:03:55.666	$GPGGA,110356,2421.2520,N,08114.8689,W,1,10,1.6,12,M,,M,,*66
06/16/2015	11:03:56.536	$GPGGA,110357,2421.2520,N,08114.8700,W,1,10,1.6,12,M,,M,,*67
06/16/2015	11:03:57.666	$GPGGA,110358,2421.2520,N,08114.8711,W,1,10,1.6,12,M,,M,,*68
06/16/2015	11:03:58.536	$GPGGA,110359,2421.2520,N,08114.8723,W,1,10,1.6,12,M,,M,,*68
06/16/2015	11:03:59.666	$GPGGA,110400,2421.2520,N,08114.8735,W,1,10,1.6,12,M,,M,,*64
06/16/2015	11:04:00.566	$GPGGA,110401,2421.2520,N,08114.8746,W,1,10,1.6,12,M,,M,,*61
06/16/2015	11:04:01.526	$GPGGA,110402,2421.2520,N,08114.8757,W,1,10,1.6,12,M,,M,,*62
06/16/2015	11:04:02.566	$GPGGA,110403,2421.2520,N,08114.8768,W,1,10,1.6,12,M,,M,,*6F
06/16/2015	11:04:03.656	$GPGGA,110404,2421.2520,N,08114.8779,W,1,10,1.6,12,M,,M,,*68
06/16/2015	11:04:04.556	$GPGGA,110405,2421.2520,N,08114.8790,W,1,10,1.6,12,M,,M,,*6E
06/16/2015	11:04:05.516	$GPGGA,110406,2421.2520,N,08114.8801,W,1,10,1.6,12,M,,M,,*6A
06/16/2015	11:04:06.557	$GPGGA,110407,2421.2520,N,08114.8811,W,1,10,1.6,12,M,,M,,*6A
06/16/2015	11:04:07.647	$GPGGA,110408,2421.2522,N,08114.8822,W,1,10,1.6,12,M,,M,,*67
06/16/2015	11:04:08.509	$GPGGA,110409,2421.2521,N,08114.8834,W,1,10,1.6,12,M,,M,,*62
06/16/2015	11:04:09.586	$GPGGA,110410,2421.2522,N,08114.8845,W,1,10,1.6,12,M,,M,,*6F
06/16/2015	11:04:10.508	$GPGGA,110411,2421.2521,N,08114.8858,W,1,10,1.6,12,M,,M,,*61
06/16/2015	11:04:11.607	$GPGGA,110412,2421.2522,N,08114.8869,W,1,10,1.6,12,M,,M,,*63
06/16/2015	11:04:12.556	$GPGGA,110413,2421.2521,N,08114.8880,W,1,10,1.6,12,M,,M,,*66
06/16/2015	11:04:13.626	$GPGGA,110414,2421.2523,N,08114.8891,W,1,10,1.6,12,M,,M,,*63
06/16/2015	11:04:14.546	$GPGGA,110415,2421.2522,N,08114.8902,W,1,10,1.6,12,M,,M,,*68
06/16/2015	11:04:15.616	$GPGGA,110416,2421.2523,N,08114.8913,W,1,10,1.6,12,M,,M,,*6A
06/16/2015	11:04:16.546	$GPGGA,110417,2421.2522,N,08114.8924,W,1,10,1.6,12,M,,M,,*6E
06/16/2015	11:04:17.609	$GPGGA,110418,2421.2523,N,08114.8936,W,1,10,1.6,12,M,,M,,*63
06/16/2015	11:04:18.596	$GPGGA,110419,2421.2523,N,08114.8949,W,1,10,1.6,12,M,,M,,*6A
06/16/2015	11:04:19.586	$GPGGA,110420,2421.2523,N,08114.8960,W,1,10,1.6,12,M,,M,,*6B
06/16/2015	11:04:20.526	$GPGGA,110421,2421.2522,N,08114.8972,W,1,10,1.6,12,M,,M,,*68
06/16/2015	11:04:21.576	$GPGGA,110422,2421.2523,N,08114.8983,W,1,10,1.6,12,M,,M,,*64
06/16/2015	11:04:22.596	$GPGGA,110423,2421.2523,N,08114.8995,W,1,10,1.6,12,M,,M,,*62
06/16/2015	11:04:23.646	$GPGGA,110424,2421.2523,N,08114.9007,W,1,10,1.6,12,M,,M,,*66
06/16/2015	11:04:24.547	$GPGGA,110425,2421.2523,N,08114.9017,W,1,10,1.6,12,M,,M,,*66
06/16/2015	11:04:25.614	$GPGGA,110426,2421.2523,N,08114.9029,W,1,10,1.6,12,M,,M,,*68
06/16/2015	11:04:26.577	$GPGGA,110427,2421.2523,N,08114.9042,W,1,10,1.6,12,M,,M,,*64
06/16/2015	11:04:27.596	$GPGGA,110428,2421.2523,N,08114.9053,W,1,10,1.6,12,M,,M,,*6B
06/16/2015	11:04:28.576	$GPGGA,110429,2421.2523,N,08114.9064,W,1,10,1.6,12,M,,M,,*6E
06/16/2015	11:04:29.613	$GPGGA,110430,2421.2524,N,08114.9076,W,1,10,1.6,12,M,,M,,*62
06/16/2015	11:04:30.576	$GPGGA,110431,2421.2523,N,08114.9086,W,1,10,1.6,12,M,,M,,*6B
06/16/2015	11:04:31.586	$GPGGA,110432,2421.2522,N,08114.9098,W,1,10,1.6,12,M,,M,,*66
06/16/2015	11:04:32.576	$GPGGA,110433,2421.2523,N,08114.9111,W,1,10,1.6,12,M,,M,,*66
06/16/2015	11:04:33.620	$GPGGA,110434,2421.2524,N,08114.9122,W,1,10,1.6,12,M,,M,,*66
06/16/2015	11:04:34.576	$GPGGA,110435,2421.2523,N,08114.9133,W,1,10,1.6,12,M,,M,,*60
06/16/2015	11:04:35.621	$GPGGA,110436,2421.2522,N,08114.9144,W,1,10,1.6,12,M,,M,,*62
06/16/2015	11:04:36.586	$GPGGA,110437,2421.2523,N,08114.9156,W,1,10,1.6,11,M,,M,,*62
06/16/2015	11:04:37.576	$GPGGA,110438,2421.2523,N,08114.9167,W,1,10,1.6,11,M,,M,,*6F
06/16/2015	11:04:38.567	$GPGGA,110439,2421.2522,N,08114.9180,W,1,10,1.6,11,M,,M,,*66
06/16/2015	11:04:39.586	$GPGGA,110440,2421.2523,N,08114.9191,W,1,10,1.6,11,M,,M,,*69
06/16/2015	11:04:40.556	$GPGGA,110441,2421.2523,N,08114.9202,W,1,10,1.6,11,M,,M,,*61
06/16/2015	11:04:41.610	$GPGGA,110442,2421.2523,N,08114.9214,W,1,10,1.6,11,M,,M,,*65
06/16/2015	11:04:42.557	$GPGGA,110443,2421.2521,N,08114.9227,W,1,10,1.6,11,M,,M,,*66
06/16/2015	11:04:43.587	$GPGGA,110444,2421.2523,N,08114.9238,W,1,10,1.6,11,M,,M,,*6D
06/16/2015	11:04:44.546	$GPGGA,110445,2421.2522,N,08114.9249,W,1,10,1.6,11,M,,M,,*6B
06/16/2015	11:04:45.646	$GPGGA,110446,2421.2523,N,08114.9260,W,1,10,1.6,11,M,,M,,*62
06/16/2015	11:04:46.546	$GPGGA,110447,2421.2522,N,08114.9272,W,1,10,1.6,11,M,,M,,*61
06/16/2015	11:04:47.610	$GPGGA,110448,2421.2521,N,08114.9283,W,1,10,1.6,11,M,,M,,*63
06/16/2015	11:04:48.556	$GPGGA,110449,2421.2520,N,08114.9295,W,1,10,1.6,11,M,,M,,*64
06/16/2015	11:04:49.586	$GPGGA,110450,2421.2520,N,08114.9306,W,1,10,1.6,11,M,,M,,*67
06/16/2015	11:04:50.546	$GPGGA,110451,2421.2520,N,08114.9318,W,1,10,1.6,11,M,,M,,*69
06/16/2015	11:04:51.556	$GPGGA,110452,2421.2520,N,08114.9318,W,1,10,1.6,11,M,,M,,*6A
06/16/2015	11:04:52.546	$GPGGA,110453,2421.2520,N,08114.9342,W,1,10,1.7,11,M,,M,,*65
06/16/2015	11:04:53.546	$GPGGA,110454,2421.2520,N,08114.9342,W,1,9,1.7,11,M,,M,,*5A
06/16/2015	11:04:54.536	$GPGGA,110455,2421.2520,N,08114.9364,W,1,9,1.6,11,M,,M,,*5E
06/16/2015	11:04:55.938	$GPGGA,110456,2421.2520,N,08114.9376,W,1,10,1.6,11,M,,M,,*66
06/16/2015	11:04:56.536	$GPGGA,110457,2421.2518,N,08114.9387,W,1,10,1.6,11,M,,M,,*62
06/16/2015	11:04:57.556	$GPGGA,110458,2421.2518,N,08114.9387,W,1,10,1.6,11,M,,M,,*6D
06/16/2015	11:04:58.536	$GPGGA,110459,2421.2517,N,08114.9411,W,1,10,1.6,11,M,,M,,*6B
06/16/2015	11:04:59.697	$GPGGA,110500,2421.2516,N,08114.9422,W,1,10,1.6,11,M,,M,,*67
06/16/2015	11:05:00.922	$GPGGA,110501,2421.2516,N,08114.9433,W,1,10,1.6,11,M,,M,,*66
06/16/2015	11:05:01.627	$GPGGA,110502,2421.2514,N,08114.9444,W,1,10,1.6,11,M,,M,,*67
06/16/2015	11:05:02.520	$GPGGA,110503,2421.2515,N,08114.9454,W,1,10,1.6,11,M,,M,,*66
06/16/2015	11:05:03.626	$GPGGA,110504,2421.2513,N,08114.9466,W,1,10,1.6,11,M,,M,,*66
06/16/2015	11:05:04.520	$GPGGA,110505,2421.2513,N,08114.9477,W,1,10,1.6,11,M,,M,,*67
06/16/2015	11:05:05.566	$GPGGA,110506,2421.2511,N,08114.9488,W,1,10,1.6,11,M,,M,,*66
06/16/2015	11:05:06.596	$GPGGA,110507,2421.2512,N,08114.9501,W,1,10,1.6,11,M,,M,,*64
06/16/2015	11:05:07.626	$GPGGA,110508,2421.2510,N,08114.9512,W,1,10,1.6,11,M,,M,,*6B
06/16/2015	11:05:08.518	$GPGGA,110509,2421.2509,N,08114.9523,W,1,10,1.6,11,M,,M,,*60
06/16/2015	11:05:09.625	$GPGGA,110510,2421.2509,N,08114.9534,W,1,10,1.6,11,M,,M,,*6E
06/16/2015	11:05:11.030	$GPGGA,110511,2421.2509,N,08114.9545,W,1,10,1.6,11,M,,M,,*69
06/16/2015	11:05:11.509	$GPGGA,110512,2421.2509,N,08114.9545,W,1,10,1.6,11,M,,M,,*6A
06/16/2015	11:05:12.586	$GPGGA,110513,2421.2509,N,08114.9567,W,1,10,1.6,11,M,,M,,*6B
06/16/2015	11:05:13.586	$GPGGA,110514,2421.2507,N,08114.9579,W,1,10,1.6,11,M,,M,,*6D
06/16/2015	11:05:14.586	$GPGGA,110515,2421.2506,N,08114.9592,W,1,10,1.6,11,M,,M,,*68
06/16/2015	11:05:15.612	$GPGGA,110516,2421.2505,N,08114.9603,W,1,10,1.6,11,M,,M,,*63
06/16/2015	11:05:16.597	$GPGGA,110517,2421.2505,N,08114.9613,W,1,10,1.6,11,M,,M,,*63
06/16/2015	11:05:17.577	$GPGGA,110518,2421.2506,N,08114.9624,W,1,10,1.6,11,M,,M,,*6B
06/16/2015	11:05:18.577	$GPGGA,110519,2421.2506,N,08114.9635,W,1,10,1.6,11,M,,M,,*6A
06/16/2015	11:05:19.596	$GPGGA,110520,2421.2505,N,08114.9646,W,1,10,1.6,11,M,,M,,*67
06/16/2015	11:05:20.566	$GPGGA,110521,2421.2505,N,08114.9657,W,1,10,1.6,11,M,,M,,*66
06/16/2015	11:05:21.596	$GPGGA,110522,2421.2505,N,08114.9669,W,1,10,1.6,11,M,,M,,*68
06/16/2015	11:05:22.566	$GPGGA,110523,2421.2504,N,08114.9682,W,1,10,1.6,12,M,,M,,*6E
06/16/2015	11:05:23.586	$GPGGA,110524,2421.2505,N,08114.9693,W,1,10,1.6,12,M,,M,,*68
06/16/2015	11:05:24.566	$GPGGA,110525,2421.2505,N,08114.9702,W,1,10,1.6,12,M,,M,,*60
06/16/2015	11:05:25.556	$GPGGA,110526,2421.2505,N,08114.9714,W,1,10,1.6,12,M,,M,,*64
06/16/2015	11:05:26.566	$GPGGA,110527,2421.2505,N,08114.9723,W,1,10,1.6,12,M,,M,,*61
06/16/2015	11:05:27.596	$GPGGA,110528,2421.2505,N,08114.9736,W,1,10,1.6,12,M,,M,,*6A
06/16/2015	11:05:28.556	$GPGGA,110529,2421.2506,N,08114.9747,W,1,10,1.7,12,M,,M,,*6F
06/16/2015	11:05:29.546	$GPGGA,110530,2421.2505,N,08114.9758,W,1,10,1.6,12,M,,M,,*6B
06/16/2015	11:05:30.556	$GPGGA,110531,2421.2505,N,08114.9769,W,1,10,1.6,12,M,,M,,*68
06/16/2015	11:05:31.586	$GPGGA,110532,2421.2506,N,08114.9780,W,1,10,1.6,12,M,,M,,*6F
06/16/2015	11:05:32.556	$GPGGA,110533,2421.2508,N,08114.9790,W,1,10,1.6,12,M,,M,,*61
06/16/2015	11:05:33.566	$GPGGA,110534,2421.2509,N,08114.9801,W,1,9,1.7,12,M,,M,,*59
06/16/2015	11:05:34.547	$GPGGA,110535,2421.2509,N,08114.9812,W,1,9,1.6,12,M,,M,,*5B
06/16/2015	11:05:35.557	$GPGGA,110536,2421.2511,N,08114.9824,W,1,10,1.6,12,M,,M,,*6C
06/16/2015	11:05:36.547	$GPGGA,110537,2421.2510,N,08114.9837,W,1,10,1.6,12,M,,M,,*6E
06/16/2015	11:05:37.536	$GPGGA,110538,2421.2511,N,08114.9848,W,1,10,1.6,12,M,,M,,*68
06/16/2015	11:05:38.546	$GPGGA,110539,2421.2512,N,08114.9859,W,1,10,1.6,12,M,,M,,*6A
06/16/2015	11:05:39.556	$GPGGA,110540,2421.2513,N,08114.9870,W,1,9,1.7,12,M,,M,,*57
06/16/2015	11:05:40.536	$GPGGA,110541,2421.2515,N,08114.9881,W,1,9,1.7,12,M,,M,,*5E
06/16/2015	11:05:41.536	$GPGGA,110542,2421.2516,N,08114.9893,W,1,10,1.6,12,M,,M,,*64
06/16/2015	11:05:42.526	$GPGGA,110543,2421.2515,N,08114.9906,W,1,10,1.6,12,M,,M,,*6B
06/16/2015	11:05:43.536	$GPGGA,110544,2421.2516,N,08114.9915,W,1,9,1.7,11,M,,M,,*57
06/16/2015	11:05:44.536	$GPGGA,110545,2421.2516,N,08114.9925,W,1,9,1.6,11,M,,M,,*54
06/16/2015	11:05:45.536	$GPGGA,110546,2421.2515,N,08114.9935,W,1,10,1.6,11,M,,M,,*6D
06/16/2015	11:05:46.516	$GPGGA,110547,2421.2516,N,08114.9946,W,1,10,1.6,11,M,,M,,*6B
06/16/2015	11:05:47.556	$GPGGA,110548,2421.2516,N,08114.9956,W,1,10,1.6,11,M,,M,,*65
06/16/2015	11:05:48.506	$GPGGA,110549,2421.2516,N,08114.9967,W,1,10,1.6,11,M,,M,,*66
06/16/2015	11:05:49.508	$GPGGA,110550,2421.2516,N,08114.9978,W,1,10,1.6,11,M,,M,,*60
06/16/2015	11:05:50.626	$GPGGA,110551,2421.2518,N,08114.9990,W,1,10,1.6,11,M,,M,,*69
06/16/2015	11:05:51.527	$GPGGA,110552,2421.2516,N,08114.9998,W,1,9,1.7,11,M,,M,,*55
06/16/2015	11:05:52.597	$GPGGA,110553,2421.2516,N,08115.0011,W,1,9,1.6,11,M,,M,,*55
06/16/2015	11:05:53.618	$GPGGA,110554,2421.2516,N,08115.0022,W,1,10,1.6,11,M,,M,,*6A
06/16/2015	11:05:54.496	$GPGGA,110555,2421.2518,N,08115.0033,W,1,10,1.6,11,M,,M,,*65
06/16/2015	11:05:55.536	$GPGGA,110556,2421.2519,N,08115.0043,W,1,10,1.6,11,M,,M,,*60
06/16/2015	11:05:56.510	$GPGGA,110557,2421.2518,N,08115.0054,W,1,10,1.6,11,M,,M,,*66
06/16/2015	11:05:57.636	$GPGGA,110558,2421.2519,N,08115.0065,W,1,10,1.6,11,M,,M,,*6A
06/16/2015	11:05:58.596	$GPGGA,110559,2421.2518,N,08115.0077,W,1,10,1.6,11,M,,M,,*69
06/16/2015	11:05:59.626	$GPGGA,110600,2421.2519,N,08115.0088,W,1,10,1.6,11,M,,M,,*67
06/16/2015	11:06:00.506	$GPGGA,110601,2421.2520,N,08115.0101,W,1,10,1.6,11,M,,M,,*6C
06/16/2015	11:06:01.616	$GPGGA,110602,2421.2518,N,08115.0112,W,1,10,1.6,12,M,,M,,*65
06/16/2015	11:06:02.496	$GPGGA,110603,2421.2520,N,08115.0123,W,1,10,1.6,12,M,,M,,*6D
06/16/2015	11:06:03.609	$GPGGA,110604,2421.2520,N,08115.0133,W,1,10,1.6,12,M,,M,,*6B
06/16/2015	11:06:04.496	$GPGGA,110605,2421.2520,N,08115.0144,W,1,10,1.6,12,M,,M,,*6A
06/16/2015	11:06:05.616	$GPGGA,110606,2421.2520,N,08115.0155,W,1,10,1.6,12,M,,M,,*69
06/16/2015	11:06:06.576	$GPGGA,110607,2421.2520,N,08115.0166,W,1,10,1.6,12,M,,M,,*68
06/16/2015	11:06:07.610	$GPGGA,110608,2421.2518,N,08115.0178,W,1,10,1.6,12,M,,M,,*63
06/16/2015	11:06:08.586	$GPGGA,110609,2421.2520,N,08115.0191,W,1,10,1.6,12,M,,M,,*6E
06/16/2015	11:06:09.587	$GPGGA,110610,2421.2518,N,08115.0202,W,1,10,1.6,12,M,,M,,*64
06/16/2015	11:06:10.577	$GPGGA,110611,2421.2519,N,08115.0213,W,1,10,1.6,12,M,,M,,*64
06/16/2015	11:06:11.597	$GPGGA,110612,2421.2518,N,08115.0224,W,1,10,1.6,12,M,,M,,*62
06/16/2015	11:06:12.576	$GPGGA,110613,2421.2517,N,08115.0236,W,1,10,1.6,12,M,,M,,*6F
06/16/2015	11:06:13.576	$GPGGA,110614,2421.2518,N,08115.0247,W,1,10,1.6,12,M,,M,,*61
06/16/2015	11:06:14.566	$GPGGA,110615,2421.2517,N,08115.0260,W,1,10,1.6,12,M,,M,,*6A
06/16/2015	11:06:15.606	$GPGGA,110616,2421.2518,N,08115.0271,W,1,10,1.6,12,M,,M,,*66
06/16/2015	11:06:16.566	$GPGGA,110617,2421.2516,N,08115.0282,W,1,10,1.6,12,M,,M,,*65
06/16/2015	11:06:17.587	$GPGGA,110618,2421.2516,N,08115.0294,W,1,10,1.6,12,M,,M,,*6D
06/16/2015	11:06:18.556	$GPGGA,110619,2421.2515,N,08115.0305,W,1,10,1.6,12,M,,M,,*66
06/16/2015	11:06:19.596	$GPGGA,110620,2421.2516,N,08115.0318,W,1,10,1.6,12,M,,M,,*63
06/16/2015	11:06:20.556	$GPGGA,110621,2421.2515,N,08115.0329,W,1,10,1.6,12,M,,M,,*63
06/16/2015	11:06:21.546	$GPGGA,110622,2421.2514,N,08115.0340,W,1,10,1.6,12,M,,M,,*6E
06/16/2015	11:06:22.556	$GPGGA,110623,2421.2515,N,08115.0351,W,1,10,1.6,12,M,,M,,*6E
06/16/2015	11:06:23.556	$GPGGA,110624,2421.2514,N,08115.0363,W,1,10,1.6,12,M,,M,,*69
06/16/2015	11:06:24.546	$GPGGA,110625,2421.2513,N,08115.0376,W,1,10,1.6,12,M,,M,,*6B
06/16/2015	11:06:25.576	$GPGGA,110626,2421.2513,N,08115.0387,W,1,10,1.6,12,M,,M,,*66
06/16/2015	11:06:26.537	$GPGGA,110627,2421.2513,N,08115.0398,W,1,10,1.6,12,M,,M,,*69
06/16/2015	11:06:27.577	$GPGGA,110628,2421.2513,N,08115.0410,W,1,10,1.6,12,M,,M,,*61
06/16/2015	11:06:28.547	$GPGGA,110629,2421.2513,N,08115.0421,W,1,10,1.6,12,M,,M,,*62
06/16/2015	11:06:29.556	$GPGGA,110630,2421.2513,N,08115.0433,W,1,10,1.6,12,M,,M,,*69
06/16/2015	11:06:30.536	$GPGGA,110631,2421.2511,N,08115.0444,W,1,10,1.6,12,M,,M,,*6A
06/16/2015	11:06:31.556	$GPGGA,110632,2421.2512,N,08115.0455,W,1,10,1.6,12,M,,M,,*6A
06/16/2015	11:06:32.846	$GPGGA,110633,2421.2511,N,08115.0467,W,1,10,1.6,12,M,,M,,*69
06/16/2015	11:06:33.636	$GPGGA,110634,2421.2510,N,08115.0480,W,1,10,1.6,12,M,,M,,*66
06/16/2015	11:06:34.526	$GPGGA,110635,2421.2509,N,08115.0491,W,1,10,1.6,12,M,,M,,*6F
06/16/2015	11:06:35.566	$GPGGA,110636,2421.2509,N,08115.0502,W,1,10,1.6,12,M,,M,,*67
06/16/2015	11:06:36.636	$GPGGA,110637,2421.2511,N,08115.0513,W,1,10,1.6,12,M,,M,,*6F
06/16/2015	11:06:37.546	$GPGGA,110638,2421.2510,N,08115.0522,W,1,10,1.6,12,M,,M,,*63
06/16/2015	11:06:38.636	$GPGGA,110639,2421.2509,N,08115.0535,W,1,10,1.6,12,M,,M,,*6C
06/16/2015	11:06:39.626	$GPGGA,110640,2421.2509,N,08115.0546,W,1,10,1.6,12,M,,M,,*66
06/16/2015	11:06:40.526	$GPGGA,110641,2421.2511,N,08115.0557,W,1,10,1.6,12,M,,M,,*6E
06/16/2015	11:06:41.536	$GPGGA,110642,2421.2509,N,08115.0568,W,1,10,1.6,12,M,,M,,*68
06/16/2015	11:06:42.515	$GPGGA,110643,2421.2509,N,08115.0579,W,1,10,1.6,12,M,,M,,*69
06/16/2015	11:06:43.520	$GPGGA,110644,2421.2511,N,08115.0590,W,1,10,1.6,12,M,,M,,*60
06/16/2015	11:06:44.508	$GPGGA,110645,2421.2510,N,08115.0601,W,1,10,1.6,12,M,,M,,*6B
06/16/2015	11:06:45.627	$GPGGA,110646,2421.2511,N,08115.0612,W,1,10,1.6,12,M,,M,,*6B
06/16/2015	11:06:46.512	$GPGGA,110647,2421.2510,N,08115.0625,W,1,10,1.6,12,M,,M,,*6F
06/16/2015	11:06:47.517	$GPGGA,110648,2421.2511,N,08115.0636,W,1,9,1.7,12,M,,M,,*5A
06/16/2015	11:06:48.586	$GPGGA,110649,2421.2510,N,08115.0645,W,1,9,1.6,12,M,,M,,*5F
06/16/2015	11:06:49.496	$GPGGA,110650,2421.2511,N,08115.0655,W,1,10,1.6,12,M,,M,,*6F
06/16/2015	11:06:50.506	$GPGGA,110651,2421.2512,N,08115.0666,W,1,10,1.6,12,M,,M,,*6D
06/16/2015	11:06:51.608	$GPGGA,110652,2421.2511,N,08115.0679,W,1,10,1.6,12,M,,M,,*63
06/16/2015	11:06:52.586	$GPGGA,110653,2421.2512,N,08115.0690,W,1,10,1.7,12,M,,M,,*67
06/16/2015	11:06:53.576	$GPGGA,110654,2421.2513,N,08115.0701,W,1,10,1.6,12,M,,M,,*69
06/16/2015	11:06:54.576	$GPGGA,110655,2421.2513,N,08115.0712,W,1,10,1.6,12,M,,M,,*6A
06/16/2015	11:06:55.609	$GPGGA,110656,2421.2513,N,08115.0723,W,1,10,1.6,12,M,,M,,*6B
06/16/2015	11:06:56.586	$GPGGA,110657,2421.2513,N,08115.0734,W,1,10,1.6,12,M,,M,,*6C
06/16/2015	11:06:57.486	$GPGGA,110658,2421.2513,N,08115.0745,W,1,10,1.6,12,M,,M,,*65
06/16/2015	11:06:58.576	$GPGGA,110659,2421.2515,N,08115.0758,W,1,10,1.7,12,M,,M,,*6F
06/16/2015	11:06:59.617	$GPGGA,110700,2421.2514,N,08115.0770,W,1,9,1.7,12,M,,M,,*51
06/16/2015	11:07:00.566	$GPGGA,110701,2421.2515,N,08115.0781,W,1,9,1.6,12,M,,M,,*5E
06/16/2015	11:07:01.610	$GPGGA,110702,2421.2516,N,08115.0793,W,1,10,1.6,12,M,,M,,*65
06/16/2015	11:07:02.567	$GPGGA,110703,2421.2516,N,08115.0805,W,1,10,1.6,12,M,,M,,*64
06/16/2015	11:07:03.597	$GPGGA,110704,2421.2516,N,08115.0814,W,1,10,1.6,12,M,,M,,*63
06/16/2015	11:07:04.556	$GPGGA,110705,2421.2516,N,08115.0825,W,1,10,1.6,12,M,,M,,*60
06/16/2015	11:07:05.576	$GPGGA,110706,2421.2516,N,08115.0838,W,1,10,1.6,12,M,,M,,*6F
06/16/2015	11:07:06.576	$GPGGA,110707,2421.2518,N,08115.0849,W,1,10,1.6,12,M,,M,,*66
06/16/2015	11:07:07.586	$GPGGA,110708,2421.2517,N,08115.0860,W,1,10,1.6,12,M,,M,,*6D
06/16/2015	11:07:08.566	$GPGGA,110709,2421.2519,N,08115.0872,W,1,10,1.6,12,M,,M,,*61
06/16/2015	11:07:09.546	$GPGGA,110710,2421.2518,N,08115.0883,W,1,9,1.7,12,M,,M,,*5F
06/16/2015	11:07:10.556	$GPGGA,110711,2421.2519,N,08115.0894,W,1,9,1.6,12,M,,M,,*58
06/16/2015	11:07:11.586	$GPGGA,110712,2421.2520,N,08115.0905,W,1,10,1.6,12,M,,M,,*60
06/16/2015	11:07:12.546	$GPGGA,110713,2421.2520,N,08115.0917,W,1,10,1.6,12,M,,M,,*62
06/16/2015	11:07:13.536	$GPGGA,110714,2421.2520,N,08115.0928,W,1,10,1.6,12,M,,M,,*69
06/16/2015	11:07:14.546	$GPGGA,110715,2421.2520,N,08115.0939,W,1,10,1.6,12,M,,M,,*68
06/16/2015	11:07:15.556	$GPGGA,110716,2421.2520,N,08115.0950,W,1,10,1.6,12,M,,M,,*64
06/16/2015	11:07:16.546	$GPGGA,110717,2421.2520,N,08115.0961,W,1,10,1.6,12,M,,M,,*67
06/16/2015	11:07:17.566	$GPGGA,110718,2421.2522,N,08115.0972,W,1,10,1.6,12,M,,M,,*68
06/16/2015	11:07:18.536	$GPGGA,110719,2421.2521,N,08115.0983,W,1,10,1.6,12,M,,M,,*64
06/16/2015	11:07:19.577	$GPGGA,110720,2421.2523,N,08115.0993,W,1,10,1.6,12,M,,M,,*6D
06/16/2015	11:07:20.547	$GPGGA,110721,2421.2522,N,08115.1004,W,1,10,1.6,12,M,,M,,*6B
06/16/2015	11:07:21.527	$GPGGA,110722,2421.2523,N,08115.1015,W,1,10,1.6,12,M,,M,,*69
06/16/2015	11:07:22.526	$GPGGA,110723,2421.2523,N,08115.1027,W,1,10,1.6,12,M,,M,,*69
06/16/2015	11:07:23.526	$GPGGA,110724,2421.2524,N,08115.1040,W,1,10,1.6,12,M,,M,,*68
06/16/2015	11:07:24.516	$GPGGA,110725,2421.2524,N,08115.1051,W,1,10,1.6,12,M,,M,,*69
06/16/2015	11:07:25.610	$GPGGA,110726,2421.2524,N,08115.1062,W,1,10,1.6,12,M,,M,,*6A
06/16/2015	11:07:26.523	$GPGGA,110727,2421.2524,N,08115.1073,W,1,10,1.6,12,M,,M,,*6B
06/16/2015	11:07:27.526	$GPGGA,110728,2421.2527,N,08115.1085,W,1,10,1.6,12,M,,M,,*6E
06/16/2015	11:07:28.526	$GPGGA,110729,2421.2527,N,08115.1098,W,1,10,1.6,12,M,,M,,*63
06/16/2015	11:07:29.521	$GPGGA,110730,2421.2525,N,08115.1109,W,1,10,1.6,12,M,,M,,*60
06/16/2015	11:07:30.509	$GPGGA,110731,2421.2526,N,08115.1120,W,1,10,1.6,12,M,,M,,*69
06/16/2015	11:07:31.514	$GPGGA,110732,2421.2527,N,08115.1131,W,1,10,1.6,12,M,,M,,*6B
06/16/2015	11:07:32.521	$GPGGA,110733,2421.2527,N,08115.1142,W,1,10,1.6,12,M,,M,,*6E
06/16/2015	11:07:33.524	$GPGGA,110734,2421.2527,N,08115.1154,W,1,10,1.6,12,M,,M,,*6E
06/16/2015	11:07:34.510	$GPGGA,110735,2421.2527,N,08115.1167,W,1,10,1.6,12,M,,M,,*6F
06/16/2015	11:07:35.636	$GPGGA,110736,2421.2527,N,08115.1178,W,1,10,1.6,12,M,,M,,*62
06/16/2015	11:07:37.657	$GPGGA,110738,2421.2527,N,08115.1200,W,1,10,1.6,12,M,,M,,*60
06/16/2015	11:07:38.616	$GPGGA,110739,2421.2525,N,08115.1211,W,1,10,1.6,12,M,,M,,*63
06/16/2015	11:07:39.514	$GPGGA,110740,2421.2526,N,08115.1223,W,1,10,1.6,12,M,,M,,*6F
06/16/2015	11:07:40.586	$GPGGA,110741,2421.2525,N,08115.1236,W,1,10,1.6,12,M,,M,,*69
06/16/2015	11:07:41.586	$GPGGA,110742,2421.2526,N,08115.1247,W,1,10,1.6,12,M,,M,,*6F
06/16/2015	11:07:42.586	$GPGGA,110743,2421.2524,N,08115.1259,W,1,10,1.6,11,M,,M,,*60
06/16/2015	11:07:43.621	$GPGGA,110744,2421.2523,N,08115.1270,W,1,10,1.6,11,M,,M,,*6B
06/16/2015	11:07:44.486	$GPGGA,110745,2421.2523,N,08115.1282,W,1,10,1.6,11,M,,M,,*67
06/16/2015	11:07:45.586	$GPGGA,110746,2421.2523,N,08115.1293,W,1,10,1.6,11,M,,M,,*64
06/16/2015	11:07:46.586	$GPGGA,110747,2421.2522,N,08115.1304,W,1,10,1.6,11,M,,M,,*6B
06/16/2015	11:07:47.619	$GPGGA,110748,2421.2521,N,08115.1316,W,1,10,1.6,11,M,,M,,*64
06/16/2015	11:07:48.576	$GPGGA,110749,2421.2520,N,08115.1329,W,1,10,1.6,11,M,,M,,*68
06/16/2015	11:07:49.576	$GPGGA,110750,2421.2520,N,08115.1340,W,1,10,1.6,11,M,,M,,*6F
06/16/2015	11:07:50.586	$GPGGA,110751,2421.2520,N,08115.1351,W,1,10,1.6,11,M,,M,,*6E
06/16/2015	11:07:51.596	$GPGGA,110752,2421.2520,N,08115.1362,W,1,10,1.6,11,M,,M,,*6D
06/16/2015	11:07:52.566	$GPGGA,110753,2421.2518,N,08115.1373,W,1,10,1.6,11,M,,M,,*67
06/16/2015	11:07:53.586	$GPGGA,110754,2421.2520,N,08115.1384,W,1,9,1.8,11,M,,M,,*55
06/16/2015	11:07:54.557	$GPGGA,110755,2421.2523,N,08115.1395,W,1,9,1.6,11,M,,M,,*59
06/16/2015	11:07:55.587	$GPGGA,110756,2421.2522,N,08115.1406,W,1,10,1.6,11,M,,M,,*6E
06/16/2015	11:07:56.557	$GPGGA,110757,2421.2520,N,08115.1417,W,1,10,1.6,11,M,,M,,*6D
06/16/2015	11:07:57.576	$GPGGA,110758,2421.2520,N,08115.1428,W,1,9,1.8,11,M,,M,,*58
06/16/2015	11:07:58.566	$GPGGA,110759,2421.2520,N,08115.1439,W,1,9,1.6,11,M,,M,,*57
06/16/2015	11:07:59.619	$GPGGA,110800,2421.2520,N,08115.1450,W,1,10,1.6,11,M,,M,,*63
06/16/2015	11:08:00.556	$GPGGA,110801,2421.2520,N,08115.1461,W,1,10,1.6,11,M,,M,,*60
06/16/2015	11:08:01.566	$GPGGA,110802,2421.2520,N,08115.1472,W,1,10,1.6,11,M,,M,,*61
06/16/2015	11:08:02.546	$GPGGA,110803,2421.2520,N,08115.1483,W,1,10,1.6,11,M,,M,,*6E
06/16/2015	11:08:03.576	$GPGGA,110804,2421.2520,N,08115.1495,W,1,10,1.6,11,M,,M,,*6E
06/16/2015	11:08:04.536	$GPGGA,110805,2421.2518,N,08115.1506,W,1,10,1.6,11,M,,M,,*6F
06/16/2015	11:08:05.566	$GPGGA,110806,2421.2519,N,08115.1517,W,1,10,1.6,11,M,,M,,*6D
06/16/2015	11:08:06.536	$GPGGA,110807,2421.2518,N,08115.1528,W,1,10,1.6,11,M,,M,,*61
06/16/2015	11:08:07.566	$GPGGA,110808,2421.2519,N,08115.1539,W,1,10,1.6,11,M,,M,,*6F
06/16/2015	11:08:08.536	$GPGGA,110809,2421.2517,N,08115.1550,W,1,10,1.6,11,M,,M,,*6F
06/16/2015	11:08:09.536	$GPGGA,110810,2421.2518,N,08115.1561,W,1,10,1.6,11,M,,M,,*6A
06/16/2015	11:08:10.536	$GPGGA,110811,2421.2517,N,08115.1572,W,1,10,1.6,12,M,,M,,*65
06/16/2015	11:08:11.676	$GPGGA,110812,2421.2516,N,08115.1583,W,1,10,1.6,12,M,,M,,*69
06/16/2015	11:08:12.536	$GPGGA,110813,2421.2518,N,08115.1594,W,1,10,1.6,12,M,,M,,*60
06/16/2015	11:08:13.536	$GPGGA,110814,2421.2517,N,08115.1605,W,1,10,1.6,12,M,,M,,*63
06/16/2015	11:08:14.515	$GPGGA,110815,2421.2518,N,08115.1616,W,1,10,1.6,12,M,,M,,*6F
06/16/2015	11:08:15.545	$GPGGA,110816,2421.2517,N,08115.1627,W,1,10,1.6,12,M,,M,,*61
06/16/2015	11:08:16.525	$GPGGA,110817,2421.2518,N,08115.1640,W,1,10,1.6,12,M,,M,,*6E
06/16/2015	11:08:17.555	$GPGGA,110818,2421.2519,N,08115.1651,W,1,10,1.6,12,M,,M,,*60
06/16/2015	11:08:18.509	$GPGGA,110819,2421.2517,N,08115.1662,W,1,10,1.6,12,M,,M,,*6F
06/16/2015	11:08:19.535	$GPGGA,110820,2421.2518,N,08115.1673,W,1,10,1.6,12,M,,M,,*6A
06/16/2015	11:08:20.496	$GPGGA,110821,2421.2519,N,08115.1684,W,1,10,1.6,12,M,,M,,*62
06/16/2015	11:08:21.505	$GPGGA,110822,2421.2518,N,08115.1695,W,1,10,1.6,12,M,,M,,*60
06/16/2015	11:08:22.496	$GPGGA,110823,2421.2519,N,08115.1706,W,1,10,1.6,12,M,,M,,*6B
06/16/2015	11:08:23.526	$GPGGA,110824,2421.2518,N,08115.1717,W,1,10,1.6,12,M,,M,,*6D
06/16/2015	11:08:24.596	$GPGGA,110825,2421.2519,N,08115.1730,W,1,10,1.6,12,M,,M,,*68
06/16/2015	11:08:25.486	$GPGGA,110826,2421.2520,N,08115.1741,W,1,10,1.6,12,M,,M,,*67
06/16/2015	11:08:26.586	$GPGGA,110827,2421.2520,N,08115.1752,W,1,10,1.6,12,M,,M,,*64
06/16/2015	11:08:27.626	$GPGGA,110828,2421.2520,N,08115.1763,W,1,10,1.6,12,M,,M,,*69
06/16/2015	11:08:28.609	$GPGGA,110829,2421.2522,N,08115.1777,W,1,10,1.6,12,M,,M,,*6F
06/16/2015	11:08:29.600	$GPGGA,110830,2421.2521,N,08115.1788,W,1,10,1.6,12,M,,M,,*64
06/16/2015	11:08:30.496	$GPGGA,110831,2421.2523,N,08115.1799,W,1,10,1.6,12,M,,M,,*67
06/16/2015	11:08:31.626	$GPGGA,110832,2421.2522,N,08115.1811,W,1,10,1.6,12,M,,M,,*6A
06/16/2015	11:08:32.575	$GPGGA,110833,2421.2523,N,08115.1822,W,1,10,1.6,12,M,,M,,*6A
06/16/2015	11:08:33.565	$GPGGA,110834,2421.2524,N,08115.1835,W,1,10,1.6,12,M,,M,,*6C
06/16/2015	11:08:34.565	$GPGGA,110835,2421.2524,N,08115.1846,W,1,10,1.6,12,M,,M,,*69
06/16/2015	11:08:35.595	$GPGGA,110836,2421.2526,N,08115.1857,W,1,10,1.6,12,M,,M,,*68
06/16/2015	11:08:36.575	$GPGGA,110837,2421.2525,N,08115.1868,W,1,10,1.6,12,M,,M,,*66
06/16/2015	11:08:37.585	$GPGGA,110838,2421.2526,N,08115.1880,W,1,10,1.6,12,M,,M,,*6C
06/16/2015	11:08:38.565	$GPGGA,110839,2421.2527,N,08115.1893,W,1,10,1.6,12,M,,M,,*6E
06/16/2015	11:08:39.600	$GPGGA,110840,2421.2527,N,08115.1904,W,1,10,1.6,12,M,,M,,*6F
06/16/2015	11:08:40.566	$GPGGA,110841,2421.2527,N,08115.1915,W,1,10,1.6,12,M,,M,,*6E
06/16/2015	11:08:41.576	$GPGGA,110842,2421.2529,N,08115.1927,W,1,10,1.6,12,M,,M,,*62
06/16/2015	11:08:42.556	$GPGGA,110843,2421.2530,N,08115.1938,W,1,10,1.6,12,M,,M,,*65
06/16/2015	11:08:43.586	$GPGGA,110844,2421.2528,N,08115.1951,W,1,10,1.6,12,M,,M,,*64
06/16/2015	11:08:44.556	$GPGGA,110845,2421.2530,N,08115.1962,W,1,10,1.6,12,M,,M,,*6C
06/16/2015	11:08:45.576	$GPGGA,110846,2421.2531,N,08115.1974,W,1,10,1.6,12,M,,M,,*69
06/16/2015	11:08:46.556	$GPGGA,110847,2421.2531,N,08115.1987,W,1,10,1.6,12,M,,M,,*64
06/16/2015	11:08:47.626	$GPGGA,110848,2421.2531,N,08115.1998,W,1,10,1.6,12,M,,M,,*65
06/16/2015	11:08:48.546	$GPGGA,110849,2421.2531,N,08115.2009,W,1,10,1.6,12,M,,M,,*66
06/16/2015	11:08:49.535	$GPGGA,110850,2421.2531,N,08115.2020,W,1,10,1.6,12,M,,M,,*65
06/16/2015	11:08:50.545	$GPGGA,110851,2421.2533,N,08115.2032,W,1,10,1.6,12,M,,M,,*65
06/16/2015	11:08:51.615	$GPGGA,110852,2421.2532,N,08115.2045,W,1,10,1.6,12,M,,M,,*67
06/16/2015	11:08:52.545	$GPGGA,110853,2421.2533,N,08115.2057,W,1,10,1.6,12,M,,M,,*64
06/16/2015	11:08:53.565	$GPGGA,110854,2421.2532,N,08115.2068,W,1,10,1.6,12,M,,M,,*6E
06/16/2015	11:08:54.535	$GPGGA,110855,2421.2533,N,08115.2081,W,1,10,1.6,12,M,,M,,*69
06/16/2015	11:08:55.565	$GPGGA,110856,2421.2532,N,08115.2092,W,1,10,1.7,12,M,,M,,*68
06/16/2015	11:08:56.525	$GPGGA,110857,2421.2534,N,08115.2104,W,1,10,1.7,12,M,,M,,*61
06/16/2015	11:08:57.546	$GPGGA,110858,2421.2533,N,08115.2117,W,1,9,1.7,12,M,,M,,*53
06/16/2015	11:08:58.536	$GPGGA,110859,2421.2532,N,08115.2129,W,1,9,1.7,12,M,,M,,*5E
06/16/2015	11:08:59.566	$GPGGA,110900,2421.2533,N,08115.2140,W,1,9,1.6,12,M,,M,,*5C
06/16/2015	11:09:00.536	$GPGGA,110901,2421.2532,N,08115.2153,W,1,9,1.6,12,M,,M,,*5E
06/16/2015	11:09:01.508	$GPGGA,110902,2421.2533,N,08115.2164,W,1,10,1.6,12,M,,M,,*60
06/16/2015	11:09:02.546	$GPGGA,110903,2421.2531,N,08115.2175,W,1,10,1.6,12,M,,M,,*63
06/16/2015	11:09:03.546	$GPGGA,110904,2421.2531,N,08115.2186,W,1,10,1.6,12,M,,M,,*68
06/16/2015	11:09:04.511	$GPGGA,110905,2421.2531,N,08115.2198,W,1,10,1.6,12,M,,M,,*66
06/16/2015	11:09:05.526	$GPGGA,110906,2421.2531,N,08115.2209,W,1,10,1.6,12,M,,M,,*6E
06/16/2015	11:09:06.516	$GPGGA,110907,2421.2529,N,08115.2220,W,1,10,1.6,12,M,,M,,*6D
06/16/2015	11:09:07.555	$GPGGA,110908,2421.2530,N,08115.2233,W,1,10,1.6,12,M,,M,,*68
06/16/2015	11:09:08.515	$GPGGA,110909,2421.2528,N,08115.2243,W,1,10,1.6,12,M,,M,,*67
06/16/2015	11:09:09.506	$GPGGA,110910,2421.2529,N,08115.2255,W,1,10,1.6,12,M,,M,,*69
06/16/2015	11:09:10.525	$GPGGA,110911,2421.2527,N,08115.2267,W,1,10,1.6,12,M,,M,,*67
06/16/2015	11:09:11.625	$GPGGA,110912,2421.2527,N,08115.2280,W,1,10,1.8,12,M,,M,,*63
06/16/2015	11:09:12.508	$GPGGA,110913,2421.2527,N,08115.2292,W,1,10,1.6,12,M,,M,,*6F
06/16/2015	11:09:13.625	$GPGGA,110914,2421.2527,N,08115.2303,W,1,10,1.6,12,M,,M,,*61
06/16/2015	11:09:14.547	$GPGGA,110915,2421.2529,N,08115.2314,W,1,10,1.6,12,M,,M,,*68
06/16/2015	11:09:15.646	$GPGGA,110916,2421.2527,N,08115.2327,W,1,10,1.6,12,M,,M,,*65
06/16/2015	11:09:16.600	$GPGGA,110917,2421.2527,N,08115.2327,W,1,10,1.6,12,M,,M,,*64
06/16/2015	11:09:17.586	$GPGGA,110918,2421.2527,N,08115.2350,W,1,10,1.6,12,M,,M,,*6B
06/16/2015	11:09:18.577	$GPGGA,110919,2421.2527,N,08115.2363,W,1,10,1.6,12,M,,M,,*6A
06/16/2015	11:09:19.596	$GPGGA,110920,2421.2527,N,08115.2374,W,1,10,1.6,12,M,,M,,*66
06/16/2015	11:09:20.496	$GPGGA,110921,2421.2527,N,08115.2385,W,1,10,1.6,12,M,,M,,*69
06/16/2015	11:09:21.599	$GPGGA,110922,2421.2527,N,08115.2396,W,1,10,1.6,12,M,,M,,*68
06/16/2015	11:09:22.576	$GPGGA,110923,2421.2527,N,08115.2408,W,1,10,1.6,12,M,,M,,*69
06/16/2015	11:09:23.606	$GPGGA,110924,2421.2527,N,08115.2420,W,1,10,1.6,12,M,,M,,*64
06/16/2015	11:09:24.565	$GPGGA,110925,2421.2529,N,08115.2431,W,1,10,1.6,12,M,,M,,*6B
06/16/2015	11:09:25.565	$GPGGA,110926,2421.2527,N,08115.2443,W,1,10,1.6,12,M,,M,,*63
06/16/2015	11:09:26.565	$GPGGA,110927,2421.2527,N,08115.2454,W,1,10,1.6,12,M,,M,,*64
06/16/2015	11:09:27.609	$GPGGA,110928,2421.2527,N,08115.2465,W,1,10,1.6,12,M,,M,,*69
06/16/2015	11:09:28.565	$GPGGA,110929,2421.2527,N,08115.2478,W,1,10,1.6,12,M,,M,,*64
06/16/2015	11:09:29.575	$GPGGA,110930,2421.2527,N,08115.2489,W,1,10,1.6,12,M,,M,,*62
06/16/2015	11:09:30.555	$GPGGA,110931,2421.2527,N,08115.2500,W,1,10,1.6,12,M,,M,,*63
06/16/2015	11:09:31.586	$GPGGA,110932,2421.2527,N,08115.2511,W,1,10,1.6,13,M,,M,,*61
06/16/2015	11:09:32.566	$GPGGA,110933,2421.2527,N,08115.2523,W,1,10,1.6,13,M,,M,,*61
06/16/2015	11:09:33.546	$GPGGA,110934,2421.2525,N,08115.2536,W,1,10,1.6,13,M,,M,,*60
06/16/2015	11:09:34.556	$GPGGA,110935,2421.2527,N,08115.2547,W,1,10,1.6,13,M,,M,,*65
06/16/2015	11:09:35.586	$GPGGA,110936,2421.2527,N,08115.2558,W,1,10,1.6,13,M,,M,,*68
06/16/2015	11:09:36.546	$GPGGA,110937,2421.2527,N,08115.2570,W,1,10,1.6,13,M,,M,,*63
06/16/2015	11:09:37.546	$GPGGA,110938,2421.2525,N,08115.2581,W,1,10,1.6,13,M,,M,,*60
06/16/2015	11:09:38.556	$GPGGA,110939,2421.2527,N,08115.2592,W,1,10,1.6,13,M,,M,,*61
06/16/2015	11:09:39.576	$GPGGA,110940,2421.2527,N,08115.2605,W,1,10,1.6,13,M,,M,,*62
06/16/2015	11:09:40.546	$GPGGA,110941,2421.2527,N,08115.2616,W,1,10,1.7,13,M,,M,,*60
06/16/2015	11:09:41.556	$GPGGA,110942,2421.2527,N,08115.2628,W,1,9,1.7,13,M,,M,,*56
06/16/2015	11:09:42.545	$GPGGA,110943,2421.2527,N,08115.2641,W,1,9,1.7,13,M,,M,,*58
06/16/2015	11:09:43.545	$GPGGA,110944,2421.2527,N,08115.2652,W,1,10,1.6,13,M,,M,,*64
06/16/2015	11:09:44.545	$GPGGA,110945,2421.2529,N,08115.2662,W,1,10,1.6,13,M,,M,,*68
06/16/2015	11:09:45.525	$GPGGA,110946,2421.2528,N,08115.2673,W,1,10,1.6,13,M,,M,,*6A
06/16/2015	11:09:46.545	$GPGGA,110947,2421.2529,N,08115.2684,W,1,10,1.6,13,M,,M,,*62
06/16/2015	11:09:47.565	$GPGGA,110948,2421.2530,N,08115.2695,W,1,10,1.6,13,M,,M,,*65
06/16/2015	11:09:48.515	$GPGGA,110949,2421.2529,N,08115.2706,W,1,10,1.6,13,M,,M,,*67
06/16/2015	11:09:49.526	$GPGGA,110950,2421.2530,N,08115.2717,W,1,10,1.6,13,M,,M,,*67
06/16/2015	11:09:50.536	$GPGGA,110951,2421.2529,N,08115.2729,W,1,10,1.6,13,M,,M,,*63
06/16/2015	11:09:51.566	$GPGGA,110952,2421.2531,N,08115.2742,W,1,10,1.6,13,M,,M,,*64
06/16/2015	11:09:52.516	$GPGGA,110953,2421.2531,N,08115.2753,W,1,10,1.6,13,M,,M,,*65
06/16/2015	11:09:53.536	$GPGGA,110954,2421.2531,N,08115.2764,W,1,10,1.6,13,M,,M,,*66
06/16/2015	11:09:54.508	$GPGGA,110955,2421.2531,N,08115.2775,W,1,10,1.6,13,M,,M,,*67
06/16/2015	11:09:55.516	$GPGGA,110956,2421.2533,N,08115.2786,W,1,10,1.6,13,M,,M,,*6A
06/16/2015	11:09:56.509	$GPGGA,110957,2421.2532,N,08115.2798,W,1,10,1.6,13,M,,M,,*65
06/16/2015	11:09:57.496	$GPGGA,110958,2421.2533,N,08115.2811,W,1,10,1.6,13,M,,M,,*65
06/16/2015	11:09:58.516	$GPGGA,110959,2421.2532,N,08115.2822,W,1,10,1.6,13,M,,M,,*65
06/16/2015	11:09:59.535	$GPGGA,111000,2421.2534,N,08115.2832,W,1,10,1.6,13,M,,M,,*66
06/16/2015	11:10:00.496	$GPGGA,111001,2421.2532,N,08115.2843,W,1,10,1.6,13,M,,M,,*67
06/16/2015	11:10:01.507	$GPGGA,111002,2421.2533,N,08115.2855,W,1,10,1.6,13,M,,M,,*62
06/16/2015	11:10:02.508	$GPGGA,111003,2421.2534,N,08115.2868,W,1,10,1.6,13,M,,M,,*6A
06/16/2015	11:10:03.636	$GPGGA,111004,2421.2532,N,08115.2879,W,1,9,1.7,13,M,,M,,*52
06/16/2015	11:10:04.585	$GPGGA,111005,2421.2533,N,08115.2890,W,1,9,1.7,13,M,,M,,*55
06/16/2015	11:10:05.625	$GPGGA,111006,2421.2532,N,08115.2902,W,1,10,1.6,13,M,,M,,*64
06/16/2015	11:10:06.586	$GPGGA,111007,2421.2533,N,08115.2915,W,1,10,1.6,13,M,,M,,*62
06/16/2015	11:10:07.597	$GPGGA,111008,2421.2531,N,08115.2926,W,1,10,1.6,13,M,,M,,*6F
06/16/2015	11:10:08.586	$GPGGA,111009,2421.2533,N,08115.2938,W,1,10,1.6,13,M,,M,,*63
06/16/2015	11:10:09.486	$GPGGA,111010,2421.2532,N,08115.2951,W,1,9,1.7,13,M,,M,,*5C
06/16/2015	11:10:10.576	$GPGGA,111011,2421.2531,N,08115.2962,W,1,9,1.7,13,M,,M,,*5E
06/16/2015	11:10:11.626	$GPGGA,111012,2421.2531,N,08115.2974,W,1,9,1.7,13,M,,M,,*5A
06/16/2015	11:10:12.576	$GPGGA,111013,2421.2531,N,08115.2986,W,1,9,1.6,13,M,,M,,*57
06/16/2015	11:10:13.586	$GPGGA,111014,2421.2531,N,08115.2999,W,1,10,1.6,13,M,,M,,*66
06/16/2015	11:10:14.566	$GPGGA,111015,2421.2531,N,08115.3009,W,1,10,1.6,13,M,,M,,*66
06/16/2015	11:10:15.576	$GPGGA,111016,2421.2531,N,08115.3021,W,1,10,1.6,13,M,,M,,*6F
06/16/2015	11:10:16.576	$GPGGA,111017,2421.2531,N,08115.3033,W,1,10,1.7,13,M,,M,,*6C
06/16/2015	11:10:17.585	$GPGGA,111018,2421.2531,N,08115.3046,W,1,10,1.6,13,M,,M,,*60
06/16/2015	11:10:18.555	$GPGGA,111019,2421.2531,N,08115.3057,W,1,10,1.6,13,M,,M,,*61
06/16/2015	11:10:19.611	$GPGGA,111020,2421.2531,N,08115.3068,W,1,10,1.6,12,M,,M,,*66
06/16/2015	11:10:20.555	$GPGGA,111021,2421.2529,N,08115.3081,W,1,10,1.6,12,M,,M,,*69
06/16/2015	11:10:21.545	$GPGGA,111022,2421.2530,N,08115.3092,W,1,9,1.7,12,M,,M,,*59
06/16/2015	11:10:22.555	$GPGGA,111023,2421.2531,N,08115.3103,W,1,9,1.6,12,M,,M,,*51
06/16/2015	11:10:23.600	$GPGGA,111024,2421.2529,N,08115.3116,W,1,10,1.6,12,M,,M,,*63
06/16/2015	11:10:24.556	$GPGGA,111025,2421.2528,N,08115.3129,W,1,10,1.6,12,M,,M,,*6F
06/16/2015	11:10:25.536	$GPGGA,111026,2421.2529,N,08115.3139,W,1,10,1.6,12,M,,M,,*6C
06/16/2015	11:10:26.536	$GPGGA,111027,2421.2528,N,08115.3150,W,1,10,1.6,12,M,,M,,*63
06/16/2015	11:10:27.586	$GPGGA,111028,2421.2529,N,08115.3161,W,1,9,1.7,12,M,,M,,*56
06/16/2015	11:10:28.546	$GPGGA,111029,2421.2528,N,08115.3172,W,1,9,1.7,12,M,,M,,*54
06/16/2015	11:10:29.536	$GPGGA,111030,2421.2527,N,08115.3183,W,1,10,1.6,11,M,,M,,*67
06/16/2015	11:10:30.546	$GPGGA,111031,2421.2527,N,08115.3194,W,1,10,1.6,11,M,,M,,*60
06/16/2015	11:10:31.566	$GPGGA,111032,2421.2525,N,08115.3205,W,1,9,1.8,11,M,,M,,*5C
06/16/2015	11:10:32.536	$GPGGA,111033,2421.2526,N,08115.3216,W,1,9,1.6,11,M,,M,,*52
06/16/2015	11:10:33.526	$GPGGA,111034,2421.2524,N,08115.3227,W,1,10,1.6,11,M,,M,,*6D
06/16/2015	11:10:34.535	$GPGGA,111035,2421.2524,N,08115.3238,W,1,10,1.6,11,M,,M,,*62
06/16/2015	11:10:35.555	$GPGGA,111036,2421.2524,N,08115.3251,W,1,10,1.6,11,M,,M,,*6E
06/16/2015	11:10:36.535	$GPGGA,111037,2421.2524,N,08115.3262,W,1,10,1.6,11,M,,M,,*6F
06/16/2015	11:10:37.515	$GPGGA,111038,2421.2523,N,08115.3273,W,1,10,1.6,11,M,,M,,*67
06/16/2015	11:10:38.535	$GPGGA,111039,2421.2524,N,08115.3284,W,1,10,1.6,11,M,,M,,*69
06/16/2015	11:10:39.525	$GPGGA,111040,2421.2526,N,08115.3295,W,1,10,1.6,11,M,,M,,*65
06/16/2015	11:10:40.525	$GPGGA,111041,2421.2525,N,08115.3307,W,1,10,1.6,11,M,,M,,*6D
06/16/2015	11:10:41.506	$GPGGA,111042,2421.2524,N,08115.3320,W,1,9,1.7,11,M,,M,,*53
06/16/2015	11:10:42.516	$GPGGA,111043,2421.2526,N,08115.3331,W,1,9,1.7,11,M,,M,,*50
06/16/2015	11:10:43.546	$GPGGA,111044,2421.2525,N,08115.3342,W,1,10,1.6,11,M,,M,,*69
06/16/2015	11:10:44.505	$GPGGA,111045,2421.2524,N,08115.3353,W,1,10,1.6,11,M,,M,,*69
06/16/2015	11:10:45.506	$GPGGA,111046,2421.2524,N,08115.3365,W,1,10,1.6,11,M,,M,,*6F
06/16/2015	11:10:46.506	$GPGGA,111047,2421.2526,N,08115.3378,W,1,10,1.6,11,M,,M,,*60
06/16/2015	11:10:47.526	$GPGGA,111048,2421.2524,N,08115.3389,W,1,9,1.7,11,M,,M,,*5A
06/16/2015	11:10:48.506	$GPGGA,111049,2421.2526,N,08115.3403,W,1,9,1.7,11,M,,M,,*5C
06/16/2015	11:10:49.646	$GPGGA,111050,2421.2525,N,08115.3414,W,1,9,1.7,11,M,,M,,*51
06/16/2015	11:10:50.598	$GPGGA,111051,2421.2526,N,08115.3423,W,1,9,1.7,11,M,,M,,*57
06/16/2015	11:10:51.536	$GPGGA,111052,2421.2525,N,08115.3436,W,1,10,1.6,11,M,,M,,*6A
06/16/2015	11:10:52.506	$GPGGA,111053,2421.2526,N,08115.3447,W,1,10,1.7,11,M,,M,,*6F
06/16/2015	11:10:53.615	$GPGGA,111054,2421.2525,N,08115.3457,W,1,10,1.6,11,M,,M,,*6B
06/16/2015	11:10:54.615	$GPGGA,111055,2421.2524,N,08115.3470,W,1,10,1.6,11,M,,M,,*6E
06/16/2015	11:10:55.625	$GPGGA,111056,2421.2524,N,08115.3483,W,1,9,1.7,11,M,,M,,*58
06/16/2015	11:10:56.495	$GPGGA,111057,2421.2524,N,08115.3494,W,1,9,1.7,11,M,,M,,*5F
06/16/2015	11:10:57.615	$GPGGA,111058,2421.2524,N,08115.3505,W,1,10,1.6,11,M,,M,,*60
06/16/2015	11:10:58.495	$GPGGA,111059,2421.2524,N,08115.3515,W,1,10,1.6,11,M,,M,,*60
06/16/2015	11:10:59.697	$GPGGA,111100,2421.2524,N,08115.3526,W,1,10,1.6,11,M,,M,,*6D
06/16/2015	11:11:00.576	$GPGGA,111101,2421.2524,N,08115.3537,W,1,10,1.6,11,M,,M,,*6C
06/16/2015	11:11:01.596	$GPGGA,111102,2421.2526,N,08115.3549,W,1,10,1.6,11,M,,M,,*64
06/16/2015	11:11:02.566	$GPGGA,111103,2421.2524,N,08115.3562,W,1,10,1.6,11,M,,M,,*6E
06/16/2015	11:11:03.616	$GPGGA,111104,2421.2526,N,08115.3573,W,1,10,1.6,11,M,,M,,*6B
06/16/2015	11:11:04.576	$GPGGA,111105,2421.2527,N,08115.3584,W,1,10,1.6,11,M,,M,,*63
06/16/2015	11:11:05.576	$GPGGA,111106,2421.2527,N,08115.3594,W,1,9,1.6,11,M,,M,,*59
06/16/2015	11:11:06.576	$GPGGA,111107,2421.2525,N,08115.3602,W,1,9,1.6,11,M,,M,,*56
06/16/2015	11:11:07.616	$GPGGA,111108,2421.2527,N,08115.3613,W,1,10,1.6,11,M,,M,,*63
06/16/2015	11:11:08.556	$GPGGA,111109,2421.2527,N,08115.3624,W,1,10,1.6,11,M,,M,,*66
06/16/2015	11:11:09.615	$GPGGA,111110,2421.2527,N,08115.3635,W,1,10,1.6,11,M,,M,,*6E
06/16/2015	11:11:10.565	$GPGGA,111111,2421.2527,N,08115.3646,W,1,10,1.6,12,M,,M,,*68
06/16/2015	11:11:11.585	$GPGGA,111112,2421.2527,N,08115.3658,W,1,10,1.6,12,M,,M,,*64
06/16/2015	11:11:12.555	$GPGGA,111113,2421.2527,N,08115.3670,W,1,10,1.6,12,M,,M,,*6F
06/16/2015	11:11:13.575	$GPGGA,111114,2421.2527,N,08115.3681,W,1,10,1.6,12,M,,M,,*66
06/16/2015	11:11:14.555	$GPGGA,111115,2421.2527,N,08115.3692,W,1,10,1.7,12,M,,M,,*64
06/16/2015	11:11:15.575	$GPGGA,111116,2421.2527,N,08115.3704,W,1,9,1.7,12,M,,M,,*51
06/16/2015	11:11:16.546	$GPGGA,111117,2421.2527,N,08115.3717,W,1,9,1.7,12,M,,M,,*52
06/16/2015	11:11:17.536	$GPGGA,111118,2421.2525,N,08115.3726,W,1,10,1.6,12,M,,M,,*64
06/16/2015	11:11:18.546	$GPGGA,111119,2421.2526,N,08115.3739,W,1,10,1.6,12,M,,M,,*68
06/16/2015	11:11:19.576	$GPGGA,111120,2421.2525,N,08115.3750,W,1,9,1.7,12,M,,M,,*57
06/16/2015	11:11:20.546	$GPGGA,111121,2421.2526,N,08115.3762,W,1,9,1.7,12,M,,M,,*54
06/16/2015	11:11:21.536	$GPGGA,111122,2421.2525,N,08115.3775,W,1,9,1.7,12,M,,M,,*52
06/16/2015	11:11:22.526	$GPGGA,111123,2421.2526,N,08115.3786,W,1,9,1.6,12,M,,M,,*5D
06/16/2015	11:11:23.556	$GPGGA,111124,2421.2525,N,08115.3797,W,1,10,1.6,12,M,,M,,*61
06/16/2015	11:11:24.526	$GPGGA,111125,2421.2526,N,08115.3809,W,1,10,1.6,12,M,,M,,*6B
06/16/2015	11:11:25.536	$GPGGA,111126,2421.2525,N,08115.3820,W,1,9,1.7,12,M,,M,,*59
06/16/2015	11:11:26.536	$GPGGA,111127,2421.2526,N,08115.3833,W,1,9,1.7,12,M,,M,,*59
06/16/2015	11:11:27.525	$GPGGA,111128,2421.2525,N,08115.3844,W,1,9,1.7,12,M,,M,,*55
06/16/2015	11:11:28.535	$GPGGA,111129,2421.2524,N,08115.3856,W,1,9,1.6,12,M,,M,,*57
06/16/2015	11:11:29.555	$GPGGA,111130,2421.2524,N,08115.3869,W,1,10,1.6,12,M,,M,,*6B
06/16/2015	11:11:30.535	$GPGGA,111131,2421.2524,N,08115.3880,W,1,10,1.7,12,M,,M,,*6C
06/16/2015	11:11:31.525	$GPGGA,111132,2421.2523,N,08115.3891,W,1,9,1.7,11,M,,M,,*53
06/16/2015	11:11:32.509	$GPGGA,111133,2421.2523,N,08115.3902,W,1,9,1.7,11,M,,M,,*59
06/16/2015	11:11:33.635	$GPGGA,111134,2421.2521,N,08115.3913,W,1,10,1.6,11,M,,M,,*65
06/16/2015	11:11:34.510	$GPGGA,111135,2421.2522,N,08115.3923,W,1,10,1.6,11,M,,M,,*64
06/16/2015	11:11:35.536	$GPGGA,111136,2421.2520,N,08115.3934,W,1,10,1.6,11,M,,M,,*63
06/16/2015	11:11:36.506	$GPGGA,111137,2421.2520,N,08115.3945,W,1,10,1.6,11,M,,M,,*64
06/16/2015	11:11:37.518	$GPGGA,111138,2421.2520,N,08115.3957,W,1,10,1.6,11,M,,M,,*68
06/16/2015	11:11:38.498	$GPGGA,111139,2421.2520,N,08115.3968,W,1,10,1.6,11,M,,M,,*65
06/16/2015	11:11:39.516	$GPGGA,111140,2421.2520,N,08115.3979,W,1,9,1.7,11,M,,M,,*52
06/16/2015	11:11:40.486	$GPGGA,111141,2421.2517,N,08115.3992,W,1,9,1.6,11,M,,M,,*53
06/16/2015	11:11:41.498	$GPGGA,111142,2421.2518,N,08115.4003,W,1,10,1.6,11,M,,M,,*61
06/16/2015	11:11:42.586	$GPGGA,111143,2421.2519,N,08115.4014,W,1,10,1.6,11,M,,M,,*67
