Software Version Number: 1	Data File Format Number: 1	Build Version Number: 1	Error Count Since VI Started: 2	Manufacturer: Raytheon	 Model Number: RayMarine 120	 S/N: 	 Cal Date: 	 Wind Direction Offset: 0.00	 Slope (M)1: 0.00	 Offset (B)1: 0.00	 Slope (M)2: 0.00	 Offset (B)2: 0.00	 Slope (M)3: 0.00	 Offset (B)3: 0.00	 Slope (M)4: 0.00	 Offset (B)4: 0.00	 Slope (M)5: 0.00	 Offset (B)5: 0.00	 Slope (M)6: 0.00	 Offset (B)6: 0.00
Computer Date	Computer Time	GGA String
06/19/2015	21:00:00.578	$GPGGA,210001,2517.1768,N,07921.9217,W,1,10,1.6,26,M,,M,,*69
06/19/2015	21:00:01.569	$GPGGA,210002,2517.1767,N,07921.9211,W,1,9,1.6,26,M,,M,,*5B
06/19/2015	21:00:02.579	$GPGGA,210003,2517.1768,N,07921.9206,W,1,9,1.5,26,M,,M,,*50
06/19/2015	21:00:03.599	$GPGGA,210004,2517.1769,N,07921.9201,W,1,10,1.6,26,M,,M,,*6A
06/19/2015	21:00:04.579	$GPGGA,210005,2517.1772,N,07921.9196,W,1,10,1.5,26,M,,M,,*6F
06/19/2015	21:00:05.579	$GPGGA,210006,2517.1772,N,07921.9190,W,1,11,1.5,26,M,,M,,*6B
06/19/2015	21:00:06.568	$GPGGA,210007,2517.1774,N,07921.9186,W,1,11,1.6,26,M,,M,,*68
06/19/2015	21:00:07.588	$GPGGA,210008,2517.1776,N,07921.9182,W,1,11,1.5,26,M,,M,,*62
06/19/2015	21:00:08.568	$GPGGA,210009,2517.1779,N,07921.9176,W,1,11,1.5,27,M,,M,,*66
06/19/2015	21:00:09.588	$GPGGA,210010,2517.1781,N,07921.9172,W,1,11,1.5,27,M,,M,,*6D
06/19/2015	21:00:10.558	$GPGGA,210011,2517.1780,N,07921.9168,W,1,11,1.5,27,M,,M,,*66
06/19/2015	21:00:11.598	$GPGGA,210012,2517.1783,N,07921.9163,W,1,10,1.6,27,M,,M,,*6F
06/19/2015	21:00:12.558	$GPGGA,210013,2517.1785,N,07921.9157,W,1,10,1.6,27,M,,M,,*6F
06/19/2015	21:00:13.588	$GPGGA,210014,2517.1786,N,07921.9151,W,1,10,1.5,27,M,,M,,*6E
06/19/2015	21:00:14.548	$GPGGA,210015,2517.1789,N,07921.9148,W,1,10,1.5,27,M,,M,,*68
06/19/2015	21:00:15.598	$GPGGA,210016,2517.1793,N,07921.9146,W,1,11,1.5,26,M,,M,,*6E
06/19/2015	21:00:16.548	$GPGGA,210017,2517.1794,N,07921.9141,W,1,11,2.1,26,M,,M,,*68
06/19/2015	21:00:17.568	$GPGGA,210018,2517.1796,N,07921.9139,W,1,9,1.6,26,M,,M,,*57
06/19/2015	21:00:18.549	$GPGGA,210019,2517.1795,N,07921.9133,W,1,9,1.6,26,M,,M,,*5F
06/19/2015	21:00:19.559	$GPGGA,210020,2517.1797,N,07921.9129,W,1,10,1.6,26,M,,M,,*64
06/19/2015	21:00:20.549	$GPGGA,210021,2517.1799,N,07921.9125,W,1,10,1.6,26,M,,M,,*67
06/19/2015	21:00:21.544	$GPGGA,210022,2517.1801,N,07921.9120,W,1,10,1.6,25,M,,M,,*6C
06/19/2015	21:00:22.544	$GPGGA,210023,2517.1801,N,07921.9115,W,1,10,1.6,25,M,,M,,*6B
06/19/2015	21:00:23.578	$GPGGA,210024,2517.1803,N,07921.9109,W,1,9,1.6,25,M,,M,,*5B
06/19/2015	21:00:24.529	$GPGGA,210025,2517.1804,N,07921.9104,W,1,9,1.5,25,M,,M,,*53
06/19/2015	21:00:25.530	$GPGGA,210026,2517.1805,N,07921.9099,W,1,9,1.6,25,M,,M,,*57
06/19/2015	21:00:26.518	$GPGGA,210027,2517.1805,N,07921.9093,W,1,9,1.6,25,M,,M,,*5C
06/19/2015	21:00:27.559	$GPGGA,210028,2517.1807,N,07921.9087,W,1,9,1.6,25,M,,M,,*54
06/19/2015	21:00:28.518	$GPGGA,210029,2517.1808,N,07921.9082,W,1,9,1.6,25,M,,M,,*5F
06/19/2015	21:00:29.518	$GPGGA,210030,2517.1808,N,07921.9077,W,1,11,1.5,25,M,,M,,*67
06/19/2015	21:00:30.546	$GPGGA,210031,2517.1811,N,07921.9072,W,1,11,1.6,25,M,,M,,*68
06/19/2015	21:00:31.543	$GPGGA,210032,2517.1812,N,07921.9066,W,1,9,1.6,25,M,,M,,*54
06/19/2015	21:00:32.508	$GPGGA,210033,2517.1815,N,07921.9060,W,1,9,1.6,25,M,,M,,*54
06/19/2015	21:00:33.648	$GPGGA,210034,2517.1815,N,07921.9056,W,1,9,1.6,24,M,,M,,*57
06/19/2015	21:00:34.518	$GPGGA,210035,2517.1818,N,07921.9052,W,1,9,1.6,24,M,,M,,*5F
06/19/2015	21:00:35.688	$GPGGA,210036,2517.1819,N,07921.9048,W,1,10,1.6,24,M,,M,,*6E
06/19/2015	21:00:36.519	$GPGGA,210037,2517.1823,N,07921.9041,W,1,10,1.6,24,M,,M,,*6F
06/19/2015	21:00:37.499	$GPGGA,210038,2517.1825,N,07921.9036,W,1,10,1.5,24,M,,M,,*65
06/19/2015	21:00:38.509	$GPGGA,210039,2517.1826,N,07921.9031,W,1,10,1.5,24,M,,M,,*60
06/19/2015	21:00:39.609	$GPGGA,210040,2517.1828,N,07921.9026,W,1,9,1.5,24,M,,M,,*5E
06/19/2015	21:00:40.518	$GPGGA,210041,2517.1830,N,07921.9021,W,1,9,1.5,24,M,,M,,*51
06/19/2015	21:00:41.518	$GPGGA,210042,2517.1833,N,07921.9015,W,1,10,1.5,24,M,,M,,*6E
06/19/2015	21:00:42.508	$GPGGA,210043,2517.1836,N,07921.9011,W,1,10,1.5,24,M,,M,,*6E
06/19/2015	21:00:43.618	$GPGGA,210044,2517.1837,N,07921.9008,W,1,10,1.5,23,M,,M,,*67
06/19/2015	21:00:44.498	$GPGGA,210045,2517.1841,N,07921.9005,W,1,10,1.5,23,M,,M,,*6A
06/19/2015	21:00:45.808	$GPGGA,210046,2517.1844,N,07921.9001,W,1,11,1.5,23,M,,M,,*69
06/19/2015	21:00:46.588	$GPGGA,210047,2517.1847,N,07921.8997,W,1,11,1.5,23,M,,M,,*6C
06/19/2015	21:00:47.628	$GPGGA,210048,2517.1846,N,07921.8994,W,1,11,1.6,23,M,,M,,*62
06/19/2015	21:00:48.508	$GPGGA,210049,2517.1848,N,07921.8990,W,1,11,1.6,23,M,,M,,*69
06/19/2015	21:00:50.038	$GPGGA,210050,2517.1851,N,07921.8986,W,1,11,1.5,23,M,,M,,*6D
06/19/2015	21:00:50.588	$GPGGA,210051,2517.1852,N,07921.8981,W,1,11,1.5,23,M,,M,,*68
06/19/2015	21:00:51.628	$GPGGA,210052,2517.1855,N,07921.8979,W,1,10,2.3,23,M,,M,,*6F
06/19/2015	21:00:52.578	$GPGGA,210053,2517.1855,N,07921.8977,W,1,10,2.3,22,M,,M,,*61
06/19/2015	21:00:53.589	$GPGGA,210054,2517.1861,N,07921.8978,W,1,9,2.1,22,M,,M,,*54
06/19/2015	21:00:54.579	$GPGGA,210055,2517.1863,N,07921.8976,W,1,9,2.2,22,M,,M,,*5A
06/19/2015	21:00:55.649	$GPGGA,210056,2517.1865,N,07921.8974,W,1,9,2.1,22,M,,M,,*5E
06/19/2015	21:00:56.569	$GPGGA,210057,2517.1866,N,07921.8971,W,1,9,2.3,21,M,,M,,*58
06/19/2015	21:00:57.589	$GPGGA,210058,2517.1866,N,07921.8967,W,1,9,2.3,21,M,,M,,*50
06/19/2015	21:00:58.568	$GPGGA,210059,2517.1869,N,07921.8963,W,1,9,2.3,21,M,,M,,*5A
06/19/2015	21:00:59.598	$GPGGA,210100,2517.1870,N,07921.8960,W,1,8,2.1,21,M,,M,,*5F
06/19/2015	21:01:00.558	$GPGGA,210101,2517.1872,N,07921.8957,W,1,8,2.3,20,M,,M,,*5B
06/19/2015	21:01:01.568	$GPGGA,210102,2517.1871,N,07921.8952,W,1,9,2.3,20,M,,M,,*5F
06/19/2015	21:01:02.558	$GPGGA,210103,2517.1875,N,07921.8948,W,1,9,2.3,20,M,,M,,*51
06/19/2015	21:01:03.608	$GPGGA,210104,2517.1877,N,07921.8944,W,1,9,2.2,19,M,,M,,*53
06/19/2015	21:01:04.558	$GPGGA,210105,2517.1877,N,07921.8939,W,1,9,2.3,19,M,,M,,*59
06/19/2015	21:01:05.538	$GPGGA,210106,2517.1879,N,07921.8934,W,1,9,2.3,19,M,,M,,*59
06/19/2015	21:01:06.548	$GPGGA,210107,2517.1880,N,07921.8929,W,1,9,2.6,19,M,,M,,*57
06/19/2015	21:01:07.579	$GPGGA,210108,2517.1883,N,07921.8923,W,1,8,2.5,19,M,,M,,*53
06/19/2015	21:01:08.543	$GPGGA,210109,2517.1884,N,07921.8918,W,1,8,2.3,18,M,,M,,*5A
06/19/2015	21:01:09.558	$GPGGA,210110,2517.1884,N,07921.8912,W,1,9,2.1,18,M,,M,,*5B
06/19/2015	21:01:10.548	$GPGGA,210111,2517.1888,N,07921.8910,W,1,9,2.1,18,M,,M,,*54
06/19/2015	21:01:11.569	$GPGGA,210112,2517.1890,N,07921.8905,W,1,10,2.7,18,M,,M,,*64
06/19/2015	21:01:12.549	$GPGGA,210113,2517.1891,N,07921.8902,W,1,10,2.6,18,M,,M,,*62
06/19/2015	21:01:13.532	$GPGGA,210114,2517.1888,N,07921.8895,W,1,8,2.1,18,M,,M,,*5C
06/19/2015	21:01:14.539	$GPGGA,210115,2517.1891,N,07921.8890,W,1,8,2.1,18,M,,M,,*50
06/19/2015	21:01:15.558	$GPGGA,210116,2517.1893,N,07921.8885,W,1,10,2.1,18,M,,M,,*6C
06/19/2015	21:01:16.541	$GPGGA,210117,2517.1895,N,07921.8880,W,1,10,2.4,18,M,,M,,*6B
06/19/2015	21:01:17.538	$GPGGA,210118,2517.1897,N,07921.8876,W,1,9,2.4,18,M,,M,,*57
06/19/2015	21:01:18.518	$GPGGA,210119,2517.1898,N,07921.8871,W,1,9,2.4,18,M,,M,,*5E
06/19/2015	21:01:19.558	$GPGGA,210120,2517.1901,N,07921.8867,W,1,9,2.4,18,M,,M,,*52
06/19/2015	21:01:20.548	$GPGGA,210121,2517.1902,N,07921.8862,W,1,9,2.4,18,M,,M,,*55
06/19/2015	21:01:21.518	$GPGGA,210122,2517.1905,N,07921.8856,W,1,9,2.6,18,M,,M,,*54
06/19/2015	21:01:22.543	$GPGGA,210123,2517.1906,N,07921.8851,W,1,9,2.6,18,M,,M,,*51
06/19/2015	21:01:23.554	$GPGGA,210124,2517.1908,N,07921.8844,W,1,8,2.6,18,M,,M,,*5D
06/19/2015	21:01:24.528	$GPGGA,210125,2517.1909,N,07921.8838,W,1,8,2.6,18,M,,M,,*56
06/19/2015	21:01:25.498	$GPGGA,210126,2517.1909,N,07921.8832,W,1,8,2.6,18,M,,M,,*5F
06/19/2015	21:01:26.618	$GPGGA,210127,2517.1912,N,07921.8826,W,1,8,2.6,18,M,,M,,*51
06/19/2015	21:01:27.629	$GPGGA,210128,2517.1913,N,07921.8820,W,1,8,2.6,18,M,,M,,*59
06/19/2015	21:01:28.535	$GPGGA,210129,2517.1915,N,07921.8815,W,1,8,2.6,18,M,,M,,*58
06/19/2015	21:01:29.599	$GPGGA,210130,2517.1916,N,07921.8809,W,1,8,2.6,18,M,,M,,*5E
06/19/2015	21:01:30.509	$GPGGA,210131,2517.1917,N,07921.8801,W,1,8,2.1,18,M,,M,,*51
06/19/2015	21:01:31.649	$GPGGA,210132,2517.1917,N,07921.8794,W,1,10,2.1,18,M,,M,,*68
06/19/2015	21:01:32.589	$GPGGA,210133,2517.1917,N,07921.8788,W,1,10,2.1,18,M,,M,,*64
06/19/2015	21:01:33.618	$GPGGA,210134,2517.1920,N,07921.8783,W,1,10,2.1,18,M,,M,,*6C
06/19/2015	21:01:34.598	$GPGGA,210135,2517.1919,N,07921.8776,W,1,10,2.1,18,M,,M,,*6D
06/19/2015	21:01:35.608	$GPGGA,210136,2517.1920,N,07921.8771,W,1,10,2.4,18,M,,M,,*66
06/19/2015	21:01:36.588	$GPGGA,210137,2517.1922,N,07921.8766,W,1,10,2.1,18,M,,M,,*66
06/19/2015	21:01:37.628	$GPGGA,210138,2517.1924,N,07921.8761,W,1,10,2.1,18,M,,M,,*68
06/19/2015	21:01:38.578	$GPGGA,210139,2517.1926,N,07921.8756,W,1,10,2.1,19,M,,M,,*6E
06/19/2015	21:01:39.598	$GPGGA,210140,2517.1927,N,07921.8751,W,1,10,2.4,19,M,,M,,*63
06/19/2015	21:01:40.568	$GPGGA,210141,2517.1928,N,07921.8746,W,1,10,2.4,19,M,,M,,*6B
06/19/2015	21:01:41.598	$GPGGA,210142,2517.1931,N,07921.8741,W,1,9,2.4,19,M,,M,,*5F
06/19/2015	21:01:42.578	$GPGGA,210143,2517.1931,N,07921.8736,W,1,9,2.4,19,M,,M,,*5E
06/19/2015	21:01:43.608	$GPGGA,210144,2517.1933,N,07921.8731,W,1,8,2.6,19,M,,M,,*5F
06/19/2015	21:01:44.568	$GPGGA,210145,2517.1932,N,07921.8723,W,1,8,2.4,19,M,,M,,*5E
06/19/2015	21:01:45.568	$GPGGA,210146,2517.1935,N,07921.8719,W,1,10,2.1,19,M,,M,,*6F
06/19/2015	21:01:46.559	$GPGGA,210147,2517.1935,N,07921.8713,W,1,10,2.1,19,M,,M,,*64
06/19/2015	21:01:47.589	$GPGGA,210148,2517.1938,N,07921.8708,W,1,9,2.4,19,M,,M,,*51
06/19/2015	21:01:48.559	$GPGGA,210149,2517.1940,N,07921.8703,W,1,9,2.4,19,M,,M,,*54
06/19/2015	21:01:49.579	$GPGGA,210150,2517.1941,N,07921.8698,W,1,9,2.4,19,M,,M,,*5E
06/19/2015	21:01:50.559	$GPGGA,210151,2517.1940,N,07921.8691,W,1,9,2.3,19,M,,M,,*50
06/19/2015	21:01:51.588	$GPGGA,210152,2517.1942,N,07921.8686,W,1,9,2.4,19,M,,M,,*50
06/19/2015	21:01:52.552	$GPGGA,210153,2517.1945,N,07921.8682,W,1,9,2.1,19,M,,M,,*57
06/19/2015	21:01:53.569	$GPGGA,210154,2517.1946,N,07921.8678,W,1,10,2.1,19,M,,M,,*6E
06/19/2015	21:01:54.550	$GPGGA,210155,2517.1948,N,07921.8674,W,1,10,2.1,19,M,,M,,*6D
06/19/2015	21:01:55.692	$GPGGA,210156,2517.1949,N,07921.8670,W,1,9,2.4,19,M,,M,,*56
06/19/2015	21:01:56.544	$GPGGA,210157,2517.1952,N,07921.8665,W,1,9,2.4,19,M,,M,,*59
06/19/2015	21:01:57.543	$GPGGA,210158,2517.1953,N,07921.8660,W,1,9,2.4,19,M,,M,,*52
06/19/2015	21:01:58.529	$GPGGA,210159,2517.1953,N,07921.8655,W,1,9,2.4,19,M,,M,,*55
06/19/2015	21:01:59.588	$GPGGA,210200,2517.1953,N,07921.8650,W,1,10,2.1,19,M,,M,,*62
06/19/2015	21:02:00.542	$GPGGA,210201,2517.1956,N,07921.8644,W,1,10,2.4,19,M,,M,,*66
06/19/2015	21:02:01.546	$GPGGA,210202,2517.1956,N,07921.8640,W,1,9,2.4,19,M,,M,,*59
06/19/2015	21:02:02.529	$GPGGA,210203,2517.1958,N,07921.8635,W,1,9,2.4,19,M,,M,,*54
06/19/2015	21:02:03.542	$GPGGA,210204,2517.1960,N,07921.8629,W,1,9,2.4,19,M,,M,,*55
06/19/2015	21:02:04.531	$GPGGA,210205,2517.1960,N,07921.8624,W,1,9,2.4,19,M,,M,,*59
06/19/2015	21:02:05.542	$GPGGA,210206,2517.1957,N,07921.8614,W,1,8,2.6,19,M,,M,,*5E
06/19/2015	21:02:06.645	$GPGGA,210207,2517.1960,N,07921.8610,W,1,8,2.1,19,M,,M,,*58
06/19/2015	21:02:07.559	$GPGGA,210208,2517.1962,N,07921.8605,W,1,10,2.1,19,M,,M,,*68
06/19/2015	21:02:08.639	$GPGGA,210209,2517.1963,N,07921.8601,W,1,10,2.4,18,M,,M,,*68
06/19/2015	21:02:09.633	$GPGGA,210210,2517.1964,N,07921.8597,W,1,10,2.1,18,M,,M,,*6E
06/19/2015	21:02:10.630	$GPGGA,210211,2517.1966,N,07921.8592,W,1,10,2.1,18,M,,M,,*68
06/19/2015	21:02:11.568	$GPGGA,210212,2517.1967,N,07921.8587,W,1,10,2.1,18,M,,M,,*6E
06/19/2015	21:02:12.508	$GPGGA,210213,2517.1969,N,07921.8582,W,1,10,2.4,18,M,,M,,*61
06/19/2015	21:02:13.618	$GPGGA,210214,2517.1970,N,07921.8577,W,1,9,2.4,18,M,,M,,*5C
06/19/2015	21:02:14.546	$GPGGA,210215,2517.1971,N,07921.8571,W,1,9,2.1,18,M,,M,,*5F
06/19/2015	21:02:15.518	$GPGGA,210216,2517.1971,N,07921.8565,W,1,10,2.1,18,M,,M,,*61
06/19/2015	21:02:16.518	$GPGGA,210217,2517.1973,N,07921.8561,W,1,10,2.1,18,M,,M,,*66
06/19/2015	21:02:17.598	$GPGGA,210218,2517.1975,N,07921.8557,W,1,8,2.6,19,M,,M,,*55
06/19/2015	21:02:18.498	$GPGGA,210219,2517.1978,N,07921.8553,W,1,8,2.4,18,M,,M,,*5E
06/19/2015	21:02:19.530	$GPGGA,210220,2517.1978,N,07921.8548,W,1,8,2.6,18,M,,M,,*5C
06/19/2015	21:02:20.509	$GPGGA,210221,2517.1981,N,07921.8543,W,1,8,2.6,18,M,,M,,*50
06/19/2015	21:02:21.636	$GPGGA,210222,2517.1982,N,07921.8538,W,1,8,2.6,18,M,,M,,*5C
06/19/2015	21:02:22.509	$GPGGA,210223,2517.1987,N,07921.8537,W,1,8,2.6,18,M,,M,,*57
06/19/2015	21:02:23.609	$GPGGA,210224,2517.1986,N,07921.8531,W,1,9,2.4,18,M,,M,,*54
06/19/2015	21:02:24.589	$GPGGA,210225,2517.1988,N,07921.8525,W,1,9,2.3,18,M,,M,,*59
06/19/2015	21:02:25.578	$GPGGA,210226,2517.1991,N,07921.8521,W,1,9,2.3,18,M,,M,,*56
06/19/2015	21:02:26.578	$GPGGA,210227,2517.1993,N,07921.8518,W,1,9,2.1,18,M,,M,,*5D
06/19/2015	21:02:27.588	$GPGGA,210228,2517.1995,N,07921.8512,W,1,10,2.1,18,M,,M,,*66
06/19/2015	21:02:28.578	$GPGGA,210229,2517.1996,N,07921.8506,W,1,10,2.1,18,M,,M,,*61
06/19/2015	21:02:29.599	$GPGGA,210230,2517.1998,N,07921.8500,W,1,9,2.3,18,M,,M,,*5B
06/19/2015	21:02:30.568	$GPGGA,210231,2517.2000,N,07921.8495,W,1,9,2.1,18,M,,M,,*5E
06/19/2015	21:02:31.588	$GPGGA,210232,2517.2002,N,07921.8490,W,1,9,2.1,17,M,,M,,*55
06/19/2015	21:02:32.578	$GPGGA,210233,2517.2003,N,07921.8484,W,1,9,2.1,17,M,,M,,*50
06/19/2015	21:02:33.578	$GPGGA,210234,2517.2005,N,07921.8478,W,1,10,2.1,17,M,,M,,*6A
06/19/2015	21:02:34.558	$GPGGA,210235,2517.2006,N,07921.8473,W,1,10,2.3,17,M,,M,,*61
06/19/2015	21:02:35.578	$GPGGA,210236,2517.2007,N,07921.8467,W,1,9,2.3,17,M,,M,,*5E
06/19/2015	21:02:36.568	$GPGGA,210237,2517.2009,N,07921.8461,W,1,9,2.3,17,M,,M,,*57
06/19/2015	21:02:37.548	$GPGGA,210238,2517.2010,N,07921.8456,W,1,10,2.1,17,M,,M,,*6E
06/19/2015	21:02:38.559	$GPGGA,210239,2517.2013,N,07921.8453,W,1,10,2.3,17,M,,M,,*6B
06/19/2015	21:02:39.599	$GPGGA,210240,2517.2016,N,07921.8450,W,1,9,2.1,17,M,,M,,*59
06/19/2015	21:02:40.546	$GPGGA,210241,2517.2018,N,07921.8445,W,1,9,2.1,17,M,,M,,*52
06/19/2015	21:02:41.579	$GPGGA,210242,2517.2020,N,07921.8439,W,1,10,2.1,17,M,,M,,*69
06/19/2015	21:02:42.559	$GPGGA,210243,2517.2021,N,07921.8435,W,1,10,2.1,16,M,,M,,*64
06/19/2015	21:02:43.578	$GPGGA,210244,2517.2024,N,07921.8427,W,1,8,2.5,16,M,,M,,*58
06/19/2015	21:02:44.533	$GPGGA,210245,2517.2025,N,07921.8421,W,1,8,2.3,16,M,,M,,*58
06/19/2015	21:02:45.558	$GPGGA,210246,2517.2028,N,07921.8415,W,1,10,2.1,16,M,,M,,*6A
06/19/2015	21:02:46.532	$GPGGA,210247,2517.2029,N,07921.8408,W,1,10,2.1,16,M,,M,,*66
06/19/2015	21:02:47.548	$GPGGA,210248,2517.2032,N,07921.8402,W,1,8,2.4,16,M,,M,,*55
06/19/2015	21:02:48.948	$GPGGA,210249,2517.2034,N,07921.8397,W,1,8,2.1,16,M,,M,,*5C
06/19/2015	21:02:49.536	$GPGGA,210250,2517.2036,N,07921.8391,W,1,10,2.1,16,M,,M,,*69
06/19/2015	21:02:50.547	$GPGGA,210251,2517.2038,N,07921.8384,W,1,10,2.1,16,M,,M,,*62
06/19/2015	21:02:51.578	$GPGGA,210252,2517.2039,N,07921.8379,W,1,8,2.4,16,M,,M,,*5E
06/19/2015	21:02:52.540	$GPGGA,210253,2517.2038,N,07921.8372,W,1,8,2.1,16,M,,M,,*50
06/19/2015	21:02:53.544	$GPGGA,210254,2517.2040,N,07921.8366,W,1,10,2.1,16,M,,M,,*64
06/19/2015	21:02:54.532	$GPGGA,210255,2517.2043,N,07921.8362,W,1,10,2.1,16,M,,M,,*62
06/19/2015	21:02:55.544	$GPGGA,210256,2517.2043,N,07921.8356,W,1,9,2.5,16,M,,M,,*5A
06/19/2015	21:02:56.509	$GPGGA,210257,2517.2045,N,07921.8350,W,1,9,2.1,16,M,,M,,*5F
06/19/2015	21:02:57.530	$GPGGA,210258,2517.2046,N,07921.8340,W,1,9,2.3,16,M,,M,,*50
06/19/2015	21:02:58.509	$GPGGA,210259,2517.2047,N,07921.8334,W,1,9,2.1,16,M,,M,,*51
06/19/2015	21:02:59.549	$GPGGA,210300,2517.2049,N,07921.8329,W,1,10,2.1,16,M,,M,,*66
06/19/2015	21:03:00.518	$GPGGA,210301,2517.2050,N,07921.8323,W,1,10,2.3,16,M,,M,,*67
06/19/2015	21:03:01.508	$GPGGA,210302,2517.2053,N,07921.8317,W,1,9,2.3,16,M,,M,,*58
06/19/2015	21:03:02.598	$GPGGA,210303,2517.2054,N,07921.8310,W,1,9,2.1,17,M,,M,,*5A
06/19/2015	21:03:03.642	$GPGGA,210304,2517.2056,N,07921.8306,W,1,8,2.6,17,M,,M,,*5E
06/19/2015	21:03:04.508	$GPGGA,210305,2517.2057,N,07921.8299,W,1,8,2.1,17,M,,M,,*5E
06/19/2015	21:03:05.518	$GPGGA,210306,2517.2058,N,07921.8293,W,1,9,2.3,17,M,,M,,*5B
06/19/2015	21:03:06.508	$GPGGA,210307,2517.2061,N,07921.8287,W,1,9,2.3,17,M,,M,,*55
06/19/2015	21:03:07.598	$GPGGA,210308,2517.2063,N,07921.8281,W,1,8,2.6,17,M,,M,,*5A
06/19/2015	21:03:08.608	$GPGGA,210309,2517.2065,N,07921.8275,W,1,8,2.4,17,M,,M,,*54
06/19/2015	21:03:09.618	$GPGGA,210310,2517.2065,N,07921.8270,W,1,8,2.6,17,M,,M,,*5B
06/19/2015	21:03:10.608	$GPGGA,210311,2517.2068,N,07921.8265,W,1,8,2.1,18,M,,M,,*5B
06/19/2015	21:03:11.508	$GPGGA,210312,2517.2070,N,07921.8259,W,1,9,2.4,18,M,,M,,*5A
06/19/2015	21:03:12.488	$GPGGA,210313,2517.2072,N,07921.8254,W,1,9,2.6,18,M,,M,,*56
06/19/2015	21:03:13.619	$GPGGA,210314,2517.2072,N,07921.8249,W,1,9,2.4,18,M,,M,,*5F
06/19/2015	21:03:14.569	$GPGGA,210315,2517.2075,N,07921.8244,W,1,9,2.4,18,M,,M,,*54
06/19/2015	21:03:15.589	$GPGGA,210316,2517.2076,N,07921.8239,W,1,9,2.4,18,M,,M,,*5E
06/19/2015	21:03:16.589	$GPGGA,210317,2517.2078,N,07921.8234,W,1,9,2.4,18,M,,M,,*5C
06/19/2015	21:03:17.579	$GPGGA,210318,2517.2081,N,07921.8230,W,1,9,2.4,18,M,,M,,*51
06/19/2015	21:03:18.578	$GPGGA,210319,2517.2080,N,07921.8223,W,1,9,2.1,18,M,,M,,*56
06/19/2015	21:03:19.588	$GPGGA,210320,2517.2081,N,07921.8218,W,1,10,2.1,19,M,,M,,*6C
06/19/2015	21:03:20.568	$GPGGA,210321,2517.2082,N,07921.8211,W,1,10,2.1,19,M,,M,,*67
06/19/2015	21:03:21.568	$GPGGA,210322,2517.2083,N,07921.8205,W,1,10,2.1,19,M,,M,,*60
06/19/2015	21:03:22.578	$GPGGA,210323,2517.2086,N,07921.8202,W,1,10,2.6,19,M,,M,,*64
06/19/2015	21:03:23.588	$GPGGA,210324,2517.2086,N,07921.8197,W,1,10,2.1,19,M,,M,,*6B
06/19/2015	21:03:24.558	$GPGGA,210325,2517.2089,N,07921.8192,W,1,10,2.1,19,M,,M,,*60
06/19/2015	21:03:25.578	$GPGGA,210326,2517.2090,N,07921.8187,W,1,10,2.1,19,M,,M,,*6F
06/19/2015	21:03:26.548	$GPGGA,210327,2517.2090,N,07921.8181,W,1,10,2.1,19,M,,M,,*68
06/19/2015	21:03:27.569	$GPGGA,210328,2517.2092,N,07921.8176,W,1,10,2.1,19,M,,M,,*6D
06/19/2015	21:03:28.558	$GPGGA,210329,2517.2094,N,07921.8171,W,1,10,2.1,19,M,,M,,*6D
06/19/2015	21:03:29.538	$GPGGA,210330,2517.2096,N,07921.8166,W,1,9,2.4,19,M,,M,,*5C
06/19/2015	21:03:30.548	$GPGGA,210331,2517.2097,N,07921.8161,W,1,9,2.1,19,M,,M,,*5E
06/19/2015	21:03:31.589	$GPGGA,210332,2517.2099,N,07921.8156,W,1,10,2.1,19,M,,M,,*6F
06/19/2015	21:03:32.549	$GPGGA,210333,2517.2100,N,07921.8150,W,1,10,2.4,19,M,,M,,*6C
06/19/2015	21:03:33.539	$GPGGA,210334,2517.2101,N,07921.8145,W,1,9,2.4,19,M,,M,,*56
06/19/2015	21:03:34.549	$GPGGA,210335,2517.2103,N,07921.8140,W,1,9,2.4,19,M,,M,,*50
06/19/2015	21:03:35.578	$GPGGA,210336,2517.2101,N,07921.8134,W,1,9,2.4,19,M,,M,,*52
06/19/2015	21:03:36.528	$GPGGA,210337,2517.2101,N,07921.8128,W,1,9,2.1,20,M,,M,,*51
06/19/2015	21:03:37.538	$GPGGA,210338,2517.2104,N,07921.8123,W,1,10,2.1,20,M,,M,,*68
06/19/2015	21:03:38.548	$GPGGA,210339,2517.2104,N,07921.8118,W,1,10,2.4,20,M,,M,,*64
06/19/2015	21:03:39.540	$GPGGA,210340,2517.2107,N,07921.8114,W,1,10,2.1,20,M,,M,,*60
06/19/2015	21:03:40.531	$GPGGA,210341,2517.2108,N,07921.8108,W,1,10,2.1,20,M,,M,,*63
06/19/2015	21:03:41.542	$GPGGA,210342,2517.2108,N,07921.8103,W,1,10,2.1,20,M,,M,,*6B
06/19/2015	21:03:42.528	$GPGGA,210343,2517.2110,N,07921.8097,W,1,10,2.1,20,M,,M,,*6F
06/19/2015	21:03:43.558	$GPGGA,210344,2517.2112,N,07921.8094,W,1,9,2.3,20,M,,M,,*53
06/19/2015	21:03:44.688	$GPGGA,210345,2517.2115,N,07921.8090,W,1,9,2.1,20,M,,M,,*53
06/19/2015	21:03:45.548	$GPGGA,210346,2517.2115,N,07921.8084,W,1,10,2.1,20,M,,M,,*6D
06/19/2015	21:03:46.518	$GPGGA,210347,2517.2115,N,07921.8079,W,1,10,2.1,20,M,,M,,*6E
06/19/2015	21:03:47.543	$GPGGA,210348,2517.2118,N,07921.8075,W,1,10,2.1,20,M,,M,,*60
06/19/2015	21:03:48.509	$GPGGA,210349,2517.2119,N,07921.8069,W,1,10,2.4,20,M,,M,,*68
06/19/2015	21:03:49.509	$GPGGA,210350,2517.2119,N,07921.8063,W,1,10,2.1,20,M,,M,,*6F
06/19/2015	21:03:50.509	$GPGGA,210351,2517.2119,N,07921.8056,W,1,10,2.1,20,M,,M,,*68
06/19/2015	21:03:51.509	$GPGGA,210352,2517.2119,N,07921.8051,W,1,9,2.3,20,M,,M,,*56
06/19/2015	21:03:52.589	$GPGGA,210353,2517.2119,N,07921.8043,W,1,9,2.1,20,M,,M,,*56
06/19/2015	21:03:53.608	$GPGGA,210354,2517.2119,N,07921.8037,W,1,10,2.1,20,M,,M,,*6A
06/19/2015	21:03:54.588	$GPGGA,210355,2517.2122,N,07921.8032,W,1,10,2.1,20,M,,M,,*66
06/19/2015	21:03:55.518	$GPGGA,210356,2517.2122,N,07921.8026,W,1,10,2.1,20,M,,M,,*60
06/19/2015	21:03:56.588	$GPGGA,210357,2517.2123,N,07921.8022,W,1,10,2.4,20,M,,M,,*61
06/19/2015	21:03:57.668	$GPGGA,210358,2517.2125,N,07921.8017,W,1,10,2.1,20,M,,M,,*6B
06/19/2015	21:03:58.678	$GPGGA,210359,2517.2126,N,07921.8012,W,1,10,2.4,20,M,,M,,*69
06/19/2015	21:03:59.678	$GPGGA,210400,2517.2129,N,07921.8008,W,1,9,2.4,20,M,,M,,*5E
06/19/2015	21:04:00.648	$GPGGA,210401,2517.2130,N,07921.8003,W,1,9,2.1,20,M,,M,,*59
06/19/2015	21:04:01.498	$GPGGA,210402,2517.2132,N,07921.7997,W,1,10,2.1,20,M,,M,,*6B
06/19/2015	21:04:02.638	$GPGGA,210403,2517.2133,N,07921.7992,W,1,10,2.1,20,M,,M,,*6E
06/19/2015	21:04:03.678	$GPGGA,210404,2517.2135,N,07921.7986,W,1,10,2.4,20,M,,M,,*6F
06/19/2015	21:04:04.658	$GPGGA,210405,2517.2137,N,07921.7982,W,1,10,2.4,20,M,,M,,*68
06/19/2015	21:04:05.618	$GPGGA,210406,2517.2137,N,07921.7977,W,1,9,2.4,20,M,,M,,*59
06/19/2015	21:04:06.557	$GPGGA,210407,2517.2139,N,07921.7972,W,1,9,2.4,20,M,,M,,*53
06/19/2015	21:04:07.647	$GPGGA,210408,2517.2138,N,07921.7964,W,1,9,2.1,20,M,,M,,*5F
06/19/2015	21:04:08.627	$GPGGA,210409,2517.2141,N,07921.7960,W,1,9,2.1,20,M,,M,,*54
06/19/2015	21:04:09.607	$GPGGA,210410,2517.2143,N,07921.7956,W,1,9,2.4,20,M,,M,,*5E
06/19/2015	21:04:10.626	$GPGGA,210411,2517.2144,N,07921.7952,W,1,9,2.4,20,M,,M,,*5C
06/19/2015	21:04:11.606	$GPGGA,210412,2517.2147,N,07921.7948,W,1,9,2.4,20,M,,M,,*57
06/19/2015	21:04:12.542	$GPGGA,210413,2517.2146,N,07921.7942,W,1,9,2.1,20,M,,M,,*58
06/19/2015	21:04:13.537	$GPGGA,210414,2517.2148,N,07921.7937,W,1,10,2.1,20,M,,M,,*6B
06/19/2015	21:04:14.596	$GPGGA,210415,2517.2151,N,07921.7933,W,1,10,2.4,20,M,,M,,*63
06/19/2015	21:04:15.646	$GPGGA,210416,2517.2151,N,07921.7927,W,1,9,2.6,20,M,,M,,*5F
06/19/2015	21:04:16.596	$GPGGA,210417,2517.2154,N,07921.7922,W,1,9,2.6,20,M,,M,,*5E
06/19/2015	21:04:17.596	$GPGGA,210418,2517.2159,N,07921.7919,W,1,10,2.1,20,M,,M,,*6B
06/19/2015	21:04:18.586	$GPGGA,210419,2517.2162,N,07921.7914,W,1,10,2.4,20,M,,M,,*6A
06/19/2015	21:04:19.636	$GPGGA,210420,2517.2161,N,07921.7908,W,1,9,2.4,19,M,,M,,*5C
06/19/2015	21:04:20.529	$GPGGA,210421,2517.2164,N,07921.7903,W,1,9,2.4,19,M,,M,,*53
06/19/2015	21:04:21.576	$GPGGA,210422,2517.2165,N,07921.7897,W,1,9,2.4,19,M,,M,,*5D
06/19/2015	21:04:22.586	$GPGGA,210423,2517.2166,N,07921.7893,W,1,9,2.4,19,M,,M,,*5B
06/19/2015	21:04:23.576	$GPGGA,210424,2517.2168,N,07921.7887,W,1,10,2.1,19,M,,M,,*6A
06/19/2015	21:04:24.577	$GPGGA,210425,2517.2169,N,07921.7881,W,1,10,2.4,18,M,,M,,*68
06/19/2015	21:04:25.577	$GPGGA,210426,2517.2169,N,07921.7874,W,1,9,2.4,18,M,,M,,*59
06/19/2015	21:04:26.507	$GPGGA,210427,2517.2169,N,07921.7867,W,1,9,2.1,18,M,,M,,*5F
06/19/2015	21:04:27.622	$GPGGA,210428,2517.2170,N,07921.7860,W,1,10,2.1,18,M,,M,,*67
06/19/2015	21:04:28.520	$GPGGA,210429,2517.2172,N,07921.7854,W,1,10,2.1,18,M,,M,,*63
06/19/2015	21:04:29.566	$GPGGA,210430,2517.2173,N,07921.7849,W,1,10,2.1,18,M,,M,,*66
06/19/2015	21:04:30.586	$GPGGA,210431,2517.2175,N,07921.7844,W,1,10,2.4,18,M,,M,,*69
06/19/2015	21:04:31.636	$GPGGA,210432,2517.2176,N,07921.7837,W,1,9,2.1,18,M,,M,,*50
06/19/2015	21:04:32.506	$GPGGA,210433,2517.2177,N,07921.7832,W,1,9,2.1,18,M,,M,,*55
06/19/2015	21:04:33.546	$GPGGA,210434,2517.2180,N,07921.7828,W,1,9,2.1,18,M,,M,,*51
06/19/2015	21:04:34.496	$GPGGA,210435,2517.2182,N,07921.7823,W,1,9,2.1,18,M,,M,,*59
06/19/2015	21:04:35.622	$GPGGA,210436,2517.2183,N,07921.7818,W,1,9,2.1,18,M,,M,,*53
06/19/2015	21:04:36.566	$GPGGA,210437,2517.2184,N,07921.7813,W,1,9,2.1,18,M,,M,,*5E
06/19/2015	21:04:37.556	$GPGGA,210438,2517.2187,N,07921.7808,W,1,10,2.1,18,M,,M,,*60
06/19/2015	21:04:38.606	$GPGGA,210439,2517.2188,N,07921.7804,W,1,10,2.1,18,M,,M,,*62
06/19/2015	21:04:39.567	$GPGGA,210440,2517.2188,N,07921.7799,W,1,10,2.1,18,M,,M,,*67
06/19/2015	21:04:40.556	$GPGGA,210441,2517.2191,N,07921.7794,W,1,10,2.1,18,M,,M,,*63
06/19/2015	21:04:41.577	$GPGGA,210442,2517.2191,N,07921.7789,W,1,10,2.1,17,M,,M,,*63
06/19/2015	21:04:42.547	$GPGGA,210443,2517.2194,N,07921.7784,W,1,10,2.1,17,M,,M,,*6A
06/19/2015	21:04:43.627	$GPGGA,210444,2517.2197,N,07921.7779,W,1,10,2.1,17,M,,M,,*6C
06/19/2015	21:04:44.587	$GPGGA,210445,2517.2198,N,07921.7773,W,1,10,2.1,17,M,,M,,*68
06/19/2015	21:04:45.523	$GPGGA,210446,2517.2198,N,07921.7767,W,1,10,2.4,17,M,,M,,*6B
06/19/2015	21:04:46.587	$GPGGA,210447,2517.2201,N,07921.7762,W,1,10,2.1,17,M,,M,,*69
06/19/2015	21:04:47.587	$GPGGA,210448,2517.2204,N,07921.7757,W,1,10,2.1,17,M,,M,,*65
06/19/2015	21:04:48.576	$GPGGA,210449,2517.2206,N,07921.7751,W,1,10,2.1,17,M,,M,,*60
06/19/2015	21:04:49.596	$GPGGA,210450,2517.2206,N,07921.7745,W,1,9,2.4,17,M,,M,,*50
06/19/2015	21:04:50.566	$GPGGA,210451,2517.2206,N,07921.7735,W,1,9,2.1,17,M,,M,,*53
06/19/2015	21:04:51.576	$GPGGA,210452,2517.2209,N,07921.7729,W,1,10,2.4,17,M,,M,,*6F
06/19/2015	21:04:52.576	$GPGGA,210453,2517.2209,N,07921.7723,W,1,10,2.1,17,M,,M,,*61
06/19/2015	21:04:53.566	$GPGGA,210454,2517.2211,N,07921.7719,W,1,9,2.1,17,M,,M,,*5E
06/19/2015	21:04:54.566	$GPGGA,210455,2517.2213,N,07921.7713,W,1,9,2.1,17,M,,M,,*57
06/19/2015	21:04:55.606	$GPGGA,210456,2517.2213,N,07921.7713,W,1,10,2.1,17,M,,M,,*6C
06/19/2015	21:04:56.556	$GPGGA,210457,2517.2216,N,07921.7702,W,1,10,2.1,17,M,,M,,*68
06/19/2015	21:04:57.576	$GPGGA,210458,2517.2216,N,07921.7696,W,1,10,2.1,17,M,,M,,*6B
06/19/2015	21:04:58.567	$GPGGA,210459,2517.2219,N,07921.7690,W,1,10,2.1,17,M,,M,,*63
06/19/2015	21:04:59.597	$GPGGA,210500,2517.2220,N,07921.7684,W,1,10,2.1,17,M,,M,,*61
06/19/2015	21:05:00.557	$GPGGA,210501,2517.2222,N,07921.7678,W,1,10,2.4,17,M,,M,,*64
06/19/2015	21:05:01.557	$GPGGA,210502,2517.2220,N,07921.7671,W,1,9,2.1,17,M,,M,,*51
06/19/2015	21:05:02.586	$GPGGA,210503,2517.2223,N,07921.7665,W,1,9,2.4,17,M,,M,,*53
06/19/2015	21:05:03.576	$GPGGA,210504,2517.2224,N,07921.7660,W,1,9,2.4,17,M,,M,,*56
06/19/2015	21:05:04.546	$GPGGA,210505,2517.2226,N,07921.7655,W,1,9,2.4,17,M,,M,,*53
06/19/2015	21:05:05.556	$GPGGA,210506,2517.2229,N,07921.7651,W,1,9,2.4,17,M,,M,,*5B
06/19/2015	21:05:06.546	$GPGGA,210507,2517.2231,N,07921.7645,W,1,9,2.4,17,M,,M,,*56
06/19/2015	21:05:07.606	$GPGGA,210508,2517.2231,N,07921.7645,W,1,9,2.4,17,M,,M,,*59
06/19/2015	21:05:08.546	$GPGGA,210509,2517.2237,N,07921.7637,W,1,9,2.4,17,M,,M,,*5B
06/19/2015	21:05:09.556	$GPGGA,210510,2517.2238,N,07921.7632,W,1,9,2.1,17,M,,M,,*5C
06/19/2015	21:05:10.546	$GPGGA,210511,2517.2241,N,07921.7627,W,1,9,2.1,17,M,,M,,*57
06/19/2015	21:05:11.586	$GPGGA,210512,2517.2242,N,07921.7622,W,1,10,2.1,17,M,,M,,*6A
06/19/2015	21:05:12.566	$GPGGA,210513,2517.2245,N,07921.7617,W,1,10,2.1,17,M,,M,,*6A
06/19/2015	21:05:13.546	$GPGGA,210514,2517.2248,N,07921.7612,W,1,10,2.1,17,M,,M,,*65
06/19/2015	21:05:14.516	$GPGGA,210515,2517.2248,N,07921.7612,W,1,10,2.1,16,M,,M,,*65
06/19/2015	21:05:15.556	$GPGGA,210516,2517.2249,N,07921.7601,W,1,10,2.1,16,M,,M,,*65
06/19/2015	21:05:16.527	$GPGGA,210517,2517.2249,N,07921.7601,W,1,10,2.1,16,M,,M,,*64
06/19/2015	21:05:17.619	$GPGGA,210518,2517.2253,N,07921.7590,W,1,10,2.1,16,M,,M,,*6B
06/19/2015	21:05:18.557	$GPGGA,210519,2517.2253,N,07921.7590,W,1,10,2.1,16,M,,M,,*6A
06/19/2015	21:05:19.637	$GPGGA,210520,2517.2255,N,07921.7579,W,1,10,2.1,16,M,,M,,*61
06/19/2015	21:05:20.516	$GPGGA,210521,2517.2256,N,07921.7573,W,1,10,2.1,16,M,,M,,*69
06/19/2015	21:05:21.596	$GPGGA,210522,2517.2256,N,07921.7567,W,1,9,2.4,16,M,,M,,*52
06/19/2015	21:05:22.526	$GPGGA,210523,2517.2256,N,07921.7567,W,1,9,2.4,15,M,,M,,*50
06/19/2015	21:05:23.619	$GPGGA,210524,2517.2258,N,07921.7555,W,1,9,2.4,15,M,,M,,*58
06/19/2015	21:05:24.621	$GPGGA,210525,2517.2259,N,07921.7549,W,1,9,2.1,15,M,,M,,*50
06/19/2015	21:05:25.496	$GPGGA,210526,2517.2258,N,07921.7543,W,1,10,2.1,15,M,,M,,*60
06/19/2015	21:05:26.620	$GPGGA,210527,2517.2260,N,07921.7537,W,1,10,2.1,15,M,,M,,*69
06/19/2015	21:05:27.516	$GPGGA,210528,2517.2262,N,07921.7532,W,1,9,2.4,15,M,,M,,*5C
06/19/2015	21:05:28.496	$GPGGA,210529,2517.2262,N,07921.7532,W,1,9,2.4,15,M,,M,,*5D
06/19/2015	21:05:29.606	$GPGGA,210530,2517.2263,N,07921.7521,W,1,10,2.1,16,M,,M,,*68
06/19/2015	21:05:30.606	$GPGGA,210531,2517.2266,N,07921.7516,W,1,10,2.1,16,M,,M,,*68
06/19/2015	21:05:31.506	$GPGGA,210532,2517.2265,N,07921.7511,W,1,9,2.4,16,M,,M,,*52
06/19/2015	21:05:32.586	$GPGGA,210533,2517.2267,N,07921.7505,W,1,9,2.4,16,M,,M,,*54
06/19/2015	21:05:33.587	$GPGGA,210534,2517.2267,N,07921.7498,W,1,10,2.1,16,M,,M,,*6B
06/19/2015	21:05:34.587	$GPGGA,210535,2517.2267,N,07921.7492,W,1,10,2.1,16,M,,M,,*60
06/19/2015	21:05:35.588	$GPGGA,210536,2517.2267,N,07921.7487,W,1,10,2.1,16,M,,M,,*67
06/19/2015	21:05:36.567	$GPGGA,210537,2517.2269,N,07921.7481,W,1,10,2.1,16,M,,M,,*6E
06/19/2015	21:05:37.586	$GPGGA,210538,2517.2270,N,07921.7475,W,1,10,2.1,16,M,,M,,*62
06/19/2015	21:05:38.576	$GPGGA,210539,2517.2269,N,07921.7470,W,1,10,2.1,16,M,,M,,*6E
06/19/2015	21:05:39.586	$GPGGA,210540,2517.2271,N,07921.7464,W,1,10,2.1,17,M,,M,,*6D
06/19/2015	21:05:40.576	$GPGGA,210541,2517.2271,N,07921.7464,W,1,10,2.4,17,M,,M,,*69
06/19/2015	21:05:41.567	$GPGGA,210542,2517.2276,N,07921.7458,W,1,10,2.1,17,M,,M,,*67
06/19/2015	21:05:42.556	$GPGGA,210543,2517.2278,N,07921.7453,W,1,10,2.1,17,M,,M,,*63
06/19/2015	21:05:43.596	$GPGGA,210544,2517.2278,N,07921.7448,W,1,10,2.1,17,M,,M,,*6E
06/19/2015	21:05:44.556	$GPGGA,210545,2517.2281,N,07921.7443,W,1,10,2.1,17,M,,M,,*62
06/19/2015	21:05:45.546	$GPGGA,210546,2517.2281,N,07921.7438,W,1,10,2.1,17,M,,M,,*6D
06/19/2015	21:05:46.556	$GPGGA,210547,2517.2284,N,07921.7432,W,1,10,2.1,17,M,,M,,*63
06/19/2015	21:05:47.586	$GPGGA,210548,2517.2285,N,07921.7428,W,1,10,2.1,17,M,,M,,*66
06/19/2015	21:05:48.546	$GPGGA,210549,2517.2287,N,07921.7423,W,1,10,2.1,17,M,,M,,*6E
06/19/2015	21:05:49.556	$GPGGA,210550,2517.2289,N,07921.7418,W,1,9,2.4,17,M,,M,,*5D
06/19/2015	21:05:50.556	$GPGGA,210551,2517.2289,N,07921.7413,W,1,9,2.1,17,M,,M,,*52
06/19/2015	21:05:51.557	$GPGGA,210552,2517.2294,N,07921.7410,W,1,9,2.4,17,M,,M,,*5B
06/19/2015	21:05:52.547	$GPGGA,210553,2517.2296,N,07921.7406,W,1,9,2.1,17,M,,M,,*5A
06/19/2015	21:05:53.537	$GPGGA,210554,2517.2298,N,07921.7401,W,1,10,2.1,16,M,,M,,*6D
06/19/2015	21:05:54.547	$GPGGA,210555,2517.2299,N,07921.7396,W,1,10,2.1,16,M,,M,,*64
06/19/2015	21:05:55.576	$GPGGA,210556,2517.2300,N,07921.7390,W,1,10,2.1,16,M,,M,,*60
06/19/2015	21:05:56.966	$GPGGA,210557,2517.2302,N,07921.7385,W,1,10,2.4,16,M,,M,,*62
06/19/2015	21:05:57.546	$GPGGA,210558,2517.2303,N,07921.7380,W,1,10,2.1,16,M,,M,,*6C
06/19/2015	21:05:58.531	$GPGGA,210559,2517.2305,N,07921.7375,W,1,10,2.1,16,M,,M,,*61
06/19/2015	21:05:59.566	$GPGGA,210600,2517.2307,N,07921.7369,W,1,10,2.1,15,M,,M,,*62
06/19/2015	21:06:00.521	$GPGGA,210601,2517.2307,N,07921.7364,W,1,10,2.1,15,M,,M,,*6E
06/19/2015	21:06:01.518	$GPGGA,210602,2517.2310,N,07921.7360,W,1,10,2.1,15,M,,M,,*6F
06/19/2015	21:06:02.529	$GPGGA,210603,2517.2311,N,07921.7354,W,1,10,2.1,15,M,,M,,*68
06/19/2015	21:06:03.566	$GPGGA,210604,2517.2314,N,07921.7349,W,1,10,2.1,15,M,,M,,*66
06/19/2015	21:06:04.528	$GPGGA,210605,2517.2314,N,07921.7344,W,1,10,2.1,15,M,,M,,*6A
06/19/2015	21:06:05.546	$GPGGA,210606,2517.2318,N,07921.7339,W,1,10,2.1,14,M,,M,,*6E
06/19/2015	21:06:06.626	$GPGGA,210607,2517.2318,N,07921.7333,W,1,10,2.1,14,M,,M,,*65
06/19/2015	21:06:08.547	$GPGGA,210609,2517.2321,N,07921.7322,W,1,10,2.1,14,M,,M,,*61
06/19/2015	21:06:09.537	$GPGGA,210610,2517.2324,N,07921.7316,W,1,10,2.1,14,M,,M,,*6B
06/19/2015	21:06:10.537	$GPGGA,210611,2517.2325,N,07921.7310,W,1,10,2.1,14,M,,M,,*6D
06/19/2015	21:06:11.637	$GPGGA,210612,2517.2325,N,07921.7303,W,1,10,2.1,14,M,,M,,*6C
06/19/2015	21:06:12.506	$GPGGA,210613,2517.2327,N,07921.7295,W,1,10,2.4,13,M,,M,,*63
06/19/2015	21:06:13.486	$GPGGA,210614,2517.2326,N,07921.7287,W,1,10,2.1,13,M,,M,,*63
06/19/2015	21:06:14.620	$GPGGA,210615,2517.2328,N,07921.7281,W,1,10,2.1,13,M,,M,,*6A
06/19/2015	21:06:15.617	$GPGGA,210616,2517.2329,N,07921.7275,W,1,10,2.1,13,M,,M,,*63
06/19/2015	21:06:16.586	$GPGGA,210617,2517.2331,N,07921.7270,W,1,10,2.1,13,M,,M,,*6E
06/19/2015	21:06:17.596	$GPGGA,210618,2517.2332,N,07921.7264,W,1,10,2.1,13,M,,M,,*67
06/19/2015	21:06:18.586	$GPGGA,210619,2517.2334,N,07921.7257,W,1,10,2.4,13,M,,M,,*65
06/19/2015	21:06:19.596	$GPGGA,210620,2517.2336,N,07921.7254,W,1,10,2.1,13,M,,M,,*6B
06/19/2015	21:06:20.586	$GPGGA,210621,2517.2339,N,07921.7249,W,1,10,2.1,13,M,,M,,*69
06/19/2015	21:06:21.606	$GPGGA,210622,2517.2341,N,07921.7243,W,1,10,2.1,13,M,,M,,*6F
06/19/2015	21:06:22.566	$GPGGA,210623,2517.2343,N,07921.7238,W,1,10,2.1,13,M,,M,,*60
06/19/2015	21:06:23.586	$GPGGA,210624,2517.2345,N,07921.7234,W,1,10,2.1,13,M,,M,,*6D
06/19/2015	21:06:24.586	$GPGGA,210625,2517.2346,N,07921.7229,W,1,10,2.1,13,M,,M,,*63
06/19/2015	21:06:25.596	$GPGGA,210626,2517.2350,N,07921.7225,W,1,10,2.1,13,M,,M,,*6B
06/19/2015	21:06:26.567	$GPGGA,210627,2517.2352,N,07921.7221,W,1,10,2.1,13,M,,M,,*6C
06/19/2015	21:06:27.607	$GPGGA,210628,2517.2354,N,07921.7217,W,1,10,2.1,13,M,,M,,*60
06/19/2015	21:06:28.567	$GPGGA,210629,2517.2357,N,07921.7212,W,1,10,2.1,13,M,,M,,*67
06/19/2015	21:06:29.577	$GPGGA,210630,2517.2357,N,07921.7207,W,1,10,2.1,13,M,,M,,*6B
06/19/2015	21:06:30.566	$GPGGA,210631,2517.2359,N,07921.7201,W,1,10,2.1,13,M,,M,,*62
06/19/2015	21:06:31.576	$GPGGA,210632,2517.2361,N,07921.7195,W,1,10,2.1,12,M,,M,,*65
06/19/2015	21:06:32.567	$GPGGA,210633,2517.2363,N,07921.7189,W,1,10,2.1,12,M,,M,,*6B
06/19/2015	21:06:33.576	$GPGGA,210634,2517.2364,N,07921.7184,W,1,10,2.1,12,M,,M,,*66
06/19/2015	21:06:34.556	$GPGGA,210635,2517.2365,N,07921.7179,W,1,10,2.1,12,M,,M,,*64
06/19/2015	21:06:35.576	$GPGGA,210636,2517.2367,N,07921.7172,W,1,10,2.1,12,M,,M,,*6E
06/19/2015	21:06:36.556	$GPGGA,210637,2517.2368,N,07921.7167,W,1,10,2.1,12,M,,M,,*64
06/19/2015	21:06:37.536	$GPGGA,210638,2517.2371,N,07921.7162,W,1,10,2.1,12,M,,M,,*66
06/19/2015	21:06:38.546	$GPGGA,210639,2517.2370,N,07921.7155,W,1,10,2.1,12,M,,M,,*62
06/19/2015	21:06:40.432	$GPGGA,210640,2517.2372,N,07921.7149,W,1,10,2.1,12,M,,M,,*63
06/19/2015	21:06:40.546	$GPGGA,210641,2517.2374,N,07921.7143,W,1,10,2.1,12,M,,M,,*6E
06/19/2015	21:06:41.536	$GPGGA,210642,2517.2375,N,07921.7137,W,1,10,2.1,12,M,,M,,*6F
06/19/2015	21:06:42.546	$GPGGA,210643,2517.2378,N,07921.7132,W,1,10,2.4,12,M,,M,,*63
06/19/2015	21:06:43.547	$GPGGA,210644,2517.2379,N,07921.7126,W,1,10,2.1,12,M,,M,,*65
06/19/2015	21:06:44.527	$GPGGA,210645,2517.2379,N,07921.7118,W,1,10,2.4,12,M,,M,,*6C
06/19/2015	21:06:45.557	$GPGGA,210646,2517.2381,N,07921.7113,W,1,8,2.7,12,M,,M,,*59
06/19/2015	21:06:46.537	$GPGGA,210647,2517.2383,N,07921.7109,W,1,8,2.1,12,M,,M,,*57
06/19/2015	21:06:47.556	$GPGGA,210648,2517.2383,N,07921.7102,W,1,9,2.4,12,M,,M,,*57
06/19/2015	21:06:48.526	$GPGGA,210649,2517.2385,N,07921.7096,W,1,9,2.1,12,M,,M,,*59
06/19/2015	21:06:49.518	$GPGGA,210650,2517.2384,N,07921.7089,W,1,9,2.4,12,M,,M,,*5B
06/19/2015	21:06:50.636	$GPGGA,210651,2517.2386,N,07921.7083,W,1,9,2.4,12,M,,M,,*52
06/19/2015	21:06:51.646	$GPGGA,210652,2517.2388,N,07921.7076,W,1,10,2.1,12,M,,M,,*68
06/19/2015	21:06:52.529	$GPGGA,210653,2517.2389,N,07921.7069,W,1,10,2.1,12,M,,M,,*66
06/19/2015	21:06:53.536	$GPGGA,210654,2517.2388,N,07921.7063,W,1,10,2.1,12,M,,M,,*6A
06/19/2015	21:06:54.517	$GPGGA,210655,2517.2390,N,07921.7057,W,1,10,2.1,12,M,,M,,*65
06/19/2015	21:06:55.556	$GPGGA,210656,2517.2390,N,07921.7051,W,1,10,2.1,12,M,,M,,*60
06/19/2015	21:06:56.529	$GPGGA,210657,2517.2390,N,07921.7044,W,1,10,2.1,12,M,,M,,*65
06/19/2015	21:06:57.619	$GPGGA,210658,2517.2390,N,07921.7039,W,1,10,2.1,13,M,,M,,*61
06/19/2015	21:06:58.497	$GPGGA,210659,2517.2392,N,07921.7034,W,1,10,2.1,13,M,,M,,*6F
06/19/2015	21:06:59.556	$GPGGA,210700,2517.2393,N,07921.7027,W,1,9,2.4,13,M,,M,,*5C
06/19/2015	21:07:00.516	$GPGGA,210701,2517.2393,N,07921.7021,W,1,9,2.1,13,M,,M,,*5E
06/19/2015	21:07:01.518	$GPGGA,210702,2517.2394,N,07921.7016,W,1,10,2.1,13,M,,M,,*66
06/19/2015	21:07:02.522	$GPGGA,210703,2517.2394,N,07921.7010,W,1,10,2.1,13,M,,M,,*61
06/19/2015	21:07:03.597	$GPGGA,210704,2517.2397,N,07921.7005,W,1,10,2.1,14,M,,M,,*66
06/19/2015	21:07:04.507	$GPGGA,210705,2517.2399,N,07921.7000,W,1,10,2.1,14,M,,M,,*6C
06/19/2015	21:07:05.939	$GPGGA,210706,2517.2401,N,07921.6996,W,1,9,2.4,14,M,,M,,*53
06/19/2015	21:07:06.496	$GPGGA,210707,2517.2403,N,07921.6992,W,1,9,2.1,14,M,,M,,*51
06/19/2015	21:07:07.586	$GPGGA,210708,2517.2404,N,07921.6987,W,1,10,2.1,14,M,,M,,*65
06/19/2015	21:07:08.586	$GPGGA,210709,2517.2406,N,07921.6980,W,1,10,2.1,14,M,,M,,*61
06/19/2015	21:07:09.576	$GPGGA,210710,2517.2407,N,07921.6976,W,1,9,2.4,14,M,,M,,*5C
06/19/2015	21:07:10.576	$GPGGA,210711,2517.2408,N,07921.6972,W,1,9,2.1,14,M,,M,,*53
06/19/2015	21:07:11.576	$GPGGA,210712,2517.2411,N,07921.6967,W,1,10,2.1,14,M,,M,,*64
06/19/2015	21:07:12.566	$GPGGA,210713,2517.2411,N,07921.6962,W,1,10,2.1,14,M,,M,,*60
06/19/2015	21:07:13.586	$GPGGA,210714,2517.2412,N,07921.6956,W,1,10,2.1,14,M,,M,,*63
06/19/2015	21:07:14.576	$GPGGA,210715,2517.2414,N,07921.6950,W,1,10,2.1,14,M,,M,,*62
06/19/2015	21:07:15.576	$GPGGA,210716,2517.2415,N,07921.6944,W,1,10,2.1,14,M,,M,,*65
06/19/2015	21:07:16.566	$GPGGA,210717,2517.2415,N,07921.6939,W,1,10,2.1,14,M,,M,,*6E
06/19/2015	21:07:17.586	$GPGGA,210718,2517.2418,N,07921.6932,W,1,10,2.1,14,M,,M,,*67
06/19/2015	21:07:18.567	$GPGGA,210719,2517.2419,N,07921.6927,W,1,10,2.1,14,M,,M,,*63
06/19/2015	21:07:19.587	$GPGGA,210720,2517.2419,N,07921.6921,W,1,10,2.1,14,M,,M,,*6F
06/19/2015	21:07:20.557	$GPGGA,210721,2517.2419,N,07921.6915,W,1,10,2.1,14,M,,M,,*69
06/19/2015	21:07:21.577	$GPGGA,210722,2517.2421,N,07921.6908,W,1,10,2.1,14,M,,M,,*6D
06/19/2015	21:07:22.556	$GPGGA,210723,2517.2419,N,07921.6899,W,1,10,2.7,14,M,,M,,*68
06/19/2015	21:07:23.596	$GPGGA,210724,2517.2419,N,07921.6892,W,1,10,2.1,15,M,,M,,*63
06/19/2015	21:07:24.556	$GPGGA,210725,2517.2419,N,07921.6885,W,1,10,2.1,15,M,,M,,*64
06/19/2015	21:07:25.576	$GPGGA,210726,2517.2421,N,07921.6879,W,1,10,2.1,15,M,,M,,*6F
06/19/2015	21:07:26.546	$GPGGA,210727,2517.2422,N,07921.6874,W,1,10,2.1,15,M,,M,,*60
06/19/2015	21:07:27.576	$GPGGA,210728,2517.2422,N,07921.6868,W,1,9,2.4,15,M,,M,,*5F
06/19/2015	21:07:28.546	$GPGGA,210729,2517.2425,N,07921.6862,W,1,9,2.1,15,M,,M,,*56
06/19/2015	21:07:29.566	$GPGGA,210730,2517.2426,N,07921.6857,W,1,10,2.1,15,M,,M,,*63
06/19/2015	21:07:30.529	$GPGGA,210731,2517.2429,N,07921.6852,W,1,10,2.4,15,M,,M,,*6D
06/19/2015	21:07:31.556	$GPGGA,210732,2517.2430,N,07921.6847,W,1,9,2.4,16,M,,M,,*59
06/19/2015	21:07:32.536	$GPGGA,210733,2517.2428,N,07921.6840,W,1,9,2.1,16,M,,M,,*53
06/19/2015	21:07:33.519	$GPGGA,210734,2517.2430,N,07921.6835,W,1,10,2.1,16,M,,M,,*67
06/19/2015	21:07:34.536	$GPGGA,210735,2517.2433,N,07921.6830,W,1,10,2.4,16,M,,M,,*65
06/19/2015	21:07:35.556	$GPGGA,210736,2517.2435,N,07921.6825,W,1,10,2.1,16,M,,M,,*61
06/19/2015	21:07:36.537	$GPGGA,210737,2517.2436,N,07921.6819,W,1,10,2.4,16,M,,M,,*69
06/19/2015	21:07:37.557	$GPGGA,210738,2517.2437,N,07921.6813,W,1,10,2.1,16,M,,M,,*68
06/19/2015	21:07:38.637	$GPGGA,210739,2517.2439,N,07921.6808,W,1,10,2.4,16,M,,M,,*68
06/19/2015	21:07:39.557	$GPGGA,210740,2517.2440,N,07921.6804,W,1,10,2.1,16,M,,M,,*61
06/19/2015	21:07:40.526	$GPGGA,210741,2517.2443,N,07921.6800,W,1,10,2.1,16,M,,M,,*67
06/19/2015	21:07:41.506	$GPGGA,210742,2517.2444,N,07921.6796,W,1,10,2.1,16,M,,M,,*63
06/19/2015	21:07:42.521	$GPGGA,210743,2517.2447,N,07921.6792,W,1,10,2.1,16,M,,M,,*65
06/19/2015	21:07:43.536	$GPGGA,210744,2517.2448,N,07921.6787,W,1,10,2.1,16,M,,M,,*69
06/19/2015	21:07:44.516	$GPGGA,210745,2517.2451,N,07921.6782,W,1,10,2.1,16,M,,M,,*65
06/19/2015	21:07:45.596	$GPGGA,210746,2517.2453,N,07921.6777,W,1,10,2.1,16,M,,M,,*6E
06/19/2015	21:07:46.527	$GPGGA,210747,2517.2454,N,07921.6772,W,1,10,2.1,16,M,,M,,*6D
06/19/2015	21:07:47.606	$GPGGA,210748,2517.2455,N,07921.6767,W,1,10,2.1,16,M,,M,,*67
06/19/2015	21:07:48.620	$GPGGA,210749,2517.2458,N,07921.6762,W,1,10,2.1,16,M,,M,,*6E
06/19/2015	21:07:49.519	$GPGGA,210750,2517.2459,N,07921.6758,W,1,10,2.1,16,M,,M,,*6E
06/19/2015	21:07:50.506	$GPGGA,210751,2517.2462,N,07921.6753,W,1,10,2.4,16,M,,M,,*69
06/19/2015	21:07:51.606	$GPGGA,210752,2517.2464,N,07921.6749,W,1,10,2.1,16,M,,M,,*62
06/19/2015	21:07:52.496	$GPGGA,210753,2517.2465,N,07921.6742,W,1,10,2.1,16,M,,M,,*69
06/19/2015	21:07:53.497	$GPGGA,210754,2517.2466,N,07921.6737,W,1,10,2.1,16,M,,M,,*6F
06/19/2015	21:07:54.587	$GPGGA,210755,2517.2466,N,07921.6731,W,1,10,2.1,16,M,,M,,*68
06/19/2015	21:07:55.621	$GPGGA,210756,2517.2469,N,07921.6725,W,1,10,2.1,16,M,,M,,*61
06/19/2015	21:07:56.577	$GPGGA,210757,2517.2469,N,07921.6719,W,1,10,2.1,16,M,,M,,*6F
06/19/2015	21:07:57.606	$GPGGA,210758,2517.2471,N,07921.6714,W,1,10,2.1,16,M,,M,,*64
06/19/2015	21:07:58.586	$GPGGA,210759,2517.2472,N,07921.6708,W,1,10,2.1,16,M,,M,,*6B
06/19/2015	21:07:59.621	$GPGGA,210800,2517.2473,N,07921.6702,W,1,10,2.1,16,M,,M,,*63
06/19/2015	21:08:00.586	$GPGGA,210801,2517.2473,N,07921.6697,W,1,10,2.1,16,M,,M,,*6F
06/19/2015	21:08:01.576	$GPGGA,210802,2517.2476,N,07921.6691,W,1,10,2.1,16,M,,M,,*6F
06/19/2015	21:08:02.576	$GPGGA,210803,2517.2477,N,07921.6686,W,1,10,2.1,16,M,,M,,*69
06/19/2015	21:08:03.586	$GPGGA,210804,2517.2477,N,07921.6680,W,1,10,2.1,16,M,,M,,*68
06/19/2015	21:08:04.576	$GPGGA,210805,2517.2480,N,07921.6675,W,1,10,2.1,16,M,,M,,*6B
06/19/2015	21:08:06.076	$GPGGA,210806,2517.2482,N,07921.6669,W,1,10,2.1,16,M,,M,,*67
06/19/2015	21:08:06.556	$GPGGA,210807,2517.2484,N,07921.6664,W,1,10,2.1,16,M,,M,,*6D
06/19/2015	21:08:07.586	$GPGGA,210808,2517.2484,N,07921.6658,W,1,10,2.1,16,M,,M,,*6D
06/19/2015	21:08:08.566	$GPGGA,210809,2517.2486,N,07921.6653,W,1,10,2.1,16,M,,M,,*65
06/19/2015	21:08:09.566	$GPGGA,210810,2517.2487,N,07921.6647,W,1,10,2.1,16,M,,M,,*69
06/19/2015	21:08:10.556	$GPGGA,210811,2517.2488,N,07921.6641,W,1,10,2.1,16,M,,M,,*61
06/19/2015	21:08:11.587	$GPGGA,210812,2517.2490,N,07921.6636,W,1,10,2.1,16,M,,M,,*6B
06/19/2015	21:08:12.557	$GPGGA,210813,2517.2491,N,07921.6631,W,1,10,2.1,16,M,,M,,*6C
06/19/2015	21:08:13.587	$GPGGA,210814,2517.2491,N,07921.6626,W,1,10,2.1,16,M,,M,,*6D
06/19/2015	21:08:14.547	$GPGGA,210815,2517.2494,N,07921.6620,W,1,10,2.1,16,M,,M,,*6F
06/19/2015	21:08:15.586	$GPGGA,210816,2517.2495,N,07921.6614,W,1,10,2.1,16,M,,M,,*6A
06/19/2015	21:08:16.536	$GPGGA,210817,2517.2497,N,07921.6609,W,1,10,2.1,16,M,,M,,*65
06/19/2015	21:08:17.556	$GPGGA,210818,2517.2496,N,07921.6603,W,1,10,2.1,16,M,,M,,*61
06/19/2015	21:08:18.536	$GPGGA,210819,2517.2498,N,07921.6598,W,1,10,2.1,16,M,,M,,*6F
06/19/2015	21:08:19.536	$GPGGA,210820,2517.2501,N,07921.6592,W,1,10,2.1,16,M,,M,,*6E
06/19/2015	21:08:20.546	$GPGGA,210821,2517.2502,N,07921.6587,W,1,10,2.4,16,M,,M,,*6D
06/19/2015	21:08:21.566	$GPGGA,210822,2517.2502,N,07921.6582,W,1,10,2.1,16,M,,M,,*6E
06/19/2015	21:08:22.546	$GPGGA,210823,2517.2505,N,07921.6577,W,1,10,2.1,16,M,,M,,*62
06/19/2015	21:08:23.546	$GPGGA,210824,2517.2506,N,07921.6572,W,1,10,2.1,16,M,,M,,*63
06/19/2015	21:08:24.516	$GPGGA,210825,2517.2506,N,07921.6566,W,1,10,2.4,16,M,,M,,*62
06/19/2015	21:08:25.527	$GPGGA,210826,2517.2509,N,07921.6561,W,1,10,2.1,16,M,,M,,*6C
06/19/2015	21:08:26.636	$GPGGA,210827,2517.2509,N,07921.6556,W,1,10,2.1,16,M,,M,,*69
06/19/2015	21:08:27.576	$GPGGA,210828,2517.2512,N,07921.6551,W,1,10,2.1,16,M,,M,,*6B
06/19/2015	21:08:28.517	$GPGGA,210829,2517.2513,N,07921.6546,W,1,10,2.1,16,M,,M,,*6D
06/19/2015	21:08:29.620	$GPGGA,210830,2517.2513,N,07921.6540,W,1,9,2.1,16,M,,M,,*5B
06/19/2015	21:08:30.507	$GPGGA,210831,2517.2515,N,07921.6534,W,1,9,2.1,16,M,,M,,*5F
06/19/2015	21:08:31.547	$GPGGA,210832,2517.2516,N,07921.6529,W,1,10,2.1,16,M,,M,,*6B
06/19/2015	21:08:32.506	$GPGGA,210833,2517.2518,N,07921.6524,W,1,10,2.1,16,M,,M,,*69
06/19/2015	21:08:33.521	$GPGGA,210834,2517.2519,N,07921.6519,W,1,9,2.4,16,M,,M,,*5C
06/19/2015	21:08:34.506	$GPGGA,210835,2517.2520,N,07921.6514,W,1,9,2.4,16,M,,M,,*5A
06/19/2015	21:08:35.517	$GPGGA,210836,2517.2523,N,07921.6509,W,1,10,2.1,16,M,,M,,*6B
06/19/2015	21:08:36.617	$GPGGA,210837,2517.2523,N,07921.6503,W,1,10,2.1,16,M,,M,,*60
06/19/2015	21:08:37.516	$GPGGA,210838,2517.2526,N,07921.6499,W,1,10,2.1,16,M,,M,,*68
06/19/2015	21:08:38.516	$GPGGA,210839,2517.2527,N,07921.6493,W,1,10,2.1,16,M,,M,,*62
06/19/2015	21:08:39.666	$GPGGA,210840,2517.2529,N,07921.6488,W,1,9,2.4,16,M,,M,,*55
06/19/2015	21:08:40.506	$GPGGA,210841,2517.2530,N,07921.6483,W,1,9,2.4,16,M,,M,,*57
06/19/2015	21:08:41.496	$GPGGA,210842,2517.2531,N,07921.6478,W,1,9,2.4,16,M,,M,,*51
06/19/2015	21:08:42.586	$GPGGA,210843,2517.2534,N,07921.6473,W,1,9,2.4,16,M,,M,,*5E
06/19/2015	21:08:43.618	$GPGGA,210844,2517.2537,N,07921.6470,W,1,9,2.1,16,M,,M,,*5C
06/19/2015	21:08:44.486	$GPGGA,210845,2517.2538,N,07921.6465,W,1,9,2.1,16,M,,M,,*56
06/19/2015	21:08:46.607	$GPGGA,210847,2517.2542,N,07921.6456,W,1,9,2.4,15,M,,M,,*5F
06/19/2015	21:08:48.077	$GPGGA,210848,2517.2544,N,07921.6453,W,1,9,2.4,15,M,,M,,*53
06/19/2015	21:08:48.577	$GPGGA,210849,2517.2543,N,07921.6449,W,1,9,2.1,15,M,,M,,*5B
06/19/2015	21:08:49.597	$GPGGA,210850,2517.2545,N,07921.6443,W,1,10,2.1,15,M,,M,,*67
06/19/2015	21:08:50.566	$GPGGA,210851,2517.2548,N,07921.6439,W,1,10,2.4,15,M,,M,,*63
06/19/2015	21:08:51.596	$GPGGA,210852,2517.2546,N,07921.6431,W,1,9,2.4,15,M,,M,,*5E
06/19/2015	21:08:53.606	$GPGGA,210854,2517.2551,N,07921.6422,W,1,9,2.1,15,M,,M,,*59
06/19/2015	21:08:54.566	$GPGGA,210855,2517.2552,N,07921.6417,W,1,9,2.1,15,M,,M,,*5D
06/19/2015	21:08:55.646	$GPGGA,210856,2517.2552,N,07921.6412,W,1,10,2.1,15,M,,M,,*63
06/19/2015	21:08:57.616	$GPGGA,210858,2517.2556,N,07921.6402,W,1,10,2.1,15,M,,M,,*68
06/19/2015	21:08:58.556	$GPGGA,210859,2517.2556,N,07921.6397,W,1,10,2.1,15,M,,M,,*62
06/19/2015	21:08:59.626	$GPGGA,210900,2517.2558,N,07921.6392,W,1,10,2.1,15,M,,M,,*64
06/19/2015	21:09:00.546	$GPGGA,210901,2517.2560,N,07921.6388,W,1,10,2.4,15,M,,M,,*60
06/19/2015	21:09:01.556	$GPGGA,210902,2517.2563,N,07921.6385,W,1,9,2.1,15,M,,M,,*50
06/19/2015	21:09:02.576	$GPGGA,210903,2517.2562,N,07921.6381,W,1,9,2.1,15,M,,M,,*54
06/19/2015	21:09:03.567	$GPGGA,210904,2517.2565,N,07921.6377,W,1,10,2.1,15,M,,M,,*65
06/19/2015	21:09:04.547	$GPGGA,210905,2517.2567,N,07921.6371,W,1,10,2.1,15,M,,M,,*60
06/19/2015	21:09:05.547	$GPGGA,210906,2517.2567,N,07921.6365,W,1,10,2.1,15,M,,M,,*66
06/19/2015	21:09:06.547	$GPGGA,210907,2517.2569,N,07921.6361,W,1,10,2.1,15,M,,M,,*6D
06/19/2015	21:09:07.622	$GPGGA,210908,2517.2570,N,07921.6356,W,1,10,2.1,15,M,,M,,*6E
06/19/2015	21:09:08.532	$GPGGA,210909,2517.2571,N,07921.6351,W,1,10,2.1,16,M,,M,,*6A
06/19/2015	21:09:09.546	$GPGGA,210910,2517.2574,N,07921.6346,W,1,10,2.4,16,M,,M,,*64
06/19/2015	21:09:10.536	$GPGGA,210911,2517.2574,N,07921.6341,W,1,10,2.1,16,M,,M,,*67
06/19/2015	21:09:11.576	$GPGGA,210912,2517.2576,N,07921.6337,W,1,10,2.1,16,M,,M,,*67
06/19/2015	21:09:12.546	$GPGGA,210913,2517.2578,N,07921.6332,W,1,10,2.1,16,M,,M,,*6D
06/19/2015	21:09:13.556	$GPGGA,210914,2517.2580,N,07921.6327,W,1,10,2.1,16,M,,M,,*69
06/19/2015	21:09:14.521	$GPGGA,210915,2517.2581,N,07921.6323,W,1,10,2.4,16,M,,M,,*68
06/19/2015	21:09:15.556	$GPGGA,210916,2517.2584,N,07921.6319,W,1,9,2.1,16,M,,M,,*5A
06/19/2015	21:09:16.606	$GPGGA,210917,2517.2585,N,07921.6313,W,1,9,2.1,16,M,,M,,*50
06/19/2015	21:09:17.646	$GPGGA,210918,2517.2585,N,07921.6308,W,1,10,2.1,16,M,,M,,*6D
06/19/2015	21:09:18.527	$GPGGA,210919,2517.2587,N,07921.6302,W,1,10,2.1,16,M,,M,,*64
06/19/2015	21:09:19.576	$GPGGA,210920,2517.2589,N,07921.6298,W,1,10,2.4,16,M,,M,,*67
06/19/2015	21:09:20.786	$GPGGA,210921,2517.2589,N,07921.6293,W,1,10,2.1,16,M,,M,,*68
06/19/2015	21:09:21.543	$GPGGA,210922,2517.2589,N,07921.6288,W,1,10,2.1,16,M,,M,,*61
06/19/2015	21:09:22.517	$GPGGA,210923,2517.2591,N,07921.6282,W,1,10,2.1,16,M,,M,,*63
06/19/2015	21:09:23.637	$GPGGA,210924,2517.2592,N,07921.6277,W,1,10,2.4,16,M,,M,,*68
06/19/2015	21:09:24.542	$GPGGA,210925,2517.2594,N,07921.6272,W,1,10,2.4,16,M,,M,,*6A
06/19/2015	21:09:25.596	$GPGGA,210926,2517.2596,N,07921.6266,W,1,9,2.4,16,M,,M,,*56
06/19/2015	21:09:26.586	$GPGGA,210927,2517.2596,N,07921.6262,W,1,9,2.1,16,M,,M,,*56
06/19/2015	21:09:27.606	$GPGGA,210928,2517.2596,N,07921.6256,W,1,10,2.1,16,M,,M,,*66
06/19/2015	21:09:28.596	$GPGGA,210929,2517.2599,N,07921.6251,W,1,10,2.1,16,M,,M,,*6F
06/19/2015	21:09:29.586	$GPGGA,210930,2517.2600,N,07921.6246,W,1,10,2.1,16,M,,M,,*62
06/19/2015	21:09:30.576	$GPGGA,210931,2517.2602,N,07921.6242,W,1,10,2.4,16,M,,M,,*60
06/19/2015	21:09:31.606	$GPGGA,210932,2517.2603,N,07921.6237,W,1,9,2.4,16,M,,M,,*58
06/19/2015	21:09:32.586	$GPGGA,210933,2517.2603,N,07921.6231,W,1,9,2.1,16,M,,M,,*5A
06/19/2015	21:09:33.576	$GPGGA,210934,2517.2605,N,07921.6226,W,1,10,2.4,16,M,,M,,*60
06/19/2015	21:09:34.586	$GPGGA,210935,2517.2606,N,07921.6221,W,1,10,2.4,16,M,,M,,*65
06/19/2015	21:09:35.606	$GPGGA,210936,2517.2607,N,07921.6216,W,1,10,2.1,16,M,,M,,*66
06/19/2015	21:09:36.576	$GPGGA,210937,2517.2609,N,07921.6210,W,1,10,2.4,16,M,,M,,*6A
06/19/2015	21:09:37.566	$GPGGA,210938,2517.2610,N,07921.6205,W,1,9,2.4,16,M,,M,,*51
06/19/2015	21:09:38.597	$GPGGA,210939,2517.2610,N,07921.6200,W,1,9,2.4,16,M,,M,,*55
06/19/2015	21:09:39.623	$GPGGA,210940,2517.2612,N,07921.6194,W,1,10,2.1,16,M,,M,,*6A
06/19/2015	21:09:40.567	$GPGGA,210941,2517.2614,N,07921.6190,W,1,10,2.4,16,M,,M,,*6C
06/19/2015	21:09:41.577	$GPGGA,210942,2517.2616,N,07921.6184,W,1,9,2.4,16,M,,M,,*50
06/19/2015	21:09:42.556	$GPGGA,210943,2517.2617,N,07921.6179,W,1,9,2.4,16,M,,M,,*52
06/19/2015	21:09:43.596	$GPGGA,210944,2517.2616,N,07921.6173,W,1,9,2.4,15,M,,M,,*5D
06/19/2015	21:09:44.566	$GPGGA,210945,2517.2617,N,07921.6166,W,1,9,2.1,15,M,,M,,*5C
06/19/2015	21:09:45.566	$GPGGA,210946,2517.2618,N,07921.6161,W,1,10,2.1,16,M,,M,,*6C
06/19/2015	21:09:46.556	$GPGGA,210947,2517.2618,N,07921.6156,W,1,10,2.1,16,M,,M,,*69
06/19/2015	21:09:47.576	$GPGGA,210948,2517.2621,N,07921.6151,W,1,10,2.1,16,M,,M,,*6B
06/19/2015	21:09:48.556	$GPGGA,210949,2517.2624,N,07921.6146,W,1,10,2.4,16,M,,M,,*6C
06/19/2015	21:09:49.546	$GPGGA,210950,2517.2625,N,07921.6140,W,1,10,2.1,16,M,,M,,*66
06/19/2015	21:09:50.556	$GPGGA,210951,2517.2625,N,07921.6135,W,1,10,2.1,16,M,,M,,*65
06/19/2015	21:09:51.597	$GPGGA,210952,2517.2628,N,07921.6129,W,1,10,2.1,16,M,,M,,*66
06/19/2015	21:09:52.546	$GPGGA,210953,2517.2630,N,07921.6125,W,1,10,2.1,16,M,,M,,*62
06/19/2015	21:09:53.566	$GPGGA,210954,2517.2629,N,07921.6120,W,1,10,2.1,16,M,,M,,*68
06/19/2015	21:09:54.546	$GPGGA,210955,2517.2632,N,07921.6115,W,1,10,2.1,16,M,,M,,*65
06/19/2015	21:09:55.586	$GPGGA,210956,2517.2634,N,07921.6111,W,1,10,2.1,16,M,,M,,*64
06/19/2015	21:09:56.547	$GPGGA,210957,2517.2635,N,07921.6107,W,1,10,2.1,16,M,,M,,*63
06/19/2015	21:09:57.557	$GPGGA,210958,2517.2636,N,07921.6102,W,1,10,2.1,16,M,,M,,*6A
06/19/2015	21:09:58.529	$GPGGA,210959,2517.2639,N,07921.6098,W,1,10,2.1,16,M,,M,,*66
06/19/2015	21:09:59.577	$GPGGA,211000,2517.2642,N,07921.6093,W,1,10,2.1,16,M,,M,,*65
06/19/2015	21:10:00.529	$GPGGA,211001,2517.2643,N,07921.6089,W,1,10,2.1,16,M,,M,,*6E
06/19/2015	21:10:01.556	$GPGGA,211002,2517.2645,N,07921.6084,W,1,10,2.1,16,M,,M,,*66
06/19/2015	21:10:02.518	$GPGGA,211003,2517.2646,N,07921.6080,W,1,10,2.1,16,M,,M,,*60
06/19/2015	21:10:03.556	$GPGGA,211004,2517.2648,N,07921.6075,W,1,10,2.1,16,M,,M,,*63
06/19/2015	21:10:04.521	$GPGGA,211005,2517.2649,N,07921.6070,W,1,10,2.1,16,M,,M,,*66
06/19/2015	21:10:05.521	$GPGGA,211006,2517.2650,N,07921.6066,W,1,10,2.1,16,M,,M,,*6A
06/19/2015	21:10:06.496	$GPGGA,211007,2517.2653,N,07921.6061,W,1,10,2.1,16,M,,M,,*6F
06/19/2015	21:10:07.523	$GPGGA,211008,2517.2654,N,07921.6056,W,1,10,2.1,16,M,,M,,*63
06/19/2015	21:10:08.508	$GPGGA,211009,2517.2656,N,07921.6052,W,1,10,2.1,16,M,,M,,*64
06/19/2015	21:10:09.608	$GPGGA,211010,2517.2657,N,07921.6046,W,1,10,2.1,16,M,,M,,*68
06/19/2015	21:10:10.586	$GPGGA,211011,2517.2659,N,07921.6041,W,1,10,2.1,15,M,,M,,*63
06/19/2015	21:10:11.608	$GPGGA,211012,2517.2661,N,07921.6037,W,1,10,2.1,15,M,,M,,*6A
06/19/2015	21:10:12.486	$GPGGA,211013,2517.2661,N,07921.6032,W,1,10,2.1,15,M,,M,,*6E
06/19/2015	21:10:13.496	$GPGGA,211014,2517.2663,N,07921.6026,W,1,10,2.1,15,M,,M,,*6E
06/19/2015	21:10:14.496	$GPGGA,211015,2517.2664,N,07921.6021,W,1,10,2.1,15,M,,M,,*6F
06/19/2015	21:10:15.496	$GPGGA,211016,2517.2667,N,07921.6016,W,1,10,2.1,15,M,,M,,*6B
06/19/2015	21:10:16.608	$GPGGA,211017,2517.2668,N,07921.6011,W,1,10,2.1,15,M,,M,,*62
06/19/2015	21:10:17.595	$GPGGA,211018,2517.2668,N,07921.6006,W,1,10,2.1,15,M,,M,,*6B
06/19/2015	21:10:18.485	$GPGGA,211019,2517.2672,N,07921.6001,W,1,10,2.1,15,M,,M,,*66
06/19/2015	21:10:19.625	$GPGGA,211020,2517.2674,N,07921.5996,W,1,10,2.1,15,M,,M,,*6E
06/19/2015	21:10:20.575	$GPGGA,211021,2517.2673,N,07921.5992,W,1,10,2.1,15,M,,M,,*6C
06/19/2015	21:10:21.565	$GPGGA,211022,2517.2675,N,07921.5987,W,1,10,2.1,15,M,,M,,*6D
06/19/2015	21:10:22.575	$GPGGA,211023,2517.2679,N,07921.5982,W,1,10,2.1,15,M,,M,,*65
06/19/2015	21:10:23.575	$GPGGA,211024,2517.2681,N,07921.5977,W,1,10,2.1,15,M,,M,,*6F
06/19/2015	21:10:24.556	$GPGGA,211025,2517.2680,N,07921.5972,W,1,10,2.1,15,M,,M,,*6A
06/19/2015	21:10:25.576	$GPGGA,211026,2517.2683,N,07921.5967,W,1,10,2.1,15,M,,M,,*6E
06/19/2015	21:10:26.557	$GPGGA,211027,2517.2686,N,07921.5963,W,1,10,2.1,15,M,,M,,*6E
06/19/2015	21:10:27.576	$GPGGA,211028,2517.2686,N,07921.5957,W,1,10,2.1,15,M,,M,,*66
06/19/2015	21:10:28.556	$GPGGA,211029,2517.2688,N,07921.5953,W,1,10,2.1,15,M,,M,,*6D
06/19/2015	21:10:29.576	$GPGGA,211030,2517.2690,N,07921.5947,W,1,10,2.1,15,M,,M,,*69
06/19/2015	21:10:30.546	$GPGGA,211031,2517.2692,N,07921.5943,W,1,10,2.4,15,M,,M,,*6B
06/19/2015	21:10:31.586	$GPGGA,211032,2517.2693,N,07921.5938,W,1,10,2.1,15,M,,M,,*60
06/19/2015	21:10:32.556	$GPGGA,211033,2517.2695,N,07921.5932,W,1,10,2.1,15,M,,M,,*6D
06/19/2015	21:10:33.546	$GPGGA,211034,2517.2696,N,07921.5928,W,1,10,2.1,15,M,,M,,*62
06/19/2015	21:10:34.546	$GPGGA,211035,2517.2697,N,07921.5924,W,1,10,2.1,15,M,,M,,*6E
06/19/2015	21:10:35.545	$GPGGA,211036,2517.2701,N,07921.5920,W,1,9,2.4,15,M,,M,,*5A
06/19/2015	21:10:36.545	$GPGGA,211037,2517.2701,N,07921.5915,W,1,9,2.1,15,M,,M,,*58
06/19/2015	21:10:37.525	$GPGGA,211038,2517.2704,N,07921.5910,W,1,9,2.4,15,M,,M,,*52
06/19/2015	21:10:38.535	$GPGGA,211039,2517.2704,N,07921.5905,W,1,9,2.4,14,M,,M,,*56
06/19/2015	21:10:39.575	$GPGGA,211040,2517.2704,N,07921.5898,W,1,9,2.4,14,M,,M,,*5D
06/19/2015	21:10:40.535	$GPGGA,211041,2517.2704,N,07921.5892,W,1,9,2.1,14,M,,M,,*53
06/19/2015	21:10:41.556	$GPGGA,211042,2517.2707,N,07921.5887,W,1,10,2.1,14,M,,M,,*6F
06/19/2015	21:10:42.526	$GPGGA,211043,2517.2706,N,07921.5882,W,1,10,2.1,14,M,,M,,*6A
06/19/2015	21:10:43.524	$GPGGA,211044,2517.2708,N,07921.5877,W,1,10,2.1,14,M,,M,,*69
06/19/2015	21:10:44.526	$GPGGA,211045,2517.2710,N,07921.5872,W,1,10,2.1,14,M,,M,,*64
06/19/2015	21:10:45.536	$GPGGA,211046,2517.2711,N,07921.5867,W,1,10,2.1,15,M,,M,,*63
06/19/2015	21:10:46.516	$GPGGA,211047,2517.2710,N,07921.5862,W,1,10,2.1,15,M,,M,,*66
06/19/2015	21:10:47.536	$GPGGA,211048,2517.2711,N,07921.5856,W,1,10,2.1,15,M,,M,,*6F
06/19/2015	21:10:48.510	$GPGGA,211049,2517.2714,N,07921.5851,W,1,10,2.1,15,M,,M,,*6C
06/19/2015	21:10:49.626	$GPGGA,211050,2517.2715,N,07921.5846,W,1,10,2.1,15,M,,M,,*63
06/19/2015	21:10:50.526	$GPGGA,211051,2517.2715,N,07921.5840,W,1,10,2.1,15,M,,M,,*64
06/19/2015	21:10:51.619	$GPGGA,211052,2517.2717,N,07921.5836,W,1,10,2.1,15,M,,M,,*64
06/19/2015	21:10:52.516	$GPGGA,211053,2517.2719,N,07921.5831,W,1,10,2.1,15,M,,M,,*6C
06/19/2015	21:10:53.525	$GPGGA,211054,2517.2721,N,07921.5825,W,1,10,2.1,15,M,,M,,*65
06/19/2015	21:10:54.625	$GPGGA,211055,2517.2722,N,07921.5820,W,1,10,2.1,15,M,,M,,*62
06/19/2015	21:10:55.545	$GPGGA,211056,2517.2721,N,07921.5815,W,1,10,2.1,15,M,,M,,*64
06/19/2015	21:10:57.626	$GPGGA,211058,2517.2725,N,07921.5805,W,1,10,2.1,15,M,,M,,*6F
06/19/2015	21:10:58.616	$GPGGA,211059,2517.2724,N,07921.5800,W,1,10,2.1,15,M,,M,,*6A
06/19/2015	21:10:59.646	$GPGGA,211100,2517.2726,N,07921.5795,W,1,10,2.1,15,M,,M,,*66
06/19/2015	21:11:00.596	$GPGGA,211101,2517.2726,N,07921.5789,W,1,10,2.1,15,M,,M,,*6A
06/19/2015	21:11:01.587	$GPGGA,211102,2517.2728,N,07921.5784,W,1,10,2.1,15,M,,M,,*6A
06/19/2015	21:11:02.587	$GPGGA,211103,2517.2729,N,07921.5779,W,1,10,2.1,15,M,,M,,*68
06/19/2015	21:11:03.626	$GPGGA,211104,2517.2730,N,07921.5774,W,1,10,2.1,16,M,,M,,*69
06/19/2015	21:11:04.586	$GPGGA,211105,2517.2732,N,07921.5769,W,1,10,2.1,16,M,,M,,*66
06/19/2015	21:11:05.576	$GPGGA,211106,2517.2731,N,07921.5764,W,1,10,2.1,16,M,,M,,*6B
06/19/2015	21:11:07.636	$GPGGA,211108,2517.2735,N,07921.5753,W,1,10,2.1,16,M,,M,,*65
06/19/2015	21:11:08.566	$GPGGA,211109,2517.2736,N,07921.5748,W,1,10,2.1,16,M,,M,,*6D
06/19/2015	21:11:09.576	$GPGGA,211110,2517.2735,N,07921.5743,W,1,10,2.1,16,M,,M,,*6D
06/19/2015	21:11:10.575	$GPGGA,211111,2517.2736,N,07921.5738,W,1,10,2.1,16,M,,M,,*63
06/19/2015	21:11:11.585	$GPGGA,211112,2517.2739,N,07921.5732,W,1,10,2.1,16,M,,M,,*65
06/19/2015	21:11:12.565	$GPGGA,211113,2517.2740,N,07921.5727,W,1,10,2.4,16,M,,M,,*6B
06/19/2015	21:11:13.565	$GPGGA,211114,2517.2739,N,07921.5722,W,1,10,2.1,16,M,,M,,*62
06/19/2015	21:11:14.555	$GPGGA,211115,2517.2740,N,07921.5717,W,1,10,2.1,16,M,,M,,*6B
06/19/2015	21:11:15.585	$GPGGA,211116,2517.2743,N,07921.5712,W,1,10,2.1,16,M,,M,,*6E
06/19/2015	21:11:16.556	$GPGGA,211117,2517.2744,N,07921.5707,W,1,10,2.1,16,M,,M,,*6C
06/19/2015	21:11:17.566	$GPGGA,211118,2517.2744,N,07921.5701,W,1,9,2.4,16,M,,M,,*58
06/19/2015	21:11:18.546	$GPGGA,211119,2517.2746,N,07921.5697,W,1,9,2.1,16,M,,M,,*50
06/19/2015	21:11:19.586	$GPGGA,211120,2517.2747,N,07921.5692,W,1,10,2.1,16,M,,M,,*66
06/19/2015	21:11:20.546	$GPGGA,211121,2517.2748,N,07921.5687,W,1,10,2.1,16,M,,M,,*6C
06/19/2015	21:11:21.567	$GPGGA,211122,2517.2748,N,07921.5681,W,1,9,2.4,16,M,,M,,*54
06/19/2015	21:11:22.546	$GPGGA,211123,2517.2750,N,07921.5675,W,1,9,2.1,16,M,,M,,*52
06/19/2015	21:11:23.546	$GPGGA,211124,2517.2751,N,07921.5670,W,1,10,2.1,16,M,,M,,*69
06/19/2015	21:11:24.536	$GPGGA,211125,2517.2751,N,07921.5665,W,1,10,2.1,16,M,,M,,*6C
06/19/2015	21:11:25.556	$GPGGA,211126,2517.2754,N,07921.5660,W,1,10,2.1,16,M,,M,,*6F
06/19/2015	21:11:26.866	$GPGGA,211127,2517.2753,N,07921.5655,W,1,10,2.1,16,M,,M,,*6F
06/19/2015	21:11:27.555	$GPGGA,211128,2517.2755,N,07921.5650,W,1,10,2.1,16,M,,M,,*63
06/19/2015	21:11:28.525	$GPGGA,211129,2517.2757,N,07921.5645,W,1,10,2.1,16,M,,M,,*64
06/19/2015	21:11:29.521	$GPGGA,211130,2517.2758,N,07921.5640,W,1,10,2.1,16,M,,M,,*66
06/19/2015	21:11:30.555	$GPGGA,211131,2517.2760,N,07921.5636,W,1,10,2.1,16,M,,M,,*6D
06/19/2015	21:11:31.545	$GPGGA,211132,2517.2761,N,07921.5631,W,1,10,2.1,16,M,,M,,*68
06/19/2015	21:11:32.535	$GPGGA,211133,2517.2762,N,07921.5626,W,1,10,2.1,16,M,,M,,*6C
06/19/2015	21:11:33.556	$GPGGA,211134,2517.2764,N,07921.5621,W,1,10,2.1,16,M,,M,,*6A
06/19/2015	21:11:34.536	$GPGGA,211135,2517.2765,N,07921.5616,W,1,10,2.1,16,M,,M,,*6E
06/19/2015	21:11:35.710	$GPGGA,211136,2517.2766,N,07921.5612,W,1,10,2.1,16,M,,M,,*6A
06/19/2015	21:11:36.536	$GPGGA,211137,2517.2768,N,07921.5607,W,1,10,2.1,16,M,,M,,*61
06/19/2015	21:11:37.506	$GPGGA,211138,2517.2769,N,07921.5602,W,1,10,2.1,16,M,,M,,*6A
06/19/2015	21:11:38.526	$GPGGA,211139,2517.2771,N,07921.5597,W,1,10,2.1,16,M,,M,,*6D
06/19/2015	21:11:39.546	$GPGGA,211140,2517.2772,N,07921.5592,W,1,10,2.1,16,M,,M,,*65
06/19/2015	21:11:40.522	$GPGGA,211141,2517.2773,N,07921.5587,W,1,10,2.1,16,M,,M,,*61
06/19/2015	21:11:41.816	$GPGGA,211142,2517.2775,N,07921.5582,W,1,10,2.1,16,M,,M,,*61
06/19/2015	21:11:42.522	$GPGGA,211143,2517.2776,N,07921.5576,W,1,10,2.1,16,M,,M,,*68
06/19/2015	21:11:43.521	$GPGGA,211144,2517.2777,N,07921.5572,W,1,10,2.1,16,M,,M,,*6A
06/19/2015	21:11:44.596	$GPGGA,211145,2517.2779,N,07921.5567,W,1,10,2.1,16,M,,M,,*61
06/19/2015	21:11:45.495	$GPGGA,211146,2517.2780,N,07921.5561,W,1,10,2.1,16,M,,M,,*62
06/19/2015	21:11:46.625	$GPGGA,211147,2517.2782,N,07921.5556,W,1,10,2.1,16,M,,M,,*65
06/19/2015	21:11:47.508	$GPGGA,211148,2517.2783,N,07921.5551,W,1,10,2.1,16,M,,M,,*6C
06/19/2015	21:11:48.485	$GPGGA,211149,2517.2784,N,07921.5546,W,1,10,2.1,16,M,,M,,*6C
