Software Version Number: 1	Data File Format Number: 1	Build Version Number: 1	Error Count Since VI Started: 1	Manufacturer: Raytheon	 Model Number: RayMarine 120	 S/N: 	 Cal Date: 	 Wind Direction Offset: 0.00	 Slope (M)1: 0.00	 Offset (B)1: 0.00	 Slope (M)2: 0.00	 Offset (B)2: 0.00	 Slope (M)3: 0.00	 Offset (B)3: 0.00	 Slope (M)4: 0.00	 Offset (B)4: 0.00	 Slope (M)5: 0.00	 Offset (B)5: 0.00	 Slope (M)6: 0.00	 Offset (B)6: 0.00
Computer Date	Computer Time	GGA String
06/11/2015	10:00:00.499	$GPGGA,100001,2420.4666,N,08141.2916,W,1,8,1.7,11,M,,M,,*58
06/11/2015	10:00:01.599	$GPGGA,100002,2420.4669,N,08141.2902,W,1,8,1.7,11,M,,M,,*51
06/11/2015	10:00:02.579	$GPGGA,100003,2420.4675,N,08141.2885,W,1,8,1.7,11,M,,M,,*53
06/11/2015	10:00:03.609	$GPGGA,100004,2420.4677,N,08141.2870,W,1,8,1.7,11,M,,M,,*5C
06/11/2015	10:00:04.569	$GPGGA,100005,2420.4679,N,08141.2854,W,1,8,1.7,11,M,,M,,*55
06/11/2015	10:00:05.623	$GPGGA,100006,2420.4683,N,08141.2838,W,1,8,1.7,11,M,,M,,*59
06/11/2015	10:00:06.579	$GPGGA,100007,2420.4688,N,08141.2822,W,1,8,1.7,11,M,,M,,*58
06/11/2015	10:00:08.067	$GPGGA,100008,2420.4691,N,08141.2805,W,1,7,1.9,11,M,,M,,*5B
06/11/2015	10:00:08.560	$GPGGA,100009,2420.4695,N,08141.2789,W,1,7,1.9,11,M,,M,,*55
06/11/2015	10:00:09.580	$GPGGA,100010,2420.4699,N,08141.2772,W,1,8,1.7,11,M,,M,,*54
06/11/2015	10:00:10.570	$GPGGA,100011,2420.4702,N,08141.2756,W,1,8,1.7,10,M,,M,,*51
06/11/2015	10:00:11.600	$GPGGA,100012,2420.4708,N,08141.2739,W,1,8,1.7,10,M,,M,,*51
06/11/2015	10:00:12.550	$GPGGA,100013,2420.4713,N,08141.2722,W,1,8,1.9,10,M,,M,,*5E
06/11/2015	10:00:13.560	$GPGGA,100014,2420.4716,N,08141.2705,W,1,7,1.9,10,M,,M,,*56
06/11/2015	10:00:14.560	$GPGGA,100015,2420.4722,N,08141.2688,W,1,7,1.9,10,M,,M,,*54
06/11/2015	10:00:15.610	$GPGGA,100016,2420.4726,N,08141.2671,W,1,7,1.9,10,M,,M,,*55
06/11/2015	10:00:16.559	$GPGGA,100017,2420.4727,N,08141.2656,W,1,7,1.9,10,M,,M,,*50
06/11/2015	10:00:17.559	$GPGGA,100018,2420.4731,N,08141.2640,W,1,8,1.7,10,M,,M,,*5E
06/11/2015	10:00:18.559	$GPGGA,100019,2420.4734,N,08141.2624,W,1,8,1.7,10,M,,M,,*58
06/11/2015	10:00:19.579	$GPGGA,100020,2420.4738,N,08141.2608,W,1,8,1.7,10,M,,M,,*50
06/11/2015	10:00:20.969	$GPGGA,100021,2420.4740,N,08141.2592,W,1,8,1.7,10,M,,M,,*5E
06/11/2015	10:00:21.533	$GPGGA,100022,2420.4745,N,08141.2575,W,1,8,1.7,10,M,,M,,*51
06/11/2015	10:00:22.535	$GPGGA,100023,2420.4749,N,08141.2558,W,1,8,1.9,10,M,,M,,*5D
06/11/2015	10:00:23.559	$GPGGA,100024,2420.4753,N,08141.2542,W,1,7,1.9,10,M,,M,,*55
06/11/2015	10:00:24.532	$GPGGA,100025,2420.4756,N,08141.2525,W,1,7,1.7,10,M,,M,,*5E
06/11/2015	10:00:25.521	$GPGGA,100026,2420.4758,N,08141.2511,W,1,8,1.7,10,M,,M,,*5B
06/11/2015	10:00:26.533	$GPGGA,100027,2420.4760,N,08141.2495,W,1,8,1.7,10,M,,M,,*5C
06/11/2015	10:00:27.560	$GPGGA,100028,2420.4764,N,08141.2477,W,1,8,1.7,10,M,,M,,*5B
06/11/2015	10:00:28.522	$GPGGA,100029,2420.4770,N,08141.2459,W,1,8,1.9,10,M,,M,,*5D
06/11/2015	10:00:29.540	$GPGGA,100030,2420.4774,N,08141.2441,W,1,8,1.7,10,M,,M,,*56
06/11/2015	10:00:30.513	$GPGGA,100031,2420.4778,N,08141.2426,W,1,8,1.7,10,M,,M,,*5A
06/11/2015	10:00:31.570	$GPGGA,100032,2420.4782,N,08141.2409,W,1,8,1.7,10,M,,M,,*51
06/11/2015	10:00:32.510	$GPGGA,100033,2420.4785,N,08141.2393,W,1,8,1.9,10,M,,M,,*5D
06/11/2015	10:00:33.509	$GPGGA,100034,2420.4788,N,08141.2377,W,1,8,1.7,10,M,,M,,*53
06/11/2015	10:00:34.509	$GPGGA,100035,2420.4792,N,08141.2360,W,1,8,1.7,10,M,,M,,*5F
06/11/2015	10:00:35.559	$GPGGA,100036,2420.4796,N,08141.2343,W,1,8,1.7,10,M,,M,,*59
06/11/2015	10:00:36.622	$GPGGA,100037,2420.4799,N,08141.2326,W,1,8,1.7,10,M,,M,,*54
06/11/2015	10:00:37.509	$GPGGA,100038,2420.4803,N,08141.2311,W,1,8,1.7,10,M,,M,,*53
06/11/2015	10:00:38.500	$GPGGA,100039,2420.4807,N,08141.2294,W,1,8,1.7,10,M,,M,,*5A
06/11/2015	10:00:39.549	$GPGGA,100040,2420.4810,N,08141.2277,W,1,8,1.7,10,M,,M,,*5F
06/11/2015	10:00:40.499	$GPGGA,100041,2420.4813,N,08141.2261,W,1,8,1.7,10,M,,M,,*5A
06/11/2015	10:00:41.509	$GPGGA,100042,2420.4817,N,08141.2246,W,1,8,1.7,10,M,,M,,*58
06/11/2015	10:00:42.489	$GPGGA,100043,2420.4820,N,08141.2228,W,1,8,1.7,10,M,,M,,*55
06/11/2015	10:00:43.520	$GPGGA,100044,2420.4823,N,08141.2213,W,1,8,1.7,10,M,,M,,*59
06/11/2015	10:00:44.591	$GPGGA,100045,2420.4827,N,08141.2196,W,1,8,1.7,10,M,,M,,*52
06/11/2015	10:00:45.610	$GPGGA,100046,2420.4831,N,08141.2178,W,1,8,1.7,10,M,,M,,*56
06/11/2015	10:00:46.490	$GPGGA,100047,2420.4835,N,08141.2161,W,1,8,1.7,10,M,,M,,*5B
06/11/2015	10:00:47.500	$GPGGA,100048,2420.4839,N,08141.2143,W,1,8,1.7,10,M,,M,,*58
06/11/2015	10:00:48.490	$GPGGA,100049,2420.4841,N,08141.2128,W,1,8,1.9,10,M,,M,,*55
06/11/2015	10:00:49.590	$GPGGA,100050,2420.4846,N,08141.2111,W,1,8,1.7,10,M,,M,,*5E
06/11/2015	10:00:51.649	$GPGGA,100052,2420.4852,N,08141.2076,W,1,8,1.9,11,M,,M,,*56
06/11/2015	10:00:52.589	$GPGGA,100053,2420.4857,N,08141.2058,W,1,8,1.9,11,M,,M,,*5E
06/11/2015	10:00:53.589	$GPGGA,100054,2420.4863,N,08141.2041,W,1,7,1.7,11,M,,M,,*57
06/11/2015	10:00:54.580	$GPGGA,100055,2420.4865,N,08141.2022,W,1,7,1.9,11,M,,M,,*5B
06/11/2015	10:00:55.609	$GPGGA,100056,2420.4870,N,08141.2004,W,1,7,1.9,11,M,,M,,*58
06/11/2015	10:00:56.569	$GPGGA,100057,2420.4874,N,08141.1987,W,1,7,1.9,11,M,,M,,*5C
06/11/2015	10:00:57.579	$GPGGA,100058,2420.4879,N,08141.1969,W,1,7,1.9,11,M,,M,,*5E
06/11/2015	10:00:58.569	$GPGGA,100059,2420.4882,N,08141.1952,W,1,7,1.9,11,M,,M,,*53
06/11/2015	10:00:59.642	$GPGGA,100100,2420.4885,N,08141.1934,W,1,7,1.9,10,M,,M,,*58
06/11/2015	10:01:00.560	$GPGGA,100101,2420.4890,N,08141.1917,W,1,7,1.9,10,M,,M,,*5C
06/11/2015	10:01:01.580	$GPGGA,100102,2420.4890,N,08141.1902,W,1,7,1.7,10,M,,M,,*55
06/11/2015	10:01:02.610	$GPGGA,100103,2420.4894,N,08141.1884,W,1,7,1.9,10,M,,M,,*51
06/11/2015	10:01:03.590	$GPGGA,100104,2420.4897,N,08141.1867,W,1,7,1.7,10,M,,M,,*56
06/11/2015	10:01:04.550	$GPGGA,100105,2420.4901,N,08141.1849,W,1,7,1.9,10,M,,M,,*5B
06/11/2015	10:01:05.560	$GPGGA,100106,2420.4906,N,08141.1832,W,1,7,1.9,10,M,,M,,*53
06/11/2015	10:01:06.550	$GPGGA,100107,2420.4910,N,08141.1815,W,1,7,1.9,10,M,,M,,*50
06/11/2015	10:01:07.570	$GPGGA,100108,2420.4914,N,08141.1797,W,1,7,1.9,10,M,,M,,*5E
06/11/2015	10:01:08.539	$GPGGA,100109,2420.4918,N,08141.1780,W,1,7,1.9,10,M,,M,,*55
06/11/2015	10:01:09.559	$GPGGA,100110,2420.4921,N,08141.1763,W,1,7,1.9,10,M,,M,,*5A
06/11/2015	10:01:10.539	$GPGGA,100111,2420.4925,N,08141.1746,W,1,7,1.9,10,M,,M,,*58
06/11/2015	10:01:11.579	$GPGGA,100112,2420.4928,N,08141.1731,W,1,7,1.7,10,M,,M,,*58
06/11/2015	10:01:12.532	$GPGGA,100113,2420.4930,N,08141.1714,W,1,7,1.7,10,M,,M,,*57
06/11/2015	10:01:13.522	$GPGGA,100114,2420.4933,N,08141.1696,W,1,8,1.9,10,M,,M,,*59
06/11/2015	10:01:14.532	$GPGGA,100115,2420.4940,N,08141.1677,W,1,8,1.7,10,M,,M,,*5D
06/11/2015	10:01:15.569	$GPGGA,100116,2420.4941,N,08141.1664,W,1,8,1.7,10,M,,M,,*5D
06/11/2015	10:01:16.534	$GPGGA,100117,2420.4943,N,08141.1648,W,1,8,1.7,10,M,,M,,*50
06/11/2015	10:01:17.549	$GPGGA,100118,2420.4944,N,08141.1633,W,1,8,1.7,10,M,,M,,*54
06/11/2015	10:01:18.532	$GPGGA,100119,2420.4948,N,08141.1616,W,1,8,1.7,10,M,,M,,*5E
06/11/2015	10:01:19.540	$GPGGA,100120,2420.4953,N,08141.1600,W,1,8,1.7,10,M,,M,,*59
06/11/2015	10:01:20.532	$GPGGA,100121,2420.4958,N,08141.1583,W,1,8,1.9,10,M,,M,,*55
06/11/2015	10:01:21.530	$GPGGA,100122,2420.4962,N,08141.1564,W,1,7,1.7,10,M,,M,,*57
06/11/2015	10:01:22.510	$GPGGA,100123,2420.4966,N,08141.1547,W,1,7,1.7,10,M,,M,,*53
06/11/2015	10:01:23.550	$GPGGA,100124,2420.4969,N,08141.1531,W,1,8,1.7,10,M,,M,,*55
06/11/2015	10:01:24.523	$GPGGA,100125,2420.4973,N,08141.1514,W,1,8,1.7,10,M,,M,,*58
06/11/2015	10:01:25.534	$GPGGA,100126,2420.4977,N,08141.1497,W,1,8,1.7,10,M,,M,,*55
06/11/2015	10:01:26.599	$GPGGA,100127,2420.4982,N,08141.1480,W,1,8,1.7,10,M,,M,,*58
06/11/2015	10:01:27.609	$GPGGA,100128,2420.4986,N,08141.1463,W,1,8,1.7,10,M,,M,,*5E
06/11/2015	10:01:28.509	$GPGGA,100129,2420.4990,N,08141.1445,W,1,8,1.7,10,M,,M,,*5C
06/11/2015	10:01:29.500	$GPGGA,100130,2420.4994,N,08141.1429,W,1,8,1.7,10,M,,M,,*5A
06/11/2015	10:01:30.519	$GPGGA,100131,2420.4998,N,08141.1411,W,1,8,1.7,10,M,,M,,*5C
06/11/2015	10:01:31.549	$GPGGA,100132,2420.5002,N,08141.1394,W,1,8,1.7,10,M,,M,,*5E
06/11/2015	10:01:32.599	$GPGGA,100133,2420.5005,N,08141.1377,W,1,8,1.7,10,M,,M,,*55
06/11/2015	10:01:33.522	$GPGGA,100134,2420.5011,N,08141.1359,W,1,8,1.9,10,M,,M,,*55
06/11/2015	10:01:34.489	$GPGGA,100135,2420.5016,N,08141.1342,W,1,8,1.9,10,M,,M,,*59
06/11/2015	10:01:35.590	$GPGGA,100136,2420.5020,N,08141.1325,W,1,7,1.7,10,M,,M,,*5F
06/11/2015	10:01:36.580	$GPGGA,100137,2420.5023,N,08141.1308,W,1,7,1.7,10,M,,M,,*52
06/11/2015	10:01:37.490	$GPGGA,100138,2420.5027,N,08141.1291,W,1,8,1.9,10,M,,M,,*59
06/11/2015	10:01:38.570	$GPGGA,100139,2420.5031,N,08141.1274,W,1,8,1.7,10,M,,M,,*5A
06/11/2015	10:01:39.610	$GPGGA,100140,2420.5037,N,08141.1256,W,1,8,1.9,10,M,,M,,*5C
06/11/2015	10:01:40.570	$GPGGA,100141,2420.5042,N,08141.1239,W,1,8,1.9,10,M,,M,,*56
06/11/2015	10:01:41.600	$GPGGA,100142,2420.5045,N,08141.1221,W,1,7,1.9,10,M,,M,,*54
06/11/2015	10:01:42.580	$GPGGA,100143,2420.5051,N,08141.1204,W,1,7,1.9,10,M,,M,,*57
06/11/2015	10:01:43.599	$GPGGA,100144,2420.5053,N,08141.1188,W,1,7,1.9,10,M,,M,,*55
06/11/2015	10:01:44.569	$GPGGA,100145,2420.5056,N,08141.1172,W,1,7,1.7,10,M,,M,,*5A
06/11/2015	10:01:45.569	$GPGGA,100146,2420.5060,N,08141.1155,W,1,8,1.7,10,M,,M,,*56
06/11/2015	10:01:46.569	$GPGGA,100147,2420.5063,N,08141.1139,W,1,8,1.7,10,M,,M,,*5E
06/11/2015	10:01:47.589	$GPGGA,100148,2420.5067,N,08141.1123,W,1,8,1.7,10,M,,M,,*5E
06/11/2015	10:01:48.569	$GPGGA,100149,2420.5070,N,08141.1106,W,1,8,1.7,10,M,,M,,*5E
06/11/2015	10:01:49.569	$GPGGA,100150,2420.5074,N,08141.1089,W,1,8,1.7,10,M,,M,,*54
06/11/2015	10:01:50.559	$GPGGA,100151,2420.5078,N,08141.1072,W,1,8,1.7,10,M,,M,,*5D
06/11/2015	10:01:51.589	$GPGGA,100152,2420.5081,N,08141.1055,W,1,7,1.9,10,M,,M,,*5C
06/11/2015	10:01:52.549	$GPGGA,100153,2420.5084,N,08141.1040,W,1,7,1.7,10,M,,M,,*52
06/11/2015	10:01:53.570	$GPGGA,100154,2420.5087,N,08141.1024,W,1,8,1.7,10,M,,M,,*5B
06/11/2015	10:01:54.540	$GPGGA,100155,2420.5091,N,08141.1007,W,1,8,1.7,10,M,,M,,*5C
06/11/2015	10:01:55.560	$GPGGA,100156,2420.5095,N,08141.0989,W,1,8,1.7,10,M,,M,,*55
06/11/2015	10:01:56.540	$GPGGA,100157,2420.5099,N,08141.0971,W,1,8,1.9,10,M,,M,,*51
06/11/2015	10:01:57.540	$GPGGA,100158,2420.5103,N,08141.0954,W,1,7,1.9,10,M,,M,,*54
06/11/2015	10:01:58.540	$GPGGA,100159,2420.5109,N,08141.0934,W,1,7,1.9,10,M,,M,,*59
06/11/2015	10:01:59.580	$GPGGA,100200,2420.5112,N,08141.0916,W,1,8,1.7,10,M,,M,,*5D
06/11/2015	10:02:00.540	$GPGGA,100201,2420.5114,N,08141.0900,W,1,8,1.9,10,M,,M,,*53
06/11/2015	10:02:01.569	$GPGGA,100202,2420.5118,N,08141.0883,W,1,8,1.7,10,M,,M,,*58
06/11/2015	10:02:02.529	$GPGGA,100203,2420.5123,N,08141.0865,W,1,8,1.7,10,M,,M,,*59
06/11/2015	10:02:03.559	$GPGGA,100204,2420.5125,N,08141.0847,W,1,7,1.9,10,M,,M,,*59
06/11/2015	10:02:04.529	$GPGGA,100205,2420.5130,N,08141.0829,W,1,7,1.9,10,M,,M,,*54
06/11/2015	10:02:05.559	$GPGGA,100206,2420.5134,N,08141.0812,W,1,7,1.9,10,M,,M,,*5B
06/11/2015	10:02:06.520	$GPGGA,100207,2420.5138,N,08141.0793,W,1,7,1.7,10,M,,M,,*5E
06/11/2015	10:02:07.559	$GPGGA,100208,2420.5141,N,08141.0775,W,1,7,1.9,10,M,,M,,*59
06/11/2015	10:02:08.509	$GPGGA,100209,2420.5139,N,08141.0763,W,1,7,1.9,10,M,,M,,*50
06/11/2015	10:02:09.539	$GPGGA,100210,2420.5145,N,08141.0744,W,1,8,1.7,10,M,,M,,*57
06/11/2015	10:02:10.510	$GPGGA,100211,2420.5148,N,08141.0726,W,1,8,1.9,10,M,,M,,*51
06/11/2015	10:02:11.630	$GPGGA,100212,2420.5150,N,08141.0708,W,1,7,1.9,10,M,,M,,*58
06/11/2015	10:02:12.520	$GPGGA,100213,2420.5154,N,08141.0691,W,1,7,1.9,10,M,,M,,*5C
06/11/2015	10:02:13.624	$GPGGA,100214,2420.5159,N,08141.0672,W,1,7,1.9,10,M,,M,,*5B
06/11/2015	10:02:14.520	$GPGGA,100215,2420.5161,N,08141.0655,W,1,7,1.9,10,M,,M,,*54
06/11/2015	10:02:15.540	$GPGGA,100216,2420.5164,N,08141.0637,W,1,7,1.9,10,M,,M,,*56
06/11/2015	10:02:16.510	$GPGGA,100217,2420.5168,N,08141.0619,W,1,7,1.9,10,M,,M,,*57
06/11/2015	10:02:17.610	$GPGGA,100218,2420.5171,N,08141.0602,W,1,7,1.9,10,M,,M,,*5A
06/11/2015	10:02:18.509	$GPGGA,100219,2420.5172,N,08141.0586,W,1,7,1.9,10,M,,M,,*57
06/11/2015	10:02:19.522	$GPGGA,100220,2420.5177,N,08141.0567,W,1,8,1.7,10,M,,M,,*56
06/11/2015	10:02:20.759	$GPGGA,100221,2420.5179,N,08141.0550,W,1,8,1.9,10,M,,M,,*53
06/11/2015	10:02:21.579	$GPGGA,100222,2420.5182,N,08141.0535,W,1,7,1.9,10,M,,M,,*58
06/11/2015	10:02:22.499	$GPGGA,100223,2420.5186,N,08141.0517,W,1,7,1.7,10,M,,M,,*53
06/11/2015	10:02:23.509	$GPGGA,100224,2420.5189,N,08141.0500,W,1,7,1.9,10,M,,M,,*53
06/11/2015	10:02:24.579	$GPGGA,100225,2420.5192,N,08141.0483,W,1,7,1.9,10,M,,M,,*52
06/11/2015	10:02:25.489	$GPGGA,100226,2420.5195,N,08141.0465,W,1,7,1.9,10,M,,M,,*5E
06/11/2015	10:02:26.579	$GPGGA,100227,2420.5197,N,08141.0450,W,1,7,1.9,10,M,,M,,*5B
06/11/2015	10:02:27.619	$GPGGA,100228,2420.5197,N,08141.0436,W,1,8,1.7,10,M,,M,,*55
06/11/2015	10:02:28.481	$GPGGA,100229,2420.5201,N,08141.0417,W,1,8,1.7,10,M,,M,,*5B
06/11/2015	10:02:29.570	$GPGGA,100230,2420.5203,N,08141.0402,W,1,7,1.9,10,M,,M,,*54
06/11/2015	10:02:30.560	$GPGGA,100231,2420.5207,N,08141.0383,W,1,7,1.7,10,M,,M,,*51
06/11/2015	10:02:31.600	$GPGGA,100232,2420.5211,N,08141.0365,W,1,8,1.7,10,M,,M,,*52
06/11/2015	10:02:32.570	$GPGGA,100233,2420.5215,N,08141.0347,W,1,8,1.7,10,M,,M,,*57
06/11/2015	10:02:33.550	$GPGGA,100234,2420.5219,N,08141.0330,W,1,7,1.9,10,M,,M,,*5D
06/11/2015	10:02:34.570	$GPGGA,100235,2420.5226,N,08141.0310,W,1,7,1.9,10,M,,M,,*52
06/11/2015	10:02:35.590	$GPGGA,100236,2420.5230,N,08141.0293,W,1,8,1.7,10,M,,M,,*5D
06/11/2015	10:02:36.559	$GPGGA,100237,2420.5233,N,08141.0276,W,1,8,1.7,10,M,,M,,*54
06/11/2015	10:02:37.559	$GPGGA,100238,2420.5237,N,08141.0259,W,1,8,1.7,10,M,,M,,*52
06/11/2015	10:02:38.559	$GPGGA,100239,2420.5240,N,08141.0243,W,1,8,1.7,10,M,,M,,*58
06/11/2015	10:02:39.589	$GPGGA,100240,2420.5242,N,08141.0228,W,1,8,1.7,10,M,,M,,*59
06/11/2015	10:02:40.559	$GPGGA,100241,2420.5246,N,08141.0212,W,1,8,1.7,10,M,,M,,*55
06/11/2015	10:02:41.569	$GPGGA,100242,2420.5250,N,08141.0195,W,1,8,1.7,10,M,,M,,*5D
06/11/2015	10:02:42.549	$GPGGA,100243,2420.5251,N,08141.0180,W,1,8,1.7,10,M,,M,,*59
06/11/2015	10:02:43.559	$GPGGA,100244,2420.5254,N,08141.0163,W,1,8,1.7,10,M,,M,,*56
06/11/2015	10:02:44.549	$GPGGA,100245,2420.5258,N,08141.0146,W,1,8,1.7,10,M,,M,,*5C
06/11/2015	10:02:45.570	$GPGGA,100246,2420.5262,N,08141.0130,W,1,8,1.7,10,M,,M,,*57
06/11/2015	10:02:46.540	$GPGGA,100247,2420.5266,N,08141.0114,W,1,8,1.7,10,M,,M,,*54
06/11/2015	10:02:47.590	$GPGGA,100248,2420.5269,N,08141.0097,W,1,8,1.7,10,M,,M,,*5E
06/11/2015	10:02:48.540	$GPGGA,100249,2420.5273,N,08141.0081,W,1,8,1.7,10,M,,M,,*53
06/11/2015	10:02:49.560	$GPGGA,100250,2420.5277,N,08141.0064,W,1,8,1.7,10,M,,M,,*54
06/11/2015	10:02:50.524	$GPGGA,100251,2420.5280,N,08141.0048,W,1,8,1.7,10,M,,M,,*53
06/11/2015	10:02:51.540	$GPGGA,100252,2420.5284,N,08141.0031,W,1,8,1.7,10,M,,M,,*5A
06/11/2015	10:02:52.531	$GPGGA,100253,2420.5289,N,08141.0013,W,1,8,1.7,11,M,,M,,*57
06/11/2015	10:02:53.559	$GPGGA,100254,2420.5293,N,08140.9996,W,1,8,1.7,11,M,,M,,*57
06/11/2015	10:02:54.520	$GPGGA,100255,2420.5295,N,08140.9980,W,1,8,1.7,11,M,,M,,*57
06/11/2015	10:02:55.559	$GPGGA,100256,2420.5300,N,08140.9964,W,1,8,1.7,11,M,,M,,*53
06/11/2015	10:02:56.509	$GPGGA,100257,2420.5305,N,08140.9946,W,1,8,1.7,11,M,,M,,*57
06/11/2015	10:02:57.521	$GPGGA,100258,2420.5307,N,08140.9931,W,1,7,1.9,11,M,,M,,*5B
06/11/2015	10:02:58.520	$GPGGA,100259,2420.5309,N,08140.9915,W,1,7,1.7,11,M,,M,,*5C
06/11/2015	10:02:59.539	$GPGGA,100300,2420.5313,N,08140.9899,W,1,8,1.7,11,M,,M,,*50
06/11/2015	10:03:00.499	$GPGGA,100301,2420.5318,N,08140.9884,W,1,8,1.7,11,M,,M,,*56
06/11/2015	10:03:01.521	$GPGGA,100302,2420.5320,N,08140.9867,W,1,8,1.7,11,M,,M,,*53
06/11/2015	10:03:02.499	$GPGGA,100303,2420.5326,N,08140.9850,W,1,8,1.7,11,M,,M,,*50
06/11/2015	10:03:03.531	$GPGGA,100304,2420.5331,N,08140.9834,W,1,8,1.7,11,M,,M,,*53
06/11/2015	10:03:04.500	$GPGGA,100305,2420.5334,N,08140.9817,W,1,8,1.7,11,M,,M,,*56
06/11/2015	10:03:05.510	$GPGGA,100306,2420.5338,N,08140.9801,W,1,8,1.7,11,M,,M,,*5E
06/11/2015	10:03:06.510	$GPGGA,100307,2420.5345,N,08140.9784,W,1,8,1.7,11,M,,M,,*57
06/11/2015	10:03:07.520	$GPGGA,100308,2420.5349,N,08140.9766,W,1,8,1.7,11,M,,M,,*58
06/11/2015	10:03:08.580	$GPGGA,100309,2420.5352,N,08140.9750,W,1,8,1.7,11,M,,M,,*56
06/11/2015	10:03:09.480	$GPGGA,100310,2420.5359,N,08140.9733,W,1,8,1.7,11,M,,M,,*50
06/11/2015	10:03:10.500	$GPGGA,100311,2420.5363,N,08140.9718,W,1,8,1.7,11,M,,M,,*51
06/11/2015	10:03:11.619	$GPGGA,100312,2420.5367,N,08140.9699,W,1,8,1.7,11,M,,M,,*5E
06/11/2015	10:03:12.599	$GPGGA,100313,2420.5373,N,08140.9681,W,1,8,1.9,11,M,,M,,*5D
06/11/2015	10:03:13.489	$GPGGA,100314,2420.5378,N,08140.9666,W,1,7,1.9,11,M,,M,,*57
06/11/2015	10:03:14.589	$GPGGA,100315,2420.5381,N,08140.9650,W,1,7,1.7,11,M,,M,,*5B
06/11/2015	10:03:15.629	$GPGGA,100316,2420.5385,N,08140.9633,W,1,8,1.7,11,M,,M,,*56
06/11/2015	10:03:16.569	$GPGGA,100317,2420.5389,N,08140.9616,W,1,8,1.7,11,M,,M,,*5C
06/11/2015	10:03:17.579	$GPGGA,100318,2420.5392,N,08140.9604,W,1,7,1.9,11,M,,M,,*5B
06/11/2015	10:03:18.579	$GPGGA,100319,2420.5396,N,08140.9588,W,1,7,1.7,11,M,,M,,*57
06/11/2015	10:03:19.609	$GPGGA,100320,2420.5401,N,08140.9570,W,1,8,1.7,11,M,,M,,*5C
06/11/2015	10:03:20.560	$GPGGA,100321,2420.5405,N,08140.9552,W,1,8,1.7,11,M,,M,,*59
06/11/2015	10:03:21.580	$GPGGA,100322,2420.5407,N,08140.9538,W,1,7,1.9,11,M,,M,,*55
06/11/2015	10:03:22.570	$GPGGA,100323,2420.5412,N,08140.9521,W,1,7,1.9,11,M,,M,,*58
06/11/2015	10:03:23.610	$GPGGA,100324,2420.5417,N,08140.9504,W,1,7,1.9,11,M,,M,,*5D
06/11/2015	10:03:24.550	$GPGGA,100325,2420.5417,N,08140.9490,W,1,7,1.9,11,M,,M,,*50
06/11/2015	10:03:25.570	$GPGGA,100326,2420.5417,N,08140.9476,W,1,8,1.7,11,M,,M,,*5A
06/11/2015	10:03:26.610	$GPGGA,100327,2420.5419,N,08140.9461,W,1,8,1.7,11,M,,M,,*53
06/11/2015	10:03:27.590	$GPGGA,100328,2420.5423,N,08140.9445,W,1,8,1.7,11,M,,M,,*53
06/11/2015	10:03:28.539	$GPGGA,100329,2420.5424,N,08140.9430,W,1,8,1.7,11,M,,M,,*57
06/11/2015	10:03:29.539	$GPGGA,100330,2420.5424,N,08140.9414,W,1,8,1.7,11,M,,M,,*59
06/11/2015	10:03:30.549	$GPGGA,100331,2420.5427,N,08140.9398,W,1,8,1.7,11,M,,M,,*58
06/11/2015	10:03:31.589	$GPGGA,100332,2420.5430,N,08140.9383,W,1,8,1.7,11,M,,M,,*57
06/11/2015	10:03:32.549	$GPGGA,100333,2420.5431,N,08140.9367,W,1,8,1.7,11,M,,M,,*5D
06/11/2015	10:03:33.569	$GPGGA,100334,2420.5430,N,08140.9350,W,1,8,1.7,11,M,,M,,*5F
06/11/2015	10:03:35.589	$GPGGA,100336,2420.5435,N,08140.9319,W,1,8,1.7,11,M,,M,,*55
06/11/2015	10:03:36.539	$GPGGA,100337,2420.5434,N,08140.9302,W,1,8,1.7,11,M,,M,,*5F
06/11/2015	10:03:37.559	$GPGGA,100338,2420.5435,N,08140.9286,W,1,8,1.7,11,M,,M,,*5C
06/11/2015	10:03:38.521	$GPGGA,100339,2420.5438,N,08140.9270,W,1,8,1.7,11,M,,M,,*59
06/11/2015	10:03:39.540	$GPGGA,100340,2420.5437,N,08140.9253,W,1,8,1.7,11,M,,M,,*59
06/11/2015	10:03:40.530	$GPGGA,100341,2420.5436,N,08140.9237,W,1,8,1.7,11,M,,M,,*5B
06/11/2015	10:03:41.560	$GPGGA,100342,2420.5438,N,08140.9220,W,1,8,1.7,11,M,,M,,*50
06/11/2015	10:03:42.510	$GPGGA,100343,2420.5437,N,08140.9204,W,1,8,1.7,11,M,,M,,*58
06/11/2015	10:03:43.540	$GPGGA,100344,2420.5438,N,08140.9187,W,1,8,1.7,11,M,,M,,*58
06/11/2015	10:03:44.650	$GPGGA,100345,2420.5436,N,08140.9170,W,1,8,1.7,11,M,,M,,*5F
06/11/2015	10:03:45.960	$GPGGA,100346,2420.5435,N,08140.9155,W,1,8,1.7,11,M,,M,,*58
06/11/2015	10:03:46.509	$GPGGA,100347,2420.5434,N,08140.9138,W,1,8,1.7,11,M,,M,,*53
06/11/2015	10:03:47.531	$GPGGA,100348,2420.5433,N,08140.9122,W,1,8,1.7,11,M,,M,,*50
06/11/2015	10:03:48.529	$GPGGA,100349,2420.5432,N,08140.9105,W,1,8,1.7,11,M,,M,,*55
06/11/2015	10:03:49.689	$GPGGA,100350,2420.5430,N,08140.9088,W,1,8,1.7,11,M,,M,,*5B
06/11/2015	10:03:50.526	$GPGGA,100351,2420.5428,N,08140.9073,W,1,8,1.7,11,M,,M,,*57
06/11/2015	10:03:51.699	$GPGGA,100352,2420.5426,N,08140.9057,W,1,8,1.7,11,M,,M,,*5C
06/11/2015	10:03:52.527	$GPGGA,100353,2420.5425,N,08140.9040,W,1,8,1.7,11,M,,M,,*58
06/11/2015	10:03:53.521	$GPGGA,100354,2420.5423,N,08140.9024,W,1,8,1.7,11,M,,M,,*5B
06/11/2015	10:03:54.489	$GPGGA,100355,2420.5419,N,08140.9007,W,1,8,1.7,11,M,,M,,*52
06/11/2015	10:03:55.523	$GPGGA,100356,2420.5418,N,08140.8991,W,1,7,2.3,11,M,,M,,*5F
06/11/2015	10:03:56.590	$GPGGA,100357,2420.5416,N,08140.8975,W,1,7,1.7,11,M,,M,,*5D
06/11/2015	10:03:57.480	$GPGGA,100358,2420.5412,N,08140.8959,W,1,8,1.7,11,M,,M,,*57
06/11/2015	10:03:58.580	$GPGGA,100359,2420.5410,N,08140.8942,W,1,8,2.3,11,M,,M,,*59
06/11/2015	10:03:59.500	$GPGGA,100400,2420.5406,N,08140.8928,W,1,6,2.7,11,M,,M,,*53
06/11/2015	10:04:00.490	$GPGGA,100401,2420.5401,N,08140.8914,W,1,6,1.7,11,M,,M,,*59
06/11/2015	10:04:02.060	$GPGGA,100402,2420.5397,N,08140.8898,W,1,7,1.9,11,M,,M,,*58
06/11/2015	10:04:02.600	$GPGGA,100403,2420.5392,N,08140.8884,W,1,7,1.7,11,M,,M,,*5F
06/11/2015	10:04:03.489	$GPGGA,100404,2420.5386,N,08140.8867,W,1,8,1.7,11,M,,M,,*5F
06/11/2015	10:04:04.569	$GPGGA,100405,2420.5381,N,08140.8852,W,1,8,2.3,11,M,,M,,*58
06/11/2015	10:04:05.569	$GPGGA,100406,2420.5376,N,08140.8839,W,1,8,1.7,11,M,,M,,*59
06/11/2015	10:04:06.569	$GPGGA,100407,2420.5371,N,08140.8825,W,1,8,1.7,11,M,,M,,*52
06/11/2015	10:04:07.679	$GPGGA,100408,2420.5365,N,08140.8808,W,1,8,1.7,11,M,,M,,*57
06/11/2015	10:04:08.599	$GPGGA,100409,2420.5360,N,08140.8791,W,1,8,3.0,11,M,,M,,*59
06/11/2015	10:04:09.649	$GPGGA,100410,2420.5356,N,08140.8777,W,1,6,1.7,11,M,,M,,*57
06/11/2015	10:04:10.589	$GPGGA,100411,2420.5350,N,08140.8761,W,1,6,1.7,11,M,,M,,*57
06/11/2015	10:04:11.659	$GPGGA,100412,2420.5346,N,08140.8744,W,1,8,1.7,11,M,,M,,*5A
06/11/2015	10:04:12.589	$GPGGA,100413,2420.5341,N,08140.8727,W,1,8,1.7,11,M,,M,,*59
06/11/2015	10:04:13.610	$GPGGA,100414,2420.5334,N,08140.8712,W,1,8,1.7,12,M,,M,,*59
06/11/2015	10:04:14.550	$GPGGA,100415,2420.5327,N,08140.8697,W,1,8,1.7,12,M,,M,,*56
06/11/2015	10:04:15.640	$GPGGA,100416,2420.5320,N,08140.8682,W,1,7,1.9,12,M,,M,,*57
06/11/2015	10:04:16.580	$GPGGA,100417,2420.5313,N,08140.8666,W,1,7,1.9,12,M,,M,,*5C
06/11/2015	10:04:17.650	$GPGGA,100418,2420.5303,N,08140.8652,W,1,8,1.7,13,M,,M,,*55
06/11/2015	10:04:18.570	$GPGGA,100419,2420.5298,N,08140.8638,W,1,8,1.7,13,M,,M,,*5B
06/11/2015	10:04:19.660	$GPGGA,100420,2420.5292,N,08140.8621,W,1,7,1.8,13,M,,M,,*53
06/11/2015	10:04:20.539	$GPGGA,100421,2420.5285,N,08140.8608,W,1,7,1.7,13,M,,M,,*50
06/11/2015	10:04:21.623	$GPGGA,100422,2420.5276,N,08140.8595,W,1,8,1.7,13,M,,M,,*57
06/11/2015	10:04:22.569	$GPGGA,100423,2420.5270,N,08140.8581,W,1,8,1.7,13,M,,M,,*55
06/11/2015	10:04:23.609	$GPGGA,100424,2420.5263,N,08140.8567,W,1,8,1.7,14,M,,M,,*5F
06/11/2015	10:04:24.569	$GPGGA,100425,2420.5255,N,08140.8554,W,1,8,1.7,14,M,,M,,*5B
06/11/2015	10:04:25.599	$GPGGA,100426,2420.5248,N,08140.8539,W,1,8,1.7,14,M,,M,,*5F
06/11/2015	10:04:26.559	$GPGGA,100427,2420.5241,N,08140.8524,W,1,8,1.7,14,M,,M,,*5B
06/11/2015	10:04:27.649	$GPGGA,100428,2420.5233,N,08140.8513,W,1,8,1.7,14,M,,M,,*55
06/11/2015	10:04:28.559	$GPGGA,100429,2420.5223,N,08140.8501,W,1,8,1.7,14,M,,M,,*56
06/11/2015	10:04:29.633	$GPGGA,100430,2420.5216,N,08140.8484,W,1,8,1.7,14,M,,M,,*54
06/11/2015	10:04:30.510	$GPGGA,100431,2420.5208,N,08140.8472,W,1,8,1.7,15,M,,M,,*52
06/11/2015	10:04:31.610	$GPGGA,100432,2420.5199,N,08140.8464,W,1,7,1.7,15,M,,M,,*52
06/11/2015	10:04:32.635	$GPGGA,100433,2420.5190,N,08140.8451,W,1,7,1.7,15,M,,M,,*5C
06/11/2015	10:04:33.610	$GPGGA,100434,2420.5183,N,08140.8437,W,1,8,1.7,15,M,,M,,*56
06/11/2015	10:04:34.634	$GPGGA,100435,2420.5174,N,08140.8426,W,1,8,1.7,15,M,,M,,*5F
06/11/2015	10:04:35.570	$GPGGA,100436,2420.5163,N,08140.8416,W,1,8,1.9,15,M,,M,,*57
06/11/2015	10:04:36.540	$GPGGA,100437,2420.5156,N,08140.8403,W,1,8,1.7,15,M,,M,,*5A
06/11/2015	10:04:37.623	$GPGGA,100438,2420.5148,N,08140.8389,W,1,8,1.8,14,M,,M,,*51
06/11/2015	10:04:38.549	$GPGGA,100439,2420.5139,N,08140.8375,W,1,8,1.7,14,M,,M,,*5A
06/11/2015	10:04:39.649	$GPGGA,100440,2420.5129,N,08140.8363,W,1,8,1.7,14,M,,M,,*52
06/11/2015	10:04:40.532	$GPGGA,100441,2420.5121,N,08140.8349,W,1,8,1.7,14,M,,M,,*53
06/11/2015	10:04:41.489	$GPGGA,100442,2420.5110,N,08140.8336,W,1,8,1.7,14,M,,M,,*5A
06/11/2015	10:04:42.530	$GPGGA,100443,2420.5101,N,08140.8325,W,1,8,1.7,14,M,,M,,*59
06/11/2015	10:04:43.649	$GPGGA,100444,2420.5092,N,08140.8311,W,1,8,1.7,14,M,,M,,*52
06/11/2015	10:04:44.589	$GPGGA,100445,2420.5082,N,08140.8298,W,1,8,2.3,14,M,,M,,*55
06/11/2015	10:04:45.589	$GPGGA,100446,2420.5072,N,08140.8285,W,1,7,1.7,14,M,,M,,*5D
06/11/2015	10:04:46.519	$GPGGA,100447,2420.5061,N,08140.8274,W,1,7,1.7,14,M,,M,,*50
06/11/2015	10:04:47.609	$GPGGA,100448,2420.5051,N,08140.8263,W,1,8,1.7,14,M,,M,,*55
06/11/2015	10:04:48.580	$GPGGA,100449,2420.5042,N,08140.8252,W,1,8,1.7,14,M,,M,,*54
06/11/2015	10:04:49.610	$GPGGA,100450,2420.5031,N,08140.8241,W,1,8,1.7,14,M,,M,,*5A
06/11/2015	10:04:50.590	$GPGGA,100451,2420.5021,N,08140.8230,W,1,8,1.7,14,M,,M,,*5C
06/11/2015	10:04:51.640	$GPGGA,100452,2420.5010,N,08140.8220,W,1,8,1.7,14,M,,M,,*5C
06/11/2015	10:04:52.580	$GPGGA,100453,2420.5000,N,08140.8210,W,1,8,1.7,14,M,,M,,*5F
06/11/2015	10:04:53.610	$GPGGA,100454,2420.4991,N,08140.8198,W,1,8,1.7,14,M,,M,,*5B
06/11/2015	10:04:54.570	$GPGGA,100455,2420.4980,N,08140.8187,W,1,8,1.8,14,M,,M,,*5B
06/11/2015	10:04:55.599	$GPGGA,100456,2420.4968,N,08140.8176,W,1,7,1.7,14,M,,M,,*50
06/11/2015	10:04:56.569	$GPGGA,100457,2420.4958,N,08140.8165,W,1,7,1.7,14,M,,M,,*50
06/11/2015	10:04:57.631	$GPGGA,100458,2420.4948,N,08140.8153,W,1,8,1.7,14,M,,M,,*54
06/11/2015	10:04:59.639	$GPGGA,100500,2420.4926,N,08140.8132,W,1,8,1.7,14,M,,M,,*57
06/11/2015	10:05:00.549	$GPGGA,100501,2420.4915,N,08140.8120,W,1,8,1.8,14,M,,M,,*5A
06/11/2015	10:05:01.611	$GPGGA,100502,2420.4903,N,08140.8109,W,1,7,1.7,14,M,,M,,*55
06/11/2015	10:05:02.549	$GPGGA,100503,2420.4903,N,08140.8109,W,1,7,1.7,14,M,,M,,*54
06/11/2015	10:05:03.649	$GPGGA,100504,2420.4883,N,08140.8088,W,1,8,1.7,14,M,,M,,*5D
06/11/2015	10:05:04.539	$GPGGA,100505,2420.4872,N,08140.8076,W,1,8,1.7,14,M,,M,,*53
06/11/2015	10:05:05.559	$GPGGA,100506,2420.4872,N,08140.8076,W,1,8,1.7,14,M,,M,,*50
06/11/2015	10:05:06.559	$GPGGA,100507,2420.4850,N,08140.8055,W,1,8,1.7,14,M,,M,,*50
06/11/2015	10:05:07.569	$GPGGA,100508,2420.4850,N,08140.8055,W,1,8,1.7,14,M,,M,,*5F
06/11/2015	10:05:08.529	$GPGGA,100509,2420.4827,N,08140.8035,W,1,8,1.7,14,M,,M,,*58
06/11/2015	10:05:09.579	$GPGGA,100510,2420.4818,N,08140.8025,W,1,8,1.7,14,M,,M,,*5D
06/11/2015	10:05:10.549	$GPGGA,100511,2420.4807,N,08140.8013,W,1,8,1.7,14,M,,M,,*57
06/11/2015	10:05:11.589	$GPGGA,100512,2420.4794,N,08140.8005,W,1,8,1.7,14,M,,M,,*56
06/11/2015	10:05:12.539	$GPGGA,100513,2420.4794,N,08140.8005,W,1,8,1.7,14,M,,M,,*57
06/11/2015	10:05:13.568	$GPGGA,100514,2420.4772,N,08140.7982,W,1,8,1.7,14,M,,M,,*51
06/11/2015	10:05:14.528	$GPGGA,100515,2420.4761,N,08140.7972,W,1,8,1.7,14,M,,M,,*5D
06/11/2015	10:05:15.579	$GPGGA,100516,2420.4750,N,08140.7962,W,1,8,1.7,14,M,,M,,*5D
06/11/2015	10:05:16.523	$GPGGA,100517,2420.4738,N,08140.7953,W,1,8,1.7,14,M,,M,,*50
06/11/2015	10:05:17.520	$GPGGA,100518,2420.4738,N,08140.7953,W,1,8,1.7,14,M,,M,,*5F
06/11/2015	10:05:18.539	$GPGGA,100519,2420.4718,N,08140.7929,W,1,8,1.7,14,M,,M,,*51
06/11/2015	10:05:19.539	$GPGGA,100520,2420.4718,N,08140.7929,W,1,8,1.7,14,M,,M,,*5B
06/11/2015	10:05:20.522	$GPGGA,100521,2420.4695,N,08140.7910,W,1,8,1.7,14,M,,M,,*54
06/11/2015	10:05:21.559	$GPGGA,100522,2420.4685,N,08140.7898,W,1,8,1.7,14,M,,M,,*57
06/11/2015	10:05:22.529	$GPGGA,100523,2420.4673,N,08140.7888,W,1,8,1.7,14,M,,M,,*5E
06/11/2015	10:05:23.529	$GPGGA,100524,2420.4673,N,08140.7888,W,1,8,1.7,14,M,,M,,*59
06/11/2015	10:05:24.499	$GPGGA,100525,2420.4661,N,08140.7877,W,1,8,1.7,14,M,,M,,*5B
06/11/2015	10:05:25.529	$GPGGA,100526,2420.4641,N,08140.7856,W,1,8,1.7,14,M,,M,,*59
06/11/2015	10:05:26.589	$GPGGA,100527,2420.4630,N,08140.7846,W,1,8,1.7,14,M,,M,,*5F
06/11/2015	10:05:28.079	$GPGGA,100528,2420.4617,N,08140.7834,W,1,8,1.7,14,M,,M,,*50
06/11/2015	10:05:28.499	$GPGGA,100529,2420.4606,N,08140.7824,W,1,8,1.7,14,M,,M,,*50
06/11/2015	10:05:29.499	$GPGGA,100530,2420.4606,N,08140.7824,W,1,8,1.7,14,M,,M,,*58
06/11/2015	10:05:30.578	$GPGGA,100531,2420.4584,N,08140.7803,W,1,8,1.7,14,M,,M,,*55
06/11/2015	10:05:31.528	$GPGGA,100532,2420.4572,N,08140.7794,W,1,8,1.7,14,M,,M,,*5E
06/11/2015	10:05:32.578	$GPGGA,100533,2420.4562,N,08140.7785,W,1,8,1.7,14,M,,M,,*5E
06/11/2015	10:05:33.579	$GPGGA,100534,2420.4551,N,08140.7773,W,1,8,1.7,14,M,,M,,*50
06/11/2015	10:05:34.569	$GPGGA,100535,2420.4539,N,08140.7762,W,1,8,1.7,14,M,,M,,*5F
06/11/2015	10:05:35.499	$GPGGA,100536,2420.4529,N,08140.7754,W,1,8,1.7,14,M,,M,,*58
06/11/2015	10:05:36.479	$GPGGA,100537,2420.4518,N,08140.7745,W,1,8,1.7,14,M,,M,,*5B
06/11/2015	10:05:37.599	$GPGGA,100538,2420.4508,N,08140.7733,W,1,7,1.9,14,M,,M,,*55
06/11/2015	10:05:38.569	$GPGGA,100539,2420.4497,N,08140.7723,W,1,7,1.7,14,M,,M,,*5C
06/11/2015	10:05:39.579	$GPGGA,100540,2420.4487,N,08140.7713,W,1,8,1.7,14,M,,M,,*5F
06/11/2015	10:05:40.569	$GPGGA,100541,2420.4476,N,08140.7704,W,1,8,1.7,14,M,,M,,*56
06/11/2015	10:05:41.579	$GPGGA,100542,2420.4464,N,08140.7695,W,1,8,1.7,14,M,,M,,*5F
06/11/2015	10:05:42.559	$GPGGA,100543,2420.4453,N,08140.7686,W,1,8,1.7,14,M,,M,,*58
06/11/2015	10:05:43.589	$GPGGA,100544,2420.4442,N,08140.7677,W,1,8,1.7,14,M,,M,,*51
06/11/2015	10:05:44.549	$GPGGA,100545,2420.4431,N,08140.7668,W,1,8,1.7,14,M,,M,,*5A
06/11/2015	10:05:45.559	$GPGGA,100546,2420.4419,N,08140.7659,W,1,8,1.7,14,M,,M,,*51
06/11/2015	10:05:46.559	$GPGGA,100547,2420.4408,N,08140.7650,W,1,8,1.7,14,M,,M,,*59
06/11/2015	10:05:47.589	$GPGGA,100548,2420.4396,N,08140.7641,W,1,8,1.7,14,M,,M,,*56
06/11/2015	10:05:48.548	$GPGGA,100549,2420.4385,N,08140.7632,W,1,8,1.7,14,M,,M,,*51
06/11/2015	10:05:49.568	$GPGGA,100550,2420.4373,N,08140.7623,W,1,8,1.7,14,M,,M,,*50
06/11/2015	10:05:50.559	$GPGGA,100551,2420.4363,N,08140.7615,W,1,8,1.7,14,M,,M,,*55
06/11/2015	10:05:51.579	$GPGGA,100552,2420.4352,N,08140.7605,W,1,8,1.7,14,M,,M,,*55
06/11/2015	10:05:52.549	$GPGGA,100553,2420.4341,N,08140.7596,W,1,8,1.7,14,M,,M,,*5F
06/11/2015	10:05:53.559	$GPGGA,100554,2420.4328,N,08140.7589,W,1,8,1.7,14,M,,M,,*59
06/11/2015	10:05:54.539	$GPGGA,100555,2420.4316,N,08140.7580,W,1,8,1.7,14,M,,M,,*5C
06/11/2015	10:05:55.569	$GPGGA,100556,2420.4305,N,08140.7570,W,1,8,1.7,14,M,,M,,*52
06/11/2015	10:05:56.529	$GPGGA,100557,2420.4294,N,08140.7561,W,1,8,1.7,14,M,,M,,*5A
06/11/2015	10:05:57.559	$GPGGA,100558,2420.4283,N,08140.7554,W,1,8,1.7,14,M,,M,,*55
06/11/2015	10:05:58.529	$GPGGA,100559,2420.4270,N,08140.7546,W,1,8,1.7,14,M,,M,,*5B
06/11/2015	10:05:59.569	$GPGGA,100600,2420.4259,N,08140.7536,W,1,8,1.7,14,M,,M,,*58
06/11/2015	10:06:00.529	$GPGGA,100601,2420.4248,N,08140.7527,W,1,8,1.8,14,M,,M,,*56
06/11/2015	10:06:01.559	$GPGGA,100602,2420.4236,N,08140.7521,W,1,7,1.7,14,M,,M,,*5A
06/11/2015	10:06:02.539	$GPGGA,100603,2420.4225,N,08140.7514,W,1,7,1.7,14,M,,M,,*5F
06/11/2015	10:06:03.569	$GPGGA,100604,2420.4214,N,08140.7505,W,1,8,1.7,14,M,,M,,*55
06/11/2015	10:06:04.529	$GPGGA,100605,2420.4203,N,08140.7497,W,1,8,1.7,14,M,,M,,*58
06/11/2015	10:06:05.648	$GPGGA,100606,2420.4191,N,08140.7491,W,1,7,1.8,14,M,,M,,*55
06/11/2015	10:06:06.511	$GPGGA,100607,2420.4179,N,08140.7483,W,1,7,1.7,14,M,,M,,*5E
06/11/2015	10:06:07.558	$GPGGA,100608,2420.4167,N,08140.7476,W,1,8,1.7,14,M,,M,,*5B
06/11/2015	10:06:08.519	$GPGGA,100609,2420.4156,N,08140.7468,W,1,8,1.7,14,M,,M,,*57
06/11/2015	10:06:09.499	$GPGGA,100610,2420.4146,N,08140.7460,W,1,8,1.7,14,M,,M,,*56
06/11/2015	10:06:10.499	$GPGGA,100611,2420.4132,N,08140.7452,W,1,8,1.7,14,M,,M,,*55
06/11/2015	10:06:11.529	$GPGGA,100612,2420.4121,N,08140.7446,W,1,8,1.7,14,M,,M,,*51
06/11/2015	10:06:12.589	$GPGGA,100613,2420.4109,N,08140.7437,W,1,8,1.7,14,M,,M,,*5C
06/11/2015	10:06:13.489	$GPGGA,100614,2420.4097,N,08140.7431,W,1,8,1.7,14,M,,M,,*5B
06/11/2015	10:06:14.599	$GPGGA,100615,2420.4085,N,08140.7424,W,1,8,1.7,14,M,,M,,*5D
06/11/2015	10:06:15.639	$GPGGA,100616,2420.4073,N,08140.7415,W,1,8,1.7,14,M,,M,,*55
06/11/2015	10:06:16.513	$GPGGA,100617,2420.4063,N,08140.7410,W,1,8,1.7,14,M,,M,,*50
06/11/2015	10:06:17.614	$GPGGA,100618,2420.4050,N,08140.7404,W,1,8,1.7,14,M,,M,,*5A
06/11/2015	10:06:18.499	$GPGGA,100619,2420.4038,N,08140.7394,W,1,8,1.7,14,M,,M,,*5B
06/11/2015	10:06:19.519	$GPGGA,100620,2420.4027,N,08140.7387,W,1,8,1.7,14,M,,M,,*5D
06/11/2015	10:06:20.499	$GPGGA,100621,2420.4014,N,08140.7383,W,1,8,1.7,14,M,,M,,*58
06/11/2015	10:06:21.579	$GPGGA,100622,2420.4002,N,08140.7377,W,1,8,1.7,14,M,,M,,*57
06/11/2015	10:06:22.489	$GPGGA,100623,2420.3991,N,08140.7369,W,1,8,1.7,14,M,,M,,*5D
06/11/2015	10:06:23.588	$GPGGA,100624,2420.3980,N,08140.7363,W,1,8,1.7,14,M,,M,,*50
06/11/2015	10:06:24.578	$GPGGA,100625,2420.3967,N,08140.7358,W,1,8,1.7,14,M,,M,,*50
06/11/2015	10:06:25.599	$GPGGA,100626,2420.3956,N,08140.7353,W,1,8,1.7,14,M,,M,,*5A
06/11/2015	10:06:26.569	$GPGGA,100627,2420.3945,N,08140.7346,W,1,8,1.7,14,M,,M,,*5D
06/11/2015	10:06:27.579	$GPGGA,100628,2420.3933,N,08140.7339,W,1,8,1.7,14,M,,M,,*5B
06/11/2015	10:06:28.559	$GPGGA,100629,2420.3922,N,08140.7336,W,1,8,1.7,14,M,,M,,*55
06/11/2015	10:06:29.589	$GPGGA,100630,2420.3911,N,08140.7330,W,1,8,1.7,14,M,,M,,*5B
06/11/2015	10:06:30.559	$GPGGA,100631,2420.3900,N,08140.7323,W,1,8,1.7,14,M,,M,,*58
06/11/2015	10:06:31.610	$GPGGA,100632,2420.3887,N,08140.7320,W,1,8,1.7,13,M,,M,,*51
06/11/2015	10:06:32.549	$GPGGA,100633,2420.3877,N,08140.7316,W,1,8,1.7,13,M,,M,,*5A
06/11/2015	10:06:33.569	$GPGGA,100634,2420.3865,N,08140.7309,W,1,8,1.7,13,M,,M,,*50
06/11/2015	10:06:34.569	$GPGGA,100635,2420.3853,N,08140.7305,W,1,8,1.7,13,M,,M,,*58
06/11/2015	10:06:35.569	$GPGGA,100636,2420.3844,N,08140.7301,W,1,7,1.7,13,M,,M,,*56
06/11/2015	10:06:36.559	$GPGGA,100637,2420.3832,N,08140.7295,W,1,7,1.7,13,M,,M,,*5A
06/11/2015	10:06:37.570	$GPGGA,100638,2420.3820,N,08140.7293,W,1,7,1.7,13,M,,M,,*50
06/11/2015	10:06:38.539	$GPGGA,100639,2420.3810,N,08140.7289,W,1,7,1.7,13,M,,M,,*59
06/11/2015	10:06:39.579	$GPGGA,100640,2420.3799,N,08140.7282,W,1,8,1.7,13,M,,M,,*5D
06/11/2015	10:06:40.538	$GPGGA,100641,2420.3788,N,08140.7278,W,1,8,1.7,13,M,,M,,*59
06/11/2015	10:06:41.538	$GPGGA,100642,2420.3777,N,08140.7277,W,1,8,1.7,13,M,,M,,*55
06/11/2015	10:06:42.538	$GPGGA,100643,2420.3766,N,08140.7272,W,1,8,1.7,13,M,,M,,*51
06/11/2015	10:06:43.580	$GPGGA,100644,2420.3753,N,08140.7267,W,1,8,1.7,13,M,,M,,*54
06/11/2015	10:06:44.539	$GPGGA,100645,2420.3743,N,08140.7262,W,1,8,1.7,13,M,,M,,*51
06/11/2015	10:06:45.960	$GPGGA,100646,2420.3732,N,08140.7260,W,1,8,1.7,13,M,,M,,*56
06/11/2015	10:06:46.529	$GPGGA,100647,2420.3720,N,08140.7258,W,1,8,1.7,13,M,,M,,*5F
06/11/2015	10:06:47.529	$GPGGA,100648,2420.3710,N,08140.7254,W,1,8,1.7,13,M,,M,,*5F
06/11/2015	10:06:48.529	$GPGGA,100649,2420.3698,N,08140.7250,W,1,8,1.7,13,M,,M,,*5B
06/11/2015	10:06:49.539	$GPGGA,100650,2420.3687,N,08140.7247,W,1,8,1.7,13,M,,M,,*5B
06/11/2015	10:06:50.529	$GPGGA,100651,2420.3676,N,08140.7245,W,1,8,1.7,13,M,,M,,*56
06/11/2015	10:06:51.549	$GPGGA,100652,2420.3665,N,08140.7241,W,1,8,1.7,13,M,,M,,*53
06/11/2015	10:06:52.529	$GPGGA,100653,2420.3653,N,08140.7238,W,1,8,1.7,12,M,,M,,*58
06/11/2015	10:06:53.624	$GPGGA,100654,2420.3642,N,08140.7236,W,1,8,1.7,12,M,,M,,*51
06/11/2015	10:06:54.617	$GPGGA,100655,2420.3630,N,08140.7233,W,1,8,1.7,12,M,,M,,*50
06/11/2015	10:06:55.549	$GPGGA,100656,2420.3618,N,08140.7230,W,1,8,1.7,12,M,,M,,*5A
06/11/2015	10:06:56.529	$GPGGA,100657,2420.3607,N,08140.7228,W,1,8,1.7,12,M,,M,,*5C
06/11/2015	10:06:57.519	$GPGGA,100658,2420.3594,N,08140.7227,W,1,7,1.9,12,M,,M,,*54
06/11/2015	10:06:58.498	$GPGGA,100659,2420.3582,N,08140.7224,W,1,7,1.7,12,M,,M,,*5F
06/11/2015	10:06:59.538	$GPGGA,100700,2420.3569,N,08140.7223,W,1,7,1.7,12,M,,M,,*50
06/11/2015	10:07:00.499	$GPGGA,100701,2420.3557,N,08140.7221,W,1,7,1.7,12,M,,M,,*5E
06/11/2015	10:07:01.499	$GPGGA,100702,2420.3543,N,08140.7219,W,1,7,1.7,12,M,,M,,*53
06/11/2015	10:07:03.041	$GPGGA,100703,2420.3532,N,08140.7217,W,1,7,1.7,12,M,,M,,*5A
06/11/2015	10:07:03.509	$GPGGA,100704,2420.3521,N,08140.7218,W,1,8,1.7,12,M,,M,,*5F
06/11/2015	10:07:04.589	$GPGGA,100705,2420.3510,N,08140.7215,W,1,8,1.7,12,M,,M,,*51
06/11/2015	10:07:05.612	$GPGGA,100706,2420.3496,N,08140.7213,W,1,7,1.7,12,M,,M,,*54
06/11/2015	10:07:06.499	$GPGGA,100707,2420.3484,N,08140.7210,W,1,7,1.7,12,M,,M,,*55
06/11/2015	10:07:07.519	$GPGGA,100708,2420.3474,N,08140.7209,W,1,8,1.7,12,M,,M,,*52
06/11/2015	10:07:08.599	$GPGGA,100709,2420.3461,N,08140.7209,W,1,8,1.7,12,M,,M,,*57
06/11/2015	10:07:09.589	$GPGGA,100710,2420.3449,N,08140.7206,W,1,8,1.7,12,M,,M,,*5A
06/11/2015	10:07:10.489	$GPGGA,100711,2420.3438,N,08140.7202,W,1,8,1.7,12,M,,M,,*59
06/11/2015	10:07:11.489	$GPGGA,100712,2420.3425,N,08140.7201,W,1,8,1.7,12,M,,M,,*55
06/11/2015	10:07:12.579	$GPGGA,100713,2420.3413,N,08140.7201,W,1,8,1.7,12,M,,M,,*51
06/11/2015	10:07:13.569	$GPGGA,100714,2420.3401,N,08140.7197,W,1,7,1.7,12,M,,M,,*56
06/11/2015	10:07:14.839	$GPGGA,100715,2420.3389,N,08140.7194,W,1,7,1.7,12,M,,M,,*53
06/11/2015	10:07:15.598	$GPGGA,100716,2420.3380,N,08140.7196,W,1,8,1.7,12,M,,M,,*54
06/11/2015	10:07:16.558	$GPGGA,100717,2420.3367,N,08140.7194,W,1,8,1.7,12,M,,M,,*5E
06/11/2015	10:07:17.578	$GPGGA,100718,2420.3355,N,08140.7191,W,1,8,1.7,12,M,,M,,*55
06/11/2015	10:07:18.569	$GPGGA,100719,2420.3344,N,08140.7189,W,1,8,1.7,12,M,,M,,*5D
06/11/2015	10:07:19.589	$GPGGA,100720,2420.3333,N,08140.7190,W,1,7,1.7,12,M,,M,,*50
06/11/2015	10:07:20.569	$GPGGA,100721,2420.3320,N,08140.7187,W,1,7,1.7,12,M,,M,,*55
06/11/2015	10:07:21.559	$GPGGA,100722,2420.3309,N,08140.7184,W,1,7,1.7,12,M,,M,,*5E
06/11/2015	10:07:22.549	$GPGGA,100723,2420.3297,N,08140.7184,W,1,7,1.7,12,M,,M,,*59
06/11/2015	10:07:23.589	$GPGGA,100724,2420.3286,N,08140.7184,W,1,7,1.7,12,M,,M,,*5E
06/11/2015	10:07:24.549	$GPGGA,100725,2420.3273,N,08140.7182,W,1,7,1.7,12,M,,M,,*53
06/11/2015	10:07:25.539	$GPGGA,100726,2420.3262,N,08140.7181,W,1,7,1.7,12,M,,M,,*53
06/11/2015	10:07:26.559	$GPGGA,100727,2420.3250,N,08140.7180,W,1,7,1.7,12,M,,M,,*52
06/11/2015	10:07:27.589	$GPGGA,100728,2420.3237,N,08140.7180,W,1,8,1.7,12,M,,M,,*53
06/11/2015	10:07:28.549	$GPGGA,100729,2420.3225,N,08140.7178,W,1,8,1.7,12,M,,M,,*56
06/11/2015	10:07:29.529	$GPGGA,100730,2420.3214,N,08140.7176,W,1,8,1.7,12,M,,M,,*52
06/11/2015	10:07:30.539	$GPGGA,100731,2420.3203,N,08140.7178,W,1,8,1.7,12,M,,M,,*5B
06/11/2015	10:07:31.539	$GPGGA,100732,2420.3192,N,08140.7177,W,1,8,1.7,12,M,,M,,*5C
06/11/2015	10:07:32.539	$GPGGA,100733,2420.3179,N,08140.7175,W,1,8,1.7,12,M,,M,,*5A
06/11/2015	10:07:33.558	$GPGGA,100734,2420.3167,N,08140.7174,W,1,8,1.7,12,M,,M,,*53
06/11/2015	10:07:34.528	$GPGGA,100735,2420.3157,N,08140.7173,W,1,8,1.7,12,M,,M,,*56
06/11/2015	10:07:35.529	$GPGGA,100736,2420.3146,N,08140.7175,W,1,7,1.7,12,M,,M,,*5C
06/11/2015	10:07:36.539	$GPGGA,100737,2420.3134,N,08140.7173,W,1,7,1.7,12,M,,M,,*5E
06/11/2015	10:07:37.559	$GPGGA,100738,2420.3122,N,08140.7171,W,1,7,1.7,12,M,,M,,*54
06/11/2015	10:07:38.529	$GPGGA,100739,2420.3110,N,08140.7172,W,1,7,1.7,12,M,,M,,*57
06/11/2015	10:07:39.559	$GPGGA,100740,2420.3102,N,08140.7173,W,1,7,1.7,12,M,,M,,*5B
06/11/2015	10:07:40.529	$GPGGA,100741,2420.3091,N,08140.7172,W,1,7,1.7,12,M,,M,,*50
06/11/2015	10:07:41.509	$GPGGA,100742,2420.3080,N,08140.7172,W,1,8,1.7,12,M,,M,,*5C
06/11/2015	10:07:42.519	$GPGGA,100743,2420.3069,N,08140.7172,W,1,8,1.7,12,M,,M,,*5A
06/11/2015	10:07:43.519	$GPGGA,100744,2420.3058,N,08140.7171,W,1,8,1.7,12,M,,M,,*5C
06/11/2015	10:07:44.619	$GPGGA,100745,2420.3046,N,08140.7170,W,1,8,1.7,12,M,,M,,*53
06/11/2015	10:07:45.499	$GPGGA,100746,2420.3036,N,08140.7171,W,1,8,1.7,12,M,,M,,*56
06/11/2015	10:07:46.869	$GPGGA,100747,2420.3026,N,08140.7171,W,1,8,1.7,12,M,,M,,*56
06/11/2015	10:07:47.549	$GPGGA,100748,2420.3015,N,08140.7169,W,1,7,1.7,12,M,,M,,*5F
06/11/2015	10:07:48.499	$GPGGA,100749,2420.3004,N,08140.7168,W,1,7,1.7,12,M,,M,,*5F
06/11/2015	10:07:49.499	$GPGGA,100750,2420.2991,N,08140.7169,W,1,8,1.7,12,M,,M,,*5D
06/11/2015	10:07:50.488	$GPGGA,100751,2420.2981,N,08140.7169,W,1,8,1.7,12,M,,M,,*5D
06/11/2015	10:07:51.522	$GPGGA,100752,2420.2971,N,08140.7169,W,1,7,1.9,12,M,,M,,*50
06/11/2015	10:07:52.598	$GPGGA,100753,2420.2961,N,08140.7168,W,1,7,1.7,12,M,,M,,*5F
06/11/2015	10:07:53.610	$GPGGA,100754,2420.2950,N,08140.7168,W,1,8,1.7,12,M,,M,,*55
06/11/2015	10:07:54.530	$GPGGA,100755,2420.2940,N,08140.7171,W,1,8,1.7,12,M,,M,,*5D
06/11/2015	10:07:55.514	$GPGGA,100756,2420.2923,N,08140.7173,W,1,8,1.7,11,M,,M,,*5A
06/11/2015	10:07:56.479	$GPGGA,100757,2420.2924,N,08140.7165,W,1,8,3.2,11,M,,M,,*5C
06/11/2015	10:07:57.624	$GPGGA,100758,2420.2912,N,08140.7168,W,1,7,1.9,11,M,,M,,*5D
06/11/2015	10:07:58.579	$GPGGA,100759,2420.2908,N,08140.7166,W,1,7,1.7,11,M,,M,,*57
06/11/2015	10:07:59.669	$GPGGA,100800,2420.2901,N,08140.7165,W,1,7,2.2,11,M,,M,,*58
06/11/2015	10:08:00.859	$GPGGA,100801,2420.2887,N,08140.7168,W,1,7,2.8,11,M,,M,,*51
06/11/2015	10:08:01.599	$GPGGA,100802,2420.2876,N,08140.7168,W,1,7,2.2,11,M,,M,,*56
06/11/2015	10:08:02.569	$GPGGA,100803,2420.2864,N,08140.7172,W,1,7,2.2,11,M,,M,,*5F
06/11/2015	10:08:03.599	$GPGGA,100804,2420.2850,N,08140.7176,W,1,7,2.2,11,M,,M,,*5B
06/11/2015	10:08:04.569	$GPGGA,100805,2420.2838,N,08140.7178,W,1,7,2.2,11,M,,M,,*5A
06/11/2015	10:08:05.559	$GPGGA,100806,2420.2825,N,08140.7178,W,1,7,2.2,11,M,,M,,*55
06/11/2015	10:08:06.569	$GPGGA,100807,2420.2816,N,08140.7182,W,1,7,2.2,11,M,,M,,*51
06/11/2015	10:08:07.624	$GPGGA,100808,2420.2804,N,08140.7184,W,1,7,2.2,11,M,,M,,*5B
06/11/2015	10:08:08.558	$GPGGA,100809,2420.2793,N,08140.7183,W,1,7,2.2,11,M,,M,,*5C
06/11/2015	10:08:09.568	$GPGGA,100810,2420.2784,N,08140.7184,W,1,7,2.2,11,M,,M,,*55
06/11/2015	10:08:10.559	$GPGGA,100811,2420.2774,N,08140.7187,W,1,7,2.2,11,M,,M,,*58
06/11/2015	10:08:11.612	$GPGGA,100812,2420.2766,N,08140.7187,W,1,7,2.2,11,M,,M,,*58
06/11/2015	10:08:12.549	$GPGGA,100813,2420.2755,N,08140.7186,W,1,7,1.7,11,M,,M,,*5E
06/11/2015	10:08:13.569	$GPGGA,100814,2420.2745,N,08140.7189,W,1,7,2.2,11,M,,M,,*51
06/11/2015	10:08:14.539	$GPGGA,100815,2420.2737,N,08140.7190,W,1,7,2.2,11,M,,M,,*5D
06/11/2015	10:08:15.549	$GPGGA,100816,2420.2730,N,08140.7188,W,1,8,1.7,11,M,,M,,*59
06/11/2015	10:08:16.539	$GPGGA,100817,2420.2721,N,08140.7187,W,1,8,1.7,11,M,,M,,*57
06/11/2015	10:08:17.539	$GPGGA,100818,2420.2715,N,08140.7189,W,1,8,1.7,11,M,,M,,*51
06/11/2015	10:08:18.539	$GPGGA,100819,2420.2708,N,08140.7189,W,1,8,1.7,11,M,,M,,*5C
06/11/2015	10:08:19.579	$GPGGA,100820,2420.2699,N,08140.7188,W,1,8,1.7,11,M,,M,,*5E
06/11/2015	10:08:20.529	$GPGGA,100821,2420.2692,N,08140.7189,W,1,8,1.7,11,M,,M,,*55
06/11/2015	10:08:21.569	$GPGGA,100822,2420.2683,N,08140.7188,W,1,8,1.7,11,M,,M,,*57
06/11/2015	10:08:22.529	$GPGGA,100823,2420.2676,N,08140.7189,W,1,8,1.7,12,M,,M,,*5E
06/11/2015	10:08:23.559	$GPGGA,100824,2420.2670,N,08140.7189,W,1,8,1.7,12,M,,M,,*5F
06/11/2015	10:08:24.519	$GPGGA,100825,2420.2662,N,08140.7188,W,1,8,1.9,12,M,,M,,*52
06/11/2015	10:08:25.538	$GPGGA,100826,2420.2652,N,08140.7189,W,1,7,1.9,12,M,,M,,*5C
06/11/2015	10:08:26.514	$GPGGA,100827,2420.2644,N,08140.7191,W,1,7,1.7,12,M,,M,,*5D
06/11/2015	10:08:27.548	$GPGGA,100828,2420.2636,N,08140.7193,W,1,8,1.7,12,M,,M,,*5A
06/11/2015	10:08:28.509	$GPGGA,100829,2420.2626,N,08140.7193,W,1,8,1.9,12,M,,M,,*54
06/11/2015	10:08:29.559	$GPGGA,100830,2420.2614,N,08140.7197,W,1,8,1.7,12,M,,M,,*57
06/11/2015	10:08:30.521	$GPGGA,100831,2420.2605,N,08140.7198,W,1,8,1.7,12,M,,M,,*59
06/11/2015	10:08:31.669	$GPGGA,100832,2420.2592,N,08140.7202,W,1,7,1.7,12,M,,M,,*58
06/11/2015	10:08:32.621	$GPGGA,100833,2420.2585,N,08140.7202,W,1,7,1.9,12,M,,M,,*51
06/11/2015	10:08:33.512	$GPGGA,100834,2420.2576,N,08140.7202,W,1,7,1.9,12,M,,M,,*5A
06/11/2015	10:08:34.499	$GPGGA,100835,2420.2568,N,08140.7204,W,1,7,1.9,12,M,,M,,*52
06/11/2015	10:08:35.559	$GPGGA,100836,2420.2558,N,08140.7203,W,1,7,1.9,12,M,,M,,*55
06/11/2015	10:08:36.509	$GPGGA,100837,2420.2550,N,08140.7204,W,1,7,1.9,12,M,,M,,*5B
06/11/2015	10:08:37.522	$GPGGA,100838,2420.2542,N,08140.7205,W,1,7,1.9,12,M,,M,,*56
06/11/2015	10:08:38.612	$GPGGA,100839,2420.2531,N,08140.7207,W,1,7,1.7,12,M,,M,,*5F
06/11/2015	10:08:39.522	$GPGGA,100840,2420.2520,N,08140.7208,W,1,8,1.7,12,M,,M,,*51
06/11/2015	10:08:40.489	$GPGGA,100841,2420.2510,N,08140.7211,W,1,8,1.7,12,M,,M,,*5B
06/11/2015	10:08:41.589	$GPGGA,100842,2420.2500,N,08140.7212,W,1,8,1.7,12,M,,M,,*5A
06/11/2015	10:08:42.499	$GPGGA,100843,2420.2491,N,08140.7214,W,1,8,1.7,12,M,,M,,*54
06/11/2015	10:08:43.658	$GPGGA,100844,2420.2480,N,08140.7216,W,1,8,1.7,12,M,,M,,*51
06/11/2015	10:08:44.498	$GPGGA,100845,2420.2470,N,08140.7218,W,1,8,1.7,12,M,,M,,*51
06/11/2015	10:08:45.489	$GPGGA,100846,2420.2462,N,08140.7220,W,1,8,1.7,12,M,,M,,*5A
06/11/2015	10:08:46.489	$GPGGA,100847,2420.2451,N,08140.7223,W,1,8,1.7,12,M,,M,,*58
06/11/2015	10:08:47.589	$GPGGA,100848,2420.2444,N,08140.7225,W,1,8,1.9,12,M,,M,,*5B
06/11/2015	10:08:48.589	$GPGGA,100849,2420.2431,N,08140.7224,W,1,8,2.2,12,M,,M,,*51
06/11/2015	10:08:49.589	$GPGGA,100850,2420.2421,N,08140.7226,W,1,7,1.7,12,M,,M,,*53
06/11/2015	10:08:50.579	$GPGGA,100851,2420.2411,N,08140.7229,W,1,7,1.7,12,M,,M,,*5E
06/11/2015	10:08:51.599	$GPGGA,100852,2420.2402,N,08140.7233,W,1,8,1.7,12,M,,M,,*5B
06/11/2015	10:08:52.579	$GPGGA,100853,2420.2391,N,08140.7234,W,1,8,1.7,12,M,,M,,*50
06/11/2015	10:08:53.559	$GPGGA,100854,2420.2383,N,08140.7234,W,1,8,1.7,12,M,,M,,*54
06/11/2015	10:08:54.569	$GPGGA,100855,2420.2373,N,08140.7240,W,1,8,1.7,12,M,,M,,*59
06/11/2015	10:08:55.649	$GPGGA,100856,2420.2363,N,08140.7243,W,1,8,1.7,12,M,,M,,*58
06/11/2015	10:08:56.559	$GPGGA,100857,2420.2354,N,08140.7245,W,1,8,1.7,12,M,,M,,*5B
06/11/2015	10:08:57.569	$GPGGA,100858,2420.2343,N,08140.7247,W,1,8,1.7,12,M,,M,,*50
06/11/2015	10:08:58.559	$GPGGA,100859,2420.2334,N,08140.7249,W,1,8,1.7,12,M,,M,,*5F
06/11/2015	10:08:59.599	$GPGGA,100900,2420.2325,N,08140.7254,W,1,8,1.7,12,M,,M,,*5E
06/11/2015	10:09:00.548	$GPGGA,100901,2420.2316,N,08140.7256,W,1,8,1.7,12,M,,M,,*5D
06/11/2015	10:09:01.588	$GPGGA,100902,2420.2307,N,08140.7258,W,1,8,1.7,12,M,,M,,*50
06/11/2015	10:09:02.548	$GPGGA,100903,2420.2297,N,08140.7262,W,1,8,1.7,12,M,,M,,*50
06/11/2015	10:09:03.559	$GPGGA,100904,2420.2289,N,08140.7265,W,1,8,1.7,12,M,,M,,*5F
06/11/2015	10:09:04.549	$GPGGA,100905,2420.2279,N,08140.7269,W,1,8,1.7,12,M,,M,,*5D
06/11/2015	10:09:05.579	$GPGGA,100906,2420.2271,N,08140.7272,W,1,8,1.7,12,M,,M,,*5C
06/11/2015	10:09:06.549	$GPGGA,100907,2420.2260,N,08140.7272,W,1,8,1.7,12,M,,M,,*5D
06/11/2015	10:09:07.569	$GPGGA,100908,2420.2253,N,08140.7276,W,1,8,1.7,12,M,,M,,*56
06/11/2015	10:09:08.549	$GPGGA,100909,2420.2244,N,08140.7281,W,1,8,1.7,12,M,,M,,*59
06/11/2015	10:09:09.559	$GPGGA,100910,2420.2233,N,08140.7284,W,1,8,1.7,12,M,,M,,*54
06/11/2015	10:09:10.539	$GPGGA,100911,2420.2225,N,08140.7285,W,1,8,1.9,12,M,,M,,*5D
06/11/2015	10:09:11.569	$GPGGA,100912,2420.2215,N,08140.7291,W,1,7,1.7,12,M,,M,,*59
06/11/2015	10:09:12.549	$GPGGA,100913,2420.2206,N,08140.7295,W,1,7,1.7,12,M,,M,,*5E
06/11/2015	10:09:13.559	$GPGGA,100914,2420.2195,N,08140.7299,W,1,8,1.7,13,M,,M,,*52
06/11/2015	10:09:14.511	$GPGGA,100915,2420.2184,N,08140.7305,W,1,8,2.2,13,M,,M,,*51
06/11/2015	10:09:15.559	$GPGGA,100916,2420.2177,N,08140.7308,W,1,7,1.9,13,M,,M,,*54
06/11/2015	10:09:16.629	$GPGGA,100917,2420.2168,N,08140.7309,W,1,7,1.7,13,M,,M,,*54
06/11/2015	10:09:17.539	$GPGGA,100918,2420.2159,N,08140.7312,W,1,8,2.2,13,M,,M,,*5A
06/11/2015	10:09:18.518	$GPGGA,100919,2420.2149,N,08140.7317,W,1,8,2.2,13,M,,M,,*5F
06/11/2015	10:09:19.548	$GPGGA,100920,2420.2142,N,08140.7319,W,1,7,2.8,13,M,,M,,*55
06/11/2015	10:09:20.624	$GPGGA,100921,2420.2135,N,08140.7320,W,1,7,1.9,13,M,,M,,*5C
06/11/2015	10:09:21.624	$GPGGA,100922,2420.2132,N,08140.7321,W,1,7,1.9,13,M,,M,,*59
06/11/2015	10:09:22.514	$GPGGA,100923,2420.2122,N,08140.7326,W,1,7,2.2,13,M,,M,,*56
06/11/2015	10:09:23.549	$GPGGA,100924,2420.2110,N,08140.7332,W,1,7,2.2,13,M,,M,,*55
06/11/2015	10:09:24.500	$GPGGA,100925,2420.2108,N,08140.7334,W,1,7,1.7,13,M,,M,,*5D
06/11/2015	10:09:25.515	$GPGGA,100926,2420.2101,N,08140.7335,W,1,8,1.7,13,M,,M,,*59
06/11/2015	10:09:26.514	$GPGGA,100927,2420.2091,N,08140.7341,W,1,8,1.7,13,M,,M,,*53
06/11/2015	10:09:27.560	$GPGGA,100928,2420.2080,N,08140.7348,W,1,8,2.2,13,M,,M,,*53
06/11/2015	10:09:28.623	$GPGGA,100929,2420.2068,N,08140.7355,W,1,8,2.2,13,M,,M,,*58
06/11/2015	10:09:29.509	$GPGGA,100930,2420.2062,N,08140.7354,W,1,7,1.7,13,M,,M,,*52
06/11/2015	10:09:30.519	$GPGGA,100931,2420.2050,N,08140.7361,W,1,7,2.2,13,M,,M,,*52
06/11/2015	10:09:31.609	$GPGGA,100932,2420.2041,N,08140.7367,W,1,7,2.2,13,M,,M,,*57
06/11/2015	10:09:32.524	$GPGGA,100933,2420.2030,N,08140.7373,W,1,7,1.7,13,M,,M,,*53
06/11/2015	10:09:33.579	$GPGGA,100934,2420.2019,N,08140.7377,W,1,8,2.2,13,M,,M,,*52
06/11/2015	10:09:34.989	$GPGGA,100935,2420.2009,N,08140.7384,W,1,8,2.2,13,M,,M,,*5E
06/11/2015	10:09:35.612	$GPGGA,100936,2420.2001,N,08140.7388,W,1,7,2.2,13,M,,M,,*56
06/11/2015	10:09:36.568	$GPGGA,100937,2420.1991,N,08140.7395,W,1,7,2.2,13,M,,M,,*58
06/11/2015	10:09:37.588	$GPGGA,100938,2420.1982,N,08140.7399,W,1,7,2.2,12,M,,M,,*58
06/11/2015	10:09:38.569	$GPGGA,100939,2420.1971,N,08140.7404,W,1,7,2.2,12,M,,M,,*56
06/11/2015	10:09:39.612	$GPGGA,100940,2420.1967,N,08140.7407,W,1,7,2.2,12,M,,M,,*5C
06/11/2015	10:09:40.559	$GPGGA,100941,2420.1960,N,08140.7413,W,1,7,1.7,12,M,,M,,*59
06/11/2015	10:09:41.579	$GPGGA,100942,2420.1951,N,08140.7417,W,1,8,1.7,12,M,,M,,*53
06/11/2015	10:09:42.569	$GPGGA,100943,2420.1945,N,08140.7420,W,1,8,1.7,12,M,,M,,*53
06/11/2015	10:09:43.599	$GPGGA,100944,2420.1936,N,08140.7425,W,1,8,2.2,12,M,,M,,*53
06/11/2015	10:09:44.559	$GPGGA,100945,2420.1926,N,08140.7431,W,1,8,2.2,12,M,,M,,*56
06/11/2015	10:09:45.549	$GPGGA,100946,2420.1921,N,08140.7433,W,1,7,2.2,12,M,,M,,*5F
06/11/2015	10:09:46.559	$GPGGA,100947,2420.1914,N,08140.7438,W,1,7,1.7,12,M,,M,,*55
06/11/2015	10:09:47.589	$GPGGA,100948,2420.1907,N,08140.7442,W,1,8,1.7,12,M,,M,,*5A
06/11/2015	10:09:48.559	$GPGGA,100949,2420.1902,N,08140.7446,W,1,8,1.7,12,M,,M,,*5A
06/11/2015	10:09:49.579	$GPGGA,100950,2420.1897,N,08140.7449,W,1,8,1.7,12,M,,M,,*50
06/11/2015	10:09:50.549	$GPGGA,100951,2420.1893,N,08140.7450,W,1,8,1.7,12,M,,M,,*5D
06/11/2015	10:09:51.579	$GPGGA,100952,2420.1886,N,08140.7454,W,1,7,1.9,12,M,,M,,*5F
06/11/2015	10:09:52.539	$GPGGA,100953,2420.1880,N,08140.7460,W,1,7,1.7,12,M,,M,,*51
06/11/2015	10:09:53.548	$GPGGA,100954,2420.1874,N,08140.7462,W,1,8,1.7,12,M,,M,,*50
06/11/2015	10:09:54.528	$GPGGA,100955,2420.1867,N,08140.7467,W,1,8,1.7,12,M,,M,,*56
06/11/2015	10:09:55.579	$GPGGA,100956,2420.1860,N,08140.7471,W,1,8,1.7,12,M,,M,,*55
06/11/2015	10:09:56.529	$GPGGA,100957,2420.1855,N,08140.7475,W,1,8,1.7,12,M,,M,,*56
06/11/2015	10:09:57.539	$GPGGA,100958,2420.1848,N,08140.7478,W,1,8,1.7,12,M,,M,,*58
06/11/2015	10:09:58.539	$GPGGA,100959,2420.1842,N,08140.7482,W,1,8,1.7,12,M,,M,,*56
06/11/2015	10:09:59.569	$GPGGA,101000,2420.1834,N,08140.7486,W,1,7,1.9,12,M,,M,,*56
06/11/2015	10:10:00.519	$GPGGA,101001,2420.1830,N,08140.7490,W,1,7,2.8,12,M,,M,,*56
06/11/2015	10:10:01.549	$GPGGA,101002,2420.1820,N,08140.7496,W,1,7,1.9,12,M,,M,,*50
06/11/2015	10:10:02.529	$GPGGA,101003,2420.1807,N,08140.7504,W,1,7,1.7,12,M,,M,,*50
06/11/2015	10:10:03.549	$GPGGA,101004,2420.1798,N,08140.7511,W,1,7,2.3,12,M,,M,,*5D
06/11/2015	10:10:04.513	$GPGGA,101005,2420.1790,N,08140.7518,W,1,7,1.7,12,M,,M,,*5A
06/11/2015	10:10:05.519	$GPGGA,101006,2420.1781,N,08140.7525,W,1,8,1.7,12,M,,M,,*58
06/11/2015	10:10:06.639	$GPGGA,101007,2420.1768,N,08140.7533,W,1,8,1.7,12,M,,M,,*59
06/11/2015	10:10:07.869	$GPGGA,101008,2420.1758,N,08140.7540,W,1,7,2.3,12,M,,M,,*59
06/11/2015	10:10:08.522	$GPGGA,101009,2420.1752,N,08140.7544,W,1,7,2.3,12,M,,M,,*56
06/11/2015	10:10:09.610	$GPGGA,101010,2420.1744,N,08140.7551,W,1,7,1.9,12,M,,M,,*54
06/11/2015	10:10:10.498	$GPGGA,101011,2420.1737,N,08140.7558,W,1,7,1.6,12,M,,M,,*57
06/11/2015	10:10:11.518	$GPGGA,101012,2420.1729,N,08140.7563,W,1,8,1.6,12,M,,M,,*5C
06/11/2015	10:10:12.509	$GPGGA,101013,2420.1723,N,08140.7566,W,1,8,1.6,12,M,,M,,*52
06/11/2015	10:10:13.523	$GPGGA,101014,2420.1718,N,08140.7573,W,1,7,1.9,12,M,,M,,*59
06/11/2015	10:10:14.509	$GPGGA,101015,2420.1711,N,08140.7577,W,1,7,1.6,12,M,,M,,*5A
06/11/2015	10:10:15.599	$GPGGA,101016,2420.1704,N,08140.7581,W,1,7,1.9,12,M,,M,,*5B
06/11/2015	10:10:16.518	$GPGGA,101017,2420.1698,N,08140.7587,W,1,7,1.6,12,M,,M,,*57
06/11/2015	10:10:17.579	$GPGGA,101018,2420.1691,N,08140.7594,W,1,8,1.6,12,M,,M,,*5C
06/11/2015	10:10:18.599	$GPGGA,101019,2420.1682,N,08140.7601,W,1,8,1.6,12,M,,M,,*50
06/11/2015	10:10:19.599	$GPGGA,101020,2420.1675,N,08140.7606,W,1,8,1.6,12,M,,M,,*55
06/11/2015	10:10:20.589	$GPGGA,101021,2420.1669,N,08140.7612,W,1,8,1.6,12,M,,M,,*5C
06/11/2015	10:10:21.610	$GPGGA,101022,2420.1662,N,08140.7619,W,1,8,1.6,12,M,,M,,*5F
06/11/2015	10:10:22.579	$GPGGA,101023,2420.1655,N,08140.7624,W,1,8,1.6,12,M,,M,,*54
06/11/2015	10:10:23.589	$GPGGA,101024,2420.1643,N,08140.7633,W,1,8,1.6,12,M,,M,,*52
06/11/2015	10:10:24.589	$GPGGA,101025,2420.1635,N,08140.7639,W,1,8,2.3,12,M,,M,,*5E
06/11/2015	10:10:25.579	$GPGGA,101026,2420.1629,N,08140.7645,W,1,8,1.6,12,M,,M,,*5D
06/11/2015	10:10:26.579	$GPGGA,101027,2420.1622,N,08140.7652,W,1,8,1.6,12,M,,M,,*51
06/11/2015	10:10:27.589	$GPGGA,101028,2420.1617,N,08140.7656,W,1,8,1.6,12,M,,M,,*5C
06/11/2015	10:10:28.578	$GPGGA,101029,2420.1611,N,08140.7663,W,1,8,1.6,12,M,,M,,*5D
06/11/2015	10:10:29.558	$GPGGA,101030,2420.1606,N,08140.7668,W,1,8,1.6,12,M,,M,,*58
06/11/2015	10:10:30.559	$GPGGA,101031,2420.1599,N,08140.7673,W,1,8,1.6,13,M,,M,,*57
06/11/2015	10:10:31.599	$GPGGA,101032,2420.1593,N,08140.7680,W,1,8,1.6,13,M,,M,,*52
06/11/2015	10:10:32.569	$GPGGA,101033,2420.1588,N,08140.7686,W,1,8,1.6,13,M,,M,,*5F
06/11/2015	10:10:33.579	$GPGGA,101034,2420.1581,N,08140.7691,W,1,8,1.6,13,M,,M,,*57
06/11/2015	10:10:34.559	$GPGGA,101035,2420.1573,N,08140.7697,W,1,8,1.6,13,M,,M,,*5D
06/11/2015	10:10:35.559	$GPGGA,101036,2420.1567,N,08140.7703,W,1,8,1.6,13,M,,M,,*57
06/11/2015	10:10:36.549	$GPGGA,101037,2420.1560,N,08140.7710,W,1,8,1.6,13,M,,M,,*53
06/11/2015	10:10:37.569	$GPGGA,101038,2420.1553,N,08140.7717,W,1,8,1.6,13,M,,M,,*5B
06/11/2015	10:10:38.539	$GPGGA,101039,2420.1548,N,08140.7722,W,1,8,1.6,13,M,,M,,*56
06/11/2015	10:10:39.550	$GPGGA,101040,2420.1541,N,08140.7728,W,1,8,1.6,13,M,,M,,*5B
06/11/2015	10:10:40.549	$GPGGA,101041,2420.1534,N,08140.7735,W,1,8,1.6,13,M,,M,,*54
06/11/2015	10:10:41.559	$GPGGA,101042,2420.1526,N,08140.7745,W,1,7,1.7,13,M,,M,,*5D
06/11/2015	10:10:42.539	$GPGGA,101043,2420.1520,N,08140.7751,W,1,7,1.6,13,M,,M,,*5E
06/11/2015	10:10:43.549	$GPGGA,101044,2420.1513,N,08140.7757,W,1,8,1.6,13,M,,M,,*50
06/11/2015	10:10:44.539	$GPGGA,101045,2420.1507,N,08140.7761,W,1,8,1.6,13,M,,M,,*51
06/11/2015	10:10:45.528	$GPGGA,101046,2420.1502,N,08140.7767,W,1,8,1.6,13,M,,M,,*51
06/11/2015	10:10:46.528	$GPGGA,101047,2420.1496,N,08140.7775,W,1,8,1.6,13,M,,M,,*5F
06/11/2015	10:10:47.568	$GPGGA,101048,2420.1489,N,08140.7782,W,1,7,1.7,13,M,,M,,*58
06/11/2015	10:10:48.539	$GPGGA,101049,2420.1483,N,08140.7789,W,1,7,1.6,13,M,,M,,*59
06/11/2015	10:10:49.559	$GPGGA,101050,2420.1477,N,08140.7796,W,1,8,1.6,13,M,,M,,*5B
06/11/2015	10:10:50.539	$GPGGA,101051,2420.1474,N,08140.7800,W,1,8,1.6,13,M,,M,,*59
06/11/2015	10:10:51.859	$GPGGA,101052,2420.1465,N,08140.7807,W,1,6,2.9,13,M,,M,,*5F
06/11/2015	10:10:52.509	$GPGGA,101053,2420.1458,N,08140.7815,W,1,6,1.6,13,M,,M,,*5F
06/11/2015	10:10:53.515	$GPGGA,101054,2420.1451,N,08140.7823,W,1,8,1.6,13,M,,M,,*5A
06/11/2015	10:10:54.519	$GPGGA,101055,2420.1444,N,08140.7830,W,1,8,1.6,13,M,,M,,*5D
06/11/2015	10:10:55.539	$GPGGA,101056,2420.1436,N,08140.7837,W,1,8,1.6,13,M,,M,,*5C
06/11/2015	10:10:56.519	$GPGGA,101057,2420.1430,N,08140.7845,W,1,8,1.6,13,M,,M,,*5E
06/11/2015	10:10:57.620	$GPGGA,101058,2420.1426,N,08140.7854,W,1,8,1.6,13,M,,M,,*56
06/11/2015	10:10:58.509	$GPGGA,101059,2420.1418,N,08140.7861,W,1,8,1.6,13,M,,M,,*5C
06/11/2015	10:10:59.511	$GPGGA,101100,2420.1411,N,08140.7868,W,1,8,1.6,13,M,,M,,*51
06/11/2015	10:11:00.489	$GPGGA,101101,2420.1406,N,08140.7876,W,1,8,1.6,13,M,,M,,*59
06/11/2015	10:11:01.501	$GPGGA,101102,2420.1401,N,08140.7884,W,1,8,1.6,13,M,,M,,*50
06/11/2015	10:11:02.579	$GPGGA,101103,2420.1393,N,08140.7891,W,1,8,1.6,13,M,,M,,*59
06/11/2015	10:11:03.488	$GPGGA,101104,2420.1389,N,08140.7898,W,1,8,1.6,13,M,,M,,*5C
06/11/2015	10:11:04.478	$GPGGA,101105,2420.1382,N,08140.7909,W,1,8,1.6,13,M,,M,,*5F
06/11/2015	10:11:05.488	$GPGGA,101106,2420.1372,N,08140.7917,W,1,7,2.3,13,M,,M,,*55
06/11/2015	10:11:06.488	$GPGGA,101107,2420.1364,N,08140.7924,W,1,7,2.3,13,M,,M,,*53
06/11/2015	10:11:07.638	$GPGGA,101108,2420.1357,N,08140.7933,W,1,8,1.6,13,M,,M,,*53
06/11/2015	10:11:08.568	$GPGGA,101109,2420.1351,N,08140.7942,W,1,8,1.6,13,M,,M,,*52
06/11/2015	10:11:09.604	$GPGGA,101110,2420.1347,N,08140.7948,W,1,7,2.3,13,M,,M,,*5E
06/11/2015	10:11:10.568	$GPGGA,101111,2420.1343,N,08140.7953,W,1,7,1.6,13,M,,M,,*57
06/11/2015	10:11:11.578	$GPGGA,101112,2420.1339,N,08140.7960,W,1,8,1.6,13,M,,M,,*56
06/11/2015	10:11:12.568	$GPGGA,101113,2420.1335,N,08140.7966,W,1,8,1.6,13,M,,M,,*5D
06/11/2015	10:11:13.558	$GPGGA,101114,2420.1329,N,08140.7971,W,1,7,2.2,13,M,,M,,*59
06/11/2015	10:11:14.558	$GPGGA,101115,2420.1317,N,08140.7984,W,1,7,1.9,13,M,,M,,*57
06/11/2015	10:11:15.610	$GPGGA,101116,2420.1310,N,08140.7991,W,1,7,2.3,14,M,,M,,*59
06/11/2015	10:11:16.549	$GPGGA,101117,2420.1306,N,08140.7999,W,1,7,1.6,14,M,,M,,*51
06/11/2015	10:11:17.589	$GPGGA,101118,2420.1300,N,08140.8004,W,1,8,1.6,14,M,,M,,*55
06/11/2015	10:11:18.559	$GPGGA,101119,2420.1295,N,08140.8010,W,1,8,1.6,14,M,,M,,*5C
06/11/2015	10:11:19.579	$GPGGA,101120,2420.1292,N,08140.8017,W,1,8,1.6,14,M,,M,,*56
06/11/2015	10:11:20.548	$GPGGA,101121,2420.1288,N,08140.8022,W,1,8,1.6,14,M,,M,,*5A
06/11/2015	10:11:21.548	$GPGGA,101122,2420.1283,N,08140.8028,W,1,8,1.6,14,M,,M,,*58
06/11/2015	10:11:22.558	$GPGGA,101123,2420.1279,N,08140.8035,W,1,8,1.6,14,M,,M,,*50
06/11/2015	10:11:23.578	$GPGGA,101124,2420.1273,N,08140.8045,W,1,7,1.7,14,M,,M,,*54
06/11/2015	10:11:24.538	$GPGGA,101125,2420.1266,N,08140.8053,W,1,7,2.3,14,M,,M,,*51
06/11/2015	10:11:25.568	$GPGGA,101126,2420.1260,N,08140.8060,W,1,8,1.6,14,M,,M,,*5D
06/11/2015	10:11:26.528	$GPGGA,101127,2420.1256,N,08140.8068,W,1,8,1.6,14,M,,M,,*51
06/11/2015	10:11:27.568	$GPGGA,101128,2420.1252,N,08140.8075,W,1,8,1.6,14,M,,M,,*56
06/11/2015	10:11:28.538	$GPGGA,101129,2420.1247,N,08140.8083,W,1,8,1.6,14,M,,M,,*5A
06/11/2015	10:11:29.558	$GPGGA,101130,2420.1242,N,08140.8092,W,1,8,1.6,14,M,,M,,*57
06/11/2015	10:11:31.604	$GPGGA,101132,2420.1234,N,08140.8107,W,1,8,1.6,15,M,,M,,*58
06/11/2015	10:11:32.529	$GPGGA,101133,2420.1230,N,08140.8114,W,1,8,1.6,15,M,,M,,*5F
06/11/2015	10:11:33.519	$GPGGA,101134,2420.1225,N,08140.8121,W,1,8,1.6,15,M,,M,,*5A
06/11/2015	10:11:34.514	$GPGGA,101135,2420.1220,N,08140.8129,W,1,8,1.6,15,M,,M,,*56
06/11/2015	10:11:35.539	$GPGGA,101136,2420.1216,N,08140.8136,W,1,8,1.6,15,M,,M,,*5E
06/11/2015	10:11:36.529	$GPGGA,101137,2420.1212,N,08140.8144,W,1,8,1.6,15,M,,M,,*5E
06/11/2015	10:11:37.529	$GPGGA,101138,2420.1208,N,08140.8151,W,1,8,1.6,15,M,,M,,*5E
06/11/2015	10:11:38.509	$GPGGA,101139,2420.1205,N,08140.8158,W,1,8,1.6,15,M,,M,,*5B
06/11/2015	10:11:39.548	$GPGGA,101140,2420.1200,N,08140.8165,W,1,8,1.6,16,M,,M,,*5D
06/11/2015	10:11:40.499	$GPGGA,101141,2420.1195,N,08140.8173,W,1,8,1.6,16,M,,M,,*54
06/11/2015	10:11:41.539	$GPGGA,101142,2420.1190,N,08140.8181,W,1,7,2.3,16,M,,M,,*56
06/11/2015	10:11:42.512	$GPGGA,101143,2420.1187,N,08140.8187,W,1,7,1.6,16,M,,M,,*51
06/11/2015	10:11:43.528	$GPGGA,101144,2420.1184,N,08140.8195,W,1,8,1.6,16,M,,M,,*59
06/11/2015	10:11:44.498	$GPGGA,101145,2420.1181,N,08140.8202,W,1,8,1.6,16,M,,M,,*50
06/11/2015	10:11:45.498	$GPGGA,101146,2420.1177,N,08140.8210,W,1,8,1.6,16,M,,M,,*59
06/11/2015	10:11:46.588	$GPGGA,101147,2420.1172,N,08140.8217,W,1,8,1.6,16,M,,M,,*5A
06/11/2015	10:11:47.605	$GPGGA,101148,2420.1169,N,08140.8226,W,1,8,1.6,16,M,,M,,*5D
06/11/2015	10:11:48.488	$GPGGA,101149,2420.1165,N,08140.8233,W,1,8,1.6,16,M,,M,,*54
06/11/2015	10:11:49.615	$GPGGA,101150,2420.1160,N,08140.8241,W,1,8,1.6,16,M,,M,,*5C
06/11/2015	10:11:50.590	$GPGGA,101151,2420.1154,N,08140.8249,W,1,8,1.6,16,M,,M,,*52
06/11/2015	10:11:51.659	$GPGGA,101152,2420.1151,N,08140.8258,W,1,7,2.3,16,M,,M,,*5D
