Software Version Number: 1	Data File Format Number: 1	Build Version Number: 1	Error Count Since VI Started: 1	Manufacturer: Raytheon	 Model Number: RayMarine 120	 S/N: 	 Cal Date: 	 Wind Direction Offset: 0.00	 Slope (M)1: 0.00	 Offset (B)1: 0.00	 Slope (M)2: 0.00	 Offset (B)2: 0.00	 Slope (M)3: 0.00	 Offset (B)3: 0.00	 Slope (M)4: 0.00	 Offset (B)4: 0.00	 Slope (M)5: 0.00	 Offset (B)5: 0.00	 Slope (M)6: 0.00	 Offset (B)6: 0.00
Computer Date	Computer Time	GGA String
06/18/2015	20:00:00.577	$GPGGA,200001,2553.0757,N,07922.6402,W,1,11,1.3,22,M,,M,,*6B
06/18/2015	20:00:01.637	$GPGGA,200002,2553.0768,N,07922.6417,W,1,11,1.3,22,M,,M,,*60
06/18/2015	20:00:02.567	$GPGGA,200003,2553.0778,N,07922.6431,W,1,11,1.3,22,M,,M,,*64
06/18/2015	20:00:03.646	$GPGGA,200004,2553.0788,N,07922.6445,W,1,11,1.3,22,M,,M,,*6F
06/18/2015	20:00:04.566	$GPGGA,200005,2553.0797,N,07922.6459,W,1,11,1.3,22,M,,M,,*6D
06/18/2015	20:00:05.616	$GPGGA,200006,2553.0807,N,07922.6472,W,1,11,1.3,22,M,,M,,*61
06/18/2015	20:00:06.566	$GPGGA,200007,2553.0818,N,07922.6486,W,1,11,1.3,22,M,,M,,*65
06/18/2015	20:00:07.616	$GPGGA,200008,2553.0828,N,07922.6500,W,1,11,1.3,22,M,,M,,*66
06/18/2015	20:00:08.616	$GPGGA,200009,2553.0839,N,07922.6515,W,1,11,1.3,22,M,,M,,*63
06/18/2015	20:00:09.596	$GPGGA,200010,2553.0849,N,07922.6529,W,1,11,1.3,22,M,,M,,*63
06/18/2015	20:00:10.636	$GPGGA,200011,2553.0858,N,07922.6543,W,1,11,1.3,22,M,,M,,*6E
06/18/2015	20:00:11.616	$GPGGA,200012,2553.0869,N,07922.6557,W,1,11,1.3,22,M,,M,,*6A
06/18/2015	20:00:12.606	$GPGGA,200013,2553.0880,N,07922.6572,W,1,11,1.3,22,M,,M,,*6B
06/18/2015	20:00:13.596	$GPGGA,200014,2553.0890,N,07922.6586,W,1,11,1.3,21,M,,M,,*65
06/18/2015	20:00:14.546	$GPGGA,200015,2553.0900,N,07922.6600,W,1,11,1.3,21,M,,M,,*61
06/18/2015	20:00:15.556	$GPGGA,200016,2553.0909,N,07922.6615,W,1,11,1.3,21,M,,M,,*6F
06/18/2015	20:00:16.607	$GPGGA,200017,2553.0919,N,07922.6629,W,1,11,1.3,21,M,,M,,*60
06/18/2015	20:00:17.578	$GPGGA,200018,2553.0930,N,07922.6642,W,1,11,1.3,21,M,,M,,*69
06/18/2015	20:00:18.607	$GPGGA,200019,2553.0940,N,07922.6658,W,1,11,1.3,21,M,,M,,*64
06/18/2015	20:00:19.547	$GPGGA,200020,2553.0949,N,07922.6670,W,1,11,1.3,21,M,,M,,*6D
06/18/2015	20:00:20.606	$GPGGA,200021,2553.0959,N,07922.6684,W,1,11,1.3,21,M,,M,,*66
06/18/2015	20:00:21.578	$GPGGA,200022,2553.0970,N,07922.6699,W,1,11,1.6,21,M,,M,,*67
06/18/2015	20:00:22.596	$GPGGA,200023,2553.0980,N,07922.6713,W,1,11,1.6,21,M,,M,,*6A
06/18/2015	20:00:23.586	$GPGGA,200024,2553.0990,N,07922.6728,W,1,10,1.6,21,M,,M,,*65
06/18/2015	20:00:24.586	$GPGGA,200025,2553.0999,N,07922.6743,W,1,10,1.6,21,M,,M,,*60
06/18/2015	20:00:25.546	$GPGGA,200026,2553.1010,N,07922.6757,W,1,10,1.6,21,M,,M,,*6F
06/18/2015	20:00:26.596	$GPGGA,200027,2553.1020,N,07922.6772,W,1,10,1.3,21,M,,M,,*6F
06/18/2015	20:00:27.578	$GPGGA,200028,2553.1030,N,07922.6785,W,1,11,1.3,21,M,,M,,*68
06/18/2015	20:00:28.606	$GPGGA,200029,2553.1039,N,07922.6799,W,1,11,1.3,21,M,,M,,*6D
06/18/2015	20:00:29.596	$GPGGA,200030,2553.1049,N,07922.6814,W,1,11,1.3,21,M,,M,,*68
06/18/2015	20:00:30.586	$GPGGA,200031,2553.1057,N,07922.6828,W,1,11,1.3,21,M,,M,,*69
06/18/2015	20:00:31.577	$GPGGA,200032,2553.1068,N,07922.6842,W,1,11,1.3,21,M,,M,,*6A
06/18/2015	20:00:32.586	$GPGGA,200033,2553.1078,N,07922.6857,W,1,11,1.3,21,M,,M,,*6E
06/18/2015	20:00:33.927	$GPGGA,200034,2553.1086,N,07922.6869,W,1,11,1.3,20,M,,M,,*64
06/18/2015	20:00:34.637	$GPGGA,200035,2553.1096,N,07922.6883,W,1,11,1.3,20,M,,M,,*60
06/18/2015	20:00:35.577	$GPGGA,200036,2553.1107,N,07922.6897,W,1,11,1.3,20,M,,M,,*6F
06/18/2015	20:00:36.567	$GPGGA,200037,2553.1115,N,07922.6911,W,1,11,1.3,20,M,,M,,*62
06/18/2015	20:00:37.567	$GPGGA,200038,2553.1125,N,07922.6925,W,1,11,1.3,20,M,,M,,*69
06/18/2015	20:00:38.577	$GPGGA,200039,2553.1135,N,07922.6940,W,1,11,1.3,20,M,,M,,*6A
06/18/2015	20:00:39.616	$GPGGA,200040,2553.1144,N,07922.6952,W,1,11,1.6,20,M,,M,,*64
06/18/2015	20:00:41.627	$GPGGA,200042,2553.1165,N,07922.6983,W,1,11,1.3,20,M,,M,,*6C
06/18/2015	20:00:42.566	$GPGGA,200043,2553.1175,N,07922.6998,W,1,11,1.3,20,M,,M,,*66
06/18/2015	20:00:43.636	$GPGGA,200044,2553.1183,N,07922.7012,W,1,11,1.6,20,M,,M,,*67
06/18/2015	20:00:44.566	$GPGGA,200045,2553.1194,N,07922.7027,W,1,11,1.6,20,M,,M,,*66
06/18/2015	20:00:45.546	$GPGGA,200046,2553.1201,N,07922.7034,W,1,10,1.3,20,M,,M,,*6C
06/18/2015	20:00:46.586	$GPGGA,200047,2553.1209,N,07922.7048,W,1,10,1.3,20,M,,M,,*6E
06/18/2015	20:00:47.636	$GPGGA,200048,2553.1219,N,07922.7061,W,1,11,1.3,20,M,,M,,*6A
06/18/2015	20:00:48.596	$GPGGA,200049,2553.1229,N,07922.7075,W,1,11,1.3,20,M,,M,,*6D
06/18/2015	20:00:49.606	$GPGGA,200050,2553.1240,N,07922.7089,W,1,11,1.3,20,M,,M,,*69
06/18/2015	20:00:50.578	$GPGGA,200051,2553.1248,N,07922.7103,W,1,11,1.3,20,M,,M,,*63
06/18/2015	20:00:51.607	$GPGGA,200052,2553.1256,N,07922.7117,W,1,11,1.3,20,M,,M,,*6A
06/18/2015	20:00:52.597	$GPGGA,200053,2553.1268,N,07922.7132,W,1,11,1.3,20,M,,M,,*61
06/18/2015	20:00:53.607	$GPGGA,200054,2553.1277,N,07922.7146,W,1,11,1.3,20,M,,M,,*6B
06/18/2015	20:00:54.567	$GPGGA,200055,2553.1286,N,07922.7160,W,1,11,1.3,20,M,,M,,*60
06/18/2015	20:00:55.596	$GPGGA,200056,2553.1295,N,07922.7173,W,1,11,1.3,20,M,,M,,*63
06/18/2015	20:00:56.566	$GPGGA,200057,2553.1305,N,07922.7187,W,1,11,1.3,20,M,,M,,*61
06/18/2015	20:00:57.577	$GPGGA,200058,2553.1313,N,07922.7201,W,1,11,1.3,20,M,,M,,*64
06/18/2015	20:00:58.596	$GPGGA,200059,2553.1324,N,07922.7216,W,1,11,1.3,20,M,,M,,*67
06/18/2015	20:00:59.626	$GPGGA,200100,2553.1334,N,07922.7230,W,1,11,1.3,20,M,,M,,*6F
06/18/2015	20:01:00.556	$GPGGA,200101,2553.1342,N,07922.7245,W,1,11,1.6,20,M,,M,,*68
06/18/2015	20:01:01.606	$GPGGA,200102,2553.1353,N,07922.7259,W,1,10,1.6,20,M,,M,,*67
06/18/2015	20:01:02.556	$GPGGA,200103,2553.1363,N,07922.7273,W,1,10,1.6,20,M,,M,,*6D
06/18/2015	20:01:03.596	$GPGGA,200104,2553.1363,N,07922.7273,W,1,10,1.6,20,M,,M,,*6A
06/18/2015	20:01:04.556	$GPGGA,200105,2553.1384,N,07922.7302,W,1,10,1.6,20,M,,M,,*65
06/18/2015	20:01:05.566	$GPGGA,200106,2553.1393,N,07922.7316,W,1,10,1.3,20,M,,M,,*60
06/18/2015	20:01:06.556	$GPGGA,200107,2553.1403,N,07922.7330,W,1,10,1.3,20,M,,M,,*6B
06/18/2015	20:01:07.596	$GPGGA,200108,2553.1413,N,07922.7345,W,1,11,1.3,20,M,,M,,*66
06/18/2015	20:01:08.587	$GPGGA,200109,2553.1422,N,07922.7359,W,1,11,1.3,20,M,,M,,*68
06/18/2015	20:01:09.567	$GPGGA,200110,2553.1432,N,07922.7374,W,1,11,1.3,20,M,,M,,*6E
06/18/2015	20:01:10.547	$GPGGA,200111,2553.1432,N,07922.7374,W,1,11,1.3,20,M,,M,,*6F
06/18/2015	20:01:11.557	$GPGGA,200112,2553.1453,N,07922.7402,W,1,11,1.3,20,M,,M,,*6D
06/18/2015	20:01:12.567	$GPGGA,200113,2553.1461,N,07922.7417,W,1,11,1.3,19,M,,M,,*63
06/18/2015	20:01:13.556	$GPGGA,200114,2553.1461,N,07922.7417,W,1,11,1.3,19,M,,M,,*64
06/18/2015	20:01:14.536	$GPGGA,200115,2553.1472,N,07922.7431,W,1,11,1.3,19,M,,M,,*63
06/18/2015	20:01:15.566	$GPGGA,200116,2553.1492,N,07922.7457,W,1,11,1.3,19,M,,M,,*6E
06/18/2015	20:01:16.546	$GPGGA,200117,2553.1501,N,07922.7471,W,1,11,1.3,19,M,,M,,*60
06/18/2015	20:01:17.536	$GPGGA,200118,2553.1512,N,07922.7486,W,1,11,1.3,19,M,,M,,*65
06/18/2015	20:01:18.577	$GPGGA,200119,2553.1512,N,07922.7486,W,1,11,1.3,19,M,,M,,*64
06/18/2015	20:01:19.566	$GPGGA,200120,2553.1533,N,07922.7514,W,1,11,1.5,19,M,,M,,*61
06/18/2015	20:01:20.626	$GPGGA,200121,2553.1544,N,07922.7527,W,1,11,1.5,19,M,,M,,*60
06/18/2015	20:01:21.516	$GPGGA,200122,2553.1555,N,07922.7543,W,1,10,1.3,19,M,,M,,*66
06/18/2015	20:01:22.526	$GPGGA,200123,2553.1555,N,07922.7543,W,1,10,1.3,19,M,,M,,*67
06/18/2015	20:01:23.581	$GPGGA,200124,2553.1577,N,07922.7570,W,1,11,1.3,19,M,,M,,*61
06/18/2015	20:01:24.516	$GPGGA,200125,2553.1577,N,07922.7570,W,1,11,1.3,19,M,,M,,*60
06/18/2015	20:01:25.616	$GPGGA,200126,2553.1599,N,07922.7599,W,1,10,1.5,19,M,,M,,*63
06/18/2015	20:01:26.527	$GPGGA,200127,2553.1599,N,07922.7599,W,1,10,1.8,19,M,,M,,*6F
06/18/2015	20:01:27.517	$GPGGA,200128,2553.1619,N,07922.7626,W,1,10,1.5,19,M,,M,,*61
06/18/2015	20:01:28.617	$GPGGA,200129,2553.1630,N,07922.7639,W,1,10,1.5,19,M,,M,,*65
06/18/2015	20:01:29.607	$GPGGA,200130,2553.1639,N,07922.7656,W,1,10,1.6,19,M,,M,,*6E
06/18/2015	20:01:30.596	$GPGGA,200131,2553.1649,N,07922.7670,W,1,10,1.3,19,M,,M,,*69
06/18/2015	20:01:31.506	$GPGGA,200132,2553.1660,N,07922.7680,W,1,11,1.3,19,M,,M,,*6F
06/18/2015	20:01:32.579	$GPGGA,200133,2553.1671,N,07922.7695,W,1,11,1.3,19,M,,M,,*6A
06/18/2015	20:01:33.596	$GPGGA,200134,2553.1681,N,07922.7710,W,1,10,1.5,19,M,,M,,*69
06/18/2015	20:01:34.606	$GPGGA,200135,2553.1691,N,07922.7724,W,1,10,1.5,19,M,,M,,*6E
06/18/2015	20:01:35.596	$GPGGA,200136,2553.1702,N,07922.7739,W,1,10,1.5,19,M,,M,,*6A
06/18/2015	20:01:36.577	$GPGGA,200137,2553.1713,N,07922.7754,W,1,10,1.3,19,M,,M,,*66
06/18/2015	20:01:37.596	$GPGGA,200138,2553.1722,N,07922.7768,W,1,11,1.3,19,M,,M,,*65
06/18/2015	20:01:38.566	$GPGGA,200139,2553.1732,N,07922.7783,W,1,11,1.3,19,M,,M,,*60
06/18/2015	20:01:39.606	$GPGGA,200140,2553.1747,N,07922.7798,W,1,10,1.5,19,M,,M,,*61
06/18/2015	20:01:40.566	$GPGGA,200141,2553.1757,N,07922.7812,W,1,10,1.3,19,M,,M,,*6A
06/18/2015	20:01:41.596	$GPGGA,200142,2553.1768,N,07922.7827,W,1,11,1.3,19,M,,M,,*62
06/18/2015	20:01:42.596	$GPGGA,200143,2553.1779,N,07922.7841,W,1,11,1.3,19,M,,M,,*63
06/18/2015	20:01:43.597	$GPGGA,200144,2553.1790,N,07922.7855,W,1,11,1.3,19,M,,M,,*66
06/18/2015	20:01:44.557	$GPGGA,200145,2553.1801,N,07922.7869,W,1,11,1.3,19,M,,M,,*6F
06/18/2015	20:01:45.578	$GPGGA,200146,2553.1811,N,07922.7883,W,1,11,1.3,19,M,,M,,*69
06/18/2015	20:01:46.557	$GPGGA,200147,2553.1819,N,07922.7897,W,1,11,1.3,19,M,,M,,*65
06/18/2015	20:01:47.587	$GPGGA,200148,2553.1830,N,07922.7910,W,1,11,1.3,19,M,,M,,*6F
06/18/2015	20:01:48.546	$GPGGA,200149,2553.1841,N,07922.7926,W,1,11,1.3,19,M,,M,,*6D
06/18/2015	20:01:49.546	$GPGGA,200150,2553.1850,N,07922.7938,W,1,11,1.3,19,M,,M,,*6A
06/18/2015	20:01:51.586	$GPGGA,200152,2553.1870,N,07922.7966,W,1,11,1.3,19,M,,M,,*61
06/18/2015	20:01:52.556	$GPGGA,200153,2553.1880,N,07922.7980,W,1,11,1.3,19,M,,M,,*67
06/18/2015	20:01:53.536	$GPGGA,200154,2553.1890,N,07922.7995,W,1,11,1.3,19,M,,M,,*65
06/18/2015	20:01:54.546	$GPGGA,200155,2553.1898,N,07922.8007,W,1,11,1.3,19,M,,M,,*61
06/18/2015	20:01:55.586	$GPGGA,200156,2553.1909,N,07922.8017,W,1,10,1.6,19,M,,M,,*6E
06/18/2015	20:01:56.546	$GPGGA,200157,2553.1919,N,07922.8033,W,1,10,1.3,19,M,,M,,*6D
06/18/2015	20:01:58.666	$GPGGA,200159,2553.1937,N,07922.8058,W,1,11,1.3,19,M,,M,,*63
06/18/2015	20:01:59.577	$GPGGA,200200,2553.1945,N,07922.8074,W,1,11,1.3,19,M,,M,,*67
06/18/2015	20:02:00.546	$GPGGA,200201,2553.1956,N,07922.8087,W,1,11,1.6,19,M,,M,,*6D
06/18/2015	20:02:01.527	$GPGGA,200202,2553.1966,N,07922.8101,W,1,10,1.6,19,M,,M,,*63
06/18/2015	20:02:02.547	$GPGGA,200203,2553.1974,N,07922.8116,W,1,10,1.3,19,M,,M,,*62
06/18/2015	20:02:03.567	$GPGGA,200204,2553.1984,N,07922.8129,W,1,11,1.3,19,M,,M,,*67
06/18/2015	20:02:04.537	$GPGGA,200205,2553.1993,N,07922.8143,W,1,11,1.3,19,M,,M,,*6C
06/18/2015	20:02:05.526	$GPGGA,200206,2553.2003,N,07922.8158,W,1,11,1.3,19,M,,M,,*66
06/18/2015	20:02:06.506	$GPGGA,200207,2553.2011,N,07922.8172,W,1,11,1.3,19,M,,M,,*6C
06/18/2015	20:02:07.616	$GPGGA,200208,2553.2021,N,07922.8184,W,1,11,1.3,19,M,,M,,*69
06/18/2015	20:02:08.537	$GPGGA,200209,2553.2031,N,07922.8198,W,1,11,1.3,20,M,,M,,*6E
06/18/2015	20:02:09.616	$GPGGA,200210,2553.2039,N,07922.8212,W,1,11,1.3,20,M,,M,,*6F
06/18/2015	20:02:10.526	$GPGGA,200211,2553.2049,N,07922.8226,W,1,11,1.3,20,M,,M,,*6E
06/18/2015	20:02:11.536	$GPGGA,200212,2553.2058,N,07922.8241,W,1,11,1.3,20,M,,M,,*6C
06/18/2015	20:02:12.596	$GPGGA,200213,2553.2068,N,07922.8255,W,1,11,1.3,20,M,,M,,*6B
06/18/2015	20:02:13.596	$GPGGA,200214,2553.2076,N,07922.8269,W,1,11,1.3,20,M,,M,,*6C
06/18/2015	20:02:14.516	$GPGGA,200215,2553.2086,N,07922.8282,W,1,11,1.3,20,M,,M,,*67
06/18/2015	20:02:15.606	$GPGGA,200216,2553.2096,N,07922.8296,W,1,10,1.5,20,M,,M,,*67
06/18/2015	20:02:16.596	$GPGGA,200217,2553.2104,N,07922.8310,W,1,10,1.3,20,M,,M,,*65
06/18/2015	20:02:17.596	$GPGGA,200218,2553.2112,N,07922.8324,W,1,11,1.3,20,M,,M,,*6B
06/18/2015	20:02:18.517	$GPGGA,200219,2553.2122,N,07922.8338,W,1,11,1.3,20,M,,M,,*64
06/18/2015	20:02:19.607	$GPGGA,200220,2553.2132,N,07922.8352,W,1,11,1.3,20,M,,M,,*63
06/18/2015	20:02:20.578	$GPGGA,200221,2553.2141,N,07922.8365,W,1,11,1.3,20,M,,M,,*62
06/18/2015	20:02:21.617	$GPGGA,200222,2553.2150,N,07922.8379,W,1,11,1.3,20,M,,M,,*6C
06/18/2015	20:02:22.587	$GPGGA,200223,2553.2158,N,07922.8393,W,1,11,1.3,20,M,,M,,*61
06/18/2015	20:02:23.616	$GPGGA,200224,2553.2168,N,07922.8407,W,1,11,1.3,20,M,,M,,*6F
06/18/2015	20:02:24.577	$GPGGA,200225,2553.2177,N,07922.8421,W,1,11,1.3,20,M,,M,,*64
06/18/2015	20:02:25.586	$GPGGA,200226,2553.2187,N,07922.8436,W,1,11,1.3,20,M,,M,,*6E
06/18/2015	20:02:26.566	$GPGGA,200227,2553.2195,N,07922.8450,W,1,11,1.3,20,M,,M,,*6C
06/18/2015	20:02:27.616	$GPGGA,200228,2553.2206,N,07922.8464,W,1,11,1.3,20,M,,M,,*6D
06/18/2015	20:02:28.566	$GPGGA,200229,2553.2216,N,07922.8477,W,1,11,1.3,20,M,,M,,*6F
06/18/2015	20:02:29.588	$GPGGA,200230,2553.2224,N,07922.8493,W,1,10,1.6,20,M,,M,,*68
06/18/2015	20:02:30.566	$GPGGA,200231,2553.2234,N,07922.8508,W,1,10,1.6,20,M,,M,,*6B
06/18/2015	20:02:31.596	$GPGGA,200232,2553.2245,N,07922.8522,W,1,10,1.6,20,M,,M,,*66
06/18/2015	20:02:32.556	$GPGGA,200233,2553.2255,N,07922.8535,W,1,10,1.6,20,M,,M,,*60
06/18/2015	20:02:33.556	$GPGGA,200234,2553.2263,N,07922.8551,W,1,10,1.6,20,M,,M,,*60
06/18/2015	20:02:34.566	$GPGGA,200235,2553.2274,N,07922.8564,W,1,10,1.3,20,M,,M,,*64
06/18/2015	20:02:35.576	$GPGGA,200236,2553.2284,N,07922.8580,W,1,11,1.3,20,M,,M,,*63
06/18/2015	20:02:36.557	$GPGGA,200237,2553.2294,N,07922.8595,W,1,11,1.3,20,M,,M,,*67
06/18/2015	20:02:37.578	$GPGGA,200238,2553.2303,N,07922.8607,W,1,11,1.3,20,M,,M,,*6F
06/18/2015	20:02:39.627	$GPGGA,200240,2553.2323,N,07922.8635,W,1,11,1.3,20,M,,M,,*63
06/18/2015	20:02:40.537	$GPGGA,200241,2553.2332,N,07922.8649,W,1,11,1.3,20,M,,M,,*69
06/18/2015	20:02:41.536	$GPGGA,200242,2553.2343,N,07922.8663,W,1,11,1.3,20,M,,M,,*64
06/18/2015	20:02:42.556	$GPGGA,200243,2553.2353,N,07922.8678,W,1,11,1.3,20,M,,M,,*6E
06/18/2015	20:02:43.586	$GPGGA,200244,2553.2361,N,07922.8692,W,1,10,1.5,20,M,,M,,*6B
06/18/2015	20:02:44.536	$GPGGA,200245,2553.2372,N,07922.8707,W,1,10,1.8,20,M,,M,,*68
06/18/2015	20:02:45.546	$GPGGA,200246,2553.2382,N,07922.8721,W,1,9,1.8,20,M,,M,,*58
06/18/2015	20:02:46.546	$GPGGA,200247,2553.2393,N,07922.8733,W,1,9,1.8,20,M,,M,,*5A
06/18/2015	20:02:47.546	$GPGGA,200248,2553.2401,N,07922.8747,W,1,10,1.6,20,M,,M,,*6C
06/18/2015	20:02:48.516	$GPGGA,200249,2553.2411,N,07922.8761,W,1,10,1.5,20,M,,M,,*6B
06/18/2015	20:02:49.536	$GPGGA,200250,2553.2419,N,07922.8772,W,1,11,1.3,20,M,,M,,*6E
06/18/2015	20:02:50.526	$GPGGA,200251,2553.2430,N,07922.8786,W,1,11,1.3,20,M,,M,,*6F
06/18/2015	20:02:51.566	$GPGGA,200252,2553.2440,N,07922.8800,W,1,11,1.3,20,M,,M,,*6A
06/18/2015	20:02:52.636	$GPGGA,200253,2553.2451,N,07922.8813,W,1,11,1.8,20,M,,M,,*62
06/18/2015	20:02:53.507	$GPGGA,200254,2553.2461,N,07922.8826,W,1,10,1.5,20,M,,M,,*6C
06/18/2015	20:02:54.507	$GPGGA,200255,2553.2473,N,07922.8840,W,1,10,1.5,20,M,,M,,*6E
06/18/2015	20:02:55.527	$GPGGA,200256,2553.2486,N,07922.8853,W,1,11,1.3,20,M,,M,,*62
06/18/2015	20:02:56.507	$GPGGA,200257,2553.2495,N,07922.8867,W,1,11,1.3,20,M,,M,,*66
06/18/2015	20:02:57.517	$GPGGA,200258,2553.2505,N,07922.8880,W,1,10,1.5,20,M,,M,,*6F
06/18/2015	20:02:58.616	$GPGGA,200259,2553.2515,N,07922.8892,W,1,10,1.5,20,M,,M,,*6C
06/18/2015	20:02:59.676	$GPGGA,200300,2553.2523,N,07922.8905,W,1,10,1.5,20,M,,M,,*6B
06/18/2015	20:03:00.606	$GPGGA,200301,2553.2534,N,07922.8920,W,1,10,1.3,20,M,,M,,*6D
06/18/2015	20:03:01.616	$GPGGA,200302,2553.2545,N,07922.8934,W,1,11,1.3,21,M,,M,,*6D
06/18/2015	20:03:02.596	$GPGGA,200303,2553.2556,N,07922.8946,W,1,11,1.3,21,M,,M,,*6B
06/18/2015	20:03:03.626	$GPGGA,200304,2553.2566,N,07922.8960,W,1,11,1.3,21,M,,M,,*6B
06/18/2015	20:03:04.596	$GPGGA,200305,2553.2574,N,07922.8974,W,1,11,1.3,21,M,,M,,*6C
06/18/2015	20:03:05.606	$GPGGA,200306,2553.2585,N,07922.8988,W,1,11,1.3,21,M,,M,,*62
06/18/2015	20:03:06.506	$GPGGA,200307,2553.2595,N,07922.9003,W,1,11,1.8,21,M,,M,,*62
06/18/2015	20:03:07.606	$GPGGA,200308,2553.2606,N,07922.9018,W,1,9,1.8,21,M,,M,,*57
06/18/2015	20:03:08.896	$GPGGA,200309,2553.2616,N,07922.9033,W,1,9,1.6,21,M,,M,,*50
06/18/2015	20:03:09.606	$GPGGA,200310,2553.2627,N,07922.9048,W,1,9,1.8,21,M,,M,,*58
06/18/2015	20:03:10.577	$GPGGA,200311,2553.2636,N,07922.9064,W,1,9,1.8,21,M,,M,,*57
06/18/2015	20:03:11.607	$GPGGA,200312,2553.2646,N,07922.9076,W,1,11,1.3,21,M,,M,,*62
06/18/2015	20:03:12.567	$GPGGA,200313,2553.2657,N,07922.9090,W,1,11,1.5,21,M,,M,,*6D
06/18/2015	20:03:13.567	$GPGGA,200314,2553.2667,N,07922.9105,W,1,10,1.5,21,M,,M,,*65
06/18/2015	20:03:14.578	$GPGGA,200315,2553.2678,N,07922.9119,W,1,10,1.3,21,M,,M,,*61
06/18/2015	20:03:15.606	$GPGGA,200316,2553.2689,N,07922.9133,W,1,11,1.3,21,M,,M,,*65
06/18/2015	20:03:16.577	$GPGGA,200317,2553.2699,N,07922.9148,W,1,11,1.3,21,M,,M,,*69
06/18/2015	20:03:17.596	$GPGGA,200318,2553.2710,N,07922.9162,W,1,11,1.3,21,M,,M,,*6E
06/18/2015	20:03:18.566	$GPGGA,200319,2553.2721,N,07922.9176,W,1,11,1.3,21,M,,M,,*68
06/18/2015	20:03:19.596	$GPGGA,200320,2553.2729,N,07922.9189,W,1,11,1.3,21,M,,M,,*6A
06/18/2015	20:03:20.566	$GPGGA,200321,2553.2737,N,07922.9203,W,1,11,1.3,21,M,,M,,*65
06/18/2015	20:03:21.556	$GPGGA,200322,2553.2747,N,07922.9217,W,1,11,1.3,21,M,,M,,*64
06/18/2015	20:03:22.566	$GPGGA,200323,2553.2757,N,07922.9230,W,1,11,1.4,21,M,,M,,*66
06/18/2015	20:03:23.566	$GPGGA,200324,2553.2766,N,07922.9246,W,1,10,1.4,21,M,,M,,*63
06/18/2015	20:03:24.556	$GPGGA,200325,2553.2776,N,07922.9260,W,1,10,1.3,21,M,,M,,*60
06/18/2015	20:03:25.546	$GPGGA,200326,2553.2787,N,07922.9275,W,1,11,1.3,21,M,,M,,*68
06/18/2015	20:03:26.536	$GPGGA,200327,2553.2798,N,07922.9290,W,1,11,1.3,21,M,,M,,*6C
06/18/2015	20:03:27.566	$GPGGA,200328,2553.2807,N,07922.9306,W,1,11,1.3,21,M,,M,,*64
06/18/2015	20:03:28.547	$GPGGA,200329,2553.2816,N,07922.9321,W,1,11,1.6,21,M,,M,,*65
06/18/2015	20:03:29.547	$GPGGA,200330,2553.2827,N,07922.9335,W,1,10,1.6,21,M,,M,,*6B
06/18/2015	20:03:30.547	$GPGGA,200331,2553.2836,N,07922.9350,W,1,10,1.3,21,M,,M,,*6C
06/18/2015	20:03:31.547	$GPGGA,200332,2553.2845,N,07922.9364,W,1,10,1.6,21,M,,M,,*69
06/18/2015	20:03:32.537	$GPGGA,200333,2553.2856,N,07922.9379,W,1,10,1.6,21,M,,M,,*66
06/18/2015	20:03:33.536	$GPGGA,200334,2553.2865,N,07922.9393,W,1,9,1.7,21,M,,M,,*5C
06/18/2015	20:03:34.536	$GPGGA,200335,2553.2874,N,07922.9408,W,1,9,1.6,21,M,,M,,*59
06/18/2015	20:03:35.577	$GPGGA,200336,2553.2885,N,07922.9422,W,1,11,1.3,21,M,,M,,*60
06/18/2015	20:03:36.536	$GPGGA,200337,2553.2895,N,07922.9436,W,1,11,1.6,21,M,,M,,*60
06/18/2015	20:03:37.536	$GPGGA,200338,2553.2903,N,07922.9451,W,1,10,1.6,21,M,,M,,*61
06/18/2015	20:03:38.516	$GPGGA,200339,2553.2913,N,07922.9465,W,1,10,1.6,21,M,,M,,*66
06/18/2015	20:03:39.536	$GPGGA,200340,2553.2923,N,07922.9480,W,1,10,1.6,22,M,,M,,*63
06/18/2015	20:03:40.627	$GPGGA,200341,2553.2932,N,07922.9494,W,1,10,1.6,22,M,,M,,*67
06/18/2015	20:03:41.637	$GPGGA,200342,2553.2942,N,07922.9510,W,1,11,1.3,22,M,,M,,*6A
06/18/2015	20:03:42.616	$GPGGA,200343,2553.2952,N,07922.9524,W,1,11,1.3,22,M,,M,,*6D
06/18/2015	20:03:43.536	$GPGGA,200344,2553.2961,N,07922.9538,W,1,10,1.6,22,M,,M,,*63
06/18/2015	20:03:44.626	$GPGGA,200345,2553.2970,N,07922.9550,W,1,10,1.6,22,M,,M,,*6C
06/18/2015	20:03:45.496	$GPGGA,200346,2553.2979,N,07922.9566,W,1,11,1.3,22,M,,M,,*67
06/18/2015	20:03:46.517	$GPGGA,200347,2553.2989,N,07922.9579,W,1,11,1.6,22,M,,M,,*62
06/18/2015	20:03:47.637	$GPGGA,200348,2553.2997,N,07922.9593,W,1,10,1.6,22,M,,M,,*67
06/18/2015	20:03:48.527	$GPGGA,200349,2553.3008,N,07922.9610,W,1,10,1.6,22,M,,M,,*60
06/18/2015	20:03:49.607	$GPGGA,200350,2553.3018,N,07922.9625,W,1,11,1.3,22,M,,M,,*6B
06/18/2015	20:03:50.506	$GPGGA,200351,2553.3028,N,07922.9642,W,1,11,1.3,22,M,,M,,*68
06/18/2015	20:03:51.626	$GPGGA,200352,2553.3037,N,07922.9657,W,1,11,1.3,22,M,,M,,*61
06/18/2015	20:03:52.586	$GPGGA,200353,2553.3047,N,07922.9671,W,1,11,1.3,21,M,,M,,*60
06/18/2015	20:03:53.586	$GPGGA,200354,2553.3058,N,07922.9686,W,1,11,1.3,21,M,,M,,*61
06/18/2015	20:03:54.586	$GPGGA,200355,2553.3066,N,07922.9700,W,1,11,1.3,21,M,,M,,*62
06/18/2015	20:03:55.596	$GPGGA,200356,2553.3076,N,07922.9714,W,1,11,1.3,21,M,,M,,*65
06/18/2015	20:03:56.578	$GPGGA,200357,2553.3086,N,07922.9727,W,1,11,1.3,21,M,,M,,*6B
06/18/2015	20:03:57.606	$GPGGA,200358,2553.3096,N,07922.9741,W,1,11,1.3,21,M,,M,,*65
06/18/2015	20:03:58.586	$GPGGA,200359,2553.3104,N,07922.9755,W,1,11,1.3,21,M,,M,,*6B
06/18/2015	20:03:59.646	$GPGGA,200400,2553.3113,N,07922.9769,W,1,11,1.3,21,M,,M,,*69
06/18/2015	20:04:00.576	$GPGGA,200401,2553.3125,N,07922.9783,W,1,11,1.3,21,M,,M,,*69
06/18/2015	20:04:01.566	$GPGGA,200402,2553.3133,N,07922.9796,W,1,11,1.3,20,M,,M,,*68
06/18/2015	20:04:02.566	$GPGGA,200403,2553.3141,N,07922.9810,W,1,11,1.3,20,M,,M,,*6D
06/18/2015	20:04:03.617	$GPGGA,200404,2553.3152,N,07922.9823,W,1,11,1.3,20,M,,M,,*68
06/18/2015	20:04:04.577	$GPGGA,200405,2553.3162,N,07922.9837,W,1,11,1.3,20,M,,M,,*6F
06/18/2015	20:04:05.577	$GPGGA,200406,2553.3170,N,07922.9848,W,1,10,1.6,20,M,,M,,*63
06/18/2015	20:04:06.567	$GPGGA,200407,2553.3181,N,07922.9863,W,1,10,1.3,20,M,,M,,*60
06/18/2015	20:04:07.586	$GPGGA,200408,2553.3192,N,07922.9877,W,1,10,1.5,20,M,,M,,*6E
06/18/2015	20:04:08.556	$GPGGA,200409,2553.3201,N,07922.9892,W,1,10,1.5,20,M,,M,,*6D
06/18/2015	20:04:09.576	$GPGGA,200410,2553.3210,N,07922.9904,W,1,9,1.8,20,M,,M,,*5E
06/18/2015	20:04:10.557	$GPGGA,200411,2553.3221,N,07922.9918,W,1,9,1.8,20,M,,M,,*50
06/18/2015	20:04:11.578	$GPGGA,200412,2553.3231,N,07922.9931,W,1,9,1.8,20,M,,M,,*59
06/18/2015	20:04:12.556	$GPGGA,200413,2553.3241,N,07922.9946,W,1,9,1.5,20,M,,M,,*52
06/18/2015	20:04:13.566	$GPGGA,200414,2553.3250,N,07922.9960,W,1,9,1.8,20,M,,M,,*5C
06/18/2015	20:04:14.546	$GPGGA,200415,2553.3259,N,07922.9969,W,1,9,1.8,20,M,,M,,*5D
06/18/2015	20:04:15.586	$GPGGA,200416,2553.3268,N,07922.9980,W,1,11,1.3,20,M,,M,,*69
06/18/2015	20:04:16.546	$GPGGA,200417,2553.3279,N,07922.9996,W,1,11,1.5,20,M,,M,,*69
06/18/2015	20:04:17.526	$GPGGA,200418,2553.3289,N,07923.0009,W,1,11,1.3,20,M,,M,,*68
06/18/2015	20:04:18.546	$GPGGA,200419,2553.3300,N,07923.0022,W,1,11,1.8,20,M,,M,,*6B
06/18/2015	20:04:19.546	$GPGGA,200420,2553.3311,N,07923.0036,W,1,10,1.5,20,M,,M,,*68
06/18/2015	20:04:20.536	$GPGGA,200421,2553.3318,N,07923.0050,W,1,10,1.5,20,M,,M,,*60
06/18/2015	20:04:21.547	$GPGGA,200422,2553.3331,N,07923.0063,W,1,11,1.3,20,M,,M,,*6F
06/18/2015	20:04:22.527	$GPGGA,200423,2553.3343,N,07923.0077,W,1,11,1.3,20,M,,M,,*6E
06/18/2015	20:04:23.567	$GPGGA,200424,2553.3353,N,07923.0091,W,1,11,1.3,20,M,,M,,*60
06/18/2015	20:04:24.517	$GPGGA,200425,2553.3362,N,07923.0105,W,1,11,1.3,20,M,,M,,*6F
06/18/2015	20:04:25.946	$GPGGA,200426,2553.3375,N,07923.0119,W,1,10,1.3,20,M,,M,,*66
06/18/2015	20:04:26.516	$GPGGA,200427,2553.3385,N,07923.0133,W,1,10,1.3,20,M,,M,,*60
06/18/2015	20:04:27.626	$GPGGA,200428,2553.3394,N,07923.0146,W,1,10,1.3,21,M,,M,,*6C
06/18/2015	20:04:28.526	$GPGGA,200429,2553.3405,N,07923.0162,W,1,10,1.3,21,M,,M,,*64
06/18/2015	20:04:29.656	$GPGGA,200430,2553.3416,N,07923.0175,W,1,10,1.8,21,M,,M,,*63
06/18/2015	20:04:30.526	$GPGGA,200431,2553.3432,N,07923.0191,W,1,10,1.8,21,M,,M,,*6E
06/18/2015	20:04:31.526	$GPGGA,200432,2553.3441,N,07923.0206,W,1,10,1.6,21,M,,M,,*6A
06/18/2015	20:04:32.496	$GPGGA,200433,2553.3451,N,07923.0220,W,1,10,1.5,21,M,,M,,*6D
06/18/2015	20:04:33.496	$GPGGA,200434,2553.3461,N,07923.0235,W,1,9,1.8,21,M,,M,,*58
06/18/2015	20:04:34.506	$GPGGA,200435,2553.3470,N,07923.0249,W,1,9,1.8,21,M,,M,,*52
06/18/2015	20:04:35.676	$GPGGA,200436,2553.3480,N,07923.0264,W,1,10,1.8,21,M,,M,,*69
06/18/2015	20:04:36.507	$GPGGA,200437,2553.3490,N,07923.0278,W,1,10,1.8,21,M,,M,,*64
06/18/2015	20:04:37.486	$GPGGA,200438,2553.3499,N,07923.0292,W,1,10,1.6,21,M,,M,,*68
06/18/2015	20:04:38.607	$GPGGA,200439,2553.3509,N,07923.0307,W,1,10,1.8,21,M,,M,,*62
06/18/2015	20:04:39.667	$GPGGA,200440,2553.3517,N,07923.0318,W,1,9,1.5,21,M,,M,,*58
06/18/2015	20:04:40.587	$GPGGA,200441,2553.3528,N,07923.0330,W,1,9,1.3,21,M,,M,,*59
06/18/2015	20:04:41.617	$GPGGA,200442,2553.3541,N,07923.0345,W,1,11,1.7,21,M,,M,,*6A
06/18/2015	20:04:42.577	$GPGGA,200443,2553.3549,N,07923.0358,W,1,11,1.5,21,M,,M,,*6D
06/18/2015	20:04:43.636	$GPGGA,200444,2553.3557,N,07923.0372,W,1,10,1.5,21,M,,M,,*6C
06/18/2015	20:04:44.586	$GPGGA,200445,2553.3570,N,07923.0387,W,1,10,1.3,21,M,,M,,*64
06/18/2015	20:04:45.578	$GPGGA,200446,2553.3579,N,07923.0401,W,1,11,1.3,21,M,,M,,*66
06/18/2015	20:04:46.580	$GPGGA,200447,2553.3588,N,07923.0416,W,1,11,1.3,21,M,,M,,*6F
06/18/2015	20:04:47.616	$GPGGA,200448,2553.3597,N,07923.0430,W,1,11,1.3,21,M,,M,,*6A
06/18/2015	20:04:48.579	$GPGGA,200449,2553.3609,N,07923.0444,W,1,11,1.3,21,M,,M,,*6C
06/18/2015	20:04:49.566	$GPGGA,200450,2553.3618,N,07923.0459,W,1,11,1.3,21,M,,M,,*68
06/18/2015	20:04:50.581	$GPGGA,200451,2553.3628,N,07923.0473,W,1,11,1.3,21,M,,M,,*62
06/18/2015	20:04:51.636	$GPGGA,200452,2553.3638,N,07923.0488,W,1,11,1.3,21,M,,M,,*64
06/18/2015	20:04:52.566	$GPGGA,200453,2553.3647,N,07923.0502,W,1,11,1.3,20,M,,M,,*6F
06/18/2015	20:04:53.556	$GPGGA,200454,2553.3658,N,07923.0517,W,1,11,1.3,20,M,,M,,*62
06/18/2015	20:04:54.566	$GPGGA,200455,2553.3668,N,07923.0531,W,1,11,1.3,20,M,,M,,*64
06/18/2015	20:04:55.596	$GPGGA,200456,2553.3678,N,07923.0545,W,1,11,1.3,20,M,,M,,*65
06/18/2015	20:04:56.557	$GPGGA,200457,2553.3687,N,07923.0560,W,1,11,1.3,20,M,,M,,*63
06/18/2015	20:04:57.577	$GPGGA,200458,2553.3697,N,07923.0574,W,1,11,1.3,20,M,,M,,*68
06/18/2015	20:04:58.997	$GPGGA,200459,2553.3707,N,07923.0589,W,1,11,1.3,20,M,,M,,*63
06/18/2015	20:04:59.647	$GPGGA,200500,2553.3716,N,07923.0601,W,1,11,1.3,20,M,,M,,*6D
06/18/2015	20:05:00.546	$GPGGA,200501,2553.3727,N,07923.0615,W,1,11,1.3,20,M,,M,,*6B
06/18/2015	20:05:01.586	$GPGGA,200502,2553.3736,N,07923.0630,W,1,11,1.3,20,M,,M,,*6F
06/18/2015	20:05:02.556	$GPGGA,200503,2553.3745,N,07923.0643,W,1,11,1.3,20,M,,M,,*6E
06/18/2015	20:05:03.586	$GPGGA,200504,2553.3755,N,07923.0658,W,1,11,1.3,20,M,,M,,*62
06/18/2015	20:05:04.547	$GPGGA,200505,2553.3766,N,07923.0672,W,1,11,1.3,20,M,,M,,*6B
06/18/2015	20:05:05.546	$GPGGA,200506,2553.3774,N,07923.0686,W,1,11,1.3,20,M,,M,,*60
06/18/2015	20:05:06.536	$GPGGA,200507,2553.3784,N,07923.0699,W,1,11,1.3,20,M,,M,,*60
06/18/2015	20:05:07.636	$GPGGA,200508,2553.3794,N,07923.0713,W,1,11,1.3,20,M,,M,,*6D
06/18/2015	20:05:08.526	$GPGGA,200509,2553.3803,N,07923.0727,W,1,11,1.3,20,M,,M,,*6A
06/18/2015	20:05:09.516	$GPGGA,200510,2553.3813,N,07923.0742,W,1,11,1.3,20,M,,M,,*60
06/18/2015	20:05:10.636	$GPGGA,200511,2553.3823,N,07923.0756,W,1,11,1.3,20,M,,M,,*67
06/18/2015	20:05:11.556	$GPGGA,200512,2553.3823,N,07923.0756,W,1,11,1.3,19,M,,M,,*6E
06/18/2015	20:05:12.536	$GPGGA,200513,2553.3844,N,07923.0785,W,1,11,1.3,19,M,,M,,*60
06/18/2015	20:05:13.546	$GPGGA,200514,2553.3853,N,07923.0799,W,1,11,1.3,19,M,,M,,*6C
06/18/2015	20:05:14.606	$GPGGA,200515,2553.3862,N,07923.0813,W,1,11,1.7,19,M,,M,,*66
06/18/2015	20:05:15.616	$GPGGA,200516,2553.3871,N,07923.0827,W,1,10,1.3,19,M,,M,,*65
06/18/2015	20:05:16.526	$GPGGA,200517,2553.3882,N,07923.0840,W,1,10,1.3,19,M,,M,,*69
06/18/2015	20:05:17.515	$GPGGA,200518,2553.3891,N,07923.0853,W,1,11,1.3,19,M,,M,,*67
06/18/2015	20:05:18.505	$GPGGA,200519,2553.3900,N,07923.0867,W,1,11,1.3,19,M,,M,,*68
06/18/2015	20:05:19.645	$GPGGA,200520,2553.3900,N,07923.0867,W,1,11,1.3,19,M,,M,,*62
06/18/2015	20:05:20.525	$GPGGA,200521,2553.3920,N,07923.0894,W,1,11,1.3,19,M,,M,,*6D
06/18/2015	20:05:21.615	$GPGGA,200522,2553.3929,N,07923.0908,W,1,11,1.3,19,M,,M,,*63
06/18/2015	20:05:22.515	$GPGGA,200523,2553.3939,N,07923.0921,W,1,11,1.3,19,M,,M,,*68
06/18/2015	20:05:23.616	$GPGGA,200524,2553.3949,N,07923.0936,W,1,11,1.3,19,M,,M,,*6E
06/18/2015	20:05:24.516	$GPGGA,200525,2553.3958,N,07923.0950,W,1,11,1.3,19,M,,M,,*6F
06/18/2015	20:05:25.596	$GPGGA,200526,2553.3967,N,07923.0964,W,1,11,1.3,19,M,,M,,*67
06/18/2015	20:05:26.578	$GPGGA,200527,2553.3976,N,07923.0977,W,1,11,1.3,19,M,,M,,*64
06/18/2015	20:05:27.616	$GPGGA,200528,2553.3987,N,07923.0991,W,1,11,1.3,19,M,,M,,*6D
06/18/2015	20:05:28.576	$GPGGA,200529,2553.3996,N,07923.1006,W,1,11,1.3,19,M,,M,,*6A
06/18/2015	20:05:29.606	$GPGGA,200530,2553.4005,N,07923.1020,W,1,11,1.3,19,M,,M,,*62
06/18/2015	20:05:30.571	$GPGGA,200531,2553.4016,N,07923.1034,W,1,11,1.3,19,M,,M,,*64
06/18/2015	20:05:31.606	$GPGGA,200532,2553.4026,N,07923.1048,W,1,11,1.3,19,M,,M,,*6F
06/18/2015	20:05:32.581	$GPGGA,200533,2553.4034,N,07923.1062,W,1,11,1.3,19,M,,M,,*65
06/18/2015	20:05:33.556	$GPGGA,200534,2553.4044,N,07923.1077,W,1,11,1.3,19,M,,M,,*61
06/18/2015	20:05:34.568	$GPGGA,200535,2553.4055,N,07923.1091,W,1,11,1.7,19,M,,M,,*6C
06/18/2015	20:05:35.645	$GPGGA,200536,2553.4065,N,07923.1106,W,1,10,1.7,19,M,,M,,*62
06/18/2015	20:05:36.625	$GPGGA,200537,2553.4074,N,07923.1120,W,1,10,1.7,19,M,,M,,*67
06/18/2015	20:05:37.580	$GPGGA,200538,2553.4084,N,07923.1134,W,1,9,1.8,19,M,,M,,*55
06/18/2015	20:05:38.545	$GPGGA,200539,2553.4095,N,07923.1149,W,1,9,1.8,19,M,,M,,*5E
06/18/2015	20:05:39.955	$GPGGA,200540,2553.4104,N,07923.1161,W,1,10,1.5,19,M,,M,,*66
06/18/2015	20:05:40.555	$GPGGA,200541,2553.4116,N,07923.1175,W,1,10,1.5,19,M,,M,,*61
06/18/2015	20:05:41.546	$GPGGA,200542,2553.4127,N,07923.1189,W,1,11,1.3,19,M,,M,,*64
06/18/2015	20:05:42.556	$GPGGA,200543,2553.4137,N,07923.1203,W,1,11,1.3,19,M,,M,,*65
06/18/2015	20:05:43.556	$GPGGA,200544,2553.4148,N,07923.1217,W,1,11,1.3,19,M,,M,,*6F
06/18/2015	20:05:44.536	$GPGGA,200545,2553.4157,N,07923.1230,W,1,11,1.3,19,M,,M,,*65
06/18/2015	20:05:45.536	$GPGGA,200546,2553.4167,N,07923.1244,W,1,11,1.3,19,M,,M,,*66
06/18/2015	20:05:46.546	$GPGGA,200547,2553.4178,N,07923.1257,W,1,11,1.3,19,M,,M,,*6B
06/18/2015	20:05:47.556	$GPGGA,200548,2553.4189,N,07923.1272,W,1,11,1.3,19,M,,M,,*6D
06/18/2015	20:05:48.546	$GPGGA,200549,2553.4189,N,07923.1272,W,1,11,1.3,19,M,,M,,*6C
06/18/2015	20:05:49.536	$GPGGA,200550,2553.4210,N,07923.1300,W,1,11,1.3,19,M,,M,,*63
06/18/2015	20:05:50.536	$GPGGA,200551,2553.4220,N,07923.1313,W,1,11,1.3,20,M,,M,,*69
06/18/2015	20:05:51.546	$GPGGA,200552,2553.4229,N,07923.1326,W,1,11,1.3,20,M,,M,,*65
06/18/2015	20:05:52.535	$GPGGA,200553,2553.4240,N,07923.1340,W,1,11,1.3,20,M,,M,,*6B
06/18/2015	20:05:53.545	$GPGGA,200554,2553.4250,N,07923.1353,W,1,11,1.3,20,M,,M,,*6F
06/18/2015	20:05:54.515	$GPGGA,200555,2553.4261,N,07923.1367,W,1,11,1.3,20,M,,M,,*6B
06/18/2015	20:05:55.645	$GPGGA,200556,2553.4271,N,07923.1381,W,1,11,1.3,20,M,,M,,*61
06/18/2015	20:05:56.525	$GPGGA,200557,2553.4283,N,07923.1395,W,1,11,1.3,20,M,,M,,*68
06/18/2015	20:05:57.545	$GPGGA,200558,2553.4294,N,07923.1409,W,1,11,1.3,20,M,,M,,*63
06/18/2015	20:05:58.606	$GPGGA,200559,2553.4304,N,07923.1423,W,1,11,1.3,20,M,,M,,*62
06/18/2015	20:05:59.567	$GPGGA,200600,2553.4315,N,07923.1436,W,1,11,1.3,20,M,,M,,*69
06/18/2015	20:06:00.506	$GPGGA,200601,2553.4326,N,07923.1450,W,1,11,1.3,20,M,,M,,*68
06/18/2015	20:06:01.526	$GPGGA,200602,2553.4336,N,07923.1464,W,1,11,1.3,20,M,,M,,*6D
06/18/2015	20:06:02.496	$GPGGA,200603,2553.4346,N,07923.1478,W,1,11,1.3,20,M,,M,,*66
06/18/2015	20:06:03.616	$GPGGA,200604,2553.4357,N,07923.1492,W,1,11,1.3,20,M,,M,,*65
06/18/2015	20:06:04.506	$GPGGA,200605,2553.4368,N,07923.1506,W,1,11,1.3,20,M,,M,,*64
06/18/2015	20:06:05.596	$GPGGA,200606,2553.4377,N,07923.1521,W,1,11,1.3,21,M,,M,,*6D
06/18/2015	20:06:06.506	$GPGGA,200607,2553.4388,N,07923.1533,W,1,11,1.3,21,M,,M,,*6F
06/18/2015	20:06:07.526	$GPGGA,200608,2553.4398,N,07923.1547,W,1,11,1.3,21,M,,M,,*62
06/18/2015	20:06:08.586	$GPGGA,200609,2553.4409,N,07923.1561,W,1,11,1.3,21,M,,M,,*68
06/18/2015	20:06:09.496	$GPGGA,200610,2553.4420,N,07923.1575,W,1,11,1.3,21,M,,M,,*6E
06/18/2015	20:06:10.485	$GPGGA,200611,2553.4430,N,07923.1590,W,1,11,1.3,21,M,,M,,*65
06/18/2015	20:06:11.525	$GPGGA,200612,2553.4440,N,07923.1604,W,1,10,1.5,21,M,,M,,*68
06/18/2015	20:06:12.505	$GPGGA,200613,2553.4449,N,07923.1618,W,1,10,1.5,21,M,,M,,*6D
06/18/2015	20:06:13.595	$GPGGA,200614,2553.4459,N,07923.1633,W,1,10,1.5,21,M,,M,,*62
06/18/2015	20:06:14.495	$GPGGA,200615,2553.4470,N,07923.1649,W,1,10,1.8,21,M,,M,,*68
06/18/2015	20:06:15.585	$GPGGA,200616,2553.4480,N,07923.1665,W,1,9,1.8,21,M,,M,,*52
06/18/2015	20:06:16.476	$GPGGA,200617,2553.4489,N,07923.1680,W,1,9,1.8,21,M,,M,,*51
06/18/2015	20:06:17.568	$GPGGA,200618,2553.4499,N,07923.1694,W,1,10,1.5,21,M,,M,,*6F
06/18/2015	20:06:18.586	$GPGGA,200619,2553.4510,N,07923.1709,W,1,10,1.8,21,M,,M,,*66
06/18/2015	20:06:19.617	$GPGGA,200620,2553.4521,N,07923.1723,W,1,10,1.7,21,M,,M,,*69
06/18/2015	20:06:20.567	$GPGGA,200621,2553.4529,N,07923.1738,W,1,10,1.7,21,M,,M,,*6A
06/18/2015	20:06:21.576	$GPGGA,200622,2553.4539,N,07923.1752,W,1,9,1.8,21,M,,M,,*53
06/18/2015	20:06:22.576	$GPGGA,200623,2553.4549,N,07923.1763,W,1,9,1.3,21,M,,M,,*5C
06/18/2015	20:06:23.606	$GPGGA,200624,2553.4558,N,07923.1777,W,1,11,1.3,21,M,,M,,*67
06/18/2015	20:06:24.566	$GPGGA,200625,2553.4568,N,07923.1792,W,1,11,1.3,21,M,,M,,*6E
06/18/2015	20:06:25.576	$GPGGA,200626,2553.4579,N,07923.1806,W,1,11,1.3,21,M,,M,,*6F
06/18/2015	20:06:26.546	$GPGGA,200627,2553.4589,N,07923.1819,W,1,11,1.3,21,M,,M,,*6F
06/18/2015	20:06:27.595	$GPGGA,200628,2553.4599,N,07923.1835,W,1,11,1.3,21,M,,M,,*6F
06/18/2015	20:06:28.545	$GPGGA,200629,2553.4608,N,07923.1848,W,1,11,1.3,21,M,,M,,*6F
06/18/2015	20:06:29.575	$GPGGA,200630,2553.4619,N,07923.1864,W,1,11,1.3,21,M,,M,,*69
06/18/2015	20:06:30.555	$GPGGA,200631,2553.4630,N,07923.1879,W,1,11,1.3,21,M,,M,,*6F
06/18/2015	20:06:31.575	$GPGGA,200632,2553.4637,N,07923.1893,W,1,11,1.3,21,M,,M,,*6F
06/18/2015	20:06:32.545	$GPGGA,200633,2553.4647,N,07923.1908,W,1,11,1.3,21,M,,M,,*6A
06/18/2015	20:06:33.536	$GPGGA,200634,2553.4659,N,07923.1922,W,1,11,1.3,21,M,,M,,*6A
06/18/2015	20:06:34.546	$GPGGA,200635,2553.4668,N,07923.1936,W,1,11,1.3,21,M,,M,,*6C
06/18/2015	20:06:35.567	$GPGGA,200636,2553.4676,N,07923.1949,W,1,11,1.3,21,M,,M,,*68
06/18/2015	20:06:36.537	$GPGGA,200637,2553.4687,N,07923.1963,W,1,11,1.3,21,M,,M,,*6F
06/18/2015	20:06:37.527	$GPGGA,200638,2553.4697,N,07923.1977,W,1,11,1.3,21,M,,M,,*64
06/18/2015	20:06:39.016	$GPGGA,200639,2553.4706,N,07923.1991,W,1,11,1.3,21,M,,M,,*64
06/18/2015	20:06:39.546	$GPGGA,200640,2553.4715,N,07923.2006,W,1,11,1.3,20,M,,M,,*6D
06/18/2015	20:06:40.526	$GPGGA,200641,2553.4726,N,07923.2020,W,1,11,1.3,20,M,,M,,*68
06/18/2015	20:06:41.536	$GPGGA,200642,2553.4734,N,07923.2034,W,1,11,1.3,20,M,,M,,*6D
06/18/2015	20:06:42.526	$GPGGA,200643,2553.4744,N,07923.2048,W,1,11,1.3,20,M,,M,,*60
06/18/2015	20:06:43.546	$GPGGA,200644,2553.4753,N,07923.2063,W,1,11,1.3,20,M,,M,,*68
06/18/2015	20:06:44.516	$GPGGA,200645,2553.4763,N,07923.2077,W,1,11,1.3,20,M,,M,,*6F
06/18/2015	20:06:45.525	$GPGGA,200646,2553.4771,N,07923.2090,W,1,11,1.3,20,M,,M,,*66
06/18/2015	20:06:46.505	$GPGGA,200647,2553.4781,N,07923.2104,W,1,11,1.4,20,M,,M,,*63
06/18/2015	20:06:47.516	$GPGGA,200648,2553.4792,N,07923.2118,W,1,11,1.4,20,M,,M,,*63
06/18/2015	20:06:48.505	$GPGGA,200649,2553.4800,N,07923.2132,W,1,11,1.4,20,M,,M,,*6E
06/18/2015	20:06:49.615	$GPGGA,200650,2553.4810,N,07923.2146,W,1,11,1.4,20,M,,M,,*64
06/18/2015	20:06:50.515	$GPGGA,200651,2553.4821,N,07923.2160,W,1,11,1.4,20,M,,M,,*63
06/18/2015	20:06:51.556	$GPGGA,200652,2553.4829,N,07923.2175,W,1,11,1.4,20,M,,M,,*6C
06/18/2015	20:06:52.606	$GPGGA,200653,2553.4839,N,07923.2189,W,1,11,1.4,20,M,,M,,*6F
06/18/2015	20:06:53.616	$GPGGA,200654,2553.4850,N,07923.2204,W,1,11,1.4,20,M,,M,,*61
06/18/2015	20:06:54.516	$GPGGA,200655,2553.4860,N,07923.2218,W,1,11,1.4,20,M,,M,,*6E
06/18/2015	20:06:55.616	$GPGGA,200656,2553.4870,N,07923.2233,W,1,11,1.4,20,M,,M,,*65
06/18/2015	20:06:56.586	$GPGGA,200657,2553.4879,N,07923.2247,W,1,11,1.4,20,M,,M,,*6E
06/18/2015	20:06:57.616	$GPGGA,200658,2553.4890,N,07923.2262,W,1,11,1.4,20,M,,M,,*61
06/18/2015	20:06:58.586	$GPGGA,200659,2553.4900,N,07923.2276,W,1,11,1.4,20,M,,M,,*6D
06/18/2015	20:06:59.616	$GPGGA,200700,2553.4910,N,07923.2290,W,1,10,1.7,20,M,,M,,*6B
06/18/2015	20:07:00.496	$GPGGA,200701,2553.4919,N,07923.2305,W,1,10,1.7,20,M,,M,,*6E
06/18/2015	20:07:01.606	$GPGGA,200702,2553.4929,N,07923.2319,W,1,10,1.7,20,M,,M,,*63
06/18/2015	20:07:02.575	$GPGGA,200703,2553.4939,N,07923.2334,W,1,10,1.8,20,M,,M,,*63
06/18/2015	20:07:03.595	$GPGGA,200704,2553.4948,N,07923.2348,W,1,9,1.8,20,M,,M,,*51
06/18/2015	20:07:04.485	$GPGGA,200705,2553.4958,N,07923.2361,W,1,9,1.5,19,M,,M,,*5D
06/18/2015	20:07:05.575	$GPGGA,200706,2553.4968,N,07923.2377,W,1,9,1.8,19,M,,M,,*57
06/18/2015	20:07:06.568	$GPGGA,200707,2553.4977,N,07923.2392,W,1,9,1.5,19,M,,M,,*5E
06/18/2015	20:07:07.605	$GPGGA,200708,2553.4987,N,07923.2402,W,1,10,1.5,19,M,,M,,*68
06/18/2015	20:07:08.571	$GPGGA,200709,2553.5002,N,07923.2418,W,1,10,1.5,19,M,,M,,*67
06/18/2015	20:07:09.556	$GPGGA,200710,2553.5013,N,07923.2431,W,1,11,1.4,19,M,,M,,*64
06/18/2015	20:07:10.568	$GPGGA,200711,2553.5022,N,07923.2443,W,1,11,1.5,19,M,,M,,*63
06/18/2015	20:07:11.596	$GPGGA,200712,2553.5031,N,07923.2457,W,1,10,1.5,19,M,,M,,*66
06/18/2015	20:07:12.556	$GPGGA,200713,2553.5042,N,07923.2471,W,1,10,1.5,19,M,,M,,*67
06/18/2015	20:07:13.556	$GPGGA,200714,2553.5053,N,07923.2483,W,1,11,1.4,20,M,,M,,*67
06/18/2015	20:07:14.556	$GPGGA,200715,2553.5063,N,07923.2497,W,1,11,1.4,20,M,,M,,*60
06/18/2015	20:07:15.576	$GPGGA,200716,2553.5074,N,07923.2511,W,1,11,1.4,20,M,,M,,*6A
06/18/2015	20:07:16.546	$GPGGA,200717,2553.5085,N,07923.2525,W,1,11,1.4,20,M,,M,,*62
06/18/2015	20:07:17.546	$GPGGA,200718,2553.5096,N,07923.2538,W,1,11,1.4,20,M,,M,,*63
06/18/2015	20:07:18.546	$GPGGA,200719,2553.5107,N,07923.2552,W,1,11,1.4,20,M,,M,,*67
06/18/2015	20:07:19.586	$GPGGA,200720,2553.5117,N,07923.2566,W,1,11,1.4,20,M,,M,,*6B
06/18/2015	20:07:20.535	$GPGGA,200721,2553.5127,N,07923.2580,W,1,11,1.4,20,M,,M,,*61
06/18/2015	20:07:21.555	$GPGGA,200722,2553.5139,N,07923.2594,W,1,11,1.4,21,M,,M,,*69
06/18/2015	20:07:22.535	$GPGGA,200723,2553.5150,N,07923.2606,W,1,11,1.4,21,M,,M,,*6F
06/18/2015	20:07:23.575	$GPGGA,200724,2553.5157,N,07923.2621,W,1,11,1.4,21,M,,M,,*6A
06/18/2015	20:07:24.545	$GPGGA,200725,2553.5168,N,07923.2635,W,1,11,1.4,21,M,,M,,*62
06/18/2015	20:07:25.545	$GPGGA,200726,2553.5179,N,07923.2648,W,1,11,1.4,21,M,,M,,*6B
06/18/2015	20:07:26.536	$GPGGA,200727,2553.5190,N,07923.2663,W,1,11,1.4,21,M,,M,,*64
06/18/2015	20:07:27.566	$GPGGA,200728,2553.5200,N,07923.2677,W,1,11,1.4,21,M,,M,,*64
06/18/2015	20:07:28.516	$GPGGA,200729,2553.5210,N,07923.2691,W,1,11,1.4,21,M,,M,,*6C
06/18/2015	20:07:29.556	$GPGGA,200730,2553.5221,N,07923.2703,W,1,11,1.4,21,M,,M,,*6C
06/18/2015	20:07:30.526	$GPGGA,200731,2553.5230,N,07923.2717,W,1,11,1.4,21,M,,M,,*68
06/18/2015	20:07:31.567	$GPGGA,200732,2553.5240,N,07923.2731,W,1,11,1.4,21,M,,M,,*68
06/18/2015	20:07:32.516	$GPGGA,200733,2553.5251,N,07923.2746,W,1,11,1.4,22,M,,M,,*6A
06/18/2015	20:07:33.706	$GPGGA,200734,2553.5261,N,07923.2760,W,1,11,1.4,22,M,,M,,*6A
06/18/2015	20:07:34.526	$GPGGA,200735,2553.5271,N,07923.2774,W,1,11,1.4,22,M,,M,,*6F
06/18/2015	20:07:35.616	$GPGGA,200736,2553.5280,N,07923.2787,W,1,11,1.4,22,M,,M,,*6E
06/18/2015	20:07:36.606	$GPGGA,200737,2553.5290,N,07923.2801,W,1,11,1.4,22,M,,M,,*6F
06/18/2015	20:07:37.705	$GPGGA,200738,2553.5298,N,07923.2815,W,1,10,1.4,22,M,,M,,*6C
06/18/2015	20:07:38.515	$GPGGA,200739,2553.5309,N,07923.2829,W,1,10,1.4,22,M,,M,,*6B
06/18/2015	20:07:39.695	$GPGGA,200740,2553.5319,N,07923.2844,W,1,10,1.4,22,M,,M,,*6F
06/18/2015	20:07:40.525	$GPGGA,200741,2553.5329,N,07923.2859,W,1,10,1.4,22,M,,M,,*61
06/18/2015	20:07:41.685	$GPGGA,200742,2553.5338,N,07923.2872,W,1,9,1.5,22,M,,M,,*52
06/18/2015	20:07:42.505	$GPGGA,200743,2553.5348,N,07923.2887,W,1,9,1.5,22,M,,M,,*5E
06/18/2015	20:07:43.696	$GPGGA,200744,2553.5358,N,07923.2901,W,1,10,1.8,22,M,,M,,*62
06/18/2015	20:07:44.586	$GPGGA,200745,2553.5367,N,07923.2915,W,1,10,1.8,22,M,,M,,*6A
06/18/2015	20:07:45.676	$GPGGA,200746,2553.5378,N,07923.2930,W,1,10,1.5,22,M,,M,,*6D
06/18/2015	20:07:46.496	$GPGGA,200747,2553.5388,N,07923.2944,W,1,10,1.5,22,M,,M,,*60
06/18/2015	20:07:47.686	$GPGGA,200748,2553.5399,N,07923.2959,W,1,11,1.8,22,M,,M,,*6F
06/18/2015	20:07:48.586	$GPGGA,200749,2553.5409,N,07923.2973,W,1,11,1.8,22,M,,M,,*68
06/18/2015	20:07:49.686	$GPGGA,200750,2553.5419,N,07923.2988,W,1,9,1.5,22,M,,M,,*51
06/18/2015	20:07:50.567	$GPGGA,200751,2553.5428,N,07923.3002,W,1,9,1.5,22,M,,M,,*58
06/18/2015	20:07:51.696	$GPGGA,200752,2553.5439,N,07923.3017,W,1,9,1.8,22,M,,M,,*52
06/18/2015	20:07:52.616	$GPGGA,200753,2553.5449,N,07923.3031,W,1,9,1.7,21,M,,M,,*5C
06/18/2015	20:07:53.676	$GPGGA,200754,2553.5457,N,07923.3046,W,1,10,1.7,21,M,,M,,*6C
06/18/2015	20:07:54.579	$GPGGA,200755,2553.5468,N,07923.3060,W,1,10,1.7,21,M,,M,,*65
06/18/2015	20:07:55.675	$GPGGA,200756,2553.5479,N,07923.3074,W,1,11,1.7,21,M,,M,,*62
06/18/2015	20:07:56.585	$GPGGA,200757,2553.5490,N,07923.3089,W,1,11,1.7,21,M,,M,,*66
06/18/2015	20:07:57.665	$GPGGA,200758,2553.5500,N,07923.3103,W,1,10,1.7,21,M,,M,,*63
06/18/2015	20:07:59.825	$GPGGA,200800,2553.5522,N,07923.3132,W,1,11,1.4,21,M,,M,,*61
06/18/2015	20:08:00.585	$GPGGA,200801,2553.5533,N,07923.3145,W,1,11,1.7,21,M,,M,,*63
06/18/2015	20:08:01.667	$GPGGA,200802,2553.5543,N,07923.3159,W,1,10,1.4,21,M,,M,,*68
06/18/2015	20:08:02.583	$GPGGA,200803,2553.5554,N,07923.3173,W,1,10,1.4,21,M,,M,,*67
06/18/2015	20:08:03.666	$GPGGA,200804,2553.5564,N,07923.3187,W,1,11,1.4,21,M,,M,,*69
06/18/2015	20:08:04.578	$GPGGA,200805,2553.5573,N,07923.3201,W,1,11,1.4,21,M,,M,,*63
06/18/2015	20:08:05.646	$GPGGA,200806,2553.5583,N,07923.3215,W,1,11,1.4,21,M,,M,,*6A
06/18/2015	20:08:06.546	$GPGGA,200807,2553.5594,N,07923.3230,W,1,11,1.4,21,M,,M,,*6A
06/18/2015	20:08:07.646	$GPGGA,200808,2553.5605,N,07923.3242,W,1,11,1.4,21,M,,M,,*6B
06/18/2015	20:08:08.568	$GPGGA,200809,2553.5613,N,07923.3256,W,1,11,1.4,21,M,,M,,*68
06/18/2015	20:08:09.536	$GPGGA,200810,2553.5623,N,07923.3270,W,1,11,1.4,21,M,,M,,*67
06/18/2015	20:08:10.569	$GPGGA,200811,2553.5634,N,07923.3284,W,1,11,1.4,21,M,,M,,*6B
06/18/2015	20:08:11.656	$GPGGA,200812,2553.5643,N,07923.3299,W,1,11,1.4,21,M,,M,,*64
06/18/2015	20:08:12.525	$GPGGA,200813,2553.5652,N,07923.3313,W,1,11,1.4,21,M,,M,,*66
06/18/2015	20:08:13.615	$GPGGA,200814,2553.5663,N,07923.3327,W,1,11,1.4,21,M,,M,,*64
06/18/2015	20:08:14.516	$GPGGA,200815,2553.5673,N,07923.3342,W,1,11,1.4,21,M,,M,,*67
06/18/2015	20:08:15.605	$GPGGA,200816,2553.5681,N,07923.3356,W,1,11,1.4,21,M,,M,,*6C
06/18/2015	20:08:16.646	$GPGGA,200817,2553.5692,N,07923.3370,W,1,11,1.4,21,M,,M,,*6B
06/18/2015	20:08:17.515	$GPGGA,200818,2553.5702,N,07923.3385,W,1,11,1.4,21,M,,M,,*66
06/18/2015	20:08:18.569	$GPGGA,200819,2553.5712,N,07923.3399,W,1,11,1.7,21,M,,M,,*68
06/18/2015	20:08:19.656	$GPGGA,200820,2553.5721,N,07923.3414,W,1,10,1.7,21,M,,M,,*61
06/18/2015	20:08:20.546	$GPGGA,200821,2553.5730,N,07923.3426,W,1,10,1.5,21,M,,M,,*63
06/18/2015	20:08:21.616	$GPGGA,200822,2553.5745,N,07923.3443,W,1,10,1.4,21,M,,M,,*60
06/18/2015	20:08:22.556	$GPGGA,200823,2553.5753,N,07923.3457,W,1,10,1.8,21,M,,M,,*6F
06/18/2015	20:08:23.606	$GPGGA,200824,2553.5771,N,07923.3472,W,1,9,1.4,21,M,,M,,*5B
06/18/2015	20:08:24.536	$GPGGA,200825,2553.5779,N,07923.3486,W,1,9,1.8,21,M,,M,,*55
06/18/2015	20:08:25.586	$GPGGA,200826,2553.5786,N,07923.3499,W,1,9,1.8,21,M,,M,,*58
06/18/2015	20:08:26.526	$GPGGA,200827,2553.5795,N,07923.3512,W,1,9,1.5,21,M,,M,,*54
06/18/2015	20:08:27.616	$GPGGA,200828,2553.5804,N,07923.3526,W,1,10,1.5,21,M,,M,,*63
06/18/2015	20:08:28.546	$GPGGA,200829,2553.5811,N,07923.3540,W,1,10,1.5,21,M,,M,,*66
06/18/2015	20:08:29.596	$GPGGA,200830,2553.5824,N,07923.3555,W,1,10,1.4,21,M,,M,,*6D
06/18/2015	20:08:30.585	$GPGGA,200831,2553.5835,N,07923.3567,W,1,10,1.4,21,M,,M,,*6D
06/18/2015	20:08:31.635	$GPGGA,200832,2553.5847,N,07923.3582,W,1,11,1.4,21,M,,M,,*61
06/18/2015	20:08:32.585	$GPGGA,200833,2553.5855,N,07923.3595,W,1,11,1.5,21,M,,M,,*64
06/18/2015	20:08:33.595	$GPGGA,200834,2553.5865,N,07923.3609,W,1,10,1.4,21,M,,M,,*66
06/18/2015	20:08:34.585	$GPGGA,200835,2553.5875,N,07923.3623,W,1,10,1.4,21,M,,M,,*6E
06/18/2015	20:08:35.655	$GPGGA,200836,2553.5885,N,07923.3635,W,1,11,1.4,21,M,,M,,*64
06/18/2015	20:08:36.578	$GPGGA,200837,2553.5894,N,07923.3649,W,1,11,1.4,21,M,,M,,*6E
06/18/2015	20:08:37.576	$GPGGA,200838,2553.5902,N,07923.3661,W,1,11,1.4,21,M,,M,,*65
06/18/2015	20:08:38.577	$GPGGA,200839,2553.5914,N,07923.3675,W,1,11,1.4,21,M,,M,,*66
06/18/2015	20:08:39.666	$GPGGA,200840,2553.5923,N,07923.3689,W,1,11,1.4,21,M,,M,,*6F
06/18/2015	20:08:40.576	$GPGGA,200841,2553.5934,N,07923.3703,W,1,11,1.4,21,M,,M,,*6B
06/18/2015	20:08:41.626	$GPGGA,200842,2553.5944,N,07923.3717,W,1,11,1.4,21,M,,M,,*6A
06/18/2015	20:08:42.576	$GPGGA,200843,2553.5955,N,07923.3730,W,1,11,1.4,21,M,,M,,*6E
06/18/2015	20:08:43.606	$GPGGA,200844,2553.5963,N,07923.3743,W,1,11,1.4,21,M,,M,,*68
06/18/2015	20:08:44.566	$GPGGA,200845,2553.5974,N,07923.3757,W,1,11,1.4,22,M,,M,,*69
06/18/2015	20:08:45.596	$GPGGA,200846,2553.5984,N,07923.3770,W,1,11,1.4,22,M,,M,,*60
06/18/2015	20:08:46.567	$GPGGA,200847,2553.5994,N,07923.3784,W,1,11,1.4,22,M,,M,,*6B
06/18/2015	20:08:47.626	$GPGGA,200848,2553.6003,N,07923.3798,W,1,11,1.4,22,M,,M,,*6D
06/18/2015	20:08:48.566	$GPGGA,200849,2553.6013,N,07923.3812,W,1,11,1.4,22,M,,M,,*60
06/18/2015	20:08:49.585	$GPGGA,200850,2553.6013,N,07923.3812,W,1,11,1.4,22,M,,M,,*68
06/18/2015	20:08:50.555	$GPGGA,200851,2553.6034,N,07923.3840,W,1,11,1.4,22,M,,M,,*6B
06/18/2015	20:08:51.676	$GPGGA,200852,2553.6045,N,07923.3853,W,1,11,1.4,22,M,,M,,*6C
06/18/2015	20:08:52.555	$GPGGA,200853,2553.6056,N,07923.3867,W,1,11,1.4,22,M,,M,,*68
06/18/2015	20:08:53.586	$GPGGA,200854,2553.6064,N,07923.3881,W,1,11,1.4,22,M,,M,,*66
06/18/2015	20:08:54.546	$GPGGA,200855,2553.6075,N,07923.3896,W,1,11,1.4,22,M,,M,,*61
06/18/2015	20:08:55.636	$GPGGA,200856,2553.6085,N,07923.3909,W,1,11,1.4,22,M,,M,,*6A
06/18/2015	20:08:56.547	$GPGGA,200857,2553.6096,N,07923.3923,W,1,11,1.4,22,M,,M,,*61
06/18/2015	20:08:57.546	$GPGGA,200858,2553.6096,N,07923.3923,W,1,11,1.4,22,M,,M,,*6E
06/18/2015	20:08:58.536	$GPGGA,200859,2553.6117,N,07923.3952,W,1,11,1.4,22,M,,M,,*61
06/18/2015	20:08:59.616	$GPGGA,200900,2553.6117,N,07923.3952,W,1,11,1.4,22,M,,M,,*6C
06/18/2015	20:09:00.546	$GPGGA,200901,2553.6138,N,07923.3979,W,1,11,1.4,22,M,,M,,*69
06/18/2015	20:09:01.556	$GPGGA,200902,2553.6138,N,07923.3979,W,1,11,1.4,22,M,,M,,*6A
06/18/2015	20:09:02.516	$GPGGA,200903,2553.6147,N,07923.3993,W,1,11,1.4,22,M,,M,,*67
06/18/2015	20:09:03.646	$GPGGA,200904,2553.6169,N,07923.4021,W,1,11,1.4,22,M,,M,,*6B
06/18/2015	20:09:04.536	$GPGGA,200905,2553.6179,N,07923.4035,W,1,11,1.4,22,M,,M,,*6E
06/18/2015	20:09:05.635	$GPGGA,200906,2553.6190,N,07923.4048,W,1,11,1.4,22,M,,M,,*60
06/18/2015	20:09:06.525	$GPGGA,200907,2553.6201,N,07923.4062,W,1,11,1.4,22,M,,M,,*62
06/18/2015	20:09:07.545	$GPGGA,200908,2553.6201,N,07923.4062,W,1,11,1.4,21,M,,M,,*6E
06/18/2015	20:09:08.505	$GPGGA,200909,2553.6221,N,07923.4090,W,1,11,1.4,21,M,,M,,*60
06/18/2015	20:09:09.645	$GPGGA,200910,2553.6232,N,07923.4104,W,1,11,1.4,21,M,,M,,*66
06/18/2015	20:09:10.525	$GPGGA,200911,2553.6241,N,07923.4118,W,1,11,1.4,21,M,,M,,*6E
06/18/2015	20:09:11.656	$GPGGA,200912,2553.6252,N,07923.4131,W,1,11,1.4,21,M,,M,,*64
06/18/2015	20:09:12.616	$GPGGA,200913,2553.6263,N,07923.4145,W,1,11,1.4,21,M,,M,,*64
06/18/2015	20:09:13.636	$GPGGA,200914,2553.6273,N,07923.4159,W,1,11,1.4,21,M,,M,,*6F
06/18/2015	20:09:14.516	$GPGGA,200915,2553.6281,N,07923.4173,W,1,11,1.4,21,M,,M,,*6B
06/18/2015	20:09:15.506	$GPGGA,200916,2553.6281,N,07923.4173,W,1,10,1.5,21,M,,M,,*68
06/18/2015	20:09:16.506	$GPGGA,200917,2553.6302,N,07923.4199,W,1,10,1.4,21,M,,M,,*66
06/18/2015	20:09:17.626	$GPGGA,200918,2553.6312,N,07923.4213,W,1,10,1.5,21,M,,M,,*68
06/18/2015	20:09:18.596	$GPGGA,200919,2553.6321,N,07923.4227,W,1,10,1.5,21,M,,M,,*6E
06/18/2015	20:09:19.626	$GPGGA,200920,2553.6331,N,07923.4241,W,1,10,1.5,21,M,,M,,*65
06/18/2015	20:09:20.586	$GPGGA,200921,2553.6342,N,07923.4254,W,1,10,1.5,21,M,,M,,*64
06/18/2015	20:09:21.606	$GPGGA,200922,2553.6353,N,07923.4270,W,1,10,1.5,21,M,,M,,*61
06/18/2015	20:09:22.595	$GPGGA,200923,2553.6364,N,07923.4285,W,1,10,1.7,21,M,,M,,*6C
06/18/2015	20:09:23.615	$GPGGA,200924,2553.6375,N,07923.4299,W,1,10,1.7,21,M,,M,,*66
06/18/2015	20:09:24.595	$GPGGA,200925,2553.6385,N,07923.4314,W,1,10,1.7,21,M,,M,,*6C
06/18/2015	20:09:25.595	$GPGGA,200926,2553.6396,N,07923.4328,W,1,10,1.7,21,M,,M,,*62
06/18/2015	20:09:26.575	$GPGGA,200927,2553.6406,N,07923.4342,W,1,10,1.4,20,M,,M,,*63
06/18/2015	20:09:27.605	$GPGGA,200928,2553.6417,N,07923.4354,W,1,11,1.4,20,M,,M,,*6A
06/18/2015	20:09:28.568	$GPGGA,200929,2553.6428,N,07923.4368,W,1,11,1.4,20,M,,M,,*68
06/18/2015	20:09:29.586	$GPGGA,200930,2553.6438,N,07923.4383,W,1,11,1.4,20,M,,M,,*64
06/18/2015	20:09:30.556	$GPGGA,200931,2553.6449,N,07923.4397,W,1,11,1.4,20,M,,M,,*66
06/18/2015	20:09:31.616	$GPGGA,200932,2553.6458,N,07923.4411,W,1,11,1.4,20,M,,M,,*6C
06/18/2015	20:09:32.568	$GPGGA,200933,2553.6469,N,07923.4426,W,1,11,1.4,20,M,,M,,*6B
06/18/2015	20:09:33.556	$GPGGA,200934,2553.6479,N,07923.4438,W,1,11,1.4,20,M,,M,,*62
06/18/2015	20:09:34.556	$GPGGA,200935,2553.6490,N,07923.4454,W,1,11,1.4,20,M,,M,,*6E
06/18/2015	20:09:35.606	$GPGGA,200936,2553.6498,N,07923.4467,W,1,11,1.4,20,M,,M,,*65
06/18/2015	20:09:36.570	$GPGGA,200937,2553.6508,N,07923.4481,W,1,11,1.4,20,M,,M,,*64
06/18/2015	20:09:37.546	$GPGGA,200938,2553.6519,N,07923.4495,W,1,11,1.4,20,M,,M,,*6E
06/18/2015	20:09:38.546	$GPGGA,200939,2553.6529,N,07923.4509,W,1,11,1.4,20,M,,M,,*68
06/18/2015	20:09:39.586	$GPGGA,200940,2553.6539,N,07923.4525,W,1,10,1.7,20,M,,M,,*6B
06/18/2015	20:09:40.545	$GPGGA,200941,2553.6548,N,07923.4539,W,1,10,1.4,20,M,,M,,*62
06/18/2015	20:09:41.555	$GPGGA,200942,2553.6559,N,07923.4553,W,1,11,1.4,20,M,,M,,*6C
06/18/2015	20:09:42.535	$GPGGA,200943,2553.6569,N,07923.4567,W,1,11,1.7,20,M,,M,,*6A
06/18/2015	20:09:43.575	$GPGGA,200944,2553.6569,N,07923.4567,W,1,10,1.7,20,M,,M,,*6C
06/18/2015	20:09:44.545	$GPGGA,200945,2553.6588,N,07923.4596,W,1,10,1.9,20,M,,M,,*62
06/18/2015	20:09:45.555	$GPGGA,200946,2553.6601,N,07923.4610,W,1,10,1.7,20,M,,M,,*60
06/18/2015	20:09:46.536	$GPGGA,200947,2553.6609,N,07923.4624,W,1,10,1.4,20,M,,M,,*6D
06/18/2015	20:09:47.586	$GPGGA,200948,2553.6617,N,07923.4637,W,1,10,1.7,20,M,,M,,*6C
06/18/2015	20:09:48.546	$GPGGA,200949,2553.6628,N,07923.4650,W,1,10,1.7,20,M,,M,,*60
06/18/2015	20:09:49.526	$GPGGA,200950,2553.6637,N,07923.4664,W,1,10,1.5,20,M,,M,,*63
06/18/2015	20:09:50.646	$GPGGA,200951,2553.6645,N,07923.4678,W,1,10,1.5,20,M,,M,,*6A
06/18/2015	20:09:51.567	$GPGGA,200952,2553.6653,N,07923.4693,W,1,10,1.5,20,M,,M,,*6B
06/18/2015	20:09:52.536	$GPGGA,200953,2553.6666,N,07923.4707,W,1,10,1.5,20,M,,M,,*60
06/18/2015	20:09:53.536	$GPGGA,200954,2553.6678,N,07923.4720,W,1,11,1.4,20,M,,M,,*6D
06/18/2015	20:09:54.516	$GPGGA,200955,2553.6688,N,07923.4734,W,1,11,1.4,20,M,,M,,*66
06/18/2015	20:09:55.566	$GPGGA,200956,2553.6699,N,07923.4748,W,1,11,1.4,20,M,,M,,*6E
06/18/2015	20:09:56.606	$GPGGA,200957,2553.6710,N,07923.4762,W,1,11,1.4,20,M,,M,,*67
06/18/2015	20:09:57.505	$GPGGA,200958,2553.6720,N,07923.4776,W,1,11,1.4,20,M,,M,,*6E
06/18/2015	20:09:58.505	$GPGGA,200959,2553.6731,N,07923.4790,W,1,11,1.4,20,M,,M,,*67
06/18/2015	20:09:59.625	$GPGGA,201000,2553.6742,N,07923.4805,W,1,11,1.4,20,M,,M,,*64
06/18/2015	20:10:00.535	$GPGGA,201001,2553.6751,N,07923.4819,W,1,11,1.4,20,M,,M,,*6A
06/18/2015	20:10:01.616	$GPGGA,201002,2553.6761,N,07923.4832,W,1,11,1.4,20,M,,M,,*63
06/18/2015	20:10:02.515	$GPGGA,201003,2553.6772,N,07923.4846,W,1,11,1.4,20,M,,M,,*63
06/18/2015	20:10:03.636	$GPGGA,201004,2553.6783,N,07923.4860,W,1,11,1.4,20,M,,M,,*6E
06/18/2015	20:10:04.506	$GPGGA,201005,2553.6793,N,07923.4874,W,1,11,1.4,20,M,,M,,*6B
06/18/2015	20:10:05.616	$GPGGA,201006,2553.6804,N,07923.4888,W,1,11,1.4,20,M,,M,,*6A
06/18/2015	20:10:06.596	$GPGGA,201007,2553.6815,N,07923.4902,W,1,11,1.4,20,M,,M,,*68
06/18/2015	20:10:07.636	$GPGGA,201008,2553.6825,N,07923.4915,W,1,11,1.4,20,M,,M,,*62
06/18/2015	20:10:08.596	$GPGGA,201009,2553.6833,N,07923.4929,W,1,11,1.4,20,M,,M,,*6B
06/18/2015	20:10:09.596	$GPGGA,201010,2553.6846,N,07923.4942,W,1,11,1.4,21,M,,M,,*6D
06/18/2015	20:10:10.586	$GPGGA,201011,2553.6855,N,07923.4957,W,1,11,1.4,21,M,,M,,*6A
06/18/2015	20:10:11.636	$GPGGA,201012,2553.6865,N,07923.4971,W,1,11,1.4,21,M,,M,,*6E
06/18/2015	20:10:12.586	$GPGGA,201013,2553.6875,N,07923.4985,W,1,11,1.4,21,M,,M,,*65
06/18/2015	20:10:13.596	$GPGGA,201014,2553.6887,N,07923.4997,W,1,11,1.4,21,M,,M,,*6C
06/18/2015	20:10:14.576	$GPGGA,201015,2553.6897,N,07923.5011,W,1,11,1.4,21,M,,M,,*6A
06/18/2015	20:10:15.595	$GPGGA,201016,2553.6906,N,07923.5025,W,1,11,1.4,21,M,,M,,*67
06/18/2015	20:10:16.575	$GPGGA,201017,2553.6916,N,07923.5040,W,1,11,1.4,21,M,,M,,*64
06/18/2015	20:10:17.585	$GPGGA,201018,2553.6927,N,07923.5052,W,1,11,1.4,21,M,,M,,*6A
06/18/2015	20:10:18.565	$GPGGA,201019,2553.6935,N,07923.5066,W,1,11,1.4,21,M,,M,,*6F
06/18/2015	20:10:19.595	$GPGGA,201020,2553.6945,N,07923.5080,W,1,11,1.4,21,M,,M,,*6A
06/18/2015	20:10:20.565	$GPGGA,201021,2553.6956,N,07923.5094,W,1,11,1.4,21,M,,M,,*6C
06/18/2015	20:10:21.546	$GPGGA,201022,2553.6967,N,07923.5108,W,1,11,1.4,21,M,,M,,*69
06/18/2015	20:10:23.596	$GPGGA,201024,2553.6985,N,07923.5135,W,1,11,1.4,21,M,,M,,*6D
06/18/2015	20:10:24.576	$GPGGA,201025,2553.6998,N,07923.5148,W,1,11,1.4,21,M,,M,,*6A
06/18/2015	20:10:25.546	$GPGGA,201026,2553.7007,N,07923.5163,W,1,11,1.4,21,M,,M,,*6E
06/18/2015	20:10:26.556	$GPGGA,201027,2553.7017,N,07923.5177,W,1,11,1.4,21,M,,M,,*6B
06/18/2015	20:10:27.556	$GPGGA,201028,2553.7028,N,07923.5191,W,1,11,1.4,21,M,,M,,*60
06/18/2015	20:10:28.556	$GPGGA,201029,2553.7038,N,07923.5203,W,1,11,1.4,21,M,,M,,*68
06/18/2015	20:10:29.543	$GPGGA,201030,2553.7049,N,07923.5217,W,1,11,1.4,21,M,,M,,*63
06/18/2015	20:10:31.220	$GPGGA,201031,2553.7057,N,07923.5231,W,1,11,1.4,21,M,,M,,*69
06/18/2015	20:10:31.587	$GPGGA,201032,2553.7068,N,07923.5246,W,1,11,1.4,21,M,,M,,*66
06/18/2015	20:10:32.525	$GPGGA,201033,2553.7079,N,07923.5258,W,1,11,1.4,21,M,,M,,*68
06/18/2015	20:10:33.525	$GPGGA,201034,2553.7089,N,07923.5272,W,1,11,1.4,21,M,,M,,*68
06/18/2015	20:10:34.535	$GPGGA,201035,2553.7099,N,07923.5286,W,1,11,1.4,21,M,,M,,*63
06/18/2015	20:10:35.618	$GPGGA,201036,2553.7108,N,07923.5300,W,1,11,1.4,21,M,,M,,*66
06/18/2015	20:10:36.545	$GPGGA,201037,2553.7119,N,07923.5314,W,1,11,1.4,21,M,,M,,*62
06/18/2015	20:10:37.515	$GPGGA,201038,2553.7130,N,07923.5329,W,1,11,1.4,21,M,,M,,*68
06/18/2015	20:10:38.616	$GPGGA,201039,2553.7140,N,07923.5343,W,1,11,1.4,21,M,,M,,*62
06/18/2015	20:10:39.566	$GPGGA,201040,2553.7150,N,07923.5357,W,1,11,1.4,21,M,,M,,*68
06/18/2015	20:10:40.616	$GPGGA,201041,2553.7161,N,07923.5369,W,1,11,1.4,21,M,,M,,*66
06/18/2015	20:10:42.326	$GPGGA,201042,2553.7170,N,07923.5383,W,1,11,1.4,21,M,,M,,*61
06/18/2015	20:10:43.656	$GPGGA,201044,2553.7190,N,07923.5410,W,1,11,1.4,21,M,,M,,*64
06/18/2015	20:10:44.526	$GPGGA,201045,2553.7201,N,07923.5424,W,1,11,1.4,21,M,,M,,*69
06/18/2015	20:10:45.636	$GPGGA,201046,2553.7211,N,07923.5438,W,1,11,1.4,21,M,,M,,*66
06/18/2015	20:10:46.516	$GPGGA,201047,2553.7220,N,07923.5452,W,1,11,1.5,21,M,,M,,*68
06/18/2015	20:10:47.646	$GPGGA,201048,2553.7230,N,07923.5466,W,1,10,1.5,21,M,,M,,*60
06/18/2015	20:10:48.526	$GPGGA,201049,2553.7241,N,07923.5480,W,1,10,1.4,21,M,,M,,*6E
06/18/2015	20:10:49.636	$GPGGA,201050,2553.7249,N,07923.5493,W,1,10,1.7,21,M,,M,,*6F
06/18/2015	20:10:50.595	$GPGGA,201051,2553.7260,N,07923.5507,W,1,10,1.4,21,M,,M,,*6A
06/18/2015	20:10:51.525	$GPGGA,201052,2553.7270,N,07923.5521,W,1,10,1.5,22,M,,M,,*6E
06/18/2015	20:10:52.585	$GPGGA,201053,2553.7281,N,07923.5536,W,1,10,1.5,22,M,,M,,*67
06/18/2015	20:10:53.625	$GPGGA,201054,2553.7289,N,07923.5550,W,1,10,1.7,22,M,,M,,*6A
06/18/2015	20:10:54.595	$GPGGA,201055,2553.7299,N,07923.5564,W,1,10,1.4,22,M,,M,,*6E
06/18/2015	20:10:55.605	$GPGGA,201056,2553.7309,N,07923.5578,W,1,11,1.4,22,M,,M,,*69
06/18/2015	20:10:56.886	$GPGGA,201057,2553.7321,N,07923.5590,W,1,11,1.5,22,M,,M,,*65
06/18/2015	20:10:57.616	$GPGGA,201058,2553.7332,N,07923.5603,W,1,11,1.4,22,M,,M,,*60
06/18/2015	20:10:58.576	$GPGGA,201059,2553.7342,N,07923.5618,W,1,11,1.4,22,M,,M,,*6C
06/18/2015	20:10:59.626	$GPGGA,201100,2553.7353,N,07923.5629,W,1,11,1.4,22,M,,M,,*63
06/18/2015	20:11:00.569	$GPGGA,201101,2553.7363,N,07923.5643,W,1,11,1.4,22,M,,M,,*6D
06/18/2015	20:11:01.586	$GPGGA,201102,2553.7372,N,07923.5658,W,1,11,1.4,22,M,,M,,*64
06/18/2015	20:11:02.566	$GPGGA,201103,2553.7382,N,07923.5670,W,1,11,1.4,22,M,,M,,*60
06/18/2015	20:11:03.606	$GPGGA,201104,2553.7392,N,07923.5684,W,1,11,1.4,23,M,,M,,*6C
06/18/2015	20:11:04.586	$GPGGA,201105,2553.7401,N,07923.5698,W,1,11,1.5,23,M,,M,,*6C
06/18/2015	20:11:05.576	$GPGGA,201106,2553.7411,N,07923.5712,W,1,11,1.4,23,M,,M,,*6C
06/18/2015	20:11:06.559	$GPGGA,201107,2553.7422,N,07923.5726,W,1,11,1.4,23,M,,M,,*6A
06/18/2015	20:11:07.568	$GPGGA,201108,2553.7432,N,07923.5741,W,1,11,1.4,23,M,,M,,*65
06/18/2015	20:11:08.556	$GPGGA,201109,2553.7443,N,07923.5755,W,1,11,1.4,23,M,,M,,*67
06/18/2015	20:11:09.595	$GPGGA,201110,2553.7453,N,07923.5770,W,1,11,1.4,24,M,,M,,*6E
06/18/2015	20:11:10.557	$GPGGA,201111,2553.7462,N,07923.5784,W,1,11,1.4,24,M,,M,,*66
06/18/2015	20:11:11.558	$GPGGA,201112,2553.7473,N,07923.5798,W,1,11,1.4,24,M,,M,,*68
06/18/2015	20:11:12.545	$GPGGA,201113,2553.7483,N,07923.5811,W,1,11,1.4,24,M,,M,,*68
06/18/2015	20:11:13.535	$GPGGA,201114,2553.7491,N,07923.5827,W,1,11,1.4,24,M,,M,,*69
06/18/2015	20:11:14.545	$GPGGA,201115,2553.7502,N,07923.5839,W,1,11,1.4,24,M,,M,,*6C
06/18/2015	20:11:15.575	$GPGGA,201116,2553.7513,N,07923.5853,W,1,11,1.4,24,M,,M,,*63
06/18/2015	20:11:16.535	$GPGGA,201117,2553.7523,N,07923.5868,W,1,11,1.4,24,M,,M,,*69
06/18/2015	20:11:17.535	$GPGGA,201118,2553.7533,N,07923.5882,W,1,11,1.4,25,M,,M,,*62
06/18/2015	20:11:18.535	$GPGGA,201119,2553.7544,N,07923.5896,W,1,11,1.4,25,M,,M,,*66
06/18/2015	20:11:19.545	$GPGGA,201120,2553.7553,N,07923.5910,W,1,11,1.4,25,M,,M,,*65
06/18/2015	20:11:20.515	$GPGGA,201121,2553.7563,N,07923.5925,W,1,11,1.4,25,M,,M,,*61
06/18/2015	20:11:21.525	$GPGGA,201122,2553.7574,N,07923.5937,W,1,11,1.4,25,M,,M,,*67
06/18/2015	20:11:22.516	$GPGGA,201123,2553.7585,N,07923.5952,W,1,11,1.2,25,M,,M,,*6D
06/18/2015	20:11:23.546	$GPGGA,201124,2553.7592,N,07923.5968,W,1,11,1.4,25,M,,M,,*63
06/18/2015	20:11:24.636	$GPGGA,201125,2553.7603,N,07923.5982,W,1,11,1.2,25,M,,M,,*6B
06/18/2015	20:11:25.535	$GPGGA,201126,2553.7614,N,07923.5995,W,1,11,1.2,25,M,,M,,*68
06/18/2015	20:11:26.525	$GPGGA,201127,2553.7625,N,07923.6008,W,1,11,1.2,25,M,,M,,*65
06/18/2015	20:11:27.645	$GPGGA,201128,2553.7635,N,07923.6022,W,1,11,1.2,25,M,,M,,*63
06/18/2015	20:11:28.525	$GPGGA,201129,2553.7643,N,07923.6037,W,1,11,1.4,25,M,,M,,*61
06/18/2015	20:11:29.625	$GPGGA,201130,2553.7656,N,07923.6049,W,1,11,1.2,25,M,,M,,*62
06/18/2015	20:11:30.595	$GPGGA,201131,2553.7667,N,07923.6063,W,1,11,1.3,25,M,,M,,*68
06/18/2015	20:11:31.525	$GPGGA,201132,2553.7677,N,07923.6078,W,1,10,1.3,25,M,,M,,*61
06/18/2015	20:11:32.595	$GPGGA,201133,2553.7686,N,07923.6092,W,1,10,1.2,25,M,,M,,*6B
06/18/2015	20:11:33.595	$GPGGA,201134,2553.7697,N,07923.6106,W,1,11,1.2,25,M,,M,,*61
06/18/2015	20:11:34.595	$GPGGA,201135,2553.7708,N,07923.6120,W,1,11,1.2,25,M,,M,,*63
06/18/2015	20:11:35.625	$GPGGA,201136,2553.7718,N,07923.6135,W,1,11,1.2,25,M,,M,,*65
06/18/2015	20:11:36.595	$GPGGA,201137,2553.7728,N,07923.6149,W,1,11,1.2,25,M,,M,,*6C
06/18/2015	20:11:37.595	$GPGGA,201138,2553.7739,N,07923.6163,W,1,10,1.3,25,M,,M,,*6B
06/18/2015	20:11:38.585	$GPGGA,201139,2553.7747,N,07923.6178,W,1,10,1.3,25,M,,M,,*69
06/18/2015	20:11:39.635	$GPGGA,201140,2553.7758,N,07923.6192,W,1,11,1.2,25,M,,M,,*6D
06/18/2015	20:11:40.585	$GPGGA,201141,2553.7769,N,07923.6207,W,1,11,1.2,25,M,,M,,*61
06/18/2015	20:11:41.596	$GPGGA,201142,2553.7779,N,07923.6221,W,1,11,1.2,25,M,,M,,*67
06/18/2015	20:11:42.575	$GPGGA,201143,2553.7787,N,07923.6235,W,1,11,1.3,25,M,,M,,*63
06/18/2015	20:11:43.595	$GPGGA,201144,2553.7795,N,07923.6247,W,1,11,1.2,25,M,,M,,*63
06/18/2015	20:11:44.576	$GPGGA,201145,2553.7807,N,07923.6261,W,1,11,1.2,25,M,,M,,*62
06/18/2015	20:11:45.595	$GPGGA,201146,2553.7816,N,07923.6275,W,1,11,1.2,25,M,,M,,*64
06/18/2015	20:11:46.562	$GPGGA,201147,2553.7826,N,07923.6290,W,1,11,1.2,25,M,,M,,*6D
