Software Version Number: 1	Data File Format Number: 1	Build Version Number: 1	Error Count Since VI Started: 3	Manufacturer: Raytheon	 Model Number: RayMarine 120	 S/N: 	 Cal Date: 	 Wind Direction Offset: 0.00	 Slope (M)1: 0.00	 Offset (B)1: 0.00	 Slope (M)2: 0.00	 Offset (B)2: 0.00	 Slope (M)3: 0.00	 Offset (B)3: 0.00	 Slope (M)4: 0.00	 Offset (B)4: 0.00	 Slope (M)5: 0.00	 Offset (B)5: 0.00	 Slope (M)6: 0.00	 Offset (B)6: 0.00
Computer Date	Computer Time	GGA String
06/23/2015	13:00:00.580	$GPGGA,130001,2519.6722,N,08004.0083,W,1,10,1.4,13,M,,M,,*6C
06/23/2015	13:00:01.610	$GPGGA,130002,2519.6754,N,08004.0070,W,1,10,1.4,13,M,,M,,*62
06/23/2015	13:00:02.580	$GPGGA,130003,2519.6783,N,08004.0054,W,1,10,1.4,13,M,,M,,*6F
06/23/2015	13:00:03.650	$GPGGA,130004,2519.6812,N,08004.0040,W,1,10,1.4,13,M,,M,,*6A
06/23/2015	13:00:04.570	$GPGGA,130005,2519.6841,N,08004.0027,W,1,10,1.4,13,M,,M,,*6C
06/23/2015	13:00:05.620	$GPGGA,130006,2519.6872,N,08004.0013,W,1,10,1.4,13,M,,M,,*68
06/23/2015	13:00:06.560	$GPGGA,130007,2519.6901,N,08003.9997,W,1,10,1.4,14,M,,M,,*60
06/23/2015	13:00:07.655	$GPGGA,130008,2519.6931,N,08003.9983,W,1,10,1.4,14,M,,M,,*69
06/23/2015	13:00:08.571	$GPGGA,130009,2519.6960,N,08003.9969,W,1,10,1.4,14,M,,M,,*68
06/23/2015	13:00:09.631	$GPGGA,130010,2519.6991,N,08003.9954,W,1,10,1.4,14,M,,M,,*60
06/23/2015	13:00:10.561	$GPGGA,130011,2519.7020,N,08003.9938,W,1,10,1.4,14,M,,M,,*69
06/23/2015	13:00:11.631	$GPGGA,130012,2519.7050,N,08003.9926,W,1,10,1.4,14,M,,M,,*62
06/23/2015	13:00:12.561	$GPGGA,130013,2519.7079,N,08003.9912,W,1,10,1.4,14,M,,M,,*6F
06/23/2015	13:00:13.655	$GPGGA,130014,2519.7108,N,08003.9896,W,1,10,1.4,14,M,,M,,*62
06/23/2015	13:00:14.551	$GPGGA,130015,2519.7137,N,08003.9882,W,1,10,1.4,14,M,,M,,*6A
06/23/2015	13:00:15.620	$GPGGA,130016,2519.7168,N,08003.9870,W,1,10,1.4,14,M,,M,,*6E
06/23/2015	13:00:16.656	$GPGGA,130017,2519.7197,N,08003.9854,W,1,10,1.4,14,M,,M,,*69
06/23/2015	13:00:17.600	$GPGGA,130018,2519.7224,N,08003.9838,W,1,10,1.4,14,M,,M,,*67
06/23/2015	13:00:18.541	$GPGGA,130019,2519.7255,N,08003.9825,W,1,10,1.4,14,M,,M,,*6C
06/23/2015	13:00:19.611	$GPGGA,130020,2519.7284,N,08003.9811,W,1,10,1.4,14,M,,M,,*6D
06/23/2015	13:00:20.651	$GPGGA,130021,2519.7313,N,08003.9795,W,1,10,1.4,14,M,,M,,*60
06/23/2015	13:00:21.590	$GPGGA,130022,2519.7342,N,08003.9779,W,1,10,1.4,14,M,,M,,*65
06/23/2015	13:00:22.560	$GPGGA,130023,2519.7371,N,08003.9765,W,1,10,1.4,14,M,,M,,*69
06/23/2015	13:00:23.660	$GPGGA,130024,2519.7401,N,08003.9750,W,1,10,1.4,14,M,,M,,*68
06/23/2015	13:00:24.532	$GPGGA,130025,2519.7429,N,08003.9735,W,1,10,1.4,14,M,,M,,*60
06/23/2015	13:00:25.651	$GPGGA,130026,2519.7458,N,08003.9720,W,1,10,1.4,14,M,,M,,*61
06/23/2015	13:00:26.542	$GPGGA,130027,2519.7487,N,08003.9705,W,1,10,1.4,14,M,,M,,*65
06/23/2015	13:00:27.561	$GPGGA,130028,2519.7516,N,08003.9689,W,1,10,1.4,14,M,,M,,*66
06/23/2015	13:00:28.532	$GPGGA,130029,2519.7547,N,08003.9674,W,1,10,1.4,14,M,,M,,*61
06/23/2015	13:00:29.642	$GPGGA,130030,2519.7547,N,08003.9674,W,1,9,1.7,14,M,,M,,*52
06/23/2015	13:00:30.621	$GPGGA,130031,2519.7606,N,08003.9645,W,1,9,1.4,14,M,,M,,*54
06/23/2015	13:00:31.531	$GPGGA,130032,2519.7606,N,08003.9645,W,1,9,1.7,14,M,,M,,*54
06/23/2015	13:00:32.500	$GPGGA,130033,2519.7661,N,08003.9610,W,1,9,1.4,14,M,,M,,*57
06/23/2015	13:00:33.620	$GPGGA,130034,2519.7689,N,08003.9592,W,1,10,1.4,14,M,,M,,*67
06/23/2015	13:00:34.520	$GPGGA,130035,2519.7717,N,08003.9576,W,1,10,1.4,14,M,,M,,*6A
06/23/2015	13:00:35.610	$GPGGA,130036,2519.7746,N,08003.9561,W,1,10,1.4,14,M,,M,,*6B
06/23/2015	13:00:36.510	$GPGGA,130037,2519.7775,N,08003.9545,W,1,10,1.4,14,M,,M,,*6C
06/23/2015	13:00:37.610	$GPGGA,130038,2519.7804,N,08003.9529,W,1,10,1.4,14,M,,M,,*60
06/23/2015	13:00:38.590	$GPGGA,130039,2519.7833,N,08003.9514,W,1,10,1.4,14,M,,M,,*6B
06/23/2015	13:00:39.511	$GPGGA,130040,2519.7833,N,08003.9514,W,1,10,1.4,14,M,,M,,*65
06/23/2015	13:00:40.580	$GPGGA,130041,2519.7888,N,08003.9482,W,1,10,1.4,14,M,,M,,*6A
06/23/2015	13:00:41.620	$GPGGA,130042,2519.7917,N,08003.9466,W,1,10,1.4,14,M,,M,,*64
06/23/2015	13:00:42.590	$GPGGA,130043,2519.7946,N,08003.9452,W,1,10,1.4,15,M,,M,,*67
06/23/2015	13:00:43.591	$GPGGA,130044,2519.7975,N,08003.9437,W,1,9,1.7,15,M,,M,,*58
06/23/2015	13:00:44.581	$GPGGA,130045,2519.8004,N,08003.9421,W,1,9,1.4,15,M,,M,,*5D
06/23/2015	13:00:45.581	$GPGGA,130046,2519.8033,N,08003.9404,W,1,10,1.4,15,M,,M,,*65
06/23/2015	13:00:46.581	$GPGGA,130047,2519.8062,N,08003.9389,W,1,10,1.4,15,M,,M,,*62
06/23/2015	13:00:47.621	$GPGGA,130048,2519.8091,N,08003.9374,W,1,10,1.4,15,M,,M,,*63
06/23/2015	13:00:48.581	$GPGGA,130049,2519.8119,N,08003.9357,W,1,10,1.4,15,M,,M,,*62
06/23/2015	13:00:49.591	$GPGGA,130050,2519.8148,N,08003.9343,W,1,10,1.4,15,M,,M,,*6B
06/23/2015	13:00:50.570	$GPGGA,130051,2519.8177,N,08003.9329,W,1,10,1.4,15,M,,M,,*6A
06/23/2015	13:00:51.580	$GPGGA,130052,2519.8205,N,08003.9312,W,1,10,1.4,15,M,,M,,*67
06/23/2015	13:00:52.590	$GPGGA,130053,2519.8235,N,08003.9298,W,1,10,1.4,15,M,,M,,*66
06/23/2015	13:00:53.590	$GPGGA,130054,2519.8264,N,08003.9283,W,1,10,1.4,15,M,,M,,*6F
06/23/2015	13:00:54.570	$GPGGA,130055,2519.8292,N,08003.9268,W,1,10,1.4,15,M,,M,,*62
06/23/2015	13:00:55.570	$GPGGA,130056,2519.8321,N,08003.9253,W,1,10,1.4,15,M,,M,,*60
06/23/2015	13:00:56.570	$GPGGA,130057,2519.8351,N,08003.9238,W,1,10,1.4,15,M,,M,,*6B
06/23/2015	13:00:57.560	$GPGGA,130058,2519.8380,N,08003.9224,W,1,10,1.4,15,M,,M,,*65
06/23/2015	13:00:58.560	$GPGGA,130059,2519.8409,N,08003.9208,W,1,10,1.4,15,M,,M,,*6C
06/23/2015	13:00:59.600	$GPGGA,130100,2519.8438,N,08003.9193,W,1,10,1.4,15,M,,M,,*62
06/23/2015	13:01:00.561	$GPGGA,130101,2519.8466,N,08003.9180,W,1,10,1.4,15,M,,M,,*6A
06/23/2015	13:01:01.571	$GPGGA,130102,2519.8495,N,08003.9165,W,1,10,1.4,15,M,,M,,*6E
06/23/2015	13:01:02.541	$GPGGA,130103,2519.8524,N,08003.9151,W,1,10,1.4,15,M,,M,,*63
06/23/2015	13:01:03.591	$GPGGA,130104,2519.8553,N,08003.9134,W,1,9,1.7,14,M,,M,,*5D
06/23/2015	13:01:04.546	$GPGGA,130105,2519.8582,N,08003.9120,W,1,9,1.4,14,M,,M,,*56
06/23/2015	13:01:05.543	$GPGGA,130106,2519.8611,N,08003.9106,W,1,10,1.4,14,M,,M,,*60
06/23/2015	13:01:06.535	$GPGGA,130107,2519.8640,N,08003.9090,W,1,10,1.4,14,M,,M,,*6B
06/23/2015	13:01:07.620	$GPGGA,130108,2519.8669,N,08003.9078,W,1,10,1.4,14,M,,M,,*69
06/23/2015	13:01:08.541	$GPGGA,130109,2519.8700,N,08003.9065,W,1,10,1.4,14,M,,M,,*6A
06/23/2015	13:01:09.560	$GPGGA,130110,2519.8729,N,08003.9047,W,1,10,1.4,14,M,,M,,*69
06/23/2015	13:01:10.541	$GPGGA,130111,2519.8758,N,08003.9034,W,1,10,1.4,14,M,,M,,*6A
06/23/2015	13:01:11.580	$GPGGA,130112,2519.8788,N,08003.9025,W,1,9,1.4,14,M,,M,,*5C
06/23/2015	13:01:12.620	$GPGGA,130113,2519.8817,N,08003.9008,W,1,9,1.4,14,M,,M,,*5B
06/23/2015	13:01:13.520	$GPGGA,130114,2519.8844,N,08003.8991,W,1,10,1.4,14,M,,M,,*6A
06/23/2015	13:01:14.640	$GPGGA,130115,2519.8875,N,08003.8980,W,1,10,1.4,14,M,,M,,*69
06/23/2015	13:01:15.650	$GPGGA,130116,2519.8906,N,08003.8968,W,1,10,1.4,14,M,,M,,*69
06/23/2015	13:01:16.530	$GPGGA,130117,2519.8932,N,08003.8949,W,1,10,1.4,14,M,,M,,*6C
06/23/2015	13:01:17.530	$GPGGA,130118,2519.8961,N,08003.8935,W,1,10,1.4,13,M,,M,,*69
06/23/2015	13:01:18.521	$GPGGA,130119,2519.8992,N,08003.8924,W,1,10,1.4,13,M,,M,,*64
06/23/2015	13:01:19.651	$GPGGA,130120,2519.9019,N,08003.8909,W,1,10,1.4,13,M,,M,,*6A
06/23/2015	13:01:20.533	$GPGGA,130121,2519.9047,N,08003.8891,W,1,10,1.4,13,M,,M,,*60
06/23/2015	13:01:21.645	$GPGGA,130122,2519.9076,N,08003.8877,W,1,10,1.4,13,M,,M,,*69
06/23/2015	13:01:22.521	$GPGGA,130123,2519.9106,N,08003.8864,W,1,10,1.4,13,M,,M,,*6C
06/23/2015	13:01:23.661	$GPGGA,130124,2519.9134,N,08003.8848,W,1,10,1.4,13,M,,M,,*64
06/23/2015	13:01:24.601	$GPGGA,130125,2519.9162,N,08003.8832,W,1,10,1.4,13,M,,M,,*6B
06/23/2015	13:01:25.520	$GPGGA,130126,2519.9191,N,08003.8817,W,1,10,1.4,13,M,,M,,*63
06/23/2015	13:01:26.610	$GPGGA,130127,2519.9220,N,08003.8803,W,1,10,1.4,13,M,,M,,*6E
06/23/2015	13:01:27.620	$GPGGA,130128,2519.9249,N,08003.8787,W,1,10,1.4,13,M,,M,,*6D
06/23/2015	13:01:28.942	$GPGGA,130129,2519.9276,N,08003.8771,W,1,10,1.4,13,M,,M,,*69
06/23/2015	13:01:29.634	$GPGGA,130130,2519.9307,N,08003.8756,W,1,10,1.4,13,M,,M,,*63
06/23/2015	13:01:30.600	$GPGGA,130131,2519.9334,N,08003.8741,W,1,10,1.4,13,M,,M,,*64
06/23/2015	13:01:31.630	$GPGGA,130132,2519.9362,N,08003.8725,W,1,10,1.4,13,M,,M,,*66
06/23/2015	13:01:32.590	$GPGGA,130133,2519.9393,N,08003.8709,W,1,10,1.4,13,M,,M,,*67
06/23/2015	13:01:33.600	$GPGGA,130134,2519.9420,N,08003.8696,W,1,10,1.4,12,M,,M,,*69
06/23/2015	13:01:34.590	$GPGGA,130135,2519.9449,N,08003.8679,W,1,10,1.4,12,M,,M,,*66
06/23/2015	13:01:35.612	$GPGGA,130136,2519.9478,N,08003.8663,W,1,10,1.4,12,M,,M,,*6C
06/23/2015	13:01:37.601	$GPGGA,130138,2519.9536,N,08003.8634,W,1,10,1.4,12,M,,M,,*6B
06/23/2015	13:01:38.581	$GPGGA,130139,2519.9565,N,08003.8617,W,1,10,1.4,12,M,,M,,*6D
06/23/2015	13:01:39.601	$GPGGA,130140,2519.9596,N,08003.8603,W,1,10,1.4,12,M,,M,,*6A
06/23/2015	13:01:40.571	$GPGGA,130141,2519.9623,N,08003.8590,W,1,10,1.4,13,M,,M,,*6E
06/23/2015	13:01:41.561	$GPGGA,130142,2519.9652,N,08003.8573,W,1,10,1.4,13,M,,M,,*66
06/23/2015	13:01:42.580	$GPGGA,130143,2519.9682,N,08003.8557,W,1,10,1.4,13,M,,M,,*6C
06/23/2015	13:01:43.590	$GPGGA,130144,2519.9712,N,08003.8543,W,1,10,1.4,13,M,,M,,*66
06/23/2015	13:01:44.580	$GPGGA,130145,2519.9741,N,08003.8528,W,1,10,1.4,13,M,,M,,*6C
06/23/2015	13:01:45.550	$GPGGA,130146,2519.9769,N,08003.8512,W,1,10,1.4,13,M,,M,,*6C
06/23/2015	13:01:46.560	$GPGGA,130147,2519.9799,N,08003.8497,W,1,10,1.4,13,M,,M,,*6E
06/23/2015	13:01:47.611	$GPGGA,130148,2519.9828,N,08003.8483,W,1,10,1.4,13,M,,M,,*61
06/23/2015	13:01:48.570	$GPGGA,130149,2519.9857,N,08003.8468,W,1,10,1.4,13,M,,M,,*6D
06/23/2015	13:01:49.545	$GPGGA,130150,2519.9886,N,08003.8453,W,1,10,1.4,13,M,,M,,*61
06/23/2015	13:01:50.560	$GPGGA,130151,2519.9915,N,08003.8438,W,1,10,1.4,13,M,,M,,*66
06/23/2015	13:01:51.570	$GPGGA,130152,2519.9946,N,08003.8424,W,1,10,1.4,13,M,,M,,*6E
06/23/2015	13:01:52.570	$GPGGA,130153,2519.9975,N,08003.8410,W,1,10,1.4,13,M,,M,,*68
06/23/2015	13:01:53.571	$GPGGA,130154,2520.0004,N,08003.8393,W,1,10,1.4,13,M,,M,,*6F
06/23/2015	13:01:54.661	$GPGGA,130155,2520.0033,N,08003.8380,W,1,10,1.4,13,M,,M,,*68
06/23/2015	13:01:55.591	$GPGGA,130156,2520.0063,N,08003.8366,W,1,10,1.4,13,M,,M,,*66
06/23/2015	13:01:56.541	$GPGGA,130157,2520.0092,N,08003.8349,W,1,10,1.4,13,M,,M,,*64
06/23/2015	13:01:57.551	$GPGGA,130158,2520.0120,N,08003.8334,W,1,10,1.4,13,M,,M,,*69
06/23/2015	13:01:58.544	$GPGGA,130159,2520.0150,N,08003.8322,W,1,10,1.4,13,M,,M,,*68
06/23/2015	13:01:59.571	$GPGGA,130200,2520.0181,N,08003.8307,W,1,10,1.4,13,M,,M,,*6C
06/23/2015	13:02:00.521	$GPGGA,130201,2520.0208,N,08003.8289,W,1,10,1.4,13,M,,M,,*68
06/23/2015	13:02:01.543	$GPGGA,130202,2520.0237,N,08003.8275,W,1,10,1.4,13,M,,M,,*64
06/23/2015	13:02:02.542	$GPGGA,130203,2520.0268,N,08003.8262,W,1,10,1.4,13,M,,M,,*69
06/23/2015	13:02:03.546	$GPGGA,130204,2520.0297,N,08003.8246,W,1,10,1.4,13,M,,M,,*68
06/23/2015	13:02:04.520	$GPGGA,130205,2520.0324,N,08003.8229,W,1,10,1.4,13,M,,M,,*69
06/23/2015	13:02:05.633	$GPGGA,130206,2520.0354,N,08003.8215,W,1,10,1.4,13,M,,M,,*62
06/23/2015	13:02:06.520	$GPGGA,130207,2520.0384,N,08003.8202,W,1,10,1.4,13,M,,M,,*68
06/23/2015	13:02:07.535	$GPGGA,130208,2520.0412,N,08003.8186,W,1,10,1.4,13,M,,M,,*60
06/23/2015	13:02:08.610	$GPGGA,130209,2520.0442,N,08003.8170,W,1,10,1.4,13,M,,M,,*6D
06/23/2015	13:02:09.537	$GPGGA,130210,2520.0471,N,08003.8155,W,1,10,1.4,13,M,,M,,*62
06/23/2015	13:02:10.601	$GPGGA,130211,2520.0500,N,08003.8141,W,1,10,1.4,13,M,,M,,*61
06/23/2015	13:02:11.622	$GPGGA,130212,2520.0529,N,08003.8124,W,1,10,1.4,13,M,,M,,*6A
06/23/2015	13:02:12.509	$GPGGA,130213,2520.0558,N,08003.8110,W,1,10,1.4,13,M,,M,,*6A
06/23/2015	13:02:13.622	$GPGGA,130214,2520.0587,N,08003.8096,W,1,10,1.4,13,M,,M,,*60
06/23/2015	13:02:14.589	$GPGGA,130215,2520.0616,N,08003.8080,W,1,10,1.4,13,M,,M,,*6D
06/23/2015	13:02:15.623	$GPGGA,130216,2520.0645,N,08003.8065,W,1,10,1.4,13,M,,M,,*63
06/23/2015	13:02:16.579	$GPGGA,130217,2520.0674,N,08003.8051,W,1,10,1.4,13,M,,M,,*67
06/23/2015	13:02:17.578	$GPGGA,130218,2520.0703,N,08003.8034,W,1,10,1.4,13,M,,M,,*6A
06/23/2015	13:02:18.869	$GPGGA,130219,2520.0732,N,08003.8019,W,1,10,1.4,13,M,,M,,*66
06/23/2015	13:02:19.631	$GPGGA,130220,2520.0763,N,08003.8007,W,1,10,1.4,13,M,,M,,*67
06/23/2015	13:02:20.588	$GPGGA,130221,2520.0790,N,08003.7990,W,1,10,1.4,13,M,,M,,*62
06/23/2015	13:02:21.588	$GPGGA,130222,2520.0820,N,08003.7974,W,1,10,1.4,13,M,,M,,*6F
06/23/2015	13:02:22.588	$GPGGA,130223,2520.0849,N,08003.7960,W,1,10,1.4,13,M,,M,,*64
06/23/2015	13:02:23.578	$GPGGA,130224,2520.0880,N,08003.7947,W,1,10,1.4,13,M,,M,,*63
06/23/2015	13:02:24.568	$GPGGA,130225,2520.0908,N,08003.7930,W,1,10,1.4,13,M,,M,,*63
06/23/2015	13:02:25.588	$GPGGA,130226,2520.0937,N,08003.7913,W,1,10,1.4,13,M,,M,,*6D
06/23/2015	13:02:26.568	$GPGGA,130227,2520.0966,N,08003.7901,W,1,10,1.4,13,M,,M,,*6B
06/23/2015	13:02:27.598	$GPGGA,130228,2520.0995,N,08003.7887,W,1,10,1.4,13,M,,M,,*67
06/23/2015	13:02:28.559	$GPGGA,130229,2520.1024,N,08003.7870,W,1,10,1.4,13,M,,M,,*6C
06/23/2015	13:02:29.569	$GPGGA,130230,2520.1052,N,08003.7855,W,1,10,1.4,13,M,,M,,*62
06/23/2015	13:02:30.569	$GPGGA,130231,2520.1082,N,08003.7841,W,1,10,1.4,13,M,,M,,*6B
06/23/2015	13:02:31.579	$GPGGA,130232,2520.1111,N,08003.7827,W,1,10,1.4,13,M,,M,,*63
06/23/2015	13:02:32.569	$GPGGA,130233,2520.1139,N,08003.7810,W,1,10,1.4,13,M,,M,,*6C
06/23/2015	13:02:33.579	$GPGGA,130234,2520.1169,N,08003.7795,W,1,10,1.4,13,M,,M,,*6C
06/23/2015	13:02:34.549	$GPGGA,130235,2520.1198,N,08003.7781,W,1,10,1.4,13,M,,M,,*66
06/23/2015	13:02:35.568	$GPGGA,130236,2520.1227,N,08003.7766,W,1,10,1.4,13,M,,M,,*6B
06/23/2015	13:02:36.558	$GPGGA,130237,2520.1255,N,08003.7750,W,1,10,1.4,13,M,,M,,*6A
06/23/2015	13:02:37.578	$GPGGA,130238,2520.1284,N,08003.7735,W,1,10,1.4,13,M,,M,,*6A
06/23/2015	13:02:38.529	$GPGGA,130239,2520.1313,N,08003.7720,W,1,10,1.4,13,M,,M,,*60
06/23/2015	13:02:39.589	$GPGGA,130240,2520.1342,N,08003.7705,W,1,10,1.4,13,M,,M,,*6D
06/23/2015	13:02:40.548	$GPGGA,130241,2520.1371,N,08003.7690,W,1,10,1.4,13,M,,M,,*61
06/23/2015	13:02:41.530	$GPGGA,130242,2520.1400,N,08003.7675,W,1,10,1.4,12,M,,M,,*69
06/23/2015	13:02:42.548	$GPGGA,130243,2520.1429,N,08003.7659,W,1,10,1.4,12,M,,M,,*6D
06/23/2015	13:02:43.548	$GPGGA,130244,2520.1458,N,08003.7645,W,1,10,1.4,12,M,,M,,*61
06/23/2015	13:02:44.522	$GPGGA,130245,2520.1489,N,08003.7631,W,1,10,1.4,12,M,,M,,*6F
06/23/2015	13:02:45.519	$GPGGA,130246,2520.1516,N,08003.7615,W,1,10,1.4,12,M,,M,,*6D
06/23/2015	13:02:46.532	$GPGGA,130247,2520.1545,N,08003.7600,W,1,10,1.4,12,M,,M,,*6E
06/23/2015	13:02:47.539	$GPGGA,130248,2520.1576,N,08003.7586,W,1,10,1.4,12,M,,M,,*6C
06/23/2015	13:02:48.540	$GPGGA,130249,2520.1605,N,08003.7570,W,1,10,1.4,12,M,,M,,*63
06/23/2015	13:02:49.509	$GPGGA,130250,2520.1634,N,08003.7555,W,1,10,1.4,12,M,,M,,*6E
06/23/2015	13:02:50.636	$GPGGA,130251,2520.1664,N,08003.7540,W,1,10,1.4,12,M,,M,,*6E
06/23/2015	13:02:51.521	$GPGGA,130252,2520.1693,N,08003.7525,W,1,10,1.4,12,M,,M,,*66
06/23/2015	13:02:52.508	$GPGGA,130253,2520.1721,N,08003.7509,W,1,10,1.4,12,M,,M,,*61
06/23/2015	13:02:53.518	$GPGGA,130254,2520.1750,N,08003.7494,W,1,10,1.4,12,M,,M,,*65
06/23/2015	13:02:54.498	$GPGGA,130255,2520.1779,N,08003.7479,W,1,10,1.4,12,M,,M,,*6C
06/23/2015	13:02:55.538	$GPGGA,130256,2520.1810,N,08003.7462,W,1,10,1.4,12,M,,M,,*65
06/23/2015	13:02:56.508	$GPGGA,130257,2520.1839,N,08003.7448,W,1,10,1.4,12,M,,M,,*67
06/23/2015	13:02:57.528	$GPGGA,130258,2520.1869,N,08003.7433,W,1,10,1.4,12,M,,M,,*61
06/23/2015	13:02:58.498	$GPGGA,130259,2520.1897,N,08003.7416,W,1,10,1.4,12,M,,M,,*66
06/23/2015	13:02:59.639	$GPGGA,130300,2520.1927,N,08003.7402,W,1,10,1.4,12,M,,M,,*64
06/23/2015	13:03:00.528	$GPGGA,130301,2520.1956,N,08003.7388,W,1,10,1.4,12,M,,M,,*66
06/23/2015	13:03:01.508	$GPGGA,130302,2520.1984,N,08003.7373,W,1,10,1.4,12,M,,M,,*6E
06/23/2015	13:03:02.608	$GPGGA,130303,2520.2014,N,08003.7357,W,1,10,1.4,12,M,,M,,*6A
06/23/2015	13:03:03.599	$GPGGA,130304,2520.2043,N,08003.7343,W,1,10,1.4,12,M,,M,,*6A
06/23/2015	13:03:04.479	$GPGGA,130305,2520.2072,N,08003.7329,W,1,10,1.4,12,M,,M,,*65
06/23/2015	13:03:05.589	$GPGGA,130306,2520.2101,N,08003.7314,W,1,10,1.4,12,M,,M,,*6D
06/23/2015	13:03:06.499	$GPGGA,130307,2520.2130,N,08003.7299,W,1,10,1.4,12,M,,M,,*6A
06/23/2015	13:03:07.609	$GPGGA,130308,2520.2159,N,08003.7284,W,1,10,1.4,12,M,,M,,*66
06/23/2015	13:03:08.579	$GPGGA,130309,2520.2188,N,08003.7269,W,1,10,1.4,12,M,,M,,*68
06/23/2015	13:03:09.469	$GPGGA,130310,2520.2216,N,08003.7255,W,1,10,1.4,12,M,,M,,*6B
06/23/2015	13:03:10.588	$GPGGA,130311,2520.2245,N,08003.7238,W,1,10,1.5,12,M,,M,,*66
06/23/2015	13:03:11.598	$GPGGA,130312,2520.2273,N,08003.7223,W,1,9,1.5,12,M,,M,,*52
06/23/2015	13:03:12.488	$GPGGA,130313,2520.2302,N,08003.7210,W,1,9,1.5,12,M,,M,,*54
06/23/2015	13:03:13.608	$GPGGA,130314,2520.2331,N,08003.7195,W,1,9,1.5,12,M,,M,,*5D
06/23/2015	13:03:14.558	$GPGGA,130315,2520.2359,N,08003.7177,W,1,9,1.5,12,M,,M,,*5E
06/23/2015	13:03:15.588	$GPGGA,130316,2520.2388,N,08003.7162,W,1,9,1.5,12,M,,M,,*55
06/23/2015	13:03:16.568	$GPGGA,130317,2520.2417,N,08003.7149,W,1,9,1.5,12,M,,M,,*5C
06/23/2015	13:03:17.578	$GPGGA,130318,2520.2444,N,08003.7132,W,1,9,1.5,12,M,,M,,*59
06/23/2015	13:03:18.558	$GPGGA,130319,2520.2473,N,08003.7117,W,1,9,1.5,12,M,,M,,*5B
06/23/2015	13:03:19.578	$GPGGA,130320,2520.2502,N,08003.7102,W,1,9,1.5,12,M,,M,,*52
06/23/2015	13:03:20.549	$GPGGA,130321,2520.2531,N,08003.7086,W,1,9,1.5,11,M,,M,,*5D
06/23/2015	13:03:21.569	$GPGGA,130322,2520.2560,N,08003.7070,W,1,9,1.5,11,M,,M,,*53
06/23/2015	13:03:22.539	$GPGGA,130323,2520.2589,N,08003.7056,W,1,9,1.5,11,M,,M,,*51
06/23/2015	13:03:23.579	$GPGGA,130324,2520.2617,N,08003.7040,W,1,9,1.5,11,M,,M,,*55
06/23/2015	13:03:24.549	$GPGGA,130325,2520.2646,N,08003.7023,W,1,9,1.5,11,M,,M,,*55
06/23/2015	13:03:25.559	$GPGGA,130326,2520.2675,N,08003.7007,W,1,9,1.5,11,M,,M,,*50
06/23/2015	13:03:26.549	$GPGGA,130327,2520.2704,N,08003.6993,W,1,9,1.5,11,M,,M,,*53
06/23/2015	13:03:27.568	$GPGGA,130328,2520.2733,N,08003.6979,W,1,9,1.5,11,M,,M,,*5C
06/23/2015	13:03:28.538	$GPGGA,130329,2520.2762,N,08003.6961,W,1,9,1.5,11,M,,M,,*50
06/23/2015	13:03:29.529	$GPGGA,130330,2520.2791,N,08003.6946,W,1,9,1.5,11,M,,M,,*51
06/23/2015	13:03:30.538	$GPGGA,130331,2520.2820,N,08003.6931,W,1,9,1.5,11,M,,M,,*55
06/23/2015	13:03:31.578	$GPGGA,130332,2520.2849,N,08003.6915,W,1,9,1.5,11,M,,M,,*5F
06/23/2015	13:03:32.528	$GPGGA,130333,2520.2878,N,08003.6900,W,1,9,1.5,11,M,,M,,*58
06/23/2015	13:03:33.548	$GPGGA,130334,2520.2907,N,08003.6884,W,1,9,1.5,11,M,,M,,*5B
06/23/2015	13:03:34.523	$GPGGA,130335,2520.2935,N,08003.6869,W,1,9,1.5,11,M,,M,,*58
06/23/2015	13:03:35.558	$GPGGA,130336,2520.2967,N,08003.6856,W,1,9,1.5,11,M,,M,,*50
06/23/2015	13:03:36.528	$GPGGA,130337,2520.2996,N,08003.6839,W,1,9,1.5,11,M,,M,,*56
06/23/2015	13:03:37.518	$GPGGA,130338,2520.3024,N,08003.6823,W,1,9,1.5,11,M,,M,,*53
06/23/2015	13:03:38.522	$GPGGA,130339,2520.3054,N,08003.6809,W,1,9,1.5,10,M,,M,,*5C
06/23/2015	13:03:39.559	$GPGGA,130340,2520.3083,N,08003.6794,W,1,9,1.5,10,M,,M,,*53
06/23/2015	13:03:40.509	$GPGGA,130341,2520.3112,N,08003.6778,W,1,9,1.5,10,M,,M,,*59
06/23/2015	13:03:41.528	$GPGGA,130342,2520.3141,N,08003.6763,W,1,9,1.5,10,M,,M,,*56
06/23/2015	13:03:42.519	$GPGGA,130343,2520.3170,N,08003.6747,W,1,9,1.5,10,M,,M,,*53
06/23/2015	13:03:43.509	$GPGGA,130344,2520.3199,N,08003.6733,W,1,9,1.5,10,M,,M,,*50
06/23/2015	13:03:44.519	$GPGGA,130345,2520.3228,N,08003.6717,W,1,9,1.5,10,M,,M,,*5E
06/23/2015	13:03:45.520	$GPGGA,130346,2520.3257,N,08003.6701,W,1,9,1.5,10,M,,M,,*52
06/23/2015	13:03:46.488	$GPGGA,130347,2520.3286,N,08003.6687,W,1,9,1.5,10,M,,M,,*50
06/23/2015	13:03:47.568	$GPGGA,130348,2520.3315,N,08003.6671,W,1,9,1.5,10,M,,M,,*5D
06/23/2015	13:03:48.498	$GPGGA,130349,2520.3346,N,08003.6655,W,1,9,1.5,10,M,,M,,*5C
06/23/2015	13:03:49.508	$GPGGA,130350,2520.3376,N,08003.6642,W,1,9,1.5,10,M,,M,,*51
06/23/2015	13:03:50.488	$GPGGA,130351,2520.3405,N,08003.6626,W,1,9,1.5,10,M,,M,,*51
06/23/2015	13:03:51.498	$GPGGA,130352,2520.3434,N,08003.6611,W,1,9,1.5,10,M,,M,,*54
06/23/2015	13:03:52.488	$GPGGA,130353,2520.3463,N,08003.6597,W,1,9,1.5,10,M,,M,,*5A
06/23/2015	13:03:53.488	$GPGGA,130354,2520.3494,N,08003.6583,W,1,9,1.5,10,M,,M,,*50
06/23/2015	13:03:54.488	$GPGGA,130355,2520.3521,N,08003.6567,W,1,9,1.5,10,M,,M,,*54
06/23/2015	13:03:55.649	$GPGGA,130356,2520.3550,N,08003.6552,W,1,9,1.5,10,M,,M,,*57
06/23/2015	13:03:56.499	$GPGGA,130357,2520.3581,N,08003.6538,W,1,9,1.5,10,M,,M,,*56
06/23/2015	13:03:57.609	$GPGGA,130358,2520.3611,N,08003.6523,W,1,9,1.5,10,M,,M,,*59
06/23/2015	13:03:58.489	$GPGGA,130359,2520.3639,N,08003.6507,W,1,9,1.5,10,M,,M,,*54
06/23/2015	13:03:59.620	$GPGGA,130400,2520.3668,N,08003.6492,W,1,9,1.8,10,M,,M,,*5B
06/23/2015	13:04:00.489	$GPGGA,130401,2520.3697,N,08003.6475,W,1,9,1.8,10,M,,M,,*53
06/23/2015	13:04:01.589	$GPGGA,130402,2520.3725,N,08003.6461,W,1,9,1.5,10,M,,M,,*50
06/23/2015	13:04:02.478	$GPGGA,130403,2520.3754,N,08003.6443,W,1,9,1.5,10,M,,M,,*57
06/23/2015	13:04:03.631	$GPGGA,130404,2520.3781,N,08003.6425,W,1,9,1.5,10,M,,M,,*58
06/23/2015	13:04:04.568	$GPGGA,130405,2520.3812,N,08003.6411,W,1,9,1.5,10,M,,M,,*5B
06/23/2015	13:04:05.568	$GPGGA,130406,2520.3841,N,08003.6396,W,1,9,1.5,10,M,,M,,*56
06/23/2015	13:04:06.558	$GPGGA,130407,2520.3868,N,08003.6379,W,1,9,1.5,10,M,,M,,*5D
06/23/2015	13:04:07.648	$GPGGA,130408,2520.3896,N,08003.6364,W,1,9,1.5,10,M,,M,,*5F
06/23/2015	13:04:08.548	$GPGGA,130409,2520.3927,N,08003.6350,W,1,9,1.5,10,M,,M,,*52
06/23/2015	13:04:09.548	$GPGGA,130410,2520.3956,N,08003.6334,W,1,9,1.5,11,M,,M,,*5F
06/23/2015	13:04:10.548	$GPGGA,130411,2520.3985,N,08003.6317,W,1,9,1.5,11,M,,M,,*51
06/23/2015	13:04:11.588	$GPGGA,130412,2520.4015,N,08003.6304,W,1,9,1.5,11,M,,M,,*57
06/23/2015	13:04:12.558	$GPGGA,130413,2520.4044,N,08003.6289,W,1,9,1.5,11,M,,M,,*56
06/23/2015	13:04:13.549	$GPGGA,130414,2520.4073,N,08003.6273,W,1,9,1.5,11,M,,M,,*50
06/23/2015	13:04:14.549	$GPGGA,130415,2520.4102,N,08003.6259,W,1,9,1.5,11,M,,M,,*5E
06/23/2015	13:04:15.579	$GPGGA,130416,2520.4131,N,08003.6243,W,1,9,1.5,11,M,,M,,*56
06/23/2015	13:04:16.549	$GPGGA,130417,2520.4160,N,08003.6228,W,1,9,1.5,11,M,,M,,*5E
06/23/2015	13:04:17.539	$GPGGA,130418,2520.4189,N,08003.6212,W,1,9,1.5,11,M,,M,,*5F
06/23/2015	13:04:18.539	$GPGGA,130419,2520.4218,N,08003.6197,W,1,9,1.5,11,M,,M,,*5B
06/23/2015	13:04:19.569	$GPGGA,130420,2520.4247,N,08003.6183,W,1,9,1.5,11,M,,M,,*5E
06/23/2015	13:04:20.538	$GPGGA,130421,2520.4276,N,08003.6166,W,1,9,1.5,11,M,,M,,*56
06/23/2015	13:04:21.531	$GPGGA,130422,2520.4307,N,08003.6151,W,1,9,1.5,11,M,,M,,*56
06/23/2015	13:04:22.538	$GPGGA,130423,2520.4336,N,08003.6137,W,1,9,1.5,11,M,,M,,*55
06/23/2015	13:04:23.568	$GPGGA,130424,2520.4366,N,08003.6120,W,1,9,1.5,11,M,,M,,*51
06/23/2015	13:04:24.531	$GPGGA,130425,2520.4395,N,08003.6105,W,1,9,1.5,11,M,,M,,*5B
06/23/2015	13:04:25.548	$GPGGA,130426,2520.4424,N,08003.6092,W,1,9,1.5,11,M,,M,,*5A
06/23/2015	13:04:26.508	$GPGGA,130427,2520.4452,N,08003.6074,W,1,9,1.5,11,M,,M,,*52
06/23/2015	13:04:27.568	$GPGGA,130428,2520.4481,N,08003.6059,W,1,9,1.5,11,M,,M,,*5C
06/23/2015	13:04:28.521	$GPGGA,130429,2520.4510,N,08003.6045,W,1,9,1.5,11,M,,M,,*59
06/23/2015	13:04:29.531	$GPGGA,130430,2520.4539,N,08003.6029,W,1,9,1.5,11,M,,M,,*50
06/23/2015	13:04:30.526	$GPGGA,130431,2520.4568,N,08003.6012,W,1,9,1.5,11,M,,M,,*5D
06/23/2015	13:04:31.579	$GPGGA,130432,2520.4597,N,08003.5997,W,1,9,1.5,11,M,,M,,*59
06/23/2015	13:04:32.520	$GPGGA,130433,2520.4626,N,08003.5982,W,1,9,1.5,11,M,,M,,*55
06/23/2015	13:04:33.539	$GPGGA,130434,2520.4655,N,08003.5967,W,1,9,1.5,11,M,,M,,*5D
06/23/2015	13:04:34.509	$GPGGA,130435,2520.4684,N,08003.5951,W,1,9,1.5,11,M,,M,,*55
06/23/2015	13:04:35.531	$GPGGA,130436,2520.4713,N,08003.5936,W,1,9,1.5,11,M,,M,,*58
06/23/2015	13:04:36.499	$GPGGA,130437,2520.4742,N,08003.5920,W,1,9,1.5,11,M,,M,,*5A
06/23/2015	13:04:37.538	$GPGGA,130438,2520.4771,N,08003.5905,W,1,9,1.5,11,M,,M,,*52
06/23/2015	13:04:38.519	$GPGGA,130439,2520.4802,N,08003.5891,W,1,9,1.5,11,M,,M,,*54
06/23/2015	13:04:39.622	$GPGGA,130440,2520.4831,N,08003.5873,W,1,9,1.5,11,M,,M,,*56
06/23/2015	13:04:40.508	$GPGGA,130441,2520.4860,N,08003.5859,W,1,9,1.5,11,M,,M,,*5B
06/23/2015	13:04:41.578	$GPGGA,130442,2520.4890,N,08003.5847,W,1,9,1.5,11,M,,M,,*58
06/23/2015	13:04:42.529	$GPGGA,130443,2520.4919,N,08003.5830,W,1,9,1.5,11,M,,M,,*59
06/23/2015	13:04:43.620	$GPGGA,130444,2520.4948,N,08003.5814,W,1,9,1.5,11,M,,M,,*5C
06/23/2015	13:04:44.508	$GPGGA,130445,2520.4979,N,08003.5802,W,1,9,1.5,11,M,,M,,*58
06/23/2015	13:04:45.508	$GPGGA,130446,2520.5008,N,08003.5787,W,1,9,1.5,11,M,,M,,*57
06/23/2015	13:04:46.498	$GPGGA,130447,2520.5037,N,08003.5771,W,1,9,1.5,11,M,,M,,*53
06/23/2015	13:04:47.598	$GPGGA,130448,2520.5067,N,08003.5756,W,1,9,1.5,11,M,,M,,*5C
06/23/2015	13:04:48.499	$GPGGA,130449,2520.5096,N,08003.5742,W,1,9,1.5,11,M,,M,,*56
06/23/2015	13:04:49.609	$GPGGA,130450,2520.5125,N,08003.5726,W,1,9,1.5,11,M,,M,,*55
06/23/2015	13:04:50.489	$GPGGA,130451,2520.5154,N,08003.5711,W,1,9,1.5,11,M,,M,,*56
06/23/2015	13:04:51.625	$GPGGA,130452,2520.5182,N,08003.5697,W,1,9,1.5,11,M,,M,,*51
06/23/2015	13:04:52.559	$GPGGA,130453,2520.5211,N,08003.5680,W,1,9,1.5,11,M,,M,,*5F
06/23/2015	13:04:53.569	$GPGGA,130454,2520.5240,N,08003.5666,W,1,9,1.5,11,M,,M,,*54
06/23/2015	13:04:55.608	$GPGGA,130456,2520.5298,N,08003.5634,W,1,9,1.5,11,M,,M,,*54
06/23/2015	13:04:56.548	$GPGGA,130457,2520.5329,N,08003.5619,W,1,9,1.5,11,M,,M,,*51
06/23/2015	13:04:57.568	$GPGGA,130458,2520.5359,N,08003.5606,W,1,9,1.5,11,M,,M,,*57
06/23/2015	13:04:58.558	$GPGGA,130459,2520.5387,N,08003.5590,W,1,9,1.5,11,M,,M,,*59
06/23/2015	13:04:59.578	$GPGGA,130500,2520.5416,N,08003.5573,W,1,9,1.5,11,M,,M,,*56
06/23/2015	13:05:00.548	$GPGGA,130501,2520.5446,N,08003.5561,W,1,9,1.5,11,M,,M,,*51
06/23/2015	13:05:01.543	$GPGGA,130502,2520.5475,N,08003.5546,W,1,9,1.5,11,M,,M,,*57
06/23/2015	13:05:02.548	$GPGGA,130503,2520.5503,N,08003.5528,W,1,9,1.5,11,M,,M,,*5E
06/23/2015	13:05:03.578	$GPGGA,130504,2520.5532,N,08003.5513,W,1,9,1.5,11,M,,M,,*53
06/23/2015	13:05:04.538	$GPGGA,130505,2520.5562,N,08003.5500,W,1,9,1.5,11,M,,M,,*55
06/23/2015	13:05:05.549	$GPGGA,130506,2520.5591,N,08003.5484,W,1,9,1.5,11,M,,M,,*57
06/23/2015	13:05:06.539	$GPGGA,130507,2520.5620,N,08003.5467,W,1,9,1.5,11,M,,M,,*52
06/23/2015	13:05:07.589	$GPGGA,130508,2520.5648,N,08003.5452,W,1,8,1.6,11,M,,M,,*57
06/23/2015	13:05:08.539	$GPGGA,130509,2520.5677,N,08003.5439,W,1,8,1.5,11,M,,M,,*54
06/23/2015	13:05:09.521	$GPGGA,130510,2520.5708,N,08003.5424,W,1,9,1.5,11,M,,M,,*58
06/23/2015	13:05:10.533	$GPGGA,130511,2520.5738,N,08003.5409,W,1,9,1.5,11,M,,M,,*55
06/23/2015	13:05:11.536	$GPGGA,130512,2520.5766,N,08003.5394,W,1,9,1.5,11,M,,M,,*5E
06/23/2015	13:05:12.538	$GPGGA,130513,2520.5797,N,08003.5379,W,1,9,1.5,10,M,,M,,*53
06/23/2015	13:05:13.538	$GPGGA,130514,2520.5826,N,08003.5364,W,1,9,1.5,10,M,,M,,*5D
06/23/2015	13:05:14.541	$GPGGA,130515,2520.5854,N,08003.5350,W,1,9,1.5,10,M,,M,,*5E
06/23/2015	13:05:15.548	$GPGGA,130516,2520.5883,N,08003.5334,W,1,9,1.5,10,M,,M,,*55
06/23/2015	13:05:16.508	$GPGGA,130517,2520.5911,N,08003.5318,W,1,9,1.5,10,M,,M,,*50
06/23/2015	13:05:17.548	$GPGGA,130518,2520.5941,N,08003.5303,W,1,9,1.5,10,M,,M,,*50
06/23/2015	13:05:18.508	$GPGGA,130519,2520.5970,N,08003.5291,W,1,9,1.5,10,M,,M,,*59
06/23/2015	13:05:19.548	$GPGGA,130520,2520.5999,N,08003.5274,W,1,9,1.5,10,M,,M,,*5F
06/23/2015	13:05:20.508	$GPGGA,130521,2520.6027,N,08003.5256,W,1,9,1.5,10,M,,M,,*51
06/23/2015	13:05:21.537	$GPGGA,130522,2520.6057,N,08003.5245,W,1,9,1.5,10,M,,M,,*57
06/23/2015	13:05:22.508	$GPGGA,130523,2520.6086,N,08003.5232,W,1,9,1.5,10,M,,M,,*5A
06/23/2015	13:05:23.521	$GPGGA,130524,2520.6113,N,08003.5213,W,1,9,1.5,10,M,,M,,*53
06/23/2015	13:05:24.609	$GPGGA,130525,2520.6142,N,08003.5199,W,1,9,1.5,10,M,,M,,*57
06/23/2015	13:05:25.609	$GPGGA,130526,2520.6172,N,08003.5187,W,1,9,1.5,10,M,,M,,*58
06/23/2015	13:05:26.609	$GPGGA,130527,2520.6201,N,08003.5170,W,1,9,1.5,10,M,,M,,*56
06/23/2015	13:05:27.549	$GPGGA,130528,2520.6227,N,08003.5153,W,1,9,1.5,10,M,,M,,*5C
06/23/2015	13:05:28.499	$GPGGA,130529,2520.6258,N,08003.5140,W,1,9,1.5,10,M,,M,,*57
06/23/2015	13:05:29.641	$GPGGA,130530,2520.6288,N,08003.5127,W,1,9,1.5,10,M,,M,,*53
06/23/2015	13:05:30.498	$GPGGA,130531,2520.6316,N,08003.5109,W,1,9,1.5,10,M,,M,,*58
06/23/2015	13:05:31.499	$GPGGA,130532,2520.6345,N,08003.5093,W,1,9,1.5,10,M,,M,,*5F
06/23/2015	13:05:32.508	$GPGGA,130533,2520.6375,N,08003.5081,W,1,9,1.5,10,M,,M,,*5E
06/23/2015	13:05:33.608	$GPGGA,130534,2520.6404,N,08003.5067,W,1,9,1.5,10,M,,M,,*50
06/23/2015	13:05:34.488	$GPGGA,130535,2520.6432,N,08003.5051,W,1,9,1.5,10,M,,M,,*51
06/23/2015	13:05:35.508	$GPGGA,130536,2520.6461,N,08003.5035,W,1,9,1.5,10,M,,M,,*56
06/23/2015	13:05:36.468	$GPGGA,130537,2520.6492,N,08003.5023,W,1,9,1.5,10,M,,M,,*5C
06/23/2015	13:05:37.508	$GPGGA,130538,2520.6522,N,08003.5009,W,1,9,1.5,10,M,,M,,*51
06/23/2015	13:05:38.488	$GPGGA,130539,2520.6550,N,08003.4993,W,1,9,1.5,10,M,,M,,*5E
06/23/2015	13:05:39.578	$GPGGA,130540,2520.6579,N,08003.4976,W,1,9,1.5,10,M,,M,,*50
06/23/2015	13:05:40.579	$GPGGA,130541,2520.6608,N,08003.4962,W,1,9,1.5,10,M,,M,,*51
06/23/2015	13:05:41.579	$GPGGA,130542,2520.6638,N,08003.4951,W,1,9,1.5,10,M,,M,,*51
06/23/2015	13:05:42.479	$GPGGA,130543,2520.6667,N,08003.4934,W,1,9,1.5,10,M,,M,,*59
06/23/2015	13:05:43.599	$GPGGA,130544,2520.6695,N,08003.4917,W,1,9,1.5,10,M,,M,,*52
06/23/2015	13:05:44.559	$GPGGA,130545,2520.6725,N,08003.4906,W,1,9,1.5,10,M,,M,,*59
06/23/2015	13:05:45.579	$GPGGA,130546,2520.6754,N,08003.4894,W,1,9,1.5,10,M,,M,,*56
06/23/2015	13:05:46.559	$GPGGA,130547,2520.6783,N,08003.4875,W,1,9,1.5,10,M,,M,,*52
06/23/2015	13:05:47.588	$GPGGA,130548,2520.6811,N,08003.4860,W,1,9,1.5,10,M,,M,,*5D
06/23/2015	13:05:48.548	$GPGGA,130549,2520.6843,N,08003.4849,W,1,9,1.5,10,M,,M,,*50
06/23/2015	13:05:49.578	$GPGGA,130550,2520.6870,N,08003.4834,W,1,9,1.5,10,M,,M,,*52
06/23/2015	13:05:50.538	$GPGGA,130551,2520.6898,N,08003.4816,W,1,9,1.5,10,M,,M,,*55
06/23/2015	13:05:51.568	$GPGGA,130552,2520.6927,N,08003.4801,W,1,9,1.5,10,M,,M,,*55
06/23/2015	13:05:52.548	$GPGGA,130553,2520.6956,N,08003.4788,W,1,9,1.5,10,M,,M,,*5C
06/23/2015	13:05:53.558	$GPGGA,130554,2520.6985,N,08003.4771,W,1,9,1.5,10,M,,M,,*53
06/23/2015	13:05:54.548	$GPGGA,130555,2520.7014,N,08003.4755,W,1,9,1.5,10,M,,M,,*54
06/23/2015	13:05:55.578	$GPGGA,130556,2520.7043,N,08003.4741,W,1,8,1.7,10,M,,M,,*53
06/23/2015	13:05:56.538	$GPGGA,130557,2520.7072,N,08003.4727,W,1,8,1.5,10,M,,M,,*52
06/23/2015	13:05:57.548	$GPGGA,130558,2520.7100,N,08003.4710,W,1,9,1.5,10,M,,M,,*5C
06/23/2015	13:05:58.539	$GPGGA,130559,2520.7129,N,08003.4694,W,1,9,1.5,10,M,,M,,*5B
06/23/2015	13:05:59.539	$GPGGA,130600,2520.7158,N,08003.4680,W,1,9,1.5,10,M,,M,,*57
06/23/2015	13:06:00.521	$GPGGA,130601,2520.7187,N,08003.4664,W,1,9,1.5,10,M,,M,,*5E
06/23/2015	13:06:01.559	$GPGGA,130602,2520.7216,N,08003.4649,W,1,9,1.5,10,M,,M,,*59
06/23/2015	13:06:02.519	$GPGGA,130603,2520.7245,N,08003.4634,W,1,9,1.5,10,M,,M,,*54
06/23/2015	13:06:03.549	$GPGGA,130604,2520.7274,N,08003.4618,W,1,9,1.5,10,M,,M,,*5F
06/23/2015	13:06:04.528	$GPGGA,130605,2520.7303,N,08003.4603,W,1,9,1.5,10,M,,M,,*55
06/23/2015	13:06:05.508	$GPGGA,130606,2520.7332,N,08003.4588,W,1,9,1.5,10,M,,M,,*54
06/23/2015	13:06:06.528	$GPGGA,130607,2520.7361,N,08003.4573,W,1,9,1.5,10,M,,M,,*57
06/23/2015	13:06:07.578	$GPGGA,130608,2520.7392,N,08003.4558,W,1,9,1.5,10,M,,M,,*5D
06/23/2015	13:06:08.518	$GPGGA,130609,2520.7419,N,08003.4543,W,1,9,1.5,10,M,,M,,*52
06/23/2015	13:06:09.529	$GPGGA,130610,2520.7450,N,08003.4527,W,1,9,1.5,10,M,,M,,*55
06/23/2015	13:06:10.508	$GPGGA,130611,2520.7479,N,08003.4514,W,1,9,1.5,10,M,,M,,*5F
06/23/2015	13:06:11.538	$GPGGA,130612,2520.7509,N,08003.4498,W,1,9,1.5,10,M,,M,,*5F
06/23/2015	13:06:12.528	$GPGGA,130613,2520.7538,N,08003.4482,W,1,9,1.5,10,M,,M,,*57
06/23/2015	13:06:13.608	$GPGGA,130614,2520.7567,N,08003.4468,W,1,9,1.5,10,M,,M,,*5E
06/23/2015	13:06:14.488	$GPGGA,130615,2520.7596,N,08003.4453,W,1,9,1.5,10,M,,M,,*59
06/23/2015	13:06:15.529	$GPGGA,130616,2520.7625,N,08003.4435,W,1,9,1.5,10,M,,M,,*51
06/23/2015	13:06:17.559	$GPGGA,130618,2520.7686,N,08003.4407,W,1,9,1.5,10,M,,M,,*57
06/23/2015	13:06:18.499	$GPGGA,130619,2520.7714,N,08003.4390,W,1,9,1.5,10,M,,M,,*55
06/23/2015	13:06:19.633	$GPGGA,130620,2520.7744,N,08003.4375,W,1,9,1.5,10,M,,M,,*51
06/23/2015	13:06:20.499	$GPGGA,130621,2520.7773,N,08003.4361,W,1,9,1.5,10,M,,M,,*51
06/23/2015	13:06:21.479	$GPGGA,130622,2520.7802,N,08003.4344,W,1,9,1.5,10,M,,M,,*5C
06/23/2015	13:06:22.578	$GPGGA,130623,2520.7831,N,08003.4329,W,1,9,1.5,10,M,,M,,*56
06/23/2015	13:06:23.588	$GPGGA,130624,2520.7860,N,08003.4313,W,1,9,1.5,10,M,,M,,*5C
06/23/2015	13:06:24.578	$GPGGA,130625,2520.7889,N,08003.4298,W,1,9,1.5,10,M,,M,,*58
06/23/2015	13:06:25.608	$GPGGA,130626,2520.7919,N,08003.4282,W,1,9,1.5,10,M,,M,,*58
06/23/2015	13:06:26.488	$GPGGA,130627,2520.7946,N,08003.4265,W,1,9,1.5,10,M,,M,,*5A
06/23/2015	13:06:27.588	$GPGGA,130628,2520.7977,N,08003.4251,W,1,9,1.5,10,M,,M,,*50
06/23/2015	13:06:28.498	$GPGGA,130629,2520.8007,N,08003.4237,W,1,9,1.5,10,M,,M,,*50
06/23/2015	13:06:29.598	$GPGGA,130630,2520.8035,N,08003.4220,W,1,9,1.5,10,M,,M,,*5F
06/23/2015	13:06:30.468	$GPGGA,130631,2520.8064,N,08003.4204,W,1,9,1.5,10,M,,M,,*5C
06/23/2015	13:06:31.568	$GPGGA,130632,2520.8094,N,08003.4190,W,1,9,1.5,10,M,,M,,*5E
06/23/2015	13:06:32.568	$GPGGA,130633,2520.8125,N,08003.4176,W,1,9,1.5,10,M,,M,,*5C
06/23/2015	13:06:33.599	$GPGGA,130634,2520.8154,N,08003.4159,W,1,9,1.5,10,M,,M,,*50
06/23/2015	13:06:34.549	$GPGGA,130635,2520.8183,N,08003.4142,W,1,9,1.5,10,M,,M,,*51
06/23/2015	13:06:35.579	$GPGGA,130636,2520.8213,N,08003.4130,W,1,9,1.5,10,M,,M,,*5D
06/23/2015	13:06:36.559	$GPGGA,130637,2520.8242,N,08003.4114,W,1,9,1.5,10,M,,M,,*5E
06/23/2015	13:06:37.559	$GPGGA,130638,2520.8270,N,08003.4098,W,1,9,1.5,10,M,,M,,*55
06/23/2015	13:06:38.559	$GPGGA,130639,2520.8300,N,08003.4085,W,1,9,1.5,10,M,,M,,*5E
06/23/2015	13:06:39.588	$GPGGA,130640,2520.8329,N,08003.4069,W,1,9,1.5,10,M,,M,,*59
06/23/2015	13:06:40.548	$GPGGA,130641,2520.8358,N,08003.4053,W,1,9,1.5,10,M,,M,,*57
06/23/2015	13:06:41.568	$GPGGA,130642,2520.8387,N,08003.4039,W,1,9,1.5,10,M,,M,,*5A
06/23/2015	13:06:42.548	$GPGGA,130643,2520.8418,N,08003.4025,W,1,9,1.5,10,M,,M,,*57
06/23/2015	13:06:43.568	$GPGGA,130644,2520.8445,N,08003.4009,W,1,9,1.5,10,M,,M,,*56
06/23/2015	13:06:44.529	$GPGGA,130645,2520.8474,N,08003.3993,W,1,9,1.5,10,M,,M,,*58
06/23/2015	13:06:45.558	$GPGGA,130646,2520.8503,N,08003.3979,W,1,9,1.5,10,M,,M,,*5E
06/23/2015	13:06:46.538	$GPGGA,130647,2520.8532,N,08003.3963,W,1,9,1.5,10,M,,M,,*56
06/23/2015	13:06:47.568	$GPGGA,130648,2520.8561,N,08003.3947,W,1,9,1.5,10,M,,M,,*59
06/23/2015	13:06:48.532	$GPGGA,130649,2520.8592,N,08003.3932,W,1,9,1.5,10,M,,M,,*56
06/23/2015	13:06:49.558	$GPGGA,130650,2520.8621,N,08003.3916,W,1,9,1.5,10,M,,M,,*53
06/23/2015	13:06:50.522	$GPGGA,130651,2520.8649,N,08003.3899,W,1,9,1.5,10,M,,M,,*5A
06/23/2015	13:06:51.535	$GPGGA,130652,2520.8679,N,08003.3887,W,1,8,1.7,10,M,,M,,*56
06/23/2015	13:06:52.535	$GPGGA,130653,2520.8707,N,08003.3872,W,1,8,1.5,10,M,,M,,*57
06/23/2015	13:06:53.524	$GPGGA,130654,2520.8734,N,08003.3854,W,1,9,1.5,10,M,,M,,*55
06/23/2015	13:06:54.524	$GPGGA,130655,2520.8763,N,08003.3839,W,1,9,1.5,10,M,,M,,*5D
06/23/2015	13:06:55.539	$GPGGA,130656,2520.8792,N,08003.3826,W,1,9,1.5,10,M,,M,,*5E
06/23/2015	13:06:56.526	$GPGGA,130657,2520.8820,N,08003.3808,W,1,9,1.5,10,M,,M,,*55
06/23/2015	13:06:57.508	$GPGGA,130658,2520.8849,N,08003.3792,W,1,9,1.5,10,M,,M,,*59
06/23/2015	13:06:58.532	$GPGGA,130659,2520.8878,N,08003.3776,W,1,9,1.5,10,M,,M,,*50
06/23/2015	13:06:59.629	$GPGGA,130700,2520.8907,N,08003.3759,W,1,8,1.7,10,M,,M,,*5A
06/23/2015	13:07:00.519	$GPGGA,130701,2520.8936,N,08003.3744,W,1,8,1.5,10,M,,M,,*57
06/23/2015	13:07:01.537	$GPGGA,130702,2520.8965,N,08003.3728,W,1,9,1.5,10,M,,M,,*59
06/23/2015	13:07:02.508	$GPGGA,130703,2520.8994,N,08003.3711,W,1,9,1.5,10,M,,M,,*5C
06/23/2015	13:07:03.535	$GPGGA,130704,2520.9025,N,08003.3696,W,1,9,1.5,10,M,,M,,*57
06/23/2015	13:07:04.498	$GPGGA,130705,2520.9055,N,08003.3681,W,1,9,1.5,10,M,,M,,*57
06/23/2015	13:07:05.488	$GPGGA,130706,2520.9084,N,08003.3664,W,1,9,1.5,10,M,,M,,*53
06/23/2015	13:07:06.508	$GPGGA,130707,2520.9113,N,08003.3649,W,1,9,1.5,10,M,,M,,*52
06/23/2015	13:07:07.548	$GPGGA,130708,2520.9142,N,08003.3635,W,1,9,1.5,10,M,,M,,*52
06/23/2015	13:07:08.589	$GPGGA,130709,2520.9171,N,08003.3618,W,1,9,1.5,10,M,,M,,*5C
06/23/2015	13:07:09.479	$GPGGA,130710,2520.9200,N,08003.3603,W,1,9,1.5,10,M,,M,,*5B
06/23/2015	13:07:10.649	$GPGGA,130711,2520.9229,N,08003.3590,W,1,9,1.5,10,M,,M,,*58
06/23/2015	13:07:11.659	$GPGGA,130712,2520.9260,N,08003.3573,W,1,9,1.5,10,M,,M,,*5B
06/23/2015	13:07:12.649	$GPGGA,130713,2520.9287,N,08003.3558,W,1,9,1.5,10,M,,M,,*5A
06/23/2015	13:07:13.569	$GPGGA,130714,2520.9318,N,08003.3545,W,1,9,1.5,10,M,,M,,*56
06/23/2015	13:07:14.642	$GPGGA,130715,2520.9348,N,08003.3530,W,1,9,1.5,10,M,,M,,*50
06/23/2015	13:07:15.588	$GPGGA,130716,2520.9377,N,08003.3516,W,1,9,1.5,10,M,,M,,*5B
06/23/2015	13:07:16.658	$GPGGA,130717,2520.9406,N,08003.3500,W,1,9,1.5,10,M,,M,,*5C
06/23/2015	13:07:17.568	$GPGGA,130718,2520.9435,N,08003.3485,W,1,9,1.5,10,M,,M,,*5F
06/23/2015	13:07:18.637	$GPGGA,130719,2520.9464,N,08003.3472,W,1,9,1.5,10,M,,M,,*52
06/23/2015	13:07:19.640	$GPGGA,130720,2520.9495,N,08003.3457,W,1,9,1.5,10,M,,M,,*51
06/23/2015	13:07:20.558	$GPGGA,130721,2520.9524,N,08003.3441,W,1,9,1.5,10,M,,M,,*5C
06/23/2015	13:07:21.588	$GPGGA,130722,2520.9554,N,08003.3425,W,1,8,1.8,10,M,,M,,*56
06/23/2015	13:07:22.622	$GPGGA,130723,2520.9582,N,08003.3411,W,1,8,1.5,10,M,,M,,*56
06/23/2015	13:07:23.658	$GPGGA,130724,2520.9611,N,08003.3398,W,1,9,1.5,10,M,,M,,*5F
06/23/2015	13:07:24.558	$GPGGA,130725,2520.9640,N,08003.3383,W,1,9,1.5,10,M,,M,,*50
06/23/2015	13:07:25.589	$GPGGA,130726,2520.9669,N,08003.3368,W,1,9,1.5,10,M,,M,,*5D
06/23/2015	13:07:27.660	$GPGGA,130728,2520.9729,N,08003.3339,W,1,9,1.5,10,M,,M,,*52
06/23/2015	13:07:28.559	$GPGGA,130729,2520.9756,N,08003.3322,W,1,9,1.5,10,M,,M,,*51
06/23/2015	13:07:29.589	$GPGGA,130730,2520.9785,N,08003.3307,W,1,9,1.5,10,M,,M,,*50
06/23/2015	13:07:30.549	$GPGGA,130731,2520.9816,N,08003.3293,W,1,9,1.5,10,M,,M,,*58
06/23/2015	13:07:31.622	$GPGGA,130732,2520.9843,N,08003.3277,W,1,9,1.5,11,M,,M,,*50
06/23/2015	13:07:32.608	$GPGGA,130733,2520.9874,N,08003.3261,W,1,9,1.5,11,M,,M,,*52
06/23/2015	13:07:33.533	$GPGGA,130734,2520.9903,N,08003.3246,W,1,9,1.5,11,M,,M,,*51
06/23/2015	13:07:34.608	$GPGGA,130735,2520.9932,N,08003.3231,W,1,9,1.5,11,M,,M,,*52
06/23/2015	13:07:35.598	$GPGGA,130736,2520.9962,N,08003.3215,W,1,9,1.5,11,M,,M,,*52
06/23/2015	13:07:36.588	$GPGGA,130737,2520.9990,N,08003.3199,W,1,9,1.5,11,M,,M,,*59
06/23/2015	13:07:37.618	$GPGGA,130738,2521.0019,N,08003.3184,W,1,9,1.5,11,M,,M,,*5A
06/23/2015	13:07:38.530	$GPGGA,130739,2521.0049,N,08003.3168,W,1,9,1.5,11,M,,M,,*5C
06/23/2015	13:07:39.588	$GPGGA,130740,2521.0076,N,08003.3152,W,1,8,1.5,11,M,,M,,*56
06/23/2015	13:07:40.578	$GPGGA,130741,2521.0107,N,08003.3136,W,1,8,1.5,11,M,,M,,*52
06/23/2015	13:07:41.608	$GPGGA,130742,2521.0135,N,08003.3119,W,1,9,1.5,11,M,,M,,*5C
06/23/2015	13:07:42.588	$GPGGA,130743,2521.0164,N,08003.3104,W,1,9,1.5,11,M,,M,,*55
06/23/2015	13:07:43.630	$GPGGA,130744,2521.0193,N,08003.3088,W,1,9,1.5,11,M,,M,,*5F
06/23/2015	13:07:44.509	$GPGGA,130745,2521.0222,N,08003.3071,W,1,9,1.5,11,M,,M,,*51
06/23/2015	13:07:45.549	$GPGGA,130746,2521.0251,N,08003.3056,W,1,9,1.7,11,M,,M,,*51
06/23/2015	13:07:46.569	$GPGGA,130747,2521.0280,N,08003.3043,W,1,9,1.7,11,M,,M,,*58
06/23/2015	13:07:47.609	$GPGGA,130748,2521.0308,N,08003.3028,W,1,9,1.5,12,M,,M,,*5A
06/23/2015	13:07:48.509	$GPGGA,130749,2521.0336,N,08003.3012,W,1,9,1.5,12,M,,M,,*5F
06/23/2015	13:07:49.498	$GPGGA,130750,2521.0366,N,08003.2997,W,1,9,1.5,12,M,,M,,*57
06/23/2015	13:07:50.568	$GPGGA,130751,2521.0395,N,08003.2982,W,1,9,1.5,12,M,,M,,*5E
06/23/2015	13:07:52.044	$GPGGA,130752,2521.0423,N,08003.2966,W,1,9,1.5,12,M,,M,,*5D
06/23/2015	13:07:52.598	$GPGGA,130753,2521.0452,N,08003.2950,W,1,9,1.5,12,M,,M,,*5F
06/23/2015	13:07:53.498	$GPGGA,130754,2521.0481,N,08003.2936,W,1,9,1.5,12,M,,M,,*56
06/23/2015	13:07:54.568	$GPGGA,130755,2521.0510,N,08003.2921,W,1,9,1.5,12,M,,M,,*58
06/23/2015	13:07:55.568	$GPGGA,130756,2521.0539,N,08003.2905,W,1,9,1.5,12,M,,M,,*56
06/23/2015	13:07:56.488	$GPGGA,130757,2521.0569,N,08003.2891,W,1,9,1.5,12,M,,M,,*5E
06/23/2015	13:07:57.609	$GPGGA,130758,2521.0598,N,08003.2875,W,1,9,1.5,12,M,,M,,*55
06/23/2015	13:07:58.608	$GPGGA,130759,2521.0627,N,08003.2859,W,1,9,1.5,12,M,,M,,*5D
06/23/2015	13:07:59.648	$GPGGA,130800,2521.0658,N,08003.2845,W,1,9,1.5,12,M,,M,,*5B
06/23/2015	13:08:00.599	$GPGGA,130801,2521.0687,N,08003.2830,W,1,9,1.5,12,M,,M,,*5A
06/23/2015	13:08:01.599	$GPGGA,130802,2521.0716,N,08003.2814,W,1,9,1.5,12,M,,M,,*56
06/23/2015	13:08:02.579	$GPGGA,130803,2521.0746,N,08003.2799,W,1,9,1.5,12,M,,M,,*58
06/23/2015	13:08:03.599	$GPGGA,130804,2521.0775,N,08003.2783,W,1,9,1.5,12,M,,M,,*54
06/23/2015	13:08:04.539	$GPGGA,130805,2521.0804,N,08003.2769,W,1,9,1.5,12,M,,M,,*58
06/23/2015	13:08:05.599	$GPGGA,130806,2521.0835,N,08003.2753,W,1,9,1.5,12,M,,M,,*50
06/23/2015	13:08:06.539	$GPGGA,130807,2521.0864,N,08003.2737,W,1,9,1.5,12,M,,M,,*57
06/23/2015	13:08:07.634	$GPGGA,130808,2521.0893,N,08003.2722,W,1,9,1.5,12,M,,M,,*54
06/23/2015	13:08:08.588	$GPGGA,130809,2521.0923,N,08003.2707,W,1,9,1.5,12,M,,M,,*58
06/23/2015	13:08:09.598	$GPGGA,130810,2521.0952,N,08003.2693,W,1,9,1.5,12,M,,M,,*5A
06/23/2015	13:08:10.558	$GPGGA,130811,2521.0981,N,08003.2675,W,1,9,1.5,12,M,,M,,*5D
06/23/2015	13:08:11.588	$GPGGA,130812,2521.1012,N,08003.2661,W,1,9,1.5,12,M,,M,,*59
06/23/2015	13:08:12.548	$GPGGA,130813,2521.1042,N,08003.2648,W,1,9,1.5,12,M,,M,,*56
06/23/2015	13:08:13.578	$GPGGA,130814,2521.1071,N,08003.2632,W,1,9,1.5,12,M,,M,,*5C
06/23/2015	13:08:14.558	$GPGGA,130815,2521.1100,N,08003.2614,W,1,9,1.5,12,M,,M,,*5E
06/23/2015	13:08:15.588	$GPGGA,130816,2521.1100,N,08003.2614,W,1,9,1.5,12,M,,M,,*5D
06/23/2015	13:08:16.538	$GPGGA,130817,2521.1161,N,08003.2590,W,1,9,1.5,12,M,,M,,*54
06/23/2015	13:08:17.568	$GPGGA,130818,2521.1190,N,08003.2573,W,1,9,1.5,12,M,,M,,*58
06/23/2015	13:08:18.548	$GPGGA,130819,2521.1190,N,08003.2573,W,1,9,1.5,12,M,,M,,*59
06/23/2015	13:08:19.558	$GPGGA,130820,2521.1248,N,08003.2544,W,1,9,1.5,12,M,,M,,*51
06/23/2015	13:08:20.548	$GPGGA,130821,2521.1279,N,08003.2530,W,1,9,1.5,11,M,,M,,*52
06/23/2015	13:08:21.528	$GPGGA,130822,2521.1306,N,08003.2513,W,1,9,1.5,11,M,,M,,*59
06/23/2015	13:08:22.558	$GPGGA,130823,2521.1335,N,08003.2497,W,1,9,1.7,11,M,,M,,*57
06/23/2015	13:08:23.578	$GPGGA,130824,2521.1363,N,08003.2484,W,1,8,1.5,11,M,,M,,*52
06/23/2015	13:08:24.547	$GPGGA,130825,2521.1392,N,08003.2470,W,1,8,1.5,11,M,,M,,*56
06/23/2015	13:08:25.577	$GPGGA,130826,2521.1418,N,08003.2453,W,1,9,1.5,11,M,,M,,*50
06/23/2015	13:08:26.537	$GPGGA,130827,2521.1447,N,08003.2438,W,1,9,1.5,11,M,,M,,*56
06/23/2015	13:08:27.557	$GPGGA,130828,2521.1478,N,08003.2423,W,1,9,1.5,11,M,,M,,*5F
06/23/2015	13:08:28.528	$GPGGA,130829,2521.1505,N,08003.2406,W,1,9,1.5,11,M,,M,,*52
06/23/2015	13:08:29.538	$GPGGA,130830,2521.1534,N,08003.2390,W,1,9,1.5,11,M,,M,,*50
06/23/2015	13:08:30.548	$GPGGA,130831,2521.1565,N,08003.2374,W,1,9,1.7,12,M,,M,,*5E
06/23/2015	13:08:31.528	$GPGGA,130832,2521.1594,N,08003.2358,W,1,8,1.7,12,M,,M,,*5C
06/23/2015	13:08:32.538	$GPGGA,130833,2521.1624,N,08003.2342,W,1,8,1.7,12,M,,M,,*5E
06/23/2015	13:08:33.538	$GPGGA,130834,2521.1653,N,08003.2325,W,1,8,1.5,12,M,,M,,*5A
06/23/2015	13:08:34.528	$GPGGA,130835,2521.1682,N,08003.2308,W,1,8,1.7,11,M,,M,,*59
06/23/2015	13:08:35.538	$GPGGA,130836,2521.1713,N,08003.2293,W,1,8,1.7,11,M,,M,,*50
06/23/2015	13:08:36.538	$GPGGA,130837,2521.1740,N,08003.2279,W,1,8,1.5,11,M,,M,,*51
06/23/2015	13:08:37.538	$GPGGA,130838,2521.1740,N,08003.2279,W,1,9,1.5,11,M,,M,,*5F
06/23/2015	13:08:38.548	$GPGGA,130839,2521.1797,N,08003.2248,W,1,9,1.5,11,M,,M,,*56
06/23/2015	13:08:39.518	$GPGGA,130840,2521.1797,N,08003.2248,W,1,9,1.5,11,M,,M,,*58
06/23/2015	13:08:40.538	$GPGGA,130841,2521.1857,N,08003.2218,W,1,9,1.5,12,M,,M,,*5C
06/23/2015	13:08:41.498	$GPGGA,130842,2521.1886,N,08003.2202,W,1,9,1.5,12,M,,M,,*58
06/23/2015	13:08:42.527	$GPGGA,130843,2521.1916,N,08003.2186,W,1,9,1.5,12,M,,M,,*5E
06/23/2015	13:08:43.547	$GPGGA,130844,2521.1945,N,08003.2172,W,1,9,1.5,12,M,,M,,*54
06/23/2015	13:08:44.487	$GPGGA,130845,2521.1945,N,08003.2172,W,1,9,1.5,12,M,,M,,*55
06/23/2015	13:08:45.498	$GPGGA,130846,2521.2003,N,08003.2141,W,1,9,1.5,12,M,,M,,*5E
06/23/2015	13:08:46.528	$GPGGA,130847,2521.2003,N,08003.2141,W,1,9,1.5,12,M,,M,,*5F
06/23/2015	13:08:47.625	$GPGGA,130848,2521.2061,N,08003.2112,W,1,9,1.5,12,M,,M,,*52
06/23/2015	13:08:48.568	$GPGGA,130849,2521.2090,N,08003.2097,W,1,9,1.5,12,M,,M,,*51
06/23/2015	13:08:49.608	$GPGGA,130850,2521.2121,N,08003.2081,W,1,9,1.5,12,M,,M,,*55
06/23/2015	13:08:50.588	$GPGGA,130851,2521.2151,N,08003.2066,W,1,9,1.5,12,M,,M,,*5A
06/23/2015	13:08:51.578	$GPGGA,130852,2521.2180,N,08003.2052,W,1,9,1.5,12,M,,M,,*52
06/23/2015	13:08:52.578	$GPGGA,130853,2521.2180,N,08003.2052,W,1,9,1.5,12,M,,M,,*53
06/23/2015	13:08:53.468	$GPGGA,130854,2521.2238,N,08003.2020,W,1,9,1.5,12,M,,M,,*51
06/23/2015	13:08:54.569	$GPGGA,130855,2521.2270,N,08003.2008,W,1,9,1.5,12,M,,M,,*56
06/23/2015	13:08:55.578	$GPGGA,130856,2521.2299,N,08003.1993,W,1,9,1.5,12,M,,M,,*5A
06/23/2015	13:08:56.558	$GPGGA,130857,2521.2327,N,08003.1977,W,1,9,1.5,12,M,,M,,*55
06/23/2015	13:08:57.878	$GPGGA,130858,2521.2357,N,08003.1964,W,1,9,1.5,12,M,,M,,*5F
06/23/2015	13:08:58.558	$GPGGA,130859,2521.2388,N,08003.1949,W,1,9,1.5,12,M,,M,,*53
06/23/2015	13:08:59.577	$GPGGA,130900,2521.2417,N,08003.1934,W,1,9,1.5,12,M,,M,,*55
06/23/2015	13:09:00.557	$GPGGA,130901,2521.2447,N,08003.1919,W,1,9,1.5,12,M,,M,,*5E
06/23/2015	13:09:01.557	$GPGGA,130902,2521.2477,N,08003.1905,W,1,9,1.5,12,M,,M,,*53
06/23/2015	13:09:02.557	$GPGGA,130903,2521.2505,N,08003.1889,W,1,9,1.5,11,M,,M,,*50
06/23/2015	13:09:03.588	$GPGGA,130904,2521.2534,N,08003.1875,W,1,9,1.5,11,M,,M,,*56
06/23/2015	13:09:04.568	$GPGGA,130905,2521.2563,N,08003.1860,W,1,9,1.5,11,M,,M,,*51
06/23/2015	13:09:05.568	$GPGGA,130906,2521.2592,N,08003.1845,W,1,9,1.5,11,M,,M,,*5B
06/23/2015	13:09:06.538	$GPGGA,130907,2521.2623,N,08003.1828,W,1,9,1.5,11,M,,M,,*58
06/23/2015	13:09:07.568	$GPGGA,130908,2521.2652,N,08003.1813,W,1,8,1.7,11,M,,M,,*5A
06/23/2015	13:09:08.538	$GPGGA,130909,2521.2682,N,08003.1800,W,1,8,1.5,11,M,,M,,*56
06/23/2015	13:09:09.548	$GPGGA,130910,2521.2711,N,08003.1782,W,1,9,1.5,11,M,,M,,*51
06/23/2015	13:09:10.529	$GPGGA,130911,2521.2740,N,08003.1766,W,1,9,1.7,11,M,,M,,*5C
06/23/2015	13:09:11.568	$GPGGA,130912,2521.2769,N,08003.1755,W,1,8,1.7,11,M,,M,,*55
06/23/2015	13:09:12.538	$GPGGA,130913,2521.2797,N,08003.1741,W,1,8,1.5,11,M,,M,,*52
06/23/2015	13:09:13.528	$GPGGA,130914,2521.2824,N,08003.1725,W,1,9,1.5,11,M,,M,,*51
06/23/2015	13:09:14.528	$GPGGA,130915,2521.2855,N,08003.1713,W,1,9,1.5,11,M,,M,,*53
06/23/2015	13:09:15.548	$GPGGA,130916,2521.2883,N,08003.1698,W,1,9,1.5,11,M,,M,,*59
06/23/2015	13:09:16.524	$GPGGA,130917,2521.2912,N,08003.1681,W,1,9,1.5,11,M,,M,,*59
06/23/2015	13:09:17.547	$GPGGA,130918,2521.2941,N,08003.1666,W,1,9,1.5,11,M,,M,,*59
06/23/2015	13:09:18.528	$GPGGA,130919,2521.2971,N,08003.1653,W,1,9,1.5,11,M,,M,,*5D
06/23/2015	13:09:19.521	$GPGGA,130920,2521.3000,N,08003.1637,W,1,9,1.5,11,M,,M,,*5B
06/23/2015	13:09:20.548	$GPGGA,130921,2521.3028,N,08003.1621,W,1,9,1.5,11,M,,M,,*57
06/23/2015	13:09:21.536	$GPGGA,130922,2521.3058,N,08003.1605,W,1,9,1.5,11,M,,M,,*55
06/23/2015	13:09:22.512	$GPGGA,130923,2521.3087,N,08003.1588,W,1,9,1.7,11,M,,M,,*52
06/23/2015	13:09:23.558	$GPGGA,130924,2521.3116,N,08003.1574,W,1,8,1.7,11,M,,M,,*5E
06/23/2015	13:09:24.498	$GPGGA,130925,2521.3145,N,08003.1557,W,1,8,1.5,11,M,,M,,*5A
06/23/2015	13:09:25.528	$GPGGA,130926,2521.3174,N,08003.1540,W,1,9,1.5,11,M,,M,,*5C
06/23/2015	13:09:26.498	$GPGGA,130927,2521.3203,N,08003.1526,W,1,9,1.5,11,M,,M,,*5E
06/23/2015	13:09:27.532	$GPGGA,130928,2521.3234,N,08003.1510,W,1,9,1.5,11,M,,M,,*50
06/23/2015	13:09:28.513	$GPGGA,130929,2521.3263,N,08003.1493,W,1,9,1.5,11,M,,M,,*59
06/23/2015	13:09:29.598	$GPGGA,130930,2521.3292,N,08003.1476,W,1,9,1.5,11,M,,M,,*54
06/23/2015	13:09:30.521	$GPGGA,130931,2521.3321,N,08003.1460,W,1,9,1.7,11,M,,M,,*59
06/23/2015	13:09:31.498	$GPGGA,130932,2521.3351,N,08003.1445,W,1,8,1.7,11,M,,M,,*5B
06/23/2015	13:09:32.488	$GPGGA,130933,2521.3379,N,08003.1430,W,1,8,1.7,11,M,,M,,*52
06/23/2015	13:09:33.488	$GPGGA,130934,2521.3408,N,08003.1413,W,1,9,1.5,11,M,,M,,*56
06/23/2015	13:09:34.487	$GPGGA,130935,2521.3438,N,08003.1399,W,1,9,1.5,11,M,,M,,*51
06/23/2015	13:09:35.487	$GPGGA,130936,2521.3467,N,08003.1384,W,1,9,1.5,10,M,,M,,*55
06/23/2015	13:09:36.477	$GPGGA,130937,2521.3495,N,08003.1366,W,1,9,1.5,10,M,,M,,*55
06/23/2015	13:09:37.577	$GPGGA,130938,2521.3524,N,08003.1350,W,1,8,1.7,10,M,,M,,*57
06/23/2015	13:09:38.498	$GPGGA,130939,2521.3555,N,08003.1337,W,1,8,1.7,10,M,,M,,*51
06/23/2015	13:09:39.578	$GPGGA,130940,2521.3585,N,08003.1320,W,1,9,1.5,10,M,,M,,*57
06/23/2015	13:09:40.568	$GPGGA,130941,2521.3613,N,08003.1304,W,1,9,1.5,10,M,,M,,*5C
06/23/2015	13:09:41.598	$GPGGA,130942,2521.3643,N,08003.1289,W,1,9,1.5,10,M,,M,,*5E
06/23/2015	13:09:42.558	$GPGGA,130943,2521.3672,N,08003.1275,W,1,9,1.5,10,M,,M,,*5E
06/23/2015	13:09:43.628	$GPGGA,130944,2521.3701,N,08003.1259,W,1,9,1.5,10,M,,M,,*52
06/23/2015	13:09:44.558	$GPGGA,130945,2521.3730,N,08003.1242,W,1,9,1.5,10,M,,M,,*5B
06/23/2015	13:09:45.558	$GPGGA,130946,2521.3759,N,08003.1229,W,1,8,1.7,10,M,,M,,*59
06/23/2015	13:09:46.558	$GPGGA,130947,2521.3788,N,08003.1215,W,1,8,1.5,10,M,,M,,*59
06/23/2015	13:09:47.568	$GPGGA,130948,2521.3817,N,08003.1197,W,1,9,1.5,10,M,,M,,*57
06/23/2015	13:09:48.558	$GPGGA,130949,2521.3846,N,08003.1183,W,1,9,1.7,10,M,,M,,*55
06/23/2015	13:09:49.558	$GPGGA,130950,2521.3878,N,08003.1171,W,1,9,1.5,10,M,,M,,*5F
06/23/2015	13:09:50.548	$GPGGA,130951,2521.3906,N,08003.1153,W,1,9,1.5,10,M,,M,,*56
06/23/2015	13:09:51.558	$GPGGA,130952,2521.3935,N,08003.1137,W,1,9,1.5,10,M,,M,,*57
06/23/2015	13:09:52.547	$GPGGA,130953,2521.3965,N,08003.1126,W,1,9,1.7,10,M,,M,,*51
06/23/2015	13:09:53.567	$GPGGA,130954,2521.3994,N,08003.1112,W,1,9,1.5,10,M,,M,,*5D
06/23/2015	13:09:54.547	$GPGGA,130955,2521.4023,N,08003.1095,W,1,9,1.5,10,M,,M,,*50
06/23/2015	13:09:55.588	$GPGGA,130956,2521.4052,N,08003.1081,W,1,8,1.9,10,M,,M,,*5D
06/23/2015	13:09:56.538	$GPGGA,130957,2521.4081,N,08003.1069,W,1,8,1.5,10,M,,M,,*58
06/23/2015	13:09:57.548	$GPGGA,130958,2521.4110,N,08003.1054,W,1,9,1.5,10,M,,M,,*51
06/23/2015	13:09:58.538	$GPGGA,130959,2521.4139,N,08003.1036,W,1,9,1.5,10,M,,M,,*5F
06/23/2015	13:09:59.578	$GPGGA,131000,2521.4169,N,08003.1022,W,1,9,1.5,10,M,,M,,*5B
06/23/2015	13:10:00.525	$GPGGA,131001,2521.4199,N,08003.1009,W,1,9,1.5,10,M,,M,,*5C
06/23/2015	13:10:01.558	$GPGGA,131002,2521.4228,N,08003.0992,W,1,9,1.5,10,M,,M,,*5C
06/23/2015	13:10:03.588	$GPGGA,131004,2521.4285,N,08003.0962,W,1,9,1.5,10,M,,M,,*52
06/23/2015	13:10:04.522	$GPGGA,131005,2521.4314,N,08003.0947,W,1,9,1.5,10,M,,M,,*5D
06/23/2015	13:10:05.548	$GPGGA,131006,2521.4343,N,08003.0930,W,1,9,1.5,11,M,,M,,*5D
06/23/2015	13:10:06.518	$GPGGA,131007,2521.4372,N,08003.0916,W,1,9,1.7,11,M,,M,,*58
06/23/2015	13:10:07.558	$GPGGA,131008,2521.4402,N,08003.0900,W,1,9,1.5,11,M,,M,,*52
06/23/2015	13:10:08.518	$GPGGA,131009,2521.4431,N,08003.0883,W,1,9,1.5,11,M,,M,,*59
06/23/2015	13:10:09.527	$GPGGA,131010,2521.4462,N,08003.0867,W,1,9,1.5,11,M,,M,,*5D
06/23/2015	13:10:10.518	$GPGGA,131011,2521.4492,N,08003.0852,W,1,9,1.5,11,M,,M,,*55
06/23/2015	13:10:11.517	$GPGGA,131012,2521.4521,N,08003.0837,W,1,9,1.5,11,M,,M,,*5C
06/23/2015	13:10:12.517	$GPGGA,131013,2521.4550,N,08003.0820,W,1,9,1.5,11,M,,M,,*5D
06/23/2015	13:10:13.528	$GPGGA,131014,2521.4582,N,08003.0805,W,1,8,1.7,11,M,,M,,*51
06/23/2015	13:10:14.498	$GPGGA,131015,2521.4611,N,08003.0792,W,1,8,1.7,11,M,,M,,*58
06/23/2015	13:10:15.528	$GPGGA,131016,2521.4641,N,08003.0777,W,1,9,1.5,11,M,,M,,*56
06/23/2015	13:10:16.498	$GPGGA,131017,2521.4669,N,08003.0759,W,1,9,1.5,11,M,,M,,*51
06/23/2015	13:10:17.519	$GPGGA,131018,2521.4698,N,08003.0744,W,1,8,1.7,11,M,,M,,*5F
06/23/2015	13:10:18.508	$GPGGA,131019,2521.4727,N,08003.0730,W,1,8,1.7,11,M,,M,,*58
06/23/2015	13:10:19.510	$GPGGA,131020,2521.4756,N,08003.0713,W,1,9,1.5,11,M,,M,,*56
06/23/2015	13:10:20.488	$GPGGA,131021,2521.4785,N,08003.0699,W,1,9,1.7,11,M,,M,,*58
06/23/2015	13:10:21.498	$GPGGA,131022,2521.4814,N,08003.0684,W,1,9,1.5,11,M,,M,,*52
06/23/2015	13:10:22.598	$GPGGA,131023,2521.4843,N,08003.0669,W,1,9,1.5,11,M,,M,,*52
06/23/2015	13:10:23.598	$GPGGA,131024,2521.4872,N,08003.0652,W,1,9,1.5,11,M,,M,,*5F
06/23/2015	13:10:24.488	$GPGGA,131025,2521.4901,N,08003.0639,W,1,9,1.5,11,M,,M,,*56
06/23/2015	13:10:25.608	$GPGGA,131026,2521.4930,N,08003.0623,W,1,9,1.5,11,M,,M,,*5C
06/23/2015	13:10:26.478	$GPGGA,131027,2521.4958,N,08003.0606,W,1,9,1.5,11,M,,M,,*54
06/23/2015	13:10:27.577	$GPGGA,131028,2521.4987,N,08003.0591,W,1,9,1.5,11,M,,M,,*54
06/23/2015	13:10:28.487	$GPGGA,131029,2521.5018,N,08003.0577,W,1,9,1.5,11,M,,M,,*53
06/23/2015	13:10:29.477	$GPGGA,131030,2521.5047,N,08003.0561,W,1,9,1.5,11,M,,M,,*56
06/23/2015	13:10:30.558	$GPGGA,131031,2521.5074,N,08003.0544,W,1,9,1.5,11,M,,M,,*50
06/23/2015	13:10:31.623	$GPGGA,131032,2521.5103,N,08003.0529,W,1,9,1.5,11,M,,M,,*59
06/23/2015	13:10:32.558	$GPGGA,131033,2521.5134,N,08003.0515,W,1,9,1.5,12,M,,M,,*50
06/23/2015	13:10:33.478	$GPGGA,131034,2521.5164,N,08003.0498,W,1,9,1.5,12,M,,M,,*56
06/23/2015	13:10:34.558	$GPGGA,131035,2521.5193,N,08003.0480,W,1,9,1.7,12,M,,M,,*54
06/23/2015	13:10:35.609	$GPGGA,131036,2521.5222,N,08003.0466,W,1,9,1.5,12,M,,M,,*54
06/23/2015	13:10:36.558	$GPGGA,131037,2521.5251,N,08003.0453,W,1,9,1.5,12,M,,M,,*57
06/23/2015	13:10:37.578	$GPGGA,131038,2521.5280,N,08003.0437,W,1,9,1.5,12,M,,M,,*56
06/23/2015	13:10:38.548	$GPGGA,131039,2521.5308,N,08003.0421,W,1,9,1.5,12,M,,M,,*51
06/23/2015	13:10:39.568	$GPGGA,131040,2521.5338,N,08003.0407,W,1,9,1.5,12,M,,M,,*58
06/23/2015	13:10:40.548	$GPGGA,131041,2521.5367,N,08003.0392,W,1,9,1.6,12,M,,M,,*5B
06/23/2015	13:10:41.568	$GPGGA,131042,2521.5396,N,08003.0377,W,1,9,1.6,12,M,,M,,*5D
06/23/2015	13:10:42.538	$GPGGA,131043,2521.5424,N,08003.0362,W,1,9,1.6,12,M,,M,,*56
06/23/2015	13:10:43.578	$GPGGA,131044,2521.5454,N,08003.0346,W,1,9,1.6,12,M,,M,,*50
06/23/2015	13:10:44.537	$GPGGA,131045,2521.5486,N,08003.0330,W,1,9,1.6,12,M,,M,,*5F
06/23/2015	13:10:45.557	$GPGGA,131046,2521.5514,N,08003.0315,W,1,8,1.7,12,M,,M,,*51
06/23/2015	13:10:46.537	$GPGGA,131047,2521.5544,N,08003.0299,W,1,8,1.6,12,M,,M,,*51
06/23/2015	13:10:47.537	$GPGGA,131048,2521.5573,N,08003.0285,W,1,9,1.6,12,M,,M,,*56
06/23/2015	13:10:48.528	$GPGGA,131049,2521.5601,N,08003.0271,W,1,9,1.6,11,M,,M,,*59
06/23/2015	13:10:49.548	$GPGGA,131050,2521.5630,N,08003.0255,W,1,9,1.6,11,M,,M,,*55
06/23/2015	13:10:50.538	$GPGGA,131051,2521.5661,N,08003.0239,W,1,9,1.6,11,M,,M,,*5A
06/23/2015	13:10:51.558	$GPGGA,131052,2521.5690,N,08003.0225,W,1,8,1.7,11,M,,M,,*5A
06/23/2015	13:10:52.528	$GPGGA,131053,2521.5720,N,08003.0210,W,1,8,1.6,11,M,,M,,*56
06/23/2015	13:10:53.518	$GPGGA,131054,2521.5749,N,08003.0195,W,1,9,1.6,11,M,,M,,*51
06/23/2015	13:10:54.528	$GPGGA,131055,2521.5778,N,08003.0181,W,1,9,1.6,11,M,,M,,*57
06/23/2015	13:10:55.538	$GPGGA,131056,2521.5807,N,08003.0166,W,1,9,1.6,11,M,,M,,*5A
06/23/2015	13:10:56.518	$GPGGA,131057,2521.5836,N,08003.0151,W,1,9,1.6,11,M,,M,,*5D
06/23/2015	13:10:57.528	$GPGGA,131058,2521.5867,N,08003.0136,W,1,9,1.6,11,M,,M,,*57
06/23/2015	13:10:58.518	$GPGGA,131059,2521.5896,N,08003.0121,W,1,9,1.6,11,M,,M,,*5E
06/23/2015	13:10:59.568	$GPGGA,131100,2521.5925,N,08003.0106,W,1,9,1.6,11,M,,M,,*5F
06/23/2015	13:11:00.518	$GPGGA,131101,2521.5955,N,08003.0091,W,1,9,1.6,11,M,,M,,*56
06/23/2015	13:11:01.528	$GPGGA,131102,2521.5984,N,08003.0077,W,1,9,1.6,11,M,,M,,*51
06/23/2015	13:11:02.509	$GPGGA,131103,2521.6014,N,08003.0063,W,1,9,1.6,11,M,,M,,*56
06/23/2015	13:11:03.527	$GPGGA,131104,2521.6045,N,08003.0047,W,1,9,1.6,11,M,,M,,*53
06/23/2015	13:11:04.497	$GPGGA,131105,2521.6075,N,08003.0031,W,1,9,1.6,11,M,,M,,*50
06/23/2015	13:11:05.608	$GPGGA,131106,2521.6104,N,08003.0017,W,1,9,1.6,11,M,,M,,*50
06/23/2015	13:11:06.526	$GPGGA,131107,2521.6135,N,08003.0004,W,1,9,1.6,11,M,,M,,*51
06/23/2015	13:11:07.609	$GPGGA,131108,2521.6164,N,08002.9987,W,1,9,1.6,11,M,,M,,*50
06/23/2015	13:11:08.498	$GPGGA,131109,2521.6193,N,08002.9971,W,1,9,1.6,11,M,,M,,*50
06/23/2015	13:11:09.498	$GPGGA,131110,2521.6223,N,08002.9957,W,1,8,1.7,11,M,,M,,*54
06/23/2015	13:11:10.478	$GPGGA,131111,2521.6252,N,08002.9943,W,1,8,1.7,11,M,,M,,*56
06/23/2015	13:11:11.628	$GPGGA,131112,2521.6281,N,08002.9928,W,1,9,1.6,11,M,,M,,*56
06/23/2015	13:11:12.598	$GPGGA,131113,2521.6310,N,08002.9914,W,1,9,1.6,11,M,,M,,*51
06/23/2015	13:11:13.588	$GPGGA,131114,2521.6341,N,08002.9897,W,1,9,1.6,11,M,,M,,*58
06/23/2015	13:11:14.488	$GPGGA,131115,2521.6370,N,08002.9884,W,1,9,1.7,11,M,,M,,*58
06/23/2015	13:11:15.579	$GPGGA,131116,2521.6400,N,08002.9872,W,1,9,1.6,11,M,,M,,*53
06/23/2015	13:11:16.488	$GPGGA,131117,2521.6428,N,08002.9855,W,1,9,1.6,11,M,,M,,*5D
06/23/2015	13:11:17.568	$GPGGA,131118,2521.6457,N,08002.9838,W,1,9,1.6,11,M,,M,,*51
06/23/2015	13:11:18.478	$GPGGA,131119,2521.6487,N,08002.9825,W,1,9,1.6,11,M,,M,,*51
06/23/2015	13:11:19.487	$GPGGA,131120,2521.6518,N,08002.9810,W,1,9,1.6,11,M,,M,,*5A
06/23/2015	13:11:20.577	$GPGGA,131121,2521.6545,N,08002.9794,W,1,9,1.6,11,M,,M,,*50
06/23/2015	13:11:21.467	$GPGGA,131122,2521.6574,N,08002.9779,W,1,9,1.6,11,M,,M,,*52
06/23/2015	13:11:23.618	$GPGGA,131124,2521.6633,N,08002.9748,W,1,9,1.6,11,M,,M,,*56
06/23/2015	13:11:24.558	$GPGGA,131125,2521.6663,N,08002.9733,W,1,9,1.6,11,M,,M,,*5E
06/23/2015	13:11:25.619	$GPGGA,131126,2521.6692,N,08002.9716,W,1,9,1.6,11,M,,M,,*54
06/23/2015	13:11:26.558	$GPGGA,131127,2521.6721,N,08002.9700,W,1,9,1.6,11,M,,M,,*5B
06/23/2015	13:11:27.568	$GPGGA,131128,2521.6750,N,08002.9687,W,1,9,1.6,11,M,,M,,*5C
06/23/2015	13:11:28.558	$GPGGA,131129,2521.6781,N,08002.9669,W,1,9,1.6,11,M,,M,,*51
06/23/2015	13:11:29.548	$GPGGA,131130,2521.6808,N,08002.9653,W,1,8,1.7,11,M,,M,,*5E
06/23/2015	13:11:30.548	$GPGGA,131131,2521.6839,N,08002.9639,W,1,8,1.6,11,M,,M,,*50
06/23/2015	13:11:31.588	$GPGGA,131132,2521.6869,N,08002.9624,W,1,9,1.6,11,M,,M,,*5B
06/23/2015	13:11:32.558	$GPGGA,131133,2521.6898,N,08002.9605,W,1,9,1.6,11,M,,M,,*57
06/23/2015	13:11:33.538	$GPGGA,131134,2521.6927,N,08002.9590,W,1,9,1.6,10,M,,M,,*5B
06/23/2015	13:11:34.548	$GPGGA,131135,2521.6956,N,08002.9576,W,1,9,1.6,10,M,,M,,*54
06/23/2015	13:11:35.568	$GPGGA,131136,2521.6985,N,08002.9560,W,1,9,1.6,10,M,,M,,*5E
06/23/2015	13:11:36.538	$GPGGA,131137,2521.7013,N,08002.9541,W,1,9,1.6,10,M,,M,,*5B
06/23/2015	13:11:37.523	$GPGGA,131138,2521.7043,N,08002.9528,W,1,9,1.6,10,M,,M,,*5E
06/23/2015	13:11:38.537	$GPGGA,131139,2521.7072,N,08002.9514,W,1,9,1.6,10,M,,M,,*52
06/23/2015	13:11:39.567	$GPGGA,131140,2521.7101,N,08002.9495,W,1,9,1.6,10,M,,M,,*51
06/23/2015	13:11:40.528	$GPGGA,131141,2521.7130,N,08002.9481,W,1,9,1.6,10,M,,M,,*57
06/23/2015	13:11:41.548	$GPGGA,131142,2521.7159,N,08002.9470,W,1,9,1.6,10,M,,M,,*55
06/23/2015	13:11:42.528	$GPGGA,131143,2521.7187,N,08002.9451,W,1,9,1.9,10,M,,M,,*5B
06/23/2015	13:11:43.528	$GPGGA,131144,2521.7213,N,08002.9432,W,1,9,1.6,10,M,,M,,*58
06/23/2015	13:11:44.538	$GPGGA,131145,2521.7242,N,08002.9419,W,1,9,1.6,10,M,,M,,*54
06/23/2015	13:11:45.558	$GPGGA,131146,2521.7273,N,08002.9404,W,1,9,1.6,10,M,,M,,*59
06/23/2015	13:11:46.520	$GPGGA,131147,2521.7299,N,08002.9384,W,1,9,1.6,10,M,,M,,*53
06/23/2015	13:11:47.548	$GPGGA,131148,2521.7328,N,08002.9369,W,1,9,1.6,10,M,,M,,*54
06/23/2015	13:11:48.498	$GPGGA,131149,2521.7357,N,08002.9356,W,1,9,1.6,10,M,,M,,*51
06/23/2015	13:11:49.520	$GPGGA,131150,2521.7386,N,08002.9339,W,1,9,1.6,11,M,,M,,*5D
06/23/2015	13:11:50.498	$GPGGA,131151,2521.7414,N,08002.9321,W,1,9,1.6,11,M,,M,,*59
06/23/2015	13:11:51.558	$GPGGA,131152,2521.7441,N,08002.9306,W,1,9,1.6,11,M,,M,,*5F
