Software Version Number: 1	Data File Format Number: 1	Build Version Number: 1	Error Count Since VI Started: 3	Manufacturer: Raytheon	 Model Number: RayMarine 120	 S/N: 	 Cal Date: 	 Wind Direction Offset: 0.00	 Slope (M)1: 0.00	 Offset (B)1: 0.00	 Slope (M)2: 0.00	 Offset (B)2: 0.00	 Slope (M)3: 0.00	 Offset (B)3: 0.00	 Slope (M)4: 0.00	 Offset (B)4: 0.00	 Slope (M)5: 0.00	 Offset (B)5: 0.00	 Slope (M)6: 0.00	 Offset (B)6: 0.00
Computer Date	Computer Time	GGA String
06/24/2015	04:00:00.570	$GPGGA,040001,2523.1259,N,08006.4960,W,1,10,1.7,14,M,,M,,*6B
06/24/2015	04:00:01.589	$GPGGA,040002,2523.1249,N,08006.4961,W,1,10,1.7,14,M,,M,,*68
06/24/2015	04:00:02.588	$GPGGA,040003,2523.1241,N,08006.4964,W,1,10,1.7,14,M,,M,,*64
06/24/2015	04:00:03.608	$GPGGA,040004,2523.1230,N,08006.4967,W,1,10,1.7,14,M,,M,,*66
06/24/2015	04:00:04.578	$GPGGA,040005,2523.1220,N,08006.4967,W,1,10,1.7,14,M,,M,,*66
06/24/2015	04:00:05.578	$GPGGA,040006,2523.1212,N,08006.4969,W,1,10,1.7,14,M,,M,,*6A
06/24/2015	04:00:06.568	$GPGGA,040007,2523.1202,N,08006.4972,W,1,10,1.7,14,M,,M,,*60
06/24/2015	04:00:07.588	$GPGGA,040008,2523.1191,N,08006.4975,W,1,10,1.7,14,M,,M,,*61
06/24/2015	04:00:08.566	$GPGGA,040009,2523.1181,N,08006.4975,W,1,10,1.7,14,M,,M,,*61
06/24/2015	04:00:09.562	$GPGGA,040010,2523.1172,N,08006.4978,W,1,10,1.7,14,M,,M,,*68
06/24/2015	04:00:10.569	$GPGGA,040011,2523.1162,N,08006.4980,W,1,10,1.6,14,M,,M,,*6E
06/24/2015	04:00:11.569	$GPGGA,040012,2523.1153,N,08006.4982,W,1,10,1.6,14,M,,M,,*6D
06/24/2015	04:00:12.560	$GPGGA,040013,2523.1143,N,08006.4981,W,1,10,1.6,14,M,,M,,*6E
06/24/2015	04:00:13.579	$GPGGA,040014,2523.1133,N,08006.4983,W,1,10,1.6,14,M,,M,,*6C
06/24/2015	04:00:14.539	$GPGGA,040015,2523.1124,N,08006.4986,W,1,10,1.6,14,M,,M,,*6E
06/24/2015	04:00:15.571	$GPGGA,040016,2523.1115,N,08006.4987,W,1,10,1.6,14,M,,M,,*6E
06/24/2015	04:00:16.539	$GPGGA,040017,2523.1104,N,08006.4987,W,1,10,1.6,14,M,,M,,*6F
06/24/2015	04:00:17.539	$GPGGA,040018,2523.1094,N,08006.4990,W,1,10,1.6,14,M,,M,,*6E
06/24/2015	04:00:18.539	$GPGGA,040019,2523.1086,N,08006.4991,W,1,10,1.6,14,M,,M,,*6D
06/24/2015	04:00:19.589	$GPGGA,040020,2523.1075,N,08006.4993,W,1,10,1.6,14,M,,M,,*69
06/24/2015	04:00:20.528	$GPGGA,040021,2523.1066,N,08006.4994,W,1,10,1.6,13,M,,M,,*6A
06/24/2015	04:00:21.528	$GPGGA,040022,2523.1057,N,08006.4996,W,1,10,1.6,13,M,,M,,*69
06/24/2015	04:00:22.552	$GPGGA,040023,2523.1046,N,08006.4996,W,1,10,1.6,13,M,,M,,*68
06/24/2015	04:00:23.578	$GPGGA,040024,2523.1036,N,08006.4997,W,1,10,1.6,13,M,,M,,*69
06/24/2015	04:00:24.528	$GPGGA,040025,2523.1028,N,08006.4998,W,1,10,1.6,13,M,,M,,*68
06/24/2015	04:00:25.529	$GPGGA,040026,2523.1017,N,08006.5000,W,1,10,1.6,13,M,,M,,*6E
06/24/2015	04:00:26.530	$GPGGA,040027,2523.1006,N,08006.5000,W,1,10,1.6,13,M,,M,,*6F
06/24/2015	04:00:27.569	$GPGGA,040028,2523.0997,N,08006.5001,W,1,10,1.6,13,M,,M,,*61
06/24/2015	04:00:28.529	$GPGGA,040029,2523.0988,N,08006.5004,W,1,10,1.6,13,M,,M,,*6B
06/24/2015	04:00:29.549	$GPGGA,040030,2523.0977,N,08006.5004,W,1,10,1.6,13,M,,M,,*63
06/24/2015	04:00:30.519	$GPGGA,040031,2523.0967,N,08006.5004,W,1,10,1.6,13,M,,M,,*63
06/24/2015	04:00:31.619	$GPGGA,040032,2523.0958,N,08006.5007,W,1,10,1.6,13,M,,M,,*6F
06/24/2015	04:00:32.519	$GPGGA,040033,2523.0948,N,08006.5008,W,1,10,1.6,13,M,,M,,*60
06/24/2015	04:00:33.629	$GPGGA,040034,2523.0938,N,08006.5009,W,1,10,1.6,13,M,,M,,*61
06/24/2015	04:00:34.599	$GPGGA,040035,2523.0927,N,08006.5009,W,1,10,1.6,13,M,,M,,*6E
06/24/2015	04:00:35.509	$GPGGA,040036,2523.0917,N,08006.5011,W,1,10,1.6,13,M,,M,,*67
06/24/2015	04:00:36.509	$GPGGA,040037,2523.0907,N,08006.5014,W,1,10,1.6,13,M,,M,,*62
06/24/2015	04:00:37.498	$GPGGA,040038,2523.0898,N,08006.5013,W,1,10,1.6,13,M,,M,,*6D
06/24/2015	04:00:38.598	$GPGGA,040039,2523.0887,N,08006.5014,W,1,10,1.6,13,M,,M,,*65
06/24/2015	04:00:39.608	$GPGGA,040040,2523.0876,N,08006.5016,W,1,10,1.6,13,M,,M,,*67
06/24/2015	04:00:40.498	$GPGGA,040041,2523.0867,N,08006.5018,W,1,10,1.6,13,M,,M,,*68
06/24/2015	04:00:41.508	$GPGGA,040042,2523.0856,N,08006.5017,W,1,10,1.6,13,M,,M,,*66
06/24/2015	04:00:42.578	$GPGGA,040043,2523.0846,N,08006.5018,W,1,10,1.6,13,M,,M,,*69
06/24/2015	04:00:43.509	$GPGGA,040044,2523.0836,N,08006.5022,W,1,10,1.6,13,M,,M,,*60
06/24/2015	04:00:44.590	$GPGGA,040045,2523.0826,N,08006.5022,W,1,10,1.6,13,M,,M,,*60
06/24/2015	04:00:45.589	$GPGGA,040046,2523.0817,N,08006.5022,W,1,10,1.6,13,M,,M,,*61
06/24/2015	04:00:46.589	$GPGGA,040047,2523.0807,N,08006.5025,W,1,10,1.6,13,M,,M,,*66
06/24/2015	04:00:47.629	$GPGGA,040048,2523.0797,N,08006.5025,W,1,10,1.6,13,M,,M,,*6F
06/24/2015	04:00:48.569	$GPGGA,040049,2523.0786,N,08006.5027,W,1,10,1.6,13,M,,M,,*6C
06/24/2015	04:00:49.589	$GPGGA,040050,2523.0776,N,08006.5029,W,1,10,1.6,13,M,,M,,*65
06/24/2015	04:00:50.589	$GPGGA,040051,2523.0766,N,08006.5029,W,1,10,1.6,13,M,,M,,*65
06/24/2015	04:00:51.579	$GPGGA,040052,2523.0757,N,08006.5033,W,1,10,1.6,13,M,,M,,*6F
06/24/2015	04:00:52.579	$GPGGA,040053,2523.0746,N,08006.5033,W,1,10,1.6,13,M,,M,,*6E
06/24/2015	04:00:53.589	$GPGGA,040054,2523.0735,N,08006.5034,W,1,10,1.6,13,M,,M,,*6A
06/24/2015	04:00:54.569	$GPGGA,040055,2523.0725,N,08006.5036,W,1,10,1.6,13,M,,M,,*68
06/24/2015	04:00:55.598	$GPGGA,040056,2523.0715,N,08006.5040,W,1,10,1.6,13,M,,M,,*69
06/24/2015	04:00:56.562	$GPGGA,040057,2523.0704,N,08006.5039,W,1,10,1.6,13,M,,M,,*66
06/24/2015	04:00:57.578	$GPGGA,040058,2523.0694,N,08006.5041,W,1,10,1.6,13,M,,M,,*6E
06/24/2015	04:00:58.563	$GPGGA,040059,2523.0685,N,08006.5044,W,1,10,1.6,13,M,,M,,*6A
06/24/2015	04:00:59.598	$GPGGA,040100,2523.0674,N,08006.5045,W,1,10,1.6,13,M,,M,,*68
06/24/2015	04:01:00.550	$GPGGA,040101,2523.0663,N,08006.5047,W,1,10,1.6,13,M,,M,,*6D
06/24/2015	04:01:01.563	$GPGGA,040102,2523.0653,N,08006.5051,W,1,10,1.6,13,M,,M,,*6A
06/24/2015	04:01:02.549	$GPGGA,040103,2523.0645,N,08006.5052,W,1,10,1.6,13,M,,M,,*6F
06/24/2015	04:01:03.559	$GPGGA,040104,2523.0634,N,08006.5054,W,1,10,1.6,13,M,,M,,*68
06/24/2015	04:01:04.551	$GPGGA,040105,2523.0624,N,08006.5058,W,1,10,1.6,13,M,,M,,*64
06/24/2015	04:01:05.539	$GPGGA,040106,2523.0614,N,08006.5059,W,1,10,1.6,13,M,,M,,*65
06/24/2015	04:01:06.549	$GPGGA,040107,2523.0603,N,08006.5061,W,1,10,1.6,13,M,,M,,*69
06/24/2015	04:01:07.589	$GPGGA,040108,2523.0594,N,08006.5063,W,1,10,1.6,13,M,,M,,*69
06/24/2015	04:01:08.550	$GPGGA,040109,2523.0584,N,08006.5066,W,1,10,1.6,13,M,,M,,*6C
06/24/2015	04:01:09.561	$GPGGA,040110,2523.0574,N,08006.5069,W,1,10,1.6,13,M,,M,,*64
06/24/2015	04:01:10.550	$GPGGA,040111,2523.0565,N,08006.5070,W,1,10,1.6,13,M,,M,,*6D
06/24/2015	04:01:11.569	$GPGGA,040112,2523.0555,N,08006.5072,W,1,10,1.6,13,M,,M,,*6F
06/24/2015	04:01:12.538	$GPGGA,040113,2523.0545,N,08006.5076,W,1,10,1.7,13,M,,M,,*6A
06/24/2015	04:01:13.551	$GPGGA,040114,2523.0535,N,08006.5077,W,1,10,1.6,13,M,,M,,*6A
06/24/2015	04:01:14.508	$GPGGA,040115,2523.0526,N,08006.5079,W,1,10,1.6,13,M,,M,,*67
06/24/2015	04:01:15.539	$GPGGA,040116,2523.0515,N,08006.5081,W,1,10,1.6,13,M,,M,,*63
06/24/2015	04:01:16.508	$GPGGA,040117,2523.0506,N,08006.5083,W,1,10,1.6,13,M,,M,,*62
06/24/2015	04:01:17.498	$GPGGA,040118,2523.0497,N,08006.5087,W,1,10,1.6,13,M,,M,,*60
06/24/2015	04:01:18.509	$GPGGA,040119,2523.0487,N,08006.5086,W,1,10,1.7,13,M,,M,,*60
06/24/2015	04:01:19.619	$GPGGA,040120,2523.0477,N,08006.5088,W,1,10,1.6,13,M,,M,,*6A
06/24/2015	04:01:20.498	$GPGGA,040121,2523.0468,N,08006.5092,W,1,10,1.6,13,M,,M,,*6E
06/24/2015	04:01:21.518	$GPGGA,040122,2523.0457,N,08006.5094,W,1,10,1.6,13,M,,M,,*67
06/24/2015	04:01:22.488	$GPGGA,040123,2523.0447,N,08006.5095,W,1,10,1.6,13,M,,M,,*66
06/24/2015	04:01:23.508	$GPGGA,040124,2523.0437,N,08006.5098,W,1,10,1.6,13,M,,M,,*6B
06/24/2015	04:01:24.508	$GPGGA,040125,2523.0428,N,08006.5101,W,1,10,1.6,13,M,,M,,*65
06/24/2015	04:01:25.578	$GPGGA,040126,2523.0417,N,08006.5102,W,1,10,1.6,13,M,,M,,*69
06/24/2015	04:01:26.508	$GPGGA,040127,2523.0408,N,08006.5105,W,1,10,1.6,13,M,,M,,*61
06/24/2015	04:01:27.640	$GPGGA,040128,2523.0398,N,08006.5108,W,1,10,1.6,13,M,,M,,*6D
06/24/2015	04:01:28.509	$GPGGA,040129,2523.0389,N,08006.5107,W,1,10,1.6,13,M,,M,,*63
06/24/2015	04:01:29.589	$GPGGA,040130,2523.0379,N,08006.5109,W,1,10,1.6,13,M,,M,,*6A
06/24/2015	04:01:30.588	$GPGGA,040131,2523.0369,N,08006.5112,W,1,10,1.6,13,M,,M,,*60
06/24/2015	04:01:31.588	$GPGGA,040132,2523.0359,N,08006.5112,W,1,10,1.6,13,M,,M,,*60
06/24/2015	04:01:32.568	$GPGGA,040133,2523.0349,N,08006.5113,W,1,10,1.6,13,M,,M,,*61
06/24/2015	04:01:33.598	$GPGGA,040134,2523.0339,N,08006.5116,W,1,10,1.6,13,M,,M,,*64
06/24/2015	04:01:34.568	$GPGGA,040135,2523.0329,N,08006.5117,W,1,10,1.6,13,M,,M,,*65
06/24/2015	04:01:35.578	$GPGGA,040136,2523.0320,N,08006.5119,W,1,10,1.6,13,M,,M,,*61
06/24/2015	04:01:36.558	$GPGGA,040137,2523.0309,N,08006.5121,W,1,10,1.6,13,M,,M,,*60
06/24/2015	04:01:37.568	$GPGGA,040138,2523.0299,N,08006.5123,W,1,10,1.6,13,M,,M,,*65
06/24/2015	04:01:38.568	$GPGGA,040139,2523.0291,N,08006.5123,W,1,10,1.9,13,M,,M,,*63
06/24/2015	04:01:39.588	$GPGGA,040140,2523.0280,N,08006.5126,W,1,10,1.6,13,M,,M,,*67
06/24/2015	04:01:40.558	$GPGGA,040141,2523.0269,N,08006.5126,W,1,10,1.6,13,M,,M,,*61
06/24/2015	04:01:41.578	$GPGGA,040142,2523.0259,N,08006.5128,W,1,10,1.6,13,M,,M,,*6F
06/24/2015	04:01:42.568	$GPGGA,040143,2523.0249,N,08006.5130,W,1,10,1.6,13,M,,M,,*66
06/24/2015	04:01:43.588	$GPGGA,040144,2523.0238,N,08006.5130,W,1,10,1.6,13,M,,M,,*67
06/24/2015	04:01:44.548	$GPGGA,040145,2523.0227,N,08006.5133,W,1,10,1.6,13,M,,M,,*6B
06/24/2015	04:01:45.569	$GPGGA,040146,2523.0217,N,08006.5134,W,1,10,1.6,13,M,,M,,*6C
06/24/2015	04:01:46.559	$GPGGA,040147,2523.0206,N,08006.5134,W,1,10,1.6,13,M,,M,,*6D
06/24/2015	04:01:47.578	$GPGGA,040148,2523.0197,N,08006.5135,W,1,10,1.6,13,M,,M,,*68
06/24/2015	04:01:48.539	$GPGGA,040149,2523.0187,N,08006.5138,W,1,10,1.6,13,M,,M,,*65
06/24/2015	04:01:49.578	$GPGGA,040150,2523.0177,N,08006.5139,W,1,10,1.6,13,M,,M,,*63
06/24/2015	04:01:50.548	$GPGGA,040151,2523.0168,N,08006.5141,W,1,10,1.6,13,M,,M,,*63
06/24/2015	04:01:51.538	$GPGGA,040152,2523.0157,N,08006.5141,W,1,10,1.6,13,M,,M,,*6C
06/24/2015	04:01:52.540	$GPGGA,040153,2523.0148,N,08006.5144,W,1,10,1.6,13,M,,M,,*66
06/24/2015	04:01:53.528	$GPGGA,040154,2523.0139,N,08006.5145,W,1,10,1.6,14,M,,M,,*61
06/24/2015	04:01:54.548	$GPGGA,040155,2523.0128,N,08006.5145,W,1,10,1.6,14,M,,M,,*60
06/24/2015	04:01:55.558	$GPGGA,040156,2523.0118,N,08006.5148,W,1,10,1.6,14,M,,M,,*6D
06/24/2015	04:01:56.539	$GPGGA,040157,2523.0108,N,08006.5149,W,1,10,1.6,14,M,,M,,*6C
06/24/2015	04:01:57.558	$GPGGA,040158,2523.0097,N,08006.5150,W,1,10,1.6,14,M,,M,,*6C
06/24/2015	04:01:58.529	$GPGGA,040159,2523.0087,N,08006.5152,W,1,10,1.6,14,M,,M,,*6E
06/24/2015	04:01:59.541	$GPGGA,040200,2523.0078,N,08006.5153,W,1,10,1.6,14,M,,M,,*60
06/24/2015	04:02:00.508	$GPGGA,040201,2523.0067,N,08006.5155,W,1,10,1.6,14,M,,M,,*69
06/24/2015	04:02:01.508	$GPGGA,040202,2523.0057,N,08006.5155,W,1,10,1.6,14,M,,M,,*69
06/24/2015	04:02:02.508	$GPGGA,040203,2523.0046,N,08006.5157,W,1,10,1.6,14,M,,M,,*6A
06/24/2015	04:02:03.551	$GPGGA,040204,2523.0035,N,08006.5159,W,1,10,1.6,14,M,,M,,*67
06/24/2015	04:02:04.529	$GPGGA,040205,2523.0027,N,08006.5160,W,1,10,1.6,14,M,,M,,*6F
06/24/2015	04:02:05.543	$GPGGA,040206,2523.0015,N,08006.5162,W,1,10,1.6,14,M,,M,,*6F
06/24/2015	04:02:06.518	$GPGGA,040207,2523.0004,N,08006.5163,W,1,10,1.6,14,M,,M,,*6F
06/24/2015	04:02:07.508	$GPGGA,040208,2522.9996,N,08006.5166,W,1,10,1.6,14,M,,M,,*6F
06/24/2015	04:02:08.508	$GPGGA,040209,2522.9984,N,08006.5166,W,1,10,1.9,14,M,,M,,*62
06/24/2015	04:02:09.498	$GPGGA,040210,2522.9973,N,08006.5167,W,1,10,1.6,14,M,,M,,*6C
06/24/2015	04:02:10.643	$GPGGA,040211,2522.9963,N,08006.5170,W,1,10,1.6,14,M,,M,,*6A
06/24/2015	04:02:11.708	$GPGGA,040212,2522.9952,N,08006.5173,W,1,10,1.6,14,M,,M,,*68
06/24/2015	04:02:12.551	$GPGGA,040213,2522.9941,N,08006.5173,W,1,10,1.6,14,M,,M,,*6B
06/24/2015	04:02:13.518	$GPGGA,040214,2522.9931,N,08006.5175,W,1,10,1.6,14,M,,M,,*6D
06/24/2015	04:02:14.508	$GPGGA,040215,2522.9921,N,08006.5177,W,1,10,1.6,14,M,,M,,*6F
06/24/2015	04:02:15.698	$GPGGA,040216,2522.9910,N,08006.5180,W,1,10,1.6,14,M,,M,,*66
06/24/2015	04:02:16.608	$GPGGA,040217,2522.9901,N,08006.5181,W,1,10,1.6,14,M,,M,,*66
06/24/2015	04:02:17.668	$GPGGA,040218,2522.9890,N,08006.5184,W,1,10,1.6,14,M,,M,,*65
06/24/2015	04:02:18.508	$GPGGA,040219,2522.9880,N,08006.5185,W,1,10,1.6,14,M,,M,,*64
06/24/2015	04:02:19.688	$GPGGA,040220,2522.9870,N,08006.5188,W,1,10,1.6,15,M,,M,,*6D
06/24/2015	04:02:20.499	$GPGGA,040221,2522.9859,N,08006.5189,W,1,10,1.6,15,M,,M,,*66
06/24/2015	04:02:21.656	$GPGGA,040222,2522.9850,N,08006.5191,W,1,9,1.6,15,M,,M,,*5D
06/24/2015	04:02:22.618	$GPGGA,040223,2522.9839,N,08006.5192,W,1,9,1.6,15,M,,M,,*50
06/24/2015	04:02:23.649	$GPGGA,040224,2522.9829,N,08006.5195,W,1,10,1.6,15,M,,M,,*69
06/24/2015	04:02:24.568	$GPGGA,040225,2522.9820,N,08006.5197,W,1,10,1.6,15,M,,M,,*63
06/24/2015	04:02:25.658	$GPGGA,040226,2522.9811,N,08006.5199,W,1,10,1.6,15,M,,M,,*6C
06/24/2015	04:02:26.618	$GPGGA,040227,2522.9801,N,08006.5200,W,1,10,1.6,15,M,,M,,*6F
06/24/2015	04:02:27.568	$GPGGA,040228,2522.9792,N,08006.5203,W,1,10,1.6,15,M,,M,,*66
06/24/2015	04:02:28.588	$GPGGA,040229,2522.9782,N,08006.5203,W,1,10,1.6,15,M,,M,,*66
06/24/2015	04:02:29.668	$GPGGA,040230,2522.9772,N,08006.5206,W,1,10,1.6,15,M,,M,,*64
06/24/2015	04:02:30.598	$GPGGA,040231,2522.9763,N,08006.5209,W,1,10,1.6,15,M,,M,,*6A
06/24/2015	04:02:31.678	$GPGGA,040232,2522.9753,N,08006.5210,W,1,10,1.6,15,M,,M,,*62
06/24/2015	04:02:32.578	$GPGGA,040233,2522.9743,N,08006.5210,W,1,10,1.6,15,M,,M,,*62
06/24/2015	04:02:34.609	$GPGGA,040235,2522.9724,N,08006.5217,W,1,10,1.6,15,M,,M,,*62
06/24/2015	04:02:35.643	$GPGGA,040236,2522.9714,N,08006.5217,W,1,10,1.6,15,M,,M,,*62
06/24/2015	04:02:36.568	$GPGGA,040237,2522.9703,N,08006.5218,W,1,10,1.6,15,M,,M,,*6A
06/24/2015	04:02:37.541	$GPGGA,040238,2522.9695,N,08006.5221,W,1,10,1.6,15,M,,M,,*61
06/24/2015	04:02:38.569	$GPGGA,040239,2522.9685,N,08006.5224,W,1,10,1.6,15,M,,M,,*64
06/24/2015	04:02:39.669	$GPGGA,040240,2522.9674,N,08006.5224,W,1,10,1.6,16,M,,M,,*67
06/24/2015	04:02:40.538	$GPGGA,040241,2522.9666,N,08006.5225,W,1,10,1.6,16,M,,M,,*64
06/24/2015	04:02:41.528	$GPGGA,040242,2522.9656,N,08006.5228,W,1,10,1.6,16,M,,M,,*69
06/24/2015	04:02:42.578	$GPGGA,040243,2522.9646,N,08006.5231,W,1,10,1.6,16,M,,M,,*61
06/24/2015	04:02:43.668	$GPGGA,040244,2522.9637,N,08006.5230,W,1,10,1.6,16,M,,M,,*61
06/24/2015	04:02:44.578	$GPGGA,040245,2522.9627,N,08006.5233,W,1,10,1.6,16,M,,M,,*62
06/24/2015	04:02:45.608	$GPGGA,040246,2522.9619,N,08006.5235,W,1,10,1.6,16,M,,M,,*6A
06/24/2015	04:02:46.528	$GPGGA,040247,2522.9609,N,08006.5235,W,1,10,1.6,16,M,,M,,*6A
06/24/2015	04:02:47.658	$GPGGA,040248,2522.9599,N,08006.5238,W,1,10,1.6,16,M,,M,,*62
06/24/2015	04:02:48.551	$GPGGA,040249,2522.9590,N,08006.5239,W,1,10,1.6,16,M,,M,,*6B
06/24/2015	04:02:49.608	$GPGGA,040250,2522.9580,N,08006.5240,W,1,10,1.6,15,M,,M,,*6F
06/24/2015	04:02:50.518	$GPGGA,040251,2522.9570,N,08006.5242,W,1,10,1.6,15,M,,M,,*63
06/24/2015	04:02:51.658	$GPGGA,040252,2522.9561,N,08006.5246,W,1,10,1.6,15,M,,M,,*64
06/24/2015	04:02:52.608	$GPGGA,040253,2522.9550,N,08006.5245,W,1,10,1.6,15,M,,M,,*64
06/24/2015	04:02:53.618	$GPGGA,040254,2522.9541,N,08006.5246,W,1,10,1.6,15,M,,M,,*60
06/24/2015	04:02:54.555	$GPGGA,040255,2522.9531,N,08006.5249,W,1,10,1.6,15,M,,M,,*69
06/24/2015	04:02:55.599	$GPGGA,040256,2522.9521,N,08006.5249,W,1,10,1.6,15,M,,M,,*6B
06/24/2015	04:02:56.499	$GPGGA,040257,2522.9511,N,08006.5249,W,1,10,1.6,15,M,,M,,*69
06/24/2015	04:02:57.578	$GPGGA,040258,2522.9501,N,08006.5253,W,1,10,1.6,15,M,,M,,*6C
06/24/2015	04:02:58.555	$GPGGA,040259,2522.9491,N,08006.5253,W,1,10,1.6,15,M,,M,,*65
06/24/2015	04:02:59.678	$GPGGA,040300,2522.9482,N,08006.5254,W,1,10,1.6,15,M,,M,,*6D
06/24/2015	04:03:00.554	$GPGGA,040301,2522.9471,N,08006.5257,W,1,10,1.6,15,M,,M,,*63
06/24/2015	04:03:01.578	$GPGGA,040302,2522.9461,N,08006.5255,W,1,10,1.6,15,M,,M,,*63
06/24/2015	04:03:02.588	$GPGGA,040303,2522.9451,N,08006.5257,W,1,10,1.6,15,M,,M,,*63
06/24/2015	04:03:03.638	$GPGGA,040304,2522.9442,N,08006.5260,W,1,10,1.6,15,M,,M,,*62
06/24/2015	04:03:04.528	$GPGGA,040305,2522.9431,N,08006.5259,W,1,10,1.6,15,M,,M,,*6D
06/24/2015	04:03:05.628	$GPGGA,040306,2522.9422,N,08006.5260,W,1,10,1.6,15,M,,M,,*66
06/24/2015	04:03:06.588	$GPGGA,040307,2522.9413,N,08006.5264,W,1,10,1.6,15,M,,M,,*61
06/24/2015	04:03:07.678	$GPGGA,040308,2522.9402,N,08006.5263,W,1,10,1.6,15,M,,M,,*69
06/24/2015	04:03:08.578	$GPGGA,040309,2522.9392,N,08006.5264,W,1,10,1.6,15,M,,M,,*61
06/24/2015	04:03:09.619	$GPGGA,040310,2522.9382,N,08006.5267,W,1,10,1.6,15,M,,M,,*6B
06/24/2015	04:03:10.568	$GPGGA,040311,2522.9372,N,08006.5268,W,1,10,1.6,15,M,,M,,*6A
06/24/2015	04:03:11.608	$GPGGA,040312,2522.9362,N,08006.5269,W,1,10,1.6,15,M,,M,,*69
06/24/2015	04:03:12.568	$GPGGA,040313,2522.9352,N,08006.5271,W,1,10,1.6,15,M,,M,,*62
06/24/2015	04:03:13.609	$GPGGA,040314,2522.9342,N,08006.5272,W,1,10,1.6,15,M,,M,,*67
06/24/2015	04:03:14.559	$GPGGA,040315,2522.9332,N,08006.5275,W,1,10,1.6,15,M,,M,,*66
06/24/2015	04:03:15.608	$GPGGA,040316,2522.9323,N,08006.5274,W,1,10,1.6,15,M,,M,,*64
06/24/2015	04:03:16.568	$GPGGA,040317,2522.9312,N,08006.5276,W,1,10,1.6,15,M,,M,,*65
06/24/2015	04:03:17.588	$GPGGA,040318,2522.9302,N,08006.5279,W,1,10,1.6,15,M,,M,,*64
06/24/2015	04:03:18.554	$GPGGA,040319,2522.9292,N,08006.5279,W,1,10,1.6,15,M,,M,,*6D
06/24/2015	04:03:19.638	$GPGGA,040320,2522.9283,N,08006.5282,W,1,10,1.6,15,M,,M,,*63
06/24/2015	04:03:20.558	$GPGGA,040321,2522.9273,N,08006.5285,W,1,10,1.6,15,M,,M,,*6A
06/24/2015	04:03:21.588	$GPGGA,040322,2522.9262,N,08006.5286,W,1,10,1.6,15,M,,M,,*6A
06/24/2015	04:03:22.554	$GPGGA,040323,2522.9252,N,08006.5287,W,1,10,1.6,15,M,,M,,*69
06/24/2015	04:03:23.588	$GPGGA,040324,2522.9243,N,08006.5290,W,1,10,1.6,15,M,,M,,*68
06/24/2015	04:03:24.568	$GPGGA,040325,2522.9233,N,08006.5293,W,1,10,1.6,15,M,,M,,*6D
06/24/2015	04:03:25.568	$GPGGA,040326,2522.9222,N,08006.5294,W,1,10,1.6,15,M,,M,,*69
06/24/2015	04:03:26.551	$GPGGA,040327,2522.9212,N,08006.5296,W,1,10,1.6,15,M,,M,,*69
06/24/2015	04:03:27.618	$GPGGA,040328,2522.9202,N,08006.5298,W,1,10,1.6,15,M,,M,,*69
06/24/2015	04:03:28.549	$GPGGA,040329,2522.9193,N,08006.5301,W,1,10,1.6,15,M,,M,,*62
06/24/2015	04:03:29.568	$GPGGA,040330,2522.9183,N,08006.5303,W,1,10,1.6,15,M,,M,,*69
06/24/2015	04:03:30.559	$GPGGA,040331,2522.9173,N,08006.5305,W,1,10,1.6,15,M,,M,,*61
06/24/2015	04:03:31.609	$GPGGA,040332,2522.9162,N,08006.5308,W,1,10,1.6,15,M,,M,,*6F
06/24/2015	04:03:32.541	$GPGGA,040333,2522.9153,N,08006.5311,W,1,10,1.6,15,M,,M,,*64
06/24/2015	04:03:33.608	$GPGGA,040334,2522.9143,N,08006.5314,W,1,10,1.6,15,M,,M,,*67
06/24/2015	04:03:34.538	$GPGGA,040335,2522.9132,N,08006.5314,W,1,10,1.6,15,M,,M,,*60
06/24/2015	04:03:35.578	$GPGGA,040336,2522.9132,N,08006.5314,W,1,10,1.6,15,M,,M,,*63
06/24/2015	04:03:36.539	$GPGGA,040337,2522.9122,N,08006.5316,W,1,10,1.6,15,M,,M,,*61
06/24/2015	04:03:37.568	$GPGGA,040338,2522.9102,N,08006.5322,W,1,10,1.6,15,M,,M,,*6B
06/24/2015	04:03:38.528	$GPGGA,040339,2522.9092,N,08006.5323,W,1,10,1.6,15,M,,M,,*63
06/24/2015	04:03:39.647	$GPGGA,040340,2522.9083,N,08006.5326,W,1,10,1.6,15,M,,M,,*68
06/24/2015	04:03:40.538	$GPGGA,040341,2522.9074,N,08006.5330,W,1,10,1.6,15,M,,M,,*66
06/24/2015	04:03:41.528	$GPGGA,040342,2522.9074,N,08006.5330,W,1,10,1.6,15,M,,M,,*65
06/24/2015	04:03:42.518	$GPGGA,040343,2522.9054,N,08006.5333,W,1,10,1.6,15,M,,M,,*65
06/24/2015	04:03:43.648	$GPGGA,040344,2522.9044,N,08006.5336,W,1,10,1.6,15,M,,M,,*66
06/24/2015	04:03:44.518	$GPGGA,040345,2522.9035,N,08006.5340,W,1,10,1.6,15,M,,M,,*60
06/24/2015	04:03:45.528	$GPGGA,040346,2522.9035,N,08006.5340,W,1,10,1.6,15,M,,M,,*63
06/24/2015	04:03:46.508	$GPGGA,040347,2522.9016,N,08006.5343,W,1,10,1.6,15,M,,M,,*60
06/24/2015	04:03:47.618	$GPGGA,040348,2522.9006,N,08006.5345,W,1,10,1.6,15,M,,M,,*68
06/24/2015	04:03:48.509	$GPGGA,040349,2522.8996,N,08006.5347,W,1,10,1.6,15,M,,M,,*6A
06/24/2015	04:03:49.609	$GPGGA,040350,2522.8985,N,08006.5348,W,1,10,1.6,15,M,,M,,*6F
06/24/2015	04:03:50.508	$GPGGA,040351,2522.8976,N,08006.5350,W,1,10,1.6,15,M,,M,,*6B
06/24/2015	04:03:51.518	$GPGGA,040352,2522.8976,N,08006.5350,W,1,10,1.6,15,M,,M,,*68
06/24/2015	04:03:52.578	$GPGGA,040353,2522.8956,N,08006.5354,W,1,10,1.6,15,M,,M,,*6F
06/24/2015	04:03:53.498	$GPGGA,040354,2522.8956,N,08006.5354,W,1,10,1.6,15,M,,M,,*68
06/24/2015	04:03:54.498	$GPGGA,040355,2522.8937,N,08006.5358,W,1,10,1.6,15,M,,M,,*62
06/24/2015	04:03:55.508	$GPGGA,040356,2522.8937,N,08006.5358,W,1,10,1.6,15,M,,M,,*61
06/24/2015	04:03:56.568	$GPGGA,040357,2522.8918,N,08006.5359,W,1,10,1.6,15,M,,M,,*6C
06/24/2015	04:03:57.608	$GPGGA,040358,2522.8907,N,08006.5361,W,1,10,1.6,15,M,,M,,*66
06/24/2015	04:03:58.568	$GPGGA,040359,2522.8897,N,08006.5365,W,1,10,1.6,15,M,,M,,*6B
06/24/2015	04:03:59.628	$GPGGA,040400,2522.8887,N,08006.5364,W,1,10,1.6,15,M,,M,,*60
06/24/2015	04:04:00.568	$GPGGA,040401,2522.8877,N,08006.5366,W,1,10,1.6,15,M,,M,,*6C
06/24/2015	04:04:01.578	$GPGGA,040402,2522.8867,N,08006.5368,W,1,10,1.6,15,M,,M,,*60
06/24/2015	04:04:02.568	$GPGGA,040403,2522.8858,N,08006.5369,W,1,10,1.6,15,M,,M,,*6C
06/24/2015	04:04:03.618	$GPGGA,040404,2522.8848,N,08006.5372,W,1,10,1.6,15,M,,M,,*60
06/24/2015	04:04:04.558	$GPGGA,040405,2522.8839,N,08006.5372,W,1,10,1.6,15,M,,M,,*67
06/24/2015	04:04:05.559	$GPGGA,040406,2522.8828,N,08006.5373,W,1,10,1.6,15,M,,M,,*65
06/24/2015	04:04:06.559	$GPGGA,040407,2522.8819,N,08006.5376,W,1,10,1.6,15,M,,M,,*63
06/24/2015	04:04:07.598	$GPGGA,040408,2522.8819,N,08006.5376,W,1,10,1.6,15,M,,M,,*6C
06/24/2015	04:04:08.548	$GPGGA,040409,2522.8799,N,08006.5377,W,1,10,1.6,15,M,,M,,*6B
06/24/2015	04:04:09.551	$GPGGA,040410,2522.8789,N,08006.5379,W,1,10,1.6,15,M,,M,,*6C
06/24/2015	04:04:10.568	$GPGGA,040411,2522.8779,N,08006.5381,W,1,10,1.6,15,M,,M,,*65
06/24/2015	04:04:11.588	$GPGGA,040412,2522.8770,N,08006.5383,W,1,10,1.6,15,M,,M,,*6D
06/24/2015	04:04:12.550	$GPGGA,040413,2522.8759,N,08006.5383,W,1,10,1.6,15,M,,M,,*67
06/24/2015	04:04:13.568	$GPGGA,040414,2522.8749,N,08006.5386,W,1,10,1.6,15,M,,M,,*64
06/24/2015	04:04:14.548	$GPGGA,040415,2522.8739,N,08006.5387,W,1,10,1.6,15,M,,M,,*63
06/24/2015	04:04:15.568	$GPGGA,040416,2522.8730,N,08006.5388,W,1,10,1.6,15,M,,M,,*66
06/24/2015	04:04:16.549	$GPGGA,040417,2522.8719,N,08006.5390,W,1,10,1.6,15,M,,M,,*65
06/24/2015	04:04:17.578	$GPGGA,040418,2522.8709,N,08006.5390,W,1,10,1.6,15,M,,M,,*6B
06/24/2015	04:04:18.551	$GPGGA,040419,2522.8700,N,08006.5392,W,1,10,1.6,15,M,,M,,*61
06/24/2015	04:04:19.589	$GPGGA,040420,2522.8690,N,08006.5394,W,1,10,1.6,15,M,,M,,*65
06/24/2015	04:04:20.528	$GPGGA,040421,2522.8680,N,08006.5395,W,1,10,1.6,15,M,,M,,*64
06/24/2015	04:04:21.542	$GPGGA,040422,2522.8670,N,08006.5397,W,1,10,1.6,15,M,,M,,*6A
06/24/2015	04:04:22.518	$GPGGA,040423,2522.8661,N,08006.5398,W,1,10,1.6,15,M,,M,,*64
06/24/2015	04:04:23.579	$GPGGA,040424,2522.8651,N,08006.5401,W,1,10,1.6,15,M,,M,,*67
06/24/2015	04:04:24.519	$GPGGA,040425,2522.8642,N,08006.5402,W,1,10,1.6,15,M,,M,,*67
06/24/2015	04:04:25.558	$GPGGA,040426,2522.8633,N,08006.5404,W,1,10,1.6,15,M,,M,,*64
06/24/2015	04:04:26.508	$GPGGA,040427,2522.8622,N,08006.5405,W,1,10,1.6,15,M,,M,,*64
06/24/2015	04:04:27.538	$GPGGA,040428,2522.8613,N,08006.5406,W,1,10,1.6,15,M,,M,,*6A
06/24/2015	04:04:28.528	$GPGGA,040429,2522.8604,N,08006.5408,W,1,10,1.6,15,M,,M,,*63
06/24/2015	04:04:29.548	$GPGGA,040430,2522.8593,N,08006.5410,W,1,10,1.6,15,M,,M,,*6F
06/24/2015	04:04:30.518	$GPGGA,040431,2522.8583,N,08006.5412,W,1,10,1.7,14,M,,M,,*6D
06/24/2015	04:04:31.508	$GPGGA,040432,2522.8575,N,08006.5413,W,1,9,1.7,14,M,,M,,*5E
06/24/2015	04:04:32.598	$GPGGA,040433,2522.8566,N,08006.5415,W,1,9,1.6,14,M,,M,,*5A
06/24/2015	04:04:33.528	$GPGGA,040434,2522.8557,N,08006.5415,W,1,10,1.6,14,M,,M,,*67
06/24/2015	04:04:34.618	$GPGGA,040435,2522.8547,N,08006.5417,W,1,10,1.6,14,M,,M,,*65
06/24/2015	04:04:35.528	$GPGGA,040436,2522.8535,N,08006.5419,W,1,9,1.8,14,M,,M,,*5B
06/24/2015	04:04:36.488	$GPGGA,040437,2522.8524,N,08006.5419,W,1,9,1.6,14,M,,M,,*54
06/24/2015	04:04:37.498	$GPGGA,040438,2522.8514,N,08006.5420,W,1,10,1.6,15,M,,M,,*6B
06/24/2015	04:04:38.498	$GPGGA,040439,2522.8504,N,08006.5423,W,1,10,1.6,15,M,,M,,*68
06/24/2015	04:04:39.618	$GPGGA,040440,2522.8493,N,08006.5424,W,1,10,1.6,15,M,,M,,*6E
06/24/2015	04:04:40.599	$GPGGA,040441,2522.8483,N,08006.5426,W,1,10,1.6,15,M,,M,,*6C
06/24/2015	04:04:41.499	$GPGGA,040442,2522.8474,N,08006.5428,W,1,10,1.6,15,M,,M,,*69
06/24/2015	04:04:42.588	$GPGGA,040443,2522.8463,N,08006.5430,W,1,10,1.6,15,M,,M,,*67
06/24/2015	04:04:43.508	$GPGGA,040444,2522.8453,N,08006.5431,W,1,10,1.6,15,M,,M,,*62
06/24/2015	04:04:44.578	$GPGGA,040445,2522.8442,N,08006.5434,W,1,10,1.6,15,M,,M,,*66
06/24/2015	04:04:46.018	$GPGGA,040446,2522.8434,N,08006.5435,W,1,10,1.6,15,M,,M,,*65
06/24/2015	04:04:46.578	$GPGGA,040447,2522.8423,N,08006.5438,W,1,10,1.6,15,M,,M,,*6F
06/24/2015	04:04:47.598	$GPGGA,040448,2522.8413,N,08006.5441,W,1,10,1.6,15,M,,M,,*6D
06/24/2015	04:04:48.578	$GPGGA,040449,2522.8405,N,08006.5444,W,1,10,1.8,16,M,,M,,*63
06/24/2015	04:04:49.568	$GPGGA,040450,2522.8393,N,08006.5445,W,1,10,1.6,16,M,,M,,*6C
06/24/2015	04:04:50.568	$GPGGA,040451,2522.8381,N,08006.5448,W,1,10,1.8,16,M,,M,,*6D
06/24/2015	04:04:51.598	$GPGGA,040452,2522.8372,N,08006.5451,W,1,10,1.6,16,M,,M,,*64
06/24/2015	04:04:52.568	$GPGGA,040453,2522.8362,N,08006.5452,W,1,10,1.6,16,M,,M,,*67
06/24/2015	04:04:53.578	$GPGGA,040454,2522.8352,N,08006.5455,W,1,10,1.6,16,M,,M,,*64
06/24/2015	04:04:54.568	$GPGGA,040455,2522.8342,N,08006.5459,W,1,10,1.6,16,M,,M,,*68
06/24/2015	04:04:55.588	$GPGGA,040456,2522.8333,N,08006.5460,W,1,10,1.6,16,M,,M,,*67
06/24/2015	04:04:56.558	$GPGGA,040457,2522.8322,N,08006.5462,W,1,10,1.6,16,M,,M,,*64
06/24/2015	04:04:57.568	$GPGGA,040458,2522.8312,N,08006.5466,W,1,10,1.6,16,M,,M,,*6C
06/24/2015	04:04:58.559	$GPGGA,040459,2522.8304,N,08006.5469,W,1,10,1.6,16,M,,M,,*65
06/24/2015	04:04:59.588	$GPGGA,040500,2522.8293,N,08006.5470,W,1,10,1.6,16,M,,M,,*6F
06/24/2015	04:05:00.541	$GPGGA,040501,2522.8283,N,08006.5474,W,1,10,1.6,16,M,,M,,*6B
06/24/2015	04:05:01.568	$GPGGA,040502,2522.8275,N,08006.5477,W,1,10,1.6,17,M,,M,,*63
06/24/2015	04:05:02.548	$GPGGA,040503,2522.8264,N,08006.5477,W,1,10,1.6,17,M,,M,,*62
06/24/2015	04:05:03.548	$GPGGA,040504,2522.8255,N,08006.5480,W,1,10,1.6,17,M,,M,,*6F
06/24/2015	04:05:04.551	$GPGGA,040505,2522.8246,N,08006.5484,W,1,10,1.6,17,M,,M,,*68
06/24/2015	04:05:05.538	$GPGGA,040506,2522.8236,N,08006.5486,W,1,10,1.6,17,M,,M,,*6E
06/24/2015	04:05:06.552	$GPGGA,040507,2522.8226,N,08006.5488,W,1,10,1.6,17,M,,M,,*60
06/24/2015	04:05:07.578	$GPGGA,040508,2522.8217,N,08006.5491,W,1,10,1.6,17,M,,M,,*65
06/24/2015	04:05:08.539	$GPGGA,040509,2522.8207,N,08006.5493,W,1,10,1.6,17,M,,M,,*67
06/24/2015	04:05:09.541	$GPGGA,040510,2522.8197,N,08006.5495,W,1,10,1.6,17,M,,M,,*63
06/24/2015	04:05:10.550	$GPGGA,040511,2522.8188,N,08006.5496,W,1,10,1.6,17,M,,M,,*6F
06/24/2015	04:05:11.558	$GPGGA,040512,2522.8178,N,08006.5499,W,1,10,1.6,17,M,,M,,*6C
06/24/2015	04:05:12.540	$GPGGA,040513,2522.8168,N,08006.5500,W,1,10,1.6,17,M,,M,,*6D
06/24/2015	04:05:13.628	$GPGGA,040514,2522.8159,N,08006.5502,W,1,10,1.6,17,M,,M,,*6A
06/24/2015	04:05:14.518	$GPGGA,040515,2522.8148,N,08006.5504,W,1,10,1.6,17,M,,M,,*6D
06/24/2015	04:05:15.554	$GPGGA,040516,2522.8138,N,08006.5506,W,1,10,1.6,17,M,,M,,*6B
06/24/2015	04:05:16.509	$GPGGA,040517,2522.8128,N,08006.5506,W,1,10,1.6,17,M,,M,,*6B
06/24/2015	04:05:17.540	$GPGGA,040518,2522.8118,N,08006.5509,W,1,10,1.6,17,M,,M,,*68
06/24/2015	04:05:18.508	$GPGGA,040519,2522.8109,N,08006.5511,W,1,10,1.6,18,M,,M,,*6F
06/24/2015	04:05:19.618	$GPGGA,040520,2522.8098,N,08006.5513,W,1,9,1.6,18,M,,M,,*56
06/24/2015	04:05:20.508	$GPGGA,040521,2522.8087,N,08006.5513,W,1,9,1.6,18,M,,M,,*59
06/24/2015	04:05:21.498	$GPGGA,040522,2522.8076,N,08006.5517,W,1,10,1.6,18,M,,M,,*68
06/24/2015	04:05:22.508	$GPGGA,040523,2522.8066,N,08006.5518,W,1,10,1.6,18,M,,M,,*67
06/24/2015	04:05:23.650	$GPGGA,040524,2522.8056,N,08006.5520,W,1,10,1.6,18,M,,M,,*68
06/24/2015	04:05:24.598	$GPGGA,040525,2522.8045,N,08006.5521,W,1,10,1.6,18,M,,M,,*6A
06/24/2015	04:05:25.508	$GPGGA,040526,2522.8036,N,08006.5524,W,1,10,1.6,18,M,,M,,*68
06/24/2015	04:05:26.598	$GPGGA,040527,2522.8026,N,08006.5527,W,1,10,1.6,18,M,,M,,*6B
06/24/2015	04:05:27.531	$GPGGA,040528,2522.8016,N,08006.5527,W,1,10,1.6,18,M,,M,,*67
06/24/2015	04:05:28.578	$GPGGA,040529,2522.8008,N,08006.5529,W,1,10,1.6,18,M,,M,,*67
06/24/2015	04:05:29.488	$GPGGA,040530,2522.7997,N,08006.5531,W,1,10,1.6,18,M,,M,,*66
06/24/2015	04:05:30.598	$GPGGA,040531,2522.7987,N,08006.5532,W,1,10,1.6,18,M,,M,,*65
06/24/2015	04:05:31.598	$GPGGA,040532,2522.7977,N,08006.5535,W,1,10,1.6,18,M,,M,,*6E
06/24/2015	04:05:32.588	$GPGGA,040533,2522.7968,N,08006.5535,W,1,10,1.6,18,M,,M,,*61
06/24/2015	04:05:33.579	$GPGGA,040534,2522.7958,N,08006.5538,W,1,10,1.6,18,M,,M,,*68
06/24/2015	04:05:34.578	$GPGGA,040535,2522.7948,N,08006.5539,W,1,10,1.6,18,M,,M,,*69
06/24/2015	04:05:35.588	$GPGGA,040536,2522.7939,N,08006.5542,W,1,10,1.6,18,M,,M,,*60
06/24/2015	04:05:36.568	$GPGGA,040537,2522.7928,N,08006.5542,W,1,10,1.6,18,M,,M,,*61
06/24/2015	04:05:37.578	$GPGGA,040538,2522.7916,N,08006.5543,W,1,9,1.8,18,M,,M,,*54
06/24/2015	04:05:38.568	$GPGGA,040539,2522.7906,N,08006.5546,W,1,9,2.0,18,M,,M,,*5A
06/24/2015	04:05:39.588	$GPGGA,040540,2522.7897,N,08006.5547,W,1,10,1.6,17,M,,M,,*6E
06/24/2015	04:05:40.568	$GPGGA,040541,2522.7888,N,08006.5547,W,1,10,1.6,17,M,,M,,*61
06/24/2015	04:05:41.588	$GPGGA,040542,2522.7879,N,08006.5549,W,1,10,1.6,17,M,,M,,*62
06/24/2015	04:05:42.568	$GPGGA,040543,2522.7870,N,08006.5553,W,1,10,1.6,17,M,,M,,*61
06/24/2015	04:05:43.589	$GPGGA,040544,2522.7861,N,08006.5554,W,1,10,1.6,17,M,,M,,*61
06/24/2015	04:05:44.578	$GPGGA,040545,2522.7852,N,08006.5554,W,1,10,1.6,17,M,,M,,*60
06/24/2015	04:05:45.551	$GPGGA,040546,2522.7843,N,08006.5556,W,1,10,1.6,17,M,,M,,*61
06/24/2015	04:05:46.558	$GPGGA,040547,2522.7834,N,08006.5561,W,1,10,1.6,17,M,,M,,*64
06/24/2015	04:05:47.578	$GPGGA,040548,2522.7823,N,08006.5560,W,1,10,1.6,17,M,,M,,*6C
06/24/2015	04:05:48.541	$GPGGA,040549,2522.7813,N,08006.5561,W,1,10,1.6,17,M,,M,,*6F
06/24/2015	04:05:49.550	$GPGGA,040550,2522.7806,N,08006.5567,W,1,10,1.6,18,M,,M,,*6A
06/24/2015	04:05:50.549	$GPGGA,040551,2522.7796,N,08006.5567,W,1,10,1.6,18,M,,M,,*6D
06/24/2015	04:05:51.579	$GPGGA,040552,2522.7786,N,08006.5567,W,1,9,1.8,18,M,,M,,*59
06/24/2015	04:05:52.552	$GPGGA,040553,2522.7777,N,08006.5571,W,1,9,1.6,18,M,,M,,*5F
06/24/2015	04:05:53.542	$GPGGA,040554,2522.7768,N,08006.5574,W,1,10,1.6,18,M,,M,,*6B
06/24/2015	04:05:54.541	$GPGGA,040555,2522.7757,N,08006.5574,W,1,10,1.8,18,M,,M,,*68
06/24/2015	04:05:55.588	$GPGGA,040556,2522.7749,N,08006.5576,W,1,10,1.6,18,M,,M,,*68
06/24/2015	04:05:56.539	$GPGGA,040557,2522.7741,N,08006.5578,W,1,10,1.6,18,M,,M,,*6F
06/24/2015	04:05:57.549	$GPGGA,040558,2522.7733,N,08006.5582,W,1,10,1.6,18,M,,M,,*60
06/24/2015	04:05:58.540	$GPGGA,040559,2522.7724,N,08006.5583,W,1,10,1.6,18,M,,M,,*66
06/24/2015	04:05:59.588	$GPGGA,040600,2522.7715,N,08006.5585,W,1,10,1.6,18,M,,M,,*6D
06/24/2015	04:06:00.518	$GPGGA,040601,2522.7706,N,08006.5589,W,1,10,1.6,18,M,,M,,*62
06/24/2015	04:06:01.548	$GPGGA,040602,2522.7697,N,08006.5590,W,1,10,1.6,18,M,,M,,*60
06/24/2015	04:06:02.538	$GPGGA,040603,2522.7687,N,08006.5593,W,1,10,1.6,18,M,,M,,*63
06/24/2015	04:06:03.568	$GPGGA,040604,2522.7677,N,08006.5596,W,1,10,1.6,18,M,,M,,*6E
06/24/2015	04:06:04.518	$GPGGA,040605,2522.7666,N,08006.5596,W,1,10,1.8,18,M,,M,,*61
06/24/2015	04:06:05.628	$GPGGA,040606,2522.7656,N,08006.5600,W,1,9,1.8,18,M,,M,,*55
06/24/2015	04:06:06.498	$GPGGA,040607,2522.7646,N,08006.5601,W,1,9,1.8,18,M,,M,,*54
06/24/2015	04:06:07.528	$GPGGA,040608,2522.7635,N,08006.5603,W,1,9,1.8,18,M,,M,,*5D
06/24/2015	04:06:08.519	$GPGGA,040609,2522.7625,N,08006.5607,W,1,9,1.8,18,M,,M,,*59
06/24/2015	04:06:09.618	$GPGGA,040610,2522.7614,N,08006.5608,W,1,9,1.8,18,M,,M,,*5C
06/24/2015	04:06:10.508	$GPGGA,040611,2522.7604,N,08006.5610,W,1,9,1.8,18,M,,M,,*55
06/24/2015	04:06:11.618	$GPGGA,040612,2522.7594,N,08006.5614,W,1,9,1.8,18,M,,M,,*58
06/24/2015	04:06:12.508	$GPGGA,040613,2522.7585,N,08006.5615,W,1,9,1.8,18,M,,M,,*58
06/24/2015	04:06:13.628	$GPGGA,040614,2522.7574,N,08006.5616,W,1,9,1.8,18,M,,M,,*52
06/24/2015	04:06:14.488	$GPGGA,040615,2522.7563,N,08006.5619,W,1,9,1.8,18,M,,M,,*5A
06/24/2015	04:06:15.499	$GPGGA,040616,2522.7553,N,08006.5623,W,1,9,1.8,18,M,,M,,*53
06/24/2015	04:06:16.863	$GPGGA,040617,2522.7543,N,08006.5625,W,1,9,1.8,18,M,,M,,*55
06/24/2015	04:06:17.618	$GPGGA,040618,2522.7532,N,08006.5625,W,1,9,1.8,18,M,,M,,*5C
06/24/2015	04:06:18.498	$GPGGA,040619,2522.7523,N,08006.5629,W,1,9,1.8,18,M,,M,,*51
06/24/2015	04:06:19.608	$GPGGA,040620,2522.7513,N,08006.5632,W,1,9,1.8,18,M,,M,,*52
06/24/2015	04:06:20.578	$GPGGA,040621,2522.7502,N,08006.5632,W,1,9,1.8,18,M,,M,,*53
06/24/2015	04:06:21.598	$GPGGA,040622,2522.7492,N,08006.5636,W,1,9,1.8,18,M,,M,,*5C
06/24/2015	04:06:22.578	$GPGGA,040623,2522.7482,N,08006.5639,W,1,9,1.8,18,M,,M,,*53
06/24/2015	04:06:23.588	$GPGGA,040624,2522.7473,N,08006.5639,W,1,9,1.8,18,M,,M,,*5A
06/24/2015	04:06:24.578	$GPGGA,040625,2522.7462,N,08006.5641,W,1,9,1.8,18,M,,M,,*54
06/24/2015	04:06:25.569	$GPGGA,040626,2522.7452,N,08006.5645,W,1,9,1.8,18,M,,M,,*50
06/24/2015	04:06:26.569	$GPGGA,040627,2522.7441,N,08006.5647,W,1,9,1.8,17,M,,M,,*5E
06/24/2015	04:06:27.598	$GPGGA,040628,2522.7431,N,08006.5647,W,1,9,1.8,17,M,,M,,*56
06/24/2015	04:06:28.568	$GPGGA,040629,2522.7421,N,08006.5650,W,1,9,1.8,17,M,,M,,*50
06/24/2015	04:06:29.599	$GPGGA,040630,2522.7411,N,08006.5654,W,1,9,1.8,17,M,,M,,*5F
06/24/2015	04:06:30.558	$GPGGA,040631,2522.7401,N,08006.5655,W,1,9,1.8,17,M,,M,,*5E
06/24/2015	04:06:31.588	$GPGGA,040632,2522.7391,N,08006.5658,W,1,9,1.8,17,M,,M,,*5E
06/24/2015	04:06:32.560	$GPGGA,040633,2522.7381,N,08006.5659,W,1,9,1.8,17,M,,M,,*5F
06/24/2015	04:06:33.556	$GPGGA,040634,2522.7372,N,08006.5661,W,1,9,1.8,17,M,,M,,*5F
06/24/2015	04:06:34.828	$GPGGA,040635,2522.7362,N,08006.5663,W,1,9,1.8,17,M,,M,,*5D
06/24/2015	04:06:35.589	$GPGGA,040636,2522.7351,N,08006.5666,W,1,9,1.8,17,M,,M,,*5B
06/24/2015	04:06:36.542	$GPGGA,040637,2522.7341,N,08006.5668,W,1,9,1.8,17,M,,M,,*55
06/24/2015	04:06:37.568	$GPGGA,040638,2522.7332,N,08006.5669,W,1,9,1.8,17,M,,M,,*5F
06/24/2015	04:06:38.538	$GPGGA,040639,2522.7321,N,08006.5672,W,1,9,1.8,17,M,,M,,*56
06/24/2015	04:06:39.557	$GPGGA,040640,2522.7311,N,08006.5673,W,1,9,1.8,17,M,,M,,*5A
06/24/2015	04:06:40.541	$GPGGA,040641,2522.7301,N,08006.5676,W,1,9,1.8,17,M,,M,,*5F
06/24/2015	04:06:41.528	$GPGGA,040642,2522.7291,N,08006.5677,W,1,9,1.8,17,M,,M,,*55
06/24/2015	04:06:42.541	$GPGGA,040643,2522.7282,N,08006.5679,W,1,9,1.8,17,M,,M,,*58
06/24/2015	04:06:43.569	$GPGGA,040644,2522.7272,N,08006.5683,W,1,9,1.8,17,M,,M,,*55
06/24/2015	04:06:44.538	$GPGGA,040645,2522.7261,N,08006.5684,W,1,9,1.8,16,M,,M,,*50
06/24/2015	04:06:45.528	$GPGGA,040646,2522.7251,N,08006.5686,W,1,9,1.8,16,M,,M,,*52
06/24/2015	04:06:46.550	$GPGGA,040647,2522.7242,N,08006.5687,W,1,9,1.8,16,M,,M,,*50
06/24/2015	04:06:47.558	$GPGGA,040648,2522.7231,N,08006.5690,W,1,9,1.8,16,M,,M,,*5D
06/24/2015	04:06:48.518	$GPGGA,040649,2522.7221,N,08006.5691,W,1,9,1.8,16,M,,M,,*5C
06/24/2015	04:06:49.528	$GPGGA,040650,2522.7211,N,08006.5693,W,1,9,1.8,16,M,,M,,*55
06/24/2015	04:06:50.518	$GPGGA,040651,2522.7202,N,08006.5695,W,1,9,1.8,16,M,,M,,*50
06/24/2015	04:06:51.550	$GPGGA,040652,2522.7191,N,08006.5697,W,1,9,1.8,16,M,,M,,*58
06/24/2015	04:06:52.518	$GPGGA,040653,2522.7180,N,08006.5698,W,1,9,1.8,16,M,,M,,*56
06/24/2015	04:06:53.528	$GPGGA,040654,2522.7171,N,08006.5701,W,1,9,1.8,16,M,,M,,*5E
06/24/2015	04:06:54.508	$GPGGA,040655,2522.7160,N,08006.5702,W,1,9,1.8,16,M,,M,,*5C
06/24/2015	04:06:55.538	$GPGGA,040656,2522.7150,N,08006.5704,W,1,9,1.8,16,M,,M,,*5A
06/24/2015	04:06:56.498	$GPGGA,040657,2522.7141,N,08006.5706,W,1,9,1.8,16,M,,M,,*59
06/24/2015	04:06:57.508	$GPGGA,040658,2522.7130,N,08006.5708,W,1,9,1.8,16,M,,M,,*5E
06/24/2015	04:06:58.518	$GPGGA,040659,2522.7119,N,08006.5708,W,1,9,1.8,16,M,,M,,*54
06/24/2015	04:06:59.678	$GPGGA,040700,2522.7109,N,08006.5712,W,1,9,1.8,16,M,,M,,*53
06/24/2015	04:07:00.599	$GPGGA,040701,2522.7099,N,08006.5713,W,1,9,1.8,16,M,,M,,*5B
06/24/2015	04:07:01.619	$GPGGA,040702,2522.7088,N,08006.5715,W,1,9,1.8,16,M,,M,,*5E
06/24/2015	04:07:02.508	$GPGGA,040703,2522.7079,N,08006.5716,W,1,9,1.8,16,M,,M,,*52
06/24/2015	04:07:03.598	$GPGGA,040704,2522.7068,N,08006.5719,W,1,9,1.8,16,M,,M,,*5A
06/24/2015	04:07:04.598	$GPGGA,040705,2522.7057,N,08006.5720,W,1,9,1.8,16,M,,M,,*5D
06/24/2015	04:07:05.598	$GPGGA,040706,2522.7047,N,08006.5723,W,1,9,1.8,16,M,,M,,*5C
06/24/2015	04:07:06.498	$GPGGA,040707,2522.7037,N,08006.5726,W,1,9,1.8,16,M,,M,,*5F
06/24/2015	04:07:07.498	$GPGGA,040708,2522.7027,N,08006.5726,W,1,9,1.8,16,M,,M,,*51
06/24/2015	04:07:08.578	$GPGGA,040709,2522.7018,N,08006.5728,W,1,9,1.8,16,M,,M,,*52
06/24/2015	04:07:09.618	$GPGGA,040710,2522.7007,N,08006.5730,W,1,9,1.8,16,M,,M,,*5D
06/24/2015	04:07:10.578	$GPGGA,040711,2522.6996,N,08006.5733,W,1,9,1.8,16,M,,M,,*5F
06/24/2015	04:07:11.630	$GPGGA,040712,2522.6985,N,08006.5733,W,1,9,1.8,16,M,,M,,*5E
06/24/2015	04:07:12.568	$GPGGA,040713,2522.6976,N,08006.5735,W,1,9,1.8,16,M,,M,,*55
06/24/2015	04:07:13.568	$GPGGA,040714,2522.6967,N,08006.5738,W,1,9,1.8,16,M,,M,,*5F
06/24/2015	04:07:14.568	$GPGGA,040715,2522.6955,N,08006.5740,W,1,9,1.8,16,M,,M,,*50
06/24/2015	04:07:15.588	$GPGGA,040716,2522.6944,N,08006.5741,W,1,9,1.8,16,M,,M,,*52
06/24/2015	04:07:16.558	$GPGGA,040717,2522.6935,N,08006.5744,W,1,9,1.8,16,M,,M,,*50
06/24/2015	04:07:17.568	$GPGGA,040718,2522.6924,N,08006.5745,W,1,9,1.8,16,M,,M,,*5E
06/24/2015	04:07:18.558	$GPGGA,040719,2522.6913,N,08006.5746,W,1,9,1.8,16,M,,M,,*58
06/24/2015	04:07:19.597	$GPGGA,040720,2522.6903,N,08006.5749,W,1,9,1.8,16,M,,M,,*5C
06/24/2015	04:07:20.547	$GPGGA,040721,2522.6893,N,08006.5752,W,1,9,1.8,16,M,,M,,*5F
06/24/2015	04:07:21.557	$GPGGA,040722,2522.6882,N,08006.5753,W,1,9,1.8,16,M,,M,,*5D
06/24/2015	04:07:22.547	$GPGGA,040723,2522.6872,N,08006.5755,W,1,9,1.8,16,M,,M,,*55
06/24/2015	04:07:23.577	$GPGGA,040724,2522.6862,N,08006.5759,W,1,9,1.8,16,M,,M,,*5F
06/24/2015	04:07:24.533	$GPGGA,040725,2522.6852,N,08006.5760,W,1,9,1.8,16,M,,M,,*57
06/24/2015	04:07:25.557	$GPGGA,040726,2522.6842,N,08006.5762,W,1,9,1.8,16,M,,M,,*57
06/24/2015	04:07:26.538	$GPGGA,040727,2522.6832,N,08006.5766,W,1,9,1.8,16,M,,M,,*55
06/24/2015	04:07:27.538	$GPGGA,040728,2522.6823,N,08006.5767,W,1,9,1.8,15,M,,M,,*58
06/24/2015	04:07:28.538	$GPGGA,040729,2522.6812,N,08006.5770,W,1,9,1.8,15,M,,M,,*5D
06/24/2015	04:07:29.531	$GPGGA,040730,2522.6801,N,08006.5773,W,1,9,1.8,15,M,,M,,*54
06/24/2015	04:07:30.542	$GPGGA,040731,2522.6792,N,08006.5775,W,1,9,1.8,15,M,,M,,*56
06/24/2015	04:07:31.548	$GPGGA,040732,2522.6783,N,08006.5778,W,1,9,1.8,15,M,,M,,*58
06/24/2015	04:07:32.538	$GPGGA,040733,2522.6772,N,08006.5780,W,1,9,1.8,15,M,,M,,*50
06/24/2015	04:07:33.568	$GPGGA,040734,2522.6761,N,08006.5782,W,1,9,1.8,15,M,,M,,*57
06/24/2015	04:07:34.531	$GPGGA,040735,2522.6752,N,08006.5787,W,1,9,1.8,15,M,,M,,*53
06/24/2015	04:07:35.541	$GPGGA,040736,2522.6742,N,08006.5788,W,1,9,1.8,15,M,,M,,*5E
06/24/2015	04:07:36.530	$GPGGA,040737,2522.6732,N,08006.5789,W,1,9,1.8,15,M,,M,,*59
06/24/2015	04:07:37.547	$GPGGA,040738,2522.6722,N,08006.5792,W,1,9,1.8,15,M,,M,,*5D
06/24/2015	04:07:38.530	$GPGGA,040739,2522.6711,N,08006.5795,W,1,9,2.0,15,M,,M,,*50
06/24/2015	04:07:39.547	$GPGGA,040740,2522.6701,N,08006.5798,W,1,8,2.0,15,M,,M,,*53
06/24/2015	04:07:40.507	$GPGGA,040741,2522.6693,N,08006.5800,W,1,8,1.8,15,M,,M,,*5D
06/24/2015	04:07:41.539	$GPGGA,040742,2522.6684,N,08006.5802,W,1,9,1.8,15,M,,M,,*5B
06/24/2015	04:07:42.507	$GPGGA,040743,2522.6675,N,08006.5806,W,1,9,1.8,15,M,,M,,*50
06/24/2015	04:07:43.550	$GPGGA,040744,2522.6666,N,08006.5806,W,1,9,1.8,15,M,,M,,*55
06/24/2015	04:07:44.517	$GPGGA,040745,2522.6656,N,08006.5809,W,1,9,1.8,15,M,,M,,*58
06/24/2015	04:07:45.618	$GPGGA,040746,2522.6647,N,08006.5813,W,1,9,1.8,15,M,,M,,*50
06/24/2015	04:07:46.508	$GPGGA,040747,2522.6638,N,08006.5813,W,1,9,1.8,16,M,,M,,*5A
06/24/2015	04:07:47.578	$GPGGA,040748,2522.6628,N,08006.5816,W,1,9,1.8,16,M,,M,,*51
06/24/2015	04:07:48.518	$GPGGA,040749,2522.6619,N,08006.5820,W,1,9,1.8,16,M,,M,,*57
06/24/2015	04:07:49.578	$GPGGA,040750,2522.6609,N,08006.5821,W,1,9,1.8,16,M,,M,,*5F
06/24/2015	04:07:50.578	$GPGGA,040751,2522.6599,N,08006.5824,W,1,9,1.8,16,M,,M,,*51
06/24/2015	04:07:51.541	$GPGGA,040752,2522.6588,N,08006.5825,W,1,9,2.0,16,M,,M,,*58
06/24/2015	04:07:52.588	$GPGGA,040753,2522.6578,N,08006.5828,W,1,9,2.0,16,M,,M,,*5B
06/24/2015	04:07:53.488	$GPGGA,040754,2522.6568,N,08006.5831,W,1,9,1.8,16,M,,M,,*5E
06/24/2015	04:07:54.578	$GPGGA,040755,2522.6559,N,08006.5832,W,1,9,1.8,16,M,,M,,*5E
06/24/2015	04:07:55.577	$GPGGA,040756,2522.6548,N,08006.5835,W,1,9,1.8,16,M,,M,,*5A
06/24/2015	04:07:56.577	$GPGGA,040757,2522.6539,N,08006.5838,W,1,9,1.8,16,M,,M,,*50
06/24/2015	04:07:57.567	$GPGGA,040758,2522.6528,N,08006.5839,W,1,9,1.8,16,M,,M,,*5E
06/24/2015	04:07:58.567	$GPGGA,040759,2522.6518,N,08006.5840,W,1,9,1.8,16,M,,M,,*52
06/24/2015	04:07:59.635	$GPGGA,040800,2522.6518,N,08006.5840,W,1,9,1.8,16,M,,M,,*51
06/24/2015	04:08:00.567	$GPGGA,040801,2522.6497,N,08006.5846,W,1,9,1.8,16,M,,M,,*50
06/24/2015	04:08:01.557	$GPGGA,040802,2522.6487,N,08006.5847,W,1,9,1.8,16,M,,M,,*53
06/24/2015	04:08:02.567	$GPGGA,040803,2522.6477,N,08006.5849,W,1,9,1.8,16,M,,M,,*53
06/24/2015	04:08:03.588	$GPGGA,040804,2522.6467,N,08006.5853,W,1,9,1.8,16,M,,M,,*5E
06/24/2015	04:08:04.558	$GPGGA,040805,2522.6458,N,08006.5854,W,1,9,1.8,16,M,,M,,*54
06/24/2015	04:08:05.579	$GPGGA,040806,2522.6447,N,08006.5856,W,1,9,1.8,16,M,,M,,*5B
06/24/2015	04:08:07.608	$GPGGA,040808,2522.6425,N,08006.5860,W,1,9,1.8,16,M,,M,,*54
06/24/2015	04:08:08.541	$GPGGA,040809,2522.6415,N,08006.5860,W,1,9,2.0,16,M,,M,,*5D
06/24/2015	04:08:09.568	$GPGGA,040810,2522.6405,N,08006.5863,W,1,9,1.8,16,M,,M,,*5C
06/24/2015	04:08:10.558	$GPGGA,040811,2522.6394,N,08006.5864,W,1,9,1.8,16,M,,M,,*55
06/24/2015	04:08:11.548	$GPGGA,040812,2522.6385,N,08006.5865,W,1,8,2.0,16,M,,M,,*5D
06/24/2015	04:08:12.540	$GPGGA,040813,2522.6375,N,08006.5867,W,1,8,1.8,15,M,,M,,*59
06/24/2015	04:08:13.557	$GPGGA,040814,2522.6366,N,08006.5868,W,1,9,1.8,15,M,,M,,*52
06/24/2015	04:08:14.537	$GPGGA,040815,2522.6357,N,08006.5870,W,1,9,1.8,15,M,,M,,*58
06/24/2015	04:08:15.567	$GPGGA,040816,2522.6347,N,08006.5871,W,1,9,1.8,15,M,,M,,*5B
06/24/2015	04:08:16.538	$GPGGA,040817,2522.6339,N,08006.5871,W,1,9,1.7,15,M,,M,,*5C
06/24/2015	04:08:17.531	$GPGGA,040818,2522.6328,N,08006.5874,W,1,9,1.7,15,M,,M,,*56
06/24/2015	04:08:18.531	$GPGGA,040819,2522.6319,N,08006.5874,W,1,9,1.7,15,M,,M,,*55
06/24/2015	04:08:19.528	$GPGGA,040820,2522.6310,N,08006.5875,W,1,9,1.7,15,M,,M,,*57
06/24/2015	04:08:20.532	$GPGGA,040821,2522.6299,N,08006.5876,W,1,9,1.7,15,M,,M,,*55
06/24/2015	04:08:21.518	$GPGGA,040822,2522.6289,N,08006.5878,W,1,9,1.7,15,M,,M,,*59
06/24/2015	04:08:22.530	$GPGGA,040823,2522.6279,N,08006.5879,W,1,9,1.7,16,M,,M,,*55
06/24/2015	04:08:23.558	$GPGGA,040824,2522.6270,N,08006.5881,W,1,9,1.7,16,M,,M,,*5C
06/24/2015	04:08:24.529	$GPGGA,040825,2522.6259,N,08006.5882,W,1,9,1.7,16,M,,M,,*55
06/24/2015	04:08:25.633	$GPGGA,040826,2522.6249,N,08006.5885,W,1,9,1.7,16,M,,M,,*50
06/24/2015	04:08:26.508	$GPGGA,040827,2522.6239,N,08006.5885,W,1,9,1.7,16,M,,M,,*56
06/24/2015	04:08:27.528	$GPGGA,040828,2522.6228,N,08006.5887,W,1,9,1.7,16,M,,M,,*5B
06/24/2015	04:08:28.508	$GPGGA,040829,2522.6219,N,08006.5889,W,1,9,1.7,16,M,,M,,*56
06/24/2015	04:08:29.507	$GPGGA,040830,2522.6207,N,08006.5890,W,1,9,1.7,16,M,,M,,*59
06/24/2015	04:08:30.507	$GPGGA,040831,2522.6195,N,08006.5893,W,1,9,2.0,16,M,,M,,*57
06/24/2015	04:08:31.507	$GPGGA,040832,2522.6185,N,08006.5896,W,1,9,1.7,16,M,,M,,*54
06/24/2015	04:08:32.617	$GPGGA,040833,2522.6176,N,08006.5897,W,1,9,1.7,16,M,,M,,*58
06/24/2015	04:08:33.607	$GPGGA,040834,2522.6165,N,08006.5900,W,1,9,1.7,16,M,,M,,*52
06/24/2015	04:08:34.497	$GPGGA,040835,2522.6155,N,08006.5903,W,1,9,1.7,16,M,,M,,*53
06/24/2015	04:08:35.527	$GPGGA,040836,2522.6145,N,08006.5903,W,1,9,1.7,16,M,,M,,*51
06/24/2015	04:08:36.487	$GPGGA,040837,2522.6135,N,08006.5905,W,1,9,1.7,16,M,,M,,*51
06/24/2015	04:08:37.477	$GPGGA,040838,2522.6125,N,08006.5908,W,1,9,1.7,16,M,,M,,*52
06/24/2015	04:08:38.598	$GPGGA,040839,2522.6115,N,08006.5910,W,1,9,1.7,16,M,,M,,*59
06/24/2015	04:08:39.498	$GPGGA,040840,2522.6105,N,08006.5912,W,1,9,1.7,16,M,,M,,*54
06/24/2015	04:08:40.578	$GPGGA,040841,2522.6096,N,08006.5914,W,1,9,1.7,16,M,,M,,*58
06/24/2015	04:08:41.488	$GPGGA,040842,2522.6086,N,08006.5918,W,1,9,1.7,16,M,,M,,*56
06/24/2015	04:08:42.578	$GPGGA,040843,2522.6076,N,08006.5919,W,1,9,1.7,16,M,,M,,*59
06/24/2015	04:08:43.488	$GPGGA,040844,2522.6065,N,08006.5922,W,1,9,1.7,16,M,,M,,*54
06/24/2015	04:08:44.568	$GPGGA,040845,2522.6057,N,08006.5925,W,1,9,1.7,16,M,,M,,*53
06/24/2015	04:08:45.608	$GPGGA,040846,2522.6046,N,08006.5926,W,1,9,1.7,16,M,,M,,*53
06/24/2015	04:08:46.568	$GPGGA,040847,2522.6036,N,08006.5929,W,1,9,1.7,16,M,,M,,*5A
06/24/2015	04:08:47.617	$GPGGA,040848,2522.6025,N,08006.5932,W,1,9,1.7,16,M,,M,,*5D
06/24/2015	04:08:48.567	$GPGGA,040849,2522.6014,N,08006.5933,W,1,9,2.0,16,M,,M,,*5B
06/24/2015	04:08:49.587	$GPGGA,040850,2522.6005,N,08006.5937,W,1,9,1.7,16,M,,M,,*53
06/24/2015	04:08:50.557	$GPGGA,040851,2522.5996,N,08006.5943,W,1,9,1.7,16,M,,M,,*51
06/24/2015	04:08:51.587	$GPGGA,040852,2522.5985,N,08006.5942,W,1,9,1.7,16,M,,M,,*51
06/24/2015	04:08:52.557	$GPGGA,040853,2522.5974,N,08006.5944,W,1,9,1.7,16,M,,M,,*58
06/24/2015	04:08:53.857	$GPGGA,040854,2522.5964,N,08006.5950,W,1,9,1.7,16,M,,M,,*5B
06/24/2015	04:08:54.557	$GPGGA,040855,2522.5953,N,08006.5952,W,1,9,2.0,16,M,,M,,*58
06/24/2015	04:08:55.598	$GPGGA,040856,2522.5942,N,08006.5952,W,1,8,2.0,16,M,,M,,*5A
06/24/2015	04:08:56.548	$GPGGA,040857,2522.5934,N,08006.5957,W,1,8,2.0,15,M,,M,,*5C
06/24/2015	04:08:57.568	$GPGGA,040858,2522.5925,N,08006.5959,W,1,9,1.7,15,M,,M,,*58
06/24/2015	04:08:58.538	$GPGGA,040859,2522.5916,N,08006.5961,W,1,9,1.7,15,M,,M,,*52
06/24/2015	04:08:59.588	$GPGGA,040900,2522.5907,N,08006.5962,W,1,9,1.7,15,M,,M,,*5C
06/24/2015	04:09:00.530	$GPGGA,040901,2522.5898,N,08006.5965,W,1,9,1.7,15,M,,M,,*5D
06/24/2015	04:09:01.538	$GPGGA,040902,2522.5891,N,08006.5968,W,1,9,1.7,15,M,,M,,*5A
06/24/2015	04:09:02.538	$GPGGA,040903,2522.5880,N,08006.5969,W,1,9,1.7,15,M,,M,,*5A
06/24/2015	04:09:03.558	$GPGGA,040904,2522.5870,N,08006.5970,W,1,9,1.7,15,M,,M,,*5A
06/24/2015	04:09:04.541	$GPGGA,040905,2522.5862,N,08006.5975,W,1,9,2.0,15,M,,M,,*59
06/24/2015	04:09:05.547	$GPGGA,040906,2522.5852,N,08006.5976,W,1,9,1.7,15,M,,M,,*5E
06/24/2015	04:09:07.567	$GPGGA,040908,2522.5834,N,08006.5979,W,1,9,1.7,15,M,,M,,*5F
06/24/2015	04:09:08.517	$GPGGA,040909,2522.5826,N,08006.5982,W,1,9,1.7,15,M,,M,,*59
06/24/2015	04:09:09.517	$GPGGA,040910,2522.5815,N,08006.5983,W,1,9,1.7,15,M,,M,,*50
06/24/2015	04:09:10.527	$GPGGA,040911,2522.5807,N,08006.5984,W,1,9,1.7,15,M,,M,,*55
06/24/2015	04:09:11.567	$GPGGA,040912,2522.5798,N,08006.5986,W,1,9,1.7,15,M,,M,,*5D
06/24/2015	04:09:12.527	$GPGGA,040913,2522.5789,N,08006.5987,W,1,9,1.7,15,M,,M,,*5D
06/24/2015	04:09:13.518	$GPGGA,040914,2522.5780,N,08006.5990,W,1,9,1.7,15,M,,M,,*55
06/24/2015	04:09:14.508	$GPGGA,040915,2522.5771,N,08006.5991,W,1,9,1.7,15,M,,M,,*5B
06/24/2015	04:09:15.518	$GPGGA,040916,2522.5761,N,08006.5993,W,1,9,1.7,15,M,,M,,*5B
06/24/2015	04:09:16.598	$GPGGA,040917,2522.5753,N,08006.5994,W,1,9,1.7,15,M,,M,,*5C
06/24/2015	04:09:17.498	$GPGGA,040918,2522.5744,N,08006.5997,W,1,9,1.7,15,M,,M,,*56
06/24/2015	04:09:18.498	$GPGGA,040919,2522.5735,N,08006.5998,W,1,9,1.7,15,M,,M,,*5E
06/24/2015	04:09:19.628	$GPGGA,040920,2522.5725,N,08006.5999,W,1,9,1.7,15,M,,M,,*54
06/24/2015	04:09:20.618	$GPGGA,040921,2522.5717,N,08006.6002,W,1,9,1.7,15,M,,M,,*5C
06/24/2015	04:09:21.588	$GPGGA,040922,2522.5707,N,08006.6004,W,1,9,1.7,15,M,,M,,*58
06/24/2015	04:09:22.507	$GPGGA,040923,2522.5697,N,08006.6004,W,1,9,1.7,15,M,,M,,*51
06/24/2015	04:09:23.527	$GPGGA,040924,2522.5688,N,08006.6008,W,1,9,1.7,15,M,,M,,*54
06/24/2015	04:09:24.507	$GPGGA,040925,2522.5678,N,08006.6011,W,1,9,1.7,15,M,,M,,*52
06/24/2015	04:09:25.577	$GPGGA,040926,2522.5669,N,08006.6010,W,1,9,1.7,15,M,,M,,*50
06/24/2015	04:09:26.597	$GPGGA,040927,2522.5660,N,08006.6012,W,1,9,1.7,15,M,,M,,*5A
06/24/2015	04:09:27.607	$GPGGA,040928,2522.5652,N,08006.6015,W,1,9,1.7,15,M,,M,,*53
06/24/2015	04:09:28.577	$GPGGA,040929,2522.5641,N,08006.6016,W,1,9,1.7,15,M,,M,,*53
06/24/2015	04:09:29.487	$GPGGA,040930,2522.5632,N,08006.6019,W,1,9,1.7,15,M,,M,,*50
06/24/2015	04:09:30.488	$GPGGA,040931,2522.5623,N,08006.6020,W,1,9,1.7,15,M,,M,,*5B
06/24/2015	04:09:31.578	$GPGGA,040932,2522.5614,N,08006.6022,W,1,9,1.7,15,M,,M,,*5E
06/24/2015	04:09:32.478	$GPGGA,040933,2522.5605,N,08006.6026,W,1,9,1.7,15,M,,M,,*5B
06/24/2015	04:09:33.568	$GPGGA,040934,2522.5595,N,08006.6027,W,1,9,1.7,15,M,,M,,*57
06/24/2015	04:09:34.558	$GPGGA,040935,2522.5587,N,08006.6029,W,1,9,1.7,15,M,,M,,*5B
06/24/2015	04:09:35.598	$GPGGA,040936,2522.5578,N,08006.6033,W,1,9,1.7,15,M,,M,,*53
06/24/2015	04:09:36.558	$GPGGA,040937,2522.5569,N,08006.6033,W,1,9,1.7,15,M,,M,,*52
06/24/2015	04:09:37.578	$GPGGA,040938,2522.5560,N,08006.6034,W,1,9,1.7,15,M,,M,,*53
06/24/2015	04:09:38.558	$GPGGA,040939,2522.5552,N,08006.6038,W,1,9,1.7,15,M,,M,,*5F
06/24/2015	04:09:39.587	$GPGGA,040940,2522.5544,N,08006.6041,W,1,9,1.7,15,M,,M,,*58
06/24/2015	04:09:40.557	$GPGGA,040941,2522.5533,N,08006.6041,W,1,9,1.7,15,M,,M,,*59
06/24/2015	04:09:41.557	$GPGGA,040942,2522.5526,N,08006.6044,W,1,9,1.7,15,M,,M,,*5B
06/24/2015	04:09:42.557	$GPGGA,040943,2522.5518,N,08006.6048,W,1,9,1.7,15,M,,M,,*5B
06/24/2015	04:09:43.577	$GPGGA,040944,2522.5508,N,08006.6049,W,1,9,1.7,15,M,,M,,*5C
06/24/2015	04:09:44.557	$GPGGA,040945,2522.5499,N,08006.6049,W,1,9,1.7,15,M,,M,,*54
06/24/2015	04:09:45.567	$GPGGA,040946,2522.5490,N,08006.6053,W,1,8,2.0,15,M,,M,,*50
06/24/2015	04:09:46.545	$GPGGA,040947,2522.5481,N,08006.6058,W,1,8,1.7,15,M,,M,,*5E
06/24/2015	04:09:47.577	$GPGGA,040948,2522.5471,N,08006.6059,W,1,9,1.7,15,M,,M,,*5E
06/24/2015	04:09:48.548	$GPGGA,040949,2522.5463,N,08006.6059,W,1,9,1.7,15,M,,M,,*5C
06/24/2015	04:09:49.558	$GPGGA,040950,2522.5454,N,08006.6063,W,1,9,1.7,15,M,,M,,*59
06/24/2015	04:09:50.542	$GPGGA,040951,2522.5447,N,08006.6066,W,1,9,1.7,15,M,,M,,*5F
06/24/2015	04:09:51.578	$GPGGA,040952,2522.5439,N,08006.6065,W,1,9,1.7,15,M,,M,,*56
06/24/2015	04:09:52.531	$GPGGA,040953,2522.5432,N,08006.6069,W,1,9,1.7,15,M,,M,,*50
06/24/2015	04:09:53.543	$GPGGA,040954,2522.5423,N,08006.6071,W,1,9,1.7,15,M,,M,,*5E
06/24/2015	04:09:54.538	$GPGGA,040955,2522.5416,N,08006.6073,W,1,9,1.7,15,M,,M,,*5B
06/24/2015	04:09:55.568	$GPGGA,040956,2522.5408,N,08006.6073,W,1,9,1.7,15,M,,M,,*57
06/24/2015	04:09:56.518	$GPGGA,040957,2522.5400,N,08006.6076,W,1,9,1.7,15,M,,M,,*5B
06/24/2015	04:09:57.547	$GPGGA,040958,2522.5392,N,08006.6077,W,1,9,1.7,15,M,,M,,*59
06/24/2015	04:09:58.529	$GPGGA,040959,2522.5385,N,08006.6080,W,1,9,1.7,15,M,,M,,*56
06/24/2015	04:09:59.567	$GPGGA,041000,2522.5376,N,08006.6081,W,1,9,1.7,15,M,,M,,*5F
06/24/2015	04:10:00.537	$GPGGA,041001,2522.5368,N,08006.6082,W,1,9,1.7,15,M,,M,,*52
06/24/2015	04:10:01.667	$GPGGA,041002,2522.5359,N,08006.6085,W,1,9,1.7,15,M,,M,,*54
06/24/2015	04:10:02.527	$GPGGA,041003,2522.5351,N,08006.6087,W,1,9,1.7,15,M,,M,,*5F
06/24/2015	04:10:03.529	$GPGGA,041004,2522.5342,N,08006.6088,W,1,9,1.7,15,M,,M,,*55
06/24/2015	04:10:04.497	$GPGGA,041005,2522.5334,N,08006.6089,W,1,9,1.7,15,M,,M,,*54
06/24/2015	04:10:05.508	$GPGGA,041006,2522.5324,N,08006.6092,W,1,9,1.7,15,M,,M,,*5C
06/24/2015	04:10:06.508	$GPGGA,041007,2522.5316,N,08006.6094,W,1,9,2.0,15,M,,M,,*5E
06/24/2015	04:10:07.518	$GPGGA,041008,2522.5306,N,08006.6095,W,1,9,1.7,15,M,,M,,*55
06/24/2015	04:10:08.498	$GPGGA,041009,2522.5298,N,08006.6098,W,1,9,1.7,15,M,,M,,*5F
06/24/2015	04:10:09.643	$GPGGA,041010,2522.5291,N,08006.6100,W,1,9,1.7,15,M,,M,,*5E
06/24/2015	04:10:10.498	$GPGGA,041011,2522.5281,N,08006.6102,W,1,9,1.7,15,M,,M,,*5C
06/24/2015	04:10:11.531	$GPGGA,041012,2522.5273,N,08006.6105,W,1,9,1.7,15,M,,M,,*55
06/24/2015	04:10:12.508	$GPGGA,041013,2522.5266,N,08006.6106,W,1,9,1.7,15,M,,M,,*53
06/24/2015	04:10:13.498	$GPGGA,041014,2522.5257,N,08006.6109,W,1,9,1.7,15,M,,M,,*59
06/24/2015	04:10:14.577	$GPGGA,041015,2522.5248,N,08006.6110,W,1,9,1.7,15,M,,M,,*5E
06/24/2015	04:10:15.657	$GPGGA,041016,2522.5241,N,08006.6113,W,1,9,1.7,15,M,,M,,*57
06/24/2015	04:10:16.647	$GPGGA,041017,2522.5233,N,08006.6114,W,1,9,1.7,15,M,,M,,*54
06/24/2015	04:10:17.597	$GPGGA,041018,2522.5226,N,08006.6116,W,1,9,1.7,15,M,,M,,*5D
06/24/2015	04:10:18.487	$GPGGA,041019,2522.5216,N,08006.6118,W,1,9,1.7,15,M,,M,,*51
06/24/2015	04:10:19.587	$GPGGA,041020,2522.5209,N,08006.6121,W,1,9,1.7,15,M,,M,,*5F
06/24/2015	04:10:20.567	$GPGGA,041021,2522.5201,N,08006.6123,W,1,9,1.7,15,M,,M,,*54
06/24/2015	04:10:21.617	$GPGGA,041022,2522.5191,N,08006.6125,W,1,9,2.0,15,M,,M,,*5F
06/24/2015	04:10:22.567	$GPGGA,041023,2522.5182,N,08006.6127,W,1,9,2.0,15,M,,M,,*5E
06/24/2015	04:10:23.658	$GPGGA,041024,2522.5175,N,08006.6128,W,1,8,1.7,15,M,,M,,*5B
06/24/2015	04:10:24.568	$GPGGA,041025,2522.5168,N,08006.6131,W,1,8,1.7,15,M,,M,,*5E
06/24/2015	04:10:25.598	$GPGGA,041026,2522.5159,N,08006.6134,W,1,9,1.7,15,M,,M,,*5B
06/24/2015	04:10:26.639	$GPGGA,041027,2522.5150,N,08006.6134,W,1,9,1.7,15,M,,M,,*53
06/24/2015	04:10:27.658	$GPGGA,041028,2522.5143,N,08006.6136,W,1,9,1.7,15,M,,M,,*5C
06/24/2015	04:10:28.558	$GPGGA,041029,2522.5134,N,08006.6141,W,1,9,1.7,15,M,,M,,*5D
06/24/2015	04:10:29.598	$GPGGA,041030,2522.5129,N,08006.6142,W,1,8,2.0,15,M,,M,,*5F
06/24/2015	04:10:30.629	$GPGGA,041031,2522.5123,N,08006.6142,W,1,8,1.7,15,M,,M,,*50
06/24/2015	04:10:31.598	$GPGGA,041032,2522.5116,N,08006.6145,W,1,9,1.7,15,M,,M,,*53
06/24/2015	04:10:32.547	$GPGGA,041033,2522.5108,N,08006.6147,W,1,9,1.7,15,M,,M,,*5F
06/24/2015	04:10:33.587	$GPGGA,041034,2522.5100,N,08006.6149,W,1,9,1.7,15,M,,M,,*5E
06/24/2015	04:10:34.538	$GPGGA,041035,2522.5093,N,08006.6150,W,1,9,1.7,15,M,,M,,*5C
06/24/2015	04:10:35.547	$GPGGA,041036,2522.5085,N,08006.6153,W,1,9,1.7,15,M,,M,,*5B
06/24/2015	04:10:36.597	$GPGGA,041037,2522.5078,N,08006.6154,W,1,9,1.7,15,M,,M,,*5F
06/24/2015	04:10:37.577	$GPGGA,041038,2522.5068,N,08006.6156,W,1,9,1.7,15,M,,M,,*53
06/24/2015	04:10:38.597	$GPGGA,041039,2522.5060,N,08006.6160,W,1,9,1.7,15,M,,M,,*5F
06/24/2015	04:10:39.587	$GPGGA,041040,2522.5052,N,08006.6159,W,1,9,1.7,15,M,,M,,*5A
06/24/2015	04:10:40.588	$GPGGA,041041,2522.5042,N,08006.6160,W,1,9,2.0,16,M,,M,,*57
06/24/2015	04:10:41.548	$GPGGA,041042,2522.5034,N,08006.6164,W,1,8,1.7,16,M,,M,,*54
06/24/2015	04:10:42.588	$GPGGA,041043,2522.5025,N,08006.6164,W,1,8,1.7,16,M,,M,,*55
06/24/2015	04:10:43.633	$GPGGA,041044,2522.5017,N,08006.6165,W,1,9,1.7,16,M,,M,,*53
06/24/2015	04:10:44.578	$GPGGA,041045,2522.5010,N,08006.6167,W,1,9,1.7,16,M,,M,,*57
06/24/2015	04:10:45.608	$GPGGA,041046,2522.5000,N,08006.6170,W,1,9,1.7,16,M,,M,,*53
06/24/2015	04:10:46.518	$GPGGA,041047,2522.4992,N,08006.6171,W,1,9,1.7,16,M,,M,,*50
06/24/2015	04:10:47.648	$GPGGA,041048,2522.4985,N,08006.6172,W,1,9,1.7,16,M,,M,,*5A
06/24/2015	04:10:48.578	$GPGGA,041049,2522.4975,N,08006.6174,W,1,9,2.0,16,M,,M,,*56
06/24/2015	04:10:49.557	$GPGGA,041050,2522.4966,N,08006.6176,W,1,8,1.7,16,M,,M,,*5B
06/24/2015	04:10:50.577	$GPGGA,041051,2522.4956,N,08006.6178,W,1,8,1.7,16,M,,M,,*57
06/24/2015	04:10:51.607	$GPGGA,041052,2522.4946,N,08006.6179,W,1,9,1.7,16,M,,M,,*55
06/24/2015	04:10:52.507	$GPGGA,041053,2522.4937,N,08006.6181,W,1,9,1.7,16,M,,M,,*55
06/24/2015	04:10:53.545	$GPGGA,041054,2522.4927,N,08006.6183,W,1,9,1.7,15,M,,M,,*52
06/24/2015	04:10:54.567	$GPGGA,041055,2522.4919,N,08006.6185,W,1,9,1.7,15,M,,M,,*58
06/24/2015	04:10:55.567	$GPGGA,041056,2522.4911,N,08006.6186,W,1,9,1.7,15,M,,M,,*50
06/24/2015	04:10:56.567	$GPGGA,041057,2522.4902,N,08006.6189,W,1,9,1.7,15,M,,M,,*5C
06/24/2015	04:10:57.540	$GPGGA,041058,2522.4894,N,08006.6190,W,1,9,1.7,15,M,,M,,*55
06/24/2015	04:10:58.558	$GPGGA,041059,2522.4885,N,08006.6192,W,1,9,1.7,15,M,,M,,*56
06/24/2015	04:10:59.578	$GPGGA,041100,2522.4876,N,08006.6193,W,1,9,1.7,15,M,,M,,*56
06/24/2015	04:11:00.558	$GPGGA,041101,2522.4867,N,08006.6194,W,1,9,1.7,15,M,,M,,*50
06/24/2015	04:11:01.598	$GPGGA,041102,2522.4861,N,08006.6196,W,1,9,1.7,15,M,,M,,*57
06/24/2015	04:11:02.588	$GPGGA,041103,2522.4850,N,08006.6197,W,1,9,2.0,15,M,,M,,*51
06/24/2015	04:11:03.488	$GPGGA,041104,2522.4841,N,08006.6199,W,1,8,2.0,15,M,,M,,*59
06/24/2015	04:11:04.478	$GPGGA,041105,2522.4836,N,08006.6201,W,1,8,2.0,15,M,,M,,*5A
06/24/2015	04:11:05.608	$GPGGA,041106,2522.4829,N,08006.6203,W,1,9,1.7,15,M,,M,,*50
06/24/2015	04:11:06.549	$GPGGA,041107,2522.4819,N,08006.6202,W,1,9,2.0,15,M,,M,,*57
06/24/2015	04:11:07.557	$GPGGA,041108,2522.4814,N,08006.6207,W,1,8,1.7,15,M,,M,,*55
06/24/2015	04:11:08.567	$GPGGA,041109,2522.4805,N,08006.6208,W,1,8,1.7,15,M,,M,,*5B
06/24/2015	04:11:09.567	$GPGGA,041110,2522.4798,N,08006.6208,W,1,9,1.7,15,M,,M,,*59
06/24/2015	04:11:10.577	$GPGGA,041111,2522.4789,N,08006.6210,W,1,9,2.0,15,M,,M,,*55
06/24/2015	04:11:11.587	$GPGGA,041112,2522.4779,N,08006.6214,W,1,8,1.7,15,M,,M,,*58
06/24/2015	04:11:12.577	$GPGGA,041113,2522.4771,N,08006.6215,W,1,8,2.0,15,M,,M,,*54
06/24/2015	04:11:13.597	$GPGGA,041114,2522.4763,N,08006.6217,W,1,8,1.7,15,M,,M,,*56
06/24/2015	04:11:14.567	$GPGGA,041115,2522.4754,N,08006.6217,W,1,8,1.7,15,M,,M,,*53
06/24/2015	04:11:15.618	$GPGGA,041116,2522.4747,N,08006.6221,W,1,9,1.7,15,M,,M,,*56
06/24/2015	04:11:16.630	$GPGGA,041117,2522.4747,N,08006.6221,W,1,9,1.7,15,M,,M,,*57
06/24/2015	04:11:17.578	$GPGGA,041118,2522.4731,N,08006.6223,W,1,9,1.7,15,M,,M,,*5B
06/24/2015	04:11:18.568	$GPGGA,041119,2522.4721,N,08006.6226,W,1,9,2.0,15,M,,M,,*5A
06/24/2015	04:11:19.588	$GPGGA,041120,2522.4711,N,08006.6228,W,1,8,1.7,15,M,,M,,*58
06/24/2015	04:11:20.548	$GPGGA,041121,2522.4702,N,08006.6229,W,1,8,1.7,14,M,,M,,*5B
06/24/2015	04:11:21.568	$GPGGA,041122,2522.4695,N,08006.6232,W,1,9,1.7,14,M,,M,,*5C
06/24/2015	04:11:22.558	$GPGGA,041123,2522.4685,N,08006.6235,W,1,9,2.0,14,M,,M,,*5F
06/24/2015	04:11:23.588	$GPGGA,041124,2522.4678,N,08006.6236,W,1,8,1.7,14,M,,M,,*5C
06/24/2015	04:11:24.557	$GPGGA,041125,2522.4673,N,08006.6239,W,1,8,1.7,14,M,,M,,*59
06/24/2015	04:11:25.567	$GPGGA,041126,2522.4663,N,08006.6239,W,1,9,2.0,14,M,,M,,*5E
06/24/2015	04:11:26.541	$GPGGA,041127,2522.4663,N,08006.6239,W,1,9,2.0,14,M,,M,,*5F
06/24/2015	04:11:27.577	$GPGGA,041128,2522.4645,N,08006.6244,W,1,8,1.7,14,M,,M,,*5B
06/24/2015	04:11:28.557	$GPGGA,041129,2522.4637,N,08006.6246,W,1,8,2.0,14,M,,M,,*59
06/24/2015	04:11:29.587	$GPGGA,041130,2522.4630,N,08006.6248,W,1,8,1.7,14,M,,M,,*5C
06/24/2015	04:11:30.577	$GPGGA,041131,2522.4622,N,08006.6251,W,1,8,1.7,14,M,,M,,*56
06/24/2015	04:11:31.539	$GPGGA,041132,2522.4612,N,08006.6251,W,1,9,1.7,14,M,,M,,*57
06/24/2015	04:11:32.557	$GPGGA,041133,2522.4604,N,08006.6254,W,1,9,1.7,14,M,,M,,*54
06/24/2015	04:11:33.528	$GPGGA,041134,2522.4596,N,08006.6257,W,1,9,1.7,14,M,,M,,*58
06/24/2015	04:11:34.558	$GPGGA,041135,2522.4588,N,08006.6258,W,1,9,1.7,14,M,,M,,*59
06/24/2015	04:11:35.568	$GPGGA,041136,2522.4580,N,08006.6259,W,1,9,1.7,14,M,,M,,*53
06/24/2015	04:11:36.558	$GPGGA,041137,2522.4570,N,08006.6262,W,1,9,2.0,14,M,,M,,*51
06/24/2015	04:11:37.558	$GPGGA,041138,2522.4561,N,08006.6264,W,1,8,1.7,14,M,,M,,*5D
06/24/2015	04:11:38.538	$GPGGA,041139,2522.4551,N,08006.6265,W,1,8,2.0,14,M,,M,,*5A
06/24/2015	04:11:39.538	$GPGGA,041140,2522.4547,N,08006.6268,W,1,8,2.0,14,M,,M,,*5E
06/24/2015	04:11:40.518	$GPGGA,041141,2522.4547,N,08006.6268,W,1,8,1.7,14,M,,M,,*5B
06/24/2015	04:11:41.529	$GPGGA,041142,2522.4529,N,08006.6270,W,1,9,1.7,14,M,,M,,*58
06/24/2015	04:11:42.547	$GPGGA,041143,2522.4519,N,08006.6273,W,1,9,1.7,14,M,,M,,*59
06/24/2015	04:11:43.650	$GPGGA,041144,2522.4510,N,08006.6276,W,1,9,1.7,14,M,,M,,*52
06/24/2015	04:11:44.547	$GPGGA,041145,2522.4510,N,08006.6276,W,1,9,1.7,14,M,,M,,*53
06/24/2015	04:11:45.507	$GPGGA,041146,2522.4491,N,08006.6279,W,1,9,1.7,14,M,,M,,*57
06/24/2015	04:11:46.497	$GPGGA,041147,2522.4491,N,08006.6279,W,1,9,2.0,14,M,,M,,*52
