Software Version Number: 1	Data File Format Number: 1	Build Version Number: 1	Error Count Since VI Started: 3	Manufacturer: Raytheon	 Model Number: RayMarine 120	 S/N: 	 Cal Date: 	 Wind Direction Offset: 0.00	 Slope (M)1: 0.00	 Offset (B)1: 0.00	 Slope (M)2: 0.00	 Offset (B)2: 0.00	 Slope (M)3: 0.00	 Offset (B)3: 0.00	 Slope (M)4: 0.00	 Offset (B)4: 0.00	 Slope (M)5: 0.00	 Offset (B)5: 0.00	 Slope (M)6: 0.00	 Offset (B)6: 0.00
Computer Date	Computer Time	GGA String
06/26/2015	05:00:00.503	$GPGGA,050001,2548.5374,N,07955.0235,W,1,7,2.0,16,M,,M,,*52
06/26/2015	05:00:01.506	$GPGGA,050002,2548.5365,N,07955.0238,W,1,7,1.9,16,M,,M,,*56
06/26/2015	05:00:02.502	$GPGGA,050003,2548.5358,N,07955.0243,W,1,7,1.9,16,M,,M,,*55
06/26/2015	05:00:03.523	$GPGGA,050004,2548.5350,N,07955.0247,W,1,8,1.9,16,M,,M,,*51
06/26/2015	05:00:04.961	$GPGGA,050005,2548.5342,N,07955.0253,W,1,8,1.9,16,M,,M,,*56
06/26/2015	05:00:05.571	$GPGGA,050006,2548.5334,N,07955.0256,W,1,8,2.0,16,M,,M,,*5B
06/26/2015	05:00:06.570	$GPGGA,050007,2548.5327,N,07955.0261,W,1,8,1.9,16,M,,M,,*56
06/26/2015	05:00:07.581	$GPGGA,050008,2548.5320,N,07955.0265,W,1,8,1.9,16,M,,M,,*5A
06/26/2015	05:00:08.571	$GPGGA,050009,2548.5313,N,07955.0271,W,1,8,1.9,16,M,,M,,*5E
06/26/2015	05:00:09.571	$GPGGA,050010,2548.5303,N,07955.0275,W,1,8,1.9,16,M,,M,,*53
06/26/2015	05:00:10.571	$GPGGA,050011,2548.5295,N,07955.0278,W,1,8,1.9,16,M,,M,,*51
06/26/2015	05:00:11.591	$GPGGA,050012,2548.5288,N,07955.0283,W,1,8,1.9,17,M,,M,,*5B
06/26/2015	05:00:12.491	$GPGGA,050013,2548.5278,N,07955.0286,W,1,8,2.0,17,M,,M,,*5A
06/26/2015	05:00:13.561	$GPGGA,050014,2548.5270,N,07955.0290,W,1,7,1.9,17,M,,M,,*57
06/26/2015	05:00:14.551	$GPGGA,050015,2548.5262,N,07955.0293,W,1,7,1.9,17,M,,M,,*56
06/26/2015	05:00:15.581	$GPGGA,050016,2548.5255,N,07955.0298,W,1,8,1.9,17,M,,M,,*55
06/26/2015	05:00:16.561	$GPGGA,050017,2548.5245,N,07955.0300,W,1,8,2.0,17,M,,M,,*5F
06/26/2015	05:00:17.551	$GPGGA,050018,2548.5237,N,07955.0303,W,1,7,2.0,17,M,,M,,*59
06/26/2015	05:00:18.551	$GPGGA,050019,2548.5228,N,07955.0307,W,1,7,2.0,17,M,,M,,*52
06/26/2015	05:00:19.561	$GPGGA,050020,2548.5219,N,07955.0309,W,1,7,1.9,17,M,,M,,*5E
06/26/2015	05:00:20.551	$GPGGA,050021,2548.5210,N,07955.0312,W,1,7,1.9,17,M,,M,,*5C
06/26/2015	05:00:21.551	$GPGGA,050022,2548.5202,N,07955.0316,W,1,7,1.9,17,M,,M,,*58
06/26/2015	05:00:22.551	$GPGGA,050023,2548.5194,N,07955.0318,W,1,7,1.9,17,M,,M,,*5B
06/26/2015	05:00:23.590	$GPGGA,050024,2548.5186,N,07955.0322,W,1,7,2.1,17,M,,M,,*5D
06/26/2015	05:00:24.550	$GPGGA,050025,2548.5177,N,07955.0325,W,1,7,2.1,17,M,,M,,*55
06/26/2015	05:00:25.541	$GPGGA,050026,2548.5168,N,07955.0327,W,1,7,2.1,17,M,,M,,*5A
06/26/2015	05:00:26.541	$GPGGA,050027,2548.5159,N,07955.0330,W,1,7,2.1,17,M,,M,,*5F
06/26/2015	05:00:27.561	$GPGGA,050028,2548.5150,N,07955.0333,W,1,8,2.1,17,M,,M,,*55
06/26/2015	05:00:28.561	$GPGGA,050029,2548.5143,N,07955.0337,W,1,8,2.1,17,M,,M,,*52
06/26/2015	05:00:29.551	$GPGGA,050030,2548.5134,N,07955.0340,W,1,8,1.9,16,M,,M,,*50
06/26/2015	05:00:30.531	$GPGGA,050031,2548.5126,N,07955.0344,W,1,8,1.9,16,M,,M,,*56
06/26/2015	05:00:31.571	$GPGGA,050032,2548.5118,N,07955.0347,W,1,8,1.9,16,M,,M,,*5B
06/26/2015	05:00:32.541	$GPGGA,050033,2548.5110,N,07955.0350,W,1,8,1.9,16,M,,M,,*54
06/26/2015	05:00:33.519	$GPGGA,050034,2548.5103,N,07955.0354,W,1,8,1.9,16,M,,M,,*55
06/26/2015	05:00:34.531	$GPGGA,050035,2548.5096,N,07955.0358,W,1,8,1.9,16,M,,M,,*55
06/26/2015	05:00:35.561	$GPGGA,050036,2548.5087,N,07955.0361,W,1,8,1.9,16,M,,M,,*5C
06/26/2015	05:00:36.531	$GPGGA,050037,2548.5079,N,07955.0363,W,1,8,1.9,16,M,,M,,*5E
06/26/2015	05:00:37.518	$GPGGA,050038,2548.5070,N,07955.0368,W,1,8,1.9,16,M,,M,,*53
06/26/2015	05:00:38.516	$GPGGA,050039,2548.5062,N,07955.0370,W,1,8,1.9,16,M,,M,,*58
06/26/2015	05:00:39.531	$GPGGA,050040,2548.5053,N,07955.0373,W,1,8,1.9,16,M,,M,,*57
06/26/2015	05:00:40.521	$GPGGA,050041,2548.5045,N,07955.0376,W,1,8,1.9,16,M,,M,,*54
06/26/2015	05:00:41.620	$GPGGA,050042,2548.5038,N,07955.0379,W,1,8,1.9,16,M,,M,,*52
06/26/2015	05:00:42.501	$GPGGA,050043,2548.5029,N,07955.0383,W,1,8,1.9,16,M,,M,,*56
06/26/2015	05:00:43.621	$GPGGA,050044,2548.5021,N,07955.0386,W,1,8,1.9,16,M,,M,,*5C
06/26/2015	05:00:44.615	$GPGGA,050045,2548.5013,N,07955.0388,W,1,8,1.9,16,M,,M,,*52
06/26/2015	05:00:45.501	$GPGGA,050046,2548.5004,N,07955.0391,W,1,8,1.9,16,M,,M,,*5F
06/26/2015	05:00:46.491	$GPGGA,050047,2548.4996,N,07955.0394,W,1,8,1.9,16,M,,M,,*58
06/26/2015	05:00:47.521	$GPGGA,050048,2548.4988,N,07955.0397,W,1,8,1.9,16,M,,M,,*5B
06/26/2015	05:00:48.481	$GPGGA,050049,2548.4980,N,07955.0401,W,1,8,1.9,16,M,,M,,*5A
06/26/2015	05:00:49.502	$GPGGA,050050,2548.4971,N,07955.0404,W,1,8,1.9,16,M,,M,,*59
06/26/2015	05:00:50.604	$GPGGA,050051,2548.4963,N,07955.0406,W,1,8,1.9,16,M,,M,,*59
06/26/2015	05:00:51.516	$GPGGA,050052,2548.4955,N,07955.0409,W,1,8,1.9,16,M,,M,,*50
06/26/2015	05:00:52.571	$GPGGA,050053,2548.4946,N,07955.0412,W,1,8,1.9,16,M,,M,,*59
06/26/2015	05:00:53.581	$GPGGA,050054,2548.4937,N,07955.0415,W,1,8,1.9,16,M,,M,,*5F
06/26/2015	05:00:54.491	$GPGGA,050055,2548.4928,N,07955.0417,W,1,8,1.9,16,M,,M,,*52
06/26/2015	05:00:55.481	$GPGGA,050056,2548.4921,N,07955.0421,W,1,7,2.1,16,M,,M,,*59
06/26/2015	05:00:56.571	$GPGGA,050057,2548.4913,N,07955.0426,W,1,7,1.9,16,M,,M,,*55
06/26/2015	05:00:57.603	$GPGGA,050058,2548.4905,N,07955.0430,W,1,8,1.9,16,M,,M,,*55
06/26/2015	05:00:58.480	$GPGGA,050059,2548.4897,N,07955.0433,W,1,8,1.9,16,M,,M,,*5D
06/26/2015	05:00:59.640	$GPGGA,050100,2548.4887,N,07955.0435,W,1,8,1.9,16,M,,M,,*57
06/26/2015	05:01:00.471	$GPGGA,050101,2548.4879,N,07955.0438,W,1,8,2.1,16,M,,M,,*51
06/26/2015	05:01:01.561	$GPGGA,050102,2548.4868,N,07955.0441,W,1,7,2.1,16,M,,M,,*53
06/26/2015	05:01:02.571	$GPGGA,050103,2548.4859,N,07955.0444,W,1,7,2.1,16,M,,M,,*55
06/26/2015	05:01:03.571	$GPGGA,050104,2548.4850,N,07955.0446,W,1,7,2.1,16,M,,M,,*59
06/26/2015	05:01:04.561	$GPGGA,050105,2548.4841,N,07955.0449,W,1,7,2.1,16,M,,M,,*57
06/26/2015	05:01:05.571	$GPGGA,050106,2548.4833,N,07955.0452,W,1,7,2.1,16,M,,M,,*5B
06/26/2015	05:01:06.551	$GPGGA,050107,2548.4825,N,07955.0456,W,1,7,2.1,16,M,,M,,*59
06/26/2015	05:01:07.581	$GPGGA,050108,2548.4816,N,07955.0459,W,1,8,1.9,16,M,,M,,*5D
06/26/2015	05:01:08.561	$GPGGA,050109,2548.4807,N,07955.0462,W,1,8,2.1,16,M,,M,,*5F
06/26/2015	05:01:09.571	$GPGGA,050110,2548.4799,N,07955.0466,W,1,8,1.9,16,M,,M,,*50
06/26/2015	05:01:10.541	$GPGGA,050111,2548.4792,N,07955.0471,W,1,8,2.1,16,M,,M,,*57
06/26/2015	05:01:11.581	$GPGGA,050112,2548.4786,N,07955.0477,W,1,8,1.9,16,M,,M,,*5C
06/26/2015	05:01:12.541	$GPGGA,050113,2548.4778,N,07955.0480,W,1,8,1.9,16,M,,M,,*54
06/26/2015	05:01:13.521	$GPGGA,050114,2548.4769,N,07955.0484,W,1,7,2.1,16,M,,M,,*53
06/26/2015	05:01:14.531	$GPGGA,050115,2548.4760,N,07955.0488,W,1,7,2.1,16,M,,M,,*57
06/26/2015	05:01:15.561	$GPGGA,050116,2548.4753,N,07955.0492,W,1,7,2.1,16,M,,M,,*5F
06/26/2015	05:01:16.520	$GPGGA,050117,2548.4744,N,07955.0495,W,1,7,2.1,16,M,,M,,*5F
06/26/2015	05:01:17.510	$GPGGA,050118,2548.4736,N,07955.0500,W,1,7,2.1,16,M,,M,,*58
06/26/2015	05:01:18.510	$GPGGA,050119,2548.4729,N,07955.0506,W,1,7,1.9,16,M,,M,,*5A
06/26/2015	05:01:19.520	$GPGGA,050120,2548.4721,N,07955.0509,W,1,8,1.9,16,M,,M,,*58
06/26/2015	05:01:20.520	$GPGGA,050121,2548.4713,N,07955.0514,W,1,8,1.9,16,M,,M,,*54
06/26/2015	05:01:21.530	$GPGGA,050122,2548.4706,N,07955.0518,W,1,8,1.9,16,M,,M,,*5F
06/26/2015	05:01:22.501	$GPGGA,050123,2548.4697,N,07955.0521,W,1,8,1.9,16,M,,M,,*5D
06/26/2015	05:01:23.520	$GPGGA,050124,2548.4689,N,07955.0525,W,1,8,1.9,16,M,,M,,*51
06/26/2015	05:01:24.510	$GPGGA,050125,2548.4681,N,07955.0531,W,1,8,1.9,16,M,,M,,*5D
06/26/2015	05:01:25.504	$GPGGA,050126,2548.4673,N,07955.0533,W,1,8,1.9,16,M,,M,,*51
06/26/2015	05:01:26.520	$GPGGA,050127,2548.4664,N,07955.0538,W,1,8,2.1,16,M,,M,,*56
06/26/2015	05:01:27.540	$GPGGA,050128,2548.4657,N,07955.0540,W,1,7,2.1,16,M,,M,,*59
06/26/2015	05:01:28.511	$GPGGA,050129,2548.4650,N,07955.0546,W,1,7,2.1,16,M,,M,,*59
06/26/2015	05:01:29.615	$GPGGA,050130,2548.4643,N,07955.0550,W,1,8,2.0,16,M,,M,,*5A
06/26/2015	05:01:30.511	$GPGGA,050131,2548.4635,N,07955.0554,W,1,8,2.0,16,M,,M,,*5E
06/26/2015	05:01:31.531	$GPGGA,050132,2548.4626,N,07955.0557,W,1,7,2.1,16,M,,M,,*52
06/26/2015	05:01:32.501	$GPGGA,050133,2548.4619,N,07955.0561,W,1,7,2.1,16,M,,M,,*5A
06/26/2015	05:01:33.492	$GPGGA,050134,2548.4609,N,07955.0564,W,1,7,2.1,16,M,,M,,*59
06/26/2015	05:01:34.501	$GPGGA,050135,2548.4601,N,07955.0567,W,1,7,2.1,16,M,,M,,*53
06/26/2015	05:01:35.507	$GPGGA,050136,2548.4595,N,07955.0572,W,1,7,2.1,16,M,,M,,*5A
06/26/2015	05:01:36.494	$GPGGA,050137,2548.4587,N,07955.0575,W,1,7,2.0,16,M,,M,,*5E
06/26/2015	05:01:37.470	$GPGGA,050138,2548.4579,N,07955.0578,W,1,7,2.1,16,M,,M,,*5C
06/26/2015	05:01:38.480	$GPGGA,050139,2548.4572,N,07955.0582,W,1,7,2.0,16,M,,M,,*52
06/26/2015	05:01:39.500	$GPGGA,050140,2548.4565,N,07955.0585,W,1,8,2.0,16,M,,M,,*52
06/26/2015	05:01:40.470	$GPGGA,050141,2548.4556,N,07955.0589,W,1,8,2.0,16,M,,M,,*5F
06/26/2015	05:01:41.480	$GPGGA,050142,2548.4548,N,07955.0592,W,1,8,2.0,16,M,,M,,*59
06/26/2015	05:01:42.580	$GPGGA,050143,2548.4540,N,07955.0594,W,1,8,2.0,16,M,,M,,*56
06/26/2015	05:01:43.580	$GPGGA,050144,2548.4533,N,07955.0598,W,1,8,2.0,16,M,,M,,*59
06/26/2015	05:01:44.480	$GPGGA,050145,2548.4525,N,07955.0603,W,1,8,2.0,16,M,,M,,*5E
06/26/2015	05:01:45.570	$GPGGA,050146,2548.4518,N,07955.0605,W,1,7,2.1,16,M,,M,,*5B
06/26/2015	05:01:46.561	$GPGGA,050147,2548.4509,N,07955.0608,W,1,7,2.0,16,M,,M,,*56
06/26/2015	05:01:47.571	$GPGGA,050148,2548.4501,N,07955.0612,W,1,8,2.0,16,M,,M,,*55
06/26/2015	05:01:48.561	$GPGGA,050149,2548.4494,N,07955.0615,W,1,8,2.0,16,M,,M,,*5E
06/26/2015	05:01:49.551	$GPGGA,050150,2548.4486,N,07955.0619,W,1,8,2.0,16,M,,M,,*59
06/26/2015	05:01:50.551	$GPGGA,050151,2548.4479,N,07955.0622,W,1,8,2.0,16,M,,M,,*50
06/26/2015	05:01:51.560	$GPGGA,050152,2548.4471,N,07955.0626,W,1,8,2.0,16,M,,M,,*5F
06/26/2015	05:01:52.540	$GPGGA,050153,2548.4464,N,07955.0629,W,1,8,2.0,16,M,,M,,*55
06/26/2015	05:01:53.560	$GPGGA,050154,2548.4455,N,07955.0632,W,1,8,2.0,16,M,,M,,*5A
06/26/2015	05:01:54.550	$GPGGA,050155,2548.4447,N,07955.0636,W,1,8,2.0,16,M,,M,,*5C
06/26/2015	05:01:55.550	$GPGGA,050156,2548.4439,N,07955.0639,W,1,8,2.0,16,M,,M,,*59
06/26/2015	05:01:56.550	$GPGGA,050157,2548.4431,N,07955.0641,W,1,8,2.0,16,M,,M,,*5F
06/26/2015	05:01:57.560	$GPGGA,050158,2548.4424,N,07955.0644,W,1,8,2.0,16,M,,M,,*51
06/26/2015	05:01:58.540	$GPGGA,050159,2548.4417,N,07955.0647,W,1,8,2.0,16,M,,M,,*53
06/26/2015	05:01:59.591	$GPGGA,050200,2548.4407,N,07955.0650,W,1,8,2.0,16,M,,M,,*5B
06/26/2015	05:02:00.530	$GPGGA,050201,2548.4400,N,07955.0654,W,1,8,2.0,16,M,,M,,*59
06/26/2015	05:02:01.540	$GPGGA,050202,2548.4392,N,07955.0657,W,1,8,2.0,16,M,,M,,*55
06/26/2015	05:02:02.530	$GPGGA,050203,2548.4384,N,07955.0659,W,1,8,2.0,16,M,,M,,*5D
06/26/2015	05:02:03.561	$GPGGA,050204,2548.4377,N,07955.0661,W,1,8,2.0,16,M,,M,,*5D
06/26/2015	05:02:04.521	$GPGGA,050205,2548.4368,N,07955.0665,W,1,8,2.0,16,M,,M,,*56
06/26/2015	05:02:05.551	$GPGGA,050206,2548.4359,N,07955.0668,W,1,8,2.0,16,M,,M,,*5A
06/26/2015	05:02:06.521	$GPGGA,050207,2548.4352,N,07955.0670,W,1,8,2.0,16,M,,M,,*59
06/26/2015	05:02:07.551	$GPGGA,050208,2548.4342,N,07955.0673,W,1,8,2.0,16,M,,M,,*54
06/26/2015	05:02:08.520	$GPGGA,050209,2548.4334,N,07955.0676,W,1,8,2.0,16,M,,M,,*51
06/26/2015	05:02:09.510	$GPGGA,050210,2548.4326,N,07955.0679,W,1,8,2.0,16,M,,M,,*55
06/26/2015	05:02:10.510	$GPGGA,050211,2548.4317,N,07955.0683,W,1,8,2.0,16,M,,M,,*53
06/26/2015	05:02:12.550	$GPGGA,050213,2548.4299,N,07955.0688,W,1,8,2.1,16,M,,M,,*5C
06/26/2015	05:02:13.540	$GPGGA,050214,2548.4291,N,07955.0693,W,1,7,2.1,16,M,,M,,*56
06/26/2015	05:02:14.510	$GPGGA,050215,2548.4283,N,07955.0695,W,1,7,2.0,16,M,,M,,*53
06/26/2015	05:02:15.520	$GPGGA,050216,2548.4274,N,07955.0698,W,1,7,2.1,16,M,,M,,*54
06/26/2015	05:02:16.490	$GPGGA,050217,2548.4266,N,07955.0701,W,1,7,2.1,16,M,,M,,*57
06/26/2015	05:02:17.503	$GPGGA,050218,2548.4258,N,07955.0704,W,1,8,2.0,16,M,,M,,*5E
06/26/2015	05:02:18.593	$GPGGA,050219,2548.4250,N,07955.0708,W,1,8,2.0,16,M,,M,,*5B
06/26/2015	05:02:19.540	$GPGGA,050220,2548.4241,N,07955.0712,W,1,8,2.0,16,M,,M,,*5A
06/26/2015	05:02:20.500	$GPGGA,050221,2548.4233,N,07955.0715,W,1,8,2.1,16,M,,M,,*58
06/26/2015	05:02:21.671	$GPGGA,050222,2548.4225,N,07955.0719,W,1,8,2.0,16,M,,M,,*51
06/26/2015	05:02:22.504	$GPGGA,050223,2548.4216,N,07955.0723,W,1,8,2.0,16,M,,M,,*59
06/26/2015	05:02:23.521	$GPGGA,050224,2548.4208,N,07955.0724,W,1,8,2.0,16,M,,M,,*56
06/26/2015	05:02:24.481	$GPGGA,050225,2548.4200,N,07955.0728,W,1,8,2.1,16,M,,M,,*52
06/26/2015	05:02:25.481	$GPGGA,050226,2548.4191,N,07955.0733,W,1,7,2.1,15,M,,M,,*5C
06/26/2015	05:02:26.570	$GPGGA,050227,2548.4183,N,07955.0735,W,1,7,2.0,15,M,,M,,*59
06/26/2015	05:02:27.490	$GPGGA,050228,2548.4175,N,07955.0740,W,1,7,2.1,15,M,,M,,*5C
06/26/2015	05:02:28.570	$GPGGA,050229,2548.4167,N,07955.0742,W,1,7,2.0,15,M,,M,,*5D
06/26/2015	05:02:29.660	$GPGGA,050230,2548.4158,N,07955.0745,W,1,7,2.1,15,M,,M,,*5F
06/26/2015	05:02:30.610	$GPGGA,050231,2548.4149,N,07955.0749,W,1,7,2.1,15,M,,M,,*52
06/26/2015	05:02:31.670	$GPGGA,050232,2548.4140,N,07955.0752,W,1,7,2.1,15,M,,M,,*52
06/26/2015	05:02:32.497	$GPGGA,050233,2548.4132,N,07955.0756,W,1,7,2.1,15,M,,M,,*52
06/26/2015	05:02:33.670	$GPGGA,050234,2548.4125,N,07955.0762,W,1,8,2.0,15,M,,M,,*5A
06/26/2015	05:02:34.600	$GPGGA,050235,2548.4117,N,07955.0764,W,1,8,2.0,15,M,,M,,*5C
06/26/2015	05:02:35.660	$GPGGA,050236,2548.4107,N,07955.0769,W,1,7,2.1,15,M,,M,,*5D
06/26/2015	05:02:36.596	$GPGGA,050237,2548.4099,N,07955.0771,W,1,7,2.1,15,M,,M,,*53
06/26/2015	05:02:37.640	$GPGGA,050238,2548.4090,N,07955.0775,W,1,7,2.1,15,M,,M,,*51
06/26/2015	05:02:38.551	$GPGGA,050239,2548.4082,N,07955.0778,W,1,7,2.1,15,M,,M,,*5E
06/26/2015	05:02:39.671	$GPGGA,050240,2548.4073,N,07955.0782,W,1,7,2.1,15,M,,M,,*5B
06/26/2015	05:02:40.541	$GPGGA,050241,2548.4066,N,07955.0785,W,1,7,2.1,15,M,,M,,*59
06/26/2015	05:02:41.641	$GPGGA,050242,2548.4056,N,07955.0788,W,1,7,2.1,15,M,,M,,*54
06/26/2015	05:02:43.670	$GPGGA,050244,2548.4041,N,07955.0798,W,1,8,2.1,15,M,,M,,*5A
06/26/2015	05:02:44.594	$GPGGA,050245,2548.4037,N,07955.0805,W,1,8,2.0,15,M,,M,,*50
06/26/2015	05:02:45.640	$GPGGA,050246,2548.4031,N,07955.0809,W,1,8,2.0,15,M,,M,,*59
06/26/2015	05:02:46.530	$GPGGA,050247,2548.4024,N,07955.0813,W,1,8,2.0,15,M,,M,,*57
06/26/2015	05:02:47.650	$GPGGA,050248,2548.4017,N,07955.0818,W,1,8,2.0,15,M,,M,,*53
06/26/2015	05:02:48.560	$GPGGA,050249,2548.4008,N,07955.0820,W,1,8,2.0,15,M,,M,,*57
06/26/2015	05:02:49.591	$GPGGA,050250,2548.3999,N,07955.0824,W,1,7,2.1,15,M,,M,,*53
06/26/2015	05:02:50.570	$GPGGA,050251,2548.3990,N,07955.0827,W,1,7,2.0,15,M,,M,,*59
06/26/2015	05:02:51.650	$GPGGA,050252,2548.3983,N,07955.0829,W,1,8,2.0,15,M,,M,,*59
06/26/2015	05:02:52.550	$GPGGA,050253,2548.3973,N,07955.0832,W,1,8,2.0,15,M,,M,,*5D
06/26/2015	05:02:53.520	$GPGGA,050254,2548.3965,N,07955.0835,W,1,8,2.0,16,M,,M,,*59
06/26/2015	05:02:54.550	$GPGGA,050255,2548.3956,N,07955.0838,W,1,8,2.0,16,M,,M,,*55
06/26/2015	05:02:55.641	$GPGGA,050256,2548.3948,N,07955.0842,W,1,8,2.0,16,M,,M,,*54
06/26/2015	05:02:56.541	$GPGGA,050257,2548.3940,N,07955.0845,W,1,8,2.0,16,M,,M,,*5A
06/26/2015	05:02:57.512	$GPGGA,050258,2548.3932,N,07955.0847,W,1,8,2.0,16,M,,M,,*52
06/26/2015	05:02:58.541	$GPGGA,050259,2548.3924,N,07955.0850,W,1,8,2.0,16,M,,M,,*52
06/26/2015	05:02:59.641	$GPGGA,050300,2548.3914,N,07955.0852,W,1,8,2.0,16,M,,M,,*5E
06/26/2015	05:03:00.531	$GPGGA,050301,2548.3906,N,07955.0856,W,1,8,2.1,16,M,,M,,*59
06/26/2015	05:03:01.570	$GPGGA,050302,2548.3900,N,07955.0858,W,1,8,2.0,16,M,,M,,*53
06/26/2015	05:03:02.530	$GPGGA,050303,2548.3891,N,07955.0861,W,1,8,2.0,16,M,,M,,*51
06/26/2015	05:03:03.510	$GPGGA,050304,2548.3884,N,07955.0865,W,1,8,2.0,16,M,,M,,*56
06/26/2015	05:03:04.530	$GPGGA,050305,2548.3875,N,07955.0867,W,1,8,2.0,16,M,,M,,*5B
06/26/2015	05:03:05.613	$GPGGA,050306,2548.3865,N,07955.0870,W,1,7,2.0,16,M,,M,,*50
06/26/2015	05:03:06.610	$GPGGA,050307,2548.3857,N,07955.0871,W,1,7,2.0,16,M,,M,,*51
06/26/2015	05:03:07.670	$GPGGA,050308,2548.3847,N,07955.0874,W,1,8,2.0,16,M,,M,,*55
06/26/2015	05:03:08.530	$GPGGA,050309,2548.3839,N,07955.0875,W,1,8,2.0,16,M,,M,,*5C
06/26/2015	05:03:09.610	$GPGGA,050310,2548.3830,N,07955.0878,W,1,8,2.0,16,M,,M,,*50
06/26/2015	05:03:10.520	$GPGGA,050311,2548.3821,N,07955.0881,W,1,8,2.0,15,M,,M,,*54
06/26/2015	05:03:11.598	$GPGGA,050312,2548.3812,N,07955.0882,W,1,8,2.0,15,M,,M,,*54
06/26/2015	05:03:12.520	$GPGGA,050313,2548.3803,N,07955.0885,W,1,8,2.0,15,M,,M,,*52
06/26/2015	05:03:13.571	$GPGGA,050314,2548.3794,N,07955.0889,W,1,8,2.0,15,M,,M,,*58
06/26/2015	05:03:14.571	$GPGGA,050315,2548.3786,N,07955.0892,W,1,8,2.0,15,M,,M,,*50
06/26/2015	05:03:15.581	$GPGGA,050316,2548.3777,N,07955.0894,W,1,8,2.0,15,M,,M,,*5B
06/26/2015	05:03:16.511	$GPGGA,050317,2548.3768,N,07955.0896,W,1,8,2.1,15,M,,M,,*57
06/26/2015	05:03:17.609	$GPGGA,050318,2548.3759,N,07955.0899,W,1,7,2.0,15,M,,M,,*5B
06/26/2015	05:03:18.510	$GPGGA,050319,2548.3750,N,07955.0900,W,1,7,2.1,15,M,,M,,*53
06/26/2015	05:03:19.570	$GPGGA,050320,2548.3741,N,07955.0903,W,1,7,2.0,15,M,,M,,*5B
06/26/2015	05:03:20.510	$GPGGA,050321,2548.3734,N,07955.0907,W,1,7,2.0,15,M,,M,,*5C
06/26/2015	05:03:21.580	$GPGGA,050322,2548.3725,N,07955.0910,W,1,8,2.1,15,M,,M,,*57
06/26/2015	05:03:22.560	$GPGGA,050323,2548.3716,N,07955.0912,W,1,8,2.0,15,M,,M,,*55
06/26/2015	05:03:23.609	$GPGGA,050324,2548.3707,N,07955.0915,W,1,8,2.1,15,M,,M,,*54
06/26/2015	05:03:25.620	$GPGGA,050326,2548.3690,N,07955.0921,W,1,7,2.1,14,M,,M,,*50
06/26/2015	05:03:26.550	$GPGGA,050327,2548.3684,N,07955.0926,W,1,7,2.0,14,M,,M,,*52
06/26/2015	05:03:27.592	$GPGGA,050328,2548.3676,N,07955.0929,W,1,8,2.1,14,M,,M,,*51
06/26/2015	05:03:28.550	$GPGGA,050329,2548.3669,N,07955.0934,W,1,8,2.0,14,M,,M,,*53
06/26/2015	05:03:29.550	$GPGGA,050330,2548.3659,N,07955.0936,W,1,8,2.1,14,M,,M,,*5B
06/26/2015	05:03:30.550	$GPGGA,050331,2548.3651,N,07955.0940,W,1,8,2.1,14,M,,M,,*53
06/26/2015	05:03:31.571	$GPGGA,050332,2548.3645,N,07955.0947,W,1,7,2.0,14,M,,M,,*5C
06/26/2015	05:03:32.551	$GPGGA,050333,2548.3636,N,07955.0950,W,1,7,2.1,14,M,,M,,*5E
06/26/2015	05:03:33.594	$GPGGA,050334,2548.3627,N,07955.0952,W,1,7,2.1,14,M,,M,,*5B
06/26/2015	05:03:34.531	$GPGGA,050335,2548.3619,N,07955.0955,W,1,7,2.1,14,M,,M,,*50
06/26/2015	05:03:35.571	$GPGGA,050336,2548.3611,N,07955.0958,W,1,7,2.1,14,M,,M,,*56
06/26/2015	05:03:36.530	$GPGGA,050337,2548.3601,N,07955.0961,W,1,7,2.1,14,M,,M,,*5C
06/26/2015	05:03:37.560	$GPGGA,050338,2548.3593,N,07955.0965,W,1,7,2.1,14,M,,M,,*5F
06/26/2015	05:03:38.520	$GPGGA,050339,2548.3584,N,07955.0968,W,1,7,2.1,14,M,,M,,*55
06/26/2015	05:03:39.570	$GPGGA,050340,2548.3575,N,07955.0970,W,1,7,2.1,14,M,,M,,*5C
06/26/2015	05:03:40.530	$GPGGA,050341,2548.3568,N,07955.0973,W,1,7,2.1,14,M,,M,,*52
06/26/2015	05:03:41.570	$GPGGA,050342,2548.3558,N,07955.0977,W,1,7,2.1,14,M,,M,,*56
06/26/2015	05:03:42.530	$GPGGA,050343,2548.3549,N,07955.0980,W,1,7,2.1,14,M,,M,,*5F
06/26/2015	05:03:43.580	$GPGGA,050344,2548.3541,N,07955.0983,W,1,7,2.1,14,M,,M,,*53
06/26/2015	05:03:44.520	$GPGGA,050345,2548.3533,N,07955.0987,W,1,7,2.1,14,M,,M,,*53
06/26/2015	05:03:45.570	$GPGGA,050346,2548.3524,N,07955.0990,W,1,7,2.1,14,M,,M,,*50
06/26/2015	05:03:46.520	$GPGGA,050347,2548.3517,N,07955.0993,W,1,7,2.1,14,M,,M,,*52
06/26/2015	05:03:47.580	$GPGGA,050348,2548.3508,N,07955.0997,W,1,7,2.1,14,M,,M,,*57
06/26/2015	05:03:48.521	$GPGGA,050349,2548.3499,N,07955.1001,W,1,7,2.1,14,M,,M,,*58
06/26/2015	05:03:49.551	$GPGGA,050350,2548.3492,N,07955.1004,W,1,7,2.1,13,M,,M,,*59
06/26/2015	05:03:50.521	$GPGGA,050351,2548.3483,N,07955.1008,W,1,7,2.1,13,M,,M,,*54
06/26/2015	05:03:51.531	$GPGGA,050352,2548.3483,N,07955.1008,W,1,7,2.1,13,M,,M,,*57
06/26/2015	05:03:52.511	$GPGGA,050353,2548.3467,N,07955.1015,W,1,7,2.1,13,M,,M,,*50
06/26/2015	05:03:53.520	$GPGGA,050354,2548.3467,N,07955.1015,W,1,7,2.1,13,M,,M,,*57
06/26/2015	05:03:54.510	$GPGGA,050355,2548.3450,N,07955.1022,W,1,7,2.1,13,M,,M,,*56
06/26/2015	05:03:55.570	$GPGGA,050356,2548.3442,N,07955.1026,W,1,7,2.1,13,M,,M,,*52
06/26/2015	05:03:56.510	$GPGGA,050357,2548.3434,N,07955.1030,W,1,7,2.1,13,M,,M,,*55
06/26/2015	05:03:57.551	$GPGGA,050358,2548.3425,N,07955.1033,W,1,7,2.1,13,M,,M,,*59
06/26/2015	05:03:58.504	$GPGGA,050359,2548.3416,N,07955.1035,W,1,7,2.1,13,M,,M,,*5E
06/26/2015	05:03:59.620	$GPGGA,050400,2548.3409,N,07955.1038,W,1,7,2.1,13,M,,M,,*56
06/26/2015	05:04:00.580	$GPGGA,050401,2548.3399,N,07955.1042,W,1,7,2.1,13,M,,M,,*54
06/26/2015	05:04:01.500	$GPGGA,050402,2548.3399,N,07955.1042,W,1,7,2.1,13,M,,M,,*57
06/26/2015	05:04:02.490	$GPGGA,050403,2548.3383,N,07955.1049,W,1,7,2.0,13,M,,M,,*57
06/26/2015	05:04:03.605	$GPGGA,050404,2548.3374,N,07955.1052,W,1,8,2.0,13,M,,M,,*5D
06/26/2015	05:04:04.480	$GPGGA,050405,2548.3367,N,07955.1056,W,1,8,2.1,13,M,,M,,*5B
06/26/2015	05:04:05.506	$GPGGA,050406,2548.3367,N,07955.1056,W,1,8,2.0,13,M,,M,,*59
06/26/2015	05:04:06.481	$GPGGA,050407,2548.3362,N,07955.1062,W,1,8,2.0,13,M,,M,,*5A
06/26/2015	05:04:07.621	$GPGGA,050408,2548.3346,N,07955.1069,W,1,8,2.0,13,M,,M,,*58
06/26/2015	05:04:08.561	$GPGGA,050409,2548.3338,N,07955.1073,W,1,8,2.0,13,M,,M,,*5B
06/26/2015	05:04:09.571	$GPGGA,050410,2548.3330,N,07955.1076,W,1,8,2.0,13,M,,M,,*5E
06/26/2015	05:04:10.471	$GPGGA,050411,2548.3322,N,07955.1080,W,1,8,2.0,13,M,,M,,*55
06/26/2015	05:04:11.580	$GPGGA,050412,2548.3315,N,07955.1082,W,1,8,2.0,13,M,,M,,*50
06/26/2015	05:04:12.560	$GPGGA,050413,2548.3306,N,07955.1085,W,1,8,2.0,13,M,,M,,*54
06/26/2015	05:04:13.603	$GPGGA,050414,2548.3298,N,07955.1089,W,1,8,2.0,14,M,,M,,*5E
06/26/2015	05:04:14.560	$GPGGA,050415,2548.3290,N,07955.1092,W,1,8,2.0,14,M,,M,,*5D
06/26/2015	05:04:15.590	$GPGGA,050416,2548.3283,N,07955.1096,W,1,8,2.0,14,M,,M,,*58
06/26/2015	05:04:16.840	$GPGGA,050417,2548.3275,N,07955.1099,W,1,8,2.0,14,M,,M,,*5F
06/26/2015	05:04:17.570	$GPGGA,050418,2548.3275,N,07955.1099,W,1,8,2.0,14,M,,M,,*50
06/26/2015	05:04:18.550	$GPGGA,050419,2548.3258,N,07955.1106,W,1,8,2.0,14,M,,M,,*59
06/26/2015	05:04:19.590	$GPGGA,050420,2548.3250,N,07955.1109,W,1,8,2.0,14,M,,M,,*54
06/26/2015	05:04:20.540	$GPGGA,050421,2548.3241,N,07955.1111,W,1,8,2.0,14,M,,M,,*5C
06/26/2015	05:04:21.560	$GPGGA,050422,2548.3233,N,07955.1116,W,1,8,2.0,14,M,,M,,*5D
06/26/2015	05:04:22.541	$GPGGA,050423,2548.3225,N,07955.1117,W,1,8,2.0,14,M,,M,,*5A
06/26/2015	05:04:23.561	$GPGGA,050424,2548.3217,N,07955.1121,W,1,8,2.0,14,M,,M,,*59
06/26/2015	05:04:24.541	$GPGGA,050425,2548.3210,N,07955.1124,W,1,8,2.0,14,M,,M,,*5A
06/26/2015	05:04:25.551	$GPGGA,050426,2548.3200,N,07955.1127,W,1,8,2.0,14,M,,M,,*5B
06/26/2015	05:04:26.551	$GPGGA,050427,2548.3192,N,07955.1129,W,1,8,2.0,14,M,,M,,*5C
06/26/2015	05:04:27.561	$GPGGA,050428,2548.3183,N,07955.1132,W,1,8,2.0,14,M,,M,,*59
06/26/2015	05:04:28.530	$GPGGA,050429,2548.3175,N,07955.1135,W,1,8,2.0,14,M,,M,,*56
06/26/2015	05:04:29.550	$GPGGA,050430,2548.3167,N,07955.1139,W,1,8,2.0,14,M,,M,,*51
06/26/2015	05:04:30.530	$GPGGA,050431,2548.3157,N,07955.1142,W,1,8,2.0,14,M,,M,,*5F
06/26/2015	05:04:31.570	$GPGGA,050432,2548.3150,N,07955.1145,W,1,8,2.0,14,M,,M,,*5C
06/26/2015	05:04:32.520	$GPGGA,050433,2548.3141,N,07955.1149,W,1,8,2.0,14,M,,M,,*51
06/26/2015	05:04:33.510	$GPGGA,050434,2548.3134,N,07955.1152,W,1,7,2.1,14,M,,M,,*50
06/26/2015	05:04:34.520	$GPGGA,050435,2548.3124,N,07955.1154,W,1,7,2.0,14,M,,M,,*57
06/26/2015	05:04:35.550	$GPGGA,050436,2548.3116,N,07955.1157,W,1,7,2.1,14,M,,M,,*57
06/26/2015	05:04:36.520	$GPGGA,050437,2548.3106,N,07955.1160,W,1,7,2.1,14,M,,M,,*53
06/26/2015	05:04:37.520	$GPGGA,050438,2548.3098,N,07955.1163,W,1,8,2.0,14,M,,M,,*57
06/26/2015	05:04:38.760	$GPGGA,050439,2548.3088,N,07955.1167,W,1,8,2.1,14,M,,M,,*52
06/26/2015	05:04:39.505	$GPGGA,050440,2548.3080,N,07955.1170,W,1,7,2.1,14,M,,M,,*5D
06/26/2015	05:04:40.611	$GPGGA,050441,2548.3073,N,07955.1175,W,1,7,2.1,14,M,,M,,*55
06/26/2015	05:04:41.509	$GPGGA,050442,2548.3064,N,07955.1178,W,1,8,2.0,14,M,,M,,*53
06/26/2015	05:04:42.497	$GPGGA,050443,2548.3055,N,07955.1181,W,1,8,2.1,14,M,,M,,*57
06/26/2015	05:04:43.541	$GPGGA,050444,2548.3046,N,07955.1185,W,1,7,2.1,14,M,,M,,*59
06/26/2015	05:04:44.496	$GPGGA,050445,2548.3037,N,07955.1189,W,1,7,2.1,13,M,,M,,*55
06/26/2015	05:04:45.620	$GPGGA,050446,2548.3028,N,07955.1192,W,1,7,2.1,13,M,,M,,*52
06/26/2015	05:04:46.517	$GPGGA,050447,2548.3019,N,07955.1194,W,1,7,2.1,13,M,,M,,*57
06/26/2015	05:04:47.520	$GPGGA,050448,2548.3011,N,07955.1199,W,1,7,2.1,13,M,,M,,*5D
06/26/2015	05:04:48.480	$GPGGA,050449,2548.3002,N,07955.1203,W,1,7,2.1,13,M,,M,,*5E
06/26/2015	05:04:49.513	$GPGGA,050450,2548.2994,N,07955.1207,W,1,7,2.1,13,M,,M,,*55
06/26/2015	05:04:50.493	$GPGGA,050451,2548.2986,N,07955.1210,W,1,7,2.1,13,M,,M,,*51
06/26/2015	05:04:51.610	$GPGGA,050452,2548.2977,N,07955.1214,W,1,7,2.1,13,M,,M,,*58
06/26/2015	05:04:52.480	$GPGGA,050453,2548.2968,N,07955.1217,W,1,7,2.1,13,M,,M,,*54
06/26/2015	05:04:53.503	$GPGGA,050454,2548.2961,N,07955.1221,W,1,7,2.1,13,M,,M,,*5F
06/26/2015	05:04:54.510	$GPGGA,050455,2548.2951,N,07955.1223,W,1,7,2.1,13,M,,M,,*5F
06/26/2015	05:04:55.600	$GPGGA,050456,2548.2945,N,07955.1229,W,1,7,2.1,13,M,,M,,*53
06/26/2015	05:04:56.480	$GPGGA,050457,2548.2936,N,07955.1232,W,1,7,2.0,13,M,,M,,*5D
06/26/2015	05:04:57.560	$GPGGA,050458,2548.2928,N,07955.1236,W,1,7,2.1,13,M,,M,,*58
06/26/2015	05:04:58.471	$GPGGA,050459,2548.2919,N,07955.1239,W,1,7,2.1,13,M,,M,,*54
06/26/2015	05:04:59.641	$GPGGA,050500,2548.2910,N,07955.1243,W,1,7,2.1,13,M,,M,,*5D
06/26/2015	05:05:00.572	$GPGGA,050501,2548.2901,N,07955.1246,W,1,7,2.1,13,M,,M,,*59
06/26/2015	05:05:01.561	$GPGGA,050502,2548.2894,N,07955.1250,W,1,8,2.0,13,M,,M,,*5E
06/26/2015	05:05:02.561	$GPGGA,050503,2548.2885,N,07955.1253,W,1,8,2.0,12,M,,M,,*5D
06/26/2015	05:05:03.592	$GPGGA,050504,2548.2878,N,07955.1257,W,1,7,2.1,12,M,,M,,*52
06/26/2015	05:05:04.560	$GPGGA,050505,2548.2869,N,07955.1261,W,1,7,2.0,12,M,,M,,*57
06/26/2015	05:05:05.560	$GPGGA,050506,2548.2860,N,07955.1264,W,1,8,2.0,12,M,,M,,*57
06/26/2015	05:05:06.560	$GPGGA,050507,2548.2853,N,07955.1268,W,1,8,2.1,12,M,,M,,*5B
06/26/2015	05:05:07.571	$GPGGA,050508,2548.2845,N,07955.1270,W,1,8,2.0,12,M,,M,,*5B
06/26/2015	05:05:08.540	$GPGGA,050509,2548.2838,N,07955.1275,W,1,8,2.1,12,M,,M,,*54
06/26/2015	05:05:09.550	$GPGGA,050510,2548.2829,N,07955.1277,W,1,8,2.0,12,M,,M,,*5F
06/26/2015	05:05:10.530	$GPGGA,050511,2548.2822,N,07955.1283,W,1,8,2.1,12,M,,M,,*5F
06/26/2015	05:05:11.560	$GPGGA,050512,2548.2816,N,07955.1287,W,1,8,2.0,13,M,,M,,*5F
06/26/2015	05:05:12.540	$GPGGA,050513,2548.2809,N,07955.1291,W,1,8,2.0,13,M,,M,,*57
06/26/2015	05:05:13.550	$GPGGA,050514,2548.2800,N,07955.1294,W,1,8,2.0,13,M,,M,,*5C
06/26/2015	05:05:14.580	$GPGGA,050515,2548.2792,N,07955.1298,W,1,8,2.0,13,M,,M,,*55
06/26/2015	05:05:15.571	$GPGGA,050516,2548.2784,N,07955.1301,W,1,8,2.0,13,M,,M,,*50
06/26/2015	05:05:16.531	$GPGGA,050517,2548.2777,N,07955.1304,W,1,8,2.0,13,M,,M,,*58
06/26/2015	05:05:17.551	$GPGGA,050518,2548.2769,N,07955.1308,W,1,8,2.0,13,M,,M,,*54
06/26/2015	05:05:18.531	$GPGGA,050519,2548.2762,N,07955.1312,W,1,8,2.0,13,M,,M,,*55
06/26/2015	05:05:19.571	$GPGGA,050520,2548.2755,N,07955.1315,W,1,8,2.0,13,M,,M,,*5C
06/26/2015	05:05:20.521	$GPGGA,050521,2548.2746,N,07955.1319,W,1,8,2.0,13,M,,M,,*53
06/26/2015	05:05:21.550	$GPGGA,050522,2548.2737,N,07955.1320,W,1,8,2.0,14,M,,M,,*5B
06/26/2015	05:05:22.530	$GPGGA,050523,2548.2728,N,07955.1323,W,1,8,2.1,14,M,,M,,*56
06/26/2015	05:05:23.560	$GPGGA,050524,2548.2720,N,07955.1326,W,1,8,2.0,14,M,,M,,*5D
06/26/2015	05:05:24.520	$GPGGA,050525,2548.2711,N,07955.1329,W,1,8,2.0,14,M,,M,,*51
06/26/2015	05:05:25.540	$GPGGA,050526,2548.2704,N,07955.1333,W,1,8,2.0,14,M,,M,,*5D
06/26/2015	05:05:26.960	$GPGGA,050527,2548.2697,N,07955.1335,W,1,8,2.0,14,M,,M,,*51
06/26/2015	05:05:27.550	$GPGGA,050528,2548.2687,N,07955.1338,W,1,8,2.0,14,M,,M,,*52
06/26/2015	05:05:28.510	$GPGGA,050529,2548.2679,N,07955.1341,W,1,8,2.0,14,M,,M,,*5C
06/26/2015	05:05:29.520	$GPGGA,050530,2548.2669,N,07955.1344,W,1,8,2.0,14,M,,M,,*50
06/26/2015	05:05:30.496	$GPGGA,050531,2548.2662,N,07955.1347,W,1,8,2.1,14,M,,M,,*58
06/26/2015	05:05:31.540	$GPGGA,050532,2548.2652,N,07955.1348,W,1,8,2.0,14,M,,M,,*56
06/26/2015	05:05:32.512	$GPGGA,050533,2548.2644,N,07955.1351,W,1,8,2.1,14,M,,M,,*59
06/26/2015	05:05:33.611	$GPGGA,050534,2548.2635,N,07955.1353,W,1,8,2.0,14,M,,M,,*5B
06/26/2015	05:05:34.508	$GPGGA,050535,2548.2626,N,07955.1355,W,1,8,2.0,14,M,,M,,*5E
06/26/2015	05:05:35.593	$GPGGA,050536,2548.2617,N,07955.1358,W,1,8,2.0,14,M,,M,,*52
06/26/2015	05:05:36.515	$GPGGA,050537,2548.2608,N,07955.1360,W,1,8,2.0,14,M,,M,,*56
06/26/2015	05:05:37.598	$GPGGA,050538,2548.2599,N,07955.1362,W,1,8,2.0,14,M,,M,,*50
06/26/2015	05:05:38.499	$GPGGA,050539,2548.2590,N,07955.1365,W,1,8,2.0,14,M,,M,,*5F
06/26/2015	05:05:39.510	$GPGGA,050540,2548.2582,N,07955.1367,W,1,8,2.0,14,M,,M,,*50
06/26/2015	05:05:40.480	$GPGGA,050541,2548.2574,N,07955.1370,W,1,8,2.0,14,M,,M,,*5E
06/26/2015	05:05:41.470	$GPGGA,050542,2548.2565,N,07955.1373,W,1,8,2.0,14,M,,M,,*5E
06/26/2015	05:05:42.570	$GPGGA,050543,2548.2556,N,07955.1374,W,1,8,2.1,14,M,,M,,*59
06/26/2015	05:05:43.580	$GPGGA,050544,2548.2546,N,07955.1376,W,1,8,2.0,14,M,,M,,*5C
06/26/2015	05:05:44.494	$GPGGA,050545,2548.2538,N,07955.1377,W,1,8,2.7,14,M,,M,,*52
06/26/2015	05:05:45.580	$GPGGA,050546,2548.2527,N,07955.1376,W,1,7,2.1,14,M,,M,,*57
06/26/2015	05:05:46.560	$GPGGA,050547,2548.2517,N,07955.1376,W,1,7,2.1,14,M,,M,,*55
06/26/2015	05:05:47.570	$GPGGA,050548,2548.2511,N,07955.1380,W,1,7,2.1,14,M,,M,,*55
06/26/2015	05:05:48.560	$GPGGA,050549,2548.2504,N,07955.1383,W,1,7,2.0,14,M,,M,,*52
06/26/2015	05:05:49.580	$GPGGA,050550,2548.2495,N,07955.1385,W,1,8,2.0,14,M,,M,,*5A
06/26/2015	05:05:50.551	$GPGGA,050551,2548.2487,N,07955.1387,W,1,8,2.0,14,M,,M,,*5A
06/26/2015	05:05:51.594	$GPGGA,050552,2548.2478,N,07955.1389,W,1,8,2.0,15,M,,M,,*56
06/26/2015	05:05:52.561	$GPGGA,050553,2548.2469,N,07955.1392,W,1,8,2.1,15,M,,M,,*5C
06/26/2015	05:05:53.551	$GPGGA,050554,2548.2459,N,07955.1395,W,1,7,2.1,15,M,,M,,*50
06/26/2015	05:05:54.541	$GPGGA,050555,2548.2450,N,07955.1398,W,1,7,2.1,15,M,,M,,*55
06/26/2015	05:05:55.580	$GPGGA,050556,2548.2441,N,07955.1402,W,1,7,2.1,15,M,,M,,*52
06/26/2015	05:05:56.540	$GPGGA,050557,2548.2432,N,07955.1405,W,1,7,2.1,15,M,,M,,*50
06/26/2015	05:05:57.550	$GPGGA,050558,2548.2423,N,07955.1409,W,1,7,2.1,15,M,,M,,*53
06/26/2015	05:05:58.540	$GPGGA,050559,2548.2415,N,07955.1413,W,1,7,2.1,16,M,,M,,*5F
06/26/2015	05:05:59.550	$GPGGA,050600,2548.2408,N,07955.1416,W,1,7,2.1,16,M,,M,,*59
06/26/2015	05:06:00.530	$GPGGA,050601,2548.2401,N,07955.1421,W,1,7,2.0,16,M,,M,,*54
06/26/2015	05:06:01.550	$GPGGA,050602,2548.2393,N,07955.1425,W,1,8,2.0,16,M,,M,,*50
06/26/2015	05:06:02.530	$GPGGA,050603,2548.2386,N,07955.1431,W,1,8,2.0,16,M,,M,,*50
06/26/2015	05:06:03.560	$GPGGA,050604,2548.2377,N,07955.1434,W,1,8,2.0,16,M,,M,,*5C
06/26/2015	05:06:04.530	$GPGGA,050605,2548.2368,N,07955.1438,W,1,8,2.1,16,M,,M,,*5E
06/26/2015	05:06:05.540	$GPGGA,050606,2548.2359,N,07955.1441,W,1,7,2.1,16,M,,M,,*5E
06/26/2015	05:06:06.540	$GPGGA,050607,2548.2351,N,07955.1445,W,1,7,2.1,16,M,,M,,*53
06/26/2015	05:06:07.550	$GPGGA,050608,2548.2344,N,07955.1450,W,1,7,2.1,17,M,,M,,*5D
06/26/2015	05:06:08.521	$GPGGA,050609,2548.2336,N,07955.1454,W,1,7,2.0,17,M,,M,,*5C
06/26/2015	05:06:09.551	$GPGGA,050610,2548.2327,N,07955.1457,W,1,7,2.1,17,M,,M,,*56
06/26/2015	05:06:10.521	$GPGGA,050611,2548.2318,N,07955.1461,W,1,7,2.1,17,M,,M,,*5E
06/26/2015	05:06:11.521	$GPGGA,050612,2548.2310,N,07955.1465,W,1,7,2.1,17,M,,M,,*51
06/26/2015	05:06:12.521	$GPGGA,050613,2548.2301,N,07955.1470,W,1,7,2.1,17,M,,M,,*54
06/26/2015	05:06:13.510	$GPGGA,050614,2548.2292,N,07955.1474,W,1,7,2.1,17,M,,M,,*5C
06/26/2015	05:06:14.520	$GPGGA,050615,2548.2285,N,07955.1478,W,1,7,2.1,17,M,,M,,*57
06/26/2015	05:06:15.550	$GPGGA,050616,2548.2276,N,07955.1482,W,1,7,2.1,17,M,,M,,*5D
06/26/2015	05:06:16.505	$GPGGA,050617,2548.2268,N,07955.1486,W,1,7,2.0,17,M,,M,,*56
06/26/2015	05:06:17.504	$GPGGA,050618,2548.2260,N,07955.1492,W,1,8,2.0,17,M,,M,,*5B
06/26/2015	05:06:18.610	$GPGGA,050619,2548.2251,N,07955.1496,W,1,8,2.0,17,M,,M,,*5C
06/26/2015	05:06:19.550	$GPGGA,050620,2548.2243,N,07955.1499,W,1,7,2.1,17,M,,M,,*54
06/26/2015	05:06:20.510	$GPGGA,050621,2548.2234,N,07955.1503,W,1,7,2.1,17,M,,M,,*57
06/26/2015	05:06:21.510	$GPGGA,050622,2548.2227,N,07955.1507,W,1,7,2.1,17,M,,M,,*52
06/26/2015	05:06:22.500	$GPGGA,050623,2548.2218,N,07955.1510,W,1,7,2.0,17,M,,M,,*58
06/26/2015	05:06:23.530	$GPGGA,050624,2548.2209,N,07955.1514,W,1,7,2.1,17,M,,M,,*5A
06/26/2015	05:06:24.580	$GPGGA,050625,2548.2199,N,07955.1517,W,1,7,2.1,17,M,,M,,*52
06/26/2015	05:06:25.611	$GPGGA,050626,2548.2192,N,07955.1522,W,1,7,2.1,17,M,,M,,*5C
06/26/2015	05:06:26.503	$GPGGA,050627,2548.2186,N,07955.1526,W,1,7,2.0,17,M,,M,,*5D
06/26/2015	05:06:27.611	$GPGGA,050628,2548.2178,N,07955.1530,W,1,8,2.0,17,M,,M,,*5B
06/26/2015	05:06:28.494	$GPGGA,050629,2548.2169,N,07955.1532,W,1,8,2.0,17,M,,M,,*58
06/26/2015	05:06:29.492	$GPGGA,050630,2548.2161,N,07955.1536,W,1,7,2.1,17,M,,M,,*52
06/26/2015	05:06:30.580	$GPGGA,050631,2548.2155,N,07955.1540,W,1,7,2.0,17,M,,M,,*54
06/26/2015	05:06:31.490	$GPGGA,050632,2548.2146,N,07955.1544,W,1,8,2.0,17,M,,M,,*5E
06/26/2015	05:06:32.480	$GPGGA,050633,2548.2139,N,07955.1548,W,1,8,2.0,18,M,,M,,*54
06/26/2015	05:06:33.602	$GPGGA,050634,2548.2131,N,07955.1551,W,1,8,2.0,18,M,,M,,*53
06/26/2015	05:06:34.570	$GPGGA,050635,2548.2122,N,07955.1554,W,1,8,2.0,18,M,,M,,*55
06/26/2015	05:06:35.580	$GPGGA,050636,2548.2113,N,07955.1557,W,1,8,2.0,18,M,,M,,*57
06/26/2015	05:06:36.570	$GPGGA,050637,2548.2104,N,07955.1559,W,1,8,2.1,18,M,,M,,*5F
06/26/2015	05:06:37.560	$GPGGA,050638,2548.2095,N,07955.1562,W,1,7,2.1,18,M,,M,,*5E
06/26/2015	05:06:38.550	$GPGGA,050639,2548.2086,N,07955.1564,W,1,7,2.1,18,M,,M,,*5B
06/26/2015	05:06:39.601	$GPGGA,050640,2548.2079,N,07955.1568,W,1,8,2.0,18,M,,M,,*57
06/26/2015	05:06:40.570	$GPGGA,050641,2548.2070,N,07955.1572,W,1,8,2.0,18,M,,M,,*54
06/26/2015	05:06:41.560	$GPGGA,050642,2548.2062,N,07955.1575,W,1,8,2.0,17,M,,M,,*5C
06/26/2015	05:06:42.550	$GPGGA,050643,2548.2054,N,07955.1577,W,1,8,2.0,17,M,,M,,*5A
06/26/2015	05:06:43.581	$GPGGA,050644,2548.2045,N,07955.1580,W,1,8,2.0,17,M,,M,,*55
06/26/2015	05:06:44.551	$GPGGA,050645,2548.2036,N,07955.1583,W,1,8,2.0,17,M,,M,,*53
06/26/2015	05:06:45.531	$GPGGA,050646,2548.2029,N,07955.1586,W,1,8,2.0,17,M,,M,,*5B
06/26/2015	05:06:46.541	$GPGGA,050647,2548.2020,N,07955.1590,W,1,8,2.0,17,M,,M,,*54
06/26/2015	05:06:47.571	$GPGGA,050648,2548.2012,N,07955.1593,W,1,8,2.0,17,M,,M,,*59
06/26/2015	05:06:48.540	$GPGGA,050649,2548.2004,N,07955.1595,W,1,8,2.0,17,M,,M,,*59
06/26/2015	05:06:49.530	$GPGGA,050650,2548.1996,N,07955.1597,W,1,8,2.0,17,M,,M,,*52
06/26/2015	05:06:50.540	$GPGGA,050651,2548.1986,N,07955.1600,W,1,8,2.1,17,M,,M,,*5E
06/26/2015	05:06:51.560	$GPGGA,050652,2548.1978,N,07955.1602,W,1,7,2.1,17,M,,M,,*51
06/26/2015	05:06:52.530	$GPGGA,050653,2548.1968,N,07955.1605,W,1,7,2.1,17,M,,M,,*56
06/26/2015	05:06:53.550	$GPGGA,050654,2548.1960,N,07955.1608,W,1,7,2.1,17,M,,M,,*54
06/26/2015	05:06:54.540	$GPGGA,050655,2548.1953,N,07955.1612,W,1,7,2.1,17,M,,M,,*5E
06/26/2015	05:06:55.570	$GPGGA,050656,2548.1946,N,07955.1618,W,1,8,2.0,17,M,,M,,*5D
06/26/2015	05:06:56.530	$GPGGA,050657,2548.1937,N,07955.1620,W,1,8,2.0,17,M,,M,,*51
06/26/2015	05:06:57.510	$GPGGA,050658,2548.1931,N,07955.1624,W,1,7,2.1,17,M,,M,,*52
06/26/2015	05:06:58.510	$GPGGA,050659,2548.1921,N,07955.1627,W,1,7,2.0,17,M,,M,,*50
06/26/2015	05:06:59.570	$GPGGA,050700,2548.1913,N,07955.1630,W,1,7,2.1,17,M,,M,,*5B
06/26/2015	05:07:00.521	$GPGGA,050701,2548.1906,N,07955.1636,W,1,7,2.0,17,M,,M,,*59
06/26/2015	05:07:01.505	$GPGGA,050702,2548.1897,N,07955.1638,W,1,8,2.0,17,M,,M,,*52
06/26/2015	05:07:02.521	$GPGGA,050703,2548.1889,N,07955.1644,W,1,8,2.0,17,M,,M,,*57
06/26/2015	05:07:03.561	$GPGGA,050704,2548.1880,N,07955.1647,W,1,8,2.0,17,M,,M,,*5A
06/26/2015	05:07:04.521	$GPGGA,050705,2548.1872,N,07955.1651,W,1,8,2.2,17,M,,M,,*53
06/26/2015	05:07:05.520	$GPGGA,050706,2548.1863,N,07955.1654,W,1,8,2.0,17,M,,M,,*57
06/26/2015	05:07:06.492	$GPGGA,050707,2548.1855,N,07955.1658,W,1,8,2.2,17,M,,M,,*5D
06/26/2015	05:07:07.530	$GPGGA,050708,2548.1846,N,07955.1662,W,1,7,2.2,17,M,,M,,*56
06/26/2015	05:07:08.511	$GPGGA,050709,2548.1837,N,07955.1665,W,1,7,2.2,17,M,,M,,*56
06/26/2015	05:07:09.491	$GPGGA,050710,2548.1830,N,07955.1669,W,1,7,2.2,17,M,,M,,*55
06/26/2015	05:07:10.510	$GPGGA,050711,2548.1821,N,07955.1673,W,1,7,2.0,17,M,,M,,*5D
06/26/2015	05:07:11.601	$GPGGA,050712,2548.1812,N,07955.1676,W,1,7,2.2,17,M,,M,,*59
06/26/2015	05:07:12.490	$GPGGA,050713,2548.1803,N,07955.1680,W,1,7,2.2,17,M,,M,,*51
06/26/2015	05:07:13.495	$GPGGA,050714,2548.1795,N,07955.1684,W,1,7,2.2,17,M,,M,,*52
06/26/2015	05:07:14.580	$GPGGA,050715,2548.1787,N,07955.1688,W,1,7,2.0,17,M,,M,,*5E
06/26/2015	05:07:15.620	$GPGGA,050716,2548.1779,N,07955.1692,W,1,8,2.0,17,M,,M,,*58
06/26/2015	05:07:16.505	$GPGGA,050717,2548.1772,N,07955.1696,W,1,8,2.0,17,M,,M,,*56
06/26/2015	05:07:17.495	$GPGGA,050718,2548.1762,N,07955.1701,W,1,8,2.0,17,M,,M,,*57
06/26/2015	05:07:18.471	$GPGGA,050719,2548.1754,N,07955.1703,W,1,8,2.2,16,M,,M,,*52
06/26/2015	05:07:19.493	$GPGGA,050720,2548.1745,N,07955.1707,W,1,7,2.2,16,M,,M,,*53
06/26/2015	05:07:20.581	$GPGGA,050721,2548.1737,N,07955.1712,W,1,7,2.0,16,M,,M,,*51
06/26/2015	05:07:21.581	$GPGGA,050722,2548.1729,N,07955.1716,W,1,8,2.0,16,M,,M,,*56
06/26/2015	05:07:22.481	$GPGGA,050723,2548.1721,N,07955.1720,W,1,8,2.0,16,M,,M,,*5A
06/26/2015	05:07:23.591	$GPGGA,050724,2548.1712,N,07955.1723,W,1,7,2.2,16,M,,M,,*53
06/26/2015	05:07:24.560	$GPGGA,050725,2548.1703,N,07955.1727,W,1,7,2.2,16,M,,M,,*56
06/26/2015	05:07:25.603	$GPGGA,050726,2548.1695,N,07955.1730,W,1,7,2.2,16,M,,M,,*5D
06/26/2015	05:07:26.560	$GPGGA,050727,2548.1686,N,07955.1734,W,1,7,2.2,16,M,,M,,*5A
06/26/2015	05:07:27.580	$GPGGA,050728,2548.1678,N,07955.1736,W,1,7,2.2,16,M,,M,,*56
06/26/2015	05:07:28.550	$GPGGA,050729,2548.1669,N,07955.1741,W,1,7,2.2,16,M,,M,,*57
06/26/2015	05:07:29.580	$GPGGA,050730,2548.1661,N,07955.1745,W,1,7,2.2,16,M,,M,,*53
06/26/2015	05:07:30.550	$GPGGA,050731,2548.1653,N,07955.1748,W,1,7,2.2,16,M,,M,,*5E
06/26/2015	05:07:31.580	$GPGGA,050732,2548.1643,N,07955.1750,W,1,7,2.2,16,M,,M,,*55
06/26/2015	05:07:32.550	$GPGGA,050733,2548.1635,N,07955.1754,W,1,7,2.2,16,M,,M,,*51
06/26/2015	05:07:33.560	$GPGGA,050734,2548.1628,N,07955.1757,W,1,7,2.2,16,M,,M,,*59
06/26/2015	05:07:34.540	$GPGGA,050735,2548.1624,N,07955.1763,W,1,7,2.0,16,M,,M,,*51
06/26/2015	05:07:35.571	$GPGGA,050736,2548.1614,N,07955.1767,W,1,8,2.2,16,M,,M,,*58
06/26/2015	05:07:36.541	$GPGGA,050737,2548.1607,N,07955.1771,W,1,8,2.0,16,M,,M,,*5E
06/26/2015	05:07:37.561	$GPGGA,050738,2548.1600,N,07955.1775,W,1,8,2.0,16,M,,M,,*52
06/26/2015	05:07:38.531	$GPGGA,050739,2548.1591,N,07955.1778,W,1,8,2.0,16,M,,M,,*55
06/26/2015	05:07:39.581	$GPGGA,050740,2548.1583,N,07955.1781,W,1,8,2.0,16,M,,M,,*5E
06/26/2015	05:07:40.540	$GPGGA,050741,2548.1575,N,07955.1785,W,1,8,2.0,16,M,,M,,*52
06/26/2015	05:07:41.570	$GPGGA,050742,2548.1567,N,07955.1788,W,1,8,2.0,16,M,,M,,*5F
06/26/2015	05:07:42.550	$GPGGA,050743,2548.1559,N,07955.1792,W,1,8,2.0,16,M,,M,,*58
06/26/2015	05:07:43.570	$GPGGA,050744,2548.1552,N,07955.1796,W,1,8,2.0,16,M,,M,,*50
06/26/2015	05:07:44.540	$GPGGA,050745,2548.1543,N,07955.1799,W,1,8,2.0,16,M,,M,,*5E
06/26/2015	05:07:45.550	$GPGGA,050746,2548.1535,N,07955.1801,W,1,8,2.0,16,M,,M,,*52
06/26/2015	05:07:46.530	$GPGGA,050747,2548.1527,N,07955.1806,W,1,8,2.0,16,M,,M,,*57
06/26/2015	05:07:47.600	$GPGGA,050748,2548.1519,N,07955.1808,W,1,8,2.0,16,M,,M,,*5B
06/26/2015	05:07:48.530	$GPGGA,050749,2548.1519,N,07955.1808,W,1,8,2.0,16,M,,M,,*5A
06/26/2015	05:07:49.530	$GPGGA,050750,2548.1503,N,07955.1814,W,1,8,2.0,16,M,,M,,*54
06/26/2015	05:07:50.510	$GPGGA,050751,2548.1495,N,07955.1817,W,1,8,2.0,16,M,,M,,*58
06/26/2015	05:07:51.551	$GPGGA,050752,2548.1487,N,07955.1821,W,1,8,2.0,16,M,,M,,*5D
06/26/2015	05:07:52.620	$GPGGA,050753,2548.1479,N,07955.1824,W,1,8,2.0,16,M,,M,,*58
06/26/2015	05:07:53.521	$GPGGA,050754,2548.1470,N,07955.1825,W,1,8,2.2,16,M,,M,,*55
06/26/2015	05:07:54.511	$GPGGA,050755,2548.1462,N,07955.1828,W,1,8,2.0,16,M,,M,,*58
06/26/2015	05:07:55.561	$GPGGA,050756,2548.1454,N,07955.1832,W,1,8,2.0,16,M,,M,,*55
06/26/2015	05:07:56.501	$GPGGA,050757,2548.1447,N,07955.1836,W,1,8,2.0,16,M,,M,,*52
06/26/2015	05:07:57.511	$GPGGA,050758,2548.1441,N,07955.1840,W,1,8,2.1,16,M,,M,,*5B
06/26/2015	05:07:58.500	$GPGGA,050759,2548.1433,N,07955.1843,W,1,8,2.0,16,M,,M,,*5D
06/26/2015	05:07:59.560	$GPGGA,050800,2548.1426,N,07955.1846,W,1,8,2.0,16,M,,M,,*5F
06/26/2015	05:08:00.580	$GPGGA,050801,2548.1418,N,07955.1850,W,1,8,2.0,17,M,,M,,*55
06/26/2015	05:08:01.510	$GPGGA,050802,2548.1407,N,07955.1851,W,1,8,2.2,17,M,,M,,*5B
06/26/2015	05:08:02.580	$GPGGA,050803,2548.1400,N,07955.1854,W,1,8,2.0,17,M,,M,,*5A
06/26/2015	05:08:03.540	$GPGGA,050804,2548.1391,N,07955.1857,W,1,8,2.0,17,M,,M,,*51
06/26/2015	05:08:04.601	$GPGGA,050805,2548.1384,N,07955.1861,W,1,8,2.0,17,M,,M,,*51
06/26/2015	05:08:05.600	$GPGGA,050806,2548.1375,N,07955.1864,W,1,8,2.0,17,M,,M,,*59
06/26/2015	05:08:06.510	$GPGGA,050807,2548.1367,N,07955.1866,W,1,8,2.0,17,M,,M,,*59
06/26/2015	05:08:07.630	$GPGGA,050808,2548.1359,N,07955.1869,W,1,8,2.0,17,M,,M,,*54
06/26/2015	05:08:08.506	$GPGGA,050809,2548.1350,N,07955.1872,W,1,8,2.0,17,M,,M,,*56
06/26/2015	05:08:09.580	$GPGGA,050810,2548.1342,N,07955.1875,W,1,8,2.0,17,M,,M,,*5A
06/26/2015	05:08:10.561	$GPGGA,050811,2548.1335,N,07955.1879,W,1,8,2.0,17,M,,M,,*57
06/26/2015	05:08:11.598	$GPGGA,050812,2548.1325,N,07955.1882,W,1,8,2.0,17,M,,M,,*51
06/26/2015	05:08:12.549	$GPGGA,050813,2548.1317,N,07955.1884,W,1,8,2.9,17,M,,M,,*5E
06/26/2015	05:08:13.579	$GPGGA,050814,2548.1308,N,07955.1886,W,1,6,2.9,17,M,,M,,*5B
06/26/2015	05:08:14.539	$GPGGA,050815,2548.1299,N,07955.1886,W,1,6,2.2,17,M,,M,,*58
06/26/2015	05:08:15.558	$GPGGA,050816,2548.1292,N,07955.1887,W,1,7,2.2,17,M,,M,,*50
06/26/2015	05:08:16.548	$GPGGA,050817,2548.1281,N,07955.1889,W,1,7,2.2,17,M,,M,,*5D
06/26/2015	05:08:17.558	$GPGGA,050818,2548.1273,N,07955.1891,W,1,7,2.0,17,M,,M,,*54
06/26/2015	05:08:18.548	$GPGGA,050819,2548.1265,N,07955.1894,W,1,7,2.0,17,M,,M,,*57
06/26/2015	05:08:19.568	$GPGGA,050820,2548.1256,N,07955.1898,W,1,7,2.2,17,M,,M,,*53
06/26/2015	05:08:20.538	$GPGGA,050821,2548.1248,N,07955.1900,W,1,7,2.0,17,M,,M,,*5F
06/26/2015	05:08:21.538	$GPGGA,050822,2548.1243,N,07955.1904,W,1,7,2.2,17,M,,M,,*51
06/26/2015	05:08:22.538	$GPGGA,050823,2548.1235,N,07955.1908,W,1,7,2.0,17,M,,M,,*5F
06/26/2015	05:08:23.558	$GPGGA,050824,2548.1228,N,07955.1911,W,1,8,2.0,17,M,,M,,*53
06/26/2015	05:08:24.528	$GPGGA,050825,2548.1219,N,07955.1915,W,1,8,2.0,17,M,,M,,*54
06/26/2015	05:08:25.548	$GPGGA,050826,2548.1212,N,07955.1918,W,1,7,2.2,17,M,,M,,*5C
06/26/2015	05:08:26.518	$GPGGA,050827,2548.1202,N,07955.1922,W,1,7,2.2,17,M,,M,,*55
06/26/2015	05:08:27.558	$GPGGA,050828,2548.1194,N,07955.1925,W,1,7,2.2,17,M,,M,,*51
06/26/2015	05:08:28.519	$GPGGA,050829,2548.1185,N,07955.1929,W,1,7,2.2,17,M,,M,,*5C
06/26/2015	05:08:29.539	$GPGGA,050830,2548.1180,N,07955.1933,W,1,7,2.2,18,M,,M,,*55
06/26/2015	05:08:30.529	$GPGGA,050831,2548.1172,N,07955.1938,W,1,7,2.0,18,M,,M,,*50
06/26/2015	05:08:31.549	$GPGGA,050832,2548.1165,N,07955.1941,W,1,8,2.0,18,M,,M,,*54
06/26/2015	05:08:32.519	$GPGGA,050833,2548.1158,N,07955.1947,W,1,8,2.2,18,M,,M,,*5F
06/26/2015	05:08:33.508	$GPGGA,050834,2548.1148,N,07955.1951,W,1,8,2.0,18,M,,M,,*5C
06/26/2015	05:08:34.518	$GPGGA,050835,2548.1140,N,07955.1954,W,1,8,2.2,18,M,,M,,*52
06/26/2015	05:08:35.528	$GPGGA,050836,2548.1133,N,07955.1958,W,1,7,2.2,18,M,,M,,*56
06/26/2015	05:08:36.498	$GPGGA,050837,2548.1125,N,07955.1962,W,1,7,2.0,18,M,,M,,*5B
06/26/2015	05:08:37.958	$GPGGA,050838,2548.1118,N,07955.1967,W,1,8,2.0,18,M,,M,,*50
06/26/2015	05:08:38.498	$GPGGA,050839,2548.1109,N,07955.1970,W,1,8,2.0,19,M,,M,,*56
06/26/2015	05:08:39.528	$GPGGA,050840,2548.1101,N,07955.1974,W,1,7,2.2,19,M,,M,,*59
06/26/2015	05:08:40.498	$GPGGA,050841,2548.1091,N,07955.1977,W,1,7,2.0,19,M,,M,,*51
06/26/2015	05:08:41.518	$GPGGA,050842,2548.1082,N,07955.1981,W,1,7,2.2,19,M,,M,,*5B
06/26/2015	05:08:42.491	$GPGGA,050843,2548.1073,N,07955.1984,W,1,7,2.2,19,M,,M,,*51
06/26/2015	05:08:43.638	$GPGGA,050844,2548.1064,N,07955.1987,W,1,7,2.2,19,M,,M,,*53
06/26/2015	05:08:44.494	$GPGGA,050845,2548.1055,N,07955.1991,W,1,7,2.2,19,M,,M,,*57
06/26/2015	05:08:45.494	$GPGGA,050846,2548.1047,N,07955.1994,W,1,7,2.2,19,M,,M,,*52
06/26/2015	05:08:46.491	$GPGGA,050847,2548.1039,N,07955.1998,W,1,7,2.2,19,M,,M,,*56
06/26/2015	05:08:47.619	$GPGGA,050848,2548.1031,N,07955.2002,W,1,7,2.2,19,M,,M,,*58
06/26/2015	05:08:48.497	$GPGGA,050849,2548.1023,N,07955.2005,W,1,7,2.0,19,M,,M,,*5F
06/26/2015	05:08:49.593	$GPGGA,050850,2548.1014,N,07955.2009,W,1,7,2.2,19,M,,M,,*5D
06/26/2015	05:08:50.480	$GPGGA,050851,2548.1006,N,07955.2012,W,1,7,2.0,19,M,,M,,*57
06/26/2015	05:08:51.580	$GPGGA,050852,2548.0997,N,07955.2016,W,1,8,2.0,19,M,,M,,*5F
06/26/2015	05:08:52.479	$GPGGA,050853,2548.0989,N,07955.2020,W,1,8,2.0,19,M,,M,,*54
06/26/2015	05:08:53.598	$GPGGA,050854,2548.0981,N,07955.2023,W,1,8,2.0,19,M,,M,,*58
06/26/2015	05:08:54.458	$GPGGA,050855,2548.0972,N,07955.2025,W,1,8,2.0,19,M,,M,,*53
06/26/2015	05:08:55.469	$GPGGA,050856,2548.0963,N,07955.2028,W,1,7,2.2,19,M,,M,,*50
06/26/2015	05:08:56.468	$GPGGA,050857,2548.0954,N,07955.2031,W,1,7,2.2,19,M,,M,,*5D
06/26/2015	05:08:57.548	$GPGGA,050858,2548.0945,N,07955.2034,W,1,8,2.0,19,M,,M,,*5A
06/26/2015	05:08:58.558	$GPGGA,050859,2548.0936,N,07955.2035,W,1,8,2.0,19,M,,M,,*5E
06/26/2015	05:08:59.608	$GPGGA,050900,2548.0927,N,07955.2038,W,1,8,2.0,19,M,,M,,*5E
06/26/2015	05:09:00.558	$GPGGA,050901,2548.0918,N,07955.2041,W,1,8,2.0,19,M,,M,,*5D
06/26/2015	05:09:01.568	$GPGGA,050902,2548.0909,N,07955.2045,W,1,8,2.0,19,M,,M,,*5A
06/26/2015	05:09:02.548	$GPGGA,050903,2548.0900,N,07955.2048,W,1,8,2.0,19,M,,M,,*5F
06/26/2015	05:09:03.569	$GPGGA,050904,2548.0893,N,07955.2052,W,1,7,2.2,19,M,,M,,*55
06/26/2015	05:09:04.549	$GPGGA,050905,2548.0887,N,07955.2056,W,1,7,2.0,19,M,,M,,*57
06/26/2015	05:09:05.539	$GPGGA,050906,2548.0878,N,07955.2057,W,1,8,2.0,19,M,,M,,*5A
06/26/2015	05:09:06.539	$GPGGA,050907,2548.0870,N,07955.2060,W,1,8,2.0,19,M,,M,,*57
06/26/2015	05:09:07.559	$GPGGA,050908,2548.0862,N,07955.2063,W,1,8,2.0,19,M,,M,,*58
06/26/2015	05:09:08.528	$GPGGA,050909,2548.0854,N,07955.2066,W,1,8,2.0,19,M,,M,,*59
06/26/2015	05:09:09.548	$GPGGA,050910,2548.0846,N,07955.2070,W,1,8,2.0,19,M,,M,,*55
06/26/2015	05:09:10.538	$GPGGA,050911,2548.0838,N,07955.2072,W,1,8,2.0,19,M,,M,,*5F
06/26/2015	05:09:11.558	$GPGGA,050912,2548.0830,N,07955.2075,W,1,8,2.0,19,M,,M,,*53
06/26/2015	05:09:12.538	$GPGGA,050913,2548.0822,N,07955.2078,W,1,8,2.0,19,M,,M,,*5C
06/26/2015	05:09:13.548	$GPGGA,050914,2548.0815,N,07955.2081,W,1,8,2.0,19,M,,M,,*59
06/26/2015	05:09:14.518	$GPGGA,050915,2548.0805,N,07955.2085,W,1,8,2.0,19,M,,M,,*5D
06/26/2015	05:09:15.538	$GPGGA,050916,2548.0797,N,07955.2086,W,1,8,2.0,19,M,,M,,*59
06/26/2015	05:09:16.528	$GPGGA,050917,2548.0789,N,07955.2089,W,1,8,2.0,19,M,,M,,*58
06/26/2015	05:09:17.508	$GPGGA,050918,2548.0781,N,07955.2092,W,1,8,2.0,19,M,,M,,*55
06/26/2015	05:09:18.518	$GPGGA,050919,2548.0772,N,07955.2095,W,1,8,2.0,19,M,,M,,*5F
06/26/2015	05:09:19.558	$GPGGA,050920,2548.0764,N,07955.2099,W,1,7,2.2,19,M,,M,,*53
06/26/2015	05:09:20.508	$GPGGA,050921,2548.0757,N,07955.2103,W,1,7,2.0,19,M,,M,,*52
06/26/2015	05:09:21.529	$GPGGA,050922,2548.0748,N,07955.2106,W,1,8,2.0,19,M,,M,,*55
06/26/2015	05:09:22.509	$GPGGA,050923,2548.0741,N,07955.2110,W,1,8,2.0,19,M,,M,,*5A
06/26/2015	05:09:23.559	$GPGGA,050924,2548.0733,N,07955.2113,W,1,8,2.0,19,M,,M,,*5B
06/26/2015	05:09:24.499	$GPGGA,050925,2548.0725,N,07955.2117,W,1,8,2.0,19,M,,M,,*59
06/26/2015	05:09:25.498	$GPGGA,050926,2548.0717,N,07955.2121,W,1,8,2.0,19,M,,M,,*5E
06/26/2015	05:09:26.508	$GPGGA,050927,2548.0708,N,07955.2124,W,1,8,2.0,19,M,,M,,*54
06/26/2015	05:09:27.538	$GPGGA,050928,2548.0699,N,07955.2126,W,1,7,2.2,19,M,,M,,*5D
06/26/2015	05:09:28.508	$GPGGA,050929,2548.0690,N,07955.2129,W,1,7,2.2,19,M,,M,,*5A
06/26/2015	05:09:29.628	$GPGGA,050930,2548.0681,N,07955.2132,W,1,7,2.2,19,M,,M,,*58
06/26/2015	05:09:30.508	$GPGGA,050931,2548.0671,N,07955.2136,W,1,7,2.2,19,M,,M,,*52
06/26/2015	05:09:31.538	$GPGGA,050932,2548.0663,N,07955.2140,W,1,7,2.2,18,M,,M,,*52
06/26/2015	05:09:32.479	$GPGGA,050933,2548.0654,N,07955.2144,W,1,7,2.2,18,M,,M,,*53
06/26/2015	05:09:33.508	$GPGGA,050934,2548.0647,N,07955.2150,W,1,7,2.2,18,M,,M,,*53
06/26/2015	05:09:34.598	$GPGGA,050935,2548.0638,N,07955.2153,W,1,7,2.0,18,M,,M,,*5B
06/26/2015	05:09:35.598	$GPGGA,050936,2548.0629,N,07955.2157,W,1,7,2.2,18,M,,M,,*5E
06/26/2015	05:09:36.494	$GPGGA,050937,2548.0620,N,07955.2160,W,1,7,2.2,18,M,,M,,*52
06/26/2015	05:09:37.568	$GPGGA,050938,2548.0612,N,07955.2164,W,1,7,2.2,18,M,,M,,*58
06/26/2015	05:09:38.497	$GPGGA,050939,2548.0603,N,07955.2168,W,1,7,2.2,18,M,,M,,*55
06/26/2015	05:09:39.599	$GPGGA,050940,2548.0598,N,07955.2173,W,1,7,2.2,18,M,,M,,*50
06/26/2015	05:09:40.496	$GPGGA,050941,2548.0589,N,07955.2176,W,1,7,2.0,18,M,,M,,*56
06/26/2015	05:09:41.480	$GPGGA,050942,2548.0580,N,07955.2180,W,1,7,2.2,18,M,,M,,*57
06/26/2015	05:09:42.484	$GPGGA,050943,2548.0571,N,07955.2183,W,1,7,2.2,18,M,,M,,*5B
06/26/2015	05:09:43.498	$GPGGA,050944,2548.0563,N,07955.2187,W,1,7,2.2,18,M,,M,,*5B
06/26/2015	05:09:44.558	$GPGGA,050945,2548.0555,N,07955.2190,W,1,7,2.2,18,M,,M,,*59
06/26/2015	05:09:45.591	$GPGGA,050946,2548.0545,N,07955.2193,W,1,7,2.2,18,M,,M,,*58
06/26/2015	05:09:46.558	$GPGGA,050947,2548.0538,N,07955.2198,W,1,7,2.2,17,M,,M,,*57
06/26/2015	05:09:47.608	$GPGGA,050948,2548.0529,N,07955.2202,W,1,8,2.0,17,M,,M,,*55
06/26/2015	05:09:48.548	$GPGGA,050949,2548.0522,N,07955.2207,W,1,8,2.0,17,M,,M,,*5A
06/26/2015	05:09:49.548	$GPGGA,050950,2548.0513,N,07955.2209,W,1,8,2.0,17,M,,M,,*5E
06/26/2015	05:09:50.558	$GPGGA,050951,2548.0505,N,07955.2214,W,1,8,2.2,17,M,,M,,*56
06/26/2015	05:09:51.580	$GPGGA,050952,2548.0499,N,07955.2218,W,1,8,2.0,17,M,,M,,*5F
06/26/2015	05:09:52.548	$GPGGA,050953,2548.0490,N,07955.2222,W,1,8,2.0,17,M,,M,,*5E
06/26/2015	05:09:53.538	$GPGGA,050954,2548.0481,N,07955.2225,W,1,7,2.2,17,M,,M,,*53
06/26/2015	05:09:54.539	$GPGGA,050955,2548.0473,N,07955.2229,W,1,7,2.2,17,M,,M,,*53
06/26/2015	05:09:55.568	$GPGGA,050956,2548.0464,N,07955.2233,W,1,8,2.0,17,M,,M,,*50
06/26/2015	05:09:56.549	$GPGGA,050957,2548.0455,N,07955.2236,W,1,8,2.2,17,M,,M,,*54
06/26/2015	05:09:57.529	$GPGGA,050958,2548.0447,N,07955.2240,W,1,8,2.0,17,M,,M,,*5B
06/26/2015	05:09:58.539	$GPGGA,050959,2548.0439,N,07955.2243,W,1,8,2.0,17,M,,M,,*50
06/26/2015	05:09:59.599	$GPGGA,051000,2548.0432,N,07955.2247,W,1,8,2.0,17,M,,M,,*5B
06/26/2015	05:10:00.568	$GPGGA,051001,2548.0423,N,07955.2251,W,1,8,2.0,17,M,,M,,*5D
06/26/2015	05:10:01.548	$GPGGA,051002,2548.0414,N,07955.2254,W,1,8,2.0,17,M,,M,,*5F
06/26/2015	05:10:02.538	$GPGGA,051003,2548.0407,N,07955.2258,W,1,8,2.0,17,M,,M,,*50
06/26/2015	05:10:03.528	$GPGGA,051004,2548.0398,N,07955.2261,W,1,8,2.0,17,M,,M,,*5C
06/26/2015	05:10:04.528	$GPGGA,051005,2548.0390,N,07955.2265,W,1,8,2.0,17,M,,M,,*51
06/26/2015	05:10:05.518	$GPGGA,051006,2548.0382,N,07955.2267,W,1,8,2.0,17,M,,M,,*53
06/26/2015	05:10:06.528	$GPGGA,051007,2548.0374,N,07955.2270,W,1,8,2.0,17,M,,M,,*5D
06/26/2015	05:10:07.558	$GPGGA,051008,2548.0365,N,07955.2274,W,1,8,2.0,17,M,,M,,*56
06/26/2015	05:10:08.518	$GPGGA,051009,2548.0357,N,07955.2277,W,1,8,2.0,17,M,,M,,*55
06/26/2015	05:10:09.538	$GPGGA,051010,2548.0349,N,07955.2280,W,1,8,2.0,17,M,,M,,*5A
06/26/2015	05:10:10.518	$GPGGA,051011,2548.0341,N,07955.2283,W,1,8,2.0,17,M,,M,,*50
06/26/2015	05:10:11.548	$GPGGA,051012,2548.0333,N,07955.2287,W,1,8,2.0,17,M,,M,,*52
06/26/2015	05:10:12.498	$GPGGA,051013,2548.0325,N,07955.2290,W,1,8,2.0,17,M,,M,,*52
06/26/2015	05:10:13.509	$GPGGA,051014,2548.0317,N,07955.2292,W,1,8,2.0,17,M,,M,,*56
06/26/2015	05:10:14.509	$GPGGA,051015,2548.0309,N,07955.2295,W,1,8,2.0,17,M,,M,,*5F
06/26/2015	05:10:15.529	$GPGGA,051016,2548.0299,N,07955.2298,W,1,8,2.0,17,M,,M,,*59
06/26/2015	05:10:16.499	$GPGGA,051017,2548.0291,N,07955.2301,W,1,8,2.0,18,M,,M,,*5E
06/26/2015	05:10:17.519	$GPGGA,051018,2548.0282,N,07955.2303,W,1,8,2.0,18,M,,M,,*51
06/26/2015	05:10:18.508	$GPGGA,051019,2548.0274,N,07955.2306,W,1,8,2.0,18,M,,M,,*5C
06/26/2015	05:10:19.598	$GPGGA,051020,2548.0266,N,07955.2309,W,1,8,2.0,18,M,,M,,*5A
06/26/2015	05:10:20.480	$GPGGA,051021,2548.0257,N,07955.2312,W,1,8,2.0,18,M,,M,,*53
06/26/2015	05:10:21.490	$GPGGA,051022,2548.0249,N,07955.2313,W,1,8,2.0,18,M,,M,,*5E
06/26/2015	05:10:22.480	$GPGGA,051023,2548.0241,N,07955.2316,W,1,8,2.0,18,M,,M,,*52
06/26/2015	05:10:23.528	$GPGGA,051024,2548.0233,N,07955.2319,W,1,8,2.0,18,M,,M,,*5F
06/26/2015	05:10:24.568	$GPGGA,051025,2548.0224,N,07955.2323,W,1,8,2.0,18,M,,M,,*51
06/26/2015	05:10:25.658	$GPGGA,051026,2548.0215,N,07955.2326,W,1,8,2.0,18,M,,M,,*55
06/26/2015	05:10:26.480	$GPGGA,051027,2548.0208,N,07955.2327,W,1,8,2.0,18,M,,M,,*59
06/26/2015	05:10:27.478	$GPGGA,051028,2548.0198,N,07955.2330,W,1,8,2.0,18,M,,M,,*5A
06/26/2015	05:10:28.483	$GPGGA,051029,2548.0190,N,07955.2332,W,1,8,2.0,18,M,,M,,*51
06/26/2015	05:10:29.638	$GPGGA,051030,2548.0182,N,07955.2335,W,1,7,2.0,18,M,,M,,*52
06/26/2015	05:10:30.569	$GPGGA,051031,2548.0173,N,07955.2338,W,1,7,2.0,18,M,,M,,*50
06/26/2015	05:10:31.649	$GPGGA,051032,2548.0164,N,07955.2341,W,1,8,2.2,18,M,,M,,*56
06/26/2015	05:10:32.639	$GPGGA,051033,2548.0157,N,07955.2345,W,1,8,2.2,18,M,,M,,*53
06/26/2015	05:10:33.582	$GPGGA,051034,2548.0150,N,07955.2348,W,1,8,2.0,18,M,,M,,*5C
06/26/2015	05:10:34.629	$GPGGA,051035,2548.0141,N,07955.2350,W,1,8,2.0,18,M,,M,,*54
06/26/2015	05:10:35.668	$GPGGA,051036,2548.0132,N,07955.2353,W,1,8,2.0,18,M,,M,,*50
06/26/2015	05:10:36.558	$GPGGA,051037,2548.0125,N,07955.2357,W,1,8,2.0,18,M,,M,,*53
06/26/2015	05:10:37.618	$GPGGA,051038,2548.0116,N,07955.2361,W,1,8,2.0,18,M,,M,,*59
06/26/2015	05:10:38.618	$GPGGA,051039,2548.0108,N,07955.2364,W,1,8,2.0,18,M,,M,,*52
06/26/2015	05:10:39.598	$GPGGA,051040,2548.0100,N,07955.2367,W,1,8,2.0,18,M,,M,,*57
06/26/2015	05:10:40.538	$GPGGA,051041,2548.0092,N,07955.2371,W,1,8,2.0,18,M,,M,,*5B
06/26/2015	05:10:41.578	$GPGGA,051042,2548.0083,N,07955.2374,W,1,8,2.0,18,M,,M,,*5D
06/26/2015	05:10:42.618	$GPGGA,051043,2548.0075,N,07955.2377,W,1,8,2.0,18,M,,M,,*56
06/26/2015	05:10:43.591	$GPGGA,051044,2548.0067,N,07955.2381,W,1,8,2.0,18,M,,M,,*5B
06/26/2015	05:10:44.548	$GPGGA,051045,2548.0060,N,07955.2384,W,1,8,2.0,18,M,,M,,*58
06/26/2015	05:10:45.528	$GPGGA,051046,2548.0050,N,07955.2388,W,1,8,2.0,18,M,,M,,*54
06/26/2015	05:10:46.528	$GPGGA,051047,2548.0042,N,07955.2392,W,1,8,2.2,17,M,,M,,*50
06/26/2015	05:10:47.608	$GPGGA,051048,2548.0033,N,07955.2395,W,1,7,2.0,17,M,,M,,*53
06/26/2015	05:10:48.599	$GPGGA,051049,2548.0024,N,07955.2399,W,1,7,2.0,17,M,,M,,*58
06/26/2015	05:10:49.569	$GPGGA,051050,2548.0014,N,07955.2402,W,1,7,2.2,17,M,,M,,*54
06/26/2015	05:10:50.599	$GPGGA,051051,2548.0005,N,07955.2406,W,1,7,2.2,17,M,,M,,*51
06/26/2015	05:10:51.609	$GPGGA,051052,2547.9996,N,07955.2410,W,1,7,2.2,17,M,,M,,*50
06/26/2015	05:10:52.579	$GPGGA,051053,2547.9991,N,07955.2415,W,1,7,2.2,17,M,,M,,*53
06/26/2015	05:10:53.580	$GPGGA,051054,2547.9982,N,07955.2420,W,1,8,2.0,17,M,,M,,*5D
06/26/2015	05:10:54.518	$GPGGA,051055,2547.9973,N,07955.2422,W,1,8,2.0,17,M,,M,,*50
06/26/2015	05:10:55.518	$GPGGA,051056,2547.9964,N,07955.2425,W,1,7,2.2,17,M,,M,,*5F
06/26/2015	05:10:56.518	$GPGGA,051057,2547.9955,N,07955.2429,W,1,7,2.2,17,M,,M,,*50
06/26/2015	05:10:57.948	$GPGGA,051058,2547.9946,N,07955.2432,W,1,7,2.2,17,M,,M,,*57
06/26/2015	05:10:58.578	$GPGGA,051059,2547.9937,N,07955.2436,W,1,7,2.2,16,M,,M,,*55
06/26/2015	05:10:59.618	$GPGGA,051100,2547.9928,N,07955.2440,W,1,7,2.0,16,M,,M,,*55
06/26/2015	05:11:00.498	$GPGGA,051101,2547.9920,N,07955.2443,W,1,7,2.0,16,M,,M,,*5F
06/26/2015	05:11:01.549	$GPGGA,051102,2547.9912,N,07955.2447,W,1,8,2.0,16,M,,M,,*56
06/26/2015	05:11:02.568	$GPGGA,051103,2547.9904,N,07955.2451,W,1,8,2.2,16,M,,M,,*55
06/26/2015	05:11:03.568	$GPGGA,051104,2547.9897,N,07955.2456,W,1,7,2.0,16,M,,M,,*53
06/26/2015	05:11:04.548	$GPGGA,051105,2547.9887,N,07955.2458,W,1,7,2.2,16,M,,M,,*5F
06/26/2015	05:11:05.539	$GPGGA,051106,2547.9879,N,07955.2462,W,1,7,2.0,16,M,,M,,*56
06/26/2015	05:11:06.559	$GPGGA,051107,2547.9870,N,07955.2467,W,1,7,2.0,16,M,,M,,*5B
06/26/2015	05:11:07.559	$GPGGA,051108,2547.9862,N,07955.2469,W,1,8,2.0,15,M,,M,,*55
06/26/2015	05:11:08.619	$GPGGA,051109,2547.9854,N,07955.2473,W,1,8,2.0,15,M,,M,,*5A
06/26/2015	05:11:09.599	$GPGGA,051110,2547.9846,N,07955.2478,W,1,8,2.0,15,M,,M,,*5A
06/26/2015	05:11:10.548	$GPGGA,051111,2547.9838,N,07955.2482,W,1,8,2.0,15,M,,M,,*57
06/26/2015	05:11:11.595	$GPGGA,051112,2547.9832,N,07955.2486,W,1,8,2.0,15,M,,M,,*5A
06/26/2015	05:11:12.538	$GPGGA,051113,2547.9823,N,07955.2489,W,1,8,2.0,15,M,,M,,*54
06/26/2015	05:11:13.491	$GPGGA,051114,2547.9815,N,07955.2493,W,1,8,2.0,15,M,,M,,*5D
06/26/2015	05:11:14.568	$GPGGA,051115,2547.9808,N,07955.2496,W,1,8,2.0,15,M,,M,,*55
06/26/2015	05:11:15.618	$GPGGA,051116,2547.9799,N,07955.2500,W,1,8,2.0,15,M,,M,,*5F
06/26/2015	05:11:16.591	$GPGGA,051117,2547.9791,N,07955.2503,W,1,8,2.0,15,M,,M,,*55
06/26/2015	05:11:17.608	$GPGGA,051118,2547.9783,N,07955.2505,W,1,8,2.0,15,M,,M,,*5F
06/26/2015	05:11:18.588	$GPGGA,051119,2547.9775,N,07955.2508,W,1,8,2.0,15,M,,M,,*5A
06/26/2015	05:11:19.548	$GPGGA,051120,2547.9767,N,07955.2512,W,1,8,2.0,15,M,,M,,*58
06/26/2015	05:11:20.558	$GPGGA,051121,2547.9760,N,07955.2515,W,1,8,2.0,15,M,,M,,*59
06/26/2015	05:11:21.558	$GPGGA,051122,2547.9751,N,07955.2518,W,1,8,2.0,16,M,,M,,*56
06/26/2015	05:11:22.583	$GPGGA,051123,2547.9743,N,07955.2522,W,1,8,2.0,16,M,,M,,*5D
06/26/2015	05:11:23.588	$GPGGA,051124,2547.9735,N,07955.2525,W,1,8,2.0,16,M,,M,,*5C
06/26/2015	05:11:24.559	$GPGGA,051125,2547.9727,N,07955.2529,W,1,8,2.0,16,M,,M,,*52
06/26/2015	05:11:25.569	$GPGGA,051126,2547.9718,N,07955.2530,W,1,8,2.0,16,M,,M,,*55
06/26/2015	05:11:26.549	$GPGGA,051127,2547.9710,N,07955.2534,W,1,8,2.0,16,M,,M,,*58
06/26/2015	05:11:27.559	$GPGGA,051128,2547.9702,N,07955.2536,W,1,8,2.0,16,M,,M,,*56
06/26/2015	05:11:28.558	$GPGGA,051129,2547.9695,N,07955.2540,W,1,8,2.0,16,M,,M,,*59
06/26/2015	05:11:29.568	$GPGGA,051130,2547.9686,N,07955.2543,W,1,8,2.0,16,M,,M,,*50
06/26/2015	05:11:30.538	$GPGGA,051131,2547.9678,N,07955.2545,W,1,8,2.0,16,M,,M,,*56
06/26/2015	05:11:31.580	$GPGGA,051132,2547.9670,N,07955.2550,W,1,8,2.0,16,M,,M,,*59
06/26/2015	05:11:32.538	$GPGGA,051133,2547.9670,N,07955.2550,W,1,8,2.0,16,M,,M,,*58
06/26/2015	05:11:33.597	$GPGGA,051134,2547.9653,N,07955.2554,W,1,8,2.0,16,M,,M,,*5A
06/26/2015	05:11:34.548	$GPGGA,051135,2547.9645,N,07955.2558,W,1,8,2.0,16,M,,M,,*50
06/26/2015	05:11:35.548	$GPGGA,051136,2547.9637,N,07955.2561,W,1,8,2.0,16,M,,M,,*5C
06/26/2015	05:11:36.538	$GPGGA,051137,2547.9628,N,07955.2563,W,1,8,2.0,17,M,,M,,*50
06/26/2015	05:11:37.538	$GPGGA,051138,2547.9620,N,07955.2566,W,1,8,2.0,17,M,,M,,*52
06/26/2015	05:11:38.538	$GPGGA,051139,2547.9620,N,07955.2566,W,1,8,2.0,17,M,,M,,*53
06/26/2015	05:11:39.538	$GPGGA,051140,2547.9604,N,07955.2572,W,1,8,2.0,17,M,,M,,*5E
06/26/2015	05:11:40.539	$GPGGA,051141,2547.9595,N,07955.2576,W,1,8,2.1,17,M,,M,,*51
06/26/2015	05:11:41.539	$GPGGA,051142,2547.9586,N,07955.2579,W,1,8,2.1,17,M,,M,,*5F
06/26/2015	05:11:42.519	$GPGGA,051143,2547.9586,N,07955.2579,W,1,8,2.1,17,M,,M,,*5E
06/26/2015	05:11:43.559	$GPGGA,051144,2547.9569,N,07955.2584,W,1,8,2.1,17,M,,M,,*5A
06/26/2015	05:11:44.539	$GPGGA,051145,2547.9569,N,07955.2584,W,1,8,2.1,17,M,,M,,*5B
06/26/2015	05:11:45.548	$GPGGA,051146,2547.9554,N,07955.2590,W,1,8,2.1,17,M,,M,,*53
06/26/2015	05:11:46.548	$GPGGA,051147,2547.9545,N,07955.2594,W,1,8,2.1,17,M,,M,,*56
06/26/2015	05:11:47.528	$GPGGA,051148,2547.9537,N,07955.2598,W,1,8,2.1,17,M,,M,,*50
06/26/2015	05:11:48.538	$GPGGA,051149,2547.9529,N,07955.2601,W,1,8,2.1,16,M,,M,,*5C
06/26/2015	05:11:49.508	$GPGGA,051150,2547.9520,N,07955.2603,W,1,8,2.1,16,M,,M,,*5F
06/26/2015	05:11:50.618	$GPGGA,051151,2547.9512,N,07955.2606,W,1,8,2.1,16,M,,M,,*5A
