Software Version Number: 1	Data File Format Number: 1	Build Version Number: 1	Error Count Since VI Started: 1	Manufacturer: Raytheon	 Model Number: RayMarine 120	 S/N: 	 Cal Date: 	 Wind Direction Offset: 0.00	 Slope (M)1: 0.00	 Offset (B)1: 0.00	 Slope (M)2: 0.00	 Offset (B)2: 0.00	 Slope (M)3: 0.00	 Offset (B)3: 0.00	 Slope (M)4: 0.00	 Offset (B)4: 0.00	 Slope (M)5: 0.00	 Offset (B)5: 0.00	 Slope (M)6: 0.00	 Offset (B)6: 0.00
Computer Date	Computer Time	GGA String
06/12/2015	21:00:00.501	$GPGGA,210001,2411.4385,N,08103.9046,W,1,11,1.4,19,M,,M,,*62
06/12/2015	21:00:01.671	$GPGGA,210002,2411.4375,N,08103.9033,W,1,11,1.6,19,M,,M,,*6E
06/12/2015	21:00:02.581	$GPGGA,210003,2411.4366,N,08103.9022,W,1,11,1.6,19,M,,M,,*6D
06/12/2015	21:00:03.671	$GPGGA,210004,2411.4355,N,08103.9008,W,1,11,1.4,19,M,,M,,*60
06/12/2015	21:00:04.528	$GPGGA,210005,2411.4345,N,08103.8996,W,1,11,1.4,19,M,,M,,*6F
06/12/2015	21:00:05.629	$GPGGA,210006,2411.4335,N,08103.8986,W,1,11,1.4,19,M,,M,,*6A
06/12/2015	21:00:06.571	$GPGGA,210007,2411.4325,N,08103.8973,W,1,11,1.4,19,M,,M,,*60
06/12/2015	21:00:07.671	$GPGGA,210008,2411.4314,N,08103.8959,W,1,11,1.4,19,M,,M,,*65
06/12/2015	21:00:08.571	$GPGGA,210009,2411.4305,N,08103.8948,W,1,11,1.4,19,M,,M,,*64
06/12/2015	21:00:09.633	$GPGGA,210010,2411.4295,N,08103.8938,W,1,11,1.4,19,M,,M,,*63
06/12/2015	21:00:10.571	$GPGGA,210011,2411.4284,N,08103.8926,W,1,11,1.4,19,M,,M,,*6D
06/12/2015	21:00:11.661	$GPGGA,210012,2411.4274,N,08103.8914,W,1,11,1.6,19,M,,M,,*62
06/12/2015	21:00:12.638	$GPGGA,210013,2411.4265,N,08103.8901,W,1,11,1.6,19,M,,M,,*67
06/12/2015	21:00:13.601	$GPGGA,210014,2411.4255,N,08103.8890,W,1,11,1.4,19,M,,M,,*68
06/12/2015	21:00:14.641	$GPGGA,210015,2411.4244,N,08103.8882,W,1,11,1.4,19,M,,M,,*6A
06/12/2015	21:00:15.611	$GPGGA,210016,2411.4232,N,08103.8869,W,1,11,1.4,19,M,,M,,*6D
06/12/2015	21:00:16.611	$GPGGA,210017,2411.4225,N,08103.8854,W,1,11,1.4,19,M,,M,,*64
06/12/2015	21:00:17.601	$GPGGA,210018,2411.4215,N,08103.8842,W,1,11,1.4,19,M,,M,,*6F
06/12/2015	21:00:18.611	$GPGGA,210019,2411.4204,N,08103.8833,W,1,11,1.4,19,M,,M,,*68
06/12/2015	21:00:19.623	$GPGGA,210020,2411.4194,N,08103.8823,W,1,11,1.4,19,M,,M,,*69
06/12/2015	21:00:20.611	$GPGGA,210021,2411.4184,N,08103.8808,W,1,11,1.4,19,M,,M,,*60
06/12/2015	21:00:21.601	$GPGGA,210022,2411.4176,N,08103.8798,W,1,11,1.4,19,M,,M,,*68
06/12/2015	21:00:22.623	$GPGGA,210023,2411.4167,N,08103.8791,W,1,11,1.4,19,M,,M,,*60
06/12/2015	21:00:23.601	$GPGGA,210024,2411.4156,N,08103.8779,W,1,11,1.4,19,M,,M,,*63
06/12/2015	21:00:24.611	$GPGGA,210025,2411.4147,N,08103.8766,W,1,11,1.6,19,M,,M,,*6E
06/12/2015	21:00:25.601	$GPGGA,210026,2411.4139,N,08103.8756,W,1,11,1.4,19,M,,M,,*65
06/12/2015	21:00:26.591	$GPGGA,210027,2411.4129,N,08103.8746,W,1,11,1.4,19,M,,M,,*64
06/12/2015	21:00:27.591	$GPGGA,210028,2411.4118,N,08103.8737,W,1,11,1.4,19,M,,M,,*6F
06/12/2015	21:00:28.533	$GPGGA,210029,2411.4110,N,08103.8725,W,1,11,1.4,19,M,,M,,*65
06/12/2015	21:00:29.601	$GPGGA,210030,2411.4101,N,08103.8711,W,1,11,1.6,19,M,,M,,*68
06/12/2015	21:00:30.591	$GPGGA,210031,2411.4090,N,08103.8701,W,1,11,1.6,19,M,,M,,*61
06/12/2015	21:00:31.601	$GPGGA,210032,2411.4079,N,08103.8694,W,1,11,1.4,19,M,,M,,*6A
06/12/2015	21:00:32.545	$GPGGA,210033,2411.4070,N,08103.8682,W,1,11,1.4,19,M,,M,,*65
06/12/2015	21:00:33.541	$GPGGA,210034,2411.4061,N,08103.8668,W,1,11,1.6,19,M,,M,,*64
06/12/2015	21:00:34.511	$GPGGA,210035,2411.4050,N,08103.8657,W,1,11,1.6,19,M,,M,,*6B
06/12/2015	21:00:35.611	$GPGGA,210036,2411.4038,N,08103.8649,W,1,9,1.7,19,M,,M,,*51
06/12/2015	21:00:36.571	$GPGGA,210037,2411.4030,N,08103.8639,W,1,9,1.4,19,M,,M,,*5C
06/12/2015	21:00:37.543	$GPGGA,210038,2411.4019,N,08103.8625,W,1,11,1.4,19,M,,M,,*6C
06/12/2015	21:00:38.511	$GPGGA,210039,2411.4007,N,08103.8613,W,1,11,1.4,19,M,,M,,*67
06/12/2015	21:00:39.601	$GPGGA,210040,2411.3997,N,08103.8605,W,1,11,1.4,19,M,,M,,*69
06/12/2015	21:00:40.501	$GPGGA,210041,2411.3987,N,08103.8596,W,1,11,1.4,19,M,,M,,*60
06/12/2015	21:00:41.533	$GPGGA,210042,2411.3976,N,08103.8584,W,1,11,1.4,19,M,,M,,*6E
06/12/2015	21:00:42.501	$GPGGA,210043,2411.3967,N,08103.8571,W,1,11,1.4,19,M,,M,,*65
06/12/2015	21:00:43.581	$GPGGA,210044,2411.3959,N,08103.8559,W,1,11,1.4,19,M,,M,,*65
06/12/2015	21:00:44.571	$GPGGA,210045,2411.3948,N,08103.8548,W,1,11,1.4,19,M,,M,,*64
06/12/2015	21:00:45.651	$GPGGA,210046,2411.3938,N,08103.8536,W,1,11,1.4,19,M,,M,,*69
06/12/2015	21:00:46.561	$GPGGA,210047,2411.3931,N,08103.8525,W,1,11,1.4,20,M,,M,,*69
06/12/2015	21:00:47.611	$GPGGA,210048,2411.3920,N,08103.8513,W,1,11,1.4,20,M,,M,,*63
06/12/2015	21:00:48.561	$GPGGA,210049,2411.3912,N,08103.8501,W,1,11,1.4,20,M,,M,,*60
06/12/2015	21:00:49.591	$GPGGA,210050,2411.3904,N,08103.8488,W,1,11,1.4,20,M,,M,,*6F
06/12/2015	21:00:50.591	$GPGGA,210051,2411.3894,N,08103.8475,W,1,11,1.4,20,M,,M,,*64
06/12/2015	21:00:51.623	$GPGGA,210052,2411.3885,N,08103.8466,W,1,11,1.4,20,M,,M,,*65
06/12/2015	21:00:52.551	$GPGGA,210053,2411.3876,N,08103.8457,W,1,11,1.4,20,M,,M,,*6A
06/12/2015	21:00:53.601	$GPGGA,210054,2411.3866,N,08103.8441,W,1,11,1.4,20,M,,M,,*6B
06/12/2015	21:00:54.541	$GPGGA,210055,2411.3860,N,08103.8426,W,1,11,1.6,20,M,,M,,*6F
06/12/2015	21:00:55.591	$GPGGA,210056,2411.3850,N,08103.8417,W,1,10,1.4,20,M,,M,,*6E
06/12/2015	21:00:56.571	$GPGGA,210057,2411.3839,N,08103.8407,W,1,10,1.4,20,M,,M,,*61
06/12/2015	21:00:57.561	$GPGGA,210058,2411.3832,N,08103.8394,W,1,11,1.6,20,M,,M,,*6B
06/12/2015	21:00:58.581	$GPGGA,210059,2411.3824,N,08103.8380,W,1,11,1.4,20,M,,M,,*6A
06/12/2015	21:00:59.601	$GPGGA,210100,2411.3814,N,08103.8368,W,1,11,1.4,20,M,,M,,*62
06/12/2015	21:01:00.591	$GPGGA,210101,2411.3806,N,08103.8359,W,1,11,1.4,20,M,,M,,*62
06/12/2015	21:01:01.581	$GPGGA,210102,2411.3796,N,08103.8347,W,1,11,1.4,19,M,,M,,*62
06/12/2015	21:01:02.591	$GPGGA,210103,2411.3788,N,08103.8333,W,1,11,1.4,19,M,,M,,*6F
06/12/2015	21:01:03.591	$GPGGA,210104,2411.3777,N,08103.8322,W,1,11,1.4,19,M,,M,,*68
06/12/2015	21:01:04.561	$GPGGA,210105,2411.3777,N,08103.8322,W,1,11,1.4,19,M,,M,,*69
06/12/2015	21:01:05.571	$GPGGA,210106,2411.3760,N,08103.8301,W,1,11,1.4,19,M,,M,,*6D
06/12/2015	21:01:06.561	$GPGGA,210107,2411.3750,N,08103.8288,W,1,11,1.4,19,M,,M,,*6F
06/12/2015	21:01:07.611	$GPGGA,210108,2411.3742,N,08103.8279,W,1,11,1.4,19,M,,M,,*6D
06/12/2015	21:01:08.561	$GPGGA,210109,2411.3732,N,08103.8268,W,1,11,1.6,19,M,,M,,*69
06/12/2015	21:01:09.552	$GPGGA,210110,2411.3723,N,08103.8257,W,1,10,1.4,19,M,,M,,*6E
06/12/2015	21:01:10.561	$GPGGA,210111,2411.3714,N,08103.8245,W,1,10,1.4,19,M,,M,,*68
06/12/2015	21:01:11.591	$GPGGA,210112,2411.3705,N,08103.8235,W,1,11,1.5,19,M,,M,,*6C
06/12/2015	21:01:12.541	$GPGGA,210113,2411.3694,N,08103.8227,W,1,11,1.4,19,M,,M,,*66
06/12/2015	21:01:13.541	$GPGGA,210114,2411.3682,N,08103.8213,W,1,11,1.4,19,M,,M,,*61
06/12/2015	21:01:14.561	$GPGGA,210115,2411.3682,N,08103.8213,W,1,11,1.4,19,M,,M,,*60
06/12/2015	21:01:15.571	$GPGGA,210116,2411.3665,N,08103.8194,W,1,11,1.4,19,M,,M,,*66
06/12/2015	21:01:16.551	$GPGGA,210117,2411.3665,N,08103.8194,W,1,11,1.4,19,M,,M,,*67
06/12/2015	21:01:17.561	$GPGGA,210118,2411.3652,N,08103.8183,W,1,11,1.4,19,M,,M,,*6A
06/12/2015	21:01:18.551	$GPGGA,210119,2411.3636,N,08103.8163,W,1,11,1.4,19,M,,M,,*67
06/12/2015	21:01:19.551	$GPGGA,210120,2411.3623,N,08103.8153,W,1,11,1.4,19,M,,M,,*6A
06/12/2015	21:01:20.523	$GPGGA,210121,2411.3623,N,08103.8153,W,1,11,1.4,19,M,,M,,*6B
06/12/2015	21:01:21.551	$GPGGA,210122,2411.3608,N,08103.8131,W,1,11,1.4,19,M,,M,,*65
06/12/2015	21:01:22.541	$GPGGA,210123,2411.3596,N,08103.8124,W,1,11,1.4,19,M,,M,,*64
06/12/2015	21:01:23.571	$GPGGA,210124,2411.3586,N,08103.8111,W,1,11,1.4,19,M,,M,,*64
06/12/2015	21:01:24.561	$GPGGA,210125,2411.3586,N,08103.8111,W,1,11,1.4,19,M,,M,,*65
06/12/2015	21:01:25.551	$GPGGA,210126,2411.3571,N,08103.8090,W,1,11,1.4,19,M,,M,,*66
06/12/2015	21:01:26.844	$GPGGA,210127,2411.3571,N,08103.8090,W,1,11,1.4,19,M,,M,,*67
06/12/2015	21:01:27.633	$GPGGA,210128,2411.3550,N,08103.8069,W,1,11,1.4,19,M,,M,,*6D
06/12/2015	21:01:28.551	$GPGGA,210129,2411.3544,N,08103.8055,W,1,11,1.6,19,M,,M,,*64
06/12/2015	21:01:29.511	$GPGGA,210130,2411.3535,N,08103.8047,W,1,10,1.4,19,M,,M,,*6A
06/12/2015	21:01:30.524	$GPGGA,210131,2411.3535,N,08103.8047,W,1,10,1.4,19,M,,M,,*6B
06/12/2015	21:01:31.511	$GPGGA,210132,2411.3517,N,08103.8029,W,1,11,1.4,19,M,,M,,*61
06/12/2015	21:01:32.511	$GPGGA,210133,2411.3508,N,08103.8017,W,1,11,1.4,19,M,,M,,*63
06/12/2015	21:01:33.591	$GPGGA,210134,2411.3499,N,08103.8004,W,1,11,1.4,19,M,,M,,*6F
06/12/2015	21:01:34.532	$GPGGA,210135,2411.3499,N,08103.8004,W,1,11,1.4,19,M,,M,,*6E
06/12/2015	21:01:35.633	$GPGGA,210136,2411.3478,N,08103.7987,W,1,11,1.4,19,M,,M,,*6F
06/12/2015	21:01:37.043	$GPGGA,210137,2411.3470,N,08103.7973,W,1,11,1.4,19,M,,M,,*6D
06/12/2015	21:01:37.491	$GPGGA,210138,2411.3463,N,08103.7959,W,1,11,1.4,19,M,,M,,*68
06/12/2015	21:01:38.581	$GPGGA,210139,2411.3452,N,08103.7950,W,1,11,1.6,19,M,,M,,*60
06/12/2015	21:01:39.591	$GPGGA,210140,2411.3442,N,08103.7938,W,1,11,1.4,19,M,,M,,*63
06/12/2015	21:01:40.491	$GPGGA,210141,2411.3442,N,08103.7938,W,1,11,1.4,19,M,,M,,*62
06/12/2015	21:01:41.851	$GPGGA,210142,2411.3424,N,08103.7912,W,1,11,1.4,19,M,,M,,*69
06/12/2015	21:01:42.571	$GPGGA,210143,2411.3414,N,08103.7900,W,1,11,1.4,19,M,,M,,*68
06/12/2015	21:01:43.611	$GPGGA,210144,2411.3405,N,08103.7888,W,1,11,1.4,19,M,,M,,*6E
06/12/2015	21:01:44.581	$GPGGA,210145,2411.3394,N,08103.7876,W,1,11,1.4,19,M,,M,,*61
06/12/2015	21:01:45.561	$GPGGA,210146,2411.3385,N,08103.7863,W,1,11,1.4,19,M,,M,,*66
06/12/2015	21:01:46.581	$GPGGA,210147,2411.3378,N,08103.7848,W,1,11,1.4,19,M,,M,,*6C
06/12/2015	21:01:47.601	$GPGGA,210148,2411.3367,N,08103.7837,W,1,11,1.4,19,M,,M,,*65
06/12/2015	21:01:48.571	$GPGGA,210149,2411.3356,N,08103.7827,W,1,11,1.4,19,M,,M,,*67
06/12/2015	21:01:49.581	$GPGGA,210150,2411.3347,N,08103.7813,W,1,11,1.4,19,M,,M,,*68
06/12/2015	21:01:50.571	$GPGGA,210151,2411.3340,N,08103.7799,W,1,11,1.4,19,M,,M,,*63
06/12/2015	21:01:51.601	$GPGGA,210152,2411.3329,N,08103.7787,W,1,11,1.4,19,M,,M,,*60
06/12/2015	21:01:52.561	$GPGGA,210153,2411.3318,N,08103.7775,W,1,11,1.4,19,M,,M,,*6E
06/12/2015	21:01:53.551	$GPGGA,210154,2411.3308,N,08103.7763,W,1,11,1.4,19,M,,M,,*6F
06/12/2015	21:01:54.541	$GPGGA,210155,2411.3299,N,08103.7749,W,1,11,1.4,19,M,,M,,*6F
06/12/2015	21:01:55.581	$GPGGA,210156,2411.3290,N,08103.7735,W,1,11,1.4,19,M,,M,,*6E
06/12/2015	21:01:56.551	$GPGGA,210157,2411.3279,N,08103.7724,W,1,11,1.7,19,M,,M,,*6B
06/12/2015	21:01:57.541	$GPGGA,210158,2411.3269,N,08103.7712,W,1,11,1.4,19,M,,M,,*63
06/12/2015	21:01:58.551	$GPGGA,210159,2411.3258,N,08103.7698,W,1,11,1.4,19,M,,M,,*63
06/12/2015	21:01:59.581	$GPGGA,210200,2411.3250,N,08103.7686,W,1,11,1.4,19,M,,M,,*6B
06/12/2015	21:02:00.541	$GPGGA,210201,2411.3239,N,08103.7675,W,1,11,1.4,19,M,,M,,*69
06/12/2015	21:02:01.532	$GPGGA,210202,2411.3228,N,08103.7662,W,1,11,1.4,19,M,,M,,*6C
06/12/2015	21:02:02.541	$GPGGA,210203,2411.3219,N,08103.7649,W,1,11,1.4,19,M,,M,,*66
06/12/2015	21:02:03.532	$GPGGA,210204,2411.3208,N,08103.7638,W,1,11,1.4,19,M,,M,,*67
06/12/2015	21:02:04.532	$GPGGA,210205,2411.3199,N,08103.7626,W,1,11,1.4,19,M,,M,,*62
06/12/2015	21:02:05.541	$GPGGA,210206,2411.3189,N,08103.7613,W,1,11,1.4,19,M,,M,,*66
06/12/2015	21:02:06.531	$GPGGA,210207,2411.3181,N,08103.7600,W,1,11,1.4,19,M,,M,,*6D
06/12/2015	21:02:07.551	$GPGGA,210208,2411.3167,N,08103.7588,W,1,11,1.4,19,M,,M,,*69
06/12/2015	21:02:08.531	$GPGGA,210209,2411.3157,N,08103.7577,W,1,11,1.4,19,M,,M,,*6B
06/12/2015	21:02:09.521	$GPGGA,210210,2411.3149,N,08103.7566,W,1,10,1.6,19,M,,M,,*6F
06/12/2015	21:02:10.541	$GPGGA,210211,2411.3138,N,08103.7553,W,1,10,1.4,19,M,,M,,*6C
06/12/2015	21:02:11.641	$GPGGA,210212,2411.3127,N,08103.7541,W,1,11,1.4,19,M,,M,,*63
06/12/2015	21:02:12.533	$GPGGA,210213,2411.3116,N,08103.7532,W,1,11,1.4,19,M,,M,,*64
06/12/2015	21:02:13.601	$GPGGA,210214,2411.3106,N,08103.7519,W,1,11,1.4,19,M,,M,,*6B
06/12/2015	21:02:14.501	$GPGGA,210215,2411.3095,N,08103.7507,W,1,11,1.4,19,M,,M,,*6E
06/12/2015	21:02:15.611	$GPGGA,210216,2411.3084,N,08103.7499,W,1,11,1.4,19,M,,M,,*6B
06/12/2015	21:02:16.528	$GPGGA,210217,2411.3074,N,08103.7488,W,1,11,1.4,19,M,,M,,*65
06/12/2015	21:02:17.524	$GPGGA,210218,2411.3065,N,08103.7473,W,1,11,1.4,19,M,,M,,*6E
06/12/2015	21:02:18.501	$GPGGA,210219,2411.3055,N,08103.7462,W,1,11,1.4,19,M,,M,,*6C
06/12/2015	21:02:19.511	$GPGGA,210220,2411.3042,N,08103.7454,W,1,11,1.4,19,M,,M,,*65
06/12/2015	21:02:20.501	$GPGGA,210221,2411.3033,N,08103.7443,W,1,11,1.5,19,M,,M,,*65
06/12/2015	21:02:21.502	$GPGGA,210222,2411.3023,N,08103.7429,W,1,11,1.4,19,M,,M,,*6A
06/12/2015	21:02:22.511	$GPGGA,210223,2411.3012,N,08103.7417,W,1,11,1.4,19,M,,M,,*64
06/12/2015	21:02:23.611	$GPGGA,210224,2411.3000,N,08103.7406,W,1,10,1.6,19,M,,M,,*63
06/12/2015	21:02:24.533	$GPGGA,210225,2411.2990,N,08103.7394,W,1,10,1.4,19,M,,M,,*6D
06/12/2015	21:02:25.602	$GPGGA,210226,2411.2981,N,08103.7383,W,1,11,1.4,19,M,,M,,*69
06/12/2015	21:02:26.571	$GPGGA,210227,2411.2969,N,08103.7372,W,1,11,1.5,19,M,,M,,*61
06/12/2015	21:02:27.611	$GPGGA,210228,2411.2958,N,08103.7360,W,1,11,1.4,19,M,,M,,*6E
06/12/2015	21:02:28.581	$GPGGA,210229,2411.2950,N,08103.7349,W,1,11,1.4,19,M,,M,,*6C
06/12/2015	21:02:29.591	$GPGGA,210230,2411.2939,N,08103.7339,W,1,11,1.4,19,M,,M,,*6C
06/12/2015	21:02:30.571	$GPGGA,210231,2411.2929,N,08103.7326,W,1,11,1.4,19,M,,M,,*62
06/12/2015	21:02:31.611	$GPGGA,210232,2411.2921,N,08103.7315,W,1,11,1.4,19,M,,M,,*69
06/12/2015	21:02:32.581	$GPGGA,210233,2411.2910,N,08103.7304,W,1,11,1.4,19,M,,M,,*6A
06/12/2015	21:02:33.561	$GPGGA,210234,2411.2901,N,08103.7292,W,1,11,1.4,19,M,,M,,*63
06/12/2015	21:02:34.561	$GPGGA,210235,2411.2890,N,08103.7280,W,1,11,1.4,19,M,,M,,*68
06/12/2015	21:02:35.612	$GPGGA,210236,2411.2881,N,08103.7269,W,1,11,1.4,19,M,,M,,*6C
06/12/2015	21:02:36.562	$GPGGA,210237,2411.2872,N,08103.7258,W,1,11,1.6,19,M,,M,,*61
06/12/2015	21:02:37.581	$GPGGA,210238,2411.2861,N,08103.7246,W,1,10,1.6,19,M,,M,,*62
06/12/2015	21:02:38.561	$GPGGA,210239,2411.2851,N,08103.7234,W,1,10,1.4,19,M,,M,,*67
06/12/2015	21:02:39.561	$GPGGA,210240,2411.2841,N,08103.7224,W,1,11,1.4,19,M,,M,,*68
06/12/2015	21:02:40.561	$GPGGA,210241,2411.2831,N,08103.7212,W,1,11,1.4,19,M,,M,,*6B
06/12/2015	21:02:41.551	$GPGGA,210242,2411.2822,N,08103.7199,W,1,10,1.6,19,M,,M,,*69
06/12/2015	21:02:42.561	$GPGGA,210243,2411.2811,N,08103.7188,W,1,10,1.4,19,M,,M,,*6A
06/12/2015	21:02:43.581	$GPGGA,210244,2411.2800,N,08103.7177,W,1,11,1.4,20,M,,M,,*66
06/12/2015	21:02:44.552	$GPGGA,210245,2411.2791,N,08103.7164,W,1,11,1.4,20,M,,M,,*62
06/12/2015	21:02:45.531	$GPGGA,210246,2411.2781,N,08103.7152,W,1,11,1.4,20,M,,M,,*65
06/12/2015	21:02:46.551	$GPGGA,210247,2411.2773,N,08103.7142,W,1,11,1.4,20,M,,M,,*68
06/12/2015	21:02:47.571	$GPGGA,210248,2411.2762,N,08103.7129,W,1,11,1.4,20,M,,M,,*6A
06/12/2015	21:02:48.544	$GPGGA,210249,2411.2751,N,08103.7116,W,1,11,1.4,20,M,,M,,*67
06/12/2015	21:02:49.561	$GPGGA,210250,2411.2742,N,08103.7107,W,1,11,1.4,20,M,,M,,*6D
06/12/2015	21:02:50.539	$GPGGA,210251,2411.2735,N,08103.7095,W,1,11,1.4,20,M,,M,,*66
06/12/2015	21:02:51.561	$GPGGA,210252,2411.2724,N,08103.7082,W,1,11,1.4,20,M,,M,,*63
06/12/2015	21:02:52.546	$GPGGA,210253,2411.2715,N,08103.7072,W,1,11,1.4,20,M,,M,,*6F
06/12/2015	21:02:53.543	$GPGGA,210254,2411.2706,N,08103.7061,W,1,11,1.4,20,M,,M,,*68
06/12/2015	21:02:54.528	$GPGGA,210255,2411.2697,N,08103.7047,W,1,11,1.6,20,M,,M,,*66
06/12/2015	21:02:55.541	$GPGGA,210256,2411.2688,N,08103.7035,W,1,10,1.6,20,M,,M,,*6F
06/12/2015	21:02:56.539	$GPGGA,210257,2411.2679,N,08103.7024,W,1,10,1.6,20,M,,M,,*60
06/12/2015	21:02:57.841	$GPGGA,210258,2411.2669,N,08103.7012,W,1,11,1.4,20,M,,M,,*68
06/12/2015	21:02:58.529	$GPGGA,210259,2411.2661,N,08103.7001,W,1,11,1.4,20,M,,M,,*63
06/12/2015	21:02:59.626	$GPGGA,210300,2411.2652,N,08103.6990,W,1,11,1.4,20,M,,M,,*6E
06/12/2015	21:03:00.526	$GPGGA,210301,2411.2643,N,08103.6977,W,1,11,1.4,20,M,,M,,*66
06/12/2015	21:03:01.637	$GPGGA,210302,2411.2632,N,08103.6965,W,1,11,1.4,20,M,,M,,*60
06/12/2015	21:03:02.511	$GPGGA,210303,2411.2621,N,08103.6954,W,1,11,1.4,20,M,,M,,*61
06/12/2015	21:03:03.627	$GPGGA,210304,2411.2612,N,08103.6943,W,1,11,1.4,20,M,,M,,*60
06/12/2015	21:03:04.511	$GPGGA,210305,2411.2603,N,08103.6931,W,1,11,1.4,20,M,,M,,*64
06/12/2015	21:03:05.611	$GPGGA,210306,2411.2593,N,08103.6919,W,1,11,1.4,20,M,,M,,*67
06/12/2015	21:03:06.511	$GPGGA,210307,2411.2583,N,08103.6907,W,1,11,1.4,20,M,,M,,*68
06/12/2015	21:03:07.541	$GPGGA,210308,2411.2574,N,08103.6896,W,1,11,1.4,20,M,,M,,*66
06/12/2015	21:03:08.501	$GPGGA,210309,2411.2563,N,08103.6885,W,1,11,1.4,20,M,,M,,*63
06/12/2015	21:03:09.634	$GPGGA,210310,2411.2554,N,08103.6874,W,1,11,1.4,20,M,,M,,*61
06/12/2015	21:03:10.592	$GPGGA,210311,2411.2544,N,08103.6859,W,1,11,1.4,20,M,,M,,*6E
06/12/2015	21:03:11.630	$GPGGA,210312,2411.2534,N,08103.6847,W,1,9,1.7,20,M,,M,,*5F
06/12/2015	21:03:12.501	$GPGGA,210313,2411.2524,N,08103.6838,W,1,9,1.4,20,M,,M,,*54
06/12/2015	21:03:13.581	$GPGGA,210314,2411.2513,N,08103.6827,W,1,10,1.6,20,M,,M,,*63
06/12/2015	21:03:14.581	$GPGGA,210315,2411.2505,N,08103.6813,W,1,10,1.4,20,M,,M,,*60
06/12/2015	21:03:15.591	$GPGGA,210316,2411.2495,N,08103.6803,W,1,10,1.6,20,M,,M,,*68
06/12/2015	21:03:16.481	$GPGGA,210317,2411.2482,N,08103.6791,W,1,10,1.4,20,M,,M,,*69
06/12/2015	21:03:17.591	$GPGGA,210318,2411.2474,N,08103.6778,W,1,11,1.4,20,M,,M,,*69
06/12/2015	21:03:18.571	$GPGGA,210319,2411.2464,N,08103.6766,W,1,11,1.4,20,M,,M,,*66
06/12/2015	21:03:19.601	$GPGGA,210320,2411.2452,N,08103.6756,W,1,11,1.4,20,M,,M,,*6A
06/12/2015	21:03:20.561	$GPGGA,210321,2411.2444,N,08103.6744,W,1,11,1.4,20,M,,M,,*6F
06/12/2015	21:03:21.591	$GPGGA,210322,2411.2434,N,08103.6731,W,1,11,1.4,20,M,,M,,*69
06/12/2015	21:03:22.571	$GPGGA,210323,2411.2422,N,08103.6719,W,1,11,1.4,20,M,,M,,*65
06/12/2015	21:03:23.611	$GPGGA,210324,2411.2411,N,08103.6708,W,1,11,1.4,20,M,,M,,*62
06/12/2015	21:03:24.571	$GPGGA,210325,2411.2402,N,08103.6698,W,1,11,1.6,20,M,,M,,*6B
06/12/2015	21:03:25.561	$GPGGA,210326,2411.2392,N,08103.6685,W,1,10,1.6,19,M,,M,,*61
06/12/2015	21:03:26.551	$GPGGA,210327,2411.2381,N,08103.6672,W,1,10,1.4,19,M,,M,,*68
06/12/2015	21:03:27.581	$GPGGA,210328,2411.2370,N,08103.6663,W,1,11,1.4,19,M,,M,,*68
06/12/2015	21:03:28.551	$GPGGA,210329,2411.2361,N,08103.6651,W,1,11,1.4,19,M,,M,,*68
06/12/2015	21:03:29.541	$GPGGA,210330,2411.2351,N,08103.6640,W,1,10,1.6,19,M,,M,,*60
06/12/2015	21:03:30.551	$GPGGA,210331,2411.2340,N,08103.6629,W,1,10,1.4,19,M,,M,,*6C
06/12/2015	21:03:31.581	$GPGGA,210332,2411.2330,N,08103.6616,W,1,11,1.4,19,M,,M,,*65
06/12/2015	21:03:32.551	$GPGGA,210333,2411.2322,N,08103.6601,W,1,11,1.4,19,M,,M,,*61
06/12/2015	21:03:33.571	$GPGGA,210334,2411.2312,N,08103.6593,W,1,10,1.6,19,M,,M,,*6E
06/12/2015	21:03:34.541	$GPGGA,210335,2411.2301,N,08103.6584,W,1,10,1.6,19,M,,M,,*6B
06/12/2015	21:03:35.551	$GPGGA,210336,2411.2292,N,08103.6569,W,1,10,1.6,19,M,,M,,*60
06/12/2015	21:03:36.533	$GPGGA,210337,2411.2283,N,08103.6554,W,1,10,1.4,19,M,,M,,*6D
06/12/2015	21:03:37.541	$GPGGA,210338,2411.2273,N,08103.6547,W,1,10,1.6,19,M,,M,,*6D
06/12/2015	21:03:38.541	$GPGGA,210339,2411.2263,N,08103.6537,W,1,10,1.4,19,M,,M,,*68
06/12/2015	21:03:39.541	$GPGGA,210340,2411.2255,N,08103.6523,W,1,11,1.4,19,M,,M,,*67
06/12/2015	21:03:40.535	$GPGGA,210341,2411.2246,N,08103.6512,W,1,11,1.5,19,M,,M,,*67
06/12/2015	21:03:41.523	$GPGGA,210342,2411.2238,N,08103.6502,W,1,11,1.5,19,M,,M,,*6C
06/12/2015	21:03:42.531	$GPGGA,210343,2411.2227,N,08103.6489,W,1,11,1.5,19,M,,M,,*61
06/12/2015	21:03:43.522	$GPGGA,210344,2411.2218,N,08103.6477,W,1,11,1.5,19,M,,M,,*6B
06/12/2015	21:03:44.532	$GPGGA,210345,2411.2210,N,08103.6466,W,1,11,1.5,19,M,,M,,*62
06/12/2015	21:03:45.634	$GPGGA,210346,2411.2200,N,08103.6454,W,1,10,1.6,19,M,,M,,*63
06/12/2015	21:03:46.534	$GPGGA,210347,2411.2191,N,08103.6442,W,1,10,1.6,19,M,,M,,*6E
06/12/2015	21:03:47.561	$GPGGA,210348,2411.2184,N,08103.6427,W,1,11,1.5,19,M,,M,,*64
06/12/2015	21:03:48.525	$GPGGA,210349,2411.2174,N,08103.6415,W,1,11,1.6,19,M,,M,,*68
06/12/2015	21:03:49.530	$GPGGA,210350,2411.2164,N,08103.6405,W,1,10,1.5,19,M,,M,,*62
06/12/2015	21:03:50.523	$GPGGA,210351,2411.2155,N,08103.6394,W,1,10,1.5,19,M,,M,,*6E
06/12/2015	21:03:51.635	$GPGGA,210352,2411.2146,N,08103.6379,W,1,11,1.5,19,M,,M,,*6D
06/12/2015	21:03:52.511	$GPGGA,210353,2411.2137,N,08103.6367,W,1,11,1.5,19,M,,M,,*65
06/12/2015	21:03:53.501	$GPGGA,210354,2411.2126,N,08103.6356,W,1,11,1.5,19,M,,M,,*60
06/12/2015	21:03:54.491	$GPGGA,210355,2411.2116,N,08103.6343,W,1,11,1.5,19,M,,M,,*66
06/12/2015	21:03:55.601	$GPGGA,210356,2411.2108,N,08103.6331,W,1,11,1.5,19,M,,M,,*6F
06/12/2015	21:03:56.501	$GPGGA,210357,2411.2097,N,08103.6317,W,1,11,1.5,19,M,,M,,*6D
06/12/2015	21:03:57.601	$GPGGA,210358,2411.2087,N,08103.6304,W,1,10,1.6,19,M,,M,,*63
06/12/2015	21:03:58.501	$GPGGA,210359,2411.2076,N,08103.6292,W,1,10,1.5,19,M,,M,,*61
06/12/2015	21:03:59.611	$GPGGA,210400,2411.2066,N,08103.6279,W,1,11,1.5,19,M,,M,,*6F
06/12/2015	21:04:00.501	$GPGGA,210401,2411.2057,N,08103.6265,W,1,11,1.5,19,M,,M,,*61
06/12/2015	21:04:01.601	$GPGGA,210402,2411.2047,N,08103.6254,W,1,11,1.5,19,M,,M,,*61
06/12/2015	21:04:02.581	$GPGGA,210403,2411.2034,N,08103.6243,W,1,11,1.5,19,M,,M,,*62
06/12/2015	21:04:03.601	$GPGGA,210404,2411.2025,N,08103.6229,W,1,11,1.5,19,M,,M,,*69
06/12/2015	21:04:04.581	$GPGGA,210405,2411.2014,N,08103.6216,W,1,11,1.5,19,M,,M,,*66
06/12/2015	21:04:05.581	$GPGGA,210406,2411.2003,N,08103.6205,W,1,11,1.5,19,M,,M,,*61
06/12/2015	21:04:06.571	$GPGGA,210407,2411.1992,N,08103.6193,W,1,11,1.5,19,M,,M,,*6E
06/12/2015	21:04:07.571	$GPGGA,210408,2411.1982,N,08103.6181,W,1,11,1.5,19,M,,M,,*63
06/12/2015	21:04:08.571	$GPGGA,210409,2411.1971,N,08103.6170,W,1,11,1.5,19,M,,M,,*60
06/12/2015	21:04:09.591	$GPGGA,210410,2411.1960,N,08103.6156,W,1,11,1.5,19,M,,M,,*6C
06/12/2015	21:04:10.571	$GPGGA,210411,2411.1949,N,08103.6145,W,1,11,1.5,19,M,,M,,*64
06/12/2015	21:04:11.612	$GPGGA,210412,2411.1938,N,08103.6135,W,1,11,1.5,19,M,,M,,*66
06/12/2015	21:04:12.551	$GPGGA,210413,2411.1927,N,08103.6121,W,1,11,1.5,19,M,,M,,*6C
06/12/2015	21:04:13.571	$GPGGA,210414,2411.1917,N,08103.6108,W,1,11,1.5,19,M,,M,,*63
06/12/2015	21:04:14.561	$GPGGA,210415,2411.1904,N,08103.6100,W,1,11,1.5,19,M,,M,,*68
06/12/2015	21:04:15.611	$GPGGA,210416,2411.1895,N,08103.6087,W,1,11,1.5,19,M,,M,,*6C
06/12/2015	21:04:16.551	$GPGGA,210417,2411.1885,N,08103.6072,W,1,11,1.5,20,M,,M,,*6C
06/12/2015	21:04:17.561	$GPGGA,210418,2411.1874,N,08103.6060,W,1,11,1.5,20,M,,M,,*6E
06/12/2015	21:04:18.551	$GPGGA,210419,2411.1862,N,08103.6050,W,1,11,1.5,20,M,,M,,*6B
06/12/2015	21:04:19.571	$GPGGA,210420,2411.1852,N,08103.6037,W,1,11,1.5,20,M,,M,,*63
06/12/2015	21:04:20.542	$GPGGA,210421,2411.1842,N,08103.6024,W,1,11,1.5,20,M,,M,,*61
06/12/2015	21:04:21.561	$GPGGA,210422,2411.1830,N,08103.6013,W,1,11,1.5,20,M,,M,,*63
06/12/2015	21:04:22.541	$GPGGA,210423,2411.1819,N,08103.6001,W,1,11,1.5,20,M,,M,,*6A
06/12/2015	21:04:23.551	$GPGGA,210424,2411.1807,N,08103.5988,W,1,11,1.5,20,M,,M,,*69
06/12/2015	21:04:24.543	$GPGGA,210425,2411.1797,N,08103.5975,W,1,11,1.5,20,M,,M,,*6C
06/12/2015	21:04:25.534	$GPGGA,210426,2411.1787,N,08103.5963,W,1,11,1.5,20,M,,M,,*69
06/12/2015	21:04:26.548	$GPGGA,210427,2411.1776,N,08103.5950,W,1,11,1.5,20,M,,M,,*66
06/12/2015	21:04:27.571	$GPGGA,210428,2411.1765,N,08103.5936,W,1,11,1.5,20,M,,M,,*6B
06/12/2015	21:04:28.536	$GPGGA,210429,2411.1755,N,08103.5923,W,1,11,1.5,20,M,,M,,*6D
06/12/2015	21:04:29.538	$GPGGA,210430,2411.1745,N,08103.5912,W,1,11,1.5,20,M,,M,,*66
06/12/2015	21:04:30.511	$GPGGA,210431,2411.1733,N,08103.5901,W,1,11,1.5,20,M,,M,,*64
06/12/2015	21:04:31.533	$GPGGA,210432,2411.1723,N,08103.5886,W,1,11,1.5,20,M,,M,,*68
06/12/2015	21:04:32.527	$GPGGA,210433,2411.1713,N,08103.5872,W,1,11,1.5,20,M,,M,,*61
06/12/2015	21:04:33.638	$GPGGA,210434,2411.1702,N,08103.5861,W,1,11,1.6,20,M,,M,,*67
06/12/2015	21:04:34.523	$GPGGA,210435,2411.1693,N,08103.5851,W,1,11,1.6,20,M,,M,,*6C
06/12/2015	21:04:35.561	$GPGGA,210436,2411.1682,N,08103.5836,W,1,10,1.6,20,M,,M,,*6F
06/12/2015	21:04:36.515	$GPGGA,210437,2411.1671,N,08103.5824,W,1,10,1.5,20,M,,M,,*62
06/12/2015	21:04:37.623	$GPGGA,210438,2411.1662,N,08103.5816,W,1,11,1.5,20,M,,M,,*6F
06/12/2015	21:04:38.626	$GPGGA,210439,2411.1651,N,08103.5803,W,1,11,1.5,20,M,,M,,*6A
06/12/2015	21:04:39.661	$GPGGA,210440,2411.1642,N,08103.5792,W,1,11,1.5,20,M,,M,,*61
06/12/2015	21:04:40.511	$GPGGA,210441,2411.1632,N,08103.5782,W,1,11,1.5,20,M,,M,,*66
06/12/2015	21:04:41.511	$GPGGA,210442,2411.1620,N,08103.5772,W,1,11,1.5,20,M,,M,,*69
06/12/2015	21:04:42.601	$GPGGA,210443,2411.1610,N,08103.5760,W,1,11,1.5,20,M,,M,,*68
06/12/2015	21:04:43.501	$GPGGA,210444,2411.1600,N,08103.5748,W,1,11,1.5,20,M,,M,,*64
06/12/2015	21:04:44.591	$GPGGA,210445,2411.1589,N,08103.5738,W,1,11,1.5,20,M,,M,,*60
06/12/2015	21:04:45.621	$GPGGA,210446,2411.1579,N,08103.5729,W,1,11,1.5,20,M,,M,,*6C
06/12/2015	21:04:46.501	$GPGGA,210447,2411.1570,N,08103.5715,W,1,11,1.5,20,M,,M,,*6B
06/12/2015	21:04:47.601	$GPGGA,210448,2411.1559,N,08103.5702,W,1,11,1.5,20,M,,M,,*69
06/12/2015	21:04:48.581	$GPGGA,210449,2411.1546,N,08103.5694,W,1,11,1.5,20,M,,M,,*68
06/12/2015	21:04:49.611	$GPGGA,210450,2411.1535,N,08103.5684,W,1,11,1.5,20,M,,M,,*65
06/12/2015	21:04:50.571	$GPGGA,210451,2411.1526,N,08103.5669,W,1,11,1.5,20,M,,M,,*65
06/12/2015	21:04:51.644	$GPGGA,210452,2411.1516,N,08103.5657,W,1,11,1.5,20,M,,M,,*68
06/12/2015	21:04:52.481	$GPGGA,210453,2411.1502,N,08103.5648,W,1,11,1.5,20,M,,M,,*62
06/12/2015	21:04:53.591	$GPGGA,210454,2411.1489,N,08103.5637,W,1,10,1.5,21,M,,M,,*6F
06/12/2015	21:04:54.561	$GPGGA,210455,2411.1479,N,08103.5624,W,1,10,1.5,21,M,,M,,*63
06/12/2015	21:04:55.624	$GPGGA,210456,2411.1469,N,08103.5610,W,1,11,1.5,21,M,,M,,*67
06/12/2015	21:04:56.571	$GPGGA,210457,2411.1458,N,08103.5599,W,1,11,1.5,21,M,,M,,*66
06/12/2015	21:04:57.591	$GPGGA,210458,2411.1447,N,08103.5590,W,1,10,1.5,21,M,,M,,*6F
06/12/2015	21:04:58.571	$GPGGA,210459,2411.1437,N,08103.5574,W,1,10,1.6,21,M,,M,,*60
06/12/2015	21:04:59.601	$GPGGA,210500,2411.1429,N,08103.5558,W,1,10,1.5,21,M,,M,,*6F
06/12/2015	21:05:00.591	$GPGGA,210501,2411.1416,N,08103.5549,W,1,10,1.5,21,M,,M,,*62
06/12/2015	21:05:01.571	$GPGGA,210502,2411.1405,N,08103.5538,W,1,11,1.5,21,M,,M,,*64
06/12/2015	21:05:02.561	$GPGGA,210503,2411.1396,N,08103.5524,W,1,11,1.5,21,M,,M,,*65
06/12/2015	21:05:03.632	$GPGGA,210504,2411.1385,N,08103.5509,W,1,11,1.5,21,M,,M,,*6F
06/12/2015	21:05:04.551	$GPGGA,210505,2411.1375,N,08103.5499,W,1,11,1.5,21,M,,M,,*69
06/12/2015	21:05:05.551	$GPGGA,210506,2411.1365,N,08103.5489,W,1,11,1.5,21,M,,M,,*6A
06/12/2015	21:05:06.551	$GPGGA,210507,2411.1355,N,08103.5475,W,1,11,1.5,21,M,,M,,*6B
06/12/2015	21:05:07.571	$GPGGA,210508,2411.1346,N,08103.5462,W,1,11,1.5,21,M,,M,,*60
06/12/2015	21:05:08.541	$GPGGA,210509,2411.1335,N,08103.5451,W,1,11,1.5,21,M,,M,,*65
06/12/2015	21:05:09.571	$GPGGA,210510,2411.1325,N,08103.5438,W,1,11,1.5,21,M,,M,,*63
06/12/2015	21:05:10.534	$GPGGA,210511,2411.1317,N,08103.5426,W,1,11,1.5,21,M,,M,,*6C
06/12/2015	21:05:11.601	$GPGGA,210512,2411.1304,N,08103.5414,W,1,11,1.5,21,M,,M,,*6C
06/12/2015	21:05:12.541	$GPGGA,210513,2411.1293,N,08103.5400,W,1,11,1.5,21,M,,M,,*67
06/12/2015	21:05:13.561	$GPGGA,210514,2411.1286,N,08103.5387,W,1,11,1.5,21,M,,M,,*6C
06/12/2015	21:05:14.524	$GPGGA,210515,2411.1277,N,08103.5375,W,1,11,1.5,21,M,,M,,*6E
06/12/2015	21:05:15.535	$GPGGA,210516,2411.1264,N,08103.5365,W,1,11,1.5,21,M,,M,,*6E
06/12/2015	21:05:16.534	$GPGGA,210517,2411.1255,N,08103.5351,W,1,11,1.5,21,M,,M,,*6A
06/12/2015	21:05:17.641	$GPGGA,210518,2411.1248,N,08103.5336,W,1,11,1.5,21,M,,M,,*68
06/12/2015	21:05:18.538	$GPGGA,210519,2411.1239,N,08103.5325,W,1,11,1.5,21,M,,M,,*6D
06/12/2015	21:05:19.551	$GPGGA,210520,2411.1227,N,08103.5315,W,1,11,1.5,21,M,,M,,*6B
06/12/2015	21:05:20.641	$GPGGA,210521,2411.1218,N,08103.5300,W,1,11,1.5,21,M,,M,,*62
06/12/2015	21:05:21.623	$GPGGA,210522,2411.1212,N,08103.5286,W,1,11,1.5,21,M,,M,,*64
06/12/2015	21:05:22.511	$GPGGA,210523,2411.1201,N,08103.5276,W,1,11,1.5,21,M,,M,,*68
06/12/2015	21:05:23.541	$GPGGA,210524,2411.1190,N,08103.5266,W,1,11,1.5,21,M,,M,,*65
06/12/2015	21:05:24.601	$GPGGA,210525,2411.1182,N,08103.5250,W,1,11,1.6,20,M,,M,,*60
06/12/2015	21:05:25.501	$GPGGA,210526,2411.1176,N,08103.5235,W,1,10,1.6,20,M,,M,,*6A
06/12/2015	21:05:26.501	$GPGGA,210527,2411.1165,N,08103.5228,W,1,10,1.5,20,M,,M,,*66
06/12/2015	21:05:27.641	$GPGGA,210528,2411.1153,N,08103.5217,W,1,11,1.5,20,M,,M,,*61
06/12/2015	21:05:28.524	$GPGGA,210529,2411.1147,N,08103.5201,W,1,11,1.5,20,M,,M,,*62
06/12/2015	21:05:29.591	$GPGGA,210530,2411.1137,N,08103.5191,W,1,11,1.5,20,M,,M,,*67
06/12/2015	21:05:30.591	$GPGGA,210531,2411.1127,N,08103.5181,W,1,11,1.6,20,M,,M,,*65
06/12/2015	21:05:31.601	$GPGGA,210532,2411.1117,N,08103.5167,W,1,10,1.5,20,M,,M,,*6F
06/12/2015	21:05:32.581	$GPGGA,210533,2411.1111,N,08103.5154,W,1,10,1.5,20,M,,M,,*68
06/12/2015	21:05:33.501	$GPGGA,210534,2411.1100,N,08103.5144,W,1,11,1.6,20,M,,M,,*6C
06/12/2015	21:05:34.581	$GPGGA,210535,2411.1088,N,08103.5132,W,1,11,1.6,20,M,,M,,*6D
06/12/2015	21:05:35.601	$GPGGA,210536,2411.1082,N,08103.5118,W,1,10,1.5,20,M,,M,,*6E
06/12/2015	21:05:36.591	$GPGGA,210537,2411.1071,N,08103.5107,W,1,10,1.5,20,M,,M,,*6D
06/12/2015	21:05:37.581	$GPGGA,210538,2411.1060,N,08103.5096,W,1,11,1.5,20,M,,M,,*6A
06/12/2015	21:05:38.581	$GPGGA,210539,2411.1050,N,08103.5084,W,1,11,1.5,20,M,,M,,*6B
06/12/2015	21:05:39.601	$GPGGA,210540,2411.1041,N,08103.5074,W,1,11,1.5,20,M,,M,,*6A
06/12/2015	21:05:40.571	$GPGGA,210541,2411.1030,N,08103.5062,W,1,11,1.5,20,M,,M,,*6A
06/12/2015	21:05:41.591	$GPGGA,210542,2411.1021,N,08103.5049,W,1,11,1.5,20,M,,M,,*60
06/12/2015	21:05:42.561	$GPGGA,210543,2411.1010,N,08103.5038,W,1,11,1.5,20,M,,M,,*65
06/12/2015	21:05:43.581	$GPGGA,210544,2411.1000,N,08103.5026,W,1,11,1.5,20,M,,M,,*6C
06/12/2015	21:05:44.571	$GPGGA,210545,2411.0989,N,08103.5015,W,1,11,1.5,20,M,,M,,*64
06/12/2015	21:05:45.561	$GPGGA,210546,2411.0979,N,08103.5003,W,1,10,1.5,20,M,,M,,*6E
06/12/2015	21:05:46.561	$GPGGA,210547,2411.0968,N,08103.4992,W,1,10,1.5,20,M,,M,,*6F
06/12/2015	21:05:47.581	$GPGGA,210548,2411.0956,N,08103.4980,W,1,11,1.5,20,M,,M,,*6F
06/12/2015	21:05:48.581	$GPGGA,210549,2411.0947,N,08103.4967,W,1,11,1.5,20,M,,M,,*67
06/12/2015	21:05:49.551	$GPGGA,210550,2411.0936,N,08103.4957,W,1,11,1.5,20,M,,M,,*6A
06/12/2015	21:05:50.551	$GPGGA,210551,2411.0927,N,08103.4949,W,1,11,1.5,20,M,,M,,*64
06/12/2015	21:05:51.581	$GPGGA,210552,2411.0917,N,08103.4939,W,1,11,1.5,20,M,,M,,*63
06/12/2015	21:05:52.541	$GPGGA,210553,2411.0909,N,08103.4929,W,1,11,1.5,20,M,,M,,*6C
06/12/2015	21:05:53.532	$GPGGA,210554,2411.0898,N,08103.4917,W,1,11,1.5,20,M,,M,,*6F
06/12/2015	21:05:54.551	$GPGGA,210555,2411.0887,N,08103.4906,W,1,11,1.6,20,M,,M,,*63
06/12/2015	21:05:55.571	$GPGGA,210556,2411.0876,N,08103.4896,W,1,11,1.5,20,M,,M,,*65
06/12/2015	21:05:56.542	$GPGGA,210557,2411.0866,N,08103.4885,W,1,11,1.5,20,M,,M,,*67
06/12/2015	21:05:57.551	$GPGGA,210558,2411.0854,N,08103.4874,W,1,11,1.5,20,M,,M,,*67
06/12/2015	21:05:58.541	$GPGGA,210559,2411.0844,N,08103.4860,W,1,11,1.5,20,M,,M,,*62
06/12/2015	21:05:59.541	$GPGGA,210600,2411.0833,N,08103.4849,W,1,10,1.6,20,M,,M,,*64
06/12/2015	21:06:00.526	$GPGGA,210601,2411.0822,N,08103.4839,W,1,10,1.6,20,M,,M,,*62
06/12/2015	21:06:01.551	$GPGGA,210602,2411.0812,N,08103.4828,W,1,11,1.5,20,M,,M,,*60
06/12/2015	21:06:02.525	$GPGGA,210603,2411.0801,N,08103.4816,W,1,11,1.5,20,M,,M,,*6E
06/12/2015	21:06:03.551	$GPGGA,210604,2411.0789,N,08103.4804,W,1,10,1.5,20,M,,M,,*64
06/12/2015	21:06:04.521	$GPGGA,210605,2411.0780,N,08103.4791,W,1,10,1.5,20,M,,M,,*6F
06/12/2015	21:06:05.630	$GPGGA,210606,2411.0770,N,08103.4779,W,1,11,1.5,20,M,,M,,*64
06/12/2015	21:06:06.525	$GPGGA,210607,2411.0760,N,08103.4768,W,1,11,1.5,21,M,,M,,*65
06/12/2015	21:06:07.640	$GPGGA,210608,2411.0750,N,08103.4753,W,1,11,1.5,21,M,,M,,*61
06/12/2015	21:06:08.501	$GPGGA,210609,2411.0741,N,08103.4738,W,1,11,1.6,21,M,,M,,*6E
06/12/2015	21:06:09.526	$GPGGA,210610,2411.0732,N,08103.4727,W,1,11,1.5,21,M,,M,,*6F
06/12/2015	21:06:10.600	$GPGGA,210611,2411.0723,N,08103.4716,W,1,11,1.5,21,M,,M,,*6C
06/12/2015	21:06:11.540	$GPGGA,210612,2411.0712,N,08103.4701,W,1,11,1.5,21,M,,M,,*6B
06/12/2015	21:06:12.512	$GPGGA,210613,2411.0703,N,08103.4688,W,1,11,1.5,21,M,,M,,*6A
06/12/2015	21:06:13.614	$GPGGA,210614,2411.0694,N,08103.4678,W,1,11,1.5,21,M,,M,,*6D
06/12/2015	21:06:14.500	$GPGGA,210615,2411.0685,N,08103.4667,W,1,11,1.5,21,M,,M,,*62
06/12/2015	21:06:15.600	$GPGGA,210616,2411.0675,N,08103.4651,W,1,11,1.5,21,M,,M,,*6B
06/12/2015	21:06:16.491	$GPGGA,210617,2411.0667,N,08103.4638,W,1,11,1.5,21,M,,M,,*66
06/12/2015	21:06:17.571	$GPGGA,210618,2411.0656,N,08103.4630,W,1,11,1.5,21,M,,M,,*63
06/12/2015	21:06:18.571	$GPGGA,210619,2411.0645,N,08103.4620,W,1,11,1.6,21,M,,M,,*62
06/12/2015	21:06:19.925	$GPGGA,210620,2411.0638,N,08103.4605,W,1,11,1.5,20,M,,M,,*67
06/12/2015	21:06:20.491	$GPGGA,210621,2411.0629,N,08103.4593,W,1,11,1.5,20,M,,M,,*6A
06/12/2015	21:06:21.571	$GPGGA,210622,2411.0616,N,08103.4584,W,1,10,1.6,20,M,,M,,*61
06/12/2015	21:06:22.571	$GPGGA,210623,2411.0606,N,08103.4572,W,1,10,1.5,20,M,,M,,*6B
06/12/2015	21:06:23.570	$GPGGA,210624,2411.0602,N,08103.4561,W,1,11,1.5,20,M,,M,,*6B
06/12/2015	21:06:24.560	$GPGGA,210625,2411.0591,N,08103.4551,W,1,11,1.5,20,M,,M,,*60
06/12/2015	21:06:25.590	$GPGGA,210626,2411.0580,N,08103.4539,W,1,11,1.5,20,M,,M,,*6D
06/12/2015	21:06:26.550	$GPGGA,210627,2411.0573,N,08103.4527,W,1,11,1.5,20,M,,M,,*6F
06/12/2015	21:06:27.590	$GPGGA,210628,2411.0565,N,08103.4519,W,1,11,1.5,20,M,,M,,*6A
06/12/2015	21:06:28.550	$GPGGA,210629,2411.0555,N,08103.4507,W,1,11,1.5,20,M,,M,,*67
06/12/2015	21:06:29.570	$GPGGA,210630,2411.0548,N,08103.4496,W,1,11,1.5,20,M,,M,,*6A
06/12/2015	21:06:30.550	$GPGGA,210631,2411.0540,N,08103.4484,W,1,11,1.5,20,M,,M,,*60
06/12/2015	21:06:31.590	$GPGGA,210632,2411.0529,N,08103.4473,W,1,11,1.5,20,M,,M,,*64
06/12/2015	21:06:32.560	$GPGGA,210633,2411.0522,N,08103.4464,W,1,11,1.5,20,M,,M,,*68
06/12/2015	21:06:33.571	$GPGGA,210634,2411.0512,N,08103.4453,W,1,11,1.5,20,M,,M,,*68
06/12/2015	21:06:34.541	$GPGGA,210635,2411.0502,N,08103.4441,W,1,11,1.5,20,M,,M,,*6B
06/12/2015	21:06:35.561	$GPGGA,210636,2411.0493,N,08103.4429,W,1,11,1.5,20,M,,M,,*6F
06/12/2015	21:06:36.541	$GPGGA,210637,2411.0484,N,08103.4420,W,1,11,1.5,20,M,,M,,*61
06/12/2015	21:06:37.551	$GPGGA,210638,2411.0475,N,08103.4409,W,1,11,1.5,20,M,,M,,*6B
06/12/2015	21:06:38.531	$GPGGA,210639,2411.0466,N,08103.4396,W,1,11,1.5,20,M,,M,,*69
06/12/2015	21:06:39.571	$GPGGA,210640,2411.0458,N,08103.4384,W,1,11,1.5,20,M,,M,,*69
06/12/2015	21:06:40.540	$GPGGA,210641,2411.0447,N,08103.4374,W,1,11,1.5,20,M,,M,,*69
06/12/2015	21:06:41.540	$GPGGA,210642,2411.0439,N,08103.4362,W,1,11,1.5,20,M,,M,,*64
06/12/2015	21:06:42.540	$GPGGA,210643,2411.0432,N,08103.4350,W,1,11,1.5,20,M,,M,,*6F
06/12/2015	21:06:43.570	$GPGGA,210644,2411.0421,N,08103.4340,W,1,11,1.5,20,M,,M,,*6B
06/12/2015	21:06:44.516	$GPGGA,210645,2411.0410,N,08103.4329,W,1,11,1.5,20,M,,M,,*67
06/12/2015	21:06:45.550	$GPGGA,210646,2411.0401,N,08103.4316,W,1,11,1.5,20,M,,M,,*68
06/12/2015	21:06:46.530	$GPGGA,210647,2411.0392,N,08103.4303,W,1,11,1.5,20,M,,M,,*60
06/12/2015	21:06:47.550	$GPGGA,210648,2411.0383,N,08103.4293,W,1,11,1.5,20,M,,M,,*67
06/12/2015	21:06:48.524	$GPGGA,210649,2411.0374,N,08103.4286,W,1,11,1.5,20,M,,M,,*6A
06/12/2015	21:06:49.524	$GPGGA,210650,2411.0364,N,08103.4271,W,1,11,1.5,20,M,,M,,*6B
06/12/2015	21:06:50.517	$GPGGA,210651,2411.0354,N,08103.4257,W,1,11,1.5,20,M,,M,,*6D
06/12/2015	21:06:51.551	$GPGGA,210652,2411.0345,N,08103.4251,W,1,11,1.5,20,M,,M,,*68
06/12/2015	21:06:52.528	$GPGGA,210653,2411.0335,N,08103.4243,W,1,11,1.5,20,M,,M,,*6D
06/12/2015	21:06:53.601	$GPGGA,210654,2411.0325,N,08103.4230,W,1,11,1.5,20,M,,M,,*6F
06/12/2015	21:06:54.501	$GPGGA,210655,2411.0316,N,08103.4217,W,1,11,1.5,20,M,,M,,*6B
06/12/2015	21:06:55.514	$GPGGA,210656,2411.0309,N,08103.4208,W,1,11,1.5,20,M,,M,,*68
06/12/2015	21:06:56.591	$GPGGA,210657,2411.0298,N,08103.4199,W,1,11,1.5,20,M,,M,,*6B
06/12/2015	21:06:58.640	$GPGGA,210659,2411.0280,N,08103.4176,W,1,11,1.5,20,M,,M,,*6D
06/12/2015	21:06:59.623	$GPGGA,210700,2411.0271,N,08103.4164,W,1,11,1.5,20,M,,M,,*6D
06/12/2015	21:07:00.500	$GPGGA,210701,2411.0262,N,08103.4154,W,1,11,1.5,20,M,,M,,*6D
06/12/2015	21:07:01.580	$GPGGA,210702,2411.0252,N,08103.4144,W,1,11,1.5,20,M,,M,,*6C
06/12/2015	21:07:02.580	$GPGGA,210703,2411.0242,N,08103.4135,W,1,11,1.5,20,M,,M,,*6A
06/12/2015	21:07:03.630	$GPGGA,210704,2411.0233,N,08103.4122,W,1,11,1.5,20,M,,M,,*6D
06/12/2015	21:07:04.501	$GPGGA,210705,2411.0224,N,08103.4109,W,1,11,1.5,20,M,,M,,*63
06/12/2015	21:07:05.615	$GPGGA,210706,2411.0215,N,08103.4100,W,1,11,1.5,20,M,,M,,*6B
06/12/2015	21:07:06.580	$GPGGA,210707,2411.0204,N,08103.4090,W,1,11,1.5,20,M,,M,,*62
06/12/2015	21:07:07.590	$GPGGA,210708,2411.0195,N,08103.4078,W,1,11,1.5,20,M,,M,,*60
06/12/2015	21:07:08.581	$GPGGA,210709,2411.0186,N,08103.4067,W,1,11,1.5,20,M,,M,,*6D
06/12/2015	21:07:09.481	$GPGGA,210710,2411.0174,N,08103.4056,W,1,11,1.5,20,M,,M,,*6A
06/12/2015	21:07:10.571	$GPGGA,210711,2411.0164,N,08103.4045,W,1,11,1.5,20,M,,M,,*68
06/12/2015	21:07:11.601	$GPGGA,210712,2411.0154,N,08103.4033,W,1,11,1.5,20,M,,M,,*69
06/12/2015	21:07:12.561	$GPGGA,210713,2411.0145,N,08103.4020,W,1,11,1.5,20,M,,M,,*6A
06/12/2015	21:07:13.561	$GPGGA,210714,2411.0134,N,08103.4010,W,1,11,1.5,20,M,,M,,*68
06/12/2015	21:07:14.561	$GPGGA,210715,2411.0123,N,08103.3999,W,1,11,1.5,19,M,,M,,*6A
06/12/2015	21:07:15.600	$GPGGA,210716,2411.0112,N,08103.3987,W,1,9,1.6,19,M,,M,,*5E
06/12/2015	21:07:16.560	$GPGGA,210717,2411.0101,N,08103.3975,W,1,9,1.5,19,M,,M,,*53
06/12/2015	21:07:17.580	$GPGGA,210718,2411.0092,N,08103.3964,W,1,11,1.5,19,M,,M,,*6E
06/12/2015	21:07:18.570	$GPGGA,210719,2411.0081,N,08103.3953,W,1,11,1.5,19,M,,M,,*69
06/12/2015	21:07:19.580	$GPGGA,210720,2411.0069,N,08103.3941,W,1,11,1.5,19,M,,M,,*66
06/12/2015	21:07:20.540	$GPGGA,210721,2411.0060,N,08103.3929,W,1,11,1.5,19,M,,M,,*60
06/12/2015	21:07:21.540	$GPGGA,210722,2411.0050,N,08103.3917,W,1,11,1.5,19,M,,M,,*6D
06/12/2015	21:07:22.550	$GPGGA,210723,2411.0039,N,08103.3908,W,1,11,1.5,19,M,,M,,*6D
06/12/2015	21:07:23.600	$GPGGA,210724,2411.0027,N,08103.3894,W,1,11,1.5,19,M,,M,,*61
06/12/2015	21:07:24.540	$GPGGA,210725,2411.0018,N,08103.3881,W,1,11,1.6,19,M,,M,,*6B
06/12/2015	21:07:25.570	$GPGGA,210726,2411.0009,N,08103.3871,W,1,11,1.5,19,M,,M,,*64
06/12/2015	21:07:26.541	$GPGGA,210727,2410.9998,N,08103.3861,W,1,11,1.5,19,M,,M,,*6D
06/12/2015	21:07:27.561	$GPGGA,210728,2410.9989,N,08103.3847,W,1,10,1.6,20,M,,M,,*6E
06/12/2015	21:07:28.541	$GPGGA,210729,2410.9981,N,08103.3833,W,1,10,1.5,20,M,,M,,*67
06/12/2015	21:07:29.531	$GPGGA,210730,2410.9970,N,08103.3822,W,1,10,1.6,20,M,,M,,*62
06/12/2015	21:07:30.531	$GPGGA,210731,2410.9959,N,08103.3811,W,1,10,1.5,20,M,,M,,*6B
06/12/2015	21:07:31.531	$GPGGA,210732,2410.9951,N,08103.3800,W,1,11,1.5,20,M,,M,,*61
06/12/2015	21:07:32.826	$GPGGA,210733,2410.9944,N,08103.3789,W,1,11,1.5,20,M,,M,,*6A
06/12/2015	21:07:33.560	$GPGGA,210734,2410.9932,N,08103.3775,W,1,10,1.6,20,M,,M,,*6D
06/12/2015	21:07:34.512	$GPGGA,210735,2410.9923,N,08103.3764,W,1,10,1.6,20,M,,M,,*6C
06/12/2015	21:07:35.515	$GPGGA,210736,2410.9917,N,08103.3757,W,1,11,1.5,20,M,,M,,*6A
06/12/2015	21:07:36.520	$GPGGA,210737,2410.9908,N,08103.3749,W,1,11,1.5,20,M,,M,,*6A
06/12/2015	21:07:37.530	$GPGGA,210738,2410.9898,N,08103.3736,W,1,11,1.5,20,M,,M,,*65
06/12/2015	21:07:38.524	$GPGGA,210739,2410.9890,N,08103.3723,W,1,11,1.6,20,M,,M,,*6B
06/12/2015	21:07:39.521	$GPGGA,210740,2410.9883,N,08103.3714,W,1,10,1.6,20,M,,M,,*62
06/12/2015	21:07:40.500	$GPGGA,210741,2410.9874,N,08103.3704,W,1,10,1.5,20,M,,M,,*69
06/12/2015	21:07:41.530	$GPGGA,210742,2410.9865,N,08103.3695,W,1,11,1.5,20,M,,M,,*62
06/12/2015	21:07:42.511	$GPGGA,210743,2410.9855,N,08103.3684,W,1,11,1.5,20,M,,M,,*60
06/12/2015	21:07:43.691	$GPGGA,210744,2410.9850,N,08103.3670,W,1,11,1.5,20,M,,M,,*69
06/12/2015	21:07:44.641	$GPGGA,210745,2410.9840,N,08103.3660,W,1,11,1.7,20,M,,M,,*6A
06/12/2015	21:07:45.681	$GPGGA,210746,2410.9829,N,08103.3650,W,1,11,1.5,20,M,,M,,*67
06/12/2015	21:07:46.501	$GPGGA,210747,2410.9821,N,08103.3638,W,1,11,1.5,20,M,,M,,*60
06/12/2015	21:07:47.521	$GPGGA,210748,2410.9811,N,08103.3627,W,1,10,1.6,20,M,,M,,*60
06/12/2015	21:07:48.491	$GPGGA,210749,2410.9801,N,08103.3616,W,1,10,1.5,20,M,,M,,*61
06/12/2015	21:07:49.681	$GPGGA,210750,2410.9792,N,08103.3604,W,1,11,1.5,19,M,,M,,*64
06/12/2015	21:07:51.640	$GPGGA,210752,2410.9772,N,08103.3579,W,1,11,1.5,19,M,,M,,*61
06/12/2015	21:07:52.580	$GPGGA,210753,2410.9764,N,08103.3567,W,1,11,1.5,19,M,,M,,*68
06/12/2015	21:07:53.640	$GPGGA,210754,2410.9753,N,08103.3556,W,1,11,1.5,19,M,,M,,*69
06/12/2015	21:07:54.570	$GPGGA,210755,2410.9743,N,08103.3544,W,1,11,1.5,19,M,,M,,*6A
06/12/2015	21:07:55.690	$GPGGA,210756,2410.9734,N,08103.3530,W,1,11,1.5,19,M,,M,,*6A
06/12/2015	21:07:56.600	$GPGGA,210757,2410.9724,N,08103.3519,W,1,11,1.5,19,M,,M,,*61
06/12/2015	21:07:57.670	$GPGGA,210758,2410.9715,N,08103.3508,W,1,11,1.5,19,M,,M,,*6C
06/12/2015	21:07:58.590	$GPGGA,210759,2410.9706,N,08103.3496,W,1,11,1.6,19,M,,M,,*6A
06/12/2015	21:07:59.714	$GPGGA,210800,2410.9695,N,08103.3483,W,1,11,1.5,19,M,,M,,*65
06/12/2015	21:08:00.560	$GPGGA,210801,2410.9686,N,08103.3471,W,1,11,1.5,19,M,,M,,*6B
06/12/2015	21:08:01.661	$GPGGA,210802,2410.9675,N,08103.3461,W,1,11,1.5,19,M,,M,,*65
06/12/2015	21:08:02.551	$GPGGA,210803,2410.9666,N,08103.3450,W,1,11,1.5,19,M,,M,,*64
06/12/2015	21:08:03.671	$GPGGA,210804,2410.9657,N,08103.3436,W,1,11,1.5,19,M,,M,,*61
06/12/2015	21:08:04.551	$GPGGA,210805,2410.9646,N,08103.3425,W,1,11,1.5,19,M,,M,,*62
06/12/2015	21:08:05.661	$GPGGA,210806,2410.9637,N,08103.3415,W,1,11,1.5,19,M,,M,,*64
06/12/2015	21:08:06.541	$GPGGA,210807,2410.9627,N,08103.3400,W,1,11,1.5,19,M,,M,,*60
06/12/2015	21:08:07.661	$GPGGA,210808,2410.9617,N,08103.3388,W,1,11,1.5,19,M,,M,,*6B
06/12/2015	21:08:08.570	$GPGGA,210809,2410.9606,N,08103.3381,W,1,11,1.5,19,M,,M,,*63
06/12/2015	21:08:09.650	$GPGGA,210810,2410.9596,N,08103.3369,W,1,10,1.5,19,M,,M,,*66
06/12/2015	21:08:10.570	$GPGGA,210811,2410.9586,N,08103.3353,W,1,10,1.5,19,M,,M,,*6F
06/12/2015	21:08:11.660	$GPGGA,210812,2410.9576,N,08103.3343,W,1,11,1.5,19,M,,M,,*63
06/12/2015	21:08:12.540	$GPGGA,210813,2410.9565,N,08103.3335,W,1,11,1.5,19,M,,M,,*61
06/12/2015	21:08:13.530	$GPGGA,210814,2410.9554,N,08103.3321,W,1,11,1.5,19,M,,M,,*61
06/12/2015	21:08:14.560	$GPGGA,210815,2410.9543,N,08103.3310,W,1,11,1.5,19,M,,M,,*64
06/12/2015	21:08:15.660	$GPGGA,210816,2410.9533,N,08103.3300,W,1,11,1.5,19,M,,M,,*61
06/12/2015	21:08:16.560	$GPGGA,210817,2410.9522,N,08103.3287,W,1,11,1.5,19,M,,M,,*6E
06/12/2015	21:08:17.523	$GPGGA,210818,2410.9512,N,08103.3273,W,1,11,1.5,19,M,,M,,*69
06/12/2015	21:08:18.821	$GPGGA,210819,2410.9502,N,08103.3263,W,1,11,1.5,20,M,,M,,*62
06/12/2015	21:08:19.631	$GPGGA,210820,2410.9491,N,08103.3255,W,1,11,1.5,20,M,,M,,*66
06/12/2015	21:08:20.541	$GPGGA,210821,2410.9480,N,08103.3242,W,1,11,1.5,20,M,,M,,*61
06/12/2015	21:08:21.615	$GPGGA,210822,2410.9472,N,08103.3227,W,1,11,1.5,20,M,,M,,*6C
06/12/2015	21:08:22.541	$GPGGA,210823,2410.9461,N,08103.3217,W,1,11,1.5,20,M,,M,,*6C
06/12/2015	21:08:23.641	$GPGGA,210824,2410.9451,N,08103.3208,W,1,11,1.5,20,M,,M,,*66
06/12/2015	21:08:24.561	$GPGGA,210825,2410.9442,N,08103.3195,W,1,11,1.5,20,M,,M,,*62
06/12/2015	21:08:25.625	$GPGGA,210826,2410.9432,N,08103.3184,W,1,11,1.5,20,M,,M,,*66
06/12/2015	21:08:26.630	$GPGGA,210827,2410.9422,N,08103.3173,W,1,11,1.5,20,M,,M,,*6E
06/12/2015	21:08:27.622	$GPGGA,210828,2410.9413,N,08103.3162,W,1,11,1.5,20,M,,M,,*63
06/12/2015	21:08:28.600	$GPGGA,210829,2410.9403,N,08103.3150,W,1,11,1.5,20,M,,M,,*62
06/12/2015	21:08:29.590	$GPGGA,210830,2410.9395,N,08103.3138,W,1,11,1.5,20,M,,M,,*6C
06/12/2015	21:08:30.490	$GPGGA,210831,2410.9384,N,08103.3126,W,1,11,1.5,20,M,,M,,*62
06/12/2015	21:08:31.619	$GPGGA,210832,2410.9373,N,08103.3115,W,1,10,1.6,20,M,,M,,*6B
06/12/2015	21:08:32.540	$GPGGA,210833,2410.9363,N,08103.3100,W,1,10,1.5,20,M,,M,,*6C
06/12/2015	21:08:33.590	$GPGGA,210834,2410.9355,N,08103.3087,W,1,11,1.5,20,M,,M,,*61
06/12/2015	21:08:34.533	$GPGGA,210835,2410.9345,N,08103.3078,W,1,11,1.5,20,M,,M,,*61
06/12/2015	21:08:35.614	$GPGGA,210836,2410.9334,N,08103.3066,W,1,11,1.5,20,M,,M,,*6B
06/12/2015	21:08:36.525	$GPGGA,210837,2410.9326,N,08103.3052,W,1,11,1.5,20,M,,M,,*6E
06/12/2015	21:08:37.622	$GPGGA,210838,2410.9317,N,08103.3038,W,1,11,1.5,20,M,,M,,*6F
06/12/2015	21:08:38.591	$GPGGA,210839,2410.9307,N,08103.3027,W,1,11,1.5,20,M,,M,,*61
06/12/2015	21:08:39.651	$GPGGA,210840,2410.9297,N,08103.3016,W,1,11,1.6,20,M,,M,,*66
06/12/2015	21:08:40.523	$GPGGA,210841,2410.9288,N,08103.3003,W,1,11,1.5,20,M,,M,,*6E
06/12/2015	21:08:41.581	$GPGGA,210842,2410.9279,N,08103.2990,W,1,11,1.5,20,M,,M,,*61
06/12/2015	21:08:42.870	$GPGGA,210843,2410.9268,N,08103.2977,W,1,11,1.5,20,M,,M,,*69
06/12/2015	21:08:43.600	$GPGGA,210844,2410.9259,N,08103.2965,W,1,11,1.5,20,M,,M,,*6F
06/12/2015	21:08:44.570	$GPGGA,210845,2410.9249,N,08103.2953,W,1,11,1.6,20,M,,M,,*69
06/12/2015	21:08:45.610	$GPGGA,210846,2410.9238,N,08103.2940,W,1,10,1.5,20,M,,M,,*6C
06/12/2015	21:08:46.580	$GPGGA,210847,2410.9229,N,08103.2926,W,1,10,1.6,20,M,,M,,*6E
06/12/2015	21:08:47.590	$GPGGA,210848,2410.9221,N,08103.2913,W,1,10,1.5,20,M,,M,,*6C
06/12/2015	21:08:48.560	$GPGGA,210849,2410.9211,N,08103.2901,W,1,10,1.5,20,M,,M,,*6D
06/12/2015	21:08:49.581	$GPGGA,210850,2410.9200,N,08103.2891,W,1,11,1.5,20,M,,M,,*6C
06/12/2015	21:08:50.550	$GPGGA,210851,2410.9190,N,08103.2877,W,1,11,1.5,20,M,,M,,*6F
06/12/2015	21:08:51.600	$GPGGA,210852,2410.9182,N,08103.2863,W,1,11,1.5,20,M,,M,,*6A
06/12/2015	21:08:52.550	$GPGGA,210853,2410.9171,N,08103.2853,W,1,11,1.5,20,M,,M,,*64
06/12/2015	21:08:53.591	$GPGGA,210854,2410.9160,N,08103.2841,W,1,11,1.5,20,M,,M,,*60
06/12/2015	21:08:54.551	$GPGGA,210855,2410.9151,N,08103.2826,W,1,11,1.6,20,M,,M,,*61
06/12/2015	21:08:55.591	$GPGGA,210856,2410.9142,N,08103.2815,W,1,10,1.5,20,M,,M,,*62
06/12/2015	21:08:56.541	$GPGGA,210857,2410.9131,N,08103.2802,W,1,10,1.5,20,M,,M,,*61
06/12/2015	21:08:57.881	$GPGGA,210858,2410.9131,N,08103.2802,W,1,11,1.5,20,M,,M,,*6F
06/12/2015	21:08:58.551	$GPGGA,210859,2410.9110,N,08103.2779,W,1,11,1.5,20,M,,M,,*6E
06/12/2015	21:08:59.591	$GPGGA,210900,2410.9100,N,08103.2768,W,1,11,1.5,20,M,,M,,*62
06/12/2015	21:09:00.560	$GPGGA,210901,2410.9090,N,08103.2754,W,1,11,1.5,20,M,,M,,*64
06/12/2015	21:09:01.625	$GPGGA,210902,2410.9081,N,08103.2742,W,1,11,1.5,20,M,,M,,*60
06/12/2015	21:09:02.530	$GPGGA,210903,2410.9081,N,08103.2742,W,1,11,1.5,20,M,,M,,*61
06/12/2015	21:09:03.570	$GPGGA,210904,2410.9059,N,08103.2721,W,1,11,1.5,20,M,,M,,*66
06/12/2015	21:09:04.540	$GPGGA,210905,2410.9049,N,08103.2706,W,1,11,1.5,20,M,,M,,*63
06/12/2015	21:09:05.560	$GPGGA,210906,2410.9039,N,08103.2694,W,1,11,1.5,20,M,,M,,*6D
06/12/2015	21:09:06.527	$GPGGA,210907,2410.9028,N,08103.2687,W,1,11,1.5,20,M,,M,,*6E
06/12/2015	21:09:07.590	$GPGGA,210908,2410.9018,N,08103.2676,W,1,11,1.5,20,M,,M,,*6C
06/12/2015	21:09:08.534	$GPGGA,210909,2410.9008,N,08103.2662,W,1,11,1.5,20,M,,M,,*69
06/12/2015	21:09:09.580	$GPGGA,210910,2410.8998,N,08103.2649,W,1,10,1.5,20,M,,M,,*68
06/12/2015	21:09:10.531	$GPGGA,210911,2410.8998,N,08103.2649,W,1,10,1.5,20,M,,M,,*69
06/12/2015	21:09:11.581	$GPGGA,210912,2410.8976,N,08103.2633,W,1,10,1.6,20,M,,M,,*64
06/12/2015	21:09:12.631	$GPGGA,210913,2410.8965,N,08103.2620,W,1,10,1.6,20,M,,M,,*65
06/12/2015	21:09:13.535	$GPGGA,210914,2410.8954,N,08103.2605,W,1,11,1.5,20,M,,M,,*65
06/12/2015	21:09:14.601	$GPGGA,210915,2410.8943,N,08103.2596,W,1,11,1.6,20,M,,M,,*68
06/12/2015	21:09:15.591	$GPGGA,210916,2410.8932,N,08103.2588,W,1,10,1.6,20,M,,M,,*63
06/12/2015	21:09:16.501	$GPGGA,210917,2410.8923,N,08103.2577,W,1,10,1.6,20,M,,M,,*62
06/12/2015	21:09:17.532	$GPGGA,210918,2410.8914,N,08103.2563,W,1,10,1.6,20,M,,M,,*6C
06/12/2015	21:09:18.512	$GPGGA,210919,2410.8914,N,08103.2563,W,1,10,1.6,20,M,,M,,*6D
06/12/2015	21:09:19.612	$GPGGA,210920,2410.8894,N,08103.2547,W,1,11,1.5,20,M,,M,,*6A
06/12/2015	21:09:20.500	$GPGGA,210921,2410.8884,N,08103.2535,W,1,11,1.5,20,M,,M,,*6F
06/12/2015	21:09:21.622	$GPGGA,210922,2410.8876,N,08103.2523,W,1,11,1.5,20,M,,M,,*66
06/12/2015	21:09:22.500	$GPGGA,210923,2410.8866,N,08103.2512,W,1,11,1.5,20,M,,M,,*64
06/12/2015	21:09:23.600	$GPGGA,210924,2410.8855,N,08103.2500,W,1,11,1.5,20,M,,M,,*60
06/12/2015	21:09:24.500	$GPGGA,210925,2410.8846,N,08103.2489,W,1,11,1.5,20,M,,M,,*63
06/12/2015	21:09:25.580	$GPGGA,210926,2410.8836,N,08103.2479,W,1,9,1.6,20,M,,M,,*52
06/12/2015	21:09:26.580	$GPGGA,210927,2410.8826,N,08103.2466,W,1,9,1.5,20,M,,M,,*5F
06/12/2015	21:09:27.621	$GPGGA,210928,2410.8815,N,08103.2452,W,1,11,1.5,20,M,,M,,*6E
06/12/2015	21:09:28.571	$GPGGA,210929,2410.8806,N,08103.2441,W,1,11,1.5,20,M,,M,,*6F
06/12/2015	21:09:29.581	$GPGGA,210930,2410.8796,N,08103.2432,W,1,11,1.5,20,M,,M,,*65
06/12/2015	21:09:30.571	$GPGGA,210931,2410.8786,N,08103.2417,W,1,11,1.5,20,M,,M,,*62
06/12/2015	21:09:31.611	$GPGGA,210932,2410.8777,N,08103.2405,W,1,11,1.5,20,M,,M,,*6C
06/12/2015	21:09:32.561	$GPGGA,210933,2410.8765,N,08103.2397,W,1,11,1.5,20,M,,M,,*62
06/12/2015	21:09:33.581	$GPGGA,210934,2410.8755,N,08103.2385,W,1,11,1.5,20,M,,M,,*65
06/12/2015	21:09:34.551	$GPGGA,210935,2410.8746,N,08103.2368,W,1,11,1.5,20,M,,M,,*65
06/12/2015	21:09:35.600	$GPGGA,210936,2410.8737,N,08103.2360,W,1,10,1.6,20,M,,M,,*6A
06/12/2015	21:09:36.560	$GPGGA,210937,2410.8727,N,08103.2354,W,1,10,1.5,20,M,,M,,*6E
06/12/2015	21:09:37.580	$GPGGA,210938,2410.8716,N,08103.2339,W,1,10,1.6,20,M,,M,,*6B
06/12/2015	21:09:38.570	$GPGGA,210939,2410.8707,N,08103.2325,W,1,10,1.5,20,M,,M,,*64
06/12/2015	21:09:39.570	$GPGGA,210940,2410.8698,N,08103.2317,W,1,11,1.5,20,M,,M,,*6D
06/12/2015	21:09:40.560	$GPGGA,210941,2410.8687,N,08103.2308,W,1,11,1.5,20,M,,M,,*6C
06/12/2015	21:09:41.570	$GPGGA,210942,2410.8677,N,08103.2295,W,1,11,1.5,20,M,,M,,*65
06/12/2015	21:09:42.550	$GPGGA,210943,2410.8669,N,08103.2281,W,1,11,1.5,20,M,,M,,*6E
06/12/2015	21:09:43.580	$GPGGA,210944,2410.8658,N,08103.2271,W,1,11,1.5,20,M,,M,,*64
06/12/2015	21:09:44.531	$GPGGA,210945,2410.8647,N,08103.2260,W,1,11,1.5,20,M,,M,,*6B
06/12/2015	21:09:45.541	$GPGGA,210946,2410.8640,N,08103.2249,W,1,11,1.5,20,M,,M,,*64
06/12/2015	21:09:46.571	$GPGGA,210947,2410.8630,N,08103.2237,W,1,11,1.6,20,M,,M,,*68
06/12/2015	21:09:47.581	$GPGGA,210948,2410.8620,N,08103.2222,W,1,11,1.5,20,M,,M,,*61
06/12/2015	21:09:48.541	$GPGGA,210949,2410.8612,N,08103.2212,W,1,11,1.6,20,M,,M,,*61
06/12/2015	21:09:49.551	$GPGGA,210950,2410.8602,N,08103.2203,W,1,11,1.5,20,M,,M,,*6B
06/12/2015	21:09:50.551	$GPGGA,210951,2410.8593,N,08103.2191,W,1,11,1.6,20,M,,M,,*6A
06/12/2015	21:09:51.551	$GPGGA,210952,2410.8584,N,08103.2177,W,1,11,1.5,20,M,,M,,*64
06/12/2015	21:09:52.531	$GPGGA,210953,2410.8575,N,08103.2165,W,1,11,1.5,20,M,,M,,*68
06/12/2015	21:09:53.514	$GPGGA,210954,2410.8566,N,08103.2154,W,1,11,1.5,20,M,,M,,*6F
06/12/2015	21:09:54.640	$GPGGA,210955,2410.8558,N,08103.2142,W,1,11,1.5,20,M,,M,,*64
06/12/2015	21:09:55.520	$GPGGA,210956,2410.8547,N,08103.2130,W,1,10,1.6,20,M,,M,,*6E
06/12/2015	21:09:56.530	$GPGGA,210957,2410.8537,N,08103.2118,W,1,10,1.5,20,M,,M,,*61
06/12/2015	21:09:57.816	$GPGGA,210958,2410.8531,N,08103.2104,W,1,11,1.5,20,M,,M,,*64
06/12/2015	21:09:58.623	$GPGGA,210959,2410.8522,N,08103.2093,W,1,11,1.6,20,M,,M,,*6B
06/12/2015	21:09:59.640	$GPGGA,211000,2410.8511,N,08103.2082,W,1,11,1.5,20,M,,M,,*6C
06/12/2015	21:10:00.510	$GPGGA,211001,2410.8503,N,08103.2069,W,1,11,1.5,20,M,,M,,*6B
06/12/2015	21:10:01.530	$GPGGA,211002,2410.8496,N,08103.2057,W,1,11,1.5,20,M,,M,,*68
06/12/2015	21:10:02.500	$GPGGA,211003,2410.8488,N,08103.2044,W,1,11,1.5,20,M,,M,,*64
06/12/2015	21:10:03.524	$GPGGA,211004,2410.8477,N,08103.2032,W,1,11,1.5,20,M,,M,,*62
06/12/2015	21:10:04.491	$GPGGA,211005,2410.8468,N,08103.2021,W,1,11,1.5,20,M,,M,,*6F
06/12/2015	21:10:05.615	$GPGGA,211006,2410.8460,N,08103.2007,W,1,11,1.5,20,M,,M,,*60
06/12/2015	21:10:06.515	$GPGGA,211007,2410.8452,N,08103.1994,W,1,11,1.5,20,M,,M,,*60
06/12/2015	21:10:07.611	$GPGGA,211008,2410.8441,N,08103.1984,W,1,11,1.5,20,M,,M,,*6C
06/12/2015	21:10:08.511	$GPGGA,211009,2410.8431,N,08103.1972,W,1,11,1.5,19,M,,M,,*69
06/12/2015	21:10:09.491	$GPGGA,211010,2410.8423,N,08103.1956,W,1,11,1.5,19,M,,M,,*64
06/12/2015	21:10:10.580	$GPGGA,211011,2410.8414,N,08103.1944,W,1,11,1.5,19,M,,M,,*62
06/12/2015	21:10:11.620	$GPGGA,211012,2410.8405,N,08103.1933,W,1,11,1.5,19,M,,M,,*61
06/12/2015	21:10:12.500	$GPGGA,211013,2410.8394,N,08103.1921,W,1,11,1.5,19,M,,M,,*6C
06/12/2015	21:10:13.590	$GPGGA,211014,2410.8387,N,08103.1907,W,1,11,1.5,19,M,,M,,*6D
06/12/2015	21:10:14.481	$GPGGA,211015,2410.8376,N,08103.1894,W,1,11,1.5,19,M,,M,,*69
06/12/2015	21:10:15.600	$GPGGA,211016,2410.8366,N,08103.1882,W,1,11,1.5,19,M,,M,,*6C
06/12/2015	21:10:16.581	$GPGGA,211017,2410.8356,N,08103.1870,W,1,11,1.5,19,M,,M,,*63
06/12/2015	21:10:17.590	$GPGGA,211018,2410.8345,N,08103.1859,W,1,11,1.5,19,M,,M,,*65
06/12/2015	21:10:18.570	$GPGGA,211019,2410.8336,N,08103.1846,W,1,11,1.5,19,M,,M,,*6E
06/12/2015	21:10:19.600	$GPGGA,211020,2410.8329,N,08103.1831,W,1,11,1.5,19,M,,M,,*6A
06/12/2015	21:10:20.561	$GPGGA,211021,2410.8316,N,08103.1821,W,1,11,1.5,19,M,,M,,*66
06/12/2015	21:10:21.591	$GPGGA,211022,2410.8304,N,08103.1812,W,1,10,1.5,19,M,,M,,*67
06/12/2015	21:10:22.561	$GPGGA,211023,2410.8294,N,08103.1798,W,1,10,1.7,19,M,,M,,*61
06/12/2015	21:10:23.601	$GPGGA,211024,2410.8283,N,08103.1785,W,1,10,1.5,19,M,,M,,*6E
06/12/2015	21:10:24.561	$GPGGA,211025,2410.8271,N,08103.1775,W,1,10,1.6,19,M,,M,,*6E
06/12/2015	21:10:25.571	$GPGGA,211026,2410.8260,N,08103.1765,W,1,11,1.5,19,M,,M,,*6E
06/12/2015	21:10:26.551	$GPGGA,211027,2410.8253,N,08103.1752,W,1,11,1.5,19,M,,M,,*6B
06/12/2015	21:10:27.601	$GPGGA,211028,2410.8243,N,08103.1739,W,1,10,1.5,19,M,,M,,*69
06/12/2015	21:10:28.540	$GPGGA,211029,2410.8233,N,08103.1729,W,1,10,1.5,19,M,,M,,*6E
06/12/2015	21:10:29.560	$GPGGA,211030,2410.8223,N,08103.1718,W,1,11,1.5,19,M,,M,,*64
06/12/2015	21:10:30.540	$GPGGA,211031,2410.8214,N,08103.1705,W,1,11,1.5,19,M,,M,,*6D
06/12/2015	21:10:31.570	$GPGGA,211032,2410.8204,N,08103.1692,W,1,11,1.5,19,M,,M,,*60
06/12/2015	21:10:32.540	$GPGGA,211033,2410.8193,N,08103.1681,W,1,11,1.5,19,M,,M,,*6E
06/12/2015	21:10:33.530	$GPGGA,211034,2410.8183,N,08103.1670,W,1,11,1.5,19,M,,M,,*66
06/12/2015	21:10:34.540	$GPGGA,211035,2410.8174,N,08103.1658,W,1,11,1.5,19,M,,M,,*65
06/12/2015	21:10:35.540	$GPGGA,211036,2410.8163,N,08103.1646,W,1,11,1.5,19,M,,M,,*6F
06/12/2015	21:10:36.540	$GPGGA,211037,2410.8152,N,08103.1636,W,1,11,1.5,19,M,,M,,*6B
06/12/2015	21:10:37.530	$GPGGA,211038,2410.8142,N,08103.1624,W,1,11,1.5,20,M,,M,,*6C
06/12/2015	21:10:38.531	$GPGGA,211039,2410.8131,N,08103.1611,W,1,11,1.5,20,M,,M,,*6F
06/12/2015	21:10:39.571	$GPGGA,211040,2410.8120,N,08103.1599,W,1,11,1.5,20,M,,M,,*62
06/12/2015	21:10:40.528	$GPGGA,211041,2410.8109,N,08103.1588,W,1,11,1.5,20,M,,M,,*68
06/12/2015	21:10:41.551	$GPGGA,211042,2410.8098,N,08103.1574,W,1,11,1.5,20,M,,M,,*61
06/12/2015	21:10:42.513	$GPGGA,211043,2410.8087,N,08103.1561,W,1,11,1.6,20,M,,M,,*69
06/12/2015	21:10:43.551	$GPGGA,211044,2410.8076,N,08103.1550,W,1,11,1.5,20,M,,M,,*61
06/12/2015	21:10:44.511	$GPGGA,211045,2410.8064,N,08103.1539,W,1,11,1.5,20,M,,M,,*6C
06/12/2015	21:10:45.530	$GPGGA,211046,2410.8053,N,08103.1524,W,1,11,1.5,20,M,,M,,*67
06/12/2015	21:10:46.520	$GPGGA,211047,2410.8042,N,08103.1512,W,1,11,1.5,20,M,,M,,*63
06/12/2015	21:10:47.550	$GPGGA,211048,2410.8030,N,08103.1503,W,1,11,1.5,20,M,,M,,*69
06/12/2015	21:10:48.522	$GPGGA,211049,2410.8018,N,08103.1489,W,1,11,1.5,20,M,,M,,*61
06/12/2015	21:10:49.500	$GPGGA,211050,2410.8008,N,08103.1475,W,1,11,1.5,20,M,,M,,*6B
06/12/2015	21:10:50.510	$GPGGA,211051,2410.7997,N,08103.1464,W,1,11,1.5,20,M,,M,,*6A
06/12/2015	21:10:51.600	$GPGGA,211052,2410.7986,N,08103.1456,W,1,11,1.5,19,M,,M,,*62
06/12/2015	21:10:52.490	$GPGGA,211053,2410.7975,N,08103.1442,W,1,11,1.5,19,M,,M,,*6A
06/12/2015	21:10:53.522	$GPGGA,211054,2410.7963,N,08103.1426,W,1,11,1.5,19,M,,M,,*68
06/12/2015	21:10:54.490	$GPGGA,211055,2410.7954,N,08103.1417,W,1,11,1.5,19,M,,M,,*6F
06/12/2015	21:10:55.601	$GPGGA,211056,2410.7943,N,08103.1409,W,1,11,1.5,19,M,,M,,*65
06/12/2015	21:10:56.491	$GPGGA,211057,2410.7932,N,08103.1395,W,1,11,1.5,19,M,,M,,*60
06/12/2015	21:10:57.601	$GPGGA,211058,2410.7922,N,08103.1382,W,1,11,1.5,19,M,,M,,*68
06/12/2015	21:10:58.501	$GPGGA,211059,2410.7912,N,08103.1371,W,1,11,1.5,19,M,,M,,*66
06/12/2015	21:10:59.601	$GPGGA,211100,2410.7903,N,08103.1359,W,1,11,1.5,19,M,,M,,*61
06/12/2015	21:11:00.491	$GPGGA,211101,2410.7893,N,08103.1350,W,1,11,1.5,19,M,,M,,*61
06/12/2015	21:11:01.581	$GPGGA,211102,2410.7883,N,08103.1338,W,1,11,1.5,19,M,,M,,*6D
06/12/2015	21:11:02.581	$GPGGA,211103,2410.7872,N,08103.1324,W,1,11,1.8,19,M,,M,,*62
06/12/2015	21:11:03.580	$GPGGA,211104,2410.7864,N,08103.1311,W,1,11,1.5,19,M,,M,,*69
06/12/2015	21:11:04.570	$GPGGA,211105,2410.7853,N,08103.1303,W,1,11,1.5,19,M,,M,,*6F
06/12/2015	21:11:06.070	$GPGGA,211106,2410.7842,N,08103.1293,W,1,11,1.5,19,M,,M,,*64
06/12/2015	21:11:06.570	$GPGGA,211107,2410.7834,N,08103.1279,W,1,11,1.5,19,M,,M,,*60
06/12/2015	21:11:07.600	$GPGGA,211108,2410.7824,N,08103.1266,W,1,11,1.5,19,M,,M,,*60
06/12/2015	21:11:08.560	$GPGGA,211109,2410.7814,N,08103.1256,W,1,11,1.5,19,M,,M,,*61
06/12/2015	21:11:09.550	$GPGGA,211110,2410.7804,N,08103.1244,W,1,11,1.5,19,M,,M,,*6B
06/12/2015	21:11:10.570	$GPGGA,211111,2410.7794,N,08103.1232,W,1,11,1.5,19,M,,M,,*6D
06/12/2015	21:11:11.590	$GPGGA,211112,2410.7784,N,08103.1221,W,1,11,1.5,19,M,,M,,*6D
06/12/2015	21:11:12.560	$GPGGA,211113,2410.7774,N,08103.1208,W,1,11,1.5,19,M,,M,,*68
06/12/2015	21:11:13.551	$GPGGA,211114,2410.7763,N,08103.1197,W,1,11,1.5,19,M,,M,,*6C
06/12/2015	21:11:14.551	$GPGGA,211115,2410.7753,N,08103.1186,W,1,11,1.5,19,M,,M,,*6E
06/12/2015	21:11:15.581	$GPGGA,211116,2410.7744,N,08103.1172,W,1,10,1.5,19,M,,M,,*61
06/12/2015	21:11:16.551	$GPGGA,211117,2410.7733,N,08103.1160,W,1,10,1.5,19,M,,M,,*63
06/12/2015	21:11:17.561	$GPGGA,211118,2410.7721,N,08103.1148,W,1,11,1.5,19,M,,M,,*64
06/12/2015	21:11:18.551	$GPGGA,211119,2410.7710,N,08103.1136,W,1,11,1.5,19,M,,M,,*6E
06/12/2015	21:11:19.581	$GPGGA,211120,2410.7702,N,08103.1124,W,1,10,1.5,19,M,,M,,*65
06/12/2015	21:11:20.540	$GPGGA,211121,2410.7691,N,08103.1113,W,1,10,1.5,19,M,,M,,*6B
06/12/2015	21:11:21.530	$GPGGA,211122,2410.7680,N,08103.1100,W,1,11,1.5,19,M,,M,,*6B
06/12/2015	21:11:22.540	$GPGGA,211123,2410.7670,N,08103.1087,W,1,11,1.5,19,M,,M,,*6B
06/12/2015	21:11:23.540	$GPGGA,211124,2410.7661,N,08103.1076,W,1,11,1.5,19,M,,M,,*62
06/12/2015	21:11:24.540	$GPGGA,211125,2410.7650,N,08103.1067,W,1,11,1.5,19,M,,M,,*61
06/12/2015	21:11:25.530	$GPGGA,211126,2410.7640,N,08103.1053,W,1,11,1.5,19,M,,M,,*64
06/12/2015	21:11:26.520	$GPGGA,211127,2410.7629,N,08103.1040,W,1,11,1.5,19,M,,M,,*68
06/12/2015	21:11:27.580	$GPGGA,211128,2410.7619,N,08103.1030,W,1,11,1.5,19,M,,M,,*63
06/12/2015	21:11:28.530	$GPGGA,211129,2410.7609,N,08103.1018,W,1,11,1.5,19,M,,M,,*69
06/12/2015	21:11:29.530	$GPGGA,211130,2410.7599,N,08103.1004,W,1,11,1.5,19,M,,M,,*66
06/12/2015	21:11:30.512	$GPGGA,211131,2410.7589,N,08103.0993,W,1,11,1.5,19,M,,M,,*60
06/12/2015	21:11:31.524	$GPGGA,211132,2410.7578,N,08103.0983,W,1,11,1.5,19,M,,M,,*6C
06/12/2015	21:11:32.521	$GPGGA,211133,2410.7567,N,08103.0969,W,1,11,1.5,19,M,,M,,*67
06/12/2015	21:11:33.517	$GPGGA,211134,2410.7557,N,08103.0956,W,1,11,1.5,19,M,,M,,*6F
06/12/2015	21:11:34.512	$GPGGA,211135,2410.7546,N,08103.0946,W,1,11,1.5,19,M,,M,,*6F
06/12/2015	21:11:36.551	$GPGGA,211137,2410.7527,N,08103.0920,W,1,11,1.5,20,M,,M,,*60
06/12/2015	21:11:37.626	$GPGGA,211138,2410.7515,N,08103.0909,W,1,11,1.5,20,M,,M,,*65
06/12/2015	21:11:38.511	$GPGGA,211139,2410.7504,N,08103.0897,W,1,11,1.5,20,M,,M,,*62
06/12/2015	21:11:39.625	$GPGGA,211140,2410.7495,N,08103.0883,W,1,11,1.5,20,M,,M,,*60
06/12/2015	21:11:40.500	$GPGGA,211141,2410.7485,N,08103.0873,W,1,11,1.5,20,M,,M,,*6F
06/12/2015	21:11:41.529	$GPGGA,211142,2410.7473,N,08103.0862,W,1,10,1.5,20,M,,M,,*64
06/12/2015	21:11:42.590	$GPGGA,211143,2410.7462,N,08103.0848,W,1,10,1.5,20,M,,M,,*6D
