Software Version Number: 1	Data File Format Number: 1	Build Version Number: 1	Error Count Since VI Started: 1	Manufacturer: Raytheon	 Model Number: RayMarine 120	 S/N: 	 Cal Date: 	 Wind Direction Offset: 0.00	 Slope (M)1: 0.00	 Offset (B)1: 0.00	 Slope (M)2: 0.00	 Offset (B)2: 0.00	 Slope (M)3: 0.00	 Offset (B)3: 0.00	 Slope (M)4: 0.00	 Offset (B)4: 0.00	 Slope (M)5: 0.00	 Offset (B)5: 0.00	 Slope (M)6: 0.00	 Offset (B)6: 0.00
Computer Date	Computer Time	GGA String
06/11/2015	20:00:00.488	$GPGGA,200001,2427.2462,N,08125.4525,W,1,9,1.5,22,M,,M,,*57
06/11/2015	20:00:01.598	$GPGGA,200002,2427.2466,N,08125.4513,W,1,9,1.8,22,M,,M,,*58
06/11/2015	20:00:02.580	$GPGGA,200003,2427.2469,N,08125.4501,W,1,9,1.5,22,M,,M,,*58
06/11/2015	20:00:03.589	$GPGGA,200004,2427.2471,N,08125.4489,W,1,9,1.5,22,M,,M,,*57
06/11/2015	20:00:04.569	$GPGGA,200005,2427.2473,N,08125.4476,W,1,9,1.5,22,M,,M,,*54
06/11/2015	20:00:05.589	$GPGGA,200006,2427.2477,N,08125.4467,W,1,9,1.5,22,M,,M,,*53
06/11/2015	20:00:06.571	$GPGGA,200007,2427.2480,N,08125.4452,W,1,9,1.3,22,M,,M,,*5A
06/11/2015	20:00:08.112	$GPGGA,200008,2427.2484,N,08125.4438,W,1,10,1.5,22,M,,M,,*63
06/11/2015	20:00:08.569	$GPGGA,200009,2427.2487,N,08125.4426,W,1,10,1.5,22,M,,M,,*6E
06/11/2015	20:00:09.569	$GPGGA,200010,2427.2490,N,08125.4410,W,1,10,1.5,22,M,,M,,*65
06/11/2015	20:00:10.559	$GPGGA,200011,2427.2493,N,08125.4394,W,1,10,1.8,22,M,,M,,*61
06/11/2015	20:00:11.589	$GPGGA,200012,2427.2495,N,08125.4382,W,1,10,1.5,22,M,,M,,*6E
06/11/2015	20:00:12.559	$GPGGA,200013,2427.2498,N,08125.4368,W,1,10,1.5,22,M,,M,,*66
06/11/2015	20:00:13.582	$GPGGA,200014,2427.2501,N,08125.4354,W,1,10,1.5,22,M,,M,,*6F
06/11/2015	20:00:14.558	$GPGGA,200015,2427.2502,N,08125.4342,W,1,10,1.5,23,M,,M,,*6B
06/11/2015	20:00:15.568	$GPGGA,200016,2427.2506,N,08125.4329,W,1,11,1.3,23,M,,M,,*66
06/11/2015	20:00:16.548	$GPGGA,200017,2427.2509,N,08125.4315,W,1,11,1.5,23,M,,M,,*61
06/11/2015	20:00:17.538	$GPGGA,200018,2427.2512,N,08125.4301,W,1,10,1.5,23,M,,M,,*60
06/11/2015	20:00:18.548	$GPGGA,200019,2427.2515,N,08125.4289,W,1,10,1.3,23,M,,M,,*61
06/11/2015	20:00:19.572	$GPGGA,200020,2427.2519,N,08125.4276,W,1,10,1.5,23,M,,M,,*61
06/11/2015	20:00:20.539	$GPGGA,200021,2427.2520,N,08125.4262,W,1,10,1.5,23,M,,M,,*6F
06/11/2015	20:00:22.669	$GPGGA,200023,2427.2524,N,08125.4236,W,1,10,1.8,23,M,,M,,*65
06/11/2015	20:00:23.559	$GPGGA,200024,2427.2529,N,08125.4221,W,1,10,1.5,23,M,,M,,*64
06/11/2015	20:00:24.529	$GPGGA,200025,2427.2531,N,08125.4208,W,1,10,1.5,23,M,,M,,*67
06/11/2015	20:00:25.529	$GPGGA,200026,2427.2534,N,08125.4196,W,1,10,1.5,23,M,,M,,*65
06/11/2015	20:00:26.519	$GPGGA,200027,2427.2536,N,08125.4181,W,1,10,1.3,23,M,,M,,*66
06/11/2015	20:00:27.529	$GPGGA,200028,2427.2538,N,08125.4168,W,1,10,1.5,23,M,,M,,*66
06/11/2015	20:00:28.519	$GPGGA,200029,2427.2541,N,08125.4156,W,1,10,1.8,23,M,,M,,*69
06/11/2015	20:00:29.539	$GPGGA,200030,2427.2545,N,08125.4141,W,1,10,1.5,23,M,,M,,*6E
06/11/2015	20:00:30.529	$GPGGA,200031,2427.2547,N,08125.4128,W,1,10,1.3,23,M,,M,,*64
06/11/2015	20:00:31.648	$GPGGA,200032,2427.2549,N,08125.4116,W,1,10,1.5,23,M,,M,,*62
06/11/2015	20:00:32.528	$GPGGA,200033,2427.2551,N,08125.4103,W,1,10,1.3,23,M,,M,,*68
06/11/2015	20:00:33.508	$GPGGA,200034,2427.2553,N,08125.4089,W,1,11,1.3,23,M,,M,,*6F
06/11/2015	20:00:34.518	$GPGGA,200035,2427.2556,N,08125.4077,W,1,11,1.5,23,M,,M,,*6C
06/11/2015	20:00:35.628	$GPGGA,200036,2427.2558,N,08125.4065,W,1,11,1.3,23,M,,M,,*64
06/11/2015	20:00:36.518	$GPGGA,200037,2427.2560,N,08125.4051,W,1,11,1.3,23,M,,M,,*69
06/11/2015	20:00:37.518	$GPGGA,200038,2427.2563,N,08125.4039,W,1,11,1.3,22,M,,M,,*6A
06/11/2015	20:00:38.609	$GPGGA,200039,2427.2565,N,08125.4025,W,1,11,1.3,22,M,,M,,*60
06/11/2015	20:00:39.519	$GPGGA,200040,2427.2567,N,08125.4012,W,1,11,1.3,22,M,,M,,*68
06/11/2015	20:00:40.583	$GPGGA,200041,2427.2570,N,08125.3999,W,1,11,1.3,22,M,,M,,*62
06/11/2015	20:00:41.599	$GPGGA,200042,2427.2573,N,08125.3986,W,1,11,1.3,22,M,,M,,*6C
06/11/2015	20:00:42.589	$GPGGA,200043,2427.2577,N,08125.3973,W,1,11,1.3,22,M,,M,,*63
06/11/2015	20:00:43.589	$GPGGA,200044,2427.2580,N,08125.3961,W,1,11,1.3,22,M,,M,,*6F
06/11/2015	20:00:44.489	$GPGGA,200045,2427.2583,N,08125.3947,W,1,11,1.3,22,M,,M,,*69
06/11/2015	20:00:46.029	$GPGGA,200046,2427.2585,N,08125.3933,W,1,11,1.3,22,M,,M,,*6F
06/11/2015	20:00:46.580	$GPGGA,200047,2427.2589,N,08125.3921,W,1,11,1.3,22,M,,M,,*61
06/11/2015	20:00:47.589	$GPGGA,200048,2427.2592,N,08125.3908,W,1,11,1.3,22,M,,M,,*6F
06/11/2015	20:00:48.578	$GPGGA,200049,2427.2596,N,08125.3894,W,1,11,1.3,22,M,,M,,*6E
06/11/2015	20:00:49.588	$GPGGA,200050,2427.2599,N,08125.3880,W,1,11,1.3,22,M,,M,,*6C
06/11/2015	20:00:50.570	$GPGGA,200051,2427.2602,N,08125.3867,W,1,11,1.3,22,M,,M,,*65
06/11/2015	20:00:51.588	$GPGGA,200052,2427.2607,N,08125.3854,W,1,11,1.3,22,M,,M,,*63
06/11/2015	20:00:52.568	$GPGGA,200053,2427.2609,N,08125.3840,W,1,11,1.3,22,M,,M,,*69
06/11/2015	20:00:53.589	$GPGGA,200054,2427.2610,N,08125.3826,W,1,11,1.3,22,M,,M,,*66
06/11/2015	20:00:54.558	$GPGGA,200055,2427.2614,N,08125.3814,W,1,11,1.5,22,M,,M,,*64
06/11/2015	20:00:55.589	$GPGGA,200056,2427.2618,N,08125.3799,W,1,11,1.3,22,M,,M,,*67
06/11/2015	20:00:56.559	$GPGGA,200057,2427.2621,N,08125.3784,W,1,11,1.3,22,M,,M,,*60
06/11/2015	20:00:57.570	$GPGGA,200058,2427.2625,N,08125.3773,W,1,11,1.3,22,M,,M,,*63
06/11/2015	20:00:58.549	$GPGGA,200059,2427.2628,N,08125.3759,W,1,11,1.3,22,M,,M,,*67
06/11/2015	20:00:59.919	$GPGGA,200100,2427.2632,N,08125.3745,W,1,11,1.3,22,M,,M,,*6C
06/11/2015	20:01:00.539	$GPGGA,200101,2427.2635,N,08125.3733,W,1,11,1.3,22,M,,M,,*6B
06/11/2015	20:01:01.571	$GPGGA,200102,2427.2639,N,08125.3720,W,1,11,1.3,22,M,,M,,*66
06/11/2015	20:01:02.549	$GPGGA,200103,2427.2643,N,08125.3706,W,1,11,1.3,22,M,,M,,*6E
06/11/2015	20:01:03.549	$GPGGA,200104,2427.2646,N,08125.3693,W,1,11,1.3,22,M,,M,,*61
06/11/2015	20:01:04.539	$GPGGA,200105,2427.2650,N,08125.3680,W,1,11,1.3,22,M,,M,,*65
06/11/2015	20:01:05.539	$GPGGA,200106,2427.2654,N,08125.3667,W,1,11,1.3,22,M,,M,,*6B
06/11/2015	20:01:06.548	$GPGGA,200107,2427.2657,N,08125.3652,W,1,11,1.3,22,M,,M,,*6F
06/11/2015	20:01:07.575	$GPGGA,200108,2427.2660,N,08125.3640,W,1,11,1.3,22,M,,M,,*67
06/11/2015	20:01:08.528	$GPGGA,200109,2427.2664,N,08125.3627,W,1,11,1.3,22,M,,M,,*63
06/11/2015	20:01:09.538	$GPGGA,200110,2427.2668,N,08125.3614,W,1,11,1.3,22,M,,M,,*67
06/11/2015	20:01:10.538	$GPGGA,200111,2427.2671,N,08125.3601,W,1,11,1.3,22,M,,M,,*6A
06/11/2015	20:01:11.528	$GPGGA,200112,2427.2674,N,08125.3588,W,1,11,1.3,22,M,,M,,*6E
06/11/2015	20:01:12.528	$GPGGA,200113,2427.2679,N,08125.3576,W,1,11,1.3,22,M,,M,,*63
06/11/2015	20:01:13.559	$GPGGA,200114,2427.2682,N,08125.3563,W,1,11,1.3,22,M,,M,,*64
06/11/2015	20:01:14.519	$GPGGA,200115,2427.2685,N,08125.3550,W,1,11,1.3,22,M,,M,,*62
06/11/2015	20:01:15.549	$GPGGA,200116,2427.2689,N,08125.3537,W,1,11,1.3,22,M,,M,,*6C
06/11/2015	20:01:16.629	$GPGGA,200117,2427.2692,N,08125.3525,W,1,11,1.3,22,M,,M,,*64
06/11/2015	20:01:17.539	$GPGGA,200118,2427.2696,N,08125.3511,W,1,11,1.3,22,M,,M,,*68
06/11/2015	20:01:18.519	$GPGGA,200119,2427.2699,N,08125.3499,W,1,11,1.3,22,M,,M,,*67
06/11/2015	20:01:19.559	$GPGGA,200120,2427.2703,N,08125.3486,W,1,11,1.3,22,M,,M,,*61
06/11/2015	20:01:20.519	$GPGGA,200121,2427.2707,N,08125.3473,W,1,11,1.3,22,M,,M,,*6E
06/11/2015	20:01:21.619	$GPGGA,200122,2427.2710,N,08125.3460,W,1,11,1.3,22,M,,M,,*69
06/11/2015	20:01:22.519	$GPGGA,200123,2427.2714,N,08125.3447,W,1,11,1.3,22,M,,M,,*69
06/11/2015	20:01:23.608	$GPGGA,200124,2427.2717,N,08125.3434,W,1,11,1.3,22,M,,M,,*69
06/11/2015	20:01:24.498	$GPGGA,200125,2427.2719,N,08125.3420,W,1,11,1.3,22,M,,M,,*63
06/11/2015	20:01:25.498	$GPGGA,200126,2427.2724,N,08125.3407,W,1,11,1.3,22,M,,M,,*6B
06/11/2015	20:01:26.498	$GPGGA,200127,2427.2728,N,08125.3394,W,1,11,1.3,22,M,,M,,*6B
06/11/2015	20:01:27.608	$GPGGA,200128,2427.2730,N,08125.3380,W,1,11,1.3,22,M,,M,,*68
06/11/2015	20:01:28.498	$GPGGA,200129,2427.2733,N,08125.3367,W,1,11,1.3,22,M,,M,,*63
06/11/2015	20:01:29.588	$GPGGA,200130,2427.2736,N,08125.3354,W,1,10,1.5,22,M,,M,,*69
06/11/2015	20:01:30.599	$GPGGA,200131,2427.2740,N,08125.3340,W,1,10,1.5,22,M,,M,,*6C
06/11/2015	20:01:33.061	$GPGGA,200133,2427.2744,N,08125.3315,W,1,11,1.5,22,M,,M,,*6B
06/11/2015	20:01:33.485	$GPGGA,200134,2427.2747,N,08125.3302,W,1,11,1.3,22,M,,M,,*6F
06/11/2015	20:01:34.577	$GPGGA,200135,2427.2751,N,08125.3288,W,1,11,1.5,22,M,,M,,*6C
06/11/2015	20:01:35.579	$GPGGA,200136,2427.2754,N,08125.3276,W,1,10,1.5,22,M,,M,,*6A
06/11/2015	20:01:36.573	$GPGGA,200137,2427.2755,N,08125.3263,W,1,10,1.5,22,M,,M,,*6E
06/11/2015	20:01:37.572	$GPGGA,200138,2427.2758,N,08125.3250,W,1,10,1.5,21,M,,M,,*6F
06/11/2015	20:01:38.572	$GPGGA,200139,2427.2762,N,08125.3238,W,1,10,1.5,21,M,,M,,*69
06/11/2015	20:01:39.599	$GPGGA,200140,2427.2764,N,08125.3224,W,1,10,1.5,21,M,,M,,*6C
06/11/2015	20:01:40.570	$GPGGA,200141,2427.2766,N,08125.3211,W,1,10,1.5,21,M,,M,,*69
06/11/2015	20:01:41.558	$GPGGA,200142,2427.2769,N,08125.3198,W,1,10,1.5,21,M,,M,,*67
06/11/2015	20:01:42.558	$GPGGA,200143,2427.2772,N,08125.3184,W,1,10,1.5,21,M,,M,,*61
06/11/2015	20:01:43.570	$GPGGA,200144,2427.2773,N,08125.3172,W,1,10,1.5,21,M,,M,,*6E
06/11/2015	20:01:44.548	$GPGGA,200145,2427.2776,N,08125.3159,W,1,10,1.5,21,M,,M,,*63
06/11/2015	20:01:45.570	$GPGGA,200146,2427.2780,N,08125.3145,W,1,10,1.5,21,M,,M,,*64
06/11/2015	20:01:46.558	$GPGGA,200147,2427.2782,N,08125.3132,W,1,10,1.5,21,M,,M,,*67
06/11/2015	20:01:47.588	$GPGGA,200148,2427.2784,N,08125.3118,W,1,10,1.5,21,M,,M,,*66
06/11/2015	20:01:48.549	$GPGGA,200149,2427.2787,N,08125.3105,W,1,10,1.5,21,M,,M,,*68
06/11/2015	20:01:49.539	$GPGGA,200150,2427.2787,N,08125.3093,W,1,10,1.5,21,M,,M,,*6E
06/11/2015	20:01:50.539	$GPGGA,200151,2427.2789,N,08125.3079,W,1,10,1.3,21,M,,M,,*63
06/11/2015	20:01:51.582	$GPGGA,200152,2427.2793,N,08125.3065,W,1,11,1.3,21,M,,M,,*67
06/11/2015	20:01:52.539	$GPGGA,200153,2427.2795,N,08125.3052,W,1,11,1.5,21,M,,M,,*62
06/11/2015	20:01:53.571	$GPGGA,200154,2427.2797,N,08125.3038,W,1,10,1.5,21,M,,M,,*6A
06/11/2015	20:01:54.529	$GPGGA,200155,2427.2798,N,08125.3024,W,1,10,1.5,21,M,,M,,*69
06/11/2015	20:01:55.539	$GPGGA,200156,2427.2802,N,08125.3010,W,1,10,1.5,21,M,,M,,*61
06/11/2015	20:01:56.539	$GPGGA,200157,2427.2804,N,08125.2997,W,1,10,1.5,21,M,,M,,*61
06/11/2015	20:01:57.519	$GPGGA,200158,2427.2805,N,08125.2983,W,1,10,1.5,21,M,,M,,*6A
06/11/2015	20:01:58.528	$GPGGA,200159,2427.2809,N,08125.2969,W,1,10,1.5,21,M,,M,,*63
06/11/2015	20:01:59.564	$GPGGA,200200,2427.2812,N,08125.2954,W,1,10,1.5,21,M,,M,,*68
06/11/2015	20:02:00.528	$GPGGA,200201,2427.2813,N,08125.2941,W,1,10,1.5,21,M,,M,,*6C
06/11/2015	20:02:01.528	$GPGGA,200202,2427.2816,N,08125.2927,W,1,10,1.5,21,M,,M,,*6A
06/11/2015	20:02:02.498	$GPGGA,200203,2427.2820,N,08125.2912,W,1,10,1.5,21,M,,M,,*68
06/11/2015	20:02:03.528	$GPGGA,200204,2427.2822,N,08125.2898,W,1,10,1.5,21,M,,M,,*6E
06/11/2015	20:02:04.498	$GPGGA,200205,2427.2824,N,08125.2885,W,1,10,1.5,21,M,,M,,*65
06/11/2015	20:02:05.498	$GPGGA,200206,2427.2827,N,08125.2870,W,1,10,1.5,21,M,,M,,*6F
06/11/2015	20:02:06.508	$GPGGA,200207,2427.2830,N,08125.2856,W,1,10,1.5,21,M,,M,,*6C
06/11/2015	20:02:07.548	$GPGGA,200208,2427.2831,N,08125.2844,W,1,10,1.5,21,M,,M,,*61
06/11/2015	20:02:08.508	$GPGGA,200209,2427.2834,N,08125.2829,W,1,10,1.3,21,M,,M,,*68
06/11/2015	20:02:09.498	$GPGGA,200210,2427.2837,N,08125.2816,W,1,10,1.5,21,M,,M,,*69
06/11/2015	20:02:10.588	$GPGGA,200211,2427.2838,N,08125.2804,W,1,10,1.5,21,M,,M,,*64
06/11/2015	20:02:11.498	$GPGGA,200212,2427.2841,N,08125.2789,W,1,11,1.3,21,M,,M,,*64
06/11/2015	20:02:12.588	$GPGGA,200213,2427.2842,N,08125.2776,W,1,11,1.5,21,M,,M,,*60
06/11/2015	20:02:13.928	$GPGGA,200214,2427.2845,N,08125.2763,W,1,11,1.3,21,M,,M,,*62
06/11/2015	20:02:14.578	$GPGGA,200215,2427.2848,N,08125.2749,W,1,11,1.3,21,M,,M,,*66
06/11/2015	20:02:15.619	$GPGGA,200216,2427.2851,N,08125.2737,W,1,11,1.3,21,M,,M,,*64
06/11/2015	20:02:16.578	$GPGGA,200217,2427.2854,N,08125.2725,W,1,11,1.3,21,M,,M,,*63
06/11/2015	20:02:17.568	$GPGGA,200218,2427.2856,N,08125.2710,W,1,11,1.3,21,M,,M,,*68
06/11/2015	20:02:18.561	$GPGGA,200219,2427.2859,N,08125.2697,W,1,11,1.3,21,M,,M,,*68
06/11/2015	20:02:19.608	$GPGGA,200220,2427.2863,N,08125.2683,W,1,11,1.3,21,M,,M,,*6E
06/11/2015	20:02:20.572	$GPGGA,200221,2427.2867,N,08125.2669,W,1,11,1.3,21,M,,M,,*6F
06/11/2015	20:02:21.599	$GPGGA,200222,2427.2869,N,08125.2656,W,1,11,1.3,21,M,,M,,*6E
06/11/2015	20:02:22.560	$GPGGA,200223,2427.2873,N,08125.2642,W,1,11,1.3,21,M,,M,,*61
06/11/2015	20:02:23.588	$GPGGA,200224,2427.2878,N,08125.2629,W,1,11,1.3,21,M,,M,,*60
06/11/2015	20:02:24.565	$GPGGA,200225,2427.2881,N,08125.2615,W,1,11,1.3,21,M,,M,,*68
06/11/2015	20:02:25.580	$GPGGA,200226,2427.2884,N,08125.2601,W,1,11,1.3,21,M,,M,,*6B
06/11/2015	20:02:26.549	$GPGGA,200227,2427.2888,N,08125.2588,W,1,11,1.3,21,M,,M,,*64
06/11/2015	20:02:27.581	$GPGGA,200228,2427.2892,N,08125.2575,W,1,11,1.3,21,M,,M,,*62
06/11/2015	20:02:28.548	$GPGGA,200229,2427.2896,N,08125.2560,W,1,11,1.3,21,M,,M,,*63
06/11/2015	20:02:30.038	$GPGGA,200230,2427.2899,N,08125.2547,W,1,11,1.3,21,M,,M,,*61
06/11/2015	20:02:30.538	$GPGGA,200231,2427.2905,N,08125.2535,W,1,11,1.3,21,M,,M,,*61
06/11/2015	20:02:31.588	$GPGGA,200232,2427.2909,N,08125.2521,W,1,11,1.3,21,M,,M,,*6B
06/11/2015	20:02:32.538	$GPGGA,200233,2427.2913,N,08125.2507,W,1,11,1.3,21,M,,M,,*65
06/11/2015	20:02:33.538	$GPGGA,200234,2427.2917,N,08125.2495,W,1,11,1.3,21,M,,M,,*6C
06/11/2015	20:02:34.539	$GPGGA,200235,2427.2921,N,08125.2483,W,1,11,1.3,21,M,,M,,*6F
06/11/2015	20:02:35.538	$GPGGA,200236,2427.2925,N,08125.2469,W,1,11,1.3,21,M,,M,,*6C
06/11/2015	20:02:36.538	$GPGGA,200237,2427.2928,N,08125.2456,W,1,11,1.3,21,M,,M,,*6C
06/11/2015	20:02:37.519	$GPGGA,200238,2427.2932,N,08125.2444,W,1,11,1.3,21,M,,M,,*6B
06/11/2015	20:02:38.528	$GPGGA,200239,2427.2938,N,08125.2431,W,1,11,1.3,21,M,,M,,*62
06/11/2015	20:02:39.578	$GPGGA,200240,2427.2943,N,08125.2417,W,1,11,1.3,21,M,,M,,*64
06/11/2015	20:02:40.538	$GPGGA,200241,2427.2946,N,08125.2405,W,1,11,1.3,20,M,,M,,*62
06/11/2015	20:02:41.560	$GPGGA,200242,2427.2950,N,08125.2392,W,1,11,1.3,20,M,,M,,*6F
06/11/2015	20:02:42.638	$GPGGA,200243,2427.2954,N,08125.2379,W,1,11,1.3,20,M,,M,,*6F
06/11/2015	20:02:43.561	$GPGGA,200244,2427.2957,N,08125.2367,W,1,11,1.3,20,M,,M,,*64
06/11/2015	20:02:44.508	$GPGGA,200245,2427.2961,N,08125.2354,W,1,11,1.3,20,M,,M,,*60
06/11/2015	20:02:45.518	$GPGGA,200246,2427.2966,N,08125.2341,W,1,11,1.3,20,M,,M,,*60
06/11/2015	20:02:46.508	$GPGGA,200247,2427.2970,N,08125.2327,W,1,11,1.3,20,M,,M,,*66
06/11/2015	20:02:47.538	$GPGGA,200248,2427.2972,N,08125.2315,W,1,11,1.3,20,M,,M,,*6A
06/11/2015	20:02:48.598	$GPGGA,200249,2427.2977,N,08125.2302,W,1,11,1.3,20,M,,M,,*68
06/11/2015	20:02:49.518	$GPGGA,200250,2427.2979,N,08125.2288,W,1,11,1.3,20,M,,M,,*6D
06/11/2015	20:02:50.508	$GPGGA,200251,2427.2982,N,08125.2276,W,1,11,1.3,20,M,,M,,*69
06/11/2015	20:02:51.528	$GPGGA,200252,2427.2986,N,08125.2263,W,1,11,1.3,20,M,,M,,*6A
06/11/2015	20:02:52.508	$GPGGA,200253,2427.2990,N,08125.2250,W,1,11,1.3,20,M,,M,,*6C
06/11/2015	20:02:53.618	$GPGGA,200254,2427.2993,N,08125.2236,W,1,11,1.3,20,M,,M,,*68
06/11/2015	20:02:54.508	$GPGGA,200255,2427.2997,N,08125.2223,W,1,11,1.3,20,M,,M,,*69
06/11/2015	20:02:55.663	$GPGGA,200256,2427.3000,N,08125.2210,W,1,11,1.3,20,M,,M,,*6C
06/11/2015	20:02:56.598	$GPGGA,200257,2427.3004,N,08125.2196,W,1,11,1.3,20,M,,M,,*64
06/11/2015	20:02:57.608	$GPGGA,200258,2427.3006,N,08125.2183,W,1,11,1.5,20,M,,M,,*6B
06/11/2015	20:02:58.498	$GPGGA,200259,2427.3010,N,08125.2170,W,1,11,1.5,20,M,,M,,*61
06/11/2015	20:02:59.660	$GPGGA,200300,2427.3013,N,08125.2155,W,1,10,1.5,20,M,,M,,*69
06/11/2015	20:03:00.498	$GPGGA,200301,2427.3017,N,08125.2144,W,1,10,1.5,20,M,,M,,*6C
06/11/2015	20:03:01.508	$GPGGA,200302,2427.3016,N,08125.2132,W,1,10,1.5,20,M,,M,,*6F
06/11/2015	20:03:02.578	$GPGGA,200303,2427.3022,N,08125.2119,W,1,10,1.3,20,M,,M,,*66
06/11/2015	20:03:03.618	$GPGGA,200304,2427.3026,N,08125.2104,W,1,11,1.5,20,M,,M,,*6E
06/11/2015	20:03:04.488	$GPGGA,200305,2427.3026,N,08125.2092,W,1,11,1.5,20,M,,M,,*61
06/11/2015	20:03:05.588	$GPGGA,200306,2427.3029,N,08125.2081,W,1,10,1.3,20,M,,M,,*68
06/11/2015	20:03:06.571	$GPGGA,200307,2427.3033,N,08125.2066,W,1,10,1.5,20,M,,M,,*6D
06/11/2015	20:03:07.588	$GPGGA,200308,2427.3035,N,08125.2054,W,1,10,1.5,20,M,,M,,*65
06/11/2015	20:03:08.568	$GPGGA,200309,2427.3037,N,08125.2041,W,1,10,1.3,20,M,,M,,*64
06/11/2015	20:03:09.879	$GPGGA,200310,2427.3042,N,08125.2028,W,1,11,1.5,20,M,,M,,*66
06/11/2015	20:03:10.560	$GPGGA,200311,2427.3044,N,08125.2017,W,1,11,1.5,20,M,,M,,*6D
06/11/2015	20:03:11.608	$GPGGA,200312,2427.3044,N,08125.2005,W,1,10,1.3,20,M,,M,,*6A
06/11/2015	20:03:12.561	$GPGGA,200313,2427.3047,N,08125.1992,W,1,10,1.5,20,M,,M,,*6A
06/11/2015	20:03:13.578	$GPGGA,200314,2427.3050,N,08125.1979,W,1,10,1.5,20,M,,M,,*6E
06/11/2015	20:03:14.563	$GPGGA,200315,2427.3051,N,08125.1966,W,1,10,1.5,20,M,,M,,*60
06/11/2015	20:03:15.578	$GPGGA,200316,2427.3053,N,08125.1953,W,1,10,1.5,20,M,,M,,*67
06/11/2015	20:03:16.548	$GPGGA,200317,2427.3055,N,08125.1941,W,1,10,1.5,21,M,,M,,*62
06/11/2015	20:03:17.568	$GPGGA,200318,2427.3058,N,08125.1927,W,1,10,1.3,21,M,,M,,*66
06/11/2015	20:03:18.548	$GPGGA,200319,2427.3060,N,08125.1914,W,1,10,1.3,21,M,,M,,*6C
06/11/2015	20:03:19.588	$GPGGA,200320,2427.3064,N,08125.1901,W,1,11,1.5,21,M,,M,,*61
06/11/2015	20:03:20.548	$GPGGA,200321,2427.3066,N,08125.1888,W,1,11,1.5,21,M,,M,,*62
06/11/2015	20:03:21.548	$GPGGA,200322,2427.3069,N,08125.1873,W,1,10,1.3,21,M,,M,,*6D
06/11/2015	20:03:22.548	$GPGGA,200323,2427.3069,N,08125.1859,W,1,10,1.5,21,M,,M,,*62
06/11/2015	20:03:23.569	$GPGGA,200324,2427.3073,N,08125.1844,W,1,10,1.5,21,M,,M,,*62
06/11/2015	20:03:24.528	$GPGGA,200325,2427.3076,N,08125.1830,W,1,10,1.5,21,M,,M,,*65
06/11/2015	20:03:25.529	$GPGGA,200326,2427.3073,N,08125.1818,W,1,10,1.3,21,M,,M,,*6F
06/11/2015	20:03:26.538	$GPGGA,200327,2427.3078,N,08125.1803,W,1,10,1.5,21,M,,M,,*69
06/11/2015	20:03:27.598	$GPGGA,200328,2427.3080,N,08125.1789,W,1,10,1.5,21,M,,M,,*6C
06/11/2015	20:03:28.528	$GPGGA,200329,2427.3082,N,08125.1775,W,1,10,1.5,21,M,,M,,*6C
06/11/2015	20:03:29.519	$GPGGA,200330,2427.3083,N,08125.1762,W,1,10,1.3,21,M,,M,,*65
06/11/2015	20:03:30.528	$GPGGA,200331,2427.3087,N,08125.1748,W,1,10,1.5,21,M,,M,,*6E
06/11/2015	20:03:31.558	$GPGGA,200332,2427.3089,N,08125.1733,W,1,10,1.8,21,M,,M,,*62
06/11/2015	20:03:32.538	$GPGGA,200333,2427.3091,N,08125.1718,W,1,10,1.8,20,M,,M,,*62
06/11/2015	20:03:33.508	$GPGGA,200334,2427.3094,N,08125.1706,W,1,9,1.3,20,M,,M,,*5C
06/11/2015	20:03:34.508	$GPGGA,200335,2427.3097,N,08125.1692,W,1,9,1.4,20,M,,M,,*55
06/11/2015	20:03:35.528	$GPGGA,200336,2427.3098,N,08125.1678,W,1,10,1.4,20,M,,M,,*65
06/11/2015	20:03:36.508	$GPGGA,200337,2427.3101,N,08125.1662,W,1,10,1.8,20,M,,M,,*62
06/11/2015	20:03:37.508	$GPGGA,200338,2427.3104,N,08125.1647,W,1,9,1.4,20,M,,M,,*5B
06/11/2015	20:03:38.628	$GPGGA,200339,2427.3107,N,08125.1631,W,1,9,1.4,20,M,,M,,*58
06/11/2015	20:03:40.108	$GPGGA,200340,2427.3112,N,08125.1617,W,1,10,1.3,20,M,,M,,*69
06/11/2015	20:03:40.518	$GPGGA,200341,2427.3115,N,08125.1604,W,1,10,1.3,20,M,,M,,*6D
06/11/2015	20:03:42.549	$GPGGA,200343,2427.3125,N,08125.1576,W,1,11,1.3,20,M,,M,,*6B
06/11/2015	20:03:44.082	$GPGGA,200344,2427.3127,N,08125.1563,W,1,11,1.3,20,M,,M,,*6A
06/11/2015	20:03:44.588	$GPGGA,200345,2427.3131,N,08125.1549,W,1,11,1.3,20,M,,M,,*64
06/11/2015	20:03:45.488	$GPGGA,200346,2427.3134,N,08125.1534,W,1,11,1.3,20,M,,M,,*68
06/11/2015	20:03:46.588	$GPGGA,200347,2427.3137,N,08125.1522,W,1,11,1.3,20,M,,M,,*6D
06/11/2015	20:03:47.618	$GPGGA,200348,2427.3141,N,08125.1508,W,1,11,1.3,20,M,,M,,*6B
06/11/2015	20:03:48.498	$GPGGA,200349,2427.3145,N,08125.1494,W,1,11,1.3,20,M,,M,,*6A
06/11/2015	20:03:49.488	$GPGGA,200350,2427.3147,N,08125.1481,W,1,11,1.3,20,M,,M,,*64
06/11/2015	20:03:50.568	$GPGGA,200351,2427.3149,N,08125.1469,W,1,11,1.3,20,M,,M,,*6D
06/11/2015	20:03:51.590	$GPGGA,200352,2427.3155,N,08125.1455,W,1,11,1.3,20,M,,M,,*6C
06/11/2015	20:03:52.573	$GPGGA,200353,2427.3156,N,08125.1442,W,1,11,1.3,20,M,,M,,*68
06/11/2015	20:03:53.577	$GPGGA,200354,2427.3159,N,08125.1429,W,1,11,1.3,20,M,,M,,*6D
06/11/2015	20:03:54.573	$GPGGA,200355,2427.3163,N,08125.1416,W,1,11,1.3,20,M,,M,,*69
06/11/2015	20:03:55.608	$GPGGA,200356,2427.3167,N,08125.1403,W,1,11,1.3,20,M,,M,,*6A
06/11/2015	20:03:56.589	$GPGGA,200357,2427.3170,N,08125.1390,W,1,11,1.3,20,M,,M,,*60
06/11/2015	20:03:57.578	$GPGGA,200358,2427.3174,N,08125.1377,W,1,11,1.3,20,M,,M,,*62
06/11/2015	20:03:58.572	$GPGGA,200359,2427.3177,N,08125.1364,W,1,11,1.3,20,M,,M,,*62
06/11/2015	20:03:59.618	$GPGGA,200400,2427.3181,N,08125.1350,W,1,11,1.3,20,M,,M,,*67
06/11/2015	20:04:00.564	$GPGGA,200401,2427.3185,N,08125.1337,W,1,11,1.3,20,M,,M,,*63
06/11/2015	20:04:01.571	$GPGGA,200402,2427.3188,N,08125.1324,W,1,11,1.3,20,M,,M,,*6F
06/11/2015	20:04:02.548	$GPGGA,200403,2427.3192,N,08125.1309,W,1,11,1.3,20,M,,M,,*6A
06/11/2015	20:04:03.578	$GPGGA,200404,2427.3195,N,08125.1297,W,1,10,1.3,20,M,,M,,*6D
06/11/2015	20:04:04.565	$GPGGA,200405,2427.3198,N,08125.1283,W,1,10,1.3,20,M,,M,,*64
06/11/2015	20:04:05.575	$GPGGA,200406,2427.3201,N,08125.1269,W,1,11,1.3,20,M,,M,,*61
06/11/2015	20:04:06.538	$GPGGA,200407,2427.3205,N,08125.1256,W,1,11,1.3,20,M,,M,,*68
06/11/2015	20:04:07.579	$GPGGA,200408,2427.3208,N,08125.1243,W,1,11,1.3,20,M,,M,,*6E
06/11/2015	20:04:08.538	$GPGGA,200409,2427.3212,N,08125.1229,W,1,11,1.3,20,M,,M,,*68
06/11/2015	20:04:09.564	$GPGGA,200410,2427.3216,N,08125.1215,W,1,11,1.3,20,M,,M,,*6B
06/11/2015	20:04:10.538	$GPGGA,200411,2427.3219,N,08125.1202,W,1,11,1.3,20,M,,M,,*63
06/11/2015	20:04:11.548	$GPGGA,200412,2427.3221,N,08125.1188,W,1,11,1.3,20,M,,M,,*6A
06/11/2015	20:04:12.528	$GPGGA,200413,2427.3225,N,08125.1174,W,1,11,1.3,20,M,,M,,*6C
06/11/2015	20:04:13.518	$GPGGA,200414,2427.3228,N,08125.1160,W,1,11,1.3,20,M,,M,,*63
06/11/2015	20:04:14.528	$GPGGA,200415,2427.3232,N,08125.1147,W,1,11,1.3,20,M,,M,,*6C
06/11/2015	20:04:15.548	$GPGGA,200416,2427.3235,N,08125.1133,W,1,11,1.3,20,M,,M,,*6B
06/11/2015	20:04:16.528	$GPGGA,200417,2427.3239,N,08125.1119,W,1,11,1.3,21,M,,M,,*6F
06/11/2015	20:04:17.538	$GPGGA,200418,2427.3242,N,08125.1106,W,1,11,1.3,21,M,,M,,*62
06/11/2015	20:04:18.518	$GPGGA,200419,2427.3246,N,08125.1092,W,1,11,1.3,21,M,,M,,*6B
06/11/2015	20:04:19.538	$GPGGA,200420,2427.3250,N,08125.1078,W,1,11,1.3,21,M,,M,,*62
06/11/2015	20:04:20.518	$GPGGA,200421,2427.3253,N,08125.1066,W,1,11,1.3,21,M,,M,,*6F
06/11/2015	20:04:21.508	$GPGGA,200422,2427.3257,N,08125.1052,W,1,11,1.3,21,M,,M,,*6F
06/11/2015	20:04:22.518	$GPGGA,200423,2427.3261,N,08125.1038,W,1,11,1.3,21,M,,M,,*67
06/11/2015	20:04:23.548	$GPGGA,200424,2427.3267,N,08125.1025,W,1,10,1.4,21,M,,M,,*6C
06/11/2015	20:04:24.518	$GPGGA,200425,2427.3271,N,08125.1011,W,1,10,1.3,21,M,,M,,*6A
06/11/2015	20:04:25.498	$GPGGA,200426,2427.3275,N,08125.0998,W,1,11,1.3,21,M,,M,,*65
06/11/2015	20:04:26.508	$GPGGA,200427,2427.3279,N,08125.0984,W,1,11,1.3,21,M,,M,,*65
06/11/2015	20:04:27.528	$GPGGA,200428,2427.3282,N,08125.0970,W,1,11,1.3,21,M,,M,,*65
06/11/2015	20:04:28.508	$GPGGA,200429,2427.3285,N,08125.0958,W,1,11,1.3,21,M,,M,,*69
06/11/2015	20:04:29.488	$GPGGA,200430,2427.3288,N,08125.0944,W,1,11,1.3,21,M,,M,,*61
06/11/2015	20:04:31.040	$GPGGA,200431,2427.3293,N,08125.0930,W,1,11,1.4,21,M,,M,,*6E
06/11/2015	20:04:31.498	$GPGGA,200432,2427.3296,N,08125.0917,W,1,11,1.3,21,M,,M,,*6A
06/11/2015	20:04:32.498	$GPGGA,200433,2427.3299,N,08125.0904,W,1,11,1.3,21,M,,M,,*66
06/11/2015	20:04:33.588	$GPGGA,200434,2427.3300,N,08125.0889,W,1,11,1.3,21,M,,M,,*64
06/11/2015	20:04:34.588	$GPGGA,200435,2427.3303,N,08125.0875,W,1,11,1.4,21,M,,M,,*62
06/11/2015	20:04:35.598	$GPGGA,200436,2427.3304,N,08125.0864,W,1,10,1.4,21,M,,M,,*67
06/11/2015	20:04:36.488	$GPGGA,200437,2427.3308,N,08125.0850,W,1,10,1.3,21,M,,M,,*6A
06/11/2015	20:04:37.578	$GPGGA,200438,2427.3311,N,08125.0836,W,1,11,1.3,21,M,,M,,*6C
06/11/2015	20:04:38.570	$GPGGA,200439,2427.3314,N,08125.0825,W,1,11,1.3,21,M,,M,,*6A
06/11/2015	20:04:39.608	$GPGGA,200440,2427.3317,N,08125.0812,W,1,11,1.3,21,M,,M,,*63
06/11/2015	20:04:40.563	$GPGGA,200441,2427.3321,N,08125.0798,W,1,11,1.3,21,M,,M,,*6A
06/11/2015	20:04:41.560	$GPGGA,200442,2427.3322,N,08125.0787,W,1,11,1.3,21,M,,M,,*64
06/11/2015	20:04:42.570	$GPGGA,200443,2427.3322,N,08125.0775,W,1,11,1.5,21,M,,M,,*6E
06/11/2015	20:04:43.570	$GPGGA,200444,2427.3326,N,08125.0763,W,1,11,1.3,21,M,,M,,*6C
06/11/2015	20:04:44.559	$GPGGA,200445,2427.3329,N,08125.0750,W,1,11,1.5,21,M,,M,,*64
06/11/2015	20:04:45.568	$GPGGA,200446,2427.3329,N,08125.0738,W,1,10,1.5,21,M,,M,,*68
06/11/2015	20:04:46.571	$GPGGA,200447,2427.3332,N,08125.0725,W,1,10,1.3,21,M,,M,,*69
06/11/2015	20:04:47.588	$GPGGA,200448,2427.3336,N,08125.0713,W,1,11,1.3,21,M,,M,,*66
06/11/2015	20:04:48.980	$GPGGA,200449,2427.3336,N,08125.0700,W,1,11,1.3,21,M,,M,,*65
06/11/2015	20:04:49.578	$GPGGA,200450,2427.3340,N,08125.0687,W,1,11,1.3,21,M,,M,,*62
06/11/2015	20:04:50.538	$GPGGA,200451,2427.3342,N,08125.0675,W,1,11,1.3,21,M,,M,,*6C
06/11/2015	20:04:51.578	$GPGGA,200452,2427.3344,N,08125.0662,W,1,11,1.3,21,M,,M,,*6F
06/11/2015	20:04:52.561	$GPGGA,200453,2427.3347,N,08125.0648,W,1,11,1.5,21,M,,M,,*63
06/11/2015	20:04:53.573	$GPGGA,200454,2427.3351,N,08125.0636,W,1,10,1.5,21,M,,M,,*6B
06/11/2015	20:04:54.538	$GPGGA,200455,2427.3354,N,08125.0623,W,1,10,1.3,21,M,,M,,*6D
06/11/2015	20:04:55.577	$GPGGA,200456,2427.3357,N,08125.0608,W,1,11,1.3,22,M,,M,,*66
06/11/2015	20:04:56.548	$GPGGA,200457,2427.3358,N,08125.0595,W,1,11,1.8,22,M,,M,,*64
06/11/2015	20:04:57.528	$GPGGA,200458,2427.3362,N,08125.0581,W,1,11,1.3,22,M,,M,,*6C
06/11/2015	20:04:58.538	$GPGGA,200459,2427.3365,N,08125.0568,W,1,11,1.3,22,M,,M,,*6D
06/11/2015	20:04:59.598	$GPGGA,200500,2427.3369,N,08125.0555,W,1,10,1.5,22,M,,M,,*65
06/11/2015	20:05:00.618	$GPGGA,200501,2427.3371,N,08125.0542,W,1,10,1.3,22,M,,M,,*6D
06/11/2015	20:05:01.538	$GPGGA,200502,2427.3373,N,08125.0529,W,1,11,1.3,22,M,,M,,*60
06/11/2015	20:05:02.528	$GPGGA,200503,2427.3378,N,08125.0516,W,1,11,1.3,22,M,,M,,*66
06/11/2015	20:05:03.528	$GPGGA,200504,2427.3380,N,08125.0503,W,1,10,1.5,22,M,,M,,*65
06/11/2015	20:05:04.528	$GPGGA,200505,2427.3382,N,08125.0490,W,1,10,1.5,22,M,,M,,*6D
06/11/2015	20:05:05.548	$GPGGA,200506,2427.3385,N,08125.0477,W,1,11,1.3,22,M,,M,,*67
06/11/2015	20:05:06.508	$GPGGA,200507,2427.3387,N,08125.0464,W,1,11,1.5,22,M,,M,,*60
06/11/2015	20:05:07.559	$GPGGA,200508,2427.3390,N,08125.0453,W,1,10,1.4,22,M,,M,,*6D
06/11/2015	20:05:08.518	$GPGGA,200509,2427.3394,N,08125.0439,W,1,10,1.3,22,M,,M,,*63
06/11/2015	20:05:10.029	$GPGGA,200510,2427.3397,N,08125.0425,W,1,11,1.3,22,M,,M,,*64
06/11/2015	20:05:10.498	$GPGGA,200511,2427.3398,N,08125.0413,W,1,11,1.3,22,M,,M,,*6F
06/11/2015	20:05:11.608	$GPGGA,200512,2427.3402,N,08125.0400,W,1,11,1.3,22,M,,M,,*6A
06/11/2015	20:05:12.518	$GPGGA,200513,2427.3407,N,08125.0385,W,1,11,1.3,22,M,,M,,*64
06/11/2015	20:05:13.598	$GPGGA,200514,2427.3409,N,08125.0373,W,1,11,1.3,22,M,,M,,*64
06/11/2015	20:05:14.518	$GPGGA,200515,2427.3412,N,08125.0360,W,1,11,1.3,22,M,,M,,*6D
06/11/2015	20:05:15.508	$GPGGA,200516,2427.3416,N,08125.0347,W,1,11,1.3,22,M,,M,,*6F
06/11/2015	20:05:16.588	$GPGGA,200517,2427.3419,N,08125.0333,W,1,11,1.3,22,M,,M,,*62
06/11/2015	20:05:17.609	$GPGGA,200518,2427.3420,N,08125.0321,W,1,11,1.3,22,M,,M,,*64
06/11/2015	20:05:18.498	$GPGGA,200519,2427.3425,N,08125.0308,W,1,11,1.3,22,M,,M,,*6B
06/11/2015	20:05:19.588	$GPGGA,200520,2427.3427,N,08125.0294,W,1,10,1.4,22,M,,M,,*61
06/11/2015	20:05:20.588	$GPGGA,200521,2427.3430,N,08125.0281,W,1,10,1.3,22,M,,M,,*65
06/11/2015	20:05:21.608	$GPGGA,200522,2427.3433,N,08125.0267,W,1,11,1.3,22,M,,M,,*6C
06/11/2015	20:05:22.498	$GPGGA,200523,2427.3437,N,08125.0254,W,1,11,1.3,22,M,,M,,*69
06/11/2015	20:05:23.628	$GPGGA,200524,2427.3440,N,08125.0241,W,1,10,1.4,22,M,,M,,*6C
06/11/2015	20:05:24.488	$GPGGA,200525,2427.3439,N,08125.0226,W,1,10,1.4,22,M,,M,,*62
06/11/2015	20:05:25.598	$GPGGA,200526,2427.3444,N,08125.0212,W,1,10,1.4,22,M,,M,,*6C
06/11/2015	20:05:26.560	$GPGGA,200527,2427.3445,N,08125.0199,W,1,10,1.3,22,M,,M,,*6B
06/11/2015	20:05:27.598	$GPGGA,200528,2427.3449,N,08125.0186,W,1,11,1.3,22,M,,M,,*67
06/11/2015	20:05:28.558	$GPGGA,200529,2427.3454,N,08125.0172,W,1,11,1.3,22,M,,M,,*61
06/11/2015	20:05:29.588	$GPGGA,200530,2427.3459,N,08125.0158,W,1,11,1.3,22,M,,M,,*6C
06/11/2015	20:05:30.569	$GPGGA,200531,2427.3461,N,08125.0145,W,1,11,1.3,22,M,,M,,*6A
06/11/2015	20:05:31.578	$GPGGA,200532,2427.3466,N,08125.0131,W,1,10,1.4,22,M,,M,,*6B
06/11/2015	20:05:32.562	$GPGGA,200533,2427.3472,N,08125.0117,W,1,10,1.3,22,M,,M,,*6C
06/11/2015	20:05:33.548	$GPGGA,200534,2427.3476,N,08125.0103,W,1,11,1.3,22,M,,M,,*6B
06/11/2015	20:05:34.548	$GPGGA,200535,2427.3480,N,08125.0090,W,1,11,1.3,22,M,,M,,*68
06/11/2015	20:05:35.588	$GPGGA,200536,2427.3484,N,08125.0076,W,1,11,1.3,22,M,,M,,*67
06/11/2015	20:05:36.558	$GPGGA,200537,2427.3488,N,08125.0062,W,1,11,1.3,22,M,,M,,*6F
06/11/2015	20:05:37.578	$GPGGA,200538,2427.3491,N,08125.0049,W,1,11,1.3,22,M,,M,,*61
06/11/2015	20:05:38.538	$GPGGA,200539,2427.3495,N,08125.0035,W,1,11,1.3,22,M,,M,,*6F
06/11/2015	20:05:39.569	$GPGGA,200540,2427.3499,N,08125.0022,W,1,11,1.3,22,M,,M,,*6B
06/11/2015	20:05:40.538	$GPGGA,200541,2427.3503,N,08125.0009,W,1,11,1.3,22,M,,M,,*61
06/11/2015	20:05:41.538	$GPGGA,200542,2427.3506,N,08124.9995,W,1,11,1.3,22,M,,M,,*63
06/11/2015	20:05:42.538	$GPGGA,200543,2427.3510,N,08124.9983,W,1,11,1.3,22,M,,M,,*62
06/11/2015	20:05:45.308	$GPGGA,200545,2427.3517,N,08124.9955,W,1,11,1.3,22,M,,M,,*68
06/11/2015	20:05:45.528	$GPGGA,200546,2427.3521,N,08124.9943,W,1,11,1.3,22,M,,M,,*69
06/11/2015	20:05:46.538	$GPGGA,200547,2427.3524,N,08124.9930,W,1,11,1.3,22,M,,M,,*69
06/11/2015	20:05:47.578	$GPGGA,200548,2427.3528,N,08124.9916,W,1,11,1.3,22,M,,M,,*6E
06/11/2015	20:05:48.538	$GPGGA,200549,2427.3531,N,08124.9903,W,1,11,1.3,22,M,,M,,*63
06/11/2015	20:05:49.548	$GPGGA,200550,2427.3535,N,08124.9890,W,1,11,1.3,22,M,,M,,*64
06/11/2015	20:05:50.528	$GPGGA,200551,2427.3538,N,08124.9877,W,1,11,1.4,22,M,,M,,*66
06/11/2015	20:05:51.528	$GPGGA,200552,2427.3541,N,08124.9863,W,1,11,1.3,22,M,,M,,*69
06/11/2015	20:05:52.528	$GPGGA,200553,2427.3545,N,08124.9849,W,1,11,1.3,22,M,,M,,*64
06/11/2015	20:05:53.508	$GPGGA,200554,2427.3549,N,08124.9836,W,1,11,1.3,22,M,,M,,*67
06/11/2015	20:05:54.508	$GPGGA,200555,2427.3550,N,08124.9823,W,1,11,1.3,22,M,,M,,*6A
06/11/2015	20:05:55.562	$GPGGA,200556,2427.3553,N,08124.9809,W,1,10,1.4,22,M,,M,,*64
06/11/2015	20:05:56.518	$GPGGA,200557,2427.3556,N,08124.9795,W,1,10,1.3,22,M,,M,,*6D
06/11/2015	20:05:57.598	$GPGGA,200558,2427.3560,N,08124.9783,W,1,10,1.4,22,M,,M,,*67
06/11/2015	20:05:58.518	$GPGGA,200559,2427.3563,N,08124.9769,W,1,10,1.3,22,M,,M,,*66
06/11/2015	20:05:59.678	$GPGGA,200600,2427.3564,N,08124.9755,W,1,10,1.4,21,M,,M,,*65
06/11/2015	20:06:00.528	$GPGGA,200601,2427.3568,N,08124.9742,W,1,10,1.3,21,M,,M,,*69
06/11/2015	20:06:01.618	$GPGGA,200602,2427.3571,N,08124.9729,W,1,11,1.3,21,M,,M,,*6E
06/11/2015	20:06:02.588	$GPGGA,200603,2427.3574,N,08124.9716,W,1,11,1.3,21,M,,M,,*66
06/11/2015	20:06:03.518	$GPGGA,200604,2427.3575,N,08124.9703,W,1,11,1.3,21,M,,M,,*64
06/11/2015	20:06:04.662	$GPGGA,200605,2427.3579,N,08124.9689,W,1,11,1.3,21,M,,M,,*6A
06/11/2015	20:06:05.608	$GPGGA,200606,2427.3582,N,08124.9676,W,1,11,1.3,21,M,,M,,*6D
06/11/2015	20:06:06.588	$GPGGA,200607,2427.3585,N,08124.9663,W,1,11,1.3,21,M,,M,,*6F
06/11/2015	20:06:07.669	$GPGGA,200608,2427.3588,N,08124.9649,W,1,11,1.3,21,M,,M,,*65
06/11/2015	20:06:08.662	$GPGGA,200609,2427.3591,N,08124.9635,W,1,11,1.3,21,M,,M,,*67
06/11/2015	20:06:09.628	$GPGGA,200610,2427.3593,N,08124.9622,W,1,11,1.3,21,M,,M,,*6B
06/11/2015	20:06:10.648	$GPGGA,200611,2427.3596,N,08124.9608,W,1,11,1.3,21,M,,M,,*67
06/11/2015	20:06:11.638	$GPGGA,200612,2427.3600,N,08124.9594,W,1,11,1.3,21,M,,M,,*6E
06/11/2015	20:06:12.628	$GPGGA,200613,2427.3603,N,08124.9581,W,1,11,1.3,21,M,,M,,*68
06/11/2015	20:06:13.619	$GPGGA,200614,2427.3607,N,08124.9566,W,1,11,1.3,20,M,,M,,*63
06/11/2015	20:06:14.618	$GPGGA,200615,2427.3610,N,08124.9552,W,1,11,1.3,20,M,,M,,*63
06/11/2015	20:06:15.618	$GPGGA,200616,2427.3611,N,08124.9538,W,1,11,1.3,20,M,,M,,*6D
06/11/2015	20:06:16.608	$GPGGA,200617,2427.3615,N,08124.9524,W,1,11,1.3,20,M,,M,,*65
06/11/2015	20:06:17.548	$GPGGA,200618,2427.3617,N,08124.9511,W,1,11,1.3,20,M,,M,,*6E
06/11/2015	20:06:18.560	$GPGGA,200619,2427.3618,N,08124.9497,W,1,11,1.5,20,M,,M,,*69
06/11/2015	20:06:19.628	$GPGGA,200620,2427.3618,N,08124.9482,W,1,10,1.3,20,M,,M,,*60
06/11/2015	20:06:20.548	$GPGGA,200621,2427.3622,N,08124.9469,W,1,10,1.3,20,M,,M,,*6D
06/11/2015	20:06:21.598	$GPGGA,200622,2427.3622,N,08124.9454,W,1,11,1.3,20,M,,M,,*61
06/11/2015	20:06:22.548	$GPGGA,200623,2427.3625,N,08124.9439,W,1,11,1.3,20,M,,M,,*6C
06/11/2015	20:06:23.648	$GPGGA,200624,2427.3628,N,08124.9425,W,1,11,1.4,20,M,,M,,*6C
06/11/2015	20:06:24.608	$GPGGA,200625,2427.3629,N,08124.9409,W,1,11,1.4,20,M,,M,,*62
06/11/2015	20:06:25.538	$GPGGA,200626,2427.3631,N,08124.9396,W,1,11,1.3,20,M,,M,,*6E
06/11/2015	20:06:26.878	$GPGGA,200627,2427.3635,N,08124.9383,W,1,11,1.3,20,M,,M,,*6F
06/11/2015	20:06:27.548	$GPGGA,200628,2427.3636,N,08124.9367,W,1,11,1.3,20,M,,M,,*69
06/11/2015	20:06:28.538	$GPGGA,200629,2427.3638,N,08124.9353,W,1,11,1.5,20,M,,M,,*67
06/11/2015	20:06:29.558	$GPGGA,200630,2427.3640,N,08124.9340,W,1,11,1.3,20,M,,M,,*64
06/11/2015	20:06:30.528	$GPGGA,200631,2427.3643,N,08124.9327,W,1,11,1.3,20,M,,M,,*67
06/11/2015	20:06:31.618	$GPGGA,200632,2427.3644,N,08124.9313,W,1,10,1.5,20,M,,M,,*63
06/11/2015	20:06:32.518	$GPGGA,200633,2427.3646,N,08124.9301,W,1,10,1.5,20,M,,M,,*63
06/11/2015	20:06:33.578	$GPGGA,200634,2427.3649,N,08124.9287,W,1,11,1.3,20,M,,M,,*63
06/11/2015	20:06:34.578	$GPGGA,200635,2427.3651,N,08124.9273,W,1,11,1.3,21,M,,M,,*61
06/11/2015	20:06:35.528	$GPGGA,200636,2427.3653,N,08124.9260,W,1,11,1.3,21,M,,M,,*62
06/11/2015	20:06:36.518	$GPGGA,200637,2427.3654,N,08124.9246,W,1,11,1.3,21,M,,M,,*60
06/11/2015	20:06:37.628	$GPGGA,200638,2427.3658,N,08124.9234,W,1,11,1.3,21,M,,M,,*66
06/11/2015	20:06:38.638	$GPGGA,200639,2427.3661,N,08124.9221,W,1,11,1.3,21,M,,M,,*69
06/11/2015	20:06:39.588	$GPGGA,200640,2427.3664,N,08124.9207,W,1,11,1.3,21,M,,M,,*66
06/11/2015	20:06:40.578	$GPGGA,200641,2427.3667,N,08124.9194,W,1,11,1.3,21,M,,M,,*6D
06/11/2015	20:06:41.628	$GPGGA,200642,2427.3669,N,08124.9182,W,1,11,1.3,21,M,,M,,*67
06/11/2015	20:06:42.568	$GPGGA,200643,2427.3672,N,08124.9167,W,1,11,1.3,21,M,,M,,*67
06/11/2015	20:06:43.578	$GPGGA,200644,2427.3675,N,08124.9154,W,1,11,1.3,21,M,,M,,*67
06/11/2015	20:06:45.028	$GPGGA,200645,2427.3678,N,08124.9143,W,1,11,1.3,21,M,,M,,*6D
06/11/2015	20:06:45.608	$GPGGA,200646,2427.3682,N,08124.9129,W,1,11,1.4,21,M,,M,,*60
06/11/2015	20:06:46.569	$GPGGA,200647,2427.3683,N,08124.9114,W,1,11,1.3,21,M,,M,,*69
06/11/2015	20:06:47.638	$GPGGA,200648,2427.3687,N,08124.9103,W,1,11,1.3,21,M,,M,,*64
06/11/2015	20:06:48.548	$GPGGA,200649,2427.3690,N,08124.9090,W,1,11,1.3,21,M,,M,,*68
06/11/2015	20:06:49.598	$GPGGA,200650,2427.3694,N,08124.9077,W,1,11,1.3,21,M,,M,,*6D
06/11/2015	20:06:50.588	$GPGGA,200651,2427.3697,N,08124.9065,W,1,11,1.3,21,M,,M,,*6C
06/11/2015	20:06:51.638	$GPGGA,200652,2427.3701,N,08124.9052,W,1,11,1.3,21,M,,M,,*65
06/11/2015	20:06:52.588	$GPGGA,200653,2427.3705,N,08124.9039,W,1,11,1.3,21,M,,M,,*6D
06/11/2015	20:06:53.578	$GPGGA,200654,2427.3708,N,08124.9026,W,1,11,1.3,21,M,,M,,*69
06/11/2015	20:06:54.588	$GPGGA,200655,2427.3712,N,08124.9013,W,1,11,1.3,21,M,,M,,*65
06/11/2015	20:06:55.628	$GPGGA,200656,2427.3716,N,08124.9001,W,1,11,1.3,21,M,,M,,*61
06/11/2015	20:06:56.598	$GPGGA,200657,2427.3721,N,08124.8988,W,1,11,1.3,21,M,,M,,*6D
06/11/2015	20:06:57.608	$GPGGA,200658,2427.3723,N,08124.8975,W,1,11,1.3,21,M,,M,,*62
06/11/2015	20:06:58.578	$GPGGA,200659,2427.3727,N,08124.8963,W,1,11,1.4,21,M,,M,,*67
06/11/2015	20:06:59.618	$GPGGA,200700,2427.3733,N,08124.8949,W,1,10,1.3,21,M,,M,,*61
06/11/2015	20:07:00.570	$GPGGA,200701,2427.3737,N,08124.8935,W,1,10,1.3,21,M,,M,,*6F
06/11/2015	20:07:01.566	$GPGGA,200702,2427.3743,N,08124.8923,W,1,11,1.3,21,M,,M,,*69
06/11/2015	20:07:02.588	$GPGGA,200703,2427.3747,N,08124.8910,W,1,11,1.3,21,M,,M,,*6C
06/11/2015	20:07:03.628	$GPGGA,200704,2427.3751,N,08124.8896,W,1,11,1.3,21,M,,M,,*63
06/11/2015	20:07:04.571	$GPGGA,200705,2427.3755,N,08124.8883,W,1,11,1.3,21,M,,M,,*62
06/11/2015	20:07:05.570	$GPGGA,200706,2427.3759,N,08124.8870,W,1,11,1.3,21,M,,M,,*61
06/11/2015	20:07:06.567	$GPGGA,200707,2427.3763,N,08124.8857,W,1,11,1.3,21,M,,M,,*6C
06/11/2015	20:07:07.588	$GPGGA,200708,2427.3766,N,08124.8843,W,1,11,1.3,21,M,,M,,*63
06/11/2015	20:07:08.567	$GPGGA,200709,2427.3770,N,08124.8830,W,1,11,1.3,21,M,,M,,*61
06/11/2015	20:07:09.571	$GPGGA,200710,2427.3774,N,08124.8816,W,1,11,1.4,21,M,,M,,*6E
06/11/2015	20:07:10.563	$GPGGA,200711,2427.3780,N,08124.8803,W,1,11,1.3,21,M,,M,,*67
06/11/2015	20:07:11.608	$GPGGA,200712,2427.3783,N,08124.8790,W,1,11,1.3,21,M,,M,,*62
06/11/2015	20:07:12.574	$GPGGA,200713,2427.3787,N,08124.8776,W,1,11,1.3,21,M,,M,,*6F
06/11/2015	20:07:13.574	$GPGGA,200714,2427.3791,N,08124.8764,W,1,11,1.3,22,M,,M,,*6F
06/11/2015	20:07:14.548	$GPGGA,200715,2427.3791,N,08124.8764,W,1,11,1.3,22,M,,M,,*6E
06/11/2015	20:07:15.578	$GPGGA,200716,2427.3799,N,08124.8737,W,1,11,1.3,22,M,,M,,*63
06/11/2015	20:07:16.573	$GPGGA,200717,2427.3802,N,08124.8724,W,1,11,1.3,22,M,,M,,*6D
06/11/2015	20:07:17.528	$GPGGA,200718,2427.3806,N,08124.8710,W,1,11,1.3,22,M,,M,,*61
06/11/2015	20:07:18.648	$GPGGA,200719,2427.3810,N,08124.8696,W,1,11,1.3,22,M,,M,,*68
06/11/2015	20:07:19.580	$GPGGA,200720,2427.3815,N,08124.8683,W,1,11,1.3,22,M,,M,,*63
06/11/2015	20:07:20.565	$GPGGA,200721,2427.3817,N,08124.8669,W,1,11,1.3,22,M,,M,,*64
06/11/2015	20:07:21.528	$GPGGA,200722,2427.3820,N,08124.8656,W,1,11,1.3,22,M,,M,,*6F
06/11/2015	20:07:22.548	$GPGGA,200723,2427.3826,N,08124.8643,W,1,11,1.3,22,M,,M,,*6C
06/11/2015	20:07:23.538	$GPGGA,200724,2427.3828,N,08124.8629,W,1,11,1.3,22,M,,M,,*69
06/11/2015	20:07:24.565	$GPGGA,200725,2427.3828,N,08124.8629,W,1,11,1.3,22,M,,M,,*68
06/11/2015	20:07:25.628	$GPGGA,200726,2427.3835,N,08124.8602,W,1,11,1.3,22,M,,M,,*6E
06/11/2015	20:07:26.838	$GPGGA,200727,2427.3839,N,08124.8588,W,1,11,1.3,22,M,,M,,*62
06/11/2015	20:07:27.575	$GPGGA,200728,2427.3842,N,08124.8574,W,1,11,1.4,22,M,,M,,*65
06/11/2015	20:07:28.598	$GPGGA,200729,2427.3848,N,08124.8561,W,1,11,1.4,22,M,,M,,*6A
06/11/2015	20:07:29.538	$GPGGA,200730,2427.3850,N,08124.8546,W,1,11,1.4,22,M,,M,,*6E
06/11/2015	20:07:30.518	$GPGGA,200731,2427.3850,N,08124.8546,W,1,11,1.4,22,M,,M,,*6F
06/11/2015	20:07:31.628	$GPGGA,200732,2427.3857,N,08124.8520,W,1,11,1.3,22,M,,M,,*6C
06/11/2015	20:07:32.598	$GPGGA,200733,2427.3862,N,08124.8506,W,1,11,1.3,22,M,,M,,*6F
06/11/2015	20:07:33.508	$GPGGA,200734,2427.3864,N,08124.8493,W,1,11,1.3,22,M,,M,,*63
06/11/2015	20:07:34.588	$GPGGA,200735,2427.3867,N,08124.8480,W,1,11,1.3,22,M,,M,,*63
06/11/2015	20:07:35.608	$GPGGA,200736,2427.3871,N,08124.8465,W,1,11,1.3,22,M,,M,,*6C
06/11/2015	20:07:36.598	$GPGGA,200737,2427.3874,N,08124.8452,W,1,11,1.3,22,M,,M,,*6C
06/11/2015	20:07:37.608	$GPGGA,200738,2427.3875,N,08124.8438,W,1,11,1.3,22,M,,M,,*6E
06/11/2015	20:07:38.588	$GPGGA,200739,2427.3881,N,08124.8425,W,1,11,1.3,22,M,,M,,*68
06/11/2015	20:07:39.638	$GPGGA,200740,2427.3882,N,08124.8411,W,1,11,1.3,22,M,,M,,*62
06/11/2015	20:07:40.588	$GPGGA,200741,2427.3882,N,08124.8411,W,1,11,1.3,22,M,,M,,*63
06/11/2015	20:07:41.588	$GPGGA,200742,2427.3889,N,08124.8382,W,1,11,1.3,22,M,,M,,*66
06/11/2015	20:07:42.588	$GPGGA,200743,2427.3893,N,08124.8369,W,1,11,1.3,22,M,,M,,*69
06/11/2015	20:07:43.608	$GPGGA,200744,2427.3895,N,08124.8354,W,1,11,1.3,22,M,,M,,*66
06/11/2015	20:07:44.570	$GPGGA,200745,2427.3898,N,08124.8340,W,1,11,1.3,22,M,,M,,*6F
06/11/2015	20:07:45.598	$GPGGA,200746,2427.3900,N,08124.8327,W,1,11,1.3,22,M,,M,,*6D
06/11/2015	20:07:46.567	$GPGGA,200747,2427.3904,N,08124.8313,W,1,11,1.3,22,M,,M,,*6F
06/11/2015	20:07:47.608	$GPGGA,200748,2427.3906,N,08124.8298,W,1,11,1.3,22,M,,M,,*60
06/11/2015	20:07:48.574	$GPGGA,200749,2427.3910,N,08124.8284,W,1,11,1.5,22,M,,M,,*6D
06/11/2015	20:07:49.588	$GPGGA,200750,2427.3914,N,08124.8269,W,1,11,1.3,21,M,,M,,*67
06/11/2015	20:07:51.628	$GPGGA,200752,2427.3920,N,08124.8241,W,1,11,1.3,21,M,,M,,*68
06/11/2015	20:07:52.566	$GPGGA,200753,2427.3922,N,08124.8227,W,1,11,1.3,21,M,,M,,*6B
06/11/2015	20:07:53.577	$GPGGA,200754,2427.3924,N,08124.8213,W,1,11,1.3,21,M,,M,,*6D
06/11/2015	20:07:54.558	$GPGGA,200755,2427.3927,N,08124.8200,W,1,11,1.3,21,M,,M,,*6D
06/11/2015	20:07:55.570	$GPGGA,200756,2427.3929,N,08124.8186,W,1,11,1.3,21,M,,M,,*6D
06/11/2015	20:07:56.561	$GPGGA,200757,2427.3931,N,08124.8173,W,1,11,1.3,21,M,,M,,*6F
06/11/2015	20:07:57.548	$GPGGA,200758,2427.3933,N,08124.8160,W,1,11,1.3,21,M,,M,,*60
06/11/2015	20:07:58.538	$GPGGA,200759,2427.3936,N,08124.8146,W,1,11,1.3,21,M,,M,,*60
06/11/2015	20:07:59.550	$GPGGA,200800,2427.3938,N,08124.8131,W,1,11,1.3,21,M,,M,,*6D
06/11/2015	20:08:00.528	$GPGGA,200801,2427.3939,N,08124.8118,W,1,11,1.3,21,M,,M,,*66
06/11/2015	20:08:01.568	$GPGGA,200802,2427.3943,N,08124.8105,W,1,11,1.3,21,M,,M,,*64
06/11/2015	20:08:02.528	$GPGGA,200803,2427.3946,N,08124.8090,W,1,11,1.3,21,M,,M,,*6D
06/11/2015	20:08:03.558	$GPGGA,200804,2427.3947,N,08124.8076,W,1,10,1.5,21,M,,M,,*64
06/11/2015	20:08:04.538	$GPGGA,200805,2427.3949,N,08124.8065,W,1,10,1.3,21,M,,M,,*6F
06/11/2015	20:08:05.517	$GPGGA,200806,2427.3951,N,08124.8049,W,1,11,1.3,21,M,,M,,*6A
06/11/2015	20:08:06.507	$GPGGA,200807,2427.3954,N,08124.8036,W,1,11,1.3,21,M,,M,,*66
06/11/2015	20:08:07.527	$GPGGA,200808,2427.3957,N,08124.8023,W,1,11,1.3,21,M,,M,,*6E
06/11/2015	20:08:08.528	$GPGGA,200809,2427.3960,N,08124.8009,W,1,11,1.3,21,M,,M,,*63
06/11/2015	20:08:09.517	$GPGGA,200810,2427.3961,N,08124.7995,W,1,11,1.3,21,M,,M,,*69
06/11/2015	20:08:10.507	$GPGGA,200811,2427.3964,N,08124.7983,W,1,11,1.3,21,M,,M,,*6A
06/11/2015	20:08:11.537	$GPGGA,200812,2427.3968,N,08124.7970,W,1,11,1.3,21,M,,M,,*69
06/11/2015	20:08:12.517	$GPGGA,200813,2427.3971,N,08124.7956,W,1,11,1.3,21,M,,M,,*64
06/11/2015	20:08:13.555	$GPGGA,200814,2427.3972,N,08124.7944,W,1,11,1.3,21,M,,M,,*63
06/11/2015	20:08:14.497	$GPGGA,200815,2427.3975,N,08124.7931,W,1,11,1.3,21,M,,M,,*67
06/11/2015	20:08:15.527	$GPGGA,200816,2427.3979,N,08124.7918,W,1,11,1.3,21,M,,M,,*63
06/11/2015	20:08:16.508	$GPGGA,200817,2427.3982,N,08124.7904,W,1,11,1.4,21,M,,M,,*6C
06/11/2015	20:08:17.608	$GPGGA,200818,2427.3983,N,08124.7890,W,1,11,1.3,21,M,,M,,*69
06/11/2015	20:08:18.488	$GPGGA,200819,2427.3987,N,08124.7878,W,1,11,1.3,21,M,,M,,*6A
06/11/2015	20:08:19.608	$GPGGA,200820,2427.3990,N,08124.7866,W,1,10,1.5,21,M,,M,,*6E
06/11/2015	20:08:20.498	$GPGGA,200821,2427.3994,N,08124.7853,W,1,10,1.4,21,M,,M,,*6C
06/11/2015	20:08:21.588	$GPGGA,200822,2427.3996,N,08124.7840,W,1,11,1.3,21,M,,M,,*69
06/11/2015	20:08:22.578	$GPGGA,200823,2427.4001,N,08124.7829,W,1,11,1.4,21,M,,M,,*60
06/11/2015	20:08:23.627	$GPGGA,200824,2427.4004,N,08124.7815,W,1,11,1.3,21,M,,M,,*6A
06/11/2015	20:08:24.577	$GPGGA,200825,2427.4005,N,08124.7802,W,1,11,1.3,21,M,,M,,*6C
06/11/2015	20:08:25.487	$GPGGA,200826,2427.4008,N,08124.7790,W,1,10,1.4,21,M,,M,,*60
06/11/2015	20:08:26.587	$GPGGA,200827,2427.4011,N,08124.7777,W,1,10,1.4,21,M,,M,,*60
06/11/2015	20:08:27.597	$GPGGA,200828,2427.4016,N,08124.7762,W,1,10,1.4,21,M,,M,,*6C
06/11/2015	20:08:28.597	$GPGGA,200829,2427.4021,N,08124.7749,W,1,10,1.3,21,M,,M,,*67
06/11/2015	20:08:29.577	$GPGGA,200830,2427.4025,N,08124.7736,W,1,11,1.3,21,M,,M,,*62
06/11/2015	20:08:30.567	$GPGGA,200831,2427.4030,N,08124.7722,W,1,11,1.3,21,M,,M,,*62
06/11/2015	20:08:31.577	$GPGGA,200832,2427.4033,N,08124.7709,W,1,11,1.3,21,M,,M,,*6B
06/11/2015	20:08:32.567	$GPGGA,200833,2427.4039,N,08124.7695,W,1,11,1.4,22,M,,M,,*60
06/11/2015	20:08:33.551	$GPGGA,200834,2427.4043,N,08124.7681,W,1,11,1.3,22,M,,M,,*68
06/11/2015	20:08:34.568	$GPGGA,200835,2427.4048,N,08124.7668,W,1,11,1.3,22,M,,M,,*65
06/11/2015	20:08:35.588	$GPGGA,200836,2427.4052,N,08124.7654,W,1,11,1.3,22,M,,M,,*62
06/11/2015	20:08:36.559	$GPGGA,200837,2427.4057,N,08124.7640,W,1,11,1.3,22,M,,M,,*63
06/11/2015	20:08:37.578	$GPGGA,200838,2427.4062,N,08124.7627,W,1,11,1.3,22,M,,M,,*6B
06/11/2015	20:08:38.550	$GPGGA,200839,2427.4066,N,08124.7614,W,1,11,1.3,22,M,,M,,*6E
06/11/2015	20:08:39.578	$GPGGA,200840,2427.4070,N,08124.7600,W,1,9,1.4,22,M,,M,,*5C
06/11/2015	20:08:40.549	$GPGGA,200841,2427.4073,N,08124.7588,W,1,9,1.3,22,M,,M,,*5A
06/11/2015	20:08:41.560	$GPGGA,200842,2427.4079,N,08124.7574,W,1,11,1.3,22,M,,M,,*69
06/11/2015	20:08:42.551	$GPGGA,200843,2427.4083,N,08124.7561,W,1,11,1.3,22,M,,M,,*69
06/11/2015	20:08:43.567	$GPGGA,200844,2427.4087,N,08124.7548,W,1,11,1.3,22,M,,M,,*61
06/11/2015	20:08:44.537	$GPGGA,200845,2427.4091,N,08124.7534,W,1,11,1.3,22,M,,M,,*6C
06/11/2015	20:08:45.527	$GPGGA,200846,2427.4095,N,08124.7521,W,1,11,1.3,22,M,,M,,*6F
06/11/2015	20:08:46.537	$GPGGA,200847,2427.4099,N,08124.7507,W,1,11,1.3,22,M,,M,,*66
06/11/2015	20:08:47.537	$GPGGA,200848,2427.4102,N,08124.7493,W,1,11,1.3,22,M,,M,,*66
06/11/2015	20:08:48.527	$GPGGA,200849,2427.4106,N,08124.7480,W,1,11,1.3,22,M,,M,,*61
06/11/2015	20:08:49.527	$GPGGA,200850,2427.4112,N,08124.7466,W,1,11,1.3,22,M,,M,,*64
06/11/2015	20:08:50.537	$GPGGA,200851,2427.4116,N,08124.7451,W,1,11,1.3,22,M,,M,,*65
06/11/2015	20:08:51.528	$GPGGA,200852,2427.4119,N,08124.7439,W,1,11,1.3,22,M,,M,,*67
06/11/2015	20:08:52.528	$GPGGA,200853,2427.4123,N,08124.7425,W,1,11,1.3,22,M,,M,,*62
06/11/2015	20:08:53.628	$GPGGA,200854,2427.4127,N,08124.7411,W,1,11,1.3,22,M,,M,,*66
06/11/2015	20:08:54.618	$GPGGA,200855,2427.4130,N,08124.7397,W,1,11,1.3,22,M,,M,,*68
06/11/2015	20:08:55.538	$GPGGA,200856,2427.4134,N,08124.7385,W,1,11,1.3,22,M,,M,,*6C
06/11/2015	20:08:56.508	$GPGGA,200857,2427.4138,N,08124.7371,W,1,11,1.3,22,M,,M,,*6A
06/11/2015	20:08:57.508	$GPGGA,200858,2427.4142,N,08124.7357,W,1,10,1.4,22,M,,M,,*6A
06/11/2015	20:08:58.527	$GPGGA,200859,2427.4146,N,08124.7344,W,1,10,1.3,22,M,,M,,*6A
06/11/2015	20:08:59.648	$GPGGA,200900,2427.4151,N,08124.7330,W,1,10,1.4,22,M,,M,,*65
06/11/2015	20:09:00.517	$GPGGA,200901,2427.4153,N,08124.7317,W,1,10,1.3,22,M,,M,,*64
06/11/2015	20:09:01.618	$GPGGA,200902,2427.4156,N,08124.7304,W,1,11,1.3,22,M,,M,,*61
06/11/2015	20:09:02.507	$GPGGA,200903,2427.4157,N,08124.7290,W,1,11,1.3,21,M,,M,,*6E
06/11/2015	20:09:03.607	$GPGGA,200904,2427.4162,N,08124.7277,W,1,11,1.3,21,M,,M,,*66
06/11/2015	20:09:05.617	$GPGGA,200905,2427.4164,N,08124.7263,W,1,11,1.3,21,M,,M,,*64
06/11/2015	20:09:05.658	$GPGGA,200906,2427.4167,N,08124.7249,W,1,11,1.3,21,M,,M,,*6C
06/11/2015	20:09:06.587	$GPGGA,200907,2427.4170,N,08124.7236,W,1,11,1.3,21,M,,M,,*63
06/11/2015	20:09:07.607	$GPGGA,200908,2427.4174,N,08124.7222,W,1,11,1.3,21,M,,M,,*6D
06/11/2015	20:09:08.578	$GPGGA,200909,2427.4177,N,08124.7209,W,1,11,1.3,21,M,,M,,*66
06/11/2015	20:09:09.608	$GPGGA,200910,2427.4178,N,08124.7197,W,1,11,1.3,21,M,,M,,*65
06/11/2015	20:09:10.588	$GPGGA,200911,2427.4181,N,08124.7181,W,1,11,1.3,21,M,,M,,*65
06/11/2015	20:09:11.618	$GPGGA,200912,2427.4185,N,08124.7168,W,1,11,1.3,21,M,,M,,*65
06/11/2015	20:09:12.488	$GPGGA,200913,2427.4188,N,08124.7156,W,1,11,1.5,21,M,,M,,*62
06/11/2015	20:09:13.598	$GPGGA,200914,2427.4192,N,08124.7141,W,1,11,1.3,21,M,,M,,*6E
06/11/2015	20:09:14.568	$GPGGA,200915,2427.4193,N,08124.7127,W,1,11,1.3,21,M,,M,,*6E
06/11/2015	20:09:15.597	$GPGGA,200916,2427.4196,N,08124.7116,W,1,11,1.3,21,M,,M,,*6A
06/11/2015	20:09:16.568	$GPGGA,200917,2427.4199,N,08124.7103,W,1,11,1.3,21,M,,M,,*60
06/11/2015	20:09:17.597	$GPGGA,200918,2427.4200,N,08124.7089,W,1,11,1.3,21,M,,M,,*6F
06/11/2015	20:09:18.577	$GPGGA,200919,2427.4203,N,08124.7076,W,1,11,1.4,21,M,,M,,*6A
06/11/2015	20:09:19.567	$GPGGA,200920,2427.4207,N,08124.7063,W,1,11,1.3,21,M,,M,,*67
06/11/2015	20:09:20.559	$GPGGA,200921,2427.4213,N,08124.7049,W,1,11,1.3,21,M,,M,,*6B
06/11/2015	20:09:21.587	$GPGGA,200922,2427.4216,N,08124.7035,W,1,11,1.3,21,M,,M,,*66
06/11/2015	20:09:22.557	$GPGGA,200923,2427.4218,N,08124.7022,W,1,11,1.3,21,M,,M,,*6F
06/11/2015	20:09:23.607	$GPGGA,200924,2427.4222,N,08124.7008,W,1,11,1.3,21,M,,M,,*69
06/11/2015	20:09:24.558	$GPGGA,200925,2427.4224,N,08124.6995,W,1,11,1.3,21,M,,M,,*62
06/11/2015	20:09:25.568	$GPGGA,200926,2427.4227,N,08124.6981,W,1,10,1.4,21,M,,M,,*61
06/11/2015	20:09:26.551	$GPGGA,200927,2427.4229,N,08124.6968,W,1,10,1.3,21,M,,M,,*6E
06/11/2015	20:09:27.578	$GPGGA,200928,2427.4232,N,08124.6955,W,1,11,1.3,21,M,,M,,*64
06/11/2015	20:09:28.548	$GPGGA,200929,2427.4236,N,08124.6941,W,1,11,1.4,21,M,,M,,*63
06/11/2015	20:09:29.561	$GPGGA,200930,2427.4236,N,08124.6927,W,1,11,1.3,21,M,,M,,*6C
06/11/2015	20:09:30.549	$GPGGA,200931,2427.4240,N,08124.6913,W,1,11,1.3,21,M,,M,,*6B
06/11/2015	20:09:31.538	$GPGGA,200932,2427.4243,N,08124.6901,W,1,11,1.3,21,M,,M,,*68
06/11/2015	20:09:32.538	$GPGGA,200933,2427.4247,N,08124.6887,W,1,11,1.3,21,M,,M,,*62
06/11/2015	20:09:33.577	$GPGGA,200934,2427.4249,N,08124.6873,W,1,11,1.3,21,M,,M,,*60
06/11/2015	20:09:34.537	$GPGGA,200935,2427.4251,N,08124.6859,W,1,11,1.3,21,M,,M,,*60
06/11/2015	20:09:35.997	$GPGGA,200936,2427.4256,N,08124.6845,W,1,10,1.3,21,M,,M,,*68
06/11/2015	20:09:36.527	$GPGGA,200937,2427.4258,N,08124.6832,W,1,10,1.3,21,M,,M,,*67
06/11/2015	20:09:37.527	$GPGGA,200938,2427.4261,N,08124.6817,W,1,11,1.3,21,M,,M,,*64
06/11/2015	20:09:38.517	$GPGGA,200939,2427.4265,N,08124.6804,W,1,11,1.3,21,M,,M,,*63
06/11/2015	20:09:40.564	$GPGGA,200941,2427.4269,N,08124.6777,W,1,11,1.3,21,M,,M,,*6B
06/11/2015	20:09:41.517	$GPGGA,200942,2427.4274,N,08124.6763,W,1,11,1.3,21,M,,M,,*61
06/11/2015	20:09:42.527	$GPGGA,200943,2427.4278,N,08124.6751,W,1,11,1.3,21,M,,M,,*6D
06/11/2015	20:09:43.618	$GPGGA,200944,2427.4281,N,08124.6737,W,1,11,1.3,21,M,,M,,*6C
06/11/2015	20:09:44.508	$GPGGA,200945,2427.4283,N,08124.6722,W,1,11,1.3,21,M,,M,,*6B
06/11/2015	20:09:45.518	$GPGGA,200946,2427.4286,N,08124.6710,W,1,11,1.3,20,M,,M,,*6D
06/11/2015	20:09:46.518	$GPGGA,200947,2427.4290,N,08124.6698,W,1,11,1.3,20,M,,M,,*6A
06/11/2015	20:09:47.628	$GPGGA,200948,2427.4294,N,08124.6684,W,1,11,1.3,20,M,,M,,*6C
06/11/2015	20:09:48.508	$GPGGA,200949,2427.4296,N,08124.6672,W,1,11,1.3,20,M,,M,,*66
06/11/2015	20:09:49.588	$GPGGA,200950,2427.4301,N,08124.6659,W,1,11,1.3,20,M,,M,,*68
06/11/2015	20:09:50.487	$GPGGA,200951,2427.4305,N,08124.6646,W,1,11,1.3,20,M,,M,,*63
06/11/2015	20:09:51.507	$GPGGA,200952,2427.4307,N,08124.6632,W,1,10,1.4,20,M,,M,,*67
06/11/2015	20:09:52.597	$GPGGA,200953,2427.4310,N,08124.6620,W,1,10,1.3,20,M,,M,,*64
06/11/2015	20:09:53.628	$GPGGA,200954,2427.4315,N,08124.6608,W,1,11,1.3,20,M,,M,,*6D
06/11/2015	20:09:54.597	$GPGGA,200955,2427.4319,N,08124.6594,W,1,11,1.3,20,M,,M,,*66
06/11/2015	20:09:55.607	$GPGGA,200956,2427.4323,N,08124.6582,W,1,11,1.3,20,M,,M,,*6B
06/11/2015	20:09:56.497	$GPGGA,200957,2427.4328,N,08124.6571,W,1,11,1.3,20,M,,M,,*6D
06/11/2015	20:09:57.627	$GPGGA,200958,2427.4333,N,08124.6557,W,1,11,1.3,20,M,,M,,*6C
06/11/2015	20:09:58.569	$GPGGA,200959,2427.4336,N,08124.6544,W,1,11,1.3,20,M,,M,,*6A
06/11/2015	20:09:59.617	$GPGGA,201000,2427.4339,N,08124.6531,W,1,11,1.3,20,M,,M,,*63
06/11/2015	20:10:00.477	$GPGGA,201001,2427.4344,N,08124.6519,W,1,11,1.3,20,M,,M,,*62
06/11/2015	20:10:01.598	$GPGGA,201002,2427.4348,N,08124.6505,W,1,11,1.3,20,M,,M,,*60
06/11/2015	20:10:02.573	$GPGGA,201003,2427.4352,N,08124.6493,W,1,11,1.3,20,M,,M,,*64
06/11/2015	20:10:03.581	$GPGGA,201004,2427.4355,N,08124.6480,W,1,11,1.3,20,M,,M,,*66
06/11/2015	20:10:04.573	$GPGGA,201005,2427.4359,N,08124.6467,W,1,11,1.3,20,M,,M,,*62
06/11/2015	20:10:05.578	$GPGGA,201006,2427.4363,N,08124.6454,W,1,11,1.3,20,M,,M,,*68
06/11/2015	20:10:06.567	$GPGGA,201007,2427.4366,N,08124.6441,W,1,11,1.3,20,M,,M,,*68
06/11/2015	20:10:07.578	$GPGGA,201008,2427.4370,N,08124.6428,W,1,11,1.3,20,M,,M,,*6F
06/11/2015	20:10:08.567	$GPGGA,201009,2427.4375,N,08124.6414,W,1,11,1.3,20,M,,M,,*64
06/11/2015	20:10:09.587	$GPGGA,201010,2427.4377,N,08124.6402,W,1,11,1.3,20,M,,M,,*69
06/11/2015	20:10:10.553	$GPGGA,201011,2427.4381,N,08124.6388,W,1,11,1.3,20,M,,M,,*64
06/11/2015	20:10:11.567	$GPGGA,201012,2427.4386,N,08124.6375,W,1,11,1.3,20,M,,M,,*62
06/11/2015	20:10:12.554	$GPGGA,201013,2427.4388,N,08124.6362,W,1,11,1.3,20,M,,M,,*6B
06/11/2015	20:10:13.561	$GPGGA,201014,2427.4393,N,08124.6349,W,1,11,1.3,20,M,,M,,*6F
06/11/2015	20:10:14.538	$GPGGA,201015,2427.4395,N,08124.6336,W,1,11,1.3,20,M,,M,,*60
06/11/2015	20:10:15.567	$GPGGA,201016,2427.4398,N,08124.6322,W,1,10,1.4,20,M,,M,,*6D
06/11/2015	20:10:16.550	$GPGGA,201017,2427.4402,N,08124.6308,W,1,10,1.3,20,M,,M,,*67
06/11/2015	20:10:17.560	$GPGGA,201018,2427.4405,N,08124.6296,W,1,11,1.3,20,M,,M,,*68
06/11/2015	20:10:18.538	$GPGGA,201019,2427.4408,N,08124.6283,W,1,11,1.3,20,M,,M,,*60
06/11/2015	20:10:19.578	$GPGGA,201020,2427.4411,N,08124.6269,W,1,11,1.3,20,M,,M,,*66
06/11/2015	20:10:20.539	$GPGGA,201021,2427.4413,N,08124.6257,W,1,11,1.3,20,M,,M,,*68
06/11/2015	20:10:21.564	$GPGGA,201022,2427.4417,N,08124.6243,W,1,11,1.3,20,M,,M,,*6A
06/11/2015	20:10:22.538	$GPGGA,201023,2427.4420,N,08124.6230,W,1,11,1.4,20,M,,M,,*6C
06/11/2015	20:10:23.678	$GPGGA,201024,2427.4424,N,08124.6219,W,1,11,1.3,20,M,,M,,*63
06/11/2015	20:10:24.528	$GPGGA,201025,2427.4428,N,08124.6206,W,1,11,1.3,20,M,,M,,*60
06/11/2015	20:10:25.552	$GPGGA,201026,2427.4433,N,08124.6193,W,1,11,1.3,20,M,,M,,*66
06/11/2015	20:10:26.508	$GPGGA,201027,2427.4435,N,08124.6182,W,1,11,1.3,20,M,,M,,*61
06/11/2015	20:10:27.527	$GPGGA,201028,2427.4440,N,08124.6168,W,1,11,1.3,20,M,,M,,*68
06/11/2015	20:10:28.528	$GPGGA,201029,2427.4444,N,08124.6155,W,1,11,1.3,20,M,,M,,*63
06/11/2015	20:10:29.507	$GPGGA,201030,2427.4446,N,08124.6143,W,1,11,1.3,20,M,,M,,*6E
06/11/2015	20:10:30.517	$GPGGA,201031,2427.4451,N,08124.6130,W,1,11,1.3,20,M,,M,,*6D
06/11/2015	20:10:31.517	$GPGGA,201032,2427.4453,N,08124.6116,W,1,11,1.3,20,M,,M,,*68
06/11/2015	20:10:32.517	$GPGGA,201033,2427.4456,N,08124.6103,W,1,11,1.3,20,M,,M,,*68
06/11/2015	20:10:33.497	$GPGGA,201034,2427.4460,N,08124.6089,W,1,11,1.3,20,M,,M,,*69
06/11/2015	20:10:34.607	$GPGGA,201035,2427.4464,N,08124.6077,W,1,11,1.3,20,M,,M,,*6D
06/11/2015	20:10:35.519	$GPGGA,201036,2427.4467,N,08124.6063,W,1,11,1.3,20,M,,M,,*68
06/11/2015	20:10:36.488	$GPGGA,201037,2427.4471,N,08124.6049,W,1,11,1.3,20,M,,M,,*66
06/11/2015	20:10:37.609	$GPGGA,201038,2427.4475,N,08124.6039,W,1,11,1.3,20,M,,M,,*6A
06/11/2015	20:10:38.498	$GPGGA,201039,2427.4478,N,08124.6025,W,1,11,1.3,20,M,,M,,*6B
06/11/2015	20:10:40.108	$GPGGA,201040,2427.4482,N,08124.6011,W,1,11,1.3,20,M,,M,,*67
06/11/2015	20:10:40.508	$GPGGA,201041,2427.4485,N,08124.6001,W,1,11,1.3,20,M,,M,,*60
06/11/2015	20:10:41.598	$GPGGA,201042,2427.4489,N,08124.5988,W,1,11,1.3,20,M,,M,,*64
06/11/2015	20:10:42.588	$GPGGA,201043,2427.4492,N,08124.5974,W,1,11,1.3,20,M,,M,,*6C
06/11/2015	20:10:43.617	$GPGGA,201044,2427.4495,N,08124.5963,W,1,11,1.3,20,M,,M,,*6A
06/11/2015	20:10:44.497	$GPGGA,201045,2427.4499,N,08124.5952,W,1,11,1.3,20,M,,M,,*65
06/11/2015	20:10:45.597	$GPGGA,201046,2427.4500,N,08124.5938,W,1,11,1.3,20,M,,M,,*6B
06/11/2015	20:10:46.577	$GPGGA,201047,2427.4505,N,08124.5926,W,1,11,1.3,20,M,,M,,*60
06/11/2015	20:10:47.607	$GPGGA,201048,2427.4507,N,08124.5916,W,1,11,1.3,20,M,,M,,*6E
06/11/2015	20:10:48.577	$GPGGA,201049,2427.4510,N,08124.5903,W,1,11,1.3,20,M,,M,,*6D
06/11/2015	20:10:49.587	$GPGGA,201050,2427.4514,N,08124.5891,W,1,11,1.3,20,M,,M,,*6B
06/11/2015	20:10:50.567	$GPGGA,201051,2427.4518,N,08124.5880,W,1,11,1.3,21,M,,M,,*67
06/11/2015	20:10:51.597	$GPGGA,201052,2427.4521,N,08124.5867,W,1,11,1.3,21,M,,M,,*67
06/11/2015	20:10:52.567	$GPGGA,201053,2427.4523,N,08124.5854,W,1,11,1.3,21,M,,M,,*64
06/11/2015	20:10:53.860	$GPGGA,201054,2427.4527,N,08124.5843,W,1,11,1.3,21,M,,M,,*61
06/11/2015	20:10:54.568	$GPGGA,201055,2427.4529,N,08124.5831,W,1,11,1.3,21,M,,M,,*6B
06/11/2015	20:10:55.599	$GPGGA,201056,2427.4532,N,08124.5818,W,1,11,1.3,21,M,,M,,*69
06/11/2015	20:10:56.558	$GPGGA,201057,2427.4535,N,08124.5807,W,1,11,1.3,21,M,,M,,*61
06/11/2015	20:10:57.588	$GPGGA,201058,2427.4539,N,08124.5794,W,1,11,1.3,21,M,,M,,*67
06/11/2015	20:10:58.548	$GPGGA,201059,2427.4540,N,08124.5782,W,1,11,1.3,21,M,,M,,*6F
06/11/2015	20:10:59.598	$GPGGA,201100,2427.4543,N,08124.5770,W,1,11,1.3,21,M,,M,,*6C
06/11/2015	20:11:00.548	$GPGGA,201101,2427.4547,N,08124.5756,W,1,11,1.3,21,M,,M,,*6D
06/11/2015	20:11:01.577	$GPGGA,201102,2427.4550,N,08124.5743,W,1,11,1.3,21,M,,M,,*6C
06/11/2015	20:11:02.558	$GPGGA,201103,2427.4552,N,08124.5731,W,1,11,1.3,21,M,,M,,*6A
06/11/2015	20:11:03.587	$GPGGA,201104,2427.4554,N,08124.5717,W,1,11,1.3,21,M,,M,,*6F
06/11/2015	20:11:04.547	$GPGGA,201105,2427.4557,N,08124.5705,W,1,11,1.3,21,M,,M,,*6E
06/11/2015	20:11:05.537	$GPGGA,201106,2427.4561,N,08124.5691,W,1,11,1.3,21,M,,M,,*64
06/11/2015	20:11:06.537	$GPGGA,201107,2427.4564,N,08124.5678,W,1,11,1.3,21,M,,M,,*67
06/11/2015	20:11:07.597	$GPGGA,201108,2427.4567,N,08124.5665,W,1,11,1.3,21,M,,M,,*67
06/11/2015	20:11:08.537	$GPGGA,201109,2427.4568,N,08124.5652,W,1,11,1.3,21,M,,M,,*6D
06/11/2015	20:11:09.537	$GPGGA,201110,2427.4572,N,08124.5638,W,1,11,1.3,21,M,,M,,*62
06/11/2015	20:11:10.638	$GPGGA,201111,2427.4575,N,08124.5623,W,1,11,1.3,21,M,,M,,*6E
06/11/2015	20:11:11.568	$GPGGA,201112,2427.4578,N,08124.5610,W,1,11,1.4,21,M,,M,,*67
06/11/2015	20:11:12.538	$GPGGA,201113,2427.4582,N,08124.5596,W,1,11,1.3,21,M,,M,,*69
06/11/2015	20:11:13.518	$GPGGA,201114,2427.4583,N,08124.5582,W,1,11,1.3,21,M,,M,,*6A
06/11/2015	20:11:14.538	$GPGGA,201115,2427.4587,N,08124.5568,W,1,11,1.3,21,M,,M,,*6B
06/11/2015	20:11:15.551	$GPGGA,201116,2427.4592,N,08124.5555,W,1,11,1.3,21,M,,M,,*62
06/11/2015	20:11:16.518	$GPGGA,201117,2427.4594,N,08124.5540,W,1,11,1.3,21,M,,M,,*61
06/11/2015	20:11:17.518	$GPGGA,201118,2427.4597,N,08124.5526,W,1,11,1.3,21,M,,M,,*6D
06/11/2015	20:11:18.607	$GPGGA,201119,2427.4601,N,08124.5512,W,1,11,1.3,21,M,,M,,*67
06/11/2015	20:11:19.617	$GPGGA,201120,2427.4604,N,08124.5498,W,1,11,1.3,21,M,,M,,*6B
06/11/2015	20:11:20.617	$GPGGA,201121,2427.4607,N,08124.5485,W,1,11,1.3,21,M,,M,,*65
06/11/2015	20:11:21.597	$GPGGA,201122,2427.4610,N,08124.5471,W,1,11,1.5,20,M,,M,,*6C
06/11/2015	20:11:22.597	$GPGGA,201123,2427.4612,N,08124.5458,W,1,11,1.5,20,M,,M,,*64
06/11/2015	20:11:23.562	$GPGGA,201124,2427.4614,N,08124.5445,W,1,11,1.3,20,M,,M,,*6F
06/11/2015	20:11:24.597	$GPGGA,201125,2427.4619,N,08124.5431,W,1,11,1.3,20,M,,M,,*60
06/11/2015	20:11:25.627	$GPGGA,201126,2427.4622,N,08124.5418,W,1,11,1.3,20,M,,M,,*60
06/11/2015	20:11:26.587	$GPGGA,201127,2427.4625,N,08124.5403,W,1,11,1.3,20,M,,M,,*6C
06/11/2015	20:11:27.627	$GPGGA,201128,2427.4625,N,08124.5403,W,1,11,1.3,20,M,,M,,*63
06/11/2015	20:11:28.588	$GPGGA,201129,2427.4633,N,08124.5378,W,1,11,1.3,20,M,,M,,*6E
06/11/2015	20:11:29.618	$GPGGA,201130,2427.4637,N,08124.5363,W,1,11,1.3,20,M,,M,,*68
06/11/2015	20:11:30.578	$GPGGA,201131,2427.4639,N,08124.5349,W,1,11,1.3,20,M,,M,,*6F
06/11/2015	20:11:31.608	$GPGGA,201132,2427.4641,N,08124.5337,W,1,11,1.4,20,M,,M,,*6D
06/11/2015	20:11:32.498	$GPGGA,201133,2427.4648,N,08124.5324,W,1,11,1.4,20,M,,M,,*67
06/11/2015	20:11:33.598	$GPGGA,201134,2427.4652,N,08124.5311,W,1,10,1.4,20,M,,M,,*6C
06/11/2015	20:11:34.578	$GPGGA,201135,2427.4657,N,08124.5298,W,1,10,1.4,20,M,,M,,*68
06/11/2015	20:11:35.597	$GPGGA,201136,2427.4662,N,08124.5283,W,1,11,1.4,20,M,,M,,*66
06/11/2015	20:11:36.568	$GPGGA,201137,2427.4669,N,08124.5272,W,1,11,1.4,20,M,,M,,*62
06/11/2015	20:11:37.587	$GPGGA,201138,2427.4677,N,08124.5258,W,1,11,1.3,20,M,,M,,*6D
06/11/2015	20:11:38.561	$GPGGA,201139,2427.4680,N,08124.5244,W,1,11,1.3,21,M,,M,,*68
06/11/2015	20:11:39.607	$GPGGA,201140,2427.4684,N,08124.5232,W,1,11,1.3,21,M,,M,,*63
06/11/2015	20:11:40.562	$GPGGA,201141,2427.4690,N,08124.5220,W,1,11,1.3,21,M,,M,,*64
06/11/2015	20:11:41.577	$GPGGA,201142,2427.4694,N,08124.5206,W,1,11,1.3,21,M,,M,,*67
06/11/2015	20:11:42.567	$GPGGA,201143,2427.4695,N,08124.5194,W,1,11,1.3,21,M,,M,,*6F
06/11/2015	20:11:43.587	$GPGGA,201144,2427.4698,N,08124.5182,W,1,10,1.4,21,M,,M,,*64
06/11/2015	20:11:44.568	$GPGGA,201145,2427.4704,N,08124.5169,W,1,10,1.3,21,M,,M,,*63
06/11/2015	20:11:45.552	$GPGGA,201146,2427.4706,N,08124.5156,W,1,11,1.3,21,M,,M,,*6F
