Software Version Number: 1	Data File Format Number: 1	Build Version Number: 1	Error Count Since VI Started: 3	Manufacturer: Raytheon	 Model Number: RayMarine 120	 S/N: 	 Cal Date: 	 Wind Direction Offset: 0.00	 Slope (M)1: 0.00	 Offset (B)1: 0.00	 Slope (M)2: 0.00	 Offset (B)2: 0.00	 Slope (M)3: 0.00	 Offset (B)3: 0.00	 Slope (M)4: 0.00	 Offset (B)4: 0.00	 Slope (M)5: 0.00	 Offset (B)5: 0.00	 Slope (M)6: 0.00	 Offset (B)6: 0.00
Computer Date	Computer Time	GGA String
06/25/2015	10:00:00.551	$GPGGA,100001,2514.1998,N,07950.2355,W,1,9,1.6,10,M,,M,,*5E
06/25/2015	10:00:01.561	$GPGGA,100002,2514.1997,N,07950.2352,W,1,9,1.6,10,M,,M,,*55
06/25/2015	10:00:02.541	$GPGGA,100003,2514.1998,N,07950.2350,W,1,9,1.6,10,M,,M,,*59
06/25/2015	10:00:04.602	$GPGGA,100005,2514.1996,N,07950.2345,W,1,9,1.6,10,M,,M,,*55
06/25/2015	10:00:05.562	$GPGGA,100006,2514.1996,N,07950.2342,W,1,9,1.6,10,M,,M,,*51
06/25/2015	10:00:06.541	$GPGGA,100007,2514.1996,N,07950.2342,W,1,9,2.3,10,M,,M,,*56
06/25/2015	10:00:07.541	$GPGGA,100008,2514.1999,N,07950.2339,W,1,9,1.6,10,M,,M,,*5C
06/25/2015	10:00:08.541	$GPGGA,100009,2514.1997,N,07950.2334,W,1,9,1.6,10,M,,M,,*5E
06/25/2015	10:00:09.541	$GPGGA,100010,2514.2000,N,07950.2334,W,1,8,2.3,10,M,,M,,*55
06/25/2015	10:00:10.521	$GPGGA,100011,2514.2000,N,07950.2334,W,1,8,1.6,10,M,,M,,*52
06/25/2015	10:00:11.541	$GPGGA,100012,2514.2000,N,07950.2328,W,1,9,1.6,10,M,,M,,*5D
06/25/2015	10:00:12.530	$GPGGA,100013,2514.2002,N,07950.2325,W,1,9,1.6,11,M,,M,,*52
06/25/2015	10:00:13.541	$GPGGA,100014,2514.2001,N,07950.2327,W,1,9,1.6,11,M,,M,,*54
06/25/2015	10:00:14.531	$GPGGA,100015,2514.2002,N,07950.2324,W,1,9,1.6,11,M,,M,,*55
06/25/2015	10:00:15.661	$GPGGA,100016,2514.2003,N,07950.2318,W,1,9,1.6,11,M,,M,,*58
06/25/2015	10:00:16.631	$GPGGA,100017,2514.2003,N,07950.2319,W,1,9,1.6,11,M,,M,,*58
06/25/2015	10:00:17.542	$GPGGA,100018,2514.2003,N,07950.2319,W,1,9,1.6,11,M,,M,,*57
06/25/2015	10:00:18.501	$GPGGA,100019,2514.2003,N,07950.2313,W,1,9,1.6,11,M,,M,,*5C
06/25/2015	10:00:19.621	$GPGGA,100020,2514.2005,N,07950.2310,W,1,9,1.6,11,M,,M,,*53
06/25/2015	10:00:20.521	$GPGGA,100021,2514.2006,N,07950.2312,W,1,9,1.6,11,M,,M,,*53
06/25/2015	10:00:21.521	$GPGGA,100022,2514.2005,N,07950.2308,W,1,9,1.6,11,M,,M,,*58
06/25/2015	10:00:22.495	$GPGGA,100023,2514.2004,N,07950.2303,W,1,9,1.6,11,M,,M,,*53
06/25/2015	10:00:23.531	$GPGGA,100024,2514.2005,N,07950.2302,W,1,8,2.3,11,M,,M,,*53
06/25/2015	10:00:24.499	$GPGGA,100025,2514.2006,N,07950.2301,W,1,8,1.6,11,M,,M,,*54
06/25/2015	10:00:25.511	$GPGGA,100026,2514.2007,N,07950.2297,W,1,9,1.6,11,M,,M,,*59
06/25/2015	10:00:26.495	$GPGGA,100027,2514.2007,N,07950.2294,W,1,9,1.6,11,M,,M,,*5B
06/25/2015	10:00:27.521	$GPGGA,100028,2514.2007,N,07950.2293,W,1,9,1.6,11,M,,M,,*53
06/25/2015	10:00:28.501	$GPGGA,100029,2514.2009,N,07950.2290,W,1,9,1.6,11,M,,M,,*5F
06/25/2015	10:00:29.591	$GPGGA,100030,2514.2010,N,07950.2286,W,1,9,1.6,11,M,,M,,*58
06/25/2015	10:00:30.499	$GPGGA,100031,2514.2010,N,07950.2284,W,1,9,1.6,11,M,,M,,*5B
06/25/2015	10:00:31.593	$GPGGA,100032,2514.2011,N,07950.2282,W,1,9,1.6,11,M,,M,,*5F
06/25/2015	10:00:32.493	$GPGGA,100033,2514.2013,N,07950.2279,W,1,9,1.6,10,M,,M,,*59
06/25/2015	10:00:33.611	$GPGGA,100034,2514.2014,N,07950.2276,W,1,9,1.6,10,M,,M,,*56
06/25/2015	10:00:34.571	$GPGGA,100035,2514.2014,N,07950.2274,W,1,9,1.6,10,M,,M,,*55
06/25/2015	10:00:35.621	$GPGGA,100036,2514.2016,N,07950.2271,W,1,9,1.6,10,M,,M,,*51
06/25/2015	10:00:36.571	$GPGGA,100037,2514.2017,N,07950.2267,W,1,9,2.3,10,M,,M,,*50
06/25/2015	10:00:37.601	$GPGGA,100038,2514.2018,N,07950.2266,W,1,9,1.6,10,M,,M,,*57
06/25/2015	10:00:38.571	$GPGGA,100039,2514.2021,N,07950.2262,W,1,9,1.6,10,M,,M,,*58
06/25/2015	10:00:39.601	$GPGGA,100040,2514.2023,N,07950.2259,W,1,9,1.6,10,M,,M,,*5C
06/25/2015	10:00:40.561	$GPGGA,100041,2514.2025,N,07950.2256,W,1,9,1.6,10,M,,M,,*54
06/25/2015	10:00:41.551	$GPGGA,100042,2514.2025,N,07950.2254,W,1,9,1.6,10,M,,M,,*55
06/25/2015	10:00:42.561	$GPGGA,100043,2514.2028,N,07950.2251,W,1,9,1.6,10,M,,M,,*5C
06/25/2015	10:00:43.591	$GPGGA,100044,2514.2031,N,07950.2247,W,1,9,1.6,10,M,,M,,*54
06/25/2015	10:00:44.561	$GPGGA,100045,2514.2032,N,07950.2245,W,1,9,1.6,10,M,,M,,*54
06/25/2015	10:00:45.581	$GPGGA,100046,2514.2034,N,07950.2242,W,1,9,1.6,10,M,,M,,*56
06/25/2015	10:00:46.551	$GPGGA,100047,2514.2036,N,07950.2239,W,1,9,1.6,10,M,,M,,*59
06/25/2015	10:00:47.581	$GPGGA,100048,2514.2038,N,07950.2236,W,1,9,1.6,10,M,,M,,*57
06/25/2015	10:00:48.551	$GPGGA,100049,2514.2039,N,07950.2233,W,1,9,1.6,10,M,,M,,*52
06/25/2015	10:00:49.541	$GPGGA,100050,2514.2042,N,07950.2231,W,1,9,1.6,10,M,,M,,*54
06/25/2015	10:00:50.551	$GPGGA,100051,2514.2043,N,07950.2229,W,1,9,1.6,10,M,,M,,*5D
06/25/2015	10:00:51.581	$GPGGA,100052,2514.2045,N,07950.2225,W,1,9,1.6,10,M,,M,,*54
06/25/2015	10:00:52.551	$GPGGA,100053,2514.2046,N,07950.2223,W,1,9,1.6,10,M,,M,,*50
06/25/2015	10:00:53.542	$GPGGA,100054,2514.2045,N,07950.2221,W,1,8,1.6,10,M,,M,,*57
06/25/2015	10:00:54.541	$GPGGA,100055,2514.2046,N,07950.2219,W,1,8,2.3,11,M,,M,,*59
06/25/2015	10:00:55.551	$GPGGA,100056,2514.2045,N,07950.2216,W,1,8,2.3,11,M,,M,,*56
06/25/2015	10:00:56.531	$GPGGA,100057,2514.2054,N,07950.2214,W,1,8,2.3,10,M,,M,,*54
06/25/2015	10:00:57.541	$GPGGA,100058,2514.2054,N,07950.2215,W,1,9,1.6,11,M,,M,,*5C
06/25/2015	10:00:58.541	$GPGGA,100059,2514.2054,N,07950.2211,W,1,9,1.6,11,M,,M,,*59
06/25/2015	10:00:59.562	$GPGGA,100100,2514.2054,N,07950.2208,W,1,9,1.6,11,M,,M,,*5C
06/25/2015	10:01:00.531	$GPGGA,100101,2514.2056,N,07950.2208,W,1,9,1.6,11,M,,M,,*5F
06/25/2015	10:01:01.511	$GPGGA,100102,2514.2057,N,07950.2206,W,1,9,1.6,11,M,,M,,*53
06/25/2015	10:01:02.531	$GPGGA,100103,2514.2057,N,07950.2203,W,1,9,1.6,11,M,,M,,*57
06/25/2015	10:01:03.571	$GPGGA,100104,2514.2057,N,07950.2200,W,1,9,1.6,11,M,,M,,*53
06/25/2015	10:01:04.521	$GPGGA,100105,2514.2058,N,07950.2200,W,1,9,1.6,11,M,,M,,*5D
06/25/2015	10:01:05.631	$GPGGA,100106,2514.2058,N,07950.2197,W,1,9,1.6,11,M,,M,,*53
06/25/2015	10:01:06.511	$GPGGA,100107,2514.2060,N,07950.2195,W,1,9,1.6,11,M,,M,,*5B
06/25/2015	10:01:07.651	$GPGGA,100108,2514.2061,N,07950.2194,W,1,9,1.6,11,M,,M,,*54
06/25/2015	10:01:08.521	$GPGGA,100109,2514.2059,N,07950.2191,W,1,9,1.6,11,M,,M,,*5B
06/25/2015	10:01:09.521	$GPGGA,100110,2514.2064,N,07950.2189,W,1,8,2.3,11,M,,M,,*53
06/25/2015	10:01:10.621	$GPGGA,100111,2514.2062,N,07950.2187,W,1,8,1.6,11,M,,M,,*5C
06/25/2015	10:01:12.531	$GPGGA,100113,2514.2062,N,07950.2184,W,1,8,1.6,10,M,,M,,*5C
06/25/2015	10:01:13.521	$GPGGA,100114,2514.2063,N,07950.2182,W,1,8,2.3,10,M,,M,,*5A
06/25/2015	10:01:14.592	$GPGGA,100115,2514.2065,N,07950.2179,W,1,8,2.3,10,M,,M,,*59
06/25/2015	10:01:15.641	$GPGGA,100116,2514.2067,N,07950.2178,W,1,9,1.6,10,M,,M,,*5E
06/25/2015	10:01:16.511	$GPGGA,100117,2514.2068,N,07950.2177,W,1,9,1.6,10,M,,M,,*5F
06/25/2015	10:01:17.592	$GPGGA,100118,2514.2067,N,07950.2176,W,1,9,1.6,10,M,,M,,*5E
06/25/2015	10:01:18.583	$GPGGA,100119,2514.2068,N,07950.2174,W,1,9,1.6,10,M,,M,,*52
06/25/2015	10:01:19.641	$GPGGA,100120,2514.2068,N,07950.2175,W,1,9,1.6,10,M,,M,,*59
06/25/2015	10:01:20.501	$GPGGA,100121,2514.2070,N,07950.2174,W,1,9,1.6,10,M,,M,,*50
06/25/2015	10:01:21.591	$GPGGA,100122,2514.2071,N,07950.2171,W,1,9,1.6,10,M,,M,,*57
06/25/2015	10:01:22.490	$GPGGA,100123,2514.2070,N,07950.2169,W,1,9,1.6,10,M,,M,,*5E
06/25/2015	10:01:23.621	$GPGGA,100124,2514.2071,N,07950.2171,W,1,9,1.6,10,M,,M,,*51
06/25/2015	10:01:24.571	$GPGGA,100125,2514.2072,N,07950.2168,W,1,9,1.6,10,M,,M,,*5B
06/25/2015	10:01:25.611	$GPGGA,100126,2514.2072,N,07950.2165,W,1,9,1.6,10,M,,M,,*55
06/25/2015	10:01:26.561	$GPGGA,100127,2514.2072,N,07950.2167,W,1,9,1.6,10,M,,M,,*56
06/25/2015	10:01:27.611	$GPGGA,100128,2514.2072,N,07950.2166,W,1,9,1.6,10,M,,M,,*58
06/25/2015	10:01:28.571	$GPGGA,100129,2514.2072,N,07950.2162,W,1,9,1.6,10,M,,M,,*5D
06/25/2015	10:01:29.571	$GPGGA,100130,2514.2074,N,07950.2161,W,1,9,1.6,10,M,,M,,*50
06/25/2015	10:01:30.571	$GPGGA,100131,2514.2073,N,07950.2161,W,1,9,1.6,11,M,,M,,*57
06/25/2015	10:01:31.621	$GPGGA,100132,2514.2075,N,07950.2159,W,1,9,1.6,11,M,,M,,*59
06/25/2015	10:01:32.561	$GPGGA,100133,2514.2072,N,07950.2157,W,1,9,1.6,11,M,,M,,*51
06/25/2015	10:01:33.596	$GPGGA,100134,2514.2072,N,07950.2157,W,1,8,2.3,11,M,,M,,*51
06/25/2015	10:01:34.551	$GPGGA,100135,2514.2072,N,07950.2156,W,1,8,1.6,11,M,,M,,*57
06/25/2015	10:01:35.591	$GPGGA,100136,2514.2074,N,07950.2154,W,1,9,1.6,11,M,,M,,*51
06/25/2015	10:01:36.541	$GPGGA,100137,2514.2075,N,07950.2154,W,1,9,1.6,11,M,,M,,*51
06/25/2015	10:01:37.571	$GPGGA,100138,2514.2073,N,07950.2153,W,1,9,1.6,11,M,,M,,*5F
06/25/2015	10:01:38.541	$GPGGA,100139,2514.2072,N,07950.2152,W,1,9,2.3,11,M,,M,,*58
06/25/2015	10:01:39.571	$GPGGA,100140,2514.2070,N,07950.2151,W,1,8,2.3,11,M,,M,,*56
06/25/2015	10:01:40.551	$GPGGA,100141,2514.2069,N,07950.2150,W,1,8,2.3,11,M,,M,,*5E
06/25/2015	10:01:41.561	$GPGGA,100142,2514.2068,N,07950.2149,W,1,8,2.3,11,M,,M,,*54
06/25/2015	10:01:42.541	$GPGGA,100143,2514.2067,N,07950.2150,W,1,8,2.3,11,M,,M,,*52
06/25/2015	10:01:43.571	$GPGGA,100144,2514.2066,N,07950.2149,W,1,8,2.3,10,M,,M,,*5D
06/25/2015	10:01:44.531	$GPGGA,100145,2514.2065,N,07950.2148,W,1,8,2.3,10,M,,M,,*5E
06/25/2015	10:01:45.531	$GPGGA,100146,2514.2065,N,07950.2149,W,1,8,2.3,10,M,,M,,*5C
06/25/2015	10:01:46.541	$GPGGA,100147,2514.2065,N,07950.2147,W,1,8,2.3,10,M,,M,,*53
06/25/2015	10:01:47.571	$GPGGA,100148,2514.2063,N,07950.2147,W,1,8,2.3,10,M,,M,,*5A
06/25/2015	10:01:48.541	$GPGGA,100149,2514.2064,N,07950.2147,W,1,8,2.3,10,M,,M,,*5C
06/25/2015	10:01:49.562	$GPGGA,100150,2514.2062,N,07950.2145,W,1,8,2.3,10,M,,M,,*50
06/25/2015	10:01:50.531	$GPGGA,100151,2514.2063,N,07950.2146,W,1,8,2.3,10,M,,M,,*53
06/25/2015	10:01:51.551	$GPGGA,100152,2514.2062,N,07950.2146,W,1,8,2.3,10,M,,M,,*51
06/25/2015	10:01:52.511	$GPGGA,100153,2514.2061,N,07950.2144,W,1,8,2.3,10,M,,M,,*51
06/25/2015	10:01:53.511	$GPGGA,100154,2514.2061,N,07950.2143,W,1,8,2.3,9,M,,M,,*69
06/25/2015	10:01:54.611	$GPGGA,100155,2514.2061,N,07950.2146,W,1,8,2.3,9,M,,M,,*6D
06/25/2015	10:01:55.561	$GPGGA,100156,2514.2061,N,07950.2143,W,1,8,2.3,9,M,,M,,*6B
06/25/2015	10:01:56.521	$GPGGA,100157,2514.2059,N,07950.2142,W,1,8,2.3,9,M,,M,,*60
06/25/2015	10:01:57.540	$GPGGA,100158,2514.2060,N,07950.2143,W,1,8,2.3,9,M,,M,,*64
06/25/2015	10:01:58.511	$GPGGA,100159,2514.2059,N,07950.2143,W,1,8,2.3,9,M,,M,,*6F
06/25/2015	10:01:59.682	$GPGGA,100200,2514.2058,N,07950.2142,W,1,8,2.3,9,M,,M,,*60
06/25/2015	10:02:00.521	$GPGGA,100201,2514.2057,N,07950.2141,W,1,8,2.3,9,M,,M,,*6D
06/25/2015	10:02:01.641	$GPGGA,100202,2514.2057,N,07950.2142,W,1,8,2.3,9,M,,M,,*6D
06/25/2015	10:02:02.661	$GPGGA,100203,2514.2057,N,07950.2142,W,1,8,2.3,9,M,,M,,*6C
06/25/2015	10:02:03.601	$GPGGA,100204,2514.2061,N,07950.2142,W,1,8,2.3,8,M,,M,,*6F
06/25/2015	10:02:04.661	$GPGGA,100205,2514.2064,N,07950.2142,W,1,8,1.6,8,M,,M,,*6D
06/25/2015	10:02:05.641	$GPGGA,100206,2514.2067,N,07950.2142,W,1,9,1.6,8,M,,M,,*6C
06/25/2015	10:02:06.511	$GPGGA,100207,2514.2068,N,07950.2143,W,1,9,1.6,8,M,,M,,*63
06/25/2015	10:02:07.661	$GPGGA,100208,2514.2068,N,07950.2142,W,1,9,1.6,9,M,,M,,*6C
06/25/2015	10:02:08.493	$GPGGA,100209,2514.2068,N,07950.2142,W,1,9,1.6,9,M,,M,,*6D
06/25/2015	10:02:09.651	$GPGGA,100210,2514.2067,N,07950.2143,W,1,9,2.3,9,M,,M,,*6D
06/25/2015	10:02:10.482	$GPGGA,100211,2514.2065,N,07950.2144,W,1,9,2.3,9,M,,M,,*69
06/25/2015	10:02:11.501	$GPGGA,100212,2514.2068,N,07950.2143,W,1,7,2.6,9,M,,M,,*6B
06/25/2015	10:02:12.581	$GPGGA,100213,2514.2067,N,07950.2146,W,1,7,1.6,9,M,,M,,*63
06/25/2015	10:02:13.591	$GPGGA,100214,2514.2068,N,07950.2147,W,1,9,1.6,9,M,,M,,*64
06/25/2015	10:02:14.571	$GPGGA,100215,2514.2066,N,07950.2146,W,1,9,1.6,9,M,,M,,*6A
06/25/2015	10:02:15.641	$GPGGA,100216,2514.2068,N,07950.2146,W,1,9,1.6,9,M,,M,,*67
06/25/2015	10:02:16.641	$GPGGA,100217,2514.2068,N,07950.2150,W,1,9,1.6,9,M,,M,,*61
06/25/2015	10:02:17.651	$GPGGA,100218,2514.2068,N,07950.2149,W,1,9,1.6,9,M,,M,,*66
06/25/2015	10:02:18.631	$GPGGA,100219,2514.2071,N,07950.2150,W,1,9,1.6,9,M,,M,,*67
06/25/2015	10:02:19.631	$GPGGA,100220,2514.2072,N,07950.2150,W,1,9,1.6,9,M,,M,,*6E
06/25/2015	10:02:20.631	$GPGGA,100221,2514.2072,N,07950.2153,W,1,9,1.6,9,M,,M,,*6C
06/25/2015	10:02:21.611	$GPGGA,100222,2514.2072,N,07950.2154,W,1,9,1.6,9,M,,M,,*68
06/25/2015	10:02:22.641	$GPGGA,100223,2514.2072,N,07950.2153,W,1,9,1.6,9,M,,M,,*6E
06/25/2015	10:02:23.651	$GPGGA,100224,2514.2072,N,07950.2154,W,1,9,1.6,9,M,,M,,*6E
06/25/2015	10:02:24.631	$GPGGA,100225,2514.2074,N,07950.2157,W,1,9,1.6,9,M,,M,,*6A
06/25/2015	10:02:25.611	$GPGGA,100226,2514.2075,N,07950.2158,W,1,9,1.6,9,M,,M,,*67
06/25/2015	10:02:26.621	$GPGGA,100227,2514.2074,N,07950.2157,W,1,9,1.6,9,M,,M,,*68
06/25/2015	10:02:27.621	$GPGGA,100228,2514.2076,N,07950.2160,W,1,9,1.6,10,M,,M,,*59
06/25/2015	10:02:28.611	$GPGGA,100229,2514.2076,N,07950.2161,W,1,9,1.6,10,M,,M,,*59
06/25/2015	10:02:29.541	$GPGGA,100230,2514.2076,N,07950.2161,W,1,9,1.6,10,M,,M,,*51
06/25/2015	10:02:30.601	$GPGGA,100231,2514.2076,N,07950.2162,W,1,9,1.6,10,M,,M,,*53
06/25/2015	10:02:31.601	$GPGGA,100232,2514.2076,N,07950.2162,W,1,9,1.6,10,M,,M,,*50
06/25/2015	10:02:32.610	$GPGGA,100233,2514.2076,N,07950.2164,W,1,9,1.6,10,M,,M,,*57
06/25/2015	10:02:33.591	$GPGGA,100234,2514.2076,N,07950.2165,W,1,9,1.6,10,M,,M,,*51
06/25/2015	10:02:34.541	$GPGGA,100235,2514.2074,N,07950.2167,W,1,9,1.6,10,M,,M,,*50
06/25/2015	10:02:35.611	$GPGGA,100236,2514.2075,N,07950.2165,W,1,9,1.6,10,M,,M,,*50
06/25/2015	10:02:36.591	$GPGGA,100237,2514.2074,N,07950.2167,W,1,9,1.6,10,M,,M,,*52
06/25/2015	10:02:37.591	$GPGGA,100238,2514.2073,N,07950.2168,W,1,9,1.6,10,M,,M,,*55
06/25/2015	10:02:38.591	$GPGGA,100239,2514.2075,N,07950.2168,W,1,9,1.6,10,M,,M,,*52
06/25/2015	10:02:39.592	$GPGGA,100240,2514.2074,N,07950.2168,W,1,9,1.6,10,M,,M,,*5D
06/25/2015	10:02:40.581	$GPGGA,100241,2514.2075,N,07950.2171,W,1,9,1.6,10,M,,M,,*55
06/25/2015	10:02:41.571	$GPGGA,100242,2514.2076,N,07950.2172,W,1,9,1.6,10,M,,M,,*56
06/25/2015	10:02:42.511	$GPGGA,100243,2514.2076,N,07950.2172,W,1,9,1.6,10,M,,M,,*57
06/25/2015	10:02:43.611	$GPGGA,100244,2514.2076,N,07950.2175,W,1,9,1.6,10,M,,M,,*57
06/25/2015	10:02:44.611	$GPGGA,100245,2514.2076,N,07950.2175,W,1,9,1.6,10,M,,M,,*56
06/25/2015	10:02:45.621	$GPGGA,100246,2514.2074,N,07950.2173,W,1,8,1.6,10,M,,M,,*50
06/25/2015	10:02:46.641	$GPGGA,100247,2514.2072,N,07950.2175,W,1,8,2.3,10,M,,M,,*57
06/25/2015	10:02:47.621	$GPGGA,100248,2514.2074,N,07950.2178,W,1,8,1.6,10,M,,M,,*55
06/25/2015	10:02:48.631	$GPGGA,100249,2514.2072,N,07950.2176,W,1,8,1.6,10,M,,M,,*5C
06/25/2015	10:02:49.494	$GPGGA,100250,2514.2072,N,07950.2176,W,1,9,1.6,10,M,,M,,*55
06/25/2015	10:02:50.571	$GPGGA,100251,2514.2074,N,07950.2178,W,1,9,1.6,10,M,,M,,*5C
06/25/2015	10:02:51.571	$GPGGA,100252,2514.2073,N,07950.2179,W,1,9,1.6,10,M,,M,,*59
06/25/2015	10:02:52.601	$GPGGA,100253,2514.2074,N,07950.2179,W,1,9,1.6,10,M,,M,,*5F
06/25/2015	10:02:53.541	$GPGGA,100254,2514.2075,N,07950.2180,W,1,9,1.6,10,M,,M,,*5F
06/25/2015	10:02:54.551	$GPGGA,100255,2514.2076,N,07950.2182,W,1,9,1.6,10,M,,M,,*5F
06/25/2015	10:02:55.611	$GPGGA,100256,2514.2076,N,07950.2181,W,1,9,1.6,10,M,,M,,*5F
06/25/2015	10:02:56.593	$GPGGA,100257,2514.2078,N,07950.2182,W,1,9,1.6,10,M,,M,,*53
06/25/2015	10:02:57.593	$GPGGA,100258,2514.2079,N,07950.2182,W,1,9,1.6,10,M,,M,,*5D
06/25/2015	10:02:58.584	$GPGGA,100259,2514.2079,N,07950.2184,W,1,9,1.6,10,M,,M,,*5A
06/25/2015	10:02:59.631	$GPGGA,100300,2514.2079,N,07950.2184,W,1,9,1.6,10,M,,M,,*57
06/25/2015	10:03:00.593	$GPGGA,100301,2514.2081,N,07950.2186,W,1,9,1.6,10,M,,M,,*53
06/25/2015	10:03:01.621	$GPGGA,100302,2514.2079,N,07950.2187,W,1,9,1.6,10,M,,M,,*56
06/25/2015	10:03:02.583	$GPGGA,100303,2514.2079,N,07950.2187,W,1,9,1.6,10,M,,M,,*57
06/25/2015	10:03:03.588	$GPGGA,100304,2514.2081,N,07950.2189,W,1,9,1.6,10,M,,M,,*59
06/25/2015	10:03:04.595	$GPGGA,100305,2514.2080,N,07950.2190,W,1,9,1.6,10,M,,M,,*51
06/25/2015	10:03:05.561	$GPGGA,100306,2514.2079,N,07950.2190,W,1,9,1.6,10,M,,M,,*54
06/25/2015	10:03:06.581	$GPGGA,100307,2514.2079,N,07950.2191,W,1,9,1.6,10,M,,M,,*54
06/25/2015	10:03:07.620	$GPGGA,100308,2514.2079,N,07950.2193,W,1,9,1.6,10,M,,M,,*59
06/25/2015	10:03:08.561	$GPGGA,100309,2514.2081,N,07950.2194,W,1,9,1.6,10,M,,M,,*58
06/25/2015	10:03:09.583	$GPGGA,100310,2514.2079,N,07950.2196,W,1,9,1.6,10,M,,M,,*55
06/25/2015	10:03:10.571	$GPGGA,100311,2514.2079,N,07950.2195,W,1,9,1.6,11,M,,M,,*56
06/25/2015	10:03:11.571	$GPGGA,100312,2514.2079,N,07950.2197,W,1,9,1.6,11,M,,M,,*57
06/25/2015	10:03:12.594	$GPGGA,100313,2514.2079,N,07950.2200,W,1,9,1.6,11,M,,M,,*5B
06/25/2015	10:03:13.571	$GPGGA,100314,2514.2079,N,07950.2200,W,1,9,1.6,11,M,,M,,*5C
06/25/2015	10:03:14.561	$GPGGA,100315,2514.2079,N,07950.2201,W,1,9,1.6,11,M,,M,,*5C
06/25/2015	10:03:15.591	$GPGGA,100316,2514.2079,N,07950.2204,W,1,9,1.6,11,M,,M,,*5A
06/25/2015	10:03:16.561	$GPGGA,100317,2514.2079,N,07950.2205,W,1,9,1.6,11,M,,M,,*5A
06/25/2015	10:03:17.611	$GPGGA,100318,2514.2079,N,07950.2207,W,1,9,1.6,11,M,,M,,*57
06/25/2015	10:03:18.561	$GPGGA,100319,2514.2079,N,07950.2209,W,1,9,1.6,11,M,,M,,*58
06/25/2015	10:03:19.582	$GPGGA,100320,2514.2079,N,07950.2211,W,1,9,1.6,11,M,,M,,*5B
06/25/2015	10:03:20.571	$GPGGA,100321,2514.2079,N,07950.2211,W,1,9,1.6,11,M,,M,,*5A
06/25/2015	10:03:21.571	$GPGGA,100322,2514.2081,N,07950.2214,W,1,9,1.6,11,M,,M,,*5B
06/25/2015	10:03:22.551	$GPGGA,100323,2514.2080,N,07950.2215,W,1,9,1.6,11,M,,M,,*5A
06/25/2015	10:03:23.561	$GPGGA,100324,2514.2081,N,07950.2218,W,1,9,1.6,11,M,,M,,*51
06/25/2015	10:03:24.601	$GPGGA,100325,2514.2079,N,07950.2218,W,1,9,1.6,11,M,,M,,*57
06/25/2015	10:03:25.585	$GPGGA,100326,2514.2081,N,07950.2220,W,1,9,1.6,11,M,,M,,*58
06/25/2015	10:03:26.582	$GPGGA,100327,2514.2080,N,07950.2222,W,1,9,1.6,11,M,,M,,*5A
06/25/2015	10:03:27.571	$GPGGA,100328,2514.2082,N,07950.2225,W,1,9,1.6,11,M,,M,,*50
06/25/2015	10:03:28.551	$GPGGA,100329,2514.2080,N,07950.2225,W,1,9,1.6,11,M,,M,,*53
06/25/2015	10:03:29.821	$GPGGA,100330,2514.2081,N,07950.2227,W,1,9,1.6,11,M,,M,,*58
06/25/2015	10:03:30.551	$GPGGA,100331,2514.2082,N,07950.2230,W,1,9,1.6,11,M,,M,,*5C
06/25/2015	10:03:31.571	$GPGGA,100332,2514.2081,N,07950.2233,W,1,9,1.6,11,M,,M,,*5F
06/25/2015	10:03:32.521	$GPGGA,100333,2514.2081,N,07950.2233,W,1,9,1.6,11,M,,M,,*5E
06/25/2015	10:03:33.521	$GPGGA,100334,2514.2079,N,07950.2233,W,1,8,1.6,11,M,,M,,*5F
06/25/2015	10:03:34.794	$GPGGA,100335,2514.2079,N,07950.2233,W,1,8,1.6,11,M,,M,,*5E
06/25/2015	10:03:35.641	$GPGGA,100336,2514.2079,N,07950.2237,W,1,9,1.6,11,M,,M,,*58
06/25/2015	10:03:36.561	$GPGGA,100337,2514.2079,N,07950.2237,W,1,9,1.6,11,M,,M,,*59
06/25/2015	10:03:37.631	$GPGGA,100338,2514.2079,N,07950.2241,W,1,9,1.6,11,M,,M,,*57
06/25/2015	10:03:38.621	$GPGGA,100339,2514.2081,N,07950.2244,W,1,9,1.6,11,M,,M,,*54
06/25/2015	10:03:39.561	$GPGGA,100340,2514.2082,N,07950.2247,W,1,9,1.6,11,M,,M,,*5A
06/25/2015	10:03:40.541	$GPGGA,100341,2514.2082,N,07950.2247,W,1,9,1.6,11,M,,M,,*5B
06/25/2015	10:03:41.501	$GPGGA,100342,2514.2082,N,07950.2249,W,1,9,1.6,11,M,,M,,*56
06/25/2015	10:03:42.510	$GPGGA,100343,2514.2082,N,07950.2249,W,1,9,1.6,11,M,,M,,*57
06/25/2015	10:03:43.601	$GPGGA,100344,2514.2082,N,07950.2255,W,1,9,1.6,11,M,,M,,*5D
06/25/2015	10:03:44.592	$GPGGA,100345,2514.2083,N,07950.2256,W,1,9,1.6,11,M,,M,,*5E
06/25/2015	10:03:45.511	$GPGGA,100346,2514.2083,N,07950.2258,W,1,9,1.6,11,M,,M,,*53
06/25/2015	10:03:46.511	$GPGGA,100347,2514.2083,N,07950.2258,W,1,9,1.6,11,M,,M,,*52
06/25/2015	10:03:47.591	$GPGGA,100348,2514.2083,N,07950.2263,W,1,9,1.6,11,M,,M,,*55
06/25/2015	10:03:48.585	$GPGGA,100349,2514.2083,N,07950.2263,W,1,9,1.6,11,M,,M,,*54
06/25/2015	10:03:49.586	$GPGGA,100350,2514.2085,N,07950.2266,W,1,9,1.6,11,M,,M,,*5F
06/25/2015	10:03:50.571	$GPGGA,100351,2514.2084,N,07950.2270,W,1,9,1.6,11,M,,M,,*58
06/25/2015	10:03:51.621	$GPGGA,100352,2514.2083,N,07950.2270,W,1,9,1.6,11,M,,M,,*5C
06/25/2015	10:03:52.581	$GPGGA,100353,2514.2086,N,07950.2272,W,1,9,2.3,11,M,,M,,*5C
06/25/2015	10:03:53.581	$GPGGA,100354,2514.2087,N,07950.2274,W,1,9,1.6,11,M,,M,,*5A
06/25/2015	10:03:54.582	$GPGGA,100355,2514.2087,N,07950.2276,W,1,9,1.6,11,M,,M,,*59
06/25/2015	10:03:55.611	$GPGGA,100356,2514.2089,N,07950.2276,W,1,9,1.6,11,M,,M,,*54
06/25/2015	10:03:56.571	$GPGGA,100357,2514.2088,N,07950.2279,W,1,9,1.6,11,M,,M,,*5B
06/25/2015	10:03:57.596	$GPGGA,100358,2514.2090,N,07950.2281,W,1,9,1.6,11,M,,M,,*5A
06/25/2015	10:03:58.583	$GPGGA,100359,2514.2090,N,07950.2283,W,1,9,1.6,11,M,,M,,*59
06/25/2015	10:03:59.621	$GPGGA,100400,2514.2092,N,07950.2283,W,1,9,1.6,11,M,,M,,*50
06/25/2015	10:04:00.584	$GPGGA,100401,2514.2091,N,07950.2284,W,1,9,1.6,11,M,,M,,*55
06/25/2015	10:04:01.581	$GPGGA,100402,2514.2093,N,07950.2287,W,1,9,1.6,11,M,,M,,*57
06/25/2015	10:04:02.571	$GPGGA,100403,2514.2092,N,07950.2288,W,1,9,1.6,11,M,,M,,*58
06/25/2015	10:04:03.561	$GPGGA,100404,2514.2093,N,07950.2288,W,1,9,1.6,11,M,,M,,*5E
06/25/2015	10:04:04.571	$GPGGA,100405,2514.2094,N,07950.2290,W,1,9,1.6,11,M,,M,,*51
06/25/2015	10:04:05.571	$GPGGA,100406,2514.2094,N,07950.2294,W,1,9,1.6,11,M,,M,,*56
06/25/2015	10:04:06.561	$GPGGA,100407,2514.2092,N,07950.2293,W,1,9,1.6,11,M,,M,,*56
06/25/2015	10:04:07.592	$GPGGA,100408,2514.2093,N,07950.2294,W,1,9,1.6,11,M,,M,,*5F
06/25/2015	10:04:08.551	$GPGGA,100409,2514.2094,N,07950.2298,W,1,9,1.6,11,M,,M,,*55
06/25/2015	10:04:09.571	$GPGGA,100410,2514.2094,N,07950.2299,W,1,8,1.6,11,M,,M,,*5D
06/25/2015	10:04:10.541	$GPGGA,100411,2514.2094,N,07950.2298,W,1,8,1.6,11,M,,M,,*5D
06/25/2015	10:04:11.585	$GPGGA,100412,2514.2094,N,07950.2301,W,1,9,1.6,11,M,,M,,*5E
06/25/2015	10:04:12.541	$GPGGA,100413,2514.2094,N,07950.2303,W,1,9,1.6,11,M,,M,,*5D
06/25/2015	10:04:13.531	$GPGGA,100414,2514.2094,N,07950.2303,W,1,9,1.6,11,M,,M,,*5A
06/25/2015	10:04:14.551	$GPGGA,100415,2514.2094,N,07950.2303,W,1,9,1.6,11,M,,M,,*5B
06/25/2015	10:04:15.571	$GPGGA,100416,2514.2094,N,07950.2305,W,1,9,1.6,11,M,,M,,*5E
06/25/2015	10:04:16.541	$GPGGA,100417,2514.2094,N,07950.2309,W,1,9,1.6,11,M,,M,,*53
06/25/2015	10:04:17.520	$GPGGA,100418,2514.2094,N,07950.2307,W,1,9,1.6,11,M,,M,,*52
06/25/2015	10:04:18.531	$GPGGA,100419,2514.2096,N,07950.2308,W,1,9,1.6,11,M,,M,,*5E
06/25/2015	10:04:19.551	$GPGGA,100420,2514.2097,N,07950.2309,W,1,9,1.6,11,M,,M,,*54
06/25/2015	10:04:20.511	$GPGGA,100421,2514.2096,N,07950.2312,W,1,9,1.6,11,M,,M,,*5E
06/25/2015	10:04:21.521	$GPGGA,100422,2514.2097,N,07950.2310,W,1,9,1.6,11,M,,M,,*5E
06/25/2015	10:04:22.511	$GPGGA,100423,2514.2096,N,07950.2310,W,1,9,1.6,11,M,,M,,*5E
06/25/2015	10:04:23.541	$GPGGA,100424,2514.2097,N,07950.2313,W,1,9,1.6,11,M,,M,,*5B
06/25/2015	10:04:24.531	$GPGGA,100425,2514.2096,N,07950.2313,W,1,9,1.6,11,M,,M,,*5B
06/25/2015	10:04:25.631	$GPGGA,100426,2514.2097,N,07950.2312,W,1,8,1.6,11,M,,M,,*59
06/25/2015	10:04:26.501	$GPGGA,100427,2514.2097,N,07950.2316,W,1,8,1.6,11,M,,M,,*5C
06/25/2015	10:04:27.511	$GPGGA,100428,2514.2099,N,07950.2316,W,1,9,1.6,11,M,,M,,*5C
06/25/2015	10:04:28.595	$GPGGA,100429,2514.2098,N,07950.2316,W,1,9,1.6,11,M,,M,,*5C
06/25/2015	10:04:29.521	$GPGGA,100430,2514.2100,N,07950.2317,W,1,9,1.6,11,M,,M,,*55
06/25/2015	10:04:30.511	$GPGGA,100431,2514.2099,N,07950.2317,W,1,9,1.6,11,M,,M,,*55
06/25/2015	10:04:31.611	$GPGGA,100432,2514.2101,N,07950.2320,W,1,8,1.6,11,M,,M,,*53
06/25/2015	10:04:33.541	$GPGGA,100434,2514.2099,N,07950.2319,W,1,9,1.6,11,M,,M,,*5E
06/25/2015	10:04:34.511	$GPGGA,100435,2514.2100,N,07950.2320,W,1,9,1.6,11,M,,M,,*54
06/25/2015	10:04:35.621	$GPGGA,100436,2514.2101,N,07950.2323,W,1,9,1.6,11,M,,M,,*55
06/25/2015	10:04:36.505	$GPGGA,100437,2514.2101,N,07950.2323,W,1,9,1.6,11,M,,M,,*54
06/25/2015	10:04:37.581	$GPGGA,100438,2514.2101,N,07950.2324,W,1,9,1.6,11,M,,M,,*5C
06/25/2015	10:04:38.584	$GPGGA,100439,2514.2103,N,07950.2327,W,1,9,1.6,11,M,,M,,*5C
06/25/2015	10:04:39.593	$GPGGA,100440,2514.2102,N,07950.2328,W,1,9,1.6,11,M,,M,,*5C
06/25/2015	10:04:40.581	$GPGGA,100441,2514.2104,N,07950.2328,W,1,9,1.5,11,M,,M,,*58
06/25/2015	10:04:41.592	$GPGGA,100442,2514.2103,N,07950.2330,W,1,9,1.5,11,M,,M,,*55
06/25/2015	10:04:42.841	$GPGGA,100443,2514.2104,N,07950.2331,W,1,9,1.5,11,M,,M,,*52
06/25/2015	10:04:43.621	$GPGGA,100444,2514.2104,N,07950.2332,W,1,9,1.5,11,M,,M,,*56
06/25/2015	10:04:44.561	$GPGGA,100445,2514.2104,N,07950.2334,W,1,9,1.5,11,M,,M,,*51
06/25/2015	10:04:45.596	$GPGGA,100446,2514.2105,N,07950.2334,W,1,9,1.5,11,M,,M,,*53
06/25/2015	10:04:46.571	$GPGGA,100447,2514.2105,N,07950.2337,W,1,9,1.5,11,M,,M,,*51
06/25/2015	10:04:47.611	$GPGGA,100448,2514.2105,N,07950.2337,W,1,10,1.5,11,M,,M,,*66
06/25/2015	10:04:48.571	$GPGGA,100449,2514.2105,N,07950.2337,W,1,10,1.5,11,M,,M,,*67
06/25/2015	10:04:49.584	$GPGGA,100450,2514.2105,N,07950.2338,W,1,10,1.5,11,M,,M,,*60
06/25/2015	10:04:50.561	$GPGGA,100451,2514.2105,N,07950.2339,W,1,10,1.5,11,M,,M,,*60
06/25/2015	10:04:51.581	$GPGGA,100452,2514.2104,N,07950.2339,W,1,9,1.5,11,M,,M,,*5A
06/25/2015	10:04:52.571	$GPGGA,100453,2514.2104,N,07950.2341,W,1,9,1.5,12,M,,M,,*57
06/25/2015	10:04:53.551	$GPGGA,100454,2514.2104,N,07950.2342,W,1,10,1.5,12,M,,M,,*6B
06/25/2015	10:04:54.561	$GPGGA,100455,2514.2104,N,07950.2344,W,1,10,1.5,12,M,,M,,*6C
06/25/2015	10:04:55.581	$GPGGA,100456,2514.2104,N,07950.2345,W,1,10,1.5,12,M,,M,,*6E
06/25/2015	10:04:56.561	$GPGGA,100457,2514.2107,N,07950.2348,W,1,10,1.5,12,M,,M,,*61
06/25/2015	10:04:57.561	$GPGGA,100458,2514.2105,N,07950.2347,W,1,10,1.5,12,M,,M,,*63
06/25/2015	10:04:58.561	$GPGGA,100459,2514.2107,N,07950.2348,W,1,10,1.5,12,M,,M,,*6F
06/25/2015	10:04:59.591	$GPGGA,100500,2514.2106,N,07950.2350,W,1,10,1.5,12,M,,M,,*6A
06/25/2015	10:05:00.551	$GPGGA,100501,2514.2107,N,07950.2352,W,1,10,1.5,12,M,,M,,*68
06/25/2015	10:05:01.541	$GPGGA,100502,2514.2106,N,07950.2351,W,1,10,1.5,12,M,,M,,*69
06/25/2015	10:05:02.531	$GPGGA,100503,2514.2107,N,07950.2355,W,1,10,1.5,12,M,,M,,*6D
06/25/2015	10:05:03.561	$GPGGA,100504,2514.2108,N,07950.2356,W,1,10,1.5,12,M,,M,,*66
06/25/2015	10:05:04.531	$GPGGA,100505,2514.2106,N,07950.2356,W,1,10,1.5,12,M,,M,,*69
06/25/2015	10:05:05.541	$GPGGA,100506,2514.2107,N,07950.2359,W,1,10,1.5,12,M,,M,,*64
06/25/2015	10:05:06.541	$GPGGA,100507,2514.2108,N,07950.2361,W,1,10,1.5,12,M,,M,,*61
06/25/2015	10:05:07.561	$GPGGA,100508,2514.2108,N,07950.2363,W,1,10,1.5,12,M,,M,,*6C
06/25/2015	10:05:08.531	$GPGGA,100509,2514.2108,N,07950.2363,W,1,10,1.5,12,M,,M,,*6D
06/25/2015	10:05:09.551	$GPGGA,100510,2514.2108,N,07950.2366,W,1,10,1.5,12,M,,M,,*60
06/25/2015	10:05:10.521	$GPGGA,100511,2514.2108,N,07950.2370,W,1,10,1.5,12,M,,M,,*66
06/25/2015	10:05:11.539	$GPGGA,100512,2514.2108,N,07950.2370,W,1,10,1.5,12,M,,M,,*65
06/25/2015	10:05:12.529	$GPGGA,100513,2514.2108,N,07950.2371,W,1,10,1.5,12,M,,M,,*65
06/25/2015	10:05:13.509	$GPGGA,100514,2514.2108,N,07950.2374,W,1,10,1.5,12,M,,M,,*67
06/25/2015	10:05:14.499	$GPGGA,100515,2514.2108,N,07950.2377,W,1,10,1.5,12,M,,M,,*65
06/25/2015	10:05:15.519	$GPGGA,100516,2514.2108,N,07950.2378,W,1,10,1.5,12,M,,M,,*69
06/25/2015	10:05:16.509	$GPGGA,100517,2514.2108,N,07950.2381,W,1,10,1.5,12,M,,M,,*6E
06/25/2015	10:05:17.620	$GPGGA,100518,2514.2108,N,07950.2382,W,1,10,1.5,13,M,,M,,*63
06/25/2015	10:05:18.489	$GPGGA,100519,2514.2110,N,07950.2385,W,1,10,1.5,13,M,,M,,*6C
06/25/2015	10:05:19.619	$GPGGA,100520,2514.2109,N,07950.2388,W,1,10,1.5,13,M,,M,,*63
06/25/2015	10:05:20.499	$GPGGA,100521,2514.2110,N,07950.2388,W,1,10,1.5,13,M,,M,,*6A
06/25/2015	10:05:21.479	$GPGGA,100522,2514.2109,N,07950.2392,W,1,10,1.5,13,M,,M,,*6A
06/25/2015	10:05:22.597	$GPGGA,100523,2514.2111,N,07950.2395,W,1,10,1.5,13,M,,M,,*65
06/25/2015	10:05:23.629	$GPGGA,100524,2514.2110,N,07950.2396,W,1,10,1.5,13,M,,M,,*60
06/25/2015	10:05:24.589	$GPGGA,100525,2514.2109,N,07950.2397,W,1,10,1.5,13,M,,M,,*68
06/25/2015	10:05:25.589	$GPGGA,100526,2514.2111,N,07950.2402,W,1,10,1.5,13,M,,M,,*69
06/25/2015	10:05:26.581	$GPGGA,100527,2514.2112,N,07950.2404,W,1,10,1.5,13,M,,M,,*6D
06/25/2015	10:05:27.598	$GPGGA,100528,2514.2110,N,07950.2404,W,1,10,1.5,13,M,,M,,*60
06/25/2015	10:05:28.582	$GPGGA,100529,2514.2111,N,07950.2406,W,1,10,1.5,13,M,,M,,*62
06/25/2015	10:05:29.599	$GPGGA,100530,2514.2112,N,07950.2410,W,1,10,1.5,13,M,,M,,*6E
06/25/2015	10:05:30.569	$GPGGA,100531,2514.2112,N,07950.2413,W,1,10,1.5,13,M,,M,,*6C
06/25/2015	10:05:31.609	$GPGGA,100532,2514.2112,N,07950.2412,W,1,10,1.5,13,M,,M,,*6E
06/25/2015	10:05:32.560	$GPGGA,100533,2514.2112,N,07950.2415,W,1,10,1.5,13,M,,M,,*68
06/25/2015	10:05:33.579	$GPGGA,100534,2514.2114,N,07950.2420,W,1,10,1.5,13,M,,M,,*6F
06/25/2015	10:05:34.559	$GPGGA,100535,2514.2112,N,07950.2418,W,1,10,1.5,13,M,,M,,*63
06/25/2015	10:05:35.589	$GPGGA,100536,2514.2112,N,07950.2420,W,1,10,1.5,13,M,,M,,*6B
06/25/2015	10:05:36.571	$GPGGA,100537,2514.2114,N,07950.2424,W,1,10,1.5,13,M,,M,,*68
06/25/2015	10:05:37.571	$GPGGA,100538,2514.2115,N,07950.2425,W,1,10,1.5,13,M,,M,,*67
06/25/2015	10:05:38.549	$GPGGA,100539,2514.2113,N,07950.2425,W,1,10,1.5,13,M,,M,,*60
06/25/2015	10:05:39.589	$GPGGA,100540,2514.2115,N,07950.2428,W,1,10,1.5,13,M,,M,,*65
06/25/2015	10:05:40.549	$GPGGA,100541,2514.2114,N,07950.2431,W,1,10,1.5,13,M,,M,,*6D
06/25/2015	10:05:41.570	$GPGGA,100542,2514.2115,N,07950.2431,W,1,10,1.5,13,M,,M,,*6F
06/25/2015	10:05:42.549	$GPGGA,100543,2514.2114,N,07950.2431,W,1,10,1.5,13,M,,M,,*6F
06/25/2015	10:05:43.559	$GPGGA,100544,2514.2115,N,07950.2433,W,1,10,1.5,13,M,,M,,*6B
06/25/2015	10:05:44.538	$GPGGA,100545,2514.2115,N,07950.2435,W,1,10,1.5,13,M,,M,,*6C
06/25/2015	10:05:45.539	$GPGGA,100546,2514.2115,N,07950.2438,W,1,10,1.5,12,M,,M,,*63
06/25/2015	10:05:46.539	$GPGGA,100547,2514.2115,N,07950.2437,W,1,10,1.5,12,M,,M,,*6D
06/25/2015	10:05:47.539	$GPGGA,100548,2514.2117,N,07950.2440,W,1,10,1.5,12,M,,M,,*60
06/25/2015	10:05:48.529	$GPGGA,100549,2514.2116,N,07950.2442,W,1,10,1.5,12,M,,M,,*62
06/25/2015	10:05:52.519	$GPGGA,100553,2514.2115,N,07950.2445,W,1,9,1.5,12,M,,M,,*55
06/25/2015	10:05:53.529	$GPGGA,100554,2514.2115,N,07950.2446,W,1,9,1.5,12,M,,M,,*51
06/25/2015	10:05:54.639	$GPGGA,100555,2514.2117,N,07950.2449,W,1,9,1.5,12,M,,M,,*5D
06/25/2015	10:05:55.570	$GPGGA,100556,2514.2116,N,07950.2449,W,1,10,1.5,12,M,,M,,*67
06/25/2015	10:05:56.529	$GPGGA,100557,2514.2115,N,07950.2448,W,1,10,1.5,12,M,,M,,*64
06/25/2015	10:05:57.529	$GPGGA,100558,2514.2117,N,07950.2453,W,1,10,1.5,12,M,,M,,*63
06/25/2015	10:05:58.519	$GPGGA,100559,2514.2118,N,07950.2453,W,1,10,1.5,12,M,,M,,*6D
06/25/2015	10:05:59.549	$GPGGA,100600,2514.2117,N,07950.2453,W,1,10,1.5,12,M,,M,,*6D
06/25/2015	10:06:00.519	$GPGGA,100601,2514.2118,N,07950.2454,W,1,10,1.5,12,M,,M,,*64
06/25/2015	10:06:01.509	$GPGGA,100602,2514.2119,N,07950.2457,W,1,9,1.5,12,M,,M,,*5D
06/25/2015	10:06:02.598	$GPGGA,100603,2514.2119,N,07950.2457,W,1,9,1.5,12,M,,M,,*5C
06/25/2015	10:06:03.549	$GPGGA,100604,2514.2119,N,07950.2458,W,1,9,1.5,12,M,,M,,*54
06/25/2015	10:06:04.539	$GPGGA,100605,2514.2119,N,07950.2460,W,1,9,1.5,12,M,,M,,*5E
06/25/2015	10:06:05.599	$GPGGA,100606,2514.2121,N,07950.2461,W,1,10,1.5,12,M,,M,,*6F
06/25/2015	10:06:06.619	$GPGGA,100607,2514.2119,N,07950.2461,W,1,10,1.5,12,M,,M,,*65
06/25/2015	10:06:07.599	$GPGGA,100608,2514.2122,N,07950.2461,W,1,9,1.5,12,M,,M,,*5A
06/25/2015	10:06:08.489	$GPGGA,100609,2514.2122,N,07950.2464,W,1,9,1.5,12,M,,M,,*5E
06/25/2015	10:06:09.599	$GPGGA,100610,2514.2123,N,07950.2467,W,1,10,1.5,12,M,,M,,*6C
06/25/2015	10:06:10.589	$GPGGA,100611,2514.2125,N,07950.2468,W,1,10,1.5,12,M,,M,,*64
06/25/2015	10:06:11.599	$GPGGA,100612,2514.2124,N,07950.2469,W,1,10,1.5,12,M,,M,,*67
06/25/2015	10:06:12.499	$GPGGA,100613,2514.2125,N,07950.2472,W,1,10,1.5,12,M,,M,,*6D
06/25/2015	10:06:13.488	$GPGGA,100614,2514.2126,N,07950.2473,W,1,10,1.5,12,M,,M,,*68
06/25/2015	10:06:15.019	$GPGGA,100615,2514.2126,N,07950.2473,W,1,10,1.5,12,M,,M,,*69
06/25/2015	10:06:15.609	$GPGGA,100616,2514.2126,N,07950.2475,W,1,10,1.5,12,M,,M,,*6C
06/25/2015	10:06:16.587	$GPGGA,100617,2514.2126,N,07950.2476,W,1,10,1.5,12,M,,M,,*6E
06/25/2015	10:06:17.581	$GPGGA,100618,2514.2126,N,07950.2478,W,1,9,1.5,11,M,,M,,*54
06/25/2015	10:06:18.569	$GPGGA,100619,2514.2128,N,07950.2477,W,1,9,1.5,11,M,,M,,*54
06/25/2015	10:06:19.598	$GPGGA,100620,2514.2129,N,07950.2479,W,1,10,1.5,11,M,,M,,*69
06/25/2015	10:06:20.582	$GPGGA,100621,2514.2128,N,07950.2480,W,1,10,1.5,11,M,,M,,*6F
06/25/2015	10:06:21.584	$GPGGA,100622,2514.2129,N,07950.2482,W,1,10,1.5,11,M,,M,,*6F
06/25/2015	10:06:22.559	$GPGGA,100623,2514.2130,N,07950.2485,W,1,10,1.5,11,M,,M,,*61
06/25/2015	10:06:23.619	$GPGGA,100624,2514.2130,N,07950.2486,W,1,10,1.5,11,M,,M,,*65
06/25/2015	10:06:24.572	$GPGGA,100625,2514.2130,N,07950.2486,W,1,10,1.5,11,M,,M,,*64
06/25/2015	10:06:25.559	$GPGGA,100626,2514.2130,N,07950.2489,W,1,9,1.5,11,M,,M,,*50
06/25/2015	10:06:26.559	$GPGGA,100627,2514.2130,N,07950.2489,W,1,9,1.5,11,M,,M,,*51
06/25/2015	10:06:27.589	$GPGGA,100628,2514.2132,N,07950.2490,W,1,10,1.5,11,M,,M,,*6C
06/25/2015	10:06:28.559	$GPGGA,100629,2514.2131,N,07950.2493,W,1,10,1.5,11,M,,M,,*6D
06/25/2015	10:06:29.571	$GPGGA,100630,2514.2130,N,07950.2493,W,1,9,1.5,11,M,,M,,*5C
06/25/2015	10:06:30.549	$GPGGA,100631,2514.2130,N,07950.2493,W,1,9,1.5,11,M,,M,,*5D
06/25/2015	10:06:31.587	$GPGGA,100632,2514.2132,N,07950.2496,W,1,9,1.5,11,M,,M,,*59
06/25/2015	10:06:32.549	$GPGGA,100633,2514.2133,N,07950.2500,W,1,9,1.5,11,M,,M,,*57
06/25/2015	10:06:33.539	$GPGGA,100634,2514.2132,N,07950.2499,W,1,10,1.5,11,M,,M,,*68
06/25/2015	10:06:34.539	$GPGGA,100635,2514.2133,N,07950.2500,W,1,10,1.5,11,M,,M,,*69
06/25/2015	10:06:35.571	$GPGGA,100636,2514.2133,N,07950.2504,W,1,9,1.6,11,M,,M,,*55
06/25/2015	10:06:36.529	$GPGGA,100637,2514.2133,N,07950.2503,W,1,9,1.5,11,M,,M,,*50
06/25/2015	10:06:37.538	$GPGGA,100638,2514.2133,N,07950.2504,W,1,10,1.5,11,M,,M,,*60
06/25/2015	10:06:38.539	$GPGGA,100639,2514.2133,N,07950.2507,W,1,10,1.5,11,M,,M,,*62
06/25/2015	10:06:39.559	$GPGGA,100640,2514.2135,N,07950.2508,W,1,10,1.5,11,M,,M,,*65
06/25/2015	10:06:40.549	$GPGGA,100641,2514.2133,N,07950.2509,W,1,10,1.5,11,M,,M,,*63
06/25/2015	10:06:41.519	$GPGGA,100642,2514.2133,N,07950.2511,W,1,10,1.5,11,M,,M,,*69
06/25/2015	10:06:42.539	$GPGGA,100643,2514.2133,N,07950.2511,W,1,10,1.5,11,M,,M,,*68
06/25/2015	10:06:43.529	$GPGGA,100644,2514.2136,N,07950.2514,W,1,10,1.5,11,M,,M,,*6F
06/25/2015	10:06:44.619	$GPGGA,100645,2514.2135,N,07950.2514,W,1,10,1.5,11,M,,M,,*6D
06/25/2015	10:06:45.529	$GPGGA,100646,2514.2136,N,07950.2516,W,1,10,1.5,11,M,,M,,*6F
06/25/2015	10:06:46.509	$GPGGA,100647,2514.2137,N,07950.2519,W,1,10,1.5,11,M,,M,,*60
06/25/2015	10:06:47.529	$GPGGA,100648,2514.2137,N,07950.2522,W,1,10,1.5,11,M,,M,,*67
06/25/2015	10:06:48.529	$GPGGA,100649,2514.2139,N,07950.2521,W,1,10,1.5,11,M,,M,,*6B
06/25/2015	10:06:49.529	$GPGGA,100650,2514.2137,N,07950.2522,W,1,10,1.5,12,M,,M,,*6D
06/25/2015	10:06:50.519	$GPGGA,100651,2514.2140,N,07950.2526,W,1,10,1.5,12,M,,M,,*68
06/25/2015	10:06:51.639	$GPGGA,100652,2514.2139,N,07950.2529,W,1,10,1.5,12,M,,M,,*6A
06/25/2015	10:06:52.529	$GPGGA,100653,2514.2140,N,07950.2527,W,1,10,1.5,12,M,,M,,*6B
06/25/2015	10:06:53.619	$GPGGA,100654,2514.2141,N,07950.2529,W,1,10,1.5,12,M,,M,,*63
06/25/2015	10:06:54.608	$GPGGA,100655,2514.2141,N,07950.2534,W,1,10,1.5,12,M,,M,,*6E
06/25/2015	10:06:55.529	$GPGGA,100656,2514.2141,N,07950.2534,W,1,10,1.5,12,M,,M,,*6D
06/25/2015	10:06:56.609	$GPGGA,100657,2514.2141,N,07950.2534,W,1,10,1.5,12,M,,M,,*6C
06/25/2015	10:06:57.599	$GPGGA,100658,2514.2143,N,07950.2538,W,1,10,1.5,12,M,,M,,*6D
06/25/2015	10:06:58.599	$GPGGA,100659,2514.2144,N,07950.2541,W,1,10,1.5,12,M,,M,,*65
06/25/2015	10:06:59.572	$GPGGA,100700,2514.2143,N,07950.2541,W,1,10,1.5,12,M,,M,,*6F
06/25/2015	10:07:00.579	$GPGGA,100701,2514.2144,N,07950.2543,W,1,10,1.5,12,M,,M,,*6B
06/25/2015	10:07:01.619	$GPGGA,100702,2514.2144,N,07950.2545,W,1,10,1.5,12,M,,M,,*6E
06/25/2015	10:07:02.580	$GPGGA,100703,2514.2144,N,07950.2547,W,1,10,1.5,12,M,,M,,*6D
06/25/2015	10:07:03.619	$GPGGA,100704,2514.2144,N,07950.2550,W,1,10,1.5,12,M,,M,,*6C
06/25/2015	10:07:04.585	$GPGGA,100705,2514.2146,N,07950.2549,W,1,10,1.5,12,M,,M,,*67
06/25/2015	10:07:05.589	$GPGGA,100706,2514.2145,N,07950.2551,W,1,10,1.5,12,M,,M,,*6E
06/25/2015	10:07:06.579	$GPGGA,100707,2514.2147,N,07950.2554,W,1,10,1.5,12,M,,M,,*68
06/25/2015	10:07:07.619	$GPGGA,100708,2514.2146,N,07950.2555,W,1,10,1.5,12,M,,M,,*67
06/25/2015	10:07:08.580	$GPGGA,100709,2514.2147,N,07950.2556,W,1,10,1.5,12,M,,M,,*64
06/25/2015	10:07:09.589	$GPGGA,100710,2514.2148,N,07950.2559,W,1,10,1.5,12,M,,M,,*6C
06/25/2015	10:07:11.029	$GPGGA,100711,2514.2148,N,07950.2561,W,1,10,1.5,12,M,,M,,*66
06/25/2015	10:07:11.609	$GPGGA,100712,2514.2148,N,07950.2562,W,1,10,1.5,12,M,,M,,*66
06/25/2015	10:07:12.579	$GPGGA,100713,2514.2150,N,07950.2565,W,1,10,1.5,12,M,,M,,*69
06/25/2015	10:07:13.589	$GPGGA,100714,2514.2149,N,07950.2566,W,1,10,1.5,12,M,,M,,*65
06/25/2015	10:07:14.569	$GPGGA,100715,2514.2150,N,07950.2568,W,1,10,1.5,12,M,,M,,*62
06/25/2015	10:07:15.599	$GPGGA,100716,2514.2149,N,07950.2569,W,1,10,1.5,12,M,,M,,*68
06/25/2015	10:07:16.559	$GPGGA,100717,2514.2151,N,07950.2572,W,1,10,1.5,12,M,,M,,*6A
06/25/2015	10:07:17.572	$GPGGA,100718,2514.2151,N,07950.2572,W,1,10,1.5,12,M,,M,,*65
06/25/2015	10:07:18.559	$GPGGA,100719,2514.2151,N,07950.2574,W,1,10,1.5,12,M,,M,,*62
06/25/2015	10:07:19.589	$GPGGA,100720,2514.2154,N,07950.2577,W,1,10,1.5,12,M,,M,,*6E
06/25/2015	10:07:20.549	$GPGGA,100721,2514.2155,N,07950.2580,W,1,10,1.5,12,M,,M,,*66
06/25/2015	10:07:21.549	$GPGGA,100722,2514.2155,N,07950.2581,W,1,10,1.5,12,M,,M,,*64
06/25/2015	10:07:22.549	$GPGGA,100723,2514.2155,N,07950.2583,W,1,10,1.5,12,M,,M,,*67
06/25/2015	10:07:23.571	$GPGGA,100724,2514.2155,N,07950.2585,W,1,10,1.5,12,M,,M,,*66
06/25/2015	10:07:24.549	$GPGGA,100725,2514.2155,N,07950.2587,W,1,10,1.5,12,M,,M,,*65
06/25/2015	10:07:25.539	$GPGGA,100726,2514.2155,N,07950.2588,W,1,10,1.5,12,M,,M,,*69
06/25/2015	10:07:26.539	$GPGGA,100727,2514.2157,N,07950.2590,W,1,10,1.5,12,M,,M,,*63
06/25/2015	10:07:27.579	$GPGGA,100728,2514.2158,N,07950.2594,W,1,10,1.5,12,M,,M,,*67
06/25/2015	10:07:28.529	$GPGGA,100729,2514.2157,N,07950.2597,W,1,10,1.5,12,M,,M,,*6A
06/25/2015	10:07:29.549	$GPGGA,100730,2514.2159,N,07950.2596,W,1,10,1.5,12,M,,M,,*6D
06/25/2015	10:07:30.519	$GPGGA,100731,2514.2159,N,07950.2601,W,1,10,1.5,12,M,,M,,*61
06/25/2015	10:07:31.589	$GPGGA,100732,2514.2161,N,07950.2603,W,1,10,1.5,12,M,,M,,*6B
06/25/2015	10:07:32.519	$GPGGA,100733,2514.2160,N,07950.2603,W,1,10,1.5,12,M,,M,,*6B
06/25/2015	10:07:33.539	$GPGGA,100734,2514.2161,N,07950.2605,W,1,10,1.5,12,M,,M,,*6B
06/25/2015	10:07:34.519	$GPGGA,100735,2514.2162,N,07950.2609,W,1,10,1.5,12,M,,M,,*65
06/25/2015	10:07:35.559	$GPGGA,100736,2514.2161,N,07950.2610,W,1,10,1.5,12,M,,M,,*6D
06/25/2015	10:07:36.519	$GPGGA,100737,2514.2162,N,07950.2610,W,1,10,1.5,12,M,,M,,*6F
06/25/2015	10:07:37.619	$GPGGA,100738,2514.2162,N,07950.2613,W,1,10,1.5,12,M,,M,,*63
06/25/2015	10:07:38.529	$GPGGA,100739,2514.2162,N,07950.2613,W,1,10,1.5,12,M,,M,,*62
06/25/2015	10:07:39.629	$GPGGA,100740,2514.2161,N,07950.2616,W,1,10,1.5,12,M,,M,,*6A
06/25/2015	10:07:40.529	$GPGGA,100741,2514.2162,N,07950.2617,W,1,10,1.5,12,M,,M,,*69
06/25/2015	10:07:41.539	$GPGGA,100742,2514.2162,N,07950.2620,W,1,10,1.5,12,M,,M,,*6E
06/25/2015	10:07:42.599	$GPGGA,100743,2514.2162,N,07950.2623,W,1,10,1.5,12,M,,M,,*6C
06/25/2015	10:07:43.639	$GPGGA,100744,2514.2162,N,07950.2623,W,1,10,1.5,12,M,,M,,*6B
06/25/2015	10:07:44.609	$GPGGA,100745,2514.2164,N,07950.2624,W,1,10,1.5,12,M,,M,,*6B
06/25/2015	10:07:45.529	$GPGGA,100746,2514.2165,N,07950.2627,W,1,10,1.5,11,M,,M,,*69
06/25/2015	10:07:46.519	$GPGGA,100747,2514.2164,N,07950.2630,W,1,10,1.5,11,M,,M,,*6F
06/25/2015	10:07:47.598	$GPGGA,100748,2514.2163,N,07950.2629,W,1,10,1.5,11,M,,M,,*6F
06/25/2015	10:07:48.509	$GPGGA,100749,2514.2165,N,07950.2631,W,1,10,1.5,11,M,,M,,*61
06/25/2015	10:07:49.599	$GPGGA,100750,2514.2164,N,07950.2634,W,1,10,1.5,11,M,,M,,*6D
06/25/2015	10:07:50.589	$GPGGA,100751,2514.2163,N,07950.2635,W,1,10,1.5,11,M,,M,,*6A
06/25/2015	10:07:51.609	$GPGGA,100752,2514.2162,N,07950.2635,W,1,10,1.5,11,M,,M,,*68
06/25/2015	10:07:52.499	$GPGGA,100753,2514.2164,N,07950.2637,W,1,10,1.5,11,M,,M,,*6D
06/25/2015	10:07:53.579	$GPGGA,100754,2514.2165,N,07950.2641,W,1,10,1.5,11,M,,M,,*6A
06/25/2015	10:07:54.589	$GPGGA,100755,2514.2164,N,07950.2642,W,1,10,1.5,11,M,,M,,*69
06/25/2015	10:07:55.579	$GPGGA,100756,2514.2165,N,07950.2641,W,1,10,1.5,11,M,,M,,*68
06/25/2015	10:07:56.571	$GPGGA,100757,2514.2163,N,07950.2645,W,1,10,1.5,11,M,,M,,*6B
06/25/2015	10:07:57.582	$GPGGA,100758,2514.2165,N,07950.2648,W,1,10,1.5,11,M,,M,,*6F
06/25/2015	10:07:58.569	$GPGGA,100759,2514.2164,N,07950.2646,W,1,10,1.5,11,M,,M,,*61
06/25/2015	10:07:59.619	$GPGGA,100800,2514.2163,N,07950.2646,W,1,10,1.5,11,M,,M,,*65
06/25/2015	10:08:00.559	$GPGGA,100801,2514.2165,N,07950.2650,W,1,10,1.5,11,M,,M,,*65
06/25/2015	10:08:01.579	$GPGGA,100802,2514.2164,N,07950.2652,W,1,10,1.5,11,M,,M,,*65
06/25/2015	10:08:02.559	$GPGGA,100803,2514.2163,N,07950.2650,W,1,10,1.5,11,M,,M,,*61
06/25/2015	10:08:03.589	$GPGGA,100804,2514.2164,N,07950.2650,W,1,10,1.5,11,M,,M,,*61
06/25/2015	10:08:04.548	$GPGGA,100805,2514.2165,N,07950.2653,W,1,10,1.5,11,M,,M,,*62
06/25/2015	10:08:05.579	$GPGGA,100806,2514.2164,N,07950.2655,W,1,10,1.5,11,M,,M,,*66
06/25/2015	10:08:06.559	$GPGGA,100807,2514.2163,N,07950.2653,W,1,10,1.5,11,M,,M,,*66
06/25/2015	10:08:07.579	$GPGGA,100808,2514.2164,N,07950.2655,W,1,10,1.5,11,M,,M,,*68
06/25/2015	10:08:08.559	$GPGGA,100809,2514.2165,N,07950.2657,W,1,10,1.5,11,M,,M,,*6A
06/25/2015	10:08:09.570	$GPGGA,100810,2514.2163,N,07950.2657,W,1,10,1.5,11,M,,M,,*64
06/25/2015	10:08:10.549	$GPGGA,100811,2514.2162,N,07950.2657,W,1,10,1.5,11,M,,M,,*64
06/25/2015	10:08:11.559	$GPGGA,100812,2514.2164,N,07950.2659,W,1,9,1.5,11,M,,M,,*57
06/25/2015	10:08:12.549	$GPGGA,100813,2514.2165,N,07950.2660,W,1,9,1.5,10,M,,M,,*5C
06/25/2015	10:08:13.539	$GPGGA,100814,2514.2163,N,07950.2660,W,1,10,1.5,10,M,,M,,*65
06/25/2015	10:08:14.539	$GPGGA,100815,2514.2166,N,07950.2663,W,1,10,1.5,10,M,,M,,*62
06/25/2015	10:08:15.569	$GPGGA,100816,2514.2166,N,07950.2664,W,1,10,1.5,10,M,,M,,*66
06/25/2015	10:08:16.539	$GPGGA,100817,2514.2166,N,07950.2663,W,1,10,1.5,10,M,,M,,*60
06/25/2015	10:08:17.582	$GPGGA,100818,2514.2166,N,07950.2666,W,1,10,1.5,10,M,,M,,*6A
06/25/2015	10:08:18.539	$GPGGA,100819,2514.2169,N,07950.2670,W,1,10,1.5,10,M,,M,,*63
06/25/2015	10:08:19.572	$GPGGA,100820,2514.2168,N,07950.2667,W,1,10,1.5,10,M,,M,,*6E
06/25/2015	10:08:20.529	$GPGGA,100821,2514.2169,N,07950.2668,W,1,10,1.5,10,M,,M,,*61
06/25/2015	10:08:21.549	$GPGGA,100822,2514.2170,N,07950.2673,W,1,10,1.5,10,M,,M,,*60
06/25/2015	10:08:22.518	$GPGGA,100823,2514.2172,N,07950.2674,W,1,10,1.5,10,M,,M,,*64
06/25/2015	10:08:23.673	$GPGGA,100824,2514.2171,N,07950.2673,W,1,10,1.5,10,M,,M,,*67
06/25/2015	10:08:24.639	$GPGGA,100825,2514.2172,N,07950.2675,W,1,10,1.5,10,M,,M,,*63
06/25/2015	10:08:25.629	$GPGGA,100826,2514.2173,N,07950.2678,W,1,10,1.5,10,M,,M,,*6C
06/25/2015	10:08:26.509	$GPGGA,100827,2514.2173,N,07950.2681,W,1,10,1.5,10,M,,M,,*6B
06/25/2015	10:08:27.539	$GPGGA,100828,2514.2173,N,07950.2680,W,1,10,1.5,10,M,,M,,*65
06/25/2015	10:08:28.509	$GPGGA,100829,2514.2175,N,07950.2682,W,1,10,1.5,10,M,,M,,*60
06/25/2015	10:08:29.639	$GPGGA,100830,2514.2176,N,07950.2685,W,1,10,1.5,10,M,,M,,*6C
06/25/2015	10:08:30.520	$GPGGA,100831,2514.2177,N,07950.2688,W,1,10,1.5,10,M,,M,,*61
06/25/2015	10:08:31.619	$GPGGA,100832,2514.2177,N,07950.2687,W,1,10,1.5,10,M,,M,,*6D
06/25/2015	10:08:32.619	$GPGGA,100833,2514.2177,N,07950.2689,W,1,10,1.5,10,M,,M,,*62
06/25/2015	10:08:33.599	$GPGGA,100834,2514.2179,N,07950.2692,W,1,10,1.5,10,M,,M,,*61
06/25/2015	10:08:34.509	$GPGGA,100835,2514.2178,N,07950.2692,W,1,10,1.5,10,M,,M,,*61
06/25/2015	10:08:35.609	$GPGGA,100836,2514.2179,N,07950.2695,W,1,10,1.5,10,M,,M,,*64
06/25/2015	10:08:36.509	$GPGGA,100837,2514.2180,N,07950.2696,W,1,10,1.5,10,M,,M,,*60
06/25/2015	10:08:37.599	$GPGGA,100838,2514.2180,N,07950.2697,W,1,10,1.5,10,M,,M,,*6E
06/25/2015	10:08:38.499	$GPGGA,100839,2514.2182,N,07950.2699,W,1,10,1.5,10,M,,M,,*63
06/25/2015	10:08:39.949	$GPGGA,100840,2514.2181,N,07950.2702,W,1,10,1.5,10,M,,M,,*6D
06/25/2015	10:08:40.589	$GPGGA,100841,2514.2183,N,07950.2703,W,1,10,1.5,10,M,,M,,*6F
06/25/2015	10:08:41.599	$GPGGA,100842,2514.2182,N,07950.2706,W,1,10,1.5,10,M,,M,,*68
06/25/2015	10:08:42.589	$GPGGA,100843,2514.2183,N,07950.2707,W,1,10,1.5,10,M,,M,,*69
06/25/2015	10:08:43.629	$GPGGA,100844,2514.2184,N,07950.2710,W,1,10,1.5,10,M,,M,,*6F
06/25/2015	10:08:44.584	$GPGGA,100845,2514.2184,N,07950.2711,W,1,10,1.5,10,M,,M,,*6F
06/25/2015	10:08:45.599	$GPGGA,100846,2514.2184,N,07950.2713,W,1,10,1.5,10,M,,M,,*6E
06/25/2015	10:08:46.569	$GPGGA,100847,2514.2186,N,07950.2715,W,1,10,1.5,10,M,,M,,*6B
06/25/2015	10:08:47.609	$GPGGA,100848,2514.2185,N,07950.2717,W,1,10,1.5,10,M,,M,,*65
06/25/2015	10:08:48.559	$GPGGA,100849,2514.2186,N,07950.2720,W,1,10,1.5,10,M,,M,,*63
06/25/2015	10:08:49.589	$GPGGA,100850,2514.2187,N,07950.2721,W,1,10,1.5,10,M,,M,,*6B
06/25/2015	10:08:50.575	$GPGGA,100851,2514.2186,N,07950.2724,W,1,10,1.5,10,M,,M,,*6E
06/25/2015	10:08:51.599	$GPGGA,100852,2514.2187,N,07950.2725,W,1,10,1.5,10,M,,M,,*6D
06/25/2015	10:08:52.559	$GPGGA,100853,2514.2186,N,07950.2728,W,1,10,1.5,10,M,,M,,*60
06/25/2015	10:08:53.576	$GPGGA,100854,2514.2188,N,07950.2731,W,1,10,1.5,10,M,,M,,*61
06/25/2015	10:08:54.549	$GPGGA,100855,2514.2188,N,07950.2732,W,1,10,1.5,10,M,,M,,*63
06/25/2015	10:08:55.589	$GPGGA,100856,2514.2188,N,07950.2733,W,1,10,1.5,10,M,,M,,*61
06/25/2015	10:08:56.559	$GPGGA,100857,2514.2188,N,07950.2735,W,1,10,1.5,10,M,,M,,*66
06/25/2015	10:08:57.538	$GPGGA,100858,2514.2188,N,07950.2738,W,1,10,1.5,10,M,,M,,*64
06/25/2015	10:08:58.539	$GPGGA,100859,2514.2190,N,07950.2740,W,1,10,1.5,10,M,,M,,*63
06/25/2015	10:08:59.599	$GPGGA,100900,2514.2188,N,07950.2740,W,1,10,1.5,10,M,,M,,*67
06/25/2015	10:09:00.549	$GPGGA,100901,2514.2188,N,07950.2742,W,1,10,1.5,10,M,,M,,*64
06/25/2015	10:09:01.559	$GPGGA,100902,2514.2190,N,07950.2746,W,1,10,1.5,10,M,,M,,*6A
06/25/2015	10:09:02.529	$GPGGA,100903,2514.2188,N,07950.2747,W,1,10,1.5,10,M,,M,,*63
06/25/2015	10:09:03.589	$GPGGA,100904,2514.2190,N,07950.2749,W,1,10,1.5,10,M,,M,,*63
06/25/2015	10:09:04.539	$GPGGA,100905,2514.2188,N,07950.2749,W,1,10,1.5,10,M,,M,,*6B
06/25/2015	10:09:05.529	$GPGGA,100906,2514.2190,N,07950.2753,W,1,9,1.5,10,M,,M,,*52
06/25/2015	10:09:06.529	$GPGGA,100907,2514.2191,N,07950.2754,W,1,9,1.5,10,M,,M,,*55
06/25/2015	10:09:07.549	$GPGGA,100908,2514.2191,N,07950.2756,W,1,10,1.5,10,M,,M,,*60
06/25/2015	10:09:08.529	$GPGGA,100909,2514.2191,N,07950.2758,W,1,10,1.5,10,M,,M,,*6F
06/25/2015	10:09:09.549	$GPGGA,100910,2514.2191,N,07950.2761,W,1,10,1.5,10,M,,M,,*6D
06/25/2015	10:09:10.539	$GPGGA,100911,2514.2191,N,07950.2761,W,1,10,1.5,10,M,,M,,*6C
06/25/2015	10:09:11.659	$GPGGA,100912,2514.2191,N,07950.2762,W,1,10,1.5,10,M,,M,,*6C
06/25/2015	10:09:12.639	$GPGGA,100913,2514.2191,N,07950.2764,W,1,10,1.5,10,M,,M,,*6B
06/25/2015	10:09:13.549	$GPGGA,100914,2514.2193,N,07950.2767,W,1,10,1.5,10,M,,M,,*6D
06/25/2015	10:09:14.518	$GPGGA,100915,2514.2191,N,07950.2767,W,1,10,1.5,10,M,,M,,*6E
06/25/2015	10:09:15.559	$GPGGA,100916,2514.2194,N,07950.2771,W,1,9,1.5,10,M,,M,,*57
06/25/2015	10:09:16.609	$GPGGA,100917,2514.2193,N,07950.2772,W,1,9,1.5,10,M,,M,,*52
06/25/2015	10:09:17.509	$GPGGA,100918,2514.2195,N,07950.2775,W,1,10,1.5,10,M,,M,,*64
06/25/2015	10:09:18.529	$GPGGA,100919,2514.2195,N,07950.2776,W,1,10,1.5,10,M,,M,,*66
06/25/2015	10:09:19.539	$GPGGA,100920,2514.2195,N,07950.2778,W,1,10,1.5,10,M,,M,,*62
06/25/2015	10:09:20.499	$GPGGA,100921,2514.2195,N,07950.2779,W,1,10,1.5,10,M,,M,,*62
06/25/2015	10:09:21.599	$GPGGA,100922,2514.2195,N,07950.2782,W,1,10,1.5,10,M,,M,,*65
06/25/2015	10:09:22.499	$GPGGA,100923,2514.2195,N,07950.2783,W,1,10,1.5,10,M,,M,,*65
06/25/2015	10:09:23.519	$GPGGA,100924,2514.2195,N,07950.2783,W,1,10,1.5,10,M,,M,,*62
06/25/2015	10:09:24.509	$GPGGA,100925,2514.2195,N,07950.2785,W,1,10,1.5,10,M,,M,,*65
06/25/2015	10:09:25.619	$GPGGA,100926,2514.2197,N,07950.2787,W,1,10,1.5,10,M,,M,,*66
06/25/2015	10:09:26.519	$GPGGA,100927,2514.2196,N,07950.2789,W,1,10,1.5,10,M,,M,,*68
06/25/2015	10:09:27.639	$GPGGA,100928,2514.2195,N,07950.2789,W,1,9,1.5,10,M,,M,,*5C
06/25/2015	10:09:28.584	$GPGGA,100929,2514.2195,N,07950.2790,W,1,9,1.5,10,M,,M,,*55
06/25/2015	10:09:29.609	$GPGGA,100930,2514.2197,N,07950.2793,W,1,10,1.5,10,M,,M,,*64
06/25/2015	10:09:30.580	$GPGGA,100931,2514.2196,N,07950.2794,W,1,10,1.5,10,M,,M,,*63
06/25/2015	10:09:31.589	$GPGGA,100932,2514.2197,N,07950.2796,W,1,10,1.5,10,M,,M,,*63
06/25/2015	10:09:32.580	$GPGGA,100933,2514.2196,N,07950.2798,W,1,10,1.5,10,M,,M,,*6D
06/25/2015	10:09:33.599	$GPGGA,100934,2514.2197,N,07950.2800,W,1,10,1.5,10,M,,M,,*65
06/25/2015	10:09:34.581	$GPGGA,100935,2514.2196,N,07950.2799,W,1,10,1.5,10,M,,M,,*6A
06/25/2015	10:09:35.609	$GPGGA,100936,2514.2198,N,07950.2803,W,1,10,1.5,10,M,,M,,*6B
06/25/2015	10:09:36.569	$GPGGA,100937,2514.2197,N,07950.2804,W,1,10,1.5,10,M,,M,,*62
06/25/2015	10:09:37.589	$GPGGA,100938,2514.2198,N,07950.2805,W,1,10,1.5,10,M,,M,,*63
06/25/2015	10:09:38.579	$GPGGA,100939,2514.2197,N,07950.2807,W,1,10,1.5,10,M,,M,,*6F
06/25/2015	10:09:39.609	$GPGGA,100940,2514.2196,N,07950.2809,W,1,10,1.5,10,M,,M,,*6E
06/25/2015	10:09:40.559	$GPGGA,100941,2514.2197,N,07950.2811,W,1,10,1.5,10,M,,M,,*67
06/25/2015	10:09:41.580	$GPGGA,100942,2514.2196,N,07950.2810,W,1,9,1.5,10,M,,M,,*5C
06/25/2015	10:09:42.570	$GPGGA,100943,2514.2195,N,07950.2812,W,1,9,1.5,10,M,,M,,*5C
06/25/2015	10:09:43.589	$GPGGA,100944,2514.2195,N,07950.2814,W,1,9,1.5,10,M,,M,,*5D
06/25/2015	10:09:44.559	$GPGGA,100945,2514.2195,N,07950.2815,W,1,9,1.5,10,M,,M,,*5D
06/25/2015	10:09:45.580	$GPGGA,100946,2514.2195,N,07950.2815,W,1,10,1.5,10,M,,M,,*66
06/25/2015	10:09:46.549	$GPGGA,100947,2514.2195,N,07950.2818,W,1,10,1.5,10,M,,M,,*6A
06/25/2015	10:09:47.589	$GPGGA,100948,2514.2195,N,07950.2819,W,1,10,1.5,10,M,,M,,*64
06/25/2015	10:09:48.559	$GPGGA,100949,2514.2195,N,07950.2821,W,1,10,1.5,10,M,,M,,*6E
06/25/2015	10:09:49.548	$GPGGA,100950,2514.2195,N,07950.2822,W,1,10,1.5,10,M,,M,,*65
06/25/2015	10:09:50.559	$GPGGA,100951,2514.2193,N,07950.2822,W,1,10,1.5,10,M,,M,,*62
06/25/2015	10:09:51.583	$GPGGA,100952,2514.2194,N,07950.2825,W,1,10,1.5,10,M,,M,,*61
06/25/2015	10:09:52.549	$GPGGA,100953,2514.2193,N,07950.2826,W,1,10,1.5,10,M,,M,,*64
06/25/2015	10:09:53.549	$GPGGA,100954,2514.2194,N,07950.2826,W,1,10,1.5,10,M,,M,,*64
06/25/2015	10:09:54.539	$GPGGA,100955,2514.2193,N,07950.2827,W,1,10,1.5,10,M,,M,,*63
06/25/2015	10:09:55.569	$GPGGA,100956,2514.2195,N,07950.2830,W,1,10,1.5,10,M,,M,,*60
06/25/2015	10:09:56.529	$GPGGA,100957,2514.2193,N,07950.2830,W,1,10,1.5,10,M,,M,,*67
06/25/2015	10:09:57.539	$GPGGA,100958,2514.2195,N,07950.2832,W,1,9,1.5,10,M,,M,,*54
06/25/2015	10:09:58.519	$GPGGA,100959,2514.2195,N,07950.2834,W,1,9,1.6,10,M,,M,,*50
06/25/2015	10:09:59.729	$GPGGA,101000,2514.2195,N,07950.2836,W,1,10,1.5,11,M,,M,,*6C
06/25/2015	10:10:00.529	$GPGGA,101001,2514.2195,N,07950.2836,W,1,10,1.5,11,M,,M,,*6D
06/25/2015	10:10:01.539	$GPGGA,101002,2514.2195,N,07950.2839,W,1,10,1.5,11,M,,M,,*61
06/25/2015	10:10:02.529	$GPGGA,101003,2514.2195,N,07950.2840,W,1,10,1.5,11,M,,M,,*6E
06/25/2015	10:10:03.549	$GPGGA,101004,2514.2195,N,07950.2839,W,1,10,1.5,11,M,,M,,*67
06/25/2015	10:10:04.529	$GPGGA,101005,2514.2195,N,07950.2840,W,1,10,1.5,11,M,,M,,*68
06/25/2015	10:10:05.559	$GPGGA,101006,2514.2197,N,07950.2843,W,1,8,1.6,11,M,,M,,*50
06/25/2015	10:10:06.509	$GPGGA,101007,2514.2196,N,07950.2845,W,1,8,1.5,11,M,,M,,*55
06/25/2015	10:10:07.709	$GPGGA,101008,2514.2198,N,07950.2845,W,1,10,1.5,11,M,,M,,*6D
06/25/2015	10:10:08.529	$GPGGA,101009,2514.2197,N,07950.2848,W,1,10,1.5,11,M,,M,,*6E
06/25/2015	10:10:09.689	$GPGGA,101010,2514.2199,N,07950.2851,W,1,9,1.5,11,M,,M,,*58
06/25/2015	10:10:10.519	$GPGGA,101011,2514.2199,N,07950.2852,W,1,9,1.5,11,M,,M,,*5A
06/25/2015	10:10:11.529	$GPGGA,101012,2514.2201,N,07950.2854,W,1,10,1.5,11,M,,M,,*65
06/25/2015	10:10:12.639	$GPGGA,101013,2514.2199,N,07950.2855,W,1,10,1.5,11,M,,M,,*67
06/25/2015	10:10:13.589	$GPGGA,101014,2514.2201,N,07950.2858,W,1,9,1.5,11,M,,M,,*57
06/25/2015	10:10:14.499	$GPGGA,101015,2514.2200,N,07950.2857,W,1,9,1.5,11,M,,M,,*58
06/25/2015	10:10:15.699	$GPGGA,101016,2514.2201,N,07950.2858,W,1,10,1.5,11,M,,M,,*6D
06/25/2015	10:10:16.619	$GPGGA,101017,2514.2202,N,07950.2862,W,1,10,1.5,11,M,,M,,*66
06/25/2015	10:10:17.699	$GPGGA,101018,2514.2202,N,07950.2865,W,1,10,1.5,11,M,,M,,*6E
06/25/2015	10:10:18.609	$GPGGA,101019,2514.2202,N,07950.2864,W,1,10,1.5,11,M,,M,,*6E
06/25/2015	10:10:19.589	$GPGGA,101020,2514.2202,N,07950.2865,W,1,10,1.5,11,M,,M,,*65
06/25/2015	10:10:20.609	$GPGGA,101021,2514.2202,N,07950.2869,W,1,10,1.5,11,M,,M,,*68
06/25/2015	10:10:21.689	$GPGGA,101022,2514.2205,N,07950.2872,W,1,10,1.5,11,M,,M,,*66
06/25/2015	10:10:22.579	$GPGGA,101023,2514.2204,N,07950.2871,W,1,10,1.5,11,M,,M,,*65
06/25/2015	10:10:23.699	$GPGGA,101024,2514.2205,N,07950.2872,W,1,10,1.5,11,M,,M,,*60
06/25/2015	10:10:24.598	$GPGGA,101025,2514.2206,N,07950.2876,W,1,10,1.5,11,M,,M,,*66
06/25/2015	10:10:25.569	$GPGGA,101026,2514.2206,N,07950.2879,W,1,10,1.5,11,M,,M,,*6A
06/25/2015	10:10:26.569	$GPGGA,101027,2514.2206,N,07950.2878,W,1,10,1.5,11,M,,M,,*6A
06/25/2015	10:10:27.682	$GPGGA,101028,2514.2206,N,07950.2879,W,1,10,1.5,11,M,,M,,*64
06/25/2015	10:10:28.599	$GPGGA,101029,2514.2208,N,07950.2883,W,1,10,1.5,11,M,,M,,*6E
06/25/2015	10:10:29.682	$GPGGA,101030,2514.2209,N,07950.2887,W,1,10,1.5,11,M,,M,,*63
06/25/2015	10:10:30.589	$GPGGA,101031,2514.2208,N,07950.2885,W,1,10,1.5,11,M,,M,,*61
06/25/2015	10:10:31.670	$GPGGA,101032,2514.2209,N,07950.2887,W,1,10,1.5,11,M,,M,,*61
06/25/2015	10:10:32.559	$GPGGA,101033,2514.2211,N,07950.2891,W,1,10,1.5,11,M,,M,,*6E
06/25/2015	10:10:33.559	$GPGGA,101034,2514.2212,N,07950.2894,W,1,10,1.5,11,M,,M,,*6F
06/25/2015	10:10:34.589	$GPGGA,101035,2514.2213,N,07950.2895,W,1,10,1.5,11,M,,M,,*6E
06/25/2015	10:10:37.919	$GPGGA,101038,2514.2216,N,07950.2904,W,1,10,1.5,11,M,,M,,*6F
06/25/2015	10:10:38.580	$GPGGA,101039,2514.2215,N,07950.2905,W,1,10,1.5,11,M,,M,,*6C
06/25/2015	10:10:39.659	$GPGGA,101040,2514.2216,N,07950.2908,W,1,9,1.5,11,M,,M,,*54
06/25/2015	10:10:40.579	$GPGGA,101041,2514.2215,N,07950.2909,W,1,9,1.5,11,M,,M,,*57
06/25/2015	10:10:41.609	$GPGGA,101042,2514.2216,N,07950.2910,W,1,10,1.5,11,M,,M,,*67
06/25/2015	10:10:42.568	$GPGGA,101043,2514.2216,N,07950.2913,W,1,10,1.5,11,M,,M,,*65
06/25/2015	10:10:43.619	$GPGGA,101044,2514.2216,N,07950.2915,W,1,10,1.5,11,M,,M,,*64
06/25/2015	10:10:44.529	$GPGGA,101045,2514.2217,N,07950.2917,W,1,10,1.5,11,M,,M,,*66
06/25/2015	10:10:45.619	$GPGGA,101046,2514.2217,N,07950.2919,W,1,10,1.5,11,M,,M,,*6B
06/25/2015	10:10:46.559	$GPGGA,101047,2514.2217,N,07950.2921,W,1,10,1.5,11,M,,M,,*61
06/25/2015	10:10:47.539	$GPGGA,101048,2514.2219,N,07950.2924,W,1,10,1.5,11,M,,M,,*65
06/25/2015	10:10:48.649	$GPGGA,101049,2514.2220,N,07950.2926,W,1,10,1.5,11,M,,M,,*6C
06/25/2015	10:10:49.519	$GPGGA,101050,2514.2220,N,07950.2926,W,1,10,1.5,11,M,,M,,*64
06/25/2015	10:10:50.639	$GPGGA,101051,2514.2220,N,07950.2930,W,1,10,1.5,11,M,,M,,*62
06/25/2015	10:10:51.529	$GPGGA,101052,2514.2220,N,07950.2933,W,1,10,1.5,11,M,,M,,*62
06/25/2015	10:10:52.560	$GPGGA,101053,2514.2222,N,07950.2932,W,1,10,1.5,11,M,,M,,*60
06/25/2015	10:10:53.649	$GPGGA,101054,2514.2221,N,07950.2934,W,1,10,1.5,11,M,,M,,*62
06/25/2015	10:10:54.549	$GPGGA,101055,2514.2223,N,07950.2937,W,1,10,1.5,11,M,,M,,*62
06/25/2015	10:10:55.629	$GPGGA,101056,2514.2222,N,07950.2938,W,1,10,1.5,11,M,,M,,*6F
06/25/2015	10:10:56.609	$GPGGA,101057,2514.2223,N,07950.2939,W,1,10,1.5,11,M,,M,,*6E
06/25/2015	10:10:57.599	$GPGGA,101058,2514.2224,N,07950.2942,W,1,10,1.5,11,M,,M,,*6A
06/25/2015	10:10:58.539	$GPGGA,101059,2514.2224,N,07950.2945,W,1,10,1.5,11,M,,M,,*6C
06/25/2015	10:10:59.609	$GPGGA,101100,2514.2224,N,07950.2946,W,1,10,1.5,11,M,,M,,*62
06/25/2015	10:11:00.599	$GPGGA,101101,2514.2224,N,07950.2948,W,1,10,1.5,11,M,,M,,*6D
06/25/2015	10:11:01.649	$GPGGA,101102,2514.2224,N,07950.2951,W,1,10,1.5,11,M,,M,,*66
06/25/2015	10:11:02.599	$GPGGA,101103,2514.2226,N,07950.2952,W,1,10,1.5,11,M,,M,,*66
06/25/2015	10:11:03.629	$GPGGA,101104,2514.2225,N,07950.2953,W,1,10,1.5,11,M,,M,,*63
06/25/2015	10:11:04.599	$GPGGA,101105,2514.2226,N,07950.2955,W,1,10,1.5,11,M,,M,,*67
06/25/2015	10:11:05.609	$GPGGA,101106,2514.2227,N,07950.2957,W,1,10,1.5,11,M,,M,,*67
06/25/2015	10:11:06.589	$GPGGA,101107,2514.2226,N,07950.2959,W,1,10,1.5,11,M,,M,,*69
06/25/2015	10:11:07.649	$GPGGA,101108,2514.2227,N,07950.2960,W,1,10,1.5,11,M,,M,,*6D
06/25/2015	10:11:08.589	$GPGGA,101109,2514.2226,N,07950.2962,W,1,10,1.5,11,M,,M,,*6F
06/25/2015	10:11:09.585	$GPGGA,101110,2514.2227,N,07950.2963,W,1,9,1.5,11,M,,M,,*5F
06/25/2015	10:11:10.599	$GPGGA,101111,2514.2227,N,07950.2966,W,1,9,1.5,11,M,,M,,*5B
06/25/2015	10:11:11.599	$GPGGA,101112,2514.2229,N,07950.2966,W,1,10,1.5,11,M,,M,,*6E
06/25/2015	10:11:12.570	$GPGGA,101113,2514.2227,N,07950.2966,W,1,10,1.5,11,M,,M,,*61
06/25/2015	10:11:13.589	$GPGGA,101114,2514.2229,N,07950.2967,W,1,10,1.5,11,M,,M,,*69
06/25/2015	10:11:14.562	$GPGGA,101115,2514.2230,N,07950.2970,W,1,10,1.5,11,M,,M,,*66
06/25/2015	10:11:15.619	$GPGGA,101116,2514.2229,N,07950.2970,W,1,10,1.5,11,M,,M,,*6D
06/25/2015	10:11:16.561	$GPGGA,101117,2514.2228,N,07950.2970,W,1,10,1.5,11,M,,M,,*6D
06/25/2015	10:11:17.588	$GPGGA,101118,2514.2231,N,07950.2973,W,1,10,1.5,11,M,,M,,*69
06/25/2015	10:11:18.560	$GPGGA,101119,2514.2231,N,07950.2977,W,1,10,1.5,11,M,,M,,*6C
06/25/2015	10:11:19.628	$GPGGA,101120,2514.2231,N,07950.2975,W,1,10,1.5,11,M,,M,,*64
06/25/2015	10:11:20.574	$GPGGA,101121,2514.2233,N,07950.2977,W,1,10,1.5,11,M,,M,,*65
06/25/2015	10:11:21.578	$GPGGA,101122,2514.2234,N,07950.2980,W,1,10,1.5,11,M,,M,,*69
06/25/2015	10:11:22.578	$GPGGA,101123,2514.2234,N,07950.2979,W,1,10,1.5,11,M,,M,,*6E
06/25/2015	10:11:23.598	$GPGGA,101124,2514.2234,N,07950.2980,W,1,10,1.5,11,M,,M,,*6F
06/25/2015	10:11:24.538	$GPGGA,101125,2514.2235,N,07950.2982,W,1,10,1.5,11,M,,M,,*6D
06/25/2015	10:11:25.578	$GPGGA,101126,2514.2237,N,07950.2984,W,1,10,1.5,11,M,,M,,*6A
06/25/2015	10:11:26.548	$GPGGA,101127,2514.2238,N,07950.2983,W,1,10,1.5,11,M,,M,,*63
06/25/2015	10:11:27.578	$GPGGA,101128,2514.2238,N,07950.2983,W,1,10,1.5,11,M,,M,,*6C
06/25/2015	10:11:28.549	$GPGGA,101129,2514.2238,N,07950.2986,W,1,10,1.5,11,M,,M,,*68
06/25/2015	10:11:29.579	$GPGGA,101130,2514.2238,N,07950.2988,W,1,10,1.5,11,M,,M,,*6E
06/25/2015	10:11:30.539	$GPGGA,101131,2514.2238,N,07950.2987,W,1,10,1.5,11,M,,M,,*60
06/25/2015	10:11:31.599	$GPGGA,101132,2514.2240,N,07950.2989,W,1,10,1.5,11,M,,M,,*62
06/25/2015	10:11:32.861	$GPGGA,101133,2514.2241,N,07950.2992,W,1,10,1.5,11,M,,M,,*68
06/25/2015	10:11:33.629	$GPGGA,101134,2514.2241,N,07950.2992,W,1,10,1.5,11,M,,M,,*6F
06/25/2015	10:11:34.538	$GPGGA,101135,2514.2242,N,07950.2993,W,1,10,1.5,11,M,,M,,*6C
06/25/2015	10:11:35.558	$GPGGA,101136,2514.2242,N,07950.2993,W,1,10,1.5,11,M,,M,,*6F
06/25/2015	10:11:36.528	$GPGGA,101137,2514.2245,N,07950.2998,W,1,10,1.5,11,M,,M,,*62
06/25/2015	10:11:38.065	$GPGGA,101138,2514.2244,N,07950.2999,W,1,10,1.5,11,M,,M,,*6D
06/25/2015	10:11:38.568	$GPGGA,101139,2514.2245,N,07950.3000,W,1,10,1.5,11,M,,M,,*65
06/25/2015	10:11:39.588	$GPGGA,101140,2514.2248,N,07950.3002,W,1,10,1.5,11,M,,M,,*64
06/25/2015	10:11:40.528	$GPGGA,101141,2514.2247,N,07950.3003,W,1,10,1.5,11,M,,M,,*6B
06/25/2015	10:11:41.628	$GPGGA,101142,2514.2249,N,07950.3004,W,1,10,1.5,11,M,,M,,*61
06/25/2015	10:11:42.528	$GPGGA,101143,2514.2249,N,07950.3004,W,1,10,1.5,11,M,,M,,*60
06/25/2015	10:11:43.548	$GPGGA,101144,2514.2249,N,07950.3009,W,1,10,1.5,11,M,,M,,*6A
06/25/2015	10:11:44.508	$GPGGA,101145,2514.2251,N,07950.3010,W,1,10,1.5,11,M,,M,,*6A
06/25/2015	10:11:45.589	$GPGGA,101146,2514.2250,N,07950.3011,W,1,10,1.5,11,M,,M,,*69
06/25/2015	10:11:46.539	$GPGGA,101147,2514.2252,N,07950.3013,W,1,10,1.5,11,M,,M,,*68
06/25/2015	10:11:47.609	$GPGGA,101148,2514.2253,N,07950.3016,W,1,10,1.5,11,M,,M,,*63
06/25/2015	10:11:48.509	$GPGGA,101149,2514.2253,N,07950.3017,W,1,10,1.5,11,M,,M,,*63
06/25/2015	10:11:49.599	$GPGGA,101150,2514.2251,N,07950.3016,W,1,9,1.5,11,M,,M,,*50
06/25/2015	10:11:50.589	$GPGGA,101151,2514.2252,N,07950.3017,W,1,9,1.5,11,M,,M,,*53
06/25/2015	10:11:51.619	$GPGGA,101152,2514.2251,N,07950.3020,W,1,10,1.5,11,M,,M,,*6F
