Software Version Number: 1	Data File Format Number: 1	Build Version Number: 1	Error Count Since VI Started: 1	Manufacturer: Raytheon	 Model Number: RayMarine 120	 S/N: 	 Cal Date: 	 Wind Direction Offset: 0.00	 Slope (M)1: 0.00	 Offset (B)1: 0.00	 Slope (M)2: 0.00	 Offset (B)2: 0.00	 Slope (M)3: 0.00	 Offset (B)3: 0.00	 Slope (M)4: 0.00	 Offset (B)4: 0.00	 Slope (M)5: 0.00	 Offset (B)5: 0.00	 Slope (M)6: 0.00	 Offset (B)6: 0.00
Computer Date	Computer Time	GGA String
06/15/2015	14:00:00.522	$GPGGA,140001,2425.1037,N,08055.5987,W,1,8,1.9,18,M,,M,,*52
06/15/2015	14:00:01.512	$GPGGA,140002,2425.1032,N,08055.5976,W,1,8,1.9,18,M,,M,,*5A
06/15/2015	14:00:02.522	$GPGGA,140003,2425.1028,N,08055.5967,W,1,8,1.9,18,M,,M,,*50
06/15/2015	14:00:03.532	$GPGGA,140004,2425.1021,N,08055.5957,W,1,8,1.9,18,M,,M,,*5D
06/15/2015	14:00:04.502	$GPGGA,140005,2425.1017,N,08055.5947,W,1,8,1.9,18,M,,M,,*58
06/15/2015	14:00:05.502	$GPGGA,140006,2425.1013,N,08055.5937,W,1,8,1.9,18,M,,M,,*58
06/15/2015	14:00:06.492	$GPGGA,140007,2425.1007,N,08055.5928,W,1,8,1.9,18,M,,M,,*52
06/15/2015	14:00:07.512	$GPGGA,140008,2425.1003,N,08055.5919,W,1,8,1.9,18,M,,M,,*5B
06/15/2015	14:00:08.491	$GPGGA,140009,2425.0999,N,08055.5908,W,1,8,1.9,18,M,,M,,*51
06/15/2015	14:00:09.491	$GPGGA,140010,2425.0993,N,08055.5898,W,1,8,1.9,18,M,,M,,*5B
06/15/2015	14:00:10.581	$GPGGA,140011,2425.0988,N,08055.5889,W,1,8,1.9,18,M,,M,,*50
06/15/2015	14:00:11.531	$GPGGA,140012,2425.0983,N,08055.5879,W,1,8,1.9,18,M,,M,,*57
06/15/2015	14:00:12.581	$GPGGA,140013,2425.0979,N,08055.5868,W,1,8,1.9,18,M,,M,,*53
06/15/2015	14:00:13.661	$GPGGA,140014,2425.0972,N,08055.5858,W,1,8,4.1,18,M,,M,,*51
06/15/2015	14:00:14.491	$GPGGA,140015,2425.0966,N,08055.5848,W,1,8,4.1,18,M,,M,,*54
06/15/2015	14:00:15.671	$GPGGA,140016,2425.0963,N,08055.5838,W,1,7,2.4,18,M,,M,,*59
06/15/2015	14:00:16.591	$GPGGA,140017,2425.0956,N,08055.5828,W,1,7,2.4,18,M,,M,,*5F
06/15/2015	14:00:17.671	$GPGGA,140018,2425.0954,N,08055.5820,W,1,7,1.9,18,M,,M,,*54
06/15/2015	14:00:18.611	$GPGGA,140019,2425.0947,N,08055.5811,W,1,7,1.9,18,M,,M,,*55
06/15/2015	14:00:19.661	$GPGGA,140020,2425.0941,N,08055.5800,W,1,7,2.4,18,M,,M,,*57
06/15/2015	14:00:20.591	$GPGGA,140021,2425.0939,N,08055.5790,W,1,7,2.4,18,M,,M,,*5F
06/15/2015	14:00:21.652	$GPGGA,140022,2425.0932,N,08055.5780,W,1,8,2.4,18,M,,M,,*59
06/15/2015	14:00:22.562	$GPGGA,140023,2425.0925,N,08055.5772,W,1,8,2.4,18,M,,M,,*53
06/15/2015	14:00:23.562	$GPGGA,140024,2425.0920,N,08055.5761,W,1,8,1.9,18,M,,M,,*5D
06/15/2015	14:00:24.582	$GPGGA,140025,2425.0916,N,08055.5750,W,1,8,1.9,17,M,,M,,*54
06/15/2015	14:00:25.649	$GPGGA,140026,2425.0909,N,08055.5742,W,1,8,1.9,17,M,,M,,*5A
06/15/2015	14:00:26.601	$GPGGA,140027,2425.0903,N,08055.5733,W,1,8,2.1,17,M,,M,,*5C
06/15/2015	14:00:27.561	$GPGGA,140028,2425.0898,N,08055.5724,W,1,7,2.1,17,M,,M,,*59
06/15/2015	14:00:28.543	$GPGGA,140029,2425.0892,N,08055.5715,W,1,7,1.9,17,M,,M,,*5B
06/15/2015	14:00:29.645	$GPGGA,140030,2425.0887,N,08055.5706,W,1,8,1.9,17,M,,M,,*5A
06/15/2015	14:00:30.591	$GPGGA,140031,2425.0881,N,08055.5698,W,1,8,2.1,17,M,,M,,*50
06/15/2015	14:00:31.661	$GPGGA,140032,2425.0876,N,08055.5688,W,1,7,2.4,17,M,,M,,*50
06/15/2015	14:00:32.561	$GPGGA,140033,2425.0869,N,08055.5680,W,1,7,1.9,17,M,,M,,*59
06/15/2015	14:00:33.643	$GPGGA,140034,2425.0862,N,08055.5671,W,1,8,1.9,17,M,,M,,*54
06/15/2015	14:00:34.531	$GPGGA,140035,2425.0856,N,08055.5661,W,1,8,1.9,17,M,,M,,*53
06/15/2015	14:00:35.661	$GPGGA,140036,2425.0851,N,08055.5652,W,1,8,2.4,17,M,,M,,*59
06/15/2015	14:00:36.561	$GPGGA,140037,2425.0844,N,08055.5645,W,1,8,1.9,17,M,,M,,*54
06/15/2015	14:00:37.645	$GPGGA,140038,2425.0840,N,08055.5637,W,1,8,1.9,17,M,,M,,*5A
06/15/2015	14:00:38.561	$GPGGA,140039,2425.0836,N,08055.5627,W,1,8,2.4,17,M,,M,,*55
06/15/2015	14:00:39.644	$GPGGA,140040,2425.0833,N,08055.5620,W,1,7,2.4,17,M,,M,,*56
06/15/2015	14:00:40.522	$GPGGA,140041,2425.0827,N,08055.5613,W,1,7,1.9,18,M,,M,,*53
06/15/2015	14:00:41.592	$GPGGA,140042,2425.0823,N,08055.5604,W,1,8,1.9,18,M,,M,,*5D
06/15/2015	14:00:42.542	$GPGGA,140043,2425.0819,N,08055.5595,W,1,8,1.9,18,M,,M,,*5E
06/15/2015	14:00:43.857	$GPGGA,140044,2425.0813,N,08055.5589,W,1,8,1.9,18,M,,M,,*5E
06/15/2015	14:00:44.511	$GPGGA,140045,2425.0807,N,08055.5582,W,1,8,1.9,18,M,,M,,*51
06/15/2015	14:00:45.612	$GPGGA,140046,2425.0802,N,08055.5570,W,1,8,1.9,18,M,,M,,*5A
06/15/2015	14:00:46.511	$GPGGA,140047,2425.0797,N,08055.5561,W,1,8,1.9,18,M,,M,,*58
06/15/2015	14:00:47.511	$GPGGA,140048,2425.0790,N,08055.5555,W,1,8,1.9,18,M,,M,,*57
06/15/2015	14:00:48.537	$GPGGA,140049,2425.0783,N,08055.5546,W,1,8,1.9,19,M,,M,,*57
06/15/2015	14:00:49.591	$GPGGA,140050,2425.0779,N,08055.5535,W,1,7,1.9,19,M,,M,,*51
06/15/2015	14:00:50.501	$GPGGA,140051,2425.0775,N,08055.5526,W,1,7,1.9,19,M,,M,,*5E
06/15/2015	14:00:51.601	$GPGGA,140052,2425.0768,N,08055.5519,W,1,8,1.9,19,M,,M,,*52
06/15/2015	14:00:52.531	$GPGGA,140053,2425.0761,N,08055.5511,W,1,8,1.9,19,M,,M,,*52
06/15/2015	14:00:53.601	$GPGGA,140054,2425.0757,N,08055.5501,W,1,8,1.9,19,M,,M,,*51
06/15/2015	14:00:54.533	$GPGGA,140055,2425.0751,N,08055.5491,W,1,8,2.4,19,M,,M,,*50
06/15/2015	14:00:55.611	$GPGGA,140056,2425.0748,N,08055.5483,W,1,7,2.4,19,M,,M,,*57
06/15/2015	14:00:56.602	$GPGGA,140057,2425.0743,N,08055.5476,W,1,7,1.9,19,M,,M,,*59
06/15/2015	14:00:57.592	$GPGGA,140058,2425.0739,N,08055.5467,W,1,8,2.4,20,M,,M,,*50
06/15/2015	14:00:58.502	$GPGGA,140059,2425.0737,N,08055.5458,W,1,8,2.4,20,M,,M,,*53
06/15/2015	14:00:59.592	$GPGGA,140100,2425.0733,N,08055.5448,W,1,8,1.9,20,M,,M,,*55
06/15/2015	14:01:00.482	$GPGGA,140101,2425.0728,N,08055.5441,W,1,8,1.9,20,M,,M,,*57
06/15/2015	14:01:01.561	$GPGGA,140102,2425.0722,N,08055.5433,W,1,8,1.9,20,M,,M,,*5B
06/15/2015	14:01:02.571	$GPGGA,140103,2425.0718,N,08055.5422,W,1,8,1.9,20,M,,M,,*53
06/15/2015	14:01:03.635	$GPGGA,140104,2425.0714,N,08055.5412,W,1,8,1.9,20,M,,M,,*5B
06/15/2015	14:01:04.591	$GPGGA,140105,2425.0708,N,08055.5403,W,1,8,1.9,21,M,,M,,*56
06/15/2015	14:01:05.571	$GPGGA,140106,2425.0700,N,08055.5394,W,1,8,2.4,21,M,,M,,*5A
06/15/2015	14:01:06.571	$GPGGA,140107,2425.0695,N,08055.5384,W,1,8,1.9,21,M,,M,,*59
06/15/2015	14:01:07.581	$GPGGA,140108,2425.0690,N,08055.5372,W,1,8,1.9,21,M,,M,,*5A
06/15/2015	14:01:08.571	$GPGGA,140109,2425.0683,N,08055.5362,W,1,8,1.9,21,M,,M,,*58
06/15/2015	14:01:09.611	$GPGGA,140110,2425.0676,N,08055.5354,W,1,8,1.9,21,M,,M,,*5F
06/15/2015	14:01:10.561	$GPGGA,140111,2425.0671,N,08055.5343,W,1,8,1.9,21,M,,M,,*5F
06/15/2015	14:01:11.571	$GPGGA,140112,2425.0664,N,08055.5332,W,1,8,1.9,21,M,,M,,*5E
06/15/2015	14:01:12.561	$GPGGA,140113,2425.0659,N,08055.5321,W,1,8,1.9,21,M,,M,,*53
06/15/2015	14:01:13.561	$GPGGA,140114,2425.0654,N,08055.5312,W,1,8,1.9,21,M,,M,,*59
06/15/2015	14:01:14.552	$GPGGA,140115,2425.0648,N,08055.5304,W,1,8,1.9,21,M,,M,,*52
06/15/2015	14:01:15.602	$GPGGA,140116,2425.0641,N,08055.5294,W,1,8,1.9,21,M,,M,,*50
06/15/2015	14:01:16.552	$GPGGA,140117,2425.0638,N,08055.5283,W,1,8,1.9,21,M,,M,,*59
06/15/2015	14:01:17.612	$GPGGA,140118,2425.0634,N,08055.5273,W,1,8,1.9,20,M,,M,,*54
06/15/2015	14:01:18.551	$GPGGA,140119,2425.0627,N,08055.5266,W,1,8,1.9,20,M,,M,,*53
06/15/2015	14:01:19.591	$GPGGA,140120,2425.0621,N,08055.5257,W,1,8,1.9,20,M,,M,,*5D
06/15/2015	14:01:20.535	$GPGGA,140121,2425.0620,N,08055.5245,W,1,8,1.9,20,M,,M,,*5E
06/15/2015	14:01:21.572	$GPGGA,140122,2425.0616,N,08055.5235,W,1,8,1.9,20,M,,M,,*5F
06/15/2015	14:01:22.541	$GPGGA,140123,2425.0609,N,08055.5227,W,1,8,1.9,20,M,,M,,*53
06/15/2015	14:01:23.581	$GPGGA,140124,2425.0605,N,08055.5218,W,1,8,1.9,20,M,,M,,*54
06/15/2015	14:01:24.531	$GPGGA,140125,2425.0599,N,08055.5208,W,1,8,1.9,20,M,,M,,*52
06/15/2015	14:01:25.611	$GPGGA,140126,2425.0595,N,08055.5196,W,1,8,1.9,20,M,,M,,*59
06/15/2015	14:01:26.533	$GPGGA,140127,2425.0591,N,08055.5187,W,1,8,1.9,20,M,,M,,*5C
06/15/2015	14:01:27.571	$GPGGA,140128,2425.0584,N,08055.5180,W,1,8,1.9,20,M,,M,,*50
06/15/2015	14:01:28.521	$GPGGA,140129,2425.0580,N,08055.5171,W,1,8,1.9,20,M,,M,,*5B
06/15/2015	14:01:29.581	$GPGGA,140130,2425.0575,N,08055.5159,W,1,8,1.9,20,M,,M,,*53
06/15/2015	14:01:30.521	$GPGGA,140131,2425.0571,N,08055.5150,W,1,8,1.9,20,M,,M,,*5F
06/15/2015	14:01:31.562	$GPGGA,140132,2425.0565,N,08055.5142,W,1,8,1.9,20,M,,M,,*5A
06/15/2015	14:01:32.522	$GPGGA,140133,2425.0562,N,08055.5134,W,1,8,2.4,20,M,,M,,*53
06/15/2015	14:01:33.552	$GPGGA,140134,2425.0557,N,08055.5123,W,1,7,2.4,20,M,,M,,*5B
06/15/2015	14:01:34.532	$GPGGA,140135,2425.0555,N,08055.5113,W,1,7,1.9,19,M,,M,,*5F
06/15/2015	14:01:35.562	$GPGGA,140136,2425.0549,N,08055.5106,W,1,8,1.9,19,M,,M,,*5A
06/15/2015	14:01:36.535	$GPGGA,140137,2425.0544,N,08055.5097,W,1,8,4.0,19,M,,M,,*53
06/15/2015	14:01:37.535	$GPGGA,140138,2425.0544,N,08055.5097,W,1,6,4.0,19,M,,M,,*52
06/15/2015	14:01:38.534	$GPGGA,140139,2425.0538,N,08055.5077,W,1,6,1.9,19,M,,M,,*5A
06/15/2015	14:01:39.551	$GPGGA,140140,2425.0538,N,08055.5077,W,1,8,1.9,19,M,,M,,*5A
06/15/2015	14:01:40.501	$GPGGA,140141,2425.0527,N,08055.5063,W,1,8,2.4,19,M,,M,,*5E
06/15/2015	14:01:41.521	$GPGGA,140142,2425.0523,N,08055.5052,W,1,7,2.4,19,M,,M,,*54
06/15/2015	14:01:42.501	$GPGGA,140143,2425.0518,N,08055.5043,W,1,7,2.4,19,M,,M,,*5D
06/15/2015	14:01:43.591	$GPGGA,140144,2425.0518,N,08055.5043,W,1,8,1.9,19,M,,M,,*5B
06/15/2015	14:01:44.491	$GPGGA,140145,2425.0506,N,08055.5029,W,1,8,2.4,19,M,,M,,*57
06/15/2015	14:01:45.511	$GPGGA,140146,2425.0506,N,08055.5029,W,1,7,2.4,19,M,,M,,*5B
06/15/2015	14:01:46.511	$GPGGA,140147,2425.0500,N,08055.5009,W,1,7,1.9,19,M,,M,,*50
06/15/2015	14:01:47.511	$GPGGA,140148,2425.0493,N,08055.5003,W,1,8,1.9,19,M,,M,,*51
06/15/2015	14:01:48.491	$GPGGA,140149,2425.0487,N,08055.4993,W,1,8,2.4,19,M,,M,,*5A
06/15/2015	14:01:49.492	$GPGGA,140150,2425.0487,N,08055.4993,W,1,7,2.4,19,M,,M,,*5D
06/15/2015	14:01:50.492	$GPGGA,140151,2425.0476,N,08055.4972,W,1,7,1.9,19,M,,M,,*53
06/15/2015	14:01:51.622	$GPGGA,140152,2425.0469,N,08055.4965,W,1,8,1.9,19,M,,M,,*57
06/15/2015	14:01:52.482	$GPGGA,140153,2425.0465,N,08055.4954,W,1,8,1.9,19,M,,M,,*58
06/15/2015	14:01:53.561	$GPGGA,140154,2425.0465,N,08055.4954,W,1,8,1.9,19,M,,M,,*5F
06/15/2015	14:01:54.481	$GPGGA,140155,2425.0461,N,08055.4942,W,1,8,1.9,19,M,,M,,*5D
06/15/2015	14:01:55.481	$GPGGA,140156,2425.0455,N,08055.4934,W,1,8,1.9,19,M,,M,,*58
06/15/2015	14:01:56.571	$GPGGA,140157,2425.0445,N,08055.4916,W,1,8,4.0,18,M,,M,,*55
06/15/2015	14:01:57.561	$GPGGA,140158,2425.0441,N,08055.4905,W,1,8,1.9,18,M,,M,,*50
06/15/2015	14:01:58.561	$GPGGA,140159,2425.0437,N,08055.4897,W,1,8,1.9,18,M,,M,,*5A
06/15/2015	14:01:59.634	$GPGGA,140200,2425.0432,N,08055.4891,W,1,8,1.9,18,M,,M,,*56
06/15/2015	14:02:00.561	$GPGGA,140201,2425.0428,N,08055.4880,W,1,8,2.4,18,M,,M,,*52
06/15/2015	14:02:01.591	$GPGGA,140202,2425.0423,N,08055.4869,W,1,8,1.9,18,M,,M,,*53
06/15/2015	14:02:02.545	$GPGGA,140203,2425.0418,N,08055.4861,W,1,8,1.9,18,M,,M,,*52
06/15/2015	14:02:03.591	$GPGGA,140204,2425.0412,N,08055.4852,W,1,8,1.9,18,M,,M,,*5F
06/15/2015	14:02:04.551	$GPGGA,140205,2425.0407,N,08055.4841,W,1,8,1.9,18,M,,M,,*58
06/15/2015	14:02:05.571	$GPGGA,140206,2425.0403,N,08055.4831,W,1,8,1.9,18,M,,M,,*58
06/15/2015	14:02:06.542	$GPGGA,140207,2425.0397,N,08055.4823,W,1,8,1.9,18,M,,M,,*50
06/15/2015	14:02:07.572	$GPGGA,140208,2425.0392,N,08055.4814,W,1,8,1.9,18,M,,M,,*5E
06/15/2015	14:02:08.547	$GPGGA,140209,2425.0387,N,08055.4803,W,1,8,2.4,18,M,,M,,*53
06/15/2015	14:02:09.562	$GPGGA,140210,2425.0382,N,08055.4792,W,1,8,1.9,18,M,,M,,*57
06/15/2015	14:02:10.545	$GPGGA,140211,2425.0375,N,08055.4784,W,1,8,1.9,18,M,,M,,*59
06/15/2015	14:02:11.571	$GPGGA,140212,2425.0370,N,08055.4776,W,1,8,1.9,18,M,,M,,*52
06/15/2015	14:02:12.542	$GPGGA,140213,2425.0367,N,08055.4765,W,1,8,1.9,18,M,,M,,*57
06/15/2015	14:02:13.521	$GPGGA,140214,2425.0361,N,08055.4756,W,1,8,1.9,18,M,,M,,*56
06/15/2015	14:02:14.537	$GPGGA,140215,2425.0356,N,08055.4750,W,1,8,1.9,18,M,,M,,*55
06/15/2015	14:02:15.561	$GPGGA,140216,2425.0352,N,08055.4741,W,1,7,2.4,18,M,,M,,*53
06/15/2015	14:02:16.521	$GPGGA,140217,2425.0349,N,08055.4730,W,1,7,2.4,18,M,,M,,*5E
06/15/2015	14:02:17.511	$GPGGA,140218,2425.0345,N,08055.4724,W,1,7,2.4,18,M,,M,,*58
06/15/2015	14:02:18.953	$GPGGA,140219,2425.0339,N,08055.4717,W,1,7,1.9,18,M,,M,,*5C
06/15/2015	14:02:19.521	$GPGGA,140220,2425.0338,N,08055.4709,W,1,7,2.4,18,M,,M,,*56
06/15/2015	14:02:20.511	$GPGGA,140221,2425.0333,N,08055.4699,W,1,7,1.9,18,M,,M,,*5A
06/15/2015	14:02:22.981	$GPGGA,140223,2425.0329,N,08055.4688,W,1,8,3.9,18,M,,M,,*5E
06/15/2015	14:02:23.541	$GPGGA,140224,2425.0324,N,08055.4678,W,1,8,1.9,18,M,,M,,*59
06/15/2015	14:02:24.502	$GPGGA,140225,2425.0320,N,08055.4670,W,1,8,2.1,18,M,,M,,*5F
06/15/2015	14:02:25.532	$GPGGA,140226,2425.0314,N,08055.4662,W,1,7,2.4,19,M,,M,,*53
06/15/2015	14:02:26.522	$GPGGA,140227,2425.0307,N,08055.4651,W,1,7,1.9,19,M,,M,,*5E
06/15/2015	14:02:27.622	$GPGGA,140228,2425.0302,N,08055.4641,W,1,8,1.9,19,M,,M,,*5A
06/15/2015	14:02:28.491	$GPGGA,140229,2425.0293,N,08055.4632,W,1,8,2.1,19,M,,M,,*5D
06/15/2015	14:02:29.501	$GPGGA,140230,2425.0285,N,08055.4623,W,1,8,1.9,19,M,,M,,*59
06/15/2015	14:02:30.501	$GPGGA,140231,2425.0282,N,08055.4614,W,1,8,1.9,19,M,,M,,*5B
06/15/2015	14:02:31.501	$GPGGA,140232,2425.0277,N,08055.4607,W,1,7,2.4,19,M,,M,,*51
06/15/2015	14:02:32.601	$GPGGA,140233,2425.0270,N,08055.4599,W,1,7,2.4,19,M,,M,,*53
06/15/2015	14:02:33.601	$GPGGA,140234,2425.0266,N,08055.4589,W,1,8,1.9,19,M,,M,,*53
06/15/2015	14:02:34.491	$GPGGA,140235,2425.0263,N,08055.4581,W,1,8,2.4,19,M,,M,,*51
06/15/2015	14:02:35.501	$GPGGA,140236,2425.0258,N,08055.4573,W,1,8,1.9,19,M,,M,,*59
06/15/2015	14:02:36.481	$GPGGA,140237,2425.0252,N,08055.4565,W,1,8,2.4,20,M,,M,,*51
06/15/2015	14:02:37.501	$GPGGA,140238,2425.0247,N,08055.4557,W,1,7,2.4,20,M,,M,,*54
06/15/2015	14:02:38.481	$GPGGA,140239,2425.0244,N,08055.4548,W,1,7,1.9,20,M,,M,,*56
06/15/2015	14:02:39.511	$GPGGA,140240,2425.0239,N,08055.4540,W,1,8,1.9,20,M,,M,,*55
06/15/2015	14:02:40.581	$GPGGA,140241,2425.0234,N,08055.4531,W,1,8,2.4,20,M,,M,,*51
06/15/2015	14:02:41.492	$GPGGA,140242,2425.0227,N,08055.4523,W,1,7,2.4,20,M,,M,,*5C
06/15/2015	14:02:42.562	$GPGGA,140243,2425.0222,N,08055.4514,W,1,7,2.4,20,M,,M,,*5C
06/15/2015	14:02:43.613	$GPGGA,140244,2425.0222,N,08055.4507,W,1,7,2.4,20,M,,M,,*59
06/15/2015	14:02:44.582	$GPGGA,140245,2425.0216,N,08055.4498,W,1,7,1.9,21,M,,M,,*57
06/15/2015	14:02:45.592	$GPGGA,140246,2425.0210,N,08055.4490,W,1,7,2.4,21,M,,M,,*54
06/15/2015	14:02:46.551	$GPGGA,140247,2425.0204,N,08055.4482,W,1,7,2.4,21,M,,M,,*53
06/15/2015	14:02:47.591	$GPGGA,140248,2425.0199,N,08055.4471,W,1,7,2.4,21,M,,M,,*57
06/15/2015	14:02:48.551	$GPGGA,140249,2425.0192,N,08055.4461,W,1,7,2.4,21,M,,M,,*5C
06/15/2015	14:02:49.591	$GPGGA,140250,2425.0187,N,08055.4452,W,1,8,1.9,21,M,,M,,*51
06/15/2015	14:02:50.551	$GPGGA,140251,2425.0183,N,08055.4444,W,1,8,1.9,21,M,,M,,*53
06/15/2015	14:02:51.581	$GPGGA,140252,2425.0179,N,08055.4436,W,1,8,1.9,22,M,,M,,*53
06/15/2015	14:02:52.561	$GPGGA,140253,2425.0173,N,08055.4425,W,1,8,1.9,22,M,,M,,*5A
06/15/2015	14:02:53.542	$GPGGA,140254,2425.0168,N,08055.4415,W,1,7,2.4,22,M,,M,,*55
06/15/2015	14:02:54.544	$GPGGA,140255,2425.0162,N,08055.4408,W,1,7,1.9,22,M,,M,,*5C
06/15/2015	14:02:55.581	$GPGGA,140256,2425.0156,N,08055.4399,W,1,7,2.4,22,M,,M,,*59
06/15/2015	14:02:56.531	$GPGGA,140257,2425.0152,N,08055.4388,W,1,7,2.4,22,M,,M,,*5C
06/15/2015	14:02:57.561	$GPGGA,140258,2425.0147,N,08055.4378,W,1,8,1.9,22,M,,M,,*59
06/15/2015	14:02:58.532	$GPGGA,140259,2425.0139,N,08055.4369,W,1,8,1.9,22,M,,M,,*51
06/15/2015	14:02:59.572	$GPGGA,140300,2425.0133,N,08055.4360,W,1,8,1.9,22,M,,M,,*5F
06/15/2015	14:03:00.533	$GPGGA,140301,2425.0128,N,08055.4349,W,1,8,1.9,22,M,,M,,*5F
06/15/2015	14:03:01.552	$GPGGA,140302,2425.0121,N,08055.4339,W,1,8,1.9,22,M,,M,,*52
06/15/2015	14:03:02.532	$GPGGA,140303,2425.0116,N,08055.4331,W,1,8,1.9,22,M,,M,,*5F
06/15/2015	14:03:03.543	$GPGGA,140304,2425.0111,N,08055.4323,W,1,8,1.9,22,M,,M,,*5C
06/15/2015	14:03:04.834	$GPGGA,140305,2425.0107,N,08055.4313,W,1,8,1.9,22,M,,M,,*59
06/15/2015	14:03:05.521	$GPGGA,140306,2425.0101,N,08055.4303,W,1,8,1.9,22,M,,M,,*5D
06/15/2015	14:03:06.532	$GPGGA,140307,2425.0097,N,08055.4294,W,1,8,1.9,22,M,,M,,*5D
06/15/2015	14:03:07.541	$GPGGA,140308,2425.0093,N,08055.4286,W,1,8,1.9,22,M,,M,,*55
06/15/2015	14:03:08.511	$GPGGA,140309,2425.0087,N,08055.4277,W,1,8,1.9,22,M,,M,,*5F
06/15/2015	14:03:09.521	$GPGGA,140310,2425.0083,N,08055.4267,W,1,8,1.9,22,M,,M,,*52
06/15/2015	14:03:10.521	$GPGGA,140311,2425.0078,N,08055.4259,W,1,8,1.9,22,M,,M,,*5A
06/15/2015	14:03:11.521	$GPGGA,140312,2425.0074,N,08055.4250,W,1,8,1.9,22,M,,M,,*5C
06/15/2015	14:03:12.501	$GPGGA,140313,2425.0069,N,08055.4240,W,1,8,1.9,22,M,,M,,*50
06/15/2015	14:03:13.511	$GPGGA,140314,2425.0064,N,08055.4231,W,1,8,1.9,22,M,,M,,*5C
06/15/2015	14:03:14.501	$GPGGA,140315,2425.0060,N,08055.4222,W,1,8,1.9,22,M,,M,,*5B
06/15/2015	14:03:15.521	$GPGGA,140316,2425.0056,N,08055.4213,W,1,8,1.9,22,M,,M,,*5F
06/15/2015	14:03:16.502	$GPGGA,140317,2425.0050,N,08055.4204,W,1,8,1.9,22,M,,M,,*5E
06/15/2015	14:03:17.512	$GPGGA,140318,2425.0046,N,08055.4194,W,1,8,1.9,22,M,,M,,*5C
06/15/2015	14:03:18.582	$GPGGA,140319,2425.0042,N,08055.4185,W,1,8,1.9,22,M,,M,,*59
06/15/2015	14:03:19.535	$GPGGA,140320,2425.0038,N,08055.4175,W,1,8,1.9,22,M,,M,,*51
06/15/2015	14:03:20.502	$GPGGA,140321,2425.0032,N,08055.4166,W,1,8,1.9,21,M,,M,,*5B
06/15/2015	14:03:21.591	$GPGGA,140322,2425.0027,N,08055.4157,W,1,8,1.9,21,M,,M,,*5E
06/15/2015	14:03:22.601	$GPGGA,140323,2425.0023,N,08055.4147,W,1,8,1.9,21,M,,M,,*5A
06/15/2015	14:03:23.601	$GPGGA,140324,2425.0020,N,08055.4137,W,1,8,1.9,21,M,,M,,*59
06/15/2015	14:03:24.501	$GPGGA,140325,2425.0013,N,08055.4128,W,1,8,1.9,21,M,,M,,*56
06/15/2015	14:03:25.571	$GPGGA,140326,2425.0009,N,08055.4120,W,1,8,1.9,21,M,,M,,*56
06/15/2015	14:03:26.501	$GPGGA,140327,2425.0005,N,08055.4108,W,1,8,1.9,21,M,,M,,*51
06/15/2015	14:03:27.591	$GPGGA,140328,2425.0002,N,08055.4098,W,1,8,1.9,21,M,,M,,*51
06/15/2015	14:03:28.481	$GPGGA,140329,2424.9995,N,08055.4089,W,1,8,1.9,21,M,,M,,*5F
06/15/2015	14:03:29.561	$GPGGA,140330,2424.9991,N,08055.4080,W,1,8,1.9,21,M,,M,,*5A
06/15/2015	14:03:30.571	$GPGGA,140331,2424.9986,N,08055.4068,W,1,8,1.9,21,M,,M,,*5B
06/15/2015	14:03:31.601	$GPGGA,140332,2424.9982,N,08055.4059,W,1,8,1.9,21,M,,M,,*5E
06/15/2015	14:03:32.571	$GPGGA,140333,2424.9977,N,08055.4051,W,1,8,1.9,21,M,,M,,*5D
06/15/2015	14:03:33.561	$GPGGA,140334,2424.9971,N,08055.4039,W,1,8,1.9,21,M,,M,,*52
06/15/2015	14:03:34.562	$GPGGA,140335,2424.9967,N,08055.4029,W,1,8,1.9,21,M,,M,,*55
06/15/2015	14:03:35.572	$GPGGA,140336,2424.9962,N,08055.4020,W,1,8,1.9,21,M,,M,,*5A
06/15/2015	14:03:36.562	$GPGGA,140337,2424.9955,N,08055.4011,W,1,8,1.9,21,M,,M,,*5D
06/15/2015	14:03:37.562	$GPGGA,140338,2424.9952,N,08055.4000,W,1,8,1.9,21,M,,M,,*55
06/15/2015	14:03:38.551	$GPGGA,140339,2424.9948,N,08055.3990,W,1,8,1.9,20,M,,M,,*59
06/15/2015	14:03:39.581	$GPGGA,140340,2424.9942,N,08055.3981,W,1,8,1.9,20,M,,M,,*5D
06/15/2015	14:03:40.542	$GPGGA,140341,2424.9935,N,08055.3971,W,1,8,1.9,20,M,,M,,*53
06/15/2015	14:03:41.561	$GPGGA,140342,2424.9932,N,08055.3960,W,1,8,1.9,20,M,,M,,*57
06/15/2015	14:03:42.542	$GPGGA,140343,2424.9930,N,08055.3950,W,1,8,1.9,20,M,,M,,*57
06/15/2015	14:03:43.581	$GPGGA,140344,2424.9922,N,08055.3942,W,1,8,1.9,20,M,,M,,*50
06/15/2015	14:03:44.537	$GPGGA,140345,2424.9917,N,08055.3932,W,1,8,1.9,20,M,,M,,*50
06/15/2015	14:03:45.561	$GPGGA,140346,2424.9915,N,08055.3921,W,1,8,1.9,20,M,,M,,*53
06/15/2015	14:03:46.532	$GPGGA,140347,2424.9910,N,08055.3912,W,1,8,1.9,20,M,,M,,*57
06/15/2015	14:03:47.571	$GPGGA,140348,2424.9904,N,08055.3904,W,1,8,1.9,20,M,,M,,*5A
06/15/2015	14:03:48.531	$GPGGA,140349,2424.9901,N,08055.3894,W,1,8,1.9,20,M,,M,,*56
06/15/2015	14:03:49.543	$GPGGA,140350,2424.9897,N,08055.3883,W,1,8,1.9,20,M,,M,,*56
06/15/2015	14:03:50.540	$GPGGA,140351,2424.9891,N,08055.3876,W,1,8,1.9,20,M,,M,,*5B
06/15/2015	14:03:51.572	$GPGGA,140352,2424.9887,N,08055.3867,W,1,7,2.4,20,M,,M,,*5E
06/15/2015	14:03:52.540	$GPGGA,140353,2424.9884,N,08055.3856,W,1,7,2.4,19,M,,M,,*54
06/15/2015	14:03:53.532	$GPGGA,140354,2424.9881,N,08055.3847,W,1,8,1.9,19,M,,M,,*57
06/15/2015	14:03:54.522	$GPGGA,140355,2424.9876,N,08055.3841,W,1,8,1.9,19,M,,M,,*58
06/15/2015	14:03:55.562	$GPGGA,140356,2424.9872,N,08055.3832,W,1,7,2.4,19,M,,M,,*5A
06/15/2015	14:03:56.554	$GPGGA,140357,2424.9868,N,08055.3821,W,1,7,2.4,19,M,,M,,*52
06/15/2015	14:03:57.534	$GPGGA,140358,2424.9863,N,08055.3812,W,1,7,2.4,19,M,,M,,*56
06/15/2015	14:03:58.501	$GPGGA,140359,2424.9856,N,08055.3806,W,1,7,2.1,19,M,,M,,*51
06/15/2015	14:03:59.552	$GPGGA,140400,2424.9854,N,08055.3799,W,1,6,3.8,19,M,,M,,*58
06/15/2015	14:04:00.511	$GPGGA,140401,2424.9850,N,08055.3786,W,1,6,2.1,19,M,,M,,*5B
06/15/2015	14:04:01.521	$GPGGA,140402,2424.9843,N,08055.3777,W,1,6,3.8,19,M,,M,,*5C
06/15/2015	14:04:02.511	$GPGGA,140403,2424.9838,N,08055.3770,W,1,6,3.8,19,M,,M,,*56
06/15/2015	14:04:03.541	$GPGGA,140404,2424.9832,N,08055.3760,W,1,6,3.8,19,M,,M,,*5A
06/15/2015	14:04:04.611	$GPGGA,140405,2424.9827,N,08055.3750,W,1,6,3.8,19,M,,M,,*5C
06/15/2015	14:04:05.511	$GPGGA,140406,2424.9821,N,08055.3741,W,1,6,3.8,19,M,,M,,*59
06/15/2015	14:04:06.491	$GPGGA,140407,2424.9816,N,08055.3732,W,1,6,3.8,19,M,,M,,*58
06/15/2015	14:04:07.621	$GPGGA,140408,2424.9811,N,08055.3723,W,1,6,3.8,19,M,,M,,*50
06/15/2015	14:04:08.501	$GPGGA,140409,2424.9805,N,08055.3713,W,1,6,3.8,19,M,,M,,*57
06/15/2015	14:04:09.492	$GPGGA,140410,2424.9799,N,08055.3704,W,1,6,3.8,18,M,,M,,*52
06/15/2015	14:04:10.572	$GPGGA,140411,2424.9794,N,08055.3694,W,1,6,3.8,18,M,,M,,*56
06/15/2015	14:04:11.502	$GPGGA,140412,2424.9789,N,08055.3685,W,1,6,3.8,18,M,,M,,*59
06/15/2015	14:04:12.572	$GPGGA,140413,2424.9783,N,08055.3677,W,1,6,3.8,18,M,,M,,*5F
06/15/2015	14:04:13.621	$GPGGA,140414,2424.9778,N,08055.3668,W,1,6,3.8,18,M,,M,,*52
06/15/2015	14:04:14.571	$GPGGA,140415,2424.9776,N,08055.3659,W,1,6,3.8,18,M,,M,,*5F
06/15/2015	14:04:15.601	$GPGGA,140416,2424.9769,N,08055.3651,W,1,7,2.1,18,M,,M,,*53
06/15/2015	14:04:16.481	$GPGGA,140417,2424.9763,N,08055.3642,W,1,7,3.8,17,M,,M,,*5D
06/15/2015	14:04:17.591	$GPGGA,140418,2424.9760,N,08055.3631,W,1,6,3.8,17,M,,M,,*54
06/15/2015	14:04:18.571	$GPGGA,140419,2424.9754,N,08055.3622,W,1,6,2.1,17,M,,M,,*58
06/15/2015	14:04:19.571	$GPGGA,140420,2424.9749,N,08055.3617,W,1,7,2.1,17,M,,M,,*59
06/15/2015	14:04:20.551	$GPGGA,140421,2424.9742,N,08055.3608,W,1,7,2.1,17,M,,M,,*5D
06/15/2015	14:04:21.591	$GPGGA,140422,2424.9738,N,08055.3596,W,1,6,3.8,17,M,,M,,*5E
06/15/2015	14:04:22.561	$GPGGA,140423,2424.9738,N,08055.3589,W,1,6,2.1,17,M,,M,,*59
06/15/2015	14:04:23.581	$GPGGA,140424,2424.9729,N,08055.3583,W,1,7,2.1,17,M,,M,,*55
06/15/2015	14:04:24.561	$GPGGA,140425,2424.9725,N,08055.3575,W,1,7,3.8,17,M,,M,,*59
06/15/2015	14:04:25.881	$GPGGA,140426,2424.9724,N,08055.3565,W,1,7,2.1,17,M,,M,,*52
06/15/2015	14:04:26.562	$GPGGA,140427,2424.9720,N,08055.3558,W,1,7,2.1,17,M,,M,,*59
06/15/2015	14:04:27.592	$GPGGA,140428,2424.9713,N,08055.3551,W,1,7,2.1,17,M,,M,,*5F
06/15/2015	14:04:28.542	$GPGGA,140429,2424.9707,N,08055.3540,W,1,7,3.8,17,M,,M,,*53
06/15/2015	14:04:29.552	$GPGGA,140430,2424.9703,N,08055.3529,W,1,6,3.8,17,M,,M,,*51
06/15/2015	14:04:30.543	$GPGGA,140431,2424.9700,N,08055.3522,W,1,6,2.1,17,M,,M,,*50
06/15/2015	14:04:31.571	$GPGGA,140432,2424.9693,N,08055.3514,W,1,7,2.1,17,M,,M,,*5C
06/15/2015	14:04:32.531	$GPGGA,140433,2424.9692,N,08055.3508,W,1,7,3.8,17,M,,M,,*59
06/15/2015	14:04:33.551	$GPGGA,140434,2424.9689,N,08055.3498,W,1,7,2.1,17,M,,M,,*54
06/15/2015	14:04:34.531	$GPGGA,140435,2424.9686,N,08055.3488,W,1,7,2.1,17,M,,M,,*5B
06/15/2015	14:04:35.571	$GPGGA,140436,2424.9680,N,08055.3481,W,1,7,2.1,17,M,,M,,*57
06/15/2015	14:04:36.541	$GPGGA,140437,2424.9673,N,08055.3472,W,1,7,2.1,17,M,,M,,*56
06/15/2015	14:04:37.521	$GPGGA,140438,2424.9670,N,08055.3461,W,1,6,3.8,17,M,,M,,*51
06/15/2015	14:04:38.531	$GPGGA,140439,2424.9666,N,08055.3450,W,1,6,2.1,17,M,,M,,*5D
06/15/2015	14:04:39.551	$GPGGA,140440,2424.9659,N,08055.3442,W,1,7,2.1,17,M,,M,,*5D
06/15/2015	14:04:40.537	$GPGGA,140441,2424.9653,N,08055.3434,W,1,7,2.1,17,M,,M,,*57
06/15/2015	14:04:41.511	$GPGGA,140442,2424.9650,N,08055.3423,W,1,6,3.8,17,M,,M,,*58
06/15/2015	14:04:42.532	$GPGGA,140443,2424.9645,N,08055.3413,W,1,6,2.1,17,M,,M,,*56
06/15/2015	14:04:43.561	$GPGGA,140444,2424.9641,N,08055.3405,W,1,7,2.1,17,M,,M,,*53
06/15/2015	14:04:44.522	$GPGGA,140445,2424.9635,N,08055.3398,W,1,7,2.1,17,M,,M,,*52
06/15/2015	14:04:45.542	$GPGGA,140446,2424.9631,N,08055.3389,W,1,7,2.1,17,M,,M,,*55
06/15/2015	14:04:46.512	$GPGGA,140447,2424.9627,N,08055.3379,W,1,7,2.1,17,M,,M,,*5C
06/15/2015	14:04:47.512	$GPGGA,140448,2424.9623,N,08055.3369,W,1,7,2.1,17,M,,M,,*56
06/15/2015	14:04:48.521	$GPGGA,140449,2424.9619,N,08055.3362,W,1,7,2.1,17,M,,M,,*55
06/15/2015	14:04:49.501	$GPGGA,140450,2424.9612,N,08055.3354,W,1,7,2.1,17,M,,M,,*53
06/15/2015	14:04:50.501	$GPGGA,140451,2424.9609,N,08055.3344,W,1,7,2.1,17,M,,M,,*59
06/15/2015	14:04:51.521	$GPGGA,140452,2424.9605,N,08055.3333,W,1,7,2.1,17,M,,M,,*56
06/15/2015	14:04:52.591	$GPGGA,140453,2424.9599,N,08055.3325,W,1,7,2.1,17,M,,M,,*56
06/15/2015	14:04:53.631	$GPGGA,140454,2424.9594,N,08055.3318,W,1,7,2.1,17,M,,M,,*52
06/15/2015	14:04:54.501	$GPGGA,140455,2424.9590,N,08055.3308,W,1,7,2.1,17,M,,M,,*56
06/15/2015	14:04:55.501	$GPGGA,140456,2424.9586,N,08055.3298,W,1,7,2.1,17,M,,M,,*5A
06/15/2015	14:04:56.491	$GPGGA,140457,2424.9583,N,08055.3288,W,1,7,2.1,17,M,,M,,*5F
06/15/2015	14:04:57.591	$GPGGA,140458,2424.9577,N,08055.3281,W,1,7,2.1,17,M,,M,,*52
06/15/2015	14:04:58.501	$GPGGA,140459,2424.9569,N,08055.3271,W,1,7,2.1,17,M,,M,,*53
06/15/2015	14:04:59.491	$GPGGA,140500,2424.9566,N,08055.3262,W,1,6,3.7,17,M,,M,,*55
06/15/2015	14:05:00.571	$GPGGA,140501,2424.9562,N,08055.3251,W,1,6,2.1,17,M,,M,,*57
06/15/2015	14:05:01.582	$GPGGA,140502,2424.9557,N,08055.3243,W,1,7,2.1,17,M,,M,,*50
06/15/2015	14:05:02.512	$GPGGA,140503,2424.9550,N,08055.3235,W,1,7,2.1,17,M,,M,,*57
06/15/2015	14:05:03.492	$GPGGA,140504,2424.9544,N,08055.3224,W,1,6,3.7,17,M,,M,,*53
06/15/2015	14:05:04.472	$GPGGA,140505,2424.9541,N,08055.3212,W,1,6,3.7,16,M,,M,,*53
06/15/2015	14:05:05.591	$GPGGA,140506,2424.9536,N,08055.3205,W,1,7,2.1,16,M,,M,,*50
06/15/2015	14:05:06.561	$GPGGA,140507,2424.9529,N,08055.3197,W,1,7,3.7,16,M,,M,,*50
06/15/2015	14:05:07.591	$GPGGA,140508,2424.9527,N,08055.3188,W,1,6,2.1,16,M,,M,,*59
06/15/2015	14:05:08.561	$GPGGA,140509,2424.9525,N,08055.3179,W,1,6,2.1,16,M,,M,,*54
06/15/2015	14:05:09.581	$GPGGA,140510,2424.9518,N,08055.3170,W,1,7,2.1,16,M,,M,,*5A
06/15/2015	14:05:10.561	$GPGGA,140511,2424.9512,N,08055.3161,W,1,7,2.1,16,M,,M,,*51
06/15/2015	14:05:11.591	$GPGGA,140512,2424.9509,N,08055.3151,W,1,7,2.1,16,M,,M,,*5B
06/15/2015	14:05:12.561	$GPGGA,140513,2424.9505,N,08055.3142,W,1,7,2.1,16,M,,M,,*54
06/15/2015	14:05:13.581	$GPGGA,140514,2424.9500,N,08055.3133,W,1,7,2.1,16,M,,M,,*50
06/15/2015	14:05:14.571	$GPGGA,140515,2424.9496,N,08055.3124,W,1,7,2.1,16,M,,M,,*59
06/15/2015	14:05:15.571	$GPGGA,140516,2424.9492,N,08055.3114,W,1,7,2.1,16,M,,M,,*5D
06/15/2015	14:05:16.551	$GPGGA,140517,2424.9485,N,08055.3105,W,1,7,3.7,16,M,,M,,*5D
06/15/2015	14:05:17.551	$GPGGA,140518,2424.9482,N,08055.3097,W,1,6,2.1,17,M,,M,,*58
06/15/2015	14:05:19.060	$GPGGA,140519,2424.9478,N,08055.3089,W,1,6,2.1,17,M,,M,,*53
06/15/2015	14:05:19.572	$GPGGA,140520,2424.9474,N,08055.3081,W,1,7,2.1,17,M,,M,,*5C
06/15/2015	14:05:20.542	$GPGGA,140521,2424.9471,N,08055.3072,W,1,7,2.1,17,M,,M,,*54
06/15/2015	14:05:21.522	$GPGGA,140522,2424.9465,N,08055.3062,W,1,7,2.1,17,M,,M,,*53
06/15/2015	14:05:22.536	$GPGGA,140523,2424.9460,N,08055.3053,W,1,7,3.7,17,M,,M,,*52
06/15/2015	14:05:23.571	$GPGGA,140524,2424.9453,N,08055.3043,W,1,6,3.7,17,M,,M,,*55
06/15/2015	14:05:24.531	$GPGGA,140525,2424.9450,N,08055.3033,W,1,6,2.1,17,M,,M,,*57
06/15/2015	14:05:25.521	$GPGGA,140526,2424.9446,N,08055.3025,W,1,7,2.1,17,M,,M,,*55
06/15/2015	14:05:26.535	$GPGGA,140527,2424.9439,N,08055.3017,W,1,7,3.7,17,M,,M,,*5A
06/15/2015	14:05:27.571	$GPGGA,140528,2424.9433,N,08055.3005,W,1,6,3.7,17,M,,M,,*5D
06/15/2015	14:05:28.521	$GPGGA,140529,2424.9429,N,08055.2996,W,1,6,2.1,17,M,,M,,*52
06/15/2015	14:05:29.547	$GPGGA,140530,2424.9424,N,08055.2987,W,1,7,2.1,17,M,,M,,*56
06/15/2015	14:05:30.511	$GPGGA,140531,2424.9419,N,08055.2978,W,1,7,2.1,17,M,,M,,*59
06/15/2015	14:05:31.551	$GPGGA,140532,2424.9413,N,08055.2969,W,1,7,3.7,17,M,,M,,*57
06/15/2015	14:05:32.521	$GPGGA,140533,2424.9408,N,08055.2958,W,1,7,3.7,17,M,,M,,*5E
06/15/2015	14:05:33.538	$GPGGA,140534,2424.9403,N,08055.2950,W,1,6,2.1,17,M,,M,,*5C
06/15/2015	14:05:34.521	$GPGGA,140535,2424.9396,N,08055.2941,W,1,6,3.7,17,M,,M,,*51
06/15/2015	14:05:35.881	$GPGGA,140536,2424.9391,N,08055.2931,W,1,6,3.7,17,M,,M,,*52
06/15/2015	14:05:36.502	$GPGGA,140537,2424.9386,N,08055.2920,W,1,6,3.7,17,M,,M,,*55
06/15/2015	14:05:37.522	$GPGGA,140538,2424.9380,N,08055.2912,W,1,6,3.7,17,M,,M,,*5D
06/15/2015	14:05:38.522	$GPGGA,140539,2424.9373,N,08055.2906,W,1,6,3.7,17,M,,M,,*55
06/15/2015	14:05:39.622	$GPGGA,140540,2424.9367,N,08055.2894,W,1,6,3.7,17,M,,M,,*54
06/15/2015	14:05:40.511	$GPGGA,140541,2424.9363,N,08055.2882,W,1,6,2.1,17,M,,M,,*51
06/15/2015	14:05:41.521	$GPGGA,140542,2424.9357,N,08055.2876,W,1,7,3.7,17,M,,M,,*58
06/15/2015	14:05:42.491	$GPGGA,140543,2424.9349,N,08055.2869,W,1,7,3.7,17,M,,M,,*58
06/15/2015	14:05:43.642	$GPGGA,140544,2424.9344,N,08055.2857,W,1,6,3.7,17,M,,M,,*5E
06/15/2015	14:05:44.511	$GPGGA,140545,2424.9339,N,08055.2845,W,1,6,2.1,17,M,,M,,*51
06/15/2015	14:05:45.481	$GPGGA,140546,2424.9334,N,08055.2838,W,1,7,3.7,17,M,,M,,*53
06/15/2015	14:05:46.521	$GPGGA,140547,2424.9330,N,08055.2832,W,1,7,2.1,17,M,,M,,*5B
06/15/2015	14:05:47.591	$GPGGA,140548,2424.9325,N,08055.2821,W,1,7,3.7,17,M,,M,,*55
06/15/2015	14:05:48.511	$GPGGA,140549,2424.9320,N,08055.2810,W,1,7,2.1,17,M,,M,,*54
06/15/2015	14:05:49.571	$GPGGA,140550,2424.9315,N,08055.2803,W,1,7,2.1,17,M,,M,,*58
06/15/2015	14:05:50.501	$GPGGA,140551,2424.9310,N,08055.2794,W,1,7,3.7,16,M,,M,,*5B
06/15/2015	14:05:51.621	$GPGGA,140552,2424.9305,N,08055.2783,W,1,6,3.7,16,M,,M,,*5B
06/15/2015	14:05:52.561	$GPGGA,140553,2424.9301,N,08055.2775,W,1,6,3.7,16,M,,M,,*57
06/15/2015	14:05:53.591	$GPGGA,140554,2424.9296,N,08055.2766,W,1,7,2.1,16,M,,M,,*5B
06/15/2015	14:05:54.582	$GPGGA,140555,2424.9292,N,08055.2757,W,1,7,2.1,16,M,,M,,*5C
06/15/2015	14:05:55.582	$GPGGA,140556,2424.9287,N,08055.2748,W,1,7,2.1,17,M,,M,,*54
06/15/2015	14:05:56.562	$GPGGA,140557,2424.9283,N,08055.2738,W,1,7,2.1,17,M,,M,,*56
06/15/2015	14:05:57.562	$GPGGA,140558,2424.9278,N,08055.2729,W,1,7,2.1,17,M,,M,,*5D
06/15/2015	14:05:58.561	$GPGGA,140559,2424.9272,N,08055.2720,W,1,7,2.1,17,M,,M,,*5F
06/15/2015	14:05:59.601	$GPGGA,140600,2424.9267,N,08055.2710,W,1,7,2.1,17,M,,M,,*57
06/15/2015	14:06:00.561	$GPGGA,140601,2424.9263,N,08055.2699,W,1,7,2.1,17,M,,M,,*52
06/15/2015	14:06:01.561	$GPGGA,140602,2424.9258,N,08055.2690,W,1,7,2.1,17,M,,M,,*50
06/15/2015	14:06:02.561	$GPGGA,140603,2424.9252,N,08055.2681,W,1,7,2.1,17,M,,M,,*5B
06/15/2015	14:06:03.571	$GPGGA,140604,2424.9248,N,08055.2671,W,1,7,2.1,17,M,,M,,*58
06/15/2015	14:06:04.535	$GPGGA,140605,2424.9243,N,08055.2659,W,1,7,2.1,17,M,,M,,*58
06/15/2015	14:06:05.551	$GPGGA,140606,2424.9237,N,08055.2650,W,1,7,2.1,17,M,,M,,*51
06/15/2015	14:06:06.531	$GPGGA,140607,2424.9232,N,08055.2641,W,1,7,2.1,17,M,,M,,*55
06/15/2015	14:06:07.561	$GPGGA,140608,2424.9227,N,08055.2630,W,1,7,2.1,17,M,,M,,*58
06/15/2015	14:06:08.531	$GPGGA,140609,2424.9222,N,08055.2619,W,1,7,2.1,17,M,,M,,*57
06/15/2015	14:06:09.522	$GPGGA,140610,2424.9218,N,08055.2609,W,1,7,2.1,17,M,,M,,*57
06/15/2015	14:06:10.525	$GPGGA,140611,2424.9212,N,08055.2599,W,1,7,2.1,17,M,,M,,*56
06/15/2015	14:06:11.561	$GPGGA,140612,2424.9207,N,08055.2589,W,1,7,2.1,17,M,,M,,*50
06/15/2015	14:06:12.521	$GPGGA,140613,2424.9202,N,08055.2578,W,1,7,2.1,17,M,,M,,*5A
06/15/2015	14:06:13.511	$GPGGA,140614,2424.9198,N,08055.2567,W,1,7,2.1,17,M,,M,,*53
06/15/2015	14:06:14.531	$GPGGA,140615,2424.9193,N,08055.2557,W,1,7,2.1,17,M,,M,,*5A
06/15/2015	14:06:15.540	$GPGGA,140616,2424.9187,N,08055.2548,W,1,7,2.1,17,M,,M,,*52
06/15/2015	14:06:16.521	$GPGGA,140617,2424.9182,N,08055.2538,W,1,7,2.1,17,M,,M,,*51
06/15/2015	14:06:17.510	$GPGGA,140618,2424.9179,N,08055.2526,W,1,7,2.1,17,M,,M,,*55
06/15/2015	14:06:18.500	$GPGGA,140619,2424.9174,N,08055.2514,W,1,7,2.1,17,M,,M,,*58
06/15/2015	14:06:19.530	$GPGGA,140620,2424.9167,N,08055.2506,W,1,7,2.1,17,M,,M,,*53
06/15/2015	14:06:20.500	$GPGGA,140621,2424.9162,N,08055.2495,W,1,7,2.1,17,M,,M,,*5C
06/15/2015	14:06:21.525	$GPGGA,140622,2424.9158,N,08055.2483,W,1,6,3.6,17,M,,M,,*56
06/15/2015	14:06:22.511	$GPGGA,140623,2424.9153,N,08055.2472,W,1,6,2.1,17,M,,M,,*54
06/15/2015	14:06:23.624	$GPGGA,140624,2424.9148,N,08055.2462,W,1,7,2.1,17,M,,M,,*59
06/15/2015	14:06:24.491	$GPGGA,140625,2424.9143,N,08055.2452,W,1,7,2.1,17,M,,M,,*50
06/15/2015	14:06:25.501	$GPGGA,140626,2424.9138,N,08055.2443,W,1,7,2.1,17,M,,M,,*5F
06/15/2015	14:06:26.491	$GPGGA,140627,2424.9135,N,08055.2431,W,1,7,2.1,17,M,,M,,*56
06/15/2015	14:06:27.511	$GPGGA,140628,2424.9129,N,08055.2420,W,1,7,2.1,17,M,,M,,*54
06/15/2015	14:06:28.601	$GPGGA,140629,2424.9124,N,08055.2412,W,1,7,2.1,17,M,,M,,*59
06/15/2015	14:06:30.063	$GPGGA,140630,2424.9119,N,08055.2402,W,1,7,2.1,17,M,,M,,*5E
06/15/2015	14:06:30.571	$GPGGA,140631,2424.9117,N,08055.2392,W,1,7,2.1,17,M,,M,,*5F
06/15/2015	14:06:31.611	$GPGGA,140632,2424.9113,N,08055.2382,W,1,7,2.1,17,M,,M,,*59
06/15/2015	14:06:32.491	$GPGGA,140633,2424.9107,N,08055.2373,W,1,7,2.1,17,M,,M,,*53
06/15/2015	14:06:33.590	$GPGGA,140634,2424.9102,N,08055.2363,W,1,7,2.1,17,M,,M,,*50
06/15/2015	14:06:34.470	$GPGGA,140635,2424.9097,N,08055.2353,W,1,7,2.1,17,M,,M,,*5F
06/15/2015	14:06:35.490	$GPGGA,140636,2424.9093,N,08055.2344,W,1,7,2.1,17,M,,M,,*5E
06/15/2015	14:06:36.570	$GPGGA,140637,2424.9088,N,08055.2334,W,1,7,2.1,17,M,,M,,*52
06/15/2015	14:06:37.590	$GPGGA,140638,2424.9083,N,08055.2324,W,1,7,2.1,17,M,,M,,*57
06/15/2015	14:06:38.570	$GPGGA,140639,2424.9079,N,08055.2314,W,1,7,2.1,17,M,,M,,*50
06/15/2015	14:06:39.591	$GPGGA,140640,2424.9073,N,08055.2304,W,1,7,2.1,17,M,,M,,*55
06/15/2015	14:06:40.561	$GPGGA,140641,2424.9067,N,08055.2293,W,1,7,3.6,17,M,,M,,*58
06/15/2015	14:06:41.581	$GPGGA,140642,2424.9064,N,08055.2284,W,1,7,2.1,17,M,,M,,*58
06/15/2015	14:06:42.571	$GPGGA,140643,2424.9059,N,08055.2274,W,1,7,2.1,17,M,,M,,*58
06/15/2015	14:06:43.592	$GPGGA,140644,2424.9052,N,08055.2264,W,1,6,3.6,17,M,,M,,*52
06/15/2015	14:06:44.551	$GPGGA,140645,2424.9048,N,08055.2253,W,1,6,3.6,17,M,,M,,*5C
06/15/2015	14:06:45.551	$GPGGA,140646,2424.9041,N,08055.2244,W,1,6,3.6,17,M,,M,,*50
06/15/2015	14:06:46.551	$GPGGA,140647,2424.9041,N,08055.2240,W,1,6,3.6,17,M,,M,,*55
06/15/2015	14:06:47.581	$GPGGA,140648,2424.9035,N,08055.2228,W,1,7,2.1,17,M,,M,,*50
06/15/2015	14:06:48.551	$GPGGA,140649,2424.9030,N,08055.2218,W,1,7,3.6,17,M,,M,,*51
06/15/2015	14:06:49.561	$GPGGA,140650,2424.9023,N,08055.2210,W,1,6,3.6,17,M,,M,,*52
06/15/2015	14:06:50.540	$GPGGA,140651,2424.9019,N,08055.2203,W,1,6,3.6,17,M,,M,,*58
06/15/2015	14:06:51.580	$GPGGA,140652,2424.9018,N,08055.2197,W,1,7,2.1,17,M,,M,,*53
06/15/2015	14:06:52.540	$GPGGA,140653,2424.9013,N,08055.2185,W,1,7,2.1,17,M,,M,,*5A
06/15/2015	14:06:53.527	$GPGGA,140654,2424.9007,N,08055.2180,W,1,6,3.6,17,M,,M,,*5A
06/15/2015	14:06:54.531	$GPGGA,140655,2424.9001,N,08055.2172,W,1,6,2.1,17,M,,M,,*56
06/15/2015	14:06:55.560	$GPGGA,140656,2424.8998,N,08055.2161,W,1,7,2.1,17,M,,M,,*5E
06/15/2015	14:06:56.533	$GPGGA,140657,2424.8994,N,08055.2151,W,1,7,2.1,17,M,,M,,*50
06/15/2015	14:06:57.551	$GPGGA,140658,2424.8987,N,08055.2143,W,1,7,2.1,17,M,,M,,*5E
06/15/2015	14:06:58.521	$GPGGA,140659,2424.8979,N,08055.2135,W,1,7,3.6,17,M,,M,,*59
06/15/2015	14:06:59.591	$GPGGA,140700,2424.8974,N,08055.2126,W,1,7,2.1,18,M,,M,,*52
06/15/2015	14:07:00.521	$GPGGA,140701,2424.8969,N,08055.2114,W,1,7,2.1,18,M,,M,,*5E
06/15/2015	14:07:01.531	$GPGGA,140702,2424.8960,N,08055.2105,W,1,6,3.6,18,M,,M,,*53
06/15/2015	14:07:02.532	$GPGGA,140703,2424.8955,N,08055.2099,W,1,6,3.6,18,M,,M,,*50
06/15/2015	14:07:03.551	$GPGGA,140704,2424.8949,N,08055.2090,W,1,7,2.1,18,M,,M,,*54
06/15/2015	14:07:04.511	$GPGGA,140705,2424.8944,N,08055.2080,W,1,7,2.1,18,M,,M,,*59
06/15/2015	14:07:05.501	$GPGGA,140706,2424.8938,N,08055.2070,W,1,7,2.1,18,M,,M,,*5E
06/15/2015	14:07:06.511	$GPGGA,140707,2424.8931,N,08055.2061,W,1,7,3.6,18,M,,M,,*50
06/15/2015	14:07:07.551	$GPGGA,140708,2424.8926,N,08055.2054,W,1,6,3.6,18,M,,M,,*5E
06/15/2015	14:07:08.510	$GPGGA,140709,2424.8920,N,08055.2043,W,1,6,2.1,18,M,,M,,*59
06/15/2015	14:07:09.500	$GPGGA,140710,2424.8916,N,08055.2036,W,1,6,3.6,18,M,,M,,*50
06/15/2015	14:07:10.500	$GPGGA,140711,2424.8909,N,08055.2026,W,1,6,2.1,18,M,,M,,*58
06/15/2015	14:07:11.520	$GPGGA,140712,2424.8904,N,08055.2016,W,1,6,3.6,18,M,,M,,*53
06/15/2015	14:07:12.510	$GPGGA,140713,2424.8897,N,08055.2008,W,1,6,3.6,18,M,,M,,*56
06/15/2015	14:07:13.600	$GPGGA,140714,2424.8890,N,08055.1998,W,1,7,2.1,17,M,,M,,*5D
06/15/2015	14:07:14.611	$GPGGA,140715,2424.8885,N,08055.1987,W,1,7,3.6,17,M,,M,,*50
06/15/2015	14:07:15.622	$GPGGA,140716,2424.8879,N,08055.1978,W,1,6,3.6,17,M,,M,,*51
06/15/2015	14:07:16.521	$GPGGA,140717,2424.8871,N,08055.1970,W,1,6,3.6,17,M,,M,,*50
06/15/2015	14:07:17.501	$GPGGA,140718,2424.8866,N,08055.1960,W,1,6,3.6,17,M,,M,,*58
06/15/2015	14:07:18.491	$GPGGA,140719,2424.8864,N,08055.1950,W,1,6,3.6,17,M,,M,,*58
06/15/2015	14:07:19.491	$GPGGA,140720,2424.8857,N,08055.1942,W,1,7,2.1,17,M,,M,,*56
06/15/2015	14:07:20.571	$GPGGA,140721,2424.8849,N,08055.1933,W,1,7,3.6,17,M,,M,,*58
06/15/2015	14:07:21.571	$GPGGA,140722,2424.8847,N,08055.1923,W,1,6,3.6,17,M,,M,,*55
06/15/2015	14:07:22.491	$GPGGA,140723,2424.8843,N,08055.1916,W,1,6,2.1,17,M,,M,,*50
06/15/2015	14:07:23.611	$GPGGA,140724,2424.8836,N,08055.1907,W,1,7,2.1,17,M,,M,,*54
06/15/2015	14:07:24.481	$GPGGA,140725,2424.8830,N,08055.1896,W,1,7,3.6,17,M,,M,,*5C
06/15/2015	14:07:25.560	$GPGGA,140726,2424.8825,N,08055.1888,W,1,6,3.6,17,M,,M,,*55
06/15/2015	14:07:27.600	$GPGGA,140728,2424.8817,N,08055.1869,W,1,7,2.1,17,M,,M,,*52
06/15/2015	14:07:28.560	$GPGGA,140729,2424.8808,N,08055.1860,W,1,7,2.1,17,M,,M,,*54
06/15/2015	14:07:29.550	$GPGGA,140730,2424.8802,N,08055.1850,W,1,6,3.6,17,M,,M,,*52
06/15/2015	14:07:30.560	$GPGGA,140731,2424.8799,N,08055.1840,W,1,6,3.6,16,M,,M,,*5E
06/15/2015	14:07:31.571	$GPGGA,140732,2424.8794,N,08055.1830,W,1,7,2.1,16,M,,M,,*50
06/15/2015	14:07:32.551	$GPGGA,140733,2424.8788,N,08055.1823,W,1,7,2.1,16,M,,M,,*5E
06/15/2015	14:07:33.541	$GPGGA,140734,2424.8781,N,08055.1812,W,1,7,2.1,16,M,,M,,*52
06/15/2015	14:07:34.551	$GPGGA,140735,2424.8777,N,08055.1801,W,1,7,3.6,16,M,,M,,*5E
06/15/2015	14:07:35.581	$GPGGA,140736,2424.8771,N,08055.1790,W,1,7,2.1,16,M,,M,,*5A
06/15/2015	14:07:36.551	$GPGGA,140737,2424.8765,N,08055.1782,W,1,7,2.1,16,M,,M,,*5D
06/15/2015	14:07:37.551	$GPGGA,140738,2424.8760,N,08055.1773,W,1,7,2.1,16,M,,M,,*59
06/15/2015	14:07:38.541	$GPGGA,140739,2424.8757,N,08055.1763,W,1,7,2.1,16,M,,M,,*5D
06/15/2015	14:07:39.571	$GPGGA,140740,2424.8752,N,08055.1753,W,1,7,2.1,16,M,,M,,*55
06/15/2015	14:07:40.541	$GPGGA,140741,2424.8747,N,08055.1743,W,1,7,2.1,16,M,,M,,*51
06/15/2015	14:07:41.541	$GPGGA,140742,2424.8742,N,08055.1733,W,1,7,2.1,16,M,,M,,*50
06/15/2015	14:07:42.531	$GPGGA,140743,2424.8735,N,08055.1723,W,1,7,2.1,16,M,,M,,*50
06/15/2015	14:07:43.560	$GPGGA,140744,2424.8731,N,08055.1712,W,1,6,3.5,16,M,,M,,*55
06/15/2015	14:07:44.536	$GPGGA,140745,2424.8727,N,08055.1702,W,1,6,2.1,16,M,,M,,*57
06/15/2015	14:07:45.550	$GPGGA,140746,2424.8721,N,08055.1694,W,1,7,2.1,16,M,,M,,*5D
06/15/2015	14:07:46.510	$GPGGA,140747,2424.8717,N,08055.1684,W,1,7,2.1,16,M,,M,,*58
06/15/2015	14:07:47.550	$GPGGA,140748,2424.8712,N,08055.1672,W,1,7,2.1,16,M,,M,,*5B
06/15/2015	14:07:48.521	$GPGGA,140749,2424.8707,N,08055.1664,W,1,7,2.1,16,M,,M,,*59
06/15/2015	14:07:49.522	$GPGGA,140750,2424.8702,N,08055.1655,W,1,7,2.1,17,M,,M,,*57
06/15/2015	14:07:50.511	$GPGGA,140751,2424.8698,N,08055.1645,W,1,7,2.1,17,M,,M,,*55
06/15/2015	14:07:51.524	$GPGGA,140752,2424.8694,N,08055.1635,W,1,7,2.1,17,M,,M,,*5D
06/15/2015	14:07:52.522	$GPGGA,140753,2424.8688,N,08055.1625,W,1,7,2.1,17,M,,M,,*50
06/15/2015	14:07:53.535	$GPGGA,140754,2424.8682,N,08055.1615,W,1,7,2.1,17,M,,M,,*5E
06/15/2015	14:07:54.501	$GPGGA,140755,2424.8677,N,08055.1605,W,1,7,2.1,17,M,,M,,*54
06/15/2015	14:07:55.531	$GPGGA,140756,2424.8673,N,08055.1594,W,1,7,2.1,17,M,,M,,*58
06/15/2015	14:07:56.501	$GPGGA,140757,2424.8667,N,08055.1584,W,1,7,2.1,17,M,,M,,*5D
06/15/2015	14:07:57.501	$GPGGA,140758,2424.8661,N,08055.1574,W,1,7,2.1,17,M,,M,,*5B
06/15/2015	14:07:58.511	$GPGGA,140759,2424.8658,N,08055.1564,W,1,7,2.1,17,M,,M,,*51
06/15/2015	14:07:59.541	$GPGGA,140800,2424.8653,N,08055.1553,W,1,7,2.1,17,M,,M,,*5D
06/15/2015	14:08:00.480	$GPGGA,140801,2424.8648,N,08055.1543,W,1,7,2.1,17,M,,M,,*57
06/15/2015	14:08:01.670	$GPGGA,140802,2424.8643,N,08055.1534,W,1,7,2.1,17,M,,M,,*5F
06/15/2015	14:08:02.500	$GPGGA,140803,2424.8640,N,08055.1525,W,1,7,2.1,17,M,,M,,*5D
06/15/2015	14:08:03.500	$GPGGA,140804,2424.8635,N,08055.1514,W,1,7,2.1,17,M,,M,,*5A
06/15/2015	14:08:04.580	$GPGGA,140805,2424.8630,N,08055.1503,W,1,7,2.1,17,M,,M,,*58
06/15/2015	14:08:05.500	$GPGGA,140806,2424.8625,N,08055.1494,W,1,7,2.1,17,M,,M,,*50
06/15/2015	14:08:06.480	$GPGGA,140807,2424.8619,N,08055.1485,W,1,7,2.1,17,M,,M,,*5E
06/15/2015	14:08:07.501	$GPGGA,140808,2424.8616,N,08055.1475,W,1,7,2.1,17,M,,M,,*51
06/15/2015	14:08:08.491	$GPGGA,140809,2424.8613,N,08055.1463,W,1,7,2.1,17,M,,M,,*52
06/15/2015	14:08:09.481	$GPGGA,140810,2424.8608,N,08055.1454,W,1,7,2.1,17,M,,M,,*54
06/15/2015	14:08:10.636	$GPGGA,140811,2424.8602,N,08055.1446,W,1,7,2.1,17,M,,M,,*5C
06/15/2015	14:08:11.661	$GPGGA,140812,2424.8600,N,08055.1435,W,1,7,2.1,17,M,,M,,*59
06/15/2015	14:08:12.636	$GPGGA,140813,2424.8596,N,08055.1423,W,1,7,2.1,17,M,,M,,*53
06/15/2015	14:08:13.471	$GPGGA,140814,2424.8590,N,08055.1414,W,1,7,2.1,17,M,,M,,*56
06/15/2015	14:08:14.635	$GPGGA,140815,2424.8586,N,08055.1404,W,1,7,2.1,17,M,,M,,*51
06/15/2015	14:08:15.627	$GPGGA,140816,2424.8580,N,08055.1394,W,1,7,2.1,17,M,,M,,*5A
06/15/2015	14:08:16.625	$GPGGA,140817,2424.8575,N,08055.1384,W,1,7,2.1,17,M,,M,,*50
06/15/2015	14:08:17.551	$GPGGA,140818,2424.8571,N,08055.1373,W,1,7,2.1,17,M,,M,,*53
06/15/2015	14:08:18.622	$GPGGA,140819,2424.8568,N,08055.1362,W,1,7,2.1,17,M,,M,,*5A
06/15/2015	14:08:19.624	$GPGGA,140820,2424.8561,N,08055.1353,W,1,7,2.1,17,M,,M,,*5B
06/15/2015	14:08:20.540	$GPGGA,140821,2424.8557,N,08055.1344,W,1,7,2.1,17,M,,M,,*59
06/15/2015	14:08:21.590	$GPGGA,140822,2424.8553,N,08055.1331,W,1,7,2.1,17,M,,M,,*5C
06/15/2015	14:08:22.623	$GPGGA,140823,2424.8548,N,08055.1321,W,1,7,2.1,17,M,,M,,*56
06/15/2015	14:08:23.590	$GPGGA,140824,2424.8542,N,08055.1312,W,1,7,2.1,17,M,,M,,*5B
06/15/2015	14:08:24.623	$GPGGA,140825,2424.8536,N,08055.1302,W,1,7,3.5,17,M,,M,,*5D
06/15/2015	14:08:25.621	$GPGGA,140826,2424.8533,N,08055.1290,W,1,6,2.1,17,M,,M,,*55
06/15/2015	14:08:26.601	$GPGGA,140827,2424.8529,N,08055.1279,W,1,6,2.1,17,M,,M,,*58
06/15/2015	14:08:27.581	$GPGGA,140828,2424.8522,N,08055.1269,W,1,7,2.1,17,M,,M,,*5C
06/15/2015	14:08:28.601	$GPGGA,140829,2424.8515,N,08055.1260,W,1,7,3.5,17,M,,M,,*55
06/15/2015	14:08:29.611	$GPGGA,140830,2424.8511,N,08055.1248,W,1,6,2.1,17,M,,M,,*57
06/15/2015	14:08:30.601	$GPGGA,140831,2424.8510,N,08055.1237,W,1,6,2.1,17,M,,M,,*5F
06/15/2015	14:08:31.581	$GPGGA,140832,2424.8504,N,08055.1230,W,1,7,2.1,17,M,,M,,*5F
06/15/2015	14:08:32.581	$GPGGA,140833,2424.8499,N,08055.1222,W,1,7,2.1,17,M,,M,,*58
06/15/2015	14:08:33.561	$GPGGA,140834,2424.8497,N,08055.1211,W,1,7,2.1,17,M,,M,,*51
06/15/2015	14:08:34.521	$GPGGA,140835,2424.8494,N,08055.1202,W,1,7,2.1,17,M,,M,,*51
06/15/2015	14:08:35.580	$GPGGA,140836,2424.8490,N,08055.1193,W,1,7,2.1,17,M,,M,,*5D
06/15/2015	14:08:36.510	$GPGGA,140837,2424.8488,N,08055.1184,W,1,7,2.1,17,M,,M,,*53
06/15/2015	14:08:37.530	$GPGGA,140838,2424.8483,N,08055.1175,W,1,7,2.1,17,M,,M,,*59
06/15/2015	14:08:38.510	$GPGGA,140839,2424.8478,N,08055.1166,W,1,7,2.1,17,M,,M,,*5E
06/15/2015	14:08:39.560	$GPGGA,140840,2424.8475,N,08055.1156,W,1,7,2.1,18,M,,M,,*51
06/15/2015	14:08:40.510	$GPGGA,140841,2424.8472,N,08055.1146,W,1,7,2.1,18,M,,M,,*56
06/15/2015	14:08:41.551	$GPGGA,140842,2424.8465,N,08055.1137,W,1,7,3.5,18,M,,M,,*50
06/15/2015	14:08:42.571	$GPGGA,140843,2424.8458,N,08055.1126,W,1,7,3.5,18,M,,M,,*5F
06/15/2015	14:08:43.561	$GPGGA,140844,2424.8456,N,08055.1116,W,1,6,3.5,18,M,,M,,*54
06/15/2015	14:08:44.571	$GPGGA,140845,2424.8452,N,08055.1105,W,1,6,3.5,18,M,,M,,*53
06/15/2015	14:08:45.523	$GPGGA,140846,2424.8443,N,08055.1097,W,1,6,3.5,18,M,,M,,*5A
06/15/2015	14:08:46.491	$GPGGA,140847,2424.8438,N,08055.1086,W,1,6,3.5,18,M,,M,,*57
06/15/2015	14:08:47.561	$GPGGA,140848,2424.8438,N,08055.1078,W,1,6,3.5,18,M,,M,,*59
06/15/2015	14:08:48.541	$GPGGA,140849,2424.8431,N,08055.1067,W,1,6,3.5,18,M,,M,,*5F
06/15/2015	14:08:49.701	$GPGGA,140850,2424.8427,N,08055.1062,W,1,6,2.1,18,M,,M,,*50
06/15/2015	14:08:50.541	$GPGGA,140851,2424.8420,N,08055.1051,W,1,6,3.5,18,M,,M,,*53
06/15/2015	14:08:51.561	$GPGGA,140852,2424.8416,N,08055.1039,W,1,6,3.5,18,M,,M,,*5B
06/15/2015	14:08:52.541	$GPGGA,140853,2424.8409,N,08055.1030,W,1,6,3.5,18,M,,M,,*5D
06/15/2015	14:08:53.550	$GPGGA,140854,2424.8405,N,08055.1024,W,1,6,2.1,18,M,,M,,*56
06/15/2015	14:08:54.570	$GPGGA,140855,2424.8399,N,08055.1014,W,1,6,2.1,18,M,,M,,*56
06/15/2015	14:08:55.560	$GPGGA,140856,2424.8396,N,08055.1005,W,1,7,2.1,18,M,,M,,*5B
06/15/2015	14:08:56.570	$GPGGA,140857,2424.8391,N,08055.0998,W,1,7,2.1,18,M,,M,,*51
06/15/2015	14:08:57.590	$GPGGA,140858,2424.8387,N,08055.0989,W,1,7,2.1,18,M,,M,,*59
06/15/2015	14:08:58.951	$GPGGA,140859,2424.8382,N,08055.0979,W,1,7,2.1,18,M,,M,,*52
06/15/2015	14:08:59.581	$GPGGA,140900,2424.8376,N,08055.0971,W,1,7,2.1,18,M,,M,,*5C
06/15/2015	14:09:00.561	$GPGGA,140901,2424.8370,N,08055.0963,W,1,7,2.1,18,M,,M,,*58
06/15/2015	14:09:01.551	$GPGGA,140902,2424.8365,N,08055.0953,W,1,7,2.1,18,M,,M,,*5C
06/15/2015	14:09:02.571	$GPGGA,140903,2424.8360,N,08055.0944,W,1,7,2.1,18,M,,M,,*5E
06/15/2015	14:09:03.601	$GPGGA,140904,2424.8353,N,08055.0937,W,1,7,2.1,18,M,,M,,*5D
06/15/2015	14:09:04.551	$GPGGA,140905,2424.8347,N,08055.0928,W,1,7,2.1,18,M,,M,,*57
06/15/2015	14:09:05.571	$GPGGA,140906,2424.8344,N,08055.0919,W,1,7,2.1,18,M,,M,,*55
06/15/2015	14:09:06.551	$GPGGA,140907,2424.8337,N,08055.0910,W,1,7,2.1,18,M,,M,,*59
06/15/2015	14:09:07.581	$GPGGA,140908,2424.8330,N,08055.0902,W,1,7,2.1,18,M,,M,,*52
06/15/2015	14:09:08.551	$GPGGA,140909,2424.8324,N,08055.0893,W,1,7,2.1,18,M,,M,,*5F
06/15/2015	14:09:09.561	$GPGGA,140910,2424.8319,N,08055.0884,W,1,7,2.1,18,M,,M,,*5F
06/15/2015	14:09:10.550	$GPGGA,140911,2424.8313,N,08055.0877,W,1,7,2.1,18,M,,M,,*58
06/15/2015	14:09:11.570	$GPGGA,140912,2424.8307,N,08055.0868,W,1,7,2.1,18,M,,M,,*50
06/15/2015	14:09:12.550	$GPGGA,140913,2424.8302,N,08055.0857,W,1,7,2.1,18,M,,M,,*58
06/15/2015	14:09:13.560	$GPGGA,140914,2424.8295,N,08055.0850,W,1,7,2.1,18,M,,M,,*57
06/15/2015	14:09:14.540	$GPGGA,140915,2424.8289,N,08055.0843,W,1,7,2.1,18,M,,M,,*59
06/15/2015	14:09:15.560	$GPGGA,140916,2424.8284,N,08055.0832,W,1,7,2.1,18,M,,M,,*51
06/15/2015	14:09:16.535	$GPGGA,140917,2424.8284,N,08055.0832,W,1,7,2.1,18,M,,M,,*50
06/15/2015	14:09:17.561	$GPGGA,140918,2424.8271,N,08055.0815,W,1,6,2.1,18,M,,M,,*51
06/15/2015	14:09:18.571	$GPGGA,140919,2424.8264,N,08055.0806,W,1,6,2.1,18,M,,M,,*56
06/15/2015	14:09:19.561	$GPGGA,140920,2424.8257,N,08055.0794,W,1,7,2.1,18,M,,M,,*59
06/15/2015	14:09:20.538	$GPGGA,140921,2424.8257,N,08055.0794,W,1,7,2.1,18,M,,M,,*58
06/15/2015	14:09:21.541	$GPGGA,140922,2424.8246,N,08055.0778,W,1,7,3.4,17,M,,M,,*52
06/15/2015	14:09:22.541	$GPGGA,140923,2424.8240,N,08055.0770,W,1,7,3.4,17,M,,M,,*5D
06/15/2015	14:09:23.561	$GPGGA,140924,2424.8234,N,08055.0759,W,1,6,3.4,17,M,,M,,*53
06/15/2015	14:09:24.522	$GPGGA,140925,2424.8228,N,08055.0748,W,1,6,3.4,17,M,,M,,*5F
06/15/2015	14:09:25.541	$GPGGA,140926,2424.8222,N,08055.0741,W,1,6,3.4,17,M,,M,,*5F
06/15/2015	14:09:26.524	$GPGGA,140927,2424.8217,N,08055.0733,W,1,6,3.4,17,M,,M,,*5D
06/15/2015	14:09:27.541	$GPGGA,140928,2424.8211,N,08055.0722,W,1,6,3.4,17,M,,M,,*54
06/15/2015	14:09:28.524	$GPGGA,140929,2424.8211,N,08055.0722,W,1,6,3.4,17,M,,M,,*55
06/15/2015	14:09:29.540	$GPGGA,140930,2424.8205,N,08055.0710,W,1,7,2.1,17,M,,M,,*5C
06/15/2015	14:09:30.510	$GPGGA,140931,2424.8205,N,08055.0710,W,1,7,2.1,17,M,,M,,*5D
06/15/2015	14:09:31.522	$GPGGA,140932,2424.8199,N,08055.0696,W,1,6,3.4,16,M,,M,,*53
06/15/2015	14:09:32.520	$GPGGA,140933,2424.8199,N,08055.0696,W,1,6,2.1,17,M,,M,,*57
06/15/2015	14:09:33.521	$GPGGA,140934,2424.8186,N,08055.0675,W,1,6,2.1,17,M,,M,,*53
06/15/2015	14:09:34.591	$GPGGA,140935,2424.8182,N,08055.0665,W,1,6,2.1,17,M,,M,,*57
06/15/2015	14:09:35.522	$GPGGA,140936,2424.8175,N,08055.0658,W,1,7,2.1,17,M,,M,,*53
06/15/2015	14:09:36.533	$GPGGA,140937,2424.8168,N,08055.0649,W,1,7,3.4,16,M,,M,,*5B
06/15/2015	14:09:37.501	$GPGGA,140938,2424.8165,N,08055.0638,W,1,6,2.1,16,M,,M,,*5A
06/15/2015	14:09:38.591	$GPGGA,140939,2424.8160,N,08055.0629,W,1,6,2.1,16,M,,M,,*5E
06/15/2015	14:09:39.521	$GPGGA,140940,2424.8156,N,08055.0622,W,1,7,2.1,16,M,,M,,*5F
06/15/2015	14:09:40.571	$GPGGA,140941,2424.8150,N,08055.0612,W,1,7,2.1,16,M,,M,,*5B
06/15/2015	14:09:41.501	$GPGGA,140942,2424.8146,N,08055.0604,W,1,7,2.1,16,M,,M,,*58
06/15/2015	14:09:42.491	$GPGGA,140943,2424.8146,N,08055.0604,W,1,7,2.1,16,M,,M,,*59
06/15/2015	14:09:43.591	$GPGGA,140944,2424.8139,N,08055.0587,W,1,6,3.4,16,M,,M,,*5B
06/15/2015	14:09:44.581	$GPGGA,140945,2424.8134,N,08055.0578,W,1,6,2.1,16,M,,M,,*53
06/15/2015	14:09:45.570	$GPGGA,140946,2424.8128,N,08055.0569,W,1,7,2.1,16,M,,M,,*5C
06/15/2015	14:09:46.590	$GPGGA,140947,2424.8124,N,08055.0559,W,1,7,2.1,16,M,,M,,*52
06/15/2015	14:09:47.570	$GPGGA,140948,2424.8120,N,08055.0549,W,1,7,2.1,17,M,,M,,*59
06/15/2015	14:09:48.480	$GPGGA,140949,2424.8114,N,08055.0540,W,1,7,2.1,17,M,,M,,*56
06/15/2015	14:09:49.580	$GPGGA,140950,2424.8109,N,08055.0532,W,1,6,3.4,17,M,,M,,*52
06/15/2015	14:09:50.560	$GPGGA,140951,2424.8105,N,08055.0523,W,1,6,2.1,17,M,,M,,*5B
06/15/2015	14:09:51.581	$GPGGA,140952,2424.8103,N,08055.0512,W,1,7,2.1,17,M,,M,,*5D
06/15/2015	14:09:52.561	$GPGGA,140953,2424.8099,N,08055.0505,W,1,7,2.1,17,M,,M,,*58
06/15/2015	14:09:53.561	$GPGGA,140954,2424.8091,N,08055.0496,W,1,7,2.1,17,M,,M,,*5C
06/15/2015	14:09:54.561	$GPGGA,140955,2424.8089,N,08055.0486,W,1,7,3.4,17,M,,M,,*51
06/15/2015	14:09:55.581	$GPGGA,140956,2424.8087,N,08055.0476,W,1,7,2.1,17,M,,M,,*57
06/15/2015	14:09:56.571	$GPGGA,140957,2424.8082,N,08055.0467,W,1,7,2.1,17,M,,M,,*53
06/15/2015	14:09:57.561	$GPGGA,140958,2424.8076,N,08055.0458,W,1,7,2.1,17,M,,M,,*5B
06/15/2015	14:09:58.551	$GPGGA,140959,2424.8073,N,08055.0447,W,1,7,2.1,17,M,,M,,*51
06/15/2015	14:09:59.591	$GPGGA,141000,2424.8069,N,08055.0438,W,1,7,2.1,17,M,,M,,*56
06/15/2015	14:10:00.541	$GPGGA,141001,2424.8065,N,08055.0429,W,1,7,2.1,17,M,,M,,*5B
06/15/2015	14:10:01.533	$GPGGA,141002,2424.8060,N,08055.0418,W,1,7,2.1,18,M,,M,,*50
06/15/2015	14:10:02.541	$GPGGA,141003,2424.8057,N,08055.0408,W,1,7,2.1,18,M,,M,,*54
06/15/2015	14:10:03.570	$GPGGA,141004,2424.8053,N,08055.0399,W,1,7,2.1,18,M,,M,,*58
06/15/2015	14:10:04.522	$GPGGA,141005,2424.8048,N,08055.0389,W,1,7,2.1,18,M,,M,,*52
06/15/2015	14:10:05.560	$GPGGA,141006,2424.8044,N,08055.0378,W,1,7,2.1,18,M,,M,,*53
06/15/2015	14:10:06.540	$GPGGA,141007,2424.8040,N,08055.0366,W,1,7,2.1,18,M,,M,,*59
06/15/2015	14:10:07.550	$GPGGA,141008,2424.8036,N,08055.0355,W,1,6,3.4,18,M,,M,,*52
06/15/2015	14:10:08.530	$GPGGA,141009,2424.8031,N,08055.0346,W,1,6,3.4,18,M,,M,,*56
06/15/2015	14:10:09.551	$GPGGA,141010,2424.8026,N,08055.0336,W,1,7,2.1,18,M,,M,,*5A
06/15/2015	14:10:10.511	$GPGGA,141011,2424.8024,N,08055.0326,W,1,7,2.1,18,M,,M,,*58
06/15/2015	14:10:11.521	$GPGGA,141012,2424.8022,N,08055.0315,W,1,7,2.1,18,M,,M,,*5D
06/15/2015	14:10:12.511	$GPGGA,141013,2424.8017,N,08055.0306,W,1,7,2.1,18,M,,M,,*58
06/15/2015	14:10:13.511	$GPGGA,141014,2424.8013,N,08055.0297,W,1,7,2.1,18,M,,M,,*52
06/15/2015	14:10:14.531	$GPGGA,141015,2424.8010,N,08055.0288,W,1,7,2.1,18,M,,M,,*5E
06/15/2015	14:10:15.523	$GPGGA,141016,2424.8008,N,08055.0276,W,1,7,2.1,18,M,,M,,*55
06/15/2015	14:10:16.522	$GPGGA,141017,2424.8004,N,08055.0266,W,1,7,2.1,18,M,,M,,*59
06/15/2015	14:10:17.521	$GPGGA,141018,2424.7999,N,08055.0258,W,1,7,2.1,18,M,,M,,*59
06/15/2015	14:10:18.611	$GPGGA,141019,2424.7995,N,08055.0248,W,1,7,2.1,18,M,,M,,*55
06/15/2015	14:10:19.535	$GPGGA,141020,2424.7993,N,08055.0236,W,1,7,2.1,18,M,,M,,*50
06/15/2015	14:10:20.591	$GPGGA,141021,2424.7990,N,08055.0227,W,1,7,2.1,18,M,,M,,*52
06/15/2015	14:10:21.510	$GPGGA,141022,2424.7986,N,08055.0218,W,1,7,2.1,18,M,,M,,*5A
06/15/2015	14:10:22.590	$GPGGA,141023,2424.7981,N,08055.0207,W,1,7,2.1,18,M,,M,,*52
06/15/2015	14:10:23.600	$GPGGA,141024,2424.7979,N,08055.0196,W,1,7,2.1,18,M,,M,,*59
06/15/2015	14:10:24.500	$GPGGA,141025,2424.7975,N,08055.0188,W,1,7,2.1,18,M,,M,,*5B
06/15/2015	14:10:25.480	$GPGGA,141026,2424.7971,N,08055.0177,W,1,7,2.1,18,M,,M,,*5C
06/15/2015	14:10:26.511	$GPGGA,141027,2424.7968,N,08055.0167,W,1,7,2.1,18,M,,M,,*54
06/15/2015	14:10:27.511	$GPGGA,141028,2424.7964,N,08055.0158,W,1,7,2.1,18,M,,M,,*5B
06/15/2015	14:10:28.601	$GPGGA,141029,2424.7959,N,08055.0148,W,1,7,2.1,18,M,,M,,*55
06/15/2015	14:10:29.601	$GPGGA,141030,2424.7957,N,08055.0137,W,1,7,2.1,18,M,,M,,*5B
06/15/2015	14:10:30.591	$GPGGA,141031,2424.7952,N,08055.0127,W,1,7,2.1,18,M,,M,,*5E
06/15/2015	14:10:31.592	$GPGGA,141032,2424.7947,N,08055.0118,W,1,7,2.1,18,M,,M,,*55
06/15/2015	14:10:32.491	$GPGGA,141033,2424.7941,N,08055.0108,W,1,7,3.4,18,M,,M,,*57
06/15/2015	14:10:33.571	$GPGGA,141034,2424.7939,N,08055.0097,W,1,6,3.4,18,M,,M,,*59
06/15/2015	14:10:34.571	$GPGGA,141035,2424.7935,N,08055.0088,W,1,6,2.1,18,M,,M,,*5E
06/15/2015	14:10:35.571	$GPGGA,141036,2424.7932,N,08055.0081,W,1,7,2.1,18,M,,M,,*52
06/15/2015	14:10:36.561	$GPGGA,141037,2424.7926,N,08055.0071,W,1,7,2.1,18,M,,M,,*59
06/15/2015	14:10:37.591	$GPGGA,141038,2424.7925,N,08055.0063,W,1,6,3.4,18,M,,M,,*53
06/15/2015	14:10:38.560	$GPGGA,141039,2424.7921,N,08055.0053,W,1,6,2.1,18,M,,M,,*51
06/15/2015	14:10:39.600	$GPGGA,141040,2424.7914,N,08055.0044,W,1,7,2.1,18,M,,M,,*5E
06/15/2015	14:10:40.570	$GPGGA,141041,2424.7912,N,08055.0036,W,1,7,3.4,18,M,,M,,*58
06/15/2015	14:10:41.570	$GPGGA,141042,2424.7906,N,08055.0026,W,1,7,2.1,18,M,,M,,*5B
06/15/2015	14:10:42.550	$GPGGA,141043,2424.7903,N,08055.0018,W,1,7,2.1,18,M,,M,,*52
06/15/2015	14:10:43.580	$GPGGA,141044,2424.7901,N,08055.0011,W,1,7,2.1,18,M,,M,,*5E
06/15/2015	14:10:44.561	$GPGGA,141045,2424.7898,N,08055.0005,W,1,7,2.1,18,M,,M,,*5B
06/15/2015	14:10:45.561	$GPGGA,141046,2424.7893,N,08054.9998,W,1,7,2.1,18,M,,M,,*56
06/15/2015	14:10:46.551	$GPGGA,141047,2424.7890,N,08054.9988,W,1,7,2.1,18,M,,M,,*55
06/15/2015	14:10:47.891	$GPGGA,141048,2424.7886,N,08054.9980,W,1,7,2.1,18,M,,M,,*55
06/15/2015	14:10:48.536	$GPGGA,141049,2424.7880,N,08054.9973,W,1,7,2.1,18,M,,M,,*5E
06/15/2015	14:10:49.561	$GPGGA,141050,2424.7874,N,08054.9964,W,1,6,3.4,18,M,,M,,*5E
06/15/2015	14:10:50.537	$GPGGA,141051,2424.7869,N,08054.9954,W,1,6,2.1,18,M,,M,,*54
06/15/2015	14:10:52.561	$GPGGA,141053,2424.7858,N,08054.9940,W,1,7,2.1,18,M,,M,,*50
06/15/2015	14:10:53.561	$GPGGA,141054,2424.7853,N,08054.9932,W,1,7,2.1,19,M,,M,,*58
06/15/2015	14:10:54.529	$GPGGA,141055,2424.7849,N,08054.9922,W,1,7,2.1,19,M,,M,,*53
06/15/2015	14:10:55.570	$GPGGA,141056,2424.7843,N,08054.9916,W,1,7,2.1,19,M,,M,,*5D
06/15/2015	14:10:56.510	$GPGGA,141057,2424.7838,N,08054.9909,W,1,7,2.1,19,M,,M,,*5E
06/15/2015	14:10:57.550	$GPGGA,141058,2424.7832,N,08054.9899,W,1,7,2.1,19,M,,M,,*53
06/15/2015	14:10:58.520	$GPGGA,141059,2424.7827,N,08054.9891,W,1,7,2.1,19,M,,M,,*5E
06/15/2015	14:10:59.533	$GPGGA,141100,2424.7821,N,08054.9885,W,1,7,2.1,19,M,,M,,*50
06/15/2015	14:11:00.520	$GPGGA,141101,2424.7816,N,08054.9878,W,1,7,2.1,19,M,,M,,*57
06/15/2015	14:11:01.511	$GPGGA,141102,2424.7811,N,08054.9867,W,1,7,2.1,19,M,,M,,*5D
06/15/2015	14:11:02.522	$GPGGA,141103,2424.7806,N,08054.9860,W,1,7,2.1,18,M,,M,,*5C
06/15/2015	14:11:03.531	$GPGGA,141104,2424.7800,N,08054.9856,W,1,7,2.1,18,M,,M,,*58
06/15/2015	14:11:04.511	$GPGGA,141105,2424.7795,N,08054.9848,W,1,7,2.1,18,M,,M,,*55
06/15/2015	14:11:05.626	$GPGGA,141106,2424.7791,N,08054.9838,W,1,7,2.1,18,M,,M,,*55
06/15/2015	14:11:06.511	$GPGGA,141107,2424.7785,N,08054.9831,W,1,7,2.1,18,M,,M,,*58
06/15/2015	14:11:07.537	$GPGGA,141108,2424.7780,N,08054.9827,W,1,7,2.1,18,M,,M,,*55
06/15/2015	14:11:08.491	$GPGGA,141109,2424.7774,N,08054.9820,W,1,7,2.1,18,M,,M,,*58
06/15/2015	14:11:09.501	$GPGGA,141110,2424.7769,N,08054.9811,W,1,7,2.1,18,M,,M,,*5E
06/15/2015	14:11:10.481	$GPGGA,141111,2424.7764,N,08054.9804,W,1,7,2.1,18,M,,M,,*56
06/15/2015	14:11:11.531	$GPGGA,141112,2424.7758,N,08054.9797,W,1,7,2.1,18,M,,M,,*5F
06/15/2015	14:11:12.501	$GPGGA,141113,2424.7755,N,08054.9792,W,1,7,3.3,18,M,,M,,*55
06/15/2015	14:11:13.580	$GPGGA,141114,2424.7749,N,08054.9784,W,1,7,2.1,18,M,,M,,*5B
06/15/2015	14:11:14.480	$GPGGA,141115,2424.7744,N,08054.9778,W,1,7,2.1,18,M,,M,,*54
06/15/2015	14:11:15.480	$GPGGA,141116,2424.7739,N,08054.9770,W,1,7,2.1,18,M,,M,,*55
06/15/2015	14:11:16.490	$GPGGA,141117,2424.7734,N,08054.9763,W,1,7,2.1,18,M,,M,,*5B
06/15/2015	14:11:17.480	$GPGGA,141118,2424.7729,N,08054.9755,W,1,7,2.1,18,M,,M,,*5D
06/15/2015	14:11:18.490	$GPGGA,141119,2424.7724,N,08054.9748,W,1,7,2.1,18,M,,M,,*5D
06/15/2015	14:11:19.611	$GPGGA,141120,2424.7719,N,08054.9741,W,1,7,2.1,18,M,,M,,*50
06/15/2015	14:11:20.571	$GPGGA,141121,2424.7715,N,08054.9733,W,1,7,2.1,18,M,,M,,*58
06/15/2015	14:11:21.581	$GPGGA,141122,2424.7709,N,08054.9724,W,1,7,2.1,18,M,,M,,*50
06/15/2015	14:11:22.571	$GPGGA,141123,2424.7704,N,08054.9717,W,1,7,2.1,18,M,,M,,*5C
06/15/2015	14:11:23.581	$GPGGA,141124,2424.7697,N,08054.9710,W,1,7,2.1,18,M,,M,,*57
06/15/2015	14:11:24.561	$GPGGA,141125,2424.7692,N,08054.9702,W,1,7,2.1,18,M,,M,,*50
06/15/2015	14:11:25.601	$GPGGA,141126,2424.7686,N,08054.9692,W,1,7,2.1,18,M,,M,,*5E
06/15/2015	14:11:26.561	$GPGGA,141127,2424.7679,N,08054.9683,W,1,7,3.3,18,M,,M,,*5C
06/15/2015	14:11:27.601	$GPGGA,141128,2424.7674,N,08054.9677,W,1,6,3.3,18,M,,M,,*54
06/15/2015	14:11:28.551	$GPGGA,141129,2424.7669,N,08054.9667,W,1,6,2.1,18,M,,M,,*5B
06/15/2015	14:11:29.571	$GPGGA,141130,2424.7666,N,08054.9660,W,1,6,3.3,18,M,,M,,*58
06/15/2015	14:11:30.540	$GPGGA,141131,2424.7661,N,08054.9652,W,1,6,2.1,18,M,,M,,*5C
06/15/2015	14:11:31.570	$GPGGA,141132,2424.7654,N,08054.9643,W,1,7,2.1,18,M,,M,,*58
06/15/2015	14:11:32.560	$GPGGA,141133,2424.7647,N,08054.9633,W,1,7,3.3,18,M,,M,,*5F
06/15/2015	14:11:33.560	$GPGGA,141134,2424.7641,N,08054.9623,W,1,6,3.3,18,M,,M,,*5E
06/15/2015	14:11:34.540	$GPGGA,141135,2424.7634,N,08054.9614,W,1,6,3.3,18,M,,M,,*59
06/15/2015	14:11:35.560	$GPGGA,141136,2424.7632,N,08054.9608,W,1,6,3.3,18,M,,M,,*51
06/15/2015	14:11:36.541	$GPGGA,141137,2424.7626,N,08054.9598,W,1,6,2.1,18,M,,M,,*5C
06/15/2015	14:11:37.531	$GPGGA,141138,2424.7621,N,08054.9588,W,1,6,3.3,18,M,,M,,*56
06/15/2015	14:11:38.533	$GPGGA,141139,2424.7616,N,08054.9581,W,1,6,3.3,18,M,,M,,*5A
06/15/2015	14:11:39.561	$GPGGA,141140,2424.7614,N,08054.9574,W,1,7,2.1,18,M,,M,,*5E
06/15/2015	14:11:40.541	$GPGGA,141141,2424.7608,N,08054.9563,W,1,7,2.1,18,M,,M,,*54
06/15/2015	14:11:41.551	$GPGGA,141142,2424.7603,N,08054.9553,W,1,6,3.3,18,M,,M,,*5D
06/15/2015	14:11:42.531	$GPGGA,141143,2424.7596,N,08054.9543,W,1,6,3.3,18,M,,M,,*52
06/15/2015	14:11:43.561	$GPGGA,141144,2424.7590,N,08054.9533,W,1,6,3.3,18,M,,M,,*54
06/15/2015	14:11:44.531	$GPGGA,141145,2424.7585,N,08054.9523,W,1,6,3.3,18,M,,M,,*50
06/15/2015	14:11:45.551	$GPGGA,141146,2424.7578,N,08054.9512,W,1,6,3.3,18,M,,M,,*53
06/15/2015	14:11:46.522	$GPGGA,141147,2424.7572,N,08054.9503,W,1,6,3.3,18,M,,M,,*58
06/15/2015	14:11:47.533	$GPGGA,141148,2424.7567,N,08054.9494,W,1,6,3.3,18,M,,M,,*5C
06/15/2015	14:11:48.520	$GPGGA,141149,2424.7561,N,08054.9483,W,1,6,3.3,17,M,,M,,*52
06/15/2015	14:11:49.540	$GPGGA,141150,2424.7556,N,08054.9472,W,1,6,3.3,17,M,,M,,*50
06/15/2015	14:11:50.522	$GPGGA,141151,2424.7549,N,08054.9464,W,1,6,3.3,17,M,,M,,*58
