Software Version Number: 1	Data File Format Number: 1	Build Version Number: 1	Error Count Since VI Started: 1	Manufacturer: Raytheon	 Model Number: RayMarine 120	 S/N: 	 Cal Date: 	 Wind Direction Offset: 0.00	 Slope (M)1: 0.00	 Offset (B)1: 0.00	 Slope (M)2: 0.00	 Offset (B)2: 0.00	 Slope (M)3: 0.00	 Offset (B)3: 0.00	 Slope (M)4: 0.00	 Offset (B)4: 0.00	 Slope (M)5: 0.00	 Offset (B)5: 0.00	 Slope (M)6: 0.00	 Offset (B)6: 0.00
Computer Date	Computer Time	GGA String
06/15/2015	15:00:00.526	$GPGGA,150001,2423.3855,N,08052.4735,W,1,8,2.0,15,M,,M,,*5D
06/15/2015	15:00:01.552	$GPGGA,150002,2423.3853,N,08052.4728,W,1,8,2.0,15,M,,M,,*54
06/15/2015	15:00:02.529	$GPGGA,150003,2423.3847,N,08052.4722,W,1,8,2.0,15,M,,M,,*5A
06/15/2015	15:00:03.541	$GPGGA,150004,2423.3843,N,08052.4717,W,1,8,2.0,15,M,,M,,*5F
06/15/2015	15:00:04.506	$GPGGA,150005,2423.3840,N,08052.4711,W,1,8,2.0,15,M,,M,,*5B
06/15/2015	15:00:05.606	$GPGGA,150006,2423.3835,N,08052.4703,W,1,8,2.0,15,M,,M,,*59
06/15/2015	15:00:06.516	$GPGGA,150007,2423.3830,N,08052.4696,W,1,8,2.0,15,M,,M,,*50
06/15/2015	15:00:07.628	$GPGGA,150008,2423.3826,N,08052.4690,W,1,8,2.0,15,M,,M,,*5E
06/15/2015	15:00:08.516	$GPGGA,150009,2423.3822,N,08052.4685,W,1,8,2.0,15,M,,M,,*5F
06/15/2015	15:00:09.606	$GPGGA,150010,2423.3818,N,08052.4678,W,1,8,2.0,15,M,,M,,*5C
06/15/2015	15:00:10.595	$GPGGA,150011,2423.3814,N,08052.4670,W,1,8,2.0,15,M,,M,,*59
06/15/2015	15:00:11.605	$GPGGA,150012,2423.3810,N,08052.4664,W,1,8,2.0,15,M,,M,,*5B
06/15/2015	15:00:12.595	$GPGGA,150013,2423.3806,N,08052.4658,W,1,8,2.0,15,M,,M,,*52
06/15/2015	15:00:13.495	$GPGGA,150014,2423.3802,N,08052.4651,W,1,8,2.0,15,M,,M,,*58
06/15/2015	15:00:14.565	$GPGGA,150015,2423.3797,N,08052.4645,W,1,8,2.0,15,M,,M,,*5F
06/15/2015	15:00:15.595	$GPGGA,150016,2423.3793,N,08052.4638,W,1,8,2.0,15,M,,M,,*52
06/15/2015	15:00:16.575	$GPGGA,150017,2423.3790,N,08052.4632,W,1,8,2.0,15,M,,M,,*5A
06/15/2015	15:00:17.565	$GPGGA,150018,2423.3785,N,08052.4625,W,1,8,2.0,15,M,,M,,*57
06/15/2015	15:00:18.565	$GPGGA,150019,2423.3781,N,08052.4619,W,1,8,2.0,15,M,,M,,*5D
06/15/2015	15:00:19.565	$GPGGA,150020,2423.3778,N,08052.4613,W,1,8,2.0,15,M,,M,,*5B
06/15/2015	15:00:20.555	$GPGGA,150021,2423.3774,N,08052.4606,W,1,8,2.0,15,M,,M,,*52
06/15/2015	15:00:21.585	$GPGGA,150022,2423.3770,N,08052.4599,W,1,8,2.0,15,M,,M,,*50
06/15/2015	15:00:22.556	$GPGGA,150023,2423.3766,N,08052.4593,W,1,8,2.0,15,M,,M,,*5C
06/15/2015	15:00:23.596	$GPGGA,150024,2423.3763,N,08052.4587,W,1,8,2.0,15,M,,M,,*5B
06/15/2015	15:00:24.556	$GPGGA,150025,2423.3759,N,08052.4579,W,1,8,2.0,15,M,,M,,*52
06/15/2015	15:00:25.556	$GPGGA,150026,2423.3754,N,08052.4573,W,1,8,2.0,15,M,,M,,*56
06/15/2015	15:00:26.556	$GPGGA,150027,2423.3750,N,08052.4567,W,1,8,2.0,15,M,,M,,*56
06/15/2015	15:00:27.575	$GPGGA,150028,2423.3746,N,08052.4561,W,1,8,2.0,15,M,,M,,*58
06/15/2015	15:00:28.841	$GPGGA,150029,2423.3743,N,08052.4553,W,1,8,2.0,15,M,,M,,*5D
06/15/2015	15:00:29.548	$GPGGA,150030,2423.3739,N,08052.4546,W,1,8,2.0,15,M,,M,,*5C
06/15/2015	15:00:30.575	$GPGGA,150031,2423.3734,N,08052.4540,W,1,8,2.0,15,M,,M,,*56
06/15/2015	15:00:31.575	$GPGGA,150032,2423.3731,N,08052.4534,W,1,8,2.0,15,M,,M,,*53
06/15/2015	15:00:32.537	$GPGGA,150033,2423.3727,N,08052.4527,W,1,8,2.0,15,M,,M,,*57
06/15/2015	15:00:33.575	$GPGGA,150034,2423.3723,N,08052.4520,W,1,8,2.0,15,M,,M,,*53
06/15/2015	15:00:34.528	$GPGGA,150035,2423.3720,N,08052.4514,W,1,8,2.0,15,M,,M,,*56
06/15/2015	15:00:35.565	$GPGGA,150036,2423.3716,N,08052.4508,W,1,8,2.0,15,M,,M,,*5D
06/15/2015	15:00:36.815	$GPGGA,150037,2423.3712,N,08052.4503,W,1,8,2.0,15,M,,M,,*53
06/15/2015	15:00:37.515	$GPGGA,150038,2423.3708,N,08052.4497,W,1,8,2.0,15,M,,M,,*5B
06/15/2015	15:00:38.535	$GPGGA,150039,2423.3705,N,08052.4488,W,1,8,2.0,15,M,,M,,*59
06/15/2015	15:00:39.556	$GPGGA,150040,2423.3702,N,08052.4481,W,1,8,2.0,15,M,,M,,*59
06/15/2015	15:00:40.516	$GPGGA,150041,2423.3698,N,08052.4477,W,1,8,2.0,15,M,,M,,*53
06/15/2015	15:00:41.516	$GPGGA,150042,2423.3694,N,08052.4471,W,1,8,2.0,15,M,,M,,*5A
06/15/2015	15:00:42.542	$GPGGA,150043,2423.3690,N,08052.4462,W,1,8,2.0,15,M,,M,,*5D
06/15/2015	15:00:43.556	$GPGGA,150044,2423.3688,N,08052.4454,W,1,8,2.0,15,M,,M,,*56
06/15/2015	15:00:44.516	$GPGGA,150045,2423.3683,N,08052.4450,W,1,8,2.0,15,M,,M,,*58
06/15/2015	15:00:45.535	$GPGGA,150046,2423.3680,N,08052.4445,W,1,8,2.0,15,M,,M,,*5C
06/15/2015	15:00:46.945	$GPGGA,150047,2423.3676,N,08052.4436,W,1,8,2.0,15,M,,M,,*50
06/15/2015	15:00:47.626	$GPGGA,150048,2423.3673,N,08052.4428,W,1,8,2.0,15,M,,M,,*55
06/15/2015	15:00:48.495	$GPGGA,150049,2423.3670,N,08052.4422,W,1,8,2.0,15,M,,M,,*5D
06/15/2015	15:00:49.485	$GPGGA,150050,2423.3666,N,08052.4417,W,1,8,2.0,15,M,,M,,*54
06/15/2015	15:00:50.515	$GPGGA,150051,2423.3662,N,08052.4411,W,1,8,2.0,15,M,,M,,*57
06/15/2015	15:00:51.625	$GPGGA,150052,2423.3659,N,08052.4401,W,1,8,2.0,15,M,,M,,*5D
06/15/2015	15:00:52.505	$GPGGA,150053,2423.3658,N,08052.4395,W,1,8,2.0,15,M,,M,,*57
06/15/2015	15:00:53.485	$GPGGA,150054,2423.3653,N,08052.4392,W,1,8,2.0,15,M,,M,,*5C
06/15/2015	15:00:54.605	$GPGGA,150055,2423.3649,N,08052.4385,W,1,8,2.0,15,M,,M,,*50
06/15/2015	15:00:55.595	$GPGGA,150056,2423.3647,N,08052.4375,W,1,8,2.0,15,M,,M,,*52
06/15/2015	15:00:56.485	$GPGGA,150057,2423.3644,N,08052.4370,W,1,8,2.0,15,M,,M,,*55
06/15/2015	15:00:57.606	$GPGGA,150058,2423.3640,N,08052.4367,W,1,8,2.0,15,M,,M,,*58
06/15/2015	15:00:58.486	$GPGGA,150059,2423.3636,N,08052.4359,W,1,8,2.0,15,M,,M,,*55
06/15/2015	15:00:59.596	$GPGGA,150100,2423.3634,N,08052.4350,W,1,8,2.0,15,M,,M,,*53
06/15/2015	15:01:00.576	$GPGGA,150101,2423.3633,N,08052.4344,W,1,8,2.0,15,M,,M,,*50
06/15/2015	15:01:01.566	$GPGGA,150102,2423.3629,N,08052.4340,W,1,8,2.0,15,M,,M,,*5C
06/15/2015	15:01:02.575	$GPGGA,150103,2423.3624,N,08052.4334,W,1,8,2.0,15,M,,M,,*53
06/15/2015	15:01:03.575	$GPGGA,150104,2423.3622,N,08052.4325,W,1,8,2.0,15,M,,M,,*52
06/15/2015	15:01:04.575	$GPGGA,150105,2423.3620,N,08052.4318,W,1,8,2.1,15,M,,M,,*5E
06/15/2015	15:01:05.565	$GPGGA,150106,2423.3616,N,08052.4313,W,1,8,2.1,15,M,,M,,*53
06/15/2015	15:01:06.565	$GPGGA,150107,2423.3612,N,08052.4309,W,1,8,2.1,15,M,,M,,*5D
06/15/2015	15:01:07.565	$GPGGA,150108,2423.3609,N,08052.4302,W,1,8,2.1,15,M,,M,,*53
06/15/2015	15:01:08.565	$GPGGA,150109,2423.3606,N,08052.4293,W,1,8,2.1,15,M,,M,,*54
06/15/2015	15:01:09.555	$GPGGA,150110,2423.3604,N,08052.4286,W,1,8,2.1,15,M,,M,,*5A
06/15/2015	15:01:10.545	$GPGGA,150111,2423.3598,N,08052.4281,W,1,8,2.1,15,M,,M,,*5A
06/15/2015	15:01:11.595	$GPGGA,150112,2423.3594,N,08052.4275,W,1,8,2.1,15,M,,M,,*5E
06/15/2015	15:01:12.555	$GPGGA,150113,2423.3593,N,08052.4267,W,1,8,2.1,15,M,,M,,*5B
06/15/2015	15:01:13.545	$GPGGA,150114,2423.3589,N,08052.4260,W,1,8,2.1,15,M,,M,,*50
06/15/2015	15:01:14.606	$GPGGA,150115,2423.3586,N,08052.4253,W,1,8,2.1,15,M,,M,,*5E
06/15/2015	15:01:15.576	$GPGGA,150116,2423.3582,N,08052.4247,W,1,8,2.1,15,M,,M,,*5C
06/15/2015	15:01:16.536	$GPGGA,150117,2423.3577,N,08052.4240,W,1,8,2.1,15,M,,M,,*50
06/15/2015	15:01:17.566	$GPGGA,150118,2423.3575,N,08052.4235,W,1,8,2.1,15,M,,M,,*5F
06/15/2015	15:01:18.547	$GPGGA,150119,2423.3572,N,08052.4227,W,1,8,2.1,15,M,,M,,*5A
06/15/2015	15:01:19.538	$GPGGA,150120,2423.3568,N,08052.4220,W,1,8,2.1,15,M,,M,,*5C
06/15/2015	15:01:20.538	$GPGGA,150121,2423.3564,N,08052.4215,W,1,8,2.1,15,M,,M,,*57
06/15/2015	15:01:21.555	$GPGGA,150122,2423.3561,N,08052.4209,W,1,8,2.1,15,M,,M,,*5C
06/15/2015	15:01:22.535	$GPGGA,150123,2423.3558,N,08052.4202,W,1,8,2.1,15,M,,M,,*5C
06/15/2015	15:01:23.539	$GPGGA,150124,2423.3554,N,08052.4196,W,1,8,2.1,15,M,,M,,*59
06/15/2015	15:01:24.536	$GPGGA,150125,2423.3550,N,08052.4189,W,1,8,2.1,15,M,,M,,*52
06/15/2015	15:01:25.555	$GPGGA,150126,2423.3547,N,08052.4183,W,1,8,2.1,15,M,,M,,*5D
06/15/2015	15:01:26.534	$GPGGA,150127,2423.3542,N,08052.4179,W,1,8,2.1,15,M,,M,,*5C
06/15/2015	15:01:27.565	$GPGGA,150128,2423.3539,N,08052.4171,W,1,8,2.1,15,M,,M,,*57
06/15/2015	15:01:28.515	$GPGGA,150129,2423.3535,N,08052.4162,W,1,8,2.1,15,M,,M,,*58
06/15/2015	15:01:29.505	$GPGGA,150130,2423.3531,N,08052.4157,W,1,8,2.1,15,M,,M,,*52
06/15/2015	15:01:30.525	$GPGGA,150131,2423.3528,N,08052.4152,W,1,8,2.1,15,M,,M,,*5E
06/15/2015	15:01:31.538	$GPGGA,150132,2423.3522,N,08052.4146,W,1,8,2.1,15,M,,M,,*52
06/15/2015	15:01:32.506	$GPGGA,150133,2423.3519,N,08052.4137,W,1,8,2.1,15,M,,M,,*5D
06/15/2015	15:01:33.516	$GPGGA,150134,2423.3517,N,08052.4130,W,1,8,2.1,15,M,,M,,*53
06/15/2015	15:01:34.506	$GPGGA,150135,2423.3511,N,08052.4126,W,1,8,2.1,15,M,,M,,*53
06/15/2015	15:01:36.646	$GPGGA,150137,2423.3503,N,08052.4112,W,1,8,2.1,15,M,,M,,*55
06/15/2015	15:01:37.585	$GPGGA,150138,2423.3500,N,08052.4104,W,1,8,2.1,14,M,,M,,*5F
06/15/2015	15:01:38.506	$GPGGA,150139,2423.3495,N,08052.4100,W,1,8,2.1,14,M,,M,,*57
06/15/2015	15:01:39.631	$GPGGA,150140,2423.3492,N,08052.4093,W,1,8,2.1,14,M,,M,,*55
06/15/2015	15:01:40.495	$GPGGA,150141,2423.3488,N,08052.4085,W,1,8,2.1,14,M,,M,,*58
06/15/2015	15:01:41.485	$GPGGA,150142,2423.3483,N,08052.4080,W,1,8,2.1,14,M,,M,,*55
06/15/2015	15:01:42.575	$GPGGA,150143,2423.3479,N,08052.4075,W,1,8,2.1,14,M,,M,,*5B
06/15/2015	15:01:43.645	$GPGGA,150144,2423.3475,N,08052.4068,W,1,8,2.1,14,M,,M,,*5C
06/15/2015	15:01:44.615	$GPGGA,150145,2423.3471,N,08052.4060,W,1,8,2.1,14,M,,M,,*51
06/15/2015	15:01:45.475	$GPGGA,150146,2423.3467,N,08052.4055,W,1,8,2.1,14,M,,M,,*53
06/15/2015	15:01:46.575	$GPGGA,150147,2423.3463,N,08052.4050,W,1,8,2.1,14,M,,M,,*53
06/15/2015	15:01:47.605	$GPGGA,150148,2423.3459,N,08052.4042,W,1,8,2.1,14,M,,M,,*56
06/15/2015	15:01:48.575	$GPGGA,150149,2423.3456,N,08052.4035,W,1,8,2.1,14,M,,M,,*58
06/15/2015	15:01:49.576	$GPGGA,150150,2423.3450,N,08052.4030,W,1,8,2.1,14,M,,M,,*53
06/15/2015	15:01:50.566	$GPGGA,150151,2423.3445,N,08052.4024,W,1,8,2.1,14,M,,M,,*53
06/15/2015	15:01:51.576	$GPGGA,150152,2423.3441,N,08052.4018,W,1,8,2.1,14,M,,M,,*5B
06/15/2015	15:01:52.566	$GPGGA,150153,2423.3438,N,08052.4012,W,1,8,2.1,14,M,,M,,*5E
06/15/2015	15:01:53.566	$GPGGA,150154,2423.3434,N,08052.4005,W,1,8,2.1,14,M,,M,,*53
06/15/2015	15:01:54.566	$GPGGA,150155,2423.3429,N,08052.3999,W,1,8,2.1,14,M,,M,,*55
06/15/2015	15:01:55.595	$GPGGA,150156,2423.3424,N,08052.3995,W,1,8,2.1,14,M,,M,,*57
06/15/2015	15:01:56.555	$GPGGA,150157,2423.3420,N,08052.3989,W,1,8,2.1,14,M,,M,,*5F
06/15/2015	15:01:57.575	$GPGGA,150158,2423.3417,N,08052.3980,W,1,8,2.1,14,M,,M,,*5D
06/15/2015	15:01:58.565	$GPGGA,150159,2423.3412,N,08052.3975,W,1,8,2.1,14,M,,M,,*53
06/15/2015	15:01:59.585	$GPGGA,150200,2423.3409,N,08052.3971,W,1,8,2.1,14,M,,M,,*52
06/15/2015	15:02:00.555	$GPGGA,150201,2423.3403,N,08052.3965,W,1,8,2.1,14,M,,M,,*5C
06/15/2015	15:02:01.543	$GPGGA,150202,2423.3400,N,08052.3957,W,1,8,2.1,14,M,,M,,*5D
06/15/2015	15:02:02.545	$GPGGA,150203,2423.3396,N,08052.3951,W,1,8,2.1,14,M,,M,,*52
06/15/2015	15:02:03.585	$GPGGA,150204,2423.3391,N,08052.3948,W,1,8,2.1,14,M,,M,,*5A
06/15/2015	15:02:04.547	$GPGGA,150205,2423.3387,N,08052.3941,W,1,8,2.1,14,M,,M,,*55
06/15/2015	15:02:05.543	$GPGGA,150206,2423.3384,N,08052.3933,W,1,8,2.1,14,M,,M,,*50
06/15/2015	15:02:06.532	$GPGGA,150207,2423.3380,N,08052.3929,W,1,8,2.1,14,M,,M,,*5E
06/15/2015	15:02:07.541	$GPGGA,150208,2423.3376,N,08052.3923,W,1,8,2.1,14,M,,M,,*52
06/15/2015	15:02:08.541	$GPGGA,150209,2423.3371,N,08052.3915,W,1,8,2.1,14,M,,M,,*51
06/15/2015	15:02:09.546	$GPGGA,150210,2423.3367,N,08052.3909,W,1,8,2.1,14,M,,M,,*53
06/15/2015	15:02:10.534	$GPGGA,150211,2423.3363,N,08052.3905,W,1,8,2.1,14,M,,M,,*5A
06/15/2015	15:02:11.530	$GPGGA,150212,2423.3359,N,08052.3898,W,1,8,2.1,14,M,,M,,*55
06/15/2015	15:02:12.534	$GPGGA,150213,2423.3355,N,08052.3889,W,1,8,2.1,14,M,,M,,*58
06/15/2015	15:02:13.515	$GPGGA,150214,2423.3351,N,08052.3883,W,1,8,2.1,14,M,,M,,*51
06/15/2015	15:02:14.515	$GPGGA,150215,2423.3346,N,08052.3879,W,1,8,2.1,14,M,,M,,*53
06/15/2015	15:02:15.565	$GPGGA,150216,2423.3344,N,08052.3872,W,1,8,2.1,14,M,,M,,*59
06/15/2015	15:02:16.645	$GPGGA,150217,2423.3340,N,08052.3862,W,1,8,2.1,14,M,,M,,*5D
06/15/2015	15:02:17.541	$GPGGA,150218,2423.3335,N,08052.3856,W,1,8,2.1,14,M,,M,,*57
06/15/2015	15:02:18.515	$GPGGA,150219,2423.3330,N,08052.3852,W,1,8,2.1,14,M,,M,,*57
06/15/2015	15:02:19.695	$GPGGA,150220,2423.3327,N,08052.3844,W,1,7,2.1,14,M,,M,,*53
06/15/2015	15:02:20.505	$GPGGA,150221,2423.3324,N,08052.3834,W,1,7,2.1,14,M,,M,,*56
06/15/2015	15:02:21.685	$GPGGA,150222,2423.3320,N,08052.3829,W,1,8,2.1,14,M,,M,,*52
06/15/2015	15:02:22.495	$GPGGA,150223,2423.3316,N,08052.3826,W,1,8,2.1,14,M,,M,,*59
06/15/2015	15:02:23.695	$GPGGA,150224,2423.3313,N,08052.3817,W,1,8,2.1,14,M,,M,,*59
06/15/2015	15:02:24.506	$GPGGA,150225,2423.3309,N,08052.3808,W,1,8,2.1,14,M,,M,,*5D
06/15/2015	15:02:25.506	$GPGGA,150226,2423.3306,N,08052.3804,W,1,8,2.1,14,M,,M,,*5D
06/15/2015	15:02:26.506	$GPGGA,150227,2423.3302,N,08052.3799,W,1,8,2.1,14,M,,M,,*53
06/15/2015	15:02:27.686	$GPGGA,150228,2423.3299,N,08052.3791,W,1,8,2.1,14,M,,M,,*57
06/15/2015	15:02:28.606	$GPGGA,150229,2423.3297,N,08052.3784,W,1,8,2.1,14,M,,M,,*5C
06/15/2015	15:02:29.675	$GPGGA,150230,2423.3293,N,08052.3778,W,1,8,2.1,14,M,,M,,*53
06/15/2015	15:02:30.615	$GPGGA,150231,2423.3289,N,08052.3771,W,1,8,2.1,14,M,,M,,*50
06/15/2015	15:02:31.585	$GPGGA,150232,2423.3286,N,08052.3764,W,1,8,2.1,14,M,,M,,*58
06/15/2015	15:02:32.575	$GPGGA,150233,2423.3282,N,08052.3759,W,1,8,2.1,14,M,,M,,*53
06/15/2015	15:02:33.665	$GPGGA,150234,2423.3280,N,08052.3750,W,1,8,2.1,14,M,,M,,*5F
06/15/2015	15:02:34.585	$GPGGA,150235,2423.3276,N,08052.3742,W,1,8,2.1,14,M,,M,,*54
06/15/2015	15:02:35.495	$GPGGA,150236,2423.3271,N,08052.3737,W,1,8,2.1,14,M,,M,,*52
06/15/2015	15:02:36.565	$GPGGA,150237,2423.3268,N,08052.3732,W,1,8,2.1,14,M,,M,,*5E
06/15/2015	15:02:37.675	$GPGGA,150238,2423.3266,N,08052.3723,W,1,8,2.1,14,M,,M,,*5F
06/15/2015	15:02:39.655	$GPGGA,150240,2423.3258,N,08052.3709,W,1,8,2.1,14,M,,M,,*55
06/15/2015	15:02:40.565	$GPGGA,150241,2423.3253,N,08052.3705,W,1,8,2.1,14,M,,M,,*53
06/15/2015	15:02:41.556	$GPGGA,150242,2423.3251,N,08052.3696,W,1,8,2.1,14,M,,M,,*59
06/15/2015	15:02:42.616	$GPGGA,150243,2423.3248,N,08052.3685,W,1,8,2.1,14,M,,M,,*52
06/15/2015	15:02:43.676	$GPGGA,150244,2423.3243,N,08052.3681,W,1,8,2.1,14,M,,M,,*5A
06/15/2015	15:02:44.586	$GPGGA,150245,2423.3239,N,08052.3677,W,1,8,2.1,14,M,,M,,*5F
06/15/2015	15:02:45.656	$GPGGA,150246,2423.3236,N,08052.3667,W,1,8,2.1,14,M,,M,,*52
06/15/2015	15:02:46.546	$GPGGA,150247,2423.3234,N,08052.3658,W,1,8,2.1,14,M,,M,,*5D
06/15/2015	15:02:47.645	$GPGGA,150248,2423.3229,N,08052.3654,W,1,8,2.1,14,M,,M,,*52
06/15/2015	15:02:48.595	$GPGGA,150249,2423.3226,N,08052.3648,W,1,8,2.1,14,M,,M,,*51
06/15/2015	15:02:49.605	$GPGGA,150250,2423.3223,N,08052.3639,W,1,8,2.1,14,M,,M,,*5A
06/15/2015	15:02:50.575	$GPGGA,150251,2423.3221,N,08052.3632,W,1,8,2.1,14,M,,M,,*52
06/15/2015	15:02:51.545	$GPGGA,150252,2423.3217,N,08052.3627,W,1,8,2.1,14,M,,M,,*50
06/15/2015	15:02:52.539	$GPGGA,150253,2423.3212,N,08052.3620,W,1,8,2.1,14,M,,M,,*53
06/15/2015	15:02:53.539	$GPGGA,150254,2423.3210,N,08052.3610,W,1,8,2.1,14,M,,M,,*55
06/15/2015	15:02:54.565	$GPGGA,150255,2423.3207,N,08052.3603,W,1,8,2.1,14,M,,M,,*50
06/15/2015	15:02:55.655	$GPGGA,150256,2423.3203,N,08052.3600,W,1,8,2.1,14,M,,M,,*54
06/15/2015	15:02:56.575	$GPGGA,150257,2423.3199,N,08052.3592,W,1,8,2.1,14,M,,M,,*5D
06/15/2015	15:02:57.645	$GPGGA,150258,2423.3197,N,08052.3581,W,1,8,2.1,14,M,,M,,*5E
06/15/2015	15:02:58.575	$GPGGA,150259,2423.3194,N,08052.3576,W,1,8,2.1,14,M,,M,,*54
06/15/2015	15:02:59.616	$GPGGA,150300,2423.3189,N,08052.3571,W,1,8,2.1,14,M,,M,,*52
06/15/2015	15:03:00.566	$GPGGA,150301,2423.3185,N,08052.3564,W,1,8,2.1,14,M,,M,,*5B
06/15/2015	15:03:01.640	$GPGGA,150302,2423.3183,N,08052.3555,W,1,8,2.1,14,M,,M,,*5C
06/15/2015	15:03:02.546	$GPGGA,150303,2423.3181,N,08052.3548,W,1,8,2.1,14,M,,M,,*53
06/15/2015	15:03:03.527	$GPGGA,150304,2423.3176,N,08052.3543,W,1,8,2.1,14,M,,M,,*57
06/15/2015	15:03:04.506	$GPGGA,150305,2423.3174,N,08052.3535,W,1,8,2.1,14,M,,M,,*55
06/15/2015	15:03:05.585	$GPGGA,150306,2423.3170,N,08052.3527,W,1,8,2.1,14,M,,M,,*51
06/15/2015	15:03:06.557	$GPGGA,150307,2423.3167,N,08052.3522,W,1,8,2.1,14,M,,M,,*53
06/15/2015	15:03:07.639	$GPGGA,150308,2423.3163,N,08052.3515,W,1,8,2.1,14,M,,M,,*5C
06/15/2015	15:03:08.615	$GPGGA,150309,2423.3160,N,08052.3507,W,1,8,2.1,14,M,,M,,*5D
06/15/2015	15:03:09.595	$GPGGA,150310,2423.3156,N,08052.3500,W,1,8,2.1,14,M,,M,,*57
06/15/2015	15:03:10.615	$GPGGA,150311,2423.3152,N,08052.3495,W,1,8,2.1,14,M,,M,,*5F
06/15/2015	15:03:11.615	$GPGGA,150312,2423.3149,N,08052.3487,W,1,8,2.1,14,M,,M,,*55
06/15/2015	15:03:12.495	$GPGGA,150313,2423.3146,N,08052.3478,W,1,8,2.1,14,M,,M,,*5B
06/15/2015	15:03:13.485	$GPGGA,150314,2423.3143,N,08052.3473,W,1,8,2.1,14,M,,M,,*52
06/15/2015	15:03:14.585	$GPGGA,150315,2423.3138,N,08052.3467,W,1,8,2.1,14,M,,M,,*5A
06/15/2015	15:03:15.637	$GPGGA,150316,2423.3135,N,08052.3459,W,1,8,2.1,14,M,,M,,*59
06/15/2015	15:03:16.536	$GPGGA,150317,2423.3132,N,08052.3453,W,1,8,2.1,14,M,,M,,*55
06/15/2015	15:03:17.476	$GPGGA,150318,2423.3128,N,08052.3448,W,1,8,2.1,14,M,,M,,*5B
06/15/2015	15:03:18.596	$GPGGA,150319,2423.3125,N,08052.3440,W,1,8,2.1,14,M,,M,,*5F
06/15/2015	15:03:19.586	$GPGGA,150320,2423.3121,N,08052.3434,W,1,8,2.1,14,M,,M,,*52
06/15/2015	15:03:20.576	$GPGGA,150321,2423.3117,N,08052.3430,W,1,8,2.1,14,M,,M,,*52
06/15/2015	15:03:21.628	$GPGGA,150322,2423.3113,N,08052.3423,W,1,8,2.1,14,M,,M,,*57
06/15/2015	15:03:22.515	$GPGGA,150323,2423.3110,N,08052.3415,W,1,8,2.1,14,M,,M,,*50
06/15/2015	15:03:23.615	$GPGGA,150324,2423.3106,N,08052.3410,W,1,8,2.1,14,M,,M,,*55
06/15/2015	15:03:24.575	$GPGGA,150325,2423.3102,N,08052.3405,W,1,8,2.1,14,M,,M,,*54
06/15/2015	15:03:25.625	$GPGGA,150326,2423.3098,N,08052.3397,W,1,8,2.1,14,M,,M,,*59
06/15/2015	15:03:26.575	$GPGGA,150327,2423.3094,N,08052.3390,W,1,8,2.1,14,M,,M,,*53
06/15/2015	15:03:27.575	$GPGGA,150328,2423.3091,N,08052.3386,W,1,8,2.1,14,M,,M,,*5E
06/15/2015	15:03:28.575	$GPGGA,150329,2423.3087,N,08052.3379,W,1,8,2.1,14,M,,M,,*58
06/15/2015	15:03:29.615	$GPGGA,150330,2423.3083,N,08052.3372,W,1,8,2.1,14,M,,M,,*5F
06/15/2015	15:03:30.555	$GPGGA,150331,2423.3078,N,08052.3366,W,1,8,2.1,14,M,,M,,*5F
06/15/2015	15:03:31.605	$GPGGA,150332,2423.3075,N,08052.3361,W,1,8,2.1,14,M,,M,,*56
06/15/2015	15:03:32.555	$GPGGA,150333,2423.3073,N,08052.3356,W,1,8,2.1,14,M,,M,,*55
06/15/2015	15:03:33.575	$GPGGA,150334,2423.3069,N,08052.3348,W,1,8,2.1,14,M,,M,,*56
06/15/2015	15:03:34.566	$GPGGA,150335,2423.3064,N,08052.3342,W,1,8,2.1,14,M,,M,,*50
06/15/2015	15:03:36.096	$GPGGA,150336,2423.3060,N,08052.3338,W,1,8,2.1,14,M,,M,,*5A
06/15/2015	15:03:36.546	$GPGGA,150337,2423.3056,N,08052.3333,W,1,8,2.1,14,M,,M,,*55
06/15/2015	15:03:37.576	$GPGGA,150338,2423.3053,N,08052.3325,W,1,8,2.1,14,M,,M,,*58
06/15/2015	15:03:38.546	$GPGGA,150339,2423.3049,N,08052.3319,W,1,8,2.1,14,M,,M,,*5D
06/15/2015	15:03:39.605	$GPGGA,150340,2423.3044,N,08052.3316,W,1,8,2.1,14,M,,M,,*51
06/15/2015	15:03:40.545	$GPGGA,150341,2423.3041,N,08052.3310,W,1,8,2.1,14,M,,M,,*53
06/15/2015	15:03:41.628	$GPGGA,150342,2423.3037,N,08052.3303,W,1,8,2.1,14,M,,M,,*53
06/15/2015	15:03:42.538	$GPGGA,150343,2423.3034,N,08052.3298,W,1,8,2.1,14,M,,M,,*52
06/15/2015	15:03:43.605	$GPGGA,150344,2423.3030,N,08052.3293,W,1,8,2.1,14,M,,M,,*5A
06/15/2015	15:03:44.544	$GPGGA,150345,2423.3026,N,08052.3289,W,1,8,2.1,14,M,,M,,*57
06/15/2015	15:03:45.575	$GPGGA,150346,2423.3022,N,08052.3283,W,1,8,2.1,14,M,,M,,*5A
06/15/2015	15:03:46.528	$GPGGA,150347,2423.3018,N,08052.3275,W,1,8,2.1,14,M,,M,,*5B
06/15/2015	15:03:47.545	$GPGGA,150348,2423.3018,N,08052.3275,W,1,8,2.1,14,M,,M,,*54
06/15/2015	15:03:48.531	$GPGGA,150349,2423.3009,N,08052.3267,W,1,8,2.1,14,M,,M,,*56
06/15/2015	15:03:49.555	$GPGGA,150350,2423.3009,N,08052.3267,W,1,8,2.1,14,M,,M,,*5E
06/15/2015	15:03:50.545	$GPGGA,150351,2423.3002,N,08052.3254,W,1,8,2.1,14,M,,M,,*54
06/15/2015	15:03:51.546	$GPGGA,150352,2423.3002,N,08052.3254,W,1,8,2.1,14,M,,M,,*57
06/15/2015	15:03:52.536	$GPGGA,150353,2423.2997,N,08052.3244,W,1,8,2.1,14,M,,M,,*53
06/15/2015	15:03:53.530	$GPGGA,150354,2423.2997,N,08052.3244,W,1,8,2.1,14,M,,M,,*54
06/15/2015	15:03:54.530	$GPGGA,150355,2423.2987,N,08052.3232,W,1,8,2.1,14,M,,M,,*55
06/15/2015	15:03:55.546	$GPGGA,150356,2423.2986,N,08052.3225,W,1,8,2.1,14,M,,M,,*51
06/15/2015	15:03:56.535	$GPGGA,150357,2423.2981,N,08052.3221,W,1,8,2.1,14,M,,M,,*53
06/15/2015	15:03:57.539	$GPGGA,150358,2423.2981,N,08052.3221,W,1,8,2.1,14,M,,M,,*5C
06/15/2015	15:03:58.585	$GPGGA,150359,2423.2975,N,08052.3207,W,1,8,2.1,14,M,,M,,*52
06/15/2015	15:03:59.626	$GPGGA,150400,2423.2971,N,08052.3204,W,1,8,2.1,14,M,,M,,*5E
06/15/2015	15:04:00.515	$GPGGA,150401,2423.2968,N,08052.3198,W,1,8,2.1,14,M,,M,,*51
06/15/2015	15:04:03.665	$GPGGA,150404,2423.2957,N,08052.3181,W,1,8,2.1,14,M,,M,,*50
06/15/2015	15:04:04.495	$GPGGA,150405,2423.2953,N,08052.3175,W,1,8,2.1,14,M,,M,,*5E
06/15/2015	15:04:05.495	$GPGGA,150406,2423.2953,N,08052.3175,W,1,8,2.1,14,M,,M,,*5D
06/15/2015	15:04:06.575	$GPGGA,150407,2423.2947,N,08052.3158,W,1,8,2.1,14,M,,M,,*56
06/15/2015	15:04:07.585	$GPGGA,150408,2423.2943,N,08052.3153,W,1,8,2.1,14,M,,M,,*56
06/15/2015	15:04:08.486	$GPGGA,150409,2423.2940,N,08052.3150,W,1,8,2.1,14,M,,M,,*57
06/15/2015	15:04:09.586	$GPGGA,150410,2423.2936,N,08052.3142,W,1,8,2.1,14,M,,M,,*5D
06/15/2015	15:04:10.566	$GPGGA,150411,2423.2933,N,08052.3133,W,1,8,2.1,14,M,,M,,*5F
06/15/2015	15:04:11.606	$GPGGA,150412,2423.2932,N,08052.3126,W,1,8,2.1,14,M,,M,,*59
06/15/2015	15:04:12.576	$GPGGA,150413,2423.2928,N,08052.3121,W,1,8,2.1,14,M,,M,,*54
06/15/2015	15:04:13.566	$GPGGA,150414,2423.2924,N,08052.3114,W,1,8,2.1,14,M,,M,,*59
06/15/2015	15:04:14.565	$GPGGA,150415,2423.2921,N,08052.3108,W,1,8,2.1,14,M,,M,,*50
06/15/2015	15:04:15.595	$GPGGA,150416,2423.2918,N,08052.3100,W,1,8,2.1,14,M,,M,,*51
06/15/2015	15:04:16.575	$GPGGA,150417,2423.2916,N,08052.3092,W,1,8,2.1,14,M,,M,,*54
06/15/2015	15:04:17.575	$GPGGA,150418,2423.2912,N,08052.3086,W,1,8,2.1,14,M,,M,,*5A
06/15/2015	15:04:18.555	$GPGGA,150419,2423.2908,N,08052.3080,W,1,8,2.1,14,M,,M,,*56
06/15/2015	15:04:19.585	$GPGGA,150420,2423.2906,N,08052.3073,W,1,8,2.1,14,M,,M,,*5E
06/15/2015	15:04:20.545	$GPGGA,150421,2423.2903,N,08052.3064,W,1,8,2.1,14,M,,M,,*5C
06/15/2015	15:04:21.585	$GPGGA,150422,2423.2900,N,08052.3056,W,1,8,2.1,14,M,,M,,*5D
06/15/2015	15:04:22.555	$GPGGA,150423,2423.2897,N,08052.3051,W,1,8,2.1,14,M,,M,,*54
06/15/2015	15:04:23.585	$GPGGA,150424,2423.2893,N,08052.3046,W,1,8,2.1,14,M,,M,,*51
06/15/2015	15:04:24.542	$GPGGA,150425,2423.2892,N,08052.3037,W,1,8,2.1,14,M,,M,,*57
06/15/2015	15:04:25.555	$GPGGA,150426,2423.2888,N,08052.3027,W,1,8,2.1,14,M,,M,,*5E
06/15/2015	15:04:26.546	$GPGGA,150427,2423.2885,N,08052.3021,W,1,8,2.1,14,M,,M,,*54
06/15/2015	15:04:27.556	$GPGGA,150428,2423.2881,N,08052.3015,W,1,8,2.1,14,M,,M,,*58
06/15/2015	15:04:28.542	$GPGGA,150429,2423.2879,N,08052.3007,W,1,8,2.1,14,M,,M,,*5D
06/15/2015	15:04:29.546	$GPGGA,150430,2423.2876,N,08052.2997,W,1,8,2.1,14,M,,M,,*5B
06/15/2015	15:04:30.538	$GPGGA,150431,2423.2874,N,08052.2990,W,1,8,2.1,14,M,,M,,*5F
06/15/2015	15:04:31.566	$GPGGA,150432,2423.2870,N,08052.2984,W,1,8,2.1,14,M,,M,,*5D
06/15/2015	15:04:32.530	$GPGGA,150433,2423.2868,N,08052.2976,W,1,8,2.1,14,M,,M,,*58
06/15/2015	15:04:33.555	$GPGGA,150434,2423.2864,N,08052.2968,W,1,8,2.1,14,M,,M,,*5C
06/15/2015	15:04:34.540	$GPGGA,150435,2423.2863,N,08052.2961,W,1,8,2.1,14,M,,M,,*53
06/15/2015	15:04:35.538	$GPGGA,150436,2423.2860,N,08052.2952,W,1,8,2.1,14,M,,M,,*53
06/15/2015	15:04:36.515	$GPGGA,150437,2423.2856,N,08052.2945,W,1,8,2.1,14,M,,M,,*51
06/15/2015	15:04:37.532	$GPGGA,150438,2423.2853,N,08052.2940,W,1,8,2.1,14,M,,M,,*5E
06/15/2015	15:04:38.515	$GPGGA,150439,2423.2850,N,08052.2931,W,1,8,2.1,14,M,,M,,*5A
06/15/2015	15:04:39.535	$GPGGA,150440,2423.2849,N,08052.2921,W,1,8,2.1,14,M,,M,,*5D
06/15/2015	15:04:40.515	$GPGGA,150441,2423.2845,N,08052.2916,W,1,8,2.1,14,M,,M,,*54
06/15/2015	15:04:41.542	$GPGGA,150442,2423.2841,N,08052.2911,W,1,8,2.1,14,M,,M,,*54
06/15/2015	15:04:42.515	$GPGGA,150443,2423.2839,N,08052.2901,W,1,8,2.1,14,M,,M,,*5B
06/15/2015	15:04:43.635	$GPGGA,150444,2423.2838,N,08052.2891,W,1,8,2.1,14,M,,M,,*55
06/15/2015	15:04:44.516	$GPGGA,150445,2423.2833,N,08052.2886,W,1,8,2.1,14,M,,M,,*59
06/15/2015	15:04:45.516	$GPGGA,150446,2423.2831,N,08052.2880,W,1,8,2.1,14,M,,M,,*5E
06/15/2015	15:04:46.596	$GPGGA,150447,2423.2827,N,08052.2871,W,1,8,2.1,14,M,,M,,*56
06/15/2015	15:04:47.506	$GPGGA,150448,2423.2824,N,08052.2863,W,1,8,2.1,14,M,,M,,*59
06/15/2015	15:04:48.496	$GPGGA,150449,2423.2822,N,08052.2856,W,1,8,2.1,14,M,,M,,*58
06/15/2015	15:04:49.496	$GPGGA,150450,2423.2818,N,08052.2849,W,1,8,2.1,14,M,,M,,*57
06/15/2015	15:04:50.505	$GPGGA,150451,2423.2816,N,08052.2841,W,1,8,2.1,14,M,,M,,*50
06/15/2015	15:04:51.529	$GPGGA,150452,2423.2813,N,08052.2835,W,1,8,2.1,14,M,,M,,*55
06/15/2015	15:04:52.495	$GPGGA,150453,2423.2809,N,08052.2827,W,1,8,2.1,14,M,,M,,*5C
06/15/2015	15:04:53.595	$GPGGA,150454,2423.2806,N,08052.2819,W,1,8,2.1,14,M,,M,,*59
06/15/2015	15:04:54.485	$GPGGA,150455,2423.2802,N,08052.2813,W,1,8,2.1,14,M,,M,,*56
06/15/2015	15:04:55.605	$GPGGA,150456,2423.2798,N,08052.2807,W,1,8,2.1,14,M,,M,,*5C
06/15/2015	15:04:56.575	$GPGGA,150457,2423.2796,N,08052.2798,W,1,8,2.1,14,M,,M,,*5A
06/15/2015	15:04:57.585	$GPGGA,150458,2423.2794,N,08052.2788,W,1,8,2.1,14,M,,M,,*56
06/15/2015	15:04:59.195	$GPGGA,150459,2423.2791,N,08052.2784,W,1,8,2.1,14,M,,M,,*5E
06/15/2015	15:04:59.615	$GPGGA,150500,2423.2785,N,08052.2779,W,1,8,2.1,14,M,,M,,*54
06/15/2015	15:05:00.565	$GPGGA,150501,2423.2782,N,08052.2769,W,1,8,2.1,14,M,,M,,*53
06/15/2015	15:05:02.586	$GPGGA,150502,2423.2781,N,08052.2759,W,1,8,2.1,14,M,,M,,*50
06/15/2015	15:05:02.616	$GPGGA,150503,2423.2777,N,08052.2753,W,1,8,2.1,14,M,,M,,*52
06/15/2015	15:05:03.606	$GPGGA,150504,2423.2773,N,08052.2748,W,1,8,2.1,14,M,,M,,*5B
06/15/2015	15:05:04.566	$GPGGA,150505,2423.2769,N,08052.2740,W,1,8,2.1,14,M,,M,,*59
06/15/2015	15:05:05.576	$GPGGA,150506,2423.2767,N,08052.2729,W,1,8,2.1,14,M,,M,,*5B
06/15/2015	15:05:06.556	$GPGGA,150507,2423.2764,N,08052.2722,W,1,8,2.1,14,M,,M,,*52
06/15/2015	15:05:07.585	$GPGGA,150508,2423.2758,N,08052.2718,W,1,8,2.1,14,M,,M,,*5B
06/15/2015	15:05:08.555	$GPGGA,150509,2423.2755,N,08052.2708,W,1,8,2.1,14,M,,M,,*56
06/15/2015	15:05:09.565	$GPGGA,150510,2423.2755,N,08052.2699,W,1,8,2.1,14,M,,M,,*57
06/15/2015	15:05:10.548	$GPGGA,150511,2423.2751,N,08052.2692,W,1,8,2.1,14,M,,M,,*59
06/15/2015	15:05:11.545	$GPGGA,150512,2423.2746,N,08052.2685,W,1,8,2.1,14,M,,M,,*5A
06/15/2015	15:05:12.545	$GPGGA,150513,2423.2742,N,08052.2678,W,1,8,2.1,14,M,,M,,*5D
06/15/2015	15:05:13.537	$GPGGA,150514,2423.2741,N,08052.2672,W,1,8,2.1,14,M,,M,,*53
06/15/2015	15:05:14.545	$GPGGA,150515,2423.2738,N,08052.2665,W,1,8,2.1,14,M,,M,,*5A
06/15/2015	15:05:15.575	$GPGGA,150516,2423.2734,N,08052.2657,W,1,8,2.1,14,M,,M,,*54
06/15/2015	15:05:16.542	$GPGGA,150517,2423.2731,N,08052.2651,W,1,8,2.1,14,M,,M,,*56
06/15/2015	15:05:17.575	$GPGGA,150518,2423.2729,N,08052.2644,W,1,8,2.1,14,M,,M,,*54
06/15/2015	15:05:18.543	$GPGGA,150519,2423.2726,N,08052.2638,W,1,8,2.1,14,M,,M,,*51
06/15/2015	15:05:19.556	$GPGGA,150520,2423.2722,N,08052.2630,W,1,8,2.1,14,M,,M,,*57
06/15/2015	15:05:20.549	$GPGGA,150521,2423.2719,N,08052.2622,W,1,8,2.1,14,M,,M,,*5D
06/15/2015	15:05:21.535	$GPGGA,150522,2423.2717,N,08052.2615,W,1,8,2.1,14,M,,M,,*54
06/15/2015	15:05:22.533	$GPGGA,150523,2423.2713,N,08052.2609,W,1,8,2.1,14,M,,M,,*5C
06/15/2015	15:05:23.550	$GPGGA,150524,2423.2710,N,08052.2601,W,1,8,2.1,14,M,,M,,*50
06/15/2015	15:05:24.515	$GPGGA,150525,2423.2708,N,08052.2592,W,1,8,2.1,14,M,,M,,*51
06/15/2015	15:05:25.626	$GPGGA,150526,2423.2705,N,08052.2585,W,1,8,2.1,14,M,,M,,*59
06/15/2015	15:05:26.515	$GPGGA,150527,2423.2702,N,08052.2579,W,1,8,2.1,14,M,,M,,*5C
06/15/2015	15:05:27.543	$GPGGA,150528,2423.2697,N,08052.2571,W,1,8,2.1,14,M,,M,,*56
06/15/2015	15:05:28.532	$GPGGA,150529,2423.2694,N,08052.2564,W,1,8,2.1,14,M,,M,,*50
06/15/2015	15:05:29.625	$GPGGA,150530,2423.2692,N,08052.2557,W,1,8,2.1,14,M,,M,,*5E
06/15/2015	15:05:30.515	$GPGGA,150531,2423.2688,N,08052.2549,W,1,8,2.1,14,M,,M,,*5B
06/15/2015	15:05:31.546	$GPGGA,150532,2423.2686,N,08052.2541,W,1,8,2.1,14,M,,M,,*5E
06/15/2015	15:05:32.505	$GPGGA,150533,2423.2682,N,08052.2535,W,1,8,2.1,14,M,,M,,*58
06/15/2015	15:05:33.615	$GPGGA,150534,2423.2679,N,08052.2528,W,1,8,2.1,14,M,,M,,*57
06/15/2015	15:05:34.585	$GPGGA,150535,2423.2675,N,08052.2519,W,1,8,2.1,14,M,,M,,*58
06/15/2015	15:05:35.505	$GPGGA,150536,2423.2672,N,08052.2511,W,1,8,2.1,14,M,,M,,*54
06/15/2015	15:05:36.586	$GPGGA,150537,2423.2668,N,08052.2505,W,1,8,2.1,14,M,,M,,*5B
06/15/2015	15:05:37.606	$GPGGA,150538,2423.2665,N,08052.2498,W,1,8,2.1,14,M,,M,,*5C
06/15/2015	15:05:38.496	$GPGGA,150539,2423.2662,N,08052.2490,W,1,8,2.1,14,M,,M,,*52
06/15/2015	15:05:39.646	$GPGGA,150540,2423.2659,N,08052.2483,W,1,8,2.1,14,M,,M,,*56
06/15/2015	15:05:40.586	$GPGGA,150541,2423.2655,N,08052.2475,W,1,8,2.1,14,M,,M,,*52
06/15/2015	15:05:41.616	$GPGGA,150542,2423.2651,N,08052.2467,W,1,8,2.1,14,M,,M,,*56
06/15/2015	15:05:42.485	$GPGGA,150543,2423.2648,N,08052.2462,W,1,8,2.1,14,M,,M,,*5A
06/15/2015	15:05:43.585	$GPGGA,150544,2423.2644,N,08052.2455,W,1,8,2.1,14,M,,M,,*55
06/15/2015	15:05:44.585	$GPGGA,150545,2423.2641,N,08052.2446,W,1,8,2.1,14,M,,M,,*53
06/15/2015	15:05:45.575	$GPGGA,150546,2423.2639,N,08052.2439,W,1,8,2.1,14,M,,M,,*57
06/15/2015	15:05:46.575	$GPGGA,150547,2423.2634,N,08052.2432,W,1,8,2.1,14,M,,M,,*50
06/15/2015	15:05:47.605	$GPGGA,150548,2423.2630,N,08052.2425,W,1,8,2.1,14,M,,M,,*5D
06/15/2015	15:05:48.575	$GPGGA,150549,2423.2626,N,08052.2418,W,1,8,2.1,14,M,,M,,*55
06/15/2015	15:05:49.565	$GPGGA,150550,2423.2623,N,08052.2411,W,1,8,2.1,14,M,,M,,*51
06/15/2015	15:05:50.575	$GPGGA,150551,2423.2621,N,08052.2401,W,1,8,2.1,14,M,,M,,*53
06/15/2015	15:05:51.585	$GPGGA,150552,2423.2616,N,08052.2395,W,1,8,2.1,14,M,,M,,*5E
06/15/2015	15:05:52.555	$GPGGA,150553,2423.2612,N,08052.2391,W,1,8,2.1,14,M,,M,,*5F
06/15/2015	15:05:53.565	$GPGGA,150554,2423.2610,N,08052.2383,W,1,8,2.1,14,M,,M,,*59
06/15/2015	15:05:54.996	$GPGGA,150555,2423.2607,N,08052.2373,W,1,8,2.1,14,M,,M,,*51
06/15/2015	15:05:55.586	$GPGGA,150556,2423.2603,N,08052.2367,W,1,8,2.1,14,M,,M,,*53
06/15/2015	15:05:56.556	$GPGGA,150557,2423.2599,N,08052.2364,W,1,8,2.1,14,M,,M,,*51
06/15/2015	15:05:57.546	$GPGGA,150558,2423.2597,N,08052.2358,W,1,8,2.1,14,M,,M,,*5F
06/15/2015	15:05:58.556	$GPGGA,150559,2423.2593,N,08052.2347,W,1,8,2.1,14,M,,M,,*54
06/15/2015	15:05:59.585	$GPGGA,150600,2423.2590,N,08052.2341,W,1,8,2.1,14,M,,M,,*5E
06/15/2015	15:06:00.545	$GPGGA,150601,2423.2586,N,08052.2337,W,1,8,2.1,14,M,,M,,*59
06/15/2015	15:06:01.535	$GPGGA,150602,2423.2582,N,08052.2332,W,1,8,2.1,14,M,,M,,*5B
06/15/2015	15:06:02.545	$GPGGA,150603,2423.2579,N,08052.2324,W,1,8,2.1,14,M,,M,,*59
06/15/2015	15:06:03.575	$GPGGA,150604,2423.2576,N,08052.2315,W,1,8,2.1,14,M,,M,,*53
06/15/2015	15:06:04.517	$GPGGA,150605,2423.2572,N,08052.2310,W,1,8,2.1,14,M,,M,,*53
06/15/2015	15:06:05.520	$GPGGA,150606,2423.2567,N,08052.2307,W,1,8,2.1,14,M,,M,,*52
06/15/2015	15:06:06.515	$GPGGA,150607,2423.2564,N,08052.2300,W,1,8,2.1,14,M,,M,,*57
06/15/2015	15:06:07.555	$GPGGA,150608,2423.2562,N,08052.2291,W,1,8,2.1,14,M,,M,,*57
06/15/2015	15:06:08.525	$GPGGA,150609,2423.2558,N,08052.2284,W,1,8,2.1,14,M,,M,,*5B
06/15/2015	15:06:09.505	$GPGGA,150610,2423.2553,N,08052.2281,W,1,8,2.1,14,M,,M,,*5D
06/15/2015	15:06:10.518	$GPGGA,150611,2423.2550,N,08052.2276,W,1,8,2.1,14,M,,M,,*57
06/15/2015	15:06:11.535	$GPGGA,150612,2423.2547,N,08052.2268,W,1,8,2.1,14,M,,M,,*5D
06/15/2015	15:06:12.515	$GPGGA,150613,2423.2543,N,08052.2260,W,1,8,2.1,14,M,,M,,*50
06/15/2015	15:06:13.545	$GPGGA,150614,2423.2539,N,08052.2255,W,1,8,2.1,14,M,,M,,*5C
06/15/2015	15:06:14.505	$GPGGA,150615,2423.2535,N,08052.2251,W,1,8,2.1,14,M,,M,,*55
06/15/2015	15:06:15.618	$GPGGA,150616,2423.2532,N,08052.2243,W,1,8,2.1,14,M,,M,,*52
06/15/2015	15:06:16.495	$GPGGA,150617,2423.2528,N,08052.2237,W,1,8,2.1,14,M,,M,,*5B
06/15/2015	15:06:17.584	$GPGGA,150618,2423.2524,N,08052.2231,W,1,8,2.1,14,M,,M,,*5E
06/15/2015	15:06:18.494	$GPGGA,150619,2423.2521,N,08052.2225,W,1,8,2.1,14,M,,M,,*5F
06/15/2015	15:06:19.504	$GPGGA,150620,2423.2517,N,08052.2220,W,1,8,2.1,14,M,,M,,*55
06/15/2015	15:06:20.604	$GPGGA,150621,2423.2513,N,08052.2214,W,1,8,2.1,14,M,,M,,*57
06/15/2015	15:06:21.616	$GPGGA,150622,2423.2509,N,08052.2208,W,1,8,2.1,14,M,,M,,*52
06/15/2015	15:06:22.496	$GPGGA,150623,2423.2506,N,08052.2203,W,1,8,2.1,14,M,,M,,*57
06/15/2015	15:06:23.485	$GPGGA,150624,2423.2502,N,08052.2196,W,1,8,2.1,14,M,,M,,*5B
06/15/2015	15:06:24.595	$GPGGA,150625,2423.2498,N,08052.2188,W,1,8,2.1,13,M,,M,,*50
06/15/2015	15:06:25.585	$GPGGA,150626,2423.2495,N,08052.2184,W,1,8,2.1,13,M,,M,,*52
06/15/2015	15:06:26.595	$GPGGA,150627,2423.2491,N,08052.2180,W,1,8,2.1,13,M,,M,,*53
06/15/2015	15:06:27.595	$GPGGA,150628,2423.2486,N,08052.2172,W,1,8,2.1,13,M,,M,,*57
06/15/2015	15:06:28.575	$GPGGA,150629,2423.2481,N,08052.2165,W,1,8,2.1,13,M,,M,,*57
06/15/2015	15:06:29.605	$GPGGA,150630,2423.2478,N,08052.2160,W,1,8,2.1,13,M,,M,,*5C
06/15/2015	15:06:30.565	$GPGGA,150631,2423.2474,N,08052.2155,W,1,8,2.1,13,M,,M,,*57
06/15/2015	15:06:31.605	$GPGGA,150632,2423.2470,N,08052.2148,W,1,8,2.1,13,M,,M,,*5C
06/15/2015	15:06:32.565	$GPGGA,150633,2423.2467,N,08052.2141,W,1,8,2.1,13,M,,M,,*52
06/15/2015	15:06:33.555	$GPGGA,150634,2423.2463,N,08052.2134,W,1,8,2.1,13,M,,M,,*53
06/15/2015	15:06:34.564	$GPGGA,150635,2423.2459,N,08052.2130,W,1,8,2.1,13,M,,M,,*5F
06/15/2015	15:06:35.584	$GPGGA,150636,2423.2456,N,08052.2125,W,1,8,2.1,13,M,,M,,*57
06/15/2015	15:06:36.544	$GPGGA,150637,2423.2451,N,08052.2117,W,1,8,2.1,13,M,,M,,*50
06/15/2015	15:06:37.574	$GPGGA,150638,2423.2448,N,08052.2111,W,1,8,2.1,13,M,,M,,*51
06/15/2015	15:06:38.554	$GPGGA,150639,2423.2444,N,08052.2106,W,1,8,2.1,13,M,,M,,*5A
06/15/2015	15:06:39.575	$GPGGA,150640,2423.2440,N,08052.2100,W,1,8,2.1,13,M,,M,,*56
06/15/2015	15:06:40.545	$GPGGA,150641,2423.2435,N,08052.2093,W,1,8,2.2,13,M,,M,,*5D
06/15/2015	15:06:41.565	$GPGGA,150642,2423.2431,N,08052.2087,W,1,8,2.2,13,M,,M,,*5F
06/15/2015	15:06:42.545	$GPGGA,150643,2423.2428,N,08052.2083,W,1,8,2.2,13,M,,M,,*52
06/15/2015	15:06:43.565	$GPGGA,150644,2423.2423,N,08052.2076,W,1,8,2.2,13,M,,M,,*54
06/15/2015	15:06:44.545	$GPGGA,150645,2423.2419,N,08052.2068,W,1,8,2.2,13,M,,M,,*53
06/15/2015	15:06:45.545	$GPGGA,150646,2423.2415,N,08052.2063,W,1,8,2.2,13,M,,M,,*57
06/15/2015	15:06:46.533	$GPGGA,150647,2423.2411,N,08052.2059,W,1,8,2.2,13,M,,M,,*5B
06/15/2015	15:06:47.575	$GPGGA,150648,2423.2408,N,08052.2053,W,1,8,2.2,13,M,,M,,*56
06/15/2015	15:06:48.535	$GPGGA,150649,2423.2403,N,08052.2046,W,1,8,2.2,13,M,,M,,*58
06/15/2015	15:06:49.545	$GPGGA,150650,2423.2399,N,08052.2041,W,1,8,2.2,13,M,,M,,*53
06/15/2015	15:06:50.517	$GPGGA,150651,2423.2394,N,08052.2038,W,1,8,2.2,13,M,,M,,*51
06/15/2015	15:06:51.545	$GPGGA,150652,2423.2390,N,08052.2031,W,1,8,2.2,13,M,,M,,*5F
06/15/2015	15:06:52.535	$GPGGA,150653,2423.2387,N,08052.2022,W,1,8,2.2,13,M,,M,,*5A
06/15/2015	15:06:53.520	$GPGGA,150654,2423.2383,N,08052.2018,W,1,8,2.2,13,M,,M,,*50
06/15/2015	15:06:54.524	$GPGGA,150655,2423.2379,N,08052.2016,W,1,8,2.2,13,M,,M,,*5A
06/15/2015	15:06:55.524	$GPGGA,150656,2423.2374,N,08052.2009,W,1,8,2.2,12,M,,M,,*5B
06/15/2015	15:06:56.504	$GPGGA,150657,2423.2372,N,08052.2000,W,1,8,2.2,12,M,,M,,*55
06/15/2015	15:06:57.526	$GPGGA,150658,2423.2368,N,08052.1995,W,1,8,2.2,12,M,,M,,*57
06/15/2015	15:06:58.518	$GPGGA,150659,2423.2363,N,08052.1992,W,1,8,2.2,12,M,,M,,*5A
06/15/2015	15:06:59.565	$GPGGA,150700,2423.2359,N,08052.1986,W,1,8,2.2,12,M,,M,,*5B
06/15/2015	15:07:00.635	$GPGGA,150701,2423.2356,N,08052.1977,W,1,8,2.2,12,M,,M,,*5B
06/15/2015	15:07:01.630	$GPGGA,150702,2423.2354,N,08052.1970,W,1,8,2.2,12,M,,M,,*5D
06/15/2015	15:07:02.495	$GPGGA,150703,2423.2348,N,08052.1968,W,1,8,2.2,12,M,,M,,*58
06/15/2015	15:07:03.535	$GPGGA,150704,2423.2344,N,08052.1962,W,1,8,2.2,12,M,,M,,*59
06/15/2015	15:07:04.505	$GPGGA,150705,2423.2343,N,08052.1951,W,1,8,2.2,12,M,,M,,*5F
06/15/2015	15:07:05.505	$GPGGA,150706,2423.2339,N,08052.1944,W,1,8,2.2,12,M,,M,,*55
06/15/2015	15:07:06.505	$GPGGA,150707,2423.2336,N,08052.1942,W,1,8,2.2,13,M,,M,,*5C
06/15/2015	15:07:07.518	$GPGGA,150708,2423.2332,N,08052.1935,W,1,8,2.2,13,M,,M,,*57
06/15/2015	15:07:10.274	$GPGGA,150710,2423.2326,N,08052.1919,W,1,8,2.2,13,M,,M,,*55
06/15/2015	15:07:10.494	$GPGGA,150711,2423.2322,N,08052.1914,W,1,8,2.2,13,M,,M,,*5D
06/15/2015	15:07:11.644	$GPGGA,150712,2423.2319,N,08052.1907,W,1,8,2.2,13,M,,M,,*54
06/15/2015	15:07:12.584	$GPGGA,150713,2423.2316,N,08052.1900,W,1,8,2.2,13,M,,M,,*5D
06/15/2015	15:07:13.594	$GPGGA,150714,2423.2312,N,08052.1894,W,1,8,2.2,13,M,,M,,*52
06/15/2015	15:07:14.575	$GPGGA,150715,2423.2309,N,08052.1887,W,1,8,2.2,13,M,,M,,*5B
06/15/2015	15:07:15.585	$GPGGA,150716,2423.2307,N,08052.1879,W,1,8,2.2,13,M,,M,,*57
06/15/2015	15:07:16.575	$GPGGA,150717,2423.2303,N,08052.1873,W,1,8,2.2,13,M,,M,,*58
06/15/2015	15:07:17.585	$GPGGA,150718,2423.2299,N,08052.1868,W,1,8,2.2,13,M,,M,,*5F
06/15/2015	15:07:18.585	$GPGGA,150719,2423.2296,N,08052.1860,W,1,8,2.2,13,M,,M,,*59
06/15/2015	15:07:19.605	$GPGGA,150720,2423.2293,N,08052.1852,W,1,8,2.2,13,M,,M,,*57
06/15/2015	15:07:20.565	$GPGGA,150721,2423.2289,N,08052.1847,W,1,8,2.2,13,M,,M,,*59
06/15/2015	15:07:21.575	$GPGGA,150722,2423.2285,N,08052.1840,W,1,8,2.2,13,M,,M,,*51
06/15/2015	15:07:22.565	$GPGGA,150723,2423.2282,N,08052.1833,W,1,8,2.2,13,M,,M,,*53
06/15/2015	15:07:23.645	$GPGGA,150724,2423.2278,N,08052.1826,W,1,8,2.2,13,M,,M,,*55
06/15/2015	15:07:24.555	$GPGGA,150725,2423.2274,N,08052.1818,W,1,8,2.2,13,M,,M,,*55
06/15/2015	15:07:25.565	$GPGGA,150726,2423.2271,N,08052.1812,W,1,8,2.2,13,M,,M,,*59
06/15/2015	15:07:26.555	$GPGGA,150727,2423.2267,N,08052.1807,W,1,8,2.2,13,M,,M,,*5B
06/15/2015	15:07:27.574	$GPGGA,150728,2423.2263,N,08052.1798,W,1,8,2.2,13,M,,M,,*59
06/15/2015	15:07:28.544	$GPGGA,150729,2423.2260,N,08052.1791,W,1,8,2.2,13,M,,M,,*52
06/15/2015	15:07:29.564	$GPGGA,150730,2423.2255,N,08052.1786,W,1,8,2.2,13,M,,M,,*5A
06/15/2015	15:07:30.544	$GPGGA,150731,2423.2253,N,08052.1779,W,1,8,2.2,13,M,,M,,*5D
06/15/2015	15:07:31.565	$GPGGA,150732,2423.2249,N,08052.1771,W,1,8,2.2,13,M,,M,,*5D
06/15/2015	15:07:32.535	$GPGGA,150733,2423.2244,N,08052.1764,W,1,8,2.2,13,M,,M,,*55
06/15/2015	15:07:33.527	$GPGGA,150734,2423.2240,N,08052.1758,W,1,8,2.2,13,M,,M,,*59
06/15/2015	15:07:34.527	$GPGGA,150735,2423.2236,N,08052.1752,W,1,8,2.2,13,M,,M,,*53
06/15/2015	15:07:35.575	$GPGGA,150736,2423.2233,N,08052.1744,W,1,8,2.2,13,M,,M,,*52
06/15/2015	15:07:36.535	$GPGGA,150737,2423.2229,N,08052.1738,W,1,8,2.2,13,M,,M,,*53
06/15/2015	15:07:37.535	$GPGGA,150738,2423.2224,N,08052.1732,W,1,8,2.2,13,M,,M,,*5B
06/15/2015	15:07:38.527	$GPGGA,150739,2423.2221,N,08052.1725,W,1,8,2.2,13,M,,M,,*59
06/15/2015	15:07:39.545	$GPGGA,150740,2423.2217,N,08052.1718,W,1,8,2.2,13,M,,M,,*5C
06/15/2015	15:07:40.519	$GPGGA,150741,2423.2213,N,08052.1711,W,1,8,2.2,13,M,,M,,*50
06/15/2015	15:07:41.519	$GPGGA,150742,2423.2210,N,08052.1706,W,1,8,2.2,13,M,,M,,*56
06/15/2015	15:07:42.521	$GPGGA,150743,2423.2206,N,08052.1700,W,1,8,2.2,13,M,,M,,*56
06/15/2015	15:07:43.555	$GPGGA,150744,2423.2202,N,08052.1692,W,1,8,2.2,13,M,,M,,*5F
06/15/2015	15:07:44.627	$GPGGA,150745,2423.2198,N,08052.1685,W,1,8,2.2,13,M,,M,,*58
06/15/2015	15:07:45.534	$GPGGA,150746,2423.2195,N,08052.1681,W,1,8,2.2,13,M,,M,,*52
06/15/2015	15:07:46.519	$GPGGA,150747,2423.2191,N,08052.1675,W,1,8,2.2,13,M,,M,,*5C
06/15/2015	15:07:47.624	$GPGGA,150748,2423.2186,N,08052.1667,W,1,8,2.2,13,M,,M,,*56
06/15/2015	15:07:48.617	$GPGGA,150749,2423.2184,N,08052.1660,W,1,8,2.2,13,M,,M,,*52
06/15/2015	15:07:49.596	$GPGGA,150750,2423.2178,N,08052.1655,W,1,8,2.2,13,M,,M,,*5F
06/15/2015	15:07:50.520	$GPGGA,150751,2423.2174,N,08052.1649,W,1,8,2.2,13,M,,M,,*5F
06/15/2015	15:07:51.617	$GPGGA,150752,2423.2171,N,08052.1642,W,1,8,2.2,13,M,,M,,*52
06/15/2015	15:07:52.618	$GPGGA,150753,2423.2166,N,08052.1636,W,1,8,2.2,13,M,,M,,*56
06/15/2015	15:07:53.617	$GPGGA,150754,2423.2163,N,08052.1631,W,1,8,2.2,13,M,,M,,*53
06/15/2015	15:07:54.518	$GPGGA,150755,2423.2159,N,08052.1624,W,1,8,2.2,13,M,,M,,*5F
06/15/2015	15:07:55.625	$GPGGA,150756,2423.2155,N,08052.1618,W,1,8,2.2,13,M,,M,,*5F
06/15/2015	15:07:56.517	$GPGGA,150757,2423.2151,N,08052.1612,W,1,8,2.2,13,M,,M,,*50
06/15/2015	15:07:57.585	$GPGGA,150758,2423.2148,N,08052.1606,W,1,8,2.2,13,M,,M,,*52
06/15/2015	15:07:58.495	$GPGGA,150759,2423.2143,N,08052.1600,W,1,8,2.2,13,M,,M,,*5E
06/15/2015	15:07:59.555	$GPGGA,150800,2423.2139,N,08052.1594,W,1,8,2.2,13,M,,M,,*5E
06/15/2015	15:08:00.585	$GPGGA,150801,2423.2135,N,08052.1589,W,1,8,2.2,13,M,,M,,*5F
06/15/2015	15:08:01.505	$GPGGA,150802,2423.2131,N,08052.1582,W,1,8,2.2,13,M,,M,,*53
06/15/2015	15:08:02.564	$GPGGA,150803,2423.2127,N,08052.1575,W,1,8,2.2,13,M,,M,,*5D
06/15/2015	15:08:03.594	$GPGGA,150804,2423.2123,N,08052.1570,W,1,8,2.2,13,M,,M,,*5B
06/15/2015	15:08:04.564	$GPGGA,150805,2423.2119,N,08052.1565,W,1,8,2.2,13,M,,M,,*57
06/15/2015	15:08:05.594	$GPGGA,150806,2423.2115,N,08052.1558,W,1,8,2.2,13,M,,M,,*56
06/15/2015	15:08:06.565	$GPGGA,150807,2423.2112,N,08052.1551,W,1,8,2.2,13,M,,M,,*59
06/15/2015	15:08:07.585	$GPGGA,150808,2423.2106,N,08052.1547,W,1,8,2.2,13,M,,M,,*54
06/15/2015	15:08:08.555	$GPGGA,150809,2423.2103,N,08052.1542,W,1,8,2.2,13,M,,M,,*55
06/15/2015	15:08:09.565	$GPGGA,150810,2423.2099,N,08052.1534,W,1,8,2.2,13,M,,M,,*5E
06/15/2015	15:08:10.555	$GPGGA,150811,2423.2094,N,08052.1527,W,1,8,2.2,13,M,,M,,*50
06/15/2015	15:08:11.595	$GPGGA,150812,2423.2090,N,08052.1523,W,1,8,2.2,13,M,,M,,*53
06/15/2015	15:08:12.545	$GPGGA,150813,2423.2086,N,08052.1518,W,1,8,2.2,13,M,,M,,*5D
06/15/2015	15:08:13.575	$GPGGA,150814,2423.2083,N,08052.1512,W,1,8,2.2,13,M,,M,,*55
06/15/2015	15:08:14.545	$GPGGA,150815,2423.2079,N,08052.1504,W,1,8,2.2,13,M,,M,,*56
06/15/2015	15:08:15.545	$GPGGA,150816,2423.2073,N,08052.1498,W,1,8,2.2,13,M,,M,,*5B
06/15/2015	15:08:16.545	$GPGGA,150817,2423.2069,N,08052.1493,W,1,8,2.2,13,M,,M,,*5A
06/15/2015	15:08:17.555	$GPGGA,150818,2423.2066,N,08052.1488,W,1,8,2.2,13,M,,M,,*50
06/15/2015	15:08:18.535	$GPGGA,150819,2423.2062,N,08052.1482,W,1,8,2.2,13,M,,M,,*5F
06/15/2015	15:08:19.574	$GPGGA,150820,2423.2058,N,08052.1474,W,1,8,2.2,13,M,,M,,*55
06/15/2015	15:08:20.534	$GPGGA,150821,2423.2054,N,08052.1468,W,1,8,2.2,13,M,,M,,*55
06/15/2015	15:08:21.527	$GPGGA,150822,2423.2050,N,08052.1464,W,1,8,2.2,13,M,,M,,*5E
06/15/2015	15:08:22.528	$GPGGA,150823,2423.2047,N,08052.1458,W,1,8,2.2,13,M,,M,,*56
06/15/2015	15:08:23.574	$GPGGA,150824,2423.2043,N,08052.1452,W,1,8,2.2,13,M,,M,,*5F
06/15/2015	15:08:24.533	$GPGGA,150825,2423.2038,N,08052.1444,W,1,8,2.2,13,M,,M,,*55
06/15/2015	15:08:25.529	$GPGGA,150826,2423.2034,N,08052.1439,W,1,8,2.2,13,M,,M,,*50
06/15/2015	15:08:26.527	$GPGGA,150827,2423.2030,N,08052.1435,W,1,8,2.2,13,M,,M,,*59
06/15/2015	15:08:27.555	$GPGGA,150828,2423.2026,N,08052.1429,W,1,8,2.2,13,M,,M,,*5C
06/15/2015	15:08:28.525	$GPGGA,150829,2423.2022,N,08052.1420,W,1,8,2.2,13,M,,M,,*50
06/15/2015	15:08:29.545	$GPGGA,150830,2423.2018,N,08052.1415,W,1,8,2.2,13,M,,M,,*57
06/15/2015	15:08:30.527	$GPGGA,150831,2423.2015,N,08052.1412,W,1,8,2.2,13,M,,M,,*5C
06/15/2015	15:08:31.525	$GPGGA,150832,2423.2011,N,08052.1404,W,1,8,2.2,13,M,,M,,*5C
06/15/2015	15:08:32.519	$GPGGA,150833,2423.2007,N,08052.1397,W,1,8,2.2,13,M,,M,,*57
06/15/2015	15:08:33.617	$GPGGA,150834,2423.2004,N,08052.1393,W,1,8,2.2,13,M,,M,,*57
06/15/2015	15:08:34.495	$GPGGA,150835,2423.2000,N,08052.1388,W,1,8,2.2,13,M,,M,,*58
06/15/2015	15:08:35.545	$GPGGA,150836,2423.1996,N,08052.1381,W,1,8,2.2,13,M,,M,,*57
06/15/2015	15:08:36.515	$GPGGA,150837,2423.1992,N,08052.1374,W,1,8,2.2,13,M,,M,,*58
06/15/2015	15:08:37.627	$GPGGA,150838,2423.1989,N,08052.1370,W,1,8,2.2,13,M,,M,,*59
06/15/2015	15:08:38.517	$GPGGA,150839,2423.1985,N,08052.1365,W,1,8,2.2,13,M,,M,,*50
06/15/2015	15:08:39.635	$GPGGA,150840,2423.1982,N,08052.1357,W,1,8,2.2,13,M,,M,,*58
06/15/2015	15:08:40.504	$GPGGA,150841,2423.1979,N,08052.1351,W,1,8,2.2,13,M,,M,,*5B
06/15/2015	15:08:41.618	$GPGGA,150842,2423.1975,N,08052.1346,W,1,8,2.2,13,M,,M,,*52
06/15/2015	15:08:42.515	$GPGGA,150843,2423.1971,N,08052.1340,W,1,8,2.2,13,M,,M,,*51
06/15/2015	15:08:43.515	$GPGGA,150844,2423.1968,N,08052.1333,W,1,8,2.2,13,M,,M,,*5A
06/15/2015	15:08:44.585	$GPGGA,150845,2423.1965,N,08052.1326,W,1,8,2.2,13,M,,M,,*52
06/15/2015	15:08:45.485	$GPGGA,150846,2423.1961,N,08052.1320,W,1,8,2.2,13,M,,M,,*53
06/15/2015	15:08:46.575	$GPGGA,150847,2423.1957,N,08052.1314,W,1,8,2.2,13,M,,M,,*50
06/15/2015	15:08:47.585	$GPGGA,150848,2423.1953,N,08052.1309,W,1,8,2.2,13,M,,M,,*57
06/15/2015	15:08:48.575	$GPGGA,150849,2423.1950,N,08052.1302,W,1,8,2.2,13,M,,M,,*5E
06/15/2015	15:08:49.595	$GPGGA,150850,2423.1946,N,08052.1294,W,1,8,2.2,13,M,,M,,*5F
06/15/2015	15:08:50.575	$GPGGA,150851,2423.1942,N,08052.1288,W,1,8,2.2,13,M,,M,,*57
06/15/2015	15:08:51.605	$GPGGA,150852,2423.1937,N,08052.1284,W,1,8,2.2,13,M,,M,,*5A
06/15/2015	15:08:52.565	$GPGGA,150853,2423.1933,N,08052.1278,W,1,8,2.2,13,M,,M,,*5C
06/15/2015	15:08:53.565	$GPGGA,150854,2423.1931,N,08052.1268,W,1,8,2.2,13,M,,M,,*58
06/15/2015	15:08:54.574	$GPGGA,150855,2423.1927,N,08052.1262,W,1,8,2.2,13,M,,M,,*54
06/15/2015	15:08:55.584	$GPGGA,150856,2423.1922,N,08052.1258,W,1,8,2.2,13,M,,M,,*5B
06/15/2015	15:08:56.564	$GPGGA,150857,2423.1918,N,08052.1251,W,1,8,2.2,13,M,,M,,*5A
06/15/2015	15:08:57.574	$GPGGA,150858,2423.1915,N,08052.1242,W,1,8,2.2,13,M,,M,,*5A
06/15/2015	15:08:58.554	$GPGGA,150859,2423.1911,N,08052.1236,W,1,8,2.2,13,M,,M,,*5C
06/15/2015	15:08:59.617	$GPGGA,150900,2423.1906,N,08052.1232,W,1,8,2.2,13,M,,M,,*53
06/15/2015	15:09:00.555	$GPGGA,150901,2423.1903,N,08052.1225,W,1,8,2.2,13,M,,M,,*51
06/15/2015	15:09:01.585	$GPGGA,150902,2423.1899,N,08052.1217,W,1,8,2.2,13,M,,M,,*51
06/15/2015	15:09:02.605	$GPGGA,150903,2423.1895,N,08052.1210,W,1,8,2.2,13,M,,M,,*5B
06/15/2015	15:09:03.565	$GPGGA,150904,2423.1891,N,08052.1204,W,1,8,2.2,13,M,,M,,*5D
06/15/2015	15:09:04.545	$GPGGA,150905,2423.1888,N,08052.1199,W,1,8,2.2,13,M,,M,,*53
06/15/2015	15:09:05.545	$GPGGA,150906,2423.1884,N,08052.1191,W,1,8,2.2,13,M,,M,,*54
06/15/2015	15:09:06.545	$GPGGA,150907,2423.1880,N,08052.1183,W,1,8,2.2,13,M,,M,,*52
06/15/2015	15:09:07.575	$GPGGA,150908,2423.1877,N,08052.1177,W,1,8,2.2,13,M,,M,,*5E
06/15/2015	15:09:08.525	$GPGGA,150909,2423.1872,N,08052.1172,W,1,8,2.2,13,M,,M,,*5F
06/15/2015	15:09:09.545	$GPGGA,150910,2423.1867,N,08052.1165,W,1,8,2.2,13,M,,M,,*55
06/15/2015	15:09:10.525	$GPGGA,150911,2423.1864,N,08052.1158,W,1,8,2.2,13,M,,M,,*59
06/15/2015	15:09:11.525	$GPGGA,150912,2423.1861,N,08052.1151,W,1,8,2.2,13,M,,M,,*56
06/15/2015	15:09:12.528	$GPGGA,150913,2423.1857,N,08052.1144,W,1,8,2.2,13,M,,M,,*56
06/15/2015	15:09:13.515	$GPGGA,150914,2423.1853,N,08052.1137,W,1,8,2.2,13,M,,M,,*51
06/15/2015	15:09:14.534	$GPGGA,150915,2423.1849,N,08052.1132,W,1,8,2.2,13,M,,M,,*5E
06/15/2015	15:09:15.524	$GPGGA,150916,2423.1846,N,08052.1125,W,1,8,2.2,13,M,,M,,*54
06/15/2015	15:09:16.535	$GPGGA,150917,2423.1842,N,08052.1117,W,1,8,2.2,13,M,,M,,*50
06/15/2015	15:09:17.505	$GPGGA,150918,2423.1838,N,08052.1110,W,1,8,2.2,13,M,,M,,*55
06/15/2015	15:09:18.527	$GPGGA,150919,2423.1835,N,08052.1105,W,1,8,2.2,13,M,,M,,*5D
06/15/2015	15:09:19.525	$GPGGA,150920,2423.1830,N,08052.1099,W,1,8,2.2,13,M,,M,,*56
06/15/2015	15:09:20.615	$GPGGA,150921,2423.1827,N,08052.1091,W,1,8,2.2,13,M,,M,,*59
06/15/2015	15:09:21.535	$GPGGA,150922,2423.1824,N,08052.1084,W,1,8,2.2,13,M,,M,,*5D
06/15/2015	15:09:22.519	$GPGGA,150923,2423.1820,N,08052.1078,W,1,8,2.2,13,M,,M,,*5B
06/15/2015	15:09:23.635	$GPGGA,150924,2423.1816,N,08052.1071,W,1,8,2.2,13,M,,M,,*50
06/15/2015	15:09:24.505	$GPGGA,150925,2423.1812,N,08052.1065,W,1,8,2.2,13,M,,M,,*50
06/15/2015	15:09:25.495	$GPGGA,150926,2423.1809,N,08052.1058,W,1,8,2.2,13,M,,M,,*57
06/15/2015	15:09:26.585	$GPGGA,150927,2423.1805,N,08052.1052,W,1,8,2.2,13,M,,M,,*50
06/15/2015	15:09:27.635	$GPGGA,150928,2423.1801,N,08052.1046,W,1,8,2.2,13,M,,M,,*5E
06/15/2015	15:09:28.605	$GPGGA,150929,2423.1798,N,08052.1039,W,1,8,2.2,13,M,,M,,*58
06/15/2015	15:09:29.584	$GPGGA,150930,2423.1795,N,08052.1032,W,1,8,2.2,13,M,,M,,*56
06/15/2015	15:09:30.604	$GPGGA,150931,2423.1790,N,08052.1027,W,1,8,2.2,13,M,,M,,*56
06/15/2015	15:09:31.518	$GPGGA,150932,2423.1787,N,08052.1021,W,1,8,2.2,13,M,,M,,*55
06/15/2015	15:09:32.584	$GPGGA,150933,2423.1784,N,08052.1014,W,1,8,2.2,12,M,,M,,*50
06/15/2015	15:09:33.574	$GPGGA,150934,2423.1780,N,08052.1007,W,1,8,2.2,12,M,,M,,*51
06/15/2015	15:09:34.585	$GPGGA,150935,2423.1776,N,08052.1002,W,1,8,2.2,12,M,,M,,*5C
06/15/2015	15:09:35.575	$GPGGA,150936,2423.1772,N,08052.0997,W,1,8,2.2,12,M,,M,,*5F
06/15/2015	15:09:36.575	$GPGGA,150937,2423.1768,N,08052.0990,W,1,8,2.2,12,M,,M,,*52
06/15/2015	15:09:37.575	$GPGGA,150938,2423.1765,N,08052.0982,W,1,8,2.2,12,M,,M,,*53
06/15/2015	15:09:38.575	$GPGGA,150939,2423.1761,N,08052.0977,W,1,8,2.2,12,M,,M,,*5C
06/15/2015	15:09:39.575	$GPGGA,150940,2423.1756,N,08052.0973,W,1,8,2.2,12,M,,M,,*52
06/15/2015	15:09:40.575	$GPGGA,150941,2423.1754,N,08052.0966,W,1,8,2.2,12,M,,M,,*55
06/15/2015	15:09:41.555	$GPGGA,150942,2423.1749,N,08052.0958,W,1,8,2.2,12,M,,M,,*57
06/15/2015	15:09:42.575	$GPGGA,150943,2423.1745,N,08052.0952,W,1,8,2.2,12,M,,M,,*50
06/15/2015	15:09:43.585	$GPGGA,150944,2423.1742,N,08052.0948,W,1,8,2.2,12,M,,M,,*5B
06/15/2015	15:09:44.545	$GPGGA,150945,2423.1738,N,08052.0942,W,1,8,2.2,12,M,,M,,*5D
06/15/2015	15:09:45.555	$GPGGA,150946,2423.1734,N,08052.0936,W,1,8,2.2,12,M,,M,,*51
06/15/2015	15:09:46.555	$GPGGA,150947,2423.1730,N,08052.0929,W,1,8,2.2,12,M,,M,,*5A
06/15/2015	15:09:47.574	$GPGGA,150948,2423.1726,N,08052.0923,W,1,8,2.2,12,M,,M,,*58
06/15/2015	15:09:48.554	$GPGGA,150949,2423.1723,N,08052.0919,W,1,8,2.3,12,M,,M,,*54
06/15/2015	15:09:49.544	$GPGGA,150950,2423.1720,N,08052.0912,W,1,8,2.2,12,M,,M,,*55
06/15/2015	15:09:50.544	$GPGGA,150951,2423.1718,N,08052.0906,W,1,8,2.2,12,M,,M,,*5A
06/15/2015	15:09:51.575	$GPGGA,150952,2423.1714,N,08052.0901,W,1,8,2.2,12,M,,M,,*52
06/15/2015	15:09:52.805	$GPGGA,150953,2423.1711,N,08052.0895,W,1,8,2.2,12,M,,M,,*5A
06/15/2015	15:09:53.565	$GPGGA,150954,2423.1707,N,08052.0889,W,1,8,2.2,12,M,,M,,*57
06/15/2015	15:09:54.535	$GPGGA,150955,2423.1704,N,08052.0884,W,1,8,2.2,12,M,,M,,*58
06/15/2015	15:09:55.545	$GPGGA,150956,2423.1700,N,08052.0879,W,1,8,2.2,12,M,,M,,*5D
06/15/2015	15:09:56.535	$GPGGA,150957,2423.1697,N,08052.0873,W,1,8,2.2,12,M,,M,,*59
06/15/2015	15:09:57.530	$GPGGA,150958,2423.1693,N,08052.0865,W,1,8,2.2,12,M,,M,,*55
06/15/2015	15:09:58.519	$GPGGA,150959,2423.1689,N,08052.0860,W,1,8,2.2,12,M,,M,,*5A
06/15/2015	15:09:59.575	$GPGGA,151000,2423.1685,N,08052.0857,W,1,8,2.2,12,M,,M,,*56
06/15/2015	15:10:00.525	$GPGGA,151001,2423.1682,N,08052.0851,W,1,8,2.2,12,M,,M,,*56
06/15/2015	15:10:01.545	$GPGGA,151002,2423.1678,N,08052.0843,W,1,8,2.2,12,M,,M,,*53
06/15/2015	15:10:02.515	$GPGGA,151003,2423.1672,N,08052.0838,W,1,8,2.2,12,M,,M,,*54
06/15/2015	15:10:03.535	$GPGGA,151004,2423.1669,N,08052.0835,W,1,8,2.2,12,M,,M,,*54
06/15/2015	15:10:04.534	$GPGGA,151005,2423.1665,N,08052.0828,W,1,8,2.2,12,M,,M,,*55
06/15/2015	15:10:05.664	$GPGGA,151006,2423.1660,N,08052.0821,W,1,8,2.2,12,M,,M,,*5A
06/15/2015	15:10:06.504	$GPGGA,151007,2423.1657,N,08052.0815,W,1,8,2.2,12,M,,M,,*58
06/15/2015	15:10:07.523	$GPGGA,151008,2423.1653,N,08052.0810,W,1,8,2.2,12,M,,M,,*56
06/15/2015	15:10:08.504	$GPGGA,151009,2423.1650,N,08052.0805,W,1,8,2.2,12,M,,M,,*50
06/15/2015	15:10:09.517	$GPGGA,151010,2423.1646,N,08052.0800,W,1,8,2.2,12,M,,M,,*5A
06/15/2015	15:10:10.517	$GPGGA,151011,2423.1640,N,08052.0793,W,1,8,2.2,12,M,,M,,*58
06/15/2015	15:10:11.675	$GPGGA,151012,2423.1637,N,08052.0786,W,1,8,2.2,12,M,,M,,*5F
06/15/2015	15:10:12.485	$GPGGA,151013,2423.1633,N,08052.0782,W,1,8,2.2,12,M,,M,,*5E
06/15/2015	15:10:13.495	$GPGGA,151014,2423.1628,N,08052.0777,W,1,8,2.2,12,M,,M,,*59
06/15/2015	15:10:14.655	$GPGGA,151015,2423.1625,N,08052.0771,W,1,8,2.2,12,M,,M,,*53
06/15/2015	15:10:15.675	$GPGGA,151016,2423.1621,N,08052.0765,W,1,8,2.2,12,M,,M,,*51
06/15/2015	15:10:16.495	$GPGGA,151017,2423.1617,N,08052.0759,W,1,8,2.2,12,M,,M,,*5A
06/15/2015	15:10:17.475	$GPGGA,151018,2423.1613,N,08052.0754,W,1,8,2.2,12,M,,M,,*5C
06/15/2015	15:10:18.505	$GPGGA,151019,2423.1609,N,08052.0749,W,1,8,2.2,12,M,,M,,*5A
06/15/2015	15:10:19.665	$GPGGA,151020,2423.1606,N,08052.0742,W,1,8,2.2,12,M,,M,,*54
06/15/2015	15:10:20.495	$GPGGA,151021,2423.1600,N,08052.0736,W,1,8,2.2,12,M,,M,,*50
06/15/2015	15:10:21.635	$GPGGA,151022,2423.1597,N,08052.0732,W,1,8,2.2,12,M,,M,,*5A
06/15/2015	15:10:22.584	$GPGGA,151023,2423.1595,N,08052.0727,W,1,8,2.2,12,M,,M,,*5D
06/15/2015	15:10:23.674	$GPGGA,151024,2423.1589,N,08052.0720,W,1,8,2.2,12,M,,M,,*50
06/15/2015	15:10:24.644	$GPGGA,151025,2423.1585,N,08052.0714,W,1,8,2.2,12,M,,M,,*5A
06/15/2015	15:10:25.564	$GPGGA,151026,2423.1581,N,08052.0710,W,1,8,2.2,12,M,,M,,*59
06/15/2015	15:10:26.635	$GPGGA,151027,2423.1577,N,08052.0705,W,1,8,2.2,12,M,,M,,*55
06/15/2015	15:10:27.634	$GPGGA,151028,2423.1574,N,08052.0696,W,1,8,2.2,12,M,,M,,*52
06/15/2015	15:10:28.555	$GPGGA,151029,2423.1570,N,08052.0690,W,1,8,2.2,12,M,,M,,*51
06/15/2015	15:10:29.595	$GPGGA,151030,2423.1566,N,08052.0686,W,1,8,2.2,12,M,,M,,*59
06/15/2015	15:10:30.627	$GPGGA,151031,2423.1561,N,08052.0681,W,1,8,2.2,12,M,,M,,*58
06/15/2015	15:10:31.605	$GPGGA,151032,2423.1557,N,08052.0675,W,1,8,2.2,12,M,,M,,*55
06/15/2015	15:10:32.627	$GPGGA,151033,2423.1553,N,08052.0668,W,1,8,2.2,12,M,,M,,*5C
06/15/2015	15:10:33.595	$GPGGA,151034,2423.1549,N,08052.0662,W,1,8,2.2,12,M,,M,,*5A
06/15/2015	15:10:34.630	$GPGGA,151035,2423.1545,N,08052.0657,W,1,8,2.2,12,M,,M,,*51
06/15/2015	15:10:35.595	$GPGGA,151036,2423.1541,N,08052.0651,W,1,8,2.2,12,M,,M,,*50
06/15/2015	15:10:36.595	$GPGGA,151037,2423.1537,N,08052.0643,W,1,8,2.2,12,M,,M,,*53
06/15/2015	15:10:37.585	$GPGGA,151038,2423.1534,N,08052.0638,W,1,8,2.2,12,M,,M,,*53
06/15/2015	15:10:39.574	$GPGGA,151040,2423.1524,N,08052.0626,W,1,8,2.2,12,M,,M,,*52
06/15/2015	15:10:40.604	$GPGGA,151041,2423.1520,N,08052.0618,W,1,8,2.2,12,M,,M,,*5A
06/15/2015	15:10:41.584	$GPGGA,151042,2423.1516,N,08052.0613,W,1,8,2.2,12,M,,M,,*57
06/15/2015	15:10:42.594	$GPGGA,151043,2423.1512,N,08052.0607,W,1,8,2.2,12,M,,M,,*57
06/15/2015	15:10:43.584	$GPGGA,151044,2423.1507,N,08052.0601,W,1,8,2.2,12,M,,M,,*52
06/15/2015	15:10:44.595	$GPGGA,151045,2423.1503,N,08052.0593,W,1,8,2.2,13,M,,M,,*5E
06/15/2015	15:10:45.515	$GPGGA,151046,2423.1499,N,08052.0587,W,1,8,2.2,13,M,,M,,*5A
06/15/2015	15:10:46.585	$GPGGA,151047,2423.1495,N,08052.0583,W,1,8,2.2,13,M,,M,,*53
06/15/2015	15:10:47.586	$GPGGA,151048,2423.1491,N,08052.0575,W,1,8,2.2,13,M,,M,,*51
06/15/2015	15:10:48.518	$GPGGA,151049,2423.1487,N,08052.0567,W,1,8,2.2,13,M,,M,,*54
06/15/2015	15:10:49.595	$GPGGA,151050,2423.1483,N,08052.0563,W,1,8,2.2,13,M,,M,,*5C
06/15/2015	15:10:50.575	$GPGGA,151051,2423.1479,N,08052.0559,W,1,8,2.2,13,M,,M,,*51
06/15/2015	15:10:51.605	$GPGGA,151052,2423.1476,N,08052.0551,W,1,8,2.2,13,M,,M,,*55
06/15/2015	15:10:52.520	$GPGGA,151053,2423.1471,N,08052.0544,W,1,8,2.2,13,M,,M,,*57
06/15/2015	15:10:53.555	$GPGGA,151054,2423.1467,N,08052.0540,W,1,8,2.2,13,M,,M,,*53
06/15/2015	15:10:54.575	$GPGGA,151055,2423.1463,N,08052.0534,W,1,8,2.2,13,M,,M,,*55
06/15/2015	15:10:55.585	$GPGGA,151056,2423.1460,N,08052.0527,W,1,8,2.2,13,M,,M,,*57
06/15/2015	15:10:56.616	$GPGGA,151057,2423.1455,N,08052.0521,W,1,8,2.2,13,M,,M,,*56
06/15/2015	15:10:57.544	$GPGGA,151058,2423.1451,N,08052.0515,W,1,8,2.2,13,M,,M,,*5A
06/15/2015	15:10:58.494	$GPGGA,151059,2423.1447,N,08052.0510,W,1,8,2.2,13,M,,M,,*59
06/15/2015	15:10:59.574	$GPGGA,151100,2423.1443,N,08052.0503,W,1,8,2.2,13,M,,M,,*52
06/15/2015	15:11:00.564	$GPGGA,151101,2423.1438,N,08052.0497,W,1,8,2.2,13,M,,M,,*53
06/15/2015	15:11:01.515	$GPGGA,151102,2423.1436,N,08052.0491,W,1,8,2.2,13,M,,M,,*58
06/15/2015	15:11:02.585	$GPGGA,151103,2423.1431,N,08052.0486,W,1,8,2.2,13,M,,M,,*58
06/15/2015	15:11:03.495	$GPGGA,151104,2423.1427,N,08052.0479,W,1,8,2.2,13,M,,M,,*58
06/15/2015	15:11:04.605	$GPGGA,151105,2423.1423,N,08052.0472,W,1,8,2.2,13,M,,M,,*56
06/15/2015	15:11:05.605	$GPGGA,151106,2423.1419,N,08052.0466,W,1,8,2.2,13,M,,M,,*59
06/15/2015	15:11:06.555	$GPGGA,151107,2423.1414,N,08052.0461,W,1,8,2.2,13,M,,M,,*52
06/15/2015	15:11:07.595	$GPGGA,151108,2423.1411,N,08052.0453,W,1,8,2.2,13,M,,M,,*59
06/15/2015	15:11:08.545	$GPGGA,151109,2423.1407,N,08052.0447,W,1,8,2.2,13,M,,M,,*5A
06/15/2015	15:11:09.595	$GPGGA,151110,2423.1402,N,08052.0441,W,1,8,2.2,13,M,,M,,*51
06/15/2015	15:11:10.585	$GPGGA,151111,2423.1398,N,08052.0434,W,1,8,2.2,13,M,,M,,*56
06/15/2015	15:11:11.585	$GPGGA,151112,2423.1394,N,08052.0427,W,1,8,2.2,13,M,,M,,*5B
06/15/2015	15:11:12.565	$GPGGA,151113,2423.1390,N,08052.0422,W,1,8,2.2,13,M,,M,,*5B
06/15/2015	15:11:13.615	$GPGGA,151114,2423.1386,N,08052.0416,W,1,8,2.2,13,M,,M,,*5C
06/15/2015	15:11:14.604	$GPGGA,151115,2423.1382,N,08052.0408,W,1,8,2.2,13,M,,M,,*56
06/15/2015	15:11:15.617	$GPGGA,151116,2423.1378,N,08052.0402,W,1,8,2.2,13,M,,M,,*5A
06/15/2015	15:11:16.854	$GPGGA,151117,2423.1373,N,08052.0396,W,1,8,2.2,13,M,,M,,*5A
06/15/2015	15:11:17.594	$GPGGA,151118,2423.1368,N,08052.0390,W,1,8,2.2,13,M,,M,,*59
06/15/2015	15:11:18.564	$GPGGA,151119,2423.1365,N,08052.0383,W,1,8,2.2,13,M,,M,,*57
06/15/2015	15:11:19.627	$GPGGA,151120,2423.1361,N,08052.0377,W,1,8,2.2,13,M,,M,,*52
06/15/2015	15:11:20.565	$GPGGA,151121,2423.1357,N,08052.0371,W,1,8,2.2,13,M,,M,,*50
06/15/2015	15:11:21.565	$GPGGA,151122,2423.1351,N,08052.0366,W,1,8,2.2,13,M,,M,,*53
06/15/2015	15:11:22.555	$GPGGA,151123,2423.1347,N,08052.0359,W,1,8,2.2,13,M,,M,,*59
06/15/2015	15:11:23.616	$GPGGA,151124,2423.1343,N,08052.0352,W,1,8,2.2,13,M,,M,,*51
06/15/2015	15:11:24.555	$GPGGA,151125,2423.1339,N,08052.0347,W,1,8,2.2,13,M,,M,,*59
06/15/2015	15:11:25.555	$GPGGA,151126,2423.1335,N,08052.0341,W,1,8,2.2,13,M,,M,,*50
06/15/2015	15:11:26.555	$GPGGA,151127,2423.1330,N,08052.0334,W,1,8,2.2,13,M,,M,,*56
06/15/2015	15:11:27.575	$GPGGA,151128,2423.1326,N,08052.0327,W,1,8,2.2,13,M,,M,,*5C
06/15/2015	15:11:28.555	$GPGGA,151129,2423.1322,N,08052.0322,W,1,8,2.2,13,M,,M,,*5C
06/15/2015	15:11:29.555	$GPGGA,151130,2423.1317,N,08052.0316,W,1,8,2.2,13,M,,M,,*55
06/15/2015	15:11:30.545	$GPGGA,151131,2423.1313,N,08052.0309,W,1,8,2.2,13,M,,M,,*5E
06/15/2015	15:11:31.565	$GPGGA,151132,2423.1310,N,08052.0302,W,1,8,2.2,13,M,,M,,*55
06/15/2015	15:11:32.564	$GPGGA,151133,2423.1304,N,08052.0297,W,1,8,2.2,13,M,,M,,*5C
06/15/2015	15:11:33.564	$GPGGA,151134,2423.1304,N,08052.0297,W,1,8,2.2,13,M,,M,,*5B
06/15/2015	15:11:34.564	$GPGGA,151135,2423.1296,N,08052.0282,W,1,8,2.2,13,M,,M,,*54
06/15/2015	15:11:35.564	$GPGGA,151136,2423.1292,N,08052.0276,W,1,8,2.2,13,M,,M,,*58
06/15/2015	15:11:36.535	$GPGGA,151137,2423.1292,N,08052.0276,W,1,8,2.2,13,M,,M,,*59
06/15/2015	15:11:37.545	$GPGGA,151138,2423.1283,N,08052.0265,W,1,8,2.2,13,M,,M,,*54
06/15/2015	15:11:38.635	$GPGGA,151139,2423.1278,N,08052.0256,W,1,8,2.2,13,M,,M,,*51
06/15/2015	15:11:39.565	$GPGGA,151140,2423.1274,N,08052.0252,W,1,8,2.2,13,M,,M,,*57
06/15/2015	15:11:40.545	$GPGGA,151141,2423.1271,N,08052.0247,W,1,8,2.2,13,M,,M,,*57
06/15/2015	15:11:41.615	$GPGGA,151142,2423.1267,N,08052.0239,W,1,8,2.2,13,M,,M,,*5A
06/15/2015	15:11:42.555	$GPGGA,151143,2423.1263,N,08052.0232,W,1,8,2.2,13,M,,M,,*54
06/15/2015	15:11:43.995	$GPGGA,151144,2423.1259,N,08052.0228,W,1,8,2.2,13,M,,M,,*51
06/15/2015	15:11:44.618	$GPGGA,151145,2423.1254,N,08052.0222,W,1,8,2.2,13,M,,M,,*57
06/15/2015	15:11:45.605	$GPGGA,151146,2423.1252,N,08052.0214,W,1,8,2.2,13,M,,M,,*57
06/15/2015	15:11:47.635	$GPGGA,151148,2423.1242,N,08052.0204,W,1,8,2.2,13,M,,M,,*59
06/15/2015	15:11:48.616	$GPGGA,151149,2423.1238,N,08052.0197,W,1,8,2.2,13,M,,M,,*5C
06/15/2015	15:11:49.634	$GPGGA,151150,2423.1234,N,08052.0190,W,1,8,2.2,13,M,,M,,*5F
06/15/2015	15:11:50.604	$GPGGA,151151,2423.1230,N,08052.0185,W,1,8,2.2,13,M,,M,,*5E
06/15/2015	15:11:51.494	$GPGGA,151152,2423.1227,N,08052.0178,W,1,8,2.2,13,M,,M,,*59
06/15/2015	15:11:52.584	$GPGGA,151153,2423.1223,N,08052.0172,W,1,8,2.2,13,M,,M,,*56
06/15/2015	15:11:53.494	$GPGGA,151154,2423.1217,N,08052.0166,W,1,8,2.2,13,M,,M,,*53
06/15/2015	15:11:54.545	$GPGGA,151155,2423.1213,N,08052.0160,W,1,8,2.2,13,M,,M,,*50
