Software Version Number: 1	Data File Format Number: 1	Build Version Number: 1	Error Count Since VI Started: 1	Manufacturer: Raytheon	 Model Number: RayMarine 120	 S/N: 	 Cal Date: 	 Wind Direction Offset: 0.00	 Slope (M)1: 0.00	 Offset (B)1: 0.00	 Slope (M)2: 0.00	 Offset (B)2: 0.00	 Slope (M)3: 0.00	 Offset (B)3: 0.00	 Slope (M)4: 0.00	 Offset (B)4: 0.00	 Slope (M)5: 0.00	 Offset (B)5: 0.00	 Slope (M)6: 0.00	 Offset (B)6: 0.00
Computer Date	Computer Time	GGA String
06/12/2015	08:00:00.547	$GPGGA,080001,2428.9295,N,08119.1756,W,1,8,1.5,16,M,,M,,*5D
06/12/2015	08:00:01.527	$GPGGA,080002,2428.9294,N,08119.1764,W,1,9,1.5,16,M,,M,,*5F
06/12/2015	08:00:02.547	$GPGGA,080003,2428.9292,N,08119.1771,W,1,9,1.5,16,M,,M,,*5C
06/12/2015	08:00:03.568	$GPGGA,080004,2428.9290,N,08119.1778,W,1,9,1.5,16,M,,M,,*50
06/12/2015	08:00:04.527	$GPGGA,080005,2428.9290,N,08119.1785,W,1,9,1.5,16,M,,M,,*53
06/12/2015	08:00:05.567	$GPGGA,080006,2428.9288,N,08119.1792,W,1,9,1.5,16,M,,M,,*5F
06/12/2015	08:00:06.537	$GPGGA,080007,2428.9285,N,08119.1799,W,1,9,1.5,16,M,,M,,*58
06/12/2015	08:00:07.537	$GPGGA,080008,2428.9283,N,08119.1806,W,1,9,1.5,16,M,,M,,*58
06/12/2015	08:00:08.527	$GPGGA,080009,2428.9283,N,08119.1814,W,1,9,1.5,16,M,,M,,*5A
06/12/2015	08:00:09.547	$GPGGA,080010,2428.9279,N,08119.1821,W,1,9,1.5,16,M,,M,,*51
06/12/2015	08:00:10.527	$GPGGA,080011,2428.9277,N,08119.1828,W,1,9,1.5,16,M,,M,,*57
06/12/2015	08:00:11.567	$GPGGA,080012,2428.9276,N,08119.1835,W,1,9,1.5,16,M,,M,,*59
06/12/2015	08:00:12.509	$GPGGA,080013,2428.9274,N,08119.1840,W,1,9,1.5,16,M,,M,,*58
06/12/2015	08:00:13.548	$GPGGA,080014,2428.9272,N,08119.1847,W,1,9,1.5,16,M,,M,,*5E
06/12/2015	08:00:14.508	$GPGGA,080015,2428.9270,N,08119.1855,W,1,9,1.5,16,M,,M,,*5E
06/12/2015	08:00:15.527	$GPGGA,080016,2428.9268,N,08119.1861,W,1,9,1.5,16,M,,M,,*53
06/12/2015	08:00:16.512	$GPGGA,080017,2428.9265,N,08119.1868,W,1,9,1.5,16,M,,M,,*56
06/12/2015	08:00:17.789	$GPGGA,080018,2428.9265,N,08119.1875,W,1,9,1.5,16,M,,M,,*55
06/12/2015	08:00:18.505	$GPGGA,080019,2428.9262,N,08119.1882,W,1,9,1.5,16,M,,M,,*5B
06/12/2015	08:00:19.520	$GPGGA,080020,2428.9259,N,08119.1887,W,1,9,1.5,16,M,,M,,*5C
06/12/2015	08:00:20.501	$GPGGA,080021,2428.9258,N,08119.1893,W,1,9,1.5,16,M,,M,,*59
06/12/2015	08:00:21.499	$GPGGA,080022,2428.9256,N,08119.1901,W,1,9,1.5,16,M,,M,,*5E
06/12/2015	08:00:22.508	$GPGGA,080023,2428.9254,N,08119.1908,W,1,9,1.5,16,M,,M,,*54
06/12/2015	08:00:23.627	$GPGGA,080024,2428.9251,N,08119.1913,W,1,9,1.5,16,M,,M,,*5C
06/12/2015	08:00:24.499	$GPGGA,080025,2428.9250,N,08119.1920,W,1,9,1.5,16,M,,M,,*5C
06/12/2015	08:00:25.511	$GPGGA,080026,2428.9247,N,08119.1926,W,1,9,1.5,16,M,,M,,*5F
06/12/2015	08:00:26.577	$GPGGA,080027,2428.9244,N,08119.1933,W,1,9,1.5,16,M,,M,,*59
06/12/2015	08:00:27.617	$GPGGA,080028,2428.9243,N,08119.1941,W,1,9,1.5,15,M,,M,,*57
06/12/2015	08:00:28.487	$GPGGA,080029,2428.9242,N,08119.1948,W,1,9,1.7,15,M,,M,,*5C
06/12/2015	08:00:29.587	$GPGGA,080030,2428.9240,N,08119.1954,W,1,9,1.5,15,M,,M,,*59
06/12/2015	08:00:30.488	$GPGGA,080031,2428.9236,N,08119.1960,W,1,9,1.5,15,M,,M,,*5E
06/12/2015	08:00:31.502	$GPGGA,080032,2428.9233,N,08119.1966,W,1,9,1.5,15,M,,M,,*5E
06/12/2015	08:00:32.567	$GPGGA,080033,2428.9232,N,08119.1973,W,1,9,1.5,15,M,,M,,*5A
06/12/2015	08:00:33.600	$GPGGA,080034,2428.9229,N,08119.1980,W,1,9,1.5,15,M,,M,,*5B
06/12/2015	08:00:34.567	$GPGGA,080035,2428.9225,N,08119.1985,W,1,9,1.5,15,M,,M,,*53
06/12/2015	08:00:35.577	$GPGGA,080036,2428.9223,N,08119.1992,W,1,9,1.5,15,M,,M,,*50
06/12/2015	08:00:36.557	$GPGGA,080037,2428.9222,N,08119.2001,W,1,9,1.5,15,M,,M,,*50
06/12/2015	08:00:37.577	$GPGGA,080038,2428.9220,N,08119.2005,W,1,9,1.5,15,M,,M,,*59
06/12/2015	08:00:38.547	$GPGGA,080039,2428.9216,N,08119.2012,W,1,9,1.5,15,M,,M,,*5B
06/12/2015	08:00:39.598	$GPGGA,080040,2428.9214,N,08119.2017,W,1,9,1.5,15,M,,M,,*52
06/12/2015	08:00:40.547	$GPGGA,080041,2428.9213,N,08119.2025,W,1,9,1.5,15,M,,M,,*55
06/12/2015	08:00:41.567	$GPGGA,080042,2428.9211,N,08119.2032,W,1,9,1.5,15,M,,M,,*52
06/12/2015	08:00:42.557	$GPGGA,080043,2428.9207,N,08119.2038,W,1,9,1.5,15,M,,M,,*5E
06/12/2015	08:00:43.568	$GPGGA,080044,2428.9205,N,08119.2045,W,1,9,1.5,15,M,,M,,*51
06/12/2015	08:00:44.547	$GPGGA,080045,2428.9204,N,08119.2052,W,1,9,1.5,15,M,,M,,*57
06/12/2015	08:00:45.567	$GPGGA,080046,2428.9202,N,08119.2059,W,1,8,1.7,15,M,,M,,*5A
06/12/2015	08:00:46.547	$GPGGA,080047,2428.9200,N,08119.2067,W,1,8,1.5,15,M,,M,,*56
06/12/2015	08:00:47.567	$GPGGA,080048,2428.9200,N,08119.2074,W,1,9,1.5,15,M,,M,,*5A
06/12/2015	08:00:48.538	$GPGGA,080049,2428.9197,N,08119.2081,W,1,9,1.5,15,M,,M,,*5C
06/12/2015	08:00:49.547	$GPGGA,080050,2428.9195,N,08119.2088,W,1,9,1.5,15,M,,M,,*5F
06/12/2015	08:00:50.537	$GPGGA,080051,2428.9193,N,08119.2095,W,1,9,1.5,15,M,,M,,*54
06/12/2015	08:00:51.567	$GPGGA,080052,2428.9193,N,08119.2103,W,1,9,1.5,15,M,,M,,*59
06/12/2015	08:00:52.527	$GPGGA,080053,2428.9190,N,08119.2110,W,1,9,1.5,15,M,,M,,*59
06/12/2015	08:00:53.547	$GPGGA,080054,2428.9189,N,08119.2117,W,1,9,1.5,15,M,,M,,*51
06/12/2015	08:00:54.527	$GPGGA,080055,2428.9187,N,08119.2124,W,1,9,1.5,15,M,,M,,*5E
06/12/2015	08:00:55.537	$GPGGA,080056,2428.9185,N,08119.2129,W,1,9,1.5,15,M,,M,,*52
06/12/2015	08:00:56.516	$GPGGA,080057,2428.9182,N,08119.2135,W,1,9,1.5,15,M,,M,,*59
06/12/2015	08:00:57.517	$GPGGA,080058,2428.9180,N,08119.2142,W,1,9,1.5,15,M,,M,,*54
06/12/2015	08:00:58.517	$GPGGA,080059,2428.9178,N,08119.2150,W,1,9,1.5,15,M,,M,,*51
06/12/2015	08:00:59.587	$GPGGA,080100,2428.9178,N,08119.2157,W,1,9,1.5,15,M,,M,,*5B
06/12/2015	08:01:00.527	$GPGGA,080101,2428.9175,N,08119.2164,W,1,9,1.7,15,M,,M,,*55
06/12/2015	08:01:01.502	$GPGGA,080102,2428.9172,N,08119.2169,W,1,9,1.5,15,M,,M,,*5E
06/12/2015	08:01:02.617	$GPGGA,080103,2428.9171,N,08119.2175,W,1,9,1.5,15,M,,M,,*51
06/12/2015	08:01:03.537	$GPGGA,080104,2428.9168,N,08119.2182,W,1,9,1.5,15,M,,M,,*56
06/12/2015	08:01:04.502	$GPGGA,080105,2428.9165,N,08119.2189,W,1,9,1.5,15,M,,M,,*51
06/12/2015	08:01:05.504	$GPGGA,080106,2428.9164,N,08119.2196,W,1,9,1.5,15,M,,M,,*5D
06/12/2015	08:01:06.502	$GPGGA,080107,2428.9161,N,08119.2201,W,1,9,1.5,15,M,,M,,*54
06/12/2015	08:01:07.537	$GPGGA,080108,2428.9160,N,08119.2208,W,1,9,1.5,15,M,,M,,*53
06/12/2015	08:01:08.504	$GPGGA,080109,2428.9158,N,08119.2215,W,1,9,1.5,15,M,,M,,*55
06/12/2015	08:01:09.508	$GPGGA,080110,2428.9155,N,08119.2222,W,1,9,1.5,15,M,,M,,*54
06/12/2015	08:01:10.487	$GPGGA,080111,2428.9153,N,08119.2227,W,1,9,1.5,15,M,,M,,*56
06/12/2015	08:01:11.504	$GPGGA,080112,2428.9151,N,08119.2236,W,1,9,1.5,15,M,,M,,*57
06/12/2015	08:01:12.877	$GPGGA,080113,2428.9150,N,08119.2243,W,1,9,1.7,15,M,,M,,*57
06/12/2015	08:01:13.477	$GPGGA,080114,2428.9148,N,08119.2249,W,1,9,1.5,15,M,,M,,*51
06/12/2015	08:01:14.497	$GPGGA,080115,2428.9146,N,08119.2255,W,1,9,1.5,15,M,,M,,*53
06/12/2015	08:01:15.657	$GPGGA,080116,2428.9146,N,08119.2263,W,1,9,1.5,15,M,,M,,*55
06/12/2015	08:01:16.501	$GPGGA,080117,2428.9142,N,08119.2269,W,1,9,1.5,15,M,,M,,*5A
06/12/2015	08:01:17.477	$GPGGA,080118,2428.9139,N,08119.2276,W,1,9,1.5,15,M,,M,,*57
06/12/2015	08:01:18.568	$GPGGA,080119,2428.9138,N,08119.2284,W,1,9,1.5,15,M,,M,,*5A
06/12/2015	08:01:19.611	$GPGGA,080120,2428.9136,N,08119.2290,W,1,9,1.5,15,M,,M,,*5B
06/12/2015	08:01:20.577	$GPGGA,080121,2428.9135,N,08119.2296,W,1,9,1.5,15,M,,M,,*5F
06/12/2015	08:01:21.567	$GPGGA,080122,2428.9132,N,08119.2303,W,1,9,1.5,15,M,,M,,*56
06/12/2015	08:01:22.567	$GPGGA,080123,2428.9129,N,08119.2310,W,1,9,1.5,15,M,,M,,*5F
06/12/2015	08:01:23.568	$GPGGA,080124,2428.9126,N,08119.2317,W,1,9,1.5,15,M,,M,,*50
06/12/2015	08:01:24.557	$GPGGA,080125,2428.9124,N,08119.2324,W,1,9,1.5,15,M,,M,,*53
06/12/2015	08:01:25.587	$GPGGA,080126,2428.9122,N,08119.2331,W,1,9,1.5,15,M,,M,,*52
06/12/2015	08:01:26.567	$GPGGA,080127,2428.9120,N,08119.2338,W,1,9,1.5,15,M,,M,,*58
06/12/2015	08:01:27.577	$GPGGA,080128,2428.9117,N,08119.2345,W,1,9,1.5,15,M,,M,,*59
06/12/2015	08:01:28.557	$GPGGA,080129,2428.9114,N,08119.2350,W,1,9,1.5,15,M,,M,,*5F
06/12/2015	08:01:29.578	$GPGGA,080130,2428.9111,N,08119.2356,W,1,9,1.5,15,M,,M,,*54
06/12/2015	08:01:30.557	$GPGGA,080131,2428.9109,N,08119.2364,W,1,9,1.5,15,M,,M,,*5D
06/12/2015	08:01:31.587	$GPGGA,080132,2428.9108,N,08119.2371,W,1,9,1.5,15,M,,M,,*5B
06/12/2015	08:01:32.547	$GPGGA,080133,2428.9106,N,08119.2378,W,1,9,1.7,15,M,,M,,*5F
06/12/2015	08:01:33.537	$GPGGA,080134,2428.9102,N,08119.2384,W,1,8,1.7,14,M,,M,,*5F
06/12/2015	08:01:34.547	$GPGGA,080135,2428.9100,N,08119.2389,W,1,8,1.5,14,M,,M,,*53
06/12/2015	08:01:35.587	$GPGGA,080136,2428.9101,N,08119.2397,W,1,9,1.5,14,M,,M,,*5F
06/12/2015	08:01:36.537	$GPGGA,080137,2428.9096,N,08119.2403,W,1,9,1.7,14,M,,M,,*59
06/12/2015	08:01:37.557	$GPGGA,080138,2428.9092,N,08119.2410,W,1,9,1.5,14,M,,M,,*52
06/12/2015	08:01:38.537	$GPGGA,080139,2428.9091,N,08119.2417,W,1,9,1.5,14,M,,M,,*57
06/12/2015	08:01:39.567	$GPGGA,080140,2428.9090,N,08119.2422,W,1,9,1.5,14,M,,M,,*5E
06/12/2015	08:01:40.528	$GPGGA,080141,2428.9086,N,08119.2428,W,1,9,1.5,14,M,,M,,*52
06/12/2015	08:01:41.557	$GPGGA,080142,2428.9084,N,08119.2435,W,1,9,1.5,14,M,,M,,*5F
06/12/2015	08:01:42.517	$GPGGA,080143,2428.9083,N,08119.2442,W,1,9,1.5,14,M,,M,,*59
06/12/2015	08:01:43.547	$GPGGA,080144,2428.9081,N,08119.2449,W,1,8,1.7,14,M,,M,,*54
06/12/2015	08:01:44.517	$GPGGA,080145,2428.9079,N,08119.2456,W,1,8,1.5,14,M,,M,,*5E
06/12/2015	08:01:45.547	$GPGGA,080146,2428.9077,N,08119.2461,W,1,9,1.5,14,M,,M,,*56
06/12/2015	08:01:46.527	$GPGGA,080147,2428.9075,N,08119.2468,W,1,9,1.5,14,M,,M,,*5C
06/12/2015	08:01:47.557	$GPGGA,080148,2428.9073,N,08119.2475,W,1,9,1.5,14,M,,M,,*59
06/12/2015	08:01:48.499	$GPGGA,080149,2428.9070,N,08119.2482,W,1,9,1.5,14,M,,M,,*53
06/12/2015	08:01:49.537	$GPGGA,080150,2428.9070,N,08119.2487,W,1,9,1.5,14,M,,M,,*5E
06/12/2015	08:01:50.511	$GPGGA,080151,2428.9066,N,08119.2494,W,1,9,1.5,14,M,,M,,*5A
06/12/2015	08:01:51.547	$GPGGA,080152,2428.9063,N,08119.2501,W,1,9,1.5,14,M,,M,,*51
06/12/2015	08:01:52.597	$GPGGA,080153,2428.9063,N,08119.2508,W,1,9,1.5,14,M,,M,,*59
06/12/2015	08:01:53.499	$GPGGA,080154,2428.9061,N,08119.2514,W,1,9,1.5,14,M,,M,,*51
06/12/2015	08:01:54.507	$GPGGA,080155,2428.9057,N,08119.2519,W,1,9,1.5,14,M,,M,,*58
06/12/2015	08:01:55.537	$GPGGA,080156,2428.9055,N,08119.2526,W,1,9,1.5,14,M,,M,,*55
06/12/2015	08:01:56.510	$GPGGA,080157,2428.9054,N,08119.2533,W,1,9,1.5,14,M,,M,,*51
06/12/2015	08:01:57.510	$GPGGA,080158,2428.9052,N,08119.2540,W,1,9,1.5,14,M,,M,,*5C
06/12/2015	08:01:58.476	$GPGGA,080159,2428.9049,N,08119.2547,W,1,9,1.5,14,M,,M,,*50
06/12/2015	08:01:59.525	$GPGGA,080200,2428.9048,N,08119.2554,W,1,9,1.5,14,M,,M,,*5C
06/12/2015	08:02:00.625	$GPGGA,080201,2428.9046,N,08119.2561,W,1,9,1.5,14,M,,M,,*55
06/12/2015	08:02:01.565	$GPGGA,080202,2428.9043,N,08119.2566,W,1,9,1.5,14,M,,M,,*54
06/12/2015	08:02:02.565	$GPGGA,080203,2428.9041,N,08119.2572,W,1,9,1.5,14,M,,M,,*52
06/12/2015	08:02:03.485	$GPGGA,080204,2428.9041,N,08119.2583,W,1,8,1.6,14,M,,M,,*59
06/12/2015	08:02:04.485	$GPGGA,080205,2428.9039,N,08119.2590,W,1,8,1.5,14,M,,M,,*56
06/12/2015	08:02:05.465	$GPGGA,080206,2428.9037,N,08119.2598,W,1,9,1.5,14,M,,M,,*52
06/12/2015	08:02:06.555	$GPGGA,080207,2428.9035,N,08119.2608,W,1,9,1.5,14,M,,M,,*5B
06/12/2015	08:02:07.665	$GPGGA,080208,2428.9034,N,08119.2616,W,1,9,1.5,14,M,,M,,*5A
06/12/2015	08:02:08.545	$GPGGA,080209,2428.9032,N,08119.2623,W,1,9,1.5,14,M,,M,,*5B
06/12/2015	08:02:09.655	$GPGGA,080210,2428.9030,N,08119.2630,W,1,9,1.5,15,M,,M,,*52
06/12/2015	08:02:10.605	$GPGGA,080211,2428.9027,N,08119.2637,W,1,9,1.5,15,M,,M,,*52
06/12/2015	08:02:11.665	$GPGGA,080212,2428.9026,N,08119.2645,W,1,9,1.5,15,M,,M,,*55
06/12/2015	08:02:12.598	$GPGGA,080213,2428.9024,N,08119.2653,W,1,9,1.5,15,M,,M,,*51
06/12/2015	08:02:13.635	$GPGGA,080214,2428.9021,N,08119.2659,W,1,9,1.5,15,M,,M,,*59
06/12/2015	08:02:14.565	$GPGGA,080215,2428.9020,N,08119.2667,W,1,9,1.5,15,M,,M,,*54
06/12/2015	08:02:15.666	$GPGGA,080216,2428.9019,N,08119.2675,W,1,9,1.5,15,M,,M,,*5E
06/12/2015	08:02:16.576	$GPGGA,080217,2428.9016,N,08119.2681,W,1,9,1.5,15,M,,M,,*5B
06/12/2015	08:02:17.635	$GPGGA,080218,2428.9013,N,08119.2688,W,1,9,1.5,15,M,,M,,*58
06/12/2015	08:02:18.565	$GPGGA,080219,2428.9014,N,08119.2695,W,1,9,1.5,15,M,,M,,*52
06/12/2015	08:02:19.645	$GPGGA,080220,2428.9012,N,08119.2702,W,1,9,1.5,15,M,,M,,*51
06/12/2015	08:02:20.575	$GPGGA,080221,2428.9009,N,08119.2710,W,1,9,1.5,15,M,,M,,*59
06/12/2015	08:02:21.635	$GPGGA,080222,2428.9007,N,08119.2715,W,1,9,1.5,15,M,,M,,*51
06/12/2015	08:02:22.555	$GPGGA,080223,2428.9005,N,08119.2721,W,1,9,1.5,15,M,,M,,*55
06/12/2015	08:02:23.635	$GPGGA,080224,2428.9002,N,08119.2728,W,1,9,1.5,15,M,,M,,*5C
06/12/2015	08:02:24.515	$GPGGA,080225,2428.9001,N,08119.2735,W,1,9,1.5,15,M,,M,,*52
06/12/2015	08:02:25.515	$GPGGA,080226,2428.8999,N,08119.2743,W,1,9,1.5,15,M,,M,,*59
06/12/2015	08:02:26.515	$GPGGA,080227,2428.8997,N,08119.2749,W,1,9,1.5,15,M,,M,,*5C
06/12/2015	08:02:27.525	$GPGGA,080228,2428.8994,N,08119.2754,W,1,9,1.5,15,M,,M,,*5C
06/12/2015	08:02:28.825	$GPGGA,080229,2428.8992,N,08119.2762,W,1,9,1.5,15,M,,M,,*5E
06/12/2015	08:02:29.505	$GPGGA,080230,2428.8991,N,08119.2768,W,1,9,1.5,15,M,,M,,*5F
06/12/2015	08:02:30.545	$GPGGA,080231,2428.8989,N,08119.2775,W,1,9,1.5,15,M,,M,,*5B
06/12/2015	08:02:31.515	$GPGGA,080232,2428.8988,N,08119.2782,W,1,9,1.5,15,M,,M,,*51
06/12/2015	08:02:32.535	$GPGGA,080233,2428.8985,N,08119.2787,W,1,9,1.5,15,M,,M,,*58
06/12/2015	08:02:33.576	$GPGGA,080234,2428.8983,N,08119.2793,W,1,9,1.5,15,M,,M,,*5C
06/12/2015	08:02:34.535	$GPGGA,080235,2428.8983,N,08119.2801,W,1,9,1.5,15,M,,M,,*59
06/12/2015	08:02:35.645	$GPGGA,080236,2428.8980,N,08119.2807,W,1,9,1.5,15,M,,M,,*5F
06/12/2015	08:02:36.525	$GPGGA,080237,2428.8976,N,08119.2814,W,1,9,1.5,15,M,,M,,*55
06/12/2015	08:02:37.597	$GPGGA,080238,2428.8974,N,08119.2821,W,1,9,1.5,15,M,,M,,*5E
06/12/2015	08:02:38.496	$GPGGA,080239,2428.8973,N,08119.2827,W,1,9,1.5,15,M,,M,,*5E
06/12/2015	08:02:39.575	$GPGGA,080240,2428.8971,N,08119.2833,W,1,9,1.5,15,M,,M,,*57
06/12/2015	08:02:40.525	$GPGGA,080241,2428.8967,N,08119.2840,W,1,9,1.5,15,M,,M,,*55
06/12/2015	08:02:41.489	$GPGGA,080242,2428.8966,N,08119.2847,W,1,9,1.5,15,M,,M,,*50
06/12/2015	08:02:42.525	$GPGGA,080243,2428.8967,N,08119.2854,W,1,9,1.5,15,M,,M,,*52
06/12/2015	08:02:43.575	$GPGGA,080244,2428.8963,N,08119.2861,W,1,9,1.5,15,M,,M,,*57
06/12/2015	08:02:44.515	$GPGGA,080245,2428.8959,N,08119.2866,W,1,9,1.5,15,M,,M,,*58
06/12/2015	08:02:45.595	$GPGGA,080246,2428.8958,N,08119.2874,W,1,9,1.5,15,M,,M,,*59
06/12/2015	08:02:46.525	$GPGGA,080247,2428.8958,N,08119.2881,W,1,9,1.5,15,M,,M,,*52
06/12/2015	08:02:47.565	$GPGGA,080248,2428.8954,N,08119.2888,W,1,9,1.5,15,M,,M,,*58
06/12/2015	08:02:48.565	$GPGGA,080249,2428.8951,N,08119.2894,W,1,9,1.5,15,M,,M,,*51
06/12/2015	08:02:49.605	$GPGGA,080250,2428.8951,N,08119.2902,W,1,9,1.5,15,M,,M,,*57
06/12/2015	08:02:50.599	$GPGGA,080251,2428.8948,N,08119.2908,W,1,9,1.5,15,M,,M,,*54
06/12/2015	08:02:51.585	$GPGGA,080252,2428.8947,N,08119.2915,W,1,9,1.5,15,M,,M,,*54
06/12/2015	08:02:52.515	$GPGGA,080253,2428.8944,N,08119.2923,W,1,9,1.5,15,M,,M,,*53
06/12/2015	08:02:53.565	$GPGGA,080254,2428.8942,N,08119.2928,W,1,9,1.5,15,M,,M,,*59
06/12/2015	08:02:54.565	$GPGGA,080255,2428.8941,N,08119.2937,W,1,9,1.5,15,M,,M,,*55
06/12/2015	08:02:55.598	$GPGGA,080256,2428.8940,N,08119.2944,W,1,9,1.5,15,M,,M,,*53
06/12/2015	08:02:56.555	$GPGGA,080257,2428.8937,N,08119.2948,W,1,9,1.5,14,M,,M,,*5F
06/12/2015	08:02:57.575	$GPGGA,080258,2428.8936,N,08119.2955,W,1,9,1.5,14,M,,M,,*5D
06/12/2015	08:02:58.545	$GPGGA,080259,2428.8933,N,08119.2962,W,1,9,1.5,14,M,,M,,*5D
06/12/2015	08:02:59.591	$GPGGA,080300,2428.8931,N,08119.2970,W,1,9,1.5,14,M,,M,,*51
06/12/2015	08:03:00.555	$GPGGA,080301,2428.8929,N,08119.2977,W,1,9,1.5,14,M,,M,,*5E
06/12/2015	08:03:01.589	$GPGGA,080302,2428.8927,N,08119.2984,W,1,9,1.5,14,M,,M,,*5F
06/12/2015	08:03:02.535	$GPGGA,080303,2428.8926,N,08119.2989,W,1,9,1.5,14,M,,M,,*52
06/12/2015	08:03:03.575	$GPGGA,080304,2428.8924,N,08119.2996,W,1,9,1.5,14,M,,M,,*59
06/12/2015	08:03:04.535	$GPGGA,080305,2428.8922,N,08119.3003,W,1,9,1.5,14,M,,M,,*5A
06/12/2015	08:03:05.588	$GPGGA,080306,2428.8919,N,08119.3010,W,1,9,1.5,14,M,,M,,*53
06/12/2015	08:03:06.535	$GPGGA,080307,2428.8920,N,08119.3018,W,1,9,1.5,14,M,,M,,*50
06/12/2015	08:03:07.575	$GPGGA,080308,2428.8916,N,08119.3024,W,1,9,1.5,14,M,,M,,*55
06/12/2015	08:03:08.546	$GPGGA,080309,2428.8913,N,08119.3031,W,1,9,1.5,14,M,,M,,*55
06/12/2015	08:03:09.605	$GPGGA,080310,2428.8914,N,08119.3038,W,1,9,1.5,14,M,,M,,*53
06/12/2015	08:03:10.535	$GPGGA,080311,2428.8913,N,08119.3045,W,1,9,1.5,14,M,,M,,*5F
06/12/2015	08:03:11.625	$GPGGA,080312,2428.8913,N,08119.3045,W,1,9,1.5,14,M,,M,,*5C
06/12/2015	08:03:12.515	$GPGGA,080313,2428.8905,N,08119.3056,W,1,9,1.5,14,M,,M,,*58
06/12/2015	08:03:13.575	$GPGGA,080314,2428.8905,N,08119.3056,W,1,9,1.5,14,M,,M,,*5F
06/12/2015	08:03:14.525	$GPGGA,080315,2428.8904,N,08119.3072,W,1,9,1.5,14,M,,M,,*59
06/12/2015	08:03:15.636	$GPGGA,080316,2428.8901,N,08119.3078,W,1,9,1.5,14,M,,M,,*55
06/12/2015	08:03:16.525	$GPGGA,080317,2428.8900,N,08119.3083,W,1,9,1.5,14,M,,M,,*51
06/12/2015	08:03:17.587	$GPGGA,080318,2428.8900,N,08119.3092,W,1,9,1.5,14,M,,M,,*5E
06/12/2015	08:03:18.515	$GPGGA,080319,2428.8897,N,08119.3097,W,1,9,1.5,14,M,,M,,*55
06/12/2015	08:03:19.575	$GPGGA,080320,2428.8894,N,08119.3103,W,1,9,1.5,14,M,,M,,*50
06/12/2015	08:03:20.505	$GPGGA,080321,2428.8893,N,08119.3111,W,1,9,1.5,14,M,,M,,*55
06/12/2015	08:03:21.545	$GPGGA,080322,2428.8891,N,08119.3118,W,1,9,1.5,14,M,,M,,*5D
06/12/2015	08:03:22.525	$GPGGA,080323,2428.8889,N,08119.3125,W,1,9,1.5,14,M,,M,,*5B
06/12/2015	08:03:23.590	$GPGGA,080324,2428.8887,N,08119.3132,W,1,9,1.5,14,M,,M,,*54
06/12/2015	08:03:24.845	$GPGGA,080325,2428.8885,N,08119.3137,W,1,9,1.5,14,M,,M,,*52
06/12/2015	08:03:25.596	$GPGGA,080326,2428.8884,N,08119.3143,W,1,9,1.5,14,M,,M,,*53
06/12/2015	08:03:26.505	$GPGGA,080327,2428.8882,N,08119.3150,W,1,9,1.5,14,M,,M,,*56
06/12/2015	08:03:27.575	$GPGGA,080328,2428.8880,N,08119.3158,W,1,9,1.5,14,M,,M,,*53
06/12/2015	08:03:29.645	$GPGGA,080330,2428.8878,N,08119.3165,W,1,9,1.5,14,M,,M,,*53
06/12/2015	08:03:30.499	$GPGGA,080331,2428.8875,N,08119.3179,W,1,9,1.5,14,M,,M,,*52
06/12/2015	08:03:31.605	$GPGGA,080332,2428.8875,N,08119.3184,W,1,9,1.5,14,M,,M,,*53
06/12/2015	08:03:32.498	$GPGGA,080333,2428.8872,N,08119.3190,W,1,9,1.5,14,M,,M,,*50
06/12/2015	08:03:33.585	$GPGGA,080334,2428.8869,N,08119.3197,W,1,9,1.5,14,M,,M,,*5A
06/12/2015	08:03:34.497	$GPGGA,080335,2428.8867,N,08119.3205,W,1,9,1.5,14,M,,M,,*5D
06/12/2015	08:03:35.625	$GPGGA,080336,2428.8866,N,08119.3213,W,1,9,1.5,14,M,,M,,*58
06/12/2015	08:03:36.495	$GPGGA,080337,2428.8865,N,08119.3222,W,1,9,1.5,14,M,,M,,*58
06/12/2015	08:03:37.499	$GPGGA,080338,2428.8865,N,08119.3222,W,1,9,1.5,14,M,,M,,*57
06/12/2015	08:03:38.555	$GPGGA,080339,2428.8862,N,08119.3234,W,1,9,1.5,14,M,,M,,*56
06/12/2015	08:03:39.575	$GPGGA,080340,2428.8863,N,08119.3242,W,1,8,1.6,14,M,,M,,*5A
06/12/2015	08:03:40.465	$GPGGA,080341,2428.8860,N,08119.3249,W,1,8,1.5,14,M,,M,,*50
06/12/2015	08:03:41.475	$GPGGA,080342,2428.8860,N,08119.3249,W,1,9,1.5,14,M,,M,,*52
06/12/2015	08:03:42.565	$GPGGA,080343,2428.8857,N,08119.3266,W,1,9,1.6,14,M,,M,,*59
06/12/2015	08:03:43.575	$GPGGA,080344,2428.8855,N,08119.3273,W,1,9,1.5,14,M,,M,,*5B
06/12/2015	08:03:44.555	$GPGGA,080345,2428.8854,N,08119.3281,W,1,9,1.6,14,M,,M,,*55
06/12/2015	08:03:45.605	$GPGGA,080346,2428.8855,N,08119.3291,W,1,9,1.5,14,M,,M,,*55
06/12/2015	08:03:46.545	$GPGGA,080347,2428.8851,N,08119.3295,W,1,9,1.5,14,M,,M,,*54
06/12/2015	08:03:47.565	$GPGGA,080348,2428.8849,N,08119.3305,W,1,8,1.6,14,M,,M,,*58
06/12/2015	08:03:48.555	$GPGGA,080349,2428.8847,N,08119.3311,W,1,8,1.5,14,M,,M,,*51
06/12/2015	08:03:49.545	$GPGGA,080350,2428.8846,N,08119.3317,W,1,8,1.6,14,M,,M,,*5D
06/12/2015	08:03:50.545	$GPGGA,080351,2428.8843,N,08119.3324,W,1,8,1.5,14,M,,M,,*5A
06/12/2015	08:03:51.565	$GPGGA,080352,2428.8842,N,08119.3331,W,1,9,1.5,14,M,,M,,*5D
06/12/2015	08:03:52.545	$GPGGA,080353,2428.8842,N,08119.3338,W,1,9,1.5,14,M,,M,,*55
06/12/2015	08:03:53.555	$GPGGA,080354,2428.8839,N,08119.3343,W,1,9,1.5,14,M,,M,,*52
06/12/2015	08:03:54.525	$GPGGA,080355,2428.8836,N,08119.3353,W,1,9,1.6,14,M,,M,,*5E
06/12/2015	08:03:55.615	$GPGGA,080356,2428.8835,N,08119.3360,W,1,9,1.5,14,M,,M,,*5D
06/12/2015	08:03:56.525	$GPGGA,080357,2428.8833,N,08119.3368,W,1,9,1.5,14,M,,M,,*52
06/12/2015	08:03:57.565	$GPGGA,080358,2428.8831,N,08119.3375,W,1,9,1.5,14,M,,M,,*53
06/12/2015	08:03:58.525	$GPGGA,080359,2428.8830,N,08119.3383,W,1,9,1.5,14,M,,M,,*5A
06/12/2015	08:03:59.565	$GPGGA,080400,2428.8829,N,08119.3390,W,1,9,1.5,14,M,,M,,*5B
06/12/2015	08:04:00.536	$GPGGA,080401,2428.8828,N,08119.3397,W,1,9,1.5,14,M,,M,,*5C
06/12/2015	08:04:01.545	$GPGGA,080402,2428.8825,N,08119.3404,W,1,9,1.5,14,M,,M,,*5F
06/12/2015	08:04:02.525	$GPGGA,080403,2428.8824,N,08119.3411,W,1,9,1.5,14,M,,M,,*5B
06/12/2015	08:04:03.565	$GPGGA,080404,2428.8822,N,08119.3418,W,1,9,1.5,14,M,,M,,*53
06/12/2015	08:04:04.506	$GPGGA,080405,2428.8819,N,08119.3425,W,1,9,1.5,14,M,,M,,*54
06/12/2015	08:04:05.545	$GPGGA,080406,2428.8817,N,08119.3432,W,1,9,1.5,14,M,,M,,*5F
06/12/2015	08:04:06.537	$GPGGA,080407,2428.8817,N,08119.3439,W,1,9,1.5,14,M,,M,,*55
06/12/2015	08:04:07.515	$GPGGA,080408,2428.8814,N,08119.3447,W,1,9,1.5,14,M,,M,,*50
06/12/2015	08:04:08.503	$GPGGA,080409,2428.8812,N,08119.3452,W,1,9,1.5,14,M,,M,,*53
06/12/2015	08:04:09.515	$GPGGA,080410,2428.8810,N,08119.3459,W,1,9,1.5,14,M,,M,,*52
06/12/2015	08:04:10.502	$GPGGA,080411,2428.8808,N,08119.3466,W,1,9,1.5,14,M,,M,,*56
06/12/2015	08:04:11.635	$GPGGA,080412,2428.8806,N,08119.3472,W,1,9,1.5,14,M,,M,,*5E
06/12/2015	08:04:12.515	$GPGGA,080413,2428.8803,N,08119.3479,W,1,9,1.5,14,M,,M,,*51
06/12/2015	08:04:13.825	$GPGGA,080414,2428.8801,N,08119.3486,W,1,9,1.5,14,M,,M,,*54
06/12/2015	08:04:14.502	$GPGGA,080415,2428.8800,N,08119.3493,W,1,9,1.5,14,M,,M,,*50
06/12/2015	08:04:15.555	$GPGGA,080416,2428.8799,N,08119.3499,W,1,9,1.5,14,M,,M,,*56
06/12/2015	08:04:16.501	$GPGGA,080417,2428.8795,N,08119.3506,W,1,9,1.7,14,M,,M,,*5E
06/12/2015	08:04:17.605	$GPGGA,080418,2428.8794,N,08119.3513,W,1,9,1.5,14,M,,M,,*56
06/12/2015	08:04:18.505	$GPGGA,080419,2428.8792,N,08119.3520,W,1,9,1.5,14,M,,M,,*51
06/12/2015	08:04:19.525	$GPGGA,080420,2428.8789,N,08119.3526,W,1,9,1.5,14,M,,M,,*57
06/12/2015	08:04:20.585	$GPGGA,080421,2428.8786,N,08119.3531,W,1,9,1.5,14,M,,M,,*5F
06/12/2015	08:04:21.596	$GPGGA,080422,2428.8787,N,08119.3538,W,1,9,1.5,14,M,,M,,*54
06/12/2015	08:04:22.575	$GPGGA,080423,2428.8784,N,08119.3545,W,1,9,1.5,14,M,,M,,*5C
06/12/2015	08:04:23.503	$GPGGA,080424,2428.8779,N,08119.3551,W,1,9,1.5,14,M,,M,,*5C
06/12/2015	08:04:24.489	$GPGGA,080425,2428.8777,N,08119.3556,W,1,9,1.5,14,M,,M,,*54
06/12/2015	08:04:25.485	$GPGGA,080426,2428.8775,N,08119.3564,W,1,9,1.5,14,M,,M,,*54
06/12/2015	08:04:26.475	$GPGGA,080427,2428.8773,N,08119.3570,W,1,9,1.5,14,M,,M,,*56
06/12/2015	08:04:27.575	$GPGGA,080428,2428.8768,N,08119.3574,W,1,9,1.5,14,M,,M,,*57
06/12/2015	08:04:28.475	$GPGGA,080429,2428.8766,N,08119.3580,W,1,9,1.5,14,M,,M,,*53
06/12/2015	08:04:29.565	$GPGGA,080430,2428.8765,N,08119.3588,W,1,9,1.5,14,M,,M,,*50
06/12/2015	08:04:30.596	$GPGGA,080431,2428.8761,N,08119.3595,W,1,9,1.5,14,M,,M,,*59
06/12/2015	08:04:31.565	$GPGGA,080432,2428.8759,N,08119.3602,W,1,9,1.5,14,M,,M,,*5C
06/12/2015	08:04:32.555	$GPGGA,080433,2428.8755,N,08119.3607,W,1,9,1.5,14,M,,M,,*54
06/12/2015	08:04:33.575	$GPGGA,080434,2428.8753,N,08119.3614,W,1,9,1.5,15,M,,M,,*56
06/12/2015	08:04:34.555	$GPGGA,080435,2428.8752,N,08119.3620,W,1,9,1.5,15,M,,M,,*51
06/12/2015	08:04:35.566	$GPGGA,080436,2428.8748,N,08119.3625,W,1,9,1.5,15,M,,M,,*5C
06/12/2015	08:04:36.545	$GPGGA,080437,2428.8745,N,08119.3631,W,1,9,1.5,15,M,,M,,*55
06/12/2015	08:04:37.545	$GPGGA,080438,2428.8743,N,08119.3638,W,1,9,1.5,15,M,,M,,*55
06/12/2015	08:04:38.545	$GPGGA,080439,2428.8741,N,08119.3645,W,1,9,1.5,15,M,,M,,*5C
06/12/2015	08:04:39.575	$GPGGA,080440,2428.8737,N,08119.3652,W,1,9,1.5,15,M,,M,,*55
06/12/2015	08:04:40.555	$GPGGA,080441,2428.8735,N,08119.3657,W,1,9,1.5,15,M,,M,,*53
06/12/2015	08:04:41.525	$GPGGA,080442,2428.8734,N,08119.3664,W,1,9,1.5,15,M,,M,,*51
06/12/2015	08:04:42.535	$GPGGA,080443,2428.8731,N,08119.3671,W,1,9,1.7,15,M,,M,,*53
06/12/2015	08:04:43.565	$GPGGA,080444,2428.8730,N,08119.3675,W,1,9,1.5,15,M,,M,,*53
06/12/2015	08:04:44.535	$GPGGA,080445,2428.8727,N,08119.3681,W,1,9,1.5,15,M,,M,,*5F
06/12/2015	08:04:45.555	$GPGGA,080446,2428.8723,N,08119.3689,W,1,9,1.5,15,M,,M,,*50
06/12/2015	08:04:46.535	$GPGGA,080447,2428.8721,N,08119.3696,W,1,9,1.5,15,M,,M,,*5D
06/12/2015	08:04:47.555	$GPGGA,080448,2428.8719,N,08119.3703,W,1,9,1.5,15,M,,M,,*54
06/12/2015	08:04:48.525	$GPGGA,080449,2428.8717,N,08119.3707,W,1,9,1.5,15,M,,M,,*5F
06/12/2015	08:04:49.545	$GPGGA,080450,2428.8714,N,08119.3714,W,1,9,1.5,15,M,,M,,*56
06/12/2015	08:04:50.535	$GPGGA,080451,2428.8713,N,08119.3721,W,1,9,1.5,16,M,,M,,*55
06/12/2015	08:04:51.555	$GPGGA,080452,2428.8712,N,08119.3728,W,1,9,1.5,16,M,,M,,*5E
06/12/2015	08:04:52.505	$GPGGA,080453,2428.8708,N,08119.3735,W,1,9,1.5,16,M,,M,,*58
06/12/2015	08:04:53.505	$GPGGA,080454,2428.8705,N,08119.3741,W,1,9,1.5,16,M,,M,,*51
06/12/2015	08:04:54.515	$GPGGA,080455,2428.8705,N,08119.3750,W,1,9,1.5,16,M,,M,,*50
06/12/2015	08:04:55.535	$GPGGA,080456,2428.8705,N,08119.3754,W,1,9,1.5,16,M,,M,,*57
06/12/2015	08:04:56.515	$GPGGA,080457,2428.8700,N,08119.3761,W,1,9,1.5,16,M,,M,,*55
06/12/2015	08:04:57.615	$GPGGA,080458,2428.8698,N,08119.3768,W,1,9,1.5,16,M,,M,,*53
06/12/2015	08:04:58.505	$GPGGA,080459,2428.8698,N,08119.3776,W,1,9,1.5,16,M,,M,,*5D
06/12/2015	08:04:59.836	$GPGGA,080500,2428.8694,N,08119.3783,W,1,9,1.5,16,M,,M,,*56
06/12/2015	08:05:00.495	$GPGGA,080501,2428.8691,N,08119.3790,W,1,9,1.5,16,M,,M,,*50
06/12/2015	08:05:01.515	$GPGGA,080502,2428.8691,N,08119.3797,W,1,9,1.5,16,M,,M,,*54
06/12/2015	08:05:02.505	$GPGGA,080503,2428.8689,N,08119.3804,W,1,9,1.5,16,M,,M,,*59
06/12/2015	08:05:03.535	$GPGGA,080504,2428.8687,N,08119.3811,W,1,9,1.5,16,M,,M,,*54
06/12/2015	08:05:04.505	$GPGGA,080505,2428.8684,N,08119.3818,W,1,9,1.5,16,M,,M,,*5F
06/12/2015	08:05:05.475	$GPGGA,080506,2428.8682,N,08119.3824,W,1,9,1.5,16,M,,M,,*55
06/12/2015	08:05:06.495	$GPGGA,080507,2428.8680,N,08119.3831,W,1,9,1.5,16,M,,M,,*52
06/12/2015	08:05:07.505	$GPGGA,080508,2428.8678,N,08119.3838,W,1,9,1.5,16,M,,M,,*53
06/12/2015	08:05:08.475	$GPGGA,080509,2428.8676,N,08119.3847,W,1,9,1.5,16,M,,M,,*54
06/12/2015	08:05:09.475	$GPGGA,080510,2428.8674,N,08119.3853,W,1,9,1.5,16,M,,M,,*5B
06/12/2015	08:05:10.498	$GPGGA,080511,2428.8672,N,08119.3860,W,1,9,1.5,16,M,,M,,*5C
06/12/2015	08:05:11.486	$GPGGA,080512,2428.8670,N,08119.3866,W,1,9,1.5,16,M,,M,,*5B
06/12/2015	08:05:12.490	$GPGGA,080513,2428.8669,N,08119.3874,W,1,9,1.5,16,M,,M,,*51
06/12/2015	08:05:13.565	$GPGGA,080514,2428.8666,N,08119.3881,W,1,9,1.5,16,M,,M,,*53
06/12/2015	08:05:14.565	$GPGGA,080515,2428.8665,N,08119.3887,W,1,9,1.5,16,M,,M,,*57
06/12/2015	08:05:15.489	$GPGGA,080516,2428.8663,N,08119.3896,W,1,9,1.5,16,M,,M,,*52
06/12/2015	08:05:16.565	$GPGGA,080517,2428.8661,N,08119.3903,W,1,9,1.5,16,M,,M,,*5C
06/12/2015	08:05:17.555	$GPGGA,080518,2428.8659,N,08119.3910,W,1,9,1.5,16,M,,M,,*5A
06/12/2015	08:05:18.565	$GPGGA,080519,2428.8656,N,08119.3916,W,1,9,1.6,16,M,,M,,*51
06/12/2015	08:05:19.565	$GPGGA,080520,2428.8655,N,08119.3921,W,1,9,1.5,16,M,,M,,*5F
06/12/2015	08:05:20.555	$GPGGA,080521,2428.8654,N,08119.3930,W,1,9,1.5,16,M,,M,,*5F
06/12/2015	08:05:21.555	$GPGGA,080522,2428.8651,N,08119.3938,W,1,9,1.5,16,M,,M,,*51
06/12/2015	08:05:22.555	$GPGGA,080523,2428.8647,N,08119.3945,W,1,9,1.5,16,M,,M,,*5D
06/12/2015	08:05:23.575	$GPGGA,080524,2428.8647,N,08119.3953,W,1,9,1.5,16,M,,M,,*5D
06/12/2015	08:05:24.545	$GPGGA,080525,2428.8647,N,08119.3960,W,1,9,1.5,16,M,,M,,*5C
06/12/2015	08:05:25.565	$GPGGA,080526,2428.8641,N,08119.3967,W,1,9,1.5,16,M,,M,,*5E
06/12/2015	08:05:26.535	$GPGGA,080527,2428.8640,N,08119.3972,W,1,9,1.5,16,M,,M,,*5A
06/12/2015	08:05:27.565	$GPGGA,080528,2428.8640,N,08119.3981,W,1,9,1.5,16,M,,M,,*59
06/12/2015	08:05:28.545	$GPGGA,080529,2428.8637,N,08119.3988,W,1,9,1.5,16,M,,M,,*51
06/12/2015	08:05:29.525	$GPGGA,080530,2428.8634,N,08119.3996,W,1,9,1.5,16,M,,M,,*55
06/12/2015	08:05:30.545	$GPGGA,080531,2428.8633,N,08119.4003,W,1,9,1.5,16,M,,M,,*51
06/12/2015	08:05:31.587	$GPGGA,080532,2428.8633,N,08119.4010,W,1,9,1.5,16,M,,M,,*50
06/12/2015	08:05:32.525	$GPGGA,080533,2428.8630,N,08119.4017,W,1,9,1.5,16,M,,M,,*55
06/12/2015	08:05:33.555	$GPGGA,080534,2428.8627,N,08119.4024,W,1,9,1.5,16,M,,M,,*54
06/12/2015	08:05:34.515	$GPGGA,080535,2428.8625,N,08119.4030,W,1,9,1.5,16,M,,M,,*52
06/12/2015	08:05:35.555	$GPGGA,080536,2428.8623,N,08119.4037,W,1,9,1.5,16,M,,M,,*50
06/12/2015	08:05:36.525	$GPGGA,080537,2428.8622,N,08119.4046,W,1,9,1.5,16,M,,M,,*56
06/12/2015	08:05:37.515	$GPGGA,080538,2428.8620,N,08119.4053,W,1,9,1.5,16,M,,M,,*5F
06/12/2015	08:05:38.515	$GPGGA,080539,2428.8618,N,08119.4059,W,1,9,1.5,16,M,,M,,*5F
06/12/2015	08:05:39.555	$GPGGA,080540,2428.8615,N,08119.4065,W,1,9,1.5,16,M,,M,,*53
06/12/2015	08:05:40.535	$GPGGA,080541,2428.8613,N,08119.4072,W,1,9,1.5,16,M,,M,,*52
06/12/2015	08:05:41.500	$GPGGA,080542,2428.8614,N,08119.4080,W,1,9,1.5,16,M,,M,,*5B
06/12/2015	08:05:42.525	$GPGGA,080543,2428.8611,N,08119.4087,W,1,9,1.5,16,M,,M,,*58
06/12/2015	08:05:43.525	$GPGGA,080544,2428.8608,N,08119.4093,W,1,9,1.5,16,M,,M,,*52
06/12/2015	08:05:44.503	$GPGGA,080545,2428.8606,N,08119.4100,W,1,9,1.5,16,M,,M,,*56
06/12/2015	08:05:45.516	$GPGGA,080546,2428.8607,N,08119.4109,W,1,9,1.5,16,M,,M,,*5D
06/12/2015	08:05:46.502	$GPGGA,080547,2428.8604,N,08119.4116,W,1,9,1.5,16,M,,M,,*51
06/12/2015	08:05:47.515	$GPGGA,080548,2428.8600,N,08119.4122,W,1,9,1.5,16,M,,M,,*5D
06/12/2015	08:05:48.496	$GPGGA,080549,2428.8597,N,08119.4129,W,1,9,1.5,16,M,,M,,*5A
06/12/2015	08:05:49.490	$GPGGA,080550,2428.8596,N,08119.4137,W,1,9,1.5,16,M,,M,,*5C
06/12/2015	08:05:50.505	$GPGGA,080551,2428.8593,N,08119.4144,W,1,9,1.5,16,M,,M,,*5C
06/12/2015	08:05:51.515	$GPGGA,080552,2428.8589,N,08119.4148,W,1,9,1.5,16,M,,M,,*58
06/12/2015	08:05:52.505	$GPGGA,080553,2428.8588,N,08119.4155,W,1,9,1.5,16,M,,M,,*54
06/12/2015	08:05:53.490	$GPGGA,080554,2428.8586,N,08119.4162,W,1,9,1.5,16,M,,M,,*59
06/12/2015	08:05:54.575	$GPGGA,080555,2428.8584,N,08119.4169,W,1,9,1.5,16,M,,M,,*51
06/12/2015	08:05:55.504	$GPGGA,080556,2428.8582,N,08119.4174,W,1,9,1.5,16,M,,M,,*58
06/12/2015	08:05:56.589	$GPGGA,080557,2428.8578,N,08119.4180,W,1,9,1.5,16,M,,M,,*57
06/12/2015	08:05:57.565	$GPGGA,080558,2428.8576,N,08119.4187,W,1,9,1.5,16,M,,M,,*51
06/12/2015	08:05:58.475	$GPGGA,080559,2428.8573,N,08119.4194,W,1,9,1.5,16,M,,M,,*57
06/12/2015	08:05:59.509	$GPGGA,080600,2428.8572,N,08119.4201,W,1,9,1.5,16,M,,M,,*56
06/12/2015	08:06:00.565	$GPGGA,080601,2428.8569,N,08119.4206,W,1,9,1.5,16,M,,M,,*5A
06/12/2015	08:06:01.555	$GPGGA,080602,2428.8568,N,08119.4214,W,1,9,1.5,16,M,,M,,*5B
06/12/2015	08:06:02.565	$GPGGA,080603,2428.8564,N,08119.4220,W,1,9,1.7,16,M,,M,,*53
06/12/2015	08:06:03.625	$GPGGA,080604,2428.8561,N,08119.4225,W,1,9,1.5,16,M,,M,,*56
06/12/2015	08:06:04.565	$GPGGA,080605,2428.8558,N,08119.4231,W,1,9,1.5,16,M,,M,,*58
06/12/2015	08:06:05.565	$GPGGA,080606,2428.8554,N,08119.4236,W,1,9,1.5,16,M,,M,,*50
06/12/2015	08:06:06.555	$GPGGA,080607,2428.8550,N,08119.4242,W,1,9,1.5,16,M,,M,,*56
06/12/2015	08:06:07.565	$GPGGA,080608,2428.8549,N,08119.4249,W,1,9,1.5,16,M,,M,,*5A
06/12/2015	08:06:08.555	$GPGGA,080609,2428.8547,N,08119.4257,W,1,9,1.5,16,M,,M,,*5A
06/12/2015	08:06:09.545	$GPGGA,080610,2428.8544,N,08119.4263,W,1,9,1.5,16,M,,M,,*56
06/12/2015	08:06:10.555	$GPGGA,080611,2428.8542,N,08119.4268,W,1,9,1.5,16,M,,M,,*5A
06/12/2015	08:06:11.595	$GPGGA,080612,2428.8540,N,08119.4275,W,1,9,1.5,16,M,,M,,*57
06/12/2015	08:06:12.565	$GPGGA,080613,2428.8539,N,08119.4281,W,1,9,1.5,16,M,,M,,*53
06/12/2015	08:06:13.555	$GPGGA,080614,2428.8535,N,08119.4288,W,1,9,1.5,16,M,,M,,*51
06/12/2015	08:06:14.536	$GPGGA,080615,2428.8533,N,08119.4295,W,1,9,1.5,16,M,,M,,*5A
06/12/2015	08:06:15.635	$GPGGA,080616,2428.8531,N,08119.4301,W,1,9,1.5,16,M,,M,,*57
06/12/2015	08:06:16.545	$GPGGA,080617,2428.8530,N,08119.4307,W,1,9,1.5,16,M,,M,,*51
06/12/2015	08:06:17.545	$GPGGA,080618,2428.8528,N,08119.4314,W,1,9,1.5,16,M,,M,,*55
06/12/2015	08:06:18.545	$GPGGA,080619,2428.8523,N,08119.4319,W,1,9,1.5,16,M,,M,,*52
06/12/2015	08:06:19.535	$GPGGA,080620,2428.8521,N,08119.4326,W,1,9,1.5,16,M,,M,,*56
06/12/2015	08:06:20.546	$GPGGA,080621,2428.8521,N,08119.4333,W,1,9,1.5,16,M,,M,,*53
06/12/2015	08:06:21.555	$GPGGA,080622,2428.8518,N,08119.4340,W,1,9,1.5,16,M,,M,,*5E
06/12/2015	08:06:22.535	$GPGGA,080623,2428.8515,N,08119.4346,W,1,9,1.5,16,M,,M,,*54
06/12/2015	08:06:23.545	$GPGGA,080624,2428.8514,N,08119.4353,W,1,9,1.5,16,M,,M,,*56
06/12/2015	08:06:24.515	$GPGGA,080625,2428.8514,N,08119.4361,W,1,9,1.5,16,M,,M,,*56
06/12/2015	08:06:25.535	$GPGGA,080626,2428.8510,N,08119.4366,W,1,9,1.5,16,M,,M,,*56
06/12/2015	08:06:26.515	$GPGGA,080627,2428.8506,N,08119.4373,W,1,9,1.5,16,M,,M,,*54
06/12/2015	08:06:27.555	$GPGGA,080628,2428.8506,N,08119.4380,W,1,9,1.5,16,M,,M,,*57
06/12/2015	08:06:28.525	$GPGGA,080629,2428.8505,N,08119.4387,W,1,9,1.5,15,M,,M,,*51
06/12/2015	08:06:29.525	$GPGGA,080630,2428.8503,N,08119.4393,W,1,9,1.5,15,M,,M,,*5A
06/12/2015	08:06:30.505	$GPGGA,080631,2428.8500,N,08119.4400,W,1,9,1.5,15,M,,M,,*55
06/12/2015	08:06:31.525	$GPGGA,080632,2428.8501,N,08119.4408,W,1,9,1.5,15,M,,M,,*5F
06/12/2015	08:06:32.645	$GPGGA,080633,2428.8497,N,08119.4413,W,1,9,1.5,15,M,,M,,*5A
06/12/2015	08:06:33.515	$GPGGA,080634,2428.8494,N,08119.4420,W,1,9,1.5,15,M,,M,,*5E
06/12/2015	08:06:34.489	$GPGGA,080635,2428.8493,N,08119.4427,W,1,9,1.5,15,M,,M,,*5F
06/12/2015	08:06:35.505	$GPGGA,080636,2428.8492,N,08119.4434,W,1,9,1.5,15,M,,M,,*5F
06/12/2015	08:06:36.488	$GPGGA,080637,2428.8489,N,08119.4440,W,1,9,1.5,15,M,,M,,*57
06/12/2015	08:06:37.505	$GPGGA,080638,2428.8488,N,08119.4447,W,1,9,1.5,15,M,,M,,*5E
06/12/2015	08:06:38.495	$GPGGA,080639,2428.8486,N,08119.4454,W,1,9,1.7,15,M,,M,,*51
06/12/2015	08:06:39.515	$GPGGA,080640,2428.8484,N,08119.4462,W,1,9,1.5,15,M,,M,,*5A
06/12/2015	08:06:40.515	$GPGGA,080641,2428.8483,N,08119.4469,W,1,9,1.7,15,M,,M,,*55
06/12/2015	08:06:41.600	$GPGGA,080642,2428.8481,N,08119.4476,W,1,9,1.5,15,M,,M,,*58
06/12/2015	08:06:42.475	$GPGGA,080643,2428.8478,N,08119.4480,W,1,9,1.5,15,M,,M,,*56
06/12/2015	08:06:43.501	$GPGGA,080644,2428.8476,N,08119.4487,W,1,9,1.5,15,M,,M,,*58
06/12/2015	08:06:44.475	$GPGGA,080645,2428.8477,N,08119.4494,W,1,9,1.5,15,M,,M,,*5A
06/12/2015	08:06:45.575	$GPGGA,080646,2428.8474,N,08119.4501,W,1,9,1.5,15,M,,M,,*57
06/12/2015	08:06:46.575	$GPGGA,080647,2428.8470,N,08119.4508,W,1,9,1.5,15,M,,M,,*5B
06/12/2015	08:06:47.495	$GPGGA,080648,2428.8468,N,08119.4516,W,1,9,1.5,15,M,,M,,*52
06/12/2015	08:06:48.475	$GPGGA,080649,2428.8467,N,08119.4523,W,1,9,1.5,15,M,,M,,*5A
06/12/2015	08:06:49.595	$GPGGA,080650,2428.8464,N,08119.4527,W,1,9,1.5,15,M,,M,,*55
06/12/2015	08:06:50.475	$GPGGA,080651,2428.8465,N,08119.4534,W,1,9,1.5,15,M,,M,,*57
06/12/2015	08:06:51.615	$GPGGA,080652,2428.8463,N,08119.4542,W,1,8,1.5,15,M,,M,,*52
06/12/2015	08:06:52.555	$GPGGA,080653,2428.8463,N,08119.4550,W,1,8,1.5,15,M,,M,,*50
06/12/2015	08:06:53.575	$GPGGA,080654,2428.8463,N,08119.4557,W,1,9,1.5,15,M,,M,,*51
06/12/2015	08:06:54.555	$GPGGA,080655,2428.8460,N,08119.4564,W,1,9,1.5,15,M,,M,,*53
06/12/2015	08:06:55.636	$GPGGA,080656,2428.8458,N,08119.4571,W,1,9,1.5,15,M,,M,,*5F
06/12/2015	08:06:56.555	$GPGGA,080657,2428.8459,N,08119.4578,W,1,9,1.5,15,M,,M,,*56
06/12/2015	08:06:57.575	$GPGGA,080658,2428.8457,N,08119.4585,W,1,9,1.5,15,M,,M,,*55
06/12/2015	08:06:58.555	$GPGGA,080659,2428.8456,N,08119.4592,W,1,9,1.5,15,M,,M,,*53
06/12/2015	08:06:59.585	$GPGGA,080700,2428.8454,N,08119.4600,W,1,9,1.5,15,M,,M,,*54
06/12/2015	08:07:00.545	$GPGGA,080701,2428.8452,N,08119.4607,W,1,9,1.5,15,M,,M,,*54
06/12/2015	08:07:01.565	$GPGGA,080702,2428.8452,N,08119.4617,W,1,9,1.5,15,M,,M,,*56
06/12/2015	08:07:03.035	$GPGGA,080703,2428.8450,N,08119.4622,W,1,9,1.5,15,M,,M,,*53
06/12/2015	08:07:03.605	$GPGGA,080704,2428.8448,N,08119.4628,W,1,9,1.5,15,M,,M,,*57
06/12/2015	08:07:04.535	$GPGGA,080705,2428.8447,N,08119.4635,W,1,9,1.5,15,M,,M,,*55
06/12/2015	08:07:05.555	$GPGGA,080706,2428.8445,N,08119.4643,W,1,9,1.5,15,M,,M,,*55
06/12/2015	08:07:06.535	$GPGGA,080707,2428.8443,N,08119.4650,W,1,9,1.5,15,M,,M,,*50
06/12/2015	08:07:07.575	$GPGGA,080708,2428.8442,N,08119.4658,W,1,9,1.5,15,M,,M,,*56
06/12/2015	08:07:08.545	$GPGGA,080709,2428.8441,N,08119.4664,W,1,9,1.5,15,M,,M,,*5B
06/12/2015	08:07:09.545	$GPGGA,080710,2428.8439,N,08119.4671,W,1,9,1.5,15,M,,M,,*58
06/12/2015	08:07:10.545	$GPGGA,080711,2428.8438,N,08119.4678,W,1,9,1.5,15,M,,M,,*51
06/12/2015	08:07:11.565	$GPGGA,080712,2428.8435,N,08119.4684,W,1,9,1.5,15,M,,M,,*5C
06/12/2015	08:07:12.535	$GPGGA,080713,2428.8432,N,08119.4691,W,1,9,1.5,15,M,,M,,*5E
06/12/2015	08:07:13.545	$GPGGA,080714,2428.8430,N,08119.4698,W,1,9,1.5,15,M,,M,,*52
06/12/2015	08:07:14.535	$GPGGA,080715,2428.8429,N,08119.4705,W,1,9,1.5,15,M,,M,,*5E
06/12/2015	08:07:15.625	$GPGGA,080716,2428.8427,N,08119.4712,W,1,9,1.5,15,M,,M,,*55
06/12/2015	08:07:16.535	$GPGGA,080717,2428.8424,N,08119.4718,W,1,9,1.5,15,M,,M,,*5D
06/12/2015	08:07:17.515	$GPGGA,080718,2428.8423,N,08119.4723,W,1,9,1.5,15,M,,M,,*5D
06/12/2015	08:07:18.505	$GPGGA,080719,2428.8419,N,08119.4732,W,1,9,1.5,15,M,,M,,*55
06/12/2015	08:07:19.565	$GPGGA,080720,2428.8418,N,08119.4738,W,1,9,1.5,15,M,,M,,*54
06/12/2015	08:07:20.525	$GPGGA,080721,2428.8416,N,08119.4745,W,1,9,1.5,15,M,,M,,*51
06/12/2015	08:07:21.525	$GPGGA,080722,2428.8412,N,08119.4751,W,1,9,1.5,15,M,,M,,*53
06/12/2015	08:07:22.515	$GPGGA,080723,2428.8410,N,08119.4758,W,1,9,1.5,15,M,,M,,*59
06/12/2015	08:07:23.525	$GPGGA,080724,2428.8409,N,08119.4765,W,1,9,1.5,15,M,,M,,*58
06/12/2015	08:07:24.504	$GPGGA,080725,2428.8406,N,08119.4772,W,1,9,1.5,15,M,,M,,*50
06/12/2015	08:07:25.535	$GPGGA,080726,2428.8401,N,08119.4777,W,1,9,1.5,15,M,,M,,*51
06/12/2015	08:07:26.515	$GPGGA,080727,2428.8400,N,08119.4785,W,1,9,1.5,15,M,,M,,*5C
06/12/2015	08:07:27.535	$GPGGA,080728,2428.8398,N,08119.4792,W,1,9,1.5,15,M,,M,,*53
06/12/2015	08:07:28.575	$GPGGA,080729,2428.8395,N,08119.4799,W,1,9,1.5,15,M,,M,,*54
06/12/2015	08:07:29.615	$GPGGA,080730,2428.8393,N,08119.4805,W,1,9,1.5,15,M,,M,,*50
06/12/2015	08:07:30.586	$GPGGA,080731,2428.8391,N,08119.4812,W,1,9,1.5,15,M,,M,,*55
06/12/2015	08:07:31.625	$GPGGA,080732,2428.8388,N,08119.4819,W,1,9,1.5,15,M,,M,,*55
06/12/2015	08:07:32.575	$GPGGA,080733,2428.8385,N,08119.4826,W,1,9,1.5,15,M,,M,,*55
06/12/2015	08:07:33.597	$GPGGA,080734,2428.8386,N,08119.4834,W,1,9,1.5,15,M,,M,,*52
06/12/2015	08:07:34.497	$GPGGA,080735,2428.8382,N,08119.4841,W,1,9,1.5,15,M,,M,,*55
06/12/2015	08:07:35.575	$GPGGA,080736,2428.8378,N,08119.4845,W,1,9,1.5,15,M,,M,,*57
06/12/2015	08:07:36.489	$GPGGA,080737,2428.8376,N,08119.4852,W,1,9,1.5,15,M,,M,,*5E
06/12/2015	08:07:37.565	$GPGGA,080738,2428.8376,N,08119.4859,W,1,9,1.5,15,M,,M,,*5A
06/12/2015	08:07:38.565	$GPGGA,080739,2428.8371,N,08119.4864,W,1,9,1.5,15,M,,M,,*52
06/12/2015	08:07:39.597	$GPGGA,080740,2428.8369,N,08119.4871,W,1,9,1.5,15,M,,M,,*51
06/12/2015	08:07:40.555	$GPGGA,080741,2428.8367,N,08119.4879,W,1,9,1.5,15,M,,M,,*56
06/12/2015	08:07:41.575	$GPGGA,080742,2428.8365,N,08119.4886,W,1,9,1.5,15,M,,M,,*57
06/12/2015	08:07:42.555	$GPGGA,080743,2428.8362,N,08119.4892,W,1,9,1.5,15,M,,M,,*54
06/12/2015	08:07:43.593	$GPGGA,080744,2428.8359,N,08119.4899,W,1,9,1.5,15,M,,M,,*50
06/12/2015	08:07:44.555	$GPGGA,080745,2428.8358,N,08119.4906,W,1,9,1.5,15,M,,M,,*57
06/12/2015	08:07:45.895	$GPGGA,080746,2428.8355,N,08119.4913,W,1,9,1.5,15,M,,M,,*5D
06/12/2015	08:07:46.555	$GPGGA,080747,2428.8352,N,08119.4920,W,1,9,1.5,15,M,,M,,*5B
06/12/2015	08:07:47.575	$GPGGA,080748,2428.8351,N,08119.4926,W,1,9,1.5,15,M,,M,,*51
06/12/2015	08:07:48.545	$GPGGA,080749,2428.8349,N,08119.4933,W,1,9,1.5,15,M,,M,,*5D
06/12/2015	08:07:49.535	$GPGGA,080750,2428.8345,N,08119.4939,W,1,9,1.5,15,M,,M,,*53
06/12/2015	08:07:50.535	$GPGGA,080751,2428.8344,N,08119.4946,W,1,9,1.5,15,M,,M,,*5B
06/12/2015	08:07:51.575	$GPGGA,080752,2428.8341,N,08119.4953,W,1,9,1.5,15,M,,M,,*59
06/12/2015	08:07:52.536	$GPGGA,080753,2428.8338,N,08119.4960,W,1,9,1.5,15,M,,M,,*56
06/12/2015	08:07:53.555	$GPGGA,080754,2428.8336,N,08119.4965,W,1,9,1.5,15,M,,M,,*5A
06/12/2015	08:07:54.535	$GPGGA,080755,2428.8334,N,08119.4972,W,1,9,1.5,15,M,,M,,*5F
06/12/2015	08:07:55.575	$GPGGA,080756,2428.8333,N,08119.4979,W,1,9,1.5,15,M,,M,,*50
06/12/2015	08:07:56.535	$GPGGA,080757,2428.8330,N,08119.4987,W,1,9,1.5,15,M,,M,,*53
06/12/2015	08:07:57.515	$GPGGA,080758,2428.8327,N,08119.4994,W,1,9,1.5,15,M,,M,,*58
06/12/2015	08:07:58.525	$GPGGA,080759,2428.8324,N,08119.5000,W,1,9,1.5,15,M,,M,,*5F
06/12/2015	08:07:59.565	$GPGGA,080800,2428.8322,N,08119.5007,W,1,9,1.5,15,M,,M,,*5D
06/12/2015	08:08:00.530	$GPGGA,080801,2428.8322,N,08119.5014,W,1,9,1.5,15,M,,M,,*5E
06/12/2015	08:08:01.505	$GPGGA,080802,2428.8319,N,08119.5020,W,1,8,1.7,15,M,,M,,*51
06/12/2015	08:08:02.525	$GPGGA,080803,2428.8317,N,08119.5027,W,1,8,1.5,15,M,,M,,*5B
06/12/2015	08:08:03.545	$GPGGA,080804,2428.8315,N,08119.5034,W,1,9,1.5,15,M,,M,,*5D
06/12/2015	08:08:04.509	$GPGGA,080805,2428.8312,N,08119.5041,W,1,9,1.5,15,M,,M,,*59
06/12/2015	08:08:05.536	$GPGGA,080806,2428.8311,N,08119.5048,W,1,9,1.5,14,M,,M,,*51
06/12/2015	08:08:06.508	$GPGGA,080807,2428.8308,N,08119.5054,W,1,9,1.5,14,M,,M,,*55
06/12/2015	08:08:07.525	$GPGGA,080808,2428.8305,N,08119.5061,W,1,9,1.5,14,M,,M,,*51
06/12/2015	08:08:08.515	$GPGGA,080809,2428.8304,N,08119.5068,W,1,9,1.5,14,M,,M,,*58
06/12/2015	08:08:09.515	$GPGGA,080810,2428.8301,N,08119.5074,W,1,9,1.5,14,M,,M,,*58
06/12/2015	08:08:10.525	$GPGGA,080811,2428.8299,N,08119.5080,W,1,9,1.5,14,M,,M,,*52
06/12/2015	08:08:11.515	$GPGGA,080812,2428.8297,N,08119.5087,W,1,9,1.5,14,M,,M,,*58
06/12/2015	08:08:12.505	$GPGGA,080813,2428.8295,N,08119.5094,W,1,9,1.5,14,M,,M,,*59
06/12/2015	08:08:13.590	$GPGGA,080814,2428.8293,N,08119.5101,W,1,9,1.5,14,M,,M,,*55
06/12/2015	08:08:14.498	$GPGGA,080815,2428.8290,N,08119.5108,W,1,9,1.5,14,M,,M,,*5E
06/12/2015	08:08:15.588	$GPGGA,080816,2428.8288,N,08119.5113,W,1,9,1.5,14,M,,M,,*5E
06/12/2015	08:08:16.593	$GPGGA,080817,2428.8286,N,08119.5121,W,1,9,1.5,14,M,,M,,*50
06/12/2015	08:08:17.485	$GPGGA,080818,2428.8286,N,08119.5127,W,1,9,1.5,14,M,,M,,*59
06/12/2015	08:08:18.496	$GPGGA,080819,2428.8283,N,08119.5134,W,1,9,1.5,14,M,,M,,*5F
06/12/2015	08:08:19.615	$GPGGA,080820,2428.8280,N,08119.5142,W,1,9,1.5,14,M,,M,,*57
06/12/2015	08:08:20.575	$GPGGA,080821,2428.8279,N,08119.5149,W,1,9,1.5,14,M,,M,,*5B
06/12/2015	08:08:21.605	$GPGGA,080822,2428.8277,N,08119.5155,W,1,9,1.5,14,M,,M,,*5B
06/12/2015	08:08:22.575	$GPGGA,080823,2428.8275,N,08119.5163,W,1,9,1.5,14,M,,M,,*5D
06/12/2015	08:08:23.575	$GPGGA,080824,2428.8275,N,08119.5170,W,1,9,1.5,14,M,,M,,*58
06/12/2015	08:08:24.565	$GPGGA,080825,2428.8272,N,08119.5177,W,1,9,1.5,14,M,,M,,*59
06/12/2015	08:08:25.602	$GPGGA,080826,2428.8269,N,08119.5184,W,1,9,1.5,14,M,,M,,*5C
06/12/2015	08:08:26.565	$GPGGA,080827,2428.8268,N,08119.5192,W,1,9,1.5,14,M,,M,,*5B
06/12/2015	08:08:27.605	$GPGGA,080828,2428.8268,N,08119.5199,W,1,9,1.5,14,M,,M,,*5F
06/12/2015	08:08:28.565	$GPGGA,080829,2428.8265,N,08119.5206,W,1,9,1.5,14,M,,M,,*56
06/12/2015	08:08:29.590	$GPGGA,080830,2428.8262,N,08119.5211,W,1,9,1.5,14,M,,M,,*5F
06/12/2015	08:08:30.555	$GPGGA,080831,2428.8260,N,08119.5218,W,1,9,1.5,14,M,,M,,*55
06/12/2015	08:08:31.601	$GPGGA,080832,2428.8258,N,08119.5228,W,1,9,1.5,14,M,,M,,*5E
06/12/2015	08:08:32.555	$GPGGA,080833,2428.8257,N,08119.5235,W,1,9,1.5,14,M,,M,,*5C
06/12/2015	08:08:33.545	$GPGGA,080834,2428.8255,N,08119.5242,W,1,9,1.5,14,M,,M,,*59
06/12/2015	08:08:34.555	$GPGGA,080835,2428.8252,N,08119.5249,W,1,9,1.5,14,M,,M,,*54
06/12/2015	08:08:35.565	$GPGGA,080836,2428.8251,N,08119.5256,W,1,9,1.5,14,M,,M,,*5A
06/12/2015	08:08:36.545	$GPGGA,080837,2428.8250,N,08119.5264,W,1,9,1.5,14,M,,M,,*5B
06/12/2015	08:08:37.535	$GPGGA,080838,2428.8247,N,08119.5269,W,1,9,1.5,14,M,,M,,*5F
06/12/2015	08:08:38.545	$GPGGA,080839,2428.8244,N,08119.5278,W,1,9,1.5,14,M,,M,,*5D
06/12/2015	08:08:39.565	$GPGGA,080840,2428.8243,N,08119.5285,W,1,9,1.5,14,M,,M,,*56
06/12/2015	08:08:40.546	$GPGGA,080841,2428.8242,N,08119.5293,W,1,9,1.5,14,M,,M,,*51
06/12/2015	08:08:41.545	$GPGGA,080842,2428.8241,N,08119.5300,W,1,9,1.5,14,M,,M,,*5A
06/12/2015	08:08:42.535	$GPGGA,080843,2428.8239,N,08119.5307,W,1,9,1.5,14,M,,M,,*53
06/12/2015	08:08:43.535	$GPGGA,080844,2428.8236,N,08119.5312,W,1,9,1.5,14,M,,M,,*5F
06/12/2015	08:08:44.525	$GPGGA,080845,2428.8233,N,08119.5319,W,1,9,1.5,14,M,,M,,*50
06/12/2015	08:08:45.525	$GPGGA,080846,2428.8232,N,08119.5327,W,1,9,1.5,14,M,,M,,*5F
06/12/2015	08:08:46.545	$GPGGA,080847,2428.8232,N,08119.5336,W,1,9,1.5,14,M,,M,,*5E
06/12/2015	08:08:47.565	$GPGGA,080848,2428.8228,N,08119.5341,W,1,9,1.5,14,M,,M,,*5A
06/12/2015	08:08:48.525	$GPGGA,080849,2428.8226,N,08119.5347,W,1,9,1.5,14,M,,M,,*53
06/12/2015	08:08:49.555	$GPGGA,080850,2428.8225,N,08119.5354,W,1,9,1.5,14,M,,M,,*5A
06/12/2015	08:08:50.516	$GPGGA,080851,2428.8224,N,08119.5361,W,1,9,1.5,14,M,,M,,*5C
06/12/2015	08:08:51.525	$GPGGA,080852,2428.8221,N,08119.5368,W,1,9,1.5,14,M,,M,,*53
06/12/2015	08:08:52.505	$GPGGA,080853,2428.8218,N,08119.5374,W,1,9,1.5,14,M,,M,,*55
06/12/2015	08:08:53.535	$GPGGA,080854,2428.8217,N,08119.5381,W,1,9,1.5,14,M,,M,,*57
06/12/2015	08:08:54.498	$GPGGA,080855,2428.8215,N,08119.5388,W,1,9,1.5,14,M,,M,,*5D
06/12/2015	08:08:55.545	$GPGGA,080856,2428.8214,N,08119.5395,W,1,9,1.5,14,M,,M,,*53
06/12/2015	08:08:56.515	$GPGGA,080857,2428.8211,N,08119.5401,W,1,9,1.5,14,M,,M,,*5D
06/12/2015	08:08:57.525	$GPGGA,080858,2428.8210,N,08119.5409,W,1,9,1.5,14,M,,M,,*5B
06/12/2015	08:08:58.483	$GPGGA,080859,2428.8207,N,08119.5416,W,1,9,1.5,14,M,,M,,*52
06/12/2015	08:08:59.523	$GPGGA,080900,2428.8205,N,08119.5423,W,1,9,1.5,14,M,,M,,*5B
06/12/2015	08:09:00.503	$GPGGA,080901,2428.8203,N,08119.5430,W,1,9,1.5,14,M,,M,,*5E
06/12/2015	08:09:01.493	$GPGGA,080902,2428.8200,N,08119.5437,W,1,9,1.5,14,M,,M,,*59
06/12/2015	08:09:02.473	$GPGGA,080903,2428.8199,N,08119.5442,W,1,9,1.5,14,M,,M,,*59
06/12/2015	08:09:03.483	$GPGGA,080904,2428.8196,N,08119.5449,W,1,9,1.5,14,M,,M,,*5A
06/12/2015	08:09:04.574	$GPGGA,080905,2428.8194,N,08119.5456,W,1,9,1.5,14,M,,M,,*57
06/12/2015	08:09:05.493	$GPGGA,080906,2428.8192,N,08119.5464,W,1,9,1.5,14,M,,M,,*53
06/12/2015	08:09:06.463	$GPGGA,080907,2428.8189,N,08119.5471,W,1,9,1.5,14,M,,M,,*5C
06/12/2015	08:09:07.573	$GPGGA,080908,2428.8187,N,08119.5477,W,1,9,1.5,14,M,,M,,*5B
06/12/2015	08:09:08.473	$GPGGA,080909,2428.8185,N,08119.5484,W,1,9,1.5,14,M,,M,,*54
06/12/2015	08:09:09.563	$GPGGA,080910,2428.8182,N,08119.5491,W,1,9,1.5,14,M,,M,,*5F
06/12/2015	08:09:10.484	$GPGGA,080911,2428.8181,N,08119.5498,W,1,9,1.5,14,M,,M,,*54
06/12/2015	08:09:11.563	$GPGGA,080912,2428.8178,N,08119.5504,W,1,9,1.5,14,M,,M,,*55
06/12/2015	08:09:12.563	$GPGGA,080913,2428.8175,N,08119.5511,W,1,9,1.5,14,M,,M,,*5D
06/12/2015	08:09:13.543	$GPGGA,080914,2428.8174,N,08119.5520,W,1,9,1.5,14,M,,M,,*59
06/12/2015	08:09:14.543	$GPGGA,080915,2428.8172,N,08119.5525,W,1,9,1.5,14,M,,M,,*5B
06/12/2015	08:09:15.583	$GPGGA,080916,2428.8170,N,08119.5532,W,1,9,1.5,14,M,,M,,*5C
06/12/2015	08:09:16.543	$GPGGA,080917,2428.8168,N,08119.5539,W,1,9,1.5,14,M,,M,,*5F
06/12/2015	08:09:17.554	$GPGGA,080918,2428.8167,N,08119.5546,W,1,9,1.5,14,M,,M,,*57
06/12/2015	08:09:18.553	$GPGGA,080919,2428.8163,N,08119.5553,W,1,9,1.5,14,M,,M,,*56
06/12/2015	08:09:19.593	$GPGGA,080920,2428.8160,N,08119.5560,W,1,9,1.5,14,M,,M,,*5F
06/12/2015	08:09:20.543	$GPGGA,080921,2428.8159,N,08119.5567,W,1,9,1.5,14,M,,M,,*53
06/12/2015	08:09:21.554	$GPGGA,080922,2428.8157,N,08119.5574,W,1,9,1.5,14,M,,M,,*5C
06/12/2015	08:09:22.543	$GPGGA,080923,2428.8156,N,08119.5581,W,1,9,1.5,14,M,,M,,*56
06/12/2015	08:09:23.573	$GPGGA,080924,2428.8152,N,08119.5586,W,1,9,1.5,14,M,,M,,*52
06/12/2015	08:09:24.533	$GPGGA,080925,2428.8149,N,08119.5593,W,1,9,1.5,14,M,,M,,*5D
06/12/2015	08:09:25.523	$GPGGA,080926,2428.8148,N,08119.5601,W,1,9,1.5,14,M,,M,,*57
06/12/2015	08:09:26.533	$GPGGA,080927,2428.8145,N,08119.5608,W,1,9,1.5,14,M,,M,,*52
06/12/2015	08:09:27.563	$GPGGA,080928,2428.8142,N,08119.5614,W,1,9,1.5,14,M,,M,,*57
06/12/2015	08:09:28.513	$GPGGA,080929,2428.8140,N,08119.5621,W,1,9,1.5,14,M,,M,,*52
06/12/2015	08:09:29.553	$GPGGA,080930,2428.8139,N,08119.5629,W,1,9,1.5,14,M,,M,,*5C
06/12/2015	08:09:30.533	$GPGGA,080931,2428.8136,N,08119.5636,W,1,9,1.5,14,M,,M,,*5C
06/12/2015	08:09:31.563	$GPGGA,080932,2428.8134,N,08119.5643,W,1,9,1.5,14,M,,M,,*5F
06/12/2015	08:09:32.523	$GPGGA,080933,2428.8130,N,08119.5650,W,1,9,1.5,14,M,,M,,*58
06/12/2015	08:09:33.543	$GPGGA,080934,2428.8127,N,08119.5658,W,1,9,1.5,14,M,,M,,*51
06/12/2015	08:09:34.513	$GPGGA,080935,2428.8127,N,08119.5665,W,1,9,1.5,14,M,,M,,*5E
06/12/2015	08:09:35.553	$GPGGA,080936,2428.8124,N,08119.5672,W,1,9,1.5,14,M,,M,,*58
06/12/2015	08:09:36.503	$GPGGA,080937,2428.8120,N,08119.5679,W,1,9,1.5,14,M,,M,,*56
06/12/2015	08:09:37.503	$GPGGA,080938,2428.8118,N,08119.5686,W,1,9,1.5,14,M,,M,,*52
06/12/2015	08:09:38.513	$GPGGA,080939,2428.8116,N,08119.5694,W,1,9,1.5,14,M,,M,,*5E
06/12/2015	08:09:39.663	$GPGGA,080940,2428.8114,N,08119.5701,W,1,9,1.5,14,M,,M,,*5F
06/12/2015	08:09:40.513	$GPGGA,080941,2428.8111,N,08119.5706,W,1,9,1.5,14,M,,M,,*5C
06/12/2015	08:09:41.503	$GPGGA,080942,2428.8109,N,08119.5713,W,1,9,1.5,14,M,,M,,*52
06/12/2015	08:09:42.503	$GPGGA,080943,2428.8107,N,08119.5719,W,1,9,1.5,14,M,,M,,*57
06/12/2015	08:09:43.523	$GPGGA,080944,2428.8105,N,08119.5726,W,1,9,1.5,14,M,,M,,*5E
06/12/2015	08:09:44.478	$GPGGA,080945,2428.8103,N,08119.5735,W,1,9,1.5,14,M,,M,,*5B
06/12/2015	08:09:45.503	$GPGGA,080946,2428.8102,N,08119.5742,W,1,8,1.7,13,M,,M,,*5D
06/12/2015	08:09:46.653	$GPGGA,080947,2428.8098,N,08119.5748,W,1,8,1.5,13,M,,M,,*56
06/12/2015	08:09:47.603	$GPGGA,080948,2428.8096,N,08119.5755,W,1,9,1.5,13,M,,M,,*5A
06/12/2015	08:09:48.523	$GPGGA,080949,2428.8097,N,08119.5762,W,1,9,1.7,13,M,,M,,*5C
06/12/2015	08:09:49.483	$GPGGA,080950,2428.8094,N,08119.5769,W,1,9,1.5,13,M,,M,,*5E
06/12/2015	08:09:50.495	$GPGGA,080951,2428.8091,N,08119.5775,W,1,9,1.5,13,M,,M,,*57
06/12/2015	08:09:51.643	$GPGGA,080952,2428.8089,N,08119.5782,W,1,9,1.5,13,M,,M,,*55
06/12/2015	08:09:52.489	$GPGGA,080953,2428.8087,N,08119.5789,W,1,9,1.5,13,M,,M,,*51
06/12/2015	08:09:53.584	$GPGGA,080954,2428.8085,N,08119.5795,W,1,9,1.5,13,M,,M,,*59
06/12/2015	08:09:54.480	$GPGGA,080955,2428.8083,N,08119.5802,W,1,9,1.5,13,M,,M,,*5F
06/12/2015	08:09:55.493	$GPGGA,080956,2428.8081,N,08119.5809,W,1,9,1.5,13,M,,M,,*55
06/12/2015	08:09:56.553	$GPGGA,080957,2428.8078,N,08119.5816,W,1,9,1.5,13,M,,M,,*5C
06/12/2015	08:09:57.893	$GPGGA,080958,2428.8075,N,08119.5822,W,1,9,1.5,14,M,,M,,*5E
06/12/2015	08:09:58.563	$GPGGA,080959,2428.8076,N,08119.5831,W,1,9,1.5,14,M,,M,,*5E
06/12/2015	08:09:59.643	$GPGGA,081000,2428.8074,N,08119.5838,W,1,9,1.5,14,M,,M,,*51
06/12/2015	08:10:00.633	$GPGGA,081001,2428.8071,N,08119.5843,W,1,9,1.5,14,M,,M,,*59
06/12/2015	08:10:01.585	$GPGGA,081002,2428.8069,N,08119.5850,W,1,9,1.5,14,M,,M,,*51
06/12/2015	08:10:02.623	$GPGGA,081003,2428.8066,N,08119.5856,W,1,9,1.5,14,M,,M,,*59
06/12/2015	08:10:04.653	$GPGGA,081005,2428.8062,N,08119.5871,W,1,9,1.5,14,M,,M,,*5E
06/12/2015	08:10:05.583	$GPGGA,081006,2428.8060,N,08119.5878,W,1,9,1.5,14,M,,M,,*56
06/12/2015	08:10:06.533	$GPGGA,081007,2428.8061,N,08119.5886,W,1,9,1.5,14,M,,M,,*57
06/12/2015	08:10:07.633	$GPGGA,081008,2428.8059,N,08119.5893,W,1,9,1.5,14,M,,M,,*57
06/12/2015	08:10:08.603	$GPGGA,081009,2428.8055,N,08119.5899,W,1,9,1.5,14,M,,M,,*50
06/12/2015	08:10:09.576	$GPGGA,081010,2428.8052,N,08119.5905,W,1,9,1.5,14,M,,M,,*5B
06/12/2015	08:10:10.533	$GPGGA,081011,2428.8053,N,08119.5914,W,1,9,1.5,14,M,,M,,*5B
06/12/2015	08:10:11.578	$GPGGA,081012,2428.8051,N,08119.5921,W,1,9,1.5,14,M,,M,,*5C
06/12/2015	08:10:12.603	$GPGGA,081013,2428.8046,N,08119.5928,W,1,9,1.5,14,M,,M,,*52
06/12/2015	08:10:13.563	$GPGGA,081014,2428.8044,N,08119.5934,W,1,9,1.5,14,M,,M,,*5A
06/12/2015	08:10:14.583	$GPGGA,081015,2428.8044,N,08119.5941,W,1,9,1.5,14,M,,M,,*59
06/12/2015	08:10:15.593	$GPGGA,081016,2428.8041,N,08119.5948,W,1,9,1.5,14,M,,M,,*56
06/12/2015	08:10:16.593	$GPGGA,081017,2428.8038,N,08119.5955,W,1,9,1.5,14,M,,M,,*55
06/12/2015	08:10:17.573	$GPGGA,081018,2428.8036,N,08119.5962,W,1,9,1.5,14,M,,M,,*50
06/12/2015	08:10:18.573	$GPGGA,081019,2428.8033,N,08119.5969,W,1,9,1.5,14,M,,M,,*5F
06/12/2015	08:10:19.613	$GPGGA,081020,2428.8031,N,08119.5976,W,1,9,1.5,14,M,,M,,*59
06/12/2015	08:10:20.563	$GPGGA,081021,2428.8030,N,08119.5984,W,1,9,1.5,14,M,,M,,*54
06/12/2015	08:10:21.563	$GPGGA,081022,2428.8027,N,08119.5991,W,1,9,1.5,14,M,,M,,*55
06/12/2015	08:10:22.576	$GPGGA,081023,2428.8026,N,08119.5998,W,1,9,1.4,14,M,,M,,*5D
06/12/2015	08:10:23.623	$GPGGA,081024,2428.8026,N,08119.6006,W,1,9,1.4,14,M,,M,,*57
06/12/2015	08:10:24.503	$GPGGA,081025,2428.8023,N,08119.6013,W,1,9,1.4,14,M,,M,,*57
06/12/2015	08:10:25.577	$GPGGA,081026,2428.8019,N,08119.6020,W,1,9,1.4,15,M,,M,,*5C
06/12/2015	08:10:26.503	$GPGGA,081027,2428.8018,N,08119.6029,W,1,9,1.4,15,M,,M,,*55
06/12/2015	08:10:27.563	$GPGGA,081028,2428.8017,N,08119.6037,W,1,9,1.4,15,M,,M,,*5A
06/12/2015	08:10:28.493	$GPGGA,081029,2428.8015,N,08119.6042,W,1,9,1.4,15,M,,M,,*5B
06/12/2015	08:10:29.486	$GPGGA,081030,2428.8011,N,08119.6049,W,1,9,1.4,15,M,,M,,*5C
06/12/2015	08:10:30.553	$GPGGA,081031,2428.8010,N,08119.6056,W,1,9,1.4,15,M,,M,,*52
06/12/2015	08:10:31.563	$GPGGA,081032,2428.8008,N,08119.6064,W,1,9,1.4,15,M,,M,,*59
06/12/2015	08:10:32.553	$GPGGA,081033,2428.8005,N,08119.6070,W,1,9,1.4,15,M,,M,,*50
06/12/2015	08:10:33.603	$GPGGA,081034,2428.8004,N,08119.6078,W,1,9,1.4,15,M,,M,,*5E
06/12/2015	08:10:34.553	$GPGGA,081035,2428.8001,N,08119.6085,W,1,9,1.4,15,M,,M,,*58
06/12/2015	08:10:35.633	$GPGGA,081036,2428.8000,N,08119.6092,W,1,9,1.4,15,M,,M,,*5C
06/12/2015	08:10:36.573	$GPGGA,081037,2428.7997,N,08119.6099,W,1,9,1.4,15,M,,M,,*5E
06/12/2015	08:10:37.573	$GPGGA,081038,2428.7994,N,08119.6105,W,1,9,1.4,15,M,,M,,*56
06/12/2015	08:10:38.543	$GPGGA,081039,2428.7993,N,08119.6113,W,1,9,1.4,15,M,,M,,*57
06/12/2015	08:10:39.585	$GPGGA,081040,2428.7990,N,08119.6120,W,1,9,1.4,16,M,,M,,*59
06/12/2015	08:10:40.575	$GPGGA,081041,2428.7987,N,08119.6127,W,1,9,1.4,16,M,,M,,*59
06/12/2015	08:10:41.563	$GPGGA,081042,2428.7986,N,08119.6134,W,1,9,1.4,16,M,,M,,*59
06/12/2015	08:10:42.583	$GPGGA,081043,2428.7983,N,08119.6141,W,1,9,1.4,16,M,,M,,*5F
06/12/2015	08:10:43.583	$GPGGA,081044,2428.7981,N,08119.6146,W,1,9,1.4,16,M,,M,,*5D
06/12/2015	08:10:44.553	$GPGGA,081045,2428.7979,N,08119.6152,W,1,9,1.4,16,M,,M,,*5E
06/12/2015	08:10:45.563	$GPGGA,081046,2428.7976,N,08119.6160,W,1,9,1.4,16,M,,M,,*53
06/12/2015	08:10:46.563	$GPGGA,081047,2428.7975,N,08119.6167,W,1,9,1.4,16,M,,M,,*56
06/12/2015	08:10:47.593	$GPGGA,081048,2428.7972,N,08119.6175,W,1,10,1.4,16,M,,M,,*65
06/12/2015	08:10:48.563	$GPGGA,081049,2428.7970,N,08119.6182,W,1,10,1.4,16,M,,M,,*6E
06/12/2015	08:10:49.563	$GPGGA,081050,2428.7968,N,08119.6189,W,1,10,1.4,16,M,,M,,*64
06/12/2015	08:10:50.563	$GPGGA,081051,2428.7965,N,08119.6196,W,1,10,1.4,16,M,,M,,*66
06/12/2015	08:10:51.587	$GPGGA,081052,2428.7963,N,08119.6203,W,1,10,1.4,16,M,,M,,*6C
06/12/2015	08:10:52.543	$GPGGA,081053,2428.7961,N,08119.6210,W,1,10,1.4,16,M,,M,,*6D
06/12/2015	08:10:53.563	$GPGGA,081054,2428.7958,N,08119.6217,W,1,10,1.4,16,M,,M,,*67
06/12/2015	08:10:54.563	$GPGGA,081055,2428.7957,N,08119.6223,W,1,10,1.4,16,M,,M,,*6E
06/12/2015	08:10:55.613	$GPGGA,081056,2428.7955,N,08119.6232,W,1,10,1.4,16,M,,M,,*6F
06/12/2015	08:10:56.553	$GPGGA,081057,2428.7952,N,08119.6239,W,1,10,1.4,16,M,,M,,*62
06/12/2015	08:10:57.553	$GPGGA,081058,2428.7950,N,08119.6244,W,1,10,1.4,16,M,,M,,*65
06/12/2015	08:10:58.543	$GPGGA,081059,2428.7950,N,08119.6244,W,1,10,1.4,16,M,,M,,*64
06/12/2015	08:10:59.573	$GPGGA,081100,2428.7947,N,08119.6258,W,1,10,1.4,16,M,,M,,*62
06/12/2015	08:11:00.584	$GPGGA,081101,2428.7943,N,08119.6265,W,1,10,1.4,16,M,,M,,*69
06/12/2015	08:11:01.523	$GPGGA,081102,2428.7943,N,08119.6275,W,1,10,1.4,16,M,,M,,*6B
06/12/2015	08:11:02.533	$GPGGA,081103,2428.7943,N,08119.6275,W,1,10,1.4,16,M,,M,,*6A
06/12/2015	08:11:03.574	$GPGGA,081104,2428.7939,N,08119.6287,W,1,10,1.4,16,M,,M,,*6D
06/12/2015	08:11:04.543	$GPGGA,081105,2428.7935,N,08119.6294,W,1,10,1.4,16,M,,M,,*62
06/12/2015	08:11:06.024	$GPGGA,081106,2428.7934,N,08119.6302,W,1,10,1.4,16,M,,M,,*6E
06/12/2015	08:11:06.575	$GPGGA,081107,2428.7933,N,08119.6311,W,1,10,1.4,16,M,,M,,*6A
06/12/2015	08:11:07.563	$GPGGA,081108,2428.7929,N,08119.6318,W,1,10,1.4,16,M,,M,,*67
06/12/2015	08:11:08.553	$GPGGA,081109,2428.7928,N,08119.6324,W,1,10,1.4,16,M,,M,,*68
06/12/2015	08:11:09.533	$GPGGA,081110,2428.7926,N,08119.6331,W,1,10,1.4,16,M,,M,,*6A
06/12/2015	08:11:10.563	$GPGGA,081111,2428.7926,N,08119.6331,W,1,10,1.4,16,M,,M,,*6B
06/12/2015	08:11:11.644	$GPGGA,081112,2428.7921,N,08119.6345,W,1,10,1.4,16,M,,M,,*6C
06/12/2015	08:11:12.563	$GPGGA,081113,2428.7921,N,08119.6352,W,1,10,1.4,15,M,,M,,*68
06/12/2015	08:11:13.613	$GPGGA,081114,2428.7918,N,08119.6360,W,1,10,1.4,15,M,,M,,*64
06/12/2015	08:11:14.513	$GPGGA,081115,2428.7918,N,08119.6360,W,1,10,1.4,15,M,,M,,*65
06/12/2015	08:11:15.563	$GPGGA,081116,2428.7914,N,08119.6374,W,1,10,1.4,15,M,,M,,*6F
06/12/2015	08:11:16.543	$GPGGA,081117,2428.7911,N,08119.6381,W,1,10,1.4,15,M,,M,,*61
06/12/2015	08:11:17.488	$GPGGA,081118,2428.7910,N,08119.6387,W,1,10,1.4,15,M,,M,,*69
06/12/2015	08:11:18.613	$GPGGA,081119,2428.7907,N,08119.6395,W,1,10,1.4,15,M,,M,,*6D
06/12/2015	08:11:19.533	$GPGGA,081120,2428.7905,N,08119.6402,W,1,10,1.4,15,M,,M,,*6C
06/12/2015	08:11:20.543	$GPGGA,081121,2428.7905,N,08119.6402,W,1,10,1.4,15,M,,M,,*6D
06/12/2015	08:11:21.503	$GPGGA,081122,2428.7901,N,08119.6417,W,1,10,1.4,15,M,,M,,*6E
06/12/2015	08:11:22.493	$GPGGA,081123,2428.7901,N,08119.6417,W,1,10,1.4,15,M,,M,,*6F
06/12/2015	08:11:23.633	$GPGGA,081124,2428.7896,N,08119.6430,W,1,10,1.4,15,M,,M,,*62
06/12/2015	08:11:24.533	$GPGGA,081125,2428.7896,N,08119.6430,W,1,10,1.4,15,M,,M,,*63
06/12/2015	08:11:25.573	$GPGGA,081126,2428.7893,N,08119.6445,W,1,10,1.4,15,M,,M,,*67
06/12/2015	08:11:26.575	$GPGGA,081127,2428.7892,N,08119.6452,W,1,10,1.4,15,M,,M,,*61
06/12/2015	08:11:27.493	$GPGGA,081128,2428.7888,N,08119.6459,W,1,10,1.4,15,M,,M,,*6E
06/12/2015	08:11:28.576	$GPGGA,081129,2428.7887,N,08119.6467,W,1,10,1.4,15,M,,M,,*6D
06/12/2015	08:11:29.563	$GPGGA,081130,2428.7885,N,08119.6474,W,1,10,1.4,15,M,,M,,*65
06/12/2015	08:11:30.578	$GPGGA,081131,2428.7882,N,08119.6479,W,1,10,1.4,15,M,,M,,*6E
06/12/2015	08:11:31.603	$GPGGA,081132,2428.7880,N,08119.6486,W,1,10,1.4,15,M,,M,,*6F
06/12/2015	08:11:32.563	$GPGGA,081133,2428.7879,N,08119.6495,W,1,10,1.4,15,M,,M,,*6A
06/12/2015	08:11:33.577	$GPGGA,081134,2428.7878,N,08119.6501,W,1,10,1.4,15,M,,M,,*60
06/12/2015	08:11:34.563	$GPGGA,081135,2428.7876,N,08119.6508,W,1,10,1.4,15,M,,M,,*66
06/12/2015	08:11:35.578	$GPGGA,081136,2428.7874,N,08119.6515,W,1,10,1.4,15,M,,M,,*6B
06/12/2015	08:11:36.563	$GPGGA,081137,2428.7874,N,08119.6524,W,1,10,1.4,15,M,,M,,*68
06/12/2015	08:11:37.563	$GPGGA,081138,2428.7872,N,08119.6532,W,1,10,1.4,15,M,,M,,*66
06/12/2015	08:11:38.563	$GPGGA,081139,2428.7870,N,08119.6537,W,1,10,1.4,15,M,,M,,*60
06/12/2015	08:11:39.586	$GPGGA,081140,2428.7867,N,08119.6543,W,1,9,1.6,15,M,,M,,*51
06/12/2015	08:11:40.553	$GPGGA,081141,2428.7867,N,08119.6543,W,1,9,1.4,14,M,,M,,*53
06/12/2015	08:11:41.563	$GPGGA,081142,2428.7867,N,08119.6557,W,1,10,1.4,14,M,,M,,*6D
06/12/2015	08:11:42.553	$GPGGA,081143,2428.7863,N,08119.6564,W,1,10,1.4,14,M,,M,,*68
06/12/2015	08:11:43.584	$GPGGA,081144,2428.7859,N,08119.6568,W,1,10,1.4,14,M,,M,,*6A
06/12/2015	08:11:44.533	$GPGGA,081145,2428.7859,N,08119.6576,W,1,10,1.4,14,M,,M,,*64
06/12/2015	08:11:45.553	$GPGGA,081146,2428.7857,N,08119.6582,W,1,10,1.4,14,M,,M,,*62
06/12/2015	08:11:46.543	$GPGGA,081147,2428.7853,N,08119.6587,W,1,10,1.4,14,M,,M,,*62
06/12/2015	08:11:47.576	$GPGGA,081148,2428.7850,N,08119.6593,W,1,10,1.4,14,M,,M,,*6B
06/12/2015	08:11:48.533	$GPGGA,081149,2428.7851,N,08119.6600,W,1,10,1.4,15,M,,M,,*63
