Software Version Number: 1	Data File Format Number: 1	Build Version Number: 1	Error Count Since VI Started: 1	Manufacturer: Raytheon	 Model Number: RayMarine 120	 S/N: 	 Cal Date: 	 Wind Direction Offset: 0.00	 Slope (M)1: 0.00	 Offset (B)1: 0.00	 Slope (M)2: 0.00	 Offset (B)2: 0.00	 Slope (M)3: 0.00	 Offset (B)3: 0.00	 Slope (M)4: 0.00	 Offset (B)4: 0.00	 Slope (M)5: 0.00	 Offset (B)5: 0.00	 Slope (M)6: 0.00	 Offset (B)6: 0.00
Computer Date	Computer Time	GGA String
06/16/2015	17:00:00.582	$GPGGA,170001,2421.6967,N,08101.0469,W,1,9,1.7,22,M,,M,,*50
06/16/2015	17:00:01.593	$GPGGA,170002,2421.6978,N,08101.0457,W,1,9,1.7,22,M,,M,,*50
06/16/2015	17:00:02.573	$GPGGA,170003,2421.6989,N,08101.0448,W,1,9,1.7,22,M,,M,,*51
06/16/2015	17:00:03.623	$GPGGA,170004,2421.7003,N,08101.0440,W,1,9,1.7,22,M,,M,,*54
06/16/2015	17:00:04.573	$GPGGA,170005,2421.7014,N,08101.0429,W,1,9,1.7,22,M,,M,,*5C
06/16/2015	17:00:05.583	$GPGGA,170006,2421.7025,N,08101.0418,W,1,9,1.7,22,M,,M,,*5F
06/16/2015	17:00:06.573	$GPGGA,170007,2421.7038,N,08101.0410,W,1,9,1.7,22,M,,M,,*5A
06/16/2015	17:00:07.594	$GPGGA,170008,2421.7050,N,08101.0401,W,1,9,1.7,22,M,,M,,*5B
06/16/2015	17:00:08.563	$GPGGA,170009,2421.7061,N,08101.0390,W,1,9,1.7,22,M,,M,,*57
06/16/2015	17:00:09.584	$GPGGA,170010,2421.7074,N,08101.0380,W,1,9,1.7,22,M,,M,,*5A
06/16/2015	17:00:10.563	$GPGGA,170011,2421.7086,N,08101.0372,W,1,9,1.7,22,M,,M,,*5B
06/16/2015	17:00:11.586	$GPGGA,170012,2421.7097,N,08101.0362,W,1,9,2.3,22,M,,M,,*5E
06/16/2015	17:00:12.553	$GPGGA,170013,2421.7108,N,08101.0351,W,1,9,1.7,22,M,,M,,*5F
06/16/2015	17:00:13.573	$GPGGA,170014,2421.7119,N,08101.0341,W,1,9,1.7,22,M,,M,,*59
06/16/2015	17:00:14.552	$GPGGA,170015,2421.7132,N,08101.0331,W,1,9,1.7,22,M,,M,,*56
06/16/2015	17:00:15.583	$GPGGA,170016,2421.7144,N,08101.0322,W,1,9,2.3,22,M,,M,,*51
06/16/2015	17:00:16.552	$GPGGA,170017,2421.7154,N,08101.0309,W,1,9,1.7,22,M,,M,,*5F
06/16/2015	17:00:17.562	$GPGGA,170018,2421.7164,N,08101.0299,W,1,9,1.7,22,M,,M,,*5B
06/16/2015	17:00:18.552	$GPGGA,170019,2421.7176,N,08101.0289,W,1,9,1.7,22,M,,M,,*58
06/16/2015	17:00:19.589	$GPGGA,170020,2421.7188,N,08101.0280,W,1,9,1.7,22,M,,M,,*5A
06/16/2015	17:00:20.543	$GPGGA,170021,2421.7198,N,08101.0269,W,1,9,1.7,22,M,,M,,*5D
06/16/2015	17:00:21.573	$GPGGA,170022,2421.7209,N,08101.0259,W,1,9,1.7,22,M,,M,,*56
06/16/2015	17:00:22.533	$GPGGA,170023,2421.7222,N,08101.0251,W,1,9,1.7,22,M,,M,,*56
06/16/2015	17:00:23.574	$GPGGA,170024,2421.7233,N,08101.0240,W,1,9,1.7,22,M,,M,,*51
06/16/2015	17:00:24.813	$GPGGA,170025,2421.7244,N,08101.0229,W,1,9,1.7,22,M,,M,,*5F
06/16/2015	17:00:25.563	$GPGGA,170026,2421.7256,N,08101.0220,W,1,9,1.7,22,M,,M,,*56
06/16/2015	17:00:26.523	$GPGGA,170027,2421.7267,N,08101.0211,W,1,9,1.7,22,M,,M,,*57
06/16/2015	17:00:27.553	$GPGGA,170028,2421.7280,N,08101.0201,W,1,9,1.7,22,M,,M,,*50
06/16/2015	17:00:28.523	$GPGGA,170029,2421.7291,N,08101.0191,W,1,9,1.7,22,M,,M,,*5B
06/16/2015	17:00:29.513	$GPGGA,170030,2421.7303,N,08101.0181,W,1,9,1.7,22,M,,M,,*58
06/16/2015	17:00:30.503	$GPGGA,170031,2421.7314,N,08101.0172,W,1,9,1.7,22,M,,M,,*53
06/16/2015	17:00:32.952	$GPGGA,170032,2421.7325,N,08101.0163,W,1,9,1.7,22,M,,M,,*52
06/16/2015	17:00:32.986	$GPGGA,170033,2421.7336,N,08101.0152,W,1,9,1.7,22,M,,M,,*53
06/16/2015	17:00:33.612	$GPGGA,170034,2421.7349,N,08101.0142,W,1,9,1.7,22,M,,M,,*5D
06/16/2015	17:00:34.512	$GPGGA,170035,2421.7360,N,08101.0135,W,1,9,1.7,22,M,,M,,*57
06/16/2015	17:00:35.562	$GPGGA,170036,2421.7372,N,08101.0126,W,1,9,1.7,22,M,,M,,*55
06/16/2015	17:00:36.613	$GPGGA,170037,2421.7383,N,08101.0114,W,1,9,1.7,22,M,,M,,*5B
06/16/2015	17:00:37.633	$GPGGA,170038,2421.7394,N,08101.0105,W,1,9,1.7,22,M,,M,,*52
06/16/2015	17:00:38.523	$GPGGA,170039,2421.7408,N,08101.0098,W,1,9,1.7,22,M,,M,,*54
06/16/2015	17:00:39.553	$GPGGA,170040,2421.7419,N,08101.0088,W,1,9,1.7,22,M,,M,,*5B
06/16/2015	17:00:40.513	$GPGGA,170041,2421.7430,N,08101.0076,W,1,9,1.7,22,M,,M,,*50
06/16/2015	17:00:41.603	$GPGGA,170042,2421.7441,N,08101.0068,W,1,9,1.7,22,M,,M,,*5A
06/16/2015	17:00:42.600	$GPGGA,170043,2421.7455,N,08101.0061,W,1,9,1.7,22,M,,M,,*57
06/16/2015	17:00:43.603	$GPGGA,170044,2421.7466,N,08101.0048,W,1,8,1.7,22,M,,M,,*5A
06/16/2015	17:00:44.596	$GPGGA,170045,2421.7477,N,08101.0038,W,1,8,1.7,22,M,,M,,*5C
06/16/2015	17:00:45.598	$GPGGA,170046,2421.7488,N,08101.0029,W,1,9,1.7,22,M,,M,,*5E
06/16/2015	17:00:46.583	$GPGGA,170047,2421.7501,N,08101.0021,W,1,9,1.7,22,M,,M,,*57
06/16/2015	17:00:47.623	$GPGGA,170048,2421.7513,N,08101.0012,W,1,9,1.7,22,M,,M,,*5B
06/16/2015	17:00:48.587	$GPGGA,170049,2421.7523,N,08100.9999,W,1,9,2.3,22,M,,M,,*5C
06/16/2015	17:00:49.584	$GPGGA,170050,2421.7534,N,08100.9989,W,1,9,1.7,22,M,,M,,*54
06/16/2015	17:00:50.572	$GPGGA,170051,2421.7545,N,08100.9980,W,1,9,1.7,22,M,,M,,*5A
06/16/2015	17:00:51.583	$GPGGA,170052,2421.7556,N,08100.9970,W,1,9,1.7,22,M,,M,,*54
06/16/2015	17:00:52.572	$GPGGA,170053,2421.7569,N,08100.9960,W,1,9,1.7,22,M,,M,,*58
06/16/2015	17:00:53.583	$GPGGA,170054,2421.7581,N,08100.9952,W,1,9,1.7,22,M,,M,,*58
06/16/2015	17:00:54.553	$GPGGA,170055,2421.7594,N,08100.9944,W,1,9,1.7,22,M,,M,,*5A
06/16/2015	17:00:55.604	$GPGGA,170056,2421.7606,N,08100.9935,W,1,9,1.7,22,M,,M,,*57
06/16/2015	17:00:56.563	$GPGGA,170057,2421.7618,N,08100.9927,W,1,9,1.7,22,M,,M,,*5A
06/16/2015	17:00:57.573	$GPGGA,170058,2421.7631,N,08100.9919,W,1,8,2.3,22,M,,M,,*55
06/16/2015	17:00:58.553	$GPGGA,170059,2421.7643,N,08100.9910,W,1,8,2.3,22,M,,M,,*58
06/16/2015	17:00:59.602	$GPGGA,170100,2421.7654,N,08100.9901,W,1,9,1.7,22,M,,M,,*55
06/16/2015	17:01:00.553	$GPGGA,170101,2421.7668,N,08100.9893,W,1,9,1.7,22,M,,M,,*51
06/16/2015	17:01:01.573	$GPGGA,170102,2421.7679,N,08100.9884,W,1,9,1.7,22,M,,M,,*54
06/16/2015	17:01:02.553	$GPGGA,170103,2421.7692,N,08100.9875,W,1,9,1.7,22,M,,M,,*5E
06/16/2015	17:01:03.573	$GPGGA,170104,2421.7703,N,08100.9867,W,1,9,1.7,22,M,,M,,*53
06/16/2015	17:01:05.523	$GPGGA,170105,2421.7714,N,08100.9857,W,1,9,1.7,22,M,,M,,*57
06/16/2015	17:01:05.553	$GPGGA,170106,2421.7725,N,08100.9847,W,1,9,1.7,22,M,,M,,*57
06/16/2015	17:01:06.522	$GPGGA,170107,2421.7736,N,08100.9838,W,1,9,1.7,22,M,,M,,*5C
06/16/2015	17:01:07.522	$GPGGA,170108,2421.7747,N,08100.9830,W,1,9,1.7,22,M,,M,,*5D
06/16/2015	17:01:08.532	$GPGGA,170109,2421.7758,N,08100.9820,W,1,9,2.3,22,M,,M,,*54
06/16/2015	17:01:09.512	$GPGGA,170110,2421.7769,N,08100.9810,W,1,9,1.7,22,M,,M,,*5A
06/16/2015	17:01:10.512	$GPGGA,170111,2421.7780,N,08100.9799,W,1,9,1.7,22,M,,M,,*52
06/16/2015	17:01:11.632	$GPGGA,170112,2421.7791,N,08100.9789,W,1,9,1.7,22,M,,M,,*50
06/16/2015	17:01:12.512	$GPGGA,170113,2421.7802,N,08100.9779,W,1,9,1.7,22,M,,M,,*5B
06/16/2015	17:01:13.522	$GPGGA,170114,2421.7813,N,08100.9768,W,1,9,1.7,22,M,,M,,*5C
06/16/2015	17:01:14.502	$GPGGA,170115,2421.7823,N,08100.9758,W,1,9,1.7,22,M,,M,,*5D
06/16/2015	17:01:15.532	$GPGGA,170116,2421.7834,N,08100.9749,W,1,9,1.7,22,M,,M,,*58
06/16/2015	17:01:16.502	$GPGGA,170117,2421.7845,N,08100.9739,W,1,9,1.7,22,M,,M,,*58
06/16/2015	17:01:17.522	$GPGGA,170118,2421.7856,N,08100.9728,W,1,9,1.7,22,M,,M,,*55
06/16/2015	17:01:18.512	$GPGGA,170119,2421.7867,N,08100.9718,W,1,9,1.7,22,M,,M,,*55
06/16/2015	17:01:19.512	$GPGGA,170120,2421.7878,N,08100.9709,W,1,9,1.7,22,M,,M,,*51
06/16/2015	17:01:20.592	$GPGGA,170121,2421.7891,N,08100.9698,W,1,9,1.7,22,M,,M,,*5E
06/16/2015	17:01:21.512	$GPGGA,170122,2421.7902,N,08100.9687,W,1,9,1.7,22,M,,M,,*58
06/16/2015	17:01:22.503	$GPGGA,170123,2421.7913,N,08100.9678,W,1,9,1.7,23,M,,M,,*58
06/16/2015	17:01:23.503	$GPGGA,170124,2421.7924,N,08100.9669,W,1,9,1.7,23,M,,M,,*5B
06/16/2015	17:01:24.502	$GPGGA,170125,2421.7935,N,08100.9658,W,1,9,1.7,23,M,,M,,*58
06/16/2015	17:01:25.575	$GPGGA,170126,2421.7948,N,08100.9648,W,1,9,1.7,23,M,,M,,*50
06/16/2015	17:01:26.574	$GPGGA,170127,2421.7960,N,08100.9639,W,1,9,1.7,23,M,,M,,*5D
06/16/2015	17:01:27.492	$GPGGA,170128,2421.7971,N,08100.9630,W,1,9,1.7,23,M,,M,,*5B
06/16/2015	17:01:28.492	$GPGGA,170129,2421.7984,N,08100.9620,W,1,9,1.8,23,M,,M,,*5E
06/16/2015	17:01:29.572	$GPGGA,170130,2421.7996,N,08100.9611,W,1,9,1.8,23,M,,M,,*57
06/16/2015	17:01:30.584	$GPGGA,170131,2421.8008,N,08100.9602,W,1,9,1.8,23,M,,M,,*55
06/16/2015	17:01:31.572	$GPGGA,170132,2421.8021,N,08100.9593,W,1,9,1.8,23,M,,M,,*56
06/16/2015	17:01:32.592	$GPGGA,170133,2421.8032,N,08100.9583,W,1,9,1.8,23,M,,M,,*54
06/16/2015	17:01:33.562	$GPGGA,170134,2421.8044,N,08100.9574,W,1,9,1.8,23,M,,M,,*5A
06/16/2015	17:01:34.562	$GPGGA,170135,2421.8057,N,08100.9565,W,1,9,1.8,23,M,,M,,*59
06/16/2015	17:01:35.602	$GPGGA,170136,2421.8069,N,08100.9557,W,1,9,1.8,23,M,,M,,*56
06/16/2015	17:01:36.572	$GPGGA,170137,2421.8082,N,08100.9549,W,1,9,1.4,23,M,,M,,*51
06/16/2015	17:01:37.602	$GPGGA,170138,2421.8094,N,08100.9542,W,1,10,1.4,23,M,,M,,*6A
06/16/2015	17:01:38.552	$GPGGA,170139,2421.8108,N,08100.9534,W,1,10,1.4,23,M,,M,,*6E
06/16/2015	17:01:39.583	$GPGGA,170140,2421.8120,N,08100.9525,W,1,10,1.4,23,M,,M,,*6A
06/16/2015	17:01:40.563	$GPGGA,170141,2421.8133,N,08100.9516,W,1,10,1.4,23,M,,M,,*69
06/16/2015	17:01:41.574	$GPGGA,170142,2421.8145,N,08100.9508,W,1,10,1.4,23,M,,M,,*64
06/16/2015	17:01:42.562	$GPGGA,170143,2421.8156,N,08100.9499,W,1,10,1.4,23,M,,M,,*6E
06/16/2015	17:01:43.572	$GPGGA,170144,2421.8169,N,08100.9489,W,1,10,1.4,23,M,,M,,*64
06/16/2015	17:01:44.542	$GPGGA,170145,2421.8181,N,08100.9481,W,1,10,1.4,23,M,,M,,*6B
06/16/2015	17:01:45.542	$GPGGA,170146,2421.8192,N,08100.9472,W,1,9,1.4,22,M,,M,,*5F
06/16/2015	17:01:46.542	$GPGGA,170147,2421.8205,N,08100.9461,W,1,9,1.4,22,M,,M,,*51
06/16/2015	17:01:47.572	$GPGGA,170148,2421.8216,N,08100.9449,W,1,10,1.4,22,M,,M,,*6E
06/16/2015	17:01:48.532	$GPGGA,170149,2421.8227,N,08100.9441,W,1,10,1.8,22,M,,M,,*69
06/16/2015	17:01:49.542	$GPGGA,170150,2421.8239,N,08100.9434,W,1,10,1.4,22,M,,M,,*60
06/16/2015	17:01:50.532	$GPGGA,170151,2421.8253,N,08100.9424,W,1,10,1.4,22,M,,M,,*6C
06/16/2015	17:01:51.562	$GPGGA,170152,2421.8263,N,08100.9414,W,1,10,1.4,22,M,,M,,*6F
06/16/2015	17:01:52.542	$GPGGA,170153,2421.8275,N,08100.9404,W,1,10,1.4,22,M,,M,,*68
06/16/2015	17:01:53.532	$GPGGA,170154,2421.8288,N,08100.9396,W,1,10,1.4,22,M,,M,,*61
06/16/2015	17:01:54.532	$GPGGA,170155,2421.8297,N,08100.9386,W,1,10,1.4,22,M,,M,,*6F
06/16/2015	17:01:55.578	$GPGGA,170156,2421.8310,N,08100.9376,W,1,10,1.4,22,M,,M,,*6D
06/16/2015	17:01:56.512	$GPGGA,170157,2421.8322,N,08100.9365,W,1,10,1.4,22,M,,M,,*6F
06/16/2015	17:01:57.523	$GPGGA,170158,2421.8332,N,08100.9355,W,1,10,1.4,22,M,,M,,*62
06/16/2015	17:01:58.503	$GPGGA,170159,2421.8343,N,08100.9346,W,1,10,1.4,22,M,,M,,*67
06/16/2015	17:01:59.552	$GPGGA,170200,2421.8355,N,08100.9337,W,1,10,1.4,22,M,,M,,*69
06/16/2015	17:02:00.522	$GPGGA,170201,2421.8368,N,08100.9327,W,1,10,1.4,22,M,,M,,*67
06/16/2015	17:02:01.522	$GPGGA,170202,2421.8379,N,08100.9318,W,1,9,1.4,22,M,,M,,*50
06/16/2015	17:02:02.512	$GPGGA,170203,2421.8390,N,08100.9308,W,1,9,1.4,22,M,,M,,*57
06/16/2015	17:02:03.522	$GPGGA,170204,2421.8401,N,08100.9298,W,1,10,1.4,22,M,,M,,*6F
06/16/2015	17:02:04.492	$GPGGA,170205,2421.8412,N,08100.9289,W,1,10,1.4,21,M,,M,,*6F
06/16/2015	17:02:05.502	$GPGGA,170206,2421.8423,N,08100.9278,W,1,10,1.4,21,M,,M,,*60
06/16/2015	17:02:06.512	$GPGGA,170207,2421.8436,N,08100.9270,W,1,10,1.4,21,M,,M,,*6D
06/16/2015	17:02:07.612	$GPGGA,170208,2421.8447,N,08100.9262,W,1,9,1.4,21,M,,M,,*5F
06/16/2015	17:02:08.502	$GPGGA,170209,2421.8458,N,08100.9251,W,1,9,1.4,21,M,,M,,*50
06/16/2015	17:02:09.622	$GPGGA,170210,2421.8469,N,08100.9241,W,1,10,1.4,21,M,,M,,*63
06/16/2015	17:02:10.588	$GPGGA,170211,2421.8480,N,08100.9233,W,1,10,1.4,21,M,,M,,*60
06/16/2015	17:02:11.642	$GPGGA,170212,2421.8491,N,08100.9224,W,1,10,1.4,21,M,,M,,*65
06/16/2015	17:02:12.591	$GPGGA,170213,2421.8502,N,08100.9213,W,1,10,1.4,21,M,,M,,*6B
06/16/2015	17:02:13.612	$GPGGA,170214,2421.8513,N,08100.9203,W,1,10,1.4,21,M,,M,,*6D
06/16/2015	17:02:14.578	$GPGGA,170215,2421.8524,N,08100.9195,W,1,10,1.4,21,M,,M,,*64
06/16/2015	17:02:15.623	$GPGGA,170216,2421.8535,N,08100.9185,W,1,10,1.4,21,M,,M,,*66
06/16/2015	17:02:16.581	$GPGGA,170217,2421.8546,N,08100.9175,W,1,10,1.4,21,M,,M,,*6C
06/16/2015	17:02:17.578	$GPGGA,170218,2421.8557,N,08100.9166,W,1,10,1.4,21,M,,M,,*61
06/16/2015	17:02:18.562	$GPGGA,170219,2421.8568,N,08100.9157,W,1,10,1.4,21,M,,M,,*6E
06/16/2015	17:02:19.582	$GPGGA,170220,2421.8579,N,08100.9148,W,1,10,1.4,21,M,,M,,*6A
06/16/2015	17:02:20.574	$GPGGA,170221,2421.8591,N,08100.9138,W,1,10,1.4,21,M,,M,,*6A
06/16/2015	17:02:21.574	$GPGGA,170222,2421.8603,N,08100.9129,W,1,10,1.4,21,M,,M,,*61
06/16/2015	17:02:22.563	$GPGGA,170223,2421.8615,N,08100.9121,W,1,10,1.4,21,M,,M,,*6F
06/16/2015	17:02:23.602	$GPGGA,170224,2421.8625,N,08100.9110,W,1,9,1.4,21,M,,M,,*51
06/16/2015	17:02:24.562	$GPGGA,170225,2421.8638,N,08100.9102,W,1,9,1.4,21,M,,M,,*5F
06/16/2015	17:02:25.572	$GPGGA,170226,2421.8649,N,08100.9094,W,1,10,1.4,21,M,,M,,*6C
06/16/2015	17:02:26.562	$GPGGA,170227,2421.8661,N,08100.9085,W,1,10,1.4,21,M,,M,,*67
06/16/2015	17:02:27.585	$GPGGA,170228,2421.8672,N,08100.9075,W,1,10,1.4,21,M,,M,,*65
06/16/2015	17:02:28.552	$GPGGA,170229,2421.8683,N,08100.9066,W,1,10,1.4,21,M,,M,,*68
06/16/2015	17:02:29.562	$GPGGA,170230,2421.8696,N,08100.9057,W,1,10,1.4,21,M,,M,,*66
06/16/2015	17:02:30.552	$GPGGA,170231,2421.8708,N,08100.9048,W,1,10,1.4,21,M,,M,,*6F
06/16/2015	17:02:31.573	$GPGGA,170232,2421.8719,N,08100.9039,W,1,9,1.4,20,M,,M,,*53
06/16/2015	17:02:32.543	$GPGGA,170233,2421.8730,N,08100.9030,W,1,9,1.4,20,M,,M,,*50
06/16/2015	17:02:33.563	$GPGGA,170234,2421.8741,N,08100.9019,W,1,10,1.4,20,M,,M,,*62
06/16/2015	17:02:34.542	$GPGGA,170235,2421.8752,N,08100.9009,W,1,10,1.4,20,M,,M,,*60
06/16/2015	17:02:35.562	$GPGGA,170236,2421.8763,N,08100.9001,W,1,10,1.4,20,M,,M,,*69
06/16/2015	17:02:36.532	$GPGGA,170237,2421.8777,N,08100.8992,W,1,10,1.4,20,M,,M,,*6F
06/16/2015	17:02:37.562	$GPGGA,170238,2421.8786,N,08100.8980,W,1,9,1.4,20,M,,M,,*55
06/16/2015	17:02:38.522	$GPGGA,170239,2421.8797,N,08100.8969,W,1,9,1.4,20,M,,M,,*53
06/16/2015	17:02:39.542	$GPGGA,170240,2421.8809,N,08100.8961,W,1,10,1.4,20,M,,M,,*65
06/16/2015	17:02:40.522	$GPGGA,170241,2421.8820,N,08100.8952,W,1,10,1.4,20,M,,M,,*6F
06/16/2015	17:02:41.532	$GPGGA,170242,2421.8831,N,08100.8941,W,1,9,1.4,20,M,,M,,*56
06/16/2015	17:02:42.522	$GPGGA,170243,2421.8842,N,08100.8931,W,1,9,1.4,20,M,,M,,*54
06/16/2015	17:02:43.562	$GPGGA,170244,2421.8853,N,08100.8922,W,1,10,1.4,20,M,,M,,*69
06/16/2015	17:02:44.522	$GPGGA,170245,2421.8866,N,08100.8913,W,1,10,1.4,20,M,,M,,*6C
06/16/2015	17:02:45.522	$GPGGA,170246,2421.8877,N,08100.8904,W,1,9,1.4,20,M,,M,,*51
06/16/2015	17:02:46.502	$GPGGA,170247,2421.8888,N,08100.8894,W,1,9,1.4,20,M,,M,,*58
06/16/2015	17:02:47.522	$GPGGA,170248,2421.8900,N,08100.8884,W,1,10,1.4,20,M,,M,,*6F
06/16/2015	17:02:48.522	$GPGGA,170249,2421.8911,N,08100.8873,W,1,10,1.4,20,M,,M,,*66
06/16/2015	17:02:49.683	$GPGGA,170250,2421.8922,N,08100.8865,W,1,10,1.4,20,M,,M,,*69
06/16/2015	17:02:50.503	$GPGGA,170251,2421.8935,N,08100.8857,W,1,10,1.4,20,M,,M,,*6F
06/16/2015	17:02:51.702	$GPGGA,170252,2421.8946,N,08100.8846,W,1,10,1.4,20,M,,M,,*68
06/16/2015	17:02:52.522	$GPGGA,170253,2421.8957,N,08100.8836,W,1,10,1.4,20,M,,M,,*6E
06/16/2015	17:02:53.683	$GPGGA,170254,2421.8971,N,08100.8829,W,1,10,1.4,20,M,,M,,*63
06/16/2015	17:02:54.592	$GPGGA,170255,2421.8983,N,08100.8821,W,1,10,1.4,20,M,,M,,*67
06/16/2015	17:02:55.512	$GPGGA,170256,2421.8994,N,08100.8810,W,1,10,1.4,20,M,,M,,*60
06/16/2015	17:02:56.612	$GPGGA,170257,2421.9005,N,08100.8801,W,1,10,1.4,19,M,,M,,*6B
06/16/2015	17:02:57.684	$GPGGA,170258,2421.9018,N,08100.8792,W,1,10,1.4,19,M,,M,,*6D
06/16/2015	17:02:58.632	$GPGGA,170259,2421.9029,N,08100.8783,W,1,10,1.4,19,M,,M,,*6E
06/16/2015	17:02:59.552	$GPGGA,170300,2421.9041,N,08100.8775,W,1,10,1.4,19,M,,M,,*64
06/16/2015	17:03:00.576	$GPGGA,170301,2421.9055,N,08100.8766,W,1,10,1.4,19,M,,M,,*62
06/16/2015	17:03:01.672	$GPGGA,170302,2421.9066,N,08100.8756,W,1,10,1.4,19,M,,M,,*62
06/16/2015	17:03:02.574	$GPGGA,170303,2421.9077,N,08100.8747,W,1,10,1.4,19,M,,M,,*63
06/16/2015	17:03:03.685	$GPGGA,170304,2421.9091,N,08100.8739,W,1,10,1.4,19,M,,M,,*65
06/16/2015	17:03:04.612	$GPGGA,170305,2421.9102,N,08100.8728,W,1,10,1.4,19,M,,M,,*6F
06/16/2015	17:03:05.672	$GPGGA,170306,2421.9113,N,08100.8719,W,1,9,1.4,19,M,,M,,*56
06/16/2015	17:03:06.563	$GPGGA,170307,2421.9124,N,08100.8710,W,1,9,1.4,19,M,,M,,*5A
06/16/2015	17:03:07.693	$GPGGA,170308,2421.9138,N,08100.8701,W,1,10,1.4,19,M,,M,,*60
06/16/2015	17:03:08.563	$GPGGA,170309,2421.9149,N,08100.8691,W,1,10,1.4,19,M,,M,,*6F
06/16/2015	17:03:09.662	$GPGGA,170310,2421.9160,N,08100.8681,W,1,9,1.4,19,M,,M,,*55
06/16/2015	17:03:10.585	$GPGGA,170311,2421.9171,N,08100.8671,W,1,9,1.4,19,M,,M,,*5B
06/16/2015	17:03:11.679	$GPGGA,170312,2421.9184,N,08100.8662,W,1,10,1.4,19,M,,M,,*68
06/16/2015	17:03:12.582	$GPGGA,170313,2421.9195,N,08100.8653,W,1,10,1.4,19,M,,M,,*6B
06/16/2015	17:03:13.662	$GPGGA,170314,2421.9204,N,08100.8641,W,1,9,1.4,19,M,,M,,*5C
06/16/2015	17:03:14.586	$GPGGA,170315,2421.9216,N,08100.8631,W,1,9,1.4,19,M,,M,,*59
06/16/2015	17:03:15.662	$GPGGA,170316,2421.9228,N,08100.8622,W,1,10,1.4,19,M,,M,,*6D
06/16/2015	17:03:16.573	$GPGGA,170317,2421.9239,N,08100.8612,W,1,10,1.4,19,M,,M,,*6F
06/16/2015	17:03:17.652	$GPGGA,170318,2421.9249,N,08100.8601,W,1,9,1.4,19,M,,M,,*5D
06/16/2015	17:03:18.532	$GPGGA,170319,2421.9261,N,08100.8592,W,1,9,1.4,19,M,,M,,*5F
06/16/2015	17:03:19.642	$GPGGA,170320,2421.9272,N,08100.8582,W,1,10,1.4,19,M,,M,,*6E
06/16/2015	17:03:21.690	$GPGGA,170322,2421.9294,N,08100.8562,W,1,10,1.4,19,M,,M,,*6A
06/16/2015	17:03:22.562	$GPGGA,170323,2421.9305,N,08100.8552,W,1,10,1.4,18,M,,M,,*60
06/16/2015	17:03:23.612	$GPGGA,170324,2421.9315,N,08100.8540,W,1,10,1.4,18,M,,M,,*65
06/16/2015	17:03:24.563	$GPGGA,170325,2421.9325,N,08100.8529,W,1,10,1.4,18,M,,M,,*68
06/16/2015	17:03:25.593	$GPGGA,170326,2421.9336,N,08100.8518,W,1,10,1.4,18,M,,M,,*6B
06/16/2015	17:03:26.576	$GPGGA,170327,2421.9348,N,08100.8510,W,1,10,1.4,18,M,,M,,*6B
06/16/2015	17:03:27.652	$GPGGA,170328,2421.9359,N,08100.8499,W,1,10,1.4,18,M,,M,,*64
06/16/2015	17:03:28.512	$GPGGA,170329,2421.9370,N,08100.8489,W,1,10,1.4,18,M,,M,,*6F
06/16/2015	17:03:29.512	$GPGGA,170330,2421.9380,N,08100.8478,W,1,10,1.4,18,M,,M,,*66
06/16/2015	17:03:30.552	$GPGGA,170331,2421.9391,N,08100.8468,W,1,10,1.4,18,M,,M,,*66
06/16/2015	17:03:31.602	$GPGGA,170332,2421.9404,N,08100.8459,W,1,10,1.4,18,M,,M,,*6C
06/16/2015	17:03:32.542	$GPGGA,170333,2421.9413,N,08100.8448,W,1,10,1.6,18,M,,M,,*69
06/16/2015	17:03:33.602	$GPGGA,170334,2421.9424,N,08100.8437,W,1,9,1.4,18,M,,M,,*58
06/16/2015	17:03:34.522	$GPGGA,170335,2421.9437,N,08100.8428,W,1,9,1.4,18,M,,M,,*55
06/16/2015	17:03:35.612	$GPGGA,170336,2421.9448,N,08100.8420,W,1,10,1.6,18,M,,M,,*6C
06/16/2015	17:03:36.522	$GPGGA,170337,2421.9460,N,08100.8410,W,1,10,1.4,18,M,,M,,*66
06/16/2015	17:03:37.584	$GPGGA,170338,2421.9471,N,08100.8400,W,1,9,1.4,18,M,,M,,*50
06/16/2015	17:03:38.542	$GPGGA,170339,2421.9482,N,08100.8391,W,1,9,1.4,18,M,,M,,*52
06/16/2015	17:03:39.602	$GPGGA,170340,2421.9493,N,08100.8380,W,1,10,1.4,18,M,,M,,*64
06/16/2015	17:03:40.542	$GPGGA,170341,2421.9505,N,08100.8370,W,1,10,1.4,18,M,,M,,*64
06/16/2015	17:03:41.588	$GPGGA,170342,2421.9517,N,08100.8362,W,1,10,1.4,18,M,,M,,*67
06/16/2015	17:03:42.613	$GPGGA,170343,2421.9529,N,08100.8353,W,1,10,1.4,18,M,,M,,*69
06/16/2015	17:03:43.592	$GPGGA,170344,2421.9539,N,08100.8341,W,1,9,1.4,18,M,,M,,*54
06/16/2015	17:03:44.592	$GPGGA,170345,2421.9549,N,08100.8331,W,1,9,1.4,18,M,,M,,*55
06/16/2015	17:03:45.586	$GPGGA,170346,2421.9560,N,08100.8320,W,1,10,1.4,18,M,,M,,*65
06/16/2015	17:03:46.522	$GPGGA,170347,2421.9572,N,08100.8312,W,1,10,1.4,18,M,,M,,*66
06/16/2015	17:03:47.642	$GPGGA,170348,2421.9583,N,08100.8301,W,1,9,1.4,18,M,,M,,*5D
06/16/2015	17:03:48.576	$GPGGA,170349,2421.9594,N,08100.8290,W,1,9,1.4,18,M,,M,,*53
06/16/2015	17:03:49.572	$GPGGA,170350,2421.9604,N,08100.8282,W,1,10,1.4,18,M,,M,,*6A
06/16/2015	17:03:50.583	$GPGGA,170351,2421.9615,N,08100.8273,W,1,10,1.4,18,M,,M,,*65
06/16/2015	17:03:51.602	$GPGGA,170352,2421.9626,N,08100.8260,W,1,10,1.4,18,M,,M,,*64
06/16/2015	17:03:52.562	$GPGGA,170353,2421.9639,N,08100.8250,W,1,10,1.4,18,M,,M,,*68
06/16/2015	17:03:53.632	$GPGGA,170354,2421.9650,N,08100.8243,W,1,10,1.4,18,M,,M,,*62
06/16/2015	17:03:54.575	$GPGGA,170355,2421.9661,N,08100.8233,W,1,10,1.4,18,M,,M,,*66
06/16/2015	17:03:55.642	$GPGGA,170356,2421.9672,N,08100.8221,W,1,10,1.4,18,M,,M,,*64
06/16/2015	17:03:56.562	$GPGGA,170357,2421.9683,N,08100.8212,W,1,10,1.4,19,M,,M,,*6A
06/16/2015	17:03:57.586	$GPGGA,170358,2421.9683,N,08100.8212,W,1,10,1.4,19,M,,M,,*65
06/16/2015	17:03:58.552	$GPGGA,170359,2421.9706,N,08100.8193,W,1,10,1.4,19,M,,M,,*62
06/16/2015	17:03:59.613	$GPGGA,170400,2421.9716,N,08100.8180,W,1,9,1.4,19,M,,M,,*52
06/16/2015	17:04:00.553	$GPGGA,170401,2421.9729,N,08100.8173,W,1,9,1.4,19,M,,M,,*53
06/16/2015	17:04:01.573	$GPGGA,170402,2421.9740,N,08100.8162,W,1,9,1.4,19,M,,M,,*5F
06/16/2015	17:04:02.552	$GPGGA,170403,2421.9749,N,08100.8150,W,1,9,1.4,19,M,,M,,*56
06/16/2015	17:04:03.602	$GPGGA,170404,2421.9760,N,08100.8139,W,1,10,1.4,19,M,,M,,*6D
06/16/2015	17:04:04.552	$GPGGA,170405,2421.9773,N,08100.8130,W,1,10,1.4,19,M,,M,,*67
06/16/2015	17:04:05.632	$GPGGA,170406,2421.9784,N,08100.8120,W,1,10,1.4,19,M,,M,,*6D
06/16/2015	17:04:06.552	$GPGGA,170407,2421.9794,N,08100.8108,W,1,10,1.4,19,M,,M,,*67
06/16/2015	17:04:07.584	$GPGGA,170408,2421.9794,N,08100.8108,W,1,10,1.4,19,M,,M,,*68
06/16/2015	17:04:08.542	$GPGGA,170409,2421.9818,N,08100.8088,W,1,10,1.4,19,M,,M,,*6B
06/16/2015	17:04:09.590	$GPGGA,170410,2421.9828,N,08100.8079,W,1,10,1.4,19,M,,M,,*6E
06/16/2015	17:04:10.552	$GPGGA,170411,2421.9839,N,08100.8069,W,1,10,1.4,19,M,,M,,*6E
06/16/2015	17:04:11.573	$GPGGA,170412,2421.9839,N,08100.8069,W,1,10,1.4,19,M,,M,,*6D
06/16/2015	17:04:12.522	$GPGGA,170413,2421.9861,N,08100.8047,W,1,10,1.4,19,M,,M,,*6D
06/16/2015	17:04:13.532	$GPGGA,170414,2421.9861,N,08100.8047,W,1,10,1.4,19,M,,M,,*6A
06/16/2015	17:04:14.642	$GPGGA,170415,2421.9886,N,08100.8030,W,1,10,1.4,19,M,,M,,*62
06/16/2015	17:04:15.587	$GPGGA,170416,2421.9897,N,08100.8019,W,1,10,1.4,19,M,,M,,*6A
06/16/2015	17:04:16.543	$GPGGA,170417,2421.9897,N,08100.8019,W,1,10,1.4,19,M,,M,,*6B
06/16/2015	17:04:17.592	$GPGGA,170418,2421.9919,N,08100.7998,W,1,10,1.4,19,M,,M,,*6C
06/16/2015	17:04:18.612	$GPGGA,170419,2421.9930,N,08100.7988,W,1,10,1.4,19,M,,M,,*67
06/16/2015	17:04:19.588	$GPGGA,170420,2421.9941,N,08100.7979,W,1,10,1.4,19,M,,M,,*65
06/16/2015	17:04:20.602	$GPGGA,170421,2421.9954,N,08100.7968,W,1,10,1.4,19,M,,M,,*60
06/16/2015	17:04:21.622	$GPGGA,170422,2421.9965,N,08100.7957,W,1,9,1.4,19,M,,M,,*55
06/16/2015	17:04:22.502	$GPGGA,170423,2421.9976,N,08100.7948,W,1,9,1.4,19,M,,M,,*58
06/16/2015	17:04:23.512	$GPGGA,170424,2421.9976,N,08100.7948,W,1,10,1.4,19,M,,M,,*67
06/16/2015	17:04:24.502	$GPGGA,170425,2421.9998,N,08100.7926,W,1,10,1.4,19,M,,M,,*6E
06/16/2015	17:04:25.632	$GPGGA,170426,2421.9998,N,08100.7926,W,1,10,1.4,19,M,,M,,*6D
06/16/2015	17:04:26.512	$GPGGA,170427,2422.0022,N,08100.7905,W,1,10,1.4,19,M,,M,,*6F
06/16/2015	17:04:27.622	$GPGGA,170428,2422.0034,N,08100.7898,W,1,9,1.5,19,M,,M,,*5B
06/16/2015	17:04:28.602	$GPGGA,170429,2422.0047,N,08100.7888,W,1,9,1.4,19,M,,M,,*5E
06/16/2015	17:04:29.602	$GPGGA,170430,2422.0058,N,08100.7876,W,1,10,1.4,19,M,,M,,*61
06/16/2015	17:04:30.492	$GPGGA,170431,2422.0067,N,08100.7866,W,1,10,1.6,19,M,,M,,*6F
06/16/2015	17:04:31.632	$GPGGA,170432,2422.0078,N,08100.7856,W,1,10,1.4,19,M,,M,,*63
06/16/2015	17:04:32.589	$GPGGA,170433,2422.0089,N,08100.7845,W,1,10,1.4,19,M,,M,,*6E
06/16/2015	17:04:33.602	$GPGGA,170434,2422.0099,N,08100.7833,W,1,10,1.4,19,M,,M,,*69
06/16/2015	17:04:34.584	$GPGGA,170435,2422.0112,N,08100.7823,W,1,10,1.4,19,M,,M,,*6B
06/16/2015	17:04:35.613	$GPGGA,170436,2422.0124,N,08100.7814,W,1,10,1.4,19,M,,M,,*69
06/16/2015	17:04:36.575	$GPGGA,170437,2422.0135,N,08100.7802,W,1,10,1.5,19,M,,M,,*6E
06/16/2015	17:04:37.585	$GPGGA,170438,2422.0148,N,08100.7791,W,1,9,1.5,19,M,,M,,*56
06/16/2015	17:04:38.573	$GPGGA,170439,2422.0159,N,08100.7782,W,1,9,1.4,19,M,,M,,*54
06/16/2015	17:04:39.592	$GPGGA,170440,2422.0168,N,08100.7771,W,1,10,1.4,19,M,,M,,*6C
06/16/2015	17:04:40.573	$GPGGA,170441,2422.0181,N,08100.7759,W,1,10,1.6,19,M,,M,,*62
06/16/2015	17:04:41.592	$GPGGA,170442,2422.0193,N,08100.7750,W,1,10,1.4,19,M,,M,,*69
06/16/2015	17:04:42.562	$GPGGA,170443,2422.0204,N,08100.7741,W,1,10,1.5,19,M,,M,,*64
06/16/2015	17:04:43.592	$GPGGA,170444,2422.0218,N,08100.7731,W,1,10,1.4,19,M,,M,,*68
06/16/2015	17:04:44.562	$GPGGA,170445,2422.0229,N,08100.7719,W,1,10,1.4,19,M,,M,,*61
06/16/2015	17:04:45.552	$GPGGA,170446,2422.0240,N,08100.7709,W,1,10,1.4,19,M,,M,,*6C
06/16/2015	17:04:46.562	$GPGGA,170447,2422.0253,N,08100.7701,W,1,10,1.4,19,M,,M,,*67
06/16/2015	17:04:47.592	$GPGGA,170448,2422.0265,N,08100.7690,W,1,10,1.4,19,M,,M,,*64
06/16/2015	17:04:48.552	$GPGGA,170449,2422.0276,N,08100.7679,W,1,10,1.4,19,M,,M,,*60
06/16/2015	17:04:50.590	$GPGGA,170451,2422.0298,N,08100.7659,W,1,10,1.4,19,M,,M,,*6B
06/16/2015	17:04:51.553	$GPGGA,170452,2422.0309,N,08100.7648,W,1,10,1.4,19,M,,M,,*61
06/16/2015	17:04:52.543	$GPGGA,170453,2422.0320,N,08100.7638,W,1,10,1.4,19,M,,M,,*6C
06/16/2015	17:04:53.542	$GPGGA,170454,2422.0331,N,08100.7630,W,1,9,1.5,19,M,,M,,*5A
06/16/2015	17:04:54.532	$GPGGA,170455,2422.0344,N,08100.7619,W,1,9,1.4,19,M,,M,,*53
06/16/2015	17:04:56.562	$GPGGA,170457,2422.0367,N,08100.7598,W,1,9,1.4,20,M,,M,,*50
06/16/2015	17:04:57.522	$GPGGA,170458,2422.0378,N,08100.7589,W,1,10,1.4,20,M,,M,,*69
06/16/2015	17:04:58.532	$GPGGA,170459,2422.0388,N,08100.7579,W,1,10,1.4,20,M,,M,,*68
06/16/2015	17:04:59.585	$GPGGA,170500,2422.0401,N,08100.7566,W,1,10,1.4,20,M,,M,,*6D
06/16/2015	17:05:00.532	$GPGGA,170501,2422.0412,N,08100.7556,W,1,10,1.4,20,M,,M,,*6D
06/16/2015	17:05:01.562	$GPGGA,170502,2422.0424,N,08100.7548,W,1,10,1.4,20,M,,M,,*64
06/16/2015	17:05:02.512	$GPGGA,170503,2422.0435,N,08100.7539,W,1,10,1.5,20,M,,M,,*62
06/16/2015	17:05:03.553	$GPGGA,170504,2422.0448,N,08100.7528,W,1,10,1.4,20,M,,M,,*6E
06/16/2015	17:05:04.522	$GPGGA,170505,2422.0457,N,08100.7517,W,1,10,1.4,20,M,,M,,*6D
06/16/2015	17:05:05.522	$GPGGA,170506,2422.0468,N,08100.7507,W,1,10,1.4,20,M,,M,,*63
06/16/2015	17:05:06.512	$GPGGA,170507,2422.0482,N,08100.7498,W,1,10,1.4,20,M,,M,,*61
06/16/2015	17:05:07.532	$GPGGA,170508,2422.0493,N,08100.7488,W,1,10,1.4,20,M,,M,,*6F
06/16/2015	17:05:08.522	$GPGGA,170509,2422.0504,N,08100.7475,W,1,10,1.4,20,M,,M,,*63
06/16/2015	17:05:09.523	$GPGGA,170510,2422.0515,N,08100.7463,W,1,10,1.4,20,M,,M,,*6C
06/16/2015	17:05:10.503	$GPGGA,170511,2422.0526,N,08100.7455,W,1,10,1.4,20,M,,M,,*68
06/16/2015	17:05:11.532	$GPGGA,170512,2422.0537,N,08100.7444,W,1,10,1.4,20,M,,M,,*6B
06/16/2015	17:05:12.592	$GPGGA,170513,2422.0547,N,08100.7430,W,1,10,1.4,20,M,,M,,*6E
06/16/2015	17:05:13.522	$GPGGA,170514,2422.0558,N,08100.7416,W,1,10,1.4,20,M,,M,,*63
06/16/2015	17:05:14.592	$GPGGA,170515,2422.0569,N,08100.7406,W,1,10,1.8,20,M,,M,,*6D
06/16/2015	17:05:15.632	$GPGGA,170516,2422.0580,N,08100.7396,W,1,10,1.4,20,M,,M,,*6B
06/16/2015	17:05:16.585	$GPGGA,170517,2422.0590,N,08100.7380,W,1,10,1.6,20,M,,M,,*6E
06/16/2015	17:05:17.582	$GPGGA,170518,2422.0601,N,08100.7368,W,1,9,1.8,20,M,,M,,*5A
06/16/2015	17:05:18.582	$GPGGA,170519,2422.0612,N,08100.7356,W,1,9,1.8,20,M,,M,,*54
06/16/2015	17:05:19.584	$GPGGA,170520,2422.0625,N,08100.7347,W,1,8,1.5,20,M,,M,,*56
06/16/2015	17:05:20.576	$GPGGA,170521,2422.0638,N,08100.7338,W,1,8,1.4,20,M,,M,,*52
06/16/2015	17:05:21.582	$GPGGA,170522,2422.0648,N,08100.7326,W,1,8,2.4,21,M,,M,,*5B
06/16/2015	17:05:22.575	$GPGGA,170523,2422.0659,N,08100.7315,W,1,8,1.4,21,M,,M,,*59
06/16/2015	17:05:23.602	$GPGGA,170524,2422.0670,N,08100.7303,W,1,10,1.4,21,M,,M,,*6B
06/16/2015	17:05:24.575	$GPGGA,170525,2422.0681,N,08100.7291,W,1,10,1.4,21,M,,M,,*6E
06/16/2015	17:05:25.562	$GPGGA,170526,2422.0692,N,08100.7281,W,1,10,1.4,21,M,,M,,*6E
06/16/2015	17:05:26.584	$GPGGA,170527,2422.0706,N,08100.7272,W,1,10,1.4,21,M,,M,,*6F
06/16/2015	17:05:27.584	$GPGGA,170528,2422.0716,N,08100.7258,W,1,10,1.4,22,M,,M,,*6A
06/16/2015	17:05:28.578	$GPGGA,170529,2422.0728,N,08100.7250,W,1,10,1.8,22,M,,M,,*62
06/16/2015	17:05:29.580	$GPGGA,170530,2422.0739,N,08100.7239,W,1,9,1.5,22,M,,M,,*50
06/16/2015	17:05:30.552	$GPGGA,170531,2422.0750,N,08100.7226,W,1,9,1.4,22,M,,M,,*51
06/16/2015	17:05:31.592	$GPGGA,170532,2422.0760,N,08100.7215,W,1,10,1.4,22,M,,M,,*69
06/16/2015	17:05:32.562	$GPGGA,170533,2422.0773,N,08100.7207,W,1,10,1.4,22,M,,M,,*69
06/16/2015	17:05:33.552	$GPGGA,170534,2422.0786,N,08100.7197,W,1,9,1.5,22,M,,M,,*57
06/16/2015	17:05:34.552	$GPGGA,170535,2422.0797,N,08100.7187,W,1,9,1.4,22,M,,M,,*56
06/16/2015	17:05:35.576	$GPGGA,170536,2422.0810,N,08100.7178,W,1,10,1.4,23,M,,M,,*6C
06/16/2015	17:05:36.862	$GPGGA,170537,2422.0822,N,08100.7169,W,1,10,1.4,23,M,,M,,*6C
06/16/2015	17:05:37.562	$GPGGA,170538,2422.0833,N,08100.7158,W,1,10,1.4,23,M,,M,,*61
06/16/2015	17:05:38.552	$GPGGA,170539,2422.0844,N,08100.7148,W,1,10,1.4,23,M,,M,,*61
06/16/2015	17:05:39.542	$GPGGA,170540,2422.0855,N,08100.7138,W,1,9,1.5,23,M,,M,,*51
06/16/2015	17:05:40.542	$GPGGA,170541,2422.0868,N,08100.7128,W,1,9,1.4,23,M,,M,,*5E
06/16/2015	17:05:41.542	$GPGGA,170542,2422.0879,N,08100.7118,W,1,10,1.4,23,M,,M,,*66
06/16/2015	17:05:42.542	$GPGGA,170543,2422.0890,N,08100.7107,W,1,10,1.4,23,M,,M,,*6E
06/16/2015	17:05:43.575	$GPGGA,170544,2422.0902,N,08100.7098,W,1,10,1.4,23,M,,M,,*64
06/16/2015	17:05:44.523	$GPGGA,170545,2422.0915,N,08100.7090,W,1,10,1.5,23,M,,M,,*6A
06/16/2015	17:05:45.543	$GPGGA,170546,2422.0927,N,08100.7081,W,1,10,1.4,23,M,,M,,*69
06/16/2015	17:05:46.522	$GPGGA,170547,2422.0938,N,08100.7070,W,1,10,1.4,23,M,,M,,*68
06/16/2015	17:05:47.542	$GPGGA,170548,2422.0951,N,08100.7060,W,1,10,1.4,23,M,,M,,*69
06/16/2015	17:05:48.512	$GPGGA,170549,2422.0962,N,08100.7052,W,1,10,1.4,23,M,,M,,*69
06/16/2015	17:05:49.532	$GPGGA,170550,2422.0974,N,08100.7042,W,1,10,1.4,23,M,,M,,*67
06/16/2015	17:05:50.512	$GPGGA,170551,2422.0987,N,08100.7030,W,1,10,1.4,23,M,,M,,*6F
06/16/2015	17:05:51.562	$GPGGA,170552,2422.0998,N,08100.7021,W,1,10,1.4,23,M,,M,,*62
06/16/2015	17:05:52.522	$GPGGA,170553,2422.1010,N,08100.7012,W,1,10,1.4,23,M,,M,,*6B
06/16/2015	17:05:53.522	$GPGGA,170554,2422.1021,N,08100.7001,W,1,10,1.4,23,M,,M,,*6C
06/16/2015	17:05:54.512	$GPGGA,170555,2422.1034,N,08100.6991,W,1,10,1.4,23,M,,M,,*68
06/16/2015	17:05:55.632	$GPGGA,170556,2422.1046,N,08100.6982,W,1,9,1.5,23,M,,M,,*55
06/16/2015	17:05:56.522	$GPGGA,170557,2422.1057,N,08100.6973,W,1,9,1.4,23,M,,M,,*5B
06/16/2015	17:05:57.593	$GPGGA,170558,2422.1071,N,08100.6963,W,1,10,1.4,23,M,,M,,*69
06/16/2015	17:05:58.588	$GPGGA,170559,2422.1082,N,08100.6952,W,1,10,1.5,23,M,,M,,*67
06/16/2015	17:05:59.562	$GPGGA,170600,2422.1095,N,08100.6944,W,1,10,1.4,23,M,,M,,*68
06/16/2015	17:06:00.512	$GPGGA,170601,2422.1107,N,08100.6935,W,1,10,1.4,23,M,,M,,*65
06/16/2015	17:06:01.606	$GPGGA,170602,2422.1120,N,08100.6924,W,1,9,1.5,23,M,,M,,*5A
06/16/2015	17:06:02.588	$GPGGA,170603,2422.1132,N,08100.6914,W,1,9,1.4,23,M,,M,,*5A
06/16/2015	17:06:03.602	$GPGGA,170604,2422.1144,N,08100.6905,W,1,10,1.4,23,M,,M,,*64
06/16/2015	17:06:04.599	$GPGGA,170605,2422.1158,N,08100.6897,W,1,10,1.4,23,M,,M,,*62
06/16/2015	17:06:05.612	$GPGGA,170606,2422.1169,N,08100.6886,W,1,10,1.4,23,M,,M,,*63
06/16/2015	17:06:06.595	$GPGGA,170607,2422.1182,N,08100.6875,W,1,10,1.4,23,M,,M,,*6B
06/16/2015	17:06:07.583	$GPGGA,170608,2422.1194,N,08100.6865,W,1,10,1.4,23,M,,M,,*62
06/16/2015	17:06:08.577	$GPGGA,170609,2422.1205,N,08100.6857,W,1,10,1.5,23,M,,M,,*68
06/16/2015	17:06:09.592	$GPGGA,170610,2422.1219,N,08100.6846,W,1,9,1.6,23,M,,M,,*56
06/16/2015	17:06:10.562	$GPGGA,170611,2422.1230,N,08100.6835,W,1,9,1.5,23,M,,M,,*5B
06/16/2015	17:06:11.602	$GPGGA,170612,2422.1243,N,08100.6826,W,1,10,1.4,23,M,,M,,*67
06/16/2015	17:06:12.577	$GPGGA,170613,2422.1255,N,08100.6816,W,1,10,1.4,23,M,,M,,*62
06/16/2015	17:06:13.582	$GPGGA,170614,2422.1266,N,08100.6806,W,1,10,1.4,23,M,,M,,*64
06/16/2015	17:06:14.576	$GPGGA,170615,2422.1277,N,08100.6795,W,1,10,1.4,23,M,,M,,*60
06/16/2015	17:06:15.592	$GPGGA,170616,2422.1290,N,08100.6785,W,1,10,1.4,23,M,,M,,*6B
06/16/2015	17:06:16.562	$GPGGA,170617,2422.1302,N,08100.6776,W,1,10,1.4,23,M,,M,,*6C
06/16/2015	17:06:17.581	$GPGGA,170618,2422.1313,N,08100.6766,W,1,10,1.4,23,M,,M,,*62
06/16/2015	17:06:18.593	$GPGGA,170619,2422.1326,N,08100.6755,W,1,10,1.4,23,M,,M,,*65
06/16/2015	17:06:19.600	$GPGGA,170620,2422.1339,N,08100.6745,W,1,10,1.4,23,M,,M,,*60
06/16/2015	17:06:20.563	$GPGGA,170621,2422.1349,N,08100.6736,W,1,10,1.5,23,M,,M,,*63
06/16/2015	17:06:21.576	$GPGGA,170622,2422.1362,N,08100.6727,W,1,10,1.4,23,M,,M,,*68
06/16/2015	17:06:22.542	$GPGGA,170623,2422.1375,N,08100.6716,W,1,10,1.4,23,M,,M,,*6D
06/16/2015	17:06:23.572	$GPGGA,170624,2422.1385,N,08100.6706,W,1,10,1.4,23,M,,M,,*64
06/16/2015	17:06:24.552	$GPGGA,170625,2422.1398,N,08100.6697,W,1,10,1.4,23,M,,M,,*60
06/16/2015	17:06:25.532	$GPGGA,170626,2422.1410,N,08100.6687,W,1,9,1.5,23,M,,M,,*5C
06/16/2015	17:06:26.542	$GPGGA,170627,2422.1424,N,08100.6679,W,1,9,1.4,23,M,,M,,*5A
06/16/2015	17:06:27.576	$GPGGA,170628,2422.1436,N,08100.6670,W,1,10,1.4,23,M,,M,,*67
06/16/2015	17:06:28.522	$GPGGA,170629,2422.1447,N,08100.6659,W,1,10,1.4,23,M,,M,,*6B
06/16/2015	17:06:29.552	$GPGGA,170630,2422.1460,N,08100.6650,W,1,10,1.4,22,M,,M,,*6E
06/16/2015	17:06:30.522	$GPGGA,170631,2422.1472,N,08100.6642,W,1,10,1.4,22,M,,M,,*6F
06/16/2015	17:06:31.573	$GPGGA,170632,2422.1483,N,08100.6632,W,1,10,1.4,22,M,,M,,*65
06/16/2015	17:06:32.532	$GPGGA,170633,2422.1496,N,08100.6621,W,1,10,1.4,22,M,,M,,*62
06/16/2015	17:06:33.552	$GPGGA,170634,2422.1508,N,08100.6611,W,1,10,1.4,22,M,,M,,*60
06/16/2015	17:06:34.522	$GPGGA,170635,2422.1519,N,08100.6602,W,1,10,1.4,22,M,,M,,*63
06/16/2015	17:06:35.583	$GPGGA,170636,2422.1532,N,08100.6592,W,1,10,1.4,22,M,,M,,*63
06/16/2015	17:06:36.523	$GPGGA,170637,2422.1544,N,08100.6581,W,1,10,1.4,22,M,,M,,*61
06/16/2015	17:06:37.643	$GPGGA,170638,2422.1555,N,08100.6571,W,1,10,1.4,22,M,,M,,*61
06/16/2015	17:06:38.532	$GPGGA,170639,2422.1566,N,08100.6560,W,1,10,1.4,22,M,,M,,*60
06/16/2015	17:06:39.562	$GPGGA,170640,2422.1579,N,08100.6551,W,1,10,1.4,22,M,,M,,*62
06/16/2015	17:06:40.522	$GPGGA,170641,2422.1591,N,08100.6542,W,1,10,1.4,22,M,,M,,*67
06/16/2015	17:06:41.602	$GPGGA,170642,2422.1604,N,08100.6532,W,1,10,1.4,22,M,,M,,*6C
06/16/2015	17:06:42.592	$GPGGA,170643,2422.1615,N,08100.6520,W,1,10,1.4,22,M,,M,,*6E
06/16/2015	17:06:43.512	$GPGGA,170644,2422.1627,N,08100.6512,W,1,10,1.4,22,M,,M,,*69
06/16/2015	17:06:44.512	$GPGGA,170645,2422.1639,N,08100.6503,W,1,10,1.4,21,M,,M,,*64
06/16/2015	17:06:45.592	$GPGGA,170646,2422.1651,N,08100.6493,W,1,10,1.4,21,M,,M,,*61
06/16/2015	17:06:46.502	$GPGGA,170647,2422.1663,N,08100.6483,W,1,10,1.4,21,M,,M,,*60
06/16/2015	17:06:47.602	$GPGGA,170648,2422.1675,N,08100.6474,W,1,10,1.4,21,M,,M,,*60
06/16/2015	17:06:48.585	$GPGGA,170649,2422.1688,N,08100.6464,W,1,10,1.5,21,M,,M,,*63
06/16/2015	17:06:49.592	$GPGGA,170650,2422.1699,N,08100.6453,W,1,10,1.4,21,M,,M,,*6E
06/16/2015	17:06:50.592	$GPGGA,170651,2422.1711,N,08100.6443,W,1,10,1.4,21,M,,M,,*6F
06/16/2015	17:06:51.591	$GPGGA,170652,2422.1722,N,08100.6433,W,1,10,1.4,21,M,,M,,*6B
06/16/2015	17:06:52.585	$GPGGA,170653,2422.1734,N,08100.6423,W,1,10,1.4,21,M,,M,,*6C
06/16/2015	17:06:53.572	$GPGGA,170654,2422.1745,N,08100.6412,W,1,10,1.4,21,M,,M,,*6F
06/16/2015	17:06:54.587	$GPGGA,170655,2422.1757,N,08100.6403,W,1,10,1.4,21,M,,M,,*6D
06/16/2015	17:06:55.585	$GPGGA,170656,2422.1768,N,08100.6393,W,1,9,1.6,21,M,,M,,*56
06/16/2015	17:06:56.573	$GPGGA,170657,2422.1781,N,08100.6383,W,1,9,1.4,21,M,,M,,*53
06/16/2015	17:06:57.588	$GPGGA,170658,2422.1793,N,08100.6374,W,1,9,1.5,21,M,,M,,*56
06/16/2015	17:06:58.575	$GPGGA,170659,2422.1805,N,08100.6365,W,1,9,1.4,21,M,,M,,*56
06/16/2015	17:06:59.642	$GPGGA,170700,2422.1816,N,08100.6355,W,1,10,1.4,21,M,,M,,*62
06/16/2015	17:07:00.562	$GPGGA,170701,2422.1829,N,08100.6346,W,1,10,1.6,21,M,,M,,*6F
06/16/2015	17:07:01.583	$GPGGA,170702,2422.1841,N,08100.6338,W,1,10,1.4,20,M,,M,,*68
06/16/2015	17:07:02.562	$GPGGA,170703,2422.1854,N,08100.6329,W,1,10,1.6,20,M,,M,,*6F
06/16/2015	17:07:03.583	$GPGGA,170704,2422.1866,N,08100.6318,W,1,10,1.4,20,M,,M,,*69
06/16/2015	17:07:04.562	$GPGGA,170705,2422.1879,N,08100.6309,W,1,10,1.4,20,M,,M,,*66
06/16/2015	17:07:05.542	$GPGGA,170706,2422.1893,N,08100.6302,W,1,9,1.5,20,M,,M,,*53
06/16/2015	17:07:06.552	$GPGGA,170707,2422.1905,N,08100.6292,W,1,9,1.4,20,M,,M,,*55
06/16/2015	17:07:07.582	$GPGGA,170708,2422.1917,N,08100.6282,W,1,10,1.4,20,M,,M,,*60
06/16/2015	17:07:08.563	$GPGGA,170709,2422.1928,N,08100.6273,W,1,10,1.4,20,M,,M,,*63
06/16/2015	17:07:09.532	$GPGGA,170710,2422.1942,N,08100.6265,W,1,9,1.5,20,M,,M,,*59
06/16/2015	17:07:10.542	$GPGGA,170711,2422.1956,N,08100.6256,W,1,9,1.4,20,M,,M,,*5C
06/16/2015	17:07:11.603	$GPGGA,170712,2422.1969,N,08100.6246,W,1,10,1.4,20,M,,M,,*6A
06/16/2015	17:07:12.543	$GPGGA,170713,2422.1980,N,08100.6235,W,1,10,1.4,20,M,,M,,*68
06/16/2015	17:07:13.532	$GPGGA,170714,2422.1991,N,08100.6226,W,1,10,1.4,20,M,,M,,*6D
06/16/2015	17:07:14.542	$GPGGA,170715,2422.2003,N,08100.6216,W,1,10,1.4,20,M,,M,,*6E
06/16/2015	17:07:15.574	$GPGGA,170716,2422.2016,N,08100.6206,W,1,10,1.4,20,M,,M,,*68
06/16/2015	17:07:16.542	$GPGGA,170717,2422.2027,N,08100.6196,W,1,10,1.5,20,M,,M,,*60
06/16/2015	17:07:17.532	$GPGGA,170718,2422.2039,N,08100.6187,W,1,10,1.4,20,M,,M,,*61
06/16/2015	17:07:18.522	$GPGGA,170719,2422.2050,N,08100.6177,W,1,10,1.4,20,M,,M,,*60
06/16/2015	17:07:19.542	$GPGGA,170720,2422.2061,N,08100.6165,W,1,9,1.6,20,M,,M,,*51
06/16/2015	17:07:20.532	$GPGGA,170721,2422.2075,N,08100.6156,W,1,9,1.4,20,M,,M,,*57
06/16/2015	17:07:21.532	$GPGGA,170722,2422.2086,N,08100.6147,W,1,10,1.4,20,M,,M,,*60
06/16/2015	17:07:22.612	$GPGGA,170723,2422.2097,N,08100.6135,W,1,10,1.4,20,M,,M,,*64
06/16/2015	17:07:23.577	$GPGGA,170724,2422.2111,N,08100.6125,W,1,10,1.4,20,M,,M,,*6D
06/16/2015	17:07:24.622	$GPGGA,170725,2422.2122,N,08100.6116,W,1,10,1.4,20,M,,M,,*6C
06/16/2015	17:07:25.532	$GPGGA,170726,2422.2135,N,08100.6105,W,1,10,1.4,20,M,,M,,*6B
06/16/2015	17:07:26.522	$GPGGA,170727,2422.2147,N,08100.6096,W,1,10,1.4,20,M,,M,,*64
06/16/2015	17:07:27.532	$GPGGA,170728,2422.2159,N,08100.6087,W,1,10,1.4,20,M,,M,,*64
06/16/2015	17:07:28.522	$GPGGA,170729,2422.2172,N,08100.6076,W,1,10,1.4,20,M,,M,,*62
06/16/2015	17:07:29.643	$GPGGA,170730,2422.2184,N,08100.6067,W,1,9,1.4,20,M,,M,,*5B
06/16/2015	17:07:30.513	$GPGGA,170731,2422.2195,N,08100.6058,W,1,9,1.4,20,M,,M,,*56
06/16/2015	17:07:32.542	$GPGGA,170733,2422.2220,N,08100.6038,W,1,10,1.4,20,M,,M,,*67
06/16/2015	17:07:33.602	$GPGGA,170734,2422.2231,N,08100.6028,W,1,10,1.4,20,M,,M,,*61
06/16/2015	17:07:34.582	$GPGGA,170735,2422.2245,N,08100.6019,W,1,10,1.4,20,M,,M,,*61
06/16/2015	17:07:35.632	$GPGGA,170736,2422.2256,N,08100.6009,W,1,10,1.4,20,M,,M,,*61
06/16/2015	17:07:36.592	$GPGGA,170737,2422.2269,N,08100.5999,W,1,10,1.4,20,M,,M,,*6F
06/16/2015	17:07:38.032	$GPGGA,170738,2422.2281,N,08100.5990,W,1,10,1.4,20,M,,M,,*6F
06/16/2015	17:07:38.582	$GPGGA,170739,2422.2294,N,08100.5981,W,1,10,1.4,20,M,,M,,*6A
06/16/2015	17:07:39.612	$GPGGA,170740,2422.2306,N,08100.5971,W,1,10,1.4,20,M,,M,,*61
06/16/2015	17:07:40.582	$GPGGA,170741,2422.2318,N,08100.5962,W,1,10,1.4,20,M,,M,,*6D
06/16/2015	17:07:41.592	$GPGGA,170742,2422.2329,N,08100.5952,W,1,10,1.6,20,M,,M,,*6D
06/16/2015	17:07:42.587	$GPGGA,170743,2422.2342,N,08100.5942,W,1,10,1.4,20,M,,M,,*62
06/16/2015	17:07:43.632	$GPGGA,170744,2422.2354,N,08100.5934,W,1,10,1.5,20,M,,M,,*62
06/16/2015	17:07:44.592	$GPGGA,170745,2422.2368,N,08100.5924,W,1,10,1.4,20,M,,M,,*6C
06/16/2015	17:07:45.582	$GPGGA,170746,2422.2379,N,08100.5914,W,1,10,1.4,20,M,,M,,*6C
06/16/2015	17:07:46.575	$GPGGA,170747,2422.2392,N,08100.5905,W,1,10,1.4,20,M,,M,,*68
06/16/2015	17:07:47.633	$GPGGA,170748,2422.2404,N,08100.5895,W,1,10,1.4,20,M,,M,,*67
06/16/2015	17:07:48.575	$GPGGA,170749,2422.2417,N,08100.5885,W,1,10,1.4,20,M,,M,,*65
06/16/2015	17:07:49.562	$GPGGA,170750,2422.2429,N,08100.5875,W,1,10,1.6,20,M,,M,,*6D
06/16/2015	17:07:50.562	$GPGGA,170751,2422.2439,N,08100.5864,W,1,10,1.4,20,M,,M,,*6F
06/16/2015	17:07:51.582	$GPGGA,170752,2422.2451,N,08100.5855,W,1,10,1.4,20,M,,M,,*60
06/16/2015	17:07:52.562	$GPGGA,170753,2422.2464,N,08100.5844,W,1,10,1.4,20,M,,M,,*67
06/16/2015	17:07:53.542	$GPGGA,170754,2422.2475,N,08100.5833,W,1,10,1.4,20,M,,M,,*60
06/16/2015	17:07:54.562	$GPGGA,170755,2422.2487,N,08100.5824,W,1,10,1.4,20,M,,M,,*6A
06/16/2015	17:07:55.584	$GPGGA,170756,2422.2500,N,08100.5815,W,1,10,1.4,20,M,,M,,*65
06/16/2015	17:07:56.543	$GPGGA,170757,2422.2512,N,08100.5803,W,1,10,1.4,20,M,,M,,*60
06/16/2015	17:07:57.582	$GPGGA,170758,2422.2523,N,08100.5793,W,1,10,1.4,20,M,,M,,*6B
06/16/2015	17:07:58.542	$GPGGA,170759,2422.2537,N,08100.5784,W,1,10,1.4,20,M,,M,,*69
06/16/2015	17:07:59.582	$GPGGA,170800,2422.2549,N,08100.5774,W,1,10,1.4,20,M,,M,,*6C
06/16/2015	17:08:00.542	$GPGGA,170801,2422.2563,N,08100.5763,W,1,10,1.4,20,M,,M,,*63
06/16/2015	17:08:01.552	$GPGGA,170802,2422.2576,N,08100.5754,W,1,10,1.5,20,M,,M,,*61
06/16/2015	17:08:02.532	$GPGGA,170803,2422.2589,N,08100.5744,W,1,10,1.5,20,M,,M,,*61
06/16/2015	17:08:03.652	$GPGGA,170804,2422.2602,N,08100.5736,W,1,9,1.4,20,M,,M,,*5A
06/16/2015	17:08:04.521	$GPGGA,170805,2422.2613,N,08100.5727,W,1,9,1.6,20,M,,M,,*59
06/16/2015	17:08:05.511	$GPGGA,170806,2422.2625,N,08100.5716,W,1,9,1.4,20,M,,M,,*5F
06/16/2015	17:08:06.630	$GPGGA,170807,2422.2639,N,08100.5705,W,1,9,1.4,20,M,,M,,*51
06/16/2015	17:08:07.664	$GPGGA,170808,2422.2650,N,08100.5697,W,1,10,1.4,20,M,,M,,*63
06/16/2015	17:08:08.600	$GPGGA,170809,2422.2663,N,08100.5687,W,1,10,1.4,20,M,,M,,*63
06/16/2015	17:08:09.500	$GPGGA,170810,2422.2675,N,08100.5676,W,1,10,1.4,20,M,,M,,*62
06/16/2015	17:08:10.530	$GPGGA,170811,2422.2688,N,08100.5668,W,1,10,1.5,20,M,,M,,*6F
06/16/2015	17:08:11.600	$GPGGA,170812,2422.2701,N,08100.5659,W,1,9,1.5,20,M,,M,,*56
06/16/2015	17:08:12.510	$GPGGA,170813,2422.2714,N,08100.5650,W,1,9,1.4,20,M,,M,,*5B
06/16/2015	17:08:13.520	$GPGGA,170814,2422.2726,N,08100.5641,W,1,10,1.4,20,M,,M,,*65
06/16/2015	17:08:14.590	$GPGGA,170815,2422.2737,N,08100.5631,W,1,10,1.4,20,M,,M,,*63
06/16/2015	17:08:15.620	$GPGGA,170816,2422.2751,N,08100.5622,W,1,10,1.4,20,M,,M,,*62
06/16/2015	17:08:16.590	$GPGGA,170817,2422.2762,N,08100.5612,W,1,10,1.4,20,M,,M,,*60
06/16/2015	17:08:17.620	$GPGGA,170818,2422.2775,N,08100.5602,W,1,10,1.4,20,M,,M,,*68
06/16/2015	17:08:18.580	$GPGGA,170819,2422.2787,N,08100.5593,W,1,10,1.4,20,M,,M,,*6F
06/16/2015	17:08:19.640	$GPGGA,170820,2422.2798,N,08100.5584,W,1,10,1.4,20,M,,M,,*6D
06/16/2015	17:08:20.590	$GPGGA,170821,2422.2812,N,08100.5574,W,1,10,1.4,20,M,,M,,*6E
06/16/2015	17:08:21.570	$GPGGA,170822,2422.2823,N,08100.5564,W,1,9,1.4,20,M,,M,,*56
06/16/2015	17:08:22.581	$GPGGA,170823,2422.2836,N,08100.5556,W,1,9,1.4,20,M,,M,,*52
06/16/2015	17:08:23.610	$GPGGA,170824,2422.2849,N,08100.5548,W,1,10,1.4,20,M,,M,,*6A
06/16/2015	17:08:24.573	$GPGGA,170825,2422.2860,N,08100.5536,W,1,10,1.4,20,M,,M,,*69
06/16/2015	17:08:25.590	$GPGGA,170826,2422.2872,N,08100.5527,W,1,10,1.4,20,M,,M,,*69
06/16/2015	17:08:26.571	$GPGGA,170827,2422.2884,N,08100.5518,W,1,10,1.4,20,M,,M,,*6D
06/16/2015	17:08:27.580	$GPGGA,170828,2422.2896,N,08100.5508,W,1,10,1.4,20,M,,M,,*60
06/16/2015	17:08:28.571	$GPGGA,170829,2422.2907,N,08100.5499,W,1,10,1.4,20,M,,M,,*61
06/16/2015	17:08:29.563	$GPGGA,170830,2422.2919,N,08100.5490,W,1,10,1.4,20,M,,M,,*6F
06/16/2015	17:08:30.561	$GPGGA,170831,2422.2931,N,08100.5479,W,1,10,1.4,20,M,,M,,*63
06/16/2015	17:08:31.610	$GPGGA,170832,2422.2942,N,08100.5470,W,1,10,1.4,20,M,,M,,*6D
06/16/2015	17:08:32.565	$GPGGA,170833,2422.2952,N,08100.5460,W,1,10,1.4,20,M,,M,,*6C
06/16/2015	17:08:33.573	$GPGGA,170834,2422.2964,N,08100.5450,W,1,9,1.6,20,M,,M,,*57
06/16/2015	17:08:35.000	$GPGGA,170835,2422.2975,N,08100.5440,W,1,9,1.4,20,M,,M,,*55
06/16/2015	17:08:35.560	$GPGGA,170836,2422.2986,N,08100.5431,W,1,10,1.4,20,M,,M,,*64
06/16/2015	17:08:36.564	$GPGGA,170837,2422.3000,N,08100.5422,W,1,10,1.4,20,M,,M,,*61
06/16/2015	17:08:37.570	$GPGGA,170838,2422.3013,N,08100.5411,W,1,10,1.4,20,M,,M,,*6C
06/16/2015	17:08:38.550	$GPGGA,170839,2422.3024,N,08100.5401,W,1,10,1.4,20,M,,M,,*68
06/16/2015	17:08:39.584	$GPGGA,170840,2422.3036,N,08100.5392,W,1,10,1.4,20,M,,M,,*68
06/16/2015	17:08:40.551	$GPGGA,170841,2422.3047,N,08100.5383,W,1,10,1.4,20,M,,M,,*6F
06/16/2015	17:08:41.530	$GPGGA,170842,2422.3058,N,08100.5373,W,1,10,1.4,20,M,,M,,*6D
06/16/2015	17:08:42.540	$GPGGA,170843,2422.3069,N,08100.5362,W,1,10,1.4,20,M,,M,,*6E
06/16/2015	17:08:43.575	$GPGGA,170844,2422.3083,N,08100.5353,W,1,10,1.4,20,M,,M,,*6F
06/16/2015	17:08:44.540	$GPGGA,170845,2422.3093,N,08100.5344,W,1,10,1.4,20,M,,M,,*69
06/16/2015	17:08:45.520	$GPGGA,170846,2422.3105,N,08100.5334,W,1,10,1.4,20,M,,M,,*63
06/16/2015	17:08:46.540	$GPGGA,170847,2422.3116,N,08100.5323,W,1,10,1.4,20,M,,M,,*66
06/16/2015	17:08:47.550	$GPGGA,170848,2422.3129,N,08100.5315,W,1,10,1.4,20,M,,M,,*60
06/16/2015	17:08:48.520	$GPGGA,170849,2422.3138,N,08100.5306,W,1,10,1.4,20,M,,M,,*63
06/16/2015	17:08:49.531	$GPGGA,170850,2422.3151,N,08100.5294,W,1,10,1.4,20,M,,M,,*6E
06/16/2015	17:08:50.530	$GPGGA,170851,2422.3163,N,08100.5285,W,1,10,1.4,20,M,,M,,*6E
06/16/2015	17:08:51.630	$GPGGA,170852,2422.3174,N,08100.5277,W,1,9,1.5,20,M,,M,,*5F
06/16/2015	17:08:52.520	$GPGGA,170853,2422.3185,N,08100.5267,W,1,9,1.4,20,M,,M,,*50
06/16/2015	17:08:53.600	$GPGGA,170854,2422.3198,N,08100.5257,W,1,9,1.6,20,M,,M,,*5A
06/16/2015	17:08:54.510	$GPGGA,170855,2422.3209,N,08100.5247,W,1,9,1.4,20,M,,M,,*53
06/16/2015	17:08:55.510	$GPGGA,170856,2422.3221,N,08100.5239,W,1,10,1.4,20,M,,M,,*6B
06/16/2015	17:08:56.621	$GPGGA,170857,2422.3232,N,08100.5229,W,1,10,1.4,20,M,,M,,*69
06/16/2015	17:08:57.601	$GPGGA,170858,2422.3243,N,08100.5219,W,1,10,1.4,20,M,,M,,*63
06/16/2015	17:08:58.500	$GPGGA,170859,2422.3255,N,08100.5209,W,1,10,1.4,20,M,,M,,*64
06/16/2015	17:08:59.510	$GPGGA,170900,2422.3268,N,08100.5200,W,1,10,1.4,20,M,,M,,*6E
06/16/2015	17:09:00.490	$GPGGA,170901,2422.3279,N,08100.5190,W,1,10,1.4,20,M,,M,,*65
06/16/2015	17:09:01.490	$GPGGA,170902,2422.3290,N,08100.5180,W,1,10,1.4,20,M,,M,,*60
06/16/2015	17:09:02.500	$GPGGA,170903,2422.3303,N,08100.5171,W,1,10,1.4,20,M,,M,,*64
06/16/2015	17:09:03.600	$GPGGA,170904,2422.3315,N,08100.5161,W,1,10,1.4,20,M,,M,,*65
06/16/2015	17:09:04.590	$GPGGA,170905,2422.3326,N,08100.5151,W,1,10,1.4,20,M,,M,,*67
06/16/2015	17:09:05.620	$GPGGA,170906,2422.3337,N,08100.5141,W,1,10,1.4,20,M,,M,,*65
06/16/2015	17:09:06.583	$GPGGA,170907,2422.3350,N,08100.5131,W,1,10,1.4,20,M,,M,,*62
06/16/2015	17:09:07.620	$GPGGA,170908,2422.3362,N,08100.5121,W,1,10,1.4,20,M,,M,,*6D
06/16/2015	17:09:08.581	$GPGGA,170909,2422.3373,N,08100.5112,W,1,10,1.4,20,M,,M,,*6C
06/16/2015	17:09:09.590	$GPGGA,170910,2422.3385,N,08100.5101,W,1,10,1.4,20,M,,M,,*6F
06/16/2015	17:09:10.582	$GPGGA,170911,2422.3398,N,08100.5091,W,1,10,1.4,20,M,,M,,*6A
06/16/2015	17:09:11.581	$GPGGA,170912,2422.3409,N,08100.5082,W,1,10,1.4,20,M,,M,,*64
06/16/2015	17:09:12.566	$GPGGA,170913,2422.3420,N,08100.5072,W,1,10,1.4,20,M,,M,,*61
06/16/2015	17:09:13.581	$GPGGA,170914,2422.3433,N,08100.5060,W,1,10,1.4,20,M,,M,,*67
06/16/2015	17:09:14.564	$GPGGA,170915,2422.3444,N,08100.5049,W,1,10,1.4,20,M,,M,,*6D
06/16/2015	17:09:15.576	$GPGGA,170916,2422.3456,N,08100.5039,W,1,10,1.4,20,M,,M,,*6A
06/16/2015	17:09:16.571	$GPGGA,170917,2422.3466,N,08100.5029,W,1,10,1.4,20,M,,M,,*69
06/16/2015	17:09:17.576	$GPGGA,170918,2422.3479,N,08100.5018,W,1,10,1.4,19,M,,M,,*60
06/16/2015	17:09:18.574	$GPGGA,170919,2422.3492,N,08100.5008,W,1,10,1.5,19,M,,M,,*64
06/16/2015	17:09:19.560	$GPGGA,170920,2422.3503,N,08100.4998,W,1,10,1.4,19,M,,M,,*67
06/16/2015	17:09:20.564	$GPGGA,170921,2422.3513,N,08100.4987,W,1,10,1.4,19,M,,M,,*69
06/16/2015	17:09:21.576	$GPGGA,170922,2422.3527,N,08100.4976,W,1,10,1.4,19,M,,M,,*63
06/16/2015	17:09:22.540	$GPGGA,170923,2422.3539,N,08100.4966,W,1,10,1.5,19,M,,M,,*6D
06/16/2015	17:09:23.590	$GPGGA,170924,2422.3549,N,08100.4956,W,1,10,1.5,19,M,,M,,*6E
06/16/2015	17:09:24.540	$GPGGA,170925,2422.3561,N,08100.4945,W,1,10,1.5,19,M,,M,,*67
06/16/2015	17:09:25.569	$GPGGA,170926,2422.3574,N,08100.4935,W,1,10,1.5,19,M,,M,,*67
06/16/2015	17:09:26.530	$GPGGA,170927,2422.3585,N,08100.4925,W,1,10,1.5,19,M,,M,,*69
06/16/2015	17:09:30.270	$GPGGA,170930,2422.3618,N,08100.4892,W,1,10,1.3,19,M,,M,,*63
06/16/2015	17:09:30.530	$GPGGA,170931,2422.3631,N,08100.4880,W,1,10,1.4,19,M,,M,,*6D
06/16/2015	17:09:31.531	$GPGGA,170932,2422.3642,N,08100.4870,W,1,10,1.3,19,M,,M,,*62
06/16/2015	17:09:32.541	$GPGGA,170933,2422.3653,N,08100.4859,W,1,10,1.5,19,M,,M,,*6E
06/16/2015	17:09:33.640	$GPGGA,170934,2422.3665,N,08100.4848,W,1,10,1.3,19,M,,M,,*6A
06/16/2015	17:09:34.540	$GPGGA,170935,2422.3676,N,08100.4835,W,1,10,1.3,19,M,,M,,*63
06/16/2015	17:09:35.620	$GPGGA,170936,2422.3687,N,08100.4823,W,1,10,1.3,19,M,,M,,*69
06/16/2015	17:09:36.520	$GPGGA,170937,2422.3700,N,08100.4813,W,1,10,1.3,19,M,,M,,*65
06/16/2015	17:09:37.620	$GPGGA,170938,2422.3711,N,08100.4802,W,1,10,1.3,19,M,,M,,*6A
06/16/2015	17:09:38.520	$GPGGA,170939,2422.3723,N,08100.4790,W,1,10,1.3,19,M,,M,,*6E
06/16/2015	17:09:39.620	$GPGGA,170940,2422.3736,N,08100.4780,W,1,10,1.3,19,M,,M,,*65
06/16/2015	17:09:40.600	$GPGGA,170941,2422.3748,N,08100.4770,W,1,10,1.3,19,M,,M,,*62
06/16/2015	17:09:41.510	$GPGGA,170942,2422.3759,N,08100.4758,W,1,10,1.3,19,M,,M,,*6B
06/16/2015	17:09:42.600	$GPGGA,170943,2422.3772,N,08100.4748,W,1,10,1.3,19,M,,M,,*62
06/16/2015	17:09:43.650	$GPGGA,170944,2422.3784,N,08100.4738,W,1,10,1.3,19,M,,M,,*6B
06/16/2015	17:09:44.600	$GPGGA,170945,2422.3795,N,08100.4726,W,1,10,1.3,19,M,,M,,*65
06/16/2015	17:09:45.620	$GPGGA,170946,2422.3808,N,08100.4714,W,1,10,1.3,19,M,,M,,*6C
06/16/2015	17:09:46.590	$GPGGA,170947,2422.3820,N,08100.4705,W,1,10,1.3,19,M,,M,,*67
06/16/2015	17:09:47.620	$GPGGA,170948,2422.3831,N,08100.4694,W,1,11,1.3,19,M,,M,,*60
06/16/2015	17:09:48.590	$GPGGA,170949,2422.3844,N,08100.4682,W,1,11,1.3,19,M,,M,,*64
06/16/2015	17:09:49.611	$GPGGA,170950,2422.3856,N,08100.4671,W,1,11,1.3,19,M,,M,,*63
06/16/2015	17:09:50.591	$GPGGA,170951,2422.3868,N,08100.4662,W,1,11,1.3,19,M,,M,,*6D
06/16/2015	17:09:51.620	$GPGGA,170952,2422.3880,N,08100.4650,W,1,11,1.3,20,M,,M,,*63
06/16/2015	17:09:52.580	$GPGGA,170953,2422.3893,N,08100.4639,W,1,11,1.3,20,M,,M,,*6F
06/16/2015	17:09:53.600	$GPGGA,170954,2422.3904,N,08100.4629,W,1,11,1.3,20,M,,M,,*66
06/16/2015	17:09:54.580	$GPGGA,170955,2422.3915,N,08100.4618,W,1,11,1.3,20,M,,M,,*65
06/16/2015	17:09:55.610	$GPGGA,170956,2422.3928,N,08100.4607,W,1,11,1.3,20,M,,M,,*66
06/16/2015	17:09:56.580	$GPGGA,170957,2422.3940,N,08100.4596,W,1,11,1.3,20,M,,M,,*62
06/16/2015	17:09:57.570	$GPGGA,170958,2422.3951,N,08100.4586,W,1,11,1.3,20,M,,M,,*6C
06/16/2015	17:09:58.574	$GPGGA,170959,2422.3964,N,08100.4575,W,1,11,1.3,20,M,,M,,*67
06/16/2015	17:09:59.610	$GPGGA,171000,2422.3975,N,08100.4564,W,1,11,1.3,20,M,,M,,*63
06/16/2015	17:10:00.571	$GPGGA,171001,2422.3986,N,08100.4554,W,1,11,1.3,20,M,,M,,*6D
06/16/2015	17:10:01.570	$GPGGA,171002,2422.3998,N,08100.4543,W,1,11,1.3,20,M,,M,,*67
06/16/2015	17:10:02.565	$GPGGA,171003,2422.4010,N,08100.4532,W,1,11,1.3,20,M,,M,,*6E
06/16/2015	17:10:03.600	$GPGGA,171004,2422.4021,N,08100.4521,W,1,11,1.3,20,M,,M,,*69
06/16/2015	17:10:04.550	$GPGGA,171005,2422.4033,N,08100.4511,W,1,11,1.3,20,M,,M,,*68
06/16/2015	17:10:05.570	$GPGGA,171006,2422.4044,N,08100.4500,W,1,11,1.3,20,M,,M,,*6B
06/16/2015	17:10:06.581	$GPGGA,171007,2422.4055,N,08100.4489,W,1,11,1.3,20,M,,M,,*6A
06/16/2015	17:10:07.591	$GPGGA,171008,2422.4068,N,08100.4479,W,1,11,1.3,20,M,,M,,*64
06/16/2015	17:10:08.560	$GPGGA,171009,2422.4080,N,08100.4469,W,1,11,1.3,20,M,,M,,*62
06/16/2015	17:10:09.561	$GPGGA,171010,2422.4091,N,08100.4458,W,1,11,1.3,20,M,,M,,*68
06/16/2015	17:10:10.540	$GPGGA,171011,2422.4102,N,08100.4447,W,1,11,1.3,20,M,,M,,*6C
06/16/2015	17:10:11.580	$GPGGA,171012,2422.4116,N,08100.4436,W,1,11,1.3,20,M,,M,,*6C
06/16/2015	17:10:12.530	$GPGGA,171013,2422.4127,N,08100.4426,W,1,11,1.3,20,M,,M,,*6E
06/16/2015	17:10:13.540	$GPGGA,171014,2422.4138,N,08100.4415,W,1,11,1.3,20,M,,M,,*67
06/16/2015	17:10:14.530	$GPGGA,171015,2422.4152,N,08100.4404,W,1,11,1.3,20,M,,M,,*6A
06/16/2015	17:10:15.562	$GPGGA,171016,2422.4162,N,08100.4395,W,1,11,1.3,20,M,,M,,*65
06/16/2015	17:10:16.541	$GPGGA,171017,2422.4174,N,08100.4385,W,1,11,1.3,20,M,,M,,*62
06/16/2015	17:10:17.540	$GPGGA,171018,2422.4186,N,08100.4373,W,1,11,1.3,20,M,,M,,*69
06/16/2015	17:10:18.540	$GPGGA,171019,2422.4198,N,08100.4362,W,1,11,1.3,20,M,,M,,*67
06/16/2015	17:10:19.541	$GPGGA,171020,2422.4210,N,08100.4353,W,1,10,1.4,20,M,,M,,*6A
06/16/2015	17:10:20.520	$GPGGA,171021,2422.4221,N,08100.4342,W,1,10,1.3,20,M,,M,,*6E
06/16/2015	17:10:21.530	$GPGGA,171022,2422.4232,N,08100.4330,W,1,11,1.3,20,M,,M,,*6B
06/16/2015	17:10:22.520	$GPGGA,171023,2422.4243,N,08100.4320,W,1,11,1.3,20,M,,M,,*6D
06/16/2015	17:10:23.530	$GPGGA,171024,2422.4254,N,08100.4309,W,1,11,1.3,20,M,,M,,*67
06/16/2015	17:10:24.611	$GPGGA,171025,2422.4267,N,08100.4298,W,1,11,1.3,20,M,,M,,*6F
06/16/2015	17:10:25.531	$GPGGA,171026,2422.4278,N,08100.4287,W,1,11,1.3,20,M,,M,,*6C
06/16/2015	17:10:26.600	$GPGGA,171027,2422.4290,N,08100.4276,W,1,11,1.3,20,M,,M,,*65
06/16/2015	17:10:27.520	$GPGGA,171028,2422.4301,N,08100.4265,W,1,11,1.3,20,M,,M,,*61
06/16/2015	17:10:28.600	$GPGGA,171029,2422.4314,N,08100.4255,W,1,11,1.3,20,M,,M,,*67
06/16/2015	17:10:29.630	$GPGGA,171030,2422.4326,N,08100.4244,W,1,11,1.3,20,M,,M,,*6E
06/16/2015	17:10:30.500	$GPGGA,171031,2422.4337,N,08100.4233,W,1,11,1.3,20,M,,M,,*6F
06/16/2015	17:10:31.510	$GPGGA,171032,2422.4350,N,08100.4224,W,1,11,1.3,20,M,,M,,*6B
06/16/2015	17:10:32.510	$GPGGA,171033,2422.4362,N,08100.4213,W,1,11,1.5,20,M,,M,,*69
06/16/2015	17:10:33.610	$GPGGA,171034,2422.4375,N,08100.4202,W,1,11,1.3,20,M,,M,,*6E
06/16/2015	17:10:34.600	$GPGGA,171035,2422.4387,N,08100.4190,W,1,11,1.3,20,M,,M,,*6A
06/16/2015	17:10:35.670	$GPGGA,171036,2422.4399,N,08100.4178,W,1,11,1.3,20,M,,M,,*60
06/16/2015	17:10:36.500	$GPGGA,171037,2422.4411,N,08100.4168,W,1,11,1.3,20,M,,M,,*67
06/16/2015	17:10:37.630	$GPGGA,171038,2422.4424,N,08100.4158,W,1,11,1.3,20,M,,M,,*6D
06/16/2015	17:10:38.580	$GPGGA,171039,2422.4437,N,08100.4145,W,1,11,1.3,20,M,,M,,*62
06/16/2015	17:10:39.672	$GPGGA,171040,2422.4448,N,08100.4134,W,1,11,1.3,20,M,,M,,*62
06/16/2015	17:10:40.650	$GPGGA,171041,2422.4460,N,08100.4125,W,1,11,1.3,20,M,,M,,*69
06/16/2015	17:10:41.621	$GPGGA,171042,2422.4474,N,08100.4114,W,1,11,1.3,20,M,,M,,*6D
06/16/2015	17:10:42.571	$GPGGA,171043,2422.4485,N,08100.4103,W,1,11,1.3,20,M,,M,,*64
06/16/2015	17:10:43.650	$GPGGA,171044,2422.4496,N,08100.4090,W,1,11,1.3,20,M,,M,,*6A
06/16/2015	17:10:44.630	$GPGGA,171045,2422.4509,N,08100.4081,W,1,11,1.3,20,M,,M,,*6C
06/16/2015	17:10:45.610	$GPGGA,171046,2422.4521,N,08100.4074,W,1,11,1.3,20,M,,M,,*6F
06/16/2015	17:10:46.620	$GPGGA,171047,2422.4532,N,08100.4062,W,1,11,1.3,20,M,,M,,*6B
06/16/2015	17:10:47.620	$GPGGA,171048,2422.4543,N,08100.4048,W,1,11,1.3,20,M,,M,,*6A
06/16/2015	17:10:48.630	$GPGGA,171049,2422.4556,N,08100.4039,W,1,11,1.3,20,M,,M,,*69
06/16/2015	17:10:49.640	$GPGGA,171050,2422.4568,N,08100.4033,W,1,11,1.5,21,M,,M,,*61
06/16/2015	17:10:50.620	$GPGGA,171051,2422.4579,N,08100.4020,W,1,11,1.3,21,M,,M,,*64
06/16/2015	17:10:51.610	$GPGGA,171052,2422.4590,N,08100.4009,W,1,11,1.3,21,M,,M,,*6B
06/16/2015	17:10:52.620	$GPGGA,171053,2422.4601,N,08100.3998,W,1,11,1.3,21,M,,M,,*67
06/16/2015	17:10:53.610	$GPGGA,171054,2422.4615,N,08100.3987,W,1,11,1.3,21,M,,M,,*6B
06/16/2015	17:10:55.652	$GPGGA,171056,2422.4637,N,08100.3970,W,1,10,1.4,21,M,,M,,*67
06/16/2015	17:10:56.540	$GPGGA,171057,2422.4648,N,08100.3956,W,1,10,1.5,21,M,,M,,*6B
06/16/2015	17:10:57.581	$GPGGA,171058,2422.4659,N,08100.3946,W,1,11,1.3,21,M,,M,,*62
06/16/2015	17:10:58.600	$GPGGA,171059,2422.4672,N,08100.3938,W,1,11,1.3,21,M,,M,,*63
06/16/2015	17:10:59.651	$GPGGA,171100,2422.4684,N,08100.3929,W,1,10,1.5,21,M,,M,,*60
06/16/2015	17:11:00.541	$GPGGA,171101,2422.4695,N,08100.3915,W,1,10,1.5,21,M,,M,,*6E
06/16/2015	17:11:01.585	$GPGGA,171102,2422.4706,N,08100.3903,W,1,11,1.3,21,M,,M,,*66
06/16/2015	17:11:02.530	$GPGGA,171103,2422.4716,N,08100.3893,W,1,11,1.3,21,M,,M,,*6E
06/16/2015	17:11:03.610	$GPGGA,171104,2422.4729,N,08100.3881,W,1,11,1.3,21,M,,M,,*66
06/16/2015	17:11:04.520	$GPGGA,171105,2422.4741,N,08100.3870,W,1,11,1.3,21,M,,M,,*67
06/16/2015	17:11:05.564	$GPGGA,171106,2422.4752,N,08100.3858,W,1,10,1.3,21,M,,M,,*6D
06/16/2015	17:11:06.520	$GPGGA,171107,2422.4763,N,08100.3848,W,1,10,1.3,21,M,,M,,*6F
06/16/2015	17:11:07.589	$GPGGA,171108,2422.4774,N,08100.3837,W,1,10,1.3,21,M,,M,,*6E
06/16/2015	17:11:08.580	$GPGGA,171109,2422.4787,N,08100.3828,W,1,10,1.3,21,M,,M,,*6D
06/16/2015	17:11:09.621	$GPGGA,171110,2422.4798,N,08100.3819,W,1,11,1.5,21,M,,M,,*6E
06/16/2015	17:11:10.510	$GPGGA,171111,2422.4809,N,08100.3808,W,1,11,1.5,21,M,,M,,*68
06/16/2015	17:11:11.620	$GPGGA,171112,2422.4821,N,08100.3799,W,1,11,1.4,21,M,,M,,*67
06/16/2015	17:11:12.585	$GPGGA,171113,2422.4831,N,08100.3788,W,1,11,1.3,21,M,,M,,*60
06/16/2015	17:11:13.620	$GPGGA,171114,2422.4843,N,08100.3778,W,1,11,1.3,21,M,,M,,*6D
06/16/2015	17:11:14.583	$GPGGA,171115,2422.4854,N,08100.3767,W,1,11,1.4,21,M,,M,,*63
06/16/2015	17:11:15.620	$GPGGA,171116,2422.4865,N,08100.3756,W,1,10,1.3,21,M,,M,,*66
06/16/2015	17:11:16.611	$GPGGA,171117,2422.4876,N,08100.3744,W,1,10,1.3,21,M,,M,,*66
06/16/2015	17:11:17.621	$GPGGA,171118,2422.4888,N,08100.3734,W,1,11,1.3,21,M,,M,,*6E
06/16/2015	17:11:18.595	$GPGGA,171119,2422.4900,N,08100.3724,W,1,11,1.3,21,M,,M,,*6F
06/16/2015	17:11:19.630	$GPGGA,171120,2422.4911,N,08100.3712,W,1,11,1.3,21,M,,M,,*60
06/16/2015	17:11:20.592	$GPGGA,171121,2422.4922,N,08100.3700,W,1,11,1.4,21,M,,M,,*65
06/16/2015	17:11:21.610	$GPGGA,171122,2422.4933,N,08100.3690,W,1,10,1.3,21,M,,M,,*68
06/16/2015	17:11:22.584	$GPGGA,171123,2422.4946,N,08100.3680,W,1,10,1.3,21,M,,M,,*6A
06/16/2015	17:11:23.620	$GPGGA,171124,2422.4957,N,08100.3668,W,1,11,1.3,21,M,,M,,*6A
06/16/2015	17:11:25.902	$GPGGA,171126,2422.4980,N,08100.3645,W,1,11,1.3,20,M,,M,,*6C
06/16/2015	17:11:26.576	$GPGGA,171127,2422.4991,N,08100.3636,W,1,11,1.3,20,M,,M,,*69
06/16/2015	17:11:27.610	$GPGGA,171128,2422.5004,N,08100.3624,W,1,11,1.3,20,M,,M,,*61
06/16/2015	17:11:28.582	$GPGGA,171129,2422.5016,N,08100.3612,W,1,11,1.3,20,M,,M,,*66
06/16/2015	17:11:29.590	$GPGGA,171130,2422.5027,N,08100.3602,W,1,11,1.3,20,M,,M,,*6D
06/16/2015	17:11:30.580	$GPGGA,171131,2422.5040,N,08100.3592,W,1,11,1.3,20,M,,M,,*67
06/16/2015	17:11:31.610	$GPGGA,171132,2422.5052,N,08100.3582,W,1,11,1.3,20,M,,M,,*66
06/16/2015	17:11:32.590	$GPGGA,171133,2422.5065,N,08100.3571,W,1,11,1.3,20,M,,M,,*6F
06/16/2015	17:11:33.580	$GPGGA,171134,2422.5077,N,08100.3559,W,1,11,1.4,20,M,,M,,*66
06/16/2015	17:11:34.591	$GPGGA,171135,2422.5089,N,08100.3549,W,1,11,1.3,20,M,,M,,*60
06/16/2015	17:11:35.630	$GPGGA,171136,2422.5100,N,08100.3541,W,1,11,1.5,20,M,,M,,*6D
06/16/2015	17:11:36.580	$GPGGA,171137,2422.5113,N,08100.3529,W,1,11,1.3,20,M,,M,,*66
06/16/2015	17:11:37.600	$GPGGA,171138,2422.5124,N,08100.3516,W,1,11,1.3,20,M,,M,,*61
06/16/2015	17:11:38.574	$GPGGA,171139,2422.5136,N,08100.3508,W,1,11,1.3,20,M,,M,,*6C
06/16/2015	17:11:39.590	$GPGGA,171140,2422.5149,N,08100.3499,W,1,11,1.5,20,M,,M,,*65
06/16/2015	17:11:40.574	$GPGGA,171141,2422.5159,N,08100.3484,W,1,11,1.3,20,M,,M,,*6F
06/16/2015	17:11:41.560	$GPGGA,171142,2422.5170,N,08100.3472,W,1,11,1.3,20,M,,M,,*6E
06/16/2015	17:11:42.590	$GPGGA,171143,2422.5182,N,08100.3462,W,1,11,1.3,20,M,,M,,*63
06/16/2015	17:11:43.600	$GPGGA,171144,2422.5195,N,08100.3451,W,1,11,1.3,20,M,,M,,*62
06/16/2015	17:11:44.590	$GPGGA,171145,2422.5207,N,08100.3440,W,1,11,1.3,20,M,,M,,*6B
06/16/2015	17:11:45.565	$GPGGA,171146,2422.5219,N,08100.3431,W,1,11,1.3,21,M,,M,,*60
06/16/2015	17:11:46.580	$GPGGA,171147,2422.5219,N,08100.3431,W,1,11,1.3,21,M,,M,,*61
06/16/2015	17:11:47.663	$GPGGA,171148,2422.5244,N,08100.3408,W,1,11,1.3,21,M,,M,,*6C
06/16/2015	17:11:48.550	$GPGGA,171149,2422.5244,N,08100.3408,W,1,11,1.3,21,M,,M,,*6D
06/16/2015	17:11:49.630	$GPGGA,171150,2422.5269,N,08100.3390,W,1,11,1.3,21,M,,M,,*6C
