Software Version Number: 1	Data File Format Number: 1	Build Version Number: 1	Error Count Since VI Started: 3	Manufacturer: Raytheon	 Model Number: RayMarine 120	 S/N: 	 Cal Date: 	 Wind Direction Offset: 0.00	 Slope (M)1: 0.00	 Offset (B)1: 0.00	 Slope (M)2: 0.00	 Offset (B)2: 0.00	 Slope (M)3: 0.00	 Offset (B)3: 0.00	 Slope (M)4: 0.00	 Offset (B)4: 0.00	 Slope (M)5: 0.00	 Offset (B)5: 0.00	 Slope (M)6: 0.00	 Offset (B)6: 0.00
Computer Date	Computer Time	GGA String
06/24/2015	07:00:00.510	$GPGGA,070001,2513.8100,N,08008.4732,W,1,9,1.7,15,M,,M,,*53
06/24/2015	07:00:01.520	$GPGGA,070002,2513.8092,N,08008.4736,W,1,9,1.7,15,M,,M,,*5E
06/24/2015	07:00:02.510	$GPGGA,070003,2513.8083,N,08008.4736,W,1,9,1.7,15,M,,M,,*5F
06/24/2015	07:00:03.531	$GPGGA,070004,2513.8073,N,08008.4734,W,1,8,1.7,15,M,,M,,*54
06/24/2015	07:00:04.520	$GPGGA,070005,2513.8064,N,08008.4737,W,1,8,1.7,15,M,,M,,*50
06/24/2015	07:00:05.510	$GPGGA,070006,2513.8056,N,08008.4740,W,1,9,1.7,15,M,,M,,*53
06/24/2015	07:00:06.490	$GPGGA,070007,2513.8047,N,08008.4739,W,1,9,1.7,15,M,,M,,*5C
06/24/2015	07:00:07.519	$GPGGA,070008,2513.8038,N,08008.4740,W,1,9,1.7,15,M,,M,,*55
06/24/2015	07:00:08.500	$GPGGA,070009,2513.8029,N,08008.4741,W,1,9,2.2,15,M,,M,,*53
06/24/2015	07:00:09.520	$GPGGA,070010,2513.8022,N,08008.4741,W,1,8,2.2,15,M,,M,,*51
06/24/2015	07:00:10.500	$GPGGA,070011,2513.8012,N,08008.4743,W,1,8,2.2,15,M,,M,,*51
06/24/2015	07:00:11.520	$GPGGA,070012,2513.8004,N,08008.4743,W,1,8,2.2,15,M,,M,,*55
06/24/2015	07:00:12.510	$GPGGA,070013,2513.7994,N,08008.4743,W,1,8,2.2,15,M,,M,,*5B
06/24/2015	07:00:13.510	$GPGGA,070014,2513.7987,N,08008.4745,W,1,8,2.2,15,M,,M,,*58
06/24/2015	07:00:14.500	$GPGGA,070015,2513.7977,N,08008.4747,W,1,8,2.2,15,M,,M,,*54
06/24/2015	07:00:15.620	$GPGGA,070016,2513.7968,N,08008.4745,W,1,9,1.7,15,M,,M,,*5C
06/24/2015	07:00:16.500	$GPGGA,070017,2513.7961,N,08008.4747,W,1,9,2.2,15,M,,M,,*50
06/24/2015	07:00:17.580	$GPGGA,070018,2513.7954,N,08008.4751,W,1,8,2.2,15,M,,M,,*5F
06/24/2015	07:00:18.580	$GPGGA,070019,2513.7946,N,08008.4750,W,1,8,1.7,15,M,,M,,*5A
06/24/2015	07:00:19.610	$GPGGA,070020,2513.7937,N,08008.4749,W,1,9,1.7,15,M,,M,,*5F
06/24/2015	07:00:20.580	$GPGGA,070021,2513.7933,N,08008.4754,W,1,9,2.2,15,M,,M,,*50
06/24/2015	07:00:21.570	$GPGGA,070022,2513.7925,N,08008.4755,W,1,9,1.7,15,M,,M,,*53
06/24/2015	07:00:22.580	$GPGGA,070023,2513.7917,N,08008.4753,W,1,9,1.7,15,M,,M,,*55
06/24/2015	07:00:23.580	$GPGGA,070024,2513.7910,N,08008.4755,W,1,9,1.7,15,M,,M,,*53
06/24/2015	07:00:24.559	$GPGGA,070025,2513.7903,N,08008.4758,W,1,9,1.7,15,M,,M,,*5D
06/24/2015	07:00:25.590	$GPGGA,070026,2513.7896,N,08008.4759,W,1,9,1.7,15,M,,M,,*52
06/24/2015	07:00:26.570	$GPGGA,070027,2513.7885,N,08008.4758,W,1,9,1.7,15,M,,M,,*50
06/24/2015	07:00:27.600	$GPGGA,070028,2513.7878,N,08008.4761,W,1,9,1.7,15,M,,M,,*57
06/24/2015	07:00:28.563	$GPGGA,070029,2513.7870,N,08008.4763,W,1,9,1.9,15,M,,M,,*52
06/24/2015	07:00:29.580	$GPGGA,070030,2513.7861,N,08008.4763,W,1,8,1.9,15,M,,M,,*5B
06/24/2015	07:00:30.556	$GPGGA,070031,2513.7853,N,08008.4763,W,1,8,1.7,15,M,,M,,*55
06/24/2015	07:00:31.590	$GPGGA,070032,2513.7845,N,08008.4767,W,1,9,1.7,15,M,,M,,*54
06/24/2015	07:00:32.551	$GPGGA,070033,2513.7838,N,08008.4769,W,1,9,1.7,15,M,,M,,*51
06/24/2015	07:00:33.542	$GPGGA,070034,2513.7828,N,08008.4768,W,1,9,1.7,15,M,,M,,*56
06/24/2015	07:00:34.546	$GPGGA,070035,2513.7820,N,08008.4772,W,1,9,1.7,15,M,,M,,*54
06/24/2015	07:00:35.570	$GPGGA,070036,2513.7813,N,08008.4773,W,1,9,1.7,15,M,,M,,*56
06/24/2015	07:00:36.547	$GPGGA,070037,2513.7803,N,08008.4774,W,1,9,1.7,15,M,,M,,*51
06/24/2015	07:00:37.554	$GPGGA,070038,2513.7794,N,08008.4776,W,1,9,1.7,15,M,,M,,*5D
06/24/2015	07:00:38.546	$GPGGA,070039,2513.7786,N,08008.4779,W,1,9,1.7,15,M,,M,,*50
06/24/2015	07:00:39.570	$GPGGA,070040,2513.7778,N,08008.4780,W,1,9,1.7,15,M,,M,,*59
06/24/2015	07:00:40.546	$GPGGA,070041,2513.7770,N,08008.4781,W,1,9,1.7,15,M,,M,,*51
06/24/2015	07:00:41.560	$GPGGA,070042,2513.7762,N,08008.4783,W,1,9,1.7,15,M,,M,,*53
06/24/2015	07:00:42.542	$GPGGA,070043,2513.7753,N,08008.4787,W,1,9,1.7,15,M,,M,,*54
06/24/2015	07:00:43.554	$GPGGA,070044,2513.7746,N,08008.4788,W,1,9,1.7,15,M,,M,,*58
06/24/2015	07:00:44.531	$GPGGA,070045,2513.7737,N,08008.4790,W,1,9,1.7,15,M,,M,,*56
06/24/2015	07:00:45.560	$GPGGA,070046,2513.7729,N,08008.4792,W,1,9,1.7,16,M,,M,,*5B
06/24/2015	07:00:46.510	$GPGGA,070047,2513.7721,N,08008.4796,W,1,9,1.7,16,M,,M,,*56
06/24/2015	07:00:47.550	$GPGGA,070048,2513.7712,N,08008.4798,W,1,9,1.7,16,M,,M,,*57
06/24/2015	07:00:48.520	$GPGGA,070049,2513.7704,N,08008.4799,W,1,9,1.7,16,M,,M,,*50
06/24/2015	07:00:49.550	$GPGGA,070050,2513.7697,N,08008.4803,W,1,9,1.7,16,M,,M,,*5F
06/24/2015	07:00:50.610	$GPGGA,070051,2513.7687,N,08008.4805,W,1,9,1.7,16,M,,M,,*59
06/24/2015	07:00:51.551	$GPGGA,070052,2513.7679,N,08008.4806,W,1,9,1.7,16,M,,M,,*58
06/24/2015	07:00:52.520	$GPGGA,070053,2513.7670,N,08008.4810,W,1,9,1.7,16,M,,M,,*57
06/24/2015	07:00:53.542	$GPGGA,070054,2513.7662,N,08008.4812,W,1,9,1.7,16,M,,M,,*51
06/24/2015	07:00:54.510	$GPGGA,070055,2513.7654,N,08008.4813,W,1,9,1.7,16,M,,M,,*54
06/24/2015	07:00:55.633	$GPGGA,070056,2513.7646,N,08008.4817,W,1,9,1.7,16,M,,M,,*50
06/24/2015	07:00:56.500	$GPGGA,070057,2513.7639,N,08008.4819,W,1,9,1.7,16,M,,M,,*57
06/24/2015	07:00:57.510	$GPGGA,070058,2513.7629,N,08008.4819,W,1,9,1.7,16,M,,M,,*59
06/24/2015	07:00:58.510	$GPGGA,070059,2513.7621,N,08008.4821,W,1,9,1.7,16,M,,M,,*5B
06/24/2015	07:00:59.546	$GPGGA,070100,2513.7614,N,08008.4826,W,1,9,1.7,16,M,,M,,*57
06/24/2015	07:01:00.490	$GPGGA,070101,2513.7604,N,08008.4827,W,1,9,1.7,16,M,,M,,*56
06/24/2015	07:01:01.610	$GPGGA,070102,2513.7596,N,08008.4827,W,1,9,1.7,16,M,,M,,*5D
06/24/2015	07:01:02.580	$GPGGA,070103,2513.7587,N,08008.4830,W,1,9,1.7,16,M,,M,,*5A
06/24/2015	07:01:03.500	$GPGGA,070104,2513.7579,N,08008.4832,W,1,9,1.7,16,M,,M,,*5E
06/24/2015	07:01:04.580	$GPGGA,070105,2513.7570,N,08008.4834,W,1,9,1.7,16,M,,M,,*50
06/24/2015	07:01:05.620	$GPGGA,070106,2513.7561,N,08008.4834,W,1,9,1.7,16,M,,M,,*53
06/24/2015	07:01:06.580	$GPGGA,070107,2513.7553,N,08008.4837,W,1,9,1.7,16,M,,M,,*50
06/24/2015	07:01:07.590	$GPGGA,070108,2513.7545,N,08008.4841,W,1,9,1.7,16,M,,M,,*59
06/24/2015	07:01:08.491	$GPGGA,070109,2513.7538,N,08008.4840,W,1,9,1.7,16,M,,M,,*53
06/24/2015	07:01:09.600	$GPGGA,070110,2513.7528,N,08008.4842,W,1,9,1.7,16,M,,M,,*58
06/24/2015	07:01:10.570	$GPGGA,070111,2513.7520,N,08008.4846,W,1,9,1.7,16,M,,M,,*55
06/24/2015	07:01:11.600	$GPGGA,070112,2513.7513,N,08008.4848,W,1,9,1.7,16,M,,M,,*58
06/24/2015	07:01:12.570	$GPGGA,070113,2513.7503,N,08008.4847,W,1,9,1.7,16,M,,M,,*57
06/24/2015	07:01:13.580	$GPGGA,070114,2513.7495,N,08008.4850,W,1,9,1.7,16,M,,M,,*58
06/24/2015	07:01:14.570	$GPGGA,070115,2513.7487,N,08008.4853,W,1,9,1.7,16,M,,M,,*59
06/24/2015	07:01:15.570	$GPGGA,070116,2513.7480,N,08008.4855,W,1,9,1.7,16,M,,M,,*5B
06/24/2015	07:01:16.570	$GPGGA,070117,2513.7471,N,08008.4855,W,1,9,1.7,16,M,,M,,*54
06/24/2015	07:01:17.549	$GPGGA,070118,2513.7462,N,08008.4859,W,1,9,1.7,16,M,,M,,*55
06/24/2015	07:01:18.560	$GPGGA,070119,2513.7455,N,08008.4860,W,1,9,1.7,16,M,,M,,*5A
06/24/2015	07:01:19.820	$GPGGA,070120,2513.7446,N,08008.4860,W,1,9,1.7,16,M,,M,,*52
06/24/2015	07:01:20.550	$GPGGA,070121,2513.7437,N,08008.4863,W,1,9,1.7,16,M,,M,,*56
06/24/2015	07:01:21.580	$GPGGA,070122,2513.7430,N,08008.4866,W,1,9,1.7,16,M,,M,,*57
06/24/2015	07:01:22.534	$GPGGA,070123,2513.7421,N,08008.4865,W,1,9,1.7,16,M,,M,,*55
06/24/2015	07:01:23.590	$GPGGA,070124,2513.7413,N,08008.4866,W,1,9,1.7,16,M,,M,,*50
06/24/2015	07:01:24.552	$GPGGA,070125,2513.7405,N,08008.4868,W,1,9,1.7,16,M,,M,,*58
06/24/2015	07:01:25.570	$GPGGA,070126,2513.7397,N,08008.4870,W,1,9,1.7,16,M,,M,,*5E
06/24/2015	07:01:26.533	$GPGGA,070127,2513.7388,N,08008.4870,W,1,9,1.7,16,M,,M,,*51
06/24/2015	07:01:27.560	$GPGGA,070128,2513.7380,N,08008.4871,W,1,9,1.7,16,M,,M,,*57
06/24/2015	07:01:28.543	$GPGGA,070129,2513.7372,N,08008.4874,W,1,9,1.7,16,M,,M,,*5E
06/24/2015	07:01:29.550	$GPGGA,070130,2513.7365,N,08008.4874,W,1,9,1.7,16,M,,M,,*50
06/24/2015	07:01:30.520	$GPGGA,070131,2513.7356,N,08008.4874,W,1,9,1.7,16,M,,M,,*51
06/24/2015	07:01:31.580	$GPGGA,070132,2513.7348,N,08008.4877,W,1,9,1.7,16,M,,M,,*5E
06/24/2015	07:01:32.531	$GPGGA,070133,2513.7340,N,08008.4877,W,1,9,1.7,16,M,,M,,*57
06/24/2015	07:01:33.520	$GPGGA,070134,2513.7332,N,08008.4878,W,1,9,1.7,16,M,,M,,*5A
06/24/2015	07:01:34.543	$GPGGA,070135,2513.7323,N,08008.4881,W,1,9,1.7,16,M,,M,,*5D
06/24/2015	07:01:35.542	$GPGGA,070136,2513.7315,N,08008.4881,W,1,9,1.7,16,M,,M,,*5B
06/24/2015	07:01:36.510	$GPGGA,070137,2513.7307,N,08008.4882,W,1,9,1.7,16,M,,M,,*5A
06/24/2015	07:01:37.543	$GPGGA,070138,2513.7298,N,08008.4884,W,1,9,1.7,16,M,,M,,*54
06/24/2015	07:01:38.530	$GPGGA,070139,2513.7290,N,08008.4883,W,1,9,1.7,16,M,,M,,*5A
06/24/2015	07:01:39.550	$GPGGA,070140,2513.7282,N,08008.4886,W,1,9,1.7,16,M,,M,,*52
06/24/2015	07:01:40.510	$GPGGA,070141,2513.7274,N,08008.4886,W,1,9,1.7,16,M,,M,,*5A
06/24/2015	07:01:41.530	$GPGGA,070142,2513.7267,N,08008.4888,W,1,9,1.7,16,M,,M,,*55
06/24/2015	07:01:42.620	$GPGGA,070143,2513.7258,N,08008.4891,W,1,9,1.7,16,M,,M,,*50
06/24/2015	07:01:43.510	$GPGGA,070144,2513.7249,N,08008.4892,W,1,8,1.7,16,M,,M,,*55
06/24/2015	07:01:44.520	$GPGGA,070145,2513.7240,N,08008.4891,W,1,8,1.7,16,M,,M,,*5E
06/24/2015	07:01:45.510	$GPGGA,070146,2513.7231,N,08008.4895,W,1,9,1.7,16,M,,M,,*5E
06/24/2015	07:01:46.500	$GPGGA,070147,2513.7222,N,08008.4894,W,1,9,1.7,16,M,,M,,*5C
06/24/2015	07:01:47.532	$GPGGA,070148,2513.7213,N,08008.4895,W,1,9,1.7,16,M,,M,,*50
06/24/2015	07:01:48.490	$GPGGA,070149,2513.7206,N,08008.4899,W,1,9,1.7,16,M,,M,,*59
06/24/2015	07:01:49.490	$GPGGA,070150,2513.7197,N,08008.4899,W,1,9,1.7,16,M,,M,,*5A
06/24/2015	07:01:50.590	$GPGGA,070151,2513.7188,N,08008.4899,W,1,9,1.7,16,M,,M,,*55
06/24/2015	07:01:51.510	$GPGGA,070152,2513.7179,N,08008.4902,W,1,9,1.7,16,M,,M,,*5B
06/24/2015	07:01:52.579	$GPGGA,070153,2513.7171,N,08008.4904,W,1,9,1.7,16,M,,M,,*54
06/24/2015	07:01:53.580	$GPGGA,070154,2513.7163,N,08008.4904,W,1,9,1.7,15,M,,M,,*53
06/24/2015	07:01:54.500	$GPGGA,070155,2513.7155,N,08008.4906,W,1,9,1.7,15,M,,M,,*55
06/24/2015	07:01:55.590	$GPGGA,070156,2513.7148,N,08008.4907,W,1,9,1.7,15,M,,M,,*5B
06/24/2015	07:01:56.580	$GPGGA,070157,2513.7138,N,08008.4910,W,1,9,1.7,15,M,,M,,*5B
06/24/2015	07:01:57.570	$GPGGA,070158,2513.7130,N,08008.4909,W,1,9,1.7,15,M,,M,,*54
06/24/2015	07:01:58.580	$GPGGA,070159,2513.7121,N,08008.4913,W,1,9,1.7,15,M,,M,,*5E
06/24/2015	07:01:59.620	$GPGGA,070200,2513.7114,N,08008.4914,W,1,9,1.7,15,M,,M,,*50
06/24/2015	07:02:00.560	$GPGGA,070201,2513.7105,N,08008.4914,W,1,9,1.7,15,M,,M,,*51
06/24/2015	07:02:01.580	$GPGGA,070202,2513.7097,N,08008.4918,W,1,9,1.7,15,M,,M,,*54
06/24/2015	07:02:02.560	$GPGGA,070203,2513.7090,N,08008.4921,W,1,9,1.7,15,M,,M,,*58
06/24/2015	07:02:03.600	$GPGGA,070204,2513.7081,N,08008.4919,W,1,9,1.7,15,M,,M,,*54
06/24/2015	07:02:04.570	$GPGGA,070205,2513.7072,N,08008.4922,W,1,9,1.7,15,M,,M,,*51
06/24/2015	07:02:05.570	$GPGGA,070206,2513.7065,N,08008.4928,W,1,9,1.7,15,M,,M,,*5E
06/24/2015	07:02:06.560	$GPGGA,070207,2513.7058,N,08008.4928,W,1,9,1.7,15,M,,M,,*51
06/24/2015	07:02:07.590	$GPGGA,070208,2513.7049,N,08008.4927,W,1,9,1.7,15,M,,M,,*51
06/24/2015	07:02:08.550	$GPGGA,070209,2513.7041,N,08008.4932,W,1,9,1.7,15,M,,M,,*5C
06/24/2015	07:02:09.569	$GPGGA,070210,2513.7034,N,08008.4938,W,1,9,1.7,15,M,,M,,*5C
06/24/2015	07:02:10.550	$GPGGA,070211,2513.7025,N,08008.4937,W,1,9,1.7,15,M,,M,,*52
06/24/2015	07:02:11.539	$GPGGA,070212,2513.7018,N,08008.4936,W,1,9,1.7,15,M,,M,,*5E
06/24/2015	07:02:12.538	$GPGGA,070213,2513.7009,N,08008.4942,W,1,9,1.7,15,M,,M,,*5C
06/24/2015	07:02:13.558	$GPGGA,070214,2513.7002,N,08008.4946,W,1,9,1.7,15,M,,M,,*54
06/24/2015	07:02:14.530	$GPGGA,070215,2513.6993,N,08008.4944,W,1,9,1.7,15,M,,M,,*57
06/24/2015	07:02:15.558	$GPGGA,070216,2513.6985,N,08008.4946,W,1,9,1.7,15,M,,M,,*51
06/24/2015	07:02:16.522	$GPGGA,070217,2513.6978,N,08008.4950,W,1,9,1.7,15,M,,M,,*55
06/24/2015	07:02:17.529	$GPGGA,070218,2513.6969,N,08008.4953,W,1,9,1.7,15,M,,M,,*59
06/24/2015	07:02:18.518	$GPGGA,070219,2513.6961,N,08008.4952,W,1,9,1.7,15,M,,M,,*51
06/24/2015	07:02:19.568	$GPGGA,070220,2513.6953,N,08008.4953,W,1,9,1.7,15,M,,M,,*5B
06/24/2015	07:02:20.518	$GPGGA,070221,2513.6945,N,08008.4957,W,1,9,1.7,15,M,,M,,*59
06/24/2015	07:02:21.531	$GPGGA,070222,2513.6937,N,08008.4960,W,1,9,1.7,15,M,,M,,*5B
06/24/2015	07:02:22.521	$GPGGA,070223,2513.6929,N,08008.4959,W,1,9,1.7,15,M,,M,,*5F
06/24/2015	07:02:23.548	$GPGGA,070224,2513.6920,N,08008.4960,W,1,9,1.7,15,M,,M,,*5B
06/24/2015	07:02:24.498	$GPGGA,070225,2513.6913,N,08008.4965,W,1,9,1.7,15,M,,M,,*5F
06/24/2015	07:02:25.519	$GPGGA,070226,2513.6904,N,08008.4967,W,1,9,1.7,15,M,,M,,*58
06/24/2015	07:02:26.598	$GPGGA,070227,2513.6895,N,08008.4964,W,1,9,1.7,15,M,,M,,*53
06/24/2015	07:02:27.557	$GPGGA,070228,2513.6888,N,08008.4968,W,1,9,1.7,15,M,,M,,*5C
06/24/2015	07:02:28.530	$GPGGA,070229,2513.6879,N,08008.4971,W,1,9,1.7,15,M,,M,,*5B
06/24/2015	07:02:29.520	$GPGGA,070230,2513.6870,N,08008.4970,W,1,9,1.7,15,M,,M,,*5B
06/24/2015	07:02:30.508	$GPGGA,070231,2513.6862,N,08008.4971,W,1,9,1.7,15,M,,M,,*58
06/24/2015	07:02:31.558	$GPGGA,070232,2513.6855,N,08008.4975,W,1,9,1.7,15,M,,M,,*5B
06/24/2015	07:02:32.508	$GPGGA,070233,2513.6846,N,08008.4976,W,1,9,1.7,15,M,,M,,*5B
06/24/2015	07:02:33.488	$GPGGA,070234,2513.6837,N,08008.4975,W,1,9,1.7,15,M,,M,,*59
06/24/2015	07:02:34.508	$GPGGA,070235,2513.6830,N,08008.4978,W,1,9,1.7,15,M,,M,,*52
06/24/2015	07:02:35.520	$GPGGA,070236,2513.6823,N,08008.4982,W,1,9,1.7,15,M,,M,,*56
06/24/2015	07:02:36.488	$GPGGA,070237,2513.6814,N,08008.4980,W,1,9,1.7,15,M,,M,,*51
06/24/2015	07:02:37.498	$GPGGA,070238,2513.6805,N,08008.4980,W,1,9,1.7,14,M,,M,,*5F
06/24/2015	07:02:38.598	$GPGGA,070239,2513.6798,N,08008.4983,W,1,9,1.7,14,M,,M,,*56
06/24/2015	07:02:39.598	$GPGGA,070240,2513.6790,N,08008.4985,W,1,9,1.7,14,M,,M,,*56
06/24/2015	07:02:40.499	$GPGGA,070241,2513.6781,N,08008.4984,W,1,9,1.7,14,M,,M,,*56
06/24/2015	07:02:41.478	$GPGGA,070242,2513.6773,N,08008.4986,W,1,9,1.7,14,M,,M,,*5A
06/24/2015	07:02:42.578	$GPGGA,070243,2513.6765,N,08008.4985,W,1,9,1.7,14,M,,M,,*5F
06/24/2015	07:02:43.619	$GPGGA,070244,2513.6756,N,08008.4987,W,1,9,1.7,14,M,,M,,*5A
06/24/2015	07:02:44.487	$GPGGA,070245,2513.6747,N,08008.4987,W,1,9,1.7,14,M,,M,,*5B
06/24/2015	07:02:45.578	$GPGGA,070246,2513.6738,N,08008.4987,W,1,9,1.7,14,M,,M,,*50
06/24/2015	07:02:46.558	$GPGGA,070247,2513.6730,N,08008.4989,W,1,9,1.7,14,M,,M,,*57
06/24/2015	07:02:47.598	$GPGGA,070248,2513.6723,N,08008.4990,W,1,9,1.7,15,M,,M,,*53
06/24/2015	07:02:48.558	$GPGGA,070249,2513.6714,N,08008.4991,W,1,9,1.7,15,M,,M,,*57
06/24/2015	07:02:49.579	$GPGGA,070250,2513.6707,N,08008.4991,W,1,9,1.7,15,M,,M,,*5D
06/24/2015	07:02:50.558	$GPGGA,070251,2513.6698,N,08008.4993,W,1,9,1.7,15,M,,M,,*59
06/24/2015	07:02:51.588	$GPGGA,070252,2513.6690,N,08008.4996,W,1,9,1.7,15,M,,M,,*57
06/24/2015	07:02:52.548	$GPGGA,070253,2513.6682,N,08008.4995,W,1,9,1.7,15,M,,M,,*56
06/24/2015	07:02:53.568	$GPGGA,070254,2513.6674,N,08008.4996,W,1,9,1.7,15,M,,M,,*5B
06/24/2015	07:02:54.558	$GPGGA,070255,2513.6666,N,08008.4997,W,1,9,1.7,15,M,,M,,*58
06/24/2015	07:02:55.608	$GPGGA,070256,2513.6658,N,08008.5000,W,1,9,1.7,15,M,,M,,*50
06/24/2015	07:02:56.548	$GPGGA,070257,2513.6650,N,08008.5001,W,1,9,1.7,15,M,,M,,*58
06/24/2015	07:02:57.548	$GPGGA,070258,2513.6642,N,08008.5001,W,1,9,1.7,15,M,,M,,*54
06/24/2015	07:02:58.541	$GPGGA,070259,2513.6632,N,08008.5003,W,1,9,1.7,15,M,,M,,*50
06/24/2015	07:02:59.578	$GPGGA,070300,2513.6625,N,08008.5004,W,1,9,1.7,15,M,,M,,*5C
06/24/2015	07:03:00.541	$GPGGA,070301,2513.6617,N,08008.5007,W,1,9,1.7,15,M,,M,,*5F
06/24/2015	07:03:01.548	$GPGGA,070302,2513.6609,N,08008.5006,W,1,9,1.7,15,M,,M,,*52
06/24/2015	07:03:02.534	$GPGGA,070303,2513.6600,N,08008.5008,W,1,9,1.7,15,M,,M,,*54
06/24/2015	07:03:03.568	$GPGGA,070304,2513.6593,N,08008.5011,W,1,9,1.7,15,M,,M,,*52
06/24/2015	07:03:04.534	$GPGGA,070305,2513.6584,N,08008.5011,W,1,9,1.7,15,M,,M,,*55
06/24/2015	07:03:05.542	$GPGGA,070306,2513.6575,N,08008.5011,W,1,9,1.7,15,M,,M,,*58
06/24/2015	07:03:06.530	$GPGGA,070307,2513.6567,N,08008.5014,W,1,9,1.7,15,M,,M,,*5F
06/24/2015	07:03:07.578	$GPGGA,070308,2513.6560,N,08008.5016,W,1,9,1.8,15,M,,M,,*5A
06/24/2015	07:03:08.548	$GPGGA,070309,2513.6552,N,08008.5016,W,1,9,1.7,15,M,,M,,*55
06/24/2015	07:03:09.529	$GPGGA,070310,2513.6543,N,08008.5019,W,1,9,1.7,15,M,,M,,*52
06/24/2015	07:03:10.540	$GPGGA,070311,2513.6535,N,08008.5022,W,1,9,1.7,15,M,,M,,*5A
06/24/2015	07:03:11.558	$GPGGA,070312,2513.6526,N,08008.5022,W,1,9,1.7,15,M,,M,,*5B
06/24/2015	07:03:12.532	$GPGGA,070313,2513.6518,N,08008.5025,W,1,9,1.7,15,M,,M,,*50
06/24/2015	07:03:13.524	$GPGGA,070314,2513.6512,N,08008.5027,W,1,9,1.7,15,M,,M,,*5F
06/24/2015	07:03:14.619	$GPGGA,070315,2513.6502,N,08008.5029,W,1,9,1.7,15,M,,M,,*51
06/24/2015	07:03:15.638	$GPGGA,070316,2513.6494,N,08008.5029,W,1,9,1.6,15,M,,M,,*5D
06/24/2015	07:03:16.539	$GPGGA,070317,2513.6487,N,08008.5033,W,1,9,1.6,15,M,,M,,*55
06/24/2015	07:03:17.508	$GPGGA,070318,2513.6477,N,08008.5036,W,1,9,1.6,15,M,,M,,*50
06/24/2015	07:03:18.518	$GPGGA,070319,2513.6469,N,08008.5035,W,1,9,1.6,15,M,,M,,*5D
06/24/2015	07:03:19.597	$GPGGA,070320,2513.6460,N,08008.5037,W,1,9,1.6,15,M,,M,,*5C
06/24/2015	07:03:20.598	$GPGGA,070321,2513.6454,N,08008.5043,W,1,9,1.6,15,M,,M,,*59
06/24/2015	07:03:21.488	$GPGGA,070322,2513.6444,N,08008.5042,W,1,9,1.6,15,M,,M,,*5A
06/24/2015	07:03:22.498	$GPGGA,070323,2513.6436,N,08008.5043,W,1,9,1.6,15,M,,M,,*5F
06/24/2015	07:03:23.508	$GPGGA,070324,2513.6429,N,08008.5047,W,1,9,1.6,15,M,,M,,*52
06/24/2015	07:03:24.508	$GPGGA,070325,2513.6422,N,08008.5050,W,1,9,1.6,15,M,,M,,*5E
06/24/2015	07:03:25.622	$GPGGA,070326,2513.6412,N,08008.5048,W,1,9,1.6,15,M,,M,,*57
06/24/2015	07:03:26.488	$GPGGA,070327,2513.6404,N,08008.5052,W,1,9,1.6,15,M,,M,,*5A
06/24/2015	07:03:27.588	$GPGGA,070328,2513.6397,N,08008.5055,W,1,9,1.6,15,M,,M,,*5F
06/24/2015	07:03:28.498	$GPGGA,070329,2513.6389,N,08008.5056,W,1,9,1.6,15,M,,M,,*52
06/24/2015	07:03:29.608	$GPGGA,070330,2513.6380,N,08008.5058,W,1,9,1.6,15,M,,M,,*5D
06/24/2015	07:03:30.578	$GPGGA,070331,2513.6372,N,08008.5061,W,1,9,1.6,15,M,,M,,*5B
06/24/2015	07:03:31.621	$GPGGA,070332,2513.6364,N,08008.5061,W,1,9,1.6,15,M,,M,,*5F
06/24/2015	07:03:32.578	$GPGGA,070333,2513.6355,N,08008.5063,W,1,9,1.6,15,M,,M,,*5E
06/24/2015	07:03:33.478	$GPGGA,070334,2513.6347,N,08008.5066,W,1,9,1.6,15,M,,M,,*5F
06/24/2015	07:03:34.558	$GPGGA,070335,2513.6339,N,08008.5066,W,1,9,1.6,15,M,,M,,*57
06/24/2015	07:03:35.598	$GPGGA,070336,2513.6330,N,08008.5069,W,1,9,1.6,15,M,,M,,*52
06/24/2015	07:03:36.558	$GPGGA,070337,2513.6321,N,08008.5072,W,1,9,1.6,15,M,,M,,*59
06/24/2015	07:03:37.577	$GPGGA,070338,2513.6313,N,08008.5072,W,1,9,1.6,15,M,,M,,*57
06/24/2015	07:03:38.548	$GPGGA,070339,2513.6306,N,08008.5073,W,1,9,1.6,15,M,,M,,*53
06/24/2015	07:03:39.588	$GPGGA,070340,2513.6296,N,08008.5076,W,1,9,1.6,15,M,,M,,*50
06/24/2015	07:03:40.558	$GPGGA,070341,2513.6288,N,08008.5079,W,1,9,1.6,15,M,,M,,*51
06/24/2015	07:03:41.568	$GPGGA,070342,2513.6279,N,08008.5079,W,1,9,1.6,15,M,,M,,*5C
06/24/2015	07:03:42.558	$GPGGA,070343,2513.6271,N,08008.5079,W,1,9,1.6,15,M,,M,,*55
06/24/2015	07:03:43.578	$GPGGA,070344,2513.6263,N,08008.5083,W,1,9,1.6,15,M,,M,,*54
06/24/2015	07:03:44.548	$GPGGA,070345,2513.6254,N,08008.5084,W,1,9,1.6,15,M,,M,,*56
06/24/2015	07:03:45.558	$GPGGA,070346,2513.6245,N,08008.5084,W,1,9,1.6,15,M,,M,,*55
06/24/2015	07:03:46.538	$GPGGA,070347,2513.6236,N,08008.5084,W,1,9,1.6,15,M,,M,,*50
06/24/2015	07:03:47.568	$GPGGA,070348,2513.6228,N,08008.5087,W,1,9,1.6,15,M,,M,,*53
06/24/2015	07:03:48.531	$GPGGA,070349,2513.6219,N,08008.5090,W,1,9,1.6,15,M,,M,,*56
06/24/2015	07:03:49.551	$GPGGA,070350,2513.6210,N,08008.5089,W,1,9,1.6,15,M,,M,,*5F
06/24/2015	07:03:50.539	$GPGGA,070351,2513.6202,N,08008.5090,W,1,9,1.6,15,M,,M,,*55
06/24/2015	07:03:51.539	$GPGGA,070352,2513.6194,N,08008.5094,W,1,9,1.6,15,M,,M,,*5E
06/24/2015	07:03:52.523	$GPGGA,070353,2513.6185,N,08008.5093,W,1,9,1.6,15,M,,M,,*58
06/24/2015	07:03:53.533	$GPGGA,070354,2513.6176,N,08008.5094,W,1,9,1.6,15,M,,M,,*54
06/24/2015	07:03:54.534	$GPGGA,070355,2513.6169,N,08008.5095,W,1,9,1.6,15,M,,M,,*5A
06/24/2015	07:03:55.539	$GPGGA,070356,2513.6160,N,08008.5098,W,1,9,1.6,15,M,,M,,*5D
06/24/2015	07:03:56.543	$GPGGA,070357,2513.6151,N,08008.5097,W,1,9,1.6,15,M,,M,,*51
06/24/2015	07:03:57.540	$GPGGA,070358,2513.6143,N,08008.5098,W,1,9,1.6,15,M,,M,,*52
06/24/2015	07:03:58.508	$GPGGA,070359,2513.6134,N,08008.5103,W,1,9,1.6,15,M,,M,,*50
06/24/2015	07:03:59.540	$GPGGA,070400,2513.6125,N,08008.5103,W,1,9,1.6,15,M,,M,,*5B
06/24/2015	07:04:00.523	$GPGGA,070401,2513.6117,N,08008.5102,W,1,9,1.6,15,M,,M,,*5A
06/24/2015	07:04:01.498	$GPGGA,070402,2513.6109,N,08008.5106,W,1,9,1.6,15,M,,M,,*52
06/24/2015	07:04:02.626	$GPGGA,070403,2513.6100,N,08008.5108,W,1,9,1.6,15,M,,M,,*54
06/24/2015	07:04:03.648	$GPGGA,070404,2513.6093,N,08008.5107,W,1,9,1.6,15,M,,M,,*57
06/24/2015	07:04:04.621	$GPGGA,070405,2513.6084,N,08008.5109,W,1,9,1.6,15,M,,M,,*5E
06/24/2015	07:04:05.546	$GPGGA,070406,2513.6076,N,08008.5112,W,1,9,1.6,15,M,,M,,*5A
06/24/2015	07:04:06.498	$GPGGA,070407,2513.6068,N,08008.5111,W,1,9,1.6,15,M,,M,,*57
06/24/2015	07:04:07.632	$GPGGA,070408,2513.6060,N,08008.5113,W,1,9,1.6,14,M,,M,,*53
06/24/2015	07:04:08.508	$GPGGA,070409,2513.6051,N,08008.5116,W,1,9,1.6,14,M,,M,,*55
06/24/2015	07:04:09.588	$GPGGA,070410,2513.6043,N,08008.5114,W,1,9,1.6,14,M,,M,,*5C
06/24/2015	07:04:10.488	$GPGGA,070411,2513.6035,N,08008.5116,W,1,9,1.6,14,M,,M,,*5E
06/24/2015	07:04:11.530	$GPGGA,070412,2513.6026,N,08008.5120,W,1,9,1.6,14,M,,M,,*5A
06/24/2015	07:04:12.487	$GPGGA,070413,2513.6019,N,08008.5121,W,1,9,1.6,14,M,,M,,*56
06/24/2015	07:04:13.578	$GPGGA,070414,2513.6010,N,08008.5120,W,1,9,1.6,14,M,,M,,*59
06/24/2015	07:04:14.498	$GPGGA,070415,2513.6003,N,08008.5123,W,1,9,1.6,14,M,,M,,*59
06/24/2015	07:04:15.598	$GPGGA,070416,2513.5994,N,08008.5126,W,1,9,1.6,14,M,,M,,*5B
06/24/2015	07:04:16.498	$GPGGA,070417,2513.5985,N,08008.5127,W,1,9,1.6,14,M,,M,,*5B
06/24/2015	07:04:17.608	$GPGGA,070418,2513.5977,N,08008.5128,W,1,9,1.6,14,M,,M,,*56
06/24/2015	07:04:18.579	$GPGGA,070419,2513.5970,N,08008.5131,W,1,9,1.6,14,M,,M,,*58
06/24/2015	07:04:19.578	$GPGGA,070420,2513.5960,N,08008.5134,W,1,9,1.6,14,M,,M,,*56
06/24/2015	07:04:20.578	$GPGGA,070421,2513.5952,N,08008.5137,W,1,9,1.6,14,M,,M,,*55
06/24/2015	07:04:21.598	$GPGGA,070422,2513.5945,N,08008.5136,W,1,9,1.6,14,M,,M,,*51
06/24/2015	07:04:22.568	$GPGGA,070423,2513.5935,N,08008.5137,W,1,9,1.6,14,M,,M,,*56
06/24/2015	07:04:23.588	$GPGGA,070424,2513.5928,N,08008.5142,W,1,9,1.6,14,M,,M,,*5F
06/24/2015	07:04:24.568	$GPGGA,070425,2513.5920,N,08008.5145,W,1,9,1.6,14,M,,M,,*51
06/24/2015	07:04:25.558	$GPGGA,070426,2513.5911,N,08008.5143,W,1,9,1.6,14,M,,M,,*56
06/24/2015	07:04:26.568	$GPGGA,070427,2513.5903,N,08008.5146,W,1,9,1.6,14,M,,M,,*51
06/24/2015	07:04:27.568	$GPGGA,070428,2513.5895,N,08008.5149,W,1,9,1.6,14,M,,M,,*5F
06/24/2015	07:04:28.558	$GPGGA,070429,2513.5887,N,08008.5150,W,1,9,1.6,14,M,,M,,*55
06/24/2015	07:04:29.547	$GPGGA,070430,2513.5877,N,08008.5152,W,1,9,1.6,14,M,,M,,*50
06/24/2015	07:04:30.568	$GPGGA,070431,2513.5869,N,08008.5155,W,1,9,1.6,14,M,,M,,*59
06/24/2015	07:04:31.578	$GPGGA,070432,2513.5862,N,08008.5156,W,1,9,1.6,14,M,,M,,*52
06/24/2015	07:04:32.548	$GPGGA,070433,2513.5852,N,08008.5156,W,1,9,1.6,14,M,,M,,*50
06/24/2015	07:04:33.558	$GPGGA,070434,2513.5844,N,08008.5159,W,1,9,1.6,14,M,,M,,*5F
06/24/2015	07:04:34.548	$GPGGA,070435,2513.5836,N,08008.5160,W,1,9,1.6,14,M,,M,,*51
06/24/2015	07:04:35.568	$GPGGA,070436,2513.5829,N,08008.5162,W,1,9,1.6,14,M,,M,,*5E
06/24/2015	07:04:36.538	$GPGGA,070437,2513.5819,N,08008.5163,W,1,9,1.6,14,M,,M,,*5D
06/24/2015	07:04:37.558	$GPGGA,070438,2513.5811,N,08008.5163,W,1,9,1.6,14,M,,M,,*5A
06/24/2015	07:04:38.530	$GPGGA,070439,2513.5804,N,08008.5166,W,1,9,1.6,14,M,,M,,*5A
06/24/2015	07:04:39.569	$GPGGA,070440,2513.5795,N,08008.5167,W,1,9,1.6,14,M,,M,,*52
06/24/2015	07:04:40.531	$GPGGA,070441,2513.5786,N,08008.5167,W,1,9,1.6,14,M,,M,,*51
06/24/2015	07:04:41.839	$GPGGA,070442,2513.5779,N,08008.5170,W,1,9,1.6,14,M,,M,,*54
06/24/2015	07:04:43.610	$GPGGA,070444,2513.5761,N,08008.5173,W,1,9,1.6,14,M,,M,,*58
06/24/2015	07:04:44.524	$GPGGA,070445,2513.5753,N,08008.5174,W,1,9,1.6,14,M,,M,,*5F
06/24/2015	07:04:45.518	$GPGGA,070446,2513.5744,N,08008.5175,W,1,9,1.6,14,M,,M,,*5B
06/24/2015	07:04:46.531	$GPGGA,070447,2513.5735,N,08008.5177,W,1,9,1.6,14,M,,M,,*5E
06/24/2015	07:04:47.557	$GPGGA,070448,2513.5728,N,08008.5178,W,1,9,1.6,14,M,,M,,*52
06/24/2015	07:04:48.518	$GPGGA,070449,2513.5718,N,08008.5180,W,1,9,1.6,14,M,,M,,*57
06/24/2015	07:04:49.533	$GPGGA,070450,2513.5710,N,08008.5181,W,1,9,1.6,14,M,,M,,*56
06/24/2015	07:04:50.522	$GPGGA,070451,2513.5701,N,08008.5184,W,1,9,1.6,14,M,,M,,*52
06/24/2015	07:04:51.519	$GPGGA,070452,2513.5692,N,08008.5183,W,1,9,1.6,14,M,,M,,*5D
06/24/2015	07:04:52.508	$GPGGA,070453,2513.5685,N,08008.5186,W,1,9,1.6,14,M,,M,,*5F
06/24/2015	07:04:53.532	$GPGGA,070454,2513.5675,N,08008.5188,W,1,9,1.6,13,M,,M,,*5E
06/24/2015	07:04:54.631	$GPGGA,070455,2513.5667,N,08008.5188,W,1,9,1.6,13,M,,M,,*5C
06/24/2015	07:04:55.630	$GPGGA,070456,2513.5659,N,08008.5192,W,1,9,1.6,13,M,,M,,*59
06/24/2015	07:04:56.608	$GPGGA,070457,2513.5650,N,08008.5193,W,1,9,1.6,13,M,,M,,*50
06/24/2015	07:04:57.608	$GPGGA,070458,2513.5641,N,08008.5195,W,1,9,1.6,13,M,,M,,*59
06/24/2015	07:04:58.508	$GPGGA,070459,2513.5634,N,08008.5199,W,1,9,1.6,13,M,,M,,*56
06/24/2015	07:04:59.548	$GPGGA,070500,2513.5625,N,08008.5198,W,1,9,1.6,13,M,,M,,*5A
06/24/2015	07:05:00.508	$GPGGA,070501,2513.5617,N,08008.5199,W,1,9,1.6,13,M,,M,,*5B
06/24/2015	07:05:01.608	$GPGGA,070502,2513.5609,N,08008.5203,W,1,9,1.6,13,M,,M,,*57
06/24/2015	07:05:02.578	$GPGGA,070503,2513.5602,N,08008.5206,W,1,9,1.6,13,M,,M,,*58
06/24/2015	07:05:03.508	$GPGGA,070504,2513.5592,N,08008.5205,W,1,9,1.6,13,M,,M,,*56
06/24/2015	07:05:04.477	$GPGGA,070505,2513.5583,N,08008.5207,W,1,9,1.6,13,M,,M,,*55
06/24/2015	07:05:05.588	$GPGGA,070506,2513.5575,N,08008.5210,W,1,9,1.6,13,M,,M,,*59
06/24/2015	07:05:06.488	$GPGGA,070507,2513.5567,N,08008.5211,W,1,9,1.6,13,M,,M,,*5A
06/24/2015	07:05:07.588	$GPGGA,070508,2513.5558,N,08008.5213,W,1,9,1.6,13,M,,M,,*5B
06/24/2015	07:05:08.478	$GPGGA,070509,2513.5551,N,08008.5213,W,1,9,1.6,13,M,,M,,*53
06/24/2015	07:05:09.468	$GPGGA,070510,2513.5542,N,08008.5215,W,1,9,1.6,13,M,,M,,*5F
06/24/2015	07:05:10.578	$GPGGA,070511,2513.5533,N,08008.5217,W,1,9,1.6,13,M,,M,,*5A
06/24/2015	07:05:11.608	$GPGGA,070512,2513.5526,N,08008.5218,W,1,9,1.6,13,M,,M,,*52
06/24/2015	07:05:12.558	$GPGGA,070513,2513.5518,N,08008.5221,W,1,9,1.6,13,M,,M,,*54
06/24/2015	07:05:13.588	$GPGGA,070514,2513.5509,N,08008.5221,W,1,9,1.6,13,M,,M,,*53
06/24/2015	07:05:14.568	$GPGGA,070515,2513.5501,N,08008.5222,W,1,9,1.6,13,M,,M,,*59
06/24/2015	07:05:15.568	$GPGGA,070516,2513.5493,N,08008.5227,W,1,9,1.6,13,M,,M,,*55
06/24/2015	07:05:16.548	$GPGGA,070517,2513.5486,N,08008.5228,W,1,9,1.6,12,M,,M,,*5E
06/24/2015	07:05:17.568	$GPGGA,070518,2513.5476,N,08008.5227,W,1,9,1.6,12,M,,M,,*51
06/24/2015	07:05:18.568	$GPGGA,070519,2513.5468,N,08008.5229,W,1,9,1.6,12,M,,M,,*51
06/24/2015	07:05:19.578	$GPGGA,070520,2513.5459,N,08008.5232,W,1,8,1.7,12,M,,M,,*53
06/24/2015	07:05:20.548	$GPGGA,070521,2513.5450,N,08008.5231,W,1,8,1.6,12,M,,M,,*59
06/24/2015	07:05:21.557	$GPGGA,070522,2513.5441,N,08008.5231,W,1,9,1.6,12,M,,M,,*5B
06/24/2015	07:05:22.547	$GPGGA,070523,2513.5432,N,08008.5232,W,1,9,1.6,12,M,,M,,*5D
06/24/2015	07:05:23.568	$GPGGA,070524,2513.5423,N,08008.5235,W,1,9,1.6,12,M,,M,,*5D
06/24/2015	07:05:24.532	$GPGGA,070525,2513.5414,N,08008.5233,W,1,9,1.6,12,M,,M,,*5E
06/24/2015	07:05:25.558	$GPGGA,070526,2513.5405,N,08008.5233,W,1,9,1.6,12,M,,M,,*5D
06/24/2015	07:05:26.532	$GPGGA,070527,2513.5398,N,08008.5238,W,1,9,1.6,12,M,,M,,*54
06/24/2015	07:05:27.578	$GPGGA,070528,2513.5389,N,08008.5238,W,1,9,1.6,12,M,,M,,*5B
06/24/2015	07:05:28.548	$GPGGA,070529,2513.5380,N,08008.5237,W,1,9,1.6,12,M,,M,,*5C
06/24/2015	07:05:29.519	$GPGGA,070530,2513.5372,N,08008.5242,W,1,8,1.7,12,M,,M,,*5B
06/24/2015	07:05:30.533	$GPGGA,070531,2513.5364,N,08008.5246,W,1,8,1.6,12,M,,M,,*58
06/24/2015	07:05:31.568	$GPGGA,070532,2513.5354,N,08008.5242,W,1,9,1.6,12,M,,M,,*5D
06/24/2015	07:05:32.529	$GPGGA,070533,2513.5347,N,08008.5245,W,1,9,1.6,12,M,,M,,*59
06/24/2015	07:05:34.558	$GPGGA,070535,2513.5331,N,08008.5249,W,1,9,1.6,12,M,,M,,*52
06/24/2015	07:05:35.558	$GPGGA,070536,2513.5322,N,08008.5248,W,1,9,1.6,12,M,,M,,*52
06/24/2015	07:05:36.531	$GPGGA,070537,2513.5314,N,08008.5251,W,1,9,1.6,12,M,,M,,*5E
06/24/2015	07:05:37.508	$GPGGA,070538,2513.5306,N,08008.5256,W,1,9,1.6,12,M,,M,,*55
06/24/2015	07:05:38.678	$GPGGA,070539,2513.5298,N,08008.5255,W,1,9,1.6,12,M,,M,,*51
06/24/2015	07:05:39.677	$GPGGA,070540,2513.5289,N,08008.5254,W,1,9,1.6,12,M,,M,,*5E
06/24/2015	07:05:40.508	$GPGGA,070541,2513.5281,N,08008.5258,W,1,9,1.6,12,M,,M,,*5B
06/24/2015	07:05:42.498	$GPGGA,070542,2513.5274,N,08008.5261,W,1,9,1.6,12,M,,M,,*58
06/24/2015	07:05:42.529	$GPGGA,070543,2513.5266,N,08008.5260,W,1,9,1.6,12,M,,M,,*5B
06/24/2015	07:05:43.531	$GPGGA,070544,2513.5257,N,08008.5262,W,1,9,1.6,12,M,,M,,*5C
06/24/2015	07:05:44.598	$GPGGA,070545,2513.5251,N,08008.5267,W,1,9,1.6,12,M,,M,,*5E
06/24/2015	07:05:45.520	$GPGGA,070546,2513.5242,N,08008.5267,W,1,9,1.6,12,M,,M,,*5F
06/24/2015	07:05:46.488	$GPGGA,070547,2513.5233,N,08008.5266,W,1,9,1.6,12,M,,M,,*59
06/24/2015	07:05:47.668	$GPGGA,070548,2513.5226,N,08008.5269,W,1,9,1.6,12,M,,M,,*5D
06/24/2015	07:05:48.498	$GPGGA,070549,2513.5219,N,08008.5272,W,1,9,1.6,12,M,,M,,*5A
06/24/2015	07:05:49.522	$GPGGA,070550,2513.5210,N,08008.5271,W,1,9,1.6,12,M,,M,,*58
06/24/2015	07:05:50.498	$GPGGA,070551,2513.5202,N,08008.5274,W,1,9,1.6,13,M,,M,,*5E
06/24/2015	07:05:51.508	$GPGGA,070552,2513.5194,N,08008.5278,W,1,9,1.6,13,M,,M,,*5D
06/24/2015	07:05:52.498	$GPGGA,070553,2513.5186,N,08008.5276,W,1,9,1.6,13,M,,M,,*51
06/24/2015	07:05:53.628	$GPGGA,070554,2513.5179,N,08008.5278,W,1,9,1.6,13,M,,M,,*58
06/24/2015	07:05:54.488	$GPGGA,070555,2513.5170,N,08008.5282,W,1,9,1.6,13,M,,M,,*55
06/24/2015	07:05:55.658	$GPGGA,070556,2513.5161,N,08008.5280,W,1,8,1.6,13,M,,M,,*55
06/24/2015	07:05:56.647	$GPGGA,070557,2513.5154,N,08008.5282,W,1,8,1.6,13,M,,M,,*50
06/24/2015	07:05:57.617	$GPGGA,070558,2513.5145,N,08008.5285,W,1,9,1.6,13,M,,M,,*59
06/24/2015	07:05:58.568	$GPGGA,070559,2513.5139,N,08008.5285,W,1,9,1.6,13,M,,M,,*53
06/24/2015	07:05:59.658	$GPGGA,070600,2513.5129,N,08008.5285,W,1,9,1.6,13,M,,M,,*5D
06/24/2015	07:06:00.638	$GPGGA,070601,2513.5121,N,08008.5287,W,1,9,1.6,13,M,,M,,*56
06/24/2015	07:06:01.628	$GPGGA,070602,2513.5114,N,08008.5292,W,1,9,1.6,13,M,,M,,*57
06/24/2015	07:06:02.558	$GPGGA,070603,2513.5107,N,08008.5291,W,1,9,1.6,13,M,,M,,*57
06/24/2015	07:06:03.628	$GPGGA,070604,2513.5096,N,08008.5292,W,1,9,1.6,13,M,,M,,*5A
06/24/2015	07:06:04.628	$GPGGA,070605,2513.5090,N,08008.5296,W,1,9,1.6,13,M,,M,,*59
06/24/2015	07:06:05.548	$GPGGA,070606,2513.5083,N,08008.5297,W,1,9,1.6,13,M,,M,,*59
06/24/2015	07:06:06.638	$GPGGA,070607,2513.5074,N,08008.5297,W,1,9,1.6,13,M,,M,,*50
06/24/2015	07:06:07.648	$GPGGA,070608,2513.5067,N,08008.5298,W,1,9,1.6,13,M,,M,,*52
06/24/2015	07:06:08.608	$GPGGA,070609,2513.5060,N,08008.5303,W,1,9,1.6,14,M,,M,,*50
06/24/2015	07:06:09.588	$GPGGA,070610,2513.5051,N,08008.5302,W,1,9,1.6,14,M,,M,,*5B
06/24/2015	07:06:10.538	$GPGGA,070611,2513.5044,N,08008.5303,W,1,9,1.6,14,M,,M,,*5F
06/24/2015	07:06:11.598	$GPGGA,070612,2513.5038,N,08008.5307,W,1,9,1.6,14,M,,M,,*53
06/24/2015	07:06:12.538	$GPGGA,070613,2513.5031,N,08008.5308,W,1,9,1.6,14,M,,M,,*54
06/24/2015	07:06:13.578	$GPGGA,070614,2513.5022,N,08008.5308,W,1,9,1.6,14,M,,M,,*51
06/24/2015	07:06:14.618	$GPGGA,070615,2513.5015,N,08008.5311,W,1,9,1.6,14,M,,M,,*5C
06/24/2015	07:06:15.539	$GPGGA,070616,2513.5007,N,08008.5312,W,1,9,1.6,14,M,,M,,*5F
06/24/2015	07:06:16.588	$GPGGA,070617,2513.5000,N,08008.5314,W,1,9,1.6,14,M,,M,,*5F
06/24/2015	07:06:17.578	$GPGGA,070618,2513.4992,N,08008.5316,W,1,9,1.6,14,M,,M,,*51
06/24/2015	07:06:18.520	$GPGGA,070619,2513.4985,N,08008.5318,W,1,9,1.6,14,M,,M,,*58
06/24/2015	07:06:19.638	$GPGGA,070620,2513.4977,N,08008.5319,W,1,9,1.6,14,M,,M,,*5E
06/24/2015	07:06:20.522	$GPGGA,070621,2513.4970,N,08008.5323,W,1,9,1.6,14,M,,M,,*51
06/24/2015	07:06:21.538	$GPGGA,070622,2513.4962,N,08008.5325,W,1,9,1.6,14,M,,M,,*57
06/24/2015	07:06:22.578	$GPGGA,070623,2513.4955,N,08008.5325,W,1,9,1.6,14,M,,M,,*52
06/24/2015	07:06:23.588	$GPGGA,070624,2513.4948,N,08008.5329,W,1,9,1.6,14,M,,M,,*55
06/24/2015	07:06:24.578	$GPGGA,070625,2513.4939,N,08008.5332,W,1,9,1.6,14,M,,M,,*58
06/24/2015	07:06:25.508	$GPGGA,070626,2513.4932,N,08008.5331,W,1,9,1.6,14,M,,M,,*53
06/24/2015	07:06:26.568	$GPGGA,070627,2513.4926,N,08008.5336,W,1,9,1.6,14,M,,M,,*50
06/24/2015	07:06:27.578	$GPGGA,070628,2513.4919,N,08008.5340,W,1,9,1.6,14,M,,M,,*52
06/24/2015	07:06:28.568	$GPGGA,070629,2513.4911,N,08008.5339,W,1,9,1.6,14,M,,M,,*55
06/24/2015	07:06:29.548	$GPGGA,070630,2513.4904,N,08008.5341,W,1,9,1.6,14,M,,M,,*56
06/24/2015	07:06:30.558	$GPGGA,070631,2513.4897,N,08008.5344,W,1,9,1.6,14,M,,M,,*59
06/24/2015	07:06:31.567	$GPGGA,070632,2513.4890,N,08008.5344,W,1,9,1.6,14,M,,M,,*5D
06/24/2015	07:06:32.597	$GPGGA,070633,2513.4881,N,08008.5347,W,1,9,1.6,14,M,,M,,*5F
06/24/2015	07:06:33.535	$GPGGA,070634,2513.4874,N,08008.5350,W,1,9,1.6,14,M,,M,,*54
06/24/2015	07:06:34.558	$GPGGA,070635,2513.4866,N,08008.5350,W,1,9,1.6,14,M,,M,,*56
06/24/2015	07:06:35.568	$GPGGA,070636,2513.4858,N,08008.5351,W,1,9,1.6,14,M,,M,,*59
06/24/2015	07:06:36.558	$GPGGA,070637,2513.4851,N,08008.5354,W,1,9,1.6,14,M,,M,,*54
06/24/2015	07:06:37.488	$GPGGA,070638,2513.4843,N,08008.5358,W,1,9,1.6,14,M,,M,,*54
06/24/2015	07:06:38.608	$GPGGA,070639,2513.4836,N,08008.5356,W,1,9,1.6,14,M,,M,,*59
06/24/2015	07:06:39.598	$GPGGA,070640,2513.4827,N,08008.5358,W,1,9,1.6,14,M,,M,,*59
06/24/2015	07:06:40.541	$GPGGA,070641,2513.4819,N,08008.5361,W,1,9,1.6,14,M,,M,,*5F
06/24/2015	07:06:41.540	$GPGGA,070642,2513.4812,N,08008.5362,W,1,9,1.6,14,M,,M,,*54
06/24/2015	07:06:42.578	$GPGGA,070643,2513.4803,N,08008.5362,W,1,9,1.6,14,M,,M,,*55
06/24/2015	07:06:43.588	$GPGGA,070644,2513.4796,N,08008.5363,W,1,9,1.6,14,M,,M,,*50
06/24/2015	07:06:44.539	$GPGGA,070645,2513.4789,N,08008.5365,W,1,9,1.6,14,M,,M,,*59
06/24/2015	07:06:45.578	$GPGGA,070646,2513.4780,N,08008.5366,W,1,9,1.6,14,M,,M,,*50
06/24/2015	07:06:46.578	$GPGGA,070647,2513.4772,N,08008.5368,W,1,9,1.6,14,M,,M,,*52
06/24/2015	07:06:47.578	$GPGGA,070648,2513.4763,N,08008.5368,W,1,9,1.6,14,M,,M,,*5D
06/24/2015	07:06:48.568	$GPGGA,070649,2513.4754,N,08008.5370,W,1,9,1.6,14,M,,M,,*51
06/24/2015	07:06:49.557	$GPGGA,070650,2513.4746,N,08008.5372,W,1,9,1.6,14,M,,M,,*58
06/24/2015	07:06:50.578	$GPGGA,070651,2513.4738,N,08008.5373,W,1,9,1.6,14,M,,M,,*51
06/24/2015	07:06:51.588	$GPGGA,070652,2513.4731,N,08008.5374,W,1,9,1.6,14,M,,M,,*5C
06/24/2015	07:06:52.548	$GPGGA,070653,2513.4722,N,08008.5376,W,1,9,1.6,14,M,,M,,*5D
06/24/2015	07:06:53.548	$GPGGA,070654,2513.4714,N,08008.5376,W,1,9,1.6,14,M,,M,,*5F
06/24/2015	07:06:54.558	$GPGGA,070655,2513.4714,N,08008.5376,W,1,9,1.6,14,M,,M,,*5E
06/24/2015	07:06:55.588	$GPGGA,070656,2513.4697,N,08008.5380,W,1,9,1.6,14,M,,M,,*5E
06/24/2015	07:06:56.568	$GPGGA,070657,2513.4689,N,08008.5380,W,1,9,1.6,14,M,,M,,*50
06/24/2015	07:06:57.568	$GPGGA,070658,2513.4680,N,08008.5383,W,1,9,1.6,14,M,,M,,*55
06/24/2015	07:06:58.548	$GPGGA,070659,2513.4680,N,08008.5383,W,1,9,1.6,14,M,,M,,*54
06/24/2015	07:06:59.588	$GPGGA,070700,2513.4663,N,08008.5382,W,1,9,1.6,14,M,,M,,*55
06/24/2015	07:07:00.578	$GPGGA,070701,2513.4655,N,08008.5386,W,1,9,1.6,14,M,,M,,*55
06/24/2015	07:07:01.578	$GPGGA,070702,2513.4648,N,08008.5390,W,1,9,1.6,14,M,,M,,*5D
06/24/2015	07:07:02.548	$GPGGA,070703,2513.4638,N,08008.5387,W,1,9,1.6,14,M,,M,,*5D
06/24/2015	07:07:03.598	$GPGGA,070704,2513.4630,N,08008.5387,W,1,9,1.6,14,M,,M,,*52
06/24/2015	07:07:04.548	$GPGGA,070705,2513.4622,N,08008.5392,W,1,9,1.6,14,M,,M,,*54
06/24/2015	07:07:05.558	$GPGGA,070706,2513.4615,N,08008.5394,W,1,9,1.6,13,M,,M,,*52
06/24/2015	07:07:06.987	$GPGGA,070707,2513.4606,N,08008.5392,W,1,9,1.6,13,M,,M,,*57
06/24/2015	07:07:07.577	$GPGGA,070708,2513.4597,N,08008.5394,W,1,9,1.6,13,M,,M,,*55
06/24/2015	07:07:08.539	$GPGGA,070709,2513.4597,N,08008.5394,W,1,9,1.6,13,M,,M,,*54
06/24/2015	07:07:09.558	$GPGGA,070710,2513.4583,N,08008.5399,W,1,9,1.6,13,M,,M,,*54
06/24/2015	07:07:10.578	$GPGGA,070711,2513.4574,N,08008.5397,W,1,9,1.6,13,M,,M,,*53
06/24/2015	07:07:11.568	$GPGGA,070712,2513.4566,N,08008.5401,W,1,9,1.6,13,M,,M,,*5B
06/24/2015	07:07:12.538	$GPGGA,070713,2513.4566,N,08008.5401,W,1,9,1.6,13,M,,M,,*5A
06/24/2015	07:07:13.538	$GPGGA,070714,2513.4550,N,08008.5403,W,1,9,1.6,13,M,,M,,*5A
06/24/2015	07:07:14.548	$GPGGA,070715,2513.4543,N,08008.5405,W,1,9,1.6,13,M,,M,,*5F
06/24/2015	07:07:15.529	$GPGGA,070716,2513.4536,N,08008.5408,W,1,9,1.6,13,M,,M,,*53
06/24/2015	07:07:16.538	$GPGGA,070717,2513.4536,N,08008.5408,W,1,9,1.6,13,M,,M,,*52
06/24/2015	07:07:17.524	$GPGGA,070718,2513.4518,N,08008.5408,W,1,9,1.6,13,M,,M,,*51
06/24/2015	07:07:18.598	$GPGGA,070719,2513.4511,N,08008.5412,W,1,9,1.6,13,M,,M,,*52
06/24/2015	07:07:19.535	$GPGGA,070720,2513.4502,N,08008.5412,W,1,9,1.6,13,M,,M,,*5A
06/24/2015	07:07:20.548	$GPGGA,070721,2513.4496,N,08008.5413,W,1,9,1.6,13,M,,M,,*56
06/24/2015	07:07:21.508	$GPGGA,070722,2513.4487,N,08008.5416,W,1,9,1.6,13,M,,M,,*50
06/24/2015	07:07:22.508	$GPGGA,070723,2513.4478,N,08008.5417,W,1,9,1.6,13,M,,M,,*50
06/24/2015	07:07:23.538	$GPGGA,070724,2513.4471,N,08008.5419,W,1,9,1.6,13,M,,M,,*50
06/24/2015	07:07:24.587	$GPGGA,070725,2513.4464,N,08008.5421,W,1,9,1.6,13,M,,M,,*5E
06/24/2015	07:07:25.618	$GPGGA,070726,2513.4455,N,08008.5424,W,1,9,1.6,13,M,,M,,*5A
06/24/2015	07:07:26.508	$GPGGA,070727,2513.4455,N,08008.5424,W,1,9,1.6,13,M,,M,,*5B
06/24/2015	07:07:27.508	$GPGGA,070728,2513.4438,N,08008.5426,W,1,9,1.6,13,M,,M,,*5D
06/24/2015	07:07:28.499	$GPGGA,070729,2513.4438,N,08008.5426,W,1,9,1.6,13,M,,M,,*5C
06/24/2015	07:07:29.578	$GPGGA,070730,2513.4424,N,08008.5430,W,1,9,1.6,13,M,,M,,*5E
06/24/2015	07:07:30.578	$GPGGA,070731,2513.4414,N,08008.5430,W,1,9,1.6,13,M,,M,,*5C
06/24/2015	07:07:31.498	$GPGGA,070732,2513.4406,N,08008.5434,W,1,9,1.6,13,M,,M,,*58
06/24/2015	07:07:32.579	$GPGGA,070733,2513.4399,N,08008.5438,W,1,9,1.6,13,M,,M,,*54
06/24/2015	07:07:33.578	$GPGGA,070734,2513.4390,N,08008.5437,W,1,9,1.6,13,M,,M,,*55
06/24/2015	07:07:34.568	$GPGGA,070735,2513.4382,N,08008.5438,W,1,9,1.6,13,M,,M,,*58
06/24/2015	07:07:35.608	$GPGGA,070736,2513.4375,N,08008.5444,W,1,9,1.6,13,M,,M,,*58
06/24/2015	07:07:36.568	$GPGGA,070737,2513.4367,N,08008.5445,W,1,9,1.6,13,M,,M,,*5B
06/24/2015	07:07:37.598	$GPGGA,070738,2513.4359,N,08008.5444,W,1,9,1.6,13,M,,M,,*58
06/24/2015	07:07:38.558	$GPGGA,070739,2513.4352,N,08008.5448,W,1,9,1.6,13,M,,M,,*5E
06/24/2015	07:07:39.588	$GPGGA,070740,2513.4344,N,08008.5452,W,1,9,1.6,13,M,,M,,*5C
06/24/2015	07:07:40.548	$GPGGA,070741,2513.4335,N,08008.5451,W,1,9,1.6,13,M,,M,,*58
06/24/2015	07:07:41.577	$GPGGA,070742,2513.4328,N,08008.5453,W,1,9,1.6,13,M,,M,,*55
06/24/2015	07:07:42.547	$GPGGA,070743,2513.4321,N,08008.5457,W,1,9,1.6,13,M,,M,,*59
06/24/2015	07:07:43.568	$GPGGA,070744,2513.4312,N,08008.5459,W,1,9,1.6,13,M,,M,,*50
06/24/2015	07:07:44.558	$GPGGA,070745,2513.4305,N,08008.5459,W,1,9,1.6,13,M,,M,,*57
06/24/2015	07:07:45.568	$GPGGA,070746,2513.4297,N,08008.5462,W,1,9,1.6,13,M,,M,,*56
06/24/2015	07:07:46.558	$GPGGA,070747,2513.4290,N,08008.5464,W,1,9,1.6,13,M,,M,,*56
06/24/2015	07:07:47.588	$GPGGA,070748,2513.4281,N,08008.5466,W,1,9,1.6,13,M,,M,,*5B
06/24/2015	07:07:48.548	$GPGGA,070749,2513.4274,N,08008.5467,W,1,9,1.6,13,M,,M,,*51
06/24/2015	07:07:49.548	$GPGGA,070750,2513.4267,N,08008.5470,W,1,9,1.6,13,M,,M,,*5D
06/24/2015	07:07:50.968	$GPGGA,070751,2513.4258,N,08008.5470,W,1,9,1.6,13,M,,M,,*50
06/24/2015	07:07:51.548	$GPGGA,070752,2513.4251,N,08008.5473,W,1,9,1.6,13,M,,M,,*59
06/24/2015	07:07:52.530	$GPGGA,070753,2513.4243,N,08008.5475,W,1,9,1.6,13,M,,M,,*5D
06/24/2015	07:07:53.539	$GPGGA,070754,2513.4236,N,08008.5475,W,1,9,1.6,13,M,,M,,*58
06/24/2015	07:07:54.538	$GPGGA,070755,2513.4227,N,08008.5477,W,1,9,1.6,13,M,,M,,*5B
06/24/2015	07:07:55.558	$GPGGA,070756,2513.4219,N,08008.5480,W,1,9,1.6,13,M,,M,,*5D
06/24/2015	07:07:56.538	$GPGGA,070757,2513.4211,N,08008.5481,W,1,9,1.6,13,M,,M,,*55
06/24/2015	07:07:57.568	$GPGGA,070758,2513.4203,N,08008.5481,W,1,9,1.6,13,M,,M,,*59
06/24/2015	07:07:58.533	$GPGGA,070759,2513.4195,N,08008.5484,W,1,9,1.6,12,M,,M,,*50
06/24/2015	07:07:59.557	$GPGGA,070800,2513.4189,N,08008.5488,W,1,9,1.6,12,M,,M,,*52
06/24/2015	07:08:00.518	$GPGGA,070801,2513.4179,N,08008.5486,W,1,9,1.6,12,M,,M,,*52
06/24/2015	07:08:01.558	$GPGGA,070802,2513.4171,N,08008.5486,W,1,9,1.6,12,M,,M,,*59
06/24/2015	07:08:02.508	$GPGGA,070803,2513.4164,N,08008.5491,W,1,9,1.6,12,M,,M,,*5A
06/24/2015	07:08:03.521	$GPGGA,070804,2513.4156,N,08008.5493,W,1,9,1.6,12,M,,M,,*5E
06/24/2015	07:08:04.523	$GPGGA,070805,2513.4147,N,08008.5492,W,1,9,1.6,12,M,,M,,*5E
06/24/2015	07:08:05.498	$GPGGA,070806,2513.4139,N,08008.5492,W,1,9,1.6,12,M,,M,,*54
06/24/2015	07:08:06.498	$GPGGA,070807,2513.4131,N,08008.5498,W,1,9,1.6,12,M,,M,,*57
06/24/2015	07:08:07.548	$GPGGA,070808,2513.4124,N,08008.5499,W,1,9,1.6,12,M,,M,,*5D
06/24/2015	07:08:08.508	$GPGGA,070809,2513.4115,N,08008.5496,W,1,9,1.6,12,M,,M,,*51
06/24/2015	07:08:09.608	$GPGGA,070810,2513.4107,N,08008.5499,W,1,9,1.6,12,M,,M,,*55
06/24/2015	07:08:10.518	$GPGGA,070811,2513.4100,N,08008.5502,W,1,9,1.6,12,M,,M,,*50
06/24/2015	07:08:11.628	$GPGGA,070812,2513.4092,N,08008.5501,W,1,9,1.6,12,M,,M,,*5A
06/24/2015	07:08:12.588	$GPGGA,070813,2513.4084,N,08008.5502,W,1,9,1.6,12,M,,M,,*5F
06/24/2015	07:08:13.619	$GPGGA,070814,2513.4077,N,08008.5503,W,1,9,1.6,12,M,,M,,*55
06/24/2015	07:08:14.508	$GPGGA,070815,2513.4068,N,08008.5506,W,1,9,1.6,12,M,,M,,*5F
06/24/2015	07:08:15.498	$GPGGA,070816,2513.4060,N,08008.5507,W,1,9,1.6,12,M,,M,,*55
06/24/2015	07:08:16.577	$GPGGA,070817,2513.4052,N,08008.5507,W,1,9,1.6,12,M,,M,,*55
06/24/2015	07:08:17.577	$GPGGA,070818,2513.4043,N,08008.5509,W,1,9,1.6,12,M,,M,,*54
06/24/2015	07:08:18.498	$GPGGA,070819,2513.4036,N,08008.5511,W,1,9,1.6,12,M,,M,,*5E
06/24/2015	07:08:22.418	$GPGGA,070822,2513.4010,N,08008.5513,W,1,9,1.6,12,M,,M,,*50
06/24/2015	07:08:23.618	$GPGGA,070824,2513.3992,N,08008.5513,W,1,9,1.6,12,M,,M,,*52
06/24/2015	07:08:24.568	$GPGGA,070825,2513.3984,N,08008.5514,W,1,9,1.6,12,M,,M,,*53
06/24/2015	07:08:25.598	$GPGGA,070826,2513.3976,N,08008.5517,W,1,9,1.6,12,M,,M,,*5E
06/24/2015	07:08:26.568	$GPGGA,070827,2513.3966,N,08008.5516,W,1,9,1.6,12,M,,M,,*5F
06/24/2015	07:08:27.608	$GPGGA,070828,2513.3958,N,08008.5515,W,1,9,1.6,12,M,,M,,*5E
06/24/2015	07:08:28.558	$GPGGA,070829,2513.3951,N,08008.5520,W,1,9,1.6,13,M,,M,,*51
06/24/2015	07:08:29.568	$GPGGA,070830,2513.3941,N,08008.5521,W,1,9,1.6,13,M,,M,,*59
06/24/2015	07:08:30.558	$GPGGA,070831,2513.3931,N,08008.5518,W,1,9,1.6,13,M,,M,,*55
06/24/2015	07:08:31.598	$GPGGA,070832,2513.3923,N,08008.5522,W,1,9,1.6,13,M,,M,,*5C
06/24/2015	07:08:32.558	$GPGGA,070833,2513.3916,N,08008.5525,W,1,9,1.6,13,M,,M,,*5C
06/24/2015	07:08:33.548	$GPGGA,070834,2513.3906,N,08008.5523,W,1,9,1.6,13,M,,M,,*5C
06/24/2015	07:08:34.547	$GPGGA,070835,2513.3898,N,08008.5524,W,1,9,1.6,13,M,,M,,*5C
06/24/2015	07:08:35.578	$GPGGA,070836,2513.3890,N,08008.5527,W,1,9,1.6,13,M,,M,,*54
06/24/2015	07:08:36.548	$GPGGA,070837,2513.3882,N,08008.5528,W,1,9,1.6,13,M,,M,,*59
06/24/2015	07:08:37.578	$GPGGA,070838,2513.3873,N,08008.5528,W,1,9,1.6,13,M,,M,,*58
06/24/2015	07:08:38.548	$GPGGA,070839,2513.3865,N,08008.5529,W,1,9,1.6,13,M,,M,,*5F
06/24/2015	07:08:39.588	$GPGGA,070840,2513.3857,N,08008.5531,W,1,9,1.6,14,M,,M,,*5E
06/24/2015	07:08:40.538	$GPGGA,070841,2513.3850,N,08008.5532,W,1,9,1.6,14,M,,M,,*5B
06/24/2015	07:08:41.548	$GPGGA,070842,2513.3842,N,08008.5533,W,1,9,1.6,14,M,,M,,*5A
06/24/2015	07:08:42.539	$GPGGA,070843,2513.3833,N,08008.5535,W,1,9,1.6,14,M,,M,,*5B
06/24/2015	07:08:43.578	$GPGGA,070844,2513.3825,N,08008.5535,W,1,9,1.6,14,M,,M,,*5B
06/24/2015	07:08:44.538	$GPGGA,070845,2513.3817,N,08008.5538,W,1,9,1.6,14,M,,M,,*56
06/24/2015	07:08:45.521	$GPGGA,070846,2513.3810,N,08008.5539,W,1,9,1.6,14,M,,M,,*53
06/24/2015	07:08:46.531	$GPGGA,070847,2513.3800,N,08008.5539,W,1,9,1.6,14,M,,M,,*53
06/24/2015	07:08:47.538	$GPGGA,070848,2513.3792,N,08008.5542,W,1,9,1.6,14,M,,M,,*54
06/24/2015	07:08:48.537	$GPGGA,070849,2513.3785,N,08008.5545,W,1,9,1.6,14,M,,M,,*54
06/24/2015	07:08:49.521	$GPGGA,070850,2513.3777,N,08008.5544,W,1,9,1.6,14,M,,M,,*50
06/24/2015	07:08:50.533	$GPGGA,070851,2513.3767,N,08008.5545,W,1,9,1.6,14,M,,M,,*51
06/24/2015	07:08:51.557	$GPGGA,070852,2513.3760,N,08008.5549,W,1,9,1.6,14,M,,M,,*59
06/24/2015	07:08:52.535	$GPGGA,070853,2513.3752,N,08008.5549,W,1,9,1.6,14,M,,M,,*59
06/24/2015	07:08:53.631	$GPGGA,070854,2513.3743,N,08008.5550,W,1,9,1.6,14,M,,M,,*56
06/24/2015	07:08:54.508	$GPGGA,070855,2513.3734,N,08008.5551,W,1,9,1.6,14,M,,M,,*56
06/24/2015	07:08:55.532	$GPGGA,070856,2513.3727,N,08008.5553,W,1,9,1.6,14,M,,M,,*55
06/24/2015	07:08:56.498	$GPGGA,070857,2513.3718,N,08008.5556,W,1,9,1.6,14,M,,M,,*5D
06/24/2015	07:08:57.498	$GPGGA,070858,2513.3710,N,08008.5557,W,1,9,1.6,14,M,,M,,*5B
06/24/2015	07:08:58.508	$GPGGA,070859,2513.3702,N,08008.5558,W,1,9,1.6,14,M,,M,,*56
06/24/2015	07:08:59.538	$GPGGA,070900,2513.3694,N,08008.5560,W,1,9,1.6,14,M,,M,,*5E
06/24/2015	07:09:00.524	$GPGGA,070901,2513.3685,N,08008.5564,W,1,9,1.6,14,M,,M,,*5B
06/24/2015	07:09:01.588	$GPGGA,070902,2513.3677,N,08008.5564,W,1,9,1.6,14,M,,M,,*55
06/24/2015	07:09:02.498	$GPGGA,070903,2513.3669,N,08008.5565,W,1,9,1.6,14,M,,M,,*5A
06/24/2015	07:09:03.608	$GPGGA,070904,2513.3660,N,08008.5567,W,1,9,1.6,14,M,,M,,*56
06/24/2015	07:09:04.508	$GPGGA,070905,2513.3652,N,08008.5571,W,1,9,1.6,14,M,,M,,*51
06/24/2015	07:09:05.588	$GPGGA,070906,2513.3643,N,08008.5571,W,1,9,1.6,14,M,,M,,*52
06/24/2015	07:09:06.578	$GPGGA,070907,2513.3636,N,08008.5572,W,1,9,1.6,14,M,,M,,*52
06/24/2015	07:09:07.628	$GPGGA,070908,2513.3627,N,08008.5576,W,1,9,1.6,14,M,,M,,*59
06/24/2015	07:09:08.568	$GPGGA,070909,2513.3618,N,08008.5578,W,1,9,1.6,14,M,,M,,*5A
06/24/2015	07:09:09.607	$GPGGA,070910,2513.3611,N,08008.5579,W,1,9,1.6,14,M,,M,,*5A
06/24/2015	07:09:10.578	$GPGGA,070911,2513.3602,N,08008.5582,W,1,9,1.6,14,M,,M,,*5D
06/24/2015	07:09:12.076	$GPGGA,070912,2513.3593,N,08008.5583,W,1,9,1.6,14,M,,M,,*54
06/24/2015	07:09:12.556	$GPGGA,070913,2513.3586,N,08008.5585,W,1,9,1.6,14,M,,M,,*57
06/24/2015	07:09:13.566	$GPGGA,070914,2513.3577,N,08008.5587,W,1,9,1.6,14,M,,M,,*5C
06/24/2015	07:09:14.556	$GPGGA,070915,2513.3568,N,08008.5589,W,1,9,1.6,14,M,,M,,*5D
06/24/2015	07:09:15.566	$GPGGA,070916,2513.3559,N,08008.5592,W,1,9,1.6,14,M,,M,,*56
06/24/2015	07:09:16.546	$GPGGA,070917,2513.3551,N,08008.5591,W,1,9,1.6,14,M,,M,,*5C
06/24/2015	07:09:17.566	$GPGGA,070918,2513.3543,N,08008.5594,W,1,9,1.6,14,M,,M,,*55
06/24/2015	07:09:18.546	$GPGGA,070919,2513.3535,N,08008.5597,W,1,9,1.6,14,M,,M,,*56
06/24/2015	07:09:19.586	$GPGGA,070920,2513.3525,N,08008.5597,W,1,9,1.6,14,M,,M,,*5D
06/24/2015	07:09:20.546	$GPGGA,070921,2513.3517,N,08008.5600,W,1,9,1.6,14,M,,M,,*50
06/24/2015	07:09:21.556	$GPGGA,070922,2513.3508,N,08008.5603,W,1,9,1.6,14,M,,M,,*5E
06/24/2015	07:09:22.556	$GPGGA,070923,2513.3499,N,08008.5602,W,1,9,1.6,14,M,,M,,*57
06/24/2015	07:09:23.577	$GPGGA,070924,2513.3492,N,08008.5604,W,1,9,1.6,14,M,,M,,*5D
06/24/2015	07:09:24.536	$GPGGA,070925,2513.3483,N,08008.5607,W,1,9,1.6,14,M,,M,,*5F
06/24/2015	07:09:25.546	$GPGGA,070926,2513.3474,N,08008.5608,W,1,9,1.6,14,M,,M,,*5B
06/24/2015	07:09:26.535	$GPGGA,070927,2513.3465,N,08008.5610,W,1,9,1.6,14,M,,M,,*53
06/24/2015	07:09:27.545	$GPGGA,070928,2513.3456,N,08008.5612,W,1,9,1.6,14,M,,M,,*5E
06/24/2015	07:09:28.526	$GPGGA,070929,2513.3447,N,08008.5614,W,1,9,1.6,14,M,,M,,*59
06/24/2015	07:09:29.521	$GPGGA,070930,2513.3439,N,08008.5615,W,1,9,1.6,14,M,,M,,*59
06/24/2015	07:09:30.522	$GPGGA,070931,2513.3430,N,08008.5615,W,1,9,1.6,14,M,,M,,*51
06/24/2015	07:09:31.556	$GPGGA,070932,2513.3421,N,08008.5618,W,1,9,1.6,14,M,,M,,*5F
06/24/2015	07:09:32.526	$GPGGA,070933,2513.3413,N,08008.5621,W,1,9,1.6,14,M,,M,,*55
06/24/2015	07:09:33.509	$GPGGA,070934,2513.3405,N,08008.5621,W,1,9,1.6,14,M,,M,,*55
06/24/2015	07:09:34.518	$GPGGA,070935,2513.3395,N,08008.5620,W,1,9,1.6,14,M,,M,,*5B
06/24/2015	07:09:35.556	$GPGGA,070936,2513.3387,N,08008.5623,W,1,9,1.6,14,M,,M,,*58
06/24/2015	07:09:36.526	$GPGGA,070937,2513.3380,N,08008.5628,W,1,9,1.6,14,M,,M,,*55
06/24/2015	07:09:37.546	$GPGGA,070938,2513.3370,N,08008.5626,W,1,9,1.6,14,M,,M,,*5B
06/24/2015	07:09:38.508	$GPGGA,070939,2513.3362,N,08008.5628,W,1,9,1.6,14,M,,M,,*57
06/24/2015	07:09:39.520	$GPGGA,070940,2513.3353,N,08008.5632,W,1,9,1.6,14,M,,M,,*50
06/24/2015	07:09:40.616	$GPGGA,070941,2513.3345,N,08008.5631,W,1,9,1.6,14,M,,M,,*55
06/24/2015	07:09:41.606	$GPGGA,070942,2513.3337,N,08008.5633,W,1,9,1.6,14,M,,M,,*51
06/24/2015	07:09:42.506	$GPGGA,070943,2513.3329,N,08008.5636,W,1,9,1.6,14,M,,M,,*5A
06/24/2015	07:09:43.626	$GPGGA,070944,2513.3320,N,08008.5636,W,1,9,1.6,14,M,,M,,*54
06/24/2015	07:09:44.526	$GPGGA,070945,2513.3311,N,08008.5639,W,1,9,1.6,14,M,,M,,*58
06/24/2015	07:09:45.506	$GPGGA,070946,2513.3304,N,08008.5640,W,1,9,1.6,14,M,,M,,*51
06/24/2015	07:09:46.496	$GPGGA,070947,2513.3294,N,08008.5640,W,1,9,1.6,14,M,,M,,*58
06/24/2015	07:09:47.616	$GPGGA,070948,2513.3286,N,08008.5641,W,1,9,1.6,14,M,,M,,*55
06/24/2015	07:09:48.507	$GPGGA,070949,2513.3279,N,08008.5643,W,1,9,1.6,14,M,,M,,*56
06/24/2015	07:09:49.576	$GPGGA,070950,2513.3269,N,08008.5645,W,1,9,1.6,14,M,,M,,*59
06/24/2015	07:09:50.596	$GPGGA,070951,2513.3261,N,08008.5645,W,1,9,1.6,14,M,,M,,*50
06/24/2015	07:09:51.509	$GPGGA,070952,2513.3252,N,08008.5645,W,1,9,1.6,14,M,,M,,*53
06/24/2015	07:09:52.486	$GPGGA,070953,2513.3244,N,08008.5647,W,1,9,1.6,14,M,,M,,*57
06/24/2015	07:09:53.576	$GPGGA,070954,2513.3236,N,08008.5650,W,1,9,1.6,14,M,,M,,*53
06/24/2015	07:09:54.486	$GPGGA,070955,2513.3228,N,08008.5649,W,1,9,1.6,14,M,,M,,*55
06/24/2015	07:09:55.576	$GPGGA,070956,2513.3218,N,08008.5650,W,1,9,1.6,14,M,,M,,*5D
06/24/2015	07:09:56.476	$GPGGA,070957,2513.3210,N,08008.5651,W,1,9,1.6,14,M,,M,,*55
06/24/2015	07:09:57.586	$GPGGA,070958,2513.3201,N,08008.5654,W,1,9,1.6,14,M,,M,,*5F
06/24/2015	07:09:58.566	$GPGGA,070959,2513.3192,N,08008.5652,W,1,9,1.6,14,M,,M,,*51
06/24/2015	07:09:59.606	$GPGGA,071000,2513.3183,N,08008.5654,W,1,9,1.6,14,M,,M,,*53
06/24/2015	07:10:00.556	$GPGGA,071001,2513.3177,N,08008.5658,W,1,9,2.2,14,M,,M,,*52
06/24/2015	07:10:01.585	$GPGGA,071002,2513.3170,N,08008.5657,W,1,9,1.6,14,M,,M,,*5E
06/24/2015	07:10:02.555	$GPGGA,071003,2513.3163,N,08008.5656,W,1,9,1.6,14,M,,M,,*5C
06/24/2015	07:10:03.586	$GPGGA,071004,2513.3154,N,08008.5661,W,1,8,1.6,14,M,,M,,*5A
06/24/2015	07:10:04.546	$GPGGA,071005,2513.3145,N,08008.5661,W,1,8,1.6,14,M,,M,,*5B
06/24/2015	07:10:05.576	$GPGGA,071006,2513.3135,N,08008.5659,W,1,9,1.6,14,M,,M,,*55
06/24/2015	07:10:06.556	$GPGGA,071007,2513.3128,N,08008.5662,W,1,9,1.6,14,M,,M,,*50
06/24/2015	07:10:07.623	$GPGGA,071008,2513.3120,N,08008.5665,W,1,9,1.6,14,M,,M,,*50
06/24/2015	07:10:08.546	$GPGGA,071009,2513.3111,N,08008.5662,W,1,9,1.6,14,M,,M,,*54
06/24/2015	07:10:09.546	$GPGGA,071010,2513.3103,N,08008.5665,W,1,9,1.6,14,M,,M,,*58
06/24/2015	07:10:10.546	$GPGGA,071011,2513.3096,N,08008.5668,W,1,9,1.6,14,M,,M,,*59
06/24/2015	07:10:11.586	$GPGGA,071012,2513.3087,N,08008.5667,W,1,9,1.6,14,M,,M,,*55
06/24/2015	07:10:12.526	$GPGGA,071013,2513.3078,N,08008.5668,W,1,9,1.6,14,M,,M,,*5B
06/24/2015	07:10:13.546	$GPGGA,071014,2513.3071,N,08008.5672,W,1,9,1.6,14,M,,M,,*5E
06/24/2015	07:10:14.536	$GPGGA,071015,2513.3064,N,08008.5673,W,1,9,1.6,15,M,,M,,*5B
06/24/2015	07:10:15.566	$GPGGA,071016,2513.3055,N,08008.5675,W,1,9,1.6,15,M,,M,,*5C
06/24/2015	07:10:16.536	$GPGGA,071017,2513.3046,N,08008.5674,W,1,9,1.6,15,M,,M,,*5E
06/24/2015	07:10:17.523	$GPGGA,071018,2513.3040,N,08008.5677,W,1,9,1.6,15,M,,M,,*54
06/24/2015	07:10:18.526	$GPGGA,071019,2513.3033,N,08008.5679,W,1,9,1.6,15,M,,M,,*5F
06/24/2015	07:10:19.535	$GPGGA,071020,2513.3023,N,08008.5680,W,1,9,1.6,15,M,,M,,*52
06/24/2015	07:10:20.536	$GPGGA,071021,2513.3015,N,08008.5680,W,1,9,1.6,15,M,,M,,*56
06/24/2015	07:10:21.507	$GPGGA,071022,2513.3008,N,08008.5683,W,1,9,1.6,15,M,,M,,*5A
06/24/2015	07:10:22.515	$GPGGA,071023,2513.2999,N,08008.5686,W,1,9,1.6,15,M,,M,,*5E
06/24/2015	07:10:23.556	$GPGGA,071024,2513.2992,N,08008.5686,W,1,9,1.6,15,M,,M,,*52
06/24/2015	07:10:24.517	$GPGGA,071025,2513.2983,N,08008.5690,W,1,9,1.6,15,M,,M,,*54
06/24/2015	07:10:25.507	$GPGGA,071026,2513.2976,N,08008.5693,W,1,9,1.6,15,M,,M,,*5E
06/24/2015	07:10:26.626	$GPGGA,071027,2513.2968,N,08008.5694,W,1,9,1.6,15,M,,M,,*57
06/24/2015	07:10:27.666	$GPGGA,071028,2513.2959,N,08008.5694,W,1,9,1.6,15,M,,M,,*5A
06/24/2015	07:10:28.507	$GPGGA,071029,2513.2951,N,08008.5697,W,1,9,1.6,15,M,,M,,*50
06/24/2015	07:10:29.509	$GPGGA,071030,2513.2944,N,08008.5701,W,1,9,1.6,15,M,,M,,*52
06/24/2015	07:10:30.496	$GPGGA,071031,2513.2936,N,08008.5701,W,1,9,1.6,15,M,,M,,*56
06/24/2015	07:10:31.516	$GPGGA,071032,2513.2928,N,08008.5702,W,1,9,1.6,15,M,,M,,*59
06/24/2015	07:10:32.596	$GPGGA,071033,2513.2921,N,08008.5706,W,1,9,1.6,15,M,,M,,*55
06/24/2015	07:10:34.046	$GPGGA,071034,2513.2914,N,08008.5709,W,1,9,1.6,15,M,,M,,*5B
06/24/2015	07:10:34.508	$GPGGA,071035,2513.2904,N,08008.5709,W,1,9,1.6,15,M,,M,,*5B
06/24/2015	07:10:35.516	$GPGGA,071036,2513.2896,N,08008.5712,W,1,9,1.6,15,M,,M,,*58
06/24/2015	07:10:36.505	$GPGGA,071037,2513.2890,N,08008.5717,W,1,9,1.6,15,M,,M,,*5A
06/24/2015	07:10:37.618	$GPGGA,071038,2513.2881,N,08008.5719,W,1,9,1.6,15,M,,M,,*5B
06/24/2015	07:10:38.596	$GPGGA,071039,2513.2874,N,08008.5718,W,1,9,1.6,15,M,,M,,*51
06/24/2015	07:10:39.486	$GPGGA,071040,2513.2865,N,08008.5723,W,1,9,1.6,15,M,,M,,*57
06/24/2015	07:10:40.586	$GPGGA,071041,2513.2857,N,08008.5728,W,1,9,1.6,15,M,,M,,*5C
06/24/2015	07:10:41.586	$GPGGA,071042,2513.2849,N,08008.5728,W,1,9,1.6,15,M,,M,,*50
06/24/2015	07:10:42.486	$GPGGA,071043,2513.2840,N,08008.5730,W,1,9,1.6,15,M,,M,,*51
06/24/2015	07:10:43.486	$GPGGA,071044,2513.2833,N,08008.5737,W,1,9,1.6,15,M,,M,,*55
06/24/2015	07:10:44.576	$GPGGA,071045,2513.2825,N,08008.5740,W,1,9,1.6,15,M,,M,,*53
06/24/2015	07:10:45.567	$GPGGA,071046,2513.2816,N,08008.5739,W,1,9,1.6,15,M,,M,,*5E
06/24/2015	07:10:46.566	$GPGGA,071047,2513.2809,N,08008.5744,W,1,9,1.6,15,M,,M,,*5B
06/24/2015	07:10:47.636	$GPGGA,071048,2513.2799,N,08008.5748,W,1,9,1.6,15,M,,M,,*5E
06/24/2015	07:10:48.566	$GPGGA,071049,2513.2791,N,08008.5747,W,1,9,1.6,15,M,,M,,*58
06/24/2015	07:10:49.586	$GPGGA,071050,2513.2784,N,08008.5749,W,1,9,1.6,15,M,,M,,*5A
06/24/2015	07:10:50.556	$GPGGA,071051,2513.2774,N,08008.5753,W,1,9,1.6,15,M,,M,,*5F
06/24/2015	07:10:51.596	$GPGGA,071052,2513.2766,N,08008.5755,W,1,9,1.6,15,M,,M,,*59
06/24/2015	07:10:52.556	$GPGGA,071053,2513.2758,N,08008.5758,W,1,9,1.6,15,M,,M,,*58
06/24/2015	07:10:53.566	$GPGGA,071054,2513.2749,N,08008.5759,W,1,9,1.6,15,M,,M,,*5E
06/24/2015	07:10:54.555	$GPGGA,071055,2513.2741,N,08008.5760,W,1,9,1.6,15,M,,M,,*5D
06/24/2015	07:10:55.576	$GPGGA,071056,2513.2733,N,08008.5762,W,1,9,1.6,15,M,,M,,*59
06/24/2015	07:10:56.546	$GPGGA,071057,2513.2726,N,08008.5764,W,1,9,1.6,15,M,,M,,*5A
06/24/2015	07:10:57.567	$GPGGA,071058,2513.2716,N,08008.5764,W,1,9,1.6,15,M,,M,,*56
06/24/2015	07:10:58.546	$GPGGA,071059,2513.2708,N,08008.5766,W,1,9,1.6,15,M,,M,,*5A
06/24/2015	07:10:59.626	$GPGGA,071100,2513.2701,N,08008.5769,W,1,9,1.6,15,M,,M,,*51
06/24/2015	07:11:00.546	$GPGGA,071101,2513.2690,N,08008.5770,W,1,9,1.6,15,M,,M,,*51
06/24/2015	07:11:01.566	$GPGGA,071102,2513.2683,N,08008.5769,W,1,9,1.6,15,M,,M,,*58
06/24/2015	07:11:02.526	$GPGGA,071103,2513.2675,N,08008.5771,W,1,9,1.6,15,M,,M,,*59
06/24/2015	07:11:03.566	$GPGGA,071104,2513.2666,N,08008.5773,W,1,9,1.6,15,M,,M,,*5E
06/24/2015	07:11:04.536	$GPGGA,071105,2513.2658,N,08008.5773,W,1,9,1.6,15,M,,M,,*52
06/24/2015	07:11:05.536	$GPGGA,071106,2513.2650,N,08008.5773,W,1,9,1.6,16,M,,M,,*5A
06/24/2015	07:11:06.518	$GPGGA,071107,2513.2641,N,08008.5775,W,1,9,1.6,16,M,,M,,*5D
06/24/2015	07:11:07.576	$GPGGA,071108,2513.2632,N,08008.5777,W,1,9,1.6,16,M,,M,,*54
06/24/2015	07:11:08.546	$GPGGA,071109,2513.2625,N,08008.5775,W,1,9,1.6,16,M,,M,,*51
06/24/2015	07:11:09.526	$GPGGA,071110,2513.2616,N,08008.5777,W,1,9,1.6,16,M,,M,,*5B
06/24/2015	07:11:10.519	$GPGGA,071111,2513.2608,N,08008.5778,W,1,9,1.6,16,M,,M,,*5A
06/24/2015	07:11:11.565	$GPGGA,071112,2513.2599,N,08008.5778,W,1,9,1.6,16,M,,M,,*52
06/24/2015	07:11:12.545	$GPGGA,071113,2513.2590,N,08008.5778,W,1,9,1.6,16,M,,M,,*5A
06/24/2015	07:11:13.514	$GPGGA,071114,2513.2582,N,08008.5780,W,1,9,1.6,16,M,,M,,*59
06/24/2015	07:11:14.521	$GPGGA,071115,2513.2574,N,08008.5779,W,1,9,1.6,16,M,,M,,*57
06/24/2015	07:11:15.566	$GPGGA,071116,2513.2565,N,08008.5780,W,1,9,2.2,16,M,,M,,*55
06/24/2015	07:11:16.496	$GPGGA,071117,2513.2558,N,08008.5780,W,1,9,1.6,16,M,,M,,*5D
06/24/2015	07:11:17.511	$GPGGA,071118,2513.2549,N,08008.5780,W,1,9,2.2,16,M,,M,,*55
06/24/2015	07:11:18.617	$GPGGA,071119,2513.2542,N,08008.5780,W,1,9,2.2,16,M,,M,,*5F
06/24/2015	07:11:19.576	$GPGGA,071120,2513.2532,N,08008.5781,W,1,9,1.6,16,M,,M,,*54
06/24/2015	07:11:20.517	$GPGGA,071121,2513.2524,N,08008.5781,W,1,9,1.6,16,M,,M,,*52
06/24/2015	07:11:21.496	$GPGGA,071122,2513.2516,N,08008.5782,W,1,9,1.6,16,M,,M,,*53
06/24/2015	07:11:22.486	$GPGGA,071123,2513.2509,N,08008.5782,W,1,9,1.6,16,M,,M,,*5C
06/24/2015	07:11:23.546	$GPGGA,071124,2513.2502,N,08008.5784,W,1,9,1.6,16,M,,M,,*56
06/24/2015	07:11:24.486	$GPGGA,071125,2513.2493,N,08008.5784,W,1,9,1.6,16,M,,M,,*5E
06/24/2015	07:11:25.531	$GPGGA,071126,2513.2486,N,08008.5783,W,1,9,1.6,16,M,,M,,*5E
06/24/2015	07:11:26.509	$GPGGA,071127,2513.2478,N,08008.5784,W,1,9,1.6,16,M,,M,,*59
06/24/2015	07:11:27.596	$GPGGA,071128,2513.2470,N,08008.5787,W,1,9,1.6,16,M,,M,,*5D
06/24/2015	07:11:28.596	$GPGGA,071129,2513.2463,N,08008.5788,W,1,9,1.6,16,M,,M,,*51
06/24/2015	07:11:29.595	$GPGGA,071130,2513.2455,N,08008.5787,W,1,9,1.6,16,M,,M,,*53
06/24/2015	07:11:30.509	$GPGGA,071131,2513.2448,N,08008.5791,W,1,9,1.6,16,M,,M,,*59
06/24/2015	07:11:31.626	$GPGGA,071132,2513.2439,N,08008.5793,W,1,9,1.6,16,M,,M,,*5E
06/24/2015	07:11:32.576	$GPGGA,071133,2513.2430,N,08008.5792,W,1,9,1.6,16,M,,M,,*57
06/24/2015	07:11:33.530	$GPGGA,071134,2513.2422,N,08008.5795,W,1,9,1.8,16,M,,M,,*5A
06/24/2015	07:11:34.576	$GPGGA,071135,2513.2415,N,08008.5798,W,1,9,1.8,16,M,,M,,*52
06/24/2015	07:11:35.576	$GPGGA,071136,2513.2405,N,08008.5798,W,1,9,1.6,16,M,,M,,*5E
06/24/2015	07:11:36.566	$GPGGA,071137,2513.2397,N,08008.5800,W,1,9,1.6,16,M,,M,,*5D
06/24/2015	07:11:37.586	$GPGGA,071138,2513.2388,N,08008.5802,W,1,9,1.6,16,M,,M,,*5E
06/24/2015	07:11:38.566	$GPGGA,071139,2513.2380,N,08008.5805,W,1,9,1.6,16,M,,M,,*50
06/24/2015	07:11:39.586	$GPGGA,071140,2513.2372,N,08008.5806,W,1,9,1.6,17,M,,M,,*51
06/24/2015	07:11:40.556	$GPGGA,071141,2513.2361,N,08008.5806,W,1,9,1.6,17,M,,M,,*52
06/24/2015	07:11:41.546	$GPGGA,071142,2513.2354,N,08008.5810,W,1,9,1.6,17,M,,M,,*50
06/24/2015	07:11:42.556	$GPGGA,071143,2513.2346,N,08008.5814,W,1,9,1.6,17,M,,M,,*56
06/24/2015	07:11:43.586	$GPGGA,071144,2513.2336,N,08008.5813,W,1,9,1.6,17,M,,M,,*51
06/24/2015	07:11:44.556	$GPGGA,071145,2513.2328,N,08008.5816,W,1,9,1.6,17,M,,M,,*5A
06/24/2015	07:11:45.566	$GPGGA,071146,2513.2321,N,08008.5822,W,1,9,1.6,16,M,,M,,*56
06/24/2015	07:11:46.555	$GPGGA,071147,2513.2311,N,08008.5822,W,1,9,1.6,16,M,,M,,*54
06/24/2015	07:11:47.545	$GPGGA,071148,2513.2303,N,08008.5822,W,1,9,1.6,16,M,,M,,*58
06/24/2015	07:11:48.546	$GPGGA,071149,2513.2296,N,08008.5827,W,1,9,1.6,16,M,,M,,*51
06/24/2015	07:11:49.556	$GPGGA,071150,2513.2287,N,08008.5831,W,1,9,1.6,16,M,,M,,*5E
06/24/2015	07:11:50.526	$GPGGA,071151,2513.2279,N,08008.5829,W,1,9,1.6,16,M,,M,,*57
06/24/2015	07:11:51.566	$GPGGA,071152,2513.2271,N,08008.5831,W,1,9,1.6,16,M,,M,,*55
06/24/2015	07:11:52.526	$GPGGA,071153,2513.2262,N,08008.5835,W,1,9,1.6,16,M,,M,,*52
