Software Version Number: 1	Data File Format Number: 1	Build Version Number: 1	Error Count Since VI Started: 2	Manufacturer: Raytheon	 Model Number: RayMarine 120	 S/N: 	 Cal Date: 	 Wind Direction Offset: 0.00	 Slope (M)1: 0.00	 Offset (B)1: 0.00	 Slope (M)2: 0.00	 Offset (B)2: 0.00	 Slope (M)3: 0.00	 Offset (B)3: 0.00	 Slope (M)4: 0.00	 Offset (B)4: 0.00	 Slope (M)5: 0.00	 Offset (B)5: 0.00	 Slope (M)6: 0.00	 Offset (B)6: 0.00
Computer Date	Computer Time	GGA String
06/21/2015	05:00:01.016	$GPGGA,050001,2438.5181,N,08059.7671,W,1,9,1.7,13,M,,M,,*5A
06/21/2015	05:00:01.557	$GPGGA,050002,2438.5173,N,08059.7693,W,1,9,1.7,13,M,,M,,*58
06/21/2015	05:00:02.517	$GPGGA,050003,2438.5165,N,08059.7715,W,1,9,1.7,13,M,,M,,*51
06/21/2015	05:00:03.538	$GPGGA,050004,2438.5158,N,08059.7736,W,1,9,1.7,13,M,,M,,*59
06/21/2015	05:00:04.507	$GPGGA,050005,2438.5150,N,08059.7757,W,1,9,1.7,13,M,,M,,*57
06/21/2015	05:00:05.507	$GPGGA,050006,2438.5143,N,08059.7779,W,1,9,1.7,13,M,,M,,*5A
06/21/2015	05:00:06.508	$GPGGA,050007,2438.5134,N,08059.7801,W,1,9,1.7,13,M,,M,,*5B
06/21/2015	05:00:07.527	$GPGGA,050008,2438.5127,N,08059.7825,W,1,9,1.7,13,M,,M,,*50
06/21/2015	05:00:08.497	$GPGGA,050009,2438.5119,N,08059.7848,W,1,9,1.7,13,M,,M,,*57
06/21/2015	05:00:09.955	$GPGGA,050010,2438.5111,N,08059.7872,W,1,9,1.7,13,M,,M,,*5E
06/21/2015	05:00:10.507	$GPGGA,050011,2438.5104,N,08059.7894,W,1,9,1.7,13,M,,M,,*53
06/21/2015	05:00:11.527	$GPGGA,050012,2438.5096,N,08059.7917,W,1,9,1.7,13,M,,M,,*50
06/21/2015	05:00:12.497	$GPGGA,050013,2438.5089,N,08059.7941,W,1,9,1.7,13,M,,M,,*5C
06/21/2015	05:00:13.507	$GPGGA,050014,2438.5081,N,08059.7962,W,1,9,1.7,13,M,,M,,*52
06/21/2015	05:00:14.587	$GPGGA,050015,2438.5074,N,08059.7984,W,1,9,1.7,13,M,,M,,*51
06/21/2015	05:00:15.527	$GPGGA,050016,2438.5067,N,08059.8006,W,1,9,1.7,13,M,,M,,*5C
06/21/2015	05:00:16.497	$GPGGA,050017,2438.5060,N,08059.8027,W,1,9,1.7,13,M,,M,,*59
06/21/2015	05:00:17.587	$GPGGA,050018,2438.5053,N,08059.8049,W,1,9,1.7,13,M,,M,,*5E
06/21/2015	05:00:18.506	$GPGGA,050019,2438.5046,N,08059.8071,W,1,9,1.7,13,M,,M,,*50
06/21/2015	05:00:19.517	$GPGGA,050020,2438.5039,N,08059.8093,W,1,9,1.7,13,M,,M,,*5E
06/21/2015	05:00:20.477	$GPGGA,050021,2438.5032,N,08059.8116,W,1,9,1.7,13,M,,M,,*58
06/21/2015	05:00:21.477	$GPGGA,050022,2438.5025,N,08059.8140,W,1,9,1.7,13,M,,M,,*5E
06/21/2015	05:00:22.577	$GPGGA,050023,2438.5018,N,08059.8163,W,1,9,1.7,13,M,,M,,*50
06/21/2015	05:00:23.627	$GPGGA,050024,2438.5011,N,08059.8186,W,1,9,1.7,13,M,,M,,*55
06/21/2015	05:00:24.487	$GPGGA,050025,2438.5004,N,08059.8208,W,1,9,1.7,13,M,,M,,*55
06/21/2015	05:00:25.477	$GPGGA,050026,2438.4997,N,08059.8230,W,1,9,1.7,13,M,,M,,*5F
06/21/2015	05:00:26.567	$GPGGA,050027,2438.4991,N,08059.8251,W,1,9,1.7,13,M,,M,,*5F
06/21/2015	05:00:27.587	$GPGGA,050028,2438.4984,N,08059.8273,W,1,9,1.7,13,M,,M,,*54
06/21/2015	05:00:28.567	$GPGGA,050029,2438.4977,N,08059.8293,W,1,9,1.7,13,M,,M,,*57
06/21/2015	05:00:30.607	$GPGGA,050031,2438.4963,N,08059.8339,W,1,9,1.7,13,M,,M,,*5A
06/21/2015	05:00:31.607	$GPGGA,050032,2438.4955,N,08059.8363,W,1,9,1.7,13,M,,M,,*53
06/21/2015	05:00:32.558	$GPGGA,050033,2438.4948,N,08059.8385,W,1,9,1.7,13,M,,M,,*56
06/21/2015	05:00:33.550	$GPGGA,050034,2438.4940,N,08059.8407,W,1,9,1.7,13,M,,M,,*54
06/21/2015	05:00:34.557	$GPGGA,050035,2438.4932,N,08059.8428,W,1,9,1.7,13,M,,M,,*5D
06/21/2015	05:00:35.587	$GPGGA,050036,2438.4924,N,08059.8450,W,1,9,1.7,13,M,,M,,*56
06/21/2015	05:00:36.551	$GPGGA,050037,2438.4916,N,08059.8472,W,1,9,1.7,13,M,,M,,*56
06/21/2015	05:00:37.577	$GPGGA,050038,2438.4908,N,08059.8493,W,1,9,1.7,13,M,,M,,*59
06/21/2015	05:00:38.553	$GPGGA,050039,2438.4901,N,08059.8515,W,1,9,1.7,13,M,,M,,*5E
06/21/2015	05:00:39.577	$GPGGA,050040,2438.4891,N,08059.8537,W,1,9,1.7,13,M,,M,,*58
06/21/2015	05:00:40.554	$GPGGA,050041,2438.4883,N,08059.8559,W,1,9,1.7,13,M,,M,,*52
06/21/2015	05:00:41.567	$GPGGA,050042,2438.4875,N,08059.8580,W,1,9,1.7,12,M,,M,,*5D
06/21/2015	05:00:42.540	$GPGGA,050043,2438.4867,N,08059.8603,W,1,9,1.7,12,M,,M,,*57
06/21/2015	05:00:43.549	$GPGGA,050044,2438.4858,N,08059.8625,W,1,9,1.7,12,M,,M,,*58
06/21/2015	05:00:44.557	$GPGGA,050045,2438.4850,N,08059.8647,W,1,9,1.7,12,M,,M,,*55
06/21/2015	05:00:45.557	$GPGGA,050046,2438.4841,N,08059.8670,W,1,9,1.7,12,M,,M,,*52
06/21/2015	05:00:46.542	$GPGGA,050047,2438.4833,N,08059.8692,W,1,9,1.7,12,M,,M,,*5A
06/21/2015	05:00:47.577	$GPGGA,050048,2438.4825,N,08059.8714,W,1,9,1.7,12,M,,M,,*5D
06/21/2015	05:00:48.517	$GPGGA,050049,2438.4816,N,08059.8736,W,1,9,1.7,12,M,,M,,*5C
06/21/2015	05:00:49.551	$GPGGA,050050,2438.4808,N,08059.8758,W,1,9,1.7,12,M,,M,,*53
06/21/2015	05:00:50.542	$GPGGA,050051,2438.4799,N,08059.8780,W,1,9,1.7,12,M,,M,,*50
06/21/2015	05:00:51.607	$GPGGA,050052,2438.4790,N,08059.8804,W,1,9,1.7,12,M,,M,,*59
06/21/2015	05:00:52.517	$GPGGA,050053,2438.4783,N,08059.8826,W,1,9,1.7,12,M,,M,,*5A
06/21/2015	05:00:53.553	$GPGGA,050054,2438.4775,N,08059.8848,W,1,9,1.7,12,M,,M,,*5C
06/21/2015	05:00:54.517	$GPGGA,050055,2438.4767,N,08059.8869,W,1,9,1.7,12,M,,M,,*5D
06/21/2015	05:00:55.540	$GPGGA,050056,2438.4760,N,08059.8891,W,1,9,1.7,12,M,,M,,*5E
06/21/2015	05:00:56.507	$GPGGA,050057,2438.4754,N,08059.8913,W,1,9,1.7,12,M,,M,,*53
06/21/2015	05:00:57.527	$GPGGA,050058,2438.4747,N,08059.8935,W,1,9,1.7,12,M,,M,,*5A
06/21/2015	05:00:58.517	$GPGGA,050059,2438.4739,N,08059.8957,W,1,9,1.7,12,M,,M,,*56
06/21/2015	05:00:59.617	$GPGGA,050100,2438.4732,N,08059.8981,W,1,9,1.7,12,M,,M,,*5B
06/21/2015	05:01:00.517	$GPGGA,050101,2438.4725,N,08059.9003,W,1,9,1.7,12,M,,M,,*5E
06/21/2015	05:01:01.517	$GPGGA,050102,2438.4717,N,08059.9025,W,1,9,1.7,12,M,,M,,*58
06/21/2015	05:01:02.607	$GPGGA,050103,2438.4711,N,08059.9046,W,1,9,1.7,12,M,,M,,*5A
06/21/2015	05:01:03.544	$GPGGA,050104,2438.4704,N,08059.9068,W,1,9,1.7,12,M,,M,,*55
06/21/2015	05:01:04.607	$GPGGA,050105,2438.4697,N,08059.9090,W,1,9,1.7,12,M,,M,,*58
06/21/2015	05:01:05.517	$GPGGA,050106,2438.4691,N,08059.9111,W,1,9,1.7,12,M,,M,,*55
06/21/2015	05:01:06.507	$GPGGA,050107,2438.4684,N,08059.9133,W,1,9,1.7,12,M,,M,,*50
06/21/2015	05:01:07.617	$GPGGA,050108,2438.4675,N,08059.9156,W,1,9,1.7,12,M,,M,,*52
06/21/2015	05:01:08.507	$GPGGA,050109,2438.4667,N,08059.9180,W,1,9,1.7,12,M,,M,,*5B
06/21/2015	05:01:09.507	$GPGGA,050110,2438.4659,N,08059.9202,W,1,9,1.7,12,M,,M,,*57
06/21/2015	05:01:10.567	$GPGGA,050111,2438.4652,N,08059.9225,W,1,9,1.7,12,M,,M,,*58
06/21/2015	05:01:11.539	$GPGGA,050112,2438.4643,N,08059.9249,W,1,9,1.7,12,M,,M,,*51
06/21/2015	05:01:12.952	$GPGGA,050113,2438.4635,N,08059.9271,W,1,9,1.7,12,M,,M,,*5A
06/21/2015	05:01:13.567	$GPGGA,050114,2438.4628,N,08059.9293,W,1,9,1.7,12,M,,M,,*5D
06/21/2015	05:01:14.567	$GPGGA,050115,2438.4620,N,08059.9315,W,1,9,1.7,12,M,,M,,*5B
06/21/2015	05:01:15.607	$GPGGA,050116,2438.4612,N,08059.9336,W,1,9,1.7,12,M,,M,,*58
06/21/2015	05:01:16.567	$GPGGA,050117,2438.4604,N,08059.9358,W,1,9,1.7,12,M,,M,,*56
06/21/2015	05:01:17.597	$GPGGA,050118,2438.4597,N,08059.9380,W,1,9,1.7,12,M,,M,,*55
06/21/2015	05:01:18.557	$GPGGA,050119,2438.4590,N,08059.9404,W,1,9,1.7,12,M,,M,,*58
06/21/2015	05:01:19.577	$GPGGA,050120,2438.4581,N,08059.9426,W,1,9,1.7,12,M,,M,,*52
06/21/2015	05:01:20.577	$GPGGA,050121,2438.4573,N,08059.9447,W,1,9,1.7,12,M,,M,,*59
06/21/2015	05:01:21.577	$GPGGA,050122,2438.4566,N,08059.9470,W,1,9,1.7,12,M,,M,,*5A
06/21/2015	05:01:22.557	$GPGGA,050123,2438.4559,N,08059.9492,W,1,9,1.7,12,M,,M,,*5B
06/21/2015	05:01:23.567	$GPGGA,050124,2438.4551,N,08059.9514,W,1,9,1.7,12,M,,M,,*5B
06/21/2015	05:01:24.550	$GPGGA,050125,2438.4543,N,08059.9538,W,1,9,1.7,12,M,,M,,*57
06/21/2015	05:01:25.567	$GPGGA,050126,2438.4536,N,08059.9559,W,1,9,1.7,12,M,,M,,*51
06/21/2015	05:01:26.549	$GPGGA,050127,2438.4529,N,08059.9582,W,1,9,1.7,12,M,,M,,*58
06/21/2015	05:01:27.577	$GPGGA,050128,2438.4520,N,08059.9604,W,1,9,1.7,12,M,,M,,*53
06/21/2015	05:01:28.549	$GPGGA,050129,2438.4514,N,08059.9628,W,1,9,1.7,12,M,,M,,*5B
06/21/2015	05:01:29.558	$GPGGA,050130,2438.4507,N,08059.9650,W,1,9,1.7,12,M,,M,,*5E
06/21/2015	05:01:30.539	$GPGGA,050131,2438.4498,N,08059.9672,W,1,9,1.7,12,M,,M,,*58
06/21/2015	05:01:31.567	$GPGGA,050132,2438.4491,N,08059.9694,W,1,9,1.7,12,M,,M,,*5A
06/21/2015	05:01:32.548	$GPGGA,050133,2438.4483,N,08059.9716,W,1,9,1.7,12,M,,M,,*53
06/21/2015	05:01:33.527	$GPGGA,050134,2438.4476,N,08059.9738,W,1,9,1.7,12,M,,M,,*52
06/21/2015	05:01:34.538	$GPGGA,050135,2438.4468,N,08059.9759,W,1,9,1.7,12,M,,M,,*5B
06/21/2015	05:01:35.567	$GPGGA,050136,2438.4460,N,08059.9783,W,1,9,1.7,12,M,,M,,*57
06/21/2015	05:01:36.540	$GPGGA,050137,2438.4453,N,08059.9805,W,1,9,1.7,12,M,,M,,*57
06/21/2015	05:01:37.550	$GPGGA,050138,2438.4444,N,08059.9827,W,1,9,1.7,12,M,,M,,*5E
06/21/2015	05:01:38.517	$GPGGA,050139,2438.4436,N,08059.9848,W,1,9,1.7,12,M,,M,,*53
06/21/2015	05:01:39.567	$GPGGA,050140,2438.4429,N,08059.9870,W,1,9,1.7,13,M,,M,,*59
06/21/2015	05:01:40.517	$GPGGA,050141,2438.4422,N,08059.9892,W,1,9,1.7,13,M,,M,,*5F
06/21/2015	05:01:41.527	$GPGGA,050142,2438.4414,N,08059.9913,W,1,9,1.7,13,M,,M,,*51
06/21/2015	05:01:42.517	$GPGGA,050143,2438.4407,N,08059.9935,W,1,9,1.7,13,M,,M,,*56
06/21/2015	05:01:43.556	$GPGGA,050144,2438.4400,N,08059.9957,W,1,9,1.7,13,M,,M,,*52
06/21/2015	05:01:44.627	$GPGGA,050145,2438.4392,N,08059.9978,W,1,9,1.7,13,M,,M,,*52
06/21/2015	05:01:45.617	$GPGGA,050146,2438.4385,N,08100.0000,W,1,9,1.7,13,M,,M,,*55
06/21/2015	05:01:46.507	$GPGGA,050147,2438.4378,N,08100.0023,W,1,9,1.7,13,M,,M,,*57
06/21/2015	05:01:47.527	$GPGGA,050148,2438.4370,N,08100.0045,W,1,9,1.7,13,M,,M,,*50
06/21/2015	05:01:48.507	$GPGGA,050149,2438.4362,N,08100.0069,W,1,9,1.7,13,M,,M,,*5C
06/21/2015	05:01:49.517	$GPGGA,050150,2438.4355,N,08100.0091,W,1,9,1.7,13,M,,M,,*57
06/21/2015	05:01:50.597	$GPGGA,050151,2438.4348,N,08100.0115,W,1,9,1.7,13,M,,M,,*57
06/21/2015	05:01:51.642	$GPGGA,050152,2438.4339,N,08100.0137,W,1,9,1.7,13,M,,M,,*52
06/21/2015	05:01:52.508	$GPGGA,050153,2438.4331,N,08100.0157,W,1,9,1.7,13,M,,M,,*5D
06/21/2015	05:01:53.507	$GPGGA,050154,2438.4325,N,08100.0180,W,1,9,1.7,13,M,,M,,*55
06/21/2015	05:01:54.487	$GPGGA,050155,2438.4317,N,08100.0202,W,1,9,1.7,13,M,,M,,*5C
06/21/2015	05:01:55.517	$GPGGA,050156,2438.4309,N,08100.0224,W,1,9,1.7,13,M,,M,,*54
06/21/2015	05:01:56.477	$GPGGA,050157,2438.4303,N,08100.0246,W,1,9,1.7,13,M,,M,,*5B
06/21/2015	05:01:57.597	$GPGGA,050158,2438.4295,N,08100.0267,W,1,9,1.7,13,M,,M,,*59
06/21/2015	05:01:58.487	$GPGGA,050159,2438.4287,N,08100.0290,W,1,9,1.7,13,M,,M,,*53
06/21/2015	05:01:59.639	$GPGGA,050200,2438.4279,N,08100.0312,W,1,9,1.7,13,M,,M,,*56
06/21/2015	05:02:00.487	$GPGGA,050201,2438.4272,N,08100.0336,W,1,9,1.7,13,M,,M,,*5A
06/21/2015	05:02:01.477	$GPGGA,050202,2438.4265,N,08100.0358,W,1,9,1.7,13,M,,M,,*57
06/21/2015	05:02:02.577	$GPGGA,050203,2438.4256,N,08100.0380,W,1,9,1.7,13,M,,M,,*53
06/21/2015	05:02:03.607	$GPGGA,050204,2438.4248,N,08100.0402,W,1,9,1.7,13,M,,M,,*56
06/21/2015	05:02:04.567	$GPGGA,050205,2438.4241,N,08100.0424,W,1,9,1.7,13,M,,M,,*5A
06/21/2015	05:02:05.597	$GPGGA,050206,2438.4233,N,08100.0446,W,1,9,1.7,13,M,,M,,*58
06/21/2015	05:02:06.577	$GPGGA,050207,2438.4226,N,08100.0469,W,1,9,1.7,13,M,,M,,*50
06/21/2015	05:02:07.597	$GPGGA,050208,2438.4218,N,08100.0491,W,1,9,1.7,13,M,,M,,*55
06/21/2015	05:02:08.557	$GPGGA,050209,2438.4211,N,08100.0513,W,1,9,1.7,13,M,,M,,*56
06/21/2015	05:02:09.577	$GPGGA,050210,2438.4203,N,08100.0535,W,1,9,1.7,13,M,,M,,*59
06/21/2015	05:02:10.550	$GPGGA,050211,2438.4195,N,08100.0557,W,1,9,1.7,13,M,,M,,*50
06/21/2015	05:02:11.587	$GPGGA,050212,2438.4187,N,08100.0579,W,1,9,1.7,13,M,,M,,*5C
06/21/2015	05:02:12.559	$GPGGA,050213,2438.4180,N,08100.0603,W,1,9,1.7,13,M,,M,,*54
06/21/2015	05:02:13.567	$GPGGA,050214,2438.4172,N,08100.0625,W,1,9,1.7,13,M,,M,,*5A
06/21/2015	05:02:14.549	$GPGGA,050215,2438.4165,N,08100.0647,W,1,9,1.7,13,M,,M,,*59
06/21/2015	05:02:15.577	$GPGGA,050216,2438.4157,N,08100.0669,W,1,9,1.7,13,M,,M,,*57
06/21/2015	05:02:16.550	$GPGGA,050217,2438.4150,N,08100.0691,W,1,9,1.7,13,M,,M,,*56
06/21/2015	05:02:17.557	$GPGGA,050218,2438.4143,N,08100.0713,W,1,9,1.7,13,M,,M,,*50
06/21/2015	05:02:18.541	$GPGGA,050219,2438.4136,N,08100.0735,W,1,9,1.7,13,M,,M,,*57
06/21/2015	05:02:19.557	$GPGGA,050220,2438.4130,N,08100.0758,W,1,9,1.7,13,M,,M,,*50
06/21/2015	05:02:20.539	$GPGGA,050221,2438.4122,N,08100.0780,W,1,9,1.7,13,M,,M,,*57
06/21/2015	05:02:21.557	$GPGGA,050222,2438.4114,N,08100.0805,W,1,9,1.7,13,M,,M,,*53
06/21/2015	05:02:22.538	$GPGGA,050223,2438.4107,N,08100.0827,W,1,9,1.7,13,M,,M,,*50
06/21/2015	05:02:23.567	$GPGGA,050224,2438.4100,N,08100.0852,W,1,9,1.7,13,M,,M,,*52
06/21/2015	05:02:24.539	$GPGGA,050225,2438.4093,N,08100.0874,W,1,9,1.7,13,M,,M,,*5C
06/21/2015	05:02:25.517	$GPGGA,050226,2438.4085,N,08100.0896,W,1,9,1.7,13,M,,M,,*54
06/21/2015	05:02:26.537	$GPGGA,050227,2438.4078,N,08100.0918,W,1,9,1.7,13,M,,M,,*50
06/21/2015	05:02:27.527	$GPGGA,050228,2438.4072,N,08100.0939,W,1,9,1.7,13,M,,M,,*56
06/21/2015	05:02:28.527	$GPGGA,050229,2438.4064,N,08100.0962,W,1,9,1.7,13,M,,M,,*5E
06/21/2015	05:02:29.517	$GPGGA,050230,2438.4059,N,08100.0986,W,1,9,1.7,13,M,,M,,*52
06/21/2015	05:02:30.527	$GPGGA,050231,2438.4050,N,08100.1008,W,1,9,1.7,13,M,,M,,*54
06/21/2015	05:02:31.539	$GPGGA,050232,2438.4043,N,08100.1031,W,1,9,1.7,13,M,,M,,*5F
06/21/2015	05:02:32.517	$GPGGA,050233,2438.4036,N,08100.1055,W,1,9,1.7,13,M,,M,,*5E
06/21/2015	05:02:33.507	$GPGGA,050234,2438.4030,N,08100.1077,W,1,9,1.7,13,M,,M,,*5F
06/21/2015	05:02:34.627	$GPGGA,050235,2438.4023,N,08100.1098,W,1,9,1.7,13,M,,M,,*5D
06/21/2015	05:02:35.527	$GPGGA,050236,2438.4016,N,08100.1121,W,1,9,1.7,13,M,,M,,*5B
06/21/2015	05:02:36.497	$GPGGA,050237,2438.4009,N,08100.1145,W,1,9,1.7,13,M,,M,,*56
06/21/2015	05:02:37.617	$GPGGA,050238,2438.4001,N,08100.1167,W,1,9,1.7,13,M,,M,,*51
06/21/2015	05:02:38.496	$GPGGA,050239,2438.3994,N,08100.1190,W,1,9,1.7,13,M,,M,,*5A
06/21/2015	05:02:39.607	$GPGGA,050240,2438.3987,N,08100.1214,W,1,9,1.7,13,M,,M,,*59
06/21/2015	05:02:40.487	$GPGGA,050241,2438.3980,N,08100.1236,W,1,9,1.7,13,M,,M,,*5F
06/21/2015	05:02:41.597	$GPGGA,050242,2438.3974,N,08100.1259,W,1,9,1.7,13,M,,M,,*5E
06/21/2015	05:02:43.017	$GPGGA,050243,2438.3967,N,08100.1282,W,1,9,1.7,13,M,,M,,*5B
06/21/2015	05:02:43.517	$GPGGA,050244,2438.3962,N,08100.1304,W,1,9,1.7,13,M,,M,,*56
06/21/2015	05:02:44.717	$GPGGA,050245,2438.3956,N,08100.1326,W,1,9,1.7,13,M,,M,,*50
06/21/2015	05:02:45.497	$GPGGA,050246,2438.3951,N,08100.1348,W,1,9,1.7,13,M,,M,,*5C
06/21/2015	05:02:46.587	$GPGGA,050247,2438.3944,N,08100.1373,W,1,9,1.7,13,M,,M,,*51
06/21/2015	05:02:47.597	$GPGGA,050248,2438.3938,N,08100.1396,W,1,9,1.7,13,M,,M,,*5E
06/21/2015	05:02:48.497	$GPGGA,050249,2438.3932,N,08100.1420,W,1,9,1.7,13,M,,M,,*5F
06/21/2015	05:02:49.477	$GPGGA,050250,2438.3926,N,08100.1443,W,1,9,1.7,13,M,,M,,*57
06/21/2015	05:02:50.567	$GPGGA,050251,2438.3919,N,08100.1465,W,1,9,1.7,13,M,,M,,*5E
06/21/2015	05:02:51.597	$GPGGA,050252,2438.3914,N,08100.1488,W,1,9,1.7,13,M,,M,,*53
06/21/2015	05:02:52.567	$GPGGA,050253,2438.3908,N,08100.1510,W,1,9,1.7,13,M,,M,,*5F
06/21/2015	05:02:53.587	$GPGGA,050254,2438.3902,N,08100.1532,W,1,9,1.7,13,M,,M,,*52
06/21/2015	05:02:54.577	$GPGGA,050255,2438.3896,N,08100.1554,W,1,9,1.7,13,M,,M,,*5F
06/21/2015	05:02:55.597	$GPGGA,050256,2438.3889,N,08100.1577,W,1,9,1.7,13,M,,M,,*53
06/21/2015	05:02:56.567	$GPGGA,050257,2438.3882,N,08100.1600,W,1,9,1.7,13,M,,M,,*5A
06/21/2015	05:02:57.567	$GPGGA,050258,2438.3875,N,08100.1622,W,1,9,1.7,13,M,,M,,*5D
06/21/2015	05:02:58.562	$GPGGA,050259,2438.3867,N,08100.1645,W,1,9,1.7,13,M,,M,,*5E
06/21/2015	05:02:59.597	$GPGGA,050300,2438.3860,N,08100.1667,W,1,9,1.7,13,M,,M,,*54
06/21/2015	05:03:00.549	$GPGGA,050301,2438.3853,N,08100.1689,W,1,9,1.7,13,M,,M,,*55
06/21/2015	05:03:01.567	$GPGGA,050302,2438.3844,N,08100.1712,W,1,9,1.7,13,M,,M,,*53
06/21/2015	05:03:02.557	$GPGGA,050303,2438.3837,N,08100.1734,W,1,9,1.7,13,M,,M,,*52
06/21/2015	05:03:03.577	$GPGGA,050304,2438.3830,N,08100.1756,W,1,9,1.7,13,M,,M,,*56
06/21/2015	05:03:04.551	$GPGGA,050305,2438.3824,N,08100.1777,W,1,9,1.7,13,M,,M,,*51
06/21/2015	05:03:05.554	$GPGGA,050306,2438.3815,N,08100.1799,W,1,9,1.7,13,M,,M,,*50
06/21/2015	05:03:06.552	$GPGGA,050307,2438.3808,N,08100.1821,W,1,9,1.7,13,M,,M,,*51
06/21/2015	05:03:07.567	$GPGGA,050308,2438.3801,N,08100.1843,W,1,9,1.7,13,M,,M,,*53
06/21/2015	05:03:08.534	$GPGGA,050309,2438.3793,N,08100.1865,W,1,9,1.7,13,M,,M,,*52
06/21/2015	05:03:09.547	$GPGGA,050310,2438.3784,N,08100.1887,W,1,9,1.7,13,M,,M,,*50
06/21/2015	05:03:10.534	$GPGGA,050311,2438.3777,N,08100.1911,W,1,9,1.7,13,M,,M,,*53
06/21/2015	05:03:11.557	$GPGGA,050312,2438.3768,N,08100.1933,W,1,9,1.7,13,M,,M,,*5E
06/21/2015	05:03:12.536	$GPGGA,050313,2438.3760,N,08100.1955,W,1,9,1.7,13,M,,M,,*57
06/21/2015	05:03:13.516	$GPGGA,050314,2438.3752,N,08100.1978,W,1,9,1.7,13,M,,M,,*5E
06/21/2015	05:03:14.529	$GPGGA,050315,2438.3745,N,08100.2001,W,1,9,1.7,13,M,,M,,*5D
06/21/2015	05:03:15.566	$GPGGA,050316,2438.3736,N,08100.2023,W,1,9,1.7,13,M,,M,,*5A
06/21/2015	05:03:16.530	$GPGGA,050317,2438.3730,N,08100.2045,W,1,9,1.7,13,M,,M,,*5D
06/21/2015	05:03:17.506	$GPGGA,050318,2438.3721,N,08100.2066,W,1,9,1.7,13,M,,M,,*53
06/21/2015	05:03:18.516	$GPGGA,050319,2438.3714,N,08100.2088,W,1,9,1.7,13,M,,M,,*54
06/21/2015	05:03:19.546	$GPGGA,050320,2438.3707,N,08100.2111,W,1,9,1.7,13,M,,M,,*5D
06/21/2015	05:03:20.636	$GPGGA,050321,2438.3699,N,08100.2135,W,1,9,1.7,13,M,,M,,*5C
06/21/2015	05:03:21.656	$GPGGA,050322,2438.3692,N,08100.2157,W,1,9,1.7,13,M,,M,,*50
06/21/2015	05:03:22.496	$GPGGA,050323,2438.3685,N,08100.2180,W,1,9,1.7,13,M,,M,,*5D
06/21/2015	05:03:23.542	$GPGGA,050324,2438.3680,N,08100.2202,W,1,9,1.7,13,M,,M,,*56
06/21/2015	05:03:24.497	$GPGGA,050325,2438.3672,N,08100.2225,W,1,9,1.7,13,M,,M,,*5F
06/21/2015	05:03:25.497	$GPGGA,050326,2438.3665,N,08100.2247,W,1,9,1.7,13,M,,M,,*5E
06/21/2015	05:03:26.630	$GPGGA,050327,2438.3659,N,08100.2269,W,1,9,1.7,13,M,,M,,*5C
06/21/2015	05:03:27.517	$GPGGA,050328,2438.3653,N,08100.2291,W,1,9,1.7,13,M,,M,,*5E
06/21/2015	05:03:28.497	$GPGGA,050329,2438.3647,N,08100.2314,W,1,9,1.7,13,M,,M,,*56
06/21/2015	05:03:29.667	$GPGGA,050330,2438.3640,N,08100.2337,W,1,9,1.7,13,M,,M,,*58
06/21/2015	05:03:30.487	$GPGGA,050331,2438.3633,N,08100.2359,W,1,9,1.7,13,M,,M,,*55
06/21/2015	05:03:31.506	$GPGGA,050332,2438.3627,N,08100.2382,W,1,9,1.7,13,M,,M,,*55
06/21/2015	05:03:32.576	$GPGGA,050333,2438.3622,N,08100.2404,W,1,9,1.7,13,M,,M,,*58
06/21/2015	05:03:33.476	$GPGGA,050334,2438.3615,N,08100.2426,W,1,9,1.7,13,M,,M,,*5B
06/21/2015	05:03:34.476	$GPGGA,050335,2438.3608,N,08100.2449,W,1,9,1.7,13,M,,M,,*5F
06/21/2015	05:03:35.576	$GPGGA,050336,2438.3602,N,08100.2471,W,1,9,1.7,13,M,,M,,*5D
06/21/2015	05:03:36.616	$GPGGA,050337,2438.3595,N,08100.2493,W,1,9,1.7,13,M,,M,,*5D
06/21/2015	05:03:37.676	$GPGGA,050338,2438.3589,N,08100.2516,W,1,9,1.7,13,M,,M,,*53
06/21/2015	05:03:38.596	$GPGGA,050339,2438.3582,N,08100.2540,W,1,9,1.7,13,M,,M,,*5A
06/21/2015	05:03:39.676	$GPGGA,050340,2438.3575,N,08100.2562,W,1,9,1.7,13,M,,M,,*5C
06/21/2015	05:03:40.636	$GPGGA,050341,2438.3568,N,08100.2585,W,1,9,1.7,13,M,,M,,*58
06/21/2015	05:03:41.667	$GPGGA,050342,2438.3562,N,08100.2608,W,1,9,1.7,13,M,,M,,*57
06/21/2015	05:03:42.597	$GPGGA,050343,2438.3555,N,08100.2630,W,1,9,1.7,13,M,,M,,*59
06/21/2015	05:03:43.657	$GPGGA,050344,2438.3549,N,08100.2653,W,1,9,1.7,13,M,,M,,*56
06/21/2015	05:03:44.577	$GPGGA,050345,2438.3542,N,08100.2677,W,1,9,1.7,13,M,,M,,*5A
06/21/2015	05:03:45.657	$GPGGA,050346,2438.3536,N,08100.2699,W,1,9,1.7,13,M,,M,,*5A
06/21/2015	05:03:46.547	$GPGGA,050347,2438.3529,N,08100.2721,W,1,9,1.7,13,M,,M,,*57
06/21/2015	05:03:47.667	$GPGGA,050348,2438.3522,N,08100.2743,W,1,9,1.7,13,M,,M,,*57
06/21/2015	05:03:48.566	$GPGGA,050349,2438.3517,N,08100.2765,W,1,9,1.7,13,M,,M,,*54
06/21/2015	05:03:49.676	$GPGGA,050350,2438.3510,N,08100.2789,W,1,9,1.7,13,M,,M,,*59
06/21/2015	05:03:50.576	$GPGGA,050351,2438.3503,N,08100.2811,W,1,9,1.7,13,M,,M,,*54
06/21/2015	05:03:51.666	$GPGGA,050352,2438.3495,N,08100.2833,W,1,9,1.7,13,M,,M,,*59
06/21/2015	05:03:52.566	$GPGGA,050353,2438.3488,N,08100.2858,W,1,9,1.7,13,M,,M,,*59
06/21/2015	05:03:53.526	$GPGGA,050354,2438.3481,N,08100.2880,W,1,9,1.7,13,M,,M,,*52
06/21/2015	05:03:54.556	$GPGGA,050355,2438.3474,N,08100.2905,W,1,9,1.7,13,M,,M,,*55
06/21/2015	05:03:55.656	$GPGGA,050356,2438.3466,N,08100.2927,W,1,9,1.7,13,M,,M,,*55
06/21/2015	05:03:56.556	$GPGGA,050357,2438.3459,N,08100.2949,W,1,9,1.7,13,M,,M,,*50
06/21/2015	05:03:57.516	$GPGGA,050358,2438.3452,N,08100.2973,W,1,9,1.7,13,M,,M,,*5D
06/21/2015	05:03:58.546	$GPGGA,050359,2438.3445,N,08100.2995,W,1,9,1.7,13,M,,M,,*52
06/21/2015	05:03:59.617	$GPGGA,050400,2438.3438,N,08100.3017,W,1,9,1.7,13,M,,M,,*51
06/21/2015	05:04:00.547	$GPGGA,050401,2438.3429,N,08100.3040,W,1,9,1.7,13,M,,M,,*52
06/21/2015	05:04:01.587	$GPGGA,050402,2438.3420,N,08100.3063,W,1,9,1.7,13,M,,M,,*59
06/21/2015	05:04:02.547	$GPGGA,050403,2438.3412,N,08100.3085,W,1,9,1.7,13,M,,M,,*51
06/21/2015	05:04:03.587	$GPGGA,050404,2438.3405,N,08100.3107,W,1,9,1.7,13,M,,M,,*5B
06/21/2015	05:04:04.541	$GPGGA,050405,2438.3398,N,08100.3130,W,1,9,1.7,13,M,,M,,*5D
06/21/2015	05:04:05.586	$GPGGA,050406,2438.3389,N,08100.3152,W,1,9,1.7,13,M,,M,,*5A
06/21/2015	05:04:06.506	$GPGGA,050407,2438.3381,N,08100.3173,W,1,9,1.7,13,M,,M,,*50
06/21/2015	05:04:07.596	$GPGGA,050408,2438.3373,N,08100.3195,W,1,9,1.7,13,M,,M,,*5A
06/21/2015	05:04:08.536	$GPGGA,050409,2438.3365,N,08100.3216,W,1,9,1.7,13,M,,M,,*54
06/21/2015	05:04:09.627	$GPGGA,050410,2438.3358,N,08100.3238,W,1,9,1.7,13,M,,M,,*5E
06/21/2015	05:04:10.496	$GPGGA,050411,2438.3349,N,08100.3262,W,1,9,1.7,13,M,,M,,*50
06/21/2015	05:04:11.586	$GPGGA,050412,2438.3341,N,08100.3282,W,1,9,1.7,13,M,,M,,*55
06/21/2015	05:04:12.540	$GPGGA,050413,2438.3333,N,08100.3306,W,1,9,1.7,13,M,,M,,*5C
06/21/2015	05:04:13.576	$GPGGA,050414,2438.3326,N,08100.3327,W,1,9,1.7,13,M,,M,,*5C
06/21/2015	05:04:14.538	$GPGGA,050415,2438.3317,N,08100.3349,W,1,9,1.7,13,M,,M,,*57
06/21/2015	05:04:15.596	$GPGGA,050416,2438.3311,N,08100.3371,W,1,9,1.7,13,M,,M,,*59
06/21/2015	05:04:16.517	$GPGGA,050417,2438.3302,N,08100.3392,W,1,9,1.7,12,M,,M,,*56
06/21/2015	05:04:17.587	$GPGGA,050418,2438.3295,N,08100.3415,W,1,9,1.7,12,M,,M,,*5E
06/21/2015	05:04:18.517	$GPGGA,050419,2438.3288,N,08100.3437,W,1,9,1.7,12,M,,M,,*53
06/21/2015	05:04:19.567	$GPGGA,050420,2438.3281,N,08100.3461,W,1,9,1.7,12,M,,M,,*53
06/21/2015	05:04:20.517	$GPGGA,050421,2438.3275,N,08100.3483,W,1,9,1.7,12,M,,M,,*55
06/21/2015	05:04:21.567	$GPGGA,050422,2438.3268,N,08100.3506,W,1,9,1.7,12,M,,M,,*56
06/21/2015	05:04:22.517	$GPGGA,050423,2438.3260,N,08100.3530,W,1,9,1.7,12,M,,M,,*5A
06/21/2015	05:04:23.576	$GPGGA,050424,2438.3254,N,08100.3551,W,1,9,1.7,12,M,,M,,*5D
06/21/2015	05:04:24.506	$GPGGA,050425,2438.3247,N,08100.3574,W,1,9,1.7,12,M,,M,,*59
06/21/2015	05:04:25.556	$GPGGA,050426,2438.3241,N,08100.3598,W,1,9,1.7,12,M,,M,,*5E
06/21/2015	05:04:26.567	$GPGGA,050427,2438.3234,N,08100.3620,W,1,9,1.7,12,M,,M,,*5D
06/21/2015	05:04:27.606	$GPGGA,050428,2438.3228,N,08100.3642,W,1,9,1.7,12,M,,M,,*5B
06/21/2015	05:04:28.566	$GPGGA,050429,2438.3221,N,08100.3665,W,1,9,1.7,12,M,,M,,*56
06/21/2015	05:04:29.566	$GPGGA,050430,2438.3214,N,08100.3689,W,1,9,1.7,12,M,,M,,*5A
06/21/2015	05:04:30.556	$GPGGA,050431,2438.3206,N,08100.3711,W,1,9,1.7,12,M,,M,,*58
06/21/2015	05:04:31.629	$GPGGA,050432,2438.3199,N,08100.3735,W,1,9,1.7,12,M,,M,,*58
06/21/2015	05:04:32.556	$GPGGA,050433,2438.3193,N,08100.3757,W,1,9,1.7,12,M,,M,,*57
06/21/2015	05:04:33.576	$GPGGA,050434,2438.3187,N,08100.3780,W,1,9,1.7,12,M,,M,,*5F
06/21/2015	05:04:34.547	$GPGGA,050435,2438.3181,N,08100.3802,W,1,9,1.7,12,M,,M,,*5D
06/21/2015	05:04:35.607	$GPGGA,050436,2438.3174,N,08100.3824,W,1,9,1.7,12,M,,M,,*50
06/21/2015	05:04:36.538	$GPGGA,050437,2438.3167,N,08100.3848,W,1,9,1.7,12,M,,M,,*59
06/21/2015	05:04:37.567	$GPGGA,050438,2438.3161,N,08100.3870,W,1,9,1.7,12,M,,M,,*5B
06/21/2015	05:04:38.537	$GPGGA,050439,2438.3154,N,08100.3894,W,1,9,1.7,12,M,,M,,*56
06/21/2015	05:04:39.587	$GPGGA,050440,2438.3147,N,08100.3917,W,1,9,1.7,12,M,,M,,*50
06/21/2015	05:04:40.537	$GPGGA,050441,2438.3140,N,08100.3941,W,1,9,1.7,12,M,,M,,*55
06/21/2015	05:04:41.606	$GPGGA,050442,2438.3140,N,08100.3941,W,1,9,1.7,12,M,,M,,*56
06/21/2015	05:04:42.538	$GPGGA,050443,2438.3127,N,08100.3985,W,1,9,1.7,12,M,,M,,*5E
06/21/2015	05:04:43.576	$GPGGA,050444,2438.3120,N,08100.4007,W,1,9,1.7,12,M,,M,,*5A
06/21/2015	05:04:44.536	$GPGGA,050445,2438.3114,N,08100.4029,W,1,9,1.7,12,M,,M,,*50
06/21/2015	05:04:45.566	$GPGGA,050446,2438.3107,N,08100.4053,W,1,9,1.7,12,M,,M,,*5C
06/21/2015	05:04:46.526	$GPGGA,050447,2438.3100,N,08100.4075,W,1,9,1.7,12,M,,M,,*5E
06/21/2015	05:04:47.586	$GPGGA,050448,2438.3093,N,08100.4098,W,1,9,1.7,12,M,,M,,*59
06/21/2015	05:04:48.528	$GPGGA,050449,2438.3087,N,08100.4120,W,1,9,1.7,12,M,,M,,*5F
06/21/2015	05:04:49.576	$GPGGA,050450,2438.3078,N,08100.4144,W,1,9,1.7,12,M,,M,,*55
06/21/2015	05:04:50.516	$GPGGA,050451,2438.3071,N,08100.4165,W,1,9,1.7,12,M,,M,,*5E
06/21/2015	05:04:51.577	$GPGGA,050452,2438.3063,N,08100.4187,W,1,9,1.7,12,M,,M,,*52
06/21/2015	05:04:52.543	$GPGGA,050453,2438.3056,N,08100.4210,W,1,9,1.7,12,M,,M,,*58
06/21/2015	05:04:53.557	$GPGGA,050454,2438.3048,N,08100.4232,W,1,9,1.7,12,M,,M,,*50
06/21/2015	05:04:54.517	$GPGGA,050455,2438.3041,N,08100.4256,W,1,9,1.7,12,M,,M,,*5A
06/21/2015	05:04:55.537	$GPGGA,050456,2438.3033,N,08100.4277,W,1,9,1.7,12,M,,M,,*5F
06/21/2015	05:04:56.697	$GPGGA,050457,2438.3033,N,08100.4277,W,1,9,1.7,12,M,,M,,*5E
06/21/2015	05:04:57.507	$GPGGA,050458,2438.3018,N,08100.4322,W,1,9,1.7,12,M,,M,,*59
06/21/2015	05:04:58.746	$GPGGA,050459,2438.3010,N,08100.4344,W,1,9,1.7,12,M,,M,,*50
06/21/2015	05:04:59.576	$GPGGA,050500,2438.3002,N,08100.4366,W,1,9,1.7,12,M,,M,,*5E
06/21/2015	05:05:00.506	$GPGGA,050501,2438.2994,N,08100.4389,W,1,9,1.7,12,M,,M,,*59
06/21/2015	05:05:01.506	$GPGGA,050502,2438.2994,N,08100.4389,W,1,9,1.7,12,M,,M,,*5A
06/21/2015	05:05:02.516	$GPGGA,050503,2438.2979,N,08100.4434,W,1,9,1.7,12,M,,M,,*59
06/21/2015	05:05:03.632	$GPGGA,050504,2438.2971,N,08100.4458,W,1,9,1.7,12,M,,M,,*5C
06/21/2015	05:05:04.586	$GPGGA,050505,2438.2963,N,08100.4480,W,1,9,1.7,12,M,,M,,*5B
06/21/2015	05:05:05.597	$GPGGA,050506,2438.2957,N,08100.4502,W,1,9,1.7,12,M,,M,,*54
06/21/2015	05:05:06.486	$GPGGA,050507,2438.2950,N,08100.4525,W,1,9,1.7,12,M,,M,,*57
06/21/2015	05:05:07.596	$GPGGA,050508,2438.2941,N,08100.4548,W,1,9,1.7,12,M,,M,,*53
06/21/2015	05:05:08.496	$GPGGA,050509,2438.2933,N,08100.4570,W,1,9,1.7,12,M,,M,,*5C
06/21/2015	05:05:09.577	$GPGGA,050510,2438.2926,N,08100.4592,W,1,9,1.7,12,M,,M,,*5C
06/21/2015	05:05:10.487	$GPGGA,050511,2438.2919,N,08100.4613,W,1,9,1.7,12,M,,M,,*5B
06/21/2015	05:05:11.607	$GPGGA,050512,2438.2912,N,08100.4636,W,1,9,1.7,12,M,,M,,*54
06/21/2015	05:05:12.577	$GPGGA,050513,2438.2905,N,08100.4658,W,1,9,1.7,12,M,,M,,*5B
06/21/2015	05:05:13.577	$GPGGA,050514,2438.2898,N,08100.4682,W,1,9,1.7,12,M,,M,,*5E
06/21/2015	05:05:14.577	$GPGGA,050515,2438.2892,N,08100.4704,W,1,9,1.7,12,M,,M,,*5A
06/21/2015	05:05:15.586	$GPGGA,050516,2438.2885,N,08100.4727,W,1,9,1.7,12,M,,M,,*5E
06/21/2015	05:05:16.566	$GPGGA,050517,2438.2878,N,08100.4749,W,1,9,1.7,12,M,,M,,*55
06/21/2015	05:05:17.576	$GPGGA,050518,2438.2871,N,08100.4772,W,1,9,1.7,12,M,,M,,*5B
06/21/2015	05:05:18.566	$GPGGA,050519,2438.2865,N,08100.4794,W,1,9,1.7,12,M,,M,,*57
06/21/2015	05:05:19.596	$GPGGA,050520,2438.2858,N,08100.4817,W,1,9,1.7,12,M,,M,,*57
06/21/2015	05:05:20.556	$GPGGA,050521,2438.2852,N,08100.4841,W,1,9,1.7,12,M,,M,,*5F
06/21/2015	05:05:21.546	$GPGGA,050522,2438.2845,N,08100.4863,W,1,9,1.7,12,M,,M,,*5A
06/21/2015	05:05:22.546	$GPGGA,050523,2438.2839,N,08100.4885,W,1,9,1.7,12,M,,M,,*58
06/21/2015	05:05:23.586	$GPGGA,050524,2438.2833,N,08100.4908,W,1,9,1.7,12,M,,M,,*51
06/21/2015	05:05:24.546	$GPGGA,050525,2438.2827,N,08100.4931,W,1,9,1.7,12,M,,M,,*5F
06/21/2015	05:05:25.566	$GPGGA,050526,2438.2827,N,08100.4931,W,1,9,1.7,12,M,,M,,*5C
06/21/2015	05:05:26.557	$GPGGA,050527,2438.2814,N,08100.4976,W,1,9,1.7,12,M,,M,,*5E
06/21/2015	05:05:27.577	$GPGGA,050528,2438.2807,N,08100.5000,W,1,9,1.7,12,M,,M,,*5A
06/21/2015	05:05:28.547	$GPGGA,050529,2438.2800,N,08100.5023,W,1,9,1.7,12,M,,M,,*5D
06/21/2015	05:05:29.567	$GPGGA,050530,2438.2793,N,08100.5048,W,1,9,1.7,12,M,,M,,*5D
06/21/2015	05:05:30.531	$GPGGA,050531,2438.2786,N,08100.5072,W,1,9,1.7,12,M,,M,,*51
06/21/2015	05:05:31.567	$GPGGA,050532,2438.2778,N,08100.5095,W,1,9,1.7,12,M,,M,,*5A
06/21/2015	05:05:32.531	$GPGGA,050533,2438.2773,N,08100.5117,W,1,9,1.7,12,M,,M,,*5B
06/21/2015	05:05:33.556	$GPGGA,050534,2438.2766,N,08100.5141,W,1,9,1.7,12,M,,M,,*5B
06/21/2015	05:05:34.526	$GPGGA,050535,2438.2759,N,08100.5163,W,1,9,1.8,12,M,,M,,*59
06/21/2015	05:05:35.566	$GPGGA,050536,2438.2752,N,08100.5186,W,1,9,1.8,12,M,,M,,*5A
06/21/2015	05:05:36.517	$GPGGA,050537,2438.2746,N,08100.5210,W,1,9,1.8,12,M,,M,,*52
06/21/2015	05:05:37.556	$GPGGA,050538,2438.2739,N,08100.5233,W,1,9,1.8,12,M,,M,,*54
06/21/2015	05:05:38.516	$GPGGA,050539,2438.2733,N,08100.5257,W,1,9,1.8,12,M,,M,,*5D
06/21/2015	05:05:39.532	$GPGGA,050540,2438.2726,N,08100.5280,W,1,9,1.8,12,M,,M,,*5D
06/21/2015	05:05:40.516	$GPGGA,050541,2438.2719,N,08100.5303,W,1,9,1.7,12,M,,M,,*55
06/21/2015	05:05:41.530	$GPGGA,050542,2438.2712,N,08100.5326,W,1,9,1.7,12,M,,M,,*5A
06/21/2015	05:05:42.506	$GPGGA,050543,2438.2705,N,08100.5347,W,1,9,1.7,12,M,,M,,*5A
06/21/2015	05:05:43.556	$GPGGA,050544,2438.2698,N,08100.5369,W,1,9,1.7,12,M,,M,,*54
06/21/2015	05:05:44.517	$GPGGA,050545,2438.2691,N,08100.5392,W,1,9,1.7,12,M,,M,,*58
06/21/2015	05:05:45.617	$GPGGA,050546,2438.2686,N,08100.5415,W,1,9,1.7,12,M,,M,,*55
06/21/2015	05:05:46.517	$GPGGA,050547,2438.2677,N,08100.5438,W,1,9,1.8,12,M,,M,,*5A
06/21/2015	05:05:47.631	$GPGGA,050548,2438.2670,N,08100.5462,W,1,9,1.8,12,M,,M,,*5D
06/21/2015	05:05:48.497	$GPGGA,050549,2438.2663,N,08100.5485,W,1,9,1.8,12,M,,M,,*57
06/21/2015	05:05:49.507	$GPGGA,050550,2438.2656,N,08100.5509,W,1,9,1.8,12,M,,M,,*5C
06/21/2015	05:05:50.486	$GPGGA,050551,2438.2650,N,08100.5531,W,1,9,1.8,12,M,,M,,*50
06/21/2015	05:05:51.506	$GPGGA,050552,2438.2643,N,08100.5553,W,1,9,1.8,12,M,,M,,*55
06/21/2015	05:05:52.496	$GPGGA,050553,2438.2635,N,08100.5575,W,1,9,1.8,12,M,,M,,*51
06/21/2015	05:05:53.516	$GPGGA,050554,2438.2629,N,08100.5597,W,1,9,1.8,12,M,,M,,*57
06/21/2015	05:05:54.496	$GPGGA,050555,2438.2622,N,08100.5618,W,1,9,1.8,12,M,,M,,*59
06/21/2015	05:05:55.616	$GPGGA,050556,2438.2615,N,08100.5641,W,1,9,1.8,12,M,,M,,*52
06/21/2015	05:05:56.496	$GPGGA,050557,2438.2608,N,08100.5665,W,1,9,1.8,12,M,,M,,*59
06/21/2015	05:05:57.576	$GPGGA,050558,2438.2600,N,08100.5688,W,1,9,1.8,12,M,,M,,*5D
06/21/2015	05:05:58.496	$GPGGA,050559,2438.2592,N,08100.5712,W,1,9,1.8,12,M,,M,,*56
06/21/2015	05:05:59.506	$GPGGA,050600,2438.2585,N,08100.5737,W,1,9,1.8,12,M,,M,,*58
06/21/2015	05:06:00.576	$GPGGA,050601,2438.2576,N,08100.5760,W,1,9,1.8,12,M,,M,,*57
06/21/2015	05:06:01.477	$GPGGA,050602,2438.2568,N,08100.5782,W,1,9,1.8,12,M,,M,,*57
06/21/2015	05:06:02.557	$GPGGA,050603,2438.2560,N,08100.5805,W,1,9,1.8,12,M,,M,,*5E
06/21/2015	05:06:03.617	$GPGGA,050604,2438.2553,N,08100.5827,W,1,9,1.8,12,M,,M,,*59
06/21/2015	05:06:04.567	$GPGGA,050605,2438.2546,N,08100.5849,W,1,9,1.8,12,M,,M,,*54
06/21/2015	05:06:05.577	$GPGGA,050606,2438.2538,N,08100.5871,W,1,9,1.8,12,M,,M,,*55
06/21/2015	05:06:06.557	$GPGGA,050607,2438.2529,N,08100.5892,W,1,9,1.8,12,M,,M,,*59
06/21/2015	05:06:07.607	$GPGGA,050608,2438.2522,N,08100.5915,W,1,9,1.8,12,M,,M,,*53
06/21/2015	05:06:08.556	$GPGGA,050609,2438.2514,N,08100.5937,W,1,9,1.8,12,M,,M,,*57
06/21/2015	05:06:09.556	$GPGGA,050610,2438.2506,N,08100.5961,W,1,9,1.8,12,M,,M,,*5F
06/21/2015	05:06:10.556	$GPGGA,050611,2438.2497,N,08100.5983,W,1,9,1.8,12,M,,M,,*5B
06/21/2015	05:06:11.596	$GPGGA,050612,2438.2489,N,08100.6006,W,1,9,1.8,12,M,,M,,*50
06/21/2015	05:06:12.546	$GPGGA,050613,2438.2481,N,08100.6029,W,1,9,1.8,12,M,,M,,*54
06/21/2015	05:06:13.566	$GPGGA,050614,2438.2473,N,08100.6051,W,1,9,1.8,12,M,,M,,*51
06/21/2015	05:06:14.546	$GPGGA,050615,2438.2466,N,08100.6073,W,1,9,1.8,12,M,,M,,*54
06/21/2015	05:06:15.546	$GPGGA,050616,2438.2457,N,08100.6094,W,1,9,1.8,12,M,,M,,*5C
06/21/2015	05:06:16.541	$GPGGA,050617,2438.2449,N,08100.6116,W,1,9,1.8,12,M,,M,,*59
06/21/2015	05:06:17.531	$GPGGA,050618,2438.2441,N,08100.6136,W,1,9,1.8,12,M,,M,,*5C
06/21/2015	05:06:18.539	$GPGGA,050619,2438.2433,N,08100.6158,W,1,9,1.8,12,M,,M,,*50
06/21/2015	05:06:19.567	$GPGGA,050620,2438.2426,N,08100.6181,W,1,9,1.8,12,M,,M,,*5A
06/21/2015	05:06:20.531	$GPGGA,050621,2438.2419,N,08100.6203,W,1,9,1.8,12,M,,M,,*5E
06/21/2015	05:06:21.531	$GPGGA,050622,2438.2411,N,08100.6226,W,1,9,1.8,12,M,,M,,*52
06/21/2015	05:06:22.540	$GPGGA,050623,2438.2403,N,08100.6250,W,1,9,1.8,12,M,,M,,*51
06/21/2015	05:06:23.567	$GPGGA,050624,2438.2395,N,08100.6272,W,1,9,1.8,12,M,,M,,*5E
06/21/2015	05:06:24.533	$GPGGA,050625,2438.2390,N,08100.6295,W,1,9,1.8,12,M,,M,,*53
06/21/2015	05:06:25.556	$GPGGA,050626,2438.2383,N,08100.6319,W,1,9,1.8,12,M,,M,,*57
06/21/2015	05:06:26.516	$GPGGA,050627,2438.2374,N,08100.6341,W,1,9,1.8,12,M,,M,,*53
06/21/2015	05:06:27.546	$GPGGA,050628,2438.2366,N,08100.6365,W,1,9,1.8,12,M,,M,,*59
06/21/2015	05:06:28.528	$GPGGA,050629,2438.2359,N,08100.6388,W,1,9,1.8,12,M,,M,,*57
06/21/2015	05:06:29.539	$GPGGA,050630,2438.2352,N,08100.6412,W,1,9,1.8,12,M,,M,,*50
06/21/2015	05:06:30.528	$GPGGA,050631,2438.2344,N,08100.6434,W,1,9,1.8,12,M,,M,,*52
06/21/2015	05:06:31.639	$GPGGA,050632,2438.2336,N,08100.6457,W,1,9,1.8,12,M,,M,,*51
06/21/2015	05:06:32.526	$GPGGA,050633,2438.2329,N,08100.6481,W,1,9,1.8,12,M,,M,,*55
06/21/2015	05:06:33.517	$GPGGA,050634,2438.2322,N,08100.6503,W,1,9,1.8,12,M,,M,,*52
06/21/2015	05:06:34.506	$GPGGA,050635,2438.2314,N,08100.6525,W,1,9,1.8,12,M,,M,,*52
06/21/2015	05:06:35.516	$GPGGA,050636,2438.2307,N,08100.6548,W,1,9,1.8,12,M,,M,,*58
06/21/2015	05:06:36.517	$GPGGA,050637,2438.2300,N,08100.6572,W,1,9,1.8,12,M,,M,,*57
06/21/2015	05:06:37.517	$GPGGA,050638,2438.2293,N,08100.6594,W,1,9,1.8,12,M,,M,,*5B
06/21/2015	05:06:38.507	$GPGGA,050639,2438.2286,N,08100.6618,W,1,9,1.8,12,M,,M,,*59
06/21/2015	05:06:39.517	$GPGGA,050640,2438.2278,N,08100.6640,W,1,9,1.8,12,M,,M,,*5B
06/21/2015	05:06:40.497	$GPGGA,050641,2438.2272,N,08100.6663,W,1,9,1.8,12,M,,M,,*51
06/21/2015	05:06:41.587	$GPGGA,050642,2438.2264,N,08100.6687,W,1,9,1.8,12,M,,M,,*5F
06/21/2015	05:06:42.497	$GPGGA,050643,2438.2257,N,08100.6709,W,1,9,1.8,12,M,,M,,*59
06/21/2015	05:06:43.586	$GPGGA,050644,2438.2250,N,08100.6732,W,1,9,1.8,12,M,,M,,*51
06/21/2015	05:06:44.476	$GPGGA,050645,2438.2243,N,08100.6756,W,1,9,1.8,12,M,,M,,*50
06/21/2015	05:06:45.486	$GPGGA,050646,2438.2236,N,08100.6778,W,1,9,1.8,12,M,,M,,*5D
06/21/2015	05:06:46.486	$GPGGA,050647,2438.2231,N,08100.6801,W,1,9,1.8,12,M,,M,,*5A
06/21/2015	05:06:47.496	$GPGGA,050648,2438.2224,N,08100.6824,W,1,9,1.8,12,M,,M,,*56
06/21/2015	05:06:48.567	$GPGGA,050649,2438.2217,N,08100.6846,W,1,9,1.8,12,M,,M,,*53
06/21/2015	05:06:49.566	$GPGGA,050650,2438.2211,N,08100.6869,W,1,9,1.8,12,M,,M,,*50
06/21/2015	05:06:50.566	$GPGGA,050651,2438.2206,N,08100.6891,W,1,9,1.8,12,M,,M,,*50
06/21/2015	05:06:51.606	$GPGGA,050652,2438.2198,N,08100.6915,W,1,9,1.8,12,M,,M,,*5A
06/21/2015	05:06:52.556	$GPGGA,050653,2438.2192,N,08100.6938,W,1,9,1.8,12,M,,M,,*5E
06/21/2015	05:06:53.586	$GPGGA,050654,2438.2185,N,08100.6962,W,1,9,1.8,12,M,,M,,*50
06/21/2015	05:06:54.567	$GPGGA,050655,2438.2179,N,08100.6985,W,1,9,1.8,12,M,,M,,*5B
06/21/2015	05:06:55.587	$GPGGA,050656,2438.2173,N,08100.7009,W,1,9,1.8,12,M,,M,,*5E
06/21/2015	05:06:56.567	$GPGGA,050657,2438.2166,N,08100.7031,W,1,9,1.8,12,M,,M,,*50
06/21/2015	05:06:57.557	$GPGGA,050658,2438.2159,N,08100.7053,W,1,9,1.8,12,M,,M,,*57
06/21/2015	05:06:58.557	$GPGGA,050659,2438.2152,N,08100.7075,W,1,9,1.8,12,M,,M,,*59
06/21/2015	05:06:59.597	$GPGGA,050700,2438.2145,N,08100.7099,W,1,9,1.8,12,M,,M,,*50
06/21/2015	05:07:00.546	$GPGGA,050701,2438.2139,N,08100.7121,W,1,9,1.8,12,M,,M,,*58
06/21/2015	05:07:01.566	$GPGGA,050702,2438.2131,N,08100.7143,W,1,9,1.8,12,M,,M,,*57
06/21/2015	05:07:02.546	$GPGGA,050703,2438.2124,N,08100.7167,W,1,9,1.8,12,M,,M,,*54
06/21/2015	05:07:03.576	$GPGGA,050704,2438.2117,N,08100.7189,W,1,9,1.8,12,M,,M,,*53
06/21/2015	05:07:04.542	$GPGGA,050705,2438.2109,N,08100.7212,W,1,9,1.8,12,M,,M,,*5C
06/21/2015	05:07:05.556	$GPGGA,050706,2438.2102,N,08100.7234,W,1,9,1.8,12,M,,M,,*50
06/21/2015	05:07:06.537	$GPGGA,050707,2438.2094,N,08100.7258,W,1,9,1.8,12,M,,M,,*55
06/21/2015	05:07:07.576	$GPGGA,050708,2438.2087,N,08100.7280,W,1,9,1.8,12,M,,M,,*5D
06/21/2015	05:07:08.531	$GPGGA,050709,2438.2079,N,08100.7302,W,1,9,1.8,12,M,,M,,*56
06/21/2015	05:07:09.528	$GPGGA,050710,2438.2072,N,08100.7326,W,1,9,1.8,12,M,,M,,*53
06/21/2015	05:07:10.516	$GPGGA,050711,2438.2065,N,08100.7348,W,1,9,1.8,12,M,,M,,*5C
06/21/2015	05:07:11.557	$GPGGA,050712,2438.2057,N,08100.7370,W,1,9,1.8,12,M,,M,,*55
06/21/2015	05:07:12.517	$GPGGA,050713,2438.2049,N,08100.7392,W,1,9,1.8,12,M,,M,,*57
06/21/2015	05:07:13.557	$GPGGA,050714,2438.2041,N,08100.7415,W,1,9,1.8,13,M,,M,,*51
06/21/2015	05:07:14.528	$GPGGA,050715,2438.2033,N,08100.7439,W,1,9,1.8,13,M,,M,,*5B
06/21/2015	05:07:15.567	$GPGGA,050716,2438.2025,N,08100.7461,W,1,9,1.8,13,M,,M,,*52
06/21/2015	05:07:16.529	$GPGGA,050717,2438.2018,N,08100.7483,W,1,9,1.8,13,M,,M,,*51
06/21/2015	05:07:17.507	$GPGGA,050718,2438.2009,N,08100.7507,W,1,9,1.8,13,M,,M,,*53
06/21/2015	05:07:18.527	$GPGGA,050719,2438.2001,N,08100.7529,W,1,9,1.8,13,M,,M,,*56
06/21/2015	05:07:19.516	$GPGGA,050720,2438.1994,N,08100.7551,W,1,9,1.8,13,M,,M,,*55
06/21/2015	05:07:20.629	$GPGGA,050721,2438.1985,N,08100.7573,W,1,9,1.8,13,M,,M,,*54
06/21/2015	05:07:21.516	$GPGGA,050722,2438.1978,N,08100.7597,W,1,9,1.8,13,M,,M,,*5F
06/21/2015	05:07:22.506	$GPGGA,050723,2438.1971,N,08100.7619,W,1,9,1.8,13,M,,M,,*52
06/21/2015	05:07:23.528	$GPGGA,050724,2438.1964,N,08100.7641,W,1,9,1.8,13,M,,M,,*5C
06/21/2015	05:07:24.496	$GPGGA,050725,2438.1956,N,08100.7664,W,1,9,1.8,13,M,,M,,*5B
06/21/2015	05:07:25.506	$GPGGA,050726,2438.1949,N,08100.7688,W,1,9,1.8,13,M,,M,,*54
06/21/2015	05:07:26.506	$GPGGA,050727,2438.1942,N,08100.7711,W,1,9,1.8,13,M,,M,,*5F
06/21/2015	05:07:27.530	$GPGGA,050728,2438.1935,N,08100.7735,W,1,9,1.8,13,M,,M,,*56
06/21/2015	05:07:28.606	$GPGGA,050729,2438.1927,N,08100.7758,W,1,9,1.8,13,M,,M,,*5F
06/21/2015	05:07:29.507	$GPGGA,050730,2438.1920,N,08100.7782,W,1,9,1.8,13,M,,M,,*57
06/21/2015	05:07:30.577	$GPGGA,050731,2438.1913,N,08100.7804,W,1,9,1.8,13,M,,M,,*57
06/21/2015	05:07:31.517	$GPGGA,050732,2438.1906,N,08100.7826,W,1,9,1.8,13,M,,M,,*50
06/21/2015	05:07:32.497	$GPGGA,050733,2438.1897,N,08100.7848,W,1,9,1.8,13,M,,M,,*50
06/21/2015	05:07:33.487	$GPGGA,050734,2438.1891,N,08100.7872,W,1,9,1.8,13,M,,M,,*58
06/21/2015	05:07:34.567	$GPGGA,050735,2438.1884,N,08100.7892,W,1,9,1.8,13,M,,M,,*53
06/21/2015	05:07:35.496	$GPGGA,050736,2438.1877,N,08100.7915,W,1,9,1.8,13,M,,M,,*52
06/21/2015	05:07:36.566	$GPGGA,050737,2438.1870,N,08100.7937,W,1,9,1.8,13,M,,M,,*54
06/21/2015	05:07:37.566	$GPGGA,050738,2438.1863,N,08100.7960,W,1,9,1.8,13,M,,M,,*5B
06/21/2015	05:07:38.576	$GPGGA,050739,2438.1855,N,08100.7984,W,1,9,1.8,13,M,,M,,*55
06/21/2015	05:07:39.576	$GPGGA,050740,2438.1849,N,08100.8006,W,1,9,1.8,13,M,,M,,*5A
06/21/2015	05:07:40.566	$GPGGA,050741,2438.1842,N,08100.8028,W,1,9,1.8,13,M,,M,,*5C
06/21/2015	05:07:41.586	$GPGGA,050742,2438.1835,N,08100.8051,W,1,9,1.8,13,M,,M,,*51
06/21/2015	05:07:42.566	$GPGGA,050743,2438.1828,N,08100.8074,W,1,9,1.8,13,M,,M,,*5B
06/21/2015	05:07:43.616	$GPGGA,050744,2438.1823,N,08100.8096,W,1,9,1.8,13,M,,M,,*5B
06/21/2015	05:07:44.566	$GPGGA,050745,2438.1815,N,08100.8118,W,1,9,1.8,13,M,,M,,*58
06/21/2015	05:07:45.576	$GPGGA,050746,2438.1808,N,08100.8140,W,1,9,1.8,13,M,,M,,*5A
06/21/2015	05:07:46.549	$GPGGA,050747,2438.1801,N,08100.8163,W,1,9,1.8,13,M,,M,,*53
06/21/2015	05:07:47.577	$GPGGA,050748,2438.1794,N,08100.8187,W,1,9,1.8,13,M,,M,,*55
06/21/2015	05:07:48.557	$GPGGA,050749,2438.1787,N,08100.8210,W,1,9,1.8,13,M,,M,,*5B
06/21/2015	05:07:49.567	$GPGGA,050750,2438.1780,N,08100.8233,W,1,9,1.8,13,M,,M,,*55
06/21/2015	05:07:50.547	$GPGGA,050751,2438.1773,N,08100.8256,W,1,9,1.8,13,M,,M,,*5B
06/21/2015	05:07:52.036	$GPGGA,050752,2438.1766,N,08100.8280,W,1,9,1.8,13,M,,M,,*57
06/21/2015	05:07:52.547	$GPGGA,050753,2438.1759,N,08100.8303,W,1,9,1.8,13,M,,M,,*50
06/21/2015	05:07:53.556	$GPGGA,050754,2438.1752,N,08100.8327,W,1,9,1.8,13,M,,M,,*5A
06/21/2015	05:07:54.529	$GPGGA,050755,2438.1747,N,08100.8349,W,1,9,1.8,13,M,,M,,*57
06/21/2015	05:07:55.586	$GPGGA,050756,2438.1740,N,08100.8372,W,1,9,1.8,13,M,,M,,*5B
06/21/2015	05:07:56.539	$GPGGA,050757,2438.1731,N,08100.8396,W,1,9,1.8,13,M,,M,,*56
06/21/2015	05:07:57.566	$GPGGA,050758,2438.1725,N,08100.8418,W,1,9,1.8,13,M,,M,,*5D
06/21/2015	05:07:58.546	$GPGGA,050759,2438.1719,N,08100.8441,W,1,9,1.8,13,M,,M,,*5F
06/21/2015	05:07:59.550	$GPGGA,050800,2438.1712,N,08100.8464,W,1,9,1.8,13,M,,M,,*50
06/21/2015	05:08:00.530	$GPGGA,050801,2438.1705,N,08100.8487,W,1,9,1.8,13,M,,M,,*5A
06/21/2015	05:08:01.516	$GPGGA,050802,2438.1698,N,08100.8511,W,1,9,1.8,13,M,,M,,*52
06/21/2015	05:08:02.531	$GPGGA,050803,2438.1691,N,08100.8534,W,1,9,1.8,13,M,,M,,*5D
06/21/2015	05:08:03.576	$GPGGA,050804,2438.1683,N,08100.8558,W,1,9,1.8,13,M,,M,,*53
06/21/2015	05:08:04.531	$GPGGA,050805,2438.1676,N,08100.8580,W,1,9,1.8,13,M,,M,,*5D
06/21/2015	05:08:05.533	$GPGGA,050806,2438.1669,N,08100.8602,W,1,9,1.8,13,M,,M,,*59
06/21/2015	05:08:06.507	$GPGGA,050807,2438.1662,N,08100.8624,W,1,9,1.8,13,M,,M,,*57
06/21/2015	05:08:07.517	$GPGGA,050808,2438.1654,N,08100.8646,W,1,9,1.8,13,M,,M,,*59
06/21/2015	05:08:08.535	$GPGGA,050809,2438.1646,N,08100.8667,W,1,9,1.8,13,M,,M,,*58
06/21/2015	05:08:09.557	$GPGGA,050810,2438.1639,N,08100.8690,W,1,9,1.8,13,M,,M,,*50
06/21/2015	05:08:10.596	$GPGGA,050811,2438.1631,N,08100.8712,W,1,9,1.8,13,M,,M,,*52
06/21/2015	05:08:11.540	$GPGGA,050812,2438.1622,N,08100.8736,W,1,9,1.8,13,M,,M,,*55
06/21/2015	05:08:12.516	$GPGGA,050813,2438.1613,N,08100.8758,W,1,9,1.8,13,M,,M,,*5E
06/21/2015	05:08:13.616	$GPGGA,050814,2438.1606,N,08100.8782,W,1,9,1.8,13,M,,M,,*5A
06/21/2015	05:08:14.486	$GPGGA,050815,2438.1597,N,08100.8804,W,1,9,1.8,13,M,,M,,*51
06/21/2015	05:08:15.556	$GPGGA,050816,2438.1589,N,08100.8826,W,1,9,1.8,13,M,,M,,*5D
06/21/2015	05:08:16.496	$GPGGA,050817,2438.1581,N,08100.8848,W,1,9,1.8,13,M,,M,,*5C
06/21/2015	05:08:17.506	$GPGGA,050818,2438.1573,N,08100.8869,W,1,9,1.8,13,M,,M,,*5D
06/21/2015	05:08:18.506	$GPGGA,050819,2438.1567,N,08100.8891,W,1,9,1.8,13,M,,M,,*5E
06/21/2015	05:08:19.627	$GPGGA,050820,2438.1560,N,08100.8913,W,1,9,1.8,13,M,,M,,*58
06/21/2015	05:08:20.516	$GPGGA,050821,2438.1552,N,08100.8936,W,1,9,1.8,13,M,,M,,*5F
06/21/2015	05:08:21.597	$GPGGA,050822,2438.1545,N,08100.8960,W,1,9,1.8,13,M,,M,,*59
06/21/2015	05:08:22.497	$GPGGA,050823,2438.1538,N,08100.8982,W,1,9,1.8,13,M,,M,,*5E
06/21/2015	05:08:23.497	$GPGGA,050824,2438.1531,N,08100.9004,W,1,9,1.8,13,M,,M,,*56
06/21/2015	05:08:24.577	$GPGGA,050825,2438.1523,N,08100.9028,W,1,9,1.8,13,M,,M,,*5A
06/21/2015	05:08:25.477	$GPGGA,050826,2438.1516,N,08100.9050,W,1,9,1.8,13,M,,M,,*50
06/21/2015	05:08:26.577	$GPGGA,050827,2438.1509,N,08100.9072,W,1,9,1.8,13,M,,M,,*5F
06/21/2015	05:08:27.637	$GPGGA,050828,2438.1502,N,08100.9094,W,1,9,1.8,13,M,,M,,*53
06/21/2015	05:08:28.646	$GPGGA,050829,2438.1494,N,08100.9118,W,1,9,1.8,13,M,,M,,*59
06/21/2015	05:08:29.586	$GPGGA,050830,2438.1487,N,08100.9140,W,1,9,1.8,13,M,,M,,*5E
06/21/2015	05:08:30.566	$GPGGA,050831,2438.1480,N,08100.9162,W,1,9,1.8,13,M,,M,,*58
06/21/2015	05:08:31.606	$GPGGA,050832,2438.1473,N,08100.9185,W,1,9,1.8,13,M,,M,,*5E
06/21/2015	05:08:32.557	$GPGGA,050833,2438.1466,N,08100.9207,W,1,9,1.8,13,M,,M,,*52
06/21/2015	05:08:33.556	$GPGGA,050834,2438.1459,N,08100.9230,W,1,9,1.8,13,M,,M,,*5D
06/21/2015	05:08:34.566	$GPGGA,050835,2438.1452,N,08100.9254,W,1,9,1.8,13,M,,M,,*55
06/21/2015	05:08:35.586	$GPGGA,050836,2438.1444,N,08100.9277,W,1,9,1.8,13,M,,M,,*50
06/21/2015	05:08:36.546	$GPGGA,050837,2438.1437,N,08100.9299,W,1,9,1.8,13,M,,M,,*55
06/21/2015	05:08:37.566	$GPGGA,050838,2438.1431,N,08100.9322,W,1,9,1.8,13,M,,M,,*5D
06/21/2015	05:08:38.546	$GPGGA,050839,2438.1424,N,08100.9346,W,1,9,1.8,13,M,,M,,*5A
06/21/2015	05:08:39.597	$GPGGA,050840,2438.1418,N,08100.9368,W,1,9,1.8,13,M,,M,,*57
06/21/2015	05:08:40.557	$GPGGA,050841,2438.1411,N,08100.9390,W,1,9,1.8,13,M,,M,,*58
06/21/2015	05:08:41.537	$GPGGA,050842,2438.1404,N,08100.9413,W,1,9,1.8,13,M,,M,,*53
06/21/2015	05:08:42.547	$GPGGA,050843,2438.1396,N,08100.9436,W,1,9,1.8,13,M,,M,,*59
06/21/2015	05:08:43.567	$GPGGA,050844,2438.1390,N,08100.9459,W,1,9,1.8,13,M,,M,,*51
06/21/2015	05:08:44.547	$GPGGA,050845,2438.1383,N,08100.9481,W,1,9,1.8,13,M,,M,,*57
06/21/2015	05:08:45.566	$GPGGA,050846,2438.1376,N,08100.9505,W,1,9,1.8,13,M,,M,,*53
06/21/2015	05:08:46.530	$GPGGA,050847,2438.1369,N,08100.9527,W,1,9,1.8,13,M,,M,,*5C
06/21/2015	05:08:47.566	$GPGGA,050848,2438.1364,N,08100.9550,W,1,9,1.8,13,M,,M,,*5E
06/21/2015	05:08:48.536	$GPGGA,050849,2438.1357,N,08100.9572,W,1,9,1.8,13,M,,M,,*5F
06/21/2015	05:08:49.530	$GPGGA,050850,2438.1349,N,08100.9596,W,1,9,1.8,13,M,,M,,*52
06/21/2015	05:08:50.516	$GPGGA,050851,2438.1342,N,08100.9620,W,1,9,1.8,13,M,,M,,*56
06/21/2015	05:08:51.544	$GPGGA,050852,2438.1335,N,08100.9643,W,1,9,1.8,13,M,,M,,*50
06/21/2015	05:08:52.546	$GPGGA,050853,2438.1329,N,08100.9668,W,1,9,1.8,13,M,,M,,*55
06/21/2015	05:08:53.546	$GPGGA,050854,2438.1322,N,08100.9690,W,1,9,1.8,13,M,,M,,*5E
06/21/2015	05:08:54.516	$GPGGA,050855,2438.1315,N,08100.9714,W,1,9,1.8,13,M,,M,,*56
06/21/2015	05:08:55.538	$GPGGA,050856,2438.1310,N,08100.9736,W,1,9,1.8,13,M,,M,,*50
06/21/2015	05:08:56.517	$GPGGA,050857,2438.1303,N,08100.9758,W,1,9,1.8,13,M,,M,,*5B
06/21/2015	05:08:57.531	$GPGGA,050858,2438.1295,N,08100.9783,W,1,9,1.8,13,M,,M,,*5C
06/21/2015	05:08:58.517	$GPGGA,050859,2438.1288,N,08100.9805,W,1,9,1.8,13,M,,M,,*50
06/21/2015	05:08:59.587	$GPGGA,050900,2438.1281,N,08100.9828,W,1,9,1.8,13,M,,M,,*5B
06/21/2015	05:09:00.517	$GPGGA,050901,2438.1273,N,08100.9852,W,1,9,1.8,13,M,,M,,*5A
06/21/2015	05:09:01.529	$GPGGA,050902,2438.1265,N,08100.9875,W,1,9,1.8,13,M,,M,,*5B
06/21/2015	05:09:02.507	$GPGGA,050903,2438.1257,N,08100.9899,W,1,9,1.8,13,M,,M,,*59
06/21/2015	05:09:03.539	$GPGGA,050904,2438.1249,N,08100.9922,W,1,9,1.8,13,M,,M,,*50
06/21/2015	05:09:04.529	$GPGGA,050905,2438.1242,N,08100.9944,W,1,9,1.8,13,M,,M,,*5A
06/21/2015	05:09:05.630	$GPGGA,050906,2438.1235,N,08100.9967,W,1,9,1.8,13,M,,M,,*58
06/21/2015	05:09:06.568	$GPGGA,050907,2438.1227,N,08100.9989,W,1,9,1.8,13,M,,M,,*5A
06/21/2015	05:09:07.536	$GPGGA,050908,2438.1219,N,08101.0011,W,1,9,1.8,13,M,,M,,*58
06/21/2015	05:09:08.496	$GPGGA,050909,2438.1212,N,08101.0033,W,1,9,1.8,13,M,,M,,*52
06/21/2015	05:09:09.566	$GPGGA,050910,2438.1205,N,08101.0056,W,1,9,1.8,13,M,,M,,*5F
06/21/2015	05:09:10.566	$GPGGA,050911,2438.1196,N,08101.0079,W,1,9,1.8,13,M,,M,,*5A
06/21/2015	05:09:11.606	$GPGGA,050912,2438.1188,N,08101.0101,W,1,9,1.8,13,M,,M,,*58
06/21/2015	05:09:12.576	$GPGGA,050913,2438.1180,N,08101.0124,W,1,9,1.8,13,M,,M,,*56
06/21/2015	05:09:13.476	$GPGGA,050914,2438.1173,N,08101.0148,W,1,9,1.8,13,M,,M,,*57
06/21/2015	05:09:14.556	$GPGGA,050915,2438.1165,N,08101.0168,W,1,9,1.8,13,M,,M,,*53
06/21/2015	05:09:15.606	$GPGGA,050916,2438.1158,N,08101.0191,W,1,9,1.8,13,M,,M,,*58
06/21/2015	05:09:16.556	$GPGGA,050917,2438.1151,N,08101.0213,W,1,9,1.8,13,M,,M,,*59
06/21/2015	05:09:17.556	$GPGGA,050918,2438.1143,N,08101.0236,W,1,9,1.8,13,M,,M,,*52
06/21/2015	05:09:18.556	$GPGGA,050919,2438.1136,N,08101.0260,W,1,9,1.8,13,M,,M,,*52
06/21/2015	05:09:19.576	$GPGGA,050920,2438.1129,N,08101.0282,W,1,9,1.8,13,M,,M,,*5A
06/21/2015	05:09:20.555	$GPGGA,050921,2438.1120,N,08101.0307,W,1,9,1.8,13,M,,M,,*5E
06/21/2015	05:09:21.555	$GPGGA,050922,2438.1112,N,08101.0329,W,1,9,1.8,13,M,,M,,*50
06/21/2015	05:09:22.565	$GPGGA,050923,2438.1105,N,08101.0352,W,1,9,1.8,13,M,,M,,*5B
06/21/2015	05:09:23.575	$GPGGA,050924,2438.1097,N,08101.0376,W,1,9,1.8,13,M,,M,,*50
06/21/2015	05:09:24.546	$GPGGA,050925,2438.1089,N,08101.0398,W,1,9,1.8,13,M,,M,,*5E
06/21/2015	05:09:25.556	$GPGGA,050926,2438.1082,N,08101.0420,W,1,9,1.8,13,M,,M,,*52
06/21/2015	05:09:26.536	$GPGGA,050927,2438.1075,N,08101.0444,W,1,9,1.8,13,M,,M,,*59
06/21/2015	05:09:27.566	$GPGGA,050928,2438.1068,N,08101.0466,W,1,9,1.8,13,M,,M,,*5A
06/21/2015	05:09:28.537	$GPGGA,050929,2438.1059,N,08101.0488,W,1,9,1.8,13,M,,M,,*59
06/21/2015	05:09:29.546	$GPGGA,050930,2438.1051,N,08101.0511,W,1,9,1.8,13,M,,M,,*58
06/21/2015	05:09:30.526	$GPGGA,050931,2438.1044,N,08101.0535,W,1,9,1.8,13,M,,M,,*5B
06/21/2015	05:09:31.576	$GPGGA,050932,2438.1036,N,08101.0560,W,1,9,1.8,13,M,,M,,*5D
06/21/2015	05:09:32.532	$GPGGA,050933,2438.1028,N,08101.0582,W,1,9,1.8,13,M,,M,,*5F
06/21/2015	05:09:33.516	$GPGGA,050934,2438.1021,N,08101.0605,W,1,9,1.8,13,M,,M,,*5D
06/21/2015	05:09:34.524	$GPGGA,050935,2438.1013,N,08101.0629,W,1,9,1.8,13,M,,M,,*53
06/21/2015	05:09:35.566	$GPGGA,050936,2438.1005,N,08101.0651,W,1,9,1.8,13,M,,M,,*58
06/21/2015	05:09:36.506	$GPGGA,050937,2438.0999,N,08101.0673,W,1,9,1.8,13,M,,M,,*54
06/21/2015	05:09:37.546	$GPGGA,050938,2438.0992,N,08101.0695,W,1,9,1.8,13,M,,M,,*58
06/21/2015	05:09:38.540	$GPGGA,050939,2438.0985,N,08101.0717,W,1,9,1.8,13,M,,M,,*54
06/21/2015	05:09:39.555	$GPGGA,050940,2438.0978,N,08101.0741,W,1,9,1.8,13,M,,M,,*5B
06/21/2015	05:09:40.522	$GPGGA,050941,2438.0971,N,08101.0763,W,1,9,1.8,13,M,,M,,*53
06/21/2015	05:09:41.506	$GPGGA,050942,2438.0964,N,08101.0788,W,1,9,1.8,13,M,,M,,*51
06/21/2015	05:09:42.496	$GPGGA,050943,2438.0957,N,08101.0810,W,1,9,1.8,13,M,,M,,*5E
06/21/2015	05:09:43.519	$GPGGA,050944,2438.0949,N,08101.0835,W,1,9,1.8,13,M,,M,,*51
06/21/2015	05:09:44.506	$GPGGA,050945,2438.0942,N,08101.0856,W,1,9,1.8,13,M,,M,,*5E
06/21/2015	05:09:46.229	$GPGGA,050946,2438.0938,N,08101.0879,W,1,9,1.8,13,M,,M,,*5D
06/21/2015	05:09:46.506	$GPGGA,050947,2438.0930,N,08101.0901,W,1,9,1.8,13,M,,M,,*5A
06/21/2015	05:09:47.546	$GPGGA,050948,2438.0923,N,08101.0922,W,1,9,1.8,13,M,,M,,*56
06/21/2015	05:09:48.506	$GPGGA,050949,2438.0916,N,08101.0946,W,1,9,1.8,13,M,,M,,*53
06/21/2015	05:09:49.496	$GPGGA,050950,2438.0909,N,08101.0968,W,1,9,1.8,13,M,,M,,*59
06/21/2015	05:09:50.496	$GPGGA,050951,2438.0901,N,08101.0993,W,1,9,1.8,13,M,,M,,*54
06/21/2015	05:09:51.496	$GPGGA,050952,2438.0894,N,08101.1015,W,1,9,1.8,13,M,,M,,*5C
06/21/2015	05:09:52.576	$GPGGA,050953,2438.0888,N,08101.1038,W,1,9,1.8,13,M,,M,,*5F
06/21/2015	05:09:53.496	$GPGGA,050954,2438.0881,N,08101.1062,W,1,9,1.8,13,M,,M,,*5E
06/21/2015	05:09:54.576	$GPGGA,050955,2438.0874,N,08101.1084,W,1,9,1.8,13,M,,M,,*5D
06/21/2015	05:09:55.485	$GPGGA,050956,2438.0867,N,08101.1105,W,1,9,1.8,13,M,,M,,*54
06/21/2015	05:09:56.485	$GPGGA,050957,2438.0862,N,08101.1128,W,1,9,1.8,13,M,,M,,*5F
06/21/2015	05:09:57.565	$GPGGA,050958,2438.0855,N,08101.1152,W,1,9,1.8,13,M,,M,,*59
06/21/2015	05:09:58.565	$GPGGA,050959,2438.0847,N,08101.1174,W,1,9,1.8,13,M,,M,,*5F
06/21/2015	05:09:59.536	$GPGGA,051000,2438.0840,N,08101.1196,W,1,9,1.8,13,M,,M,,*50
06/21/2015	05:10:00.566	$GPGGA,051001,2438.0834,N,08101.1219,W,1,9,1.8,13,M,,M,,*56
06/21/2015	05:10:01.576	$GPGGA,051002,2438.0827,N,08101.1243,W,1,9,1.8,12,M,,M,,*59
06/21/2015	05:10:02.556	$GPGGA,051003,2438.0819,N,08101.1265,W,1,9,1.8,12,M,,M,,*51
06/21/2015	05:10:03.586	$GPGGA,051004,2438.0813,N,08101.1290,W,1,9,1.8,12,M,,M,,*56
06/21/2015	05:10:04.556	$GPGGA,051005,2438.0806,N,08101.1312,W,1,9,1.8,12,M,,M,,*58
06/21/2015	05:10:05.576	$GPGGA,051006,2438.0798,N,08101.1335,W,1,9,1.8,12,M,,M,,*56
06/21/2015	05:10:06.556	$GPGGA,051007,2438.0791,N,08101.1358,W,1,9,1.8,12,M,,M,,*55
06/21/2015	05:10:07.576	$GPGGA,051008,2438.0784,N,08101.1380,W,1,9,1.8,12,M,,M,,*5B
06/21/2015	05:10:08.546	$GPGGA,051009,2438.0777,N,08101.1403,W,1,9,1.8,12,M,,M,,*5A
06/21/2015	05:10:09.566	$GPGGA,051010,2438.0769,N,08101.1427,W,1,9,1.8,12,M,,M,,*5B
06/21/2015	05:10:10.556	$GPGGA,051011,2438.0761,N,08101.1449,W,1,9,1.8,12,M,,M,,*5A
06/21/2015	05:10:11.566	$GPGGA,051012,2438.0755,N,08101.1472,W,1,9,1.8,12,M,,M,,*56
06/21/2015	05:10:12.546	$GPGGA,051013,2438.0748,N,08101.1496,W,1,9,1.8,12,M,,M,,*51
06/21/2015	05:10:13.535	$GPGGA,051014,2438.0740,N,08101.1519,W,1,9,1.8,12,M,,M,,*58
06/21/2015	05:10:14.545	$GPGGA,051015,2438.0733,N,08101.1542,W,1,9,1.8,12,M,,M,,*53
06/21/2015	05:10:15.565	$GPGGA,051016,2438.0726,N,08101.1564,W,1,9,1.8,12,M,,M,,*50
06/21/2015	05:10:16.536	$GPGGA,051017,2438.0719,N,08101.1586,W,1,9,1.8,12,M,,M,,*51
06/21/2015	05:10:17.546	$GPGGA,051018,2438.0711,N,08101.1609,W,1,9,1.8,12,M,,M,,*52
06/21/2015	05:10:18.536	$GPGGA,051019,2438.0704,N,08101.1633,W,1,9,1.8,12,M,,M,,*5E
06/21/2015	05:10:19.528	$GPGGA,051020,2438.0696,N,08101.1656,W,1,9,1.8,12,M,,M,,*5D
06/21/2015	05:10:20.527	$GPGGA,051021,2438.0688,N,08101.1680,W,1,9,1.8,12,M,,M,,*58
06/21/2015	05:10:21.546	$GPGGA,051022,2438.0681,N,08101.1702,W,1,9,1.8,12,M,,M,,*59
06/21/2015	05:10:22.536	$GPGGA,051023,2438.0672,N,08101.1727,W,1,9,1.8,12,M,,M,,*53
06/21/2015	05:10:23.556	$GPGGA,051024,2438.0665,N,08101.1749,W,1,9,1.8,12,M,,M,,*5A
06/21/2015	05:10:24.517	$GPGGA,051025,2438.0656,N,08101.1771,W,1,9,1.8,12,M,,M,,*50
06/21/2015	05:10:25.507	$GPGGA,051026,2438.0649,N,08101.1793,W,1,9,1.8,12,M,,M,,*51
06/21/2015	05:10:26.530	$GPGGA,051027,2438.0642,N,08101.1817,W,1,9,1.8,12,M,,M,,*58
06/21/2015	05:10:27.530	$GPGGA,051028,2438.0634,N,08101.1839,W,1,9,1.8,12,M,,M,,*5A
06/21/2015	05:10:28.516	$GPGGA,051029,2438.0627,N,08101.1861,W,1,9,1.8,12,M,,M,,*54
06/21/2015	05:10:29.526	$GPGGA,051030,2438.0620,N,08101.1884,W,1,9,1.8,12,M,,M,,*50
06/21/2015	05:10:30.495	$GPGGA,051031,2438.0611,N,08101.1907,W,1,9,1.8,12,M,,M,,*59
06/21/2015	05:10:31.545	$GPGGA,051032,2438.0605,N,08101.1929,W,1,9,1.8,12,M,,M,,*53
06/21/2015	05:10:32.620	$GPGGA,051033,2438.0598,N,08101.1952,W,1,9,1.8,12,M,,M,,*59
06/21/2015	05:10:33.785	$GPGGA,051034,2438.0589,N,08101.1976,W,1,9,1.8,12,M,,M,,*58
06/21/2015	05:10:34.486	$GPGGA,051035,2438.0581,N,08101.1998,W,1,9,1.8,12,M,,M,,*51
06/21/2015	05:10:35.536	$GPGGA,051036,2438.0574,N,08101.2020,W,1,9,1.8,12,M,,M,,*51
06/21/2015	05:10:36.606	$GPGGA,051037,2438.0567,N,08101.2042,W,1,9,1.8,12,M,,M,,*56
06/21/2015	05:10:37.586	$GPGGA,051038,2438.0560,N,08101.2064,W,1,9,1.8,12,M,,M,,*5A
06/21/2015	05:10:38.486	$GPGGA,051039,2438.0553,N,08101.2088,W,1,9,1.8,12,M,,M,,*59
06/21/2015	05:10:39.496	$GPGGA,051040,2438.0546,N,08101.2110,W,1,9,1.8,12,M,,M,,*53
06/21/2015	05:10:40.596	$GPGGA,051041,2438.0540,N,08101.2132,W,1,9,1.8,12,M,,M,,*54
06/21/2015	05:10:41.616	$GPGGA,051042,2438.0533,N,08101.2154,W,1,9,1.8,12,M,,M,,*53
06/21/2015	05:10:42.486	$GPGGA,051043,2438.0526,N,08101.2178,W,1,9,1.8,12,M,,M,,*58
06/21/2015	05:10:43.486	$GPGGA,051044,2438.0518,N,08101.2201,W,1,9,1.8,12,M,,M,,*5F
06/21/2015	05:10:44.566	$GPGGA,051045,2438.0511,N,08101.2225,W,1,9,1.8,12,M,,M,,*51
06/21/2015	05:10:45.476	$GPGGA,051046,2438.0504,N,08101.2248,W,1,9,1.8,12,M,,M,,*5D
06/21/2015	05:10:46.476	$GPGGA,051047,2438.0497,N,08101.2272,W,1,9,1.8,12,M,,M,,*5E
06/21/2015	05:10:47.576	$GPGGA,051048,2438.0490,N,08101.2294,W,1,9,1.8,12,M,,M,,*5E
06/21/2015	05:10:48.475	$GPGGA,051049,2438.0484,N,08101.2316,W,1,9,1.8,12,M,,M,,*51
06/21/2015	05:10:49.565	$GPGGA,051050,2438.0479,N,08101.2337,W,1,9,1.8,12,M,,M,,*58
06/21/2015	05:10:50.555	$GPGGA,051051,2438.0471,N,08101.2359,W,1,9,1.8,12,M,,M,,*59
06/21/2015	05:10:51.624	$GPGGA,051052,2438.0465,N,08101.2381,W,1,9,1.8,12,M,,M,,*5A
06/21/2015	05:10:52.556	$GPGGA,051053,2438.0459,N,08101.2403,W,1,9,1.8,12,M,,M,,*59
06/21/2015	05:10:53.586	$GPGGA,051054,2438.0452,N,08101.2428,W,1,9,1.8,12,M,,M,,*5C
06/21/2015	05:10:54.576	$GPGGA,051055,2438.0446,N,08101.2450,W,1,9,1.8,12,M,,M,,*57
06/21/2015	05:10:55.586	$GPGGA,051056,2438.0440,N,08101.2475,W,1,9,1.8,12,M,,M,,*55
06/21/2015	05:10:56.546	$GPGGA,051057,2438.0433,N,08101.2498,W,1,9,1.8,12,M,,M,,*53
06/21/2015	05:10:57.556	$GPGGA,051058,2438.0426,N,08101.2523,W,1,9,1.8,12,M,,M,,*59
06/21/2015	05:10:58.556	$GPGGA,051059,2438.0419,N,08101.2547,W,1,9,1.8,12,M,,M,,*56
06/21/2015	05:10:59.586	$GPGGA,051100,2438.0412,N,08101.2569,W,1,9,1.8,12,M,,M,,*5C
06/21/2015	05:11:00.546	$GPGGA,051101,2438.0406,N,08101.2592,W,1,9,1.8,12,M,,M,,*5C
06/21/2015	05:11:01.533	$GPGGA,051102,2438.0399,N,08101.2615,W,1,9,1.8,12,M,,M,,*52
06/21/2015	05:11:02.531	$GPGGA,051103,2438.0392,N,08101.2637,W,1,9,1.8,12,M,,M,,*58
06/21/2015	05:11:03.576	$GPGGA,051104,2438.0385,N,08101.2659,W,1,9,1.8,12,M,,M,,*51
06/21/2015	05:11:04.532	$GPGGA,051105,2438.0378,N,08101.2681,W,1,9,1.8,12,M,,M,,*57
06/21/2015	05:11:05.535	$GPGGA,051106,2438.0372,N,08101.2704,W,1,9,1.8,12,M,,M,,*52
06/21/2015	05:11:06.535	$GPGGA,051107,2438.0365,N,08101.2728,W,1,9,1.8,12,M,,M,,*5B
06/21/2015	05:11:07.565	$GPGGA,051108,2438.0356,N,08101.2750,W,1,9,1.8,12,M,,M,,*5B
06/21/2015	05:11:08.536	$GPGGA,051109,2438.0349,N,08101.2775,W,1,9,1.8,12,M,,M,,*53
06/21/2015	05:11:09.519	$GPGGA,051110,2438.0342,N,08101.2797,W,1,9,1.8,12,M,,M,,*5C
06/21/2015	05:11:10.531	$GPGGA,051111,2438.0335,N,08101.2821,W,1,9,1.8,12,M,,M,,*5F
06/21/2015	05:11:11.566	$GPGGA,051112,2438.0328,N,08101.2843,W,1,9,1.8,12,M,,M,,*54
06/21/2015	05:11:12.526	$GPGGA,051113,2438.0321,N,08101.2865,W,1,9,1.8,12,M,,M,,*58
06/21/2015	05:11:13.522	$GPGGA,051114,2438.0314,N,08101.2887,W,1,9,1.8,12,M,,M,,*55
06/21/2015	05:11:14.506	$GPGGA,051115,2438.0307,N,08101.2910,W,1,9,1.8,12,M,,M,,*59
06/21/2015	05:11:15.520	$GPGGA,051116,2438.0299,N,08101.2934,W,1,9,1.8,12,M,,M,,*5A
06/21/2015	05:11:16.506	$GPGGA,051117,2438.0292,N,08101.2957,W,1,9,1.8,12,M,,M,,*55
06/21/2015	05:11:17.536	$GPGGA,051118,2438.0284,N,08101.2980,W,1,9,1.8,12,M,,M,,*57
06/21/2015	05:11:18.606	$GPGGA,051119,2438.0276,N,08101.3002,W,1,9,1.8,12,M,,M,,*59
06/21/2015	05:11:19.529	$GPGGA,051120,2438.0268,N,08101.3025,W,1,9,1.8,12,M,,M,,*59
06/21/2015	05:11:20.522	$GPGGA,051121,2438.0262,N,08101.3049,W,1,9,1.8,12,M,,M,,*58
06/21/2015	05:11:21.536	$GPGGA,051122,2438.0253,N,08101.3071,W,1,9,1.8,12,M,,M,,*52
06/21/2015	05:11:22.655	$GPGGA,051123,2438.0246,N,08101.3093,W,1,9,1.8,12,M,,M,,*5B
06/21/2015	05:11:23.505	$GPGGA,051124,2438.0238,N,08101.3116,W,1,9,1.8,12,M,,M,,*59
06/21/2015	05:11:24.585	$GPGGA,051125,2438.0233,N,08101.3139,W,1,9,1.8,12,M,,M,,*5E
06/21/2015	05:11:25.645	$GPGGA,051126,2438.0224,N,08101.3161,W,1,9,1.8,13,M,,M,,*57
06/21/2015	05:11:26.497	$GPGGA,051127,2438.0216,N,08101.3184,W,1,9,1.8,13,M,,M,,*5C
06/21/2015	05:11:27.656	$GPGGA,051128,2438.0209,N,08101.3208,W,1,9,1.8,13,M,,M,,*5A
06/21/2015	05:11:28.496	$GPGGA,051129,2438.0201,N,08101.3230,W,1,9,1.8,13,M,,M,,*58
06/21/2015	05:11:29.596	$GPGGA,051130,2438.0194,N,08101.3252,W,1,9,1.8,13,M,,M,,*5B
06/21/2015	05:11:30.477	$GPGGA,051131,2438.0186,N,08101.3277,W,1,9,1.8,13,M,,M,,*5E
06/21/2015	05:11:31.486	$GPGGA,051132,2438.0177,N,08101.3299,W,1,9,1.8,13,M,,M,,*53
06/21/2015	05:11:32.576	$GPGGA,051133,2438.0170,N,08101.3322,W,1,9,1.8,13,M,,M,,*54
06/21/2015	05:11:33.576	$GPGGA,051134,2438.0162,N,08101.3345,W,1,9,1.8,13,M,,M,,*51
06/21/2015	05:11:34.566	$GPGGA,051135,2438.0154,N,08101.3367,W,1,9,1.8,13,M,,M,,*55
06/21/2015	05:11:35.656	$GPGGA,051136,2438.0146,N,08101.3390,W,1,9,1.8,13,M,,M,,*5D
06/21/2015	05:11:36.636	$GPGGA,051137,2438.0139,N,08101.3414,W,1,9,1.8,13,M,,M,,*5F
06/21/2015	05:11:37.556	$GPGGA,051138,2438.0132,N,08101.3436,W,1,9,1.8,13,M,,M,,*5B
06/21/2015	05:11:38.566	$GPGGA,051139,2438.0123,N,08101.3458,W,1,9,1.8,13,M,,M,,*52
06/21/2015	05:11:39.636	$GPGGA,051140,2438.0116,N,08101.3482,W,1,9,1.8,13,M,,M,,*5D
06/21/2015	05:11:40.635	$GPGGA,051141,2438.0109,N,08101.3504,W,1,9,1.8,13,M,,M,,*5D
06/21/2015	05:11:41.621	$GPGGA,051142,2438.0103,N,08101.3526,W,1,9,1.8,13,M,,M,,*54
06/21/2015	05:11:42.555	$GPGGA,051143,2438.0096,N,08101.3548,W,1,9,1.8,13,M,,M,,*50
06/21/2015	05:11:43.616	$GPGGA,051144,2438.0089,N,08101.3570,W,1,9,1.8,13,M,,M,,*52
06/21/2015	05:11:44.896	$GPGGA,051145,2438.0080,N,08101.3595,W,1,9,1.8,13,M,,M,,*51
06/21/2015	05:11:45.546	$GPGGA,051146,2438.0074,N,08101.3617,W,1,9,1.8,13,M,,M,,*50
06/21/2015	05:11:46.596	$GPGGA,051147,2438.0067,N,08101.3641,W,1,9,1.8,13,M,,M,,*50
06/21/2015	05:11:47.596	$GPGGA,051148,2438.0060,N,08101.3663,W,1,9,1.8,13,M,,M,,*58
06/21/2015	05:11:48.596	$GPGGA,051149,2438.0052,N,08101.3685,W,1,9,1.8,13,M,,M,,*50
