Software Version Number: 1	Data File Format Number: 1	Build Version Number: 1	Error Count Since VI Started: 1	Manufacturer: Raytheon	 Model Number: RayMarine 120	 S/N: 	 Cal Date: 	 Wind Direction Offset: 0.00	 Slope (M)1: 0.00	 Offset (B)1: 0.00	 Slope (M)2: 0.00	 Offset (B)2: 0.00	 Slope (M)3: 0.00	 Offset (B)3: 0.00	 Slope (M)4: 0.00	 Offset (B)4: 0.00	 Slope (M)5: 0.00	 Offset (B)5: 0.00	 Slope (M)6: 0.00	 Offset (B)6: 0.00
Computer Date	Computer Time	GGA String
06/15/2015	12:00:00.567	$GPGGA,120001,2427.4032,N,08059.5495,W,1,10,1.7,12,M,,M,,*69
06/15/2015	12:00:01.569	$GPGGA,120002,2427.4034,N,08059.5499,W,1,10,1.7,12,M,,M,,*60
06/15/2015	12:00:02.559	$GPGGA,120003,2427.4039,N,08059.5502,W,1,10,1.8,12,M,,M,,*60
06/15/2015	12:00:03.609	$GPGGA,120004,2427.4041,N,08059.5506,W,1,10,1.7,12,M,,M,,*63
06/15/2015	12:00:04.566	$GPGGA,120005,2427.4045,N,08059.5509,W,1,10,1.7,12,M,,M,,*69
06/15/2015	12:00:05.588	$GPGGA,120006,2427.4048,N,08059.5513,W,1,10,1.7,12,M,,M,,*6C
06/15/2015	12:00:06.574	$GPGGA,120007,2427.4051,N,08059.5517,W,1,10,1.7,12,M,,M,,*61
06/15/2015	12:00:07.588	$GPGGA,120008,2427.4055,N,08059.5521,W,1,10,1.7,12,M,,M,,*6F
06/15/2015	12:00:08.562	$GPGGA,120009,2427.4059,N,08059.5525,W,1,10,1.7,12,M,,M,,*66
06/15/2015	12:00:09.556	$GPGGA,120010,2427.4061,N,08059.5529,W,1,10,1.7,12,M,,M,,*69
06/15/2015	12:00:10.561	$GPGGA,120011,2427.4063,N,08059.5533,W,1,10,1.7,13,M,,M,,*60
06/15/2015	12:00:11.564	$GPGGA,120012,2427.4066,N,08059.5536,W,1,10,1.7,13,M,,M,,*63
06/15/2015	12:00:12.556	$GPGGA,120013,2427.4070,N,08059.5540,W,1,10,1.7,13,M,,M,,*64
06/15/2015	12:00:13.561	$GPGGA,120014,2427.4073,N,08059.5545,W,1,10,1.7,13,M,,M,,*65
06/15/2015	12:00:14.558	$GPGGA,120015,2427.4076,N,08059.5549,W,1,10,1.7,13,M,,M,,*6D
06/15/2015	12:00:15.578	$GPGGA,120016,2427.4079,N,08059.5553,W,1,10,1.7,13,M,,M,,*6A
06/15/2015	12:00:16.552	$GPGGA,120017,2427.4081,N,08059.5556,W,1,10,1.7,13,M,,M,,*69
06/15/2015	12:00:17.539	$GPGGA,120018,2427.4086,N,08059.5560,W,1,10,1.7,13,M,,M,,*64
06/15/2015	12:00:18.709	$GPGGA,120019,2427.4088,N,08059.5564,W,1,10,1.7,13,M,,M,,*6F
06/15/2015	12:00:19.539	$GPGGA,120020,2427.4091,N,08059.5567,W,1,10,1.7,13,M,,M,,*6E
06/15/2015	12:00:20.552	$GPGGA,120021,2427.4094,N,08059.5571,W,1,10,1.7,13,M,,M,,*6D
06/15/2015	12:00:21.549	$GPGGA,120022,2427.4097,N,08059.5575,W,1,10,1.7,13,M,,M,,*69
06/15/2015	12:00:22.529	$GPGGA,120023,2427.4101,N,08059.5579,W,1,10,1.7,13,M,,M,,*6A
06/15/2015	12:00:23.638	$GPGGA,120024,2427.4102,N,08059.5583,W,1,10,1.7,13,M,,M,,*6B
06/15/2015	12:00:24.528	$GPGGA,120025,2427.4105,N,08059.5587,W,1,10,1.5,13,M,,M,,*6B
06/15/2015	12:00:25.668	$GPGGA,120026,2427.4108,N,08059.5590,W,1,11,1.5,13,M,,M,,*62
06/15/2015	12:00:26.538	$GPGGA,120027,2427.4109,N,08059.5594,W,1,11,1.5,13,M,,M,,*66
06/15/2015	12:00:27.708	$GPGGA,120028,2427.4113,N,08059.5598,W,1,11,1.5,13,M,,M,,*6E
06/15/2015	12:00:28.538	$GPGGA,120029,2427.4116,N,08059.5603,W,1,11,1.5,13,M,,M,,*6B
06/15/2015	12:00:29.670	$GPGGA,120030,2427.4119,N,08059.5607,W,1,11,1.5,13,M,,M,,*68
06/15/2015	12:00:30.528	$GPGGA,120031,2427.4122,N,08059.5611,W,1,11,1.5,13,M,,M,,*66
06/15/2015	12:00:31.698	$GPGGA,120032,2427.4124,N,08059.5614,W,1,11,1.5,13,M,,M,,*66
06/15/2015	12:00:32.518	$GPGGA,120033,2427.4127,N,08059.5618,W,1,11,1.5,13,M,,M,,*68
06/15/2015	12:00:33.638	$GPGGA,120034,2427.4130,N,08059.5622,W,1,11,1.5,13,M,,M,,*60
06/15/2015	12:00:34.674	$GPGGA,120035,2427.4131,N,08059.5626,W,1,11,1.5,13,M,,M,,*64
06/15/2015	12:00:35.679	$GPGGA,120036,2427.4135,N,08059.5630,W,1,11,1.5,14,M,,M,,*63
06/15/2015	12:00:36.879	$GPGGA,120037,2427.4138,N,08059.5633,W,1,11,1.5,14,M,,M,,*6C
06/15/2015	12:00:37.657	$GPGGA,120038,2427.4142,N,08059.5637,W,1,11,1.5,14,M,,M,,*6A
06/15/2015	12:00:38.679	$GPGGA,120039,2427.4144,N,08059.5641,W,1,11,1.5,14,M,,M,,*6C
06/15/2015	12:00:39.689	$GPGGA,120040,2427.4146,N,08059.5644,W,1,11,1.5,14,M,,M,,*65
06/15/2015	12:00:40.670	$GPGGA,120041,2427.4151,N,08059.5648,W,1,11,1.5,14,M,,M,,*6E
06/15/2015	12:00:41.638	$GPGGA,120042,2427.4153,N,08059.5652,W,1,11,1.5,14,M,,M,,*64
06/15/2015	12:00:42.588	$GPGGA,120043,2427.4156,N,08059.5657,W,1,11,1.5,14,M,,M,,*65
06/15/2015	12:00:43.656	$GPGGA,120044,2427.4159,N,08059.5659,W,1,11,1.5,14,M,,M,,*63
06/15/2015	12:00:44.961	$GPGGA,120045,2427.4163,N,08059.5663,W,1,11,1.5,14,M,,M,,*62
06/15/2015	12:00:45.618	$GPGGA,120046,2427.4167,N,08059.5668,W,1,11,1.5,14,M,,M,,*6E
06/15/2015	12:00:46.670	$GPGGA,120047,2427.4169,N,08059.5672,W,1,11,1.5,14,M,,M,,*6A
06/15/2015	12:00:47.588	$GPGGA,120048,2427.4171,N,08059.5676,W,1,11,1.5,14,M,,M,,*68
06/15/2015	12:00:48.638	$GPGGA,120049,2427.4175,N,08059.5679,W,1,11,1.5,14,M,,M,,*62
06/15/2015	12:00:49.628	$GPGGA,120050,2427.4180,N,08059.5681,W,1,11,1.5,14,M,,M,,*67
06/15/2015	12:00:50.628	$GPGGA,120051,2427.4182,N,08059.5686,W,1,11,1.5,14,M,,M,,*63
06/15/2015	12:00:51.579	$GPGGA,120052,2427.4185,N,08059.5690,W,1,11,1.5,14,M,,M,,*60
06/15/2015	12:00:52.563	$GPGGA,120053,2427.4189,N,08059.5694,W,1,11,1.5,14,M,,M,,*69
06/15/2015	12:00:53.619	$GPGGA,120054,2427.4192,N,08059.5697,W,1,11,1.5,14,M,,M,,*67
06/15/2015	12:00:54.629	$GPGGA,120055,2427.4195,N,08059.5701,W,1,11,1.5,14,M,,M,,*6F
06/15/2015	12:00:55.662	$GPGGA,120056,2427.4199,N,08059.5704,W,1,11,1.5,14,M,,M,,*65
06/15/2015	12:00:56.559	$GPGGA,120057,2427.4202,N,08059.5708,W,1,11,1.5,14,M,,M,,*69
06/15/2015	12:00:57.609	$GPGGA,120058,2427.4203,N,08059.5712,W,1,11,1.5,14,M,,M,,*6C
06/15/2015	12:00:58.618	$GPGGA,120059,2427.4207,N,08059.5715,W,1,11,1.5,14,M,,M,,*6E
06/15/2015	12:00:59.638	$GPGGA,120100,2427.4211,N,08059.5719,W,1,11,1.5,14,M,,M,,*68
06/15/2015	12:01:00.608	$GPGGA,120101,2427.4214,N,08059.5723,W,1,11,1.5,14,M,,M,,*65
06/15/2015	12:01:01.608	$GPGGA,120102,2427.4216,N,08059.5726,W,1,11,1.5,14,M,,M,,*61
06/15/2015	12:01:02.608	$GPGGA,120103,2427.4221,N,08059.5730,W,1,11,1.5,14,M,,M,,*63
06/15/2015	12:01:03.638	$GPGGA,120104,2427.4222,N,08059.5733,W,1,11,1.5,14,M,,M,,*64
06/15/2015	12:01:04.538	$GPGGA,120105,2427.4225,N,08059.5737,W,1,11,1.5,14,M,,M,,*66
06/15/2015	12:01:05.628	$GPGGA,120106,2427.4229,N,08059.5741,W,1,11,1.5,14,M,,M,,*68
06/15/2015	12:01:06.538	$GPGGA,120107,2427.4232,N,08059.5744,W,1,11,1.5,14,M,,M,,*66
06/15/2015	12:01:07.608	$GPGGA,120108,2427.4235,N,08059.5748,W,1,11,1.5,14,M,,M,,*62
06/15/2015	12:01:08.528	$GPGGA,120109,2427.4236,N,08059.5752,W,1,11,1.5,14,M,,M,,*6B
06/15/2015	12:01:09.559	$GPGGA,120110,2427.4240,N,08059.5756,W,1,11,1.5,14,M,,M,,*66
06/15/2015	12:01:10.589	$GPGGA,120111,2427.4243,N,08059.5760,W,1,11,1.5,14,M,,M,,*61
06/15/2015	12:01:11.629	$GPGGA,120112,2427.4246,N,08059.5763,W,1,11,1.5,14,M,,M,,*64
06/15/2015	12:01:12.519	$GPGGA,120113,2427.4250,N,08059.5766,W,1,11,1.5,14,M,,M,,*67
06/15/2015	12:01:13.868	$GPGGA,120114,2427.4253,N,08059.5770,W,1,10,1.7,14,M,,M,,*67
06/15/2015	12:01:14.579	$GPGGA,120115,2427.4254,N,08059.5774,W,1,10,1.5,14,M,,M,,*67
06/15/2015	12:01:15.668	$GPGGA,120116,2427.4257,N,08059.5778,W,1,11,1.5,14,M,,M,,*6A
06/15/2015	12:01:16.598	$GPGGA,120117,2427.4258,N,08059.5781,W,1,11,1.5,14,M,,M,,*62
06/15/2015	12:01:17.508	$GPGGA,120118,2427.4261,N,08059.5784,W,1,11,1.5,14,M,,M,,*62
06/15/2015	12:01:18.508	$GPGGA,120119,2427.4265,N,08059.5788,W,1,11,1.5,14,M,,M,,*6B
06/15/2015	12:01:19.588	$GPGGA,120120,2427.4268,N,08059.5791,W,1,10,1.5,14,M,,M,,*65
06/15/2015	12:01:20.608	$GPGGA,120121,2427.4269,N,08059.5795,W,1,10,1.5,14,M,,M,,*61
06/15/2015	12:01:21.618	$GPGGA,120122,2427.4272,N,08059.5799,W,1,11,1.5,14,M,,M,,*65
06/15/2015	12:01:22.618	$GPGGA,120123,2427.4276,N,08059.5802,W,1,11,1.5,14,M,,M,,*6D
06/15/2015	12:01:23.638	$GPGGA,120124,2427.4279,N,08059.5806,W,1,11,1.7,14,M,,M,,*63
06/15/2015	12:01:24.598	$GPGGA,120125,2427.4283,N,08059.5809,W,1,11,1.5,14,M,,M,,*6A
06/15/2015	12:01:25.638	$GPGGA,120126,2427.4285,N,08059.5813,W,1,11,1.5,14,M,,M,,*64
06/15/2015	12:01:26.599	$GPGGA,120127,2427.4289,N,08059.5817,W,1,11,1.5,14,M,,M,,*6D
06/15/2015	12:01:27.609	$GPGGA,120128,2427.4292,N,08059.5820,W,1,11,1.5,14,M,,M,,*6C
06/15/2015	12:01:28.609	$GPGGA,120129,2427.4293,N,08059.5825,W,1,11,1.5,14,M,,M,,*69
06/15/2015	12:01:29.599	$GPGGA,120130,2427.4296,N,08059.5828,W,1,11,1.5,14,M,,M,,*69
06/15/2015	12:01:30.639	$GPGGA,120131,2427.4301,N,08059.5831,W,1,11,1.5,14,M,,M,,*6F
06/15/2015	12:01:31.599	$GPGGA,120132,2427.4304,N,08059.5835,W,1,11,1.5,14,M,,M,,*6D
06/15/2015	12:01:32.599	$GPGGA,120133,2427.4305,N,08059.5839,W,1,11,1.5,14,M,,M,,*61
06/15/2015	12:01:33.598	$GPGGA,120134,2427.4308,N,08059.5843,W,1,11,1.5,14,M,,M,,*66
06/15/2015	12:01:34.618	$GPGGA,120135,2427.4311,N,08059.5846,W,1,11,1.5,14,M,,M,,*6A
06/15/2015	12:01:35.608	$GPGGA,120136,2427.4314,N,08059.5849,W,1,11,1.5,14,M,,M,,*63
06/15/2015	12:01:36.628	$GPGGA,120137,2427.4316,N,08059.5853,W,1,11,1.5,14,M,,M,,*6B
06/15/2015	12:01:37.578	$GPGGA,120138,2427.4319,N,08059.5857,W,1,11,1.5,14,M,,M,,*6F
06/15/2015	12:01:38.588	$GPGGA,120139,2427.4322,N,08059.5861,W,1,11,1.5,14,M,,M,,*63
06/15/2015	12:01:39.578	$GPGGA,120140,2427.4325,N,08059.5864,W,1,11,1.5,14,M,,M,,*6F
06/15/2015	12:01:40.578	$GPGGA,120141,2427.4328,N,08059.5867,W,1,11,1.5,14,M,,M,,*60
06/15/2015	12:01:41.598	$GPGGA,120142,2427.4330,N,08059.5872,W,1,11,1.5,14,M,,M,,*6E
06/15/2015	12:01:42.608	$GPGGA,120143,2427.4333,N,08059.5876,W,1,11,1.5,14,M,,M,,*68
06/15/2015	12:01:43.588	$GPGGA,120144,2427.4337,N,08059.5879,W,1,11,1.5,14,M,,M,,*64
06/15/2015	12:01:44.569	$GPGGA,120145,2427.4340,N,08059.5883,W,1,11,1.7,14,M,,M,,*62
06/15/2015	12:01:45.589	$GPGGA,120146,2427.4343,N,08059.5886,W,1,10,1.5,14,M,,M,,*64
06/15/2015	12:01:46.562	$GPGGA,120147,2427.4343,N,08059.5886,W,1,10,1.5,14,M,,M,,*65
06/15/2015	12:01:47.599	$GPGGA,120148,2427.4348,N,08059.5894,W,1,11,1.5,14,M,,M,,*63
06/15/2015	12:01:48.569	$GPGGA,120149,2427.4348,N,08059.5894,W,1,11,1.5,14,M,,M,,*62
06/15/2015	12:01:52.028	$GPGGA,120152,2427.4359,N,08059.5908,W,1,11,1.5,14,M,,M,,*6C
06/15/2015	12:01:52.568	$GPGGA,120153,2427.4359,N,08059.5908,W,1,11,1.5,14,M,,M,,*6D
06/15/2015	12:01:53.578	$GPGGA,120154,2427.4365,N,08059.5918,W,1,11,1.5,14,M,,M,,*64
06/15/2015	12:01:54.638	$GPGGA,120155,2427.4368,N,08059.5921,W,1,11,1.5,14,M,,M,,*62
06/15/2015	12:01:55.588	$GPGGA,120156,2427.4372,N,08059.5925,W,1,11,1.5,14,M,,M,,*6E
06/15/2015	12:01:56.549	$GPGGA,120157,2427.4372,N,08059.5925,W,1,11,1.5,14,M,,M,,*6F
06/15/2015	12:01:57.665	$GPGGA,120158,2427.4377,N,08059.5932,W,1,11,1.5,14,M,,M,,*63
06/15/2015	12:01:58.628	$GPGGA,120159,2427.4380,N,08059.5936,W,1,11,1.5,14,M,,M,,*6E
06/15/2015	12:01:59.688	$GPGGA,120200,2427.4384,N,08059.5940,W,1,11,1.5,14,M,,M,,*64
06/15/2015	12:02:00.538	$GPGGA,120201,2427.4384,N,08059.5940,W,1,11,1.5,14,M,,M,,*65
06/15/2015	12:02:01.529	$GPGGA,120202,2427.4388,N,08059.5947,W,1,11,1.5,14,M,,M,,*6D
06/15/2015	12:02:02.619	$GPGGA,120203,2427.4391,N,08059.5952,W,1,11,1.5,14,M,,M,,*60
06/15/2015	12:02:03.559	$GPGGA,120204,2427.4395,N,08059.5957,W,1,11,1.5,14,M,,M,,*66
06/15/2015	12:02:04.529	$GPGGA,120205,2427.4395,N,08059.5957,W,1,11,1.5,14,M,,M,,*67
06/15/2015	12:02:05.639	$GPGGA,120206,2427.4402,N,08059.5964,W,1,11,1.5,15,M,,M,,*6C
06/15/2015	12:02:06.539	$GPGGA,120207,2427.4402,N,08059.5964,W,1,11,1.5,15,M,,M,,*6D
06/15/2015	12:02:07.579	$GPGGA,120208,2427.4408,N,08059.5972,W,1,11,1.5,15,M,,M,,*6F
06/15/2015	12:02:08.608	$GPGGA,120209,2427.4409,N,08059.5975,W,1,11,1.5,15,M,,M,,*68
06/15/2015	12:02:09.650	$GPGGA,120210,2427.4415,N,08059.5979,W,1,11,1.5,15,M,,M,,*61
06/15/2015	12:02:10.610	$GPGGA,120211,2427.4419,N,08059.5983,W,1,11,1.5,15,M,,M,,*69
06/15/2015	12:02:11.638	$GPGGA,120212,2427.4420,N,08059.5986,W,1,11,1.5,15,M,,M,,*65
06/15/2015	12:02:12.598	$GPGGA,120213,2427.4423,N,08059.5990,W,1,11,1.5,15,M,,M,,*60
06/15/2015	12:02:13.638	$GPGGA,120214,2427.4427,N,08059.5994,W,1,11,1.5,15,M,,M,,*67
06/15/2015	12:02:14.608	$GPGGA,120215,2427.4431,N,08059.5997,W,1,11,1.5,15,M,,M,,*62
06/15/2015	12:02:15.608	$GPGGA,120216,2427.4435,N,08059.6001,W,1,11,1.5,15,M,,M,,*60
06/15/2015	12:02:16.598	$GPGGA,120217,2427.4437,N,08059.6005,W,1,11,1.5,15,M,,M,,*67
06/15/2015	12:02:17.608	$GPGGA,120218,2427.4441,N,08059.6009,W,1,11,1.5,15,M,,M,,*65
06/15/2015	12:02:18.598	$GPGGA,120219,2427.4445,N,08059.6013,W,1,11,1.5,15,M,,M,,*6B
06/15/2015	12:02:19.619	$GPGGA,120220,2427.4449,N,08059.6016,W,1,11,1.5,15,M,,M,,*68
06/15/2015	12:02:20.599	$GPGGA,120221,2427.4452,N,08059.6020,W,1,11,1.5,15,M,,M,,*66
06/15/2015	12:02:21.589	$GPGGA,120222,2427.4455,N,08059.6024,W,1,11,1.5,15,M,,M,,*66
06/15/2015	12:02:22.589	$GPGGA,120223,2427.4458,N,08059.6029,W,1,11,1.5,15,M,,M,,*67
06/15/2015	12:02:23.629	$GPGGA,120224,2427.4462,N,08059.6033,W,1,11,1.5,15,M,,M,,*62
06/15/2015	12:02:24.579	$GPGGA,120225,2427.4466,N,08059.6035,W,1,11,1.5,15,M,,M,,*61
06/15/2015	12:02:25.598	$GPGGA,120226,2427.4467,N,08059.6040,W,1,11,1.5,15,M,,M,,*61
06/15/2015	12:02:26.588	$GPGGA,120227,2427.4471,N,08059.6044,W,1,11,1.5,15,M,,M,,*63
06/15/2015	12:02:27.608	$GPGGA,120228,2427.4474,N,08059.6048,W,1,11,1.5,15,M,,M,,*65
06/15/2015	12:02:28.578	$GPGGA,120229,2427.4478,N,08059.6051,W,1,11,1.5,15,M,,M,,*60
06/15/2015	12:02:29.559	$GPGGA,120230,2427.4482,N,08059.6055,W,1,11,1.5,15,M,,M,,*69
06/15/2015	12:02:30.568	$GPGGA,120231,2427.4485,N,08059.6059,W,1,11,1.5,15,M,,M,,*63
06/15/2015	12:02:31.608	$GPGGA,120232,2427.4488,N,08059.6063,W,1,11,1.5,15,M,,M,,*64
06/15/2015	12:02:32.578	$GPGGA,120233,2427.4491,N,08059.6067,W,1,11,1.5,15,M,,M,,*69
06/15/2015	12:02:33.563	$GPGGA,120234,2427.4495,N,08059.6070,W,1,11,1.5,15,M,,M,,*6C
06/15/2015	12:02:34.568	$GPGGA,120235,2427.4498,N,08059.6073,W,1,11,1.5,15,M,,M,,*63
06/15/2015	12:02:35.568	$GPGGA,120236,2427.4500,N,08059.6078,W,1,11,1.5,15,M,,M,,*6B
06/15/2015	12:02:36.569	$GPGGA,120237,2427.4503,N,08059.6082,W,1,11,1.5,15,M,,M,,*6C
06/15/2015	12:02:37.564	$GPGGA,120238,2427.4507,N,08059.6087,W,1,10,1.7,15,M,,M,,*61
06/15/2015	12:02:38.552	$GPGGA,120239,2427.4510,N,08059.6091,W,1,10,1.5,15,M,,M,,*63
06/15/2015	12:02:39.599	$GPGGA,120240,2427.4513,N,08059.6094,W,1,11,1.5,15,M,,M,,*6A
06/15/2015	12:02:40.550	$GPGGA,120241,2427.4517,N,08059.6098,W,1,11,1.5,14,M,,M,,*62
06/15/2015	12:02:41.566	$GPGGA,120242,2427.4521,N,08059.6102,W,1,11,1.5,14,M,,M,,*66
06/15/2015	12:02:42.549	$GPGGA,120243,2427.4524,N,08059.6106,W,1,11,1.5,14,M,,M,,*66
06/15/2015	12:02:43.668	$GPGGA,120244,2427.4527,N,08059.6109,W,1,11,1.5,14,M,,M,,*6D
06/15/2015	12:02:44.570	$GPGGA,120245,2427.4531,N,08059.6113,W,1,11,1.5,14,M,,M,,*60
06/15/2015	12:02:45.528	$GPGGA,120246,2427.4535,N,08059.6117,W,1,11,1.5,14,M,,M,,*63
06/15/2015	12:02:46.663	$GPGGA,120247,2427.4536,N,08059.6121,W,1,11,1.5,14,M,,M,,*64
06/15/2015	12:02:47.567	$GPGGA,120248,2427.4540,N,08059.6125,W,1,11,1.5,14,M,,M,,*6E
06/15/2015	12:02:48.548	$GPGGA,120249,2427.4545,N,08059.6129,W,1,11,1.5,14,M,,M,,*66
06/15/2015	12:02:49.528	$GPGGA,120250,2427.4547,N,08059.6134,W,1,11,1.5,14,M,,M,,*60
06/15/2015	12:02:50.528	$GPGGA,120251,2427.4550,N,08059.6138,W,1,11,1.5,14,M,,M,,*6B
06/15/2015	12:02:51.638	$GPGGA,120252,2427.4554,N,08059.6142,W,1,11,1.5,14,M,,M,,*61
06/15/2015	12:02:52.538	$GPGGA,120253,2427.4557,N,08059.6145,W,1,11,1.5,14,M,,M,,*64
06/15/2015	12:02:53.665	$GPGGA,120254,2427.4560,N,08059.6149,W,1,11,1.5,14,M,,M,,*6B
06/15/2015	12:02:54.619	$GPGGA,120255,2427.4561,N,08059.6153,W,1,11,1.5,14,M,,M,,*60
06/15/2015	12:02:55.652	$GPGGA,120256,2427.4567,N,08059.6157,W,1,11,1.5,13,M,,M,,*66
06/15/2015	12:02:56.609	$GPGGA,120257,2427.4570,N,08059.6161,W,1,11,1.5,13,M,,M,,*64
06/15/2015	12:02:57.519	$GPGGA,120258,2427.4572,N,08059.6165,W,1,11,1.5,13,M,,M,,*6D
06/15/2015	12:02:58.619	$GPGGA,120259,2427.4574,N,08059.6170,W,1,11,1.5,13,M,,M,,*6E
06/15/2015	12:02:59.619	$GPGGA,120300,2427.4579,N,08059.6172,W,1,11,1.5,13,M,,M,,*6C
06/15/2015	12:03:00.860	$GPGGA,120301,2427.4582,N,08059.6176,W,1,11,1.5,13,M,,M,,*6D
06/15/2015	12:03:01.609	$GPGGA,120302,2427.4583,N,08059.6181,W,1,11,1.5,13,M,,M,,*67
06/15/2015	12:03:02.598	$GPGGA,120303,2427.4586,N,08059.6183,W,1,11,1.5,13,M,,M,,*61
06/15/2015	12:03:03.638	$GPGGA,120304,2427.4590,N,08059.6188,W,1,11,1.5,13,M,,M,,*6A
06/15/2015	12:03:04.588	$GPGGA,120305,2427.4593,N,08059.6192,W,1,11,1.5,13,M,,M,,*63
06/15/2015	12:03:05.599	$GPGGA,120306,2427.4596,N,08059.6194,W,1,11,1.5,13,M,,M,,*63
06/15/2015	12:03:06.598	$GPGGA,120307,2427.4599,N,08059.6199,W,1,11,1.5,13,M,,M,,*60
06/15/2015	12:03:07.628	$GPGGA,120308,2427.4601,N,08059.6201,W,1,11,1.5,13,M,,M,,*6F
06/15/2015	12:03:08.588	$GPGGA,120309,2427.4604,N,08059.6206,W,1,11,1.5,14,M,,M,,*6B
06/15/2015	12:03:09.608	$GPGGA,120310,2427.4608,N,08059.6210,W,1,10,1.5,14,M,,M,,*69
06/15/2015	12:03:10.578	$GPGGA,120311,2427.4611,N,08059.6214,W,1,10,1.5,14,M,,M,,*64
06/15/2015	12:03:11.619	$GPGGA,120312,2427.4614,N,08059.6217,W,1,11,1.5,14,M,,M,,*60
06/15/2015	12:03:12.579	$GPGGA,120313,2427.4618,N,08059.6221,W,1,11,1.5,14,M,,M,,*68
06/15/2015	12:03:13.599	$GPGGA,120314,2427.4621,N,08059.6225,W,1,11,1.5,14,M,,M,,*61
06/15/2015	12:03:14.579	$GPGGA,120315,2427.4623,N,08059.6229,W,1,11,1.5,14,M,,M,,*6E
06/15/2015	12:03:15.599	$GPGGA,120316,2427.4628,N,08059.6233,W,1,11,1.5,14,M,,M,,*6D
06/15/2015	12:03:16.579	$GPGGA,120317,2427.4630,N,08059.6237,W,1,11,1.5,14,M,,M,,*61
06/15/2015	12:03:17.599	$GPGGA,120318,2427.4633,N,08059.6241,W,1,11,1.5,14,M,,M,,*6C
06/15/2015	12:03:18.578	$GPGGA,120319,2427.4636,N,08059.6244,W,1,11,1.5,14,M,,M,,*6D
06/15/2015	12:03:19.608	$GPGGA,120320,2427.4641,N,08059.6248,W,1,11,1.5,14,M,,M,,*6B
06/15/2015	12:03:20.568	$GPGGA,120321,2427.4643,N,08059.6253,W,1,11,1.5,14,M,,M,,*62
06/15/2015	12:03:21.578	$GPGGA,120322,2427.4646,N,08059.6257,W,1,11,1.5,14,M,,M,,*60
06/15/2015	12:03:22.562	$GPGGA,120323,2427.4648,N,08059.6261,W,1,11,1.5,14,M,,M,,*6A
06/15/2015	12:03:23.608	$GPGGA,120324,2427.4652,N,08059.6264,W,1,11,1.5,14,M,,M,,*63
06/15/2015	12:03:24.568	$GPGGA,120325,2427.4655,N,08059.6268,W,1,11,1.5,14,M,,M,,*69
06/15/2015	12:03:25.548	$GPGGA,120326,2427.4658,N,08059.6272,W,1,11,1.5,14,M,,M,,*6C
06/15/2015	12:03:26.568	$GPGGA,120327,2427.4662,N,08059.6275,W,1,11,1.5,14,M,,M,,*63
06/15/2015	12:03:27.568	$GPGGA,120328,2427.4666,N,08059.6279,W,1,11,1.5,14,M,,M,,*64
06/15/2015	12:03:28.550	$GPGGA,120329,2427.4668,N,08059.6283,W,1,11,1.5,14,M,,M,,*6E
06/15/2015	12:03:29.539	$GPGGA,120330,2427.4670,N,08059.6287,W,1,11,1.5,14,M,,M,,*6B
06/15/2015	12:03:30.855	$GPGGA,120331,2427.4675,N,08059.6290,W,1,11,1.5,14,M,,M,,*69
06/15/2015	12:03:31.589	$GPGGA,120332,2427.4679,N,08059.6295,W,1,11,1.5,14,M,,M,,*63
06/15/2015	12:03:32.539	$GPGGA,120333,2427.4680,N,08059.6300,W,1,11,1.5,14,M,,M,,*69
06/15/2015	12:03:33.529	$GPGGA,120334,2427.4684,N,08059.6304,W,1,11,1.5,14,M,,M,,*6E
06/15/2015	12:03:34.658	$GPGGA,120335,2427.4688,N,08059.6306,W,1,11,1.5,14,M,,M,,*61
06/15/2015	12:03:35.678	$GPGGA,120336,2427.4691,N,08059.6311,W,1,11,1.5,14,M,,M,,*6C
06/15/2015	12:03:36.657	$GPGGA,120337,2427.4693,N,08059.6315,W,1,11,1.5,14,M,,M,,*6B
06/15/2015	12:03:37.538	$GPGGA,120338,2427.4695,N,08059.6319,W,1,11,1.5,14,M,,M,,*6E
06/15/2015	12:03:38.528	$GPGGA,120339,2427.4699,N,08059.6322,W,1,11,1.5,14,M,,M,,*6B
06/15/2015	12:03:39.656	$GPGGA,120340,2427.4702,N,08059.6326,W,1,11,1.5,14,M,,M,,*62
06/15/2015	12:03:40.528	$GPGGA,120341,2427.4706,N,08059.6330,W,1,11,1.5,14,M,,M,,*60
06/15/2015	12:03:41.618	$GPGGA,120342,2427.4709,N,08059.6333,W,1,11,1.5,14,M,,M,,*6F
06/15/2015	12:03:42.618	$GPGGA,120343,2427.4712,N,08059.6337,W,1,11,1.5,14,M,,M,,*60
06/15/2015	12:03:43.660	$GPGGA,120344,2427.4713,N,08059.6341,W,1,11,1.5,14,M,,M,,*67
06/15/2015	12:03:44.618	$GPGGA,120345,2427.4717,N,08059.6345,W,1,11,1.5,14,M,,M,,*66
06/15/2015	12:03:45.651	$GPGGA,120346,2427.4720,N,08059.6349,W,1,11,1.5,14,M,,M,,*6D
06/15/2015	12:03:46.610	$GPGGA,120347,2427.4723,N,08059.6353,W,1,11,1.5,14,M,,M,,*64
06/15/2015	12:03:47.650	$GPGGA,120348,2427.4727,N,08059.6358,W,1,11,1.5,14,M,,M,,*64
06/15/2015	12:03:48.519	$GPGGA,120349,2427.4731,N,08059.6362,W,1,11,1.5,14,M,,M,,*6B
06/15/2015	12:03:50.073	$GPGGA,120350,2427.4734,N,08059.6366,W,1,11,1.5,14,M,,M,,*62
06/15/2015	12:03:50.599	$GPGGA,120351,2427.4735,N,08059.6369,W,1,11,1.5,14,M,,M,,*6D
06/15/2015	12:03:51.629	$GPGGA,120352,2427.4738,N,08059.6373,W,1,11,1.5,14,M,,M,,*68
06/15/2015	12:03:52.598	$GPGGA,120353,2427.4742,N,08059.6377,W,1,11,1.5,14,M,,M,,*60
06/15/2015	12:03:53.618	$GPGGA,120354,2427.4745,N,08059.6381,W,1,11,1.5,14,M,,M,,*69
06/15/2015	12:03:54.598	$GPGGA,120355,2427.4749,N,08059.6385,W,1,11,1.5,14,M,,M,,*60
06/15/2015	12:03:55.608	$GPGGA,120356,2427.4752,N,08059.6389,W,1,11,1.5,14,M,,M,,*65
06/15/2015	12:03:56.608	$GPGGA,120357,2427.4755,N,08059.6394,W,1,11,1.5,14,M,,M,,*6F
06/15/2015	12:03:57.618	$GPGGA,120358,2427.4759,N,08059.6396,W,1,11,1.5,14,M,,M,,*6E
06/15/2015	12:03:58.588	$GPGGA,120359,2427.4763,N,08059.6400,W,1,11,1.5,14,M,,M,,*6E
06/15/2015	12:03:59.639	$GPGGA,120400,2427.4764,N,08059.6405,W,1,11,1.5,14,M,,M,,*67
06/15/2015	12:04:00.588	$GPGGA,120401,2427.4767,N,08059.6409,W,1,11,1.5,14,M,,M,,*69
06/15/2015	12:04:01.578	$GPGGA,120402,2427.4771,N,08059.6413,W,1,11,1.5,14,M,,M,,*66
06/15/2015	12:04:02.578	$GPGGA,120403,2427.4774,N,08059.6416,W,1,11,1.5,14,M,,M,,*67
06/15/2015	12:04:03.608	$GPGGA,120404,2427.4778,N,08059.6420,W,1,11,1.5,14,M,,M,,*69
06/15/2015	12:04:04.577	$GPGGA,120405,2427.4781,N,08059.6424,W,1,11,1.5,14,M,,M,,*6A
06/15/2015	12:04:05.557	$GPGGA,120406,2427.4785,N,08059.6428,W,1,11,1.5,14,M,,M,,*61
06/15/2015	12:04:06.567	$GPGGA,120407,2427.4788,N,08059.6431,W,1,11,1.5,14,M,,M,,*65
06/15/2015	12:04:07.597	$GPGGA,120408,2427.4791,N,08059.6435,W,1,11,1.5,14,M,,M,,*66
06/15/2015	12:04:08.557	$GPGGA,120409,2427.4795,N,08059.6439,W,1,11,1.5,14,M,,M,,*6F
06/15/2015	12:04:09.552	$GPGGA,120410,2427.4798,N,08059.6443,W,1,11,1.5,14,M,,M,,*67
06/15/2015	12:04:10.566	$GPGGA,120411,2427.4799,N,08059.6447,W,1,11,1.5,14,M,,M,,*63
06/15/2015	12:04:11.556	$GPGGA,120412,2427.4803,N,08059.6452,W,1,11,1.5,14,M,,M,,*68
06/15/2015	12:04:12.551	$GPGGA,120413,2427.4807,N,08059.6456,W,1,11,1.5,14,M,,M,,*69
06/15/2015	12:04:13.553	$GPGGA,120414,2427.4810,N,08059.6460,W,1,11,1.5,14,M,,M,,*6D
06/15/2015	12:04:14.556	$GPGGA,120415,2427.4813,N,08059.6463,W,1,11,1.5,14,M,,M,,*6C
06/15/2015	12:04:15.576	$GPGGA,120416,2427.4816,N,08059.6468,W,1,11,1.5,14,M,,M,,*61
06/15/2015	12:04:16.556	$GPGGA,120417,2427.4818,N,08059.6472,W,1,11,1.5,14,M,,M,,*65
06/15/2015	12:04:17.576	$GPGGA,120418,2427.4821,N,08059.6477,W,1,11,1.5,14,M,,M,,*65
06/15/2015	12:04:18.541	$GPGGA,120419,2427.4825,N,08059.6481,W,1,11,1.5,14,M,,M,,*69
06/15/2015	12:04:19.576	$GPGGA,120420,2427.4828,N,08059.6485,W,1,11,1.5,14,M,,M,,*6A
06/15/2015	12:04:20.526	$GPGGA,120421,2427.4832,N,08059.6488,W,1,11,1.5,14,M,,M,,*6D
06/15/2015	12:04:21.547	$GPGGA,120422,2427.4834,N,08059.6493,W,1,11,1.5,14,M,,M,,*62
06/15/2015	12:04:22.527	$GPGGA,120423,2427.4838,N,08059.6499,W,1,11,1.5,14,M,,M,,*65
06/15/2015	12:04:23.657	$GPGGA,120424,2427.4842,N,08059.6501,W,1,11,1.5,14,M,,M,,*6F
06/15/2015	12:04:24.638	$GPGGA,120425,2427.4843,N,08059.6506,W,1,11,1.5,14,M,,M,,*68
06/15/2015	12:04:25.539	$GPGGA,120426,2427.4846,N,08059.6510,W,1,11,1.5,14,M,,M,,*69
06/15/2015	12:04:26.642	$GPGGA,120427,2427.4850,N,08059.6514,W,1,11,1.5,14,M,,M,,*6B
06/15/2015	12:04:27.636	$GPGGA,120428,2427.4853,N,08059.6517,W,1,11,1.5,14,M,,M,,*64
06/15/2015	12:04:28.526	$GPGGA,120429,2427.4856,N,08059.6521,W,1,11,1.5,14,M,,M,,*65
06/15/2015	12:04:29.616	$GPGGA,120430,2427.4860,N,08059.6525,W,1,11,1.5,14,M,,M,,*6C
06/15/2015	12:04:30.526	$GPGGA,120431,2427.4863,N,08059.6529,W,1,11,1.5,14,M,,M,,*62
06/15/2015	12:04:31.643	$GPGGA,120432,2427.4865,N,08059.6533,W,1,11,1.5,14,M,,M,,*6C
06/15/2015	12:04:32.516	$GPGGA,120433,2427.4870,N,08059.6536,W,1,11,1.5,14,M,,M,,*6C
06/15/2015	12:04:33.626	$GPGGA,120434,2427.4872,N,08059.6542,W,1,11,1.5,14,M,,M,,*6A
06/15/2015	12:04:34.506	$GPGGA,120435,2427.4875,N,08059.6544,W,1,11,1.5,14,M,,M,,*6A
06/15/2015	12:04:35.626	$GPGGA,120436,2427.4879,N,08059.6550,W,1,11,1.5,14,M,,M,,*60
06/15/2015	12:04:36.596	$GPGGA,120437,2427.4882,N,08059.6553,W,1,11,1.5,14,M,,M,,*66
06/15/2015	12:04:37.606	$GPGGA,120438,2427.4885,N,08059.6557,W,1,11,1.5,14,M,,M,,*6A
06/15/2015	12:04:38.596	$GPGGA,120439,2427.4888,N,08059.6561,W,1,11,1.5,14,M,,M,,*63
06/15/2015	12:04:39.647	$GPGGA,120440,2427.4892,N,08059.6565,W,1,11,1.5,14,M,,M,,*62
06/15/2015	12:04:40.587	$GPGGA,120441,2427.4896,N,08059.6568,W,1,11,1.5,14,M,,M,,*6A
06/15/2015	12:04:41.607	$GPGGA,120442,2427.4899,N,08059.6572,W,1,11,1.5,14,M,,M,,*6D
06/15/2015	12:04:42.587	$GPGGA,120443,2427.4901,N,08059.6577,W,1,11,1.5,14,M,,M,,*69
06/15/2015	12:04:43.617	$GPGGA,120444,2427.4904,N,08059.6580,W,1,11,1.5,14,M,,M,,*63
06/15/2015	12:04:44.587	$GPGGA,120445,2427.4908,N,08059.6584,W,1,11,1.5,14,M,,M,,*6A
06/15/2015	12:04:45.576	$GPGGA,120446,2427.4911,N,08059.6589,W,1,11,1.5,14,M,,M,,*6C
06/15/2015	12:04:46.586	$GPGGA,120447,2427.4914,N,08059.6593,W,1,11,1.5,14,M,,M,,*63
06/15/2015	12:04:47.606	$GPGGA,120448,2427.4917,N,08059.6597,W,1,11,1.5,14,M,,M,,*6B
06/15/2015	12:04:48.576	$GPGGA,120449,2427.4921,N,08059.6600,W,1,11,1.5,14,M,,M,,*62
06/15/2015	12:04:49.566	$GPGGA,120450,2427.4924,N,08059.6604,W,1,11,1.5,14,M,,M,,*6B
06/15/2015	12:04:50.576	$GPGGA,120451,2427.4926,N,08059.6608,W,1,11,1.5,14,M,,M,,*64
06/15/2015	12:04:51.596	$GPGGA,120452,2427.4929,N,08059.6611,W,1,11,1.5,14,M,,M,,*60
06/15/2015	12:04:52.566	$GPGGA,120453,2427.4933,N,08059.6615,W,1,11,1.5,14,M,,M,,*6E
06/15/2015	12:04:53.596	$GPGGA,120454,2427.4937,N,08059.6619,W,1,11,1.5,14,M,,M,,*61
06/15/2015	12:04:56.687	$GPGGA,120457,2427.4946,N,08059.6631,W,1,11,1.5,14,M,,M,,*6E
06/15/2015	12:04:57.587	$GPGGA,120458,2427.4948,N,08059.6636,W,1,11,1.5,14,M,,M,,*68
06/15/2015	12:04:58.559	$GPGGA,120459,2427.4951,N,08059.6640,W,1,11,1.5,14,M,,M,,*60
06/15/2015	12:04:59.577	$GPGGA,120500,2427.4954,N,08059.6644,W,1,11,1.5,14,M,,M,,*6C
06/15/2015	12:05:00.557	$GPGGA,120501,2427.4958,N,08059.6647,W,1,11,1.5,14,M,,M,,*62
06/15/2015	12:05:01.557	$GPGGA,120502,2427.4961,N,08059.6651,W,1,11,1.5,14,M,,M,,*6C
06/15/2015	12:05:02.556	$GPGGA,120503,2427.4964,N,08059.6655,W,1,11,1.5,14,M,,M,,*6C
06/15/2015	12:05:03.558	$GPGGA,120504,2427.4966,N,08059.6659,W,1,11,1.5,14,M,,M,,*65
06/15/2015	12:05:04.540	$GPGGA,120505,2427.4969,N,08059.6663,W,1,11,1.5,14,M,,M,,*62
06/15/2015	12:05:05.551	$GPGGA,120506,2427.4973,N,08059.6666,W,1,11,1.5,14,M,,M,,*6F
06/15/2015	12:05:06.547	$GPGGA,120507,2427.4977,N,08059.6671,W,1,11,1.5,14,M,,M,,*6C
06/15/2015	12:05:07.550	$GPGGA,120508,2427.4979,N,08059.6676,W,1,11,1.5,14,M,,M,,*6A
06/15/2015	12:05:08.548	$GPGGA,120509,2427.4982,N,08059.6680,W,1,11,1.5,14,M,,M,,*66
06/15/2015	12:05:09.566	$GPGGA,120510,2427.4986,N,08059.6684,W,1,11,1.5,14,M,,M,,*6E
06/15/2015	12:05:10.676	$GPGGA,120511,2427.4987,N,08059.6687,W,1,11,1.5,14,M,,M,,*6D
06/15/2015	12:05:11.549	$GPGGA,120512,2427.4991,N,08059.6691,W,1,11,1.5,14,M,,M,,*6E
06/15/2015	12:05:12.526	$GPGGA,120513,2427.4995,N,08059.6695,W,1,11,1.5,13,M,,M,,*68
06/15/2015	12:05:13.526	$GPGGA,120514,2427.4998,N,08059.6699,W,1,11,1.5,13,M,,M,,*6E
06/15/2015	12:05:14.527	$GPGGA,120515,2427.5000,N,08059.6703,W,1,11,1.5,13,M,,M,,*64
06/15/2015	12:05:15.549	$GPGGA,120516,2427.5002,N,08059.6706,W,1,11,1.5,13,M,,M,,*60
06/15/2015	12:05:16.617	$GPGGA,120517,2427.5005,N,08059.6710,W,1,11,1.5,13,M,,M,,*61
06/15/2015	12:05:17.507	$GPGGA,120518,2427.5009,N,08059.6714,W,1,11,1.5,13,M,,M,,*66
06/15/2015	12:05:18.617	$GPGGA,120519,2427.5012,N,08059.6719,W,1,11,1.5,13,M,,M,,*60
06/15/2015	12:05:19.642	$GPGGA,120520,2427.5015,N,08059.6723,W,1,11,1.5,13,M,,M,,*64
06/15/2015	12:05:20.606	$GPGGA,120521,2427.5018,N,08059.6725,W,1,11,1.5,13,M,,M,,*6E
06/15/2015	12:05:21.506	$GPGGA,120522,2427.5020,N,08059.6730,W,1,11,1.5,13,M,,M,,*62
06/15/2015	12:05:22.606	$GPGGA,120523,2427.5023,N,08059.6734,W,1,11,1.5,13,M,,M,,*64
06/15/2015	12:05:23.516	$GPGGA,120524,2427.5027,N,08059.6738,W,1,11,1.5,13,M,,M,,*6B
06/15/2015	12:05:24.606	$GPGGA,120525,2427.5030,N,08059.6741,W,1,11,1.5,13,M,,M,,*62
06/15/2015	12:05:25.506	$GPGGA,120526,2427.5033,N,08059.6745,W,1,11,1.5,13,M,,M,,*66
06/15/2015	12:05:26.606	$GPGGA,120527,2427.5036,N,08059.6749,W,1,11,1.5,13,M,,M,,*6E
06/15/2015	12:05:27.655	$GPGGA,120528,2427.5038,N,08059.6753,W,1,11,1.5,13,M,,M,,*64
06/15/2015	12:05:28.606	$GPGGA,120529,2427.5041,N,08059.6756,W,1,11,1.5,13,M,,M,,*6E
06/15/2015	12:05:29.586	$GPGGA,120530,2427.5044,N,08059.6759,W,1,11,1.5,13,M,,M,,*6C
06/15/2015	12:05:30.596	$GPGGA,120531,2427.5047,N,08059.6763,W,1,11,1.5,13,M,,M,,*67
06/15/2015	12:05:31.617	$GPGGA,120532,2427.5049,N,08059.6767,W,1,11,1.5,13,M,,M,,*6E
06/15/2015	12:05:32.587	$GPGGA,120533,2427.5052,N,08059.6771,W,1,11,1.5,13,M,,M,,*62
06/15/2015	12:05:34.079	$GPGGA,120534,2427.5055,N,08059.6774,W,1,11,1.5,13,M,,M,,*67
06/15/2015	12:05:34.577	$GPGGA,120535,2427.5058,N,08059.6777,W,1,11,1.5,13,M,,M,,*68
06/15/2015	12:05:35.607	$GPGGA,120536,2427.5060,N,08059.6781,W,1,11,1.5,13,M,,M,,*69
06/15/2015	12:05:36.577	$GPGGA,120537,2427.5063,N,08059.6785,W,1,11,1.5,13,M,,M,,*6F
06/15/2015	12:05:37.596	$GPGGA,120538,2427.5066,N,08059.6789,W,1,11,1.5,13,M,,M,,*69
06/15/2015	12:05:38.576	$GPGGA,120539,2427.5070,N,08059.6792,W,1,11,1.5,13,M,,M,,*65
06/15/2015	12:05:39.576	$GPGGA,120540,2427.5073,N,08059.6796,W,1,11,1.5,13,M,,M,,*6C
06/15/2015	12:05:40.576	$GPGGA,120541,2427.5074,N,08059.6800,W,1,11,1.5,13,M,,M,,*6A
06/15/2015	12:05:41.596	$GPGGA,120542,2427.5078,N,08059.6803,W,1,11,1.5,12,M,,M,,*67
06/15/2015	12:05:42.566	$GPGGA,120543,2427.5081,N,08059.6806,W,1,11,1.5,12,M,,M,,*65
06/15/2015	12:05:43.626	$GPGGA,120544,2427.5085,N,08059.6810,W,1,11,1.7,12,M,,M,,*63
06/15/2015	12:05:44.556	$GPGGA,120545,2427.5087,N,08059.6814,W,1,11,1.5,12,M,,M,,*66
06/15/2015	12:05:45.556	$GPGGA,120546,2427.5089,N,08059.6818,W,1,11,1.5,12,M,,M,,*67
06/15/2015	12:05:46.576	$GPGGA,120547,2427.5092,N,08059.6821,W,1,11,1.5,12,M,,M,,*66
06/15/2015	12:05:47.596	$GPGGA,120548,2427.5095,N,08059.6825,W,1,11,1.5,12,M,,M,,*6A
06/15/2015	12:05:48.556	$GPGGA,120549,2427.5098,N,08059.6829,W,1,11,1.5,12,M,,M,,*6A
06/15/2015	12:05:49.567	$GPGGA,120550,2427.5100,N,08059.6832,W,1,11,1.5,12,M,,M,,*68
06/15/2015	12:05:50.543	$GPGGA,120551,2427.5105,N,08059.6836,W,1,11,1.5,12,M,,M,,*68
06/15/2015	12:05:51.567	$GPGGA,120552,2427.5107,N,08059.6839,W,1,11,1.5,12,M,,M,,*66
06/15/2015	12:05:52.547	$GPGGA,120553,2427.5110,N,08059.6843,W,1,11,1.5,12,M,,M,,*6C
06/15/2015	12:05:53.567	$GPGGA,120554,2427.5114,N,08059.6846,W,1,11,1.5,13,M,,M,,*6B
06/15/2015	12:05:54.538	$GPGGA,120555,2427.5117,N,08059.6851,W,1,11,1.5,13,M,,M,,*6F
06/15/2015	12:05:55.686	$GPGGA,120556,2427.5120,N,08059.6854,W,1,11,1.5,13,M,,M,,*6D
06/15/2015	12:05:56.566	$GPGGA,120557,2427.5124,N,08059.6858,W,1,11,1.5,13,M,,M,,*64
06/15/2015	12:05:57.644	$GPGGA,120558,2427.5127,N,08059.6862,W,1,11,1.5,13,M,,M,,*61
06/15/2015	12:05:58.626	$GPGGA,120559,2427.5130,N,08059.6865,W,1,11,1.5,13,M,,M,,*61
06/15/2015	12:05:59.586	$GPGGA,120600,2427.5132,N,08059.6869,W,1,11,1.5,13,M,,M,,*60
06/15/2015	12:06:00.806	$GPGGA,120601,2427.5135,N,08059.6873,W,1,11,1.5,13,M,,M,,*6D
06/15/2015	12:06:01.516	$GPGGA,120602,2427.5138,N,08059.6878,W,1,11,1.5,13,M,,M,,*68
06/15/2015	12:06:02.637	$GPGGA,120603,2427.5142,N,08059.6882,W,1,11,1.5,13,M,,M,,*61
06/15/2015	12:06:03.626	$GPGGA,120604,2427.5145,N,08059.6884,W,1,11,1.5,13,M,,M,,*67
06/15/2015	12:06:04.546	$GPGGA,120605,2427.5148,N,08059.6889,W,1,11,1.5,13,M,,M,,*66
06/15/2015	12:06:05.516	$GPGGA,120606,2427.5150,N,08059.6893,W,1,11,1.5,13,M,,M,,*67
06/15/2015	12:06:06.607	$GPGGA,120607,2427.5154,N,08059.6897,W,1,11,1.5,13,M,,M,,*66
06/15/2015	12:06:07.643	$GPGGA,120608,2427.5156,N,08059.6900,W,1,11,1.5,13,M,,M,,*64
06/15/2015	12:06:08.527	$GPGGA,120609,2427.5156,N,08059.6900,W,1,11,1.5,13,M,,M,,*65
06/15/2015	12:06:09.627	$GPGGA,120610,2427.5163,N,08059.6908,W,1,11,1.5,13,M,,M,,*63
06/15/2015	12:06:10.527	$GPGGA,120611,2427.5164,N,08059.6911,W,1,11,1.5,13,M,,M,,*6D
06/15/2015	12:06:11.607	$GPGGA,120612,2427.5168,N,08059.6915,W,1,11,1.5,13,M,,M,,*66
06/15/2015	12:06:12.606	$GPGGA,120613,2427.5171,N,08059.6918,W,1,11,1.5,13,M,,M,,*62
06/15/2015	12:06:13.626	$GPGGA,120614,2427.5174,N,08059.6922,W,1,11,1.5,13,M,,M,,*69
06/15/2015	12:06:14.616	$GPGGA,120615,2427.5178,N,08059.6925,W,1,11,1.5,13,M,,M,,*63
06/15/2015	12:06:15.638	$GPGGA,120616,2427.5181,N,08059.6929,W,1,11,1.5,13,M,,M,,*6A
06/15/2015	12:06:16.606	$GPGGA,120617,2427.5183,N,08059.6933,W,1,11,1.5,13,M,,M,,*62
06/15/2015	12:06:17.596	$GPGGA,120618,2427.5186,N,08059.6937,W,1,11,1.5,13,M,,M,,*6C
06/15/2015	12:06:18.596	$GPGGA,120619,2427.5190,N,08059.6940,W,1,11,1.5,13,M,,M,,*6A
06/15/2015	12:06:19.616	$GPGGA,120620,2427.5193,N,08059.6944,W,1,11,1.5,13,M,,M,,*67
06/15/2015	12:06:20.596	$GPGGA,120621,2427.5195,N,08059.6948,W,1,11,1.5,13,M,,M,,*6C
06/15/2015	12:06:21.576	$GPGGA,120622,2427.5199,N,08059.6951,W,1,11,1.5,13,M,,M,,*6B
06/15/2015	12:06:22.576	$GPGGA,120623,2427.5201,N,08059.6956,W,1,11,1.5,13,M,,M,,*6F
06/15/2015	12:06:23.616	$GPGGA,120624,2427.5204,N,08059.6960,W,1,11,1.5,13,M,,M,,*68
06/15/2015	12:06:24.587	$GPGGA,120625,2427.5208,N,08059.6965,W,1,11,1.5,13,M,,M,,*60
06/15/2015	12:06:25.597	$GPGGA,120626,2427.5211,N,08059.6967,W,1,11,1.5,13,M,,M,,*69
06/15/2015	12:06:26.587	$GPGGA,120627,2427.5214,N,08059.6972,W,1,11,1.5,13,M,,M,,*69
06/15/2015	12:06:27.607	$GPGGA,120628,2427.5217,N,08059.6976,W,1,11,1.5,13,M,,M,,*61
06/15/2015	12:06:28.577	$GPGGA,120629,2427.5219,N,08059.6980,W,1,11,1.5,13,M,,M,,*67
06/15/2015	12:06:29.587	$GPGGA,120630,2427.5222,N,08059.6984,W,1,11,1.5,13,M,,M,,*63
06/15/2015	12:06:30.566	$GPGGA,120631,2427.5225,N,08059.6987,W,1,11,1.5,13,M,,M,,*66
06/15/2015	12:06:31.596	$GPGGA,120632,2427.5228,N,08059.6991,W,1,11,1.5,13,M,,M,,*6F
06/15/2015	12:06:32.566	$GPGGA,120633,2427.5230,N,08059.6994,W,1,11,1.5,13,M,,M,,*62
06/15/2015	12:06:33.576	$GPGGA,120634,2427.5233,N,08059.6998,W,1,11,1.5,13,M,,M,,*6A
06/15/2015	12:06:34.566	$GPGGA,120635,2427.5237,N,08059.7002,W,1,11,1.5,13,M,,M,,*64
06/15/2015	12:06:35.556	$GPGGA,120636,2427.5240,N,08059.7006,W,1,11,1.5,13,M,,M,,*63
06/15/2015	12:06:36.556	$GPGGA,120637,2427.5243,N,08059.7009,W,1,11,1.5,13,M,,M,,*6E
06/15/2015	12:06:37.566	$GPGGA,120638,2427.5244,N,08059.7014,W,1,11,1.5,13,M,,M,,*6A
06/15/2015	12:06:38.539	$GPGGA,120639,2427.5247,N,08059.7019,W,1,11,1.5,13,M,,M,,*65
06/15/2015	12:06:39.549	$GPGGA,120640,2427.5251,N,08059.7021,W,1,11,1.5,13,M,,M,,*67
06/15/2015	12:06:40.566	$GPGGA,120641,2427.5255,N,08059.7025,W,1,11,1.5,13,M,,M,,*66
06/15/2015	12:06:41.577	$GPGGA,120642,2427.5257,N,08059.7030,W,1,11,1.5,13,M,,M,,*63
06/15/2015	12:06:42.553	$GPGGA,120643,2427.5260,N,08059.7034,W,1,11,1.5,13,M,,M,,*62
06/15/2015	12:06:43.657	$GPGGA,120644,2427.5262,N,08059.7038,W,1,11,1.5,13,M,,M,,*6B
06/15/2015	12:06:44.559	$GPGGA,120645,2427.5266,N,08059.7041,W,1,11,1.5,13,M,,M,,*60
06/15/2015	12:06:45.555	$GPGGA,120646,2427.5269,N,08059.7045,W,1,11,1.5,13,M,,M,,*68
06/15/2015	12:06:46.541	$GPGGA,120647,2427.5272,N,08059.7049,W,1,11,1.5,13,M,,M,,*6F
06/15/2015	12:06:47.550	$GPGGA,120648,2427.5275,N,08059.7053,W,1,11,1.5,13,M,,M,,*6C
06/15/2015	12:06:48.626	$GPGGA,120649,2427.5277,N,08059.7057,W,1,11,1.5,13,M,,M,,*6B
06/15/2015	12:06:49.526	$GPGGA,120650,2427.5282,N,08059.7061,W,1,11,1.5,13,M,,M,,*6C
06/15/2015	12:06:50.642	$GPGGA,120651,2427.5284,N,08059.7066,W,1,11,1.5,13,M,,M,,*6C
06/15/2015	12:06:51.656	$GPGGA,120652,2427.5287,N,08059.7070,W,1,11,1.5,13,M,,M,,*6B
06/15/2015	12:06:52.526	$GPGGA,120653,2427.5290,N,08059.7074,W,1,11,1.5,13,M,,M,,*68
06/15/2015	12:06:53.516	$GPGGA,120654,2427.5293,N,08059.7078,W,1,11,1.5,13,M,,M,,*60
06/15/2015	12:06:54.616	$GPGGA,120655,2427.5295,N,08059.7082,W,1,11,1.5,13,M,,M,,*62
06/15/2015	12:06:55.657	$GPGGA,120656,2427.5298,N,08059.7086,W,1,11,1.5,13,M,,M,,*68
06/15/2015	12:06:56.526	$GPGGA,120657,2427.5301,N,08059.7090,W,1,11,1.5,13,M,,M,,*6F
06/15/2015	12:06:57.626	$GPGGA,120658,2427.5304,N,08059.7095,W,1,11,1.5,13,M,,M,,*60
06/15/2015	12:06:58.526	$GPGGA,120659,2427.5307,N,08059.7099,W,1,11,1.5,13,M,,M,,*6E
06/15/2015	12:06:59.577	$GPGGA,120700,2427.5309,N,08059.7103,W,1,11,1.5,13,M,,M,,*6F
06/15/2015	12:07:00.597	$GPGGA,120701,2427.5313,N,08059.7106,W,1,11,1.5,13,M,,M,,*60
06/15/2015	12:07:01.607	$GPGGA,120702,2427.5315,N,08059.7110,W,1,11,1.5,13,M,,M,,*62
06/15/2015	12:07:02.607	$GPGGA,120703,2427.5318,N,08059.7114,W,1,11,1.5,13,M,,M,,*6A
06/15/2015	12:07:03.607	$GPGGA,120704,2427.5320,N,08059.7118,W,1,11,1.5,13,M,,M,,*6A
06/15/2015	12:07:04.607	$GPGGA,120705,2427.5323,N,08059.7121,W,1,11,1.5,13,M,,M,,*62
06/15/2015	12:07:05.586	$GPGGA,120706,2427.5327,N,08059.7125,W,1,11,1.5,13,M,,M,,*61
06/15/2015	12:07:06.596	$GPGGA,120707,2427.5330,N,08059.7129,W,1,11,1.5,13,M,,M,,*6A
06/15/2015	12:07:07.626	$GPGGA,120708,2427.5333,N,08059.7133,W,1,11,1.5,13,M,,M,,*6D
06/15/2015	12:07:08.586	$GPGGA,120709,2427.5336,N,08059.7137,W,1,11,1.5,13,M,,M,,*6D
06/15/2015	12:07:09.606	$GPGGA,120710,2427.5338,N,08059.7142,W,1,11,1.5,13,M,,M,,*69
06/15/2015	12:07:10.596	$GPGGA,120711,2427.5341,N,08059.7146,W,1,11,1.5,13,M,,M,,*62
06/15/2015	12:07:11.596	$GPGGA,120712,2427.5344,N,08059.7150,W,1,11,1.5,13,M,,M,,*63
06/15/2015	12:07:12.586	$GPGGA,120713,2427.5348,N,08059.7153,W,1,11,1.5,13,M,,M,,*6D
06/15/2015	12:07:13.576	$GPGGA,120714,2427.5349,N,08059.7157,W,1,11,1.5,13,M,,M,,*6F
06/15/2015	12:07:14.586	$GPGGA,120715,2427.5352,N,08059.7161,W,1,11,1.5,13,M,,M,,*61
06/15/2015	12:07:15.606	$GPGGA,120716,2427.5356,N,08059.7164,W,1,11,1.5,13,M,,M,,*63
06/15/2015	12:07:16.567	$GPGGA,120717,2427.5359,N,08059.7168,W,1,11,1.5,13,M,,M,,*61
06/15/2015	12:07:17.597	$GPGGA,120718,2427.5362,N,08059.7173,W,1,11,1.5,13,M,,M,,*6C
06/15/2015	12:07:18.567	$GPGGA,120719,2427.5363,N,08059.7176,W,1,11,1.5,13,M,,M,,*69
06/15/2015	12:07:19.607	$GPGGA,120720,2427.5367,N,08059.7180,W,1,11,1.5,13,M,,M,,*6E
06/15/2015	12:07:20.557	$GPGGA,120721,2427.5370,N,08059.7184,W,1,11,1.5,13,M,,M,,*6D
06/15/2015	12:07:21.557	$GPGGA,120722,2427.5374,N,08059.7189,W,1,11,1.5,13,M,,M,,*67
06/15/2015	12:07:22.566	$GPGGA,120723,2427.5376,N,08059.7193,W,1,11,1.5,13,M,,M,,*6F
06/15/2015	12:07:23.566	$GPGGA,120724,2427.5380,N,08059.7197,W,1,11,1.5,13,M,,M,,*65
06/15/2015	12:07:24.566	$GPGGA,120725,2427.5383,N,08059.7200,W,1,11,1.5,13,M,,M,,*6A
06/15/2015	12:07:25.586	$GPGGA,120726,2427.5385,N,08059.7204,W,1,11,1.5,13,M,,M,,*6B
06/15/2015	12:07:26.556	$GPGGA,120727,2427.5388,N,08059.7207,W,1,11,1.5,13,M,,M,,*64
06/15/2015	12:07:27.596	$GPGGA,120728,2427.5392,N,08059.7211,W,1,11,1.5,13,M,,M,,*67
06/15/2015	12:07:28.548	$GPGGA,120729,2427.5394,N,08059.7216,W,1,11,1.5,13,M,,M,,*67
06/15/2015	12:07:29.566	$GPGGA,120730,2427.5396,N,08059.7220,W,1,11,1.5,13,M,,M,,*68
06/15/2015	12:07:30.538	$GPGGA,120731,2427.5399,N,08059.7223,W,1,11,1.5,13,M,,M,,*65
06/15/2015	12:07:31.586	$GPGGA,120732,2427.5403,N,08059.7227,W,1,11,1.5,13,M,,M,,*66
06/15/2015	12:07:32.556	$GPGGA,120733,2427.5406,N,08059.7233,W,1,11,1.5,13,M,,M,,*67
06/15/2015	12:07:33.656	$GPGGA,120734,2427.5407,N,08059.7236,W,1,11,1.5,13,M,,M,,*64
06/15/2015	12:07:34.527	$GPGGA,120735,2427.5412,N,08059.7240,W,1,11,1.5,13,M,,M,,*60
06/15/2015	12:07:35.667	$GPGGA,120736,2427.5414,N,08059.7243,W,1,11,1.5,13,M,,M,,*66
06/15/2015	12:07:36.540	$GPGGA,120737,2427.5417,N,08059.7247,W,1,11,1.5,13,M,,M,,*60
06/15/2015	12:07:37.650	$GPGGA,120738,2427.5420,N,08059.7251,W,1,11,1.5,13,M,,M,,*6C
06/15/2015	12:07:38.538	$GPGGA,120739,2427.5423,N,08059.7255,W,1,11,1.5,13,M,,M,,*6A
06/15/2015	12:07:39.577	$GPGGA,120740,2427.5424,N,08059.7259,W,1,11,1.5,13,M,,M,,*6F
06/15/2015	12:07:40.536	$GPGGA,120741,2427.5428,N,08059.7263,W,1,11,1.5,13,M,,M,,*6B
06/15/2015	12:07:41.616	$GPGGA,120742,2427.5431,N,08059.7267,W,1,11,1.5,13,M,,M,,*64
06/15/2015	12:07:42.542	$GPGGA,120743,2427.5434,N,08059.7272,W,1,11,1.5,13,M,,M,,*64
06/15/2015	12:07:43.536	$GPGGA,120744,2427.5436,N,08059.7276,W,1,11,1.5,13,M,,M,,*65
06/15/2015	12:07:44.616	$GPGGA,120745,2427.5439,N,08059.7280,W,1,11,1.5,13,M,,M,,*62
06/15/2015	12:07:45.656	$GPGGA,120746,2427.5442,N,08059.7283,W,1,11,1.5,13,M,,M,,*6E
06/15/2015	12:07:46.526	$GPGGA,120747,2427.5445,N,08059.7287,W,1,11,1.5,13,M,,M,,*6C
06/15/2015	12:07:47.656	$GPGGA,120748,2427.5448,N,08059.7290,W,1,11,1.5,13,M,,M,,*68
06/15/2015	12:07:48.606	$GPGGA,120749,2427.5450,N,08059.7294,W,1,11,1.5,13,M,,M,,*64
06/15/2015	12:07:49.636	$GPGGA,120750,2427.5453,N,08059.7298,W,1,11,1.5,13,M,,M,,*63
06/15/2015	12:07:50.606	$GPGGA,120751,2427.5456,N,08059.7301,W,1,11,1.5,13,M,,M,,*66
06/15/2015	12:07:51.647	$GPGGA,120752,2427.5459,N,08059.7305,W,1,11,1.5,13,M,,M,,*6E
06/15/2015	12:07:52.607	$GPGGA,120753,2427.5461,N,08059.7309,W,1,11,1.5,13,M,,M,,*68
06/15/2015	12:07:53.617	$GPGGA,120754,2427.5464,N,08059.7312,W,1,11,1.5,13,M,,M,,*60
06/15/2015	12:07:54.597	$GPGGA,120755,2427.5468,N,08059.7316,W,1,11,1.5,13,M,,M,,*69
06/15/2015	12:07:55.607	$GPGGA,120756,2427.5470,N,08059.7320,W,1,11,1.5,13,M,,M,,*66
06/15/2015	12:07:56.597	$GPGGA,120757,2427.5472,N,08059.7323,W,1,11,1.5,13,M,,M,,*66
06/15/2015	12:07:57.606	$GPGGA,120758,2427.5477,N,08059.7327,W,1,11,1.5,13,M,,M,,*68
06/15/2015	12:07:58.596	$GPGGA,120759,2427.5479,N,08059.7331,W,1,11,1.5,13,M,,M,,*60
06/15/2015	12:07:59.646	$GPGGA,120800,2427.5482,N,08059.7335,W,1,11,1.5,13,M,,M,,*63
06/15/2015	12:08:00.596	$GPGGA,120801,2427.5485,N,08059.7339,W,1,11,1.5,13,M,,M,,*69
06/15/2015	12:08:01.576	$GPGGA,120802,2427.5488,N,08059.7344,W,1,11,1.5,13,M,,M,,*6D
06/15/2015	12:08:02.596	$GPGGA,120803,2427.5492,N,08059.7346,W,1,11,1.5,13,M,,M,,*65
06/15/2015	12:08:03.643	$GPGGA,120804,2427.5495,N,08059.7352,W,1,11,1.5,13,M,,M,,*60
06/15/2015	12:08:04.586	$GPGGA,120805,2427.5497,N,08059.7355,W,1,11,1.6,13,M,,M,,*67
06/15/2015	12:08:05.566	$GPGGA,120806,2427.5500,N,08059.7359,W,1,11,1.5,13,M,,M,,*64
06/15/2015	12:08:06.576	$GPGGA,120807,2427.5504,N,08059.7363,W,1,11,1.5,13,M,,M,,*68
06/15/2015	12:08:07.606	$GPGGA,120808,2427.5507,N,08059.7367,W,1,11,1.5,13,M,,M,,*60
06/15/2015	12:08:08.566	$GPGGA,120809,2427.5508,N,08059.7371,W,1,11,1.5,13,M,,M,,*69
06/15/2015	12:08:09.587	$GPGGA,120810,2427.5511,N,08059.7375,W,1,11,1.5,13,M,,M,,*6D
06/15/2015	12:08:10.557	$GPGGA,120811,2427.5515,N,08059.7379,W,1,11,1.5,13,M,,M,,*64
06/15/2015	12:08:11.607	$GPGGA,120812,2427.5518,N,08059.7384,W,1,11,1.5,13,M,,M,,*68
06/15/2015	12:08:12.567	$GPGGA,120813,2427.5522,N,08059.7388,W,1,11,1.5,13,M,,M,,*6C
06/15/2015	12:08:13.549	$GPGGA,120814,2427.5524,N,08059.7392,W,1,11,1.5,13,M,,M,,*66
06/15/2015	12:08:14.551	$GPGGA,120815,2427.5526,N,08059.7395,W,1,11,1.5,13,M,,M,,*62
06/15/2015	12:08:15.586	$GPGGA,120816,2427.5531,N,08059.7399,W,1,11,1.5,13,M,,M,,*6B
06/15/2015	12:08:16.546	$GPGGA,120817,2427.5533,N,08059.7403,W,1,11,1.5,13,M,,M,,*6C
06/15/2015	12:08:17.549	$GPGGA,120818,2427.5536,N,08059.7407,W,1,11,1.5,13,M,,M,,*62
06/15/2015	12:08:18.536	$GPGGA,120819,2427.5540,N,08059.7411,W,1,11,1.5,13,M,,M,,*65
06/15/2015	12:08:19.576	$GPGGA,120820,2427.5543,N,08059.7415,W,1,11,1.5,13,M,,M,,*68
06/15/2015	12:08:20.549	$GPGGA,120821,2427.5547,N,08059.7420,W,1,11,1.5,13,M,,M,,*6B
06/15/2015	12:08:21.536	$GPGGA,120822,2427.5550,N,08059.7424,W,1,11,1.5,13,M,,M,,*6A
06/15/2015	12:08:22.538	$GPGGA,120823,2427.5551,N,08059.7428,W,1,11,1.5,13,M,,M,,*66
06/15/2015	12:08:23.726	$GPGGA,120824,2427.5554,N,08059.7432,W,1,11,1.5,13,M,,M,,*6F
06/15/2015	12:08:24.586	$GPGGA,120825,2427.5558,N,08059.7435,W,1,11,1.5,13,M,,M,,*65
06/15/2015	12:08:25.716	$GPGGA,120826,2427.5562,N,08059.7439,W,1,11,1.5,13,M,,M,,*63
06/15/2015	12:08:26.527	$GPGGA,120827,2427.5562,N,08059.7444,W,1,11,1.5,13,M,,M,,*68
06/15/2015	12:08:27.549	$GPGGA,120828,2427.5564,N,08059.7449,W,1,11,1.5,13,M,,M,,*6C
06/15/2015	12:08:28.527	$GPGGA,120829,2427.5569,N,08059.7453,W,1,11,1.5,13,M,,M,,*6B
06/15/2015	12:08:29.717	$GPGGA,120830,2427.5572,N,08059.7456,W,1,11,1.5,13,M,,M,,*6C
06/15/2015	12:08:30.554	$GPGGA,120831,2427.5573,N,08059.7460,W,1,11,1.5,13,M,,M,,*69
06/15/2015	12:08:31.727	$GPGGA,120832,2427.5576,N,08059.7464,W,1,11,1.5,13,M,,M,,*6B
06/15/2015	12:08:32.642	$GPGGA,120833,2427.5580,N,08059.7467,W,1,11,1.5,13,M,,M,,*60
06/15/2015	12:08:33.706	$GPGGA,120834,2427.5583,N,08059.7471,W,1,11,1.5,13,M,,M,,*63
06/15/2015	12:08:34.642	$GPGGA,120835,2427.5583,N,08059.7475,W,1,11,1.5,13,M,,M,,*66
06/15/2015	12:08:35.716	$GPGGA,120836,2427.5587,N,08059.7479,W,1,11,1.5,13,M,,M,,*6D
06/15/2015	12:08:36.526	$GPGGA,120837,2427.5591,N,08059.7483,W,1,11,1.5,13,M,,M,,*6E
06/15/2015	12:08:37.706	$GPGGA,120838,2427.5593,N,08059.7487,W,1,11,1.5,13,M,,M,,*67
06/15/2015	12:08:38.636	$GPGGA,120839,2427.5596,N,08059.7491,W,1,11,1.5,13,M,,M,,*64
06/15/2015	12:08:39.716	$GPGGA,120840,2427.5598,N,08059.7496,W,1,11,1.5,13,M,,M,,*63
06/15/2015	12:08:40.626	$GPGGA,120841,2427.5602,N,08059.7498,W,1,11,1.5,13,M,,M,,*6C
06/15/2015	12:08:41.696	$GPGGA,120842,2427.5602,N,08059.7504,W,1,11,1.5,13,M,,M,,*6B
06/15/2015	12:08:42.596	$GPGGA,120843,2427.5607,N,08059.7507,W,1,11,1.5,13,M,,M,,*6C
06/15/2015	12:08:43.716	$GPGGA,120844,2427.5611,N,08059.7511,W,1,11,1.5,13,M,,M,,*6B
06/15/2015	12:08:44.617	$GPGGA,120845,2427.5612,N,08059.7514,W,1,11,1.5,13,M,,M,,*6C
06/15/2015	12:08:45.697	$GPGGA,120846,2427.5615,N,08059.7518,W,1,11,1.5,13,M,,M,,*64
06/15/2015	12:08:46.587	$GPGGA,120847,2427.5618,N,08059.7522,W,1,11,1.5,13,M,,M,,*61
06/15/2015	12:08:47.707	$GPGGA,120848,2427.5620,N,08059.7526,W,1,11,1.5,13,M,,M,,*61
06/15/2015	12:08:48.577	$GPGGA,120849,2427.5623,N,08059.7530,W,1,11,1.5,13,M,,M,,*64
06/15/2015	12:08:49.645	$GPGGA,120850,2427.5627,N,08059.7534,W,1,11,1.5,13,M,,M,,*6C
06/15/2015	12:08:50.626	$GPGGA,120851,2427.5629,N,08059.7537,W,1,11,1.5,13,M,,M,,*60
06/15/2015	12:08:51.706	$GPGGA,120852,2427.5630,N,08059.7541,W,1,11,1.5,13,M,,M,,*6A
06/15/2015	12:08:52.606	$GPGGA,120853,2427.5634,N,08059.7545,W,1,11,1.5,13,M,,M,,*6B
06/15/2015	12:08:53.676	$GPGGA,120854,2427.5638,N,08059.7550,W,1,11,1.5,13,M,,M,,*64
06/15/2015	12:08:54.566	$GPGGA,120855,2427.5640,N,08059.7554,W,1,11,1.5,13,M,,M,,*6E
06/15/2015	12:08:55.686	$GPGGA,120856,2427.5641,N,08059.7558,W,1,11,1.5,13,M,,M,,*60
06/15/2015	12:08:56.596	$GPGGA,120857,2427.5645,N,08059.7561,W,1,11,1.5,13,M,,M,,*6F
06/15/2015	12:08:57.649	$GPGGA,120858,2427.5648,N,08059.7565,W,1,11,1.5,13,M,,M,,*69
06/15/2015	12:08:58.566	$GPGGA,120859,2427.5648,N,08059.7569,W,1,11,1.5,13,M,,M,,*64
06/15/2015	12:08:59.686	$GPGGA,120900,2427.5652,N,08059.7572,W,1,11,1.5,13,M,,M,,*68
06/15/2015	12:09:00.596	$GPGGA,120901,2427.5656,N,08059.7576,W,1,11,1.5,13,M,,M,,*69
06/15/2015	12:09:01.677	$GPGGA,120902,2427.5659,N,08059.7579,W,1,11,1.5,13,M,,M,,*6A
06/15/2015	12:09:02.548	$GPGGA,120903,2427.5659,N,08059.7583,W,1,11,1.5,13,M,,M,,*6E
06/15/2015	12:09:03.677	$GPGGA,120904,2427.5663,N,08059.7587,W,1,11,1.5,13,M,,M,,*64
06/15/2015	12:09:04.577	$GPGGA,120905,2427.5667,N,08059.7591,W,1,11,1.5,13,M,,M,,*66
06/15/2015	12:09:05.646	$GPGGA,120906,2427.5670,N,08059.7595,W,1,11,1.5,13,M,,M,,*67
06/15/2015	12:09:06.552	$GPGGA,120907,2427.5670,N,08059.7598,W,1,11,1.5,13,M,,M,,*6B
06/15/2015	12:09:07.651	$GPGGA,120908,2427.5674,N,08059.7602,W,1,11,1.5,13,M,,M,,*60
06/15/2015	12:09:08.558	$GPGGA,120909,2427.5677,N,08059.7605,W,1,11,1.5,13,M,,M,,*65
06/15/2015	12:09:09.616	$GPGGA,120910,2427.5680,N,08059.7609,W,1,11,1.5,13,M,,M,,*69
06/15/2015	12:09:10.539	$GPGGA,120911,2427.5681,N,08059.7613,W,1,11,1.5,13,M,,M,,*62
06/15/2015	12:09:11.652	$GPGGA,120912,2427.5685,N,08059.7617,W,1,11,1.5,13,M,,M,,*61
06/15/2015	12:09:12.586	$GPGGA,120913,2427.5688,N,08059.7621,W,1,11,1.5,13,M,,M,,*68
06/15/2015	12:09:13.654	$GPGGA,120914,2427.5691,N,08059.7626,W,1,11,1.5,13,M,,M,,*60
06/15/2015	12:09:14.526	$GPGGA,120915,2427.5694,N,08059.7628,W,1,11,1.5,13,M,,M,,*6A
06/15/2015	12:09:15.616	$GPGGA,120916,2427.5698,N,08059.7633,W,1,11,1.5,13,M,,M,,*6F
06/15/2015	12:09:16.638	$GPGGA,120917,2427.5701,N,08059.7635,W,1,11,1.5,13,M,,M,,*69
06/15/2015	12:09:17.526	$GPGGA,120918,2427.5703,N,08059.7641,W,1,11,1.5,13,M,,M,,*67
06/15/2015	12:09:18.626	$GPGGA,120919,2427.5706,N,08059.7645,W,1,11,1.5,13,M,,M,,*67
06/15/2015	12:09:19.667	$GPGGA,120920,2427.5709,N,08059.7648,W,1,11,1.5,13,M,,M,,*6F
06/15/2015	12:09:20.567	$GPGGA,120921,2427.5712,N,08059.7650,W,1,11,1.5,13,M,,M,,*6D
06/15/2015	12:09:21.617	$GPGGA,120922,2427.5716,N,08059.7653,W,1,11,1.5,13,M,,M,,*69
06/15/2015	12:09:22.617	$GPGGA,120923,2427.5717,N,08059.7659,W,1,11,1.5,13,M,,M,,*63
06/15/2015	12:09:23.617	$GPGGA,120924,2427.5721,N,08059.7663,W,1,11,1.5,13,M,,M,,*68
06/15/2015	12:09:24.557	$GPGGA,120925,2427.5724,N,08059.7666,W,1,11,1.5,13,M,,M,,*69
06/15/2015	12:09:25.654	$GPGGA,120926,2427.5727,N,08059.7670,W,1,11,1.5,13,M,,M,,*6E
06/15/2015	12:09:26.606	$GPGGA,120927,2427.5731,N,08059.7673,W,1,11,1.5,13,M,,M,,*6B
06/15/2015	12:09:27.656	$GPGGA,120928,2427.5734,N,08059.7677,W,1,11,1.5,13,M,,M,,*65
06/15/2015	12:09:28.616	$GPGGA,120929,2427.5735,N,08059.7681,W,1,11,1.5,13,M,,M,,*6C
06/15/2015	12:09:29.606	$GPGGA,120930,2427.5739,N,08059.7684,W,1,11,1.5,13,M,,M,,*6D
06/15/2015	12:09:30.606	$GPGGA,120931,2427.5742,N,08059.7688,W,1,11,1.5,13,M,,M,,*6C
06/15/2015	12:09:31.640	$GPGGA,120932,2427.5746,N,08059.7691,W,1,11,1.5,13,M,,M,,*63
06/15/2015	12:09:32.596	$GPGGA,120933,2427.5749,N,08059.7695,W,1,11,1.5,13,M,,M,,*69
06/15/2015	12:09:33.606	$GPGGA,120934,2427.5750,N,08059.7699,W,1,11,1.5,13,M,,M,,*6A
06/15/2015	12:09:34.596	$GPGGA,120935,2427.5755,N,08059.7702,W,1,11,1.5,13,M,,M,,*6D
06/15/2015	12:09:35.686	$GPGGA,120936,2427.5757,N,08059.7706,W,1,11,1.5,13,M,,M,,*68
06/15/2015	12:09:36.587	$GPGGA,120937,2427.5760,N,08059.7710,W,1,11,1.5,13,M,,M,,*6A
06/15/2015	12:09:37.627	$GPGGA,120938,2427.5764,N,08059.7714,W,1,11,1.5,13,M,,M,,*65
06/15/2015	12:09:38.597	$GPGGA,120939,2427.5767,N,08059.7717,W,1,11,1.5,13,M,,M,,*64
06/15/2015	12:09:39.627	$GPGGA,120940,2427.5770,N,08059.7721,W,1,11,1.5,13,M,,M,,*69
06/15/2015	12:09:40.597	$GPGGA,120941,2427.5773,N,08059.7724,W,1,11,1.5,13,M,,M,,*6E
06/15/2015	12:09:41.637	$GPGGA,120942,2427.5777,N,08059.7728,W,1,11,1.5,13,M,,M,,*65
06/15/2015	12:09:42.576	$GPGGA,120943,2427.5779,N,08059.7732,W,1,11,1.5,13,M,,M,,*61
06/15/2015	12:09:43.626	$GPGGA,120944,2427.5782,N,08059.7736,W,1,11,1.5,13,M,,M,,*66
06/15/2015	12:09:45.666	$GPGGA,120946,2427.5789,N,08059.7743,W,1,11,1.5,13,M,,M,,*6D
06/15/2015	12:09:46.576	$GPGGA,120947,2427.5792,N,08059.7747,W,1,11,1.5,13,M,,M,,*62
06/15/2015	12:09:47.626	$GPGGA,120948,2427.5793,N,08059.7750,W,1,10,1.5,13,M,,M,,*6B
06/15/2015	12:09:48.576	$GPGGA,120949,2427.5797,N,08059.7756,W,1,10,1.5,13,M,,M,,*68
06/15/2015	12:09:49.606	$GPGGA,120950,2427.5800,N,08059.7758,W,1,10,1.5,13,M,,M,,*6F
06/15/2015	12:09:50.556	$GPGGA,120951,2427.5804,N,08059.7762,W,1,10,1.5,13,M,,M,,*63
06/15/2015	12:09:51.616	$GPGGA,120952,2427.5804,N,08059.7762,W,1,10,1.5,13,M,,M,,*60
06/15/2015	12:09:52.576	$GPGGA,120953,2427.5808,N,08059.7771,W,1,10,1.5,13,M,,M,,*6F
06/15/2015	12:09:53.626	$GPGGA,120954,2427.5811,N,08059.7775,W,1,10,1.5,13,M,,M,,*64
06/15/2015	12:09:54.557	$GPGGA,120955,2427.5815,N,08059.7778,W,1,10,1.5,13,M,,M,,*6C
06/15/2015	12:09:55.645	$GPGGA,120956,2427.5818,N,08059.7782,W,1,10,1.5,13,M,,M,,*67
06/15/2015	12:09:57.028	$GPGGA,120957,2427.5821,N,08059.7786,W,1,10,1.5,12,M,,M,,*69
06/15/2015	12:09:57.567	$GPGGA,120958,2427.5821,N,08059.7786,W,1,10,1.5,12,M,,M,,*66
06/15/2015	12:09:58.557	$GPGGA,120959,2427.5826,N,08059.7797,W,1,10,1.3,12,M,,M,,*66
06/15/2015	12:09:59.607	$GPGGA,121000,2427.5826,N,08059.7797,W,1,11,1.3,12,M,,M,,*63
06/15/2015	12:10:00.640	$GPGGA,121001,2427.5832,N,08059.7808,W,1,11,1.3,13,M,,M,,*6F
06/15/2015	12:10:01.556	$GPGGA,121002,2427.5832,N,08059.7808,W,1,11,1.3,13,M,,M,,*6C
06/15/2015	12:10:02.526	$GPGGA,121003,2427.5836,N,08059.7818,W,1,11,1.3,13,M,,M,,*68
06/15/2015	12:10:03.566	$GPGGA,121004,2427.5836,N,08059.7818,W,1,11,1.3,13,M,,M,,*6F
06/15/2015	12:10:04.516	$GPGGA,121005,2427.5843,N,08059.7829,W,1,11,1.3,13,M,,M,,*6E
06/15/2015	12:10:05.976	$GPGGA,121006,2427.5843,N,08059.7829,W,1,11,1.3,13,M,,M,,*6D
06/15/2015	12:10:06.529	$GPGGA,121007,2427.5849,N,08059.7836,W,1,11,1.3,13,M,,M,,*68
06/15/2015	12:10:07.646	$GPGGA,121008,2427.5851,N,08059.7841,W,1,11,1.3,13,M,,M,,*6E
06/15/2015	12:10:08.526	$GPGGA,121009,2427.5854,N,08059.7847,W,1,11,1.3,13,M,,M,,*6C
06/15/2015	12:10:09.516	$GPGGA,121010,2427.5854,N,08059.7847,W,1,11,1.3,13,M,,M,,*64
06/15/2015	12:10:10.606	$GPGGA,121011,2427.5860,N,08059.7855,W,1,11,1.3,14,M,,M,,*66
06/15/2015	12:10:11.630	$GPGGA,121012,2427.5862,N,08059.7859,W,1,11,1.3,14,M,,M,,*6B
06/15/2015	12:10:12.606	$GPGGA,121013,2427.5865,N,08059.7865,W,1,11,1.3,14,M,,M,,*62
06/15/2015	12:10:13.606	$GPGGA,121014,2427.5868,N,08059.7868,W,1,11,1.3,14,M,,M,,*65
06/15/2015	12:10:14.596	$GPGGA,121015,2427.5871,N,08059.7872,W,1,11,1.3,14,M,,M,,*67
06/15/2015	12:10:15.626	$GPGGA,121016,2427.5873,N,08059.7877,W,1,11,1.3,14,M,,M,,*63
06/15/2015	12:10:16.596	$GPGGA,121017,2427.5876,N,08059.7880,W,1,11,1.3,14,M,,M,,*6F
06/15/2015	12:10:17.605	$GPGGA,121018,2427.5880,N,08059.7884,W,1,11,1.3,14,M,,M,,*6D
06/15/2015	12:10:18.595	$GPGGA,121019,2427.5883,N,08059.7888,W,1,11,1.3,14,M,,M,,*63
06/15/2015	12:10:19.615	$GPGGA,121020,2427.5883,N,08059.7892,W,1,11,1.3,15,M,,M,,*63
06/15/2015	12:10:20.585	$GPGGA,121021,2427.5887,N,08059.7897,W,1,11,1.3,15,M,,M,,*63
06/15/2015	12:10:21.606	$GPGGA,121022,2427.5891,N,08059.7901,W,1,11,1.3,15,M,,M,,*69
06/15/2015	12:10:22.576	$GPGGA,121023,2427.5893,N,08059.7905,W,1,11,1.3,15,M,,M,,*6E
06/15/2015	12:10:23.916	$GPGGA,121024,2427.5896,N,08059.7908,W,1,11,1.3,15,M,,M,,*61
06/15/2015	12:10:24.586	$GPGGA,121025,2427.5898,N,08059.7912,W,1,11,1.3,15,M,,M,,*65
06/15/2015	12:10:25.596	$GPGGA,121026,2427.5901,N,08059.7916,W,1,11,1.3,15,M,,M,,*63
06/15/2015	12:10:26.576	$GPGGA,121027,2427.5905,N,08059.7920,W,1,11,1.3,15,M,,M,,*63
06/15/2015	12:10:27.607	$GPGGA,121028,2427.5909,N,08059.7924,W,1,11,1.3,15,M,,M,,*64
06/15/2015	12:10:28.576	$GPGGA,121029,2427.5911,N,08059.7928,W,1,11,1.3,15,M,,M,,*60
06/15/2015	12:10:29.566	$GPGGA,121030,2427.5912,N,08059.7933,W,1,11,1.3,15,M,,M,,*61
06/15/2015	12:10:30.576	$GPGGA,121031,2427.5916,N,08059.7937,W,1,11,1.3,15,M,,M,,*60
06/15/2015	12:10:31.596	$GPGGA,121032,2427.5919,N,08059.7939,W,1,11,1.3,15,M,,M,,*62
06/15/2015	12:10:32.566	$GPGGA,121033,2427.5923,N,08059.7944,W,1,11,1.3,15,M,,M,,*60
06/15/2015	12:10:33.586	$GPGGA,121034,2427.5925,N,08059.7948,W,1,11,1.3,15,M,,M,,*6D
06/15/2015	12:10:34.566	$GPGGA,121035,2427.5927,N,08059.7952,W,1,11,1.3,16,M,,M,,*66
06/15/2015	12:10:36.585	$GPGGA,121037,2427.5934,N,08059.7959,W,1,11,1.3,16,M,,M,,*6D
06/15/2015	12:10:37.545	$GPGGA,121038,2427.5937,N,08059.7964,W,1,11,1.3,16,M,,M,,*6F
06/15/2015	12:10:38.555	$GPGGA,121039,2427.5940,N,08059.7969,W,1,11,1.3,16,M,,M,,*63
06/15/2015	12:10:39.556	$GPGGA,121040,2427.5943,N,08059.7973,W,1,11,1.3,16,M,,M,,*65
06/15/2015	12:10:40.556	$GPGGA,121041,2427.5945,N,08059.7974,W,1,11,1.3,16,M,,M,,*65
06/15/2015	12:10:41.536	$GPGGA,121042,2427.5949,N,08059.7978,W,1,10,1.5,16,M,,M,,*61
06/15/2015	12:10:42.656	$GPGGA,121043,2427.5951,N,08059.7984,W,1,10,1.4,16,M,,M,,*6B
06/15/2015	12:10:43.676	$GPGGA,121044,2427.5954,N,08059.7988,W,1,11,1.3,16,M,,M,,*63
06/15/2015	12:10:44.556	$GPGGA,121045,2427.5956,N,08059.7991,W,1,11,1.3,16,M,,M,,*68
06/15/2015	12:10:45.646	$GPGGA,121046,2427.5959,N,08059.7996,W,1,11,1.3,16,M,,M,,*63
06/15/2015	12:10:46.529	$GPGGA,121047,2427.5961,N,08059.8002,W,1,11,1.3,16,M,,M,,*62
06/15/2015	12:10:47.556	$GPGGA,121048,2427.5963,N,08059.8006,W,1,11,1.3,16,M,,M,,*6B
06/15/2015	12:10:48.546	$GPGGA,121049,2427.5966,N,08059.8010,W,1,11,1.3,16,M,,M,,*68
06/15/2015	12:10:49.646	$GPGGA,121050,2427.5969,N,08059.8014,W,1,11,1.3,16,M,,M,,*6B
06/15/2015	12:10:50.545	$GPGGA,121051,2427.5970,N,08059.8020,W,1,11,1.3,16,M,,M,,*65
06/15/2015	12:10:51.646	$GPGGA,121052,2427.5974,N,08059.8024,W,1,11,1.3,16,M,,M,,*66
06/15/2015	12:10:52.615	$GPGGA,121053,2427.5977,N,08059.8027,W,1,11,1.3,16,M,,M,,*67
06/15/2015	12:10:53.515	$GPGGA,121054,2427.5980,N,08059.8031,W,1,11,1.3,16,M,,M,,*6F
06/15/2015	12:10:54.515	$GPGGA,121055,2427.5983,N,08059.8035,W,1,11,1.3,16,M,,M,,*69
06/15/2015	12:10:55.625	$GPGGA,121056,2427.5985,N,08059.8039,W,1,11,1.3,17,M,,M,,*61
06/15/2015	12:10:56.529	$GPGGA,121057,2427.5988,N,08059.8043,W,1,11,1.3,17,M,,M,,*60
06/15/2015	12:10:57.646	$GPGGA,121058,2427.5991,N,08059.8047,W,1,11,1.3,17,M,,M,,*63
06/15/2015	12:10:58.606	$GPGGA,121059,2427.5995,N,08059.8051,W,1,11,1.3,17,M,,M,,*61
06/15/2015	12:10:59.646	$GPGGA,121100,2427.5999,N,08059.8056,W,1,11,1.3,17,M,,M,,*67
06/15/2015	12:11:00.606	$GPGGA,121101,2427.5999,N,08059.8060,W,1,11,1.3,17,M,,M,,*63
06/15/2015	12:11:01.626	$GPGGA,121102,2427.6003,N,08059.8064,W,1,11,1.3,17,M,,M,,*6D
06/15/2015	12:11:02.606	$GPGGA,121103,2427.6006,N,08059.8067,W,1,11,1.3,17,M,,M,,*6A
06/15/2015	12:11:03.640	$GPGGA,121104,2427.6010,N,08059.8071,W,1,11,1.3,17,M,,M,,*6D
06/15/2015	12:11:04.586	$GPGGA,121105,2427.6013,N,08059.8074,W,1,11,1.3,17,M,,M,,*6A
06/15/2015	12:11:05.626	$GPGGA,121106,2427.6016,N,08059.8078,W,1,11,1.3,17,M,,M,,*60
06/15/2015	12:11:06.596	$GPGGA,121107,2427.6017,N,08059.8082,W,1,11,1.3,17,M,,M,,*65
06/15/2015	12:11:07.632	$GPGGA,121108,2427.6021,N,08059.8086,W,1,11,1.3,17,M,,M,,*6B
06/15/2015	12:11:08.586	$GPGGA,121109,2427.6024,N,08059.8090,W,1,11,1.3,17,M,,M,,*68
06/15/2015	12:11:09.606	$GPGGA,121110,2427.6028,N,08059.8093,W,1,11,1.3,17,M,,M,,*6F
06/15/2015	12:11:10.585	$GPGGA,121111,2427.6028,N,08059.8098,W,1,11,1.3,17,M,,M,,*65
06/15/2015	12:11:11.595	$GPGGA,121112,2427.6032,N,08059.8103,W,1,11,1.3,17,M,,M,,*6E
06/15/2015	12:11:12.575	$GPGGA,121113,2427.6037,N,08059.8107,W,1,11,1.3,17,M,,M,,*6E
06/15/2015	12:11:13.595	$GPGGA,121114,2427.6039,N,08059.8111,W,1,11,1.3,18,M,,M,,*6F
06/15/2015	12:11:14.577	$GPGGA,121115,2427.6041,N,08059.8114,W,1,11,1.3,18,M,,M,,*64
06/15/2015	12:11:15.606	$GPGGA,121116,2427.6045,N,08059.8118,W,1,11,1.3,18,M,,M,,*6F
06/15/2015	12:11:16.576	$GPGGA,121117,2427.6049,N,08059.8121,W,1,11,1.3,18,M,,M,,*68
06/15/2015	12:11:17.576	$GPGGA,121118,2427.6050,N,08059.8125,W,1,11,1.3,18,M,,M,,*6B
06/15/2015	12:11:18.566	$GPGGA,121119,2427.6053,N,08059.8129,W,1,11,1.3,18,M,,M,,*65
06/15/2015	12:11:19.616	$GPGGA,121120,2427.6057,N,08059.8132,W,1,11,1.3,18,M,,M,,*61
06/15/2015	12:11:20.576	$GPGGA,121121,2427.6060,N,08059.8136,W,1,11,1.3,18,M,,M,,*60
06/15/2015	12:11:21.556	$GPGGA,121122,2427.6063,N,08059.8140,W,1,11,1.3,18,M,,M,,*61
06/15/2015	12:11:22.556	$GPGGA,121123,2427.6066,N,08059.8144,W,1,11,1.3,18,M,,M,,*61
06/15/2015	12:11:23.586	$GPGGA,121124,2427.6068,N,08059.8147,W,1,11,1.3,18,M,,M,,*6B
06/15/2015	12:11:24.556	$GPGGA,121125,2427.6071,N,08059.8151,W,1,11,1.3,18,M,,M,,*65
06/15/2015	12:11:25.586	$GPGGA,121126,2427.6075,N,08059.8155,W,1,11,1.3,18,M,,M,,*66
06/15/2015	12:11:26.547	$GPGGA,121127,2427.6078,N,08059.8159,W,1,11,1.3,18,M,,M,,*66
06/15/2015	12:11:27.585	$GPGGA,121128,2427.6079,N,08059.8163,W,1,11,1.3,18,M,,M,,*61
06/15/2015	12:11:28.546	$GPGGA,121129,2427.6082,N,08059.8168,W,1,11,1.3,18,M,,M,,*6F
06/15/2015	12:11:29.675	$GPGGA,121130,2427.6086,N,08059.8172,W,1,11,1.3,18,M,,M,,*68
06/15/2015	12:11:30.655	$GPGGA,121131,2427.6088,N,08059.8176,W,1,11,1.3,18,M,,M,,*63
06/15/2015	12:11:31.586	$GPGGA,121132,2427.6091,N,08059.8179,W,1,11,1.3,18,M,,M,,*67
06/15/2015	12:11:32.556	$GPGGA,121133,2427.6093,N,08059.8183,W,1,11,1.3,18,M,,M,,*61
06/15/2015	12:11:33.646	$GPGGA,121134,2427.6096,N,08059.8187,W,1,11,1.3,18,M,,M,,*67
06/15/2015	12:11:34.544	$GPGGA,121135,2427.6100,N,08059.8191,W,1,11,1.3,18,M,,M,,*6F
06/15/2015	12:11:35.576	$GPGGA,121136,2427.6103,N,08059.8195,W,1,11,1.3,18,M,,M,,*6B
06/15/2015	12:11:36.544	$GPGGA,121137,2427.6104,N,08059.8199,W,1,11,1.3,18,M,,M,,*61
06/15/2015	12:11:38.566	$GPGGA,121139,2427.6111,N,08059.8208,W,1,11,1.3,17,M,,M,,*6F
06/15/2015	12:11:39.629	$GPGGA,121140,2427.6113,N,08059.8212,W,1,11,1.3,17,M,,M,,*68
06/15/2015	12:11:40.543	$GPGGA,121141,2427.6117,N,08059.8215,W,1,11,1.3,17,M,,M,,*6A
06/15/2015	12:11:41.543	$GPGGA,121142,2427.6120,N,08059.8219,W,1,11,1.3,17,M,,M,,*61
06/15/2015	12:11:42.543	$GPGGA,121143,2427.6122,N,08059.8223,W,1,11,1.3,17,M,,M,,*6B
06/15/2015	12:11:43.646	$GPGGA,121144,2427.6125,N,08059.8226,W,1,11,1.3,17,M,,M,,*6E
06/15/2015	12:11:44.530	$GPGGA,121145,2427.6128,N,08059.8230,W,1,11,1.3,17,M,,M,,*65
06/15/2015	12:11:45.645	$GPGGA,121146,2427.6129,N,08059.8233,W,1,11,1.3,17,M,,M,,*64
06/15/2015	12:11:46.515	$GPGGA,121147,2427.6133,N,08059.8237,W,1,11,1.3,17,M,,M,,*6A
