Software Version Number: 1	Data File Format Number: 1	Build Version Number: 1	Error Count Since VI Started: 3	Manufacturer: Raytheon	 Model Number: RayMarine 120	 S/N: 	 Cal Date: 	 Wind Direction Offset: 0.00	 Slope (M)1: 0.00	 Offset (B)1: 0.00	 Slope (M)2: 0.00	 Offset (B)2: 0.00	 Slope (M)3: 0.00	 Offset (B)3: 0.00	 Slope (M)4: 0.00	 Offset (B)4: 0.00	 Slope (M)5: 0.00	 Offset (B)5: 0.00	 Slope (M)6: 0.00	 Offset (B)6: 0.00
Computer Date	Computer Time	GGA String
06/27/2015	00:00:00.544	$GPGGA,000001,2621.7043,N,07958.9290,W,1,9,1.7,17,M,,M,,*5E
06/27/2015	00:00:01.564	$GPGGA,000002,2621.7041,N,07958.9290,W,1,9,1.7,17,M,,M,,*5F
06/27/2015	00:00:02.534	$GPGGA,000003,2621.7040,N,07958.9289,W,1,9,1.7,17,M,,M,,*57
06/27/2015	00:00:03.585	$GPGGA,000004,2621.7039,N,07958.9288,W,1,9,1.7,17,M,,M,,*5F
06/27/2015	00:00:04.534	$GPGGA,000005,2621.7037,N,07958.9288,W,1,9,1.7,17,M,,M,,*50
06/27/2015	00:00:05.564	$GPGGA,000006,2621.7036,N,07958.9286,W,1,8,2.0,17,M,,M,,*59
06/27/2015	00:00:06.534	$GPGGA,000007,2621.7033,N,07958.9285,W,1,8,1.7,17,M,,M,,*5A
06/27/2015	00:00:07.574	$GPGGA,000008,2621.7032,N,07958.9285,W,1,8,2.0,17,M,,M,,*50
06/27/2015	00:00:08.544	$GPGGA,000009,2621.7031,N,07958.9285,W,1,8,2.0,17,M,,M,,*52
06/27/2015	00:00:09.544	$GPGGA,000010,2621.7030,N,07958.9285,W,1,9,1.7,17,M,,M,,*5E
06/27/2015	00:00:10.514	$GPGGA,000011,2621.7029,N,07958.9284,W,1,9,2.0,16,M,,M,,*53
06/27/2015	00:00:11.544	$GPGGA,000012,2621.7027,N,07958.9283,W,1,9,1.7,16,M,,M,,*5D
06/27/2015	00:00:12.510	$GPGGA,000013,2621.7026,N,07958.9282,W,1,9,1.7,16,M,,M,,*5C
06/27/2015	00:00:13.554	$GPGGA,000014,2621.7025,N,07958.9281,W,1,9,1.7,17,M,,M,,*5A
06/27/2015	00:00:14.518	$GPGGA,000015,2621.7022,N,07958.9280,W,1,9,1.7,17,M,,M,,*5D
06/27/2015	00:00:15.635	$GPGGA,000016,2621.7021,N,07958.9281,W,1,9,1.7,17,M,,M,,*5C
06/27/2015	00:00:16.529	$GPGGA,000017,2621.7019,N,07958.9279,W,1,9,1.7,17,M,,M,,*51
06/27/2015	00:00:17.524	$GPGGA,000018,2621.7018,N,07958.9278,W,1,9,1.7,17,M,,M,,*5E
06/27/2015	00:00:18.507	$GPGGA,000019,2621.7016,N,07958.9278,W,1,9,1.7,17,M,,M,,*51
06/27/2015	00:00:19.606	$GPGGA,000020,2621.7014,N,07958.9278,W,1,9,1.7,17,M,,M,,*59
06/27/2015	00:00:20.516	$GPGGA,000021,2621.7014,N,07958.9278,W,1,9,1.7,17,M,,M,,*58
06/27/2015	00:00:21.624	$GPGGA,000022,2621.7012,N,07958.9278,W,1,9,1.7,17,M,,M,,*5D
06/27/2015	00:00:22.509	$GPGGA,000023,2621.7010,N,07958.9279,W,1,9,1.7,17,M,,M,,*5F
06/27/2015	00:00:23.524	$GPGGA,000024,2621.7009,N,07958.9279,W,1,9,1.7,18,M,,M,,*5F
06/27/2015	00:00:24.594	$GPGGA,000025,2621.7007,N,07958.9278,W,1,9,1.7,18,M,,M,,*51
06/27/2015	00:00:25.494	$GPGGA,000026,2621.7007,N,07958.9279,W,1,9,1.7,18,M,,M,,*53
06/27/2015	00:00:26.607	$GPGGA,000027,2621.7004,N,07958.9279,W,1,9,1.7,18,M,,M,,*51
06/27/2015	00:00:27.615	$GPGGA,000028,2621.7002,N,07958.9279,W,1,9,1.7,18,M,,M,,*58
06/27/2015	00:00:28.494	$GPGGA,000029,2621.7001,N,07958.9279,W,1,9,1.7,18,M,,M,,*5A
06/27/2015	00:00:29.484	$GPGGA,000030,2621.7000,N,07958.9279,W,1,9,1.7,18,M,,M,,*53
06/27/2015	00:00:30.574	$GPGGA,000031,2621.6998,N,07958.9279,W,1,9,1.7,18,M,,M,,*5B
06/27/2015	00:00:31.494	$GPGGA,000032,2621.6997,N,07958.9281,W,1,9,1.7,19,M,,M,,*51
06/27/2015	00:00:32.574	$GPGGA,000033,2621.6996,N,07958.9280,W,1,9,1.7,19,M,,M,,*50
06/27/2015	00:00:33.585	$GPGGA,000034,2621.6996,N,07958.9281,W,1,9,1.7,19,M,,M,,*56
06/27/2015	00:00:34.574	$GPGGA,000035,2621.6994,N,07958.9281,W,1,9,1.7,19,M,,M,,*55
06/27/2015	00:00:35.608	$GPGGA,000036,2621.6992,N,07958.9280,W,1,8,2.0,19,M,,M,,*54
06/27/2015	00:00:36.574	$GPGGA,000037,2621.6990,N,07958.9278,W,1,8,1.7,19,M,,M,,*54
06/27/2015	00:00:37.554	$GPGGA,000038,2621.6989,N,07958.9278,W,1,9,1.7,19,M,,M,,*52
06/27/2015	00:00:38.554	$GPGGA,000039,2621.6989,N,07958.9281,W,1,9,2.0,19,M,,M,,*51
06/27/2015	00:00:39.574	$GPGGA,000040,2621.6989,N,07958.9281,W,1,8,2.0,19,M,,M,,*5E
06/27/2015	00:00:40.565	$GPGGA,000041,2621.6986,N,07958.9281,W,1,8,2.0,19,M,,M,,*50
06/27/2015	00:00:41.594	$GPGGA,000042,2621.6987,N,07958.9277,W,1,9,1.7,19,M,,M,,*5E
06/27/2015	00:00:42.554	$GPGGA,000043,2621.6985,N,07958.9278,W,1,9,1.7,19,M,,M,,*52
06/27/2015	00:00:43.934	$GPGGA,000044,2621.6984,N,07958.9281,W,1,9,1.7,19,M,,M,,*52
06/27/2015	00:00:44.564	$GPGGA,000045,2621.6983,N,07958.9280,W,1,9,2.0,19,M,,M,,*51
06/27/2015	00:00:45.544	$GPGGA,000046,2621.6982,N,07958.9278,W,1,9,1.7,19,M,,M,,*50
06/27/2015	00:00:46.554	$GPGGA,000047,2621.6982,N,07958.9278,W,1,9,1.7,19,M,,M,,*51
06/27/2015	00:00:47.574	$GPGGA,000048,2621.6979,N,07958.9277,W,1,9,1.7,19,M,,M,,*55
06/27/2015	00:00:48.554	$GPGGA,000049,2621.6978,N,07958.9276,W,1,9,1.7,19,M,,M,,*54
06/27/2015	00:00:49.564	$GPGGA,000050,2621.6975,N,07958.9275,W,1,9,1.7,19,M,,M,,*52
06/27/2015	00:00:50.545	$GPGGA,000051,2621.6973,N,07958.9277,W,1,9,1.7,19,M,,M,,*57
06/27/2015	00:00:51.575	$GPGGA,000052,2621.6971,N,07958.9278,W,1,8,2.2,19,M,,M,,*5E
06/27/2015	00:00:52.544	$GPGGA,000053,2621.6967,N,07958.9279,W,1,8,1.7,19,M,,M,,*5F
06/27/2015	00:00:53.564	$GPGGA,000054,2621.6965,N,07958.9281,W,1,9,1.7,19,M,,M,,*5C
06/27/2015	00:00:54.534	$GPGGA,000055,2621.6964,N,07958.9279,W,1,9,1.7,19,M,,M,,*5B
06/27/2015	00:00:55.574	$GPGGA,000056,2621.6962,N,07958.9277,W,1,9,1.7,20,M,,M,,*5A
06/27/2015	00:00:56.524	$GPGGA,000057,2621.6961,N,07958.9276,W,1,9,1.7,20,M,,M,,*59
06/27/2015	00:00:57.534	$GPGGA,000058,2621.6960,N,07958.9277,W,1,9,1.7,20,M,,M,,*56
06/27/2015	00:00:58.518	$GPGGA,000059,2621.6960,N,07958.9275,W,1,9,1.7,20,M,,M,,*55
06/27/2015	00:00:59.554	$GPGGA,000100,2621.6958,N,07958.9273,W,1,9,1.7,20,M,,M,,*55
06/27/2015	00:01:00.517	$GPGGA,000101,2621.6957,N,07958.9272,W,1,9,1.7,20,M,,M,,*5A
06/27/2015	00:01:01.514	$GPGGA,000102,2621.6956,N,07958.9271,W,1,9,1.7,20,M,,M,,*5B
06/27/2015	00:01:02.524	$GPGGA,000103,2621.6955,N,07958.9269,W,1,9,1.7,20,M,,M,,*50
06/27/2015	00:01:03.514	$GPGGA,000104,2621.6953,N,07958.9267,W,1,9,1.7,21,M,,M,,*5E
06/27/2015	00:01:04.504	$GPGGA,000105,2621.6953,N,07958.9267,W,1,9,1.7,21,M,,M,,*5F
06/27/2015	00:01:05.516	$GPGGA,000106,2621.6951,N,07958.9265,W,1,9,1.7,21,M,,M,,*5C
06/27/2015	00:01:06.494	$GPGGA,000107,2621.6950,N,07958.9264,W,1,9,1.7,21,M,,M,,*5D
06/27/2015	00:01:07.514	$GPGGA,000108,2621.6949,N,07958.9263,W,1,9,1.7,21,M,,M,,*5D
06/27/2015	00:01:08.510	$GPGGA,000109,2621.6949,N,07958.9262,W,1,9,1.7,21,M,,M,,*5D
06/27/2015	00:01:09.494	$GPGGA,000110,2621.6947,N,07958.9260,W,1,9,1.7,21,M,,M,,*59
06/27/2015	00:01:11.554	$GPGGA,000111,2621.6946,N,07958.9259,W,1,9,1.7,21,M,,M,,*53
06/27/2015	00:01:11.634	$GPGGA,000112,2621.6945,N,07958.9257,W,1,9,1.7,21,M,,M,,*5D
06/27/2015	00:01:12.623	$GPGGA,000113,2621.6943,N,07958.9256,W,1,9,1.7,21,M,,M,,*5B
06/27/2015	00:01:13.509	$GPGGA,000114,2621.6942,N,07958.9254,W,1,9,1.7,21,M,,M,,*5F
06/27/2015	00:01:14.584	$GPGGA,000115,2621.6942,N,07958.9253,W,1,9,1.7,21,M,,M,,*59
06/27/2015	00:01:15.634	$GPGGA,000116,2621.6940,N,07958.9252,W,1,9,1.7,21,M,,M,,*59
06/27/2015	00:01:16.584	$GPGGA,000117,2621.6939,N,07958.9251,W,1,9,1.7,21,M,,M,,*55
06/27/2015	00:01:17.585	$GPGGA,000118,2621.6938,N,07958.9249,W,1,9,1.7,21,M,,M,,*52
06/27/2015	00:01:18.574	$GPGGA,000119,2621.6936,N,07958.9249,W,1,9,1.7,21,M,,M,,*5D
06/27/2015	00:01:19.624	$GPGGA,000120,2621.6935,N,07958.9248,W,1,9,1.7,21,M,,M,,*55
06/27/2015	00:01:20.564	$GPGGA,000121,2621.6935,N,07958.9246,W,1,9,1.7,21,M,,M,,*5A
06/27/2015	00:01:21.604	$GPGGA,000122,2621.6935,N,07958.9245,W,1,9,1.7,21,M,,M,,*5A
06/27/2015	00:01:22.564	$GPGGA,000123,2621.6932,N,07958.9244,W,1,9,1.7,21,M,,M,,*5D
06/27/2015	00:01:23.594	$GPGGA,000124,2621.6933,N,07958.9243,W,1,9,1.7,21,M,,M,,*5C
06/27/2015	00:01:24.574	$GPGGA,000125,2621.6931,N,07958.9242,W,1,9,1.7,21,M,,M,,*5E
06/27/2015	00:01:25.585	$GPGGA,000126,2621.6929,N,07958.9241,W,1,9,1.7,21,M,,M,,*57
06/27/2015	00:01:26.565	$GPGGA,000127,2621.6928,N,07958.9241,W,1,9,1.7,21,M,,M,,*57
06/27/2015	00:01:27.584	$GPGGA,000128,2621.6926,N,07958.9240,W,1,9,1.7,20,M,,M,,*56
06/27/2015	00:01:28.564	$GPGGA,000129,2621.6925,N,07958.9238,W,1,9,1.7,20,M,,M,,*5B
06/27/2015	00:01:29.574	$GPGGA,000130,2621.6924,N,07958.9236,W,1,9,1.7,20,M,,M,,*5C
06/27/2015	00:01:30.564	$GPGGA,000131,2621.6924,N,07958.9236,W,1,9,1.7,20,M,,M,,*5D
06/27/2015	00:01:31.585	$GPGGA,000132,2621.6921,N,07958.9235,W,1,9,1.7,20,M,,M,,*58
06/27/2015	00:01:32.544	$GPGGA,000133,2621.6920,N,07958.9233,W,1,9,1.7,20,M,,M,,*5E
06/27/2015	00:01:33.564	$GPGGA,000134,2621.6919,N,07958.9232,W,1,9,1.7,20,M,,M,,*52
06/27/2015	00:01:34.554	$GPGGA,000135,2621.6918,N,07958.9232,W,1,9,1.7,20,M,,M,,*52
06/27/2015	00:01:35.624	$GPGGA,000136,2621.6917,N,07958.9231,W,1,9,2.2,20,M,,M,,*5B
06/27/2015	00:01:36.544	$GPGGA,000137,2621.6917,N,07958.9228,W,1,9,2.2,20,M,,M,,*52
06/27/2015	00:01:37.554	$GPGGA,000138,2621.6915,N,07958.9227,W,1,8,1.7,20,M,,M,,*57
06/27/2015	00:01:38.534	$GPGGA,000139,2621.6914,N,07958.9228,W,1,8,1.7,20,M,,M,,*58
06/27/2015	00:01:39.564	$GPGGA,000140,2621.6913,N,07958.9226,W,1,9,1.7,19,M,,M,,*54
06/27/2015	00:01:40.544	$GPGGA,000141,2621.6911,N,07958.9225,W,1,9,1.7,19,M,,M,,*54
06/27/2015	00:01:41.554	$GPGGA,000142,2621.6912,N,07958.9224,W,1,9,1.7,19,M,,M,,*55
06/27/2015	00:01:42.524	$GPGGA,000143,2621.6910,N,07958.9224,W,1,9,1.8,19,M,,M,,*59
06/27/2015	00:01:43.535	$GPGGA,000144,2621.6911,N,07958.9223,W,1,8,1.7,19,M,,M,,*56
06/27/2015	00:01:44.544	$GPGGA,000145,2621.6912,N,07958.9222,W,1,8,1.7,19,M,,M,,*55
06/27/2015	00:01:45.554	$GPGGA,000146,2621.6913,N,07958.9223,W,1,9,1.7,19,M,,M,,*57
06/27/2015	00:01:46.534	$GPGGA,000147,2621.6915,N,07958.9221,W,1,9,1.7,19,M,,M,,*52
06/27/2015	00:01:47.634	$GPGGA,000148,2621.6916,N,07958.9220,W,1,9,1.7,19,M,,M,,*5F
06/27/2015	00:01:48.524	$GPGGA,000149,2621.6917,N,07958.9220,W,1,9,1.7,19,M,,M,,*5F
06/27/2015	00:01:49.617	$GPGGA,000150,2621.6919,N,07958.9220,W,1,9,2.0,19,M,,M,,*5D
06/27/2015	00:01:50.514	$GPGGA,000151,2621.6920,N,07958.9220,W,1,9,2.0,19,M,,M,,*56
06/27/2015	00:01:51.534	$GPGGA,000152,2621.6922,N,07958.9219,W,1,8,1.7,19,M,,M,,*58
06/27/2015	00:01:52.506	$GPGGA,000153,2621.6921,N,07958.9217,W,1,8,1.7,19,M,,M,,*54
06/27/2015	00:01:53.624	$GPGGA,000154,2621.6924,N,07958.9216,W,1,9,1.7,19,M,,M,,*56
06/27/2015	00:01:54.514	$GPGGA,000155,2621.6926,N,07958.9215,W,1,9,1.7,19,M,,M,,*56
06/27/2015	00:01:55.620	$GPGGA,000156,2621.6927,N,07958.9216,W,1,9,1.7,19,M,,M,,*57
06/27/2015	00:01:56.524	$GPGGA,000157,2621.6930,N,07958.9215,W,1,9,1.7,19,M,,M,,*53
06/27/2015	00:01:57.584	$GPGGA,000158,2621.6931,N,07958.9216,W,1,9,1.7,19,M,,M,,*5E
06/27/2015	00:01:58.584	$GPGGA,000159,2621.6934,N,07958.9215,W,1,9,1.7,19,M,,M,,*59
06/27/2015	00:01:59.564	$GPGGA,000200,2621.6935,N,07958.9216,W,1,8,1.7,20,M,,M,,*5F
06/27/2015	00:02:00.585	$GPGGA,000201,2621.6938,N,07958.9216,W,1,8,1.7,20,M,,M,,*53
06/27/2015	00:02:01.585	$GPGGA,000202,2621.6940,N,07958.9215,W,1,9,1.7,20,M,,M,,*5D
06/27/2015	00:02:02.507	$GPGGA,000203,2621.6942,N,07958.9216,W,1,9,1.7,20,M,,M,,*5D
06/27/2015	00:02:03.594	$GPGGA,000204,2621.6945,N,07958.9216,W,1,9,2.2,20,M,,M,,*5B
06/27/2015	00:02:04.574	$GPGGA,000205,2621.6944,N,07958.9220,W,1,9,2.2,20,M,,M,,*5E
06/27/2015	00:02:05.606	$GPGGA,000206,2621.6948,N,07958.9220,W,1,9,1.7,20,M,,M,,*57
06/27/2015	00:02:06.584	$GPGGA,000207,2621.6949,N,07958.9220,W,1,9,2.0,20,M,,M,,*53
06/27/2015	00:02:07.604	$GPGGA,000208,2621.6952,N,07958.9223,W,1,8,2.2,20,M,,M,,*56
06/27/2015	00:02:08.564	$GPGGA,000209,2621.6953,N,07958.9225,W,1,8,1.7,21,M,,M,,*57
06/27/2015	00:02:09.594	$GPGGA,000210,2621.6956,N,07958.9224,W,1,9,2.2,21,M,,M,,*5C
06/27/2015	00:02:10.574	$GPGGA,000211,2621.6959,N,07958.9224,W,1,9,2.2,21,M,,M,,*52
06/27/2015	00:02:11.597	$GPGGA,000212,2621.6962,N,07958.9225,W,1,8,2.0,21,M,,M,,*5B
06/27/2015	00:02:12.544	$GPGGA,000213,2621.6964,N,07958.9225,W,1,8,1.7,21,M,,M,,*58
06/27/2015	00:02:13.544	$GPGGA,000214,2621.6967,N,07958.9225,W,1,9,1.7,21,M,,M,,*5D
06/27/2015	00:02:14.554	$GPGGA,000215,2621.6970,N,07958.9227,W,1,9,1.7,21,M,,M,,*58
06/27/2015	00:02:15.574	$GPGGA,000216,2621.6971,N,07958.9227,W,1,9,1.7,21,M,,M,,*5A
06/27/2015	00:02:16.544	$GPGGA,000217,2621.6974,N,07958.9228,W,1,9,1.7,21,M,,M,,*51
06/27/2015	00:02:17.534	$GPGGA,000218,2621.6978,N,07958.9228,W,1,9,1.7,21,M,,M,,*52
06/27/2015	00:02:18.544	$GPGGA,000219,2621.6982,N,07958.9230,W,1,9,1.7,21,M,,M,,*5F
06/27/2015	00:02:19.573	$GPGGA,000220,2621.6985,N,07958.9230,W,1,9,1.7,21,M,,M,,*52
06/27/2015	00:02:20.533	$GPGGA,000221,2621.6988,N,07958.9231,W,1,9,1.7,21,M,,M,,*5F
06/27/2015	00:02:21.553	$GPGGA,000222,2621.6991,N,07958.9232,W,1,9,1.7,22,M,,M,,*54
06/27/2015	00:02:22.543	$GPGGA,000223,2621.6995,N,07958.9234,W,1,9,1.7,22,M,,M,,*57
06/27/2015	00:02:23.553	$GPGGA,000224,2621.6998,N,07958.9235,W,1,9,1.7,22,M,,M,,*5C
06/27/2015	00:02:24.533	$GPGGA,000225,2621.7000,N,07958.9238,W,1,9,1.7,22,M,,M,,*59
06/27/2015	00:02:25.533	$GPGGA,000226,2621.7005,N,07958.9239,W,1,9,1.7,22,M,,M,,*5E
06/27/2015	00:02:26.513	$GPGGA,000227,2621.7009,N,07958.9241,W,1,9,1.7,22,M,,M,,*5C
06/27/2015	00:02:27.533	$GPGGA,000228,2621.7013,N,07958.9241,W,1,9,1.7,22,M,,M,,*58
06/27/2015	00:02:28.524	$GPGGA,000229,2621.7017,N,07958.9243,W,1,9,1.7,22,M,,M,,*5F
06/27/2015	00:02:29.514	$GPGGA,000230,2621.7021,N,07958.9245,W,1,9,1.7,22,M,,M,,*54
06/27/2015	00:02:30.506	$GPGGA,000231,2621.7025,N,07958.9248,W,1,9,1.7,22,M,,M,,*5C
06/27/2015	00:02:31.544	$GPGGA,000232,2621.7028,N,07958.9249,W,1,9,1.7,22,M,,M,,*53
06/27/2015	00:02:32.504	$GPGGA,000233,2621.7032,N,07958.9252,W,1,9,1.7,22,M,,M,,*53
06/27/2015	00:02:33.505	$GPGGA,000234,2621.7036,N,07958.9254,W,1,9,1.7,22,M,,M,,*56
06/27/2015	00:02:34.514	$GPGGA,000235,2621.7039,N,07958.9256,W,1,9,1.7,22,M,,M,,*5A
06/27/2015	00:02:35.544	$GPGGA,000236,2621.7043,N,07958.9259,W,1,9,1.7,21,M,,M,,*58
06/27/2015	00:02:36.514	$GPGGA,000237,2621.7047,N,07958.9261,W,1,9,2.0,21,M,,M,,*52
06/27/2015	00:02:37.533	$GPGGA,000238,2621.7052,N,07958.9263,W,1,9,1.7,21,M,,M,,*5F
06/27/2015	00:02:38.513	$GPGGA,000239,2621.7056,N,07958.9267,W,1,9,1.7,21,M,,M,,*5E
06/27/2015	00:02:39.623	$GPGGA,000240,2621.7060,N,07958.9270,W,1,8,2.0,21,M,,M,,*56
06/27/2015	00:02:40.503	$GPGGA,000241,2621.7065,N,07958.9274,W,1,8,1.7,21,M,,M,,*52
06/27/2015	00:02:41.504	$GPGGA,000242,2621.7068,N,07958.9277,W,1,9,1.7,21,M,,M,,*5E
06/27/2015	00:02:42.483	$GPGGA,000243,2621.7072,N,07958.9278,W,1,9,1.7,21,M,,M,,*5B
06/27/2015	00:02:43.503	$GPGGA,000244,2621.7076,N,07958.9281,W,1,9,1.7,21,M,,M,,*5E
06/27/2015	00:02:44.483	$GPGGA,000245,2621.7081,N,07958.9283,W,1,9,1.7,21,M,,M,,*55
06/27/2015	00:02:45.483	$GPGGA,000246,2621.7086,N,07958.9285,W,1,9,1.7,21,M,,M,,*57
06/27/2015	00:02:46.974	$GPGGA,000247,2621.7089,N,07958.9288,W,1,9,1.8,21,M,,M,,*5B
06/27/2015	00:02:47.584	$GPGGA,000248,2621.7094,N,07958.9292,W,1,8,1.8,21,M,,M,,*52
06/27/2015	00:02:48.484	$GPGGA,000249,2621.7100,N,07958.9296,W,1,8,1.7,21,M,,M,,*54
06/27/2015	00:02:49.607	$GPGGA,000250,2621.7105,N,07958.9299,W,1,8,2.0,21,M,,M,,*52
06/27/2015	00:02:50.574	$GPGGA,000251,2621.7112,N,07958.9303,W,1,8,1.7,21,M,,M,,*53
06/27/2015	00:02:51.595	$GPGGA,000252,2621.7117,N,07958.9308,W,1,9,1.7,21,M,,M,,*5F
06/27/2015	00:02:52.564	$GPGGA,000253,2621.7122,N,07958.9311,W,1,9,2.2,21,M,,M,,*56
06/27/2015	00:02:53.574	$GPGGA,000254,2621.7129,N,07958.9314,W,1,9,1.7,21,M,,M,,*59
06/27/2015	00:02:54.563	$GPGGA,000255,2621.7133,N,07958.9319,W,1,9,1.7,21,M,,M,,*5E
06/27/2015	00:02:55.583	$GPGGA,000256,2621.7140,N,07958.9322,W,1,9,1.7,21,M,,M,,*51
06/27/2015	00:02:56.563	$GPGGA,000257,2621.7147,N,07958.9325,W,1,9,1.7,21,M,,M,,*50
06/27/2015	00:02:57.583	$GPGGA,000258,2621.7155,N,07958.9328,W,1,8,2.2,21,M,,M,,*56
06/27/2015	00:02:58.543	$GPGGA,000259,2621.7161,N,07958.9332,W,1,8,2.2,21,M,,M,,*5B
06/27/2015	00:02:59.607	$GPGGA,000300,2621.7166,N,07958.9335,W,1,8,2.0,21,M,,M,,*54
06/27/2015	00:03:00.553	$GPGGA,000301,2621.7177,N,07958.9337,W,1,8,2.0,21,M,,M,,*57
06/27/2015	00:03:01.543	$GPGGA,000302,2621.7183,N,07958.9337,W,1,7,2.8,21,M,,M,,*58
06/27/2015	00:03:02.543	$GPGGA,000303,2621.7191,N,07958.9342,W,1,7,2.6,20,M,,M,,*57
06/27/2015	00:03:03.574	$GPGGA,000304,2621.7198,N,07958.9346,W,1,8,1.8,20,M,,M,,*5F
06/27/2015	00:03:04.544	$GPGGA,000305,2621.7202,N,07958.9350,W,1,8,1.7,20,M,,M,,*56
06/27/2015	00:03:05.554	$GPGGA,000306,2621.7209,N,07958.9353,W,1,9,1.7,20,M,,M,,*5C
06/27/2015	00:03:06.554	$GPGGA,000307,2621.7219,N,07958.9355,W,1,9,1.7,20,M,,M,,*5A
06/27/2015	00:03:07.564	$GPGGA,000308,2621.7227,N,07958.9357,W,1,8,2.2,20,M,,M,,*5D
06/27/2015	00:03:08.534	$GPGGA,000309,2621.7235,N,07958.9357,W,1,8,2.2,20,M,,M,,*5F
06/27/2015	00:03:09.534	$GPGGA,000310,2621.7245,N,07958.9360,W,1,8,2.2,20,M,,M,,*54
06/27/2015	00:03:10.534	$GPGGA,000311,2621.7253,N,07958.9361,W,1,8,2.2,20,M,,M,,*53
06/27/2015	00:03:11.574	$GPGGA,000312,2621.7262,N,07958.9362,W,1,8,2.2,20,M,,M,,*51
06/27/2015	00:03:12.533	$GPGGA,000313,2621.7271,N,07958.9364,W,1,8,2.9,20,M,,M,,*5F
06/27/2015	00:03:13.515	$GPGGA,000314,2621.7280,N,07958.9365,W,1,7,2.9,20,M,,M,,*58
06/27/2015	00:03:14.523	$GPGGA,000315,2621.7288,N,07958.9366,W,1,7,2.9,20,M,,M,,*52
06/27/2015	00:03:15.553	$GPGGA,000316,2621.7296,N,07958.9368,W,1,7,2.9,20,M,,M,,*50
06/27/2015	00:03:16.533	$GPGGA,000317,2621.7305,N,07958.9369,W,1,7,2.9,20,M,,M,,*5B
06/27/2015	00:03:17.544	$GPGGA,000318,2621.7313,N,07958.9371,W,1,7,2.9,20,M,,M,,*5A
06/27/2015	00:03:18.523	$GPGGA,000319,2621.7318,N,07958.9375,W,1,7,2.9,20,M,,M,,*54
06/27/2015	00:03:19.543	$GPGGA,000320,2621.7327,N,07958.9376,W,1,8,1.9,20,M,,M,,*5D
06/27/2015	00:03:20.518	$GPGGA,000321,2621.7335,N,07958.9379,W,1,8,2.9,19,M,,M,,*59
06/27/2015	00:03:21.514	$GPGGA,000322,2621.7343,N,07958.9379,W,1,7,2.9,19,M,,M,,*54
06/27/2015	00:03:22.497	$GPGGA,000323,2621.7350,N,07958.9382,W,1,7,2.9,19,M,,M,,*53
06/27/2015	00:03:23.644	$GPGGA,000324,2621.7360,N,07958.9382,W,1,7,2.9,19,M,,M,,*57
06/27/2015	00:03:24.514	$GPGGA,000325,2621.7370,N,07958.9382,W,1,7,2.2,19,M,,M,,*5C
06/27/2015	00:03:25.524	$GPGGA,000326,2621.7376,N,07958.9384,W,1,8,2.2,18,M,,M,,*51
06/27/2015	00:03:26.516	$GPGGA,000327,2621.7383,N,07958.9386,W,1,8,2.9,18,M,,M,,*53
06/27/2015	00:03:27.524	$GPGGA,000328,2621.7386,N,07958.9391,W,1,7,2.9,18,M,,M,,*50
06/27/2015	00:03:28.584	$GPGGA,000329,2621.7393,N,07958.9393,W,1,7,2.2,18,M,,M,,*5C
06/27/2015	00:03:29.594	$GPGGA,000330,2621.7401,N,07958.9395,W,1,8,2.2,18,M,,M,,*51
06/27/2015	00:03:30.497	$GPGGA,000331,2621.7408,N,07958.9397,W,1,8,2.2,17,M,,M,,*54
06/27/2015	00:03:31.595	$GPGGA,000332,2621.7415,N,07958.9400,W,1,7,2.9,17,M,,M,,*56
06/27/2015	00:03:32.502	$GPGGA,000333,2621.7424,N,07958.9401,W,1,7,2.9,17,M,,M,,*54
06/27/2015	00:03:33.493	$GPGGA,000334,2621.7430,N,07958.9402,W,1,7,2.9,17,M,,M,,*55
06/27/2015	00:03:34.573	$GPGGA,000335,2621.7439,N,07958.9405,W,1,7,2.9,17,M,,M,,*5A
06/27/2015	00:03:35.595	$GPGGA,000336,2621.7447,N,07958.9408,W,1,7,2.9,16,M,,M,,*5C
06/27/2015	00:03:36.593	$GPGGA,000337,2621.7454,N,07958.9409,W,1,7,2.9,16,M,,M,,*5E
06/27/2015	00:03:37.573	$GPGGA,000338,2621.7462,N,07958.9411,W,1,7,2.9,16,M,,M,,*5D
06/27/2015	00:03:38.574	$GPGGA,000339,2621.7469,N,07958.9415,W,1,7,2.9,16,M,,M,,*53
06/27/2015	00:03:39.607	$GPGGA,000340,2621.7477,N,07958.9416,W,1,7,2.9,15,M,,M,,*52
06/27/2015	00:03:40.564	$GPGGA,000341,2621.7484,N,07958.9418,W,1,7,2.9,15,M,,M,,*51
06/27/2015	00:03:41.574	$GPGGA,000342,2621.7495,N,07958.9418,W,1,7,2.9,15,M,,M,,*52
06/27/2015	00:03:42.554	$GPGGA,000343,2621.7502,N,07958.9420,W,1,7,2.2,15,M,,M,,*5C
06/27/2015	00:03:43.606	$GPGGA,000344,2621.7509,N,07958.9422,W,1,7,2.9,15,M,,M,,*59
06/27/2015	00:03:44.999	$GPGGA,000345,2621.7516,N,07958.9425,W,1,7,2.9,14,M,,M,,*50
06/27/2015	00:03:45.554	$GPGGA,000346,2621.7527,N,07958.9424,W,1,7,2.9,14,M,,M,,*50
06/27/2015	00:03:46.554	$GPGGA,000347,2621.7537,N,07958.9426,W,1,7,2.2,14,M,,M,,*59
06/27/2015	00:03:47.595	$GPGGA,000348,2621.7540,N,07958.9431,W,1,8,2.2,14,M,,M,,*5F
06/27/2015	00:03:48.553	$GPGGA,000349,2621.7544,N,07958.9436,W,1,8,1.9,13,M,,M,,*52
06/27/2015	00:03:49.553	$GPGGA,000350,2621.7552,N,07958.9437,W,1,8,1.9,13,M,,M,,*5C
06/27/2015	00:03:50.543	$GPGGA,000351,2621.7556,N,07958.9441,W,1,8,2.9,13,M,,M,,*5B
06/27/2015	00:03:51.573	$GPGGA,000352,2621.7563,N,07958.9444,W,1,8,1.9,13,M,,M,,*58
06/27/2015	00:03:52.543	$GPGGA,000353,2621.7569,N,07958.9447,W,1,8,2.2,13,M,,M,,*58
06/27/2015	00:03:53.533	$GPGGA,000354,2621.7574,N,07958.9451,W,1,8,1.9,13,M,,M,,*5C
06/27/2015	00:03:54.543	$GPGGA,000355,2621.7584,N,07958.9451,W,1,8,1.9,13,M,,M,,*52
06/27/2015	00:03:55.563	$GPGGA,000356,2621.7592,N,07958.9452,W,1,7,2.9,13,M,,M,,*59
06/27/2015	00:03:56.564	$GPGGA,000357,2621.7599,N,07958.9454,W,1,7,2.9,13,M,,M,,*55
06/27/2015	00:03:57.554	$GPGGA,000358,2621.7607,N,07958.9454,W,1,7,2.9,13,M,,M,,*5E
06/27/2015	00:03:58.534	$GPGGA,000359,2621.7617,N,07958.9455,W,1,7,2.2,13,M,,M,,*54
06/27/2015	00:03:59.595	$GPGGA,000400,2621.7625,N,07958.9456,W,1,7,2.9,13,M,,M,,*56
06/27/2015	00:04:00.524	$GPGGA,000401,2621.7631,N,07958.9459,W,1,7,2.9,13,M,,M,,*5D
06/27/2015	00:04:01.524	$GPGGA,000402,2621.7639,N,07958.9459,W,1,8,1.9,13,M,,M,,*5A
06/27/2015	00:04:02.515	$GPGGA,000403,2621.7650,N,07958.9462,W,1,8,2.2,13,M,,M,,*54
06/27/2015	00:04:03.554	$GPGGA,000404,2621.7656,N,07958.9463,W,1,8,2.2,12,M,,M,,*55
06/27/2015	00:04:04.523	$GPGGA,000405,2621.7661,N,07958.9466,W,1,8,1.9,12,M,,M,,*5D
06/27/2015	00:04:05.523	$GPGGA,000406,2621.7667,N,07958.9470,W,1,9,1.7,12,M,,M,,*50
06/27/2015	00:04:06.509	$GPGGA,000407,2621.7674,N,07958.9472,W,1,9,1.7,12,M,,M,,*51
06/27/2015	00:04:07.523	$GPGGA,000408,2621.7681,N,07958.9473,W,1,8,2.2,12,M,,M,,*52
06/27/2015	00:04:08.504	$GPGGA,000409,2621.7689,N,07958.9474,W,1,8,2.2,12,M,,M,,*5C
06/27/2015	00:04:09.523	$GPGGA,000410,2621.7695,N,07958.9478,W,1,8,2.2,12,M,,M,,*55
06/27/2015	00:04:10.513	$GPGGA,000411,2621.7701,N,07958.9480,W,1,8,1.7,12,M,,M,,*59
06/27/2015	00:04:11.543	$GPGGA,000412,2621.7708,N,07958.9483,W,1,8,2.2,12,M,,M,,*56
06/27/2015	00:04:12.523	$GPGGA,000413,2621.7712,N,07958.9488,W,1,8,1.7,12,M,,M,,*51
06/27/2015	00:04:13.644	$GPGGA,000414,2621.7719,N,07958.9491,W,1,8,1.8,13,M,,M,,*5B
06/27/2015	00:04:14.511	$GPGGA,000415,2621.7725,N,07958.9494,W,1,8,1.8,13,M,,M,,*50
06/27/2015	00:04:15.634	$GPGGA,000416,2621.7730,N,07958.9495,W,1,8,1.8,13,M,,M,,*56
06/27/2015	00:04:16.504	$GPGGA,000417,2621.7737,N,07958.9498,W,1,8,1.8,13,M,,M,,*5D
06/27/2015	00:04:17.506	$GPGGA,000418,2621.7746,N,07958.9501,W,1,8,1.8,13,M,,M,,*55
06/27/2015	00:04:18.484	$GPGGA,000419,2621.7753,N,07958.9502,W,1,8,2.2,13,M,,M,,*5A
06/27/2015	00:04:19.484	$GPGGA,000420,2621.7761,N,07958.9505,W,1,7,2.6,14,M,,M,,*5A
06/27/2015	00:04:20.644	$GPGGA,000421,2621.7772,N,07958.9505,W,1,7,2.0,14,M,,M,,*5F
06/27/2015	00:04:21.574	$GPGGA,000422,2621.7783,N,07958.9504,W,1,7,2.2,14,M,,M,,*51
06/27/2015	00:04:22.633	$GPGGA,000423,2621.7791,N,07958.9505,W,1,7,2.0,14,M,,M,,*50
06/27/2015	00:04:23.643	$GPGGA,000424,2621.7800,N,07958.9508,W,1,8,2.0,14,M,,M,,*52
06/27/2015	00:04:24.653	$GPGGA,000425,2621.7809,N,07958.9509,W,1,8,2.0,14,M,,M,,*5B
06/27/2015	00:04:25.604	$GPGGA,000426,2621.7818,N,07958.9509,W,1,8,2.0,14,M,,M,,*58
06/27/2015	00:04:26.673	$GPGGA,000427,2621.7826,N,07958.9512,W,1,8,2.0,14,M,,M,,*5E
06/27/2015	00:04:27.653	$GPGGA,000428,2621.7834,N,07958.9512,W,1,8,2.0,14,M,,M,,*52
06/27/2015	00:04:28.633	$GPGGA,000429,2621.7844,N,07958.9511,W,1,8,2.0,14,M,,M,,*57
06/27/2015	00:04:29.596	$GPGGA,000430,2621.7852,N,07958.9512,W,1,9,1.7,15,M,,M,,*5F
06/27/2015	00:04:30.624	$GPGGA,000431,2621.7860,N,07958.9514,W,1,9,1.7,15,M,,M,,*59
06/27/2015	00:04:31.608	$GPGGA,000432,2621.7869,N,07958.9516,W,1,9,1.7,15,M,,M,,*51
06/27/2015	00:04:32.624	$GPGGA,000433,2621.7876,N,07958.9515,W,1,9,1.7,15,M,,M,,*5D
06/27/2015	00:04:33.596	$GPGGA,000434,2621.7883,N,07958.9517,W,1,9,1.7,15,M,,M,,*52
06/27/2015	00:04:34.884	$GPGGA,000435,2621.7892,N,07958.9520,W,1,9,2.0,15,M,,M,,*53
06/27/2015	00:04:35.598	$GPGGA,000436,2621.7899,N,07958.9519,W,1,8,1.7,15,M,,M,,*54
06/27/2015	00:04:36.624	$GPGGA,000437,2621.7906,N,07958.9520,W,1,8,1.7,15,M,,M,,*58
06/27/2015	00:04:37.584	$GPGGA,000438,2621.7914,N,07958.9520,W,1,9,1.7,15,M,,M,,*55
06/27/2015	00:04:38.596	$GPGGA,000439,2621.7921,N,07958.9521,W,1,9,1.7,15,M,,M,,*53
06/27/2015	00:04:39.594	$GPGGA,000440,2621.7930,N,07958.9523,W,1,9,1.7,15,M,,M,,*5F
06/27/2015	00:04:40.613	$GPGGA,000441,2621.7939,N,07958.9523,W,1,9,2.6,15,M,,M,,*55
06/27/2015	00:04:41.523	$GPGGA,000442,2621.7946,N,07958.9527,W,1,7,2.6,15,M,,M,,*54
06/27/2015	00:04:42.583	$GPGGA,000443,2621.7952,N,07958.9528,W,1,7,2.0,15,M,,M,,*59
06/27/2015	00:04:43.595	$GPGGA,000444,2621.7961,N,07958.9528,W,1,8,2.0,15,M,,M,,*51
06/27/2015	00:04:44.593	$GPGGA,000445,2621.7967,N,07958.9532,W,1,8,2.0,15,M,,M,,*5D
06/27/2015	00:04:45.573	$GPGGA,000446,2621.7972,N,07958.9535,W,1,8,2.0,15,M,,M,,*5D
06/27/2015	00:04:46.523	$GPGGA,000447,2621.7979,N,07958.9537,W,1,8,1.7,16,M,,M,,*52
06/27/2015	00:04:47.573	$GPGGA,000448,2621.7986,N,07958.9538,W,1,9,1.7,16,M,,M,,*53
06/27/2015	00:04:48.595	$GPGGA,000449,2621.7993,N,07958.9539,W,1,9,1.7,16,M,,M,,*57
06/27/2015	00:04:49.514	$GPGGA,000450,2621.8000,N,07958.9541,W,1,9,1.7,16,M,,M,,*5C
06/27/2015	00:04:50.584	$GPGGA,000451,2621.8008,N,07958.9542,W,1,9,2.0,16,M,,M,,*52
06/27/2015	00:04:51.607	$GPGGA,000452,2621.8015,N,07958.9543,W,1,8,2.0,16,M,,M,,*5D
06/27/2015	00:04:52.574	$GPGGA,000453,2621.8022,N,07958.9545,W,1,8,2.0,16,M,,M,,*5E
06/27/2015	00:04:53.524	$GPGGA,000454,2621.8029,N,07958.9548,W,1,8,2.3,16,M,,M,,*5C
06/27/2015	00:04:54.498	$GPGGA,000455,2621.8036,N,07958.9547,W,1,8,2.3,16,M,,M,,*5C
06/27/2015	00:04:55.634	$GPGGA,000456,2621.8044,N,07958.9548,W,1,8,1.8,16,M,,M,,*5D
06/27/2015	00:04:56.564	$GPGGA,000457,2621.8051,N,07958.9547,W,1,8,1.8,16,M,,M,,*57
06/27/2015	00:04:57.533	$GPGGA,000458,2621.8058,N,07958.9548,W,1,8,1.8,17,M,,M,,*5F
06/27/2015	00:04:58.553	$GPGGA,000459,2621.8066,N,07958.9550,W,1,8,1.8,17,M,,M,,*5A
06/27/2015	00:04:59.573	$GPGGA,000500,2621.8073,N,07958.9550,W,1,8,1.8,17,M,,M,,*53
06/27/2015	00:05:00.607	$GPGGA,000501,2621.8080,N,07958.9552,W,1,8,1.8,17,M,,M,,*5C
06/27/2015	00:05:01.523	$GPGGA,000502,2621.8089,N,07958.9551,W,1,8,2.6,17,M,,M,,*58
06/27/2015	00:05:02.483	$GPGGA,000503,2621.8098,N,07958.9552,W,1,8,2.6,17,M,,M,,*5A
06/27/2015	00:05:03.623	$GPGGA,000504,2621.8105,N,07958.9550,W,1,7,2.6,17,M,,M,,*55
06/27/2015	00:05:04.543	$GPGGA,000505,2621.8112,N,07958.9553,W,1,7,1.8,17,M,,M,,*5C
06/27/2015	00:05:05.584	$GPGGA,000506,2621.8119,N,07958.9556,W,1,8,1.8,17,M,,M,,*5E
06/27/2015	00:05:06.584	$GPGGA,000507,2621.8127,N,07958.9559,W,1,8,1.8,17,M,,M,,*5D
06/27/2015	00:05:07.554	$GPGGA,000508,2621.8134,N,07958.9559,W,1,8,1.8,17,M,,M,,*50
06/27/2015	00:05:08.584	$GPGGA,000509,2621.8141,N,07958.9559,W,1,8,1.8,17,M,,M,,*53
06/27/2015	00:05:09.584	$GPGGA,000510,2621.8149,N,07958.9561,W,1,8,1.7,18,M,,M,,*58
06/27/2015	00:05:10.574	$GPGGA,000511,2621.8158,N,07958.9563,W,1,8,1.7,18,M,,M,,*5B
06/27/2015	00:05:11.607	$GPGGA,000512,2621.8166,N,07958.9563,W,1,9,1.7,18,M,,M,,*54
06/27/2015	00:05:12.564	$GPGGA,000513,2621.8174,N,07958.9563,W,1,9,2.2,18,M,,M,,*50
06/27/2015	00:05:13.604	$GPGGA,000514,2621.8185,N,07958.9562,W,1,8,1.7,18,M,,M,,*5F
06/27/2015	00:05:14.573	$GPGGA,000515,2621.8192,N,07958.9563,W,1,8,1.7,18,M,,M,,*59
06/27/2015	00:05:15.583	$GPGGA,000516,2621.8201,N,07958.9562,W,1,9,1.7,18,M,,M,,*53
06/27/2015	00:05:16.563	$GPGGA,000517,2621.8209,N,07958.9563,W,1,9,2.0,18,M,,M,,*5F
06/27/2015	00:05:17.573	$GPGGA,000518,2621.8217,N,07958.9564,W,1,8,1.7,18,M,,M,,*5D
06/27/2015	00:05:18.593	$GPGGA,000519,2621.8224,N,07958.9564,W,1,8,1.7,18,M,,M,,*5C
06/27/2015	00:05:19.583	$GPGGA,000520,2621.8232,N,07958.9564,W,1,9,2.0,18,M,,M,,*54
06/27/2015	00:05:20.553	$GPGGA,000521,2621.8241,N,07958.9566,W,1,9,2.0,18,M,,M,,*53
06/27/2015	00:05:21.563	$GPGGA,000522,2621.8248,N,07958.9565,W,1,8,1.7,18,M,,M,,*5F
06/27/2015	00:05:22.553	$GPGGA,000523,2621.8248,N,07958.9565,W,1,8,1.7,18,M,,M,,*5E
06/27/2015	00:05:23.574	$GPGGA,000524,2621.8263,N,07958.9566,W,1,8,2.0,18,M,,M,,*57
06/27/2015	00:05:24.584	$GPGGA,000525,2621.8271,N,07958.9566,W,1,8,1.7,18,M,,M,,*51
06/27/2015	00:05:25.544	$GPGGA,000526,2621.8278,N,07958.9567,W,1,9,1.7,18,M,,M,,*5B
06/27/2015	00:05:26.554	$GPGGA,000527,2621.8286,N,07958.9567,W,1,9,1.7,17,M,,M,,*54
06/27/2015	00:05:27.564	$GPGGA,000528,2621.8293,N,07958.9567,W,1,9,1.7,17,M,,M,,*5F
06/27/2015	00:05:28.544	$GPGGA,000529,2621.8300,N,07958.9567,W,1,9,1.7,17,M,,M,,*55
06/27/2015	00:05:29.554	$GPGGA,000530,2621.8308,N,07958.9567,W,1,9,1.7,17,M,,M,,*55
06/27/2015	00:05:30.524	$GPGGA,000531,2621.8308,N,07958.9567,W,1,9,1.7,17,M,,M,,*54
06/27/2015	00:05:31.544	$GPGGA,000532,2621.8324,N,07958.9567,W,1,8,2.2,17,M,,M,,*5E
06/27/2015	00:05:32.533	$GPGGA,000533,2621.8324,N,07958.9567,W,1,8,2.2,17,M,,M,,*5F
06/27/2015	00:05:33.533	$GPGGA,000534,2621.8336,N,07958.9572,W,1,9,1.7,17,M,,M,,*58
06/27/2015	00:05:34.553	$GPGGA,000535,2621.8344,N,07958.9574,W,1,9,1.7,17,M,,M,,*5A
06/27/2015	00:05:35.573	$GPGGA,000536,2621.8351,N,07958.9574,W,1,9,1.7,17,M,,M,,*5D
06/27/2015	00:05:36.533	$GPGGA,000537,2621.8351,N,07958.9574,W,1,9,1.7,17,M,,M,,*5C
06/27/2015	00:05:37.543	$GPGGA,000538,2621.8365,N,07958.9577,W,1,9,2.0,17,M,,M,,*53
06/27/2015	00:05:38.513	$GPGGA,000539,2621.8365,N,07958.9577,W,1,9,2.0,17,M,,M,,*52
06/27/2015	00:05:39.553	$GPGGA,000540,2621.8372,N,07958.9576,W,1,9,1.7,17,M,,M,,*5F
06/27/2015	00:05:40.503	$GPGGA,000541,2621.8380,N,07958.9577,W,1,9,1.7,17,M,,M,,*52
06/27/2015	00:05:41.544	$GPGGA,000542,2621.8396,N,07958.9576,W,1,9,1.7,17,M,,M,,*57
06/27/2015	00:05:42.554	$GPGGA,000543,2621.8396,N,07958.9576,W,1,9,1.7,17,M,,M,,*56
06/27/2015	00:05:43.634	$GPGGA,000544,2621.8411,N,07958.9577,W,1,9,1.7,18,M,,M,,*57
06/27/2015	00:05:44.544	$GPGGA,000545,2621.8411,N,07958.9577,W,1,9,1.7,18,M,,M,,*56
06/27/2015	00:05:45.607	$GPGGA,000546,2621.8427,N,07958.9576,W,1,9,1.7,18,M,,M,,*51
06/27/2015	00:05:46.512	$GPGGA,000547,2621.8427,N,07958.9576,W,1,9,1.7,18,M,,M,,*50
06/27/2015	00:05:47.609	$GPGGA,000548,2621.8443,N,07958.9578,W,1,9,1.7,18,M,,M,,*53
06/27/2015	00:05:48.524	$GPGGA,000549,2621.8443,N,07958.9578,W,1,9,2.0,18,M,,M,,*56
06/27/2015	00:05:49.606	$GPGGA,000550,2621.8459,N,07958.9578,W,1,8,2.0,18,M,,M,,*54
06/27/2015	00:05:50.533	$GPGGA,000551,2621.8459,N,07958.9578,W,1,8,2.0,18,M,,M,,*55
06/27/2015	00:05:51.633	$GPGGA,000552,2621.8476,N,07958.9581,W,1,8,2.0,18,M,,M,,*5D
06/27/2015	00:05:52.573	$GPGGA,000553,2621.8483,N,07958.9580,W,1,8,1.7,18,M,,M,,*53
06/27/2015	00:05:53.610	$GPGGA,000554,2621.8491,N,07958.9581,W,1,9,1.7,19,M,,M,,*56
06/27/2015	00:05:54.583	$GPGGA,000555,2621.8499,N,07958.9581,W,1,9,1.7,19,M,,M,,*5F
06/27/2015	00:05:55.605	$GPGGA,000556,2621.8506,N,07958.9581,W,1,9,1.7,19,M,,M,,*5B
06/27/2015	00:05:56.573	$GPGGA,000557,2621.8514,N,07958.9580,W,1,9,1.7,19,M,,M,,*58
06/27/2015	00:05:57.604	$GPGGA,000558,2621.8523,N,07958.9581,W,1,9,1.7,19,M,,M,,*52
06/27/2015	00:05:58.564	$GPGGA,000559,2621.8531,N,07958.9580,W,1,9,1.7,19,M,,M,,*51
06/27/2015	00:05:59.596	$GPGGA,000600,2621.8539,N,07958.9581,W,1,8,2.0,19,M,,M,,*52
06/27/2015	00:06:00.564	$GPGGA,000601,2621.8546,N,07958.9579,W,1,8,1.7,19,M,,M,,*58
06/27/2015	00:06:01.584	$GPGGA,000602,2621.8556,N,07958.9578,W,1,9,1.7,19,M,,M,,*5A
06/27/2015	00:06:02.554	$GPGGA,000603,2621.8563,N,07958.9578,W,1,9,1.7,19,M,,M,,*5D
06/27/2015	00:06:03.594	$GPGGA,000604,2621.8571,N,07958.9577,W,1,9,1.7,19,M,,M,,*56
06/27/2015	00:06:04.564	$GPGGA,000605,2621.8578,N,07958.9578,W,1,9,1.7,19,M,,M,,*51
06/27/2015	00:06:05.574	$GPGGA,000606,2621.8586,N,07958.9578,W,1,9,1.7,19,M,,M,,*53
06/27/2015	00:06:06.554	$GPGGA,000607,2621.8595,N,07958.9578,W,1,9,2.0,19,M,,M,,*54
06/27/2015	00:06:07.594	$GPGGA,000608,2621.8603,N,07958.9578,W,1,9,1.7,19,M,,M,,*53
06/27/2015	00:06:08.543	$GPGGA,000609,2621.8611,N,07958.9578,W,1,9,1.7,19,M,,M,,*51
06/27/2015	00:06:09.543	$GPGGA,000610,2621.8618,N,07958.9578,W,1,9,1.7,19,M,,M,,*50
06/27/2015	00:06:10.543	$GPGGA,000611,2621.8626,N,07958.9578,W,1,9,1.7,19,M,,M,,*5C
06/27/2015	00:06:11.573	$GPGGA,000612,2621.8635,N,07958.9578,W,1,9,1.7,19,M,,M,,*5D
06/27/2015	00:06:12.533	$GPGGA,000613,2621.8643,N,07958.9578,W,1,9,1.7,19,M,,M,,*5D
06/27/2015	00:06:13.543	$GPGGA,000614,2621.8651,N,07958.9578,W,1,9,1.7,19,M,,M,,*59
06/27/2015	00:06:14.543	$GPGGA,000615,2621.8658,N,07958.9578,W,1,9,1.7,19,M,,M,,*51
06/27/2015	00:06:15.574	$GPGGA,000616,2621.8667,N,07958.9578,W,1,9,1.7,19,M,,M,,*5E
06/27/2015	00:06:16.524	$GPGGA,000617,2621.8675,N,07958.9578,W,1,9,1.7,19,M,,M,,*5C
06/27/2015	00:06:17.554	$GPGGA,000618,2621.8683,N,07958.9578,W,1,8,2.0,19,M,,M,,*5F
06/27/2015	00:06:18.534	$GPGGA,000619,2621.8691,N,07958.9579,W,1,8,2.0,19,M,,M,,*5C
06/27/2015	00:06:19.574	$GPGGA,000620,2621.8700,N,07958.9579,W,1,8,2.0,18,M,,M,,*5E
06/27/2015	00:06:20.534	$GPGGA,000621,2621.8708,N,07958.9578,W,1,8,2.0,18,M,,M,,*56
06/27/2015	00:06:21.544	$GPGGA,000622,2621.8715,N,07958.9577,W,1,9,1.7,18,M,,M,,*53
06/27/2015	00:06:22.544	$GPGGA,000623,2621.8723,N,07958.9576,W,1,9,1.7,18,M,,M,,*56
06/27/2015	00:06:23.524	$GPGGA,000624,2621.8730,N,07958.9577,W,1,9,1.7,18,M,,M,,*52
06/27/2015	00:06:24.513	$GPGGA,000625,2621.8740,N,07958.9577,W,1,9,1.7,18,M,,M,,*54
06/27/2015	00:06:25.543	$GPGGA,000626,2621.8748,N,07958.9576,W,1,8,2.0,18,M,,M,,*5B
06/27/2015	00:06:26.523	$GPGGA,000627,2621.8755,N,07958.9575,W,1,8,1.7,18,M,,M,,*51
06/27/2015	00:06:27.633	$GPGGA,000628,2621.8765,N,07958.9575,W,1,9,1.7,18,M,,M,,*5C
06/27/2015	00:06:28.523	$GPGGA,000629,2621.8773,N,07958.9575,W,1,9,1.7,18,M,,M,,*5A
06/27/2015	00:06:29.605	$GPGGA,000630,2621.8781,N,07958.9575,W,1,9,1.7,18,M,,M,,*5F
06/27/2015	00:06:30.506	$GPGGA,000631,2621.8790,N,07958.9575,W,1,9,1.7,18,M,,M,,*5E
06/27/2015	00:06:31.513	$GPGGA,000632,2621.8799,N,07958.9577,W,1,8,2.0,18,M,,M,,*53
06/27/2015	00:06:32.493	$GPGGA,000633,2621.8806,N,07958.9576,W,1,8,2.0,18,M,,M,,*5A
06/27/2015	00:06:33.516	$GPGGA,000634,2621.8815,N,07958.9577,W,1,8,2.0,18,M,,M,,*5E
06/27/2015	00:06:34.498	$GPGGA,000635,2621.8823,N,07958.9576,W,1,8,1.7,18,M,,M,,*5F
06/27/2015	00:06:35.512	$GPGGA,000636,2621.8831,N,07958.9577,W,1,9,1.7,18,M,,M,,*5F
06/27/2015	00:06:36.607	$GPGGA,000637,2621.8839,N,07958.9575,W,1,9,1.7,17,M,,M,,*5B
06/27/2015	00:06:37.514	$GPGGA,000638,2621.8848,N,07958.9574,W,1,9,1.7,17,M,,M,,*53
06/27/2015	00:06:38.584	$GPGGA,000639,2621.8856,N,07958.9574,W,1,9,1.7,17,M,,M,,*5D
06/27/2015	00:06:39.595	$GPGGA,000640,2621.8864,N,07958.9573,W,1,9,1.7,17,M,,M,,*55
06/27/2015	00:06:40.604	$GPGGA,000641,2621.8873,N,07958.9574,W,1,9,1.7,17,M,,M,,*55
06/27/2015	00:06:41.609	$GPGGA,000642,2621.8881,N,07958.9574,W,1,9,1.7,17,M,,M,,*5B
06/27/2015	00:06:42.573	$GPGGA,000643,2621.8889,N,07958.9573,W,1,9,1.7,17,M,,M,,*55
06/27/2015	00:06:44.084	$GPGGA,000644,2621.8896,N,07958.9572,W,1,9,1.7,17,M,,M,,*5D
06/27/2015	00:06:44.574	$GPGGA,000645,2621.8904,N,07958.9572,W,1,9,1.7,17,M,,M,,*56
06/27/2015	00:06:45.573	$GPGGA,000646,2621.8914,N,07958.9571,W,1,9,1.7,17,M,,M,,*57
06/27/2015	00:06:46.573	$GPGGA,000647,2621.8922,N,07958.9571,W,1,9,1.7,17,M,,M,,*53
06/27/2015	00:06:47.623	$GPGGA,000648,2621.8929,N,07958.9570,W,1,9,1.7,17,M,,M,,*56
06/27/2015	00:06:48.553	$GPGGA,000649,2621.8939,N,07958.9570,W,1,9,1.7,17,M,,M,,*56
06/27/2015	00:06:49.583	$GPGGA,000650,2621.8947,N,07958.9570,W,1,9,1.7,17,M,,M,,*57
06/27/2015	00:06:50.564	$GPGGA,000651,2621.8954,N,07958.9569,W,1,9,1.7,17,M,,M,,*5C
06/27/2015	00:06:51.607	$GPGGA,000652,2621.8964,N,07958.9570,W,1,9,1.7,17,M,,M,,*54
06/27/2015	00:06:52.564	$GPGGA,000653,2621.8972,N,07958.9568,W,1,9,1.7,17,M,,M,,*5B
06/27/2015	00:06:53.584	$GPGGA,000654,2621.8980,N,07958.9568,W,1,9,1.7,17,M,,M,,*51
06/27/2015	00:06:54.554	$GPGGA,000655,2621.8989,N,07958.9567,W,1,9,1.7,17,M,,M,,*56
06/27/2015	00:06:55.584	$GPGGA,000656,2621.8997,N,07958.9567,W,1,9,1.7,17,M,,M,,*5A
06/27/2015	00:06:56.554	$GPGGA,000657,2621.9005,N,07958.9567,W,1,9,1.7,17,M,,M,,*58
06/27/2015	00:06:57.564	$GPGGA,000658,2621.9014,N,07958.9566,W,1,9,1.7,17,M,,M,,*56
06/27/2015	00:06:58.554	$GPGGA,000659,2621.9022,N,07958.9566,W,1,9,1.7,17,M,,M,,*52
06/27/2015	00:06:59.593	$GPGGA,000700,2621.9030,N,07958.9565,W,1,9,1.7,17,M,,M,,*5F
06/27/2015	00:07:00.553	$GPGGA,000701,2621.9039,N,07958.9566,W,1,9,1.7,17,M,,M,,*54
06/27/2015	00:07:01.553	$GPGGA,000702,2621.9048,N,07958.9565,W,1,9,1.7,17,M,,M,,*52
06/27/2015	00:07:02.543	$GPGGA,000703,2621.9055,N,07958.9564,W,1,9,1.7,17,M,,M,,*5E
06/27/2015	00:07:03.563	$GPGGA,000704,2621.9065,N,07958.9564,W,1,9,1.7,17,M,,M,,*5A
06/27/2015	00:07:04.533	$GPGGA,000705,2621.9073,N,07958.9564,W,1,9,1.7,17,M,,M,,*5C
06/27/2015	00:07:05.523	$GPGGA,000706,2621.9081,N,07958.9564,W,1,9,1.7,17,M,,M,,*52
06/27/2015	00:07:06.533	$GPGGA,000707,2621.9090,N,07958.9564,W,1,9,1.7,17,M,,M,,*53
06/27/2015	00:07:07.543	$GPGGA,000708,2621.9098,N,07958.9566,W,1,9,1.7,17,M,,M,,*56
06/27/2015	00:07:08.514	$GPGGA,000709,2621.9106,N,07958.9564,W,1,9,1.7,17,M,,M,,*53
06/27/2015	00:07:09.514	$GPGGA,000710,2621.9115,N,07958.9564,W,1,9,1.7,17,M,,M,,*59
06/27/2015	00:07:10.634	$GPGGA,000711,2621.9124,N,07958.9566,W,1,9,1.7,17,M,,M,,*58
06/27/2015	00:07:11.544	$GPGGA,000712,2621.9131,N,07958.9565,W,1,9,1.7,17,M,,M,,*5C
06/27/2015	00:07:12.634	$GPGGA,000713,2621.9141,N,07958.9566,W,1,9,1.7,17,M,,M,,*59
06/27/2015	00:07:13.624	$GPGGA,000714,2621.9149,N,07958.9565,W,1,9,1.7,17,M,,M,,*55
06/27/2015	00:07:14.507	$GPGGA,000715,2621.9157,N,07958.9566,W,1,9,1.7,17,M,,M,,*58
06/27/2015	00:07:15.524	$GPGGA,000716,2621.9166,N,07958.9566,W,1,9,1.7,17,M,,M,,*59
06/27/2015	00:07:16.507	$GPGGA,000717,2621.9174,N,07958.9566,W,1,9,1.7,17,M,,M,,*5B
06/27/2015	00:07:17.505	$GPGGA,000718,2621.9182,N,07958.9566,W,1,9,1.7,17,M,,M,,*5D
06/27/2015	00:07:18.609	$GPGGA,000719,2621.9191,N,07958.9566,W,1,9,1.7,16,M,,M,,*5F
06/27/2015	00:07:19.506	$GPGGA,000720,2621.9199,N,07958.9566,W,1,9,1.7,16,M,,M,,*5D
06/27/2015	00:07:20.605	$GPGGA,000721,2621.9207,N,07958.9565,W,1,9,1.7,16,M,,M,,*5B
06/27/2015	00:07:21.503	$GPGGA,000722,2621.9216,N,07958.9566,W,1,9,1.7,16,M,,M,,*5B
06/27/2015	00:07:22.494	$GPGGA,000723,2621.9225,N,07958.9565,W,1,9,1.7,16,M,,M,,*59
06/27/2015	00:07:23.613	$GPGGA,000724,2621.9232,N,07958.9566,W,1,9,1.7,16,M,,M,,*5B
06/27/2015	00:07:24.493	$GPGGA,000725,2621.9242,N,07958.9565,W,1,9,1.7,16,M,,M,,*5E
06/27/2015	00:07:25.634	$GPGGA,000726,2621.9250,N,07958.9566,W,1,9,1.7,16,M,,M,,*5D
06/27/2015	00:07:26.574	$GPGGA,000727,2621.9258,N,07958.9565,W,1,9,1.7,16,M,,M,,*57
06/27/2015	00:07:27.584	$GPGGA,000728,2621.9267,N,07958.9566,W,1,9,1.7,16,M,,M,,*57
06/27/2015	00:07:28.584	$GPGGA,000729,2621.9276,N,07958.9564,W,1,9,1.7,16,M,,M,,*54
06/27/2015	00:07:29.584	$GPGGA,000730,2621.9283,N,07958.9563,W,1,9,1.7,16,M,,M,,*51
06/27/2015	00:07:30.584	$GPGGA,000731,2621.9290,N,07958.9563,W,1,9,1.8,16,M,,M,,*5D
06/27/2015	00:07:31.584	$GPGGA,000732,2621.9300,N,07958.9564,W,1,8,1.8,16,M,,M,,*50
06/27/2015	00:07:32.564	$GPGGA,000733,2621.9308,N,07958.9563,W,1,8,1.7,16,M,,M,,*51
06/27/2015	00:07:33.564	$GPGGA,000734,2621.9315,N,07958.9562,W,1,9,1.7,16,M,,M,,*5A
06/27/2015	00:07:34.563	$GPGGA,000735,2621.9326,N,07958.9563,W,1,9,1.7,16,M,,M,,*5A
06/27/2015	00:07:35.603	$GPGGA,000736,2621.9333,N,07958.9563,W,1,9,1.7,16,M,,M,,*5D
06/27/2015	00:07:36.563	$GPGGA,000737,2621.9343,N,07958.9562,W,1,9,1.7,16,M,,M,,*5A
06/27/2015	00:07:37.583	$GPGGA,000738,2621.9351,N,07958.9563,W,1,9,1.7,15,M,,M,,*54
06/27/2015	00:07:38.553	$GPGGA,000739,2621.9359,N,07958.9562,W,1,9,1.7,15,M,,M,,*5C
06/27/2015	00:07:39.583	$GPGGA,000740,2621.9368,N,07958.9563,W,1,9,1.7,15,M,,M,,*51
06/27/2015	00:07:40.553	$GPGGA,000741,2621.9377,N,07958.9562,W,1,9,1.7,15,M,,M,,*5F
06/27/2015	00:07:41.543	$GPGGA,000742,2621.9386,N,07958.9563,W,1,9,1.7,15,M,,M,,*53
06/27/2015	00:07:42.553	$GPGGA,000743,2621.9395,N,07958.9562,W,1,9,1.7,16,M,,M,,*52
06/27/2015	00:07:43.584	$GPGGA,000744,2621.9402,N,07958.9563,W,1,9,1.7,16,M,,M,,*5D
06/27/2015	00:07:44.544	$GPGGA,000745,2621.9412,N,07958.9562,W,1,9,1.7,16,M,,M,,*5C
06/27/2015	00:07:45.564	$GPGGA,000746,2621.9420,N,07958.9563,W,1,9,1.7,16,M,,M,,*5F
06/27/2015	00:07:46.544	$GPGGA,000747,2621.9430,N,07958.9562,W,1,9,1.7,16,M,,M,,*5E
06/27/2015	00:07:47.544	$GPGGA,000748,2621.9438,N,07958.9563,W,1,9,1.7,16,M,,M,,*58
06/27/2015	00:07:48.534	$GPGGA,000749,2621.9446,N,07958.9561,W,1,9,1.7,16,M,,M,,*52
06/27/2015	00:07:49.534	$GPGGA,000750,2621.9455,N,07958.9561,W,1,9,1.7,16,M,,M,,*58
06/27/2015	00:07:50.534	$GPGGA,000751,2621.9464,N,07958.9561,W,1,9,1.7,16,M,,M,,*5B
06/27/2015	00:07:51.533	$GPGGA,000752,2621.9473,N,07958.9561,W,1,9,1.7,16,M,,M,,*5E
06/27/2015	00:07:52.533	$GPGGA,000753,2621.9482,N,07958.9561,W,1,9,1.7,16,M,,M,,*51
06/27/2015	00:07:53.553	$GPGGA,000754,2621.9489,N,07958.9561,W,1,9,1.7,16,M,,M,,*5D
06/27/2015	00:07:54.523	$GPGGA,000755,2621.9499,N,07958.9561,W,1,9,1.7,16,M,,M,,*5D
06/27/2015	00:07:55.533	$GPGGA,000756,2621.9507,N,07958.9560,W,1,9,1.7,16,M,,M,,*59
06/27/2015	00:07:56.523	$GPGGA,000757,2621.9516,N,07958.9561,W,1,9,1.7,16,M,,M,,*59
06/27/2015	00:07:57.533	$GPGGA,000758,2621.9524,N,07958.9561,W,1,9,1.7,16,M,,M,,*57
06/27/2015	00:07:58.523	$GPGGA,000759,2621.9532,N,07958.9560,W,1,9,1.7,16,M,,M,,*50
06/27/2015	00:07:59.543	$GPGGA,000800,2621.9542,N,07958.9560,W,1,9,1.7,16,M,,M,,*54
06/27/2015	00:08:00.512	$GPGGA,000801,2621.9550,N,07958.9560,W,1,9,1.7,16,M,,M,,*56
06/27/2015	00:08:01.634	$GPGGA,000802,2621.9558,N,07958.9560,W,1,9,1.7,16,M,,M,,*5D
06/27/2015	00:08:02.514	$GPGGA,000803,2621.9568,N,07958.9560,W,1,9,1.7,16,M,,M,,*5F
06/27/2015	00:08:03.634	$GPGGA,000804,2621.9576,N,07958.9560,W,1,9,1.7,16,M,,M,,*57
06/27/2015	00:08:04.507	$GPGGA,000805,2621.9586,N,07958.9560,W,1,9,1.7,16,M,,M,,*59
06/27/2015	00:08:05.524	$GPGGA,000806,2621.9594,N,07958.9559,W,1,9,1.7,16,M,,M,,*53
06/27/2015	00:08:06.612	$GPGGA,000807,2621.9601,N,07958.9559,W,1,9,1.8,16,M,,M,,*52
06/27/2015	00:08:07.505	$GPGGA,000808,2621.9610,N,07958.9558,W,1,9,1.7,16,M,,M,,*53
06/27/2015	00:08:08.604	$GPGGA,000809,2621.9618,N,07958.9559,W,1,9,1.7,16,M,,M,,*5B
06/27/2015	00:08:09.513	$GPGGA,000810,2621.9626,N,07958.9558,W,1,9,1.7,16,M,,M,,*5F
06/27/2015	00:08:10.583	$GPGGA,000811,2621.9635,N,07958.9559,W,1,9,1.7,16,M,,M,,*5D
06/27/2015	00:08:11.603	$GPGGA,000812,2621.9643,N,07958.9558,W,1,8,1.8,16,M,,M,,*50
06/27/2015	00:08:12.583	$GPGGA,000813,2621.9651,N,07958.9556,W,1,8,1.8,16,M,,M,,*5C
06/27/2015	00:08:13.573	$GPGGA,000814,2621.9659,N,07958.9556,W,1,8,1.8,16,M,,M,,*53
06/27/2015	00:08:14.563	$GPGGA,000815,2621.9669,N,07958.9557,W,1,8,1.8,16,M,,M,,*50
06/27/2015	00:08:15.584	$GPGGA,000816,2621.9679,N,07958.9559,W,1,9,1.7,16,M,,M,,*52
06/27/2015	00:08:16.573	$GPGGA,000817,2621.9688,N,07958.9558,W,1,9,1.7,16,M,,M,,*5C
06/27/2015	00:08:17.553	$GPGGA,000818,2621.9697,N,07958.9559,W,1,9,1.7,16,M,,M,,*5C
06/27/2015	00:08:18.553	$GPGGA,000819,2621.9706,N,07958.9559,W,1,9,1.7,16,M,,M,,*54
06/27/2015	00:08:19.585	$GPGGA,000820,2621.9715,N,07958.9559,W,1,9,1.7,16,M,,M,,*5C
06/27/2015	00:08:20.543	$GPGGA,000821,2621.9724,N,07958.9558,W,1,9,1.7,16,M,,M,,*5E
06/27/2015	00:08:21.573	$GPGGA,000822,2621.9734,N,07958.9559,W,1,9,1.7,16,M,,M,,*5D
06/27/2015	00:08:22.553	$GPGGA,000823,2621.9742,N,07958.9559,W,1,9,1.7,16,M,,M,,*5D
06/27/2015	00:08:23.584	$GPGGA,000824,2621.9752,N,07958.9558,W,1,9,1.7,16,M,,M,,*5A
06/27/2015	00:08:24.543	$GPGGA,000825,2621.9760,N,07958.9559,W,1,9,1.7,16,M,,M,,*5B
06/27/2015	00:08:25.573	$GPGGA,000826,2621.9770,N,07958.9559,W,1,9,1.7,16,M,,M,,*59
06/27/2015	00:08:26.532	$GPGGA,000827,2621.9778,N,07958.9559,W,1,9,1.7,16,M,,M,,*50
06/27/2015	00:08:27.572	$GPGGA,000828,2621.9788,N,07958.9559,W,1,9,1.7,16,M,,M,,*50
06/27/2015	00:08:28.543	$GPGGA,000829,2621.9796,N,07958.9559,W,1,9,1.7,16,M,,M,,*5E
06/27/2015	00:08:29.563	$GPGGA,000830,2621.9806,N,07958.9560,W,1,9,1.7,16,M,,M,,*5A
06/27/2015	00:08:30.543	$GPGGA,000831,2621.9814,N,07958.9560,W,1,9,1.7,16,M,,M,,*58
06/27/2015	00:08:31.563	$GPGGA,000832,2621.9823,N,07958.9559,W,1,9,1.7,16,M,,M,,*55
06/27/2015	00:08:32.543	$GPGGA,000833,2621.9832,N,07958.9560,W,1,9,1.7,16,M,,M,,*5E
06/27/2015	00:08:33.553	$GPGGA,000834,2621.9841,N,07958.9560,W,1,9,1.7,16,M,,M,,*5D
06/27/2015	00:08:34.533	$GPGGA,000835,2621.9850,N,07958.9559,W,1,9,1.7,16,M,,M,,*56
06/27/2015	00:08:35.543	$GPGGA,000836,2621.9859,N,07958.9559,W,1,9,1.7,16,M,,M,,*5C
06/27/2015	00:08:36.523	$GPGGA,000837,2621.9868,N,07958.9560,W,1,9,1.7,16,M,,M,,*55
06/27/2015	00:08:37.543	$GPGGA,000838,2621.9876,N,07958.9560,W,1,9,1.7,16,M,,M,,*55
06/27/2015	00:08:39.563	$GPGGA,000839,2621.9886,N,07958.9559,W,1,9,1.7,16,M,,M,,*51
06/27/2015	00:08:39.593	$GPGGA,000840,2621.9894,N,07958.9560,W,1,9,1.7,16,M,,M,,*56
06/27/2015	00:08:40.523	$GPGGA,000841,2621.9904,N,07958.9560,W,1,9,1.7,16,M,,M,,*5F
06/27/2015	00:08:41.553	$GPGGA,000842,2621.9911,N,07958.9559,W,1,9,1.7,16,M,,M,,*52
06/27/2015	00:08:42.633	$GPGGA,000843,2621.9921,N,07958.9559,W,1,9,1.7,16,M,,M,,*50
06/27/2015	00:08:43.533	$GPGGA,000844,2621.9930,N,07958.9559,W,1,9,1.7,16,M,,M,,*57
06/27/2015	00:08:44.512	$GPGGA,000845,2621.9940,N,07958.9559,W,1,9,1.7,16,M,,M,,*51
06/27/2015	00:08:45.512	$GPGGA,000846,2621.9948,N,07958.9559,W,1,9,1.7,16,M,,M,,*5A
06/27/2015	00:08:46.513	$GPGGA,000847,2621.9957,N,07958.9559,W,1,9,1.7,16,M,,M,,*55
06/27/2015	00:08:47.523	$GPGGA,000848,2621.9966,N,07958.9559,W,1,9,1.7,16,M,,M,,*58
06/27/2015	00:08:48.501	$GPGGA,000849,2621.9975,N,07958.9559,W,1,9,1.7,16,M,,M,,*5B
06/27/2015	00:08:49.497	$GPGGA,000850,2621.9984,N,07958.9559,W,1,9,1.7,16,M,,M,,*5D
06/27/2015	00:08:50.503	$GPGGA,000851,2621.9993,N,07958.9560,W,1,9,1.7,16,M,,M,,*50
06/27/2015	00:08:51.498	$GPGGA,000852,2622.0002,N,07958.9560,W,1,9,1.7,16,M,,M,,*58
06/27/2015	00:08:52.495	$GPGGA,000853,2622.0011,N,07958.9560,W,1,9,1.7,16,M,,M,,*5B
06/27/2015	00:08:53.613	$GPGGA,000854,2622.0020,N,07958.9560,W,1,9,1.7,16,M,,M,,*5E
06/27/2015	00:08:54.594	$GPGGA,000855,2622.0027,N,07958.9560,W,1,9,1.7,16,M,,M,,*58
06/27/2015	00:08:55.503	$GPGGA,000856,2622.0037,N,07958.9560,W,1,9,1.7,16,M,,M,,*5A
06/27/2015	00:08:56.497	$GPGGA,000857,2622.0047,N,07958.9560,W,1,9,1.7,16,M,,M,,*5C
06/27/2015	00:08:57.484	$GPGGA,000858,2622.0055,N,07958.9560,W,1,9,1.7,16,M,,M,,*50
06/27/2015	00:08:58.573	$GPGGA,000859,2622.0063,N,07958.9560,W,1,9,1.7,16,M,,M,,*54
06/27/2015	00:08:59.623	$GPGGA,000900,2622.0073,N,07958.9560,W,1,9,1.7,16,M,,M,,*58
06/27/2015	00:09:00.585	$GPGGA,000901,2622.0081,N,07958.9560,W,1,9,1.7,16,M,,M,,*54
06/27/2015	00:09:01.594	$GPGGA,000902,2622.0089,N,07958.9560,W,1,9,1.7,16,M,,M,,*5F
06/27/2015	00:09:02.583	$GPGGA,000903,2622.0099,N,07958.9560,W,1,9,1.7,16,M,,M,,*5F
06/27/2015	00:09:03.603	$GPGGA,000904,2622.0107,N,07958.9560,W,1,9,1.7,16,M,,M,,*5E
06/27/2015	00:09:04.563	$GPGGA,000905,2622.0116,N,07958.9560,W,1,9,1.7,16,M,,M,,*5F
06/27/2015	00:09:05.583	$GPGGA,000906,2622.0125,N,07958.9560,W,1,9,1.7,16,M,,M,,*5C
06/27/2015	00:09:06.563	$GPGGA,000907,2622.0132,N,07958.9560,W,1,9,1.7,16,M,,M,,*5B
06/27/2015	00:09:07.663	$GPGGA,000908,2622.0142,N,07958.9560,W,1,9,1.7,16,M,,M,,*53
06/27/2015	00:09:08.553	$GPGGA,000909,2622.0150,N,07958.9560,W,1,9,1.7,16,M,,M,,*51
06/27/2015	00:09:09.573	$GPGGA,000910,2622.0160,N,07958.9560,W,1,9,1.7,16,M,,M,,*5A
06/27/2015	00:09:10.553	$GPGGA,000911,2622.0168,N,07958.9560,W,1,9,1.7,16,M,,M,,*53
06/27/2015	00:09:11.633	$GPGGA,000912,2622.0177,N,07958.9560,W,1,9,1.7,16,M,,M,,*5E
06/27/2015	00:09:12.543	$GPGGA,000913,2622.0186,N,07958.9560,W,1,9,1.7,16,M,,M,,*51
06/27/2015	00:09:13.533	$GPGGA,000914,2622.0193,N,07958.9560,W,1,9,1.7,16,M,,M,,*52
06/27/2015	00:09:14.823	$GPGGA,000915,2622.0203,N,07958.9561,W,1,9,1.7,16,M,,M,,*58
06/27/2015	00:09:15.573	$GPGGA,000916,2622.0211,N,07958.9560,W,1,9,1.7,16,M,,M,,*59
06/27/2015	00:09:16.543	$GPGGA,000917,2622.0221,N,07958.9560,W,1,9,1.7,16,M,,M,,*5B
06/27/2015	00:09:17.573	$GPGGA,000918,2622.0229,N,07958.9560,W,1,9,1.7,16,M,,M,,*5C
06/27/2015	00:09:18.523	$GPGGA,000919,2622.0239,N,07958.9560,W,1,9,1.7,16,M,,M,,*5C
06/27/2015	00:09:19.583	$GPGGA,000920,2622.0247,N,07958.9560,W,1,9,1.7,16,M,,M,,*5F
06/27/2015	00:09:20.532	$GPGGA,000921,2622.0255,N,07958.9560,W,1,9,1.7,16,M,,M,,*5D
06/27/2015	00:09:21.563	$GPGGA,000922,2622.0265,N,07958.9560,W,1,9,1.7,16,M,,M,,*5D
06/27/2015	00:09:22.533	$GPGGA,000923,2622.0273,N,07958.9561,W,1,9,1.7,16,M,,M,,*5A
06/27/2015	00:09:23.573	$GPGGA,000924,2622.0282,N,07958.9561,W,1,9,1.7,16,M,,M,,*53
06/27/2015	00:09:24.533	$GPGGA,000925,2622.0290,N,07958.9561,W,1,9,1.7,15,M,,M,,*52
06/27/2015	00:09:25.533	$GPGGA,000926,2622.0298,N,07958.9563,W,1,9,1.7,15,M,,M,,*5B
06/27/2015	00:09:26.523	$GPGGA,000927,2622.0308,N,07958.9562,W,1,9,2.1,15,M,,M,,*56
06/27/2015	00:09:27.553	$GPGGA,000928,2622.0316,N,07958.9563,W,1,8,2.1,15,M,,M,,*56
06/27/2015	00:09:28.523	$GPGGA,000929,2622.0324,N,07958.9562,W,1,8,2.1,15,M,,M,,*57
06/27/2015	00:09:29.623	$GPGGA,000930,2622.0333,N,07958.9563,W,1,8,1.7,15,M,,M,,*5D
06/27/2015	00:09:30.513	$GPGGA,000931,2622.0341,N,07958.9561,W,1,8,1.7,15,M,,M,,*5B
06/27/2015	00:09:31.513	$GPGGA,000932,2622.0349,N,07958.9560,W,1,9,1.7,15,M,,M,,*50
06/27/2015	00:09:32.499	$GPGGA,000933,2622.0356,N,07958.9560,W,1,9,1.7,16,M,,M,,*5C
06/27/2015	00:09:33.623	$GPGGA,000934,2622.0366,N,07958.9558,W,1,9,1.7,16,M,,M,,*53
06/27/2015	00:09:34.513	$GPGGA,000935,2622.0374,N,07958.9559,W,1,9,2.1,16,M,,M,,*55
06/27/2015	00:09:35.553	$GPGGA,000936,2622.0383,N,07958.9558,W,1,8,1.7,16,M,,M,,*5B
06/27/2015	00:09:36.585	$GPGGA,000937,2622.0391,N,07958.9557,W,1,8,1.7,16,M,,M,,*56
06/27/2015	00:09:37.632	$GPGGA,000938,2622.0398,N,07958.9555,W,1,9,1.7,16,M,,M,,*53
06/27/2015	00:09:38.503	$GPGGA,000939,2622.0406,N,07958.9554,W,1,9,1.7,16,M,,M,,*53
06/27/2015	00:09:39.543	$GPGGA,000940,2622.0414,N,07958.9556,W,1,9,2.1,16,M,,M,,*59
06/27/2015	00:09:40.583	$GPGGA,000941,2622.0424,N,07958.9556,W,1,9,2.1,16,M,,M,,*5B
06/27/2015	00:09:41.590	$GPGGA,000942,2622.0432,N,07958.9557,W,1,9,1.7,16,M,,M,,*5B
06/27/2015	00:09:42.486	$GPGGA,000943,2622.0441,N,07958.9557,W,1,9,2.1,16,M,,M,,*5B
06/27/2015	00:09:43.543	$GPGGA,000944,2622.0449,N,07958.9559,W,1,8,2.5,16,M,,M,,*5F
06/27/2015	00:09:44.593	$GPGGA,000945,2622.0457,N,07958.9559,W,1,8,2.5,16,M,,M,,*51
06/27/2015	00:09:45.573	$GPGGA,000946,2622.0466,N,07958.9560,W,1,8,2.1,16,M,,M,,*5E
06/27/2015	00:09:46.573	$GPGGA,000947,2622.0475,N,07958.9561,W,1,8,1.7,16,M,,M,,*59
06/27/2015	00:09:47.589	$GPGGA,000948,2622.0482,N,07958.9560,W,1,9,1.7,16,M,,M,,*5E
06/27/2015	00:09:48.573	$GPGGA,000949,2622.0489,N,07958.9559,W,1,9,1.7,16,M,,M,,*5E
06/27/2015	00:09:49.573	$GPGGA,000950,2622.0497,N,07958.9559,W,1,9,1.7,17,M,,M,,*58
06/27/2015	00:09:50.573	$GPGGA,000951,2622.0507,N,07958.9560,W,1,9,1.7,17,M,,M,,*5B
06/27/2015	00:09:51.588	$GPGGA,000952,2622.0515,N,07958.9560,W,1,9,1.7,17,M,,M,,*5B
06/27/2015	00:09:52.573	$GPGGA,000953,2622.0522,N,07958.9560,W,1,9,1.7,17,M,,M,,*5E
06/27/2015	00:09:53.553	$GPGGA,000954,2622.0531,N,07958.9561,W,1,9,1.7,17,M,,M,,*5A
06/27/2015	00:09:54.552	$GPGGA,000955,2622.0539,N,07958.9561,W,1,9,1.7,17,M,,M,,*53
06/27/2015	00:09:55.590	$GPGGA,000956,2622.0547,N,07958.9563,W,1,9,1.7,17,M,,M,,*5B
06/27/2015	00:09:56.553	$GPGGA,000957,2622.0555,N,07958.9563,W,1,9,2.1,17,M,,M,,*5C
06/27/2015	00:09:57.573	$GPGGA,000958,2622.0565,N,07958.9564,W,1,8,2.1,17,M,,M,,*56
06/27/2015	00:09:58.553	$GPGGA,000959,2622.0573,N,07958.9563,W,1,8,2.1,17,M,,M,,*57
06/27/2015	00:09:59.587	$GPGGA,001000,2622.0580,N,07958.9562,W,1,9,1.7,17,M,,M,,*5A
06/27/2015	00:10:00.553	$GPGGA,001001,2622.0589,N,07958.9563,W,1,9,1.7,17,M,,M,,*53
06/27/2015	00:10:01.563	$GPGGA,001002,2622.0597,N,07958.9562,W,1,9,1.7,17,M,,M,,*5E
06/27/2015	00:10:02.544	$GPGGA,001003,2622.0605,N,07958.9563,W,1,9,1.7,17,M,,M,,*56
06/27/2015	00:10:03.573	$GPGGA,001004,2622.0613,N,07958.9563,W,1,9,1.7,17,M,,M,,*56
06/27/2015	00:10:04.543	$GPGGA,001005,2622.0622,N,07958.9564,W,1,9,1.7,17,M,,M,,*52
06/27/2015	00:10:05.523	$GPGGA,001006,2622.0630,N,07958.9564,W,1,9,1.7,17,M,,M,,*52
06/27/2015	00:10:06.533	$GPGGA,001007,2622.0638,N,07958.9566,W,1,9,1.7,17,M,,M,,*59
06/27/2015	00:10:07.563	$GPGGA,001008,2622.0645,N,07958.9566,W,1,9,1.7,17,M,,M,,*5C
06/27/2015	00:10:08.533	$GPGGA,001009,2622.0654,N,07958.9566,W,1,9,1.8,18,M,,M,,*5D
06/27/2015	00:10:09.533	$GPGGA,001010,2622.0663,N,07958.9566,W,1,8,1.8,18,M,,M,,*50
06/27/2015	00:10:10.533	$GPGGA,001011,2622.0672,N,07958.9568,W,1,8,1.7,18,M,,M,,*50
06/27/2015	00:10:11.562	$GPGGA,001012,2622.0678,N,07958.9568,W,1,9,1.7,18,M,,M,,*58
06/27/2015	00:10:12.522	$GPGGA,001013,2622.0687,N,07958.9567,W,1,9,1.7,18,M,,M,,*56
06/27/2015	00:10:13.513	$GPGGA,001014,2622.0695,N,07958.9568,W,1,8,1.8,18,M,,M,,*53
06/27/2015	00:10:14.523	$GPGGA,001015,2622.0705,N,07958.9570,W,1,8,1.7,18,M,,M,,*5C
06/27/2015	00:10:15.554	$GPGGA,001016,2622.0713,N,07958.9569,W,1,8,2.1,18,M,,M,,*55
06/27/2015	00:10:16.503	$GPGGA,001017,2622.0721,N,07958.9568,W,1,8,1.7,18,M,,M,,*51
06/27/2015	00:10:17.523	$GPGGA,001018,2622.0731,N,07958.9570,W,1,9,1.7,18,M,,M,,*57
06/27/2015	00:10:18.513	$GPGGA,001019,2622.0741,N,07958.9569,W,1,9,1.7,18,M,,M,,*59
06/27/2015	00:10:19.533	$GPGGA,001020,2622.0748,N,07958.9568,W,1,9,1.7,18,M,,M,,*5B
06/27/2015	00:10:20.613	$GPGGA,001021,2622.0757,N,07958.9568,W,1,9,2.5,18,M,,M,,*55
06/27/2015	00:10:21.595	$GPGGA,001022,2622.0766,N,07958.9570,W,1,7,2.5,19,M,,M,,*52
06/27/2015	00:10:22.594	$GPGGA,001023,2622.0774,N,07958.9570,W,1,7,2.1,19,M,,M,,*54
06/27/2015	00:10:23.603	$GPGGA,001024,2622.0781,N,07958.9572,W,1,8,2.1,19,M,,M,,*54
06/27/2015	00:10:24.485	$GPGGA,001025,2622.0789,N,07958.9574,W,1,8,2.1,19,M,,M,,*5B
06/27/2015	00:10:25.503	$GPGGA,001026,2622.0797,N,07958.9574,W,1,8,2.1,19,M,,M,,*57
06/27/2015	00:10:26.503	$GPGGA,001027,2622.0804,N,07958.9573,W,1,8,1.7,19,M,,M,,*51
06/27/2015	00:10:27.513	$GPGGA,001028,2622.0811,N,07958.9574,W,1,9,1.7,19,M,,M,,*5C
06/27/2015	00:10:28.496	$GPGGA,001029,2622.0820,N,07958.9574,W,1,9,1.7,19,M,,M,,*5F
06/27/2015	00:10:29.622	$GPGGA,001030,2622.0826,N,07958.9574,W,1,9,1.7,19,M,,M,,*51
06/27/2015	00:10:30.572	$GPGGA,001031,2622.0833,N,07958.9573,W,1,9,1.7,19,M,,M,,*53
06/27/2015	00:10:31.623	$GPGGA,001032,2622.0842,N,07958.9574,W,1,9,1.7,19,M,,M,,*51
06/27/2015	00:10:32.574	$GPGGA,001033,2622.0850,N,07958.9575,W,1,9,1.7,20,M,,M,,*58
06/27/2015	00:10:33.594	$GPGGA,001034,2622.0858,N,07958.9577,W,1,8,1.8,20,M,,M,,*5B
06/27/2015	00:10:34.573	$GPGGA,001035,2622.0867,N,07958.9577,W,1,8,2.1,20,M,,M,,*5C
06/27/2015	00:10:35.603	$GPGGA,001036,2622.0876,N,07958.9579,W,1,8,2.1,20,M,,M,,*51
06/27/2015	00:10:36.563	$GPGGA,001037,2622.0885,N,07958.9581,W,1,8,2.1,20,M,,M,,*5B
06/27/2015	00:10:37.593	$GPGGA,001038,2622.0893,N,07958.9579,W,1,8,2.1,20,M,,M,,*54
06/27/2015	00:10:38.563	$GPGGA,001039,2622.0901,N,07958.9579,W,1,8,2.1,21,M,,M,,*5E
06/27/2015	00:10:39.603	$GPGGA,001040,2622.0909,N,07958.9581,W,1,9,1.7,21,M,,M,,*5B
06/27/2015	00:10:40.563	$GPGGA,001041,2622.0918,N,07958.9579,W,1,9,1.7,21,M,,M,,*5D
06/27/2015	00:10:41.573	$GPGGA,001042,2622.0925,N,07958.9579,W,1,9,1.7,21,M,,M,,*50
06/27/2015	00:10:42.553	$GPGGA,001043,2622.0933,N,07958.9578,W,1,9,1.7,21,M,,M,,*57
06/27/2015	00:10:43.595	$GPGGA,001044,2622.0941,N,07958.9578,W,1,8,1.8,21,M,,M,,*5B
06/27/2015	00:10:44.553	$GPGGA,001045,2622.0949,N,07958.9578,W,1,8,1.8,22,M,,M,,*51
06/27/2015	00:10:45.573	$GPGGA,001046,2622.0958,N,07958.9578,W,1,8,1.8,22,M,,M,,*52
06/27/2015	00:10:46.532	$GPGGA,001047,2622.0966,N,07958.9578,W,1,8,1.7,22,M,,M,,*51
06/27/2015	00:10:47.582	$GPGGA,001048,2622.0974,N,07958.9578,W,1,9,1.7,22,M,,M,,*5C
06/27/2015	00:10:48.533	$GPGGA,001049,2622.0984,N,07958.9578,W,1,9,2.1,22,M,,M,,*57
06/27/2015	00:10:49.563	$GPGGA,001050,2622.0992,N,07958.9578,W,1,8,2.1,22,M,,M,,*59
06/27/2015	00:10:50.533	$GPGGA,001051,2622.1002,N,07958.9578,W,1,8,2.1,22,M,,M,,*59
06/27/2015	00:10:51.573	$GPGGA,001052,2622.1009,N,07958.9578,W,1,8,2.1,22,M,,M,,*51
06/27/2015	00:10:52.533	$GPGGA,001053,2622.1017,N,07958.9578,W,1,8,2.1,22,M,,M,,*5F
06/27/2015	00:10:53.523	$GPGGA,001054,2622.1026,N,07958.9578,W,1,8,2.1,22,M,,M,,*5A
06/27/2015	00:10:54.533	$GPGGA,001055,2622.1034,N,07958.9579,W,1,8,2.1,22,M,,M,,*59
06/27/2015	00:10:55.563	$GPGGA,001056,2622.1042,N,07958.9579,W,1,8,2.1,22,M,,M,,*5B
06/27/2015	00:10:56.533	$GPGGA,001057,2622.1050,N,07958.9578,W,1,8,2.1,22,M,,M,,*58
06/27/2015	00:10:57.523	$GPGGA,001058,2622.1060,N,07958.9579,W,1,8,2.1,22,M,,M,,*55
06/27/2015	00:10:58.523	$GPGGA,001059,2622.1067,N,07958.9579,W,1,8,2.1,22,M,,M,,*53
06/27/2015	00:10:59.543	$GPGGA,001100,2622.1074,N,07958.9581,W,1,9,1.7,22,M,,M,,*5F
06/27/2015	00:11:00.513	$GPGGA,001101,2622.1081,N,07958.9582,W,1,9,1.7,22,M,,M,,*57
06/27/2015	00:11:01.513	$GPGGA,001102,2622.1088,N,07958.9584,W,1,9,1.7,22,M,,M,,*5B
06/27/2015	00:11:02.523	$GPGGA,001103,2622.1096,N,07958.9585,W,1,9,2.1,22,M,,M,,*51
06/27/2015	00:11:03.533	$GPGGA,001104,2622.1104,N,07958.9584,W,1,8,2.1,22,M,,M,,*5C
06/27/2015	00:11:04.622	$GPGGA,001105,2622.1111,N,07958.9585,W,1,8,2.5,22,M,,M,,*5C
06/27/2015	00:11:05.522	$GPGGA,001106,2622.1120,N,07958.9585,W,1,9,1.7,22,M,,M,,*5D
06/27/2015	00:11:06.513	$GPGGA,001107,2622.1126,N,07958.9585,W,1,9,1.7,22,M,,M,,*5A
06/27/2015	00:11:07.513	$GPGGA,001108,2622.1135,N,07958.9585,W,1,9,1.7,22,M,,M,,*57
06/27/2015	00:11:08.597	$GPGGA,001109,2622.1143,N,07958.9585,W,1,9,1.7,22,M,,M,,*57
06/27/2015	00:11:09.513	$GPGGA,001110,2622.1151,N,07958.9584,W,1,9,1.7,22,M,,M,,*5D
06/27/2015	00:11:10.483	$GPGGA,001111,2622.1160,N,07958.9583,W,1,9,1.7,22,M,,M,,*59
06/27/2015	00:11:11.513	$GPGGA,001112,2622.1169,N,07958.9582,W,1,9,1.7,22,M,,M,,*52
06/27/2015	00:11:12.584	$GPGGA,001113,2622.1178,N,07958.9581,W,1,9,1.7,22,M,,M,,*50
06/27/2015	00:11:13.503	$GPGGA,001114,2622.1187,N,07958.9580,W,1,9,1.7,22,M,,M,,*56
06/27/2015	00:11:14.586	$GPGGA,001115,2622.1198,N,07958.9579,W,1,9,2.0,22,M,,M,,*5B
06/27/2015	00:11:15.588	$GPGGA,001116,2622.1207,N,07958.9578,W,1,9,1.7,22,M,,M,,*58
06/27/2015	00:11:16.583	$GPGGA,001117,2622.1216,N,07958.9577,W,1,9,1.7,22,M,,M,,*56
06/27/2015	00:11:17.573	$GPGGA,001118,2622.1226,N,07958.9577,W,1,9,1.7,22,M,,M,,*5A
06/27/2015	00:11:18.585	$GPGGA,001119,2622.1234,N,07958.9577,W,1,9,1.7,22,M,,M,,*58
06/27/2015	00:11:19.585	$GPGGA,001120,2622.1243,N,07958.9574,W,1,8,2.1,21,M,,M,,*56
06/27/2015	00:11:20.563	$GPGGA,001121,2622.1252,N,07958.9573,W,1,8,1.7,21,M,,M,,*55
06/27/2015	00:11:21.582	$GPGGA,001122,2622.1261,N,07958.9574,W,1,9,1.7,21,M,,M,,*50
06/27/2015	00:11:22.572	$GPGGA,001123,2622.1269,N,07958.9572,W,1,9,1.7,21,M,,M,,*5F
06/27/2015	00:11:23.573	$GPGGA,001124,2622.1277,N,07958.9572,W,1,9,1.7,21,M,,M,,*57
06/27/2015	00:11:24.563	$GPGGA,001125,2622.1286,N,07958.9574,W,1,9,1.7,21,M,,M,,*5E
06/27/2015	00:11:25.573	$GPGGA,001126,2622.1294,N,07958.9573,W,1,9,1.7,21,M,,M,,*59
06/27/2015	00:11:26.553	$GPGGA,001127,2622.1302,N,07958.9572,W,1,9,1.7,21,M,,M,,*57
06/27/2015	00:11:27.584	$GPGGA,001128,2622.1310,N,07958.9572,W,1,9,1.7,21,M,,M,,*5B
06/27/2015	00:11:28.563	$GPGGA,001129,2622.1320,N,07958.9570,W,1,9,2.1,20,M,,M,,*5F
06/27/2015	00:11:29.573	$GPGGA,001130,2622.1328,N,07958.9571,W,1,9,1.7,20,M,,M,,*5B
06/27/2015	00:11:30.554	$GPGGA,001131,2622.1335,N,07958.9570,W,1,9,1.7,20,M,,M,,*57
06/27/2015	00:11:31.563	$GPGGA,001132,2622.1344,N,07958.9571,W,1,9,1.7,20,M,,M,,*53
06/27/2015	00:11:32.553	$GPGGA,001133,2622.1352,N,07958.9572,W,1,9,1.7,20,M,,M,,*56
06/27/2015	00:11:33.563	$GPGGA,001134,2622.1360,N,07958.9571,W,1,8,2.1,20,M,,M,,*57
06/27/2015	00:11:34.543	$GPGGA,001135,2622.1368,N,07958.9572,W,1,8,2.5,20,M,,M,,*59
06/27/2015	00:11:35.573	$GPGGA,001136,2622.1378,N,07958.9571,W,1,7,2.5,20,M,,M,,*57
06/27/2015	00:11:36.543	$GPGGA,001137,2622.1388,N,07958.9572,W,1,7,2.1,20,M,,M,,*5E
06/27/2015	00:11:37.563	$GPGGA,001138,2622.1395,N,07958.9574,W,1,8,2.1,19,M,,M,,*5E
06/27/2015	00:11:38.543	$GPGGA,001139,2622.1402,N,07958.9575,W,1,8,2.1,19,M,,M,,*57
06/27/2015	00:11:39.572	$GPGGA,001140,2622.1409,N,07958.9577,W,1,8,2.1,19,M,,M,,*50
06/27/2015	00:11:40.532	$GPGGA,001141,2622.1415,N,07958.9578,W,1,8,2.1,19,M,,M,,*53
06/27/2015	00:11:41.523	$GPGGA,001142,2622.1418,N,07958.9581,W,1,7,2.3,19,M,,M,,*56
06/27/2015	00:11:42.533	$GPGGA,001143,2622.1425,N,07958.9582,W,1,7,2.1,19,M,,M,,*58
06/27/2015	00:11:43.533	$GPGGA,001144,2622.1432,N,07958.9584,W,1,7,2.3,18,M,,M,,*5C
06/27/2015	00:11:44.523	$GPGGA,001145,2622.1440,N,07958.9585,W,1,7,2.1,18,M,,M,,*5B
06/27/2015	00:11:45.533	$GPGGA,001146,2622.1447,N,07958.9586,W,1,8,2.1,18,M,,M,,*53
06/27/2015	00:11:46.513	$GPGGA,001147,2622.1456,N,07958.9585,W,1,8,2.1,18,M,,M,,*51
06/27/2015	00:11:47.523	$GPGGA,001148,2622.1465,N,07958.9585,W,1,7,2.5,18,M,,M,,*55
