Software Version Number: 1	Data File Format Number: 1	Build Version Number: 1	Error Count Since VI Started: 1	Manufacturer: Raytheon	 Model Number: RayMarine 120	 S/N: 	 Cal Date: 	 Wind Direction Offset: 0.00	 Slope (M)1: 0.00	 Offset (B)1: 0.00	 Slope (M)2: 0.00	 Offset (B)2: 0.00	 Slope (M)3: 0.00	 Offset (B)3: 0.00	 Slope (M)4: 0.00	 Offset (B)4: 0.00	 Slope (M)5: 0.00	 Offset (B)5: 0.00	 Slope (M)6: 0.00	 Offset (B)6: 0.00
Computer Date	Computer Time	GGA String
06/15/2015	04:00:00.515	$GPGGA,040001,2426.0415,N,08057.3749,W,1,10,1.5,22,M,,M,,*61
06/15/2015	04:00:01.606	$GPGGA,040002,2426.0410,N,08057.3737,W,1,10,1.5,22,M,,M,,*6E
06/15/2015	04:00:02.496	$GPGGA,040003,2426.0401,N,08057.3725,W,1,10,1.5,22,M,,M,,*6C
06/15/2015	04:00:03.507	$GPGGA,040004,2426.0401,N,08057.3725,W,1,9,2.1,22,M,,M,,*54
06/15/2015	04:00:04.596	$GPGGA,040005,2426.0387,N,08057.3697,W,1,9,1.5,22,M,,M,,*53
06/15/2015	04:00:05.596	$GPGGA,040006,2426.0380,N,08057.3684,W,1,10,1.5,22,M,,M,,*6D
06/15/2015	04:00:06.576	$GPGGA,040007,2426.0371,N,08057.3672,W,1,10,1.5,22,M,,M,,*6B
06/15/2015	04:00:07.608	$GPGGA,040008,2426.0364,N,08057.3657,W,1,9,2.1,22,M,,M,,*58
06/15/2015	04:00:08.576	$GPGGA,040009,2426.0358,N,08057.3643,W,1,9,2.1,22,M,,M,,*53
06/15/2015	04:00:09.576	$GPGGA,040010,2426.0350,N,08057.3630,W,1,9,2.1,22,M,,M,,*57
06/15/2015	04:00:10.576	$GPGGA,040011,2426.0343,N,08057.3616,W,1,9,2.1,22,M,,M,,*50
06/15/2015	04:00:11.615	$GPGGA,040012,2426.0336,N,08057.3603,W,1,9,2.1,22,M,,M,,*55
06/15/2015	04:00:12.565	$GPGGA,040013,2426.0327,N,08057.3589,W,1,9,2.1,22,M,,M,,*55
06/15/2015	04:00:13.605	$GPGGA,040014,2426.0320,N,08057.3575,W,1,9,2.1,22,M,,M,,*56
06/15/2015	04:00:14.565	$GPGGA,040015,2426.0313,N,08057.3560,W,1,9,2.1,22,M,,M,,*53
06/15/2015	04:00:15.609	$GPGGA,040016,2426.0305,N,08057.3546,W,1,9,2.1,21,M,,M,,*50
06/15/2015	04:00:16.565	$GPGGA,040017,2426.0298,N,08057.3536,W,1,9,1.5,21,M,,M,,*54
06/15/2015	04:00:17.585	$GPGGA,040018,2426.0291,N,08057.3523,W,1,10,1.5,21,M,,M,,*6E
06/15/2015	04:00:18.565	$GPGGA,040019,2426.0282,N,08057.3509,W,1,10,1.5,21,M,,M,,*65
06/15/2015	04:00:19.596	$GPGGA,040020,2426.0275,N,08057.3496,W,1,10,1.5,21,M,,M,,*60
06/15/2015	04:00:20.556	$GPGGA,040021,2426.0266,N,08057.3487,W,1,10,1.5,21,M,,M,,*63
06/15/2015	04:00:21.576	$GPGGA,040022,2426.0258,N,08057.3474,W,1,10,1.5,21,M,,M,,*61
06/15/2015	04:00:22.546	$GPGGA,040023,2426.0251,N,08057.3461,W,1,10,1.5,21,M,,M,,*6D
06/15/2015	04:00:23.586	$GPGGA,040024,2426.0244,N,08057.3448,W,1,10,1.5,21,M,,M,,*65
06/15/2015	04:00:24.556	$GPGGA,040025,2426.0237,N,08057.3437,W,1,10,1.5,21,M,,M,,*68
06/15/2015	04:00:25.536	$GPGGA,040026,2426.0228,N,08057.3424,W,1,10,1.5,21,M,,M,,*67
06/15/2015	04:00:26.556	$GPGGA,040027,2426.0220,N,08057.3411,W,1,10,1.5,21,M,,M,,*68
06/15/2015	04:00:27.586	$GPGGA,040028,2426.0212,N,08057.3399,W,1,10,1.5,21,M,,M,,*61
06/15/2015	04:00:28.545	$GPGGA,040029,2426.0204,N,08057.3387,W,1,10,1.5,21,M,,M,,*68
06/15/2015	04:00:29.565	$GPGGA,040030,2426.0197,N,08057.3375,W,1,10,1.5,21,M,,M,,*64
06/15/2015	04:00:30.535	$GPGGA,040031,2426.0187,N,08057.3361,W,1,10,1.5,21,M,,M,,*61
06/15/2015	04:00:31.575	$GPGGA,040032,2426.0180,N,08057.3350,W,1,9,2.1,21,M,,M,,*58
06/15/2015	04:00:32.645	$GPGGA,040033,2426.0172,N,08057.3340,W,1,9,1.5,21,M,,M,,*52
06/15/2015	04:00:33.555	$GPGGA,040034,2426.0162,N,08057.3328,W,1,10,1.5,21,M,,M,,*62
06/15/2015	04:00:34.545	$GPGGA,040035,2426.0154,N,08057.3316,W,1,10,1.5,21,M,,M,,*6B
06/15/2015	04:00:35.545	$GPGGA,040036,2426.0146,N,08057.3302,W,1,10,1.5,21,M,,M,,*6E
06/15/2015	04:00:36.519	$GPGGA,040037,2426.0137,N,08057.3293,W,1,10,2.1,22,M,,M,,*64
06/15/2015	04:00:37.636	$GPGGA,040038,2426.0129,N,08057.3281,W,1,10,1.5,22,M,,M,,*60
06/15/2015	04:00:38.526	$GPGGA,040039,2426.0121,N,08057.3269,W,1,10,1.5,22,M,,M,,*6F
06/15/2015	04:00:39.626	$GPGGA,040040,2426.0110,N,08057.3256,W,1,10,1.5,22,M,,M,,*6F
06/15/2015	04:00:40.526	$GPGGA,040041,2426.0103,N,08057.3244,W,1,10,2.1,22,M,,M,,*68
06/15/2015	04:00:41.512	$GPGGA,040042,2426.0096,N,08057.3230,W,1,10,1.5,22,M,,M,,*62
06/15/2015	04:00:42.606	$GPGGA,040043,2426.0085,N,08057.3218,W,1,10,1.5,22,M,,M,,*6B
06/15/2015	04:00:43.626	$GPGGA,040044,2426.0078,N,08057.3205,W,1,10,1.5,22,M,,M,,*62
06/15/2015	04:00:44.517	$GPGGA,040045,2426.0070,N,08057.3192,W,1,10,2.1,22,M,,M,,*61
06/15/2015	04:00:45.517	$GPGGA,040046,2426.0062,N,08057.3179,W,1,10,1.5,22,M,,M,,*63
06/15/2015	04:00:46.607	$GPGGA,040047,2426.0054,N,08057.3168,W,1,10,1.5,22,M,,M,,*67
06/15/2015	04:00:47.645	$GPGGA,040048,2426.0044,N,08057.3157,W,1,10,1.5,22,M,,M,,*65
06/15/2015	04:00:48.595	$GPGGA,040049,2426.0036,N,08057.3147,W,1,10,1.5,22,M,,M,,*60
06/15/2015	04:00:49.605	$GPGGA,040050,2426.0028,N,08057.3136,W,1,10,1.5,22,M,,M,,*61
06/15/2015	04:00:50.596	$GPGGA,040051,2426.0020,N,08057.3124,W,1,10,1.5,22,M,,M,,*6B
06/15/2015	04:00:51.615	$GPGGA,040052,2426.0011,N,08057.3110,W,1,10,1.5,22,M,,M,,*6D
06/15/2015	04:00:52.585	$GPGGA,040053,2426.0002,N,08057.3096,W,1,10,2.1,22,M,,M,,*66
06/15/2015	04:00:53.595	$GPGGA,040054,2425.9995,N,08057.3083,W,1,10,1.5,22,M,,M,,*6F
06/15/2015	04:00:54.596	$GPGGA,040055,2425.9987,N,08057.3070,W,1,10,1.5,22,M,,M,,*61
06/15/2015	04:00:55.626	$GPGGA,040056,2425.9977,N,08057.3060,W,1,10,1.5,22,M,,M,,*6C
06/15/2015	04:00:56.576	$GPGGA,040057,2425.9967,N,08057.3048,W,1,10,1.5,22,M,,M,,*66
06/15/2015	04:00:57.617	$GPGGA,040058,2425.9960,N,08057.3034,W,1,10,1.5,22,M,,M,,*65
06/15/2015	04:00:58.586	$GPGGA,040059,2425.9953,N,08057.3018,W,1,10,1.5,22,M,,M,,*6A
06/15/2015	04:00:59.607	$GPGGA,040100,2425.9944,N,08057.3006,W,1,9,2.1,22,M,,M,,*51
06/15/2015	04:01:00.576	$GPGGA,040101,2425.9934,N,08057.2997,W,1,9,2.1,22,M,,M,,*57
06/15/2015	04:01:01.566	$GPGGA,040102,2425.9926,N,08057.2983,W,1,10,1.5,22,M,,M,,*6D
06/15/2015	04:01:02.576	$GPGGA,040103,2425.9922,N,08057.2967,W,1,10,1.5,22,M,,M,,*62
06/15/2015	04:01:03.595	$GPGGA,040104,2425.9913,N,08057.2954,W,1,9,2.1,22,M,,M,,*58
06/15/2015	04:01:04.555	$GPGGA,040105,2425.9903,N,08057.2944,W,1,9,2.1,22,M,,M,,*59
06/15/2015	04:01:05.565	$GPGGA,040106,2425.9897,N,08057.2929,W,1,10,1.5,22,M,,M,,*62
06/15/2015	04:01:06.555	$GPGGA,040107,2425.9892,N,08057.2914,W,1,10,1.5,22,M,,M,,*68
06/15/2015	04:01:07.575	$GPGGA,040108,2425.9883,N,08057.2903,W,1,10,1.5,22,M,,M,,*61
06/15/2015	04:01:08.555	$GPGGA,040109,2425.9873,N,08057.2891,W,1,10,1.5,22,M,,M,,*65
06/15/2015	04:01:09.535	$GPGGA,040110,2425.9868,N,08057.2877,W,1,10,1.5,22,M,,M,,*6F
06/15/2015	04:01:11.007	$GPGGA,040111,2425.9862,N,08057.2864,W,1,10,1.5,22,M,,M,,*66
06/15/2015	04:01:11.565	$GPGGA,040112,2425.9854,N,08057.2853,W,1,10,1.5,22,M,,M,,*64
06/15/2015	04:01:12.545	$GPGGA,040113,2425.9847,N,08057.2842,W,1,10,1.5,22,M,,M,,*67
06/15/2015	04:01:13.565	$GPGGA,040114,2425.9841,N,08057.2830,W,1,10,1.5,22,M,,M,,*63
06/15/2015	04:01:14.545	$GPGGA,040115,2425.9832,N,08057.2817,W,1,10,1.5,22,M,,M,,*63
06/15/2015	04:01:15.535	$GPGGA,040116,2425.9825,N,08057.2807,W,1,10,1.5,22,M,,M,,*67
06/15/2015	04:01:16.535	$GPGGA,040117,2425.9819,N,08057.2794,W,1,10,1.5,22,M,,M,,*6C
06/15/2015	04:01:17.565	$GPGGA,040118,2425.9812,N,08057.2780,W,1,10,1.5,23,M,,M,,*6C
06/15/2015	04:01:18.525	$GPGGA,040119,2425.9805,N,08057.2767,W,1,10,1.5,23,M,,M,,*62
06/15/2015	04:01:19.545	$GPGGA,040120,2425.9797,N,08057.2756,W,1,10,1.5,23,M,,M,,*6E
06/15/2015	04:01:20.515	$GPGGA,040121,2425.9790,N,08057.2744,W,1,10,1.5,23,M,,M,,*6B
06/15/2015	04:01:21.534	$GPGGA,040122,2425.9783,N,08057.2731,W,1,9,1.5,23,M,,M,,*50
06/15/2015	04:01:22.525	$GPGGA,040123,2425.9776,N,08057.2717,W,1,9,1.5,23,M,,M,,*5F
06/15/2015	04:01:23.565	$GPGGA,040124,2425.9769,N,08057.2707,W,1,9,2.1,23,M,,M,,*50
06/15/2015	04:01:24.525	$GPGGA,040125,2425.9762,N,08057.2695,W,1,9,1.5,23,M,,M,,*57
06/15/2015	04:01:25.525	$GPGGA,040126,2425.9755,N,08057.2680,W,1,9,2.1,23,M,,M,,*53
06/15/2015	04:01:26.508	$GPGGA,040127,2425.9749,N,08057.2666,W,1,9,1.5,23,M,,M,,*50
06/15/2015	04:01:27.635	$GPGGA,040128,2425.9740,N,08057.2652,W,1,10,1.5,23,M,,M,,*69
06/15/2015	04:01:28.625	$GPGGA,040129,2425.9735,N,08057.2637,W,1,10,2.1,23,M,,M,,*6E
06/15/2015	04:01:29.605	$GPGGA,040130,2425.9728,N,08057.2623,W,1,9,2.1,23,M,,M,,*57
06/15/2015	04:01:30.599	$GPGGA,040131,2425.9718,N,08057.2611,W,1,9,1.5,23,M,,M,,*53
06/15/2015	04:01:31.496	$GPGGA,040132,2425.9711,N,08057.2598,W,1,9,2.1,23,M,,M,,*5C
06/15/2015	04:01:32.595	$GPGGA,040133,2425.9706,N,08057.2583,W,1,9,1.5,23,M,,M,,*56
06/15/2015	04:01:33.496	$GPGGA,040134,2425.9697,N,08057.2570,W,1,10,1.5,23,M,,M,,*6C
06/15/2015	04:01:34.585	$GPGGA,040135,2425.9688,N,08057.2561,W,1,10,1.5,23,M,,M,,*63
06/15/2015	04:01:35.605	$GPGGA,040136,2425.9681,N,08057.2549,W,1,10,1.5,23,M,,M,,*63
06/15/2015	04:01:36.585	$GPGGA,040137,2425.9674,N,08057.2536,W,1,10,1.5,23,M,,M,,*60
06/15/2015	04:01:37.595	$GPGGA,040138,2425.9664,N,08057.2525,W,1,10,1.5,23,M,,M,,*6C
06/15/2015	04:01:38.584	$GPGGA,040139,2425.9657,N,08057.2514,W,1,10,1.5,23,M,,M,,*6F
06/15/2015	04:01:39.585	$GPGGA,040140,2425.9650,N,08057.2501,W,1,10,1.5,23,M,,M,,*62
06/15/2015	04:01:40.575	$GPGGA,040141,2425.9641,N,08057.2489,W,1,10,1.5,23,M,,M,,*62
06/15/2015	04:01:41.575	$GPGGA,040142,2425.9632,N,08057.2476,W,1,10,1.5,23,M,,M,,*65
06/15/2015	04:01:42.565	$GPGGA,040143,2425.9623,N,08057.2463,W,1,10,2.8,23,M,,M,,*6E
06/15/2015	04:01:43.585	$GPGGA,040144,2425.9614,N,08057.2451,W,1,9,2.1,23,M,,M,,*5D
06/15/2015	04:01:44.565	$GPGGA,040145,2425.9606,N,08057.2440,W,1,9,1.5,23,M,,M,,*58
06/15/2015	04:01:45.585	$GPGGA,040146,2425.9597,N,08057.2428,W,1,10,1.5,23,M,,M,,*66
06/15/2015	04:01:46.565	$GPGGA,040147,2425.9587,N,08057.2417,W,1,10,2.1,23,M,,M,,*6D
06/15/2015	04:01:47.597	$GPGGA,040148,2425.9580,N,08057.2403,W,1,9,1.8,23,M,,M,,*52
06/15/2015	04:01:48.555	$GPGGA,040149,2425.9570,N,08057.2394,W,1,9,1.5,23,M,,M,,*58
06/15/2015	04:01:49.575	$GPGGA,040150,2425.9561,N,08057.2382,W,1,10,1.5,23,M,,M,,*6F
06/15/2015	04:01:50.565	$GPGGA,040151,2425.9554,N,08057.2368,W,1,10,1.5,23,M,,M,,*6C
06/15/2015	04:01:51.585	$GPGGA,040152,2425.9545,N,08057.2354,W,1,10,1.5,23,M,,M,,*60
06/15/2015	04:01:52.555	$GPGGA,040153,2425.9536,N,08057.2342,W,1,10,1.8,24,M,,M,,*68
06/15/2015	04:01:53.545	$GPGGA,040154,2425.9529,N,08057.2330,W,1,10,1.5,24,M,,M,,*69
06/15/2015	04:01:54.545	$GPGGA,040155,2425.9521,N,08057.2318,W,1,10,2.1,24,M,,M,,*6D
06/15/2015	04:01:55.555	$GPGGA,040156,2425.9512,N,08057.2304,W,1,10,1.5,24,M,,M,,*64
06/15/2015	04:01:56.534	$GPGGA,040157,2425.9503,N,08057.2295,W,1,10,2.1,24,M,,M,,*6B
06/15/2015	04:01:57.535	$GPGGA,040158,2425.9496,N,08057.2283,W,1,10,1.5,24,M,,M,,*69
06/15/2015	04:01:58.545	$GPGGA,040159,2425.9487,N,08057.2267,W,1,10,1.5,24,M,,M,,*62
06/15/2015	04:01:59.598	$GPGGA,040200,2425.9478,N,08057.2255,W,1,9,2.1,24,M,,M,,*53
06/15/2015	04:02:00.535	$GPGGA,040201,2425.9468,N,08057.2246,W,1,9,2.1,24,M,,M,,*51
06/15/2015	04:02:01.565	$GPGGA,040202,2425.9460,N,08057.2232,W,1,10,1.5,24,M,,M,,*66
06/15/2015	04:02:02.525	$GPGGA,040203,2425.9451,N,08057.2219,W,1,10,1.5,24,M,,M,,*6C
06/15/2015	04:02:03.545	$GPGGA,040204,2425.9442,N,08057.2208,W,1,10,1.5,24,M,,M,,*69
06/15/2015	04:02:04.525	$GPGGA,040205,2425.9435,N,08057.2195,W,1,10,1.5,24,M,,M,,*6F
06/15/2015	04:02:05.525	$GPGGA,040206,2425.9426,N,08057.2181,W,1,10,1.5,24,M,,M,,*6B
06/15/2015	04:02:06.555	$GPGGA,040207,2425.9417,N,08057.2170,W,1,10,1.5,24,M,,M,,*66
06/15/2015	04:02:07.565	$GPGGA,040208,2425.9408,N,08057.2158,W,1,9,2.1,24,M,,M,,*52
06/15/2015	04:02:08.525	$GPGGA,040209,2425.9400,N,08057.2148,W,1,9,1.5,24,M,,M,,*5D
06/15/2015	04:02:09.525	$GPGGA,040210,2425.9392,N,08057.2136,W,1,10,1.5,24,M,,M,,*68
06/15/2015	04:02:10.625	$GPGGA,040211,2425.9382,N,08057.2125,W,1,10,1.5,24,M,,M,,*6A
06/15/2015	04:02:11.615	$GPGGA,040212,2425.9373,N,08057.2113,W,1,10,1.5,24,M,,M,,*62
06/15/2015	04:02:12.515	$GPGGA,040213,2425.9366,N,08057.2102,W,1,10,1.5,24,M,,M,,*67
06/15/2015	04:02:13.624	$GPGGA,040214,2425.9357,N,08057.2087,W,1,10,1.5,24,M,,M,,*6E
06/15/2015	04:02:14.507	$GPGGA,040215,2425.9348,N,08057.2071,W,1,10,2.1,24,M,,M,,*6F
06/15/2015	04:02:15.535	$GPGGA,040216,2425.9341,N,08057.2058,W,1,10,1.5,24,M,,M,,*69
06/15/2015	04:02:16.598	$GPGGA,040217,2425.9330,N,08057.2044,W,1,10,2.1,24,M,,M,,*64
06/15/2015	04:02:17.775	$GPGGA,040218,2425.9323,N,08057.2030,W,1,8,2.5,24,M,,M,,*57
06/15/2015	04:02:18.509	$GPGGA,040219,2425.9316,N,08057.2015,W,1,8,2.1,24,M,,M,,*53
06/15/2015	04:02:19.625	$GPGGA,040220,2425.9307,N,08057.2004,W,1,10,1.5,24,M,,M,,*67
06/15/2015	04:02:20.598	$GPGGA,040221,2425.9298,N,08057.1992,W,1,10,1.5,24,M,,M,,*64
06/15/2015	04:02:21.510	$GPGGA,040222,2425.9290,N,08057.1980,W,1,9,2.1,23,M,,M,,*54
06/15/2015	04:02:22.517	$GPGGA,040223,2425.9283,N,08057.1969,W,1,9,1.5,23,M,,M,,*57
06/15/2015	04:02:23.601	$GPGGA,040224,2425.9273,N,08057.1959,W,1,10,1.5,23,M,,M,,*64
06/15/2015	04:02:24.499	$GPGGA,040225,2425.9266,N,08057.1945,W,1,10,1.5,23,M,,M,,*6C
06/15/2015	04:02:25.585	$GPGGA,040226,2425.9258,N,08057.1933,W,1,10,1.5,23,M,,M,,*63
06/15/2015	04:02:26.585	$GPGGA,040227,2425.9248,N,08057.1921,W,1,10,1.5,24,M,,M,,*67
06/15/2015	04:02:27.597	$GPGGA,040228,2425.9242,N,08057.1908,W,1,9,1.5,24,M,,M,,*51
06/15/2015	04:02:28.575	$GPGGA,040229,2425.9234,N,08057.1894,W,1,9,1.5,24,M,,M,,*55
06/15/2015	04:02:29.575	$GPGGA,040230,2425.9225,N,08057.1882,W,1,10,1.5,24,M,,M,,*62
06/15/2015	04:02:30.575	$GPGGA,040231,2425.9219,N,08057.1870,W,1,10,2.1,24,M,,M,,*66
06/15/2015	04:02:31.606	$GPGGA,040232,2425.9211,N,08057.1856,W,1,10,1.5,24,M,,M,,*6E
06/15/2015	04:02:32.576	$GPGGA,040233,2425.9203,N,08057.1844,W,1,10,1.5,24,M,,M,,*6F
06/15/2015	04:02:33.585	$GPGGA,040234,2425.9196,N,08057.1832,W,1,10,1.5,24,M,,M,,*66
06/15/2015	04:02:34.565	$GPGGA,040235,2425.9189,N,08057.1818,W,1,10,1.5,24,M,,M,,*61
06/15/2015	04:02:35.599	$GPGGA,040236,2425.9180,N,08057.1806,W,1,10,1.5,24,M,,M,,*64
06/15/2015	04:02:36.555	$GPGGA,040237,2425.9174,N,08057.1794,W,1,10,1.5,24,M,,M,,*6A
06/15/2015	04:02:37.575	$GPGGA,040238,2425.9167,N,08057.1780,W,1,10,1.5,24,M,,M,,*62
06/15/2015	04:02:38.545	$GPGGA,040239,2425.9158,N,08057.1767,W,1,10,1.5,24,M,,M,,*66
06/15/2015	04:02:39.575	$GPGGA,040240,2425.9151,N,08057.1754,W,1,9,1.5,24,M,,M,,*59
06/15/2015	04:02:40.555	$GPGGA,040241,2425.9146,N,08057.1740,W,1,9,1.5,24,M,,M,,*5B
06/15/2015	04:02:41.545	$GPGGA,040242,2425.9138,N,08057.1725,W,1,10,1.5,24,M,,M,,*6A
06/15/2015	04:02:42.555	$GPGGA,040243,2425.9130,N,08057.1714,W,1,10,1.5,24,M,,M,,*61
06/15/2015	04:02:43.585	$GPGGA,040244,2425.9124,N,08057.1701,W,1,10,1.5,24,M,,M,,*67
06/15/2015	04:02:44.545	$GPGGA,040245,2425.9117,N,08057.1687,W,1,10,1.5,25,M,,M,,*68
06/15/2015	04:02:45.535	$GPGGA,040246,2425.9109,N,08057.1671,W,1,10,1.5,25,M,,M,,*6D
06/15/2015	04:02:46.545	$GPGGA,040247,2425.9102,N,08057.1663,W,1,10,2.1,24,M,,M,,*62
06/15/2015	04:02:47.575	$GPGGA,040248,2425.9095,N,08057.1650,W,1,10,1.5,25,M,,M,,*64
06/15/2015	04:02:48.534	$GPGGA,040249,2425.9086,N,08057.1637,W,1,10,1.5,25,M,,M,,*66
06/15/2015	04:02:49.556	$GPGGA,040250,2425.9081,N,08057.1622,W,1,10,1.5,25,M,,M,,*6D
06/15/2015	04:02:50.525	$GPGGA,040251,2425.9074,N,08057.1608,W,1,10,1.5,25,M,,M,,*6E
06/15/2015	04:02:51.555	$GPGGA,040252,2425.9066,N,08057.1596,W,1,10,1.5,24,M,,M,,*6B
06/15/2015	04:02:52.535	$GPGGA,040253,2425.9059,N,08057.1582,W,1,10,1.5,24,M,,M,,*63
06/15/2015	04:02:53.645	$GPGGA,040254,2425.9052,N,08057.1568,W,1,10,1.5,24,M,,M,,*6B
06/15/2015	04:02:54.535	$GPGGA,040255,2425.9046,N,08057.1555,W,1,10,1.5,24,M,,M,,*61
06/15/2015	04:02:55.545	$GPGGA,040256,2425.9037,N,08057.1542,W,1,10,1.5,24,M,,M,,*62
06/15/2015	04:02:56.635	$GPGGA,040257,2425.9030,N,08057.1529,W,1,10,1.5,24,M,,M,,*69
06/15/2015	04:02:57.516	$GPGGA,040258,2425.9024,N,08057.1512,W,1,10,1.5,24,M,,M,,*6B
06/15/2015	04:02:58.625	$GPGGA,040259,2425.9016,N,08057.1502,W,1,10,1.5,24,M,,M,,*6A
06/15/2015	04:02:59.655	$GPGGA,040300,2425.9008,N,08057.1486,W,1,10,2.1,24,M,,M,,*62
06/15/2015	04:03:00.516	$GPGGA,040301,2425.9001,N,08057.1472,W,1,10,2.1,24,M,,M,,*61
06/15/2015	04:03:01.516	$GPGGA,040302,2425.8994,N,08057.1460,W,1,9,2.1,24,M,,M,,*5D
06/15/2015	04:03:02.510	$GPGGA,040303,2425.8987,N,08057.1447,W,1,9,1.5,24,M,,M,,*5C
06/15/2015	04:03:03.535	$GPGGA,040304,2425.8978,N,08057.1434,W,1,9,2.1,24,M,,M,,*58
06/15/2015	04:03:04.517	$GPGGA,040305,2425.8970,N,08057.1419,W,1,9,2.1,24,M,,M,,*5E
06/15/2015	04:03:05.515	$GPGGA,040306,2425.8962,N,08057.1406,W,1,9,2.1,24,M,,M,,*50
06/15/2015	04:03:06.509	$GPGGA,040307,2425.8954,N,08057.1396,W,1,9,2.1,24,M,,M,,*5A
06/15/2015	04:03:07.606	$GPGGA,040308,2425.8947,N,08057.1385,W,1,10,1.5,24,M,,M,,*6A
06/15/2015	04:03:08.511	$GPGGA,040309,2425.8938,N,08057.1372,W,1,10,1.5,24,M,,M,,*6B
06/15/2015	04:03:09.595	$GPGGA,040310,2425.8931,N,08057.1361,W,1,9,1.5,24,M,,M,,*50
06/15/2015	04:03:10.496	$GPGGA,040311,2425.8922,N,08057.1349,W,1,9,1.5,24,M,,M,,*59
06/15/2015	04:03:11.625	$GPGGA,040312,2425.8915,N,08057.1334,W,1,10,1.5,24,M,,M,,*6C
06/15/2015	04:03:12.601	$GPGGA,040313,2425.8908,N,08057.1321,W,1,10,1.5,24,M,,M,,*65
06/15/2015	04:03:13.599	$GPGGA,040314,2425.8900,N,08057.1308,W,1,10,1.5,24,M,,M,,*61
06/15/2015	04:03:14.575	$GPGGA,040315,2425.8893,N,08057.1297,W,1,10,1.5,24,M,,M,,*6C
06/15/2015	04:03:15.625	$GPGGA,040316,2425.8884,N,08057.1282,W,1,10,2.1,24,M,,M,,*6A
06/15/2015	04:03:16.585	$GPGGA,040317,2425.8875,N,08057.1269,W,1,10,1.5,24,M,,M,,*67
06/15/2015	04:03:17.565	$GPGGA,040318,2425.8868,N,08057.1257,W,1,10,1.5,24,M,,M,,*69
06/15/2015	04:03:18.575	$GPGGA,040319,2425.8861,N,08057.1245,W,1,10,1.5,24,M,,M,,*62
06/15/2015	04:03:19.597	$GPGGA,040320,2425.8851,N,08057.1234,W,1,10,1.5,24,M,,M,,*6D
06/15/2015	04:03:20.575	$GPGGA,040321,2425.8843,N,08057.1219,W,1,10,2.1,24,M,,M,,*67
06/15/2015	04:03:21.585	$GPGGA,040322,2425.8836,N,08057.1207,W,1,9,1.5,24,M,,M,,*56
06/15/2015	04:03:22.575	$GPGGA,040323,2425.8829,N,08057.1197,W,1,9,1.5,24,M,,M,,*53
06/15/2015	04:03:23.596	$GPGGA,040324,2425.8819,N,08057.1186,W,1,9,1.5,24,M,,M,,*57
06/15/2015	04:03:24.565	$GPGGA,040325,2425.8811,N,08057.1174,W,1,9,1.5,24,M,,M,,*53
06/15/2015	04:03:25.575	$GPGGA,040326,2425.8804,N,08057.1164,W,1,10,1.5,24,M,,M,,*6D
06/15/2015	04:03:26.565	$GPGGA,040327,2425.8795,N,08057.1154,W,1,10,1.5,24,M,,M,,*68
06/15/2015	04:03:27.615	$GPGGA,040328,2425.8788,N,08057.1141,W,1,10,1.5,24,M,,M,,*6F
06/15/2015	04:03:28.556	$GPGGA,040329,2425.8781,N,08057.1130,W,1,10,1.5,24,M,,M,,*61
06/15/2015	04:03:29.565	$GPGGA,040330,2425.8772,N,08057.1119,W,1,10,2.1,25,M,,M,,*68
06/15/2015	04:03:30.555	$GPGGA,040331,2425.8764,N,08057.1107,W,1,10,1.5,25,M,,M,,*66
06/15/2015	04:03:31.615	$GPGGA,040332,2425.8756,N,08057.1094,W,1,10,1.5,25,M,,M,,*6F
06/15/2015	04:03:32.555	$GPGGA,040333,2425.8748,N,08057.1082,W,1,10,1.5,25,M,,M,,*66
06/15/2015	04:03:33.565	$GPGGA,040334,2425.8741,N,08057.1072,W,1,10,1.5,25,M,,M,,*67
06/15/2015	04:03:34.535	$GPGGA,040335,2425.8732,N,08057.1059,W,1,10,2.1,24,M,,M,,*6D
06/15/2015	04:03:35.575	$GPGGA,040336,2425.8723,N,08057.1048,W,1,9,1.5,24,M,,M,,*51
06/15/2015	04:03:36.535	$GPGGA,040337,2425.8716,N,08057.1033,W,1,9,2.1,24,M,,M,,*5D
06/15/2015	04:03:37.565	$GPGGA,040338,2425.8708,N,08057.1022,W,1,9,1.5,24,M,,M,,*5A
06/15/2015	04:03:38.545	$GPGGA,040339,2425.8699,N,08057.1012,W,1,9,1.5,24,M,,M,,*51
06/15/2015	04:03:39.565	$GPGGA,040340,2425.8690,N,08057.1000,W,1,10,1.5,24,M,,M,,*6D
06/15/2015	04:03:40.634	$GPGGA,040341,2425.8682,N,08057.0987,W,1,10,1.5,25,M,,M,,*69
06/15/2015	04:03:41.525	$GPGGA,040342,2425.8674,N,08057.0975,W,1,10,1.5,25,M,,M,,*6E
06/15/2015	04:03:42.525	$GPGGA,040343,2425.8666,N,08057.0962,W,1,10,1.5,25,M,,M,,*6A
06/15/2015	04:03:43.555	$GPGGA,040344,2425.8658,N,08057.0949,W,1,10,1.5,25,M,,M,,*69
06/15/2015	04:03:44.535	$GPGGA,040345,2425.8649,N,08057.0934,W,1,10,2.1,25,M,,M,,*65
06/15/2015	04:03:45.536	$GPGGA,040346,2425.8641,N,08057.0919,W,1,9,2.1,25,M,,M,,*59
06/15/2015	04:03:46.515	$GPGGA,040347,2425.8633,N,08057.0906,W,1,9,2.1,25,M,,M,,*53
06/15/2015	04:03:47.625	$GPGGA,040348,2425.8625,N,08057.0892,W,1,9,2.1,24,M,,M,,*56
06/15/2015	04:03:48.535	$GPGGA,040349,2425.8617,N,08057.0876,W,1,9,2.1,24,M,,M,,*5C
06/15/2015	04:03:49.500	$GPGGA,040350,2425.8609,N,08057.0863,W,1,9,2.1,24,M,,M,,*5F
06/15/2015	04:03:50.525	$GPGGA,040351,2425.8602,N,08057.0850,W,1,9,2.5,24,M,,M,,*51
06/15/2015	04:03:51.536	$GPGGA,040352,2425.8593,N,08057.0837,W,1,8,2.1,24,M,,M,,*5D
06/15/2015	04:03:52.525	$GPGGA,040353,2425.8586,N,08057.0821,W,1,8,1.5,24,M,,M,,*58
06/15/2015	04:03:53.508	$GPGGA,040354,2425.8580,N,08057.0810,W,1,9,1.5,24,M,,M,,*5A
06/15/2015	04:03:54.585	$GPGGA,040355,2425.8571,N,08057.0798,W,1,9,2.5,23,M,,M,,*5E
06/15/2015	04:03:55.625	$GPGGA,040356,2425.8564,N,08057.0787,W,1,8,2.1,23,M,,M,,*52
06/15/2015	04:03:56.597	$GPGGA,040357,2425.8557,N,08057.0774,W,1,8,1.5,23,M,,M,,*58
06/15/2015	04:03:57.585	$GPGGA,040358,2425.8549,N,08057.0765,W,1,10,2.1,23,M,,M,,*66
06/15/2015	04:03:58.584	$GPGGA,040359,2425.8540,N,08057.0753,W,1,10,2.1,23,M,,M,,*6B
06/15/2015	04:03:59.595	$GPGGA,040400,2425.8533,N,08057.0740,W,1,9,1.5,23,M,,M,,*59
06/15/2015	04:04:00.585	$GPGGA,040401,2425.8526,N,08057.0729,W,1,9,1.5,23,M,,M,,*53
06/15/2015	04:04:01.575	$GPGGA,040402,2425.8518,N,08057.0719,W,1,10,1.5,23,M,,M,,*66
06/15/2015	04:04:02.575	$GPGGA,040403,2425.8510,N,08057.0707,W,1,10,1.5,23,M,,M,,*60
06/15/2015	04:04:03.585	$GPGGA,040404,2425.8504,N,08057.0693,W,1,10,2.1,23,M,,M,,*69
06/15/2015	04:04:04.585	$GPGGA,040405,2425.8497,N,08057.0680,W,1,10,2.1,23,M,,M,,*61
06/15/2015	04:04:05.585	$GPGGA,040406,2425.8488,N,08057.0670,W,1,9,1.5,22,M,,M,,*5D
06/15/2015	04:04:06.575	$GPGGA,040407,2425.8483,N,08057.0657,W,1,9,1.5,22,M,,M,,*52
06/15/2015	04:04:07.605	$GPGGA,040408,2425.8483,N,08057.0657,W,1,10,1.5,22,M,,M,,*65
06/15/2015	04:04:08.565	$GPGGA,040409,2425.8467,N,08057.0634,W,1,10,1.5,22,M,,M,,*6B
06/15/2015	04:04:09.585	$GPGGA,040410,2425.8461,N,08057.0623,W,1,10,1.5,22,M,,M,,*63
06/15/2015	04:04:10.565	$GPGGA,040411,2425.8456,N,08057.0607,W,1,10,2.1,22,M,,M,,*67
06/15/2015	04:04:11.595	$GPGGA,040412,2425.8447,N,08057.0597,W,1,9,2.1,22,M,,M,,*56
06/15/2015	04:04:12.555	$GPGGA,040413,2425.8441,N,08057.0587,W,1,9,1.5,22,M,,M,,*57
06/15/2015	04:04:13.555	$GPGGA,040414,2425.8434,N,08057.0574,W,1,10,1.5,22,M,,M,,*66
06/15/2015	04:04:14.555	$GPGGA,040415,2425.8425,N,08057.0563,W,1,10,1.5,22,M,,M,,*61
06/15/2015	04:04:15.555	$GPGGA,040416,2425.8418,N,08057.0550,W,1,10,1.5,22,M,,M,,*6C
06/15/2015	04:04:16.556	$GPGGA,040417,2425.8411,N,08057.0537,W,1,10,1.5,22,M,,M,,*65
06/15/2015	04:04:17.575	$GPGGA,040418,2425.8405,N,08057.0524,W,1,10,1.5,22,M,,M,,*6D
06/15/2015	04:04:18.555	$GPGGA,040419,2425.8398,N,08057.0513,W,1,10,1.5,22,M,,M,,*6B
06/15/2015	04:04:19.555	$GPGGA,040420,2425.8389,N,08057.0501,W,1,10,1.5,23,M,,M,,*63
06/15/2015	04:04:20.545	$GPGGA,040421,2425.8381,N,08057.0487,W,1,10,1.5,23,M,,M,,*65
06/15/2015	04:04:21.545	$GPGGA,040422,2425.8374,N,08057.0473,W,1,9,1.8,23,M,,M,,*52
06/15/2015	04:04:22.535	$GPGGA,040423,2425.8366,N,08057.0462,W,1,9,1.5,23,M,,M,,*5D
06/15/2015	04:04:23.565	$GPGGA,040424,2425.8358,N,08057.0450,W,1,9,1.5,23,M,,M,,*56
06/15/2015	04:04:24.545	$GPGGA,040425,2425.8351,N,08057.0435,W,1,9,1.5,23,M,,M,,*5D
06/15/2015	04:04:25.526	$GPGGA,040426,2425.8345,N,08057.0423,W,1,10,1.5,23,M,,M,,*64
06/15/2015	04:04:26.525	$GPGGA,040427,2425.8338,N,08057.0409,W,1,10,1.5,23,M,,M,,*67
06/15/2015	04:04:27.535	$GPGGA,040428,2425.8330,N,08057.0395,W,1,10,1.5,23,M,,M,,*62
06/15/2015	04:04:28.535	$GPGGA,040429,2425.8323,N,08057.0384,W,1,10,1.5,23,M,,M,,*61
06/15/2015	04:04:29.545	$GPGGA,040430,2425.8316,N,08057.0371,W,1,10,1.5,23,M,,M,,*65
06/15/2015	04:04:30.525	$GPGGA,040431,2425.8309,N,08057.0357,W,1,10,1.5,24,M,,M,,*69
06/15/2015	04:04:31.545	$GPGGA,040432,2425.8302,N,08057.0345,W,1,10,1.5,24,M,,M,,*62
06/15/2015	04:04:32.505	$GPGGA,040433,2425.8295,N,08057.0333,W,1,10,1.5,24,M,,M,,*6D
06/15/2015	04:04:33.524	$GPGGA,040434,2425.8288,N,08057.0319,W,1,9,2.1,24,M,,M,,*51
06/15/2015	04:04:34.515	$GPGGA,040435,2425.8281,N,08057.0306,W,1,9,2.1,24,M,,M,,*57
06/15/2015	04:04:35.645	$GPGGA,040436,2425.8275,N,08057.0291,W,1,10,1.5,24,M,,M,,*6F
06/15/2015	04:04:36.525	$GPGGA,040437,2425.8266,N,08057.0280,W,1,10,2.5,24,M,,M,,*6F
06/15/2015	04:04:37.615	$GPGGA,040438,2425.8259,N,08057.0267,W,1,9,2.1,24,M,,M,,*59
06/15/2015	04:04:38.515	$GPGGA,040439,2425.8252,N,08057.0253,W,1,9,2.1,24,M,,M,,*54
06/15/2015	04:04:39.525	$GPGGA,040440,2425.8243,N,08057.0244,W,1,10,1.5,24,M,,M,,*63
06/15/2015	04:04:40.609	$GPGGA,040441,2425.8235,N,08057.0232,W,1,10,1.5,24,M,,M,,*62
06/15/2015	04:04:41.485	$GPGGA,040442,2425.8229,N,08057.0217,W,1,9,2.1,24,M,,M,,*54
06/15/2015	04:04:42.585	$GPGGA,040443,2425.8222,N,08057.0204,W,1,9,2.1,24,M,,M,,*5C
06/15/2015	04:04:43.516	$GPGGA,040444,2425.8211,N,08057.0193,W,1,9,2.1,24,M,,M,,*56
06/15/2015	04:04:44.585	$GPGGA,040445,2425.8203,N,08057.0181,W,1,9,2.1,24,M,,M,,*57
06/15/2015	04:04:45.599	$GPGGA,040446,2425.8197,N,08057.0167,W,1,9,1.5,24,M,,M,,*55
06/15/2015	04:04:46.599	$GPGGA,040447,2425.8188,N,08057.0156,W,1,9,1.5,24,M,,M,,*58
06/15/2015	04:04:47.600	$GPGGA,040448,2425.8177,N,08057.0147,W,1,10,1.5,24,M,,M,,*6F
06/15/2015	04:04:48.575	$GPGGA,040449,2425.8170,N,08057.0133,W,1,10,1.5,24,M,,M,,*6A
06/15/2015	04:04:49.597	$GPGGA,040450,2425.8163,N,08057.0120,W,1,9,2.1,24,M,,M,,*5D
06/15/2015	04:04:50.574	$GPGGA,040451,2425.8154,N,08057.0108,W,1,9,1.5,24,M,,M,,*55
06/15/2015	04:04:51.599	$GPGGA,040452,2425.8145,N,08057.0097,W,1,9,2.1,24,M,,M,,*56
06/15/2015	04:04:53.615	$GPGGA,040454,2425.8128,N,08057.0071,W,1,10,1.5,24,M,,M,,*6C
06/15/2015	04:04:54.575	$GPGGA,040455,2425.8120,N,08057.0061,W,1,10,2.1,24,M,,M,,*63
06/15/2015	04:04:55.603	$GPGGA,040456,2425.8112,N,08057.0046,W,1,10,1.5,24,M,,M,,*63
06/15/2015	04:04:56.576	$GPGGA,040457,2425.8105,N,08057.0033,W,1,10,1.5,24,M,,M,,*66
06/15/2015	04:04:57.585	$GPGGA,040458,2425.8096,N,08057.0023,W,1,10,1.5,24,M,,M,,*63
06/15/2015	04:04:58.565	$GPGGA,040459,2425.8087,N,08057.0012,W,1,10,1.5,24,M,,M,,*60
06/15/2015	04:04:59.601	$GPGGA,040500,2425.8080,N,08056.9998,W,1,10,1.5,24,M,,M,,*69
06/15/2015	04:05:00.566	$GPGGA,040501,2425.8074,N,08056.9984,W,1,10,1.5,24,M,,M,,*6E
06/15/2015	04:05:01.575	$GPGGA,040502,2425.8066,N,08056.9972,W,1,10,1.5,24,M,,M,,*67
06/15/2015	04:05:02.555	$GPGGA,040503,2425.8056,N,08056.9963,W,1,10,2.1,23,M,,M,,*65
06/15/2015	04:05:03.585	$GPGGA,040504,2425.8049,N,08056.9953,W,1,10,1.5,23,M,,M,,*68
06/15/2015	04:05:04.545	$GPGGA,040505,2425.8042,N,08056.9937,W,1,10,1.5,23,M,,M,,*60
06/15/2015	04:05:05.565	$GPGGA,040506,2425.8035,N,08056.9928,W,1,9,2.1,23,M,,M,,*52
06/15/2015	04:05:06.535	$GPGGA,040507,2425.8026,N,08056.9915,W,1,9,1.5,23,M,,M,,*58
06/15/2015	04:05:07.575	$GPGGA,040508,2425.8018,N,08056.9899,W,1,9,2.1,23,M,,M,,*58
06/15/2015	04:05:08.544	$GPGGA,040509,2425.8011,N,08056.9887,W,1,9,2.5,23,M,,M,,*5B
06/15/2015	04:05:09.565	$GPGGA,040510,2425.8004,N,08056.9878,W,1,10,1.5,23,M,,M,,*6C
06/15/2015	04:05:10.546	$GPGGA,040511,2425.7993,N,08056.9866,W,1,10,1.5,23,M,,M,,*6A
06/15/2015	04:05:11.565	$GPGGA,040512,2425.7986,N,08056.9853,W,1,9,2.1,23,M,,M,,*54
06/15/2015	04:05:12.525	$GPGGA,040513,2425.7979,N,08056.9841,W,1,9,2.1,23,M,,M,,*56
06/15/2015	04:05:13.525	$GPGGA,040514,2425.7969,N,08056.9829,W,1,9,2.1,23,M,,M,,*5E
06/15/2015	04:05:14.535	$GPGGA,040515,2425.7962,N,08056.9813,W,1,9,2.1,23,M,,M,,*5D
06/15/2015	04:05:15.525	$GPGGA,040516,2425.7954,N,08056.9796,W,1,8,2.5,23,M,,M,,*5C
06/15/2015	04:05:16.517	$GPGGA,040517,2425.7946,N,08056.9782,W,1,8,2.5,23,M,,M,,*5B
06/15/2015	04:05:17.535	$GPGGA,040518,2425.7939,N,08056.9768,W,1,8,2.5,23,M,,M,,*58
06/15/2015	04:05:18.535	$GPGGA,040519,2425.7930,N,08056.9758,W,1,8,2.1,23,M,,M,,*57
06/15/2015	04:05:19.535	$GPGGA,040520,2425.7922,N,08056.9745,W,1,10,1.5,23,M,,M,,*6C
06/15/2015	04:05:20.525	$GPGGA,040521,2425.7914,N,08056.9732,W,1,10,1.5,23,M,,M,,*68
06/15/2015	04:05:21.525	$GPGGA,040522,2425.7905,N,08056.9719,W,1,9,2.1,23,M,,M,,*5D
06/15/2015	04:05:22.625	$GPGGA,040523,2425.7898,N,08056.9701,W,1,9,2.1,22,M,,M,,*51
06/15/2015	04:05:23.625	$GPGGA,040524,2425.7890,N,08056.9690,W,1,8,2.5,22,M,,M,,*52
06/15/2015	04:05:24.516	$GPGGA,040525,2425.7879,N,08056.9682,W,1,8,1.5,22,M,,M,,*54
06/15/2015	04:05:25.624	$GPGGA,040526,2425.7871,N,08056.9667,W,1,10,1.5,22,M,,M,,*6D
06/15/2015	04:05:26.505	$GPGGA,040527,2425.7863,N,08056.9654,W,1,10,2.5,22,M,,M,,*6C
06/15/2015	04:05:27.645	$GPGGA,040528,2425.7854,N,08056.9642,W,1,9,2.1,22,M,,M,,*5C
06/15/2015	04:05:28.603	$GPGGA,040529,2425.7845,N,08056.9633,W,1,9,1.5,22,M,,M,,*5C
06/15/2015	04:05:29.625	$GPGGA,040530,2425.7838,N,08056.9619,W,1,9,2.1,22,M,,M,,*51
06/15/2015	04:05:30.603	$GPGGA,040531,2425.7829,N,08056.9606,W,1,9,1.5,22,M,,M,,*59
06/15/2015	04:05:31.635	$GPGGA,040532,2425.7820,N,08056.9594,W,1,10,1.5,22,M,,M,,*63
06/15/2015	04:05:32.596	$GPGGA,040533,2425.7813,N,08056.9580,W,1,10,1.5,22,M,,M,,*67
06/15/2015	04:05:33.585	$GPGGA,040534,2425.7806,N,08056.9563,W,1,9,2.1,22,M,,M,,*56
06/15/2015	04:05:34.585	$GPGGA,040535,2425.7798,N,08056.9549,W,1,9,1.5,22,M,,M,,*50
06/15/2015	04:05:35.606	$GPGGA,040536,2425.7789,N,08056.9536,W,1,10,1.5,22,M,,M,,*63
06/15/2015	04:05:36.585	$GPGGA,040537,2425.7781,N,08056.9522,W,1,10,1.5,22,M,,M,,*6F
06/15/2015	04:05:37.575	$GPGGA,040538,2425.7773,N,08056.9509,W,1,10,1.5,22,M,,M,,*64
06/15/2015	04:05:38.575	$GPGGA,040539,2425.7766,N,08056.9497,W,1,10,2.1,22,M,,M,,*60
06/15/2015	04:05:39.596	$GPGGA,040540,2425.7757,N,08056.9483,W,1,10,1.5,22,M,,M,,*6E
06/15/2015	04:05:40.575	$GPGGA,040541,2425.7749,N,08056.9470,W,1,10,2.1,22,M,,M,,*6B
06/15/2015	04:05:42.035	$GPGGA,040542,2425.7742,N,08056.9460,W,1,9,2.1,22,M,,M,,*5A
06/15/2015	04:05:42.565	$GPGGA,040543,2425.7733,N,08056.9444,W,1,9,1.5,22,M,,M,,*5C
06/15/2015	04:05:43.595	$GPGGA,040544,2425.7726,N,08056.9428,W,1,8,2.5,22,M,,M,,*57
06/15/2015	04:05:44.565	$GPGGA,040545,2425.7719,N,08056.9416,W,1,8,2.5,21,M,,M,,*54
06/15/2015	04:05:45.576	$GPGGA,040546,2425.7710,N,08056.9402,W,1,9,2.1,21,M,,M,,*5E
06/15/2015	04:05:46.566	$GPGGA,040547,2425.7702,N,08056.9392,W,1,9,1.5,21,M,,M,,*55
06/15/2015	04:05:47.565	$GPGGA,040548,2425.7694,N,08056.9378,W,1,10,1.5,21,M,,M,,*68
06/15/2015	04:05:48.555	$GPGGA,040549,2425.7686,N,08056.9366,W,1,10,2.5,21,M,,M,,*66
06/15/2015	04:05:49.575	$GPGGA,040550,2425.7679,N,08056.9352,W,1,9,1.5,21,M,,M,,*52
06/15/2015	04:05:50.555	$GPGGA,040551,2425.7672,N,08056.9341,W,1,9,1.5,21,M,,M,,*5A
06/15/2015	04:05:51.585	$GPGGA,040552,2425.7662,N,08056.9330,W,1,10,1.5,21,M,,M,,*66
06/15/2015	04:05:52.545	$GPGGA,040553,2425.7655,N,08056.9316,W,1,10,1.5,21,M,,M,,*67
06/15/2015	04:05:53.555	$GPGGA,040554,2425.7650,N,08056.9300,W,1,9,2.1,21,M,,M,,*5D
06/15/2015	04:05:54.535	$GPGGA,040555,2425.7641,N,08056.9288,W,1,9,1.5,21,M,,M,,*5A
06/15/2015	04:05:55.575	$GPGGA,040556,2425.7632,N,08056.9277,W,1,9,2.1,21,M,,M,,*5A
06/15/2015	04:05:56.545	$GPGGA,040557,2425.7625,N,08056.9265,W,1,9,1.5,21,M,,M,,*59
06/15/2015	04:05:57.555	$GPGGA,040558,2425.7619,N,08056.9251,W,1,10,1.5,21,M,,M,,*66
06/15/2015	04:05:58.545	$GPGGA,040559,2425.7610,N,08056.9240,W,1,10,2.1,21,M,,M,,*69
06/15/2015	04:05:59.585	$GPGGA,040600,2425.7601,N,08056.9228,W,1,9,2.1,21,M,,M,,*50
06/15/2015	04:06:00.524	$GPGGA,040601,2425.7596,N,08056.9213,W,1,9,1.5,21,M,,M,,*53
06/15/2015	04:06:01.565	$GPGGA,040602,2425.7589,N,08056.9200,W,1,9,1.5,21,M,,M,,*5C
06/15/2015	04:06:02.535	$GPGGA,040603,2425.7579,N,08056.9188,W,1,9,1.5,21,M,,M,,*51
06/15/2015	04:06:03.545	$GPGGA,040604,2425.7572,N,08056.9176,W,1,9,2.1,21,M,,M,,*5B
06/15/2015	04:06:04.525	$GPGGA,040605,2425.7567,N,08056.9163,W,1,9,1.5,21,M,,M,,*5D
06/15/2015	04:06:05.515	$GPGGA,040606,2425.7556,N,08056.9153,W,1,9,1.5,21,M,,M,,*5F
06/15/2015	04:06:06.515	$GPGGA,040607,2425.7549,N,08056.9143,W,1,9,1.5,21,M,,M,,*51
06/15/2015	04:06:07.545	$GPGGA,040608,2425.7543,N,08056.9125,W,1,10,1.5,21,M,,M,,*6C
06/15/2015	04:06:08.515	$GPGGA,040609,2425.7534,N,08056.9114,W,1,10,2.5,21,M,,M,,*6C
06/15/2015	04:06:09.515	$GPGGA,040610,2425.7527,N,08056.9103,W,1,10,1.5,21,M,,M,,*63
06/15/2015	04:06:10.505	$GPGGA,040611,2425.7520,N,08056.9089,W,1,10,1.4,21,M,,M,,*67
06/15/2015	04:06:11.525	$GPGGA,040612,2425.7513,N,08056.9077,W,1,10,1.4,21,M,,M,,*65
06/15/2015	04:06:12.515	$GPGGA,040613,2425.7504,N,08056.9064,W,1,10,1.4,21,M,,M,,*60
06/15/2015	04:06:13.535	$GPGGA,040614,2425.7497,N,08056.9051,W,1,10,1.4,21,M,,M,,*6A
06/15/2015	04:06:14.501	$GPGGA,040615,2425.7489,N,08056.9038,W,1,10,2.1,21,M,,M,,*6D
06/15/2015	04:06:15.665	$GPGGA,040616,2425.7482,N,08056.9022,W,1,9,2.5,21,M,,M,,*52
06/15/2015	04:06:16.507	$GPGGA,040617,2425.7475,N,08056.9010,W,1,9,2.5,21,M,,M,,*5A
06/15/2015	04:06:17.665	$GPGGA,040618,2425.7468,N,08056.8998,W,1,10,1.4,21,M,,M,,*6B
06/15/2015	04:06:18.495	$GPGGA,040619,2425.7460,N,08056.8984,W,1,10,1.4,21,M,,M,,*6F
06/15/2015	04:06:19.515	$GPGGA,040620,2425.7451,N,08056.8975,W,1,8,2.5,21,M,,M,,*52
06/15/2015	04:06:20.497	$GPGGA,040621,2425.7445,N,08056.8961,W,1,8,2.1,21,M,,M,,*57
06/15/2015	04:06:21.918	$GPGGA,040622,2425.7438,N,08056.8949,W,1,10,1.4,21,M,,M,,*6B
06/15/2015	04:06:22.585	$GPGGA,040623,2425.7427,N,08056.8941,W,1,10,1.4,21,M,,M,,*6C
06/15/2015	04:06:23.665	$GPGGA,040624,2425.7419,N,08056.8931,W,1,10,2.1,21,M,,M,,*67
06/15/2015	04:06:24.508	$GPGGA,040625,2425.7413,N,08056.8920,W,1,10,2.1,21,M,,M,,*6C
06/15/2015	04:06:25.475	$GPGGA,040626,2425.7405,N,08056.8908,W,1,9,2.1,21,M,,M,,*5A
06/15/2015	04:06:26.495	$GPGGA,040627,2425.7397,N,08056.8898,W,1,9,2.1,21,M,,M,,*5F
06/15/2015	04:06:27.645	$GPGGA,040628,2425.7387,N,08056.8888,W,1,9,2.1,21,M,,M,,*50
06/15/2015	04:06:28.645	$GPGGA,040629,2425.7380,N,08056.8877,W,1,9,1.4,21,M,,M,,*50
06/15/2015	04:06:29.605	$GPGGA,040630,2425.7372,N,08056.8863,W,1,10,2.1,21,M,,M,,*6E
06/15/2015	04:06:31.119	$GPGGA,040631,2425.7365,N,08056.8850,W,1,10,1.4,21,M,,M,,*6F
06/15/2015	04:06:31.625	$GPGGA,040632,2425.7356,N,08056.8841,W,1,10,1.4,21,M,,M,,*6C
06/15/2015	04:06:32.635	$GPGGA,040633,2425.7347,N,08056.8828,W,1,10,1.4,21,M,,M,,*62
06/15/2015	04:06:33.595	$GPGGA,040634,2425.7340,N,08056.8813,W,1,10,2.1,21,M,,M,,*6C
06/15/2015	04:06:34.635	$GPGGA,040635,2425.7334,N,08056.8801,W,1,10,2.1,21,M,,M,,*6D
06/15/2015	04:06:35.654	$GPGGA,040636,2425.7325,N,08056.8789,W,1,9,2.1,21,M,,M,,*59
06/15/2015	04:06:36.625	$GPGGA,040637,2425.7318,N,08056.8774,W,1,9,2.1,21,M,,M,,*54
06/15/2015	04:06:37.655	$GPGGA,040638,2425.7310,N,08056.8764,W,1,8,1.4,21,M,,M,,*55
06/15/2015	04:06:38.545	$GPGGA,040639,2425.7303,N,08056.8750,W,1,8,1.4,21,M,,M,,*51
06/15/2015	04:06:39.645	$GPGGA,040640,2425.7296,N,08056.8738,W,1,10,2.1,21,M,,M,,*63
06/15/2015	04:06:40.625	$GPGGA,040641,2425.7286,N,08056.8729,W,1,10,2.1,21,M,,M,,*63
06/15/2015	04:06:41.545	$GPGGA,040642,2425.7279,N,08056.8718,W,1,10,1.4,21,M,,M,,*64
06/15/2015	04:06:42.615	$GPGGA,040643,2425.7271,N,08056.8705,W,1,10,2.1,21,M,,M,,*67
06/15/2015	04:06:43.597	$GPGGA,040644,2425.7262,N,08056.8693,W,1,9,2.1,21,M,,M,,*54
06/15/2015	04:06:44.585	$GPGGA,040645,2425.7254,N,08056.8681,W,1,9,1.4,21,M,,M,,*55
06/15/2015	04:06:45.585	$GPGGA,040646,2425.7247,N,08056.8668,W,1,10,2.1,21,M,,M,,*6D
06/15/2015	04:06:46.599	$GPGGA,040647,2425.7238,N,08056.8658,W,1,10,2.1,21,M,,M,,*67
06/15/2015	04:06:47.545	$GPGGA,040648,2425.7229,N,08056.8650,W,1,9,1.5,21,M,,M,,*5F
06/15/2015	04:06:48.585	$GPGGA,040649,2425.7221,N,08056.8639,W,1,9,2.1,22,M,,M,,*5D
06/15/2015	04:06:49.575	$GPGGA,040650,2425.7213,N,08056.8627,W,1,9,1.5,22,M,,M,,*5C
06/15/2015	04:06:50.575	$GPGGA,040651,2425.7206,N,08056.8613,W,1,9,1.5,22,M,,M,,*5E
06/15/2015	04:06:51.575	$GPGGA,040652,2425.7199,N,08056.8598,W,1,9,2.1,22,M,,M,,*5F
06/15/2015	04:06:52.521	$GPGGA,040653,2425.7191,N,08056.8585,W,1,9,2.1,22,M,,M,,*5A
06/15/2015	04:06:53.507	$GPGGA,040654,2425.7182,N,08056.8571,W,1,9,2.1,22,M,,M,,*54
06/15/2015	04:06:54.575	$GPGGA,040655,2425.7173,N,08056.8557,W,1,9,2.1,22,M,,M,,*5F
06/15/2015	04:06:55.610	$GPGGA,040656,2425.7166,N,08056.8543,W,1,9,2.1,22,M,,M,,*5D
06/15/2015	04:06:56.576	$GPGGA,040657,2425.7159,N,08056.8532,W,1,9,2.1,22,M,,M,,*56
06/15/2015	04:06:57.510	$GPGGA,040658,2425.7149,N,08056.8522,W,1,9,2.1,22,M,,M,,*59
06/15/2015	04:06:58.510	$GPGGA,040659,2425.7141,N,08056.8508,W,1,9,2.1,22,M,,M,,*58
06/15/2015	04:06:59.575	$GPGGA,040700,2425.7134,N,08056.8494,W,1,9,2.1,22,M,,M,,*53
06/15/2015	04:07:00.500	$GPGGA,040701,2425.7126,N,08056.8480,W,1,9,2.1,22,M,,M,,*54
06/15/2015	04:07:01.535	$GPGGA,040702,2425.7119,N,08056.8467,W,1,8,2.1,21,M,,M,,*50
06/15/2015	04:07:02.598	$GPGGA,040703,2425.7110,N,08056.8453,W,1,8,1.4,21,M,,M,,*59
06/15/2015	04:07:03.855	$GPGGA,040704,2425.7102,N,08056.8443,W,1,10,1.4,21,M,,M,,*65
06/15/2015	04:07:04.555	$GPGGA,040705,2425.7094,N,08056.8432,W,1,10,1.4,21,M,,M,,*6C
06/15/2015	04:07:05.605	$GPGGA,040706,2425.7086,N,08056.8420,W,1,10,1.4,21,M,,M,,*6F
06/15/2015	04:07:06.545	$GPGGA,040707,2425.7079,N,08056.8406,W,1,10,1.4,21,M,,M,,*6A
06/15/2015	04:07:07.555	$GPGGA,040708,2425.7072,N,08056.8394,W,1,10,2.1,21,M,,M,,*64
06/15/2015	04:07:08.535	$GPGGA,040709,2425.7063,N,08056.8382,W,1,10,2.1,21,M,,M,,*62
06/15/2015	04:07:09.605	$GPGGA,040710,2425.7056,N,08056.8370,W,1,9,1.4,21,M,,M,,*5F
06/15/2015	04:07:10.534	$GPGGA,040711,2425.7049,N,08056.8358,W,1,9,1.4,21,M,,M,,*5A
06/15/2015	04:07:11.604	$GPGGA,040712,2425.7041,N,08056.8346,W,1,10,2.1,21,M,,M,,*60
06/15/2015	04:07:12.544	$GPGGA,040713,2425.7034,N,08056.8333,W,1,10,2.1,21,M,,M,,*61
06/15/2015	04:07:13.594	$GPGGA,040714,2425.7026,N,08056.8319,W,1,9,2.1,21,M,,M,,*55
06/15/2015	04:07:14.565	$GPGGA,040715,2425.7020,N,08056.8306,W,1,9,1.4,21,M,,M,,*5A
06/15/2015	04:07:15.574	$GPGGA,040716,2425.7014,N,08056.8294,W,1,10,1.4,21,M,,M,,*6C
06/15/2015	04:07:16.564	$GPGGA,040717,2425.7004,N,08056.8281,W,1,10,1.4,21,M,,M,,*68
06/15/2015	04:07:17.554	$GPGGA,040718,2425.7000,N,08056.8267,W,1,10,1.5,21,M,,M,,*6A
06/15/2015	04:07:18.574	$GPGGA,040719,2425.6992,N,08056.8254,W,1,10,1.4,21,M,,M,,*69
06/15/2015	04:07:19.564	$GPGGA,040720,2425.6983,N,08056.8244,W,1,10,1.4,21,M,,M,,*62
06/15/2015	04:07:20.564	$GPGGA,040721,2425.6976,N,08056.8232,W,1,10,2.0,21,M,,M,,*6F
06/15/2015	04:07:21.584	$GPGGA,040722,2425.6969,N,08056.8219,W,1,9,1.4,21,M,,M,,*54
06/15/2015	04:07:22.565	$GPGGA,040723,2425.6962,N,08056.8208,W,1,9,1.4,21,M,,M,,*5E
06/15/2015	04:07:23.605	$GPGGA,040724,2425.6954,N,08056.8197,W,1,10,2.0,21,M,,M,,*66
06/15/2015	04:07:24.575	$GPGGA,040725,2425.6946,N,08056.8185,W,1,10,1.4,21,M,,M,,*60
06/15/2015	04:07:25.555	$GPGGA,040726,2425.6942,N,08056.8169,W,1,10,2.0,21,M,,M,,*62
06/15/2015	04:07:26.555	$GPGGA,040727,2425.6935,N,08056.8158,W,1,10,1.4,21,M,,M,,*66
06/15/2015	04:07:28.574	$GPGGA,040729,2425.6918,N,08056.8137,W,1,10,1.4,22,M,,M,,*6D
06/15/2015	04:07:29.554	$GPGGA,040730,2425.6913,N,08056.8122,W,1,10,1.4,22,M,,M,,*6A
06/15/2015	04:07:30.544	$GPGGA,040731,2425.6904,N,08056.8109,W,1,10,1.4,22,M,,M,,*64
06/15/2015	04:07:31.574	$GPGGA,040732,2425.6896,N,08056.8097,W,1,10,1.4,22,M,,M,,*6B
06/15/2015	04:07:32.544	$GPGGA,040733,2425.6888,N,08056.8086,W,1,10,2.0,22,M,,M,,*62
06/15/2015	04:07:33.544	$GPGGA,040734,2425.6882,N,08056.8072,W,1,9,2.0,22,M,,M,,*5C
06/15/2015	04:07:34.524	$GPGGA,040735,2425.6874,N,08056.8060,W,1,9,1.4,22,M,,M,,*50
06/15/2015	04:07:35.854	$GPGGA,040736,2425.6867,N,08056.8051,W,1,10,1.5,22,M,,M,,*6A
06/15/2015	04:07:36.554	$GPGGA,040737,2425.6860,N,08056.8037,W,1,10,2.5,22,M,,M,,*6F
06/15/2015	04:07:37.544	$GPGGA,040738,2425.6852,N,08056.8025,W,1,8,2.0,22,M,,M,,*5E
06/15/2015	04:07:38.514	$GPGGA,040739,2425.6852,N,08056.8025,W,1,8,2.0,22,M,,M,,*5F
06/15/2015	04:07:39.545	$GPGGA,040740,2425.6838,N,08056.7999,W,1,9,2.0,22,M,,M,,*5D
06/15/2015	04:07:40.535	$GPGGA,040741,2425.6830,N,08056.7991,W,1,9,2.0,22,M,,M,,*5C
06/15/2015	04:07:41.515	$GPGGA,040742,2425.6821,N,08056.7984,W,1,9,2.0,22,M,,M,,*5B
06/15/2015	04:07:42.535	$GPGGA,040743,2425.6815,N,08056.7971,W,1,9,2.0,22,M,,M,,*57
06/15/2015	04:07:43.555	$GPGGA,040744,2425.6807,N,08056.7960,W,1,9,2.2,22,M,,M,,*51
06/15/2015	04:07:44.525	$GPGGA,040745,2425.6798,N,08056.7949,W,1,9,2.0,22,M,,M,,*50
06/15/2015	04:07:45.606	$GPGGA,040746,2425.6790,N,08056.7936,W,1,9,2.0,22,M,,M,,*53
06/15/2015	04:07:46.534	$GPGGA,040747,2425.6784,N,08056.7922,W,1,9,2.0,22,M,,M,,*52
06/15/2015	04:07:47.514	$GPGGA,040748,2425.6776,N,08056.7912,W,1,9,2.0,22,M,,M,,*53
06/15/2015	04:07:48.844	$GPGGA,040749,2425.6776,N,08056.7912,W,1,9,2.0,22,M,,M,,*52
06/15/2015	04:07:49.500	$GPGGA,040750,2425.6761,N,08056.7890,W,1,9,1.4,23,M,,M,,*51
06/15/2015	04:07:50.587	$GPGGA,040751,2425.6754,N,08056.7875,W,1,9,1.4,23,M,,M,,*5D
06/15/2015	04:07:51.514	$GPGGA,040752,2425.6745,N,08056.7865,W,1,9,2.0,23,M,,M,,*58
06/15/2015	04:07:52.514	$GPGGA,040753,2425.6745,N,08056.7865,W,1,9,1.5,23,M,,M,,*5F
06/15/2015	04:07:53.495	$GPGGA,040754,2425.6730,N,08056.7840,W,1,10,1.4,23,M,,M,,*64
06/15/2015	04:07:54.500	$GPGGA,040755,2425.6730,N,08056.7840,W,1,10,1.4,23,M,,M,,*65
06/15/2015	04:07:55.624	$GPGGA,040756,2425.6712,N,08056.7822,W,1,10,1.4,23,M,,M,,*62
06/15/2015	04:07:56.598	$GPGGA,040757,2425.6704,N,08056.7808,W,1,10,1.4,23,M,,M,,*6C
06/15/2015	04:07:57.597	$GPGGA,040758,2425.6696,N,08056.7796,W,1,10,1.4,23,M,,M,,*61
06/15/2015	04:07:58.590	$GPGGA,040759,2425.6687,N,08056.7788,W,1,10,1.4,23,M,,M,,*6F
06/15/2015	04:07:59.590	$GPGGA,040800,2425.6678,N,08056.7777,W,1,9,1.5,23,M,,M,,*55
06/15/2015	04:08:00.505	$GPGGA,040801,2425.6678,N,08056.7777,W,1,9,1.4,23,M,,M,,*55
06/15/2015	04:08:01.588	$GPGGA,040802,2425.6664,N,08056.7749,W,1,9,2.0,23,M,,M,,*51
06/15/2015	04:08:02.565	$GPGGA,040803,2425.6654,N,08056.7738,W,1,9,1.5,23,M,,M,,*53
06/15/2015	04:08:03.604	$GPGGA,040804,2425.6646,N,08056.7725,W,1,9,2.0,23,M,,M,,*5D
06/15/2015	04:08:04.554	$GPGGA,040805,2425.6639,N,08056.7712,W,1,9,2.5,23,M,,M,,*55
06/15/2015	04:08:05.588	$GPGGA,040806,2425.6630,N,08056.7701,W,1,9,2.0,23,M,,M,,*58
06/15/2015	04:08:06.544	$GPGGA,040807,2425.6621,N,08056.7692,W,1,9,1.4,23,M,,M,,*55
06/15/2015	04:08:07.604	$GPGGA,040808,2425.6614,N,08056.7679,W,1,10,1.4,23,M,,M,,*61
06/15/2015	04:08:08.544	$GPGGA,040809,2425.6607,N,08056.7665,W,1,10,2.5,23,M,,M,,*6D
06/15/2015	04:08:09.574	$GPGGA,040810,2425.6599,N,08056.7653,W,1,9,2.0,23,M,,M,,*59
06/15/2015	04:08:10.544	$GPGGA,040811,2425.6590,N,08056.7639,W,1,9,2.0,23,M,,M,,*5D
06/15/2015	04:08:11.574	$GPGGA,040812,2425.6583,N,08056.7633,W,1,8,2.4,22,M,,M,,*52
06/15/2015	04:08:12.544	$GPGGA,040813,2425.6575,N,08056.7624,W,1,8,1.4,22,M,,M,,*5F
06/15/2015	04:08:13.554	$GPGGA,040814,2425.6566,N,08056.7612,W,1,10,1.4,22,M,,M,,*66
06/15/2015	04:08:14.545	$GPGGA,040815,2425.6559,N,08056.7601,W,1,10,1.4,22,M,,M,,*69
06/15/2015	04:08:15.575	$GPGGA,040816,2425.6550,N,08056.7591,W,1,10,1.4,22,M,,M,,*69
06/15/2015	04:08:16.545	$GPGGA,040817,2425.6542,N,08056.7579,W,1,10,1.4,22,M,,M,,*6D
06/15/2015	04:08:17.555	$GPGGA,040818,2425.6537,N,08056.7564,W,1,10,1.4,22,M,,M,,*6C
06/15/2015	04:08:18.525	$GPGGA,040819,2425.6530,N,08056.7551,W,1,10,1.5,22,M,,M,,*6D
06/15/2015	04:08:19.565	$GPGGA,040820,2425.6520,N,08056.7540,W,1,10,1.4,22,M,,M,,*67
06/15/2015	04:08:20.524	$GPGGA,040821,2425.6512,N,08056.7530,W,1,10,2.0,22,M,,M,,*67
06/15/2015	04:08:21.544	$GPGGA,040822,2425.6506,N,08056.7516,W,1,9,2.0,22,M,,M,,*5D
06/15/2015	04:08:22.524	$GPGGA,040823,2425.6498,N,08056.7504,W,1,9,2.0,22,M,,M,,*59
06/15/2015	04:08:23.564	$GPGGA,040824,2425.6490,N,08056.7493,W,1,9,2.0,22,M,,M,,*59
06/15/2015	04:08:24.534	$GPGGA,040825,2425.6483,N,08056.7481,W,1,9,2.0,23,M,,M,,*58
06/15/2015	04:08:25.524	$GPGGA,040826,2425.6476,N,08056.7466,W,1,9,2.0,23,M,,M,,*58
06/15/2015	04:08:26.514	$GPGGA,040827,2425.6469,N,08056.7452,W,1,9,2.0,23,M,,M,,*50
06/15/2015	04:08:27.534	$GPGGA,040828,2425.6461,N,08056.7439,W,1,9,2.0,23,M,,M,,*5A
06/15/2015	04:08:28.524	$GPGGA,040829,2425.6454,N,08056.7425,W,1,9,2.0,23,M,,M,,*50
06/15/2015	04:08:29.544	$GPGGA,040830,2425.6445,N,08056.7411,W,1,8,2.6,23,M,,M,,*58
06/15/2015	04:08:30.514	$GPGGA,040831,2425.6436,N,08056.7398,W,1,8,2.0,23,M,,M,,*5D
06/15/2015	04:08:31.514	$GPGGA,040832,2425.6430,N,08056.7383,W,1,9,2.0,23,M,,M,,*53
06/15/2015	04:08:32.515	$GPGGA,040833,2425.6423,N,08056.7369,W,1,9,2.0,23,M,,M,,*54
06/15/2015	04:08:33.515	$GPGGA,040834,2425.6414,N,08056.7356,W,1,9,2.0,23,M,,M,,*5B
06/15/2015	04:08:34.505	$GPGGA,040835,2425.6407,N,08056.7342,W,1,9,2.0,23,M,,M,,*5D
06/15/2015	04:08:35.615	$GPGGA,040836,2425.6400,N,08056.7328,W,1,9,2.0,23,M,,M,,*55
06/15/2015	04:08:36.496	$GPGGA,040837,2425.6393,N,08056.7315,W,1,9,2.0,23,M,,M,,*57
06/15/2015	04:08:37.505	$GPGGA,040838,2425.6386,N,08056.7300,W,1,9,2.0,23,M,,M,,*58
06/15/2015	04:08:38.487	$GPGGA,040839,2425.6379,N,08056.7286,W,1,9,2.0,23,M,,M,,*56
06/15/2015	04:08:39.484	$GPGGA,040840,2425.6371,N,08056.7275,W,1,9,2.0,24,M,,M,,*5B
06/15/2015	04:08:40.504	$GPGGA,040841,2425.6364,N,08056.7263,W,1,9,2.1,24,M,,M,,*58
06/15/2015	04:08:41.614	$GPGGA,040842,2425.6357,N,08056.7249,W,1,10,1.4,24,M,,M,,*6D
06/15/2015	04:08:42.494	$GPGGA,040843,2425.6351,N,08056.7240,W,1,10,1.4,24,M,,M,,*63
06/15/2015	04:08:43.504	$GPGGA,040844,2425.6342,N,08056.7232,W,1,9,1.5,24,M,,M,,*5A
06/15/2015	04:08:44.494	$GPGGA,040845,2425.6333,N,08056.7219,W,1,9,1.5,24,M,,M,,*54
06/15/2015	04:08:45.574	$GPGGA,040846,2425.6329,N,08056.7206,W,1,10,1.4,24,M,,M,,*6B
06/15/2015	04:08:46.488	$GPGGA,040847,2425.6322,N,08056.7197,W,1,10,2.0,24,M,,M,,*6D
06/15/2015	04:08:47.484	$GPGGA,040848,2425.6312,N,08056.7186,W,1,10,1.4,24,M,,M,,*66
06/15/2015	04:08:48.564	$GPGGA,040849,2425.6306,N,08056.7175,W,1,10,1.5,25,M,,M,,*6E
06/15/2015	04:08:49.587	$GPGGA,040850,2425.6300,N,08056.7165,W,1,9,1.5,25,M,,M,,*59
06/15/2015	04:08:50.555	$GPGGA,040851,2425.6292,N,08056.7153,W,1,9,1.4,25,M,,M,,*56
06/15/2015	04:08:51.615	$GPGGA,040852,2425.6285,N,08056.7142,W,1,10,1.4,25,M,,M,,*6B
06/15/2015	04:08:52.565	$GPGGA,040853,2425.6278,N,08056.7130,W,1,10,1.4,25,M,,M,,*6D
06/15/2015	04:08:53.565	$GPGGA,040854,2425.6271,N,08056.7118,W,1,9,2.0,25,M,,M,,*56
06/15/2015	04:08:54.565	$GPGGA,040855,2425.6263,N,08056.7106,W,1,9,2.0,25,M,,M,,*5B
06/15/2015	04:08:55.564	$GPGGA,040856,2425.6256,N,08056.7095,W,1,10,1.4,26,M,,M,,*69
06/15/2015	04:08:56.554	$GPGGA,040857,2425.6249,N,08056.7084,W,1,10,2.0,26,M,,M,,*61
06/15/2015	04:08:57.544	$GPGGA,040858,2425.6241,N,08056.7071,W,1,9,2.0,26,M,,M,,*54
06/15/2015	04:08:58.554	$GPGGA,040859,2425.6234,N,08056.7060,W,1,9,2.0,26,M,,M,,*57
06/15/2015	04:08:59.564	$GPGGA,040900,2425.6227,N,08056.7049,W,1,9,2.0,26,M,,M,,*53
06/15/2015	04:09:00.544	$GPGGA,040901,2425.6220,N,08056.7036,W,1,9,2.0,26,M,,M,,*5D
06/15/2015	04:09:01.534	$GPGGA,040902,2425.6212,N,08056.7025,W,1,9,2.0,26,M,,M,,*5D
06/15/2015	04:09:02.544	$GPGGA,040903,2425.6202,N,08056.7014,W,1,9,2.0,26,M,,M,,*5F
06/15/2015	04:09:03.574	$GPGGA,040904,2425.6196,N,08056.7000,W,1,8,2.4,26,M,,M,,*56
06/15/2015	04:09:04.544	$GPGGA,040905,2425.6190,N,08056.6986,W,1,8,2.0,26,M,,M,,*53
06/15/2015	04:09:05.544	$GPGGA,040906,2425.6181,N,08056.6975,W,1,9,2.0,26,M,,M,,*5D
06/15/2015	04:09:06.535	$GPGGA,040907,2425.6172,N,08056.6966,W,1,9,2.4,25,M,,M,,*55
06/15/2015	04:09:07.555	$GPGGA,040908,2425.6165,N,08056.6954,W,1,10,1.4,25,M,,M,,*66
06/15/2015	04:09:08.535	$GPGGA,040909,2425.6156,N,08056.6943,W,1,10,2.0,25,M,,M,,*66
06/15/2015	04:09:09.565	$GPGGA,040910,2425.6147,N,08056.6930,W,1,9,2.0,25,M,,M,,*52
06/15/2015	04:09:10.525	$GPGGA,040911,2425.6140,N,08056.6916,W,1,9,2.4,25,M,,M,,*54
06/15/2015	04:09:11.545	$GPGGA,040912,2425.6133,N,08056.6904,W,1,8,2.4,25,M,,M,,*51
06/15/2015	04:09:12.515	$GPGGA,040913,2425.6124,N,08056.6894,W,1,8,1.4,25,M,,M,,*5D
06/15/2015	04:09:13.504	$GPGGA,040914,2425.6115,N,08056.6882,W,1,9,2.0,25,M,,M,,*59
06/15/2015	04:09:14.514	$GPGGA,040915,2425.6105,N,08056.6869,W,1,9,2.4,25,M,,M,,*58
06/15/2015	04:09:15.554	$GPGGA,040916,2425.6100,N,08056.6859,W,1,9,2.0,25,M,,M,,*59
06/15/2015	04:09:16.512	$GPGGA,040917,2425.6091,N,08056.6849,W,1,9,2.0,24,M,,M,,*51
06/15/2015	04:09:17.534	$GPGGA,040918,2425.6080,N,08056.6841,W,1,9,2.0,24,M,,M,,*56
06/15/2015	04:09:18.624	$GPGGA,040919,2425.6073,N,08056.6827,W,1,9,1.4,24,M,,M,,*5C
06/15/2015	04:09:19.524	$GPGGA,040920,2425.6068,N,08056.6813,W,1,10,1.4,24,M,,M,,*63
06/15/2015	04:09:20.514	$GPGGA,040921,2425.6058,N,08056.6802,W,1,10,1.4,24,M,,M,,*61
06/15/2015	04:09:21.534	$GPGGA,040922,2425.6050,N,08056.6791,W,1,10,1.4,24,M,,M,,*6F
06/15/2015	04:09:22.514	$GPGGA,040923,2425.6042,N,08056.6779,W,1,10,2.0,24,M,,M,,*6C
06/15/2015	04:09:23.624	$GPGGA,040924,2425.6035,N,08056.6767,W,1,10,1.4,24,M,,M,,*63
06/15/2015	04:09:24.500	$GPGGA,040925,2425.6026,N,08056.6756,W,1,10,2.4,24,M,,M,,*61
06/15/2015	04:09:25.505	$GPGGA,040926,2425.6019,N,08056.6745,W,1,9,2.0,23,M,,M,,*57
06/15/2015	04:09:26.505	$GPGGA,040927,2425.6011,N,08056.6735,W,1,9,1.4,23,M,,M,,*5E
06/15/2015	04:09:27.515	$GPGGA,040928,2425.6003,N,08056.6725,W,1,10,1.4,23,M,,M,,*6B
06/15/2015	04:09:28.504	$GPGGA,040929,2425.5992,N,08056.6719,W,1,10,2.0,23,M,,M,,*60
06/15/2015	04:09:29.475	$GPGGA,040930,2425.5986,N,08056.6706,W,1,9,1.5,23,M,,M,,*5D
06/15/2015	04:09:30.497	$GPGGA,040931,2425.5979,N,08056.6694,W,1,9,2.0,23,M,,M,,*50
06/15/2015	04:09:31.487	$GPGGA,040932,2425.5970,N,08056.6683,W,1,10,1.4,23,M,,M,,*63
06/15/2015	04:09:32.474	$GPGGA,040933,2425.5963,N,08056.6671,W,1,10,1.4,23,M,,M,,*6D
06/15/2015	04:09:33.464	$GPGGA,040934,2425.5954,N,08056.6657,W,1,9,2.0,23,M,,M,,*55
06/15/2015	04:09:34.464	$GPGGA,040935,2425.5947,N,08056.6642,W,1,9,2.0,23,M,,M,,*52
06/15/2015	04:09:35.604	$GPGGA,040936,2425.5942,N,08056.6633,W,1,8,2.4,23,M,,M,,*57
06/15/2015	04:09:37.844	$GPGGA,040937,2425.5934,N,08056.6623,W,1,8,1.4,23,M,,M,,*55
06/15/2015	04:09:37.874	$GPGGA,040938,2425.5924,N,08056.6614,W,1,10,1.4,23,M,,M,,*66
06/15/2015	04:09:38.554	$GPGGA,040939,2425.5918,N,08056.6604,W,1,10,1.4,23,M,,M,,*69
06/15/2015	04:09:39.604	$GPGGA,040940,2425.5910,N,08056.6593,W,1,9,2.0,23,M,,M,,*5D
06/15/2015	04:09:40.554	$GPGGA,040941,2425.5903,N,08056.6581,W,1,9,1.4,23,M,,M,,*5A
06/15/2015	04:09:41.995	$GPGGA,040942,2425.5896,N,08056.6571,W,1,9,2.0,23,M,,M,,*5C
06/15/2015	04:09:42.556	$GPGGA,040943,2425.5887,N,08056.6560,W,1,9,2.0,23,M,,M,,*5D
06/15/2015	04:09:43.605	$GPGGA,040944,2425.5880,N,08056.6548,W,1,10,1.4,23,M,,M,,*68
06/15/2015	04:09:44.545	$GPGGA,040945,2425.5873,N,08056.6535,W,1,10,1.4,23,M,,M,,*6F
06/15/2015	04:09:45.565	$GPGGA,040946,2425.5866,N,08056.6523,W,1,9,2.0,22,M,,M,,*51
06/15/2015	04:09:46.545	$GPGGA,040947,2425.5859,N,08056.6513,W,1,9,2.0,22,M,,M,,*5F
06/15/2015	04:09:47.575	$GPGGA,040948,2425.5849,N,08056.6502,W,1,10,1.4,22,M,,M,,*6E
06/15/2015	04:09:48.544	$GPGGA,040949,2425.5844,N,08056.6490,W,1,10,1.4,22,M,,M,,*68
06/15/2015	04:09:49.534	$GPGGA,040950,2425.5838,N,08056.6477,W,1,10,1.4,22,M,,M,,*62
06/15/2015	04:09:50.544	$GPGGA,040951,2425.5829,N,08056.6466,W,1,10,1.4,23,M,,M,,*62
06/15/2015	04:09:51.555	$GPGGA,040952,2425.5820,N,08056.6452,W,1,10,1.4,23,M,,M,,*6F
06/15/2015	04:09:52.544	$GPGGA,040953,2425.5815,N,08056.6438,W,1,10,2.4,23,M,,M,,*67
06/15/2015	04:09:53.544	$GPGGA,040954,2425.5811,N,08056.6424,W,1,9,1.5,23,M,,M,,*53
06/15/2015	04:09:54.534	$GPGGA,040955,2425.5802,N,08056.6411,W,1,9,2.0,23,M,,M,,*50
06/15/2015	04:09:55.534	$GPGGA,040956,2425.5794,N,08056.6398,W,1,9,2.0,22,M,,M,,*54
06/15/2015	04:09:56.524	$GPGGA,040957,2425.5788,N,08056.6385,W,1,9,2.4,22,M,,M,,*50
06/15/2015	04:09:57.554	$GPGGA,040958,2425.5782,N,08056.6370,W,1,9,2.0,22,M,,M,,*5B
06/15/2015	04:09:58.524	$GPGGA,040959,2425.5773,N,08056.6362,W,1,9,2.0,22,M,,M,,*57
06/15/2015	04:09:59.897	$GPGGA,041000,2425.5765,N,08056.6354,W,1,10,1.4,22,M,,M,,*6E
06/15/2015	04:10:00.525	$GPGGA,041001,2425.5757,N,08056.6342,W,1,10,1.4,22,M,,M,,*69
06/15/2015	04:10:01.515	$GPGGA,041002,2425.5750,N,08056.6329,W,1,9,1.8,22,M,,M,,*54
06/15/2015	04:10:02.515	$GPGGA,041003,2425.5740,N,08056.6319,W,1,9,1.4,22,M,,M,,*5B
06/15/2015	04:10:03.545	$GPGGA,041004,2425.5732,N,08056.6306,W,1,9,2.0,23,M,,M,,*51
06/15/2015	04:10:04.515	$GPGGA,041005,2425.5725,N,08056.6292,W,1,9,2.0,23,M,,M,,*5A
06/15/2015	04:10:05.504	$GPGGA,041006,2425.5717,N,08056.6280,W,1,9,2.0,23,M,,M,,*5B
06/15/2015	04:10:06.514	$GPGGA,041007,2425.5708,N,08056.6269,W,1,9,2.0,23,M,,M,,*53
06/15/2015	04:10:07.535	$GPGGA,041008,2425.5701,N,08056.6256,W,1,10,1.4,23,M,,M,,*66
06/15/2015	04:10:08.514	$GPGGA,041009,2425.5694,N,08056.6243,W,1,10,2.0,23,M,,M,,*69
06/15/2015	04:10:09.489	$GPGGA,041010,2425.5686,N,08056.6229,W,1,10,1.4,23,M,,M,,*69
06/15/2015	04:10:10.505	$GPGGA,041011,2425.5677,N,08056.6217,W,1,10,2.0,23,M,,M,,*6C
06/15/2015	04:10:11.614	$GPGGA,041012,2425.5669,N,08056.6204,W,1,9,2.0,23,M,,M,,*5A
06/15/2015	04:10:12.502	$GPGGA,041013,2425.5661,N,08056.6190,W,1,9,1.4,23,M,,M,,*5A
06/15/2015	04:10:13.489	$GPGGA,041014,2425.5654,N,08056.6176,W,1,10,1.4,23,M,,M,,*6B
06/15/2015	04:10:14.502	$GPGGA,041015,2425.5646,N,08056.6166,W,1,10,1.4,24,M,,M,,*6F
06/15/2015	04:10:15.514	$GPGGA,041016,2425.5638,N,08056.6157,W,1,10,1.4,24,M,,M,,*67
06/15/2015	04:10:16.575	$GPGGA,041017,2425.5630,N,08056.6142,W,1,10,1.5,24,M,,M,,*6B
06/15/2015	04:10:17.615	$GPGGA,041018,2425.5623,N,08056.6130,W,1,10,1.4,24,M,,M,,*62
06/15/2015	04:10:18.500	$GPGGA,041019,2425.5614,N,08056.6119,W,1,10,1.4,24,M,,M,,*6C
06/15/2015	04:10:19.591	$GPGGA,041020,2425.5606,N,08056.6106,W,1,9,2.0,24,M,,M,,*54
06/15/2015	04:10:21.605	$GPGGA,041022,2425.5591,N,08056.6083,W,1,10,1.4,24,M,,M,,*68
06/15/2015	04:10:22.589	$GPGGA,041023,2425.5582,N,08056.6070,W,1,10,1.4,24,M,,M,,*67
06/15/2015	04:10:23.574	$GPGGA,041024,2425.5576,N,08056.6054,W,1,8,2.4,24,M,,M,,*57
06/15/2015	04:10:24.574	$GPGGA,041025,2425.5569,N,08056.6038,W,1,8,2.0,24,M,,M,,*56
06/15/2015	04:10:25.474	$GPGGA,041026,2425.5560,N,08056.6025,W,1,9,2.0,24,M,,M,,*51
06/15/2015	04:10:26.554	$GPGGA,041027,2425.5551,N,08056.6018,W,1,9,2.4,24,M,,M,,*58
06/15/2015	04:10:27.596	$GPGGA,041028,2425.5544,N,08056.6008,W,1,10,1.4,24,M,,M,,*69
06/15/2015	04:10:28.564	$GPGGA,041029,2425.5534,N,08056.5997,W,1,10,1.4,24,M,,M,,*63
06/15/2015	04:10:29.564	$GPGGA,041030,2425.5526,N,08056.5984,W,1,10,1.4,24,M,,M,,*6A
06/15/2015	04:10:30.554	$GPGGA,041031,2425.5518,N,08056.5973,W,1,10,2.0,24,M,,M,,*69
06/15/2015	04:10:31.614	$GPGGA,041032,2425.5508,N,08056.5966,W,1,9,2.0,24,M,,M,,*57
06/15/2015	04:10:32.554	$GPGGA,041033,2425.5500,N,08056.5949,W,1,9,1.4,24,M,,M,,*54
06/15/2015	04:10:33.554	$GPGGA,041034,2425.5493,N,08056.5938,W,1,8,2.4,24,M,,M,,*5C
06/15/2015	04:10:34.535	$GPGGA,041035,2425.5483,N,08056.5929,W,1,8,2.0,24,M,,M,,*58
06/15/2015	04:10:35.575	$GPGGA,041036,2425.5475,N,08056.5913,W,1,9,2.0,24,M,,M,,*5A
06/15/2015	04:10:36.545	$GPGGA,041037,2425.5468,N,08056.5902,W,1,9,2.4,24,M,,M,,*53
06/15/2015	04:10:37.555	$GPGGA,041038,2425.5461,N,08056.5889,W,1,9,2.0,24,M,,M,,*53
06/15/2015	04:10:38.545	$GPGGA,041039,2425.5450,N,08056.5875,W,1,9,2.0,24,M,,M,,*53
06/15/2015	04:10:39.545	$GPGGA,041040,2425.5443,N,08056.5860,W,1,8,2.4,24,M,,M,,*5E
06/15/2015	04:10:40.534	$GPGGA,041041,2425.5436,N,08056.5845,W,1,8,2.4,24,M,,M,,*5A
06/15/2015	04:10:41.564	$GPGGA,041042,2425.5428,N,08056.5838,W,1,9,2.0,24,M,,M,,*59
06/15/2015	04:10:42.524	$GPGGA,041043,2425.5418,N,08056.5827,W,1,9,1.4,24,M,,M,,*52
06/15/2015	04:10:43.574	$GPGGA,041044,2425.5411,N,08056.5814,W,1,10,1.4,24,M,,M,,*64
06/15/2015	04:10:44.524	$GPGGA,041045,2425.5403,N,08056.5804,W,1,10,2.0,24,M,,M,,*60
06/15/2015	04:10:45.544	$GPGGA,041046,2425.5393,N,08056.5791,W,1,10,1.4,24,M,,M,,*69
06/15/2015	04:10:46.514	$GPGGA,041047,2425.5386,N,08056.5777,W,1,10,2.0,24,M,,M,,*63
06/15/2015	04:10:47.564	$GPGGA,041048,2425.5378,N,08056.5763,W,1,9,2.0,24,M,,M,,*50
06/15/2015	04:10:48.524	$GPGGA,041049,2425.5368,N,08056.5752,W,1,9,2.0,24,M,,M,,*52
06/15/2015	04:10:49.534	$GPGGA,041050,2425.5361,N,08056.5739,W,1,9,2.0,24,M,,M,,*5E
06/15/2015	04:10:50.524	$GPGGA,041051,2425.5353,N,08056.5726,W,1,9,2.0,24,M,,M,,*50
06/15/2015	04:10:51.565	$GPGGA,041052,2425.5345,N,08056.5717,W,1,10,1.4,24,M,,M,,*69
06/15/2015	04:10:52.515	$GPGGA,041053,2425.5336,N,08056.5704,W,1,10,1.4,24,M,,M,,*6E
06/15/2015	04:10:53.525	$GPGGA,041054,2425.5328,N,08056.5691,W,1,8,2.4,24,M,,M,,*51
06/15/2015	04:10:54.515	$GPGGA,041055,2425.5320,N,08056.5681,W,1,8,2.0,24,M,,M,,*5D
06/15/2015	04:10:55.525	$GPGGA,041056,2425.5311,N,08056.5673,W,1,10,1.4,24,M,,M,,*6F
06/15/2015	04:10:56.495	$GPGGA,041057,2425.5304,N,08056.5661,W,1,10,1.4,23,M,,M,,*6E
06/15/2015	04:10:57.525	$GPGGA,041058,2425.5296,N,08056.5649,W,1,9,2.0,23,M,,M,,*5E
06/15/2015	04:10:58.494	$GPGGA,041059,2425.5286,N,08056.5636,W,1,9,2.0,23,M,,M,,*56
06/15/2015	04:10:59.534	$GPGGA,041100,2425.5280,N,08056.5623,W,1,8,2.4,23,M,,M,,*5C
06/15/2015	04:11:00.504	$GPGGA,041101,2425.5273,N,08056.5609,W,1,8,2.4,23,M,,M,,*59
06/15/2015	04:11:01.614	$GPGGA,041102,2425.5264,N,08056.5601,W,1,9,1.4,23,M,,M,,*56
06/15/2015	04:11:02.504	$GPGGA,041103,2425.5256,N,08056.5592,W,1,9,1.4,23,M,,M,,*5F
06/15/2015	04:11:03.514	$GPGGA,041104,2425.5247,N,08056.5585,W,1,9,2.0,23,M,,M,,*59
06/15/2015	04:11:04.494	$GPGGA,041105,2425.5239,N,08056.5572,W,1,9,1.4,23,M,,M,,*5E
06/15/2015	04:11:05.585	$GPGGA,041106,2425.5233,N,08056.5563,W,1,9,1.4,23,M,,M,,*57
06/15/2015	04:11:06.495	$GPGGA,041107,2425.5226,N,08056.5553,W,1,9,1.4,23,M,,M,,*51
06/15/2015	04:11:07.496	$GPGGA,041108,2425.5217,N,08056.5541,W,1,9,1.5,23,M,,M,,*5E
06/15/2015	04:11:08.574	$GPGGA,041109,2425.5208,N,08056.5531,W,1,9,1.4,23,M,,M,,*57
06/15/2015	04:11:09.575	$GPGGA,041110,2425.5201,N,08056.5521,W,1,10,1.4,23,M,,M,,*6F
06/15/2015	04:11:10.475	$GPGGA,041111,2425.5194,N,08056.5508,W,1,10,1.4,23,M,,M,,*6A
06/15/2015	04:11:11.605	$GPGGA,041112,2425.5186,N,08056.5499,W,1,10,1.4,23,M,,M,,*63
06/15/2015	04:11:12.575	$GPGGA,041113,2425.5177,N,08056.5489,W,1,10,1.4,23,M,,M,,*6D
06/15/2015	04:11:13.596	$GPGGA,041114,2425.5170,N,08056.5477,W,1,10,1.4,23,M,,M,,*6C
06/15/2015	04:11:14.565	$GPGGA,041115,2425.5162,N,08056.5464,W,1,10,1.4,23,M,,M,,*6C
06/15/2015	04:11:15.634	$GPGGA,041116,2425.5155,N,08056.5450,W,1,10,2.0,23,M,,M,,*6B
06/15/2015	04:11:16.564	$GPGGA,041117,2425.5147,N,08056.5437,W,1,10,2.0,23,M,,M,,*68
06/15/2015	04:11:17.565	$GPGGA,041118,2425.5139,N,08056.5424,W,1,9,2.0,23,M,,M,,*54
06/15/2015	04:11:18.554	$GPGGA,041119,2425.5132,N,08056.5410,W,1,9,2.0,23,M,,M,,*59
06/15/2015	04:11:19.624	$GPGGA,041120,2425.5125,N,08056.5395,W,1,9,2.0,23,M,,M,,*5F
06/15/2015	04:11:20.554	$GPGGA,041121,2425.5117,N,08056.5383,W,1,9,2.0,23,M,,M,,*58
06/15/2015	04:11:21.564	$GPGGA,041122,2425.5109,N,08056.5370,W,1,9,2.0,23,M,,M,,*58
06/15/2015	04:11:22.544	$GPGGA,041123,2425.5101,N,08056.5356,W,1,9,2.0,23,M,,M,,*55
06/15/2015	04:11:23.595	$GPGGA,041124,2425.5094,N,08056.5343,W,1,9,2.0,23,M,,M,,*5B
06/15/2015	04:11:24.554	$GPGGA,041125,2425.5086,N,08056.5329,W,1,9,2.0,23,M,,M,,*55
06/15/2015	04:11:25.554	$GPGGA,041126,2425.5080,N,08056.5315,W,1,9,2.0,23,M,,M,,*5F
06/15/2015	04:11:26.545	$GPGGA,041127,2425.5072,N,08056.5302,W,1,9,2.0,22,M,,M,,*54
06/15/2015	04:11:27.545	$GPGGA,041128,2425.5063,N,08056.5290,W,1,9,2.0,22,M,,M,,*51
06/15/2015	04:11:28.535	$GPGGA,041129,2425.5057,N,08056.5275,W,1,9,2.0,22,M,,M,,*5C
06/15/2015	04:11:29.555	$GPGGA,041130,2425.5049,N,08056.5261,W,1,9,2.0,22,M,,M,,*5E
06/15/2015	04:11:30.535	$GPGGA,041131,2425.5042,N,08056.5248,W,1,9,2.0,22,M,,M,,*5F
06/15/2015	04:11:31.545	$GPGGA,041132,2425.5033,N,08056.5236,W,1,9,2.0,22,M,,M,,*53
06/15/2015	04:11:32.525	$GPGGA,041133,2425.5025,N,08056.5223,W,1,9,2.0,22,M,,M,,*51
06/15/2015	04:11:33.514	$GPGGA,041134,2425.5017,N,08056.5209,W,1,9,2.0,22,M,,M,,*5F
06/15/2015	04:11:34.544	$GPGGA,041135,2425.5010,N,08056.5195,W,1,9,1.4,21,M,,M,,*5B
06/15/2015	04:11:35.564	$GPGGA,041136,2425.5002,N,08056.5184,W,1,10,2.0,21,M,,M,,*64
06/15/2015	04:11:36.524	$GPGGA,041137,2425.4993,N,08056.5174,W,1,10,1.4,21,M,,M,,*6D
06/15/2015	04:11:37.574	$GPGGA,041138,2425.4985,N,08056.5163,W,1,10,1.4,21,M,,M,,*63
06/15/2015	04:11:38.524	$GPGGA,041139,2425.4978,N,08056.5148,W,1,10,2.0,21,M,,M,,*6E
06/15/2015	04:11:39.544	$GPGGA,041140,2425.4970,N,08056.5137,W,1,9,2.0,21,M,,M,,*58
06/15/2015	04:11:40.534	$GPGGA,041141,2425.4962,N,08056.5125,W,1,9,1.4,21,M,,M,,*5E
06/15/2015	04:11:41.604	$GPGGA,041142,2425.4953,N,08056.5111,W,1,10,1.4,21,M,,M,,*60
06/15/2015	04:11:42.514	$GPGGA,041143,2425.4946,N,08056.5099,W,1,10,1.4,21,M,,M,,*64
06/15/2015	04:11:43.544	$GPGGA,041144,2425.4937,N,08056.5089,W,1,10,1.4,21,M,,M,,*64
06/15/2015	04:11:45.645	$GPGGA,041146,2425.4922,N,08056.5065,W,1,9,1.4,21,M,,M,,*58
06/15/2015	04:11:46.515	$GPGGA,041147,2425.4915,N,08056.5054,W,1,9,1.5,21,M,,M,,*5E
06/15/2015	04:11:47.615	$GPGGA,041148,2425.4906,N,08056.5040,W,1,9,2.0,21,M,,M,,*50
