Software Version Number: 1	Data File Format Number: 1	Build Version Number: 1	Error Count Since VI Started: 1	Manufacturer: Raytheon	 Model Number: RayMarine 120	 S/N: 	 Cal Date: 	 Wind Direction Offset: 0.00	 Slope (M)1: 0.00	 Offset (B)1: 0.00	 Slope (M)2: 0.00	 Offset (B)2: 0.00	 Slope (M)3: 0.00	 Offset (B)3: 0.00	 Slope (M)4: 0.00	 Offset (B)4: 0.00	 Slope (M)5: 0.00	 Offset (B)5: 0.00	 Slope (M)6: 0.00	 Offset (B)6: 0.00
Computer Date	Computer Time	GGA String
06/13/2015	22:00:00.590	$GPGGA,220001,2433.5058,N,08052.6213,W,1,10,1.9,30,M,,M,,*6C
06/13/2015	22:00:01.623	$GPGGA,220002,2433.5067,N,08052.6197,W,1,10,1.9,30,M,,M,,*6C
06/13/2015	22:00:02.577	$GPGGA,220003,2433.5080,N,08052.6186,W,1,10,1.9,30,M,,M,,*64
06/13/2015	22:00:03.623	$GPGGA,220004,2433.5089,N,08052.6174,W,1,10,1.9,30,M,,M,,*67
06/13/2015	22:00:04.587	$GPGGA,220005,2433.5099,N,08052.6159,W,1,10,1.9,30,M,,M,,*68
06/13/2015	22:00:05.575	$GPGGA,220006,2433.5109,N,08052.6144,W,1,10,2.0,30,M,,M,,*65
06/13/2015	22:00:06.586	$GPGGA,220007,2433.5120,N,08052.6130,W,1,10,2.0,30,M,,M,,*6C
06/13/2015	22:00:07.604	$GPGGA,220008,2433.5130,N,08052.6119,W,1,10,1.9,30,M,,M,,*63
06/13/2015	22:00:08.591	$GPGGA,220009,2433.5141,N,08052.6106,W,1,10,1.9,30,M,,M,,*6A
06/13/2015	22:00:09.583	$GPGGA,220010,2433.5150,N,08052.6089,W,1,10,1.9,30,M,,M,,*64
06/13/2015	22:00:10.575	$GPGGA,220011,2433.5159,N,08052.6077,W,1,10,1.9,30,M,,M,,*6D
06/13/2015	22:00:11.594	$GPGGA,220012,2433.5168,N,08052.6065,W,1,9,1.9,30,M,,M,,*57
06/13/2015	22:00:12.564	$GPGGA,220013,2433.5178,N,08052.6050,W,1,9,1.9,30,M,,M,,*51
06/13/2015	22:00:13.574	$GPGGA,220014,2433.5188,N,08052.6037,W,1,10,1.9,30,M,,M,,*60
06/13/2015	22:00:14.564	$GPGGA,220015,2433.5197,N,08052.6024,W,1,10,1.9,30,M,,M,,*6D
06/13/2015	22:00:15.576	$GPGGA,220016,2433.5208,N,08052.6010,W,1,8,2.3,30,M,,M,,*5C
06/13/2015	22:00:16.544	$GPGGA,220017,2433.5217,N,08052.5996,W,1,8,2.3,30,M,,M,,*57
06/13/2015	22:00:17.574	$GPGGA,220018,2433.5228,N,08052.5984,W,1,10,1.9,30,M,,M,,*67
06/13/2015	22:00:18.543	$GPGGA,220019,2433.5237,N,08052.5969,W,1,10,1.9,30,M,,M,,*6B
06/13/2015	22:00:19.563	$GPGGA,220020,2433.5246,N,08052.5957,W,1,9,2.0,30,M,,M,,*58
06/13/2015	22:00:20.543	$GPGGA,220021,2433.5258,N,08052.5944,W,1,9,2.0,30,M,,M,,*54
06/13/2015	22:00:21.575	$GPGGA,220022,2433.5266,N,08052.5930,W,1,9,2.0,30,M,,M,,*59
06/13/2015	22:00:22.543	$GPGGA,220023,2433.5276,N,08052.5919,W,1,9,1.9,30,M,,M,,*58
06/13/2015	22:00:23.573	$GPGGA,220024,2433.5287,N,08052.5906,W,1,10,1.9,30,M,,M,,*67
06/13/2015	22:00:24.544	$GPGGA,220025,2433.5298,N,08052.5894,W,1,10,1.9,30,M,,M,,*62
06/13/2015	22:00:25.534	$GPGGA,220026,2433.5307,N,08052.5880,W,1,10,1.9,30,M,,M,,*63
06/13/2015	22:00:26.524	$GPGGA,220027,2433.5316,N,08052.5867,W,1,10,1.9,30,M,,M,,*6B
06/13/2015	22:00:27.535	$GPGGA,220028,2433.5326,N,08052.5859,W,1,9,2.0,30,M,,M,,*58
06/13/2015	22:00:28.524	$GPGGA,220029,2433.5334,N,08052.5845,W,1,9,1.9,30,M,,M,,*5D
06/13/2015	22:00:29.534	$GPGGA,220030,2433.5342,N,08052.5828,W,1,10,1.9,30,M,,M,,*67
06/13/2015	22:00:30.544	$GPGGA,220031,2433.5352,N,08052.5820,W,1,10,2.0,30,M,,M,,*65
06/13/2015	22:00:31.564	$GPGGA,220032,2433.5363,N,08052.5813,W,1,10,1.9,30,M,,M,,*6E
06/13/2015	22:00:32.534	$GPGGA,220033,2433.5372,N,08052.5800,W,1,10,1.9,30,M,,M,,*6D
06/13/2015	22:00:33.534	$GPGGA,220034,2433.5381,N,08052.5786,W,1,9,2.0,30,M,,M,,*55
06/13/2015	22:00:34.534	$GPGGA,220035,2433.5391,N,08052.5776,W,1,9,2.0,30,M,,M,,*5A
06/13/2015	22:00:35.644	$GPGGA,220036,2433.5399,N,08052.5766,W,1,9,2.0,30,M,,M,,*50
06/13/2015	22:00:36.523	$GPGGA,220037,2433.5409,N,08052.5754,W,1,9,1.9,30,M,,M,,*54
06/13/2015	22:00:37.623	$GPGGA,220038,2433.5419,N,08052.5744,W,1,10,1.9,30,M,,M,,*63
06/13/2015	22:00:38.523	$GPGGA,220039,2433.5430,N,08052.5733,W,1,10,1.9,30,M,,M,,*69
06/13/2015	22:00:39.533	$GPGGA,220040,2433.5439,N,08052.5720,W,1,9,2.0,30,M,,M,,*5E
06/13/2015	22:00:40.593	$GPGGA,220041,2433.5446,N,08052.5708,W,1,9,1.9,30,M,,M,,*57
06/13/2015	22:00:41.604	$GPGGA,220042,2433.5456,N,08052.5699,W,1,9,2.0,30,M,,M,,*56
06/13/2015	22:00:42.488	$GPGGA,220043,2433.5467,N,08052.5686,W,1,9,1.9,30,M,,M,,*51
06/13/2015	22:00:43.634	$GPGGA,220044,2433.5474,N,08052.5673,W,1,10,1.9,30,M,,M,,*66
06/13/2015	22:00:44.594	$GPGGA,220045,2433.5479,N,08052.5663,W,1,10,1.9,30,M,,M,,*6B
06/13/2015	22:00:45.604	$GPGGA,220046,2433.5490,N,08052.5651,W,1,10,1.9,30,M,,M,,*6E
06/13/2015	22:00:46.504	$GPGGA,220047,2433.5497,N,08052.5637,W,1,10,1.9,30,M,,M,,*68
06/13/2015	22:00:47.494	$GPGGA,220048,2433.5504,N,08052.5628,W,1,9,1.9,30,M,,M,,*5A
06/13/2015	22:00:48.594	$GPGGA,220049,2433.5514,N,08052.5617,W,1,9,1.9,30,M,,M,,*56
06/13/2015	22:00:49.614	$GPGGA,220050,2433.5522,N,08052.5604,W,1,9,1.9,30,M,,M,,*59
06/13/2015	22:00:50.584	$GPGGA,220051,2433.5529,N,08052.5591,W,1,9,1.9,30,M,,M,,*5C
06/13/2015	22:00:51.594	$GPGGA,220052,2433.5536,N,08052.5578,W,1,10,1.9,30,M,,M,,*6E
06/13/2015	22:00:52.574	$GPGGA,220053,2433.5547,N,08052.5567,W,1,10,1.9,29,M,,M,,*6F
06/13/2015	22:00:53.584	$GPGGA,220054,2433.5555,N,08052.5555,W,1,10,1.9,29,M,,M,,*6A
06/13/2015	22:00:54.575	$GPGGA,220055,2433.5562,N,08052.5542,W,1,10,1.9,29,M,,M,,*69
06/13/2015	22:00:55.583	$GPGGA,220056,2433.5569,N,08052.5528,W,1,10,1.9,29,M,,M,,*6D
06/13/2015	22:00:56.563	$GPGGA,220057,2433.5579,N,08052.5515,W,1,10,1.9,29,M,,M,,*63
06/13/2015	22:00:57.576	$GPGGA,220058,2433.5587,N,08052.5504,W,1,10,1.9,29,M,,M,,*6D
06/13/2015	22:00:58.573	$GPGGA,220059,2433.5596,N,08052.5491,W,1,10,1.9,29,M,,M,,*61
06/13/2015	22:00:59.624	$GPGGA,220100,2433.5602,N,08052.5476,W,1,9,1.9,29,M,,M,,*53
06/13/2015	22:01:00.564	$GPGGA,220101,2433.5612,N,08052.5463,W,1,9,1.9,29,M,,M,,*57
06/13/2015	22:01:01.579	$GPGGA,220102,2433.5620,N,08052.5451,W,1,9,1.9,29,M,,M,,*54
06/13/2015	22:01:02.554	$GPGGA,220103,2433.5630,N,08052.5437,W,1,9,1.9,29,M,,M,,*54
06/13/2015	22:01:03.585	$GPGGA,220104,2433.5637,N,08052.5422,W,1,10,1.9,29,M,,M,,*68
06/13/2015	22:01:04.544	$GPGGA,220105,2433.5644,N,08052.5410,W,1,10,1.9,29,M,,M,,*6C
06/13/2015	22:01:05.544	$GPGGA,220106,2433.5652,N,08052.5395,W,1,9,1.9,29,M,,M,,*5A
06/13/2015	22:01:06.544	$GPGGA,220107,2433.5662,N,08052.5381,W,1,9,1.9,29,M,,M,,*5D
06/13/2015	22:01:07.604	$GPGGA,220108,2433.5670,N,08052.5368,W,1,9,2.0,29,M,,M,,*5C
06/13/2015	22:01:08.544	$GPGGA,220109,2433.5677,N,08052.5355,W,1,9,1.9,29,M,,M,,*5E
06/13/2015	22:01:09.554	$GPGGA,220110,2433.5687,N,08052.5341,W,1,9,1.9,29,M,,M,,*5C
06/13/2015	22:01:10.544	$GPGGA,220111,2433.5695,N,08052.5325,W,1,9,1.9,29,M,,M,,*5C
06/13/2015	22:01:11.583	$GPGGA,220112,2433.5705,N,08052.5311,W,1,10,1.9,28,M,,M,,*69
06/13/2015	22:01:12.523	$GPGGA,220113,2433.5714,N,08052.5300,W,1,10,1.9,28,M,,M,,*68
06/13/2015	22:01:13.563	$GPGGA,220114,2433.5723,N,08052.5286,W,1,9,1.9,28,M,,M,,*5C
06/13/2015	22:01:14.523	$GPGGA,220115,2433.5730,N,08052.5271,W,1,9,1.9,28,M,,M,,*57
06/13/2015	22:01:15.533	$GPGGA,220116,2433.5739,N,08052.5257,W,1,9,2.1,28,M,,M,,*52
06/13/2015	22:01:16.524	$GPGGA,220117,2433.5749,N,08052.5244,W,1,9,1.9,28,M,,M,,*5D
06/13/2015	22:01:17.644	$GPGGA,220118,2433.5757,N,08052.5230,W,1,10,1.9,28,M,,M,,*66
06/13/2015	22:01:18.534	$GPGGA,220119,2433.5766,N,08052.5215,W,1,10,1.9,28,M,,M,,*62
06/13/2015	22:01:19.564	$GPGGA,220120,2433.5775,N,08052.5200,W,1,10,1.9,28,M,,M,,*6E
06/13/2015	22:01:20.534	$GPGGA,220121,2433.5785,N,08052.5186,W,1,10,1.9,28,M,,M,,*6D
06/13/2015	22:01:21.524	$GPGGA,220122,2433.5793,N,08052.5173,W,1,9,1.9,28,M,,M,,*5B
06/13/2015	22:01:22.524	$GPGGA,220123,2433.5804,N,08052.5158,W,1,9,1.9,28,M,,M,,*52
06/13/2015	22:01:23.624	$GPGGA,220124,2433.5815,N,08052.5144,W,1,9,1.9,28,M,,M,,*58
06/13/2015	22:01:24.624	$GPGGA,220125,2433.5824,N,08052.5129,W,1,9,1.9,28,M,,M,,*50
06/13/2015	22:01:25.604	$GPGGA,220126,2433.5833,N,08052.5116,W,1,10,1.9,28,M,,M,,*61
06/13/2015	22:01:26.524	$GPGGA,220127,2433.5843,N,08052.5102,W,1,10,2.0,28,M,,M,,*68
06/13/2015	22:01:27.524	$GPGGA,220128,2433.5851,N,08052.5086,W,1,10,1.9,28,M,,M,,*63
06/13/2015	22:01:28.493	$GPGGA,220129,2433.5862,N,08052.5074,W,1,10,1.9,28,M,,M,,*6F
06/13/2015	22:01:29.603	$GPGGA,220130,2433.5872,N,08052.5061,W,1,9,2.0,28,M,,M,,*50
06/13/2015	22:01:30.585	$GPGGA,220131,2433.5880,N,08052.5044,W,1,9,1.9,28,M,,M,,*51
06/13/2015	22:01:31.643	$GPGGA,220132,2433.5890,N,08052.5027,W,1,10,1.9,28,M,,M,,*6E
06/13/2015	22:01:32.593	$GPGGA,220133,2433.5901,N,08052.5016,W,1,10,1.9,28,M,,M,,*64
06/13/2015	22:01:33.583	$GPGGA,220134,2433.5912,N,08052.5005,W,1,10,1.9,28,M,,M,,*63
06/13/2015	22:01:34.594	$GPGGA,220135,2433.5922,N,08052.4989,W,1,10,1.9,28,M,,M,,*6D
06/13/2015	22:01:35.634	$GPGGA,220136,2433.5929,N,08052.4972,W,1,10,1.9,28,M,,M,,*61
06/13/2015	22:01:36.576	$GPGGA,220137,2433.5940,N,08052.4961,W,1,10,1.9,29,M,,M,,*6C
06/13/2015	22:01:37.604	$GPGGA,220138,2433.5951,N,08052.4949,W,1,10,1.9,29,M,,M,,*69
06/13/2015	22:01:38.578	$GPGGA,220139,2433.5961,N,08052.4935,W,1,10,1.9,29,M,,M,,*60
06/13/2015	22:01:39.614	$GPGGA,220140,2433.5972,N,08052.4924,W,1,9,2.0,29,M,,M,,*5E
06/13/2015	22:01:40.574	$GPGGA,220141,2433.5984,N,08052.4912,W,1,9,2.0,29,M,,M,,*53
06/13/2015	22:01:41.574	$GPGGA,220142,2433.5991,N,08052.4894,W,1,9,2.0,29,M,,M,,*5B
06/13/2015	22:01:42.564	$GPGGA,220143,2433.6001,N,08052.4883,W,1,9,2.0,29,M,,M,,*5F
06/13/2015	22:01:43.594	$GPGGA,220144,2433.6013,N,08052.4877,W,1,10,1.9,29,M,,M,,*62
06/13/2015	22:01:44.576	$GPGGA,220145,2433.6024,N,08052.4862,W,1,10,1.9,29,M,,M,,*63
06/13/2015	22:01:45.578	$GPGGA,220146,2433.6030,N,08052.4846,W,1,9,2.0,29,M,,M,,*51
06/13/2015	22:01:46.563	$GPGGA,220147,2433.6039,N,08052.4838,W,1,9,1.9,29,M,,M,,*5A
06/13/2015	22:01:47.593	$GPGGA,220148,2433.6053,N,08052.4828,W,1,9,1.9,29,M,,M,,*58
06/13/2015	22:01:48.563	$GPGGA,220149,2433.6061,N,08052.4813,W,1,9,1.9,29,M,,M,,*50
06/13/2015	22:01:49.553	$GPGGA,220150,2433.6070,N,08052.4801,W,1,10,1.9,29,M,,M,,*63
06/13/2015	22:01:50.553	$GPGGA,220151,2433.6079,N,08052.4791,W,1,10,1.9,29,M,,M,,*6D
06/13/2015	22:01:51.581	$GPGGA,220152,2433.6089,N,08052.4778,W,1,10,1.9,29,M,,M,,*66
06/13/2015	22:01:52.554	$GPGGA,220153,2433.6097,N,08052.4766,W,1,10,1.9,29,M,,M,,*67
06/13/2015	22:01:53.535	$GPGGA,220154,2433.6106,N,08052.4753,W,1,10,1.9,29,M,,M,,*6F
06/13/2015	22:01:54.544	$GPGGA,220155,2433.6115,N,08052.4741,W,1,10,2.0,29,M,,M,,*65
06/13/2015	22:01:55.554	$GPGGA,220156,2433.6124,N,08052.4729,W,1,9,2.0,29,M,,M,,*52
06/13/2015	22:01:56.544	$GPGGA,220157,2433.6133,N,08052.4716,W,1,9,2.0,29,M,,M,,*59
06/13/2015	22:01:57.564	$GPGGA,220158,2433.6143,N,08052.4702,W,1,9,2.0,29,M,,M,,*54
06/13/2015	22:01:58.534	$GPGGA,220159,2433.6151,N,08052.4690,W,1,9,1.9,29,M,,M,,*56
06/13/2015	22:01:59.564	$GPGGA,220200,2433.6160,N,08052.4676,W,1,10,1.9,29,M,,M,,*6B
06/13/2015	22:02:00.524	$GPGGA,220201,2433.6169,N,08052.4663,W,1,10,1.9,29,M,,M,,*67
06/13/2015	22:02:01.544	$GPGGA,220202,2433.6179,N,08052.4651,W,1,10,1.9,29,M,,M,,*64
06/13/2015	22:02:02.685	$GPGGA,220203,2433.6187,N,08052.4635,W,1,10,2.0,29,M,,M,,*6C
06/13/2015	22:02:03.693	$GPGGA,220204,2433.6198,N,08052.4622,W,1,10,1.9,29,M,,M,,*69
06/13/2015	22:02:04.523	$GPGGA,220205,2433.6207,N,08052.4611,W,1,10,1.9,29,M,,M,,*6D
06/13/2015	22:02:06.880	$GPGGA,220207,2433.6227,N,08052.4582,W,1,10,1.9,29,M,,M,,*64
06/13/2015	22:02:07.553	$GPGGA,220208,2433.6236,N,08052.4568,W,1,9,2.0,29,M,,M,,*5D
06/13/2015	22:02:08.513	$GPGGA,220209,2433.6245,N,08052.4556,W,1,9,1.9,29,M,,M,,*5F
06/13/2015	22:02:09.524	$GPGGA,220210,2433.6255,N,08052.4543,W,1,9,1.9,29,M,,M,,*52
06/13/2015	22:02:10.504	$GPGGA,220211,2433.6263,N,08052.4530,W,1,9,1.9,29,M,,M,,*52
06/13/2015	22:02:11.534	$GPGGA,220212,2433.6273,N,08052.4515,W,1,9,2.0,29,M,,M,,*5D
06/13/2015	22:02:12.669	$GPGGA,220213,2433.6281,N,08052.4500,W,1,9,1.9,28,M,,M,,*5E
06/13/2015	22:02:13.664	$GPGGA,220214,2433.6291,N,08052.4487,W,1,9,1.9,28,M,,M,,*56
06/13/2015	22:02:14.514	$GPGGA,220215,2433.6299,N,08052.4476,W,1,9,1.9,28,M,,M,,*51
06/13/2015	22:02:15.677	$GPGGA,220216,2433.6310,N,08052.4462,W,1,10,1.9,28,M,,M,,*6F
06/13/2015	22:02:16.504	$GPGGA,220217,2433.6317,N,08052.4447,W,1,10,1.9,28,M,,M,,*6E
06/13/2015	22:02:17.614	$GPGGA,220218,2433.6328,N,08052.4434,W,1,9,1.9,28,M,,M,,*51
06/13/2015	22:02:18.514	$GPGGA,220219,2433.6339,N,08052.4422,W,1,9,1.9,28,M,,M,,*57
06/13/2015	22:02:19.654	$GPGGA,220220,2433.6348,N,08052.4410,W,1,9,2.0,28,M,,M,,*50
06/13/2015	22:02:20.654	$GPGGA,220221,2433.6356,N,08052.4394,W,1,9,1.9,28,M,,M,,*5F
06/13/2015	22:02:21.623	$GPGGA,220222,2433.6364,N,08052.4377,W,1,9,1.9,28,M,,M,,*50
06/13/2015	22:02:22.644	$GPGGA,220223,2433.6375,N,08052.4367,W,1,9,1.9,28,M,,M,,*50
06/13/2015	22:02:23.653	$GPGGA,220224,2433.6384,N,08052.4354,W,1,9,1.9,28,M,,M,,*59
06/13/2015	22:02:24.644	$GPGGA,220225,2433.6391,N,08052.4339,W,1,9,1.9,28,M,,M,,*57
06/13/2015	22:02:25.603	$GPGGA,220226,2433.6400,N,08052.4325,W,1,10,1.9,28,M,,M,,*6E
06/13/2015	22:02:26.644	$GPGGA,220227,2433.6410,N,08052.4311,W,1,10,1.9,28,M,,M,,*69
06/13/2015	22:02:27.634	$GPGGA,220228,2433.6418,N,08052.4299,W,1,9,1.9,28,M,,M,,*57
06/13/2015	22:02:28.654	$GPGGA,220229,2433.6429,N,08052.4285,W,1,9,2.0,28,M,,M,,*53
06/13/2015	22:02:29.604	$GPGGA,220230,2433.6436,N,08052.4269,W,1,9,2.0,28,M,,M,,*57
06/13/2015	22:02:30.554	$GPGGA,220231,2433.6445,N,08052.4256,W,1,9,1.9,28,M,,M,,*54
06/13/2015	22:02:31.614	$GPGGA,220232,2433.6454,N,08052.4245,W,1,9,2.0,28,M,,M,,*5F
06/13/2015	22:02:32.554	$GPGGA,220233,2433.6465,N,08052.4232,W,1,9,1.9,28,M,,M,,*56
06/13/2015	22:02:33.594	$GPGGA,220234,2433.6472,N,08052.4215,W,1,8,1.9,28,M,,M,,*53
06/13/2015	22:02:34.554	$GPGGA,220235,2433.6479,N,08052.4203,W,1,8,1.9,28,M,,M,,*5E
06/13/2015	22:02:35.924	$GPGGA,220236,2433.6492,N,08052.4191,W,1,10,1.9,28,M,,M,,*69
06/13/2015	22:02:36.624	$GPGGA,220237,2433.6500,N,08052.4177,W,1,10,1.9,28,M,,M,,*6A
06/13/2015	22:02:37.604	$GPGGA,220238,2433.6507,N,08052.4165,W,1,9,1.9,28,M,,M,,*59
06/13/2015	22:02:38.533	$GPGGA,220239,2433.6519,N,08052.4151,W,1,9,1.9,28,M,,M,,*50
06/13/2015	22:02:39.633	$GPGGA,220240,2433.6529,N,08052.4138,W,1,10,2.1,28,M,,M,,*61
06/13/2015	22:02:40.543	$GPGGA,220241,2433.6534,N,08052.4125,W,1,10,2.1,28,M,,M,,*60
06/13/2015	22:02:41.563	$GPGGA,220242,2433.6541,N,08052.4113,W,1,10,1.9,28,M,,M,,*6F
06/13/2015	22:02:42.593	$GPGGA,220243,2433.6552,N,08052.4099,W,1,10,1.9,28,M,,M,,*6F
06/13/2015	22:02:43.613	$GPGGA,220244,2433.6562,N,08052.4084,W,1,10,1.9,28,M,,M,,*67
06/13/2015	22:02:44.604	$GPGGA,220245,2433.6569,N,08052.4072,W,1,10,1.9,28,M,,M,,*64
06/13/2015	22:02:45.524	$GPGGA,220246,2433.6579,N,08052.4061,W,1,10,1.9,28,M,,M,,*64
06/13/2015	22:02:46.594	$GPGGA,220247,2433.6590,N,08052.4048,W,1,10,2.0,28,M,,M,,*63
06/13/2015	22:02:47.594	$GPGGA,220248,2433.6597,N,08052.4034,W,1,9,2.0,28,M,,M,,*58
06/13/2015	22:02:48.634	$GPGGA,220249,2433.6606,N,08052.4020,W,1,9,1.9,28,M,,M,,*5D
06/13/2015	22:02:49.575	$GPGGA,220250,2433.6617,N,08052.4007,W,1,10,1.9,27,M,,M,,*67
06/13/2015	22:02:50.576	$GPGGA,220251,2433.6626,N,08052.3995,W,1,10,1.9,27,M,,M,,*61
06/13/2015	22:02:51.586	$GPGGA,220252,2433.6637,N,08052.3983,W,1,10,1.9,27,M,,M,,*65
06/13/2015	22:02:52.614	$GPGGA,220253,2433.6648,N,08052.3968,W,1,10,1.9,27,M,,M,,*69
06/13/2015	22:02:53.554	$GPGGA,220254,2433.6656,N,08052.3954,W,1,10,1.9,27,M,,M,,*6E
06/13/2015	22:02:54.574	$GPGGA,220255,2433.6664,N,08052.3942,W,1,10,1.9,27,M,,M,,*69
06/13/2015	22:02:55.624	$GPGGA,220256,2433.6674,N,08052.3930,W,1,9,1.9,27,M,,M,,*56
06/13/2015	22:02:56.503	$GPGGA,220257,2433.6685,N,08052.3917,W,1,9,1.9,27,M,,M,,*5C
06/13/2015	22:02:57.603	$GPGGA,220258,2433.6692,N,08052.3902,W,1,10,2.0,27,M,,M,,*63
06/13/2015	22:02:58.577	$GPGGA,220259,2433.6702,N,08052.3887,W,1,10,1.9,27,M,,M,,*6C
06/13/2015	22:02:59.643	$GPGGA,220300,2433.6714,N,08052.3875,W,1,10,2.0,27,M,,M,,*61
06/13/2015	22:03:00.603	$GPGGA,220301,2433.6721,N,08052.3862,W,1,10,1.9,27,M,,M,,*6A
06/13/2015	22:03:01.624	$GPGGA,220302,2433.6731,N,08052.3847,W,1,10,1.9,27,M,,M,,*6F
06/13/2015	22:03:02.604	$GPGGA,220303,2433.6740,N,08052.3831,W,1,10,1.9,27,M,,M,,*69
06/13/2015	22:03:03.634	$GPGGA,220304,2433.6749,N,08052.3820,W,1,10,2.0,27,M,,M,,*6D
06/13/2015	22:03:04.584	$GPGGA,220305,2433.6758,N,08052.3806,W,1,10,1.9,27,M,,M,,*62
06/13/2015	22:03:05.604	$GPGGA,220306,2433.6767,N,08052.3791,W,1,10,1.9,27,M,,M,,*6C
06/13/2015	22:03:06.584	$GPGGA,220307,2433.6776,N,08052.3779,W,1,10,1.9,27,M,,M,,*6B
06/13/2015	22:03:07.614	$GPGGA,220308,2433.6786,N,08052.3766,W,1,10,1.9,27,M,,M,,*65
06/13/2015	22:03:08.574	$GPGGA,220309,2433.6794,N,08052.3750,W,1,10,1.9,27,M,,M,,*62
06/13/2015	22:03:09.594	$GPGGA,220310,2433.6805,N,08052.3735,W,1,10,1.9,27,M,,M,,*6E
06/13/2015	22:03:10.577	$GPGGA,220311,2433.6812,N,08052.3723,W,1,10,1.9,27,M,,M,,*6E
06/13/2015	22:03:11.604	$GPGGA,220312,2433.6823,N,08052.3712,W,1,10,1.9,28,M,,M,,*62
06/13/2015	22:03:12.585	$GPGGA,220313,2433.6833,N,08052.3698,W,1,10,1.9,28,M,,M,,*61
06/13/2015	22:03:13.593	$GPGGA,220314,2433.6843,N,08052.3683,W,1,9,1.9,28,M,,M,,*53
06/13/2015	22:03:14.563	$GPGGA,220315,2433.6851,N,08052.3672,W,1,9,1.9,28,M,,M,,*5F
06/13/2015	22:03:15.603	$GPGGA,220316,2433.6861,N,08052.3659,W,1,10,1.9,28,M,,M,,*6E
06/13/2015	22:03:16.563	$GPGGA,220317,2433.6870,N,08052.3647,W,1,10,1.9,28,M,,M,,*60
06/13/2015	22:03:17.603	$GPGGA,220318,2433.6877,N,08052.3632,W,1,10,2.0,28,M,,M,,*60
06/13/2015	22:03:18.586	$GPGGA,220319,2433.6888,N,08052.3618,W,1,10,1.9,28,M,,M,,*63
06/13/2015	22:03:19.594	$GPGGA,220320,2433.6888,N,08052.3618,W,1,10,1.9,28,M,,M,,*69
06/13/2015	22:03:20.564	$GPGGA,220321,2433.6906,N,08052.3596,W,1,10,1.9,28,M,,M,,*6A
06/13/2015	22:03:21.574	$GPGGA,220322,2433.6916,N,08052.3579,W,1,10,1.9,28,M,,M,,*69
06/13/2015	22:03:22.554	$GPGGA,220323,2433.6916,N,08052.3579,W,1,10,1.9,28,M,,M,,*68
06/13/2015	22:03:23.584	$GPGGA,220324,2433.6937,N,08052.3558,W,1,9,1.9,28,M,,M,,*57
06/13/2015	22:03:24.544	$GPGGA,220325,2433.6945,N,08052.3542,W,1,9,1.9,28,M,,M,,*58
06/13/2015	22:03:25.574	$GPGGA,220326,2433.6945,N,08052.3542,W,1,10,1.9,28,M,,M,,*63
06/13/2015	22:03:26.576	$GPGGA,220327,2433.6964,N,08052.3519,W,1,10,1.9,28,M,,M,,*6F
06/13/2015	22:03:27.564	$GPGGA,220328,2433.6974,N,08052.3505,W,1,10,1.9,28,M,,M,,*6C
06/13/2015	22:03:28.574	$GPGGA,220329,2433.6982,N,08052.3489,W,1,10,1.9,28,M,,M,,*61
06/13/2015	22:03:29.534	$GPGGA,220330,2433.6989,N,08052.3478,W,1,10,1.9,28,M,,M,,*6C
06/13/2015	22:03:30.554	$GPGGA,220331,2433.7002,N,08052.3468,W,1,10,1.9,28,M,,M,,*67
06/13/2015	22:03:31.593	$GPGGA,220332,2433.7010,N,08052.3452,W,1,10,1.9,28,M,,M,,*6E
06/13/2015	22:03:32.563	$GPGGA,220333,2433.7018,N,08052.3437,W,1,10,1.9,28,M,,M,,*64
06/13/2015	22:03:33.544	$GPGGA,220334,2433.7027,N,08052.3426,W,1,10,1.9,28,M,,M,,*6F
06/13/2015	22:03:34.533	$GPGGA,220335,2433.7027,N,08052.3426,W,1,10,1.9,28,M,,M,,*6E
06/13/2015	22:03:35.583	$GPGGA,220336,2433.7046,N,08052.3398,W,1,10,1.9,28,M,,M,,*68
06/13/2015	22:03:36.579	$GPGGA,220337,2433.7046,N,08052.3398,W,1,10,1.9,28,M,,M,,*69
06/13/2015	22:03:37.554	$GPGGA,220338,2433.7064,N,08052.3371,W,1,9,1.9,28,M,,M,,*59
06/13/2015	22:03:38.554	$GPGGA,220339,2433.7064,N,08052.3371,W,1,9,1.9,28,M,,M,,*58
06/13/2015	22:03:39.654	$GPGGA,220340,2433.7083,N,08052.3344,W,1,9,1.9,28,M,,M,,*59
06/13/2015	22:03:40.524	$GPGGA,220341,2433.7083,N,08052.3344,W,1,9,1.9,28,M,,M,,*58
06/13/2015	22:03:41.504	$GPGGA,220342,2433.7100,N,08052.3316,W,1,10,1.9,28,M,,M,,*6E
06/13/2015	22:03:42.554	$GPGGA,220343,2433.7110,N,08052.3303,W,1,10,1.9,28,M,,M,,*6A
06/13/2015	22:03:43.634	$GPGGA,220344,2433.7119,N,08052.3289,W,1,9,1.9,28,M,,M,,*5F
06/13/2015	22:03:44.624	$GPGGA,220345,2433.7126,N,08052.3274,W,1,9,1.9,28,M,,M,,*50
06/13/2015	22:03:45.604	$GPGGA,220346,2433.7137,N,08052.3261,W,1,9,1.9,28,M,,M,,*57
06/13/2015	22:03:46.604	$GPGGA,220347,2433.7148,N,08052.3248,W,1,9,1.9,28,M,,M,,*55
06/13/2015	22:03:47.624	$GPGGA,220348,2433.7155,N,08052.3232,W,1,10,1.9,28,M,,M,,*63
06/13/2015	22:03:48.593	$GPGGA,220349,2433.7165,N,08052.3218,W,1,10,1.9,28,M,,M,,*69
06/13/2015	22:03:49.593	$GPGGA,220350,2433.7172,N,08052.3203,W,1,9,2.0,28,M,,M,,*5F
06/13/2015	22:03:50.583	$GPGGA,220351,2433.7182,N,08052.3189,W,1,9,1.9,28,M,,M,,*5A
06/13/2015	22:03:51.623	$GPGGA,220352,2433.7193,N,08052.3174,W,1,9,1.9,28,M,,M,,*5B
06/13/2015	22:03:52.584	$GPGGA,220353,2433.7199,N,08052.3159,W,1,9,1.9,28,M,,M,,*5F
06/13/2015	22:03:53.574	$GPGGA,220354,2433.7206,N,08052.3143,W,1,10,1.9,28,M,,M,,*6E
06/13/2015	22:03:54.586	$GPGGA,220355,2433.7216,N,08052.3130,W,1,10,2.0,28,M,,M,,*60
06/13/2015	22:03:55.614	$GPGGA,220356,2433.7229,N,08052.3118,W,1,8,2.2,28,M,,M,,*5E
06/13/2015	22:03:56.574	$GPGGA,220357,2433.7237,N,08052.3102,W,1,8,2.0,28,M,,M,,*59
06/13/2015	22:03:57.594	$GPGGA,220358,2433.7242,N,08052.3086,W,1,9,1.9,28,M,,M,,*52
06/13/2015	22:03:58.564	$GPGGA,220359,2433.7253,N,08052.3072,W,1,9,2.0,28,M,,M,,*52
06/13/2015	22:03:59.614	$GPGGA,220400,2433.7263,N,08052.3057,W,1,8,2.1,28,M,,M,,*5D
06/13/2015	22:04:00.564	$GPGGA,220401,2433.7273,N,08052.3043,W,1,8,1.9,28,M,,M,,*53
06/13/2015	22:04:01.583	$GPGGA,220402,2433.7282,N,08052.3029,W,1,9,1.9,28,M,,M,,*53
06/13/2015	22:04:02.564	$GPGGA,220403,2433.7291,N,08052.3013,W,1,9,1.9,28,M,,M,,*59
06/13/2015	22:04:03.604	$GPGGA,220404,2433.7299,N,08052.2996,W,1,9,1.9,28,M,,M,,*53
06/13/2015	22:04:04.554	$GPGGA,220405,2433.7310,N,08052.2985,W,1,9,1.9,28,M,,M,,*50
06/13/2015	22:04:05.564	$GPGGA,220406,2433.7321,N,08052.2974,W,1,10,1.9,28,M,,M,,*67
06/13/2015	22:04:06.553	$GPGGA,220407,2433.7328,N,08052.2957,W,1,10,1.9,28,M,,M,,*6E
06/13/2015	22:04:07.583	$GPGGA,220408,2433.7336,N,08052.2941,W,1,10,1.9,28,M,,M,,*69
06/13/2015	22:04:08.553	$GPGGA,220409,2433.7346,N,08052.2930,W,1,10,1.9,28,M,,M,,*69
06/13/2015	22:04:09.533	$GPGGA,220410,2433.7357,N,08052.2918,W,1,10,1.9,28,M,,M,,*6B
06/13/2015	22:04:10.543	$GPGGA,220411,2433.7367,N,08052.2904,W,1,10,1.9,28,M,,M,,*64
06/13/2015	22:04:11.573	$GPGGA,220412,2433.7375,N,08052.2890,W,1,10,1.9,29,M,,M,,*69
06/13/2015	22:04:12.543	$GPGGA,220413,2433.7383,N,08052.2876,W,1,10,2.0,29,M,,M,,*63
06/13/2015	22:04:13.523	$GPGGA,220414,2433.7393,N,08052.2863,W,1,9,2.0,29,M,,M,,*59
06/13/2015	22:04:14.533	$GPGGA,220415,2433.7403,N,08052.2851,W,1,9,2.0,29,M,,M,,*57
06/13/2015	22:04:15.553	$GPGGA,220416,2433.7412,N,08052.2837,W,1,10,1.9,29,M,,M,,*66
06/13/2015	22:04:16.533	$GPGGA,220417,2433.7422,N,08052.2823,W,1,10,1.9,29,M,,M,,*61
06/13/2015	22:04:17.543	$GPGGA,220418,2433.7432,N,08052.2810,W,1,10,1.9,29,M,,M,,*6F
06/13/2015	22:04:18.533	$GPGGA,220419,2433.7444,N,08052.2797,W,1,10,2.0,29,M,,M,,*65
06/13/2015	22:04:19.543	$GPGGA,220420,2433.7454,N,08052.2782,W,1,10,1.9,29,M,,M,,*60
06/13/2015	22:04:20.523	$GPGGA,220421,2433.7462,N,08052.2766,W,1,10,1.9,29,M,,M,,*6E
06/13/2015	22:04:21.523	$GPGGA,220422,2433.7473,N,08052.2757,W,1,10,1.9,29,M,,M,,*6F
06/13/2015	22:04:22.777	$GPGGA,220423,2433.7486,N,08052.2743,W,1,10,1.9,29,M,,M,,*61
06/13/2015	22:04:23.654	$GPGGA,220424,2433.7493,N,08052.2726,W,1,10,1.9,29,M,,M,,*61
06/13/2015	22:04:24.543	$GPGGA,220425,2433.7502,N,08052.2714,W,1,10,1.9,29,M,,M,,*68
06/13/2015	22:04:25.603	$GPGGA,220426,2433.7513,N,08052.2703,W,1,10,1.9,29,M,,M,,*6D
06/13/2015	22:04:26.513	$GPGGA,220427,2433.7523,N,08052.2690,W,1,10,1.9,29,M,,M,,*64
06/13/2015	22:04:27.533	$GPGGA,220428,2433.7531,N,08052.2675,W,1,10,1.9,29,M,,M,,*63
06/13/2015	22:04:28.523	$GPGGA,220429,2433.7541,N,08052.2661,W,1,10,1.9,29,M,,M,,*60
06/13/2015	22:04:29.603	$GPGGA,220430,2433.7552,N,08052.2652,W,1,10,1.9,29,M,,M,,*6A
06/13/2015	22:04:30.503	$GPGGA,220431,2433.7560,N,08052.2638,W,1,10,1.9,28,M,,M,,*67
06/13/2015	22:04:31.603	$GPGGA,220432,2433.7570,N,08052.2623,W,1,10,1.9,28,M,,M,,*6F
06/13/2015	22:04:32.503	$GPGGA,220433,2433.7581,N,08052.2611,W,1,10,1.9,28,M,,M,,*61
06/13/2015	22:04:33.583	$GPGGA,220434,2433.7591,N,08052.2598,W,1,9,1.9,28,M,,M,,*5D
06/13/2015	22:04:34.577	$GPGGA,220435,2433.7600,N,08052.2586,W,1,9,1.9,28,M,,M,,*58
06/13/2015	22:04:35.587	$GPGGA,220436,2433.7610,N,08052.2572,W,1,10,1.9,28,M,,M,,*69
06/13/2015	22:04:36.493	$GPGGA,220437,2433.7621,N,08052.2558,W,1,10,1.9,28,M,,M,,*62
06/13/2015	22:04:37.586	$GPGGA,220438,2433.7632,N,08052.2546,W,1,9,2.0,28,M,,M,,*52
06/13/2015	22:04:38.582	$GPGGA,220439,2433.7642,N,08052.2532,W,1,9,2.0,28,M,,M,,*57
06/13/2015	22:04:39.624	$GPGGA,220440,2433.7650,N,08052.2518,W,1,10,1.9,28,M,,M,,*60
06/13/2015	22:04:40.572	$GPGGA,220441,2433.7661,N,08052.2504,W,1,10,1.9,28,M,,M,,*6E
06/13/2015	22:04:41.593	$GPGGA,220442,2433.7672,N,08052.2491,W,1,10,1.9,28,M,,M,,*62
06/13/2015	22:04:42.566	$GPGGA,220443,2433.7682,N,08052.2482,W,1,10,1.9,28,M,,M,,*6E
06/13/2015	22:04:43.603	$GPGGA,220444,2433.7693,N,08052.2469,W,1,10,1.9,28,M,,M,,*6C
06/13/2015	22:04:44.566	$GPGGA,220445,2433.7701,N,08052.2451,W,1,10,1.9,27,M,,M,,*63
06/13/2015	22:04:45.568	$GPGGA,220446,2433.7711,N,08052.2440,W,1,10,1.9,27,M,,M,,*61
06/13/2015	22:04:46.569	$GPGGA,220447,2433.7724,N,08052.2430,W,1,10,1.9,27,M,,M,,*61
06/13/2015	22:04:48.043	$GPGGA,220448,2433.7733,N,08052.2418,W,1,10,1.9,27,M,,M,,*62
06/13/2015	22:04:48.573	$GPGGA,220449,2433.7742,N,08052.2405,W,1,10,1.9,27,M,,M,,*69
06/13/2015	22:04:49.567	$GPGGA,220450,2433.7751,N,08052.2391,W,1,10,1.9,27,M,,M,,*69
06/13/2015	22:04:50.975	$GPGGA,220451,2433.7762,N,08052.2380,W,1,10,1.9,27,M,,M,,*68
06/13/2015	22:04:51.575	$GPGGA,220452,2433.7773,N,08052.2369,W,1,9,1.9,27,M,,M,,*54
06/13/2015	22:04:52.553	$GPGGA,220453,2433.7783,N,08052.2356,W,1,9,1.9,27,M,,M,,*56
06/13/2015	22:04:53.534	$GPGGA,220454,2433.7791,N,08052.2343,W,1,10,1.9,27,M,,M,,*6E
06/13/2015	22:04:54.543	$GPGGA,220455,2433.7804,N,08052.2329,W,1,10,1.9,27,M,,M,,*60
06/13/2015	22:04:55.543	$GPGGA,220456,2433.7813,N,08052.2317,W,1,10,1.9,27,M,,M,,*68
06/13/2015	22:04:56.543	$GPGGA,220457,2433.7823,N,08052.2308,W,1,10,1.9,27,M,,M,,*64
06/13/2015	22:04:57.577	$GPGGA,220458,2433.7833,N,08052.2295,W,1,9,1.9,27,M,,M,,*57
06/13/2015	22:04:58.523	$GPGGA,220459,2433.7842,N,08052.2279,W,1,9,1.9,27,M,,M,,*52
06/13/2015	22:04:59.613	$GPGGA,220500,2433.7852,N,08052.2269,W,1,10,1.9,27,M,,M,,*67
06/13/2015	22:05:00.523	$GPGGA,220501,2433.7859,N,08052.2258,W,1,10,1.9,27,M,,M,,*6F
06/13/2015	22:05:01.533	$GPGGA,220502,2433.7869,N,08052.2246,W,1,10,1.9,27,M,,M,,*60
06/13/2015	22:05:02.533	$GPGGA,220503,2433.7877,N,08052.2232,W,1,10,1.9,27,M,,M,,*6D
06/13/2015	22:05:03.553	$GPGGA,220504,2433.7885,N,08052.2219,W,1,10,1.9,27,M,,M,,*6E
06/13/2015	22:05:04.523	$GPGGA,220505,2433.7895,N,08052.2210,W,1,10,1.9,27,M,,M,,*67
06/13/2015	22:05:05.523	$GPGGA,220506,2433.7902,N,08052.2198,W,1,9,1.9,27,M,,M,,*50
06/13/2015	22:05:06.514	$GPGGA,220507,2433.7910,N,08052.2184,W,1,9,1.9,27,M,,M,,*5F
06/13/2015	22:05:07.643	$GPGGA,220508,2433.7921,N,08052.2170,W,1,8,2.0,27,M,,M,,*52
06/13/2015	22:05:08.523	$GPGGA,220509,2433.7928,N,08052.2159,W,1,8,1.9,27,M,,M,,*5B
06/13/2015	22:05:09.513	$GPGGA,220510,2433.7936,N,08052.2148,W,1,7,2.9,27,M,,M,,*50
06/13/2015	22:05:10.513	$GPGGA,220511,2433.7945,N,08052.2136,W,1,7,2.0,26,M,,M,,*54
06/13/2015	22:05:11.633	$GPGGA,220512,2433.7953,N,08052.2122,W,1,7,2.2,26,M,,M,,*57
06/13/2015	22:05:12.623	$GPGGA,220513,2433.7961,N,08052.2109,W,1,7,2.2,26,M,,M,,*5E
06/13/2015	22:05:13.933	$GPGGA,220514,2433.7971,N,08052.2098,W,1,9,1.9,26,M,,M,,*57
06/13/2015	22:05:14.504	$GPGGA,220515,2433.7979,N,08052.2085,W,1,9,1.9,26,M,,M,,*52
06/13/2015	22:05:15.603	$GPGGA,220516,2433.7988,N,08052.2070,W,1,8,2.0,26,M,,M,,*5E
06/13/2015	22:05:16.503	$GPGGA,220517,2433.7997,N,08052.2056,W,1,8,2.1,26,M,,M,,*54
06/13/2015	22:05:17.513	$GPGGA,220518,2433.8004,N,08052.2047,W,1,8,2.1,26,M,,M,,*57
06/13/2015	22:05:18.583	$GPGGA,220519,2433.8014,N,08052.2033,W,1,8,2.1,27,M,,M,,*55
06/13/2015	22:05:19.623	$GPGGA,220520,2433.8022,N,08052.2019,W,1,8,2.0,27,M,,M,,*53
06/13/2015	22:05:20.493	$GPGGA,220521,2433.8029,N,08052.2006,W,1,8,2.9,27,M,,M,,*5E
06/13/2015	22:05:21.577	$GPGGA,220522,2433.8036,N,08052.1994,W,1,9,2.0,27,M,,M,,*5A
06/13/2015	22:05:22.574	$GPGGA,220523,2433.8046,N,08052.1983,W,1,9,1.9,27,M,,M,,*50
06/13/2015	22:05:23.584	$GPGGA,220524,2433.8055,N,08052.1969,W,1,7,2.9,27,M,,M,,*5C
06/13/2015	22:05:24.564	$GPGGA,220525,2433.8064,N,08052.1955,W,1,7,2.0,27,M,,M,,*59
06/13/2015	22:05:25.593	$GPGGA,220526,2433.8069,N,08052.1943,W,1,8,2.0,27,M,,M,,*5F
06/13/2015	22:05:26.576	$GPGGA,220527,2433.8076,N,08052.1929,W,1,8,2.1,27,M,,M,,*5D
06/13/2015	22:05:27.583	$GPGGA,220528,2433.8083,N,08052.1917,W,1,9,2.0,27,M,,M,,*55
06/13/2015	22:05:28.574	$GPGGA,220529,2433.8089,N,08052.1905,W,1,9,2.0,27,M,,M,,*5D
06/13/2015	22:05:29.475	$GPGGA,220530,2433.8098,N,08052.1890,W,1,9,1.9,27,M,,M,,*52
06/13/2015	22:05:30.567	$GPGGA,220531,2433.8107,N,08052.1877,W,1,9,1.9,27,M,,M,,*5D
06/13/2015	22:05:31.614	$GPGGA,220532,2433.8112,N,08052.1863,W,1,10,1.9,28,M,,M,,*68
06/13/2015	22:05:32.566	$GPGGA,220533,2433.8123,N,08052.1849,W,1,10,2.0,28,M,,M,,*69
06/13/2015	22:05:33.583	$GPGGA,220534,2433.8134,N,08052.1839,W,1,10,1.9,28,M,,M,,*65
06/13/2015	22:05:34.553	$GPGGA,220535,2433.8141,N,08052.1825,W,1,10,1.9,28,M,,M,,*6B
06/13/2015	22:05:35.583	$GPGGA,220536,2433.8147,N,08052.1809,W,1,10,1.9,28,M,,M,,*60
06/13/2015	22:05:36.553	$GPGGA,220537,2433.8158,N,08052.1797,W,1,10,1.9,28,M,,M,,*67
06/13/2015	22:05:37.553	$GPGGA,220538,2433.8167,N,08052.1786,W,1,10,1.9,28,M,,M,,*64
06/13/2015	22:05:38.583	$GPGGA,220539,2433.8176,N,08052.1771,W,1,10,1.9,28,M,,M,,*6D
06/13/2015	22:05:39.573	$GPGGA,220540,2433.8184,N,08052.1756,W,1,10,1.9,29,M,,M,,*6A
06/13/2015	22:05:40.533	$GPGGA,220541,2433.8195,N,08052.1745,W,1,10,2.0,29,M,,M,,*63
06/13/2015	22:05:41.553	$GPGGA,220542,2433.8203,N,08052.1733,W,1,10,1.9,29,M,,M,,*67
06/13/2015	22:05:42.533	$GPGGA,220543,2433.8212,N,08052.1717,W,1,10,1.9,29,M,,M,,*60
06/13/2015	22:05:43.565	$GPGGA,220544,2433.8221,N,08052.1706,W,1,9,1.9,29,M,,M,,*5F
06/13/2015	22:05:44.533	$GPGGA,220545,2433.8232,N,08052.1695,W,1,9,1.9,29,M,,M,,*57
06/13/2015	22:05:45.523	$GPGGA,220546,2433.8239,N,08052.1678,W,1,10,1.9,30,M,,M,,*6C
06/13/2015	22:05:46.533	$GPGGA,220547,2433.8248,N,08052.1665,W,1,10,1.9,30,M,,M,,*67
06/13/2015	22:05:47.553	$GPGGA,220548,2433.8259,N,08052.1655,W,1,10,1.9,30,M,,M,,*6B
06/13/2015	22:05:48.523	$GPGGA,220549,2433.8270,N,08052.1642,W,1,10,1.9,30,M,,M,,*67
06/13/2015	22:05:49.514	$GPGGA,220550,2433.8277,N,08052.1627,W,1,9,2.0,30,M,,M,,*59
06/13/2015	22:05:50.533	$GPGGA,220551,2433.8286,N,08052.1613,W,1,9,1.9,30,M,,M,,*5B
06/13/2015	22:05:51.523	$GPGGA,220552,2433.8297,N,08052.1602,W,1,10,1.9,30,M,,M,,*60
06/13/2015	22:05:52.523	$GPGGA,220553,2433.8307,N,08052.1589,W,1,10,1.9,31,M,,M,,*68
06/13/2015	22:05:53.513	$GPGGA,220554,2433.8317,N,08052.1574,W,1,10,1.9,31,M,,M,,*6C
06/13/2015	22:05:54.513	$GPGGA,220555,2433.8325,N,08052.1561,W,1,10,1.9,31,M,,M,,*68
06/13/2015	22:05:56.683	$GPGGA,220557,2433.8347,N,08052.1535,W,1,10,1.9,31,M,,M,,*6F
06/13/2015	22:05:57.513	$GPGGA,220558,2433.8354,N,08052.1521,W,1,10,1.9,31,M,,M,,*67
06/13/2015	22:05:58.513	$GPGGA,220559,2433.8364,N,08052.1506,W,1,10,1.9,31,M,,M,,*60
06/13/2015	22:05:59.523	$GPGGA,220600,2433.8375,N,08052.1494,W,1,9,2.0,31,M,,M,,*57
06/13/2015	22:06:00.493	$GPGGA,220601,2433.8383,N,08052.1481,W,1,9,1.9,31,M,,M,,*51
06/13/2015	22:06:01.503	$GPGGA,220602,2433.8394,N,08052.1467,W,1,9,1.9,31,M,,M,,*5C
06/13/2015	22:06:02.603	$GPGGA,220603,2433.8408,N,08052.1456,W,1,9,1.9,31,M,,M,,*5D
06/13/2015	22:06:03.633	$GPGGA,220604,2433.8416,N,08052.1442,W,1,10,1.9,31,M,,M,,*68
06/13/2015	22:06:04.503	$GPGGA,220605,2433.8426,N,08052.1428,W,1,10,1.9,31,M,,M,,*66
06/13/2015	22:06:05.578	$GPGGA,220606,2433.8437,N,08052.1416,W,1,9,1.9,31,M,,M,,*50
06/13/2015	22:06:06.493	$GPGGA,220607,2433.8447,N,08052.1403,W,1,9,1.9,31,M,,M,,*52
06/13/2015	22:06:07.604	$GPGGA,220608,2433.8455,N,08052.1388,W,1,9,2.0,31,M,,M,,*50
06/13/2015	22:06:08.579	$GPGGA,220609,2433.8463,N,08052.1377,W,1,9,2.0,31,M,,M,,*54
06/13/2015	22:06:09.473	$GPGGA,220610,2433.8474,N,08052.1364,W,1,9,1.9,31,M,,M,,*52
06/13/2015	22:06:10.493	$GPGGA,220611,2433.8484,N,08052.1349,W,1,9,1.9,31,M,,M,,*53
06/13/2015	22:06:11.584	$GPGGA,220612,2433.8492,N,08052.1334,W,1,10,1.9,31,M,,M,,*65
06/13/2015	22:06:12.483	$GPGGA,220613,2433.8499,N,08052.1321,W,1,10,1.9,31,M,,M,,*6B
06/13/2015	22:06:13.477	$GPGGA,220614,2433.8510,N,08052.1309,W,1,10,1.9,31,M,,M,,*66
06/13/2015	22:06:14.473	$GPGGA,220615,2433.8519,N,08052.1295,W,1,10,1.9,31,M,,M,,*6A
06/13/2015	22:06:15.613	$GPGGA,220616,2433.8528,N,08052.1280,W,1,10,1.9,31,M,,M,,*6F
06/13/2015	22:06:16.568	$GPGGA,220617,2433.8535,N,08052.1264,W,1,10,1.9,31,M,,M,,*68
06/13/2015	22:06:17.577	$GPGGA,220618,2433.8545,N,08052.1253,W,1,10,1.9,31,M,,M,,*64
06/13/2015	22:06:18.553	$GPGGA,220619,2433.8557,N,08052.1243,W,1,10,1.9,31,M,,M,,*67
06/13/2015	22:06:19.563	$GPGGA,220620,2433.8566,N,08052.1227,W,1,9,1.9,31,M,,M,,*55
06/13/2015	22:06:20.553	$GPGGA,220621,2433.8573,N,08052.1212,W,1,9,1.9,31,M,,M,,*56
06/13/2015	22:06:21.553	$GPGGA,220622,2433.8582,N,08052.1201,W,1,10,1.9,31,M,,M,,*61
06/13/2015	22:06:22.553	$GPGGA,220623,2433.8593,N,08052.1188,W,1,10,1.9,31,M,,M,,*62
06/13/2015	22:06:23.603	$GPGGA,220624,2433.8602,N,08052.1176,W,1,9,2.0,31,M,,M,,*5D
06/13/2015	22:06:24.554	$GPGGA,220625,2433.8613,N,08052.1163,W,1,9,1.9,31,M,,M,,*52
06/13/2015	22:06:25.563	$GPGGA,220626,2433.8622,N,08052.1149,W,1,10,1.9,31,M,,M,,*63
06/13/2015	22:06:26.533	$GPGGA,220627,2433.8631,N,08052.1137,W,1,10,1.9,30,M,,M,,*68
06/13/2015	22:06:27.566	$GPGGA,220628,2433.8640,N,08052.1124,W,1,10,1.9,30,M,,M,,*63
06/13/2015	22:06:28.544	$GPGGA,220629,2433.8651,N,08052.1114,W,1,10,1.9,30,M,,M,,*61
06/13/2015	22:06:29.576	$GPGGA,220630,2433.8660,N,08052.1099,W,1,10,1.9,30,M,,M,,*6F
06/13/2015	22:06:30.523	$GPGGA,220631,2433.8667,N,08052.1084,W,1,10,1.9,30,M,,M,,*65
06/13/2015	22:06:31.566	$GPGGA,220632,2433.8674,N,08052.1072,W,1,9,2.0,30,M,,M,,*5F
06/13/2015	22:06:32.533	$GPGGA,220633,2433.8686,N,08052.1063,W,1,9,1.9,30,M,,M,,*59
06/13/2015	22:06:33.543	$GPGGA,220634,2433.8694,N,08052.1049,W,1,10,1.9,30,M,,M,,*6D
06/13/2015	22:06:34.533	$GPGGA,220635,2433.8700,N,08052.1032,W,1,10,1.9,31,M,,M,,*6D
06/13/2015	22:06:35.533	$GPGGA,220636,2433.8708,N,08052.1021,W,1,10,1.9,31,M,,M,,*64
06/13/2015	22:06:36.533	$GPGGA,220637,2433.8721,N,08052.1014,W,1,10,1.9,31,M,,M,,*68
06/13/2015	22:06:37.513	$GPGGA,220638,2433.8730,N,08052.1000,W,1,10,1.9,31,M,,M,,*62
06/13/2015	22:06:38.513	$GPGGA,220639,2433.8737,N,08052.0983,W,1,10,2.0,31,M,,M,,*6D
06/13/2015	22:06:39.553	$GPGGA,220640,2433.8745,N,08052.0974,W,1,9,2.0,31,M,,M,,*56
06/13/2015	22:06:40.503	$GPGGA,220641,2433.8755,N,08052.0965,W,1,9,1.9,31,M,,M,,*5C
06/13/2015	22:06:41.503	$GPGGA,220642,2433.8765,N,08052.0950,W,1,9,1.9,31,M,,M,,*5A
06/13/2015	22:06:42.514	$GPGGA,220643,2433.8773,N,08052.0937,W,1,9,1.9,31,M,,M,,*5D
06/13/2015	22:06:43.523	$GPGGA,220644,2433.8780,N,08052.0926,W,1,10,1.9,31,M,,M,,*6E
06/13/2015	22:06:44.503	$GPGGA,220645,2433.8790,N,08052.0913,W,1,10,2.0,31,M,,M,,*62
06/13/2015	22:06:45.523	$GPGGA,220646,2433.8798,N,08052.0901,W,1,9,1.9,31,M,,M,,*58
06/13/2015	22:06:46.513	$GPGGA,220647,2433.8803,N,08052.0887,W,1,9,2.1,31,M,,M,,*50
06/13/2015	22:06:47.513	$GPGGA,220648,2433.8812,N,08052.0876,W,1,9,2.0,31,M,,M,,*50
06/13/2015	22:06:48.613	$GPGGA,220649,2433.8823,N,08052.0865,W,1,9,1.9,31,M,,M,,*5B
06/13/2015	22:06:49.593	$GPGGA,220650,2433.8831,N,08052.0850,W,1,10,1.9,30,M,,M,,*6F
06/13/2015	22:06:50.483	$GPGGA,220651,2433.8837,N,08052.0835,W,1,10,1.9,30,M,,M,,*6B
06/13/2015	22:06:51.613	$GPGGA,220652,2433.8848,N,08052.0827,W,1,9,1.9,30,M,,M,,*5B
06/13/2015	22:06:52.493	$GPGGA,220653,2433.8860,N,08052.0815,W,1,9,1.9,30,M,,M,,*51
06/13/2015	22:06:53.503	$GPGGA,220654,2433.8867,N,08052.0800,W,1,10,1.9,30,M,,M,,*6D
06/13/2015	22:06:54.493	$GPGGA,220655,2433.8871,N,08052.0785,W,1,10,1.9,30,M,,M,,*69
06/13/2015	22:06:55.623	$GPGGA,220656,2433.8885,N,08052.0774,W,1,7,2.1,30,M,,M,,*52
06/13/2015	22:06:56.583	$GPGGA,220657,2433.8893,N,08052.0762,W,1,7,1.9,30,M,,M,,*58
06/13/2015	22:06:57.603	$GPGGA,220658,2433.8900,N,08052.0747,W,1,10,2.0,30,M,,M,,*67
06/13/2015	22:06:58.493	$GPGGA,220659,2433.8907,N,08052.0732,W,1,10,2.0,30,M,,M,,*63
06/13/2015	22:06:59.634	$GPGGA,220700,2433.8918,N,08052.0722,W,1,8,1.9,30,M,,M,,*52
06/13/2015	22:07:00.473	$GPGGA,220701,2433.8925,N,08052.0709,W,1,8,1.9,30,M,,M,,*54
06/13/2015	22:07:01.603	$GPGGA,220702,2433.8932,N,08052.0692,W,1,10,1.9,30,M,,M,,*6B
06/13/2015	22:07:02.564	$GPGGA,220703,2433.8940,N,08052.0679,W,1,10,2.0,31,M,,M,,*61
06/13/2015	22:07:03.603	$GPGGA,220704,2433.8951,N,08052.0672,W,1,9,1.9,31,M,,M,,*5F
06/13/2015	22:07:04.567	$GPGGA,220705,2433.8961,N,08052.0657,W,1,9,1.9,31,M,,M,,*5A
06/13/2015	22:07:05.573	$GPGGA,220706,2433.8969,N,08052.0640,W,1,9,1.9,31,M,,M,,*57
06/13/2015	22:07:06.553	$GPGGA,220707,2433.8979,N,08052.0631,W,1,9,1.9,31,M,,M,,*51
06/13/2015	22:07:07.583	$GPGGA,220708,2433.8990,N,08052.0620,W,1,10,1.9,31,M,,M,,*61
06/13/2015	22:07:08.553	$GPGGA,220709,2433.8998,N,08052.0606,W,1,10,1.9,31,M,,M,,*6C
06/13/2015	22:07:09.563	$GPGGA,220710,2433.9010,N,08052.0594,W,1,10,2.0,31,M,,M,,*6E
06/13/2015	22:07:10.553	$GPGGA,220711,2433.9019,N,08052.0582,W,1,10,2.0,31,M,,M,,*61
06/13/2015	22:07:11.573	$GPGGA,220712,2433.9029,N,08052.0567,W,1,9,2.0,31,M,,M,,*52
06/13/2015	22:07:12.543	$GPGGA,220713,2433.9039,N,08052.0556,W,1,9,2.0,31,M,,M,,*50
06/13/2015	22:07:13.563	$GPGGA,220714,2433.9050,N,08052.0545,W,1,9,2.0,31,M,,M,,*5A
06/13/2015	22:07:14.553	$GPGGA,220715,2433.9061,N,08052.0531,W,1,9,2.0,31,M,,M,,*5A
06/13/2015	22:07:15.593	$GPGGA,220716,2433.9069,N,08052.0517,W,1,9,2.0,31,M,,M,,*55
06/13/2015	22:07:16.544	$GPGGA,220717,2433.9077,N,08052.0504,W,1,9,2.0,31,M,,M,,*59
06/13/2015	22:07:17.544	$GPGGA,220718,2433.9090,N,08052.0496,W,1,9,2.0,31,M,,M,,*55
06/13/2015	22:07:18.543	$GPGGA,220719,2433.9101,N,08052.0484,W,1,9,2.0,31,M,,M,,*5E
06/13/2015	22:07:19.574	$GPGGA,220720,2433.9109,N,08052.0469,W,1,9,2.0,31,M,,M,,*5F
06/13/2015	22:07:20.533	$GPGGA,220721,2433.9119,N,08052.0457,W,1,9,2.0,31,M,,M,,*52
06/13/2015	22:07:21.553	$GPGGA,220722,2433.9128,N,08052.0446,W,1,9,2.0,31,M,,M,,*53
06/13/2015	22:07:22.513	$GPGGA,220723,2433.9138,N,08052.0433,W,1,9,2.0,31,M,,M,,*51
06/13/2015	22:07:23.593	$GPGGA,220724,2433.9148,N,08052.0423,W,1,9,2.0,31,M,,M,,*50
06/13/2015	22:07:24.513	$GPGGA,220725,2433.9159,N,08052.0412,W,1,9,2.0,30,M,,M,,*52
06/13/2015	22:07:25.553	$GPGGA,220726,2433.9167,N,08052.0397,W,1,9,2.0,30,M,,M,,*56
06/13/2015	22:07:26.503	$GPGGA,220727,2433.9174,N,08052.0385,W,1,9,2.0,30,M,,M,,*56
06/13/2015	22:07:27.523	$GPGGA,220728,2433.9186,N,08052.0376,W,1,9,2.1,30,M,,M,,*59
06/13/2015	22:07:28.513	$GPGGA,220729,2433.9196,N,08052.0362,W,1,9,2.0,30,M,,M,,*5D
06/13/2015	22:07:29.513	$GPGGA,220730,2433.9203,N,08052.0348,W,1,9,2.0,30,M,,M,,*52
06/13/2015	22:07:30.513	$GPGGA,220731,2433.9214,N,08052.0338,W,1,9,2.1,30,M,,M,,*53
06/13/2015	22:07:31.543	$GPGGA,220732,2433.9225,N,08052.0325,W,1,8,2.0,30,M,,M,,*5E
06/13/2015	22:07:32.593	$GPGGA,220733,2433.9232,N,08052.0310,W,1,8,2.0,30,M,,M,,*5F
06/13/2015	22:07:33.523	$GPGGA,220734,2433.9242,N,08052.0296,W,1,9,2.1,30,M,,M,,*50
06/13/2015	22:07:34.504	$GPGGA,220735,2433.9251,N,08052.0286,W,1,9,2.0,30,M,,M,,*53
06/13/2015	22:07:35.533	$GPGGA,220736,2433.9258,N,08052.0271,W,1,9,2.0,30,M,,M,,*51
06/13/2015	22:07:36.603	$GPGGA,220737,2433.9265,N,08052.0256,W,1,9,2.1,30,M,,M,,*5A
06/13/2015	22:07:37.893	$GPGGA,220738,2433.9276,N,08052.0244,W,1,8,2.1,30,M,,M,,*55
06/13/2015	22:07:38.503	$GPGGA,220739,2433.9283,N,08052.0228,W,1,8,2.0,30,M,,M,,*55
06/13/2015	22:07:39.623	$GPGGA,220740,2433.9290,N,08052.0215,W,1,9,2.9,30,M,,M,,*5F
06/13/2015	22:07:40.503	$GPGGA,220741,2433.9300,N,08052.0204,W,1,9,2.9,30,M,,M,,*56
06/13/2015	22:07:41.503	$GPGGA,220742,2433.9308,N,08052.0191,W,1,7,2.1,30,M,,M,,*54
06/13/2015	22:07:42.483	$GPGGA,220743,2433.9314,N,08052.0174,W,1,7,2.1,30,M,,M,,*53
06/13/2015	22:07:43.643	$GPGGA,220744,2433.9319,N,08052.0160,W,1,8,2.1,30,M,,M,,*53
06/13/2015	22:07:44.566	$GPGGA,220745,2433.9330,N,08052.0149,W,1,8,2.9,30,M,,M,,*5A
06/13/2015	22:07:45.487	$GPGGA,220746,2433.9341,N,08052.0136,W,1,7,2.1,30,M,,M,,*50
06/13/2015	22:07:46.568	$GPGGA,220747,2433.9348,N,08052.0120,W,1,7,2.1,30,M,,M,,*5F
06/13/2015	22:07:47.523	$GPGGA,220748,2433.9354,N,08052.0105,W,1,9,2.0,30,M,,M,,*55
06/13/2015	22:07:48.567	$GPGGA,220749,2433.9362,N,08052.0093,W,1,9,2.0,30,M,,M,,*5F
06/13/2015	22:07:49.477	$GPGGA,220750,2433.9370,N,08052.0083,W,1,8,2.1,30,M,,M,,*55
06/13/2015	22:07:50.566	$GPGGA,220751,2433.9380,N,08052.0068,W,1,8,2.1,30,M,,M,,*5E
06/13/2015	22:07:51.584	$GPGGA,220752,2433.9387,N,08052.0052,W,1,8,2.1,30,M,,M,,*53
06/13/2015	22:07:52.544	$GPGGA,220753,2433.9391,N,08052.0041,W,1,8,2.1,30,M,,M,,*57
06/13/2015	22:07:53.553	$GPGGA,220754,2433.9404,N,08052.0028,W,1,8,2.1,30,M,,M,,*54
06/13/2015	22:07:54.568	$GPGGA,220755,2433.9413,N,08052.0014,W,1,8,2.1,30,M,,M,,*5C
06/13/2015	22:07:55.583	$GPGGA,220756,2433.9419,N,08052.0001,W,1,7,2.9,30,M,,M,,*56
06/13/2015	22:07:56.543	$GPGGA,220757,2433.9427,N,08051.9987,W,1,7,2.3,30,M,,M,,*5D
06/13/2015	22:07:57.563	$GPGGA,220758,2433.9437,N,08051.9972,W,1,8,2.1,31,M,,M,,*55
06/13/2015	22:07:58.533	$GPGGA,220759,2433.9446,N,08051.9961,W,1,8,2.1,31,M,,M,,*50
06/13/2015	22:07:59.573	$GPGGA,220800,2433.9456,N,08051.9949,W,1,9,2.1,31,M,,M,,*59
06/13/2015	22:08:00.543	$GPGGA,220801,2433.9467,N,08051.9934,W,1,9,2.1,31,M,,M,,*50
06/13/2015	22:08:01.553	$GPGGA,220802,2433.9474,N,08051.9920,W,1,9,2.9,31,M,,M,,*5C
06/13/2015	22:08:02.533	$GPGGA,220803,2433.9485,N,08051.9908,W,1,9,2.9,31,M,,M,,*59
06/13/2015	22:08:03.563	$GPGGA,220804,2433.9495,N,08051.9896,W,1,9,2.0,31,M,,M,,*50
06/13/2015	22:08:04.543	$GPGGA,220805,2433.9506,N,08051.9882,W,1,9,2.1,31,M,,M,,*5E
06/13/2015	22:08:05.523	$GPGGA,220806,2433.9511,N,08051.9868,W,1,8,2.1,31,M,,M,,*5E
06/13/2015	22:08:06.524	$GPGGA,220807,2433.9517,N,08051.9857,W,1,8,2.9,31,M,,M,,*5D
06/13/2015	22:08:07.553	$GPGGA,220808,2433.9525,N,08051.9843,W,1,9,2.0,30,M,,M,,*5F
06/13/2015	22:08:08.523	$GPGGA,220809,2433.9536,N,08051.9830,W,1,9,2.1,30,M,,M,,*59
06/13/2015	22:08:09.514	$GPGGA,220810,2433.9542,N,08051.9818,W,1,8,2.3,30,M,,M,,*5B
06/13/2015	22:08:10.513	$GPGGA,220811,2433.9547,N,08051.9803,W,1,8,2.0,31,M,,M,,*57
06/13/2015	22:08:11.533	$GPGGA,220812,2433.9556,N,08051.9790,W,1,9,2.0,31,M,,M,,*50
06/13/2015	22:08:12.513	$GPGGA,220813,2433.9567,N,08051.9782,W,1,9,2.0,31,M,,M,,*50
06/13/2015	22:08:13.513	$GPGGA,220814,2433.9578,N,08051.9771,W,1,9,2.0,31,M,,M,,*55
06/13/2015	22:08:14.503	$GPGGA,220815,2433.9585,N,08051.9755,W,1,9,2.0,31,M,,M,,*50
06/13/2015	22:08:15.643	$GPGGA,220816,2433.9593,N,08051.9743,W,1,9,2.0,31,M,,M,,*53
06/13/2015	22:08:16.523	$GPGGA,220817,2433.9604,N,08051.9733,W,1,9,2.0,31,M,,M,,*58
06/13/2015	22:08:17.533	$GPGGA,220818,2433.9615,N,08051.9722,W,1,9,2.0,31,M,,M,,*57
06/13/2015	22:08:18.513	$GPGGA,220819,2433.9623,N,08051.9709,W,1,9,2.0,31,M,,M,,*5A
06/13/2015	22:08:19.523	$GPGGA,220820,2433.9633,N,08051.9696,W,1,9,2.0,31,M,,M,,*56
06/13/2015	22:08:20.493	$GPGGA,220821,2433.9641,N,08051.9684,W,1,9,2.0,31,M,,M,,*51
06/13/2015	22:08:21.503	$GPGGA,220822,2433.9652,N,08051.9673,W,1,9,2.0,31,M,,M,,*58
06/13/2015	22:08:22.483	$GPGGA,220823,2433.9664,N,08051.9661,W,1,9,2.0,31,M,,M,,*5F
06/13/2015	22:08:23.493	$GPGGA,220824,2433.9670,N,08051.9650,W,1,9,2.0,31,M,,M,,*5F
06/13/2015	22:08:24.483	$GPGGA,220825,2433.9679,N,08051.9637,W,1,9,2.0,31,M,,M,,*56
06/13/2015	22:08:25.603	$GPGGA,220826,2433.9691,N,08051.9626,W,1,8,2.1,31,M,,M,,*53
06/13/2015	22:08:26.504	$GPGGA,220827,2433.9702,N,08051.9616,W,1,8,2.0,31,M,,M,,*5B
06/13/2015	22:08:27.604	$GPGGA,220828,2433.9709,N,08051.9602,W,1,9,2.0,31,M,,M,,*5B
06/13/2015	22:08:28.493	$GPGGA,220829,2433.9719,N,08051.9590,W,1,9,2.0,31,M,,M,,*53
06/13/2015	22:08:29.566	$GPGGA,220830,2433.9731,N,08051.9579,W,1,9,2.0,31,M,,M,,*56
06/13/2015	22:08:30.565	$GPGGA,220831,2433.9740,N,08051.9566,W,1,9,2.0,31,M,,M,,*5F
06/13/2015	22:08:31.623	$GPGGA,220832,2433.9747,N,08051.9553,W,1,9,2.0,31,M,,M,,*5D
06/13/2015	22:08:32.563	$GPGGA,220833,2433.9755,N,08051.9540,W,1,9,2.1,31,M,,M,,*5C
06/13/2015	22:08:33.565	$GPGGA,220834,2433.9766,N,08051.9530,W,1,9,2.0,31,M,,M,,*5D
06/13/2015	22:08:34.553	$GPGGA,220835,2433.9774,N,08051.9517,W,1,9,2.0,31,M,,M,,*5A
06/13/2015	22:08:35.573	$GPGGA,220836,2433.9781,N,08051.9500,W,1,9,2.0,31,M,,M,,*55
06/13/2015	22:08:36.565	$GPGGA,220837,2433.9791,N,08051.9488,W,1,9,1.6,31,M,,M,,*51
06/13/2015	22:08:37.553	$GPGGA,220838,2433.9803,N,08051.9478,W,1,9,1.7,31,M,,M,,*54
06/13/2015	22:08:38.553	$GPGGA,220839,2433.9810,N,08051.9464,W,1,9,1.6,31,M,,M,,*5B
06/13/2015	22:08:39.583	$GPGGA,220840,2433.9816,N,08051.9449,W,1,10,1.6,31,M,,M,,*64
06/13/2015	22:08:40.553	$GPGGA,220841,2433.9827,N,08051.9435,W,1,10,1.6,31,M,,M,,*6C
06/13/2015	22:08:41.575	$GPGGA,220842,2433.9838,N,08051.9426,W,1,10,1.6,31,M,,M,,*63
06/13/2015	22:08:42.553	$GPGGA,220843,2433.9846,N,08051.9411,W,1,10,1.6,31,M,,M,,*6F
06/13/2015	22:08:43.553	$GPGGA,220844,2433.9854,N,08051.9396,W,1,10,1.6,31,M,,M,,*63
06/13/2015	22:08:44.554	$GPGGA,220845,2433.9864,N,08051.9385,W,1,10,1.6,31,M,,M,,*63
06/13/2015	22:08:45.553	$GPGGA,220846,2433.9874,N,08051.9373,W,1,10,1.6,31,M,,M,,*68
06/13/2015	22:08:46.543	$GPGGA,220847,2433.9882,N,08051.9358,W,1,10,2.0,31,M,,M,,*6C
06/13/2015	22:08:47.577	$GPGGA,220848,2433.9893,N,08051.9351,W,1,9,1.7,31,M,,M,,*56
06/13/2015	22:08:48.533	$GPGGA,220849,2433.9901,N,08051.9339,W,1,9,1.7,31,M,,M,,*53
06/13/2015	22:08:49.523	$GPGGA,220850,2433.9910,N,08051.9328,W,1,10,1.6,31,M,,M,,*62
06/13/2015	22:08:50.533	$GPGGA,220851,2433.9918,N,08051.9316,W,1,10,1.8,30,M,,M,,*69
06/13/2015	22:08:51.533	$GPGGA,220852,2433.9928,N,08051.9305,W,1,10,1.6,30,M,,M,,*65
06/13/2015	22:08:52.533	$GPGGA,220853,2433.9937,N,08051.9291,W,1,10,2.2,30,M,,M,,*61
06/13/2015	22:08:53.513	$GPGGA,220854,2433.9947,N,08051.9277,W,1,9,1.7,30,M,,M,,*57
06/13/2015	22:08:54.523	$GPGGA,220855,2433.9955,N,08051.9266,W,1,9,1.7,30,M,,M,,*55
06/13/2015	22:08:55.533	$GPGGA,220856,2433.9962,N,08051.9252,W,1,10,1.6,30,M,,M,,*6C
06/13/2015	22:08:56.534	$GPGGA,220857,2433.9969,N,08051.9236,W,1,10,1.7,30,M,,M,,*65
06/13/2015	22:08:57.513	$GPGGA,220858,2433.9977,N,08051.9226,W,1,10,1.6,30,M,,M,,*65
06/13/2015	22:08:58.523	$GPGGA,220859,2433.9987,N,08051.9213,W,1,10,1.7,30,M,,M,,*6C
06/13/2015	22:08:59.563	$GPGGA,220900,2433.9994,N,08051.9198,W,1,10,1.6,30,M,,M,,*62
06/13/2015	22:09:00.523	$GPGGA,220901,2434.0000,N,08051.9182,W,1,10,2.1,30,M,,M,,*66
06/13/2015	22:09:01.534	$GPGGA,220902,2434.0009,N,08051.9170,W,1,8,1.7,30,M,,M,,*5D
06/13/2015	22:09:02.504	$GPGGA,220903,2434.0018,N,08051.9157,W,1,8,1.6,30,M,,M,,*58
06/13/2015	22:09:03.533	$GPGGA,220904,2434.0026,N,08051.9143,W,1,8,2.1,30,M,,M,,*53
06/13/2015	22:09:04.503	$GPGGA,220905,2434.0030,N,08051.9128,W,1,8,1.6,30,M,,M,,*5C
06/13/2015	22:09:05.523	$GPGGA,220906,2434.0038,N,08051.9115,W,1,10,1.6,30,M,,M,,*60
06/13/2015	22:09:06.493	$GPGGA,220907,2434.0047,N,08051.9103,W,1,10,1.7,30,M,,M,,*6F
06/13/2015	22:09:07.533	$GPGGA,220908,2434.0056,N,08051.9089,W,1,9,1.7,30,M,,M,,*5B
06/13/2015	22:09:08.483	$GPGGA,220909,2434.0066,N,08051.9075,W,1,9,1.7,31,M,,M,,*5B
06/13/2015	22:09:09.503	$GPGGA,220910,2434.0074,N,08051.9061,W,1,9,1.7,31,M,,M,,*55
06/13/2015	22:09:10.583	$GPGGA,220911,2434.0083,N,08051.9046,W,1,9,1.6,31,M,,M,,*58
06/13/2015	22:09:11.613	$GPGGA,220912,2434.0092,N,08051.9033,W,1,9,1.7,31,M,,M,,*58
06/13/2015	22:09:12.493	$GPGGA,220913,2434.0100,N,08051.9020,W,1,9,1.6,31,M,,M,,*50
06/13/2015	22:09:13.473	$GPGGA,220914,2434.0110,N,08051.9005,W,1,10,1.6,31,M,,M,,*69
06/13/2015	22:09:14.493	$GPGGA,220915,2434.0120,N,08051.8992,W,1,10,1.7,31,M,,M,,*6C
06/13/2015	22:09:15.493	$GPGGA,220916,2434.0131,N,08051.8981,W,1,10,1.6,31,M,,M,,*6C
06/13/2015	22:09:16.483	$GPGGA,220917,2434.0139,N,08051.8965,W,1,10,1.7,31,M,,M,,*6E
06/13/2015	22:09:17.564	$GPGGA,220918,2434.0146,N,08051.8950,W,1,10,1.6,32,M,,M,,*6D
06/13/2015	22:09:18.564	$GPGGA,220919,2434.0159,N,08051.8940,W,1,10,1.6,32,M,,M,,*63
06/13/2015	22:09:19.594	$GPGGA,220920,2434.0168,N,08051.8926,W,1,10,1.6,32,M,,M,,*6B
06/13/2015	22:09:20.573	$GPGGA,220921,2434.0175,N,08051.8912,W,1,10,1.7,32,M,,M,,*60
06/13/2015	22:09:21.603	$GPGGA,220922,2434.0183,N,08051.8899,W,1,9,1.7,32,M,,M,,*50
06/13/2015	22:09:22.553	$GPGGA,220923,2434.0193,N,08051.8885,W,1,9,1.6,32,M,,M,,*5C
06/13/2015	22:09:23.603	$GPGGA,220924,2434.0203,N,08051.8875,W,1,9,1.7,32,M,,M,,*5F
06/13/2015	22:09:24.565	$GPGGA,220925,2434.0212,N,08051.8862,W,1,9,1.7,32,M,,M,,*58
06/13/2015	22:09:25.543	$GPGGA,220926,2434.0221,N,08051.8846,W,1,9,1.7,32,M,,M,,*5D
06/13/2015	22:09:26.553	$GPGGA,220927,2434.0229,N,08051.8833,W,1,9,1.6,32,M,,M,,*57
06/13/2015	22:09:27.573	$GPGGA,220928,2434.0239,N,08051.8821,W,1,9,1.7,32,M,,M,,*5B
06/13/2015	22:09:28.543	$GPGGA,220929,2434.0248,N,08051.8808,W,1,9,1.7,32,M,,M,,*57
06/13/2015	22:09:29.563	$GPGGA,220930,2434.0257,N,08051.8795,W,1,10,1.6,32,M,,M,,*63
06/13/2015	22:09:30.543	$GPGGA,220931,2434.0266,N,08051.8782,W,1,10,1.6,32,M,,M,,*66
06/13/2015	22:09:31.544	$GPGGA,220932,2434.0275,N,08051.8769,W,1,9,1.7,32,M,,M,,*5B
06/13/2015	22:09:32.543	$GPGGA,220933,2434.0283,N,08051.8756,W,1,9,1.6,32,M,,M,,*5E
06/13/2015	22:09:33.563	$GPGGA,220934,2434.0291,N,08051.8742,W,1,9,1.7,32,M,,M,,*5E
06/13/2015	22:09:34.523	$GPGGA,220935,2434.0302,N,08051.8728,W,1,9,1.7,32,M,,M,,*58
06/13/2015	22:09:35.573	$GPGGA,220936,2434.0309,N,08051.8715,W,1,10,1.6,32,M,,M,,*67
06/13/2015	22:09:36.534	$GPGGA,220937,2434.0316,N,08051.8701,W,1,10,1.6,32,M,,M,,*6D
06/13/2015	22:09:37.524	$GPGGA,220938,2434.0327,N,08051.8689,W,1,10,1.6,32,M,,M,,*61
06/13/2015	22:09:38.523	$GPGGA,220939,2434.0338,N,08051.8677,W,1,10,1.6,32,M,,M,,*6F
06/13/2015	22:09:39.533	$GPGGA,220940,2434.0347,N,08051.8662,W,1,9,2.0,32,M,,M,,*50
06/13/2015	22:09:40.533	$GPGGA,220941,2434.0355,N,08051.8649,W,1,9,1.6,32,M,,M,,*5E
06/13/2015	22:09:41.543	$GPGGA,220942,2434.0366,N,08051.8635,W,1,9,1.7,32,M,,M,,*57
06/13/2015	22:09:42.513	$GPGGA,220943,2434.0376,N,08051.8621,W,1,9,1.6,32,M,,M,,*53
06/13/2015	22:09:43.553	$GPGGA,220944,2434.0385,N,08051.8611,W,1,9,1.7,32,M,,M,,*5A
06/13/2015	22:09:44.523	$GPGGA,220945,2434.0395,N,08051.8598,W,1,9,1.6,32,M,,M,,*59
06/13/2015	22:09:45.553	$GPGGA,220946,2434.0405,N,08051.8585,W,1,10,1.6,32,M,,M,,*60
06/13/2015	22:09:46.643	$GPGGA,220947,2434.0414,N,08051.8574,W,1,10,1.6,32,M,,M,,*6F
06/13/2015	22:09:47.693	$GPGGA,220948,2434.0423,N,08051.8563,W,1,10,1.6,32,M,,M,,*62
06/13/2015	22:09:48.503	$GPGGA,220949,2434.0432,N,08051.8548,W,1,10,1.6,32,M,,M,,*6A
06/13/2015	22:09:49.523	$GPGGA,220950,2434.0441,N,08051.8535,W,1,10,1.6,32,M,,M,,*6C
06/13/2015	22:09:50.493	$GPGGA,220951,2434.0450,N,08051.8524,W,1,10,1.6,32,M,,M,,*6D
06/13/2015	22:09:51.533	$GPGGA,220952,2434.0461,N,08051.8511,W,1,10,1.6,31,M,,M,,*69
06/13/2015	22:09:52.593	$GPGGA,220953,2434.0468,N,08051.8496,W,1,10,1.6,31,M,,M,,*6F
06/13/2015	22:09:53.482	$GPGGA,220954,2434.0479,N,08051.8482,W,1,10,1.6,31,M,,M,,*6D
06/13/2015	22:09:54.504	$GPGGA,220955,2434.0489,N,08051.8471,W,1,10,1.6,31,M,,M,,*6F
06/13/2015	22:09:55.523	$GPGGA,220956,2434.0497,N,08051.8458,W,1,10,1.6,31,M,,M,,*68
06/13/2015	22:09:56.493	$GPGGA,220957,2434.0508,N,08051.8445,W,1,10,1.6,31,M,,M,,*62
06/13/2015	22:09:57.666	$GPGGA,220958,2434.0515,N,08051.8430,W,1,9,1.6,31,M,,M,,*5B
06/13/2015	22:09:58.643	$GPGGA,220959,2434.0526,N,08051.8420,W,1,9,1.6,31,M,,M,,*5B
06/13/2015	22:09:59.683	$GPGGA,221000,2434.0536,N,08051.8405,W,1,9,1.7,31,M,,M,,*58
06/13/2015	22:10:00.603	$GPGGA,221001,2434.0544,N,08051.8390,W,1,9,1.7,31,M,,M,,*57
06/13/2015	22:10:01.565	$GPGGA,221002,2434.0555,N,08051.8377,W,1,9,1.7,31,M,,M,,*5D
06/13/2015	22:10:02.563	$GPGGA,221003,2434.0564,N,08051.8363,W,1,9,1.7,31,M,,M,,*5B
06/13/2015	22:10:03.683	$GPGGA,221004,2434.0572,N,08051.8350,W,1,10,1.6,31,M,,M,,*62
06/13/2015	22:10:04.556	$GPGGA,221005,2434.0582,N,08051.8340,W,1,10,2.0,31,M,,M,,*68
06/13/2015	22:10:05.658	$GPGGA,221006,2434.0591,N,08051.8328,W,1,9,1.7,31,M,,M,,*5B
06/13/2015	22:10:06.583	$GPGGA,221007,2434.0598,N,08051.8313,W,1,9,1.7,31,M,,M,,*5B
06/13/2015	22:10:07.653	$GPGGA,221008,2434.0607,N,08051.8301,W,1,10,2.0,31,M,,M,,*6E
06/13/2015	22:10:08.613	$GPGGA,221009,2434.0616,N,08051.8289,W,1,10,1.6,31,M,,M,,*6B
06/13/2015	22:10:09.655	$GPGGA,221010,2434.0625,N,08051.8273,W,1,10,1.7,31,M,,M,,*67
06/13/2015	22:10:10.573	$GPGGA,221011,2434.0634,N,08051.8260,W,1,10,1.7,31,M,,M,,*64
06/13/2015	22:10:11.663	$GPGGA,221012,2434.0647,N,08051.8247,W,1,9,1.7,31,M,,M,,*5E
06/13/2015	22:10:12.543	$GPGGA,221013,2434.0654,N,08051.8232,W,1,9,1.7,31,M,,M,,*5F
06/13/2015	22:10:13.659	$GPGGA,221014,2434.0661,N,08051.8218,W,1,8,2.2,31,M,,M,,*51
06/13/2015	22:10:14.532	$GPGGA,221015,2434.0673,N,08051.8206,W,1,8,1.6,30,M,,M,,*5A
06/13/2015	22:10:15.658	$GPGGA,221016,2434.0681,N,08051.8191,W,1,9,1.7,30,M,,M,,*59
06/13/2015	22:10:16.561	$GPGGA,221017,2434.0688,N,08051.8176,W,1,9,1.7,30,M,,M,,*58
06/13/2015	22:10:17.632	$GPGGA,221018,2434.0695,N,08051.8164,W,1,9,1.7,30,M,,M,,*58
06/13/2015	22:10:18.522	$GPGGA,221019,2434.0708,N,08051.8150,W,1,9,1.6,30,M,,M,,*5A
06/13/2015	22:10:19.622	$GPGGA,221020,2434.0717,N,08051.8138,W,1,9,1.6,30,M,,M,,*50
06/13/2015	22:10:20.542	$GPGGA,221021,2434.0724,N,08051.8124,W,1,9,1.6,30,M,,M,,*5C
06/13/2015	22:10:21.632	$GPGGA,221022,2434.0732,N,08051.8111,W,1,10,1.6,30,M,,M,,*66
06/13/2015	22:10:22.555	$GPGGA,221023,2434.0742,N,08051.8100,W,1,10,1.7,30,M,,M,,*61
06/13/2015	22:10:23.669	$GPGGA,221024,2434.0753,N,08051.8087,W,1,10,1.6,30,M,,M,,*69
06/13/2015	22:10:24.513	$GPGGA,221025,2434.0760,N,08051.8072,W,1,10,1.6,30,M,,M,,*62
06/13/2015	22:10:26.573	$GPGGA,221027,2434.0779,N,08051.8048,W,1,9,1.6,30,M,,M,,*59
06/13/2015	22:10:27.623	$GPGGA,221028,2434.0789,N,08051.8036,W,1,10,1.7,30,M,,M,,*69
06/13/2015	22:10:28.533	$GPGGA,221029,2434.0797,N,08051.8020,W,1,10,1.7,30,M,,M,,*60
06/13/2015	22:10:29.603	$GPGGA,221030,2434.0807,N,08051.8007,W,1,9,1.7,30,M,,M,,*53
06/13/2015	22:10:30.502	$GPGGA,221031,2434.0818,N,08051.7997,W,1,9,1.7,30,M,,M,,*53
06/13/2015	22:10:31.582	$GPGGA,221032,2434.0826,N,08051.7981,W,1,9,1.7,30,M,,M,,*5A
06/13/2015	22:10:32.532	$GPGGA,221033,2434.0833,N,08051.7965,W,1,9,1.7,30,M,,M,,*55
06/13/2015	22:10:33.612	$GPGGA,221034,2434.0844,N,08051.7956,W,1,9,1.7,30,M,,M,,*52
06/13/2015	22:10:34.532	$GPGGA,221035,2434.0855,N,08051.7943,W,1,9,1.7,30,M,,M,,*57
06/13/2015	22:10:35.502	$GPGGA,221036,2434.0864,N,08051.7928,W,1,9,1.7,30,M,,M,,*5B
06/13/2015	22:10:36.482	$GPGGA,221037,2434.0871,N,08051.7917,W,1,9,1.6,30,M,,M,,*53
06/13/2015	22:10:37.563	$GPGGA,221038,2434.0880,N,08051.7905,W,1,10,1.6,30,M,,M,,*69
06/13/2015	22:10:38.482	$GPGGA,221039,2434.0890,N,08051.7891,W,1,10,1.6,30,M,,M,,*65
06/13/2015	22:10:39.613	$GPGGA,221040,2434.0896,N,08051.7878,W,1,9,1.6,30,M,,M,,*52
06/13/2015	22:10:40.513	$GPGGA,221041,2434.0905,N,08051.7865,W,1,9,1.7,30,M,,M,,*55
06/13/2015	22:10:41.563	$GPGGA,221042,2434.0914,N,08051.7851,W,1,9,1.6,30,M,,M,,*50
06/13/2015	22:10:42.514	$GPGGA,221043,2434.0923,N,08051.7837,W,1,9,1.6,30,M,,M,,*55
06/13/2015	22:10:43.633	$GPGGA,221044,2434.0930,N,08051.7824,W,1,9,1.6,30,M,,M,,*52
06/13/2015	22:10:44.513	$GPGGA,221045,2434.0940,N,08051.7810,W,1,9,1.7,30,M,,M,,*52
06/13/2015	22:10:45.583	$GPGGA,221046,2434.0949,N,08051.7795,W,1,9,1.6,30,M,,M,,*5B
06/13/2015	22:10:46.559	$GPGGA,221047,2434.0962,N,08051.7784,W,1,9,1.7,30,M,,M,,*52
06/13/2015	22:10:47.593	$GPGGA,221048,2434.0972,N,08051.7771,W,1,9,1.7,30,M,,M,,*56
06/13/2015	22:10:48.572	$GPGGA,221049,2434.0981,N,08051.7757,W,1,9,1.7,30,M,,M,,*5F
06/13/2015	22:10:49.602	$GPGGA,221050,2434.0990,N,08051.7744,W,1,9,1.7,30,M,,M,,*55
06/13/2015	22:10:50.564	$GPGGA,221051,2434.0999,N,08051.7729,W,1,9,1.7,30,M,,M,,*56
06/13/2015	22:10:51.572	$GPGGA,221052,2434.1009,N,08051.7717,W,1,8,1.7,30,M,,M,,*58
06/13/2015	22:10:52.556	$GPGGA,221053,2434.1019,N,08051.7705,W,1,8,1.7,30,M,,M,,*5B
06/13/2015	22:10:53.572	$GPGGA,221054,2434.1028,N,08051.7690,W,1,9,1.6,30,M,,M,,*53
06/13/2015	22:10:54.554	$GPGGA,221055,2434.1038,N,08051.7677,W,1,9,1.6,30,M,,M,,*5A
06/13/2015	22:10:55.571	$GPGGA,221056,2434.1046,N,08051.7664,W,1,10,1.6,30,M,,M,,*6A
06/13/2015	22:10:56.552	$GPGGA,221057,2434.1056,N,08051.7650,W,1,10,1.7,30,M,,M,,*6C
06/13/2015	22:10:57.603	$GPGGA,221058,2434.1066,N,08051.7636,W,1,9,1.7,30,M,,M,,*58
06/13/2015	22:10:58.553	$GPGGA,221059,2434.1066,N,08051.7636,W,1,9,1.7,30,M,,M,,*59
06/13/2015	22:10:59.633	$GPGGA,221100,2434.1084,N,08051.7608,W,1,9,1.7,30,M,,M,,*55
06/13/2015	22:11:00.533	$GPGGA,221101,2434.1095,N,08051.7595,W,1,9,1.7,30,M,,M,,*53
06/13/2015	22:11:01.569	$GPGGA,221102,2434.1104,N,08051.7581,W,1,9,1.7,30,M,,M,,*5C
06/13/2015	22:11:02.533	$GPGGA,221103,2434.1111,N,08051.7565,W,1,9,1.7,30,M,,M,,*53
06/13/2015	22:11:03.603	$GPGGA,221104,2434.1122,N,08051.7553,W,1,9,1.7,30,M,,M,,*51
06/13/2015	22:11:04.533	$GPGGA,221105,2434.1132,N,08051.7540,W,1,9,1.6,30,M,,M,,*52
06/13/2015	22:11:05.555	$GPGGA,221106,2434.1140,N,08051.7525,W,1,10,1.6,30,M,,M,,*6F
06/13/2015	22:11:06.532	$GPGGA,221107,2434.1150,N,08051.7511,W,1,10,1.7,29,M,,M,,*61
06/13/2015	22:11:07.568	$GPGGA,221108,2434.1161,N,08051.7500,W,1,9,1.7,29,M,,M,,*54
06/13/2015	22:11:08.552	$GPGGA,221109,2434.1172,N,08051.7485,W,1,9,1.7,29,M,,M,,*5B
06/13/2015	22:11:09.552	$GPGGA,221110,2434.1180,N,08051.7469,W,1,9,1.7,29,M,,M,,*5C
06/13/2015	22:11:10.502	$GPGGA,221111,2434.1190,N,08051.7456,W,1,9,1.7,29,M,,M,,*50
06/13/2015	22:11:11.622	$GPGGA,221112,2434.1201,N,08051.7444,W,1,9,1.6,29,M,,M,,*5A
06/13/2015	22:11:12.513	$GPGGA,221113,2434.1208,N,08051.7429,W,1,9,1.6,29,M,,M,,*59
06/13/2015	22:11:13.532	$GPGGA,221114,2434.1208,N,08051.7429,W,1,9,1.7,29,M,,M,,*5F
06/13/2015	22:11:14.523	$GPGGA,221115,2434.1227,N,08051.7400,W,1,9,1.6,29,M,,M,,*59
06/13/2015	22:11:15.563	$GPGGA,221116,2434.1227,N,08051.7400,W,1,9,1.7,29,M,,M,,*5B
06/13/2015	22:11:16.513	$GPGGA,221117,2434.1248,N,08051.7373,W,1,9,1.6,29,M,,M,,*51
06/13/2015	22:11:17.563	$GPGGA,221118,2434.1258,N,08051.7360,W,1,10,2.1,29,M,,M,,*61
06/13/2015	22:11:18.603	$GPGGA,221119,2434.1266,N,08051.7343,W,1,10,2.1,29,M,,M,,*6C
06/13/2015	22:11:19.643	$GPGGA,221120,2434.1277,N,08051.7329,W,1,10,1.6,29,M,,M,,*6E
06/13/2015	22:11:20.513	$GPGGA,221121,2434.1287,N,08051.7316,W,1,10,1.6,29,M,,M,,*6C
06/13/2015	22:11:21.555	$GPGGA,221122,2434.1295,N,08051.7300,W,1,9,1.7,29,M,,M,,*52
06/13/2015	22:11:22.503	$GPGGA,221123,2434.1305,N,08051.7286,W,1,9,1.7,29,M,,M,,*54
06/13/2015	22:11:23.643	$GPGGA,221124,2434.1315,N,08051.7274,W,1,10,1.6,29,M,,M,,*66
06/13/2015	22:11:24.592	$GPGGA,221125,2434.1324,N,08051.7259,W,1,10,1.6,29,M,,M,,*6A
06/13/2015	22:11:25.512	$GPGGA,221126,2434.1324,N,08051.7259,W,1,10,1.6,29,M,,M,,*69
06/13/2015	22:11:26.572	$GPGGA,221127,2434.1346,N,08051.7234,W,1,10,1.6,29,M,,M,,*67
06/13/2015	22:11:27.632	$GPGGA,221128,2434.1357,N,08051.7221,W,1,10,1.6,29,M,,M,,*6C
06/13/2015	22:11:28.502	$GPGGA,221129,2434.1357,N,08051.7221,W,1,10,1.6,29,M,,M,,*6D
06/13/2015	22:11:29.472	$GPGGA,221130,2434.1367,N,08051.7206,W,1,10,1.6,29,M,,M,,*63
06/13/2015	22:11:30.482	$GPGGA,221131,2434.1389,N,08051.7183,W,1,10,1.7,29,M,,M,,*6D
06/13/2015	22:11:31.603	$GPGGA,221132,2434.1399,N,08051.7168,W,1,10,1.6,29,M,,M,,*6B
06/13/2015	22:11:32.573	$GPGGA,221133,2434.1407,N,08051.7154,W,1,10,1.6,29,M,,M,,*65
06/13/2015	22:11:33.573	$GPGGA,221134,2434.1418,N,08051.7143,W,1,10,1.6,29,M,,M,,*6A
06/13/2015	22:11:34.556	$GPGGA,221135,2434.1428,N,08051.7131,W,1,10,1.6,29,M,,M,,*6D
06/13/2015	22:11:35.573	$GPGGA,221136,2434.1438,N,08051.7118,W,1,10,1.6,29,M,,M,,*64
06/13/2015	22:11:36.555	$GPGGA,221137,2434.1450,N,08051.7104,W,1,10,1.7,29,M,,M,,*67
06/13/2015	22:11:37.583	$GPGGA,221138,2434.1461,N,08051.7092,W,1,10,1.6,29,M,,M,,*65
06/13/2015	22:11:38.564	$GPGGA,221139,2434.1471,N,08051.7081,W,1,10,1.6,29,M,,M,,*67
06/13/2015	22:11:39.563	$GPGGA,221140,2434.1480,N,08051.7067,W,1,10,1.6,29,M,,M,,*6F
06/13/2015	22:11:40.565	$GPGGA,221141,2434.1489,N,08051.7053,W,1,10,1.7,29,M,,M,,*61
06/13/2015	22:11:41.543	$GPGGA,221142,2434.1498,N,08051.7040,W,1,9,1.7,29,M,,M,,*58
06/13/2015	22:11:42.542	$GPGGA,221143,2434.1510,N,08051.7028,W,1,9,1.6,29,M,,M,,*57
06/13/2015	22:11:43.572	$GPGGA,221144,2434.1516,N,08051.7014,W,1,10,1.6,29,M,,M,,*61
06/13/2015	22:11:44.532	$GPGGA,221145,2434.1522,N,08051.7000,W,1,10,1.6,29,M,,M,,*62
06/13/2015	22:11:45.572	$GPGGA,221146,2434.1534,N,08051.6987,W,1,10,1.6,29,M,,M,,*61
06/13/2015	22:11:46.542	$GPGGA,221147,2434.1541,N,08051.6972,W,1,10,1.7,29,M,,M,,*69
