Software Version Number: 1	Data File Format Number: 1	Build Version Number: 1	Error Count Since VI Started: 1	Manufacturer: Raytheon	 Model Number: RayMarine 120	 S/N: 	 Cal Date: 	 Wind Direction Offset: 0.00	 Slope (M)1: 0.00	 Offset (B)1: 0.00	 Slope (M)2: 0.00	 Offset (B)2: 0.00	 Slope (M)3: 0.00	 Offset (B)3: 0.00	 Slope (M)4: 0.00	 Offset (B)4: 0.00	 Slope (M)5: 0.00	 Offset (B)5: 0.00	 Slope (M)6: 0.00	 Offset (B)6: 0.00
Computer Date	Computer Time	GGA String
06/18/2015	10:00:00.527	$GPGGA,100001,2543.2202,N,07918.5276,W,1,9,1.7,11,M,,M,,*5C
06/18/2015	10:00:01.547	$GPGGA,100002,2543.2202,N,07918.5278,W,1,9,1.5,11,M,,M,,*53
06/18/2015	10:00:02.517	$GPGGA,100003,2543.2202,N,07918.5277,W,1,9,1.7,11,M,,M,,*5F
06/18/2015	10:00:03.557	$GPGGA,100004,2543.2202,N,07918.5278,W,1,8,1.7,11,M,,M,,*56
06/18/2015	10:00:04.627	$GPGGA,100005,2543.2202,N,07918.5278,W,1,8,1.5,11,M,,M,,*55
06/18/2015	10:00:05.496	$GPGGA,100006,2543.2202,N,07918.5278,W,1,8,1.9,11,M,,M,,*5A
06/18/2015	10:00:06.506	$GPGGA,100007,2543.2202,N,07918.5278,W,1,8,2.1,11,M,,M,,*50
06/18/2015	10:00:07.626	$GPGGA,100008,2543.2205,N,07918.5279,W,1,8,1.9,11,M,,M,,*52
06/18/2015	10:00:08.496	$GPGGA,100009,2543.2206,N,07918.5279,W,1,8,1.5,11,M,,M,,*5C
06/18/2015	10:00:09.616	$GPGGA,100010,2543.2206,N,07918.5279,W,1,9,1.5,11,M,,M,,*55
06/18/2015	10:00:10.596	$GPGGA,100011,2543.2206,N,07918.5279,W,1,9,1.5,11,M,,M,,*54
06/18/2015	10:00:11.596	$GPGGA,100012,2543.2208,N,07918.5280,W,1,9,1.5,11,M,,M,,*5F
06/18/2015	10:00:12.576	$GPGGA,100013,2543.2209,N,07918.5279,W,1,9,1.5,11,M,,M,,*59
06/18/2015	10:00:13.486	$GPGGA,100014,2543.2207,N,07918.5280,W,1,9,1.5,11,M,,M,,*56
06/18/2015	10:00:14.566	$GPGGA,100015,2543.2208,N,07918.5280,W,1,9,1.9,11,M,,M,,*54
06/18/2015	10:00:15.496	$GPGGA,100016,2543.2207,N,07918.5280,W,1,8,1.9,11,M,,M,,*59
06/18/2015	10:00:16.496	$GPGGA,100017,2543.2208,N,07918.5280,W,1,8,1.5,11,M,,M,,*5B
06/18/2015	10:00:17.616	$GPGGA,100018,2543.2206,N,07918.5280,W,1,9,1.5,11,M,,M,,*5B
06/18/2015	10:00:18.476	$GPGGA,100019,2543.2206,N,07918.5280,W,1,9,1.5,11,M,,M,,*5A
06/18/2015	10:00:19.576	$GPGGA,100020,2543.2206,N,07918.5282,W,1,9,1.5,11,M,,M,,*52
06/18/2015	10:00:20.566	$GPGGA,100021,2543.2208,N,07918.5281,W,1,9,1.7,11,M,,M,,*5C
06/18/2015	10:00:21.556	$GPGGA,100022,2543.2207,N,07918.5282,W,1,8,1.7,11,M,,M,,*52
06/18/2015	10:00:22.556	$GPGGA,100023,2543.2208,N,07918.5282,W,1,8,1.5,11,M,,M,,*5E
06/18/2015	10:00:23.596	$GPGGA,100024,2543.2209,N,07918.5282,W,1,8,1.7,11,M,,M,,*5A
06/18/2015	10:00:24.546	$GPGGA,100025,2543.2209,N,07918.5283,W,1,8,1.7,11,M,,M,,*5A
06/18/2015	10:00:25.576	$GPGGA,100026,2543.2209,N,07918.5283,W,1,8,1.7,11,M,,M,,*59
06/18/2015	10:00:26.546	$GPGGA,100027,2543.2209,N,07918.5283,W,1,8,1.7,11,M,,M,,*58
06/18/2015	10:00:27.556	$GPGGA,100028,2543.2211,N,07918.5285,W,1,8,1.7,11,M,,M,,*58
06/18/2015	10:00:28.546	$GPGGA,100029,2543.2210,N,07918.5284,W,1,8,1.7,11,M,,M,,*59
06/18/2015	10:00:29.556	$GPGGA,100030,2543.2212,N,07918.5285,W,1,8,1.7,11,M,,M,,*52
06/18/2015	10:00:30.546	$GPGGA,100031,2543.2211,N,07918.5285,W,1,8,1.7,11,M,,M,,*50
06/18/2015	10:00:31.576	$GPGGA,100032,2543.2212,N,07918.5286,W,1,8,1.7,11,M,,M,,*53
06/18/2015	10:00:32.538	$GPGGA,100033,2543.2213,N,07918.5286,W,1,8,1.7,11,M,,M,,*53
06/18/2015	10:00:33.556	$GPGGA,100034,2543.2213,N,07918.5286,W,1,8,1.7,11,M,,M,,*54
06/18/2015	10:00:34.536	$GPGGA,100035,2543.2213,N,07918.5287,W,1,8,1.5,11,M,,M,,*56
06/18/2015	10:00:35.566	$GPGGA,100036,2543.2213,N,07918.5289,W,1,9,1.5,11,M,,M,,*5A
06/18/2015	10:00:36.526	$GPGGA,100037,2543.2213,N,07918.5288,W,1,9,1.5,11,M,,M,,*5A
06/18/2015	10:00:40.765	$GPGGA,100041,2543.2213,N,07918.5293,W,1,9,1.5,11,M,,M,,*51
06/18/2015	10:00:41.556	$GPGGA,100042,2543.2213,N,07918.5293,W,1,9,1.5,11,M,,M,,*52
06/18/2015	10:00:42.529	$GPGGA,100043,2543.2213,N,07918.5293,W,1,9,1.5,11,M,,M,,*53
06/18/2015	10:00:43.556	$GPGGA,100044,2543.2215,N,07918.5294,W,1,9,1.5,11,M,,M,,*55
06/18/2015	10:00:44.506	$GPGGA,100045,2543.2214,N,07918.5296,W,1,9,1.5,11,M,,M,,*57
06/18/2015	10:00:45.526	$GPGGA,100046,2543.2215,N,07918.5295,W,1,9,1.5,11,M,,M,,*56
06/18/2015	10:00:46.516	$GPGGA,100047,2543.2216,N,07918.5296,W,1,9,1.5,11,M,,M,,*57
06/18/2015	10:00:47.566	$GPGGA,100048,2543.2215,N,07918.5297,W,1,9,1.5,11,M,,M,,*5A
06/18/2015	10:00:48.496	$GPGGA,100049,2543.2216,N,07918.5297,W,1,9,1.5,11,M,,M,,*58
06/18/2015	10:00:49.516	$GPGGA,100050,2543.2216,N,07918.5298,W,1,9,1.5,11,M,,M,,*5F
06/18/2015	10:00:50.516	$GPGGA,100051,2543.2216,N,07918.5298,W,1,9,1.5,11,M,,M,,*5E
06/18/2015	10:00:51.556	$GPGGA,100052,2543.2217,N,07918.5300,W,1,9,1.5,11,M,,M,,*5C
06/18/2015	10:00:52.506	$GPGGA,100053,2543.2217,N,07918.5300,W,1,9,1.5,11,M,,M,,*5D
06/18/2015	10:00:53.506	$GPGGA,100054,2543.2217,N,07918.5300,W,1,9,1.5,11,M,,M,,*5A
06/18/2015	10:00:54.586	$GPGGA,100055,2543.2217,N,07918.5301,W,1,9,1.5,11,M,,M,,*5A
06/18/2015	10:00:55.549	$GPGGA,100056,2543.2217,N,07918.5303,W,1,9,1.5,11,M,,M,,*5B
06/18/2015	10:00:56.496	$GPGGA,100057,2543.2217,N,07918.5303,W,1,9,1.5,11,M,,M,,*5A
06/18/2015	10:00:57.506	$GPGGA,100058,2543.2217,N,07918.5303,W,1,9,1.5,11,M,,M,,*55
06/18/2015	10:00:58.506	$GPGGA,100059,2543.2219,N,07918.5304,W,1,9,1.5,11,M,,M,,*5D
06/18/2015	10:00:59.646	$GPGGA,100100,2543.2218,N,07918.5305,W,1,9,1.5,11,M,,M,,*50
06/18/2015	10:01:00.486	$GPGGA,100101,2543.2219,N,07918.5305,W,1,9,1.5,11,M,,M,,*50
06/18/2015	10:01:01.586	$GPGGA,100102,2543.2220,N,07918.5307,W,1,9,1.7,11,M,,M,,*59
06/18/2015	10:01:02.486	$GPGGA,100103,2543.2220,N,07918.5306,W,1,9,1.7,11,M,,M,,*59
06/18/2015	10:01:03.637	$GPGGA,100104,2543.2220,N,07918.5307,W,1,9,1.5,11,M,,M,,*5D
06/18/2015	10:01:04.866	$GPGGA,100105,2543.2220,N,07918.5306,W,1,9,1.5,11,M,,M,,*5D
06/18/2015	10:01:05.476	$GPGGA,100106,2543.2222,N,07918.5307,W,1,9,1.5,11,M,,M,,*5D
06/18/2015	10:01:06.466	$GPGGA,100107,2543.2221,N,07918.5307,W,1,9,1.7,11,M,,M,,*5D
06/18/2015	10:01:07.586	$GPGGA,100108,2543.2223,N,07918.5307,W,1,8,1.7,11,M,,M,,*51
06/18/2015	10:01:08.476	$GPGGA,100109,2543.2222,N,07918.5308,W,1,8,1.7,11,M,,M,,*5E
06/18/2015	10:01:09.576	$GPGGA,100110,2543.2220,N,07918.5311,W,1,8,1.5,11,M,,M,,*5E
06/18/2015	10:01:10.816	$GPGGA,100111,2543.2220,N,07918.5314,W,1,8,1.5,11,M,,M,,*5A
06/18/2015	10:01:11.586	$GPGGA,100112,2543.2218,N,07918.5314,W,1,9,1.5,11,M,,M,,*53
06/18/2015	10:01:12.556	$GPGGA,100113,2543.2219,N,07918.5315,W,1,9,1.5,11,M,,M,,*52
06/18/2015	10:01:13.576	$GPGGA,100114,2543.2217,N,07918.5318,W,1,9,1.5,11,M,,M,,*56
06/18/2015	10:01:14.556	$GPGGA,100115,2543.2217,N,07918.5318,W,1,9,1.5,11,M,,M,,*57
06/18/2015	10:01:15.605	$GPGGA,100116,2543.2217,N,07918.5318,W,1,9,1.5,11,M,,M,,*54
06/18/2015	10:01:16.546	$GPGGA,100117,2543.2216,N,07918.5321,W,1,9,1.5,11,M,,M,,*5E
06/18/2015	10:01:17.576	$GPGGA,100118,2543.2217,N,07918.5320,W,1,9,1.7,11,M,,M,,*53
06/18/2015	10:01:18.549	$GPGGA,100119,2543.2219,N,07918.5321,W,1,9,1.5,11,M,,M,,*5F
06/18/2015	10:01:19.576	$GPGGA,100120,2543.2218,N,07918.5322,W,1,9,1.5,12,M,,M,,*54
06/18/2015	10:01:20.546	$GPGGA,100121,2543.2219,N,07918.5323,W,1,9,1.5,12,M,,M,,*55
06/18/2015	10:01:21.538	$GPGGA,100122,2543.2218,N,07918.5325,W,1,9,1.5,12,M,,M,,*51
06/18/2015	10:01:22.539	$GPGGA,100123,2543.2219,N,07918.5325,W,1,9,1.5,12,M,,M,,*51
06/18/2015	10:01:23.566	$GPGGA,100124,2543.2220,N,07918.5326,W,1,9,1.5,12,M,,M,,*5F
06/18/2015	10:01:24.546	$GPGGA,100125,2543.2220,N,07918.5327,W,1,9,1.5,12,M,,M,,*5F
06/18/2015	10:01:25.546	$GPGGA,100126,2543.2220,N,07918.5327,W,1,9,1.5,12,M,,M,,*5C
06/18/2015	10:01:26.526	$GPGGA,100127,2543.2220,N,07918.5329,W,1,9,1.5,12,M,,M,,*53
06/18/2015	10:01:27.586	$GPGGA,100128,2543.2222,N,07918.5329,W,1,9,1.5,12,M,,M,,*5E
06/18/2015	10:01:28.526	$GPGGA,100129,2543.2221,N,07918.5329,W,1,9,1.5,12,M,,M,,*5C
06/18/2015	10:01:29.546	$GPGGA,100130,2543.2223,N,07918.5330,W,1,9,1.5,12,M,,M,,*5E
06/18/2015	10:01:30.526	$GPGGA,100131,2543.2222,N,07918.5332,W,1,9,1.5,12,M,,M,,*5C
06/18/2015	10:01:31.546	$GPGGA,100132,2543.2223,N,07918.5332,W,1,9,1.5,12,M,,M,,*5E
06/18/2015	10:01:32.516	$GPGGA,100133,2543.2222,N,07918.5332,W,1,9,1.5,12,M,,M,,*5E
06/18/2015	10:01:33.516	$GPGGA,100134,2543.2223,N,07918.5333,W,1,9,1.5,12,M,,M,,*59
06/18/2015	10:01:34.506	$GPGGA,100135,2543.2224,N,07918.5334,W,1,9,1.5,12,M,,M,,*58
06/18/2015	10:01:35.546	$GPGGA,100136,2543.2224,N,07918.5336,W,1,9,1.5,12,M,,M,,*59
06/18/2015	10:01:36.516	$GPGGA,100137,2543.2224,N,07918.5337,W,1,9,1.5,12,M,,M,,*59
06/18/2015	10:01:37.616	$GPGGA,100138,2543.2224,N,07918.5339,W,1,9,1.5,12,M,,M,,*58
06/18/2015	10:01:38.516	$GPGGA,100139,2543.2224,N,07918.5338,W,1,9,1.5,12,M,,M,,*58
06/18/2015	10:01:39.546	$GPGGA,100140,2543.2224,N,07918.5340,W,1,9,1.5,12,M,,M,,*59
06/18/2015	10:01:40.516	$GPGGA,100141,2543.2224,N,07918.5340,W,1,9,1.5,12,M,,M,,*58
06/18/2015	10:01:41.957	$GPGGA,100142,2543.2224,N,07918.5341,W,1,9,1.5,12,M,,M,,*5A
06/18/2015	10:01:42.526	$GPGGA,100143,2543.2224,N,07918.5343,W,1,9,1.5,12,M,,M,,*59
06/18/2015	10:01:43.546	$GPGGA,100144,2543.2224,N,07918.5343,W,1,9,1.5,12,M,,M,,*5E
06/18/2015	10:01:44.576	$GPGGA,100145,2543.2224,N,07918.5344,W,1,9,1.5,12,M,,M,,*58
06/18/2015	10:01:45.486	$GPGGA,100146,2543.2224,N,07918.5345,W,1,9,1.4,12,M,,M,,*5B
06/18/2015	10:01:46.506	$GPGGA,100147,2543.2224,N,07918.5345,W,1,9,1.4,12,M,,M,,*5A
06/18/2015	10:01:47.640	$GPGGA,100148,2543.2224,N,07918.5347,W,1,9,1.4,12,M,,M,,*57
06/18/2015	10:01:48.576	$GPGGA,100149,2543.2224,N,07918.5347,W,1,9,1.4,13,M,,M,,*57
06/18/2015	10:01:49.616	$GPGGA,100150,2543.2224,N,07918.5347,W,1,9,1.4,13,M,,M,,*5F
06/18/2015	10:01:50.485	$GPGGA,100151,2543.2224,N,07918.5347,W,1,9,1.4,13,M,,M,,*5E
06/18/2015	10:01:51.616	$GPGGA,100152,2543.2224,N,07918.5348,W,1,9,1.4,13,M,,M,,*52
06/18/2015	10:01:52.576	$GPGGA,100153,2543.2222,N,07918.5350,W,1,9,1.4,13,M,,M,,*5C
06/18/2015	10:01:53.566	$GPGGA,100154,2543.2223,N,07918.5350,W,1,9,1.4,13,M,,M,,*5A
06/18/2015	10:01:54.566	$GPGGA,100155,2543.2222,N,07918.5350,W,1,9,1.4,13,M,,M,,*5A
06/18/2015	10:01:55.596	$GPGGA,100156,2543.2223,N,07918.5351,W,1,9,1.4,13,M,,M,,*59
06/18/2015	10:01:56.566	$GPGGA,100157,2543.2222,N,07918.5352,W,1,9,1.4,13,M,,M,,*5A
06/18/2015	10:01:57.556	$GPGGA,100158,2543.2221,N,07918.5354,W,1,9,1.4,13,M,,M,,*50
06/18/2015	10:01:58.566	$GPGGA,100159,2543.2223,N,07918.5354,W,1,9,1.4,13,M,,M,,*53
06/18/2015	10:01:59.626	$GPGGA,100200,2543.2221,N,07918.5355,W,1,9,1.4,14,M,,M,,*58
06/18/2015	10:02:00.556	$GPGGA,100201,2543.2222,N,07918.5357,W,1,9,1.4,14,M,,M,,*58
06/18/2015	10:02:01.566	$GPGGA,100202,2543.2221,N,07918.5358,W,1,10,1.4,14,M,,M,,*6F
06/18/2015	10:02:02.546	$GPGGA,100203,2543.2223,N,07918.5358,W,1,10,1.4,14,M,,M,,*6C
06/18/2015	10:02:03.556	$GPGGA,100204,2543.2222,N,07918.5361,W,1,10,1.4,14,M,,M,,*60
06/18/2015	10:02:04.556	$GPGGA,100205,2543.2223,N,07918.5361,W,1,10,1.4,14,M,,M,,*60
06/18/2015	10:02:05.566	$GPGGA,100206,2543.2222,N,07918.5363,W,1,10,1.4,14,M,,M,,*60
06/18/2015	10:02:06.546	$GPGGA,100207,2543.2223,N,07918.5365,W,1,10,1.4,14,M,,M,,*66
06/18/2015	10:02:08.576	$GPGGA,100209,2543.2223,N,07918.5366,W,1,10,1.4,14,M,,M,,*6B
06/18/2015	10:02:09.537	$GPGGA,100210,2543.2222,N,07918.5368,W,1,9,1.5,14,M,,M,,*55
06/18/2015	10:02:10.546	$GPGGA,100211,2543.2223,N,07918.5368,W,1,9,1.5,14,M,,M,,*55
06/18/2015	10:02:11.576	$GPGGA,100212,2543.2222,N,07918.5369,W,1,9,1.5,14,M,,M,,*56
06/18/2015	10:02:12.536	$GPGGA,100213,2543.2224,N,07918.5372,W,1,9,1.5,15,M,,M,,*5A
06/18/2015	10:02:13.526	$GPGGA,100214,2543.2224,N,07918.5372,W,1,9,1.5,15,M,,M,,*5D
06/18/2015	10:02:14.538	$GPGGA,100215,2543.2224,N,07918.5373,W,1,9,1.5,15,M,,M,,*5D
06/18/2015	10:02:15.556	$GPGGA,100216,2543.2224,N,07918.5376,W,1,10,1.4,15,M,,M,,*62
06/18/2015	10:02:16.526	$GPGGA,100217,2543.2224,N,07918.5375,W,1,10,1.4,15,M,,M,,*60
06/18/2015	10:02:17.526	$GPGGA,100218,2543.2224,N,07918.5376,W,1,10,1.4,15,M,,M,,*6C
06/18/2015	10:02:18.526	$GPGGA,100219,2543.2224,N,07918.5377,W,1,10,1.4,15,M,,M,,*6C
06/18/2015	10:02:19.537	$GPGGA,100220,2543.2224,N,07918.5379,W,1,10,1.4,15,M,,M,,*68
06/18/2015	10:02:20.526	$GPGGA,100221,2543.2224,N,07918.5380,W,1,10,1.4,15,M,,M,,*6F
06/18/2015	10:02:21.546	$GPGGA,100222,2543.2226,N,07918.5381,W,1,10,1.4,15,M,,M,,*6F
06/18/2015	10:02:22.516	$GPGGA,100223,2543.2225,N,07918.5383,W,1,10,1.4,15,M,,M,,*6F
06/18/2015	10:02:23.556	$GPGGA,100224,2543.2226,N,07918.5383,W,1,10,1.4,15,M,,M,,*6B
06/18/2015	10:02:24.496	$GPGGA,100225,2543.2225,N,07918.5384,W,1,10,1.4,15,M,,M,,*6E
06/18/2015	10:02:25.625	$GPGGA,100226,2543.2227,N,07918.5386,W,1,10,1.4,15,M,,M,,*6D
06/18/2015	10:02:26.506	$GPGGA,100227,2543.2226,N,07918.5387,W,1,10,1.4,15,M,,M,,*6C
06/18/2015	10:02:27.507	$GPGGA,100228,2543.2227,N,07918.5387,W,1,10,1.4,15,M,,M,,*62
06/18/2015	10:02:28.496	$GPGGA,100229,2543.2227,N,07918.5388,W,1,10,1.4,15,M,,M,,*6C
06/18/2015	10:02:29.616	$GPGGA,100230,2543.2229,N,07918.5390,W,1,9,1.5,15,M,,M,,*5A
06/18/2015	10:02:30.496	$GPGGA,100231,2543.2228,N,07918.5390,W,1,9,1.5,15,M,,M,,*5A
06/18/2015	10:02:31.607	$GPGGA,100232,2543.2230,N,07918.5391,W,1,9,1.5,15,M,,M,,*51
06/18/2015	10:02:32.506	$GPGGA,100233,2543.2229,N,07918.5392,W,1,9,1.5,15,M,,M,,*5B
06/18/2015	10:02:33.586	$GPGGA,100234,2543.2231,N,07918.5394,W,1,9,1.5,15,M,,M,,*53
06/18/2015	10:02:34.596	$GPGGA,100235,2543.2231,N,07918.5394,W,1,9,1.4,15,M,,M,,*53
06/18/2015	10:02:35.626	$GPGGA,100236,2543.2231,N,07918.5395,W,1,10,1.4,15,M,,M,,*69
06/18/2015	10:02:37.020	$GPGGA,100237,2543.2231,N,07918.5397,W,1,10,1.4,15,M,,M,,*6A
06/18/2015	10:02:37.596	$GPGGA,100238,2543.2231,N,07918.5399,W,1,10,1.4,15,M,,M,,*6B
06/18/2015	10:02:38.576	$GPGGA,100239,2543.2231,N,07918.5401,W,1,10,1.4,15,M,,M,,*6C
06/18/2015	10:02:39.616	$GPGGA,100240,2543.2231,N,07918.5404,W,1,10,1.4,15,M,,M,,*67
06/18/2015	10:02:40.576	$GPGGA,100241,2543.2231,N,07918.5405,W,1,10,1.4,15,M,,M,,*67
06/18/2015	10:02:41.586	$GPGGA,100242,2543.2231,N,07918.5408,W,1,10,1.4,15,M,,M,,*69
06/18/2015	10:02:42.566	$GPGGA,100243,2543.2231,N,07918.5409,W,1,10,1.4,15,M,,M,,*69
06/18/2015	10:02:43.586	$GPGGA,100244,2543.2233,N,07918.5409,W,1,10,1.4,15,M,,M,,*6C
06/18/2015	10:02:44.566	$GPGGA,100245,2543.2232,N,07918.5410,W,1,10,1.5,15,M,,M,,*65
06/18/2015	10:02:45.576	$GPGGA,100246,2543.2233,N,07918.5412,W,1,9,1.5,15,M,,M,,*5D
06/18/2015	10:02:46.556	$GPGGA,100247,2543.2232,N,07918.5415,W,1,9,1.5,15,M,,M,,*5A
06/18/2015	10:02:47.586	$GPGGA,100248,2543.2231,N,07918.5417,W,1,10,1.4,15,M,,M,,*6D
06/18/2015	10:02:48.576	$GPGGA,100249,2543.2231,N,07918.5419,W,1,10,1.4,15,M,,M,,*62
06/18/2015	10:02:49.576	$GPGGA,100250,2543.2231,N,07918.5420,W,1,10,1.4,15,M,,M,,*60
06/18/2015	10:02:50.546	$GPGGA,100251,2543.2231,N,07918.5421,W,1,10,1.4,15,M,,M,,*60
06/18/2015	10:02:51.566	$GPGGA,100252,2543.2231,N,07918.5423,W,1,9,1.8,15,M,,M,,*55
06/18/2015	10:02:52.546	$GPGGA,100253,2543.2231,N,07918.5424,W,1,9,1.8,15,M,,M,,*53
06/18/2015	10:02:53.537	$GPGGA,100254,2543.2228,N,07918.5428,W,1,8,1.9,15,M,,M,,*50
06/18/2015	10:02:54.546	$GPGGA,100255,2543.2229,N,07918.5431,W,1,8,1.9,15,M,,M,,*58
06/18/2015	10:02:55.566	$GPGGA,100256,2543.2228,N,07918.5433,W,1,9,1.8,15,M,,M,,*58
06/18/2015	10:02:56.536	$GPGGA,100257,2543.2229,N,07918.5434,W,1,9,1.9,15,M,,M,,*5E
06/18/2015	10:02:57.556	$GPGGA,100258,2543.2228,N,07918.5434,W,1,8,1.9,15,M,,M,,*51
06/18/2015	10:02:58.537	$GPGGA,100259,2543.2231,N,07918.5437,W,1,8,1.9,15,M,,M,,*5B
06/18/2015	10:02:59.576	$GPGGA,100300,2543.2234,N,07918.5437,W,1,9,1.5,15,M,,M,,*5E
06/18/2015	10:03:00.545	$GPGGA,100301,2543.2235,N,07918.5438,W,1,9,1.4,15,M,,M,,*50
06/18/2015	10:03:01.526	$GPGGA,100302,2543.2235,N,07918.5439,W,1,9,1.5,15,M,,M,,*53
06/18/2015	10:03:02.536	$GPGGA,100303,2543.2235,N,07918.5441,W,1,9,1.5,15,M,,M,,*5D
06/18/2015	10:03:03.556	$GPGGA,100304,2543.2235,N,07918.5441,W,1,10,1.4,15,M,,M,,*63
06/18/2015	10:03:04.536	$GPGGA,100305,2543.2235,N,07918.5442,W,1,10,1.5,15,M,,M,,*60
06/18/2015	10:03:05.526	$GPGGA,100306,2543.2235,N,07918.5444,W,1,9,1.5,15,M,,M,,*5D
06/18/2015	10:03:06.506	$GPGGA,100307,2543.2237,N,07918.5444,W,1,9,1.5,15,M,,M,,*5E
06/18/2015	10:03:07.537	$GPGGA,100308,2543.2238,N,07918.5446,W,1,9,1.5,15,M,,M,,*5C
06/18/2015	10:03:08.516	$GPGGA,100309,2543.2238,N,07918.5448,W,1,9,1.7,15,M,,M,,*51
06/18/2015	10:03:09.546	$GPGGA,100310,2543.2238,N,07918.5448,W,1,8,1.7,15,M,,M,,*58
06/18/2015	10:03:10.526	$GPGGA,100311,2543.2238,N,07918.5449,W,1,8,1.5,15,M,,M,,*5A
06/18/2015	10:03:11.526	$GPGGA,100312,2543.2238,N,07918.5452,W,1,9,1.5,15,M,,M,,*52
06/18/2015	10:03:12.496	$GPGGA,100313,2543.2238,N,07918.5452,W,1,9,1.5,15,M,,M,,*53
06/18/2015	10:03:13.539	$GPGGA,100314,2543.2238,N,07918.5453,W,1,9,1.5,15,M,,M,,*55
06/18/2015	10:03:14.516	$GPGGA,100315,2543.2238,N,07918.5455,W,1,9,1.5,15,M,,M,,*52
06/18/2015	10:03:15.526	$GPGGA,100316,2543.2238,N,07918.5455,W,1,9,1.5,15,M,,M,,*51
06/18/2015	10:03:16.496	$GPGGA,100317,2543.2238,N,07918.5456,W,1,9,1.5,16,M,,M,,*50
06/18/2015	10:03:17.486	$GPGGA,100318,2543.2240,N,07918.5456,W,1,9,1.5,16,M,,M,,*50
06/18/2015	10:03:18.606	$GPGGA,100319,2543.2238,N,07918.5459,W,1,9,1.4,16,M,,M,,*50
06/18/2015	10:03:19.616	$GPGGA,100320,2543.2238,N,07918.5462,W,1,10,1.4,16,M,,M,,*6A
06/18/2015	10:03:20.496	$GPGGA,100321,2543.2238,N,07918.5463,W,1,10,1.4,16,M,,M,,*6A
06/18/2015	10:03:21.586	$GPGGA,100322,2543.2238,N,07918.5464,W,1,9,1.5,16,M,,M,,*57
06/18/2015	10:03:22.496	$GPGGA,100323,2543.2238,N,07918.5466,W,1,9,1.5,16,M,,M,,*54
06/18/2015	10:03:23.486	$GPGGA,100324,2543.2240,N,07918.5466,W,1,9,1.5,16,M,,M,,*5C
06/18/2015	10:03:24.576	$GPGGA,100325,2543.2238,N,07918.5469,W,1,9,1.5,16,M,,M,,*5D
06/18/2015	10:03:25.576	$GPGGA,100326,2543.2238,N,07918.5470,W,1,10,1.4,16,M,,M,,*6F
06/18/2015	10:03:26.586	$GPGGA,100327,2543.2238,N,07918.5470,W,1,10,1.4,16,M,,M,,*6E
06/18/2015	10:03:27.596	$GPGGA,100328,2543.2240,N,07918.5473,W,1,10,1.4,16,M,,M,,*6D
06/18/2015	10:03:28.566	$GPGGA,100329,2543.2239,N,07918.5473,W,1,10,1.4,16,M,,M,,*62
06/18/2015	10:03:29.596	$GPGGA,100330,2543.2240,N,07918.5474,W,1,10,1.4,16,M,,M,,*63
06/18/2015	10:03:30.566	$GPGGA,100331,2543.2239,N,07918.5475,W,1,10,1.4,16,M,,M,,*6D
06/18/2015	10:03:31.566	$GPGGA,100332,2543.2240,N,07918.5475,W,1,9,1.4,16,M,,M,,*58
06/18/2015	10:03:32.556	$GPGGA,100333,2543.2239,N,07918.5477,W,1,9,1.4,16,M,,M,,*55
06/18/2015	10:03:33.566	$GPGGA,100334,2543.2240,N,07918.5476,W,1,8,1.6,16,M,,M,,*5E
06/18/2015	10:03:34.566	$GPGGA,100335,2543.2239,N,07918.5477,W,1,8,1.5,16,M,,M,,*53
06/18/2015	10:03:35.575	$GPGGA,100336,2543.2240,N,07918.5476,W,1,9,1.5,16,M,,M,,*5E
06/18/2015	10:03:36.556	$GPGGA,100337,2543.2242,N,07918.5480,W,1,9,1.6,16,M,,M,,*57
06/18/2015	10:03:37.556	$GPGGA,100338,2543.2244,N,07918.5480,W,1,8,1.7,16,M,,M,,*5E
06/18/2015	10:03:38.556	$GPGGA,100339,2543.2243,N,07918.5481,W,1,8,1.5,16,M,,M,,*5B
06/18/2015	10:03:39.586	$GPGGA,100340,2543.2244,N,07918.5481,W,1,9,1.5,16,M,,M,,*53
06/18/2015	10:03:40.556	$GPGGA,100341,2543.2243,N,07918.5484,W,1,9,1.4,16,M,,M,,*51
06/18/2015	10:03:41.566	$GPGGA,100342,2543.2244,N,07918.5484,W,1,10,1.4,16,M,,M,,*6D
06/18/2015	10:03:42.536	$GPGGA,100343,2543.2242,N,07918.5485,W,1,10,1.5,16,M,,M,,*6A
06/18/2015	10:03:43.566	$GPGGA,100344,2543.2244,N,07918.5486,W,1,9,1.5,16,M,,M,,*50
06/18/2015	10:03:44.526	$GPGGA,100345,2543.2243,N,07918.5488,W,1,9,1.5,16,M,,M,,*58
06/18/2015	10:03:45.556	$GPGGA,100346,2543.2245,N,07918.5488,W,1,9,1.5,16,M,,M,,*5D
06/18/2015	10:03:46.538	$GPGGA,100347,2543.2244,N,07918.5489,W,1,9,1.5,16,M,,M,,*5C
06/18/2015	10:03:47.566	$GPGGA,100348,2543.2245,N,07918.5491,W,1,9,1.5,16,M,,M,,*5B
06/18/2015	10:03:48.526	$GPGGA,100349,2543.2245,N,07918.5492,W,1,9,1.5,16,M,,M,,*59
06/18/2015	10:03:49.526	$GPGGA,100350,2543.2247,N,07918.5495,W,1,10,1.4,16,M,,M,,*6D
06/18/2015	10:03:50.526	$GPGGA,100351,2543.2245,N,07918.5496,W,1,10,1.4,16,M,,M,,*6D
06/18/2015	10:03:51.576	$GPGGA,100352,2543.2244,N,07918.5499,W,1,10,1.4,16,M,,M,,*60
06/18/2015	10:03:52.526	$GPGGA,100353,2543.2245,N,07918.5500,W,1,10,1.4,16,M,,M,,*61
06/18/2015	10:03:54.546	$GPGGA,100355,2543.2247,N,07918.5503,W,1,10,1.5,16,M,,M,,*67
06/18/2015	10:03:55.536	$GPGGA,100356,2543.2246,N,07918.5506,W,1,9,1.5,16,M,,M,,*58
06/18/2015	10:03:56.506	$GPGGA,100357,2543.2247,N,07918.5506,W,1,9,1.5,16,M,,M,,*58
06/18/2015	10:03:57.666	$GPGGA,100358,2543.2248,N,07918.5507,W,1,9,1.5,16,M,,M,,*59
06/18/2015	10:03:58.516	$GPGGA,100359,2543.2247,N,07918.5509,W,1,9,1.5,16,M,,M,,*59
06/18/2015	10:03:59.537	$GPGGA,100400,2543.2248,N,07918.5510,W,1,9,1.5,16,M,,M,,*55
06/18/2015	10:04:00.496	$GPGGA,100401,2543.2247,N,07918.5511,W,1,9,1.5,16,M,,M,,*5A
06/18/2015	10:04:01.506	$GPGGA,100402,2543.2249,N,07918.5513,W,1,9,1.5,16,M,,M,,*55
06/18/2015	10:04:02.496	$GPGGA,100403,2543.2249,N,07918.5514,W,1,9,1.5,16,M,,M,,*53
06/18/2015	10:04:03.526	$GPGGA,100404,2543.2249,N,07918.5516,W,1,9,1.5,15,M,,M,,*55
06/18/2015	10:04:04.496	$GPGGA,100405,2543.2249,N,07918.5517,W,1,9,1.5,15,M,,M,,*55
06/18/2015	10:04:05.516	$GPGGA,100406,2543.2249,N,07918.5518,W,1,9,1.5,15,M,,M,,*59
06/18/2015	10:04:06.496	$GPGGA,100407,2543.2249,N,07918.5520,W,1,9,1.5,15,M,,M,,*53
06/18/2015	10:04:07.496	$GPGGA,100408,2543.2249,N,07918.5521,W,1,9,1.5,15,M,,M,,*5D
06/18/2015	10:04:08.496	$GPGGA,100409,2543.2249,N,07918.5524,W,1,9,1.5,15,M,,M,,*59
06/18/2015	10:04:09.486	$GPGGA,100410,2543.2251,N,07918.5525,W,1,9,1.5,15,M,,M,,*59
06/18/2015	10:04:10.645	$GPGGA,100411,2543.2250,N,07918.5527,W,1,9,1.5,15,M,,M,,*5B
06/18/2015	10:04:11.666	$GPGGA,100412,2543.2251,N,07918.5528,W,1,9,1.5,15,M,,M,,*56
06/18/2015	10:04:12.496	$GPGGA,100413,2543.2250,N,07918.5531,W,1,9,1.5,15,M,,M,,*5E
06/18/2015	10:04:13.616	$GPGGA,100414,2543.2251,N,07918.5532,W,1,9,1.5,15,M,,M,,*5B
06/18/2015	10:04:14.486	$GPGGA,100415,2543.2247,N,07918.5539,W,1,9,1.5,15,M,,M,,*56
06/18/2015	10:04:15.587	$GPGGA,100416,2543.2249,N,07918.5540,W,1,10,1.4,15,M,,M,,*6C
06/18/2015	10:04:16.656	$GPGGA,100417,2543.2249,N,07918.5542,W,1,10,1.4,15,M,,M,,*6F
06/18/2015	10:04:17.596	$GPGGA,100418,2543.2249,N,07918.5543,W,1,10,1.4,14,M,,M,,*60
06/18/2015	10:04:18.656	$GPGGA,100419,2543.2249,N,07918.5545,W,1,10,1.4,14,M,,M,,*67
06/18/2015	10:04:19.656	$GPGGA,100420,2543.2249,N,07918.5546,W,1,10,1.4,14,M,,M,,*6E
06/18/2015	10:04:20.556	$GPGGA,100421,2543.2249,N,07918.5547,W,1,10,1.4,14,M,,M,,*6E
06/18/2015	10:04:21.616	$GPGGA,100422,2543.2251,N,07918.5549,W,1,10,1.4,14,M,,M,,*6A
06/18/2015	10:04:22.640	$GPGGA,100423,2543.2250,N,07918.5550,W,1,10,1.5,14,M,,M,,*63
06/18/2015	10:04:23.656	$GPGGA,100424,2543.2251,N,07918.5551,W,1,9,1.5,14,M,,M,,*5C
06/18/2015	10:04:24.626	$GPGGA,100425,2543.2252,N,07918.5553,W,1,9,1.4,14,M,,M,,*5D
06/18/2015	10:04:25.586	$GPGGA,100426,2543.2251,N,07918.5553,W,1,9,1.5,14,M,,M,,*5C
06/18/2015	10:04:26.606	$GPGGA,100427,2543.2252,N,07918.5554,W,1,9,1.5,14,M,,M,,*59
06/18/2015	10:04:27.615	$GPGGA,100428,2543.2250,N,07918.5557,W,1,9,1.5,14,M,,M,,*57
06/18/2015	10:04:28.616	$GPGGA,100429,2543.2251,N,07918.5558,W,1,9,1.4,14,M,,M,,*59
06/18/2015	10:04:29.606	$GPGGA,100430,2543.2250,N,07918.5560,W,1,9,1.5,14,M,,M,,*5A
06/18/2015	10:04:30.536	$GPGGA,100431,2543.2252,N,07918.5560,W,1,9,1.5,14,M,,M,,*59
06/18/2015	10:04:31.596	$GPGGA,100432,2543.2251,N,07918.5561,W,1,9,1.5,14,M,,M,,*58
06/18/2015	10:04:32.546	$GPGGA,100433,2543.2249,N,07918.5564,W,1,9,1.5,14,M,,M,,*55
06/18/2015	10:04:33.526	$GPGGA,100434,2543.2249,N,07918.5562,W,1,9,1.4,14,M,,M,,*55
06/18/2015	10:04:34.616	$GPGGA,100435,2543.2249,N,07918.5564,W,1,9,1.5,14,M,,M,,*53
06/18/2015	10:04:35.616	$GPGGA,100436,2543.2249,N,07918.5563,W,1,8,1.6,14,M,,M,,*55
06/18/2015	10:04:36.546	$GPGGA,100437,2543.2249,N,07918.5564,W,1,8,1.6,14,M,,M,,*53
06/18/2015	10:04:37.566	$GPGGA,100438,2543.2249,N,07918.5565,W,1,8,1.6,14,M,,M,,*5D
06/18/2015	10:04:38.576	$GPGGA,100439,2543.2247,N,07918.5564,W,1,8,1.4,14,M,,M,,*51
06/18/2015	10:04:39.526	$GPGGA,100440,2543.2248,N,07918.5565,W,1,10,1.4,14,M,,M,,*68
06/18/2015	10:04:40.586	$GPGGA,100441,2543.2247,N,07918.5567,W,1,10,1.8,14,M,,M,,*68
06/18/2015	10:04:41.596	$GPGGA,100442,2543.2248,N,07918.5568,W,1,8,1.5,14,M,,M,,*5F
06/18/2015	10:04:42.576	$GPGGA,100443,2543.2246,N,07918.5568,W,1,8,1.5,14,M,,M,,*50
06/18/2015	10:04:43.616	$GPGGA,100444,2543.2247,N,07918.5569,W,1,9,1.5,14,M,,M,,*56
06/18/2015	10:04:44.576	$GPGGA,100445,2543.2246,N,07918.5571,W,1,9,1.5,14,M,,M,,*5F
06/18/2015	10:04:45.545	$GPGGA,100446,2543.2247,N,07918.5574,W,1,9,1.5,14,M,,M,,*58
06/18/2015	10:04:46.576	$GPGGA,100447,2543.2246,N,07918.5574,W,1,9,1.3,14,M,,M,,*5E
06/18/2015	10:04:47.576	$GPGGA,100448,2543.2245,N,07918.5574,W,1,10,1.5,14,M,,M,,*6C
06/18/2015	10:04:48.496	$GPGGA,100449,2543.2244,N,07918.5578,W,1,10,1.5,14,M,,M,,*60
06/18/2015	10:04:49.496	$GPGGA,100450,2543.2245,N,07918.5578,W,1,9,1.5,14,M,,M,,*51
06/18/2015	10:04:50.566	$GPGGA,100451,2543.2245,N,07918.5581,W,1,9,1.3,14,M,,M,,*50
06/18/2015	10:04:51.626	$GPGGA,100452,2543.2245,N,07918.5582,W,1,10,1.3,14,M,,M,,*68
06/18/2015	10:04:52.576	$GPGGA,100453,2543.2245,N,07918.5583,W,1,10,1.3,14,M,,M,,*68
06/18/2015	10:04:53.607	$GPGGA,100454,2543.2245,N,07918.5585,W,1,10,1.3,14,M,,M,,*69
06/18/2015	10:04:54.556	$GPGGA,100455,2543.2245,N,07918.5586,W,1,10,1.5,14,M,,M,,*6D
06/18/2015	10:04:55.606	$GPGGA,100456,2543.2245,N,07918.5587,W,1,9,1.5,15,M,,M,,*56
06/18/2015	10:04:56.606	$GPGGA,100457,2543.2247,N,07918.5589,W,1,9,1.6,15,M,,M,,*58
06/18/2015	10:04:57.616	$GPGGA,100458,2543.2246,N,07918.5589,W,1,8,1.6,15,M,,M,,*57
06/18/2015	10:04:58.586	$GPGGA,100459,2543.2249,N,07918.5592,W,1,8,1.5,15,M,,M,,*50
06/18/2015	10:04:59.596	$GPGGA,100500,2543.2249,N,07918.5592,W,1,9,1.5,15,M,,M,,*5C
06/18/2015	10:05:00.548	$GPGGA,100501,2543.2249,N,07918.5593,W,1,9,1.5,15,M,,M,,*5C
06/18/2015	10:05:01.626	$GPGGA,100502,2543.2249,N,07918.5596,W,1,9,1.3,15,M,,M,,*5C
06/18/2015	10:05:02.575	$GPGGA,100503,2543.2247,N,07918.5600,W,1,9,1.3,15,M,,M,,*5F
06/18/2015	10:05:03.626	$GPGGA,100504,2543.2248,N,07918.5601,W,1,10,1.8,15,M,,M,,*65
06/18/2015	10:05:04.576	$GPGGA,100505,2543.2247,N,07918.5604,W,1,10,1.8,15,M,,M,,*6E
06/18/2015	10:05:05.576	$GPGGA,100506,2543.2244,N,07918.5607,W,1,9,1.4,15,M,,M,,*59
06/18/2015	10:05:06.576	$GPGGA,100507,2543.2245,N,07918.5607,W,1,9,1.3,15,M,,M,,*5E
06/18/2015	10:05:07.566	$GPGGA,100508,2543.2245,N,07918.5608,W,1,10,1.4,15,M,,M,,*61
06/18/2015	10:05:08.566	$GPGGA,100509,2543.2248,N,07918.5610,W,1,10,1.6,15,M,,M,,*66
06/18/2015	10:05:09.566	$GPGGA,100510,2543.2249,N,07918.5611,W,1,8,1.5,15,M,,M,,*54
06/18/2015	10:05:10.586	$GPGGA,100511,2543.2253,N,07918.5611,W,1,8,1.3,15,M,,M,,*58
06/18/2015	10:05:11.676	$GPGGA,100512,2543.2255,N,07918.5611,W,1,10,1.3,15,M,,M,,*64
06/18/2015	10:05:12.556	$GPGGA,100513,2543.2256,N,07918.5612,W,1,10,1.4,15,M,,M,,*62
06/18/2015	10:05:13.576	$GPGGA,100514,2543.2258,N,07918.5614,W,1,9,1.3,15,M,,M,,*52
06/18/2015	10:05:14.586	$GPGGA,100515,2543.2258,N,07918.5614,W,1,9,1.3,15,M,,M,,*53
06/18/2015	10:05:15.616	$GPGGA,100516,2543.2260,N,07918.5616,W,1,10,1.3,15,M,,M,,*61
06/18/2015	10:05:16.576	$GPGGA,100517,2543.2262,N,07918.5618,W,1,10,1.3,15,M,,M,,*6C
06/18/2015	10:05:17.546	$GPGGA,100518,2543.2263,N,07918.5619,W,1,10,1.3,15,M,,M,,*63
06/18/2015	10:05:18.566	$GPGGA,100519,2543.2263,N,07918.5621,W,1,10,1.5,15,M,,M,,*6F
06/18/2015	10:05:19.576	$GPGGA,100520,2543.2264,N,07918.5621,W,1,9,1.5,15,M,,M,,*5A
06/18/2015	10:05:20.575	$GPGGA,100521,2543.2267,N,07918.5623,W,1,9,1.3,15,M,,M,,*5C
06/18/2015	10:05:21.556	$GPGGA,100522,2543.2267,N,07918.5625,W,1,10,1.3,15,M,,M,,*61
06/18/2015	10:05:22.556	$GPGGA,100523,2543.2270,N,07918.5626,W,1,10,1.5,16,M,,M,,*60
06/18/2015	10:05:23.566	$GPGGA,100524,2543.2271,N,07918.5628,W,1,9,1.5,16,M,,M,,*50
06/18/2015	10:05:24.556	$GPGGA,100525,2543.2274,N,07918.5629,W,1,9,1.3,16,M,,M,,*53
06/18/2015	10:05:25.556	$GPGGA,100526,2543.2276,N,07918.5630,W,1,10,1.3,16,M,,M,,*62
06/18/2015	10:05:26.586	$GPGGA,100527,2543.2277,N,07918.5632,W,1,10,1.8,16,M,,M,,*6B
06/18/2015	10:05:27.566	$GPGGA,100528,2543.2278,N,07918.5633,W,1,9,1.4,16,M,,M,,*5E
06/18/2015	10:05:28.526	$GPGGA,100529,2543.2278,N,07918.5633,W,1,9,1.4,16,M,,M,,*5F
06/18/2015	10:05:29.526	$GPGGA,100530,2543.2285,N,07918.5636,W,1,8,1.6,16,M,,M,,*53
06/18/2015	10:05:30.526	$GPGGA,100531,2543.2285,N,07918.5636,W,1,8,1.6,16,M,,M,,*52
06/18/2015	10:05:31.566	$GPGGA,100532,2543.2289,N,07918.5643,W,1,10,1.3,16,M,,M,,*63
06/18/2015	10:05:32.566	$GPGGA,100533,2543.2292,N,07918.5642,W,1,10,1.5,16,M,,M,,*6F
06/18/2015	10:05:33.526	$GPGGA,100534,2543.2292,N,07918.5643,W,1,9,1.5,16,M,,M,,*51
06/18/2015	10:05:34.566	$GPGGA,100535,2543.2292,N,07918.5643,W,1,9,1.3,16,M,,M,,*56
06/18/2015	10:05:35.626	$GPGGA,100536,2543.2299,N,07918.5644,W,1,10,1.3,16,M,,M,,*61
06/18/2015	10:05:36.546	$GPGGA,100537,2543.2299,N,07918.5644,W,1,10,1.5,16,M,,M,,*66
06/18/2015	10:05:37.515	$GPGGA,100538,2543.2303,N,07918.5646,W,1,10,1.3,16,M,,M,,*6F
06/18/2015	10:05:38.506	$GPGGA,100539,2543.2303,N,07918.5646,W,1,10,1.3,16,M,,M,,*6E
06/18/2015	10:05:39.638	$GPGGA,100540,2543.2309,N,07918.5646,W,1,10,1.3,16,M,,M,,*6A
06/18/2015	10:05:40.546	$GPGGA,100541,2543.2309,N,07918.5646,W,1,10,1.5,16,M,,M,,*6D
06/18/2015	10:05:41.606	$GPGGA,100542,2543.2314,N,07918.5646,W,1,9,1.5,16,M,,M,,*5A
06/18/2015	10:05:42.506	$GPGGA,100543,2543.2314,N,07918.5646,W,1,9,1.3,16,M,,M,,*5D
06/18/2015	10:05:43.606	$GPGGA,100544,2543.2318,N,07918.5648,W,1,9,1.4,16,M,,M,,*5F
06/18/2015	10:05:44.516	$GPGGA,100545,2543.2318,N,07918.5648,W,1,9,1.3,16,M,,M,,*59
06/18/2015	10:05:45.606	$GPGGA,100546,2543.2323,N,07918.5646,W,1,10,1.3,16,M,,M,,*64
06/18/2015	10:05:46.586	$GPGGA,100547,2543.2325,N,07918.5647,W,1,10,1.5,16,M,,M,,*64
06/18/2015	10:05:47.626	$GPGGA,100548,2543.2328,N,07918.5645,W,1,10,1.3,17,M,,M,,*63
06/18/2015	10:05:48.576	$GPGGA,100549,2543.2332,N,07918.5644,W,1,10,1.5,17,M,,M,,*6E
06/18/2015	10:05:49.606	$GPGGA,100550,2543.2336,N,07918.5644,W,1,10,1.3,17,M,,M,,*64
06/18/2015	10:05:50.576	$GPGGA,100551,2543.2338,N,07918.5643,W,1,10,1.3,17,M,,M,,*6C
06/18/2015	10:05:51.616	$GPGGA,100552,2543.2341,N,07918.5642,W,1,10,1.3,17,M,,M,,*60
06/18/2015	10:05:52.586	$GPGGA,100553,2543.2343,N,07918.5643,W,1,10,1.3,17,M,,M,,*62
06/18/2015	10:05:53.596	$GPGGA,100554,2543.2346,N,07918.5642,W,1,10,1.3,17,M,,M,,*61
06/18/2015	10:05:54.566	$GPGGA,100555,2543.2349,N,07918.5641,W,1,10,1.3,17,M,,M,,*6C
06/18/2015	10:05:55.575	$GPGGA,100556,2543.2352,N,07918.5641,W,1,9,1.5,17,M,,M,,*5B
06/18/2015	10:05:56.566	$GPGGA,100557,2543.2354,N,07918.5640,W,1,9,1.5,17,M,,M,,*5D
06/18/2015	10:05:57.576	$GPGGA,100558,2543.2356,N,07918.5640,W,1,9,1.5,17,M,,M,,*50
06/18/2015	10:05:58.566	$GPGGA,100559,2543.2359,N,07918.5639,W,1,9,1.5,17,M,,M,,*50
06/18/2015	10:05:59.616	$GPGGA,100600,2543.2361,N,07918.5638,W,1,9,1.5,17,M,,M,,*55
06/18/2015	10:06:00.566	$GPGGA,100601,2543.2364,N,07918.5637,W,1,9,1.5,16,M,,M,,*5F
06/18/2015	10:06:01.566	$GPGGA,100602,2543.2365,N,07918.5636,W,1,9,1.5,16,M,,M,,*5C
06/18/2015	10:06:02.556	$GPGGA,100603,2543.2368,N,07918.5636,W,1,9,1.5,16,M,,M,,*50
06/18/2015	10:06:03.556	$GPGGA,100604,2543.2371,N,07918.5634,W,1,10,1.3,16,M,,M,,*63
06/18/2015	10:06:04.556	$GPGGA,100605,2543.2372,N,07918.5634,W,1,10,1.5,16,M,,M,,*67
06/18/2015	10:06:05.549	$GPGGA,100606,2543.2372,N,07918.5634,W,1,10,1.3,16,M,,M,,*62
06/18/2015	10:06:06.538	$GPGGA,100607,2543.2374,N,07918.5633,W,1,10,1.3,16,M,,M,,*62
06/18/2015	10:06:07.566	$GPGGA,100608,2543.2376,N,07918.5631,W,1,10,1.3,16,M,,M,,*6D
06/18/2015	10:06:08.528	$GPGGA,100609,2543.2379,N,07918.5630,W,1,10,1.5,16,M,,M,,*64
06/18/2015	10:06:09.538	$GPGGA,100610,2543.2382,N,07918.5628,W,1,10,1.3,16,M,,M,,*67
06/18/2015	10:06:10.536	$GPGGA,100611,2543.2383,N,07918.5626,W,1,10,1.3,16,M,,M,,*69
06/18/2015	10:06:11.556	$GPGGA,100612,2543.2386,N,07918.5624,W,1,9,1.5,16,M,,M,,*53
06/18/2015	10:06:12.805	$GPGGA,100613,2543.2389,N,07918.5621,W,1,9,1.3,16,M,,M,,*5E
06/18/2015	10:06:13.515	$GPGGA,100614,2543.2392,N,07918.5619,W,1,9,1.5,16,M,,M,,*5E
06/18/2015	10:06:14.527	$GPGGA,100615,2543.2393,N,07918.5617,W,1,9,1.5,16,M,,M,,*50
06/18/2015	10:06:15.538	$GPGGA,100616,2543.2394,N,07918.5616,W,1,9,1.5,16,M,,M,,*55
06/18/2015	10:06:16.526	$GPGGA,100617,2543.2397,N,07918.5613,W,1,9,1.3,16,M,,M,,*54
06/18/2015	10:06:17.505	$GPGGA,100618,2543.2399,N,07918.5611,W,1,9,1.5,16,M,,M,,*51
06/18/2015	10:06:18.515	$GPGGA,100619,2543.2401,N,07918.5608,W,1,9,1.5,16,M,,M,,*5E
06/18/2015	10:06:19.535	$GPGGA,100620,2543.2403,N,07918.5605,W,1,9,1.5,15,M,,M,,*58
06/18/2015	10:06:20.495	$GPGGA,100621,2543.2406,N,07918.5601,W,1,9,1.7,15,M,,M,,*5A
06/18/2015	10:06:21.505	$GPGGA,100622,2543.2407,N,07918.5599,W,1,9,1.5,15,M,,M,,*58
06/18/2015	10:06:22.495	$GPGGA,100623,2543.2408,N,07918.5595,W,1,9,1.5,15,M,,M,,*5A
06/18/2015	10:06:23.528	$GPGGA,100624,2543.2410,N,07918.5591,W,1,10,1.3,15,M,,M,,*6E
06/18/2015	10:06:24.746	$GPGGA,100625,2543.2411,N,07918.5587,W,1,10,1.3,15,M,,M,,*69
06/18/2015	10:06:25.936	$GPGGA,100626,2543.2411,N,07918.5584,W,1,9,1.5,15,M,,M,,*57
06/18/2015	10:06:26.506	$GPGGA,100627,2543.2414,N,07918.5580,W,1,9,2.0,15,M,,M,,*51
06/18/2015	10:06:27.596	$GPGGA,100628,2543.2417,N,07918.5577,W,1,9,1.5,15,M,,M,,*53
06/18/2015	10:06:28.606	$GPGGA,100629,2543.2419,N,07918.5574,W,1,9,1.3,15,M,,M,,*59
06/18/2015	10:06:29.586	$GPGGA,100630,2543.2422,N,07918.5571,W,1,10,1.3,15,M,,M,,*64
06/18/2015	10:06:30.505	$GPGGA,100631,2543.2424,N,07918.5568,W,1,10,1.3,15,M,,M,,*6B
06/18/2015	10:06:31.485	$GPGGA,100632,2543.2426,N,07918.5565,W,1,9,1.5,15,M,,M,,*59
06/18/2015	10:06:32.495	$GPGGA,100633,2543.2426,N,07918.5562,W,1,9,1.3,15,M,,M,,*59
06/18/2015	10:06:33.616	$GPGGA,100634,2543.2426,N,07918.5559,W,1,10,1.3,15,M,,M,,*6E
06/18/2015	10:06:34.565	$GPGGA,100635,2543.2429,N,07918.5555,W,1,10,1.3,16,M,,M,,*6F
06/18/2015	10:06:35.625	$GPGGA,100636,2543.2430,N,07918.5551,W,1,9,1.5,16,M,,M,,*5E
06/18/2015	10:06:36.565	$GPGGA,100637,2543.2432,N,07918.5547,W,1,9,1.5,16,M,,M,,*5A
06/18/2015	10:06:38.605	$GPGGA,100639,2543.2433,N,07918.5540,W,1,10,1.3,16,M,,M,,*6C
06/18/2015	10:06:39.565	$GPGGA,100640,2543.2433,N,07918.5536,W,1,10,1.3,16,M,,M,,*63
06/18/2015	10:06:40.575	$GPGGA,100641,2543.2436,N,07918.5532,W,1,10,1.5,16,M,,M,,*65
06/18/2015	10:06:41.576	$GPGGA,100642,2543.2434,N,07918.5531,W,1,9,1.5,16,M,,M,,*5F
06/18/2015	10:06:42.556	$GPGGA,100643,2543.2436,N,07918.5527,W,1,9,1.3,16,M,,M,,*5D
06/18/2015	10:06:43.586	$GPGGA,100644,2543.2435,N,07918.5523,W,1,10,1.3,16,M,,M,,*65
06/18/2015	10:06:44.546	$GPGGA,100645,2543.2434,N,07918.5520,W,1,10,1.3,17,M,,M,,*67
06/18/2015	10:06:45.566	$GPGGA,100646,2543.2436,N,07918.5519,W,1,8,1.9,17,M,,M,,*5F
06/18/2015	10:06:46.546	$GPGGA,100647,2543.2437,N,07918.5516,W,1,8,1.3,17,M,,M,,*5A
06/18/2015	10:06:47.575	$GPGGA,100648,2543.2437,N,07918.5512,W,1,10,1.3,17,M,,M,,*68
06/18/2015	10:06:48.545	$GPGGA,100649,2543.2437,N,07918.5509,W,1,10,1.3,17,M,,M,,*63
06/18/2015	10:06:49.565	$GPGGA,100650,2543.2437,N,07918.5506,W,1,10,1.3,17,M,,M,,*64
06/18/2015	10:06:50.816	$GPGGA,100651,2543.2435,N,07918.5502,W,1,10,1.3,17,M,,M,,*63
06/18/2015	10:06:51.565	$GPGGA,100652,2543.2436,N,07918.5499,W,1,10,1.3,17,M,,M,,*60
06/18/2015	10:06:52.545	$GPGGA,100653,2543.2437,N,07918.5495,W,1,10,1.3,17,M,,M,,*6C
06/18/2015	10:06:53.528	$GPGGA,100654,2543.2435,N,07918.5491,W,1,10,1.3,17,M,,M,,*6D
06/18/2015	10:06:54.536	$GPGGA,100655,2543.2433,N,07918.5490,W,1,10,1.9,17,M,,M,,*61
06/18/2015	10:06:55.565	$GPGGA,100656,2543.2432,N,07918.5486,W,1,10,1.3,17,M,,M,,*6E
06/18/2015	10:06:56.527	$GPGGA,100657,2543.2431,N,07918.5483,W,1,10,1.3,17,M,,M,,*69
06/18/2015	10:06:57.555	$GPGGA,100658,2543.2432,N,07918.5478,W,1,9,1.9,17,M,,M,,*53
06/18/2015	10:06:58.528	$GPGGA,100659,2543.2430,N,07918.5474,W,1,9,1.9,17,M,,M,,*5C
06/18/2015	10:06:59.556	$GPGGA,100700,2543.2433,N,07918.5469,W,1,8,1.9,17,M,,M,,*5F
06/18/2015	10:07:00.526	$GPGGA,100701,2543.2435,N,07918.5464,W,1,8,1.4,17,M,,M,,*58
06/18/2015	10:07:01.546	$GPGGA,100702,2543.2434,N,07918.5459,W,1,10,1.3,17,M,,M,,*6A
06/18/2015	10:07:02.527	$GPGGA,100703,2543.2433,N,07918.5454,W,1,10,1.3,17,M,,M,,*61
06/18/2015	10:07:03.516	$GPGGA,100704,2543.2431,N,07918.5450,W,1,9,1.9,17,M,,M,,*52
06/18/2015	10:07:04.519	$GPGGA,100705,2543.2430,N,07918.5445,W,1,9,1.4,17,M,,M,,*5B
06/18/2015	10:07:05.505	$GPGGA,100706,2543.2430,N,07918.5441,W,1,9,1.5,17,M,,M,,*5D
06/18/2015	10:07:06.505	$GPGGA,100707,2543.2427,N,07918.5435,W,1,9,1.3,17,M,,M,,*5F
06/18/2015	10:07:08.537	$GPGGA,100708,2543.2428,N,07918.5430,W,1,9,1.9,17,M,,M,,*50
06/18/2015	10:07:08.615	$GPGGA,100709,2543.2427,N,07918.5425,W,1,9,1.3,17,M,,M,,*50
06/18/2015	10:07:09.535	$GPGGA,100710,2543.2428,N,07918.5420,W,1,10,1.3,17,M,,M,,*6A
06/18/2015	10:07:10.515	$GPGGA,100711,2543.2426,N,07918.5415,W,1,10,1.3,17,M,,M,,*63
06/18/2015	10:07:11.615	$GPGGA,100712,2543.2426,N,07918.5410,W,1,10,1.3,17,M,,M,,*65
06/18/2015	10:07:12.495	$GPGGA,100713,2543.2424,N,07918.5406,W,1,10,1.4,18,M,,M,,*69
06/18/2015	10:07:13.515	$GPGGA,100714,2543.2423,N,07918.5401,W,1,9,1.4,18,M,,M,,*56
06/18/2015	10:07:14.505	$GPGGA,100715,2543.2421,N,07918.5397,W,1,9,1.5,18,M,,M,,*5C
06/18/2015	10:07:15.625	$GPGGA,100716,2543.2419,N,07918.5395,W,1,8,1.5,18,M,,M,,*57
06/18/2015	10:07:16.506	$GPGGA,100717,2543.2417,N,07918.5391,W,1,8,1.4,18,M,,M,,*5D
06/18/2015	10:07:17.529	$GPGGA,100718,2543.2415,N,07918.5386,W,1,8,1.5,18,M,,M,,*57
06/18/2015	10:07:18.486	$GPGGA,100719,2543.2413,N,07918.5382,W,1,8,2.1,18,M,,M,,*53
06/18/2015	10:07:19.496	$GPGGA,100720,2543.2415,N,07918.5374,W,1,7,2.1,18,M,,M,,*59
06/18/2015	10:07:20.596	$GPGGA,100721,2543.2412,N,07918.5369,W,1,7,1.4,18,M,,M,,*55
06/18/2015	10:07:21.576	$GPGGA,100722,2543.2411,N,07918.5365,W,1,9,1.4,18,M,,M,,*57
06/18/2015	10:07:22.575	$GPGGA,100723,2543.2408,N,07918.5363,W,1,9,1.7,18,M,,M,,*5B
06/18/2015	10:07:23.575	$GPGGA,100724,2543.2404,N,07918.5359,W,1,9,1.4,18,M,,M,,*5A
06/18/2015	10:07:24.565	$GPGGA,100725,2543.2402,N,07918.5358,W,1,9,1.4,18,M,,M,,*5C
06/18/2015	10:07:25.585	$GPGGA,100726,2543.2399,N,07918.5354,W,1,10,1.3,19,M,,M,,*68
06/18/2015	10:07:26.565	$GPGGA,100727,2543.2397,N,07918.5350,W,1,10,1.3,19,M,,M,,*63
06/18/2015	10:07:27.585	$GPGGA,100728,2543.2393,N,07918.5346,W,1,10,1.3,19,M,,M,,*6F
06/18/2015	10:07:28.565	$GPGGA,100729,2543.2391,N,07918.5341,W,1,10,1.3,19,M,,M,,*6B
06/18/2015	10:07:29.585	$GPGGA,100730,2543.2388,N,07918.5336,W,1,10,1.3,19,M,,M,,*6B
06/18/2015	10:07:30.565	$GPGGA,100731,2543.2386,N,07918.5332,W,1,10,1.3,19,M,,M,,*60
06/18/2015	10:07:31.565	$GPGGA,100732,2543.2383,N,07918.5328,W,1,10,1.3,19,M,,M,,*6D
06/18/2015	10:07:32.555	$GPGGA,100733,2543.2381,N,07918.5325,W,1,10,1.3,19,M,,M,,*63
06/18/2015	10:07:33.566	$GPGGA,100734,2543.2379,N,07918.5321,W,1,10,1.3,19,M,,M,,*67
06/18/2015	10:07:34.556	$GPGGA,100735,2543.2375,N,07918.5318,W,1,10,1.3,19,M,,M,,*60
06/18/2015	10:07:35.576	$GPGGA,100736,2543.2372,N,07918.5314,W,1,10,1.3,20,M,,M,,*62
06/18/2015	10:07:36.546	$GPGGA,100737,2543.2370,N,07918.5311,W,1,10,1.3,20,M,,M,,*64
06/18/2015	10:07:37.556	$GPGGA,100738,2543.2367,N,07918.5308,W,1,9,1.4,20,M,,M,,*5A
06/18/2015	10:07:38.546	$GPGGA,100739,2543.2365,N,07918.5305,W,1,9,1.4,20,M,,M,,*54
06/18/2015	10:07:39.556	$GPGGA,100740,2543.2361,N,07918.5302,W,1,9,1.4,20,M,,M,,*59
06/18/2015	10:07:40.545	$GPGGA,100741,2543.2359,N,07918.5298,W,1,9,1.3,20,M,,M,,*56
06/18/2015	10:07:41.965	$GPGGA,100742,2543.2356,N,07918.5296,W,1,10,1.3,20,M,,M,,*6C
06/18/2015	10:07:42.535	$GPGGA,100743,2543.2354,N,07918.5292,W,1,10,1.3,20,M,,M,,*6B
06/18/2015	10:07:43.565	$GPGGA,100744,2543.2350,N,07918.5289,W,1,10,1.3,20,M,,M,,*62
06/18/2015	10:07:44.535	$GPGGA,100745,2543.2347,N,07918.5286,W,1,10,1.3,20,M,,M,,*6A
06/18/2015	10:07:45.515	$GPGGA,100746,2543.2344,N,07918.5284,W,1,9,1.4,20,M,,M,,*57
06/18/2015	10:07:47.575	$GPGGA,100748,2543.2339,N,07918.5279,W,1,10,1.3,20,M,,M,,*6E
06/18/2015	10:07:48.515	$GPGGA,100749,2543.2336,N,07918.5276,W,1,10,1.3,20,M,,M,,*6F
06/18/2015	10:07:49.515	$GPGGA,100750,2543.2333,N,07918.5273,W,1,9,1.4,20,M,,M,,*58
06/18/2015	10:07:50.525	$GPGGA,100751,2543.2330,N,07918.5270,W,1,9,1.4,20,M,,M,,*59
06/18/2015	10:07:51.546	$GPGGA,100752,2543.2327,N,07918.5267,W,1,10,1.3,20,M,,M,,*65
06/18/2015	10:07:52.506	$GPGGA,100753,2543.2325,N,07918.5265,W,1,10,1.3,20,M,,M,,*64
06/18/2015	10:07:53.516	$GPGGA,100754,2543.2320,N,07918.5263,W,1,10,1.3,20,M,,M,,*60
06/18/2015	10:07:54.616	$GPGGA,100755,2543.2318,N,07918.5260,W,1,10,1.3,20,M,,M,,*69
06/18/2015	10:07:55.646	$GPGGA,100756,2543.2314,N,07918.5258,W,1,10,1.3,20,M,,M,,*6D
06/18/2015	10:07:56.516	$GPGGA,100757,2543.2310,N,07918.5256,W,1,10,1.3,20,M,,M,,*66
06/18/2015	10:07:57.515	$GPGGA,100758,2543.2307,N,07918.5254,W,1,10,1.3,20,M,,M,,*6D
06/18/2015	10:07:58.516	$GPGGA,100759,2543.2304,N,07918.5251,W,1,10,1.3,19,M,,M,,*60
06/18/2015	10:07:59.555	$GPGGA,100800,2543.2300,N,07918.5248,W,1,10,1.3,19,M,,M,,*6F
06/18/2015	10:08:00.526	$GPGGA,100801,2543.2296,N,07918.5246,W,1,10,1.3,19,M,,M,,*6E
06/18/2015	10:08:01.605	$GPGGA,100802,2543.2294,N,07918.5244,W,1,9,1.9,19,M,,M,,*5F
06/18/2015	10:08:02.495	$GPGGA,100803,2543.2289,N,07918.5242,W,1,9,1.3,19,M,,M,,*5E
06/18/2015	10:08:03.515	$GPGGA,100804,2543.2287,N,07918.5240,W,1,9,1.9,19,M,,M,,*5F
06/18/2015	10:08:04.575	$GPGGA,100805,2543.2283,N,07918.5238,W,1,9,1.3,19,M,,M,,*5F
06/18/2015	10:08:05.505	$GPGGA,100806,2543.2278,N,07918.5236,W,1,10,1.3,19,M,,M,,*6E
06/18/2015	10:08:06.495	$GPGGA,100807,2543.2273,N,07918.5234,W,1,10,1.9,19,M,,M,,*6C
06/18/2015	10:08:07.630	$GPGGA,100808,2543.2269,N,07918.5232,W,1,10,1.3,19,M,,M,,*64
06/18/2015	10:08:08.576	$GPGGA,100809,2543.2265,N,07918.5230,W,1,10,1.3,19,M,,M,,*6B
06/18/2015	10:08:09.566	$GPGGA,100810,2543.2261,N,07918.5229,W,1,9,1.9,19,M,,M,,*5D
06/18/2015	10:08:10.576	$GPGGA,100811,2543.2257,N,07918.5227,W,1,9,1.9,18,M,,M,,*56
06/18/2015	10:08:11.586	$GPGGA,100812,2543.2253,N,07918.5225,W,1,10,1.3,18,M,,M,,*61
06/18/2015	10:08:12.566	$GPGGA,100813,2543.2249,N,07918.5225,W,1,10,1.3,18,M,,M,,*6B
06/18/2015	10:08:13.576	$GPGGA,100814,2543.2244,N,07918.5224,W,1,9,1.9,18,M,,M,,*52
06/18/2015	10:08:14.576	$GPGGA,100815,2543.2242,N,07918.5222,W,1,9,1.9,18,M,,M,,*53
06/18/2015	10:08:15.585	$GPGGA,100816,2543.2239,N,07918.5221,W,1,9,1.4,18,M,,M,,*52
06/18/2015	10:08:16.565	$GPGGA,100817,2543.2234,N,07918.5220,W,1,9,1.4,18,M,,M,,*5F
06/18/2015	10:08:17.585	$GPGGA,100818,2543.2231,N,07918.5218,W,1,9,1.9,18,M,,M,,*53
06/18/2015	10:08:18.555	$GPGGA,100819,2543.2228,N,07918.5216,W,1,9,1.9,18,M,,M,,*54
06/18/2015	10:08:19.595	$GPGGA,100820,2543.2225,N,07918.5215,W,1,10,1.3,17,M,,M,,*6D
06/18/2015	10:08:20.555	$GPGGA,100821,2543.2222,N,07918.5214,W,1,10,1.3,17,M,,M,,*6A
06/18/2015	10:08:21.565	$GPGGA,100822,2543.2220,N,07918.5213,W,1,10,1.3,17,M,,M,,*6C
06/18/2015	10:08:22.555	$GPGGA,100823,2543.2217,N,07918.5212,W,1,10,1.3,17,M,,M,,*68
06/18/2015	10:08:23.555	$GPGGA,100824,2543.2214,N,07918.5211,W,1,10,1.3,17,M,,M,,*6F
06/18/2015	10:08:24.555	$GPGGA,100825,2543.2210,N,07918.5211,W,1,10,1.3,18,M,,M,,*65
06/18/2015	10:08:25.565	$GPGGA,100826,2543.2204,N,07918.5209,W,1,10,1.3,18,M,,M,,*6A
06/18/2015	10:08:26.546	$GPGGA,100827,2543.2200,N,07918.5210,W,1,10,2.0,18,M,,M,,*67
06/18/2015	10:08:27.566	$GPGGA,100828,2543.2195,N,07918.5209,W,1,9,1.9,18,M,,M,,*5D
06/18/2015	10:08:28.529	$GPGGA,100829,2543.2189,N,07918.5208,W,1,9,2.0,18,M,,M,,*5A
06/18/2015	10:08:29.546	$GPGGA,100830,2543.2184,N,07918.5207,W,1,8,2.0,18,M,,M,,*51
06/18/2015	10:08:30.537	$GPGGA,100831,2543.2179,N,07918.5207,W,1,8,1.9,17,M,,M,,*57
06/18/2015	10:08:31.566	$GPGGA,100832,2543.2174,N,07918.5207,W,1,8,2.0,17,M,,M,,*53
06/18/2015	10:08:32.535	$GPGGA,100833,2543.2171,N,07918.5209,W,1,8,2.0,17,M,,M,,*59
06/18/2015	10:08:33.515	$GPGGA,100834,2543.2167,N,07918.5210,W,1,9,1.9,17,M,,M,,*5A
06/18/2015	10:08:34.525	$GPGGA,100835,2543.2162,N,07918.5210,W,1,9,1.9,17,M,,M,,*5E
06/18/2015	10:08:36.555	$GPGGA,100837,2543.2153,N,07918.5213,W,1,9,1.9,17,M,,M,,*5D
06/18/2015	10:08:37.515	$GPGGA,100838,2543.2151,N,07918.5212,W,1,10,1.3,17,M,,M,,*63
06/18/2015	10:08:38.515	$GPGGA,100839,2543.2148,N,07918.5213,W,1,10,1.3,17,M,,M,,*6B
06/18/2015	10:08:39.525	$GPGGA,100840,2543.2143,N,07918.5213,W,1,10,1.3,17,M,,M,,*6E
06/18/2015	10:08:40.525	$GPGGA,100841,2543.2138,N,07918.5214,W,1,10,1.9,17,M,,M,,*6E
06/18/2015	10:08:41.505	$GPGGA,100842,2543.2133,N,07918.5215,W,1,9,1.9,17,M,,M,,*5F
06/18/2015	10:08:42.525	$GPGGA,100843,2543.2128,N,07918.5215,W,1,9,1.9,17,M,,M,,*54
06/18/2015	10:08:43.656	$GPGGA,100844,2543.2123,N,07918.5215,W,1,9,1.9,17,M,,M,,*58
06/18/2015	10:08:44.507	$GPGGA,100845,2543.2119,N,07918.5217,W,1,9,1.9,17,M,,M,,*52
06/18/2015	10:08:45.516	$GPGGA,100846,2543.2113,N,07918.5217,W,1,9,1.9,17,M,,M,,*5B
06/18/2015	10:08:46.520	$GPGGA,100847,2543.2109,N,07918.5217,W,1,9,1.9,17,M,,M,,*51
06/18/2015	10:08:47.506	$GPGGA,100848,2543.2103,N,07918.5217,W,1,9,1.9,16,M,,M,,*55
06/18/2015	10:08:48.486	$GPGGA,100849,2543.2098,N,07918.5218,W,1,9,1.9,16,M,,M,,*58
06/18/2015	10:08:49.516	$GPGGA,100850,2543.2092,N,07918.5218,W,1,9,1.9,16,M,,M,,*5A
06/18/2015	10:08:50.495	$GPGGA,100851,2543.2088,N,07918.5218,W,1,9,1.9,16,M,,M,,*50
06/18/2015	10:08:51.495	$GPGGA,100852,2543.2083,N,07918.5218,W,1,9,1.9,16,M,,M,,*58
06/18/2015	10:08:52.595	$GPGGA,100853,2543.2079,N,07918.5218,W,1,9,1.9,16,M,,M,,*5C
06/18/2015	10:08:53.585	$GPGGA,100854,2543.2073,N,07918.5220,W,1,9,1.9,16,M,,M,,*5A
06/18/2015	10:08:54.505	$GPGGA,100855,2543.2067,N,07918.5219,W,1,9,1.9,16,M,,M,,*54
06/18/2015	10:08:55.645	$GPGGA,100856,2543.2062,N,07918.5220,W,1,9,1.9,16,M,,M,,*58
06/18/2015	10:08:56.486	$GPGGA,100857,2543.2057,N,07918.5219,W,1,9,1.9,16,M,,M,,*55
06/18/2015	10:08:57.585	$GPGGA,100858,2543.2052,N,07918.5220,W,1,9,1.9,16,M,,M,,*55
06/18/2015	10:08:58.575	$GPGGA,100859,2543.2047,N,07918.5220,W,1,9,1.9,16,M,,M,,*50
06/18/2015	10:08:59.555	$GPGGA,100900,2543.2041,N,07918.5220,W,1,9,1.9,16,M,,M,,*5B
06/18/2015	10:09:00.565	$GPGGA,100901,2543.2036,N,07918.5220,W,1,9,1.9,16,M,,M,,*5A
06/18/2015	10:09:01.576	$GPGGA,100902,2543.2031,N,07918.5219,W,1,9,1.9,16,M,,M,,*54
06/18/2015	10:09:02.566	$GPGGA,100903,2543.2026,N,07918.5220,W,1,9,1.9,16,M,,M,,*59
06/18/2015	10:09:03.596	$GPGGA,100904,2543.2020,N,07918.5219,W,1,9,1.9,15,M,,M,,*51
06/18/2015	10:09:04.556	$GPGGA,100905,2543.2015,N,07918.5220,W,1,9,1.9,15,M,,M,,*5C
06/18/2015	10:09:05.556	$GPGGA,100906,2543.2010,N,07918.5219,W,1,9,1.9,15,M,,M,,*50
06/18/2015	10:09:06.556	$GPGGA,100907,2543.2005,N,07918.5220,W,1,9,1.9,15,M,,M,,*5F
06/18/2015	10:09:07.585	$GPGGA,100908,2543.2000,N,07918.5219,W,1,9,1.9,15,M,,M,,*5F
06/18/2015	10:09:08.555	$GPGGA,100909,2543.1996,N,07918.5220,W,1,9,1.9,15,M,,M,,*51
06/18/2015	10:09:09.575	$GPGGA,100910,2543.1989,N,07918.5219,W,1,9,1.9,15,M,,M,,*5D
06/18/2015	10:09:10.545	$GPGGA,100911,2543.1984,N,07918.5220,W,1,9,1.9,15,M,,M,,*5B
06/18/2015	10:09:11.575	$GPGGA,100912,2543.1979,N,07918.5219,W,1,9,1.9,15,M,,M,,*50
06/18/2015	10:09:12.535	$GPGGA,100913,2543.1973,N,07918.5220,W,1,9,1.9,15,M,,M,,*51
06/18/2015	10:09:13.575	$GPGGA,100914,2543.1969,N,07918.5219,W,1,9,1.9,15,M,,M,,*57
06/18/2015	10:09:14.545	$GPGGA,100915,2543.1964,N,07918.5220,W,1,9,1.9,15,M,,M,,*51
06/18/2015	10:09:15.585	$GPGGA,100916,2543.1958,N,07918.5219,W,1,9,1.9,15,M,,M,,*57
06/18/2015	10:09:16.535	$GPGGA,100917,2543.1955,N,07918.5220,W,1,9,1.3,15,M,,M,,*5B
06/18/2015	10:09:17.527	$GPGGA,100918,2543.1951,N,07918.5220,W,1,10,1.3,15,M,,M,,*68
06/18/2015	10:09:18.536	$GPGGA,100919,2543.1947,N,07918.5221,W,1,10,1.3,15,M,,M,,*6F
06/18/2015	10:09:19.576	$GPGGA,100920,2543.1943,N,07918.5221,W,1,10,1.3,15,M,,M,,*61
06/18/2015	10:09:20.556	$GPGGA,100921,2543.1939,N,07918.5221,W,1,10,1.3,15,M,,M,,*6D
06/18/2015	10:09:21.556	$GPGGA,100922,2543.1935,N,07918.5222,W,1,10,1.3,15,M,,M,,*61
06/18/2015	10:09:22.529	$GPGGA,100923,2543.1931,N,07918.5222,W,1,10,1.3,15,M,,M,,*64
06/18/2015	10:09:23.556	$GPGGA,100924,2543.1927,N,07918.5222,W,1,10,1.3,15,M,,M,,*64
06/18/2015	10:09:24.529	$GPGGA,100925,2543.1922,N,07918.5222,W,1,10,1.3,15,M,,M,,*60
06/18/2015	10:09:25.535	$GPGGA,100926,2543.1917,N,07918.5224,W,1,10,1.3,15,M,,M,,*63
06/18/2015	10:09:26.525	$GPGGA,100927,2543.1913,N,07918.5223,W,1,10,1.3,15,M,,M,,*61
06/18/2015	10:09:27.565	$GPGGA,100928,2543.1908,N,07918.5224,W,1,10,1.3,15,M,,M,,*63
06/18/2015	10:09:28.515	$GPGGA,100929,2543.1903,N,07918.5224,W,1,10,1.3,15,M,,M,,*69
06/18/2015	10:09:29.535	$GPGGA,100930,2543.1899,N,07918.5224,W,1,10,1.3,15,M,,M,,*63
06/18/2015	10:09:30.516	$GPGGA,100931,2543.1895,N,07918.5224,W,1,10,1.3,15,M,,M,,*6E
06/18/2015	10:09:31.565	$GPGGA,100932,2543.1889,N,07918.5223,W,1,10,1.3,15,M,,M,,*67
06/18/2015	10:09:32.615	$GPGGA,100933,2543.1884,N,07918.5224,W,1,10,1.3,15,M,,M,,*6C
06/18/2015	10:09:33.505	$GPGGA,100934,2543.1879,N,07918.5223,W,1,10,1.3,16,M,,M,,*6D
06/18/2015	10:09:34.515	$GPGGA,100935,2543.1874,N,07918.5224,W,1,10,1.3,16,M,,M,,*66
06/18/2015	10:09:35.565	$GPGGA,100936,2543.1870,N,07918.5223,W,1,10,1.3,16,M,,M,,*66
06/18/2015	10:09:36.586	$GPGGA,100937,2543.1864,N,07918.5224,W,1,10,1.3,16,M,,M,,*65
06/18/2015	10:09:37.626	$GPGGA,100938,2543.1859,N,07918.5223,W,1,10,1.3,16,M,,M,,*63
06/18/2015	10:09:38.516	$GPGGA,100939,2543.1853,N,07918.5224,W,1,10,1.3,16,M,,M,,*6F
06/18/2015	10:09:39.626	$GPGGA,100940,2543.1848,N,07918.5222,W,1,10,1.9,16,M,,M,,*67
06/18/2015	10:09:40.606	$GPGGA,100941,2543.1841,N,07918.5222,W,1,10,1.9,16,M,,M,,*6F
06/18/2015	10:09:41.586	$GPGGA,100942,2543.1834,N,07918.5222,W,1,9,1.9,16,M,,M,,*56
06/18/2015	10:09:42.585	$GPGGA,100943,2543.1827,N,07918.5222,W,1,9,1.9,16,M,,M,,*55
06/18/2015	10:09:43.595	$GPGGA,100944,2543.1821,N,07918.5221,W,1,9,1.9,16,M,,M,,*57
06/18/2015	10:09:44.585	$GPGGA,100945,2543.1815,N,07918.5221,W,1,9,1.9,16,M,,M,,*51
06/18/2015	10:09:45.605	$GPGGA,100946,2543.1809,N,07918.5221,W,1,9,1.9,16,M,,M,,*5F
06/18/2015	10:09:46.575	$GPGGA,100947,2543.1803,N,07918.5220,W,1,9,1.9,16,M,,M,,*55
06/18/2015	10:09:47.595	$GPGGA,100948,2543.1797,N,07918.5220,W,1,9,1.9,15,M,,M,,*5B
06/18/2015	10:09:48.575	$GPGGA,100949,2543.1797,N,07918.5220,W,1,9,1.9,15,M,,M,,*5A
06/18/2015	10:09:49.595	$GPGGA,100950,2543.1785,N,07918.5219,W,1,9,1.9,15,M,,M,,*5B
06/18/2015	10:09:50.565	$GPGGA,100951,2543.1781,N,07918.5220,W,1,9,2.0,15,M,,M,,*5E
06/18/2015	10:09:51.595	$GPGGA,100952,2543.1776,N,07918.5220,W,1,9,1.9,15,M,,M,,*5F
06/18/2015	10:09:52.565	$GPGGA,100953,2543.1772,N,07918.5220,W,1,9,1.9,15,M,,M,,*5A
06/18/2015	10:09:53.576	$GPGGA,100954,2543.1765,N,07918.5219,W,1,9,1.9,15,M,,M,,*51
06/18/2015	10:09:54.566	$GPGGA,100955,2543.1758,N,07918.5220,W,1,9,2.0,15,M,,M,,*5E
06/18/2015	10:09:55.616	$GPGGA,100956,2543.1754,N,07918.5218,W,1,9,1.9,15,M,,M,,*50
06/18/2015	10:09:56.566	$GPGGA,100957,2543.1747,N,07918.5218,W,1,9,1.9,15,M,,M,,*53
06/18/2015	10:09:57.566	$GPGGA,100958,2543.1742,N,07918.5218,W,1,9,1.9,15,M,,M,,*59
06/18/2015	10:09:58.556	$GPGGA,100959,2543.1736,N,07918.5218,W,1,9,1.9,14,M,,M,,*5A
06/18/2015	10:10:00.043	$GPGGA,101000,2543.1731,N,07918.5217,W,1,9,1.9,14,M,,M,,*56
06/18/2015	10:10:00.545	$GPGGA,101001,2543.1725,N,07918.5216,W,1,9,1.9,14,M,,M,,*53
06/18/2015	10:10:01.555	$GPGGA,101002,2543.1719,N,07918.5215,W,1,9,1.9,14,M,,M,,*5C
06/18/2015	10:10:02.545	$GPGGA,101003,2543.1713,N,07918.5215,W,1,9,1.9,14,M,,M,,*57
06/18/2015	10:10:03.555	$GPGGA,101004,2543.1708,N,07918.5215,W,1,8,2.0,14,M,,M,,*51
06/18/2015	10:10:04.535	$GPGGA,101005,2543.1703,N,07918.5214,W,1,8,1.9,14,M,,M,,*50
06/18/2015	10:10:05.528	$GPGGA,101006,2543.1697,N,07918.5213,W,1,9,1.9,14,M,,M,,*59
06/18/2015	10:10:06.535	$GPGGA,101007,2543.1691,N,07918.5212,W,1,9,1.9,14,M,,M,,*5F
06/18/2015	10:10:07.575	$GPGGA,101008,2543.1685,N,07918.5213,W,1,8,2.1,14,M,,M,,*5E
06/18/2015	10:10:08.526	$GPGGA,101009,2543.1680,N,07918.5212,W,1,8,2.1,14,M,,M,,*5B
06/18/2015	10:10:09.529	$GPGGA,101010,2543.1674,N,07918.5211,W,1,9,1.9,13,M,,M,,*56
06/18/2015	10:10:10.526	$GPGGA,101011,2543.1668,N,07918.5210,W,1,9,2.1,13,M,,M,,*50
06/18/2015	10:10:11.530	$GPGGA,101012,2543.1664,N,07918.5209,W,1,8,2.1,13,M,,M,,*56
06/18/2015	10:10:12.516	$GPGGA,101013,2543.1658,N,07918.5210,W,1,8,2.1,13,M,,M,,*50
06/18/2015	10:10:13.556	$GPGGA,101014,2543.1653,N,07918.5208,W,1,8,2.1,13,M,,M,,*55
06/18/2015	10:10:14.516	$GPGGA,101015,2543.1647,N,07918.5207,W,1,8,2.1,13,M,,M,,*5E
06/18/2015	10:10:15.516	$GPGGA,101016,2543.1643,N,07918.5207,W,1,8,2.1,13,M,,M,,*59
06/18/2015	10:10:16.528	$GPGGA,101017,2543.1638,N,07918.5206,W,1,8,2.1,13,M,,M,,*55
06/18/2015	10:10:17.535	$GPGGA,101018,2543.1632,N,07918.5205,W,1,8,2.1,13,M,,M,,*53
06/18/2015	10:10:18.516	$GPGGA,101019,2543.1628,N,07918.5204,W,1,8,2.1,13,M,,M,,*58
06/18/2015	10:10:19.635	$GPGGA,101020,2543.1622,N,07918.5203,W,1,8,2.1,13,M,,M,,*5F
06/18/2015	10:10:20.516	$GPGGA,101021,2543.1617,N,07918.5203,W,1,8,2.1,13,M,,M,,*58
06/18/2015	10:10:21.495	$GPGGA,101022,2543.1613,N,07918.5202,W,1,8,2.1,13,M,,M,,*5E
06/18/2015	10:10:22.515	$GPGGA,101023,2543.1607,N,07918.5201,W,1,8,2.1,13,M,,M,,*59
06/18/2015	10:10:23.615	$GPGGA,101024,2543.1601,N,07918.5200,W,1,8,2.1,13,M,,M,,*59
06/18/2015	10:10:24.605	$GPGGA,101025,2543.1596,N,07918.5200,W,1,8,2.1,13,M,,M,,*55
06/18/2015	10:10:25.615	$GPGGA,101026,2543.1591,N,07918.5199,W,1,8,2.1,13,M,,M,,*52
06/18/2015	10:10:26.495	$GPGGA,101027,2543.1585,N,07918.5198,W,1,8,2.1,13,M,,M,,*57
06/18/2015	10:10:27.495	$GPGGA,101028,2543.1581,N,07918.5199,W,1,7,2.2,13,M,,M,,*51
06/18/2015	10:10:28.496	$GPGGA,101029,2543.1575,N,07918.5197,W,1,7,2.1,13,M,,M,,*56
06/18/2015	10:10:29.476	$GPGGA,101030,2543.1570,N,07918.5196,W,1,8,2.1,13,M,,M,,*55
06/18/2015	10:10:30.496	$GPGGA,101031,2543.1566,N,07918.5196,W,1,8,2.1,13,M,,M,,*53
06/18/2015	10:10:31.628	$GPGGA,101032,2543.1559,N,07918.5194,W,1,8,2.1,13,M,,M,,*5E
06/18/2015	10:10:32.486	$GPGGA,101033,2543.1554,N,07918.5195,W,1,8,2.2,13,M,,M,,*50
06/18/2015	10:10:33.596	$GPGGA,101034,2543.1548,N,07918.5194,W,1,9,1.9,13,M,,M,,*52
06/18/2015	10:10:34.576	$GPGGA,101035,2543.1543,N,07918.5195,W,1,9,2.0,13,M,,M,,*53
06/18/2015	10:10:35.585	$GPGGA,101036,2543.1536,N,07918.5192,W,1,9,1.9,13,M,,M,,*5F
06/18/2015	10:10:36.575	$GPGGA,101037,2543.1531,N,07918.5191,W,1,9,2.0,13,M,,M,,*50
06/18/2015	10:10:37.576	$GPGGA,101038,2543.1526,N,07918.5192,W,1,9,1.9,13,M,,M,,*50
06/18/2015	10:10:38.565	$GPGGA,101039,2543.1519,N,07918.5191,W,1,9,1.9,13,M,,M,,*5E
06/18/2015	10:10:39.605	$GPGGA,101040,2543.1513,N,07918.5189,W,1,8,2.0,13,M,,M,,*58
06/18/2015	10:10:40.555	$GPGGA,101041,2543.1507,N,07918.5188,W,1,8,1.9,13,M,,M,,*57
06/18/2015	10:10:41.585	$GPGGA,101042,2543.1501,N,07918.5188,W,1,8,2.0,13,M,,M,,*58
06/18/2015	10:10:42.555	$GPGGA,101043,2543.1495,N,07918.5186,W,1,8,2.0,13,M,,M,,*5B
06/18/2015	10:10:43.605	$GPGGA,101044,2543.1490,N,07918.5186,W,1,8,2.0,13,M,,M,,*59
06/18/2015	10:10:44.555	$GPGGA,101045,2543.1485,N,07918.5186,W,1,8,1.9,13,M,,M,,*56
06/18/2015	10:10:45.565	$GPGGA,101046,2543.1479,N,07918.5184,W,1,9,1.9,13,M,,M,,*55
06/18/2015	10:10:46.537	$GPGGA,101047,2543.1474,N,07918.5183,W,1,9,2.0,13,M,,M,,*54
06/18/2015	10:10:47.576	$GPGGA,101048,2543.1470,N,07918.5184,W,1,9,1.9,13,M,,M,,*52
06/18/2015	10:10:48.556	$GPGGA,101049,2543.1465,N,07918.5183,W,1,9,1.9,13,M,,M,,*50
06/18/2015	10:10:49.576	$GPGGA,101050,2543.1460,N,07918.5182,W,1,9,1.9,13,M,,M,,*5C
06/18/2015	10:10:50.832	$GPGGA,101051,2543.1455,N,07918.5181,W,1,9,1.9,13,M,,M,,*58
06/18/2015	10:10:51.546	$GPGGA,101052,2543.1451,N,07918.5181,W,1,9,1.9,13,M,,M,,*5F
06/18/2015	10:10:52.545	$GPGGA,101053,2543.1447,N,07918.5181,W,1,9,1.9,13,M,,M,,*59
06/18/2015	10:10:53.555	$GPGGA,101054,2543.1441,N,07918.5181,W,1,9,1.9,13,M,,M,,*58
06/18/2015	10:10:54.535	$GPGGA,101055,2543.1436,N,07918.5180,W,1,9,1.9,13,M,,M,,*58
06/18/2015	10:10:55.585	$GPGGA,101056,2543.1430,N,07918.5181,W,1,9,1.9,13,M,,M,,*5C
06/18/2015	10:10:56.536	$GPGGA,101057,2543.1424,N,07918.5180,W,1,9,1.9,13,M,,M,,*59
06/18/2015	10:10:57.515	$GPGGA,101058,2543.1419,N,07918.5181,W,1,9,1.9,13,M,,M,,*59
06/18/2015	10:10:58.535	$GPGGA,101059,2543.1414,N,07918.5178,W,1,9,1.9,13,M,,M,,*53
06/18/2015	10:10:59.555	$GPGGA,101100,2543.1409,N,07918.5178,W,1,9,1.9,13,M,,M,,*52
06/18/2015	10:11:00.516	$GPGGA,101101,2543.1404,N,07918.5177,W,1,9,1.9,13,M,,M,,*51
06/18/2015	10:11:01.515	$GPGGA,101102,2543.1398,N,07918.5175,W,1,9,1.9,13,M,,M,,*52
06/18/2015	10:11:02.625	$GPGGA,101103,2543.1393,N,07918.5175,W,1,9,1.9,13,M,,M,,*58
06/18/2015	10:11:03.556	$GPGGA,101104,2543.1387,N,07918.5175,W,1,9,1.9,13,M,,M,,*5A
06/18/2015	10:11:04.522	$GPGGA,101105,2543.1382,N,07918.5173,W,1,9,1.9,13,M,,M,,*58
06/18/2015	10:11:05.538	$GPGGA,101106,2543.1375,N,07918.5172,W,1,9,1.9,13,M,,M,,*52
06/18/2015	10:11:06.516	$GPGGA,101107,2543.1369,N,07918.5173,W,1,9,1.9,13,M,,M,,*5F
06/18/2015	10:11:07.536	$GPGGA,101108,2543.1364,N,07918.5172,W,1,9,1.9,13,M,,M,,*5C
06/18/2015	10:11:08.526	$GPGGA,101109,2543.1358,N,07918.5171,W,1,9,1.9,13,M,,M,,*51
06/18/2015	10:11:09.496	$GPGGA,101110,2543.1349,N,07918.5170,W,1,8,2.0,13,M,,M,,*53
06/18/2015	10:11:10.615	$GPGGA,101111,2543.1342,N,07918.5169,W,1,8,1.9,13,M,,M,,*5B
06/18/2015	10:11:11.515	$GPGGA,101112,2543.1337,N,07918.5170,W,1,9,1.9,13,M,,M,,*53
06/18/2015	10:11:12.495	$GPGGA,101113,2543.1332,N,07918.5168,W,1,9,1.9,13,M,,M,,*5E
06/18/2015	10:11:13.645	$GPGGA,101114,2543.1326,N,07918.5167,W,1,9,1.9,13,M,,M,,*53
06/18/2015	10:11:14.895	$GPGGA,101115,2543.1320,N,07918.5167,W,1,9,1.9,13,M,,M,,*54
06/18/2015	10:11:15.505	$GPGGA,101116,2543.1314,N,07918.5167,W,1,9,1.9,13,M,,M,,*50
06/18/2015	10:11:16.475	$GPGGA,101117,2543.1308,N,07918.5166,W,1,9,1.9,13,M,,M,,*5D
06/18/2015	10:11:17.605	$GPGGA,101118,2543.1303,N,07918.5165,W,1,9,1.9,13,M,,M,,*5A
06/18/2015	10:11:18.585	$GPGGA,101119,2543.1297,N,07918.5166,W,1,9,1.9,13,M,,M,,*54
06/18/2015	10:11:19.927	$GPGGA,101120,2543.1292,N,07918.5165,W,1,9,1.9,13,M,,M,,*58
06/18/2015	10:11:20.585	$GPGGA,101121,2543.1286,N,07918.5164,W,1,9,1.9,13,M,,M,,*5D
06/18/2015	10:11:21.566	$GPGGA,101122,2543.1281,N,07918.5163,W,1,9,1.9,13,M,,M,,*5E
06/18/2015	10:11:22.576	$GPGGA,101123,2543.1277,N,07918.5162,W,1,9,1.9,13,M,,M,,*57
06/18/2015	10:11:23.586	$GPGGA,101124,2543.1271,N,07918.5163,W,1,9,1.9,13,M,,M,,*57
06/18/2015	10:11:24.566	$GPGGA,101125,2543.1266,N,07918.5161,W,1,9,1.9,13,M,,M,,*52
06/18/2015	10:11:25.586	$GPGGA,101126,2543.1260,N,07918.5162,W,1,9,1.9,13,M,,M,,*54
06/18/2015	10:11:26.556	$GPGGA,101127,2543.1255,N,07918.5160,W,1,9,1.9,13,M,,M,,*51
06/18/2015	10:11:27.595	$GPGGA,101128,2543.1250,N,07918.5160,W,1,9,1.9,13,M,,M,,*5B
06/18/2015	10:11:28.555	$GPGGA,101129,2543.1245,N,07918.5159,W,1,9,1.9,13,M,,M,,*54
06/18/2015	10:11:29.575	$GPGGA,101130,2543.1239,N,07918.5158,W,1,9,1.9,13,M,,M,,*56
06/18/2015	10:11:30.555	$GPGGA,101131,2543.1234,N,07918.5157,W,1,9,1.9,13,M,,M,,*55
06/18/2015	10:11:31.565	$GPGGA,101132,2543.1230,N,07918.5156,W,1,9,1.9,13,M,,M,,*53
06/18/2015	10:11:32.545	$GPGGA,101133,2543.1224,N,07918.5156,W,1,9,1.9,12,M,,M,,*56
06/18/2015	10:11:33.575	$GPGGA,101134,2543.1219,N,07918.5155,W,1,9,1.9,12,M,,M,,*5C
06/18/2015	10:11:34.545	$GPGGA,101135,2543.1213,N,07918.5154,W,1,9,1.9,12,M,,M,,*56
06/18/2015	10:11:35.575	$GPGGA,101136,2543.1208,N,07918.5153,W,1,9,1.9,12,M,,M,,*58
06/18/2015	10:11:36.545	$GPGGA,101137,2543.1203,N,07918.5152,W,1,9,1.9,12,M,,M,,*53
06/18/2015	10:11:37.835	$GPGGA,101138,2543.1198,N,07918.5151,W,1,9,1.9,12,M,,M,,*5E
06/18/2015	10:11:38.538	$GPGGA,101139,2543.1192,N,07918.5152,W,1,9,1.9,12,M,,M,,*56
06/18/2015	10:11:39.576	$GPGGA,101140,2543.1187,N,07918.5149,W,1,9,1.9,12,M,,M,,*56
06/18/2015	10:11:40.537	$GPGGA,101141,2543.1181,N,07918.5148,W,1,9,1.9,12,M,,M,,*50
06/18/2015	10:11:41.566	$GPGGA,101142,2543.1176,N,07918.5148,W,1,9,1.9,12,M,,M,,*5B
06/18/2015	10:11:42.544	$GPGGA,101143,2543.1170,N,07918.5147,W,1,9,1.9,12,M,,M,,*53
06/18/2015	10:11:43.556	$GPGGA,101144,2543.1165,N,07918.5145,W,1,8,2.1,12,M,,M,,*58
06/18/2015	10:11:44.539	$GPGGA,101145,2543.1159,N,07918.5145,W,1,8,2.1,12,M,,M,,*56
06/18/2015	10:11:45.555	$GPGGA,101146,2543.1154,N,07918.5143,W,1,9,1.9,12,M,,M,,*54
06/18/2015	10:11:46.537	$GPGGA,101147,2543.1148,N,07918.5141,W,1,9,2.2,12,M,,M,,*52
06/18/2015	10:11:47.545	$GPGGA,101148,2543.1142,N,07918.5140,W,1,8,2.1,12,M,,M,,*54
06/18/2015	10:11:48.535	$GPGGA,101149,2543.1137,N,07918.5138,W,1,8,2.1,12,M,,M,,*58
06/18/2015	10:11:49.515	$GPGGA,101150,2543.1133,N,07918.5137,W,1,9,1.9,12,M,,M,,*51
06/18/2015	10:11:50.515	$GPGGA,101151,2543.1127,N,07918.5135,W,1,9,1.9,12,M,,M,,*57
06/18/2015	10:11:51.515	$GPGGA,101152,2543.1122,N,07918.5135,W,1,7,2.2,11,M,,M,,*54
06/18/2015	10:11:52.515	$GPGGA,101153,2543.1116,N,07918.5137,W,1,7,2.1,11,M,,M,,*53
06/18/2015	10:11:53.545	$GPGGA,101154,2543.1111,N,07918.5138,W,1,9,1.9,11,M,,M,,*59
