Software Version Number: 1	Data File Format Number: 1	Build Version Number: 1	Error Count Since VI Started: 3	Manufacturer: Raytheon	 Model Number: RayMarine 120	 S/N: 	 Cal Date: 	 Wind Direction Offset: 0.00	 Slope (M)1: 0.00	 Offset (B)1: 0.00	 Slope (M)2: 0.00	 Offset (B)2: 0.00	 Slope (M)3: 0.00	 Offset (B)3: 0.00	 Slope (M)4: 0.00	 Offset (B)4: 0.00	 Slope (M)5: 0.00	 Offset (B)5: 0.00	 Slope (M)6: 0.00	 Offset (B)6: 0.00
Computer Date	Computer Time	GGA String
06/24/2015	12:00:00.563	$GPGGA,120001,2508.6492,N,08005.8372,W,1,10,1.6,14,M,,M,,*64
06/24/2015	12:00:01.653	$GPGGA,120002,2508.6497,N,08005.8358,W,1,10,1.6,14,M,,M,,*6A
06/24/2015	12:00:02.563	$GPGGA,120003,2508.6501,N,08005.8341,W,1,10,1.6,14,M,,M,,*6D
06/24/2015	12:00:03.633	$GPGGA,120004,2508.6508,N,08005.8324,W,1,10,1.6,14,M,,M,,*60
06/24/2015	12:00:04.523	$GPGGA,120005,2508.6512,N,08005.8309,W,1,10,1.6,14,M,,M,,*65
06/24/2015	12:00:05.607	$GPGGA,120006,2508.6519,N,08005.8293,W,1,10,1.6,14,M,,M,,*6F
06/24/2015	12:00:06.563	$GPGGA,120007,2508.6523,N,08005.8278,W,1,10,1.4,14,M,,M,,*60
06/24/2015	12:00:07.673	$GPGGA,120008,2508.6529,N,08005.8261,W,1,11,1.4,14,M,,M,,*6C
06/24/2015	12:00:08.563	$GPGGA,120009,2508.6533,N,08005.8246,W,1,11,1.4,14,M,,M,,*63
06/24/2015	12:00:09.513	$GPGGA,120010,2508.6539,N,08005.8231,W,1,11,1.4,14,M,,M,,*61
06/24/2015	12:00:10.553	$GPGGA,120011,2508.6544,N,08005.8213,W,1,11,1.4,14,M,,M,,*6A
06/24/2015	12:00:11.523	$GPGGA,120012,2508.6550,N,08005.8196,W,1,11,1.4,14,M,,M,,*62
06/24/2015	12:00:12.607	$GPGGA,120013,2508.6554,N,08005.8181,W,1,11,1.4,14,M,,M,,*61
06/24/2015	12:00:13.607	$GPGGA,120014,2508.6559,N,08005.8163,W,1,11,1.4,14,M,,M,,*67
06/24/2015	12:00:14.553	$GPGGA,120015,2508.6566,N,08005.8146,W,1,11,1.4,14,M,,M,,*6D
06/24/2015	12:00:15.633	$GPGGA,120016,2508.6570,N,08005.8130,W,1,11,1.6,14,M,,M,,*6A
06/24/2015	12:00:16.543	$GPGGA,120017,2508.6573,N,08005.8113,W,1,11,1.4,14,M,,M,,*6B
06/24/2015	12:00:18.563	$GPGGA,120019,2508.6586,N,08005.8082,W,1,11,1.4,14,M,,M,,*66
06/24/2015	12:00:19.623	$GPGGA,120020,2508.6588,N,08005.8066,W,1,11,1.4,15,M,,M,,*69
06/24/2015	12:00:20.543	$GPGGA,120021,2508.6594,N,08005.8051,W,1,11,1.4,15,M,,M,,*61
06/24/2015	12:00:21.653	$GPGGA,120022,2508.6599,N,08005.8036,W,1,10,1.4,15,M,,M,,*6F
06/24/2015	12:00:22.583	$GPGGA,120023,2508.6604,N,08005.8020,W,1,10,1.4,15,M,,M,,*6E
06/24/2015	12:00:23.623	$GPGGA,120024,2508.6609,N,08005.8004,W,1,11,1.4,15,M,,M,,*63
06/24/2015	12:00:24.595	$GPGGA,120025,2508.6613,N,08005.7988,W,1,11,1.4,15,M,,M,,*6B
06/24/2015	12:00:25.623	$GPGGA,120026,2508.6619,N,08005.7971,W,1,10,1.4,15,M,,M,,*65
06/24/2015	12:00:26.583	$GPGGA,120027,2508.6624,N,08005.7954,W,1,10,1.4,15,M,,M,,*6D
06/24/2015	12:00:27.593	$GPGGA,120028,2508.6628,N,08005.7938,W,1,11,1.4,15,M,,M,,*65
06/24/2015	12:00:28.583	$GPGGA,120029,2508.6631,N,08005.7921,W,1,11,1.4,15,M,,M,,*64
06/24/2015	12:00:29.613	$GPGGA,120030,2508.6638,N,08005.7903,W,1,11,1.4,15,M,,M,,*65
06/24/2015	12:00:30.564	$GPGGA,120031,2508.6642,N,08005.7886,W,1,11,1.4,15,M,,M,,*65
06/24/2015	12:00:31.624	$GPGGA,120032,2508.6642,N,08005.7886,W,1,11,1.4,15,M,,M,,*66
06/24/2015	12:00:32.573	$GPGGA,120033,2508.6651,N,08005.7851,W,1,11,1.4,15,M,,M,,*6F
06/24/2015	12:00:33.605	$GPGGA,120034,2508.6656,N,08005.7833,W,1,11,1.4,15,M,,M,,*6B
06/24/2015	12:00:34.573	$GPGGA,120035,2508.6660,N,08005.7811,W,1,11,1.4,15,M,,M,,*6F
06/24/2015	12:00:35.603	$GPGGA,120036,2508.6664,N,08005.7794,W,1,11,1.4,15,M,,M,,*6A
06/24/2015	12:00:36.563	$GPGGA,120037,2508.6670,N,08005.7775,W,1,11,1.4,15,M,,M,,*61
06/24/2015	12:00:37.593	$GPGGA,120038,2508.6674,N,08005.7758,W,1,10,1.4,15,M,,M,,*64
06/24/2015	12:00:38.553	$GPGGA,120039,2508.6681,N,08005.7743,W,1,10,1.4,15,M,,M,,*65
06/24/2015	12:00:39.607	$GPGGA,120040,2508.6685,N,08005.7725,W,1,11,1.4,15,M,,M,,*6E
06/24/2015	12:00:40.563	$GPGGA,120041,2508.6689,N,08005.7707,W,1,11,1.4,15,M,,M,,*63
06/24/2015	12:00:41.583	$GPGGA,120042,2508.6689,N,08005.7707,W,1,11,1.4,15,M,,M,,*60
06/24/2015	12:00:42.563	$GPGGA,120043,2508.6700,N,08005.7675,W,1,11,1.4,15,M,,M,,*65
06/24/2015	12:00:43.643	$GPGGA,120044,2508.6703,N,08005.7657,W,1,11,1.4,15,M,,M,,*61
06/24/2015	12:00:44.543	$GPGGA,120045,2508.6709,N,08005.7640,W,1,11,1.4,15,M,,M,,*6C
06/24/2015	12:00:45.613	$GPGGA,120046,2508.6714,N,08005.7626,W,1,11,1.4,15,M,,M,,*63
06/24/2015	12:00:46.533	$GPGGA,120047,2508.6718,N,08005.7610,W,1,11,1.4,15,M,,M,,*6B
06/24/2015	12:00:47.573	$GPGGA,120048,2508.6721,N,08005.7593,W,1,11,1.4,15,M,,M,,*66
06/24/2015	12:00:48.544	$GPGGA,120049,2508.6728,N,08005.7578,W,1,11,1.6,15,M,,M,,*69
06/24/2015	12:00:49.553	$GPGGA,120050,2508.6728,N,08005.7578,W,1,10,1.6,15,M,,M,,*60
06/24/2015	12:00:50.523	$GPGGA,120051,2508.6732,N,08005.7562,W,1,10,1.6,15,M,,M,,*61
06/24/2015	12:00:51.663	$GPGGA,120052,2508.6742,N,08005.7526,W,1,11,1.4,15,M,,M,,*66
06/24/2015	12:00:52.523	$GPGGA,120053,2508.6747,N,08005.7509,W,1,11,1.4,15,M,,M,,*6F
06/24/2015	12:00:53.543	$GPGGA,120054,2508.6747,N,08005.7509,W,1,10,1.6,15,M,,M,,*6B
06/24/2015	12:00:54.543	$GPGGA,120055,2508.6757,N,08005.7475,W,1,10,1.6,15,M,,M,,*61
06/24/2015	12:00:55.653	$GPGGA,120056,2508.6761,N,08005.7458,W,1,11,1.4,15,M,,M,,*6B
06/24/2015	12:00:56.633	$GPGGA,120057,2508.6768,N,08005.7440,W,1,11,1.4,15,M,,M,,*6A
06/24/2015	12:00:57.583	$GPGGA,120058,2508.6772,N,08005.7422,W,1,11,1.4,15,M,,M,,*6A
06/24/2015	12:00:58.523	$GPGGA,120059,2508.6776,N,08005.7404,W,1,11,1.4,15,M,,M,,*6B
06/24/2015	12:00:59.583	$GPGGA,120100,2508.6783,N,08005.7387,W,1,10,1.4,15,M,,M,,*61
06/24/2015	12:01:00.523	$GPGGA,120101,2508.6789,N,08005.7369,W,1,10,1.4,15,M,,M,,*6A
06/24/2015	12:01:01.643	$GPGGA,120102,2508.6793,N,08005.7351,W,1,10,1.6,15,M,,M,,*6B
06/24/2015	12:01:02.523	$GPGGA,120103,2508.6797,N,08005.7336,W,1,10,1.4,15,M,,M,,*6D
06/24/2015	12:01:03.623	$GPGGA,120104,2508.6804,N,08005.7320,W,1,11,1.4,15,M,,M,,*69
06/24/2015	12:01:04.523	$GPGGA,120105,2508.6808,N,08005.7303,W,1,11,1.4,15,M,,M,,*65
06/24/2015	12:01:05.613	$GPGGA,120106,2508.6811,N,08005.7285,W,1,10,1.6,15,M,,M,,*62
06/24/2015	12:01:06.514	$GPGGA,120107,2508.6816,N,08005.7271,W,1,10,1.4,15,M,,M,,*6D
06/24/2015	12:01:07.643	$GPGGA,120108,2508.6823,N,08005.7255,W,1,10,1.6,15,M,,M,,*60
06/24/2015	12:01:08.513	$GPGGA,120109,2508.6828,N,08005.7237,W,1,10,1.6,15,M,,M,,*6E
06/24/2015	12:01:09.600	$GPGGA,120110,2508.6833,N,08005.7222,W,1,10,1.6,15,M,,M,,*68
06/24/2015	12:01:10.594	$GPGGA,120111,2508.6839,N,08005.7208,W,1,10,1.4,15,M,,M,,*69
06/24/2015	12:01:11.612	$GPGGA,120112,2508.6844,N,08005.7191,W,1,11,1.4,16,M,,M,,*61
06/24/2015	12:01:12.600	$GPGGA,120113,2508.6850,N,08005.7173,W,1,11,1.6,16,M,,M,,*6B
06/24/2015	12:01:13.583	$GPGGA,120114,2508.6855,N,08005.7158,W,1,11,1.4,16,M,,M,,*62
06/24/2015	12:01:14.593	$GPGGA,120115,2508.6862,N,08005.7142,W,1,11,1.4,16,M,,M,,*6C
06/24/2015	12:01:15.593	$GPGGA,120116,2508.6866,N,08005.7123,W,1,11,1.4,16,M,,M,,*6C
06/24/2015	12:01:16.583	$GPGGA,120117,2508.6873,N,08005.7106,W,1,11,1.4,16,M,,M,,*6E
06/24/2015	12:01:17.603	$GPGGA,120118,2508.6879,N,08005.7091,W,1,11,1.4,16,M,,M,,*64
06/24/2015	12:01:18.573	$GPGGA,120119,2508.6884,N,08005.7074,W,1,11,1.4,16,M,,M,,*6C
06/24/2015	12:01:19.613	$GPGGA,120120,2508.6890,N,08005.7055,W,1,10,1.4,16,M,,M,,*61
06/24/2015	12:01:20.573	$GPGGA,120121,2508.6895,N,08005.7042,W,1,10,1.4,16,M,,M,,*63
06/24/2015	12:01:21.563	$GPGGA,120122,2508.6902,N,08005.7026,W,1,11,1.4,16,M,,M,,*6C
06/24/2015	12:01:22.563	$GPGGA,120123,2508.6906,N,08005.7009,W,1,11,1.4,16,M,,M,,*64
06/24/2015	12:01:23.609	$GPGGA,120124,2508.6911,N,08005.6994,W,1,11,1.4,16,M,,M,,*69
06/24/2015	12:01:24.563	$GPGGA,120125,2508.6915,N,08005.6978,W,1,11,1.4,16,M,,M,,*6E
06/24/2015	12:01:25.594	$GPGGA,120126,2508.6920,N,08005.6961,W,1,11,1.4,16,M,,M,,*63
06/24/2015	12:01:26.563	$GPGGA,120127,2508.6924,N,08005.6947,W,1,11,1.4,16,M,,M,,*62
06/24/2015	12:01:27.563	$GPGGA,120128,2508.6928,N,08005.6930,W,1,11,1.4,16,M,,M,,*61
06/24/2015	12:01:28.553	$GPGGA,120129,2508.6931,N,08005.6913,W,1,11,1.4,16,M,,M,,*69
06/24/2015	12:01:29.543	$GPGGA,120130,2508.6937,N,08005.6897,W,1,11,1.4,16,M,,M,,*6A
06/24/2015	12:01:30.563	$GPGGA,120131,2508.6942,N,08005.6882,W,1,11,1.4,16,M,,M,,*6D
06/24/2015	12:01:31.593	$GPGGA,120132,2508.6945,N,08005.6864,W,1,11,1.4,16,M,,M,,*61
06/24/2015	12:01:32.543	$GPGGA,120133,2508.6949,N,08005.6848,W,1,11,1.4,16,M,,M,,*62
06/24/2015	12:01:33.573	$GPGGA,120134,2508.6956,N,08005.6833,W,1,10,1.4,16,M,,M,,*66
06/24/2015	12:01:34.553	$GPGGA,120135,2508.6960,N,08005.6817,W,1,10,1.6,16,M,,M,,*66
06/24/2015	12:01:35.573	$GPGGA,120136,2508.6964,N,08005.6800,W,1,11,1.4,16,M,,M,,*64
06/24/2015	12:01:36.533	$GPGGA,120137,2508.6967,N,08005.6784,W,1,11,1.4,16,M,,M,,*65
06/24/2015	12:01:37.533	$GPGGA,120138,2508.6973,N,08005.6765,W,1,10,1.4,16,M,,M,,*61
06/24/2015	12:01:38.543	$GPGGA,120139,2508.6978,N,08005.6747,W,1,10,1.4,16,M,,M,,*6B
06/24/2015	12:01:39.543	$GPGGA,120140,2508.6984,N,08005.6730,W,1,11,1.4,16,M,,M,,*67
06/24/2015	12:01:40.524	$GPGGA,120141,2508.6989,N,08005.6711,W,1,11,1.4,16,M,,M,,*68
06/24/2015	12:01:41.554	$GPGGA,120142,2508.6993,N,08005.6695,W,1,10,1.4,16,M,,M,,*6C
06/24/2015	12:01:43.063	$GPGGA,120143,2508.6999,N,08005.6680,W,1,10,1.3,16,M,,M,,*64
06/24/2015	12:01:43.543	$GPGGA,120144,2508.7003,N,08005.6662,W,1,11,1.3,16,M,,M,,*65
06/24/2015	12:01:44.523	$GPGGA,120145,2508.7007,N,08005.6646,W,1,11,1.3,16,M,,M,,*66
06/24/2015	12:01:45.613	$GPGGA,120146,2508.7014,N,08005.6631,W,1,11,1.3,16,M,,M,,*67
06/24/2015	12:01:46.513	$GPGGA,120147,2508.7018,N,08005.6614,W,1,11,1.3,16,M,,M,,*6D
06/24/2015	12:01:47.653	$GPGGA,120148,2508.7024,N,08005.6598,W,1,11,1.3,16,M,,M,,*6A
06/24/2015	12:01:48.613	$GPGGA,120149,2508.7029,N,08005.6585,W,1,11,1.6,16,M,,M,,*6F
06/24/2015	12:01:49.623	$GPGGA,120150,2508.7034,N,08005.6570,W,1,11,1.3,16,M,,M,,*64
06/24/2015	12:01:50.604	$GPGGA,120151,2508.7039,N,08005.6553,W,1,11,1.3,16,M,,M,,*69
06/24/2015	12:01:51.623	$GPGGA,120152,2508.7045,N,08005.6537,W,1,11,1.3,16,M,,M,,*63
06/24/2015	12:01:52.505	$GPGGA,120153,2508.7050,N,08005.6521,W,1,11,1.6,16,M,,M,,*64
06/24/2015	12:01:53.606	$GPGGA,120154,2508.7054,N,08005.6504,W,1,10,1.6,16,M,,M,,*61
06/24/2015	12:01:54.504	$GPGGA,120155,2508.7061,N,08005.6487,W,1,10,1.3,16,M,,M,,*69
06/24/2015	12:01:55.613	$GPGGA,120156,2508.7067,N,08005.6470,W,1,10,1.6,16,M,,M,,*61
06/24/2015	12:01:56.503	$GPGGA,120157,2508.7072,N,08005.6453,W,1,10,1.6,16,M,,M,,*65
06/24/2015	12:01:57.623	$GPGGA,120158,2508.7076,N,08005.6435,W,1,10,1.6,16,M,,M,,*6E
06/24/2015	12:01:58.504	$GPGGA,120159,2508.7083,N,08005.6418,W,1,10,1.6,16,M,,M,,*6A
06/24/2015	12:01:59.623	$GPGGA,120200,2508.7089,N,08005.6401,W,1,10,1.6,17,M,,M,,*66
06/24/2015	12:02:00.584	$GPGGA,120201,2508.7094,N,08005.6383,W,1,10,1.6,17,M,,M,,*66
06/24/2015	12:02:01.583	$GPGGA,120202,2508.7099,N,08005.6365,W,1,10,1.6,17,M,,M,,*60
06/24/2015	12:02:02.584	$GPGGA,120203,2508.7105,N,08005.6349,W,1,10,1.6,17,M,,M,,*6B
06/24/2015	12:02:03.623	$GPGGA,120204,2508.7112,N,08005.6332,W,1,10,1.6,17,M,,M,,*66
06/24/2015	12:02:04.573	$GPGGA,120205,2508.7115,N,08005.6312,W,1,10,1.3,17,M,,M,,*67
06/24/2015	12:02:05.593	$GPGGA,120206,2508.7122,N,08005.6296,W,1,11,1.3,17,M,,M,,*6C
06/24/2015	12:02:07.633	$GPGGA,120208,2508.7133,N,08005.6260,W,1,11,1.3,16,M,,M,,*6A
06/24/2015	12:02:08.563	$GPGGA,120209,2508.7140,N,08005.6244,W,1,11,1.3,16,M,,M,,*69
06/24/2015	12:02:09.996	$GPGGA,120210,2508.7144,N,08005.6228,W,1,10,1.4,16,M,,M,,*69
06/24/2015	12:02:10.573	$GPGGA,120211,2508.7150,N,08005.6210,W,1,10,1.3,16,M,,M,,*61
06/24/2015	12:02:11.596	$GPGGA,120212,2508.7155,N,08005.6193,W,1,11,1.3,16,M,,M,,*6E
06/24/2015	12:02:12.563	$GPGGA,120213,2508.7162,N,08005.6177,W,1,11,1.3,16,M,,M,,*61
06/24/2015	12:02:13.553	$GPGGA,120214,2508.7168,N,08005.6158,W,1,10,1.4,16,M,,M,,*67
06/24/2015	12:02:14.563	$GPGGA,120215,2508.7173,N,08005.6141,W,1,10,1.3,16,M,,M,,*63
06/24/2015	12:02:15.564	$GPGGA,120216,2508.7177,N,08005.6124,W,1,11,1.3,16,M,,M,,*66
06/24/2015	12:02:16.544	$GPGGA,120217,2508.7184,N,08005.6107,W,1,11,1.4,16,M,,M,,*6D
06/24/2015	12:02:17.553	$GPGGA,120218,2508.7190,N,08005.6089,W,1,11,1.3,16,M,,M,,*67
06/24/2015	12:02:18.553	$GPGGA,120219,2508.7194,N,08005.6072,W,1,11,1.3,16,M,,M,,*66
06/24/2015	12:02:19.573	$GPGGA,120220,2508.7199,N,08005.6056,W,1,10,1.4,16,M,,M,,*61
06/24/2015	12:02:20.553	$GPGGA,120221,2508.7206,N,08005.6038,W,1,10,1.4,16,M,,M,,*6D
06/24/2015	12:02:21.533	$GPGGA,120222,2508.7209,N,08005.6021,W,1,10,1.4,16,M,,M,,*69
06/24/2015	12:02:22.543	$GPGGA,120223,2508.7215,N,08005.6004,W,1,10,1.3,16,M,,M,,*65
06/24/2015	12:02:23.583	$GPGGA,120224,2508.7220,N,08005.5986,W,1,10,1.4,16,M,,M,,*63
06/24/2015	12:02:24.533	$GPGGA,120225,2508.7226,N,08005.5968,W,1,10,1.4,15,M,,M,,*67
06/24/2015	12:02:25.543	$GPGGA,120226,2508.7231,N,08005.5951,W,1,11,1.3,15,M,,M,,*6E
06/24/2015	12:02:26.523	$GPGGA,120227,2508.7235,N,08005.5934,W,1,11,1.3,15,M,,M,,*68
06/24/2015	12:02:27.543	$GPGGA,120228,2508.7240,N,08005.5917,W,1,9,1.9,15,M,,M,,*57
06/24/2015	12:02:28.523	$GPGGA,120229,2508.7244,N,08005.5901,W,1,9,1.3,15,M,,M,,*5F
06/24/2015	12:02:29.543	$GPGGA,120230,2508.7248,N,08005.5886,W,1,11,1.3,15,M,,M,,*6C
06/24/2015	12:02:30.533	$GPGGA,120231,2508.7252,N,08005.5869,W,1,11,1.3,15,M,,M,,*67
06/24/2015	12:02:31.543	$GPGGA,120232,2508.7256,N,08005.5853,W,1,11,1.3,15,M,,M,,*69
06/24/2015	12:02:32.513	$GPGGA,120233,2508.7259,N,08005.5836,W,1,11,1.3,15,M,,M,,*64
06/24/2015	12:02:33.514	$GPGGA,120234,2508.7263,N,08005.5818,W,1,10,1.4,15,M,,M,,*60
06/24/2015	12:02:34.523	$GPGGA,120235,2508.7267,N,08005.5801,W,1,10,1.3,15,M,,M,,*6A
06/24/2015	12:02:35.523	$GPGGA,120236,2508.7271,N,08005.5784,W,1,11,1.3,15,M,,M,,*6D
06/24/2015	12:02:36.613	$GPGGA,120237,2508.7276,N,08005.5766,W,1,11,1.3,15,M,,M,,*67
06/24/2015	12:02:37.523	$GPGGA,120238,2508.7278,N,08005.5749,W,1,10,1.4,15,M,,M,,*6D
06/24/2015	12:02:38.523	$GPGGA,120239,2508.7282,N,08005.5731,W,1,10,1.4,15,M,,M,,*66
06/24/2015	12:02:39.523	$GPGGA,120240,2508.7288,N,08005.5714,W,1,11,1.3,15,M,,M,,*63
06/24/2015	12:02:40.513	$GPGGA,120241,2508.7292,N,08005.5695,W,1,11,1.4,15,M,,M,,*66
06/24/2015	12:02:41.495	$GPGGA,120242,2508.7298,N,08005.5678,W,1,10,1.4,15,M,,M,,*6D
06/24/2015	12:02:42.533	$GPGGA,120243,2508.7302,N,08005.5660,W,1,10,1.4,15,M,,M,,*67
06/24/2015	12:02:43.609	$GPGGA,120244,2508.7307,N,08005.5642,W,1,11,1.3,15,M,,M,,*63
06/24/2015	12:02:44.583	$GPGGA,120245,2508.7314,N,08005.5625,W,1,11,1.4,15,M,,M,,*66
06/24/2015	12:02:45.614	$GPGGA,120246,2508.7318,N,08005.5607,W,1,11,1.3,15,M,,M,,*6E
06/24/2015	12:02:46.583	$GPGGA,120247,2508.7325,N,08005.5588,W,1,11,1.3,15,M,,M,,*65
06/24/2015	12:02:47.612	$GPGGA,120248,2508.7329,N,08005.5574,W,1,11,1.3,15,M,,M,,*65
06/24/2015	12:02:48.583	$GPGGA,120249,2508.7336,N,08005.5558,W,1,11,1.3,15,M,,M,,*64
06/24/2015	12:02:49.606	$GPGGA,120250,2508.7342,N,08005.5539,W,1,11,1.3,15,M,,M,,*68
06/24/2015	12:02:50.599	$GPGGA,120251,2508.7346,N,08005.5524,W,1,11,1.3,15,M,,M,,*61
06/24/2015	12:02:51.624	$GPGGA,120252,2508.7353,N,08005.5509,W,1,11,1.3,15,M,,M,,*69
06/24/2015	12:02:52.583	$GPGGA,120253,2508.7357,N,08005.5493,W,1,11,1.4,15,M,,M,,*69
06/24/2015	12:02:53.593	$GPGGA,120254,2508.7363,N,08005.5477,W,1,11,1.3,15,M,,M,,*64
06/24/2015	12:02:54.573	$GPGGA,120255,2508.7370,N,08005.5462,W,1,11,1.3,15,M,,M,,*63
06/24/2015	12:02:55.603	$GPGGA,120256,2508.7374,N,08005.5445,W,1,11,1.3,15,M,,M,,*61
06/24/2015	12:02:56.573	$GPGGA,120257,2508.7379,N,08005.5428,W,1,11,1.3,15,M,,M,,*66
06/24/2015	12:02:57.583	$GPGGA,120258,2508.7383,N,08005.5413,W,1,11,1.3,15,M,,M,,*64
06/24/2015	12:02:58.563	$GPGGA,120259,2508.7390,N,08005.5397,W,1,11,1.3,15,M,,M,,*6C
06/24/2015	12:02:59.606	$GPGGA,120300,2508.7396,N,08005.5380,W,1,11,1.3,15,M,,M,,*61
06/24/2015	12:03:00.563	$GPGGA,120301,2508.7401,N,08005.5365,W,1,11,1.3,15,M,,M,,*62
06/24/2015	12:03:01.553	$GPGGA,120302,2508.7407,N,08005.5349,W,1,11,1.3,15,M,,M,,*69
06/24/2015	12:03:02.563	$GPGGA,120303,2508.7412,N,08005.5331,W,1,11,1.4,15,M,,M,,*64
06/24/2015	12:03:03.573	$GPGGA,120304,2508.7421,N,08005.5314,W,1,10,1.4,15,M,,M,,*65
06/24/2015	12:03:04.543	$GPGGA,120305,2508.7426,N,08005.5298,W,1,10,1.3,15,M,,M,,*61
06/24/2015	12:03:05.583	$GPGGA,120306,2508.7430,N,08005.5280,W,1,11,1.3,15,M,,M,,*6D
06/24/2015	12:03:06.543	$GPGGA,120307,2508.7436,N,08005.5266,W,1,11,1.4,15,M,,M,,*65
06/24/2015	12:03:07.583	$GPGGA,120308,2508.7443,N,08005.5251,W,1,11,1.3,15,M,,M,,*6B
06/24/2015	12:03:08.544	$GPGGA,120309,2508.7447,N,08005.5233,W,1,11,1.4,15,M,,M,,*6D
06/24/2015	12:03:09.563	$GPGGA,120310,2508.7453,N,08005.5217,W,1,11,1.3,15,M,,M,,*61
06/24/2015	12:03:10.543	$GPGGA,120311,2508.7458,N,08005.5201,W,1,11,1.4,15,M,,M,,*6B
06/24/2015	12:03:11.553	$GPGGA,120312,2508.7465,N,08005.5184,W,1,10,1.4,15,M,,M,,*69
06/24/2015	12:03:12.553	$GPGGA,120313,2508.7471,N,08005.5168,W,1,10,1.3,15,M,,M,,*68
06/24/2015	12:03:13.523	$GPGGA,120314,2508.7476,N,08005.5152,W,1,11,1.3,15,M,,M,,*60
06/24/2015	12:03:14.543	$GPGGA,120315,2508.7482,N,08005.5136,W,1,11,1.4,15,M,,M,,*6F
06/24/2015	12:03:15.533	$GPGGA,120316,2508.7487,N,08005.5118,W,1,10,1.4,15,M,,M,,*64
06/24/2015	12:03:16.543	$GPGGA,120317,2508.7493,N,08005.5102,W,1,10,1.4,15,M,,M,,*6B
06/24/2015	12:03:17.523	$GPGGA,120318,2508.7498,N,08005.5086,W,1,11,1.3,15,M,,M,,*64
06/24/2015	12:03:18.523	$GPGGA,120319,2508.7502,N,08005.5069,W,1,11,1.3,15,M,,M,,*66
06/24/2015	12:03:19.595	$GPGGA,120320,2508.7508,N,08005.5051,W,1,11,1.3,15,M,,M,,*6D
06/24/2015	12:03:20.513	$GPGGA,120321,2508.7513,N,08005.5034,W,1,11,1.4,15,M,,M,,*62
06/24/2015	12:03:21.623	$GPGGA,120322,2508.7520,N,08005.5017,W,1,10,1.4,15,M,,M,,*61
06/24/2015	12:03:22.633	$GPGGA,120323,2508.7524,N,08005.4999,W,1,10,1.4,15,M,,M,,*6A
06/24/2015	12:03:23.513	$GPGGA,120324,2508.7531,N,08005.4981,W,1,10,1.4,15,M,,M,,*60
06/24/2015	12:03:24.603	$GPGGA,120325,2508.7537,N,08005.4962,W,1,10,1.9,15,M,,M,,*67
06/24/2015	12:03:25.514	$GPGGA,120326,2508.7542,N,08005.4945,W,1,11,1.3,15,M,,M,,*68
06/24/2015	12:03:26.604	$GPGGA,120327,2508.7547,N,08005.4928,W,1,11,1.9,15,M,,M,,*6D
06/24/2015	12:03:27.523	$GPGGA,120328,2508.7552,N,08005.4910,W,1,10,1.4,15,M,,M,,*61
06/24/2015	12:03:28.513	$GPGGA,120329,2508.7556,N,08005.4893,W,1,10,1.3,15,M,,M,,*69
06/24/2015	12:03:29.605	$GPGGA,120330,2508.7562,N,08005.4875,W,1,10,1.4,15,M,,M,,*69
06/24/2015	12:03:30.603	$GPGGA,120331,2508.7563,N,08005.4858,W,1,10,1.4,15,M,,M,,*66
06/24/2015	12:03:31.633	$GPGGA,120332,2508.7569,N,08005.4842,W,1,11,1.3,15,M,,M,,*62
06/24/2015	12:03:32.595	$GPGGA,120333,2508.7574,N,08005.4825,W,1,11,1.3,15,M,,M,,*6E
06/24/2015	12:03:33.583	$GPGGA,120334,2508.7577,N,08005.4808,W,1,10,1.4,15,M,,M,,*63
06/24/2015	12:03:34.583	$GPGGA,120335,2508.7581,N,08005.4792,W,1,10,1.3,15,M,,M,,*60
06/24/2015	12:03:35.513	$GPGGA,120336,2508.7587,N,08005.4775,W,1,10,1.5,15,M,,M,,*6A
06/24/2015	12:03:36.583	$GPGGA,120337,2508.7591,N,08005.4755,W,1,10,1.6,15,M,,M,,*6D
06/24/2015	12:03:37.597	$GPGGA,120338,2508.7594,N,08005.4738,W,1,11,1.3,15,M,,M,,*68
06/24/2015	12:03:38.573	$GPGGA,120339,2508.7599,N,08005.4720,W,1,11,1.3,15,M,,M,,*6D
06/24/2015	12:03:39.623	$GPGGA,120340,2508.7605,N,08005.4704,W,1,9,1.9,15,M,,M,,*50
06/24/2015	12:03:40.573	$GPGGA,120341,2508.7607,N,08005.4687,W,1,9,1.3,15,M,,M,,*53
06/24/2015	12:03:41.599	$GPGGA,120342,2508.7610,N,08005.4670,W,1,11,1.3,15,M,,M,,*67
06/24/2015	12:03:42.563	$GPGGA,120343,2508.7616,N,08005.4653,W,1,11,1.3,15,M,,M,,*61
06/24/2015	12:03:43.624	$GPGGA,120344,2508.7621,N,08005.4637,W,1,10,1.5,15,M,,M,,*67
06/24/2015	12:03:44.573	$GPGGA,120345,2508.7624,N,08005.4619,W,1,10,1.5,15,M,,M,,*6F
06/24/2015	12:03:45.595	$GPGGA,120346,2508.7628,N,08005.4602,W,1,11,1.3,15,M,,M,,*6D
06/24/2015	12:03:46.563	$GPGGA,120347,2508.7634,N,08005.4586,W,1,11,1.3,15,M,,M,,*6E
06/24/2015	12:03:47.607	$GPGGA,120348,2508.7636,N,08005.4571,W,1,9,1.9,15,M,,M,,*58
06/24/2015	12:03:48.563	$GPGGA,120349,2508.7642,N,08005.4551,W,1,9,1.5,15,M,,M,,*54
06/24/2015	12:03:49.553	$GPGGA,120350,2508.7646,N,08005.4534,W,1,11,1.3,16,M,,M,,*67
06/24/2015	12:03:50.563	$GPGGA,120351,2508.7650,N,08005.4517,W,1,11,1.3,16,M,,M,,*60
06/24/2015	12:03:51.595	$GPGGA,120352,2508.7656,N,08005.4500,W,1,10,1.4,16,M,,M,,*65
06/24/2015	12:03:52.553	$GPGGA,120353,2508.7661,N,08005.4482,W,1,10,1.4,16,M,,M,,*6B
06/24/2015	12:03:53.563	$GPGGA,120354,2508.7665,N,08005.4465,W,1,11,1.3,16,M,,M,,*67
06/24/2015	12:03:54.553	$GPGGA,120355,2508.7670,N,08005.4448,W,1,11,1.4,16,M,,M,,*6A
06/24/2015	12:03:55.573	$GPGGA,120356,2508.7675,N,08005.4430,W,1,10,1.4,16,M,,M,,*62
06/24/2015	12:03:56.533	$GPGGA,120357,2508.7681,N,08005.4413,W,1,10,1.3,16,M,,M,,*6E
06/24/2015	12:03:57.543	$GPGGA,120358,2508.7686,N,08005.4399,W,1,11,1.3,16,M,,M,,*62
06/24/2015	12:03:58.543	$GPGGA,120359,2508.7690,N,08005.4381,W,1,11,1.4,16,M,,M,,*6A
06/24/2015	12:03:59.597	$GPGGA,120400,2508.7696,N,08005.4363,W,1,10,1.4,16,M,,M,,*6A
06/24/2015	12:04:00.544	$GPGGA,120401,2508.7701,N,08005.4349,W,1,10,1.4,16,M,,M,,*6C
06/24/2015	12:04:01.524	$GPGGA,120402,2508.7704,N,08005.4333,W,1,11,1.3,16,M,,M,,*61
06/24/2015	12:04:02.643	$GPGGA,120403,2508.7710,N,08005.4315,W,1,11,1.5,16,M,,M,,*67
06/24/2015	12:04:03.543	$GPGGA,120404,2508.7715,N,08005.4299,W,1,9,1.5,16,M,,M,,*59
06/24/2015	12:04:04.533	$GPGGA,120405,2508.7721,N,08005.4285,W,1,9,1.4,16,M,,M,,*53
06/24/2015	12:04:05.523	$GPGGA,120406,2508.7724,N,08005.4270,W,1,10,1.4,16,M,,M,,*67
06/24/2015	12:04:06.533	$GPGGA,120407,2508.7729,N,08005.4252,W,1,10,1.3,16,M,,M,,*6C
06/24/2015	12:04:07.583	$GPGGA,120408,2508.7733,N,08005.4236,W,1,11,1.3,16,M,,M,,*6B
06/24/2015	12:04:08.653	$GPGGA,120409,2508.7740,N,08005.4221,W,1,11,1.4,16,M,,M,,*6F
06/24/2015	12:04:09.623	$GPGGA,120410,2508.7746,N,08005.4203,W,1,10,1.3,16,M,,M,,*67
06/24/2015	12:04:10.640	$GPGGA,120411,2508.7750,N,08005.4187,W,1,10,1.5,16,M,,M,,*68
06/24/2015	12:04:11.623	$GPGGA,120412,2508.7755,N,08005.4171,W,1,10,1.5,16,M,,M,,*67
06/24/2015	12:04:12.513	$GPGGA,120413,2508.7761,N,08005.4155,W,1,10,1.5,16,M,,M,,*67
06/24/2015	12:04:13.633	$GPGGA,120414,2508.7766,N,08005.4138,W,1,10,1.5,16,M,,M,,*6C
06/24/2015	12:04:14.503	$GPGGA,120415,2508.7772,N,08005.4120,W,1,10,1.5,16,M,,M,,*61
06/24/2015	12:04:15.633	$GPGGA,120416,2508.7777,N,08005.4104,W,1,10,1.5,16,M,,M,,*61
06/24/2015	12:04:16.613	$GPGGA,120417,2508.7784,N,08005.4089,W,1,10,1.5,16,M,,M,,*68
06/24/2015	12:04:17.613	$GPGGA,120418,2508.7787,N,08005.4071,W,1,10,1.5,16,M,,M,,*63
06/24/2015	12:04:18.583	$GPGGA,120419,2508.7794,N,08005.4054,W,1,10,1.5,16,M,,M,,*67
06/24/2015	12:04:19.602	$GPGGA,120420,2508.7802,N,08005.4039,W,1,10,1.5,16,M,,M,,*66
06/24/2015	12:04:20.602	$GPGGA,120421,2508.7807,N,08005.4023,W,1,10,1.5,16,M,,M,,*69
06/24/2015	12:04:21.602	$GPGGA,120422,2508.7813,N,08005.4005,W,1,10,1.5,16,M,,M,,*6B
06/24/2015	12:04:22.582	$GPGGA,120423,2508.7819,N,08005.3990,W,1,10,1.3,16,M,,M,,*64
06/24/2015	12:04:23.602	$GPGGA,120424,2508.7826,N,08005.3975,W,1,11,1.3,16,M,,M,,*65
06/24/2015	12:04:24.572	$GPGGA,120425,2508.7831,N,08005.3959,W,1,11,1.3,16,M,,M,,*6C
06/24/2015	12:04:25.572	$GPGGA,120426,2508.7837,N,08005.3944,W,1,11,1.3,16,M,,M,,*65
06/24/2015	12:04:26.572	$GPGGA,120427,2508.7844,N,08005.3931,W,1,11,1.3,16,M,,M,,*62
06/24/2015	12:04:27.594	$GPGGA,120428,2508.7849,N,08005.3914,W,1,11,1.4,16,M,,M,,*60
06/24/2015	12:04:28.573	$GPGGA,120429,2508.7855,N,08005.3898,W,1,11,1.3,16,M,,M,,*6E
06/24/2015	12:04:29.599	$GPGGA,120430,2508.7860,N,08005.3883,W,1,11,1.3,16,M,,M,,*6A
06/24/2015	12:04:30.563	$GPGGA,120431,2508.7866,N,08005.3867,W,1,11,1.3,16,M,,M,,*67
06/24/2015	12:04:31.597	$GPGGA,120432,2508.7870,N,08005.3850,W,1,11,1.4,16,M,,M,,*60
06/24/2015	12:04:32.563	$GPGGA,120433,2508.7878,N,08005.3834,W,1,11,1.3,16,M,,M,,*6C
06/24/2015	12:04:33.587	$GPGGA,120434,2508.7885,N,08005.3817,W,1,11,1.3,16,M,,M,,*68
06/24/2015	12:04:34.553	$GPGGA,120435,2508.7889,N,08005.3799,W,1,11,1.4,16,M,,M,,*6B
06/24/2015	12:04:35.613	$GPGGA,120436,2508.7895,N,08005.3782,W,1,10,1.4,16,M,,M,,*6E
06/24/2015	12:04:36.553	$GPGGA,120437,2508.7903,N,08005.3765,W,1,10,1.3,16,M,,M,,*6F
06/24/2015	12:04:37.552	$GPGGA,120438,2508.7910,N,08005.3747,W,1,11,1.3,16,M,,M,,*63
06/24/2015	12:04:38.552	$GPGGA,120439,2508.7914,N,08005.3729,W,1,11,1.4,16,M,,M,,*69
06/24/2015	12:04:39.612	$GPGGA,120440,2508.7921,N,08005.3713,W,1,10,1.9,16,M,,M,,*64
06/24/2015	12:04:40.542	$GPGGA,120441,2508.7928,N,08005.3698,W,1,10,1.4,16,M,,M,,*63
06/24/2015	12:04:41.552	$GPGGA,120442,2508.7932,N,08005.3679,W,1,10,1.4,16,M,,M,,*64
06/24/2015	12:04:42.542	$GPGGA,120443,2508.7939,N,08005.3664,W,1,10,1.4,16,M,,M,,*62
06/24/2015	12:04:43.572	$GPGGA,120444,2508.7945,N,08005.3649,W,1,10,1.4,16,M,,M,,*61
06/24/2015	12:04:44.542	$GPGGA,120445,2508.7950,N,08005.3633,W,1,10,1.3,16,M,,M,,*6E
06/24/2015	12:04:45.563	$GPGGA,120446,2508.7954,N,08005.3617,W,1,11,1.4,16,M,,M,,*69
06/24/2015	12:04:46.533	$GPGGA,120447,2508.7960,N,08005.3601,W,1,11,1.4,16,M,,M,,*68
06/24/2015	12:04:47.573	$GPGGA,120448,2508.7967,N,08005.3585,W,1,10,1.4,16,M,,M,,*6E
06/24/2015	12:04:48.533	$GPGGA,120449,2508.7972,N,08005.3569,W,1,10,1.4,16,M,,M,,*69
06/24/2015	12:04:49.563	$GPGGA,120450,2508.7977,N,08005.3551,W,1,10,1.4,16,M,,M,,*6F
06/24/2015	12:04:50.533	$GPGGA,120451,2508.7982,N,08005.3536,W,1,10,1.4,16,M,,M,,*65
06/24/2015	12:04:51.603	$GPGGA,120452,2508.7989,N,08005.3520,W,1,10,1.4,16,M,,M,,*6A
06/24/2015	12:04:52.633	$GPGGA,120453,2508.7993,N,08005.3504,W,1,10,1.3,16,M,,M,,*61
06/24/2015	12:04:53.543	$GPGGA,120454,2508.7997,N,08005.3488,W,1,11,1.4,16,M,,M,,*61
06/24/2015	12:04:54.522	$GPGGA,120455,2508.8004,N,08005.3472,W,1,11,1.4,16,M,,M,,*69
06/24/2015	12:04:55.652	$GPGGA,120456,2508.8008,N,08005.3456,W,1,10,1.3,16,M,,M,,*66
06/24/2015	12:04:56.522	$GPGGA,120457,2508.8013,N,08005.3439,W,1,10,1.3,16,M,,M,,*64
06/24/2015	12:04:57.552	$GPGGA,120458,2508.8018,N,08005.3422,W,1,11,1.5,16,M,,M,,*6D
06/24/2015	12:04:58.522	$GPGGA,120459,2508.8024,N,08005.3405,W,1,11,1.9,16,M,,M,,*6A
06/24/2015	12:04:59.583	$GPGGA,120500,2508.8029,N,08005.3387,W,1,9,1.3,16,M,,M,,*54
06/24/2015	12:05:00.598	$GPGGA,120501,2508.8033,N,08005.3370,W,1,9,1.3,16,M,,M,,*56
06/24/2015	12:05:01.612	$GPGGA,120502,2508.8040,N,08005.3354,W,1,11,1.3,16,M,,M,,*6E
06/24/2015	12:05:02.502	$GPGGA,120503,2508.8044,N,08005.3336,W,1,11,1.4,16,M,,M,,*68
06/24/2015	12:05:03.553	$GPGGA,120504,2508.8050,N,08005.3318,W,1,10,1.4,16,M,,M,,*67
06/24/2015	12:05:04.513	$GPGGA,120505,2508.8055,N,08005.3303,W,1,10,1.4,16,M,,M,,*69
06/24/2015	12:05:05.513	$GPGGA,120506,2508.8061,N,08005.3287,W,1,10,1.4,16,M,,M,,*60
06/24/2015	12:05:06.493	$GPGGA,120507,2508.8065,N,08005.3269,W,1,10,1.4,16,M,,M,,*65
06/24/2015	12:05:07.584	$GPGGA,120508,2508.8071,N,08005.3253,W,1,10,1.4,16,M,,M,,*66
06/24/2015	12:05:08.503	$GPGGA,120509,2508.8076,N,08005.3239,W,1,10,1.4,16,M,,M,,*6C
06/24/2015	12:05:09.593	$GPGGA,120510,2508.8082,N,08005.3222,W,1,10,1.4,16,M,,M,,*65
06/24/2015	12:05:10.503	$GPGGA,120511,2508.8087,N,08005.3205,W,1,10,1.4,16,M,,M,,*64
06/24/2015	12:05:11.622	$GPGGA,120512,2508.8091,N,08005.3189,W,1,10,1.4,16,M,,M,,*67
06/24/2015	12:05:12.562	$GPGGA,120513,2508.8098,N,08005.3173,W,1,10,1.4,16,M,,M,,*6A
06/24/2015	12:05:13.586	$GPGGA,120514,2508.8104,N,08005.3156,W,1,9,1.4,16,M,,M,,*56
06/24/2015	12:05:14.572	$GPGGA,120515,2508.8109,N,08005.3140,W,1,9,1.4,16,M,,M,,*5D
06/24/2015	12:05:15.572	$GPGGA,120516,2508.8116,N,08005.3124,W,1,9,1.4,15,M,,M,,*51
06/24/2015	12:05:16.562	$GPGGA,120517,2508.8120,N,08005.3107,W,1,9,1.4,15,M,,M,,*54
06/24/2015	12:05:17.552	$GPGGA,120518,2508.8126,N,08005.3091,W,1,10,1.4,15,M,,M,,*6B
06/24/2015	12:05:18.562	$GPGGA,120519,2508.8131,N,08005.3076,W,1,10,1.4,15,M,,M,,*65
06/24/2015	12:05:19.562	$GPGGA,120520,2508.8137,N,08005.3060,W,1,10,1.4,15,M,,M,,*6E
06/24/2015	12:05:20.563	$GPGGA,120521,2508.8141,N,08005.3042,W,1,10,1.4,15,M,,M,,*6E
06/24/2015	12:05:21.563	$GPGGA,120522,2508.8148,N,08005.3027,W,1,10,1.4,15,M,,M,,*67
06/24/2015	12:05:22.553	$GPGGA,120523,2508.8154,N,08005.3012,W,1,10,1.4,15,M,,M,,*6D
06/24/2015	12:05:23.573	$GPGGA,120524,2508.8159,N,08005.2994,W,1,10,1.4,15,M,,M,,*61
06/24/2015	12:05:24.553	$GPGGA,120525,2508.8163,N,08005.2979,W,1,10,1.4,15,M,,M,,*6A
06/24/2015	12:05:25.543	$GPGGA,120526,2508.8170,N,08005.2963,W,1,10,1.4,15,M,,M,,*60
06/24/2015	12:05:26.543	$GPGGA,120527,2508.8176,N,08005.2945,W,1,10,1.4,15,M,,M,,*63
06/24/2015	12:05:27.586	$GPGGA,120528,2508.8181,N,08005.2929,W,1,10,1.4,15,M,,M,,*6E
06/24/2015	12:05:28.533	$GPGGA,120529,2508.8185,N,08005.2913,W,1,10,1.4,15,M,,M,,*62
06/24/2015	12:05:29.532	$GPGGA,120530,2508.8192,N,08005.2896,W,1,11,1.3,15,M,,M,,*66
06/24/2015	12:05:30.542	$GPGGA,120531,2508.8196,N,08005.2881,W,1,11,1.4,15,M,,M,,*62
06/24/2015	12:05:31.588	$GPGGA,120532,2508.8203,N,08005.2863,W,1,11,1.3,15,M,,M,,*65
06/24/2015	12:05:32.532	$GPGGA,120533,2508.8208,N,08005.2847,W,1,11,1.4,15,M,,M,,*6E
06/24/2015	12:05:33.562	$GPGGA,120534,2508.8213,N,08005.2830,W,1,11,1.3,15,M,,M,,*64
06/24/2015	12:05:34.642	$GPGGA,120535,2508.8217,N,08005.2814,W,1,11,1.4,15,M,,M,,*60
06/24/2015	12:05:35.572	$GPGGA,120536,2508.8224,N,08005.2798,W,1,11,1.3,15,M,,M,,*6F
06/24/2015	12:05:36.532	$GPGGA,120537,2508.8228,N,08005.2781,W,1,11,1.4,15,M,,M,,*6D
06/24/2015	12:05:37.512	$GPGGA,120538,2508.8232,N,08005.2762,W,1,10,1.4,15,M,,M,,*65
06/24/2015	12:05:38.513	$GPGGA,120539,2508.8239,N,08005.2746,W,1,10,1.4,15,M,,M,,*69
06/24/2015	12:05:39.563	$GPGGA,120540,2508.8245,N,08005.2729,W,1,10,1.4,15,M,,M,,*65
06/24/2015	12:05:40.633	$GPGGA,120541,2508.8250,N,08005.2711,W,1,10,1.9,15,M,,M,,*66
06/24/2015	12:05:41.543	$GPGGA,120542,2508.8255,N,08005.2695,W,1,10,1.4,15,M,,M,,*60
06/24/2015	12:05:42.533	$GPGGA,120543,2508.8260,N,08005.2678,W,1,10,1.4,15,M,,M,,*64
06/24/2015	12:05:43.633	$GPGGA,120544,2508.8266,N,08005.2661,W,1,10,1.4,15,M,,M,,*6D
06/24/2015	12:05:44.623	$GPGGA,120545,2508.8271,N,08005.2644,W,1,10,1.4,15,M,,M,,*6D
06/24/2015	12:05:45.503	$GPGGA,120546,2508.8275,N,08005.2628,W,1,10,1.4,15,M,,M,,*60
06/24/2015	12:05:46.522	$GPGGA,120547,2508.8281,N,08005.2611,W,1,10,1.4,15,M,,M,,*60
06/24/2015	12:05:47.632	$GPGGA,120548,2508.8285,N,08005.2593,W,1,9,1.9,15,M,,M,,*57
06/24/2015	12:05:48.502	$GPGGA,120549,2508.8290,N,08005.2578,W,1,9,1.4,15,M,,M,,*5A
06/24/2015	12:05:49.599	$GPGGA,120550,2508.8297,N,08005.2563,W,1,10,1.4,15,M,,M,,*67
06/24/2015	12:05:50.492	$GPGGA,120551,2508.8300,N,08005.2544,W,1,10,1.4,15,M,,M,,*6C
06/24/2015	12:05:51.605	$GPGGA,120552,2508.8306,N,08005.2529,W,1,10,1.4,15,M,,M,,*62
06/24/2015	12:05:52.502	$GPGGA,120553,2508.8313,N,08005.2515,W,1,10,1.4,15,M,,M,,*68
06/24/2015	12:05:53.597	$GPGGA,120554,2508.8318,N,08005.2498,W,1,10,1.4,15,M,,M,,*60
06/24/2015	12:05:54.594	$GPGGA,120555,2508.8322,N,08005.2481,W,1,10,1.3,15,M,,M,,*67
06/24/2015	12:05:55.503	$GPGGA,120556,2508.8329,N,08005.2466,W,1,11,1.3,15,M,,M,,*67
06/24/2015	12:05:56.573	$GPGGA,120557,2508.8335,N,08005.2450,W,1,11,1.4,15,M,,M,,*69
06/24/2015	12:05:57.483	$GPGGA,120558,2508.8340,N,08005.2432,W,1,9,1.9,15,M,,M,,*54
06/24/2015	12:05:58.563	$GPGGA,120559,2508.8346,N,08005.2417,W,1,9,1.9,15,M,,M,,*54
06/24/2015	12:05:59.633	$GPGGA,120600,2508.8350,N,08005.2403,W,1,10,1.4,15,M,,M,,*6C
06/24/2015	12:06:00.573	$GPGGA,120601,2508.8354,N,08005.2388,W,1,10,1.4,15,M,,M,,*6D
06/24/2015	12:06:01.603	$GPGGA,120602,2508.8362,N,08005.2371,W,1,10,1.4,15,M,,M,,*6D
06/24/2015	12:06:02.563	$GPGGA,120603,2508.8367,N,08005.2356,W,1,10,1.4,15,M,,M,,*6C
06/24/2015	12:06:03.596	$GPGGA,120604,2508.8371,N,08005.2340,W,1,10,1.4,15,M,,M,,*6B
06/24/2015	12:06:04.562	$GPGGA,120605,2508.8376,N,08005.2323,W,1,10,1.4,15,M,,M,,*68
06/24/2015	12:06:05.582	$GPGGA,120606,2508.8383,N,08005.2307,W,1,10,1.4,15,M,,M,,*67
06/24/2015	12:06:06.562	$GPGGA,120607,2508.8387,N,08005.2291,W,1,10,1.4,15,M,,M,,*6C
06/24/2015	12:06:07.602	$GPGGA,120608,2508.8391,N,08005.2274,W,1,10,1.4,15,M,,M,,*6F
06/24/2015	12:06:08.562	$GPGGA,120609,2508.8398,N,08005.2258,W,1,10,1.4,15,M,,M,,*69
06/24/2015	12:06:09.542	$GPGGA,120610,2508.8404,N,08005.2243,W,1,10,1.4,15,M,,M,,*69
06/24/2015	12:06:10.562	$GPGGA,120611,2508.8409,N,08005.2225,W,1,10,1.4,15,M,,M,,*65
06/24/2015	12:06:11.562	$GPGGA,120612,2508.8415,N,08005.2209,W,1,10,1.4,15,M,,M,,*65
06/24/2015	12:06:12.552	$GPGGA,120613,2508.8420,N,08005.2194,W,1,10,1.4,15,M,,M,,*65
06/24/2015	12:06:13.533	$GPGGA,120614,2508.8425,N,08005.2177,W,1,9,1.9,15,M,,M,,*5F
06/24/2015	12:06:14.553	$GPGGA,120615,2508.8430,N,08005.2161,W,1,9,1.4,15,M,,M,,*50
06/24/2015	12:06:15.543	$GPGGA,120616,2508.8436,N,08005.2148,W,1,10,1.4,15,M,,M,,*66
06/24/2015	12:06:16.543	$GPGGA,120617,2508.8440,N,08005.2131,W,1,10,1.4,15,M,,M,,*68
06/24/2015	12:06:17.543	$GPGGA,120618,2508.8444,N,08005.2115,W,1,10,1.4,15,M,,M,,*65
06/24/2015	12:06:18.543	$GPGGA,120619,2508.8449,N,08005.2100,W,1,10,1.3,15,M,,M,,*6A
06/24/2015	12:06:19.543	$GPGGA,120620,2508.8455,N,08005.2085,W,1,10,1.4,15,M,,M,,*66
06/24/2015	12:06:20.653	$GPGGA,120621,2508.8456,N,08005.2069,W,1,10,1.4,15,M,,M,,*66
06/24/2015	12:06:21.522	$GPGGA,120622,2508.8462,N,08005.2053,W,1,11,1.3,15,M,,M,,*6D
06/24/2015	12:06:22.532	$GPGGA,120623,2508.8469,N,08005.2037,W,1,11,1.3,15,M,,M,,*65
06/24/2015	12:06:23.542	$GPGGA,120624,2508.8474,N,08005.2020,W,1,9,1.9,15,M,,M,,*5B
06/24/2015	12:06:24.532	$GPGGA,120625,2508.8479,N,08005.2003,W,1,9,1.9,15,M,,M,,*56
06/24/2015	12:06:25.552	$GPGGA,120626,2508.8484,N,08005.1989,W,1,10,1.4,15,M,,M,,*6A
06/24/2015	12:06:26.512	$GPGGA,120627,2508.8491,N,08005.1973,W,1,10,1.4,15,M,,M,,*6A
06/24/2015	12:06:27.542	$GPGGA,120628,2508.8497,N,08005.1955,W,1,9,1.9,15,M,,M,,*52
06/24/2015	12:06:28.522	$GPGGA,120629,2508.8501,N,08005.1939,W,1,9,1.4,15,M,,M,,*5A
06/24/2015	12:06:29.632	$GPGGA,120630,2508.8506,N,08005.1926,W,1,10,1.4,15,M,,M,,*63
06/24/2015	12:06:30.623	$GPGGA,120631,2508.8513,N,08005.1911,W,1,10,1.4,15,M,,M,,*62
06/24/2015	12:06:32.003	$GPGGA,120632,2508.8519,N,08005.1895,W,1,11,1.3,15,M,,M,,*60
06/24/2015	12:06:32.603	$GPGGA,120633,2508.8524,N,08005.1880,W,1,11,1.3,15,M,,M,,*6B
06/24/2015	12:06:33.495	$GPGGA,120634,2508.8530,N,08005.1864,W,1,10,1.4,14,M,,M,,*64
06/24/2015	12:06:34.493	$GPGGA,120635,2508.8535,N,08005.1849,W,1,10,1.9,14,M,,M,,*62
06/24/2015	12:06:35.633	$GPGGA,120636,2508.8539,N,08005.1834,W,1,10,1.4,14,M,,M,,*6A
06/24/2015	12:06:36.493	$GPGGA,120637,2508.8545,N,08005.1821,W,1,10,1.3,14,M,,M,,*63
06/24/2015	12:06:37.623	$GPGGA,120638,2508.8550,N,08005.1805,W,1,10,1.4,14,M,,M,,*69
06/24/2015	12:06:38.513	$GPGGA,120639,2508.8556,N,08005.1788,W,1,10,1.5,14,M,,M,,*65
06/24/2015	12:06:39.642	$GPGGA,120640,2508.8563,N,08005.1775,W,1,10,1.4,14,M,,M,,*6E
06/24/2015	12:06:40.582	$GPGGA,120641,2508.8567,N,08005.1761,W,1,10,1.3,14,M,,M,,*69
06/24/2015	12:06:41.582	$GPGGA,120642,2508.8571,N,08005.1744,W,1,11,1.3,15,M,,M,,*6A
06/24/2015	12:06:42.584	$GPGGA,120643,2508.8578,N,08005.1730,W,1,11,1.4,15,M,,M,,*66
06/24/2015	12:06:43.622	$GPGGA,120644,2508.8585,N,08005.1716,W,1,10,1.4,15,M,,M,,*66
06/24/2015	12:06:47.292	$GPGGA,120645,2508.8591,N,08005.1699,W,1,10,1.4,15,M,,M,,*64
06/24/2015	12:06:47.595	$GPGGA,120648,2508.8609,N,08005.1655,W,1,10,1.4,15,M,,M,,*6B
06/24/2015	12:06:48.563	$GPGGA,120649,2508.8615,N,08005.1639,W,1,10,1.4,15,M,,M,,*6D
06/24/2015	12:06:49.593	$GPGGA,120650,2508.8621,N,08005.1624,W,1,10,1.4,15,M,,M,,*6E
06/24/2015	12:06:50.573	$GPGGA,120651,2508.8625,N,08005.1609,W,1,10,1.3,15,M,,M,,*63
06/24/2015	12:06:51.944	$GPGGA,120652,2508.8632,N,08005.1592,W,1,10,1.4,15,M,,M,,*60
06/24/2015	12:06:52.563	$GPGGA,120653,2508.8639,N,08005.1577,W,1,10,1.3,15,M,,M,,*66
06/24/2015	12:06:53.553	$GPGGA,120654,2508.8644,N,08005.1561,W,1,11,1.3,15,M,,M,,*6D
06/24/2015	12:06:54.563	$GPGGA,120655,2508.8651,N,08005.1545,W,1,11,1.3,15,M,,M,,*6E
06/24/2015	12:06:55.596	$GPGGA,120656,2508.8658,N,08005.1530,W,1,10,1.5,15,M,,M,,*61
06/24/2015	12:06:56.552	$GPGGA,120657,2508.8664,N,08005.1514,W,1,10,1.5,15,M,,M,,*69
06/24/2015	12:06:57.588	$GPGGA,120658,2508.8671,N,08005.1500,W,1,11,1.3,15,M,,M,,*60
06/24/2015	12:06:58.552	$GPGGA,120659,2508.8678,N,08005.1485,W,1,11,1.3,15,M,,M,,*64
06/24/2015	12:06:59.599	$GPGGA,120700,2508.8685,N,08005.1468,W,1,10,1.5,15,M,,M,,*6F
06/24/2015	12:07:00.562	$GPGGA,120701,2508.8693,N,08005.1455,W,1,10,1.3,15,M,,M,,*61
06/24/2015	12:07:01.562	$GPGGA,120702,2508.8701,N,08005.1441,W,1,11,1.3,15,M,,M,,*6C
06/24/2015	12:07:02.552	$GPGGA,120703,2508.8708,N,08005.1424,W,1,11,1.3,15,M,,M,,*67
06/24/2015	12:07:03.552	$GPGGA,120704,2508.8716,N,08005.1410,W,1,11,1.3,15,M,,M,,*68
06/24/2015	12:07:04.532	$GPGGA,120705,2508.8726,N,08005.1394,W,1,11,1.3,15,M,,M,,*61
06/24/2015	12:07:05.553	$GPGGA,120706,2508.8736,N,08005.1378,W,1,10,1.5,15,M,,M,,*66
06/24/2015	12:07:06.553	$GPGGA,120707,2508.8744,N,08005.1365,W,1,10,1.4,15,M,,M,,*6F
06/24/2015	12:07:07.543	$GPGGA,120708,2508.8752,N,08005.1349,W,1,10,1.4,15,M,,M,,*69
06/24/2015	12:07:08.543	$GPGGA,120709,2508.8763,N,08005.1335,W,1,10,1.4,15,M,,M,,*61
06/24/2015	12:07:09.523	$GPGGA,120710,2508.8776,N,08005.1321,W,1,11,1.3,15,M,,M,,*6E
06/24/2015	12:07:10.543	$GPGGA,120711,2508.8786,N,08005.1305,W,1,11,1.3,15,M,,M,,*66
06/24/2015	12:07:11.693	$GPGGA,120712,2508.8795,N,08005.1290,W,1,10,1.3,15,M,,M,,*6B
06/24/2015	12:07:12.553	$GPGGA,120713,2508.8806,N,08005.1275,W,1,10,1.3,15,M,,M,,*64
06/24/2015	12:07:13.523	$GPGGA,120714,2508.8820,N,08005.1261,W,1,10,1.5,15,M,,M,,*64
06/24/2015	12:07:14.612	$GPGGA,120715,2508.8831,N,08005.1246,W,1,10,1.3,15,M,,M,,*66
06/24/2015	12:07:15.622	$GPGGA,120716,2508.8842,N,08005.1231,W,1,11,1.3,15,M,,M,,*60
06/24/2015	12:07:16.512	$GPGGA,120717,2508.8853,N,08005.1216,W,1,11,1.3,15,M,,M,,*64
06/24/2015	12:07:17.652	$GPGGA,120718,2508.8867,N,08005.1204,W,1,10,1.3,15,M,,M,,*6E
06/24/2015	12:07:18.512	$GPGGA,120719,2508.8880,N,08005.1190,W,1,10,1.3,15,M,,M,,*68
06/24/2015	12:07:19.682	$GPGGA,120720,2508.8893,N,08005.1174,W,1,11,1.4,15,M,,M,,*6C
06/24/2015	12:07:20.512	$GPGGA,120721,2508.8907,N,08005.1159,W,1,11,1.4,15,M,,M,,*6E
06/24/2015	12:07:21.494	$GPGGA,120722,2508.8922,N,08005.1144,W,1,10,1.4,15,M,,M,,*67
06/24/2015	12:07:22.672	$GPGGA,120723,2508.8936,N,08005.1127,W,1,10,1.4,15,M,,M,,*66
06/24/2015	12:07:23.543	$GPGGA,120724,2508.8949,N,08005.1111,W,1,10,1.4,15,M,,M,,*6C
06/24/2015	12:07:24.513	$GPGGA,120725,2508.8961,N,08005.1101,W,1,10,1.9,15,M,,M,,*6B
06/24/2015	12:07:25.493	$GPGGA,120726,2508.8978,N,08005.1086,W,1,9,1.8,15,M,,M,,*57
06/24/2015	12:07:26.493	$GPGGA,120727,2508.8990,N,08005.1070,W,1,9,1.4,15,M,,M,,*55
06/24/2015	12:07:27.493	$GPGGA,120728,2508.9004,N,08005.1059,W,1,9,1.8,15,M,,M,,*58
06/24/2015	12:07:28.592	$GPGGA,120729,2508.9022,N,08005.1046,W,1,9,1.8,15,M,,M,,*53
06/24/2015	12:07:29.483	$GPGGA,120730,2508.9036,N,08005.1029,W,1,9,1.5,16,M,,M,,*59
06/24/2015	12:07:30.653	$GPGGA,120731,2508.9048,N,08005.1016,W,1,9,1.5,16,M,,M,,*5D
06/24/2015	12:07:31.502	$GPGGA,120732,2508.9066,N,08005.1004,W,1,10,1.4,16,M,,M,,*68
06/24/2015	12:07:32.652	$GPGGA,120733,2508.9083,N,08005.0990,W,1,10,1.5,16,M,,M,,*66
06/24/2015	12:07:33.612	$GPGGA,120734,2508.9098,N,08005.0975,W,1,9,1.5,16,M,,M,,*58
06/24/2015	12:07:34.572	$GPGGA,120735,2508.9115,N,08005.0962,W,1,9,1.4,16,M,,M,,*5A
06/24/2015	12:07:35.642	$GPGGA,120736,2508.9133,N,08005.0949,W,1,10,1.4,16,M,,M,,*6C
06/24/2015	12:07:36.632	$GPGGA,120737,2508.9149,N,08005.0935,W,1,10,1.3,17,M,,M,,*6D
06/24/2015	12:07:37.572	$GPGGA,120738,2508.9164,N,08005.0921,W,1,11,1.3,17,M,,M,,*69
06/24/2015	12:07:38.622	$GPGGA,120739,2508.9182,N,08005.0909,W,1,11,1.3,17,M,,M,,*6A
06/24/2015	12:07:39.622	$GPGGA,120740,2508.9199,N,08005.0896,W,1,11,1.3,17,M,,M,,*69
06/24/2015	12:07:40.643	$GPGGA,120741,2508.9216,N,08005.0882,W,1,11,1.4,17,M,,M,,*6E
06/24/2015	12:07:41.553	$GPGGA,120742,2508.9232,N,08005.0868,W,1,10,1.4,17,M,,M,,*6E
06/24/2015	12:07:42.623	$GPGGA,120743,2508.9251,N,08005.0857,W,1,10,1.3,17,M,,M,,*61
06/24/2015	12:07:43.563	$GPGGA,120744,2508.9269,N,08005.0846,W,1,11,1.3,17,M,,M,,*6C
06/24/2015	12:07:44.613	$GPGGA,120745,2508.9286,N,08005.0831,W,1,11,1.3,17,M,,M,,*6C
06/24/2015	12:07:45.603	$GPGGA,120746,2508.9303,N,08005.0820,W,1,11,1.5,17,M,,M,,*65
06/24/2015	12:07:46.613	$GPGGA,120747,2508.9322,N,08005.0812,W,1,11,1.5,17,M,,M,,*66
06/24/2015	12:07:47.643	$GPGGA,120748,2508.9340,N,08005.0800,W,1,11,1.3,18,M,,M,,*67
06/24/2015	12:07:48.543	$GPGGA,120749,2508.9357,N,08005.0787,W,1,11,1.3,18,M,,M,,*60
06/24/2015	12:07:49.572	$GPGGA,120750,2508.9375,N,08005.0776,W,1,11,1.3,18,M,,M,,*66
06/24/2015	12:07:50.602	$GPGGA,120751,2508.9393,N,08005.0764,W,1,11,1.3,18,M,,M,,*6C
06/24/2015	12:07:51.612	$GPGGA,120752,2508.9412,N,08005.0751,W,1,11,1.3,18,M,,M,,*67
06/24/2015	12:07:52.532	$GPGGA,120753,2508.9430,N,08005.0740,W,1,11,1.3,18,M,,M,,*66
06/24/2015	12:07:53.562	$GPGGA,120754,2508.9448,N,08005.0729,W,1,11,1.3,18,M,,M,,*61
06/24/2015	12:07:54.652	$GPGGA,120755,2508.9466,N,08005.0716,W,1,11,1.3,18,M,,M,,*60
06/24/2015	12:07:55.672	$GPGGA,120756,2508.9484,N,08005.0704,W,1,11,1.3,18,M,,M,,*6C
06/24/2015	12:07:56.604	$GPGGA,120757,2508.9502,N,08005.0693,W,1,11,1.3,18,M,,M,,*6D
06/24/2015	12:07:57.652	$GPGGA,120758,2508.9521,N,08005.0680,W,1,11,1.3,17,M,,M,,*6E
06/24/2015	12:07:58.523	$GPGGA,120759,2508.9539,N,08005.0668,W,1,11,1.3,17,M,,M,,*60
06/24/2015	12:07:59.663	$GPGGA,120800,2508.9557,N,08005.0655,W,1,11,1.3,17,M,,M,,*65
06/24/2015	12:08:00.588	$GPGGA,120801,2508.9575,N,08005.0643,W,1,11,1.3,17,M,,M,,*63
06/24/2015	12:08:01.623	$GPGGA,120802,2508.9594,N,08005.0631,W,1,11,1.3,17,M,,M,,*6A
06/24/2015	12:08:02.573	$GPGGA,120803,2508.9612,N,08005.0619,W,1,11,1.3,17,M,,M,,*6C
06/24/2015	12:08:03.589	$GPGGA,120804,2508.9630,N,08005.0606,W,1,11,1.3,17,M,,M,,*65
06/24/2015	12:08:04.603	$GPGGA,120805,2508.9650,N,08005.0595,W,1,11,1.3,17,M,,M,,*6B
06/24/2015	12:08:05.513	$GPGGA,120806,2508.9668,N,08005.0583,W,1,11,1.3,17,M,,M,,*64
06/24/2015	12:08:06.872	$GPGGA,120807,2508.9686,N,08005.0569,W,1,11,1.3,17,M,,M,,*61
06/24/2015	12:08:07.585	$GPGGA,120808,2508.9705,N,08005.0557,W,1,11,1.3,17,M,,M,,*69
06/24/2015	12:08:08.612	$GPGGA,120809,2508.9724,N,08005.0547,W,1,11,1.3,17,M,,M,,*6A
06/24/2015	12:08:09.595	$GPGGA,120810,2508.9742,N,08005.0533,W,1,11,1.3,17,M,,M,,*61
06/24/2015	12:08:10.598	$GPGGA,120811,2508.9759,N,08005.0519,W,1,11,1.4,16,M,,M,,*64
06/24/2015	12:08:11.632	$GPGGA,120812,2508.9780,N,08005.0511,W,1,10,1.3,16,M,,M,,*6D
06/24/2015	12:08:12.599	$GPGGA,120813,2508.9798,N,08005.0498,W,1,10,1.3,16,M,,M,,*65
06/24/2015	12:08:13.632	$GPGGA,120814,2508.9814,N,08005.0484,W,1,11,1.3,16,M,,M,,*65
06/24/2015	12:08:14.598	$GPGGA,120815,2508.9834,N,08005.0474,W,1,11,1.3,16,M,,M,,*69
06/24/2015	12:08:15.623	$GPGGA,120816,2508.9854,N,08005.0463,W,1,11,1.3,16,M,,M,,*6A
06/24/2015	12:08:16.602	$GPGGA,120817,2508.9870,N,08005.0447,W,1,11,1.3,16,M,,M,,*6B
06/24/2015	12:08:17.623	$GPGGA,120818,2508.9888,N,08005.0436,W,1,11,1.4,16,M,,M,,*62
06/24/2015	12:08:18.599	$GPGGA,120819,2508.9908,N,08005.0428,W,1,11,1.3,16,M,,M,,*62
06/24/2015	12:08:19.643	$GPGGA,120820,2508.9926,N,08005.0415,W,1,11,1.3,16,M,,M,,*6A
06/24/2015	12:08:20.587	$GPGGA,120821,2508.9943,N,08005.0400,W,1,11,1.3,16,M,,M,,*6C
06/24/2015	12:08:21.602	$GPGGA,120822,2508.9961,N,08005.0390,W,1,11,1.3,15,M,,M,,*62
06/24/2015	12:08:22.573	$GPGGA,120823,2508.9980,N,08005.0380,W,1,11,1.3,15,M,,M,,*6D
06/24/2015	12:08:23.603	$GPGGA,120824,2508.9998,N,08005.0366,W,1,11,1.3,15,M,,M,,*6B
06/24/2015	12:08:24.602	$GPGGA,120825,2509.0015,N,08005.0353,W,1,11,1.3,15,M,,M,,*68
06/24/2015	12:08:25.597	$GPGGA,120826,2509.0033,N,08005.0341,W,1,11,1.3,15,M,,M,,*6C
06/24/2015	12:08:26.572	$GPGGA,120827,2509.0052,N,08005.0330,W,1,11,1.3,15,M,,M,,*6C
06/24/2015	12:08:27.601	$GPGGA,120828,2509.0070,N,08005.0318,W,1,11,1.3,15,M,,M,,*69
06/24/2015	12:08:28.584	$GPGGA,120829,2509.0088,N,08005.0304,W,1,11,1.3,15,M,,M,,*62
06/24/2015	12:08:29.572	$GPGGA,120830,2509.0106,N,08005.0291,W,1,11,1.3,15,M,,M,,*60
06/24/2015	12:08:30.572	$GPGGA,120831,2509.0125,N,08005.0280,W,1,11,1.3,15,M,,M,,*60
06/24/2015	12:08:31.612	$GPGGA,120832,2509.0143,N,08005.0268,W,1,11,1.3,15,M,,M,,*65
06/24/2015	12:08:32.572	$GPGGA,120833,2509.0161,N,08005.0254,W,1,11,1.3,15,M,,M,,*6B
06/24/2015	12:08:33.553	$GPGGA,120834,2509.0179,N,08005.0242,W,1,11,1.3,15,M,,M,,*62
06/24/2015	12:08:34.573	$GPGGA,120835,2509.0179,N,08005.0242,W,1,11,1.3,15,M,,M,,*63
06/24/2015	12:08:35.613	$GPGGA,120836,2509.0217,N,08005.0217,W,1,11,1.3,15,M,,M,,*6B
06/24/2015	12:08:36.573	$GPGGA,120837,2509.0233,N,08005.0205,W,1,11,1.3,15,M,,M,,*6F
06/24/2015	12:08:37.563	$GPGGA,120838,2509.0253,N,08005.0193,W,1,11,1.3,15,M,,M,,*6A
06/24/2015	12:08:38.600	$GPGGA,120839,2509.0272,N,08005.0181,W,1,11,1.3,15,M,,M,,*6B
06/24/2015	12:08:39.573	$GPGGA,120840,2509.0291,N,08005.0168,W,1,11,1.3,15,M,,M,,*6F
06/24/2015	12:08:40.573	$GPGGA,120841,2509.0309,N,08005.0156,W,1,11,1.4,15,M,,M,,*64
06/24/2015	12:08:41.552	$GPGGA,120842,2509.0327,N,08005.0146,W,1,10,1.4,15,M,,M,,*6B
06/24/2015	12:08:42.583	$GPGGA,120843,2509.0327,N,08005.0146,W,1,10,1.3,15,M,,M,,*6D
06/24/2015	12:08:43.842	$GPGGA,120844,2509.0365,N,08005.0123,W,1,11,1.3,15,M,,M,,*6E
06/24/2015	12:08:44.622	$GPGGA,120845,2509.0384,N,08005.0111,W,1,11,1.3,15,M,,M,,*61
06/24/2015	12:08:45.532	$GPGGA,120846,2509.0403,N,08005.0100,W,1,11,1.3,14,M,,M,,*6B
06/24/2015	12:08:46.582	$GPGGA,120847,2509.0423,N,08005.0089,W,1,11,1.3,14,M,,M,,*68
06/24/2015	12:08:47.562	$GPGGA,120848,2509.0442,N,08005.0078,W,1,11,1.3,14,M,,M,,*6E
06/24/2015	12:08:48.522	$GPGGA,120849,2509.0442,N,08005.0078,W,1,11,1.4,14,M,,M,,*68
06/24/2015	12:08:49.532	$GPGGA,120850,2509.0479,N,08005.0056,W,1,9,1.6,14,M,,M,,*5F
06/24/2015	12:08:50.563	$GPGGA,120851,2509.0479,N,08005.0056,W,1,9,1.4,14,M,,M,,*5C
06/24/2015	12:08:51.643	$GPGGA,120852,2509.0519,N,08005.0034,W,1,10,1.4,14,M,,M,,*64
06/24/2015	12:08:52.523	$GPGGA,120853,2509.0519,N,08005.0034,W,1,10,1.4,14,M,,M,,*65
06/24/2015	12:08:53.523	$GPGGA,120854,2509.0555,N,08005.0010,W,1,9,1.5,14,M,,M,,*55
06/24/2015	12:08:54.523	$GPGGA,120855,2509.0555,N,08005.0010,W,1,9,1.8,14,M,,M,,*59
06/24/2015	12:08:55.643	$GPGGA,120856,2509.0596,N,08004.9993,W,1,10,1.4,14,M,,M,,*6B
06/24/2015	12:08:56.603	$GPGGA,120857,2509.0613,N,08004.9980,W,1,10,1.3,14,M,,M,,*61
06/24/2015	12:08:57.503	$GPGGA,120858,2509.0634,N,08004.9970,W,1,9,1.5,14,M,,M,,*5A
06/24/2015	12:08:58.603	$GPGGA,120859,2509.0655,N,08004.9959,W,1,9,1.4,14,M,,M,,*56
06/24/2015	12:08:59.692	$GPGGA,120900,2509.0673,N,08004.9949,W,1,10,1.4,14,M,,M,,*66
06/24/2015	12:09:00.596	$GPGGA,120901,2509.0692,N,08004.9938,W,1,10,1.3,14,M,,M,,*69
06/24/2015	12:09:01.622	$GPGGA,120902,2509.0710,N,08004.9928,W,1,10,1.4,14,M,,M,,*67
06/24/2015	12:09:02.582	$GPGGA,120903,2509.0732,N,08004.9917,W,1,10,1.4,14,M,,M,,*6A
06/24/2015	12:09:03.622	$GPGGA,120904,2509.0753,N,08004.9907,W,1,10,1.4,14,M,,M,,*6B
06/24/2015	12:09:04.592	$GPGGA,120905,2509.0771,N,08004.9897,W,1,10,1.3,14,M,,M,,*65
06/24/2015	12:09:05.582	$GPGGA,120906,2509.0793,N,08004.9884,W,1,11,1.3,14,M,,M,,*69
06/24/2015	12:09:06.592	$GPGGA,120907,2509.0813,N,08004.9872,W,1,11,1.3,14,M,,M,,*66
06/24/2015	12:09:07.602	$GPGGA,120908,2509.0833,N,08004.9864,W,1,11,1.3,14,M,,M,,*6C
06/24/2015	12:09:08.585	$GPGGA,120909,2509.0854,N,08004.9854,W,1,11,1.4,14,M,,M,,*68
06/24/2015	12:09:09.583	$GPGGA,120910,2509.0872,N,08004.9842,W,1,11,1.3,14,M,,M,,*64
06/24/2015	12:09:10.583	$GPGGA,120911,2509.0893,N,08004.9832,W,1,11,1.4,14,M,,M,,*6A
06/24/2015	12:09:11.584	$GPGGA,120912,2509.0912,N,08004.9822,W,1,11,1.3,14,M,,M,,*67
06/24/2015	12:09:12.573	$GPGGA,120913,2509.0932,N,08004.9811,W,1,11,1.4,14,M,,M,,*63
06/24/2015	12:09:13.593	$GPGGA,120914,2509.0951,N,08004.9802,W,1,10,1.4,14,M,,M,,*62
06/24/2015	12:09:14.573	$GPGGA,120915,2509.0972,N,08004.9794,W,1,10,1.4,15,M,,M,,*63
06/24/2015	12:09:15.623	$GPGGA,120916,2509.0992,N,08004.9783,W,1,10,1.4,15,M,,M,,*68
06/24/2015	12:09:16.562	$GPGGA,120917,2509.1013,N,08004.9772,W,1,10,1.5,15,M,,M,,*67
06/24/2015	12:09:17.585	$GPGGA,120918,2509.1034,N,08004.9763,W,1,11,1.3,15,M,,M,,*6A
06/24/2015	12:09:18.562	$GPGGA,120919,2509.1055,N,08004.9752,W,1,11,1.3,15,M,,M,,*6E
06/24/2015	12:09:19.562	$GPGGA,120920,2509.1075,N,08004.9742,W,1,11,1.3,15,M,,M,,*67
06/24/2015	12:09:20.562	$GPGGA,120921,2509.1096,N,08004.9734,W,1,11,1.3,15,M,,M,,*6A
06/24/2015	12:09:21.553	$GPGGA,120922,2509.1117,N,08004.9726,W,1,11,1.3,15,M,,M,,*62
06/24/2015	12:09:22.552	$GPGGA,120923,2509.1139,N,08004.9717,W,1,11,1.3,15,M,,M,,*6D
06/24/2015	12:09:23.572	$GPGGA,120924,2509.1160,N,08004.9709,W,1,11,1.3,16,M,,M,,*6A
06/24/2015	12:09:24.542	$GPGGA,120925,2509.1180,N,08004.9700,W,1,11,1.3,16,M,,M,,*6C
06/24/2015	12:09:25.553	$GPGGA,120926,2509.1201,N,08004.9694,W,1,10,1.4,16,M,,M,,*6F
06/24/2015	12:09:26.543	$GPGGA,120927,2509.1222,N,08004.9686,W,1,10,1.3,16,M,,M,,*6B
06/24/2015	12:09:27.600	$GPGGA,120928,2509.1243,N,08004.9676,W,1,11,1.3,16,M,,M,,*6D
06/24/2015	12:09:28.543	$GPGGA,120929,2509.1263,N,08004.9669,W,1,11,1.4,16,M,,M,,*67
06/24/2015	12:09:29.643	$GPGGA,120930,2509.1286,N,08004.9664,W,1,11,1.3,16,M,,M,,*6E
06/24/2015	12:09:30.543	$GPGGA,120931,2509.1306,N,08004.9654,W,1,11,1.3,16,M,,M,,*65
06/24/2015	12:09:31.533	$GPGGA,120932,2509.1327,N,08004.9646,W,1,11,1.3,16,M,,M,,*66
06/24/2015	12:09:32.553	$GPGGA,120933,2509.1349,N,08004.9643,W,1,11,1.3,16,M,,M,,*6A
06/24/2015	12:09:33.553	$GPGGA,120934,2509.1371,N,08004.9635,W,1,11,1.3,16,M,,M,,*67
06/24/2015	12:09:34.542	$GPGGA,120935,2509.1392,N,08004.9626,W,1,11,1.3,16,M,,M,,*69
06/24/2015	12:09:35.532	$GPGGA,120936,2509.1413,N,08004.9621,W,1,11,1.3,16,M,,M,,*63
06/24/2015	12:09:36.622	$GPGGA,120937,2509.1436,N,08004.9617,W,1,11,1.4,16,M,,M,,*67
06/24/2015	12:09:37.642	$GPGGA,120938,2509.1456,N,08004.9606,W,1,11,1.3,17,M,,M,,*68
06/24/2015	12:09:38.612	$GPGGA,120939,2509.1476,N,08004.9598,W,1,11,1.3,17,M,,M,,*6F
06/24/2015	12:09:39.522	$GPGGA,120940,2509.1497,N,08004.9593,W,1,10,1.4,17,M,,M,,*63
06/24/2015	12:09:40.622	$GPGGA,120941,2509.1519,N,08004.9587,W,1,10,1.3,17,M,,M,,*67
06/24/2015	12:09:41.512	$GPGGA,120942,2509.1540,N,08004.9579,W,1,11,1.3,17,M,,M,,*68
06/24/2015	12:09:42.622	$GPGGA,120943,2509.1562,N,08004.9575,W,1,11,1.4,17,M,,M,,*62
06/24/2015	12:09:43.613	$GPGGA,120944,2509.1584,N,08004.9571,W,1,11,1.3,17,M,,M,,*6E
06/24/2015	12:09:44.623	$GPGGA,120945,2509.1605,N,08004.9563,W,1,11,1.3,17,M,,M,,*66
06/24/2015	12:09:45.633	$GPGGA,120946,2509.1626,N,08004.9555,W,1,11,1.3,17,M,,M,,*61
06/24/2015	12:09:46.503	$GPGGA,120947,2509.1648,N,08004.9550,W,1,11,1.3,17,M,,M,,*6D
06/24/2015	12:09:47.613	$GPGGA,120948,2509.1670,N,08004.9547,W,1,10,1.4,17,M,,M,,*69
06/24/2015	12:09:48.593	$GPGGA,120949,2509.1691,N,08004.9540,W,1,10,1.3,17,M,,M,,*67
06/24/2015	12:09:49.633	$GPGGA,120950,2509.1713,N,08004.9534,W,1,11,1.3,17,M,,M,,*66
06/24/2015	12:09:50.583	$GPGGA,120951,2509.1735,N,08004.9528,W,1,11,1.4,17,M,,M,,*69
06/24/2015	12:09:51.602	$GPGGA,120952,2509.1757,N,08004.9523,W,1,11,1.3,17,M,,M,,*62
06/24/2015	12:09:52.583	$GPGGA,120953,2509.1779,N,08004.9517,W,1,11,1.3,17,M,,M,,*68
06/24/2015	12:09:53.582	$GPGGA,120954,2509.1801,N,08004.9511,W,1,11,1.3,17,M,,M,,*69
06/24/2015	12:09:54.582	$GPGGA,120955,2509.1823,N,08004.9504,W,1,11,1.4,17,M,,M,,*6B
06/24/2015	12:09:55.612	$GPGGA,120956,2509.1846,N,08004.9498,W,1,11,1.3,17,M,,M,,*68
06/24/2015	12:09:56.582	$GPGGA,120957,2509.1869,N,08004.9494,W,1,11,1.4,16,M,,M,,*6E
06/24/2015	12:09:57.572	$GPGGA,120958,2509.1891,N,08004.9490,W,1,11,1.3,16,M,,M,,*65
06/24/2015	12:09:58.586	$GPGGA,120959,2509.1913,N,08004.9483,W,1,11,1.3,16,M,,M,,*6D
06/24/2015	12:09:59.632	$GPGGA,121000,2509.1935,N,08004.9477,W,1,11,1.3,16,M,,M,,*66
06/24/2015	12:10:00.573	$GPGGA,121001,2509.1958,N,08004.9475,W,1,11,1.3,16,M,,M,,*6E
06/24/2015	12:10:01.595	$GPGGA,121002,2509.1980,N,08004.9472,W,1,11,1.3,16,M,,M,,*6F
06/24/2015	12:10:02.563	$GPGGA,121003,2509.2000,N,08004.9465,W,1,11,1.3,16,M,,M,,*6A
06/24/2015	12:10:03.593	$GPGGA,121004,2509.2021,N,08004.9460,W,1,10,1.4,16,M,,M,,*6D
06/24/2015	12:10:04.573	$GPGGA,121005,2509.2043,N,08004.9458,W,1,10,1.3,16,M,,M,,*64
06/24/2015	12:10:05.593	$GPGGA,121006,2509.2065,N,08004.9453,W,1,11,1.3,16,M,,M,,*69
06/24/2015	12:10:06.563	$GPGGA,121007,2509.2087,N,08004.9449,W,1,11,1.3,16,M,,M,,*6F
06/24/2015	12:10:07.593	$GPGGA,121008,2509.2108,N,08004.9447,W,1,10,1.4,16,M,,M,,*6E
06/24/2015	12:10:08.563	$GPGGA,121009,2509.2130,N,08004.9443,W,1,10,1.3,16,M,,M,,*67
06/24/2015	12:10:09.552	$GPGGA,121010,2509.2151,N,08004.9438,W,1,11,1.3,16,M,,M,,*65
06/24/2015	12:10:10.552	$GPGGA,121011,2509.2173,N,08004.9437,W,1,11,1.3,16,M,,M,,*6B
06/24/2015	12:10:11.562	$GPGGA,121012,2509.2195,N,08004.9433,W,1,10,1.4,16,M,,M,,*62
06/24/2015	12:10:12.532	$GPGGA,121013,2509.2217,N,08004.9428,W,1,10,1.3,16,M,,M,,*67
06/24/2015	12:10:13.532	$GPGGA,121014,2509.2240,N,08004.9426,W,1,11,1.3,16,M,,M,,*6D
06/24/2015	12:10:14.532	$GPGGA,121015,2509.2262,N,08004.9429,W,1,11,1.3,16,M,,M,,*63
06/24/2015	12:10:15.552	$GPGGA,121016,2509.2282,N,08004.9424,W,1,11,1.3,16,M,,M,,*63
06/24/2015	12:10:16.522	$GPGGA,121017,2509.2305,N,08004.9419,W,1,11,1.3,16,M,,M,,*62
06/24/2015	12:10:17.532	$GPGGA,121018,2509.2327,N,08004.9418,W,1,11,1.3,16,M,,M,,*6C
06/24/2015	12:10:18.532	$GPGGA,121019,2509.2349,N,08004.9419,W,1,11,1.3,16,M,,M,,*64
06/24/2015	12:10:19.574	$GPGGA,121020,2509.2371,N,08004.9418,W,1,10,1.5,16,M,,M,,*63
06/24/2015	12:10:20.642	$GPGGA,121021,2509.2393,N,08004.9416,W,1,10,1.3,16,M,,M,,*66
06/24/2015	12:10:21.642	$GPGGA,121022,2509.2414,N,08004.9416,W,1,11,1.3,16,M,,M,,*6C
06/24/2015	12:10:22.522	$GPGGA,121023,2509.2435,N,08004.9418,W,1,11,1.3,16,M,,M,,*60
06/24/2015	12:10:23.652	$GPGGA,121024,2509.2457,N,08004.9416,W,1,11,1.3,16,M,,M,,*6D
06/24/2015	12:10:24.522	$GPGGA,121025,2509.2479,N,08004.9415,W,1,11,1.3,17,M,,M,,*62
06/24/2015	12:10:25.642	$GPGGA,121026,2509.2500,N,08004.9414,W,1,10,1.4,17,M,,M,,*69
06/24/2015	12:10:26.521	$GPGGA,121027,2509.2522,N,08004.9415,W,1,10,1.3,17,M,,M,,*6E
06/24/2015	12:10:27.631	$GPGGA,121028,2509.2544,N,08004.9414,W,1,11,1.3,17,M,,M,,*61
06/24/2015	12:10:28.512	$GPGGA,121029,2509.2565,N,08004.9415,W,1,11,1.3,17,M,,M,,*62
06/24/2015	12:10:29.622	$GPGGA,121030,2509.2587,N,08004.9413,W,1,11,1.3,17,M,,M,,*60
06/24/2015	12:10:30.592	$GPGGA,121031,2509.2607,N,08004.9415,W,1,11,1.3,17,M,,M,,*6C
06/24/2015	12:10:31.522	$GPGGA,121032,2509.2630,N,08004.9416,W,1,11,1.3,17,M,,M,,*68
06/24/2015	12:10:32.591	$GPGGA,121033,2509.2652,N,08004.9416,W,1,11,1.3,17,M,,M,,*6D
06/24/2015	12:10:33.612	$GPGGA,121034,2509.2672,N,08004.9418,W,1,11,1.3,17,M,,M,,*66
06/24/2015	12:10:34.592	$GPGGA,121035,2509.2695,N,08004.9420,W,1,11,1.3,17,M,,M,,*65
06/24/2015	12:10:35.602	$GPGGA,121036,2509.2717,N,08004.9422,W,1,11,1.3,17,M,,M,,*6F
06/24/2015	12:10:36.586	$GPGGA,121037,2509.2737,N,08004.9425,W,1,11,1.3,17,M,,M,,*6B
06/24/2015	12:10:37.602	$GPGGA,121038,2509.2758,N,08004.9426,W,1,11,1.3,17,M,,M,,*6E
06/24/2015	12:10:38.502	$GPGGA,121039,2509.2780,N,08004.9429,W,1,11,1.3,17,M,,M,,*65
06/24/2015	12:10:39.597	$GPGGA,121040,2509.2802,N,08004.9431,W,1,9,1.5,17,M,,M,,*58
06/24/2015	12:10:40.575	$GPGGA,121041,2509.2823,N,08004.9434,W,1,9,1.4,17,M,,M,,*5E
06/24/2015	12:10:41.586	$GPGGA,121042,2509.2845,N,08004.9437,W,1,11,1.3,17,M,,M,,*60
06/24/2015	12:10:42.579	$GPGGA,121043,2509.2865,N,08004.9440,W,1,11,2.4,16,M,,M,,*66
06/24/2015	12:10:43.576	$GPGGA,121044,2509.2885,N,08004.9439,W,1,10,1.4,16,M,,M,,*63
06/24/2015	12:10:44.561	$GPGGA,121045,2509.2906,N,08004.9440,W,1,10,1.5,16,M,,M,,*67
06/24/2015	12:10:45.595	$GPGGA,121046,2509.2928,N,08004.9443,W,1,10,1.4,16,M,,M,,*6A
06/24/2015	12:10:46.562	$GPGGA,121047,2509.2949,N,08004.9444,W,1,10,1.3,16,M,,M,,*6C
06/24/2015	12:10:47.602	$GPGGA,121048,2509.2971,N,08004.9445,W,1,10,1.4,16,M,,M,,*6E
06/24/2015	12:10:48.575	$GPGGA,121049,2509.2993,N,08004.9447,W,1,10,1.3,17,M,,M,,*67
06/24/2015	12:10:49.552	$GPGGA,121050,2509.3014,N,08004.9451,W,1,11,1.3,17,M,,M,,*6E
06/24/2015	12:10:50.562	$GPGGA,121051,2509.3035,N,08004.9454,W,1,11,1.3,17,M,,M,,*69
06/24/2015	12:10:51.591	$GPGGA,121052,2509.3057,N,08004.9454,W,1,11,1.3,17,M,,M,,*6E
06/24/2015	12:10:52.552	$GPGGA,121053,2509.3079,N,08004.9455,W,1,11,1.4,17,M,,M,,*65
06/24/2015	12:10:53.542	$GPGGA,121054,2509.3100,N,08004.9459,W,1,11,1.3,17,M,,M,,*66
06/24/2015	12:10:54.562	$GPGGA,121055,2509.3120,N,08004.9462,W,1,11,1.4,17,M,,M,,*6A
06/24/2015	12:10:55.578	$GPGGA,121056,2509.3144,N,08004.9462,W,1,10,1.4,17,M,,M,,*6A
06/24/2015	12:10:56.542	$GPGGA,121057,2509.3166,N,08004.9463,W,1,10,1.3,17,M,,M,,*6D
06/24/2015	12:10:57.542	$GPGGA,121058,2509.3188,N,08004.9466,W,1,11,1.3,17,M,,M,,*66
06/24/2015	12:10:58.532	$GPGGA,121059,2509.3210,N,08004.9469,W,1,11,1.3,17,M,,M,,*6A
06/24/2015	12:10:59.592	$GPGGA,121100,2509.3231,N,08004.9472,W,1,11,1.3,17,M,,M,,*6E
06/24/2015	12:11:00.532	$GPGGA,121101,2509.3253,N,08004.9473,W,1,11,1.3,17,M,,M,,*6A
06/24/2015	12:11:01.541	$GPGGA,121102,2509.3275,N,08004.9476,W,1,11,1.3,17,M,,M,,*68
06/24/2015	12:11:02.541	$GPGGA,121103,2509.3297,N,08004.9478,W,1,11,1.3,17,M,,M,,*6B
06/24/2015	12:11:04.687	$GPGGA,121105,2509.3343,N,08004.9483,W,1,11,1.3,17,M,,M,,*61
06/24/2015	12:11:05.642	$GPGGA,121106,2509.3365,N,08004.9484,W,1,11,1.3,17,M,,M,,*61
06/24/2015	12:11:06.642	$GPGGA,121107,2509.3387,N,08004.9487,W,1,11,1.3,17,M,,M,,*6F
06/24/2015	12:11:07.622	$GPGGA,121108,2509.3409,N,08004.9488,W,1,11,1.3,17,M,,M,,*6E
06/24/2015	12:11:08.512	$GPGGA,121109,2509.3430,N,08004.9491,W,1,11,1.3,17,M,,M,,*6D
06/24/2015	12:11:09.522	$GPGGA,121110,2509.3452,N,08004.9494,W,1,11,1.3,17,M,,M,,*64
06/24/2015	12:11:10.532	$GPGGA,121111,2509.3474,N,08004.9496,W,1,11,1.3,17,M,,M,,*63
06/24/2015	12:11:11.652	$GPGGA,121112,2509.3498,N,08004.9498,W,1,11,1.3,17,M,,M,,*6C
06/24/2015	12:11:12.612	$GPGGA,121113,2509.3520,N,08004.9501,W,1,11,1.3,17,M,,M,,*6E
06/24/2015	12:11:13.642	$GPGGA,121114,2509.3541,N,08004.9505,W,1,11,1.3,17,M,,M,,*6A
06/24/2015	12:11:14.602	$GPGGA,121115,2509.3563,N,08004.9505,W,1,11,1.3,17,M,,M,,*6B
06/24/2015	12:11:15.612	$GPGGA,121116,2509.3584,N,08004.9510,W,1,10,1.4,16,M,,M,,*62
06/24/2015	12:11:16.512	$GPGGA,121117,2509.3604,N,08004.9512,W,1,10,1.3,16,M,,M,,*6D
06/24/2015	12:11:17.642	$GPGGA,121118,2509.3628,N,08004.9513,W,1,11,1.3,16,M,,M,,*6C
06/24/2015	12:11:18.502	$GPGGA,121119,2509.3647,N,08004.9516,W,1,11,1.4,16,M,,M,,*66
06/24/2015	12:11:19.601	$GPGGA,121120,2509.3668,N,08004.9520,W,1,11,1.3,16,M,,M,,*63
06/24/2015	12:11:20.592	$GPGGA,121121,2509.3690,N,08004.9520,W,1,11,1.3,16,M,,M,,*65
06/24/2015	12:11:21.592	$GPGGA,121122,2509.3711,N,08004.9523,W,1,11,1.3,16,M,,M,,*6D
06/24/2015	12:11:22.592	$GPGGA,121123,2509.3730,N,08004.9530,W,1,11,1.4,16,M,,M,,*6A
06/24/2015	12:11:23.602	$GPGGA,121124,2509.3752,N,08004.9532,W,1,11,1.3,16,M,,M,,*6C
06/24/2015	12:11:24.585	$GPGGA,121125,2509.3773,N,08004.9534,W,1,11,1.3,16,M,,M,,*68
06/24/2015	12:11:25.584	$GPGGA,121126,2509.3794,N,08004.9541,W,1,11,1.3,16,M,,M,,*60
06/24/2015	12:11:26.863	$GPGGA,121127,2509.3813,N,08004.9545,W,1,11,1.3,16,M,,M,,*65
06/24/2015	12:11:27.612	$GPGGA,121128,2509.3835,N,08004.9548,W,1,11,1.3,16,M,,M,,*63
06/24/2015	12:11:28.593	$GPGGA,121129,2509.3855,N,08004.9552,W,1,11,1.3,16,M,,M,,*6F
06/24/2015	12:11:29.573	$GPGGA,121130,2509.3875,N,08004.9557,W,1,11,1.3,16,M,,M,,*60
06/24/2015	12:11:30.578	$GPGGA,121131,2509.3896,N,08004.9563,W,1,11,1.3,16,M,,M,,*6B
06/24/2015	12:11:31.602	$GPGGA,121132,2509.3917,N,08004.9568,W,1,11,1.3,16,M,,M,,*6B
06/24/2015	12:11:32.572	$GPGGA,121133,2509.3938,N,08004.9574,W,1,11,1.3,16,M,,M,,*6A
06/24/2015	12:11:33.562	$GPGGA,121134,2509.3958,N,08004.9578,W,1,11,1.3,16,M,,M,,*67
06/24/2015	12:11:34.562	$GPGGA,121135,2509.3978,N,08004.9585,W,1,11,1.3,16,M,,M,,*66
06/24/2015	12:11:35.602	$GPGGA,121136,2509.3997,N,08004.9590,W,1,11,1.3,16,M,,M,,*60
06/24/2015	12:11:36.561	$GPGGA,121137,2509.4016,N,08004.9595,W,1,11,1.3,16,M,,M,,*63
06/24/2015	12:11:37.561	$GPGGA,121138,2509.4037,N,08004.9602,W,1,11,1.3,16,M,,M,,*62
06/24/2015	12:11:38.562	$GPGGA,121139,2509.4057,N,08004.9607,W,1,11,1.3,16,M,,M,,*60
06/24/2015	12:11:39.584	$GPGGA,121140,2509.4076,N,08004.9615,W,1,11,1.3,16,M,,M,,*6E
06/24/2015	12:11:40.562	$GPGGA,121141,2509.4095,N,08004.9621,W,1,11,1.3,16,M,,M,,*65
06/24/2015	12:11:41.552	$GPGGA,121142,2509.4113,N,08004.9626,W,1,11,1.3,16,M,,M,,*6E
06/24/2015	12:11:42.542	$GPGGA,121143,2509.4131,N,08004.9633,W,1,11,1.3,16,M,,M,,*6B
06/24/2015	12:11:43.584	$GPGGA,121144,2509.4151,N,08004.9640,W,1,11,1.3,16,M,,M,,*6E
06/24/2015	12:11:44.542	$GPGGA,121145,2509.4170,N,08004.9647,W,1,11,1.3,16,M,,M,,*6B
