Software Version Number: 1	Data File Format Number: 1	Build Version Number: 1	Error Count Since VI Started: 3	Manufacturer: Raytheon	 Model Number: RayMarine 120	 S/N: 	 Cal Date: 	 Wind Direction Offset: 0.00	 Slope (M)1: 0.00	 Offset (B)1: 0.00	 Slope (M)2: 0.00	 Offset (B)2: 0.00	 Slope (M)3: 0.00	 Offset (B)3: 0.00	 Slope (M)4: 0.00	 Offset (B)4: 0.00	 Slope (M)5: 0.00	 Offset (B)5: 0.00	 Slope (M)6: 0.00	 Offset (B)6: 0.00
Computer Date	Computer Time	GGA String
06/24/2015	22:00:00.532	$GPGGA,220001,2540.4370,N,08003.0232,W,1,9,1.5,11,M,,M,,*57
06/24/2015	22:00:01.559	$GPGGA,220002,2540.4380,N,08003.0232,W,1,9,1.5,11,M,,M,,*5B
06/24/2015	22:00:02.543	$GPGGA,220003,2540.4390,N,08003.0235,W,1,9,1.5,11,M,,M,,*5C
06/24/2015	22:00:03.543	$GPGGA,220004,2540.4399,N,08003.0236,W,1,9,1.5,11,M,,M,,*51
06/24/2015	22:00:04.532	$GPGGA,220005,2540.4409,N,08003.0238,W,1,9,1.5,11,M,,M,,*50
06/24/2015	22:00:05.522	$GPGGA,220006,2540.4419,N,08003.0237,W,1,9,1.5,11,M,,M,,*5D
06/24/2015	22:00:06.522	$GPGGA,220007,2540.4428,N,08003.0239,W,1,9,1.5,11,M,,M,,*50
06/24/2015	22:00:07.512	$GPGGA,220008,2540.4438,N,08003.0242,W,1,9,1.5,11,M,,M,,*52
06/24/2015	22:00:08.512	$GPGGA,220009,2540.4448,N,08003.0242,W,1,9,1.5,11,M,,M,,*54
06/24/2015	22:00:09.622	$GPGGA,220010,2540.4458,N,08003.0242,W,1,9,1.5,11,M,,M,,*5D
06/24/2015	22:00:10.512	$GPGGA,220011,2540.4467,N,08003.0245,W,1,9,1.5,11,M,,M,,*57
06/24/2015	22:00:11.544	$GPGGA,220012,2540.4477,N,08003.0247,W,1,9,1.5,11,M,,M,,*57
06/24/2015	22:00:12.501	$GPGGA,220013,2540.4487,N,08003.0246,W,1,9,1.5,11,M,,M,,*58
06/24/2015	22:00:13.521	$GPGGA,220014,2540.4496,N,08003.0246,W,1,9,1.5,11,M,,M,,*5F
06/24/2015	22:00:14.591	$GPGGA,220015,2540.4506,N,08003.0250,W,1,9,1.5,11,M,,M,,*51
06/24/2015	22:00:15.523	$GPGGA,220016,2540.4516,N,08003.0253,W,1,9,1.5,11,M,,M,,*50
06/24/2015	22:00:16.592	$GPGGA,220017,2540.4525,N,08003.0251,W,1,9,1.5,11,M,,M,,*53
06/24/2015	22:00:17.582	$GPGGA,220018,2540.4535,N,08003.0253,W,1,9,1.5,11,M,,M,,*5F
06/24/2015	22:00:18.502	$GPGGA,220019,2540.4545,N,08003.0257,W,1,9,1.5,11,M,,M,,*5D
06/24/2015	22:00:19.512	$GPGGA,220020,2540.4554,N,08003.0257,W,1,9,1.5,11,M,,M,,*57
06/24/2015	22:00:21.624	$GPGGA,220022,2540.4574,N,08003.0260,W,1,9,1.5,11,M,,M,,*53
06/24/2015	22:00:22.582	$GPGGA,220023,2540.4583,N,08003.0261,W,1,9,1.5,11,M,,M,,*5B
06/24/2015	22:00:23.602	$GPGGA,220024,2540.4594,N,08003.0261,W,1,9,1.5,11,M,,M,,*5A
06/24/2015	22:00:24.572	$GPGGA,220025,2540.4603,N,08003.0262,W,1,9,1.5,11,M,,M,,*55
06/24/2015	22:00:25.582	$GPGGA,220026,2540.4612,N,08003.0264,W,1,9,1.5,11,M,,M,,*50
06/24/2015	22:00:26.572	$GPGGA,220027,2540.4622,N,08003.0265,W,1,9,1.5,11,M,,M,,*53
06/24/2015	22:00:27.612	$GPGGA,220028,2540.4632,N,08003.0267,W,1,9,1.5,11,M,,M,,*5F
06/24/2015	22:00:28.572	$GPGGA,220029,2540.4641,N,08003.0268,W,1,9,1.5,11,M,,M,,*55
06/24/2015	22:00:29.571	$GPGGA,220030,2540.4651,N,08003.0269,W,1,9,1.5,11,M,,M,,*5D
06/24/2015	22:00:30.571	$GPGGA,220031,2540.4661,N,08003.0271,W,1,9,1.5,11,M,,M,,*56
06/24/2015	22:00:31.591	$GPGGA,220032,2540.4670,N,08003.0274,W,1,9,1.5,11,M,,M,,*50
06/24/2015	22:00:32.572	$GPGGA,220033,2540.4680,N,08003.0273,W,1,9,1.5,11,M,,M,,*59
06/24/2015	22:00:33.553	$GPGGA,220034,2540.4690,N,08003.0275,W,1,9,1.5,11,M,,M,,*59
06/24/2015	22:00:34.582	$GPGGA,220035,2540.4699,N,08003.0276,W,1,9,1.5,11,M,,M,,*52
06/24/2015	22:00:35.592	$GPGGA,220036,2540.4709,N,08003.0278,W,1,9,1.5,11,M,,M,,*57
06/24/2015	22:00:36.556	$GPGGA,220037,2540.4719,N,08003.0278,W,1,9,1.5,11,M,,M,,*57
06/24/2015	22:00:37.547	$GPGGA,220038,2540.4727,N,08003.0279,W,1,9,1.5,11,M,,M,,*54
06/24/2015	22:00:38.562	$GPGGA,220039,2540.4738,N,08003.0282,W,1,9,1.5,11,M,,M,,*5F
06/24/2015	22:00:39.552	$GPGGA,220040,2540.4748,N,08003.0282,W,1,9,1.5,11,M,,M,,*56
06/24/2015	22:00:40.542	$GPGGA,220041,2540.4756,N,08003.0283,W,1,9,1.5,11,M,,M,,*59
06/24/2015	22:00:41.572	$GPGGA,220042,2540.4767,N,08003.0285,W,1,9,1.5,11,M,,M,,*5E
06/24/2015	22:00:42.547	$GPGGA,220043,2540.4777,N,08003.0287,W,1,9,1.5,11,M,,M,,*5C
06/24/2015	22:00:43.555	$GPGGA,220044,2540.4785,N,08003.0287,W,1,9,1.5,11,M,,M,,*56
06/24/2015	22:00:44.547	$GPGGA,220045,2540.4796,N,08003.0289,W,1,9,1.5,11,M,,M,,*5B
06/24/2015	22:00:45.562	$GPGGA,220046,2540.4806,N,08003.0290,W,1,9,1.5,11,M,,M,,*56
06/24/2015	22:00:46.532	$GPGGA,220047,2540.4816,N,08003.0292,W,1,9,1.5,11,M,,M,,*54
06/24/2015	22:00:47.542	$GPGGA,220048,2540.4825,N,08003.0291,W,1,9,1.5,11,M,,M,,*58
06/24/2015	22:00:48.531	$GPGGA,220049,2540.4835,N,08003.0293,W,1,9,1.5,11,M,,M,,*5A
06/24/2015	22:00:49.522	$GPGGA,220050,2540.4843,N,08003.0296,W,1,9,1.5,11,M,,M,,*56
06/24/2015	22:00:50.544	$GPGGA,220051,2540.4854,N,08003.0295,W,1,9,1.5,11,M,,M,,*52
06/24/2015	22:00:51.562	$GPGGA,220052,2540.4864,N,08003.0297,W,1,9,1.5,11,M,,M,,*50
06/24/2015	22:00:52.512	$GPGGA,220053,2540.4872,N,08003.0298,W,1,9,1.5,11,M,,M,,*59
06/24/2015	22:00:53.543	$GPGGA,220054,2540.4883,N,08003.0298,W,1,9,1.5,11,M,,M,,*50
06/24/2015	22:00:54.532	$GPGGA,220055,2540.4892,N,08003.0300,W,1,9,1.5,11,M,,M,,*51
06/24/2015	22:00:55.546	$GPGGA,220056,2540.4901,N,08003.0303,W,1,9,1.5,11,M,,M,,*5A
06/24/2015	22:00:56.512	$GPGGA,220057,2540.4911,N,08003.0302,W,1,9,1.5,11,M,,M,,*5B
06/24/2015	22:00:57.512	$GPGGA,220058,2540.4921,N,08003.0303,W,1,9,1.5,11,M,,M,,*56
06/24/2015	22:00:58.502	$GPGGA,220059,2540.4930,N,08003.0307,W,1,9,1.5,11,M,,M,,*53
06/24/2015	22:00:59.512	$GPGGA,220100,2540.4940,N,08003.0306,W,1,9,1.5,11,M,,M,,*58
06/24/2015	22:01:00.492	$GPGGA,220101,2540.4948,N,08003.0307,W,1,9,1.5,11,M,,M,,*50
06/24/2015	22:01:01.492	$GPGGA,220102,2540.4958,N,08003.0309,W,1,9,1.5,11,M,,M,,*5C
06/24/2015	22:01:02.592	$GPGGA,220103,2540.4968,N,08003.0311,W,1,9,1.5,11,M,,M,,*57
06/24/2015	22:01:03.602	$GPGGA,220104,2540.4977,N,08003.0311,W,1,9,1.5,11,M,,M,,*5E
06/24/2015	22:01:04.491	$GPGGA,220105,2540.4987,N,08003.0314,W,1,9,1.5,11,M,,M,,*55
06/24/2015	22:01:05.481	$GPGGA,220106,2540.4997,N,08003.0314,W,1,9,1.5,11,M,,M,,*57
06/24/2015	22:01:06.581	$GPGGA,220107,2540.5006,N,08003.0316,W,1,9,1.5,11,M,,M,,*54
06/24/2015	22:01:07.671	$GPGGA,220108,2540.5016,N,08003.0318,W,1,9,1.5,11,M,,M,,*54
06/24/2015	22:01:08.652	$GPGGA,220109,2540.5026,N,08003.0319,W,1,9,1.5,11,M,,M,,*57
06/24/2015	22:01:09.582	$GPGGA,220110,2540.5036,N,08003.0321,W,1,9,1.5,11,M,,M,,*55
06/24/2015	22:01:10.572	$GPGGA,220111,2540.5045,N,08003.0322,W,1,9,1.5,11,M,,M,,*53
06/24/2015	22:01:11.643	$GPGGA,220112,2540.5055,N,08003.0323,W,1,9,1.5,11,M,,M,,*50
06/24/2015	22:01:12.572	$GPGGA,220113,2540.5065,N,08003.0325,W,1,9,1.5,11,M,,M,,*54
06/24/2015	22:01:13.612	$GPGGA,220114,2540.5074,N,08003.0325,W,1,9,1.5,11,M,,M,,*53
06/24/2015	22:01:14.643	$GPGGA,220115,2540.5084,N,08003.0327,W,1,9,1.5,11,M,,M,,*5F
06/24/2015	22:01:15.655	$GPGGA,220116,2540.5092,N,08003.0329,W,1,9,1.5,11,M,,M,,*55
06/24/2015	22:01:16.562	$GPGGA,220117,2540.5103,N,08003.0330,W,1,9,1.5,11,M,,M,,*55
06/24/2015	22:01:17.612	$GPGGA,220118,2540.5112,N,08003.0332,W,1,9,1.5,11,M,,M,,*58
06/24/2015	22:01:18.632	$GPGGA,220119,2540.5121,N,08003.0332,W,1,9,1.5,11,M,,M,,*59
06/24/2015	22:01:19.612	$GPGGA,220120,2540.5132,N,08003.0334,W,1,9,1.5,11,M,,M,,*57
06/24/2015	22:01:20.655	$GPGGA,220121,2540.5141,N,08003.0336,W,1,9,1.5,11,M,,M,,*50
06/24/2015	22:01:21.555	$GPGGA,220122,2540.5150,N,08003.0336,W,1,9,1.5,11,M,,M,,*53
06/24/2015	22:01:22.621	$GPGGA,220123,2540.5161,N,08003.0339,W,1,9,1.5,11,M,,M,,*5F
06/24/2015	22:01:23.611	$GPGGA,220124,2540.5170,N,08003.0340,W,1,9,1.5,11,M,,M,,*56
06/24/2015	22:01:24.621	$GPGGA,220125,2540.5179,N,08003.0341,W,1,9,1.5,11,M,,M,,*5F
06/24/2015	22:01:25.592	$GPGGA,220126,2540.5190,N,08003.0343,W,1,9,1.5,11,M,,M,,*59
06/24/2015	22:01:26.602	$GPGGA,220127,2540.5199,N,08003.0345,W,1,9,1.5,11,M,,M,,*57
06/24/2015	22:01:27.612	$GPGGA,220128,2540.5208,N,08003.0345,W,1,9,1.5,11,M,,M,,*53
06/24/2015	22:01:28.602	$GPGGA,220129,2540.5218,N,08003.0347,W,1,9,1.5,11,M,,M,,*51
06/24/2015	22:01:29.592	$GPGGA,220130,2540.5228,N,08003.0350,W,1,9,1.5,11,M,,M,,*5C
06/24/2015	22:01:30.532	$GPGGA,220131,2540.5237,N,08003.0352,W,1,9,1.5,11,M,,M,,*51
06/24/2015	22:01:31.632	$GPGGA,220132,2540.5247,N,08003.0352,W,1,9,1.5,11,M,,M,,*55
06/24/2015	22:01:32.592	$GPGGA,220133,2540.5257,N,08003.0354,W,1,9,1.5,11,M,,M,,*53
06/24/2015	22:01:33.572	$GPGGA,220134,2540.5266,N,08003.0358,W,1,9,1.5,11,M,,M,,*5A
06/24/2015	22:01:34.582	$GPGGA,220135,2540.5275,N,08003.0358,W,1,9,1.5,11,M,,M,,*59
06/24/2015	22:01:35.592	$GPGGA,220136,2540.5284,N,08003.0359,W,1,9,1.5,11,M,,M,,*55
06/24/2015	22:01:36.582	$GPGGA,220137,2540.5294,N,08003.0362,W,1,9,1.5,11,M,,M,,*5D
06/24/2015	22:01:37.558	$GPGGA,220138,2540.5305,N,08003.0365,W,1,8,1.5,11,M,,M,,*5D
06/24/2015	22:01:38.572	$GPGGA,220139,2540.5313,N,08003.0364,W,1,8,1.5,11,M,,M,,*5A
06/24/2015	22:01:39.621	$GPGGA,220140,2540.5323,N,08003.0366,W,1,9,1.5,11,M,,M,,*54
06/24/2015	22:01:40.562	$GPGGA,220141,2540.5334,N,08003.0368,W,1,9,1.5,12,M,,M,,*5E
06/24/2015	22:01:41.621	$GPGGA,220142,2540.5342,N,08003.0369,W,1,9,1.8,12,M,,M,,*50
06/24/2015	22:01:42.511	$GPGGA,220143,2540.5354,N,08003.0370,W,1,9,1.8,12,M,,M,,*5E
06/24/2015	22:01:43.602	$GPGGA,220144,2540.5367,N,08003.0372,W,1,8,1.7,12,M,,M,,*55
06/24/2015	22:01:44.562	$GPGGA,220145,2540.5377,N,08003.0376,W,1,8,1.5,12,M,,M,,*53
06/24/2015	22:01:45.612	$GPGGA,220146,2540.5387,N,08003.0379,W,1,9,1.5,12,M,,M,,*51
06/24/2015	22:01:46.572	$GPGGA,220147,2540.5398,N,08003.0379,W,1,9,1.5,12,M,,M,,*5E
06/24/2015	22:01:47.562	$GPGGA,220148,2540.5407,N,08003.0381,W,1,9,1.5,12,M,,M,,*57
06/24/2015	22:01:48.612	$GPGGA,220149,2540.5417,N,08003.0383,W,1,9,1.5,12,M,,M,,*55
06/24/2015	22:01:49.532	$GPGGA,220150,2540.5428,N,08003.0384,W,1,9,1.7,12,M,,M,,*54
06/24/2015	22:01:50.612	$GPGGA,220151,2540.5439,N,08003.0384,W,1,9,1.5,12,M,,M,,*57
06/24/2015	22:01:51.602	$GPGGA,220152,2540.5448,N,08003.0386,W,1,9,1.8,12,M,,M,,*5D
06/24/2015	22:01:52.556	$GPGGA,220153,2540.5457,N,08003.0387,W,1,9,1.7,12,M,,M,,*5C
06/24/2015	22:01:53.582	$GPGGA,220154,2540.5468,N,08003.0388,W,1,8,1.7,12,M,,M,,*59
06/24/2015	22:01:54.558	$GPGGA,220155,2540.5477,N,08003.0390,W,1,8,1.5,12,M,,M,,*5D
06/24/2015	22:01:55.602	$GPGGA,220156,2540.5486,N,08003.0392,W,1,9,1.5,12,M,,M,,*53
06/24/2015	22:01:56.558	$GPGGA,220157,2540.5495,N,08003.0394,W,1,9,1.7,12,M,,M,,*54
06/24/2015	22:01:57.591	$GPGGA,220158,2540.5504,N,08003.0393,W,1,8,1.7,12,M,,M,,*54
06/24/2015	22:01:58.581	$GPGGA,220159,2540.5514,N,08003.0394,W,1,8,1.5,12,M,,M,,*51
06/24/2015	22:01:59.631	$GPGGA,220200,2540.5524,N,08003.0397,W,1,9,1.7,12,M,,M,,*5D
06/24/2015	22:02:00.582	$GPGGA,220201,2540.5533,N,08003.0398,W,1,9,1.5,12,M,,M,,*57
06/24/2015	22:02:01.592	$GPGGA,220202,2540.5533,N,08003.0398,W,1,9,1.5,12,M,,M,,*54
06/24/2015	22:02:02.562	$GPGGA,220203,2540.5551,N,08003.0401,W,1,9,1.5,12,M,,M,,*56
06/24/2015	22:02:03.602	$GPGGA,220204,2540.5561,N,08003.0402,W,1,9,1.5,12,M,,M,,*51
06/24/2015	22:02:04.572	$GPGGA,220205,2540.5569,N,08003.0402,W,1,9,1.5,12,M,,M,,*58
06/24/2015	22:02:05.582	$GPGGA,220206,2540.5580,N,08003.0404,W,1,9,1.5,12,M,,M,,*5A
06/24/2015	22:02:06.592	$GPGGA,220207,2540.5589,N,08003.0405,W,1,9,1.6,12,M,,M,,*50
06/24/2015	22:02:07.592	$GPGGA,220208,2540.5598,N,08003.0405,W,1,8,1.6,12,M,,M,,*5E
06/24/2015	22:02:08.592	$GPGGA,220209,2540.5607,N,08003.0406,W,1,8,1.5,12,M,,M,,*5A
06/24/2015	22:02:09.572	$GPGGA,220210,2540.5615,N,08003.0408,W,1,9,1.5,12,M,,M,,*5E
06/24/2015	22:02:10.562	$GPGGA,220211,2540.5623,N,08003.0408,W,1,9,1.6,12,M,,M,,*59
06/24/2015	22:02:11.592	$GPGGA,220212,2540.5634,N,08003.0410,W,1,8,1.6,12,M,,M,,*54
06/24/2015	22:02:12.556	$GPGGA,220213,2540.5634,N,08003.0410,W,1,8,1.6,12,M,,M,,*55
06/24/2015	22:02:13.572	$GPGGA,220214,2540.5652,N,08003.0413,W,1,9,1.5,12,M,,M,,*53
06/24/2015	22:02:14.581	$GPGGA,220215,2540.5662,N,08003.0415,W,1,9,1.5,12,M,,M,,*57
06/24/2015	22:02:15.591	$GPGGA,220216,2540.5672,N,08003.0415,W,1,9,1.5,12,M,,M,,*55
06/24/2015	22:02:16.561	$GPGGA,220217,2540.5681,N,08003.0417,W,1,9,1.5,12,M,,M,,*5A
06/24/2015	22:02:17.561	$GPGGA,220218,2540.5691,N,08003.0417,W,1,9,1.5,12,M,,M,,*54
06/24/2015	22:02:18.543	$GPGGA,220219,2540.5691,N,08003.0417,W,1,9,1.5,12,M,,M,,*55
06/24/2015	22:02:19.582	$GPGGA,220220,2540.5710,N,08003.0421,W,1,9,1.5,12,M,,M,,*52
06/24/2015	22:02:20.557	$GPGGA,220221,2540.5721,N,08003.0423,W,1,9,1.5,12,M,,M,,*53
06/24/2015	22:02:21.562	$GPGGA,220222,2540.5730,N,08003.0423,W,1,9,1.5,12,M,,M,,*50
06/24/2015	22:02:22.562	$GPGGA,220223,2540.5739,N,08003.0426,W,1,9,1.5,12,M,,M,,*5D
06/24/2015	22:02:23.572	$GPGGA,220224,2540.5749,N,08003.0426,W,1,9,1.5,12,M,,M,,*5D
06/24/2015	22:02:24.522	$GPGGA,220225,2540.5749,N,08003.0426,W,1,9,1.5,12,M,,M,,*5C
06/24/2015	22:02:25.564	$GPGGA,220226,2540.5768,N,08003.0428,W,1,9,1.5,12,M,,M,,*52
06/24/2015	22:02:26.558	$GPGGA,220227,2540.5778,N,08003.0430,W,1,9,1.5,12,M,,M,,*5B
06/24/2015	22:02:27.656	$GPGGA,220228,2540.5786,N,08003.0431,W,1,9,1.5,12,M,,M,,*54
06/24/2015	22:02:28.543	$GPGGA,220229,2540.5797,N,08003.0434,W,1,9,1.5,12,M,,M,,*50
06/24/2015	22:02:29.522	$GPGGA,220230,2540.5807,N,08003.0434,W,1,9,1.5,12,M,,M,,*5E
06/24/2015	22:02:30.559	$GPGGA,220231,2540.5815,N,08003.0435,W,1,9,1.5,12,M,,M,,*5D
06/24/2015	22:02:31.562	$GPGGA,220232,2540.5826,N,08003.0437,W,1,9,1.6,12,M,,M,,*5F
06/24/2015	22:02:32.531	$GPGGA,220233,2540.5826,N,08003.0437,W,1,9,1.6,12,M,,M,,*5E
06/24/2015	22:02:33.621	$GPGGA,220234,2540.5844,N,08003.0439,W,1,9,1.5,12,M,,M,,*50
06/24/2015	22:02:34.521	$GPGGA,220235,2540.5844,N,08003.0439,W,1,9,1.5,12,M,,M,,*51
06/24/2015	22:02:35.563	$GPGGA,220236,2540.5865,N,08003.0444,W,1,9,1.5,12,M,,M,,*5B
06/24/2015	22:02:36.602	$GPGGA,220237,2540.5875,N,08003.0443,W,1,9,1.5,12,M,,M,,*5C
06/24/2015	22:02:37.512	$GPGGA,220238,2540.5875,N,08003.0443,W,1,9,1.5,12,M,,M,,*53
06/24/2015	22:02:38.592	$GPGGA,220239,2540.5894,N,08003.0448,W,1,9,1.5,12,M,,M,,*56
06/24/2015	22:02:39.512	$GPGGA,220240,2540.5904,N,08003.0448,W,1,9,1.5,12,M,,M,,*50
06/24/2015	22:02:40.532	$GPGGA,220241,2540.5904,N,08003.0448,W,1,9,1.5,12,M,,M,,*51
06/24/2015	22:02:41.582	$GPGGA,220242,2540.5923,N,08003.0452,W,1,9,1.5,12,M,,M,,*5C
06/24/2015	22:02:42.592	$GPGGA,220243,2540.5933,N,08003.0452,W,1,9,1.5,12,M,,M,,*5C
06/24/2015	22:02:43.602	$GPGGA,220244,2540.5941,N,08003.0453,W,1,9,1.5,12,M,,M,,*5F
06/24/2015	22:02:44.560	$GPGGA,220245,2540.5952,N,08003.0455,W,1,9,1.6,12,M,,M,,*59
06/24/2015	22:02:45.572	$GPGGA,220246,2540.5962,N,08003.0456,W,1,8,1.6,12,M,,M,,*5B
06/24/2015	22:02:46.572	$GPGGA,220247,2540.5972,N,08003.0457,W,1,8,1.5,12,M,,M,,*59
06/24/2015	22:02:47.622	$GPGGA,220248,2540.5981,N,08003.0459,W,1,9,1.5,12,M,,M,,*55
06/24/2015	22:02:48.572	$GPGGA,220249,2540.5991,N,08003.0460,W,1,9,1.5,12,M,,M,,*5F
06/24/2015	22:02:49.601	$GPGGA,220250,2540.6001,N,08003.0462,W,1,9,1.5,12,M,,M,,*56
06/24/2015	22:02:50.571	$GPGGA,220251,2540.6010,N,08003.0462,W,1,9,1.5,12,M,,M,,*57
06/24/2015	22:02:51.601	$GPGGA,220252,2540.6020,N,08003.0463,W,1,9,1.5,12,M,,M,,*56
06/24/2015	22:02:52.555	$GPGGA,220253,2540.6028,N,08003.0464,W,1,9,1.6,12,M,,M,,*5B
06/24/2015	22:02:53.582	$GPGGA,220254,2540.6039,N,08003.0466,W,1,8,1.6,12,M,,M,,*5F
06/24/2015	22:02:54.562	$GPGGA,220255,2540.6049,N,08003.0467,W,1,8,1.5,12,M,,M,,*5B
06/24/2015	22:02:55.612	$GPGGA,220256,2540.6059,N,08003.0469,W,1,8,1.6,12,M,,M,,*54
06/24/2015	22:02:56.562	$GPGGA,220257,2540.6068,N,08003.0470,W,1,8,1.6,12,M,,M,,*5F
06/24/2015	22:02:57.553	$GPGGA,220258,2540.6078,N,08003.0471,W,1,8,1.6,12,M,,M,,*50
06/24/2015	22:02:58.562	$GPGGA,220259,2540.6088,N,08003.0473,W,1,8,1.5,12,M,,M,,*5F
06/24/2015	22:02:59.582	$GPGGA,220300,2540.6096,N,08003.0474,W,1,8,1.6,12,M,,M,,*59
06/24/2015	22:03:00.554	$GPGGA,220301,2540.6107,N,08003.0477,W,1,8,1.6,12,M,,M,,*52
06/24/2015	22:03:01.562	$GPGGA,220302,2540.6118,N,08003.0477,W,1,8,1.6,12,M,,M,,*5F
06/24/2015	22:03:03.612	$GPGGA,220304,2540.6136,N,08003.0480,W,1,9,1.5,12,M,,M,,*5F
06/24/2015	22:03:04.532	$GPGGA,220305,2540.6147,N,08003.0481,W,1,9,1.5,12,M,,M,,*59
06/24/2015	22:03:05.532	$GPGGA,220306,2540.6157,N,08003.0482,W,1,8,1.6,12,M,,M,,*5A
06/24/2015	22:03:06.532	$GPGGA,220307,2540.6167,N,08003.0484,W,1,8,1.5,12,M,,M,,*5D
06/24/2015	22:03:07.561	$GPGGA,220308,2540.6176,N,08003.0484,W,1,9,1.5,12,M,,M,,*53
06/24/2015	22:03:08.542	$GPGGA,220309,2540.6186,N,08003.0486,W,1,9,1.5,12,M,,M,,*5F
06/24/2015	22:03:09.521	$GPGGA,220310,2540.6194,N,08003.0488,W,1,9,1.5,12,M,,M,,*5A
06/24/2015	22:03:10.943	$GPGGA,220311,2540.6205,N,08003.0488,W,1,9,1.6,12,M,,M,,*53
06/24/2015	22:03:11.534	$GPGGA,220312,2540.6214,N,08003.0489,W,1,8,1.6,12,M,,M,,*50
06/24/2015	22:03:12.631	$GPGGA,220313,2540.6221,N,08003.0491,W,1,8,1.6,12,M,,M,,*5E
06/24/2015	22:03:13.530	$GPGGA,220314,2540.6232,N,08003.0491,W,1,9,1.5,12,M,,M,,*59
06/24/2015	22:03:14.510	$GPGGA,220315,2540.6241,N,08003.0492,W,1,9,1.5,12,M,,M,,*5F
06/24/2015	22:03:15.541	$GPGGA,220316,2540.6250,N,08003.0493,W,1,8,1.6,12,M,,M,,*5F
06/24/2015	22:03:16.500	$GPGGA,220317,2540.6259,N,08003.0495,W,1,8,1.5,12,M,,M,,*52
06/24/2015	22:03:17.510	$GPGGA,220318,2540.6269,N,08003.0496,W,1,9,1.5,12,M,,M,,*5C
06/24/2015	22:03:18.510	$GPGGA,220319,2540.6279,N,08003.0496,W,1,9,1.6,12,M,,M,,*5F
06/24/2015	22:03:19.531	$GPGGA,220320,2540.6288,N,08003.0496,W,1,7,1.8,11,M,,M,,*58
06/24/2015	22:03:20.490	$GPGGA,220321,2540.6295,N,08003.0496,W,1,7,1.8,12,M,,M,,*56
06/24/2015	22:03:21.490	$GPGGA,220322,2540.6303,N,08003.0496,W,1,8,1.6,12,M,,M,,*5A
06/24/2015	22:03:22.600	$GPGGA,220323,2540.6313,N,08003.0498,W,1,8,1.5,12,M,,M,,*57
06/24/2015	22:03:23.520	$GPGGA,220324,2540.6321,N,08003.0499,W,1,8,1.6,12,M,,M,,*53
06/24/2015	22:03:24.489	$GPGGA,220325,2540.6331,N,08003.0498,W,1,8,1.6,12,M,,M,,*52
06/24/2015	22:03:25.489	$GPGGA,220326,2540.6339,N,08003.0500,W,1,9,1.5,12,M,,M,,*5B
06/24/2015	22:03:26.579	$GPGGA,220327,2540.6349,N,08003.0502,W,1,9,1.5,12,M,,M,,*5F
06/24/2015	22:03:27.579	$GPGGA,220328,2540.6357,N,08003.0502,W,1,9,1.5,12,M,,M,,*5F
06/24/2015	22:03:28.500	$GPGGA,220329,2540.6366,N,08003.0503,W,1,9,1.5,12,M,,M,,*5D
06/24/2015	22:03:29.490	$GPGGA,220330,2540.6375,N,08003.0506,W,1,9,1.5,12,M,,M,,*52
06/24/2015	22:03:30.580	$GPGGA,220331,2540.6385,N,08003.0507,W,1,9,1.5,12,M,,M,,*5D
06/24/2015	22:03:31.490	$GPGGA,220332,2540.6396,N,08003.0509,W,1,8,1.6,12,M,,M,,*50
06/24/2015	22:03:32.560	$GPGGA,220333,2540.6404,N,08003.0509,W,1,8,1.6,12,M,,M,,*5D
06/24/2015	22:03:33.590	$GPGGA,220334,2540.6414,N,08003.0511,W,1,8,1.6,13,M,,M,,*53
06/24/2015	22:03:34.560	$GPGGA,220335,2540.6425,N,08003.0513,W,1,8,1.8,13,M,,M,,*5C
06/24/2015	22:03:35.580	$GPGGA,220336,2540.6436,N,08003.0514,W,1,9,1.5,13,M,,M,,*56
06/24/2015	22:03:36.560	$GPGGA,220337,2540.6446,N,08003.0517,W,1,9,1.5,13,M,,M,,*53
06/24/2015	22:03:37.580	$GPGGA,220338,2540.6457,N,08003.0520,W,1,8,1.6,13,M,,M,,*5A
06/24/2015	22:03:38.550	$GPGGA,220339,2540.6467,N,08003.0520,W,1,8,1.5,13,M,,M,,*5B
06/24/2015	22:03:39.590	$GPGGA,220340,2540.6478,N,08003.0522,W,1,8,1.6,13,M,,M,,*5A
06/24/2015	22:03:40.543	$GPGGA,220341,2540.6487,N,08003.0524,W,1,8,1.5,13,M,,M,,*5E
06/24/2015	22:03:41.570	$GPGGA,220342,2540.6497,N,08003.0527,W,1,8,1.7,13,M,,M,,*5D
06/24/2015	22:03:42.545	$GPGGA,220343,2540.6508,N,08003.0526,W,1,8,1.5,13,M,,M,,*58
06/24/2015	22:03:43.549	$GPGGA,220344,2540.6516,N,08003.0527,W,1,8,1.6,14,M,,M,,*55
06/24/2015	22:03:44.545	$GPGGA,220345,2540.6527,N,08003.0529,W,1,8,1.6,14,M,,M,,*58
06/24/2015	22:03:45.543	$GPGGA,220346,2540.6539,N,08003.0531,W,1,8,1.7,14,M,,M,,*5C
06/24/2015	22:03:46.545	$GPGGA,220347,2540.6548,N,08003.0531,W,1,8,1.7,14,M,,M,,*5B
06/24/2015	22:03:47.570	$GPGGA,220348,2540.6559,N,08003.0533,W,1,9,1.5,14,M,,M,,*55
06/24/2015	22:03:48.530	$GPGGA,220349,2540.6570,N,08003.0536,W,1,9,1.5,14,M,,M,,*5A
06/24/2015	22:03:49.544	$GPGGA,220350,2540.6581,N,08003.0538,W,1,9,1.5,14,M,,M,,*52
06/24/2015	22:03:50.534	$GPGGA,220351,2540.6591,N,08003.0539,W,1,9,1.5,14,M,,M,,*53
06/24/2015	22:03:52.550	$GPGGA,220353,2540.6610,N,08003.0543,W,1,9,1.5,14,M,,M,,*56
06/24/2015	22:03:53.520	$GPGGA,220354,2540.6622,N,08003.0546,W,1,9,1.5,14,M,,M,,*55
06/24/2015	22:03:54.520	$GPGGA,220355,2540.6631,N,08003.0545,W,1,9,1.5,15,M,,M,,*54
06/24/2015	22:03:56.971	$GPGGA,220357,2540.6652,N,08003.0549,W,1,9,1.5,15,M,,M,,*5F
06/24/2015	22:03:57.520	$GPGGA,220358,2540.6662,N,08003.0550,W,1,9,1.5,15,M,,M,,*5B
06/24/2015	22:03:58.535	$GPGGA,220359,2540.6671,N,08003.0551,W,1,9,1.5,15,M,,M,,*59
06/24/2015	22:03:59.534	$GPGGA,220400,2540.6682,N,08003.0553,W,1,9,1.5,15,M,,M,,*5C
06/24/2015	22:04:00.509	$GPGGA,220401,2540.6691,N,08003.0556,W,1,9,1.5,15,M,,M,,*5A
06/24/2015	22:04:01.519	$GPGGA,220402,2540.6700,N,08003.0555,W,1,9,1.5,15,M,,M,,*53
06/24/2015	22:04:02.519	$GPGGA,220403,2540.6711,N,08003.0557,W,1,9,1.5,15,M,,M,,*50
06/24/2015	22:04:03.610	$GPGGA,220404,2540.6721,N,08003.0558,W,1,9,1.5,15,M,,M,,*5B
06/24/2015	22:04:04.500	$GPGGA,220405,2540.6729,N,08003.0560,W,1,9,1.5,15,M,,M,,*59
06/24/2015	22:04:05.510	$GPGGA,220406,2540.6740,N,08003.0561,W,1,9,1.5,15,M,,M,,*54
06/24/2015	22:04:06.490	$GPGGA,220407,2540.6750,N,08003.0563,W,1,9,1.5,16,M,,M,,*55
06/24/2015	22:04:07.534	$GPGGA,220408,2540.6760,N,08003.0564,W,1,9,1.5,16,M,,M,,*5E
06/24/2015	22:04:08.510	$GPGGA,220409,2540.6768,N,08003.0567,W,1,9,1.5,16,M,,M,,*54
06/24/2015	22:04:09.510	$GPGGA,220410,2540.6779,N,08003.0567,W,1,9,1.5,16,M,,M,,*5C
06/24/2015	22:04:10.480	$GPGGA,220411,2540.6789,N,08003.0568,W,1,9,1.5,16,M,,M,,*5D
06/24/2015	22:04:11.510	$GPGGA,220412,2540.6797,N,08003.0569,W,1,9,1.5,16,M,,M,,*50
06/24/2015	22:04:12.500	$GPGGA,220413,2540.6808,N,08003.0571,W,1,9,1.5,16,M,,M,,*51
06/24/2015	22:04:13.590	$GPGGA,220414,2540.6816,N,08003.0572,W,1,9,1.5,16,M,,M,,*5A
06/24/2015	22:04:14.570	$GPGGA,220415,2540.6826,N,08003.0574,W,1,9,1.5,16,M,,M,,*5E
06/24/2015	22:04:15.620	$GPGGA,220416,2540.6837,N,08003.0575,W,1,9,1.5,16,M,,M,,*5C
06/24/2015	22:04:16.570	$GPGGA,220417,2540.6846,N,08003.0578,W,1,9,1.5,16,M,,M,,*56
06/24/2015	22:04:17.609	$GPGGA,220418,2540.6855,N,08003.0577,W,1,9,1.5,16,M,,M,,*54
06/24/2015	22:04:18.579	$GPGGA,220419,2540.6865,N,08003.0578,W,1,9,1.5,16,M,,M,,*59
06/24/2015	22:04:19.609	$GPGGA,220420,2540.6875,N,08003.0581,W,1,9,1.5,16,M,,M,,*54
06/24/2015	22:04:20.560	$GPGGA,220421,2540.6884,N,08003.0582,W,1,9,1.5,16,M,,M,,*58
06/24/2015	22:04:21.560	$GPGGA,220422,2540.6895,N,08003.0583,W,1,9,1.5,16,M,,M,,*5A
06/24/2015	22:04:22.560	$GPGGA,220423,2540.6905,N,08003.0585,W,1,9,1.4,16,M,,M,,*54
06/24/2015	22:04:23.590	$GPGGA,220424,2540.6913,N,08003.0586,W,1,9,1.4,16,M,,M,,*57
06/24/2015	22:04:24.547	$GPGGA,220425,2540.6924,N,08003.0587,W,1,9,1.4,16,M,,M,,*53
06/24/2015	22:04:25.580	$GPGGA,220426,2540.6934,N,08003.0589,W,1,8,1.6,16,M,,M,,*5C
06/24/2015	22:04:26.560	$GPGGA,220427,2540.6942,N,08003.0592,W,1,8,1.4,16,M,,M,,*54
06/24/2015	22:04:27.580	$GPGGA,220428,2540.6953,N,08003.0593,W,1,9,1.4,16,M,,M,,*5B
06/24/2015	22:04:28.550	$GPGGA,220429,2540.6963,N,08003.0594,W,1,9,1.5,16,M,,M,,*5F
06/24/2015	22:04:29.540	$GPGGA,220430,2540.6973,N,08003.0596,W,1,9,1.5,16,M,,M,,*54
06/24/2015	22:04:30.560	$GPGGA,220431,2540.6982,N,08003.0598,W,1,9,1.5,16,M,,M,,*55
06/24/2015	22:04:31.580	$GPGGA,220432,2540.6992,N,08003.0600,W,1,9,1.5,16,M,,M,,*55
06/24/2015	22:04:32.543	$GPGGA,220433,2540.7003,N,08003.0600,W,1,9,1.5,16,M,,M,,*54
06/24/2015	22:04:33.532	$GPGGA,220434,2540.7013,N,08003.0603,W,1,9,1.5,16,M,,M,,*51
06/24/2015	22:04:34.541	$GPGGA,220435,2540.7023,N,08003.0604,W,1,9,1.4,16,M,,M,,*55
06/24/2015	22:04:35.569	$GPGGA,220436,2540.7034,N,08003.0607,W,1,9,1.4,16,M,,M,,*53
06/24/2015	22:04:36.532	$GPGGA,220437,2540.7043,N,08003.0607,W,1,9,1.4,16,M,,M,,*52
06/24/2015	22:04:37.519	$GPGGA,220438,2540.7054,N,08003.0610,W,1,9,1.4,16,M,,M,,*5D
06/24/2015	22:04:38.531	$GPGGA,220439,2540.7064,N,08003.0611,W,1,9,1.4,16,M,,M,,*5E
06/24/2015	22:04:39.560	$GPGGA,220440,2540.7072,N,08003.0612,W,1,9,1.4,16,M,,M,,*54
06/24/2015	22:04:40.530	$GPGGA,220441,2540.7082,N,08003.0614,W,1,9,1.6,16,M,,M,,*5E
06/24/2015	22:04:41.550	$GPGGA,220442,2540.7092,N,08003.0614,W,1,9,1.4,16,M,,M,,*5E
06/24/2015	22:04:42.532	$GPGGA,220443,2540.7101,N,08003.0616,W,1,9,1.4,16,M,,M,,*56
06/24/2015	22:04:43.543	$GPGGA,220444,2540.7110,N,08003.0618,W,1,9,1.4,16,M,,M,,*5F
06/24/2015	22:04:44.511	$GPGGA,220445,2540.7122,N,08003.0618,W,1,9,1.6,16,M,,M,,*5D
06/24/2015	22:04:45.545	$GPGGA,220446,2540.7132,N,08003.0619,W,1,9,1.4,16,M,,M,,*5C
06/24/2015	22:04:46.510	$GPGGA,220447,2540.7141,N,08003.0621,W,1,9,1.4,16,M,,M,,*52
06/24/2015	22:04:47.540	$GPGGA,220448,2540.7151,N,08003.0622,W,1,9,1.4,16,M,,M,,*5F
06/24/2015	22:04:48.520	$GPGGA,220449,2540.7161,N,08003.0623,W,1,9,1.4,16,M,,M,,*5C
06/24/2015	22:04:49.510	$GPGGA,220450,2540.7169,N,08003.0625,W,1,9,1.4,16,M,,M,,*5A
06/24/2015	22:04:50.500	$GPGGA,220451,2540.7179,N,08003.0625,W,1,9,1.6,16,M,,M,,*58
06/24/2015	22:04:51.530	$GPGGA,220452,2540.7187,N,08003.0626,W,1,8,1.6,16,M,,M,,*58
06/24/2015	22:04:52.509	$GPGGA,220453,2540.7197,N,08003.0628,W,1,8,1.6,16,M,,M,,*56
06/24/2015	22:04:53.499	$GPGGA,220454,2540.7206,N,08003.0629,W,1,8,1.6,15,M,,M,,*58
06/24/2015	22:04:54.509	$GPGGA,220455,2540.7216,N,08003.0629,W,1,8,1.6,15,M,,M,,*58
06/24/2015	22:04:55.520	$GPGGA,220456,2540.7224,N,08003.0630,W,1,9,1.4,15,M,,M,,*51
06/24/2015	22:04:56.500	$GPGGA,220457,2540.7234,N,08003.0632,W,1,9,1.6,15,M,,M,,*51
06/24/2015	22:04:57.500	$GPGGA,220458,2540.7245,N,08003.0633,W,1,8,1.6,15,M,,M,,*58
06/24/2015	22:04:58.581	$GPGGA,220459,2540.7256,N,08003.0634,W,1,8,1.4,15,M,,M,,*5E
06/24/2015	22:04:59.550	$GPGGA,220500,2540.7267,N,08003.0636,W,1,9,1.4,15,M,,M,,*52
06/24/2015	22:05:00.581	$GPGGA,220501,2540.7277,N,08003.0637,W,1,9,1.4,15,M,,M,,*53
06/24/2015	22:05:01.580	$GPGGA,220502,2540.7288,N,08003.0639,W,1,9,1.4,15,M,,M,,*5E
06/24/2015	22:05:02.580	$GPGGA,220503,2540.7298,N,08003.0640,W,1,9,1.4,15,M,,M,,*50
06/24/2015	22:05:03.580	$GPGGA,220504,2540.7307,N,08003.0641,W,1,9,1.4,15,M,,M,,*51
06/24/2015	22:05:04.570	$GPGGA,220505,2540.7317,N,08003.0643,W,1,9,1.4,15,M,,M,,*53
06/24/2015	22:05:05.600	$GPGGA,220506,2540.7327,N,08003.0644,W,1,9,1.4,15,M,,M,,*54
06/24/2015	22:05:06.580	$GPGGA,220507,2540.7336,N,08003.0645,W,1,9,1.4,14,M,,M,,*55
06/24/2015	22:05:07.590	$GPGGA,220508,2540.7346,N,08003.0647,W,1,9,1.4,14,M,,M,,*5F
06/24/2015	22:05:08.570	$GPGGA,220509,2540.7354,N,08003.0648,W,1,9,1.4,14,M,,M,,*52
06/24/2015	22:05:09.609	$GPGGA,220510,2540.7364,N,08003.0650,W,1,9,1.4,14,M,,M,,*50
06/24/2015	22:05:10.559	$GPGGA,220511,2540.7374,N,08003.0651,W,1,9,1.4,14,M,,M,,*51
06/24/2015	22:05:11.579	$GPGGA,220512,2540.7383,N,08003.0652,W,1,9,1.4,14,M,,M,,*59
06/24/2015	22:05:12.559	$GPGGA,220513,2540.7393,N,08003.0654,W,1,9,1.4,14,M,,M,,*5F
06/24/2015	22:05:13.570	$GPGGA,220514,2540.7403,N,08003.0655,W,1,9,1.4,14,M,,M,,*57
06/24/2015	22:05:14.551	$GPGGA,220515,2540.7412,N,08003.0657,W,1,9,1.4,14,M,,M,,*54
06/24/2015	22:05:15.580	$GPGGA,220516,2540.7422,N,08003.0658,W,1,9,1.4,14,M,,M,,*5B
06/24/2015	22:05:16.546	$GPGGA,220517,2540.7432,N,08003.0659,W,1,9,1.4,14,M,,M,,*5A
06/24/2015	22:05:17.570	$GPGGA,220518,2540.7440,N,08003.0661,W,1,9,1.4,14,M,,M,,*5B
06/24/2015	22:05:18.555	$GPGGA,220519,2540.7451,N,08003.0661,W,1,9,1.4,14,M,,M,,*5A
06/24/2015	22:05:19.580	$GPGGA,220520,2540.7459,N,08003.0663,W,1,9,1.4,14,M,,M,,*5A
06/24/2015	22:05:20.545	$GPGGA,220521,2540.7469,N,08003.0665,W,1,9,1.4,14,M,,M,,*5E
06/24/2015	22:05:21.537	$GPGGA,220522,2540.7480,N,08003.0665,W,1,9,1.4,14,M,,M,,*5A
06/24/2015	22:05:22.533	$GPGGA,220523,2540.7490,N,08003.0668,W,1,9,1.4,14,M,,M,,*57
06/24/2015	22:05:23.551	$GPGGA,220524,2540.7498,N,08003.0668,W,1,9,1.4,14,M,,M,,*58
06/24/2015	22:05:24.534	$GPGGA,220525,2540.7509,N,08003.0669,W,1,9,1.6,14,M,,M,,*53
06/24/2015	22:05:25.552	$GPGGA,220526,2540.7519,N,08003.0670,W,1,9,1.4,14,M,,M,,*5B
06/24/2015	22:05:26.520	$GPGGA,220527,2540.7530,N,08003.0672,W,1,9,1.4,14,M,,M,,*53
06/24/2015	22:05:27.536	$GPGGA,220528,2540.7540,N,08003.0675,W,1,9,1.4,14,M,,M,,*5C
06/24/2015	22:05:28.531	$GPGGA,220529,2540.7549,N,08003.0676,W,1,9,1.4,13,M,,M,,*50
06/24/2015	22:05:29.509	$GPGGA,220530,2540.7560,N,08003.0677,W,1,9,1.4,13,M,,M,,*52
06/24/2015	22:05:30.520	$GPGGA,220531,2540.7570,N,08003.0679,W,1,9,1.4,13,M,,M,,*5C
06/24/2015	22:05:31.542	$GPGGA,220532,2540.7578,N,08003.0679,W,1,9,1.4,13,M,,M,,*57
06/24/2015	22:05:32.510	$GPGGA,220533,2540.7588,N,08003.0680,W,1,9,1.6,13,M,,M,,*5D
06/24/2015	22:05:33.510	$GPGGA,220534,2540.7598,N,08003.0683,W,1,8,1.6,13,M,,M,,*59
06/24/2015	22:05:34.620	$GPGGA,220535,2540.7607,N,08003.0683,W,1,8,1.4,13,M,,M,,*5F
06/24/2015	22:05:35.532	$GPGGA,220536,2540.7616,N,08003.0683,W,1,9,1.4,13,M,,M,,*5D
06/24/2015	22:05:36.543	$GPGGA,220537,2540.7625,N,08003.0686,W,1,9,1.4,13,M,,M,,*59
06/24/2015	22:05:37.630	$GPGGA,220538,2540.7635,N,08003.0688,W,1,9,1.4,13,M,,M,,*59
06/24/2015	22:05:38.500	$GPGGA,220539,2540.7643,N,08003.0688,W,1,9,1.4,13,M,,M,,*59
06/24/2015	22:05:39.520	$GPGGA,220540,2540.7654,N,08003.0690,W,1,9,1.4,13,M,,M,,*58
06/24/2015	22:05:40.490	$GPGGA,220541,2540.7663,N,08003.0691,W,1,9,1.4,13,M,,M,,*5C
06/24/2015	22:05:41.500	$GPGGA,220542,2540.7672,N,08003.0694,W,1,9,1.4,13,M,,M,,*5A
06/24/2015	22:05:42.490	$GPGGA,220543,2540.7682,N,08003.0694,W,1,9,1.4,13,M,,M,,*54
06/24/2015	22:05:43.500	$GPGGA,220544,2540.7693,N,08003.0697,W,1,9,1.4,13,M,,M,,*50
06/24/2015	22:05:44.500	$GPGGA,220545,2540.7703,N,08003.0698,W,1,9,1.4,13,M,,M,,*56
06/24/2015	22:05:45.489	$GPGGA,220546,2540.7712,N,08003.0699,W,1,9,1.4,13,M,,M,,*54
06/24/2015	22:05:46.489	$GPGGA,220547,2540.7724,N,08003.0701,W,1,9,1.4,13,M,,M,,*50
06/24/2015	22:05:47.499	$GPGGA,220548,2540.7733,N,08003.0702,W,1,9,1.4,13,M,,M,,*5A
06/24/2015	22:05:48.580	$GPGGA,220549,2540.7743,N,08003.0704,W,1,9,1.4,13,M,,M,,*5A
06/24/2015	22:05:49.610	$GPGGA,220550,2540.7753,N,08003.0705,W,1,9,1.4,13,M,,M,,*52
06/24/2015	22:05:50.580	$GPGGA,220551,2540.7762,N,08003.0706,W,1,9,1.4,13,M,,M,,*52
06/24/2015	22:05:51.590	$GPGGA,220552,2540.7772,N,08003.0708,W,1,9,1.4,13,M,,M,,*5E
06/24/2015	22:05:52.580	$GPGGA,220553,2540.7782,N,08003.0710,W,1,9,1.4,13,M,,M,,*59
06/24/2015	22:05:53.580	$GPGGA,220554,2540.7791,N,08003.0710,W,1,9,1.6,13,M,,M,,*5E
06/24/2015	22:05:54.570	$GPGGA,220555,2540.7801,N,08003.0712,W,1,9,1.4,13,M,,M,,*59
06/24/2015	22:05:55.610	$GPGGA,220556,2540.7812,N,08003.0715,W,1,9,1.4,13,M,,M,,*5F
06/24/2015	22:05:56.570	$GPGGA,220557,2540.7822,N,08003.0715,W,1,9,1.4,13,M,,M,,*5D
06/24/2015	22:05:57.580	$GPGGA,220558,2540.7830,N,08003.0716,W,1,9,1.6,13,M,,M,,*50
06/24/2015	22:05:58.620	$GPGGA,220559,2540.7838,N,08003.0719,W,1,9,1.6,13,M,,M,,*56
06/24/2015	22:05:59.600	$GPGGA,220600,2540.7848,N,08003.0719,W,1,8,1.4,13,M,,M,,*5D
06/24/2015	22:06:00.550	$GPGGA,220601,2540.7856,N,08003.0720,W,1,8,1.4,13,M,,M,,*59
06/24/2015	22:06:01.549	$GPGGA,220602,2540.7867,N,08003.0723,W,1,9,1.4,13,M,,M,,*5A
06/24/2015	22:06:02.559	$GPGGA,220603,2540.7877,N,08003.0723,W,1,9,1.4,13,M,,M,,*5A
06/24/2015	22:06:03.579	$GPGGA,220604,2540.7887,N,08003.0726,W,1,9,1.4,13,M,,M,,*57
06/24/2015	22:06:04.559	$GPGGA,220605,2540.7896,N,08003.0726,W,1,9,1.4,13,M,,M,,*56
06/24/2015	22:06:05.570	$GPGGA,220606,2540.7906,N,08003.0728,W,1,9,1.4,13,M,,M,,*53
06/24/2015	22:06:06.550	$GPGGA,220607,2540.7916,N,08003.0730,W,1,9,1.4,13,M,,M,,*5A
06/24/2015	22:06:07.590	$GPGGA,220608,2540.7925,N,08003.0730,W,1,9,1.4,13,M,,M,,*55
06/24/2015	22:06:08.551	$GPGGA,220609,2540.7935,N,08003.0733,W,1,9,1.4,13,M,,M,,*56
06/24/2015	22:06:09.849	$GPGGA,220610,2540.7946,N,08003.0735,W,1,9,1.4,13,M,,M,,*5C
06/24/2015	22:06:10.544	$GPGGA,220611,2540.7957,N,08003.0737,W,1,9,1.4,13,M,,M,,*5F
06/24/2015	22:06:11.580	$GPGGA,220612,2540.7966,N,08003.0737,W,1,9,1.6,13,M,,M,,*5C
06/24/2015	22:06:12.543	$GPGGA,220613,2540.7975,N,08003.0740,W,1,9,1.4,13,M,,M,,*5D
06/24/2015	22:06:13.543	$GPGGA,220614,2540.7986,N,08003.0741,W,1,9,1.4,13,M,,M,,*57
06/24/2015	22:06:14.520	$GPGGA,220615,2540.7996,N,08003.0742,W,1,9,1.4,13,M,,M,,*54
06/24/2015	22:06:15.560	$GPGGA,220616,2540.8006,N,08003.0744,W,1,9,1.4,13,M,,M,,*5E
06/24/2015	22:06:16.541	$GPGGA,220617,2540.8015,N,08003.0745,W,1,9,1.4,13,M,,M,,*5C
06/24/2015	22:06:17.543	$GPGGA,220618,2540.8026,N,08003.0748,W,1,9,1.4,13,M,,M,,*5E
06/24/2015	22:06:18.510	$GPGGA,220619,2540.8036,N,08003.0748,W,1,9,1.4,13,M,,M,,*5E
06/24/2015	22:06:19.559	$GPGGA,220620,2540.8047,N,08003.0749,W,1,9,1.4,13,M,,M,,*53
06/24/2015	22:06:20.535	$GPGGA,220621,2540.8057,N,08003.0751,W,1,9,1.4,13,M,,M,,*5A
06/24/2015	22:06:21.534	$GPGGA,220622,2540.8066,N,08003.0752,W,1,9,1.4,13,M,,M,,*58
06/24/2015	22:06:22.769	$GPGGA,220623,2540.8076,N,08003.0755,W,1,9,1.4,13,M,,M,,*5F
06/24/2015	22:06:23.550	$GPGGA,220624,2540.8087,N,08003.0755,W,1,9,1.4,13,M,,M,,*56
06/24/2015	22:06:24.533	$GPGGA,220625,2540.8098,N,08003.0758,W,1,9,1.4,13,M,,M,,*54
06/24/2015	22:06:25.535	$GPGGA,220626,2540.8107,N,08003.0759,W,1,9,1.4,13,M,,M,,*51
06/24/2015	22:06:26.510	$GPGGA,220627,2540.8116,N,08003.0760,W,1,9,1.4,13,M,,M,,*5A
06/24/2015	22:06:27.633	$GPGGA,220628,2540.8127,N,08003.0762,W,1,9,1.4,13,M,,M,,*55
06/24/2015	22:06:28.510	$GPGGA,220629,2540.8137,N,08003.0763,W,1,9,1.4,13,M,,M,,*54
06/24/2015	22:06:29.500	$GPGGA,220630,2540.8147,N,08003.0764,W,1,9,1.4,13,M,,M,,*5C
06/24/2015	22:06:30.580	$GPGGA,220631,2540.8156,N,08003.0766,W,1,9,1.4,13,M,,M,,*5F
06/24/2015	22:06:31.620	$GPGGA,220632,2540.8166,N,08003.0767,W,1,9,1.4,13,M,,M,,*5E
06/24/2015	22:06:32.520	$GPGGA,220633,2540.8176,N,08003.0770,W,1,9,1.4,13,M,,M,,*58
06/24/2015	22:06:33.580	$GPGGA,220634,2540.8185,N,08003.0771,W,1,9,1.4,13,M,,M,,*52
06/24/2015	22:06:34.580	$GPGGA,220635,2540.8195,N,08003.0773,W,1,9,1.4,13,M,,M,,*50
06/24/2015	22:06:35.610	$GPGGA,220636,2540.8205,N,08003.0773,W,1,9,1.7,13,M,,M,,*5A
06/24/2015	22:06:36.509	$GPGGA,220637,2540.8214,N,08003.0774,W,1,9,1.7,13,M,,M,,*5C
06/24/2015	22:06:37.570	$GPGGA,220638,2540.8223,N,08003.0778,W,1,8,1.4,13,M,,M,,*59
06/24/2015	22:06:38.569	$GPGGA,220639,2540.8232,N,08003.0780,W,1,8,1.4,13,M,,M,,*5F
06/24/2015	22:06:39.619	$GPGGA,220640,2540.8242,N,08003.0781,W,1,9,1.4,13,M,,M,,*56
06/24/2015	22:06:40.570	$GPGGA,220641,2540.8250,N,08003.0782,W,1,9,1.7,13,M,,M,,*54
06/24/2015	22:06:41.570	$GPGGA,220642,2540.8260,N,08003.0782,W,1,8,1.6,13,M,,M,,*54
06/24/2015	22:06:42.570	$GPGGA,220643,2540.8271,N,08003.0784,W,1,8,1.4,13,M,,M,,*51
06/24/2015	22:06:43.590	$GPGGA,220644,2540.8282,N,08003.0787,W,1,9,1.4,13,M,,M,,*58
06/24/2015	22:06:44.560	$GPGGA,220645,2540.8292,N,08003.0786,W,1,9,1.7,13,M,,M,,*5A
06/24/2015	22:06:45.580	$GPGGA,220646,2540.8303,N,08003.0788,W,1,9,1.4,13,M,,M,,*5D
06/24/2015	22:06:46.550	$GPGGA,220647,2540.8313,N,08003.0791,W,1,9,1.4,13,M,,M,,*55
06/24/2015	22:06:47.590	$GPGGA,220648,2540.8322,N,08003.0791,W,1,9,1.4,13,M,,M,,*58
06/24/2015	22:06:48.546	$GPGGA,220649,2540.8332,N,08003.0793,W,1,9,1.4,13,M,,M,,*5A
06/24/2015	22:06:49.570	$GPGGA,220650,2540.8342,N,08003.0795,W,1,9,1.4,13,M,,M,,*53
06/24/2015	22:06:50.550	$GPGGA,220651,2540.8351,N,08003.0796,W,1,9,1.4,14,M,,M,,*54
06/24/2015	22:06:51.590	$GPGGA,220652,2540.8361,N,08003.0798,W,1,9,1.4,14,M,,M,,*5A
06/24/2015	22:06:52.560	$GPGGA,220653,2540.8371,N,08003.0798,W,1,9,1.4,14,M,,M,,*5A
06/24/2015	22:06:53.570	$GPGGA,220654,2540.8379,N,08003.0800,W,1,8,1.7,14,M,,M,,*59
06/24/2015	22:06:54.544	$GPGGA,220655,2540.8389,N,08003.0802,W,1,8,1.4,14,M,,M,,*56
06/24/2015	22:06:55.579	$GPGGA,220656,2540.8398,N,08003.0805,W,1,9,1.4,14,M,,M,,*53
06/24/2015	22:06:56.546	$GPGGA,220657,2540.8408,N,08003.0806,W,1,9,1.4,14,M,,M,,*5F
06/24/2015	22:06:57.532	$GPGGA,220658,2540.8418,N,08003.0806,W,1,9,1.4,14,M,,M,,*51
06/24/2015	22:06:58.532	$GPGGA,220659,2540.8427,N,08003.0809,W,1,9,1.4,14,M,,M,,*53
06/24/2015	22:06:59.620	$GPGGA,220700,2540.8437,N,08003.0810,W,1,9,1.4,14,M,,M,,*57
06/24/2015	22:07:00.520	$GPGGA,220701,2540.8445,N,08003.0810,W,1,9,1.7,14,M,,M,,*50
06/24/2015	22:07:01.520	$GPGGA,220702,2540.8454,N,08003.0810,W,1,8,1.7,15,M,,M,,*53
06/24/2015	22:07:02.533	$GPGGA,220703,2540.8463,N,08003.0813,W,1,8,1.4,15,M,,M,,*56
06/24/2015	22:07:03.570	$GPGGA,220704,2540.8474,N,08003.0816,W,1,9,1.4,15,M,,M,,*53
06/24/2015	22:07:04.530	$GPGGA,220705,2540.8483,N,08003.0816,W,1,9,1.4,15,M,,M,,*5A
06/24/2015	22:07:05.543	$GPGGA,220706,2540.8491,N,08003.0816,W,1,8,1.7,15,M,,M,,*58
06/24/2015	22:07:06.510	$GPGGA,220707,2540.8499,N,08003.0817,W,1,8,1.4,15,M,,M,,*53
06/24/2015	22:07:07.560	$GPGGA,220708,2540.8509,N,08003.0818,W,1,9,1.4,15,M,,M,,*5A
06/24/2015	22:07:08.510	$GPGGA,220709,2540.8519,N,08003.0820,W,1,9,1.4,15,M,,M,,*51
06/24/2015	22:07:09.520	$GPGGA,220710,2540.8528,N,08003.0821,W,1,9,1.4,15,M,,M,,*5A
06/24/2015	22:07:10.500	$GPGGA,220711,2540.8538,N,08003.0824,W,1,9,1.4,15,M,,M,,*5F
06/24/2015	22:07:11.533	$GPGGA,220712,2540.8546,N,08003.0825,W,1,9,1.4,16,M,,M,,*57
06/24/2015	22:07:12.519	$GPGGA,220713,2540.8557,N,08003.0827,W,1,9,1.4,16,M,,M,,*54
06/24/2015	22:07:13.519	$GPGGA,220714,2540.8567,N,08003.0828,W,1,9,1.4,16,M,,M,,*5F
06/24/2015	22:07:14.589	$GPGGA,220715,2540.8577,N,08003.0831,W,1,9,1.4,16,M,,M,,*57
06/24/2015	22:07:15.611	$GPGGA,220716,2540.8586,N,08003.0831,W,1,9,1.4,16,M,,M,,*5A
06/24/2015	22:07:16.590	$GPGGA,220717,2540.8596,N,08003.0834,W,1,9,1.4,16,M,,M,,*5F
06/24/2015	22:07:17.610	$GPGGA,220718,2540.8606,N,08003.0835,W,1,9,1.4,16,M,,M,,*5B
06/24/2015	22:07:18.580	$GPGGA,220719,2540.8615,N,08003.0836,W,1,9,1.4,16,M,,M,,*5B
06/24/2015	22:07:19.631	$GPGGA,220720,2540.8624,N,08003.0838,W,1,9,1.4,16,M,,M,,*5D
06/24/2015	22:07:20.500	$GPGGA,220721,2540.8633,N,08003.0838,W,1,9,1.4,16,M,,M,,*5A
06/24/2015	22:07:21.580	$GPGGA,220722,2540.8644,N,08003.0839,W,1,9,1.4,16,M,,M,,*58
06/24/2015	22:07:22.570	$GPGGA,220723,2540.8654,N,08003.0840,W,1,9,1.7,16,M,,M,,*55
06/24/2015	22:07:23.590	$GPGGA,220724,2540.8665,N,08003.0840,W,1,8,1.7,16,M,,M,,*51
06/24/2015	22:07:24.580	$GPGGA,220725,2540.8675,N,08003.0842,W,1,8,1.7,16,M,,M,,*53
06/24/2015	22:07:25.570	$GPGGA,220726,2540.8685,N,08003.0843,W,1,8,1.7,16,M,,M,,*5E
06/24/2015	22:07:26.570	$GPGGA,220727,2540.8694,N,08003.0843,W,1,8,1.7,16,M,,M,,*5F
06/24/2015	22:07:27.590	$GPGGA,220728,2540.8704,N,08003.0842,W,1,8,1.7,16,M,,M,,*59
06/24/2015	22:07:28.560	$GPGGA,220729,2540.8714,N,08003.0845,W,1,8,1.7,16,M,,M,,*5E
06/24/2015	22:07:29.589	$GPGGA,220730,2540.8723,N,08003.0847,W,1,8,1.7,16,M,,M,,*50
06/24/2015	22:07:30.569	$GPGGA,220731,2540.8733,N,08003.0846,W,1,8,1.7,16,M,,M,,*51
06/24/2015	22:07:31.609	$GPGGA,220732,2540.8743,N,08003.0847,W,1,8,1.7,16,M,,M,,*54
06/24/2015	22:07:32.549	$GPGGA,220733,2540.8752,N,08003.0850,W,1,8,1.7,16,M,,M,,*53
06/24/2015	22:07:33.580	$GPGGA,220734,2540.8763,N,08003.0852,W,1,8,1.7,16,M,,M,,*54
06/24/2015	22:07:34.560	$GPGGA,220735,2540.8772,N,08003.0850,W,1,8,1.7,16,M,,M,,*57
06/24/2015	22:07:35.590	$GPGGA,220736,2540.8783,N,08003.0853,W,1,8,1.7,15,M,,M,,*5A
06/24/2015	22:07:36.560	$GPGGA,220737,2540.8792,N,08003.0854,W,1,8,1.7,15,M,,M,,*5C
06/24/2015	22:07:37.570	$GPGGA,220738,2540.8802,N,08003.0854,W,1,8,1.7,15,M,,M,,*55
06/24/2015	22:07:38.550	$GPGGA,220739,2540.8812,N,08003.0856,W,1,8,1.7,15,M,,M,,*57
06/24/2015	22:07:39.570	$GPGGA,220740,2540.8820,N,08003.0858,W,1,8,1.7,15,M,,M,,*56
06/24/2015	22:07:40.547	$GPGGA,220741,2540.8831,N,08003.0860,W,1,8,1.7,15,M,,M,,*5C
06/24/2015	22:07:41.547	$GPGGA,220742,2540.8841,N,08003.0860,W,1,8,1.7,15,M,,M,,*58
06/24/2015	22:07:42.533	$GPGGA,220743,2540.8850,N,08003.0863,W,1,8,1.7,15,M,,M,,*5A
06/24/2015	22:07:43.570	$GPGGA,220744,2540.8860,N,08003.0863,W,1,8,1.7,15,M,,M,,*5E
06/24/2015	22:07:44.544	$GPGGA,220745,2540.8870,N,08003.0865,W,1,8,1.7,15,M,,M,,*58
06/24/2015	22:07:45.543	$GPGGA,220746,2540.8880,N,08003.0865,W,1,8,1.7,15,M,,M,,*54
06/24/2015	22:07:46.548	$GPGGA,220747,2540.8889,N,08003.0867,W,1,8,1.7,15,M,,M,,*5E
06/24/2015	22:07:47.529	$GPGGA,220748,2540.8899,N,08003.0870,W,1,8,1.7,15,M,,M,,*56
06/24/2015	22:07:48.529	$GPGGA,220749,2540.8909,N,08003.0871,W,1,8,1.7,15,M,,M,,*5E
06/24/2015	22:07:49.519	$GPGGA,220750,2540.8918,N,08003.0870,W,1,8,1.7,15,M,,M,,*57
06/24/2015	22:07:50.532	$GPGGA,220751,2540.8929,N,08003.0872,W,1,8,1.7,15,M,,M,,*56
06/24/2015	22:07:51.560	$GPGGA,220752,2540.8939,N,08003.0875,W,1,8,1.7,15,M,,M,,*53
06/24/2015	22:07:52.520	$GPGGA,220753,2540.8947,N,08003.0875,W,1,8,1.7,15,M,,M,,*5B
06/24/2015	22:07:53.520	$GPGGA,220754,2540.8958,N,08003.0876,W,1,8,1.7,15,M,,M,,*51
06/24/2015	22:07:54.520	$GPGGA,220755,2540.8967,N,08003.0879,W,1,8,1.7,15,M,,M,,*53
06/24/2015	22:07:55.560	$GPGGA,220756,2540.8976,N,08003.0881,W,1,7,1.8,14,M,,M,,*56
06/24/2015	22:07:56.510	$GPGGA,220757,2540.8987,N,08003.0882,W,1,7,1.7,14,M,,M,,*55
06/24/2015	22:07:57.520	$GPGGA,220758,2540.8997,N,08003.0883,W,1,8,1.7,14,M,,M,,*55
06/24/2015	22:07:58.500	$GPGGA,220759,2540.9007,N,08003.0885,W,1,8,1.7,14,M,,M,,*53
06/24/2015	22:07:59.556	$GPGGA,220800,2540.9016,N,08003.0886,W,1,8,1.7,14,M,,M,,*53
06/24/2015	22:08:00.620	$GPGGA,220801,2540.9026,N,08003.0889,W,1,8,1.7,14,M,,M,,*5E
06/24/2015	22:08:01.500	$GPGGA,220802,2540.9034,N,08003.0888,W,1,8,1.7,14,M,,M,,*5F
06/24/2015	22:08:02.590	$GPGGA,220803,2540.9044,N,08003.0889,W,1,8,1.7,14,M,,M,,*58
06/24/2015	22:08:03.640	$GPGGA,220804,2540.9054,N,08003.0892,W,1,8,1.7,14,M,,M,,*54
06/24/2015	22:08:04.509	$GPGGA,220805,2540.9063,N,08003.0893,W,1,8,1.7,14,M,,M,,*50
06/24/2015	22:08:05.630	$GPGGA,220806,2540.9073,N,08003.0893,W,1,8,1.7,14,M,,M,,*52
06/24/2015	22:08:06.509	$GPGGA,220807,2540.9083,N,08003.0896,W,1,8,1.7,14,M,,M,,*59
06/24/2015	22:08:07.599	$GPGGA,220808,2540.9092,N,08003.0897,W,1,8,1.7,14,M,,M,,*57
06/24/2015	22:08:08.490	$GPGGA,220809,2540.9102,N,08003.0899,W,1,8,1.7,14,M,,M,,*50
06/24/2015	22:08:09.490	$GPGGA,220810,2540.9113,N,08003.0900,W,1,8,1.7,14,M,,M,,*59
06/24/2015	22:08:11.180	$GPGGA,220811,2540.9122,N,08003.0901,W,1,8,1.7,14,M,,M,,*5B
06/24/2015	22:08:11.620	$GPGGA,220812,2540.9131,N,08003.0903,W,1,8,1.7,14,M,,M,,*58
06/24/2015	22:08:12.570	$GPGGA,220813,2540.9142,N,08003.0904,W,1,8,1.7,14,M,,M,,*5A
06/24/2015	22:08:13.580	$GPGGA,220814,2540.9151,N,08003.0907,W,1,8,1.7,14,M,,M,,*5C
06/24/2015	22:08:14.580	$GPGGA,220815,2540.9160,N,08003.0907,W,1,8,1.7,14,M,,M,,*5F
06/24/2015	22:08:15.580	$GPGGA,220816,2540.9170,N,08003.0910,W,1,8,1.7,14,M,,M,,*5B
06/24/2015	22:08:16.560	$GPGGA,220817,2540.9181,N,08003.0910,W,1,8,1.7,14,M,,M,,*54
06/24/2015	22:08:17.570	$GPGGA,220818,2540.9189,N,08003.0911,W,1,8,1.7,14,M,,M,,*52
06/24/2015	22:08:18.560	$GPGGA,220819,2540.9200,N,08003.0912,W,1,8,1.7,14,M,,M,,*52
06/24/2015	22:08:19.590	$GPGGA,220820,2540.9210,N,08003.0914,W,1,8,1.7,14,M,,M,,*5F
06/24/2015	22:08:20.560	$GPGGA,220821,2540.9218,N,08003.0917,W,1,8,1.7,14,M,,M,,*55
06/24/2015	22:08:21.549	$GPGGA,220822,2540.9229,N,08003.0918,W,1,8,1.7,14,M,,M,,*5B
06/24/2015	22:08:22.569	$GPGGA,220823,2540.9238,N,08003.0917,W,1,8,1.7,14,M,,M,,*55
06/24/2015	22:08:23.590	$GPGGA,220824,2540.9247,N,08003.0919,W,1,8,1.7,14,M,,M,,*54
06/24/2015	22:08:24.542	$GPGGA,220825,2540.9258,N,08003.0921,W,1,8,1.7,14,M,,M,,*50
06/24/2015	22:08:25.560	$GPGGA,220826,2540.9267,N,08003.0922,W,1,8,1.7,13,M,,M,,*5B
06/24/2015	22:08:26.550	$GPGGA,220827,2540.9276,N,08003.0923,W,1,8,1.7,13,M,,M,,*5B
06/24/2015	22:08:27.580	$GPGGA,220828,2540.9286,N,08003.0925,W,1,8,1.7,13,M,,M,,*5D
06/24/2015	22:08:28.550	$GPGGA,220829,2540.9296,N,08003.0926,W,1,8,1.7,13,M,,M,,*5E
06/24/2015	22:08:29.570	$GPGGA,220830,2540.9305,N,08003.0928,W,1,8,1.7,13,M,,M,,*53
06/24/2015	22:08:30.543	$GPGGA,220831,2540.9315,N,08003.0928,W,1,8,1.7,13,M,,M,,*53
06/24/2015	22:08:31.580	$GPGGA,220832,2540.9325,N,08003.0930,W,1,8,1.7,13,M,,M,,*5A
06/24/2015	22:08:32.532	$GPGGA,220833,2540.9334,N,08003.0932,W,1,8,1.7,13,M,,M,,*59
06/24/2015	22:08:33.560	$GPGGA,220834,2540.9344,N,08003.0932,W,1,8,1.7,13,M,,M,,*59
06/24/2015	22:08:34.550	$GPGGA,220835,2540.9354,N,08003.0934,W,1,8,1.7,13,M,,M,,*5F
06/24/2015	22:08:35.560	$GPGGA,220836,2540.9362,N,08003.0936,W,1,8,1.7,13,M,,M,,*5B
06/24/2015	22:08:36.530	$GPGGA,220837,2540.9373,N,08003.0937,W,1,8,1.7,13,M,,M,,*5B
06/24/2015	22:08:37.560	$GPGGA,220838,2540.9383,N,08003.0939,W,1,8,1.7,13,M,,M,,*55
06/24/2015	22:08:38.520	$GPGGA,220839,2540.9393,N,08003.0940,W,1,8,1.7,13,M,,M,,*5B
06/24/2015	22:08:39.541	$GPGGA,220840,2540.9402,N,08003.0943,W,1,8,1.7,13,M,,M,,*59
06/24/2015	22:08:40.509	$GPGGA,220841,2540.9412,N,08003.0943,W,1,8,1.7,13,M,,M,,*59
06/24/2015	22:08:41.689	$GPGGA,220842,2540.9420,N,08003.0943,W,1,8,1.7,13,M,,M,,*5B
06/24/2015	22:08:42.609	$GPGGA,220843,2540.9431,N,08003.0946,W,1,8,1.7,13,M,,M,,*5F
06/24/2015	22:08:43.560	$GPGGA,220844,2540.9441,N,08003.0947,W,1,8,1.7,13,M,,M,,*5E
06/24/2015	22:08:44.511	$GPGGA,220845,2540.9449,N,08003.0947,W,1,8,1.7,13,M,,M,,*57
06/24/2015	22:08:45.510	$GPGGA,220846,2540.9460,N,08003.0948,W,1,8,1.7,13,M,,M,,*50
06/24/2015	22:08:46.600	$GPGGA,220847,2540.9469,N,08003.0951,W,1,8,1.7,13,M,,M,,*50
06/24/2015	22:08:47.550	$GPGGA,220848,2540.9478,N,08003.0952,W,1,8,1.7,13,M,,M,,*5C
06/24/2015	22:08:48.510	$GPGGA,220849,2540.9489,N,08003.0954,W,1,8,1.7,13,M,,M,,*55
06/24/2015	22:08:49.690	$GPGGA,220850,2540.9498,N,08003.0954,W,1,8,1.7,13,M,,M,,*5D
06/24/2015	22:08:50.500	$GPGGA,220851,2540.9507,N,08003.0957,W,1,8,1.7,13,M,,M,,*58
06/24/2015	22:08:51.500	$GPGGA,220852,2540.9517,N,08003.0958,W,1,8,1.7,13,M,,M,,*55
06/24/2015	22:08:52.580	$GPGGA,220853,2540.9525,N,08003.0958,W,1,8,1.7,13,M,,M,,*55
06/24/2015	22:08:53.680	$GPGGA,220854,2540.9536,N,08003.0959,W,1,8,1.7,13,M,,M,,*51
06/24/2015	22:08:54.500	$GPGGA,220855,2540.9546,N,08003.0962,W,1,8,1.7,13,M,,M,,*5F
06/24/2015	22:08:55.500	$GPGGA,220856,2540.9554,N,08003.0964,W,1,8,1.7,13,M,,M,,*59
06/24/2015	22:08:56.489	$GPGGA,220857,2540.9565,N,08003.0962,W,1,8,1.7,13,M,,M,,*5C
06/24/2015	22:08:57.569	$GPGGA,220858,2540.9575,N,08003.0965,W,1,8,1.7,13,M,,M,,*55
06/24/2015	22:08:58.619	$GPGGA,220859,2540.9585,N,08003.0968,W,1,8,1.7,13,M,,M,,*56
06/24/2015	22:08:59.689	$GPGGA,220900,2540.9594,N,08003.0967,W,1,8,1.7,13,M,,M,,*54
06/24/2015	22:09:00.570	$GPGGA,220901,2540.9604,N,08003.0968,W,1,8,1.7,13,M,,M,,*50
06/24/2015	22:09:01.570	$GPGGA,220902,2540.9612,N,08003.0970,W,1,8,1.7,13,M,,M,,*5D
06/24/2015	22:09:02.560	$GPGGA,220903,2540.9622,N,08003.0972,W,1,8,1.7,13,M,,M,,*5D
06/24/2015	22:09:03.690	$GPGGA,220904,2540.9632,N,08003.0972,W,1,8,1.7,13,M,,M,,*5B
06/24/2015	22:09:04.560	$GPGGA,220905,2540.9641,N,08003.0972,W,1,8,1.7,13,M,,M,,*5E
06/24/2015	22:09:05.660	$GPGGA,220906,2540.9651,N,08003.0975,W,1,8,1.7,13,M,,M,,*5B
06/24/2015	22:09:06.590	$GPGGA,220907,2540.9661,N,08003.0977,W,1,8,1.7,13,M,,M,,*5B
06/24/2015	22:09:07.680	$GPGGA,220908,2540.9670,N,08003.0977,W,1,8,1.7,13,M,,M,,*54
06/24/2015	22:09:08.610	$GPGGA,220909,2540.9680,N,08003.0977,W,1,8,1.7,13,M,,M,,*5A
06/24/2015	22:09:09.660	$GPGGA,220910,2540.9690,N,08003.0980,W,1,8,1.7,13,M,,M,,*5B
06/24/2015	22:09:10.580	$GPGGA,220911,2540.9698,N,08003.0982,W,1,8,1.7,13,M,,M,,*50
06/24/2015	22:09:11.650	$GPGGA,220912,2540.9709,N,08003.0981,W,1,8,1.7,13,M,,M,,*59
06/24/2015	22:09:12.560	$GPGGA,220913,2540.9719,N,08003.0983,W,1,8,1.7,13,M,,M,,*5B
06/24/2015	22:09:13.640	$GPGGA,220914,2540.9729,N,08003.0984,W,1,8,1.7,13,M,,M,,*58
06/24/2015	22:09:14.536	$GPGGA,220915,2540.9738,N,08003.0986,W,1,8,1.7,13,M,,M,,*5B
06/24/2015	22:09:15.639	$GPGGA,220916,2540.9748,N,08003.0986,W,1,8,1.7,13,M,,M,,*5F
06/24/2015	22:09:16.559	$GPGGA,220917,2540.9756,N,08003.0987,W,1,8,1.7,13,M,,M,,*50
06/24/2015	22:09:17.629	$GPGGA,220918,2540.9767,N,08003.0990,W,1,8,1.7,13,M,,M,,*5B
06/24/2015	22:09:18.523	$GPGGA,220919,2540.9777,N,08003.0991,W,1,8,1.7,13,M,,M,,*5A
06/24/2015	22:09:19.531	$GPGGA,220920,2540.9787,N,08003.0993,W,1,8,1.7,13,M,,M,,*5D
06/24/2015	22:09:20.549	$GPGGA,220921,2540.9796,N,08003.0993,W,1,8,1.7,13,M,,M,,*5C
06/24/2015	22:09:21.631	$GPGGA,220922,2540.9806,N,08003.0995,W,1,8,1.7,13,M,,M,,*5F
06/24/2015	22:09:22.549	$GPGGA,220923,2540.9814,N,08003.0997,W,1,8,1.7,13,M,,M,,*5F
06/24/2015	22:09:23.623	$GPGGA,220924,2540.9825,N,08003.0996,W,1,8,1.7,13,M,,M,,*5B
06/24/2015	22:09:24.542	$GPGGA,220925,2540.9834,N,08003.0998,W,1,8,1.7,13,M,,M,,*54
06/24/2015	22:09:25.589	$GPGGA,220926,2540.9843,N,08003.1001,W,1,8,1.7,13,M,,M,,*5F
06/24/2015	22:09:26.509	$GPGGA,220927,2540.9854,N,08003.1000,W,1,8,1.7,13,M,,M,,*59
06/24/2015	22:09:27.638	$GPGGA,220928,2540.9863,N,08003.1001,W,1,8,1.7,13,M,,M,,*53
06/24/2015	22:09:28.550	$GPGGA,220929,2540.9872,N,08003.1004,W,1,8,1.7,13,M,,M,,*57
06/24/2015	22:09:29.580	$GPGGA,220930,2540.9882,N,08003.1004,W,1,8,1.7,13,M,,M,,*50
06/24/2015	22:09:30.526	$GPGGA,220931,2540.9892,N,08003.1005,W,1,8,1.7,13,M,,M,,*51
06/24/2015	22:09:31.649	$GPGGA,220932,2540.9901,N,08003.1006,W,1,8,1.7,13,M,,M,,*5A
06/24/2015	22:09:32.549	$GPGGA,220933,2540.9911,N,08003.1008,W,1,8,1.7,13,M,,M,,*54
06/24/2015	22:09:33.579	$GPGGA,220934,2540.9921,N,08003.1009,W,1,8,1.7,13,M,,M,,*51
06/24/2015	22:09:34.519	$GPGGA,220935,2540.9930,N,08003.1011,W,1,8,1.7,13,M,,M,,*59
06/24/2015	22:09:35.579	$GPGGA,220936,2540.9940,N,08003.1012,W,1,8,1.7,13,M,,M,,*5E
06/24/2015	22:09:36.599	$GPGGA,220937,2540.9948,N,08003.1013,W,1,8,1.7,13,M,,M,,*56
06/24/2015	22:09:37.480	$GPGGA,220938,2540.9958,N,08003.1015,W,1,8,1.7,13,M,,M,,*5E
06/24/2015	22:09:38.599	$GPGGA,220939,2540.9968,N,08003.1014,W,1,8,1.7,13,M,,M,,*5D
06/24/2015	22:09:39.579	$GPGGA,220940,2540.9977,N,08003.1015,W,1,8,1.7,13,M,,M,,*5C
06/24/2015	22:09:40.509	$GPGGA,220941,2540.9987,N,08003.1017,W,1,8,1.7,13,M,,M,,*50
06/24/2015	22:09:41.559	$GPGGA,220942,2540.9997,N,08003.1017,W,1,8,1.7,13,M,,M,,*52
06/24/2015	22:09:42.569	$GPGGA,220943,2541.0005,N,08003.1019,W,1,8,1.7,13,M,,M,,*57
06/24/2015	22:09:43.619	$GPGGA,220944,2541.0015,N,08003.1020,W,1,8,1.7,13,M,,M,,*5B
06/24/2015	22:09:44.569	$GPGGA,220945,2541.0023,N,08003.1022,W,1,8,1.7,13,M,,M,,*5D
06/24/2015	22:09:45.570	$GPGGA,220946,2541.0034,N,08003.1022,W,1,8,1.7,13,M,,M,,*58
06/24/2015	22:09:46.560	$GPGGA,220947,2541.0044,N,08003.1024,W,1,8,1.7,13,M,,M,,*58
06/24/2015	22:09:47.590	$GPGGA,220948,2541.0052,N,08003.1026,W,1,8,1.7,13,M,,M,,*52
06/24/2015	22:09:48.570	$GPGGA,220949,2541.0062,N,08003.1024,W,1,8,1.7,13,M,,M,,*52
06/24/2015	22:09:49.629	$GPGGA,220950,2541.0071,N,08003.1026,W,1,8,1.7,13,M,,M,,*5A
06/24/2015	22:09:50.549	$GPGGA,220951,2541.0081,N,08003.1030,W,1,8,1.7,12,M,,M,,*52
06/24/2015	22:09:51.589	$GPGGA,220952,2541.0091,N,08003.1028,W,1,8,1.7,12,M,,M,,*59
06/24/2015	22:09:52.549	$GPGGA,220953,2541.0100,N,08003.1029,W,1,8,1.7,12,M,,M,,*50
06/24/2015	22:09:53.569	$GPGGA,220954,2541.0110,N,08003.1031,W,1,8,1.7,12,M,,M,,*5F
06/24/2015	22:09:54.539	$GPGGA,220955,2541.0121,N,08003.1033,W,1,8,1.7,12,M,,M,,*5E
06/24/2015	22:09:55.579	$GPGGA,220956,2541.0131,N,08003.1032,W,1,8,1.7,12,M,,M,,*5D
06/24/2015	22:09:56.559	$GPGGA,220957,2541.0131,N,08003.1032,W,1,8,1.7,12,M,,M,,*5C
06/24/2015	22:09:57.569	$GPGGA,220958,2541.0150,N,08003.1037,W,1,8,1.7,12,M,,M,,*51
06/24/2015	22:09:58.549	$GPGGA,220959,2541.0160,N,08003.1037,W,1,8,1.7,12,M,,M,,*53
06/24/2015	22:09:59.636	$GPGGA,221000,2541.0170,N,08003.1037,W,1,8,1.7,12,M,,M,,*56
06/24/2015	22:10:00.559	$GPGGA,221001,2541.0179,N,08003.1040,W,1,8,1.7,12,M,,M,,*5E
06/24/2015	22:10:01.609	$GPGGA,221002,2541.0179,N,08003.1040,W,1,8,1.7,12,M,,M,,*5D
06/24/2015	22:10:02.533	$GPGGA,221003,2541.0199,N,08003.1042,W,1,8,1.7,12,M,,M,,*50
06/24/2015	22:10:03.580	$GPGGA,221004,2541.0208,N,08003.1044,W,1,8,1.7,12,M,,M,,*5A
06/24/2015	22:10:04.531	$GPGGA,221005,2541.0219,N,08003.1045,W,1,8,1.7,12,M,,M,,*5A
06/24/2015	22:10:05.560	$GPGGA,221006,2541.0228,N,08003.1048,W,1,8,1.7,12,M,,M,,*56
06/24/2015	22:10:06.529	$GPGGA,221007,2541.0228,N,08003.1048,W,1,8,1.7,12,M,,M,,*57
06/24/2015	22:10:07.549	$GPGGA,221008,2541.0237,N,08003.1047,W,1,8,1.7,12,M,,M,,*59
06/24/2015	22:10:08.525	$GPGGA,221009,2541.0258,N,08003.1051,W,1,8,1.7,12,M,,M,,*56
06/24/2015	22:10:09.530	$GPGGA,221010,2541.0258,N,08003.1051,W,1,8,1.7,12,M,,M,,*5E
06/24/2015	22:10:10.520	$GPGGA,221011,2541.0276,N,08003.1052,W,1,8,1.7,12,M,,M,,*50
06/24/2015	22:10:11.569	$GPGGA,221012,2541.0286,N,08003.1053,W,1,8,1.7,12,M,,M,,*5D
06/24/2015	22:10:12.509	$GPGGA,221013,2541.0297,N,08003.1056,W,1,8,1.7,12,M,,M,,*59
06/24/2015	22:10:13.509	$GPGGA,221014,2541.0297,N,08003.1056,W,1,8,1.7,12,M,,M,,*5E
06/24/2015	22:10:14.620	$GPGGA,221015,2541.0316,N,08003.1057,W,1,8,1.7,12,M,,M,,*56
06/24/2015	22:10:15.579	$GPGGA,221016,2541.0326,N,08003.1059,W,1,8,1.7,12,M,,M,,*58
06/24/2015	22:10:16.539	$GPGGA,221017,2541.0336,N,08003.1062,W,1,8,1.7,12,M,,M,,*50
06/24/2015	22:10:17.509	$GPGGA,221018,2541.0336,N,08003.1062,W,1,8,1.7,12,M,,M,,*5F
06/24/2015	22:10:18.589	$GPGGA,221019,2541.0356,N,08003.1062,W,1,8,1.7,12,M,,M,,*58
06/24/2015	22:10:19.529	$GPGGA,221020,2541.0366,N,08003.1066,W,1,8,1.7,12,M,,M,,*55
06/24/2015	22:10:20.500	$GPGGA,221021,2541.0376,N,08003.1067,W,1,8,1.7,12,M,,M,,*54
06/24/2015	22:10:21.510	$GPGGA,221022,2541.0376,N,08003.1067,W,1,8,1.7,12,M,,M,,*57
06/24/2015	22:10:22.490	$GPGGA,221023,2541.0396,N,08003.1069,W,1,8,1.7,12,M,,M,,*56
06/24/2015	22:10:23.510	$GPGGA,221024,2541.0396,N,08003.1069,W,1,8,1.7,12,M,,M,,*51
06/24/2015	22:10:24.499	$GPGGA,221025,2541.0416,N,08003.1071,W,1,8,1.7,12,M,,M,,*56
06/24/2015	22:10:25.509	$GPGGA,221026,2541.0424,N,08003.1073,W,1,8,1.7,12,M,,M,,*56
06/24/2015	22:10:26.489	$GPGGA,221027,2541.0435,N,08003.1074,W,1,8,1.7,12,M,,M,,*50
06/24/2015	22:10:27.589	$GPGGA,221028,2541.0445,N,08003.1076,W,1,8,1.7,12,M,,M,,*5A
06/24/2015	22:10:28.589	$GPGGA,221029,2541.0453,N,08003.1077,W,1,8,1.7,12,M,,M,,*5D
06/24/2015	22:10:29.569	$GPGGA,221030,2541.0464,N,08003.1078,W,1,8,1.7,12,M,,M,,*5E
06/24/2015	22:10:30.569	$GPGGA,221031,2541.0472,N,08003.1080,W,1,8,1.7,12,M,,M,,*5F
06/24/2015	22:10:31.579	$GPGGA,221032,2541.0482,N,08003.1080,W,1,8,1.7,12,M,,M,,*53
06/24/2015	22:10:32.559	$GPGGA,221033,2541.0492,N,08003.1082,W,1,8,1.7,12,M,,M,,*51
06/24/2015	22:10:33.559	$GPGGA,221034,2541.0500,N,08003.1084,W,1,8,1.7,12,M,,M,,*5A
06/24/2015	22:10:34.559	$GPGGA,221035,2541.0511,N,08003.1083,W,1,8,1.7,12,M,,M,,*5C
06/24/2015	22:10:35.589	$GPGGA,221036,2541.0519,N,08003.1085,W,1,8,1.7,12,M,,M,,*51
06/24/2015	22:10:36.569	$GPGGA,221037,2541.0529,N,08003.1087,W,1,8,1.7,11,M,,M,,*52
06/24/2015	22:10:37.579	$GPGGA,221038,2541.0540,N,08003.1087,W,1,8,1.7,11,M,,M,,*52
06/24/2015	22:10:38.560	$GPGGA,221039,2541.0549,N,08003.1089,W,1,8,1.7,11,M,,M,,*54
06/24/2015	22:10:39.610	$GPGGA,221040,2541.0558,N,08003.1091,W,1,8,1.7,11,M,,M,,*53
06/24/2015	22:10:40.570	$GPGGA,221041,2541.0568,N,08003.1091,W,1,8,1.7,11,M,,M,,*51
06/24/2015	22:10:41.579	$GPGGA,221042,2541.0576,N,08003.1094,W,1,8,1.7,11,M,,M,,*58
06/24/2015	22:10:42.549	$GPGGA,221043,2541.0586,N,08003.1093,W,1,8,1.7,11,M,,M,,*51
06/24/2015	22:10:43.579	$GPGGA,221044,2541.0596,N,08003.1095,W,1,8,1.7,11,M,,M,,*51
06/24/2015	22:10:44.549	$GPGGA,221045,2541.0605,N,08003.1096,W,1,8,1.7,11,M,,M,,*5A
06/24/2015	22:10:45.569	$GPGGA,221046,2541.0615,N,08003.1098,W,1,8,1.7,11,M,,M,,*56
06/24/2015	22:10:47.634	$GPGGA,221048,2541.0634,N,08003.1099,W,1,8,1.7,11,M,,M,,*5A
06/24/2015	22:10:48.531	$GPGGA,221049,2541.0644,N,08003.1102,W,1,8,1.7,11,M,,M,,*5F
06/24/2015	22:10:49.569	$GPGGA,221050,2541.0652,N,08003.1103,W,1,8,1.7,11,M,,M,,*51
06/24/2015	22:10:50.531	$GPGGA,221051,2541.0663,N,08003.1103,W,1,8,1.7,11,M,,M,,*52
06/24/2015	22:10:51.569	$GPGGA,221052,2541.0673,N,08003.1105,W,1,7,2.2,11,M,,M,,*5F
06/24/2015	22:10:52.532	$GPGGA,221053,2541.0681,N,08003.1106,W,1,7,1.7,11,M,,M,,*56
06/24/2015	22:10:53.559	$GPGGA,221054,2541.0692,N,08003.1107,W,1,8,1.7,11,M,,M,,*5D
06/24/2015	22:10:54.529	$GPGGA,221055,2541.0701,N,08003.1107,W,1,8,1.7,11,M,,M,,*57
06/24/2015	22:10:55.570	$GPGGA,221056,2541.0710,N,08003.1109,W,1,8,1.7,11,M,,M,,*5A
06/24/2015	22:10:56.531	$GPGGA,221057,2541.0720,N,08003.1110,W,1,8,1.9,11,M,,M,,*5E
06/24/2015	22:10:57.550	$GPGGA,221058,2541.0730,N,08003.1111,W,1,8,1.7,11,M,,M,,*5F
06/24/2015	22:10:58.523	$GPGGA,221059,2541.0739,N,08003.1113,W,1,8,1.7,11,M,,M,,*55
06/24/2015	22:10:59.659	$GPGGA,221100,2541.0750,N,08003.1114,W,1,8,1.7,12,M,,M,,*53
06/24/2015	22:11:00.529	$GPGGA,221101,2541.0760,N,08003.1116,W,1,8,1.7,12,M,,M,,*53
06/24/2015	22:11:01.632	$GPGGA,221102,2541.0768,N,08003.1116,W,1,8,1.7,12,M,,M,,*58
06/24/2015	22:11:02.509	$GPGGA,221103,2541.0779,N,08003.1117,W,1,8,1.7,12,M,,M,,*58
06/24/2015	22:11:03.539	$GPGGA,221104,2541.0789,N,08003.1120,W,1,8,1.7,12,M,,M,,*54
06/24/2015	22:11:04.519	$GPGGA,221105,2541.0797,N,08003.1119,W,1,8,1.7,12,M,,M,,*50
06/24/2015	22:11:05.622	$GPGGA,221106,2541.0807,N,08003.1120,W,1,8,1.7,12,M,,M,,*5F
06/24/2015	22:11:06.500	$GPGGA,221107,2541.0817,N,08003.1121,W,1,8,1.7,12,M,,M,,*5E
06/24/2015	22:11:07.509	$GPGGA,221108,2541.0826,N,08003.1124,W,1,8,1.7,12,M,,M,,*56
06/24/2015	22:11:08.589	$GPGGA,221109,2541.0836,N,08003.1123,W,1,8,1.7,12,M,,M,,*51
06/24/2015	22:11:10.047	$GPGGA,221110,2541.0846,N,08003.1124,W,1,8,1.7,12,M,,M,,*59
06/24/2015	22:11:10.500	$GPGGA,221111,2541.0855,N,08003.1127,W,1,8,1.7,12,M,,M,,*59
06/24/2015	22:11:11.633	$GPGGA,221112,2541.0865,N,08003.1126,W,1,8,1.7,12,M,,M,,*58
06/24/2015	22:11:12.499	$GPGGA,221113,2541.0875,N,08003.1127,W,1,8,1.7,12,M,,M,,*59
06/24/2015	22:11:13.480	$GPGGA,221114,2541.0885,N,08003.1128,W,1,8,1.7,12,M,,M,,*5E
06/24/2015	22:11:14.580	$GPGGA,221115,2541.0894,N,08003.1131,W,1,8,1.7,12,M,,M,,*57
06/24/2015	22:11:15.500	$GPGGA,221116,2541.0905,N,08003.1131,W,1,8,1.7,12,M,,M,,*5D
06/24/2015	22:11:16.569	$GPGGA,221117,2541.0914,N,08003.1131,W,1,8,1.7,12,M,,M,,*5C
06/24/2015	22:11:17.579	$GPGGA,221118,2541.0923,N,08003.1134,W,1,8,1.7,12,M,,M,,*52
06/24/2015	22:11:18.569	$GPGGA,221119,2541.0934,N,08003.1134,W,1,8,1.7,12,M,,M,,*55
06/24/2015	22:11:19.579	$GPGGA,221120,2541.0943,N,08003.1134,W,1,8,1.7,12,M,,M,,*5F
06/24/2015	22:11:20.579	$GPGGA,221121,2541.0952,N,08003.1135,W,1,8,1.7,12,M,,M,,*5F
06/24/2015	22:11:21.579	$GPGGA,221122,2541.0962,N,08003.1138,W,1,8,1.7,12,M,,M,,*52
06/24/2015	22:11:22.569	$GPGGA,221123,2541.0972,N,08003.1138,W,1,8,1.7,12,M,,M,,*52
06/24/2015	22:11:23.569	$GPGGA,221124,2541.0981,N,08003.1138,W,1,8,1.7,12,M,,M,,*59
06/24/2015	22:11:24.559	$GPGGA,221125,2541.0991,N,08003.1141,W,1,8,1.7,12,M,,M,,*57
06/24/2015	22:11:25.569	$GPGGA,221126,2541.1001,N,08003.1142,W,1,8,1.7,12,M,,M,,*56
06/24/2015	22:11:26.559	$GPGGA,221127,2541.1010,N,08003.1143,W,1,8,1.7,12,M,,M,,*56
06/24/2015	22:11:27.579	$GPGGA,221128,2541.1020,N,08003.1145,W,1,8,1.7,12,M,,M,,*5C
06/24/2015	22:11:28.559	$GPGGA,221129,2541.1028,N,08003.1146,W,1,8,1.7,12,M,,M,,*56
06/24/2015	22:11:29.539	$GPGGA,221130,2541.1039,N,08003.1147,W,1,8,1.7,12,M,,M,,*5F
06/24/2015	22:11:30.570	$GPGGA,221131,2541.1048,N,08003.1149,W,1,8,1.7,12,M,,M,,*56
06/24/2015	22:11:31.570	$GPGGA,221132,2541.1057,N,08003.1150,W,1,8,1.7,12,M,,M,,*53
06/24/2015	22:11:32.551	$GPGGA,221133,2541.1067,N,08003.1150,W,1,8,1.7,12,M,,M,,*51
06/24/2015	22:11:33.560	$GPGGA,221134,2541.1077,N,08003.1152,W,1,8,1.7,12,M,,M,,*55
06/24/2015	22:11:34.533	$GPGGA,221135,2541.1086,N,08003.1153,W,1,8,1.7,12,M,,M,,*5B
06/24/2015	22:11:35.549	$GPGGA,221136,2541.1096,N,08003.1154,W,1,8,1.7,12,M,,M,,*5E
06/24/2015	22:11:36.530	$GPGGA,221137,2541.1104,N,08003.1156,W,1,8,1.7,12,M,,M,,*57
06/24/2015	22:11:37.530	$GPGGA,221138,2541.1114,N,08003.1157,W,1,8,1.7,12,M,,M,,*58
06/24/2015	22:11:38.549	$GPGGA,221139,2541.1124,N,08003.1158,W,1,8,1.7,12,M,,M,,*55
06/24/2015	22:11:39.569	$GPGGA,221140,2541.1133,N,08003.1160,W,1,8,1.7,12,M,,M,,*56
06/24/2015	22:11:40.535	$GPGGA,221141,2541.1143,N,08003.1160,W,1,8,1.7,12,M,,M,,*50
06/24/2015	22:11:41.559	$GPGGA,221142,2541.1153,N,08003.1161,W,1,8,1.7,12,M,,M,,*53
06/24/2015	22:11:42.523	$GPGGA,221143,2541.1161,N,08003.1163,W,1,8,1.7,12,M,,M,,*51
06/24/2015	22:11:43.532	$GPGGA,221144,2541.1172,N,08003.1164,W,1,8,1.7,12,M,,M,,*53
06/24/2015	22:11:44.509	$GPGGA,221145,2541.1180,N,08003.1165,W,1,8,1.7,12,M,,M,,*5E
06/24/2015	22:11:45.549	$GPGGA,221146,2541.1190,N,08003.1167,W,1,8,1.7,12,M,,M,,*5E
06/24/2015	22:11:46.620	$GPGGA,221147,2541.1200,N,08003.1167,W,1,8,1.7,12,M,,M,,*55
06/24/2015	22:11:47.639	$GPGGA,221148,2541.1208,N,08003.1168,W,1,8,1.7,12,M,,M,,*5D
06/24/2015	22:11:48.500	$GPGGA,221149,2541.1219,N,08003.1171,W,1,8,1.7,12,M,,M,,*54
06/24/2015	22:11:49.540	$GPGGA,221150,2541.1229,N,08003.1172,W,1,8,1.7,12,M,,M,,*5C
06/24/2015	22:11:50.525	$GPGGA,221151,2541.1237,N,08003.1174,W,1,8,1.7,12,M,,M,,*54
06/24/2015	22:11:51.549	$GPGGA,221152,2541.1248,N,08003.1174,W,1,8,1.7,12,M,,M,,*5F
06/24/2015	22:11:52.509	$GPGGA,221153,2541.1256,N,08003.1176,W,1,8,1.7,12,M,,M,,*53
