Software Version Number: 1	Data File Format Number: 1	Build Version Number: 1	Error Count Since VI Started: 1	Manufacturer: Raytheon	 Model Number: RayMarine 120	 S/N: 	 Cal Date: 	 Wind Direction Offset: 0.00	 Slope (M)1: 0.00	 Offset (B)1: 0.00	 Slope (M)2: 0.00	 Offset (B)2: 0.00	 Slope (M)3: 0.00	 Offset (B)3: 0.00	 Slope (M)4: 0.00	 Offset (B)4: 0.00	 Slope (M)5: 0.00	 Offset (B)5: 0.00	 Slope (M)6: 0.00	 Offset (B)6: 0.00
Computer Date	Computer Time	GGA String
06/15/2015	17:00:00.644	$GPGGA,170001,2420.9010,N,08048.4389,W,1,9,1.7,17,M,,M,,*50
06/15/2015	17:00:01.584	$GPGGA,170002,2420.9015,N,08048.4401,W,1,9,1.7,17,M,,M,,*51
06/15/2015	17:00:02.554	$GPGGA,170003,2420.9019,N,08048.4415,W,1,9,1.7,17,M,,M,,*59
06/15/2015	17:00:03.644	$GPGGA,170004,2420.9023,N,08048.4425,W,1,9,1.7,17,M,,M,,*54
06/15/2015	17:00:04.544	$GPGGA,170005,2420.9029,N,08048.4436,W,1,9,1.7,17,M,,M,,*5D
06/15/2015	17:00:05.574	$GPGGA,170006,2420.9032,N,08048.4445,W,1,9,1.7,17,M,,M,,*50
06/15/2015	17:00:06.604	$GPGGA,170007,2420.9036,N,08048.4456,W,1,9,1.7,17,M,,M,,*57
06/15/2015	17:00:07.594	$GPGGA,170008,2420.9041,N,08048.4467,W,1,9,1.7,17,M,,M,,*5A
06/15/2015	17:00:08.534	$GPGGA,170009,2420.9044,N,08048.4480,W,1,9,1.7,17,M,,M,,*57
06/15/2015	17:00:09.584	$GPGGA,170010,2420.9048,N,08048.4491,W,1,9,1.7,17,M,,M,,*53
06/15/2015	17:00:10.604	$GPGGA,170011,2420.9054,N,08048.4503,W,1,9,1.7,17,M,,M,,*55
06/15/2015	17:00:11.614	$GPGGA,170012,2420.9059,N,08048.4513,W,1,9,1.7,17,M,,M,,*5A
06/15/2015	17:00:12.525	$GPGGA,170013,2420.9062,N,08048.4524,W,1,9,1.7,17,M,,M,,*57
06/15/2015	17:00:13.533	$GPGGA,170014,2420.9066,N,08048.4534,W,1,9,1.7,16,M,,M,,*54
06/15/2015	17:00:14.583	$GPGGA,170015,2420.9072,N,08048.4545,W,1,9,1.7,16,M,,M,,*56
06/15/2015	17:00:15.583	$GPGGA,170016,2420.9076,N,08048.4556,W,1,9,1.7,16,M,,M,,*53
06/15/2015	17:00:16.523	$GPGGA,170017,2420.9080,N,08048.4566,W,1,9,1.7,16,M,,M,,*58
06/15/2015	17:00:17.529	$GPGGA,170018,2420.9084,N,08048.4578,W,1,9,1.7,16,M,,M,,*5C
06/15/2015	17:00:18.573	$GPGGA,170019,2420.9088,N,08048.4590,W,1,9,1.7,16,M,,M,,*57
06/15/2015	17:00:19.603	$GPGGA,170020,2420.9091,N,08048.4600,W,1,9,1.7,16,M,,M,,*5F
06/15/2015	17:00:20.573	$GPGGA,170021,2420.9095,N,08048.4610,W,1,9,1.7,16,M,,M,,*5B
06/15/2015	17:00:21.543	$GPGGA,170022,2420.9101,N,08048.4620,W,1,9,1.7,16,M,,M,,*57
06/15/2015	17:00:22.574	$GPGGA,170023,2420.9105,N,08048.4629,W,1,9,1.7,16,M,,M,,*5B
06/15/2015	17:00:23.594	$GPGGA,170024,2420.9108,N,08048.4640,W,1,9,1.7,16,M,,M,,*5E
06/15/2015	17:00:24.504	$GPGGA,170025,2420.9112,N,08048.4653,W,1,9,1.7,16,M,,M,,*56
06/15/2015	17:00:25.554	$GPGGA,170026,2420.9117,N,08048.4664,W,1,9,1.7,16,M,,M,,*54
06/15/2015	17:00:26.504	$GPGGA,170027,2420.9120,N,08048.4676,W,1,9,1.7,16,M,,M,,*52
06/15/2015	17:00:27.594	$GPGGA,170028,2420.9124,N,08048.4687,W,1,9,1.7,16,M,,M,,*57
06/15/2015	17:00:28.554	$GPGGA,170029,2420.9128,N,08048.4697,W,1,9,1.7,16,M,,M,,*5B
06/15/2015	17:00:29.604	$GPGGA,170030,2420.9133,N,08048.4707,W,1,9,1.7,16,M,,M,,*51
06/15/2015	17:00:30.563	$GPGGA,170031,2420.9137,N,08048.4718,W,1,9,1.7,16,M,,M,,*5A
06/15/2015	17:00:31.563	$GPGGA,170032,2420.9141,N,08048.4729,W,1,9,1.7,16,M,,M,,*5A
06/15/2015	17:00:32.484	$GPGGA,170033,2420.9146,N,08048.4740,W,1,9,1.7,15,M,,M,,*50
06/15/2015	17:00:33.533	$GPGGA,170034,2420.9149,N,08048.4751,W,1,9,1.7,15,M,,M,,*58
06/15/2015	17:00:34.553	$GPGGA,170035,2420.9153,N,08048.4762,W,1,9,1.7,15,M,,M,,*52
06/15/2015	17:00:35.593	$GPGGA,170036,2420.9156,N,08048.4773,W,1,9,1.7,15,M,,M,,*54
06/15/2015	17:00:36.603	$GPGGA,170037,2420.9162,N,08048.4783,W,1,9,1.7,15,M,,M,,*5D
06/15/2015	17:00:37.603	$GPGGA,170038,2420.9167,N,08048.4794,W,1,9,1.7,15,M,,M,,*51
06/15/2015	17:00:38.593	$GPGGA,170039,2420.9171,N,08048.4805,W,1,9,1.7,15,M,,M,,*50
06/15/2015	17:00:39.644	$GPGGA,170040,2420.9174,N,08048.4816,W,1,9,1.7,15,M,,M,,*59
06/15/2015	17:00:40.594	$GPGGA,170041,2420.9178,N,08048.4827,W,1,9,1.7,15,M,,M,,*56
06/15/2015	17:00:41.564	$GPGGA,170042,2420.9184,N,08048.4837,W,1,9,1.7,15,M,,M,,*57
06/15/2015	17:00:42.534	$GPGGA,170043,2420.9188,N,08048.4849,W,1,9,1.7,15,M,,M,,*53
06/15/2015	17:00:43.574	$GPGGA,170044,2420.9193,N,08048.4860,W,1,9,1.7,15,M,,M,,*55
06/15/2015	17:00:44.534	$GPGGA,170045,2420.9196,N,08048.4871,W,1,9,1.7,15,M,,M,,*51
06/15/2015	17:00:45.564	$GPGGA,170046,2420.9200,N,08048.4881,W,1,9,1.7,15,M,,M,,*51
06/15/2015	17:00:46.574	$GPGGA,170047,2420.9204,N,08048.4892,W,1,9,1.7,15,M,,M,,*56
06/15/2015	17:00:47.574	$GPGGA,170048,2420.9210,N,08048.4902,W,1,9,1.7,15,M,,M,,*54
06/15/2015	17:00:48.553	$GPGGA,170049,2420.9214,N,08048.4913,W,1,9,1.7,15,M,,M,,*51
06/15/2015	17:00:49.563	$GPGGA,170050,2420.9218,N,08048.4925,W,1,9,1.7,15,M,,M,,*50
06/15/2015	17:00:50.553	$GPGGA,170051,2420.9222,N,08048.4938,W,1,9,1.7,15,M,,M,,*54
06/15/2015	17:00:51.563	$GPGGA,170052,2420.9222,N,08048.4938,W,1,9,1.7,15,M,,M,,*57
06/15/2015	17:00:52.553	$GPGGA,170053,2420.9232,N,08048.4960,W,1,9,1.7,15,M,,M,,*5A
06/15/2015	17:00:53.543	$GPGGA,170054,2420.9236,N,08048.4968,W,1,9,1.7,15,M,,M,,*51
06/15/2015	17:00:54.553	$GPGGA,170055,2420.9240,N,08048.4978,W,1,9,1.7,15,M,,M,,*50
06/15/2015	17:00:55.593	$GPGGA,170056,2420.9246,N,08048.4989,W,1,9,1.7,15,M,,M,,*5B
06/15/2015	17:00:56.574	$GPGGA,170057,2420.9250,N,08048.5000,W,1,9,1.7,15,M,,M,,*54
06/15/2015	17:00:57.554	$GPGGA,170058,2420.9254,N,08048.5014,W,1,9,1.7,15,M,,M,,*5A
06/15/2015	17:00:58.834	$GPGGA,170059,2420.9261,N,08048.5025,W,1,9,1.7,15,M,,M,,*5F
06/15/2015	17:00:59.604	$GPGGA,170100,2420.9265,N,08048.5036,W,1,9,1.7,15,M,,M,,*54
06/15/2015	17:01:00.544	$GPGGA,170101,2420.9267,N,08048.5047,W,1,9,1.7,15,M,,M,,*51
06/15/2015	17:01:01.544	$GPGGA,170102,2420.9272,N,08048.5054,W,1,9,1.7,15,M,,M,,*54
06/15/2015	17:01:02.534	$GPGGA,170103,2420.9279,N,08048.5065,W,1,9,1.7,15,M,,M,,*5C
06/15/2015	17:01:03.564	$GPGGA,170104,2420.9282,N,08048.5076,W,1,9,1.7,15,M,,M,,*5D
06/15/2015	17:01:04.574	$GPGGA,170105,2420.9286,N,08048.5087,W,1,9,1.7,15,M,,M,,*56
06/15/2015	17:01:05.529	$GPGGA,170106,2420.9293,N,08048.5098,W,1,9,1.7,15,M,,M,,*5F
06/15/2015	17:01:06.533	$GPGGA,170107,2420.9297,N,08048.5110,W,1,9,1.7,15,M,,M,,*5B
06/15/2015	17:01:07.532	$GPGGA,170108,2420.9301,N,08048.5120,W,1,9,1.7,15,M,,M,,*59
06/15/2015	17:01:08.533	$GPGGA,170109,2420.9305,N,08048.5130,W,1,9,1.7,15,M,,M,,*5D
06/15/2015	17:01:09.531	$GPGGA,170110,2420.9311,N,08048.5139,W,1,9,1.7,15,M,,M,,*59
06/15/2015	17:01:10.563	$GPGGA,170111,2420.9315,N,08048.5149,W,1,9,1.7,15,M,,M,,*5B
06/15/2015	17:01:11.553	$GPGGA,170112,2420.9321,N,08048.5162,W,1,9,1.7,15,M,,M,,*56
06/15/2015	17:01:12.513	$GPGGA,170113,2420.9321,N,08048.5162,W,1,9,1.7,15,M,,M,,*57
06/15/2015	17:01:13.543	$GPGGA,170114,2420.9330,N,08048.5185,W,1,9,1.7,15,M,,M,,*59
06/15/2015	17:01:14.544	$GPGGA,170115,2420.9330,N,08048.5185,W,1,9,1.7,15,M,,M,,*58
06/15/2015	17:01:15.534	$GPGGA,170116,2420.9336,N,08048.5196,W,1,9,1.7,15,M,,M,,*5F
06/15/2015	17:01:16.516	$GPGGA,170117,2420.9340,N,08048.5207,W,1,9,1.7,15,M,,M,,*54
06/15/2015	17:01:17.494	$GPGGA,170118,2420.9350,N,08048.5228,W,1,9,1.7,15,M,,M,,*57
06/15/2015	17:01:18.614	$GPGGA,170119,2420.9354,N,08048.5239,W,1,9,1.7,15,M,,M,,*52
06/15/2015	17:01:19.530	$GPGGA,170120,2420.9358,N,08048.5250,W,1,9,1.7,15,M,,M,,*5B
06/15/2015	17:01:20.494	$GPGGA,170121,2420.9358,N,08048.5250,W,1,9,1.7,15,M,,M,,*5A
06/15/2015	17:01:21.504	$GPGGA,170122,2420.9368,N,08048.5275,W,1,9,1.7,15,M,,M,,*5D
06/15/2015	17:01:22.504	$GPGGA,170123,2420.9368,N,08048.5275,W,1,9,1.7,15,M,,M,,*5C
06/15/2015	17:01:23.593	$GPGGA,170124,2420.9376,N,08048.5297,W,1,9,1.7,15,M,,M,,*58
06/15/2015	17:01:24.503	$GPGGA,170125,2420.9376,N,08048.5297,W,1,9,1.7,15,M,,M,,*59
06/15/2015	17:01:25.616	$GPGGA,170126,2420.9384,N,08048.5319,W,1,9,1.7,15,M,,M,,*50
06/15/2015	17:01:26.503	$GPGGA,170127,2420.9384,N,08048.5319,W,1,9,1.7,15,M,,M,,*51
06/15/2015	17:01:27.583	$GPGGA,170128,2420.9393,N,08048.5343,W,1,9,1.7,15,M,,M,,*57
06/15/2015	17:01:28.493	$GPGGA,170129,2420.9393,N,08048.5343,W,1,9,1.7,15,M,,M,,*56
06/15/2015	17:01:29.573	$GPGGA,170130,2420.9401,N,08048.5366,W,1,9,1.7,15,M,,M,,*55
06/15/2015	17:01:30.573	$GPGGA,170131,2420.9406,N,08048.5377,W,1,9,1.7,15,M,,M,,*53
06/15/2015	17:01:31.574	$GPGGA,170132,2420.9409,N,08048.5388,W,1,9,1.7,15,M,,M,,*5F
06/15/2015	17:01:32.564	$GPGGA,170133,2420.9413,N,08048.5401,W,1,9,1.7,15,M,,M,,*53
06/15/2015	17:01:33.594	$GPGGA,170134,2420.9419,N,08048.5412,W,1,9,1.7,15,M,,M,,*5C
06/15/2015	17:01:34.554	$GPGGA,170135,2420.9423,N,08048.5423,W,1,9,1.7,15,M,,M,,*56
06/15/2015	17:01:35.584	$GPGGA,170136,2420.9427,N,08048.5434,W,1,9,1.7,15,M,,M,,*57
06/15/2015	17:01:36.554	$GPGGA,170137,2420.9430,N,08048.5445,W,1,9,1.7,15,M,,M,,*56
06/15/2015	17:01:37.554	$GPGGA,170138,2420.9435,N,08048.5455,W,1,9,1.7,15,M,,M,,*5D
06/15/2015	17:01:38.564	$GPGGA,170139,2420.9440,N,08048.5466,W,1,9,1.7,15,M,,M,,*5E
06/15/2015	17:01:39.564	$GPGGA,170140,2420.9444,N,08048.5477,W,1,9,1.7,15,M,,M,,*54
06/15/2015	17:01:40.553	$GPGGA,170141,2420.9448,N,08048.5488,W,1,9,1.7,15,M,,M,,*59
06/15/2015	17:01:41.543	$GPGGA,170142,2420.9453,N,08048.5500,W,1,9,1.7,15,M,,M,,*51
06/15/2015	17:01:42.553	$GPGGA,170143,2420.9456,N,08048.5513,W,1,9,1.7,15,M,,M,,*57
06/15/2015	17:01:43.573	$GPGGA,170144,2420.9460,N,08048.5522,W,1,9,1.7,15,M,,M,,*57
06/15/2015	17:01:44.543	$GPGGA,170145,2420.9464,N,08048.5532,W,1,9,1.7,15,M,,M,,*53
06/15/2015	17:01:45.553	$GPGGA,170146,2420.9469,N,08048.5543,W,1,9,1.7,15,M,,M,,*5B
06/15/2015	17:01:46.543	$GPGGA,170147,2420.9473,N,08048.5553,W,1,9,1.7,15,M,,M,,*50
06/15/2015	17:01:47.563	$GPGGA,170148,2420.9475,N,08048.5565,W,1,9,1.7,15,M,,M,,*5C
06/15/2015	17:01:48.528	$GPGGA,170149,2420.9481,N,08048.5578,W,1,9,1.7,15,M,,M,,*5A
06/15/2015	17:01:49.554	$GPGGA,170150,2420.9485,N,08048.5589,W,1,9,1.7,15,M,,M,,*58
06/15/2015	17:01:50.527	$GPGGA,170151,2420.9489,N,08048.5600,W,1,9,1.7,15,M,,M,,*57
06/15/2015	17:01:51.544	$GPGGA,170152,2420.9492,N,08048.5611,W,1,9,1.7,15,M,,M,,*5E
06/15/2015	17:01:52.534	$GPGGA,170153,2420.9496,N,08048.5621,W,1,9,1.7,15,M,,M,,*58
06/15/2015	17:01:53.527	$GPGGA,170154,2420.9500,N,08048.5630,W,1,9,1.7,15,M,,M,,*51
06/15/2015	17:01:54.534	$GPGGA,170155,2420.9506,N,08048.5640,W,1,9,1.7,15,M,,M,,*51
06/15/2015	17:01:55.564	$GPGGA,170156,2420.9509,N,08048.5654,W,1,9,1.7,15,M,,M,,*58
06/15/2015	17:01:56.517	$GPGGA,170157,2420.9513,N,08048.5665,W,1,9,1.7,15,M,,M,,*50
06/15/2015	17:01:57.520	$GPGGA,170158,2420.9518,N,08048.5676,W,1,9,1.7,15,M,,M,,*56
06/15/2015	17:01:58.518	$GPGGA,170159,2420.9523,N,08048.5687,W,1,9,1.7,15,M,,M,,*51
06/15/2015	17:01:59.563	$GPGGA,170200,2420.9527,N,08048.5698,W,1,9,1.7,15,M,,M,,*54
06/15/2015	17:02:00.503	$GPGGA,170201,2420.9532,N,08048.5708,W,1,9,1.7,15,M,,M,,*59
06/15/2015	17:02:01.543	$GPGGA,170202,2420.9536,N,08048.5719,W,1,9,1.7,15,M,,M,,*5E
06/15/2015	17:02:02.614	$GPGGA,170203,2420.9540,N,08048.5730,W,1,9,1.7,15,M,,M,,*55
06/15/2015	17:02:03.624	$GPGGA,170204,2420.9546,N,08048.5741,W,1,9,1.7,15,M,,M,,*52
06/15/2015	17:02:04.493	$GPGGA,170205,2420.9550,N,08048.5752,W,1,9,1.7,15,M,,M,,*56
06/15/2015	17:02:05.493	$GPGGA,170206,2420.9556,N,08048.5764,W,1,9,1.7,15,M,,M,,*56
06/15/2015	17:02:06.494	$GPGGA,170207,2420.9561,N,08048.5775,W,1,9,1.7,15,M,,M,,*53
06/15/2015	17:02:07.594	$GPGGA,170208,2420.9565,N,08048.5785,W,1,9,1.7,15,M,,M,,*57
06/15/2015	17:02:08.504	$GPGGA,170209,2420.9570,N,08048.5795,W,1,9,1.7,15,M,,M,,*53
06/15/2015	17:02:09.614	$GPGGA,170210,2420.9575,N,08048.5806,W,1,9,1.7,15,M,,M,,*5B
06/15/2015	17:02:10.584	$GPGGA,170211,2420.9579,N,08048.5818,W,1,9,1.7,15,M,,M,,*59
06/15/2015	17:02:11.619	$GPGGA,170212,2420.9586,N,08048.5831,W,1,9,1.7,15,M,,M,,*51
06/15/2015	17:02:12.604	$GPGGA,170213,2420.9590,N,08048.5842,W,1,9,1.7,15,M,,M,,*53
06/15/2015	17:02:13.494	$GPGGA,170214,2420.9596,N,08048.5853,W,1,9,1.7,15,M,,M,,*52
06/15/2015	17:02:14.574	$GPGGA,170215,2420.9601,N,08048.5863,W,1,9,1.7,15,M,,M,,*5D
06/15/2015	17:02:15.483	$GPGGA,170216,2420.9607,N,08048.5874,W,1,9,1.7,15,M,,M,,*5E
06/15/2015	17:02:16.573	$GPGGA,170217,2420.9614,N,08048.5882,W,1,9,1.8,15,M,,M,,*5B
06/15/2015	17:02:17.593	$GPGGA,170218,2420.9621,N,08048.5892,W,1,8,1.8,15,M,,M,,*52
06/15/2015	17:02:18.573	$GPGGA,170219,2420.9626,N,08048.5903,W,1,8,1.8,15,M,,M,,*5D
06/15/2015	17:02:19.573	$GPGGA,170220,2420.9632,N,08048.5914,W,1,8,1.8,15,M,,M,,*54
06/15/2015	17:02:20.563	$GPGGA,170221,2420.9639,N,08048.5925,W,1,8,1.8,15,M,,M,,*5C
06/15/2015	17:02:21.573	$GPGGA,170222,2420.9646,N,08048.5933,W,1,8,1.8,15,M,,M,,*50
06/15/2015	17:02:22.573	$GPGGA,170223,2420.9651,N,08048.5943,W,1,8,1.8,15,M,,M,,*50
06/15/2015	17:02:23.563	$GPGGA,170224,2420.9657,N,08048.5954,W,1,8,1.8,15,M,,M,,*57
06/15/2015	17:02:24.828	$GPGGA,170225,2420.9664,N,08048.5964,W,1,8,1.8,15,M,,M,,*55
06/15/2015	17:02:25.574	$GPGGA,170226,2420.9672,N,08048.5973,W,1,8,1.8,15,M,,M,,*57
06/15/2015	17:02:26.544	$GPGGA,170227,2420.9677,N,08048.5984,W,1,8,1.8,15,M,,M,,*5B
06/15/2015	17:02:27.584	$GPGGA,170228,2420.9683,N,08048.5995,W,1,8,1.8,15,M,,M,,*5F
06/15/2015	17:02:28.544	$GPGGA,170229,2420.9691,N,08048.6004,W,1,8,2.1,15,M,,M,,*55
06/15/2015	17:02:29.554	$GPGGA,170230,2420.9698,N,08048.6015,W,1,8,1.8,15,M,,M,,*5E
06/15/2015	17:02:30.544	$GPGGA,170231,2420.9704,N,08048.6024,W,1,8,1.8,15,M,,M,,*59
06/15/2015	17:02:31.584	$GPGGA,170232,2420.9712,N,08048.6034,W,1,8,1.8,15,M,,M,,*5C
06/15/2015	17:02:32.534	$GPGGA,170233,2420.9720,N,08048.6044,W,1,8,1.8,15,M,,M,,*5B
06/15/2015	17:02:33.563	$GPGGA,170234,2420.9726,N,08048.6055,W,1,8,1.8,15,M,,M,,*5A
06/15/2015	17:02:34.533	$GPGGA,170235,2420.9731,N,08048.6066,W,1,8,1.8,15,M,,M,,*5D
06/15/2015	17:02:35.563	$GPGGA,170236,2420.9738,N,08048.6077,W,1,7,2.1,15,M,,M,,*52
06/15/2015	17:02:36.523	$GPGGA,170237,2420.9744,N,08048.6088,W,1,7,2.1,15,M,,M,,*58
06/15/2015	17:02:37.553	$GPGGA,170238,2420.9751,N,08048.6099,W,1,8,1.8,15,M,,M,,*56
06/15/2015	17:02:38.525	$GPGGA,170239,2420.9756,N,08048.6109,W,1,8,1.8,15,M,,M,,*58
06/15/2015	17:02:39.583	$GPGGA,170240,2420.9763,N,08048.6120,W,1,8,1.8,15,M,,M,,*5B
06/15/2015	17:02:40.523	$GPGGA,170241,2420.9771,N,08048.6129,W,1,8,1.8,15,M,,M,,*50
06/15/2015	17:02:41.520	$GPGGA,170242,2420.9777,N,08048.6139,W,1,8,1.8,15,M,,M,,*54
06/15/2015	17:02:42.534	$GPGGA,170243,2420.9784,N,08048.6150,W,1,8,1.8,15,M,,M,,*56
06/15/2015	17:02:43.564	$GPGGA,170244,2420.9789,N,08048.6161,W,1,8,1.8,15,M,,M,,*5E
06/15/2015	17:02:44.514	$GPGGA,170245,2420.9796,N,08048.6171,W,1,8,1.8,15,M,,M,,*50
06/15/2015	17:02:45.515	$GPGGA,170246,2420.9802,N,08048.6182,W,1,8,1.8,15,M,,M,,*5D
06/15/2015	17:02:46.517	$GPGGA,170247,2420.9809,N,08048.6193,W,1,8,1.8,15,M,,M,,*57
06/15/2015	17:02:47.554	$GPGGA,170248,2420.9816,N,08048.6204,W,1,8,1.8,15,M,,M,,*5B
06/15/2015	17:02:48.515	$GPGGA,170249,2420.9821,N,08048.6215,W,1,8,1.8,15,M,,M,,*5E
06/15/2015	17:02:49.534	$GPGGA,170250,2420.9828,N,08048.6226,W,1,8,1.8,15,M,,M,,*5F
06/15/2015	17:02:50.503	$GPGGA,170251,2420.9834,N,08048.6237,W,1,8,1.8,15,M,,M,,*53
06/15/2015	17:02:51.516	$GPGGA,170252,2420.9839,N,08048.6250,W,1,8,1.8,15,M,,M,,*5C
06/15/2015	17:02:52.493	$GPGGA,170253,2420.9846,N,08048.6259,W,1,8,2.1,15,M,,M,,*56
06/15/2015	17:02:53.529	$GPGGA,170254,2420.9853,N,08048.6270,W,1,8,1.8,15,M,,M,,*54
06/15/2015	17:02:54.503	$GPGGA,170255,2420.9859,N,08048.6282,W,1,8,1.8,15,M,,M,,*52
06/15/2015	17:02:55.523	$GPGGA,170256,2420.9865,N,08048.6293,W,1,8,1.8,16,M,,M,,*5D
06/15/2015	17:02:56.515	$GPGGA,170257,2420.9871,N,08048.6304,W,1,8,1.8,16,M,,M,,*56
06/15/2015	17:02:57.805	$GPGGA,170258,2420.9878,N,08048.6315,W,1,8,1.8,16,M,,M,,*50
06/15/2015	17:02:58.483	$GPGGA,170259,2420.9883,N,08048.6326,W,1,8,1.8,16,M,,M,,*55
06/15/2015	17:02:59.504	$GPGGA,170300,2420.9889,N,08048.6337,W,1,8,1.8,16,M,,M,,*52
06/15/2015	17:03:00.494	$GPGGA,170301,2420.9894,N,08048.6348,W,1,8,1.8,16,M,,M,,*57
06/15/2015	17:03:01.524	$GPGGA,170302,2420.9901,N,08048.6359,W,1,8,1.8,16,M,,M,,*59
06/15/2015	17:03:02.494	$GPGGA,170303,2420.9907,N,08048.6370,W,1,8,1.8,16,M,,M,,*55
06/15/2015	17:03:03.504	$GPGGA,170304,2420.9911,N,08048.6381,W,1,8,1.8,16,M,,M,,*5B
06/15/2015	17:03:04.484	$GPGGA,170305,2420.9918,N,08048.6392,W,1,8,1.8,16,M,,M,,*51
06/15/2015	17:03:05.584	$GPGGA,170306,2420.9924,N,08048.6403,W,1,8,1.8,16,M,,M,,*52
06/15/2015	17:03:06.564	$GPGGA,170307,2420.9929,N,08048.6416,W,1,8,1.8,16,M,,M,,*5A
06/15/2015	17:03:07.484	$GPGGA,170308,2420.9935,N,08048.6427,W,1,8,1.8,16,M,,M,,*5A
06/15/2015	17:03:08.463	$GPGGA,170309,2420.9940,N,08048.6438,W,1,8,1.8,16,M,,M,,*57
06/15/2015	17:03:09.563	$GPGGA,170310,2420.9946,N,08048.6449,W,1,8,1.8,16,M,,M,,*5F
06/15/2015	17:03:10.553	$GPGGA,170311,2420.9951,N,08048.6460,W,1,8,1.8,16,M,,M,,*53
06/15/2015	17:03:11.563	$GPGGA,170312,2420.9957,N,08048.6470,W,1,8,1.8,16,M,,M,,*57
06/15/2015	17:03:12.553	$GPGGA,170313,2420.9962,N,08048.6481,W,1,8,1.8,16,M,,M,,*5E
06/15/2015	17:03:13.563	$GPGGA,170314,2420.9969,N,08048.6492,W,1,8,1.8,16,M,,M,,*50
06/15/2015	17:03:14.553	$GPGGA,170315,2420.9975,N,08048.6503,W,1,8,1.8,16,M,,M,,*55
06/15/2015	17:03:15.573	$GPGGA,170316,2420.9980,N,08048.6515,W,1,8,1.8,16,M,,M,,*5B
06/15/2015	17:03:16.544	$GPGGA,170317,2420.9984,N,08048.6528,W,1,8,1.8,16,M,,M,,*50
06/15/2015	17:03:17.554	$GPGGA,170318,2420.9991,N,08048.6539,W,1,8,1.8,16,M,,M,,*5B
06/15/2015	17:03:18.554	$GPGGA,170319,2420.9997,N,08048.6550,W,1,8,1.8,16,M,,M,,*53
06/15/2015	17:03:19.564	$GPGGA,170320,2421.0002,N,08048.6561,W,1,8,1.8,16,M,,M,,*56
06/15/2015	17:03:20.544	$GPGGA,170321,2421.0008,N,08048.6571,W,1,8,1.8,16,M,,M,,*5C
06/15/2015	17:03:21.594	$GPGGA,170322,2421.0013,N,08048.6582,W,1,8,1.8,16,M,,M,,*59
06/15/2015	17:03:22.544	$GPGGA,170323,2421.0019,N,08048.6594,W,1,8,1.8,16,M,,M,,*55
06/15/2015	17:03:23.574	$GPGGA,170324,2421.0024,N,08048.6607,W,1,7,2.1,16,M,,M,,*50
06/15/2015	17:03:24.534	$GPGGA,170325,2421.0030,N,08048.6615,W,1,7,1.8,16,M,,M,,*5D
06/15/2015	17:03:25.533	$GPGGA,170326,2421.0036,N,08048.6626,W,1,8,1.8,16,M,,M,,*57
06/15/2015	17:03:26.524	$GPGGA,170327,2421.0042,N,08048.6637,W,1,8,1.8,16,M,,M,,*55
06/15/2015	17:03:27.553	$GPGGA,170328,2421.0048,N,08048.6647,W,1,8,1.8,16,M,,M,,*57
06/15/2015	17:03:28.543	$GPGGA,170329,2421.0053,N,08048.6658,W,1,8,1.8,16,M,,M,,*52
06/15/2015	17:03:29.518	$GPGGA,170330,2421.0060,N,08048.6669,W,1,8,1.8,16,M,,M,,*58
06/15/2015	17:03:30.513	$GPGGA,170331,2421.0063,N,08048.6677,W,1,8,1.8,16,M,,M,,*55
06/15/2015	17:03:31.563	$GPGGA,170332,2421.0069,N,08048.6687,W,1,8,1.8,16,M,,M,,*53
06/15/2015	17:03:32.503	$GPGGA,170333,2421.0076,N,08048.6698,W,1,8,1.8,16,M,,M,,*52
06/15/2015	17:03:33.503	$GPGGA,170334,2421.0081,N,08048.6707,W,1,8,1.8,16,M,,M,,*5A
06/15/2015	17:03:34.516	$GPGGA,170335,2421.0085,N,08048.6720,W,1,8,1.8,16,M,,M,,*5A
06/15/2015	17:03:36.027	$GPGGA,170336,2421.0092,N,08048.6730,W,1,8,1.8,16,M,,M,,*5E
06/15/2015	17:03:36.504	$GPGGA,170337,2421.0098,N,08048.6741,W,1,8,1.8,16,M,,M,,*53
06/15/2015	17:03:37.528	$GPGGA,170338,2421.0103,N,08048.6750,W,1,8,1.8,16,M,,M,,*5F
06/15/2015	17:03:38.494	$GPGGA,170339,2421.0107,N,08048.6759,W,1,8,1.8,16,M,,M,,*53
06/15/2015	17:03:39.624	$GPGGA,170340,2421.0114,N,08048.6768,W,1,8,1.8,16,M,,M,,*5D
06/15/2015	17:03:40.518	$GPGGA,170341,2421.0121,N,08048.6779,W,1,8,1.8,16,M,,M,,*5A
06/15/2015	17:03:41.520	$GPGGA,170342,2421.0125,N,08048.6792,W,1,8,1.8,16,M,,M,,*58
06/15/2015	17:03:42.494	$GPGGA,170343,2421.0130,N,08048.6803,W,1,8,1.8,16,M,,M,,*5A
06/15/2015	17:03:43.515	$GPGGA,170344,2421.0135,N,08048.6811,W,1,8,1.8,16,M,,M,,*5B
06/15/2015	17:03:44.483	$GPGGA,170345,2421.0142,N,08048.6821,W,1,8,1.8,16,M,,M,,*59
06/15/2015	17:03:45.483	$GPGGA,170346,2421.0146,N,08048.6829,W,1,8,1.8,16,M,,M,,*56
06/15/2015	17:03:46.593	$GPGGA,170347,2421.0152,N,08048.6839,W,1,8,1.8,16,M,,M,,*53
06/15/2015	17:03:47.593	$GPGGA,170348,2421.0159,N,08048.6848,W,1,8,1.8,16,M,,M,,*51
06/15/2015	17:03:48.493	$GPGGA,170349,2421.0164,N,08048.6860,W,1,8,1.8,16,M,,M,,*54
06/15/2015	17:03:49.493	$GPGGA,170350,2421.0170,N,08048.6869,W,1,8,1.8,16,M,,M,,*50
06/15/2015	17:03:50.573	$GPGGA,170351,2421.0175,N,08048.6879,W,1,8,1.8,16,M,,M,,*55
06/15/2015	17:03:51.634	$GPGGA,170352,2421.0182,N,08048.6889,W,1,8,1.8,16,M,,M,,*51
06/15/2015	17:03:52.584	$GPGGA,170353,2421.0188,N,08048.6898,W,1,8,1.8,16,M,,M,,*5A
06/15/2015	17:03:53.594	$GPGGA,170354,2421.0193,N,08048.6909,W,1,8,1.8,16,M,,M,,*5E
06/15/2015	17:03:54.585	$GPGGA,170355,2421.0199,N,08048.6919,W,1,8,1.8,16,M,,M,,*54
06/15/2015	17:03:55.484	$GPGGA,170356,2421.0206,N,08048.6929,W,1,8,1.8,16,M,,M,,*51
06/15/2015	17:03:56.554	$GPGGA,170357,2421.0212,N,08048.6938,W,1,8,1.8,16,M,,M,,*55
06/15/2015	17:03:57.554	$GPGGA,170358,2421.0217,N,08048.6948,W,1,8,1.8,16,M,,M,,*58
06/15/2015	17:03:58.564	$GPGGA,170359,2421.0222,N,08048.6958,W,1,8,1.8,16,M,,M,,*5E
06/15/2015	17:03:59.594	$GPGGA,170400,2421.0229,N,08048.6969,W,1,8,1.8,16,M,,M,,*5C
06/15/2015	17:04:00.543	$GPGGA,170401,2421.0236,N,08048.6980,W,1,8,1.8,16,M,,M,,*54
06/15/2015	17:04:01.563	$GPGGA,170402,2421.0242,N,08048.6991,W,1,8,1.8,16,M,,M,,*54
06/15/2015	17:04:02.543	$GPGGA,170403,2421.0247,N,08048.7001,W,1,8,1.8,16,M,,M,,*51
06/15/2015	17:04:03.603	$GPGGA,170404,2421.0253,N,08048.7012,W,1,7,2.1,16,M,,M,,*54
06/15/2015	17:04:04.543	$GPGGA,170405,2421.0258,N,08048.7021,W,1,7,2.1,16,M,,M,,*5E
06/15/2015	17:04:05.563	$GPGGA,170406,2421.0266,N,08048.7031,W,1,8,1.8,16,M,,M,,*54
06/15/2015	17:04:06.543	$GPGGA,170407,2421.0273,N,08048.7042,W,1,8,1.8,16,M,,M,,*55
06/15/2015	17:04:07.563	$GPGGA,170408,2421.0276,N,08048.7055,W,1,8,1.8,16,M,,M,,*59
06/15/2015	17:04:08.543	$GPGGA,170409,2421.0284,N,08048.7064,W,1,8,2.1,16,M,,M,,*5D
06/15/2015	17:04:09.554	$GPGGA,170410,2421.0290,N,08048.7075,W,1,8,1.8,16,M,,M,,*5A
06/15/2015	17:04:10.536	$GPGGA,170411,2421.0297,N,08048.7085,W,1,8,1.8,16,M,,M,,*53
06/15/2015	17:04:11.564	$GPGGA,170412,2421.0304,N,08048.7095,W,1,8,1.8,16,M,,M,,*5A
06/15/2015	17:04:12.544	$GPGGA,170413,2421.0309,N,08048.7104,W,1,8,1.8,16,M,,M,,*5F
06/15/2015	17:04:13.554	$GPGGA,170414,2421.0315,N,08048.7114,W,1,8,1.8,16,M,,M,,*54
06/15/2015	17:04:14.531	$GPGGA,170415,2421.0323,N,08048.7124,W,1,8,1.8,16,M,,M,,*53
06/15/2015	17:04:15.534	$GPGGA,170416,2421.0327,N,08048.7135,W,1,8,1.8,16,M,,M,,*54
06/15/2015	17:04:16.530	$GPGGA,170417,2421.0334,N,08048.7146,W,1,8,1.8,16,M,,M,,*53
06/15/2015	17:04:17.520	$GPGGA,170418,2421.0341,N,08048.7158,W,1,8,1.8,16,M,,M,,*51
06/15/2015	17:04:18.526	$GPGGA,170419,2421.0347,N,08048.7169,W,1,8,1.7,16,M,,M,,*5B
06/15/2015	17:04:19.553	$GPGGA,170420,2421.0351,N,08048.7180,W,1,9,1.7,16,M,,M,,*50
06/15/2015	17:04:20.532	$GPGGA,170421,2421.0356,N,08048.7190,W,1,9,1.7,15,M,,M,,*54
06/15/2015	17:04:21.543	$GPGGA,170422,2421.0363,N,08048.7201,W,1,9,1.7,15,M,,M,,*5A
06/15/2015	17:04:22.527	$GPGGA,170423,2421.0369,N,08048.7214,W,1,9,1.7,15,M,,M,,*55
06/15/2015	17:04:24.543	$GPGGA,170425,2421.0381,N,08048.7236,W,1,9,1.7,15,M,,M,,*55
06/15/2015	17:04:25.513	$GPGGA,170426,2421.0387,N,08048.7247,W,1,9,1.7,15,M,,M,,*56
06/15/2015	17:04:26.494	$GPGGA,170427,2421.0392,N,08048.7258,W,1,9,1.7,15,M,,M,,*5D
06/15/2015	17:04:27.526	$GPGGA,170428,2421.0396,N,08048.7269,W,1,9,1.7,15,M,,M,,*54
06/15/2015	17:04:28.494	$GPGGA,170429,2421.0403,N,08048.7279,W,1,9,1.7,15,M,,M,,*5F
06/15/2015	17:04:29.494	$GPGGA,170430,2421.0410,N,08048.7290,W,1,9,1.7,15,M,,M,,*52
06/15/2015	17:04:30.504	$GPGGA,170431,2421.0414,N,08048.7301,W,1,9,1.7,15,M,,M,,*5E
06/15/2015	17:04:31.654	$GPGGA,170432,2421.0420,N,08048.7312,W,1,9,1.7,15,M,,M,,*58
06/15/2015	17:04:32.584	$GPGGA,170433,2421.0425,N,08048.7323,W,1,9,1.7,15,M,,M,,*5E
06/15/2015	17:04:33.584	$GPGGA,170434,2421.0432,N,08048.7334,W,1,9,1.7,15,M,,M,,*59
06/15/2015	17:04:34.494	$GPGGA,170435,2421.0436,N,08048.7345,W,1,9,1.7,15,M,,M,,*5A
06/15/2015	17:04:35.503	$GPGGA,170436,2421.0443,N,08048.7355,W,1,9,1.7,15,M,,M,,*5A
06/15/2015	17:04:36.493	$GPGGA,170437,2421.0448,N,08048.7366,W,1,9,1.7,15,M,,M,,*50
06/15/2015	17:04:37.573	$GPGGA,170438,2421.0453,N,08048.7377,W,1,8,1.7,15,M,,M,,*54
06/15/2015	17:04:38.573	$GPGGA,170439,2421.0460,N,08048.7388,W,1,8,1.7,15,M,,M,,*55
06/15/2015	17:04:39.653	$GPGGA,170440,2421.0466,N,08048.7399,W,1,9,1.7,15,M,,M,,*5C
06/15/2015	17:04:40.563	$GPGGA,170441,2421.0471,N,08048.7410,W,1,9,1.7,15,M,,M,,*5D
06/15/2015	17:04:41.615	$GPGGA,170442,2421.0477,N,08048.7421,W,1,9,1.7,15,M,,M,,*5A
06/15/2015	17:04:42.573	$GPGGA,170443,2421.0482,N,08048.7431,W,1,9,1.7,15,M,,M,,*50
06/15/2015	17:04:43.603	$GPGGA,170444,2421.0489,N,08048.7442,W,1,9,1.7,15,M,,M,,*58
06/15/2015	17:04:44.554	$GPGGA,170445,2421.0495,N,08048.7451,W,1,9,1.7,15,M,,M,,*56
06/15/2015	17:04:45.574	$GPGGA,170446,2421.0500,N,08048.7464,W,1,9,1.7,15,M,,M,,*5E
06/15/2015	17:04:46.564	$GPGGA,170447,2421.0507,N,08048.7475,W,1,9,1.7,15,M,,M,,*58
06/15/2015	17:04:47.614	$GPGGA,170448,2421.0514,N,08048.7486,W,1,9,1.7,15,M,,M,,*59
06/15/2015	17:04:48.554	$GPGGA,170449,2421.0519,N,08048.7496,W,1,9,1.7,15,M,,M,,*54
06/15/2015	17:04:49.544	$GPGGA,170450,2421.0526,N,08048.7507,W,1,9,1.7,15,M,,M,,*59
06/15/2015	17:04:51.664	$GPGGA,170452,2421.0537,N,08048.7529,W,1,9,1.7,15,M,,M,,*57
06/15/2015	17:04:52.553	$GPGGA,170453,2421.0544,N,08048.7540,W,1,9,2.0,15,M,,M,,*59
06/15/2015	17:04:53.563	$GPGGA,170454,2421.0550,N,08048.7551,W,1,8,2.0,15,M,,M,,*5A
06/15/2015	17:04:54.543	$GPGGA,170455,2421.0558,N,08048.7561,W,1,8,1.7,15,M,,M,,*54
06/15/2015	17:04:55.563	$GPGGA,170456,2421.0565,N,08048.7572,W,1,9,1.7,15,M,,M,,*5A
06/15/2015	17:04:56.553	$GPGGA,170457,2421.0569,N,08048.7583,W,1,9,1.7,15,M,,M,,*59
06/15/2015	17:04:57.533	$GPGGA,170458,2421.0575,N,08048.7594,W,1,9,2.0,15,M,,M,,*59
06/15/2015	17:04:58.533	$GPGGA,170459,2421.0583,N,08048.7603,W,1,9,1.7,15,M,,M,,*58
06/15/2015	17:04:59.633	$GPGGA,170500,2421.0589,N,08048.7613,W,1,9,1.7,15,M,,M,,*5E
06/15/2015	17:05:00.533	$GPGGA,170501,2421.0596,N,08048.7624,W,1,9,1.7,15,M,,M,,*55
06/15/2015	17:05:01.564	$GPGGA,170502,2421.0602,N,08048.7634,W,1,9,1.7,15,M,,M,,*59
06/15/2015	17:05:02.515	$GPGGA,170503,2421.0609,N,08048.7645,W,1,9,1.7,15,M,,M,,*55
06/15/2015	17:05:03.594	$GPGGA,170504,2421.0615,N,08048.7656,W,1,9,1.7,15,M,,M,,*5D
06/15/2015	17:05:04.515	$GPGGA,170505,2421.0620,N,08048.7666,W,1,9,1.7,15,M,,M,,*59
06/15/2015	17:05:05.544	$GPGGA,170506,2421.0627,N,08048.7677,W,1,9,1.7,15,M,,M,,*5D
06/15/2015	17:05:06.522	$GPGGA,170507,2421.0633,N,08048.7688,W,1,9,1.7,15,M,,M,,*59
06/15/2015	17:05:07.554	$GPGGA,170508,2421.0638,N,08048.7700,W,1,9,1.7,15,M,,M,,*5C
06/15/2015	17:05:08.504	$GPGGA,170509,2421.0645,N,08048.7710,W,1,9,1.7,15,M,,M,,*56
06/15/2015	17:05:09.554	$GPGGA,170510,2421.0652,N,08048.7721,W,1,9,1.7,15,M,,M,,*5A
06/15/2015	17:05:10.519	$GPGGA,170511,2421.0658,N,08048.7733,W,1,9,1.7,16,M,,M,,*51
06/15/2015	17:05:11.553	$GPGGA,170512,2421.0663,N,08048.7745,W,1,9,1.7,16,M,,M,,*5B
06/15/2015	17:05:12.503	$GPGGA,170513,2421.0669,N,08048.7757,W,1,9,1.7,16,M,,M,,*53
06/15/2015	17:05:13.525	$GPGGA,170514,2421.0676,N,08048.7767,W,1,9,1.7,16,M,,M,,*59
06/15/2015	17:05:14.503	$GPGGA,170515,2421.0681,N,08048.7778,W,1,9,1.7,16,M,,M,,*5E
06/15/2015	17:05:15.524	$GPGGA,170516,2421.0685,N,08048.7789,W,1,9,1.7,16,M,,M,,*57
06/15/2015	17:05:16.493	$GPGGA,170517,2421.0692,N,08048.7800,W,1,9,1.7,16,M,,M,,*5E
06/15/2015	17:05:17.493	$GPGGA,170518,2421.0698,N,08048.7811,W,1,9,1.7,16,M,,M,,*5B
06/15/2015	17:05:18.515	$GPGGA,170519,2421.0703,N,08048.7822,W,1,9,1.7,16,M,,M,,*59
06/15/2015	17:05:19.527	$GPGGA,170520,2421.0709,N,08048.7832,W,1,9,1.7,16,M,,M,,*58
06/15/2015	17:05:20.494	$GPGGA,170521,2421.0714,N,08048.7843,W,1,9,1.7,16,M,,M,,*53
06/15/2015	17:05:21.604	$GPGGA,170522,2421.0720,N,08048.7854,W,1,9,1.7,16,M,,M,,*51
06/15/2015	17:05:22.504	$GPGGA,170523,2421.0725,N,08048.7865,W,1,9,1.7,16,M,,M,,*57
06/15/2015	17:05:23.594	$GPGGA,170524,2421.0732,N,08048.7876,W,1,9,1.7,16,M,,M,,*54
06/15/2015	17:05:24.494	$GPGGA,170525,2421.0737,N,08048.7887,W,1,9,1.7,16,M,,M,,*5E
06/15/2015	17:05:25.494	$GPGGA,170526,2421.0742,N,08048.7897,W,1,9,1.7,16,M,,M,,*5E
06/15/2015	17:05:26.494	$GPGGA,170527,2421.0748,N,08048.7908,W,1,9,1.7,16,M,,M,,*52
06/15/2015	17:05:27.622	$GPGGA,170528,2421.0753,N,08048.7919,W,1,9,1.7,16,M,,M,,*57
06/15/2015	17:05:28.573	$GPGGA,170529,2421.0759,N,08048.7931,W,1,9,1.7,16,M,,M,,*56
06/15/2015	17:05:29.563	$GPGGA,170530,2421.0764,N,08048.7942,W,1,9,1.7,15,M,,M,,*57
06/15/2015	17:05:30.563	$GPGGA,170531,2421.0768,N,08048.7953,W,1,9,1.7,15,M,,M,,*5A
06/15/2015	17:05:31.593	$GPGGA,170532,2421.0775,N,08048.7963,W,1,9,1.7,15,M,,M,,*56
06/15/2015	17:05:32.553	$GPGGA,170533,2421.0781,N,08048.7974,W,1,9,2.0,15,M,,M,,*5E
06/15/2015	17:05:33.553	$GPGGA,170534,2421.0786,N,08048.7985,W,1,8,1.8,15,M,,M,,*5A
06/15/2015	17:05:34.563	$GPGGA,170535,2421.0792,N,08048.7996,W,1,8,1.8,15,M,,M,,*5C
06/15/2015	17:05:35.583	$GPGGA,170536,2421.0797,N,08048.8007,W,1,9,1.8,15,M,,M,,*55
06/15/2015	17:05:36.544	$GPGGA,170537,2421.0804,N,08048.8018,W,1,9,1.8,15,M,,M,,*5F
06/15/2015	17:05:37.564	$GPGGA,170538,2421.0810,N,08048.8028,W,1,9,1.8,15,M,,M,,*56
06/15/2015	17:05:38.564	$GPGGA,170539,2421.0817,N,08048.8039,W,1,9,1.8,15,M,,M,,*50
06/15/2015	17:05:39.554	$GPGGA,170540,2421.0822,N,08048.8049,W,1,9,1.8,15,M,,M,,*5F
06/15/2015	17:05:40.554	$GPGGA,170541,2421.0828,N,08048.8060,W,1,9,1.8,15,M,,M,,*5F
06/15/2015	17:05:41.564	$GPGGA,170542,2421.0835,N,08048.8071,W,1,9,1.8,15,M,,M,,*50
06/15/2015	17:05:42.574	$GPGGA,170543,2421.0840,N,08048.8082,W,1,9,1.8,15,M,,M,,*5F
06/15/2015	17:05:43.564	$GPGGA,170544,2421.0847,N,08048.8094,W,1,9,1.8,15,M,,M,,*58
06/15/2015	17:05:44.544	$GPGGA,170545,2421.0854,N,08048.8104,W,1,9,1.8,15,M,,M,,*53
06/15/2015	17:05:45.563	$GPGGA,170546,2421.0858,N,08048.8115,W,1,9,1.8,15,M,,M,,*5C
06/15/2015	17:05:46.523	$GPGGA,170547,2421.0865,N,08048.8125,W,1,9,1.8,15,M,,M,,*50
06/15/2015	17:05:47.563	$GPGGA,170548,2421.0872,N,08048.8136,W,1,9,1.8,15,M,,M,,*5B
06/15/2015	17:05:48.523	$GPGGA,170549,2421.0878,N,08048.8148,W,1,9,1.8,15,M,,M,,*59
06/15/2015	17:05:49.523	$GPGGA,170550,2421.0883,N,08048.8159,W,1,9,1.8,15,M,,M,,*55
06/15/2015	17:05:50.533	$GPGGA,170551,2421.0890,N,08048.8170,W,1,9,1.8,15,M,,M,,*5D
06/15/2015	17:05:51.524	$GPGGA,170552,2421.0896,N,08048.8180,W,1,9,1.8,15,M,,M,,*57
06/15/2015	17:05:52.533	$GPGGA,170553,2421.0902,N,08048.8190,W,1,9,1.8,15,M,,M,,*5B
06/15/2015	17:05:53.543	$GPGGA,170554,2421.0909,N,08048.8202,W,1,9,1.8,15,M,,M,,*5F
06/15/2015	17:05:54.524	$GPGGA,170555,2421.0915,N,08048.8213,W,1,9,1.8,15,M,,M,,*53
06/15/2015	17:05:55.554	$GPGGA,170556,2421.0919,N,08048.8226,W,1,8,2.0,15,M,,M,,*50
06/15/2015	17:05:56.504	$GPGGA,170557,2421.0927,N,08048.8237,W,1,8,2.0,15,M,,M,,*5C
06/15/2015	17:05:57.615	$GPGGA,170558,2421.0934,N,08048.8246,W,1,8,2.0,15,M,,M,,*57
06/15/2015	17:05:58.604	$GPGGA,170559,2421.0940,N,08048.8256,W,1,8,1.8,15,M,,M,,*5F
06/15/2015	17:05:59.634	$GPGGA,170600,2421.0945,N,08048.8267,W,1,9,1.8,15,M,,M,,*56
06/15/2015	17:06:00.516	$GPGGA,170601,2421.0952,N,08048.8277,W,1,9,1.8,15,M,,M,,*50
06/15/2015	17:06:01.594	$GPGGA,170602,2421.0959,N,08048.8288,W,1,9,1.8,15,M,,M,,*58
06/15/2015	17:06:02.493	$GPGGA,170603,2421.0966,N,08048.8298,W,1,9,1.8,16,M,,M,,*57
06/15/2015	17:06:03.514	$GPGGA,170604,2421.0972,N,08048.8309,W,1,9,1.8,16,M,,M,,*5C
06/15/2015	17:06:04.584	$GPGGA,170605,2421.0977,N,08048.8320,W,1,9,1.8,16,M,,M,,*53
06/15/2015	17:06:05.483	$GPGGA,170606,2421.0984,N,08048.8331,W,1,9,1.8,16,M,,M,,*5C
06/15/2015	17:06:06.573	$GPGGA,170607,2421.0991,N,08048.8342,W,1,9,1.8,16,M,,M,,*5D
06/15/2015	17:06:07.484	$GPGGA,170608,2421.0997,N,08048.8353,W,1,9,1.8,16,M,,M,,*54
06/15/2015	17:06:08.563	$GPGGA,170609,2421.1003,N,08048.8363,W,1,9,1.8,16,M,,M,,*53
06/15/2015	17:06:09.593	$GPGGA,170610,2421.1009,N,08048.8372,W,1,9,1.8,16,M,,M,,*51
06/15/2015	17:06:10.483	$GPGGA,170611,2421.1014,N,08048.8383,W,1,9,1.8,16,M,,M,,*52
06/15/2015	17:06:11.583	$GPGGA,170612,2421.1021,N,08048.8393,W,1,9,1.8,16,M,,M,,*56
06/15/2015	17:06:12.473	$GPGGA,170613,2421.1028,N,08048.8404,W,1,9,1.8,16,M,,M,,*57
06/15/2015	17:06:13.593	$GPGGA,170614,2421.1032,N,08048.8417,W,1,9,1.8,16,M,,M,,*59
06/15/2015	17:06:14.473	$GPGGA,170615,2421.1039,N,08048.8428,W,1,9,1.8,16,M,,M,,*5F
06/15/2015	17:06:15.603	$GPGGA,170616,2421.1045,N,08048.8437,W,1,8,2.0,16,M,,M,,*53
06/15/2015	17:06:16.553	$GPGGA,170617,2421.1050,N,08048.8447,W,1,8,1.8,16,M,,M,,*5A
06/15/2015	17:06:17.563	$GPGGA,170618,2421.1057,N,08048.8457,W,1,9,1.8,16,M,,M,,*52
06/15/2015	17:06:19.014	$GPGGA,170619,2421.1063,N,08048.8468,W,1,9,1.8,16,M,,M,,*58
06/15/2015	17:06:19.563	$GPGGA,170620,2421.1068,N,08048.8477,W,1,9,1.8,16,M,,M,,*57
06/15/2015	17:06:20.552	$GPGGA,170621,2421.1074,N,08048.8488,W,1,9,1.8,16,M,,M,,*5B
06/15/2015	17:06:21.552	$GPGGA,170622,2421.1081,N,08048.8498,W,1,9,1.8,16,M,,M,,*53
06/15/2015	17:06:22.553	$GPGGA,170623,2421.1086,N,08048.8508,W,1,9,1.8,16,M,,M,,*5D
06/15/2015	17:06:23.573	$GPGGA,170624,2421.1092,N,08048.8519,W,1,9,1.8,16,M,,M,,*5F
06/15/2015	17:06:24.553	$GPGGA,170625,2421.1097,N,08048.8530,W,1,9,1.8,16,M,,M,,*50
06/15/2015	17:06:25.553	$GPGGA,170626,2421.1104,N,08048.8540,W,1,9,1.8,16,M,,M,,*5F
06/15/2015	17:06:26.533	$GPGGA,170627,2421.1110,N,08048.8551,W,1,9,1.8,16,M,,M,,*5B
06/15/2015	17:06:27.583	$GPGGA,170628,2421.1114,N,08048.8560,W,1,9,1.8,16,M,,M,,*52
06/15/2015	17:06:28.527	$GPGGA,170629,2421.1121,N,08048.8570,W,1,9,1.8,16,M,,M,,*54
06/15/2015	17:06:29.553	$GPGGA,170630,2421.1126,N,08048.8580,W,1,8,2.0,16,M,,M,,*5E
06/15/2015	17:06:30.527	$GPGGA,170631,2421.1132,N,08048.8591,W,1,8,1.8,16,M,,M,,*51
06/15/2015	17:06:31.563	$GPGGA,170632,2421.1139,N,08048.8600,W,1,9,1.8,16,M,,M,,*53
06/15/2015	17:06:32.524	$GPGGA,170633,2421.1143,N,08048.8611,W,1,9,1.8,16,M,,M,,*5F
06/15/2015	17:06:33.553	$GPGGA,170634,2421.1150,N,08048.8620,W,1,9,1.8,16,M,,M,,*58
06/15/2015	17:06:34.515	$GPGGA,170635,2421.1156,N,08048.8629,W,1,9,1.8,16,M,,M,,*56
06/15/2015	17:06:35.533	$GPGGA,170636,2421.1162,N,08048.8638,W,1,9,1.8,16,M,,M,,*52
06/15/2015	17:06:36.525	$GPGGA,170637,2421.1169,N,08048.8649,W,1,9,1.8,16,M,,M,,*5E
06/15/2015	17:06:37.523	$GPGGA,170638,2421.1174,N,08048.8660,W,1,9,1.8,16,M,,M,,*56
06/15/2015	17:06:38.528	$GPGGA,170639,2421.1180,N,08048.8671,W,1,9,2.0,16,M,,M,,*57
06/15/2015	17:06:39.525	$GPGGA,170640,2421.1186,N,08048.8682,W,1,9,1.8,16,M,,M,,*58
06/15/2015	17:06:40.510	$GPGGA,170641,2421.1191,N,08048.8692,W,1,9,1.8,16,M,,M,,*5E
06/15/2015	17:06:41.521	$GPGGA,170642,2421.1197,N,08048.8703,W,1,9,1.8,16,M,,M,,*52
06/15/2015	17:06:42.493	$GPGGA,170643,2421.1201,N,08048.8712,W,1,9,1.8,16,M,,M,,*5F
06/15/2015	17:06:43.533	$GPGGA,170644,2421.1208,N,08048.8721,W,1,9,1.8,16,M,,M,,*51
06/15/2015	17:06:44.506	$GPGGA,170645,2421.1216,N,08048.8732,W,1,9,1.8,16,M,,M,,*5D
06/15/2015	17:06:45.493	$GPGGA,170646,2421.1221,N,08048.8744,W,1,9,1.8,16,M,,M,,*5B
06/15/2015	17:06:46.510	$GPGGA,170647,2421.1227,N,08048.8755,W,1,9,1.8,16,M,,M,,*5C
06/15/2015	17:06:47.523	$GPGGA,170648,2421.1233,N,08048.8766,W,1,9,1.8,16,M,,M,,*56
06/15/2015	17:06:48.493	$GPGGA,170649,2421.1240,N,08048.8775,W,1,9,1.8,16,M,,M,,*51
06/15/2015	17:06:49.483	$GPGGA,170650,2421.1245,N,08048.8786,W,1,9,1.8,16,M,,M,,*50
06/15/2015	17:06:50.512	$GPGGA,170651,2421.1250,N,08048.8797,W,1,9,1.8,16,M,,M,,*55
06/15/2015	17:06:51.609	$GPGGA,170652,2421.1256,N,08048.8808,W,1,9,1.8,16,M,,M,,*59
06/15/2015	17:06:52.493	$GPGGA,170653,2421.1263,N,08048.8819,W,1,9,1.8,16,M,,M,,*5E
06/15/2015	17:06:53.593	$GPGGA,170654,2421.1269,N,08048.8829,W,1,9,1.8,16,M,,M,,*50
06/15/2015	17:06:54.823	$GPGGA,170655,2421.1274,N,08048.8840,W,1,9,1.8,16,M,,M,,*52
06/15/2015	17:06:55.517	$GPGGA,170656,2421.1281,N,08048.8851,W,1,9,1.8,16,M,,M,,*5B
06/15/2015	17:06:56.573	$GPGGA,170657,2421.1288,N,08048.8862,W,1,9,1.8,16,M,,M,,*53
06/15/2015	17:06:57.474	$GPGGA,170658,2421.1292,N,08048.8873,W,1,9,1.8,16,M,,M,,*57
06/15/2015	17:06:59.007	$GPGGA,170659,2421.1299,N,08048.8883,W,1,9,1.8,16,M,,M,,*52
06/15/2015	17:06:59.583	$GPGGA,170700,2421.1306,N,08048.8891,W,1,9,1.8,16,M,,M,,*5B
06/15/2015	17:07:00.473	$GPGGA,170701,2421.1313,N,08048.8902,W,1,9,1.8,16,M,,M,,*55
06/15/2015	17:07:01.563	$GPGGA,170702,2421.1319,N,08048.8913,W,1,9,1.8,16,M,,M,,*5C
06/15/2015	17:07:02.563	$GPGGA,170703,2421.1326,N,08048.8924,W,1,9,1.8,16,M,,M,,*55
06/15/2015	17:07:03.573	$GPGGA,170704,2421.1333,N,08048.8934,W,1,9,1.8,16,M,,M,,*57
06/15/2015	17:07:04.553	$GPGGA,170705,2421.1338,N,08048.8945,W,1,9,1.8,16,M,,M,,*5B
06/15/2015	17:07:05.563	$GPGGA,170706,2421.1344,N,08048.8956,W,1,9,1.8,16,M,,M,,*51
06/15/2015	17:07:06.543	$GPGGA,170707,2421.1350,N,08048.8965,W,1,9,1.8,16,M,,M,,*55
06/15/2015	17:07:07.583	$GPGGA,170708,2421.1357,N,08048.8975,W,1,9,1.8,16,M,,M,,*5C
06/15/2015	17:07:08.553	$GPGGA,170709,2421.1364,N,08048.8985,W,1,9,1.8,16,M,,M,,*52
06/15/2015	17:07:09.543	$GPGGA,170710,2421.1370,N,08048.8996,W,1,9,1.8,16,M,,M,,*5D
06/15/2015	17:07:10.533	$GPGGA,170711,2421.1375,N,08048.9007,W,1,9,1.8,16,M,,M,,*59
06/15/2015	17:07:11.583	$GPGGA,170712,2421.1382,N,08048.9017,W,1,9,1.8,16,M,,M,,*53
06/15/2015	17:07:12.542	$GPGGA,170713,2421.1388,N,08048.9028,W,1,9,1.8,16,M,,M,,*54
06/15/2015	17:07:13.552	$GPGGA,170714,2421.1393,N,08048.9037,W,1,9,1.8,16,M,,M,,*57
06/15/2015	17:07:14.543	$GPGGA,170715,2421.1400,N,08048.9046,W,1,9,1.8,16,M,,M,,*5D
06/15/2015	17:07:15.583	$GPGGA,170716,2421.1407,N,08048.9057,W,1,9,1.8,16,M,,M,,*59
06/15/2015	17:07:16.523	$GPGGA,170717,2421.1413,N,08048.9068,W,1,9,1.8,16,M,,M,,*51
06/15/2015	17:07:17.553	$GPGGA,170718,2421.1418,N,08048.9079,W,1,9,1.8,16,M,,M,,*55
06/15/2015	17:07:18.543	$GPGGA,170719,2421.1422,N,08048.9090,W,1,9,2.0,16,M,,M,,*51
06/15/2015	17:07:19.543	$GPGGA,170720,2421.1429,N,08048.9098,W,1,8,2.0,16,M,,M,,*59
06/15/2015	17:07:20.523	$GPGGA,170721,2421.1436,N,08048.9108,W,1,8,1.8,16,M,,M,,*55
06/15/2015	17:07:21.543	$GPGGA,170722,2421.1442,N,08048.9118,W,1,9,1.8,16,M,,M,,*55
06/15/2015	17:07:22.514	$GPGGA,170723,2421.1447,N,08048.9129,W,1,9,1.8,16,M,,M,,*53
06/15/2015	17:07:23.543	$GPGGA,170724,2421.1454,N,08048.9138,W,1,9,1.8,16,M,,M,,*56
06/15/2015	17:07:24.533	$GPGGA,170725,2421.1461,N,08048.9148,W,1,9,1.8,16,M,,M,,*56
06/15/2015	17:07:25.553	$GPGGA,170726,2421.1465,N,08048.9159,W,1,9,1.8,16,M,,M,,*51
06/15/2015	17:07:26.503	$GPGGA,170727,2421.1471,N,08048.9169,W,1,9,1.8,16,M,,M,,*56
06/15/2015	17:07:27.543	$GPGGA,170728,2421.1476,N,08048.9180,W,1,9,1.8,16,M,,M,,*59
06/15/2015	17:07:28.516	$GPGGA,170729,2421.1483,N,08048.9191,W,1,9,2.0,16,M,,M,,*59
06/15/2015	17:07:29.533	$GPGGA,170730,2421.1490,N,08048.9202,W,1,9,1.8,16,M,,M,,*51
06/15/2015	17:07:30.520	$GPGGA,170731,2421.1494,N,08048.9212,W,1,9,1.8,16,M,,M,,*55
06/15/2015	17:07:31.543	$GPGGA,170732,2421.1500,N,08048.9223,W,1,9,1.8,16,M,,M,,*58
06/15/2015	17:07:32.643	$GPGGA,170733,2421.1507,N,08048.9232,W,1,9,2.0,16,M,,M,,*55
06/15/2015	17:07:33.493	$GPGGA,170734,2421.1512,N,08048.9243,W,1,9,1.8,16,M,,M,,*5B
06/15/2015	17:07:34.507	$GPGGA,170735,2421.1516,N,08048.9254,W,1,9,1.8,16,M,,M,,*58
06/15/2015	17:07:35.683	$GPGGA,170736,2421.1523,N,08048.9264,W,1,8,1.8,16,M,,M,,*5F
06/15/2015	17:07:36.553	$GPGGA,170737,2421.1530,N,08048.9274,W,1,8,1.8,16,M,,M,,*5D
06/15/2015	17:07:37.503	$GPGGA,170738,2421.1537,N,08048.9285,W,1,9,1.8,16,M,,M,,*5A
06/15/2015	17:07:38.493	$GPGGA,170739,2421.1541,N,08048.9296,W,1,9,1.8,16,M,,M,,*58
06/15/2015	17:07:39.515	$GPGGA,170740,2421.1548,N,08048.9306,W,1,9,1.8,16,M,,M,,*57
06/15/2015	17:07:40.483	$GPGGA,170741,2421.1555,N,08048.9315,W,1,9,1.8,16,M,,M,,*58
06/15/2015	17:07:41.673	$GPGGA,170742,2421.1561,N,08048.9326,W,1,9,1.8,16,M,,M,,*5C
06/15/2015	17:07:42.509	$GPGGA,170743,2421.1565,N,08048.9339,W,1,9,1.8,16,M,,M,,*57
06/15/2015	17:07:43.483	$GPGGA,170744,2421.1573,N,08048.9350,W,1,8,2.0,17,M,,M,,*53
06/15/2015	17:07:44.583	$GPGGA,170745,2421.1579,N,08048.9361,W,1,8,1.8,17,M,,M,,*51
06/15/2015	17:07:45.563	$GPGGA,170746,2421.1584,N,08048.9371,W,1,9,1.8,17,M,,M,,*50
06/15/2015	17:07:46.593	$GPGGA,170747,2421.1590,N,08048.9382,W,1,9,1.8,17,M,,M,,*58
06/15/2015	17:07:47.662	$GPGGA,170748,2421.1598,N,08048.9391,W,1,9,1.8,17,M,,M,,*5D
06/15/2015	17:07:48.592	$GPGGA,170749,2421.1604,N,08048.9401,W,1,9,1.8,17,M,,M,,*54
06/15/2015	17:07:49.653	$GPGGA,170750,2421.1609,N,08048.9411,W,1,9,1.8,17,M,,M,,*50
06/15/2015	17:07:50.617	$GPGGA,170751,2421.1615,N,08048.9423,W,1,9,1.8,17,M,,M,,*5D
06/15/2015	17:07:51.663	$GPGGA,170752,2421.1619,N,08048.9436,W,1,9,2.0,18,M,,M,,*52
06/15/2015	17:07:52.583	$GPGGA,170753,2421.1626,N,08048.9447,W,1,9,1.8,18,M,,M,,*52
06/15/2015	17:07:53.663	$GPGGA,170754,2421.1631,N,08048.9456,W,1,9,1.8,18,M,,M,,*53
06/15/2015	17:07:54.543	$GPGGA,170755,2421.1635,N,08048.9469,W,1,9,1.8,18,M,,M,,*5A
06/15/2015	17:07:55.663	$GPGGA,170756,2421.1641,N,08048.9478,W,1,9,1.8,18,M,,M,,*5A
06/15/2015	17:07:56.583	$GPGGA,170757,2421.1646,N,08048.9488,W,1,9,1.8,18,M,,M,,*53
06/15/2015	17:07:57.643	$GPGGA,170758,2421.1652,N,08048.9498,W,1,9,1.8,18,M,,M,,*58
06/15/2015	17:07:58.573	$GPGGA,170759,2421.1656,N,08048.9509,W,1,9,1.8,18,M,,M,,*54
06/15/2015	17:07:59.653	$GPGGA,170800,2421.1662,N,08048.9520,W,1,9,1.8,18,M,,M,,*5B
06/15/2015	17:08:00.563	$GPGGA,170801,2421.1667,N,08048.9532,W,1,9,1.8,18,M,,M,,*5C
06/15/2015	17:08:01.643	$GPGGA,170802,2421.1671,N,08048.9545,W,1,9,1.8,18,M,,M,,*58
06/15/2015	17:08:02.533	$GPGGA,170803,2421.1677,N,08048.9556,W,1,9,1.8,18,M,,M,,*5D
06/15/2015	17:08:03.633	$GPGGA,170804,2421.1682,N,08048.9566,W,1,9,1.8,18,M,,M,,*53
06/15/2015	17:08:05.663	$GPGGA,170806,2421.1691,N,08048.9585,W,1,9,1.8,19,M,,M,,*5F
06/15/2015	17:08:06.553	$GPGGA,170807,2421.1696,N,08048.9595,W,1,9,1.8,19,M,,M,,*58
06/15/2015	17:08:07.623	$GPGGA,170808,2421.1702,N,08048.9606,W,1,9,1.8,19,M,,M,,*52
06/15/2015	17:08:08.543	$GPGGA,170809,2421.1707,N,08048.9617,W,1,9,1.8,19,M,,M,,*56
06/15/2015	17:08:09.593	$GPGGA,170810,2421.1711,N,08048.9629,W,1,9,1.8,19,M,,M,,*54
06/15/2015	17:08:10.513	$GPGGA,170811,2421.1717,N,08048.9640,W,1,9,1.8,19,M,,M,,*5C
06/15/2015	17:08:11.616	$GPGGA,170812,2421.1721,N,08048.9650,W,1,9,1.8,19,M,,M,,*5B
06/15/2015	17:08:12.543	$GPGGA,170813,2421.1727,N,08048.9658,W,1,9,1.8,19,M,,M,,*54
06/15/2015	17:08:13.623	$GPGGA,170814,2421.1732,N,08048.9669,W,1,9,1.8,18,M,,M,,*54
06/15/2015	17:08:14.543	$GPGGA,170815,2421.1736,N,08048.9680,W,1,9,2.0,18,M,,M,,*5D
06/15/2015	17:08:15.605	$GPGGA,170816,2421.1743,N,08048.9691,W,1,8,1.8,18,M,,M,,*56
06/15/2015	17:08:16.514	$GPGGA,170817,2421.1750,N,08048.9701,W,1,8,1.8,18,M,,M,,*5D
06/15/2015	17:08:17.609	$GPGGA,170818,2421.1754,N,08048.9712,W,1,9,1.8,18,M,,M,,*55
06/15/2015	17:08:18.508	$GPGGA,170819,2421.1758,N,08048.9722,W,1,9,1.8,18,M,,M,,*5B
06/15/2015	17:08:19.633	$GPGGA,170820,2421.1765,N,08048.9732,W,1,9,1.8,18,M,,M,,*5E
06/15/2015	17:08:20.533	$GPGGA,170821,2421.1768,N,08048.9741,W,1,9,1.8,18,M,,M,,*56
06/15/2015	17:08:21.583	$GPGGA,170822,2421.1774,N,08048.9751,W,1,9,1.8,18,M,,M,,*59
06/15/2015	17:08:22.492	$GPGGA,170823,2421.1779,N,08048.9763,W,1,9,1.8,18,M,,M,,*54
06/15/2015	17:08:23.552	$GPGGA,170824,2421.1786,N,08048.9774,W,1,9,1.8,18,M,,M,,*55
06/15/2015	17:08:24.584	$GPGGA,170825,2421.1790,N,08048.9785,W,1,9,1.8,18,M,,M,,*5D
06/15/2015	17:08:25.617	$GPGGA,170826,2421.1794,N,08048.9795,W,1,9,1.8,18,M,,M,,*5B
06/15/2015	17:08:26.523	$GPGGA,170827,2421.1800,N,08048.9805,W,1,9,1.8,18,M,,M,,*5E
06/15/2015	17:08:27.493	$GPGGA,170828,2421.1805,N,08048.9814,W,1,9,1.8,18,M,,M,,*54
06/15/2015	17:08:28.523	$GPGGA,170829,2421.1811,N,08048.9824,W,1,9,1.8,18,M,,M,,*53
06/15/2015	17:08:29.563	$GPGGA,170830,2421.1815,N,08048.9835,W,1,9,1.8,18,M,,M,,*5F
06/15/2015	17:08:30.513	$GPGGA,170831,2421.1819,N,08048.9846,W,1,9,1.8,18,M,,M,,*56
06/15/2015	17:08:31.633	$GPGGA,170832,2421.1826,N,08048.9857,W,1,9,1.8,18,M,,M,,*59
06/15/2015	17:08:32.573	$GPGGA,170833,2421.1830,N,08048.9867,W,1,9,1.8,18,M,,M,,*5C
06/15/2015	17:08:33.573	$GPGGA,170834,2421.1834,N,08048.9877,W,1,9,1.8,17,M,,M,,*51
06/15/2015	17:08:34.573	$GPGGA,170835,2421.1840,N,08048.9888,W,1,9,1.8,17,M,,M,,*53
06/15/2015	17:08:35.623	$GPGGA,170836,2421.1846,N,08048.9897,W,1,9,1.8,17,M,,M,,*58
06/15/2015	17:08:36.563	$GPGGA,170837,2421.1851,N,08048.9907,W,1,9,1.8,17,M,,M,,*57
06/15/2015	17:08:37.607	$GPGGA,170838,2421.1855,N,08048.9918,W,1,9,1.8,17,M,,M,,*52
06/15/2015	17:08:38.563	$GPGGA,170839,2421.1861,N,08048.9929,W,1,9,1.8,17,M,,M,,*56
06/15/2015	17:08:39.583	$GPGGA,170840,2421.1866,N,08048.9939,W,1,9,1.8,17,M,,M,,*5E
06/15/2015	17:08:40.552	$GPGGA,170841,2421.1870,N,08048.9950,W,1,9,1.8,17,M,,M,,*57
06/15/2015	17:08:41.583	$GPGGA,170842,2421.1875,N,08048.9960,W,1,9,1.8,17,M,,M,,*52
06/15/2015	17:08:42.543	$GPGGA,170843,2421.1880,N,08048.9971,W,1,9,1.8,17,M,,M,,*59
06/15/2015	17:08:43.583	$GPGGA,170844,2421.1886,N,08048.9982,W,1,9,1.8,17,M,,M,,*54
06/15/2015	17:08:44.553	$GPGGA,170845,2421.1891,N,08048.9993,W,1,9,1.8,17,M,,M,,*53
06/15/2015	17:08:45.613	$GPGGA,170846,2421.1895,N,08049.0004,W,1,9,1.8,17,M,,M,,*5B
06/15/2015	17:08:46.543	$GPGGA,170847,2421.1901,N,08049.0015,W,1,9,1.8,17,M,,M,,*56
06/15/2015	17:08:47.584	$GPGGA,170848,2421.1906,N,08049.0026,W,1,9,1.8,17,M,,M,,*5E
06/15/2015	17:08:48.543	$GPGGA,170849,2421.1912,N,08049.0036,W,1,9,1.8,17,M,,M,,*5B
06/15/2015	17:08:49.563	$GPGGA,170850,2421.1915,N,08049.0047,W,1,9,1.8,17,M,,M,,*52
06/15/2015	17:08:50.533	$GPGGA,170851,2421.1920,N,08049.0056,W,1,9,1.8,17,M,,M,,*55
06/15/2015	17:08:51.623	$GPGGA,170852,2421.1927,N,08049.0066,W,1,9,1.8,17,M,,M,,*52
06/15/2015	17:08:52.553	$GPGGA,170853,2421.1931,N,08049.0077,W,1,9,1.8,17,M,,M,,*54
06/15/2015	17:08:53.553	$GPGGA,170854,2421.1938,N,08049.0090,W,1,9,1.8,17,M,,M,,*53
06/15/2015	17:08:54.553	$GPGGA,170855,2421.1942,N,08049.0099,W,1,9,1.8,17,M,,M,,*56
06/15/2015	17:08:55.624	$GPGGA,170856,2421.1946,N,08049.0109,W,1,9,1.8,17,M,,M,,*59
06/15/2015	17:08:56.533	$GPGGA,170857,2421.1953,N,08049.0119,W,1,9,1.8,17,M,,M,,*5D
06/15/2015	17:08:57.552	$GPGGA,170858,2421.1953,N,08049.0119,W,1,9,1.8,17,M,,M,,*52
06/15/2015	17:08:58.522	$GPGGA,170859,2421.1963,N,08049.0139,W,1,9,1.8,17,M,,M,,*52
06/15/2015	17:08:59.607	$GPGGA,170900,2421.1967,N,08049.0152,W,1,9,1.8,17,M,,M,,*56
06/15/2015	17:09:00.523	$GPGGA,170901,2421.1974,N,08049.0163,W,1,9,1.8,17,M,,M,,*57
06/15/2015	17:09:01.573	$GPGGA,170902,2421.1978,N,08049.0173,W,1,9,1.8,17,M,,M,,*59
06/15/2015	17:09:02.523	$GPGGA,170903,2421.1984,N,08049.0184,W,1,9,1.8,17,M,,M,,*53
06/15/2015	17:09:03.533	$GPGGA,170904,2421.1984,N,08049.0184,W,1,9,1.8,17,M,,M,,*54
06/15/2015	17:09:04.523	$GPGGA,170905,2421.1993,N,08049.0206,W,1,9,1.8,17,M,,M,,*5A
06/15/2015	17:09:05.563	$GPGGA,170906,2421.1999,N,08049.0217,W,1,9,1.8,17,M,,M,,*53
06/15/2015	17:09:06.508	$GPGGA,170907,2421.2003,N,08049.0228,W,1,9,1.8,17,M,,M,,*57
06/15/2015	17:09:07.583	$GPGGA,170908,2421.2009,N,08049.0238,W,1,9,1.8,17,M,,M,,*53
06/15/2015	17:09:08.493	$GPGGA,170909,2421.2013,N,08049.0249,W,1,9,1.8,16,M,,M,,*5E
06/15/2015	17:09:09.503	$GPGGA,170910,2421.2013,N,08049.0249,W,1,9,1.8,16,M,,M,,*56
06/15/2015	17:09:10.513	$GPGGA,170911,2421.2023,N,08049.0272,W,1,9,1.8,16,M,,M,,*5C
06/15/2015	17:09:11.623	$GPGGA,170912,2421.2028,N,08049.0285,W,1,9,1.8,16,M,,M,,*5C
06/15/2015	17:09:12.493	$GPGGA,170913,2421.2032,N,08049.0294,W,1,9,1.8,16,M,,M,,*56
06/15/2015	17:09:13.509	$GPGGA,170914,2421.2032,N,08049.0294,W,1,9,1.8,16,M,,M,,*51
06/15/2015	17:09:14.493	$GPGGA,170915,2421.2042,N,08049.0314,W,1,9,1.8,16,M,,M,,*5E
06/15/2015	17:09:15.522	$GPGGA,170916,2421.2042,N,08049.0314,W,1,9,1.8,16,M,,M,,*5D
06/15/2015	17:09:16.473	$GPGGA,170917,2421.2052,N,08049.0337,W,1,9,1.8,16,M,,M,,*5C
06/15/2015	17:09:17.613	$GPGGA,170918,2421.2057,N,08049.0350,W,1,9,1.8,16,M,,M,,*57
06/15/2015	17:09:18.483	$GPGGA,170919,2421.2061,N,08049.0362,W,1,9,1.8,16,M,,M,,*52
06/15/2015	17:09:19.593	$GPGGA,170920,2421.2065,N,08049.0373,W,1,9,1.8,16,M,,M,,*5C
06/15/2015	17:09:20.483	$GPGGA,170921,2421.2070,N,08049.0383,W,1,9,1.8,16,M,,M,,*56
06/15/2015	17:09:21.583	$GPGGA,170922,2421.2075,N,08049.0392,W,1,9,1.8,16,M,,M,,*50
06/15/2015	17:09:22.473	$GPGGA,170923,2421.2079,N,08049.0404,W,1,9,1.8,16,M,,M,,*55
06/15/2015	17:09:23.573	$GPGGA,170924,2421.2086,N,08049.0415,W,1,9,1.8,16,M,,M,,*52
06/15/2015	17:09:24.583	$GPGGA,170925,2421.2090,N,08049.0426,W,1,9,1.8,16,M,,M,,*54
06/15/2015	17:09:25.573	$GPGGA,170926,2421.2094,N,08049.0438,W,1,9,1.8,16,M,,M,,*5C
06/15/2015	17:09:26.563	$GPGGA,170927,2421.2101,N,08049.0449,W,1,9,1.8,16,M,,M,,*56
06/15/2015	17:09:27.583	$GPGGA,170928,2421.2104,N,08049.0460,W,1,9,1.8,15,M,,M,,*54
06/15/2015	17:09:28.553	$GPGGA,170929,2421.2110,N,08049.0470,W,1,9,1.8,15,M,,M,,*51
06/15/2015	17:09:29.543	$GPGGA,170930,2421.2115,N,08049.0478,W,1,9,1.8,15,M,,M,,*54
06/15/2015	17:09:30.563	$GPGGA,170931,2421.2121,N,08049.0489,W,1,9,1.8,15,M,,M,,*5C
06/15/2015	17:09:31.583	$GPGGA,170932,2421.2126,N,08049.0500,W,1,9,1.8,15,M,,M,,*58
06/15/2015	17:09:32.552	$GPGGA,170933,2421.2130,N,08049.0513,W,1,9,1.8,15,M,,M,,*5C
06/15/2015	17:09:33.562	$GPGGA,170934,2421.2137,N,08049.0524,W,1,9,1.8,15,M,,M,,*58
06/15/2015	17:09:34.543	$GPGGA,170935,2421.2141,N,08049.0535,W,1,9,1.8,15,M,,M,,*58
06/15/2015	17:09:35.593	$GPGGA,170936,2421.2148,N,08049.0545,W,1,9,1.8,15,M,,M,,*55
06/15/2015	17:09:36.543	$GPGGA,170937,2421.2151,N,08049.0554,W,1,9,1.8,15,M,,M,,*5C
06/15/2015	17:09:37.524	$GPGGA,170938,2421.2157,N,08049.0564,W,1,9,1.8,15,M,,M,,*56
06/15/2015	17:09:38.543	$GPGGA,170939,2421.2162,N,08049.0575,W,1,9,1.8,15,M,,M,,*51
06/15/2015	17:09:39.533	$GPGGA,170940,2421.2169,N,08049.0587,W,1,9,1.8,15,M,,M,,*59
06/15/2015	17:09:40.533	$GPGGA,170941,2421.2173,N,08049.0598,W,1,9,1.8,15,M,,M,,*5D
06/15/2015	17:09:41.563	$GPGGA,170942,2421.2177,N,08049.0610,W,1,9,1.8,15,M,,M,,*59
06/15/2015	17:09:42.520	$GPGGA,170943,2421.2183,N,08049.0619,W,1,9,1.8,15,M,,M,,*5A
06/15/2015	17:09:43.563	$GPGGA,170944,2421.2188,N,08049.0629,W,1,9,1.8,15,M,,M,,*55
06/15/2015	17:09:44.533	$GPGGA,170945,2421.2193,N,08049.0639,W,1,9,1.8,15,M,,M,,*5F
06/15/2015	17:09:45.553	$GPGGA,170946,2421.2198,N,08049.0650,W,1,9,1.8,15,M,,M,,*58
06/15/2015	17:09:46.519	$GPGGA,170947,2421.2202,N,08049.0659,W,1,9,2.1,15,M,,M,,*5A
06/15/2015	17:09:47.563	$GPGGA,170948,2421.2208,N,08049.0669,W,1,9,1.8,15,M,,M,,*56
06/15/2015	17:09:48.517	$GPGGA,170949,2421.2213,N,08049.0679,W,1,9,1.8,15,M,,M,,*5C
06/15/2015	17:09:49.543	$GPGGA,170950,2421.2217,N,08049.0688,W,1,9,1.8,15,M,,M,,*5E
06/15/2015	17:09:50.522	$GPGGA,170951,2421.2224,N,08049.0698,W,1,9,1.8,15,M,,M,,*5E
06/15/2015	17:09:51.543	$GPGGA,170952,2421.2229,N,08049.0709,W,1,9,1.8,15,M,,M,,*59
06/15/2015	17:09:52.593	$GPGGA,170953,2421.2234,N,08049.0719,W,1,9,1.8,15,M,,M,,*55
06/15/2015	17:09:53.543	$GPGGA,170954,2421.2240,N,08049.0728,W,1,9,1.8,15,M,,M,,*53
06/15/2015	17:09:54.621	$GPGGA,170955,2421.2245,N,08049.0737,W,1,9,1.4,15,M,,M,,*55
06/15/2015	17:09:55.633	$GPGGA,170956,2421.2248,N,08049.0744,W,1,10,1.4,15,M,,M,,*67
06/15/2015	17:09:56.516	$GPGGA,170957,2421.2253,N,08049.0755,W,1,10,1.4,15,M,,M,,*6C
06/15/2015	17:09:57.623	$GPGGA,170958,2421.2259,N,08049.0763,W,1,10,1.4,15,M,,M,,*6C
06/15/2015	17:09:58.523	$GPGGA,170959,2421.2264,N,08049.0774,W,1,10,1.4,16,M,,M,,*66
06/15/2015	17:09:59.553	$GPGGA,171000,2421.2269,N,08049.0785,W,1,10,1.4,16,M,,M,,*61
06/15/2015	17:10:00.493	$GPGGA,171001,2421.2273,N,08049.0795,W,1,10,1.4,16,M,,M,,*6A
06/15/2015	17:10:01.483	$GPGGA,171002,2421.2278,N,08049.0802,W,1,10,1.4,16,M,,M,,*63
06/15/2015	17:10:02.583	$GPGGA,171003,2421.2284,N,08049.0813,W,1,10,1.4,16,M,,M,,*61
06/15/2015	17:10:03.623	$GPGGA,171004,2421.2289,N,08049.0821,W,1,10,1.4,16,M,,M,,*6A
06/15/2015	17:10:04.583	$GPGGA,171005,2421.2294,N,08049.0832,W,1,10,1.4,16,M,,M,,*65
06/15/2015	17:10:05.583	$GPGGA,171006,2421.2299,N,08049.0843,W,1,10,1.4,16,M,,M,,*6D
06/15/2015	17:10:06.573	$GPGGA,171007,2421.2305,N,08049.0856,W,1,10,1.4,16,M,,M,,*6C
06/15/2015	17:10:07.510	$GPGGA,171008,2421.2310,N,08049.0865,W,1,10,1.4,16,M,,M,,*67
06/15/2015	17:10:08.582	$GPGGA,171009,2421.2314,N,08049.0875,W,1,10,1.4,17,M,,M,,*62
06/15/2015	17:10:09.583	$GPGGA,171010,2421.2318,N,08049.0885,W,1,10,1.4,17,M,,M,,*69
06/15/2015	17:10:10.583	$GPGGA,171011,2421.2324,N,08049.0896,W,1,10,1.4,17,M,,M,,*65
06/15/2015	17:10:11.603	$GPGGA,171012,2421.2329,N,08049.0905,W,1,10,1.4,17,M,,M,,*60
06/15/2015	17:10:12.573	$GPGGA,171013,2421.2335,N,08049.0915,W,1,10,1.4,17,M,,M,,*6D
06/15/2015	17:10:13.563	$GPGGA,171014,2421.2341,N,08049.0928,W,1,10,1.4,17,M,,M,,*67
06/15/2015	17:10:14.563	$GPGGA,171015,2421.2345,N,08049.0939,W,1,10,1.4,17,M,,M,,*62
06/15/2015	17:10:15.583	$GPGGA,171016,2421.2349,N,08049.0950,W,1,10,1.4,17,M,,M,,*62
06/15/2015	17:10:16.563	$GPGGA,171017,2421.2354,N,08049.0959,W,1,10,1.4,17,M,,M,,*66
06/15/2015	17:10:17.573	$GPGGA,171018,2421.2360,N,08049.0969,W,1,10,1.4,17,M,,M,,*6D
06/15/2015	17:10:18.563	$GPGGA,171019,2421.2364,N,08049.0980,W,1,10,1.4,17,M,,M,,*6F
06/15/2015	17:10:19.583	$GPGGA,171020,2421.2368,N,08049.0991,W,1,10,1.4,17,M,,M,,*69
06/15/2015	17:10:20.553	$GPGGA,171021,2421.2374,N,08049.1002,W,1,10,1.4,17,M,,M,,*67
06/15/2015	17:10:21.553	$GPGGA,171022,2421.2381,N,08049.1013,W,1,10,1.4,17,M,,M,,*6E
06/15/2015	17:10:22.563	$GPGGA,171023,2421.2385,N,08049.1024,W,1,10,1.4,17,M,,M,,*6F
06/15/2015	17:10:23.553	$GPGGA,171024,2421.2388,N,08049.1035,W,1,10,1.4,18,M,,M,,*6A
06/15/2015	17:10:24.543	$GPGGA,171025,2421.2393,N,08049.1044,W,1,10,1.4,18,M,,M,,*67
06/15/2015	17:10:25.552	$GPGGA,171026,2421.2400,N,08049.1055,W,1,10,1.4,18,M,,M,,*69
06/15/2015	17:10:26.533	$GPGGA,171027,2421.2404,N,08049.1064,W,1,10,1.4,18,M,,M,,*6E
06/15/2015	17:10:27.573	$GPGGA,171028,2421.2408,N,08049.1076,W,1,10,1.4,18,M,,M,,*6E
06/15/2015	17:10:28.543	$GPGGA,171029,2421.2415,N,08049.1087,W,1,10,1.4,18,M,,M,,*6D
06/15/2015	17:10:29.523	$GPGGA,171030,2421.2419,N,08049.1098,W,1,10,1.4,18,M,,M,,*67
06/15/2015	17:10:30.543	$GPGGA,171031,2421.2424,N,08049.1109,W,1,10,1.4,18,M,,M,,*61
06/15/2015	17:10:31.564	$GPGGA,171032,2421.2430,N,08049.1118,W,1,10,1.4,18,M,,M,,*67
06/15/2015	17:10:32.513	$GPGGA,171033,2421.2436,N,08049.1129,W,1,10,1.4,18,M,,M,,*62
06/15/2015	17:10:33.553	$GPGGA,171034,2421.2440,N,08049.1141,W,1,10,1.4,18,M,,M,,*6A
06/15/2015	17:10:34.523	$GPGGA,171035,2421.2444,N,08049.1152,W,1,10,1.4,18,M,,M,,*6D
06/15/2015	17:10:35.563	$GPGGA,171036,2421.2451,N,08049.1161,W,1,10,1.4,18,M,,M,,*6A
06/15/2015	17:10:36.523	$GPGGA,171037,2421.2455,N,08049.1172,W,1,10,1.6,18,M,,M,,*6F
06/15/2015	17:10:37.507	$GPGGA,171038,2421.2462,N,08049.1183,W,1,10,1.4,18,M,,M,,*68
06/15/2015	17:10:38.523	$GPGGA,171039,2421.2466,N,08049.1194,W,1,10,1.8,18,M,,M,,*67
06/15/2015	17:10:39.523	$GPGGA,171040,2421.2471,N,08049.1206,W,1,9,1.6,18,M,,M,,*51
06/15/2015	17:10:40.503	$GPGGA,171041,2421.2476,N,08049.1215,W,1,9,1.4,17,M,,M,,*58
06/15/2015	17:10:41.613	$GPGGA,171042,2421.2483,N,08049.1225,W,1,9,1.6,17,M,,M,,*50
06/15/2015	17:10:42.506	$GPGGA,171043,2421.2488,N,08049.1236,W,1,9,1.4,17,M,,M,,*5A
06/15/2015	17:10:43.522	$GPGGA,171044,2421.2494,N,08049.1246,W,1,10,1.4,17,M,,M,,*6F
06/15/2015	17:10:44.593	$GPGGA,171045,2421.2498,N,08049.1258,W,1,10,1.4,17,M,,M,,*6D
06/15/2015	17:10:45.604	$GPGGA,171046,2421.2505,N,08049.1269,W,1,10,1.4,17,M,,M,,*69
06/15/2015	17:10:46.616	$GPGGA,171047,2421.2512,N,08049.1279,W,1,10,1.4,17,M,,M,,*6F
06/15/2015	17:10:47.623	$GPGGA,171048,2421.2515,N,08049.1290,W,1,10,1.4,17,M,,M,,*60
06/15/2015	17:10:48.524	$GPGGA,171049,2421.2519,N,08049.1301,W,1,10,1.4,17,M,,M,,*64
06/15/2015	17:10:49.483	$GPGGA,171050,2421.2526,N,08049.1311,W,1,10,1.4,17,M,,M,,*61
06/15/2015	17:10:50.865	$GPGGA,171051,2421.2531,N,08049.1322,W,1,10,1.4,17,M,,M,,*66
06/15/2015	17:10:51.507	$GPGGA,171052,2421.2536,N,08049.1334,W,1,10,1.4,17,M,,M,,*65
06/15/2015	17:10:52.493	$GPGGA,171053,2421.2541,N,08049.1345,W,1,10,1.4,17,M,,M,,*62
06/15/2015	17:10:53.573	$GPGGA,171054,2421.2547,N,08049.1356,W,1,10,1.4,17,M,,M,,*61
06/15/2015	17:10:54.583	$GPGGA,171055,2421.2552,N,08049.1366,W,1,10,1.4,17,M,,M,,*67
06/15/2015	17:10:55.493	$GPGGA,171056,2421.2556,N,08049.1377,W,1,10,1.4,17,M,,M,,*60
06/15/2015	17:10:56.563	$GPGGA,171057,2421.2560,N,08049.1387,W,1,10,1.6,17,M,,M,,*69
06/15/2015	17:10:57.563	$GPGGA,171058,2421.2566,N,08049.1399,W,1,10,1.4,17,M,,M,,*6D
06/15/2015	17:10:58.573	$GPGGA,171059,2421.2570,N,08049.1410,W,1,10,1.4,17,M,,M,,*6D
06/15/2015	17:10:59.593	$GPGGA,171100,2421.2576,N,08049.1423,W,1,10,1.4,17,M,,M,,*66
06/15/2015	17:11:00.562	$GPGGA,171101,2421.2583,N,08049.1434,W,1,10,1.4,17,M,,M,,*6B
06/15/2015	17:11:01.553	$GPGGA,171102,2421.2589,N,08049.1445,W,1,10,1.4,17,M,,M,,*64
06/15/2015	17:11:02.573	$GPGGA,171103,2421.2592,N,08049.1456,W,1,10,1.4,17,M,,M,,*6D
06/15/2015	17:11:03.583	$GPGGA,171104,2421.2598,N,08049.1465,W,1,10,1.4,17,M,,M,,*60
06/15/2015	17:11:04.553	$GPGGA,171105,2421.2605,N,08049.1477,W,1,10,1.4,17,M,,M,,*65
06/15/2015	17:11:05.563	$GPGGA,171106,2421.2610,N,08049.1488,W,1,10,1.4,17,M,,M,,*62
06/15/2015	17:11:06.553	$GPGGA,171107,2421.2614,N,08049.1499,W,1,10,1.4,17,M,,M,,*67
06/15/2015	17:11:07.573	$GPGGA,171108,2421.2620,N,08049.1511,W,1,10,1.4,17,M,,M,,*6E
06/15/2015	17:11:08.553	$GPGGA,171109,2421.2625,N,08049.1521,W,1,10,1.4,17,M,,M,,*69
06/15/2015	17:11:09.563	$GPGGA,171110,2421.2632,N,08049.1532,W,1,10,1.4,17,M,,M,,*65
06/15/2015	17:11:10.553	$GPGGA,171111,2421.2635,N,08049.1543,W,1,10,1.4,17,M,,M,,*65
06/15/2015	17:11:11.573	$GPGGA,171112,2421.2641,N,08049.1554,W,1,9,1.6,17,M,,M,,*59
06/15/2015	17:11:12.527	$GPGGA,171113,2421.2648,N,08049.1564,W,1,9,1.4,17,M,,M,,*50
06/15/2015	17:11:13.533	$GPGGA,171114,2421.2652,N,08049.1572,W,1,9,1.8,17,M,,M,,*57
06/15/2015	17:11:14.533	$GPGGA,171115,2421.2656,N,08049.1582,W,1,9,1.4,18,M,,M,,*5E
06/15/2015	17:11:15.563	$GPGGA,171116,2421.2661,N,08049.1591,W,1,10,1.4,18,M,,M,,*63
06/15/2015	17:11:16.533	$GPGGA,171117,2421.2667,N,08049.1602,W,1,10,1.4,18,M,,M,,*6D
06/15/2015	17:11:17.562	$GPGGA,171118,2421.2672,N,08049.1612,W,1,10,1.4,18,M,,M,,*67
06/15/2015	17:11:18.532	$GPGGA,171119,2421.2675,N,08049.1623,W,1,10,1.4,18,M,,M,,*63
06/15/2015	17:11:19.553	$GPGGA,171120,2421.2681,N,08049.1633,W,1,10,1.4,18,M,,M,,*63
06/15/2015	17:11:20.523	$GPGGA,171121,2421.2686,N,08049.1644,W,1,10,1.4,18,M,,M,,*65
06/15/2015	17:11:21.515	$GPGGA,171122,2421.2690,N,08049.1654,W,1,10,1.4,18,M,,M,,*60
06/15/2015	17:11:22.533	$GPGGA,171123,2421.2695,N,08049.1663,W,1,10,1.4,18,M,,M,,*60
06/15/2015	17:11:23.523	$GPGGA,171124,2421.2701,N,08049.1674,W,1,10,1.4,19,M,,M,,*6C
06/15/2015	17:11:24.623	$GPGGA,171125,2421.2706,N,08049.1685,W,1,10,1.4,19,M,,M,,*64
06/15/2015	17:11:25.505	$GPGGA,171126,2421.2710,N,08049.1696,W,1,10,1.4,19,M,,M,,*62
06/15/2015	17:11:26.523	$GPGGA,171127,2421.2714,N,08049.1707,W,1,10,1.4,19,M,,M,,*6E
06/15/2015	17:11:27.553	$GPGGA,171128,2421.2719,N,08049.1719,W,1,10,1.4,19,M,,M,,*63
06/15/2015	17:11:28.513	$GPGGA,171129,2421.2726,N,08049.1728,W,1,10,1.4,19,M,,M,,*6C
06/15/2015	17:11:29.513	$GPGGA,171130,2421.2730,N,08049.1738,W,1,10,1.4,19,M,,M,,*62
06/15/2015	17:11:30.593	$GPGGA,171131,2421.2735,N,08049.1749,W,1,10,1.4,19,M,,M,,*60
06/15/2015	17:11:31.513	$GPGGA,171132,2421.2739,N,08049.1761,W,1,10,1.4,19,M,,M,,*65
06/15/2015	17:11:32.508	$GPGGA,171133,2421.2744,N,08049.1772,W,1,10,1.6,19,M,,M,,*6E
06/15/2015	17:11:33.506	$GPGGA,171134,2421.2750,N,08049.1785,W,1,10,1.4,19,M,,M,,*66
06/15/2015	17:11:34.493	$GPGGA,171135,2421.2755,N,08049.1796,W,1,10,1.4,19,M,,M,,*60
06/15/2015	17:11:35.642	$GPGGA,171136,2421.2760,N,08049.1806,W,1,10,1.4,19,M,,M,,*63
06/15/2015	17:11:36.583	$GPGGA,171137,2421.2765,N,08049.1815,W,1,10,1.4,19,M,,M,,*65
06/15/2015	17:11:37.483	$GPGGA,171138,2421.2772,N,08049.1828,W,1,10,1.4,19,M,,M,,*62
06/15/2015	17:11:38.605	$GPGGA,171139,2421.2776,N,08049.1839,W,1,10,1.8,19,M,,M,,*6B
06/15/2015	17:11:39.583	$GPGGA,171140,2421.2780,N,08049.1850,W,1,9,1.8,19,M,,M,,*5B
06/15/2015	17:11:40.573	$GPGGA,171141,2421.2784,N,08049.1860,W,1,9,1.4,19,M,,M,,*51
06/15/2015	17:11:41.573	$GPGGA,171142,2421.2791,N,08049.1869,W,1,10,1.4,19,M,,M,,*67
06/15/2015	17:11:42.583	$GPGGA,171143,2421.2795,N,08049.1880,W,1,10,1.4,19,M,,M,,*65
06/15/2015	17:11:43.633	$GPGGA,171144,2421.2801,N,08049.1890,W,1,10,1.4,19,M,,M,,*61
06/15/2015	17:11:44.563	$GPGGA,171145,2421.2805,N,08049.1901,W,1,10,1.4,19,M,,M,,*6D
06/15/2015	17:11:45.583	$GPGGA,171146,2421.2811,N,08049.1912,W,1,10,1.4,19,M,,M,,*69
06/15/2015	17:11:46.563	$GPGGA,171147,2421.2816,N,08049.1923,W,1,10,1.4,19,M,,M,,*6D
06/15/2015	17:11:47.583	$GPGGA,171148,2421.2820,N,08049.1934,W,1,10,1.4,19,M,,M,,*61
06/15/2015	17:11:48.563	$GPGGA,171149,2421.2826,N,08049.1945,W,1,10,1.4,19,M,,M,,*60
06/15/2015	17:11:49.573	$GPGGA,171150,2421.2831,N,08049.1956,W,1,10,1.4,19,M,,M,,*6C
