Software Version Number: 1	Data File Format Number: 1	Build Version Number: 1	Error Count Since VI Started: 1	Manufacturer: Raytheon	 Model Number: RayMarine 120	 S/N: 	 Cal Date: 	 Wind Direction Offset: 0.00	 Slope (M)1: 0.00	 Offset (B)1: 0.00	 Slope (M)2: 0.00	 Offset (B)2: 0.00	 Slope (M)3: 0.00	 Offset (B)3: 0.00	 Slope (M)4: 0.00	 Offset (B)4: 0.00	 Slope (M)5: 0.00	 Offset (B)5: 0.00	 Slope (M)6: 0.00	 Offset (B)6: 0.00
Computer Date	Computer Time	GGA String
06/17/2015	09:00:00.540	$GPGGA,090001,2514.9464,N,08006.8500,W,1,8,2.3,19,M,,M,,*57
06/17/2015	09:00:01.570	$GPGGA,090002,2514.9482,N,08006.8494,W,1,9,2.3,19,M,,M,,*51
06/17/2015	09:00:02.540	$GPGGA,090003,2514.9500,N,08006.8488,W,1,9,2.8,19,M,,M,,*5D
06/17/2015	09:00:03.569	$GPGGA,090004,2514.9516,N,08006.8478,W,1,8,2.8,19,M,,M,,*53
06/17/2015	09:00:04.539	$GPGGA,090005,2514.9534,N,08006.8470,W,1,8,2.3,19,M,,M,,*51
06/17/2015	09:00:05.529	$GPGGA,090006,2514.9550,N,08006.8464,W,1,8,2.8,19,M,,M,,*5E
06/17/2015	09:00:06.540	$GPGGA,090007,2514.9568,N,08006.8457,W,1,8,3.2,19,M,,M,,*5F
06/17/2015	09:00:07.540	$GPGGA,090008,2514.9586,N,08006.8447,W,1,9,2.3,19,M,,M,,*50
06/17/2015	09:00:08.540	$GPGGA,090009,2514.9601,N,08006.8440,W,1,9,2.3,19,M,,M,,*5A
06/17/2015	09:00:09.530	$GPGGA,090010,2514.9619,N,08006.8435,W,1,8,2.8,19,M,,M,,*53
06/17/2015	09:00:10.530	$GPGGA,090011,2514.9637,N,08006.8426,W,1,8,2.3,19,M,,M,,*57
06/17/2015	09:00:11.560	$GPGGA,090012,2514.9654,N,08006.8418,W,1,8,2.8,19,M,,M,,*57
06/17/2015	09:00:12.510	$GPGGA,090013,2514.9669,N,08006.8415,W,1,8,2.8,19,M,,M,,*55
06/17/2015	09:00:13.520	$GPGGA,090014,2514.9688,N,08006.8407,W,1,9,2.3,19,M,,M,,*54
06/17/2015	09:00:14.530	$GPGGA,090015,2514.9705,N,08006.8398,W,1,9,2.8,19,M,,M,,*5B
06/17/2015	09:00:15.520	$GPGGA,090016,2514.9720,N,08006.8391,W,1,8,2.8,19,M,,M,,*57
06/17/2015	09:00:16.520	$GPGGA,090017,2514.9738,N,08006.8384,W,1,8,2.3,19,M,,M,,*50
06/17/2015	09:00:17.620	$GPGGA,090018,2514.9756,N,08006.8373,W,1,8,2.8,19,M,,M,,*54
06/17/2015	09:00:18.510	$GPGGA,090019,2514.9773,N,08006.8367,W,1,8,2.3,19,M,,M,,*5C
06/17/2015	09:00:19.540	$GPGGA,090020,2514.9791,N,08006.8361,W,1,8,2.8,19,M,,M,,*57
06/17/2015	09:00:20.529	$GPGGA,090021,2514.9807,N,08006.8351,W,1,8,2.8,19,M,,M,,*55
06/17/2015	09:00:21.539	$GPGGA,090022,2514.9825,N,08006.8342,W,1,9,2.3,19,M,,M,,*5E
06/17/2015	09:00:22.499	$GPGGA,090023,2514.9843,N,08006.8335,W,1,9,2.3,19,M,,M,,*5F
06/17/2015	09:00:23.529	$GPGGA,090024,2514.9861,N,08006.8327,W,1,9,2.3,19,M,,M,,*5B
06/17/2015	09:00:24.610	$GPGGA,090025,2514.9876,N,08006.8321,W,1,9,2.3,19,M,,M,,*5A
06/17/2015	09:00:25.510	$GPGGA,090026,2514.9894,N,08006.8314,W,1,9,2.3,19,M,,M,,*53
06/17/2015	09:00:26.500	$GPGGA,090027,2514.9911,N,08006.8304,W,1,9,2.3,19,M,,M,,*5F
06/17/2015	09:00:27.601	$GPGGA,090028,2514.9929,N,08006.8298,W,1,9,2.3,19,M,,M,,*5F
06/17/2015	09:00:28.491	$GPGGA,090029,2514.9947,N,08006.8289,W,1,9,2.8,19,M,,M,,*5D
06/17/2015	09:00:29.591	$GPGGA,090030,2514.9964,N,08006.8281,W,1,9,2.3,19,M,,M,,*57
06/17/2015	09:00:30.580	$GPGGA,090031,2514.9980,N,08006.8273,W,1,9,2.8,20,M,,M,,*50
06/17/2015	09:00:31.591	$GPGGA,090032,2514.9998,N,08006.8267,W,1,8,2.8,20,M,,M,,*5E
06/17/2015	09:00:32.570	$GPGGA,090033,2515.0016,N,08006.8258,W,1,8,2.3,20,M,,M,,*5F
06/17/2015	09:00:33.480	$GPGGA,090034,2515.0034,N,08006.8249,W,1,9,2.3,20,M,,M,,*59
06/17/2015	09:00:34.590	$GPGGA,090035,2515.0051,N,08006.8243,W,1,9,2.8,20,M,,M,,*5A
06/17/2015	09:00:35.492	$GPGGA,090036,2515.0069,N,08006.8236,W,1,8,2.8,20,M,,M,,*51
06/17/2015	09:00:36.570	$GPGGA,090037,2515.0085,N,08006.8224,W,1,8,2.5,20,M,,M,,*5C
06/17/2015	09:00:37.560	$GPGGA,090038,2515.0103,N,08006.8216,W,1,9,2.3,20,M,,M,,*5A
06/17/2015	09:00:38.569	$GPGGA,090039,2515.0121,N,08006.8210,W,1,9,2.8,20,M,,M,,*56
06/17/2015	09:00:39.609	$GPGGA,090040,2515.0139,N,08006.8205,W,1,8,2.8,20,M,,M,,*54
06/17/2015	09:00:40.569	$GPGGA,090041,2515.0157,N,08006.8196,W,1,8,2.8,20,M,,M,,*54
06/17/2015	09:00:41.560	$GPGGA,090042,2515.0174,N,08006.8188,W,1,9,2.3,20,M,,M,,*53
06/17/2015	09:00:42.560	$GPGGA,090043,2515.0192,N,08006.8183,W,1,9,2.8,20,M,,M,,*5A
06/17/2015	09:00:43.580	$GPGGA,090044,2515.0208,N,08006.8176,W,1,8,2.8,20,M,,M,,*56
06/17/2015	09:00:44.560	$GPGGA,090045,2515.0226,N,08006.8169,W,1,8,2.5,20,M,,M,,*58
06/17/2015	09:00:45.570	$GPGGA,090046,2515.0244,N,08006.8160,W,1,8,2.8,20,M,,M,,*5B
06/17/2015	09:00:46.550	$GPGGA,090047,2515.0262,N,08006.8154,W,1,8,2.3,20,M,,M,,*52
06/17/2015	09:00:47.580	$GPGGA,090048,2515.0280,N,08006.8147,W,1,9,2.3,20,M,,M,,*52
06/17/2015	09:00:48.550	$GPGGA,090049,2515.0298,N,08006.8136,W,1,9,2.8,20,M,,M,,*57
06/17/2015	09:00:49.560	$GPGGA,090050,2515.0316,N,08006.8132,W,1,9,2.3,20,M,,M,,*57
06/17/2015	09:00:50.550	$GPGGA,090051,2515.0334,N,08006.8127,W,1,9,2.8,20,M,,M,,*59
06/17/2015	09:00:51.580	$GPGGA,090052,2515.0352,N,08006.8118,W,1,8,2.8,20,M,,M,,*57
06/17/2015	09:00:52.540	$GPGGA,090053,2515.0369,N,08006.8111,W,1,8,2.8,20,M,,M,,*57
06/17/2015	09:00:53.560	$GPGGA,090054,2515.0387,N,08006.8107,W,1,8,2.8,20,M,,M,,*57
06/17/2015	09:00:54.530	$GPGGA,090055,2515.0405,N,08006.8100,W,1,8,2.8,20,M,,M,,*5C
06/17/2015	09:00:55.559	$GPGGA,090056,2515.0421,N,08006.8091,W,1,8,2.8,20,M,,M,,*50
06/17/2015	09:00:56.529	$GPGGA,090057,2515.0439,N,08006.8085,W,1,8,2.8,20,M,,M,,*5D
06/17/2015	09:00:57.569	$GPGGA,090058,2515.0457,N,08006.8080,W,1,8,2.8,20,M,,M,,*5F
06/17/2015	09:00:58.539	$GPGGA,090059,2515.0477,N,08006.8067,W,1,8,3.2,20,M,,M,,*5E
06/17/2015	09:00:59.571	$GPGGA,090100,2515.0495,N,08006.8059,W,1,9,2.3,20,M,,M,,*53
06/17/2015	09:01:00.530	$GPGGA,090101,2515.0511,N,08006.8053,W,1,9,2.8,20,M,,M,,*5E
06/17/2015	09:01:01.550	$GPGGA,090102,2515.0529,N,08006.8043,W,1,8,2.8,20,M,,M,,*56
06/17/2015	09:01:02.530	$GPGGA,090103,2515.0547,N,08006.8035,W,1,8,2.5,20,M,,M,,*53
06/17/2015	09:01:03.540	$GPGGA,090104,2515.0565,N,08006.8028,W,1,8,2.8,20,M,,M,,*55
06/17/2015	09:01:04.530	$GPGGA,090105,2515.0583,N,08006.8023,W,1,8,2.8,20,M,,M,,*57
06/17/2015	09:01:05.530	$GPGGA,090106,2515.0602,N,08006.8016,W,1,9,2.3,20,M,,M,,*52
06/17/2015	09:01:06.500	$GPGGA,090107,2515.0619,N,08006.8008,W,1,9,2.3,20,M,,M,,*56
06/17/2015	09:01:07.560	$GPGGA,090108,2515.0637,N,08006.8004,W,1,8,2.8,20,M,,M,,*53
06/17/2015	09:01:08.640	$GPGGA,090109,2515.0655,N,08006.7996,W,1,8,3.2,20,M,,M,,*50
06/17/2015	09:01:09.530	$GPGGA,090110,2515.0672,N,08006.7988,W,1,8,2.8,20,M,,M,,*59
06/17/2015	09:01:10.510	$GPGGA,090111,2515.0688,N,08006.7982,W,1,8,2.8,19,M,,M,,*5D
06/17/2015	09:01:11.520	$GPGGA,090112,2515.0706,N,08006.7976,W,1,8,2.8,19,M,,M,,*52
06/17/2015	09:01:12.510	$GPGGA,090113,2515.0724,N,08006.7967,W,1,8,2.8,19,M,,M,,*53
06/17/2015	09:01:13.499	$GPGGA,090114,2515.0742,N,08006.7957,W,1,8,2.8,19,M,,M,,*57
06/17/2015	09:01:14.629	$GPGGA,090115,2515.0760,N,08006.7951,W,1,8,2.3,19,M,,M,,*5B
06/17/2015	09:01:15.539	$GPGGA,090116,2515.0778,N,08006.7944,W,1,9,2.3,19,M,,M,,*54
06/17/2015	09:01:16.630	$GPGGA,090117,2515.0795,N,08006.7933,W,1,9,2.8,19,M,,M,,*5D
06/17/2015	09:01:17.680	$GPGGA,090118,2515.0813,N,08006.7929,W,1,9,2.3,19,M,,M,,*53
06/17/2015	09:01:18.500	$GPGGA,090119,2515.0831,N,08006.7923,W,1,9,2.8,19,M,,M,,*53
06/17/2015	09:01:19.680	$GPGGA,090120,2515.0849,N,08006.7914,W,1,8,2.8,19,M,,M,,*53
06/17/2015	09:01:20.510	$GPGGA,090121,2515.0865,N,08006.7909,W,1,8,2.8,19,M,,M,,*50
06/17/2015	09:01:21.500	$GPGGA,090122,2515.0883,N,08006.7903,W,1,8,2.8,19,M,,M,,*51
06/17/2015	09:01:22.570	$GPGGA,090123,2515.0901,N,08006.7894,W,1,8,2.8,19,M,,M,,*54
06/17/2015	09:01:23.670	$GPGGA,090124,2515.0919,N,08006.7887,W,1,9,2.3,19,M,,M,,*52
06/17/2015	09:01:24.600	$GPGGA,090125,2515.0938,N,08006.7881,W,1,9,2.3,19,M,,M,,*56
06/17/2015	09:01:25.670	$GPGGA,090126,2515.0956,N,08006.7874,W,1,8,2.8,19,M,,M,,*5D
06/17/2015	09:01:26.591	$GPGGA,090127,2515.0974,N,08006.7866,W,1,8,2.8,19,M,,M,,*5F
06/17/2015	09:01:27.670	$GPGGA,090128,2515.0992,N,08006.7861,W,1,8,2.8,19,M,,M,,*5F
06/17/2015	09:01:28.560	$GPGGA,090129,2515.1010,N,08006.7853,W,1,8,2.8,19,M,,M,,*5D
06/17/2015	09:01:29.670	$GPGGA,090130,2515.1028,N,08006.7846,W,1,8,2.8,19,M,,M,,*5A
06/17/2015	09:01:30.559	$GPGGA,090131,2515.1045,N,08006.7840,W,1,8,2.8,19,M,,M,,*56
06/17/2015	09:01:31.679	$GPGGA,090132,2515.1063,N,08006.7831,W,1,8,2.8,19,M,,M,,*57
06/17/2015	09:01:32.579	$GPGGA,090133,2515.1081,N,08006.7825,W,1,8,2.8,19,M,,M,,*5F
06/17/2015	09:01:33.649	$GPGGA,090134,2515.1099,N,08006.7818,W,1,8,2.8,19,M,,M,,*5F
06/17/2015	09:01:34.560	$GPGGA,090135,2515.1115,N,08006.7810,W,1,8,2.8,19,M,,M,,*53
06/17/2015	09:01:35.660	$GPGGA,090136,2515.1133,N,08006.7803,W,1,8,2.8,19,M,,M,,*56
06/17/2015	09:01:36.571	$GPGGA,090137,2515.1151,N,08006.7795,W,1,8,2.8,19,M,,M,,*53
06/17/2015	09:01:37.540	$GPGGA,090138,2515.1169,N,08006.7788,W,1,8,2.8,19,M,,M,,*5B
06/17/2015	09:01:38.570	$GPGGA,090139,2515.1187,N,08006.7781,W,1,8,2.8,19,M,,M,,*53
06/17/2015	09:01:39.661	$GPGGA,090140,2515.1204,N,08006.7774,W,1,8,2.8,19,M,,M,,*5F
06/17/2015	09:01:40.540	$GPGGA,090141,2515.1223,N,08006.7766,W,1,8,2.8,19,M,,M,,*58
06/17/2015	09:01:41.630	$GPGGA,090142,2515.1240,N,08006.7759,W,1,8,2.8,19,M,,M,,*52
06/17/2015	09:01:42.570	$GPGGA,090143,2515.1258,N,08006.7752,W,1,8,2.8,19,M,,M,,*51
06/17/2015	09:01:43.660	$GPGGA,090144,2515.1277,N,08006.7744,W,1,8,2.8,19,M,,M,,*5C
06/17/2015	09:01:44.570	$GPGGA,090145,2515.1294,N,08006.7736,W,1,8,2.8,19,M,,M,,*55
06/17/2015	09:01:45.620	$GPGGA,090146,2515.1312,N,08006.7726,W,1,8,2.3,19,M,,M,,*53
06/17/2015	09:01:46.520	$GPGGA,090147,2515.1331,N,08006.7718,W,1,8,2.3,19,M,,M,,*5E
06/17/2015	09:01:47.660	$GPGGA,090148,2515.1348,N,08006.7710,W,1,8,2.8,19,M,,M,,*5C
06/17/2015	09:01:48.559	$GPGGA,090149,2515.1366,N,08006.7704,W,1,8,2.8,19,M,,M,,*54
06/17/2015	09:01:49.629	$GPGGA,090150,2515.1385,N,08006.7694,W,1,8,2.3,19,M,,M,,*52
06/17/2015	09:01:50.519	$GPGGA,090151,2515.1402,N,08006.7685,W,1,8,2.3,19,M,,M,,*5B
06/17/2015	09:01:51.640	$GPGGA,090152,2515.1418,N,08006.7677,W,1,9,2.8,19,M,,M,,*54
06/17/2015	09:01:52.510	$GPGGA,090153,2515.1438,N,08006.7670,W,1,9,2.8,19,M,,M,,*50
06/17/2015	09:01:53.510	$GPGGA,090154,2515.1454,N,08006.7660,W,1,8,2.8,19,M,,M,,*5D
06/17/2015	09:01:54.550	$GPGGA,090155,2515.1472,N,08006.7653,W,1,8,2.3,19,M,,M,,*53
06/17/2015	09:01:55.930	$GPGGA,090156,2515.1490,N,08006.7642,W,1,8,2.3,20,M,,M,,*56
06/17/2015	09:01:56.630	$GPGGA,090157,2515.1508,N,08006.7634,W,1,8,2.3,20,M,,M,,*56
06/17/2015	09:01:57.620	$GPGGA,090158,2515.1527,N,08006.7626,W,1,9,2.3,20,M,,M,,*56
06/17/2015	09:01:58.540	$GPGGA,090159,2515.1544,N,08006.7618,W,1,9,2.3,20,M,,M,,*5F
06/17/2015	09:01:59.620	$GPGGA,090200,2515.1563,N,08006.7610,W,1,9,2.8,20,M,,M,,*56
06/17/2015	09:02:00.620	$GPGGA,090201,2515.1581,N,08006.7601,W,1,9,2.3,20,M,,M,,*50
06/17/2015	09:02:01.592	$GPGGA,090202,2515.1598,N,08006.7594,W,1,9,2.3,20,M,,M,,*54
06/17/2015	09:02:02.490	$GPGGA,090203,2515.1616,N,08006.7587,W,1,9,2.3,20,M,,M,,*52
06/17/2015	09:02:03.600	$GPGGA,090204,2515.1634,N,08006.7575,W,1,8,2.3,20,M,,M,,*59
06/17/2015	09:02:04.530	$GPGGA,090205,2515.1652,N,08006.7569,W,1,8,2.3,20,M,,M,,*55
06/17/2015	09:02:05.579	$GPGGA,090206,2515.1671,N,08006.7560,W,1,9,2.3,21,M,,M,,*5E
06/17/2015	09:02:06.579	$GPGGA,090207,2515.1686,N,08006.7554,W,1,9,2.3,21,M,,M,,*50
06/17/2015	09:02:07.619	$GPGGA,090208,2515.1704,N,08006.7546,W,1,9,2.3,21,M,,M,,*57
06/17/2015	09:02:08.529	$GPGGA,090209,2515.1724,N,08006.7538,W,1,9,2.3,21,M,,M,,*5D
06/17/2015	09:02:09.580	$GPGGA,090210,2515.1742,N,08006.7532,W,1,9,2.3,21,M,,M,,*5F
06/17/2015	09:02:10.510	$GPGGA,090211,2515.1758,N,08006.7523,W,1,9,2.3,21,M,,M,,*55
06/17/2015	09:02:11.600	$GPGGA,090212,2515.1776,N,08006.7515,W,1,9,2.3,21,M,,M,,*5F
06/17/2015	09:02:12.580	$GPGGA,090213,2515.1794,N,08006.7509,W,1,9,2.3,21,M,,M,,*5F
06/17/2015	09:02:13.640	$GPGGA,090214,2515.1814,N,08006.7500,W,1,9,2.3,21,M,,M,,*56
06/17/2015	09:02:14.570	$GPGGA,090215,2515.1830,N,08006.7492,W,1,9,2.3,21,M,,M,,*5B
06/17/2015	09:02:15.592	$GPGGA,090216,2515.1848,N,08006.7485,W,1,9,2.3,21,M,,M,,*51
06/17/2015	09:02:16.570	$GPGGA,090217,2515.1866,N,08006.7478,W,1,9,2.3,21,M,,M,,*5E
06/17/2015	09:02:17.620	$GPGGA,090218,2515.1884,N,08006.7470,W,1,9,2.3,21,M,,M,,*55
06/17/2015	09:02:18.560	$GPGGA,090219,2515.1902,N,08006.7461,W,1,9,2.3,21,M,,M,,*5B
06/17/2015	09:02:19.600	$GPGGA,090220,2515.1920,N,08006.7454,W,1,9,2.3,21,M,,M,,*57
06/17/2015	09:02:20.551	$GPGGA,090221,2515.1940,N,08006.7447,W,1,9,2.3,21,M,,M,,*52
06/17/2015	09:02:21.592	$GPGGA,090222,2515.1956,N,08006.7438,W,1,9,2.3,21,M,,M,,*5E
06/17/2015	09:02:22.560	$GPGGA,090223,2515.1974,N,08006.7430,W,1,9,2.3,21,M,,M,,*57
06/17/2015	09:02:23.579	$GPGGA,090224,2515.1992,N,08006.7425,W,1,9,2.8,21,M,,M,,*57
06/17/2015	09:02:24.549	$GPGGA,090225,2515.2010,N,08006.7419,W,1,9,2.8,21,M,,M,,*59
06/17/2015	09:02:25.629	$GPGGA,090226,2515.2029,N,08006.7407,W,1,8,2.3,21,M,,M,,*55
06/17/2015	09:02:26.560	$GPGGA,090227,2515.2046,N,08006.7401,W,1,8,2.8,21,M,,M,,*50
06/17/2015	09:02:27.580	$GPGGA,090228,2515.2046,N,08006.7401,W,1,8,2.8,21,M,,M,,*5F
06/17/2015	09:02:28.560	$GPGGA,090229,2515.2083,N,08006.7385,W,1,8,2.3,21,M,,M,,*57
06/17/2015	09:02:29.591	$GPGGA,090230,2515.2101,N,08006.7377,W,1,9,2.3,21,M,,M,,*58
06/17/2015	09:02:30.550	$GPGGA,090231,2515.2119,N,08006.7371,W,1,9,2.8,21,M,,M,,*5D
06/17/2015	09:02:31.592	$GPGGA,090232,2515.2137,N,08006.7364,W,1,8,2.8,21,M,,M,,*57
06/17/2015	09:02:32.540	$GPGGA,090233,2515.2155,N,08006.7359,W,1,8,2.8,21,M,,M,,*5C
06/17/2015	09:02:33.590	$GPGGA,090234,2515.2173,N,08006.7352,W,1,8,2.3,21,M,,M,,*5F
06/17/2015	09:02:34.540	$GPGGA,090235,2515.2190,N,08006.7342,W,1,8,2.3,21,M,,M,,*52
06/17/2015	09:02:35.570	$GPGGA,090236,2515.2190,N,08006.7342,W,1,9,2.3,21,M,,M,,*50
06/17/2015	09:02:36.530	$GPGGA,090237,2515.2227,N,08006.7329,W,1,9,2.3,20,M,,M,,*52
06/17/2015	09:02:37.540	$GPGGA,090238,2515.2227,N,08006.7329,W,1,9,2.3,20,M,,M,,*5D
06/17/2015	09:02:38.540	$GPGGA,090239,2515.2262,N,08006.7314,W,1,9,2.8,20,M,,M,,*58
06/17/2015	09:02:39.570	$GPGGA,090240,2515.2262,N,08006.7314,W,1,8,2.8,20,M,,M,,*57
06/17/2015	09:02:40.529	$GPGGA,090241,2515.2299,N,08006.7298,W,1,8,2.3,20,M,,M,,*5C
06/17/2015	09:02:41.569	$GPGGA,090242,2515.2299,N,08006.7298,W,1,9,2.3,20,M,,M,,*5E
06/17/2015	09:02:42.519	$GPGGA,090243,2515.2334,N,08006.7284,W,1,9,2.8,20,M,,M,,*5F
06/17/2015	09:02:43.549	$GPGGA,090244,2515.2334,N,08006.7284,W,1,8,2.8,20,M,,M,,*59
06/17/2015	09:02:44.530	$GPGGA,090245,2515.2370,N,08006.7267,W,1,8,2.3,19,M,,M,,*54
06/17/2015	09:02:45.580	$GPGGA,090246,2515.2389,N,08006.7259,W,1,9,2.8,19,M,,M,,*56
06/17/2015	09:02:46.610	$GPGGA,090247,2515.2406,N,08006.7250,W,1,9,2.8,19,M,,M,,*5E
06/17/2015	09:02:47.580	$GPGGA,090248,2515.2424,N,08006.7241,W,1,9,2.3,19,M,,M,,*5A
06/17/2015	09:02:48.560	$GPGGA,090249,2515.2441,N,08006.7233,W,1,9,2.3,19,M,,M,,*5D
06/17/2015	09:02:49.620	$GPGGA,090250,2515.2458,N,08006.7227,W,1,8,2.8,19,M,,M,,*52
06/17/2015	09:02:50.510	$GPGGA,090251,2515.2477,N,08006.7222,W,1,8,2.8,19,M,,M,,*5B
06/17/2015	09:02:51.530	$GPGGA,090252,2515.2477,N,08006.7222,W,1,9,2.3,19,M,,M,,*52
06/17/2015	09:02:52.491	$GPGGA,090253,2515.2513,N,08006.7206,W,1,9,2.5,19,M,,M,,*50
06/17/2015	09:02:53.500	$GPGGA,090254,2515.2513,N,08006.7206,W,1,9,2.3,19,M,,M,,*51
06/17/2015	09:02:54.490	$GPGGA,090255,2515.2549,N,08006.7191,W,1,9,2.3,19,M,,M,,*52
06/17/2015	09:02:55.630	$GPGGA,090256,2515.2567,N,08006.7182,W,1,9,2.3,19,M,,M,,*5F
06/17/2015	09:02:56.510	$GPGGA,090257,2515.2583,N,08006.7176,W,1,9,2.3,19,M,,M,,*5F
06/17/2015	09:02:57.590	$GPGGA,090258,2515.2599,N,08006.7171,W,1,8,2.8,19,M,,M,,*56
06/17/2015	09:02:58.499	$GPGGA,090259,2515.2618,N,08006.7165,W,1,8,2.8,19,M,,M,,*58
06/17/2015	09:02:59.559	$GPGGA,090300,2515.2618,N,08006.7165,W,1,8,2.8,19,M,,M,,*55
06/17/2015	09:03:00.489	$GPGGA,090301,2515.2652,N,08006.7151,W,1,8,2.8,19,M,,M,,*5D
06/17/2015	09:03:01.580	$GPGGA,090302,2515.2671,N,08006.7140,W,1,8,2.8,19,M,,M,,*5F
06/17/2015	09:03:02.570	$GPGGA,090303,2515.2690,N,08006.7130,W,1,8,2.3,19,M,,M,,*5D
06/17/2015	09:03:03.630	$GPGGA,090304,2515.2707,N,08006.7124,W,1,8,2.5,19,M,,M,,*56
06/17/2015	09:03:04.590	$GPGGA,090305,2515.2724,N,08006.7117,W,1,8,2.8,19,M,,M,,*5B
06/17/2015	09:03:05.580	$GPGGA,090306,2515.2742,N,08006.7110,W,1,8,2.8,20,M,,M,,*55
06/17/2015	09:03:06.560	$GPGGA,090307,2515.2760,N,08006.7105,W,1,8,2.3,20,M,,M,,*5B
06/17/2015	09:03:07.570	$GPGGA,090308,2515.2776,N,08006.7096,W,1,8,2.8,20,M,,M,,*53
06/17/2015	09:03:08.570	$GPGGA,090309,2515.2794,N,08006.7090,W,1,8,2.8,20,M,,M,,*58
06/17/2015	09:03:09.600	$GPGGA,090310,2515.2813,N,08006.7080,W,1,8,2.8,20,M,,M,,*51
06/17/2015	09:03:10.560	$GPGGA,090311,2515.2831,N,08006.7074,W,1,8,2.3,20,M,,M,,*50
06/17/2015	09:03:11.600	$GPGGA,090312,2515.2848,N,08006.7066,W,1,8,2.8,20,M,,M,,*55
06/17/2015	09:03:12.850	$GPGGA,090313,2515.2867,N,08006.7055,W,1,8,2.8,20,M,,M,,*59
06/17/2015	09:03:13.550	$GPGGA,090314,2515.2885,N,08006.7046,W,1,9,2.3,21,M,,M,,*5B
06/17/2015	09:03:14.550	$GPGGA,090315,2515.2903,N,08006.7036,W,1,9,2.3,21,M,,M,,*52
06/17/2015	09:03:15.559	$GPGGA,090316,2515.2920,N,08006.7030,W,1,9,2.3,21,M,,M,,*56
06/17/2015	09:03:16.549	$GPGGA,090317,2515.2938,N,08006.7025,W,1,9,2.8,21,M,,M,,*51
06/17/2015	09:03:17.539	$GPGGA,090318,2515.2957,N,08006.7016,W,1,9,2.3,21,M,,M,,*5C
06/17/2015	09:03:18.549	$GPGGA,090319,2515.2974,N,08006.7006,W,1,9,2.3,21,M,,M,,*5D
06/17/2015	09:03:19.580	$GPGGA,090320,2515.2992,N,08006.7001,W,1,9,2.3,22,M,,M,,*5B
06/17/2015	09:03:20.540	$GPGGA,090321,2515.3010,N,08006.6996,W,1,9,2.8,22,M,,M,,*55
06/17/2015	09:03:21.530	$GPGGA,090322,2515.3026,N,08006.6987,W,1,7,3.2,22,M,,M,,*56
06/17/2015	09:03:22.540	$GPGGA,090323,2515.3044,N,08006.6981,W,1,7,2.8,22,M,,M,,*5E
06/17/2015	09:03:23.560	$GPGGA,090324,2515.3062,N,08006.6975,W,1,8,2.8,22,M,,M,,*59
06/17/2015	09:03:24.520	$GPGGA,090325,2515.3080,N,08006.6967,W,1,8,2.8,22,M,,M,,*57
06/17/2015	09:03:25.540	$GPGGA,090326,2515.3097,N,08006.6959,W,1,8,2.8,22,M,,M,,*5F
06/17/2015	09:03:26.530	$GPGGA,090327,2515.3116,N,08006.6953,W,1,8,2.8,22,M,,M,,*5C
06/17/2015	09:03:27.570	$GPGGA,090328,2515.3134,N,08006.6944,W,1,9,2.3,22,M,,M,,*5F
06/17/2015	09:03:28.520	$GPGGA,090329,2515.3151,N,08006.6936,W,1,9,2.3,22,M,,M,,*58
06/17/2015	09:03:29.560	$GPGGA,090330,2515.3169,N,08006.6932,W,1,8,2.8,22,M,,M,,*55
06/17/2015	09:03:30.530	$GPGGA,090331,2515.3187,N,08006.6925,W,1,8,2.8,22,M,,M,,*52
06/17/2015	09:03:31.550	$GPGGA,090332,2515.3203,N,08006.6917,W,1,8,2.8,22,M,,M,,*5F
06/17/2015	09:03:33.549	$GPGGA,090334,2515.3239,N,08006.6905,W,1,8,2.8,22,M,,M,,*53
06/17/2015	09:03:34.629	$GPGGA,090335,2515.3257,N,08006.6897,W,1,8,2.8,22,M,,M,,*50
06/17/2015	09:03:35.539	$GPGGA,090336,2515.3274,N,08006.6889,W,1,8,2.8,22,M,,M,,*5D
06/17/2015	09:03:36.510	$GPGGA,090337,2515.3293,N,08006.6879,W,1,8,2.3,22,M,,M,,*51
06/17/2015	09:03:37.510	$GPGGA,090338,2515.3311,N,08006.6869,W,1,9,2.3,22,M,,M,,*55
06/17/2015	09:03:38.491	$GPGGA,090339,2515.3329,N,08006.6860,W,1,9,2.5,22,M,,M,,*50
06/17/2015	09:03:39.630	$GPGGA,090340,2515.3347,N,08006.6854,W,1,9,2.3,22,M,,M,,*57
06/17/2015	09:03:40.600	$GPGGA,090341,2515.3365,N,08006.6846,W,1,9,2.8,22,M,,M,,*5E
06/17/2015	09:03:41.620	$GPGGA,090342,2515.3383,N,08006.6836,W,1,9,2.3,22,M,,M,,*59
06/17/2015	09:03:42.510	$GPGGA,090343,2515.3401,N,08006.6826,W,1,9,2.3,22,M,,M,,*54
06/17/2015	09:03:43.630	$GPGGA,090344,2515.3419,N,08006.6819,W,1,9,2.3,22,M,,M,,*56
06/17/2015	09:03:44.500	$GPGGA,090345,2515.3438,N,08006.6815,W,1,9,2.8,23,M,,M,,*52
06/17/2015	09:03:45.491	$GPGGA,090346,2515.3455,N,08006.6809,W,1,8,2.8,23,M,,M,,*56
06/17/2015	09:03:46.592	$GPGGA,090347,2515.3472,N,08006.6801,W,1,8,3.2,22,M,,M,,*50
06/17/2015	09:03:47.630	$GPGGA,090348,2515.3490,N,08006.6795,W,1,9,2.3,22,M,,M,,*50
06/17/2015	09:03:48.580	$GPGGA,090349,2515.3508,N,08006.6789,W,1,9,2.8,22,M,,M,,*57
06/17/2015	09:03:49.602	$GPGGA,090350,2515.3526,N,08006.6780,W,1,8,2.8,22,M,,M,,*5B
06/17/2015	09:03:50.579	$GPGGA,090351,2515.3544,N,08006.6773,W,1,8,2.3,22,M,,M,,*59
06/17/2015	09:03:51.599	$GPGGA,090352,2515.3563,N,08006.6763,W,1,8,2.8,22,M,,M,,*55
06/17/2015	09:03:52.569	$GPGGA,090353,2515.3581,N,08006.6758,W,1,8,2.3,22,M,,M,,*5B
06/17/2015	09:03:53.579	$GPGGA,090354,2515.3599,N,08006.6745,W,1,8,2.8,22,M,,M,,*52
06/17/2015	09:03:54.570	$GPGGA,090355,2515.3615,N,08006.6739,W,1,8,2.3,22,M,,M,,*54
06/17/2015	09:03:55.570	$GPGGA,090356,2515.3633,N,08006.6733,W,1,8,2.8,22,M,,M,,*52
06/17/2015	09:03:56.560	$GPGGA,090357,2515.3653,N,08006.6724,W,1,8,2.8,22,M,,M,,*53
06/17/2015	09:03:57.580	$GPGGA,090358,2515.3671,N,08006.6716,W,1,9,2.3,22,M,,M,,*57
06/17/2015	09:03:58.560	$GPGGA,090359,2515.3689,N,08006.6710,W,1,9,2.3,22,M,,M,,*57
06/17/2015	09:03:59.593	$GPGGA,090400,2515.3705,N,08006.6705,W,1,8,2.8,22,M,,M,,*57
06/17/2015	09:04:00.560	$GPGGA,090401,2515.3725,N,08006.6698,W,1,8,2.8,22,M,,M,,*51
06/17/2015	09:04:01.570	$GPGGA,090402,2515.3741,N,08006.6691,W,1,8,2.8,22,M,,M,,*59
06/17/2015	09:04:02.560	$GPGGA,090403,2515.3759,N,08006.6683,W,1,8,2.8,22,M,,M,,*52
06/17/2015	09:04:03.580	$GPGGA,090404,2515.3777,N,08006.6674,W,1,9,2.3,22,M,,M,,*5B
06/17/2015	09:04:04.540	$GPGGA,090405,2515.3795,N,08006.6665,W,1,9,2.3,22,M,,M,,*56
06/17/2015	09:04:05.530	$GPGGA,090406,2515.3813,N,08006.6659,W,1,9,2.3,22,M,,M,,*5B
06/17/2015	09:04:06.540	$GPGGA,090407,2515.3831,N,08006.6653,W,1,9,2.8,22,M,,M,,*5B
06/17/2015	09:04:07.569	$GPGGA,090408,2515.3849,N,08006.6644,W,1,8,2.8,22,M,,M,,*5C
06/17/2015	09:04:08.529	$GPGGA,090409,2515.3866,N,08006.6637,W,1,8,2.3,22,M,,M,,*5F
06/17/2015	09:04:09.549	$GPGGA,090410,2515.3885,N,08006.6631,W,1,8,2.8,22,M,,M,,*57
06/17/2015	09:04:10.519	$GPGGA,090411,2515.3902,N,08006.6624,W,1,8,2.8,22,M,,M,,*5C
06/17/2015	09:04:11.819	$GPGGA,090412,2515.3921,N,08006.6613,W,1,8,2.8,22,M,,M,,*5A
06/17/2015	09:04:12.529	$GPGGA,090413,2515.3939,N,08006.6608,W,1,8,2.3,22,M,,M,,*53
06/17/2015	09:04:13.559	$GPGGA,090414,2515.3957,N,08006.6599,W,1,8,2.8,21,M,,M,,*5F
06/17/2015	09:04:14.509	$GPGGA,090415,2515.3974,N,08006.6591,W,1,8,2.3,21,M,,M,,*5C
06/17/2015	09:04:15.529	$GPGGA,090416,2515.3992,N,08006.6586,W,1,8,2.8,21,M,,M,,*5A
06/17/2015	09:04:16.509	$GPGGA,090417,2515.4012,N,08006.6578,W,1,8,2.8,21,M,,M,,*5C
06/17/2015	09:04:17.539	$GPGGA,090418,2515.4030,N,08006.6570,W,1,9,2.3,21,M,,M,,*51
06/17/2015	09:04:18.499	$GPGGA,090419,2515.4047,N,08006.6564,W,1,9,2.8,21,M,,M,,*5E
06/17/2015	09:04:19.529	$GPGGA,090420,2515.4065,N,08006.6558,W,1,8,2.8,21,M,,M,,*5A
06/17/2015	09:04:20.519	$GPGGA,090421,2515.4084,N,08006.6551,W,1,8,2.3,21,M,,M,,*56
06/17/2015	09:04:21.499	$GPGGA,090422,2515.4101,N,08006.6544,W,1,9,2.3,21,M,,M,,*5C
06/17/2015	09:04:22.620	$GPGGA,090423,2515.4119,N,08006.6536,W,1,9,2.8,21,M,,M,,*5A
06/17/2015	09:04:23.550	$GPGGA,090424,2515.4138,N,08006.6528,W,1,8,2.8,21,M,,M,,*50
06/17/2015	09:04:24.630	$GPGGA,090425,2515.4156,N,08006.6518,W,1,8,2.3,21,M,,M,,*51
06/17/2015	09:04:25.519	$GPGGA,090426,2515.4174,N,08006.6509,W,1,9,2.3,21,M,,M,,*53
06/17/2015	09:04:26.509	$GPGGA,090427,2515.4192,N,08006.6502,W,1,9,2.8,21,M,,M,,*5A
06/17/2015	09:04:27.519	$GPGGA,090428,2515.4211,N,08006.6495,W,1,9,2.3,21,M,,M,,*59
06/17/2015	09:04:28.485	$GPGGA,090429,2515.4229,N,08006.6487,W,1,9,2.3,21,M,,M,,*50
06/17/2015	09:04:29.509	$GPGGA,090430,2515.4246,N,08006.6477,W,1,8,2.7,21,M,,M,,*5B
06/17/2015	09:04:30.499	$GPGGA,090431,2515.4264,N,08006.6471,W,1,8,2.3,21,M,,M,,*58
06/17/2015	09:04:31.589	$GPGGA,090432,2515.4282,N,08006.6465,W,1,9,2.3,21,M,,M,,*57
06/17/2015	09:04:32.499	$GPGGA,090433,2515.4299,N,08006.6457,W,1,9,2.7,21,M,,M,,*59
06/17/2015	09:04:33.489	$GPGGA,090434,2515.4316,N,08006.6451,W,1,9,2.3,21,M,,M,,*5A
06/17/2015	09:04:34.499	$GPGGA,090435,2515.4334,N,08006.6445,W,1,9,2.7,21,M,,M,,*5A
06/17/2015	09:04:35.609	$GPGGA,090436,2515.4352,N,08006.6436,W,1,8,2.7,21,M,,M,,*5C
06/17/2015	09:04:36.489	$GPGGA,090437,2515.4370,N,08006.6429,W,1,8,2.3,21,M,,M,,*57
06/17/2015	09:04:37.569	$GPGGA,090438,2515.4388,N,08006.6423,W,1,8,2.7,21,M,,M,,*51
06/17/2015	09:04:38.480	$GPGGA,090439,2515.4406,N,08006.6418,W,1,8,2.7,21,M,,M,,*59
06/17/2015	09:04:39.590	$GPGGA,090440,2515.4424,N,08006.6410,W,1,8,2.7,21,M,,M,,*5F
06/17/2015	09:04:40.570	$GPGGA,090441,2515.4442,N,08006.6403,W,1,8,2.7,21,M,,M,,*5C
06/17/2015	09:04:41.560	$GPGGA,090442,2515.4460,N,08006.6395,W,1,8,2.7,21,M,,M,,*57
06/17/2015	09:04:42.559	$GPGGA,090443,2515.4478,N,08006.6387,W,1,8,2.3,21,M,,M,,*58
06/17/2015	09:04:43.569	$GPGGA,090444,2515.4496,N,08006.6381,W,1,8,2.7,21,M,,M,,*5D
06/17/2015	09:04:44.549	$GPGGA,090445,2515.4514,N,08006.6373,W,1,8,2.7,21,M,,M,,*5A
06/17/2015	09:04:45.569	$GPGGA,090446,2515.4532,N,08006.6363,W,1,9,2.3,21,M,,M,,*59
06/17/2015	09:04:46.549	$GPGGA,090447,2515.4550,N,08006.6353,W,1,9,2.3,21,M,,M,,*5F
06/17/2015	09:04:47.581	$GPGGA,090448,2515.4568,N,08006.6347,W,1,9,2.3,21,M,,M,,*5E
06/17/2015	09:04:48.549	$GPGGA,090449,2515.4586,N,08006.6340,W,1,9,2.3,21,M,,M,,*58
06/17/2015	09:04:49.559	$GPGGA,090450,2515.4604,N,08006.6333,W,1,8,2.7,21,M,,M,,*58
06/17/2015	09:04:50.549	$GPGGA,090451,2515.4619,N,08006.6326,W,1,8,2.7,21,M,,M,,*51
06/17/2015	09:04:51.582	$GPGGA,090452,2515.4639,N,08006.6318,W,1,9,2.3,21,M,,M,,*58
06/17/2015	09:04:52.539	$GPGGA,090453,2515.4655,N,08006.6311,W,1,9,2.3,21,M,,M,,*5A
06/17/2015	09:04:53.529	$GPGGA,090454,2515.4673,N,08006.6305,W,1,8,2.7,21,M,,M,,*59
06/17/2015	09:04:54.549	$GPGGA,090455,2515.4691,N,08006.6299,W,1,8,2.3,21,M,,M,,*54
06/17/2015	09:04:55.569	$GPGGA,090456,2515.4708,N,08006.6291,W,1,8,2.7,21,M,,M,,*5A
06/17/2015	09:04:56.529	$GPGGA,090457,2515.4724,N,08006.6284,W,1,8,2.7,21,M,,M,,*51
06/17/2015	09:04:57.560	$GPGGA,090458,2515.4742,N,08006.6279,W,1,8,2.7,21,M,,M,,*5C
06/17/2015	09:04:58.520	$GPGGA,090459,2515.4760,N,08006.6271,W,1,8,2.3,21,M,,M,,*51
06/17/2015	09:04:59.582	$GPGGA,090500,2515.4778,N,08006.6264,W,1,8,2.7,21,M,,M,,*55
06/17/2015	09:05:00.529	$GPGGA,090501,2515.4796,N,08006.6259,W,1,8,2.7,21,M,,M,,*5A
06/17/2015	09:05:01.519	$GPGGA,090502,2515.4814,N,08006.6251,W,1,8,2.7,21,M,,M,,*54
06/17/2015	09:05:02.529	$GPGGA,090503,2515.4831,N,08006.6243,W,1,8,2.7,21,M,,M,,*51
06/17/2015	09:05:03.559	$GPGGA,090504,2515.4847,N,08006.6234,W,1,8,2.7,20,M,,M,,*56
06/17/2015	09:05:04.529	$GPGGA,090505,2515.4865,N,08006.6225,W,1,8,2.3,20,M,,M,,*53
06/17/2015	09:05:05.549	$GPGGA,090506,2515.4883,N,08006.6218,W,1,9,2.3,20,M,,M,,*57
06/17/2015	09:05:06.529	$GPGGA,090507,2515.4901,N,08006.6208,W,1,9,2.7,20,M,,M,,*58
06/17/2015	09:05:07.639	$GPGGA,090508,2515.4919,N,08006.6202,W,1,9,2.3,20,M,,M,,*50
06/17/2015	09:05:08.599	$GPGGA,090509,2515.4937,N,08006.6192,W,1,9,2.3,20,M,,M,,*57
06/17/2015	09:05:09.529	$GPGGA,090510,2515.4955,N,08006.6182,W,1,9,2.3,20,M,,M,,*5A
06/17/2015	09:05:10.519	$GPGGA,090511,2515.4975,N,08006.6172,W,1,9,2.3,21,M,,M,,*57
06/17/2015	09:05:11.519	$GPGGA,090512,2515.4993,N,08006.6162,W,1,9,2.3,21,M,,M,,*5D
06/17/2015	09:05:12.499	$GPGGA,090513,2515.5011,N,08006.6156,W,1,9,2.3,21,M,,M,,*59
06/17/2015	09:05:13.519	$GPGGA,090514,2515.5027,N,08006.6150,W,1,8,2.7,21,M,,M,,*58
06/17/2015	09:05:14.610	$GPGGA,090515,2515.5045,N,08006.6145,W,1,8,2.7,21,M,,M,,*59
06/17/2015	09:05:15.520	$GPGGA,090516,2515.5063,N,08006.6139,W,1,9,2.3,21,M,,M,,*50
06/17/2015	09:05:16.610	$GPGGA,090517,2515.5081,N,08006.6130,W,1,9,2.7,21,M,,M,,*50
06/17/2015	09:05:17.619	$GPGGA,090518,2515.5099,N,08006.6124,W,1,9,2.3,21,M,,M,,*57
06/17/2015	09:05:18.489	$GPGGA,090519,2515.5117,N,08006.6118,W,1,9,2.7,21,M,,M,,*5A
06/17/2015	09:05:19.599	$GPGGA,090520,2515.5134,N,08006.6111,W,1,8,2.7,21,M,,M,,*59
06/17/2015	09:05:20.479	$GPGGA,090521,2515.5152,N,08006.6102,W,1,8,2.7,21,M,,M,,*5A
06/17/2015	09:05:21.599	$GPGGA,090522,2515.5171,N,08006.6092,W,1,9,2.3,21,M,,M,,*55
06/17/2015	09:05:22.489	$GPGGA,090523,2515.5188,N,08006.6085,W,1,9,2.3,21,M,,M,,*54
06/17/2015	09:05:23.589	$GPGGA,090524,2515.5204,N,08006.6079,W,1,8,2.7,21,M,,M,,*52
06/17/2015	09:05:24.480	$GPGGA,090525,2515.5222,N,08006.6073,W,1,8,2.7,21,M,,M,,*5D
06/17/2015	09:05:25.569	$GPGGA,090526,2515.5240,N,08006.6065,W,1,8,2.5,21,M,,M,,*5F
06/17/2015	09:05:26.569	$GPGGA,090527,2515.5258,N,08006.6056,W,1,8,2.7,21,M,,M,,*55
06/17/2015	09:05:28.599	$GPGGA,090529,2515.5294,N,08006.6043,W,1,9,2.3,21,M,,M,,*5A
06/17/2015	09:05:29.589	$GPGGA,090530,2515.5311,N,08006.6037,W,1,7,3.2,21,M,,M,,*53
06/17/2015	09:05:30.559	$GPGGA,090531,2515.5329,N,08006.6024,W,1,7,2.3,21,M,,M,,*5B
06/17/2015	09:05:31.590	$GPGGA,090532,2515.5348,N,08006.6014,W,1,9,2.3,21,M,,M,,*52
06/17/2015	09:05:32.560	$GPGGA,090533,2515.5366,N,08006.6003,W,1,9,2.3,21,M,,M,,*59
06/17/2015	09:05:33.570	$GPGGA,090534,2515.5384,N,08006.5993,W,1,9,2.3,21,M,,M,,*51
06/17/2015	09:05:34.550	$GPGGA,090535,2515.5402,N,08006.5985,W,1,9,2.3,21,M,,M,,*5E
06/17/2015	09:05:35.589	$GPGGA,090536,2515.5420,N,08006.5976,W,1,9,2.3,21,M,,M,,*51
06/17/2015	09:05:36.550	$GPGGA,090537,2515.5438,N,08006.5967,W,1,9,2.3,21,M,,M,,*59
06/17/2015	09:05:37.560	$GPGGA,090538,2515.5454,N,08006.5960,W,1,9,2.3,21,M,,M,,*5B
06/17/2015	09:05:38.550	$GPGGA,090539,2515.5474,N,08006.5951,W,1,9,2.3,21,M,,M,,*5A
06/17/2015	09:05:39.599	$GPGGA,090540,2515.5490,N,08006.5943,W,1,8,2.5,21,M,,M,,*5A
06/17/2015	09:05:40.550	$GPGGA,090541,2515.5508,N,08006.5936,W,1,8,2.3,21,M,,M,,*5F
06/17/2015	09:05:41.539	$GPGGA,090542,2515.5526,N,08006.5931,W,1,8,2.5,22,M,,M,,*52
06/17/2015	09:05:42.540	$GPGGA,090543,2515.5544,N,08006.5924,W,1,8,3.2,22,M,,M,,*55
06/17/2015	09:05:43.569	$GPGGA,090544,2515.5562,N,08006.5919,W,1,8,2.7,22,M,,M,,*5C
06/17/2015	09:05:44.539	$GPGGA,090545,2515.5580,N,08006.5910,W,1,8,2.7,21,M,,M,,*5B
06/17/2015	09:05:45.530	$GPGGA,090546,2515.5598,N,08006.5901,W,1,8,2.5,21,M,,M,,*53
06/17/2015	09:05:46.539	$GPGGA,090547,2515.5616,N,08006.5894,W,1,8,2.3,21,M,,M,,*5C
06/17/2015	09:05:47.559	$GPGGA,090548,2515.5634,N,08006.5886,W,1,9,2.3,21,M,,M,,*51
06/17/2015	09:05:48.529	$GPGGA,090549,2515.5652,N,08006.5879,W,1,9,2.3,21,M,,M,,*50
06/17/2015	09:05:49.550	$GPGGA,090550,2515.5669,N,08006.5876,W,1,8,2.7,22,M,,M,,*59
06/17/2015	09:05:50.530	$GPGGA,090551,2515.5688,N,08006.5870,W,1,8,2.3,21,M,,M,,*56
06/17/2015	09:05:51.530	$GPGGA,090552,2515.5705,N,08006.5862,W,1,9,2.3,21,M,,M,,*53
06/17/2015	09:05:52.519	$GPGGA,090553,2515.5723,N,08006.5856,W,1,9,2.3,22,M,,M,,*52
06/17/2015	09:05:53.519	$GPGGA,090554,2515.5741,N,08006.5847,W,1,9,2.3,22,M,,M,,*51
06/17/2015	09:05:54.519	$GPGGA,090555,2515.5759,N,08006.5842,W,1,9,2.3,22,M,,M,,*5C
06/17/2015	09:05:55.559	$GPGGA,090556,2515.5775,N,08006.5834,W,1,7,3.2,21,M,,M,,*5D
06/17/2015	09:05:56.529	$GPGGA,090557,2515.5793,N,08006.5825,W,1,7,2.3,21,M,,M,,*54
06/17/2015	09:05:57.549	$GPGGA,090558,2515.5811,N,08006.5816,W,1,9,2.3,22,M,,M,,*53
06/17/2015	09:05:58.509	$GPGGA,090559,2515.5831,N,08006.5808,W,1,9,2.3,22,M,,M,,*5F
06/17/2015	09:05:59.669	$GPGGA,090600,2515.5847,N,08006.5799,W,1,9,2.3,22,M,,M,,*56
06/17/2015	09:06:00.499	$GPGGA,090601,2515.5865,N,08006.5790,W,1,9,2.3,22,M,,M,,*5E
06/17/2015	09:06:01.519	$GPGGA,090602,2515.5883,N,08006.5784,W,1,9,2.3,22,M,,M,,*50
06/17/2015	09:06:02.499	$GPGGA,090603,2515.5901,N,08006.5776,W,1,9,2.3,22,M,,M,,*57
06/17/2015	09:06:03.659	$GPGGA,090604,2515.5919,N,08006.5768,W,1,9,2.3,22,M,,M,,*56
06/17/2015	09:06:04.509	$GPGGA,090605,2515.5938,N,08006.5761,W,1,9,2.3,22,M,,M,,*5D
06/17/2015	09:06:05.509	$GPGGA,090606,2515.5956,N,08006.5754,W,1,9,2.3,22,M,,M,,*50
06/17/2015	09:06:06.510	$GPGGA,090607,2515.5974,N,08006.5746,W,1,9,2.3,22,M,,M,,*52
06/17/2015	09:06:07.520	$GPGGA,090608,2515.5992,N,08006.5738,W,1,9,2.3,22,M,,M,,*5C
06/17/2015	09:06:08.600	$GPGGA,090609,2515.6010,N,08006.5729,W,1,9,2.3,22,M,,M,,*5D
06/17/2015	09:06:09.490	$GPGGA,090610,2515.6028,N,08006.5722,W,1,9,2.3,22,M,,M,,*55
06/17/2015	09:06:10.489	$GPGGA,090611,2515.6046,N,08006.5715,W,1,9,2.3,22,M,,M,,*58
06/17/2015	09:06:11.629	$GPGGA,090612,2515.6064,N,08006.5706,W,1,9,2.3,22,M,,M,,*59
06/17/2015	09:06:12.582	$GPGGA,090613,2515.6082,N,08006.5700,W,1,9,2.7,22,M,,M,,*52
06/17/2015	09:06:13.583	$GPGGA,090614,2515.6100,N,08006.5693,W,1,8,2.3,22,M,,M,,*50
06/17/2015	09:06:14.584	$GPGGA,090615,2515.6118,N,08006.5685,W,1,8,2.7,22,M,,M,,*5B
06/17/2015	09:06:15.609	$GPGGA,090616,2515.6136,N,08006.5679,W,1,8,2.7,22,M,,M,,*57
06/17/2015	09:06:16.569	$GPGGA,090617,2515.6154,N,08006.5672,W,1,8,2.3,22,M,,M,,*5D
06/17/2015	09:06:17.589	$GPGGA,090618,2515.6174,N,08006.5660,W,1,9,2.3,23,M,,M,,*53
06/17/2015	09:06:18.569	$GPGGA,090619,2515.6190,N,08006.5655,W,1,9,2.3,23,M,,M,,*5E
06/17/2015	09:06:19.609	$GPGGA,090620,2515.6208,N,08006.5647,W,1,9,2.3,23,M,,M,,*55
06/17/2015	09:06:20.559	$GPGGA,090621,2515.6227,N,08006.5641,W,1,9,2.7,23,M,,M,,*5B
06/17/2015	09:06:21.579	$GPGGA,090622,2515.6243,N,08006.5634,W,1,8,2.3,23,M,,M,,*5D
06/17/2015	09:06:22.559	$GPGGA,090623,2515.6261,N,08006.5625,W,1,8,2.3,23,M,,M,,*5C
06/17/2015	09:06:23.599	$GPGGA,090624,2515.6279,N,08006.5619,W,1,9,2.7,23,M,,M,,*58
06/17/2015	09:06:24.560	$GPGGA,090625,2515.6295,N,08006.5613,W,1,9,2.3,23,M,,M,,*55
06/17/2015	09:06:25.550	$GPGGA,090626,2515.6313,N,08006.5605,W,1,9,2.7,23,M,,M,,*5A
06/17/2015	09:06:26.550	$GPGGA,090627,2515.6331,N,08006.5596,W,1,9,2.3,23,M,,M,,*56
06/17/2015	09:06:27.580	$GPGGA,090628,2515.6349,N,08006.5588,W,1,9,2.3,23,M,,M,,*59
06/17/2015	09:06:28.550	$GPGGA,090629,2515.6367,N,08006.5579,W,1,9,2.3,23,M,,M,,*5A
06/17/2015	09:06:29.559	$GPGGA,090630,2515.6385,N,08006.5570,W,1,9,2.3,23,M,,M,,*57
06/17/2015	09:06:30.549	$GPGGA,090631,2515.6404,N,08006.5562,W,1,9,2.3,23,M,,M,,*5B
06/17/2015	09:06:31.569	$GPGGA,090632,2515.6422,N,08006.5554,W,1,9,2.3,23,M,,M,,*59
06/17/2015	09:06:32.539	$GPGGA,090633,2515.6440,N,08006.5544,W,1,9,2.3,23,M,,M,,*5D
06/17/2015	09:06:33.539	$GPGGA,090634,2515.6457,N,08006.5536,W,1,9,2.3,23,M,,M,,*59
06/17/2015	09:06:34.529	$GPGGA,090635,2515.6476,N,08006.5527,W,1,9,2.3,23,M,,M,,*5B
06/17/2015	09:06:35.569	$GPGGA,090636,2515.6494,N,08006.5518,W,1,9,2.3,23,M,,M,,*58
06/17/2015	09:06:36.519	$GPGGA,090637,2515.6512,N,08006.5510,W,1,9,2.3,23,M,,M,,*5E
06/17/2015	09:06:37.539	$GPGGA,090638,2515.6530,N,08006.5501,W,1,9,2.3,23,M,,M,,*51
06/17/2015	09:06:38.529	$GPGGA,090639,2515.6548,N,08006.5495,W,1,9,2.7,23,M,,M,,*57
06/17/2015	09:06:39.559	$GPGGA,090640,2515.6566,N,08006.5484,W,1,8,2.3,23,M,,M,,*50
06/17/2015	09:06:40.529	$GPGGA,090641,2515.6583,N,08006.5479,W,1,8,2.3,24,M,,M,,*5F
06/17/2015	09:06:41.550	$GPGGA,090642,2515.6602,N,08006.5472,W,1,9,2.3,24,M,,M,,*5C
06/17/2015	09:06:42.510	$GPGGA,090643,2515.6619,N,08006.5465,W,1,9,2.3,24,M,,M,,*51
06/17/2015	09:06:43.560	$GPGGA,090644,2515.6637,N,08006.5456,W,1,9,2.3,24,M,,M,,*5A
06/17/2015	09:06:44.540	$GPGGA,090645,2515.6655,N,08006.5446,W,1,9,2.3,24,M,,M,,*5E
06/17/2015	09:06:45.539	$GPGGA,090646,2515.6673,N,08006.5438,W,1,9,2.3,24,M,,M,,*50
06/17/2015	09:06:46.619	$GPGGA,090647,2515.6691,N,08006.5431,W,1,9,2.3,24,M,,M,,*54
06/17/2015	09:06:47.559	$GPGGA,090648,2515.6709,N,08006.5423,W,1,9,2.3,24,M,,M,,*58
06/17/2015	09:06:48.519	$GPGGA,090649,2515.6727,N,08006.5414,W,1,9,2.3,24,M,,M,,*51
06/17/2015	09:06:49.619	$GPGGA,090650,2515.6745,N,08006.5406,W,1,9,2.3,24,M,,M,,*5E
06/17/2015	09:06:50.609	$GPGGA,090651,2515.6763,N,08006.5400,W,1,9,2.7,24,M,,M,,*59
06/17/2015	09:06:51.539	$GPGGA,090652,2515.6781,N,08006.5392,W,1,8,2.3,24,M,,M,,*5F
06/17/2015	09:06:52.509	$GPGGA,090653,2515.6799,N,08006.5383,W,1,8,2.3,24,M,,M,,*57
06/17/2015	09:06:53.520	$GPGGA,090654,2515.6816,N,08006.5377,W,1,9,2.3,24,M,,M,,*52
06/17/2015	09:06:54.519	$GPGGA,090655,2515.6836,N,08006.5369,W,1,9,2.3,24,M,,M,,*5E
06/17/2015	09:06:55.599	$GPGGA,090656,2515.6854,N,08006.5361,W,1,9,2.3,24,M,,M,,*51
06/17/2015	09:06:56.489	$GPGGA,090657,2515.6872,N,08006.5355,W,1,9,2.3,24,M,,M,,*53
06/17/2015	09:06:57.499	$GPGGA,090658,2515.6890,N,08006.5347,W,1,9,2.3,24,M,,M,,*53
06/17/2015	09:06:58.489	$GPGGA,090659,2515.6908,N,08006.5339,W,1,9,2.3,24,M,,M,,*5B
06/17/2015	09:06:59.600	$GPGGA,090700,2515.6924,N,08006.5333,W,1,9,2.7,24,M,,M,,*56
06/17/2015	09:07:00.500	$GPGGA,090701,2515.6942,N,08006.5326,W,1,9,2.7,24,M,,M,,*53
06/17/2015	09:07:01.590	$GPGGA,090702,2515.6962,N,08006.5318,W,1,8,2.3,24,M,,M,,*5A
06/17/2015	09:07:02.569	$GPGGA,090703,2515.6980,N,08006.5310,W,1,8,2.3,24,M,,M,,*5F
06/17/2015	09:07:03.583	$GPGGA,090704,2515.6998,N,08006.5302,W,1,9,2.3,24,M,,M,,*53
06/17/2015	09:07:04.880	$GPGGA,090705,2515.7017,N,08006.5294,W,1,9,2.3,24,M,,M,,*53
06/17/2015	09:07:05.569	$GPGGA,090706,2515.7034,N,08006.5287,W,1,9,2.3,24,M,,M,,*53
06/17/2015	09:07:06.559	$GPGGA,090707,2515.7052,N,08006.5279,W,1,9,2.3,24,M,,M,,*53
06/17/2015	09:07:07.599	$GPGGA,090708,2515.7070,N,08006.5272,W,1,9,2.3,24,M,,M,,*57
06/17/2015	09:07:08.569	$GPGGA,090709,2515.7087,N,08006.5265,W,1,9,2.3,24,M,,M,,*58
06/17/2015	09:07:09.581	$GPGGA,090710,2515.7105,N,08006.5257,W,1,9,2.3,24,M,,M,,*5A
06/17/2015	09:07:10.560	$GPGGA,090711,2515.7123,N,08006.5249,W,1,9,2.3,24,M,,M,,*50
06/17/2015	09:07:11.589	$GPGGA,090712,2515.7141,N,08006.5243,W,1,9,2.3,24,M,,M,,*5D
06/17/2015	09:07:12.560	$GPGGA,090713,2515.7161,N,08006.5235,W,1,9,2.3,24,M,,M,,*5F
06/17/2015	09:07:13.569	$GPGGA,090714,2515.7177,N,08006.5226,W,1,9,2.3,24,M,,M,,*5D
06/17/2015	09:07:14.549	$GPGGA,090715,2515.7195,N,08006.5219,W,1,9,2.3,24,M,,M,,*5C
06/17/2015	09:07:15.589	$GPGGA,090716,2515.7213,N,08006.5212,W,1,9,2.3,24,M,,M,,*59
06/17/2015	09:07:16.550	$GPGGA,090717,2515.7231,N,08006.5205,W,1,9,2.3,24,M,,M,,*5E
06/17/2015	09:07:17.572	$GPGGA,090718,2515.7249,N,08006.5195,W,1,8,2.7,24,M,,M,,*51
06/17/2015	09:07:18.540	$GPGGA,090719,2515.7267,N,08006.5188,W,1,8,2.3,24,M,,M,,*54
06/17/2015	09:07:19.570	$GPGGA,090720,2515.7285,N,08006.5181,W,1,9,2.3,23,M,,M,,*5D
06/17/2015	09:07:20.539	$GPGGA,090721,2515.7303,N,08006.5172,W,1,9,2.3,23,M,,M,,*5F
06/17/2015	09:07:21.569	$GPGGA,090722,2515.7321,N,08006.5164,W,1,9,2.3,23,M,,M,,*5B
06/17/2015	09:07:22.539	$GPGGA,090723,2515.7341,N,08006.5157,W,1,9,2.3,23,M,,M,,*5C
06/17/2015	09:07:23.539	$GPGGA,090724,2515.7357,N,08006.5151,W,1,9,2.3,23,M,,M,,*5A
06/17/2015	09:07:24.530	$GPGGA,090725,2515.7375,N,08006.5144,W,1,9,2.7,23,M,,M,,*5B
06/17/2015	09:07:25.519	$GPGGA,090726,2515.7393,N,08006.5138,W,1,8,2.7,23,M,,M,,*5A
06/17/2015	09:07:26.529	$GPGGA,090727,2515.7411,N,08006.5132,W,1,8,2.7,23,M,,M,,*5C
06/17/2015	09:07:27.549	$GPGGA,090728,2515.7429,N,08006.5124,W,1,8,2.7,23,M,,M,,*5F
06/17/2015	09:07:28.539	$GPGGA,090729,2515.7447,N,08006.5116,W,1,8,2.7,23,M,,M,,*57
06/17/2015	09:07:29.519	$GPGGA,090730,2515.7466,N,08006.5113,W,1,8,2.7,23,M,,M,,*59
06/17/2015	09:07:30.529	$GPGGA,090731,2515.7483,N,08006.5104,W,1,8,2.5,23,M,,M,,*57
06/17/2015	09:07:31.559	$GPGGA,090732,2515.7501,N,08006.5094,W,1,9,2.3,23,M,,M,,*50
06/17/2015	09:07:32.519	$GPGGA,090733,2515.7520,N,08006.5088,W,1,9,2.3,22,M,,M,,*5E
06/17/2015	09:07:33.639	$GPGGA,090734,2515.7538,N,08006.5078,W,1,9,2.3,22,M,,M,,*5F
06/17/2015	09:07:34.530	$GPGGA,090735,2515.7555,N,08006.5070,W,1,9,2.3,22,M,,M,,*5D
06/17/2015	09:07:35.540	$GPGGA,090736,2515.7574,N,08006.5063,W,1,9,2.3,22,M,,M,,*5F
06/17/2015	09:07:36.510	$GPGGA,090737,2515.7592,N,08006.5052,W,1,9,2.3,22,M,,M,,*54
06/17/2015	09:07:37.619	$GPGGA,090738,2515.7610,N,08006.5044,W,1,9,2.3,22,M,,M,,*55
06/17/2015	09:07:38.619	$GPGGA,090739,2515.7628,N,08006.5037,W,1,9,2.3,22,M,,M,,*5B
06/17/2015	09:07:39.629	$GPGGA,090740,2515.7646,N,08006.5027,W,1,9,2.3,22,M,,M,,*5C
06/17/2015	09:07:40.509	$GPGGA,090741,2515.7664,N,08006.5020,W,1,9,2.3,22,M,,M,,*5A
06/17/2015	09:07:41.639	$GPGGA,090742,2515.7683,N,08006.5014,W,1,8,2.7,22,M,,M,,*52
06/17/2015	09:07:42.509	$GPGGA,090743,2515.7701,N,08006.5006,W,1,8,2.3,22,M,,M,,*5F
06/17/2015	09:07:43.629	$GPGGA,090744,2515.7719,N,08006.5000,W,1,9,2.3,22,M,,M,,*56
06/17/2015	09:07:44.499	$GPGGA,090745,2515.7737,N,08006.4992,W,1,9,2.7,22,M,,M,,*5C
06/17/2015	09:07:45.509	$GPGGA,090746,2515.7757,N,08006.4984,W,1,8,2.7,22,M,,M,,*5F
06/17/2015	09:07:46.499	$GPGGA,090747,2515.7775,N,08006.4974,W,1,8,2.3,23,M,,M,,*54
06/17/2015	09:07:47.589	$GPGGA,090748,2515.7793,N,08006.4965,W,1,9,2.3,23,M,,M,,*52
06/17/2015	09:07:48.580	$GPGGA,090749,2515.7811,N,08006.4956,W,1,9,2.3,23,M,,M,,*56
06/17/2015	09:07:49.599	$GPGGA,090750,2515.7829,N,08006.4950,W,1,9,2.3,23,M,,M,,*53
06/17/2015	09:07:50.489	$GPGGA,090751,2515.7847,N,08006.4944,W,1,9,2.3,23,M,,M,,*5F
06/17/2015	09:07:51.490	$GPGGA,090752,2515.7865,N,08006.4936,W,1,8,2.7,23,M,,M,,*5C
06/17/2015	09:07:52.480	$GPGGA,090753,2515.7884,N,08006.4931,W,1,8,3.2,23,M,,M,,*51
06/17/2015	09:07:53.582	$GPGGA,090754,2515.7903,N,08006.4925,W,1,7,3.2,23,M,,M,,*52
06/17/2015	09:07:54.560	$GPGGA,090755,2515.7920,N,08006.4917,W,1,7,2.3,23,M,,M,,*53
06/17/2015	09:07:55.609	$GPGGA,090756,2515.7938,N,08006.4910,W,1,8,2.7,23,M,,M,,*55
06/17/2015	09:07:56.559	$GPGGA,090757,2515.7957,N,08006.4900,W,1,8,2.7,23,M,,M,,*5C
06/17/2015	09:07:57.589	$GPGGA,090758,2515.7975,N,08006.4891,W,1,9,2.3,23,M,,M,,*5F
06/17/2015	09:07:58.559	$GPGGA,090759,2515.7993,N,08006.4882,W,1,9,2.3,23,M,,M,,*54
06/17/2015	09:07:59.609	$GPGGA,090800,2515.8011,N,08006.4874,W,1,9,2.3,23,M,,M,,*52
06/17/2015	09:08:00.560	$GPGGA,090801,2515.8029,N,08006.4868,W,1,9,2.3,23,M,,M,,*55
06/17/2015	09:08:01.580	$GPGGA,090802,2515.8047,N,08006.4861,W,1,8,2.7,23,M,,M,,*52
06/17/2015	09:08:02.549	$GPGGA,090803,2515.8065,N,08006.4855,W,1,8,2.7,23,M,,M,,*54
06/17/2015	09:08:03.580	$GPGGA,090804,2515.8083,N,08006.4848,W,1,7,3.2,23,M,,M,,*5C
06/17/2015	09:08:04.549	$GPGGA,090805,2515.8102,N,08006.4842,W,1,7,2.3,23,M,,M,,*5F
06/17/2015	09:08:05.559	$GPGGA,090806,2515.8120,N,08006.4835,W,1,7,3.2,23,M,,M,,*5C
06/17/2015	09:08:06.559	$GPGGA,090807,2515.8137,N,08006.4827,W,1,7,2.7,23,M,,M,,*5C
06/17/2015	09:08:07.549	$GPGGA,090808,2515.8155,N,08006.4820,W,1,8,2.7,23,M,,M,,*5F
06/17/2015	09:08:08.549	$GPGGA,090809,2515.8173,N,08006.4816,W,1,8,2.3,23,M,,M,,*5B
06/17/2015	09:08:09.530	$GPGGA,090810,2515.8191,N,08006.4808,W,1,9,2.3,23,M,,M,,*51
06/17/2015	09:08:10.540	$GPGGA,090811,2515.8209,N,08006.4801,W,1,9,2.7,23,M,,M,,*5F
06/17/2015	09:08:11.570	$GPGGA,090812,2515.8227,N,08006.4794,W,1,8,2.7,23,M,,M,,*52
06/17/2015	09:08:12.539	$GPGGA,090813,2515.8245,N,08006.4787,W,1,8,2.7,23,M,,M,,*55
06/17/2015	09:08:13.549	$GPGGA,090814,2515.8263,N,08006.4779,W,1,8,2.7,23,M,,M,,*57
06/17/2015	09:08:14.529	$GPGGA,090815,2515.8281,N,08006.4768,W,1,8,2.7,23,M,,M,,*5A
06/17/2015	09:08:15.539	$GPGGA,090816,2515.8299,N,08006.4763,W,1,9,2.3,23,M,,M,,*5E
06/17/2015	09:08:16.529	$GPGGA,090817,2515.8318,N,08006.4755,W,1,9,2.7,23,M,,M,,*56
06/17/2015	09:08:17.519	$GPGGA,090818,2515.8336,N,08006.4745,W,1,8,2.7,23,M,,M,,*55
06/17/2015	09:08:18.519	$GPGGA,090819,2515.8354,N,08006.4739,W,1,8,2.3,23,M,,M,,*5F
06/17/2015	09:08:19.549	$GPGGA,090820,2515.8372,N,08006.4731,W,1,8,2.7,23,M,,M,,*5D
06/17/2015	09:08:20.529	$GPGGA,090821,2515.8390,N,08006.4724,W,1,8,2.7,23,M,,M,,*54
06/17/2015	09:08:21.559	$GPGGA,090822,2515.8409,N,08006.4717,W,1,8,2.7,23,M,,M,,*50
06/17/2015	09:08:22.529	$GPGGA,090823,2515.8427,N,08006.4709,W,1,8,2.7,23,M,,M,,*52
06/17/2015	09:08:23.549	$GPGGA,090824,2515.8445,N,08006.4702,W,1,8,2.7,23,M,,M,,*5A
06/17/2015	09:08:24.509	$GPGGA,090825,2515.8463,N,08006.4695,W,1,8,3.2,23,M,,M,,*54
06/17/2015	09:08:25.529	$GPGGA,090826,2515.8481,N,08006.4685,W,1,8,2.7,23,M,,M,,*5E
06/17/2015	09:08:26.620	$GPGGA,090827,2515.8501,N,08006.4679,W,1,8,2.7,23,M,,M,,*55
06/17/2015	09:08:28.650	$GPGGA,090829,2515.8538,N,08006.4663,W,1,7,2.7,22,M,,M,,*54
06/17/2015	09:08:29.590	$GPGGA,090830,2515.8557,N,08006.4657,W,1,8,2.7,22,M,,M,,*5D
06/17/2015	09:08:30.499	$GPGGA,090831,2515.8575,N,08006.4650,W,1,8,2.7,22,M,,M,,*5B
06/17/2015	09:08:31.629	$GPGGA,090832,2515.8593,N,08006.4641,W,1,8,2.7,22,M,,M,,*50
06/17/2015	09:08:32.509	$GPGGA,090833,2515.8611,N,08006.4633,W,1,8,2.7,22,M,,M,,*5D
06/17/2015	09:08:33.589	$GPGGA,090834,2515.8629,N,08006.4628,W,1,9,2.3,22,M,,M,,*5E
06/17/2015	09:08:34.499	$GPGGA,090835,2515.8649,N,08006.4620,W,1,9,2.7,21,M,,M,,*56
06/17/2015	09:08:35.499	$GPGGA,090836,2515.8667,N,08006.4608,W,1,9,2.3,21,M,,M,,*57
06/17/2015	09:08:36.479	$GPGGA,090837,2515.8685,N,08006.4603,W,1,9,2.3,21,M,,M,,*51
06/17/2015	09:08:37.499	$GPGGA,090838,2515.8704,N,08006.4597,W,1,7,3.1,21,M,,M,,*55
06/17/2015	09:08:38.579	$GPGGA,090839,2515.8722,N,08006.4588,W,1,7,2.7,21,M,,M,,*59
06/17/2015	09:08:39.599	$GPGGA,090840,2515.8738,N,08006.4578,W,1,9,2.3,21,M,,M,,*59
06/17/2015	09:08:40.569	$GPGGA,090841,2515.8756,N,08006.4573,W,1,9,2.3,21,M,,M,,*5B
06/17/2015	09:08:41.599	$GPGGA,090842,2515.8776,N,08006.4567,W,1,9,2.3,21,M,,M,,*5F
06/17/2015	09:08:42.579	$GPGGA,090843,2515.8792,N,08006.4557,W,1,9,2.3,21,M,,M,,*57
06/17/2015	09:08:43.589	$GPGGA,090844,2515.8810,N,08006.4550,W,1,9,2.3,21,M,,M,,*52
06/17/2015	09:08:44.570	$GPGGA,090845,2515.8830,N,08006.4545,W,1,9,2.3,21,M,,M,,*55
06/17/2015	09:08:45.590	$GPGGA,090846,2515.8848,N,08006.4537,W,1,9,2.3,22,M,,M,,*5F
06/17/2015	09:08:46.570	$GPGGA,090847,2515.8866,N,08006.4531,W,1,9,2.3,22,M,,M,,*54
06/17/2015	09:08:47.599	$GPGGA,090848,2515.8884,N,08006.4524,W,1,9,2.3,22,M,,M,,*53
06/17/2015	09:08:48.569	$GPGGA,090849,2515.8903,N,08006.4517,W,1,9,2.3,22,M,,M,,*5C
06/17/2015	09:08:49.579	$GPGGA,090850,2515.8921,N,08006.4511,W,1,9,2.3,22,M,,M,,*52
06/17/2015	09:08:50.560	$GPGGA,090851,2515.8939,N,08006.4506,W,1,9,2.3,22,M,,M,,*5C
06/17/2015	09:08:51.579	$GPGGA,090852,2515.8958,N,08006.4499,W,1,9,2.3,23,M,,M,,*5E
06/17/2015	09:08:52.559	$GPGGA,090853,2515.8975,N,08006.4492,W,1,9,2.3,23,M,,M,,*5B
06/17/2015	09:08:53.570	$GPGGA,090854,2515.8994,N,08006.4485,W,1,9,2.3,23,M,,M,,*55
06/17/2015	09:08:54.539	$GPGGA,090855,2515.9012,N,08006.4479,W,1,9,2.5,23,M,,M,,*57
06/17/2015	09:08:55.569	$GPGGA,090856,2515.9030,N,08006.4470,W,1,9,2.3,23,M,,M,,*5B
06/17/2015	09:08:56.549	$GPGGA,090857,2515.9048,N,08006.4463,W,1,9,2.3,23,M,,M,,*57
06/17/2015	09:08:57.579	$GPGGA,090858,2515.9066,N,08006.4458,W,1,9,2.3,23,M,,M,,*5C
06/17/2015	09:08:58.539	$GPGGA,090859,2515.9086,N,08006.4450,W,1,9,2.3,23,M,,M,,*5B
06/17/2015	09:08:59.589	$GPGGA,090900,2515.9104,N,08006.4442,W,1,9,2.3,23,M,,M,,*5E
06/17/2015	09:09:00.539	$GPGGA,090901,2515.9120,N,08006.4436,W,1,9,2.3,23,M,,M,,*5A
06/17/2015	09:09:01.550	$GPGGA,090902,2515.9139,N,08006.4429,W,1,9,2.3,23,M,,M,,*5F
06/17/2015	09:09:02.540	$GPGGA,090903,2515.9157,N,08006.4422,W,1,9,2.3,23,M,,M,,*5D
06/17/2015	09:09:03.550	$GPGGA,090904,2515.9175,N,08006.4415,W,1,9,2.3,23,M,,M,,*5E
06/17/2015	09:09:04.530	$GPGGA,090905,2515.9193,N,08006.4407,W,1,9,2.3,23,M,,M,,*54
06/17/2015	09:09:05.539	$GPGGA,090906,2515.9213,N,08006.4402,W,1,9,2.3,23,M,,M,,*59
06/17/2015	09:09:06.519	$GPGGA,090907,2515.9231,N,08006.4394,W,1,9,2.3,23,M,,M,,*50
06/17/2015	09:09:07.529	$GPGGA,090908,2515.9249,N,08006.4385,W,1,9,2.3,23,M,,M,,*50
06/17/2015	09:09:08.539	$GPGGA,090909,2515.9267,N,08006.4380,W,1,9,2.3,23,M,,M,,*58
06/17/2015	09:09:09.549	$GPGGA,090910,2515.9286,N,08006.4373,W,1,9,2.3,22,M,,M,,*52
06/17/2015	09:09:10.529	$GPGGA,090911,2515.9304,N,08006.4365,W,1,9,2.3,22,M,,M,,*5F
06/17/2015	09:09:11.681	$GPGGA,090912,2515.9322,N,08006.4358,W,1,9,2.3,22,M,,M,,*56
06/17/2015	09:09:12.519	$GPGGA,090913,2515.9340,N,08006.4351,W,1,9,2.3,22,M,,M,,*5A
06/17/2015	09:09:13.609	$GPGGA,090914,2515.9358,N,08006.4344,W,1,9,2.3,22,M,,M,,*50
06/17/2015	09:09:14.499	$GPGGA,090915,2515.9377,N,08006.4338,W,1,9,2.3,22,M,,M,,*57
06/17/2015	09:09:15.519	$GPGGA,090916,2515.9395,N,08006.4330,W,1,8,2.7,22,M,,M,,*55
06/17/2015	09:09:16.499	$GPGGA,090917,2515.9413,N,08006.4319,W,1,8,2.7,22,M,,M,,*56
06/17/2015	09:09:17.779	$GPGGA,090918,2515.9431,N,08006.4313,W,1,9,2.3,22,M,,M,,*56
06/17/2015	09:09:18.489	$GPGGA,090919,2515.9449,N,08006.4305,W,1,9,2.7,22,M,,M,,*5B
06/17/2015	09:09:19.510	$GPGGA,090920,2515.9467,N,08006.4299,W,1,8,2.7,22,M,,M,,*58
06/17/2015	09:09:20.660	$GPGGA,090921,2515.9487,N,08006.4288,W,1,8,2.7,22,M,,M,,*57
06/17/2015	09:09:21.640	$GPGGA,090922,2515.9505,N,08006.4281,W,1,9,2.7,22,M,,M,,*57
06/17/2015	09:09:22.509	$GPGGA,090923,2515.9524,N,08006.4274,W,1,9,2.7,22,M,,M,,*5F
06/17/2015	09:09:23.509	$GPGGA,090924,2515.9542,N,08006.4264,W,1,9,2.3,22,M,,M,,*5D
06/17/2015	09:09:24.582	$GPGGA,090925,2515.9560,N,08006.4256,W,1,9,2.3,22,M,,M,,*5D
06/17/2015	09:09:25.489	$GPGGA,090926,2515.9579,N,08006.4247,W,1,9,2.3,22,M,,M,,*56
06/17/2015	09:09:26.582	$GPGGA,090927,2515.9597,N,08006.4238,W,1,9,2.3,22,M,,M,,*5F
06/17/2015	09:09:27.669	$GPGGA,090928,2515.9615,N,08006.4231,W,1,9,2.3,22,M,,M,,*50
06/17/2015	09:09:28.579	$GPGGA,090929,2515.9633,N,08006.4225,W,1,9,2.3,22,M,,M,,*50
06/17/2015	09:09:29.599	$GPGGA,090930,2515.9651,N,08006.4218,W,1,8,2.3,22,M,,M,,*53
06/17/2015	09:09:30.649	$GPGGA,090931,2515.9669,N,08006.4212,W,1,8,2.3,22,M,,M,,*53
06/17/2015	09:09:31.639	$GPGGA,090932,2515.9688,N,08006.4204,W,1,9,2.3,22,M,,M,,*59
06/17/2015	09:09:32.620	$GPGGA,090933,2515.9706,N,08006.4196,W,1,9,2.3,22,M,,M,,*57
06/17/2015	09:09:33.599	$GPGGA,090934,2515.9724,N,08006.4189,W,1,9,2.3,22,M,,M,,*5E
06/17/2015	09:09:34.639	$GPGGA,090935,2515.9742,N,08006.4183,W,1,9,2.6,22,M,,M,,*50
06/17/2015	09:09:35.629	$GPGGA,090936,2515.9760,N,08006.4176,W,1,8,2.6,22,M,,M,,*58
06/17/2015	09:09:36.560	$GPGGA,090937,2515.9778,N,08006.4168,W,1,8,2.6,22,M,,M,,*5F
06/17/2015	09:09:37.850	$GPGGA,090938,2515.9796,N,08006.4164,W,1,8,2.3,22,M,,M,,*59
06/17/2015	09:09:38.630	$GPGGA,090939,2515.9816,N,08006.4156,W,1,8,2.3,22,M,,M,,*5E
06/17/2015	09:09:39.650	$GPGGA,090940,2515.9832,N,08006.4147,W,1,9,2.6,21,M,,M,,*51
06/17/2015	09:09:40.629	$GPGGA,090941,2515.9850,N,08006.4143,W,1,9,2.6,21,M,,M,,*50
06/17/2015	09:09:41.549	$GPGGA,090942,2515.9870,N,08006.4136,W,1,9,2.3,21,M,,M,,*56
06/17/2015	09:09:42.619	$GPGGA,090943,2515.9886,N,08006.4128,W,1,9,2.3,21,M,,M,,*51
06/17/2015	09:09:43.649	$GPGGA,090944,2515.9906,N,08006.4121,W,1,9,2.6,21,M,,M,,*53
06/17/2015	09:09:44.609	$GPGGA,090945,2515.9924,N,08006.4113,W,1,9,2.6,21,M,,M,,*53
06/17/2015	09:09:45.579	$GPGGA,090946,2515.9941,N,08006.4106,W,1,8,2.6,21,M,,M,,*56
06/17/2015	09:09:46.599	$GPGGA,090947,2515.9959,N,08006.4099,W,1,8,2.3,21,M,,M,,*5C
06/17/2015	09:09:47.599	$GPGGA,090948,2515.9977,N,08006.4090,W,1,9,2.3,21,M,,M,,*57
06/17/2015	09:09:48.599	$GPGGA,090949,2515.9995,N,08006.4083,W,1,9,2.6,21,M,,M,,*5D
06/17/2015	09:09:49.589	$GPGGA,090950,2516.0013,N,08006.4076,W,1,8,2.3,20,M,,M,,*57
06/17/2015	09:09:50.590	$GPGGA,090951,2516.0031,N,08006.4068,W,1,8,2.3,20,M,,M,,*59
06/17/2015	09:09:51.590	$GPGGA,090952,2516.0049,N,08006.4059,W,1,9,2.3,20,M,,M,,*56
06/17/2015	09:09:52.579	$GPGGA,090953,2516.0067,N,08006.4050,W,1,9,2.3,20,M,,M,,*52
06/17/2015	09:09:53.519	$GPGGA,090954,2516.0085,N,08006.4043,W,1,9,2.3,20,M,,M,,*5B
06/17/2015	09:09:54.520	$GPGGA,090955,2516.0105,N,08006.4035,W,1,9,2.3,20,M,,M,,*52
06/17/2015	09:09:55.600	$GPGGA,090956,2516.0121,N,08006.4026,W,1,9,2.6,20,M,,M,,*50
06/17/2015	09:09:56.580	$GPGGA,090957,2516.0139,N,08006.4020,W,1,9,2.6,20,M,,M,,*5E
06/17/2015	09:09:57.549	$GPGGA,090958,2516.0159,N,08006.4010,W,1,8,2.3,20,M,,M,,*50
06/17/2015	09:09:58.519	$GPGGA,090959,2516.0175,N,08006.4002,W,1,8,2.3,20,M,,M,,*5C
06/17/2015	09:09:59.599	$GPGGA,091000,2516.0193,N,08006.3996,W,1,8,2.6,20,M,,M,,*56
06/17/2015	09:10:00.579	$GPGGA,091001,2516.0211,N,08006.3988,W,1,8,2.6,20,M,,M,,*51
06/17/2015	09:10:01.549	$GPGGA,091002,2516.0229,N,08006.3981,W,1,8,2.6,20,M,,M,,*50
06/17/2015	09:10:02.579	$GPGGA,091003,2516.0247,N,08006.3974,W,1,8,2.3,20,M,,M,,*56
06/17/2015	09:10:03.569	$GPGGA,091004,2516.0265,N,08006.3965,W,1,9,2.3,20,M,,M,,*50
06/17/2015	09:10:04.539	$GPGGA,091005,2516.0283,N,08006.3959,W,1,9,3.1,20,M,,M,,*55
06/17/2015	09:10:05.559	$GPGGA,091006,2516.0301,N,08006.3951,W,1,7,2.3,20,M,,M,,*58
06/17/2015	09:10:06.609	$GPGGA,091007,2516.0319,N,08006.3943,W,1,7,2.6,20,M,,M,,*56
06/17/2015	09:10:07.599	$GPGGA,091008,2516.0337,N,08006.3936,W,1,8,3.1,20,M,,M,,*5E
06/17/2015	09:10:08.539	$GPGGA,091009,2516.0355,N,08006.3930,W,1,8,2.3,20,M,,M,,*5E
06/17/2015	09:10:09.539	$GPGGA,091010,2516.0373,N,08006.3921,W,1,9,2.3,20,M,,M,,*53
06/17/2015	09:10:10.559	$GPGGA,091011,2516.0391,N,08006.3912,W,1,9,2.3,20,M,,M,,*5E
06/17/2015	09:10:11.559	$GPGGA,091012,2516.0407,N,08006.3905,W,1,9,2.6,20,M,,M,,*56
06/17/2015	09:10:12.599	$GPGGA,091013,2516.0427,N,08006.3898,W,1,9,2.3,20,M,,M,,*55
06/17/2015	09:10:13.539	$GPGGA,091014,2516.0443,N,08006.3890,W,1,9,2.6,20,M,,M,,*5D
06/17/2015	09:10:14.569	$GPGGA,091015,2516.0461,N,08006.3879,W,1,9,2.3,20,M,,M,,*5E
06/17/2015	09:10:15.548	$GPGGA,091016,2516.0481,N,08006.3872,W,1,9,2.3,20,M,,M,,*58
06/17/2015	09:10:16.571	$GPGGA,091017,2516.0499,N,08006.3864,W,1,9,2.3,20,M,,M,,*57
06/17/2015	09:10:17.598	$GPGGA,091018,2516.0515,N,08006.3854,W,1,9,2.3,20,M,,M,,*5E
06/17/2015	09:10:18.558	$GPGGA,091019,2516.0535,N,08006.3847,W,1,9,2.3,20,M,,M,,*5F
06/17/2015	09:10:19.588	$GPGGA,091020,2516.0554,N,08006.3841,W,1,9,2.3,20,M,,M,,*54
06/17/2015	09:10:20.569	$GPGGA,091021,2516.0571,N,08006.3831,W,1,9,2.3,20,M,,M,,*55
06/17/2015	09:10:21.568	$GPGGA,091022,2516.0589,N,08006.3822,W,1,9,2.5,20,M,,M,,*55
06/17/2015	09:10:22.579	$GPGGA,091023,2516.0607,N,08006.3818,W,1,9,2.3,20,M,,M,,*5E
06/17/2015	09:10:23.609	$GPGGA,091024,2516.0625,N,08006.3810,W,1,9,2.3,20,M,,M,,*51
06/17/2015	09:10:24.549	$GPGGA,091025,2516.0641,N,08006.3799,W,1,9,2.3,20,M,,M,,*5C
06/17/2015	09:10:25.569	$GPGGA,091026,2516.0659,N,08006.3793,W,1,9,2.3,20,M,,M,,*5C
06/17/2015	09:10:26.550	$GPGGA,091027,2516.0678,N,08006.3788,W,1,9,2.3,20,M,,M,,*54
06/17/2015	09:10:27.579	$GPGGA,091028,2516.0695,N,08006.3779,W,1,9,2.3,20,M,,M,,*56
06/17/2015	09:10:28.539	$GPGGA,091029,2516.0713,N,08006.3772,W,1,9,2.6,20,M,,M,,*56
06/17/2015	09:10:29.569	$GPGGA,091030,2516.0731,N,08006.3767,W,1,8,2.3,20,M,,M,,*5E
06/17/2015	09:10:30.569	$GPGGA,091031,2516.0748,N,08006.3763,W,1,8,2.3,20,M,,M,,*55
06/17/2015	09:10:31.570	$GPGGA,091032,2516.0764,N,08006.3756,W,1,9,2.3,20,M,,M,,*5F
06/17/2015	09:10:32.578	$GPGGA,091033,2516.0782,N,08006.3750,W,1,9,2.3,20,M,,M,,*50
06/17/2015	09:10:33.538	$GPGGA,091034,2516.0800,N,08006.3744,W,1,9,2.3,20,M,,M,,*57
06/17/2015	09:10:34.548	$GPGGA,091035,2516.0818,N,08006.3737,W,1,9,2.3,20,M,,M,,*5B
06/17/2015	09:10:35.572	$GPGGA,091036,2516.0836,N,08006.3730,W,1,9,2.3,20,M,,M,,*53
06/17/2015	09:10:36.548	$GPGGA,091037,2516.0853,N,08006.3723,W,1,9,2.3,19,M,,M,,*59
06/17/2015	09:10:38.978	$GPGGA,091039,2516.0889,N,08006.3708,W,1,9,2.3,19,M,,M,,*59
06/17/2015	09:10:39.589	$GPGGA,091040,2516.0907,N,08006.3701,W,1,9,2.3,19,M,,M,,*59
06/17/2015	09:10:40.559	$GPGGA,091041,2516.0925,N,08006.3693,W,1,9,2.3,19,M,,M,,*52
06/17/2015	09:10:41.549	$GPGGA,091042,2516.0943,N,08006.3684,W,1,9,2.3,19,M,,M,,*57
06/17/2015	09:10:42.539	$GPGGA,091043,2516.0943,N,08006.3684,W,1,9,2.3,19,M,,M,,*56
06/17/2015	09:10:43.569	$GPGGA,091044,2516.0979,N,08006.3671,W,1,9,2.3,18,M,,M,,*53
06/17/2015	09:10:44.539	$GPGGA,091045,2516.0995,N,08006.3662,W,1,9,2.3,18,M,,M,,*52
06/17/2015	09:10:45.539	$GPGGA,091046,2516.1013,N,08006.3655,W,1,9,2.3,18,M,,M,,*53
06/17/2015	09:10:46.549	$GPGGA,091047,2516.1032,N,08006.3649,W,1,9,2.3,18,M,,M,,*5C
06/17/2015	09:10:47.559	$GPGGA,091048,2516.1049,N,08006.3640,W,1,9,2.3,18,M,,M,,*56
06/17/2015	09:10:48.599	$GPGGA,091049,2516.1067,N,08006.3632,W,1,9,2.3,18,M,,M,,*5E
06/17/2015	09:10:49.519	$GPGGA,091050,2516.1086,N,08006.3626,W,1,9,2.3,18,M,,M,,*5C
06/17/2015	09:10:50.548	$GPGGA,091051,2516.1104,N,08006.3617,W,1,9,2.3,18,M,,M,,*54
06/17/2015	09:10:51.528	$GPGGA,091052,2516.1122,N,08006.3607,W,1,9,2.3,18,M,,M,,*52
06/17/2015	09:10:52.498	$GPGGA,091053,2516.1122,N,08006.3607,W,1,9,2.3,18,M,,M,,*53
06/17/2015	09:10:53.488	$GPGGA,091054,2516.1158,N,08006.3593,W,1,9,2.3,18,M,,M,,*57
06/17/2015	09:10:54.588	$GPGGA,091055,2516.1176,N,08006.3585,W,1,9,2.3,18,M,,M,,*5D
06/17/2015	09:10:55.518	$GPGGA,091056,2516.1193,N,08006.3575,W,1,9,2.3,18,M,,M,,*5A
06/17/2015	09:10:56.538	$GPGGA,091057,2516.1193,N,08006.3575,W,1,9,2.3,19,M,,M,,*5A
06/17/2015	09:10:57.589	$GPGGA,091058,2516.1230,N,08006.3561,W,1,9,2.3,19,M,,M,,*5A
06/17/2015	09:10:58.550	$GPGGA,091059,2516.1247,N,08006.3553,W,1,9,2.2,19,M,,M,,*5B
06/17/2015	09:10:59.599	$GPGGA,091100,2516.1265,N,08006.3544,W,1,9,2.2,19,M,,M,,*50
06/17/2015	09:11:00.579	$GPGGA,091101,2516.1283,N,08006.3536,W,1,9,2.2,19,M,,M,,*5C
06/17/2015	09:11:01.489	$GPGGA,091102,2516.1301,N,08006.3529,W,1,9,2.2,19,M,,M,,*5A
06/17/2015	09:11:02.579	$GPGGA,091103,2516.1319,N,08006.3521,W,1,9,2.2,19,M,,M,,*5A
06/17/2015	09:11:03.579	$GPGGA,091104,2516.1338,N,08006.3511,W,1,9,2.2,19,M,,M,,*5D
06/17/2015	09:11:04.569	$GPGGA,091105,2516.1355,N,08006.3503,W,1,9,2.2,19,M,,M,,*54
06/17/2015	09:11:05.589	$GPGGA,091106,2516.1373,N,08006.3497,W,1,9,2.2,19,M,,M,,*5F
06/17/2015	09:11:06.569	$GPGGA,091107,2516.1392,N,08006.3489,W,1,9,2.2,19,M,,M,,*5E
06/17/2015	09:11:07.618	$GPGGA,091108,2516.1407,N,08006.3480,W,1,9,2.2,19,M,,M,,*53
06/17/2015	09:11:08.558	$GPGGA,091109,2516.1425,N,08006.3474,W,1,9,2.2,19,M,,M,,*59
06/17/2015	09:11:09.588	$GPGGA,091110,2516.1443,N,08006.3466,W,1,9,2.2,19,M,,M,,*52
06/17/2015	09:11:10.568	$GPGGA,091111,2516.1460,N,08006.3457,W,1,9,2.2,19,M,,M,,*50
06/17/2015	09:11:11.588	$GPGGA,091112,2516.1478,N,08006.3449,W,1,9,2.2,19,M,,M,,*55
06/17/2015	09:11:12.549	$GPGGA,091113,2516.1496,N,08006.3442,W,1,9,2.2,19,M,,M,,*5F
06/17/2015	09:11:13.578	$GPGGA,091114,2516.1512,N,08006.3434,W,1,9,2.2,19,M,,M,,*54
06/17/2015	09:11:14.569	$GPGGA,091115,2516.1530,N,08006.3426,W,1,9,2.2,19,M,,M,,*56
06/17/2015	09:11:15.579	$GPGGA,091116,2516.1548,N,08006.3418,W,1,9,2.2,20,M,,M,,*5D
06/17/2015	09:11:16.559	$GPGGA,091117,2516.1566,N,08006.3411,W,1,9,2.2,20,M,,M,,*59
06/17/2015	09:11:17.569	$GPGGA,091118,2516.1583,N,08006.3403,W,1,9,2.2,20,M,,M,,*5E
06/17/2015	09:11:18.549	$GPGGA,091119,2516.1599,N,08006.3395,W,1,9,2.2,20,M,,M,,*5C
06/17/2015	09:11:19.579	$GPGGA,091120,2516.1617,N,08006.3387,W,1,9,2.2,20,M,,M,,*50
06/17/2015	09:11:20.549	$GPGGA,091121,2516.1635,N,08006.3379,W,1,9,2.2,20,M,,M,,*50
06/17/2015	09:11:22.569	$GPGGA,091123,2516.1671,N,08006.3363,W,1,9,2.2,20,M,,M,,*59
06/17/2015	09:11:23.569	$GPGGA,091124,2516.1689,N,08006.3356,W,1,9,2.2,20,M,,M,,*5F
06/17/2015	09:11:24.529	$GPGGA,091125,2516.1707,N,08006.3346,W,1,9,2.2,20,M,,M,,*58
06/17/2015	09:11:25.558	$GPGGA,091126,2516.1724,N,08006.3339,W,1,9,2.2,20,M,,M,,*52
06/17/2015	09:11:26.528	$GPGGA,091127,2516.1743,N,08006.3332,W,1,9,2.2,20,M,,M,,*59
06/17/2015	09:11:27.549	$GPGGA,091128,2516.1761,N,08006.3323,W,1,9,2.2,20,M,,M,,*56
06/17/2015	09:11:28.528	$GPGGA,091129,2516.1776,N,08006.3314,W,1,9,2.2,20,M,,M,,*55
06/17/2015	09:11:29.558	$GPGGA,091130,2516.1794,N,08006.3308,W,1,9,2.2,20,M,,M,,*5C
06/17/2015	09:11:30.548	$GPGGA,091131,2516.1814,N,08006.3301,W,1,9,2.2,20,M,,M,,*53
06/17/2015	09:11:31.539	$GPGGA,091132,2516.1830,N,08006.3291,W,1,9,2.2,20,M,,M,,*5E
06/17/2015	09:11:32.519	$GPGGA,091133,2516.1848,N,08006.3283,W,1,9,2.2,20,M,,M,,*53
06/17/2015	09:11:33.519	$GPGGA,091134,2516.1869,N,08006.3274,W,1,8,2.6,20,M,,M,,*5A
06/17/2015	09:11:34.509	$GPGGA,091135,2516.1887,N,08006.3264,W,1,8,2.2,21,M,,M,,*5F
06/17/2015	09:11:35.639	$GPGGA,091136,2516.1905,N,08006.3253,W,1,9,2.2,21,M,,M,,*52
06/17/2015	09:11:36.509	$GPGGA,091137,2516.1924,N,08006.3246,W,1,9,2.2,21,M,,M,,*54
06/17/2015	09:11:37.509	$GPGGA,091138,2516.1942,N,08006.3238,W,1,9,2.2,21,M,,M,,*52
06/17/2015	09:11:38.599	$GPGGA,091139,2516.1960,N,08006.3229,W,1,9,2.2,21,M,,M,,*53
06/17/2015	09:11:39.539	$GPGGA,091140,2516.1978,N,08006.3221,W,1,9,2.2,21,M,,M,,*5C
06/17/2015	09:11:40.499	$GPGGA,091141,2516.1996,N,08006.3216,W,1,9,2.2,21,M,,M,,*59
06/17/2015	09:11:41.519	$GPGGA,091142,2516.2014,N,08006.3207,W,1,9,2.2,21,M,,M,,*5A
06/17/2015	09:11:42.518	$GPGGA,091143,2516.2032,N,08006.3199,W,1,9,2.2,21,M,,M,,*5B
06/17/2015	09:11:43.638	$GPGGA,091144,2516.2050,N,08006.3193,W,1,9,2.2,21,M,,M,,*52
06/17/2015	09:11:44.588	$GPGGA,091145,2516.2070,N,08006.3185,W,1,9,2.2,21,M,,M,,*56
06/17/2015	09:11:45.628	$GPGGA,091146,2516.2086,N,08006.3177,W,1,9,2.2,21,M,,M,,*51
06/17/2015	09:11:46.488	$GPGGA,091147,2516.2105,N,08006.3172,W,1,9,2.2,22,M,,M,,*5C
06/17/2015	09:11:47.488	$GPGGA,091148,2516.2123,N,08006.3165,W,1,9,2.2,22,M,,M,,*51
06/17/2015	09:11:48.588	$GPGGA,091149,2516.2141,N,08006.3156,W,1,9,2.2,22,M,,M,,*54
06/17/2015	09:11:49.579	$GPGGA,091150,2516.2159,N,08006.3150,W,1,9,2.2,22,M,,M,,*53
06/17/2015	09:11:50.579	$GPGGA,091151,2516.2177,N,08006.3144,W,1,9,2.2,22,M,,M,,*5B
06/17/2015	09:11:51.629	$GPGGA,091152,2516.2195,N,08006.3135,W,1,9,2.2,22,M,,M,,*52
06/17/2015	09:11:52.570	$GPGGA,091153,2516.2213,N,08006.3128,W,1,9,2.2,22,M,,M,,*52
