Software Version Number: 1	Data File Format Number: 1	Build Version Number: 1	Error Count Since VI Started: 1	Manufacturer: Raytheon	 Model Number: RayMarine 120	 S/N: 	 Cal Date: 	 Wind Direction Offset: 0.00	 Slope (M)1: 0.00	 Offset (B)1: 0.00	 Slope (M)2: 0.00	 Offset (B)2: 0.00	 Slope (M)3: 0.00	 Offset (B)3: 0.00	 Slope (M)4: 0.00	 Offset (B)4: 0.00	 Slope (M)5: 0.00	 Offset (B)5: 0.00	 Slope (M)6: 0.00	 Offset (B)6: 0.00
Computer Date	Computer Time	GGA String
06/11/2015	19:00:00.554	$GPGGA,190001,2426.0623,N,08130.1960,W,1,11,1.5,20,M,,M,,*6E
06/11/2015	19:00:01.544	$GPGGA,190002,2426.0627,N,08130.1946,W,1,11,1.5,20,M,,M,,*6D
06/11/2015	19:00:02.554	$GPGGA,190003,2426.0630,N,08130.1932,W,1,11,1.5,20,M,,M,,*69
06/11/2015	19:00:03.555	$GPGGA,190004,2426.0633,N,08130.1919,W,1,11,1.5,19,M,,M,,*6E
06/11/2015	19:00:04.555	$GPGGA,190005,2426.0638,N,08130.1905,W,1,11,1.5,19,M,,M,,*69
06/11/2015	19:00:05.535	$GPGGA,190006,2426.0641,N,08130.1891,W,1,11,1.5,19,M,,M,,*68
06/11/2015	19:00:06.555	$GPGGA,190007,2426.0644,N,08130.1877,W,1,11,1.5,19,M,,M,,*64
06/11/2015	19:00:07.545	$GPGGA,190008,2426.0648,N,08130.1864,W,1,10,1.5,19,M,,M,,*64
06/11/2015	19:00:08.535	$GPGGA,190009,2426.0652,N,08130.1850,W,1,10,1.5,19,M,,M,,*69
06/11/2015	19:00:09.545	$GPGGA,190010,2426.0656,N,08130.1837,W,1,11,1.5,19,M,,M,,*65
06/11/2015	19:00:10.525	$GPGGA,190011,2426.0659,N,08130.1823,W,1,11,1.5,19,M,,M,,*6E
06/11/2015	19:00:11.555	$GPGGA,190012,2426.0663,N,08130.1810,W,1,11,1.5,19,M,,M,,*64
06/11/2015	19:00:12.524	$GPGGA,190013,2426.0667,N,08130.1796,W,1,11,1.5,19,M,,M,,*60
06/11/2015	19:00:13.564	$GPGGA,190014,2426.0672,N,08130.1783,W,1,11,1.5,19,M,,M,,*67
06/11/2015	19:00:14.534	$GPGGA,190015,2426.0677,N,08130.1769,W,1,11,1.5,19,M,,M,,*67
06/11/2015	19:00:15.544	$GPGGA,190016,2426.0681,N,08130.1755,W,1,11,1.5,19,M,,M,,*62
06/11/2015	19:00:16.514	$GPGGA,190017,2426.0684,N,08130.1742,W,1,11,1.5,19,M,,M,,*60
06/11/2015	19:00:17.534	$GPGGA,190018,2426.0688,N,08130.1729,W,1,11,1.5,19,M,,M,,*6E
06/11/2015	19:00:18.524	$GPGGA,190019,2426.0695,N,08130.1715,W,1,11,1.5,19,M,,M,,*6C
06/11/2015	19:00:19.644	$GPGGA,190020,2426.0698,N,08130.1701,W,1,11,1.5,19,M,,M,,*6E
06/11/2015	19:00:20.525	$GPGGA,190021,2426.0701,N,08130.1687,W,1,11,1.5,19,M,,M,,*61
06/11/2015	19:00:21.615	$GPGGA,190022,2426.0708,N,08130.1674,W,1,11,1.5,19,M,,M,,*67
06/11/2015	19:00:22.515	$GPGGA,190023,2426.0712,N,08130.1661,W,1,11,1.5,19,M,,M,,*69
06/11/2015	19:00:23.625	$GPGGA,190024,2426.0716,N,08130.1646,W,1,11,1.5,19,M,,M,,*6F
06/11/2015	19:00:24.515	$GPGGA,190025,2426.0721,N,08130.1633,W,1,11,1.5,19,M,,M,,*68
06/11/2015	19:00:25.605	$GPGGA,190026,2426.0724,N,08130.1620,W,1,11,1.5,19,M,,M,,*6C
06/11/2015	19:00:26.605	$GPGGA,190027,2426.0730,N,08130.1606,W,1,11,1.5,19,M,,M,,*6C
06/11/2015	19:00:27.625	$GPGGA,190028,2426.0734,N,08130.1592,W,1,11,1.5,19,M,,M,,*69
06/11/2015	19:00:28.595	$GPGGA,190029,2426.0739,N,08130.1578,W,1,11,1.5,19,M,,M,,*61
06/11/2015	19:00:29.604	$GPGGA,190030,2426.0743,N,08130.1565,W,1,10,1.5,19,M,,M,,*69
06/11/2015	19:00:30.591	$GPGGA,190031,2426.0746,N,08130.1552,W,1,10,1.5,19,M,,M,,*69
06/11/2015	19:00:31.595	$GPGGA,190032,2426.0752,N,08130.1538,W,1,11,1.5,19,M,,M,,*62
06/11/2015	19:00:32.593	$GPGGA,190033,2426.0756,N,08130.1524,W,1,11,1.5,19,M,,M,,*6A
06/11/2015	19:00:33.594	$GPGGA,190034,2426.0760,N,08130.1511,W,1,11,1.5,19,M,,M,,*6E
06/11/2015	19:00:34.588	$GPGGA,190035,2426.0764,N,08130.1497,W,1,11,1.5,19,M,,M,,*64
06/11/2015	19:00:35.604	$GPGGA,190036,2426.0770,N,08130.1482,W,1,11,1.5,19,M,,M,,*66
06/11/2015	19:00:36.591	$GPGGA,190037,2426.0775,N,08130.1468,W,1,11,1.5,19,M,,M,,*66
06/11/2015	19:00:37.594	$GPGGA,190038,2426.0778,N,08130.1455,W,1,11,1.5,19,M,,M,,*6A
06/11/2015	19:00:38.577	$GPGGA,190039,2426.0782,N,08130.1442,W,1,11,1.5,19,M,,M,,*68
06/11/2015	19:00:39.605	$GPGGA,190040,2426.0788,N,08130.1427,W,1,11,1.5,19,M,,M,,*6F
06/11/2015	19:00:40.565	$GPGGA,190041,2426.0793,N,08130.1412,W,1,11,1.5,19,M,,M,,*62
06/11/2015	19:00:41.589	$GPGGA,190042,2426.0799,N,08130.1398,W,1,11,1.5,19,M,,M,,*6E
06/11/2015	19:00:42.565	$GPGGA,190043,2426.0804,N,08130.1383,W,1,11,1.5,19,M,,M,,*6E
06/11/2015	19:00:43.592	$GPGGA,190044,2426.0808,N,08130.1368,W,1,11,1.5,19,M,,M,,*60
06/11/2015	19:00:44.565	$GPGGA,190045,2426.0814,N,08130.1354,W,1,11,1.5,19,M,,M,,*63
06/11/2015	19:00:45.565	$GPGGA,190046,2426.0818,N,08130.1341,W,1,11,1.5,19,M,,M,,*68
06/11/2015	19:00:46.555	$GPGGA,190047,2426.0824,N,08130.1325,W,1,11,1.5,19,M,,M,,*64
06/11/2015	19:00:47.591	$GPGGA,190048,2426.0828,N,08130.1311,W,1,10,1.5,19,M,,M,,*61
06/11/2015	19:00:48.554	$GPGGA,190049,2426.0833,N,08130.1297,W,1,10,1.5,19,M,,M,,*65
06/11/2015	19:00:49.534	$GPGGA,190050,2426.0837,N,08130.1284,W,1,10,1.5,19,M,,M,,*6B
06/11/2015	19:00:50.544	$GPGGA,190051,2426.0842,N,08130.1270,W,1,10,1.5,19,M,,M,,*63
06/11/2015	19:00:51.595	$GPGGA,190052,2426.0846,N,08130.1255,W,1,11,1.5,19,M,,M,,*62
06/11/2015	19:00:52.544	$GPGGA,190053,2426.0850,N,08130.1242,W,1,11,1.5,19,M,,M,,*62
06/11/2015	19:00:53.564	$GPGGA,190054,2426.0854,N,08130.1228,W,1,11,1.5,19,M,,M,,*6D
06/11/2015	19:00:54.544	$GPGGA,190055,2426.0858,N,08130.1213,W,1,11,1.5,19,M,,M,,*68
06/11/2015	19:00:55.545	$GPGGA,190056,2426.0862,N,08130.1199,W,1,11,1.5,19,M,,M,,*63
06/11/2015	19:00:56.535	$GPGGA,190057,2426.0868,N,08130.1185,W,1,11,1.5,19,M,,M,,*65
06/11/2015	19:00:57.535	$GPGGA,190058,2426.0872,N,08130.1170,W,1,10,1.5,19,M,,M,,*6A
06/11/2015	19:00:58.535	$GPGGA,190059,2426.0878,N,08130.1156,W,1,10,1.5,19,M,,M,,*65
06/11/2015	19:00:59.576	$GPGGA,190100,2426.0882,N,08130.1142,W,1,11,1.5,19,M,,M,,*69
06/11/2015	19:01:00.525	$GPGGA,190101,2426.0886,N,08130.1129,W,1,11,1.5,19,M,,M,,*61
06/11/2015	19:01:01.535	$GPGGA,190102,2426.0891,N,08130.1115,W,1,11,1.5,19,M,,M,,*6B
06/11/2015	19:01:02.535	$GPGGA,190103,2426.0894,N,08130.1101,W,1,11,1.5,19,M,,M,,*6A
06/11/2015	19:01:03.665	$GPGGA,190104,2426.0898,N,08130.1087,W,1,11,1.5,18,M,,M,,*6F
06/11/2015	19:01:04.534	$GPGGA,190105,2426.0901,N,08130.1073,W,1,11,1.5,18,M,,M,,*64
06/11/2015	19:01:05.644	$GPGGA,190106,2426.0907,N,08130.1060,W,1,11,1.5,18,M,,M,,*63
06/11/2015	19:01:06.524	$GPGGA,190107,2426.0911,N,08130.1047,W,1,11,1.5,18,M,,M,,*60
06/11/2015	19:01:07.645	$GPGGA,190108,2426.0915,N,08130.1033,W,1,11,1.5,18,M,,M,,*68
06/11/2015	19:01:08.524	$GPGGA,190109,2426.0919,N,08130.1019,W,1,11,1.5,18,M,,M,,*6D
06/11/2015	19:01:09.604	$GPGGA,190110,2426.0923,N,08130.1007,W,1,11,1.5,18,M,,M,,*63
06/11/2015	19:01:10.514	$GPGGA,190111,2426.0930,N,08130.0992,W,1,11,1.5,18,M,,M,,*64
06/11/2015	19:01:11.514	$GPGGA,190112,2426.0933,N,08130.0978,W,1,10,1.5,18,M,,M,,*61
06/11/2015	19:01:12.604	$GPGGA,190113,2426.0938,N,08130.0965,W,1,10,1.5,18,M,,M,,*67
06/11/2015	19:01:13.635	$GPGGA,190114,2426.0944,N,08130.0952,W,1,10,2.2,18,M,,M,,*6B
06/11/2015	19:01:14.595	$GPGGA,190115,2426.0947,N,08130.0939,W,1,10,1.5,18,M,,M,,*60
06/11/2015	19:01:15.605	$GPGGA,190116,2426.0948,N,08130.0927,W,1,11,1.5,18,M,,M,,*62
06/11/2015	19:01:16.587	$GPGGA,190117,2426.0954,N,08130.0913,W,1,11,1.5,18,M,,M,,*69
06/11/2015	19:01:17.584	$GPGGA,190118,2426.0958,N,08130.0901,W,1,11,1.5,18,M,,M,,*69
06/11/2015	19:01:18.581	$GPGGA,190119,2426.0961,N,08130.0889,W,1,11,1.5,18,M,,M,,*63
06/11/2015	19:01:19.605	$GPGGA,190120,2426.0965,N,08130.0876,W,1,11,1.5,19,M,,M,,*6C
06/11/2015	19:01:20.580	$GPGGA,190121,2426.0967,N,08130.0862,W,1,11,1.5,19,M,,M,,*6A
06/11/2015	19:01:21.595	$GPGGA,190122,2426.0970,N,08130.0851,W,1,11,1.5,19,M,,M,,*6F
06/11/2015	19:01:22.564	$GPGGA,190123,2426.0974,N,08130.0838,W,1,11,1.5,19,M,,M,,*65
06/11/2015	19:01:23.604	$GPGGA,190124,2426.0977,N,08130.0825,W,1,11,1.5,19,M,,M,,*6D
06/11/2015	19:01:24.564	$GPGGA,190125,2426.0981,N,08130.0811,W,1,11,1.5,19,M,,M,,*62
06/11/2015	19:01:25.584	$GPGGA,190126,2426.0983,N,08130.0798,W,1,10,1.5,19,M,,M,,*6C
06/11/2015	19:01:26.554	$GPGGA,190127,2426.0988,N,08130.0785,W,1,10,1.5,19,M,,M,,*6A
06/11/2015	19:01:27.596	$GPGGA,190128,2426.0992,N,08130.0772,W,1,10,1.5,19,M,,M,,*66
06/11/2015	19:01:28.564	$GPGGA,190129,2426.0995,N,08130.0757,W,1,10,1.5,19,M,,M,,*67
06/11/2015	19:01:29.554	$GPGGA,190130,2426.0998,N,08130.0744,W,1,10,1.5,19,M,,M,,*60
06/11/2015	19:01:30.565	$GPGGA,190131,2426.1001,N,08130.0731,W,1,10,1.5,20,M,,M,,*61
06/11/2015	19:01:31.595	$GPGGA,190132,2426.1006,N,08130.0717,W,1,11,1.5,20,M,,M,,*60
06/11/2015	19:01:32.565	$GPGGA,190133,2426.1009,N,08130.0703,W,1,11,1.5,20,M,,M,,*6B
06/11/2015	19:01:33.577	$GPGGA,190134,2426.1010,N,08130.0688,W,1,11,1.5,20,M,,M,,*66
06/11/2015	19:01:34.545	$GPGGA,190135,2426.1014,N,08130.0674,W,1,11,1.5,20,M,,M,,*60
06/11/2015	19:01:35.595	$GPGGA,190136,2426.1021,N,08130.0660,W,1,10,1.5,20,M,,M,,*61
06/11/2015	19:01:36.555	$GPGGA,190137,2426.1024,N,08130.0646,W,1,10,1.5,20,M,,M,,*61
06/11/2015	19:01:37.565	$GPGGA,190138,2426.1027,N,08130.0630,W,1,11,1.5,20,M,,M,,*6D
06/11/2015	19:01:38.545	$GPGGA,190139,2426.1031,N,08130.0616,W,1,11,1.5,20,M,,M,,*6F
06/11/2015	19:01:39.564	$GPGGA,190140,2426.1035,N,08130.0603,W,1,11,1.5,20,M,,M,,*61
06/11/2015	19:01:40.544	$GPGGA,190141,2426.1038,N,08130.0588,W,1,11,1.5,20,M,,M,,*6D
06/11/2015	19:01:41.534	$GPGGA,190142,2426.1041,N,08130.0574,W,1,11,1.5,20,M,,M,,*63
06/11/2015	19:01:42.524	$GPGGA,190143,2426.1044,N,08130.0561,W,1,11,1.5,20,M,,M,,*63
06/11/2015	19:01:43.691	$GPGGA,190144,2426.1048,N,08130.0546,W,1,11,1.5,20,M,,M,,*6D
06/11/2015	19:01:44.524	$GPGGA,190145,2426.1050,N,08130.0533,W,1,11,1.5,20,M,,M,,*67
06/11/2015	19:01:45.564	$GPGGA,190146,2426.1053,N,08130.0519,W,1,11,1.5,20,M,,M,,*6F
06/11/2015	19:01:46.514	$GPGGA,190147,2426.1057,N,08130.0505,W,1,11,1.5,20,M,,M,,*67
06/11/2015	19:01:47.544	$GPGGA,190148,2426.1060,N,08130.0491,W,1,11,1.5,20,M,,M,,*60
06/11/2015	19:01:48.615	$GPGGA,190149,2426.1066,N,08130.0477,W,1,11,1.5,21,M,,M,,*6E
06/11/2015	19:01:49.515	$GPGGA,190150,2426.1068,N,08130.0463,W,1,11,1.5,21,M,,M,,*6D
06/11/2015	19:01:50.535	$GPGGA,190151,2426.1071,N,08130.0449,W,1,11,1.5,21,M,,M,,*6C
06/11/2015	19:01:51.690	$GPGGA,190152,2426.1075,N,08130.0435,W,1,11,1.5,21,M,,M,,*60
06/11/2015	19:01:52.515	$GPGGA,190153,2426.1081,N,08130.0422,W,1,11,1.5,21,M,,M,,*6C
06/11/2015	19:01:53.515	$GPGGA,190154,2426.1084,N,08130.0406,W,1,11,1.5,21,M,,M,,*68
06/11/2015	19:01:54.595	$GPGGA,190155,2426.1086,N,08130.0392,W,1,11,1.5,21,M,,M,,*61
06/11/2015	19:01:55.635	$GPGGA,190156,2426.1092,N,08130.0378,W,1,11,1.5,21,M,,M,,*63
06/11/2015	19:01:56.595	$GPGGA,190157,2426.1096,N,08130.0364,W,1,11,1.5,21,M,,M,,*6B
06/11/2015	19:01:57.624	$GPGGA,190158,2426.1100,N,08130.0349,W,1,11,1.5,21,M,,M,,*65
06/11/2015	19:01:58.594	$GPGGA,190159,2426.1104,N,08130.0336,W,1,11,1.5,21,M,,M,,*68
06/11/2015	19:02:00.435	$GPGGA,190200,2426.1109,N,08130.0322,W,1,11,1.5,21,M,,M,,*6F
06/11/2015	19:02:00.584	$GPGGA,190201,2426.1111,N,08130.0308,W,1,11,1.5,21,M,,M,,*6F
06/11/2015	19:02:01.604	$GPGGA,190202,2426.1115,N,08130.0294,W,1,11,1.5,21,M,,M,,*6C
06/11/2015	19:02:02.584	$GPGGA,190203,2426.1120,N,08130.0281,W,1,11,1.5,21,M,,M,,*6F
06/11/2015	19:02:03.594	$GPGGA,190204,2426.1125,N,08130.0267,W,1,11,1.5,21,M,,M,,*65
06/11/2015	19:02:04.584	$GPGGA,190205,2426.1129,N,08130.0252,W,1,11,1.5,21,M,,M,,*6E
06/11/2015	19:02:05.594	$GPGGA,190206,2426.1133,N,08130.0239,W,1,10,1.5,21,M,,M,,*6A
06/11/2015	19:02:06.604	$GPGGA,190207,2426.1138,N,08130.0225,W,1,10,1.5,21,M,,M,,*6D
06/11/2015	19:02:07.604	$GPGGA,190208,2426.1142,N,08130.0211,W,1,11,1.5,21,M,,M,,*69
06/11/2015	19:02:08.565	$GPGGA,190209,2426.1146,N,08130.0197,W,1,11,1.5,20,M,,M,,*60
06/11/2015	19:02:09.576	$GPGGA,190210,2426.1151,N,08130.0184,W,1,11,1.5,20,M,,M,,*6C
06/11/2015	19:02:10.554	$GPGGA,190211,2426.1157,N,08130.0170,W,1,11,1.5,20,M,,M,,*60
06/11/2015	19:02:11.584	$GPGGA,190212,2426.1161,N,08130.0156,W,1,11,1.5,20,M,,M,,*62
06/11/2015	19:02:12.554	$GPGGA,190213,2426.1165,N,08130.0143,W,1,11,1.5,20,M,,M,,*63
06/11/2015	19:02:13.574	$GPGGA,190214,2426.1172,N,08130.0130,W,1,11,1.5,20,M,,M,,*66
06/11/2015	19:02:14.553	$GPGGA,190215,2426.1176,N,08130.0116,W,1,11,1.5,20,M,,M,,*67
06/11/2015	19:02:15.553	$GPGGA,190216,2426.1180,N,08130.0103,W,1,11,1.5,20,M,,M,,*69
06/11/2015	19:02:16.554	$GPGGA,190217,2426.1185,N,08130.0090,W,1,11,1.5,20,M,,M,,*66
06/11/2015	19:02:17.544	$GPGGA,190218,2426.1189,N,08130.0077,W,1,11,1.5,20,M,,M,,*6C
06/11/2015	19:02:18.544	$GPGGA,190219,2426.1191,N,08130.0064,W,1,11,1.5,20,M,,M,,*66
06/11/2015	19:02:19.584	$GPGGA,190220,2426.1198,N,08130.0050,W,1,11,1.5,20,M,,M,,*62
06/11/2015	19:02:20.544	$GPGGA,190221,2426.1204,N,08130.0038,W,1,11,1.5,20,M,,M,,*6B
06/11/2015	19:02:21.568	$GPGGA,190222,2426.1207,N,08130.0023,W,1,11,1.5,20,M,,M,,*61
06/11/2015	19:02:22.554	$GPGGA,190223,2426.1212,N,08130.0010,W,1,11,1.5,20,M,,M,,*64
06/11/2015	19:02:23.554	$GPGGA,190224,2426.1218,N,08129.9997,W,1,11,1.5,20,M,,M,,*6E
06/11/2015	19:02:24.534	$GPGGA,190225,2426.1222,N,08129.9983,W,1,11,1.5,20,M,,M,,*63
06/11/2015	19:02:25.544	$GPGGA,190226,2426.1226,N,08129.9969,W,1,11,1.5,20,M,,M,,*60
06/11/2015	19:02:26.554	$GPGGA,190227,2426.1230,N,08129.9956,W,1,11,1.5,20,M,,M,,*6A
06/11/2015	19:02:27.554	$GPGGA,190228,2426.1237,N,08129.9941,W,1,11,1.5,20,M,,M,,*64
06/11/2015	19:02:28.524	$GPGGA,190229,2426.1241,N,08129.9928,W,1,11,1.5,20,M,,M,,*6B
06/11/2015	19:02:29.534	$GPGGA,190230,2426.1245,N,08129.9913,W,1,11,1.5,20,M,,M,,*6F
06/11/2015	19:02:31.034	$GPGGA,190231,2426.1252,N,08129.9899,W,1,11,1.5,20,M,,M,,*6B
06/11/2015	19:02:31.653	$GPGGA,190232,2426.1256,N,08129.9887,W,1,11,1.5,20,M,,M,,*63
06/11/2015	19:02:32.533	$GPGGA,190233,2426.1259,N,08129.9873,W,1,11,1.5,20,M,,M,,*66
06/11/2015	19:02:33.514	$GPGGA,190234,2426.1263,N,08129.9859,W,1,11,1.5,20,M,,M,,*60
06/11/2015	19:02:34.624	$GPGGA,190235,2426.1269,N,08129.9847,W,1,11,1.5,20,M,,M,,*64
06/11/2015	19:02:35.644	$GPGGA,190236,2426.1273,N,08129.9832,W,1,11,1.5,20,M,,M,,*6E
06/11/2015	19:02:36.534	$GPGGA,190237,2426.1276,N,08129.9819,W,1,11,1.5,20,M,,M,,*63
06/11/2015	19:02:37.624	$GPGGA,190238,2426.1281,N,08129.9805,W,1,11,1.5,20,M,,M,,*69
06/11/2015	19:02:38.504	$GPGGA,190239,2426.1286,N,08129.9792,W,1,11,1.5,20,M,,M,,*6E
06/11/2015	19:02:39.634	$GPGGA,190240,2426.1290,N,08129.9777,W,1,11,1.5,20,M,,M,,*6C
06/11/2015	19:02:40.524	$GPGGA,190241,2426.1295,N,08129.9762,W,1,11,1.5,20,M,,M,,*6C
06/11/2015	19:02:41.604	$GPGGA,190242,2426.1301,N,08129.9750,W,1,11,1.5,20,M,,M,,*62
06/11/2015	19:02:42.584	$GPGGA,190243,2426.1306,N,08129.9737,W,1,11,1.5,20,M,,M,,*65
06/11/2015	19:02:43.634	$GPGGA,190244,2426.1309,N,08129.9723,W,1,10,1.5,19,M,,M,,*63
06/11/2015	19:02:44.594	$GPGGA,190245,2426.1313,N,08129.9712,W,1,10,1.5,19,M,,M,,*6B
06/11/2015	19:02:45.604	$GPGGA,190246,2426.1319,N,08129.9700,W,1,11,1.5,19,M,,M,,*60
06/11/2015	19:02:46.584	$GPGGA,190247,2426.1323,N,08129.9686,W,1,11,1.5,19,M,,M,,*67
06/11/2015	19:02:47.624	$GPGGA,190248,2426.1326,N,08129.9674,W,1,11,1.5,19,M,,M,,*60
06/11/2015	19:02:48.579	$GPGGA,190249,2426.1331,N,08129.9662,W,1,11,1.5,19,M,,M,,*60
06/11/2015	19:02:49.603	$GPGGA,190250,2426.1335,N,08129.9650,W,1,10,1.5,19,M,,M,,*6C
06/11/2015	19:02:50.569	$GPGGA,190251,2426.1341,N,08129.9637,W,1,10,1.5,19,M,,M,,*6F
06/11/2015	19:02:51.604	$GPGGA,190252,2426.1345,N,08129.9624,W,1,11,1.5,19,M,,M,,*6B
06/11/2015	19:02:52.576	$GPGGA,190253,2426.1348,N,08129.9613,W,1,11,1.5,19,M,,M,,*63
06/11/2015	19:02:53.585	$GPGGA,190254,2426.1353,N,08129.9600,W,1,10,2.1,19,M,,M,,*6A
06/11/2015	19:02:54.570	$GPGGA,190255,2426.1357,N,08129.9588,W,1,10,1.5,19,M,,M,,*6B
06/11/2015	19:02:55.614	$GPGGA,190256,2426.1357,N,08129.9577,W,1,11,1.5,19,M,,M,,*69
06/11/2015	19:02:56.565	$GPGGA,190257,2426.1363,N,08129.9563,W,1,11,2.1,19,M,,M,,*6D
06/11/2015	19:02:57.554	$GPGGA,190258,2426.1366,N,08129.9553,W,1,11,1.5,19,M,,M,,*63
06/11/2015	19:02:58.554	$GPGGA,190259,2426.1370,N,08129.9541,W,1,11,2.1,19,M,,M,,*61
06/11/2015	19:02:59.604	$GPGGA,190300,2426.1371,N,08129.9529,W,1,10,2.1,19,M,,M,,*62
06/11/2015	19:03:00.554	$GPGGA,190301,2426.1371,N,08129.9529,W,1,10,1.5,19,M,,M,,*64
06/11/2015	19:03:01.544	$GPGGA,190302,2426.1380,N,08129.9503,W,1,11,1.5,19,M,,M,,*60
06/11/2015	19:03:02.544	$GPGGA,190303,2426.1385,N,08129.9490,W,1,11,1.5,19,M,,M,,*6F
06/11/2015	19:03:03.579	$GPGGA,190304,2426.1389,N,08129.9476,W,1,11,1.5,19,M,,M,,*6C
06/11/2015	19:03:04.566	$GPGGA,190305,2426.1393,N,08129.9462,W,1,11,1.5,19,M,,M,,*63
06/11/2015	19:03:05.534	$GPGGA,190306,2426.1396,N,08129.9450,W,1,11,1.5,19,M,,M,,*64
06/11/2015	19:03:06.524	$GPGGA,190307,2426.1399,N,08129.9437,W,1,11,1.5,19,M,,M,,*6B
06/11/2015	19:03:07.553	$GPGGA,190308,2426.1403,N,08129.9423,W,1,11,1.5,20,M,,M,,*6F
06/11/2015	19:03:08.544	$GPGGA,190309,2426.1407,N,08129.9410,W,1,11,1.5,20,M,,M,,*6A
06/11/2015	19:03:09.534	$GPGGA,190310,2426.1409,N,08129.9396,W,1,11,1.5,20,M,,M,,*65
06/11/2015	19:03:10.534	$GPGGA,190311,2426.1413,N,08129.9383,W,1,11,1.5,20,M,,M,,*6B
06/11/2015	19:03:11.524	$GPGGA,190312,2426.1417,N,08129.9371,W,1,11,1.5,20,M,,M,,*61
06/11/2015	19:03:12.524	$GPGGA,190313,2426.1420,N,08129.9357,W,1,11,1.5,20,M,,M,,*60
06/11/2015	19:03:13.554	$GPGGA,190314,2426.1422,N,08129.9343,W,1,11,1.5,20,M,,M,,*60
06/11/2015	19:03:14.514	$GPGGA,190315,2426.1428,N,08129.9330,W,1,11,1.5,20,M,,M,,*6F
06/11/2015	19:03:15.534	$GPGGA,190316,2426.1432,N,08129.9316,W,1,11,1.5,20,M,,M,,*63
06/11/2015	19:03:16.614	$GPGGA,190317,2426.1433,N,08129.9301,W,1,11,1.5,20,M,,M,,*65
06/11/2015	19:03:17.504	$GPGGA,190318,2426.1439,N,08129.9288,W,1,11,1.5,20,M,,M,,*60
06/11/2015	19:03:18.604	$GPGGA,190319,2426.1443,N,08129.9275,W,1,11,1.5,20,M,,M,,*6E
06/11/2015	19:03:19.534	$GPGGA,190320,2426.1447,N,08129.9260,W,1,11,1.5,20,M,,M,,*64
06/11/2015	19:03:20.604	$GPGGA,190321,2426.1449,N,08129.9247,W,1,11,1.5,20,M,,M,,*6E
06/11/2015	19:03:21.524	$GPGGA,190322,2426.1453,N,08129.9234,W,1,11,1.5,20,M,,M,,*62
06/11/2015	19:03:22.594	$GPGGA,190323,2426.1457,N,08129.9221,W,1,11,1.5,20,M,,M,,*63
06/11/2015	19:03:23.524	$GPGGA,190324,2426.1460,N,08129.9206,W,1,11,1.5,20,M,,M,,*65
06/11/2015	19:03:24.593	$GPGGA,190325,2426.1462,N,08129.9192,W,1,11,1.5,20,M,,M,,*68
06/11/2015	19:03:25.594	$GPGGA,190326,2426.1468,N,08129.9181,W,1,11,1.5,20,M,,M,,*63
06/11/2015	19:03:26.504	$GPGGA,190327,2426.1472,N,08129.9166,W,1,11,2.1,20,M,,M,,*67
06/11/2015	19:03:27.594	$GPGGA,190328,2426.1472,N,08129.9154,W,1,9,2.7,20,M,,M,,*56
06/11/2015	19:03:28.594	$GPGGA,190329,2426.1476,N,08129.9142,W,1,9,1.5,20,M,,M,,*55
06/11/2015	19:03:29.614	$GPGGA,190330,2426.1482,N,08129.9130,W,1,10,2.1,20,M,,M,,*6C
06/11/2015	19:03:30.584	$GPGGA,190331,2426.1485,N,08129.9115,W,1,10,1.5,20,M,,M,,*6A
06/11/2015	19:03:31.614	$GPGGA,190332,2426.1487,N,08129.9102,W,1,11,1.5,20,M,,M,,*6C
06/11/2015	19:03:32.584	$GPGGA,190333,2426.1492,N,08129.9089,W,1,11,1.5,20,M,,M,,*6B
06/11/2015	19:03:33.604	$GPGGA,190334,2426.1496,N,08129.9076,W,1,11,1.5,20,M,,M,,*68
06/11/2015	19:03:34.566	$GPGGA,190335,2426.1498,N,08129.9062,W,1,11,1.4,20,M,,M,,*63
06/11/2015	19:03:35.604	$GPGGA,190336,2426.1501,N,08129.9049,W,1,11,1.4,20,M,,M,,*68
06/11/2015	19:03:36.565	$GPGGA,190337,2426.1507,N,08129.9035,W,1,11,1.4,21,M,,M,,*65
06/11/2015	19:03:37.584	$GPGGA,190338,2426.1512,N,08129.9021,W,1,11,1.4,21,M,,M,,*6B
06/11/2015	19:03:38.564	$GPGGA,190339,2426.1518,N,08129.9007,W,1,11,1.5,21,M,,M,,*65
06/11/2015	19:03:39.594	$GPGGA,190340,2426.1522,N,08129.8993,W,1,11,1.4,21,M,,M,,*66
06/11/2015	19:03:40.554	$GPGGA,190341,2426.1527,N,08129.8979,W,1,11,1.5,21,M,,M,,*67
06/11/2015	19:03:41.583	$GPGGA,190342,2426.1533,N,08129.8965,W,1,11,1.4,21,M,,M,,*6D
06/11/2015	19:03:42.569	$GPGGA,190343,2426.1537,N,08129.8952,W,1,11,1.4,21,M,,M,,*6C
06/11/2015	19:03:43.584	$GPGGA,190344,2426.1541,N,08129.8939,W,1,11,1.4,21,M,,M,,*67
06/11/2015	19:03:44.554	$GPGGA,190345,2426.1545,N,08129.8925,W,1,11,1.4,21,M,,M,,*6F
06/11/2015	19:03:45.584	$GPGGA,190346,2426.1550,N,08129.8912,W,1,11,1.4,21,M,,M,,*6C
06/11/2015	19:03:46.554	$GPGGA,190347,2426.1555,N,08129.8898,W,1,11,1.4,21,M,,M,,*6B
06/11/2015	19:03:47.572	$GPGGA,190348,2426.1561,N,08129.8884,W,1,10,1.5,21,M,,M,,*6E
06/11/2015	19:03:48.544	$GPGGA,190349,2426.1565,N,08129.8869,W,1,10,1.4,21,M,,M,,*69
06/11/2015	19:03:49.554	$GPGGA,190350,2426.1570,N,08129.8856,W,1,10,1.5,21,M,,M,,*68
06/11/2015	19:03:50.534	$GPGGA,190351,2426.1576,N,08129.8844,W,1,10,1.4,20,M,,M,,*6C
06/11/2015	19:03:51.572	$GPGGA,190352,2426.1579,N,08129.8830,W,1,11,1.4,20,M,,M,,*62
06/11/2015	19:03:52.545	$GPGGA,190353,2426.1584,N,08129.8815,W,1,11,1.4,20,M,,M,,*66
06/11/2015	19:03:53.534	$GPGGA,190354,2426.1590,N,08129.8803,W,1,10,1.5,20,M,,M,,*63
06/11/2015	19:03:54.534	$GPGGA,190355,2426.1595,N,08129.8790,W,1,10,1.4,20,M,,M,,*63
06/11/2015	19:03:55.544	$GPGGA,190356,2426.1598,N,08129.8777,W,1,11,1.4,20,M,,M,,*65
06/11/2015	19:03:56.524	$GPGGA,190357,2426.1602,N,08129.8762,W,1,11,1.4,20,M,,M,,*60
06/11/2015	19:03:57.544	$GPGGA,190358,2426.1608,N,08129.8749,W,1,11,1.4,20,M,,M,,*6C
06/11/2015	19:03:58.534	$GPGGA,190359,2426.1613,N,08129.8738,W,1,11,1.4,20,M,,M,,*61
06/11/2015	19:03:59.583	$GPGGA,190400,2426.1617,N,08129.8723,W,1,11,1.4,20,M,,M,,*64
06/11/2015	19:04:00.534	$GPGGA,190401,2426.1620,N,08129.8710,W,1,11,1.4,20,M,,M,,*61
06/11/2015	19:04:01.534	$GPGGA,190402,2426.1626,N,08129.8698,W,1,11,1.4,20,M,,M,,*65
06/11/2015	19:04:02.504	$GPGGA,190403,2426.1631,N,08129.8685,W,1,11,1.4,20,M,,M,,*6E
06/11/2015	19:04:03.654	$GPGGA,190404,2426.1635,N,08129.8671,W,1,11,1.4,20,M,,M,,*66
06/11/2015	19:04:04.524	$GPGGA,190405,2426.1638,N,08129.8659,W,1,11,1.4,20,M,,M,,*60
06/11/2015	19:04:05.504	$GPGGA,190406,2426.1644,N,08129.8646,W,1,11,1.4,20,M,,M,,*66
06/11/2015	19:04:06.614	$GPGGA,190407,2426.1649,N,08129.8633,W,1,11,1.4,20,M,,M,,*68
06/11/2015	19:04:07.534	$GPGGA,190408,2426.1653,N,08129.8620,W,1,11,1.4,20,M,,M,,*6E
06/11/2015	19:04:08.514	$GPGGA,190409,2426.1657,N,08129.8605,W,1,11,1.5,20,M,,M,,*6D
06/11/2015	19:04:09.624	$GPGGA,190410,2426.1662,N,08129.8593,W,1,10,1.5,20,M,,M,,*6E
06/11/2015	19:04:10.514	$GPGGA,190411,2426.1664,N,08129.8581,W,1,10,1.4,20,M,,M,,*6B
06/11/2015	19:04:11.604	$GPGGA,190412,2426.1670,N,08129.8566,W,1,11,1.4,20,M,,M,,*65
06/11/2015	19:04:12.504	$GPGGA,190413,2426.1674,N,08129.8552,W,1,11,1.5,20,M,,M,,*66
06/11/2015	19:04:13.584	$GPGGA,190414,2426.1678,N,08129.8538,W,1,10,1.5,20,M,,M,,*60
06/11/2015	19:04:14.584	$GPGGA,190415,2426.1684,N,08129.8524,W,1,10,1.5,20,M,,M,,*6F
06/11/2015	19:04:15.634	$GPGGA,190416,2426.1689,N,08129.8509,W,1,11,1.4,20,M,,M,,*6E
06/11/2015	19:04:16.583	$GPGGA,190417,2426.1692,N,08129.8495,W,1,11,2.7,19,M,,M,,*6B
06/11/2015	19:04:17.593	$GPGGA,190418,2426.1696,N,08129.8481,W,1,9,2.7,19,M,,M,,*5C
06/11/2015	19:04:18.578	$GPGGA,190419,2426.1700,N,08129.8468,W,1,9,1.4,19,M,,M,,*54
06/11/2015	19:04:19.614	$GPGGA,190420,2426.1703,N,08129.8455,W,1,9,2.7,19,M,,M,,*53
06/11/2015	19:04:20.574	$GPGGA,190421,2426.1706,N,08129.8442,W,1,9,2.1,19,M,,M,,*57
06/11/2015	19:04:21.594	$GPGGA,190422,2426.1709,N,08129.8431,W,1,11,1.4,19,M,,M,,*60
06/11/2015	19:04:22.564	$GPGGA,190423,2426.1711,N,08129.8418,W,1,11,1.4,19,M,,M,,*63
06/11/2015	19:04:23.604	$GPGGA,190424,2426.1714,N,08129.8405,W,1,11,1.4,19,M,,M,,*6D
06/11/2015	19:04:24.564	$GPGGA,190425,2426.1717,N,08129.8393,W,1,11,1.4,19,M,,M,,*67
06/11/2015	19:04:25.584	$GPGGA,190426,2426.1721,N,08129.8379,W,1,11,1.4,19,M,,M,,*65
06/11/2015	19:04:26.575	$GPGGA,190427,2426.1725,N,08129.8366,W,1,11,1.4,19,M,,M,,*6E
06/11/2015	19:04:27.594	$GPGGA,190428,2426.1728,N,08129.8353,W,1,11,1.4,19,M,,M,,*6A
06/11/2015	19:04:28.564	$GPGGA,190429,2426.1732,N,08129.8339,W,1,11,1.4,19,M,,M,,*6C
06/11/2015	19:04:29.574	$GPGGA,190430,2426.1735,N,08129.8326,W,1,10,1.5,19,M,,M,,*6D
06/11/2015	19:04:30.554	$GPGGA,190431,2426.1738,N,08129.8314,W,1,10,1.4,20,M,,M,,*6B
06/11/2015	19:04:31.554	$GPGGA,190432,2426.1742,N,08129.8298,W,1,11,1.4,20,M,,M,,*61
06/11/2015	19:04:32.554	$GPGGA,190433,2426.1745,N,08129.8285,W,1,11,1.4,20,M,,M,,*6B
06/11/2015	19:04:33.554	$GPGGA,190434,2426.1750,N,08129.8273,W,1,11,1.4,20,M,,M,,*61
06/11/2015	19:04:34.553	$GPGGA,190435,2426.1753,N,08129.8260,W,1,11,2.1,20,M,,M,,*67
06/11/2015	19:04:35.544	$GPGGA,190436,2426.1756,N,08129.8246,W,1,11,1.4,20,M,,M,,*63
06/11/2015	19:04:36.544	$GPGGA,190437,2426.1760,N,08129.8236,W,1,11,1.4,20,M,,M,,*60
06/11/2015	19:04:37.534	$GPGGA,190438,2426.1764,N,08129.8222,W,1,11,1.4,20,M,,M,,*6E
06/11/2015	19:04:38.534	$GPGGA,190439,2426.1768,N,08129.8208,W,1,11,1.4,20,M,,M,,*6B
06/11/2015	19:04:39.584	$GPGGA,190440,2426.1769,N,08129.8197,W,1,10,1.5,20,M,,M,,*61
06/11/2015	19:04:40.534	$GPGGA,190441,2426.1774,N,08129.8186,W,1,10,2.1,20,M,,M,,*6B
06/11/2015	19:04:41.534	$GPGGA,190442,2426.1778,N,08129.8172,W,1,10,2.1,20,M,,M,,*6F
06/11/2015	19:04:42.524	$GPGGA,190443,2426.1779,N,08129.8160,W,1,10,1.4,20,M,,M,,*6A
06/11/2015	19:04:43.565	$GPGGA,190444,2426.1782,N,08129.8149,W,1,11,1.4,20,M,,M,,*63
06/11/2015	19:04:44.524	$GPGGA,190445,2426.1783,N,08129.8139,W,1,11,2.1,20,M,,M,,*62
06/11/2015	19:04:45.644	$GPGGA,190446,2426.1786,N,08129.8127,W,1,10,2.1,20,M,,M,,*6A
06/11/2015	19:04:46.524	$GPGGA,190447,2426.1785,N,08129.8118,W,1,10,2.1,20,M,,M,,*64
06/11/2015	19:04:47.544	$GPGGA,190448,2426.1790,N,08129.8106,W,1,10,1.5,21,M,,M,,*66
06/11/2015	19:04:48.514	$GPGGA,190449,2426.1797,N,08129.8091,W,1,10,2.1,21,M,,M,,*68
06/11/2015	19:04:49.524	$GPGGA,190450,2426.1801,N,08129.8076,W,1,9,2.7,21,M,,M,,*57
06/11/2015	19:04:50.504	$GPGGA,190451,2426.1805,N,08129.8061,W,1,9,2.7,21,M,,M,,*54
06/11/2015	19:04:51.533	$GPGGA,190452,2426.1808,N,08129.8052,W,1,9,2.7,21,M,,M,,*5A
06/11/2015	19:04:52.513	$GPGGA,190453,2426.1812,N,08129.8037,W,1,9,2.1,21,M,,M,,*55
06/11/2015	19:04:53.514	$GPGGA,190454,2426.1816,N,08129.8023,W,1,10,1.5,21,M,,M,,*6C
06/11/2015	19:04:54.514	$GPGGA,190455,2426.1822,N,08129.8009,W,1,10,1.4,21,M,,M,,*63
06/11/2015	19:04:55.604	$GPGGA,190456,2426.1826,N,08129.7995,W,1,10,1.5,21,M,,M,,*66
06/11/2015	19:04:56.494	$GPGGA,190457,2426.1830,N,08129.7981,W,1,10,1.5,21,M,,M,,*65
06/11/2015	19:04:57.494	$GPGGA,190458,2426.1834,N,08129.7968,W,1,10,1.5,21,M,,M,,*69
06/11/2015	19:04:58.584	$GPGGA,190459,2426.1839,N,08129.7955,W,1,10,1.4,21,M,,M,,*6A
06/11/2015	19:04:59.669	$GPGGA,190500,2426.1843,N,08129.7940,W,1,11,1.4,21,M,,M,,*6F
06/11/2015	19:05:01.634	$GPGGA,190501,2426.1847,N,08129.7927,W,1,11,1.4,21,M,,M,,*6B
06/11/2015	19:05:01.664	$GPGGA,190502,2426.1852,N,08129.7914,W,1,10,1.5,21,M,,M,,*6C
06/11/2015	19:05:02.584	$GPGGA,190503,2426.1854,N,08129.7901,W,1,10,1.4,21,M,,M,,*6E
06/11/2015	19:05:03.677	$GPGGA,190504,2426.1857,N,08129.7889,W,1,11,1.4,21,M,,M,,*6A
06/11/2015	19:05:04.654	$GPGGA,190505,2426.1861,N,08129.7876,W,1,11,1.4,21,M,,M,,*6E
06/11/2015	19:05:05.574	$GPGGA,190506,2426.1865,N,08129.7862,W,1,11,1.4,21,M,,M,,*6C
06/11/2015	19:05:06.574	$GPGGA,190507,2426.1869,N,08129.7849,W,1,11,1.4,21,M,,M,,*68
06/11/2015	19:05:07.664	$GPGGA,190508,2426.1873,N,08129.7836,W,1,11,1.4,21,M,,M,,*64
06/11/2015	19:05:08.644	$GPGGA,190509,2426.1879,N,08129.7822,W,1,11,2.1,21,M,,M,,*6C
06/11/2015	19:05:09.593	$GPGGA,190510,2426.1883,N,08129.7808,W,1,11,1.4,21,M,,M,,*6F
06/11/2015	19:05:10.634	$GPGGA,190511,2426.1886,N,08129.7795,W,1,11,1.4,21,M,,M,,*60
06/11/2015	19:05:11.614	$GPGGA,190512,2426.1890,N,08129.7782,W,1,10,2.1,21,M,,M,,*65
06/11/2015	19:05:12.624	$GPGGA,190513,2426.1895,N,08129.7768,W,1,10,1.4,21,M,,M,,*63
06/11/2015	19:05:13.604	$GPGGA,190514,2426.1898,N,08129.7754,W,1,11,1.4,21,M,,M,,*67
06/11/2015	19:05:14.614	$GPGGA,190515,2426.1904,N,08129.7739,W,1,11,1.4,21,M,,M,,*69
06/11/2015	19:05:15.614	$GPGGA,190516,2426.1909,N,08129.7727,W,1,11,1.4,21,M,,M,,*68
06/11/2015	19:05:16.614	$GPGGA,190517,2426.1913,N,08129.7712,W,1,11,1.4,21,M,,M,,*64
06/11/2015	19:05:17.544	$GPGGA,190518,2426.1917,N,08129.7698,W,1,11,1.4,21,M,,M,,*6C
06/11/2015	19:05:18.615	$GPGGA,190519,2426.1923,N,08129.7685,W,1,11,1.4,21,M,,M,,*66
06/11/2015	19:05:19.624	$GPGGA,190520,2426.1928,N,08129.7671,W,1,11,1.4,21,M,,M,,*6C
06/11/2015	19:05:20.614	$GPGGA,190521,2426.1933,N,08129.7656,W,1,11,1.4,21,M,,M,,*62
06/11/2015	19:05:21.534	$GPGGA,190522,2426.1938,N,08129.7643,W,1,11,1.4,21,M,,M,,*6E
06/11/2015	19:05:22.594	$GPGGA,190523,2426.1944,N,08129.7630,W,1,11,1.4,21,M,,M,,*60
06/11/2015	19:05:23.544	$GPGGA,190524,2426.1949,N,08129.7616,W,1,10,1.5,21,M,,M,,*6E
06/11/2015	19:05:24.594	$GPGGA,190525,2426.1953,N,08129.7602,W,1,10,1.4,21,M,,M,,*60
06/11/2015	19:05:25.574	$GPGGA,190526,2426.1956,N,08129.7590,W,1,11,1.4,21,M,,M,,*6F
06/11/2015	19:05:26.533	$GPGGA,190527,2426.1963,N,08129.7577,W,1,11,1.4,21,M,,M,,*61
06/11/2015	19:05:27.603	$GPGGA,190528,2426.1967,N,08129.7563,W,1,10,1.4,20,M,,M,,*6F
06/11/2015	19:05:28.644	$GPGGA,190529,2426.1971,N,08129.7550,W,1,10,1.4,20,M,,M,,*69
06/11/2015	19:05:29.644	$GPGGA,190530,2426.1977,N,08129.7538,W,1,11,1.4,20,M,,M,,*68
06/11/2015	19:05:30.594	$GPGGA,190531,2426.1982,N,08129.7524,W,1,11,1.4,20,M,,M,,*6E
06/11/2015	19:05:31.634	$GPGGA,190532,2426.1987,N,08129.7511,W,1,11,1.4,20,M,,M,,*6E
06/11/2015	19:05:32.584	$GPGGA,190533,2426.1992,N,08129.7499,W,1,11,1.4,20,M,,M,,*6A
06/11/2015	19:05:33.514	$GPGGA,190534,2426.1996,N,08129.7485,W,1,11,1.4,20,M,,M,,*64
06/11/2015	19:05:34.604	$GPGGA,190535,2426.2000,N,08129.7472,W,1,11,1.4,20,M,,M,,*68
06/11/2015	19:05:35.584	$GPGGA,190536,2426.2006,N,08129.7459,W,1,11,1.4,20,M,,M,,*64
06/11/2015	19:05:36.624	$GPGGA,190537,2426.2010,N,08129.7447,W,1,11,1.4,20,M,,M,,*6D
06/11/2015	19:05:37.634	$GPGGA,190538,2426.2011,N,08129.7435,W,1,11,2.1,20,M,,M,,*60
06/11/2015	19:05:38.579	$GPGGA,190539,2426.2016,N,08129.7422,W,1,11,1.4,20,M,,M,,*66
06/11/2015	19:05:39.614	$GPGGA,190540,2426.2021,N,08129.7410,W,1,11,1.4,21,M,,M,,*6C
06/11/2015	19:05:40.565	$GPGGA,190541,2426.2024,N,08129.7398,W,1,11,1.4,21,M,,M,,*6F
06/11/2015	19:05:41.614	$GPGGA,190542,2426.2027,N,08129.7384,W,1,11,2.1,21,M,,M,,*64
06/11/2015	19:05:42.564	$GPGGA,190543,2426.2032,N,08129.7370,W,1,11,2.7,21,M,,M,,*6C
06/11/2015	19:05:43.634	$GPGGA,190544,2426.2038,N,08129.7356,W,1,9,2.7,21,M,,M,,*5C
06/11/2015	19:05:44.583	$GPGGA,190545,2426.2040,N,08129.7343,W,1,9,1.5,21,M,,M,,*57
06/11/2015	19:05:45.594	$GPGGA,190546,2426.2043,N,08129.7330,W,1,10,1.4,21,M,,M,,*6A
06/11/2015	19:05:46.584	$GPGGA,190547,2426.2047,N,08129.7319,W,1,10,1.4,21,M,,M,,*64
06/11/2015	19:05:47.624	$GPGGA,190548,2426.2050,N,08129.7307,W,1,11,1.4,21,M,,M,,*63
06/11/2015	19:05:48.584	$GPGGA,190549,2426.2052,N,08129.7294,W,1,11,1.4,22,M,,M,,*68
06/11/2015	19:05:49.604	$GPGGA,190550,2426.2054,N,08129.7282,W,1,11,1.4,22,M,,M,,*61
06/11/2015	19:05:50.604	$GPGGA,190551,2426.2060,N,08129.7269,W,1,11,2.1,22,M,,M,,*64
06/11/2015	19:05:51.594	$GPGGA,190552,2426.2061,N,08129.7256,W,1,10,1.4,22,M,,M,,*6D
06/11/2015	19:05:52.604	$GPGGA,190553,2426.2065,N,08129.7241,W,1,10,1.4,22,M,,M,,*6E
06/11/2015	19:05:53.594	$GPGGA,190554,2426.2070,N,08129.7226,W,1,11,1.5,22,M,,M,,*6C
06/11/2015	19:05:54.577	$GPGGA,190555,2426.2075,N,08129.7211,W,1,11,1.4,22,M,,M,,*6D
06/11/2015	19:05:55.594	$GPGGA,190556,2426.2078,N,08129.7196,W,1,11,1.4,23,M,,M,,*6E
06/11/2015	19:05:56.575	$GPGGA,190557,2426.2081,N,08129.7181,W,1,11,1.4,23,M,,M,,*6F
06/11/2015	19:05:57.604	$GPGGA,190558,2426.2085,N,08129.7168,W,1,11,1.4,23,M,,M,,*63
06/11/2015	19:05:58.584	$GPGGA,190559,2426.2089,N,08129.7154,W,1,11,1.4,23,M,,M,,*61
06/11/2015	19:05:59.614	$GPGGA,190600,2426.2092,N,08129.7139,W,1,11,1.4,23,M,,M,,*6F
06/11/2015	19:06:03.344	$GPGGA,190603,2426.2103,N,08129.7097,W,1,10,1.4,23,M,,M,,*61
06/11/2015	19:06:03.604	$GPGGA,190604,2426.2105,N,08129.7083,W,1,11,1.4,23,M,,M,,*64
06/11/2015	19:06:04.565	$GPGGA,190605,2426.2108,N,08129.7070,W,1,11,1.4,23,M,,M,,*64
06/11/2015	19:06:05.554	$GPGGA,190606,2426.2112,N,08129.7056,W,1,11,1.4,23,M,,M,,*68
06/11/2015	19:06:06.572	$GPGGA,190607,2426.2115,N,08129.7043,W,1,11,1.4,23,M,,M,,*6A
06/11/2015	19:06:07.604	$GPGGA,190608,2426.2119,N,08129.7028,W,1,11,1.4,23,M,,M,,*64
06/11/2015	19:06:08.564	$GPGGA,190609,2426.2122,N,08129.7015,W,1,11,1.4,23,M,,M,,*63
06/11/2015	19:06:09.554	$GPGGA,190610,2426.2125,N,08129.7001,W,1,11,1.4,23,M,,M,,*69
06/11/2015	19:06:10.565	$GPGGA,190611,2426.2129,N,08129.6987,W,1,11,1.4,22,M,,M,,*63
06/11/2015	19:06:11.554	$GPGGA,190612,2426.2132,N,08129.6973,W,1,11,1.4,22,M,,M,,*61
06/11/2015	19:06:12.524	$GPGGA,190613,2426.2132,N,08129.6973,W,1,11,1.4,22,M,,M,,*60
06/11/2015	19:06:13.544	$GPGGA,190614,2426.2139,N,08129.6945,W,1,11,1.4,22,M,,M,,*69
06/11/2015	19:06:14.544	$GPGGA,190615,2426.2139,N,08129.6945,W,1,11,1.4,22,M,,M,,*68
06/11/2015	19:06:15.578	$GPGGA,190616,2426.2144,N,08129.6918,W,1,10,2.1,22,M,,M,,*6E
06/11/2015	19:06:16.544	$GPGGA,190617,2426.2144,N,08129.6918,W,1,10,2.1,22,M,,M,,*6F
06/11/2015	19:06:17.514	$GPGGA,190618,2426.2152,N,08129.6892,W,1,9,2.7,22,M,,M,,*5A
06/11/2015	19:06:18.554	$GPGGA,190619,2426.2152,N,08129.6892,W,1,9,1.4,22,M,,M,,*5B
06/11/2015	19:06:19.575	$GPGGA,190620,2426.2159,N,08129.6865,W,1,10,2.7,22,M,,M,,*6A
06/11/2015	19:06:20.614	$GPGGA,190621,2426.2162,N,08129.6854,W,1,10,2.7,22,M,,M,,*61
06/11/2015	19:06:21.524	$GPGGA,190622,2426.2166,N,08129.6838,W,1,10,2.1,22,M,,M,,*6A
06/11/2015	19:06:22.554	$GPGGA,190623,2426.2166,N,08129.6838,W,1,10,2.7,22,M,,M,,*6D
06/11/2015	19:06:23.654	$GPGGA,190624,2426.2177,N,08129.6812,W,1,11,1.4,22,M,,M,,*63
06/11/2015	19:06:24.614	$GPGGA,190625,2426.2179,N,08129.6799,W,1,11,1.4,22,M,,M,,*60
06/11/2015	19:06:25.594	$GPGGA,190626,2426.2183,N,08129.6786,W,1,11,1.4,22,M,,M,,*68
06/11/2015	19:06:26.524	$GPGGA,190627,2426.2183,N,08129.6786,W,1,11,1.4,22,M,,M,,*69
06/11/2015	19:06:27.624	$GPGGA,190628,2426.2191,N,08129.6760,W,1,10,1.4,22,M,,M,,*6C
06/11/2015	19:06:28.594	$GPGGA,190629,2426.2195,N,08129.6747,W,1,10,1.4,22,M,,M,,*6C
06/11/2015	19:06:29.624	$GPGGA,190630,2426.2198,N,08129.6736,W,1,10,1.4,22,M,,M,,*6F
06/11/2015	19:06:30.584	$GPGGA,190631,2426.2204,N,08129.6722,W,1,10,1.4,22,M,,M,,*6D
06/11/2015	19:06:31.624	$GPGGA,190632,2426.2206,N,08129.6711,W,1,10,1.4,21,M,,M,,*6F
06/11/2015	19:06:32.584	$GPGGA,190633,2426.2209,N,08129.6699,W,1,10,2.1,21,M,,M,,*66
06/11/2015	19:06:33.584	$GPGGA,190634,2426.2213,N,08129.6687,W,1,11,1.4,22,M,,M,,*61
06/11/2015	19:06:34.594	$GPGGA,190635,2426.2217,N,08129.6672,W,1,11,1.4,22,M,,M,,*6E
06/11/2015	19:06:35.614	$GPGGA,190636,2426.2224,N,08129.6658,W,1,10,1.4,22,M,,M,,*64
06/11/2015	19:06:36.583	$GPGGA,190637,2426.2229,N,08129.6645,W,1,10,1.4,22,M,,M,,*64
06/11/2015	19:06:37.593	$GPGGA,190638,2426.2234,N,08129.6631,W,1,10,1.4,21,M,,M,,*67
06/11/2015	19:06:38.564	$GPGGA,190639,2426.2238,N,08129.6619,W,1,10,1.5,21,M,,M,,*61
06/11/2015	19:06:39.604	$GPGGA,190640,2426.2242,N,08129.6606,W,1,11,1.4,21,M,,M,,*6C
06/11/2015	19:06:40.572	$GPGGA,190641,2426.2248,N,08129.6592,W,1,11,1.4,21,M,,M,,*69
06/11/2015	19:06:41.584	$GPGGA,190642,2426.2253,N,08129.6579,W,1,11,1.4,21,M,,M,,*65
06/11/2015	19:06:42.568	$GPGGA,190643,2426.2256,N,08129.6566,W,1,11,1.4,21,M,,M,,*6F
06/11/2015	19:06:43.594	$GPGGA,190644,2426.2263,N,08129.6553,W,1,11,1.4,21,M,,M,,*68
06/11/2015	19:06:44.564	$GPGGA,190645,2426.2267,N,08129.6540,W,1,11,1.4,21,M,,M,,*6F
06/11/2015	19:06:45.584	$GPGGA,190646,2426.2273,N,08129.6527,W,1,11,1.4,21,M,,M,,*68
06/11/2015	19:06:46.572	$GPGGA,190647,2426.2277,N,08129.6514,W,1,11,1.4,21,M,,M,,*6D
06/11/2015	19:06:47.584	$GPGGA,190648,2426.2282,N,08129.6500,W,1,10,2.0,22,M,,M,,*68
06/11/2015	19:06:48.554	$GPGGA,190649,2426.2289,N,08129.6487,W,1,10,1.4,22,M,,M,,*6B
06/11/2015	19:06:49.554	$GPGGA,190650,2426.2292,N,08129.6474,W,1,11,1.4,22,M,,M,,*64
06/11/2015	19:06:50.554	$GPGGA,190651,2426.2296,N,08129.6460,W,1,11,1.4,22,M,,M,,*64
06/11/2015	19:06:51.574	$GPGGA,190652,2426.2303,N,08129.6446,W,1,11,1.4,22,M,,M,,*6E
06/11/2015	19:06:52.564	$GPGGA,190653,2426.2309,N,08129.6434,W,1,11,1.4,22,M,,M,,*60
06/11/2015	19:06:53.534	$GPGGA,190654,2426.2314,N,08129.6419,W,1,11,1.4,22,M,,M,,*64
06/11/2015	19:06:54.533	$GPGGA,190655,2426.2318,N,08129.6404,W,1,11,1.4,22,M,,M,,*65
06/11/2015	19:06:55.554	$GPGGA,190656,2426.2325,N,08129.6392,W,1,11,1.4,22,M,,M,,*60
06/11/2015	19:06:56.544	$GPGGA,190657,2426.2328,N,08129.6379,W,1,11,1.4,22,M,,M,,*69
06/11/2015	19:06:57.524	$GPGGA,190658,2426.2332,N,08129.6364,W,1,11,1.4,22,M,,M,,*61
06/11/2015	19:06:58.545	$GPGGA,190659,2426.2336,N,08129.6353,W,1,11,1.4,22,M,,M,,*60
06/11/2015	19:06:59.579	$GPGGA,190700,2426.2341,N,08129.6341,W,1,11,1.4,22,M,,M,,*6E
06/11/2015	19:07:00.644	$GPGGA,190701,2426.2345,N,08129.6326,W,1,11,1.4,22,M,,M,,*6A
06/11/2015	19:07:01.644	$GPGGA,190702,2426.2350,N,08129.6315,W,1,10,1.4,22,M,,M,,*6C
06/11/2015	19:07:02.644	$GPGGA,190703,2426.2356,N,08129.6302,W,1,10,1.4,22,M,,M,,*6D
06/11/2015	19:07:03.544	$GPGGA,190704,2426.2360,N,08129.6288,W,1,10,1.4,22,M,,M,,*6C
06/11/2015	19:07:04.534	$GPGGA,190705,2426.2361,N,08129.6275,W,1,10,1.4,22,M,,M,,*6E
06/11/2015	19:07:05.514	$GPGGA,190706,2426.2367,N,08129.6263,W,1,10,2.0,22,M,,M,,*6B
06/11/2015	19:07:06.534	$GPGGA,190707,2426.2371,N,08129.6252,W,1,10,2.0,22,M,,M,,*6F
06/11/2015	19:07:07.614	$GPGGA,190708,2426.2372,N,08129.6240,W,1,11,1.4,22,M,,M,,*66
06/11/2015	19:07:08.524	$GPGGA,190709,2426.2375,N,08129.6228,W,1,11,1.4,22,M,,M,,*6E
06/11/2015	19:07:09.604	$GPGGA,190710,2426.2378,N,08129.6216,W,1,11,1.4,22,M,,M,,*66
06/11/2015	19:07:10.604	$GPGGA,190711,2426.2385,N,08129.6201,W,1,11,2.0,22,M,,M,,*64
06/11/2015	19:07:11.643	$GPGGA,190712,2426.2386,N,08129.6190,W,1,11,1.4,22,M,,M,,*68
06/11/2015	19:07:12.513	$GPGGA,190713,2426.2390,N,08129.6176,W,1,11,2.0,22,M,,M,,*61
06/11/2015	19:07:13.624	$GPGGA,190714,2426.2393,N,08129.6164,W,1,11,1.4,22,M,,M,,*61
06/11/2015	19:07:14.604	$GPGGA,190715,2426.2397,N,08129.6151,W,1,11,1.4,22,M,,M,,*62
06/11/2015	19:07:15.614	$GPGGA,190716,2426.2401,N,08129.6136,W,1,11,1.4,22,M,,M,,*68
06/11/2015	19:07:16.584	$GPGGA,190717,2426.2404,N,08129.6123,W,1,11,1.4,22,M,,M,,*68
06/11/2015	19:07:17.614	$GPGGA,190718,2426.2407,N,08129.6110,W,1,11,1.4,22,M,,M,,*64
06/11/2015	19:07:18.584	$GPGGA,190719,2426.2411,N,08129.6096,W,1,11,1.4,22,M,,M,,*6D
06/11/2015	19:07:19.604	$GPGGA,190720,2426.2415,N,08129.6083,W,1,11,1.4,22,M,,M,,*67
06/11/2015	19:07:20.584	$GPGGA,190721,2426.2418,N,08129.6070,W,1,11,1.4,22,M,,M,,*67
06/11/2015	19:07:21.594	$GPGGA,190722,2426.2422,N,08129.6055,W,1,11,1.4,22,M,,M,,*6A
06/11/2015	19:07:22.576	$GPGGA,190723,2426.2426,N,08129.6042,W,1,11,1.4,22,M,,M,,*69
06/11/2015	19:07:23.604	$GPGGA,190724,2426.2429,N,08129.6030,W,1,10,1.4,22,M,,M,,*65
06/11/2015	19:07:24.584	$GPGGA,190725,2426.2432,N,08129.6017,W,1,10,1.4,22,M,,M,,*6B
06/11/2015	19:07:25.578	$GPGGA,190726,2426.2433,N,08129.6004,W,1,11,1.4,22,M,,M,,*6A
06/11/2015	19:07:26.574	$GPGGA,190727,2426.2437,N,08129.5992,W,1,11,1.4,22,M,,M,,*6A
06/11/2015	19:07:27.574	$GPGGA,190728,2426.2440,N,08129.5980,W,1,11,1.4,22,M,,M,,*66
06/11/2015	19:07:28.567	$GPGGA,190729,2426.2443,N,08129.5966,W,1,11,1.4,22,M,,M,,*6C
06/11/2015	19:07:29.565	$GPGGA,190730,2426.2447,N,08129.5952,W,1,11,1.4,22,M,,M,,*67
06/11/2015	19:07:30.574	$GPGGA,190731,2426.2451,N,08129.5940,W,1,11,1.4,22,M,,M,,*62
06/11/2015	19:07:31.594	$GPGGA,190732,2426.2455,N,08129.5926,W,1,11,1.4,22,M,,M,,*65
06/11/2015	19:07:32.544	$GPGGA,190733,2426.2458,N,08129.5912,W,1,11,2.0,22,M,,M,,*69
06/11/2015	19:07:33.544	$GPGGA,190734,2426.2462,N,08129.5901,W,1,11,1.4,22,M,,M,,*62
06/11/2015	19:07:34.554	$GPGGA,190735,2426.2466,N,08129.5889,W,1,11,2.0,22,M,,M,,*61
06/11/2015	19:07:35.554	$GPGGA,190736,2426.2468,N,08129.5878,W,1,10,2.0,22,M,,M,,*63
06/11/2015	19:07:36.554	$GPGGA,190737,2426.2469,N,08129.5866,W,1,10,1.4,22,M,,M,,*6B
06/11/2015	19:07:37.544	$GPGGA,190738,2426.2473,N,08129.5853,W,1,11,1.4,22,M,,M,,*68
06/11/2015	19:07:38.544	$GPGGA,190739,2426.2477,N,08129.5840,W,1,11,2.0,22,M,,M,,*68
06/11/2015	19:07:39.554	$GPGGA,190740,2426.2482,N,08129.5828,W,1,10,2.0,22,M,,M,,*63
06/11/2015	19:07:40.534	$GPGGA,190741,2426.2484,N,08129.5815,W,1,10,2.0,22,M,,M,,*6A
06/11/2015	19:07:41.534	$GPGGA,190742,2426.2487,N,08129.5802,W,1,10,2.0,22,M,,M,,*6C
06/11/2015	19:07:42.534	$GPGGA,190743,2426.2491,N,08129.5788,W,1,10,2.0,22,M,,M,,*67
06/11/2015	19:07:43.564	$GPGGA,190744,2426.2494,N,08129.5776,W,1,9,2.7,22,M,,M,,*5B
06/11/2015	19:07:44.644	$GPGGA,190745,2426.2498,N,08129.5763,W,1,9,2.0,22,M,,M,,*55
06/11/2015	19:07:45.524	$GPGGA,190746,2426.2501,N,08129.5750,W,1,10,2.0,22,M,,M,,*6F
06/11/2015	19:07:46.643	$GPGGA,190747,2426.2504,N,08129.5737,W,1,10,2.0,22,M,,M,,*6A
06/11/2015	19:07:47.653	$GPGGA,190748,2426.2506,N,08129.5725,W,1,10,2.0,22,M,,M,,*64
06/11/2015	19:07:48.544	$GPGGA,190749,2426.2512,N,08129.5712,W,1,10,1.4,22,M,,M,,*63
06/11/2015	19:07:49.534	$GPGGA,190750,2426.2513,N,08129.5699,W,1,10,1.4,22,M,,M,,*68
06/11/2015	19:07:50.534	$GPGGA,190751,2426.2516,N,08129.5685,W,1,10,1.4,22,M,,M,,*61
06/11/2015	19:07:51.624	$GPGGA,190752,2426.2520,N,08129.5671,W,1,11,1.4,22,M,,M,,*6D
06/11/2015	19:07:52.634	$GPGGA,190753,2426.2527,N,08129.5656,W,1,11,1.4,22,M,,M,,*6E
06/11/2015	19:07:53.604	$GPGGA,190754,2426.2531,N,08129.5641,W,1,10,1.4,22,M,,M,,*69
06/11/2015	19:07:54.624	$GPGGA,190755,2426.2534,N,08129.5629,W,1,10,1.4,22,M,,M,,*63
06/11/2015	19:07:55.644	$GPGGA,190756,2426.2538,N,08129.5614,W,1,10,2.0,22,M,,M,,*65
06/11/2015	19:07:56.604	$GPGGA,190757,2426.2542,N,08129.5601,W,1,10,1.4,22,M,,M,,*6A
06/11/2015	19:07:57.604	$GPGGA,190758,2426.2545,N,08129.5588,W,1,11,1.4,22,M,,M,,*61
06/11/2015	19:07:58.594	$GPGGA,190759,2426.2549,N,08129.5574,W,1,11,1.4,22,M,,M,,*6F
06/11/2015	19:07:59.614	$GPGGA,190800,2426.2555,N,08129.5560,W,1,11,1.4,22,M,,M,,*64
06/11/2015	19:08:00.584	$GPGGA,190801,2426.2558,N,08129.5547,W,1,11,1.4,22,M,,M,,*6D
06/11/2015	19:08:01.604	$GPGGA,190802,2426.2562,N,08129.5534,W,1,11,1.4,22,M,,M,,*63
06/11/2015	19:08:02.869	$GPGGA,190803,2426.2567,N,08129.5520,W,1,11,1.4,22,M,,M,,*62
06/11/2015	19:08:03.614	$GPGGA,190804,2426.2570,N,08129.5506,W,1,11,1.4,22,M,,M,,*67
06/11/2015	19:08:04.573	$GPGGA,190805,2426.2576,N,08129.5494,W,1,11,1.4,21,M,,M,,*69
06/11/2015	19:08:05.593	$GPGGA,190806,2426.2581,N,08129.5479,W,1,11,1.4,21,M,,M,,*61
06/11/2015	19:08:06.573	$GPGGA,190807,2426.2585,N,08129.5465,W,1,11,1.4,21,M,,M,,*69
06/11/2015	19:08:07.593	$GPGGA,190808,2426.2589,N,08129.5453,W,1,10,1.4,21,M,,M,,*6E
06/11/2015	19:08:08.564	$GPGGA,190809,2426.2592,N,08129.5440,W,1,10,1.4,21,M,,M,,*67
06/11/2015	19:08:09.563	$GPGGA,190810,2426.2596,N,08129.5426,W,1,11,1.4,21,M,,M,,*6A
06/11/2015	19:08:10.563	$GPGGA,190811,2426.2599,N,08129.5414,W,1,11,1.4,21,M,,M,,*65
06/11/2015	19:08:11.593	$GPGGA,190812,2426.2605,N,08129.5400,W,1,11,1.4,21,M,,M,,*65
06/11/2015	19:08:12.566	$GPGGA,190813,2426.2610,N,08129.5386,W,1,11,1.4,21,M,,M,,*69
06/11/2015	19:08:13.583	$GPGGA,190814,2426.2614,N,08129.5373,W,1,11,1.4,21,M,,M,,*60
06/11/2015	19:08:14.553	$GPGGA,190815,2426.2620,N,08129.5360,W,1,11,1.4,21,M,,M,,*64
06/11/2015	19:08:15.594	$GPGGA,190816,2426.2624,N,08129.5346,W,1,11,1.4,21,M,,M,,*67
06/11/2015	19:08:16.544	$GPGGA,190817,2426.2627,N,08129.5333,W,1,11,1.5,21,M,,M,,*66
06/11/2015	19:08:17.554	$GPGGA,190818,2426.2632,N,08129.5319,W,1,11,1.4,21,M,,M,,*64
06/11/2015	19:08:18.556	$GPGGA,190819,2426.2638,N,08129.5306,W,1,11,1.4,21,M,,M,,*61
06/11/2015	19:08:19.574	$GPGGA,190820,2426.2642,N,08129.5292,W,1,11,1.4,21,M,,M,,*6A
06/11/2015	19:08:20.556	$GPGGA,190821,2426.2646,N,08129.5279,W,1,11,1.4,21,M,,M,,*6A
06/11/2015	19:08:21.557	$GPGGA,190822,2426.2652,N,08129.5266,W,1,10,1.4,21,M,,M,,*63
06/11/2015	19:08:22.533	$GPGGA,190823,2426.2656,N,08129.5253,W,1,10,1.4,21,M,,M,,*60
06/11/2015	19:08:23.573	$GPGGA,190824,2426.2660,N,08129.5239,W,1,11,1.4,20,M,,M,,*6E
06/11/2015	19:08:24.553	$GPGGA,190825,2426.2664,N,08129.5228,W,1,11,1.4,20,M,,M,,*6B
06/11/2015	19:08:25.533	$GPGGA,190826,2426.2668,N,08129.5214,W,1,11,1.4,20,M,,M,,*6B
06/11/2015	19:08:26.534	$GPGGA,190827,2426.2674,N,08129.5200,W,1,11,1.4,20,M,,M,,*62
06/11/2015	19:08:27.543	$GPGGA,190828,2426.2678,N,08129.5189,W,1,10,1.4,20,M,,M,,*62
06/11/2015	19:08:28.523	$GPGGA,190829,2426.2682,N,08129.5176,W,1,10,1.4,20,M,,M,,*66
06/11/2015	19:08:29.523	$GPGGA,190830,2426.2686,N,08129.5162,W,1,11,1.4,20,M,,M,,*6E
06/11/2015	19:08:30.514	$GPGGA,190831,2426.2692,N,08129.5149,W,1,11,1.4,20,M,,M,,*63
06/11/2015	19:08:31.643	$GPGGA,190832,2426.2696,N,08129.5136,W,1,10,1.4,20,M,,M,,*6D
06/11/2015	19:08:32.533	$GPGGA,190833,2426.2701,N,08129.5124,W,1,10,1.4,20,M,,M,,*60
06/11/2015	19:08:33.634	$GPGGA,190834,2426.2706,N,08129.5111,W,1,11,1.4,20,M,,M,,*67
06/11/2015	19:08:34.514	$GPGGA,190835,2426.2708,N,08129.5098,W,1,11,1.4,20,M,,M,,*68
06/11/2015	19:08:35.544	$GPGGA,190836,2426.2711,N,08129.5086,W,1,11,1.4,20,M,,M,,*6C
06/11/2015	19:08:36.514	$GPGGA,190837,2426.2715,N,08129.5077,W,1,11,2.0,20,M,,M,,*60
06/11/2015	19:08:37.614	$GPGGA,190838,2426.2718,N,08129.5066,W,1,10,1.4,20,M,,M,,*64
06/11/2015	19:08:38.504	$GPGGA,190839,2426.2719,N,08129.5053,W,1,10,1.4,20,M,,M,,*62
06/11/2015	19:08:39.533	$GPGGA,190840,2426.2725,N,08129.5039,W,1,10,2.0,20,M,,M,,*68
06/11/2015	19:08:40.493	$GPGGA,190841,2426.2729,N,08129.5026,W,1,10,2.0,21,M,,M,,*6A
06/11/2015	19:08:41.623	$GPGGA,190842,2426.2736,N,08129.5011,W,1,11,1.4,21,M,,M,,*65
06/11/2015	19:08:42.503	$GPGGA,190843,2426.2734,N,08129.4999,W,1,11,1.4,21,M,,M,,*6E
06/11/2015	19:08:43.603	$GPGGA,190844,2426.2739,N,08129.4988,W,1,10,2.0,21,M,,M,,*62
06/11/2015	19:08:44.593	$GPGGA,190845,2426.2744,N,08129.4974,W,1,10,2.0,21,M,,M,,*6A
06/11/2015	19:08:45.583	$GPGGA,190846,2426.2747,N,08129.4960,W,1,11,1.4,21,M,,M,,*69
06/11/2015	19:08:46.583	$GPGGA,190847,2426.2751,N,08129.4947,W,1,11,1.4,21,M,,M,,*6A
06/11/2015	19:08:47.633	$GPGGA,190848,2426.2755,N,08129.4933,W,1,10,2.0,21,M,,M,,*64
06/11/2015	19:08:48.573	$GPGGA,190849,2426.2760,N,08129.4918,W,1,10,2.0,22,M,,M,,*69
06/11/2015	19:08:49.613	$GPGGA,190850,2426.2764,N,08129.4904,W,1,10,2.0,22,M,,M,,*68
06/11/2015	19:08:50.574	$GPGGA,190851,2426.2769,N,08129.4890,W,1,10,2.0,22,M,,M,,*68
06/11/2015	19:08:51.634	$GPGGA,190852,2426.2773,N,08129.4876,W,1,10,2.0,22,M,,M,,*68
06/11/2015	19:08:52.564	$GPGGA,190853,2426.2775,N,08129.4864,W,1,10,2.0,22,M,,M,,*6C
06/11/2015	19:08:53.584	$GPGGA,190854,2426.2779,N,08129.4851,W,1,10,2.0,22,M,,M,,*61
06/11/2015	19:08:54.568	$GPGGA,190855,2426.2783,N,08129.4837,W,1,10,2.0,22,M,,M,,*65
06/11/2015	19:08:55.594	$GPGGA,190856,2426.2786,N,08129.4824,W,1,10,2.0,22,M,,M,,*61
06/11/2015	19:08:56.574	$GPGGA,190857,2426.2791,N,08129.4809,W,1,10,2.0,22,M,,M,,*69
06/11/2015	19:08:57.558	$GPGGA,190858,2426.2794,N,08129.4794,W,1,11,1.4,22,M,,M,,*6E
06/11/2015	19:08:58.569	$GPGGA,190859,2426.2800,N,08129.4779,W,1,11,1.4,22,M,,M,,*6E
06/11/2015	19:08:59.593	$GPGGA,190900,2426.2804,N,08129.4765,W,1,11,1.4,22,M,,M,,*6A
06/11/2015	19:09:00.555	$GPGGA,190901,2426.2807,N,08129.4752,W,1,11,1.4,22,M,,M,,*6C
06/11/2015	19:09:01.568	$GPGGA,190902,2426.2809,N,08129.4738,W,1,10,2.0,21,M,,M,,*68
06/11/2015	19:09:02.559	$GPGGA,190903,2426.2813,N,08129.4724,W,1,10,2.0,21,M,,M,,*6F
06/11/2015	19:09:04.068	$GPGGA,190904,2426.2816,N,08129.4712,W,1,10,2.0,21,M,,M,,*68
06/11/2015	19:09:04.555	$GPGGA,190905,2426.2820,N,08129.4697,W,1,10,1.4,21,M,,M,,*67
06/11/2015	19:09:05.533	$GPGGA,190906,2426.2823,N,08129.4683,W,1,11,1.4,21,M,,M,,*63
06/11/2015	19:09:06.555	$GPGGA,190907,2426.2830,N,08129.4668,W,1,11,2.0,21,M,,M,,*62
06/11/2015	19:09:07.583	$GPGGA,190908,2426.2833,N,08129.4655,W,1,11,1.4,21,M,,M,,*67
06/11/2015	19:09:08.544	$GPGGA,190909,2426.2834,N,08129.4645,W,1,11,2.0,21,M,,M,,*67
06/11/2015	19:09:09.534	$GPGGA,190910,2426.2838,N,08129.4631,W,1,11,1.4,21,M,,M,,*67
06/11/2015	19:09:10.544	$GPGGA,190911,2426.2841,N,08129.4617,W,1,11,2.0,21,M,,M,,*6B
06/11/2015	19:09:11.567	$GPGGA,190912,2426.2845,N,08129.4602,W,1,11,1.4,21,M,,M,,*6F
06/11/2015	19:09:12.534	$GPGGA,190913,2426.2849,N,08129.4588,W,1,11,2.0,22,M,,M,,*67
06/11/2015	19:09:13.544	$GPGGA,190914,2426.2855,N,08129.4573,W,1,10,2.0,22,M,,M,,*68
06/11/2015	19:09:14.513	$GPGGA,190915,2426.2858,N,08129.4558,W,1,10,2.0,22,M,,M,,*6D
06/11/2015	19:09:15.533	$GPGGA,190916,2426.2862,N,08129.4544,W,1,10,2.0,22,M,,M,,*6A
06/11/2015	19:09:16.513	$GPGGA,190917,2426.2867,N,08129.4529,W,1,10,2.0,22,M,,M,,*65
06/11/2015	19:09:17.533	$GPGGA,190918,2426.2873,N,08129.4512,W,1,10,2.0,22,M,,M,,*67
06/11/2015	19:09:18.613	$GPGGA,190919,2426.2877,N,08129.4497,W,1,10,1.4,21,M,,M,,*6A
06/11/2015	19:09:19.543	$GPGGA,190920,2426.2883,N,08129.4484,W,1,11,1.4,21,M,,M,,*68
06/11/2015	19:09:20.523	$GPGGA,190921,2426.2888,N,08129.4470,W,1,11,2.0,21,M,,M,,*6E
06/11/2015	19:09:21.523	$GPGGA,190922,2426.2891,N,08129.4456,W,1,11,1.4,21,M,,M,,*66
06/11/2015	19:09:22.523	$GPGGA,190923,2426.2894,N,08129.4443,W,1,11,1.4,21,M,,M,,*66
06/11/2015	19:09:23.623	$GPGGA,190924,2426.2901,N,08129.4429,W,1,10,1.4,21,M,,M,,*61
06/11/2015	19:09:24.513	$GPGGA,190925,2426.2906,N,08129.4415,W,1,10,1.4,21,M,,M,,*68
06/11/2015	19:09:25.503	$GPGGA,190926,2426.2906,N,08129.4402,W,1,10,1.4,21,M,,M,,*6D
06/11/2015	19:09:26.604	$GPGGA,190927,2426.2912,N,08129.4388,W,1,10,1.4,21,M,,M,,*6C
06/11/2015	19:09:27.514	$GPGGA,190928,2426.2916,N,08129.4376,W,1,11,1.4,21,M,,M,,*67
06/11/2015	19:09:28.584	$GPGGA,190929,2426.2920,N,08129.4362,W,1,11,1.4,21,M,,M,,*66
06/11/2015	19:09:29.624	$GPGGA,190930,2426.2924,N,08129.4348,W,1,11,1.4,21,M,,M,,*62
06/11/2015	19:09:32.114	$GPGGA,190932,2426.2934,N,08129.4321,W,1,11,1.4,21,M,,M,,*6E
06/11/2015	19:09:32.593	$GPGGA,190933,2426.2939,N,08129.4307,W,1,11,1.4,21,M,,M,,*66
06/11/2015	19:09:33.593	$GPGGA,190934,2426.2943,N,08129.4293,W,1,11,1.4,21,M,,M,,*60
06/11/2015	19:09:34.573	$GPGGA,190935,2426.2946,N,08129.4280,W,1,11,1.4,21,M,,M,,*66
06/11/2015	19:09:35.623	$GPGGA,190936,2426.2952,N,08129.4266,W,1,11,1.4,21,M,,M,,*68
06/11/2015	19:09:36.583	$GPGGA,190937,2426.2957,N,08129.4252,W,1,11,1.4,20,M,,M,,*6A
06/11/2015	19:09:37.583	$GPGGA,190938,2426.2961,N,08129.4239,W,1,11,1.4,20,M,,M,,*6D
06/11/2015	19:09:38.573	$GPGGA,190939,2426.2966,N,08129.4225,W,1,11,1.4,20,M,,M,,*66
06/11/2015	19:09:39.613	$GPGGA,190940,2426.2970,N,08129.4212,W,1,11,1.4,20,M,,M,,*6B
06/11/2015	19:09:40.566	$GPGGA,190941,2426.2975,N,08129.4198,W,1,11,1.4,20,M,,M,,*6E
06/11/2015	19:09:41.583	$GPGGA,190942,2426.2979,N,08129.4184,W,1,11,1.4,20,M,,M,,*6C
06/11/2015	19:09:42.871	$GPGGA,190943,2426.2982,N,08129.4171,W,1,11,1.4,20,M,,M,,*63
06/11/2015	19:09:43.624	$GPGGA,190944,2426.2988,N,08129.4158,W,1,10,1.4,20,M,,M,,*64
06/11/2015	19:09:44.570	$GPGGA,190945,2426.2992,N,08129.4145,W,1,10,1.4,20,M,,M,,*62
06/11/2015	19:09:45.584	$GPGGA,190946,2426.2997,N,08129.4132,W,1,11,1.4,20,M,,M,,*65
06/11/2015	19:09:46.557	$GPGGA,190947,2426.3000,N,08129.4119,W,1,11,1.4,20,M,,M,,*6B
06/11/2015	19:09:47.624	$GPGGA,190948,2426.3004,N,08129.4106,W,1,11,1.4,20,M,,M,,*6E
06/11/2015	19:09:48.566	$GPGGA,190949,2426.3008,N,08129.4094,W,1,11,1.4,20,M,,M,,*69
06/11/2015	19:09:49.558	$GPGGA,190950,2426.3011,N,08129.4081,W,1,11,1.4,20,M,,M,,*6D
06/11/2015	19:09:50.554	$GPGGA,190951,2426.3015,N,08129.4068,W,1,11,1.4,20,M,,M,,*6F
06/11/2015	19:09:51.567	$GPGGA,190952,2426.3018,N,08129.4056,W,1,11,1.4,20,M,,M,,*6C
06/11/2015	19:09:52.553	$GPGGA,190953,2426.3024,N,08129.4044,W,1,11,1.4,20,M,,M,,*61
06/11/2015	19:09:53.533	$GPGGA,190954,2426.3029,N,08129.4030,W,1,11,1.4,20,M,,M,,*68
06/11/2015	19:09:54.543	$GPGGA,190955,2426.3033,N,08129.4016,W,1,11,1.4,21,M,,M,,*67
06/11/2015	19:09:55.543	$GPGGA,190956,2426.3037,N,08129.4004,W,1,11,1.4,21,M,,M,,*63
06/11/2015	19:09:56.543	$GPGGA,190957,2426.3044,N,08129.3990,W,1,11,1.4,21,M,,M,,*65
06/11/2015	19:09:57.523	$GPGGA,190958,2426.3049,N,08129.3977,W,1,10,1.4,21,M,,M,,*6F
06/11/2015	19:09:58.543	$GPGGA,190959,2426.3051,N,08129.3963,W,1,10,1.4,21,M,,M,,*62
06/11/2015	19:09:59.583	$GPGGA,191000,2426.3057,N,08129.3952,W,1,11,1.4,21,M,,M,,*63
06/11/2015	19:10:00.534	$GPGGA,191001,2426.3062,N,08129.3939,W,1,11,1.4,21,M,,M,,*69
06/11/2015	19:10:01.544	$GPGGA,191002,2426.3065,N,08129.3926,W,1,11,2.0,21,M,,M,,*64
06/11/2015	19:10:02.614	$GPGGA,191003,2426.3071,N,08129.3913,W,1,11,2.0,21,M,,M,,*66
06/11/2015	19:10:03.556	$GPGGA,191004,2426.3076,N,08129.3901,W,1,11,1.4,21,M,,M,,*62
06/11/2015	19:10:04.514	$GPGGA,191005,2426.3082,N,08129.3887,W,1,11,1.4,21,M,,M,,*67
06/11/2015	19:10:05.534	$GPGGA,191006,2426.3084,N,08129.3875,W,1,11,1.4,21,M,,M,,*6F
06/11/2015	19:10:06.523	$GPGGA,191007,2426.3089,N,08129.3863,W,1,11,1.4,21,M,,M,,*64
06/11/2015	19:10:07.543	$GPGGA,191008,2426.3094,N,08129.3850,W,1,11,1.4,21,M,,M,,*67
06/11/2015	19:10:08.603	$GPGGA,191009,2426.3098,N,08129.3838,W,1,11,1.4,21,M,,M,,*64
06/11/2015	19:10:09.534	$GPGGA,191010,2426.3102,N,08129.3826,W,1,11,1.4,21,M,,M,,*61
06/11/2015	19:10:10.513	$GPGGA,191011,2426.3105,N,08129.3814,W,1,11,2.0,21,M,,M,,*61
06/11/2015	19:10:11.613	$GPGGA,191012,2426.3111,N,08129.3802,W,1,10,1.4,21,M,,M,,*66
06/11/2015	19:10:12.513	$GPGGA,191013,2426.3115,N,08129.3789,W,1,10,1.4,21,M,,M,,*6F
06/11/2015	19:10:13.970	$GPGGA,191014,2426.3119,N,08129.3776,W,1,11,1.4,21,M,,M,,*65
06/11/2015	19:10:14.583	$GPGGA,191015,2426.3122,N,08129.3764,W,1,11,2.0,21,M,,M,,*68
06/11/2015	19:10:15.553	$GPGGA,191016,2426.3127,N,08129.3751,W,1,10,2.0,21,M,,M,,*69
06/11/2015	19:10:16.593	$GPGGA,191017,2426.3130,N,08129.3739,W,1,10,2.0,21,M,,M,,*60
06/11/2015	19:10:17.593	$GPGGA,191018,2426.3134,N,08129.3726,W,1,11,2.0,21,M,,M,,*64
06/11/2015	19:10:18.594	$GPGGA,191019,2426.3137,N,08129.3712,W,1,11,2.0,21,M,,M,,*61
06/11/2015	19:10:19.614	$GPGGA,191020,2426.3143,N,08129.3699,W,1,10,2.0,21,M,,M,,*6B
06/11/2015	19:10:20.574	$GPGGA,191021,2426.3147,N,08129.3686,W,1,10,2.0,21,M,,M,,*60
06/11/2015	19:10:21.584	$GPGGA,191022,2426.3149,N,08129.3672,W,1,10,2.0,21,M,,M,,*66
06/11/2015	19:10:22.584	$GPGGA,191023,2426.3152,N,08129.3660,W,1,10,2.0,21,M,,M,,*6E
06/11/2015	19:10:23.604	$GPGGA,191024,2426.3156,N,08129.3647,W,1,11,2.0,21,M,,M,,*69
06/11/2015	19:10:24.563	$GPGGA,191025,2426.3161,N,08129.3632,W,1,11,2.0,21,M,,M,,*6E
06/11/2015	19:10:25.563	$GPGGA,191026,2426.3163,N,08129.3619,W,1,11,1.4,21,M,,M,,*61
06/11/2015	19:10:26.563	$GPGGA,191027,2426.3167,N,08129.3606,W,1,11,2.0,21,M,,M,,*6D
06/11/2015	19:10:27.603	$GPGGA,191028,2426.3170,N,08129.3592,W,1,10,2.0,21,M,,M,,*6B
06/11/2015	19:10:28.563	$GPGGA,191029,2426.3174,N,08129.3580,W,1,10,1.4,21,M,,M,,*6A
06/11/2015	19:10:29.555	$GPGGA,191030,2426.3177,N,08129.3566,W,1,11,1.4,21,M,,M,,*68
06/11/2015	19:10:30.967	$GPGGA,191031,2426.3180,N,08129.3552,W,1,11,1.4,21,M,,M,,*66
06/11/2015	19:10:31.593	$GPGGA,191032,2426.3183,N,08129.3540,W,1,11,1.4,21,M,,M,,*65
06/11/2015	19:10:32.553	$GPGGA,191033,2426.3187,N,08129.3526,W,1,11,1.4,21,M,,M,,*60
06/11/2015	19:10:33.543	$GPGGA,191034,2426.3190,N,08129.3512,W,1,11,1.4,21,M,,M,,*66
06/11/2015	19:10:34.555	$GPGGA,191035,2426.3192,N,08129.3499,W,1,11,1.4,21,M,,M,,*67
06/11/2015	19:10:35.574	$GPGGA,191036,2426.3195,N,08129.3485,W,1,11,1.4,21,M,,M,,*6E
06/11/2015	19:10:36.555	$GPGGA,191037,2426.3198,N,08129.3472,W,1,11,1.4,21,M,,M,,*6A
06/11/2015	19:10:37.574	$GPGGA,191038,2426.3201,N,08129.3458,W,1,11,1.4,21,M,,M,,*6E
06/11/2015	19:10:38.544	$GPGGA,191039,2426.3203,N,08129.3444,W,1,11,1.4,21,M,,M,,*60
06/11/2015	19:10:39.554	$GPGGA,191040,2426.3206,N,08129.3431,W,1,11,1.4,21,M,,M,,*69
06/11/2015	19:10:40.524	$GPGGA,191041,2426.3210,N,08129.3417,W,1,11,1.4,21,M,,M,,*6B
06/11/2015	19:10:41.543	$GPGGA,191042,2426.3214,N,08129.3403,W,1,11,1.4,21,M,,M,,*69
06/11/2015	19:10:42.533	$GPGGA,191043,2426.3216,N,08129.3390,W,1,11,1.4,21,M,,M,,*67
06/11/2015	19:10:43.553	$GPGGA,191044,2426.3219,N,08129.3376,W,1,11,1.4,21,M,,M,,*67
06/11/2015	19:10:44.523	$GPGGA,191045,2426.3224,N,08129.3363,W,1,11,1.4,21,M,,M,,*6C
06/11/2015	19:10:45.533	$GPGGA,191046,2426.3228,N,08129.3350,W,1,10,2.0,21,M,,M,,*65
06/11/2015	19:10:46.523	$GPGGA,191047,2426.3230,N,08129.3334,W,1,10,2.0,21,M,,M,,*6F
06/11/2015	19:10:47.523	$GPGGA,191048,2426.3234,N,08129.3321,W,1,10,2.0,21,M,,M,,*60
06/11/2015	19:10:48.613	$GPGGA,191049,2426.3239,N,08129.3310,W,1,10,2.0,21,M,,M,,*6E
06/11/2015	19:10:49.523	$GPGGA,191050,2426.3242,N,08129.3296,W,1,10,2.0,21,M,,M,,*65
06/11/2015	19:10:50.633	$GPGGA,191051,2426.3242,N,08129.3283,W,1,10,2.0,21,M,,M,,*60
06/11/2015	19:10:51.643	$GPGGA,191052,2426.3246,N,08129.3273,W,1,11,1.4,21,M,,M,,*6E
06/11/2015	19:10:52.513	$GPGGA,191053,2426.3252,N,08129.3261,W,1,11,1.4,21,M,,M,,*69
06/11/2015	19:10:53.624	$GPGGA,191054,2426.3255,N,08129.3246,W,1,11,1.4,21,M,,M,,*6C
06/11/2015	19:10:54.504	$GPGGA,191055,2426.3257,N,08129.3233,W,1,11,1.4,21,M,,M,,*6D
06/11/2015	19:10:55.644	$GPGGA,191056,2426.3263,N,08129.3221,W,1,10,2.0,21,M,,M,,*6C
06/11/2015	19:10:56.524	$GPGGA,191057,2426.3268,N,08129.3207,W,1,10,1.4,21,M,,M,,*65
06/11/2015	19:10:57.614	$GPGGA,191058,2426.3271,N,08129.3193,W,1,11,1.4,21,M,,M,,*6D
06/11/2015	19:10:58.504	$GPGGA,191059,2426.3274,N,08129.3181,W,1,11,1.4,21,M,,M,,*6A
06/11/2015	19:10:59.613	$GPGGA,191100,2426.3279,N,08129.3167,W,1,11,1.4,21,M,,M,,*62
06/11/2015	19:11:00.583	$GPGGA,191101,2426.3285,N,08129.3154,W,1,11,1.4,21,M,,M,,*60
06/11/2015	19:11:01.603	$GPGGA,191102,2426.3288,N,08129.3141,W,1,11,1.4,21,M,,M,,*6A
06/11/2015	19:11:02.583	$GPGGA,191103,2426.3292,N,08129.3128,W,1,11,1.4,21,M,,M,,*6F
06/11/2015	19:11:03.623	$GPGGA,191104,2426.3296,N,08129.3116,W,1,11,1.4,20,M,,M,,*60
06/11/2015	19:11:04.583	$GPGGA,191105,2426.3300,N,08129.3103,W,1,11,1.4,20,M,,M,,*6B
06/11/2015	19:11:05.593	$GPGGA,191106,2426.3304,N,08129.3091,W,1,10,1.4,20,M,,M,,*67
06/11/2015	19:11:06.583	$GPGGA,191107,2426.3308,N,08129.3078,W,1,10,1.4,20,M,,M,,*6D
06/11/2015	19:11:07.583	$GPGGA,191108,2426.3311,N,08129.3065,W,1,10,1.4,20,M,,M,,*66
06/11/2015	19:11:08.568	$GPGGA,191109,2426.3318,N,08129.3051,W,1,10,1.4,20,M,,M,,*69
06/11/2015	19:11:09.564	$GPGGA,191110,2426.3321,N,08129.3042,W,1,10,2.0,20,M,,M,,*6E
06/11/2015	19:11:10.568	$GPGGA,191111,2426.3324,N,08129.3030,W,1,10,1.4,20,M,,M,,*68
06/11/2015	19:11:11.594	$GPGGA,191112,2426.3329,N,08129.3016,W,1,11,1.4,20,M,,M,,*63
06/11/2015	19:11:12.565	$GPGGA,191113,2426.3333,N,08129.3004,W,1,11,2.6,20,M,,M,,*6B
06/11/2015	19:11:13.565	$GPGGA,191114,2426.3339,N,08129.2991,W,1,11,1.4,20,M,,M,,*63
06/11/2015	19:11:14.564	$GPGGA,191115,2426.3344,N,08129.2976,W,1,11,2.6,20,M,,M,,*60
06/11/2015	19:11:15.565	$GPGGA,191116,2426.3351,N,08129.2962,W,1,9,2.6,20,M,,M,,*5B
06/11/2015	19:11:16.565	$GPGGA,191117,2426.3354,N,08129.2949,W,1,9,2.6,20,M,,M,,*56
06/11/2015	19:11:17.583	$GPGGA,191118,2426.3361,N,08129.2935,W,1,9,2.6,20,M,,M,,*54
06/11/2015	19:11:18.583	$GPGGA,191119,2426.3365,N,08129.2924,W,1,9,1.4,20,M,,M,,*50
06/11/2015	19:11:19.583	$GPGGA,191120,2426.3369,N,08129.2910,W,1,11,1.4,19,M,,M,,*62
06/11/2015	19:11:20.554	$GPGGA,191121,2426.3373,N,08129.2897,W,1,11,2.6,19,M,,M,,*67
06/11/2015	19:11:21.573	$GPGGA,191122,2426.3382,N,08129.2883,W,1,9,1.5,19,M,,M,,*56
06/11/2015	19:11:22.543	$GPGGA,191123,2426.3387,N,08129.2868,W,1,9,1.4,19,M,,M,,*56
06/11/2015	19:11:23.553	$GPGGA,191124,2426.3391,N,08129.2855,W,1,10,1.4,19,M,,M,,*60
06/11/2015	19:11:24.543	$GPGGA,191125,2426.3396,N,08129.2842,W,1,10,1.4,19,M,,M,,*60
06/11/2015	19:11:25.553	$GPGGA,191126,2426.3401,N,08129.2828,W,1,11,1.4,19,M,,M,,*67
06/11/2015	19:11:26.533	$GPGGA,191127,2426.3405,N,08129.2814,W,1,11,1.4,19,M,,M,,*6D
06/11/2015	19:11:27.573	$GPGGA,191128,2426.3409,N,08129.2802,W,1,11,1.4,19,M,,M,,*69
06/11/2015	19:11:28.524	$GPGGA,191129,2426.3415,N,08129.2789,W,1,11,1.4,19,M,,M,,*69
06/11/2015	19:11:29.524	$GPGGA,191130,2426.3419,N,08129.2775,W,1,10,1.4,19,M,,M,,*6F
06/11/2015	19:11:30.554	$GPGGA,191131,2426.3423,N,08129.2762,W,1,10,1.4,19,M,,M,,*61
06/11/2015	19:11:31.554	$GPGGA,191132,2426.3429,N,08129.2749,W,1,11,1.4,19,M,,M,,*60
06/11/2015	19:11:32.524	$GPGGA,191133,2426.3434,N,08129.2736,W,1,11,1.4,19,M,,M,,*65
06/11/2015	19:11:33.535	$GPGGA,191134,2426.3436,N,08129.2723,W,1,10,1.5,19,M,,M,,*64
06/11/2015	19:11:34.523	$GPGGA,191135,2426.3441,N,08129.2711,W,1,10,1.4,19,M,,M,,*65
06/11/2015	19:11:35.543	$GPGGA,191136,2426.3448,N,08129.2700,W,1,11,1.4,19,M,,M,,*6E
06/11/2015	19:11:36.523	$GPGGA,191137,2426.3452,N,08129.2687,W,1,11,1.4,19,M,,M,,*6A
06/11/2015	19:11:37.533	$GPGGA,191138,2426.3455,N,08129.2674,W,1,11,1.4,19,M,,M,,*6E
06/11/2015	19:11:38.523	$GPGGA,191139,2426.3459,N,08129.2662,W,1,11,1.4,19,M,,M,,*64
06/11/2015	19:11:39.660	$GPGGA,191140,2426.3466,N,08129.2650,W,1,11,1.4,19,M,,M,,*67
06/11/2015	19:11:40.603	$GPGGA,191141,2426.3470,N,08129.2636,W,1,11,1.4,19,M,,M,,*61
06/11/2015	19:11:41.623	$GPGGA,191142,2426.3473,N,08129.2624,W,1,11,1.4,19,M,,M,,*62
06/11/2015	19:11:42.503	$GPGGA,191143,2426.3477,N,08129.2613,W,1,11,2.0,19,M,,M,,*64
