Software Version Number: 1	Data File Format Number: 1	Build Version Number: 1	Error Count Since VI Started: 3	Manufacturer: Raytheon	 Model Number: RayMarine 120	 S/N: 	 Cal Date: 	 Wind Direction Offset: 0.00	 Slope (M)1: 0.00	 Offset (B)1: 0.00	 Slope (M)2: 0.00	 Offset (B)2: 0.00	 Slope (M)3: 0.00	 Offset (B)3: 0.00	 Slope (M)4: 0.00	 Offset (B)4: 0.00	 Slope (M)5: 0.00	 Offset (B)5: 0.00	 Slope (M)6: 0.00	 Offset (B)6: 0.00
Computer Date	Computer Time	GGA String
06/26/2015	06:00:00.572	$GPGGA,060001,2545.6752,N,07956.2216,W,1,9,1.5,16,M,,M,,*57
06/26/2015	06:00:01.561	$GPGGA,060002,2545.6745,N,07956.2220,W,1,9,1.5,16,M,,M,,*57
06/26/2015	06:00:02.571	$GPGGA,060003,2545.6737,N,07956.2225,W,1,9,1.5,16,M,,M,,*56
06/26/2015	06:00:03.571	$GPGGA,060004,2545.6729,N,07956.2227,W,1,9,1.5,16,M,,M,,*5C
06/26/2015	06:00:04.571	$GPGGA,060005,2545.6721,N,07956.2230,W,1,9,1.5,16,M,,M,,*53
06/26/2015	06:00:05.581	$GPGGA,060006,2545.6714,N,07956.2233,W,1,9,1.5,16,M,,M,,*55
06/26/2015	06:00:06.571	$GPGGA,060007,2545.6707,N,07956.2237,W,1,9,1.5,16,M,,M,,*52
06/26/2015	06:00:07.570	$GPGGA,060008,2545.6700,N,07956.2241,W,1,9,1.5,16,M,,M,,*5B
06/26/2015	06:00:08.570	$GPGGA,060009,2545.6691,N,07956.2245,W,1,9,1.5,17,M,,M,,*56
06/26/2015	06:00:09.570	$GPGGA,060010,2545.6683,N,07956.2248,W,1,9,1.5,17,M,,M,,*50
06/26/2015	06:00:10.550	$GPGGA,060011,2545.6675,N,07956.2252,W,1,9,1.5,17,M,,M,,*53
06/26/2015	06:00:11.590	$GPGGA,060012,2545.6667,N,07956.2256,W,1,9,1.5,17,M,,M,,*57
06/26/2015	06:00:12.550	$GPGGA,060013,2545.6660,N,07956.2259,W,1,9,1.5,17,M,,M,,*5E
06/26/2015	06:00:13.542	$GPGGA,060014,2545.6651,N,07956.2263,W,1,9,1.5,17,M,,M,,*52
06/26/2015	06:00:14.551	$GPGGA,060015,2545.6644,N,07956.2267,W,1,9,1.5,17,M,,M,,*53
06/26/2015	06:00:15.572	$GPGGA,060016,2545.6636,N,07956.2270,W,1,9,1.5,17,M,,M,,*53
06/26/2015	06:00:16.561	$GPGGA,060017,2545.6628,N,07956.2274,W,1,9,1.5,17,M,,M,,*59
06/26/2015	06:00:17.541	$GPGGA,060018,2545.6620,N,07956.2279,W,1,9,1.5,17,M,,M,,*53
06/26/2015	06:00:18.551	$GPGGA,060019,2545.6613,N,07956.2281,W,1,9,1.5,17,M,,M,,*55
06/26/2015	06:00:19.551	$GPGGA,060020,2545.6604,N,07956.2285,W,1,9,1.5,17,M,,M,,*5D
06/26/2015	06:00:20.531	$GPGGA,060021,2545.6596,N,07956.2288,W,1,9,1.5,17,M,,M,,*59
06/26/2015	06:00:21.561	$GPGGA,060022,2545.6588,N,07956.2291,W,1,9,1.5,17,M,,M,,*5D
06/26/2015	06:00:22.531	$GPGGA,060023,2545.6581,N,07956.2295,W,1,9,1.5,16,M,,M,,*50
06/26/2015	06:00:23.551	$GPGGA,060024,2545.6572,N,07956.2298,W,1,9,1.5,16,M,,M,,*56
06/26/2015	06:00:24.521	$GPGGA,060025,2545.6566,N,07956.2301,W,1,9,1.5,16,M,,M,,*53
06/26/2015	06:00:25.520	$GPGGA,060026,2545.6557,N,07956.2305,W,1,9,1.5,16,M,,M,,*56
06/26/2015	06:00:26.630	$GPGGA,060027,2545.6549,N,07956.2309,W,1,9,1.5,16,M,,M,,*54
06/26/2015	06:00:27.560	$GPGGA,060028,2545.6542,N,07956.2312,W,1,9,1.5,16,M,,M,,*5A
06/26/2015	06:00:28.530	$GPGGA,060029,2545.6534,N,07956.2316,W,1,9,1.5,16,M,,M,,*5E
06/26/2015	06:00:29.530	$GPGGA,060030,2545.6526,N,07956.2319,W,1,9,1.5,16,M,,M,,*5A
06/26/2015	06:00:33.511	$GPGGA,060034,2545.6495,N,07956.2330,W,1,9,1.5,16,M,,M,,*5C
06/26/2015	06:00:34.503	$GPGGA,060035,2545.6487,N,07956.2332,W,1,9,1.5,16,M,,M,,*5C
06/26/2015	06:00:35.641	$GPGGA,060036,2545.6479,N,07956.2337,W,1,9,1.5,16,M,,M,,*5B
06/26/2015	06:00:36.621	$GPGGA,060037,2545.6471,N,07956.2338,W,1,9,1.5,16,M,,M,,*5D
06/26/2015	06:00:37.601	$GPGGA,060038,2545.6462,N,07956.2345,W,1,8,1.8,16,M,,M,,*56
06/26/2015	06:00:38.507	$GPGGA,060039,2545.6454,N,07956.2346,W,1,8,1.5,16,M,,M,,*5C
06/26/2015	06:00:39.505	$GPGGA,060040,2545.6447,N,07956.2349,W,1,9,1.5,16,M,,M,,*5E
06/26/2015	06:00:40.831	$GPGGA,060041,2545.6438,N,07956.2352,W,1,9,1.5,16,M,,M,,*5D
06/26/2015	06:00:41.621	$GPGGA,060042,2545.6430,N,07956.2355,W,1,9,1.5,16,M,,M,,*51
06/26/2015	06:00:42.507	$GPGGA,060043,2545.6422,N,07956.2359,W,1,9,1.6,16,M,,M,,*5C
06/26/2015	06:00:43.640	$GPGGA,060044,2545.6414,N,07956.2363,W,1,9,1.5,16,M,,M,,*54
06/26/2015	06:00:44.491	$GPGGA,060045,2545.6406,N,07956.2366,W,1,9,1.5,15,M,,M,,*50
06/26/2015	06:00:45.620	$GPGGA,060046,2545.6398,N,07956.2370,W,1,8,1.6,15,M,,M,,*56
06/26/2015	06:00:46.580	$GPGGA,060047,2545.6390,N,07956.2374,W,1,8,1.5,15,M,,M,,*58
06/26/2015	06:00:47.604	$GPGGA,060048,2545.6382,N,07956.2377,W,1,9,1.5,15,M,,M,,*56
06/26/2015	06:00:48.581	$GPGGA,060049,2545.6375,N,07956.2379,W,1,9,1.6,15,M,,M,,*52
06/26/2015	06:00:49.581	$GPGGA,060050,2545.6366,N,07956.2384,W,1,8,1.6,15,M,,M,,*5B
06/26/2015	06:00:50.571	$GPGGA,060051,2545.6358,N,07956.2386,W,1,8,1.6,15,M,,M,,*55
06/26/2015	06:00:51.495	$GPGGA,060052,2545.6350,N,07956.2389,W,1,8,1.6,15,M,,M,,*51
06/26/2015	06:00:52.481	$GPGGA,060053,2545.6342,N,07956.2392,W,1,8,1.6,15,M,,M,,*59
06/26/2015	06:00:53.602	$GPGGA,060054,2545.6336,N,07956.2395,W,1,8,1.6,15,M,,M,,*5A
06/26/2015	06:00:54.561	$GPGGA,060055,2545.6328,N,07956.2397,W,1,8,1.5,15,M,,M,,*55
06/26/2015	06:00:55.591	$GPGGA,060056,2545.6320,N,07956.2402,W,1,9,1.5,15,M,,M,,*54
06/26/2015	06:00:56.561	$GPGGA,060057,2545.6312,N,07956.2404,W,1,9,1.6,15,M,,M,,*51
06/26/2015	06:00:57.597	$GPGGA,060058,2545.6306,N,07956.2406,W,1,9,1.5,16,M,,M,,*59
06/26/2015	06:00:58.561	$GPGGA,060059,2545.6299,N,07956.2408,W,1,9,1.5,16,M,,M,,*51
06/26/2015	06:00:59.641	$GPGGA,060100,2545.6290,N,07956.2411,W,1,9,1.5,16,M,,M,,*5D
06/26/2015	06:01:00.560	$GPGGA,060101,2545.6282,N,07956.2414,W,1,9,1.5,16,M,,M,,*5A
06/26/2015	06:01:01.540	$GPGGA,060102,2545.6277,N,07956.2417,W,1,9,1.5,16,M,,M,,*50
06/26/2015	06:01:02.560	$GPGGA,060103,2545.6268,N,07956.2420,W,1,9,1.5,16,M,,M,,*5B
06/26/2015	06:01:03.570	$GPGGA,060104,2545.6261,N,07956.2424,W,1,9,1.5,16,M,,M,,*51
06/26/2015	06:01:05.606	$GPGGA,060106,2545.6246,N,07956.2431,W,1,9,1.5,16,M,,M,,*52
06/26/2015	06:01:06.541	$GPGGA,060107,2545.6238,N,07956.2433,W,1,9,1.5,16,M,,M,,*58
06/26/2015	06:01:07.571	$GPGGA,060108,2545.6231,N,07956.2436,W,1,9,1.5,16,M,,M,,*5B
06/26/2015	06:01:08.541	$GPGGA,060109,2545.6223,N,07956.2440,W,1,9,1.5,16,M,,M,,*58
06/26/2015	06:01:09.541	$GPGGA,060110,2545.6216,N,07956.2443,W,1,9,1.5,16,M,,M,,*55
06/26/2015	06:01:11.602	$GPGGA,060112,2545.6200,N,07956.2451,W,1,9,1.5,16,M,,M,,*53
06/26/2015	06:01:12.531	$GPGGA,060113,2545.6194,N,07956.2454,W,1,9,1.5,16,M,,M,,*59
06/26/2015	06:01:14.551	$GPGGA,060115,2545.6177,N,07956.2462,W,1,9,1.5,16,M,,M,,*57
06/26/2015	06:01:15.521	$GPGGA,060116,2545.6169,N,07956.2464,W,1,9,1.5,16,M,,M,,*5D
06/26/2015	06:01:16.521	$GPGGA,060117,2545.6162,N,07956.2468,W,1,9,1.5,16,M,,M,,*5B
06/26/2015	06:01:17.520	$GPGGA,060118,2545.6154,N,07956.2471,W,1,9,1.5,16,M,,M,,*59
06/26/2015	06:01:18.520	$GPGGA,060119,2545.6147,N,07956.2475,W,1,9,1.8,16,M,,M,,*53
06/26/2015	06:01:19.560	$GPGGA,060120,2545.6140,N,07956.2478,W,1,9,1.5,16,M,,M,,*5E
06/26/2015	06:01:21.003	$GPGGA,060121,2545.6131,N,07956.2482,W,1,9,1.8,16,M,,M,,*51
06/26/2015	06:01:21.540	$GPGGA,060122,2545.6123,N,07956.2486,W,1,8,1.8,16,M,,M,,*54
06/26/2015	06:01:22.620	$GPGGA,060123,2545.6116,N,07956.2489,W,1,8,1.5,16,M,,M,,*51
06/26/2015	06:01:23.521	$GPGGA,060124,2545.6107,N,07956.2493,W,1,9,1.5,16,M,,M,,*5C
06/26/2015	06:01:24.504	$GPGGA,060125,2545.6100,N,07956.2497,W,1,9,1.8,16,M,,M,,*53
06/26/2015	06:01:25.492	$GPGGA,060126,2545.6093,N,07956.2503,W,1,9,1.5,16,M,,M,,*5A
06/26/2015	06:01:26.511	$GPGGA,060127,2545.6084,N,07956.2507,W,1,9,1.5,16,M,,M,,*59
06/26/2015	06:01:27.531	$GPGGA,060128,2545.6076,N,07956.2511,W,1,9,1.5,16,M,,M,,*5C
06/26/2015	06:01:28.592	$GPGGA,060129,2545.6068,N,07956.2514,W,1,9,1.5,16,M,,M,,*57
06/26/2015	06:01:29.491	$GPGGA,060130,2545.6060,N,07956.2518,W,1,9,1.5,16,M,,M,,*5B
06/26/2015	06:01:30.591	$GPGGA,060131,2545.6053,N,07956.2522,W,1,9,1.5,16,M,,M,,*53
06/26/2015	06:01:31.501	$GPGGA,060132,2545.6044,N,07956.2525,W,1,9,1.5,16,M,,M,,*51
06/26/2015	06:01:32.601	$GPGGA,060133,2545.6036,N,07956.2529,W,1,9,1.5,16,M,,M,,*59
06/26/2015	06:01:33.581	$GPGGA,060134,2545.6028,N,07956.2533,W,1,9,1.5,16,M,,M,,*5A
06/26/2015	06:01:34.581	$GPGGA,060135,2545.6021,N,07956.2536,W,1,9,1.5,16,M,,M,,*57
06/26/2015	06:01:35.580	$GPGGA,060136,2545.6012,N,07956.2540,W,1,9,1.5,16,M,,M,,*55
06/26/2015	06:01:36.570	$GPGGA,060137,2545.6004,N,07956.2544,W,1,9,1.5,16,M,,M,,*57
06/26/2015	06:01:37.570	$GPGGA,060138,2545.5997,N,07956.2547,W,1,9,1.5,16,M,,M,,*5B
06/26/2015	06:01:38.570	$GPGGA,060139,2545.5989,N,07956.2551,W,1,9,1.5,16,M,,M,,*52
06/26/2015	06:01:39.580	$GPGGA,060140,2545.5981,N,07956.2554,W,1,9,1.5,16,M,,M,,*51
06/26/2015	06:01:40.571	$GPGGA,060141,2545.5974,N,07956.2558,W,1,9,1.5,16,M,,M,,*56
06/26/2015	06:01:42.591	$GPGGA,060143,2545.5957,N,07956.2565,W,1,9,1.5,16,M,,M,,*5B
06/26/2015	06:01:43.591	$GPGGA,060144,2545.5949,N,07956.2569,W,1,9,1.5,16,M,,M,,*5F
06/26/2015	06:01:44.581	$GPGGA,060145,2545.5941,N,07956.2570,W,1,9,1.5,16,M,,M,,*5E
06/26/2015	06:01:45.581	$GPGGA,060146,2545.5934,N,07956.2576,W,1,8,1.8,16,M,,M,,*55
06/26/2015	06:01:46.551	$GPGGA,060147,2545.5925,N,07956.2579,W,1,8,1.5,16,M,,M,,*56
06/26/2015	06:01:47.581	$GPGGA,060148,2545.5917,N,07956.2583,W,1,9,1.5,16,M,,M,,*5C
06/26/2015	06:01:48.561	$GPGGA,060149,2545.5909,N,07956.2587,W,1,9,1.5,16,M,,M,,*56
06/26/2015	06:01:49.571	$GPGGA,060150,2545.5900,N,07956.2591,W,1,8,1.6,16,M,,M,,*52
06/26/2015	06:01:50.551	$GPGGA,060151,2545.5891,N,07956.2595,W,1,8,1.6,16,M,,M,,*5E
06/26/2015	06:01:51.581	$GPGGA,060152,2545.5881,N,07956.2601,W,1,8,1.6,16,M,,M,,*52
06/26/2015	06:01:52.540	$GPGGA,060153,2545.5873,N,07956.2605,W,1,8,1.5,16,M,,M,,*59
06/26/2015	06:01:53.530	$GPGGA,060154,2545.5865,N,07956.2608,W,1,8,1.6,16,M,,M,,*57
06/26/2015	06:01:54.541	$GPGGA,060155,2545.5858,N,07956.2613,W,1,8,1.6,16,M,,M,,*52
06/26/2015	06:01:55.570	$GPGGA,060156,2545.5849,N,07956.2617,W,1,8,1.6,16,M,,M,,*55
06/26/2015	06:01:56.540	$GPGGA,060157,2545.5841,N,07956.2620,W,1,8,1.6,16,M,,M,,*58
06/26/2015	06:01:57.570	$GPGGA,060158,2545.5833,N,07956.2624,W,1,9,1.5,16,M,,M,,*54
06/26/2015	06:01:58.531	$GPGGA,060159,2545.5826,N,07956.2627,W,1,9,1.6,16,M,,M,,*51
06/26/2015	06:01:59.581	$GPGGA,060200,2545.5818,N,07956.2630,W,1,8,1.6,16,M,,M,,*54
06/26/2015	06:02:00.531	$GPGGA,060201,2545.5809,N,07956.2634,W,1,8,1.6,16,M,,M,,*51
06/26/2015	06:02:01.531	$GPGGA,060202,2545.5801,N,07956.2637,W,1,8,1.6,16,M,,M,,*59
06/26/2015	06:02:02.521	$GPGGA,060203,2545.5793,N,07956.2641,W,1,8,1.5,16,M,,M,,*5E
06/26/2015	06:02:03.541	$GPGGA,060204,2545.5784,N,07956.2645,W,1,8,1.6,16,M,,M,,*58
06/26/2015	06:02:04.531	$GPGGA,060205,2545.5777,N,07956.2648,W,1,8,1.5,16,M,,M,,*5B
06/26/2015	06:02:05.521	$GPGGA,060206,2545.5769,N,07956.2650,W,1,9,1.5,16,M,,M,,*5F
06/26/2015	06:02:06.521	$GPGGA,060207,2545.5761,N,07956.2653,W,1,9,1.6,16,M,,M,,*56
06/26/2015	06:02:07.561	$GPGGA,060208,2545.5753,N,07956.2656,W,1,8,1.6,16,M,,M,,*5C
06/26/2015	06:02:08.993	$GPGGA,060209,2545.5746,N,07956.2659,W,1,8,1.6,16,M,,M,,*56
06/26/2015	06:02:09.504	$GPGGA,060210,2545.5737,N,07956.2662,W,1,8,1.6,16,M,,M,,*50
06/26/2015	06:02:10.510	$GPGGA,060211,2545.5730,N,07956.2663,W,1,8,1.6,16,M,,M,,*57
06/26/2015	06:02:11.540	$GPGGA,060212,2545.5723,N,07956.2666,W,1,9,1.5,16,M,,M,,*51
06/26/2015	06:02:12.505	$GPGGA,060213,2545.5717,N,07956.2667,W,1,9,1.5,16,M,,M,,*56
06/26/2015	06:02:13.620	$GPGGA,060214,2545.5708,N,07956.2670,W,1,9,1.5,16,M,,M,,*59
06/26/2015	06:02:14.620	$GPGGA,060215,2545.5700,N,07956.2673,W,1,9,1.5,16,M,,M,,*53
06/26/2015	06:02:15.611	$GPGGA,060216,2545.5692,N,07956.2677,W,1,9,1.5,16,M,,M,,*5E
06/26/2015	06:02:16.610	$GPGGA,060217,2545.5685,N,07956.2680,W,1,9,1.5,16,M,,M,,*51
06/26/2015	06:02:17.621	$GPGGA,060218,2545.5677,N,07956.2681,W,1,9,1.5,16,M,,M,,*52
06/26/2015	06:02:18.501	$GPGGA,060219,2545.5669,N,07956.2685,W,1,9,1.5,16,M,,M,,*58
06/26/2015	06:02:19.594	$GPGGA,060220,2545.5663,N,07956.2688,W,1,9,1.5,16,M,,M,,*55
06/26/2015	06:02:20.591	$GPGGA,060221,2545.5654,N,07956.2691,W,1,9,1.5,16,M,,M,,*58
06/26/2015	06:02:21.581	$GPGGA,060222,2545.5646,N,07956.2695,W,1,9,1.5,16,M,,M,,*5C
06/26/2015	06:02:22.481	$GPGGA,060223,2545.5638,N,07956.2699,W,1,9,1.5,16,M,,M,,*58
06/26/2015	06:02:23.505	$GPGGA,060224,2545.5631,N,07956.2702,W,1,9,1.5,16,M,,M,,*55
06/26/2015	06:02:24.571	$GPGGA,060225,2545.5623,N,07956.2704,W,1,9,1.5,16,M,,M,,*51
06/26/2015	06:02:25.631	$GPGGA,060226,2545.5616,N,07956.2707,W,1,9,1.5,16,M,,M,,*57
06/26/2015	06:02:26.571	$GPGGA,060227,2545.5607,N,07956.2711,W,1,9,1.5,16,M,,M,,*51
06/26/2015	06:02:27.630	$GPGGA,060228,2545.5599,N,07956.2714,W,1,9,1.5,16,M,,M,,*5F
06/26/2015	06:02:28.570	$GPGGA,060229,2545.5592,N,07956.2718,W,1,9,1.5,16,M,,M,,*59
06/26/2015	06:02:29.570	$GPGGA,060230,2545.5584,N,07956.2722,W,1,9,1.5,16,M,,M,,*5F
06/26/2015	06:02:30.560	$GPGGA,060231,2545.5576,N,07956.2727,W,1,9,1.5,16,M,,M,,*56
06/26/2015	06:02:31.610	$GPGGA,060232,2545.5569,N,07956.2731,W,1,9,1.5,16,M,,M,,*5C
06/26/2015	06:02:32.560	$GPGGA,060233,2545.5562,N,07956.2733,W,1,9,1.5,16,M,,M,,*54
06/26/2015	06:02:33.909	$GPGGA,060234,2545.5553,N,07956.2738,W,1,9,1.5,16,M,,M,,*5A
06/26/2015	06:02:34.561	$GPGGA,060235,2545.5546,N,07956.2742,W,1,9,1.5,16,M,,M,,*52
06/26/2015	06:02:35.593	$GPGGA,060236,2545.5538,N,07956.2746,W,1,9,1.5,16,M,,M,,*5C
06/26/2015	06:02:36.551	$GPGGA,060237,2545.5530,N,07956.2749,W,1,9,1.5,16,M,,M,,*5A
06/26/2015	06:02:37.561	$GPGGA,060238,2545.5523,N,07956.2753,W,1,9,1.5,16,M,,M,,*5C
06/26/2015	06:02:38.551	$GPGGA,060239,2545.5515,N,07956.2757,W,1,9,1.5,16,M,,M,,*5C
06/26/2015	06:02:39.581	$GPGGA,060240,2545.5508,N,07956.2761,W,1,9,1.5,16,M,,M,,*5B
06/26/2015	06:02:40.551	$GPGGA,060241,2545.5500,N,07956.2765,W,1,9,1.5,16,M,,M,,*56
06/26/2015	06:02:41.571	$GPGGA,060242,2545.5492,N,07956.2769,W,1,9,1.5,16,M,,M,,*53
06/26/2015	06:02:42.551	$GPGGA,060243,2545.5486,N,07956.2774,W,1,9,1.5,16,M,,M,,*5B
06/26/2015	06:02:43.571	$GPGGA,060244,2545.5477,N,07956.2778,W,1,9,1.5,16,M,,M,,*5E
06/26/2015	06:02:44.551	$GPGGA,060245,2545.5469,N,07956.2780,W,1,9,1.5,16,M,,M,,*57
06/26/2015	06:02:45.540	$GPGGA,060246,2545.5462,N,07956.2785,W,1,9,1.5,16,M,,M,,*5A
06/26/2015	06:02:46.550	$GPGGA,060247,2545.5454,N,07956.2789,W,1,9,1.5,16,M,,M,,*52
06/26/2015	06:02:47.580	$GPGGA,060248,2545.5446,N,07956.2793,W,1,9,1.5,16,M,,M,,*55
06/26/2015	06:02:48.530	$GPGGA,060249,2545.5439,N,07956.2796,W,1,9,1.5,16,M,,M,,*59
06/26/2015	06:02:49.570	$GPGGA,060250,2545.5432,N,07956.2800,W,1,9,1.5,16,M,,M,,*5A
06/26/2015	06:02:50.531	$GPGGA,060251,2545.5423,N,07956.2804,W,1,9,1.5,16,M,,M,,*5F
06/26/2015	06:02:51.541	$GPGGA,060252,2545.5415,N,07956.2807,W,1,9,1.5,16,M,,M,,*5A
06/26/2015	06:02:52.531	$GPGGA,060253,2545.5408,N,07956.2811,W,1,9,1.5,16,M,,M,,*50
06/26/2015	06:02:53.511	$GPGGA,060254,2545.5400,N,07956.2814,W,1,9,1.5,16,M,,M,,*5A
06/26/2015	06:02:54.531	$GPGGA,060255,2545.5392,N,07956.2818,W,1,9,1.5,16,M,,M,,*5B
06/26/2015	06:02:55.541	$GPGGA,060256,2545.5385,N,07956.2822,W,1,9,1.5,16,M,,M,,*57
06/26/2015	06:02:56.531	$GPGGA,060257,2545.5378,N,07956.2825,W,1,9,1.5,16,M,,M,,*53
06/26/2015	06:02:57.641	$GPGGA,060258,2545.5369,N,07956.2829,W,1,9,1.5,16,M,,M,,*50
06/26/2015	06:02:58.501	$GPGGA,060259,2545.5363,N,07956.2832,W,1,9,1.5,16,M,,M,,*51
06/26/2015	06:02:59.641	$GPGGA,060300,2545.5354,N,07956.2836,W,1,9,1.5,16,M,,M,,*5C
06/26/2015	06:03:00.521	$GPGGA,060301,2545.5346,N,07956.2840,W,1,9,1.5,16,M,,M,,*5F
06/26/2015	06:03:01.541	$GPGGA,060302,2545.5338,N,07956.2843,W,1,9,1.5,16,M,,M,,*56
06/26/2015	06:03:02.490	$GPGGA,060303,2545.5331,N,07956.2845,W,1,9,1.6,16,M,,M,,*5B
06/26/2015	06:03:03.630	$GPGGA,060304,2545.5323,N,07956.2848,W,1,9,1.6,16,M,,M,,*52
06/26/2015	06:03:04.503	$GPGGA,060305,2545.5316,N,07956.2854,W,1,9,1.6,16,M,,M,,*58
06/26/2015	06:03:05.610	$GPGGA,060306,2545.5307,N,07956.2857,W,1,8,1.6,16,M,,M,,*59
06/26/2015	06:03:06.493	$GPGGA,060307,2545.5299,N,07956.2861,W,1,8,1.6,16,M,,M,,*5B
06/26/2015	06:03:07.501	$GPGGA,060308,2545.5291,N,07956.2863,W,1,8,1.6,16,M,,M,,*5E
06/26/2015	06:03:08.581	$GPGGA,060309,2545.5282,N,07956.2868,W,1,8,1.6,16,M,,M,,*56
06/26/2015	06:03:09.481	$GPGGA,060310,2545.5274,N,07956.2870,W,1,8,1.6,16,M,,M,,*5E
06/26/2015	06:03:10.601	$GPGGA,060311,2545.5266,N,07956.2874,W,1,8,1.7,16,M,,M,,*59
06/26/2015	06:03:11.591	$GPGGA,060312,2545.5256,N,07956.2879,W,1,7,1.7,16,M,,M,,*5B
06/26/2015	06:03:12.491	$GPGGA,060313,2545.5248,N,07956.2883,W,1,7,1.7,16,M,,M,,*50
06/26/2015	06:03:13.611	$GPGGA,060314,2545.5240,N,07956.2886,W,1,7,1.7,16,M,,M,,*5A
06/26/2015	06:03:14.491	$GPGGA,060315,2545.5231,N,07956.2888,W,1,7,1.7,16,M,,M,,*53
06/26/2015	06:03:15.641	$GPGGA,060316,2545.5223,N,07956.2891,W,1,7,1.7,16,M,,M,,*5B
06/26/2015	06:03:16.592	$GPGGA,060317,2545.5215,N,07956.2894,W,1,7,1.6,16,M,,M,,*5B
06/26/2015	06:03:17.591	$GPGGA,060318,2545.5208,N,07956.2897,W,1,8,1.7,16,M,,M,,*55
06/26/2015	06:03:18.841	$GPGGA,060319,2545.5201,N,07956.2899,W,1,8,1.6,16,M,,M,,*52
06/26/2015	06:03:19.621	$GPGGA,060320,2545.5193,N,07956.2901,W,1,8,1.6,16,M,,M,,*50
06/26/2015	06:03:20.570	$GPGGA,060321,2545.5184,N,07956.2905,W,1,8,1.7,16,M,,M,,*52
06/26/2015	06:03:21.580	$GPGGA,060322,2545.5176,N,07956.2908,W,1,7,1.6,16,M,,M,,*5F
06/26/2015	06:03:22.570	$GPGGA,060323,2545.5169,N,07956.2910,W,1,7,1.6,16,M,,M,,*59
06/26/2015	06:03:23.610	$GPGGA,060324,2545.5161,N,07956.2915,W,1,8,1.7,16,M,,M,,*5D
06/26/2015	06:03:24.560	$GPGGA,060325,2545.5154,N,07956.2916,W,1,8,1.6,16,M,,M,,*58
06/26/2015	06:03:25.571	$GPGGA,060326,2545.5144,N,07956.2920,W,1,8,1.6,16,M,,M,,*5F
06/26/2015	06:03:26.561	$GPGGA,060327,2545.5135,N,07956.2924,W,1,8,1.6,16,M,,M,,*5C
06/26/2015	06:03:27.581	$GPGGA,060328,2545.5127,N,07956.2927,W,1,8,1.6,17,M,,M,,*52
06/26/2015	06:03:28.551	$GPGGA,060329,2545.5119,N,07956.2930,W,1,8,1.6,17,M,,M,,*58
06/26/2015	06:03:29.571	$GPGGA,060330,2545.5110,N,07956.2934,W,1,8,1.6,17,M,,M,,*5D
06/26/2015	06:03:30.541	$GPGGA,060331,2545.5103,N,07956.2937,W,1,8,1.6,17,M,,M,,*5D
06/26/2015	06:03:31.571	$GPGGA,060332,2545.5094,N,07956.2941,W,1,8,1.6,17,M,,M,,*50
06/26/2015	06:03:32.551	$GPGGA,060333,2545.5086,N,07956.2944,W,1,8,1.6,17,M,,M,,*57
06/26/2015	06:03:33.561	$GPGGA,060334,2545.5079,N,07956.2946,W,1,8,1.5,17,M,,M,,*51
06/26/2015	06:03:34.541	$GPGGA,060335,2545.5071,N,07956.2949,W,1,8,1.5,17,M,,M,,*57
06/26/2015	06:03:35.571	$GPGGA,060336,2545.5065,N,07956.2952,W,1,9,1.5,17,M,,M,,*5A
06/26/2015	06:03:36.531	$GPGGA,060337,2545.5058,N,07956.2955,W,1,9,1.5,17,M,,M,,*52
06/26/2015	06:03:37.561	$GPGGA,060338,2545.5050,N,07956.2956,W,1,9,1.5,17,M,,M,,*56
06/26/2015	06:03:38.520	$GPGGA,060339,2545.5043,N,07956.2959,W,1,9,1.5,17,M,,M,,*5A
06/26/2015	06:03:39.570	$GPGGA,060340,2545.5036,N,07956.2962,W,1,9,1.5,17,M,,M,,*5E
06/26/2015	06:03:40.540	$GPGGA,060341,2545.5029,N,07956.2966,W,1,9,1.5,17,M,,M,,*55
06/26/2015	06:03:41.551	$GPGGA,060342,2545.5021,N,07956.2969,W,1,9,1.5,17,M,,M,,*51
06/26/2015	06:03:42.520	$GPGGA,060343,2545.5014,N,07956.2971,W,1,9,1.5,17,M,,M,,*5F
06/26/2015	06:03:43.551	$GPGGA,060344,2545.5007,N,07956.2974,W,1,9,1.5,17,M,,M,,*5F
06/26/2015	06:03:44.511	$GPGGA,060345,2545.5000,N,07956.2978,W,1,9,1.6,17,M,,M,,*56
06/26/2015	06:03:46.541	$GPGGA,060346,2545.4992,N,07956.2981,W,1,8,1.5,17,M,,M,,*52
06/26/2015	06:03:46.571	$GPGGA,060347,2545.4985,N,07956.2985,W,1,8,1.5,17,M,,M,,*51
06/26/2015	06:03:47.561	$GPGGA,060348,2545.4977,N,07956.2989,W,1,9,1.5,17,M,,M,,*5E
06/26/2015	06:03:48.521	$GPGGA,060349,2545.4970,N,07956.2992,W,1,9,1.5,17,M,,M,,*52
06/26/2015	06:03:49.521	$GPGGA,060350,2545.4963,N,07956.2996,W,1,9,1.5,17,M,,M,,*5C
06/26/2015	06:03:50.621	$GPGGA,060351,2545.4955,N,07956.3000,W,1,9,1.5,17,M,,M,,*5F
06/26/2015	06:03:51.606	$GPGGA,060352,2545.4948,N,07956.3003,W,1,9,1.5,17,M,,M,,*53
06/26/2015	06:03:52.509	$GPGGA,060353,2545.4940,N,07956.3007,W,1,9,1.5,17,M,,M,,*5E
06/26/2015	06:03:53.821	$GPGGA,060354,2545.4933,N,07956.3011,W,1,9,1.5,17,M,,M,,*5A
06/26/2015	06:03:54.511	$GPGGA,060355,2545.4926,N,07956.3016,W,1,9,1.5,17,M,,M,,*58
06/26/2015	06:03:55.610	$GPGGA,060356,2545.4916,N,07956.3020,W,1,9,1.6,17,M,,M,,*5E
06/26/2015	06:03:56.593	$GPGGA,060357,2545.4908,N,07956.3024,W,1,9,1.5,17,M,,M,,*57
06/26/2015	06:03:57.600	$GPGGA,060358,2545.4901,N,07956.3028,W,1,9,1.5,17,M,,M,,*5D
06/26/2015	06:03:58.510	$GPGGA,060359,2545.4892,N,07956.3031,W,1,9,1.5,17,M,,M,,*5F
06/26/2015	06:03:59.620	$GPGGA,060400,2545.4885,N,07956.3036,W,1,9,1.5,17,M,,M,,*55
06/26/2015	06:04:00.581	$GPGGA,060401,2545.4877,N,07956.3040,W,1,9,1.6,17,M,,M,,*5B
06/26/2015	06:04:01.598	$GPGGA,060402,2545.4867,N,07956.3046,W,1,8,1.6,17,M,,M,,*5E
06/26/2015	06:04:02.593	$GPGGA,060403,2545.4861,N,07956.3049,W,1,8,1.5,17,M,,M,,*55
06/26/2015	06:04:03.591	$GPGGA,060404,2545.4854,N,07956.3051,W,1,9,1.8,17,M,,M,,*51
06/26/2015	06:04:04.571	$GPGGA,060405,2545.4845,N,07956.3054,W,1,9,1.8,17,M,,M,,*55
06/26/2015	06:04:05.595	$GPGGA,060406,2545.4838,N,07956.3063,W,1,9,1.5,17,M,,M,,*55
06/26/2015	06:04:06.571	$GPGGA,060407,2545.4830,N,07956.3065,W,1,9,1.5,17,M,,M,,*5A
06/26/2015	06:04:07.601	$GPGGA,060408,2545.4823,N,07956.3069,W,1,8,1.8,17,M,,M,,*57
06/26/2015	06:04:08.561	$GPGGA,060409,2545.4815,N,07956.3074,W,1,8,1.5,17,M,,M,,*52
06/26/2015	06:04:09.561	$GPGGA,060410,2545.4808,N,07956.3078,W,1,9,1.5,17,M,,M,,*5B
06/26/2015	06:04:10.571	$GPGGA,060411,2545.4800,N,07956.3083,W,1,9,1.5,18,M,,M,,*59
06/26/2015	06:04:11.581	$GPGGA,060412,2545.4792,N,07956.3089,W,1,9,1.5,18,M,,M,,*54
06/26/2015	06:04:12.550	$GPGGA,060413,2545.4785,N,07956.3092,W,1,9,1.5,18,M,,M,,*59
06/26/2015	06:04:13.570	$GPGGA,060414,2545.4775,N,07956.3097,W,1,9,1.5,18,M,,M,,*54
06/26/2015	06:04:14.540	$GPGGA,060415,2545.4767,N,07956.3103,W,1,9,1.6,18,M,,M,,*59
06/26/2015	06:04:15.580	$GPGGA,060416,2545.4760,N,07956.3107,W,1,9,1.5,18,M,,M,,*5A
06/26/2015	06:04:16.540	$GPGGA,060417,2545.4751,N,07956.3111,W,1,9,1.5,18,M,,M,,*5E
06/26/2015	06:04:17.560	$GPGGA,060418,2545.4745,N,07956.3114,W,1,8,1.6,18,M,,M,,*53
06/26/2015	06:04:18.540	$GPGGA,060419,2545.4738,N,07956.3118,W,1,8,1.5,18,M,,M,,*57
06/26/2015	06:04:19.530	$GPGGA,060420,2545.4729,N,07956.3122,W,1,9,1.5,18,M,,M,,*55
06/26/2015	06:04:20.530	$GPGGA,060421,2545.4721,N,07956.3126,W,1,9,1.5,18,M,,M,,*58
06/26/2015	06:04:21.560	$GPGGA,060422,2545.4713,N,07956.3130,W,1,9,1.5,18,M,,M,,*5D
06/26/2015	06:04:22.520	$GPGGA,060423,2545.4706,N,07956.3133,W,1,9,1.5,19,M,,M,,*5A
06/26/2015	06:04:23.540	$GPGGA,060424,2545.4698,N,07956.3136,W,1,8,1.6,19,M,,M,,*5C
06/26/2015	06:04:24.520	$GPGGA,060425,2545.4691,N,07956.3139,W,1,8,1.5,19,M,,M,,*58
06/26/2015	06:04:25.530	$GPGGA,060426,2545.4682,N,07956.3143,W,1,9,1.5,19,M,,M,,*55
06/26/2015	06:04:26.530	$GPGGA,060427,2545.4673,N,07956.3147,W,1,9,1.6,19,M,,M,,*5D
06/26/2015	06:04:27.550	$GPGGA,060428,2545.4666,N,07956.3148,W,1,8,1.6,19,M,,M,,*58
06/26/2015	06:04:28.521	$GPGGA,060429,2545.4659,N,07956.3151,W,1,8,1.5,19,M,,M,,*5E
06/26/2015	06:04:29.630	$GPGGA,060430,2545.4650,N,07956.3154,W,1,9,1.5,19,M,,M,,*5B
06/26/2015	06:04:30.510	$GPGGA,060431,2545.4642,N,07956.3158,W,1,9,1.5,19,M,,M,,*55
06/26/2015	06:04:31.550	$GPGGA,060432,2545.4633,N,07956.3161,W,1,8,1.6,19,M,,M,,*58
06/26/2015	06:04:32.520	$GPGGA,060433,2545.4626,N,07956.3163,W,1,8,1.6,20,M,,M,,*55
06/26/2015	06:04:33.500	$GPGGA,060434,2545.4617,N,07956.3166,W,1,8,1.6,20,M,,M,,*55
06/26/2015	06:04:34.620	$GPGGA,060435,2545.4609,N,07956.3168,W,1,8,1.6,20,M,,M,,*55
06/26/2015	06:04:35.500	$GPGGA,060436,2545.4601,N,07956.3172,W,1,9,1.5,20,M,,M,,*57
06/26/2015	06:04:36.610	$GPGGA,060437,2545.4591,N,07956.3176,W,1,9,1.5,20,M,,M,,*58
06/26/2015	06:04:37.510	$GPGGA,060438,2545.4583,N,07956.3179,W,1,9,1.5,20,M,,M,,*5B
06/26/2015	06:04:38.495	$GPGGA,060439,2545.4573,N,07956.3183,W,1,9,1.7,20,M,,M,,*52
06/26/2015	06:04:39.610	$GPGGA,060440,2545.4565,N,07956.3186,W,1,9,1.5,20,M,,M,,*5C
06/26/2015	06:04:40.600	$GPGGA,060441,2545.4556,N,07956.3190,W,1,9,1.5,20,M,,M,,*5A
06/26/2015	06:04:41.495	$GPGGA,060442,2545.4548,N,07956.3193,W,1,9,1.5,20,M,,M,,*55
06/26/2015	06:04:42.600	$GPGGA,060443,2545.4541,N,07956.3195,W,1,9,1.5,20,M,,M,,*5B
06/26/2015	06:04:43.596	$GPGGA,060444,2545.4533,N,07956.3198,W,1,8,1.6,20,M,,M,,*56
06/26/2015	06:04:44.580	$GPGGA,060445,2545.4527,N,07956.3201,W,1,8,1.5,20,M,,M,,*52
06/26/2015	06:04:45.570	$GPGGA,060446,2545.4521,N,07956.3204,W,1,9,1.5,20,M,,M,,*53
06/26/2015	06:04:46.571	$GPGGA,060447,2545.4514,N,07956.3205,W,1,9,1.5,20,M,,M,,*55
06/26/2015	06:04:47.630	$GPGGA,060448,2545.4507,N,07956.3208,W,1,9,1.5,20,M,,M,,*55
06/26/2015	06:04:48.570	$GPGGA,060449,2545.4500,N,07956.3212,W,1,9,1.5,20,M,,M,,*58
06/26/2015	06:04:49.482	$GPGGA,060450,2545.4491,N,07956.3213,W,1,9,1.5,20,M,,M,,*58
06/26/2015	06:04:50.570	$GPGGA,060451,2545.4484,N,07956.3215,W,1,9,1.8,20,M,,M,,*56
06/26/2015	06:04:51.570	$GPGGA,060452,2545.4476,N,07956.3219,W,1,9,1.5,20,M,,M,,*59
06/26/2015	06:04:52.470	$GPGGA,060453,2545.4468,N,07956.3223,W,1,9,1.5,21,M,,M,,*5F
06/26/2015	06:04:53.570	$GPGGA,060454,2545.4461,N,07956.3226,W,1,8,1.8,21,M,,M,,*58
06/26/2015	06:04:54.560	$GPGGA,060455,2545.4453,N,07956.3228,W,1,8,1.8,21,M,,M,,*56
06/26/2015	06:04:55.570	$GPGGA,060456,2545.4446,N,07956.3233,W,1,8,1.8,21,M,,M,,*5B
06/26/2015	06:04:56.561	$GPGGA,060457,2545.4438,N,07956.3235,W,1,8,1.8,21,M,,M,,*55
06/26/2015	06:04:57.580	$GPGGA,060458,2545.4431,N,07956.3238,W,1,8,1.8,20,M,,M,,*5F
06/26/2015	06:04:58.540	$GPGGA,060459,2545.4424,N,07956.3242,W,1,8,1.8,20,M,,M,,*57
06/26/2015	06:04:59.591	$GPGGA,060500,2545.4415,N,07956.3245,W,1,8,1.8,20,M,,M,,*5F
06/26/2015	06:05:00.540	$GPGGA,060501,2545.4407,N,07956.3249,W,1,8,1.8,20,M,,M,,*51
06/26/2015	06:05:01.550	$GPGGA,060502,2545.4400,N,07956.3252,W,1,8,1.8,20,M,,M,,*5F
06/26/2015	06:05:03.594	$GPGGA,060504,2545.4385,N,07956.3262,W,1,8,1.8,20,M,,M,,*50
06/26/2015	06:05:04.531	$GPGGA,060505,2545.4377,N,07956.3266,W,1,8,1.5,20,M,,M,,*55
06/26/2015	06:05:05.560	$GPGGA,060506,2545.4370,N,07956.3270,W,1,8,1.8,20,M,,M,,*5B
06/26/2015	06:05:06.530	$GPGGA,060507,2545.4361,N,07956.3273,W,1,8,1.8,20,M,,M,,*59
06/26/2015	06:05:07.570	$GPGGA,060508,2545.4353,N,07956.3277,W,1,8,1.8,20,M,,M,,*53
06/26/2015	06:05:08.531	$GPGGA,060509,2545.4345,N,07956.3280,W,1,8,1.8,20,M,,M,,*5D
06/26/2015	06:05:09.561	$GPGGA,060510,2545.4337,N,07956.3287,W,1,8,1.8,20,M,,M,,*57
06/26/2015	06:05:10.540	$GPGGA,060511,2545.4330,N,07956.3292,W,1,8,1.5,20,M,,M,,*58
06/26/2015	06:05:11.582	$GPGGA,060512,2545.4321,N,07956.3298,W,1,9,1.5,20,M,,M,,*50
06/26/2015	06:05:12.530	$GPGGA,060513,2545.4313,N,07956.3300,W,1,9,1.5,20,M,,M,,*50
06/26/2015	06:05:13.540	$GPGGA,060514,2545.4306,N,07956.3305,W,1,9,1.5,20,M,,M,,*56
06/26/2015	06:05:14.510	$GPGGA,060515,2545.4298,N,07956.3309,W,1,9,1.5,20,M,,M,,*5D
06/26/2015	06:05:15.540	$GPGGA,060516,2545.4290,N,07956.3313,W,1,9,1.5,20,M,,M,,*5D
06/26/2015	06:05:16.510	$GPGGA,060517,2545.4283,N,07956.3316,W,1,9,1.5,20,M,,M,,*5B
06/26/2015	06:05:17.530	$GPGGA,060518,2545.4274,N,07956.3320,W,1,9,1.5,20,M,,M,,*59
06/26/2015	06:05:18.520	$GPGGA,060519,2545.4266,N,07956.3324,W,1,9,1.5,20,M,,M,,*5F
06/26/2015	06:05:19.640	$GPGGA,060520,2545.4259,N,07956.3328,W,1,9,1.5,20,M,,M,,*55
06/26/2015	06:05:20.500	$GPGGA,060521,2545.4251,N,07956.3331,W,1,9,1.5,20,M,,M,,*54
06/26/2015	06:05:21.511	$GPGGA,060522,2545.4243,N,07956.3335,W,1,9,1.5,20,M,,M,,*50
06/26/2015	06:05:22.494	$GPGGA,060523,2545.4236,N,07956.3338,W,1,9,1.5,20,M,,M,,*5E
06/26/2015	06:05:23.530	$GPGGA,060524,2545.4227,N,07956.3346,W,1,8,1.8,20,M,,M,,*5C
06/26/2015	06:05:24.510	$GPGGA,060525,2545.4219,N,07956.3350,W,1,8,1.5,20,M,,M,,*5A
06/26/2015	06:05:25.510	$GPGGA,060526,2545.4212,N,07956.3353,W,1,8,1.6,20,M,,M,,*52
06/26/2015	06:05:26.494	$GPGGA,060527,2545.4204,N,07956.3356,W,1,8,1.8,20,M,,M,,*5F
06/26/2015	06:05:27.520	$GPGGA,060528,2545.4196,N,07956.3358,W,1,8,1.8,20,M,,M,,*56
06/26/2015	06:05:28.496	$GPGGA,060529,2545.4189,N,07956.3363,W,1,8,1.8,20,M,,M,,*51
06/26/2015	06:05:29.480	$GPGGA,060530,2545.4182,N,07956.3365,W,1,9,1.5,20,M,,M,,*58
06/26/2015	06:05:30.600	$GPGGA,060531,2545.4173,N,07956.3371,W,1,9,1.8,20,M,,M,,*5F
06/26/2015	06:05:31.601	$GPGGA,060532,2545.4165,N,07956.3376,W,1,9,1.5,20,M,,M,,*51
06/26/2015	06:05:32.480	$GPGGA,060533,2545.4157,N,07956.3381,W,1,9,1.6,20,M,,M,,*5A
06/26/2015	06:05:33.580	$GPGGA,060534,2545.4149,N,07956.3385,W,1,8,1.6,20,M,,M,,*57
06/26/2015	06:05:34.470	$GPGGA,060535,2545.4142,N,07956.3389,W,1,8,1.6,20,M,,M,,*51
06/26/2015	06:05:35.492	$GPGGA,060536,2545.4133,N,07956.3392,W,1,8,1.6,20,M,,M,,*5E
06/26/2015	06:05:36.560	$GPGGA,060537,2545.4125,N,07956.3396,W,1,8,1.6,20,M,,M,,*5C
06/26/2015	06:05:37.470	$GPGGA,060538,2545.4117,N,07956.3400,W,1,8,1.6,20,M,,M,,*5A
06/26/2015	06:05:38.561	$GPGGA,060539,2545.4108,N,07956.3403,W,1,8,1.5,20,M,,M,,*55
06/26/2015	06:05:39.610	$GPGGA,060540,2545.4101,N,07956.3405,W,1,8,1.6,20,M,,M,,*57
06/26/2015	06:05:40.570	$GPGGA,060541,2545.4095,N,07956.3408,W,1,8,1.5,20,M,,M,,*54
06/26/2015	06:05:41.581	$GPGGA,060542,2545.4086,N,07956.3410,W,1,9,1.5,20,M,,M,,*5D
06/26/2015	06:05:42.560	$GPGGA,060543,2545.4079,N,07956.3414,W,1,9,1.5,20,M,,M,,*58
06/26/2015	06:05:43.581	$GPGGA,060544,2545.4071,N,07956.3418,W,1,8,1.6,20,M,,M,,*59
06/26/2015	06:05:44.560	$GPGGA,060545,2545.4063,N,07956.3421,W,1,8,1.6,20,M,,M,,*51
06/26/2015	06:05:46.591	$GPGGA,060547,2545.4046,N,07956.3425,W,1,9,1.6,20,M,,M,,*51
06/26/2015	06:05:47.581	$GPGGA,060548,2545.4039,N,07956.3428,W,1,8,1.6,20,M,,M,,*5A
06/26/2015	06:05:48.560	$GPGGA,060549,2545.4030,N,07956.3432,W,1,8,1.5,20,M,,M,,*5A
06/26/2015	06:05:49.560	$GPGGA,060550,2545.4021,N,07956.3434,W,1,8,1.6,20,M,,M,,*57
06/26/2015	06:05:50.540	$GPGGA,060551,2545.4013,N,07956.3439,W,1,8,1.6,19,M,,M,,*50
06/26/2015	06:05:51.581	$GPGGA,060552,2545.4006,N,07956.3440,W,1,8,1.6,19,M,,M,,*59
06/26/2015	06:05:52.540	$GPGGA,060553,2545.3998,N,07956.3443,W,1,8,1.5,19,M,,M,,*51
06/26/2015	06:05:53.570	$GPGGA,060554,2545.3990,N,07956.3446,W,1,9,1.5,19,M,,M,,*5A
06/26/2015	06:05:54.530	$GPGGA,060555,2545.3983,N,07956.3447,W,1,9,1.5,19,M,,M,,*58
06/26/2015	06:05:55.560	$GPGGA,060556,2545.3976,N,07956.3450,W,1,9,1.5,19,M,,M,,*57
06/26/2015	06:05:56.531	$GPGGA,060557,2545.3969,N,07956.3454,W,1,9,1.6,19,M,,M,,*5F
06/26/2015	06:05:57.530	$GPGGA,060558,2545.3961,N,07956.3455,W,1,9,1.5,19,M,,M,,*5A
06/26/2015	06:05:58.530	$GPGGA,060559,2545.3954,N,07956.3457,W,1,9,1.5,19,M,,M,,*5F
06/26/2015	06:05:59.600	$GPGGA,060600,2545.3947,N,07956.3461,W,1,9,1.5,19,M,,M,,*57
06/26/2015	06:06:00.540	$GPGGA,060601,2545.3940,N,07956.3464,W,1,9,1.5,19,M,,M,,*54
06/26/2015	06:06:01.550	$GPGGA,060602,2545.3931,N,07956.3466,W,1,9,1.5,19,M,,M,,*53
06/26/2015	06:06:02.521	$GPGGA,060603,2545.3924,N,07956.3469,W,1,9,1.5,19,M,,M,,*59
06/26/2015	06:06:03.560	$GPGGA,060604,2545.3915,N,07956.3472,W,1,9,1.5,19,M,,M,,*56
06/26/2015	06:06:04.520	$GPGGA,060605,2545.3907,N,07956.3476,W,1,9,1.5,19,M,,M,,*50
06/26/2015	06:06:05.550	$GPGGA,060606,2545.3898,N,07956.3480,W,1,8,1.6,19,M,,M,,*5F
06/26/2015	06:06:06.500	$GPGGA,060607,2545.3889,N,07956.3484,W,1,8,1.6,19,M,,M,,*5A
06/26/2015	06:06:07.520	$GPGGA,060608,2545.3880,N,07956.3488,W,1,8,1.8,19,M,,M,,*5E
06/26/2015	06:06:08.500	$GPGGA,060609,2545.3873,N,07956.3493,W,1,8,1.6,19,M,,M,,*57
06/26/2015	06:06:09.500	$GPGGA,060610,2545.3865,N,07956.3497,W,1,9,1.5,19,M,,M,,*5E
06/26/2015	06:06:10.510	$GPGGA,060611,2545.3857,N,07956.3502,W,1,9,1.5,19,M,,M,,*53
06/26/2015	06:06:11.690	$GPGGA,060612,2545.3849,N,07956.3504,W,1,9,1.8,19,M,,M,,*54
06/26/2015	06:06:12.590	$GPGGA,060613,2545.3842,N,07956.3508,W,1,9,1.8,19,M,,M,,*52
06/26/2015	06:06:13.684	$GPGGA,060614,2545.3835,N,07956.3511,W,1,9,1.5,19,M,,M,,*50
06/26/2015	06:06:14.630	$GPGGA,060615,2545.3826,N,07956.3515,W,1,9,1.5,19,M,,M,,*57
06/26/2015	06:06:15.540	$GPGGA,060616,2545.3819,N,07956.3519,W,1,9,1.5,19,M,,M,,*54
06/26/2015	06:06:16.630	$GPGGA,060617,2545.3811,N,07956.3522,W,1,9,1.5,19,M,,M,,*55
06/26/2015	06:06:17.670	$GPGGA,060618,2545.3803,N,07956.3527,W,1,8,1.5,19,M,,M,,*5D
06/26/2015	06:06:18.582	$GPGGA,060619,2545.3794,N,07956.3533,W,1,8,1.5,19,M,,M,,*58
06/26/2015	06:06:19.520	$GPGGA,060620,2545.3788,N,07956.3537,W,1,9,1.5,19,M,,M,,*5A
06/26/2015	06:06:20.494	$GPGGA,060621,2545.3781,N,07956.3540,W,1,9,1.6,19,M,,M,,*51
06/26/2015	06:06:21.680	$GPGGA,060622,2545.3772,N,07956.3545,W,1,8,1.8,19,M,,M,,*54
06/26/2015	06:06:22.610	$GPGGA,060623,2545.3765,N,07956.3551,W,1,8,1.5,19,M,,M,,*5B
06/26/2015	06:06:23.682	$GPGGA,060624,2545.3759,N,07956.3553,W,1,9,1.8,19,M,,M,,*5D
06/26/2015	06:06:24.630	$GPGGA,060625,2545.3749,N,07956.3559,W,1,9,1.5,19,M,,M,,*5A
06/26/2015	06:06:25.640	$GPGGA,060626,2545.3741,N,07956.3563,W,1,9,1.5,19,M,,M,,*58
06/26/2015	06:06:26.600	$GPGGA,060627,2545.3734,N,07956.3567,W,1,9,1.5,19,M,,M,,*5F
06/26/2015	06:06:27.690	$GPGGA,060628,2545.3725,N,07956.3573,W,1,9,1.5,19,M,,M,,*55
06/26/2015	06:06:28.593	$GPGGA,060629,2545.3717,N,07956.3577,W,1,9,1.5,19,M,,M,,*51
06/26/2015	06:06:29.570	$GPGGA,060630,2545.3709,N,07956.3580,W,1,9,1.5,19,M,,M,,*5E
06/26/2015	06:06:30.598	$GPGGA,060631,2545.3701,N,07956.3585,W,1,9,1.5,20,M,,M,,*58
06/26/2015	06:06:31.681	$GPGGA,060632,2545.3694,N,07956.3589,W,1,9,1.5,20,M,,M,,*5A
06/26/2015	06:06:33.130	$GPGGA,060633,2545.3687,N,07956.3594,W,1,9,1.8,20,M,,M,,*58
06/26/2015	06:06:33.660	$GPGGA,060634,2545.3678,N,07956.3598,W,1,8,1.8,20,M,,M,,*52
06/26/2015	06:06:34.596	$GPGGA,060635,2545.3670,N,07956.3605,W,1,8,1.5,20,M,,M,,*51
06/26/2015	06:06:35.670	$GPGGA,060636,2545.3663,N,07956.3609,W,1,9,1.5,20,M,,M,,*5D
06/26/2015	06:06:36.583	$GPGGA,060637,2545.3655,N,07956.3614,W,1,9,1.5,20,M,,M,,*55
06/26/2015	06:06:37.550	$GPGGA,060638,2545.3647,N,07956.3618,W,1,9,1.5,20,M,,M,,*55
06/26/2015	06:06:38.570	$GPGGA,060639,2545.3640,N,07956.3624,W,1,9,1.5,20,M,,M,,*5C
06/26/2015	06:06:39.670	$GPGGA,060640,2545.3633,N,07956.3627,W,1,9,1.5,20,M,,M,,*55
06/26/2015	06:06:40.581	$GPGGA,060641,2545.3623,N,07956.3631,W,1,9,1.5,21,M,,M,,*53
06/26/2015	06:06:41.650	$GPGGA,060642,2545.3615,N,07956.3634,W,1,9,1.5,21,M,,M,,*50
06/26/2015	06:06:42.530	$GPGGA,060643,2545.3608,N,07956.3638,W,1,9,1.6,21,M,,M,,*52
06/26/2015	06:06:43.640	$GPGGA,060644,2545.3601,N,07956.3642,W,1,9,1.5,21,M,,M,,*52
06/26/2015	06:06:44.560	$GPGGA,060645,2545.3593,N,07956.3645,W,1,9,1.5,21,M,,M,,*5C
06/26/2015	06:06:45.595	$GPGGA,060646,2545.3586,N,07956.3649,W,1,9,1.5,21,M,,M,,*57
06/26/2015	06:06:46.570	$GPGGA,060647,2545.3578,N,07956.3652,W,1,9,1.5,21,M,,M,,*5D
06/26/2015	06:06:47.650	$GPGGA,060648,2545.3570,N,07956.3656,W,1,9,1.5,21,M,,M,,*5E
06/26/2015	06:06:48.521	$GPGGA,060649,2545.3564,N,07956.3658,W,1,9,1.5,21,M,,M,,*54
06/26/2015	06:06:49.650	$GPGGA,060650,2545.3555,N,07956.3661,W,1,9,1.5,21,M,,M,,*54
06/26/2015	06:06:50.520	$GPGGA,060651,2545.3546,N,07956.3667,W,1,9,1.5,21,M,,M,,*51
06/26/2015	06:06:51.650	$GPGGA,060652,2545.3539,N,07956.3670,W,1,8,1.5,22,M,,M,,*5E
06/26/2015	06:06:52.520	$GPGGA,060653,2545.3530,N,07956.3672,W,1,8,1.5,22,M,,M,,*54
06/26/2015	06:06:53.610	$GPGGA,060654,2545.3522,N,07956.3675,W,1,9,1.6,22,M,,M,,*55
06/26/2015	06:06:54.520	$GPGGA,060655,2545.3514,N,07956.3679,W,1,9,1.6,22,M,,M,,*5D
06/26/2015	06:06:55.620	$GPGGA,060656,2545.3506,N,07956.3681,W,1,8,1.6,22,M,,M,,*5B
06/26/2015	06:06:56.510	$GPGGA,060657,2545.3499,N,07956.3685,W,1,8,1.6,22,M,,M,,*59
06/26/2015	06:06:57.500	$GPGGA,060658,2545.3492,N,07956.3686,W,1,8,1.6,22,M,,M,,*5E
06/26/2015	06:06:58.620	$GPGGA,060659,2545.3483,N,07956.3689,W,1,8,1.6,22,M,,M,,*50
06/26/2015	06:06:59.660	$GPGGA,060700,2545.3475,N,07956.3692,W,1,8,1.6,22,M,,M,,*5E
06/26/2015	06:07:00.540	$GPGGA,060701,2545.3467,N,07956.3694,W,1,8,1.6,22,M,,M,,*5A
06/26/2015	06:07:01.630	$GPGGA,060702,2545.3459,N,07956.3697,W,1,8,1.6,22,M,,M,,*57
06/26/2015	06:07:02.520	$GPGGA,060703,2545.3452,N,07956.3700,W,1,8,1.6,22,M,,M,,*52
06/26/2015	06:07:03.610	$GPGGA,060704,2545.3443,N,07956.3703,W,1,8,1.6,22,M,,M,,*56
06/26/2015	06:07:04.530	$GPGGA,060705,2545.3435,N,07956.3706,W,1,8,1.6,22,M,,M,,*53
06/26/2015	06:07:05.591	$GPGGA,060706,2545.3427,N,07956.3708,W,1,8,1.6,22,M,,M,,*5D
06/26/2015	06:07:06.511	$GPGGA,060707,2545.3419,N,07956.3710,W,1,8,1.6,22,M,,M,,*58
06/26/2015	06:07:07.570	$GPGGA,060708,2545.3411,N,07956.3714,W,1,8,1.6,22,M,,M,,*5B
06/26/2015	06:07:08.530	$GPGGA,060709,2545.3403,N,07956.3717,W,1,8,1.6,21,M,,M,,*59
06/26/2015	06:07:10.031	$GPGGA,060710,2545.3395,N,07956.3719,W,1,8,1.6,21,M,,M,,*57
06/26/2015	06:07:10.600	$GPGGA,060711,2545.3387,N,07956.3723,W,1,8,1.6,21,M,,M,,*5C
06/26/2015	06:07:11.590	$GPGGA,060712,2545.3378,N,07956.3726,W,1,8,1.7,21,M,,M,,*5B
06/26/2015	06:07:12.500	$GPGGA,060713,2545.3371,N,07956.3729,W,1,8,1.5,21,M,,M,,*5E
06/26/2015	06:07:13.560	$GPGGA,060714,2545.3362,N,07956.3733,W,1,9,1.6,21,M,,M,,*52
06/26/2015	06:07:14.570	$GPGGA,060715,2545.3354,N,07956.3736,W,1,9,1.5,21,M,,M,,*50
06/26/2015	06:07:15.591	$GPGGA,060716,2545.3346,N,07956.3739,W,1,9,1.5,21,M,,M,,*5F
06/26/2015	06:07:16.510	$GPGGA,060717,2545.3337,N,07956.3743,W,1,9,1.6,21,M,,M,,*56
06/26/2015	06:07:17.570	$GPGGA,060718,2545.3330,N,07956.3746,W,1,8,1.5,21,M,,M,,*59
06/26/2015	06:07:18.560	$GPGGA,060719,2545.3322,N,07956.3748,W,1,8,1.6,21,M,,M,,*56
06/26/2015	06:07:19.580	$GPGGA,060720,2545.3313,N,07956.3753,W,1,8,1.6,21,M,,M,,*54
06/26/2015	06:07:20.560	$GPGGA,060721,2545.3305,N,07956.3755,W,1,8,1.6,21,M,,M,,*54
06/26/2015	06:07:21.596	$GPGGA,060722,2545.3297,N,07956.3759,W,1,8,1.6,21,M,,M,,*51
06/26/2015	06:07:22.560	$GPGGA,060723,2545.3288,N,07956.3764,W,1,8,1.6,20,M,,M,,*51
06/26/2015	06:07:23.601	$GPGGA,060724,2545.3281,N,07956.3765,W,1,8,1.5,20,M,,M,,*5D
06/26/2015	06:07:24.595	$GPGGA,060725,2545.3275,N,07956.3768,W,1,8,1.5,20,M,,M,,*5A
06/26/2015	06:07:25.583	$GPGGA,060726,2545.3268,N,07956.3772,W,1,9,1.5,20,M,,M,,*5F
06/26/2015	06:07:26.560	$GPGGA,060727,2545.3259,N,07956.3775,W,1,9,1.5,20,M,,M,,*5B
06/26/2015	06:07:27.580	$GPGGA,060728,2545.3259,N,07956.3775,W,1,9,1.5,20,M,,M,,*54
06/26/2015	06:07:28.550	$GPGGA,060729,2545.3246,N,07956.3783,W,1,9,1.5,20,M,,M,,*52
06/26/2015	06:07:29.570	$GPGGA,060730,2545.3246,N,07956.3783,W,1,9,1.5,20,M,,M,,*5A
06/26/2015	06:07:30.550	$GPGGA,060731,2545.3230,N,07956.3790,W,1,9,1.5,20,M,,M,,*58
06/26/2015	06:07:31.581	$GPGGA,060732,2545.3222,N,07956.3793,W,1,9,1.8,20,M,,M,,*56
06/26/2015	06:07:32.530	$GPGGA,060733,2545.3215,N,07956.3795,W,1,9,1.8,20,M,,M,,*55
06/26/2015	06:07:33.570	$GPGGA,060734,2545.3207,N,07956.3801,W,1,8,1.5,20,M,,M,,*5F
06/26/2015	06:07:34.530	$GPGGA,060735,2545.3199,N,07956.3804,W,1,8,1.8,20,M,,M,,*52
06/26/2015	06:07:35.600	$GPGGA,060736,2545.3192,N,07956.3806,W,1,8,3.0,20,M,,M,,*52
06/26/2015	06:07:36.540	$GPGGA,060737,2545.3185,N,07956.3808,W,1,8,3.0,20,M,,M,,*5B
06/26/2015	06:07:37.540	$GPGGA,060738,2545.3185,N,07956.3808,W,1,7,3.0,20,M,,M,,*5B
06/26/2015	06:07:38.530	$GPGGA,060739,2545.3171,N,07956.3818,W,1,7,1.6,20,M,,M,,*54
06/26/2015	06:07:39.570	$GPGGA,060740,2545.3164,N,07956.3820,W,1,8,3.0,19,M,,M,,*54
06/26/2015	06:07:40.521	$GPGGA,060741,2545.3157,N,07956.3822,W,1,8,3.0,19,M,,M,,*57
06/26/2015	06:07:41.561	$GPGGA,060742,2545.3149,N,07956.3826,W,1,7,3.0,19,M,,M,,*50
06/26/2015	06:07:42.530	$GPGGA,060743,2545.3142,N,07956.3827,W,1,7,3.0,19,M,,M,,*5B
06/26/2015	06:07:43.595	$GPGGA,060744,2545.3135,N,07956.3830,W,1,8,1.5,19,M,,M,,*52
06/26/2015	06:07:44.620	$GPGGA,060745,2545.3127,N,07956.3834,W,1,8,1.5,19,M,,M,,*54
06/26/2015	06:07:45.560	$GPGGA,060746,2545.3118,N,07956.3844,W,1,8,1.5,19,M,,M,,*5C
06/26/2015	06:07:46.620	$GPGGA,060747,2545.3109,N,07956.3853,W,1,8,1.5,19,M,,M,,*5B
06/26/2015	06:07:47.540	$GPGGA,060748,2545.3100,N,07956.3859,W,1,8,1.6,19,M,,M,,*54
06/26/2015	06:07:48.510	$GPGGA,060749,2545.3093,N,07956.3865,W,1,8,1.5,19,M,,M,,*52
06/26/2015	06:07:49.520	$GPGGA,060750,2545.3093,N,07956.3865,W,1,9,1.5,19,M,,M,,*5B
06/26/2015	06:07:50.530	$GPGGA,060751,2545.3076,N,07956.3874,W,1,9,1.5,19,M,,M,,*51
06/26/2015	06:07:51.651	$GPGGA,060752,2545.3069,N,07956.3880,W,1,9,1.5,19,M,,M,,*57
06/26/2015	06:07:52.510	$GPGGA,060753,2545.3062,N,07956.3884,W,1,9,1.5,19,M,,M,,*59
06/26/2015	06:07:53.630	$GPGGA,060754,2545.3053,N,07956.3889,W,1,9,1.5,19,M,,M,,*51
06/26/2015	06:07:54.500	$GPGGA,060755,2545.3045,N,07956.3895,W,1,9,1.5,19,M,,M,,*5A
06/26/2015	06:07:55.520	$GPGGA,060756,2545.3040,N,07956.3898,W,1,8,1.6,19,M,,M,,*53
06/26/2015	06:07:56.500	$GPGGA,060757,2545.3031,N,07956.3902,W,1,8,1.5,19,M,,M,,*55
06/26/2015	06:07:57.493	$GPGGA,060758,2545.3031,N,07956.3902,W,1,8,1.6,19,M,,M,,*59
06/26/2015	06:07:58.491	$GPGGA,060759,2545.3017,N,07956.3909,W,1,8,1.5,19,M,,M,,*54
06/26/2015	06:07:59.550	$GPGGA,060800,2545.3017,N,07956.3909,W,1,9,1.5,19,M,,M,,*56
06/26/2015	06:08:00.585	$GPGGA,060801,2545.3001,N,07956.3916,W,1,9,1.6,19,M,,M,,*5D
06/26/2015	06:08:01.602	$GPGGA,060802,2545.2993,N,07956.3920,W,1,9,1.5,19,M,,M,,*5B
06/26/2015	06:08:02.587	$GPGGA,060803,2545.2986,N,07956.3923,W,1,9,1.5,19,M,,M,,*5D
06/26/2015	06:08:03.592	$GPGGA,060804,2545.2979,N,07956.3925,W,1,8,1.6,19,M,,M,,*5E
06/26/2015	06:08:04.587	$GPGGA,060805,2545.2971,N,07956.3928,W,1,8,1.5,19,M,,M,,*59
06/26/2015	06:08:05.585	$GPGGA,060806,2545.2963,N,07956.3932,W,1,9,1.5,19,M,,M,,*53
06/26/2015	06:08:06.570	$GPGGA,060807,2545.2955,N,07956.3935,W,1,9,1.6,19,M,,M,,*53
06/26/2015	06:08:07.610	$GPGGA,060808,2545.2947,N,07956.3938,W,1,8,1.6,19,M,,M,,*53
06/26/2015	06:08:08.570	$GPGGA,060809,2545.2939,N,07956.3941,W,1,8,1.6,19,M,,M,,*55
06/26/2015	06:08:09.570	$GPGGA,060810,2545.2932,N,07956.3945,W,1,8,1.6,19,M,,M,,*52
06/26/2015	06:08:10.560	$GPGGA,060811,2545.2923,N,07956.3949,W,1,8,1.6,19,M,,M,,*5F
06/26/2015	06:08:11.590	$GPGGA,060812,2545.2914,N,07956.3952,W,1,8,1.6,19,M,,M,,*52
06/26/2015	06:08:12.560	$GPGGA,060813,2545.2907,N,07956.3954,W,1,8,1.6,19,M,,M,,*57
06/26/2015	06:08:13.570	$GPGGA,060814,2545.2898,N,07956.3957,W,1,8,1.6,19,M,,M,,*54
06/26/2015	06:08:14.550	$GPGGA,060815,2545.2890,N,07956.3960,W,1,8,1.6,19,M,,M,,*59
06/26/2015	06:08:15.584	$GPGGA,060816,2545.2882,N,07956.3963,W,1,8,1.6,19,M,,M,,*5A
06/26/2015	06:08:16.561	$GPGGA,060817,2545.2874,N,07956.3967,W,1,8,1.6,19,M,,M,,*56
06/26/2015	06:08:17.570	$GPGGA,060818,2545.2867,N,07956.3970,W,1,8,1.6,19,M,,M,,*5D
06/26/2015	06:08:18.540	$GPGGA,060819,2545.2859,N,07956.3974,W,1,8,1.6,19,M,,M,,*55
06/26/2015	06:08:19.583	$GPGGA,060820,2545.2851,N,07956.3977,W,1,8,1.6,19,M,,M,,*54
06/26/2015	06:08:20.530	$GPGGA,060821,2545.2843,N,07956.3978,W,1,8,1.6,19,M,,M,,*59
06/26/2015	06:08:21.570	$GPGGA,060822,2545.2834,N,07956.3982,W,1,8,1.6,19,M,,M,,*5F
06/26/2015	06:08:22.530	$GPGGA,060823,2545.2827,N,07956.3985,W,1,8,1.6,19,M,,M,,*5B
06/26/2015	06:08:23.570	$GPGGA,060824,2545.2818,N,07956.3988,W,1,8,1.6,19,M,,M,,*5D
06/26/2015	06:08:24.540	$GPGGA,060825,2545.2810,N,07956.3990,W,1,8,1.6,19,M,,M,,*5D
06/26/2015	06:08:25.560	$GPGGA,060826,2545.2802,N,07956.3995,W,1,8,1.6,19,M,,M,,*58
06/26/2015	06:08:26.520	$GPGGA,060827,2545.2795,N,07956.3996,W,1,8,1.6,19,M,,M,,*5B
06/26/2015	06:08:27.530	$GPGGA,060828,2545.2787,N,07956.3999,W,1,8,1.6,19,M,,M,,*58
06/26/2015	06:08:28.530	$GPGGA,060829,2545.2780,N,07956.4003,W,1,8,1.6,19,M,,M,,*53
06/26/2015	06:08:29.997	$GPGGA,060830,2545.2771,N,07956.4007,W,1,8,1.6,19,M,,M,,*51
06/26/2015	06:08:30.520	$GPGGA,060831,2545.2762,N,07956.4010,W,1,8,1.6,19,M,,M,,*54
06/26/2015	06:08:31.570	$GPGGA,060832,2545.2755,N,07956.4012,W,1,8,1.6,19,M,,M,,*51
06/26/2015	06:08:32.520	$GPGGA,060833,2545.2746,N,07956.4017,W,1,8,1.6,19,M,,M,,*57
06/26/2015	06:08:33.511	$GPGGA,060834,2545.2738,N,07956.4019,W,1,8,1.6,18,M,,M,,*56
06/26/2015	06:08:34.520	$GPGGA,060835,2545.2730,N,07956.4022,W,1,8,1.5,18,M,,M,,*54
06/26/2015	06:08:36.530	$GPGGA,060836,2545.2723,N,07956.4025,W,1,9,1.5,18,M,,M,,*53
06/26/2015	06:08:36.560	$GPGGA,060837,2545.2715,N,07956.4028,W,1,9,1.5,18,M,,M,,*5A
06/26/2015	06:08:37.520	$GPGGA,060838,2545.2706,N,07956.4032,W,1,9,1.5,18,M,,M,,*5C
06/26/2015	06:08:38.600	$GPGGA,060839,2545.2698,N,07956.4035,W,1,9,1.5,18,M,,M,,*5C
06/26/2015	06:08:39.520	$GPGGA,060840,2545.2690,N,07956.4039,W,1,9,1.5,18,M,,M,,*56
06/26/2015	06:08:40.500	$GPGGA,060841,2545.2682,N,07956.4043,W,1,9,1.5,18,M,,M,,*59
06/26/2015	06:08:41.520	$GPGGA,060842,2545.2674,N,07956.4046,W,1,9,1.5,18,M,,M,,*56
06/26/2015	06:08:42.593	$GPGGA,060843,2545.2665,N,07956.4050,W,1,9,1.5,18,M,,M,,*50
06/26/2015	06:08:43.910	$GPGGA,060844,2545.2657,N,07956.4053,W,1,9,1.5,18,M,,M,,*55
06/26/2015	06:08:44.610	$GPGGA,060845,2545.2648,N,07956.4057,W,1,9,1.5,18,M,,M,,*5E
06/26/2015	06:08:45.580	$GPGGA,060846,2545.2641,N,07956.4061,W,1,9,1.5,17,M,,M,,*5E
06/26/2015	06:08:46.500	$GPGGA,060847,2545.2633,N,07956.4064,W,1,9,1.5,17,M,,M,,*5F
06/26/2015	06:08:47.510	$GPGGA,060848,2545.2625,N,07956.4068,W,1,8,1.8,17,M,,M,,*57
06/26/2015	06:08:48.600	$GPGGA,060849,2545.2617,N,07956.4072,W,1,8,1.8,17,M,,M,,*5C
06/26/2015	06:08:49.600	$GPGGA,060850,2545.2608,N,07956.4075,W,1,8,1.8,17,M,,M,,*5D
06/26/2015	06:08:50.483	$GPGGA,060851,2545.2600,N,07956.4079,W,1,8,1.8,17,M,,M,,*58
06/26/2015	06:08:51.596	$GPGGA,060852,2545.2592,N,07956.4083,W,1,8,1.8,17,M,,M,,*56
06/26/2015	06:08:52.480	$GPGGA,060853,2545.2583,N,07956.4087,W,1,8,1.8,17,M,,M,,*53
06/26/2015	06:08:53.592	$GPGGA,060854,2545.2575,N,07956.4091,W,1,8,1.8,17,M,,M,,*5A
06/26/2015	06:08:54.570	$GPGGA,060855,2545.2568,N,07956.4097,W,1,8,1.8,17,M,,M,,*51
06/26/2015	06:08:55.620	$GPGGA,060856,2545.2560,N,07956.4100,W,1,8,1.8,17,M,,M,,*55
06/26/2015	06:08:56.570	$GPGGA,060857,2545.2553,N,07956.4101,W,1,8,1.8,17,M,,M,,*55
06/26/2015	06:08:57.583	$GPGGA,060858,2545.2546,N,07956.4104,W,1,7,2.9,17,M,,M,,*56
06/26/2015	06:08:58.571	$GPGGA,060859,2545.2539,N,07956.4104,W,1,7,2.9,17,M,,M,,*5F
06/26/2015	06:08:59.610	$GPGGA,060900,2545.2529,N,07956.4112,W,1,8,1.8,16,M,,M,,*58
06/26/2015	06:09:00.550	$GPGGA,060901,2545.2520,N,07956.4119,W,1,8,1.8,16,M,,M,,*5B
06/26/2015	06:09:01.570	$GPGGA,060902,2545.2513,N,07956.4124,W,1,8,1.8,16,M,,M,,*56
06/26/2015	06:09:02.550	$GPGGA,060903,2545.2503,N,07956.4129,W,1,8,1.8,16,M,,M,,*5B
06/26/2015	06:09:03.592	$GPGGA,060904,2545.2495,N,07956.4136,W,1,8,1.8,16,M,,M,,*5C
06/26/2015	06:09:04.550	$GPGGA,060905,2545.2487,N,07956.4140,W,1,8,1.8,16,M,,M,,*5F
06/26/2015	06:09:05.570	$GPGGA,060906,2545.2480,N,07956.4144,W,1,8,1.8,16,M,,M,,*5F
06/26/2015	06:09:06.550	$GPGGA,060907,2545.2471,N,07956.4149,W,1,8,1.8,16,M,,M,,*5D
06/26/2015	06:09:07.590	$GPGGA,060908,2545.2463,N,07956.4154,W,1,8,1.8,16,M,,M,,*5D
06/26/2015	06:09:08.531	$GPGGA,060909,2545.2455,N,07956.4158,W,1,8,1.8,17,M,,M,,*54
06/26/2015	06:09:09.550	$GPGGA,060910,2545.2448,N,07956.4162,W,1,8,1.8,17,M,,M,,*59
06/26/2015	06:09:10.540	$GPGGA,060911,2545.2440,N,07956.4166,W,1,8,1.8,17,M,,M,,*54
06/26/2015	06:09:11.570	$GPGGA,060912,2545.2432,N,07956.4171,W,1,8,1.8,17,M,,M,,*54
06/26/2015	06:09:12.530	$GPGGA,060913,2545.2424,N,07956.4176,W,1,8,1.8,17,M,,M,,*55
06/26/2015	06:09:13.520	$GPGGA,060914,2545.2417,N,07956.4180,W,1,8,1.8,17,M,,M,,*5B
06/26/2015	06:09:14.540	$GPGGA,060915,2545.2409,N,07956.4184,W,1,8,1.5,17,M,,M,,*5C
06/26/2015	06:09:15.570	$GPGGA,060916,2545.2401,N,07956.4187,W,1,9,1.5,17,M,,M,,*55
06/26/2015	06:09:16.540	$GPGGA,060917,2545.2392,N,07956.4191,W,1,9,1.5,17,M,,M,,*5E
06/26/2015	06:09:17.550	$GPGGA,060918,2545.2384,N,07956.4194,W,1,9,1.5,17,M,,M,,*53
06/26/2015	06:09:18.520	$GPGGA,060919,2545.2376,N,07956.4198,W,1,9,1.6,17,M,,M,,*50
06/26/2015	06:09:19.560	$GPGGA,060920,2545.2369,N,07956.4202,W,1,9,1.5,17,M,,M,,*57
06/26/2015	06:09:20.610	$GPGGA,060921,2545.2362,N,07956.4205,W,1,9,1.8,17,M,,M,,*57
06/26/2015	06:09:21.540	$GPGGA,060922,2545.2354,N,07956.4207,W,1,9,1.5,17,M,,M,,*5E
06/26/2015	06:09:22.520	$GPGGA,060923,2545.2348,N,07956.4209,W,1,9,1.8,17,M,,M,,*51
06/26/2015	06:09:23.630	$GPGGA,060924,2545.2340,N,07956.4212,W,1,7,2.9,17,M,,M,,*58
06/26/2015	06:09:24.510	$GPGGA,060925,2545.2333,N,07956.4216,W,1,7,1.6,17,M,,M,,*55
06/26/2015	06:09:25.495	$GPGGA,060926,2545.2325,N,07956.4220,W,1,8,1.6,17,M,,M,,*5B
06/26/2015	06:09:26.501	$GPGGA,060927,2545.2316,N,07956.4224,W,1,8,1.6,17,M,,M,,*5E
06/26/2015	06:09:27.530	$GPGGA,060928,2545.2309,N,07956.4227,W,1,8,1.6,17,M,,M,,*5C
06/26/2015	06:09:28.510	$GPGGA,060929,2545.2301,N,07956.4230,W,1,8,1.6,17,M,,M,,*53
06/26/2015	06:09:29.620	$GPGGA,060930,2545.2293,N,07956.4234,W,1,8,1.6,17,M,,M,,*55
06/26/2015	06:09:30.500	$GPGGA,060931,2545.2286,N,07956.4238,W,1,8,1.6,17,M,,M,,*5C
06/26/2015	06:09:31.500	$GPGGA,060932,2545.2278,N,07956.4241,W,1,8,1.6,17,M,,M,,*50
06/26/2015	06:09:32.494	$GPGGA,060933,2545.2271,N,07956.4245,W,1,8,1.6,17,M,,M,,*5C
06/26/2015	06:09:33.500	$GPGGA,060934,2545.2262,N,07956.4248,W,1,8,1.6,17,M,,M,,*54
06/26/2015	06:09:34.583	$GPGGA,060935,2545.2254,N,07956.4250,W,1,8,1.6,17,M,,M,,*59
06/26/2015	06:09:35.500	$GPGGA,060936,2545.2246,N,07956.4253,W,1,8,1.6,17,M,,M,,*5A
06/26/2015	06:09:36.494	$GPGGA,060937,2545.2238,N,07956.4256,W,1,8,1.6,17,M,,M,,*57
06/26/2015	06:09:37.482	$GPGGA,060938,2545.2231,N,07956.4259,W,1,8,1.6,17,M,,M,,*5E
06/26/2015	06:09:38.570	$GPGGA,060939,2545.2224,N,07956.4261,W,1,8,1.5,17,M,,M,,*53
06/26/2015	06:09:39.494	$GPGGA,060940,2545.2215,N,07956.4266,W,1,8,1.6,17,M,,M,,*5B
06/26/2015	06:09:40.570	$GPGGA,060941,2545.2207,N,07956.4267,W,1,8,1.6,17,M,,M,,*58
06/26/2015	06:09:41.600	$GPGGA,060942,2545.2198,N,07956.4270,W,1,8,1.6,17,M,,M,,*58
06/26/2015	06:09:42.570	$GPGGA,060943,2545.2191,N,07956.4274,W,1,8,1.6,17,M,,M,,*54
06/26/2015	06:09:43.581	$GPGGA,060944,2545.2182,N,07956.4277,W,1,8,1.6,17,M,,M,,*52
06/26/2015	06:09:44.570	$GPGGA,060945,2545.2174,N,07956.4279,W,1,8,1.6,16,M,,M,,*55
06/26/2015	06:09:45.570	$GPGGA,060946,2545.2167,N,07956.4283,W,1,8,1.6,16,M,,M,,*51
06/26/2015	06:09:46.570	$GPGGA,060947,2545.2159,N,07956.4286,W,1,8,1.6,16,M,,M,,*58
06/26/2015	06:09:47.600	$GPGGA,060948,2545.2151,N,07956.4289,W,1,8,1.6,16,M,,M,,*50
06/26/2015	06:09:48.550	$GPGGA,060949,2545.2143,N,07956.4292,W,1,8,1.6,16,M,,M,,*58
06/26/2015	06:09:49.570	$GPGGA,060950,2545.2134,N,07956.4296,W,1,8,1.6,16,M,,M,,*54
06/26/2015	06:09:50.550	$GPGGA,060951,2545.2126,N,07956.4299,W,1,8,1.6,16,M,,M,,*59
06/26/2015	06:09:51.585	$GPGGA,060952,2545.2119,N,07956.4301,W,1,8,1.6,16,M,,M,,*56
06/26/2015	06:09:52.550	$GPGGA,060953,2545.2110,N,07956.4306,W,1,8,1.6,16,M,,M,,*59
06/26/2015	06:09:53.540	$GPGGA,060954,2545.2102,N,07956.4308,W,1,8,1.6,16,M,,M,,*53
06/26/2015	06:09:54.550	$GPGGA,060955,2545.2094,N,07956.4313,W,1,8,1.6,16,M,,M,,*56
06/26/2015	06:09:55.570	$GPGGA,060956,2545.2085,N,07956.4315,W,1,8,1.6,16,M,,M,,*53
06/26/2015	06:09:56.540	$GPGGA,060957,2545.2079,N,07956.4319,W,1,8,1.6,16,M,,M,,*5D
06/26/2015	06:09:57.530	$GPGGA,060958,2545.2070,N,07956.4324,W,1,9,1.5,16,M,,M,,*57
06/26/2015	06:09:59.010	$GPGGA,060959,2545.2061,N,07956.4326,W,1,9,1.5,15,M,,M,,*57
06/26/2015	06:09:59.580	$GPGGA,061000,2545.2054,N,07956.4331,W,1,9,1.5,15,M,,M,,*53
06/26/2015	06:10:00.541	$GPGGA,061001,2545.2045,N,07956.4333,W,1,9,1.5,15,M,,M,,*50
06/26/2015	06:10:01.551	$GPGGA,061002,2545.2037,N,07956.4337,W,1,9,1.5,15,M,,M,,*52
06/26/2015	06:10:02.530	$GPGGA,061003,2545.2029,N,07956.4342,W,1,9,1.5,15,M,,M,,*5E
06/26/2015	06:10:03.550	$GPGGA,061004,2545.2020,N,07956.4346,W,1,9,1.5,15,M,,M,,*54
06/26/2015	06:10:04.530	$GPGGA,061005,2545.2012,N,07956.4350,W,1,9,1.5,15,M,,M,,*53
06/26/2015	06:10:05.550	$GPGGA,061006,2545.2004,N,07956.4354,W,1,9,1.5,15,M,,M,,*53
06/26/2015	06:10:06.520	$GPGGA,061007,2545.1996,N,07956.4357,W,1,9,1.5,15,M,,M,,*50
06/26/2015	06:10:07.560	$GPGGA,061008,2545.1987,N,07956.4361,W,1,9,1.5,15,M,,M,,*5A
06/26/2015	06:10:08.510	$GPGGA,061009,2545.1980,N,07956.4365,W,1,9,1.5,15,M,,M,,*58
06/26/2015	06:10:09.510	$GPGGA,061010,2545.1971,N,07956.4369,W,1,9,1.5,15,M,,M,,*52
06/26/2015	06:10:10.520	$GPGGA,061011,2545.1964,N,07956.4373,W,1,9,1.5,15,M,,M,,*5C
06/26/2015	06:10:11.550	$GPGGA,061012,2545.1955,N,07956.4378,W,1,9,1.5,15,M,,M,,*56
06/26/2015	06:10:12.590	$GPGGA,061013,2545.1947,N,07956.4382,W,1,9,1.5,15,M,,M,,*51
06/26/2015	06:10:13.620	$GPGGA,061014,2545.1939,N,07956.4386,W,1,9,1.5,16,M,,M,,*58
06/26/2015	06:10:14.501	$GPGGA,061015,2545.1932,N,07956.4391,W,1,9,1.5,16,M,,M,,*54
06/26/2015	06:10:15.590	$GPGGA,061016,2545.1924,N,07956.4395,W,1,9,1.5,16,M,,M,,*54
06/26/2015	06:10:16.490	$GPGGA,061017,2545.1917,N,07956.4400,W,1,9,1.5,16,M,,M,,*5E
06/26/2015	06:10:17.590	$GPGGA,061018,2545.1907,N,07956.4402,W,1,8,1.8,16,M,,M,,*5E
06/26/2015	06:10:18.885	$GPGGA,061019,2545.1900,N,07956.4408,W,1,8,1.8,16,M,,M,,*52
06/26/2015	06:10:19.599	$GPGGA,061020,2545.1892,N,07956.4413,W,1,9,1.5,16,M,,M,,*54
06/26/2015	06:10:20.579	$GPGGA,061021,2545.1884,N,07956.4418,W,1,9,1.5,16,M,,M,,*59
06/26/2015	06:10:21.589	$GPGGA,061022,2545.1877,N,07956.4422,W,1,9,1.5,16,M,,M,,*5F
06/26/2015	06:10:22.569	$GPGGA,061023,2545.1868,N,07956.4427,W,1,9,1.5,16,M,,M,,*55
06/26/2015	06:10:23.599	$GPGGA,061024,2545.1861,N,07956.4433,W,1,9,1.5,16,M,,M,,*5E
06/26/2015	06:10:24.569	$GPGGA,061025,2545.1853,N,07956.4437,W,1,9,1.5,16,M,,M,,*5A
06/26/2015	06:10:25.599	$GPGGA,061026,2545.1845,N,07956.4443,W,1,9,1.5,16,M,,M,,*5D
06/26/2015	06:10:26.569	$GPGGA,061027,2545.1838,N,07956.4447,W,1,9,1.5,16,M,,M,,*52
06/26/2015	06:10:27.483	$GPGGA,061028,2545.1830,N,07956.4452,W,1,9,1.5,16,M,,M,,*51
06/26/2015	06:10:28.470	$GPGGA,061029,2545.1823,N,07956.4458,W,1,9,1.6,16,M,,M,,*5B
06/26/2015	06:10:29.582	$GPGGA,061030,2545.1816,N,07956.4460,W,1,8,1.6,16,M,,M,,*5F
06/26/2015	06:10:30.560	$GPGGA,061031,2545.1809,N,07956.4463,W,1,8,1.5,17,M,,M,,*51
06/26/2015	06:10:31.590	$GPGGA,061032,2545.1802,N,07956.4467,W,1,9,1.5,17,M,,M,,*5C
06/26/2015	06:10:32.572	$GPGGA,061033,2545.1795,N,07956.4470,W,1,9,1.5,17,M,,M,,*5A
06/26/2015	06:10:33.543	$GPGGA,061034,2545.1787,N,07956.4474,W,1,9,1.5,17,M,,M,,*5A
06/26/2015	06:10:34.560	$GPGGA,061035,2545.1779,N,07956.4477,W,1,9,1.5,17,M,,M,,*59
06/26/2015	06:10:35.590	$GPGGA,061036,2545.1772,N,07956.4480,W,1,9,1.5,18,M,,M,,*56
06/26/2015	06:10:36.540	$GPGGA,061037,2545.1765,N,07956.4484,W,1,9,1.5,18,M,,M,,*55
06/26/2015	06:10:37.569	$GPGGA,061038,2545.1756,N,07956.4487,W,1,8,1.6,18,M,,M,,*5B
06/26/2015	06:10:38.539	$GPGGA,061039,2545.1749,N,07956.4491,W,1,8,1.5,18,M,,M,,*50
06/26/2015	06:10:39.609	$GPGGA,061040,2545.1741,N,07956.4494,W,1,8,1.6,18,M,,M,,*50
06/26/2015	06:10:40.539	$GPGGA,061041,2545.1734,N,07956.4498,W,1,8,1.6,18,M,,M,,*5F
06/26/2015	06:10:41.529	$GPGGA,061042,2545.1726,N,07956.4501,W,1,8,1.6,18,M,,M,,*5E
06/26/2015	06:10:42.539	$GPGGA,061043,2545.1718,N,07956.4505,W,1,8,1.5,19,M,,M,,*54
06/26/2015	06:10:43.579	$GPGGA,061044,2545.1709,N,07956.4509,W,1,9,1.5,19,M,,M,,*5E
06/26/2015	06:10:44.529	$GPGGA,061045,2545.1701,N,07956.4512,W,1,9,1.5,19,M,,M,,*5D
06/26/2015	06:10:45.951	$GPGGA,061046,2545.1693,N,07956.4516,W,1,9,1.5,19,M,,M,,*50
06/26/2015	06:10:46.540	$GPGGA,061047,2545.1684,N,07956.4520,W,1,9,1.6,19,M,,M,,*51
06/26/2015	06:10:47.570	$GPGGA,061048,2545.1675,N,07956.4523,W,1,9,1.5,19,M,,M,,*50
06/26/2015	06:10:48.520	$GPGGA,061049,2545.1667,N,07956.4525,W,1,9,1.5,19,M,,M,,*54
06/26/2015	06:10:49.520	$GPGGA,061050,2545.1660,N,07956.4528,W,1,8,1.6,19,M,,M,,*54
06/26/2015	06:10:50.530	$GPGGA,061051,2545.1653,N,07956.4531,W,1,8,1.5,19,M,,M,,*5E
06/26/2015	06:10:51.550	$GPGGA,061052,2545.1644,N,07956.4535,W,1,9,1.5,19,M,,M,,*5E
06/26/2015	06:10:52.520	$GPGGA,061053,2545.1635,N,07956.4539,W,1,9,1.5,19,M,,M,,*55
06/26/2015	06:10:53.510	$GPGGA,061054,2545.1626,N,07956.4542,W,1,9,1.5,19,M,,M,,*5C
06/26/2015	06:10:54.519	$GPGGA,061055,2545.1617,N,07956.4546,W,1,9,1.5,19,M,,M,,*5B
06/26/2015	06:10:55.529	$GPGGA,061056,2545.1608,N,07956.4550,W,1,9,1.5,19,M,,M,,*51
06/26/2015	06:10:56.519	$GPGGA,061057,2545.1600,N,07956.4553,W,1,9,1.5,19,M,,M,,*5B
06/26/2015	06:10:57.519	$GPGGA,061058,2545.1591,N,07956.4556,W,1,9,1.5,20,M,,M,,*50
06/26/2015	06:10:58.509	$GPGGA,061059,2545.1582,N,07956.4560,W,1,9,1.5,20,M,,M,,*56
06/26/2015	06:10:59.669	$GPGGA,061100,2545.1574,N,07956.4563,W,1,9,1.5,20,M,,M,,*51
06/26/2015	06:11:00.619	$GPGGA,061101,2545.1566,N,07956.4566,W,1,9,1.5,20,M,,M,,*56
06/26/2015	06:11:01.589	$GPGGA,061102,2545.1557,N,07956.4570,W,1,9,1.5,20,M,,M,,*50
06/26/2015	06:11:02.599	$GPGGA,061103,2545.1548,N,07956.4572,W,1,9,1.5,20,M,,M,,*5D
06/26/2015	06:11:03.500	$GPGGA,061104,2545.1541,N,07956.4575,W,1,9,1.5,20,M,,M,,*54
06/26/2015	06:11:04.500	$GPGGA,061105,2545.1531,N,07956.4578,W,1,9,1.5,20,M,,M,,*5F
06/26/2015	06:11:05.610	$GPGGA,061106,2545.1523,N,07956.4582,W,1,9,1.5,20,M,,M,,*5A
06/26/2015	06:11:06.590	$GPGGA,061107,2545.1516,N,07956.4585,W,1,9,1.5,20,M,,M,,*5A
06/26/2015	06:11:07.520	$GPGGA,061108,2545.1507,N,07956.4588,W,1,9,1.5,20,M,,M,,*58
06/26/2015	06:11:08.500	$GPGGA,061109,2545.1498,N,07956.4592,W,1,9,1.5,20,M,,M,,*55
06/26/2015	06:11:09.580	$GPGGA,061110,2545.1490,N,07956.4595,W,1,9,1.5,20,M,,M,,*52
06/26/2015	06:11:10.580	$GPGGA,061111,2545.1483,N,07956.4599,W,1,9,1.5,19,M,,M,,*57
06/26/2015	06:11:11.600	$GPGGA,061112,2545.1474,N,07956.4602,W,1,9,1.6,19,M,,M,,*5E
06/26/2015	06:11:12.599	$GPGGA,061113,2545.1467,N,07956.4603,W,1,9,1.6,19,M,,M,,*5C
06/26/2015	06:11:13.599	$GPGGA,061114,2545.1460,N,07956.4606,W,1,8,1.6,19,M,,M,,*58
06/26/2015	06:11:15.129	$GPGGA,061115,2545.1452,N,07956.4610,W,1,8,1.5,19,M,,M,,*5C
06/26/2015	06:11:15.589	$GPGGA,061116,2545.1444,N,07956.4613,W,1,9,1.5,19,M,,M,,*5A
06/26/2015	06:11:16.569	$GPGGA,061117,2545.1436,N,07956.4617,W,1,9,1.5,19,M,,M,,*5A
06/26/2015	06:11:17.981	$GPGGA,061118,2545.1429,N,07956.4621,W,1,9,1.5,19,M,,M,,*5E
06/26/2015	06:11:18.572	$GPGGA,061119,2545.1420,N,07956.4624,W,1,9,1.5,19,M,,M,,*53
06/26/2015	06:11:19.639	$GPGGA,061120,2545.1412,N,07956.4628,W,1,9,1.5,19,M,,M,,*54
06/26/2015	06:11:20.572	$GPGGA,061121,2545.1404,N,07956.4632,W,1,9,1.5,19,M,,M,,*59
06/26/2015	06:11:21.572	$GPGGA,061122,2545.1397,N,07956.4636,W,1,9,1.5,19,M,,M,,*53
06/26/2015	06:11:22.560	$GPGGA,061123,2545.1390,N,07956.4639,W,1,9,1.6,19,M,,M,,*59
06/26/2015	06:11:23.590	$GPGGA,061124,2545.1383,N,07956.4642,W,1,8,1.5,19,M,,M,,*52
06/26/2015	06:11:24.550	$GPGGA,061125,2545.1376,N,07956.4646,W,1,8,1.5,18,M,,M,,*5C
06/26/2015	06:11:25.572	$GPGGA,061126,2545.1368,N,07956.4650,W,1,9,1.5,18,M,,M,,*56
06/26/2015	06:11:26.550	$GPGGA,061127,2545.1360,N,07956.4653,W,1,9,1.5,18,M,,M,,*5C
06/26/2015	06:11:27.571	$GPGGA,061128,2545.1353,N,07956.4657,W,1,9,1.5,18,M,,M,,*57
06/26/2015	06:11:28.550	$GPGGA,061129,2545.1344,N,07956.4661,W,1,9,1.5,18,M,,M,,*55
06/26/2015	06:11:29.572	$GPGGA,061130,2545.1336,N,07956.4667,W,1,9,1.5,18,M,,M,,*5E
06/26/2015	06:11:30.539	$GPGGA,061131,2545.1328,N,07956.4671,W,1,9,1.5,18,M,,M,,*57
06/26/2015	06:11:31.569	$GPGGA,061132,2545.1320,N,07956.4675,W,1,9,1.5,18,M,,M,,*58
06/26/2015	06:11:32.529	$GPGGA,061133,2545.1313,N,07956.4680,W,1,9,1.5,18,M,,M,,*53
06/26/2015	06:11:33.549	$GPGGA,061134,2545.1306,N,07956.4684,W,1,9,1.6,18,M,,M,,*57
06/26/2015	06:11:34.989	$GPGGA,061135,2545.1295,N,07956.4689,W,1,9,1.5,18,M,,M,,*53
06/26/2015	06:11:35.570	$GPGGA,061136,2545.1288,N,07956.4696,W,1,9,1.5,18,M,,M,,*52
06/26/2015	06:11:36.529	$GPGGA,061137,2545.1278,N,07956.4700,W,1,9,1.5,18,M,,M,,*52
06/26/2015	06:11:37.549	$GPGGA,061138,2545.1270,N,07956.4705,W,1,9,1.5,18,M,,M,,*50
06/26/2015	06:11:38.520	$GPGGA,061139,2545.1263,N,07956.4711,W,1,9,1.5,18,M,,M,,*56
06/26/2015	06:11:39.574	$GPGGA,061140,2545.1254,N,07956.4715,W,1,9,1.5,18,M,,M,,*58
06/26/2015	06:11:41.572	$GPGGA,061142,2545.1236,N,07956.4725,W,1,8,1.5,18,M,,M,,*5C
06/26/2015	06:11:42.520	$GPGGA,061143,2545.1228,N,07956.4730,W,1,8,1.5,18,M,,M,,*56
06/26/2015	06:11:43.573	$GPGGA,061144,2545.1220,N,07956.4734,W,1,9,1.5,18,M,,M,,*5C
06/26/2015	06:11:44.600	$GPGGA,061145,2545.1212,N,07956.4738,W,1,9,1.5,18,M,,M,,*50
06/26/2015	06:11:45.500	$GPGGA,061146,2545.1205,N,07956.4743,W,1,9,1.5,18,M,,M,,*59
06/26/2015	06:11:46.620	$GPGGA,061147,2545.1198,N,07956.4747,W,1,9,1.5,18,M,,M,,*5B
06/26/2015	06:11:47.649	$GPGGA,061148,2545.1190,N,07956.4749,W,1,9,1.5,18,M,,M,,*52
06/26/2015	06:11:48.589	$GPGGA,061149,2545.1182,N,07956.4754,W,1,9,1.5,18,M,,M,,*5C
06/26/2015	06:11:49.489	$GPGGA,061150,2545.1176,N,07956.4758,W,1,9,1.5,18,M,,M,,*53
06/26/2015	06:11:50.519	$GPGGA,061151,2545.1169,N,07956.4762,W,1,9,1.5,18,M,,M,,*55
06/26/2015	06:11:51.599	$GPGGA,061152,2545.1160,N,07956.4765,W,1,9,1.5,18,M,,M,,*58
06/26/2015	06:11:52.599	$GPGGA,061153,2545.1152,N,07956.4769,W,1,9,1.5,18,M,,M,,*54
06/26/2015	06:11:53.519	$GPGGA,061154,2545.1144,N,07956.4772,W,1,9,1.5,18,M,,M,,*5E
06/26/2015	06:11:54.482	$GPGGA,061155,2545.1137,N,07956.4774,W,1,9,1.6,18,M,,M,,*5E
06/26/2015	06:11:55.529	$GPGGA,061156,2545.1130,N,07956.4777,W,1,8,1.6,18,M,,M,,*58
06/26/2015	06:11:56.600	$GPGGA,061157,2545.1122,N,07956.4780,W,1,8,1.6,18,M,,M,,*52
06/26/2015	06:11:57.610	$GPGGA,061158,2545.1122,N,07956.4780,W,1,8,1.6,18,M,,M,,*5D
