Software Version Number: 1	Data File Format Number: 1	Build Version Number: 1	Error Count Since VI Started: 3	Manufacturer: Raytheon	 Model Number: RayMarine 120	 S/N: 	 Cal Date: 	 Wind Direction Offset: 0.00	 Slope (M)1: 0.00	 Offset (B)1: 0.00	 Slope (M)2: 0.00	 Offset (B)2: 0.00	 Slope (M)3: 0.00	 Offset (B)3: 0.00	 Slope (M)4: 0.00	 Offset (B)4: 0.00	 Slope (M)5: 0.00	 Offset (B)5: 0.00	 Slope (M)6: 0.00	 Offset (B)6: 0.00
Computer Date	Computer Time	GGA String
06/26/2015	03:00:00.570	$GPGGA,030001,2554.2628,N,07952.6257,W,1,9,1.6,15,M,,M,,*5F
06/26/2015	03:00:01.600	$GPGGA,030002,2554.2621,N,07952.6259,W,1,9,1.6,15,M,,M,,*5B
06/26/2015	03:00:02.570	$GPGGA,030003,2554.2614,N,07952.6264,W,1,9,1.6,15,M,,M,,*52
06/26/2015	03:00:03.589	$GPGGA,030004,2554.2607,N,07952.6266,W,1,9,1.6,15,M,,M,,*55
06/26/2015	03:00:04.579	$GPGGA,030005,2554.2598,N,07952.6270,W,1,9,1.6,15,M,,M,,*56
06/26/2015	03:00:05.579	$GPGGA,030006,2554.2592,N,07952.6273,W,1,9,1.6,15,M,,M,,*5C
06/26/2015	03:00:06.569	$GPGGA,030007,2554.2585,N,07952.6276,W,1,9,1.6,15,M,,M,,*5E
06/26/2015	03:00:07.599	$GPGGA,030008,2554.2578,N,07952.6279,W,1,9,1.6,15,M,,M,,*5C
06/26/2015	03:00:08.569	$GPGGA,030009,2554.2569,N,07952.6283,W,1,9,1.6,15,M,,M,,*58
06/26/2015	03:00:09.579	$GPGGA,030010,2554.2562,N,07952.6286,W,1,9,1.6,15,M,,M,,*5E
06/26/2015	03:00:10.549	$GPGGA,030011,2554.2554,N,07952.6290,W,1,9,1.6,15,M,,M,,*5D
06/26/2015	03:00:11.625	$GPGGA,030012,2554.2547,N,07952.6293,W,1,9,1.6,15,M,,M,,*5F
06/26/2015	03:00:12.549	$GPGGA,030013,2554.2539,N,07952.6295,W,1,9,1.6,15,M,,M,,*51
06/26/2015	03:00:13.569	$GPGGA,030014,2554.2531,N,07952.6300,W,1,9,1.6,15,M,,M,,*53
06/26/2015	03:00:14.539	$GPGGA,030015,2554.2524,N,07952.6301,W,1,9,1.6,15,M,,M,,*57
06/26/2015	03:00:15.580	$GPGGA,030016,2554.2516,N,07952.6304,W,1,9,1.6,15,M,,M,,*50
06/26/2015	03:00:16.550	$GPGGA,030017,2554.2509,N,07952.6306,W,1,9,1.6,15,M,,M,,*5D
06/26/2015	03:00:17.530	$GPGGA,030018,2554.2502,N,07952.6309,W,1,9,1.6,15,M,,M,,*56
06/26/2015	03:00:18.550	$GPGGA,030019,2554.2495,N,07952.6311,W,1,9,1.6,15,M,,M,,*51
06/26/2015	03:00:19.580	$GPGGA,030020,2554.2487,N,07952.6315,W,1,9,1.6,15,M,,M,,*5C
06/26/2015	03:00:20.539	$GPGGA,030021,2554.2480,N,07952.6318,W,1,9,1.6,15,M,,M,,*57
06/26/2015	03:00:21.549	$GPGGA,030022,2554.2471,N,07952.6319,W,1,9,1.6,15,M,,M,,*5B
06/26/2015	03:00:22.529	$GPGGA,030023,2554.2463,N,07952.6322,W,1,9,1.6,15,M,,M,,*51
06/26/2015	03:00:23.549	$GPGGA,030024,2554.2456,N,07952.6324,W,1,9,1.6,15,M,,M,,*56
06/26/2015	03:00:24.529	$GPGGA,030025,2554.2449,N,07952.6327,W,1,9,1.6,15,M,,M,,*5A
06/26/2015	03:00:25.539	$GPGGA,030026,2554.2441,N,07952.6329,W,1,9,1.6,15,M,,M,,*5F
06/26/2015	03:00:26.539	$GPGGA,030027,2554.2434,N,07952.6333,W,1,9,1.6,15,M,,M,,*57
06/26/2015	03:00:27.599	$GPGGA,030028,2554.2427,N,07952.6335,W,1,9,1.6,15,M,,M,,*5C
06/26/2015	03:00:28.519	$GPGGA,030029,2554.2419,N,07952.6337,W,1,9,1.6,15,M,,M,,*52
06/26/2015	03:00:29.513	$GPGGA,030030,2554.2412,N,07952.6340,W,1,9,1.6,15,M,,M,,*51
06/26/2015	03:00:30.529	$GPGGA,030031,2554.2404,N,07952.6342,W,1,9,1.6,15,M,,M,,*55
06/26/2015	03:00:31.623	$GPGGA,030032,2554.2397,N,07952.6345,W,1,9,1.6,15,M,,M,,*5C
06/26/2015	03:00:32.519	$GPGGA,030033,2554.2390,N,07952.6348,W,1,9,1.6,15,M,,M,,*57
06/26/2015	03:00:33.630	$GPGGA,030034,2554.2383,N,07952.6351,W,1,9,1.6,15,M,,M,,*5A
06/26/2015	03:00:34.530	$GPGGA,030035,2554.2375,N,07952.6353,W,1,9,1.6,15,M,,M,,*50
06/26/2015	03:00:35.611	$GPGGA,030036,2554.2367,N,07952.6356,W,1,9,1.6,15,M,,M,,*55
06/26/2015	03:00:36.590	$GPGGA,030037,2554.2361,N,07952.6358,W,1,9,1.6,15,M,,M,,*5C
06/26/2015	03:00:37.590	$GPGGA,030038,2554.2352,N,07952.6362,W,1,9,1.6,15,M,,M,,*5A
06/26/2015	03:00:38.509	$GPGGA,030039,2554.2345,N,07952.6365,W,1,9,1.6,15,M,,M,,*5A
06/26/2015	03:00:39.559	$GPGGA,030040,2554.2338,N,07952.6367,W,1,9,1.6,15,M,,M,,*5C
06/26/2015	03:00:40.589	$GPGGA,030041,2554.2330,N,07952.6370,W,1,9,1.6,15,M,,M,,*53
06/26/2015	03:00:41.499	$GPGGA,030042,2554.2323,N,07952.6373,W,1,9,1.6,15,M,,M,,*51
06/26/2015	03:00:42.579	$GPGGA,030043,2554.2315,N,07952.6376,W,1,9,1.6,15,M,,M,,*50
06/26/2015	03:00:43.629	$GPGGA,030044,2554.2307,N,07952.6380,W,1,9,1.6,15,M,,M,,*5D
06/26/2015	03:00:44.589	$GPGGA,030045,2554.2300,N,07952.6383,W,1,9,1.6,15,M,,M,,*58
06/26/2015	03:00:45.489	$GPGGA,030046,2554.2293,N,07952.6385,W,1,9,1.6,15,M,,M,,*56
06/26/2015	03:00:46.499	$GPGGA,030047,2554.2285,N,07952.6389,W,1,9,1.6,15,M,,M,,*5C
06/26/2015	03:00:47.609	$GPGGA,030048,2554.2278,N,07952.6392,W,1,9,1.6,15,M,,M,,*5B
06/26/2015	03:00:48.569	$GPGGA,030049,2554.2271,N,07952.6395,W,1,9,1.6,15,M,,M,,*54
06/26/2015	03:00:49.599	$GPGGA,030050,2554.2263,N,07952.6399,W,1,9,1.6,15,M,,M,,*53
06/26/2015	03:00:50.570	$GPGGA,030051,2554.2256,N,07952.6402,W,1,9,1.6,15,M,,M,,*51
06/26/2015	03:00:51.620	$GPGGA,030052,2554.2249,N,07952.6406,W,1,9,1.6,15,M,,M,,*58
06/26/2015	03:00:52.570	$GPGGA,030053,2554.2242,N,07952.6409,W,1,9,1.6,15,M,,M,,*5D
06/26/2015	03:00:53.590	$GPGGA,030054,2554.2234,N,07952.6413,W,1,9,1.6,15,M,,M,,*50
06/26/2015	03:00:54.560	$GPGGA,030055,2554.2227,N,07952.6416,W,1,9,1.6,15,M,,M,,*56
06/26/2015	03:00:55.589	$GPGGA,030056,2554.2220,N,07952.6420,W,1,9,1.6,15,M,,M,,*57
06/26/2015	03:00:56.569	$GPGGA,030057,2554.2213,N,07952.6424,W,1,9,1.6,15,M,,M,,*52
06/26/2015	03:00:57.559	$GPGGA,030058,2554.2206,N,07952.6428,W,1,9,1.6,15,M,,M,,*55
06/26/2015	03:00:58.549	$GPGGA,030059,2554.2197,N,07952.6432,W,1,9,1.6,15,M,,M,,*54
06/26/2015	03:00:59.939	$GPGGA,030100,2554.2189,N,07952.6436,W,1,9,1.6,15,M,,M,,*52
06/26/2015	03:01:00.559	$GPGGA,030101,2554.2182,N,07952.6439,W,1,9,1.6,15,M,,M,,*57
06/26/2015	03:01:01.579	$GPGGA,030102,2554.2175,N,07952.6442,W,1,9,1.6,15,M,,M,,*50
06/26/2015	03:01:02.539	$GPGGA,030103,2554.2167,N,07952.6446,W,1,9,1.6,15,M,,M,,*56
06/26/2015	03:01:03.579	$GPGGA,030104,2554.2160,N,07952.6450,W,1,9,1.6,15,M,,M,,*51
06/26/2015	03:01:04.539	$GPGGA,030105,2554.2153,N,07952.6453,W,1,9,1.6,15,M,,M,,*53
06/26/2015	03:01:05.569	$GPGGA,030106,2554.2146,N,07952.6457,W,1,9,1.6,15,M,,M,,*50
06/26/2015	03:01:06.539	$GPGGA,030107,2554.2139,N,07952.6461,W,1,9,1.6,15,M,,M,,*5C
06/26/2015	03:01:07.559	$GPGGA,030108,2554.2131,N,07952.6464,W,1,9,1.6,15,M,,M,,*5E
06/26/2015	03:01:08.550	$GPGGA,030109,2554.2124,N,07952.6468,W,1,9,1.6,15,M,,M,,*57
06/26/2015	03:01:09.525	$GPGGA,030110,2554.2117,N,07952.6471,W,1,9,1.6,15,M,,M,,*57
06/26/2015	03:01:10.530	$GPGGA,030111,2554.2109,N,07952.6475,W,1,9,1.6,15,M,,M,,*5D
06/26/2015	03:01:11.560	$GPGGA,030112,2554.2102,N,07952.6478,W,1,9,1.6,15,M,,M,,*58
06/26/2015	03:01:12.531	$GPGGA,030113,2554.2095,N,07952.6481,W,1,9,1.6,15,M,,M,,*50
06/26/2015	03:01:13.524	$GPGGA,030114,2554.2087,N,07952.6485,W,1,9,1.6,15,M,,M,,*50
06/26/2015	03:01:14.527	$GPGGA,030115,2554.2079,N,07952.6489,W,1,9,1.6,15,M,,M,,*5C
06/26/2015	03:01:15.539	$GPGGA,030116,2554.2072,N,07952.6492,W,1,9,1.6,15,M,,M,,*5E
06/26/2015	03:01:16.529	$GPGGA,030117,2554.2065,N,07952.6496,W,1,9,1.6,15,M,,M,,*5D
06/26/2015	03:01:17.549	$GPGGA,030118,2554.2057,N,07952.6499,W,1,9,1.6,15,M,,M,,*5C
06/26/2015	03:01:18.524	$GPGGA,030119,2554.2050,N,07952.6501,W,1,9,1.6,15,M,,M,,*5A
06/26/2015	03:01:19.649	$GPGGA,030120,2554.2043,N,07952.6504,W,1,9,1.6,15,M,,M,,*57
06/26/2015	03:01:20.524	$GPGGA,030121,2554.2036,N,07952.6507,W,1,9,1.6,15,M,,M,,*57
06/26/2015	03:01:21.629	$GPGGA,030122,2554.2029,N,07952.6510,W,1,9,1.6,15,M,,M,,*5C
06/26/2015	03:01:22.499	$GPGGA,030123,2554.2020,N,07952.6514,W,1,9,1.6,15,M,,M,,*50
06/26/2015	03:01:23.659	$GPGGA,030124,2554.2012,N,07952.6515,W,1,9,1.6,15,M,,M,,*57
06/26/2015	03:01:24.524	$GPGGA,030125,2554.2005,N,07952.6518,W,1,9,1.6,15,M,,M,,*5D
06/26/2015	03:01:25.600	$GPGGA,030126,2554.1997,N,07952.6521,W,1,9,1.6,15,M,,M,,*55
06/26/2015	03:01:26.490	$GPGGA,030127,2554.1990,N,07952.6525,W,1,9,1.6,15,M,,M,,*57
06/26/2015	03:01:27.522	$GPGGA,030128,2554.1983,N,07952.6526,W,1,9,1.6,15,M,,M,,*59
06/26/2015	03:01:28.490	$GPGGA,030129,2554.1975,N,07952.6529,W,1,9,1.6,15,M,,M,,*5E
06/26/2015	03:01:29.631	$GPGGA,030130,2554.1968,N,07952.6532,W,1,9,1.6,15,M,,M,,*50
06/26/2015	03:01:30.589	$GPGGA,030131,2554.1961,N,07952.6535,W,1,9,1.6,15,M,,M,,*5F
06/26/2015	03:01:31.649	$GPGGA,030132,2554.1953,N,07952.6537,W,1,9,1.6,15,M,,M,,*5F
06/26/2015	03:01:32.489	$GPGGA,030133,2554.1945,N,07952.6539,W,1,9,1.6,15,M,,M,,*57
06/26/2015	03:01:33.579	$GPGGA,030134,2554.1938,N,07952.6543,W,1,9,1.6,15,M,,M,,*57
06/26/2015	03:01:34.579	$GPGGA,030135,2554.1931,N,07952.6544,W,1,9,1.6,15,M,,M,,*58
06/26/2015	03:01:35.579	$GPGGA,030136,2554.1922,N,07952.6547,W,1,9,1.6,15,M,,M,,*5A
06/26/2015	03:01:36.569	$GPGGA,030137,2554.1915,N,07952.6550,W,1,9,1.6,15,M,,M,,*59
06/26/2015	03:01:37.579	$GPGGA,030138,2554.1908,N,07952.6553,W,1,9,1.6,15,M,,M,,*59
06/26/2015	03:01:38.579	$GPGGA,030139,2554.1900,N,07952.6555,W,1,9,1.6,15,M,,M,,*56
06/26/2015	03:01:39.579	$GPGGA,030140,2554.1893,N,07952.6557,W,1,9,1.6,15,M,,M,,*51
06/26/2015	03:01:40.569	$GPGGA,030141,2554.1885,N,07952.6561,W,1,9,1.6,15,M,,M,,*52
06/26/2015	03:01:41.579	$GPGGA,030142,2554.1878,N,07952.6564,W,1,9,1.6,15,M,,M,,*56
06/26/2015	03:01:42.569	$GPGGA,030143,2554.1870,N,07952.6566,W,1,9,1.6,15,M,,M,,*5D
06/26/2015	03:01:43.570	$GPGGA,030144,2554.1863,N,07952.6569,W,1,9,1.6,15,M,,M,,*57
06/26/2015	03:01:44.560	$GPGGA,030145,2554.1855,N,07952.6572,W,1,9,1.6,15,M,,M,,*59
06/26/2015	03:01:45.550	$GPGGA,030146,2554.1848,N,07952.6575,W,1,9,1.6,15,M,,M,,*51
06/26/2015	03:01:46.560	$GPGGA,030147,2554.1841,N,07952.6579,W,1,9,1.6,15,M,,M,,*55
06/26/2015	03:01:47.580	$GPGGA,030148,2554.1833,N,07952.6582,W,1,9,1.6,15,M,,M,,*5B
06/26/2015	03:01:48.559	$GPGGA,030149,2554.1826,N,07952.6584,W,1,9,1.6,15,M,,M,,*58
06/26/2015	03:01:49.569	$GPGGA,030150,2554.1819,N,07952.6589,W,1,9,1.6,15,M,,M,,*51
06/26/2015	03:01:50.549	$GPGGA,030151,2554.1812,N,07952.6591,W,1,9,1.6,15,M,,M,,*52
06/26/2015	03:01:51.559	$GPGGA,030152,2554.1805,N,07952.6594,W,1,9,1.6,15,M,,M,,*52
06/26/2015	03:01:52.549	$GPGGA,030153,2554.1796,N,07952.6598,W,1,9,1.6,15,M,,M,,*5A
06/26/2015	03:01:53.569	$GPGGA,030154,2554.1788,N,07952.6601,W,1,9,1.6,15,M,,M,,*51
06/26/2015	03:01:54.549	$GPGGA,030155,2554.1781,N,07952.6604,W,1,9,1.6,15,M,,M,,*5C
06/26/2015	03:01:55.559	$GPGGA,030156,2554.1774,N,07952.6608,W,1,9,1.6,15,M,,M,,*59
06/26/2015	03:01:56.539	$GPGGA,030157,2554.1766,N,07952.6611,W,1,9,1.6,15,M,,M,,*53
06/26/2015	03:01:57.529	$GPGGA,030158,2554.1759,N,07952.6615,W,1,9,1.6,15,M,,M,,*54
06/26/2015	03:01:58.549	$GPGGA,030159,2554.1752,N,07952.6619,W,1,9,1.6,15,M,,M,,*52
06/26/2015	03:01:59.611	$GPGGA,030200,2554.1744,N,07952.6623,W,1,9,1.6,15,M,,M,,*53
06/26/2015	03:02:00.540	$GPGGA,030201,2554.1737,N,07952.6627,W,1,9,1.6,15,M,,M,,*52
06/26/2015	03:02:01.550	$GPGGA,030202,2554.1730,N,07952.6631,W,1,9,1.6,15,M,,M,,*51
06/26/2015	03:02:02.520	$GPGGA,030203,2554.1723,N,07952.6636,W,1,9,1.6,15,M,,M,,*55
06/26/2015	03:02:03.640	$GPGGA,030204,2554.1716,N,07952.6638,W,1,9,1.6,15,M,,M,,*5A
06/26/2015	03:02:04.513	$GPGGA,030205,2554.1709,N,07952.6642,W,1,9,1.6,15,M,,M,,*58
06/26/2015	03:02:05.623	$GPGGA,030206,2554.1702,N,07952.6645,W,1,9,1.6,15,M,,M,,*57
06/26/2015	03:02:06.624	$GPGGA,030207,2554.1695,N,07952.6649,W,1,9,1.6,15,M,,M,,*55
06/26/2015	03:02:07.639	$GPGGA,030208,2554.1689,N,07952.6652,W,1,9,1.6,15,M,,M,,*5D
06/26/2015	03:02:08.519	$GPGGA,030209,2554.1682,N,07952.6655,W,1,9,1.6,15,M,,M,,*50
06/26/2015	03:02:09.520	$GPGGA,030210,2554.1674,N,07952.6659,W,1,9,1.6,15,M,,M,,*5D
06/26/2015	03:02:10.499	$GPGGA,030211,2554.1667,N,07952.6662,W,1,9,1.6,15,M,,M,,*56
06/26/2015	03:02:11.500	$GPGGA,030212,2554.1660,N,07952.6665,W,1,9,1.6,15,M,,M,,*55
06/26/2015	03:02:12.579	$GPGGA,030213,2554.1653,N,07952.6669,W,1,9,1.6,15,M,,M,,*58
06/26/2015	03:02:13.509	$GPGGA,030214,2554.1646,N,07952.6673,W,1,9,1.6,15,M,,M,,*50
06/26/2015	03:02:14.579	$GPGGA,030215,2554.1638,N,07952.6676,W,1,9,1.6,15,M,,M,,*5D
06/26/2015	03:02:15.510	$GPGGA,030216,2554.1631,N,07952.6680,W,1,9,1.6,15,M,,M,,*5E
06/26/2015	03:02:16.579	$GPGGA,030217,2554.1624,N,07952.6683,W,1,9,1.6,15,M,,M,,*58
06/26/2015	03:02:17.589	$GPGGA,030218,2554.1617,N,07952.6685,W,1,9,1.6,15,M,,M,,*51
06/26/2015	03:02:18.589	$GPGGA,030219,2554.1609,N,07952.6688,W,1,9,1.6,15,M,,M,,*52
06/26/2015	03:02:19.589	$GPGGA,030220,2554.1602,N,07952.6691,W,1,9,1.6,14,M,,M,,*5A
06/26/2015	03:02:20.500	$GPGGA,030221,2554.1595,N,07952.6695,W,1,9,1.6,14,M,,M,,*52
06/26/2015	03:02:21.599	$GPGGA,030222,2554.1586,N,07952.6698,W,1,9,1.6,14,M,,M,,*5E
06/26/2015	03:02:22.569	$GPGGA,030223,2554.1579,N,07952.6701,W,1,9,1.6,14,M,,M,,*5E
06/26/2015	03:02:23.618	$GPGGA,030224,2554.1572,N,07952.6703,W,1,9,1.6,14,M,,M,,*50
06/26/2015	03:02:24.568	$GPGGA,030225,2554.1566,N,07952.6706,W,1,9,1.6,14,M,,M,,*51
06/26/2015	03:02:25.578	$GPGGA,030226,2554.1559,N,07952.6709,W,1,9,1.6,14,M,,M,,*51
06/26/2015	03:02:26.568	$GPGGA,030227,2554.1552,N,07952.6713,W,1,9,1.6,14,M,,M,,*50
06/26/2015	03:02:27.599	$GPGGA,030228,2554.1543,N,07952.6716,W,1,9,1.6,14,M,,M,,*5A
06/26/2015	03:02:28.559	$GPGGA,030229,2554.1535,N,07952.6719,W,1,9,1.6,14,M,,M,,*55
06/26/2015	03:02:29.569	$GPGGA,030230,2554.1528,N,07952.6721,W,1,9,1.6,14,M,,M,,*5A
06/26/2015	03:02:30.559	$GPGGA,030231,2554.1520,N,07952.6723,W,1,9,1.6,14,M,,M,,*51
06/26/2015	03:02:31.559	$GPGGA,030232,2554.1513,N,07952.6727,W,1,9,1.6,14,M,,M,,*56
06/26/2015	03:02:32.559	$GPGGA,030233,2554.1506,N,07952.6730,W,1,9,1.6,14,M,,M,,*55
06/26/2015	03:02:33.559	$GPGGA,030234,2554.1498,N,07952.6732,W,1,9,1.6,14,M,,M,,*56
06/26/2015	03:02:34.549	$GPGGA,030235,2554.1491,N,07952.6735,W,1,9,1.6,14,M,,M,,*59
06/26/2015	03:02:35.579	$GPGGA,030236,2554.1484,N,07952.6739,W,1,9,1.6,14,M,,M,,*52
06/26/2015	03:02:36.539	$GPGGA,030237,2554.1477,N,07952.6742,W,1,9,1.6,14,M,,M,,*53
06/26/2015	03:02:37.529	$GPGGA,030238,2554.1470,N,07952.6745,W,1,9,1.6,14,M,,M,,*5C
06/26/2015	03:02:38.539	$GPGGA,030239,2554.1463,N,07952.6749,W,1,9,1.6,14,M,,M,,*53
06/26/2015	03:02:39.569	$GPGGA,030240,2554.1456,N,07952.6750,W,1,9,1.6,14,M,,M,,*53
06/26/2015	03:02:40.528	$GPGGA,030241,2554.1448,N,07952.6754,W,1,9,1.6,14,M,,M,,*59
06/26/2015	03:02:41.538	$GPGGA,030242,2554.1440,N,07952.6757,W,1,9,1.6,14,M,,M,,*51
06/26/2015	03:02:42.518	$GPGGA,030243,2554.1433,N,07952.6760,W,1,9,1.6,14,M,,M,,*50
06/26/2015	03:02:43.548	$GPGGA,030244,2554.1426,N,07952.6763,W,1,9,1.6,14,M,,M,,*50
06/26/2015	03:02:44.518	$GPGGA,030245,2554.1418,N,07952.6767,W,1,9,1.6,14,M,,M,,*58
06/26/2015	03:02:45.528	$GPGGA,030246,2554.1411,N,07952.6770,W,1,9,1.6,14,M,,M,,*54
06/26/2015	03:02:46.519	$GPGGA,030247,2554.1404,N,07952.6774,W,1,9,1.6,14,M,,M,,*55
06/26/2015	03:02:47.529	$GPGGA,030248,2554.1396,N,07952.6775,W,1,9,1.6,14,M,,M,,*57
06/26/2015	03:02:48.519	$GPGGA,030249,2554.1389,N,07952.6779,W,1,9,1.6,14,M,,M,,*54
06/26/2015	03:02:49.549	$GPGGA,030250,2554.1382,N,07952.6782,W,1,9,1.6,14,M,,M,,*53
06/26/2015	03:02:50.519	$GPGGA,030251,2554.1373,N,07952.6785,W,1,9,1.6,14,M,,M,,*5B
06/26/2015	03:02:51.669	$GPGGA,030252,2554.1366,N,07952.6788,W,1,9,1.6,14,M,,M,,*51
06/26/2015	03:02:52.529	$GPGGA,030253,2554.1359,N,07952.6792,W,1,9,1.6,14,M,,M,,*57
06/26/2015	03:02:53.529	$GPGGA,030254,2554.1351,N,07952.6796,W,1,9,1.6,14,M,,M,,*5C
06/26/2015	03:02:54.504	$GPGGA,030255,2554.1344,N,07952.6799,W,1,9,1.6,14,M,,M,,*56
06/26/2015	03:02:55.519	$GPGGA,030256,2554.1336,N,07952.6803,W,1,9,1.6,14,M,,M,,*5C
06/26/2015	03:02:56.489	$GPGGA,030257,2554.1329,N,07952.6806,W,1,9,1.6,14,M,,M,,*56
06/26/2015	03:02:57.502	$GPGGA,030258,2554.1322,N,07952.6810,W,1,9,1.6,14,M,,M,,*55
06/26/2015	03:02:58.499	$GPGGA,030259,2554.1314,N,07952.6813,W,1,9,1.6,14,M,,M,,*52
06/26/2015	03:02:59.678	$GPGGA,030300,2554.1306,N,07952.6817,W,1,9,1.6,14,M,,M,,*58
06/26/2015	03:03:00.513	$GPGGA,030301,2554.1300,N,07952.6819,W,1,9,1.6,14,M,,M,,*51
06/26/2015	03:03:01.478	$GPGGA,030302,2554.1292,N,07952.6824,W,1,9,1.6,14,M,,M,,*56
06/26/2015	03:03:02.648	$GPGGA,030303,2554.1285,N,07952.6828,W,1,9,1.6,14,M,,M,,*5D
06/26/2015	03:03:03.659	$GPGGA,030304,2554.1277,N,07952.6831,W,1,9,1.6,14,M,,M,,*5F
06/26/2015	03:03:04.502	$GPGGA,030305,2554.1270,N,07952.6835,W,1,9,1.6,14,M,,M,,*5D
06/26/2015	03:03:05.614	$GPGGA,030306,2554.1263,N,07952.6837,W,1,9,1.6,14,M,,M,,*5E
06/26/2015	03:03:06.580	$GPGGA,030307,2554.1254,N,07952.6842,W,1,9,1.6,14,M,,M,,*59
06/26/2015	03:03:07.579	$GPGGA,030308,2554.1247,N,07952.6844,W,1,9,1.6,14,M,,M,,*52
06/26/2015	03:03:08.569	$GPGGA,030309,2554.1239,N,07952.6848,W,1,9,1.6,14,M,,M,,*56
06/26/2015	03:03:09.629	$GPGGA,030310,2554.1232,N,07952.6851,W,1,9,1.6,14,M,,M,,*5D
06/26/2015	03:03:10.569	$GPGGA,030311,2554.1224,N,07952.6854,W,1,9,2.0,14,M,,M,,*5B
06/26/2015	03:03:11.649	$GPGGA,030312,2554.1217,N,07952.6858,W,1,9,1.6,14,M,,M,,*51
06/26/2015	03:03:12.659	$GPGGA,030313,2554.1208,N,07952.6862,W,1,9,1.6,14,M,,M,,*57
06/26/2015	03:03:13.604	$GPGGA,030314,2554.1201,N,07952.6865,W,1,9,1.6,14,M,,M,,*5E
06/26/2015	03:03:14.639	$GPGGA,030315,2554.1194,N,07952.6868,W,1,9,1.6,14,M,,M,,*5D
06/26/2015	03:03:15.614	$GPGGA,030316,2554.1187,N,07952.6871,W,1,9,1.6,14,M,,M,,*54
06/26/2015	03:03:16.558	$GPGGA,030317,2554.1180,N,07952.6875,W,1,9,1.6,14,M,,M,,*56
06/26/2015	03:03:17.599	$GPGGA,030318,2554.1171,N,07952.6878,W,1,9,1.6,14,M,,M,,*5A
06/26/2015	03:03:18.618	$GPGGA,030319,2554.1163,N,07952.6880,W,1,9,1.6,14,M,,M,,*5F
06/26/2015	03:03:19.628	$GPGGA,030320,2554.1155,N,07952.6883,W,1,9,1.6,14,M,,M,,*53
06/26/2015	03:03:20.629	$GPGGA,030321,2554.1147,N,07952.6887,W,1,9,1.6,14,M,,M,,*55
06/26/2015	03:03:21.589	$GPGGA,030322,2554.1140,N,07952.6890,W,1,9,1.6,14,M,,M,,*57
06/26/2015	03:03:22.614	$GPGGA,030323,2554.1133,N,07952.6893,W,1,9,1.6,14,M,,M,,*51
06/26/2015	03:03:23.589	$GPGGA,030324,2554.1124,N,07952.6897,W,1,9,1.6,14,M,,M,,*54
06/26/2015	03:03:24.601	$GPGGA,030325,2554.1117,N,07952.6900,W,1,9,1.6,14,M,,M,,*5A
06/26/2015	03:03:25.579	$GPGGA,030326,2554.1109,N,07952.6902,W,1,9,1.6,14,M,,M,,*54
06/26/2015	03:03:26.589	$GPGGA,030327,2554.1101,N,07952.6905,W,1,9,1.6,14,M,,M,,*5A
06/26/2015	03:03:27.604	$GPGGA,030328,2554.1093,N,07952.6908,W,1,9,1.6,14,M,,M,,*52
06/26/2015	03:03:28.589	$GPGGA,030329,2554.1086,N,07952.6911,W,1,9,1.6,15,M,,M,,*5E
06/26/2015	03:03:29.579	$GPGGA,030330,2554.1078,N,07952.6915,W,1,9,1.6,15,M,,M,,*53
06/26/2015	03:03:30.589	$GPGGA,030331,2554.1070,N,07952.6918,W,1,9,1.6,15,M,,M,,*57
06/26/2015	03:03:31.601	$GPGGA,030332,2554.1064,N,07952.6920,W,1,9,1.6,15,M,,M,,*5A
06/26/2015	03:03:32.579	$GPGGA,030333,2554.1057,N,07952.6923,W,1,9,1.6,15,M,,M,,*58
06/26/2015	03:03:33.558	$GPGGA,030334,2554.1049,N,07952.6926,W,1,9,1.6,15,M,,M,,*55
06/26/2015	03:03:34.509	$GPGGA,030335,2554.1041,N,07952.6929,W,1,9,1.6,15,M,,M,,*53
06/26/2015	03:03:36.058	$GPGGA,030336,2554.1035,N,07952.6933,W,1,9,1.6,15,M,,M,,*58
06/26/2015	03:03:36.508	$GPGGA,030337,2554.1026,N,07952.6936,W,1,9,1.6,15,M,,M,,*5E
06/26/2015	03:03:37.511	$GPGGA,030338,2554.1019,N,07952.6938,W,1,9,1.6,15,M,,M,,*53
06/26/2015	03:03:38.629	$GPGGA,030339,2554.1011,N,07952.6941,W,1,9,1.6,15,M,,M,,*54
06/26/2015	03:03:39.579	$GPGGA,030340,2554.1004,N,07952.6944,W,1,9,1.6,15,M,,M,,*5B
06/26/2015	03:03:40.579	$GPGGA,030341,2554.0996,N,07952.6947,W,1,9,1.6,15,M,,M,,*5A
06/26/2015	03:03:41.619	$GPGGA,030342,2554.0989,N,07952.6951,W,1,9,1.6,16,M,,M,,*53
06/26/2015	03:03:42.559	$GPGGA,030343,2554.0982,N,07952.6954,W,1,9,1.6,16,M,,M,,*5C
06/26/2015	03:03:43.613	$GPGGA,030344,2554.0974,N,07952.6958,W,1,9,1.6,16,M,,M,,*5E
06/26/2015	03:03:44.489	$GPGGA,030345,2554.0967,N,07952.6960,W,1,9,1.6,16,M,,M,,*56
06/26/2015	03:03:46.039	$GPGGA,030346,2554.0960,N,07952.6963,W,1,9,1.6,16,M,,M,,*51
06/26/2015	03:03:46.549	$GPGGA,030347,2554.0953,N,07952.6966,W,1,9,1.6,16,M,,M,,*55
06/26/2015	03:03:47.559	$GPGGA,030348,2554.0945,N,07952.6969,W,1,9,1.6,16,M,,M,,*52
06/26/2015	03:03:48.589	$GPGGA,030349,2554.0939,N,07952.6973,W,1,9,1.6,16,M,,M,,*53
06/26/2015	03:03:49.629	$GPGGA,030350,2554.0932,N,07952.6976,W,1,9,1.6,16,M,,M,,*55
06/26/2015	03:03:50.578	$GPGGA,030351,2554.0924,N,07952.6978,W,1,9,1.6,16,M,,M,,*5D
06/26/2015	03:03:51.628	$GPGGA,030352,2554.0918,N,07952.6981,W,1,9,2.0,16,M,,M,,*52
06/26/2015	03:03:52.548	$GPGGA,030353,2554.0911,N,07952.6984,W,1,9,1.6,16,M,,M,,*5A
06/26/2015	03:03:53.609	$GPGGA,030354,2554.0905,N,07952.6988,W,1,9,1.6,16,M,,M,,*54
06/26/2015	03:03:54.548	$GPGGA,030355,2554.0898,N,07952.6991,W,1,9,1.6,16,M,,M,,*58
06/26/2015	03:03:55.589	$GPGGA,030356,2554.0891,N,07952.6994,W,1,9,1.6,16,M,,M,,*57
06/26/2015	03:03:56.589	$GPGGA,030357,2554.0884,N,07952.6998,W,1,9,1.6,16,M,,M,,*5E
06/26/2015	03:03:57.569	$GPGGA,030358,2554.0877,N,07952.7001,W,1,9,1.6,16,M,,M,,*55
06/26/2015	03:03:58.569	$GPGGA,030359,2554.0870,N,07952.7003,W,1,9,1.6,16,M,,M,,*51
06/26/2015	03:03:59.616	$GPGGA,030400,2554.0863,N,07952.7008,W,1,9,1.6,16,M,,M,,*53
06/26/2015	03:04:00.559	$GPGGA,030401,2554.0856,N,07952.7010,W,1,9,1.6,16,M,,M,,*5D
06/26/2015	03:04:01.589	$GPGGA,030402,2554.0848,N,07952.7014,W,1,9,1.6,16,M,,M,,*55
06/26/2015	03:04:02.559	$GPGGA,030403,2554.0841,N,07952.7019,W,1,9,1.6,16,M,,M,,*50
06/26/2015	03:04:03.619	$GPGGA,030404,2554.0833,N,07952.7021,W,1,9,1.6,16,M,,M,,*59
06/26/2015	03:04:04.569	$GPGGA,030405,2554.0826,N,07952.7025,W,1,9,1.6,16,M,,M,,*58
06/26/2015	03:04:05.579	$GPGGA,030406,2554.0817,N,07952.7028,W,1,9,1.6,16,M,,M,,*54
06/26/2015	03:04:06.559	$GPGGA,030407,2554.0811,N,07952.7032,W,1,9,1.6,16,M,,M,,*58
06/26/2015	03:04:07.629	$GPGGA,030408,2554.0802,N,07952.7037,W,1,9,1.6,16,M,,M,,*50
06/26/2015	03:04:08.568	$GPGGA,030409,2554.0795,N,07952.7039,W,1,9,1.6,16,M,,M,,*5E
06/26/2015	03:04:09.568	$GPGGA,030410,2554.0787,N,07952.7042,W,1,9,1.6,16,M,,M,,*59
06/26/2015	03:04:10.558	$GPGGA,030411,2554.0779,N,07952.7046,W,1,9,1.6,16,M,,M,,*5D
06/26/2015	03:04:11.588	$GPGGA,030412,2554.0771,N,07952.7050,W,1,9,1.6,16,M,,M,,*51
06/26/2015	03:04:12.548	$GPGGA,030413,2554.0771,N,07952.7050,W,1,9,1.6,16,M,,M,,*50
06/26/2015	03:04:13.559	$GPGGA,030414,2554.0757,N,07952.7056,W,1,9,1.6,16,M,,M,,*55
06/26/2015	03:04:14.549	$GPGGA,030415,2554.0750,N,07952.7059,W,1,9,1.6,16,M,,M,,*5C
06/26/2015	03:04:15.589	$GPGGA,030416,2554.0742,N,07952.7063,W,1,9,1.6,16,M,,M,,*55
06/26/2015	03:04:16.549	$GPGGA,030417,2554.0734,N,07952.7066,W,1,9,1.6,16,M,,M,,*50
06/26/2015	03:04:17.529	$GPGGA,030418,2554.0726,N,07952.7070,W,1,9,1.6,16,M,,M,,*5B
06/26/2015	03:04:18.549	$GPGGA,030419,2554.0719,N,07952.7072,W,1,9,1.6,16,M,,M,,*54
06/26/2015	03:04:19.601	$GPGGA,030420,2554.0711,N,07952.7077,W,1,9,1.6,16,M,,M,,*53
06/26/2015	03:04:20.539	$GPGGA,030421,2554.0704,N,07952.7079,W,1,9,1.6,16,M,,M,,*58
06/26/2015	03:04:21.539	$GPGGA,030422,2554.0696,N,07952.7082,W,1,9,1.6,16,M,,M,,*55
06/26/2015	03:04:22.559	$GPGGA,030423,2554.0689,N,07952.7085,W,1,9,1.6,16,M,,M,,*5D
06/26/2015	03:04:23.559	$GPGGA,030424,2554.0681,N,07952.7088,W,1,9,1.6,16,M,,M,,*5F
06/26/2015	03:04:24.529	$GPGGA,030425,2554.0681,N,07952.7088,W,1,9,1.6,16,M,,M,,*5E
06/26/2015	03:04:25.528	$GPGGA,030426,2554.0667,N,07952.7095,W,1,9,1.6,16,M,,M,,*59
06/26/2015	03:04:26.548	$GPGGA,030427,2554.0660,N,07952.7097,W,1,9,1.6,16,M,,M,,*5D
06/26/2015	03:04:27.628	$GPGGA,030428,2554.0652,N,07952.7100,W,1,9,1.6,16,M,,M,,*5C
06/26/2015	03:04:28.518	$GPGGA,030429,2554.0652,N,07952.7100,W,1,9,1.6,16,M,,M,,*5D
06/26/2015	03:04:29.520	$GPGGA,030430,2554.0638,N,07952.7106,W,1,9,1.6,16,M,,M,,*5F
06/26/2015	03:04:30.518	$GPGGA,030431,2554.0630,N,07952.7110,W,1,9,1.6,16,M,,M,,*51
06/26/2015	03:04:31.613	$GPGGA,030432,2554.0623,N,07952.7113,W,1,9,1.6,16,M,,M,,*53
06/26/2015	03:04:32.514	$GPGGA,030433,2554.0623,N,07952.7113,W,1,9,1.6,16,M,,M,,*52
06/26/2015	03:04:33.519	$GPGGA,030434,2554.0609,N,07952.7118,W,1,9,1.6,16,M,,M,,*56
06/26/2015	03:04:34.609	$GPGGA,030435,2554.0602,N,07952.7121,W,1,9,1.6,16,M,,M,,*56
06/26/2015	03:04:35.639	$GPGGA,030436,2554.0593,N,07952.7124,W,1,9,1.6,16,M,,M,,*5B
06/26/2015	03:04:36.609	$GPGGA,030437,2554.0587,N,07952.7126,W,1,9,1.8,16,M,,M,,*53
06/26/2015	03:04:37.619	$GPGGA,030438,2554.0580,N,07952.7129,W,1,9,1.6,16,M,,M,,*5A
06/26/2015	03:04:38.589	$GPGGA,030439,2554.0571,N,07952.7132,W,1,9,1.6,16,M,,M,,*5F
06/26/2015	03:04:39.599	$GPGGA,030440,2554.0564,N,07952.7135,W,1,9,1.6,16,M,,M,,*52
06/26/2015	03:04:40.589	$GPGGA,030441,2554.0557,N,07952.7139,W,1,9,1.6,16,M,,M,,*5F
06/26/2015	03:04:41.489	$GPGGA,030442,2554.0551,N,07952.7142,W,1,9,1.6,16,M,,M,,*56
06/26/2015	03:04:42.589	$GPGGA,030443,2554.0544,N,07952.7144,W,1,9,1.6,16,M,,M,,*55
06/26/2015	03:04:43.588	$GPGGA,030444,2554.0535,N,07952.7149,W,1,9,1.6,16,M,,M,,*59
06/26/2015	03:04:44.568	$GPGGA,030445,2554.0528,N,07952.7151,W,1,9,1.6,16,M,,M,,*5D
06/26/2015	03:04:45.578	$GPGGA,030446,2554.0522,N,07952.7154,W,1,9,1.6,16,M,,M,,*51
06/26/2015	03:04:46.578	$GPGGA,030447,2554.0513,N,07952.7157,W,1,9,1.6,16,M,,M,,*51
06/26/2015	03:04:47.578	$GPGGA,030448,2554.0505,N,07952.7161,W,1,9,1.6,17,M,,M,,*5D
06/26/2015	03:04:48.569	$GPGGA,030449,2554.0498,N,07952.7164,W,1,9,1.6,17,M,,M,,*5C
06/26/2015	03:04:49.579	$GPGGA,030450,2554.0491,N,07952.7168,W,1,9,1.6,17,M,,M,,*51
06/26/2015	03:04:50.559	$GPGGA,030451,2554.0484,N,07952.7171,W,1,9,1.6,17,M,,M,,*5C
06/26/2015	03:04:51.579	$GPGGA,030452,2554.0477,N,07952.7173,W,1,9,1.6,17,M,,M,,*51
06/26/2015	03:04:52.559	$GPGGA,030453,2554.0470,N,07952.7176,W,1,9,1.6,17,M,,M,,*52
06/26/2015	03:04:53.569	$GPGGA,030454,2554.0462,N,07952.7179,W,1,9,1.6,17,M,,M,,*59
06/26/2015	03:04:54.549	$GPGGA,030455,2554.0454,N,07952.7183,W,1,9,1.6,17,M,,M,,*58
06/26/2015	03:04:55.589	$GPGGA,030456,2554.0447,N,07952.7186,W,1,9,1.6,17,M,,M,,*5C
06/26/2015	03:04:56.549	$GPGGA,030457,2554.0440,N,07952.7189,W,1,9,1.6,17,M,,M,,*55
06/26/2015	03:04:57.569	$GPGGA,030458,2554.0432,N,07952.7193,W,1,9,1.6,17,M,,M,,*54
06/26/2015	03:04:58.559	$GPGGA,030459,2554.0425,N,07952.7196,W,1,9,1.6,17,M,,M,,*56
06/26/2015	03:04:59.579	$GPGGA,030500,2554.0419,N,07952.7198,W,1,9,1.6,17,M,,M,,*5A
06/26/2015	03:05:00.548	$GPGGA,030501,2554.0412,N,07952.7202,W,1,9,1.6,17,M,,M,,*50
06/26/2015	03:05:01.528	$GPGGA,030502,2554.0405,N,07952.7205,W,1,9,1.6,17,M,,M,,*52
06/26/2015	03:05:02.558	$GPGGA,030503,2554.0398,N,07952.7208,W,1,9,1.6,17,M,,M,,*5D
06/26/2015	03:05:03.538	$GPGGA,030504,2554.0390,N,07952.7212,W,1,9,1.6,18,M,,M,,*56
06/26/2015	03:05:04.538	$GPGGA,030505,2554.0383,N,07952.7215,W,1,9,1.6,18,M,,M,,*52
06/26/2015	03:05:05.519	$GPGGA,030506,2554.0376,N,07952.7218,W,1,9,1.6,18,M,,M,,*56
06/26/2015	03:05:06.529	$GPGGA,030507,2554.0369,N,07952.7222,W,1,9,1.6,18,M,,M,,*50
06/26/2015	03:05:07.529	$GPGGA,030508,2554.0361,N,07952.7225,W,1,9,1.6,18,M,,M,,*50
06/26/2015	03:05:08.519	$GPGGA,030509,2554.0356,N,07952.7229,W,1,9,1.6,18,M,,M,,*59
06/26/2015	03:05:09.529	$GPGGA,030510,2554.0349,N,07952.7233,W,1,9,1.6,18,M,,M,,*54
06/26/2015	03:05:10.519	$GPGGA,030511,2554.0340,N,07952.7236,W,1,9,1.6,18,M,,M,,*59
06/26/2015	03:05:11.539	$GPGGA,030512,2554.0333,N,07952.7240,W,1,9,1.6,18,M,,M,,*5F
06/26/2015	03:05:12.509	$GPGGA,030513,2554.0327,N,07952.7243,W,1,9,1.6,18,M,,M,,*58
06/26/2015	03:05:13.509	$GPGGA,030514,2554.0320,N,07952.7247,W,1,9,1.6,18,M,,M,,*5C
06/26/2015	03:05:14.529	$GPGGA,030515,2554.0311,N,07952.7251,W,1,9,1.6,18,M,,M,,*58
06/26/2015	03:05:15.539	$GPGGA,030516,2554.0304,N,07952.7254,W,1,9,1.6,18,M,,M,,*5A
06/26/2015	03:05:16.519	$GPGGA,030517,2554.0298,N,07952.7258,W,1,9,1.6,18,M,,M,,*53
06/26/2015	03:05:17.529	$GPGGA,030518,2554.0289,N,07952.7261,W,1,9,1.6,18,M,,M,,*56
06/26/2015	03:05:18.518	$GPGGA,030519,2554.0282,N,07952.7265,W,1,9,1.6,18,M,,M,,*58
06/26/2015	03:05:19.528	$GPGGA,030520,2554.0274,N,07952.7267,W,1,9,1.6,18,M,,M,,*59
06/26/2015	03:05:20.588	$GPGGA,030521,2554.0267,N,07952.7270,W,1,9,1.6,18,M,,M,,*5C
06/26/2015	03:05:21.613	$GPGGA,030522,2554.0260,N,07952.7274,W,1,9,1.6,18,M,,M,,*5C
06/26/2015	03:05:22.508	$GPGGA,030523,2554.0253,N,07952.7277,W,1,9,1.6,18,M,,M,,*5E
06/26/2015	03:05:23.629	$GPGGA,030524,2554.0245,N,07952.7280,W,1,9,1.6,18,M,,M,,*56
06/26/2015	03:05:24.499	$GPGGA,030525,2554.0238,N,07952.7283,W,1,9,1.6,18,M,,M,,*5E
06/26/2015	03:05:25.510	$GPGGA,030526,2554.0231,N,07952.7287,W,1,9,1.6,18,M,,M,,*50
06/26/2015	03:05:26.579	$GPGGA,030527,2554.0223,N,07952.7290,W,1,9,1.6,18,M,,M,,*54
06/26/2015	03:05:27.589	$GPGGA,030528,2554.0216,N,07952.7294,W,1,9,1.6,18,M,,M,,*59
06/26/2015	03:05:28.579	$GPGGA,030529,2554.0209,N,07952.7296,W,1,9,1.6,18,M,,M,,*54
06/26/2015	03:05:29.479	$GPGGA,030530,2554.0202,N,07952.7299,W,1,9,1.6,18,M,,M,,*58
06/26/2015	03:05:30.579	$GPGGA,030531,2554.0194,N,07952.7302,W,1,9,1.6,18,M,,M,,*56
06/26/2015	03:05:31.589	$GPGGA,030532,2554.0186,N,07952.7305,W,1,9,1.6,18,M,,M,,*51
06/26/2015	03:05:32.589	$GPGGA,030533,2554.0179,N,07952.7309,W,1,9,1.6,18,M,,M,,*5C
06/26/2015	03:05:33.602	$GPGGA,030534,2554.0172,N,07952.7312,W,1,9,1.6,18,M,,M,,*5A
06/26/2015	03:05:34.579	$GPGGA,030535,2554.0164,N,07952.7314,W,1,9,1.6,18,M,,M,,*5A
06/26/2015	03:05:35.578	$GPGGA,030536,2554.0156,N,07952.7317,W,1,9,1.6,18,M,,M,,*5B
06/26/2015	03:05:36.558	$GPGGA,030537,2554.0150,N,07952.7320,W,1,9,1.6,18,M,,M,,*58
06/26/2015	03:05:37.588	$GPGGA,030538,2554.0143,N,07952.7323,W,1,9,1.6,18,M,,M,,*56
06/26/2015	03:05:38.558	$GPGGA,030539,2554.0134,N,07952.7326,W,1,9,1.6,18,M,,M,,*52
06/26/2015	03:05:39.609	$GPGGA,030540,2554.0127,N,07952.7328,W,1,9,1.6,18,M,,M,,*50
06/26/2015	03:05:40.559	$GPGGA,030541,2554.0119,N,07952.7330,W,1,9,1.6,18,M,,M,,*55
06/26/2015	03:05:41.579	$GPGGA,030542,2554.0112,N,07952.7334,W,1,9,1.6,18,M,,M,,*59
06/26/2015	03:05:42.569	$GPGGA,030543,2554.0104,N,07952.7337,W,1,9,1.6,18,M,,M,,*5C
06/26/2015	03:05:43.579	$GPGGA,030544,2554.0097,N,07952.7339,W,1,9,1.6,18,M,,M,,*5E
06/26/2015	03:05:44.559	$GPGGA,030545,2554.0090,N,07952.7341,W,1,9,1.6,18,M,,M,,*57
06/26/2015	03:05:45.559	$GPGGA,030546,2554.0083,N,07952.7345,W,1,9,1.6,18,M,,M,,*52
06/26/2015	03:05:46.549	$GPGGA,030547,2554.0075,N,07952.7348,W,1,9,1.6,18,M,,M,,*57
06/26/2015	03:05:47.590	$GPGGA,030548,2554.0068,N,07952.7350,W,1,9,1.6,18,M,,M,,*5D
06/26/2015	03:05:48.549	$GPGGA,030549,2554.0060,N,07952.7352,W,1,9,1.6,18,M,,M,,*56
06/26/2015	03:05:49.529	$GPGGA,030550,2554.0053,N,07952.7355,W,1,9,1.6,18,M,,M,,*59
06/26/2015	03:05:50.549	$GPGGA,030551,2554.0045,N,07952.7359,W,1,9,1.6,17,M,,M,,*5C
06/26/2015	03:05:51.569	$GPGGA,030552,2554.0038,N,07952.7360,W,1,9,1.6,17,M,,M,,*5F
06/26/2015	03:05:52.539	$GPGGA,030553,2554.0031,N,07952.7363,W,1,9,1.6,17,M,,M,,*54
06/26/2015	03:05:53.558	$GPGGA,030554,2554.0023,N,07952.7366,W,1,9,1.6,17,M,,M,,*55
06/26/2015	03:05:54.538	$GPGGA,030555,2554.0016,N,07952.7370,W,1,9,1.6,17,M,,M,,*55
06/26/2015	03:05:55.558	$GPGGA,030556,2554.0009,N,07952.7373,W,1,9,1.6,17,M,,M,,*5B
06/26/2015	03:05:56.538	$GPGGA,030557,2554.0002,N,07952.7374,W,1,9,1.6,17,M,,M,,*56
06/26/2015	03:05:57.528	$GPGGA,030558,2553.9995,N,07952.7377,W,1,9,1.6,17,M,,M,,*53
06/26/2015	03:05:58.539	$GPGGA,030559,2553.9986,N,07952.7381,W,1,9,1.6,17,M,,M,,*59
06/26/2015	03:05:59.559	$GPGGA,030600,2553.9978,N,07952.7382,W,1,9,1.6,17,M,,M,,*54
06/26/2015	03:06:00.539	$GPGGA,030601,2553.9971,N,07952.7385,W,1,9,1.6,17,M,,M,,*5B
06/26/2015	03:06:01.549	$GPGGA,030602,2553.9964,N,07952.7388,W,1,9,1.6,17,M,,M,,*51
06/26/2015	03:06:02.508	$GPGGA,030603,2553.9956,N,07952.7392,W,1,9,1.6,17,M,,M,,*5A
06/26/2015	03:06:03.518	$GPGGA,030604,2553.9949,N,07952.7395,W,1,9,1.6,17,M,,M,,*54
06/26/2015	03:06:04.621	$GPGGA,030605,2553.9941,N,07952.7397,W,1,9,1.6,17,M,,M,,*5F
06/26/2015	03:06:05.502	$GPGGA,030606,2553.9934,N,07952.7400,W,1,9,1.6,17,M,,M,,*57
06/26/2015	03:06:06.504	$GPGGA,030607,2553.9927,N,07952.7403,W,1,9,1.6,17,M,,M,,*57
06/26/2015	03:06:07.549	$GPGGA,030608,2553.9919,N,07952.7406,W,1,9,1.6,17,M,,M,,*50
06/26/2015	03:06:08.501	$GPGGA,030609,2553.9912,N,07952.7408,W,1,9,1.6,17,M,,M,,*54
06/26/2015	03:06:09.599	$GPGGA,030610,2553.9905,N,07952.7411,W,1,9,1.6,17,M,,M,,*52
06/26/2015	03:06:10.518	$GPGGA,030611,2553.9897,N,07952.7415,W,1,9,1.6,17,M,,M,,*5D
06/26/2015	03:06:11.628	$GPGGA,030612,2553.9890,N,07952.7420,W,1,9,1.6,17,M,,M,,*5F
06/26/2015	03:06:12.588	$GPGGA,030613,2553.9883,N,07952.7422,W,1,9,1.6,17,M,,M,,*5E
06/26/2015	03:06:13.513	$GPGGA,030614,2553.9874,N,07952.7426,W,1,9,1.6,17,M,,M,,*55
06/26/2015	03:06:14.588	$GPGGA,030615,2553.9867,N,07952.7429,W,1,9,1.6,17,M,,M,,*59
06/26/2015	03:06:15.589	$GPGGA,030616,2553.9859,N,07952.7432,W,1,9,1.6,17,M,,M,,*5D
06/26/2015	03:06:16.589	$GPGGA,030617,2553.9851,N,07952.7436,W,1,9,1.7,17,M,,M,,*51
06/26/2015	03:06:17.579	$GPGGA,030618,2553.9844,N,07952.7439,W,1,9,1.6,17,M,,M,,*54
06/26/2015	03:06:19.020	$GPGGA,030619,2553.9836,N,07952.7442,W,1,9,1.6,17,M,,M,,*5C
06/26/2015	03:06:19.589	$GPGGA,030620,2553.9829,N,07952.7444,W,1,9,1.6,17,M,,M,,*5E
06/26/2015	03:06:20.569	$GPGGA,030621,2553.9822,N,07952.7447,W,1,9,1.6,17,M,,M,,*57
06/26/2015	03:06:21.569	$GPGGA,030622,2553.9814,N,07952.7451,W,1,9,1.6,17,M,,M,,*56
06/26/2015	03:06:22.579	$GPGGA,030623,2553.9807,N,07952.7454,W,1,9,2.0,17,M,,M,,*55
06/26/2015	03:06:23.579	$GPGGA,030624,2553.9799,N,07952.7460,W,1,9,1.6,17,M,,M,,*58
06/26/2015	03:06:24.569	$GPGGA,030625,2553.9791,N,07952.7464,W,1,9,1.6,17,M,,M,,*55
06/26/2015	03:06:25.589	$GPGGA,030626,2553.9783,N,07952.7467,W,1,9,1.6,17,M,,M,,*56
06/26/2015	03:06:26.559	$GPGGA,030627,2553.9776,N,07952.7471,W,1,9,1.6,17,M,,M,,*5A
06/26/2015	03:06:27.602	$GPGGA,030628,2553.9768,N,07952.7473,W,1,9,1.6,17,M,,M,,*58
06/26/2015	03:06:28.558	$GPGGA,030629,2553.9760,N,07952.7476,W,1,9,1.6,17,M,,M,,*54
06/26/2015	03:06:29.568	$GPGGA,030630,2553.9753,N,07952.7480,W,1,9,1.6,17,M,,M,,*55
06/26/2015	03:06:30.558	$GPGGA,030631,2553.9745,N,07952.7485,W,1,9,1.6,17,M,,M,,*56
06/26/2015	03:06:31.578	$GPGGA,030632,2553.9738,N,07952.7487,W,1,9,1.6,17,M,,M,,*5D
06/26/2015	03:06:32.558	$GPGGA,030633,2553.9731,N,07952.7491,W,1,9,1.6,17,M,,M,,*52
06/26/2015	03:06:33.539	$GPGGA,030634,2553.9724,N,07952.7494,W,1,9,1.6,17,M,,M,,*54
06/26/2015	03:06:34.549	$GPGGA,030635,2553.9715,N,07952.7498,W,1,9,1.6,17,M,,M,,*5B
06/26/2015	03:06:35.549	$GPGGA,030636,2553.9708,N,07952.7501,W,1,9,1.6,17,M,,M,,*55
06/26/2015	03:06:36.549	$GPGGA,030637,2553.9702,N,07952.7505,W,1,9,1.6,17,M,,M,,*5A
06/26/2015	03:06:37.569	$GPGGA,030638,2553.9693,N,07952.7508,W,1,9,1.6,17,M,,M,,*51
06/26/2015	03:06:38.529	$GPGGA,030639,2553.9685,N,07952.7511,W,1,9,1.6,17,M,,M,,*5F
06/26/2015	03:06:39.569	$GPGGA,030640,2553.9678,N,07952.7515,W,1,9,1.6,17,M,,M,,*57
06/26/2015	03:06:40.539	$GPGGA,030641,2553.9670,N,07952.7518,W,1,9,1.6,17,M,,M,,*53
06/26/2015	03:06:41.549	$GPGGA,030642,2553.9662,N,07952.7522,W,1,9,1.6,17,M,,M,,*5A
06/26/2015	03:06:42.529	$GPGGA,030643,2553.9655,N,07952.7525,W,1,9,1.6,17,M,,M,,*58
06/26/2015	03:06:43.559	$GPGGA,030644,2553.9648,N,07952.7527,W,1,9,1.6,18,M,,M,,*5E
06/26/2015	03:06:44.539	$GPGGA,030645,2553.9639,N,07952.7530,W,1,9,1.6,18,M,,M,,*5F
06/26/2015	03:06:45.538	$GPGGA,030646,2553.9632,N,07952.7533,W,1,9,1.6,18,M,,M,,*54
06/26/2015	03:06:46.518	$GPGGA,030647,2553.9624,N,07952.7536,W,1,9,1.6,18,M,,M,,*57
06/26/2015	03:06:47.548	$GPGGA,030648,2553.9616,N,07952.7540,W,1,9,1.6,18,M,,M,,*58
06/26/2015	03:06:48.558	$GPGGA,030649,2553.9609,N,07952.7543,W,1,9,1.6,18,M,,M,,*54
06/26/2015	03:06:49.628	$GPGGA,030650,2553.9601,N,07952.7545,W,1,9,1.6,18,M,,M,,*52
06/26/2015	03:06:50.503	$GPGGA,030651,2553.9594,N,07952.7547,W,1,9,1.6,18,M,,M,,*5E
06/26/2015	03:06:51.519	$GPGGA,030652,2553.9587,N,07952.7551,W,1,9,1.6,18,M,,M,,*58
06/26/2015	03:06:52.599	$GPGGA,030653,2553.9579,N,07952.7554,W,1,9,2.0,18,M,,M,,*58
06/26/2015	03:06:53.517	$GPGGA,030654,2553.9572,N,07952.7556,W,1,9,1.6,18,M,,M,,*53
06/26/2015	03:06:54.529	$GPGGA,030655,2553.9563,N,07952.7559,W,1,9,1.6,18,M,,M,,*5D
06/26/2015	03:06:55.509	$GPGGA,030656,2553.9555,N,07952.7562,W,1,9,1.6,18,M,,M,,*53
06/26/2015	03:06:56.611	$GPGGA,030657,2553.9548,N,07952.7565,W,1,9,1.6,18,M,,M,,*59
06/26/2015	03:06:57.589	$GPGGA,030658,2553.9537,N,07952.7569,W,1,8,2.0,18,M,,M,,*56
06/26/2015	03:06:58.499	$GPGGA,030659,2553.9529,N,07952.7572,W,1,8,1.6,18,M,,M,,*57
06/26/2015	03:06:59.549	$GPGGA,030700,2553.9522,N,07952.7574,W,1,9,1.6,18,M,,M,,*56
06/26/2015	03:07:00.589	$GPGGA,030701,2553.9514,N,07952.7577,W,1,9,1.6,18,M,,M,,*51
06/26/2015	03:07:01.589	$GPGGA,030702,2553.9507,N,07952.7579,W,1,9,1.6,18,M,,M,,*5E
06/26/2015	03:07:02.604	$GPGGA,030703,2553.9500,N,07952.7583,W,1,9,1.6,18,M,,M,,*5D
06/26/2015	03:07:03.488	$GPGGA,030704,2553.9491,N,07952.7585,W,1,9,1.6,18,M,,M,,*55
06/26/2015	03:07:04.578	$GPGGA,030705,2553.9484,N,07952.7587,W,1,9,1.6,18,M,,M,,*52
06/26/2015	03:07:05.578	$GPGGA,030706,2553.9478,N,07952.7590,W,1,9,1.6,18,M,,M,,*54
06/26/2015	03:07:06.578	$GPGGA,030707,2553.9469,N,07952.7594,W,1,9,1.6,18,M,,M,,*51
06/26/2015	03:07:07.608	$GPGGA,030708,2553.9462,N,07952.7597,W,1,9,1.6,18,M,,M,,*56
06/26/2015	03:07:08.569	$GPGGA,030709,2553.9454,N,07952.7599,W,1,9,1.6,19,M,,M,,*5D
06/26/2015	03:07:09.579	$GPGGA,030710,2553.9447,N,07952.7601,W,1,9,1.6,19,M,,M,,*55
06/26/2015	03:07:10.569	$GPGGA,030711,2553.9440,N,07952.7605,W,1,9,1.6,19,M,,M,,*57
06/26/2015	03:07:11.589	$GPGGA,030712,2553.9432,N,07952.7608,W,1,9,1.6,19,M,,M,,*5C
06/26/2015	03:07:12.569	$GPGGA,030713,2553.9424,N,07952.7610,W,1,9,1.6,19,M,,M,,*53
06/26/2015	03:07:13.602	$GPGGA,030714,2553.9417,N,07952.7613,W,1,9,1.6,19,M,,M,,*57
06/26/2015	03:07:14.559	$GPGGA,030715,2553.9410,N,07952.7617,W,1,9,1.6,19,M,,M,,*55
06/26/2015	03:07:15.920	$GPGGA,030716,2553.9403,N,07952.7620,W,1,9,1.6,19,M,,M,,*50
06/26/2015	03:07:16.559	$GPGGA,030717,2553.9396,N,07952.7623,W,1,9,1.6,19,M,,M,,*59
06/26/2015	03:07:17.549	$GPGGA,030718,2553.9388,N,07952.7626,W,1,9,1.6,19,M,,M,,*5C
06/26/2015	03:07:18.559	$GPGGA,030719,2553.9381,N,07952.7630,W,1,9,1.6,19,M,,M,,*53
06/26/2015	03:07:19.579	$GPGGA,030720,2553.9373,N,07952.7633,W,1,9,1.6,19,M,,M,,*57
06/26/2015	03:07:20.558	$GPGGA,030721,2553.9366,N,07952.7635,W,1,9,1.6,19,M,,M,,*54
06/26/2015	03:07:21.578	$GPGGA,030722,2553.9359,N,07952.7638,W,1,9,1.6,19,M,,M,,*56
06/26/2015	03:07:22.558	$GPGGA,030723,2553.9350,N,07952.7642,W,1,9,1.6,19,M,,M,,*53
06/26/2015	03:07:23.588	$GPGGA,030724,2553.9343,N,07952.7646,W,1,9,1.6,19,M,,M,,*52
06/26/2015	03:07:24.538	$GPGGA,030725,2553.9335,N,07952.7649,W,1,9,1.6,19,M,,M,,*5D
06/26/2015	03:07:25.569	$GPGGA,030726,2553.9327,N,07952.7652,W,1,9,1.6,19,M,,M,,*57
06/26/2015	03:07:26.529	$GPGGA,030727,2553.9320,N,07952.7656,W,1,9,1.6,19,M,,M,,*55
06/26/2015	03:07:27.579	$GPGGA,030728,2553.9313,N,07952.7660,W,1,9,1.6,19,M,,M,,*5F
06/26/2015	03:07:28.539	$GPGGA,030729,2553.9305,N,07952.7663,W,1,9,2.0,19,M,,M,,*5F
06/26/2015	03:07:29.539	$GPGGA,030730,2553.9297,N,07952.7667,W,1,9,1.6,19,M,,M,,*5C
06/26/2015	03:07:30.519	$GPGGA,030731,2553.9290,N,07952.7670,W,1,9,1.6,19,M,,M,,*5C
06/26/2015	03:07:31.549	$GPGGA,030732,2553.9281,N,07952.7674,W,1,9,1.6,19,M,,M,,*5B
06/26/2015	03:07:32.539	$GPGGA,030733,2553.9273,N,07952.7678,W,1,9,1.6,19,M,,M,,*5B
06/26/2015	03:07:33.539	$GPGGA,030734,2553.9265,N,07952.7682,W,1,9,1.6,19,M,,M,,*5E
06/26/2015	03:07:34.519	$GPGGA,030735,2553.9258,N,07952.7686,W,1,9,1.6,19,M,,M,,*55
06/26/2015	03:07:35.549	$GPGGA,030736,2553.9249,N,07952.7691,W,1,9,1.6,19,M,,M,,*50
06/26/2015	03:07:36.519	$GPGGA,030737,2553.9242,N,07952.7693,W,1,9,1.6,19,M,,M,,*58
06/26/2015	03:07:37.538	$GPGGA,030738,2553.9236,N,07952.7697,W,1,9,1.6,19,M,,M,,*50
06/26/2015	03:07:38.613	$GPGGA,030739,2553.9229,N,07952.7702,W,1,9,1.6,19,M,,M,,*52
06/26/2015	03:07:39.568	$GPGGA,030740,2553.9222,N,07952.7704,W,1,9,1.6,19,M,,M,,*51
06/26/2015	03:07:40.628	$GPGGA,030741,2553.9215,N,07952.7709,W,1,9,1.6,19,M,,M,,*59
06/26/2015	03:07:41.648	$GPGGA,030742,2553.9208,N,07952.7711,W,1,9,1.6,19,M,,M,,*5F
06/26/2015	03:07:42.512	$GPGGA,030743,2553.9201,N,07952.7715,W,1,9,1.6,19,M,,M,,*53
06/26/2015	03:07:43.629	$GPGGA,030744,2553.9193,N,07952.7718,W,1,9,1.6,20,M,,M,,*5B
06/26/2015	03:07:44.509	$GPGGA,030745,2553.9186,N,07952.7721,W,1,9,1.6,20,M,,M,,*54
06/26/2015	03:07:45.629	$GPGGA,030746,2553.9179,N,07952.7725,W,1,9,1.6,20,M,,M,,*53
06/26/2015	03:07:46.511	$GPGGA,030747,2553.9172,N,07952.7728,W,1,9,1.6,20,M,,M,,*54
06/26/2015	03:07:47.619	$GPGGA,030748,2553.9165,N,07952.7731,W,1,9,1.6,20,M,,M,,*55
06/26/2015	03:07:48.599	$GPGGA,030749,2553.9158,N,07952.7735,W,1,9,1.6,20,M,,M,,*5E
06/26/2015	03:07:49.639	$GPGGA,030750,2553.9151,N,07952.7738,W,1,9,1.6,20,M,,M,,*52
06/26/2015	03:07:50.501	$GPGGA,030751,2553.9144,N,07952.7742,W,1,9,1.6,20,M,,M,,*5A
06/26/2015	03:07:51.619	$GPGGA,030752,2553.9136,N,07952.7745,W,1,9,1.6,20,M,,M,,*5B
06/26/2015	03:07:52.589	$GPGGA,030753,2553.9129,N,07952.7746,W,1,9,1.6,20,M,,M,,*57
06/26/2015	03:07:53.629	$GPGGA,030754,2553.9122,N,07952.7749,W,1,9,1.6,20,M,,M,,*54
06/26/2015	03:07:54.579	$GPGGA,030755,2553.9115,N,07952.7753,W,1,9,1.6,20,M,,M,,*5A
06/26/2015	03:07:55.649	$GPGGA,030756,2553.9107,N,07952.7756,W,1,9,1.6,19,M,,M,,*55
06/26/2015	03:07:56.568	$GPGGA,030757,2553.9100,N,07952.7757,W,1,9,1.6,19,M,,M,,*52
06/26/2015	03:07:57.600	$GPGGA,030758,2553.9093,N,07952.7760,W,1,9,1.6,19,M,,M,,*52
06/26/2015	03:07:58.578	$GPGGA,030759,2553.9085,N,07952.7762,W,1,9,1.6,19,M,,M,,*56
06/26/2015	03:07:59.628	$GPGGA,030800,2553.9077,N,07952.7764,W,1,9,1.6,19,M,,M,,*5E
06/26/2015	03:08:00.579	$GPGGA,030801,2553.9070,N,07952.7767,W,1,9,1.6,19,M,,M,,*5B
06/26/2015	03:08:01.579	$GPGGA,030802,2553.9063,N,07952.7769,W,1,9,1.6,19,M,,M,,*54
06/26/2015	03:08:02.569	$GPGGA,030803,2553.9055,N,07952.7772,W,1,9,1.6,19,M,,M,,*5A
06/26/2015	03:08:03.599	$GPGGA,030804,2553.9048,N,07952.7775,W,1,9,1.6,19,M,,M,,*56
06/26/2015	03:08:04.559	$GPGGA,030805,2553.9041,N,07952.7776,W,1,9,1.6,19,M,,M,,*5D
06/26/2015	03:08:05.549	$GPGGA,030806,2553.9034,N,07952.7779,W,1,9,1.6,19,M,,M,,*53
06/26/2015	03:08:06.560	$GPGGA,030807,2553.9026,N,07952.7782,W,1,9,1.6,19,M,,M,,*55
06/26/2015	03:08:07.629	$GPGGA,030808,2553.9019,N,07952.7785,W,1,9,1.6,19,M,,M,,*51
06/26/2015	03:08:08.549	$GPGGA,030809,2553.9012,N,07952.7786,W,1,9,1.6,19,M,,M,,*58
06/26/2015	03:08:09.559	$GPGGA,030810,2553.9005,N,07952.7789,W,1,9,1.4,19,M,,M,,*5B
06/26/2015	03:08:10.549	$GPGGA,030811,2553.8996,N,07952.7790,W,1,9,1.4,19,M,,M,,*50
06/26/2015	03:08:11.579	$GPGGA,030812,2553.8989,N,07952.7793,W,1,9,1.4,19,M,,M,,*5E
06/26/2015	03:08:12.558	$GPGGA,030813,2553.8981,N,07952.7796,W,1,9,1.4,19,M,,M,,*52
06/26/2015	03:08:13.558	$GPGGA,030814,2553.8974,N,07952.7798,W,1,9,1.4,19,M,,M,,*51
06/26/2015	03:08:14.538	$GPGGA,030815,2553.8966,N,07952.7800,W,1,9,1.4,19,M,,M,,*5D
06/26/2015	03:08:15.569	$GPGGA,030816,2553.8958,N,07952.7803,W,1,9,1.6,19,M,,M,,*52
06/26/2015	03:08:16.538	$GPGGA,030817,2553.8952,N,07952.7804,W,1,9,1.6,19,M,,M,,*5E
06/26/2015	03:08:17.538	$GPGGA,030818,2553.8944,N,07952.7807,W,1,8,1.6,19,M,,M,,*54
06/26/2015	03:08:18.508	$GPGGA,030819,2553.8936,N,07952.7809,W,1,8,1.6,19,M,,M,,*5E
06/26/2015	03:08:19.568	$GPGGA,030820,2553.8929,N,07952.7811,W,1,8,1.6,19,M,,M,,*53
06/26/2015	03:08:20.508	$GPGGA,030821,2553.8922,N,07952.7814,W,1,8,1.6,19,M,,M,,*5C
06/26/2015	03:08:21.528	$GPGGA,030822,2553.8914,N,07952.7818,W,1,8,1.6,18,M,,M,,*57
06/26/2015	03:08:22.501	$GPGGA,030823,2553.8907,N,07952.7819,W,1,8,1.6,18,M,,M,,*55
06/26/2015	03:08:23.558	$GPGGA,030824,2553.8900,N,07952.7822,W,1,8,1.6,18,M,,M,,*5D
06/26/2015	03:08:24.628	$GPGGA,030825,2553.8893,N,07952.7825,W,1,8,1.6,18,M,,M,,*50
06/26/2015	03:08:25.608	$GPGGA,030826,2553.8884,N,07952.7829,W,1,8,1.6,18,M,,M,,*59
06/26/2015	03:08:26.518	$GPGGA,030827,2553.8878,N,07952.7832,W,1,8,1.6,18,M,,M,,*51
06/26/2015	03:08:27.628	$GPGGA,030828,2553.8871,N,07952.7836,W,1,8,1.6,18,M,,M,,*53
06/26/2015	03:08:28.502	$GPGGA,030829,2553.8864,N,07952.7839,W,1,8,1.6,18,M,,M,,*59
06/26/2015	03:08:29.519	$GPGGA,030830,2553.8855,N,07952.7841,W,1,8,1.6,18,M,,M,,*5C
06/26/2015	03:08:30.508	$GPGGA,030831,2553.8848,N,07952.7844,W,1,8,1.6,18,M,,M,,*54
06/26/2015	03:08:31.558	$GPGGA,030832,2553.8842,N,07952.7850,W,1,7,1.6,18,M,,M,,*57
06/26/2015	03:08:32.508	$GPGGA,030833,2553.8833,N,07952.7852,W,1,7,1.6,18,M,,M,,*52
06/26/2015	03:08:33.518	$GPGGA,030834,2553.8826,N,07952.7857,W,1,8,1.6,18,M,,M,,*5B
06/26/2015	03:08:34.578	$GPGGA,030835,2553.8819,N,07952.7859,W,1,8,1.6,18,M,,M,,*58
06/26/2015	03:08:35.548	$GPGGA,030836,2553.8812,N,07952.7863,W,1,8,1.6,18,M,,M,,*59
06/26/2015	03:08:36.578	$GPGGA,030837,2553.8806,N,07952.7865,W,1,8,1.6,18,M,,M,,*5B
06/26/2015	03:08:37.493	$GPGGA,030838,2553.8799,N,07952.7869,W,1,8,1.6,18,M,,M,,*51
06/26/2015	03:08:38.568	$GPGGA,030839,2553.8792,N,07952.7872,W,1,8,1.6,18,M,,M,,*51
06/26/2015	03:08:39.578	$GPGGA,030840,2553.8784,N,07952.7876,W,1,8,1.6,18,M,,M,,*5C
06/26/2015	03:08:40.578	$GPGGA,030841,2553.8777,N,07952.7879,W,1,8,1.6,18,M,,M,,*5E
06/26/2015	03:08:41.568	$GPGGA,030842,2553.8770,N,07952.7883,W,1,8,1.6,18,M,,M,,*5F
06/26/2015	03:08:42.568	$GPGGA,030843,2553.8763,N,07952.7887,W,1,8,1.6,18,M,,M,,*58
06/26/2015	03:08:44.080	$GPGGA,030844,2553.8756,N,07952.7888,W,1,8,1.6,18,M,,M,,*56
06/26/2015	03:08:44.568	$GPGGA,030845,2553.8749,N,07952.7892,W,1,8,1.6,18,M,,M,,*52
06/26/2015	03:08:45.558	$GPGGA,030846,2553.8742,N,07952.7897,W,1,8,1.6,18,M,,M,,*5F
06/26/2015	03:08:46.569	$GPGGA,030847,2553.8735,N,07952.7898,W,1,8,1.6,18,M,,M,,*51
06/26/2015	03:08:47.578	$GPGGA,030848,2553.8728,N,07952.7902,W,1,9,1.6,18,M,,M,,*51
06/26/2015	03:08:48.558	$GPGGA,030849,2553.8721,N,07952.7906,W,1,9,1.6,18,M,,M,,*5D
06/26/2015	03:08:49.568	$GPGGA,030850,2553.8713,N,07952.7909,W,1,9,1.6,17,M,,M,,*54
06/26/2015	03:08:50.568	$GPGGA,030851,2553.8706,N,07952.7912,W,1,9,1.6,17,M,,M,,*5B
06/26/2015	03:08:51.578	$GPGGA,030852,2553.8700,N,07952.7916,W,1,9,1.6,17,M,,M,,*5A
06/26/2015	03:08:52.568	$GPGGA,030853,2553.8692,N,07952.7919,W,1,9,1.6,17,M,,M,,*5E
06/26/2015	03:08:53.568	$GPGGA,030854,2553.8685,N,07952.7923,W,1,9,1.6,17,M,,M,,*56
06/26/2015	03:08:54.548	$GPGGA,030855,2553.8678,N,07952.7926,W,1,9,1.6,17,M,,M,,*50
06/26/2015	03:08:55.568	$GPGGA,030856,2553.8670,N,07952.7928,W,1,9,1.6,17,M,,M,,*55
06/26/2015	03:08:56.528	$GPGGA,030857,2553.8665,N,07952.7933,W,1,9,1.6,17,M,,M,,*5A
06/26/2015	03:08:57.548	$GPGGA,030858,2553.8656,N,07952.7937,W,1,9,1.6,17,M,,M,,*51
06/26/2015	03:08:58.538	$GPGGA,030859,2553.8648,N,07952.7939,W,1,9,1.6,17,M,,M,,*51
06/26/2015	03:08:59.599	$GPGGA,030900,2553.8641,N,07952.7944,W,1,8,1.6,17,M,,M,,*5E
06/26/2015	03:09:00.538	$GPGGA,030901,2553.8633,N,07952.7948,W,1,8,1.6,17,M,,M,,*56
06/26/2015	03:09:01.528	$GPGGA,030902,2553.8624,N,07952.7952,W,1,9,1.6,17,M,,M,,*59
06/26/2015	03:09:02.538	$GPGGA,030903,2553.8617,N,07952.7955,W,1,9,1.6,17,M,,M,,*5F
06/26/2015	03:09:03.539	$GPGGA,030904,2553.8609,N,07952.7959,W,1,9,1.6,17,M,,M,,*5B
06/26/2015	03:09:04.529	$GPGGA,030905,2553.8602,N,07952.7962,W,1,9,1.6,17,M,,M,,*59
06/26/2015	03:09:05.518	$GPGGA,030906,2553.8595,N,07952.7966,W,1,9,1.6,16,M,,M,,*52
06/26/2015	03:09:06.528	$GPGGA,030907,2553.8587,N,07952.7967,W,1,9,1.6,16,M,,M,,*51
06/26/2015	03:09:07.558	$GPGGA,030908,2553.8579,N,07952.7970,W,1,9,1.6,16,M,,M,,*59
06/26/2015	03:09:08.518	$GPGGA,030909,2553.8572,N,07952.7974,W,1,9,1.6,16,M,,M,,*57
06/26/2015	03:09:09.508	$GPGGA,030910,2553.8564,N,07952.7977,W,1,9,1.6,16,M,,M,,*5B
06/26/2015	03:09:10.528	$GPGGA,030911,2553.8557,N,07952.7980,W,1,9,1.6,16,M,,M,,*52
06/26/2015	03:09:11.628	$GPGGA,030912,2553.8549,N,07952.7982,W,1,9,1.6,16,M,,M,,*5C
06/26/2015	03:09:12.508	$GPGGA,030913,2553.8542,N,07952.7984,W,1,9,1.6,16,M,,M,,*50
06/26/2015	03:09:13.518	$GPGGA,030914,2553.8535,N,07952.7986,W,1,9,1.6,16,M,,M,,*55
06/26/2015	03:09:14.503	$GPGGA,030915,2553.8528,N,07952.7989,W,1,9,1.6,16,M,,M,,*57
06/26/2015	03:09:15.638	$GPGGA,030916,2553.8521,N,07952.7992,W,1,9,1.6,16,M,,M,,*57
06/26/2015	03:09:16.507	$GPGGA,030917,2553.8512,N,07952.7995,W,1,9,1.6,16,M,,M,,*51
06/26/2015	03:09:17.590	$GPGGA,030918,2553.8505,N,07952.7999,W,1,9,1.6,16,M,,M,,*54
06/26/2015	03:09:18.496	$GPGGA,030919,2553.8497,N,07952.8002,W,1,9,1.6,16,M,,M,,*5B
06/26/2015	03:09:19.499	$GPGGA,030920,2553.8489,N,07952.8003,W,1,9,1.6,16,M,,M,,*5F
06/26/2015	03:09:20.601	$GPGGA,030921,2553.8482,N,07952.8007,W,1,9,1.6,16,M,,M,,*51
06/26/2015	03:09:21.589	$GPGGA,030922,2553.8475,N,07952.8010,W,1,9,1.6,15,M,,M,,*5F
06/26/2015	03:09:22.578	$GPGGA,030923,2553.8467,N,07952.8013,W,1,9,1.6,15,M,,M,,*5E
06/26/2015	03:09:23.499	$GPGGA,030924,2553.8460,N,07952.8017,W,1,9,1.6,15,M,,M,,*5A
06/26/2015	03:09:24.578	$GPGGA,030925,2553.8453,N,07952.8020,W,1,9,1.6,15,M,,M,,*5F
06/26/2015	03:09:25.598	$GPGGA,030926,2553.8445,N,07952.8022,W,1,9,1.6,15,M,,M,,*59
06/26/2015	03:09:26.496	$GPGGA,030927,2553.8438,N,07952.8027,W,1,9,1.6,15,M,,M,,*57
06/26/2015	03:09:27.593	$GPGGA,030928,2553.8430,N,07952.8029,W,1,9,1.6,15,M,,M,,*5E
06/26/2015	03:09:28.588	$GPGGA,030929,2553.8424,N,07952.8032,W,1,9,1.6,15,M,,M,,*50
06/26/2015	03:09:29.568	$GPGGA,030930,2553.8416,N,07952.8035,W,1,7,2.1,15,M,,M,,*54
06/26/2015	03:09:30.558	$GPGGA,030931,2553.8409,N,07952.8038,W,1,7,2.0,15,M,,M,,*57
06/26/2015	03:09:31.578	$GPGGA,030932,2553.8400,N,07952.8042,W,1,9,1.6,15,M,,M,,*5B
06/26/2015	03:09:32.569	$GPGGA,030933,2553.8393,N,07952.8046,W,1,9,1.6,15,M,,M,,*53
06/26/2015	03:09:33.558	$GPGGA,030934,2553.8387,N,07952.8049,W,1,8,2.0,15,M,,M,,*5A
06/26/2015	03:09:34.568	$GPGGA,030935,2553.8378,N,07952.8053,W,1,8,1.6,15,M,,M,,*55
06/26/2015	03:09:35.589	$GPGGA,030936,2553.8370,N,07952.8056,W,1,9,1.6,15,M,,M,,*5A
06/26/2015	03:09:36.568	$GPGGA,030937,2553.8362,N,07952.8058,W,1,9,1.6,15,M,,M,,*56
06/26/2015	03:09:37.548	$GPGGA,030938,2553.8354,N,07952.8061,W,1,9,1.6,15,M,,M,,*56
06/26/2015	03:09:38.559	$GPGGA,030939,2553.8347,N,07952.8064,W,1,9,1.6,15,M,,M,,*50
06/26/2015	03:09:39.579	$GPGGA,030940,2553.8341,N,07952.8069,W,1,8,2.0,15,M,,M,,*51
06/26/2015	03:09:40.548	$GPGGA,030941,2553.8333,N,07952.8072,W,1,8,1.6,15,M,,M,,*5A
06/26/2015	03:09:41.558	$GPGGA,030942,2553.8326,N,07952.8075,W,1,9,1.6,15,M,,M,,*5B
06/26/2015	03:09:42.548	$GPGGA,030943,2553.8315,N,07952.8078,W,1,9,1.6,15,M,,M,,*57
06/26/2015	03:09:43.568	$GPGGA,030944,2553.8306,N,07952.8082,W,1,9,1.6,15,M,,M,,*57
06/26/2015	03:09:45.158	$GPGGA,030945,2553.8298,N,07952.8085,W,1,9,1.6,15,M,,M,,*57
06/26/2015	03:09:45.569	$GPGGA,030946,2553.8291,N,07952.8089,W,1,9,1.6,15,M,,M,,*51
06/26/2015	03:09:46.538	$GPGGA,030947,2553.8283,N,07952.8092,W,1,9,1.6,15,M,,M,,*59
06/26/2015	03:09:47.558	$GPGGA,030948,2553.8276,N,07952.8096,W,1,9,1.6,15,M,,M,,*58
06/26/2015	03:09:48.538	$GPGGA,030949,2553.8268,N,07952.8098,W,1,9,1.6,15,M,,M,,*58
06/26/2015	03:09:49.528	$GPGGA,030950,2553.8260,N,07952.8101,W,1,9,1.6,15,M,,M,,*59
06/26/2015	03:09:50.538	$GPGGA,030951,2553.8253,N,07952.8107,W,1,9,1.6,15,M,,M,,*5E
06/26/2015	03:09:51.578	$GPGGA,030952,2553.8246,N,07952.8110,W,1,9,1.6,15,M,,M,,*5F
06/26/2015	03:09:52.528	$GPGGA,030953,2553.8239,N,07952.8114,W,1,9,1.6,15,M,,M,,*52
06/26/2015	03:09:53.508	$GPGGA,030954,2553.8232,N,07952.8118,W,1,9,1.6,15,M,,M,,*52
06/26/2015	03:09:54.528	$GPGGA,030955,2553.8224,N,07952.8121,W,1,9,1.6,15,M,,M,,*5E
06/26/2015	03:09:55.558	$GPGGA,030956,2553.8217,N,07952.8125,W,1,9,1.6,15,M,,M,,*59
06/26/2015	03:09:56.529	$GPGGA,030957,2553.8210,N,07952.8129,W,1,9,2.0,15,M,,M,,*56
06/26/2015	03:09:57.508	$GPGGA,030958,2553.8203,N,07952.8132,W,1,8,2.0,15,M,,M,,*50
06/26/2015	03:09:58.528	$GPGGA,030959,2553.8197,N,07952.8136,W,1,8,2.0,15,M,,M,,*5B
06/26/2015	03:09:59.558	$GPGGA,031000,2553.8190,N,07952.8140,W,1,8,2.0,15,M,,M,,*59
06/26/2015	03:10:00.508	$GPGGA,031001,2553.8183,N,07952.8144,W,1,8,2.0,15,M,,M,,*5E
06/26/2015	03:10:01.538	$GPGGA,031002,2553.8175,N,07952.8147,W,1,8,2.0,15,M,,M,,*57
06/26/2015	03:10:02.508	$GPGGA,031003,2553.8168,N,07952.8150,W,1,8,1.6,15,M,,M,,*59
06/26/2015	03:10:03.538	$GPGGA,031004,2553.8161,N,07952.8154,W,1,9,1.6,15,M,,M,,*52
06/26/2015	03:10:04.498	$GPGGA,031005,2553.8153,N,07952.8158,W,1,9,2.0,15,M,,M,,*5B
06/26/2015	03:10:05.508	$GPGGA,031006,2553.8146,N,07952.8161,W,1,9,1.6,15,M,,M,,*53
06/26/2015	03:10:06.589	$GPGGA,031007,2553.8139,N,07952.8165,W,1,9,2.1,15,M,,M,,*5A
06/26/2015	03:10:07.608	$GPGGA,031008,2553.8131,N,07952.8169,W,1,8,2.0,15,M,,M,,*51
06/26/2015	03:10:08.488	$GPGGA,031009,2553.8124,N,07952.8173,W,1,8,2.0,15,M,,M,,*5F
06/26/2015	03:10:09.618	$GPGGA,031010,2553.8116,N,07952.8176,W,1,9,1.6,15,M,,M,,*57
06/26/2015	03:10:10.578	$GPGGA,031011,2553.8106,N,07952.8179,W,1,9,1.6,15,M,,M,,*58
06/26/2015	03:10:11.498	$GPGGA,031012,2553.8099,N,07952.8181,W,1,9,1.6,15,M,,M,,*5B
06/26/2015	03:10:12.478	$GPGGA,031013,2553.8092,N,07952.8184,W,1,9,2.0,15,M,,M,,*51
06/26/2015	03:10:13.569	$GPGGA,031014,2553.8084,N,07952.8188,W,1,8,2.0,15,M,,M,,*5C
06/26/2015	03:10:14.493	$GPGGA,031015,2553.8077,N,07952.8191,W,1,8,2.0,15,M,,M,,*59
06/26/2015	03:10:15.618	$GPGGA,031016,2553.8069,N,07952.8194,W,1,9,1.6,14,M,,M,,*55
06/26/2015	03:10:16.578	$GPGGA,031017,2553.8059,N,07952.8197,W,1,9,1.6,14,M,,M,,*54
06/26/2015	03:10:17.608	$GPGGA,031018,2553.8052,N,07952.8199,W,1,9,1.6,14,M,,M,,*5E
06/26/2015	03:10:18.568	$GPGGA,031019,2553.8044,N,07952.8202,W,1,9,1.6,14,M,,M,,*59
06/26/2015	03:10:19.618	$GPGGA,031020,2553.8036,N,07952.8205,W,1,9,1.6,14,M,,M,,*51
06/26/2015	03:10:20.569	$GPGGA,031021,2553.8028,N,07952.8208,W,1,9,1.6,14,M,,M,,*52
06/26/2015	03:10:22.599	$GPGGA,031023,2553.8015,N,07952.8213,W,1,9,1.6,14,M,,M,,*54
06/26/2015	03:10:23.608	$GPGGA,031024,2553.8006,N,07952.8216,W,1,9,1.6,14,M,,M,,*54
06/26/2015	03:10:24.558	$GPGGA,031025,2553.7999,N,07952.8219,W,1,9,1.6,14,M,,M,,*5A
06/26/2015	03:10:25.568	$GPGGA,031026,2553.7992,N,07952.8223,W,1,9,1.6,14,M,,M,,*5B
06/26/2015	03:10:26.558	$GPGGA,031027,2553.7986,N,07952.8226,W,1,9,1.6,14,M,,M,,*5A
06/26/2015	03:10:27.578	$GPGGA,031028,2553.7977,N,07952.8227,W,1,9,1.6,14,M,,M,,*5A
06/26/2015	03:10:28.548	$GPGGA,031029,2553.7970,N,07952.8230,W,1,9,1.6,14,M,,M,,*5A
06/26/2015	03:10:29.558	$GPGGA,031030,2553.7963,N,07952.8233,W,1,9,1.6,14,M,,M,,*53
06/26/2015	03:10:30.548	$GPGGA,031031,2553.7955,N,07952.8237,W,1,9,1.6,14,M,,M,,*53
06/26/2015	03:10:31.579	$GPGGA,031032,2553.7948,N,07952.8240,W,1,8,1.6,14,M,,M,,*5D
06/26/2015	03:10:32.538	$GPGGA,031033,2553.7940,N,07952.8244,W,1,8,1.6,14,M,,M,,*50
06/26/2015	03:10:33.958	$GPGGA,031034,2553.7933,N,07952.8246,W,1,8,1.6,14,M,,M,,*51
06/26/2015	03:10:34.538	$GPGGA,031035,2553.7925,N,07952.8249,W,1,8,1.6,14,M,,M,,*58
06/26/2015	03:10:35.589	$GPGGA,031036,2553.7919,N,07952.8252,W,1,9,1.6,14,M,,M,,*5F
06/26/2015	03:10:36.538	$GPGGA,031037,2553.7912,N,07952.8255,W,1,9,1.6,14,M,,M,,*52
06/26/2015	03:10:37.558	$GPGGA,031038,2553.7904,N,07952.8258,W,1,9,1.6,14,M,,M,,*57
06/26/2015	03:10:38.538	$GPGGA,031039,2553.7897,N,07952.8259,W,1,9,1.6,14,M,,M,,*5C
06/26/2015	03:10:39.568	$GPGGA,031040,2553.7890,N,07952.8262,W,1,8,1.9,14,M,,M,,*53
06/26/2015	03:10:40.518	$GPGGA,031041,2553.7883,N,07952.8266,W,1,8,1.6,14,M,,M,,*5B
06/26/2015	03:10:41.538	$GPGGA,031042,2553.7876,N,07952.8270,W,1,9,1.6,14,M,,M,,*54
06/26/2015	03:10:42.518	$GPGGA,031043,2553.7869,N,07952.8274,W,1,9,1.6,14,M,,M,,*5F
06/26/2015	03:10:43.548	$GPGGA,031044,2553.7863,N,07952.8277,W,1,9,1.6,14,M,,M,,*51
06/26/2015	03:10:44.518	$GPGGA,031045,2553.7856,N,07952.8281,W,1,9,1.6,14,M,,M,,*5F
06/26/2015	03:10:45.518	$GPGGA,031046,2553.7849,N,07952.8285,W,1,9,1.6,14,M,,M,,*56
06/26/2015	03:10:46.508	$GPGGA,031047,2553.7840,N,07952.8288,W,1,9,1.6,14,M,,M,,*53
06/26/2015	03:10:47.538	$GPGGA,031048,2553.7833,N,07952.8291,W,1,9,1.6,14,M,,M,,*50
06/26/2015	03:10:48.519	$GPGGA,031049,2553.7825,N,07952.8295,W,1,9,1.6,14,M,,M,,*52
06/26/2015	03:10:49.691	$GPGGA,031050,2553.7818,N,07952.8299,W,1,9,1.6,14,M,,M,,*58
06/26/2015	03:10:50.498	$GPGGA,031051,2553.7810,N,07952.8303,W,1,9,1.6,14,M,,M,,*53
06/26/2015	03:10:51.508	$GPGGA,031052,2553.7803,N,07952.8307,W,1,9,1.6,14,M,,M,,*56
06/26/2015	03:10:52.518	$GPGGA,031053,2553.7795,N,07952.8310,W,1,9,1.6,14,M,,M,,*51
06/26/2015	03:10:53.498	$GPGGA,031054,2553.7788,N,07952.8314,W,1,9,1.6,14,M,,M,,*5E
06/26/2015	03:10:54.590	$GPGGA,031055,2553.7780,N,07952.8318,W,1,9,1.6,14,M,,M,,*5B
06/26/2015	03:10:55.498	$GPGGA,031056,2553.7773,N,07952.8321,W,1,9,1.6,14,M,,M,,*5E
06/26/2015	03:10:56.588	$GPGGA,031057,2553.7766,N,07952.8324,W,1,9,1.6,14,M,,M,,*5E
06/26/2015	03:10:57.690	$GPGGA,031058,2553.7757,N,07952.8328,W,1,9,1.6,14,M,,M,,*5F
06/26/2015	03:10:58.500	$GPGGA,031059,2553.7749,N,07952.8332,W,1,9,1.6,14,M,,M,,*5A
06/26/2015	03:10:59.691	$GPGGA,031100,2553.7742,N,07952.8335,W,1,9,1.6,13,M,,M,,*5C
06/26/2015	03:11:00.578	$GPGGA,031101,2553.7734,N,07952.8339,W,1,9,1.6,13,M,,M,,*50
06/26/2015	03:11:01.678	$GPGGA,031102,2553.7727,N,07952.8343,W,1,9,1.6,13,M,,M,,*5C
06/26/2015	03:11:02.618	$GPGGA,031103,2553.7719,N,07952.8346,W,1,9,1.6,13,M,,M,,*55
06/26/2015	03:11:03.928	$GPGGA,031104,2553.7711,N,07952.8350,W,1,9,1.6,13,M,,M,,*5D
06/26/2015	03:11:04.628	$GPGGA,031105,2553.7704,N,07952.8354,W,1,9,1.6,13,M,,M,,*5C
06/26/2015	03:11:05.679	$GPGGA,031106,2553.7697,N,07952.8357,W,1,9,1.6,13,M,,M,,*57
06/26/2015	03:11:06.569	$GPGGA,031107,2553.7690,N,07952.8361,W,1,9,1.6,13,M,,M,,*54
06/26/2015	03:11:07.678	$GPGGA,031108,2553.7681,N,07952.8364,W,1,9,1.6,13,M,,M,,*5E
06/26/2015	03:11:08.602	$GPGGA,031109,2553.7673,N,07952.8367,W,1,9,1.6,13,M,,M,,*51
06/26/2015	03:11:09.658	$GPGGA,031110,2553.7665,N,07952.8371,W,1,9,1.6,13,M,,M,,*59
06/26/2015	03:11:10.589	$GPGGA,031111,2553.7658,N,07952.8375,W,1,9,1.6,13,M,,M,,*52
06/26/2015	03:11:11.648	$GPGGA,031112,2553.7650,N,07952.8378,W,1,9,1.6,13,M,,M,,*54
06/26/2015	03:11:12.548	$GPGGA,031113,2553.7643,N,07952.8382,W,1,9,1.6,13,M,,M,,*52
06/26/2015	03:11:14.548	$GPGGA,031114,2553.7634,N,07952.8385,W,1,9,1.6,13,M,,M,,*52
06/26/2015	03:11:14.578	$GPGGA,031115,2553.7626,N,07952.8389,W,1,9,1.6,13,M,,M,,*5C
06/26/2015	03:11:15.668	$GPGGA,031116,2553.7618,N,07952.8392,W,1,9,1.6,13,M,,M,,*58
06/26/2015	03:11:16.578	$GPGGA,031117,2553.7611,N,07952.8396,W,1,9,1.6,13,M,,M,,*54
06/26/2015	03:11:17.538	$GPGGA,031118,2553.7603,N,07952.8399,W,1,9,1.6,13,M,,M,,*57
06/26/2015	03:11:18.568	$GPGGA,031119,2553.7596,N,07952.8401,W,1,9,1.6,13,M,,M,,*5F
06/26/2015	03:11:19.668	$GPGGA,031120,2553.7589,N,07952.8404,W,1,9,1.6,13,M,,M,,*5E
06/26/2015	03:11:20.538	$GPGGA,031121,2553.7581,N,07952.8407,W,1,9,1.6,13,M,,M,,*54
06/26/2015	03:11:21.608	$GPGGA,031122,2553.7574,N,07952.8410,W,1,9,1.6,13,M,,M,,*5B
06/26/2015	03:11:22.528	$GPGGA,031123,2553.7567,N,07952.8412,W,1,9,1.6,13,M,,M,,*5A
06/26/2015	03:11:23.649	$GPGGA,031124,2553.7558,N,07952.8415,W,1,9,1.6,13,M,,M,,*56
06/26/2015	03:11:24.529	$GPGGA,031125,2553.7550,N,07952.8418,W,1,9,1.6,13,M,,M,,*52
06/26/2015	03:11:25.649	$GPGGA,031126,2553.7543,N,07952.8421,W,1,9,1.6,13,M,,M,,*59
06/26/2015	03:11:26.558	$GPGGA,031127,2553.7535,N,07952.8423,W,1,9,1.6,13,M,,M,,*5B
06/26/2015	03:11:27.608	$GPGGA,031128,2553.7528,N,07952.8426,W,1,9,1.6,13,M,,M,,*5D
06/26/2015	03:11:28.518	$GPGGA,031129,2553.7521,N,07952.8429,W,1,9,1.6,13,M,,M,,*5A
06/26/2015	03:11:29.628	$GPGGA,031130,2553.7514,N,07952.8432,W,1,9,1.6,13,M,,M,,*5E
06/26/2015	03:11:30.558	$GPGGA,031131,2553.7506,N,07952.8436,W,1,9,1.6,13,M,,M,,*58
06/26/2015	03:11:31.528	$GPGGA,031132,2553.7498,N,07952.8439,W,1,8,1.6,13,M,,M,,*53
06/26/2015	03:11:32.508	$GPGGA,031133,2553.7491,N,07952.8441,W,1,8,1.6,13,M,,M,,*54
06/26/2015	03:11:33.598	$GPGGA,031134,2553.7484,N,07952.8444,W,1,9,1.6,13,M,,M,,*53
06/26/2015	03:11:34.508	$GPGGA,031135,2553.7477,N,07952.8446,W,1,9,1.6,13,M,,M,,*5C
06/26/2015	03:11:35.518	$GPGGA,031136,2553.7469,N,07952.8450,W,1,9,1.6,13,M,,M,,*57
06/26/2015	03:11:36.538	$GPGGA,031137,2553.7462,N,07952.8451,W,1,9,1.6,13,M,,M,,*5C
06/26/2015	03:11:37.628	$GPGGA,031138,2553.7455,N,07952.8454,W,1,9,1.6,13,M,,M,,*52
06/26/2015	03:11:38.538	$GPGGA,031139,2553.7448,N,07952.8458,W,1,9,1.6,13,M,,M,,*53
06/26/2015	03:11:39.608	$GPGGA,031140,2553.7439,N,07952.8461,W,1,9,1.6,13,M,,M,,*51
06/26/2015	03:11:40.619	$GPGGA,031141,2553.7431,N,07952.8465,W,1,9,1.6,13,M,,M,,*5C
06/26/2015	03:11:41.591	$GPGGA,031142,2553.7423,N,07952.8468,W,1,9,1.6,13,M,,M,,*51
06/26/2015	03:11:42.593	$GPGGA,031143,2553.7415,N,07952.8472,W,1,9,1.6,13,M,,M,,*5E
06/26/2015	03:11:43.508	$GPGGA,031144,2553.7408,N,07952.8475,W,1,9,1.6,13,M,,M,,*52
06/26/2015	03:11:44.588	$GPGGA,031145,2553.7401,N,07952.8479,W,1,9,1.6,13,M,,M,,*56
06/26/2015	03:11:45.618	$GPGGA,031146,2553.7393,N,07952.8483,W,1,9,1.6,13,M,,M,,*5C
06/26/2015	03:11:46.528	$GPGGA,031147,2553.7385,N,07952.8486,W,1,9,1.6,13,M,,M,,*5F
06/26/2015	03:11:47.600	$GPGGA,031148,2553.7377,N,07952.8490,W,1,9,1.6,13,M,,M,,*5A
06/26/2015	03:11:48.578	$GPGGA,031149,2553.7370,N,07952.8493,W,1,9,1.6,13,M,,M,,*5F
