Software Version Number: 1	Data File Format Number: 1	Build Version Number: 1	Error Count Since VI Started: 3	Manufacturer: Raytheon	 Model Number: RayMarine 120	 S/N: 	 Cal Date: 	 Wind Direction Offset: 0.00	 Slope (M)1: 0.00	 Offset (B)1: 0.00	 Slope (M)2: 0.00	 Offset (B)2: 0.00	 Slope (M)3: 0.00	 Offset (B)3: 0.00	 Slope (M)4: 0.00	 Offset (B)4: 0.00	 Slope (M)5: 0.00	 Offset (B)5: 0.00	 Slope (M)6: 0.00	 Offset (B)6: 0.00
Computer Date	Computer Time	GGA String
06/25/2015	02:00:00.534	$GPGGA,020001,2536.3112,N,08001.8886,W,1,11,1.6,14,M,,M,,*65
06/25/2015	02:00:01.553	$GPGGA,020002,2536.3098,N,08001.8881,W,1,11,1.7,14,M,,M,,*63
06/25/2015	02:00:02.537	$GPGGA,020003,2536.3098,N,08001.8881,W,1,11,1.7,14,M,,M,,*62
06/25/2015	02:00:03.543	$GPGGA,020004,2536.3087,N,08001.8875,W,1,11,1.6,14,M,,M,,*61
06/25/2015	02:00:04.563	$GPGGA,020005,2536.3087,N,08001.8875,W,1,11,1.6,14,M,,M,,*60
06/25/2015	02:00:05.513	$GPGGA,020006,2536.3074,N,08001.8871,W,1,11,1.6,14,M,,M,,*6B
06/25/2015	02:00:06.613	$GPGGA,020007,2536.3069,N,08001.8867,W,1,11,1.6,15,M,,M,,*60
06/25/2015	02:00:07.613	$GPGGA,020008,2536.3062,N,08001.8865,W,1,11,1.6,15,M,,M,,*66
06/25/2015	02:00:08.614	$GPGGA,020009,2536.3055,N,08001.8863,W,1,11,1.6,15,M,,M,,*65
06/25/2015	02:00:09.604	$GPGGA,020010,2536.3048,N,08001.8859,W,1,11,1.6,15,M,,M,,*68
06/25/2015	02:00:10.614	$GPGGA,020011,2536.3042,N,08001.8856,W,1,11,1.6,15,M,,M,,*6C
06/25/2015	02:00:11.604	$GPGGA,020012,2536.3035,N,08001.8854,W,1,11,1.6,15,M,,M,,*6D
06/25/2015	02:00:12.515	$GPGGA,020013,2536.3035,N,08001.8854,W,1,11,1.6,15,M,,M,,*6C
06/25/2015	02:00:14.630	$GPGGA,020015,2536.3016,N,08001.8846,W,1,11,1.6,15,M,,M,,*68
06/25/2015	02:00:15.594	$GPGGA,020016,2536.3009,N,08001.8844,W,1,11,1.6,15,M,,M,,*67
06/25/2015	02:00:16.604	$GPGGA,020017,2536.3004,N,08001.8841,W,1,11,1.6,15,M,,M,,*6E
06/25/2015	02:00:17.604	$GPGGA,020018,2536.2997,N,08001.8839,W,1,11,1.6,15,M,,M,,*6C
06/25/2015	02:00:18.583	$GPGGA,020019,2536.2990,N,08001.8836,W,1,11,1.6,15,M,,M,,*65
06/25/2015	02:00:20.603	$GPGGA,020021,2536.2976,N,08001.8830,W,1,11,1.6,15,M,,M,,*60
06/25/2015	02:00:21.573	$GPGGA,020022,2536.2970,N,08001.8828,W,1,11,1.6,15,M,,M,,*6C
06/25/2015	02:00:22.603	$GPGGA,020023,2536.2964,N,08001.8827,W,1,11,1.6,15,M,,M,,*67
06/25/2015	02:00:23.603	$GPGGA,020024,2536.2957,N,08001.8824,W,1,11,1.6,15,M,,M,,*63
06/25/2015	02:00:24.573	$GPGGA,020025,2536.2951,N,08001.8822,W,1,11,1.6,15,M,,M,,*62
06/25/2015	02:00:25.584	$GPGGA,020026,2536.2945,N,08001.8821,W,1,11,1.6,15,M,,M,,*67
06/25/2015	02:00:26.574	$GPGGA,020027,2536.2939,N,08001.8818,W,1,11,1.6,15,M,,M,,*67
06/25/2015	02:00:27.624	$GPGGA,020028,2536.2932,N,08001.8815,W,1,11,1.6,15,M,,M,,*6E
06/25/2015	02:00:28.564	$GPGGA,020029,2536.2926,N,08001.8813,W,1,11,1.6,15,M,,M,,*6C
06/25/2015	02:00:29.584	$GPGGA,020030,2536.2919,N,08001.8811,W,1,11,1.6,15,M,,M,,*6A
06/25/2015	02:00:30.564	$GPGGA,020031,2536.2912,N,08001.8809,W,1,11,1.6,15,M,,M,,*69
06/25/2015	02:00:31.594	$GPGGA,020032,2536.2906,N,08001.8807,W,1,11,1.6,15,M,,M,,*61
06/25/2015	02:00:32.544	$GPGGA,020033,2536.2900,N,08001.8804,W,1,11,1.6,15,M,,M,,*65
06/25/2015	02:00:33.574	$GPGGA,020034,2536.2893,N,08001.8803,W,1,11,1.6,15,M,,M,,*6E
06/25/2015	02:00:34.554	$GPGGA,020035,2536.2886,N,08001.8800,W,1,11,1.6,15,M,,M,,*68
06/25/2015	02:00:35.553	$GPGGA,020036,2536.2880,N,08001.8797,W,1,11,1.6,15,M,,M,,*6C
06/25/2015	02:00:36.553	$GPGGA,020037,2536.2874,N,08001.8795,W,1,11,1.6,15,M,,M,,*64
06/25/2015	02:00:37.534	$GPGGA,020038,2536.2867,N,08001.8792,W,1,11,1.6,15,M,,M,,*6E
06/25/2015	02:00:38.553	$GPGGA,020039,2536.2860,N,08001.8790,W,1,11,1.6,15,M,,M,,*6A
06/25/2015	02:00:39.563	$GPGGA,020040,2536.2854,N,08001.8787,W,1,11,1.6,15,M,,M,,*65
06/25/2015	02:00:40.534	$GPGGA,020041,2536.2847,N,08001.8785,W,1,11,1.6,15,M,,M,,*64
06/25/2015	02:00:41.543	$GPGGA,020042,2536.2841,N,08001.8782,W,1,11,1.6,15,M,,M,,*66
06/25/2015	02:00:42.543	$GPGGA,020043,2536.2835,N,08001.8780,W,1,11,1.6,15,M,,M,,*66
06/25/2015	02:00:43.574	$GPGGA,020044,2536.2828,N,08001.8777,W,1,11,1.6,15,M,,M,,*65
06/25/2015	02:00:44.539	$GPGGA,020045,2536.2822,N,08001.8774,W,1,11,1.6,15,M,,M,,*6D
06/25/2015	02:00:45.544	$GPGGA,020046,2536.2816,N,08001.8772,W,1,11,1.6,15,M,,M,,*6F
06/25/2015	02:00:46.544	$GPGGA,020047,2536.2809,N,08001.8769,W,1,11,1.6,15,M,,M,,*6A
06/25/2015	02:00:47.554	$GPGGA,020048,2536.2802,N,08001.8766,W,1,11,1.6,15,M,,M,,*61
06/25/2015	02:00:48.536	$GPGGA,020049,2536.2795,N,08001.8764,W,1,11,1.6,15,M,,M,,*63
06/25/2015	02:00:49.638	$GPGGA,020050,2536.2788,N,08001.8760,W,1,11,1.6,15,M,,M,,*63
06/25/2015	02:00:50.531	$GPGGA,020051,2536.2782,N,08001.8758,W,1,11,1.6,15,M,,M,,*63
06/25/2015	02:00:51.654	$GPGGA,020052,2536.2775,N,08001.8755,W,1,11,1.6,15,M,,M,,*65
06/25/2015	02:00:52.536	$GPGGA,020053,2536.2769,N,08001.8752,W,1,11,1.6,15,M,,M,,*6E
06/25/2015	02:00:53.532	$GPGGA,020054,2536.2763,N,08001.8749,W,1,11,1.6,15,M,,M,,*69
06/25/2015	02:00:54.525	$GPGGA,020055,2536.2756,N,08001.8746,W,1,11,1.6,15,M,,M,,*61
06/25/2015	02:00:55.613	$GPGGA,020056,2536.2749,N,08001.8744,W,1,11,1.6,15,M,,M,,*6E
06/25/2015	02:00:56.603	$GPGGA,020057,2536.2742,N,08001.8740,W,1,11,1.6,15,M,,M,,*60
06/25/2015	02:00:57.493	$GPGGA,020058,2536.2735,N,08001.8738,W,1,11,1.6,15,M,,M,,*60
06/25/2015	02:00:59.673	$GPGGA,020100,2536.2722,N,08001.8732,W,1,11,1.6,15,M,,M,,*60
06/25/2015	02:01:01.504	$GPGGA,020101,2536.2715,N,08001.8728,W,1,11,1.6,15,M,,M,,*6E
06/25/2015	02:01:01.545	$GPGGA,020102,2536.2708,N,08001.8726,W,1,11,1.6,15,M,,M,,*6F
06/25/2015	02:01:02.584	$GPGGA,020103,2536.2701,N,08001.8724,W,1,11,1.6,14,M,,M,,*64
06/25/2015	02:01:03.636	$GPGGA,020104,2536.2694,N,08001.8720,W,1,11,1.6,14,M,,M,,*6A
06/25/2015	02:01:04.584	$GPGGA,020105,2536.2687,N,08001.8717,W,1,11,1.6,14,M,,M,,*6D
06/25/2015	02:01:05.604	$GPGGA,020106,2536.2681,N,08001.8716,W,1,11,1.6,14,M,,M,,*69
06/25/2015	02:01:06.584	$GPGGA,020107,2536.2674,N,08001.8713,W,1,11,1.6,14,M,,M,,*67
06/25/2015	02:01:07.630	$GPGGA,020108,2536.2668,N,08001.8709,W,1,11,1.6,14,M,,M,,*6E
06/25/2015	02:01:08.574	$GPGGA,020109,2536.2661,N,08001.8708,W,1,11,1.6,14,M,,M,,*67
06/25/2015	02:01:09.595	$GPGGA,020110,2536.2654,N,08001.8705,W,1,11,1.6,14,M,,M,,*64
06/25/2015	02:01:10.573	$GPGGA,020111,2536.2648,N,08001.8702,W,1,11,1.6,14,M,,M,,*6F
06/25/2015	02:01:11.603	$GPGGA,020112,2536.2643,N,08001.8700,W,1,11,1.6,14,M,,M,,*65
06/25/2015	02:01:12.563	$GPGGA,020113,2536.2636,N,08001.8698,W,1,11,1.6,14,M,,M,,*66
06/25/2015	02:01:13.573	$GPGGA,020114,2536.2629,N,08001.8694,W,1,11,1.6,14,M,,M,,*63
06/25/2015	02:01:14.563	$GPGGA,020115,2536.2625,N,08001.8692,W,1,11,1.6,14,M,,M,,*68
06/25/2015	02:01:15.593	$GPGGA,020116,2536.2618,N,08001.8690,W,1,11,1.6,14,M,,M,,*67
06/25/2015	02:01:16.553	$GPGGA,020117,2536.2611,N,08001.8687,W,1,11,1.6,14,M,,M,,*69
06/25/2015	02:01:17.543	$GPGGA,020118,2536.2605,N,08001.8684,W,1,11,1.6,14,M,,M,,*60
06/25/2015	02:01:18.833	$GPGGA,020119,2536.2599,N,08001.8682,W,1,11,1.6,14,M,,M,,*61
06/25/2015	02:01:19.603	$GPGGA,020120,2536.2593,N,08001.8679,W,1,11,1.6,14,M,,M,,*65
06/25/2015	02:01:20.553	$GPGGA,020121,2536.2587,N,08001.8677,W,1,11,1.6,14,M,,M,,*6F
06/25/2015	02:01:21.533	$GPGGA,020122,2536.2581,N,08001.8674,W,1,11,1.6,14,M,,M,,*69
06/25/2015	02:01:22.543	$GPGGA,020123,2536.2574,N,08001.8672,W,1,11,1.6,14,M,,M,,*64
06/25/2015	02:01:23.573	$GPGGA,020124,2536.2568,N,08001.8669,W,1,11,1.6,14,M,,M,,*64
06/25/2015	02:01:24.553	$GPGGA,020125,2536.2562,N,08001.8667,W,1,11,1.6,14,M,,M,,*61
06/25/2015	02:01:25.526	$GPGGA,020126,2536.2556,N,08001.8664,W,1,11,1.6,14,M,,M,,*66
06/25/2015	02:01:26.530	$GPGGA,020127,2536.2549,N,08001.8661,W,1,11,1.6,14,M,,M,,*6C
06/25/2015	02:01:27.543	$GPGGA,020128,2536.2543,N,08001.8659,W,1,11,1.6,14,M,,M,,*62
06/25/2015	02:01:28.533	$GPGGA,020129,2536.2536,N,08001.8657,W,1,11,1.6,13,M,,M,,*68
06/25/2015	02:01:29.563	$GPGGA,020130,2536.2531,N,08001.8654,W,1,11,1.6,13,M,,M,,*64
06/25/2015	02:01:30.534	$GPGGA,020131,2536.2524,N,08001.8651,W,1,11,1.6,13,M,,M,,*64
06/25/2015	02:01:31.563	$GPGGA,020132,2536.2517,N,08001.8650,W,1,11,1.6,13,M,,M,,*66
06/25/2015	02:01:32.529	$GPGGA,020133,2536.2510,N,08001.8646,W,1,11,1.6,13,M,,M,,*67
06/25/2015	02:01:33.521	$GPGGA,020134,2536.2504,N,08001.8642,W,1,11,1.6,13,M,,M,,*61
06/25/2015	02:01:34.523	$GPGGA,020135,2536.2498,N,08001.8641,W,1,11,1.6,13,M,,M,,*67
06/25/2015	02:01:35.533	$GPGGA,020136,2536.2492,N,08001.8638,W,1,11,1.6,13,M,,M,,*60
06/25/2015	02:01:36.515	$GPGGA,020137,2536.2487,N,08001.8634,W,1,11,1.6,13,M,,M,,*69
06/25/2015	02:01:37.523	$GPGGA,020138,2536.2481,N,08001.8631,W,1,11,1.6,13,M,,M,,*65
06/25/2015	02:01:38.523	$GPGGA,020139,2536.2474,N,08001.8629,W,1,11,1.6,13,M,,M,,*67
06/25/2015	02:01:39.643	$GPGGA,020140,2536.2468,N,08001.8626,W,1,11,1.6,13,M,,M,,*6B
06/25/2015	02:01:40.523	$GPGGA,020141,2536.2462,N,08001.8622,W,1,11,1.6,13,M,,M,,*64
06/25/2015	02:01:41.653	$GPGGA,020142,2536.2455,N,08001.8621,W,1,11,1.6,13,M,,M,,*60
06/25/2015	02:01:42.603	$GPGGA,020143,2536.2448,N,08001.8617,W,1,11,1.6,13,M,,M,,*68
06/25/2015	02:01:43.503	$GPGGA,020144,2536.2441,N,08001.8614,W,1,11,1.6,13,M,,M,,*65
06/25/2015	02:01:44.603	$GPGGA,020145,2536.2435,N,08001.8612,W,1,11,1.6,13,M,,M,,*61
06/25/2015	02:01:45.617	$GPGGA,020146,2536.2430,N,08001.8609,W,1,11,1.6,13,M,,M,,*6D
06/25/2015	02:01:46.603	$GPGGA,020147,2536.2422,N,08001.8605,W,1,11,1.6,13,M,,M,,*63
06/25/2015	02:01:47.627	$GPGGA,020148,2536.2416,N,08001.8603,W,1,11,1.6,13,M,,M,,*6D
06/25/2015	02:01:49.593	$GPGGA,020149,2536.2410,N,08001.8600,W,1,11,1.6,13,M,,M,,*69
06/25/2015	02:01:49.624	$GPGGA,020150,2536.2404,N,08001.8598,W,1,11,1.6,13,M,,M,,*66
06/25/2015	02:01:50.593	$GPGGA,020151,2536.2397,N,08001.8596,W,1,11,1.6,13,M,,M,,*64
06/25/2015	02:01:51.623	$GPGGA,020152,2536.2391,N,08001.8592,W,1,11,1.6,13,M,,M,,*65
06/25/2015	02:01:52.573	$GPGGA,020153,2536.2385,N,08001.8591,W,1,11,1.6,13,M,,M,,*62
06/25/2015	02:01:53.603	$GPGGA,020154,2536.2379,N,08001.8589,W,1,11,1.6,13,M,,M,,*6F
06/25/2015	02:01:54.573	$GPGGA,020155,2536.2372,N,08001.8586,W,1,11,1.6,13,M,,M,,*6A
06/25/2015	02:01:55.613	$GPGGA,020156,2536.2366,N,08001.8584,W,1,10,1.6,13,M,,M,,*6F
06/25/2015	02:01:56.573	$GPGGA,020157,2536.2361,N,08001.8582,W,1,10,1.6,13,M,,M,,*6F
06/25/2015	02:01:58.843	$GPGGA,020159,2536.2348,N,08001.8578,W,1,11,1.6,13,M,,M,,*6E
06/25/2015	02:01:59.613	$GPGGA,020200,2536.2343,N,08001.8576,W,1,11,1.6,13,M,,M,,*64
06/25/2015	02:02:00.573	$GPGGA,020201,2536.2336,N,08001.8574,W,1,11,1.6,13,M,,M,,*65
06/25/2015	02:02:01.583	$GPGGA,020202,2536.2330,N,08001.8572,W,1,10,1.6,13,M,,M,,*67
06/25/2015	02:02:02.563	$GPGGA,020203,2536.2325,N,08001.8569,W,1,10,1.6,13,M,,M,,*68
06/25/2015	02:02:03.593	$GPGGA,020204,2536.2318,N,08001.8568,W,1,11,1.6,13,M,,M,,*61
06/25/2015	02:02:04.563	$GPGGA,020205,2536.2311,N,08001.8566,W,1,11,1.6,13,M,,M,,*67
06/25/2015	02:02:05.574	$GPGGA,020206,2536.2304,N,08001.8563,W,1,11,1.6,13,M,,M,,*65
06/25/2015	02:02:06.563	$GPGGA,020207,2536.2299,N,08001.8561,W,1,11,1.6,13,M,,M,,*63
06/25/2015	02:02:07.583	$GPGGA,020208,2536.2292,N,08001.8560,W,1,11,1.6,13,M,,M,,*66
06/25/2015	02:02:08.553	$GPGGA,020209,2536.2286,N,08001.8557,W,1,11,1.6,13,M,,M,,*66
06/25/2015	02:02:09.553	$GPGGA,020210,2536.2280,N,08001.8553,W,1,11,1.6,13,M,,M,,*6C
06/25/2015	02:02:10.553	$GPGGA,020211,2536.2274,N,08001.8553,W,1,11,1.6,13,M,,M,,*66
06/25/2015	02:02:11.593	$GPGGA,020212,2536.2268,N,08001.8551,W,1,11,1.6,13,M,,M,,*6A
06/25/2015	02:02:12.534	$GPGGA,020213,2536.2262,N,08001.8548,W,1,11,1.6,13,M,,M,,*69
06/25/2015	02:02:13.563	$GPGGA,020214,2536.2254,N,08001.8545,W,1,10,1.6,13,M,,M,,*67
06/25/2015	02:02:14.543	$GPGGA,020215,2536.2249,N,08001.8544,W,1,10,1.6,13,M,,M,,*6B
06/25/2015	02:02:15.543	$GPGGA,020216,2536.2243,N,08001.8542,W,1,11,1.6,13,M,,M,,*65
06/25/2015	02:02:16.531	$GPGGA,020217,2536.2236,N,08001.8540,W,1,11,1.6,13,M,,M,,*64
06/25/2015	02:02:17.533	$GPGGA,020218,2536.2231,N,08001.8538,W,1,11,1.6,13,M,,M,,*63
06/25/2015	02:02:18.543	$GPGGA,020219,2536.2225,N,08001.8536,W,1,11,1.6,13,M,,M,,*69
06/25/2015	02:02:19.533	$GPGGA,020220,2536.2218,N,08001.8533,W,1,11,1.6,13,M,,M,,*68
06/25/2015	02:02:20.643	$GPGGA,020221,2536.2213,N,08001.8531,W,1,11,1.6,13,M,,M,,*60
06/25/2015	02:02:21.524	$GPGGA,020222,2536.2206,N,08001.8529,W,1,11,1.6,13,M,,M,,*6E
06/25/2015	02:02:22.523	$GPGGA,020223,2536.2200,N,08001.8526,W,1,11,1.6,13,M,,M,,*66
06/25/2015	02:02:23.563	$GPGGA,020224,2536.2195,N,08001.8525,W,1,11,1.6,13,M,,M,,*6D
06/25/2015	02:02:24.533	$GPGGA,020225,2536.2186,N,08001.8522,W,1,11,1.6,13,M,,M,,*69
06/25/2015	02:02:25.653	$GPGGA,020226,2536.2180,N,08001.8519,W,1,11,1.6,13,M,,M,,*64
06/25/2015	02:02:26.513	$GPGGA,020227,2536.2173,N,08001.8518,W,1,11,1.6,13,M,,M,,*68
06/25/2015	02:02:27.543	$GPGGA,020228,2536.2167,N,08001.8516,W,1,11,1.6,13,M,,M,,*6C
06/25/2015	02:02:28.515	$GPGGA,020229,2536.2159,N,08001.8512,W,1,11,1.6,13,M,,M,,*64
06/25/2015	02:02:29.603	$GPGGA,020230,2536.2152,N,08001.8510,W,1,10,1.6,13,M,,M,,*64
06/25/2015	02:02:30.514	$GPGGA,020231,2536.2145,N,08001.8508,W,1,10,1.6,12,M,,M,,*6B
06/25/2015	02:02:31.625	$GPGGA,020232,2536.2139,N,08001.8505,W,1,11,1.6,12,M,,M,,*6F
06/25/2015	02:02:32.517	$GPGGA,020233,2536.2131,N,08001.8503,W,1,11,1.6,12,M,,M,,*60
06/25/2015	02:02:33.603	$GPGGA,020234,2536.2126,N,08001.8500,W,1,10,1.6,12,M,,M,,*63
06/25/2015	02:02:34.603	$GPGGA,020235,2536.2119,N,08001.8498,W,1,10,1.6,12,M,,M,,*6E
06/25/2015	02:02:35.623	$GPGGA,020236,2536.2112,N,08001.8496,W,1,11,1.6,12,M,,M,,*69
06/25/2015	02:02:36.503	$GPGGA,020237,2536.2105,N,08001.8493,W,1,11,1.6,12,M,,M,,*6B
06/25/2015	02:02:37.603	$GPGGA,020238,2536.2099,N,08001.8491,W,1,11,1.6,12,M,,M,,*62
06/25/2015	02:02:38.493	$GPGGA,020239,2536.2092,N,08001.8489,W,1,11,1.6,12,M,,M,,*61
06/25/2015	02:02:39.634	$GPGGA,020240,2536.2085,N,08001.8486,W,1,11,1.6,12,M,,M,,*66
06/25/2015	02:02:40.583	$GPGGA,020241,2536.2079,N,08001.8483,W,1,11,1.6,12,M,,M,,*61
06/25/2015	02:02:41.593	$GPGGA,020242,2536.2073,N,08001.8482,W,1,11,1.6,12,M,,M,,*69
06/25/2015	02:02:43.623	$GPGGA,020244,2536.2059,N,08001.8476,W,1,11,1.6,12,M,,M,,*6C
06/25/2015	02:02:44.583	$GPGGA,020245,2536.2052,N,08001.8474,W,1,11,1.6,12,M,,M,,*64
06/25/2015	02:02:45.603	$GPGGA,020246,2536.2047,N,08001.8471,W,1,11,1.6,12,M,,M,,*66
06/25/2015	02:02:46.573	$GPGGA,020247,2536.2039,N,08001.8468,W,1,11,1.6,12,M,,M,,*66
06/25/2015	02:02:47.614	$GPGGA,020248,2536.2033,N,08001.8465,W,1,11,1.6,12,M,,M,,*6E
06/25/2015	02:02:48.563	$GPGGA,020249,2536.2026,N,08001.8462,W,1,11,1.6,12,M,,M,,*6C
06/25/2015	02:02:49.573	$GPGGA,020250,2536.2019,N,08001.8458,W,1,11,1.6,12,M,,M,,*61
06/25/2015	02:02:51.633	$GPGGA,020252,2536.2007,N,08001.8452,W,1,11,1.6,12,M,,M,,*66
06/25/2015	02:02:52.563	$GPGGA,020253,2536.1998,N,08001.8449,W,1,11,1.6,12,M,,M,,*61
06/25/2015	02:02:53.553	$GPGGA,020254,2536.1991,N,08001.8446,W,1,11,1.6,12,M,,M,,*60
06/25/2015	02:02:54.553	$GPGGA,020255,2536.1985,N,08001.8443,W,1,11,1.6,12,M,,M,,*61
06/25/2015	02:02:55.593	$GPGGA,020256,2536.1978,N,08001.8439,W,1,11,1.6,12,M,,M,,*6D
06/25/2015	02:02:56.543	$GPGGA,020257,2536.1971,N,08001.8436,W,1,11,1.6,12,M,,M,,*6A
06/25/2015	02:02:57.573	$GPGGA,020258,2536.1965,N,08001.8433,W,1,11,1.6,12,M,,M,,*65
06/25/2015	02:02:59.633	$GPGGA,020300,2536.1953,N,08001.8427,W,1,11,1.6,12,M,,M,,*69
06/25/2015	02:03:00.553	$GPGGA,020301,2536.1945,N,08001.8424,W,1,11,1.6,12,M,,M,,*6C
06/25/2015	02:03:01.573	$GPGGA,020302,2536.1937,N,08001.8421,W,1,11,1.6,12,M,,M,,*6F
06/25/2015	02:03:02.543	$GPGGA,020303,2536.1931,N,08001.8418,W,1,11,1.6,12,M,,M,,*62
06/25/2015	02:03:03.583	$GPGGA,020304,2536.1924,N,08001.8415,W,1,11,1.6,12,M,,M,,*6C
06/25/2015	02:03:04.529	$GPGGA,020305,2536.1917,N,08001.8412,W,1,11,1.6,12,M,,M,,*6A
06/25/2015	02:03:05.563	$GPGGA,020306,2536.1910,N,08001.8411,W,1,11,1.6,12,M,,M,,*6D
06/25/2015	02:03:06.553	$GPGGA,020307,2536.1904,N,08001.8407,W,1,11,1.6,12,M,,M,,*6E
06/25/2015	02:03:09.023	$GPGGA,020308,2536.1897,N,08001.8405,W,1,11,1.6,12,M,,M,,*68
06/25/2015	02:03:09.055	$GPGGA,020309,2536.1891,N,08001.8403,W,1,11,1.6,12,M,,M,,*69
06/25/2015	02:03:09.533	$GPGGA,020310,2536.1885,N,08001.8400,W,1,11,1.6,12,M,,M,,*67
06/25/2015	02:03:10.543	$GPGGA,020311,2536.1878,N,08001.8397,W,1,11,1.6,12,M,,M,,*6D
06/25/2015	02:03:11.525	$GPGGA,020312,2536.1872,N,08001.8396,W,1,10,1.6,12,M,,M,,*64
06/25/2015	02:03:12.526	$GPGGA,020313,2536.1867,N,08001.8393,W,1,10,1.6,12,M,,M,,*64
06/25/2015	02:03:13.533	$GPGGA,020314,2536.1860,N,08001.8391,W,1,11,1.6,12,M,,M,,*67
06/25/2015	02:03:14.613	$GPGGA,020315,2536.1853,N,08001.8389,W,1,11,1.6,12,M,,M,,*6F
06/25/2015	02:03:15.693	$GPGGA,020316,2536.1846,N,08001.8385,W,1,11,1.6,12,M,,M,,*64
06/25/2015	02:03:16.525	$GPGGA,020317,2536.1841,N,08001.8384,W,1,11,1.6,12,M,,M,,*63
06/25/2015	02:03:17.524	$GPGGA,020318,2536.1834,N,08001.8382,W,1,11,1.6,12,M,,M,,*68
06/25/2015	02:03:18.525	$GPGGA,020319,2536.1828,N,08001.8379,W,1,11,1.6,12,M,,M,,*60
06/25/2015	02:03:19.673	$GPGGA,020320,2536.1821,N,08001.8376,W,1,11,1.6,12,M,,M,,*6C
06/25/2015	02:03:20.517	$GPGGA,020321,2536.1815,N,08001.8374,W,1,11,1.6,12,M,,M,,*68
06/25/2015	02:03:21.633	$GPGGA,020322,2536.1809,N,08001.8371,W,1,11,1.6,12,M,,M,,*63
06/25/2015	02:03:22.603	$GPGGA,020323,2536.1802,N,08001.8368,W,1,11,1.6,12,M,,M,,*61
06/25/2015	02:03:23.643	$GPGGA,020324,2536.1796,N,08001.8367,W,1,11,1.6,12,M,,M,,*6B
06/25/2015	02:03:24.524	$GPGGA,020325,2536.1790,N,08001.8365,W,1,11,1.6,12,M,,M,,*6E
06/25/2015	02:03:25.603	$GPGGA,020326,2536.1784,N,08001.8363,W,1,11,1.6,12,M,,M,,*6E
06/25/2015	02:03:26.503	$GPGGA,020327,2536.1778,N,08001.8361,W,1,11,1.6,12,M,,M,,*6E
06/25/2015	02:03:27.623	$GPGGA,020328,2536.1772,N,08001.8358,W,1,11,1.6,12,M,,M,,*61
06/25/2015	02:03:28.535	$GPGGA,020329,2536.1765,N,08001.8356,W,1,11,1.6,12,M,,M,,*68
06/25/2015	02:03:29.583	$GPGGA,020330,2536.1758,N,08001.8353,W,1,10,1.6,12,M,,M,,*6A
06/25/2015	02:03:30.593	$GPGGA,020331,2536.1752,N,08001.8351,W,1,10,1.6,12,M,,M,,*63
06/25/2015	02:03:31.617	$GPGGA,020332,2536.1745,N,08001.8348,W,1,11,1.6,12,M,,M,,*6F
06/25/2015	02:03:32.583	$GPGGA,020333,2536.1740,N,08001.8346,W,1,11,1.6,12,M,,M,,*65
06/25/2015	02:03:33.603	$GPGGA,020334,2536.1734,N,08001.8344,W,1,11,1.6,12,M,,M,,*63
06/25/2015	02:03:34.583	$GPGGA,020335,2536.1727,N,08001.8342,W,1,11,1.6,12,M,,M,,*66
06/25/2015	02:03:35.616	$GPGGA,020336,2536.1721,N,08001.8340,W,1,11,1.6,12,M,,M,,*61
06/25/2015	02:03:36.573	$GPGGA,020337,2536.1715,N,08001.8338,W,1,11,1.6,12,M,,M,,*68
06/25/2015	02:03:37.844	$GPGGA,020338,2536.1708,N,08001.8336,W,1,11,1.6,12,M,,M,,*65
06/25/2015	02:03:38.573	$GPGGA,020339,2536.1702,N,08001.8334,W,1,11,1.6,12,M,,M,,*6C
06/25/2015	02:03:39.603	$GPGGA,020340,2536.1696,N,08001.8331,W,1,11,1.6,11,M,,M,,*68
06/25/2015	02:03:40.573	$GPGGA,020341,2536.1689,N,08001.8329,W,1,11,1.6,11,M,,M,,*6E
06/25/2015	02:03:41.553	$GPGGA,020342,2536.1683,N,08001.8327,W,1,11,1.6,11,M,,M,,*69
06/25/2015	02:03:42.573	$GPGGA,020343,2536.1676,N,08001.8324,W,1,11,1.6,11,M,,M,,*61
06/25/2015	02:03:43.613	$GPGGA,020344,2536.1669,N,08001.8322,W,1,11,1.6,11,M,,M,,*6E
06/25/2015	02:03:44.563	$GPGGA,020345,2536.1664,N,08001.8321,W,1,11,1.6,11,M,,M,,*61
06/25/2015	02:03:45.583	$GPGGA,020346,2536.1658,N,08001.8317,W,1,11,1.6,11,M,,M,,*68
06/25/2015	02:03:46.553	$GPGGA,020347,2536.1653,N,08001.8315,W,1,11,1.6,11,M,,M,,*60
06/25/2015	02:03:47.627	$GPGGA,020348,2536.1646,N,08001.8313,W,1,11,1.6,11,M,,M,,*6D
06/25/2015	02:03:48.553	$GPGGA,020349,2536.1639,N,08001.8311,W,1,11,1.6,11,M,,M,,*66
06/25/2015	02:03:49.543	$GPGGA,020350,2536.1633,N,08001.8308,W,1,11,1.6,11,M,,M,,*6C
06/25/2015	02:03:50.553	$GPGGA,020351,2536.1626,N,08001.8307,W,1,11,1.6,11,M,,M,,*66
06/25/2015	02:03:51.583	$GPGGA,020352,2536.1619,N,08001.8304,W,1,11,1.6,11,M,,M,,*6A
06/25/2015	02:03:52.543	$GPGGA,020353,2536.1613,N,08001.8301,W,1,11,1.6,11,M,,M,,*64
06/25/2015	02:03:53.563	$GPGGA,020354,2536.1606,N,08001.8298,W,1,11,1.6,11,M,,M,,*66
06/25/2015	02:03:54.543	$GPGGA,020355,2536.1599,N,08001.8296,W,1,11,1.6,11,M,,M,,*6C
06/25/2015	02:03:55.543	$GPGGA,020356,2536.1592,N,08001.8293,W,1,11,1.6,11,M,,M,,*61
06/25/2015	02:03:56.543	$GPGGA,020357,2536.1585,N,08001.8291,W,1,11,1.6,11,M,,M,,*64
06/25/2015	02:03:57.523	$GPGGA,020358,2536.1581,N,08001.8288,W,1,11,1.6,11,M,,M,,*67
06/25/2015	02:03:58.643	$GPGGA,020359,2536.1572,N,08001.8285,W,1,11,1.6,11,M,,M,,*67
06/25/2015	02:03:59.663	$GPGGA,020400,2536.1566,N,08001.8282,W,1,11,1.6,11,M,,M,,*6E
06/25/2015	02:04:00.563	$GPGGA,020401,2536.1560,N,08001.8279,W,1,11,1.6,11,M,,M,,*6D
06/25/2015	02:04:01.643	$GPGGA,020402,2536.1553,N,08001.8276,W,1,11,1.6,11,M,,M,,*61
06/25/2015	02:04:02.643	$GPGGA,020403,2536.1548,N,08001.8273,W,1,11,1.6,11,M,,M,,*6F
06/25/2015	02:04:03.573	$GPGGA,020404,2536.1541,N,08001.8271,W,1,11,1.6,11,M,,M,,*63
06/25/2015	02:04:04.533	$GPGGA,020405,2536.1534,N,08001.8267,W,1,11,1.6,11,M,,M,,*67
06/25/2015	02:04:05.613	$GPGGA,020406,2536.1527,N,08001.8264,W,1,11,1.6,11,M,,M,,*65
06/25/2015	02:04:06.613	$GPGGA,020407,2536.1520,N,08001.8261,W,1,11,1.6,11,M,,M,,*66
06/25/2015	02:04:07.653	$GPGGA,020408,2536.1513,N,08001.8257,W,1,11,1.6,11,M,,M,,*6C
06/25/2015	02:04:08.543	$GPGGA,020409,2536.1507,N,08001.8254,W,1,11,1.6,11,M,,M,,*6B
06/25/2015	02:04:09.613	$GPGGA,020410,2536.1501,N,08001.8251,W,1,11,1.6,11,M,,M,,*60
06/25/2015	02:04:10.513	$GPGGA,020411,2536.1501,N,08001.8251,W,1,11,1.6,11,M,,M,,*61
06/25/2015	02:04:11.631	$GPGGA,020412,2536.1489,N,08001.8244,W,1,11,1.6,11,M,,M,,*67
06/25/2015	02:04:12.613	$GPGGA,020413,2536.1483,N,08001.8242,W,1,11,1.6,11,M,,M,,*6A
06/25/2015	02:04:13.522	$GPGGA,020414,2536.1476,N,08001.8238,W,1,11,1.6,11,M,,M,,*6A
06/25/2015	02:04:14.593	$GPGGA,020415,2536.1469,N,08001.8235,W,1,11,1.6,11,M,,M,,*68
06/25/2015	02:04:15.643	$GPGGA,020416,2536.1462,N,08001.8232,W,1,11,1.6,11,M,,M,,*67
06/25/2015	02:04:16.593	$GPGGA,020417,2536.1456,N,08001.8229,W,1,11,1.6,11,M,,M,,*6B
06/25/2015	02:04:17.603	$GPGGA,020418,2536.1451,N,08001.8226,W,1,11,1.6,11,M,,M,,*6C
06/25/2015	02:04:18.593	$GPGGA,020419,2536.1443,N,08001.8222,W,1,11,1.6,11,M,,M,,*6A
06/25/2015	02:04:19.633	$GPGGA,020420,2536.1436,N,08001.8219,W,1,11,1.6,11,M,,M,,*6A
06/25/2015	02:04:20.593	$GPGGA,020421,2536.1430,N,08001.8217,W,1,11,1.6,11,M,,M,,*63
06/25/2015	02:04:21.603	$GPGGA,020422,2536.1423,N,08001.8213,W,1,11,1.6,11,M,,M,,*66
06/25/2015	02:04:22.573	$GPGGA,020423,2536.1416,N,08001.8210,W,1,11,1.6,11,M,,M,,*62
06/25/2015	02:04:23.613	$GPGGA,020424,2536.1411,N,08001.8207,W,1,11,1.6,11,M,,M,,*64
06/25/2015	02:04:24.583	$GPGGA,020425,2536.1404,N,08001.8204,W,1,11,1.6,11,M,,M,,*62
06/25/2015	02:04:25.593	$GPGGA,020426,2536.1396,N,08001.8200,W,1,11,1.6,11,M,,M,,*69
06/25/2015	02:04:26.573	$GPGGA,020427,2536.1389,N,08001.8197,W,1,11,1.6,11,M,,M,,*6B
06/25/2015	02:04:27.603	$GPGGA,020428,2536.1382,N,08001.8195,W,1,11,1.6,11,M,,M,,*6D
06/25/2015	02:04:28.563	$GPGGA,020429,2536.1376,N,08001.8191,W,1,11,1.6,11,M,,M,,*63
06/25/2015	02:04:29.583	$GPGGA,020430,2536.1369,N,08001.8188,W,1,11,1.6,11,M,,M,,*6D
06/25/2015	02:04:30.573	$GPGGA,020431,2536.1362,N,08001.8186,W,1,11,1.6,11,M,,M,,*69
06/25/2015	02:04:31.593	$GPGGA,020432,2536.1355,N,08001.8183,W,1,11,1.6,11,M,,M,,*6B
06/25/2015	02:04:32.563	$GPGGA,020433,2536.1349,N,08001.8180,W,1,11,1.6,11,M,,M,,*64
06/25/2015	02:04:33.553	$GPGGA,020434,2536.1342,N,08001.8177,W,1,11,1.6,11,M,,M,,*60
06/25/2015	02:04:34.553	$GPGGA,020435,2536.1335,N,08001.8175,W,1,11,1.6,11,M,,M,,*63
06/25/2015	02:04:35.593	$GPGGA,020436,2536.1328,N,08001.8173,W,1,11,1.6,11,M,,M,,*6A
06/25/2015	02:04:36.553	$GPGGA,020437,2536.1321,N,08001.8170,W,1,11,1.6,11,M,,M,,*61
06/25/2015	02:04:37.543	$GPGGA,020438,2536.1314,N,08001.8167,W,1,11,1.6,11,M,,M,,*6E
06/25/2015	02:04:38.553	$GPGGA,020439,2536.1308,N,08001.8166,W,1,11,1.6,11,M,,M,,*63
06/25/2015	02:04:39.583	$GPGGA,020440,2536.1302,N,08001.8164,W,1,11,1.6,11,M,,M,,*65
06/25/2015	02:04:40.543	$GPGGA,020441,2536.1295,N,08001.8160,W,1,11,1.7,11,M,,M,,*6E
06/25/2015	02:04:41.573	$GPGGA,020442,2536.1289,N,08001.8161,W,1,11,1.6,11,M,,M,,*60
06/25/2015	02:04:42.533	$GPGGA,020443,2536.1284,N,08001.8158,W,1,11,1.6,11,M,,M,,*66
06/25/2015	02:04:43.574	$GPGGA,020444,2536.1277,N,08001.8155,W,1,11,1.6,11,M,,M,,*60
06/25/2015	02:04:44.525	$GPGGA,020445,2536.1271,N,08001.8154,W,1,11,1.6,11,M,,M,,*66
06/25/2015	02:04:45.543	$GPGGA,020446,2536.1265,N,08001.8152,W,1,11,1.6,11,M,,M,,*66
06/25/2015	02:04:46.533	$GPGGA,020447,2536.1259,N,08001.8150,W,1,11,1.6,11,M,,M,,*6A
06/25/2015	02:04:47.583	$GPGGA,020448,2536.1253,N,08001.8149,W,1,11,1.6,11,M,,M,,*67
06/25/2015	02:04:48.528	$GPGGA,020449,2536.1247,N,08001.8147,W,1,11,1.6,11,M,,M,,*6D
06/25/2015	02:04:49.543	$GPGGA,020450,2536.1241,N,08001.8145,W,1,11,1.6,11,M,,M,,*61
06/25/2015	02:04:50.524	$GPGGA,020451,2536.1235,N,08001.8144,W,1,11,1.6,11,M,,M,,*62
06/25/2015	02:04:51.533	$GPGGA,020452,2536.1228,N,08001.8143,W,1,10,1.7,11,M,,M,,*6A
06/25/2015	02:04:52.513	$GPGGA,020453,2536.1223,N,08001.8141,W,1,10,1.6,11,M,,M,,*63
06/25/2015	02:04:53.633	$GPGGA,020454,2536.1217,N,08001.8140,W,1,11,1.6,11,M,,M,,*63
06/25/2015	02:04:54.633	$GPGGA,020455,2536.1210,N,08001.8140,W,1,11,1.6,11,M,,M,,*65
06/25/2015	02:04:55.543	$GPGGA,020456,2536.1205,N,08001.8137,W,1,11,1.6,11,M,,M,,*62
06/25/2015	02:04:56.514	$GPGGA,020457,2536.1199,N,08001.8136,W,1,11,1.6,11,M,,M,,*64
06/25/2015	02:04:57.622	$GPGGA,020458,2536.1192,N,08001.8135,W,1,11,1.6,12,M,,M,,*60
06/25/2015	02:04:58.528	$GPGGA,020459,2536.1187,N,08001.8133,W,1,11,1.6,12,M,,M,,*63
06/25/2015	02:04:59.643	$GPGGA,020500,2536.1180,N,08001.8131,W,1,11,1.6,12,M,,M,,*6B
06/25/2015	02:05:00.603	$GPGGA,020501,2536.1173,N,08001.8130,W,1,11,1.6,12,M,,M,,*67
06/25/2015	02:05:01.618	$GPGGA,020502,2536.1166,N,08001.8127,W,1,11,1.6,12,M,,M,,*66
06/25/2015	02:05:02.528	$GPGGA,020503,2536.1160,N,08001.8126,W,1,11,1.6,12,M,,M,,*60
06/25/2015	02:05:03.603	$GPGGA,020504,2536.1154,N,08001.8125,W,1,11,1.6,12,M,,M,,*63
06/25/2015	02:05:04.593	$GPGGA,020505,2536.1147,N,08001.8122,W,1,11,1.6,12,M,,M,,*67
06/25/2015	02:05:05.593	$GPGGA,020506,2536.1141,N,08001.8120,W,1,11,1.6,12,M,,M,,*60
06/25/2015	02:05:06.593	$GPGGA,020507,2536.1134,N,08001.8119,W,1,11,1.6,12,M,,M,,*69
06/25/2015	02:05:07.643	$GPGGA,020508,2536.1129,N,08001.8116,W,1,11,1.6,12,M,,M,,*65
06/25/2015	02:05:08.593	$GPGGA,020509,2536.1122,N,08001.8113,W,1,11,1.6,12,M,,M,,*6A
06/25/2015	02:05:09.603	$GPGGA,020510,2536.1115,N,08001.8111,W,1,11,1.6,12,M,,M,,*64
06/25/2015	02:05:10.583	$GPGGA,020511,2536.1108,N,08001.8109,W,1,11,1.6,13,M,,M,,*61
06/25/2015	02:05:11.626	$GPGGA,020512,2536.1102,N,08001.8107,W,1,11,1.6,13,M,,M,,*66
06/25/2015	02:05:12.573	$GPGGA,020513,2536.1095,N,08001.8104,W,1,11,1.6,13,M,,M,,*6B
06/25/2015	02:05:13.620	$GPGGA,020514,2536.1088,N,08001.8101,W,1,11,1.6,13,M,,M,,*65
06/25/2015	02:05:14.573	$GPGGA,020515,2536.1082,N,08001.8098,W,1,11,1.6,13,M,,M,,*6F
06/25/2015	02:05:15.614	$GPGGA,020516,2536.1076,N,08001.8096,W,1,11,1.6,13,M,,M,,*69
06/25/2015	02:05:16.573	$GPGGA,020517,2536.1069,N,08001.8092,W,1,11,1.6,13,M,,M,,*62
06/25/2015	02:05:17.583	$GPGGA,020518,2536.1062,N,08001.8089,W,1,11,1.6,13,M,,M,,*6C
06/25/2015	02:05:18.563	$GPGGA,020519,2536.1057,N,08001.8087,W,1,11,1.6,13,M,,M,,*65
06/25/2015	02:05:19.603	$GPGGA,020520,2536.1049,N,08001.8083,W,1,11,1.6,13,M,,M,,*64
06/25/2015	02:05:20.563	$GPGGA,020521,2536.1042,N,08001.8081,W,1,11,1.6,13,M,,M,,*6C
06/25/2015	02:05:21.563	$GPGGA,020522,2536.1036,N,08001.8078,W,1,11,1.6,13,M,,M,,*6A
06/25/2015	02:05:22.553	$GPGGA,020523,2536.1029,N,08001.8075,W,1,11,1.6,13,M,,M,,*68
06/25/2015	02:05:23.583	$GPGGA,020524,2536.1022,N,08001.8071,W,1,11,1.6,13,M,,M,,*60
06/25/2015	02:05:24.553	$GPGGA,020525,2536.1015,N,08001.8068,W,1,11,1.6,13,M,,M,,*6D
06/25/2015	02:05:25.543	$GPGGA,020526,2536.1010,N,08001.8065,W,1,11,1.6,13,M,,M,,*66
06/25/2015	02:05:26.543	$GPGGA,020527,2536.1003,N,08001.8061,W,1,11,1.6,13,M,,M,,*61
06/25/2015	02:05:27.573	$GPGGA,020528,2536.0995,N,08001.8058,W,1,11,1.6,13,M,,M,,*63
06/25/2015	02:05:28.563	$GPGGA,020529,2536.0989,N,08001.8056,W,1,11,1.6,13,M,,M,,*61
06/25/2015	02:05:29.543	$GPGGA,020530,2536.0982,N,08001.8052,W,1,11,1.6,13,M,,M,,*66
06/25/2015	02:05:30.553	$GPGGA,020531,2536.0975,N,08001.8048,W,1,11,1.6,13,M,,M,,*64
06/25/2015	02:05:31.553	$GPGGA,020532,2536.0968,N,08001.8045,W,1,11,1.6,13,M,,M,,*66
06/25/2015	02:05:32.532	$GPGGA,020533,2536.0961,N,08001.8040,W,1,11,1.6,13,M,,M,,*6B
06/25/2015	02:05:33.533	$GPGGA,020534,2536.0956,N,08001.8037,W,1,10,1.7,13,M,,M,,*68
06/25/2015	02:05:34.528	$GPGGA,020535,2536.0947,N,08001.8033,W,1,10,1.6,13,M,,M,,*6C
06/25/2015	02:05:35.543	$GPGGA,020536,2536.0941,N,08001.8029,W,1,10,1.7,13,M,,M,,*63
06/25/2015	02:05:36.526	$GPGGA,020537,2536.0935,N,08001.8026,W,1,10,1.6,13,M,,M,,*6F
06/25/2015	02:05:37.533	$GPGGA,020538,2536.0928,N,08001.8022,W,1,11,1.6,13,M,,M,,*69
06/25/2015	02:05:38.623	$GPGGA,020539,2536.0921,N,08001.8018,W,1,11,1.6,13,M,,M,,*68
06/25/2015	02:05:39.573	$GPGGA,020540,2536.0914,N,08001.8014,W,1,11,1.6,12,M,,M,,*6D
06/25/2015	02:05:40.533	$GPGGA,020541,2536.0909,N,08001.8010,W,1,11,1.6,12,M,,M,,*64
06/25/2015	02:05:41.515	$GPGGA,020542,2536.0902,N,08001.8005,W,1,11,1.6,12,M,,M,,*68
06/25/2015	02:05:42.525	$GPGGA,020543,2536.0895,N,08001.8001,W,1,11,1.6,12,M,,M,,*62
06/25/2015	02:05:43.543	$GPGGA,020544,2536.0891,N,08001.7997,W,1,11,1.6,12,M,,M,,*68
06/25/2015	02:05:44.953	$GPGGA,020545,2536.0883,N,08001.7992,W,1,11,1.6,12,M,,M,,*6F
06/25/2015	02:05:45.533	$GPGGA,020546,2536.0877,N,08001.7988,W,1,11,1.6,12,M,,M,,*6C
06/25/2015	02:05:46.515	$GPGGA,020547,2536.0870,N,08001.7983,W,1,11,1.6,12,M,,M,,*61
06/25/2015	02:05:47.623	$GPGGA,020548,2536.0864,N,08001.7978,W,1,11,1.6,12,M,,M,,*6F
06/25/2015	02:05:48.603	$GPGGA,020549,2536.0858,N,08001.7974,W,1,11,1.6,12,M,,M,,*6D
06/25/2015	02:05:49.533	$GPGGA,020550,2536.0852,N,08001.7969,W,1,11,1.6,12,M,,M,,*63
06/25/2015	02:05:50.603	$GPGGA,020551,2536.0846,N,08001.7964,W,1,11,1.6,12,M,,M,,*6A
06/25/2015	02:05:51.614	$GPGGA,020552,2536.0840,N,08001.7959,W,1,11,1.6,12,M,,M,,*61
06/25/2015	02:05:52.594	$GPGGA,020553,2536.0835,N,08001.7954,W,1,11,1.6,12,M,,M,,*6F
06/25/2015	02:05:53.503	$GPGGA,020554,2536.0829,N,08001.7950,W,1,11,1.6,12,M,,M,,*61
06/25/2015	02:05:54.584	$GPGGA,020555,2536.0823,N,08001.7945,W,1,11,1.6,12,M,,M,,*6E
06/25/2015	02:05:55.613	$GPGGA,020556,2536.0817,N,08001.7940,W,1,11,1.6,12,M,,M,,*6F
06/25/2015	02:05:56.593	$GPGGA,020557,2536.0811,N,08001.7935,W,1,11,1.6,12,M,,M,,*6A
06/25/2015	02:05:57.626	$GPGGA,020558,2536.0804,N,08001.7931,W,1,11,1.6,12,M,,M,,*65
06/25/2015	02:05:58.593	$GPGGA,020559,2536.0797,N,08001.7925,W,1,11,1.6,12,M,,M,,*64
06/25/2015	02:05:59.613	$GPGGA,020600,2536.0791,N,08001.7920,W,1,11,1.6,12,M,,M,,*68
06/25/2015	02:06:00.583	$GPGGA,020601,2536.0786,N,08001.7917,W,1,11,1.6,12,M,,M,,*6B
06/25/2015	02:06:01.583	$GPGGA,020602,2536.0779,N,08001.7911,W,1,11,1.6,12,M,,M,,*6E
06/25/2015	02:06:02.583	$GPGGA,020603,2536.0773,N,08001.7906,W,1,11,1.6,12,M,,M,,*63
06/25/2015	02:06:03.623	$GPGGA,020604,2536.0768,N,08001.7902,W,1,11,1.6,12,M,,M,,*6A
06/25/2015	02:06:04.573	$GPGGA,020605,2536.0761,N,08001.7896,W,1,11,1.6,12,M,,M,,*6E
06/25/2015	02:06:05.593	$GPGGA,020606,2536.0754,N,08001.7891,W,1,10,1.7,12,M,,M,,*6C
06/25/2015	02:06:06.573	$GPGGA,020607,2536.0747,N,08001.7887,W,1,10,1.7,12,M,,M,,*68
06/25/2015	02:06:07.612	$GPGGA,020608,2536.0741,N,08001.7882,W,1,11,1.6,12,M,,M,,*64
06/25/2015	02:06:08.573	$GPGGA,020609,2536.0734,N,08001.7878,W,1,11,1.6,12,M,,M,,*62
06/25/2015	02:06:09.563	$GPGGA,020610,2536.0728,N,08001.7874,W,1,11,1.6,12,M,,M,,*6B
06/25/2015	02:06:10.573	$GPGGA,020611,2536.0723,N,08001.7869,W,1,11,1.6,12,M,,M,,*6D
06/25/2015	02:06:11.593	$GPGGA,020612,2536.0717,N,08001.7865,W,1,11,1.6,12,M,,M,,*65
06/25/2015	02:06:12.553	$GPGGA,020613,2536.0711,N,08001.7861,W,1,11,1.6,12,M,,M,,*66
06/25/2015	02:06:13.633	$GPGGA,020614,2536.0704,N,08001.7856,W,1,11,1.6,12,M,,M,,*61
06/25/2015	02:06:14.553	$GPGGA,020615,2536.0699,N,08001.7852,W,1,11,1.6,12,M,,M,,*61
06/25/2015	02:06:15.594	$GPGGA,020616,2536.0692,N,08001.7849,W,1,11,1.6,12,M,,M,,*63
06/25/2015	02:06:16.553	$GPGGA,020617,2536.0685,N,08001.7845,W,1,11,1.6,12,M,,M,,*68
06/25/2015	02:06:17.543	$GPGGA,020618,2536.0678,N,08001.7840,W,1,11,1.6,12,M,,M,,*60
06/25/2015	02:06:18.543	$GPGGA,020619,2536.0671,N,08001.7836,W,1,11,1.6,12,M,,M,,*69
06/25/2015	02:06:19.563	$GPGGA,020620,2536.0665,N,08001.7833,W,1,11,1.6,12,M,,M,,*63
06/25/2015	02:06:20.823	$GPGGA,020621,2536.0658,N,08001.7829,W,1,11,1.6,12,M,,M,,*67
06/25/2015	02:06:21.543	$GPGGA,020622,2536.0652,N,08001.7825,W,1,11,1.6,12,M,,M,,*62
06/25/2015	02:06:22.630	$GPGGA,020623,2536.0645,N,08001.7822,W,1,11,1.6,12,M,,M,,*62
06/25/2015	02:06:23.573	$GPGGA,020624,2536.0639,N,08001.7819,W,1,11,1.6,12,M,,M,,*66
06/25/2015	02:06:24.530	$GPGGA,020625,2536.0632,N,08001.7815,W,1,11,1.6,13,M,,M,,*61
06/25/2015	02:06:25.714	$GPGGA,020626,2536.0627,N,08001.7812,W,1,11,1.6,13,M,,M,,*61
06/25/2015	02:06:26.533	$GPGGA,020627,2536.0620,N,08001.7809,W,1,11,1.6,13,M,,M,,*6D
06/25/2015	02:06:27.563	$GPGGA,020628,2536.0612,N,08001.7805,W,1,11,1.6,13,M,,M,,*6F
06/25/2015	02:06:28.543	$GPGGA,020629,2536.0606,N,08001.7802,W,1,11,1.6,13,M,,M,,*6C
06/25/2015	02:06:29.543	$GPGGA,020630,2536.0599,N,08001.7800,W,1,11,1.6,13,M,,M,,*63
06/25/2015	02:06:30.523	$GPGGA,020631,2536.0593,N,08001.7797,W,1,11,1.6,13,M,,M,,*69
06/25/2015	02:06:31.543	$GPGGA,020632,2536.0587,N,08001.7794,W,1,11,1.6,13,M,,M,,*6C
06/25/2015	02:06:32.526	$GPGGA,020633,2536.0580,N,08001.7792,W,1,11,1.6,13,M,,M,,*6C
06/25/2015	02:06:33.719	$GPGGA,020634,2536.0573,N,08001.7790,W,1,11,1.6,13,M,,M,,*65
06/25/2015	02:06:35.073	$GPGGA,020635,2536.0566,N,08001.7787,W,1,11,1.6,13,M,,M,,*66
06/25/2015	02:06:35.716	$GPGGA,020636,2536.0560,N,08001.7785,W,1,11,1.6,13,M,,M,,*61
06/25/2015	02:06:36.533	$GPGGA,020637,2536.0553,N,08001.7783,W,1,11,1.6,13,M,,M,,*66
06/25/2015	02:06:37.503	$GPGGA,020638,2536.0546,N,08001.7781,W,1,11,1.6,13,M,,M,,*6F
06/25/2015	02:06:38.503	$GPGGA,020639,2536.0540,N,08001.7778,W,1,11,1.6,13,M,,M,,*6E
06/25/2015	02:06:39.503	$GPGGA,020640,2536.0533,N,08001.7777,W,1,11,1.6,13,M,,M,,*6B
06/25/2015	02:06:40.503	$GPGGA,020641,2536.0526,N,08001.7775,W,1,11,1.6,13,M,,M,,*6C
06/25/2015	02:06:41.683	$GPGGA,020642,2536.0519,N,08001.7773,W,1,11,1.6,13,M,,M,,*65
06/25/2015	02:06:42.502	$GPGGA,020643,2536.0513,N,08001.7771,W,1,11,1.6,13,M,,M,,*6C
06/25/2015	02:06:43.718	$GPGGA,020644,2536.0506,N,08001.7770,W,1,11,1.6,13,M,,M,,*6E
06/25/2015	02:06:44.563	$GPGGA,020645,2536.0500,N,08001.7769,W,1,11,1.6,13,M,,M,,*61
06/25/2015	02:06:45.503	$GPGGA,020646,2536.0493,N,08001.7767,W,1,11,1.6,13,M,,M,,*67
06/25/2015	02:06:46.594	$GPGGA,020647,2536.0486,N,08001.7766,W,1,11,1.6,13,M,,M,,*63
06/25/2015	02:06:47.703	$GPGGA,020648,2536.0479,N,08001.7764,W,1,11,1.6,13,M,,M,,*6E
06/25/2015	02:06:48.616	$GPGGA,020649,2536.0472,N,08001.7762,W,1,11,1.6,13,M,,M,,*62
06/25/2015	02:06:49.683	$GPGGA,020650,2536.0465,N,08001.7762,W,1,11,1.6,13,M,,M,,*6C
06/25/2015	02:06:50.643	$GPGGA,020651,2536.0459,N,08001.7760,W,1,11,1.7,13,M,,M,,*61
06/25/2015	02:06:51.703	$GPGGA,020652,2536.0452,N,08001.7757,W,1,10,1.7,13,M,,M,,*6C
06/25/2015	02:06:52.623	$GPGGA,020653,2536.0445,N,08001.7758,W,1,10,1.6,13,M,,M,,*65
06/25/2015	02:06:53.573	$GPGGA,020654,2536.0439,N,08001.7756,W,1,11,1.6,13,M,,M,,*66
06/25/2015	02:06:54.603	$GPGGA,020655,2536.0433,N,08001.7754,W,1,11,1.6,13,M,,M,,*6F
06/25/2015	02:06:55.663	$GPGGA,020656,2536.0426,N,08001.7754,W,1,11,1.6,13,M,,M,,*68
06/25/2015	02:06:56.624	$GPGGA,020657,2536.0421,N,08001.7753,W,1,11,1.6,13,M,,M,,*69
06/25/2015	02:06:57.673	$GPGGA,020658,2536.0414,N,08001.7752,W,1,11,1.6,13,M,,M,,*61
06/25/2015	02:06:58.593	$GPGGA,020659,2536.0407,N,08001.7750,W,1,11,1.7,13,M,,M,,*61
06/25/2015	02:06:59.703	$GPGGA,020700,2536.0401,N,08001.7751,W,1,10,1.6,13,M,,M,,*6B
06/25/2015	02:07:00.563	$GPGGA,020701,2536.0394,N,08001.7748,W,1,10,1.6,13,M,,M,,*69
06/25/2015	02:07:01.623	$GPGGA,020702,2536.0388,N,08001.7749,W,1,11,1.6,13,M,,M,,*67
06/25/2015	02:07:02.583	$GPGGA,020703,2536.0382,N,08001.7747,W,1,11,1.6,13,M,,M,,*62
06/25/2015	02:07:03.693	$GPGGA,020704,2536.0375,N,08001.7743,W,1,11,1.6,13,M,,M,,*69
06/25/2015	02:07:04.553	$GPGGA,020705,2536.0368,N,08001.7743,W,1,11,1.6,13,M,,M,,*64
06/25/2015	02:07:05.643	$GPGGA,020706,2536.0363,N,08001.7742,W,1,11,1.6,13,M,,M,,*6D
06/25/2015	02:07:06.593	$GPGGA,020707,2536.0356,N,08001.7738,W,1,11,1.6,13,M,,M,,*67
06/25/2015	02:07:07.553	$GPGGA,020708,2536.0349,N,08001.7738,W,1,11,1.6,13,M,,M,,*66
06/25/2015	02:07:08.583	$GPGGA,020709,2536.0341,N,08001.7735,W,1,11,1.6,13,M,,M,,*62
06/25/2015	02:07:09.693	$GPGGA,020710,2536.0335,N,08001.7733,W,1,11,1.6,13,M,,M,,*6F
06/25/2015	02:07:10.533	$GPGGA,020711,2536.0328,N,08001.7731,W,1,11,1.6,13,M,,M,,*60
06/25/2015	02:07:11.673	$GPGGA,020712,2536.0322,N,08001.7727,W,1,11,1.6,13,M,,M,,*6E
06/25/2015	02:07:12.563	$GPGGA,020713,2536.0316,N,08001.7726,W,1,11,1.6,13,M,,M,,*69
06/25/2015	02:07:13.593	$GPGGA,020714,2536.0309,N,08001.7724,W,1,11,1.6,13,M,,M,,*62
06/25/2015	02:07:14.643	$GPGGA,020715,2536.0302,N,08001.7721,W,1,11,1.6,13,M,,M,,*6D
06/25/2015	02:07:15.616	$GPGGA,020716,2536.0295,N,08001.7719,W,1,11,1.6,14,M,,M,,*6D
06/25/2015	02:07:16.515	$GPGGA,020717,2536.0289,N,08001.7717,W,1,11,1.6,14,M,,M,,*6F
06/25/2015	02:07:17.605	$GPGGA,020718,2536.0282,N,08001.7713,W,1,11,1.6,14,M,,M,,*6F
06/25/2015	02:07:18.562	$GPGGA,020719,2536.0275,N,08001.7711,W,1,11,1.6,14,M,,M,,*64
06/25/2015	02:07:19.652	$GPGGA,020720,2536.0268,N,08001.7708,W,1,11,1.6,14,M,,M,,*6A
06/25/2015	02:07:20.542	$GPGGA,020721,2536.0262,N,08001.7704,W,1,11,1.6,14,M,,M,,*6D
06/25/2015	02:07:21.592	$GPGGA,020722,2536.0255,N,08001.7702,W,1,11,1.6,14,M,,M,,*6C
06/25/2015	02:07:22.511	$GPGGA,020723,2536.0249,N,08001.7699,W,1,11,1.6,14,M,,M,,*63
06/25/2015	02:07:23.642	$GPGGA,020724,2536.0244,N,08001.7696,W,1,11,1.6,14,M,,M,,*66
06/25/2015	02:07:24.620	$GPGGA,020725,2536.0237,N,08001.7693,W,1,11,1.6,14,M,,M,,*66
06/25/2015	02:07:25.615	$GPGGA,020726,2536.0230,N,08001.7689,W,1,11,1.6,14,M,,M,,*69
06/25/2015	02:07:26.616	$GPGGA,020727,2536.0224,N,08001.7686,W,1,11,1.6,14,M,,M,,*62
06/25/2015	02:07:27.632	$GPGGA,020728,2536.0217,N,08001.7683,W,1,11,1.6,14,M,,M,,*68
06/25/2015	02:07:29.773	$GPGGA,020730,2536.0204,N,08001.7677,W,1,11,1.6,14,M,,M,,*68
06/25/2015	02:07:30.543	$GPGGA,020731,2536.0197,N,08001.7674,W,1,11,1.6,14,M,,M,,*63
06/25/2015	02:07:31.663	$GPGGA,020732,2536.0190,N,08001.7670,W,1,11,1.6,14,M,,M,,*63
06/25/2015	02:07:32.593	$GPGGA,020733,2536.0182,N,08001.7667,W,1,11,1.6,13,M,,M,,*60
06/25/2015	02:07:33.643	$GPGGA,020734,2536.0175,N,08001.7664,W,1,11,1.6,13,M,,M,,*6C
06/25/2015	02:07:34.583	$GPGGA,020735,2536.0168,N,08001.7660,W,1,11,1.6,13,M,,M,,*65
06/25/2015	02:07:35.619	$GPGGA,020736,2536.0161,N,08001.7656,W,1,11,1.6,13,M,,M,,*6A
06/25/2015	02:07:36.582	$GPGGA,020737,2536.0154,N,08001.7654,W,1,11,1.6,13,M,,M,,*6F
06/25/2015	02:07:37.592	$GPGGA,020738,2536.0146,N,08001.7649,W,1,11,1.6,13,M,,M,,*6F
06/25/2015	02:07:38.592	$GPGGA,020739,2536.0139,N,08001.7646,W,1,11,1.6,13,M,,M,,*69
06/25/2015	02:07:39.592	$GPGGA,020740,2536.0130,N,08001.7643,W,1,11,1.6,13,M,,M,,*6B
06/25/2015	02:07:40.582	$GPGGA,020741,2536.0122,N,08001.7639,W,1,11,1.6,13,M,,M,,*64
06/25/2015	02:07:41.582	$GPGGA,020742,2536.0114,N,08001.7637,W,1,11,1.6,13,M,,M,,*6C
06/25/2015	02:07:42.572	$GPGGA,020743,2536.0107,N,08001.7632,W,1,11,1.6,13,M,,M,,*6A
06/25/2015	02:07:43.582	$GPGGA,020744,2536.0098,N,08001.7629,W,1,11,1.6,13,M,,M,,*60
06/25/2015	02:07:44.562	$GPGGA,020745,2536.0092,N,08001.7627,W,1,11,1.6,13,M,,M,,*65
06/25/2015	02:07:45.633	$GPGGA,020746,2536.0082,N,08001.7623,W,1,11,1.6,13,M,,M,,*63
06/25/2015	02:07:46.553	$GPGGA,020747,2536.0075,N,08001.7619,W,1,11,1.6,13,M,,M,,*63
06/25/2015	02:07:47.622	$GPGGA,020748,2536.0067,N,08001.7617,W,1,11,1.6,13,M,,M,,*61
06/25/2015	02:07:48.553	$GPGGA,020749,2536.0058,N,08001.7614,W,1,11,1.6,13,M,,M,,*6F
06/25/2015	02:07:49.593	$GPGGA,020750,2536.0050,N,08001.7611,W,1,11,1.6,13,M,,M,,*6A
06/25/2015	02:07:50.563	$GPGGA,020751,2536.0042,N,08001.7608,W,1,11,1.6,13,M,,M,,*60
06/25/2015	02:07:51.613	$GPGGA,020752,2536.0033,N,08001.7605,W,1,11,1.6,13,M,,M,,*68
06/25/2015	02:07:52.552	$GPGGA,020753,2536.0024,N,08001.7603,W,1,11,1.6,13,M,,M,,*69
06/25/2015	02:07:53.622	$GPGGA,020754,2536.0016,N,08001.7600,W,1,11,1.6,13,M,,M,,*6C
06/25/2015	02:07:54.542	$GPGGA,020755,2536.0009,N,08001.7598,W,1,11,1.6,13,M,,M,,*61
06/25/2015	02:07:55.632	$GPGGA,020756,2536.0009,N,08001.7598,W,1,11,1.6,13,M,,M,,*62
06/25/2015	02:07:56.542	$GPGGA,020757,2535.9991,N,08001.7594,W,1,11,1.6,13,M,,M,,*6D
06/25/2015	02:07:57.592	$GPGGA,020758,2535.9984,N,08001.7591,W,1,11,1.6,13,M,,M,,*63
06/25/2015	02:07:58.542	$GPGGA,020759,2535.9975,N,08001.7590,W,1,11,1.6,13,M,,M,,*6D
06/25/2015	02:07:59.592	$GPGGA,020800,2535.9975,N,08001.7590,W,1,11,1.6,13,M,,M,,*6E
06/25/2015	02:08:00.552	$GPGGA,020801,2535.9958,N,08001.7586,W,1,11,1.6,13,M,,M,,*67
06/25/2015	02:08:01.615	$GPGGA,020802,2535.9950,N,08001.7585,W,1,11,1.6,13,M,,M,,*6F
06/25/2015	02:08:02.553	$GPGGA,020803,2535.9941,N,08001.7584,W,1,11,1.6,13,M,,M,,*6F
06/25/2015	02:08:03.553	$GPGGA,020804,2535.9941,N,08001.7584,W,1,11,1.6,13,M,,M,,*68
06/25/2015	02:08:04.518	$GPGGA,020805,2535.9924,N,08001.7580,W,1,11,1.6,12,M,,M,,*6F
06/25/2015	02:08:05.633	$GPGGA,020806,2535.9915,N,08001.7578,W,1,11,1.6,12,M,,M,,*69
06/25/2015	02:08:06.517	$GPGGA,020807,2535.9908,N,08001.7577,W,1,11,1.6,12,M,,M,,*6B
06/25/2015	02:08:07.553	$GPGGA,020808,2535.9898,N,08001.7575,W,1,11,1.6,12,M,,M,,*6E
06/25/2015	02:08:08.523	$GPGGA,020809,2535.9890,N,08001.7572,W,1,11,1.6,12,M,,M,,*60
06/25/2015	02:08:09.633	$GPGGA,020810,2535.9883,N,08001.7571,W,1,11,1.6,12,M,,M,,*69
06/25/2015	02:08:10.514	$GPGGA,020811,2535.9874,N,08001.7570,W,1,11,1.6,12,M,,M,,*61
06/25/2015	02:08:11.632	$GPGGA,020812,2535.9866,N,08001.7568,W,1,11,1.6,12,M,,M,,*68
06/25/2015	02:08:12.512	$GPGGA,020813,2535.9858,N,08001.7566,W,1,11,1.6,12,M,,M,,*6A
06/25/2015	02:08:13.632	$GPGGA,020814,2535.9850,N,08001.7565,W,1,11,1.6,12,M,,M,,*66
06/25/2015	02:08:14.603	$GPGGA,020815,2535.9840,N,08001.7563,W,1,11,1.6,12,M,,M,,*60
06/25/2015	02:08:15.622	$GPGGA,020816,2535.9832,N,08001.7561,W,1,11,1.6,12,M,,M,,*64
06/25/2015	02:08:16.513	$GPGGA,020817,2535.9823,N,08001.7560,W,1,11,1.6,12,M,,M,,*64
06/25/2015	02:08:17.606	$GPGGA,020818,2535.9814,N,08001.7558,W,1,11,1.6,12,M,,M,,*64
06/25/2015	02:08:18.512	$GPGGA,020819,2535.9807,N,08001.7557,W,1,11,1.6,12,M,,M,,*68
06/25/2015	02:08:19.613	$GPGGA,020820,2535.9798,N,08001.7554,W,1,11,1.6,12,M,,M,,*68
06/25/2015	02:08:20.514	$GPGGA,020821,2535.9790,N,08001.7553,W,1,11,1.6,12,M,,M,,*66
06/25/2015	02:08:21.593	$GPGGA,020822,2535.9781,N,08001.7551,W,1,11,1.6,12,M,,M,,*67
06/25/2015	02:08:22.593	$GPGGA,020823,2535.9773,N,08001.7548,W,1,11,1.6,12,M,,M,,*63
06/25/2015	02:08:23.673	$GPGGA,020824,2535.9765,N,08001.7547,W,1,11,1.6,12,M,,M,,*6C
06/25/2015	02:08:24.583	$GPGGA,020825,2535.9756,N,08001.7545,W,1,11,1.6,12,M,,M,,*6F
06/25/2015	02:08:25.573	$GPGGA,020826,2535.9747,N,08001.7541,W,1,11,1.6,12,M,,M,,*68
06/25/2015	02:08:26.583	$GPGGA,020827,2535.9739,N,08001.7539,W,1,11,1.6,12,M,,M,,*6F
06/25/2015	02:08:27.643	$GPGGA,020828,2535.9731,N,08001.7537,W,1,11,1.6,12,M,,M,,*66
06/25/2015	02:08:28.582	$GPGGA,020829,2535.9724,N,08001.7533,W,1,11,1.6,12,M,,M,,*67
06/25/2015	02:08:29.592	$GPGGA,020830,2535.9714,N,08001.7531,W,1,11,1.6,12,M,,M,,*6E
06/25/2015	02:08:30.573	$GPGGA,020831,2535.9707,N,08001.7528,W,1,11,1.6,12,M,,M,,*65
06/25/2015	02:08:31.622	$GPGGA,020832,2535.9699,N,08001.7525,W,1,11,1.6,12,M,,M,,*6D
06/25/2015	02:08:32.572	$GPGGA,020833,2535.9691,N,08001.7522,W,1,11,1.6,12,M,,M,,*63
06/25/2015	02:08:33.582	$GPGGA,020834,2535.9682,N,08001.7519,W,1,11,1.6,12,M,,M,,*6E
06/25/2015	02:08:34.552	$GPGGA,020835,2535.9674,N,08001.7517,W,1,11,1.7,12,M,,M,,*69
06/25/2015	02:08:35.572	$GPGGA,020836,2535.9666,N,08001.7515,W,1,11,1.6,12,M,,M,,*6A
06/25/2015	02:08:36.562	$GPGGA,020837,2535.9657,N,08001.7511,W,1,11,1.6,12,M,,M,,*6D
06/25/2015	02:08:37.552	$GPGGA,020838,2535.9649,N,08001.7508,W,1,11,1.6,12,M,,M,,*65
06/25/2015	02:08:38.563	$GPGGA,020839,2535.9641,N,08001.7506,W,1,11,1.6,12,M,,M,,*62
06/25/2015	02:08:40.063	$GPGGA,020840,2535.9632,N,08001.7502,W,1,11,1.6,12,M,,M,,*6C
06/25/2015	02:08:40.553	$GPGGA,020841,2535.9624,N,08001.7500,W,1,11,1.6,12,M,,M,,*68
06/25/2015	02:08:41.573	$GPGGA,020842,2535.9617,N,08001.7497,W,1,11,1.6,12,M,,M,,*64
06/25/2015	02:08:42.563	$GPGGA,020843,2535.9608,N,08001.7494,W,1,11,1.6,12,M,,M,,*68
06/25/2015	02:08:43.583	$GPGGA,020844,2535.9599,N,08001.7491,W,1,11,1.6,12,M,,M,,*61
06/25/2015	02:08:44.553	$GPGGA,020845,2535.9591,N,08001.7488,W,1,11,1.6,12,M,,M,,*60
06/25/2015	02:08:45.582	$GPGGA,020846,2535.9583,N,08001.7485,W,1,11,1.6,12,M,,M,,*6D
06/25/2015	02:08:46.542	$GPGGA,020847,2535.9576,N,08001.7483,W,1,11,1.6,12,M,,M,,*60
06/25/2015	02:08:47.553	$GPGGA,020848,2535.9567,N,08001.7480,W,1,11,1.6,12,M,,M,,*6C
06/25/2015	02:08:48.542	$GPGGA,020849,2535.9559,N,08001.7478,W,1,11,1.6,12,M,,M,,*67
06/25/2015	02:08:49.542	$GPGGA,020850,2535.9551,N,08001.7475,W,1,11,1.6,12,M,,M,,*6A
06/25/2015	02:08:50.532	$GPGGA,020851,2535.9543,N,08001.7471,W,1,11,1.6,12,M,,M,,*6C
06/25/2015	02:08:51.552	$GPGGA,020852,2535.9534,N,08001.7469,W,1,11,1.6,12,M,,M,,*66
06/25/2015	02:08:52.522	$GPGGA,020853,2535.9526,N,08001.7467,W,1,11,1.6,12,M,,M,,*6A
06/25/2015	02:08:53.515	$GPGGA,020854,2535.9518,N,08001.7463,W,1,11,1.6,12,M,,M,,*64
06/25/2015	02:08:54.532	$GPGGA,020855,2535.9510,N,08001.7460,W,1,11,1.6,12,M,,M,,*6E
06/25/2015	02:08:55.553	$GPGGA,020856,2535.9501,N,08001.7457,W,1,11,1.6,12,M,,M,,*69
06/25/2015	02:08:56.516	$GPGGA,020857,2535.9493,N,08001.7454,W,1,11,1.6,12,M,,M,,*61
06/25/2015	02:08:57.523	$GPGGA,020858,2535.9485,N,08001.7451,W,1,11,1.6,12,M,,M,,*6C
06/25/2015	02:08:58.533	$GPGGA,020859,2535.9476,N,08001.7448,W,1,11,1.6,12,M,,M,,*69
06/25/2015	02:08:59.573	$GPGGA,020900,2535.9468,N,08001.7445,W,1,10,1.7,12,M,,M,,*66
06/25/2015	02:09:00.615	$GPGGA,020901,2535.9460,N,08001.7443,W,1,10,1.6,12,M,,M,,*68
06/25/2015	02:09:01.618	$GPGGA,020902,2535.9450,N,08001.7439,W,1,11,1.6,12,M,,M,,*64
06/25/2015	02:09:02.514	$GPGGA,020903,2535.9442,N,08001.7436,W,1,11,1.6,12,M,,M,,*69
06/25/2015	02:09:03.632	$GPGGA,020904,2535.9433,N,08001.7433,W,1,11,1.6,12,M,,M,,*6D
06/25/2015	02:09:04.514	$GPGGA,020905,2535.9426,N,08001.7429,W,1,11,1.6,12,M,,M,,*63
06/25/2015	02:09:05.512	$GPGGA,020906,2535.9417,N,08001.7428,W,1,11,1.6,12,M,,M,,*63
06/25/2015	02:09:06.608	$GPGGA,020907,2535.9408,N,08001.7425,W,1,11,1.6,12,M,,M,,*61
06/25/2015	02:09:07.622	$GPGGA,020908,2535.9402,N,08001.7422,W,1,11,1.6,12,M,,M,,*63
06/25/2015	02:09:08.516	$GPGGA,020909,2535.9392,N,08001.7421,W,1,11,1.6,12,M,,M,,*6F
06/25/2015	02:09:09.626	$GPGGA,020910,2535.9384,N,08001.7418,W,1,11,1.6,12,M,,M,,*6A
06/25/2015	02:09:10.582	$GPGGA,020911,2535.9375,N,08001.7415,W,1,11,1.6,12,M,,M,,*68
06/25/2015	02:09:11.620	$GPGGA,020912,2535.9366,N,08001.7413,W,1,11,1.6,12,M,,M,,*6F
06/25/2015	02:09:12.592	$GPGGA,020913,2535.9357,N,08001.7412,W,1,11,1.6,12,M,,M,,*6D
06/25/2015	02:09:13.593	$GPGGA,020914,2535.9348,N,08001.7410,W,1,11,1.6,12,M,,M,,*66
06/25/2015	02:09:14.583	$GPGGA,020915,2535.9341,N,08001.7408,W,1,11,1.6,12,M,,M,,*67
06/25/2015	02:09:15.633	$GPGGA,020916,2535.9332,N,08001.7405,W,1,11,1.6,12,M,,M,,*6D
06/25/2015	02:09:16.583	$GPGGA,020917,2535.9323,N,08001.7404,W,1,11,1.6,12,M,,M,,*6D
06/25/2015	02:09:17.616	$GPGGA,020918,2535.9314,N,08001.7403,W,1,10,1.7,12,M,,M,,*61
06/25/2015	02:09:18.573	$GPGGA,020919,2535.9306,N,08001.7401,W,1,10,1.6,12,M,,M,,*60
06/25/2015	02:09:19.606	$GPGGA,020920,2535.9297,N,08001.7402,W,1,11,1.6,12,M,,M,,*61
06/25/2015	02:09:20.572	$GPGGA,020921,2535.9290,N,08001.7399,W,1,11,1.6,12,M,,M,,*62
06/25/2015	02:09:21.592	$GPGGA,020922,2535.9280,N,08001.7397,W,1,11,1.6,12,M,,M,,*6E
06/25/2015	02:09:22.572	$GPGGA,020923,2535.9272,N,08001.7394,W,1,11,1.6,12,M,,M,,*61
06/25/2015	02:09:23.603	$GPGGA,020924,2535.9263,N,08001.7393,W,1,11,1.6,12,M,,M,,*61
06/25/2015	02:09:24.562	$GPGGA,020925,2535.9254,N,08001.7391,W,1,11,1.6,12,M,,M,,*66
06/25/2015	02:09:25.582	$GPGGA,020926,2535.9245,N,08001.7389,W,1,11,1.6,13,M,,M,,*6D
06/25/2015	02:09:26.552	$GPGGA,020927,2535.9237,N,08001.7386,W,1,11,1.6,13,M,,M,,*66
06/25/2015	02:09:27.592	$GPGGA,020928,2535.9229,N,08001.7385,W,1,11,1.6,13,M,,M,,*65
06/25/2015	02:09:28.562	$GPGGA,020929,2535.9219,N,08001.7383,W,1,11,1.6,13,M,,M,,*61
06/25/2015	02:09:29.542	$GPGGA,020930,2535.9211,N,08001.7379,W,1,10,1.7,13,M,,M,,*64
06/25/2015	02:09:30.553	$GPGGA,020931,2535.9203,N,08001.7376,W,1,10,1.6,13,M,,M,,*68
06/25/2015	02:09:31.553	$GPGGA,020932,2535.9195,N,08001.7373,W,1,11,1.6,13,M,,M,,*63
06/25/2015	02:09:32.553	$GPGGA,020933,2535.9187,N,08001.7370,W,1,11,1.6,13,M,,M,,*62
06/25/2015	02:09:33.543	$GPGGA,020934,2535.9179,N,08001.7367,W,1,11,1.6,13,M,,M,,*62
06/25/2015	02:09:34.543	$GPGGA,020935,2535.9171,N,08001.7365,W,1,11,1.6,13,M,,M,,*69
06/25/2015	02:09:35.553	$GPGGA,020936,2535.9162,N,08001.7363,W,1,11,1.6,13,M,,M,,*6E
06/25/2015	02:09:36.553	$GPGGA,020937,2535.9153,N,08001.7361,W,1,11,1.6,13,M,,M,,*6F
06/25/2015	02:09:37.582	$GPGGA,020938,2535.9146,N,08001.7359,W,1,11,1.6,13,M,,M,,*6F
06/25/2015	02:09:38.542	$GPGGA,020939,2535.9136,N,08001.7357,W,1,11,1.6,12,M,,M,,*66
06/25/2015	02:09:39.583	$GPGGA,020940,2535.9128,N,08001.7354,W,1,11,1.6,12,M,,M,,*64
06/25/2015	02:09:40.542	$GPGGA,020941,2535.9120,N,08001.7353,W,1,11,1.6,12,M,,M,,*6A
06/25/2015	02:09:41.552	$GPGGA,020942,2535.9113,N,08001.7350,W,1,11,1.6,12,M,,M,,*6A
06/25/2015	02:09:42.522	$GPGGA,020943,2535.9103,N,08001.7347,W,1,11,1.6,12,M,,M,,*6C
06/25/2015	02:09:43.532	$GPGGA,020944,2535.9095,N,08001.7346,W,1,11,1.6,12,M,,M,,*64
06/25/2015	02:09:44.622	$GPGGA,020945,2535.9086,N,08001.7343,W,1,11,1.6,12,M,,M,,*62
06/25/2015	02:09:45.522	$GPGGA,020946,2535.9077,N,08001.7341,W,1,11,1.6,12,M,,M,,*6D
06/25/2015	02:09:46.622	$GPGGA,020947,2535.9070,N,08001.7339,W,1,11,1.6,12,M,,M,,*64
06/25/2015	02:09:47.662	$GPGGA,020948,2535.9060,N,08001.7336,W,1,11,1.6,12,M,,M,,*65
06/25/2015	02:09:48.533	$GPGGA,020949,2535.9052,N,08001.7334,W,1,11,1.6,12,M,,M,,*67
06/25/2015	02:09:49.618	$GPGGA,020950,2535.9043,N,08001.7331,W,1,11,1.6,12,M,,M,,*6A
06/25/2015	02:09:50.523	$GPGGA,020951,2535.9035,N,08001.7328,W,1,11,1.6,12,M,,M,,*62
06/25/2015	02:09:51.516	$GPGGA,020952,2535.9026,N,08001.7327,W,1,11,1.6,12,M,,M,,*6C
06/25/2015	02:09:52.593	$GPGGA,020953,2535.9018,N,08001.7325,W,1,11,1.6,12,M,,M,,*62
06/25/2015	02:09:53.515	$GPGGA,020954,2535.9009,N,08001.7322,W,1,11,1.6,12,M,,M,,*62
06/25/2015	02:09:54.593	$GPGGA,020955,2535.9001,N,08001.7320,W,1,11,1.6,12,M,,M,,*69
06/25/2015	02:09:55.522	$GPGGA,020956,2535.8994,N,08001.7317,W,1,11,1.6,12,M,,M,,*6A
06/25/2015	02:09:56.612	$GPGGA,020957,2535.8984,N,08001.7315,W,1,11,1.6,12,M,,M,,*68
06/25/2015	02:09:57.622	$GPGGA,020958,2535.8976,N,08001.7313,W,1,11,1.6,12,M,,M,,*6C
06/25/2015	02:09:58.604	$GPGGA,020959,2535.8967,N,08001.7310,W,1,11,1.6,12,M,,M,,*6E
06/25/2015	02:09:59.652	$GPGGA,021000,2535.8958,N,08001.7306,W,1,11,1.6,12,M,,M,,*61
06/25/2015	02:10:00.502	$GPGGA,021001,2535.8951,N,08001.7304,W,1,11,1.6,12,M,,M,,*6B
06/25/2015	02:10:01.493	$GPGGA,021002,2535.8941,N,08001.7302,W,1,11,1.6,12,M,,M,,*6F
06/25/2015	02:10:02.582	$GPGGA,021003,2535.8932,N,08001.7298,W,1,11,1.6,12,M,,M,,*68
06/25/2015	02:10:03.672	$GPGGA,021004,2535.8924,N,08001.7295,W,1,11,1.6,12,M,,M,,*65
06/25/2015	02:10:04.622	$GPGGA,021005,2535.8915,N,08001.7293,W,1,11,1.6,12,M,,M,,*60
06/25/2015	02:10:05.608	$GPGGA,021006,2535.8907,N,08001.7290,W,1,11,1.6,12,M,,M,,*63
06/25/2015	02:10:06.573	$GPGGA,021007,2535.8900,N,08001.7288,W,1,11,1.6,12,M,,M,,*6C
06/25/2015	02:10:07.615	$GPGGA,021008,2535.8890,N,08001.7284,W,1,11,1.6,12,M,,M,,*67
06/25/2015	02:10:08.573	$GPGGA,021009,2535.8882,N,08001.7281,W,1,11,1.6,12,M,,M,,*60
06/25/2015	02:10:09.593	$GPGGA,021010,2535.8875,N,08001.7281,W,1,11,1.6,12,M,,M,,*60
06/25/2015	02:10:10.573	$GPGGA,021011,2535.8865,N,08001.7276,W,1,11,1.6,12,M,,M,,*68
06/25/2015	02:10:11.593	$GPGGA,021012,2535.8857,N,08001.7274,W,1,11,1.6,12,M,,M,,*68
06/25/2015	02:10:12.572	$GPGGA,021013,2535.8848,N,08001.7272,W,1,11,1.6,12,M,,M,,*61
06/25/2015	02:10:13.552	$GPGGA,021014,2535.8839,N,08001.7268,W,1,11,1.6,12,M,,M,,*6B
06/25/2015	02:10:14.572	$GPGGA,021015,2535.8831,N,08001.7266,W,1,11,1.6,12,M,,M,,*6C
06/25/2015	02:10:16.082	$GPGGA,021016,2535.8822,N,08001.7263,W,1,11,1.6,12,M,,M,,*68
06/25/2015	02:10:16.562	$GPGGA,021017,2535.8814,N,08001.7260,W,1,11,1.6,12,M,,M,,*6F
06/25/2015	02:10:17.572	$GPGGA,021018,2535.8806,N,08001.7259,W,1,11,1.6,12,M,,M,,*69
06/25/2015	02:10:18.562	$GPGGA,021019,2535.8799,N,08001.7255,W,1,11,1.6,12,M,,M,,*6D
06/25/2015	02:10:19.563	$GPGGA,021020,2535.8790,N,08001.7252,W,1,11,1.6,12,M,,M,,*69
06/25/2015	02:10:20.552	$GPGGA,021021,2535.8781,N,08001.7251,W,1,11,1.6,12,M,,M,,*6B
06/25/2015	02:10:21.562	$GPGGA,021022,2535.8773,N,08001.7247,W,1,11,1.6,12,M,,M,,*62
06/25/2015	02:10:22.542	$GPGGA,021023,2535.8764,N,08001.7244,W,1,11,1.6,12,M,,M,,*66
06/25/2015	02:10:23.593	$GPGGA,021024,2535.8756,N,08001.7242,W,1,11,1.6,12,M,,M,,*66
06/25/2015	02:10:24.553	$GPGGA,021025,2535.8747,N,08001.7240,W,1,11,1.6,12,M,,M,,*65
06/25/2015	02:10:25.553	$GPGGA,021026,2535.8739,N,08001.7237,W,1,11,1.6,12,M,,M,,*6F
06/25/2015	02:10:26.533	$GPGGA,021027,2535.8731,N,08001.7234,W,1,11,1.6,12,M,,M,,*65
06/25/2015	02:10:27.553	$GPGGA,021028,2535.8724,N,08001.7232,W,1,10,1.7,12,M,,M,,*68
06/25/2015	02:10:28.533	$GPGGA,021029,2535.8716,N,08001.7229,W,1,10,1.6,12,M,,M,,*63
06/25/2015	02:10:29.543	$GPGGA,021030,2535.8708,N,08001.7226,W,1,11,1.6,12,M,,M,,*6A
06/25/2015	02:10:30.542	$GPGGA,021031,2535.8700,N,08001.7225,W,1,11,1.6,12,M,,M,,*60
06/25/2015	02:10:31.562	$GPGGA,021032,2535.8692,N,08001.7222,W,1,11,1.6,12,M,,M,,*6E
06/25/2015	02:10:32.619	$GPGGA,021033,2535.8684,N,08001.7219,W,1,11,1.6,12,M,,M,,*60
06/25/2015	02:10:33.562	$GPGGA,021034,2535.8676,N,08001.7218,W,1,11,1.6,12,M,,M,,*6B
06/25/2015	02:10:34.522	$GPGGA,021035,2535.8667,N,08001.7215,W,1,11,1.6,12,M,,M,,*67
06/25/2015	02:10:35.552	$GPGGA,021036,2535.8658,N,08001.7213,W,1,11,1.6,12,M,,M,,*6E
06/25/2015	02:10:36.532	$GPGGA,021037,2535.8651,N,08001.7211,W,1,11,1.6,12,M,,M,,*64
06/25/2015	02:10:37.503	$GPGGA,021038,2535.8642,N,08001.7209,W,1,11,1.6,12,M,,M,,*60
06/25/2015	02:10:38.652	$GPGGA,021039,2535.8634,N,08001.7207,W,1,11,1.6,12,M,,M,,*6E
06/25/2015	02:10:39.562	$GPGGA,021040,2535.8626,N,08001.7205,W,1,11,1.6,12,M,,M,,*61
06/25/2015	02:10:40.607	$GPGGA,021041,2535.8617,N,08001.7203,W,1,11,1.6,12,M,,M,,*64
06/25/2015	02:10:41.523	$GPGGA,021042,2535.8609,N,08001.7201,W,1,11,1.6,12,M,,M,,*6A
06/25/2015	02:10:42.503	$GPGGA,021043,2535.8601,N,08001.7200,W,1,11,1.6,12,M,,M,,*62
06/25/2015	02:10:43.653	$GPGGA,021044,2535.8593,N,08001.7197,W,1,11,1.6,12,M,,M,,*60
06/25/2015	02:10:44.603	$GPGGA,021045,2535.8584,N,08001.7195,W,1,11,1.6,12,M,,M,,*65
06/25/2015	02:10:45.593	$GPGGA,021046,2535.8575,N,08001.7194,W,1,11,1.6,12,M,,M,,*69
06/25/2015	02:10:46.593	$GPGGA,021047,2535.8566,N,08001.7192,W,1,11,1.6,12,M,,M,,*6C
06/25/2015	02:10:47.513	$GPGGA,021048,2535.8558,N,08001.7189,W,1,11,1.6,12,M,,M,,*64
06/25/2015	02:10:48.592	$GPGGA,021049,2535.8550,N,08001.7188,W,1,11,1.6,12,M,,M,,*6C
06/25/2015	02:10:49.492	$GPGGA,021050,2535.8541,N,08001.7187,W,1,11,1.6,12,M,,M,,*6B
06/25/2015	02:10:50.582	$GPGGA,021051,2535.8533,N,08001.7184,W,1,11,1.6,12,M,,M,,*6C
06/25/2015	02:10:51.592	$GPGGA,021052,2535.8525,N,08001.7183,W,1,11,1.6,12,M,,M,,*6F
06/25/2015	02:10:52.604	$GPGGA,021053,2535.8517,N,08001.7181,W,1,11,1.6,12,M,,M,,*6D
06/25/2015	02:10:53.592	$GPGGA,021054,2535.8508,N,08001.7178,W,1,11,1.6,12,M,,M,,*62
06/25/2015	02:10:54.583	$GPGGA,021055,2535.8500,N,08001.7177,W,1,11,1.6,12,M,,M,,*64
06/25/2015	02:10:55.642	$GPGGA,021056,2535.8492,N,08001.7175,W,1,11,1.6,12,M,,M,,*6F
06/25/2015	02:10:56.572	$GPGGA,021057,2535.8483,N,08001.7173,W,1,11,1.6,12,M,,M,,*68
06/25/2015	02:10:57.573	$GPGGA,021058,2535.8474,N,08001.7171,W,1,11,1.6,12,M,,M,,*6D
06/25/2015	02:10:58.583	$GPGGA,021059,2535.8466,N,08001.7168,W,1,11,1.6,12,M,,M,,*67
06/25/2015	02:10:59.643	$GPGGA,021100,2535.8457,N,08001.7167,W,1,11,1.6,12,M,,M,,*67
06/25/2015	02:11:00.573	$GPGGA,021101,2535.8449,N,08001.7165,W,1,11,1.6,12,M,,M,,*6B
06/25/2015	02:11:01.593	$GPGGA,021102,2535.8441,N,08001.7162,W,1,11,1.6,12,M,,M,,*67
06/25/2015	02:11:02.563	$GPGGA,021103,2535.8432,N,08001.7160,W,1,11,1.6,12,M,,M,,*60
06/25/2015	02:11:03.633	$GPGGA,021104,2535.8424,N,08001.7158,W,1,11,1.6,12,M,,M,,*6B
06/25/2015	02:11:04.563	$GPGGA,021105,2535.8416,N,08001.7156,W,1,11,1.6,12,M,,M,,*65
06/25/2015	02:11:05.572	$GPGGA,021106,2535.8407,N,08001.7153,W,1,11,1.6,12,M,,M,,*63
06/25/2015	02:11:06.552	$GPGGA,021107,2535.8398,N,08001.7151,W,1,11,1.6,12,M,,M,,*61
06/25/2015	02:11:07.602	$GPGGA,021108,2535.8391,N,08001.7148,W,1,11,1.6,12,M,,M,,*6F
06/25/2015	02:11:08.572	$GPGGA,021109,2535.8381,N,08001.7146,W,1,11,1.6,12,M,,M,,*61
06/25/2015	02:11:09.552	$GPGGA,021110,2535.8372,N,08001.7143,W,1,11,1.6,12,M,,M,,*60
06/25/2015	02:11:10.562	$GPGGA,021111,2535.8364,N,08001.7140,W,1,11,1.6,12,M,,M,,*65
06/25/2015	02:11:11.582	$GPGGA,021112,2535.8355,N,08001.7138,W,1,11,1.6,12,M,,M,,*6B
06/25/2015	02:11:12.562	$GPGGA,021113,2535.8347,N,08001.7135,W,1,11,1.6,12,M,,M,,*64
06/25/2015	02:11:13.542	$GPGGA,021114,2535.8338,N,08001.7133,W,1,11,1.6,12,M,,M,,*6D
06/25/2015	02:11:14.542	$GPGGA,021115,2535.8329,N,08001.7129,W,1,11,1.6,12,M,,M,,*67
06/25/2015	02:11:15.553	$GPGGA,021116,2535.8322,N,08001.7127,W,1,11,1.6,12,M,,M,,*61
06/25/2015	02:11:16.563	$GPGGA,021117,2535.8312,N,08001.7125,W,1,11,1.6,12,M,,M,,*61
06/25/2015	02:11:17.563	$GPGGA,021118,2535.8304,N,08001.7121,W,1,11,1.6,12,M,,M,,*6D
06/25/2015	02:11:18.553	$GPGGA,021119,2535.8295,N,08001.7118,W,1,11,1.6,12,M,,M,,*6F
06/25/2015	02:11:19.553	$GPGGA,021120,2535.8287,N,08001.7116,W,1,11,1.6,12,M,,M,,*68
06/25/2015	02:11:20.543	$GPGGA,021121,2535.8279,N,08001.7113,W,1,11,1.6,12,M,,M,,*6D
06/25/2015	02:11:21.683	$GPGGA,021122,2535.8270,N,08001.7110,W,1,11,1.6,13,M,,M,,*65
06/25/2015	02:11:22.542	$GPGGA,021123,2535.8261,N,08001.7108,W,1,11,1.6,13,M,,M,,*6D
06/25/2015	02:11:23.692	$GPGGA,021124,2535.8253,N,08001.7104,W,1,11,1.6,13,M,,M,,*67
06/25/2015	02:11:24.522	$GPGGA,021125,2535.8244,N,08001.7102,W,1,11,1.6,13,M,,M,,*66
06/25/2015	02:11:25.662	$GPGGA,021126,2535.8236,N,08001.7099,W,1,11,1.6,13,M,,M,,*63
06/25/2015	02:11:26.532	$GPGGA,021127,2535.8228,N,08001.7096,W,1,11,1.6,13,M,,M,,*62
06/25/2015	02:11:27.524	$GPGGA,021128,2535.8219,N,08001.7093,W,1,11,1.6,13,M,,M,,*6A
06/25/2015	02:11:28.523	$GPGGA,021129,2535.8211,N,08001.7089,W,1,11,1.6,13,M,,M,,*68
06/25/2015	02:11:29.652	$GPGGA,021130,2535.8203,N,08001.7086,W,1,11,1.6,13,M,,M,,*6C
06/25/2015	02:11:30.524	$GPGGA,021131,2535.8194,N,08001.7083,W,1,11,1.6,13,M,,M,,*65
06/25/2015	02:11:31.642	$GPGGA,021132,2535.8186,N,08001.7080,W,1,11,1.6,13,M,,M,,*66
06/25/2015	02:11:32.612	$GPGGA,021133,2535.8177,N,08001.7076,W,1,11,1.6,13,M,,M,,*60
06/25/2015	02:11:33.653	$GPGGA,021134,2535.8169,N,08001.7073,W,1,11,1.6,13,M,,M,,*6D
06/25/2015	02:11:34.610	$GPGGA,021135,2535.8161,N,08001.7071,W,1,11,1.6,13,M,,M,,*66
06/25/2015	02:11:35.623	$GPGGA,021136,2535.8152,N,08001.7067,W,1,11,1.6,13,M,,M,,*62
06/25/2015	02:11:36.593	$GPGGA,021137,2535.8145,N,08001.7065,W,1,11,1.6,13,M,,M,,*67
06/25/2015	02:11:37.623	$GPGGA,021138,2535.8135,N,08001.7061,W,1,11,1.6,13,M,,M,,*6B
06/25/2015	02:11:38.605	$GPGGA,021139,2535.8127,N,08001.7058,W,1,11,1.6,13,M,,M,,*63
06/25/2015	02:11:39.623	$GPGGA,021140,2535.8118,N,08001.7055,W,1,11,1.6,13,M,,M,,*6C
06/25/2015	02:11:40.592	$GPGGA,021141,2535.8111,N,08001.7052,W,1,11,1.6,13,M,,M,,*63
06/25/2015	02:11:41.606	$GPGGA,021142,2535.8103,N,08001.7049,W,1,11,1.6,13,M,,M,,*69
06/25/2015	02:11:42.582	$GPGGA,021143,2535.8095,N,08001.7047,W,1,11,1.6,13,M,,M,,*68
06/25/2015	02:11:43.672	$GPGGA,021144,2535.8087,N,08001.7044,W,1,11,1.6,13,M,,M,,*6F
06/25/2015	02:11:44.583	$GPGGA,021145,2535.8080,N,08001.7042,W,1,11,1.6,13,M,,M,,*6F
06/25/2015	02:11:45.605	$GPGGA,021146,2535.8070,N,08001.7039,W,1,11,1.6,13,M,,M,,*6F
06/25/2015	02:11:46.582	$GPGGA,021147,2535.8062,N,08001.7036,W,1,11,1.6,13,M,,M,,*62
06/25/2015	02:11:47.619	$GPGGA,021148,2535.8053,N,08001.7034,W,1,11,1.6,13,M,,M,,*6D
