Software Version Number: 1	Data File Format Number: 1	Build Version Number: 1	Error Count Since VI Started: 1	Manufacturer: Raytheon	 Model Number: RayMarine 120	 S/N: 	 Cal Date: 	 Wind Direction Offset: 0.00	 Slope (M)1: 0.00	 Offset (B)1: 0.00	 Slope (M)2: 0.00	 Offset (B)2: 0.00	 Slope (M)3: 0.00	 Offset (B)3: 0.00	 Slope (M)4: 0.00	 Offset (B)4: 0.00	 Slope (M)5: 0.00	 Offset (B)5: 0.00	 Slope (M)6: 0.00	 Offset (B)6: 0.00
Computer Date	Computer Time	GGA String
06/10/2015	00:00:00.567	$GPGGA,000001,2543.8848,N,08009.7287,W,1,7,2.1,14,M,,M,,*57
06/10/2015	00:00:01.578	$GPGGA,000002,2543.8847,N,08009.7287,W,1,7,2.1,14,M,,M,,*5B
06/10/2015	00:00:02.558	$GPGGA,000003,2543.8846,N,08009.7287,W,1,7,2.1,14,M,,M,,*5B
06/10/2015	00:00:03.578	$GPGGA,000004,2543.8848,N,08009.7287,W,1,7,2.1,14,M,,M,,*52
06/10/2015	00:00:04.558	$GPGGA,000005,2543.8847,N,08009.7287,W,1,7,2.1,14,M,,M,,*5C
06/10/2015	00:00:05.568	$GPGGA,000006,2543.8846,N,08009.7286,W,1,7,2.1,14,M,,M,,*5F
06/10/2015	00:00:06.558	$GPGGA,000007,2543.8846,N,08009.7287,W,1,7,2.0,15,M,,M,,*5F
06/10/2015	00:00:07.578	$GPGGA,000008,2543.8844,N,08009.7286,W,1,8,2.0,15,M,,M,,*5C
06/10/2015	00:00:08.558	$GPGGA,000009,2543.8845,N,08009.7285,W,1,8,2.0,15,M,,M,,*5F
06/10/2015	00:00:09.558	$GPGGA,000010,2543.8844,N,08009.7285,W,1,8,2.0,15,M,,M,,*56
06/10/2015	00:00:10.539	$GPGGA,000011,2543.8843,N,08009.7285,W,1,8,2.0,15,M,,M,,*50
06/10/2015	00:00:11.578	$GPGGA,000012,2543.8844,N,08009.7284,W,1,8,2.0,15,M,,M,,*55
06/10/2015	00:00:12.528	$GPGGA,000013,2543.8843,N,08009.7284,W,1,8,2.0,15,M,,M,,*53
06/10/2015	00:00:13.528	$GPGGA,000014,2543.8845,N,08009.7284,W,1,8,2.0,15,M,,M,,*52
06/10/2015	00:00:14.528	$GPGGA,000015,2543.8844,N,08009.7284,W,1,8,2.0,15,M,,M,,*52
06/10/2015	00:00:15.568	$GPGGA,000016,2543.8845,N,08009.7284,W,1,8,2.0,15,M,,M,,*50
06/10/2015	00:00:16.528	$GPGGA,000017,2543.8846,N,08009.7283,W,1,8,2.0,15,M,,M,,*55
06/10/2015	00:00:17.557	$GPGGA,000018,2543.8846,N,08009.7283,W,1,8,2.0,15,M,,M,,*5A
06/10/2015	00:00:18.528	$GPGGA,000019,2543.8846,N,08009.7283,W,1,8,2.0,15,M,,M,,*5B
06/10/2015	00:00:19.538	$GPGGA,000020,2543.8846,N,08009.7283,W,1,8,2.0,15,M,,M,,*51
06/10/2015	00:00:20.628	$GPGGA,000021,2543.8846,N,08009.7283,W,1,8,2.0,15,M,,M,,*50
06/10/2015	00:00:21.518	$GPGGA,000022,2543.8846,N,08009.7283,W,1,8,2.0,15,M,,M,,*53
06/10/2015	00:00:22.508	$GPGGA,000023,2543.8846,N,08009.7283,W,1,8,2.0,15,M,,M,,*52
06/10/2015	00:00:23.558	$GPGGA,000024,2543.8846,N,08009.7283,W,1,8,2.0,15,M,,M,,*55
06/10/2015	00:00:24.518	$GPGGA,000025,2543.8846,N,08009.7283,W,1,8,2.0,15,M,,M,,*54
06/10/2015	00:00:25.518	$GPGGA,000026,2543.8846,N,08009.7283,W,1,8,2.0,15,M,,M,,*57
06/10/2015	00:00:26.498	$GPGGA,000027,2543.8846,N,08009.7283,W,1,8,2.0,15,M,,M,,*56
06/10/2015	00:00:27.518	$GPGGA,000028,2543.8846,N,08009.7283,W,1,8,2.0,15,M,,M,,*59
06/10/2015	00:00:28.498	$GPGGA,000029,2543.8846,N,08009.7283,W,1,8,2.0,15,M,,M,,*58
06/10/2015	00:00:29.618	$GPGGA,000030,2543.8846,N,08009.7283,W,1,8,2.0,16,M,,M,,*53
06/10/2015	00:00:30.588	$GPGGA,000031,2543.8846,N,08009.7283,W,1,8,2.0,16,M,,M,,*52
06/10/2015	00:00:31.518	$GPGGA,000032,2543.8846,N,08009.7283,W,1,8,2.0,16,M,,M,,*51
06/10/2015	00:00:32.598	$GPGGA,000033,2543.8846,N,08009.7283,W,1,8,2.0,16,M,,M,,*50
06/10/2015	00:00:33.618	$GPGGA,000034,2543.8846,N,08009.7283,W,1,8,2.0,16,M,,M,,*57
06/10/2015	00:00:34.498	$GPGGA,000035,2543.8846,N,08009.7283,W,1,8,2.0,16,M,,M,,*56
06/10/2015	00:00:35.627	$GPGGA,000036,2543.8846,N,08009.7283,W,1,8,2.0,16,M,,M,,*55
06/10/2015	00:00:36.598	$GPGGA,000037,2543.8846,N,08009.7283,W,1,8,2.0,16,M,,M,,*54
06/10/2015	00:00:37.488	$GPGGA,000038,2543.8846,N,08009.7283,W,1,8,2.0,16,M,,M,,*5B
06/10/2015	00:00:38.488	$GPGGA,000039,2543.8846,N,08009.7282,W,1,8,2.0,16,M,,M,,*5B
06/10/2015	00:00:39.598	$GPGGA,000040,2543.8848,N,08009.7283,W,1,8,2.0,16,M,,M,,*5A
06/10/2015	00:00:40.578	$GPGGA,000041,2543.8846,N,08009.7282,W,1,8,2.0,16,M,,M,,*54
06/10/2015	00:00:41.568	$GPGGA,000042,2543.8846,N,08009.7283,W,1,8,2.0,16,M,,M,,*56
06/10/2015	00:00:42.568	$GPGGA,000043,2543.8846,N,08009.7282,W,1,8,2.0,16,M,,M,,*56
06/10/2015	00:00:43.598	$GPGGA,000044,2543.8846,N,08009.7283,W,1,8,2.0,16,M,,M,,*50
06/10/2015	00:00:44.568	$GPGGA,000045,2543.8846,N,08009.7282,W,1,8,2.0,16,M,,M,,*50
06/10/2015	00:00:45.568	$GPGGA,000046,2543.8846,N,08009.7283,W,1,8,2.0,16,M,,M,,*52
06/10/2015	00:00:46.578	$GPGGA,000047,2543.8846,N,08009.7282,W,1,8,2.0,16,M,,M,,*52
06/10/2015	00:00:47.588	$GPGGA,000048,2543.8846,N,08009.7281,W,1,8,2.0,16,M,,M,,*5E
06/10/2015	00:00:48.558	$GPGGA,000049,2543.8846,N,08009.7281,W,1,8,2.0,17,M,,M,,*5E
06/10/2015	00:00:49.578	$GPGGA,000050,2543.8846,N,08009.7281,W,1,8,2.0,17,M,,M,,*56
06/10/2015	00:00:50.548	$GPGGA,000051,2543.8846,N,08009.7281,W,1,8,2.0,17,M,,M,,*57
06/10/2015	00:00:51.578	$GPGGA,000052,2543.8846,N,08009.7281,W,1,8,2.0,17,M,,M,,*54
06/10/2015	00:00:52.557	$GPGGA,000053,2543.8846,N,08009.7281,W,1,8,2.0,17,M,,M,,*55
06/10/2015	00:00:53.568	$GPGGA,000054,2543.8846,N,08009.7281,W,1,8,2.0,17,M,,M,,*52
06/10/2015	00:00:54.548	$GPGGA,000055,2543.8846,N,08009.7281,W,1,8,2.0,17,M,,M,,*53
06/10/2015	00:00:55.578	$GPGGA,000056,2543.8846,N,08009.7280,W,1,8,2.0,17,M,,M,,*51
06/10/2015	00:00:56.548	$GPGGA,000057,2543.8846,N,08009.7280,W,1,8,2.0,17,M,,M,,*50
06/10/2015	00:00:57.568	$GPGGA,000058,2543.8846,N,08009.7280,W,1,8,2.0,17,M,,M,,*5F
06/10/2015	00:00:58.528	$GPGGA,000059,2543.8846,N,08009.7280,W,1,8,2.0,17,M,,M,,*5E
06/10/2015	00:00:59.568	$GPGGA,000100,2543.8846,N,08009.7280,W,1,8,2.0,17,M,,M,,*53
06/10/2015	00:01:00.538	$GPGGA,000101,2543.8846,N,08009.7280,W,1,8,2.0,17,M,,M,,*52
06/10/2015	00:01:01.568	$GPGGA,000102,2543.8846,N,08009.7280,W,1,8,2.0,17,M,,M,,*51
06/10/2015	00:01:02.530	$GPGGA,000103,2543.8846,N,08009.7280,W,1,8,2.0,17,M,,M,,*50
06/10/2015	00:01:03.548	$GPGGA,000104,2543.8846,N,08009.7280,W,1,8,2.0,17,M,,M,,*57
06/10/2015	00:01:04.528	$GPGGA,000105,2543.8846,N,08009.7280,W,1,8,2.0,17,M,,M,,*56
06/10/2015	00:01:06.559	$GPGGA,000107,2543.8846,N,08009.7280,W,1,8,2.0,17,M,,M,,*54
06/10/2015	00:01:07.538	$GPGGA,000108,2543.8846,N,08009.7281,W,1,8,2.0,17,M,,M,,*5A
06/10/2015	00:01:08.508	$GPGGA,000109,2543.8846,N,08009.7281,W,1,8,2.0,17,M,,M,,*5B
06/10/2015	00:01:09.538	$GPGGA,000110,2543.8846,N,08009.7281,W,1,8,2.0,17,M,,M,,*53
06/10/2015	00:01:10.532	$GPGGA,000111,2543.8846,N,08009.7281,W,1,8,2.0,17,M,,M,,*52
06/10/2015	00:01:11.548	$GPGGA,000112,2543.8846,N,08009.7280,W,1,8,2.0,17,M,,M,,*50
06/10/2015	00:01:12.518	$GPGGA,000113,2543.8846,N,08009.7281,W,1,8,2.0,17,M,,M,,*50
06/10/2015	00:01:13.528	$GPGGA,000114,2543.8846,N,08009.7281,W,1,8,2.0,17,M,,M,,*57
06/10/2015	00:01:14.498	$GPGGA,000115,2543.8848,N,08009.7281,W,1,8,2.0,17,M,,M,,*58
06/10/2015	00:01:15.629	$GPGGA,000116,2543.8846,N,08009.7280,W,1,8,2.0,17,M,,M,,*54
06/10/2015	00:01:16.618	$GPGGA,000117,2543.8846,N,08009.7280,W,1,8,2.0,17,M,,M,,*55
06/10/2015	00:01:17.508	$GPGGA,000118,2543.8848,N,08009.7280,W,1,8,2.0,17,M,,M,,*54
06/10/2015	00:01:18.508	$GPGGA,000119,2543.8847,N,08009.7280,W,1,8,2.0,17,M,,M,,*5A
06/10/2015	00:01:19.528	$GPGGA,000120,2543.8848,N,08009.7280,W,1,8,2.0,17,M,,M,,*5F
06/10/2015	00:01:20.488	$GPGGA,000121,2543.8847,N,08009.7280,W,1,8,2.0,17,M,,M,,*51
06/10/2015	00:01:21.608	$GPGGA,000122,2543.8848,N,08009.7280,W,1,8,2.0,16,M,,M,,*5C
06/10/2015	00:01:22.498	$GPGGA,000123,2543.8847,N,08009.7280,W,1,8,2.0,16,M,,M,,*52
06/10/2015	00:01:23.498	$GPGGA,000124,2543.8846,N,08009.7279,W,1,8,2.0,16,M,,M,,*52
06/10/2015	00:01:24.578	$GPGGA,000125,2543.8848,N,08009.7280,W,1,8,2.0,16,M,,M,,*5B
06/10/2015	00:01:25.578	$GPGGA,000126,2543.8847,N,08009.7279,W,1,8,2.0,16,M,,M,,*51
06/10/2015	00:01:26.588	$GPGGA,000127,2543.8846,N,08009.7278,W,1,8,2.0,16,M,,M,,*50
06/10/2015	00:01:27.627	$GPGGA,000128,2543.8848,N,08009.7279,W,1,8,2.0,16,M,,M,,*50
06/10/2015	00:01:28.568	$GPGGA,000129,2543.8846,N,08009.7278,W,1,8,2.0,16,M,,M,,*5E
06/10/2015	00:01:30.598	$GPGGA,000131,2543.8848,N,08009.7277,W,1,8,2.0,16,M,,M,,*56
06/10/2015	00:01:31.608	$GPGGA,000132,2543.8846,N,08009.7277,W,1,8,2.0,16,M,,M,,*5B
06/10/2015	00:01:32.568	$GPGGA,000133,2543.8846,N,08009.7277,W,1,8,2.0,16,M,,M,,*5A
06/10/2015	00:01:33.558	$GPGGA,000134,2543.8846,N,08009.7277,W,1,8,2.0,16,M,,M,,*5D
06/10/2015	00:01:34.558	$GPGGA,000135,2543.8846,N,08009.7277,W,1,8,2.0,16,M,,M,,*5C
06/10/2015	00:01:35.578	$GPGGA,000136,2543.8846,N,08009.7276,W,1,8,2.0,16,M,,M,,*5E
06/10/2015	00:01:36.568	$GPGGA,000137,2543.8846,N,08009.7277,W,1,8,2.0,16,M,,M,,*5E
06/10/2015	00:01:37.548	$GPGGA,000138,2543.8846,N,08009.7276,W,1,8,2.0,16,M,,M,,*50
06/10/2015	00:01:38.548	$GPGGA,000139,2543.8846,N,08009.7276,W,1,8,2.0,16,M,,M,,*51
06/10/2015	00:01:39.578	$GPGGA,000140,2543.8846,N,08009.7276,W,1,8,2.0,16,M,,M,,*5F
06/10/2015	00:01:40.548	$GPGGA,000141,2543.8846,N,08009.7276,W,1,8,2.0,16,M,,M,,*5E
06/10/2015	00:01:41.568	$GPGGA,000142,2543.8846,N,08009.7276,W,1,8,2.0,16,M,,M,,*5D
06/10/2015	00:01:42.548	$GPGGA,000143,2543.8846,N,08009.7276,W,1,8,2.0,16,M,,M,,*5C
06/10/2015	00:01:43.578	$GPGGA,000144,2543.8846,N,08009.7276,W,1,8,2.0,16,M,,M,,*5B
06/10/2015	00:01:44.548	$GPGGA,000145,2543.8846,N,08009.7276,W,1,8,2.0,16,M,,M,,*5A
06/10/2015	00:01:45.567	$GPGGA,000146,2543.8846,N,08009.7276,W,1,8,2.0,16,M,,M,,*59
06/10/2015	00:01:46.548	$GPGGA,000147,2543.8846,N,08009.7276,W,1,8,2.0,16,M,,M,,*58
06/10/2015	00:01:47.578	$GPGGA,000148,2543.8846,N,08009.7276,W,1,8,2.0,16,M,,M,,*57
06/10/2015	00:01:48.538	$GPGGA,000149,2543.8846,N,08009.7277,W,1,8,2.0,16,M,,M,,*57
06/10/2015	00:01:49.528	$GPGGA,000150,2543.8846,N,08009.7277,W,1,8,2.0,16,M,,M,,*5F
06/10/2015	00:01:50.548	$GPGGA,000151,2543.8846,N,08009.7277,W,1,8,2.0,17,M,,M,,*5F
06/10/2015	00:01:51.578	$GPGGA,000152,2543.8846,N,08009.7277,W,1,8,2.0,17,M,,M,,*5C
06/10/2015	00:01:52.518	$GPGGA,000153,2543.8846,N,08009.7277,W,1,8,2.0,17,M,,M,,*5D
06/10/2015	00:01:53.518	$GPGGA,000154,2543.8846,N,08009.7277,W,1,8,2.0,17,M,,M,,*5A
06/10/2015	00:01:54.529	$GPGGA,000155,2543.8846,N,08009.7277,W,1,8,2.0,17,M,,M,,*5B
06/10/2015	00:01:55.538	$GPGGA,000156,2543.8846,N,08009.7277,W,1,8,2.0,17,M,,M,,*58
06/10/2015	00:01:56.498	$GPGGA,000157,2543.8846,N,08009.7277,W,1,8,2.0,17,M,,M,,*59
06/10/2015	00:01:57.498	$GPGGA,000158,2543.8846,N,08009.7277,W,1,8,2.0,17,M,,M,,*56
06/10/2015	00:01:58.598	$GPGGA,000159,2543.8846,N,08009.7277,W,1,8,1.9,17,M,,M,,*5D
06/10/2015	00:01:59.528	$GPGGA,000200,2543.8846,N,08009.7277,W,1,8,1.9,17,M,,M,,*52
06/10/2015	00:02:00.498	$GPGGA,000201,2543.8846,N,08009.7277,W,1,8,1.9,17,M,,M,,*53
06/10/2015	00:02:01.618	$GPGGA,000202,2543.8846,N,08009.7277,W,1,8,1.9,17,M,,M,,*50
06/10/2015	00:02:02.517	$GPGGA,000203,2543.8846,N,08009.7277,W,1,8,1.9,17,M,,M,,*51
06/10/2015	00:02:03.607	$GPGGA,000204,2543.8846,N,08009.7277,W,1,8,1.9,17,M,,M,,*56
06/10/2015	00:02:04.507	$GPGGA,000205,2543.8846,N,08009.7277,W,1,8,1.9,17,M,,M,,*57
06/10/2015	00:02:05.597	$GPGGA,000206,2543.8846,N,08009.7277,W,1,8,1.9,17,M,,M,,*54
06/10/2015	00:02:06.607	$GPGGA,000207,2543.8848,N,08009.7277,W,1,8,1.9,17,M,,M,,*5B
06/10/2015	00:02:07.517	$GPGGA,000208,2543.8847,N,08009.7277,W,1,8,1.9,17,M,,M,,*5B
06/10/2015	00:02:08.497	$GPGGA,000209,2543.8848,N,08009.7277,W,1,8,1.9,17,M,,M,,*55
06/10/2015	00:02:09.487	$GPGGA,000210,2543.8847,N,08009.7277,W,1,8,1.9,17,M,,M,,*52
06/10/2015	00:02:10.577	$GPGGA,000211,2543.8848,N,08009.7277,W,1,8,1.9,17,M,,M,,*5C
06/10/2015	00:02:11.497	$GPGGA,000212,2543.8847,N,08009.7277,W,1,8,1.9,17,M,,M,,*50
06/10/2015	00:02:12.577	$GPGGA,000213,2543.8849,N,08009.7277,W,1,8,1.9,17,M,,M,,*5F
06/10/2015	00:02:13.568	$GPGGA,000214,2543.8848,N,08009.7277,W,1,8,1.9,17,M,,M,,*59
06/10/2015	00:02:14.568	$GPGGA,000215,2543.8849,N,08009.7277,W,1,8,1.9,17,M,,M,,*59
06/10/2015	00:02:15.578	$GPGGA,000216,2543.8848,N,08009.7277,W,1,8,1.9,17,M,,M,,*5B
06/10/2015	00:02:16.568	$GPGGA,000217,2543.8849,N,08009.7277,W,1,8,1.9,18,M,,M,,*54
06/10/2015	00:02:17.558	$GPGGA,000218,2543.8848,N,08009.7277,W,1,8,1.9,18,M,,M,,*5A
06/10/2015	00:02:18.568	$GPGGA,000219,2543.8849,N,08009.7277,W,1,8,1.9,18,M,,M,,*5A
06/10/2015	00:02:19.588	$GPGGA,000220,2543.8849,N,08009.7277,W,1,8,1.9,18,M,,M,,*50
06/10/2015	00:02:20.547	$GPGGA,000221,2543.8849,N,08009.7277,W,1,8,1.9,18,M,,M,,*51
06/10/2015	00:02:21.577	$GPGGA,000222,2543.8849,N,08009.7277,W,1,8,1.9,18,M,,M,,*52
06/10/2015	00:02:22.557	$GPGGA,000223,2543.8849,N,08009.7277,W,1,8,1.9,18,M,,M,,*53
06/10/2015	00:02:23.587	$GPGGA,000224,2543.8849,N,08009.7277,W,1,8,1.9,18,M,,M,,*54
06/10/2015	00:02:24.577	$GPGGA,000225,2543.8849,N,08009.7277,W,1,8,1.9,18,M,,M,,*55
06/10/2015	00:02:25.567	$GPGGA,000226,2543.8849,N,08009.7277,W,1,8,1.9,18,M,,M,,*56
06/10/2015	00:02:26.547	$GPGGA,000227,2543.8850,N,08009.7277,W,1,8,1.9,18,M,,M,,*5F
06/10/2015	00:02:27.577	$GPGGA,000228,2543.8850,N,08009.7277,W,1,8,1.9,18,M,,M,,*50
06/10/2015	00:02:28.547	$GPGGA,000229,2543.8850,N,08009.7277,W,1,8,1.9,18,M,,M,,*51
06/10/2015	00:02:29.557	$GPGGA,000230,2543.8850,N,08009.7277,W,1,8,1.9,18,M,,M,,*59
06/10/2015	00:02:30.527	$GPGGA,000231,2543.8850,N,08009.7277,W,1,8,1.9,18,M,,M,,*58
06/10/2015	00:02:31.548	$GPGGA,000232,2543.8850,N,08009.7277,W,1,8,1.9,18,M,,M,,*5B
06/10/2015	00:02:32.538	$GPGGA,000233,2543.8852,N,08009.7277,W,1,8,1.9,18,M,,M,,*58
06/10/2015	00:02:33.558	$GPGGA,000234,2543.8851,N,08009.7277,W,1,8,1.9,18,M,,M,,*5C
06/10/2015	00:02:34.538	$GPGGA,000235,2543.8852,N,08009.7277,W,1,8,1.9,18,M,,M,,*5E
06/10/2015	00:02:35.538	$GPGGA,000236,2543.8851,N,08009.7277,W,1,8,1.9,18,M,,M,,*5E
06/10/2015	00:02:36.518	$GPGGA,000237,2543.8852,N,08009.7277,W,1,8,1.9,18,M,,M,,*5C
06/10/2015	00:02:37.518	$GPGGA,000238,2543.8851,N,08009.7277,W,1,8,1.9,19,M,,M,,*51
06/10/2015	00:02:38.527	$GPGGA,000239,2543.8852,N,08009.7277,W,1,8,1.9,19,M,,M,,*53
06/10/2015	00:02:39.537	$GPGGA,000240,2543.8851,N,08009.7277,W,1,8,1.9,19,M,,M,,*5E
06/10/2015	00:02:40.518	$GPGGA,000241,2543.8852,N,08009.7277,W,1,8,1.9,19,M,,M,,*5C
06/10/2015	00:02:41.537	$GPGGA,000242,2543.8851,N,08009.7277,W,1,8,1.9,19,M,,M,,*5C
06/10/2015	00:02:42.517	$GPGGA,000243,2543.8852,N,08009.7277,W,1,8,1.9,19,M,,M,,*5E
06/10/2015	00:02:43.537	$GPGGA,000244,2543.8851,N,08009.7277,W,1,8,1.9,19,M,,M,,*5A
06/10/2015	00:02:44.517	$GPGGA,000245,2543.8852,N,08009.7277,W,1,8,1.9,19,M,,M,,*58
06/10/2015	00:02:45.517	$GPGGA,000246,2543.8851,N,08009.7277,W,1,8,1.9,19,M,,M,,*58
06/10/2015	00:02:46.517	$GPGGA,000247,2543.8852,N,08009.7277,W,1,8,1.9,19,M,,M,,*5A
06/10/2015	00:02:47.637	$GPGGA,000248,2543.8850,N,08009.7277,W,1,8,1.9,19,M,,M,,*57
06/10/2015	00:02:48.508	$GPGGA,000249,2543.8850,N,08009.7277,W,1,8,1.9,19,M,,M,,*56
06/10/2015	00:02:49.628	$GPGGA,000250,2543.8850,N,08009.7276,W,1,8,1.9,19,M,,M,,*5F
06/10/2015	00:02:50.508	$GPGGA,000251,2543.8850,N,08009.7276,W,1,8,1.9,19,M,,M,,*5E
06/10/2015	00:02:51.518	$GPGGA,000252,2543.8850,N,08009.7277,W,1,8,1.9,19,M,,M,,*5C
06/10/2015	00:02:52.498	$GPGGA,000253,2543.8850,N,08009.7276,W,1,8,1.9,19,M,,M,,*5C
06/10/2015	00:02:53.620	$GPGGA,000254,2543.8850,N,08009.7276,W,1,8,1.9,19,M,,M,,*5B
06/10/2015	00:02:54.598	$GPGGA,000255,2543.8852,N,08009.7276,W,1,8,1.9,19,M,,M,,*58
06/10/2015	00:02:55.507	$GPGGA,000256,2543.8851,N,08009.7276,W,1,8,1.9,19,M,,M,,*58
06/10/2015	00:02:56.497	$GPGGA,000257,2543.8852,N,08009.7276,W,1,8,1.9,19,M,,M,,*5A
06/10/2015	00:02:57.607	$GPGGA,000258,2543.8851,N,08009.7276,W,1,8,1.9,19,M,,M,,*56
06/10/2015	00:02:58.567	$GPGGA,000259,2543.8852,N,08009.7276,W,1,8,1.9,19,M,,M,,*54
06/10/2015	00:02:59.497	$GPGGA,000300,2543.8851,N,08009.7276,W,1,8,1.9,19,M,,M,,*5A
06/10/2015	00:03:00.477	$GPGGA,000301,2543.8852,N,08009.7276,W,1,8,1.9,19,M,,M,,*58
06/10/2015	00:03:01.607	$GPGGA,000302,2543.8851,N,08009.7276,W,1,8,1.9,19,M,,M,,*58
06/10/2015	00:03:02.577	$GPGGA,000303,2543.8853,N,08009.7275,W,1,8,1.9,19,M,,M,,*58
06/10/2015	00:03:03.618	$GPGGA,000304,2543.8853,N,08009.7276,W,1,8,1.9,19,M,,M,,*5C
06/10/2015	00:03:04.567	$GPGGA,000305,2543.8853,N,08009.7275,W,1,8,1.9,19,M,,M,,*5E
06/10/2015	00:03:05.587	$GPGGA,000306,2543.8853,N,08009.7276,W,1,8,1.9,19,M,,M,,*5E
06/10/2015	00:03:06.618	$GPGGA,000307,2543.8853,N,08009.7275,W,1,8,1.9,19,M,,M,,*5C
06/10/2015	00:03:07.588	$GPGGA,000308,2543.8853,N,08009.7276,W,1,8,1.9,19,M,,M,,*50
06/10/2015	00:03:08.578	$GPGGA,000309,2543.8853,N,08009.7275,W,1,8,1.9,19,M,,M,,*52
06/10/2015	00:03:09.578	$GPGGA,000310,2543.8853,N,08009.7276,W,1,8,1.9,19,M,,M,,*59
06/10/2015	00:03:10.558	$GPGGA,000311,2543.8853,N,08009.7275,W,1,8,1.9,19,M,,M,,*5B
06/10/2015	00:03:11.628	$GPGGA,000312,2543.8853,N,08009.7276,W,1,8,1.9,19,M,,M,,*5B
06/10/2015	00:03:12.547	$GPGGA,000313,2543.8853,N,08009.7275,W,1,8,1.9,19,M,,M,,*59
06/10/2015	00:03:13.567	$GPGGA,000314,2543.8853,N,08009.7276,W,1,8,1.9,19,M,,M,,*5D
06/10/2015	00:03:14.547	$GPGGA,000315,2543.8853,N,08009.7275,W,1,8,1.9,19,M,,M,,*5F
06/10/2015	00:03:15.897	$GPGGA,000316,2543.8853,N,08009.7276,W,1,8,1.9,19,M,,M,,*5F
06/10/2015	00:03:16.547	$GPGGA,000317,2543.8853,N,08009.7275,W,1,8,1.9,19,M,,M,,*5D
06/10/2015	00:03:17.567	$GPGGA,000318,2543.8853,N,08009.7276,W,1,8,1.9,19,M,,M,,*51
06/10/2015	00:03:18.537	$GPGGA,000319,2543.8855,N,08009.7275,W,1,8,1.9,19,M,,M,,*55
06/10/2015	00:03:19.577	$GPGGA,000320,2543.8854,N,08009.7276,W,1,8,1.9,19,M,,M,,*5D
06/10/2015	00:03:20.537	$GPGGA,000321,2543.8855,N,08009.7275,W,1,8,1.9,19,M,,M,,*5E
06/10/2015	00:03:21.537	$GPGGA,000322,2543.8854,N,08009.7276,W,1,8,1.5,19,M,,M,,*53
06/10/2015	00:03:22.527	$GPGGA,000323,2543.8853,N,08009.7276,W,1,8,1.5,19,M,,M,,*55
06/10/2015	00:03:23.568	$GPGGA,000324,2543.8853,N,08009.7276,W,1,8,1.5,19,M,,M,,*52
06/10/2015	00:03:24.528	$GPGGA,000325,2543.8851,N,08009.7277,W,1,8,1.5,19,M,,M,,*50
06/10/2015	00:03:25.558	$GPGGA,000326,2543.8852,N,08009.7277,W,1,7,1.5,19,M,,M,,*5F
06/10/2015	00:03:26.538	$GPGGA,000327,2543.8851,N,08009.7277,W,1,7,1.5,19,M,,M,,*5D
06/10/2015	00:03:27.568	$GPGGA,000328,2543.8852,N,08009.7277,W,1,7,1.5,19,M,,M,,*51
06/10/2015	00:03:28.518	$GPGGA,000329,2543.8850,N,08009.7277,W,1,7,1.5,19,M,,M,,*52
06/10/2015	00:03:29.508	$GPGGA,000330,2543.8850,N,08009.7276,W,1,8,1.5,19,M,,M,,*54
06/10/2015	00:03:30.537	$GPGGA,000331,2543.8850,N,08009.7276,W,1,8,1.5,19,M,,M,,*55
06/10/2015	00:03:31.597	$GPGGA,000332,2543.8850,N,08009.7276,W,1,8,1.5,19,M,,M,,*56
06/10/2015	00:03:32.507	$GPGGA,000333,2543.8850,N,08009.7275,W,1,8,1.5,19,M,,M,,*54
06/10/2015	00:03:33.527	$GPGGA,000334,2543.8850,N,08009.7276,W,1,8,1.5,19,M,,M,,*50
06/10/2015	00:03:34.527	$GPGGA,000335,2543.8850,N,08009.7275,W,1,8,1.5,19,M,,M,,*52
06/10/2015	00:03:35.567	$GPGGA,000336,2543.8850,N,08009.7276,W,1,8,1.5,19,M,,M,,*52
06/10/2015	00:03:36.497	$GPGGA,000337,2543.8850,N,08009.7275,W,1,8,1.5,19,M,,M,,*50
06/10/2015	00:03:37.507	$GPGGA,000338,2543.8850,N,08009.7276,W,1,8,1.5,19,M,,M,,*5C
06/10/2015	00:03:38.517	$GPGGA,000339,2543.8850,N,08009.7275,W,1,8,1.5,19,M,,M,,*5E
06/10/2015	00:03:39.537	$GPGGA,000340,2543.8852,N,08009.7276,W,1,8,1.5,19,M,,M,,*51
06/10/2015	00:03:40.507	$GPGGA,000341,2543.8851,N,08009.7275,W,1,8,1.5,19,M,,M,,*50
06/10/2015	00:03:41.488	$GPGGA,000342,2543.8852,N,08009.7276,W,1,8,1.5,19,M,,M,,*53
06/10/2015	00:03:42.498	$GPGGA,000343,2543.8851,N,08009.7275,W,1,8,1.5,19,M,,M,,*52
06/10/2015	00:03:43.618	$GPGGA,000344,2543.8853,N,08009.7276,W,1,8,1.5,19,M,,M,,*54
06/10/2015	00:03:44.508	$GPGGA,000345,2543.8851,N,08009.7275,W,1,8,1.5,19,M,,M,,*54
06/10/2015	00:03:45.488	$GPGGA,000346,2543.8852,N,08009.7276,W,1,8,1.5,19,M,,M,,*57
06/10/2015	00:03:46.578	$GPGGA,000347,2543.8853,N,08009.7276,W,1,8,1.5,19,M,,M,,*57
06/10/2015	00:03:47.622	$GPGGA,000348,2543.8853,N,08009.7276,W,1,9,1.5,19,M,,M,,*59
06/10/2015	00:03:48.567	$GPGGA,000349,2543.8853,N,08009.7276,W,1,9,1.5,19,M,,M,,*58
06/10/2015	00:03:49.567	$GPGGA,000350,2543.8853,N,08009.7276,W,1,9,1.5,19,M,,M,,*50
06/10/2015	00:03:50.577	$GPGGA,000351,2543.8853,N,08009.7276,W,1,9,1.5,19,M,,M,,*51
06/10/2015	00:03:51.607	$GPGGA,000352,2543.8853,N,08009.7276,W,1,9,1.5,19,M,,M,,*52
06/10/2015	00:03:52.557	$GPGGA,000353,2543.8853,N,08009.7276,W,1,9,1.5,19,M,,M,,*53
06/10/2015	00:03:53.567	$GPGGA,000354,2543.8853,N,08009.7277,W,1,9,1.5,18,M,,M,,*54
06/10/2015	00:03:54.567	$GPGGA,000355,2543.8853,N,08009.7277,W,1,9,1.5,18,M,,M,,*55
06/10/2015	00:03:55.597	$GPGGA,000356,2543.8853,N,08009.7277,W,1,9,1.5,18,M,,M,,*56
06/10/2015	00:03:56.547	$GPGGA,000357,2543.8853,N,08009.7277,W,1,9,1.5,18,M,,M,,*57
06/10/2015	00:03:57.577	$GPGGA,000358,2543.8853,N,08009.7277,W,1,9,1.5,18,M,,M,,*58
06/10/2015	00:03:58.548	$GPGGA,000359,2543.8853,N,08009.7277,W,1,9,1.5,18,M,,M,,*59
06/10/2015	00:03:59.558	$GPGGA,000400,2543.8853,N,08009.7277,W,1,9,1.5,18,M,,M,,*52
06/10/2015	00:04:00.558	$GPGGA,000401,2543.8853,N,08009.7276,W,1,9,1.5,18,M,,M,,*52
06/10/2015	00:04:01.538	$GPGGA,000402,2543.8851,N,08009.7277,W,1,9,1.5,18,M,,M,,*52
06/10/2015	00:04:02.548	$GPGGA,000403,2543.8852,N,08009.7277,W,1,9,1.5,18,M,,M,,*50
06/10/2015	00:04:03.568	$GPGGA,000404,2543.8851,N,08009.7277,W,1,9,1.5,18,M,,M,,*54
06/10/2015	00:04:04.557	$GPGGA,000405,2543.8852,N,08009.7277,W,1,9,1.5,18,M,,M,,*56
06/10/2015	00:04:05.567	$GPGGA,000406,2543.8851,N,08009.7277,W,1,9,1.5,18,M,,M,,*56
06/10/2015	00:04:06.537	$GPGGA,000407,2543.8852,N,08009.7277,W,1,9,1.5,18,M,,M,,*54
06/10/2015	00:04:07.577	$GPGGA,000408,2543.8851,N,08009.7277,W,1,9,1.5,18,M,,M,,*58
06/10/2015	00:04:08.527	$GPGGA,000409,2543.8852,N,08009.7277,W,1,9,1.5,18,M,,M,,*5A
06/10/2015	00:04:09.547	$GPGGA,000410,2543.8851,N,08009.7277,W,1,9,1.5,18,M,,M,,*51
06/10/2015	00:04:10.537	$GPGGA,000411,2543.8852,N,08009.7277,W,1,9,1.5,18,M,,M,,*53
06/10/2015	00:04:11.568	$GPGGA,000412,2543.8851,N,08009.7277,W,1,9,1.5,18,M,,M,,*53
06/10/2015	00:04:12.518	$GPGGA,000413,2543.8850,N,08009.7277,W,1,9,1.5,18,M,,M,,*53
06/10/2015	00:04:13.547	$GPGGA,000414,2543.8850,N,08009.7277,W,1,9,1.5,18,M,,M,,*54
06/10/2015	00:04:14.517	$GPGGA,000415,2543.8850,N,08009.7277,W,1,9,1.5,18,M,,M,,*55
06/10/2015	00:04:15.527	$GPGGA,000416,2543.8850,N,08009.7277,W,1,9,1.5,18,M,,M,,*56
06/10/2015	00:04:16.538	$GPGGA,000417,2543.8850,N,08009.7279,W,1,9,1.5,18,M,,M,,*59
06/10/2015	00:04:17.528	$GPGGA,000418,2543.8850,N,08009.7278,W,1,9,1.5,18,M,,M,,*57
06/10/2015	00:04:18.508	$GPGGA,000419,2543.8850,N,08009.7279,W,1,9,1.5,18,M,,M,,*57
06/10/2015	00:04:19.538	$GPGGA,000420,2543.8850,N,08009.7280,W,1,9,1.5,18,M,,M,,*5B
06/10/2015	00:04:20.498	$GPGGA,000421,2543.8850,N,08009.7279,W,1,9,1.5,18,M,,M,,*5C
06/10/2015	00:04:21.518	$GPGGA,000422,2543.8850,N,08009.7280,W,1,8,1.5,18,M,,M,,*58
06/10/2015	00:04:22.497	$GPGGA,000423,2543.8850,N,08009.7280,W,1,8,1.5,17,M,,M,,*56
06/10/2015	00:04:23.518	$GPGGA,000424,2543.8850,N,08009.7281,W,1,8,1.5,17,M,,M,,*50
06/10/2015	00:04:24.537	$GPGGA,000425,2543.8850,N,08009.7281,W,1,8,1.5,17,M,,M,,*51
06/10/2015	00:04:25.607	$GPGGA,000426,2543.8850,N,08009.7280,W,1,8,1.5,17,M,,M,,*53
06/10/2015	00:04:26.507	$GPGGA,000427,2543.8850,N,08009.7281,W,1,8,1.5,17,M,,M,,*53
06/10/2015	00:04:27.607	$GPGGA,000428,2543.8850,N,08009.7281,W,1,8,1.5,17,M,,M,,*5C
06/10/2015	00:04:28.497	$GPGGA,000429,2543.8849,N,08009.7279,W,1,8,1.5,17,M,,M,,*52
06/10/2015	00:04:29.487	$GPGGA,000430,2543.8849,N,08009.7280,W,1,9,1.5,17,M,,M,,*5D
06/10/2015	00:04:30.498	$GPGGA,000431,2543.8849,N,08009.7279,W,1,9,1.5,17,M,,M,,*5A
06/10/2015	00:04:31.587	$GPGGA,000432,2543.8849,N,08009.7280,W,1,8,1.5,17,M,,M,,*5E
06/10/2015	00:04:32.597	$GPGGA,000433,2543.8850,N,08009.7280,W,1,8,1.5,17,M,,M,,*57
06/10/2015	00:04:33.588	$GPGGA,000434,2543.8849,N,08009.7280,W,1,8,1.5,17,M,,M,,*58
06/10/2015	00:04:34.488	$GPGGA,000435,2543.8850,N,08009.7280,W,1,8,1.5,17,M,,M,,*51
06/10/2015	00:04:35.488	$GPGGA,000436,2543.8850,N,08009.7280,W,1,8,1.5,17,M,,M,,*52
06/10/2015	00:04:36.578	$GPGGA,000437,2543.8850,N,08009.7280,W,1,8,1.5,17,M,,M,,*53
06/10/2015	00:04:37.568	$GPGGA,000438,2543.8850,N,08009.7280,W,1,8,1.5,17,M,,M,,*5C
06/10/2015	00:04:38.568	$GPGGA,000439,2543.8850,N,08009.7281,W,1,8,1.5,17,M,,M,,*5C
06/10/2015	00:04:39.617	$GPGGA,000440,2543.8850,N,08009.7281,W,1,8,1.5,17,M,,M,,*52
06/10/2015	00:04:40.577	$GPGGA,000441,2543.8852,N,08009.7281,W,1,8,1.5,17,M,,M,,*51
06/10/2015	00:04:41.577	$GPGGA,000442,2543.8851,N,08009.7281,W,1,8,1.5,17,M,,M,,*51
06/10/2015	00:04:42.567	$GPGGA,000443,2543.8852,N,08009.7281,W,1,8,1.5,17,M,,M,,*53
06/10/2015	00:04:43.587	$GPGGA,000444,2543.8853,N,08009.7281,W,1,8,1.5,17,M,,M,,*55
06/10/2015	00:04:44.557	$GPGGA,000445,2543.8851,N,08009.7280,W,1,8,1.5,17,M,,M,,*57
06/10/2015	00:04:45.577	$GPGGA,000446,2543.8853,N,08009.7279,W,1,9,1.5,17,M,,M,,*51
06/10/2015	00:04:46.557	$GPGGA,000447,2543.8853,N,08009.7280,W,1,9,1.5,17,M,,M,,*56
06/10/2015	00:04:47.587	$GPGGA,000448,2543.8853,N,08009.7280,W,1,8,1.5,17,M,,M,,*58
06/10/2015	00:04:48.537	$GPGGA,000449,2543.8853,N,08009.7280,W,1,8,1.5,17,M,,M,,*59
06/10/2015	00:04:49.557	$GPGGA,000450,2543.8853,N,08009.7281,W,1,8,1.5,17,M,,M,,*50
06/10/2015	00:04:50.537	$GPGGA,000451,2543.8853,N,08009.7281,W,1,8,1.5,17,M,,M,,*51
06/10/2015	00:04:51.578	$GPGGA,000452,2543.8853,N,08009.7281,W,1,8,1.5,17,M,,M,,*52
06/10/2015	00:04:52.538	$GPGGA,000453,2543.8853,N,08009.7281,W,1,8,1.5,17,M,,M,,*53
06/10/2015	00:04:53.538	$GPGGA,000454,2543.8855,N,08009.7283,W,1,8,1.5,17,M,,M,,*50
06/10/2015	00:04:54.528	$GPGGA,000455,2543.8854,N,08009.7282,W,1,8,1.5,17,M,,M,,*51
06/10/2015	00:04:55.558	$GPGGA,000456,2543.8855,N,08009.7283,W,1,8,1.5,17,M,,M,,*52
06/10/2015	00:04:56.528	$GPGGA,000457,2543.8854,N,08009.7282,W,1,8,1.5,17,M,,M,,*53
06/10/2015	00:04:57.527	$GPGGA,000458,2543.8855,N,08009.7283,W,1,8,1.5,17,M,,M,,*5C
06/10/2015	00:04:58.837	$GPGGA,000459,2543.8856,N,08009.7282,W,1,8,1.5,17,M,,M,,*5F
06/10/2015	00:04:59.547	$GPGGA,000500,2543.8855,N,08009.7283,W,1,8,1.5,17,M,,M,,*50
06/10/2015	00:05:00.517	$GPGGA,000501,2543.8856,N,08009.7283,W,1,8,1.5,17,M,,M,,*52
06/10/2015	00:05:01.818	$GPGGA,000502,2543.8855,N,08009.7283,W,1,8,1.5,17,M,,M,,*52
06/10/2015	00:05:02.527	$GPGGA,000503,2543.8856,N,08009.7283,W,1,8,1.5,17,M,,M,,*50
06/10/2015	00:05:03.527	$GPGGA,000504,2543.8855,N,08009.7284,W,1,8,1.5,17,M,,M,,*53
06/10/2015	00:05:04.507	$GPGGA,000505,2543.8856,N,08009.7283,W,1,8,1.5,17,M,,M,,*56
06/10/2015	00:05:05.547	$GPGGA,000506,2543.8855,N,08009.7283,W,1,8,1.5,17,M,,M,,*56
06/10/2015	00:05:06.507	$GPGGA,000507,2543.8854,N,08009.7284,W,1,8,1.5,17,M,,M,,*51
06/10/2015	00:05:07.637	$GPGGA,000508,2543.8855,N,08009.7283,W,1,8,1.5,17,M,,M,,*58
06/10/2015	00:05:08.508	$GPGGA,000509,2543.8854,N,08009.7284,W,1,8,1.5,17,M,,M,,*5F
06/10/2015	00:05:09.619	$GPGGA,000510,2543.8855,N,08009.7284,W,1,8,1.5,17,M,,M,,*56
06/10/2015	00:05:10.508	$GPGGA,000511,2543.8854,N,08009.7284,W,1,8,1.5,17,M,,M,,*56
06/10/2015	00:05:11.618	$GPGGA,000512,2543.8855,N,08009.7284,W,1,8,1.5,17,M,,M,,*54
06/10/2015	00:05:12.498	$GPGGA,000513,2543.8853,N,08009.7284,W,1,8,1.5,17,M,,M,,*53
06/10/2015	00:05:13.608	$GPGGA,000514,2543.8853,N,08009.7284,W,1,8,1.5,17,M,,M,,*54
06/10/2015	00:05:14.507	$GPGGA,000515,2543.8853,N,08009.7284,W,1,8,1.5,17,M,,M,,*55
06/10/2015	00:05:15.518	$GPGGA,000516,2543.8855,N,08009.7287,W,1,8,1.5,17,M,,M,,*53
06/10/2015	00:05:16.587	$GPGGA,000517,2543.8854,N,08009.7287,W,1,8,1.4,17,M,,M,,*52
06/10/2015	00:05:17.607	$GPGGA,000518,2543.8855,N,08009.7288,W,1,8,1.4,17,M,,M,,*53
06/10/2015	00:05:18.587	$GPGGA,000519,2543.8856,N,08009.7290,W,1,8,1.4,17,M,,M,,*58
06/10/2015	00:05:19.618	$GPGGA,000520,2543.8855,N,08009.7290,W,1,8,1.4,17,M,,M,,*51
06/10/2015	00:05:20.587	$GPGGA,000521,2543.8856,N,08009.7291,W,1,8,1.4,17,M,,M,,*52
06/10/2015	00:05:21.577	$GPGGA,000522,2543.8857,N,08009.7292,W,1,8,1.4,17,M,,M,,*53
06/10/2015	00:05:22.577	$GPGGA,000523,2543.8857,N,08009.7294,W,1,8,1.4,17,M,,M,,*54
06/10/2015	00:05:23.597	$GPGGA,000524,2543.8857,N,08009.7294,W,1,8,1.4,18,M,,M,,*5C
06/10/2015	00:05:24.577	$GPGGA,000525,2543.8857,N,08009.7294,W,1,8,1.4,18,M,,M,,*5D
06/10/2015	00:05:25.587	$GPGGA,000526,2543.8857,N,08009.7294,W,1,8,1.4,18,M,,M,,*5E
06/10/2015	00:05:26.568	$GPGGA,000527,2543.8857,N,08009.7293,W,1,8,1.4,18,M,,M,,*58
06/10/2015	00:05:27.588	$GPGGA,000528,2543.8857,N,08009.7294,W,1,8,1.4,18,M,,M,,*50
06/10/2015	00:05:28.568	$GPGGA,000529,2543.8857,N,08009.7294,W,1,8,1.4,18,M,,M,,*51
06/10/2015	00:05:29.608	$GPGGA,000530,2543.8857,N,08009.7294,W,1,8,1.4,18,M,,M,,*59
06/10/2015	00:05:30.558	$GPGGA,000531,2543.8857,N,08009.7294,W,1,8,1.4,18,M,,M,,*58
06/10/2015	00:05:31.588	$GPGGA,000532,2543.8857,N,08009.7294,W,1,8,1.4,18,M,,M,,*5B
06/10/2015	00:05:32.557	$GPGGA,000533,2543.8857,N,08009.7294,W,1,8,1.4,18,M,,M,,*5A
06/10/2015	00:05:33.547	$GPGGA,000534,2543.8857,N,08009.7294,W,1,8,1.4,18,M,,M,,*5D
06/10/2015	00:05:34.557	$GPGGA,000535,2543.8857,N,08009.7294,W,1,8,1.4,19,M,,M,,*5D
06/10/2015	00:05:35.587	$GPGGA,000536,2543.8857,N,08009.7294,W,1,8,1.4,19,M,,M,,*5E
06/10/2015	00:05:36.557	$GPGGA,000537,2543.8855,N,08009.7294,W,1,8,1.4,19,M,,M,,*5D
06/10/2015	00:05:37.567	$GPGGA,000538,2543.8856,N,08009.7294,W,1,8,1.4,19,M,,M,,*51
06/10/2015	00:05:38.547	$GPGGA,000539,2543.8855,N,08009.7293,W,1,8,1.4,19,M,,M,,*54
06/10/2015	00:05:39.577	$GPGGA,000540,2543.8856,N,08009.7294,W,1,8,1.4,19,M,,M,,*5E
06/10/2015	00:05:40.537	$GPGGA,000541,2543.8855,N,08009.7294,W,1,8,1.4,19,M,,M,,*5C
06/10/2015	00:05:41.557	$GPGGA,000542,2543.8856,N,08009.7294,W,1,8,1.4,19,M,,M,,*5C
06/10/2015	00:05:42.537	$GPGGA,000543,2543.8855,N,08009.7295,W,1,8,1.4,19,M,,M,,*5F
06/10/2015	00:05:43.548	$GPGGA,000544,2543.8856,N,08009.7295,W,1,8,1.4,19,M,,M,,*5B
06/10/2015	00:05:44.528	$GPGGA,000545,2543.8854,N,08009.7294,W,1,8,1.4,19,M,,M,,*59
06/10/2015	00:05:45.538	$GPGGA,000546,2543.8855,N,08009.7295,W,1,8,1.4,19,M,,M,,*5A
06/10/2015	00:05:46.528	$GPGGA,000547,2543.8854,N,08009.7295,W,1,8,1.4,19,M,,M,,*5A
06/10/2015	00:05:47.548	$GPGGA,000548,2543.8855,N,08009.7296,W,1,9,1.4,19,M,,M,,*56
06/10/2015	00:05:48.518	$GPGGA,000549,2543.8854,N,08009.7296,W,1,9,1.4,20,M,,M,,*5C
06/10/2015	00:05:49.537	$GPGGA,000550,2543.8855,N,08009.7296,W,1,9,1.4,20,M,,M,,*55
06/10/2015	00:05:50.537	$GPGGA,000551,2543.8854,N,08009.7296,W,1,9,1.4,20,M,,M,,*55
06/10/2015	00:05:51.547	$GPGGA,000552,2543.8855,N,08009.7296,W,1,9,1.4,20,M,,M,,*57
06/10/2015	00:05:52.518	$GPGGA,000553,2543.8854,N,08009.7296,W,1,9,1.4,20,M,,M,,*57
06/10/2015	00:05:53.507	$GPGGA,000554,2543.8855,N,08009.7296,W,1,9,1.4,20,M,,M,,*51
06/10/2015	00:05:54.607	$GPGGA,000555,2543.8854,N,08009.7296,W,1,9,1.4,20,M,,M,,*51
06/10/2015	00:05:55.518	$GPGGA,000556,2543.8856,N,08009.7296,W,1,9,1.4,20,M,,M,,*50
06/10/2015	00:05:56.607	$GPGGA,000557,2543.8855,N,08009.7296,W,1,9,1.4,20,M,,M,,*52
06/10/2015	00:05:57.497	$GPGGA,000558,2543.8856,N,08009.7296,W,1,9,1.4,20,M,,M,,*5E
06/10/2015	00:05:58.517	$GPGGA,000559,2543.8855,N,08009.7295,W,1,9,1.4,20,M,,M,,*5F
06/10/2015	00:05:59.727	$GPGGA,000600,2543.8857,N,08009.7295,W,1,9,1.4,20,M,,M,,*52
06/10/2015	00:06:00.527	$GPGGA,000601,2543.8857,N,08009.7295,W,1,9,1.4,20,M,,M,,*53
06/10/2015	00:06:01.678	$GPGGA,000602,2543.8855,N,08009.7294,W,1,9,1.4,20,M,,M,,*53
06/10/2015	00:06:02.588	$GPGGA,000603,2543.8857,N,08009.7294,W,1,9,1.4,20,M,,M,,*50
06/10/2015	00:06:03.518	$GPGGA,000604,2543.8857,N,08009.7294,W,1,9,1.4,20,M,,M,,*57
06/10/2015	00:06:04.619	$GPGGA,000605,2543.8857,N,08009.7294,W,1,9,1.4,20,M,,M,,*56
06/10/2015	00:06:05.588	$GPGGA,000606,2543.8857,N,08009.7293,W,1,9,1.4,20,M,,M,,*52
06/10/2015	00:06:06.598	$GPGGA,000607,2543.8857,N,08009.7294,W,1,9,1.4,20,M,,M,,*54
06/10/2015	00:06:07.697	$GPGGA,000608,2543.8857,N,08009.7294,W,1,9,1.4,20,M,,M,,*5B
06/10/2015	00:06:08.607	$GPGGA,000609,2543.8857,N,08009.7294,W,1,9,1.4,21,M,,M,,*5B
06/10/2015	00:06:09.577	$GPGGA,000610,2543.8857,N,08009.7294,W,1,9,1.4,21,M,,M,,*53
06/10/2015	00:06:10.607	$GPGGA,000611,2543.8857,N,08009.7294,W,1,9,1.4,21,M,,M,,*52
06/10/2015	00:06:11.687	$GPGGA,000612,2543.8857,N,08009.7294,W,1,9,1.4,21,M,,M,,*51
06/10/2015	00:06:12.597	$GPGGA,000613,2543.8857,N,08009.7294,W,1,9,1.4,21,M,,M,,*50
06/10/2015	00:06:13.687	$GPGGA,000614,2543.8857,N,08009.7294,W,1,9,1.4,21,M,,M,,*57
06/10/2015	00:06:14.567	$GPGGA,000615,2543.8857,N,08009.7294,W,1,9,1.4,21,M,,M,,*56
06/10/2015	00:06:15.667	$GPGGA,000616,2543.8857,N,08009.7294,W,1,9,1.4,21,M,,M,,*55
06/10/2015	00:06:16.597	$GPGGA,000617,2543.8857,N,08009.7294,W,1,9,1.4,21,M,,M,,*54
06/10/2015	00:06:17.627	$GPGGA,000618,2543.8857,N,08009.7294,W,1,9,1.4,21,M,,M,,*5B
06/10/2015	00:06:18.608	$GPGGA,000619,2543.8857,N,08009.7294,W,1,9,1.4,21,M,,M,,*5A
06/10/2015	00:06:19.688	$GPGGA,000620,2543.8857,N,08009.7293,W,1,9,1.4,21,M,,M,,*57
06/10/2015	00:06:20.578	$GPGGA,000621,2543.8857,N,08009.7294,W,1,9,1.4,21,M,,M,,*51
06/10/2015	00:06:21.668	$GPGGA,000622,2543.8857,N,08009.7294,W,1,9,1.4,21,M,,M,,*52
06/10/2015	00:06:22.548	$GPGGA,000623,2543.8857,N,08009.7294,W,1,9,1.4,21,M,,M,,*53
06/10/2015	00:06:23.658	$GPGGA,000624,2543.8857,N,08009.7294,W,1,9,1.4,21,M,,M,,*54
06/10/2015	00:06:24.577	$GPGGA,000625,2543.8857,N,08009.7294,W,1,9,1.4,21,M,,M,,*55
06/10/2015	00:06:25.547	$GPGGA,000626,2543.8857,N,08009.7294,W,1,9,1.4,21,M,,M,,*56
06/10/2015	00:06:26.587	$GPGGA,000627,2543.8857,N,08009.7294,W,1,9,1.4,21,M,,M,,*57
06/10/2015	00:06:27.677	$GPGGA,000628,2543.8857,N,08009.7294,W,1,9,1.4,21,M,,M,,*58
06/10/2015	00:06:28.577	$GPGGA,000629,2543.8857,N,08009.7294,W,1,9,1.4,21,M,,M,,*59
06/10/2015	00:06:29.657	$GPGGA,000630,2543.8857,N,08009.7294,W,1,9,1.4,21,M,,M,,*51
06/10/2015	00:06:30.537	$GPGGA,000631,2543.8857,N,08009.7294,W,1,9,1.4,21,M,,M,,*50
06/10/2015	00:06:31.637	$GPGGA,000632,2543.8857,N,08009.7295,W,1,9,1.4,21,M,,M,,*52
06/10/2015	00:06:32.527	$GPGGA,000633,2543.8857,N,08009.7294,W,1,9,1.4,21,M,,M,,*52
06/10/2015	00:06:33.621	$GPGGA,000634,2543.8857,N,08009.7294,W,1,9,1.4,21,M,,M,,*55
06/10/2015	00:06:34.527	$GPGGA,000635,2543.8857,N,08009.7294,W,1,9,1.4,21,M,,M,,*54
06/10/2015	00:06:35.527	$GPGGA,000636,2543.8857,N,08009.7294,W,1,9,1.4,21,M,,M,,*57
06/10/2015	00:06:36.568	$GPGGA,000637,2543.8857,N,08009.7294,W,1,9,1.4,21,M,,M,,*56
06/10/2015	00:06:37.648	$GPGGA,000638,2543.8857,N,08009.7293,W,1,9,1.4,21,M,,M,,*5E
06/10/2015	00:06:38.558	$GPGGA,000639,2543.8857,N,08009.7294,W,1,9,1.4,21,M,,M,,*58
06/10/2015	00:06:39.678	$GPGGA,000640,2543.8855,N,08009.7293,W,1,9,1.4,21,M,,M,,*53
06/10/2015	00:06:40.558	$GPGGA,000641,2543.8856,N,08009.7294,W,1,9,1.4,21,M,,M,,*56
06/10/2015	00:06:41.608	$GPGGA,000642,2543.8855,N,08009.7293,W,1,9,1.4,21,M,,M,,*51
06/10/2015	00:06:42.607	$GPGGA,000643,2543.8856,N,08009.7294,W,1,9,1.4,21,M,,M,,*54
06/10/2015	00:06:43.597	$GPGGA,000644,2543.8855,N,08009.7293,W,1,9,1.4,21,M,,M,,*57
06/10/2015	00:06:44.607	$GPGGA,000645,2543.8856,N,08009.7294,W,1,9,1.4,21,M,,M,,*52
06/10/2015	00:06:45.507	$GPGGA,000646,2543.8855,N,08009.7293,W,1,9,1.4,21,M,,M,,*55
06/10/2015	00:06:46.627	$GPGGA,000647,2543.8854,N,08009.7294,W,1,9,1.4,20,M,,M,,*53
06/10/2015	00:06:47.677	$GPGGA,000648,2543.8855,N,08009.7293,W,1,9,1.4,20,M,,M,,*5A
06/10/2015	00:06:48.627	$GPGGA,000649,2543.8854,N,08009.7294,W,1,9,1.4,20,M,,M,,*5D
06/10/2015	00:06:49.587	$GPGGA,000650,2543.8855,N,08009.7293,W,1,9,1.4,20,M,,M,,*53
06/10/2015	00:06:50.597	$GPGGA,000651,2543.8854,N,08009.7294,W,1,9,1.4,20,M,,M,,*54
06/10/2015	00:06:51.627	$GPGGA,000652,2543.8855,N,08009.7293,W,1,9,1.4,20,M,,M,,*51
06/10/2015	00:06:52.587	$GPGGA,000653,2543.8854,N,08009.7294,W,1,9,1.4,20,M,,M,,*56
06/10/2015	00:06:53.588	$GPGGA,000654,2543.8855,N,08009.7292,W,1,9,1.4,20,M,,M,,*56
06/10/2015	00:06:54.588	$GPGGA,000655,2543.8854,N,08009.7292,W,1,9,1.4,20,M,,M,,*56
06/10/2015	00:06:55.598	$GPGGA,000656,2543.8855,N,08009.7292,W,1,9,1.4,20,M,,M,,*54
06/10/2015	00:06:56.588	$GPGGA,000657,2543.8854,N,08009.7292,W,1,9,1.4,20,M,,M,,*54
06/10/2015	00:06:57.578	$GPGGA,000658,2543.8855,N,08009.7292,W,1,9,1.4,20,M,,M,,*5A
06/10/2015	00:06:58.578	$GPGGA,000659,2543.8854,N,08009.7292,W,1,9,1.4,20,M,,M,,*5A
06/10/2015	00:06:59.687	$GPGGA,000700,2543.8855,N,08009.7292,W,1,9,1.4,20,M,,M,,*56
06/10/2015	00:07:00.577	$GPGGA,000701,2543.8854,N,08009.7292,W,1,9,1.4,20,M,,M,,*56
06/10/2015	00:07:01.617	$GPGGA,000702,2543.8855,N,08009.7292,W,1,9,1.4,20,M,,M,,*54
06/10/2015	00:07:02.577	$GPGGA,000703,2543.8854,N,08009.7292,W,1,9,1.4,20,M,,M,,*54
06/10/2015	00:07:03.607	$GPGGA,000704,2543.8855,N,08009.7291,W,1,9,1.4,19,M,,M,,*5B
06/10/2015	00:07:05.087	$GPGGA,000705,2543.8854,N,08009.7291,W,1,9,1.4,19,M,,M,,*5B
06/10/2015	00:07:05.617	$GPGGA,000706,2543.8855,N,08009.7291,W,1,9,1.4,19,M,,M,,*59
06/10/2015	00:07:06.567	$GPGGA,000707,2543.8854,N,08009.7291,W,1,9,1.4,19,M,,M,,*59
06/10/2015	00:07:07.647	$GPGGA,000708,2543.8855,N,08009.7290,W,1,9,1.4,19,M,,M,,*56
06/10/2015	00:07:08.567	$GPGGA,000709,2543.8854,N,08009.7290,W,1,9,1.4,19,M,,M,,*56
06/10/2015	00:07:09.587	$GPGGA,000710,2543.8855,N,08009.7290,W,1,9,1.4,19,M,,M,,*5F
06/10/2015	00:07:10.567	$GPGGA,000711,2543.8854,N,08009.7290,W,1,9,1.4,19,M,,M,,*5F
06/10/2015	00:07:11.598	$GPGGA,000712,2543.8855,N,08009.7290,W,1,9,1.4,19,M,,M,,*5D
06/10/2015	00:07:12.588	$GPGGA,000713,2543.8854,N,08009.7290,W,1,9,1.4,19,M,,M,,*5D
06/10/2015	00:07:13.588	$GPGGA,000714,2543.8855,N,08009.7289,W,1,9,1.4,19,M,,M,,*53
06/10/2015	00:07:14.548	$GPGGA,000715,2543.8854,N,08009.7290,W,1,9,1.4,19,M,,M,,*5B
06/10/2015	00:07:15.618	$GPGGA,000716,2543.8855,N,08009.7289,W,1,9,1.4,19,M,,M,,*51
06/10/2015	00:07:16.558	$GPGGA,000717,2543.8854,N,08009.7290,W,1,9,1.4,18,M,,M,,*58
06/10/2015	00:07:17.597	$GPGGA,000718,2543.8855,N,08009.7289,W,1,9,1.4,18,M,,M,,*5E
06/10/2015	00:07:18.567	$GPGGA,000719,2543.8854,N,08009.7290,W,1,9,1.4,18,M,,M,,*56
06/10/2015	00:07:19.597	$GPGGA,000720,2543.8854,N,08009.7290,W,1,9,1.4,18,M,,M,,*5C
06/10/2015	00:07:20.527	$GPGGA,000721,2543.8854,N,08009.7290,W,1,9,1.4,18,M,,M,,*5D
06/10/2015	00:07:21.557	$GPGGA,000722,2543.8855,N,08009.7290,W,1,9,1.4,18,M,,M,,*5F
06/10/2015	00:07:22.527	$GPGGA,000723,2543.8854,N,08009.7290,W,1,9,1.4,18,M,,M,,*5F
06/10/2015	00:07:23.597	$GPGGA,000724,2543.8855,N,08009.7290,W,1,9,1.4,18,M,,M,,*59
06/10/2015	00:07:24.647	$GPGGA,000725,2543.8854,N,08009.7290,W,1,9,1.4,18,M,,M,,*59
06/10/2015	00:07:25.617	$GPGGA,000726,2543.8855,N,08009.7290,W,1,9,1.4,18,M,,M,,*5B
06/10/2015	00:07:26.537	$GPGGA,000727,2543.8854,N,08009.7291,W,1,9,1.4,18,M,,M,,*5A
06/10/2015	00:07:27.557	$GPGGA,000728,2543.8854,N,08009.7291,W,1,9,1.4,18,M,,M,,*55
06/10/2015	00:07:28.528	$GPGGA,000729,2543.8853,N,08009.7290,W,1,9,1.4,18,M,,M,,*52
06/10/2015	00:07:29.578	$GPGGA,000730,2543.8853,N,08009.7290,W,1,9,1.4,17,M,,M,,*55
06/10/2015	00:07:30.528	$GPGGA,000731,2543.8853,N,08009.7291,W,1,9,1.4,17,M,,M,,*55
06/10/2015	00:07:31.548	$GPGGA,000732,2543.8853,N,08009.7291,W,1,9,1.4,17,M,,M,,*56
06/10/2015	00:07:32.608	$GPGGA,000733,2543.8853,N,08009.7290,W,1,9,1.4,17,M,,M,,*56
06/10/2015	00:07:33.648	$GPGGA,000734,2543.8853,N,08009.7291,W,1,9,1.4,17,M,,M,,*50
06/10/2015	00:07:34.627	$GPGGA,000735,2543.8853,N,08009.7291,W,1,9,1.4,17,M,,M,,*51
06/10/2015	00:07:35.627	$GPGGA,000736,2543.8853,N,08009.7291,W,1,9,1.4,17,M,,M,,*52
06/10/2015	00:07:36.517	$GPGGA,000737,2543.8853,N,08009.7291,W,1,9,1.4,17,M,,M,,*53
06/10/2015	00:07:37.597	$GPGGA,000738,2543.8853,N,08009.7291,W,1,9,1.4,17,M,,M,,*5C
06/10/2015	00:07:38.597	$GPGGA,000739,2543.8852,N,08009.7291,W,1,9,1.4,17,M,,M,,*5C
06/10/2015	00:07:39.618	$GPGGA,000740,2543.8851,N,08009.7291,W,1,9,1.4,17,M,,M,,*51
06/10/2015	00:07:40.597	$GPGGA,000741,2543.8852,N,08009.7291,W,1,9,1.4,17,M,,M,,*53
06/10/2015	00:07:41.597	$GPGGA,000742,2543.8851,N,08009.7291,W,1,9,1.4,17,M,,M,,*53
06/10/2015	00:07:42.597	$GPGGA,000743,2543.8852,N,08009.7291,W,1,9,1.4,17,M,,M,,*51
06/10/2015	00:07:43.637	$GPGGA,000744,2543.8851,N,08009.7292,W,1,9,1.4,17,M,,M,,*56
06/10/2015	00:07:44.577	$GPGGA,000745,2543.8852,N,08009.7292,W,1,9,1.4,17,M,,M,,*54
06/10/2015	00:07:45.608	$GPGGA,000746,2543.8850,N,08009.7292,W,1,9,1.4,17,M,,M,,*55
06/10/2015	00:07:46.578	$GPGGA,000747,2543.8850,N,08009.7292,W,1,9,1.4,17,M,,M,,*54
06/10/2015	00:07:47.628	$GPGGA,000748,2543.8850,N,08009.7292,W,1,9,1.4,17,M,,M,,*5B
06/10/2015	00:07:48.568	$GPGGA,000749,2543.8850,N,08009.7292,W,1,9,1.4,17,M,,M,,*5A
06/10/2015	00:07:49.598	$GPGGA,000750,2543.8849,N,08009.7292,W,1,9,1.4,17,M,,M,,*5A
06/10/2015	00:07:50.568	$GPGGA,000751,2543.8849,N,08009.7292,W,1,9,1.4,17,M,,M,,*5B
06/10/2015	00:07:51.608	$GPGGA,000752,2543.8849,N,08009.7292,W,1,9,1.4,17,M,,M,,*58
06/10/2015	00:07:52.557	$GPGGA,000753,2543.8848,N,08009.7292,W,1,9,1.4,17,M,,M,,*58
06/10/2015	00:07:53.587	$GPGGA,000754,2543.8849,N,08009.7292,W,1,9,1.4,17,M,,M,,*5E
06/10/2015	00:07:54.567	$GPGGA,000755,2543.8848,N,08009.7292,W,1,9,1.4,16,M,,M,,*5F
06/10/2015	00:07:55.607	$GPGGA,000756,2543.8849,N,08009.7292,W,1,9,1.4,16,M,,M,,*5D
06/10/2015	00:07:56.547	$GPGGA,000757,2543.8848,N,08009.7292,W,1,9,1.4,16,M,,M,,*5D
06/10/2015	00:07:57.567	$GPGGA,000758,2543.8849,N,08009.7292,W,1,9,1.4,16,M,,M,,*53
06/10/2015	00:07:58.547	$GPGGA,000759,2543.8848,N,08009.7292,W,1,9,1.4,16,M,,M,,*53
06/10/2015	00:07:59.587	$GPGGA,000800,2543.8849,N,08009.7291,W,1,9,1.4,16,M,,M,,*52
06/10/2015	00:08:00.557	$GPGGA,000801,2543.8848,N,08009.7291,W,1,9,1.4,16,M,,M,,*52
06/10/2015	00:08:01.537	$GPGGA,000802,2543.8849,N,08009.7291,W,1,9,1.4,16,M,,M,,*50
06/10/2015	00:08:02.547	$GPGGA,000803,2543.8848,N,08009.7291,W,1,9,1.4,16,M,,M,,*50
06/10/2015	00:08:03.587	$GPGGA,000804,2543.8849,N,08009.7291,W,1,9,1.4,16,M,,M,,*56
06/10/2015	00:08:04.537	$GPGGA,000805,2543.8847,N,08009.7291,W,1,9,1.4,16,M,,M,,*59
06/10/2015	00:08:05.567	$GPGGA,000806,2543.8848,N,08009.7292,W,1,9,1.4,16,M,,M,,*56
06/10/2015	00:08:06.537	$GPGGA,000807,2543.8847,N,08009.7292,W,1,9,1.4,16,M,,M,,*58
06/10/2015	00:08:07.567	$GPGGA,000808,2543.8848,N,08009.7292,W,1,9,1.4,16,M,,M,,*58
06/10/2015	00:08:08.527	$GPGGA,000809,2543.8847,N,08009.7292,W,1,9,1.4,16,M,,M,,*56
06/10/2015	00:08:09.526	$GPGGA,000810,2543.8848,N,08009.7292,W,1,9,1.4,16,M,,M,,*51
06/10/2015	00:08:10.526	$GPGGA,000811,2543.8847,N,08009.7292,W,1,9,1.4,16,M,,M,,*5F
06/10/2015	00:08:11.636	$GPGGA,000812,2543.8848,N,08009.7294,W,1,9,1.4,16,M,,M,,*55
06/10/2015	00:08:12.526	$GPGGA,000813,2543.8847,N,08009.7293,W,1,9,1.4,16,M,,M,,*5C
06/10/2015	00:08:13.637	$GPGGA,000814,2543.8848,N,08009.7294,W,1,9,1.4,16,M,,M,,*53
06/10/2015	00:08:14.527	$GPGGA,000815,2543.8847,N,08009.7293,W,1,9,1.4,16,M,,M,,*5A
06/10/2015	00:08:15.557	$GPGGA,000816,2543.8848,N,08009.7294,W,1,9,1.4,16,M,,M,,*51
06/10/2015	00:08:16.517	$GPGGA,000817,2543.8846,N,08009.7294,W,1,9,1.4,16,M,,M,,*5E
06/10/2015	00:08:17.607	$GPGGA,000818,2543.8846,N,08009.7294,W,1,9,1.4,16,M,,M,,*51
06/10/2015	00:08:18.517	$GPGGA,000819,2543.8846,N,08009.7295,W,1,9,1.4,16,M,,M,,*51
06/10/2015	00:08:19.537	$GPGGA,000820,2543.8846,N,08009.7295,W,1,9,1.4,16,M,,M,,*5B
06/10/2015	00:08:20.537	$GPGGA,000821,2543.8846,N,08009.7296,W,1,9,1.4,16,M,,M,,*59
06/10/2015	00:08:21.627	$GPGGA,000822,2543.8846,N,08009.7296,W,1,9,1.4,16,M,,M,,*5A
06/10/2015	00:08:22.497	$GPGGA,000823,2543.8846,N,08009.7296,W,1,9,1.4,16,M,,M,,*5B
06/10/2015	00:08:23.608	$GPGGA,000824,2543.8846,N,08009.7296,W,1,9,1.4,16,M,,M,,*5C
06/10/2015	00:08:24.617	$GPGGA,000825,2543.8846,N,08009.7296,W,1,9,1.4,16,M,,M,,*5D
06/10/2015	00:08:25.587	$GPGGA,000826,2543.8846,N,08009.7296,W,1,9,1.4,16,M,,M,,*5E
06/10/2015	00:08:26.497	$GPGGA,000827,2543.8846,N,08009.7298,W,1,9,1.4,17,M,,M,,*50
06/10/2015	00:08:27.616	$GPGGA,000828,2543.8846,N,08009.7296,W,1,9,1.4,17,M,,M,,*51
06/10/2015	00:08:28.496	$GPGGA,000829,2543.8846,N,08009.7296,W,1,9,1.4,17,M,,M,,*50
06/10/2015	00:08:30.876	$GPGGA,000831,2543.8846,N,08009.7296,W,1,9,1.4,17,M,,M,,*59
06/10/2015	00:08:31.617	$GPGGA,000832,2543.8846,N,08009.7296,W,1,9,1.4,17,M,,M,,*5A
06/10/2015	00:08:32.587	$GPGGA,000833,2543.8846,N,08009.7296,W,1,9,1.4,17,M,,M,,*5B
06/10/2015	00:08:33.587	$GPGGA,000834,2543.8846,N,08009.7296,W,1,9,1.4,17,M,,M,,*5C
06/10/2015	00:08:34.577	$GPGGA,000835,2543.8848,N,08009.7296,W,1,9,1.4,17,M,,M,,*53
06/10/2015	00:08:35.587	$GPGGA,000836,2543.8847,N,08009.7295,W,1,9,1.4,17,M,,M,,*5C
06/10/2015	00:08:36.578	$GPGGA,000837,2543.8848,N,08009.7295,W,1,9,1.4,17,M,,M,,*52
06/10/2015	00:08:37.587	$GPGGA,000838,2543.8847,N,08009.7294,W,1,9,1.4,17,M,,M,,*53
06/10/2015	00:08:38.567	$GPGGA,000839,2543.8848,N,08009.7295,W,1,9,1.4,17,M,,M,,*5C
06/10/2015	00:08:39.587	$GPGGA,000840,2543.8847,N,08009.7294,W,1,9,1.4,17,M,,M,,*5C
06/10/2015	00:08:40.557	$GPGGA,000841,2543.8848,N,08009.7294,W,1,9,1.4,17,M,,M,,*52
06/10/2015	00:08:41.557	$GPGGA,000842,2543.8847,N,08009.7293,W,1,9,1.4,17,M,,M,,*59
06/10/2015	00:08:42.557	$GPGGA,000843,2543.8848,N,08009.7294,W,1,9,1.4,17,M,,M,,*50
06/10/2015	00:08:43.587	$GPGGA,000844,2543.8847,N,08009.7293,W,1,9,1.4,17,M,,M,,*5F
06/10/2015	00:08:44.556	$GPGGA,000845,2543.8846,N,08009.7292,W,1,9,1.4,17,M,,M,,*5E
06/10/2015	00:08:45.566	$GPGGA,000846,2543.8846,N,08009.7292,W,1,9,1.4,17,M,,M,,*5D
06/10/2015	00:08:46.536	$GPGGA,000847,2543.8846,N,08009.7292,W,1,9,1.4,17,M,,M,,*5C
06/10/2015	00:08:47.576	$GPGGA,000848,2543.8846,N,08009.7291,W,1,9,1.4,17,M,,M,,*50
06/10/2015	00:08:48.548	$GPGGA,000849,2543.8846,N,08009.7291,W,1,9,1.4,17,M,,M,,*51
06/10/2015	00:08:49.537	$GPGGA,000850,2543.8846,N,08009.7291,W,1,9,1.4,17,M,,M,,*59
06/10/2015	00:08:50.537	$GPGGA,000851,2543.8846,N,08009.7291,W,1,9,1.4,17,M,,M,,*58
06/10/2015	00:08:51.567	$GPGGA,000852,2543.8846,N,08009.7291,W,1,9,1.4,18,M,,M,,*54
06/10/2015	00:08:52.537	$GPGGA,000853,2543.8846,N,08009.7291,W,1,9,1.4,18,M,,M,,*55
06/10/2015	00:08:53.567	$GPGGA,000854,2543.8846,N,08009.7290,W,1,9,1.4,18,M,,M,,*53
06/10/2015	00:08:54.527	$GPGGA,000855,2543.8846,N,08009.7289,W,1,9,1.4,18,M,,M,,*5A
06/10/2015	00:08:55.537	$GPGGA,000856,2543.8846,N,08009.7290,W,1,9,1.4,18,M,,M,,*51
06/10/2015	00:08:56.528	$GPGGA,000857,2543.8844,N,08009.7289,W,1,9,1.4,18,M,,M,,*5A
06/10/2015	00:08:57.547	$GPGGA,000858,2543.8845,N,08009.7288,W,1,9,1.4,18,M,,M,,*55
06/10/2015	00:08:58.527	$GPGGA,000859,2543.8844,N,08009.7290,W,1,9,1.4,18,M,,M,,*5C
06/10/2015	00:08:59.547	$GPGGA,000900,2543.8845,N,08009.7289,W,1,9,1.4,18,M,,M,,*58
06/10/2015	00:09:00.517	$GPGGA,000901,2543.8843,N,08009.7288,W,1,9,1.4,18,M,,M,,*5E
06/10/2015	00:09:01.527	$GPGGA,000902,2543.8844,N,08009.7288,W,1,9,1.4,18,M,,M,,*5A
06/10/2015	00:09:02.626	$GPGGA,000903,2543.8842,N,08009.7288,W,1,9,1.4,18,M,,M,,*5D
06/10/2015	00:09:03.546	$GPGGA,000904,2543.8842,N,08009.7287,W,1,9,1.4,18,M,,M,,*55
06/10/2015	00:09:04.516	$GPGGA,000905,2543.8842,N,08009.7288,W,1,9,1.4,18,M,,M,,*5B
06/10/2015	00:09:05.608	$GPGGA,000906,2543.8842,N,08009.7287,W,1,9,1.4,18,M,,M,,*57
06/10/2015	00:09:06.508	$GPGGA,000907,2543.8840,N,08009.7288,W,1,9,1.4,18,M,,M,,*5B
06/10/2015	00:09:07.617	$GPGGA,000908,2543.8841,N,08009.7287,W,1,9,1.4,18,M,,M,,*5A
06/10/2015	00:09:08.597	$GPGGA,000909,2543.8840,N,08009.7287,W,1,9,1.4,18,M,,M,,*5A
06/10/2015	00:09:09.597	$GPGGA,000910,2543.8841,N,08009.7287,W,1,9,1.4,18,M,,M,,*53
06/10/2015	00:09:10.527	$GPGGA,000911,2543.8839,N,08009.7287,W,1,9,1.4,18,M,,M,,*5D
06/10/2015	00:09:11.517	$GPGGA,000912,2543.8839,N,08009.7288,W,1,9,1.4,18,M,,M,,*51
06/10/2015	00:09:12.497	$GPGGA,000913,2543.8839,N,08009.7287,W,1,9,1.4,18,M,,M,,*5F
06/10/2015	00:09:13.587	$GPGGA,000914,2543.8839,N,08009.7287,W,1,9,1.4,18,M,,M,,*58
06/10/2015	00:09:14.597	$GPGGA,000915,2543.8839,N,08009.7287,W,1,9,1.4,18,M,,M,,*59
06/10/2015	00:09:15.597	$GPGGA,000916,2543.8839,N,08009.7286,W,1,9,1.4,18,M,,M,,*5B
06/10/2015	00:09:16.597	$GPGGA,000917,2543.8839,N,08009.7287,W,1,9,1.4,18,M,,M,,*5B
06/10/2015	00:09:17.597	$GPGGA,000918,2543.8839,N,08009.7286,W,1,9,1.4,18,M,,M,,*55
06/10/2015	00:09:18.487	$GPGGA,000919,2543.8837,N,08009.7285,W,1,9,1.4,18,M,,M,,*59
06/10/2015	00:09:19.607	$GPGGA,000920,2543.8839,N,08009.7285,W,1,9,1.4,18,M,,M,,*5D
06/10/2015	00:09:20.566	$GPGGA,000921,2543.8837,N,08009.7285,W,1,9,1.4,18,M,,M,,*52
06/10/2015	00:09:21.576	$GPGGA,000922,2543.8838,N,08009.7287,W,1,9,1.4,18,M,,M,,*5C
06/10/2015	00:09:22.566	$GPGGA,000923,2543.8837,N,08009.7286,W,1,9,1.4,18,M,,M,,*53
06/10/2015	00:09:23.607	$GPGGA,000924,2543.8838,N,08009.7287,W,1,9,1.4,18,M,,M,,*5A
06/10/2015	00:09:24.577	$GPGGA,000925,2543.8837,N,08009.7285,W,1,9,1.4,18,M,,M,,*56
06/10/2015	00:09:25.587	$GPGGA,000926,2543.8836,N,08009.7284,W,1,10,1.3,18,M,,M,,*6A
06/10/2015	00:09:26.577	$GPGGA,000927,2543.8837,N,08009.7283,W,1,10,1.3,18,M,,M,,*6D
06/10/2015	00:09:27.597	$GPGGA,000928,2543.8836,N,08009.7282,W,1,10,1.3,18,M,,M,,*62
06/10/2015	00:09:28.557	$GPGGA,000929,2543.8837,N,08009.7283,W,1,10,1.3,18,M,,M,,*63
06/10/2015	00:09:29.587	$GPGGA,000930,2543.8835,N,08009.7281,W,1,10,1.3,18,M,,M,,*6B
06/10/2015	00:09:30.567	$GPGGA,000931,2543.8835,N,08009.7281,W,1,10,1.3,18,M,,M,,*6A
06/10/2015	00:09:31.587	$GPGGA,000932,2543.8835,N,08009.7280,W,1,10,1.3,18,M,,M,,*68
06/10/2015	00:09:32.547	$GPGGA,000933,2543.8835,N,08009.7280,W,1,10,1.3,18,M,,M,,*69
06/10/2015	00:09:33.557	$GPGGA,000934,2543.8835,N,08009.7280,W,1,10,1.3,18,M,,M,,*6E
06/10/2015	00:09:34.557	$GPGGA,000935,2543.8835,N,08009.7279,W,1,10,1.3,18,M,,M,,*69
06/10/2015	00:09:35.617	$GPGGA,000936,2543.8835,N,08009.7280,W,1,10,1.3,18,M,,M,,*6C
06/10/2015	00:09:36.557	$GPGGA,000937,2543.8833,N,08009.7278,W,1,10,1.3,18,M,,M,,*6C
06/10/2015	00:09:37.566	$GPGGA,000938,2543.8834,N,08009.7279,W,1,10,1.3,18,M,,M,,*65
06/10/2015	00:09:38.536	$GPGGA,000939,2543.8833,N,08009.7277,W,1,10,1.3,18,M,,M,,*6D
06/10/2015	00:09:41.557	$GPGGA,000940,2543.8834,N,08009.7277,W,1,10,1.3,18,M,,M,,*64
06/10/2015	00:09:41.617	$GPGGA,000942,2543.8834,N,08009.7277,W,1,10,1.3,18,M,,M,,*66
06/10/2015	00:09:42.547	$GPGGA,000943,2543.8833,N,08009.7276,W,1,10,1.3,18,M,,M,,*61
06/10/2015	00:09:43.577	$GPGGA,000944,2543.8834,N,08009.7276,W,1,10,1.3,18,M,,M,,*61
06/10/2015	00:09:44.527	$GPGGA,000945,2543.8833,N,08009.7276,W,1,10,1.3,18,M,,M,,*67
06/10/2015	00:09:45.537	$GPGGA,000946,2543.8834,N,08009.7275,W,1,10,1.3,18,M,,M,,*60
06/10/2015	00:09:46.527	$GPGGA,000947,2543.8833,N,08009.7276,W,1,10,1.3,18,M,,M,,*65
06/10/2015	00:09:47.547	$GPGGA,000948,2543.8834,N,08009.7275,W,1,10,1.3,18,M,,M,,*6E
06/10/2015	00:09:48.527	$GPGGA,000949,2543.8833,N,08009.7276,W,1,10,1.3,18,M,,M,,*6B
06/10/2015	00:09:49.527	$GPGGA,000950,2543.8834,N,08009.7275,W,1,10,1.3,18,M,,M,,*67
06/10/2015	00:09:50.607	$GPGGA,000951,2543.8832,N,08009.7276,W,1,10,1.3,18,M,,M,,*63
06/10/2015	00:09:51.637	$GPGGA,000952,2543.8833,N,08009.7274,W,1,10,1.3,18,M,,M,,*63
06/10/2015	00:09:53.507	$GPGGA,000953,2543.8832,N,08009.7276,W,1,10,1.3,18,M,,M,,*61
06/10/2015	00:09:53.537	$GPGGA,000954,2543.8834,N,08009.7275,W,1,10,1.3,18,M,,M,,*63
06/10/2015	00:09:54.516	$GPGGA,000955,2543.8833,N,08009.7276,W,1,10,1.3,18,M,,M,,*66
06/10/2015	00:09:55.686	$GPGGA,000956,2543.8832,N,08009.7275,W,1,10,1.3,18,M,,M,,*67
06/10/2015	00:09:56.606	$GPGGA,000957,2543.8834,N,08009.7276,W,1,10,1.3,18,M,,M,,*63
06/10/2015	00:09:57.610	$GPGGA,000958,2543.8833,N,08009.7275,W,1,10,1.3,18,M,,M,,*68
06/10/2015	00:09:58.597	$GPGGA,000959,2543.8834,N,08009.7276,W,1,10,1.3,18,M,,M,,*6D
06/10/2015	00:09:59.517	$GPGGA,001000,2543.8833,N,08009.7275,W,1,10,1.3,18,M,,M,,*6D
06/10/2015	00:10:00.597	$GPGGA,001001,2543.8834,N,08009.7274,W,1,10,1.3,18,M,,M,,*6A
06/10/2015	00:10:01.597	$GPGGA,001002,2543.8833,N,08009.7274,W,1,10,1.3,18,M,,M,,*6E
06/10/2015	00:10:02.587	$GPGGA,001003,2543.8834,N,08009.7276,W,1,10,1.3,18,M,,M,,*6A
06/10/2015	00:10:03.617	$GPGGA,001004,2543.8833,N,08009.7274,W,1,10,1.3,18,M,,M,,*68
06/10/2015	00:10:04.577	$GPGGA,001005,2543.8834,N,08009.7276,W,1,10,1.3,18,M,,M,,*6C
06/10/2015	00:10:05.587	$GPGGA,001006,2543.8833,N,08009.7275,W,1,10,1.3,18,M,,M,,*6B
06/10/2015	00:10:06.587	$GPGGA,001007,2543.8834,N,08009.7276,W,1,10,1.3,18,M,,M,,*6E
06/10/2015	00:10:07.637	$GPGGA,001008,2543.8833,N,08009.7275,W,1,10,1.3,18,M,,M,,*65
06/10/2015	00:10:08.577	$GPGGA,001009,2543.8834,N,08009.7276,W,1,10,1.3,18,M,,M,,*60
06/10/2015	00:10:09.567	$GPGGA,001010,2543.8833,N,08009.7275,W,1,10,1.3,18,M,,M,,*6C
06/10/2015	00:10:10.577	$GPGGA,001011,2543.8834,N,08009.7276,W,1,10,1.3,18,M,,M,,*69
06/10/2015	00:10:11.597	$GPGGA,001012,2543.8833,N,08009.7276,W,1,10,1.3,18,M,,M,,*6D
06/10/2015	00:10:12.576	$GPGGA,001013,2543.8834,N,08009.7275,W,1,10,1.3,18,M,,M,,*68
06/10/2015	00:10:13.586	$GPGGA,001014,2543.8833,N,08009.7276,W,1,10,1.3,18,M,,M,,*6B
06/10/2015	00:10:14.557	$GPGGA,001015,2543.8834,N,08009.7276,W,1,10,1.3,18,M,,M,,*6D
06/10/2015	00:10:15.596	$GPGGA,001016,2543.8833,N,08009.7276,W,1,10,1.3,18,M,,M,,*69
06/10/2015	00:10:16.567	$GPGGA,001017,2543.8834,N,08009.7276,W,1,10,1.3,18,M,,M,,*6F
06/10/2015	00:10:17.557	$GPGGA,001018,2543.8833,N,08009.7276,W,1,10,1.3,18,M,,M,,*67
06/10/2015	00:10:18.567	$GPGGA,001019,2543.8834,N,08009.7277,W,1,10,1.3,18,M,,M,,*60
06/10/2015	00:10:19.597	$GPGGA,001020,2543.8833,N,08009.7277,W,1,10,1.3,18,M,,M,,*6D
06/10/2015	00:10:20.557	$GPGGA,001021,2543.8835,N,08009.7277,W,1,10,1.3,18,M,,M,,*6A
06/10/2015	00:10:21.547	$GPGGA,001022,2543.8835,N,08009.7277,W,1,10,1.3,18,M,,M,,*69
06/10/2015	00:10:22.547	$GPGGA,001023,2543.8835,N,08009.7279,W,1,10,1.3,18,M,,M,,*66
06/10/2015	00:10:23.577	$GPGGA,001024,2543.8835,N,08009.7278,W,1,10,1.3,18,M,,M,,*60
06/10/2015	00:10:24.547	$GPGGA,001025,2543.8835,N,08009.7279,W,1,10,1.3,18,M,,M,,*60
06/10/2015	00:10:25.537	$GPGGA,001026,2543.8835,N,08009.7278,W,1,10,1.3,18,M,,M,,*62
06/10/2015	00:10:26.547	$GPGGA,001027,2543.8835,N,08009.7279,W,1,10,1.3,18,M,,M,,*62
06/10/2015	00:10:27.587	$GPGGA,001028,2543.8835,N,08009.7278,W,1,10,1.3,18,M,,M,,*6C
06/10/2015	00:10:28.537	$GPGGA,001029,2543.8835,N,08009.7279,W,1,10,1.3,18,M,,M,,*6C
06/10/2015	00:10:29.556	$GPGGA,001030,2543.8835,N,08009.7278,W,1,10,1.3,18,M,,M,,*65
06/10/2015	00:10:30.546	$GPGGA,001031,2543.8835,N,08009.7279,W,1,10,1.3,18,M,,M,,*65
06/10/2015	00:10:31.576	$GPGGA,001032,2543.8835,N,08009.7278,W,1,10,1.3,18,M,,M,,*67
06/10/2015	00:10:32.526	$GPGGA,001033,2543.8833,N,08009.7279,W,1,10,1.3,18,M,,M,,*61
06/10/2015	00:10:33.527	$GPGGA,001034,2543.8834,N,08009.7278,W,1,10,1.3,18,M,,M,,*60
06/10/2015	00:10:34.527	$GPGGA,001035,2543.8833,N,08009.7279,W,1,10,1.3,18,M,,M,,*67
06/10/2015	00:10:35.637	$GPGGA,001036,2543.8834,N,08009.7280,W,1,10,1.3,18,M,,M,,*65
06/10/2015	00:10:36.537	$GPGGA,001037,2543.8833,N,08009.7279,W,1,10,1.3,18,M,,M,,*65
06/10/2015	00:10:37.517	$GPGGA,001038,2543.8834,N,08009.7280,W,1,10,1.3,18,M,,M,,*6B
06/10/2015	00:10:38.627	$GPGGA,001039,2543.8833,N,08009.7279,W,1,10,1.3,18,M,,M,,*6B
06/10/2015	00:10:39.967	$GPGGA,001040,2543.8832,N,08009.7280,W,1,10,1.3,18,M,,M,,*62
06/10/2015	00:10:40.517	$GPGGA,001041,2543.8833,N,08009.7280,W,1,10,1.3,18,M,,M,,*62
06/10/2015	00:10:41.527	$GPGGA,001042,2543.8832,N,08009.7280,W,1,10,1.3,18,M,,M,,*60
06/10/2015	00:10:42.527	$GPGGA,001043,2543.8833,N,08009.7280,W,1,10,1.3,18,M,,M,,*60
06/10/2015	00:10:43.517	$GPGGA,001044,2543.8832,N,08009.7281,W,1,10,1.3,18,M,,M,,*67
06/10/2015	00:10:44.517	$GPGGA,001045,2543.8834,N,08009.7281,W,1,10,1.3,18,M,,M,,*60
06/10/2015	00:10:45.517	$GPGGA,001046,2543.8832,N,08009.7281,W,1,10,1.3,18,M,,M,,*65
06/10/2015	00:10:46.617	$GPGGA,001047,2543.8833,N,08009.7281,W,1,10,1.3,18,M,,M,,*65
06/10/2015	00:10:47.616	$GPGGA,001048,2543.8832,N,08009.7281,W,1,10,1.3,18,M,,M,,*6B
06/10/2015	00:10:48.506	$GPGGA,001049,2543.8831,N,08009.7283,W,1,10,1.3,18,M,,M,,*6B
06/10/2015	00:10:49.596	$GPGGA,001050,2543.8831,N,08009.7282,W,1,10,1.3,18,M,,M,,*62
06/10/2015	00:10:50.596	$GPGGA,001051,2543.8831,N,08009.7283,W,1,10,1.3,18,M,,M,,*62
06/10/2015	00:10:51.617	$GPGGA,001052,2543.8831,N,08009.7282,W,1,10,1.3,18,M,,M,,*60
06/10/2015	00:10:52.587	$GPGGA,001053,2543.8831,N,08009.7283,W,1,10,1.3,18,M,,M,,*60
06/10/2015	00:10:53.597	$GPGGA,001054,2543.8831,N,08009.7282,W,1,10,1.3,18,M,,M,,*66
06/10/2015	00:10:54.587	$GPGGA,001055,2543.8831,N,08009.7283,W,1,10,1.3,18,M,,M,,*66
06/10/2015	00:10:55.617	$GPGGA,001056,2543.8831,N,08009.7282,W,1,10,1.3,18,M,,M,,*64
06/10/2015	00:10:56.587	$GPGGA,001057,2543.8831,N,08009.7283,W,1,10,1.3,18,M,,M,,*64
06/10/2015	00:10:57.587	$GPGGA,001058,2543.8833,N,08009.7282,W,1,10,1.3,18,M,,M,,*68
06/10/2015	00:10:58.587	$GPGGA,001059,2543.8832,N,08009.7283,W,1,10,1.3,18,M,,M,,*69
06/10/2015	00:10:59.667	$GPGGA,001100,2543.8834,N,08009.7282,W,1,10,1.3,18,M,,M,,*63
06/10/2015	00:11:00.617	$GPGGA,001101,2543.8833,N,08009.7283,W,1,10,1.3,18,M,,M,,*64
06/10/2015	00:11:01.587	$GPGGA,001102,2543.8834,N,08009.7283,W,1,10,1.3,18,M,,M,,*60
06/10/2015	00:11:02.847	$GPGGA,001103,2543.8833,N,08009.7283,W,1,10,1.3,18,M,,M,,*66
06/10/2015	00:11:03.597	$GPGGA,001104,2543.8834,N,08009.7283,W,1,10,1.3,18,M,,M,,*66
06/10/2015	00:11:04.566	$GPGGA,001105,2543.8835,N,08009.7283,W,1,10,1.3,18,M,,M,,*66
06/10/2015	00:11:05.596	$GPGGA,001106,2543.8835,N,08009.7283,W,1,10,1.3,18,M,,M,,*65
06/10/2015	00:11:06.556	$GPGGA,001107,2543.8835,N,08009.7283,W,1,10,1.3,18,M,,M,,*64
06/10/2015	00:11:07.626	$GPGGA,001108,2543.8835,N,08009.7283,W,1,10,1.3,18,M,,M,,*6B
06/10/2015	00:11:08.557	$GPGGA,001109,2543.8835,N,08009.7283,W,1,10,1.3,18,M,,M,,*6A
06/10/2015	00:11:09.557	$GPGGA,001110,2543.8835,N,08009.7283,W,1,10,1.3,18,M,,M,,*62
06/10/2015	00:11:10.567	$GPGGA,001111,2543.8835,N,08009.7283,W,1,10,1.3,18,M,,M,,*63
06/10/2015	00:11:11.587	$GPGGA,001112,2543.8835,N,08009.7283,W,1,10,1.3,18,M,,M,,*60
06/10/2015	00:11:12.547	$GPGGA,001113,2543.8835,N,08009.7283,W,1,10,1.3,18,M,,M,,*61
06/10/2015	00:11:13.557	$GPGGA,001114,2543.8835,N,08009.7283,W,1,10,1.3,18,M,,M,,*66
06/10/2015	00:11:14.567	$GPGGA,001115,2543.8837,N,08009.7283,W,1,10,1.3,18,M,,M,,*65
06/10/2015	00:11:15.577	$GPGGA,001116,2543.8836,N,08009.7283,W,1,10,1.3,18,M,,M,,*67
06/10/2015	00:11:16.547	$GPGGA,001117,2543.8837,N,08009.7283,W,1,10,1.3,18,M,,M,,*67
06/10/2015	00:11:17.527	$GPGGA,001118,2543.8836,N,08009.7283,W,1,10,1.3,18,M,,M,,*69
06/10/2015	00:11:18.647	$GPGGA,001119,2543.8837,N,08009.7283,W,1,10,1.3,18,M,,M,,*69
06/10/2015	00:11:19.577	$GPGGA,001120,2543.8836,N,08009.7283,W,1,10,1.3,18,M,,M,,*62
06/10/2015	00:11:20.527	$GPGGA,001121,2543.8837,N,08009.7283,W,1,10,1.3,18,M,,M,,*62
06/10/2015	00:11:21.617	$GPGGA,001122,2543.8838,N,08009.7283,W,1,10,1.3,18,M,,M,,*6E
06/10/2015	00:11:22.536	$GPGGA,001123,2543.8837,N,08009.7283,W,1,10,1.3,18,M,,M,,*60
06/10/2015	00:11:23.556	$GPGGA,001124,2543.8838,N,08009.7283,W,1,10,1.3,18,M,,M,,*68
06/10/2015	00:11:24.516	$GPGGA,001125,2543.8837,N,08009.7283,W,1,10,1.3,18,M,,M,,*66
06/10/2015	00:11:25.616	$GPGGA,001126,2543.8839,N,08009.7283,W,1,10,1.3,18,M,,M,,*6B
06/10/2015	00:11:26.527	$GPGGA,001127,2543.8839,N,08009.7283,W,1,10,1.3,18,M,,M,,*6A
06/10/2015	00:11:27.537	$GPGGA,001128,2543.8839,N,08009.7283,W,1,10,1.3,18,M,,M,,*65
06/10/2015	00:11:28.527	$GPGGA,001129,2543.8839,N,08009.7284,W,1,10,1.3,18,M,,M,,*63
06/10/2015	00:11:29.657	$GPGGA,001130,2543.8839,N,08009.7283,W,1,10,1.3,18,M,,M,,*6C
06/10/2015	00:11:30.527	$GPGGA,001131,2543.8839,N,08009.7283,W,1,10,1.3,18,M,,M,,*6D
06/10/2015	00:11:31.617	$GPGGA,001132,2543.8839,N,08009.7284,W,1,10,1.3,18,M,,M,,*69
06/10/2015	00:11:32.597	$GPGGA,001133,2543.8841,N,08009.7284,W,1,10,1.3,18,M,,M,,*67
06/10/2015	00:11:33.527	$GPGGA,001134,2543.8840,N,08009.7284,W,1,10,1.3,18,M,,M,,*61
06/10/2015	00:11:34.617	$GPGGA,001135,2543.8842,N,08009.7284,W,1,10,1.3,18,M,,M,,*62
06/10/2015	00:11:35.607	$GPGGA,001136,2543.8842,N,08009.7285,W,1,10,1.3,18,M,,M,,*60
06/10/2015	00:11:36.597	$GPGGA,001137,2543.8842,N,08009.7285,W,1,10,1.3,18,M,,M,,*61
06/10/2015	00:11:37.627	$GPGGA,001138,2543.8842,N,08009.7285,W,1,10,1.3,18,M,,M,,*6E
06/10/2015	00:11:38.587	$GPGGA,001139,2543.8842,N,08009.7287,W,1,10,1.3,18,M,,M,,*6D
06/10/2015	00:11:39.616	$GPGGA,001140,2543.8842,N,08009.7286,W,1,10,1.3,18,M,,M,,*62
06/10/2015	00:11:40.586	$GPGGA,001141,2543.8842,N,08009.7287,W,1,10,1.3,18,M,,M,,*62
06/10/2015	00:11:41.586	$GPGGA,001142,2543.8842,N,08009.7286,W,1,10,1.3,18,M,,M,,*60
06/10/2015	00:11:42.576	$GPGGA,001143,2543.8842,N,08009.7285,W,1,10,1.3,18,M,,M,,*62
06/10/2015	00:11:43.637	$GPGGA,001144,2543.8842,N,08009.7285,W,1,10,1.3,18,M,,M,,*65
06/10/2015	00:11:44.597	$GPGGA,001145,2543.8842,N,08009.7285,W,1,10,1.3,18,M,,M,,*64
06/10/2015	00:11:45.587	$GPGGA,001146,2543.8842,N,08009.7285,W,1,10,1.3,18,M,,M,,*67
06/10/2015	00:11:46.577	$GPGGA,001147,2543.8842,N,08009.7285,W,1,10,1.3,18,M,,M,,*66
06/10/2015	00:11:47.619	$GPGGA,001148,2543.8842,N,08009.7285,W,1,10,1.3,18,M,,M,,*69
06/10/2015	00:11:48.568	$GPGGA,001149,2543.8844,N,08009.7285,W,1,10,1.3,18,M,,M,,*6E
06/10/2015	00:11:49.587	$GPGGA,001150,2543.8843,N,08009.7285,W,1,10,1.3,18,M,,M,,*61
