Software Version Number: 1	Data File Format Number: 1	Build Version Number: 1	Error Count Since VI Started: 3	Manufacturer: Raytheon	 Model Number: RayMarine 120	 S/N: 	 Cal Date: 	 Wind Direction Offset: 0.00	 Slope (M)1: 0.00	 Offset (B)1: 0.00	 Slope (M)2: 0.00	 Offset (B)2: 0.00	 Slope (M)3: 0.00	 Offset (B)3: 0.00	 Slope (M)4: 0.00	 Offset (B)4: 0.00	 Slope (M)5: 0.00	 Offset (B)5: 0.00	 Slope (M)6: 0.00	 Offset (B)6: 0.00
Computer Date	Computer Time	GGA String
06/24/2015	10:00:00.534	$GPGGA,100001,2506.0134,N,08009.5137,W,1,9,1.5,9,M,,M,,*62
06/24/2015	10:00:01.554	$GPGGA,100002,2506.0135,N,08009.5130,W,1,9,1.5,9,M,,M,,*67
06/24/2015	10:00:02.534	$GPGGA,100003,2506.0136,N,08009.5124,W,1,9,1.5,9,M,,M,,*60
06/24/2015	10:00:03.575	$GPGGA,100004,2506.0135,N,08009.5116,W,1,9,1.5,9,M,,M,,*65
06/24/2015	10:00:04.525	$GPGGA,100005,2506.0136,N,08009.5109,W,1,9,1.5,9,M,,M,,*69
06/24/2015	10:00:05.565	$GPGGA,100006,2506.0138,N,08009.5103,W,1,9,1.5,9,M,,M,,*6E
06/24/2015	10:00:06.525	$GPGGA,100007,2506.0137,N,08009.5096,W,1,9,1.5,9,M,,M,,*6D
06/24/2015	10:00:07.535	$GPGGA,100008,2506.0138,N,08009.5089,W,1,9,1.5,9,M,,M,,*63
06/24/2015	10:00:08.515	$GPGGA,100009,2506.0139,N,08009.5082,W,1,9,1.5,9,M,,M,,*68
06/24/2015	10:00:09.506	$GPGGA,100010,2506.0139,N,08009.5076,W,1,9,1.5,9,M,,M,,*6B
06/24/2015	10:00:10.525	$GPGGA,100011,2506.0139,N,08009.5069,W,1,9,1.5,9,M,,M,,*64
06/24/2015	10:00:11.554	$GPGGA,100012,2506.0139,N,08009.5063,W,1,9,1.5,9,M,,M,,*6D
06/24/2015	10:00:12.514	$GPGGA,100013,2506.0139,N,08009.5056,W,1,9,1.5,9,M,,M,,*6A
06/24/2015	10:00:13.544	$GPGGA,100014,2506.0141,N,08009.5048,W,1,9,1.5,9,M,,M,,*6D
06/24/2015	10:00:14.516	$GPGGA,100015,2506.0139,N,08009.5041,W,1,9,1.5,9,M,,M,,*6A
06/24/2015	10:00:15.524	$GPGGA,100016,2506.0141,N,08009.5035,W,1,9,1.5,9,M,,M,,*65
06/24/2015	10:00:16.507	$GPGGA,100017,2506.0142,N,08009.5027,W,1,9,1.5,9,M,,M,,*64
06/24/2015	10:00:17.514	$GPGGA,100018,2506.0141,N,08009.5020,W,1,9,1.5,9,M,,M,,*6F
06/24/2015	10:00:18.494	$GPGGA,100019,2506.0140,N,08009.5013,W,1,9,1.5,9,M,,M,,*6F
06/24/2015	10:00:19.524	$GPGGA,100020,2506.0142,N,08009.5006,W,1,9,1.5,9,M,,M,,*63
06/24/2015	10:00:20.515	$GPGGA,100021,2506.0141,N,08009.5000,W,1,9,1.5,9,M,,M,,*67
06/24/2015	10:00:21.925	$GPGGA,100022,2506.0142,N,08009.4993,W,1,9,1.5,9,M,,M,,*65
06/24/2015	10:00:22.585	$GPGGA,100023,2506.0141,N,08009.4985,W,1,9,1.5,9,M,,M,,*60
06/24/2015	10:00:23.495	$GPGGA,100024,2506.0140,N,08009.4978,W,1,9,1.5,9,M,,M,,*64
06/24/2015	10:00:24.506	$GPGGA,100025,2506.0142,N,08009.4972,W,1,9,1.5,9,M,,M,,*6D
06/24/2015	10:00:25.575	$GPGGA,100026,2506.0143,N,08009.4964,W,1,9,1.5,9,M,,M,,*68
06/24/2015	10:00:26.495	$GPGGA,100027,2506.0141,N,08009.4957,W,1,9,1.5,9,M,,M,,*6B
06/24/2015	10:00:27.595	$GPGGA,100028,2506.0140,N,08009.4952,W,1,9,1.5,9,M,,M,,*60
06/24/2015	10:00:28.485	$GPGGA,100029,2506.0142,N,08009.4944,W,1,9,1.5,9,M,,M,,*64
06/24/2015	10:00:29.494	$GPGGA,100030,2506.0143,N,08009.4936,W,1,9,1.5,9,M,,M,,*68
06/24/2015	10:00:30.484	$GPGGA,100031,2506.0141,N,08009.4930,W,1,9,1.5,9,M,,M,,*6D
06/24/2015	10:00:31.594	$GPGGA,100032,2506.0142,N,08009.4923,W,1,9,1.5,9,M,,M,,*6F
06/24/2015	10:00:32.574	$GPGGA,100033,2506.0141,N,08009.4916,W,1,9,1.5,9,M,,M,,*6B
06/24/2015	10:00:33.584	$GPGGA,100034,2506.0143,N,08009.4909,W,1,9,1.5,9,M,,M,,*60
06/24/2015	10:00:34.493	$GPGGA,100035,2506.0141,N,08009.4902,W,1,9,1.5,9,M,,M,,*68
06/24/2015	10:00:35.584	$GPGGA,100036,2506.0140,N,08009.4896,W,1,9,1.5,9,M,,M,,*66
06/24/2015	10:00:36.824	$GPGGA,100037,2506.0142,N,08009.4888,W,1,9,1.5,9,M,,M,,*6A
06/24/2015	10:00:37.606	$GPGGA,100038,2506.0141,N,08009.4880,W,1,9,1.5,9,M,,M,,*6E
06/24/2015	10:00:38.555	$GPGGA,100039,2506.0142,N,08009.4874,W,1,9,1.5,9,M,,M,,*67
06/24/2015	10:00:39.555	$GPGGA,100040,2506.0143,N,08009.4868,W,1,9,1.5,9,M,,M,,*65
06/24/2015	10:00:40.555	$GPGGA,100041,2506.0141,N,08009.4860,W,1,9,1.5,9,M,,M,,*6E
06/24/2015	10:00:41.545	$GPGGA,100042,2506.0142,N,08009.4852,W,1,9,1.5,9,M,,M,,*6F
06/24/2015	10:00:42.555	$GPGGA,100043,2506.0143,N,08009.4846,W,1,9,1.5,9,M,,M,,*6A
06/24/2015	10:00:43.555	$GPGGA,100044,2506.0143,N,08009.4839,W,1,9,1.5,9,M,,M,,*65
06/24/2015	10:00:44.545	$GPGGA,100045,2506.0143,N,08009.4831,W,1,9,1.5,9,M,,M,,*6C
06/24/2015	10:00:45.565	$GPGGA,100046,2506.0143,N,08009.4823,W,1,9,1.5,9,M,,M,,*6C
06/24/2015	10:00:46.544	$GPGGA,100047,2506.0146,N,08009.4817,W,1,9,1.5,9,M,,M,,*6F
06/24/2015	10:00:47.564	$GPGGA,100048,2506.0144,N,08009.4811,W,1,9,1.5,9,M,,M,,*64
06/24/2015	10:00:48.544	$GPGGA,100049,2506.0145,N,08009.4803,W,1,9,1.5,9,M,,M,,*67
06/24/2015	10:00:49.534	$GPGGA,100050,2506.0146,N,08009.4795,W,1,9,1.5,9,M,,M,,*6C
06/24/2015	10:00:50.534	$GPGGA,100051,2506.0148,N,08009.4789,W,1,9,1.5,9,M,,M,,*6E
06/24/2015	10:00:51.564	$GPGGA,100052,2506.0146,N,08009.4782,W,1,9,1.5,9,M,,M,,*68
06/24/2015	10:00:52.524	$GPGGA,100053,2506.0149,N,08009.4774,W,1,9,1.5,9,M,,M,,*6F
06/24/2015	10:00:53.514	$GPGGA,100054,2506.0150,N,08009.4766,W,1,9,1.5,8,M,,M,,*62
06/24/2015	10:00:54.524	$GPGGA,100055,2506.0150,N,08009.4761,W,1,9,1.5,8,M,,M,,*64
06/24/2015	10:00:55.565	$GPGGA,100056,2506.0150,N,08009.4754,W,1,9,1.5,8,M,,M,,*61
06/24/2015	10:00:56.525	$GPGGA,100057,2506.0152,N,08009.4745,W,1,9,1.5,8,M,,M,,*62
06/24/2015	10:00:57.518	$GPGGA,100058,2506.0153,N,08009.4738,W,1,9,1.5,8,M,,M,,*66
06/24/2015	10:00:58.522	$GPGGA,100059,2506.0151,N,08009.4732,W,1,9,1.5,8,M,,M,,*6F
06/24/2015	10:00:59.545	$GPGGA,100100,2506.0153,N,08009.4724,W,1,9,1.5,8,M,,M,,*67
06/24/2015	10:01:00.515	$GPGGA,100101,2506.0154,N,08009.4716,W,1,9,1.5,8,M,,M,,*60
06/24/2015	10:01:01.525	$GPGGA,100102,2506.0154,N,08009.4709,W,1,9,1.5,8,M,,M,,*6D
06/24/2015	10:01:02.507	$GPGGA,100103,2506.0154,N,08009.4702,W,1,9,1.5,8,M,,M,,*67
06/24/2015	10:01:03.518	$GPGGA,100104,2506.0154,N,08009.4695,W,1,9,1.5,8,M,,M,,*6F
06/24/2015	10:01:04.494	$GPGGA,100105,2506.0154,N,08009.4686,W,1,9,1.5,8,M,,M,,*6C
06/24/2015	10:01:05.924	$GPGGA,100106,2506.0156,N,08009.4678,W,1,9,1.5,8,M,,M,,*6C
06/24/2015	10:01:06.494	$GPGGA,100107,2506.0155,N,08009.4672,W,1,9,1.5,8,M,,M,,*64
06/24/2015	10:01:07.664	$GPGGA,100108,2506.0156,N,08009.4664,W,1,9,1.5,8,M,,M,,*6F
06/24/2015	10:01:08.664	$GPGGA,100109,2506.0155,N,08009.4655,W,1,9,1.5,8,M,,M,,*6F
06/24/2015	10:01:09.644	$GPGGA,100110,2506.0156,N,08009.4648,W,1,9,1.5,8,M,,M,,*68
06/24/2015	10:01:10.834	$GPGGA,100111,2506.0157,N,08009.4642,W,1,9,1.5,8,M,,M,,*62
06/24/2015	10:01:11.494	$GPGGA,100112,2506.0156,N,08009.4634,W,1,9,1.5,8,M,,M,,*61
06/24/2015	10:01:12.644	$GPGGA,100113,2506.0157,N,08009.4626,W,1,9,1.5,8,M,,M,,*62
06/24/2015	10:01:13.495	$GPGGA,100114,2506.0157,N,08009.4618,W,1,9,1.5,8,M,,M,,*68
06/24/2015	10:01:14.485	$GPGGA,100115,2506.0157,N,08009.4612,W,1,9,1.5,8,M,,M,,*63
06/24/2015	10:01:15.505	$GPGGA,100116,2506.0159,N,08009.4604,W,1,9,1.5,8,M,,M,,*69
06/24/2015	10:01:16.575	$GPGGA,100117,2506.0158,N,08009.4596,W,1,9,1.5,8,M,,M,,*61
06/24/2015	10:01:17.595	$GPGGA,100118,2506.0161,N,08009.4590,W,1,9,1.7,8,M,,M,,*60
06/24/2015	10:01:18.485	$GPGGA,100119,2506.0161,N,08009.4584,W,1,9,1.7,8,M,,M,,*64
06/24/2015	10:01:19.475	$GPGGA,100120,2506.0161,N,08009.4576,W,1,9,1.5,8,M,,M,,*61
06/24/2015	10:01:20.575	$GPGGA,100121,2506.0163,N,08009.4570,W,1,9,1.5,8,M,,M,,*64
06/24/2015	10:01:21.474	$GPGGA,100122,2506.0164,N,08009.4565,W,1,8,1.7,8,M,,M,,*67
06/24/2015	10:01:22.564	$GPGGA,100123,2506.0165,N,08009.4556,W,1,8,1.7,8,M,,M,,*67
06/24/2015	10:01:23.654	$GPGGA,100124,2506.0167,N,08009.4549,W,1,9,1.5,8,M,,M,,*6F
06/24/2015	10:01:24.564	$GPGGA,100125,2506.0168,N,08009.4543,W,1,9,1.5,8,M,,M,,*6B
06/24/2015	10:01:25.584	$GPGGA,100126,2506.0170,N,08009.4537,W,1,9,1.5,8,M,,M,,*62
06/24/2015	10:01:26.644	$GPGGA,100127,2506.0169,N,08009.4529,W,1,9,1.5,7,M,,M,,*6B
06/24/2015	10:01:27.623	$GPGGA,100128,2506.0172,N,08009.4522,W,1,9,1.5,7,M,,M,,*65
06/24/2015	10:01:28.606	$GPGGA,100129,2506.0174,N,08009.4514,W,1,9,1.5,7,M,,M,,*67
06/24/2015	10:01:29.594	$GPGGA,100130,2506.0175,N,08009.4507,W,1,9,1.5,7,M,,M,,*6C
06/24/2015	10:01:30.624	$GPGGA,100131,2506.0175,N,08009.4500,W,1,9,1.5,7,M,,M,,*6A
06/24/2015	10:01:31.645	$GPGGA,100132,2506.0177,N,08009.4494,W,1,8,1.6,7,M,,M,,*65
06/24/2015	10:01:32.545	$GPGGA,100133,2506.0179,N,08009.4488,W,1,8,1.5,7,M,,M,,*64
06/24/2015	10:01:33.595	$GPGGA,100134,2506.0181,N,08009.4481,W,1,8,2.2,8,M,,M,,*66
06/24/2015	10:01:34.595	$GPGGA,100135,2506.0182,N,08009.4475,W,1,8,1.7,8,M,,M,,*69
06/24/2015	10:01:35.595	$GPGGA,100136,2506.0186,N,08009.4467,W,1,8,1.7,8,M,,M,,*6D
06/24/2015	10:01:36.627	$GPGGA,100137,2506.0190,N,08009.4459,W,1,8,1.5,8,M,,M,,*64
06/24/2015	10:01:37.585	$GPGGA,100138,2506.0193,N,08009.4452,W,1,9,1.5,8,M,,M,,*62
06/24/2015	10:01:38.610	$GPGGA,100139,2506.0196,N,08009.4443,W,1,9,1.5,8,M,,M,,*66
06/24/2015	10:01:39.621	$GPGGA,100140,2506.0199,N,08009.4434,W,1,9,1.5,8,M,,M,,*67
06/24/2015	10:01:40.584	$GPGGA,100141,2506.0201,N,08009.4427,W,1,9,1.5,8,M,,M,,*66
06/24/2015	10:01:41.574	$GPGGA,100142,2506.0206,N,08009.4418,W,1,9,1.5,8,M,,M,,*6E
06/24/2015	10:01:42.594	$GPGGA,100143,2506.0210,N,08009.4409,W,1,9,1.5,8,M,,M,,*68
06/24/2015	10:01:44.044	$GPGGA,100144,2506.0211,N,08009.4400,W,1,9,1.5,9,M,,M,,*66
06/24/2015	10:01:44.574	$GPGGA,100145,2506.0214,N,08009.4393,W,1,9,1.5,9,M,,M,,*6F
06/24/2015	10:01:45.605	$GPGGA,100146,2506.0218,N,08009.4384,W,1,9,1.5,9,M,,M,,*66
06/24/2015	10:01:46.508	$GPGGA,100147,2506.0222,N,08009.4375,W,1,9,1.5,9,M,,M,,*60
06/24/2015	10:01:47.574	$GPGGA,100148,2506.0225,N,08009.4368,W,1,9,1.5,9,M,,M,,*64
06/24/2015	10:01:48.585	$GPGGA,100149,2506.0228,N,08009.4360,W,1,9,1.5,10,M,,M,,*58
06/24/2015	10:01:49.556	$GPGGA,100150,2506.0232,N,08009.4351,W,1,9,2.2,10,M,,M,,*5D
06/24/2015	10:01:50.575	$GPGGA,100151,2506.0233,N,08009.4343,W,1,9,2.2,10,M,,M,,*5E
06/24/2015	10:01:51.606	$GPGGA,100152,2506.0237,N,08009.4336,W,1,8,1.5,10,M,,M,,*5E
06/24/2015	10:01:52.565	$GPGGA,100153,2506.0240,N,08009.4327,W,1,8,2.3,10,M,,M,,*5A
06/24/2015	10:01:53.545	$GPGGA,100154,2506.0244,N,08009.4318,W,1,8,1.5,10,M,,M,,*50
06/24/2015	10:01:54.495	$GPGGA,100155,2506.0247,N,08009.4309,W,1,8,1.5,10,M,,M,,*52
06/24/2015	10:01:55.623	$GPGGA,100156,2506.0250,N,08009.4301,W,1,9,1.5,11,M,,M,,*5F
06/24/2015	10:01:56.574	$GPGGA,100157,2506.0254,N,08009.4291,W,1,9,1.5,11,M,,M,,*52
06/24/2015	10:01:57.820	$GPGGA,100158,2506.0258,N,08009.4282,W,1,9,1.5,11,M,,M,,*53
06/24/2015	10:01:58.494	$GPGGA,100159,2506.0262,N,08009.4273,W,1,9,1.5,11,M,,M,,*55
06/24/2015	10:01:59.544	$GPGGA,100200,2506.0266,N,08009.4264,W,1,9,1.5,11,M,,M,,*58
06/24/2015	10:02:00.554	$GPGGA,100201,2506.0271,N,08009.4255,W,1,9,1.5,11,M,,M,,*5D
06/24/2015	10:02:01.524	$GPGGA,100202,2506.0276,N,08009.4246,W,1,9,1.5,11,M,,M,,*5B
06/24/2015	10:02:02.574	$GPGGA,100203,2506.0282,N,08009.4236,W,1,9,1.5,11,M,,M,,*56
06/24/2015	10:02:03.564	$GPGGA,100204,2506.0287,N,08009.4227,W,1,9,1.5,11,M,,M,,*54
06/24/2015	10:02:04.534	$GPGGA,100205,2506.0294,N,08009.4219,W,1,9,1.5,11,M,,M,,*5A
06/24/2015	10:02:05.535	$GPGGA,100206,2506.0298,N,08009.4211,W,1,9,1.9,11,M,,M,,*51
06/24/2015	10:02:06.535	$GPGGA,100207,2506.0302,N,08009.4203,W,1,9,1.9,12,M,,M,,*52
06/24/2015	10:02:07.626	$GPGGA,100208,2506.0308,N,08009.4195,W,1,8,1.5,12,M,,M,,*56
06/24/2015	10:02:08.545	$GPGGA,100209,2506.0313,N,08009.4187,W,1,8,1.5,12,M,,M,,*5E
06/24/2015	10:02:09.585	$GPGGA,100210,2506.0319,N,08009.4177,W,1,9,1.5,12,M,,M,,*52
06/24/2015	10:02:10.565	$GPGGA,100211,2506.0324,N,08009.4168,W,1,9,1.5,12,M,,M,,*53
06/24/2015	10:02:11.608	$GPGGA,100212,2506.0331,N,08009.4159,W,1,9,1.5,12,M,,M,,*56
06/24/2015	10:02:12.555	$GPGGA,100213,2506.0338,N,08009.4150,W,1,9,1.5,12,M,,M,,*57
06/24/2015	10:02:13.595	$GPGGA,100214,2506.0338,N,08009.4150,W,1,9,1.5,12,M,,M,,*50
06/24/2015	10:02:14.554	$GPGGA,100215,2506.0352,N,08009.4130,W,1,9,1.5,13,M,,M,,*5A
06/24/2015	10:02:15.594	$GPGGA,100216,2506.0358,N,08009.4121,W,1,9,1.5,13,M,,M,,*53
06/24/2015	10:02:16.554	$GPGGA,100217,2506.0365,N,08009.4113,W,1,9,1.5,13,M,,M,,*5D
06/24/2015	10:02:17.584	$GPGGA,100218,2506.0374,N,08009.4103,W,1,9,2.5,13,M,,M,,*50
06/24/2015	10:02:18.544	$GPGGA,100219,2506.0378,N,08009.4095,W,1,9,1.5,13,M,,M,,*50
06/24/2015	10:02:19.584	$GPGGA,100220,2506.0383,N,08009.4087,W,1,9,1.5,13,M,,M,,*5D
06/24/2015	10:02:20.575	$GPGGA,100221,2506.0392,N,08009.4080,W,1,9,1.5,13,M,,M,,*5B
06/24/2015	10:02:21.564	$GPGGA,100222,2506.0402,N,08009.4071,W,1,9,1.5,13,M,,M,,*58
06/24/2015	10:02:22.554	$GPGGA,100223,2506.0407,N,08009.4061,W,1,9,1.5,13,M,,M,,*5D
06/24/2015	10:02:23.576	$GPGGA,100224,2506.0419,N,08009.4053,W,1,9,1.5,13,M,,M,,*54
06/24/2015	10:02:24.555	$GPGGA,100225,2506.0428,N,08009.4046,W,1,9,1.5,13,M,,M,,*53
06/24/2015	10:02:25.555	$GPGGA,100226,2506.0438,N,08009.4036,W,1,9,1.5,14,M,,M,,*51
06/24/2015	10:02:26.545	$GPGGA,100227,2506.0446,N,08009.4028,W,1,9,1.5,14,M,,M,,*56
06/24/2015	10:02:27.565	$GPGGA,100228,2506.0457,N,08009.4020,W,1,9,1.5,14,M,,M,,*51
06/24/2015	10:02:28.545	$GPGGA,100229,2506.0468,N,08009.4011,W,1,9,1.5,14,M,,M,,*5E
06/24/2015	10:02:29.555	$GPGGA,100230,2506.0477,N,08009.4002,W,1,9,1.5,14,M,,M,,*5A
06/24/2015	10:02:30.535	$GPGGA,100231,2506.0477,N,08009.4002,W,1,9,1.5,14,M,,M,,*5B
06/24/2015	10:02:31.555	$GPGGA,100232,2506.0497,N,08009.3985,W,1,9,1.5,14,M,,M,,*57
06/24/2015	10:02:32.544	$GPGGA,100233,2506.0497,N,08009.3985,W,1,9,1.5,14,M,,M,,*56
06/24/2015	10:02:33.544	$GPGGA,100234,2506.0517,N,08009.3969,W,1,9,1.5,14,M,,M,,*5A
06/24/2015	10:02:34.534	$GPGGA,100235,2506.0529,N,08009.3961,W,1,9,1.5,14,M,,M,,*5E
06/24/2015	10:02:35.534	$GPGGA,100236,2506.0539,N,08009.3951,W,1,9,1.5,14,M,,M,,*5F
06/24/2015	10:02:36.544	$GPGGA,100237,2506.0547,N,08009.3942,W,1,9,1.5,14,M,,M,,*55
06/24/2015	10:02:37.524	$GPGGA,100238,2506.0558,N,08009.3935,W,1,9,1.5,14,M,,M,,*54
06/24/2015	10:02:38.544	$GPGGA,100239,2506.0558,N,08009.3935,W,1,9,1.5,14,M,,M,,*55
06/24/2015	10:02:39.514	$GPGGA,100240,2506.0580,N,08009.3918,W,1,9,1.5,14,M,,M,,*51
06/24/2015	10:02:40.565	$GPGGA,100241,2506.0591,N,08009.3912,W,1,9,1.5,14,M,,M,,*5A
06/24/2015	10:02:41.618	$GPGGA,100242,2506.0604,N,08009.3904,W,1,9,1.5,14,M,,M,,*51
06/24/2015	10:02:42.507	$GPGGA,100243,2506.0613,N,08009.3895,W,1,9,1.7,14,M,,M,,*5D
06/24/2015	10:02:43.645	$GPGGA,100244,2506.0623,N,08009.3888,W,1,9,1.5,14,M,,M,,*57
06/24/2015	10:02:44.517	$GPGGA,100245,2506.0623,N,08009.3888,W,1,9,1.5,14,M,,M,,*56
06/24/2015	10:02:45.545	$GPGGA,100246,2506.0647,N,08009.3872,W,1,9,1.5,14,M,,M,,*52
06/24/2015	10:02:46.605	$GPGGA,100247,2506.0658,N,08009.3863,W,1,9,1.5,14,M,,M,,*5D
06/24/2015	10:02:47.545	$GPGGA,100248,2506.0670,N,08009.3858,W,1,9,1.5,14,M,,M,,*50
06/24/2015	10:02:48.605	$GPGGA,100249,2506.0683,N,08009.3854,W,1,9,1.5,14,M,,M,,*51
06/24/2015	10:02:49.504	$GPGGA,100250,2506.0695,N,08009.3846,W,1,9,1.5,14,M,,M,,*5D
06/24/2015	10:02:50.574	$GPGGA,100251,2506.0708,N,08009.3838,W,1,9,1.7,14,M,,M,,*52
06/24/2015	10:02:51.606	$GPGGA,100252,2506.0721,N,08009.3834,W,1,8,1.7,14,M,,M,,*57
06/24/2015	10:02:52.505	$GPGGA,100253,2506.0721,N,08009.3834,W,1,8,1.7,14,M,,M,,*56
06/24/2015	10:02:53.484	$GPGGA,100254,2506.0746,N,08009.3822,W,1,9,1.5,14,M,,M,,*54
06/24/2015	10:02:54.574	$GPGGA,100255,2506.0757,N,08009.3813,W,1,9,1.5,14,M,,M,,*57
06/24/2015	10:02:55.484	$GPGGA,100256,2506.0771,N,08009.3810,W,1,9,1.5,14,M,,M,,*53
06/24/2015	10:02:56.564	$GPGGA,100257,2506.0784,N,08009.3806,W,1,9,1.5,14,M,,M,,*5F
06/24/2015	10:02:57.594	$GPGGA,100258,2506.0796,N,08009.3798,W,1,9,1.5,14,M,,M,,*5B
06/24/2015	10:02:58.575	$GPGGA,100259,2506.0808,N,08009.3793,W,1,9,1.5,14,M,,M,,*59
06/24/2015	10:02:59.616	$GPGGA,100300,2506.0822,N,08009.3789,W,1,9,1.5,14,M,,M,,*57
06/24/2015	10:03:00.575	$GPGGA,100301,2506.0835,N,08009.3785,W,1,9,1.5,14,M,,M,,*5C
06/24/2015	10:03:01.575	$GPGGA,100302,2506.0847,N,08009.3780,W,1,9,1.5,14,M,,M,,*5F
06/24/2015	10:03:02.555	$GPGGA,100303,2506.0861,N,08009.3776,W,1,9,1.5,14,M,,M,,*53
06/24/2015	10:03:03.595	$GPGGA,100304,2506.0873,N,08009.3770,W,1,8,2.3,14,M,,M,,*55
06/24/2015	10:03:04.555	$GPGGA,100305,2506.0887,N,08009.3766,W,1,8,1.5,14,M,,M,,*5D
06/24/2015	10:03:05.575	$GPGGA,100306,2506.0901,N,08009.3762,W,1,9,1.5,14,M,,M,,*54
06/24/2015	10:03:06.544	$GPGGA,100307,2506.0915,N,08009.3758,W,1,9,1.5,14,M,,M,,*59
06/24/2015	10:03:07.594	$GPGGA,100308,2506.0929,N,08009.3753,W,1,9,1.5,14,M,,M,,*52
06/24/2015	10:03:08.554	$GPGGA,100309,2506.0943,N,08009.3750,W,1,9,1.5,14,M,,M,,*5C
06/24/2015	10:03:09.554	$GPGGA,100310,2506.0958,N,08009.3746,W,1,9,1.5,14,M,,M,,*59
06/24/2015	10:03:10.534	$GPGGA,100311,2506.0970,N,08009.3741,W,1,9,1.5,14,M,,M,,*55
06/24/2015	10:03:11.564	$GPGGA,100312,2506.0983,N,08009.3738,W,1,8,2.3,14,M,,M,,*50
06/24/2015	10:03:12.544	$GPGGA,100313,2506.0998,N,08009.3736,W,1,8,2.3,13,M,,M,,*52
06/24/2015	10:03:13.524	$GPGGA,100314,2506.1012,N,08009.3731,W,1,9,1.5,13,M,,M,,*5C
06/24/2015	10:03:14.544	$GPGGA,100315,2506.1024,N,08009.3726,W,1,9,1.5,13,M,,M,,*5E
06/24/2015	10:03:15.565	$GPGGA,100316,2506.1039,N,08009.3724,W,1,9,1.5,13,M,,M,,*53
06/24/2015	10:03:16.535	$GPGGA,100317,2506.1053,N,08009.3722,W,1,9,1.5,13,M,,M,,*58
06/24/2015	10:03:17.555	$GPGGA,100318,2506.1068,N,08009.3718,W,1,8,1.7,13,M,,M,,*55
06/24/2015	10:03:18.535	$GPGGA,100319,2506.1082,N,08009.3715,W,1,8,1.5,13,M,,M,,*5F
06/24/2015	10:03:19.555	$GPGGA,100320,2506.1095,N,08009.3711,W,1,8,1.7,13,M,,M,,*55
06/24/2015	10:03:20.518	$GPGGA,100321,2506.1107,N,08009.3708,W,1,8,1.5,13,M,,M,,*54
06/24/2015	10:03:21.515	$GPGGA,100322,2506.1121,N,08009.3706,W,1,9,1.5,13,M,,M,,*5C
06/24/2015	10:03:22.525	$GPGGA,100323,2506.1133,N,08009.3703,W,1,9,1.5,13,M,,M,,*5B
06/24/2015	10:03:24.020	$GPGGA,100324,2506.1147,N,08009.3698,W,1,9,1.5,13,M,,M,,*5C
06/24/2015	10:03:24.524	$GPGGA,100325,2506.1161,N,08009.3696,W,1,9,1.5,13,M,,M,,*57
06/24/2015	10:03:25.505	$GPGGA,100326,2506.1175,N,08009.3696,W,1,9,1.5,13,M,,M,,*51
06/24/2015	10:03:26.508	$GPGGA,100327,2506.1190,N,08009.3693,W,1,9,1.5,13,M,,M,,*5E
06/24/2015	10:03:27.528	$GPGGA,100328,2506.1204,N,08009.3690,W,1,9,1.5,13,M,,M,,*5C
06/24/2015	10:03:28.534	$GPGGA,100329,2506.1218,N,08009.3689,W,1,9,1.5,13,M,,M,,*58
06/24/2015	10:03:29.506	$GPGGA,100330,2506.1232,N,08009.3689,W,1,9,1.5,13,M,,M,,*58
06/24/2015	10:03:30.514	$GPGGA,100331,2506.1245,N,08009.3687,W,1,9,1.5,13,M,,M,,*57
06/24/2015	10:03:31.515	$GPGGA,100332,2506.1256,N,08009.3683,W,1,7,2.4,13,M,,M,,*5E
06/24/2015	10:03:32.494	$GPGGA,100333,2506.1270,N,08009.3682,W,1,7,2.3,13,M,,M,,*5D
06/24/2015	10:03:33.608	$GPGGA,100334,2506.1284,N,08009.3680,W,1,8,2.3,13,M,,M,,*5C
06/24/2015	10:03:34.515	$GPGGA,100335,2506.1297,N,08009.3679,W,1,8,1.5,13,M,,M,,*5C
06/24/2015	10:03:35.525	$GPGGA,100336,2506.1310,N,08009.3679,W,1,8,2.3,13,M,,M,,*54
06/24/2015	10:03:36.605	$GPGGA,100337,2506.1324,N,08009.3678,W,1,8,2.4,13,M,,M,,*54
06/24/2015	10:03:38.565	$GPGGA,100338,2506.1338,N,08009.3676,W,1,6,3.3,13,M,,M,,*50
06/24/2015	10:03:38.597	$GPGGA,100339,2506.1350,N,08009.3675,W,1,6,1.6,13,M,,M,,*5B
06/24/2015	10:03:39.505	$GPGGA,100340,2506.1366,N,08009.3673,W,1,7,2.4,13,M,,M,,*56
06/24/2015	10:03:40.595	$GPGGA,100341,2506.1381,N,08009.3674,W,1,7,2.4,13,M,,M,,*59
06/24/2015	10:03:41.494	$GPGGA,100342,2506.1396,N,08009.3673,W,1,9,1.5,13,M,,M,,*57
06/24/2015	10:03:42.574	$GPGGA,100343,2506.1410,N,08009.3672,W,1,9,1.7,13,M,,M,,*5C
06/24/2015	10:03:43.624	$GPGGA,100344,2506.1425,N,08009.3672,W,1,9,1.5,13,M,,M,,*5F
06/24/2015	10:03:44.574	$GPGGA,100345,2506.1440,N,08009.3672,W,1,9,1.6,13,M,,M,,*5E
06/24/2015	10:03:45.574	$GPGGA,100346,2506.1453,N,08009.3674,W,1,9,1.5,13,M,,M,,*5A
06/24/2015	10:03:46.564	$GPGGA,100347,2506.1468,N,08009.3672,W,1,9,1.5,13,M,,M,,*55
06/24/2015	10:03:47.574	$GPGGA,100348,2506.1482,N,08009.3672,W,1,9,1.5,13,M,,M,,*5E
06/24/2015	10:03:48.606	$GPGGA,100349,2506.1494,N,08009.3674,W,1,9,1.5,13,M,,M,,*5E
06/24/2015	10:03:49.584	$GPGGA,100350,2506.1508,N,08009.3674,W,1,9,1.5,13,M,,M,,*52
06/24/2015	10:03:50.565	$GPGGA,100351,2506.1523,N,08009.3674,W,1,9,1.5,13,M,,M,,*5A
06/24/2015	10:03:51.595	$GPGGA,100352,2506.1537,N,08009.3674,W,1,9,1.5,14,M,,M,,*5B
06/24/2015	10:03:52.555	$GPGGA,100353,2506.1550,N,08009.3676,W,1,9,1.6,14,M,,M,,*5A
06/24/2015	10:03:53.575	$GPGGA,100354,2506.1563,N,08009.3678,W,1,9,1.6,14,M,,M,,*53
06/24/2015	10:03:54.545	$GPGGA,100355,2506.1577,N,08009.3677,W,1,9,1.6,14,M,,M,,*58
06/24/2015	10:03:55.595	$GPGGA,100356,2506.1591,N,08009.3678,W,1,9,1.6,14,M,,M,,*5C
06/24/2015	10:03:56.545	$GPGGA,100357,2506.1605,N,08009.3681,W,1,9,1.6,14,M,,M,,*55
06/24/2015	10:03:57.565	$GPGGA,100358,2506.1620,N,08009.3682,W,1,9,1.6,14,M,,M,,*5E
06/24/2015	10:03:58.555	$GPGGA,100359,2506.1634,N,08009.3685,W,1,9,1.6,14,M,,M,,*5D
06/24/2015	10:03:59.584	$GPGGA,100400,2506.1648,N,08009.3689,W,1,9,1.6,14,M,,M,,*51
06/24/2015	10:04:00.544	$GPGGA,100401,2506.1660,N,08009.3692,W,1,9,1.6,14,M,,M,,*50
06/24/2015	10:04:01.524	$GPGGA,100402,2506.1674,N,08009.3694,W,1,9,1.6,14,M,,M,,*50
06/24/2015	10:04:02.544	$GPGGA,100403,2506.1689,N,08009.3699,W,1,9,1.6,14,M,,M,,*5E
06/24/2015	10:04:03.564	$GPGGA,100404,2506.1702,N,08009.3703,W,1,9,1.6,14,M,,M,,*59
06/24/2015	10:04:04.534	$GPGGA,100405,2506.1716,N,08009.3707,W,1,9,1.6,14,M,,M,,*59
06/24/2015	10:04:05.534	$GPGGA,100406,2506.1729,N,08009.3711,W,1,9,1.6,14,M,,M,,*51
06/24/2015	10:04:06.524	$GPGGA,100407,2506.1742,N,08009.3717,W,1,9,1.6,14,M,,M,,*5B
06/24/2015	10:04:07.554	$GPGGA,100408,2506.1754,N,08009.3721,W,1,9,1.6,14,M,,M,,*56
06/24/2015	10:04:08.525	$GPGGA,100409,2506.1767,N,08009.3728,W,1,9,1.6,14,M,,M,,*5E
06/24/2015	10:04:09.515	$GPGGA,100410,2506.1779,N,08009.3732,W,1,9,1.6,14,M,,M,,*52
06/24/2015	10:04:10.535	$GPGGA,100411,2506.1792,N,08009.3739,W,1,9,1.6,14,M,,M,,*5D
06/24/2015	10:04:11.555	$GPGGA,100412,2506.1804,N,08009.3746,W,1,9,1.6,14,M,,M,,*56
06/24/2015	10:04:12.525	$GPGGA,100413,2506.1815,N,08009.3753,W,1,9,1.6,14,M,,M,,*53
06/24/2015	10:04:13.525	$GPGGA,100414,2506.1826,N,08009.3758,W,1,9,1.6,14,M,,M,,*5F
06/24/2015	10:04:14.507	$GPGGA,100415,2506.1837,N,08009.3765,W,1,9,1.6,14,M,,M,,*50
06/24/2015	10:04:15.535	$GPGGA,100416,2506.1850,N,08009.3772,W,1,9,1.6,14,M,,M,,*54
06/24/2015	10:04:16.594	$GPGGA,100417,2506.1859,N,08009.3780,W,1,9,1.6,14,M,,M,,*51
06/24/2015	10:04:17.494	$GPGGA,100418,2506.1870,N,08009.3788,W,1,9,1.6,14,M,,M,,*5D
06/24/2015	10:04:18.504	$GPGGA,100419,2506.1880,N,08009.3795,W,1,9,1.6,14,M,,M,,*5F
06/24/2015	10:04:19.524	$GPGGA,100420,2506.1891,N,08009.3804,W,1,9,1.6,14,M,,M,,*52
06/24/2015	10:04:20.494	$GPGGA,100421,2506.1901,N,08009.3811,W,1,9,1.6,14,M,,M,,*5F
06/24/2015	10:04:21.616	$GPGGA,100422,2506.1909,N,08009.3819,W,1,9,1.6,14,M,,M,,*5C
06/24/2015	10:04:22.505	$GPGGA,100423,2506.1920,N,08009.3829,W,1,9,1.6,14,M,,M,,*55
06/24/2015	10:04:23.606	$GPGGA,100424,2506.1927,N,08009.3837,W,1,9,1.6,14,M,,M,,*5A
06/24/2015	10:04:24.494	$GPGGA,100425,2506.1937,N,08009.3845,W,1,9,1.6,13,M,,M,,*58
06/24/2015	10:04:25.475	$GPGGA,100426,2506.1945,N,08009.3853,W,1,9,1.6,13,M,,M,,*59
06/24/2015	10:04:26.505	$GPGGA,100427,2506.1953,N,08009.3862,W,1,9,1.6,13,M,,M,,*5D
06/24/2015	10:04:27.605	$GPGGA,100428,2506.1960,N,08009.3871,W,1,9,1.6,13,M,,M,,*50
06/24/2015	10:04:28.575	$GPGGA,100429,2506.1967,N,08009.3880,W,1,9,1.6,13,M,,M,,*58
06/24/2015	10:04:29.621	$GPGGA,100430,2506.1974,N,08009.3888,W,1,9,1.6,13,M,,M,,*5A
06/24/2015	10:04:30.485	$GPGGA,100431,2506.1982,N,08009.3898,W,1,9,1.6,13,M,,M,,*53
06/24/2015	10:04:31.495	$GPGGA,100432,2506.1989,N,08009.3906,W,1,9,1.6,13,M,,M,,*5D
06/24/2015	10:04:32.575	$GPGGA,100433,2506.1995,N,08009.3916,W,1,9,1.6,13,M,,M,,*50
06/24/2015	10:04:33.594	$GPGGA,100434,2506.2000,N,08009.3924,W,1,9,1.6,13,M,,M,,*50
06/24/2015	10:04:34.564	$GPGGA,100435,2506.2007,N,08009.3932,W,1,9,2.3,13,M,,M,,*57
06/24/2015	10:04:35.584	$GPGGA,100436,2506.2011,N,08009.3941,W,1,9,1.6,13,M,,M,,*51
06/24/2015	10:04:36.565	$GPGGA,100437,2506.2017,N,08009.3949,W,1,9,1.6,13,M,,M,,*5E
06/24/2015	10:04:37.554	$GPGGA,100438,2506.2023,N,08009.3959,W,1,9,1.6,13,M,,M,,*57
06/24/2015	10:04:38.574	$GPGGA,100439,2506.2027,N,08009.3967,W,1,9,1.6,13,M,,M,,*5F
06/24/2015	10:04:39.584	$GPGGA,100440,2506.2031,N,08009.3974,W,1,9,1.6,13,M,,M,,*54
06/24/2015	10:04:40.554	$GPGGA,100441,2506.2034,N,08009.3983,W,1,9,1.6,13,M,,M,,*58
06/24/2015	10:04:41.565	$GPGGA,100442,2506.2039,N,08009.3992,W,1,9,1.6,13,M,,M,,*56
06/24/2015	10:04:42.544	$GPGGA,100443,2506.2042,N,08009.3999,W,1,9,1.6,13,M,,M,,*50
06/24/2015	10:04:43.585	$GPGGA,100444,2506.2043,N,08009.4007,W,1,9,1.6,13,M,,M,,*5F
06/24/2015	10:04:44.545	$GPGGA,100445,2506.2047,N,08009.4015,W,1,9,1.6,13,M,,M,,*59
06/24/2015	10:04:45.565	$GPGGA,100446,2506.2050,N,08009.4024,W,1,9,1.6,13,M,,M,,*5E
06/24/2015	10:04:46.545	$GPGGA,100447,2506.2053,N,08009.4032,W,1,9,1.6,13,M,,M,,*5B
06/24/2015	10:04:47.545	$GPGGA,100448,2506.2054,N,08009.4037,W,1,9,1.6,13,M,,M,,*56
06/24/2015	10:04:48.535	$GPGGA,100449,2506.2054,N,08009.4044,W,1,9,1.6,13,M,,M,,*53
06/24/2015	10:04:49.525	$GPGGA,100450,2506.2057,N,08009.4053,W,1,9,1.6,12,M,,M,,*5F
06/24/2015	10:04:50.535	$GPGGA,100451,2506.2057,N,08009.4059,W,1,9,1.6,12,M,,M,,*54
06/24/2015	10:04:51.894	$GPGGA,100452,2506.2058,N,08009.4066,W,1,9,1.6,12,M,,M,,*54
06/24/2015	10:04:52.534	$GPGGA,100453,2506.2060,N,08009.4075,W,1,9,1.6,12,M,,M,,*5C
06/24/2015	10:04:53.544	$GPGGA,100454,2506.2061,N,08009.4080,W,1,9,1.6,12,M,,M,,*50
06/24/2015	10:04:54.518	$GPGGA,100455,2506.2059,N,08009.4086,W,1,9,1.6,12,M,,M,,*5C
06/24/2015	10:04:55.564	$GPGGA,100456,2506.2061,N,08009.4093,W,1,9,1.6,12,M,,M,,*50
06/24/2015	10:04:56.534	$GPGGA,100457,2506.2061,N,08009.4101,W,1,9,1.6,12,M,,M,,*5B
06/24/2015	10:04:57.544	$GPGGA,100458,2506.2059,N,08009.4108,W,1,9,1.6,12,M,,M,,*56
06/24/2015	10:04:58.524	$GPGGA,100459,2506.2058,N,08009.4115,W,1,9,1.6,12,M,,M,,*5A
06/24/2015	10:04:59.544	$GPGGA,100500,2506.2058,N,08009.4123,W,1,9,1.6,12,M,,M,,*52
06/24/2015	10:05:00.505	$GPGGA,100501,2506.2058,N,08009.4129,W,1,9,1.6,12,M,,M,,*59
06/24/2015	10:05:01.618	$GPGGA,100502,2506.2057,N,08009.4137,W,1,9,1.6,12,M,,M,,*5A
06/24/2015	10:05:02.627	$GPGGA,100503,2506.2057,N,08009.4144,W,1,9,1.6,12,M,,M,,*5F
06/24/2015	10:05:03.635	$GPGGA,100504,2506.2054,N,08009.4154,W,1,9,1.6,12,M,,M,,*5A
06/24/2015	10:05:04.508	$GPGGA,100505,2506.2054,N,08009.4159,W,1,9,2.3,12,M,,M,,*50
06/24/2015	10:05:05.619	$GPGGA,100506,2506.2052,N,08009.4169,W,1,9,1.6,12,M,,M,,*50
06/24/2015	10:05:06.506	$GPGGA,100507,2506.2054,N,08009.4176,W,1,9,1.6,12,M,,M,,*59
06/24/2015	10:05:07.625	$GPGGA,100508,2506.2052,N,08009.4184,W,1,9,1.6,12,M,,M,,*5D
06/24/2015	10:05:08.485	$GPGGA,100509,2506.2050,N,08009.4191,W,1,9,1.6,12,M,,M,,*5A
06/24/2015	10:05:09.594	$GPGGA,100510,2506.2050,N,08009.4199,W,1,9,1.6,12,M,,M,,*5A
06/24/2015	10:05:10.504	$GPGGA,100511,2506.2052,N,08009.4207,W,1,9,1.6,12,M,,M,,*5D
06/24/2015	10:05:11.504	$GPGGA,100512,2506.2050,N,08009.4216,W,1,9,1.6,12,M,,M,,*5C
06/24/2015	10:05:12.574	$GPGGA,100513,2506.2049,N,08009.4223,W,1,9,1.6,12,M,,M,,*53
06/24/2015	10:05:13.574	$GPGGA,100514,2506.2050,N,08009.4232,W,1,9,1.6,12,M,,M,,*5C
06/24/2015	10:05:14.484	$GPGGA,100515,2506.2052,N,08009.4241,W,1,9,1.6,12,M,,M,,*5B
06/24/2015	10:05:15.484	$GPGGA,100516,2506.2050,N,08009.4252,W,1,9,1.6,12,M,,M,,*58
06/24/2015	10:05:16.564	$GPGGA,100517,2506.2050,N,08009.4260,W,1,9,1.6,12,M,,M,,*58
06/24/2015	10:05:17.474	$GPGGA,100518,2506.2050,N,08009.4270,W,1,9,1.6,12,M,,M,,*56
06/24/2015	10:05:18.554	$GPGGA,100519,2506.2053,N,08009.4281,W,1,9,1.6,12,M,,M,,*5A
06/24/2015	10:05:19.564	$GPGGA,100520,2506.2052,N,08009.4290,W,1,9,1.6,12,M,,M,,*51
06/24/2015	10:05:20.554	$GPGGA,100521,2506.2053,N,08009.4299,W,1,9,1.6,12,M,,M,,*58
06/24/2015	10:05:21.554	$GPGGA,100522,2506.2052,N,08009.4310,W,1,9,1.6,12,M,,M,,*5A
06/24/2015	10:05:22.554	$GPGGA,100523,2506.2054,N,08009.4321,W,1,9,1.6,12,M,,M,,*5F
06/24/2015	10:05:23.574	$GPGGA,100524,2506.2056,N,08009.4331,W,1,9,1.6,12,M,,M,,*5B
06/24/2015	10:05:24.544	$GPGGA,100525,2506.2054,N,08009.4340,W,1,9,1.6,12,M,,M,,*5E
06/24/2015	10:05:25.544	$GPGGA,100526,2506.2057,N,08009.4351,W,1,9,1.6,12,M,,M,,*5E
06/24/2015	10:05:26.553	$GPGGA,100527,2506.2058,N,08009.4362,W,1,9,1.6,12,M,,M,,*50
06/24/2015	10:05:27.611	$GPGGA,100528,2506.2058,N,08009.4372,W,1,9,1.6,12,M,,M,,*5E
06/24/2015	10:05:28.544	$GPGGA,100529,2506.2060,N,08009.4383,W,1,9,1.6,12,M,,M,,*5A
06/24/2015	10:05:29.554	$GPGGA,100530,2506.2061,N,08009.4394,W,1,9,1.6,12,M,,M,,*55
06/24/2015	10:05:30.544	$GPGGA,100531,2506.2063,N,08009.4405,W,1,9,1.6,12,M,,M,,*59
06/24/2015	10:05:31.584	$GPGGA,100532,2506.2064,N,08009.4416,W,1,9,1.6,12,M,,M,,*5F
06/24/2015	10:05:32.534	$GPGGA,100533,2506.2065,N,08009.4427,W,1,9,1.6,12,M,,M,,*5D
06/24/2015	10:05:33.524	$GPGGA,100534,2506.2067,N,08009.4438,W,1,9,1.6,12,M,,M,,*56
06/24/2015	10:05:34.535	$GPGGA,100535,2506.2068,N,08009.4451,W,1,9,1.6,12,M,,M,,*57
06/24/2015	10:05:35.534	$GPGGA,100536,2506.2068,N,08009.4462,W,1,9,1.6,12,M,,M,,*54
06/24/2015	10:05:36.524	$GPGGA,100537,2506.2071,N,08009.4473,W,1,9,1.6,12,M,,M,,*5D
06/24/2015	10:05:37.554	$GPGGA,100538,2506.2072,N,08009.4485,W,1,9,1.6,12,M,,M,,*58
06/24/2015	10:05:38.524	$GPGGA,100539,2506.2072,N,08009.4496,W,1,9,1.6,12,M,,M,,*5B
06/24/2015	10:05:39.564	$GPGGA,100540,2506.2072,N,08009.4508,W,1,9,1.6,12,M,,M,,*53
06/24/2015	10:05:40.514	$GPGGA,100541,2506.2075,N,08009.4519,W,1,9,1.6,12,M,,M,,*55
06/24/2015	10:05:41.514	$GPGGA,100542,2506.2076,N,08009.4530,W,1,9,1.6,11,M,,M,,*5D
06/24/2015	10:05:42.524	$GPGGA,100543,2506.2076,N,08009.4541,W,1,9,1.6,11,M,,M,,*5A
06/24/2015	10:05:43.553	$GPGGA,100544,2506.2078,N,08009.4552,W,1,9,1.6,11,M,,M,,*51
06/24/2015	10:05:44.507	$GPGGA,100545,2506.2077,N,08009.4563,W,1,9,1.6,11,M,,M,,*5D
06/24/2015	10:05:45.507	$GPGGA,100546,2506.2079,N,08009.4574,W,1,9,1.6,11,M,,M,,*56
06/24/2015	10:05:46.506	$GPGGA,100547,2506.2083,N,08009.4586,W,1,9,1.6,11,M,,M,,*5F
06/24/2015	10:05:47.534	$GPGGA,100548,2506.2081,N,08009.4597,W,1,9,1.6,11,M,,M,,*52
06/24/2015	10:05:48.508	$GPGGA,100549,2506.2082,N,08009.4608,W,1,9,1.6,11,M,,M,,*55
06/24/2015	10:05:49.514	$GPGGA,100550,2506.2083,N,08009.4620,W,1,9,1.6,11,M,,M,,*56
06/24/2015	10:05:50.504	$GPGGA,100551,2506.2085,N,08009.4631,W,1,9,1.6,11,M,,M,,*51
06/24/2015	10:05:51.494	$GPGGA,100552,2506.2084,N,08009.4642,W,1,9,1.6,11,M,,M,,*57
06/24/2015	10:05:52.510	$GPGGA,100553,2506.2086,N,08009.4653,W,1,9,1.6,11,M,,M,,*54
06/24/2015	10:05:53.507	$GPGGA,100554,2506.2086,N,08009.4664,W,1,9,1.6,11,M,,M,,*57
06/24/2015	10:05:54.506	$GPGGA,100555,2506.2085,N,08009.4673,W,1,9,1.6,11,M,,M,,*53
06/24/2015	10:05:55.544	$GPGGA,100556,2506.2086,N,08009.4686,W,1,9,1.6,11,M,,M,,*59
06/24/2015	10:05:56.484	$GPGGA,100557,2506.2087,N,08009.4697,W,1,9,1.6,11,M,,M,,*59
06/24/2015	10:05:57.474	$GPGGA,100558,2506.2089,N,08009.4707,W,1,9,1.6,11,M,,M,,*50
06/24/2015	10:05:58.596	$GPGGA,100559,2506.2087,N,08009.4715,W,1,9,1.6,11,M,,M,,*5C
06/24/2015	10:05:59.514	$GPGGA,100600,2506.2089,N,08009.4727,W,1,9,1.6,11,M,,M,,*5C
06/24/2015	10:06:00.584	$GPGGA,100601,2506.2090,N,08009.4740,W,1,9,1.6,11,M,,M,,*54
06/24/2015	10:06:01.463	$GPGGA,100602,2506.2090,N,08009.4751,W,1,9,1.6,11,M,,M,,*57
06/24/2015	10:06:02.563	$GPGGA,100603,2506.2088,N,08009.4761,W,1,9,1.6,11,M,,M,,*5C
06/24/2015	10:06:03.610	$GPGGA,100604,2506.2089,N,08009.4772,W,1,9,1.6,11,M,,M,,*58
06/24/2015	10:06:04.574	$GPGGA,100605,2506.2092,N,08009.4783,W,1,9,1.6,11,M,,M,,*5D
06/24/2015	10:06:05.584	$GPGGA,100606,2506.2091,N,08009.4794,W,1,9,1.6,11,M,,M,,*5B
06/24/2015	10:06:06.564	$GPGGA,100607,2506.2090,N,08009.4805,W,1,9,1.6,11,M,,M,,*5C
06/24/2015	10:06:07.474	$GPGGA,100608,2506.2090,N,08009.4814,W,1,9,1.6,11,M,,M,,*53
06/24/2015	10:06:08.564	$GPGGA,100609,2506.2090,N,08009.4826,W,1,9,1.6,10,M,,M,,*52
06/24/2015	10:06:09.574	$GPGGA,100610,2506.2090,N,08009.4837,W,1,9,1.6,10,M,,M,,*5A
06/24/2015	10:06:10.554	$GPGGA,100611,2506.2090,N,08009.4845,W,1,9,1.6,10,M,,M,,*5E
06/24/2015	10:06:11.594	$GPGGA,100612,2506.2087,N,08009.4855,W,1,9,1.6,10,M,,M,,*5A
06/24/2015	10:06:12.554	$GPGGA,100613,2506.2086,N,08009.4866,W,1,9,1.6,10,M,,M,,*5A
06/24/2015	10:06:13.564	$GPGGA,100614,2506.2087,N,08009.4877,W,1,9,1.6,10,M,,M,,*5C
06/24/2015	10:06:14.544	$GPGGA,100615,2506.2086,N,08009.4886,W,1,9,1.6,10,M,,M,,*52
06/24/2015	10:06:15.597	$GPGGA,100616,2506.2085,N,08009.4895,W,1,9,1.6,10,M,,M,,*50
06/24/2015	10:06:16.534	$GPGGA,100617,2506.2086,N,08009.4906,W,1,9,1.6,10,M,,M,,*59
06/24/2015	10:06:17.554	$GPGGA,100618,2506.2086,N,08009.4917,W,1,9,1.6,10,M,,M,,*56
06/24/2015	10:06:18.533	$GPGGA,100619,2506.2084,N,08009.4928,W,1,9,1.6,10,M,,M,,*59
06/24/2015	10:06:19.607	$GPGGA,100620,2506.2083,N,08009.4938,W,1,9,1.6,10,M,,M,,*55
06/24/2015	10:06:20.534	$GPGGA,100621,2506.2085,N,08009.4949,W,1,9,1.6,10,M,,M,,*54
06/24/2015	10:06:21.534	$GPGGA,100622,2506.2084,N,08009.4960,W,1,9,1.6,10,M,,M,,*5D
06/24/2015	10:06:22.524	$GPGGA,100623,2506.2083,N,08009.4969,W,1,9,1.6,10,M,,M,,*52
06/24/2015	10:06:23.554	$GPGGA,100624,2506.2083,N,08009.4980,W,1,9,1.6,10,M,,M,,*52
06/24/2015	10:06:24.524	$GPGGA,100625,2506.2083,N,08009.4991,W,1,9,1.6,10,M,,M,,*53
06/24/2015	10:06:25.554	$GPGGA,100626,2506.2083,N,08009.5003,W,1,9,1.6,10,M,,M,,*53
06/24/2015	10:06:26.524	$GPGGA,100627,2506.2083,N,08009.5014,W,1,9,1.6,10,M,,M,,*54
06/24/2015	10:06:28.014	$GPGGA,100628,2506.2083,N,08009.5025,W,1,9,1.6,10,M,,M,,*59
06/24/2015	10:06:28.554	$GPGGA,100629,2506.2083,N,08009.5036,W,1,9,1.6,10,M,,M,,*5A
06/24/2015	10:06:29.534	$GPGGA,100630,2506.2083,N,08009.5047,W,1,9,1.6,10,M,,M,,*54
06/24/2015	10:06:30.524	$GPGGA,100631,2506.2081,N,08009.5056,W,1,9,1.6,10,M,,M,,*57
06/24/2015	10:06:31.554	$GPGGA,100632,2506.2083,N,08009.5069,W,1,9,1.6,10,M,,M,,*5A
06/24/2015	10:06:32.514	$GPGGA,100633,2506.2083,N,08009.5080,W,1,9,1.6,10,M,,M,,*5C
06/24/2015	10:06:33.514	$GPGGA,100634,2506.2083,N,08009.5090,W,1,9,1.6,10,M,,M,,*5A
06/24/2015	10:06:34.524	$GPGGA,100635,2506.2083,N,08009.5101,W,1,9,1.6,10,M,,M,,*52
06/24/2015	10:06:35.534	$GPGGA,100636,2506.2085,N,08009.5113,W,1,9,1.6,10,M,,M,,*54
06/24/2015	10:06:36.503	$GPGGA,100637,2506.2084,N,08009.5124,W,1,9,1.6,10,M,,M,,*50
06/24/2015	10:06:37.513	$GPGGA,100638,2506.2083,N,08009.5134,W,1,9,1.6,10,M,,M,,*59
06/24/2015	10:06:38.607	$GPGGA,100639,2506.2086,N,08009.5146,W,1,9,1.6,10,M,,M,,*58
06/24/2015	10:06:39.555	$GPGGA,100640,2506.2085,N,08009.5159,W,1,9,1.6,10,M,,M,,*5B
06/24/2015	10:06:40.504	$GPGGA,100641,2506.2084,N,08009.5168,W,1,9,1.6,10,M,,M,,*59
06/24/2015	10:06:41.504	$GPGGA,100642,2506.2086,N,08009.5181,W,1,9,1.6,10,M,,M,,*5F
06/24/2015	10:06:42.495	$GPGGA,100643,2506.2087,N,08009.5191,W,1,9,1.6,10,M,,M,,*5E
06/24/2015	10:06:43.544	$GPGGA,100644,2506.2087,N,08009.5202,W,1,9,1.6,10,M,,M,,*50
06/24/2015	10:06:44.574	$GPGGA,100645,2506.2086,N,08009.5213,W,1,9,1.6,10,M,,M,,*50
06/24/2015	10:06:45.504	$GPGGA,100646,2506.2086,N,08009.5224,W,1,9,1.6,10,M,,M,,*57
06/24/2015	10:06:46.511	$GPGGA,100647,2506.2087,N,08009.5235,W,1,9,1.6,10,M,,M,,*57
06/24/2015	10:06:47.584	$GPGGA,100648,2506.2089,N,08009.5247,W,1,9,1.6,10,M,,M,,*53
06/24/2015	10:06:48.504	$GPGGA,100649,2506.2087,N,08009.5257,W,1,9,1.6,10,M,,M,,*5D
06/24/2015	10:06:49.495	$GPGGA,100650,2506.2086,N,08009.5268,W,1,9,1.6,10,M,,M,,*58
06/24/2015	10:06:50.564	$GPGGA,100651,2506.2089,N,08009.5279,W,1,9,1.6,10,M,,M,,*56
06/24/2015	10:06:51.607	$GPGGA,100652,2506.2090,N,08009.5292,W,1,9,1.6,10,M,,M,,*58
06/24/2015	10:06:52.564	$GPGGA,100653,2506.2088,N,08009.5301,W,1,9,1.6,10,M,,M,,*5B
06/24/2015	10:06:53.573	$GPGGA,100654,2506.2089,N,08009.5312,W,1,9,1.6,10,M,,M,,*5F
06/24/2015	10:06:54.563	$GPGGA,100655,2506.2090,N,08009.5323,W,1,9,1.6,10,M,,M,,*54
06/24/2015	10:06:55.574	$GPGGA,100656,2506.2090,N,08009.5336,W,1,9,1.6,10,M,,M,,*53
06/24/2015	10:06:56.564	$GPGGA,100657,2506.2090,N,08009.5347,W,1,9,1.7,10,M,,M,,*55
06/24/2015	10:06:57.554	$GPGGA,100658,2506.2088,N,08009.5357,W,1,8,1.6,10,M,,M,,*52
06/24/2015	10:06:58.554	$GPGGA,100659,2506.2089,N,08009.5368,W,1,8,1.6,10,M,,M,,*5E
06/24/2015	10:06:59.574	$GPGGA,100700,2506.2090,N,08009.5379,W,1,9,1.6,10,M,,M,,*5A
06/24/2015	10:07:00.554	$GPGGA,100701,2506.2090,N,08009.5390,W,1,9,1.6,10,M,,M,,*5C
06/24/2015	10:07:01.534	$GPGGA,100702,2506.2087,N,08009.5401,W,1,9,1.6,10,M,,M,,*56
06/24/2015	10:07:03.608	$GPGGA,100704,2506.2089,N,08009.5423,W,1,9,1.6,10,M,,M,,*5E
06/24/2015	10:07:04.534	$GPGGA,100705,2506.2088,N,08009.5433,W,1,9,1.6,10,M,,M,,*5F
06/24/2015	10:07:05.564	$GPGGA,100706,2506.2087,N,08009.5444,W,1,9,1.6,10,M,,M,,*53
06/24/2015	10:07:06.534	$GPGGA,100707,2506.2087,N,08009.5455,W,1,9,1.6,10,M,,M,,*52
06/24/2015	10:07:07.564	$GPGGA,100708,2506.2089,N,08009.5466,W,1,9,1.6,10,M,,M,,*53
06/24/2015	10:07:08.534	$GPGGA,100709,2506.2086,N,08009.5477,W,1,9,1.7,10,M,,M,,*5C
06/24/2015	10:07:09.544	$GPGGA,100710,2506.2085,N,08009.5488,W,1,9,1.6,10,M,,M,,*56
06/24/2015	10:07:10.534	$GPGGA,100711,2506.2086,N,08009.5499,W,1,9,1.6,10,M,,M,,*54
06/24/2015	10:07:11.553	$GPGGA,100712,2506.2085,N,08009.5509,W,1,9,1.6,10,M,,M,,*5C
06/24/2015	10:07:12.533	$GPGGA,100713,2506.2084,N,08009.5520,W,1,9,1.6,10,M,,M,,*57
06/24/2015	10:07:13.514	$GPGGA,100714,2506.2086,N,08009.5532,W,1,9,1.6,10,M,,M,,*51
06/24/2015	10:07:14.524	$GPGGA,100715,2506.2085,N,08009.5545,W,1,9,1.6,10,M,,M,,*53
06/24/2015	10:07:15.564	$GPGGA,100716,2506.2086,N,08009.5554,W,1,9,1.6,10,M,,M,,*53
06/24/2015	10:07:16.514	$GPGGA,100717,2506.2086,N,08009.5565,W,1,9,1.6,10,M,,M,,*50
06/24/2015	10:07:17.544	$GPGGA,100718,2506.2086,N,08009.5578,W,1,9,1.6,10,M,,M,,*53
06/24/2015	10:07:18.504	$GPGGA,100719,2506.2086,N,08009.5589,W,1,9,1.6,10,M,,M,,*5C
06/24/2015	10:07:19.634	$GPGGA,100720,2506.2086,N,08009.5600,W,1,9,1.6,10,M,,M,,*54
06/24/2015	10:07:20.497	$GPGGA,100721,2506.2086,N,08009.5611,W,1,9,1.6,10,M,,M,,*55
06/24/2015	10:07:21.534	$GPGGA,100722,2506.2087,N,08009.5621,W,1,9,1.6,10,M,,M,,*54
06/24/2015	10:07:22.495	$GPGGA,100723,2506.2087,N,08009.5633,W,1,9,1.6,10,M,,M,,*56
06/24/2015	10:07:23.524	$GPGGA,100724,2506.2086,N,08009.5643,W,1,9,1.6,10,M,,M,,*57
06/24/2015	10:07:24.511	$GPGGA,100725,2506.2087,N,08009.5655,W,1,9,1.6,10,M,,M,,*50
06/24/2015	10:07:25.524	$GPGGA,100726,2506.2087,N,08009.5666,W,1,9,1.6,10,M,,M,,*53
06/24/2015	10:07:26.506	$GPGGA,100727,2506.2089,N,08009.5676,W,1,9,1.6,10,M,,M,,*5D
06/24/2015	10:07:27.602	$GPGGA,100728,2506.2090,N,08009.5688,W,1,9,1.6,10,M,,M,,*5B
06/24/2015	10:07:28.506	$GPGGA,100729,2506.2090,N,08009.5699,W,1,9,1.6,10,M,,M,,*5A
06/24/2015	10:07:29.623	$GPGGA,100730,2506.2090,N,08009.5710,W,1,9,1.6,10,M,,M,,*52
06/24/2015	10:07:30.497	$GPGGA,100731,2506.2090,N,08009.5722,W,1,9,1.6,10,M,,M,,*52
06/24/2015	10:07:31.514	$GPGGA,100732,2506.2093,N,08009.5733,W,1,9,1.6,10,M,,M,,*52
06/24/2015	10:07:32.497	$GPGGA,100733,2506.2092,N,08009.5744,W,1,9,1.6,10,M,,M,,*52
06/24/2015	10:07:33.574	$GPGGA,100734,2506.2093,N,08009.5755,W,1,9,1.6,10,M,,M,,*54
06/24/2015	10:07:34.484	$GPGGA,100735,2506.2094,N,08009.5766,W,1,9,1.6,10,M,,M,,*52
06/24/2015	10:07:35.609	$GPGGA,100736,2506.2096,N,08009.5777,W,1,9,1.6,10,M,,M,,*53
06/24/2015	10:07:36.484	$GPGGA,100737,2506.2094,N,08009.5788,W,1,9,1.6,10,M,,M,,*50
06/24/2015	10:07:37.574	$GPGGA,100738,2506.2094,N,08009.5798,W,1,9,1.6,10,M,,M,,*5E
06/24/2015	10:07:38.575	$GPGGA,100739,2506.2097,N,08009.5810,W,1,9,1.6,10,M,,M,,*53
06/24/2015	10:07:39.475	$GPGGA,100740,2506.2097,N,08009.5821,W,1,9,1.6,9,M,,M,,*67
06/24/2015	10:07:40.564	$GPGGA,100741,2506.2096,N,08009.5831,W,1,9,1.6,9,M,,M,,*66
06/24/2015	10:07:41.584	$GPGGA,100742,2506.2097,N,08009.5842,W,1,9,1.6,9,M,,M,,*60
06/24/2015	10:07:42.554	$GPGGA,100743,2506.2100,N,08009.5854,W,1,9,1.6,9,M,,M,,*69
06/24/2015	10:07:43.607	$GPGGA,100744,2506.2101,N,08009.5864,W,1,9,1.6,9,M,,M,,*6C
06/24/2015	10:07:44.544	$GPGGA,100745,2506.2099,N,08009.5875,W,1,9,1.6,9,M,,M,,*6D
06/24/2015	10:07:45.574	$GPGGA,100746,2506.2101,N,08009.5886,W,1,9,1.6,9,M,,M,,*62
06/24/2015	10:07:46.543	$GPGGA,100747,2506.2101,N,08009.5896,W,1,9,1.6,9,M,,M,,*62
06/24/2015	10:07:47.573	$GPGGA,100748,2506.2103,N,08009.5907,W,1,9,1.6,9,M,,M,,*66
06/24/2015	10:07:48.545	$GPGGA,100749,2506.2104,N,08009.5918,W,1,9,1.6,9,M,,M,,*6E
06/24/2015	10:07:49.544	$GPGGA,100750,2506.2104,N,08009.5930,W,1,9,1.6,9,M,,M,,*6C
06/24/2015	10:07:50.544	$GPGGA,100751,2506.2104,N,08009.5941,W,1,9,1.6,9,M,,M,,*6B
06/24/2015	10:07:51.574	$GPGGA,100752,2506.2105,N,08009.5951,W,1,9,1.6,9,M,,M,,*68
06/24/2015	10:07:52.534	$GPGGA,100753,2506.2107,N,08009.5962,W,1,9,1.6,9,M,,M,,*6B
06/24/2015	10:07:53.524	$GPGGA,100754,2506.2108,N,08009.5973,W,1,9,1.6,9,M,,M,,*63
06/24/2015	10:07:54.534	$GPGGA,100755,2506.2108,N,08009.5984,W,1,9,1.6,9,M,,M,,*6A
06/24/2015	10:07:55.564	$GPGGA,100756,2506.2110,N,08009.5995,W,1,9,1.6,9,M,,M,,*60
06/24/2015	10:07:56.534	$GPGGA,100757,2506.2111,N,08009.6006,W,1,9,1.6,9,M,,M,,*60
06/24/2015	10:07:57.524	$GPGGA,100758,2506.2110,N,08009.6017,W,1,9,1.6,9,M,,M,,*6E
06/24/2015	10:07:58.524	$GPGGA,100759,2506.2112,N,08009.6029,W,1,9,1.6,9,M,,M,,*60
06/24/2015	10:07:59.564	$GPGGA,100800,2506.2112,N,08009.6038,W,1,9,1.6,9,M,,M,,*63
06/24/2015	10:08:00.524	$GPGGA,100801,2506.2112,N,08009.6049,W,1,9,1.6,9,M,,M,,*64
06/24/2015	10:08:01.514	$GPGGA,100802,2506.2114,N,08009.6060,W,1,9,1.6,9,M,,M,,*6A
06/24/2015	10:08:02.524	$GPGGA,100803,2506.2115,N,08009.6071,W,1,9,1.6,9,M,,M,,*6A
06/24/2015	10:08:03.563	$GPGGA,100804,2506.2114,N,08009.6081,W,1,9,1.6,9,M,,M,,*63
06/24/2015	10:08:04.511	$GPGGA,100805,2506.2115,N,08009.6092,W,1,9,1.6,9,M,,M,,*61
06/24/2015	10:08:05.544	$GPGGA,100806,2506.2114,N,08009.6102,W,1,9,1.6,9,M,,M,,*6B
06/24/2015	10:08:06.514	$GPGGA,100807,2506.2115,N,08009.6113,W,1,9,1.6,9,M,,M,,*6B
06/24/2015	10:08:07.534	$GPGGA,100808,2506.2117,N,08009.6124,W,1,9,1.6,9,M,,M,,*62
06/24/2015	10:08:08.504	$GPGGA,100809,2506.2115,N,08009.6135,W,1,9,1.6,9,M,,M,,*61
06/24/2015	10:08:09.514	$GPGGA,100810,2506.2115,N,08009.6145,W,1,9,1.6,9,M,,M,,*6E
06/24/2015	10:08:10.614	$GPGGA,100811,2506.2118,N,08009.6157,W,1,9,1.6,9,M,,M,,*61
06/24/2015	10:08:11.624	$GPGGA,100812,2506.2117,N,08009.6168,W,1,9,1.6,9,M,,M,,*61
06/24/2015	10:08:12.484	$GPGGA,100813,2506.2116,N,08009.6178,W,1,9,1.6,9,M,,M,,*60
06/24/2015	10:08:13.524	$GPGGA,100814,2506.2117,N,08009.6189,W,1,9,1.6,9,M,,M,,*68
06/24/2015	10:08:14.504	$GPGGA,100815,2506.2118,N,08009.6200,W,1,9,1.6,9,M,,M,,*64
06/24/2015	10:08:15.504	$GPGGA,100816,2506.2115,N,08009.6211,W,1,9,1.6,9,M,,M,,*6A
06/24/2015	10:08:16.484	$GPGGA,100817,2506.2114,N,08009.6221,W,1,9,1.5,9,M,,M,,*6A
06/24/2015	10:08:17.484	$GPGGA,100818,2506.2115,N,08009.6232,W,1,9,1.5,9,M,,M,,*66
06/24/2015	10:08:18.484	$GPGGA,100819,2506.2115,N,08009.6243,W,1,9,1.5,9,M,,M,,*61
06/24/2015	10:08:19.484	$GPGGA,100820,2506.2114,N,08009.6254,W,1,9,1.5,9,M,,M,,*6C
06/24/2015	10:08:20.496	$GPGGA,100821,2506.2115,N,08009.6265,W,1,9,1.5,9,M,,M,,*6E
06/24/2015	10:08:21.483	$GPGGA,100822,2506.2114,N,08009.6277,W,1,9,1.5,9,M,,M,,*6F
06/24/2015	10:08:22.573	$GPGGA,100823,2506.2115,N,08009.6288,W,1,9,1.5,9,M,,M,,*6F
06/24/2015	10:08:23.485	$GPGGA,100824,2506.2113,N,08009.6300,W,1,9,1.5,9,M,,M,,*6F
06/24/2015	10:08:24.574	$GPGGA,100825,2506.2115,N,08009.6311,W,1,9,1.5,9,M,,M,,*68
06/24/2015	10:08:25.594	$GPGGA,100826,2506.2114,N,08009.6322,W,1,9,1.5,9,M,,M,,*6A
06/24/2015	10:08:26.564	$GPGGA,100827,2506.2115,N,08009.6333,W,1,9,1.5,9,M,,M,,*6A
06/24/2015	10:08:27.608	$GPGGA,100828,2506.2119,N,08009.6344,W,1,8,2.1,10,M,,M,,*57
06/24/2015	10:08:28.564	$GPGGA,100829,2506.2121,N,08009.6356,W,1,8,1.5,10,M,,M,,*59
06/24/2015	10:08:29.584	$GPGGA,100830,2506.2122,N,08009.6367,W,1,9,1.5,10,M,,M,,*51
06/24/2015	10:08:30.609	$GPGGA,100831,2506.2121,N,08009.6378,W,1,9,1.5,10,M,,M,,*5D
06/24/2015	10:08:31.574	$GPGGA,100832,2506.2122,N,08009.6391,W,1,9,1.5,10,M,,M,,*5A
06/24/2015	10:08:32.554	$GPGGA,100833,2506.2123,N,08009.6403,W,1,9,1.5,10,M,,M,,*56
06/24/2015	10:08:34.584	$GPGGA,100835,2506.2122,N,08009.6425,W,1,9,1.5,10,M,,M,,*55
06/24/2015	10:08:35.584	$GPGGA,100836,2506.2122,N,08009.6438,W,1,9,1.5,10,M,,M,,*5A
06/24/2015	10:08:36.554	$GPGGA,100837,2506.2125,N,08009.6449,W,1,9,1.5,10,M,,M,,*5A
06/24/2015	10:08:37.544	$GPGGA,100838,2506.2124,N,08009.6461,W,1,9,1.5,11,M,,M,,*5F
06/24/2015	10:08:38.543	$GPGGA,100839,2506.2123,N,08009.6472,W,1,9,1.5,11,M,,M,,*5B
06/24/2015	10:08:39.615	$GPGGA,100840,2506.2125,N,08009.6485,W,1,9,1.5,11,M,,M,,*5B
06/24/2015	10:08:40.544	$GPGGA,100841,2506.2126,N,08009.6496,W,1,9,1.5,11,M,,M,,*5B
06/24/2015	10:08:41.554	$GPGGA,100842,2506.2123,N,08009.6507,W,1,9,1.5,11,M,,M,,*54
06/24/2015	10:08:42.534	$GPGGA,100843,2506.2125,N,08009.6519,W,1,9,1.5,11,M,,M,,*5C
06/24/2015	10:08:43.554	$GPGGA,100844,2506.2126,N,08009.6532,W,1,9,1.5,11,M,,M,,*51
06/24/2015	10:08:44.534	$GPGGA,100845,2506.2126,N,08009.6543,W,1,9,1.5,11,M,,M,,*56
06/24/2015	10:08:45.564	$GPGGA,100846,2506.2124,N,08009.6553,W,1,9,1.5,11,M,,M,,*56
06/24/2015	10:08:46.534	$GPGGA,100847,2506.2126,N,08009.6565,W,1,9,1.5,11,M,,M,,*50
06/24/2015	10:08:47.544	$GPGGA,100848,2506.2126,N,08009.6577,W,1,10,1.5,11,M,,M,,*64
06/24/2015	10:08:48.519	$GPGGA,100849,2506.2128,N,08009.6589,W,1,10,1.5,11,M,,M,,*6A
06/24/2015	10:08:49.554	$GPGGA,100850,2506.2127,N,08009.6600,W,1,10,1.5,11,M,,M,,*6F
06/24/2015	10:08:50.534	$GPGGA,100851,2506.2129,N,08009.6611,W,1,10,1.5,11,M,,M,,*60
06/24/2015	10:08:51.564	$GPGGA,100852,2506.2130,N,08009.6623,W,1,10,1.5,11,M,,M,,*6A
06/24/2015	10:08:52.524	$GPGGA,100853,2506.2130,N,08009.6636,W,1,10,1.5,11,M,,M,,*6F
06/24/2015	10:08:53.534	$GPGGA,100854,2506.2130,N,08009.6647,W,1,10,1.5,11,M,,M,,*6E
06/24/2015	10:08:54.514	$GPGGA,100855,2506.2130,N,08009.6659,W,1,10,1.5,11,M,,M,,*60
06/24/2015	10:08:55.534	$GPGGA,100856,2506.2132,N,08009.6671,W,1,10,1.5,11,M,,M,,*6B
06/24/2015	10:08:56.513	$GPGGA,100857,2506.2131,N,08009.6683,W,1,10,1.5,11,M,,M,,*64
06/24/2015	10:08:57.512	$GPGGA,100858,2506.2132,N,08009.6694,W,1,10,1.5,11,M,,M,,*6E
06/24/2015	10:08:58.644	$GPGGA,100859,2506.2133,N,08009.6705,W,1,10,1.5,11,M,,M,,*67
06/24/2015	10:08:59.704	$GPGGA,100900,2506.2135,N,08009.6719,W,1,10,1.5,11,M,,M,,*61
06/24/2015	10:09:00.524	$GPGGA,100901,2506.2134,N,08009.6730,W,1,10,1.5,11,M,,M,,*6A
06/24/2015	10:09:01.497	$GPGGA,100902,2506.2133,N,08009.6741,W,1,10,1.5,11,M,,M,,*68
06/24/2015	10:09:02.514	$GPGGA,100903,2506.2135,N,08009.6753,W,1,10,1.5,11,M,,M,,*6C
06/24/2015	10:09:03.684	$GPGGA,100904,2506.2137,N,08009.6766,W,1,10,1.5,11,M,,M,,*6F
06/24/2015	10:09:04.634	$GPGGA,100905,2506.2137,N,08009.6777,W,1,10,1.5,11,M,,M,,*6E
06/24/2015	10:09:05.500	$GPGGA,100906,2506.2135,N,08009.6788,W,1,10,1.5,11,M,,M,,*6F
06/24/2015	10:09:06.584	$GPGGA,100907,2506.2136,N,08009.6799,W,1,10,1.5,11,M,,M,,*6D
06/24/2015	10:09:07.694	$GPGGA,100908,2506.2137,N,08009.6811,W,1,10,1.5,11,M,,M,,*6C
06/24/2015	10:09:08.584	$GPGGA,100909,2506.2137,N,08009.6822,W,1,10,1.5,11,M,,M,,*6D
06/24/2015	10:09:09.684	$GPGGA,100910,2506.2137,N,08009.6832,W,1,10,1.5,11,M,,M,,*64
06/24/2015	10:09:10.494	$GPGGA,100911,2506.2137,N,08009.6844,W,1,10,1.5,11,M,,M,,*64
06/24/2015	10:09:11.695	$GPGGA,100912,2506.2139,N,08009.6855,W,1,10,1.5,11,M,,M,,*69
06/24/2015	10:09:12.574	$GPGGA,100913,2506.2138,N,08009.6868,W,1,10,1.5,11,M,,M,,*67
06/24/2015	10:09:13.673	$GPGGA,100914,2506.2139,N,08009.6879,W,1,10,1.5,11,M,,M,,*61
06/24/2015	10:09:14.613	$GPGGA,100915,2506.2140,N,08009.6889,W,1,10,1.5,11,M,,M,,*61
06/24/2015	10:09:15.674	$GPGGA,100916,2506.2138,N,08009.6900,W,1,10,1.5,11,M,,M,,*6D
06/24/2015	10:09:16.619	$GPGGA,100917,2506.2139,N,08009.6911,W,1,10,1.5,11,M,,M,,*6D
06/24/2015	10:09:17.684	$GPGGA,100918,2506.2140,N,08009.6923,W,1,10,1.5,11,M,,M,,*6D
06/24/2015	10:09:18.584	$GPGGA,100919,2506.2139,N,08009.6936,W,1,10,1.5,11,M,,M,,*66
06/24/2015	10:09:19.674	$GPGGA,100920,2506.2138,N,08009.6945,W,1,10,1.5,11,M,,M,,*69
06/24/2015	10:09:20.584	$GPGGA,100921,2506.2139,N,08009.6956,W,1,10,1.5,11,M,,M,,*6B
06/24/2015	10:09:21.664	$GPGGA,100922,2506.2138,N,08009.6967,W,1,10,1.5,11,M,,M,,*6B
06/24/2015	10:09:22.554	$GPGGA,100923,2506.2140,N,08009.6980,W,1,10,1.5,11,M,,M,,*6C
06/24/2015	10:09:23.644	$GPGGA,100924,2506.2138,N,08009.6991,W,1,10,1.5,11,M,,M,,*64
06/24/2015	10:09:25.608	$GPGGA,100926,2506.2137,N,08009.7012,W,1,9,1.6,11,M,,M,,*51
06/24/2015	10:09:26.564	$GPGGA,100927,2506.2139,N,08009.7024,W,1,9,1.5,11,M,,M,,*58
06/24/2015	10:09:27.674	$GPGGA,100928,2506.2138,N,08009.7037,W,1,10,1.5,11,M,,M,,*6C
06/24/2015	10:09:28.534	$GPGGA,100929,2506.2135,N,08009.7048,W,1,10,1.5,11,M,,M,,*68
06/24/2015	10:09:29.644	$GPGGA,100930,2506.2136,N,08009.7059,W,1,10,1.5,11,M,,M,,*63
06/24/2015	10:09:31.053	$GPGGA,100931,2506.2137,N,08009.7070,W,1,10,1.5,11,M,,M,,*68
06/24/2015	10:09:31.653	$GPGGA,100932,2506.2137,N,08009.7082,W,1,10,1.5,11,M,,M,,*66
06/24/2015	10:09:32.523	$GPGGA,100933,2506.2135,N,08009.7093,W,1,10,1.5,11,M,,M,,*65
06/24/2015	10:09:33.524	$GPGGA,100934,2506.2133,N,08009.7104,W,1,10,1.5,11,M,,M,,*6B
06/24/2015	10:09:34.574	$GPGGA,100935,2506.2135,N,08009.7115,W,1,10,1.5,11,M,,M,,*6C
06/24/2015	10:09:35.634	$GPGGA,100936,2506.2134,N,08009.7128,W,1,10,1.5,11,M,,M,,*60
06/24/2015	10:09:36.554	$GPGGA,100937,2506.2133,N,08009.7139,W,1,10,1.5,11,M,,M,,*66
06/24/2015	10:09:37.634	$GPGGA,100938,2506.2133,N,08009.7150,W,1,10,1.5,11,M,,M,,*66
06/24/2015	10:09:38.514	$GPGGA,100939,2506.2133,N,08009.7161,W,1,10,1.5,11,M,,M,,*65
06/24/2015	10:09:39.614	$GPGGA,100940,2506.2133,N,08009.7172,W,1,10,1.5,11,M,,M,,*69
06/24/2015	10:09:40.514	$GPGGA,100941,2506.2133,N,08009.7183,W,1,10,1.5,11,M,,M,,*66
06/24/2015	10:09:41.596	$GPGGA,100942,2506.2132,N,08009.7194,W,1,10,1.5,11,M,,M,,*62
06/24/2015	10:09:42.624	$GPGGA,100943,2506.2133,N,08009.7205,W,1,10,1.5,11,M,,M,,*69
06/24/2015	10:09:43.654	$GPGGA,100944,2506.2133,N,08009.7218,W,1,10,1.5,11,M,,M,,*62
06/24/2015	10:09:44.524	$GPGGA,100945,2506.2132,N,08009.7229,W,1,10,1.5,11,M,,M,,*60
06/24/2015	10:09:45.608	$GPGGA,100946,2506.2133,N,08009.7240,W,1,10,1.5,11,M,,M,,*6D
06/24/2015	10:09:46.534	$GPGGA,100947,2506.2132,N,08009.7251,W,1,10,1.5,11,M,,M,,*6D
06/24/2015	10:09:47.607	$GPGGA,100948,2506.2133,N,08009.7263,W,1,10,1.5,11,M,,M,,*62
06/24/2015	10:09:48.533	$GPGGA,100949,2506.2131,N,08009.7274,W,1,10,2.1,11,M,,M,,*60
06/24/2015	10:09:49.573	$GPGGA,100950,2506.2133,N,08009.7287,W,1,9,1.5,11,M,,M,,*59
06/24/2015	10:09:50.524	$GPGGA,100951,2506.2135,N,08009.7298,W,1,9,1.5,11,M,,M,,*50
06/24/2015	10:09:51.634	$GPGGA,100952,2506.2136,N,08009.7309,W,1,10,1.5,11,M,,M,,*61
06/24/2015	10:09:52.534	$GPGGA,100953,2506.2137,N,08009.7319,W,1,10,1.5,11,M,,M,,*60
06/24/2015	10:09:53.584	$GPGGA,100954,2506.2140,N,08009.7331,W,1,10,1.5,11,M,,M,,*6D
06/24/2015	10:09:54.584	$GPGGA,100955,2506.2141,N,08009.7344,W,1,10,1.5,11,M,,M,,*6F
06/24/2015	10:09:55.624	$GPGGA,100956,2506.2141,N,08009.7353,W,1,10,1.5,11,M,,M,,*6A
06/24/2015	10:09:56.584	$GPGGA,100957,2506.2141,N,08009.7364,W,1,10,1.5,11,M,,M,,*6F
06/24/2015	10:09:57.614	$GPGGA,100958,2506.2144,N,08009.7377,W,1,10,1.5,11,M,,M,,*67
06/24/2015	10:09:58.574	$GPGGA,100959,2506.2144,N,08009.7388,W,1,10,1.5,11,M,,M,,*66
06/24/2015	10:09:59.595	$GPGGA,101000,2506.2146,N,08009.7399,W,1,10,1.5,11,M,,M,,*60
06/24/2015	10:10:00.574	$GPGGA,101001,2506.2145,N,08009.7410,W,1,10,1.5,12,M,,M,,*67
06/24/2015	10:10:01.584	$GPGGA,101002,2506.2146,N,08009.7422,W,1,10,1.5,12,M,,M,,*66
06/24/2015	10:10:02.574	$GPGGA,101003,2506.2144,N,08009.7433,W,1,10,2.1,12,M,,M,,*62
06/24/2015	10:10:03.614	$GPGGA,101004,2506.2146,N,08009.7444,W,1,9,1.5,12,M,,M,,*58
06/24/2015	10:10:04.564	$GPGGA,101005,2506.2145,N,08009.7457,W,1,9,1.5,12,M,,M,,*58
06/24/2015	10:10:05.564	$GPGGA,101006,2506.2144,N,08009.7467,W,1,10,1.5,12,M,,M,,*61
06/24/2015	10:10:06.563	$GPGGA,101007,2506.2146,N,08009.7478,W,1,10,1.5,12,M,,M,,*6C
06/24/2015	10:10:07.608	$GPGGA,101008,2506.2147,N,08009.7490,W,1,10,1.5,12,M,,M,,*64
06/24/2015	10:10:08.565	$GPGGA,101009,2506.2146,N,08009.7501,W,1,10,1.5,12,M,,M,,*6D
06/24/2015	10:10:09.644	$GPGGA,101010,2506.2147,N,08009.7514,W,1,10,1.5,12,M,,M,,*60
06/24/2015	10:10:10.554	$GPGGA,101011,2506.2146,N,08009.7525,W,1,10,1.5,12,M,,M,,*62
06/24/2015	10:10:11.605	$GPGGA,101012,2506.2147,N,08009.7536,W,1,10,1.5,12,M,,M,,*62
06/24/2015	10:10:12.544	$GPGGA,101013,2506.2148,N,08009.7548,W,1,10,1.5,12,M,,M,,*65
06/24/2015	10:10:13.584	$GPGGA,101014,2506.2148,N,08009.7559,W,1,10,1.5,12,M,,M,,*62
06/24/2015	10:10:14.545	$GPGGA,101015,2506.2148,N,08009.7572,W,1,10,1.6,12,M,,M,,*69
06/24/2015	10:10:15.584	$GPGGA,101016,2506.2148,N,08009.7583,W,1,9,1.6,12,M,,M,,*5C
06/24/2015	10:10:16.554	$GPGGA,101017,2506.2151,N,08009.7595,W,1,9,1.6,12,M,,M,,*52
06/24/2015	10:10:17.564	$GPGGA,101018,2506.2149,N,08009.7606,W,1,9,1.5,12,M,,M,,*5E
06/24/2015	10:10:18.544	$GPGGA,101019,2506.2150,N,08009.7617,W,1,9,1.5,12,M,,M,,*57
06/24/2015	10:10:19.603	$GPGGA,101020,2506.2151,N,08009.7630,W,1,10,1.5,12,M,,M,,*61
06/24/2015	10:10:20.544	$GPGGA,101021,2506.2150,N,08009.7641,W,1,10,1.5,12,M,,M,,*67
06/24/2015	10:10:21.597	$GPGGA,101022,2506.2151,N,08009.7653,W,1,10,1.6,12,M,,M,,*65
06/24/2015	10:10:22.534	$GPGGA,101023,2506.2151,N,08009.7664,W,1,10,1.5,12,M,,M,,*63
06/24/2015	10:10:23.607	$GPGGA,101024,2506.2152,N,08009.7677,W,1,10,1.5,12,M,,M,,*65
06/24/2015	10:10:24.533	$GPGGA,101025,2506.2152,N,08009.7677,W,1,10,1.5,12,M,,M,,*64
06/24/2015	10:10:25.544	$GPGGA,101026,2506.2152,N,08009.7688,W,1,10,1.5,12,M,,M,,*67
06/24/2015	10:10:26.534	$GPGGA,101027,2506.2153,N,08009.7713,W,1,10,1.5,12,M,,M,,*64
06/24/2015	10:10:27.605	$GPGGA,101028,2506.2155,N,08009.7724,W,1,10,1.5,12,M,,M,,*69
06/24/2015	10:10:29.554	$GPGGA,101030,2506.2155,N,08009.7735,W,1,9,1.6,12,M,,M,,*5B
06/24/2015	10:10:30.544	$GPGGA,101031,2506.2156,N,08009.7760,W,1,9,1.5,12,M,,M,,*5A
06/24/2015	10:10:31.654	$GPGGA,101032,2506.2157,N,08009.7771,W,1,10,1.5,12,M,,M,,*60
06/24/2015	10:10:32.534	$GPGGA,101033,2506.2157,N,08009.7771,W,1,10,1.5,12,M,,M,,*61
06/24/2015	10:10:33.564	$GPGGA,101034,2506.2159,N,08009.7794,W,1,10,1.6,12,M,,M,,*60
06/24/2015	10:10:34.524	$GPGGA,101035,2506.2159,N,08009.7807,W,1,10,1.6,12,M,,M,,*64
06/24/2015	10:10:35.524	$GPGGA,101036,2506.2159,N,08009.7807,W,1,9,1.6,12,M,,M,,*5F
06/24/2015	10:10:36.514	$GPGGA,101037,2506.2157,N,08009.7829,W,1,9,1.5,12,M,,M,,*5F
06/24/2015	10:10:37.564	$GPGGA,101038,2506.2155,N,08009.7840,W,1,10,2.1,12,M,,M,,*62
06/24/2015	10:10:38.598	$GPGGA,101039,2506.2155,N,08009.7851,W,1,10,2.1,12,M,,M,,*63
06/24/2015	10:10:39.524	$GPGGA,101040,2506.2155,N,08009.7851,W,1,10,1.5,12,M,,M,,*6A
06/24/2015	10:10:40.584	$GPGGA,101041,2506.2155,N,08009.7874,W,1,10,1.5,12,M,,M,,*6C
06/24/2015	10:10:41.604	$GPGGA,101042,2506.2158,N,08009.7887,W,1,10,1.5,12,M,,M,,*6E
06/24/2015	10:10:42.583	$GPGGA,101043,2506.2157,N,08009.7897,W,1,10,1.5,12,M,,M,,*61
06/24/2015	10:10:43.509	$GPGGA,101044,2506.2157,N,08009.7897,W,1,10,1.5,12,M,,M,,*66
06/24/2015	10:10:44.494	$GPGGA,101045,2506.2157,N,08009.7921,W,1,10,1.5,12,M,,M,,*6B
06/24/2015	10:10:45.584	$GPGGA,101046,2506.2159,N,08009.7934,W,1,9,2.1,13,M,,M,,*5C
06/24/2015	10:10:46.574	$GPGGA,101047,2506.2159,N,08009.7945,W,1,9,1.5,13,M,,M,,*5C
06/24/2015	10:10:47.608	$GPGGA,101048,2506.2159,N,08009.7957,W,1,10,1.5,13,M,,M,,*68
06/24/2015	10:10:48.564	$GPGGA,101049,2506.2159,N,08009.7969,W,1,10,1.5,13,M,,M,,*64
06/24/2015	10:10:50.617	$GPGGA,101051,2506.2162,N,08009.7993,W,1,10,1.6,13,M,,M,,*63
06/24/2015	10:10:51.614	$GPGGA,101052,2506.2164,N,08009.8006,W,1,10,1.5,13,M,,M,,*6F
06/24/2015	10:10:52.564	$GPGGA,101053,2506.2162,N,08009.8016,W,1,10,1.5,13,M,,M,,*69
06/24/2015	10:10:53.574	$GPGGA,101054,2506.2162,N,08009.8027,W,1,10,1.5,13,M,,M,,*6C
06/24/2015	10:10:54.564	$GPGGA,101055,2506.2165,N,08009.8038,W,1,10,1.5,13,M,,M,,*64
06/24/2015	10:10:55.610	$GPGGA,101056,2506.2166,N,08009.8050,W,1,10,1.5,13,M,,M,,*6A
06/24/2015	10:10:56.554	$GPGGA,101057,2506.2166,N,08009.8061,W,1,10,1.5,13,M,,M,,*69
06/24/2015	10:10:57.584	$GPGGA,101058,2506.2164,N,08009.8071,W,1,10,1.5,13,M,,M,,*65
06/24/2015	10:10:58.543	$GPGGA,101059,2506.2166,N,08009.8083,W,1,10,1.5,13,M,,M,,*6B
06/24/2015	10:10:59.583	$GPGGA,101100,2506.2169,N,08009.8096,W,1,10,1.5,13,M,,M,,*6D
06/24/2015	10:11:00.554	$GPGGA,101101,2506.2166,N,08009.8107,W,1,10,1.5,13,M,,M,,*6A
06/24/2015	10:11:01.564	$GPGGA,101102,2506.2166,N,08009.8116,W,1,9,1.5,13,M,,M,,*51
06/24/2015	10:11:02.554	$GPGGA,101103,2506.2166,N,08009.8128,W,1,9,1.5,13,M,,M,,*5D
06/24/2015	10:11:03.564	$GPGGA,101104,2506.2164,N,08009.8139,W,1,10,1.5,13,M,,M,,*60
06/24/2015	10:11:04.544	$GPGGA,101105,2506.2163,N,08009.8150,W,1,10,1.5,13,M,,M,,*69
06/24/2015	10:11:05.564	$GPGGA,101106,2506.2164,N,08009.8159,W,1,10,1.5,13,M,,M,,*64
06/24/2015	10:11:06.534	$GPGGA,101107,2506.2162,N,08009.8170,W,1,10,1.5,13,M,,M,,*68
06/24/2015	10:11:07.574	$GPGGA,101108,2506.2161,N,08009.8180,W,1,9,1.6,13,M,,M,,*50
06/24/2015	10:11:08.534	$GPGGA,101109,2506.2159,N,08009.8193,W,1,9,1.5,13,M,,M,,*5B
06/24/2015	10:11:09.524	$GPGGA,101110,2506.2159,N,08009.8204,W,1,10,1.5,13,M,,M,,*66
06/24/2015	10:11:10.624	$GPGGA,101111,2506.2159,N,08009.8215,W,1,10,1.5,13,M,,M,,*67
06/24/2015	10:11:11.533	$GPGGA,101112,2506.2159,N,08009.8226,W,1,10,1.5,13,M,,M,,*64
06/24/2015	10:11:12.503	$GPGGA,101113,2506.2157,N,08009.8237,W,1,10,1.5,13,M,,M,,*6B
06/24/2015	10:11:13.513	$GPGGA,101114,2506.2158,N,08009.8248,W,1,10,1.5,13,M,,M,,*6B
06/24/2015	10:11:14.503	$GPGGA,101115,2506.2156,N,08009.8259,W,1,10,1.5,13,M,,M,,*64
06/24/2015	10:11:15.533	$GPGGA,101116,2506.2155,N,08009.8270,W,1,10,1.5,13,M,,M,,*6F
06/24/2015	10:11:16.622	$GPGGA,101117,2506.2155,N,08009.8282,W,1,10,1.5,13,M,,M,,*63
06/24/2015	10:11:17.522	$GPGGA,101118,2506.2155,N,08009.8295,W,1,10,1.5,13,M,,M,,*6A
06/24/2015	10:11:18.497	$GPGGA,101119,2506.2155,N,08009.8306,W,1,10,1.5,13,M,,M,,*60
06/24/2015	10:11:19.522	$GPGGA,101120,2506.2152,N,08009.8316,W,1,10,1.5,13,M,,M,,*6C
06/24/2015	10:11:20.493	$GPGGA,101121,2506.2152,N,08009.8328,W,1,10,1.5,13,M,,M,,*60
06/24/2015	10:11:21.612	$GPGGA,101122,2506.2152,N,08009.8339,W,1,10,1.5,13,M,,M,,*63
06/24/2015	10:11:22.493	$GPGGA,101123,2506.2151,N,08009.8350,W,1,10,1.5,13,M,,M,,*6E
06/24/2015	10:11:23.598	$GPGGA,101124,2506.2152,N,08009.8363,W,1,10,1.5,13,M,,M,,*6A
06/24/2015	10:11:24.502	$GPGGA,101125,2506.2150,N,08009.8374,W,1,10,1.5,13,M,,M,,*6F
06/24/2015	10:11:25.612	$GPGGA,101126,2506.2151,N,08009.8385,W,1,10,1.5,13,M,,M,,*63
06/24/2015	10:11:26.586	$GPGGA,101127,2506.2151,N,08009.8397,W,1,10,1.5,13,M,,M,,*61
06/24/2015	10:11:27.632	$GPGGA,101128,2506.2151,N,08009.8408,W,1,10,1.5,13,M,,M,,*6F
06/24/2015	10:11:28.899	$GPGGA,101129,2506.2150,N,08009.8419,W,1,10,1.5,13,M,,M,,*6F
06/24/2015	10:11:29.503	$GPGGA,101130,2506.2149,N,08009.8430,W,1,10,1.5,12,M,,M,,*65
06/24/2015	10:11:30.584	$GPGGA,101131,2506.2148,N,08009.8443,W,1,10,2.1,12,M,,M,,*66
06/24/2015	10:11:31.595	$GPGGA,101132,2506.2144,N,08009.8454,W,1,9,2.1,12,M,,M,,*57
06/24/2015	10:11:32.597	$GPGGA,101133,2506.2144,N,08009.8466,W,1,9,1.5,12,M,,M,,*50
06/24/2015	10:11:33.586	$GPGGA,101134,2506.2146,N,08009.8477,W,1,10,1.5,12,M,,M,,*6D
06/24/2015	10:11:34.572	$GPGGA,101135,2506.2145,N,08009.8490,W,1,10,1.5,12,M,,M,,*66
06/24/2015	10:11:35.585	$GPGGA,101136,2506.2147,N,08009.8501,W,1,10,1.5,12,M,,M,,*6E
06/24/2015	10:11:36.562	$GPGGA,101137,2506.2148,N,08009.8512,W,1,10,1.5,12,M,,M,,*62
06/24/2015	10:11:37.572	$GPGGA,101138,2506.2151,N,08009.8523,W,1,10,1.5,12,M,,M,,*67
06/24/2015	10:11:38.553	$GPGGA,101139,2506.2151,N,08009.8534,W,1,10,1.5,12,M,,M,,*60
06/24/2015	10:11:39.586	$GPGGA,101140,2506.2152,N,08009.8546,W,1,10,1.5,12,M,,M,,*68
06/24/2015	10:11:40.552	$GPGGA,101141,2506.2155,N,08009.8560,W,1,10,1.5,12,M,,M,,*6A
06/24/2015	10:11:41.572	$GPGGA,101142,2506.2155,N,08009.8571,W,1,10,1.5,12,M,,M,,*69
06/24/2015	10:11:42.552	$GPGGA,101143,2506.2155,N,08009.8582,W,1,10,1.5,12,M,,M,,*64
06/24/2015	10:11:43.593	$GPGGA,101144,2506.2159,N,08009.8595,W,1,10,1.5,12,M,,M,,*69
06/24/2015	10:11:44.552	$GPGGA,101145,2506.2161,N,08009.8607,W,1,10,1.5,12,M,,M,,*6B
06/24/2015	10:11:45.563	$GPGGA,101146,2506.2162,N,08009.8618,W,1,10,1.5,12,M,,M,,*65
06/24/2015	10:11:46.543	$GPGGA,101147,2506.2161,N,08009.8631,W,1,10,1.5,12,M,,M,,*6C
06/24/2015	10:11:47.573	$GPGGA,101148,2506.2162,N,08009.8643,W,1,10,1.5,12,M,,M,,*65
06/24/2015	10:11:48.543	$GPGGA,101149,2506.2165,N,08009.8656,W,1,10,1.5,12,M,,M,,*67
06/24/2015	10:11:49.523	$GPGGA,101150,2506.2166,N,08009.8667,W,1,10,1.5,12,M,,M,,*6E
06/24/2015	10:11:50.533	$GPGGA,101151,2506.2166,N,08009.8678,W,1,10,1.5,12,M,,M,,*61
06/24/2015	10:11:51.562	$GPGGA,101152,2506.2168,N,08009.8690,W,1,10,1.5,12,M,,M,,*6A
06/24/2015	10:11:52.532	$GPGGA,101153,2506.2167,N,08009.8703,W,1,10,1.5,12,M,,M,,*6F
