Software Version Number: 1	Data File Format Number: 1	Build Version Number: 1	Error Count Since VI Started: 3	Manufacturer: Raytheon	 Model Number: RayMarine 120	 S/N: 	 Cal Date: 	 Wind Direction Offset: 0.00	 Slope (M)1: 0.00	 Offset (B)1: 0.00	 Slope (M)2: 0.00	 Offset (B)2: 0.00	 Slope (M)3: 0.00	 Offset (B)3: 0.00	 Slope (M)4: 0.00	 Offset (B)4: 0.00	 Slope (M)5: 0.00	 Offset (B)5: 0.00	 Slope (M)6: 0.00	 Offset (B)6: 0.00
Computer Date	Computer Time	GGA String
06/24/2015	06:00:00.517	$GPGGA,060001,2516.8622,N,08007.7545,W,1,10,1.5,17,M,,M,,*66
06/24/2015	06:00:01.507	$GPGGA,060002,2516.8613,N,08007.7547,W,1,10,1.5,17,M,,M,,*65
06/24/2015	06:00:02.507	$GPGGA,060003,2516.8605,N,08007.7548,W,1,10,1.5,17,M,,M,,*6C
06/24/2015	06:00:03.551	$GPGGA,060004,2516.8596,N,08007.7551,W,1,10,1.5,17,M,,M,,*6A
06/24/2015	06:00:04.507	$GPGGA,060005,2516.8587,N,08007.7551,W,1,10,1.5,17,M,,M,,*6B
06/24/2015	06:00:05.526	$GPGGA,060006,2516.8579,N,08007.7554,W,1,10,1.5,17,M,,M,,*6C
06/24/2015	06:00:06.506	$GPGGA,060007,2516.8570,N,08007.7555,W,1,10,1.5,17,M,,M,,*65
06/24/2015	06:00:07.526	$GPGGA,060008,2516.8561,N,08007.7556,W,1,10,1.5,17,M,,M,,*69
06/24/2015	06:00:08.507	$GPGGA,060009,2516.8553,N,08007.7558,W,1,10,1.5,17,M,,M,,*67
06/24/2015	06:00:09.617	$GPGGA,060010,2516.8546,N,08007.7561,W,1,10,1.5,17,M,,M,,*61
06/24/2015	06:00:10.497	$GPGGA,060011,2516.8536,N,08007.7560,W,1,10,1.5,17,M,,M,,*66
06/24/2015	06:00:11.527	$GPGGA,060012,2516.8528,N,08007.7562,W,1,10,1.5,17,M,,M,,*68
06/24/2015	06:00:12.507	$GPGGA,060013,2516.8521,N,08007.7565,W,1,10,1.5,17,M,,M,,*67
06/24/2015	06:00:13.597	$GPGGA,060014,2516.8511,N,08007.7565,W,1,10,1.5,17,M,,M,,*63
06/24/2015	06:00:14.487	$GPGGA,060015,2516.8503,N,08007.7568,W,1,10,1.5,17,M,,M,,*6C
06/24/2015	06:00:15.497	$GPGGA,060016,2516.8494,N,08007.7570,W,1,10,1.5,17,M,,M,,*69
06/24/2015	06:00:16.577	$GPGGA,060017,2516.8485,N,08007.7572,W,1,10,1.5,17,M,,M,,*6A
06/24/2015	06:00:17.597	$GPGGA,060018,2516.8477,N,08007.7572,W,1,10,1.5,17,M,,M,,*68
06/24/2015	06:00:18.497	$GPGGA,060019,2516.8470,N,08007.7576,W,1,10,1.5,17,M,,M,,*6A
06/24/2015	06:00:19.597	$GPGGA,060020,2516.8459,N,08007.7577,W,1,10,1.5,17,M,,M,,*6A
06/24/2015	06:00:20.567	$GPGGA,060021,2516.8450,N,08007.7577,W,1,10,1.5,17,M,,M,,*62
06/24/2015	06:00:21.577	$GPGGA,060022,2516.8442,N,08007.7580,W,1,10,1.5,17,M,,M,,*6A
06/24/2015	06:00:22.577	$GPGGA,060023,2516.8434,N,08007.7583,W,1,10,1.5,17,M,,M,,*69
06/24/2015	06:00:23.596	$GPGGA,060024,2516.8424,N,08007.7583,W,1,10,1.5,17,M,,M,,*6F
06/24/2015	06:00:24.566	$GPGGA,060025,2516.8416,N,08007.7587,W,1,10,1.5,17,M,,M,,*6B
06/24/2015	06:00:25.608	$GPGGA,060026,2516.8406,N,08007.7587,W,1,10,1.5,17,M,,M,,*69
06/24/2015	06:00:26.567	$GPGGA,060027,2516.8398,N,08007.7588,W,1,10,1.5,17,M,,M,,*67
06/24/2015	06:00:27.597	$GPGGA,060028,2516.8389,N,08007.7592,W,1,10,1.5,17,M,,M,,*63
06/24/2015	06:00:28.567	$GPGGA,060029,2516.8380,N,08007.7594,W,1,10,1.5,17,M,,M,,*6D
06/24/2015	06:00:29.557	$GPGGA,060030,2516.8371,N,08007.7595,W,1,10,1.5,17,M,,M,,*6A
06/24/2015	06:00:30.557	$GPGGA,060031,2516.8362,N,08007.7598,W,1,10,1.5,17,M,,M,,*64
06/24/2015	06:00:31.587	$GPGGA,060032,2516.8353,N,08007.7599,W,1,10,1.5,17,M,,M,,*64
06/24/2015	06:00:32.557	$GPGGA,060033,2516.8344,N,08007.7601,W,1,10,1.5,17,M,,M,,*61
06/24/2015	06:00:33.550	$GPGGA,060034,2516.8336,N,08007.7605,W,1,10,1.5,17,M,,M,,*67
06/24/2015	06:00:34.567	$GPGGA,060035,2516.8326,N,08007.7606,W,1,10,1.5,17,M,,M,,*64
06/24/2015	06:00:35.587	$GPGGA,060036,2516.8317,N,08007.7608,W,1,10,1.5,17,M,,M,,*6B
06/24/2015	06:00:36.548	$GPGGA,060037,2516.8309,N,08007.7612,W,1,10,1.5,17,M,,M,,*6E
06/24/2015	06:00:37.537	$GPGGA,060038,2516.8299,N,08007.7613,W,1,10,1.5,17,M,,M,,*68
06/24/2015	06:00:38.547	$GPGGA,060039,2516.8291,N,08007.7615,W,1,10,1.5,17,M,,M,,*67
06/24/2015	06:00:39.567	$GPGGA,060040,2516.8282,N,08007.7617,W,1,10,1.5,17,M,,M,,*69
06/24/2015	06:00:40.560	$GPGGA,060041,2516.8273,N,08007.7620,W,1,10,1.5,17,M,,M,,*62
06/24/2015	06:00:41.550	$GPGGA,060042,2516.8264,N,08007.7623,W,1,10,1.5,17,M,,M,,*64
06/24/2015	06:00:42.526	$GPGGA,060043,2516.8255,N,08007.7626,W,1,10,1.5,17,M,,M,,*62
06/24/2015	06:00:43.549	$GPGGA,060044,2516.8246,N,08007.7627,W,1,10,1.5,17,M,,M,,*66
06/24/2015	06:00:44.540	$GPGGA,060045,2516.8237,N,08007.7630,W,1,10,1.5,17,M,,M,,*67
06/24/2015	06:00:45.557	$GPGGA,060046,2516.8229,N,08007.7631,W,1,10,1.5,17,M,,M,,*6A
06/24/2015	06:00:46.538	$GPGGA,060047,2516.8221,N,08007.7634,W,1,10,1.5,17,M,,M,,*66
06/24/2015	06:00:47.557	$GPGGA,060048,2516.8210,N,08007.7637,W,1,10,1.5,17,M,,M,,*68
06/24/2015	06:00:48.517	$GPGGA,060049,2516.8203,N,08007.7638,W,1,10,1.5,17,M,,M,,*64
06/24/2015	06:00:49.527	$GPGGA,060050,2516.8193,N,08007.7641,W,1,10,1.5,17,M,,M,,*68
06/24/2015	06:00:50.517	$GPGGA,060051,2516.8185,N,08007.7645,W,1,10,1.5,17,M,,M,,*6A
06/24/2015	06:00:51.527	$GPGGA,060052,2516.8174,N,08007.7645,W,1,10,1.5,16,M,,M,,*66
06/24/2015	06:00:52.507	$GPGGA,060053,2516.8165,N,08007.7648,W,1,10,1.5,16,M,,M,,*6A
06/24/2015	06:00:53.527	$GPGGA,060054,2516.8156,N,08007.7652,W,1,10,1.5,16,M,,M,,*66
06/24/2015	06:00:54.627	$GPGGA,060055,2516.8147,N,08007.7653,W,1,10,1.5,16,M,,M,,*66
06/24/2015	06:00:55.557	$GPGGA,060056,2516.8138,N,08007.7653,W,1,10,1.5,16,M,,M,,*6D
06/24/2015	06:00:56.617	$GPGGA,060057,2516.8129,N,08007.7659,W,1,10,1.5,16,M,,M,,*66
06/24/2015	06:00:57.597	$GPGGA,060058,2516.8120,N,08007.7662,W,1,10,1.5,16,M,,M,,*68
06/24/2015	06:00:58.496	$GPGGA,060059,2516.8110,N,08007.7661,W,1,10,1.5,16,M,,M,,*69
06/24/2015	06:00:59.556	$GPGGA,060100,2516.8102,N,08007.7666,W,1,10,1.5,16,M,,M,,*60
06/24/2015	06:01:00.497	$GPGGA,060101,2516.8093,N,08007.7668,W,1,10,1.5,16,M,,M,,*66
06/24/2015	06:01:01.507	$GPGGA,060102,2516.8083,N,08007.7668,W,1,10,1.5,16,M,,M,,*64
06/24/2015	06:01:02.497	$GPGGA,060103,2516.8075,N,08007.7671,W,1,10,1.5,16,M,,M,,*64
06/24/2015	06:01:03.497	$GPGGA,060104,2516.8066,N,08007.7675,W,1,10,1.5,16,M,,M,,*65
06/24/2015	06:01:04.587	$GPGGA,060105,2516.8056,N,08007.7675,W,1,10,1.5,16,M,,M,,*67
06/24/2015	06:01:05.607	$GPGGA,060106,2516.8048,N,08007.7677,W,1,10,1.5,16,M,,M,,*69
06/24/2015	06:01:06.577	$GPGGA,060107,2516.8040,N,08007.7681,W,1,10,1.5,16,M,,M,,*69
06/24/2015	06:01:07.627	$GPGGA,060108,2516.8031,N,08007.7682,W,1,10,1.5,16,M,,M,,*63
06/24/2015	06:01:08.507	$GPGGA,060109,2516.8022,N,08007.7684,W,1,10,1.5,16,M,,M,,*66
06/24/2015	06:01:09.587	$GPGGA,060110,2516.8012,N,08007.7688,W,1,8,1.9,16,M,,M,,*54
06/24/2015	06:01:10.827	$GPGGA,060111,2516.8004,N,08007.7689,W,1,8,1.5,16,M,,M,,*5F
06/24/2015	06:01:11.567	$GPGGA,060112,2516.7993,N,08007.7689,W,1,10,1.5,16,M,,M,,*6D
06/24/2015	06:01:12.557	$GPGGA,060113,2516.7984,N,08007.7691,W,1,10,1.5,16,M,,M,,*63
06/24/2015	06:01:13.577	$GPGGA,060114,2516.7975,N,08007.7693,W,1,10,1.5,16,M,,M,,*68
06/24/2015	06:01:14.557	$GPGGA,060115,2516.7966,N,08007.7695,W,1,10,1.5,16,M,,M,,*6D
06/24/2015	06:01:15.586	$GPGGA,060116,2516.7957,N,08007.7694,W,1,10,1.5,16,M,,M,,*6D
06/24/2015	06:01:16.556	$GPGGA,060117,2516.7948,N,08007.7697,W,1,10,1.5,16,M,,M,,*61
06/24/2015	06:01:17.576	$GPGGA,060118,2516.7939,N,08007.7699,W,1,10,1.5,16,M,,M,,*66
06/24/2015	06:01:18.546	$GPGGA,060119,2516.7929,N,08007.7699,W,1,10,1.5,16,M,,M,,*66
06/24/2015	06:01:19.566	$GPGGA,060120,2516.7921,N,08007.7702,W,1,10,1.5,16,M,,M,,*67
06/24/2015	06:01:20.546	$GPGGA,060121,2516.7911,N,08007.7703,W,1,10,1.5,16,M,,M,,*64
06/24/2015	06:01:21.566	$GPGGA,060122,2516.7901,N,08007.7703,W,1,10,1.5,16,M,,M,,*66
06/24/2015	06:01:22.546	$GPGGA,060123,2516.7892,N,08007.7704,W,1,10,1.5,16,M,,M,,*6B
06/24/2015	06:01:23.566	$GPGGA,060124,2516.7883,N,08007.7707,W,1,10,1.5,16,M,,M,,*6F
06/24/2015	06:01:24.536	$GPGGA,060125,2516.7874,N,08007.7709,W,1,10,1.5,17,M,,M,,*69
06/24/2015	06:01:25.556	$GPGGA,060126,2516.7865,N,08007.7710,W,1,10,1.5,17,M,,M,,*62
06/24/2015	06:01:26.537	$GPGGA,060127,2516.7856,N,08007.7710,W,1,10,1.6,17,M,,M,,*60
06/24/2015	06:01:27.566	$GPGGA,060128,2516.7849,N,08007.7713,W,1,10,1.5,17,M,,M,,*61
06/24/2015	06:01:28.528	$GPGGA,060129,2516.7842,N,08007.7713,W,1,10,1.5,17,M,,M,,*6B
06/24/2015	06:01:29.528	$GPGGA,060130,2516.7832,N,08007.7713,W,1,10,1.5,17,M,,M,,*64
06/24/2015	06:01:30.517	$GPGGA,060131,2516.7825,N,08007.7714,W,1,10,1.5,17,M,,M,,*64
06/24/2015	06:01:31.527	$GPGGA,060132,2516.7820,N,08007.7718,W,1,9,1.6,17,M,,M,,*55
06/24/2015	06:01:32.517	$GPGGA,060133,2516.7813,N,08007.7720,W,1,9,1.5,17,M,,M,,*5C
06/24/2015	06:01:33.516	$GPGGA,060134,2516.7803,N,08007.7720,W,1,10,1.5,17,M,,M,,*62
06/24/2015	06:01:34.544	$GPGGA,060135,2516.7796,N,08007.7724,W,1,10,1.5,17,M,,M,,*64
06/24/2015	06:01:35.536	$GPGGA,060136,2516.7788,N,08007.7728,W,1,10,1.5,18,M,,M,,*6B
06/24/2015	06:01:36.507	$GPGGA,060137,2516.7780,N,08007.7726,W,1,10,1.5,18,M,,M,,*6C
06/24/2015	06:01:37.516	$GPGGA,060138,2516.7773,N,08007.7729,W,1,10,1.5,18,M,,M,,*60
06/24/2015	06:01:38.676	$GPGGA,060139,2516.7764,N,08007.7733,W,1,10,1.5,18,M,,M,,*6C
06/24/2015	06:01:39.556	$GPGGA,060140,2516.7755,N,08007.7733,W,1,10,1.5,18,M,,M,,*60
06/24/2015	06:01:40.506	$GPGGA,060141,2516.7747,N,08007.7735,W,1,10,1.5,18,M,,M,,*64
06/24/2015	06:01:41.596	$GPGGA,060142,2516.7739,N,08007.7739,W,1,10,1.5,18,M,,M,,*62
06/24/2015	06:01:42.496	$GPGGA,060143,2516.7730,N,08007.7742,W,1,10,1.5,18,M,,M,,*66
06/24/2015	06:01:43.516	$GPGGA,060144,2516.7720,N,08007.7742,W,1,10,1.5,18,M,,M,,*60
06/24/2015	06:01:44.656	$GPGGA,060145,2516.7712,N,08007.7746,W,1,10,1.5,18,M,,M,,*64
06/24/2015	06:01:45.643	$GPGGA,060146,2516.7704,N,08007.7749,W,1,10,1.5,18,M,,M,,*6F
06/24/2015	06:01:46.587	$GPGGA,060147,2516.7694,N,08007.7750,W,1,10,1.5,18,M,,M,,*6E
06/24/2015	06:01:47.667	$GPGGA,060148,2516.7686,N,08007.7751,W,1,10,1.5,18,M,,M,,*63
06/24/2015	06:01:48.577	$GPGGA,060149,2516.7677,N,08007.7756,W,1,10,1.5,18,M,,M,,*6B
06/24/2015	06:01:49.607	$GPGGA,060150,2516.7669,N,08007.7758,W,1,10,1.5,18,M,,M,,*62
06/24/2015	06:01:50.496	$GPGGA,060151,2516.7659,N,08007.7758,W,1,10,1.5,18,M,,M,,*60
06/24/2015	06:01:51.676	$GPGGA,060152,2516.7651,N,08007.7761,W,1,10,1.5,18,M,,M,,*61
06/24/2015	06:01:52.576	$GPGGA,060153,2516.7643,N,08007.7764,W,1,10,1.5,18,M,,M,,*66
06/24/2015	06:01:53.596	$GPGGA,060154,2516.7633,N,08007.7764,W,1,10,1.5,18,M,,M,,*66
06/24/2015	06:01:54.486	$GPGGA,060155,2516.7625,N,08007.7768,W,1,10,1.5,18,M,,M,,*6C
06/24/2015	06:01:55.626	$GPGGA,060156,2516.7616,N,08007.7771,W,1,9,1.6,18,M,,M,,*5C
06/24/2015	06:01:56.476	$GPGGA,060157,2516.7607,N,08007.7772,W,1,9,1.5,18,M,,M,,*5D
06/24/2015	06:01:57.606	$GPGGA,060158,2516.7598,N,08007.7775,W,1,10,1.5,18,M,,M,,*68
06/24/2015	06:01:58.628	$GPGGA,060159,2516.7589,N,08007.7778,W,1,10,1.5,18,M,,M,,*64
06/24/2015	06:01:59.643	$GPGGA,060200,2516.7579,N,08007.7778,W,1,10,1.5,18,M,,M,,*64
06/24/2015	06:02:00.626	$GPGGA,060201,2516.7571,N,08007.7782,W,1,10,1.5,18,M,,M,,*68
06/24/2015	06:02:01.626	$GPGGA,060202,2516.7561,N,08007.7785,W,1,10,1.5,18,M,,M,,*6D
06/24/2015	06:02:02.626	$GPGGA,060203,2516.7552,N,08007.7786,W,1,10,1.5,18,M,,M,,*6F
06/24/2015	06:02:03.567	$GPGGA,060204,2516.7543,N,08007.7789,W,1,10,1.5,18,M,,M,,*67
06/24/2015	06:02:04.628	$GPGGA,060205,2516.7535,N,08007.7792,W,1,10,1.6,18,M,,M,,*6E
06/24/2015	06:02:05.597	$GPGGA,060206,2516.7527,N,08007.7793,W,1,10,1.5,18,M,,M,,*6C
06/24/2015	06:02:06.617	$GPGGA,060207,2516.7518,N,08007.7794,W,1,10,1.5,18,M,,M,,*66
06/24/2015	06:02:07.640	$GPGGA,060208,2516.7509,N,08007.7797,W,1,10,1.5,18,M,,M,,*6A
06/24/2015	06:02:08.537	$GPGGA,060209,2516.7500,N,08007.7800,W,1,10,1.5,18,M,,M,,*63
06/24/2015	06:02:09.537	$GPGGA,060210,2516.7491,N,08007.7801,W,1,10,1.5,18,M,,M,,*63
06/24/2015	06:02:10.616	$GPGGA,060211,2516.7482,N,08007.7803,W,1,10,1.5,18,M,,M,,*62
06/24/2015	06:02:11.616	$GPGGA,060212,2516.7473,N,08007.7807,W,1,10,1.5,18,M,,M,,*6B
06/24/2015	06:02:12.596	$GPGGA,060213,2516.7464,N,08007.7808,W,1,10,1.5,18,M,,M,,*63
06/24/2015	06:02:13.566	$GPGGA,060214,2516.7455,N,08007.7809,W,1,10,1.5,18,M,,M,,*67
06/24/2015	06:02:14.586	$GPGGA,060215,2516.7446,N,08007.7811,W,1,10,1.5,18,M,,M,,*6D
06/24/2015	06:02:15.586	$GPGGA,060216,2516.7437,N,08007.7814,W,1,10,1.5,18,M,,M,,*6D
06/24/2015	06:02:16.586	$GPGGA,060217,2516.7430,N,08007.7814,W,1,10,1.5,18,M,,M,,*6B
06/24/2015	06:02:17.576	$GPGGA,060218,2516.7419,N,08007.7816,W,1,10,1.5,18,M,,M,,*6D
06/24/2015	06:02:18.586	$GPGGA,060219,2516.7410,N,08007.7818,W,1,10,1.5,18,M,,M,,*6B
06/24/2015	06:02:19.586	$GPGGA,060220,2516.7401,N,08007.7818,W,1,10,1.5,18,M,,M,,*61
06/24/2015	06:02:20.518	$GPGGA,060221,2516.7392,N,08007.7822,W,1,10,1.5,18,M,,M,,*64
06/24/2015	06:02:21.537	$GPGGA,060222,2516.7383,N,08007.7822,W,1,10,1.5,18,M,,M,,*67
06/24/2015	06:02:22.577	$GPGGA,060223,2516.7373,N,08007.7823,W,1,10,1.5,18,M,,M,,*68
06/24/2015	06:02:23.577	$GPGGA,060224,2516.7365,N,08007.7826,W,1,10,1.5,18,M,,M,,*6D
06/24/2015	06:02:24.645	$GPGGA,060225,2516.7356,N,08007.7829,W,1,10,1.5,18,M,,M,,*63
06/24/2015	06:02:25.566	$GPGGA,060226,2516.7346,N,08007.7828,W,1,10,1.5,18,M,,M,,*60
06/24/2015	06:02:26.566	$GPGGA,060227,2516.7338,N,08007.7830,W,1,10,1.5,18,M,,M,,*61
06/24/2015	06:02:27.640	$GPGGA,060228,2516.7329,N,08007.7833,W,1,10,1.5,18,M,,M,,*6D
06/24/2015	06:02:28.566	$GPGGA,060229,2516.7321,N,08007.7834,W,1,10,1.5,18,M,,M,,*63
06/24/2015	06:02:29.546	$GPGGA,060230,2516.7311,N,08007.7834,W,1,10,1.5,18,M,,M,,*68
06/24/2015	06:02:30.496	$GPGGA,060231,2516.7303,N,08007.7837,W,1,10,1.5,18,M,,M,,*69
06/24/2015	06:02:31.606	$GPGGA,060232,2516.7296,N,08007.7840,W,1,10,1.5,18,M,,M,,*67
06/24/2015	06:02:32.566	$GPGGA,060233,2516.7285,N,08007.7839,W,1,10,1.5,18,M,,M,,*6A
06/24/2015	06:02:33.516	$GPGGA,060234,2516.7278,N,08007.7841,W,1,10,1.5,18,M,,M,,*60
06/24/2015	06:02:34.586	$GPGGA,060235,2516.7268,N,08007.7844,W,1,10,1.5,18,M,,M,,*65
06/24/2015	06:02:35.556	$GPGGA,060236,2516.7258,N,08007.7844,W,1,10,1.5,17,M,,M,,*6A
06/24/2015	06:02:36.606	$GPGGA,060237,2516.7250,N,08007.7845,W,1,10,1.5,17,M,,M,,*62
06/24/2015	06:02:37.586	$GPGGA,060238,2516.7242,N,08007.7850,W,1,10,1.5,17,M,,M,,*6A
06/24/2015	06:02:38.587	$GPGGA,060239,2516.7232,N,08007.7849,W,1,10,1.5,17,M,,M,,*64
06/24/2015	06:02:39.630	$GPGGA,060240,2516.7224,N,08007.7850,W,1,10,1.5,17,M,,M,,*65
06/24/2015	06:02:40.587	$GPGGA,060241,2516.7215,N,08007.7854,W,1,10,1.5,17,M,,M,,*62
06/24/2015	06:02:41.587	$GPGGA,060242,2516.7206,N,08007.7854,W,1,10,1.5,17,M,,M,,*63
06/24/2015	06:02:42.547	$GPGGA,060243,2516.7196,N,08007.7855,W,1,10,1.5,17,M,,M,,*69
06/24/2015	06:02:43.576	$GPGGA,060244,2516.7188,N,08007.7858,W,1,10,1.5,17,M,,M,,*6C
06/24/2015	06:02:44.566	$GPGGA,060245,2516.7180,N,08007.7859,W,1,10,1.5,17,M,,M,,*64
06/24/2015	06:02:45.586	$GPGGA,060246,2516.7170,N,08007.7861,W,1,10,1.5,17,M,,M,,*63
06/24/2015	06:02:46.566	$GPGGA,060247,2516.7161,N,08007.7861,W,1,10,1.5,17,M,,M,,*62
06/24/2015	06:02:47.596	$GPGGA,060248,2516.7152,N,08007.7865,W,1,10,1.5,17,M,,M,,*69
06/24/2015	06:02:48.566	$GPGGA,060249,2516.7144,N,08007.7865,W,1,10,1.5,17,M,,M,,*6F
06/24/2015	06:02:49.586	$GPGGA,060250,2516.7135,N,08007.7866,W,1,10,1.5,17,M,,M,,*62
06/24/2015	06:02:50.556	$GPGGA,060251,2516.7126,N,08007.7869,W,1,10,1.5,17,M,,M,,*6E
06/24/2015	06:02:51.576	$GPGGA,060252,2516.7117,N,08007.7872,W,1,10,1.5,17,M,,M,,*65
06/24/2015	06:02:52.566	$GPGGA,060253,2516.7108,N,08007.7872,W,1,10,1.5,17,M,,M,,*6A
06/24/2015	06:02:53.556	$GPGGA,060254,2516.7098,N,08007.7873,W,1,10,1.5,17,M,,M,,*64
06/24/2015	06:02:54.566	$GPGGA,060255,2516.7090,N,08007.7876,W,1,10,1.5,16,M,,M,,*69
06/24/2015	06:02:55.587	$GPGGA,060256,2516.7081,N,08007.7879,W,1,10,1.5,16,M,,M,,*65
06/24/2015	06:02:56.577	$GPGGA,060257,2516.7081,N,08007.7879,W,1,10,1.5,16,M,,M,,*64
06/24/2015	06:02:57.540	$GPGGA,060258,2516.7062,N,08007.7881,W,1,10,1.5,16,M,,M,,*61
06/24/2015	06:02:58.547	$GPGGA,060259,2516.7054,N,08007.7884,W,1,10,1.5,16,M,,M,,*60
06/24/2015	06:02:59.577	$GPGGA,060300,2516.7044,N,08007.7886,W,1,10,1.5,16,M,,M,,*6E
06/24/2015	06:03:00.546	$GPGGA,060301,2516.7036,N,08007.7887,W,1,10,1.5,16,M,,M,,*6B
06/24/2015	06:03:01.556	$GPGGA,060302,2516.7026,N,08007.7890,W,1,10,1.5,16,M,,M,,*6F
06/24/2015	06:03:02.540	$GPGGA,060303,2516.7026,N,08007.7890,W,1,10,1.5,16,M,,M,,*6E
06/24/2015	06:03:03.566	$GPGGA,060304,2516.7008,N,08007.7894,W,1,10,1.5,16,M,,M,,*61
06/24/2015	06:03:04.537	$GPGGA,060305,2516.6998,N,08007.7895,W,1,10,1.5,16,M,,M,,*60
06/24/2015	06:03:05.539	$GPGGA,060306,2516.6990,N,08007.7897,W,1,10,1.5,16,M,,M,,*69
06/24/2015	06:03:06.537	$GPGGA,060307,2516.6990,N,08007.7897,W,1,10,1.5,16,M,,M,,*68
06/24/2015	06:03:07.566	$GPGGA,060308,2516.6972,N,08007.7901,W,1,10,1.5,16,M,,M,,*65
06/24/2015	06:03:08.546	$GPGGA,060309,2516.6962,N,08007.7905,W,1,10,1.5,16,M,,M,,*61
06/24/2015	06:03:09.516	$GPGGA,060310,2516.6953,N,08007.7908,W,1,10,1.5,16,M,,M,,*66
06/24/2015	06:03:10.546	$GPGGA,060311,2516.6953,N,08007.7908,W,1,10,1.5,16,M,,M,,*67
06/24/2015	06:03:11.556	$GPGGA,060312,2516.6945,N,08007.7910,W,1,10,1.5,16,M,,M,,*6A
06/24/2015	06:03:12.556	$GPGGA,060313,2516.6926,N,08007.7912,W,1,10,1.5,16,M,,M,,*6C
06/24/2015	06:03:13.617	$GPGGA,060314,2516.6917,N,08007.7916,W,1,10,1.5,16,M,,M,,*6D
06/24/2015	06:03:14.538	$GPGGA,060315,2516.6917,N,08007.7916,W,1,10,1.5,16,M,,M,,*6C
06/24/2015	06:03:15.557	$GPGGA,060316,2516.6899,N,08007.7919,W,1,10,1.5,16,M,,M,,*67
06/24/2015	06:03:16.529	$GPGGA,060317,2516.6899,N,08007.7919,W,1,10,1.5,16,M,,M,,*66
06/24/2015	06:03:17.607	$GPGGA,060318,2516.6881,N,08007.7924,W,1,10,1.5,16,M,,M,,*6E
06/24/2015	06:03:18.506	$GPGGA,060319,2516.6881,N,08007.7924,W,1,10,1.5,16,M,,M,,*6F
06/24/2015	06:03:19.630	$GPGGA,060320,2516.6864,N,08007.7930,W,1,9,1.6,16,M,,M,,*50
06/24/2015	06:03:20.506	$GPGGA,060321,2516.6864,N,08007.7930,W,1,9,1.5,16,M,,M,,*52
06/24/2015	06:03:21.536	$GPGGA,060322,2516.6846,N,08007.7934,W,1,10,1.5,16,M,,M,,*6D
06/24/2015	06:03:22.596	$GPGGA,060323,2516.6838,N,08007.7937,W,1,10,1.5,16,M,,M,,*66
06/24/2015	06:03:23.496	$GPGGA,060324,2516.6828,N,08007.7939,W,1,10,1.5,16,M,,M,,*6E
06/24/2015	06:03:24.540	$GPGGA,060325,2516.6819,N,08007.7941,W,1,10,1.5,16,M,,M,,*62
06/24/2015	06:03:25.606	$GPGGA,060326,2516.6809,N,08007.7944,W,1,10,1.5,16,M,,M,,*65
06/24/2015	06:03:26.586	$GPGGA,060327,2516.6801,N,08007.7948,W,1,10,1.5,16,M,,M,,*60
06/24/2015	06:03:27.616	$GPGGA,060328,2516.6791,N,08007.7949,W,1,10,1.5,16,M,,M,,*68
06/24/2015	06:03:28.576	$GPGGA,060329,2516.6783,N,08007.7951,W,1,10,1.5,16,M,,M,,*63
06/24/2015	06:03:29.596	$GPGGA,060330,2516.6773,N,08007.7955,W,1,10,1.5,16,M,,M,,*60
06/24/2015	06:03:30.577	$GPGGA,060331,2516.6765,N,08007.7959,W,1,10,1.5,16,M,,M,,*6A
06/24/2015	06:03:31.587	$GPGGA,060332,2516.6755,N,08007.7958,W,1,10,1.5,17,M,,M,,*6A
06/24/2015	06:03:32.577	$GPGGA,060333,2516.6745,N,08007.7959,W,1,10,1.5,17,M,,M,,*6B
06/24/2015	06:03:33.587	$GPGGA,060334,2516.6737,N,08007.7964,W,1,10,1.5,17,M,,M,,*67
06/24/2015	06:03:34.577	$GPGGA,060335,2516.6729,N,08007.7966,W,1,10,1.5,17,M,,M,,*6B
06/24/2015	06:03:35.576	$GPGGA,060336,2516.6720,N,08007.7967,W,1,10,1.5,17,M,,M,,*60
06/24/2015	06:03:36.566	$GPGGA,060337,2516.6711,N,08007.7970,W,1,10,1.5,17,M,,M,,*65
06/24/2015	06:03:37.556	$GPGGA,060338,2516.6702,N,08007.7973,W,1,10,1.5,17,M,,M,,*6B
06/24/2015	06:03:38.566	$GPGGA,060339,2516.6693,N,08007.7974,W,1,10,1.5,17,M,,M,,*64
06/24/2015	06:03:39.557	$GPGGA,060340,2516.6684,N,08007.7977,W,1,10,1.5,17,M,,M,,*6F
06/24/2015	06:03:40.556	$GPGGA,060341,2516.6675,N,08007.7980,W,1,10,1.5,17,M,,M,,*68
06/24/2015	06:03:41.576	$GPGGA,060342,2516.6666,N,08007.7981,W,1,10,1.5,17,M,,M,,*68
06/24/2015	06:03:42.556	$GPGGA,060343,2516.6657,N,08007.7982,W,1,10,1.5,17,M,,M,,*68
06/24/2015	06:03:43.556	$GPGGA,060344,2516.6649,N,08007.7985,W,1,10,1.5,17,M,,M,,*67
06/24/2015	06:03:44.556	$GPGGA,060345,2516.6639,N,08007.7988,W,1,10,1.5,17,M,,M,,*6C
06/24/2015	06:03:46.016	$GPGGA,060346,2516.6631,N,08007.7989,W,1,10,1.5,17,M,,M,,*66
06/24/2015	06:03:46.546	$GPGGA,060347,2516.6622,N,08007.7991,W,1,10,1.5,17,M,,M,,*6C
06/24/2015	06:03:47.566	$GPGGA,060348,2516.6613,N,08007.7993,W,1,10,1.5,17,M,,M,,*63
06/24/2015	06:03:48.547	$GPGGA,060349,2516.6604,N,08007.7995,W,1,10,1.5,17,M,,M,,*62
06/24/2015	06:03:49.567	$GPGGA,060350,2516.6595,N,08007.7998,W,1,10,1.5,17,M,,M,,*6C
06/24/2015	06:03:50.539	$GPGGA,060351,2516.6588,N,08007.8000,W,1,10,1.5,17,M,,M,,*66
06/24/2015	06:03:51.567	$GPGGA,060352,2516.6578,N,08007.8002,W,1,10,1.5,17,M,,M,,*68
06/24/2015	06:03:52.529	$GPGGA,060353,2516.6568,N,08007.8002,W,1,10,1.5,17,M,,M,,*68
06/24/2015	06:03:53.541	$GPGGA,060354,2516.6559,N,08007.8006,W,1,10,1.5,17,M,,M,,*69
06/24/2015	06:03:54.516	$GPGGA,060355,2516.6552,N,08007.8009,W,1,10,1.5,17,M,,M,,*6C
06/24/2015	06:03:55.566	$GPGGA,060356,2516.6541,N,08007.8009,W,1,10,1.5,17,M,,M,,*6D
06/24/2015	06:03:56.516	$GPGGA,060357,2516.6532,N,08007.8010,W,1,10,1.5,17,M,,M,,*60
06/24/2015	06:03:57.541	$GPGGA,060358,2516.6525,N,08007.8014,W,1,9,1.6,17,M,,M,,*56
06/24/2015	06:03:58.516	$GPGGA,060359,2516.6516,N,08007.8017,W,1,9,1.5,17,M,,M,,*57
06/24/2015	06:03:59.576	$GPGGA,060400,2516.6506,N,08007.8016,W,1,10,1.5,17,M,,M,,*64
06/24/2015	06:04:00.516	$GPGGA,060401,2516.6497,N,08007.8018,W,1,10,1.5,17,M,,M,,*62
06/24/2015	06:04:01.626	$GPGGA,060402,2516.6490,N,08007.8021,W,1,9,1.6,17,M,,M,,*57
06/24/2015	06:04:02.516	$GPGGA,060403,2516.6483,N,08007.8021,W,1,9,1.5,17,M,,M,,*57
06/24/2015	06:04:03.636	$GPGGA,060404,2516.6474,N,08007.8021,W,1,10,1.5,17,M,,M,,*60
06/24/2015	06:04:04.536	$GPGGA,060405,2516.6466,N,08007.8024,W,1,10,1.5,17,M,,M,,*67
06/24/2015	06:04:05.517	$GPGGA,060406,2516.6458,N,08007.8025,W,1,10,1.5,17,M,,M,,*68
06/24/2015	06:04:06.597	$GPGGA,060407,2516.6449,N,08007.8027,W,1,10,1.5,17,M,,M,,*6B
06/24/2015	06:04:07.617	$GPGGA,060408,2516.6441,N,08007.8029,W,1,10,1.5,17,M,,M,,*62
06/24/2015	06:04:08.517	$GPGGA,060409,2516.6432,N,08007.8031,W,1,10,1.5,17,M,,M,,*6E
06/24/2015	06:04:09.628	$GPGGA,060410,2516.6423,N,08007.8032,W,1,10,1.5,17,M,,M,,*65
06/24/2015	06:04:10.516	$GPGGA,060411,2516.6415,N,08007.8035,W,1,10,1.5,17,M,,M,,*66
06/24/2015	06:04:11.596	$GPGGA,060412,2516.6406,N,08007.8035,W,1,10,1.5,17,M,,M,,*67
06/24/2015	06:04:12.486	$GPGGA,060413,2516.6397,N,08007.8036,W,1,10,1.5,17,M,,M,,*6A
06/24/2015	06:04:13.626	$GPGGA,060414,2516.6389,N,08007.8039,W,1,10,1.5,17,M,,M,,*6D
06/24/2015	06:04:14.586	$GPGGA,060415,2516.6380,N,08007.8040,W,1,10,1.5,17,M,,M,,*6B
06/24/2015	06:04:15.596	$GPGGA,060416,2516.6371,N,08007.8042,W,1,10,1.5,17,M,,M,,*64
06/24/2015	06:04:16.576	$GPGGA,060417,2516.6362,N,08007.8043,W,1,10,1.5,17,M,,M,,*66
06/24/2015	06:04:17.606	$GPGGA,060418,2516.6354,N,08007.8046,W,1,10,1.5,17,M,,M,,*69
06/24/2015	06:04:18.576	$GPGGA,060419,2516.6346,N,08007.8047,W,1,10,1.5,17,M,,M,,*6A
06/24/2015	06:04:19.617	$GPGGA,060420,2516.6337,N,08007.8049,W,1,10,1.5,17,M,,M,,*68
06/24/2015	06:04:20.576	$GPGGA,060421,2516.6329,N,08007.8050,W,1,10,1.5,17,M,,M,,*6E
06/24/2015	06:04:21.586	$GPGGA,060422,2516.6320,N,08007.8053,W,1,10,1.5,17,M,,M,,*67
06/24/2015	06:04:22.576	$GPGGA,060423,2516.6311,N,08007.8054,W,1,10,1.5,17,M,,M,,*63
06/24/2015	06:04:23.617	$GPGGA,060424,2516.6303,N,08007.8056,W,1,10,1.5,17,M,,M,,*65
06/24/2015	06:04:24.557	$GPGGA,060425,2516.6294,N,08007.8057,W,1,10,1.5,17,M,,M,,*6A
06/24/2015	06:04:25.587	$GPGGA,060426,2516.6286,N,08007.8060,W,1,10,1.5,17,M,,M,,*6E
06/24/2015	06:04:26.567	$GPGGA,060427,2516.6277,N,08007.8064,W,1,10,1.5,17,M,,M,,*65
06/24/2015	06:04:27.586	$GPGGA,060428,2516.6270,N,08007.8064,W,1,10,1.5,17,M,,M,,*6D
06/24/2015	06:04:28.576	$GPGGA,060429,2516.6260,N,08007.8065,W,1,10,1.5,17,M,,M,,*6C
06/24/2015	06:04:29.546	$GPGGA,060430,2516.6252,N,08007.8068,W,1,10,1.5,17,M,,M,,*68
06/24/2015	06:04:30.556	$GPGGA,060431,2516.6245,N,08007.8071,W,1,10,1.5,17,M,,M,,*67
06/24/2015	06:04:31.597	$GPGGA,060432,2516.6234,N,08007.8072,W,1,10,1.5,17,M,,M,,*61
06/24/2015	06:04:32.546	$GPGGA,060433,2516.6227,N,08007.8074,W,1,10,1.5,17,M,,M,,*64
06/24/2015	06:04:33.546	$GPGGA,060434,2516.6218,N,08007.8076,W,1,10,1.5,17,M,,M,,*6D
06/24/2015	06:04:34.556	$GPGGA,060435,2516.6209,N,08007.8079,W,1,10,1.5,17,M,,M,,*63
06/24/2015	06:04:35.566	$GPGGA,060436,2516.6201,N,08007.8082,W,1,10,1.5,17,M,,M,,*6C
06/24/2015	06:04:36.547	$GPGGA,060437,2516.6192,N,08007.8083,W,1,10,1.5,17,M,,M,,*65
06/24/2015	06:04:37.542	$GPGGA,060438,2516.6183,N,08007.8085,W,1,10,1.5,17,M,,M,,*6C
06/24/2015	06:04:38.537	$GPGGA,060439,2516.6176,N,08007.8089,W,1,10,1.5,17,M,,M,,*6B
06/24/2015	06:04:39.556	$GPGGA,060440,2516.6167,N,08007.8092,W,1,10,1.5,17,M,,M,,*6F
06/24/2015	06:04:40.547	$GPGGA,060441,2516.6158,N,08007.8092,W,1,10,1.5,17,M,,M,,*62
06/24/2015	06:04:41.528	$GPGGA,060442,2516.6149,N,08007.8096,W,1,10,1.5,17,M,,M,,*65
06/24/2015	06:04:42.537	$GPGGA,060443,2516.6141,N,08007.8100,W,1,10,1.5,17,M,,M,,*62
06/24/2015	06:04:43.567	$GPGGA,060444,2516.6133,N,08007.8101,W,1,10,1.5,17,M,,M,,*61
06/24/2015	06:04:44.797	$GPGGA,060445,2516.6124,N,08007.8101,W,1,10,1.5,17,M,,M,,*66
06/24/2015	06:04:45.516	$GPGGA,060446,2516.6116,N,08007.8107,W,1,10,1.5,17,M,,M,,*62
06/24/2015	06:04:46.536	$GPGGA,060447,2516.6109,N,08007.8111,W,1,10,1.5,17,M,,M,,*6A
06/24/2015	06:04:47.528	$GPGGA,060448,2516.6100,N,08007.8109,W,1,10,1.5,16,M,,M,,*64
06/24/2015	06:04:48.526	$GPGGA,060449,2516.6091,N,08007.8111,W,1,10,1.5,16,M,,M,,*65
06/24/2015	06:04:49.606	$GPGGA,060450,2516.6083,N,08007.8118,W,1,10,1.5,16,M,,M,,*67
06/24/2015	06:04:50.506	$GPGGA,060451,2516.6075,N,08007.8117,W,1,10,1.5,16,M,,M,,*60
06/24/2015	06:04:51.536	$GPGGA,060452,2516.6066,N,08007.8118,W,1,10,1.5,16,M,,M,,*6E
06/24/2015	06:04:52.496	$GPGGA,060453,2516.6058,N,08007.8121,W,1,10,1.5,16,M,,M,,*68
06/24/2015	06:04:53.626	$GPGGA,060454,2516.6050,N,08007.8125,W,1,10,1.5,16,M,,M,,*63
06/24/2015	06:04:54.516	$GPGGA,060455,2516.6041,N,08007.8125,W,1,10,1.5,16,M,,M,,*62
06/24/2015	06:04:55.606	$GPGGA,060456,2516.6033,N,08007.8126,W,1,10,1.5,16,M,,M,,*67
06/24/2015	06:04:56.506	$GPGGA,060457,2516.6025,N,08007.8129,W,1,10,1.5,16,M,,M,,*6E
06/24/2015	06:04:57.506	$GPGGA,060458,2516.6017,N,08007.8132,W,1,10,1.5,16,M,,M,,*6A
06/24/2015	06:04:59.647	$GPGGA,060500,2516.6000,N,08007.8133,W,1,10,1.5,16,M,,M,,*61
06/24/2015	06:05:00.587	$GPGGA,060501,2516.5992,N,08007.8136,W,1,10,1.5,16,M,,M,,*64
06/24/2015	06:05:01.487	$GPGGA,060502,2516.5983,N,08007.8137,W,1,10,1.5,16,M,,M,,*66
06/24/2015	06:05:02.596	$GPGGA,060503,2516.5974,N,08007.8137,W,1,10,1.5,16,M,,M,,*6F
06/24/2015	06:05:03.616	$GPGGA,060504,2516.5966,N,08007.8139,W,1,10,1.5,16,M,,M,,*65
06/24/2015	06:05:04.586	$GPGGA,060505,2516.5957,N,08007.8141,W,1,10,1.5,16,M,,M,,*69
06/24/2015	06:05:05.616	$GPGGA,060506,2516.5948,N,08007.8143,W,1,10,1.5,16,M,,M,,*66
06/24/2015	06:05:06.586	$GPGGA,060507,2516.5941,N,08007.8144,W,1,10,1.5,16,M,,M,,*69
06/24/2015	06:05:07.586	$GPGGA,060508,2516.5931,N,08007.8145,W,1,10,1.5,16,M,,M,,*60
06/24/2015	06:05:08.486	$GPGGA,060509,2516.5923,N,08007.8147,W,1,10,1.5,16,M,,M,,*60
06/24/2015	06:05:09.586	$GPGGA,060510,2516.5913,N,08007.8150,W,1,10,1.5,16,M,,M,,*6D
06/24/2015	06:05:10.576	$GPGGA,060511,2516.5905,N,08007.8150,W,1,10,1.5,16,M,,M,,*6B
06/24/2015	06:05:11.596	$GPGGA,060512,2516.5895,N,08007.8151,W,1,10,1.5,16,M,,M,,*61
06/24/2015	06:05:12.566	$GPGGA,060513,2516.5887,N,08007.8154,W,1,10,1.5,16,M,,M,,*66
06/24/2015	06:05:13.576	$GPGGA,060514,2516.5878,N,08007.8155,W,1,10,1.5,16,M,,M,,*60
06/24/2015	06:05:14.556	$GPGGA,060515,2516.5869,N,08007.8157,W,1,10,1.5,16,M,,M,,*63
06/24/2015	06:05:15.587	$GPGGA,060516,2516.5858,N,08007.8158,W,1,10,1.5,16,M,,M,,*6D
06/24/2015	06:05:16.567	$GPGGA,060517,2516.5849,N,08007.8161,W,1,10,1.5,16,M,,M,,*66
06/24/2015	06:05:17.577	$GPGGA,060518,2516.5840,N,08007.8162,W,1,10,1.5,16,M,,M,,*63
06/24/2015	06:05:18.557	$GPGGA,060519,2516.5831,N,08007.8162,W,1,10,1.5,16,M,,M,,*64
06/24/2015	06:05:19.597	$GPGGA,060520,2516.5822,N,08007.8165,W,1,10,1.5,16,M,,M,,*6B
06/24/2015	06:05:20.556	$GPGGA,060521,2516.5812,N,08007.8168,W,1,10,1.5,16,M,,M,,*64
06/24/2015	06:05:21.546	$GPGGA,060522,2516.5804,N,08007.8168,W,1,10,1.5,16,M,,M,,*60
06/24/2015	06:05:22.546	$GPGGA,060523,2516.5794,N,08007.8168,W,1,10,1.5,16,M,,M,,*67
06/24/2015	06:05:23.576	$GPGGA,060524,2516.5786,N,08007.8172,W,1,10,1.5,16,M,,M,,*68
06/24/2015	06:05:24.546	$GPGGA,060525,2516.5776,N,08007.8173,W,1,10,1.5,16,M,,M,,*67
06/24/2015	06:05:25.826	$GPGGA,060526,2516.5766,N,08007.8175,W,1,10,1.5,16,M,,M,,*63
06/24/2015	06:05:26.536	$GPGGA,060527,2516.5757,N,08007.8177,W,1,10,1.5,16,M,,M,,*62
06/24/2015	06:05:27.616	$GPGGA,060528,2516.5748,N,08007.8179,W,1,10,1.5,16,M,,M,,*6D
06/24/2015	06:05:28.536	$GPGGA,060529,2516.5739,N,08007.8179,W,1,10,1.5,16,M,,M,,*6A
06/24/2015	06:05:29.526	$GPGGA,060530,2516.5732,N,08007.8183,W,1,10,1.5,16,M,,M,,*6C
06/24/2015	06:05:30.537	$GPGGA,060531,2516.5721,N,08007.8184,W,1,10,1.5,16,M,,M,,*68
06/24/2015	06:05:31.539	$GPGGA,060532,2516.5711,N,08007.8186,W,1,10,1.5,16,M,,M,,*6A
06/24/2015	06:05:32.531	$GPGGA,060533,2516.5703,N,08007.8188,W,1,10,1.5,16,M,,M,,*66
06/24/2015	06:05:33.517	$GPGGA,060534,2516.5694,N,08007.8191,W,1,10,1.5,16,M,,M,,*66
06/24/2015	06:05:34.533	$GPGGA,060535,2516.5685,N,08007.8193,W,1,10,1.5,16,M,,M,,*65
06/24/2015	06:05:35.537	$GPGGA,060536,2516.5676,N,08007.8195,W,1,10,1.5,16,M,,M,,*6C
06/24/2015	06:05:36.517	$GPGGA,060537,2516.5667,N,08007.8197,W,1,10,1.5,16,M,,M,,*6F
06/24/2015	06:05:37.507	$GPGGA,060538,2516.5658,N,08007.8199,W,1,10,1.5,16,M,,M,,*62
06/24/2015	06:05:38.530	$GPGGA,060539,2516.5649,N,08007.8202,W,1,10,1.5,16,M,,M,,*62
06/24/2015	06:05:39.546	$GPGGA,060540,2516.5640,N,08007.8204,W,1,10,1.5,16,M,,M,,*63
06/24/2015	06:05:40.632	$GPGGA,060541,2516.5631,N,08007.8208,W,1,10,1.5,16,M,,M,,*68
06/24/2015	06:05:41.639	$GPGGA,060542,2516.5622,N,08007.8209,W,1,10,1.5,16,M,,M,,*68
06/24/2015	06:05:42.506	$GPGGA,060543,2516.5613,N,08007.8212,W,1,10,1.5,16,M,,M,,*61
06/24/2015	06:05:43.506	$GPGGA,060544,2516.5605,N,08007.8213,W,1,10,1.5,16,M,,M,,*60
06/24/2015	06:05:44.596	$GPGGA,060545,2516.5596,N,08007.8215,W,1,10,1.5,16,M,,M,,*6E
06/24/2015	06:05:45.616	$GPGGA,060546,2516.5587,N,08007.8217,W,1,10,1.5,16,M,,M,,*6F
06/24/2015	06:05:46.486	$GPGGA,060547,2516.5578,N,08007.8220,W,1,10,1.5,16,M,,M,,*6A
06/24/2015	06:05:47.643	$GPGGA,060548,2516.5570,N,08007.8223,W,1,10,1.5,16,M,,M,,*6E
06/24/2015	06:05:48.506	$GPGGA,060549,2516.5562,N,08007.8226,W,1,10,1.6,16,M,,M,,*6A
06/24/2015	06:05:49.616	$GPGGA,060550,2516.5553,N,08007.8227,W,1,9,1.6,16,M,,M,,*59
06/24/2015	06:05:50.577	$GPGGA,060551,2516.5545,N,08007.8230,W,1,9,1.5,15,M,,M,,*59
06/24/2015	06:05:51.487	$GPGGA,060552,2516.5538,N,08007.8234,W,1,10,1.5,15,M,,M,,*6C
06/24/2015	06:05:52.577	$GPGGA,060553,2516.5530,N,08007.8237,W,1,10,1.5,15,M,,M,,*66
06/24/2015	06:05:53.607	$GPGGA,060554,2516.5522,N,08007.8238,W,1,10,1.5,15,M,,M,,*6D
06/24/2015	06:05:54.587	$GPGGA,060555,2516.5513,N,08007.8242,W,1,10,1.5,15,M,,M,,*63
06/24/2015	06:05:55.586	$GPGGA,060556,2516.5504,N,08007.8245,W,1,10,1.5,15,M,,M,,*61
06/24/2015	06:05:56.586	$GPGGA,060557,2516.5495,N,08007.8246,W,1,10,1.5,15,M,,M,,*6A
06/24/2015	06:05:57.566	$GPGGA,060558,2516.5486,N,08007.8248,W,1,10,1.5,15,M,,M,,*69
06/24/2015	06:05:58.577	$GPGGA,060559,2516.5477,N,08007.8251,W,1,10,1.5,15,M,,M,,*6E
06/24/2015	06:05:59.639	$GPGGA,060600,2516.5468,N,08007.8252,W,1,9,1.6,15,M,,M,,*57
06/24/2015	06:06:00.566	$GPGGA,060601,2516.5461,N,08007.8255,W,1,9,1.5,15,M,,M,,*5B
06/24/2015	06:06:02.596	$GPGGA,060603,2516.5443,N,08007.8260,W,1,10,1.5,15,M,,M,,*67
06/24/2015	06:06:03.606	$GPGGA,060604,2516.5434,N,08007.8262,W,1,10,1.5,15,M,,M,,*62
06/24/2015	06:06:04.566	$GPGGA,060605,2516.5425,N,08007.8264,W,1,10,1.5,15,M,,M,,*65
06/24/2015	06:06:05.556	$GPGGA,060606,2516.5416,N,08007.8266,W,1,10,1.5,15,M,,M,,*64
06/24/2015	06:06:06.566	$GPGGA,060607,2516.5407,N,08007.8267,W,1,10,1.5,15,M,,M,,*64
06/24/2015	06:06:07.596	$GPGGA,060608,2516.5399,N,08007.8270,W,1,10,1.5,14,M,,M,,*6C
06/24/2015	06:06:08.567	$GPGGA,060609,2516.5390,N,08007.8271,W,1,10,1.5,14,M,,M,,*65
06/24/2015	06:06:09.557	$GPGGA,060610,2516.5381,N,08007.8273,W,1,10,1.5,14,M,,M,,*6F
06/24/2015	06:06:10.557	$GPGGA,060611,2516.5374,N,08007.8274,W,1,10,1.5,14,M,,M,,*63
06/24/2015	06:06:11.577	$GPGGA,060612,2516.5364,N,08007.8277,W,1,10,1.5,14,M,,M,,*62
06/24/2015	06:06:12.539	$GPGGA,060613,2516.5356,N,08007.8277,W,1,10,1.5,14,M,,M,,*62
06/24/2015	06:06:13.566	$GPGGA,060614,2516.5347,N,08007.8280,W,1,10,1.5,14,M,,M,,*6D
06/24/2015	06:06:14.537	$GPGGA,060615,2516.5338,N,08007.8282,W,1,10,1.5,14,M,,M,,*66
06/24/2015	06:06:15.546	$GPGGA,060616,2516.5329,N,08007.8282,W,1,10,1.5,14,M,,M,,*65
06/24/2015	06:06:16.546	$GPGGA,060617,2516.5320,N,08007.8284,W,1,10,1.5,14,M,,M,,*6B
06/24/2015	06:06:17.527	$GPGGA,060618,2516.5311,N,08007.8287,W,1,10,1.5,14,M,,M,,*65
06/24/2015	06:06:18.631	$GPGGA,060619,2516.5302,N,08007.8288,W,1,10,1.5,14,M,,M,,*69
06/24/2015	06:06:19.536	$GPGGA,060620,2516.5293,N,08007.8288,W,1,10,1.5,14,M,,M,,*6A
06/24/2015	06:06:20.526	$GPGGA,060621,2516.5284,N,08007.8291,W,1,10,1.5,14,M,,M,,*65
06/24/2015	06:06:21.516	$GPGGA,060622,2516.5275,N,08007.8292,W,1,10,1.5,14,M,,M,,*6B
06/24/2015	06:06:22.526	$GPGGA,060623,2516.5266,N,08007.8293,W,1,10,1.5,14,M,,M,,*69
06/24/2015	06:06:23.686	$GPGGA,060624,2516.5258,N,08007.8295,W,1,10,1.5,14,M,,M,,*65
06/24/2015	06:06:24.528	$GPGGA,060625,2516.5249,N,08007.8296,W,1,10,1.5,14,M,,M,,*67
06/24/2015	06:06:25.539	$GPGGA,060626,2516.5240,N,08007.8298,W,1,10,1.5,14,M,,M,,*63
06/24/2015	06:06:26.507	$GPGGA,060627,2516.5231,N,08007.8302,W,1,10,1.5,14,M,,M,,*66
06/24/2015	06:06:27.527	$GPGGA,060628,2516.5222,N,08007.8302,W,1,10,1.5,14,M,,M,,*6B
06/24/2015	06:06:28.507	$GPGGA,060629,2516.5213,N,08007.8303,W,1,10,1.5,14,M,,M,,*69
06/24/2015	06:06:29.529	$GPGGA,060630,2516.5205,N,08007.8306,W,1,10,1.5,14,M,,M,,*63
06/24/2015	06:06:30.506	$GPGGA,060631,2516.5195,N,08007.8307,W,1,10,1.5,14,M,,M,,*69
06/24/2015	06:06:31.506	$GPGGA,060632,2516.5187,N,08007.8309,W,1,10,1.5,13,M,,M,,*60
06/24/2015	06:06:32.596	$GPGGA,060633,2516.5179,N,08007.8310,W,1,10,1.5,13,M,,M,,*68
06/24/2015	06:06:33.638	$GPGGA,060634,2516.5169,N,08007.8313,W,1,10,1.5,13,M,,M,,*6D
06/24/2015	06:06:34.496	$GPGGA,060635,2516.5161,N,08007.8316,W,1,10,1.5,13,M,,M,,*61
06/24/2015	06:06:35.506	$GPGGA,060636,2516.5151,N,08007.8315,W,1,10,1.5,13,M,,M,,*62
06/24/2015	06:06:36.586	$GPGGA,060637,2516.5143,N,08007.8320,W,1,10,1.5,13,M,,M,,*66
06/24/2015	06:06:37.506	$GPGGA,060638,2516.5133,N,08007.8322,W,1,10,1.5,13,M,,M,,*6C
06/24/2015	06:06:38.576	$GPGGA,060639,2516.5125,N,08007.8322,W,1,10,1.5,13,M,,M,,*6A
06/24/2015	06:06:39.638	$GPGGA,060640,2516.5115,N,08007.8324,W,1,10,1.5,13,M,,M,,*61
06/24/2015	06:06:40.506	$GPGGA,060641,2516.5107,N,08007.8327,W,1,10,1.5,13,M,,M,,*60
06/24/2015	06:06:41.576	$GPGGA,060642,2516.5098,N,08007.8329,W,1,9,1.6,13,M,,M,,*51
06/24/2015	06:06:42.486	$GPGGA,060643,2516.5090,N,08007.8331,W,1,9,1.6,13,M,,M,,*51
06/24/2015	06:06:43.630	$GPGGA,060644,2516.5082,N,08007.8335,W,1,10,1.5,13,M,,M,,*6A
06/24/2015	06:06:44.577	$GPGGA,060645,2516.5074,N,08007.8338,W,1,10,1.5,13,M,,M,,*6F
06/24/2015	06:06:45.587	$GPGGA,060646,2516.5065,N,08007.8340,W,1,10,1.5,13,M,,M,,*63
06/24/2015	06:06:46.577	$GPGGA,060647,2516.5057,N,08007.8342,W,1,10,1.5,13,M,,M,,*61
06/24/2015	06:06:47.596	$GPGGA,060648,2516.5047,N,08007.8345,W,1,10,1.5,13,M,,M,,*68
06/24/2015	06:06:48.566	$GPGGA,060649,2516.5038,N,08007.8347,W,1,10,1.5,13,M,,M,,*63
06/24/2015	06:06:49.566	$GPGGA,060650,2516.5031,N,08007.8350,W,1,10,1.5,13,M,,M,,*64
06/24/2015	06:06:50.576	$GPGGA,060651,2516.5021,N,08007.8352,W,1,10,1.5,13,M,,M,,*66
06/24/2015	06:06:51.586	$GPGGA,060652,2516.5013,N,08007.8354,W,1,10,1.5,13,M,,M,,*62
06/24/2015	06:06:52.566	$GPGGA,060653,2516.5003,N,08007.8357,W,1,10,1.5,13,M,,M,,*61
06/24/2015	06:06:53.586	$GPGGA,060654,2516.4995,N,08007.8360,W,1,10,1.5,13,M,,M,,*65
06/24/2015	06:06:54.606	$GPGGA,060655,2516.4986,N,08007.8361,W,1,10,1.5,13,M,,M,,*67
06/24/2015	06:06:55.616	$GPGGA,060656,2516.4977,N,08007.8364,W,1,10,1.5,13,M,,M,,*6F
06/24/2015	06:06:56.556	$GPGGA,060657,2516.4969,N,08007.8367,W,1,10,1.5,13,M,,M,,*62
06/24/2015	06:06:57.544	$GPGGA,060658,2516.4960,N,08007.8370,W,1,10,1.5,13,M,,M,,*62
06/24/2015	06:06:58.546	$GPGGA,060659,2516.4950,N,08007.8371,W,1,10,1.5,13,M,,M,,*61
06/24/2015	06:06:59.641	$GPGGA,060700,2516.4942,N,08007.8374,W,1,10,1.5,13,M,,M,,*6A
06/24/2015	06:07:00.557	$GPGGA,060701,2516.4933,N,08007.8376,W,1,10,1.5,13,M,,M,,*6F
06/24/2015	06:07:01.542	$GPGGA,060702,2516.4923,N,08007.8378,W,1,10,1.5,13,M,,M,,*63
06/24/2015	06:07:02.547	$GPGGA,060703,2516.4915,N,08007.8381,W,1,10,1.5,13,M,,M,,*61
06/24/2015	06:07:03.607	$GPGGA,060704,2516.4906,N,08007.8382,W,1,10,1.5,13,M,,M,,*67
06/24/2015	06:07:04.541	$GPGGA,060705,2516.4897,N,08007.8385,W,1,10,1.5,13,M,,M,,*68
06/24/2015	06:07:05.556	$GPGGA,060706,2516.4890,N,08007.8386,W,1,10,1.5,13,M,,M,,*6F
06/24/2015	06:07:06.538	$GPGGA,060707,2516.4880,N,08007.8390,W,1,10,1.5,13,M,,M,,*68
06/24/2015	06:07:07.566	$GPGGA,060708,2516.4872,N,08007.8392,W,1,10,1.5,13,M,,M,,*68
06/24/2015	06:07:08.556	$GPGGA,060709,2516.4862,N,08007.8393,W,1,10,1.5,13,M,,M,,*69
06/24/2015	06:07:09.556	$GPGGA,060710,2516.4854,N,08007.8397,W,1,10,1.5,13,M,,M,,*60
06/24/2015	06:07:10.546	$GPGGA,060711,2516.4843,N,08007.8400,W,1,10,1.6,13,M,,M,,*6D
06/24/2015	06:07:11.536	$GPGGA,060712,2516.4834,N,08007.8400,W,1,9,1.5,13,M,,M,,*55
06/24/2015	06:07:12.630	$GPGGA,060713,2516.4825,N,08007.8401,W,1,9,1.5,13,M,,M,,*55
06/24/2015	06:07:13.536	$GPGGA,060714,2516.4816,N,08007.8407,W,1,10,1.5,13,M,,M,,*6C
06/24/2015	06:07:14.506	$GPGGA,060715,2516.4807,N,08007.8407,W,1,10,1.5,13,M,,M,,*6D
06/24/2015	06:07:15.556	$GPGGA,060716,2516.4799,N,08007.8407,W,1,10,1.5,13,M,,M,,*66
06/24/2015	06:07:16.596	$GPGGA,060717,2516.4790,N,08007.8411,W,1,10,1.5,13,M,,M,,*69
06/24/2015	06:07:17.516	$GPGGA,060718,2516.4782,N,08007.8414,W,1,10,1.5,13,M,,M,,*60
06/24/2015	06:07:18.606	$GPGGA,060719,2516.4774,N,08007.8414,W,1,10,1.5,13,M,,M,,*68
06/24/2015	06:07:19.596	$GPGGA,060720,2516.4765,N,08007.8418,W,1,10,1.5,13,M,,M,,*6E
06/24/2015	06:07:20.506	$GPGGA,060721,2516.4756,N,08007.8421,W,1,10,1.5,13,M,,M,,*65
06/24/2015	06:07:21.586	$GPGGA,060722,2516.4749,N,08007.8421,W,1,10,1.5,13,M,,M,,*68
06/24/2015	06:07:22.585	$GPGGA,060723,2516.4739,N,08007.8422,W,1,10,1.5,13,M,,M,,*6D
06/24/2015	06:07:23.618	$GPGGA,060724,2516.4731,N,08007.8426,W,1,10,1.5,13,M,,M,,*66
06/24/2015	06:07:24.506	$GPGGA,060725,2516.4722,N,08007.8428,W,1,10,1.5,13,M,,M,,*6B
06/24/2015	06:07:25.585	$GPGGA,060726,2516.4713,N,08007.8428,W,1,10,1.6,13,M,,M,,*69
06/24/2015	06:07:26.585	$GPGGA,060727,2516.4704,N,08007.8430,W,1,10,1.6,13,M,,M,,*67
06/24/2015	06:07:27.615	$GPGGA,060728,2516.4696,N,08007.8432,W,1,10,1.5,13,M,,M,,*63
06/24/2015	06:07:28.576	$GPGGA,060729,2516.4688,N,08007.8433,W,1,10,1.5,13,M,,M,,*6C
06/24/2015	06:07:29.586	$GPGGA,060730,2516.4678,N,08007.8434,W,1,10,1.5,13,M,,M,,*6C
06/24/2015	06:07:30.566	$GPGGA,060731,2516.4670,N,08007.8436,W,1,10,1.5,13,M,,M,,*67
06/24/2015	06:07:31.606	$GPGGA,060732,2516.4662,N,08007.8437,W,1,10,1.5,13,M,,M,,*66
06/24/2015	06:07:32.566	$GPGGA,060733,2516.4653,N,08007.8439,W,1,10,1.5,13,M,,M,,*6B
06/24/2015	06:07:33.596	$GPGGA,060734,2516.4644,N,08007.8439,W,1,10,1.5,13,M,,M,,*6A
06/24/2015	06:07:34.556	$GPGGA,060735,2516.4635,N,08007.8439,W,1,10,1.5,13,M,,M,,*6D
06/24/2015	06:07:35.586	$GPGGA,060736,2516.4627,N,08007.8443,W,1,10,1.5,13,M,,M,,*60
06/24/2015	06:07:36.556	$GPGGA,060737,2516.4619,N,08007.8443,W,1,10,1.5,13,M,,M,,*6C
06/24/2015	06:07:37.566	$GPGGA,060738,2516.4609,N,08007.8442,W,1,10,1.5,13,M,,M,,*63
06/24/2015	06:07:38.566	$GPGGA,060739,2516.4601,N,08007.8446,W,1,10,1.5,13,M,,M,,*6E
06/24/2015	06:07:39.596	$GPGGA,060740,2516.4592,N,08007.8447,W,1,10,1.5,13,M,,M,,*68
06/24/2015	06:07:40.555	$GPGGA,060741,2516.4583,N,08007.8447,W,1,10,1.5,13,M,,M,,*69
06/24/2015	06:07:41.565	$GPGGA,060742,2516.4573,N,08007.8448,W,1,10,1.5,13,M,,M,,*6A
06/24/2015	06:07:42.555	$GPGGA,060743,2516.4565,N,08007.8451,W,1,10,1.7,13,M,,M,,*66
06/24/2015	06:07:43.585	$GPGGA,060744,2516.4555,N,08007.8452,W,1,10,1.5,13,M,,M,,*63
06/24/2015	06:07:44.555	$GPGGA,060745,2516.4545,N,08007.8450,W,1,10,1.5,13,M,,M,,*61
06/24/2015	06:07:45.546	$GPGGA,060746,2516.4536,N,08007.8452,W,1,10,1.5,14,M,,M,,*63
06/24/2015	06:07:46.546	$GPGGA,060747,2516.4527,N,08007.8454,W,1,10,1.5,14,M,,M,,*64
06/24/2015	06:07:47.566	$GPGGA,060748,2516.4518,N,08007.8454,W,1,10,1.5,14,M,,M,,*67
06/24/2015	06:07:48.546	$GPGGA,060749,2516.4508,N,08007.8453,W,1,10,1.5,14,M,,M,,*60
06/24/2015	06:07:49.821	$GPGGA,060750,2516.4500,N,08007.8457,W,1,10,1.5,14,M,,M,,*64
06/24/2015	06:07:50.546	$GPGGA,060751,2516.4490,N,08007.8458,W,1,10,1.5,14,M,,M,,*62
06/24/2015	06:07:51.556	$GPGGA,060752,2516.4482,N,08007.8457,W,1,10,1.5,14,M,,M,,*6D
06/24/2015	06:07:52.536	$GPGGA,060753,2516.4472,N,08007.8459,W,1,10,1.5,14,M,,M,,*6D
06/24/2015	06:07:53.516	$GPGGA,060754,2516.4464,N,08007.8464,W,1,10,1.5,14,M,,M,,*63
06/24/2015	06:07:54.526	$GPGGA,060755,2516.4454,N,08007.8463,W,1,10,1.5,14,M,,M,,*66
06/24/2015	06:07:55.526	$GPGGA,060756,2516.4445,N,08007.8465,W,1,10,1.5,14,M,,M,,*63
06/24/2015	06:07:56.526	$GPGGA,060757,2516.4436,N,08007.8468,W,1,10,1.5,14,M,,M,,*6B
06/24/2015	06:07:57.565	$GPGGA,060758,2516.4427,N,08007.8468,W,1,10,1.5,14,M,,M,,*64
06/24/2015	06:07:58.535	$GPGGA,060759,2516.4418,N,08007.8470,W,1,10,1.5,14,M,,M,,*60
06/24/2015	06:07:59.575	$GPGGA,060800,2516.4410,N,08007.8472,W,1,10,1.5,15,M,,M,,*68
06/24/2015	06:08:00.505	$GPGGA,060801,2516.4402,N,08007.8475,W,1,10,1.5,15,M,,M,,*6D
06/24/2015	06:08:01.505	$GPGGA,060802,2516.4393,N,08007.8476,W,1,10,1.5,15,M,,M,,*62
06/24/2015	06:08:02.515	$GPGGA,060803,2516.4385,N,08007.8479,W,1,10,1.5,15,M,,M,,*6B
06/24/2015	06:08:03.629	$GPGGA,060804,2516.4375,N,08007.8480,W,1,10,1.5,15,M,,M,,*65
06/24/2015	06:08:04.519	$GPGGA,060805,2516.4367,N,08007.8483,W,1,10,1.5,15,M,,M,,*64
06/24/2015	06:08:05.496	$GPGGA,060806,2516.4359,N,08007.8486,W,1,10,1.5,15,M,,M,,*6F
06/24/2015	06:08:06.516	$GPGGA,060807,2516.4349,N,08007.8487,W,1,10,1.5,15,M,,M,,*6E
06/24/2015	06:08:08.156	$GPGGA,060808,2516.4341,N,08007.8488,W,1,10,1.5,15,M,,M,,*66
06/24/2015	06:08:08.596	$GPGGA,060809,2516.4332,N,08007.8491,W,1,10,1.5,15,M,,M,,*6B
06/24/2015	06:08:09.586	$GPGGA,060810,2516.4323,N,08007.8493,W,1,10,1.5,15,M,,M,,*61
06/24/2015	06:08:10.596	$GPGGA,060811,2516.4314,N,08007.8495,W,1,10,1.5,15,M,,M,,*62
06/24/2015	06:08:11.606	$GPGGA,060812,2516.4306,N,08007.8497,W,1,10,1.5,15,M,,M,,*60
06/24/2015	06:08:12.586	$GPGGA,060813,2516.4297,N,08007.8501,W,1,10,1.5,15,M,,M,,*66
06/24/2015	06:08:13.486	$GPGGA,060814,2516.4288,N,08007.8501,W,1,10,1.5,15,M,,M,,*6F
06/24/2015	06:08:14.576	$GPGGA,060815,2516.4279,N,08007.8502,W,1,10,1.5,15,M,,M,,*63
06/24/2015	06:08:15.485	$GPGGA,060816,2516.4272,N,08007.8508,W,1,10,1.5,15,M,,M,,*61
06/24/2015	06:08:16.475	$GPGGA,060817,2516.4260,N,08007.8508,W,1,10,1.5,15,M,,M,,*63
06/24/2015	06:08:17.585	$GPGGA,060818,2516.4252,N,08007.8509,W,1,9,1.6,15,M,,M,,*57
06/24/2015	06:08:18.565	$GPGGA,060819,2516.4245,N,08007.8515,W,1,9,1.5,15,M,,M,,*5E
06/24/2015	06:08:19.605	$GPGGA,060820,2516.4236,N,08007.8516,W,1,10,1.5,15,M,,M,,*6B
06/24/2015	06:08:20.566	$GPGGA,060821,2516.4227,N,08007.8519,W,1,10,1.5,15,M,,M,,*65
06/24/2015	06:08:21.576	$GPGGA,060822,2516.4219,N,08007.8522,W,1,10,1.5,15,M,,M,,*63
06/24/2015	06:08:22.576	$GPGGA,060823,2516.4211,N,08007.8524,W,1,10,1.5,15,M,,M,,*6C
06/24/2015	06:08:23.596	$GPGGA,060824,2516.4202,N,08007.8526,W,1,10,1.5,15,M,,M,,*6B
06/24/2015	06:08:24.556	$GPGGA,060825,2516.4194,N,08007.8530,W,1,10,1.5,15,M,,M,,*61
06/24/2015	06:08:25.576	$GPGGA,060826,2516.4185,N,08007.8533,W,1,10,1.5,15,M,,M,,*61
06/24/2015	06:08:26.556	$GPGGA,060827,2516.4174,N,08007.8532,W,1,10,1.6,15,M,,M,,*6C
06/24/2015	06:08:27.586	$GPGGA,060828,2516.4166,N,08007.8535,W,1,10,1.5,15,M,,M,,*64
06/24/2015	06:08:28.546	$GPGGA,060829,2516.4158,N,08007.8538,W,1,10,1.5,15,M,,M,,*65
06/24/2015	06:08:29.576	$GPGGA,060830,2516.4151,N,08007.8542,W,1,9,1.6,15,M,,M,,*52
06/24/2015	06:08:30.536	$GPGGA,060831,2516.4142,N,08007.8544,W,1,9,1.5,15,M,,M,,*54
06/24/2015	06:08:31.576	$GPGGA,060832,2516.4133,N,08007.8548,W,1,10,1.5,15,M,,M,,*65
06/24/2015	06:08:32.555	$GPGGA,060833,2516.4124,N,08007.8549,W,1,10,1.5,15,M,,M,,*63
06/24/2015	06:08:33.565	$GPGGA,060834,2516.4115,N,08007.8551,W,1,9,1.6,15,M,,M,,*54
06/24/2015	06:08:34.545	$GPGGA,060835,2516.4107,N,08007.8553,W,1,9,1.5,15,M,,M,,*57
06/24/2015	06:08:35.565	$GPGGA,060836,2516.4100,N,08007.8558,W,1,10,1.5,15,M,,M,,*60
06/24/2015	06:08:36.545	$GPGGA,060837,2516.4092,N,08007.8559,W,1,10,1.5,15,M,,M,,*6A
06/24/2015	06:08:37.555	$GPGGA,060838,2516.4083,N,08007.8562,W,1,10,1.5,15,M,,M,,*6D
06/24/2015	06:08:38.546	$GPGGA,060839,2516.4074,N,08007.8564,W,1,10,1.5,15,M,,M,,*62
06/24/2015	06:08:39.536	$GPGGA,060840,2516.4066,N,08007.8566,W,1,10,1.5,15,M,,M,,*6D
06/24/2015	06:08:40.546	$GPGGA,060841,2516.4059,N,08007.8569,W,1,10,1.5,15,M,,M,,*6F
06/24/2015	06:08:41.556	$GPGGA,060842,2516.4049,N,08007.8571,W,1,10,1.5,15,M,,M,,*64
06/24/2015	06:08:42.516	$GPGGA,060843,2516.4041,N,08007.8573,W,1,10,1.5,15,M,,M,,*6F
06/24/2015	06:08:43.526	$GPGGA,060844,2516.4034,N,08007.8576,W,1,10,1.5,15,M,,M,,*6F
06/24/2015	06:08:44.635	$GPGGA,060845,2516.4024,N,08007.8577,W,1,10,1.5,15,M,,M,,*6E
06/24/2015	06:08:45.546	$GPGGA,060846,2516.4016,N,08007.8580,W,1,10,1.5,15,M,,M,,*64
06/24/2015	06:08:47.556	$GPGGA,060848,2516.3998,N,08007.8584,W,1,10,1.5,15,M,,M,,*66
06/24/2015	06:08:48.521	$GPGGA,060849,2516.3989,N,08007.8584,W,1,10,1.5,15,M,,M,,*67
06/24/2015	06:08:49.627	$GPGGA,060850,2516.3983,N,08007.8587,W,1,10,1.5,15,M,,M,,*66
06/24/2015	06:08:50.505	$GPGGA,060851,2516.3973,N,08007.8591,W,1,10,1.5,15,M,,M,,*6F
06/24/2015	06:08:51.525	$GPGGA,060852,2516.3963,N,08007.8591,W,1,10,1.5,15,M,,M,,*6D
06/24/2015	06:08:52.519	$GPGGA,060853,2516.3955,N,08007.8594,W,1,10,1.5,15,M,,M,,*6C
06/24/2015	06:08:53.605	$GPGGA,060854,2516.3947,N,08007.8596,W,1,10,1.5,15,M,,M,,*6A
06/24/2015	06:08:54.516	$GPGGA,060855,2516.3937,N,08007.8598,W,1,10,1.5,15,M,,M,,*62
06/24/2015	06:08:55.526	$GPGGA,060856,2516.3929,N,08007.8599,W,1,10,1.5,15,M,,M,,*6F
06/24/2015	06:08:56.596	$GPGGA,060857,2516.3920,N,08007.8600,W,1,10,1.5,15,M,,M,,*64
06/24/2015	06:08:57.518	$GPGGA,060858,2516.3911,N,08007.8602,W,1,10,1.5,14,M,,M,,*6A
06/24/2015	06:08:58.486	$GPGGA,060859,2516.3902,N,08007.8605,W,1,10,1.5,14,M,,M,,*6E
06/24/2015	06:08:59.596	$GPGGA,060900,2516.3893,N,08007.8606,W,1,10,1.5,14,M,,M,,*69
06/24/2015	06:09:00.576	$GPGGA,060901,2516.3884,N,08007.8607,W,1,10,1.5,14,M,,M,,*6F
06/24/2015	06:09:01.577	$GPGGA,060902,2516.3876,N,08007.8609,W,1,10,1.5,14,M,,M,,*6F
06/24/2015	06:09:02.576	$GPGGA,060903,2516.3867,N,08007.8613,W,1,10,1.5,14,M,,M,,*65
06/24/2015	06:09:03.621	$GPGGA,060904,2516.3859,N,08007.8613,W,1,10,1.5,14,M,,M,,*6F
06/24/2015	06:09:04.586	$GPGGA,060905,2516.3850,N,08007.8612,W,1,10,1.5,14,M,,M,,*66
06/24/2015	06:09:05.576	$GPGGA,060906,2516.3842,N,08007.8616,W,1,10,1.5,14,M,,M,,*62
06/24/2015	06:09:06.476	$GPGGA,060907,2516.3833,N,08007.8620,W,1,10,1.5,14,M,,M,,*60
06/24/2015	06:09:07.585	$GPGGA,060908,2516.3825,N,08007.8618,W,1,10,1.5,14,M,,M,,*63
06/24/2015	06:09:08.575	$GPGGA,060909,2516.3815,N,08007.8620,W,1,10,1.5,14,M,,M,,*6A
06/24/2015	06:09:09.565	$GPGGA,060910,2516.3808,N,08007.8624,W,1,10,1.5,14,M,,M,,*6A
06/24/2015	06:09:10.585	$GPGGA,060911,2516.3800,N,08007.8627,W,1,10,1.5,14,M,,M,,*60
06/24/2015	06:09:11.605	$GPGGA,060912,2516.3792,N,08007.8626,W,1,10,1.5,14,M,,M,,*66
06/24/2015	06:09:12.565	$GPGGA,060913,2516.3784,N,08007.8631,W,1,10,1.5,14,M,,M,,*66
06/24/2015	06:09:13.556	$GPGGA,060914,2516.3777,N,08007.8632,W,1,10,1.5,14,M,,M,,*6E
06/24/2015	06:09:14.566	$GPGGA,060915,2516.3767,N,08007.8632,W,1,10,1.5,14,M,,M,,*6E
06/24/2015	06:09:15.596	$GPGGA,060916,2516.3759,N,08007.8636,W,1,10,1.5,14,M,,M,,*64
06/24/2015	06:09:16.556	$GPGGA,060917,2516.3750,N,08007.8639,W,1,10,1.5,14,M,,M,,*63
06/24/2015	06:09:17.566	$GPGGA,060918,2516.3742,N,08007.8641,W,1,10,1.5,14,M,,M,,*60
06/24/2015	06:09:18.556	$GPGGA,060919,2516.3734,N,08007.8642,W,1,10,1.5,14,M,,M,,*63
06/24/2015	06:09:19.586	$GPGGA,060920,2516.3727,N,08007.8645,W,1,10,1.5,14,M,,M,,*6C
06/24/2015	06:09:20.556	$GPGGA,060921,2516.3718,N,08007.8647,W,1,10,1.5,14,M,,M,,*63
06/24/2015	06:09:21.546	$GPGGA,060922,2516.3709,N,08007.8649,W,1,10,1.5,14,M,,M,,*6E
06/24/2015	06:09:22.556	$GPGGA,060923,2516.3701,N,08007.8652,W,1,10,1.5,14,M,,M,,*6D
06/24/2015	06:09:23.546	$GPGGA,060924,2516.3694,N,08007.8654,W,1,10,1.5,14,M,,M,,*61
06/24/2015	06:09:24.537	$GPGGA,060925,2516.3685,N,08007.8656,W,1,10,1.5,14,M,,M,,*62
06/24/2015	06:09:25.531	$GPGGA,060926,2516.3677,N,08007.8658,W,1,10,1.5,14,M,,M,,*62
06/24/2015	06:09:26.535	$GPGGA,060927,2516.3669,N,08007.8660,W,1,10,1.5,14,M,,M,,*67
06/24/2015	06:09:27.565	$GPGGA,060928,2516.3659,N,08007.8663,W,1,10,1.5,14,M,,M,,*68
06/24/2015	06:09:28.527	$GPGGA,060929,2516.3652,N,08007.8665,W,1,10,1.5,14,M,,M,,*64
06/24/2015	06:09:29.530	$GPGGA,060930,2516.3643,N,08007.8667,W,1,10,1.5,14,M,,M,,*6E
06/24/2015	06:09:30.536	$GPGGA,060931,2516.3634,N,08007.8670,W,1,10,1.5,14,M,,M,,*69
06/24/2015	06:09:31.566	$GPGGA,060932,2516.3626,N,08007.8671,W,1,10,1.5,14,M,,M,,*68
06/24/2015	06:09:32.536	$GPGGA,060933,2516.3618,N,08007.8674,W,1,10,1.5,14,M,,M,,*61
06/24/2015	06:09:33.520	$GPGGA,060934,2516.3609,N,08007.8678,W,1,10,1.5,14,M,,M,,*6A
06/24/2015	06:09:34.527	$GPGGA,060935,2516.3600,N,08007.8679,W,1,10,1.5,14,M,,M,,*63
06/24/2015	06:09:35.556	$GPGGA,060936,2516.3591,N,08007.8681,W,1,10,1.5,14,M,,M,,*6C
06/24/2015	06:09:36.519	$GPGGA,060937,2516.3583,N,08007.8683,W,1,10,1.6,13,M,,M,,*68
06/24/2015	06:09:37.546	$GPGGA,060938,2516.3575,N,08007.8686,W,1,10,1.5,13,M,,M,,*68
06/24/2015	06:09:38.516	$GPGGA,060939,2516.3566,N,08007.8688,W,1,10,1.5,13,M,,M,,*65
06/24/2015	06:09:39.527	$GPGGA,060940,2516.3557,N,08007.8689,W,1,10,1.5,13,M,,M,,*68
06/24/2015	06:09:40.606	$GPGGA,060941,2516.3548,N,08007.8692,W,1,10,1.5,13,M,,M,,*6D
06/24/2015	06:09:41.696	$GPGGA,060942,2516.3539,N,08007.8696,W,1,10,1.5,13,M,,M,,*6C
06/24/2015	06:09:42.516	$GPGGA,060943,2516.3530,N,08007.8697,W,1,10,1.5,13,M,,M,,*65
06/24/2015	06:09:43.695	$GPGGA,060944,2516.3521,N,08007.8699,W,1,10,1.5,13,M,,M,,*6C
06/24/2015	06:09:44.527	$GPGGA,060945,2516.3513,N,08007.8703,W,1,10,1.5,13,M,,M,,*6E
06/24/2015	06:09:45.485	$GPGGA,060946,2516.3505,N,08007.8704,W,1,10,1.5,13,M,,M,,*6D
06/24/2015	06:09:46.505	$GPGGA,060947,2516.3496,N,08007.8707,W,1,10,1.5,13,M,,M,,*64
06/24/2015	06:09:47.595	$GPGGA,060948,2516.3488,N,08007.8710,W,1,10,1.5,13,M,,M,,*62
06/24/2015	06:09:48.586	$GPGGA,060949,2516.3479,N,08007.8712,W,1,10,1.5,13,M,,M,,*6F
06/24/2015	06:09:49.486	$GPGGA,060950,2516.3470,N,08007.8714,W,1,10,1.5,13,M,,M,,*68
06/24/2015	06:09:50.486	$GPGGA,060951,2516.3463,N,08007.8717,W,1,10,1.5,13,M,,M,,*68
06/24/2015	06:09:51.486	$GPGGA,060952,2516.3456,N,08007.8721,W,1,10,1.5,13,M,,M,,*68
06/24/2015	06:09:52.606	$GPGGA,060953,2516.3445,N,08007.8721,W,1,10,1.5,13,M,,M,,*6B
06/24/2015	06:09:53.567	$GPGGA,060954,2516.3438,N,08007.8725,W,1,10,1.5,13,M,,M,,*62
06/24/2015	06:09:54.566	$GPGGA,060955,2516.3430,N,08007.8728,W,1,10,1.5,13,M,,M,,*66
06/24/2015	06:09:55.686	$GPGGA,060956,2516.3421,N,08007.8729,W,1,9,1.5,13,M,,M,,*5C
06/24/2015	06:09:56.596	$GPGGA,060957,2516.3412,N,08007.8732,W,1,9,1.5,13,M,,M,,*57
06/24/2015	06:09:57.666	$GPGGA,060958,2516.3403,N,08007.8735,W,1,10,1.5,13,M,,M,,*67
06/24/2015	06:09:58.586	$GPGGA,060959,2516.3395,N,08007.8739,W,1,10,1.5,13,M,,M,,*62
06/24/2015	06:09:59.686	$GPGGA,061000,2516.3388,N,08007.8740,W,1,9,1.6,13,M,,M,,*5F
06/24/2015	06:10:00.585	$GPGGA,061001,2516.3380,N,08007.8743,W,1,9,1.5,13,M,,M,,*56
06/24/2015	06:10:01.665	$GPGGA,061002,2516.3371,N,08007.8746,W,1,10,1.5,13,M,,M,,*66
06/24/2015	06:10:02.585	$GPGGA,061003,2516.3364,N,08007.8750,W,1,10,1.5,13,M,,M,,*64
06/24/2015	06:10:03.675	$GPGGA,061004,2516.3356,N,08007.8751,W,1,10,1.5,13,M,,M,,*63
06/24/2015	06:10:04.585	$GPGGA,061005,2516.3348,N,08007.8754,W,1,10,1.5,13,M,,M,,*68
06/24/2015	06:10:05.546	$GPGGA,061006,2516.3341,N,08007.8757,W,1,10,1.5,13,M,,M,,*61
06/24/2015	06:10:06.576	$GPGGA,061007,2516.3333,N,08007.8761,W,1,10,1.5,13,M,,M,,*60
06/24/2015	06:10:07.666	$GPGGA,061008,2516.3324,N,08007.8761,W,1,10,1.5,13,M,,M,,*69
06/24/2015	06:10:08.597	$GPGGA,061009,2516.3316,N,08007.8764,W,1,10,1.5,13,M,,M,,*6C
06/24/2015	06:10:09.536	$GPGGA,061010,2516.3309,N,08007.8768,W,1,9,1.6,13,M,,M,,*5D
06/24/2015	06:10:10.566	$GPGGA,061011,2516.3301,N,08007.8768,W,1,9,1.5,13,M,,M,,*57
06/24/2015	06:10:11.666	$GPGGA,061012,2516.3293,N,08007.8769,W,1,10,1.5,13,M,,M,,*67
06/24/2015	06:10:12.576	$GPGGA,061013,2516.3284,N,08007.8772,W,1,10,1.5,13,M,,M,,*6A
06/24/2015	06:10:13.626	$GPGGA,061014,2516.3276,N,08007.8775,W,1,10,1.6,13,M,,M,,*64
06/24/2015	06:10:14.566	$GPGGA,061015,2516.3269,N,08007.8776,W,1,10,1.5,13,M,,M,,*6B
06/24/2015	06:10:15.656	$GPGGA,061016,2516.3260,N,08007.8776,W,1,10,1.5,13,M,,M,,*61
06/24/2015	06:10:16.556	$GPGGA,061017,2516.3251,N,08007.8776,W,1,10,1.5,13,M,,M,,*62
06/24/2015	06:10:17.595	$GPGGA,061018,2516.3242,N,08007.8780,W,1,10,1.6,13,M,,M,,*65
06/24/2015	06:10:18.645	$GPGGA,061019,2516.3233,N,08007.8783,W,1,10,1.5,13,M,,M,,*62
06/24/2015	06:10:19.655	$GPGGA,061020,2516.3225,N,08007.8781,W,1,10,1.5,13,M,,M,,*6D
06/24/2015	06:10:20.635	$GPGGA,061021,2516.3217,N,08007.8783,W,1,10,1.5,13,M,,M,,*6F
06/24/2015	06:10:21.625	$GPGGA,061022,2516.3210,N,08007.8786,W,1,10,1.5,13,M,,M,,*6E
06/24/2015	06:10:22.545	$GPGGA,061023,2516.3201,N,08007.8785,W,1,10,1.5,13,M,,M,,*6C
06/24/2015	06:10:23.646	$GPGGA,061024,2516.3192,N,08007.8786,W,1,10,1.6,13,M,,M,,*62
06/24/2015	06:10:24.518	$GPGGA,061025,2516.3182,N,08007.8790,W,1,10,1.6,13,M,,M,,*65
06/24/2015	06:10:25.596	$GPGGA,061026,2516.3174,N,08007.8793,W,1,10,1.5,14,M,,M,,*68
06/24/2015	06:10:26.506	$GPGGA,061027,2516.3163,N,08007.8792,W,1,10,1.5,14,M,,M,,*6E
06/24/2015	06:10:27.597	$GPGGA,061028,2516.3154,N,08007.8794,W,1,9,1.5,14,M,,M,,*5B
06/24/2015	06:10:28.536	$GPGGA,061029,2516.3147,N,08007.8795,W,1,9,1.5,14,M,,M,,*59
06/24/2015	06:10:29.626	$GPGGA,061030,2516.3138,N,08007.8797,W,1,10,1.5,14,M,,M,,*63
06/24/2015	06:10:30.616	$GPGGA,061031,2516.3129,N,08007.8796,W,1,10,1.5,14,M,,M,,*63
06/24/2015	06:10:31.617	$GPGGA,061032,2516.3121,N,08007.8798,W,1,10,1.5,14,M,,M,,*66
06/24/2015	06:10:32.526	$GPGGA,061033,2516.3112,N,08007.8801,W,1,10,1.5,14,M,,M,,*68
06/24/2015	06:10:33.486	$GPGGA,061034,2516.3105,N,08007.8800,W,1,10,1.5,14,M,,M,,*68
06/24/2015	06:10:34.616	$GPGGA,061035,2516.3095,N,08007.8801,W,1,10,1.5,14,M,,M,,*60
06/24/2015	06:10:35.605	$GPGGA,061036,2516.3087,N,08007.8804,W,1,10,1.5,14,M,,M,,*65
06/24/2015	06:10:36.535	$GPGGA,061037,2516.3078,N,08007.8805,W,1,10,1.6,14,M,,M,,*66
06/24/2015	06:10:37.485	$GPGGA,061038,2516.3069,N,08007.8808,W,1,9,1.6,14,M,,M,,*5C
06/24/2015	06:10:38.595	$GPGGA,061039,2516.3060,N,08007.8809,W,1,9,1.6,14,M,,M,,*55
06/24/2015	06:10:39.595	$GPGGA,061040,2516.3053,N,08007.8811,W,1,9,1.5,14,M,,M,,*51
06/24/2015	06:10:40.876	$GPGGA,061041,2516.3044,N,08007.8812,W,1,9,1.6,14,M,,M,,*56
06/24/2015	06:10:41.637	$GPGGA,061042,2516.3035,N,08007.8813,W,1,9,1.5,14,M,,M,,*51
06/24/2015	06:10:42.506	$GPGGA,061043,2516.3026,N,08007.8815,W,1,9,1.5,14,M,,M,,*54
06/24/2015	06:10:43.586	$GPGGA,061044,2516.3018,N,08007.8816,W,1,10,1.5,14,M,,M,,*65
06/24/2015	06:10:44.576	$GPGGA,061045,2516.3010,N,08007.8819,W,1,10,1.5,14,M,,M,,*63
06/24/2015	06:10:45.596	$GPGGA,061046,2516.3001,N,08007.8819,W,1,10,1.5,14,M,,M,,*60
06/24/2015	06:10:46.566	$GPGGA,061047,2516.2993,N,08007.8822,W,1,10,1.5,14,M,,M,,*6A
06/24/2015	06:10:47.616	$GPGGA,061048,2516.2984,N,08007.8823,W,1,10,1.5,14,M,,M,,*62
06/24/2015	06:10:48.556	$GPGGA,061049,2516.2975,N,08007.8824,W,1,10,1.5,14,M,,M,,*6A
06/24/2015	06:10:49.576	$GPGGA,061050,2516.2968,N,08007.8826,W,1,10,1.5,14,M,,M,,*6C
06/24/2015	06:10:50.556	$GPGGA,061051,2516.2958,N,08007.8829,W,1,10,1.5,14,M,,M,,*61
06/24/2015	06:10:51.566	$GPGGA,061052,2516.2950,N,08007.8830,W,1,10,1.6,14,M,,M,,*61
06/24/2015	06:10:52.565	$GPGGA,061053,2516.2941,N,08007.8831,W,1,10,1.5,14,M,,M,,*62
06/24/2015	06:10:53.585	$GPGGA,061054,2516.2933,N,08007.8833,W,1,10,1.5,14,M,,M,,*62
06/24/2015	06:10:54.545	$GPGGA,061055,2516.2924,N,08007.8837,W,1,10,1.5,14,M,,M,,*61
06/24/2015	06:10:55.635	$GPGGA,061056,2516.2914,N,08007.8840,W,1,10,1.5,15,M,,M,,*60
06/24/2015	06:10:56.555	$GPGGA,061057,2516.2905,N,08007.8840,W,1,10,1.5,15,M,,M,,*61
06/24/2015	06:10:57.605	$GPGGA,061058,2516.2896,N,08007.8844,W,1,10,1.5,15,M,,M,,*61
06/24/2015	06:10:58.536	$GPGGA,061059,2516.2887,N,08007.8848,W,1,10,1.5,15,M,,M,,*6C
06/24/2015	06:10:59.646	$GPGGA,061100,2516.2887,N,08007.8848,W,1,10,1.5,15,M,,M,,*61
06/24/2015	06:11:00.546	$GPGGA,061101,2516.2869,N,08007.8851,W,1,10,1.5,15,M,,M,,*68
06/24/2015	06:11:01.576	$GPGGA,061102,2516.2860,N,08007.8855,W,1,10,1.5,15,M,,M,,*66
06/24/2015	06:11:02.536	$GPGGA,061103,2516.2850,N,08007.8856,W,1,10,1.5,15,M,,M,,*67
06/24/2015	06:11:03.587	$GPGGA,061104,2516.2850,N,08007.8856,W,1,10,1.5,15,M,,M,,*60
06/24/2015	06:11:04.556	$GPGGA,061105,2516.2833,N,08007.8862,W,1,10,1.5,15,M,,M,,*63
06/24/2015	06:11:05.556	$GPGGA,061106,2516.2833,N,08007.8862,W,1,10,1.5,15,M,,M,,*60
06/24/2015	06:11:06.536	$GPGGA,061107,2516.2816,N,08007.8865,W,1,10,1.5,15,M,,M,,*61
06/24/2015	06:11:07.606	$GPGGA,061108,2516.2806,N,08007.8867,W,1,10,1.5,15,M,,M,,*6D
06/24/2015	06:11:08.546	$GPGGA,061109,2516.2798,N,08007.8873,W,1,10,1.5,15,M,,M,,*61
06/24/2015	06:11:09.536	$GPGGA,061110,2516.2798,N,08007.8873,W,1,10,1.5,15,M,,M,,*69
06/24/2015	06:11:10.537	$GPGGA,061111,2516.2780,N,08007.8876,W,1,10,1.5,15,M,,M,,*64
06/24/2015	06:11:11.555	$GPGGA,061112,2516.2780,N,08007.8876,W,1,10,1.5,15,M,,M,,*67
06/24/2015	06:11:12.530	$GPGGA,061113,2516.2762,N,08007.8881,W,1,10,1.5,15,M,,M,,*62
06/24/2015	06:11:13.655	$GPGGA,061114,2516.2762,N,08007.8881,W,1,10,1.5,15,M,,M,,*65
06/24/2015	06:11:14.529	$GPGGA,061115,2516.2744,N,08007.8885,W,1,10,1.5,15,M,,M,,*64
06/24/2015	06:11:15.646	$GPGGA,061116,2516.2735,N,08007.8889,W,1,10,1.5,15,M,,M,,*6D
06/24/2015	06:11:16.528	$GPGGA,061117,2516.2726,N,08007.8891,W,1,10,1.5,15,M,,M,,*67
06/24/2015	06:11:17.532	$GPGGA,061118,2516.2726,N,08007.8891,W,1,10,1.5,15,M,,M,,*68
06/24/2015	06:11:18.506	$GPGGA,061119,2516.2708,N,08007.8898,W,1,10,1.5,15,M,,M,,*6C
06/24/2015	06:11:19.577	$GPGGA,061120,2516.2697,N,08007.8899,W,1,10,1.5,15,M,,M,,*60
06/24/2015	06:11:20.519	$GPGGA,061121,2516.2690,N,08007.8899,W,1,10,1.5,15,M,,M,,*66
06/24/2015	06:11:21.597	$GPGGA,061122,2516.2680,N,08007.8903,W,1,10,1.5,16,M,,M,,*65
06/24/2015	06:11:22.496	$GPGGA,061123,2516.2672,N,08007.8905,W,1,10,1.5,16,M,,M,,*6F
06/24/2015	06:11:23.535	$GPGGA,061124,2516.2663,N,08007.8907,W,1,10,1.5,16,M,,M,,*6A
06/24/2015	06:11:24.586	$GPGGA,061125,2516.2654,N,08007.8909,W,1,10,1.5,16,M,,M,,*61
06/24/2015	06:11:25.506	$GPGGA,061126,2516.2654,N,08007.8909,W,1,10,1.5,16,M,,M,,*62
06/24/2015	06:11:26.596	$GPGGA,061127,2516.2636,N,08007.8914,W,1,10,1.6,16,M,,M,,*68
06/24/2015	06:11:27.516	$GPGGA,061128,2516.2636,N,08007.8914,W,1,10,1.5,16,M,,M,,*64
06/24/2015	06:11:28.585	$GPGGA,061129,2516.2617,N,08007.8918,W,1,10,1.5,16,M,,M,,*6A
06/24/2015	06:11:29.585	$GPGGA,061130,2516.2609,N,08007.8921,W,1,10,1.5,16,M,,M,,*67
06/24/2015	06:11:30.585	$GPGGA,061131,2516.2600,N,08007.8924,W,1,10,1.6,16,M,,M,,*69
06/24/2015	06:11:31.595	$GPGGA,061132,2516.2592,N,08007.8925,W,1,10,1.5,16,M,,M,,*60
06/24/2015	06:11:32.565	$GPGGA,061133,2516.2582,N,08007.8928,W,1,10,1.5,16,M,,M,,*6D
06/24/2015	06:11:33.586	$GPGGA,061134,2516.2574,N,08007.8934,W,1,10,1.5,16,M,,M,,*6E
06/24/2015	06:11:34.576	$GPGGA,061135,2516.2564,N,08007.8934,W,1,10,1.5,16,M,,M,,*6E
06/24/2015	06:11:35.596	$GPGGA,061136,2516.2556,N,08007.8935,W,1,10,1.5,16,M,,M,,*6D
06/24/2015	06:11:36.566	$GPGGA,061137,2516.2547,N,08007.8941,W,1,10,1.5,16,M,,M,,*6F
06/24/2015	06:11:37.556	$GPGGA,061138,2516.2540,N,08007.8943,W,1,9,1.6,16,M,,M,,*5E
06/24/2015	06:11:38.556	$GPGGA,061139,2516.2532,N,08007.8945,W,1,9,1.5,16,M,,M,,*5F
06/24/2015	06:11:39.606	$GPGGA,061140,2516.2524,N,08007.8946,W,1,9,1.7,16,M,,M,,*57
06/24/2015	06:11:40.556	$GPGGA,061141,2516.2515,N,08007.8949,W,1,9,1.5,16,M,,M,,*59
06/24/2015	06:11:41.586	$GPGGA,061142,2516.2505,N,08007.8949,W,1,10,1.5,16,M,,M,,*63
06/24/2015	06:11:42.546	$GPGGA,061143,2516.2496,N,08007.8949,W,1,10,1.5,17,M,,M,,*68
