Software Version Number: 1	Data File Format Number: 1	Build Version Number: 1	Error Count Since VI Started: 1	Manufacturer: Raytheon	 Model Number: RayMarine 120	 S/N: 	 Cal Date: 	 Wind Direction Offset: 0.00	 Slope (M)1: 0.00	 Offset (B)1: 0.00	 Slope (M)2: 0.00	 Offset (B)2: 0.00	 Slope (M)3: 0.00	 Offset (B)3: 0.00	 Slope (M)4: 0.00	 Offset (B)4: 0.00	 Slope (M)5: 0.00	 Offset (B)5: 0.00	 Slope (M)6: 0.00	 Offset (B)6: 0.00
Computer Date	Computer Time	GGA String
06/15/2015	16:00:00.531	$GPGGA,160001,2421.6396,N,08049.8869,W,1,10,1.5,17,M,,M,,*60
06/15/2015	16:00:01.650	$GPGGA,160002,2421.6391,N,08049.8860,W,1,10,1.5,17,M,,M,,*6D
06/15/2015	16:00:02.549	$GPGGA,160003,2421.6386,N,08049.8853,W,1,10,1.5,17,M,,M,,*6A
06/15/2015	16:00:03.520	$GPGGA,160004,2421.6380,N,08049.8847,W,1,10,1.5,17,M,,M,,*6E
06/15/2015	16:00:04.600	$GPGGA,160005,2421.6375,N,08049.8841,W,1,10,1.5,17,M,,M,,*63
06/15/2015	16:00:05.600	$GPGGA,160006,2421.6371,N,08049.8831,W,1,10,1.5,17,M,,M,,*63
06/15/2015	16:00:06.590	$GPGGA,160007,2421.6364,N,08049.8823,W,1,10,1.5,17,M,,M,,*65
06/15/2015	16:00:07.640	$GPGGA,160008,2421.6359,N,08049.8817,W,1,10,1.5,17,M,,M,,*63
06/15/2015	16:00:08.510	$GPGGA,160009,2421.6354,N,08049.8811,W,1,10,1.5,17,M,,M,,*69
06/15/2015	16:00:09.500	$GPGGA,160010,2421.6348,N,08049.8803,W,1,10,1.5,17,M,,M,,*6F
06/15/2015	16:00:10.580	$GPGGA,160011,2421.6342,N,08049.8794,W,1,10,1.5,17,M,,M,,*65
06/15/2015	16:00:11.632	$GPGGA,160012,2421.6336,N,08049.8788,W,1,10,1.5,17,M,,M,,*68
06/15/2015	16:00:12.579	$GPGGA,160013,2421.6330,N,08049.8783,W,1,10,1.5,17,M,,M,,*64
06/15/2015	16:00:13.609	$GPGGA,160014,2421.6324,N,08049.8775,W,1,10,1.5,17,M,,M,,*6F
06/15/2015	16:00:14.569	$GPGGA,160015,2421.6319,N,08049.8765,W,1,10,1.5,17,M,,M,,*61
06/15/2015	16:00:15.599	$GPGGA,160016,2421.6314,N,08049.8759,W,1,10,1.5,17,M,,M,,*60
06/15/2015	16:00:16.579	$GPGGA,160017,2421.6308,N,08049.8754,W,1,10,1.5,17,M,,M,,*61
06/15/2015	16:00:17.589	$GPGGA,160018,2421.6302,N,08049.8747,W,1,10,1.5,17,M,,M,,*66
06/15/2015	16:00:18.579	$GPGGA,160019,2421.6296,N,08049.8738,W,1,10,1.5,17,M,,M,,*63
06/15/2015	16:00:19.599	$GPGGA,160020,2421.6292,N,08049.8730,W,1,10,1.5,17,M,,M,,*65
06/15/2015	16:00:20.559	$GPGGA,160021,2421.6285,N,08049.8725,W,1,10,1.5,17,M,,M,,*66
06/15/2015	16:00:21.579	$GPGGA,160022,2421.6279,N,08049.8718,W,1,10,1.5,17,M,,M,,*68
06/15/2015	16:00:22.570	$GPGGA,160023,2421.6273,N,08049.8710,W,1,10,1.5,17,M,,M,,*6B
06/15/2015	16:00:23.610	$GPGGA,160024,2421.6268,N,08049.8702,W,1,10,1.5,17,M,,M,,*65
06/15/2015	16:00:24.560	$GPGGA,160025,2421.6261,N,08049.8695,W,1,10,1.5,17,M,,M,,*62
06/15/2015	16:00:25.550	$GPGGA,160026,2421.6256,N,08049.8691,W,1,9,1.6,17,M,,M,,*5A
06/15/2015	16:00:26.550	$GPGGA,160027,2421.6250,N,08049.8682,W,1,9,1.5,17,M,,M,,*5C
06/15/2015	16:00:27.580	$GPGGA,160028,2421.6245,N,08049.8674,W,1,9,1.6,17,M,,M,,*5D
06/15/2015	16:00:28.550	$GPGGA,160029,2421.6239,N,08049.8668,W,1,9,1.6,17,M,,M,,*5A
06/15/2015	16:00:29.569	$GPGGA,160030,2421.6232,N,08049.8664,W,1,9,1.6,17,M,,M,,*55
06/15/2015	16:00:30.539	$GPGGA,160031,2421.6227,N,08049.8656,W,1,9,1.5,17,M,,M,,*52
06/15/2015	16:00:31.559	$GPGGA,160032,2421.6221,N,08049.8650,W,1,9,1.6,17,M,,M,,*52
06/15/2015	16:00:32.549	$GPGGA,160033,2421.6216,N,08049.8643,W,1,9,1.6,17,M,,M,,*55
06/15/2015	16:00:33.539	$GPGGA,160034,2421.6209,N,08049.8633,W,1,9,1.6,17,M,,M,,*5B
06/15/2015	16:00:34.539	$GPGGA,160035,2421.6203,N,08049.8625,W,1,9,1.7,17,M,,M,,*56
06/15/2015	16:00:36.559	$GPGGA,160037,2421.6192,N,08049.8611,W,1,9,1.5,17,M,,M,,*5A
06/15/2015	16:00:37.979	$GPGGA,160038,2421.6185,N,08049.8603,W,1,10,1.5,17,M,,M,,*68
06/15/2015	16:00:38.539	$GPGGA,160039,2421.6180,N,08049.8595,W,1,10,1.5,17,M,,M,,*60
06/15/2015	16:00:39.560	$GPGGA,160040,2421.6176,N,08049.8588,W,1,10,1.5,17,M,,M,,*6B
06/15/2015	16:00:40.640	$GPGGA,160041,2421.6169,N,08049.8580,W,1,10,1.5,17,M,,M,,*6C
06/15/2015	16:00:41.520	$GPGGA,160042,2421.6163,N,08049.8572,W,1,10,1.5,17,M,,M,,*68
06/15/2015	16:00:42.610	$GPGGA,160043,2421.6158,N,08049.8564,W,1,10,1.5,17,M,,M,,*66
06/15/2015	16:00:43.560	$GPGGA,160044,2421.6153,N,08049.8557,W,1,10,1.5,17,M,,M,,*6A
06/15/2015	16:00:44.510	$GPGGA,160045,2421.6147,N,08049.8550,W,1,10,1.5,17,M,,M,,*69
06/15/2015	16:00:45.510	$GPGGA,160046,2421.6143,N,08049.8542,W,1,10,1.5,17,M,,M,,*6D
06/15/2015	16:00:46.521	$GPGGA,160047,2421.6138,N,08049.8535,W,1,10,1.5,17,M,,M,,*60
06/15/2015	16:00:47.629	$GPGGA,160048,2421.6133,N,08049.8527,W,1,10,1.5,17,M,,M,,*67
06/15/2015	16:00:48.599	$GPGGA,160049,2421.6129,N,08049.8519,W,1,10,1.5,17,M,,M,,*60
06/15/2015	16:00:49.499	$GPGGA,160050,2421.6123,N,08049.8512,W,1,10,1.5,17,M,,M,,*69
06/15/2015	16:00:50.520	$GPGGA,160051,2421.6118,N,08049.8505,W,1,10,1.5,17,M,,M,,*66
06/15/2015	16:00:51.529	$GPGGA,160052,2421.6115,N,08049.8497,W,1,10,1.5,17,M,,M,,*62
06/15/2015	16:00:52.609	$GPGGA,160053,2421.6108,N,08049.8488,W,1,10,1.5,17,M,,M,,*61
06/15/2015	16:00:53.499	$GPGGA,160054,2421.6104,N,08049.8481,W,1,10,1.5,17,M,,M,,*63
06/15/2015	16:00:54.509	$GPGGA,160055,2421.6100,N,08049.8475,W,1,10,1.5,17,M,,M,,*6D
06/15/2015	16:00:55.633	$GPGGA,160056,2421.6095,N,08049.8466,W,1,10,1.5,17,M,,M,,*61
06/15/2015	16:00:56.590	$GPGGA,160057,2421.6090,N,08049.8458,W,1,10,1.5,17,M,,M,,*68
06/15/2015	16:00:57.581	$GPGGA,160058,2421.6086,N,08049.8451,W,1,10,1.5,17,M,,M,,*69
06/15/2015	16:00:58.600	$GPGGA,160059,2421.6083,N,08049.8444,W,1,10,1.5,17,M,,M,,*69
06/15/2015	16:00:59.610	$GPGGA,160100,2421.6079,N,08049.8435,W,1,9,1.5,17,M,,M,,*5F
06/15/2015	16:01:00.580	$GPGGA,160101,2421.6075,N,08049.8428,W,1,9,1.5,17,M,,M,,*5E
06/15/2015	16:01:01.610	$GPGGA,160102,2421.6072,N,08049.8422,W,1,10,1.5,17,M,,M,,*68
06/15/2015	16:01:02.602	$GPGGA,160103,2421.6069,N,08049.8412,W,1,10,1.5,17,M,,M,,*60
06/15/2015	16:01:03.621	$GPGGA,160104,2421.6065,N,08049.8405,W,1,9,1.6,17,M,,M,,*56
06/15/2015	16:01:04.569	$GPGGA,160105,2421.6060,N,08049.8399,W,1,9,1.6,17,M,,M,,*50
06/15/2015	16:01:05.569	$GPGGA,160106,2421.6057,N,08049.8390,W,1,9,1.5,17,M,,M,,*5D
06/15/2015	16:01:06.569	$GPGGA,160107,2421.6054,N,08049.8381,W,1,9,1.5,17,M,,M,,*5F
06/15/2015	16:01:07.579	$GPGGA,160108,2421.6051,N,08049.8376,W,1,10,1.5,17,M,,M,,*65
06/15/2015	16:01:08.579	$GPGGA,160109,2421.6046,N,08049.8370,W,1,10,1.5,17,M,,M,,*64
06/15/2015	16:01:09.579	$GPGGA,160110,2421.6041,N,08049.8360,W,1,8,1.7,17,M,,M,,*51
06/15/2015	16:01:10.559	$GPGGA,160111,2421.6039,N,08049.8352,W,1,8,1.5,17,M,,M,,*5C
06/15/2015	16:01:11.609	$GPGGA,160112,2421.6033,N,08049.8348,W,1,10,1.5,17,M,,M,,*67
06/15/2015	16:01:12.559	$GPGGA,160113,2421.6029,N,08049.8342,W,1,10,1.5,17,M,,M,,*67
06/15/2015	16:01:13.589	$GPGGA,160114,2421.6026,N,08049.8333,W,1,10,1.5,17,M,,M,,*69
06/15/2015	16:01:14.570	$GPGGA,160115,2421.6022,N,08049.8326,W,1,10,1.6,17,M,,M,,*6B
06/15/2015	16:01:15.590	$GPGGA,160116,2421.6019,N,08049.8319,W,1,10,1.5,17,M,,M,,*6F
06/15/2015	16:01:16.560	$GPGGA,160117,2421.6017,N,08049.8313,W,1,10,1.5,17,M,,M,,*6A
06/15/2015	16:01:17.540	$GPGGA,160118,2421.6012,N,08049.8308,W,1,10,1.5,17,M,,M,,*6A
06/15/2015	16:01:18.540	$GPGGA,160119,2421.6008,N,08049.8300,W,1,10,1.5,17,M,,M,,*68
06/15/2015	16:01:19.580	$GPGGA,160120,2421.6006,N,08049.8292,W,1,10,1.5,17,M,,M,,*66
06/15/2015	16:01:20.530	$GPGGA,160121,2421.6003,N,08049.8285,W,1,10,1.5,17,M,,M,,*64
06/15/2015	16:01:21.539	$GPGGA,160122,2421.5999,N,08049.8277,W,1,10,1.5,17,M,,M,,*63
06/15/2015	16:01:22.549	$GPGGA,160123,2421.5995,N,08049.8270,W,1,10,1.5,18,M,,M,,*66
06/15/2015	16:01:23.549	$GPGGA,160124,2421.5992,N,08049.8263,W,1,9,1.5,18,M,,M,,*5C
06/15/2015	16:01:24.539	$GPGGA,160125,2421.5988,N,08049.8254,W,1,9,1.5,18,M,,M,,*52
06/15/2015	16:01:25.519	$GPGGA,160126,2421.5984,N,08049.8246,W,1,10,1.5,18,M,,M,,*66
06/15/2015	16:01:26.549	$GPGGA,160127,2421.5981,N,08049.8240,W,1,10,1.5,18,M,,M,,*64
06/15/2015	16:01:27.689	$GPGGA,160128,2421.5977,N,08049.8233,W,1,9,1.5,18,M,,M,,*5E
06/15/2015	16:01:28.639	$GPGGA,160129,2421.5974,N,08049.8222,W,1,9,1.5,18,M,,M,,*5C
06/15/2015	16:01:29.520	$GPGGA,160130,2421.5970,N,08049.8215,W,1,10,1.5,18,M,,M,,*6C
06/15/2015	16:01:30.529	$GPGGA,160131,2421.5965,N,08049.8209,W,1,10,1.5,18,M,,M,,*64
06/15/2015	16:01:31.540	$GPGGA,160132,2421.5963,N,08049.8200,W,1,10,1.5,18,M,,M,,*68
06/15/2015	16:01:32.520	$GPGGA,160133,2421.5960,N,08049.8191,W,1,10,1.5,18,M,,M,,*61
06/15/2015	16:01:33.650	$GPGGA,160134,2421.5956,N,08049.8183,W,1,10,1.5,18,M,,M,,*60
06/15/2015	16:01:34.600	$GPGGA,160135,2421.5952,N,08049.8176,W,1,10,1.5,18,M,,M,,*6F
06/15/2015	16:01:35.560	$GPGGA,160136,2421.5948,N,08049.8167,W,1,10,1.5,18,M,,M,,*67
06/15/2015	16:01:36.522	$GPGGA,160137,2421.5945,N,08049.8159,W,1,10,1.5,18,M,,M,,*66
06/15/2015	16:01:37.640	$GPGGA,160138,2421.5941,N,08049.8151,W,1,10,1.5,18,M,,M,,*65
06/15/2015	16:01:38.610	$GPGGA,160139,2421.5938,N,08049.8142,W,1,10,1.5,18,M,,M,,*68
06/15/2015	16:01:39.530	$GPGGA,160140,2421.5935,N,08049.8135,W,1,10,1.5,18,M,,M,,*6B
06/15/2015	16:01:40.499	$GPGGA,160141,2421.5931,N,08049.8128,W,1,10,1.5,18,M,,M,,*62
06/15/2015	16:01:41.609	$GPGGA,160142,2421.5929,N,08049.8119,W,1,10,1.5,18,M,,M,,*6A
06/15/2015	16:01:44.619	$GPGGA,160143,2421.5925,N,08049.8110,W,1,10,1.5,18,M,,M,,*6E
06/15/2015	16:01:44.679	$GPGGA,160145,2421.5918,N,08049.8096,W,1,10,1.5,18,M,,M,,*69
06/15/2015	16:01:45.609	$GPGGA,160146,2421.5916,N,08049.8087,W,1,10,1.5,18,M,,M,,*64
06/15/2015	16:01:46.599	$GPGGA,160147,2421.5911,N,08049.8078,W,1,10,1.5,18,M,,M,,*62
06/15/2015	16:01:47.639	$GPGGA,160148,2421.5907,N,08049.8071,W,1,10,1.5,18,M,,M,,*63
06/15/2015	16:01:48.589	$GPGGA,160149,2421.5903,N,08049.8063,W,1,10,1.5,18,M,,M,,*65
06/15/2015	16:01:49.610	$GPGGA,160150,2421.5900,N,08049.8055,W,1,9,1.5,18,M,,M,,*53
06/15/2015	16:01:50.580	$GPGGA,160151,2421.5896,N,08049.8048,W,1,9,1.5,18,M,,M,,*50
06/15/2015	16:01:51.600	$GPGGA,160152,2421.5892,N,08049.8041,W,1,10,1.5,18,M,,M,,*66
06/15/2015	16:01:52.580	$GPGGA,160153,2421.5889,N,08049.8032,W,1,10,1.5,18,M,,M,,*69
06/15/2015	16:01:53.570	$GPGGA,160154,2421.5887,N,08049.8023,W,1,10,1.5,18,M,,M,,*60
06/15/2015	16:01:54.570	$GPGGA,160155,2421.5882,N,08049.8016,W,1,10,1.5,18,M,,M,,*62
06/15/2015	16:01:55.623	$GPGGA,160156,2421.5880,N,08049.8008,W,1,10,1.5,18,M,,M,,*6C
06/15/2015	16:01:56.569	$GPGGA,160157,2421.5876,N,08049.8000,W,1,10,1.5,18,M,,M,,*6C
06/15/2015	16:01:57.559	$GPGGA,160158,2421.5872,N,08049.7992,W,1,10,1.5,18,M,,M,,*6A
06/15/2015	16:01:58.569	$GPGGA,160159,2421.5869,N,08049.7986,W,1,10,1.5,18,M,,M,,*64
06/15/2015	16:01:59.639	$GPGGA,160200,2421.5864,N,08049.7977,W,1,9,1.5,18,M,,M,,*50
06/15/2015	16:02:00.559	$GPGGA,160201,2421.5862,N,08049.7969,W,1,9,1.5,18,M,,M,,*58
06/15/2015	16:02:01.589	$GPGGA,160202,2421.5858,N,08049.7962,W,1,10,1.5,18,M,,M,,*61
06/15/2015	16:02:02.559	$GPGGA,160203,2421.5854,N,08049.7954,W,1,10,1.5,18,M,,M,,*69
06/15/2015	16:02:03.609	$GPGGA,160204,2421.5851,N,08049.7946,W,1,9,1.5,18,M,,M,,*50
06/15/2015	16:02:04.832	$GPGGA,160205,2421.5845,N,08049.7939,W,1,9,1.5,18,M,,M,,*5C
06/15/2015	16:02:05.549	$GPGGA,160206,2421.5841,N,08049.7930,W,1,10,1.5,18,M,,M,,*6A
06/15/2015	16:02:06.550	$GPGGA,160207,2421.5838,N,08049.7922,W,1,10,1.5,18,M,,M,,*66
06/15/2015	16:02:07.633	$GPGGA,160208,2421.5834,N,08049.7916,W,1,10,1.5,17,M,,M,,*6D
06/15/2015	16:02:08.550	$GPGGA,160209,2421.5830,N,08049.7908,W,1,10,1.5,17,M,,M,,*67
06/15/2015	16:02:09.550	$GPGGA,160210,2421.5826,N,08049.7900,W,1,9,1.5,17,M,,M,,*58
06/15/2015	16:02:10.531	$GPGGA,160211,2421.5822,N,08049.7894,W,1,9,1.5,17,M,,M,,*51
06/15/2015	16:02:11.623	$GPGGA,160212,2421.5817,N,08049.7886,W,1,9,1.5,17,M,,M,,*57
06/15/2015	16:02:12.640	$GPGGA,160213,2421.5812,N,08049.7877,W,1,9,1.5,17,M,,M,,*5D
06/15/2015	16:02:13.530	$GPGGA,160214,2421.5808,N,08049.7870,W,1,10,1.5,17,M,,M,,*6E
06/15/2015	16:02:14.549	$GPGGA,160215,2421.5805,N,08049.7863,W,1,10,1.5,17,M,,M,,*60
06/15/2015	16:02:15.639	$GPGGA,160216,2421.5801,N,08049.7856,W,1,10,1.5,17,M,,M,,*61
06/15/2015	16:02:16.539	$GPGGA,160217,2421.5797,N,08049.7848,W,1,10,1.5,17,M,,M,,*6F
06/15/2015	16:02:17.549	$GPGGA,160218,2421.5793,N,08049.7840,W,1,10,1.5,17,M,,M,,*6C
06/15/2015	16:02:18.539	$GPGGA,160219,2421.5790,N,08049.7833,W,1,10,1.5,17,M,,M,,*6A
06/15/2015	16:02:19.639	$GPGGA,160220,2421.5787,N,08049.7825,W,1,10,1.6,17,M,,M,,*62
06/15/2015	16:02:20.529	$GPGGA,160221,2421.5782,N,08049.7821,W,1,10,1.5,17,M,,M,,*61
06/15/2015	16:02:21.609	$GPGGA,160222,2421.5779,N,08049.7814,W,1,9,1.5,17,M,,M,,*58
06/15/2015	16:02:22.526	$GPGGA,160223,2421.5776,N,08049.7806,W,1,9,1.6,17,M,,M,,*56
06/15/2015	16:02:23.549	$GPGGA,160224,2421.5773,N,08049.7800,W,1,9,1.5,17,M,,M,,*51
06/15/2015	16:02:24.622	$GPGGA,160225,2421.5770,N,08049.7793,W,1,9,1.5,17,M,,M,,*56
06/15/2015	16:02:25.600	$GPGGA,160226,2421.5766,N,08049.7786,W,1,10,1.5,17,M,,M,,*6E
06/15/2015	16:02:26.610	$GPGGA,160227,2421.5764,N,08049.7780,W,1,10,1.5,17,M,,M,,*6B
06/15/2015	16:02:27.610	$GPGGA,160228,2421.5760,N,08049.7772,W,1,10,1.6,17,M,,M,,*6E
06/15/2015	16:02:28.590	$GPGGA,160229,2421.5757,N,08049.7763,W,1,10,1.6,17,M,,M,,*6B
06/15/2015	16:02:29.638	$GPGGA,160230,2421.5753,N,08049.7756,W,1,10,1.5,17,M,,M,,*62
06/15/2015	16:02:30.600	$GPGGA,160231,2421.5750,N,08049.7751,W,1,10,1.5,17,M,,M,,*67
06/15/2015	16:02:31.626	$GPGGA,160232,2421.5746,N,08049.7743,W,1,10,1.5,17,M,,M,,*60
06/15/2015	16:02:32.579	$GPGGA,160233,2421.5742,N,08049.7735,W,1,10,1.5,17,M,,M,,*64
06/15/2015	16:02:33.600	$GPGGA,160234,2421.5739,N,08049.7727,W,1,10,1.5,17,M,,M,,*6C
06/15/2015	16:02:34.590	$GPGGA,160235,2421.5734,N,08049.7721,W,1,10,1.5,17,M,,M,,*66
06/15/2015	16:02:35.628	$GPGGA,160236,2421.5732,N,08049.7715,W,1,10,1.5,17,M,,M,,*64
06/15/2015	16:02:36.579	$GPGGA,160237,2421.5728,N,08049.7706,W,1,10,1.5,17,M,,M,,*6C
06/15/2015	16:02:37.579	$GPGGA,160238,2421.5725,N,08049.7698,W,1,10,1.5,17,M,,M,,*68
06/15/2015	16:02:38.579	$GPGGA,160239,2421.5721,N,08049.7692,W,1,10,1.5,17,M,,M,,*67
06/15/2015	16:02:39.639	$GPGGA,160240,2421.5717,N,08049.7685,W,1,10,1.5,17,M,,M,,*6A
06/15/2015	16:02:40.579	$GPGGA,160241,2421.5714,N,08049.7677,W,1,10,1.5,17,M,,M,,*65
06/15/2015	16:02:41.590	$GPGGA,160242,2421.5710,N,08049.7670,W,1,10,1.5,17,M,,M,,*65
06/15/2015	16:02:42.570	$GPGGA,160243,2421.5706,N,08049.7662,W,1,10,1.5,17,M,,M,,*60
06/15/2015	16:02:43.600	$GPGGA,160244,2421.5703,N,08049.7655,W,1,9,1.5,17,M,,M,,*5E
06/15/2015	16:02:44.560	$GPGGA,160245,2421.5699,N,08049.7647,W,1,9,1.5,17,M,,M,,*5E
06/15/2015	16:02:45.580	$GPGGA,160246,2421.5696,N,08049.7639,W,1,10,1.5,17,M,,M,,*63
06/15/2015	16:02:46.570	$GPGGA,160247,2421.5693,N,08049.7631,W,1,10,1.5,17,M,,M,,*6F
06/15/2015	16:02:47.560	$GPGGA,160248,2421.5689,N,08049.7625,W,1,10,1.5,17,M,,M,,*6E
06/15/2015	16:02:48.560	$GPGGA,160249,2421.5685,N,08049.7617,W,1,10,1.5,17,M,,M,,*62
06/15/2015	16:02:49.542	$GPGGA,160250,2421.5682,N,08049.7607,W,1,9,1.5,17,M,,M,,*54
06/15/2015	16:02:50.549	$GPGGA,160251,2421.5678,N,08049.7601,W,1,9,1.5,17,M,,M,,*56
06/15/2015	16:02:51.600	$GPGGA,160252,2421.5674,N,08049.7597,W,1,10,1.5,17,M,,M,,*6D
06/15/2015	16:02:52.539	$GPGGA,160253,2421.5670,N,08049.7588,W,1,10,1.5,17,M,,M,,*66
06/15/2015	16:02:53.549	$GPGGA,160254,2421.5667,N,08049.7578,W,1,10,1.5,17,M,,M,,*68
06/15/2015	16:02:54.549	$GPGGA,160255,2421.5663,N,08049.7572,W,1,10,1.5,17,M,,M,,*67
06/15/2015	16:02:55.589	$GPGGA,160256,2421.5657,N,08049.7567,W,1,10,1.5,17,M,,M,,*67
06/15/2015	16:02:56.549	$GPGGA,160257,2421.5656,N,08049.7559,W,1,10,1.6,17,M,,M,,*69
06/15/2015	16:02:57.569	$GPGGA,160258,2421.5653,N,08049.7548,W,1,9,1.5,17,M,,M,,*58
06/15/2015	16:02:58.549	$GPGGA,160259,2421.5649,N,08049.7543,W,1,9,1.5,17,M,,M,,*59
06/15/2015	16:02:59.550	$GPGGA,160300,2421.5645,N,08049.7537,W,1,10,1.5,17,M,,M,,*63
06/15/2015	16:03:00.534	$GPGGA,160301,2421.5641,N,08049.7529,W,1,10,1.5,17,M,,M,,*69
06/15/2015	16:03:01.560	$GPGGA,160302,2421.5638,N,08049.7520,W,1,9,1.5,17,M,,M,,*55
06/15/2015	16:03:02.522	$GPGGA,160303,2421.5634,N,08049.7513,W,1,9,1.5,17,M,,M,,*58
06/15/2015	16:03:03.570	$GPGGA,160304,2421.5629,N,08049.7506,W,1,10,1.5,17,M,,M,,*6F
06/15/2015	16:03:04.523	$GPGGA,160305,2421.5625,N,08049.7500,W,1,10,1.6,17,M,,M,,*67
06/15/2015	16:03:05.540	$GPGGA,160306,2421.5622,N,08049.7493,W,1,10,1.5,17,M,,M,,*6B
06/15/2015	16:03:06.533	$GPGGA,160307,2421.5617,N,08049.7486,W,1,10,1.5,17,M,,M,,*68
06/15/2015	16:03:07.635	$GPGGA,160308,2421.5613,N,08049.7480,W,1,10,1.5,17,M,,M,,*65
06/15/2015	16:03:08.509	$GPGGA,160309,2421.5609,N,08049.7474,W,1,10,1.5,17,M,,M,,*64
06/15/2015	16:03:09.636	$GPGGA,160310,2421.5606,N,08049.7467,W,1,10,1.5,17,M,,M,,*61
06/15/2015	16:03:10.599	$GPGGA,160311,2421.5603,N,08049.7460,W,1,10,1.5,17,M,,M,,*62
06/15/2015	16:03:11.509	$GPGGA,160312,2421.5599,N,08049.7452,W,1,9,1.5,17,M,,M,,*58
06/15/2015	16:03:12.599	$GPGGA,160313,2421.5594,N,08049.7446,W,1,9,1.5,17,M,,M,,*51
06/15/2015	16:03:13.519	$GPGGA,160314,2421.5591,N,08049.7439,W,1,10,1.5,17,M,,M,,*63
06/15/2015	16:03:14.599	$GPGGA,160315,2421.5588,N,08049.7431,W,1,10,1.5,17,M,,M,,*62
06/15/2015	16:03:15.509	$GPGGA,160316,2421.5584,N,08049.7423,W,1,10,1.5,17,M,,M,,*6E
06/15/2015	16:03:16.600	$GPGGA,160317,2421.5581,N,08049.7416,W,1,10,1.5,17,M,,M,,*6C
06/15/2015	16:03:17.600	$GPGGA,160318,2421.5578,N,08049.7409,W,1,10,1.5,17,M,,M,,*6B
06/15/2015	16:03:18.600	$GPGGA,160319,2421.5574,N,08049.7401,W,1,10,1.5,17,M,,M,,*6E
06/15/2015	16:03:19.600	$GPGGA,160320,2421.5571,N,08049.7392,W,1,10,1.5,17,M,,M,,*6C
06/15/2015	16:03:20.590	$GPGGA,160321,2421.5567,N,08049.7384,W,1,10,1.5,17,M,,M,,*6D
06/15/2015	16:03:21.610	$GPGGA,160322,2421.5564,N,08049.7378,W,1,10,1.5,17,M,,M,,*6E
06/15/2015	16:03:22.590	$GPGGA,160323,2421.5560,N,08049.7369,W,1,10,1.5,17,M,,M,,*6B
06/15/2015	16:03:23.600	$GPGGA,160324,2421.5556,N,08049.7360,W,1,10,1.5,17,M,,M,,*60
06/15/2015	16:03:24.569	$GPGGA,160325,2421.5553,N,08049.7353,W,1,10,1.5,17,M,,M,,*64
06/15/2015	16:03:25.579	$GPGGA,160326,2421.5551,N,08049.7344,W,1,10,1.5,17,M,,M,,*63
06/15/2015	16:03:26.580	$GPGGA,160327,2421.5547,N,08049.7335,W,1,10,1.6,17,M,,M,,*60
06/15/2015	16:03:27.624	$GPGGA,160328,2421.5544,N,08049.7328,W,1,10,1.5,17,M,,M,,*63
06/15/2015	16:03:28.579	$GPGGA,160329,2421.5540,N,08049.7319,W,1,10,1.5,17,M,,M,,*64
06/15/2015	16:03:29.569	$GPGGA,160330,2421.5536,N,08049.7309,W,1,10,1.5,17,M,,M,,*6C
06/15/2015	16:03:30.579	$GPGGA,160331,2421.5533,N,08049.7300,W,1,10,1.5,17,M,,M,,*61
06/15/2015	16:03:31.599	$GPGGA,160332,2421.5528,N,08049.7293,W,1,10,1.5,17,M,,M,,*63
06/15/2015	16:03:32.569	$GPGGA,160333,2421.5524,N,08049.7285,W,1,10,1.5,17,M,,M,,*69
06/15/2015	16:03:33.569	$GPGGA,160334,2421.5520,N,08049.7274,W,1,10,1.5,17,M,,M,,*64
06/15/2015	16:03:34.560	$GPGGA,160335,2421.5517,N,08049.7265,W,1,10,1.5,17,M,,M,,*61
06/15/2015	16:03:35.600	$GPGGA,160336,2421.5513,N,08049.7259,W,1,10,1.5,17,M,,M,,*69
06/15/2015	16:03:36.550	$GPGGA,160337,2421.5508,N,08049.7252,W,1,10,1.6,17,M,,M,,*6A
06/15/2015	16:03:37.580	$GPGGA,160338,2421.5505,N,08049.7242,W,1,10,1.5,17,M,,M,,*6A
06/15/2015	16:03:38.560	$GPGGA,160339,2421.5502,N,08049.7233,W,1,10,1.6,17,M,,M,,*69
06/15/2015	16:03:39.550	$GPGGA,160340,2421.5498,N,08049.7229,W,1,9,1.6,17,M,,M,,*56
06/15/2015	16:03:40.550	$GPGGA,160341,2421.5494,N,08049.7220,W,1,9,1.5,17,M,,M,,*51
06/15/2015	16:03:41.579	$GPGGA,160342,2421.5491,N,08049.7211,W,1,10,1.5,17,M,,M,,*6D
06/15/2015	16:03:42.549	$GPGGA,160343,2421.5486,N,08049.7205,W,1,10,1.6,17,M,,M,,*6C
06/15/2015	16:03:43.580	$GPGGA,160344,2421.5483,N,08049.7197,W,1,9,1.5,17,M,,M,,*5D
06/15/2015	16:03:44.549	$GPGGA,160345,2421.5480,N,08049.7187,W,1,9,1.5,17,M,,M,,*5E
06/15/2015	16:03:45.569	$GPGGA,160346,2421.5476,N,08049.7178,W,1,10,1.5,17,M,,M,,*6C
06/15/2015	16:03:46.529	$GPGGA,160347,2421.5472,N,08049.7171,W,1,10,1.5,17,M,,M,,*60
06/15/2015	16:03:47.659	$GPGGA,160348,2421.5470,N,08049.7164,W,1,9,1.6,17,M,,M,,*52
06/15/2015	16:03:48.639	$GPGGA,160349,2421.5466,N,08049.7156,W,1,9,1.5,17,M,,M,,*56
06/15/2015	16:03:49.629	$GPGGA,160350,2421.5462,N,08049.7146,W,1,10,1.5,17,M,,M,,*63
06/15/2015	16:03:50.529	$GPGGA,160351,2421.5458,N,08049.7138,W,1,10,1.5,17,M,,M,,*62
06/15/2015	16:03:51.570	$GPGGA,160352,2421.5455,N,08049.7133,W,1,10,1.5,17,M,,M,,*67
06/15/2015	16:03:52.540	$GPGGA,160353,2421.5451,N,08049.7126,W,1,10,1.5,17,M,,M,,*66
06/15/2015	16:03:53.522	$GPGGA,160354,2421.5448,N,08049.7115,W,1,10,1.5,17,M,,M,,*69
06/15/2015	16:03:54.535	$GPGGA,160355,2421.5445,N,08049.7109,W,1,10,1.5,17,M,,M,,*68
06/15/2015	16:03:55.520	$GPGGA,160356,2421.5443,N,08049.7104,W,1,10,1.5,17,M,,M,,*60
06/15/2015	16:03:56.510	$GPGGA,160357,2421.5439,N,08049.7095,W,1,10,1.5,17,M,,M,,*65
06/15/2015	16:03:57.510	$GPGGA,160358,2421.5436,N,08049.7087,W,1,10,1.5,17,M,,M,,*66
06/15/2015	16:03:58.510	$GPGGA,160359,2421.5432,N,08049.7080,W,1,10,1.5,17,M,,M,,*64
06/15/2015	16:03:59.649	$GPGGA,160400,2421.5430,N,08049.7073,W,1,10,1.5,17,M,,M,,*61
06/15/2015	16:04:00.623	$GPGGA,160401,2421.5426,N,08049.7065,W,1,10,1.5,17,M,,M,,*60
06/15/2015	16:04:01.499	$GPGGA,160402,2421.5423,N,08049.7056,W,1,9,1.5,17,M,,M,,*5E
06/15/2015	16:04:02.589	$GPGGA,160403,2421.5421,N,08049.7048,W,1,9,1.5,17,M,,M,,*52
06/15/2015	16:04:03.519	$GPGGA,160404,2421.5419,N,08049.7042,W,1,10,1.5,17,M,,M,,*6C
06/15/2015	16:04:04.609	$GPGGA,160405,2421.5416,N,08049.7036,W,1,10,1.5,17,M,,M,,*61
06/15/2015	16:04:05.499	$GPGGA,160406,2421.5411,N,08049.7027,W,1,10,1.5,17,M,,M,,*65
06/15/2015	16:04:06.599	$GPGGA,160407,2421.5408,N,08049.7018,W,1,10,1.5,17,M,,M,,*60
06/15/2015	16:04:07.599	$GPGGA,160408,2421.5405,N,08049.7013,W,1,10,1.5,17,M,,M,,*69
06/15/2015	16:04:08.579	$GPGGA,160409,2421.5403,N,08049.7007,W,1,10,1.5,17,M,,M,,*6B
06/15/2015	16:04:09.490	$GPGGA,160410,2421.5397,N,08049.6997,W,1,10,1.5,17,M,,M,,*68
06/15/2015	16:04:10.580	$GPGGA,160411,2421.5392,N,08049.6988,W,1,10,1.6,17,M,,M,,*61
06/15/2015	16:04:11.626	$GPGGA,160412,2421.5389,N,08049.6983,W,1,10,1.5,17,M,,M,,*60
06/15/2015	16:04:12.580	$GPGGA,160413,2421.5385,N,08049.6976,W,1,10,1.5,17,M,,M,,*67
06/15/2015	16:04:13.590	$GPGGA,160414,2421.5381,N,08049.6969,W,1,9,1.5,17,M,,M,,*52
06/15/2015	16:04:14.580	$GPGGA,160415,2421.5378,N,08049.6961,W,1,9,1.5,17,M,,M,,*5D
06/15/2015	16:04:15.580	$GPGGA,160416,2421.5374,N,08049.6953,W,1,10,1.5,17,M,,M,,*6B
06/15/2015	16:04:16.602	$GPGGA,160417,2421.5370,N,08049.6945,W,1,10,1.6,17,M,,M,,*6A
06/15/2015	16:04:17.589	$GPGGA,160418,2421.5367,N,08049.6938,W,1,9,1.6,17,M,,M,,*51
06/15/2015	16:04:18.569	$GPGGA,160419,2421.5363,N,08049.6930,W,1,9,1.5,17,M,,M,,*5F
06/15/2015	16:04:19.570	$GPGGA,160420,2421.5359,N,08049.6921,W,1,9,1.5,17,M,,M,,*5C
06/15/2015	16:04:20.579	$GPGGA,160421,2421.5356,N,08049.6913,W,1,9,1.5,17,M,,M,,*53
06/15/2015	16:04:21.579	$GPGGA,160422,2421.5352,N,08049.6909,W,1,9,1.6,17,M,,M,,*5C
06/15/2015	16:04:22.559	$GPGGA,160423,2421.5349,N,08049.6901,W,1,9,1.5,17,M,,M,,*5C
06/15/2015	16:04:23.559	$GPGGA,160424,2421.5343,N,08049.6893,W,1,9,1.5,17,M,,M,,*5B
06/15/2015	16:04:24.549	$GPGGA,160425,2421.5340,N,08049.6886,W,1,9,1.5,17,M,,M,,*5D
06/15/2015	16:04:25.579	$GPGGA,160426,2421.5335,N,08049.6878,W,1,9,1.6,17,M,,M,,*5E
06/15/2015	16:04:26.550	$GPGGA,160427,2421.5331,N,08049.6870,W,1,9,1.5,17,M,,M,,*50
06/15/2015	16:04:27.590	$GPGGA,160428,2421.5327,N,08049.6861,W,1,9,1.5,17,M,,M,,*58
06/15/2015	16:04:28.540	$GPGGA,160429,2421.5323,N,08049.6854,W,1,9,1.4,17,M,,M,,*5A
06/15/2015	16:04:29.560	$GPGGA,160430,2421.5318,N,08049.6849,W,1,10,1.4,17,M,,M,,*6E
06/15/2015	16:04:30.540	$GPGGA,160431,2421.5314,N,08049.6840,W,1,10,1.4,17,M,,M,,*6A
06/15/2015	16:04:31.570	$GPGGA,160432,2421.5310,N,08049.6832,W,1,10,1.4,17,M,,M,,*68
06/15/2015	16:04:32.540	$GPGGA,160433,2421.5306,N,08049.6826,W,1,10,1.4,17,M,,M,,*6B
06/15/2015	16:04:33.524	$GPGGA,160434,2421.5302,N,08049.6818,W,1,10,1.4,17,M,,M,,*65
06/15/2015	16:04:34.539	$GPGGA,160435,2421.5298,N,08049.6810,W,1,10,1.4,17,M,,M,,*6E
06/15/2015	16:04:35.569	$GPGGA,160436,2421.5294,N,08049.6804,W,1,10,1.4,17,M,,M,,*64
06/15/2015	16:04:36.519	$GPGGA,160437,2421.5291,N,08049.6797,W,1,10,1.4,17,M,,M,,*65
06/15/2015	16:04:37.539	$GPGGA,160438,2421.5285,N,08049.6788,W,1,10,1.4,17,M,,M,,*61
06/15/2015	16:04:38.519	$GPGGA,160439,2421.5282,N,08049.6781,W,1,10,1.4,17,M,,M,,*6E
06/15/2015	16:04:39.529	$GPGGA,160440,2421.5280,N,08049.6775,W,1,10,1.4,17,M,,M,,*69
06/15/2015	16:04:40.509	$GPGGA,160441,2421.5273,N,08049.6766,W,1,10,1.4,17,M,,M,,*66
06/15/2015	16:04:41.529	$GPGGA,160442,2421.5271,N,08049.6758,W,1,9,1.5,17,M,,M,,*53
06/15/2015	16:04:42.529	$GPGGA,160443,2421.5268,N,08049.6753,W,1,9,1.4,17,M,,M,,*50
06/15/2015	16:04:43.709	$GPGGA,160444,2421.5264,N,08049.6745,W,1,10,1.4,17,M,,M,,*64
06/15/2015	16:04:44.530	$GPGGA,160445,2421.5262,N,08049.6735,W,1,10,1.4,17,M,,M,,*64
06/15/2015	16:04:45.531	$GPGGA,160446,2421.5258,N,08049.6729,W,1,10,1.4,17,M,,M,,*63
06/15/2015	16:04:46.510	$GPGGA,160447,2421.5255,N,08049.6724,W,1,10,1.4,17,M,,M,,*62
06/15/2015	16:04:47.721	$GPGGA,160448,2421.5251,N,08049.6714,W,1,9,1.4,17,M,,M,,*52
06/15/2015	16:04:48.610	$GPGGA,160449,2421.5247,N,08049.6705,W,1,9,1.4,17,M,,M,,*54
06/15/2015	16:04:49.700	$GPGGA,160450,2421.5244,N,08049.6700,W,1,10,1.4,17,M,,M,,*62
06/15/2015	16:04:50.531	$GPGGA,160451,2421.5239,N,08049.6693,W,1,10,1.4,17,M,,M,,*62
06/15/2015	16:04:51.599	$GPGGA,160452,2421.5237,N,08049.6684,W,1,9,1.5,17,M,,M,,*50
06/15/2015	16:04:52.649	$GPGGA,160453,2421.5234,N,08049.6675,W,1,9,1.4,17,M,,M,,*5D
06/15/2015	16:04:53.589	$GPGGA,160454,2421.5230,N,08049.6669,W,1,10,1.4,17,M,,M,,*6B
06/15/2015	16:04:54.499	$GPGGA,160455,2421.5226,N,08049.6662,W,1,10,1.4,17,M,,M,,*66
06/15/2015	16:04:55.699	$GPGGA,160456,2421.5222,N,08049.6655,W,1,9,1.5,17,M,,M,,*5C
06/15/2015	16:04:56.579	$GPGGA,160457,2421.5219,N,08049.6646,W,1,9,1.4,17,M,,M,,*56
06/15/2015	16:04:57.679	$GPGGA,160458,2421.5215,N,08049.6639,W,1,10,1.4,17,M,,M,,*65
06/15/2015	16:04:58.609	$GPGGA,160459,2421.5211,N,08049.6631,W,1,10,1.4,17,M,,M,,*68
06/15/2015	16:04:59.689	$GPGGA,160500,2421.5208,N,08049.6624,W,1,10,1.4,17,M,,M,,*69
06/15/2015	16:05:00.599	$GPGGA,160501,2421.5204,N,08049.6617,W,1,10,1.4,17,M,,M,,*64
06/15/2015	16:05:01.570	$GPGGA,160502,2421.5199,N,08049.6609,W,1,10,1.4,17,M,,M,,*6F
06/15/2015	16:05:02.570	$GPGGA,160503,2421.5197,N,08049.6600,W,1,10,1.4,17,M,,M,,*69
06/15/2015	16:05:03.680	$GPGGA,160504,2421.5192,N,08049.6594,W,1,10,1.4,18,M,,M,,*6A
06/15/2015	16:05:04.600	$GPGGA,160505,2421.5190,N,08049.6588,W,1,10,1.4,18,M,,M,,*64
06/15/2015	16:05:05.650	$GPGGA,160506,2421.5186,N,08049.6579,W,1,10,1.4,18,M,,M,,*6E
06/15/2015	16:05:06.590	$GPGGA,160507,2421.5181,N,08049.6571,W,1,10,1.4,18,M,,M,,*60
06/15/2015	16:05:07.570	$GPGGA,160508,2421.5176,N,08049.6564,W,1,9,1.5,18,M,,M,,*5A
06/15/2015	16:05:08.549	$GPGGA,160509,2421.5173,N,08049.6557,W,1,9,1.4,18,M,,M,,*5F
06/15/2015	16:05:09.659	$GPGGA,160510,2421.5170,N,08049.6551,W,1,9,1.6,18,M,,M,,*50
06/15/2015	16:05:10.589	$GPGGA,160511,2421.5166,N,08049.6543,W,1,9,1.6,18,M,,M,,*55
06/15/2015	16:05:11.679	$GPGGA,160512,2421.5163,N,08049.6532,W,1,9,1.6,18,M,,M,,*55
06/15/2015	16:05:12.549	$GPGGA,160513,2421.5161,N,08049.6526,W,1,9,1.4,18,M,,M,,*51
06/15/2015	16:05:13.659	$GPGGA,160514,2421.5156,N,08049.6521,W,1,10,1.4,18,M,,M,,*6D
06/15/2015	16:05:14.569	$GPGGA,160515,2421.5152,N,08049.6512,W,1,10,1.5,18,M,,M,,*69
06/15/2015	16:05:15.659	$GPGGA,160516,2421.5150,N,08049.6503,W,1,9,1.4,18,M,,M,,*51
06/15/2015	16:05:16.541	$GPGGA,160517,2421.5146,N,08049.6498,W,1,9,1.4,18,M,,M,,*54
06/15/2015	16:05:17.659	$GPGGA,160518,2421.5143,N,08049.6492,W,1,10,1.5,18,M,,M,,*6D
06/15/2015	16:05:18.533	$GPGGA,160519,2421.5139,N,08049.6483,W,1,10,1.5,18,M,,M,,*61
06/15/2015	16:05:19.660	$GPGGA,160520,2421.5136,N,08049.6475,W,1,9,1.4,18,M,,M,,*54
06/15/2015	16:05:20.580	$GPGGA,160521,2421.5132,N,08049.6468,W,1,9,1.4,18,M,,M,,*5D
06/15/2015	16:05:21.636	$GPGGA,160522,2421.5128,N,08049.6461,W,1,10,1.4,18,M,,M,,*64
06/15/2015	16:05:22.570	$GPGGA,160523,2421.5123,N,08049.6454,W,1,10,1.6,18,M,,M,,*6A
06/15/2015	16:05:23.623	$GPGGA,160524,2421.5121,N,08049.6444,W,1,8,1.4,18,M,,M,,*55
06/15/2015	16:05:24.560	$GPGGA,160525,2421.5116,N,08049.6435,W,1,8,1.4,18,M,,M,,*56
06/15/2015	16:05:25.626	$GPGGA,160526,2421.5111,N,08049.6429,W,1,10,1.4,18,M,,M,,*66
06/15/2015	16:05:26.531	$GPGGA,160527,2421.5108,N,08049.6421,W,1,10,1.4,18,M,,M,,*67
06/15/2015	16:05:27.639	$GPGGA,160528,2421.5104,N,08049.6412,W,1,10,1.4,18,M,,M,,*64
06/15/2015	16:05:28.559	$GPGGA,160529,2421.5101,N,08049.6403,W,1,10,1.6,18,M,,M,,*62
06/15/2015	16:05:29.669	$GPGGA,160530,2421.5097,N,08049.6397,W,1,9,1.4,18,M,,M,,*54
06/15/2015	16:05:30.559	$GPGGA,160531,2421.5093,N,08049.6389,W,1,9,1.6,18,M,,M,,*5C
06/15/2015	16:05:31.525	$GPGGA,160532,2421.5089,N,08049.6382,W,1,9,1.6,18,M,,M,,*5F
06/15/2015	16:05:32.599	$GPGGA,160533,2421.5085,N,08049.6374,W,1,9,1.6,18,M,,M,,*5B
06/15/2015	16:05:33.639	$GPGGA,160534,2421.5080,N,08049.6367,W,1,9,1.4,18,M,,M,,*59
06/15/2015	16:05:34.549	$GPGGA,160535,2421.5078,N,08049.6357,W,1,9,1.6,18,M,,M,,*5E
06/15/2015	16:05:35.659	$GPGGA,160536,2421.5074,N,08049.6351,W,1,9,1.4,18,M,,M,,*55
06/15/2015	16:05:36.550	$GPGGA,160537,2421.5068,N,08049.6343,W,1,9,1.4,18,M,,M,,*5A
06/15/2015	16:05:37.610	$GPGGA,160538,2421.5064,N,08049.6334,W,1,10,1.4,18,M,,M,,*61
06/15/2015	16:05:38.540	$GPGGA,160539,2421.5061,N,08049.6325,W,1,10,1.6,18,M,,M,,*67
06/15/2015	16:05:39.610	$GPGGA,160540,2421.5057,N,08049.6317,W,1,9,1.4,18,M,,M,,*57
06/15/2015	16:05:40.600	$GPGGA,160541,2421.5053,N,08049.6310,W,1,9,1.5,18,M,,M,,*54
06/15/2015	16:05:41.650	$GPGGA,160542,2421.5049,N,08049.6301,W,1,9,1.5,18,M,,M,,*5C
06/15/2015	16:05:42.580	$GPGGA,160543,2421.5045,N,08049.6293,W,1,9,1.4,18,M,,M,,*5A
06/15/2015	16:05:43.639	$GPGGA,160544,2421.5042,N,08049.6285,W,1,10,1.4,18,M,,M,,*65
06/15/2015	16:05:44.579	$GPGGA,160545,2421.5038,N,08049.6276,W,1,10,1.4,18,M,,M,,*65
06/15/2015	16:05:45.589	$GPGGA,160546,2421.5035,N,08049.6270,W,1,10,1.4,18,M,,M,,*6D
06/15/2015	16:05:46.589	$GPGGA,160547,2421.5031,N,08049.6265,W,1,10,1.4,18,M,,M,,*6C
06/15/2015	16:05:47.599	$GPGGA,160548,2421.5027,N,08049.6255,W,1,10,1.4,18,M,,M,,*67
06/15/2015	16:05:48.589	$GPGGA,160549,2421.5023,N,08049.6245,W,1,10,1.4,18,M,,M,,*63
06/15/2015	16:05:49.599	$GPGGA,160550,2421.5020,N,08049.6239,W,1,10,1.4,18,M,,M,,*63
06/15/2015	16:05:50.579	$GPGGA,160551,2421.5015,N,08049.6234,W,1,10,1.4,18,M,,M,,*69
06/15/2015	16:05:51.659	$GPGGA,160552,2421.5011,N,08049.6225,W,1,10,1.4,18,M,,M,,*6E
06/15/2015	16:05:52.569	$GPGGA,160553,2421.5009,N,08049.6214,W,1,10,1.4,18,M,,M,,*64
06/15/2015	16:05:53.589	$GPGGA,160554,2421.5004,N,08049.6208,W,1,10,1.4,18,M,,M,,*63
06/15/2015	16:05:54.570	$GPGGA,160555,2421.5000,N,08049.6201,W,1,10,1.4,18,M,,M,,*6F
06/15/2015	16:05:55.660	$GPGGA,160556,2421.4996,N,08049.6191,W,1,10,1.4,18,M,,M,,*61
06/15/2015	16:05:56.560	$GPGGA,160557,2421.4993,N,08049.6182,W,1,10,1.4,18,M,,M,,*67
06/15/2015	16:05:57.600	$GPGGA,160558,2421.4988,N,08049.6176,W,1,10,1.4,18,M,,M,,*69
06/15/2015	16:05:58.570	$GPGGA,160559,2421.4984,N,08049.6168,W,1,10,1.5,18,M,,M,,*6A
06/15/2015	16:05:59.640	$GPGGA,160600,2421.4981,N,08049.6159,W,1,9,1.4,18,M,,M,,*5B
06/15/2015	16:06:00.550	$GPGGA,160601,2421.4977,N,08049.6150,W,1,9,1.4,18,M,,M,,*5A
06/15/2015	16:06:01.599	$GPGGA,160602,2421.4973,N,08049.6143,W,1,10,1.4,18,M,,M,,*67
06/15/2015	16:06:02.569	$GPGGA,160603,2421.4970,N,08049.6137,W,1,10,1.4,18,M,,M,,*66
06/15/2015	16:06:03.599	$GPGGA,160604,2421.4967,N,08049.6128,W,1,9,1.4,18,M,,M,,*51
06/15/2015	16:06:04.539	$GPGGA,160605,2421.4963,N,08049.6118,W,1,9,1.4,18,M,,M,,*57
06/15/2015	16:06:05.599	$GPGGA,160606,2421.4958,N,08049.6113,W,1,10,1.4,18,M,,M,,*6F
06/15/2015	16:06:06.529	$GPGGA,160607,2421.4956,N,08049.6108,W,1,10,1.4,18,M,,M,,*6A
06/15/2015	16:06:07.589	$GPGGA,160608,2421.4956,N,08049.6108,W,1,10,1.4,18,M,,M,,*65
06/15/2015	16:06:08.529	$GPGGA,160609,2421.4949,N,08049.6090,W,1,10,1.4,18,M,,M,,*6A
06/15/2015	16:06:09.613	$GPGGA,160610,2421.4948,N,08049.6084,W,1,10,1.6,18,M,,M,,*64
06/15/2015	16:06:10.519	$GPGGA,160611,2421.4944,N,08049.6079,W,1,10,1.6,18,M,,M,,*6B
06/15/2015	16:06:11.549	$GPGGA,160612,2421.4944,N,08049.6079,W,1,10,1.4,18,M,,M,,*6A
06/15/2015	16:06:12.629	$GPGGA,160613,2421.4938,N,08049.6062,W,1,10,1.4,18,M,,M,,*6A
06/15/2015	16:06:13.539	$GPGGA,160614,2421.4938,N,08049.6062,W,1,10,1.4,18,M,,M,,*6D
06/15/2015	16:06:14.529	$GPGGA,160615,2421.4931,N,08049.6052,W,1,10,1.4,18,M,,M,,*66
06/15/2015	16:06:15.589	$GPGGA,160616,2421.4930,N,08049.6044,W,1,10,1.4,18,M,,M,,*63
06/15/2015	16:06:16.611	$GPGGA,160617,2421.4926,N,08049.6035,W,1,10,1.4,18,M,,M,,*63
06/15/2015	16:06:17.520	$GPGGA,160618,2421.4926,N,08049.6035,W,1,10,1.4,18,M,,M,,*6C
06/15/2015	16:06:18.598	$GPGGA,160619,2421.4919,N,08049.6023,W,1,10,1.4,18,M,,M,,*66
06/15/2015	16:06:19.648	$GPGGA,160620,2421.4919,N,08049.6023,W,1,10,1.4,18,M,,M,,*6C
06/15/2015	16:06:20.521	$GPGGA,160621,2421.4915,N,08049.6007,W,1,10,1.4,18,M,,M,,*67
06/15/2015	16:06:21.523	$GPGGA,160622,2421.4915,N,08049.6007,W,1,10,1.4,18,M,,M,,*64
06/15/2015	16:06:22.489	$GPGGA,160623,2421.4905,N,08049.5994,W,1,10,1.4,18,M,,M,,*64
06/15/2015	16:06:23.618	$GPGGA,160624,2421.4902,N,08049.5987,W,1,10,1.4,18,M,,M,,*66
06/15/2015	16:06:24.499	$GPGGA,160625,2421.4899,N,08049.5978,W,1,10,1.4,18,M,,M,,*64
06/15/2015	16:06:25.599	$GPGGA,160626,2421.4895,N,08049.5973,W,1,9,1.6,18,M,,M,,*5A
06/15/2015	16:06:26.499	$GPGGA,160627,2421.4891,N,08049.5967,W,1,9,1.4,18,M,,M,,*58
06/15/2015	16:06:27.629	$GPGGA,160628,2421.4888,N,08049.5960,W,1,10,1.4,18,M,,M,,*60
06/15/2015	16:06:28.579	$GPGGA,160629,2421.4885,N,08049.5952,W,1,10,1.4,18,M,,M,,*6D
06/15/2015	16:06:29.599	$GPGGA,160630,2421.4883,N,08049.5944,W,1,10,1.4,18,M,,M,,*64
06/15/2015	16:06:30.589	$GPGGA,160631,2421.4877,N,08049.5939,W,1,10,1.4,18,M,,M,,*64
06/15/2015	16:06:31.610	$GPGGA,160632,2421.4873,N,08049.5931,W,1,10,1.4,18,M,,M,,*6B
06/15/2015	16:06:32.569	$GPGGA,160633,2421.4870,N,08049.5924,W,1,10,1.5,18,M,,M,,*6C
06/15/2015	16:06:34.039	$GPGGA,160634,2421.4867,N,08049.5917,W,1,10,1.4,18,M,,M,,*6C
06/15/2015	16:06:34.579	$GPGGA,160635,2421.4863,N,08049.5909,W,1,10,1.4,18,M,,M,,*66
06/15/2015	16:06:35.619	$GPGGA,160636,2421.4857,N,08049.5900,W,1,10,1.4,18,M,,M,,*6B
06/15/2015	16:06:36.558	$GPGGA,160637,2421.4854,N,08049.5892,W,1,10,1.9,18,M,,M,,*6E
06/15/2015	16:06:37.588	$GPGGA,160638,2421.4850,N,08049.5885,W,1,9,1.5,18,M,,M,,*57
06/15/2015	16:06:38.558	$GPGGA,160639,2421.4846,N,08049.5876,W,1,9,1.4,18,M,,M,,*5C
06/15/2015	16:06:39.589	$GPGGA,160640,2421.4843,N,08049.5868,W,1,10,1.4,18,M,,M,,*60
06/15/2015	16:06:40.559	$GPGGA,160641,2421.4840,N,08049.5862,W,1,10,1.5,18,M,,M,,*69
06/15/2015	16:06:41.569	$GPGGA,160642,2421.4836,N,08049.5856,W,1,9,1.5,18,M,,M,,*54
06/15/2015	16:06:42.559	$GPGGA,160643,2421.4833,N,08049.5847,W,1,9,1.5,18,M,,M,,*50
06/15/2015	16:06:43.589	$GPGGA,160644,2421.4830,N,08049.5838,W,1,10,1.4,18,M,,M,,*65
06/15/2015	16:06:44.559	$GPGGA,160645,2421.4827,N,08049.5833,W,1,10,1.4,18,M,,M,,*69
06/15/2015	16:06:45.549	$GPGGA,160646,2421.4823,N,08049.5827,W,1,10,1.4,18,M,,M,,*6B
06/15/2015	16:06:46.549	$GPGGA,160647,2421.4820,N,08049.5818,W,1,10,1.4,18,M,,M,,*65
06/15/2015	16:06:47.580	$GPGGA,160648,2421.4818,N,08049.5809,W,1,10,1.4,18,M,,M,,*61
06/15/2015	16:06:48.549	$GPGGA,160649,2421.4814,N,08049.5803,W,1,10,1.4,18,M,,M,,*66
06/15/2015	16:06:49.529	$GPGGA,160650,2421.4810,N,08049.5797,W,1,9,1.6,18,M,,M,,*52
06/15/2015	16:06:50.539	$GPGGA,160651,2421.4807,N,08049.5787,W,1,9,1.4,18,M,,M,,*56
06/15/2015	16:06:51.559	$GPGGA,160652,2421.4803,N,08049.5778,W,1,10,1.4,18,M,,M,,*69
06/15/2015	16:06:52.529	$GPGGA,160653,2421.4798,N,08049.5773,W,1,10,1.5,18,M,,M,,*6F
06/15/2015	16:06:53.568	$GPGGA,160654,2421.4794,N,08049.5767,W,1,9,1.5,18,M,,M,,*59
06/15/2015	16:06:54.528	$GPGGA,160655,2421.4790,N,08049.5758,W,1,9,1.4,18,M,,M,,*51
06/15/2015	16:06:55.658	$GPGGA,160656,2421.4786,N,08049.5749,W,1,10,1.4,18,M,,M,,*6D
06/15/2015	16:06:56.538	$GPGGA,160657,2421.4782,N,08049.5742,W,1,10,1.4,18,M,,M,,*63
06/15/2015	16:06:57.519	$GPGGA,160658,2421.4778,N,08049.5735,W,1,10,1.4,18,M,,M,,*69
06/15/2015	16:06:58.629	$GPGGA,160659,2421.4774,N,08049.5726,W,1,10,1.4,18,M,,M,,*66
06/15/2015	16:06:59.569	$GPGGA,160700,2421.4771,N,08049.5718,W,1,10,1.4,18,M,,M,,*63
06/15/2015	16:07:00.524	$GPGGA,160701,2421.4767,N,08049.5711,W,1,10,1.4,18,M,,M,,*6C
06/15/2015	16:07:01.529	$GPGGA,160702,2421.4762,N,08049.5702,W,1,10,1.4,18,M,,M,,*68
06/15/2015	16:07:02.629	$GPGGA,160703,2421.4758,N,08049.5696,W,1,10,1.4,18,M,,M,,*6C
06/15/2015	16:07:03.639	$GPGGA,160704,2421.4755,N,08049.5689,W,1,10,1.4,18,M,,M,,*68
06/15/2015	16:07:04.519	$GPGGA,160705,2421.4751,N,08049.5678,W,1,10,1.4,18,M,,M,,*63
06/15/2015	16:07:05.599	$GPGGA,160706,2421.4747,N,08049.5669,W,1,10,1.4,18,M,,M,,*67
06/15/2015	16:07:06.513	$GPGGA,160707,2421.4743,N,08049.5665,W,1,10,1.4,18,M,,M,,*6E
06/15/2015	16:07:07.539	$GPGGA,160708,2421.4739,N,08049.5657,W,1,10,1.4,17,M,,M,,*62
06/15/2015	16:07:08.589	$GPGGA,160709,2421.4735,N,08049.5646,W,1,10,1.4,17,M,,M,,*6F
06/15/2015	16:07:09.619	$GPGGA,160710,2421.4731,N,08049.5638,W,1,10,1.4,17,M,,M,,*6A
06/15/2015	16:07:10.589	$GPGGA,160711,2421.4727,N,08049.5632,W,1,10,1.5,17,M,,M,,*67
06/15/2015	16:07:11.622	$GPGGA,160712,2421.4724,N,08049.5623,W,1,10,1.4,17,M,,M,,*66
06/15/2015	16:07:12.598	$GPGGA,160713,2421.4720,N,08049.5614,W,1,10,1.4,17,M,,M,,*67
06/15/2015	16:07:13.588	$GPGGA,160714,2421.4716,N,08049.5607,W,1,10,1.4,17,M,,M,,*67
06/15/2015	16:07:14.589	$GPGGA,160715,2421.4713,N,08049.5600,W,1,10,1.4,17,M,,M,,*64
06/15/2015	16:07:15.614	$GPGGA,160716,2421.4710,N,08049.5590,W,1,10,1.4,17,M,,M,,*6E
06/15/2015	16:07:16.589	$GPGGA,160717,2421.4706,N,08049.5580,W,1,10,1.4,17,M,,M,,*69
06/15/2015	16:07:17.569	$GPGGA,160718,2421.4702,N,08049.5574,W,1,10,1.4,17,M,,M,,*69
06/15/2015	16:07:18.589	$GPGGA,160719,2421.4698,N,08049.5566,W,1,10,1.4,17,M,,M,,*69
06/15/2015	16:07:19.609	$GPGGA,160720,2421.4695,N,08049.5556,W,1,10,1.4,17,M,,M,,*6D
06/15/2015	16:07:20.579	$GPGGA,160721,2421.4691,N,08049.5548,W,1,10,1.5,17,M,,M,,*66
06/15/2015	16:07:21.599	$GPGGA,160722,2421.4688,N,08049.5542,W,1,10,1.4,17,M,,M,,*66
06/15/2015	16:07:22.569	$GPGGA,160723,2421.4684,N,08049.5535,W,1,10,1.5,17,M,,M,,*6A
06/15/2015	16:07:23.599	$GPGGA,160724,2421.4681,N,08049.5526,W,1,10,1.4,17,M,,M,,*6B
06/15/2015	16:07:24.559	$GPGGA,160725,2421.4677,N,08049.5518,W,1,10,1.4,17,M,,M,,*6E
06/15/2015	16:07:25.579	$GPGGA,160726,2421.4673,N,08049.5511,W,1,10,1.4,17,M,,M,,*60
06/15/2015	16:07:26.559	$GPGGA,160727,2421.4669,N,08049.5507,W,1,10,1.5,17,M,,M,,*6C
06/15/2015	16:07:27.589	$GPGGA,160728,2421.4666,N,08049.5499,W,1,10,1.4,17,M,,M,,*6B
06/15/2015	16:07:28.568	$GPGGA,160729,2421.4662,N,08049.5491,W,1,10,1.4,17,M,,M,,*66
06/15/2015	16:07:29.578	$GPGGA,160730,2421.4659,N,08049.5486,W,1,10,1.4,17,M,,M,,*60
06/15/2015	16:07:30.578	$GPGGA,160731,2421.4653,N,08049.5481,W,1,10,1.4,17,M,,M,,*6C
06/15/2015	16:07:31.579	$GPGGA,160732,2421.4649,N,08049.5472,W,1,9,1.5,17,M,,M,,*51
06/15/2015	16:07:32.549	$GPGGA,160733,2421.4645,N,08049.5465,W,1,9,1.5,17,M,,M,,*5A
06/15/2015	16:07:33.569	$GPGGA,160734,2421.4641,N,08049.5460,W,1,9,1.5,17,M,,M,,*5C
06/15/2015	16:07:34.549	$GPGGA,160735,2421.4637,N,08049.5456,W,1,9,1.5,17,M,,M,,*59
06/15/2015	16:07:35.589	$GPGGA,160736,2421.4632,N,08049.5449,W,1,8,1.6,17,M,,M,,*53
06/15/2015	16:07:36.539	$GPGGA,160737,2421.4630,N,08049.5440,W,1,8,1.5,17,M,,M,,*5A
06/15/2015	16:07:37.529	$GPGGA,160738,2421.4626,N,08049.5434,W,1,8,1.6,17,M,,M,,*52
06/15/2015	16:07:38.539	$GPGGA,160739,2421.4623,N,08049.5429,W,1,8,1.6,17,M,,M,,*5A
06/15/2015	16:07:39.579	$GPGGA,160740,2421.4619,N,08049.5422,W,1,10,1.4,17,M,,M,,*6D
06/15/2015	16:07:40.539	$GPGGA,160741,2421.4615,N,08049.5414,W,1,10,1.6,17,M,,M,,*67
06/15/2015	16:07:41.559	$GPGGA,160742,2421.4612,N,08049.5405,W,1,9,1.5,17,M,,M,,*58
06/15/2015	16:07:42.539	$GPGGA,160743,2421.4608,N,08049.5399,W,1,9,1.4,17,M,,M,,*51
06/15/2015	16:07:43.539	$GPGGA,160744,2421.4604,N,08049.5394,W,1,9,1.5,17,M,,M,,*56
06/15/2015	16:07:44.539	$GPGGA,160745,2421.4599,N,08049.5386,W,1,9,1.5,17,M,,M,,*53
06/15/2015	16:07:45.529	$GPGGA,160746,2421.4596,N,08049.5377,W,1,9,1.5,17,M,,M,,*51
06/15/2015	16:07:46.513	$GPGGA,160747,2421.4591,N,08049.5370,W,1,9,1.6,17,M,,M,,*53
06/15/2015	16:07:47.638	$GPGGA,160748,2421.4587,N,08049.5363,W,1,8,1.6,17,M,,M,,*58
06/15/2015	16:07:48.529	$GPGGA,160749,2421.4583,N,08049.5354,W,1,8,1.5,17,M,,M,,*5A
06/15/2015	16:07:49.513	$GPGGA,160750,2421.4579,N,08049.5346,W,1,8,1.6,17,M,,M,,*57
06/15/2015	16:07:50.528	$GPGGA,160751,2421.4576,N,08049.5342,W,1,8,1.6,17,M,,M,,*5D
06/15/2015	16:07:51.639	$GPGGA,160752,2421.4570,N,08049.5336,W,1,9,1.5,17,M,,M,,*59
06/15/2015	16:07:52.599	$GPGGA,160753,2421.4567,N,08049.5329,W,1,9,1.5,17,M,,M,,*50
06/15/2015	16:07:53.512	$GPGGA,160754,2421.4563,N,08049.5320,W,1,9,1.5,17,M,,M,,*5A
06/15/2015	16:07:54.499	$GPGGA,160755,2421.4559,N,08049.5314,W,1,9,1.6,17,M,,M,,*56
06/15/2015	16:07:55.639	$GPGGA,160756,2421.4555,N,08049.5308,W,1,9,1.5,17,M,,M,,*57
06/15/2015	16:07:56.517	$GPGGA,160757,2421.4550,N,08049.5300,W,1,9,1.6,17,M,,M,,*58
06/15/2015	16:07:57.589	$GPGGA,160758,2421.4547,N,08049.5294,W,1,8,1.6,17,M,,M,,*5C
06/15/2015	16:07:58.499	$GPGGA,160759,2421.4544,N,08049.5289,W,1,8,1.5,17,M,,M,,*51
06/15/2015	16:07:59.611	$GPGGA,160800,2421.4541,N,08049.5282,W,1,9,1.5,17,M,,M,,*5D
06/15/2015	16:08:00.499	$GPGGA,160801,2421.4536,N,08049.5276,W,1,9,1.5,17,M,,M,,*57
06/15/2015	16:08:01.579	$GPGGA,160802,2421.4531,N,08049.5270,W,1,8,1.6,17,M,,M,,*57
06/15/2015	16:08:02.499	$GPGGA,160803,2421.4527,N,08049.5262,W,1,8,1.6,17,M,,M,,*52
06/15/2015	16:08:03.612	$GPGGA,160804,2421.4525,N,08049.5256,W,1,9,1.5,17,M,,M,,*52
06/15/2015	16:08:04.488	$GPGGA,160805,2421.4520,N,08049.5251,W,1,9,1.5,17,M,,M,,*51
06/15/2015	16:08:05.579	$GPGGA,160806,2421.4515,N,08049.5243,W,1,8,1.6,17,M,,M,,*55
06/15/2015	16:08:06.579	$GPGGA,160807,2421.4510,N,08049.5236,W,1,8,1.6,17,M,,M,,*53
06/15/2015	16:08:07.599	$GPGGA,160808,2421.4507,N,08049.5229,W,1,9,1.5,17,M,,M,,*56
06/15/2015	16:08:08.569	$GPGGA,160809,2421.4504,N,08049.5223,W,1,9,1.5,17,M,,M,,*5E
06/15/2015	16:08:09.579	$GPGGA,160810,2421.4498,N,08049.5216,W,1,9,1.5,17,M,,M,,*54
06/15/2015	16:08:10.569	$GPGGA,160811,2421.4496,N,08049.5207,W,1,9,1.6,17,M,,M,,*58
06/15/2015	16:08:11.589	$GPGGA,160812,2421.4491,N,08049.5199,W,1,9,1.5,17,M,,M,,*5B
06/15/2015	16:08:12.569	$GPGGA,160813,2421.4489,N,08049.5194,W,1,9,1.5,17,M,,M,,*5E
06/15/2015	16:08:13.569	$GPGGA,160814,2421.4486,N,08049.5188,W,1,10,1.4,17,M,,M,,*62
06/15/2015	16:08:14.559	$GPGGA,160815,2421.4483,N,08049.5177,W,1,10,1.5,17,M,,M,,*67
06/15/2015	16:08:15.589	$GPGGA,160816,2421.4479,N,08049.5170,W,1,8,1.6,17,M,,M,,*5C
06/15/2015	16:08:16.559	$GPGGA,160817,2421.4475,N,08049.5166,W,1,8,1.5,17,M,,M,,*55
06/15/2015	16:08:17.569	$GPGGA,160818,2421.4471,N,08049.5159,W,1,9,1.5,17,M,,M,,*53
06/15/2015	16:08:18.549	$GPGGA,160819,2421.4467,N,08049.5148,W,1,9,1.5,17,M,,M,,*55
06/15/2015	16:08:19.589	$GPGGA,160820,2421.4464,N,08049.5141,W,1,10,1.4,17,M,,M,,*6C
06/15/2015	16:08:20.569	$GPGGA,160821,2421.4461,N,08049.5136,W,1,10,1.4,17,M,,M,,*68
06/15/2015	16:08:21.548	$GPGGA,160822,2421.4457,N,08049.5128,W,1,10,1.4,17,M,,M,,*61
06/15/2015	16:08:22.558	$GPGGA,160823,2421.4454,N,08049.5121,W,1,10,1.4,17,M,,M,,*6A
06/15/2015	16:08:23.568	$GPGGA,160824,2421.4451,N,08049.5114,W,1,10,1.4,17,M,,M,,*6E
06/15/2015	16:08:24.539	$GPGGA,160825,2421.4449,N,08049.5106,W,1,10,1.4,17,M,,M,,*65
06/15/2015	16:08:25.539	$GPGGA,160826,2421.4444,N,08049.5099,W,1,10,1.4,17,M,,M,,*6C
06/15/2015	16:08:26.539	$GPGGA,160827,2421.4440,N,08049.5092,W,1,10,1.4,17,M,,M,,*62
06/15/2015	16:08:27.569	$GPGGA,160828,2421.4438,N,08049.5085,W,1,10,1.4,17,M,,M,,*64
06/15/2015	16:08:28.539	$GPGGA,160829,2421.4435,N,08049.5078,W,1,10,1.4,17,M,,M,,*6A
06/15/2015	16:08:29.539	$GPGGA,160830,2421.4431,N,08049.5070,W,1,10,1.4,17,M,,M,,*6E
06/15/2015	16:08:30.523	$GPGGA,160831,2421.4428,N,08049.5062,W,1,10,1.4,17,M,,M,,*64
06/15/2015	16:08:31.549	$GPGGA,160832,2421.4424,N,08049.5055,W,1,10,1.4,17,M,,M,,*6F
06/15/2015	16:08:32.529	$GPGGA,160833,2421.4420,N,08049.5049,W,1,10,1.5,17,M,,M,,*66
06/15/2015	16:08:33.513	$GPGGA,160834,2421.4417,N,08049.5042,W,1,10,1.4,18,M,,M,,*60
06/15/2015	16:08:34.529	$GPGGA,160835,2421.4413,N,08049.5034,W,1,10,1.4,18,M,,M,,*64
06/15/2015	16:08:35.549	$GPGGA,160836,2421.4410,N,08049.5027,W,1,10,1.4,18,M,,M,,*66
06/15/2015	16:08:36.527	$GPGGA,160837,2421.4407,N,08049.5019,W,1,10,1.5,18,M,,M,,*6D
06/15/2015	16:08:37.939	$GPGGA,160838,2421.4402,N,08049.5013,W,1,10,1.4,18,M,,M,,*6C
06/15/2015	16:08:38.511	$GPGGA,160839,2421.4399,N,08049.5004,W,1,10,1.4,18,M,,M,,*6E
06/15/2015	16:08:39.538	$GPGGA,160840,2421.4395,N,08049.4996,W,1,9,1.5,18,M,,M,,*56
06/15/2015	16:08:40.498	$GPGGA,160841,2421.4391,N,08049.4992,W,1,9,1.4,18,M,,M,,*56
06/15/2015	16:08:41.599	$GPGGA,160842,2421.4388,N,08049.4985,W,1,10,1.4,18,M,,M,,*63
06/15/2015	16:08:42.613	$GPGGA,160843,2421.4384,N,08049.4975,W,1,10,1.4,18,M,,M,,*61
06/15/2015	16:08:43.639	$GPGGA,160844,2421.4380,N,08049.4968,W,1,10,1.4,18,M,,M,,*6E
06/15/2015	16:08:44.522	$GPGGA,160845,2421.4377,N,08049.4962,W,1,10,1.4,18,M,,M,,*6D
06/15/2015	16:08:45.599	$GPGGA,160846,2421.4374,N,08049.4955,W,1,10,1.4,18,M,,M,,*69
06/15/2015	16:08:46.499	$GPGGA,160847,2421.4370,N,08049.4945,W,1,10,1.4,18,M,,M,,*6D
06/15/2015	16:08:47.609	$GPGGA,160848,2421.4366,N,08049.4938,W,1,10,1.4,18,M,,M,,*6F
06/15/2015	16:08:48.499	$GPGGA,160849,2421.4362,N,08049.4933,W,1,10,1.4,18,M,,M,,*61
06/15/2015	16:08:49.589	$GPGGA,160850,2421.4359,N,08049.4925,W,1,10,1.4,18,M,,M,,*66
06/15/2015	16:08:50.589	$GPGGA,160851,2421.4355,N,08049.4917,W,1,10,1.4,18,M,,M,,*6A
06/15/2015	16:08:51.613	$GPGGA,160852,2421.4350,N,08049.4911,W,1,10,1.4,18,M,,M,,*6A
06/15/2015	16:08:52.589	$GPGGA,160853,2421.4346,N,08049.4904,W,1,10,1.4,18,M,,M,,*68
06/15/2015	16:08:53.599	$GPGGA,160854,2421.4342,N,08049.4897,W,1,10,1.4,18,M,,M,,*60
06/15/2015	16:08:54.569	$GPGGA,160855,2421.4338,N,08049.4890,W,1,10,1.4,18,M,,M,,*6B
06/15/2015	16:08:55.614	$GPGGA,160856,2421.4334,N,08049.4884,W,1,10,1.4,18,M,,M,,*61
06/15/2015	16:08:56.578	$GPGGA,160857,2421.4330,N,08049.4876,W,1,10,1.4,18,M,,M,,*69
06/15/2015	16:08:57.588	$GPGGA,160858,2421.4326,N,08049.4868,W,1,10,1.4,18,M,,M,,*6E
06/15/2015	16:08:58.578	$GPGGA,160859,2421.4323,N,08049.4863,W,1,10,1.4,18,M,,M,,*61
06/15/2015	16:08:59.611	$GPGGA,160900,2421.4319,N,08049.4856,W,1,10,1.4,18,M,,M,,*63
06/15/2015	16:09:00.559	$GPGGA,160901,2421.4314,N,08049.4847,W,1,10,1.4,18,M,,M,,*6F
06/15/2015	16:09:01.549	$GPGGA,160902,2421.4310,N,08049.4840,W,1,9,1.5,18,M,,M,,*56
06/15/2015	16:09:02.559	$GPGGA,160903,2421.4306,N,08049.4835,W,1,9,1.5,18,M,,M,,*52
06/15/2015	16:09:03.613	$GPGGA,160904,2421.4303,N,08049.4828,W,1,10,1.4,18,M,,M,,*65
06/15/2015	16:09:04.559	$GPGGA,160905,2421.4298,N,08049.4818,W,1,10,1.4,18,M,,M,,*64
06/15/2015	16:09:05.569	$GPGGA,160906,2421.4294,N,08049.4812,W,1,9,1.5,18,M,,M,,*58
06/15/2015	16:09:06.539	$GPGGA,160907,2421.4290,N,08049.4807,W,1,9,1.5,18,M,,M,,*59
06/15/2015	16:09:07.590	$GPGGA,160908,2421.4286,N,08049.4799,W,1,9,1.5,18,M,,M,,*59
06/15/2015	16:09:08.549	$GPGGA,160909,2421.4283,N,08049.4790,W,1,9,1.5,18,M,,M,,*54
06/15/2015	16:09:09.559	$GPGGA,160910,2421.4278,N,08049.4783,W,1,8,1.6,18,M,,M,,*58
06/15/2015	16:09:10.539	$GPGGA,160911,2421.4274,N,08049.4778,W,1,8,1.6,18,M,,M,,*51
06/15/2015	16:09:11.569	$GPGGA,160912,2421.4270,N,08049.4770,W,1,9,1.5,18,M,,M,,*5C
06/15/2015	16:09:12.529	$GPGGA,160913,2421.4266,N,08049.4763,W,1,9,1.5,17,M,,M,,*57
06/15/2015	16:09:13.568	$GPGGA,160914,2421.4262,N,08049.4757,W,1,9,1.5,17,M,,M,,*53
06/15/2015	16:09:14.528	$GPGGA,160915,2421.4258,N,08049.4753,W,1,9,1.5,17,M,,M,,*5F
06/15/2015	16:09:15.578	$GPGGA,160916,2421.4254,N,08049.4747,W,1,9,1.5,17,M,,M,,*55
06/15/2015	16:09:16.529	$GPGGA,160917,2421.4250,N,08049.4738,W,1,9,1.5,17,M,,M,,*58
06/15/2015	16:09:17.549	$GPGGA,160918,2421.4245,N,08049.4732,W,1,9,1.5,17,M,,M,,*59
06/15/2015	16:09:18.527	$GPGGA,160919,2421.4241,N,08049.4725,W,1,9,1.6,17,M,,M,,*59
06/15/2015	16:09:19.539	$GPGGA,160920,2421.4236,N,08049.4715,W,1,9,1.5,17,M,,M,,*53
06/15/2015	16:09:20.524	$GPGGA,160921,2421.4232,N,08049.4707,W,1,9,1.5,17,M,,M,,*55
06/15/2015	16:09:21.529	$GPGGA,160922,2421.4229,N,08049.4701,W,1,9,1.5,17,M,,M,,*5A
06/15/2015	16:09:22.510	$GPGGA,160923,2421.4225,N,08049.4695,W,1,9,1.6,17,M,,M,,*58
06/15/2015	16:09:23.549	$GPGGA,160924,2421.4220,N,08049.4689,W,1,9,1.5,17,M,,M,,*54
06/15/2015	16:09:24.524	$GPGGA,160925,2421.4216,N,08049.4680,W,1,9,1.5,17,M,,M,,*59
06/15/2015	16:09:25.519	$GPGGA,160926,2421.4213,N,08049.4675,W,1,8,1.6,17,M,,M,,*57
06/15/2015	16:09:26.509	$GPGGA,160927,2421.4208,N,08049.4669,W,1,8,1.5,17,M,,M,,*52
06/15/2015	16:09:27.613	$GPGGA,160928,2421.4205,N,08049.4662,W,1,9,1.4,17,M,,M,,*5B
06/15/2015	16:09:28.509	$GPGGA,160929,2421.4201,N,08049.4654,W,1,9,1.4,17,M,,M,,*5B
06/15/2015	16:09:29.620	$GPGGA,160930,2421.4197,N,08049.4649,W,1,9,1.5,17,M,,M,,*52
06/15/2015	16:09:30.509	$GPGGA,160931,2421.4193,N,08049.4642,W,1,9,1.5,17,M,,M,,*5C
06/15/2015	16:09:31.628	$GPGGA,160932,2421.4189,N,08049.4634,W,1,8,1.6,17,M,,M,,*57
06/15/2015	16:09:32.888	$GPGGA,160933,2421.4185,N,08049.4627,W,1,8,1.6,17,M,,M,,*58
06/15/2015	16:09:33.488	$GPGGA,160934,2421.4180,N,08049.4623,W,1,9,1.5,17,M,,M,,*5C
06/15/2015	16:09:34.511	$GPGGA,160935,2421.4176,N,08049.4617,W,1,9,1.6,17,M,,M,,*50
06/15/2015	16:09:35.609	$GPGGA,160936,2421.4171,N,08049.4608,W,1,8,1.8,17,M,,M,,*55
06/15/2015	16:09:36.599	$GPGGA,160937,2421.4167,N,08049.4602,W,1,8,1.6,16,M,,M,,*56
06/15/2015	16:09:37.610	$GPGGA,160938,2421.4164,N,08049.4597,W,1,8,1.6,16,M,,M,,*55
06/15/2015	16:09:38.599	$GPGGA,160939,2421.4158,N,08049.4590,W,1,8,1.6,16,M,,M,,*5C
06/15/2015	16:09:39.612	$GPGGA,160940,2421.4155,N,08049.4582,W,1,8,1.6,16,M,,M,,*5C
06/15/2015	16:09:40.579	$GPGGA,160941,2421.4153,N,08049.4577,W,1,8,1.5,16,M,,M,,*52
06/15/2015	16:09:41.589	$GPGGA,160942,2421.4148,N,08049.4571,W,1,9,1.6,16,M,,M,,*5F
06/15/2015	16:09:42.579	$GPGGA,160943,2421.4146,N,08049.4562,W,1,9,1.6,16,M,,M,,*52
06/15/2015	16:09:43.622	$GPGGA,160944,2421.4142,N,08049.4555,W,1,8,1.5,16,M,,M,,*57
06/15/2015	16:09:44.589	$GPGGA,160945,2421.4136,N,08049.4551,W,1,8,1.5,16,M,,M,,*51
06/15/2015	16:09:45.569	$GPGGA,160946,2421.4132,N,08049.4543,W,1,9,1.5,16,M,,M,,*54
06/15/2015	16:09:46.569	$GPGGA,160947,2421.4128,N,08049.4533,W,1,9,1.5,16,M,,M,,*59
06/15/2015	16:09:47.589	$GPGGA,160948,2421.4124,N,08049.4528,W,1,9,1.5,16,M,,M,,*50
06/15/2015	16:09:48.579	$GPGGA,160949,2421.4120,N,08049.4525,W,1,9,1.5,16,M,,M,,*58
06/15/2015	16:09:49.578	$GPGGA,160950,2421.4117,N,08049.4517,W,1,9,1.5,16,M,,M,,*55
06/15/2015	16:09:50.568	$GPGGA,160951,2421.4113,N,08049.4510,W,1,9,1.4,16,M,,M,,*56
06/15/2015	16:09:51.622	$GPGGA,160952,2421.4109,N,08049.4504,W,1,10,1.4,16,M,,M,,*63
06/15/2015	16:09:52.570	$GPGGA,160953,2421.4106,N,08049.4497,W,1,10,1.4,16,M,,M,,*66
06/15/2015	16:09:53.579	$GPGGA,160954,2421.4100,N,08049.4491,W,1,10,1.4,16,M,,M,,*61
06/15/2015	16:09:54.559	$GPGGA,160955,2421.4097,N,08049.4483,W,1,10,1.4,16,M,,M,,*6C
06/15/2015	16:09:55.599	$GPGGA,160956,2421.4093,N,08049.4476,W,1,10,1.4,16,M,,M,,*61
06/15/2015	16:09:56.559	$GPGGA,160957,2421.4088,N,08049.4470,W,1,10,1.5,16,M,,M,,*6D
06/15/2015	16:09:57.539	$GPGGA,160958,2421.4084,N,08049.4462,W,1,9,1.4,16,M,,M,,*54
06/15/2015	16:09:58.539	$GPGGA,160959,2421.4081,N,08049.4453,W,1,9,1.4,16,M,,M,,*52
06/15/2015	16:09:59.599	$GPGGA,161000,2421.4077,N,08049.4449,W,1,10,1.5,16,M,,M,,*6D
06/15/2015	16:10:00.569	$GPGGA,161001,2421.4072,N,08049.4442,W,1,10,1.5,16,M,,M,,*62
06/15/2015	16:10:01.529	$GPGGA,161002,2421.4068,N,08049.4431,W,1,9,1.4,16,M,,M,,*57
06/15/2015	16:10:02.539	$GPGGA,161003,2421.4066,N,08049.4423,W,1,9,1.4,16,M,,M,,*5B
06/15/2015	16:10:03.559	$GPGGA,161004,2421.4063,N,08049.4418,W,1,10,1.4,16,M,,M,,*69
06/15/2015	16:10:04.539	$GPGGA,161005,2421.4059,N,08049.4412,W,1,10,1.4,16,M,,M,,*6B
06/15/2015	16:10:05.539	$GPGGA,161006,2421.4055,N,08049.4402,W,1,10,1.4,16,M,,M,,*65
06/15/2015	16:10:06.648	$GPGGA,161007,2421.4052,N,08049.4395,W,1,10,1.4,16,M,,M,,*6A
06/15/2015	16:10:07.568	$GPGGA,161008,2421.4048,N,08049.4389,W,1,10,1.5,16,M,,M,,*62
06/15/2015	16:10:08.648	$GPGGA,161009,2421.4045,N,08049.4382,W,1,10,1.4,16,M,,M,,*64
06/15/2015	16:10:09.549	$GPGGA,161010,2421.4041,N,08049.4374,W,1,10,1.4,16,M,,M,,*61
06/15/2015	16:10:10.539	$GPGGA,161011,2421.4037,N,08049.4366,W,1,10,1.4,16,M,,M,,*62
06/15/2015	16:10:11.589	$GPGGA,161012,2421.4034,N,08049.4360,W,1,10,1.5,16,M,,M,,*65
06/15/2015	16:10:12.529	$GPGGA,161013,2421.4030,N,08049.4353,W,1,10,1.4,16,M,,M,,*61
06/15/2015	16:10:13.629	$GPGGA,161014,2421.4025,N,08049.4344,W,1,10,1.5,16,M,,M,,*65
06/15/2015	16:10:14.525	$GPGGA,161015,2421.4021,N,08049.4336,W,1,10,1.4,16,M,,M,,*64
06/15/2015	16:10:15.649	$GPGGA,161016,2421.4017,N,08049.4331,W,1,10,1.4,16,M,,M,,*65
06/15/2015	16:10:16.599	$GPGGA,161017,2421.4013,N,08049.4324,W,1,10,1.4,16,M,,M,,*64
06/15/2015	16:10:17.612	$GPGGA,161018,2421.4010,N,08049.4316,W,1,10,1.4,16,M,,M,,*69
06/15/2015	16:10:18.522	$GPGGA,161019,2421.4006,N,08049.4307,W,1,10,1.4,16,M,,M,,*6F
06/15/2015	16:10:19.612	$GPGGA,161020,2421.4003,N,08049.4302,W,1,10,1.4,16,M,,M,,*65
06/15/2015	16:10:20.599	$GPGGA,161021,2421.3999,N,08049.4296,W,1,10,1.4,16,M,,M,,*65
06/15/2015	16:10:21.599	$GPGGA,161022,2421.3995,N,08049.4287,W,1,10,1.4,16,M,,M,,*6A
06/15/2015	16:10:22.512	$GPGGA,161023,2421.3991,N,08049.4279,W,1,10,1.4,16,M,,M,,*6E
06/15/2015	16:10:23.613	$GPGGA,161024,2421.3987,N,08049.4273,W,1,10,1.4,16,M,,M,,*64
06/15/2015	16:10:24.588	$GPGGA,161025,2421.3984,N,08049.4266,W,1,10,1.4,16,M,,M,,*62
06/15/2015	16:10:25.598	$GPGGA,161026,2421.3980,N,08049.4258,W,1,10,1.4,16,M,,M,,*68
06/15/2015	16:10:26.589	$GPGGA,161027,2421.3976,N,08049.4252,W,1,10,1.4,16,M,,M,,*6A
06/15/2015	16:10:27.589	$GPGGA,161028,2421.3972,N,08049.4244,W,1,10,1.4,16,M,,M,,*66
06/15/2015	16:10:28.589	$GPGGA,161029,2421.3969,N,08049.4236,W,1,10,1.4,16,M,,M,,*68
06/15/2015	16:10:29.579	$GPGGA,161030,2421.3965,N,08049.4229,W,1,10,1.4,16,M,,M,,*62
06/15/2015	16:10:30.579	$GPGGA,161031,2421.3960,N,08049.4223,W,1,10,1.4,16,M,,M,,*6C
06/15/2015	16:10:31.609	$GPGGA,161032,2421.3958,N,08049.4215,W,1,10,1.4,16,M,,M,,*61
06/15/2015	16:10:32.569	$GPGGA,161033,2421.3954,N,08049.4207,W,1,10,1.4,16,M,,M,,*6F
06/15/2015	16:10:33.589	$GPGGA,161034,2421.3951,N,08049.4200,W,1,10,1.4,16,M,,M,,*6A
06/15/2015	16:10:34.569	$GPGGA,161035,2421.3947,N,08049.4193,W,1,10,1.4,16,M,,M,,*65
06/15/2015	16:10:35.589	$GPGGA,161036,2421.3942,N,08049.4187,W,1,10,1.4,16,M,,M,,*66
06/15/2015	16:10:36.559	$GPGGA,161037,2421.3940,N,08049.4181,W,1,10,1.5,16,M,,M,,*62
06/15/2015	16:10:37.579	$GPGGA,161038,2421.3936,N,08049.4172,W,1,9,1.5,16,M,,M,,*58
06/15/2015	16:10:38.559	$GPGGA,161039,2421.3932,N,08049.4164,W,1,9,1.4,16,M,,M,,*5B
06/15/2015	16:10:39.599	$GPGGA,161040,2421.3929,N,08049.4159,W,1,10,1.4,16,M,,M,,*69
06/15/2015	16:10:40.579	$GPGGA,161041,2421.3924,N,08049.4153,W,1,10,1.5,16,M,,M,,*6E
06/15/2015	16:10:41.568	$GPGGA,161042,2421.3920,N,08049.4143,W,1,9,1.5,16,M,,M,,*50
06/15/2015	16:10:42.548	$GPGGA,161043,2421.3918,N,08049.4136,W,1,9,1.5,16,M,,M,,*58
06/15/2015	16:10:44.591	$GPGGA,161045,2421.3911,N,08049.4123,W,1,10,1.4,16,M,,M,,*6A
06/15/2015	16:10:45.539	$GPGGA,161046,2421.3907,N,08049.4116,W,1,9,1.5,16,M,,M,,*51
06/15/2015	16:10:46.559	$GPGGA,161047,2421.3904,N,08049.4109,W,1,9,1.4,16,M,,M,,*5C
06/15/2015	16:10:47.539	$GPGGA,161048,2421.3900,N,08049.4099,W,1,9,1.4,16,M,,M,,*5F
06/15/2015	16:10:48.549	$GPGGA,161049,2421.3896,N,08049.4094,W,1,9,1.4,16,M,,M,,*5D
06/15/2015	16:10:49.569	$GPGGA,161050,2421.3893,N,08049.4089,W,1,10,1.4,16,M,,M,,*64
06/15/2015	16:10:50.549	$GPGGA,161051,2421.3889,N,08049.4080,W,1,10,1.4,16,M,,M,,*67
06/15/2015	16:10:51.570	$GPGGA,161052,2421.3884,N,08049.4071,W,1,9,1.5,16,M,,M,,*5E
06/15/2015	16:10:52.549	$GPGGA,161053,2421.3880,N,08049.4069,W,1,9,1.5,16,M,,M,,*52
06/15/2015	16:10:53.523	$GPGGA,161054,2421.3876,N,08049.4064,W,1,9,1.4,16,M,,M,,*50
06/15/2015	16:10:54.524	$GPGGA,161055,2421.3871,N,08049.4056,W,1,9,1.4,16,M,,M,,*57
06/15/2015	16:10:55.539	$GPGGA,161056,2421.3869,N,08049.4049,W,1,9,1.4,16,M,,M,,*53
06/15/2015	16:10:56.529	$GPGGA,161057,2421.3865,N,08049.4045,W,1,9,1.5,16,M,,M,,*53
06/15/2015	16:10:57.519	$GPGGA,161058,2421.3861,N,08049.4037,W,1,8,1.5,16,M,,M,,*5C
06/15/2015	16:10:58.611	$GPGGA,161059,2421.3857,N,08049.4029,W,1,8,1.6,16,M,,M,,*54
06/15/2015	16:10:59.568	$GPGGA,161100,2421.3853,N,08049.4024,W,1,7,1.6,16,M,,M,,*5F
06/15/2015	16:11:00.520	$GPGGA,161101,2421.3849,N,08049.4018,W,1,7,1.5,16,M,,M,,*59
06/15/2015	16:11:01.599	$GPGGA,161102,2421.3844,N,08049.4010,W,1,8,1.5,16,M,,M,,*50
06/15/2015	16:11:02.519	$GPGGA,161103,2421.3842,N,08049.4005,W,1,8,1.5,16,M,,M,,*53
06/15/2015	16:11:03.620	$GPGGA,161104,2421.3836,N,08049.3999,W,1,8,1.5,16,M,,M,,*5C
06/15/2015	16:11:04.499	$GPGGA,161105,2421.3832,N,08049.3990,W,1,8,1.5,16,M,,M,,*50
06/15/2015	16:11:06.539	$GPGGA,161107,2421.3824,N,08049.3980,W,1,7,1.5,16,M,,M,,*5B
06/15/2015	16:11:07.529	$GPGGA,161108,2421.3820,N,08049.3973,W,1,8,1.5,16,M,,M,,*53
06/15/2015	16:11:08.513	$GPGGA,161109,2421.3817,N,08049.3964,W,1,8,1.5,16,M,,M,,*50
06/15/2015	16:11:09.599	$GPGGA,161110,2421.3812,N,08049.3961,W,1,7,1.6,16,M,,M,,*54
06/15/2015	16:11:10.499	$GPGGA,161111,2421.3808,N,08049.3956,W,1,7,1.5,16,M,,M,,*59
06/15/2015	16:11:11.629	$GPGGA,161112,2421.3806,N,08049.3950,W,1,9,1.4,16,M,,M,,*5D
06/15/2015	16:11:12.499	$GPGGA,161113,2421.3801,N,08049.3942,W,1,9,1.5,16,M,,M,,*59
06/15/2015	16:11:13.589	$GPGGA,161114,2421.3796,N,08049.3938,W,1,7,1.6,16,M,,M,,*5F
06/15/2015	16:11:14.589	$GPGGA,161115,2421.3792,N,08049.3930,W,1,7,1.5,16,M,,M,,*51
06/15/2015	16:11:15.589	$GPGGA,161116,2421.3789,N,08049.3923,W,1,9,1.4,16,M,,M,,*55
06/15/2015	16:11:16.578	$GPGGA,161117,2421.3786,N,08049.3917,W,1,9,1.4,16,M,,M,,*5C
06/15/2015	16:11:17.588	$GPGGA,161118,2421.3782,N,08049.3910,W,1,9,1.4,16,M,,M,,*50
06/15/2015	16:11:18.578	$GPGGA,161119,2421.3778,N,08049.3902,W,1,9,1.4,16,M,,M,,*57
06/15/2015	16:11:19.589	$GPGGA,161120,2421.3775,N,08049.3897,W,1,9,1.4,16,M,,M,,*5D
06/15/2015	16:11:20.579	$GPGGA,161121,2421.3772,N,08049.3890,W,1,9,1.4,16,M,,M,,*5C
06/15/2015	16:11:21.589	$GPGGA,161122,2421.3768,N,08049.3883,W,1,9,1.4,16,M,,M,,*56
06/15/2015	16:11:22.569	$GPGGA,161123,2421.3764,N,08049.3876,W,1,9,1.4,16,M,,M,,*51
06/15/2015	16:11:23.589	$GPGGA,161124,2421.3760,N,08049.3869,W,1,9,1.4,16,M,,M,,*5C
06/15/2015	16:11:24.569	$GPGGA,161125,2421.3757,N,08049.3862,W,1,9,1.4,16,M,,M,,*52
06/15/2015	16:11:25.569	$GPGGA,161126,2421.3752,N,08049.3855,W,1,9,1.4,16,M,,M,,*50
06/15/2015	16:11:26.549	$GPGGA,161127,2421.3748,N,08049.3848,W,1,9,1.4,16,M,,M,,*56
06/15/2015	16:11:27.589	$GPGGA,161128,2421.3745,N,08049.3842,W,1,10,1.4,17,M,,M,,*67
06/15/2015	16:11:28.559	$GPGGA,161129,2421.3741,N,08049.3834,W,1,10,1.4,17,M,,M,,*63
06/15/2015	16:11:29.549	$GPGGA,161130,2421.3736,N,08049.3826,W,1,10,1.4,17,M,,M,,*68
06/15/2015	16:11:30.759	$GPGGA,161131,2421.3732,N,08049.3820,W,1,10,1.4,17,M,,M,,*6B
06/15/2015	16:11:31.579	$GPGGA,161132,2421.3728,N,08049.3813,W,1,10,1.4,17,M,,M,,*63
06/15/2015	16:11:32.559	$GPGGA,161133,2421.3725,N,08049.3806,W,1,10,1.4,17,M,,M,,*6B
06/15/2015	16:11:33.538	$GPGGA,161134,2421.3723,N,08049.3798,W,1,10,1.4,17,M,,M,,*62
06/15/2015	16:11:34.548	$GPGGA,161135,2421.3717,N,08049.3790,W,1,10,1.4,17,M,,M,,*6C
06/15/2015	16:11:35.578	$GPGGA,161136,2421.3714,N,08049.3784,W,1,10,1.4,17,M,,M,,*69
06/15/2015	16:11:36.549	$GPGGA,161137,2421.3710,N,08049.3777,W,1,10,1.4,17,M,,M,,*60
06/15/2015	16:11:37.569	$GPGGA,161138,2421.3707,N,08049.3770,W,1,9,1.4,17,M,,M,,*56
06/15/2015	16:11:38.529	$GPGGA,161139,2421.3703,N,08049.3763,W,1,9,1.4,17,M,,M,,*51
06/15/2015	16:11:39.549	$GPGGA,161140,2421.3698,N,08049.3755,W,1,9,1.4,17,M,,M,,*59
06/15/2015	16:11:40.523	$GPGGA,161141,2421.3695,N,08049.3748,W,1,9,1.4,17,M,,M,,*59
06/15/2015	16:11:41.539	$GPGGA,161142,2421.3691,N,08049.3741,W,1,10,1.4,17,M,,M,,*6F
06/15/2015	16:11:42.539	$GPGGA,161143,2421.3687,N,08049.3734,W,1,10,1.4,17,M,,M,,*6B
06/15/2015	16:11:43.569	$GPGGA,161144,2421.3683,N,08049.3727,W,1,10,1.4,17,M,,M,,*6A
06/15/2015	16:11:44.539	$GPGGA,161145,2421.3680,N,08049.3718,W,1,10,1.4,17,M,,M,,*64
06/15/2015	16:11:45.523	$GPGGA,161146,2421.3676,N,08049.3711,W,1,10,1.4,17,M,,M,,*67
06/15/2015	16:11:46.614	$GPGGA,161147,2421.3672,N,08049.3705,W,1,10,1.4,17,M,,M,,*67
