Software Version Number: 1	Data File Format Number: 1	Build Version Number: 1	Error Count Since VI Started: 3	Manufacturer: Raytheon	 Model Number: RayMarine 120	 S/N: 	 Cal Date: 	 Wind Direction Offset: 0.00	 Slope (M)1: 0.00	 Offset (B)1: 0.00	 Slope (M)2: 0.00	 Offset (B)2: 0.00	 Slope (M)3: 0.00	 Offset (B)3: 0.00	 Slope (M)4: 0.00	 Offset (B)4: 0.00	 Slope (M)5: 0.00	 Offset (B)5: 0.00	 Slope (M)6: 0.00	 Offset (B)6: 0.00
Computer Date	Computer Time	GGA String
06/25/2015	13:00:00.535	$GPGGA,130001,2523.5378,N,07948.7352,W,1,9,1.5,12,M,,M,,*53
06/25/2015	13:00:01.525	$GPGGA,130002,2523.5394,N,07948.7364,W,1,9,1.5,12,M,,M,,*57
06/25/2015	13:00:02.535	$GPGGA,130003,2523.5410,N,07948.7375,W,1,9,1.5,12,M,,M,,*5D
06/25/2015	13:00:04.535	$GPGGA,130004,2523.5425,N,07948.7386,W,1,9,1.5,12,M,,M,,*50
06/25/2015	13:00:04.565	$GPGGA,130005,2523.5442,N,07948.7399,W,1,9,1.5,12,M,,M,,*5E
06/25/2015	13:00:05.525	$GPGGA,130006,2523.5457,N,07948.7410,W,1,9,1.5,12,M,,M,,*5F
06/25/2015	13:00:06.535	$GPGGA,130007,2523.5474,N,07948.7421,W,1,9,1.5,12,M,,M,,*5D
06/25/2015	13:00:07.525	$GPGGA,130008,2523.5490,N,07948.7433,W,1,9,1.5,12,M,,M,,*5B
06/25/2015	13:00:08.625	$GPGGA,130009,2523.5506,N,07948.7444,W,1,9,1.5,12,M,,M,,*54
06/25/2015	13:00:09.625	$GPGGA,130010,2523.5522,N,07948.7456,W,1,9,1.5,12,M,,M,,*59
06/25/2015	13:00:10.505	$GPGGA,130011,2523.5537,N,07948.7467,W,1,9,1.5,12,M,,M,,*5E
06/25/2015	13:00:11.525	$GPGGA,130012,2523.5554,N,07948.7478,W,1,9,1.5,12,M,,M,,*56
06/25/2015	13:00:12.515	$GPGGA,130013,2523.5569,N,07948.7490,W,1,9,1.5,12,M,,M,,*5F
06/25/2015	13:00:13.615	$GPGGA,130014,2523.5586,N,07948.7501,W,1,9,1.5,12,M,,M,,*50
06/25/2015	13:00:14.605	$GPGGA,130015,2523.5602,N,07948.7514,W,1,9,1.5,12,M,,M,,*5A
06/25/2015	13:00:15.625	$GPGGA,130016,2523.5618,N,07948.7525,W,1,9,1.5,12,M,,M,,*50
06/25/2015	13:00:16.505	$GPGGA,130017,2523.5634,N,07948.7537,W,1,9,1.5,12,M,,M,,*5C
06/25/2015	13:00:17.614	$GPGGA,130018,2523.5649,N,07948.7548,W,1,9,1.5,12,M,,M,,*51
06/25/2015	13:00:18.494	$GPGGA,130019,2523.5666,N,07948.7561,W,1,9,1.5,12,M,,M,,*56
06/25/2015	13:00:19.614	$GPGGA,130020,2523.5681,N,07948.7572,W,1,9,1.5,12,M,,M,,*57
06/25/2015	13:00:20.494	$GPGGA,130021,2523.5698,N,07948.7583,W,1,9,1.5,12,M,,M,,*50
06/25/2015	13:00:21.494	$GPGGA,130022,2523.5714,N,07948.7595,W,1,9,1.5,12,M,,M,,*51
06/25/2015	13:00:22.484	$GPGGA,130023,2523.5730,N,07948.7608,W,1,9,1.5,12,M,,M,,*51
06/25/2015	13:00:23.614	$GPGGA,130024,2523.5745,N,07948.7619,W,1,9,1.5,12,M,,M,,*54
06/25/2015	13:00:24.564	$GPGGA,130025,2523.5760,N,07948.7631,W,1,9,1.5,12,M,,M,,*58
06/25/2015	13:00:25.594	$GPGGA,130026,2523.5777,N,07948.7644,W,1,9,1.5,12,M,,M,,*5F
06/25/2015	13:00:26.577	$GPGGA,130027,2523.5792,N,07948.7655,W,1,9,1.5,12,M,,M,,*55
06/25/2015	13:00:27.584	$GPGGA,130028,2523.5807,N,07948.7667,W,1,9,1.5,12,M,,M,,*58
06/25/2015	13:00:28.580	$GPGGA,130029,2523.5822,N,07948.7678,W,1,9,1.5,12,M,,M,,*50
06/25/2015	13:00:29.555	$GPGGA,130030,2523.5839,N,07948.7691,W,1,9,1.5,12,M,,M,,*55
06/25/2015	13:00:30.568	$GPGGA,130031,2523.5854,N,07948.7702,W,1,9,1.5,12,M,,M,,*54
06/25/2015	13:00:31.605	$GPGGA,130032,2523.5869,N,07948.7714,W,1,9,1.5,12,M,,M,,*5E
06/25/2015	13:00:32.556	$GPGGA,130033,2523.5885,N,07948.7727,W,1,9,1.5,12,M,,M,,*5D
06/25/2015	13:00:33.545	$GPGGA,130034,2523.5901,N,07948.7738,W,1,9,1.5,12,M,,M,,*59
06/25/2015	13:00:34.544	$GPGGA,130035,2523.5916,N,07948.7749,W,1,9,1.5,12,M,,M,,*58
06/25/2015	13:00:35.579	$GPGGA,130036,2523.5932,N,07948.7761,W,1,9,1.5,12,M,,M,,*57
06/25/2015	13:00:36.544	$GPGGA,130037,2523.5947,N,07948.7772,W,1,9,1.5,12,M,,M,,*56
06/25/2015	13:00:37.566	$GPGGA,130038,2523.5963,N,07948.7785,W,1,9,1.5,12,M,,M,,*57
06/25/2015	13:00:38.544	$GPGGA,130039,2523.5977,N,07948.7796,W,1,9,1.5,12,M,,M,,*51
06/25/2015	13:00:39.584	$GPGGA,130040,2523.5992,N,07948.7808,W,1,9,1.5,12,M,,M,,*5C
06/25/2015	13:00:40.544	$GPGGA,130041,2523.6009,N,07948.7819,W,1,9,1.5,12,M,,M,,*55
06/25/2015	13:00:41.524	$GPGGA,130042,2523.6024,N,07948.7832,W,1,9,1.5,12,M,,M,,*50
06/25/2015	13:00:42.524	$GPGGA,130043,2523.6039,N,07948.7843,W,1,9,1.5,12,M,,M,,*5B
06/25/2015	13:00:43.544	$GPGGA,130044,2523.6055,N,07948.7855,W,1,9,1.5,12,M,,M,,*51
06/25/2015	13:00:44.524	$GPGGA,130045,2523.6071,N,07948.7868,W,1,9,1.5,12,M,,M,,*58
06/25/2015	13:00:45.545	$GPGGA,130046,2523.6086,N,07948.7879,W,1,9,1.5,12,M,,M,,*53
06/25/2015	13:00:46.535	$GPGGA,130047,2523.6102,N,07948.7890,W,1,9,1.5,12,M,,M,,*58
06/25/2015	13:00:47.575	$GPGGA,130048,2523.6118,N,07948.7902,W,1,9,1.5,12,M,,M,,*56
06/25/2015	13:00:48.525	$GPGGA,130049,2523.6133,N,07948.7915,W,1,9,1.5,12,M,,M,,*58
06/25/2015	13:00:49.515	$GPGGA,130050,2523.6149,N,07948.7926,W,1,9,1.5,12,M,,M,,*5D
06/25/2015	13:00:50.525	$GPGGA,130051,2523.6165,N,07948.7938,W,1,9,1.5,12,M,,M,,*5D
06/25/2015	13:00:51.545	$GPGGA,130052,2523.6180,N,07948.7951,W,1,9,1.5,12,M,,M,,*5A
06/25/2015	13:00:52.634	$GPGGA,130053,2523.6194,N,07948.7962,W,1,9,1.5,12,M,,M,,*5E
06/25/2015	13:00:53.524	$GPGGA,130054,2523.6212,N,07948.7973,W,1,9,1.5,12,M,,M,,*54
06/25/2015	13:00:54.524	$GPGGA,130055,2523.6227,N,07948.7985,W,1,9,1.5,12,M,,M,,*5A
06/25/2015	13:00:55.514	$GPGGA,130056,2523.6241,N,07948.7998,W,1,9,1.5,12,M,,M,,*55
06/25/2015	13:00:56.504	$GPGGA,130057,2523.6258,N,07948.8009,W,1,9,1.5,12,M,,M,,*52
06/25/2015	13:00:57.514	$GPGGA,130058,2523.6273,N,07948.8020,W,1,9,1.5,12,M,,M,,*5F
06/25/2015	13:00:58.494	$GPGGA,130059,2523.6290,N,07948.8032,W,1,9,1.5,12,M,,M,,*50
06/25/2015	13:00:59.534	$GPGGA,130100,2523.6305,N,07948.8045,W,1,9,1.5,12,M,,M,,*50
06/25/2015	13:01:00.514	$GPGGA,130101,2523.6320,N,07948.8056,W,1,9,1.5,12,M,,M,,*54
06/25/2015	13:01:01.514	$GPGGA,130102,2523.6337,N,07948.8067,W,1,9,1.5,12,M,,M,,*53
06/25/2015	13:01:02.484	$GPGGA,130103,2523.6352,N,07948.8081,W,1,9,1.7,12,M,,M,,*5B
06/25/2015	13:01:03.567	$GPGGA,130104,2523.6367,N,07948.8093,W,1,9,1.5,12,M,,M,,*5B
06/25/2015	13:01:04.495	$GPGGA,130105,2523.6382,N,07948.8104,W,1,9,1.5,12,M,,M,,*5E
06/25/2015	13:01:05.615	$GPGGA,130106,2523.6399,N,07948.8115,W,1,9,1.5,12,M,,M,,*57
06/25/2015	13:01:06.485	$GPGGA,130107,2523.6414,N,07948.8129,W,1,9,1.5,12,M,,M,,*5B
06/25/2015	13:01:07.495	$GPGGA,130108,2523.6429,N,07948.8140,W,1,9,1.5,12,M,,M,,*55
06/25/2015	13:01:08.585	$GPGGA,130109,2523.6447,N,07948.8152,W,1,9,1.5,12,M,,M,,*5F
06/25/2015	13:01:09.484	$GPGGA,130110,2523.6461,N,07948.8165,W,1,9,1.5,12,M,,M,,*57
06/25/2015	13:01:10.566	$GPGGA,130111,2523.6478,N,07948.8176,W,1,9,1.5,12,M,,M,,*5C
06/25/2015	13:01:11.484	$GPGGA,130112,2523.6494,N,07948.8188,W,1,9,1.5,12,M,,M,,*5C
06/25/2015	13:01:12.583	$GPGGA,130113,2523.6510,N,07948.8201,W,1,9,1.5,12,M,,M,,*52
06/25/2015	13:01:13.594	$GPGGA,130114,2523.6526,N,07948.8212,W,1,9,1.5,12,M,,M,,*52
06/25/2015	13:01:14.576	$GPGGA,130115,2523.6541,N,07948.8224,W,1,9,1.5,12,M,,M,,*57
06/25/2015	13:01:15.614	$GPGGA,130116,2523.6558,N,07948.8237,W,1,9,1.5,12,M,,M,,*5E
06/25/2015	13:01:16.579	$GPGGA,130117,2523.6573,N,07948.8248,W,1,9,1.5,12,M,,M,,*5E
06/25/2015	13:01:17.594	$GPGGA,130118,2523.6590,N,07948.8259,W,1,9,1.5,12,M,,M,,*5C
06/25/2015	13:01:18.583	$GPGGA,130119,2523.6606,N,07948.8271,W,1,9,1.5,12,M,,M,,*5B
06/25/2015	13:01:19.624	$GPGGA,130120,2523.6622,N,07948.8284,W,1,9,1.5,12,M,,M,,*5D
06/25/2015	13:01:20.569	$GPGGA,130121,2523.6638,N,07948.8295,W,1,9,1.5,12,M,,M,,*57
06/25/2015	13:01:21.585	$GPGGA,130122,2523.6653,N,07948.8306,W,1,9,1.5,12,M,,M,,*52
06/25/2015	13:01:22.555	$GPGGA,130123,2523.6671,N,07948.8318,W,1,9,1.5,12,M,,M,,*5C
06/25/2015	13:01:23.577	$GPGGA,130124,2523.6686,N,07948.8329,W,1,9,1.5,12,M,,M,,*51
06/25/2015	13:01:24.545	$GPGGA,130125,2523.6703,N,07948.8342,W,1,9,1.5,12,M,,M,,*51
06/25/2015	13:01:25.568	$GPGGA,130126,2523.6718,N,07948.8353,W,1,9,1.5,12,M,,M,,*58
06/25/2015	13:01:26.545	$GPGGA,130127,2523.6736,N,07948.8364,W,1,9,1.5,12,M,,M,,*51
06/25/2015	13:01:27.574	$GPGGA,130128,2523.6751,N,07948.8376,W,1,9,1.5,12,M,,M,,*5C
06/25/2015	13:01:28.534	$GPGGA,130129,2523.6768,N,07948.8387,W,1,9,1.5,12,M,,M,,*59
06/25/2015	13:01:29.554	$GPGGA,130130,2523.6783,N,07948.8400,W,1,9,1.5,12,M,,M,,*5C
06/25/2015	13:01:30.534	$GPGGA,130131,2523.6801,N,07948.8410,W,1,9,1.5,12,M,,M,,*59
06/25/2015	13:01:31.586	$GPGGA,130132,2523.6816,N,07948.8421,W,1,9,1.5,12,M,,M,,*5E
06/25/2015	13:01:32.534	$GPGGA,130133,2523.6833,N,07948.8433,W,1,9,1.5,12,M,,M,,*5B
06/25/2015	13:01:33.524	$GPGGA,130134,2523.6848,N,07948.8444,W,1,9,1.5,12,M,,M,,*50
06/25/2015	13:01:34.534	$GPGGA,130135,2523.6865,N,07948.8457,W,1,9,1.5,12,M,,M,,*5C
06/25/2015	13:01:35.570	$GPGGA,130136,2523.6880,N,07948.8468,W,1,9,1.5,12,M,,M,,*58
06/25/2015	13:01:36.524	$GPGGA,130137,2523.6898,N,07948.8479,W,1,9,1.5,12,M,,M,,*50
06/25/2015	13:01:37.514	$GPGGA,130138,2523.6913,N,07948.8490,W,1,9,1.5,12,M,,M,,*5A
06/25/2015	13:01:38.525	$GPGGA,130139,2523.6930,N,07948.8502,W,1,9,1.5,12,M,,M,,*50
06/25/2015	13:01:39.595	$GPGGA,130140,2523.6945,N,07948.8515,W,1,9,1.5,12,M,,M,,*5A
06/25/2015	13:01:40.515	$GPGGA,130141,2523.6962,N,07948.8526,W,1,9,1.5,12,M,,M,,*5E
06/25/2015	13:01:41.525	$GPGGA,130142,2523.6978,N,07948.8537,W,1,9,1.7,12,M,,M,,*54
06/25/2015	13:01:42.615	$GPGGA,130143,2523.6992,N,07948.8549,W,1,9,1.7,12,M,,M,,*58
06/25/2015	13:01:43.635	$GPGGA,130144,2523.7009,N,07948.8562,W,1,9,1.5,12,M,,M,,*5E
06/25/2015	13:01:44.524	$GPGGA,130145,2523.7025,N,07948.8573,W,1,9,1.5,12,M,,M,,*51
06/25/2015	13:01:45.604	$GPGGA,130146,2523.7040,N,07948.8584,W,1,9,1.5,12,M,,M,,*59
06/25/2015	13:01:46.504	$GPGGA,130147,2523.7057,N,07948.8596,W,1,9,1.5,12,M,,M,,*5D
06/25/2015	13:01:47.534	$GPGGA,130148,2523.7072,N,07948.8609,W,1,9,1.5,12,M,,M,,*50
06/25/2015	13:01:48.514	$GPGGA,130149,2523.7087,N,07948.8620,W,1,9,1.5,12,M,,M,,*50
06/25/2015	13:01:50.025	$GPGGA,130150,2523.7104,N,07948.8632,W,1,9,1.5,13,M,,M,,*50
06/25/2015	13:01:50.514	$GPGGA,130151,2523.7119,N,07948.8645,W,1,9,1.5,13,M,,M,,*5D
06/25/2015	13:01:51.654	$GPGGA,130152,2523.7135,N,07948.8657,W,1,9,1.5,13,M,,M,,*53
06/25/2015	13:01:52.574	$GPGGA,130153,2523.7151,N,07948.8670,W,1,9,1.5,13,M,,M,,*55
06/25/2015	13:01:53.614	$GPGGA,130154,2523.7166,N,07948.8681,W,1,9,1.5,13,M,,M,,*58
06/25/2015	13:01:54.577	$GPGGA,130155,2523.7182,N,07948.8692,W,1,9,1.5,13,M,,M,,*51
06/25/2015	13:01:55.535	$GPGGA,130156,2523.7198,N,07948.8704,W,1,9,1.5,13,M,,M,,*57
06/25/2015	13:01:56.575	$GPGGA,130157,2523.7213,N,07948.8717,W,1,9,1.5,13,M,,M,,*54
06/25/2015	13:01:57.805	$GPGGA,130158,2523.7229,N,07948.8728,W,1,9,1.5,13,M,,M,,*5E
06/25/2015	13:01:58.567	$GPGGA,130159,2523.7245,N,07948.8740,W,1,9,1.5,13,M,,M,,*5B
06/25/2015	13:01:59.625	$GPGGA,130200,2523.7260,N,07948.8753,W,1,9,1.5,13,M,,M,,*51
06/25/2015	13:02:00.567	$GPGGA,130201,2523.7276,N,07948.8764,W,1,9,1.5,13,M,,M,,*53
06/25/2015	13:02:01.595	$GPGGA,130202,2523.7292,N,07948.8776,W,1,9,1.5,13,M,,M,,*59
06/25/2015	13:02:02.564	$GPGGA,130203,2523.7307,N,07948.8788,W,1,9,1.5,13,M,,M,,*54
06/25/2015	13:02:03.577	$GPGGA,130204,2523.7323,N,07948.8801,W,1,9,1.5,13,M,,M,,*5B
06/25/2015	13:02:04.568	$GPGGA,130205,2523.7338,N,07948.8812,W,1,9,1.5,13,M,,M,,*52
06/25/2015	13:02:05.554	$GPGGA,130206,2523.7353,N,07948.8824,W,1,9,1.5,13,M,,M,,*59
06/25/2015	13:02:06.564	$GPGGA,130207,2523.7368,N,07948.8837,W,1,9,1.5,13,M,,M,,*52
06/25/2015	13:02:07.594	$GPGGA,130208,2523.7383,N,07948.8849,W,1,9,1.5,13,M,,M,,*51
06/25/2015	13:02:08.544	$GPGGA,130209,2523.7400,N,07948.8860,W,1,9,1.5,13,M,,M,,*57
06/25/2015	13:02:09.544	$GPGGA,130210,2523.7415,N,07948.8873,W,1,9,1.5,13,M,,M,,*59
06/25/2015	13:02:10.534	$GPGGA,130211,2523.7430,N,07948.8885,W,1,9,1.5,13,M,,M,,*56
06/25/2015	13:02:11.554	$GPGGA,130212,2523.7447,N,07948.8896,W,1,9,1.5,13,M,,M,,*57
06/25/2015	13:02:12.544	$GPGGA,130213,2523.7462,N,07948.8909,W,1,9,1.5,13,M,,M,,*56
06/25/2015	13:02:13.565	$GPGGA,130214,2523.7462,N,07948.8909,W,1,9,1.5,13,M,,M,,*51
06/25/2015	13:02:14.535	$GPGGA,130215,2523.7494,N,07948.8934,W,1,9,1.5,13,M,,M,,*57
06/25/2015	13:02:15.598	$GPGGA,130216,2523.7509,N,07948.8945,W,1,9,1.5,13,M,,M,,*57
06/25/2015	13:02:16.535	$GPGGA,130217,2523.7524,N,07948.8956,W,1,9,1.5,13,M,,M,,*5B
06/25/2015	13:02:17.525	$GPGGA,130218,2523.7541,N,07948.8968,W,1,9,1.5,13,M,,M,,*5A
06/25/2015	13:02:18.525	$GPGGA,130219,2523.7556,N,07948.8981,W,1,9,1.5,13,M,,M,,*5A
06/25/2015	13:02:19.554	$GPGGA,130220,2523.7573,N,07948.8992,W,1,9,1.5,13,M,,M,,*55
06/25/2015	13:02:20.534	$GPGGA,130221,2523.7589,N,07948.9004,W,1,9,1.5,13,M,,M,,*56
06/25/2015	13:02:21.554	$GPGGA,130222,2523.7605,N,07948.9015,W,1,9,1.5,13,M,,M,,*52
06/25/2015	13:02:22.534	$GPGGA,130223,2523.7621,N,07948.9028,W,1,9,1.6,13,M,,M,,*58
06/25/2015	13:02:23.525	$GPGGA,130224,2523.7636,N,07948.9039,W,1,9,1.6,13,M,,M,,*59
06/25/2015	13:02:24.524	$GPGGA,130225,2523.7653,N,07948.9050,W,1,9,1.7,13,M,,M,,*55
06/25/2015	13:02:25.514	$GPGGA,130226,2523.7668,N,07948.9061,W,1,9,1.6,13,M,,M,,*5D
06/25/2015	13:02:26.524	$GPGGA,130227,2523.7685,N,07948.9075,W,1,9,1.6,13,M,,M,,*5A
06/25/2015	13:02:27.524	$GPGGA,130228,2523.7701,N,07948.9086,W,1,9,1.6,13,M,,M,,*54
06/25/2015	13:02:28.624	$GPGGA,130229,2523.7717,N,07948.9097,W,1,9,1.6,13,M,,M,,*52
06/25/2015	13:02:29.524	$GPGGA,130230,2523.7733,N,07948.9109,W,1,9,1.6,13,M,,M,,*5A
06/25/2015	13:02:30.495	$GPGGA,130231,2523.7748,N,07948.9122,W,1,9,1.6,13,M,,M,,*5E
06/25/2015	13:02:31.536	$GPGGA,130232,2523.7765,N,07948.9134,W,1,9,1.6,13,M,,M,,*55
06/25/2015	13:02:32.515	$GPGGA,130233,2523.7780,N,07948.9145,W,1,9,1.6,13,M,,M,,*59
06/25/2015	13:02:33.595	$GPGGA,130234,2523.7797,N,07948.9158,W,1,9,1.6,13,M,,M,,*54
06/25/2015	13:02:34.495	$GPGGA,130235,2523.7813,N,07948.9169,W,1,9,1.6,13,M,,M,,*54
06/25/2015	13:02:35.525	$GPGGA,130236,2523.7829,N,07948.9181,W,1,9,1.6,13,M,,M,,*58
06/25/2015	13:02:36.495	$GPGGA,130237,2523.7845,N,07948.9194,W,1,9,1.6,13,M,,M,,*57
06/25/2015	13:02:37.484	$GPGGA,130238,2523.7862,N,07948.9205,W,1,9,1.6,13,M,,M,,*56
06/25/2015	13:02:38.584	$GPGGA,130239,2523.7878,N,07948.9216,W,1,9,1.6,13,M,,M,,*5E
06/25/2015	13:02:39.494	$GPGGA,130240,2523.7894,N,07948.9228,W,1,9,1.6,13,M,,M,,*5F
06/25/2015	13:02:40.594	$GPGGA,130241,2523.7910,N,07948.9239,W,1,9,1.6,13,M,,M,,*53
06/25/2015	13:02:41.485	$GPGGA,130242,2523.7925,N,07948.9250,W,1,9,1.6,13,M,,M,,*59
06/25/2015	13:02:42.484	$GPGGA,130243,2523.7943,N,07948.9263,W,1,9,1.6,13,M,,M,,*58
06/25/2015	13:02:43.624	$GPGGA,130244,2523.7959,N,07948.9274,W,1,9,1.6,13,M,,M,,*52
06/25/2015	13:02:44.484	$GPGGA,130245,2523.7975,N,07948.9285,W,1,9,1.6,13,M,,M,,*53
06/25/2015	13:02:45.480	$GPGGA,130246,2523.7992,N,07948.9296,W,1,9,1.6,13,M,,M,,*5B
06/25/2015	13:02:47.035	$GPGGA,130247,2523.8008,N,07948.9308,W,1,9,1.6,13,M,,M,,*59
06/25/2015	13:02:47.614	$GPGGA,130248,2523.8024,N,07948.9319,W,1,9,1.6,13,M,,M,,*58
06/25/2015	13:02:48.569	$GPGGA,130249,2523.8040,N,07948.9331,W,1,9,1.6,13,M,,M,,*51
06/25/2015	13:02:49.555	$GPGGA,130250,2523.8055,N,07948.9342,W,1,9,1.6,13,M,,M,,*59
06/25/2015	13:02:50.571	$GPGGA,130251,2523.8073,N,07948.9354,W,1,9,1.6,13,M,,M,,*5B
06/25/2015	13:02:51.605	$GPGGA,130252,2523.8089,N,07948.9365,W,1,9,1.6,13,M,,M,,*5F
06/25/2015	13:02:52.555	$GPGGA,130253,2523.8105,N,07948.9378,W,1,9,1.6,13,M,,M,,*57
06/25/2015	13:02:53.581	$GPGGA,130254,2523.8120,N,07948.9389,W,1,9,1.6,13,M,,M,,*59
06/25/2015	13:02:54.554	$GPGGA,130255,2523.8137,N,07948.9400,W,1,9,1.6,13,M,,M,,*58
06/25/2015	13:02:55.584	$GPGGA,130256,2523.8152,N,07948.9412,W,1,9,1.6,13,M,,M,,*5B
06/25/2015	13:02:56.544	$GPGGA,130257,2523.8169,N,07948.9425,W,1,9,1.6,13,M,,M,,*56
06/25/2015	13:02:57.568	$GPGGA,130258,2523.8185,N,07948.9436,W,1,9,1.6,13,M,,M,,*59
06/25/2015	13:02:58.544	$GPGGA,130259,2523.8201,N,07948.9447,W,1,9,1.6,13,M,,M,,*51
06/25/2015	13:02:59.584	$GPGGA,130300,2523.8217,N,07948.9459,W,1,9,1.6,13,M,,M,,*54
06/25/2015	13:03:00.544	$GPGGA,130301,2523.8234,N,07948.9470,W,1,9,1.6,13,M,,M,,*5F
06/25/2015	13:03:01.564	$GPGGA,130302,2523.8249,N,07948.9481,W,1,9,1.6,13,M,,M,,*58
06/25/2015	13:03:02.544	$GPGGA,130303,2523.8264,N,07948.9494,W,1,9,1.6,13,M,,M,,*52
06/25/2015	13:03:03.574	$GPGGA,130304,2523.8281,N,07948.9505,W,1,9,1.6,13,M,,M,,*57
06/25/2015	13:03:04.524	$GPGGA,130305,2523.8297,N,07948.9516,W,1,9,1.6,13,M,,M,,*53
06/25/2015	13:03:05.566	$GPGGA,130306,2523.8313,N,07948.9528,W,1,9,1.6,13,M,,M,,*50
06/25/2015	13:03:06.584	$GPGGA,130307,2523.8329,N,07948.9539,W,1,9,1.6,13,M,,M,,*58
06/25/2015	13:03:07.568	$GPGGA,130308,2523.8344,N,07948.9552,W,1,9,1.6,13,M,,M,,*51
06/25/2015	13:03:08.525	$GPGGA,130309,2523.8360,N,07948.9563,W,1,9,1.6,13,M,,M,,*54
06/25/2015	13:03:09.555	$GPGGA,130310,2523.8376,N,07948.9574,W,1,9,1.6,13,M,,M,,*5D
06/25/2015	13:03:10.535	$GPGGA,130311,2523.8391,N,07948.9586,W,1,9,1.6,13,M,,M,,*58
06/25/2015	13:03:11.525	$GPGGA,130312,2523.8408,N,07948.9599,W,1,9,1.6,13,M,,M,,*52
06/25/2015	13:03:12.524	$GPGGA,130313,2523.8423,N,07948.9610,W,1,9,1.6,13,M,,M,,*58
06/25/2015	13:03:13.504	$GPGGA,130314,2523.8438,N,07948.9622,W,1,9,1.6,13,M,,M,,*54
06/25/2015	13:03:14.604	$GPGGA,130315,2523.8455,N,07948.9633,W,1,9,1.6,13,M,,M,,*5E
06/25/2015	13:03:15.634	$GPGGA,130316,2523.8470,N,07948.9646,W,1,9,1.6,13,M,,M,,*58
06/25/2015	13:03:16.504	$GPGGA,130317,2523.8485,N,07948.9657,W,1,9,1.6,13,M,,M,,*53
06/25/2015	13:03:17.614	$GPGGA,130318,2523.8502,N,07948.9669,W,1,9,1.6,13,M,,M,,*5F
06/25/2015	13:03:18.514	$GPGGA,130319,2523.8517,N,07948.9680,W,1,9,1.6,13,M,,M,,*5D
06/25/2015	13:03:19.524	$GPGGA,130320,2523.8532,N,07948.9693,W,1,9,1.6,13,M,,M,,*52
06/25/2015	13:03:20.494	$GPGGA,130321,2523.8548,N,07948.9705,W,1,9,1.6,13,M,,M,,*50
06/25/2015	13:03:21.514	$GPGGA,130322,2523.8564,N,07948.9716,W,1,9,1.6,13,M,,M,,*5F
06/25/2015	13:03:22.494	$GPGGA,130323,2523.8579,N,07948.9729,W,1,9,1.6,13,M,,M,,*5E
06/25/2015	13:03:23.495	$GPGGA,130324,2523.8595,N,07948.9740,W,1,9,1.6,13,M,,M,,*54
06/25/2015	13:03:24.875	$GPGGA,130325,2523.8611,N,07948.9751,W,1,9,1.6,13,M,,M,,*5A
06/25/2015	13:03:25.505	$GPGGA,130326,2523.8626,N,07948.9765,W,1,9,1.6,13,M,,M,,*5A
06/25/2015	13:03:26.495	$GPGGA,130327,2523.8642,N,07948.9776,W,1,9,1.6,13,M,,M,,*5B
06/25/2015	13:03:27.485	$GPGGA,130328,2523.8658,N,07948.9787,W,1,9,1.6,13,M,,M,,*51
06/25/2015	13:03:28.585	$GPGGA,130329,2523.8674,N,07948.9799,W,1,9,1.6,13,M,,M,,*51
06/25/2015	13:03:29.594	$GPGGA,130330,2523.8690,N,07948.9810,W,1,9,1.6,13,M,,M,,*5D
06/25/2015	13:03:30.494	$GPGGA,130331,2523.8705,N,07948.9823,W,1,9,1.6,13,M,,M,,*51
06/25/2015	13:03:31.494	$GPGGA,130332,2523.8719,N,07948.9834,W,1,9,1.6,13,M,,M,,*59
06/25/2015	13:03:32.579	$GPGGA,130333,2523.8736,N,07948.9846,W,1,9,1.6,13,M,,M,,*50
06/25/2015	13:03:33.577	$GPGGA,130334,2523.8751,N,07948.9857,W,1,9,1.6,13,M,,M,,*56
06/25/2015	13:03:34.566	$GPGGA,130335,2523.8768,N,07948.9868,W,1,9,1.6,13,M,,M,,*51
06/25/2015	13:03:35.594	$GPGGA,130336,2523.8783,N,07948.9881,W,1,8,1.7,13,M,,M,,*50
06/25/2015	13:03:36.578	$GPGGA,130337,2523.8799,N,07948.9892,W,1,8,1.6,13,M,,M,,*59
06/25/2015	13:03:37.586	$GPGGA,130338,2523.8813,N,07948.9904,W,1,9,1.6,13,M,,M,,*54
06/25/2015	13:03:38.570	$GPGGA,130339,2523.8830,N,07948.9917,W,1,9,1.6,13,M,,M,,*56
06/25/2015	13:03:39.581	$GPGGA,130340,2523.8845,N,07948.9928,W,1,9,1.6,13,M,,M,,*56
06/25/2015	13:03:40.555	$GPGGA,130341,2523.8860,N,07948.9939,W,1,9,1.6,13,M,,M,,*50
06/25/2015	13:03:41.585	$GPGGA,130342,2523.8875,N,07948.9951,W,1,9,1.6,13,M,,M,,*59
06/25/2015	13:03:42.545	$GPGGA,130343,2523.8892,N,07948.9964,W,1,9,1.6,13,M,,M,,*57
06/25/2015	13:03:43.585	$GPGGA,130344,2523.8907,N,07948.9975,W,1,9,1.6,14,M,,M,,*5A
06/25/2015	13:03:46.125	$GPGGA,130346,2523.8939,N,07948.9998,W,1,9,1.6,14,M,,M,,*56
06/25/2015	13:03:46.555	$GPGGA,130347,2523.8954,N,07949.0009,W,1,9,1.6,14,M,,M,,*55
06/25/2015	13:03:47.578	$GPGGA,130348,2523.8969,N,07949.0022,W,1,9,1.6,14,M,,M,,*5D
06/25/2015	13:03:48.534	$GPGGA,130349,2523.8986,N,07949.0033,W,1,9,1.6,14,M,,M,,*5D
06/25/2015	13:03:49.544	$GPGGA,130350,2523.9001,N,07949.0044,W,1,9,1.6,14,M,,M,,*52
06/25/2015	13:03:50.544	$GPGGA,130351,2523.9016,N,07949.0056,W,1,9,1.6,14,M,,M,,*56
06/25/2015	13:03:51.594	$GPGGA,130352,2523.9033,N,07949.0068,W,1,9,1.6,14,M,,M,,*5F
06/25/2015	13:03:52.534	$GPGGA,130353,2523.9048,N,07949.0079,W,1,9,1.6,14,M,,M,,*52
06/25/2015	13:03:53.524	$GPGGA,130354,2523.9065,N,07949.0090,W,1,9,1.6,14,M,,M,,*5D
06/25/2015	13:03:54.524	$GPGGA,130355,2523.9080,N,07949.0102,W,1,9,1.6,14,M,,M,,*5D
06/25/2015	13:03:55.554	$GPGGA,130356,2523.9095,N,07949.0115,W,1,9,1.6,14,M,,M,,*5C
06/25/2015	13:03:56.534	$GPGGA,130357,2523.9112,N,07949.0126,W,1,9,1.6,14,M,,M,,*53
06/25/2015	13:03:57.514	$GPGGA,130358,2523.9128,N,07949.0137,W,1,9,1.6,14,M,,M,,*55
06/25/2015	13:03:58.525	$GPGGA,130359,2523.9144,N,07949.0148,W,1,9,1.6,14,M,,M,,*56
06/25/2015	13:03:59.566	$GPGGA,130400,2523.9160,N,07949.0159,W,1,9,1.6,14,M,,M,,*5B
06/25/2015	13:04:00.525	$GPGGA,130401,2523.9174,N,07949.0171,W,1,9,1.6,14,M,,M,,*55
06/25/2015	13:04:01.555	$GPGGA,130402,2523.9192,N,07949.0182,W,1,9,1.6,14,M,,M,,*52
06/25/2015	13:04:02.525	$GPGGA,130403,2523.9207,N,07949.0193,W,1,9,1.6,14,M,,M,,*5C
06/25/2015	13:04:03.695	$GPGGA,130404,2523.9222,N,07949.0204,W,1,9,1.6,14,M,,M,,*51
06/25/2015	13:04:04.514	$GPGGA,130405,2523.9239,N,07949.0215,W,1,9,1.6,14,M,,M,,*5A
06/25/2015	13:04:05.668	$GPGGA,130406,2523.9254,N,07949.0228,W,1,9,1.6,14,M,,M,,*5C
06/25/2015	13:04:06.514	$GPGGA,130407,2523.9271,N,07949.0239,W,1,9,1.6,14,M,,M,,*5A
06/25/2015	13:04:07.504	$GPGGA,130408,2523.9286,N,07949.0250,W,1,9,1.6,14,M,,M,,*52
06/25/2015	13:04:08.586	$GPGGA,130409,2523.9303,N,07949.0261,W,1,9,1.6,14,M,,M,,*5D
06/25/2015	13:04:09.494	$GPGGA,130410,2523.9319,N,07949.0272,W,1,9,1.6,14,M,,M,,*5C
06/25/2015	13:04:10.504	$GPGGA,130411,2523.9333,N,07949.0285,W,1,9,1.6,14,M,,M,,*5D
06/25/2015	13:04:12.184	$GPGGA,130412,2523.9351,N,07949.0296,W,1,9,1.6,14,M,,M,,*58
06/25/2015	13:04:12.504	$GPGGA,130413,2523.9366,N,07949.0307,W,1,9,1.6,14,M,,M,,*54
06/25/2015	13:04:13.484	$GPGGA,130414,2523.9383,N,07949.0318,W,1,9,1.6,14,M,,M,,*56
06/25/2015	13:04:14.494	$GPGGA,130415,2523.9398,N,07949.0329,W,1,9,1.6,14,M,,M,,*5F
06/25/2015	13:04:15.685	$GPGGA,130416,2523.9415,N,07949.0340,W,1,9,1.6,14,M,,M,,*51
06/25/2015	13:04:16.625	$GPGGA,130417,2523.9431,N,07949.0351,W,1,9,1.6,14,M,,M,,*56
06/25/2015	13:04:17.677	$GPGGA,130418,2523.9446,N,07949.0363,W,1,9,1.6,14,M,,M,,*58
06/25/2015	13:04:18.635	$GPGGA,130419,2523.9463,N,07949.0374,W,1,9,1.6,14,M,,M,,*58
06/25/2015	13:04:19.585	$GPGGA,130420,2523.9478,N,07949.0387,W,1,9,1.6,14,M,,M,,*54
06/25/2015	13:04:20.569	$GPGGA,130421,2523.9495,N,07949.0397,W,1,9,1.6,14,M,,M,,*57
06/25/2015	13:04:21.679	$GPGGA,130422,2523.9511,N,07949.0409,W,1,9,1.6,14,M,,M,,*59
06/25/2015	13:04:22.594	$GPGGA,130423,2523.9528,N,07949.0420,W,1,9,1.6,14,M,,M,,*59
06/25/2015	13:04:23.684	$GPGGA,130424,2523.9543,N,07949.0431,W,1,9,1.6,14,M,,M,,*53
06/25/2015	13:04:24.584	$GPGGA,130425,2523.9560,N,07949.0442,W,1,9,1.6,14,M,,M,,*57
06/25/2015	13:04:25.644	$GPGGA,130426,2523.9576,N,07949.0455,W,1,9,1.6,14,M,,M,,*55
06/25/2015	13:04:26.594	$GPGGA,130427,2523.9593,N,07949.0466,W,1,9,1.6,14,M,,M,,*5F
06/25/2015	13:04:27.644	$GPGGA,130428,2523.9608,N,07949.0477,W,1,9,1.6,14,M,,M,,*51
06/25/2015	13:04:28.579	$GPGGA,130429,2523.9625,N,07949.0489,W,1,9,1.6,14,M,,M,,*5E
06/25/2015	13:04:29.654	$GPGGA,130430,2523.9641,N,07949.0500,W,1,9,1.6,14,M,,M,,*54
06/25/2015	13:04:30.574	$GPGGA,130431,2523.9657,N,07949.0511,W,1,9,1.6,14,M,,M,,*52
06/25/2015	13:04:31.674	$GPGGA,130432,2523.9673,N,07949.0522,W,1,9,1.6,14,M,,M,,*57
06/25/2015	13:04:32.578	$GPGGA,130433,2523.9690,N,07949.0535,W,1,9,1.6,14,M,,M,,*5D
06/25/2015	13:04:33.535	$GPGGA,130434,2523.9706,N,07949.0546,W,1,9,1.6,14,M,,M,,*50
06/25/2015	13:04:34.577	$GPGGA,130435,2523.9722,N,07949.0557,W,1,9,1.6,14,M,,M,,*57
06/25/2015	13:04:35.667	$GPGGA,130436,2523.9738,N,07949.0569,W,1,9,1.6,14,M,,M,,*52
06/25/2015	13:04:36.578	$GPGGA,130437,2523.9753,N,07949.0581,W,1,9,1.6,14,M,,M,,*58
06/25/2015	13:04:37.605	$GPGGA,130438,2523.9770,N,07949.0592,W,1,9,1.6,14,M,,M,,*54
06/25/2015	13:04:38.555	$GPGGA,130439,2523.9785,N,07949.0603,W,1,9,1.6,14,M,,M,,*54
06/25/2015	13:04:39.654	$GPGGA,130440,2523.9802,N,07949.0615,W,1,9,1.6,14,M,,M,,*5D
06/25/2015	13:04:40.564	$GPGGA,130441,2523.9818,N,07949.0626,W,1,9,1.6,14,M,,M,,*57
06/25/2015	13:04:41.654	$GPGGA,130442,2523.9834,N,07949.0639,W,1,9,1.6,14,M,,M,,*54
06/25/2015	13:04:42.554	$GPGGA,130443,2523.9850,N,07949.0650,W,1,9,1.6,14,M,,M,,*58
06/25/2015	13:04:43.624	$GPGGA,130444,2523.9865,N,07949.0662,W,1,9,1.6,14,M,,M,,*58
06/25/2015	13:04:44.568	$GPGGA,130445,2523.9882,N,07949.0675,W,1,9,1.6,14,M,,M,,*56
06/25/2015	13:04:45.584	$GPGGA,130446,2523.9897,N,07949.0686,W,1,9,1.6,14,M,,M,,*5D
06/25/2015	13:04:46.565	$GPGGA,130447,2523.9914,N,07949.0697,W,1,9,1.6,13,M,,M,,*51
06/25/2015	13:04:47.634	$GPGGA,130448,2523.9930,N,07949.0708,W,1,9,1.6,13,M,,M,,*5F
06/25/2015	13:04:48.544	$GPGGA,130449,2523.9946,N,07949.0722,W,1,9,1.6,13,M,,M,,*57
06/25/2015	13:04:49.614	$GPGGA,130450,2523.9962,N,07949.0733,W,1,9,1.6,13,M,,M,,*59
06/25/2015	13:04:50.505	$GPGGA,130451,2523.9977,N,07949.0744,W,1,9,1.6,13,M,,M,,*5C
06/25/2015	13:04:51.645	$GPGGA,130452,2523.9993,N,07949.0756,W,1,9,1.6,13,M,,M,,*56
06/25/2015	13:04:52.545	$GPGGA,130453,2524.0009,N,07949.0769,W,1,9,1.6,13,M,,M,,*5F
06/25/2015	13:04:53.585	$GPGGA,130454,2524.0024,N,07949.0780,W,1,9,1.6,13,M,,M,,*50
06/25/2015	13:04:54.545	$GPGGA,130455,2524.0041,N,07949.0791,W,1,9,1.6,13,M,,M,,*52
06/25/2015	13:04:55.635	$GPGGA,130456,2524.0056,N,07949.0803,W,1,9,1.6,13,M,,M,,*53
06/25/2015	13:04:56.545	$GPGGA,130457,2524.0073,N,07949.0816,W,1,9,1.6,13,M,,M,,*51
06/25/2015	13:04:57.614	$GPGGA,130458,2524.0088,N,07949.0828,W,1,9,1.6,13,M,,M,,*57
06/25/2015	13:04:58.584	$GPGGA,130459,2524.0103,N,07949.0839,W,1,9,1.6,13,M,,M,,*54
06/25/2015	13:04:59.644	$GPGGA,130500,2524.0120,N,07949.0852,W,1,9,1.6,13,M,,M,,*55
06/25/2015	13:05:00.584	$GPGGA,130501,2524.0135,N,07949.0863,W,1,9,1.6,13,M,,M,,*52
06/25/2015	13:05:01.614	$GPGGA,130502,2524.0150,N,07949.0875,W,1,9,1.6,13,M,,M,,*55
06/25/2015	13:05:02.576	$GPGGA,130503,2524.0167,N,07949.0889,W,1,9,1.6,13,M,,M,,*53
06/25/2015	13:05:03.584	$GPGGA,130504,2524.0182,N,07949.0900,W,1,9,1.6,13,M,,M,,*5F
06/25/2015	13:05:04.584	$GPGGA,130505,2524.0199,N,07949.0911,W,1,9,1.6,13,M,,M,,*54
06/25/2015	13:05:05.584	$GPGGA,130506,2524.0214,N,07949.0923,W,1,9,1.6,13,M,,M,,*50
06/25/2015	13:05:06.574	$GPGGA,130507,2524.0229,N,07949.0936,W,1,9,1.6,13,M,,M,,*5B
06/25/2015	13:05:07.594	$GPGGA,130508,2524.0246,N,07949.0947,W,1,9,1.6,13,M,,M,,*5B
06/25/2015	13:05:08.595	$GPGGA,130509,2524.0262,N,07949.0959,W,1,9,1.6,13,M,,M,,*53
06/25/2015	13:05:09.615	$GPGGA,130510,2524.0277,N,07949.0972,W,1,9,1.6,13,M,,M,,*56
06/25/2015	13:05:10.567	$GPGGA,130511,2524.0294,N,07949.0983,W,1,9,1.6,13,M,,M,,*54
06/25/2015	13:05:11.635	$GPGGA,130512,2524.0309,N,07949.0994,W,1,9,1.6,13,M,,M,,*54
06/25/2015	13:05:12.565	$GPGGA,130513,2524.0326,N,07949.1005,W,1,9,1.6,13,M,,M,,*58
06/25/2015	13:05:13.625	$GPGGA,130514,2524.0341,N,07949.1017,W,1,9,1.6,13,M,,M,,*5D
06/25/2015	13:05:14.564	$GPGGA,130515,2524.0356,N,07949.1030,W,1,9,1.6,13,M,,M,,*5F
06/25/2015	13:05:15.594	$GPGGA,130516,2524.0373,N,07949.1040,W,1,9,1.6,13,M,,M,,*5C
06/25/2015	13:05:16.574	$GPGGA,130517,2524.0388,N,07949.1052,W,1,9,1.6,13,M,,M,,*5A
06/25/2015	13:05:17.624	$GPGGA,130518,2524.0388,N,07949.1052,W,1,9,1.6,13,M,,M,,*55
06/25/2015	13:05:18.554	$GPGGA,130519,2524.0421,N,07949.1076,W,1,9,1.6,13,M,,M,,*56
06/25/2015	13:05:19.584	$GPGGA,130520,2524.0435,N,07949.1087,W,1,9,1.6,13,M,,M,,*57
06/25/2015	13:05:20.554	$GPGGA,130521,2524.0453,N,07949.1098,W,1,9,1.6,13,M,,M,,*58
06/25/2015	13:05:21.644	$GPGGA,130522,2524.0468,N,07949.1110,W,1,9,1.6,13,M,,M,,*52
06/25/2015	13:05:22.534	$GPGGA,130523,2524.0484,N,07949.1121,W,1,9,1.6,13,M,,M,,*53
06/25/2015	13:05:23.578	$GPGGA,130524,2524.0500,N,07949.1134,W,1,9,1.6,13,M,,M,,*5D
06/25/2015	13:05:24.544	$GPGGA,130525,2524.0515,N,07949.1145,W,1,9,1.6,13,M,,M,,*5E
06/25/2015	13:05:25.595	$GPGGA,130526,2524.0532,N,07949.1156,W,1,9,1.6,13,M,,M,,*5A
06/25/2015	13:05:26.545	$GPGGA,130527,2524.0547,N,07949.1168,W,1,9,1.6,13,M,,M,,*54
06/25/2015	13:05:27.625	$GPGGA,130528,2524.0564,N,07949.1179,W,1,9,1.6,13,M,,M,,*5A
06/25/2015	13:05:28.535	$GPGGA,130529,2524.0580,N,07949.1192,W,1,9,1.6,13,M,,M,,*54
06/25/2015	13:05:29.567	$GPGGA,130530,2524.0596,N,07949.1203,W,1,9,1.6,13,M,,M,,*50
06/25/2015	13:05:30.515	$GPGGA,130531,2524.0612,N,07949.1214,W,1,9,1.6,13,M,,M,,*58
06/25/2015	13:05:31.584	$GPGGA,130532,2524.0612,N,07949.1214,W,1,9,1.6,13,M,,M,,*5B
06/25/2015	13:05:32.544	$GPGGA,130533,2524.0643,N,07949.1237,W,1,9,1.6,13,M,,M,,*5F
06/25/2015	13:05:33.614	$GPGGA,130534,2524.0643,N,07949.1237,W,1,9,1.6,13,M,,M,,*58
06/25/2015	13:05:34.514	$GPGGA,130535,2524.0676,N,07949.1261,W,1,9,1.6,13,M,,M,,*5C
06/25/2015	13:05:35.654	$GPGGA,130536,2524.0692,N,07949.1272,W,1,9,1.6,13,M,,M,,*57
06/25/2015	13:05:36.624	$GPGGA,130537,2524.0708,N,07949.1284,W,1,9,1.6,13,M,,M,,*5D
06/25/2015	13:05:37.534	$GPGGA,130538,2524.0708,N,07949.1284,W,1,9,1.6,13,M,,M,,*52
06/25/2015	13:05:39.644	$GPGGA,130539,2524.0724,N,07949.1295,W,1,9,1.6,12,M,,M,,*5C
06/25/2015	13:05:39.674	$GPGGA,130540,2524.0756,N,07949.1319,W,1,9,1.6,12,M,,M,,*52
06/25/2015	13:05:40.504	$GPGGA,130541,2524.0771,N,07949.1329,W,1,9,1.6,12,M,,M,,*55
06/25/2015	13:05:41.634	$GPGGA,130542,2524.0788,N,07949.1341,W,1,9,1.6,12,M,,M,,*5E
06/25/2015	13:05:42.504	$GPGGA,130543,2524.0804,N,07949.1352,W,1,9,1.6,12,M,,M,,*56
06/25/2015	13:05:43.525	$GPGGA,130544,2524.0804,N,07949.1352,W,1,9,1.6,12,M,,M,,*51
06/25/2015	13:05:44.515	$GPGGA,130545,2524.0836,N,07949.1374,W,1,9,1.6,12,M,,M,,*55
06/25/2015	13:05:45.635	$GPGGA,130546,2524.0853,N,07949.1387,W,1,9,1.6,12,M,,M,,*59
06/25/2015	13:05:46.585	$GPGGA,130547,2524.0869,N,07949.1398,W,1,9,1.6,12,M,,M,,*5F
06/25/2015	13:05:47.525	$GPGGA,130548,2524.0885,N,07949.1409,W,1,9,1.6,12,M,,M,,*5D
06/25/2015	13:05:48.485	$GPGGA,130549,2524.0901,N,07949.1420,W,1,9,1.6,12,M,,M,,*5A
06/25/2015	13:05:49.624	$GPGGA,130550,2524.0901,N,07949.1420,W,1,9,1.6,12,M,,M,,*52
06/25/2015	13:05:50.580	$GPGGA,130551,2524.0933,N,07949.1442,W,1,9,1.6,12,M,,M,,*56
06/25/2015	13:05:51.624	$GPGGA,130552,2524.0933,N,07949.1442,W,1,9,1.6,12,M,,M,,*55
06/25/2015	13:05:52.577	$GPGGA,130553,2524.0965,N,07949.1465,W,1,9,1.6,12,M,,M,,*52
06/25/2015	13:05:53.587	$GPGGA,130554,2524.0981,N,07949.1477,W,1,9,1.6,12,M,,M,,*5C
06/25/2015	13:05:54.584	$GPGGA,130555,2524.0998,N,07949.1488,W,1,9,1.6,12,M,,M,,*55
06/25/2015	13:05:55.614	$GPGGA,130556,2524.1013,N,07949.1499,W,1,9,1.6,12,M,,M,,*5D
06/25/2015	13:05:56.594	$GPGGA,130557,2524.1030,N,07949.1510,W,1,9,1.6,12,M,,M,,*5D
06/25/2015	13:05:57.584	$GPGGA,130558,2524.1046,N,07949.1522,W,1,9,1.6,12,M,,M,,*52
06/25/2015	13:05:58.568	$GPGGA,130559,2524.1061,N,07949.1533,W,1,9,1.6,12,M,,M,,*56
06/25/2015	13:05:59.604	$GPGGA,130600,2524.1078,N,07949.1546,W,1,9,1.6,12,M,,M,,*53
06/25/2015	13:06:00.555	$GPGGA,130601,2524.1093,N,07949.1557,W,1,9,1.6,12,M,,M,,*57
06/25/2015	13:06:01.587	$GPGGA,130602,2524.1110,N,07949.1568,W,1,9,1.6,12,M,,M,,*52
06/25/2015	13:06:02.555	$GPGGA,130603,2524.1125,N,07949.1579,W,1,9,1.6,12,M,,M,,*55
06/25/2015	13:06:03.605	$GPGGA,130604,2524.1142,N,07949.1590,W,1,9,1.6,12,M,,M,,*54
06/25/2015	13:06:04.845	$GPGGA,130605,2524.1158,N,07949.1604,W,1,9,1.6,12,M,,M,,*50
06/25/2015	13:06:05.555	$GPGGA,130606,2524.1174,N,07949.1615,W,1,9,1.6,12,M,,M,,*5D
06/25/2015	13:06:06.554	$GPGGA,130607,2524.1190,N,07949.1626,W,1,9,1.6,12,M,,M,,*56
06/25/2015	13:06:07.554	$GPGGA,130608,2524.1205,N,07949.1638,W,1,9,1.6,12,M,,M,,*59
06/25/2015	13:06:08.544	$GPGGA,130609,2524.1222,N,07949.1651,W,1,9,1.6,12,M,,M,,*52
06/25/2015	13:06:09.554	$GPGGA,130610,2524.1238,N,07949.1662,W,1,9,1.6,12,M,,M,,*51
06/25/2015	13:06:10.544	$GPGGA,130611,2524.1255,N,07949.1673,W,1,9,1.6,12,M,,M,,*5B
06/25/2015	13:06:11.576	$GPGGA,130612,2524.1270,N,07949.1684,W,1,9,1.6,12,M,,M,,*57
06/25/2015	13:06:12.544	$GPGGA,130613,2524.1286,N,07949.1696,W,1,9,1.6,12,M,,M,,*5C
06/25/2015	13:06:13.524	$GPGGA,130614,2524.1302,N,07949.1709,W,1,9,1.6,12,M,,M,,*51
06/25/2015	13:06:14.534	$GPGGA,130615,2524.1317,N,07949.1720,W,1,9,1.6,12,M,,M,,*5F
06/25/2015	13:06:15.567	$GPGGA,130616,2524.1334,N,07949.1732,W,1,9,1.6,12,M,,M,,*5E
06/25/2015	13:06:16.544	$GPGGA,130617,2524.1349,N,07949.1743,W,1,9,1.6,12,M,,M,,*53
06/25/2015	13:06:17.534	$GPGGA,130618,2524.1364,N,07949.1756,W,1,9,1.6,12,M,,M,,*57
06/25/2015	13:06:18.535	$GPGGA,130619,2524.1381,N,07949.1767,W,1,9,1.6,12,M,,M,,*5F
06/25/2015	13:06:19.525	$GPGGA,130620,2524.1396,N,07949.1779,W,1,9,1.6,12,M,,M,,*5C
06/25/2015	13:06:20.645	$GPGGA,130621,2524.1411,N,07949.1790,W,1,9,1.6,12,M,,M,,*52
06/25/2015	13:06:21.569	$GPGGA,130622,2524.1428,N,07949.1803,W,1,9,1.6,12,M,,M,,*5E
06/25/2015	13:06:22.525	$GPGGA,130623,2524.1443,N,07949.1814,W,1,9,1.6,12,M,,M,,*54
06/25/2015	13:06:23.645	$GPGGA,130624,2524.1458,N,07949.1826,W,1,9,1.6,12,M,,M,,*58
06/25/2015	13:06:24.894	$GPGGA,130625,2524.1475,N,07949.1839,W,1,9,1.6,12,M,,M,,*58
06/25/2015	13:06:25.524	$GPGGA,130626,2524.1490,N,07949.1850,W,1,9,1.6,12,M,,M,,*5F
06/25/2015	13:06:26.604	$GPGGA,130627,2524.1505,N,07949.1862,W,1,9,1.6,12,M,,M,,*52
06/25/2015	13:06:27.534	$GPGGA,130628,2524.1522,N,07949.1873,W,1,9,1.6,12,M,,M,,*58
06/25/2015	13:06:28.765	$GPGGA,130629,2524.1537,N,07949.1886,W,1,9,1.6,12,M,,M,,*57
06/25/2015	13:06:29.514	$GPGGA,130630,2524.1554,N,07949.1897,W,1,9,1.6,12,M,,M,,*5A
06/25/2015	13:06:30.504	$GPGGA,130631,2524.1568,N,07949.1908,W,1,9,1.6,12,M,,M,,*53
06/25/2015	13:06:31.604	$GPGGA,130632,2524.1584,N,07949.1920,W,1,9,1.6,12,M,,M,,*58
06/25/2015	13:06:32.514	$GPGGA,130633,2524.1599,N,07949.1933,W,1,9,1.6,12,M,,M,,*57
06/25/2015	13:06:33.504	$GPGGA,130634,2524.1616,N,07949.1944,W,1,9,1.6,12,M,,M,,*54
06/25/2015	13:06:34.484	$GPGGA,130635,2524.1631,N,07949.1956,W,1,9,1.6,12,M,,M,,*53
06/25/2015	13:06:35.625	$GPGGA,130636,2524.1646,N,07949.1969,W,1,9,1.6,12,M,,M,,*5C
06/25/2015	13:06:36.585	$GPGGA,130637,2524.1663,N,07949.1980,W,1,9,1.6,12,M,,M,,*5D
06/25/2015	13:06:37.495	$GPGGA,130638,2524.1678,N,07949.1991,W,1,9,1.6,12,M,,M,,*58
06/25/2015	13:06:38.585	$GPGGA,130639,2524.1693,N,07949.2003,W,1,9,1.6,12,M,,M,,*5D
06/25/2015	13:06:39.585	$GPGGA,130640,2524.1710,N,07949.2014,W,1,9,1.6,12,M,,M,,*5F
06/25/2015	13:06:40.585	$GPGGA,130641,2524.1725,N,07949.2027,W,1,9,1.6,12,M,,M,,*58
06/25/2015	13:06:41.574	$GPGGA,130642,2524.1740,N,07949.2038,W,1,9,1.6,12,M,,M,,*56
06/25/2015	13:06:42.574	$GPGGA,130643,2524.1757,N,07949.2049,W,1,9,1.6,12,M,,M,,*57
06/25/2015	13:06:43.575	$GPGGA,130644,2524.1774,N,07949.2060,W,1,9,1.6,12,M,,M,,*5A
06/25/2015	13:06:44.576	$GPGGA,130645,2524.1789,N,07949.2071,W,1,9,1.6,12,M,,M,,*59
06/25/2015	13:06:45.564	$GPGGA,130646,2524.1805,N,07949.2084,W,1,9,1.6,12,M,,M,,*5B
06/25/2015	13:06:46.564	$GPGGA,130647,2524.1821,N,07949.2095,W,1,9,1.6,12,M,,M,,*5C
06/25/2015	13:06:47.594	$GPGGA,130648,2524.1836,N,07949.2106,W,1,9,1.6,12,M,,M,,*5E
06/25/2015	13:06:48.554	$GPGGA,130649,2524.1852,N,07949.2118,W,1,9,1.6,12,M,,M,,*52
06/25/2015	13:06:49.574	$GPGGA,130650,2524.1868,N,07949.2131,W,1,9,1.6,12,M,,M,,*58
06/25/2015	13:06:50.570	$GPGGA,130651,2524.1884,N,07949.2142,W,1,9,1.6,12,M,,M,,*5F
06/25/2015	13:06:51.594	$GPGGA,130652,2524.1899,N,07949.2153,W,1,9,1.6,12,M,,M,,*50
06/25/2015	13:06:52.544	$GPGGA,130653,2524.1916,N,07949.2164,W,1,9,1.6,12,M,,M,,*53
06/25/2015	13:06:53.575	$GPGGA,130654,2524.1931,N,07949.2175,W,1,9,1.6,12,M,,M,,*51
06/25/2015	13:06:54.545	$GPGGA,130655,2524.1948,N,07949.2187,W,1,9,1.6,12,M,,M,,*53
06/25/2015	13:06:55.555	$GPGGA,130656,2524.1964,N,07949.2200,W,1,9,1.6,12,M,,M,,*52
06/25/2015	13:06:56.555	$GPGGA,130657,2524.1980,N,07949.2211,W,1,9,1.6,12,M,,M,,*59
06/25/2015	13:06:57.575	$GPGGA,130658,2524.1996,N,07949.2222,W,1,9,1.6,12,M,,M,,*51
06/25/2015	13:06:58.535	$GPGGA,130659,2524.2011,N,07949.2233,W,1,9,1.6,12,M,,M,,*55
06/25/2015	13:06:59.584	$GPGGA,130700,2524.2028,N,07949.2244,W,1,9,1.6,12,M,,M,,*52
06/25/2015	13:07:00.544	$GPGGA,130701,2524.2043,N,07949.2256,W,1,9,1.6,12,M,,M,,*5D
06/25/2015	13:07:01.534	$GPGGA,130702,2524.2061,N,07949.2267,W,1,9,1.6,12,M,,M,,*5C
06/25/2015	13:07:02.534	$GPGGA,130703,2524.2076,N,07949.2280,W,1,9,1.6,12,M,,M,,*52
06/25/2015	13:07:03.544	$GPGGA,130704,2524.2093,N,07949.2290,W,1,9,1.6,12,M,,M,,*5F
06/25/2015	13:07:04.534	$GPGGA,130705,2524.2108,N,07949.2302,W,1,9,1.6,12,M,,M,,*57
06/25/2015	13:07:05.514	$GPGGA,130706,2524.2125,N,07949.2313,W,1,9,1.6,12,M,,M,,*5B
06/25/2015	13:07:06.544	$GPGGA,130707,2524.2141,N,07949.2326,W,1,9,1.6,12,M,,M,,*5E
06/25/2015	13:07:07.524	$GPGGA,130708,2524.2158,N,07949.2337,W,1,9,1.6,12,M,,M,,*59
06/25/2015	13:07:08.634	$GPGGA,130709,2524.2173,N,07949.2348,W,1,9,1.6,12,M,,M,,*59
06/25/2015	13:07:09.544	$GPGGA,130710,2524.2191,N,07949.2359,W,1,9,1.6,12,M,,M,,*5D
06/25/2015	13:07:10.515	$GPGGA,130711,2524.2206,N,07949.2371,W,1,9,1.6,12,M,,M,,*5B
06/25/2015	13:07:11.573	$GPGGA,130712,2524.2223,N,07949.2384,W,1,9,1.6,12,M,,M,,*55
06/25/2015	13:07:12.503	$GPGGA,130713,2524.2238,N,07949.2395,W,1,9,1.6,12,M,,M,,*5E
06/25/2015	13:07:13.513	$GPGGA,130714,2524.2256,N,07949.2406,W,1,9,1.6,12,M,,M,,*5C
06/25/2015	13:07:14.583	$GPGGA,130715,2524.2271,N,07949.2417,W,1,9,1.6,12,M,,M,,*58
06/25/2015	13:07:15.503	$GPGGA,130716,2524.2287,N,07949.2429,W,1,9,1.6,12,M,,M,,*5F
06/25/2015	13:07:16.482	$GPGGA,130717,2524.2303,N,07949.2440,W,1,9,1.6,12,M,,M,,*5C
06/25/2015	13:07:17.602	$GPGGA,130718,2524.2320,N,07949.2453,W,1,9,1.6,12,M,,M,,*50
06/25/2015	13:07:18.572	$GPGGA,130719,2524.2336,N,07949.2464,W,1,9,1.6,12,M,,M,,*52
06/25/2015	13:07:19.492	$GPGGA,130720,2524.2352,N,07949.2475,W,1,9,1.6,12,M,,M,,*5A
06/25/2015	13:07:20.492	$GPGGA,130721,2524.2368,N,07949.2487,W,1,9,1.6,12,M,,M,,*5F
06/25/2015	13:07:21.572	$GPGGA,130722,2524.2385,N,07949.2498,W,1,9,1.6,12,M,,M,,*51
06/25/2015	13:07:22.472	$GPGGA,130723,2524.2401,N,07949.2511,W,1,9,1.6,12,M,,M,,*5B
06/25/2015	13:07:23.622	$GPGGA,130724,2524.2417,N,07949.2522,W,1,9,1.6,12,M,,M,,*5B
06/25/2015	13:07:24.572	$GPGGA,130725,2524.2433,N,07949.2533,W,1,9,1.6,12,M,,M,,*5C
06/25/2015	13:07:25.592	$GPGGA,130726,2524.2450,N,07949.2545,W,1,9,1.6,12,M,,M,,*5B
06/25/2015	13:07:26.564	$GPGGA,130727,2524.2465,N,07949.2558,W,1,9,1.6,12,M,,M,,*50
06/25/2015	13:07:27.602	$GPGGA,130728,2524.2482,N,07949.2569,W,1,9,1.6,12,M,,M,,*54
06/25/2015	13:07:28.573	$GPGGA,130729,2524.2498,N,07949.2580,W,1,9,1.6,12,M,,M,,*59
06/25/2015	13:07:29.583	$GPGGA,130730,2524.2513,N,07949.2592,W,1,9,1.6,12,M,,M,,*50
06/25/2015	13:07:30.560	$GPGGA,130731,2524.2529,N,07949.2603,W,1,9,1.6,12,M,,M,,*53
06/25/2015	13:07:31.583	$GPGGA,130732,2524.2545,N,07949.2616,W,1,9,1.6,12,M,,M,,*5E
06/25/2015	13:07:32.563	$GPGGA,130733,2524.2560,N,07949.2627,W,1,9,1.6,12,M,,M,,*5A
06/25/2015	13:07:33.543	$GPGGA,130734,2524.2577,N,07949.2639,W,1,9,1.6,12,M,,M,,*54
06/25/2015	13:07:34.542	$GPGGA,130735,2524.2592,N,07949.2652,W,1,9,1.6,12,M,,M,,*53
06/25/2015	13:07:35.592	$GPGGA,130736,2524.2607,N,07949.2663,W,1,9,1.6,12,M,,M,,*5D
06/25/2015	13:07:36.542	$GPGGA,130737,2524.2625,N,07949.2674,W,1,9,1.6,12,M,,M,,*5A
06/25/2015	13:07:37.532	$GPGGA,130738,2524.2641,N,07949.2686,W,1,9,1.6,12,M,,M,,*5A
06/25/2015	13:07:38.542	$GPGGA,130739,2524.2656,N,07949.2699,W,1,9,1.6,12,M,,M,,*53
06/25/2015	13:07:39.582	$GPGGA,130740,2524.2672,N,07949.2710,W,1,9,1.6,12,M,,M,,*5B
06/25/2015	13:07:40.542	$GPGGA,130741,2524.2688,N,07949.2722,W,1,9,1.6,12,M,,M,,*5E
06/25/2015	13:07:42.572	$GPGGA,130743,2524.2719,N,07949.2746,W,1,9,1.6,12,M,,M,,*57
06/25/2015	13:07:43.556	$GPGGA,130744,2524.2735,N,07949.2757,W,1,9,1.6,12,M,,M,,*5E
06/25/2015	13:07:44.532	$GPGGA,130745,2524.2751,N,07949.2769,W,1,9,1.6,12,M,,M,,*50
06/25/2015	13:07:45.543	$GPGGA,130746,2524.2766,N,07949.2782,W,1,9,1.6,12,M,,M,,*52
06/25/2015	13:07:46.533	$GPGGA,130747,2524.2783,N,07949.2793,W,1,9,1.6,12,M,,M,,*58
06/25/2015	13:07:47.563	$GPGGA,130748,2524.2798,N,07949.2805,W,1,9,1.6,12,M,,M,,*5D
06/25/2015	13:07:48.533	$GPGGA,130749,2524.2815,N,07949.2816,W,1,9,1.6,12,M,,M,,*54
06/25/2015	13:07:49.543	$GPGGA,130750,2524.2831,N,07949.2829,W,1,9,1.6,12,M,,M,,*56
06/25/2015	13:07:50.523	$GPGGA,130751,2524.2845,N,07949.2841,W,1,9,1.6,12,M,,M,,*5A
06/25/2015	13:07:51.632	$GPGGA,130752,2524.2863,N,07949.2854,W,1,9,1.6,12,M,,M,,*59
06/25/2015	13:07:52.522	$GPGGA,130753,2524.2878,N,07949.2865,W,1,9,1.6,12,M,,M,,*50
06/25/2015	13:07:53.542	$GPGGA,130754,2524.2895,N,07949.2877,W,1,9,1.6,12,M,,M,,*57
06/25/2015	13:07:54.522	$GPGGA,130755,2524.2910,N,07949.2890,W,1,9,1.6,12,M,,M,,*53
06/25/2015	13:07:55.632	$GPGGA,130756,2524.2925,N,07949.2901,W,1,9,1.6,12,M,,M,,*5F
06/25/2015	13:07:56.512	$GPGGA,130757,2524.2942,N,07949.2913,W,1,9,1.6,12,M,,M,,*5C
06/25/2015	13:07:57.522	$GPGGA,130758,2524.2957,N,07949.2926,W,1,9,1.6,12,M,,M,,*51
06/25/2015	13:07:58.492	$GPGGA,130759,2524.2972,N,07949.2937,W,1,9,1.6,12,M,,M,,*57
06/25/2015	13:07:59.557	$GPGGA,130800,2524.2989,N,07949.2949,W,1,9,1.6,12,M,,M,,*59
06/25/2015	13:08:00.502	$GPGGA,130801,2524.3006,N,07949.2962,W,1,9,1.6,12,M,,M,,*5E
06/25/2015	13:08:01.522	$GPGGA,130802,2524.3021,N,07949.2973,W,1,9,1.6,12,M,,M,,*58
06/25/2015	13:08:02.502	$GPGGA,130803,2524.3036,N,07949.2985,W,1,9,1.6,12,M,,M,,*56
06/25/2015	13:08:03.623	$GPGGA,130804,2524.3053,N,07949.2998,W,1,9,1.6,12,M,,M,,*5E
06/25/2015	13:08:04.574	$GPGGA,130805,2524.3069,N,07949.3009,W,1,9,1.6,12,M,,M,,*56
06/25/2015	13:08:05.477	$GPGGA,130806,2524.3084,N,07949.3022,W,1,9,1.6,12,M,,M,,*5F
06/25/2015	13:08:06.503	$GPGGA,130807,2524.3102,N,07949.3033,W,1,9,1.6,12,M,,M,,*51
06/25/2015	13:08:07.593	$GPGGA,130808,2524.3118,N,07949.3046,W,1,9,1.6,12,M,,M,,*57
06/25/2015	13:08:08.573	$GPGGA,130809,2524.3133,N,07949.3058,W,1,9,1.6,12,M,,M,,*50
06/25/2015	13:08:09.612	$GPGGA,130810,2524.3148,N,07949.3071,W,1,9,1.6,12,M,,M,,*5F
06/25/2015	13:08:10.567	$GPGGA,130811,2524.3166,N,07949.3082,W,1,9,1.6,12,M,,M,,*5E
06/25/2015	13:08:11.572	$GPGGA,130812,2524.3181,N,07949.3093,W,1,9,1.6,12,M,,M,,*54
06/25/2015	13:08:12.570	$GPGGA,130813,2524.3198,N,07949.3105,W,1,9,1.6,12,M,,M,,*53
06/25/2015	13:08:13.574	$GPGGA,130814,2524.3213,N,07949.3118,W,1,9,1.6,12,M,,M,,*58
06/25/2015	13:08:14.573	$GPGGA,130815,2524.3230,N,07949.3129,W,1,9,1.6,12,M,,M,,*5A
06/25/2015	13:08:15.592	$GPGGA,130816,2524.3246,N,07949.3143,W,1,9,1.6,12,M,,M,,*54
06/25/2015	13:08:16.576	$GPGGA,130817,2524.3263,N,07949.3154,W,1,9,1.6,12,M,,M,,*54
06/25/2015	13:08:17.572	$GPGGA,130818,2524.3278,N,07949.3166,W,1,9,1.6,12,M,,M,,*50
06/25/2015	13:08:18.571	$GPGGA,130819,2524.3295,N,07949.3177,W,1,9,1.6,12,M,,M,,*52
06/25/2015	13:08:19.570	$GPGGA,130820,2524.3311,N,07949.3190,W,1,9,1.6,12,M,,M,,*5C
06/25/2015	13:08:20.554	$GPGGA,130821,2524.3326,N,07949.3201,W,1,9,1.6,12,M,,M,,*52
06/25/2015	13:08:21.580	$GPGGA,130822,2524.3342,N,07949.3213,W,1,9,1.6,12,M,,M,,*50
06/25/2015	13:08:22.572	$GPGGA,130823,2524.3358,N,07949.3226,W,1,9,1.6,12,M,,M,,*5C
06/25/2015	13:08:23.571	$GPGGA,130824,2524.3373,N,07949.3237,W,1,9,1.6,12,M,,M,,*52
06/25/2015	13:08:24.556	$GPGGA,130825,2524.3391,N,07949.3249,W,1,9,1.6,12,M,,M,,*56
06/25/2015	13:08:25.533	$GPGGA,130826,2524.3405,N,07949.3260,W,1,9,1.6,12,M,,M,,*54
06/25/2015	13:08:26.542	$GPGGA,130827,2524.3423,N,07949.3273,W,1,9,1.6,12,M,,M,,*53
06/25/2015	13:08:27.571	$GPGGA,130828,2524.3438,N,07949.3284,W,1,9,1.6,12,M,,M,,*5E
06/25/2015	13:08:28.542	$GPGGA,130829,2524.3455,N,07949.3295,W,1,9,1.6,12,M,,M,,*54
06/25/2015	13:08:29.575	$GPGGA,130830,2524.3470,N,07949.3307,W,1,9,1.6,12,M,,M,,*51
06/25/2015	13:08:30.522	$GPGGA,130831,2524.3487,N,07949.3320,W,1,9,1.6,12,M,,M,,*5D
06/25/2015	13:08:31.553	$GPGGA,130832,2524.3503,N,07949.3331,W,1,9,1.6,12,M,,M,,*53
06/25/2015	13:08:32.532	$GPGGA,130833,2524.3520,N,07949.3343,W,1,9,1.6,12,M,,M,,*56
06/25/2015	13:08:33.542	$GPGGA,130834,2524.3535,N,07949.3354,W,1,9,1.6,11,M,,M,,*50
06/25/2015	13:08:34.532	$GPGGA,130835,2524.3550,N,07949.3367,W,1,9,1.6,11,M,,M,,*52
06/25/2015	13:08:35.542	$GPGGA,130836,2524.3568,N,07949.3378,W,1,9,1.6,11,M,,M,,*54
06/25/2015	13:08:36.512	$GPGGA,130837,2524.3585,N,07949.3389,W,1,9,1.6,11,M,,M,,*58
06/25/2015	13:08:37.522	$GPGGA,130838,2524.3600,N,07949.3401,W,1,9,1.6,11,M,,M,,*5E
06/25/2015	13:08:38.523	$GPGGA,130839,2524.3617,N,07949.3414,W,1,9,1.6,11,M,,M,,*5D
06/25/2015	13:08:39.523	$GPGGA,130840,2524.3633,N,07949.3425,W,1,9,1.6,11,M,,M,,*57
06/25/2015	13:08:40.503	$GPGGA,130841,2524.3650,N,07949.3436,W,1,9,1.6,11,M,,M,,*51
06/25/2015	13:08:42.572	$GPGGA,130843,2524.3682,N,07949.3461,W,1,9,1.6,11,M,,M,,*5E
06/25/2015	13:08:43.533	$GPGGA,130844,2524.3698,N,07949.3472,W,1,9,1.6,11,M,,M,,*50
06/25/2015	13:08:44.492	$GPGGA,130845,2524.3715,N,07949.3484,W,1,9,1.6,11,M,,M,,*5C
06/25/2015	13:08:45.602	$GPGGA,130846,2524.3730,N,07949.3495,W,1,9,1.6,11,M,,M,,*58
06/25/2015	13:08:46.612	$GPGGA,130847,2524.3747,N,07949.3508,W,1,9,1.6,11,M,,M,,*5C
06/25/2015	13:08:47.532	$GPGGA,130848,2524.3763,N,07949.3519,W,1,9,1.6,11,M,,M,,*55
06/25/2015	13:08:48.502	$GPGGA,130849,2524.3780,N,07949.3531,W,1,9,1.6,11,M,,M,,*53
06/25/2015	13:08:49.622	$GPGGA,130850,2524.3795,N,07949.3542,W,1,9,1.6,11,M,,M,,*5B
06/25/2015	13:08:50.592	$GPGGA,130851,2524.3812,N,07949.3555,W,1,9,1.6,11,M,,M,,*5C
06/25/2015	13:08:51.602	$GPGGA,130852,2524.3828,N,07949.3566,W,1,9,1.6,11,M,,M,,*56
06/25/2015	13:08:52.502	$GPGGA,130853,2524.3845,N,07949.3578,W,1,9,1.6,11,M,,M,,*53
06/25/2015	13:08:53.472	$GPGGA,130854,2524.3860,N,07949.3591,W,1,9,1.6,11,M,,M,,*54
06/25/2015	13:08:54.582	$GPGGA,130855,2524.3878,N,07949.3602,W,1,9,1.6,11,M,,M,,*55
06/25/2015	13:08:55.623	$GPGGA,130856,2524.3893,N,07949.3614,W,1,9,1.6,11,M,,M,,*54
06/25/2015	13:08:56.583	$GPGGA,130857,2524.3910,N,07949.3627,W,1,9,1.6,11,M,,M,,*5F
06/25/2015	13:08:57.593	$GPGGA,130858,2524.3925,N,07949.3638,W,1,9,1.6,11,M,,M,,*58
06/25/2015	13:08:58.483	$GPGGA,130859,2524.3942,N,07949.3649,W,1,9,1.6,11,M,,M,,*5E
06/25/2015	13:08:59.633	$GPGGA,130900,2524.3958,N,07949.3661,W,1,9,1.6,11,M,,M,,*52
06/25/2015	13:09:00.573	$GPGGA,130901,2524.3975,N,07949.3674,W,1,9,1.6,11,M,,M,,*58
06/25/2015	13:09:01.572	$GPGGA,130902,2524.3990,N,07949.3685,W,1,9,1.6,11,M,,M,,*5E
06/25/2015	13:09:02.572	$GPGGA,130903,2524.4008,N,07949.3696,W,1,9,1.6,11,M,,M,,*52
06/25/2015	13:09:03.602	$GPGGA,130904,2524.4023,N,07949.3708,W,1,9,1.6,11,M,,M,,*5A
06/25/2015	13:09:04.565	$GPGGA,130905,2524.4040,N,07949.3719,W,1,9,1.6,11,M,,M,,*5E
06/25/2015	13:09:05.552	$GPGGA,130906,2524.4055,N,07949.3732,W,1,9,1.6,11,M,,M,,*50
06/25/2015	13:09:06.555	$GPGGA,130907,2524.4070,N,07949.3743,W,1,9,1.6,11,M,,M,,*50
06/25/2015	13:09:07.592	$GPGGA,130908,2524.4086,N,07949.3754,W,1,9,1.6,11,M,,M,,*50
06/25/2015	13:09:08.565	$GPGGA,130909,2524.4102,N,07949.3764,W,1,9,1.6,11,M,,M,,*5F
06/25/2015	13:09:09.566	$GPGGA,130910,2524.4117,N,07949.3775,W,1,9,1.6,11,M,,M,,*53
06/25/2015	13:09:10.555	$GPGGA,130911,2524.4131,N,07949.3786,W,1,9,1.8,11,M,,M,,*54
06/25/2015	13:09:11.572	$GPGGA,130912,2524.4146,N,07949.3797,W,1,8,1.6,11,M,,M,,*58
06/25/2015	13:09:12.542	$GPGGA,130913,2524.4163,N,07949.3808,W,1,8,1.6,11,M,,M,,*57
06/25/2015	13:09:13.533	$GPGGA,130914,2524.4178,N,07949.3818,W,1,9,1.6,11,M,,M,,*5A
06/25/2015	13:09:14.543	$GPGGA,130915,2524.4193,N,07949.3827,W,1,9,1.6,11,M,,M,,*52
06/25/2015	13:09:15.543	$GPGGA,130916,2524.4207,N,07949.3837,W,1,9,1.6,11,M,,M,,*5E
06/25/2015	13:09:16.533	$GPGGA,130917,2524.4221,N,07949.3848,W,1,9,1.6,11,M,,M,,*53
06/25/2015	13:09:17.533	$GPGGA,130918,2524.4236,N,07949.3858,W,1,9,1.6,11,M,,M,,*5B
06/25/2015	13:09:18.543	$GPGGA,130919,2524.4251,N,07949.3867,W,1,9,1.6,11,M,,M,,*57
06/25/2015	13:09:19.572	$GPGGA,130920,2524.4267,N,07949.3877,W,1,9,1.6,11,M,,M,,*59
06/25/2015	13:09:20.532	$GPGGA,130921,2524.4282,N,07949.3887,W,1,9,1.6,11,M,,M,,*5C
06/25/2015	13:09:21.553	$GPGGA,130922,2524.4297,N,07949.3896,W,1,9,1.6,11,M,,M,,*5B
06/25/2015	13:09:22.532	$GPGGA,130923,2524.4311,N,07949.3906,W,1,9,1.6,11,M,,M,,*5D
06/25/2015	13:09:23.555	$GPGGA,130924,2524.4325,N,07949.3916,W,1,9,1.6,11,M,,M,,*5C
06/25/2015	13:09:24.542	$GPGGA,130925,2524.4340,N,07949.3925,W,1,9,1.6,11,M,,M,,*5E
06/25/2015	13:09:25.502	$GPGGA,130926,2524.4354,N,07949.3934,W,1,9,1.6,11,M,,M,,*58
06/25/2015	13:09:26.632	$GPGGA,130927,2524.4369,N,07949.3945,W,1,9,1.6,11,M,,M,,*51
06/25/2015	13:09:27.632	$GPGGA,130928,2524.4384,N,07949.3953,W,1,9,1.6,11,M,,M,,*5A
06/25/2015	13:09:28.914	$GPGGA,130929,2524.4398,N,07949.3963,W,1,9,1.6,11,M,,M,,*55
06/25/2015	13:09:29.612	$GPGGA,130930,2524.4413,N,07949.3972,W,1,9,1.6,12,M,,M,,*5A
06/25/2015	13:09:30.513	$GPGGA,130931,2524.4427,N,07949.3981,W,1,9,1.6,12,M,,M,,*50
06/25/2015	13:09:31.623	$GPGGA,130932,2524.4442,N,07949.3990,W,1,9,1.6,12,M,,M,,*50
06/25/2015	13:09:32.513	$GPGGA,130933,2524.4456,N,07949.3999,W,1,9,1.6,12,M,,M,,*5D
06/25/2015	13:09:33.593	$GPGGA,130934,2524.4471,N,07949.4007,W,1,9,1.6,12,M,,M,,*56
06/25/2015	13:09:34.493	$GPGGA,130935,2524.4485,N,07949.4017,W,1,9,1.6,12,M,,M,,*5D
06/25/2015	13:09:35.533	$GPGGA,130936,2524.4500,N,07949.4025,W,1,9,1.6,12,M,,M,,*53
06/25/2015	13:09:36.522	$GPGGA,130937,2524.4514,N,07949.4033,W,1,9,1.6,12,M,,M,,*50
06/25/2015	13:09:37.592	$GPGGA,130938,2524.4528,N,07949.4043,W,1,9,1.6,12,M,,M,,*57
06/25/2015	13:09:38.502	$GPGGA,130939,2524.4543,N,07949.4051,W,1,9,1.6,12,M,,M,,*58
06/25/2015	13:09:39.522	$GPGGA,130940,2524.4557,N,07949.4059,W,1,9,1.6,12,M,,M,,*5B
06/25/2015	13:09:40.573	$GPGGA,130941,2524.4572,N,07949.4068,W,1,9,1.6,12,M,,M,,*5F
06/25/2015	13:09:41.592	$GPGGA,130942,2524.4586,N,07949.4076,W,1,9,1.6,12,M,,M,,*58
06/25/2015	13:09:42.502	$GPGGA,130943,2524.4600,N,07949.4084,W,1,9,1.6,12,M,,M,,*59
06/25/2015	13:09:43.582	$GPGGA,130944,2524.4614,N,07949.4093,W,1,9,1.6,12,M,,M,,*5D
06/25/2015	13:09:44.582	$GPGGA,130945,2524.4629,N,07949.4101,W,1,9,1.6,12,M,,M,,*58
06/25/2015	13:09:45.602	$GPGGA,130946,2524.4643,N,07949.4109,W,1,9,1.6,12,M,,M,,*5F
06/25/2015	13:09:46.582	$GPGGA,130947,2524.4657,N,07949.4118,W,1,9,1.6,12,M,,M,,*5B
06/25/2015	13:09:47.582	$GPGGA,130948,2524.4670,N,07949.4126,W,1,9,1.6,12,M,,M,,*5C
06/25/2015	13:09:48.568	$GPGGA,130949,2524.4684,N,07949.4134,W,1,9,1.6,12,M,,M,,*55
06/25/2015	13:09:49.553	$GPGGA,130950,2524.4699,N,07949.4142,W,1,9,1.6,12,M,,M,,*50
06/25/2015	13:09:50.568	$GPGGA,130951,2524.4713,N,07949.4151,W,1,9,1.6,12,M,,M,,*50
06/25/2015	13:09:51.583	$GPGGA,130952,2524.4727,N,07949.4159,W,1,9,1.6,12,M,,M,,*5C
06/25/2015	13:09:52.566	$GPGGA,130953,2524.4742,N,07949.4167,W,1,9,1.6,12,M,,M,,*53
06/25/2015	13:09:53.559	$GPGGA,130954,2524.4756,N,07949.4176,W,1,9,1.6,12,M,,M,,*51
06/25/2015	13:09:54.562	$GPGGA,130955,2524.4771,N,07949.4184,W,1,9,1.6,12,M,,M,,*58
06/25/2015	13:09:55.570	$GPGGA,130956,2524.4785,N,07949.4191,W,1,9,1.6,12,M,,M,,*54
06/25/2015	13:09:56.552	$GPGGA,130957,2524.4799,N,07949.4199,W,1,9,1.6,12,M,,M,,*50
06/25/2015	13:09:57.567	$GPGGA,130958,2524.4813,N,07949.4207,W,1,9,1.6,12,M,,M,,*56
06/25/2015	13:09:58.559	$GPGGA,130959,2524.4827,N,07949.4216,W,1,9,1.6,12,M,,M,,*50
06/25/2015	13:09:59.602	$GPGGA,131000,2524.4842,N,07949.4223,W,1,9,1.6,12,M,,M,,*51
06/25/2015	13:10:00.555	$GPGGA,131001,2524.4856,N,07949.4230,W,1,9,1.6,12,M,,M,,*57
06/25/2015	13:10:01.567	$GPGGA,131002,2524.4870,N,07949.4238,W,1,9,1.6,12,M,,M,,*58
06/25/2015	13:10:02.542	$GPGGA,131003,2524.4883,N,07949.4246,W,1,9,1.6,12,M,,M,,*5C
06/25/2015	13:10:03.572	$GPGGA,131004,2524.4897,N,07949.4254,W,1,9,1.6,12,M,,M,,*5D
06/25/2015	13:10:04.532	$GPGGA,131005,2524.4911,N,07949.4263,W,1,9,1.6,12,M,,M,,*57
06/25/2015	13:10:05.555	$GPGGA,131006,2524.4926,N,07949.4270,W,1,9,1.6,12,M,,M,,*52
06/25/2015	13:10:06.543	$GPGGA,131007,2524.4940,N,07949.4277,W,1,9,1.6,12,M,,M,,*54
06/25/2015	13:10:07.567	$GPGGA,131008,2524.4955,N,07949.4285,W,1,8,2.0,12,M,,M,,*56
06/25/2015	13:10:08.533	$GPGGA,131009,2524.4969,N,07949.4293,W,1,8,2.0,12,M,,M,,*5F
06/25/2015	13:10:09.523	$GPGGA,131010,2524.4984,N,07949.4301,W,1,8,2.0,12,M,,M,,*5E
06/25/2015	13:10:10.523	$GPGGA,131011,2524.4998,N,07949.4308,W,1,8,1.6,12,M,,M,,*5E
06/25/2015	13:10:11.572	$GPGGA,131012,2524.5013,N,07949.4317,W,1,9,1.6,12,M,,M,,*59
06/25/2015	13:10:12.522	$GPGGA,131013,2524.5027,N,07949.4324,W,1,9,1.6,12,M,,M,,*5F
06/25/2015	13:10:13.502	$GPGGA,131014,2524.5042,N,07949.4332,W,1,9,1.6,12,M,,M,,*5C
06/25/2015	13:10:14.622	$GPGGA,131015,2524.5056,N,07949.4340,W,1,9,1.6,12,M,,M,,*5D
06/25/2015	13:10:15.632	$GPGGA,131016,2524.5070,N,07949.4347,W,1,9,1.6,12,M,,M,,*5D
06/25/2015	13:10:16.512	$GPGGA,131017,2524.5085,N,07949.4355,W,1,9,1.6,12,M,,M,,*55
06/25/2015	13:10:17.512	$GPGGA,131018,2524.5099,N,07949.4364,W,1,9,1.6,12,M,,M,,*55
06/25/2015	13:10:18.512	$GPGGA,131019,2524.5114,N,07949.4371,W,1,9,1.6,12,M,,M,,*54
06/25/2015	13:10:19.522	$GPGGA,131020,2524.5128,N,07949.4379,W,1,9,1.6,12,M,,M,,*59
06/25/2015	13:10:20.502	$GPGGA,131021,2524.5142,N,07949.4386,W,1,9,1.6,12,M,,M,,*54
06/25/2015	13:10:21.622	$GPGGA,131022,2524.5157,N,07949.4393,W,1,9,1.6,12,M,,M,,*57
06/25/2015	13:10:22.502	$GPGGA,131023,2524.5171,N,07949.4401,W,1,9,1.6,12,M,,M,,*5E
06/25/2015	13:10:23.503	$GPGGA,131024,2524.5185,N,07949.4408,W,1,9,1.6,12,M,,M,,*5B
06/25/2015	13:10:24.583	$GPGGA,131025,2524.5200,N,07949.4416,W,1,9,1.6,12,M,,M,,*5B
06/25/2015	13:10:25.623	$GPGGA,131026,2524.5214,N,07949.4425,W,1,9,1.6,12,M,,M,,*5D
06/25/2015	13:10:26.583	$GPGGA,131027,2524.5228,N,07949.4433,W,1,9,1.6,12,M,,M,,*54
06/25/2015	13:10:27.503	$GPGGA,131028,2524.5242,N,07949.4440,W,1,9,1.6,12,M,,M,,*53
06/25/2015	13:10:28.573	$GPGGA,131029,2524.5255,N,07949.4447,W,1,9,1.6,12,M,,M,,*53
06/25/2015	13:10:29.613	$GPGGA,131030,2524.5269,N,07949.4455,W,1,9,1.6,12,M,,M,,*57
06/25/2015	13:10:30.482	$GPGGA,131031,2524.5284,N,07949.4462,W,1,9,1.6,12,M,,M,,*51
06/25/2015	13:10:31.582	$GPGGA,131032,2524.5298,N,07949.4470,W,1,9,1.6,12,M,,M,,*5C
06/25/2015	13:10:32.582	$GPGGA,131033,2524.5312,N,07949.4478,W,1,9,1.6,12,M,,M,,*56
06/25/2015	13:10:33.592	$GPGGA,131034,2524.5326,N,07949.4485,W,1,9,1.6,12,M,,M,,*54
06/25/2015	13:10:34.572	$GPGGA,131035,2524.5340,N,07949.4494,W,1,9,1.6,12,M,,M,,*55
06/25/2015	13:10:35.632	$GPGGA,131036,2524.5354,N,07949.4501,W,1,9,1.6,12,M,,M,,*5E
06/25/2015	13:10:36.572	$GPGGA,131037,2524.5367,N,07949.4509,W,1,9,1.6,12,M,,M,,*57
06/25/2015	13:10:37.562	$GPGGA,131038,2524.5381,N,07949.4516,W,1,9,1.6,12,M,,M,,*5E
06/25/2015	13:10:38.554	$GPGGA,131039,2524.5396,N,07949.4524,W,1,9,1.6,12,M,,M,,*58
06/25/2015	13:10:39.592	$GPGGA,131040,2524.5410,N,07949.4532,W,1,9,1.6,12,M,,M,,*58
06/25/2015	13:10:40.563	$GPGGA,131041,2524.5424,N,07949.4541,W,1,9,1.6,12,M,,M,,*5A
06/25/2015	13:10:41.573	$GPGGA,131042,2524.5439,N,07949.4548,W,1,9,1.6,12,M,,M,,*5C
06/25/2015	13:10:42.553	$GPGGA,131043,2524.5453,N,07949.4556,W,1,9,1.6,12,M,,M,,*5E
06/25/2015	13:10:43.583	$GPGGA,131044,2524.5467,N,07949.4563,W,1,9,1.6,12,M,,M,,*58
06/25/2015	13:10:44.563	$GPGGA,131045,2524.5481,N,07949.4570,W,1,9,1.6,12,M,,M,,*53
06/25/2015	13:10:45.573	$GPGGA,131046,2524.5495,N,07949.4578,W,1,9,1.6,12,M,,M,,*5D
06/25/2015	13:10:46.554	$GPGGA,131047,2524.5508,N,07949.4586,W,1,9,1.6,12,M,,M,,*58
06/25/2015	13:10:47.572	$GPGGA,131048,2524.5522,N,07949.4595,W,1,9,1.6,12,M,,M,,*5D
06/25/2015	13:10:48.552	$GPGGA,131049,2524.5537,N,07949.4602,W,1,9,1.6,12,M,,M,,*55
06/25/2015	13:10:49.552	$GPGGA,131050,2524.5551,N,07949.4610,W,1,9,1.6,11,M,,M,,*5D
06/25/2015	13:10:50.532	$GPGGA,131051,2524.5565,N,07949.4617,W,1,9,1.6,11,M,,M,,*5C
06/25/2015	13:10:51.565	$GPGGA,131052,2524.5579,N,07949.4624,W,1,9,1.6,11,M,,M,,*52
06/25/2015	13:10:52.532	$GPGGA,131053,2524.5593,N,07949.4632,W,1,9,1.6,11,M,,M,,*50
06/25/2015	13:10:53.542	$GPGGA,131054,2524.5607,N,07949.4640,W,1,9,1.6,11,M,,M,,*5C
06/25/2015	13:10:54.533	$GPGGA,131055,2524.5620,N,07949.4647,W,1,9,1.6,11,M,,M,,*5F
06/25/2015	13:10:55.532	$GPGGA,131056,2524.5634,N,07949.4655,W,1,9,1.6,11,M,,M,,*5A
06/25/2015	13:10:56.512	$GPGGA,131057,2524.5648,N,07949.4664,W,1,9,1.6,11,M,,M,,*52
06/25/2015	13:10:57.522	$GPGGA,131058,2524.5663,N,07949.4671,W,1,9,1.6,11,M,,M,,*50
06/25/2015	13:10:58.843	$GPGGA,131059,2524.5677,N,07949.4679,W,1,9,1.6,11,M,,M,,*5C
06/25/2015	13:10:59.568	$GPGGA,131100,2524.5692,N,07949.4687,W,1,9,1.6,11,M,,M,,*5B
06/25/2015	13:11:00.513	$GPGGA,131101,2524.5706,N,07949.4694,W,1,9,1.6,11,M,,M,,*54
06/25/2015	13:11:01.523	$GPGGA,131102,2524.5720,N,07949.4702,W,1,9,1.6,11,M,,M,,*5D
06/25/2015	13:11:02.523	$GPGGA,131103,2524.5734,N,07949.4709,W,1,9,1.6,11,M,,M,,*52
06/25/2015	13:11:03.556	$GPGGA,131104,2524.5748,N,07949.4718,W,1,9,1.6,11,M,,M,,*5E
06/25/2015	13:11:04.502	$GPGGA,131105,2524.5761,N,07949.4725,W,1,9,1.6,11,M,,M,,*5A
06/25/2015	13:11:05.492	$GPGGA,131106,2524.5775,N,07949.4733,W,1,9,1.6,11,M,,M,,*5B
06/25/2015	13:11:07.042	$GPGGA,131107,2524.5789,N,07949.4741,W,1,9,1.6,11,M,,M,,*5C
06/25/2015	13:11:07.622	$GPGGA,131108,2524.5804,N,07949.4749,W,1,9,1.6,11,M,,M,,*51
06/25/2015	13:11:09.012	$GPGGA,131109,2524.5818,N,07949.4756,W,1,9,1.6,11,M,,M,,*53
06/25/2015	13:11:09.512	$GPGGA,131110,2524.5832,N,07949.4765,W,1,9,1.6,11,M,,M,,*53
06/25/2015	13:11:10.582	$GPGGA,131111,2524.5846,N,07949.4773,W,1,9,1.6,11,M,,M,,*56
06/25/2015	13:11:11.592	$GPGGA,131112,2524.5860,N,07949.4780,W,1,9,1.6,11,M,,M,,*5D
06/25/2015	13:11:12.482	$GPGGA,131113,2524.5873,N,07949.4788,W,1,9,1.6,11,M,,M,,*56
06/25/2015	13:11:13.482	$GPGGA,131114,2524.5887,N,07949.4796,W,1,9,1.6,11,M,,M,,*55
06/25/2015	13:11:14.492	$GPGGA,131115,2524.5901,N,07949.4805,W,1,9,1.6,11,M,,M,,*5E
06/25/2015	13:11:15.593	$GPGGA,131116,2524.5916,N,07949.4812,W,1,9,1.6,11,M,,M,,*5D
06/25/2015	13:11:16.493	$GPGGA,131117,2524.5929,N,07949.4820,W,1,9,1.6,11,M,,M,,*51
06/25/2015	13:11:17.483	$GPGGA,131118,2524.5943,N,07949.4828,W,1,9,1.6,11,M,,M,,*5A
06/25/2015	13:11:18.585	$GPGGA,131119,2524.5956,N,07949.4837,W,1,9,1.6,11,M,,M,,*51
06/25/2015	13:11:19.583	$GPGGA,131120,2524.5970,N,07949.4845,W,1,9,1.6,11,M,,M,,*5A
06/25/2015	13:11:20.573	$GPGGA,131121,2524.5984,N,07949.4852,W,1,9,1.6,11,M,,M,,*56
06/25/2015	13:11:21.572	$GPGGA,131122,2524.5998,N,07949.4861,W,1,9,1.6,11,M,,M,,*58
06/25/2015	13:11:22.572	$GPGGA,131123,2524.6010,N,07949.4870,W,1,9,1.6,11,M,,M,,*53
06/25/2015	13:11:24.602	$GPGGA,131125,2524.6039,N,07949.4885,W,1,9,1.6,11,M,,M,,*54
06/25/2015	13:11:25.572	$GPGGA,131126,2524.6052,N,07949.4893,W,1,9,1.6,11,M,,M,,*5D
06/25/2015	13:11:26.562	$GPGGA,131127,2524.6066,N,07949.4902,W,1,9,1.6,11,M,,M,,*52
06/25/2015	13:11:27.592	$GPGGA,131128,2524.6078,N,07949.4910,W,1,9,1.6,11,M,,M,,*51
06/25/2015	13:11:28.867	$GPGGA,131129,2524.6093,N,07949.4917,W,1,9,1.6,11,M,,M,,*52
06/25/2015	13:11:29.552	$GPGGA,131130,2524.6106,N,07949.4925,W,1,9,1.6,11,M,,M,,*56
06/25/2015	13:11:30.554	$GPGGA,131131,2524.6120,N,07949.4933,W,1,9,1.6,11,M,,M,,*54
06/25/2015	13:11:31.592	$GPGGA,131132,2524.6133,N,07949.4942,W,1,9,1.6,11,M,,M,,*53
06/25/2015	13:11:32.542	$GPGGA,131133,2524.6147,N,07949.4949,W,1,9,1.6,11,M,,M,,*5A
06/25/2015	13:11:33.573	$GPGGA,131134,2524.6161,N,07949.4957,W,1,9,1.6,11,M,,M,,*56
06/25/2015	13:11:34.533	$GPGGA,131135,2524.6174,N,07949.4965,W,1,9,1.6,11,M,,M,,*52
06/25/2015	13:11:35.563	$GPGGA,131136,2524.6187,N,07949.4973,W,1,9,1.6,11,M,,M,,*5A
06/25/2015	13:11:36.543	$GPGGA,131137,2524.6201,N,07949.4982,W,1,9,1.6,11,M,,M,,*58
06/25/2015	13:11:37.533	$GPGGA,131138,2524.6215,N,07949.4989,W,1,9,1.6,11,M,,M,,*59
06/25/2015	13:11:38.543	$GPGGA,131139,2524.6227,N,07949.4997,W,1,9,1.6,11,M,,M,,*56
06/25/2015	13:11:39.562	$GPGGA,131140,2524.6241,N,07949.5005,W,1,9,1.6,11,M,,M,,*5B
06/25/2015	13:11:40.542	$GPGGA,131141,2524.6255,N,07949.5014,W,1,9,1.6,11,M,,M,,*5F
06/25/2015	13:11:41.522	$GPGGA,131142,2524.6270,N,07949.5022,W,1,9,1.6,11,M,,M,,*5E
06/25/2015	13:11:42.522	$GPGGA,131143,2524.6284,N,07949.5030,W,1,9,1.6,11,M,,M,,*57
06/25/2015	13:11:43.532	$GPGGA,131144,2524.6297,N,07949.5038,W,1,9,1.6,11,M,,M,,*5A
06/25/2015	13:11:44.522	$GPGGA,131145,2524.6312,N,07949.5047,W,1,9,1.6,11,M,,M,,*5F
06/25/2015	13:11:45.522	$GPGGA,131146,2524.6324,N,07949.5054,W,1,9,1.6,11,M,,M,,*5B
06/25/2015	13:11:46.512	$GPGGA,131147,2524.6339,N,07949.5063,W,1,9,1.6,11,M,,M,,*52
06/25/2015	13:11:47.562	$GPGGA,131148,2524.6353,N,07949.5072,W,1,9,1.6,11,M,,M,,*51
06/25/2015	13:11:48.522	$GPGGA,131149,2524.6367,N,07949.5079,W,1,9,1.6,11,M,,M,,*5C
06/25/2015	13:11:49.522	$GPGGA,131150,2524.6381,N,07949.5087,W,1,9,1.6,11,M,,M,,*5D
06/25/2015	13:11:50.533	$GPGGA,131151,2524.6393,N,07949.5095,W,1,9,1.6,11,M,,M,,*5C
06/25/2015	13:11:51.613	$GPGGA,131152,2524.6407,N,07949.5103,W,1,9,1.6,11,M,,M,,*5B
