Software Version Number: 1	Data File Format Number: 1	Build Version Number: 1	Error Count Since VI Started: 2	Manufacturer: Raytheon	 Model Number: RayMarine 120	 S/N: 	 Cal Date: 	 Wind Direction Offset: 0.00	 Slope (M)1: 0.00	 Offset (B)1: 0.00	 Slope (M)2: 0.00	 Offset (B)2: 0.00	 Slope (M)3: 0.00	 Offset (B)3: 0.00	 Slope (M)4: 0.00	 Offset (B)4: 0.00	 Slope (M)5: 0.00	 Offset (B)5: 0.00	 Slope (M)6: 0.00	 Offset (B)6: 0.00
Computer Date	Computer Time	GGA String
06/21/2015	01:00:00.544	$GPGGA,010001,2451.4512,N,08029.9611,W,1,7,2.0,19,M,,M,,*51
06/21/2015	01:00:01.564	$GPGGA,010002,2451.4504,N,08029.9629,W,1,7,2.3,19,M,,M,,*5D
06/21/2015	01:00:02.544	$GPGGA,010003,2451.4496,N,08029.9647,W,1,7,4.4,18,M,,M,,*5E
06/21/2015	01:00:03.578	$GPGGA,010004,2451.4487,N,08029.9665,W,1,7,2.9,18,M,,M,,*52
06/21/2015	01:00:04.545	$GPGGA,010005,2451.4479,N,08029.9684,W,1,7,2.9,18,M,,M,,*5D
06/21/2015	01:00:05.526	$GPGGA,010006,2451.4471,N,08029.9701,W,1,8,2.0,19,M,,M,,*5D
06/21/2015	01:00:06.545	$GPGGA,010007,2451.4461,N,08029.9720,W,1,8,2.3,19,M,,M,,*5D
06/21/2015	01:00:07.580	$GPGGA,010008,2451.4453,N,08029.9738,W,1,6,4.4,19,M,,M,,*55
06/21/2015	01:00:08.525	$GPGGA,010009,2451.4446,N,08029.9758,W,1,6,2.3,19,M,,M,,*57
06/21/2015	01:00:09.577	$GPGGA,010010,2451.4437,N,08029.9780,W,1,8,2.0,18,M,,M,,*50
06/21/2015	01:00:10.535	$GPGGA,010011,2451.4429,N,08029.9799,W,1,8,2.0,18,M,,M,,*56
06/21/2015	01:00:11.576	$GPGGA,010012,2451.4421,N,08029.9819,W,1,8,2.0,18,M,,M,,*5A
06/21/2015	01:00:12.534	$GPGGA,010013,2451.4414,N,08029.9837,W,1,8,2.0,18,M,,M,,*51
06/21/2015	01:00:13.524	$GPGGA,010014,2451.4406,N,08029.9856,W,1,8,2.0,18,M,,M,,*52
06/21/2015	01:00:14.514	$GPGGA,010015,2451.4398,N,08029.9874,W,1,8,2.0,18,M,,M,,*53
06/21/2015	01:00:15.534	$GPGGA,010016,2451.4390,N,08029.9893,W,1,8,2.0,18,M,,M,,*51
06/21/2015	01:00:16.514	$GPGGA,010017,2451.4382,N,08029.9911,W,1,8,2.0,18,M,,M,,*58
06/21/2015	01:00:17.514	$GPGGA,010018,2451.4374,N,08029.9929,W,1,8,2.0,18,M,,M,,*55
06/21/2015	01:00:18.524	$GPGGA,010019,2451.4366,N,08029.9947,W,1,8,2.0,18,M,,M,,*5F
06/21/2015	01:00:19.524	$GPGGA,010020,2451.4359,N,08029.9965,W,1,8,2.0,18,M,,M,,*59
06/21/2015	01:00:20.504	$GPGGA,010021,2451.4352,N,08029.9982,W,1,8,2.0,18,M,,M,,*5A
06/21/2015	01:00:21.525	$GPGGA,010022,2451.4344,N,08030.0001,W,1,8,2.0,18,M,,M,,*5D
06/21/2015	01:00:22.515	$GPGGA,010023,2451.4335,N,08030.0019,W,1,8,2.0,18,M,,M,,*53
06/21/2015	01:00:23.555	$GPGGA,010024,2451.4327,N,08030.0038,W,1,8,2.0,18,M,,M,,*54
06/21/2015	01:00:24.495	$GPGGA,010025,2451.4320,N,08030.0056,W,1,8,2.0,18,M,,M,,*5A
06/21/2015	01:00:25.505	$GPGGA,010026,2451.4312,N,08030.0074,W,1,8,2.0,18,M,,M,,*58
06/21/2015	01:00:26.485	$GPGGA,010027,2451.4305,N,08030.0094,W,1,8,2.0,18,M,,M,,*51
06/21/2015	01:00:27.555	$GPGGA,010028,2451.4298,N,08030.0112,W,1,8,2.0,18,M,,M,,*54
06/21/2015	01:00:28.495	$GPGGA,010029,2451.4290,N,08030.0130,W,1,8,2.0,18,M,,M,,*5D
06/21/2015	01:00:29.605	$GPGGA,010030,2451.4283,N,08030.0148,W,1,8,2.0,18,M,,M,,*58
06/21/2015	01:00:30.594	$GPGGA,010031,2451.4276,N,08030.0167,W,1,8,2.0,18,M,,M,,*5E
06/21/2015	01:00:31.634	$GPGGA,010032,2451.4267,N,08030.0186,W,1,8,2.0,18,M,,M,,*52
06/21/2015	01:00:32.594	$GPGGA,010033,2451.4259,N,08030.0206,W,1,8,2.0,18,M,,M,,*55
06/21/2015	01:00:33.584	$GPGGA,010034,2451.4252,N,08030.0224,W,1,8,2.0,18,M,,M,,*59
06/21/2015	01:00:34.494	$GPGGA,010035,2451.4244,N,08030.0243,W,1,8,2.0,18,M,,M,,*5E
06/21/2015	01:00:35.594	$GPGGA,010036,2451.4237,N,08030.0261,W,1,8,2.0,18,M,,M,,*59
06/21/2015	01:00:36.494	$GPGGA,010037,2451.4230,N,08030.0280,W,1,8,2.0,18,M,,M,,*50
06/21/2015	01:00:37.604	$GPGGA,010038,2451.4222,N,08030.0300,W,1,8,2.0,18,M,,M,,*55
06/21/2015	01:00:38.595	$GPGGA,010039,2451.4215,N,08030.0318,W,1,8,2.0,18,M,,M,,*59
06/21/2015	01:00:39.595	$GPGGA,010040,2451.4208,N,08030.0336,W,1,8,2.0,18,M,,M,,*57
06/21/2015	01:00:40.567	$GPGGA,010041,2451.4200,N,08030.0354,W,1,8,2.0,18,M,,M,,*5A
06/21/2015	01:00:41.585	$GPGGA,010042,2451.4193,N,08030.0372,W,1,8,2.0,18,M,,M,,*54
06/21/2015	01:00:42.566	$GPGGA,010043,2451.4185,N,08030.0391,W,1,8,2.0,18,M,,M,,*5F
06/21/2015	01:00:43.595	$GPGGA,010044,2451.4178,N,08030.0410,W,1,8,2.0,18,M,,M,,*54
06/21/2015	01:00:44.555	$GPGGA,010045,2451.4168,N,08030.0428,W,1,8,2.0,18,M,,M,,*5F
06/21/2015	01:00:45.575	$GPGGA,010046,2451.4160,N,08030.0446,W,1,8,2.9,18,M,,M,,*55
06/21/2015	01:00:46.566	$GPGGA,010047,2451.4153,N,08030.0464,W,1,8,2.0,18,M,,M,,*5D
06/21/2015	01:00:47.584	$GPGGA,010048,2451.4144,N,08030.0484,W,1,8,2.0,18,M,,M,,*5A
06/21/2015	01:00:48.554	$GPGGA,010049,2451.4136,N,08030.0500,W,1,8,2.3,18,M,,M,,*50
06/21/2015	01:00:49.544	$GPGGA,010050,2451.4128,N,08030.0518,W,1,7,2.3,18,M,,M,,*51
06/21/2015	01:00:50.545	$GPGGA,010051,2451.4120,N,08030.0535,W,1,7,2.3,18,M,,M,,*57
06/21/2015	01:00:51.584	$GPGGA,010052,2451.4113,N,08030.0553,W,1,7,2.3,17,M,,M,,*5B
06/21/2015	01:00:52.545	$GPGGA,010053,2451.4104,N,08030.0569,W,1,7,2.3,17,M,,M,,*55
06/21/2015	01:00:53.554	$GPGGA,010054,2451.4096,N,08030.0589,W,1,7,2.0,17,M,,M,,*55
06/21/2015	01:00:54.544	$GPGGA,010055,2451.4088,N,08030.0608,W,1,7,2.0,17,M,,M,,*51
06/21/2015	01:00:55.614	$GPGGA,010056,2451.4081,N,08030.0629,W,1,8,2.0,17,M,,M,,*57
06/21/2015	01:00:56.545	$GPGGA,010057,2451.4071,N,08030.0645,W,1,8,2.3,17,M,,M,,*50
06/21/2015	01:00:57.555	$GPGGA,010058,2451.4061,N,08030.0662,W,1,7,2.9,17,M,,M,,*5E
06/21/2015	01:00:58.525	$GPGGA,010059,2451.4053,N,08030.0680,W,1,7,2.0,17,M,,M,,*5B
06/21/2015	01:00:59.577	$GPGGA,010100,2451.4045,N,08030.0698,W,1,8,2.0,17,M,,M,,*57
06/21/2015	01:01:00.535	$GPGGA,010101,2451.4036,N,08030.0715,W,1,8,2.0,17,M,,M,,*56
06/21/2015	01:01:01.555	$GPGGA,010102,2451.4028,N,08030.0733,W,1,8,2.0,17,M,,M,,*5E
06/21/2015	01:01:02.525	$GPGGA,010103,2451.4020,N,08030.0752,W,1,8,2.0,17,M,,M,,*50
06/21/2015	01:01:03.545	$GPGGA,010104,2451.4012,N,08030.0770,W,1,8,2.0,17,M,,M,,*56
06/21/2015	01:01:04.525	$GPGGA,010105,2451.4003,N,08030.0789,W,1,8,2.0,18,M,,M,,*5E
06/21/2015	01:01:05.544	$GPGGA,010106,2451.3995,N,08030.0807,W,1,8,2.0,18,M,,M,,*55
06/21/2015	01:01:06.525	$GPGGA,010107,2451.3987,N,08030.0827,W,1,8,2.0,18,M,,M,,*55
06/21/2015	01:01:07.584	$GPGGA,010108,2451.3978,N,08030.0845,W,1,8,2.0,18,M,,M,,*5E
06/21/2015	01:01:08.515	$GPGGA,010109,2451.3970,N,08030.0864,W,1,8,2.0,18,M,,M,,*54
06/21/2015	01:01:09.524	$GPGGA,010110,2451.3962,N,08030.0883,W,1,8,2.0,18,M,,M,,*56
06/21/2015	01:01:10.534	$GPGGA,010111,2451.3954,N,08030.0903,W,1,8,2.0,18,M,,M,,*5B
06/21/2015	01:01:11.624	$GPGGA,010112,2451.3947,N,08030.0921,W,1,8,2.0,18,M,,M,,*5A
06/21/2015	01:01:12.614	$GPGGA,010113,2451.3940,N,08030.0940,W,1,8,2.0,18,M,,M,,*5B
06/21/2015	01:01:13.614	$GPGGA,010114,2451.3932,N,08030.0959,W,1,8,2.0,18,M,,M,,*51
06/21/2015	01:01:14.604	$GPGGA,010115,2451.3925,N,08030.0979,W,1,8,2.0,18,M,,M,,*54
06/21/2015	01:01:15.614	$GPGGA,010116,2451.3918,N,08030.0997,W,1,8,2.0,18,M,,M,,*59
06/21/2015	01:01:16.504	$GPGGA,010117,2451.3911,N,08030.1015,W,1,8,2.0,18,M,,M,,*53
06/21/2015	01:01:17.494	$GPGGA,010118,2451.3904,N,08030.1034,W,1,8,2.0,18,M,,M,,*5B
06/21/2015	01:01:18.594	$GPGGA,010119,2451.3897,N,08030.1053,W,1,8,2.0,18,M,,M,,*50
06/21/2015	01:01:19.624	$GPGGA,010120,2451.3890,N,08030.1073,W,1,8,2.0,18,M,,M,,*5F
06/21/2015	01:01:20.594	$GPGGA,010121,2451.3885,N,08030.1091,W,1,8,1.6,18,M,,M,,*53
06/21/2015	01:01:21.569	$GPGGA,010122,2451.3882,N,08030.1107,W,1,9,1.6,18,M,,M,,*58
06/21/2015	01:01:22.575	$GPGGA,010123,2451.3877,N,08030.1125,W,1,9,1.6,18,M,,M,,*53
06/21/2015	01:01:23.613	$GPGGA,010124,2451.3871,N,08030.1143,W,1,9,1.6,18,M,,M,,*52
06/21/2015	01:01:24.567	$GPGGA,010125,2451.3864,N,08030.1163,W,1,9,1.6,18,M,,M,,*55
06/21/2015	01:01:25.594	$GPGGA,010126,2451.3855,N,08030.1183,W,1,8,2.0,18,M,,M,,*5E
06/21/2015	01:01:26.569	$GPGGA,010127,2451.3847,N,08030.1203,W,1,8,2.0,18,M,,M,,*57
06/21/2015	01:01:27.572	$GPGGA,010128,2451.3843,N,08030.1219,W,1,8,1.8,18,M,,M,,*5C
06/21/2015	01:01:28.554	$GPGGA,010129,2451.3839,N,08030.1237,W,1,8,1.8,18,M,,M,,*5C
06/21/2015	01:01:29.584	$GPGGA,010130,2451.3833,N,08030.1255,W,1,9,1.6,18,M,,M,,*55
06/21/2015	01:01:30.557	$GPGGA,010131,2451.3828,N,08030.1273,W,1,9,1.6,18,M,,M,,*5A
06/21/2015	01:01:31.559	$GPGGA,010132,2451.3819,N,08030.1293,W,1,9,2.0,19,M,,M,,*51
06/21/2015	01:01:32.563	$GPGGA,010133,2451.3811,N,08030.1312,W,1,9,2.0,19,M,,M,,*50
06/21/2015	01:01:33.544	$GPGGA,010134,2451.3802,N,08030.1331,W,1,8,2.0,19,M,,M,,*55
06/21/2015	01:01:34.584	$GPGGA,010135,2451.3794,N,08030.1351,W,1,8,2.0,19,M,,M,,*52
06/21/2015	01:01:35.574	$GPGGA,010136,2451.3785,N,08030.1370,W,1,8,2.0,19,M,,M,,*52
06/21/2015	01:01:36.534	$GPGGA,010137,2451.3777,N,08030.1389,W,1,8,2.0,19,M,,M,,*58
06/21/2015	01:01:37.534	$GPGGA,010138,2451.3775,N,08030.1405,W,1,8,2.0,19,M,,M,,*56
06/21/2015	01:01:38.544	$GPGGA,010139,2451.3766,N,08030.1424,W,1,8,1.6,19,M,,M,,*53
06/21/2015	01:01:39.574	$GPGGA,010140,2451.3757,N,08030.1443,W,1,8,2.0,19,M,,M,,*5B
06/21/2015	01:01:40.543	$GPGGA,010141,2451.3748,N,08030.1463,W,1,8,2.0,19,M,,M,,*56
06/21/2015	01:01:41.524	$GPGGA,010142,2451.3741,N,08030.1481,W,1,8,2.0,19,M,,M,,*50
06/21/2015	01:01:42.534	$GPGGA,010143,2451.3731,N,08030.1500,W,1,8,2.0,19,M,,M,,*5E
06/21/2015	01:01:43.568	$GPGGA,010144,2451.3723,N,08030.1519,W,1,8,2.0,19,M,,M,,*52
06/21/2015	01:01:44.534	$GPGGA,010145,2451.3714,N,08030.1537,W,1,8,2.0,19,M,,M,,*5B
06/21/2015	01:01:45.544	$GPGGA,010146,2451.3705,N,08030.1557,W,1,8,2.0,19,M,,M,,*5E
06/21/2015	01:01:46.524	$GPGGA,010147,2451.3696,N,08030.1575,W,1,8,2.0,19,M,,M,,*54
06/21/2015	01:01:47.524	$GPGGA,010148,2451.3688,N,08030.1594,W,1,8,2.0,19,M,,M,,*5B
06/21/2015	01:01:48.524	$GPGGA,010149,2451.3680,N,08030.1613,W,1,8,2.0,19,M,,M,,*5E
06/21/2015	01:01:49.544	$GPGGA,010150,2451.3671,N,08030.1631,W,1,8,2.0,19,M,,M,,*58
06/21/2015	01:01:50.514	$GPGGA,010151,2451.3662,N,08030.1649,W,1,8,2.0,19,M,,M,,*54
06/21/2015	01:01:51.524	$GPGGA,010152,2451.3654,N,08030.1669,W,1,8,2.0,19,M,,M,,*50
06/21/2015	01:01:52.524	$GPGGA,010153,2451.3647,N,08030.1687,W,1,8,2.0,19,M,,M,,*53
06/21/2015	01:01:53.504	$GPGGA,010154,2451.3636,N,08030.1705,W,1,8,2.0,19,M,,M,,*59
06/21/2015	01:01:54.504	$GPGGA,010155,2451.3629,N,08030.1723,W,1,8,2.0,19,M,,M,,*52
06/21/2015	01:01:55.524	$GPGGA,010156,2451.3620,N,08030.1739,W,1,7,2.3,19,M,,M,,*5F
06/21/2015	01:01:56.494	$GPGGA,010157,2451.3611,N,08030.1756,W,1,7,2.3,18,M,,M,,*54
06/21/2015	01:01:57.513	$GPGGA,010158,2451.3602,N,08030.1774,W,1,7,2.3,18,M,,M,,*59
06/21/2015	01:01:58.503	$GPGGA,010159,2451.3595,N,08030.1792,W,1,7,2.3,18,M,,M,,*5D
06/21/2015	01:01:59.834	$GPGGA,010200,2451.3586,N,08030.1806,W,1,7,2.3,18,M,,M,,*52
06/21/2015	01:02:00.514	$GPGGA,010201,2451.3576,N,08030.1822,W,1,7,2.0,18,M,,M,,*59
06/21/2015	01:02:01.594	$GPGGA,010202,2451.3569,N,08030.1839,W,1,8,2.0,18,M,,M,,*51
06/21/2015	01:02:02.484	$GPGGA,010203,2451.3560,N,08030.1857,W,1,8,2.0,18,M,,M,,*51
06/21/2015	01:02:03.514	$GPGGA,010204,2451.3550,N,08030.1876,W,1,8,2.0,18,M,,M,,*56
06/21/2015	01:02:04.494	$GPGGA,010205,2451.3542,N,08030.1895,W,1,8,2.0,18,M,,M,,*59
06/21/2015	01:02:05.494	$GPGGA,010206,2451.3535,N,08030.1915,W,1,8,2.0,18,M,,M,,*53
06/21/2015	01:02:06.474	$GPGGA,010207,2451.3526,N,08030.1933,W,1,8,2.0,18,M,,M,,*54
06/21/2015	01:02:07.614	$GPGGA,010208,2451.3517,N,08030.1951,W,1,8,2.0,18,M,,M,,*5D
06/21/2015	01:02:08.594	$GPGGA,010209,2451.3510,N,08030.1970,W,1,8,2.0,18,M,,M,,*58
06/21/2015	01:02:09.494	$GPGGA,010210,2451.3506,N,08030.1987,W,1,8,2.0,18,M,,M,,*5F
06/21/2015	01:02:10.581	$GPGGA,010211,2451.3497,N,08030.2005,W,1,8,1.6,18,M,,M,,*52
06/21/2015	01:02:11.504	$GPGGA,010212,2451.3489,N,08030.2024,W,1,8,2.0,18,M,,M,,*58
06/21/2015	01:02:12.484	$GPGGA,010213,2451.3481,N,08030.2043,W,1,8,2.0,18,M,,M,,*50
06/21/2015	01:02:13.569	$GPGGA,010214,2451.3472,N,08030.2063,W,1,8,2.0,18,M,,M,,*59
06/21/2015	01:02:14.484	$GPGGA,010215,2451.3464,N,08030.2081,W,1,8,2.0,18,M,,M,,*53
06/21/2015	01:02:15.573	$GPGGA,010216,2451.3457,N,08030.2099,W,1,8,2.0,18,M,,M,,*59
06/21/2015	01:02:16.584	$GPGGA,010217,2451.3449,N,08030.2117,W,1,8,2.0,18,M,,M,,*50
06/21/2015	01:02:17.556	$GPGGA,010218,2451.3441,N,08030.2136,W,1,8,2.0,18,M,,M,,*54
06/21/2015	01:02:18.556	$GPGGA,010219,2451.3434,N,08030.2155,W,1,8,2.0,18,M,,M,,*52
06/21/2015	01:02:19.567	$GPGGA,010220,2451.3425,N,08030.2175,W,1,8,2.0,18,M,,M,,*5A
06/21/2015	01:02:20.566	$GPGGA,010221,2451.3417,N,08030.2193,W,1,8,2.0,18,M,,M,,*52
06/21/2015	01:02:21.584	$GPGGA,010222,2451.3409,N,08030.2212,W,1,8,2.0,18,M,,M,,*54
06/21/2015	01:02:22.569	$GPGGA,010223,2451.3401,N,08030.2232,W,1,8,2.0,18,M,,M,,*5F
06/21/2015	01:02:23.565	$GPGGA,010224,2451.3392,N,08030.2249,W,1,8,2.0,18,M,,M,,*59
06/21/2015	01:02:24.556	$GPGGA,010225,2451.3385,N,08030.2269,W,1,8,2.0,18,M,,M,,*5C
06/21/2015	01:02:25.566	$GPGGA,010226,2451.3378,N,08030.2287,W,1,8,2.0,18,M,,M,,*5D
06/21/2015	01:02:26.556	$GPGGA,010227,2451.3369,N,08030.2306,W,1,8,2.0,18,M,,M,,*54
06/21/2015	01:02:27.555	$GPGGA,010228,2451.3362,N,08030.2324,W,1,8,2.0,18,M,,M,,*50
06/21/2015	01:02:28.544	$GPGGA,010229,2451.3355,N,08030.2342,W,1,8,2.0,18,M,,M,,*55
06/21/2015	01:02:29.534	$GPGGA,010230,2451.3348,N,08030.2361,W,1,8,2.0,18,M,,M,,*50
06/21/2015	01:02:30.544	$GPGGA,010231,2451.3341,N,08030.2379,W,1,8,2.0,18,M,,M,,*51
06/21/2015	01:02:31.555	$GPGGA,010232,2451.3333,N,08030.2399,W,1,7,2.3,18,M,,M,,*55
06/21/2015	01:02:32.533	$GPGGA,010233,2451.3326,N,08030.2417,W,1,7,2.0,18,M,,M,,*52
06/21/2015	01:02:33.556	$GPGGA,010234,2451.3318,N,08030.2435,W,1,8,2.0,18,M,,M,,*57
06/21/2015	01:02:34.524	$GPGGA,010235,2451.3311,N,08030.2454,W,1,8,2.0,18,M,,M,,*58
06/21/2015	01:02:35.556	$GPGGA,010236,2451.3302,N,08030.2473,W,1,8,2.0,18,M,,M,,*5C
06/21/2015	01:02:36.534	$GPGGA,010237,2451.3295,N,08030.2491,W,1,8,2.0,18,M,,M,,*5E
06/21/2015	01:02:37.524	$GPGGA,010238,2451.3288,N,08030.2511,W,1,8,2.0,18,M,,M,,*54
06/21/2015	01:02:38.514	$GPGGA,010239,2451.3279,N,08030.2529,W,1,8,2.0,18,M,,M,,*50
06/21/2015	01:02:39.524	$GPGGA,010240,2451.3272,N,08030.2547,W,1,8,2.0,18,M,,M,,*5D
06/21/2015	01:02:40.525	$GPGGA,010241,2451.3264,N,08030.2566,W,1,8,2.0,18,M,,M,,*58
06/21/2015	01:02:41.524	$GPGGA,010242,2451.3257,N,08030.2585,W,1,8,2.0,18,M,,M,,*56
06/21/2015	01:02:42.504	$GPGGA,010243,2451.3247,N,08030.2603,W,1,8,2.0,18,M,,M,,*5B
06/21/2015	01:02:43.556	$GPGGA,010244,2451.3240,N,08030.2623,W,1,8,2.0,18,M,,M,,*59
06/21/2015	01:02:44.514	$GPGGA,010245,2451.3232,N,08030.2641,W,1,8,2.0,18,M,,M,,*59
06/21/2015	01:02:45.544	$GPGGA,010246,2451.3224,N,08030.2660,W,1,8,2.0,18,M,,M,,*5E
06/21/2015	01:02:46.494	$GPGGA,010247,2451.3217,N,08030.2680,W,1,8,2.0,18,M,,M,,*51
06/21/2015	01:02:47.544	$GPGGA,010248,2451.3208,N,08030.2699,W,1,8,2.0,18,M,,M,,*58
06/21/2015	01:02:48.504	$GPGGA,010249,2451.3200,N,08030.2717,W,1,8,2.0,18,M,,M,,*56
06/21/2015	01:02:49.514	$GPGGA,010250,2451.3192,N,08030.2735,W,1,8,2.0,18,M,,M,,*56
06/21/2015	01:02:50.613	$GPGGA,010251,2451.3183,N,08030.2753,W,1,8,2.0,18,M,,M,,*57
06/21/2015	01:02:51.594	$GPGGA,010252,2451.3176,N,08030.2771,W,1,8,2.0,18,M,,M,,*5E
06/21/2015	01:02:52.494	$GPGGA,010253,2451.3168,N,08030.2789,W,1,8,2.0,18,M,,M,,*57
06/21/2015	01:02:53.604	$GPGGA,010254,2451.3159,N,08030.2805,W,1,8,2.0,18,M,,M,,*59
06/21/2015	01:02:54.484	$GPGGA,010255,2451.3152,N,08030.2822,W,1,8,2.3,19,M,,M,,*54
06/21/2015	01:02:55.514	$GPGGA,010256,2451.3145,N,08030.2840,W,1,8,2.0,18,M,,M,,*57
06/21/2015	01:02:56.574	$GPGGA,010257,2451.3136,N,08030.2859,W,1,8,2.0,18,M,,M,,*5A
06/21/2015	01:02:57.614	$GPGGA,010258,2451.3127,N,08030.2877,W,1,8,2.0,18,M,,M,,*59
06/21/2015	01:02:58.494	$GPGGA,010259,2451.3120,N,08030.2897,W,1,8,2.0,18,M,,M,,*51
06/21/2015	01:02:59.514	$GPGGA,010300,2451.3113,N,08030.2915,W,1,8,2.0,18,M,,M,,*57
06/21/2015	01:03:00.584	$GPGGA,010301,2451.3106,N,08030.2933,W,1,8,2.0,18,M,,M,,*56
06/21/2015	01:03:01.474	$GPGGA,010302,2451.3098,N,08030.2951,W,1,8,2.0,18,M,,M,,*57
06/21/2015	01:03:02.565	$GPGGA,010303,2451.3091,N,08030.2969,W,1,8,2.0,18,M,,M,,*54
06/21/2015	01:03:03.614	$GPGGA,010304,2451.3081,N,08030.2986,W,1,8,2.0,18,M,,M,,*53
06/21/2015	01:03:04.484	$GPGGA,010305,2451.3074,N,08030.3004,W,1,8,2.0,18,M,,M,,*5A
06/21/2015	01:03:05.564	$GPGGA,010306,2451.3066,N,08030.3024,W,1,8,2.0,18,M,,M,,*58
06/21/2015	01:03:06.564	$GPGGA,010307,2451.3058,N,08030.3042,W,1,8,2.0,18,M,,M,,*54
06/21/2015	01:03:07.583	$GPGGA,010308,2451.3051,N,08030.3060,W,1,8,2.0,18,M,,M,,*52
06/21/2015	01:03:09.004	$GPGGA,010309,2451.3044,N,08030.3078,W,1,8,2.0,18,M,,M,,*5E
06/21/2015	01:03:09.555	$GPGGA,010310,2451.3035,N,08030.3097,W,1,8,2.0,18,M,,M,,*51
06/21/2015	01:03:10.565	$GPGGA,010311,2451.3026,N,08030.3115,W,1,8,2.0,18,M,,M,,*59
06/21/2015	01:03:11.604	$GPGGA,010312,2451.3018,N,08030.3134,W,1,8,2.0,18,M,,M,,*54
06/21/2015	01:03:12.556	$GPGGA,010313,2451.3012,N,08030.3154,W,1,8,2.0,17,M,,M,,*56
06/21/2015	01:03:13.564	$GPGGA,010314,2451.3005,N,08030.3172,W,1,8,2.0,17,M,,M,,*53
06/21/2015	01:03:14.544	$GPGGA,010315,2451.2997,N,08030.3190,W,1,8,1.6,17,M,,M,,*58
06/21/2015	01:03:15.584	$GPGGA,010316,2451.2990,N,08030.3208,W,1,8,2.0,17,M,,M,,*5B
06/21/2015	01:03:16.556	$GPGGA,010317,2451.2982,N,08030.3227,W,1,8,2.0,17,M,,M,,*54
06/21/2015	01:03:17.556	$GPGGA,010318,2451.2975,N,08030.3246,W,1,8,2.0,17,M,,M,,*54
06/21/2015	01:03:18.534	$GPGGA,010319,2451.2966,N,08030.3266,W,1,8,2.0,17,M,,M,,*55
06/21/2015	01:03:19.564	$GPGGA,010320,2451.2959,N,08030.3284,W,1,8,2.0,17,M,,M,,*5F
06/21/2015	01:03:20.544	$GPGGA,010321,2451.2952,N,08030.3303,W,1,8,2.0,17,M,,M,,*5B
06/21/2015	01:03:21.564	$GPGGA,010322,2451.2944,N,08030.3321,W,1,8,2.0,17,M,,M,,*5F
06/21/2015	01:03:22.524	$GPGGA,010323,2451.2937,N,08030.3340,W,1,8,2.0,17,M,,M,,*5D
06/21/2015	01:03:23.566	$GPGGA,010324,2451.2929,N,08030.3360,W,1,8,2.0,17,M,,M,,*57
06/21/2015	01:03:24.524	$GPGGA,010325,2451.2922,N,08030.3378,W,1,8,2.0,17,M,,M,,*54
06/21/2015	01:03:25.543	$GPGGA,010326,2451.2915,N,08030.3397,W,1,8,2.0,17,M,,M,,*52
06/21/2015	01:03:26.534	$GPGGA,010327,2451.2907,N,08030.3417,W,1,8,2.0,17,M,,M,,*5F
06/21/2015	01:03:27.524	$GPGGA,010328,2451.2899,N,08030.3436,W,1,8,2.0,17,M,,M,,*55
06/21/2015	01:03:28.524	$GPGGA,010329,2451.2892,N,08030.3454,W,1,8,2.0,17,M,,M,,*5B
06/21/2015	01:03:29.544	$GPGGA,010330,2451.2885,N,08030.3473,W,1,8,2.0,17,M,,M,,*50
06/21/2015	01:03:30.504	$GPGGA,010331,2451.2876,N,08030.3493,W,1,8,2.0,17,M,,M,,*53
06/21/2015	01:03:31.524	$GPGGA,010332,2451.2869,N,08030.3511,W,1,8,2.0,17,M,,M,,*55
06/21/2015	01:03:32.514	$GPGGA,010333,2451.2863,N,08030.3530,W,1,8,2.0,17,M,,M,,*5D
06/21/2015	01:03:33.504	$GPGGA,010334,2451.2854,N,08030.3548,W,1,8,2.0,17,M,,M,,*51
06/21/2015	01:03:34.504	$GPGGA,010335,2451.2846,N,08030.3566,W,1,8,2.0,17,M,,M,,*5F
06/21/2015	01:03:35.544	$GPGGA,010336,2451.2839,N,08030.3585,W,1,8,2.0,17,M,,M,,*59
06/21/2015	01:03:36.514	$GPGGA,010337,2451.2831,N,08030.3605,W,1,8,2.0,17,M,,M,,*5B
06/21/2015	01:03:37.534	$GPGGA,010338,2451.2823,N,08030.3624,W,1,8,2.0,17,M,,M,,*54
06/21/2015	01:03:38.494	$GPGGA,010339,2451.2814,N,08030.3642,W,1,8,2.0,17,M,,M,,*51
06/21/2015	01:03:39.544	$GPGGA,010340,2451.2806,N,08030.3660,W,1,8,2.0,17,M,,M,,*5C
06/21/2015	01:03:40.484	$GPGGA,010341,2451.2798,N,08030.3678,W,1,8,2.0,17,M,,M,,*5C
06/21/2015	01:03:41.514	$GPGGA,010342,2451.2791,N,08030.3696,W,1,8,2.0,17,M,,M,,*56
06/21/2015	01:03:42.513	$GPGGA,010343,2451.2782,N,08030.3715,W,1,8,2.0,17,M,,M,,*5F
06/21/2015	01:03:43.664	$GPGGA,010344,2451.2774,N,08030.3736,W,1,8,2.0,17,M,,M,,*50
06/21/2015	01:03:44.504	$GPGGA,010345,2451.2766,N,08030.3754,W,1,8,2.0,17,M,,M,,*56
06/21/2015	01:03:45.494	$GPGGA,010346,2451.2758,N,08030.3772,W,1,8,2.0,17,M,,M,,*5C
06/21/2015	01:03:46.584	$GPGGA,010347,2451.2751,N,08030.3791,W,1,8,2.9,17,M,,M,,*50
06/21/2015	01:03:47.484	$GPGGA,010348,2451.2744,N,08030.3811,W,1,8,2.0,17,M,,M,,*55
06/21/2015	01:03:48.946	$GPGGA,010349,2451.2735,N,08030.3830,W,1,8,2.0,17,M,,M,,*51
06/21/2015	01:03:49.574	$GPGGA,010350,2451.2726,N,08030.3848,W,1,8,2.0,17,M,,M,,*54
06/21/2015	01:03:50.564	$GPGGA,010351,2451.2719,N,08030.3866,W,1,8,2.0,17,M,,M,,*55
06/21/2015	01:03:51.484	$GPGGA,010352,2451.2711,N,08030.3884,W,1,8,2.0,17,M,,M,,*52
06/21/2015	01:03:52.484	$GPGGA,010353,2451.2704,N,08030.3902,W,1,8,2.0,16,M,,M,,*59
06/21/2015	01:03:53.614	$GPGGA,010354,2451.2695,N,08030.3920,W,1,8,2.0,16,M,,M,,*57
06/21/2015	01:03:54.634	$GPGGA,010355,2451.2688,N,08030.3938,W,1,8,2.0,16,M,,M,,*53
06/21/2015	01:03:55.655	$GPGGA,010356,2451.2680,N,08030.3956,W,1,8,2.0,16,M,,M,,*50
06/21/2015	01:03:56.559	$GPGGA,010357,2451.2672,N,08030.3974,W,1,8,2.0,16,M,,M,,*5C
06/21/2015	01:03:57.584	$GPGGA,010358,2451.2665,N,08030.3993,W,1,8,2.0,16,M,,M,,*5C
06/21/2015	01:03:58.561	$GPGGA,010359,2451.2657,N,08030.4010,W,1,8,2.0,16,M,,M,,*59
06/21/2015	01:03:59.633	$GPGGA,010400,2451.2650,N,08030.4028,W,1,7,2.4,16,M,,M,,*55
06/21/2015	01:04:00.623	$GPGGA,010401,2451.2643,N,08030.4047,W,1,7,2.0,16,M,,M,,*5B
06/21/2015	01:04:01.594	$GPGGA,010402,2451.2634,N,08030.4065,W,1,8,2.0,16,M,,M,,*57
06/21/2015	01:04:02.555	$GPGGA,010403,2451.2626,N,08030.4083,W,1,8,2.0,16,M,,M,,*5D
06/21/2015	01:04:03.614	$GPGGA,010404,2451.2619,N,08030.4102,W,1,8,2.0,16,M,,M,,*5E
06/21/2015	01:04:04.614	$GPGGA,010405,2451.2610,N,08030.4120,W,1,8,2.0,16,M,,M,,*56
06/21/2015	01:04:05.584	$GPGGA,010406,2451.2603,N,08030.4140,W,1,8,2.0,16,M,,M,,*51
06/21/2015	01:04:06.614	$GPGGA,010407,2451.2596,N,08030.4158,W,1,8,2.0,16,M,,M,,*56
06/21/2015	01:04:07.594	$GPGGA,010408,2451.2587,N,08030.4176,W,1,8,2.0,16,M,,M,,*55
06/21/2015	01:04:08.614	$GPGGA,010409,2451.2580,N,08030.4194,W,1,8,2.0,16,M,,M,,*5F
06/21/2015	01:04:09.524	$GPGGA,010410,2451.2572,N,08030.4213,W,1,8,2.0,16,M,,M,,*56
06/21/2015	01:04:10.604	$GPGGA,010411,2451.2565,N,08030.4232,W,1,8,2.0,16,M,,M,,*52
06/21/2015	01:04:11.584	$GPGGA,010412,2451.2557,N,08030.4252,W,1,8,2.0,16,M,,M,,*56
06/21/2015	01:04:12.604	$GPGGA,010413,2451.2549,N,08030.4270,W,1,8,2.0,17,M,,M,,*59
06/21/2015	01:04:13.574	$GPGGA,010414,2451.2542,N,08030.4288,W,1,8,2.0,17,M,,M,,*52
06/21/2015	01:04:14.604	$GPGGA,010415,2451.2533,N,08030.4307,W,1,8,2.0,17,M,,M,,*53
06/21/2015	01:04:15.574	$GPGGA,010416,2451.2527,N,08030.4326,W,1,8,2.0,17,M,,M,,*56
06/21/2015	01:04:16.524	$GPGGA,010417,2451.2517,N,08030.4343,W,1,8,2.0,17,M,,M,,*57
06/21/2015	01:04:17.513	$GPGGA,010418,2451.2509,N,08030.4362,W,1,8,2.0,17,M,,M,,*54
06/21/2015	01:04:18.573	$GPGGA,010419,2451.2502,N,08030.4382,W,1,8,2.0,17,M,,M,,*50
06/21/2015	01:04:19.524	$GPGGA,010420,2451.2493,N,08030.4400,W,1,8,2.0,17,M,,M,,*5E
06/21/2015	01:04:20.584	$GPGGA,010421,2451.2484,N,08030.4418,W,1,8,2.0,17,M,,M,,*50
06/21/2015	01:04:21.567	$GPGGA,010422,2451.2477,N,08030.4436,W,1,8,2.0,17,M,,M,,*53
06/21/2015	01:04:22.504	$GPGGA,010423,2451.2467,N,08030.4454,W,1,8,2.9,17,M,,M,,*5E
06/21/2015	01:04:23.574	$GPGGA,010424,2451.2458,N,08030.4472,W,1,8,2.0,17,M,,M,,*58
06/21/2015	01:04:24.569	$GPGGA,010425,2451.2450,N,08030.4488,W,1,8,2.0,17,M,,M,,*54
06/21/2015	01:04:25.534	$GPGGA,010426,2451.2441,N,08030.4505,W,1,8,2.0,17,M,,M,,*53
06/21/2015	01:04:26.560	$GPGGA,010427,2451.2433,N,08030.4524,W,1,8,2.0,17,M,,M,,*54
06/21/2015	01:04:27.594	$GPGGA,010428,2451.2426,N,08030.4543,W,1,8,2.0,17,M,,M,,*5E
06/21/2015	01:04:28.494	$GPGGA,010429,2451.2417,N,08030.4561,W,1,8,2.0,17,M,,M,,*5D
06/21/2015	01:04:29.494	$GPGGA,010430,2451.2408,N,08030.4581,W,1,8,2.0,17,M,,M,,*55
06/21/2015	01:04:30.578	$GPGGA,010431,2451.2401,N,08030.4600,W,1,8,2.0,17,M,,M,,*57
06/21/2015	01:04:31.624	$GPGGA,010432,2451.2393,N,08030.4620,W,1,8,2.0,17,M,,M,,*5A
06/21/2015	01:04:32.624	$GPGGA,010433,2451.2383,N,08030.4639,W,1,8,2.0,17,M,,M,,*52
06/21/2015	01:04:33.524	$GPGGA,010434,2451.2374,N,08030.4657,W,1,8,2.0,17,M,,M,,*55
06/21/2015	01:04:34.544	$GPGGA,010435,2451.2366,N,08030.4676,W,1,8,2.0,17,M,,M,,*54
06/21/2015	01:04:35.593	$GPGGA,010436,2451.2358,N,08030.4696,W,1,8,2.0,17,M,,M,,*54
06/21/2015	01:04:36.584	$GPGGA,010437,2451.2351,N,08030.4715,W,1,8,2.0,17,M,,M,,*56
06/21/2015	01:04:37.624	$GPGGA,010438,2451.2343,N,08030.4733,W,1,8,2.0,17,M,,M,,*5E
06/21/2015	01:04:38.604	$GPGGA,010439,2451.2334,N,08030.4751,W,1,8,2.0,17,M,,M,,*5B
06/21/2015	01:04:39.554	$GPGGA,010440,2451.2326,N,08030.4770,W,1,8,2.1,18,M,,M,,*5B
06/21/2015	01:04:40.567	$GPGGA,010441,2451.2318,N,08030.4790,W,1,8,2.1,18,M,,M,,*59
06/21/2015	01:04:41.534	$GPGGA,010442,2451.2309,N,08030.4809,W,1,8,2.1,18,M,,M,,*55
06/21/2015	01:04:42.584	$GPGGA,010443,2451.2301,N,08030.4827,W,1,8,2.1,18,M,,M,,*50
06/21/2015	01:04:43.569	$GPGGA,010444,2451.2293,N,08030.4848,W,1,8,2.1,18,M,,M,,*54
06/21/2015	01:04:44.565	$GPGGA,010445,2451.2285,N,08030.4866,W,1,8,2.1,18,M,,M,,*5E
06/21/2015	01:04:45.594	$GPGGA,010446,2451.2276,N,08030.4885,W,1,8,2.1,18,M,,M,,*5C
06/21/2015	01:04:46.554	$GPGGA,010447,2451.2268,N,08030.4904,W,1,8,2.1,17,M,,M,,*55
06/21/2015	01:04:47.565	$GPGGA,010448,2451.2260,N,08030.4924,W,1,8,2.1,17,M,,M,,*50
06/21/2015	01:04:48.565	$GPGGA,010449,2451.2253,N,08030.4942,W,1,8,2.1,17,M,,M,,*51
06/21/2015	01:04:49.574	$GPGGA,010450,2451.2244,N,08030.4961,W,1,8,2.1,17,M,,M,,*5E
06/21/2015	01:04:50.544	$GPGGA,010451,2451.2236,N,08030.4980,W,1,8,2.1,17,M,,M,,*55
06/21/2015	01:04:51.594	$GPGGA,010452,2451.2228,N,08030.4998,W,1,8,2.1,17,M,,M,,*50
06/21/2015	01:04:52.553	$GPGGA,010453,2451.2228,N,08030.4998,W,1,8,2.1,17,M,,M,,*51
06/21/2015	01:04:53.553	$GPGGA,010454,2451.2213,N,08030.5037,W,1,8,2.1,17,M,,M,,*53
06/21/2015	01:04:54.555	$GPGGA,010455,2451.2206,N,08030.5058,W,1,8,2.1,17,M,,M,,*5F
06/21/2015	01:04:55.574	$GPGGA,010456,2451.2196,N,08030.5076,W,1,8,2.1,17,M,,M,,*5A
06/21/2015	01:04:56.564	$GPGGA,010457,2451.2189,N,08030.5098,W,1,8,2.1,17,M,,M,,*55
06/21/2015	01:04:57.594	$GPGGA,010458,2451.2181,N,08030.5117,W,1,8,2.1,17,M,,M,,*54
06/21/2015	01:04:58.554	$GPGGA,010459,2451.2173,N,08030.5137,W,1,8,2.1,17,M,,M,,*5A
06/21/2015	01:04:59.564	$GPGGA,010500,2451.2164,N,08030.5156,W,1,8,2.1,17,M,,M,,*56
06/21/2015	01:05:00.585	$GPGGA,010501,2451.2157,N,08030.5175,W,1,8,2.1,17,M,,M,,*56
06/21/2015	01:05:01.564	$GPGGA,010502,2451.2149,N,08030.5195,W,1,8,2.1,17,M,,M,,*54
06/21/2015	01:05:02.534	$GPGGA,010503,2451.2141,N,08030.5214,W,1,8,2.1,17,M,,M,,*57
06/21/2015	01:05:03.594	$GPGGA,010504,2451.2134,N,08030.5233,W,1,8,2.1,17,M,,M,,*57
06/21/2015	01:05:04.545	$GPGGA,010505,2451.2126,N,08030.5253,W,1,8,2.1,17,M,,M,,*53
06/21/2015	01:05:05.554	$GPGGA,010506,2451.2126,N,08030.5253,W,1,8,2.1,17,M,,M,,*50
06/21/2015	01:05:06.564	$GPGGA,010507,2451.2112,N,08030.5292,W,1,8,2.1,17,M,,M,,*5B
06/21/2015	01:05:07.566	$GPGGA,010508,2451.2104,N,08030.5311,W,1,8,2.1,17,M,,M,,*59
06/21/2015	01:05:08.524	$GPGGA,010509,2451.2104,N,08030.5311,W,1,8,2.1,17,M,,M,,*58
06/21/2015	01:05:09.523	$GPGGA,010510,2451.2097,N,08030.5330,W,1,8,2.1,17,M,,M,,*58
06/21/2015	01:05:10.567	$GPGGA,010511,2451.2083,N,08030.5368,W,1,8,2.1,17,M,,M,,*51
06/21/2015	01:05:11.567	$GPGGA,010512,2451.2074,N,08030.5387,W,1,8,2.1,17,M,,M,,*5B
06/21/2015	01:05:12.544	$GPGGA,010513,2451.2074,N,08030.5387,W,1,8,2.1,17,M,,M,,*5A
06/21/2015	01:05:13.524	$GPGGA,010514,2451.2058,N,08030.5426,W,1,8,2.1,17,M,,M,,*5F
06/21/2015	01:05:14.634	$GPGGA,010515,2451.2050,N,08030.5444,W,1,8,2.1,17,M,,M,,*52
06/21/2015	01:05:15.544	$GPGGA,010516,2451.2043,N,08030.5463,W,1,8,2.1,17,M,,M,,*56
06/21/2015	01:05:16.504	$GPGGA,010517,2451.2043,N,08030.5463,W,1,8,2.1,17,M,,M,,*57
06/21/2015	01:05:17.544	$GPGGA,010518,2451.2029,N,08030.5500,W,1,8,2.1,17,M,,M,,*50
06/21/2015	01:05:18.534	$GPGGA,010519,2451.2029,N,08030.5500,W,1,8,2.1,17,M,,M,,*51
06/21/2015	01:05:19.634	$GPGGA,010520,2451.2012,N,08030.5538,W,1,8,2.1,17,M,,M,,*58
06/21/2015	01:05:20.894	$GPGGA,010521,2451.2004,N,08030.5558,W,1,8,2.1,17,M,,M,,*58
06/21/2015	01:05:21.504	$GPGGA,010522,2451.1996,N,08030.5578,W,1,8,2.1,17,M,,M,,*58
06/21/2015	01:05:22.534	$GPGGA,010523,2451.1987,N,08030.5596,W,1,8,2.1,17,M,,M,,*59
06/21/2015	01:05:23.524	$GPGGA,010524,2451.1979,N,08030.5614,W,1,8,2.1,17,M,,M,,*56
06/21/2015	01:05:24.544	$GPGGA,010525,2451.1971,N,08030.5633,W,1,8,2.1,17,M,,M,,*5A
06/21/2015	01:05:25.474	$GPGGA,010526,2451.1962,N,08030.5651,W,1,8,2.1,17,M,,M,,*5F
06/21/2015	01:05:26.494	$GPGGA,010527,2451.1962,N,08030.5651,W,1,8,2.1,17,M,,M,,*5E
06/21/2015	01:05:27.493	$GPGGA,010528,2451.1945,N,08030.5687,W,1,8,2.1,17,M,,M,,*5F
06/21/2015	01:05:28.576	$GPGGA,010529,2451.1938,N,08030.5706,W,1,8,2.1,17,M,,M,,*5C
06/21/2015	01:05:29.604	$GPGGA,010530,2451.1931,N,08030.5726,W,1,8,2.1,17,M,,M,,*5F
06/21/2015	01:05:30.594	$GPGGA,010531,2451.1921,N,08030.5745,W,1,8,2.4,16,M,,M,,*5E
06/21/2015	01:05:31.584	$GPGGA,010532,2451.1913,N,08030.5766,W,1,8,2.1,16,M,,M,,*58
06/21/2015	01:05:32.584	$GPGGA,010533,2451.1904,N,08030.5785,W,1,8,2.1,16,M,,M,,*52
06/21/2015	01:05:33.594	$GPGGA,010534,2451.1896,N,08030.5805,W,1,8,2.1,16,M,,M,,*58
06/21/2015	01:05:34.561	$GPGGA,010535,2451.1888,N,08030.5824,W,1,8,2.1,16,M,,M,,*55
06/21/2015	01:05:35.574	$GPGGA,010536,2451.1879,N,08030.5842,W,1,8,2.1,16,M,,M,,*58
06/21/2015	01:05:36.557	$GPGGA,010537,2451.1871,N,08030.5861,W,1,8,2.1,16,M,,M,,*50
06/21/2015	01:05:37.554	$GPGGA,010538,2451.1863,N,08030.5879,W,1,8,2.1,16,M,,M,,*55
06/21/2015	01:05:38.555	$GPGGA,010539,2451.1855,N,08030.5899,W,1,8,2.1,16,M,,M,,*5F
06/21/2015	01:05:39.594	$GPGGA,010540,2451.1846,N,08030.5917,W,1,8,2.1,16,M,,M,,*54
06/21/2015	01:05:40.557	$GPGGA,010541,2451.1838,N,08030.5936,W,1,8,2.1,16,M,,M,,*5F
06/21/2015	01:05:41.574	$GPGGA,010542,2451.1830,N,08030.5954,W,1,8,2.1,16,M,,M,,*50
06/21/2015	01:05:42.544	$GPGGA,010543,2451.1820,N,08030.5973,W,1,8,2.1,16,M,,M,,*55
06/21/2015	01:05:43.574	$GPGGA,010544,2451.1812,N,08030.5993,W,1,8,2.1,16,M,,M,,*5D
06/21/2015	01:05:44.543	$GPGGA,010545,2451.1803,N,08030.6012,W,1,8,2.1,16,M,,M,,*5F
06/21/2015	01:05:46.574	$GPGGA,010547,2451.1784,N,08030.6051,W,1,8,2.1,16,M,,M,,*5A
06/21/2015	01:05:47.574	$GPGGA,010548,2451.1776,N,08030.6070,W,1,8,2.1,16,M,,M,,*5B
06/21/2015	01:05:48.544	$GPGGA,010549,2451.1767,N,08030.6089,W,1,8,2.1,16,M,,M,,*5C
06/21/2015	01:05:49.574	$GPGGA,010550,2451.1758,N,08030.6109,W,1,8,2.1,16,M,,M,,*51
06/21/2015	01:05:50.544	$GPGGA,010551,2451.1750,N,08030.6127,W,1,8,2.1,16,M,,M,,*54
06/21/2015	01:05:51.574	$GPGGA,010552,2451.1742,N,08030.6146,W,1,8,2.1,16,M,,M,,*53
06/21/2015	01:05:52.534	$GPGGA,010553,2451.1733,N,08030.6167,W,1,8,2.1,16,M,,M,,*57
06/21/2015	01:05:53.544	$GPGGA,010554,2451.1726,N,08030.6185,W,1,8,2.1,16,M,,M,,*58
06/21/2015	01:05:54.524	$GPGGA,010555,2451.1718,N,08030.6206,W,1,8,2.1,16,M,,M,,*5C
06/21/2015	01:05:55.534	$GPGGA,010556,2451.1708,N,08030.6225,W,1,8,2.1,16,M,,M,,*5F
06/21/2015	01:05:56.524	$GPGGA,010557,2451.1701,N,08030.6244,W,1,8,2.1,16,M,,M,,*50
06/21/2015	01:05:57.514	$GPGGA,010558,2451.1693,N,08030.6264,W,1,8,2.1,16,M,,M,,*57
06/21/2015	01:05:58.534	$GPGGA,010559,2451.1684,N,08030.6283,W,1,8,2.1,16,M,,M,,*59
06/21/2015	01:05:59.604	$GPGGA,010600,2451.1675,N,08030.6302,W,1,8,2.1,16,M,,M,,*50
06/21/2015	01:06:00.514	$GPGGA,010601,2451.1668,N,08030.6322,W,1,8,2.1,16,M,,M,,*5F
06/21/2015	01:06:01.504	$GPGGA,010602,2451.1660,N,08030.6340,W,1,9,1.6,16,M,,M,,*55
06/21/2015	01:06:02.613	$GPGGA,010603,2451.1653,N,08030.6358,W,1,9,2.1,16,M,,M,,*59
06/21/2015	01:06:03.543	$GPGGA,010604,2451.1647,N,08030.6376,W,1,9,1.6,16,M,,M,,*53
06/21/2015	01:06:04.514	$GPGGA,010605,2451.1639,N,08030.6394,W,1,9,1.6,16,M,,M,,*57
06/21/2015	01:06:05.504	$GPGGA,010606,2451.1632,N,08030.6412,W,1,9,1.6,16,M,,M,,*56
06/21/2015	01:06:06.524	$GPGGA,010607,2451.1626,N,08030.6431,W,1,9,1.6,16,M,,M,,*53
06/21/2015	01:06:07.534	$GPGGA,010608,2451.1619,N,08030.6449,W,1,9,1.6,16,M,,M,,*5F
06/21/2015	01:06:08.504	$GPGGA,010609,2451.1611,N,08030.6467,W,1,9,1.6,16,M,,M,,*5A
06/21/2015	01:06:09.504	$GPGGA,010610,2451.1603,N,08030.6488,W,1,9,1.6,16,M,,M,,*50
06/21/2015	01:06:10.584	$GPGGA,010611,2451.1595,N,08030.6507,W,1,9,2.1,16,M,,M,,*5F
06/21/2015	01:06:11.604	$GPGGA,010612,2451.1591,N,08030.6525,W,1,8,2.1,16,M,,M,,*59
06/21/2015	01:06:12.504	$GPGGA,010613,2451.1585,N,08030.6543,W,1,8,1.6,17,M,,M,,*58
06/21/2015	01:06:13.584	$GPGGA,010614,2451.1578,N,08030.6561,W,1,9,1.6,17,M,,M,,*5C
06/21/2015	01:06:14.504	$GPGGA,010615,2451.1571,N,08030.6580,W,1,9,1.6,17,M,,M,,*5B
06/21/2015	01:06:15.504	$GPGGA,010616,2451.1561,N,08030.6600,W,1,9,1.6,17,M,,M,,*52
06/21/2015	01:06:16.604	$GPGGA,010617,2451.1553,N,08030.6618,W,1,9,2.1,17,M,,M,,*5F
06/21/2015	01:06:17.484	$GPGGA,010618,2451.1546,N,08030.6637,W,1,9,1.6,17,M,,M,,*5D
06/21/2015	01:06:18.574	$GPGGA,010619,2451.1537,N,08030.6656,W,1,9,1.6,17,M,,M,,*5D
06/21/2015	01:06:19.623	$GPGGA,010620,2451.1530,N,08030.6676,W,1,9,1.6,17,M,,M,,*52
06/21/2015	01:06:20.573	$GPGGA,010621,2451.1521,N,08030.6695,W,1,9,1.6,17,M,,M,,*5E
06/21/2015	01:06:21.574	$GPGGA,010622,2451.1513,N,08030.6714,W,1,9,1.6,17,M,,M,,*54
06/21/2015	01:06:22.484	$GPGGA,010623,2451.1503,N,08030.6735,W,1,9,1.6,18,M,,M,,*58
06/21/2015	01:06:23.594	$GPGGA,010624,2451.1496,N,08030.6753,W,1,8,2.1,18,M,,M,,*57
06/21/2015	01:06:24.568	$GPGGA,010625,2451.1488,N,08030.6774,W,1,8,1.6,18,M,,M,,*58
06/21/2015	01:06:25.594	$GPGGA,010626,2451.1481,N,08030.6792,W,1,9,1.6,18,M,,M,,*5B
06/21/2015	01:06:26.554	$GPGGA,010627,2451.1474,N,08030.6810,W,1,9,1.6,18,M,,M,,*55
06/21/2015	01:06:27.574	$GPGGA,010628,2451.1465,N,08030.6829,W,1,9,1.6,18,M,,M,,*50
06/21/2015	01:06:28.564	$GPGGA,010629,2451.1458,N,08030.6847,W,1,9,2.1,18,M,,M,,*53
06/21/2015	01:06:29.574	$GPGGA,010630,2451.1448,N,08030.6866,W,1,9,1.6,18,M,,M,,*5D
06/21/2015	01:06:30.544	$GPGGA,010631,2451.1438,N,08030.6886,W,1,9,2.1,18,M,,M,,*51
06/21/2015	01:06:31.604	$GPGGA,010632,2451.1429,N,08030.6904,W,1,8,2.1,18,M,,M,,*58
06/21/2015	01:06:32.555	$GPGGA,010633,2451.1420,N,08030.6923,W,1,8,2.1,18,M,,M,,*55
06/21/2015	01:06:33.554	$GPGGA,010634,2451.1412,N,08030.6944,W,1,8,2.1,18,M,,M,,*52
06/21/2015	01:06:34.544	$GPGGA,010635,2451.1402,N,08030.6963,W,1,8,2.1,18,M,,M,,*57
06/21/2015	01:06:35.584	$GPGGA,010636,2451.1393,N,08030.6983,W,1,8,2.1,18,M,,M,,*55
06/21/2015	01:06:36.544	$GPGGA,010637,2451.1386,N,08030.7002,W,1,8,2.1,18,M,,M,,*51
06/21/2015	01:06:37.573	$GPGGA,010638,2451.1377,N,08030.7023,W,1,8,2.1,18,M,,M,,*53
06/21/2015	01:06:38.543	$GPGGA,010639,2451.1368,N,08030.7041,W,1,8,2.1,17,M,,M,,*57
06/21/2015	01:06:39.544	$GPGGA,010640,2451.1359,N,08030.7060,W,1,8,2.1,17,M,,M,,*58
06/21/2015	01:06:40.534	$GPGGA,010641,2451.1353,N,08030.7079,W,1,8,2.1,17,M,,M,,*5B
06/21/2015	01:06:41.555	$GPGGA,010642,2451.1346,N,08030.7097,W,1,9,1.6,17,M,,M,,*59
06/21/2015	01:06:42.805	$GPGGA,010643,2451.1339,N,08030.7114,W,1,9,1.6,17,M,,M,,*5A
06/21/2015	01:06:43.564	$GPGGA,010644,2451.1331,N,08030.7132,W,1,9,1.6,17,M,,M,,*51
06/21/2015	01:06:44.534	$GPGGA,010645,2451.1324,N,08030.7150,W,1,9,1.6,17,M,,M,,*50
06/21/2015	01:06:45.554	$GPGGA,010646,2451.1317,N,08030.7168,W,1,9,1.6,17,M,,M,,*58
06/21/2015	01:06:46.525	$GPGGA,010647,2451.1310,N,08030.7186,W,1,9,1.6,17,M,,M,,*5E
06/21/2015	01:06:47.559	$GPGGA,010648,2451.1300,N,08030.7205,W,1,9,1.6,17,M,,M,,*58
06/21/2015	01:06:48.524	$GPGGA,010649,2451.1292,N,08030.7225,W,1,9,2.1,17,M,,M,,*55
06/21/2015	01:06:49.561	$GPGGA,010650,2451.1281,N,08030.7243,W,1,8,2.1,18,M,,M,,*51
06/21/2015	01:06:50.524	$GPGGA,010651,2451.1273,N,08030.7261,W,1,8,2.1,18,M,,M,,*5D
06/21/2015	01:06:51.544	$GPGGA,010652,2451.1267,N,08030.7279,W,1,9,1.6,18,M,,M,,*57
06/21/2015	01:06:52.504	$GPGGA,010653,2451.1257,N,08030.7298,W,1,9,1.6,18,M,,M,,*5A
06/21/2015	01:06:53.544	$GPGGA,010654,2451.1248,N,08030.7317,W,1,8,2.1,18,M,,M,,*50
06/21/2015	01:06:54.513	$GPGGA,010655,2451.1238,N,08030.7335,W,1,8,2.1,18,M,,M,,*56
06/21/2015	01:06:56.118	$GPGGA,010656,2451.1230,N,08030.7355,W,1,8,2.1,17,M,,M,,*54
06/21/2015	01:06:56.504	$GPGGA,010657,2451.1221,N,08030.7375,W,1,8,2.1,17,M,,M,,*57
06/21/2015	01:06:57.494	$GPGGA,010658,2451.1212,N,08030.7395,W,1,8,2.1,17,M,,M,,*56
06/21/2015	01:06:58.514	$GPGGA,010659,2451.1203,N,08030.7413,W,1,8,2.1,17,M,,M,,*5E
06/21/2015	01:06:59.559	$GPGGA,010700,2451.1194,N,08030.7432,W,1,8,2.1,17,M,,M,,*5D
06/21/2015	01:07:00.594	$GPGGA,010701,2451.1184,N,08030.7451,W,1,8,2.1,17,M,,M,,*58
06/21/2015	01:07:01.514	$GPGGA,010702,2451.1176,N,08030.7469,W,1,8,2.1,17,M,,M,,*5D
06/21/2015	01:07:02.494	$GPGGA,010703,2451.1170,N,08030.7487,W,1,8,1.6,17,M,,M,,*5E
06/21/2015	01:07:03.524	$GPGGA,010704,2451.1162,N,08030.7505,W,1,9,1.6,17,M,,M,,*50
06/21/2015	01:07:04.504	$GPGGA,010705,2451.1154,N,08030.7523,W,1,9,1.6,17,M,,M,,*50
06/21/2015	01:07:05.574	$GPGGA,010706,2451.1147,N,08030.7541,W,1,9,1.6,17,M,,M,,*55
06/21/2015	01:07:06.574	$GPGGA,010707,2451.1140,N,08030.7561,W,1,9,1.6,17,M,,M,,*51
06/21/2015	01:07:07.574	$GPGGA,010708,2451.1131,N,08030.7579,W,1,9,1.6,17,M,,M,,*51
06/21/2015	01:07:08.564	$GPGGA,010709,2451.1122,N,08030.7598,W,1,9,1.6,17,M,,M,,*5D
06/21/2015	01:07:09.584	$GPGGA,010710,2451.1115,N,08030.7616,W,1,9,1.6,17,M,,M,,*54
06/21/2015	01:07:10.564	$GPGGA,010711,2451.1105,N,08030.7634,W,1,9,1.6,17,M,,M,,*54
06/21/2015	01:07:11.594	$GPGGA,010712,2451.1095,N,08030.7652,W,1,9,1.6,17,M,,M,,*5F
06/21/2015	01:07:12.556	$GPGGA,010713,2451.1086,N,08030.7671,W,1,9,1.6,17,M,,M,,*5D
06/21/2015	01:07:13.573	$GPGGA,010714,2451.1077,N,08030.7691,W,1,8,2.1,17,M,,M,,*5F
06/21/2015	01:07:14.560	$GPGGA,010715,2451.1069,N,08030.7710,W,1,8,2.1,17,M,,M,,*59
06/21/2015	01:07:15.573	$GPGGA,010716,2451.1059,N,08030.7729,W,1,8,2.1,17,M,,M,,*53
06/21/2015	01:07:16.545	$GPGGA,010717,2451.1053,N,08030.7747,W,1,8,2.1,17,M,,M,,*50
06/21/2015	01:07:17.573	$GPGGA,010718,2451.1047,N,08030.7767,W,1,9,1.6,17,M,,M,,*5D
06/21/2015	01:07:18.556	$GPGGA,010719,2451.1040,N,08030.7785,W,1,9,1.6,17,M,,M,,*57
06/21/2015	01:07:19.583	$GPGGA,010720,2451.1033,N,08030.7803,W,1,9,1.6,17,M,,M,,*58
06/21/2015	01:07:20.546	$GPGGA,010721,2451.1025,N,08030.7822,W,1,9,1.6,17,M,,M,,*5D
06/21/2015	01:07:21.562	$GPGGA,010722,2451.1015,N,08030.7843,W,1,8,2.1,17,M,,M,,*5F
06/21/2015	01:07:22.543	$GPGGA,010723,2451.1005,N,08030.7862,W,1,8,2.1,17,M,,M,,*5C
06/21/2015	01:07:23.543	$GPGGA,010724,2451.0996,N,08030.7881,W,1,8,2.1,17,M,,M,,*54
06/21/2015	01:07:24.546	$GPGGA,010725,2451.0992,N,08030.7899,W,1,8,2.1,17,M,,M,,*58
06/21/2015	01:07:25.554	$GPGGA,010726,2451.0985,N,08030.7917,W,1,9,1.6,17,M,,M,,*5F
06/21/2015	01:07:26.534	$GPGGA,010727,2451.0979,N,08030.7935,W,1,9,1.6,17,M,,M,,*5D
06/21/2015	01:07:27.557	$GPGGA,010728,2451.0970,N,08030.7955,W,1,9,1.6,17,M,,M,,*5D
06/21/2015	01:07:28.534	$GPGGA,010729,2451.0963,N,08030.7974,W,1,9,2.4,17,M,,M,,*5C
06/21/2015	01:07:29.523	$GPGGA,010730,2451.0952,N,08030.7995,W,1,7,2.4,17,M,,M,,*57
06/21/2015	01:07:30.523	$GPGGA,010731,2451.0943,N,08030.8016,W,1,7,2.1,17,M,,M,,*5E
06/21/2015	01:07:31.556	$GPGGA,010732,2451.0935,N,08030.8035,W,1,9,1.6,17,M,,M,,*57
06/21/2015	01:07:32.533	$GPGGA,010733,2451.0928,N,08030.8056,W,1,9,1.6,17,M,,M,,*5F
06/21/2015	01:07:33.514	$GPGGA,010734,2451.0919,N,08030.8075,W,1,9,1.6,17,M,,M,,*5B
06/21/2015	01:07:34.513	$GPGGA,010735,2451.0911,N,08030.8094,W,1,9,1.6,17,M,,M,,*5D
06/21/2015	01:07:35.513	$GPGGA,010736,2451.0905,N,08030.8114,W,1,9,1.6,17,M,,M,,*52
06/21/2015	01:07:36.523	$GPGGA,010737,2451.0896,N,08030.8133,W,1,9,1.6,17,M,,M,,*5D
06/21/2015	01:07:37.503	$GPGGA,010738,2451.0889,N,08030.8151,W,1,9,1.6,17,M,,M,,*58
06/21/2015	01:07:38.513	$GPGGA,010739,2451.0882,N,08030.8170,W,1,9,1.6,17,M,,M,,*51
06/21/2015	01:07:39.553	$GPGGA,010740,2451.0874,N,08030.8190,W,1,8,1.9,18,M,,M,,*59
06/21/2015	01:07:40.503	$GPGGA,010741,2451.0865,N,08030.8208,W,1,8,2.1,18,M,,M,,*51
06/21/2015	01:07:41.504	$GPGGA,010742,2451.0858,N,08030.8227,W,1,9,1.6,18,M,,M,,*54
06/21/2015	01:07:42.514	$GPGGA,010743,2451.0851,N,08030.8248,W,1,9,1.6,18,M,,M,,*55
06/21/2015	01:07:43.624	$GPGGA,010744,2451.0841,N,08030.8267,W,1,9,1.6,18,M,,M,,*5E
06/21/2015	01:07:44.614	$GPGGA,010745,2451.0833,N,08030.8287,W,1,9,2.1,18,M,,M,,*50
06/21/2015	01:07:45.614	$GPGGA,010746,2451.0826,N,08030.8306,W,1,9,1.6,18,M,,M,,*5B
06/21/2015	01:07:46.614	$GPGGA,010747,2451.0817,N,08030.8324,W,1,9,1.6,18,M,,M,,*58
06/21/2015	01:07:47.523	$GPGGA,010748,2451.0808,N,08030.8343,W,1,9,1.6,18,M,,M,,*58
06/21/2015	01:07:48.483	$GPGGA,010749,2451.0799,N,08030.8363,W,1,9,2.1,18,M,,M,,*58
06/21/2015	01:07:49.483	$GPGGA,010750,2451.0789,N,08030.8382,W,1,8,2.1,18,M,,M,,*5F
06/21/2015	01:07:50.583	$GPGGA,010751,2451.0783,N,08030.8400,W,1,8,2.1,18,M,,M,,*59
06/21/2015	01:07:51.613	$GPGGA,010752,2451.0779,N,08030.8419,W,1,9,1.6,18,M,,M,,*52
06/21/2015	01:07:52.493	$GPGGA,010753,2451.0771,N,08030.8437,W,1,9,1.6,18,M,,M,,*57
06/21/2015	01:07:53.623	$GPGGA,010754,2451.0761,N,08030.8454,W,1,9,1.6,18,M,,M,,*54
06/21/2015	01:07:54.483	$GPGGA,010755,2451.0754,N,08030.8472,W,1,9,1.6,18,M,,M,,*57
06/21/2015	01:07:55.583	$GPGGA,010756,2451.0746,N,08030.8491,W,1,9,1.6,18,M,,M,,*5A
06/21/2015	01:07:57.633	$GPGGA,010758,2451.0729,N,08030.8526,W,1,9,1.6,19,M,,M,,*51
06/21/2015	01:07:58.573	$GPGGA,010759,2451.0722,N,08030.8544,W,1,9,1.6,19,M,,M,,*5F
06/21/2015	01:07:59.584	$GPGGA,010800,2451.0714,N,08030.8562,W,1,9,1.6,19,M,,M,,*5D
06/21/2015	01:08:00.583	$GPGGA,010801,2451.0704,N,08030.8580,W,1,9,1.6,19,M,,M,,*51
06/21/2015	01:08:01.584	$GPGGA,010802,2451.0696,N,08030.8598,W,1,9,1.6,19,M,,M,,*51
06/21/2015	01:08:02.554	$GPGGA,010803,2451.0685,N,08030.8617,W,1,9,1.6,19,M,,M,,*56
06/21/2015	01:08:03.584	$GPGGA,010804,2451.0674,N,08030.8636,W,1,8,2.1,20,M,,M,,*53
06/21/2015	01:08:04.563	$GPGGA,010805,2451.0663,N,08030.8654,W,1,8,2.1,20,M,,M,,*50
06/21/2015	01:08:05.573	$GPGGA,010806,2451.0653,N,08030.8674,W,1,7,3.0,20,M,,M,,*5D
06/21/2015	01:08:06.546	$GPGGA,010807,2451.0645,N,08030.8692,W,1,7,2.1,20,M,,M,,*53
06/21/2015	01:08:07.583	$GPGGA,010808,2451.0635,N,08030.8710,W,1,9,1.6,20,M,,M,,*5A
06/21/2015	01:08:08.543	$GPGGA,010809,2451.0625,N,08030.8728,W,1,9,2.1,20,M,,M,,*55
06/21/2015	01:08:09.563	$GPGGA,010810,2451.0616,N,08030.8747,W,1,8,2.1,20,M,,M,,*55
06/21/2015	01:08:10.560	$GPGGA,010811,2451.0606,N,08030.8765,W,1,8,1.6,20,M,,M,,*51
06/21/2015	01:08:11.563	$GPGGA,010812,2451.0598,N,08030.8783,W,1,9,1.6,20,M,,M,,*5F
06/21/2015	01:08:12.543	$GPGGA,010813,2451.0588,N,08030.8802,W,1,9,1.6,20,M,,M,,*59
06/21/2015	01:08:13.563	$GPGGA,010814,2451.0578,N,08030.8822,W,1,8,2.1,20,M,,M,,*56
06/21/2015	01:08:14.557	$GPGGA,010815,2451.0570,N,08030.8841,W,1,8,2.1,20,M,,M,,*5A
06/21/2015	01:08:15.563	$GPGGA,010816,2451.0564,N,08030.8859,W,1,8,2.1,20,M,,M,,*55
06/21/2015	01:08:16.534	$GPGGA,010817,2451.0555,N,08030.8878,W,1,8,1.6,20,M,,M,,*51
06/21/2015	01:08:17.534	$GPGGA,010818,2451.0544,N,08030.8898,W,1,8,2.1,20,M,,M,,*54
06/21/2015	01:08:18.524	$GPGGA,010819,2451.0536,N,08030.8916,W,1,8,2.1,20,M,,M,,*57
06/21/2015	01:08:19.574	$GPGGA,010820,2451.0528,N,08030.8936,W,1,8,2.1,20,M,,M,,*50
06/21/2015	01:08:20.524	$GPGGA,010821,2451.0518,N,08030.8954,W,1,8,2.1,20,M,,M,,*56
06/21/2015	01:08:21.514	$GPGGA,010822,2451.0508,N,08030.8974,W,1,8,2.1,20,M,,M,,*56
06/21/2015	01:08:22.523	$GPGGA,010823,2451.0500,N,08030.8993,W,1,8,2.1,20,M,,M,,*56
06/21/2015	01:08:23.523	$GPGGA,010824,2451.0492,N,08030.9014,W,1,8,2.1,20,M,,M,,*5C
06/21/2015	01:08:24.525	$GPGGA,010825,2451.0483,N,08030.9032,W,1,8,2.1,20,M,,M,,*59
06/21/2015	01:08:25.564	$GPGGA,010826,2451.0475,N,08030.9050,W,1,8,2.1,20,M,,M,,*57
06/21/2015	01:08:26.533	$GPGGA,010827,2451.0466,N,08030.9068,W,1,8,2.1,20,M,,M,,*5F
06/21/2015	01:08:27.563	$GPGGA,010828,2451.0458,N,08030.9086,W,1,7,3.0,20,M,,M,,*52
06/21/2015	01:08:28.523	$GPGGA,010829,2451.0450,N,08030.9105,W,1,7,2.0,20,M,,M,,*50
06/21/2015	01:08:29.533	$GPGGA,010830,2451.0441,N,08030.9122,W,1,8,2.1,20,M,,M,,*53
06/21/2015	01:08:30.493	$GPGGA,010831,2451.0434,N,08030.9141,W,1,8,2.1,20,M,,M,,*55
06/21/2015	01:08:31.873	$GPGGA,010832,2451.0426,N,08030.9160,W,1,8,2.1,20,M,,M,,*56
06/21/2015	01:08:32.503	$GPGGA,010833,2451.0417,N,08030.9177,W,1,8,3.0,20,M,,M,,*53
06/21/2015	01:08:33.513	$GPGGA,010834,2451.0410,N,08030.9195,W,1,9,1.6,20,M,,M,,*5A
06/21/2015	01:08:34.504	$GPGGA,010835,2451.0403,N,08030.9216,W,1,9,1.6,20,M,,M,,*51
06/21/2015	01:08:35.494	$GPGGA,010836,2451.0394,N,08030.9234,W,1,8,2.1,20,M,,M,,*5E
06/21/2015	01:08:36.584	$GPGGA,010837,2451.0388,N,08030.9252,W,1,8,1.6,20,M,,M,,*56
06/21/2015	01:08:37.484	$GPGGA,010838,2451.0380,N,08030.9271,W,1,9,1.6,20,M,,M,,*51
06/21/2015	01:08:38.514	$GPGGA,010839,2451.0372,N,08030.9289,W,1,9,1.6,20,M,,M,,*5A
06/21/2015	01:08:39.513	$GPGGA,010840,2451.0365,N,08030.9307,W,1,8,1.9,20,M,,M,,*5B
06/21/2015	01:08:40.483	$GPGGA,010841,2451.0357,N,08030.9328,W,1,8,1.6,20,M,,M,,*59
06/21/2015	01:08:41.613	$GPGGA,010842,2451.0349,N,08030.9346,W,1,8,1.6,20,M,,M,,*5D
06/21/2015	01:08:42.493	$GPGGA,010843,2451.0342,N,08030.9362,W,1,8,1.6,20,M,,M,,*51
06/21/2015	01:08:43.493	$GPGGA,010844,2451.0335,N,08030.9380,W,1,9,1.6,20,M,,M,,*5B
06/21/2015	01:08:44.583	$GPGGA,010845,2451.0328,N,08030.9398,W,1,9,1.6,21,M,,M,,*5E
06/21/2015	01:08:45.583	$GPGGA,010846,2451.0320,N,08030.9416,W,1,9,1.6,21,M,,M,,*54
06/21/2015	01:08:46.573	$GPGGA,010847,2451.0311,N,08030.9434,W,1,9,1.6,21,M,,M,,*57
06/21/2015	01:08:47.648	$GPGGA,010848,2451.0303,N,08030.9454,W,1,9,3.0,21,M,,M,,*59
06/21/2015	01:08:48.573	$GPGGA,010849,2451.0298,N,08030.9472,W,1,9,1.6,21,M,,M,,*5B
06/21/2015	01:08:49.563	$GPGGA,010850,2451.0291,N,08030.9491,W,1,9,1.6,21,M,,M,,*57
06/21/2015	01:08:50.573	$GPGGA,010851,2451.0284,N,08030.9509,W,1,9,1.6,21,M,,M,,*52
06/21/2015	01:08:51.594	$GPGGA,010852,2451.0275,N,08030.9527,W,1,9,1.9,21,M,,M,,*5C
06/21/2015	01:08:52.554	$GPGGA,010853,2451.0267,N,08030.9545,W,1,9,1.9,21,M,,M,,*5A
06/21/2015	01:08:53.564	$GPGGA,010854,2451.0260,N,08030.9566,W,1,8,1.9,21,M,,M,,*5A
06/21/2015	01:08:54.556	$GPGGA,010855,2451.0252,N,08030.9585,W,1,8,1.9,21,M,,M,,*57
06/21/2015	01:08:55.584	$GPGGA,010856,2451.0242,N,08030.9603,W,1,8,1.6,21,M,,M,,*57
06/21/2015	01:08:56.554	$GPGGA,010857,2451.0235,N,08030.9622,W,1,8,1.9,21,M,,M,,*5A
06/21/2015	01:08:57.573	$GPGGA,010858,2451.0229,N,08030.9642,W,1,8,1.9,22,M,,M,,*5D
06/21/2015	01:08:58.553	$GPGGA,010859,2451.0220,N,08030.9661,W,1,8,1.6,22,M,,M,,*5B
06/21/2015	01:08:59.645	$GPGGA,010900,2451.0211,N,08030.9682,W,1,9,1.6,22,M,,M,,*58
06/21/2015	01:09:00.557	$GPGGA,010901,2451.0204,N,08030.9700,W,1,9,1.6,22,M,,M,,*56
06/21/2015	01:09:01.533	$GPGGA,010902,2451.0195,N,08030.9720,W,1,9,1.6,22,M,,M,,*5C
06/21/2015	01:09:02.546	$GPGGA,010903,2451.0186,N,08030.9738,W,1,9,1.6,22,M,,M,,*56
06/21/2015	01:09:03.583	$GPGGA,010904,2451.0177,N,08030.9758,W,1,9,1.6,22,M,,M,,*59
06/21/2015	01:09:04.545	$GPGGA,010905,2451.0169,N,08030.9777,W,1,9,1.6,22,M,,M,,*5A
06/21/2015	01:09:05.533	$GPGGA,010906,2451.0159,N,08030.9796,W,1,9,1.6,22,M,,M,,*55
06/21/2015	01:09:06.523	$GPGGA,010907,2451.0150,N,08030.9816,W,1,9,1.6,22,M,,M,,*5A
06/21/2015	01:09:07.603	$GPGGA,010908,2451.0143,N,08030.9835,W,1,9,1.6,23,M,,M,,*57
06/21/2015	01:09:08.533	$GPGGA,010909,2451.0134,N,08030.9855,W,1,9,1.6,23,M,,M,,*50
06/21/2015	01:09:09.564	$GPGGA,010910,2451.0125,N,08030.9873,W,1,9,1.6,23,M,,M,,*5C
06/21/2015	01:09:10.524	$GPGGA,010911,2451.0115,N,08030.9892,W,1,9,1.6,23,M,,M,,*51
06/21/2015	01:09:11.554	$GPGGA,010912,2451.0107,N,08030.9911,W,1,9,2.1,23,M,,M,,*5F
06/21/2015	01:09:12.534	$GPGGA,010913,2451.0097,N,08030.9931,W,1,9,2.1,23,M,,M,,*54
06/21/2015	01:09:13.555	$GPGGA,010914,2451.0089,N,08030.9949,W,1,8,1.6,23,M,,M,,*56
06/21/2015	01:09:14.513	$GPGGA,010915,2451.0083,N,08030.9967,W,1,8,1.6,23,M,,M,,*51
06/21/2015	01:09:15.533	$GPGGA,010916,2451.0075,N,08030.9986,W,1,9,1.6,23,M,,M,,*55
06/21/2015	01:09:16.523	$GPGGA,010917,2451.0067,N,08031.0005,W,1,9,1.6,23,M,,M,,*5D
06/21/2015	01:09:17.523	$GPGGA,010918,2451.0056,N,08031.0023,W,1,9,1.6,23,M,,M,,*54
06/21/2015	01:09:18.523	$GPGGA,010919,2451.0056,N,08031.0023,W,1,9,1.6,23,M,,M,,*55
06/21/2015	01:09:19.583	$GPGGA,010920,2451.0040,N,08031.0061,W,1,9,3.0,24,M,,M,,*5D
06/21/2015	01:09:20.513	$GPGGA,010921,2451.0033,N,08031.0079,W,1,9,1.6,24,M,,M,,*55
06/21/2015	01:09:21.523	$GPGGA,010922,2451.0023,N,08031.0095,W,1,9,2.0,24,M,,M,,*50
06/21/2015	01:09:22.493	$GPGGA,010923,2451.0015,N,08031.0116,W,1,9,1.6,24,M,,M,,*5B
06/21/2015	01:09:23.533	$GPGGA,010924,2451.0006,N,08031.0134,W,1,9,2.0,24,M,,M,,*5B
06/21/2015	01:09:24.513	$GPGGA,010925,2450.9997,N,08031.0155,W,1,9,1.6,24,M,,M,,*51
06/21/2015	01:09:25.523	$GPGGA,010926,2450.9989,N,08031.0173,W,1,9,1.6,24,M,,M,,*59
06/21/2015	01:09:26.514	$GPGGA,010927,2450.9980,N,08031.0192,W,1,9,1.6,24,M,,M,,*5E
06/21/2015	01:09:27.554	$GPGGA,010928,2450.9973,N,08031.0211,W,1,9,1.6,24,M,,M,,*55
06/21/2015	01:09:28.514	$GPGGA,010929,2450.9964,N,08031.0231,W,1,9,1.6,24,M,,M,,*50
06/21/2015	01:09:29.514	$GPGGA,010930,2450.9955,N,08031.0249,W,1,9,1.6,24,M,,M,,*55
06/21/2015	01:09:30.514	$GPGGA,010931,2450.9946,N,08031.0267,W,1,9,1.6,23,M,,M,,*5D
06/21/2015	01:09:31.634	$GPGGA,010932,2450.9938,N,08031.0285,W,1,9,1.6,23,M,,M,,*5B
06/21/2015	01:09:32.493	$GPGGA,010933,2450.9930,N,08031.0304,W,1,9,1.6,23,M,,M,,*5A
06/21/2015	01:09:33.493	$GPGGA,010934,2450.9921,N,08031.0323,W,1,9,1.6,23,M,,M,,*58
06/21/2015	01:09:34.493	$GPGGA,010935,2450.9913,N,08031.0341,W,1,9,1.9,23,M,,M,,*53
06/21/2015	01:09:35.594	$GPGGA,010936,2450.9904,N,08031.0361,W,1,8,1.9,23,M,,M,,*55
06/21/2015	01:09:36.503	$GPGGA,010937,2450.9897,N,08031.0379,W,1,8,2.4,23,M,,M,,*58
06/21/2015	01:09:37.563	$GPGGA,010938,2450.9887,N,08031.0398,W,1,7,2.4,23,M,,M,,*56
06/21/2015	01:09:38.573	$GPGGA,010939,2450.9877,N,08031.0417,W,1,7,2.4,23,M,,M,,*58
06/21/2015	01:09:39.603	$GPGGA,010940,2450.9869,N,08031.0437,W,1,8,1.9,23,M,,M,,*5A
06/21/2015	01:09:40.561	$GPGGA,010941,2450.9861,N,08031.0457,W,1,8,1.6,22,M,,M,,*5B
06/21/2015	01:09:41.583	$GPGGA,010942,2450.9854,N,08031.0475,W,1,9,1.6,22,M,,M,,*5F
06/21/2015	01:09:42.559	$GPGGA,010943,2450.9846,N,08031.0493,W,1,9,1.6,22,M,,M,,*55
06/21/2015	01:09:43.593	$GPGGA,010944,2450.9839,N,08031.0513,W,1,9,1.6,22,M,,M,,*53
06/21/2015	01:09:44.553	$GPGGA,010945,2450.9832,N,08031.0531,W,1,9,1.6,22,M,,M,,*59
06/21/2015	01:09:45.574	$GPGGA,010946,2450.9825,N,08031.0550,W,1,8,1.9,22,M,,M,,*55
06/21/2015	01:09:46.565	$GPGGA,010947,2450.9816,N,08031.0571,W,1,8,1.6,21,M,,M,,*5B
06/21/2015	01:09:47.604	$GPGGA,010948,2450.9809,N,08031.0590,W,1,9,1.6,21,M,,M,,*54
06/21/2015	01:09:48.558	$GPGGA,010949,2450.9801,N,08031.0610,W,1,9,1.6,21,M,,M,,*56
06/21/2015	01:09:49.556	$GPGGA,010950,2450.9794,N,08031.0629,W,1,9,1.6,21,M,,M,,*57
06/21/2015	01:09:50.546	$GPGGA,010951,2450.9785,N,08031.0648,W,1,9,1.6,21,M,,M,,*51
06/21/2015	01:09:51.603	$GPGGA,010952,2450.9778,N,08031.0668,W,1,9,1.6,21,M,,M,,*52
06/21/2015	01:09:52.533	$GPGGA,010953,2450.9769,N,08031.0686,W,1,9,1.6,21,M,,M,,*53
06/21/2015	01:09:53.533	$GPGGA,010954,2450.9761,N,08031.0705,W,1,9,1.6,20,M,,M,,*57
06/21/2015	01:09:54.543	$GPGGA,010955,2450.9750,N,08031.0723,W,1,9,2.0,20,M,,M,,*55
06/21/2015	01:09:55.563	$GPGGA,010956,2450.9742,N,08031.0741,W,1,9,1.6,20,M,,M,,*54
06/21/2015	01:09:56.546	$GPGGA,010957,2450.9733,N,08031.0759,W,1,9,1.6,20,M,,M,,*5A
06/21/2015	01:09:57.523	$GPGGA,010958,2450.9724,N,08031.0780,W,1,9,1.6,20,M,,M,,*57
06/21/2015	01:09:58.533	$GPGGA,010959,2450.9716,N,08031.0798,W,1,9,1.5,20,M,,M,,*5D
06/21/2015	01:09:59.563	$GPGGA,011000,2450.9707,N,08031.0816,W,1,9,1.5,20,M,,M,,*50
06/21/2015	01:10:00.523	$GPGGA,011001,2450.9698,N,08031.0834,W,1,9,1.5,21,M,,M,,*57
06/21/2015	01:10:01.514	$GPGGA,011002,2450.9691,N,08031.0853,W,1,9,1.5,21,M,,M,,*5C
06/21/2015	01:10:02.514	$GPGGA,011003,2450.9681,N,08031.0870,W,1,9,1.5,21,M,,M,,*5D
06/21/2015	01:10:03.574	$GPGGA,011004,2450.9673,N,08031.0887,W,1,9,1.5,21,M,,M,,*5F
06/21/2015	01:10:04.514	$GPGGA,011005,2450.9666,N,08031.0905,W,1,9,1.5,21,M,,M,,*51
06/21/2015	01:10:05.544	$GPGGA,011006,2450.9657,N,08031.0925,W,1,9,1.5,21,M,,M,,*52
06/21/2015	01:10:06.524	$GPGGA,011007,2450.9649,N,08031.0943,W,1,9,1.5,21,M,,M,,*5C
06/21/2015	01:10:07.643	$GPGGA,011008,2450.9642,N,08031.0961,W,1,9,1.5,21,M,,M,,*58
06/21/2015	01:10:08.513	$GPGGA,011009,2450.9634,N,08031.0980,W,1,9,1.5,21,M,,M,,*57
06/21/2015	01:10:09.513	$GPGGA,011010,2450.9626,N,08031.1001,W,1,9,1.5,21,M,,M,,*5D
06/21/2015	01:10:10.593	$GPGGA,011011,2450.9617,N,08031.1019,W,1,9,1.5,21,M,,M,,*57
06/21/2015	01:10:11.523	$GPGGA,011012,2450.9609,N,08031.1037,W,1,9,1.5,21,M,,M,,*57
06/21/2015	01:10:12.614	$GPGGA,011013,2450.9601,N,08031.1056,W,1,9,1.5,21,M,,M,,*59
06/21/2015	01:10:13.613	$GPGGA,011014,2450.9594,N,08031.1074,W,1,9,1.5,21,M,,M,,*51
06/21/2015	01:10:15.073	$GPGGA,011015,2450.9585,N,08031.1092,W,1,9,1.5,21,M,,M,,*58
06/21/2015	01:10:15.613	$GPGGA,011016,2450.9576,N,08031.1110,W,1,9,1.5,21,M,,M,,*5C
06/21/2015	01:10:16.503	$GPGGA,011017,2450.9568,N,08031.1129,W,1,9,1.5,21,M,,M,,*58
06/21/2015	01:10:17.493	$GPGGA,011018,2450.9559,N,08031.1147,W,1,9,1.5,21,M,,M,,*5D
06/21/2015	01:10:18.483	$GPGGA,011019,2450.9549,N,08031.1167,W,1,9,1.9,21,M,,M,,*53
06/21/2015	01:10:19.634	$GPGGA,011020,2450.9541,N,08031.1185,W,1,7,2.1,21,M,,M,,*58
06/21/2015	01:10:20.594	$GPGGA,011021,2450.9533,N,08031.1204,W,1,7,1.7,21,M,,M,,*53
06/21/2015	01:10:21.624	$GPGGA,011022,2450.9525,N,08031.1223,W,1,9,1.5,21,M,,M,,*5E
06/21/2015	01:10:22.494	$GPGGA,011023,2450.9516,N,08031.1243,W,1,9,1.6,21,M,,M,,*5A
06/21/2015	01:10:23.494	$GPGGA,011024,2450.9508,N,08031.1261,W,1,7,1.8,21,M,,M,,*52
06/21/2015	01:10:24.584	$GPGGA,011025,2450.9500,N,08031.1280,W,1,7,1.6,21,M,,M,,*5A
06/21/2015	01:10:25.603	$GPGGA,011026,2450.9493,N,08031.1301,W,1,9,1.6,21,M,,M,,*54
06/21/2015	01:10:26.573	$GPGGA,011027,2450.9485,N,08031.1319,W,1,9,1.6,21,M,,M,,*5B
06/21/2015	01:10:27.583	$GPGGA,011028,2450.9476,N,08031.1337,W,1,9,1.6,21,M,,M,,*54
06/21/2015	01:10:28.573	$GPGGA,011029,2450.9471,N,08031.1356,W,1,9,1.6,21,M,,M,,*55
06/21/2015	01:10:29.563	$GPGGA,011030,2450.9464,N,08031.1376,W,1,9,1.5,21,M,,M,,*58
06/21/2015	01:10:30.563	$GPGGA,011031,2450.9456,N,08031.1394,W,1,9,1.9,21,M,,M,,*58
06/21/2015	01:10:31.613	$GPGGA,011032,2450.9449,N,08031.1413,W,1,9,1.6,21,M,,M,,*52
06/21/2015	01:10:32.563	$GPGGA,011033,2450.9442,N,08031.1432,W,1,9,1.6,21,M,,M,,*5B
06/21/2015	01:10:33.553	$GPGGA,011034,2450.9433,N,08031.1452,W,1,8,1.9,21,M,,M,,*52
06/21/2015	01:10:34.573	$GPGGA,011035,2450.9425,N,08031.1471,W,1,8,1.9,21,M,,M,,*55
06/21/2015	01:10:35.583	$GPGGA,011036,2450.9417,N,08031.1490,W,1,8,1.9,21,M,,M,,*58
06/21/2015	01:10:36.555	$GPGGA,011037,2450.9410,N,08031.1510,W,1,8,1.9,21,M,,M,,*57
06/21/2015	01:10:37.564	$GPGGA,011038,2450.9403,N,08031.1528,W,1,8,1.9,21,M,,M,,*51
06/21/2015	01:10:38.554	$GPGGA,011039,2450.9396,N,08031.1546,W,1,8,1.6,21,M,,M,,*5C
06/21/2015	01:10:39.555	$GPGGA,011040,2450.9388,N,08031.1564,W,1,8,1.9,20,M,,M,,*53
06/21/2015	01:10:40.544	$GPGGA,011041,2450.9377,N,08031.1582,W,1,8,1.6,20,M,,M,,*55
06/21/2015	01:10:41.564	$GPGGA,011042,2450.9370,N,08031.1602,W,1,9,1.5,20,M,,M,,*58
06/21/2015	01:10:42.533	$GPGGA,011043,2450.9361,N,08031.1622,W,1,9,1.5,20,M,,M,,*5B
06/21/2015	01:10:43.583	$GPGGA,011044,2450.9352,N,08031.1642,W,1,9,1.5,20,M,,M,,*5A
06/21/2015	01:10:44.533	$GPGGA,011045,2450.9343,N,08031.1662,W,1,9,1.5,20,M,,M,,*59
06/21/2015	01:10:45.533	$GPGGA,011046,2450.9335,N,08031.1681,W,1,9,1.5,20,M,,M,,*56
06/21/2015	01:10:46.533	$GPGGA,011047,2450.9326,N,08031.1699,W,1,9,1.5,20,M,,M,,*5C
06/21/2015	01:10:47.573	$GPGGA,011048,2450.9317,N,08031.1719,W,1,10,1.5,20,M,,M,,*60
06/21/2015	01:10:48.543	$GPGGA,011049,2450.9309,N,08031.1738,W,1,10,1.5,20,M,,M,,*6D
06/21/2015	01:10:49.563	$GPGGA,011050,2450.9301,N,08031.1756,W,1,10,1.5,20,M,,M,,*65
06/21/2015	01:10:50.533	$GPGGA,011051,2450.9291,N,08031.1775,W,1,10,1.5,20,M,,M,,*6D
06/21/2015	01:10:51.564	$GPGGA,011052,2450.9283,N,08031.1795,W,1,10,1.5,20,M,,M,,*63
06/21/2015	01:10:52.514	$GPGGA,011053,2450.9272,N,08031.1814,W,1,10,1.5,20,M,,M,,*6A
06/21/2015	01:10:53.513	$GPGGA,011054,2450.9262,N,08031.1832,W,1,9,1.9,20,M,,M,,*5C
06/21/2015	01:10:54.534	$GPGGA,011055,2450.9254,N,08031.1850,W,1,9,1.9,20,M,,M,,*5C
06/21/2015	01:10:55.647	$GPGGA,011056,2450.9245,N,08031.1869,W,1,10,1.5,20,M,,M,,*61
06/21/2015	01:10:56.614	$GPGGA,011057,2450.9236,N,08031.1889,W,1,10,1.5,20,M,,M,,*6A
06/21/2015	01:10:57.545	$GPGGA,011058,2450.9227,N,08031.1908,W,1,10,1.5,20,M,,M,,*6D
06/21/2015	01:10:58.504	$GPGGA,011059,2450.9219,N,08031.1926,W,1,10,1.5,20,M,,M,,*6D
06/21/2015	01:10:59.545	$GPGGA,011100,2450.9211,N,08031.1944,W,1,10,1.5,20,M,,M,,*6C
06/21/2015	01:11:00.513	$GPGGA,011101,2450.9202,N,08031.1963,W,1,10,1.7,20,M,,M,,*68
06/21/2015	01:11:01.623	$GPGGA,011102,2450.9194,N,08031.1983,W,1,9,1.6,20,M,,M,,*50
06/21/2015	01:11:02.613	$GPGGA,011103,2450.9187,N,08031.2002,W,1,9,1.6,20,M,,M,,*50
06/21/2015	01:11:03.523	$GPGGA,011104,2450.9179,N,08031.2023,W,1,9,1.6,20,M,,M,,*55
06/21/2015	01:11:04.493	$GPGGA,011105,2450.9171,N,08031.2041,W,1,9,1.6,20,M,,M,,*58
06/21/2015	01:11:05.493	$GPGGA,011106,2450.9162,N,08031.2061,W,1,9,1.6,20,M,,M,,*5B
06/21/2015	01:11:06.504	$GPGGA,011107,2450.9156,N,08031.2081,W,1,9,1.6,20,M,,M,,*53
06/21/2015	01:11:07.493	$GPGGA,011108,2450.9150,N,08031.2100,W,1,10,1.5,21,M,,M,,*68
06/21/2015	01:11:08.583	$GPGGA,011109,2450.9142,N,08031.2120,W,1,10,1.5,21,M,,M,,*68
06/21/2015	01:11:09.483	$GPGGA,011110,2450.9133,N,08031.2139,W,1,9,1.6,21,M,,M,,*55
06/21/2015	01:11:10.493	$GPGGA,011111,2450.9125,N,08031.2157,W,1,9,1.6,21,M,,M,,*5B
06/21/2015	01:11:11.504	$GPGGA,011112,2450.9117,N,08031.2178,W,1,10,1.5,21,M,,M,,*6F
06/21/2015	01:11:12.584	$GPGGA,011113,2450.9108,N,08031.2197,W,1,10,1.5,21,M,,M,,*61
06/21/2015	01:11:13.484	$GPGGA,011114,2450.9099,N,08031.2215,W,1,10,1.5,21,M,,M,,*66
06/21/2015	01:11:14.594	$GPGGA,011115,2450.9089,N,08031.2234,W,1,10,1.5,21,M,,M,,*65
06/21/2015	01:11:15.594	$GPGGA,011116,2450.9079,N,08031.2252,W,1,9,1.9,21,M,,M,,*5D
06/21/2015	01:11:16.564	$GPGGA,011117,2450.9070,N,08031.2272,W,1,9,1.5,21,M,,M,,*5B
06/21/2015	01:11:17.573	$GPGGA,011118,2450.9061,N,08031.2291,W,1,10,1.5,21,M,,M,,*61
06/21/2015	01:11:18.563	$GPGGA,011119,2450.9052,N,08031.2310,W,1,10,1.5,21,M,,M,,*68
06/21/2015	01:11:19.603	$GPGGA,011120,2450.9042,N,08031.2330,W,1,10,1.5,22,M,,M,,*62
06/21/2015	01:11:20.573	$GPGGA,011121,2450.9034,N,08031.2348,W,1,10,1.5,22,M,,M,,*6D
06/21/2015	01:11:21.583	$GPGGA,011122,2450.9025,N,08031.2367,W,1,9,1.6,22,M,,M,,*58
06/21/2015	01:11:22.563	$GPGGA,011123,2450.9017,N,08031.2385,W,1,9,1.5,22,M,,M,,*57
06/21/2015	01:11:23.593	$GPGGA,011124,2450.9009,N,08031.2403,W,1,10,1.5,22,M,,M,,*6E
06/21/2015	01:11:24.553	$GPGGA,011125,2450.9001,N,08031.2422,W,1,10,1.5,22,M,,M,,*64
06/21/2015	01:11:25.573	$GPGGA,011126,2450.8992,N,08031.2440,W,1,10,1.5,22,M,,M,,*61
06/21/2015	01:11:26.543	$GPGGA,011127,2450.8984,N,08031.2460,W,1,10,1.5,22,M,,M,,*65
06/21/2015	01:11:27.603	$GPGGA,011128,2450.8976,N,08031.2476,W,1,10,1.5,22,M,,M,,*60
06/21/2015	01:11:28.552	$GPGGA,011129,2450.8967,N,08031.2496,W,1,10,1.5,22,M,,M,,*6F
06/21/2015	01:11:29.564	$GPGGA,011130,2450.8959,N,08031.2514,W,1,10,1.5,22,M,,M,,*61
06/21/2015	01:11:30.554	$GPGGA,011131,2450.8951,N,08031.2533,W,1,10,1.5,22,M,,M,,*6D
06/21/2015	01:11:31.584	$GPGGA,011132,2450.8941,N,08031.2551,W,1,10,1.5,23,M,,M,,*6A
06/21/2015	01:11:32.557	$GPGGA,011133,2450.8933,N,08031.2570,W,1,10,1.5,23,M,,M,,*6D
06/21/2015	01:11:33.534	$GPGGA,011134,2450.8924,N,08031.2588,W,1,10,1.5,23,M,,M,,*6B
06/21/2015	01:11:34.543	$GPGGA,011135,2450.8914,N,08031.2606,W,1,10,1.5,23,M,,M,,*6C
06/21/2015	01:11:35.583	$GPGGA,011136,2450.8906,N,08031.2626,W,1,10,1.5,23,M,,M,,*6E
06/21/2015	01:11:36.533	$GPGGA,011137,2450.8898,N,08031.2644,W,1,10,1.5,23,M,,M,,*6D
06/21/2015	01:11:37.553	$GPGGA,011138,2450.8889,N,08031.2662,W,1,9,1.9,23,M,,M,,*52
06/21/2015	01:11:38.533	$GPGGA,011139,2450.8879,N,08031.2680,W,1,9,1.9,23,M,,M,,*50
06/21/2015	01:11:39.533	$GPGGA,011140,2450.8871,N,08031.2699,W,1,10,1.5,23,M,,M,,*6A
06/21/2015	01:11:40.523	$GPGGA,011141,2450.8862,N,08031.2717,W,1,10,1.5,23,M,,M,,*6E
06/21/2015	01:11:41.513	$GPGGA,011142,2450.8853,N,08031.2735,W,1,9,1.9,23,M,,M,,*5B
06/21/2015	01:11:42.523	$GPGGA,011143,2450.8846,N,08031.2756,W,1,9,1.5,23,M,,M,,*57
06/21/2015	01:11:43.548	$GPGGA,011144,2450.8837,N,08031.2775,W,1,10,1.5,23,M,,M,,*6F
06/21/2015	01:11:44.513	$GPGGA,011145,2450.8829,N,08031.2794,W,1,10,1.5,23,M,,M,,*6E
06/21/2015	01:11:45.513	$GPGGA,011146,2450.8820,N,08031.2812,W,1,10,1.5,23,M,,M,,*65
06/21/2015	01:11:46.514	$GPGGA,011147,2450.8812,N,08031.2832,W,1,10,1.7,23,M,,M,,*65
06/21/2015	01:11:47.544	$GPGGA,011148,2450.8804,N,08031.2850,W,1,9,1.7,23,M,,M,,*51
06/21/2015	01:11:48.645	$GPGGA,011149,2450.8797,N,08031.2868,W,1,9,1.9,23,M,,M,,*50
06/21/2015	01:11:49.684	$GPGGA,011150,2450.8788,N,08031.2887,W,1,9,1.7,23,M,,M,,*59
