Software Version Number: 1	Data File Format Number: 1	Build Version Number: 1	Error Count Since VI Started: 3	Manufacturer: Raytheon	 Model Number: RayMarine 120	 S/N: 	 Cal Date: 	 Wind Direction Offset: 0.00	 Slope (M)1: 0.00	 Offset (B)1: 0.00	 Slope (M)2: 0.00	 Offset (B)2: 0.00	 Slope (M)3: 0.00	 Offset (B)3: 0.00	 Slope (M)4: 0.00	 Offset (B)4: 0.00	 Slope (M)5: 0.00	 Offset (B)5: 0.00	 Slope (M)6: 0.00	 Offset (B)6: 0.00
Computer Date	Computer Time	GGA String
06/24/2015	15:00:00.515	$GPGGA,150001,2517.9930,N,08004.5602,W,1,10,1.5,10,M,,M,,*6E
06/24/2015	15:00:01.594	$GPGGA,150002,2517.9933,N,08004.5599,W,1,10,1.5,10,M,,M,,*6F
06/24/2015	15:00:02.494	$GPGGA,150003,2517.9933,N,08004.5598,W,1,10,1.5,10,M,,M,,*6F
06/24/2015	15:00:03.604	$GPGGA,150004,2517.9937,N,08004.5600,W,1,10,1.5,10,M,,M,,*6E
06/24/2015	15:00:04.504	$GPGGA,150005,2517.9939,N,08004.5595,W,1,10,1.5,10,M,,M,,*6E
06/24/2015	15:00:05.486	$GPGGA,150006,2517.9940,N,08004.5592,W,1,10,1.5,10,M,,M,,*64
06/24/2015	15:00:06.588	$GPGGA,150007,2517.9943,N,08004.5591,W,1,10,1.5,10,M,,M,,*65
06/24/2015	15:00:07.594	$GPGGA,150008,2517.9944,N,08004.5592,W,1,10,1.5,10,M,,M,,*6E
06/24/2015	15:00:08.494	$GPGGA,150009,2517.9947,N,08004.5588,W,1,10,1.5,10,M,,M,,*67
06/24/2015	15:00:09.584	$GPGGA,150010,2517.9948,N,08004.5586,W,1,10,1.5,10,M,,M,,*6E
06/24/2015	15:00:10.486	$GPGGA,150011,2517.9951,N,08004.5586,W,1,10,1.5,10,M,,M,,*67
06/24/2015	15:00:11.586	$GPGGA,150012,2517.9951,N,08004.5584,W,1,10,1.5,10,M,,M,,*66
06/24/2015	15:00:12.581	$GPGGA,150013,2517.9954,N,08004.5582,W,1,10,1.5,10,M,,M,,*64
06/24/2015	15:00:13.605	$GPGGA,150014,2517.9955,N,08004.5581,W,1,10,1.5,10,M,,M,,*61
06/24/2015	15:00:14.565	$GPGGA,150015,2517.9958,N,08004.5579,W,1,10,1.5,10,M,,M,,*6A
06/24/2015	15:00:15.595	$GPGGA,150016,2517.9959,N,08004.5577,W,1,10,1.5,10,M,,M,,*66
06/24/2015	15:00:16.565	$GPGGA,150017,2517.9962,N,08004.5575,W,1,10,1.5,10,M,,M,,*6D
06/24/2015	15:00:17.565	$GPGGA,150018,2517.9964,N,08004.5575,W,1,10,1.5,10,M,,M,,*64
06/24/2015	15:00:18.565	$GPGGA,150019,2517.9966,N,08004.5572,W,1,10,1.5,10,M,,M,,*60
06/24/2015	15:00:19.594	$GPGGA,150020,2517.9968,N,08004.5569,W,1,10,1.5,10,M,,M,,*6E
06/24/2015	15:00:20.554	$GPGGA,150021,2517.9969,N,08004.5569,W,1,10,1.5,10,M,,M,,*6E
06/24/2015	15:00:21.594	$GPGGA,150022,2517.9971,N,08004.5568,W,1,10,1.5,10,M,,M,,*65
06/24/2015	15:00:22.554	$GPGGA,150023,2517.9973,N,08004.5564,W,1,10,1.5,9,M,,M,,*52
06/24/2015	15:00:25.065	$GPGGA,150025,2517.9976,N,08004.5563,W,1,10,1.5,9,M,,M,,*56
06/24/2015	15:00:25.564	$GPGGA,150026,2517.9977,N,08004.5559,W,1,10,1.5,9,M,,M,,*5D
06/24/2015	15:00:26.544	$GPGGA,150027,2517.9980,N,08004.5557,W,1,10,1.5,9,M,,M,,*5A
06/24/2015	15:00:27.584	$GPGGA,150028,2517.9982,N,08004.5556,W,1,10,1.5,9,M,,M,,*56
06/24/2015	15:00:28.544	$GPGGA,150029,2517.9984,N,08004.5554,W,1,10,1.5,9,M,,M,,*53
06/24/2015	15:00:29.577	$GPGGA,150030,2517.9984,N,08004.5551,W,1,10,1.5,9,M,,M,,*5E
06/24/2015	15:00:30.525	$GPGGA,150031,2517.9987,N,08004.5551,W,1,10,1.5,9,M,,M,,*5C
06/24/2015	15:00:31.545	$GPGGA,150032,2517.9988,N,08004.5550,W,1,10,1.5,9,M,,M,,*51
06/24/2015	15:00:32.535	$GPGGA,150033,2517.9991,N,08004.5546,W,1,10,1.5,9,M,,M,,*5F
06/24/2015	15:00:33.545	$GPGGA,150034,2517.9993,N,08004.5544,W,1,10,1.5,9,M,,M,,*58
06/24/2015	15:00:34.535	$GPGGA,150035,2517.9995,N,08004.5545,W,1,10,1.5,9,M,,M,,*5E
06/24/2015	15:00:35.545	$GPGGA,150036,2517.9995,N,08004.5541,W,1,10,1.5,9,M,,M,,*59
06/24/2015	15:00:36.524	$GPGGA,150037,2517.9998,N,08004.5539,W,1,10,1.5,9,M,,M,,*5A
06/24/2015	15:00:37.514	$GPGGA,150038,2518.0000,N,08004.5538,W,1,10,1.5,9,M,,M,,*5A
06/24/2015	15:00:38.524	$GPGGA,150039,2518.0002,N,08004.5536,W,1,10,1.5,9,M,,M,,*57
06/24/2015	15:00:39.534	$GPGGA,150040,2518.0002,N,08004.5534,W,1,10,1.5,9,M,,M,,*5B
06/24/2015	15:00:40.504	$GPGGA,150041,2518.0005,N,08004.5533,W,1,10,1.5,9,M,,M,,*5A
06/24/2015	15:00:41.504	$GPGGA,150042,2518.0006,N,08004.5531,W,1,10,1.5,9,M,,M,,*58
06/24/2015	15:00:42.494	$GPGGA,150043,2518.0009,N,08004.5529,W,1,10,1.5,9,M,,M,,*5F
06/24/2015	15:00:43.544	$GPGGA,150044,2518.0011,N,08004.5528,W,1,10,1.5,9,M,,M,,*50
06/24/2015	15:00:44.494	$GPGGA,150045,2518.0013,N,08004.5527,W,1,10,1.5,9,M,,M,,*5C
06/24/2015	15:00:45.514	$GPGGA,150046,2518.0015,N,08004.5524,W,1,10,1.5,9,M,,M,,*5A
06/24/2015	15:00:46.494	$GPGGA,150047,2518.0016,N,08004.5521,W,1,10,1.5,9,M,,M,,*5D
06/24/2015	15:00:47.494	$GPGGA,150048,2518.0018,N,08004.5521,W,1,10,1.5,9,M,,M,,*5C
06/24/2015	15:00:48.615	$GPGGA,150049,2518.0019,N,08004.5520,W,1,10,1.5,9,M,,M,,*5D
06/24/2015	15:00:49.505	$GPGGA,150050,2518.0020,N,08004.5515,W,1,10,1.5,9,M,,M,,*59
06/24/2015	15:00:50.505	$GPGGA,150051,2518.0023,N,08004.5516,W,1,10,1.5,8,M,,M,,*59
06/24/2015	15:00:51.655	$GPGGA,150052,2518.0024,N,08004.5515,W,1,10,1.5,8,M,,M,,*5E
06/24/2015	15:00:52.495	$GPGGA,150053,2518.0027,N,08004.5512,W,1,10,1.5,8,M,,M,,*5B
06/24/2015	15:00:53.615	$GPGGA,150054,2518.0030,N,08004.5509,W,1,10,1.5,8,M,,M,,*50
06/24/2015	15:00:54.486	$GPGGA,150055,2518.0031,N,08004.5509,W,1,10,1.5,8,M,,M,,*50
06/24/2015	15:00:55.644	$GPGGA,150056,2518.0034,N,08004.5508,W,1,10,1.5,8,M,,M,,*57
06/24/2015	15:00:56.484	$GPGGA,150057,2518.0036,N,08004.5505,W,1,10,1.5,8,M,,M,,*59
06/24/2015	15:00:57.594	$GPGGA,150058,2518.0038,N,08004.5503,W,1,10,1.5,8,M,,M,,*5E
06/24/2015	15:00:58.581	$GPGGA,150059,2518.0040,N,08004.5503,W,1,10,1.5,8,M,,M,,*50
06/24/2015	15:00:59.634	$GPGGA,150100,2518.0042,N,08004.5500,W,1,10,1.5,8,M,,M,,*5C
06/24/2015	15:01:00.580	$GPGGA,150101,2518.0045,N,08004.5498,W,1,10,1.5,8,M,,M,,*5A
06/24/2015	15:01:01.585	$GPGGA,150102,2518.0048,N,08004.5497,W,1,10,1.5,8,M,,M,,*5B
06/24/2015	15:01:02.564	$GPGGA,150103,2518.0049,N,08004.5495,W,1,10,1.5,8,M,,M,,*59
06/24/2015	15:01:03.604	$GPGGA,150104,2518.0051,N,08004.5492,W,1,10,1.5,8,M,,M,,*50
06/24/2015	15:01:04.554	$GPGGA,150105,2518.0053,N,08004.5492,W,1,10,1.5,8,M,,M,,*53
06/24/2015	15:01:05.578	$GPGGA,150106,2518.0056,N,08004.5490,W,1,10,1.5,8,M,,M,,*57
06/24/2015	15:01:06.555	$GPGGA,150107,2518.0058,N,08004.5488,W,1,10,1.5,8,M,,M,,*51
06/24/2015	15:01:07.588	$GPGGA,150108,2518.0060,N,08004.5486,W,1,10,1.5,8,M,,M,,*5B
06/24/2015	15:01:08.565	$GPGGA,150109,2518.0063,N,08004.5486,W,1,10,1.5,8,M,,M,,*59
06/24/2015	15:01:09.545	$GPGGA,150110,2518.0066,N,08004.5484,W,1,10,1.5,8,M,,M,,*56
06/24/2015	15:01:10.545	$GPGGA,150111,2518.0067,N,08004.5482,W,1,10,1.5,8,M,,M,,*50
06/24/2015	15:01:11.589	$GPGGA,150112,2518.0069,N,08004.5480,W,1,10,1.5,8,M,,M,,*5F
06/24/2015	15:01:12.554	$GPGGA,150113,2518.0070,N,08004.5479,W,1,10,1.5,8,M,,M,,*50
06/24/2015	15:01:13.534	$GPGGA,150114,2518.0074,N,08004.5478,W,1,10,1.5,8,M,,M,,*52
06/24/2015	15:01:14.554	$GPGGA,150115,2518.0076,N,08004.5477,W,1,10,1.5,8,M,,M,,*5E
06/24/2015	15:01:15.596	$GPGGA,150116,2518.0078,N,08004.5473,W,1,10,1.5,8,M,,M,,*57
06/24/2015	15:01:16.534	$GPGGA,150117,2518.0080,N,08004.5473,W,1,10,1.5,8,M,,M,,*51
06/24/2015	15:01:17.534	$GPGGA,150118,2518.0081,N,08004.5473,W,1,10,1.6,8,M,,M,,*5C
06/24/2015	15:01:18.524	$GPGGA,150119,2518.0085,N,08004.5471,W,1,10,1.5,8,M,,M,,*58
06/24/2015	15:01:19.564	$GPGGA,150120,2518.0087,N,08004.5468,W,1,10,1.5,8,M,,M,,*58
06/24/2015	15:01:20.534	$GPGGA,150121,2518.0088,N,08004.5470,W,1,10,1.6,8,M,,M,,*5C
06/24/2015	15:01:21.524	$GPGGA,150122,2518.0092,N,08004.5467,W,1,9,1.5,8,M,,M,,*69
06/24/2015	15:01:22.534	$GPGGA,150123,2518.0095,N,08004.5465,W,1,9,1.5,8,M,,M,,*6D
06/24/2015	15:01:23.555	$GPGGA,150124,2518.0096,N,08004.5463,W,1,10,1.5,8,M,,M,,*57
06/24/2015	15:01:24.525	$GPGGA,150125,2518.0099,N,08004.5463,W,1,10,1.5,8,M,,M,,*59
06/24/2015	15:01:25.625	$GPGGA,150126,2518.0102,N,08004.5462,W,1,10,1.5,8,M,,M,,*58
06/24/2015	15:01:26.535	$GPGGA,150127,2518.0105,N,08004.5458,W,1,10,1.5,8,M,,M,,*57
06/24/2015	15:01:27.545	$GPGGA,150128,2518.0107,N,08004.5457,W,1,10,1.5,8,M,,M,,*55
06/24/2015	15:01:28.525	$GPGGA,150129,2518.0110,N,08004.5457,W,1,10,1.5,8,M,,M,,*52
06/24/2015	15:01:29.604	$GPGGA,150130,2518.0113,N,08004.5455,W,1,10,1.5,8,M,,M,,*5B
06/24/2015	15:01:30.614	$GPGGA,150131,2518.0114,N,08004.5452,W,1,10,1.5,8,M,,M,,*5A
06/24/2015	15:01:31.564	$GPGGA,150132,2518.0117,N,08004.5451,W,1,10,1.5,8,M,,M,,*59
06/24/2015	15:01:32.591	$GPGGA,150133,2518.0118,N,08004.5452,W,1,10,1.5,8,M,,M,,*54
06/24/2015	15:01:33.614	$GPGGA,150134,2518.0121,N,08004.5449,W,1,10,1.5,8,M,,M,,*53
06/24/2015	15:01:34.588	$GPGGA,150135,2518.0124,N,08004.5446,W,1,10,1.5,8,M,,M,,*58
06/24/2015	15:01:35.614	$GPGGA,150136,2518.0125,N,08004.5445,W,1,10,1.5,8,M,,M,,*59
06/24/2015	15:01:36.514	$GPGGA,150137,2518.0127,N,08004.5444,W,1,10,1.5,8,M,,M,,*5B
06/24/2015	15:01:37.589	$GPGGA,150138,2518.0128,N,08004.5443,W,1,10,1.5,8,M,,M,,*5C
06/24/2015	15:01:38.579	$GPGGA,150139,2518.0130,N,08004.5440,W,1,10,1.5,8,M,,M,,*57
06/24/2015	15:01:39.544	$GPGGA,150140,2518.0132,N,08004.5439,W,1,10,1.5,8,M,,M,,*55
06/24/2015	15:01:40.505	$GPGGA,150141,2518.0134,N,08004.5437,W,1,10,1.5,9,M,,M,,*5D
06/24/2015	15:01:41.578	$GPGGA,150142,2518.0135,N,08004.5436,W,1,10,1.5,9,M,,M,,*5E
06/24/2015	15:01:42.565	$GPGGA,150143,2518.0138,N,08004.5434,W,1,10,1.5,9,M,,M,,*50
06/24/2015	15:01:43.615	$GPGGA,150144,2518.0139,N,08004.5431,W,1,10,1.5,9,M,,M,,*53
06/24/2015	15:01:44.565	$GPGGA,150145,2518.0142,N,08004.5429,W,1,10,1.5,9,M,,M,,*57
06/24/2015	15:01:45.588	$GPGGA,150146,2518.0143,N,08004.5428,W,1,10,1.5,9,M,,M,,*54
06/24/2015	15:01:46.564	$GPGGA,150147,2518.0146,N,08004.5427,W,1,10,1.5,9,M,,M,,*5F
06/24/2015	15:01:47.614	$GPGGA,150148,2518.0148,N,08004.5426,W,1,10,1.5,9,M,,M,,*5F
06/24/2015	15:01:48.564	$GPGGA,150149,2518.0150,N,08004.5422,W,1,10,1.5,9,M,,M,,*53
06/24/2015	15:01:49.554	$GPGGA,150150,2518.0152,N,08004.5421,W,1,10,1.5,9,M,,M,,*5A
06/24/2015	15:01:50.564	$GPGGA,150151,2518.0154,N,08004.5421,W,1,10,1.5,9,M,,M,,*5D
06/24/2015	15:01:51.584	$GPGGA,150152,2518.0154,N,08004.5418,W,1,10,1.5,9,M,,M,,*54
06/24/2015	15:01:52.564	$GPGGA,150153,2518.0157,N,08004.5416,W,1,10,1.5,9,M,,M,,*58
06/24/2015	15:01:53.564	$GPGGA,150154,2518.0159,N,08004.5415,W,1,10,1.5,9,M,,M,,*52
06/24/2015	15:01:54.554	$GPGGA,150155,2518.0161,N,08004.5413,W,1,10,1.5,9,M,,M,,*5E
06/24/2015	15:01:55.578	$GPGGA,150156,2518.0163,N,08004.5411,W,1,10,1.5,9,M,,M,,*5D
06/24/2015	15:01:56.554	$GPGGA,150157,2518.0164,N,08004.5410,W,1,10,1.5,9,M,,M,,*5A
06/24/2015	15:01:57.534	$GPGGA,150158,2518.0167,N,08004.5407,W,1,10,1.5,9,M,,M,,*50
06/24/2015	15:01:58.545	$GPGGA,150159,2518.0168,N,08004.5404,W,1,10,1.5,9,M,,M,,*5D
06/24/2015	15:01:59.545	$GPGGA,150200,2518.0171,N,08004.5405,W,1,10,1.5,9,M,,M,,*5B
06/24/2015	15:02:00.545	$GPGGA,150201,2518.0172,N,08004.5403,W,1,10,1.5,9,M,,M,,*5F
06/24/2015	15:02:01.565	$GPGGA,150202,2518.0175,N,08004.5399,W,1,10,1.5,9,M,,M,,*5F
06/24/2015	15:02:02.535	$GPGGA,150203,2518.0177,N,08004.5399,W,1,10,1.5,9,M,,M,,*5C
06/24/2015	15:02:03.577	$GPGGA,150204,2518.0179,N,08004.5398,W,1,10,1.5,9,M,,M,,*54
06/24/2015	15:02:04.524	$GPGGA,150205,2518.0181,N,08004.5395,W,1,10,1.5,9,M,,M,,*5F
06/24/2015	15:02:05.554	$GPGGA,150206,2518.0182,N,08004.5394,W,1,10,1.5,9,M,,M,,*5E
06/24/2015	15:02:06.514	$GPGGA,150207,2518.0186,N,08004.5393,W,1,10,1.5,9,M,,M,,*5C
06/24/2015	15:02:07.534	$GPGGA,150208,2518.0188,N,08004.5392,W,1,10,1.5,9,M,,M,,*5C
06/24/2015	15:02:08.514	$GPGGA,150209,2518.0190,N,08004.5390,W,1,10,1.5,9,M,,M,,*56
06/24/2015	15:02:09.524	$GPGGA,150210,2518.0192,N,08004.5387,W,1,10,1.5,9,M,,M,,*5A
06/24/2015	15:02:10.634	$GPGGA,150211,2518.0193,N,08004.5387,W,1,10,1.5,9,M,,M,,*5A
06/24/2015	15:02:11.614	$GPGGA,150212,2518.0196,N,08004.5386,W,1,10,1.5,9,M,,M,,*5D
06/24/2015	15:02:12.504	$GPGGA,150213,2518.0199,N,08004.5383,W,1,10,1.5,9,M,,M,,*56
06/24/2015	15:02:13.524	$GPGGA,150214,2518.0201,N,08004.5380,W,1,10,1.5,9,M,,M,,*50
06/24/2015	15:02:14.504	$GPGGA,150215,2518.0203,N,08004.5383,W,1,10,1.5,9,M,,M,,*50
06/24/2015	15:02:15.535	$GPGGA,150216,2518.0204,N,08004.5381,W,1,10,1.5,9,M,,M,,*56
06/24/2015	15:02:16.495	$GPGGA,150217,2518.0207,N,08004.5377,W,1,10,1.5,9,M,,M,,*5D
06/24/2015	15:02:17.515	$GPGGA,150218,2518.0208,N,08004.5376,W,1,10,1.5,9,M,,M,,*5C
06/24/2015	15:02:18.605	$GPGGA,150219,2518.0211,N,08004.5377,W,1,10,1.5,9,M,,M,,*54
06/24/2015	15:02:19.495	$GPGGA,150220,2518.0212,N,08004.5375,W,1,10,1.5,9,M,,M,,*5F
06/24/2015	15:02:20.585	$GPGGA,150221,2518.0215,N,08004.5371,W,1,10,1.5,8,M,,M,,*5C
06/24/2015	15:02:21.594	$GPGGA,150222,2518.0218,N,08004.5372,W,1,10,1.5,8,M,,M,,*51
06/24/2015	15:02:22.594	$GPGGA,150223,2518.0219,N,08004.5371,W,1,10,1.5,8,M,,M,,*52
06/24/2015	15:02:23.624	$GPGGA,150224,2518.0222,N,08004.5368,W,1,10,1.5,8,M,,M,,*55
06/24/2015	15:02:24.585	$GPGGA,150225,2518.0224,N,08004.5366,W,1,10,1.5,8,M,,M,,*5C
06/24/2015	15:02:25.578	$GPGGA,150226,2518.0226,N,08004.5366,W,1,10,1.5,8,M,,M,,*5D
06/24/2015	15:02:26.576	$GPGGA,150227,2518.0228,N,08004.5365,W,1,10,1.5,8,M,,M,,*51
06/24/2015	15:02:27.584	$GPGGA,150228,2518.0229,N,08004.5363,W,1,10,1.5,8,M,,M,,*59
06/24/2015	15:02:28.479	$GPGGA,150229,2518.0232,N,08004.5362,W,1,10,1.5,8,M,,M,,*53
06/24/2015	15:02:29.588	$GPGGA,150230,2518.0233,N,08004.5360,W,1,10,1.5,8,M,,M,,*58
06/24/2015	15:02:30.577	$GPGGA,150231,2518.0236,N,08004.5359,W,1,10,1.5,8,M,,M,,*56
06/24/2015	15:02:31.584	$GPGGA,150232,2518.0237,N,08004.5357,W,1,10,1.5,8,M,,M,,*5A
06/24/2015	15:02:32.564	$GPGGA,150233,2518.0240,N,08004.5356,W,1,10,1.5,8,M,,M,,*5A
06/24/2015	15:02:33.579	$GPGGA,150234,2518.0243,N,08004.5355,W,1,10,1.5,8,M,,M,,*5D
06/24/2015	15:02:34.565	$GPGGA,150235,2518.0244,N,08004.5353,W,1,10,1.5,8,M,,M,,*5D
06/24/2015	15:02:35.605	$GPGGA,150236,2518.0246,N,08004.5351,W,1,10,1.5,8,M,,M,,*5E
06/24/2015	15:02:36.555	$GPGGA,150237,2518.0248,N,08004.5352,W,1,10,1.5,8,M,,M,,*52
06/24/2015	15:02:37.580	$GPGGA,150238,2518.0251,N,08004.5351,W,1,10,1.5,8,M,,M,,*56
06/24/2015	15:02:38.555	$GPGGA,150239,2518.0251,N,08004.5348,W,1,10,1.5,8,M,,M,,*5F
06/24/2015	15:02:39.584	$GPGGA,150240,2518.0254,N,08004.5347,W,1,10,1.5,8,M,,M,,*5B
06/24/2015	15:02:40.554	$GPGGA,150241,2518.0255,N,08004.5347,W,1,10,1.5,8,M,,M,,*5B
06/24/2015	15:02:41.564	$GPGGA,150242,2518.0258,N,08004.5345,W,1,10,1.5,8,M,,M,,*57
06/24/2015	15:02:42.544	$GPGGA,150243,2518.0260,N,08004.5344,W,1,10,1.5,8,M,,M,,*5C
06/24/2015	15:02:43.584	$GPGGA,150244,2518.0262,N,08004.5344,W,1,10,1.5,8,M,,M,,*59
06/24/2015	15:02:44.545	$GPGGA,150245,2518.0264,N,08004.5343,W,1,10,1.5,8,M,,M,,*59
06/24/2015	15:02:45.554	$GPGGA,150246,2518.0266,N,08004.5342,W,1,10,1.5,8,M,,M,,*59
06/24/2015	15:02:46.544	$GPGGA,150247,2518.0268,N,08004.5341,W,1,10,1.5,8,M,,M,,*55
06/24/2015	15:02:47.544	$GPGGA,150248,2518.0271,N,08004.5340,W,1,10,1.5,8,M,,M,,*53
06/24/2015	15:02:48.534	$GPGGA,150249,2518.0273,N,08004.5340,W,1,10,1.5,8,M,,M,,*50
06/24/2015	15:02:49.564	$GPGGA,150250,2518.0275,N,08004.5338,W,1,10,1.5,8,M,,M,,*51
06/24/2015	15:02:50.535	$GPGGA,150251,2518.0276,N,08004.5337,W,1,10,1.5,8,M,,M,,*5C
06/24/2015	15:02:51.535	$GPGGA,150252,2518.0277,N,08004.5337,W,1,10,1.5,8,M,,M,,*5E
06/24/2015	15:02:52.525	$GPGGA,150253,2518.0280,N,08004.5337,W,1,10,1.5,8,M,,M,,*57
06/24/2015	15:02:53.515	$GPGGA,150254,2518.0282,N,08004.5335,W,1,10,1.5,8,M,,M,,*50
06/24/2015	15:02:54.525	$GPGGA,150255,2518.0284,N,08004.5334,W,1,10,1.5,8,M,,M,,*56
06/24/2015	15:02:55.555	$GPGGA,150256,2518.0286,N,08004.5336,W,1,9,1.8,8,M,,M,,*60
06/24/2015	15:02:56.504	$GPGGA,150257,2518.0287,N,08004.5334,W,1,9,1.5,8,M,,M,,*6F
06/24/2015	15:02:57.504	$GPGGA,150258,2518.0291,N,08004.5332,W,1,10,1.5,8,M,,M,,*59
06/24/2015	15:02:58.504	$GPGGA,150259,2518.0291,N,08004.5332,W,1,10,1.5,8,M,,M,,*58
06/24/2015	15:02:59.564	$GPGGA,150300,2518.0294,N,08004.5331,W,1,10,1.5,8,M,,M,,*53
06/24/2015	15:03:00.614	$GPGGA,150301,2518.0295,N,08004.5329,W,1,10,1.5,8,M,,M,,*5A
06/24/2015	15:03:01.514	$GPGGA,150302,2518.0297,N,08004.5328,W,1,10,1.5,8,M,,M,,*5A
06/24/2015	15:03:02.594	$GPGGA,150303,2518.0298,N,08004.5327,W,1,10,1.5,8,M,,M,,*5B
06/24/2015	15:03:03.524	$GPGGA,150304,2518.0301,N,08004.5325,W,1,10,1.5,8,M,,M,,*5F
06/24/2015	15:03:04.494	$GPGGA,150305,2518.0302,N,08004.5323,W,1,10,1.5,8,M,,M,,*5B
06/24/2015	15:03:05.634	$GPGGA,150306,2518.0304,N,08004.5325,W,1,10,1.5,8,M,,M,,*58
06/24/2015	15:03:06.504	$GPGGA,150307,2518.0305,N,08004.5323,W,1,10,1.5,8,M,,M,,*5E
06/24/2015	15:03:07.604	$GPGGA,150308,2518.0308,N,08004.5321,W,1,10,1.5,8,M,,M,,*5E
06/24/2015	15:03:08.605	$GPGGA,150309,2518.0309,N,08004.5320,W,1,10,1.5,8,M,,M,,*5F
06/24/2015	15:03:09.585	$GPGGA,150310,2518.0312,N,08004.5321,W,1,9,1.8,9,M,,M,,*68
06/24/2015	15:03:10.496	$GPGGA,150311,2518.0313,N,08004.5320,W,1,9,1.5,9,M,,M,,*64
06/24/2015	15:03:11.605	$GPGGA,150312,2518.0316,N,08004.5319,W,1,10,1.5,9,M,,M,,*50
06/24/2015	15:03:12.586	$GPGGA,150313,2518.0316,N,08004.5318,W,1,10,1.5,9,M,,M,,*50
06/24/2015	15:03:13.605	$GPGGA,150314,2518.0319,N,08004.5316,W,1,10,1.5,9,M,,M,,*56
06/24/2015	15:03:14.574	$GPGGA,150315,2518.0320,N,08004.5318,W,1,10,1.5,9,M,,M,,*53
06/24/2015	15:03:15.594	$GPGGA,150316,2518.0323,N,08004.5316,W,1,10,1.5,9,M,,M,,*5D
06/24/2015	15:03:16.574	$GPGGA,150317,2518.0324,N,08004.5314,W,1,10,1.5,9,M,,M,,*59
06/24/2015	15:03:17.564	$GPGGA,150318,2518.0327,N,08004.5314,W,1,10,1.5,9,M,,M,,*55
06/24/2015	15:03:18.564	$GPGGA,150319,2518.0327,N,08004.5314,W,1,10,1.5,9,M,,M,,*54
06/24/2015	15:03:19.584	$GPGGA,150320,2518.0330,N,08004.5312,W,1,10,1.5,9,M,,M,,*5E
06/24/2015	15:03:20.564	$GPGGA,150321,2518.0331,N,08004.5311,W,1,10,1.5,9,M,,M,,*5D
06/24/2015	15:03:21.574	$GPGGA,150322,2518.0334,N,08004.5311,W,1,10,1.5,9,M,,M,,*5B
06/24/2015	15:03:22.544	$GPGGA,150323,2518.0336,N,08004.5309,W,1,10,1.5,9,M,,M,,*51
06/24/2015	15:03:23.588	$GPGGA,150324,2518.0338,N,08004.5308,W,1,10,1.5,9,M,,M,,*59
06/24/2015	15:03:24.544	$GPGGA,150325,2518.0340,N,08004.5309,W,1,10,1.5,9,M,,M,,*56
06/24/2015	15:03:25.545	$GPGGA,150326,2518.0341,N,08004.5307,W,1,10,1.5,9,M,,M,,*5A
06/24/2015	15:03:26.545	$GPGGA,150327,2518.0342,N,08004.5305,W,1,10,1.5,9,M,,M,,*5A
06/24/2015	15:03:27.578	$GPGGA,150328,2518.0344,N,08004.5305,W,1,10,1.5,9,M,,M,,*53
06/24/2015	15:03:28.545	$GPGGA,150329,2518.0345,N,08004.5304,W,1,10,1.5,9,M,,M,,*52
06/24/2015	15:03:29.535	$GPGGA,150330,2518.0347,N,08004.5302,W,1,10,1.5,9,M,,M,,*5E
06/24/2015	15:03:30.535	$GPGGA,150331,2518.0349,N,08004.5303,W,1,10,1.5,9,M,,M,,*50
06/24/2015	15:03:31.564	$GPGGA,150332,2518.0351,N,08004.5302,W,1,10,1.5,9,M,,M,,*5B
06/24/2015	15:03:32.534	$GPGGA,150333,2518.0352,N,08004.5301,W,1,10,1.5,9,M,,M,,*5A
06/24/2015	15:03:33.524	$GPGGA,150334,2518.0354,N,08004.5298,W,1,10,1.5,9,M,,M,,*5A
06/24/2015	15:03:34.535	$GPGGA,150335,2518.0356,N,08004.5298,W,1,10,1.5,9,M,,M,,*59
06/24/2015	15:03:35.554	$GPGGA,150336,2518.0358,N,08004.5300,W,1,10,1.5,9,M,,M,,*54
06/24/2015	15:03:36.534	$GPGGA,150337,2518.0359,N,08004.5297,W,1,10,1.5,9,M,,M,,*5B
06/24/2015	15:03:37.534	$GPGGA,150338,2518.0360,N,08004.5294,W,1,10,1.5,10,M,,M,,*65
06/24/2015	15:03:38.534	$GPGGA,150339,2518.0363,N,08004.5294,W,1,10,1.5,10,M,,M,,*67
06/24/2015	15:03:39.555	$GPGGA,150340,2518.0365,N,08004.5296,W,1,10,1.5,10,M,,M,,*6D
06/24/2015	15:03:40.524	$GPGGA,150341,2518.0367,N,08004.5293,W,1,10,1.6,10,M,,M,,*68
06/24/2015	15:03:41.514	$GPGGA,150342,2518.0370,N,08004.5290,W,1,10,1.5,10,M,,M,,*6D
06/24/2015	15:03:42.514	$GPGGA,150343,2518.0374,N,08004.5292,W,1,10,1.5,10,M,,M,,*6A
06/24/2015	15:03:43.565	$GPGGA,150344,2518.0376,N,08004.5293,W,1,10,1.5,10,M,,M,,*6E
06/24/2015	15:03:44.515	$GPGGA,150345,2518.0378,N,08004.5290,W,1,10,1.5,10,M,,M,,*62
06/24/2015	15:03:45.525	$GPGGA,150346,2518.0381,N,08004.5287,W,1,10,1.5,10,M,,M,,*61
06/24/2015	15:03:46.505	$GPGGA,150347,2518.0384,N,08004.5289,W,1,10,1.5,10,M,,M,,*6B
06/24/2015	15:03:47.715	$GPGGA,150348,2518.0385,N,08004.5289,W,1,10,1.5,10,M,,M,,*65
06/24/2015	15:03:48.594	$GPGGA,150349,2518.0387,N,08004.5286,W,1,10,1.5,10,M,,M,,*69
06/24/2015	15:03:49.487	$GPGGA,150350,2518.0389,N,08004.5283,W,1,10,1.5,10,M,,M,,*6A
06/24/2015	15:03:50.504	$GPGGA,150351,2518.0392,N,08004.5285,W,1,10,1.5,11,M,,M,,*66
06/24/2015	15:03:51.688	$GPGGA,150352,2518.0394,N,08004.5284,W,1,10,1.5,11,M,,M,,*62
06/24/2015	15:03:52.614	$GPGGA,150353,2518.0396,N,08004.5283,W,1,10,1.5,11,M,,M,,*66
06/24/2015	15:03:53.694	$GPGGA,150354,2518.0398,N,08004.5281,W,1,10,1.5,11,M,,M,,*6D
06/24/2015	15:03:54.634	$GPGGA,150355,2518.0401,N,08004.5280,W,1,10,1.5,11,M,,M,,*6A
06/24/2015	15:03:55.686	$GPGGA,150356,2518.0403,N,08004.5279,W,1,10,1.5,11,M,,M,,*6D
06/24/2015	15:03:56.614	$GPGGA,150357,2518.0405,N,08004.5279,W,1,10,1.5,11,M,,M,,*6A
06/24/2015	15:03:57.580	$GPGGA,150358,2518.0406,N,08004.5277,W,1,10,1.5,11,M,,M,,*68
06/24/2015	15:03:58.624	$GPGGA,150359,2518.0409,N,08004.5274,W,1,10,1.5,11,M,,M,,*65
06/24/2015	15:03:59.694	$GPGGA,150400,2518.0410,N,08004.5273,W,1,10,1.5,11,M,,M,,*61
06/24/2015	15:04:00.625	$GPGGA,150401,2518.0414,N,08004.5274,W,1,10,1.5,11,M,,M,,*63
06/24/2015	15:04:01.565	$GPGGA,150402,2518.0417,N,08004.5272,W,1,10,1.5,11,M,,M,,*65
06/24/2015	15:04:02.595	$GPGGA,150403,2518.0417,N,08004.5269,W,1,10,1.5,11,M,,M,,*6E
06/24/2015	15:04:03.680	$GPGGA,150404,2518.0421,N,08004.5267,W,1,10,1.5,11,M,,M,,*62
06/24/2015	15:04:04.605	$GPGGA,150405,2518.0424,N,08004.5267,W,1,10,1.5,11,M,,M,,*66
06/24/2015	15:04:05.665	$GPGGA,150406,2518.0427,N,08004.5266,W,1,10,1.5,11,M,,M,,*67
06/24/2015	15:04:06.554	$GPGGA,150407,2518.0430,N,08004.5263,W,1,10,1.5,11,M,,M,,*65
06/24/2015	15:04:07.678	$GPGGA,150408,2518.0432,N,08004.5262,W,1,10,1.5,11,M,,M,,*69
06/24/2015	15:04:08.544	$GPGGA,150409,2518.0435,N,08004.5261,W,1,10,1.5,11,M,,M,,*6C
06/24/2015	15:04:09.664	$GPGGA,150410,2518.0438,N,08004.5259,W,1,10,1.5,12,M,,M,,*61
06/24/2015	15:04:10.544	$GPGGA,150411,2518.0441,N,08004.5256,W,1,10,1.5,12,M,,M,,*61
06/24/2015	15:04:11.654	$GPGGA,150412,2518.0443,N,08004.5255,W,1,10,1.5,12,M,,M,,*63
06/24/2015	15:04:12.575	$GPGGA,150413,2518.0446,N,08004.5254,W,1,10,1.5,12,M,,M,,*66
06/24/2015	15:04:13.644	$GPGGA,150414,2518.0449,N,08004.5252,W,1,10,1.5,12,M,,M,,*68
06/24/2015	15:04:14.534	$GPGGA,150415,2518.0452,N,08004.5249,W,1,10,1.5,12,M,,M,,*69
06/24/2015	15:04:15.665	$GPGGA,150416,2518.0453,N,08004.5248,W,1,10,1.5,12,M,,M,,*6A
06/24/2015	15:04:16.554	$GPGGA,150417,2518.0457,N,08004.5247,W,1,10,1.5,12,M,,M,,*60
06/24/2015	15:04:17.614	$GPGGA,150418,2518.0460,N,08004.5244,W,1,10,1.5,12,M,,M,,*68
06/24/2015	15:04:18.514	$GPGGA,150419,2518.0461,N,08004.5242,W,1,10,1.5,12,M,,M,,*6E
06/24/2015	15:04:19.534	$GPGGA,150420,2518.0464,N,08004.5241,W,1,10,1.5,12,M,,M,,*62
06/24/2015	15:04:20.514	$GPGGA,150421,2518.0468,N,08004.5239,W,1,10,1.5,12,M,,M,,*60
06/24/2015	15:04:21.594	$GPGGA,150422,2518.0470,N,08004.5236,W,1,10,1.5,12,M,,M,,*65
06/24/2015	15:04:22.504	$GPGGA,150423,2518.0472,N,08004.5234,W,1,10,1.5,12,M,,M,,*64
06/24/2015	15:04:23.613	$GPGGA,150424,2518.0475,N,08004.5233,W,1,10,1.5,12,M,,M,,*63
06/24/2015	15:04:24.623	$GPGGA,150425,2518.0477,N,08004.5231,W,1,10,1.5,12,M,,M,,*62
06/24/2015	15:04:25.593	$GPGGA,150426,2518.0479,N,08004.5228,W,1,10,1.5,12,M,,M,,*67
06/24/2015	15:04:26.543	$GPGGA,150427,2518.0482,N,08004.5226,W,1,10,1.5,12,M,,M,,*6C
06/24/2015	15:04:27.643	$GPGGA,150428,2518.0485,N,08004.5224,W,1,10,1.5,12,M,,M,,*66
06/24/2015	15:04:28.594	$GPGGA,150429,2518.0486,N,08004.5222,W,1,10,1.5,11,M,,M,,*61
06/24/2015	15:04:29.634	$GPGGA,150430,2518.0490,N,08004.5220,W,1,10,1.5,11,M,,M,,*6C
06/24/2015	15:04:30.524	$GPGGA,150431,2518.0492,N,08004.5217,W,1,10,1.5,11,M,,M,,*6B
06/24/2015	15:04:31.594	$GPGGA,150432,2518.0493,N,08004.5215,W,1,10,1.5,11,M,,M,,*6B
06/24/2015	15:04:32.534	$GPGGA,150433,2518.0496,N,08004.5214,W,1,10,1.5,11,M,,M,,*6E
06/24/2015	15:04:33.614	$GPGGA,150434,2518.0497,N,08004.5211,W,1,10,1.5,11,M,,M,,*6D
06/24/2015	15:04:34.534	$GPGGA,150435,2518.0500,N,08004.5207,W,1,10,1.5,11,M,,M,,*64
06/24/2015	15:04:35.634	$GPGGA,150436,2518.0501,N,08004.5207,W,1,10,1.5,11,M,,M,,*66
06/24/2015	15:04:36.524	$GPGGA,150437,2518.0504,N,08004.5205,W,1,10,1.5,11,M,,M,,*60
06/24/2015	15:04:37.584	$GPGGA,150438,2518.0506,N,08004.5201,W,1,10,1.5,11,M,,M,,*69
06/24/2015	15:04:38.574	$GPGGA,150439,2518.0508,N,08004.5200,W,1,10,1.5,11,M,,M,,*67
06/24/2015	15:04:39.574	$GPGGA,150440,2518.0508,N,08004.5199,W,1,10,1.5,11,M,,M,,*6A
06/24/2015	15:04:40.575	$GPGGA,150441,2518.0511,N,08004.5196,W,1,10,1.5,11,M,,M,,*6C
06/24/2015	15:04:41.593	$GPGGA,150442,2518.0513,N,08004.5193,W,1,10,1.5,11,M,,M,,*68
06/24/2015	15:04:42.574	$GPGGA,150443,2518.0514,N,08004.5193,W,1,10,1.5,11,M,,M,,*6E
06/24/2015	15:04:43.573	$GPGGA,150444,2518.0515,N,08004.5191,W,1,10,1.5,11,M,,M,,*6A
06/24/2015	15:04:44.574	$GPGGA,150445,2518.0517,N,08004.5187,W,1,10,1.5,11,M,,M,,*6E
06/24/2015	15:04:45.604	$GPGGA,150446,2518.0518,N,08004.5186,W,1,10,1.5,11,M,,M,,*63
06/24/2015	15:04:46.554	$GPGGA,150447,2518.0519,N,08004.5185,W,1,10,1.5,11,M,,M,,*60
06/24/2015	15:04:47.604	$GPGGA,150448,2518.0521,N,08004.5181,W,1,10,1.5,11,M,,M,,*60
06/24/2015	15:04:48.554	$GPGGA,150449,2518.0522,N,08004.5180,W,1,10,1.5,11,M,,M,,*63
06/24/2015	15:04:49.584	$GPGGA,150450,2518.0525,N,08004.5179,W,1,10,1.5,11,M,,M,,*6A
06/24/2015	15:04:50.554	$GPGGA,150451,2518.0526,N,08004.5176,W,1,10,1.5,11,M,,M,,*67
06/24/2015	15:04:51.594	$GPGGA,150452,2518.0528,N,08004.5174,W,1,10,1.5,11,M,,M,,*68
06/24/2015	15:04:52.570	$GPGGA,150453,2518.0529,N,08004.5172,W,1,10,1.5,11,M,,M,,*6E
06/24/2015	15:04:53.624	$GPGGA,150454,2518.0529,N,08004.5171,W,1,10,1.5,11,M,,M,,*6A
06/24/2015	15:04:54.544	$GPGGA,150455,2518.0532,N,08004.5169,W,1,10,1.5,10,M,,M,,*69
06/24/2015	15:04:55.644	$GPGGA,150456,2518.0535,N,08004.5167,W,1,10,1.5,10,M,,M,,*63
06/24/2015	15:04:56.554	$GPGGA,150457,2518.0536,N,08004.5166,W,1,10,1.5,10,M,,M,,*60
06/24/2015	15:04:57.614	$GPGGA,150458,2518.0536,N,08004.5165,W,1,10,1.5,10,M,,M,,*6C
06/24/2015	15:04:58.534	$GPGGA,150459,2518.0539,N,08004.5162,W,1,10,1.5,10,M,,M,,*65
06/24/2015	15:04:59.593	$GPGGA,150500,2518.0540,N,08004.5159,W,1,10,1.5,10,M,,M,,*6E
06/24/2015	15:05:00.523	$GPGGA,150501,2518.0542,N,08004.5158,W,1,10,1.5,10,M,,M,,*6C
06/24/2015	15:05:01.603	$GPGGA,150502,2518.0543,N,08004.5157,W,1,10,1.5,10,M,,M,,*61
06/24/2015	15:05:02.523	$GPGGA,150503,2518.0544,N,08004.5154,W,1,10,1.5,10,M,,M,,*64
06/24/2015	15:05:03.565	$GPGGA,150504,2518.0544,N,08004.5154,W,1,10,1.5,10,M,,M,,*63
06/24/2015	15:05:04.534	$GPGGA,150505,2518.0547,N,08004.5151,W,1,10,1.5,10,M,,M,,*64
06/24/2015	15:05:05.594	$GPGGA,150506,2518.0550,N,08004.5149,W,1,10,1.5,10,M,,M,,*68
06/24/2015	15:05:06.524	$GPGGA,150507,2518.0551,N,08004.5147,W,1,10,1.5,10,M,,M,,*66
06/24/2015	15:05:07.584	$GPGGA,150508,2518.0553,N,08004.5144,W,1,10,1.5,10,M,,M,,*68
06/24/2015	15:05:08.524	$GPGGA,150509,2518.0555,N,08004.5141,W,1,10,1.5,10,M,,M,,*6A
06/24/2015	15:05:09.584	$GPGGA,150510,2518.0555,N,08004.5141,W,1,10,1.5,10,M,,M,,*62
06/24/2015	15:05:10.514	$GPGGA,150511,2518.0558,N,08004.5139,W,1,10,1.5,10,M,,M,,*61
06/24/2015	15:05:11.654	$GPGGA,150512,2518.0558,N,08004.5134,W,1,10,1.5,10,M,,M,,*6F
06/24/2015	15:05:12.624	$GPGGA,150513,2518.0561,N,08004.5134,W,1,10,1.5,10,M,,M,,*64
06/24/2015	15:05:13.624	$GPGGA,150514,2518.0562,N,08004.5132,W,1,10,1.5,10,M,,M,,*66
06/24/2015	15:05:14.504	$GPGGA,150515,2518.0564,N,08004.5129,W,1,10,1.5,10,M,,M,,*6B
06/24/2015	15:05:15.534	$GPGGA,150516,2518.0564,N,08004.5129,W,1,10,1.5,10,M,,M,,*68
06/24/2015	15:05:16.503	$GPGGA,150517,2518.0566,N,08004.5126,W,1,10,1.5,10,M,,M,,*64
06/24/2015	15:05:17.513	$GPGGA,150518,2518.0569,N,08004.5123,W,1,10,1.5,9,M,,M,,*59
06/24/2015	15:05:18.576	$GPGGA,150519,2518.0571,N,08004.5120,W,1,10,1.5,9,M,,M,,*52
06/24/2015	15:05:19.503	$GPGGA,150520,2518.0572,N,08004.5119,W,1,10,1.5,9,M,,M,,*51
06/24/2015	15:05:20.484	$GPGGA,150521,2518.0573,N,08004.5116,W,1,10,1.5,9,M,,M,,*5E
06/24/2015	15:05:21.594	$GPGGA,150522,2518.0575,N,08004.5114,W,1,10,1.5,9,M,,M,,*59
06/24/2015	15:05:22.574	$GPGGA,150523,2518.0576,N,08004.5113,W,1,10,1.5,9,M,,M,,*5C
06/24/2015	15:05:23.614	$GPGGA,150524,2518.0578,N,08004.5110,W,1,10,1.5,9,M,,M,,*56
06/24/2015	15:05:24.575	$GPGGA,150525,2518.0580,N,08004.5107,W,1,10,1.5,9,M,,M,,*56
06/24/2015	15:05:25.594	$GPGGA,150526,2518.0582,N,08004.5106,W,1,10,1.5,9,M,,M,,*56
06/24/2015	15:05:26.565	$GPGGA,150527,2518.0583,N,08004.5104,W,1,10,1.5,9,M,,M,,*54
06/24/2015	15:05:27.604	$GPGGA,150528,2518.0584,N,08004.5100,W,1,10,1.5,9,M,,M,,*58
06/24/2015	15:05:28.574	$GPGGA,150529,2518.0587,N,08004.5098,W,1,10,1.5,9,M,,M,,*5A
06/24/2015	15:05:29.565	$GPGGA,150530,2518.0587,N,08004.5097,W,1,10,1.5,9,M,,M,,*5D
06/24/2015	15:05:30.564	$GPGGA,150531,2518.0590,N,08004.5095,W,1,10,1.5,9,M,,M,,*58
06/24/2015	15:05:31.567	$GPGGA,150532,2518.0591,N,08004.5092,W,1,10,1.5,9,M,,M,,*5D
06/24/2015	15:05:33.613	$GPGGA,150534,2518.0594,N,08004.5087,W,1,10,1.5,8,M,,M,,*5B
06/24/2015	15:05:34.553	$GPGGA,150535,2518.0597,N,08004.5086,W,1,10,1.5,8,M,,M,,*58
06/24/2015	15:05:35.593	$GPGGA,150536,2518.0598,N,08004.5082,W,1,10,1.5,8,M,,M,,*50
06/24/2015	15:05:36.553	$GPGGA,150537,2518.0600,N,08004.5079,W,1,10,1.5,8,M,,M,,*57
06/24/2015	15:05:37.567	$GPGGA,150538,2518.0602,N,08004.5077,W,1,10,1.5,8,M,,M,,*54
06/24/2015	15:05:38.534	$GPGGA,150539,2518.0604,N,08004.5075,W,1,10,1.5,8,M,,M,,*51
06/24/2015	15:05:39.594	$GPGGA,150540,2518.0605,N,08004.5072,W,1,10,1.5,8,M,,M,,*59
06/24/2015	15:05:40.544	$GPGGA,150541,2518.0605,N,08004.5069,W,1,10,1.5,8,M,,M,,*52
06/24/2015	15:05:41.554	$GPGGA,150542,2518.0608,N,08004.5066,W,1,10,1.5,8,M,,M,,*53
06/24/2015	15:05:42.544	$GPGGA,150543,2518.0609,N,08004.5065,W,1,10,1.8,8,M,,M,,*5D
06/24/2015	15:05:43.568	$GPGGA,150544,2518.0611,N,08004.5061,W,1,10,1.5,8,M,,M,,*5A
06/24/2015	15:05:44.544	$GPGGA,150545,2518.0612,N,08004.5059,W,1,10,1.5,8,M,,M,,*53
06/24/2015	15:05:45.524	$GPGGA,150546,2518.0613,N,08004.5056,W,1,10,1.5,8,M,,M,,*5E
06/24/2015	15:05:46.534	$GPGGA,150547,2518.0616,N,08004.5054,W,1,10,1.5,8,M,,M,,*58
06/24/2015	15:05:47.574	$GPGGA,150548,2518.0618,N,08004.5053,W,1,10,1.5,8,M,,M,,*5E
06/24/2015	15:05:48.534	$GPGGA,150549,2518.0620,N,08004.5050,W,1,10,1.5,8,M,,M,,*57
06/24/2015	15:05:49.544	$GPGGA,150550,2518.0620,N,08004.5047,W,1,10,1.5,8,M,,M,,*59
06/24/2015	15:05:50.514	$GPGGA,150551,2518.0622,N,08004.5045,W,1,10,1.5,8,M,,M,,*58
06/24/2015	15:05:51.533	$GPGGA,150552,2518.0625,N,08004.5043,W,1,10,1.5,8,M,,M,,*5A
06/24/2015	15:05:52.523	$GPGGA,150553,2518.0627,N,08004.5040,W,1,10,1.5,8,M,,M,,*5A
06/24/2015	15:05:53.513	$GPGGA,150554,2518.0627,N,08004.5038,W,1,10,1.5,8,M,,M,,*52
06/24/2015	15:05:54.503	$GPGGA,150555,2518.0630,N,08004.5035,W,1,10,1.5,8,M,,M,,*58
06/24/2015	15:05:55.534	$GPGGA,150556,2518.0631,N,08004.5033,W,1,10,1.5,8,M,,M,,*5C
06/24/2015	15:05:56.514	$GPGGA,150557,2518.0634,N,08004.5031,W,1,10,1.5,8,M,,M,,*5A
06/24/2015	15:05:57.514	$GPGGA,150558,2518.0636,N,08004.5029,W,1,10,1.5,8,M,,M,,*5E
06/24/2015	15:05:58.504	$GPGGA,150559,2518.0638,N,08004.5025,W,1,10,1.5,8,M,,M,,*5D
06/24/2015	15:05:59.534	$GPGGA,150600,2518.0640,N,08004.5021,W,1,10,1.5,8,M,,M,,*59
06/24/2015	15:06:00.504	$GPGGA,150601,2518.0643,N,08004.5019,W,1,10,1.5,8,M,,M,,*50
06/24/2015	15:06:01.624	$GPGGA,150602,2518.0645,N,08004.5018,W,1,10,1.5,8,M,,M,,*54
06/24/2015	15:06:02.514	$GPGGA,150603,2518.0647,N,08004.5013,W,1,10,1.5,8,M,,M,,*5C
06/24/2015	15:06:03.604	$GPGGA,150604,2518.0648,N,08004.5009,W,1,10,1.5,8,M,,M,,*5F
06/24/2015	15:06:04.494	$GPGGA,150605,2518.0651,N,08004.5008,W,1,10,1.5,8,M,,M,,*57
06/24/2015	15:06:05.584	$GPGGA,150606,2518.0652,N,08004.5005,W,1,10,1.5,8,M,,M,,*5A
06/24/2015	15:06:06.584	$GPGGA,150607,2518.0656,N,08004.5000,W,1,10,1.5,8,M,,M,,*5A
06/24/2015	15:06:07.614	$GPGGA,150608,2518.0658,N,08004.4997,W,1,10,1.5,8,M,,M,,*5D
06/24/2015	15:06:08.578	$GPGGA,150609,2518.0659,N,08004.4996,W,1,10,1.5,8,M,,M,,*5C
06/24/2015	15:06:09.583	$GPGGA,150610,2518.0661,N,08004.4992,W,1,10,1.5,8,M,,M,,*5B
06/24/2015	15:06:10.574	$GPGGA,150611,2518.0663,N,08004.4987,W,1,10,1.5,8,M,,M,,*5C
06/24/2015	15:06:11.583	$GPGGA,150612,2518.0666,N,08004.4986,W,1,10,1.5,8,M,,M,,*5B
06/24/2015	15:06:12.575	$GPGGA,150613,2518.0667,N,08004.4984,W,1,10,1.5,8,M,,M,,*59
06/24/2015	15:06:13.604	$GPGGA,150614,2518.0670,N,08004.4978,W,1,10,1.5,8,M,,M,,*5B
06/24/2015	15:06:14.577	$GPGGA,150615,2518.0673,N,08004.4975,W,1,10,1.5,8,M,,M,,*54
06/24/2015	15:06:15.574	$GPGGA,150616,2518.0676,N,08004.4973,W,1,10,1.5,8,M,,M,,*54
06/24/2015	15:06:16.568	$GPGGA,150617,2518.0677,N,08004.4969,W,1,10,1.5,8,M,,M,,*5F
06/24/2015	15:06:17.554	$GPGGA,150618,2518.0680,N,08004.4965,W,1,10,1.5,8,M,,M,,*54
06/24/2015	15:06:18.569	$GPGGA,150619,2518.0683,N,08004.4962,W,1,10,1.5,8,M,,M,,*51
06/24/2015	15:06:19.578	$GPGGA,150620,2518.0685,N,08004.4959,W,1,10,1.5,8,M,,M,,*55
06/24/2015	15:06:20.554	$GPGGA,150621,2518.0688,N,08004.4956,W,1,10,1.5,8,M,,M,,*56
06/24/2015	15:06:21.578	$GPGGA,150622,2518.0690,N,08004.4953,W,1,10,1.5,9,M,,M,,*58
06/24/2015	15:06:22.544	$GPGGA,150623,2518.0692,N,08004.4948,W,1,10,1.5,9,M,,M,,*51
06/24/2015	15:06:23.554	$GPGGA,150624,2518.0695,N,08004.4945,W,1,10,1.5,9,M,,M,,*5C
06/24/2015	15:06:24.544	$GPGGA,150625,2518.0698,N,08004.4943,W,1,10,1.5,9,M,,M,,*56
06/24/2015	15:06:25.534	$GPGGA,150626,2518.0699,N,08004.4938,W,1,10,1.5,9,M,,M,,*58
06/24/2015	15:06:26.533	$GPGGA,150627,2518.0703,N,08004.4934,W,1,10,1.5,9,M,,M,,*57
06/24/2015	15:06:27.566	$GPGGA,150628,2518.0706,N,08004.4932,W,1,10,1.5,9,M,,M,,*5B
06/24/2015	15:06:28.533	$GPGGA,150629,2518.0708,N,08004.4929,W,1,10,1.5,9,M,,M,,*5E
06/24/2015	15:06:29.533	$GPGGA,150630,2518.0710,N,08004.4924,W,1,10,1.5,9,M,,M,,*52
06/24/2015	15:06:30.544	$GPGGA,150631,2518.0714,N,08004.4920,W,1,10,1.5,9,M,,M,,*53
06/24/2015	15:06:31.564	$GPGGA,150632,2518.0717,N,08004.4918,W,1,10,1.5,9,M,,M,,*58
06/24/2015	15:06:32.544	$GPGGA,150633,2518.0719,N,08004.4914,W,1,10,1.5,9,M,,M,,*5B
06/24/2015	15:06:33.524	$GPGGA,150634,2518.0723,N,08004.4908,W,1,10,1.5,9,M,,M,,*58
06/24/2015	15:06:34.534	$GPGGA,150635,2518.0724,N,08004.4905,W,1,10,1.5,9,M,,M,,*53
06/24/2015	15:06:35.534	$GPGGA,150636,2518.0727,N,08004.4903,W,1,10,1.5,8,M,,M,,*54
06/24/2015	15:06:36.514	$GPGGA,150637,2518.0731,N,08004.4898,W,1,10,1.5,8,M,,M,,*51
06/24/2015	15:06:37.524	$GPGGA,150638,2518.0734,N,08004.4893,W,1,10,1.5,9,M,,M,,*51
06/24/2015	15:06:38.504	$GPGGA,150639,2518.0735,N,08004.4890,W,1,10,1.5,9,M,,M,,*52
06/24/2015	15:06:39.524	$GPGGA,150640,2518.0738,N,08004.4887,W,1,10,1.5,8,M,,M,,*56
06/24/2015	15:06:40.604	$GPGGA,150641,2518.0742,N,08004.4882,W,1,10,1.5,8,M,,M,,*5F
06/24/2015	15:06:41.514	$GPGGA,150642,2518.0745,N,08004.4878,W,1,10,1.5,9,M,,M,,*5F
06/24/2015	15:06:42.514	$GPGGA,150643,2518.0746,N,08004.4874,W,1,10,1.5,9,M,,M,,*51
06/24/2015	15:06:43.523	$GPGGA,150644,2518.0750,N,08004.4871,W,1,10,1.5,8,M,,M,,*55
06/24/2015	15:06:44.593	$GPGGA,150645,2518.0753,N,08004.4867,W,1,10,1.5,8,M,,M,,*50
06/24/2015	15:06:45.513	$GPGGA,150646,2518.0756,N,08004.4862,W,1,10,1.5,9,M,,M,,*52
06/24/2015	15:06:46.513	$GPGGA,150647,2518.0759,N,08004.4859,W,1,10,1.5,9,M,,M,,*54
06/24/2015	15:06:47.503	$GPGGA,150648,2518.0761,N,08004.4855,W,1,10,1.5,9,M,,M,,*5C
06/24/2015	15:06:48.484	$GPGGA,150649,2518.0764,N,08004.4851,W,1,10,1.5,9,M,,M,,*5C
06/24/2015	15:06:49.504	$GPGGA,150650,2518.0768,N,08004.4847,W,1,10,1.5,9,M,,M,,*5F
06/24/2015	15:06:50.584	$GPGGA,150651,2518.0771,N,08004.4843,W,1,10,1.5,9,M,,M,,*52
06/24/2015	15:06:51.634	$GPGGA,150652,2518.0774,N,08004.4839,W,1,10,1.5,9,M,,M,,*59
06/24/2015	15:06:52.494	$GPGGA,150653,2518.0778,N,08004.4834,W,1,10,1.5,9,M,,M,,*59
06/24/2015	15:06:53.574	$GPGGA,150654,2518.0781,N,08004.4831,W,1,10,1.5,9,M,,M,,*5D
06/24/2015	15:06:54.494	$GPGGA,150655,2518.0782,N,08004.4826,W,1,10,1.5,9,M,,M,,*59
06/24/2015	15:06:55.594	$GPGGA,150656,2518.0786,N,08004.4822,W,1,10,1.5,9,M,,M,,*5A
06/24/2015	15:06:56.564	$GPGGA,150657,2518.0792,N,08004.4818,W,1,10,1.5,9,M,,M,,*57
06/24/2015	15:06:57.594	$GPGGA,150658,2518.0793,N,08004.4814,W,1,10,1.5,9,M,,M,,*55
06/24/2015	15:06:58.566	$GPGGA,150659,2518.0797,N,08004.4808,W,1,10,1.5,9,M,,M,,*5D
06/24/2015	15:06:59.594	$GPGGA,150700,2518.0800,N,08004.4805,W,1,10,1.5,9,M,,M,,*5C
06/24/2015	15:07:00.574	$GPGGA,150701,2518.0804,N,08004.4802,W,1,10,1.5,9,M,,M,,*5E
06/24/2015	15:07:01.577	$GPGGA,150702,2518.0808,N,08004.4797,W,1,10,1.5,9,M,,M,,*52
06/24/2015	15:07:02.563	$GPGGA,150703,2518.0811,N,08004.4792,W,1,10,1.5,9,M,,M,,*5E
06/24/2015	15:07:03.583	$GPGGA,150704,2518.0815,N,08004.4788,W,1,10,1.5,8,M,,M,,*57
06/24/2015	15:07:04.564	$GPGGA,150705,2518.0821,N,08004.4786,W,1,10,1.5,8,M,,M,,*5F
06/24/2015	15:07:05.574	$GPGGA,150706,2518.0824,N,08004.4781,W,1,10,1.5,8,M,,M,,*5E
06/24/2015	15:07:06.554	$GPGGA,150707,2518.0828,N,08004.4776,W,1,10,1.5,8,M,,M,,*5B
06/24/2015	15:07:07.584	$GPGGA,150708,2518.0832,N,08004.4772,W,1,10,1.5,8,M,,M,,*5B
06/24/2015	15:07:09.594	$GPGGA,150710,2518.0840,N,08004.4764,W,1,9,1.8,8,M,,M,,*65
06/24/2015	15:07:10.535	$GPGGA,150711,2518.0844,N,08004.4759,W,1,9,1.5,8,M,,M,,*63
06/24/2015	15:07:11.565	$GPGGA,150712,2518.0847,N,08004.4756,W,1,10,1.5,8,M,,M,,*54
06/24/2015	15:07:12.554	$GPGGA,150713,2518.0853,N,08004.4752,W,1,10,1.5,8,M,,M,,*54
06/24/2015	15:07:13.544	$GPGGA,150714,2518.0857,N,08004.4748,W,1,10,1.5,9,M,,M,,*5D
06/24/2015	15:07:14.544	$GPGGA,150715,2518.0861,N,08004.4743,W,1,10,1.5,9,M,,M,,*52
06/24/2015	15:07:15.554	$GPGGA,150716,2518.0865,N,08004.4739,W,1,9,1.8,9,M,,M,,*6D
06/24/2015	15:07:16.534	$GPGGA,150717,2518.0869,N,08004.4737,W,1,9,1.8,8,M,,M,,*6F
06/24/2015	15:07:17.554	$GPGGA,150718,2518.0875,N,08004.4734,W,1,10,1.5,8,M,,M,,*5B
06/24/2015	15:07:18.533	$GPGGA,150719,2518.0880,N,08004.4728,W,1,10,1.9,8,M,,M,,*51
06/24/2015	15:07:19.553	$GPGGA,150720,2518.0883,N,08004.4725,W,1,10,1.5,8,M,,M,,*59
06/24/2015	15:07:20.533	$GPGGA,150721,2518.0887,N,08004.4724,W,1,10,1.8,9,M,,M,,*51
06/24/2015	15:07:21.543	$GPGGA,150722,2518.0893,N,08004.4720,W,1,10,1.5,9,M,,M,,*5E
06/24/2015	15:07:22.513	$GPGGA,150723,2518.0897,N,08004.4714,W,1,10,1.5,9,M,,M,,*5C
06/24/2015	15:07:23.569	$GPGGA,150724,2518.0901,N,08004.4711,W,1,10,1.5,9,M,,M,,*50
06/24/2015	15:07:24.524	$GPGGA,150725,2518.0905,N,08004.4709,W,1,10,1.5,9,M,,M,,*5C
06/24/2015	15:07:25.544	$GPGGA,150726,2518.0909,N,08004.4704,W,1,10,1.5,9,M,,M,,*5E
06/24/2015	15:07:26.515	$GPGGA,150727,2518.0914,N,08004.4699,W,1,10,1.5,9,M,,M,,*56
06/24/2015	15:07:27.514	$GPGGA,150728,2518.0918,N,08004.4696,W,1,10,1.5,9,M,,M,,*5A
06/24/2015	15:07:28.624	$GPGGA,150729,2518.0923,N,08004.4692,W,1,10,1.5,10,M,,M,,*6F
06/24/2015	15:07:29.494	$GPGGA,150730,2518.0927,N,08004.4687,W,1,10,1.5,10,M,,M,,*67
06/24/2015	15:07:30.514	$GPGGA,150731,2518.0930,N,08004.4682,W,1,10,1.5,10,M,,M,,*65
06/24/2015	15:07:31.534	$GPGGA,150732,2518.0936,N,08004.4679,W,1,10,1.5,10,M,,M,,*64
06/24/2015	15:07:32.504	$GPGGA,150733,2518.0940,N,08004.4674,W,1,10,1.5,11,M,,M,,*68
06/24/2015	15:07:33.584	$GPGGA,150734,2518.0945,N,08004.4670,W,1,10,1.5,11,M,,M,,*6E
06/24/2015	15:07:34.484	$GPGGA,150735,2518.0948,N,08004.4665,W,1,10,1.5,11,M,,M,,*66
06/24/2015	15:07:36.513	$GPGGA,150737,2518.0959,N,08004.4657,W,1,10,1.5,11,M,,M,,*65
06/24/2015	15:07:37.583	$GPGGA,150738,2518.0963,N,08004.4653,W,1,10,1.5,11,M,,M,,*67
06/24/2015	15:07:38.493	$GPGGA,150739,2518.0967,N,08004.4648,W,1,10,1.8,12,M,,M,,*66
06/24/2015	15:07:39.593	$GPGGA,150740,2518.0973,N,08004.4644,W,1,10,1.5,12,M,,M,,*6C
06/24/2015	15:07:40.604	$GPGGA,150741,2518.0977,N,08004.4640,W,1,10,1.5,12,M,,M,,*6D
06/24/2015	15:07:41.594	$GPGGA,150742,2518.0983,N,08004.4635,W,1,10,1.5,12,M,,M,,*67
06/24/2015	15:07:42.578	$GPGGA,150743,2518.0987,N,08004.4630,W,1,10,1.5,12,M,,M,,*67
06/24/2015	15:07:43.584	$GPGGA,150744,2518.0992,N,08004.4625,W,1,10,1.5,12,M,,M,,*60
06/24/2015	15:07:44.565	$GPGGA,150745,2518.0995,N,08004.4620,W,1,10,1.5,12,M,,M,,*63
06/24/2015	15:07:45.604	$GPGGA,150746,2518.0999,N,08004.4614,W,1,10,1.5,12,M,,M,,*6B
06/24/2015	15:07:46.569	$GPGGA,150747,2518.1005,N,08004.4608,W,1,10,1.5,12,M,,M,,*6A
06/24/2015	15:07:47.604	$GPGGA,150748,2518.1008,N,08004.4602,W,1,10,1.5,12,M,,M,,*62
06/24/2015	15:07:48.571	$GPGGA,150749,2518.1013,N,08004.4597,W,1,10,1.5,12,M,,M,,*66
06/24/2015	15:07:49.554	$GPGGA,150750,2518.1017,N,08004.4591,W,1,10,1.5,12,M,,M,,*6C
06/24/2015	15:07:50.554	$GPGGA,150751,2518.1021,N,08004.4586,W,1,10,1.5,13,M,,M,,*6F
06/24/2015	15:07:51.604	$GPGGA,150752,2518.1026,N,08004.4580,W,1,9,1.8,13,M,,M,,*58
06/24/2015	15:07:52.544	$GPGGA,150753,2518.1031,N,08004.4577,W,1,9,1.8,13,M,,M,,*57
06/24/2015	15:07:53.543	$GPGGA,150754,2518.1035,N,08004.4573,W,1,10,1.5,13,M,,M,,*65
06/24/2015	15:07:54.553	$GPGGA,150755,2518.1039,N,08004.4568,W,1,10,1.5,13,M,,M,,*62
06/24/2015	15:07:55.553	$GPGGA,150756,2518.1044,N,08004.4561,W,1,10,1.5,13,M,,M,,*62
06/24/2015	15:07:56.553	$GPGGA,150757,2518.1049,N,08004.4555,W,1,10,1.5,13,M,,M,,*69
06/24/2015	15:07:57.543	$GPGGA,150758,2518.1053,N,08004.4549,W,1,10,1.5,13,M,,M,,*60
06/24/2015	15:07:58.534	$GPGGA,150759,2518.1057,N,08004.4544,W,1,10,1.8,13,M,,M,,*65
06/24/2015	15:07:59.554	$GPGGA,150800,2518.1063,N,08004.4537,W,1,10,1.5,13,M,,M,,*68
06/24/2015	15:08:00.534	$GPGGA,150801,2518.1067,N,08004.4531,W,1,10,1.5,13,M,,M,,*6B
06/24/2015	15:08:01.534	$GPGGA,150802,2518.1071,N,08004.4526,W,1,10,1.5,13,M,,M,,*69
06/24/2015	15:08:02.544	$GPGGA,150803,2518.1075,N,08004.4520,W,1,10,1.5,13,M,,M,,*6A
06/24/2015	15:08:03.534	$GPGGA,150804,2518.1081,N,08004.4513,W,1,10,1.5,13,M,,M,,*66
06/24/2015	15:08:04.534	$GPGGA,150805,2518.1086,N,08004.4505,W,1,10,2.0,13,M,,M,,*61
06/24/2015	15:08:05.566	$GPGGA,150806,2518.1089,N,08004.4497,W,1,10,1.5,13,M,,M,,*61
06/24/2015	15:08:06.534	$GPGGA,150807,2518.1093,N,08004.4490,W,1,10,1.5,13,M,,M,,*6C
06/24/2015	15:08:07.534	$GPGGA,150808,2518.1097,N,08004.4484,W,1,10,1.5,13,M,,M,,*62
06/24/2015	15:08:08.534	$GPGGA,150809,2518.1103,N,08004.4477,W,1,10,1.5,13,M,,M,,*63
06/24/2015	15:08:09.514	$GPGGA,150810,2518.1107,N,08004.4470,W,1,10,1.5,13,M,,M,,*68
06/24/2015	15:08:10.524	$GPGGA,150811,2518.1111,N,08004.4462,W,1,10,1.5,13,M,,M,,*6D
06/24/2015	15:08:11.564	$GPGGA,150812,2518.1117,N,08004.4455,W,1,10,1.5,13,M,,M,,*6C
06/24/2015	15:08:12.623	$GPGGA,150813,2518.1122,N,08004.4449,W,1,10,1.5,13,M,,M,,*66
06/24/2015	15:08:13.523	$GPGGA,150814,2518.1128,N,08004.4443,W,1,10,1.5,13,M,,M,,*61
06/24/2015	15:08:14.523	$GPGGA,150815,2518.1133,N,08004.4435,W,1,10,1.5,13,M,,M,,*6B
06/24/2015	15:08:15.504	$GPGGA,150816,2518.1139,N,08004.4429,W,1,9,1.8,13,M,,M,,*5A
06/24/2015	15:08:16.494	$GPGGA,150817,2518.1143,N,08004.4423,W,1,9,1.8,13,M,,M,,*5C
06/24/2015	15:08:17.514	$GPGGA,150818,2518.1147,N,08004.4415,W,1,10,1.5,13,M,,M,,*67
06/24/2015	15:08:18.504	$GPGGA,150819,2518.1153,N,08004.4405,W,1,10,1.5,13,M,,M,,*62
06/24/2015	15:08:19.666	$GPGGA,150820,2518.1158,N,08004.4399,W,1,10,1.5,13,M,,M,,*61
06/24/2015	15:08:20.494	$GPGGA,150821,2518.1161,N,08004.4393,W,1,10,1.5,13,M,,M,,*60
06/24/2015	15:08:21.504	$GPGGA,150822,2518.1168,N,08004.4386,W,1,10,1.5,13,M,,M,,*6E
06/24/2015	15:08:22.584	$GPGGA,150823,2518.1172,N,08004.4379,W,1,10,1.5,13,M,,M,,*64
06/24/2015	15:08:23.634	$GPGGA,150824,2518.1178,N,08004.4371,W,1,10,1.5,13,M,,M,,*61
06/24/2015	15:08:24.584	$GPGGA,150825,2518.1183,N,08004.4365,W,1,10,1.5,14,M,,M,,*66
06/24/2015	15:08:25.484	$GPGGA,150826,2518.1187,N,08004.4358,W,1,10,1.5,14,M,,M,,*6F
06/24/2015	15:08:26.574	$GPGGA,150827,2518.1193,N,08004.4351,W,1,10,1.5,14,M,,M,,*62
06/24/2015	15:08:27.594	$GPGGA,150828,2518.1198,N,08004.4344,W,1,10,1.5,14,M,,M,,*62
06/24/2015	15:08:28.575	$GPGGA,150829,2518.1204,N,08004.4337,W,1,10,1.5,14,M,,M,,*61
06/24/2015	15:08:29.603	$GPGGA,150830,2518.1208,N,08004.4330,W,1,10,1.5,14,M,,M,,*62
06/24/2015	15:08:30.573	$GPGGA,150831,2518.1214,N,08004.4323,W,1,10,1.5,14,M,,M,,*6C
06/24/2015	15:08:31.613	$GPGGA,150832,2518.1219,N,08004.4316,W,1,10,1.5,14,M,,M,,*64
06/24/2015	15:08:32.564	$GPGGA,150833,2518.1226,N,08004.4308,W,1,10,1.5,14,M,,M,,*66
06/24/2015	15:08:33.554	$GPGGA,150834,2518.1230,N,08004.4301,W,1,10,1.5,14,M,,M,,*6F
06/24/2015	15:08:34.579	$GPGGA,150835,2518.1234,N,08004.4295,W,1,10,1.5,14,M,,M,,*66
06/24/2015	15:08:35.634	$GPGGA,150836,2518.1241,N,08004.4287,W,1,10,1.5,14,M,,M,,*64
06/24/2015	15:08:36.554	$GPGGA,150837,2518.1247,N,08004.4280,W,1,10,1.5,14,M,,M,,*64
06/24/2015	15:08:37.577	$GPGGA,150838,2518.1251,N,08004.4273,W,1,10,1.5,14,M,,M,,*60
06/24/2015	15:08:38.554	$GPGGA,150839,2518.1255,N,08004.4265,W,1,10,1.5,14,M,,M,,*62
06/24/2015	15:08:39.569	$GPGGA,150840,2518.1262,N,08004.4258,W,1,10,1.5,14,M,,M,,*66
06/24/2015	15:08:40.554	$GPGGA,150841,2518.1268,N,08004.4250,W,1,10,1.5,14,M,,M,,*65
06/24/2015	15:08:41.544	$GPGGA,150842,2518.1272,N,08004.4243,W,1,10,1.5,14,M,,M,,*6F
06/24/2015	15:08:42.554	$GPGGA,150843,2518.1277,N,08004.4236,W,1,10,1.5,14,M,,M,,*69
06/24/2015	15:08:43.614	$GPGGA,150844,2518.1284,N,08004.4228,W,1,10,1.5,14,M,,M,,*6D
06/24/2015	15:08:44.534	$GPGGA,150845,2518.1288,N,08004.4221,W,1,10,1.5,14,M,,M,,*69
06/24/2015	15:08:45.534	$GPGGA,150846,2518.1294,N,08004.4214,W,1,10,1.5,14,M,,M,,*61
06/24/2015	15:08:46.533	$GPGGA,150847,2518.1299,N,08004.4208,W,1,10,1.7,14,M,,M,,*62
06/24/2015	15:08:47.603	$GPGGA,150848,2518.1306,N,08004.4200,W,1,9,1.5,14,M,,M,,*58
06/24/2015	15:08:48.534	$GPGGA,150849,2518.1310,N,08004.4195,W,1,9,1.5,14,M,,M,,*51
06/24/2015	15:08:49.533	$GPGGA,150850,2518.1317,N,08004.4187,W,1,10,1.7,14,M,,M,,*67
06/24/2015	15:08:50.534	$GPGGA,150851,2518.1320,N,08004.4178,W,1,10,1.5,13,M,,M,,*67
06/24/2015	15:08:51.544	$GPGGA,150852,2518.1326,N,08004.4170,W,1,10,1.5,13,M,,M,,*6A
06/24/2015	15:08:52.534	$GPGGA,150853,2518.1331,N,08004.4164,W,1,10,1.5,13,M,,M,,*68
06/24/2015	15:08:53.514	$GPGGA,150854,2518.1337,N,08004.4155,W,1,10,1.5,13,M,,M,,*6B
06/24/2015	15:08:54.524	$GPGGA,150855,2518.1342,N,08004.4149,W,1,10,1.5,13,M,,M,,*65
06/24/2015	15:08:55.544	$GPGGA,150856,2518.1346,N,08004.4142,W,1,10,1.5,13,M,,M,,*69
06/24/2015	15:08:56.604	$GPGGA,150857,2518.1352,N,08004.4134,W,1,10,1.5,13,M,,M,,*6C
06/24/2015	15:08:57.514	$GPGGA,150858,2518.1357,N,08004.4126,W,1,10,1.5,13,M,,M,,*65
06/24/2015	15:08:58.604	$GPGGA,150859,2518.1363,N,08004.4119,W,1,10,1.5,13,M,,M,,*6F
06/24/2015	15:08:59.624	$GPGGA,150900,2518.1367,N,08004.4112,W,1,10,1.5,13,M,,M,,*6D
06/24/2015	15:09:00.524	$GPGGA,150901,2518.1371,N,08004.4104,W,1,10,1.5,13,M,,M,,*6C
06/24/2015	15:09:01.614	$GPGGA,150902,2518.1378,N,08004.4097,W,1,10,1.5,13,M,,M,,*6D
06/24/2015	15:09:02.524	$GPGGA,150903,2518.1382,N,08004.4090,W,1,10,1.5,13,M,,M,,*6E
06/24/2015	15:09:03.633	$GPGGA,150904,2518.1388,N,08004.4082,W,1,10,1.5,13,M,,M,,*60
06/24/2015	15:09:04.583	$GPGGA,150905,2518.1393,N,08004.4075,W,1,10,1.5,13,M,,M,,*63
06/24/2015	15:09:05.593	$GPGGA,150906,2518.1398,N,08004.4068,W,1,10,1.5,13,M,,M,,*67
06/24/2015	15:09:06.513	$GPGGA,150907,2518.1402,N,08004.4060,W,1,10,1.5,12,M,,M,,*6B
06/24/2015	15:09:07.593	$GPGGA,150908,2518.1407,N,08004.4053,W,1,10,1.5,12,M,,M,,*61
06/24/2015	15:09:08.584	$GPGGA,150909,2518.1413,N,08004.4046,W,1,10,1.5,12,M,,M,,*61
06/24/2015	15:09:09.925	$GPGGA,150910,2518.1417,N,08004.4038,W,1,10,1.5,12,M,,M,,*64
06/24/2015	15:09:10.594	$GPGGA,150911,2518.1422,N,08004.4031,W,1,10,1.5,12,M,,M,,*6A
06/24/2015	15:09:11.614	$GPGGA,150912,2518.1428,N,08004.4024,W,1,10,1.5,12,M,,M,,*67
06/24/2015	15:09:12.575	$GPGGA,150913,2518.1432,N,08004.4015,W,1,10,1.5,12,M,,M,,*6F
06/24/2015	15:09:13.564	$GPGGA,150914,2518.1436,N,08004.4008,W,1,10,1.5,12,M,,M,,*60
06/24/2015	15:09:14.574	$GPGGA,150915,2518.1440,N,08004.4002,W,1,10,1.5,12,M,,M,,*6A
06/24/2015	15:09:15.604	$GPGGA,150916,2518.1446,N,08004.3994,W,1,10,1.5,12,M,,M,,*6E
06/24/2015	15:09:16.576	$GPGGA,150917,2518.1450,N,08004.3986,W,1,10,1.5,12,M,,M,,*6B
06/24/2015	15:09:17.584	$GPGGA,150918,2518.1454,N,08004.3981,W,1,10,1.5,12,M,,M,,*67
06/24/2015	15:09:18.565	$GPGGA,150919,2518.1460,N,08004.3976,W,1,10,1.8,12,M,,M,,*64
06/24/2015	15:09:19.584	$GPGGA,150920,2518.1465,N,08004.3968,W,1,10,1.8,12,M,,M,,*64
06/24/2015	15:09:20.554	$GPGGA,150921,2518.1469,N,08004.3962,W,1,10,1.8,12,M,,M,,*63
06/24/2015	15:09:21.553	$GPGGA,150922,2518.1474,N,08004.3957,W,1,10,1.5,12,M,,M,,*67
06/24/2015	15:09:22.553	$GPGGA,150923,2518.1478,N,08004.3951,W,1,10,1.8,12,M,,M,,*61
06/24/2015	15:09:23.593	$GPGGA,150924,2518.1483,N,08004.3943,W,1,10,1.5,12,M,,M,,*6C
06/24/2015	15:09:24.545	$GPGGA,150925,2518.1489,N,08004.3939,W,1,10,1.8,12,M,,M,,*67
06/24/2015	15:09:25.564	$GPGGA,150926,2518.1493,N,08004.3933,W,1,10,1.5,12,M,,M,,*68
06/24/2015	15:09:26.544	$GPGGA,150927,2518.1497,N,08004.3928,W,1,10,1.5,12,M,,M,,*67
06/24/2015	15:09:27.565	$GPGGA,150928,2518.1501,N,08004.3921,W,1,10,1.5,12,M,,M,,*6F
06/24/2015	15:09:28.544	$GPGGA,150929,2518.1505,N,08004.3914,W,1,10,1.8,12,M,,M,,*61
06/24/2015	15:09:29.534	$GPGGA,150930,2518.1510,N,08004.3907,W,1,10,1.5,12,M,,M,,*62
06/24/2015	15:09:30.544	$GPGGA,150931,2518.1516,N,08004.3901,W,1,10,1.5,12,M,,M,,*63
06/24/2015	15:09:31.564	$GPGGA,150932,2518.1519,N,08004.3894,W,1,10,1.5,12,M,,M,,*62
06/24/2015	15:09:32.534	$GPGGA,150933,2518.1523,N,08004.3886,W,1,10,1.5,12,M,,M,,*69
06/24/2015	15:09:33.954	$GPGGA,150934,2518.1529,N,08004.3879,W,1,10,1.5,12,M,,M,,*64
06/24/2015	15:09:34.544	$GPGGA,150935,2518.1534,N,08004.3872,W,1,10,1.5,12,M,,M,,*62
06/24/2015	15:09:35.534	$GPGGA,150936,2518.1539,N,08004.3863,W,1,10,1.5,12,M,,M,,*6C
06/24/2015	15:09:36.524	$GPGGA,150937,2518.1543,N,08004.3856,W,1,10,1.5,12,M,,M,,*66
06/24/2015	15:09:37.634	$GPGGA,150938,2518.1547,N,08004.3849,W,1,10,1.5,12,M,,M,,*63
06/24/2015	15:09:38.513	$GPGGA,150939,2518.1552,N,08004.3841,W,1,10,1.5,12,M,,M,,*6E
06/24/2015	15:09:39.543	$GPGGA,150940,2518.1557,N,08004.3833,W,1,10,1.5,12,M,,M,,*60
06/24/2015	15:09:40.613	$GPGGA,150941,2518.1562,N,08004.3827,W,1,10,1.5,12,M,,M,,*62
06/24/2015	15:09:41.503	$GPGGA,150942,2518.1566,N,08004.3818,W,1,10,1.5,12,M,,M,,*69
06/24/2015	15:09:42.523	$GPGGA,150943,2518.1570,N,08004.3810,W,1,10,1.5,12,M,,M,,*67
06/24/2015	15:09:43.634	$GPGGA,150944,2518.1576,N,08004.3804,W,1,10,1.5,12,M,,M,,*63
06/24/2015	15:09:44.524	$GPGGA,150945,2518.1580,N,08004.3797,W,1,10,1.5,12,M,,M,,*6E
06/24/2015	15:09:45.604	$GPGGA,150946,2518.1584,N,08004.3788,W,1,10,1.5,12,M,,M,,*67
06/24/2015	15:09:46.514	$GPGGA,150947,2518.1588,N,08004.3781,W,1,10,1.5,12,M,,M,,*63
06/24/2015	15:09:47.614	$GPGGA,150948,2518.1595,N,08004.3775,W,1,10,1.5,12,M,,M,,*6B
06/24/2015	15:09:48.604	$GPGGA,150949,2518.1599,N,08004.3767,W,1,10,1.5,12,M,,M,,*65
06/24/2015	15:09:49.604	$GPGGA,150950,2518.1604,N,08004.3759,W,1,10,1.5,12,M,,M,,*67
06/24/2015	15:09:50.504	$GPGGA,150951,2518.1609,N,08004.3752,W,1,10,1.5,12,M,,M,,*60
06/24/2015	15:09:51.594	$GPGGA,150952,2518.1615,N,08004.3745,W,1,10,1.5,12,M,,M,,*68
06/24/2015	15:09:52.494	$GPGGA,150953,2518.1619,N,08004.3737,W,1,10,1.7,12,M,,M,,*62
06/24/2015	15:09:53.584	$GPGGA,150954,2518.1624,N,08004.3729,W,1,10,1.5,12,M,,M,,*66
06/24/2015	15:09:54.494	$GPGGA,150955,2518.1628,N,08004.3720,W,1,10,1.5,12,M,,M,,*62
06/24/2015	15:09:55.604	$GPGGA,150956,2518.1633,N,08004.3712,W,1,10,1.5,12,M,,M,,*6A
06/24/2015	15:09:56.583	$GPGGA,150957,2518.1638,N,08004.3705,W,1,10,1.5,12,M,,M,,*66
06/24/2015	15:09:57.583	$GPGGA,150958,2518.1642,N,08004.3697,W,1,10,1.5,12,M,,M,,*6E
06/24/2015	15:09:58.574	$GPGGA,150959,2518.1648,N,08004.3688,W,1,10,1.5,12,M,,M,,*6B
06/24/2015	15:09:59.603	$GPGGA,151000,2518.1653,N,08004.3680,W,1,10,1.5,12,M,,M,,*6D
06/24/2015	15:10:00.576	$GPGGA,151001,2518.1657,N,08004.3673,W,1,10,1.5,12,M,,M,,*64
06/24/2015	15:10:01.584	$GPGGA,151002,2518.1664,N,08004.3665,W,1,10,1.5,12,M,,M,,*60
06/24/2015	15:10:02.575	$GPGGA,151003,2518.1669,N,08004.3657,W,1,10,1.7,12,M,,M,,*6F
06/24/2015	15:10:03.584	$GPGGA,151004,2518.1674,N,08004.3650,W,1,9,1.7,12,M,,M,,*5B
06/24/2015	15:10:04.565	$GPGGA,151005,2518.1680,N,08004.3643,W,1,9,1.7,12,M,,M,,*53
06/24/2015	15:10:05.574	$GPGGA,151006,2518.1685,N,08004.3634,W,1,9,1.7,12,M,,M,,*55
06/24/2015	15:10:06.567	$GPGGA,151007,2518.1691,N,08004.3625,W,1,9,1.5,12,M,,M,,*53
06/24/2015	15:10:07.584	$GPGGA,151008,2518.1696,N,08004.3618,W,1,9,1.7,12,M,,M,,*57
06/24/2015	15:10:08.554	$GPGGA,151009,2518.1700,N,08004.3609,W,1,9,1.7,12,M,,M,,*58
06/24/2015	15:10:09.554	$GPGGA,151010,2518.1707,N,08004.3601,W,1,9,1.7,12,M,,M,,*5F
06/24/2015	15:10:10.554	$GPGGA,151011,2518.1713,N,08004.3592,W,1,9,1.7,12,M,,M,,*52
06/24/2015	15:10:11.566	$GPGGA,151012,2518.1717,N,08004.3583,W,1,9,1.7,11,M,,M,,*56
06/24/2015	15:10:12.524	$GPGGA,151013,2518.1721,N,08004.3574,W,1,9,1.5,11,M,,M,,*58
06/24/2015	15:10:13.562	$GPGGA,151014,2518.1727,N,08004.3564,W,1,10,1.5,11,M,,M,,*60
06/24/2015	15:10:14.523	$GPGGA,151015,2518.1732,N,08004.3556,W,1,10,1.5,11,M,,M,,*64
06/24/2015	15:10:15.567	$GPGGA,151016,2518.1738,N,08004.3548,W,1,9,1.7,11,M,,M,,*58
06/24/2015	15:10:16.523	$GPGGA,151017,2518.1742,N,08004.3536,W,1,9,1.7,11,M,,M,,*5D
06/24/2015	15:10:17.553	$GPGGA,151018,2518.1747,N,08004.3527,W,1,10,1.5,11,M,,M,,*6D
06/24/2015	15:10:18.523	$GPGGA,151019,2518.1751,N,08004.3519,W,1,10,1.5,11,M,,M,,*66
06/24/2015	15:10:19.543	$GPGGA,151020,2518.1757,N,08004.3510,W,1,10,1.5,11,M,,M,,*63
06/24/2015	15:10:20.523	$GPGGA,151021,2518.1764,N,08004.3502,W,1,10,1.7,11,M,,M,,*63
06/24/2015	15:10:21.513	$GPGGA,151022,2518.1769,N,08004.3493,W,1,9,1.7,11,M,,M,,*5C
06/24/2015	15:10:22.523	$GPGGA,151023,2518.1772,N,08004.3484,W,1,9,1.7,11,M,,M,,*51
06/24/2015	15:10:23.533	$GPGGA,151024,2518.1779,N,08004.3476,W,1,10,1.5,11,M,,M,,*6A
06/24/2015	15:10:24.503	$GPGGA,151025,2518.1785,N,08004.3466,W,1,10,1.5,11,M,,M,,*69
06/24/2015	15:10:25.533	$GPGGA,151026,2518.1789,N,08004.3456,W,1,10,1.5,11,M,,M,,*65
06/24/2015	15:10:26.513	$GPGGA,151027,2518.1793,N,08004.3448,W,1,10,1.5,11,M,,M,,*60
06/24/2015	15:10:27.533	$GPGGA,151028,2518.1797,N,08004.3438,W,1,10,1.5,11,M,,M,,*6C
06/24/2015	15:10:28.494	$GPGGA,151029,2518.1804,N,08004.3429,W,1,10,1.5,10,M,,M,,*69
06/24/2015	15:10:29.494	$GPGGA,151030,2518.1808,N,08004.3419,W,1,10,1.5,10,M,,M,,*6E
06/24/2015	15:10:30.584	$GPGGA,151031,2518.1812,N,08004.3410,W,1,10,1.5,10,M,,M,,*6D
06/24/2015	15:10:31.603	$GPGGA,151032,2518.1816,N,08004.3401,W,1,10,1.5,10,M,,M,,*6A
06/24/2015	15:10:32.493	$GPGGA,151033,2518.1823,N,08004.3391,W,1,10,1.5,10,M,,M,,*63
06/24/2015	15:10:33.483	$GPGGA,151034,2518.1826,N,08004.3382,W,1,10,1.5,10,M,,M,,*63
06/24/2015	15:10:34.583	$GPGGA,151035,2518.1832,N,08004.3373,W,1,10,1.5,10,M,,M,,*69
06/24/2015	15:10:35.593	$GPGGA,151036,2518.1837,N,08004.3365,W,1,10,1.5,10,M,,M,,*68
06/24/2015	15:10:37.593	$GPGGA,151037,2518.1841,N,08004.3355,W,1,10,1.5,10,M,,M,,*6B
06/24/2015	15:10:37.623	$GPGGA,151038,2518.1847,N,08004.3346,W,1,10,1.5,10,M,,M,,*60
06/24/2015	15:10:38.573	$GPGGA,151039,2518.1852,N,08004.3338,W,1,10,1.5,10,M,,M,,*6C
06/24/2015	15:10:39.583	$GPGGA,151040,2518.1857,N,08004.3329,W,1,10,1.5,10,M,,M,,*67
06/24/2015	15:10:40.483	$GPGGA,151041,2518.1861,N,08004.3320,W,1,10,1.5,10,M,,M,,*6A
06/24/2015	15:10:41.593	$GPGGA,151042,2518.1866,N,08004.3311,W,1,10,1.5,10,M,,M,,*6C
06/24/2015	15:10:42.573	$GPGGA,151043,2518.1872,N,08004.3302,W,1,10,1.5,10,M,,M,,*6A
06/24/2015	15:10:43.583	$GPGGA,151044,2518.1877,N,08004.3295,W,1,9,1.7,10,M,,M,,*5D
06/24/2015	15:10:44.573	$GPGGA,151045,2518.1881,N,08004.3287,W,1,9,1.5,10,M,,M,,*54
06/24/2015	15:10:45.560	$GPGGA,151046,2518.1887,N,08004.3278,W,1,10,1.5,10,M,,M,,*69
06/24/2015	15:10:46.566	$GPGGA,151047,2518.1891,N,08004.3271,W,1,10,1.7,10,M,,M,,*64
06/24/2015	15:10:47.567	$GPGGA,151048,2518.1898,N,08004.3263,W,1,9,1.7,10,M,,M,,*59
06/24/2015	15:10:48.556	$GPGGA,151049,2518.1902,N,08004.3253,W,1,9,1.7,10,M,,M,,*59
06/24/2015	15:10:49.573	$GPGGA,151050,2518.1906,N,08004.3244,W,1,10,1.5,10,M,,M,,*69
06/24/2015	15:10:50.543	$GPGGA,151051,2518.1911,N,08004.3236,W,1,10,1.5,10,M,,M,,*6B
06/24/2015	15:10:51.573	$GPGGA,151052,2518.1915,N,08004.3226,W,1,9,1.7,10,M,,M,,*57
06/24/2015	15:10:52.555	$GPGGA,151053,2518.1920,N,08004.3218,W,1,9,1.5,10,M,,M,,*5F
06/24/2015	15:10:53.573	$GPGGA,151054,2518.1924,N,08004.3210,W,1,9,1.7,10,M,,M,,*56
06/24/2015	15:10:54.543	$GPGGA,151055,2518.1928,N,08004.3201,W,1,9,1.5,10,M,,M,,*59
06/24/2015	15:10:55.553	$GPGGA,151056,2518.1934,N,08004.3193,W,1,10,1.5,10,M,,M,,*67
06/24/2015	15:10:56.554	$GPGGA,151057,2518.1938,N,08004.3185,W,1,10,1.5,10,M,,M,,*6D
06/24/2015	15:10:57.543	$GPGGA,151058,2518.1942,N,08004.3177,W,1,10,1.5,10,M,,M,,*62
06/24/2015	15:10:58.543	$GPGGA,151059,2518.1945,N,08004.3168,W,1,10,1.5,10,M,,M,,*6A
06/24/2015	15:10:59.573	$GPGGA,151100,2518.1951,N,08004.3160,W,1,10,1.5,10,M,,M,,*6A
06/24/2015	15:11:00.533	$GPGGA,151101,2518.1956,N,08004.3152,W,1,10,1.5,10,M,,M,,*6D
06/24/2015	15:11:01.523	$GPGGA,151102,2518.1960,N,08004.3143,W,1,10,1.5,10,M,,M,,*6B
06/24/2015	15:11:02.543	$GPGGA,151103,2518.1963,N,08004.3135,W,1,10,1.5,10,M,,M,,*68
06/24/2015	15:11:03.544	$GPGGA,151104,2518.1967,N,08004.3127,W,1,10,1.5,10,M,,M,,*68
06/24/2015	15:11:04.524	$GPGGA,151105,2518.1973,N,08004.3118,W,1,10,1.5,10,M,,M,,*60
06/24/2015	15:11:05.534	$GPGGA,151106,2518.1977,N,08004.3111,W,1,10,1.5,10,M,,M,,*6E
06/24/2015	15:11:07.553	$GPGGA,151108,2518.1985,N,08004.3093,W,1,10,1.5,10,M,,M,,*66
06/24/2015	15:11:08.523	$GPGGA,151109,2518.1989,N,08004.3086,W,1,10,1.5,10,M,,M,,*6F
06/24/2015	15:11:09.643	$GPGGA,151110,2518.1992,N,08004.3077,W,1,10,1.5,10,M,,M,,*63
06/24/2015	15:11:10.503	$GPGGA,151111,2518.1998,N,08004.3069,W,1,10,1.5,10,M,,M,,*67
06/24/2015	15:11:11.533	$GPGGA,151112,2518.2003,N,08004.3061,W,1,10,1.5,10,M,,M,,*64
06/24/2015	15:11:12.673	$GPGGA,151113,2518.2006,N,08004.3054,W,1,10,1.5,10,M,,M,,*66
06/24/2015	15:11:13.653	$GPGGA,151114,2518.2010,N,08004.3045,W,1,10,1.5,10,M,,M,,*66
06/24/2015	15:11:14.493	$GPGGA,151115,2518.2014,N,08004.3037,W,1,10,1.5,10,M,,M,,*66
06/24/2015	15:11:15.533	$GPGGA,151116,2518.2020,N,08004.3028,W,1,10,1.5,10,M,,M,,*6C
06/24/2015	15:11:16.503	$GPGGA,151117,2518.2023,N,08004.3021,W,1,10,1.5,10,M,,M,,*67
06/24/2015	15:11:17.956	$GPGGA,151118,2518.2027,N,08004.3013,W,1,10,1.5,10,M,,M,,*6D
06/24/2015	15:11:18.655	$GPGGA,151119,2518.2032,N,08004.3005,W,1,10,1.5,10,M,,M,,*6F
06/24/2015	15:11:19.663	$GPGGA,151120,2518.2036,N,08004.2996,W,1,10,1.5,10,M,,M,,*63
06/24/2015	15:11:20.494	$GPGGA,151121,2518.2039,N,08004.2988,W,1,10,1.5,10,M,,M,,*62
06/24/2015	15:11:21.614	$GPGGA,151122,2518.2043,N,08004.2981,W,1,10,1.5,10,M,,M,,*65
06/24/2015	15:11:22.654	$GPGGA,151123,2518.2049,N,08004.2972,W,1,10,1.5,10,M,,M,,*62
06/24/2015	15:11:23.663	$GPGGA,151124,2518.2053,N,08004.2963,W,1,10,1.5,10,M,,M,,*6E
06/24/2015	15:11:24.573	$GPGGA,151125,2518.2057,N,08004.2955,W,1,10,1.5,10,M,,M,,*6E
06/24/2015	15:11:25.593	$GPGGA,151126,2518.2061,N,08004.2948,W,1,10,1.5,10,M,,M,,*64
06/24/2015	15:11:26.644	$GPGGA,151127,2518.2065,N,08004.2938,W,1,10,1.5,10,M,,M,,*66
06/24/2015	15:11:27.633	$GPGGA,151128,2518.2070,N,08004.2930,W,1,10,1.5,10,M,,M,,*65
06/24/2015	15:11:28.563	$GPGGA,151129,2518.2074,N,08004.2922,W,1,10,1.5,10,M,,M,,*63
06/24/2015	15:11:29.603	$GPGGA,151130,2518.2078,N,08004.2914,W,1,10,1.5,10,M,,M,,*62
06/24/2015	15:11:30.633	$GPGGA,151131,2518.2083,N,08004.2905,W,1,10,1.5,10,M,,M,,*67
06/24/2015	15:11:31.655	$GPGGA,151132,2518.2086,N,08004.2896,W,1,10,1.7,10,M,,M,,*68
06/24/2015	15:11:32.633	$GPGGA,151133,2518.2092,N,08004.2890,W,1,10,1.7,10,M,,M,,*6A
06/24/2015	15:11:33.593	$GPGGA,151134,2518.2097,N,08004.2882,W,1,9,1.5,10,M,,M,,*51
06/24/2015	15:11:34.623	$GPGGA,151135,2518.2101,N,08004.2872,W,1,9,1.5,10,M,,M,,*51
06/24/2015	15:11:35.613	$GPGGA,151136,2518.2104,N,08004.2865,W,1,10,1.7,10,M,,M,,*6B
06/24/2015	15:11:36.604	$GPGGA,151137,2518.2110,N,08004.2859,W,1,10,1.5,10,M,,M,,*62
06/24/2015	15:11:37.593	$GPGGA,151138,2518.2115,N,08004.2851,W,1,10,1.5,10,M,,M,,*60
06/24/2015	15:11:38.604	$GPGGA,151139,2518.2119,N,08004.2842,W,1,10,1.5,10,M,,M,,*6F
06/24/2015	15:11:39.604	$GPGGA,151140,2518.2123,N,08004.2834,W,1,10,1.5,10,M,,M,,*69
06/24/2015	15:11:40.594	$GPGGA,151141,2518.2129,N,08004.2828,W,1,10,1.5,10,M,,M,,*6F
06/24/2015	15:11:41.583	$GPGGA,151142,2518.2133,N,08004.2820,W,1,10,1.5,10,M,,M,,*6F
06/24/2015	15:11:42.533	$GPGGA,151143,2518.2137,N,08004.2811,W,1,10,1.5,10,M,,M,,*68
06/24/2015	15:11:43.623	$GPGGA,151144,2518.2141,N,08004.2805,W,1,10,1.5,10,M,,M,,*6B
06/24/2015	15:11:44.593	$GPGGA,151145,2518.2148,N,08004.2799,W,1,10,1.5,10,M,,M,,*69
06/24/2015	15:11:45.573	$GPGGA,151146,2518.2151,N,08004.2790,W,1,10,1.5,10,M,,M,,*6B
06/24/2015	15:11:46.593	$GPGGA,151147,2518.2157,N,08004.2783,W,1,10,1.5,10,M,,M,,*6E
06/24/2015	15:11:47.623	$GPGGA,151148,2518.2162,N,08004.2777,W,1,10,1.5,10,M,,M,,*6C
06/24/2015	15:11:48.583	$GPGGA,151149,2518.2166,N,08004.2770,W,1,10,1.5,10,M,,M,,*6E
