Software Version Number: 1	Data File Format Number: 1	Build Version Number: 1	Error Count Since VI Started: 3	Manufacturer: Raytheon	 Model Number: RayMarine 120	 S/N: 	 Cal Date: 	 Wind Direction Offset: 0.00	 Slope (M)1: 0.00	 Offset (B)1: 0.00	 Slope (M)2: 0.00	 Offset (B)2: 0.00	 Slope (M)3: 0.00	 Offset (B)3: 0.00	 Slope (M)4: 0.00	 Offset (B)4: 0.00	 Slope (M)5: 0.00	 Offset (B)5: 0.00	 Slope (M)6: 0.00	 Offset (B)6: 0.00
Computer Date	Computer Time	GGA String
06/23/2015	00:00:00.553	$GPGGA,000001,2418.1151,N,08155.3229,W,1,9,1.7,16,M,,M,,*51
06/23/2015	00:00:01.563	$GPGGA,000002,2418.1151,N,08155.3201,W,1,9,1.7,16,M,,M,,*58
06/23/2015	00:00:02.543	$GPGGA,000003,2418.1149,N,08155.3173,W,1,9,1.7,16,M,,M,,*56
06/23/2015	00:00:03.553	$GPGGA,000004,2418.1151,N,08155.3147,W,1,9,1.7,17,M,,M,,*5E
06/23/2015	00:00:04.533	$GPGGA,000005,2418.1149,N,08155.3118,W,1,9,1.7,17,M,,M,,*5C
06/23/2015	00:00:05.573	$GPGGA,000006,2418.1150,N,08155.3092,W,1,9,1.7,17,M,,M,,*54
06/23/2015	00:00:06.543	$GPGGA,000007,2418.1151,N,08155.3065,W,1,9,1.7,17,M,,M,,*5C
06/23/2015	00:00:07.573	$GPGGA,000008,2418.1149,N,08155.3037,W,1,9,1.7,17,M,,M,,*5D
06/23/2015	00:00:08.533	$GPGGA,000009,2418.1151,N,08155.3011,W,1,9,1.7,17,M,,M,,*51
06/23/2015	00:00:09.553	$GPGGA,000010,2418.1149,N,08155.2984,W,1,9,1.7,17,M,,M,,*54
06/23/2015	00:00:10.523	$GPGGA,000011,2418.1150,N,08155.2956,W,1,9,1.9,17,M,,M,,*5C
06/23/2015	00:00:11.533	$GPGGA,000012,2418.1151,N,08155.2929,W,1,9,1.7,17,M,,M,,*58
06/23/2015	00:00:12.523	$GPGGA,000013,2418.1151,N,08155.2901,W,1,9,1.7,17,M,,M,,*53
06/23/2015	00:00:13.523	$GPGGA,000014,2418.1148,N,08155.2874,W,1,9,1.7,18,M,,M,,*50
06/23/2015	00:00:14.513	$GPGGA,000015,2418.1149,N,08155.2846,W,1,9,1.7,18,M,,M,,*51
06/23/2015	00:00:15.523	$GPGGA,000016,2418.1148,N,08155.2819,W,1,9,1.7,18,M,,M,,*59
06/23/2015	00:00:16.523	$GPGGA,000017,2418.1147,N,08155.2792,W,1,9,1.7,18,M,,M,,*5B
06/23/2015	00:00:17.523	$GPGGA,000018,2418.1147,N,08155.2764,W,1,9,1.7,18,M,,M,,*5D
06/23/2015	00:00:18.608	$GPGGA,000019,2418.1147,N,08155.2736,W,1,9,1.7,18,M,,M,,*5B
06/23/2015	00:00:19.553	$GPGGA,000020,2418.1145,N,08155.2708,W,1,9,1.7,18,M,,M,,*5E
06/23/2015	00:00:20.505	$GPGGA,000021,2418.1144,N,08155.2681,W,1,9,1.7,18,M,,M,,*5E
06/23/2015	00:00:21.513	$GPGGA,000022,2418.1143,N,08155.2654,W,1,9,1.7,18,M,,M,,*52
06/23/2015	00:00:22.513	$GPGGA,000023,2418.1143,N,08155.2626,W,1,9,1.7,19,M,,M,,*57
06/23/2015	00:00:23.604	$GPGGA,000024,2418.1142,N,08155.2599,W,1,9,1.7,19,M,,M,,*56
06/23/2015	00:00:24.503	$GPGGA,000025,2418.1141,N,08155.2571,W,1,9,1.7,19,M,,M,,*52
06/23/2015	00:00:25.523	$GPGGA,000026,2418.1142,N,08155.2543,W,1,9,1.7,19,M,,M,,*53
06/23/2015	00:00:26.513	$GPGGA,000027,2418.1140,N,08155.2517,W,1,9,1.7,19,M,,M,,*51
06/23/2015	00:00:27.523	$GPGGA,000028,2418.1140,N,08155.2489,W,1,9,1.7,19,M,,M,,*58
06/23/2015	00:00:28.583	$GPGGA,000029,2418.1140,N,08155.2460,W,1,9,1.7,19,M,,M,,*5E
06/23/2015	00:00:29.583	$GPGGA,000030,2418.1140,N,08155.2434,W,1,9,1.7,19,M,,M,,*57
06/23/2015	00:00:30.583	$GPGGA,000031,2418.1138,N,08155.2406,W,1,9,1.7,19,M,,M,,*58
06/23/2015	00:00:31.643	$GPGGA,000032,2418.1139,N,08155.2378,W,1,9,1.7,19,M,,M,,*54
06/23/2015	00:00:32.653	$GPGGA,000033,2418.1138,N,08155.2352,W,1,9,1.7,19,M,,M,,*5C
06/23/2015	00:00:33.606	$GPGGA,000034,2418.1137,N,08155.2324,W,1,9,1.7,19,M,,M,,*55
06/23/2015	00:00:34.574	$GPGGA,000035,2418.1138,N,08155.2296,W,1,9,1.7,19,M,,M,,*53
06/23/2015	00:00:35.583	$GPGGA,000036,2418.1137,N,08155.2269,W,1,9,1.7,19,M,,M,,*5F
06/23/2015	00:00:36.644	$GPGGA,000037,2418.1138,N,08155.2241,W,1,9,1.7,19,M,,M,,*5B
06/23/2015	00:00:37.613	$GPGGA,000038,2418.1137,N,08155.2213,W,1,9,1.7,19,M,,M,,*5C
06/23/2015	00:00:38.633	$GPGGA,000039,2418.1138,N,08155.2186,W,1,9,1.7,19,M,,M,,*5D
06/23/2015	00:00:39.673	$GPGGA,000040,2418.1137,N,08155.2158,W,1,9,1.7,19,M,,M,,*5F
06/23/2015	00:00:40.563	$GPGGA,000041,2418.1139,N,08155.2129,W,1,9,1.7,19,M,,M,,*56
06/23/2015	00:00:41.609	$GPGGA,000042,2418.1140,N,08155.2101,W,1,9,1.7,19,M,,M,,*51
06/23/2015	00:00:42.633	$GPGGA,000043,2418.1140,N,08155.2074,W,1,9,1.7,19,M,,M,,*53
06/23/2015	00:00:43.623	$GPGGA,000044,2418.1140,N,08155.2047,W,1,9,1.7,19,M,,M,,*54
06/23/2015	00:00:44.603	$GPGGA,000045,2418.1140,N,08155.2020,W,1,9,1.7,19,M,,M,,*54
06/23/2015	00:00:45.598	$GPGGA,000046,2418.1142,N,08155.1991,W,1,9,1.7,19,M,,M,,*55
06/23/2015	00:00:46.543	$GPGGA,000047,2418.1141,N,08155.1965,W,1,9,1.7,19,M,,M,,*5C
06/23/2015	00:00:47.623	$GPGGA,000048,2418.1143,N,08155.1937,W,1,9,1.7,19,M,,M,,*56
06/23/2015	00:00:48.623	$GPGGA,000049,2418.1142,N,08155.1910,W,1,9,1.7,19,M,,M,,*53
06/23/2015	00:00:49.596	$GPGGA,000050,2418.1143,N,08155.1884,W,1,9,1.7,19,M,,M,,*56
06/23/2015	00:00:50.603	$GPGGA,000051,2418.1143,N,08155.1856,W,1,9,1.7,19,M,,M,,*58
06/23/2015	00:00:51.633	$GPGGA,000052,2418.1143,N,08155.1829,W,1,9,1.7,19,M,,M,,*53
06/23/2015	00:00:52.543	$GPGGA,000053,2418.1144,N,08155.1801,W,1,9,1.7,19,M,,M,,*5F
06/23/2015	00:00:53.605	$GPGGA,000054,2418.1146,N,08155.1773,W,1,9,1.7,19,M,,M,,*50
06/23/2015	00:00:54.593	$GPGGA,000055,2418.1144,N,08155.1746,W,1,9,1.7,19,M,,M,,*55
06/23/2015	00:00:55.583	$GPGGA,000056,2418.1144,N,08155.1719,W,1,9,1.7,19,M,,M,,*5C
06/23/2015	00:00:56.598	$GPGGA,000057,2418.1146,N,08155.1691,W,1,9,1.7,18,M,,M,,*5F
06/23/2015	00:00:57.613	$GPGGA,000058,2418.1145,N,08155.1665,W,1,9,1.7,18,M,,M,,*58
06/23/2015	00:00:58.523	$GPGGA,000059,2418.1146,N,08155.1638,W,1,9,1.7,18,M,,M,,*52
06/23/2015	00:00:59.598	$GPGGA,000100,2418.1145,N,08155.1610,W,1,9,1.7,18,M,,M,,*56
06/23/2015	00:01:00.523	$GPGGA,000101,2418.1146,N,08155.1584,W,1,9,1.7,18,M,,M,,*5A
06/23/2015	00:01:01.523	$GPGGA,000102,2418.1147,N,08155.1556,W,1,9,1.7,18,M,,M,,*57
06/23/2015	00:01:02.583	$GPGGA,000103,2418.1147,N,08155.1528,W,1,9,1.7,18,M,,M,,*5F
06/23/2015	00:01:03.604	$GPGGA,000104,2418.1145,N,08155.1502,W,1,9,1.7,18,M,,M,,*52
06/23/2015	00:01:04.573	$GPGGA,000105,2418.1147,N,08155.1474,W,1,9,1.9,18,M,,M,,*5F
06/23/2015	00:01:05.553	$GPGGA,000106,2418.1147,N,08155.1446,W,1,8,1.7,18,M,,M,,*52
06/23/2015	00:01:06.623	$GPGGA,000107,2418.1147,N,08155.1420,W,1,8,1.9,18,M,,M,,*5D
06/23/2015	00:01:07.633	$GPGGA,000108,2418.1145,N,08155.1391,W,1,8,1.7,18,M,,M,,*53
06/23/2015	00:01:08.564	$GPGGA,000109,2418.1146,N,08155.1363,W,1,8,1.7,18,M,,M,,*5C
06/23/2015	00:01:09.508	$GPGGA,000110,2418.1145,N,08155.1335,W,1,9,1.7,18,M,,M,,*55
06/23/2015	00:01:10.573	$GPGGA,000111,2418.1144,N,08155.1306,W,1,9,1.7,17,M,,M,,*5A
06/23/2015	00:01:11.623	$GPGGA,000112,2418.1144,N,08155.1278,W,1,9,1.7,17,M,,M,,*51
06/23/2015	00:01:12.563	$GPGGA,000113,2418.1143,N,08155.1250,W,1,9,1.7,17,M,,M,,*5D
06/23/2015	00:01:13.553	$GPGGA,000114,2418.1143,N,08155.1221,W,1,9,1.7,17,M,,M,,*5C
06/23/2015	00:01:14.613	$GPGGA,000115,2418.1143,N,08155.1193,W,1,9,1.7,17,M,,M,,*57
06/23/2015	00:01:15.603	$GPGGA,000116,2418.1143,N,08155.1166,W,1,9,1.7,17,M,,M,,*5E
06/23/2015	00:01:16.563	$GPGGA,000117,2418.1143,N,08155.1137,W,1,9,1.7,17,M,,M,,*5B
06/23/2015	00:01:17.483	$GPGGA,000118,2418.1143,N,08155.1109,W,1,9,1.7,17,M,,M,,*59
06/23/2015	00:01:18.583	$GPGGA,000119,2418.1143,N,08155.1082,W,1,9,1.7,17,M,,M,,*5A
06/23/2015	00:01:19.563	$GPGGA,000120,2418.1142,N,08155.1053,W,1,9,1.7,17,M,,M,,*5D
06/23/2015	00:01:20.583	$GPGGA,000121,2418.1141,N,08155.1026,W,1,9,1.7,17,M,,M,,*5D
06/23/2015	00:01:21.613	$GPGGA,000122,2418.1142,N,08155.1000,W,1,9,1.7,17,M,,M,,*59
06/23/2015	00:01:22.595	$GPGGA,000123,2418.1141,N,08155.0971,W,1,9,1.7,17,M,,M,,*55
06/23/2015	00:01:23.613	$GPGGA,000124,2418.1143,N,08155.0945,W,1,9,1.7,17,M,,M,,*57
06/23/2015	00:01:24.574	$GPGGA,000125,2418.1141,N,08155.0919,W,1,9,1.7,17,M,,M,,*5D
06/23/2015	00:01:25.606	$GPGGA,000126,2418.1142,N,08155.0890,W,1,9,1.7,17,M,,M,,*5D
06/23/2015	00:01:26.573	$GPGGA,000127,2418.1143,N,08155.0864,W,1,9,1.7,17,M,,M,,*56
06/23/2015	00:01:27.583	$GPGGA,000128,2418.1142,N,08155.0837,W,1,9,1.7,17,M,,M,,*5E
06/23/2015	00:01:28.603	$GPGGA,000129,2418.1143,N,08155.0809,W,1,9,1.7,17,M,,M,,*53
06/23/2015	00:01:29.563	$GPGGA,000130,2418.1143,N,08155.0782,W,1,9,1.7,17,M,,M,,*57
06/23/2015	00:01:30.563	$GPGGA,000131,2418.1144,N,08155.0754,W,1,9,1.7,17,M,,M,,*5A
06/23/2015	00:01:31.593	$GPGGA,000132,2418.1144,N,08155.0726,W,1,9,1.7,17,M,,M,,*5C
06/23/2015	00:01:32.593	$GPGGA,000133,2418.1146,N,08155.0699,W,1,9,1.7,17,M,,M,,*5A
06/23/2015	00:01:33.553	$GPGGA,000134,2418.1147,N,08155.0671,W,1,9,1.7,17,M,,M,,*5A
06/23/2015	00:01:34.563	$GPGGA,000135,2418.1147,N,08155.0645,W,1,9,1.7,17,M,,M,,*5C
06/23/2015	00:01:35.583	$GPGGA,000136,2418.1149,N,08155.0617,W,1,9,1.7,17,M,,M,,*56
06/23/2015	00:01:36.573	$GPGGA,000137,2418.1150,N,08155.0590,W,1,9,1.7,17,M,,M,,*53
06/23/2015	00:01:37.608	$GPGGA,000138,2418.1149,N,08155.0562,W,1,9,1.7,17,M,,M,,*59
06/23/2015	00:01:38.563	$GPGGA,000139,2418.1151,N,08155.0535,W,1,9,1.9,17,M,,M,,*5D
06/23/2015	00:01:39.583	$GPGGA,000140,2418.1151,N,08155.0508,W,1,8,1.7,17,M,,M,,*52
06/23/2015	00:01:40.823	$GPGGA,000141,2418.1151,N,08155.0480,W,1,8,1.7,17,M,,M,,*52
06/23/2015	00:01:41.594	$GPGGA,000142,2418.1151,N,08155.0453,W,1,9,1.7,17,M,,M,,*5E
06/23/2015	00:01:42.563	$GPGGA,000143,2418.1151,N,08155.0426,W,1,9,1.7,17,M,,M,,*5D
06/23/2015	00:01:43.573	$GPGGA,000144,2418.1151,N,08155.0399,W,1,9,1.7,17,M,,M,,*59
06/23/2015	00:01:44.563	$GPGGA,000145,2418.1153,N,08155.0372,W,1,9,1.7,17,M,,M,,*5F
06/23/2015	00:01:45.543	$GPGGA,000146,2418.1152,N,08155.0344,W,1,9,1.7,17,M,,M,,*58
06/23/2015	00:01:46.553	$GPGGA,000147,2418.1153,N,08155.0317,W,1,9,1.7,17,M,,M,,*5E
06/23/2015	00:01:47.573	$GPGGA,000148,2418.1152,N,08155.0291,W,1,9,1.9,17,M,,M,,*51
06/23/2015	00:01:48.543	$GPGGA,000149,2418.1152,N,08155.0291,W,1,9,1.9,17,M,,M,,*50
06/23/2015	00:01:49.553	$GPGGA,000150,2418.1152,N,08155.0237,W,1,9,1.7,17,M,,M,,*5A
06/23/2015	00:01:50.523	$GPGGA,000151,2418.1152,N,08155.0237,W,1,9,1.7,17,M,,M,,*5B
06/23/2015	00:01:51.573	$GPGGA,000152,2418.1152,N,08155.0182,W,1,9,1.7,17,M,,M,,*55
06/23/2015	00:01:52.563	$GPGGA,000153,2418.1153,N,08155.0155,W,1,9,1.7,16,M,,M,,*5E
06/23/2015	00:01:53.543	$GPGGA,000154,2418.1154,N,08155.0127,W,1,9,1.7,16,M,,M,,*5B
06/23/2015	00:01:54.543	$GPGGA,000155,2418.1154,N,08155.0127,W,1,9,1.7,16,M,,M,,*5A
06/23/2015	00:01:55.533	$GPGGA,000156,2418.1154,N,08155.0071,W,1,9,1.7,16,M,,M,,*5B
06/23/2015	00:01:56.513	$GPGGA,000157,2418.1154,N,08155.0071,W,1,9,1.7,16,M,,M,,*5A
06/23/2015	00:01:57.533	$GPGGA,000158,2418.1153,N,08155.0015,W,1,9,1.7,16,M,,M,,*50
06/23/2015	00:01:58.553	$GPGGA,000159,2418.1154,N,08154.9986,W,1,9,1.7,16,M,,M,,*5D
06/23/2015	00:01:59.543	$GPGGA,000200,2418.1154,N,08154.9958,W,1,9,1.7,16,M,,M,,*51
06/23/2015	00:02:00.503	$GPGGA,000201,2418.1154,N,08154.9958,W,1,9,1.7,16,M,,M,,*50
06/23/2015	00:02:01.513	$GPGGA,000202,2418.1154,N,08154.9902,W,1,9,1.7,16,M,,M,,*5C
06/23/2015	00:02:02.593	$GPGGA,000203,2418.1153,N,08154.9874,W,1,9,1.7,17,M,,M,,*5B
06/23/2015	00:02:03.643	$GPGGA,000204,2418.1154,N,08154.9847,W,1,9,1.7,17,M,,M,,*5B
06/23/2015	00:02:04.513	$GPGGA,000205,2418.1154,N,08154.9847,W,1,9,1.7,17,M,,M,,*5A
06/23/2015	00:02:05.623	$GPGGA,000206,2418.1152,N,08154.9790,W,1,9,1.7,17,M,,M,,*5A
06/23/2015	00:02:06.593	$GPGGA,000207,2418.1153,N,08154.9763,W,1,9,1.7,17,M,,M,,*56
06/23/2015	00:02:07.503	$GPGGA,000208,2418.1151,N,08154.9735,W,1,9,1.7,17,M,,M,,*58
06/23/2015	00:02:08.603	$GPGGA,000209,2418.1151,N,08154.9708,W,1,9,1.7,17,M,,M,,*57
06/23/2015	00:02:09.507	$GPGGA,000210,2418.1151,N,08154.9680,W,1,9,1.7,17,M,,M,,*5E
06/23/2015	00:02:10.533	$GPGGA,000211,2418.1151,N,08154.9680,W,1,9,1.7,17,M,,M,,*5F
06/23/2015	00:02:11.613	$GPGGA,000212,2418.1151,N,08154.9625,W,1,9,1.7,17,M,,M,,*53
06/23/2015	00:02:12.573	$GPGGA,000213,2418.1151,N,08154.9597,W,1,9,1.7,17,M,,M,,*58
06/23/2015	00:02:13.573	$GPGGA,000214,2418.1151,N,08154.9569,W,1,9,1.7,17,M,,M,,*5E
06/23/2015	00:02:14.593	$GPGGA,000215,2418.1151,N,08154.9541,W,1,9,1.7,17,M,,M,,*55
06/23/2015	00:02:15.593	$GPGGA,000216,2418.1151,N,08154.9514,W,1,9,1.7,17,M,,M,,*56
06/23/2015	00:02:16.573	$GPGGA,000217,2418.1151,N,08154.9487,W,1,9,1.7,17,M,,M,,*5C
06/23/2015	00:02:17.583	$GPGGA,000218,2418.1151,N,08154.9459,W,1,9,1.7,17,M,,M,,*50
06/23/2015	00:02:18.573	$GPGGA,000219,2418.1151,N,08154.9432,W,1,9,1.7,17,M,,M,,*5C
06/23/2015	00:02:19.583	$GPGGA,000220,2418.1151,N,08154.9405,W,1,9,1.7,17,M,,M,,*52
06/23/2015	00:02:20.563	$GPGGA,000221,2418.1149,N,08154.9377,W,1,9,1.7,17,M,,M,,*58
06/23/2015	00:02:21.573	$GPGGA,000222,2418.1150,N,08154.9351,W,1,9,1.7,16,M,,M,,*56
06/23/2015	00:02:22.563	$GPGGA,000223,2418.1149,N,08154.9325,W,1,9,1.7,16,M,,M,,*5C
06/23/2015	00:02:24.607	$GPGGA,000225,2418.1149,N,08154.9271,W,1,9,1.7,16,M,,M,,*5A
06/23/2015	00:02:25.543	$GPGGA,000226,2418.1148,N,08154.9243,W,1,9,1.7,16,M,,M,,*59
06/23/2015	00:02:26.553	$GPGGA,000227,2418.1149,N,08154.9216,W,1,9,1.7,16,M,,M,,*59
06/23/2015	00:02:27.583	$GPGGA,000228,2418.1148,N,08154.9191,W,1,9,1.7,16,M,,M,,*5B
06/23/2015	00:02:28.553	$GPGGA,000229,2418.1149,N,08154.9163,W,1,9,1.7,16,M,,M,,*56
06/23/2015	00:02:29.543	$GPGGA,000230,2418.1148,N,08154.9136,W,1,9,1.7,16,M,,M,,*5F
06/23/2015	00:02:30.553	$GPGGA,000231,2418.1149,N,08154.9110,W,1,9,1.7,16,M,,M,,*5B
06/23/2015	00:02:31.553	$GPGGA,000232,2418.1148,N,08154.9082,W,1,9,1.7,16,M,,M,,*53
06/23/2015	00:02:32.543	$GPGGA,000233,2418.1149,N,08154.9054,W,1,9,1.7,16,M,,M,,*58
06/23/2015	00:02:33.563	$GPGGA,000234,2418.1150,N,08154.9027,W,1,9,1.7,16,M,,M,,*53
06/23/2015	00:02:34.533	$GPGGA,000235,2418.1149,N,08154.8999,W,1,9,1.7,16,M,,M,,*57
06/23/2015	00:02:35.543	$GPGGA,000236,2418.1150,N,08154.8972,W,1,9,1.7,16,M,,M,,*59
06/23/2015	00:02:36.543	$GPGGA,000237,2418.1151,N,08154.8944,W,1,9,1.7,16,M,,M,,*5C
06/23/2015	00:02:37.523	$GPGGA,000238,2418.1151,N,08154.8916,W,1,9,1.7,16,M,,M,,*54
06/23/2015	00:02:38.543	$GPGGA,000239,2418.1151,N,08154.8889,W,1,9,1.7,16,M,,M,,*52
06/23/2015	00:02:39.533	$GPGGA,000240,2418.1153,N,08154.8861,W,1,9,1.7,16,M,,M,,*58
06/23/2015	00:02:40.613	$GPGGA,000241,2418.1152,N,08154.8834,W,1,9,1.7,16,M,,M,,*58
06/23/2015	00:02:41.533	$GPGGA,000242,2418.1153,N,08154.8807,W,1,9,1.7,15,M,,M,,*59
06/23/2015	00:02:42.533	$GPGGA,000243,2418.1154,N,08154.8779,W,1,9,1.7,15,M,,M,,*59
06/23/2015	00:02:43.553	$GPGGA,000244,2418.1154,N,08154.8751,W,1,9,1.7,15,M,,M,,*54
06/23/2015	00:02:44.513	$GPGGA,000245,2418.1154,N,08154.8724,W,1,9,1.7,15,M,,M,,*57
06/23/2015	00:02:45.506	$GPGGA,000246,2418.1156,N,08154.8697,W,1,9,1.7,15,M,,M,,*5F
06/23/2015	00:02:46.623	$GPGGA,000247,2418.1157,N,08154.8668,W,1,9,1.7,15,M,,M,,*5F
06/23/2015	00:02:47.623	$GPGGA,000248,2418.1156,N,08154.8640,W,1,9,1.7,15,M,,M,,*5B
06/23/2015	00:02:48.603	$GPGGA,000249,2418.1158,N,08154.8613,W,1,9,1.7,15,M,,M,,*52
06/23/2015	00:02:49.623	$GPGGA,000250,2418.1158,N,08154.8584,W,1,9,1.7,15,M,,M,,*57
06/23/2015	00:02:50.623	$GPGGA,000251,2418.1158,N,08154.8557,W,1,9,1.7,15,M,,M,,*58
06/23/2015	00:02:51.533	$GPGGA,000252,2418.1158,N,08154.8530,W,1,9,1.7,15,M,,M,,*5A
06/23/2015	00:02:52.504	$GPGGA,000253,2418.1160,N,08154.8502,W,1,9,1.7,15,M,,M,,*51
06/23/2015	00:02:53.595	$GPGGA,000254,2418.1159,N,08154.8474,W,1,9,1.7,15,M,,M,,*5C
06/23/2015	00:02:54.603	$GPGGA,000255,2418.1161,N,08154.8447,W,1,9,1.7,15,M,,M,,*56
06/23/2015	00:02:55.513	$GPGGA,000256,2418.1160,N,08154.8419,W,1,9,1.7,15,M,,M,,*5F
06/23/2015	00:02:56.596	$GPGGA,000257,2418.1161,N,08154.8391,W,1,9,1.7,15,M,,M,,*58
06/23/2015	00:02:57.500	$GPGGA,000258,2418.1161,N,08154.8364,W,1,9,1.7,15,M,,M,,*5D
06/23/2015	00:02:58.583	$GPGGA,000259,2418.1161,N,08154.8337,W,1,9,1.7,15,M,,M,,*5A
06/23/2015	00:02:59.603	$GPGGA,000300,2418.1162,N,08154.8308,W,1,9,1.7,15,M,,M,,*58
06/23/2015	00:03:00.583	$GPGGA,000301,2418.1162,N,08154.8281,W,1,9,1.7,14,M,,M,,*58
06/23/2015	00:03:02.613	$GPGGA,000303,2418.1163,N,08154.8226,W,1,9,1.7,14,M,,M,,*56
06/23/2015	00:03:03.613	$GPGGA,000304,2418.1165,N,08154.8198,W,1,9,1.7,14,M,,M,,*51
06/23/2015	00:03:04.573	$GPGGA,000305,2418.1163,N,08154.8170,W,1,9,1.7,14,M,,M,,*50
06/23/2015	00:03:05.594	$GPGGA,000306,2418.1164,N,08154.8143,W,1,9,1.7,14,M,,M,,*54
06/23/2015	00:03:06.573	$GPGGA,000307,2418.1163,N,08154.8114,W,1,9,1.7,14,M,,M,,*50
06/23/2015	00:03:07.623	$GPGGA,000308,2418.1164,N,08154.8087,W,1,9,1.7,14,M,,M,,*53
06/23/2015	00:03:08.563	$GPGGA,000309,2418.1163,N,08154.8060,W,1,9,1.7,14,M,,M,,*5C
06/23/2015	00:03:09.583	$GPGGA,000310,2418.1165,N,08154.8031,W,1,9,1.7,14,M,,M,,*56
06/23/2015	00:03:10.573	$GPGGA,000311,2418.1163,N,08154.8005,W,1,9,1.7,14,M,,M,,*56
06/23/2015	00:03:11.595	$GPGGA,000312,2418.1165,N,08154.7977,W,1,9,1.7,14,M,,M,,*50
06/23/2015	00:03:12.553	$GPGGA,000313,2418.1165,N,08154.7949,W,1,9,1.7,14,M,,M,,*5C
06/23/2015	00:03:13.573	$GPGGA,000314,2418.1163,N,08154.7922,W,1,9,1.7,14,M,,M,,*50
06/23/2015	00:03:14.563	$GPGGA,000315,2418.1164,N,08154.7895,W,1,9,1.7,14,M,,M,,*5B
06/23/2015	00:03:15.583	$GPGGA,000316,2418.1163,N,08154.7867,W,1,9,1.7,14,M,,M,,*52
06/23/2015	00:03:16.553	$GPGGA,000317,2418.1164,N,08154.7840,W,1,9,1.7,14,M,,M,,*51
06/23/2015	00:03:17.573	$GPGGA,000318,2418.1162,N,08154.7814,W,1,9,1.7,14,M,,M,,*59
06/23/2015	00:03:18.533	$GPGGA,000319,2418.1161,N,08154.7785,W,1,9,1.7,14,M,,M,,*5C
06/23/2015	00:03:19.573	$GPGGA,000320,2418.1161,N,08154.7759,W,1,9,1.7,14,M,,M,,*57
06/23/2015	00:03:20.543	$GPGGA,000321,2418.1160,N,08154.7733,W,1,9,1.7,14,M,,M,,*5B
06/23/2015	00:03:21.573	$GPGGA,000322,2418.1159,N,08154.7704,W,1,9,1.7,14,M,,M,,*56
06/23/2015	00:03:22.543	$GPGGA,000323,2418.1160,N,08154.7678,W,1,9,1.7,14,M,,M,,*57
06/23/2015	00:03:23.573	$GPGGA,000324,2418.1159,N,08154.7651,W,1,9,1.7,14,M,,M,,*51
06/23/2015	00:03:24.543	$GPGGA,000325,2418.1158,N,08154.7624,W,1,9,1.7,14,M,,M,,*53
06/23/2015	00:03:25.523	$GPGGA,000326,2418.1158,N,08154.7597,W,1,9,1.7,14,M,,M,,*5B
06/23/2015	00:03:26.773	$GPGGA,000327,2418.1158,N,08154.7570,W,1,9,1.7,14,M,,M,,*53
06/23/2015	00:03:27.563	$GPGGA,000328,2418.1156,N,08154.7543,W,1,9,1.7,14,M,,M,,*52
06/23/2015	00:03:28.523	$GPGGA,000329,2418.1158,N,08154.7515,W,1,9,1.7,14,M,,M,,*5E
06/23/2015	00:03:29.553	$GPGGA,000330,2418.1156,N,08154.7487,W,1,9,1.7,14,M,,M,,*52
06/23/2015	00:03:30.523	$GPGGA,000331,2418.1157,N,08154.7460,W,1,9,1.7,14,M,,M,,*5B
06/23/2015	00:03:31.553	$GPGGA,000332,2418.1156,N,08154.7433,W,1,9,1.7,14,M,,M,,*5F
06/23/2015	00:03:32.512	$GPGGA,000333,2418.1155,N,08154.7405,W,1,9,1.7,14,M,,M,,*58
06/23/2015	00:03:33.506	$GPGGA,000334,2418.1156,N,08154.7378,W,1,9,1.7,14,M,,M,,*51
06/23/2015	00:03:34.523	$GPGGA,000335,2418.1155,N,08154.7351,W,1,9,1.7,14,M,,M,,*58
06/23/2015	00:03:35.513	$GPGGA,000336,2418.1156,N,08154.7322,W,1,9,1.7,14,M,,M,,*5C
06/23/2015	00:03:36.505	$GPGGA,000337,2418.1155,N,08154.7296,W,1,9,1.7,14,M,,M,,*50
06/23/2015	00:03:37.513	$GPGGA,000338,2418.1157,N,08154.7268,W,1,9,1.7,14,M,,M,,*5C
06/23/2015	00:03:38.513	$GPGGA,000339,2418.1156,N,08154.7240,W,1,9,1.7,14,M,,M,,*56
06/23/2015	00:03:39.533	$GPGGA,000340,2418.1158,N,08154.7213,W,1,9,1.7,14,M,,M,,*50
06/23/2015	00:03:40.506	$GPGGA,000341,2418.1158,N,08154.7185,W,1,9,1.7,14,M,,M,,*5D
06/23/2015	00:03:41.507	$GPGGA,000342,2418.1158,N,08154.7158,W,1,9,1.7,14,M,,M,,*5E
06/23/2015	00:03:42.593	$GPGGA,000343,2418.1160,N,08154.7129,W,1,9,1.7,14,M,,M,,*52
06/23/2015	00:03:43.623	$GPGGA,000344,2418.1159,N,08154.7102,W,1,9,1.7,14,M,,M,,*56
06/23/2015	00:03:44.512	$GPGGA,000345,2418.1161,N,08154.7075,W,1,9,1.7,13,M,,M,,*5A
06/23/2015	00:03:45.496	$GPGGA,000346,2418.1161,N,08154.7047,W,1,9,1.7,13,M,,M,,*58
06/23/2015	00:03:46.600	$GPGGA,000347,2418.1162,N,08154.7019,W,1,9,1.7,13,M,,M,,*51
06/23/2015	00:03:47.633	$GPGGA,000348,2418.1162,N,08154.6992,W,1,9,1.7,13,M,,M,,*55
06/23/2015	00:03:48.593	$GPGGA,000349,2418.1165,N,08154.6964,W,1,9,1.7,13,M,,M,,*5A
06/23/2015	00:03:49.583	$GPGGA,000350,2418.1165,N,08154.6937,W,1,9,1.7,13,M,,M,,*54
06/23/2015	00:03:50.583	$GPGGA,000351,2418.1165,N,08154.6909,W,1,9,1.7,13,M,,M,,*58
06/23/2015	00:03:51.623	$GPGGA,000352,2418.1167,N,08154.6881,W,1,9,1.7,13,M,,M,,*58
06/23/2015	00:03:52.573	$GPGGA,000353,2418.1169,N,08154.6854,W,1,9,1.7,13,M,,M,,*5F
06/23/2015	00:03:53.599	$GPGGA,000354,2418.1169,N,08154.6826,W,1,9,1.7,13,M,,M,,*5D
06/23/2015	00:03:54.563	$GPGGA,000355,2418.1172,N,08154.6797,W,1,9,1.7,13,M,,M,,*53
06/23/2015	00:03:55.596	$GPGGA,000356,2418.1174,N,08154.6768,W,1,8,2.3,13,M,,M,,*50
06/23/2015	00:03:56.583	$GPGGA,000357,2418.1175,N,08154.6742,W,1,8,2.3,13,M,,M,,*58
06/23/2015	00:03:57.563	$GPGGA,000358,2418.1176,N,08154.6716,W,1,9,1.7,13,M,,M,,*53
06/23/2015	00:03:58.563	$GPGGA,000359,2418.1176,N,08154.6690,W,1,9,1.7,13,M,,M,,*5D
06/23/2015	00:03:59.595	$GPGGA,000400,2418.1180,N,08154.6663,W,1,9,1.7,13,M,,M,,*53
06/23/2015	00:04:00.553	$GPGGA,000401,2418.1183,N,08154.6633,W,1,9,1.7,13,M,,M,,*54
06/23/2015	00:04:01.573	$GPGGA,000402,2418.1187,N,08154.6604,W,1,8,2.3,13,M,,M,,*51
06/23/2015	00:04:02.553	$GPGGA,000403,2418.1190,N,08154.6576,W,1,8,1.7,13,M,,M,,*57
06/23/2015	00:04:03.583	$GPGGA,000404,2418.1194,N,08154.6547,W,1,9,1.7,13,M,,M,,*57
06/23/2015	00:04:04.543	$GPGGA,000405,2418.1198,N,08154.6521,W,1,9,2.3,12,M,,M,,*5C
06/23/2015	00:04:05.563	$GPGGA,000406,2418.1201,N,08154.6495,W,1,8,1.9,12,M,,M,,*5A
06/23/2015	00:04:06.543	$GPGGA,000407,2418.1204,N,08154.6468,W,1,8,1.7,12,M,,M,,*52
06/23/2015	00:04:07.573	$GPGGA,000408,2418.1208,N,08154.6443,W,1,9,1.7,12,M,,M,,*59
06/23/2015	00:04:08.543	$GPGGA,000409,2418.1212,N,08154.6419,W,1,9,1.9,12,M,,M,,*52
06/23/2015	00:04:09.563	$GPGGA,000410,2418.1216,N,08154.6391,W,1,8,1.9,12,M,,M,,*58
06/23/2015	00:04:10.533	$GPGGA,000411,2418.1222,N,08154.6366,W,1,8,1.7,13,M,,M,,*59
06/23/2015	00:04:11.563	$GPGGA,000412,2418.1227,N,08154.6340,W,1,8,1.9,13,M,,M,,*55
06/23/2015	00:04:12.533	$GPGGA,000413,2418.1233,N,08154.6312,W,1,8,1.9,13,M,,M,,*56
06/23/2015	00:04:13.533	$GPGGA,000414,2418.1238,N,08154.6285,W,1,9,1.7,13,M,,M,,*5A
06/23/2015	00:04:14.523	$GPGGA,000415,2418.1245,N,08154.6259,W,1,9,1.7,13,M,,M,,*50
06/23/2015	00:04:15.563	$GPGGA,000416,2418.1251,N,08154.6232,W,1,9,1.7,13,M,,M,,*5B
06/23/2015	00:04:16.523	$GPGGA,000417,2418.1256,N,08154.6206,W,1,9,1.7,14,M,,M,,*5D
06/23/2015	00:04:17.523	$GPGGA,000418,2418.1263,N,08154.6180,W,1,9,1.7,14,M,,M,,*59
06/23/2015	00:04:18.502	$GPGGA,000419,2418.1270,N,08154.6153,W,1,9,1.7,14,M,,M,,*54
06/23/2015	00:04:19.522	$GPGGA,000420,2418.1276,N,08154.6127,W,1,9,1.7,14,M,,M,,*5B
06/23/2015	00:04:20.522	$GPGGA,000421,2418.1281,N,08154.6101,W,1,9,1.7,14,M,,M,,*56
06/23/2015	00:04:21.632	$GPGGA,000422,2418.1288,N,08154.6075,W,1,9,1.7,14,M,,M,,*5E
06/23/2015	00:04:22.502	$GPGGA,000423,2418.1295,N,08154.6048,W,1,9,1.7,15,M,,M,,*5C
06/23/2015	00:04:23.562	$GPGGA,000424,2418.1302,N,08154.6021,W,1,9,1.7,15,M,,M,,*5B
06/23/2015	00:04:24.502	$GPGGA,000425,2418.1308,N,08154.5995,W,1,9,1.7,15,M,,M,,*55
06/23/2015	00:04:26.522	$GPGGA,000427,2418.1320,N,08154.5942,W,1,9,1.7,15,M,,M,,*57
06/23/2015	00:04:27.632	$GPGGA,000428,2418.1326,N,08154.5917,W,1,9,1.7,15,M,,M,,*5E
06/23/2015	00:04:28.513	$GPGGA,000429,2418.1331,N,08154.5892,W,1,9,1.7,15,M,,M,,*55
06/23/2015	00:04:29.484	$GPGGA,000430,2418.1339,N,08154.5864,W,1,7,2.0,16,M,,M,,*55
06/23/2015	00:04:30.503	$GPGGA,000431,2418.1346,N,08154.5840,W,1,7,1.7,16,M,,M,,*5E
06/23/2015	00:04:31.503	$GPGGA,000432,2418.1353,N,08154.5813,W,1,8,1.9,16,M,,M,,*5E
06/23/2015	00:04:32.573	$GPGGA,000433,2418.1360,N,08154.5785,W,1,8,2.6,16,M,,M,,*53
06/23/2015	00:04:33.593	$GPGGA,000434,2418.1366,N,08154.5757,W,1,8,1.9,16,M,,M,,*51
06/23/2015	00:04:34.483	$GPGGA,000435,2418.1371,N,08154.5728,W,1,8,1.7,16,M,,M,,*50
06/23/2015	00:04:35.502	$GPGGA,000436,2418.1375,N,08154.5703,W,1,9,1.7,16,M,,M,,*5F
06/23/2015	00:04:36.583	$GPGGA,000437,2418.1382,N,08154.5676,W,1,9,2.0,16,M,,M,,*51
06/23/2015	00:04:37.592	$GPGGA,000438,2418.1386,N,08154.5649,W,1,9,1.7,16,M,,M,,*52
06/23/2015	00:04:38.572	$GPGGA,000439,2418.1391,N,08154.5623,W,1,9,1.7,16,M,,M,,*59
06/23/2015	00:04:39.597	$GPGGA,000440,2418.1395,N,08154.5598,W,1,8,1.9,16,M,,M,,*5F
06/23/2015	00:04:40.562	$GPGGA,000441,2418.1399,N,08154.5571,W,1,8,1.9,16,M,,M,,*55
06/23/2015	00:04:41.572	$GPGGA,000442,2418.1403,N,08154.5545,W,1,8,1.9,16,M,,M,,*55
06/23/2015	00:04:42.562	$GPGGA,000443,2418.1407,N,08154.5520,W,1,8,1.9,16,M,,M,,*53
06/23/2015	00:04:43.603	$GPGGA,000444,2418.1411,N,08154.5490,W,1,8,1.9,16,M,,M,,*59
06/23/2015	00:04:44.562	$GPGGA,000445,2418.1414,N,08154.5465,W,1,8,1.7,16,M,,M,,*59
06/23/2015	00:04:45.573	$GPGGA,000446,2418.1420,N,08154.5437,W,1,8,1.9,17,M,,M,,*55
06/23/2015	00:04:46.563	$GPGGA,000447,2418.1424,N,08154.5409,W,1,8,1.7,17,M,,M,,*53
06/23/2015	00:04:47.584	$GPGGA,000448,2418.1427,N,08154.5380,W,1,9,1.7,17,M,,M,,*58
06/23/2015	00:04:48.553	$GPGGA,000449,2418.1431,N,08154.5354,W,1,9,1.7,17,M,,M,,*57
06/23/2015	00:04:49.543	$GPGGA,000450,2418.1435,N,08154.5328,W,1,8,1.9,17,M,,M,,*5F
06/23/2015	00:04:50.543	$GPGGA,000451,2418.1439,N,08154.5302,W,1,8,1.9,17,M,,M,,*5A
06/23/2015	00:04:51.563	$GPGGA,000452,2418.1442,N,08154.5276,W,1,8,1.9,17,M,,M,,*57
06/23/2015	00:04:52.542	$GPGGA,000453,2418.1446,N,08154.5250,W,1,8,1.9,17,M,,M,,*56
06/23/2015	00:04:53.552	$GPGGA,000454,2418.1449,N,08154.5221,W,1,8,1.9,17,M,,M,,*58
06/23/2015	00:04:54.552	$GPGGA,000455,2418.1451,N,08154.5193,W,1,8,1.7,17,M,,M,,*54
06/23/2015	00:04:55.583	$GPGGA,000456,2418.1456,N,08154.5165,W,1,9,1.7,17,M,,M,,*58
06/23/2015	00:04:56.542	$GPGGA,000457,2418.1458,N,08154.5138,W,1,9,1.7,17,M,,M,,*5F
06/23/2015	00:04:57.562	$GPGGA,000458,2418.1461,N,08154.5110,W,1,9,1.7,17,M,,M,,*50
06/23/2015	00:04:58.542	$GPGGA,000459,2418.1467,N,08154.5083,W,1,9,1.7,17,M,,M,,*5C
06/23/2015	00:04:59.582	$GPGGA,000500,2418.1469,N,08154.5058,W,1,8,1.9,18,M,,M,,*59
06/23/2015	00:05:00.522	$GPGGA,000501,2418.1474,N,08154.5030,W,1,8,1.9,18,M,,M,,*5A
06/23/2015	00:05:01.522	$GPGGA,000502,2418.1478,N,08154.5003,W,1,8,1.9,18,M,,M,,*55
06/23/2015	00:05:02.532	$GPGGA,000503,2418.1482,N,08154.4978,W,1,8,1.9,18,M,,M,,*55
06/23/2015	00:05:03.553	$GPGGA,000504,2418.1485,N,08154.4949,W,1,8,1.9,18,M,,M,,*57
06/23/2015	00:05:04.533	$GPGGA,000505,2418.1489,N,08154.4923,W,1,8,1.7,18,M,,M,,*58
06/23/2015	00:05:05.813	$GPGGA,000506,2418.1494,N,08154.4896,W,1,9,1.7,18,M,,M,,*59
06/23/2015	00:05:06.523	$GPGGA,000507,2418.1497,N,08154.4868,W,1,9,1.9,18,M,,M,,*54
06/23/2015	00:05:07.563	$GPGGA,000508,2418.1501,N,08154.4842,W,1,8,1.9,18,M,,M,,*5C
06/23/2015	00:05:08.623	$GPGGA,000509,2418.1507,N,08154.4815,W,1,8,1.7,18,M,,M,,*57
06/23/2015	00:05:09.503	$GPGGA,000510,2418.1512,N,08154.4786,W,1,9,1.7,18,M,,M,,*5F
06/23/2015	00:05:10.800	$GPGGA,000511,2418.1516,N,08154.4760,W,1,9,1.7,18,M,,M,,*52
06/23/2015	00:05:11.532	$GPGGA,000512,2418.1522,N,08154.4734,W,1,8,1.9,18,M,,M,,*58
06/23/2015	00:05:12.512	$GPGGA,000513,2418.1527,N,08154.4706,W,1,8,1.9,18,M,,M,,*5D
06/23/2015	00:05:13.502	$GPGGA,000514,2418.1533,N,08154.4679,W,1,9,1.7,18,M,,M,,*59
06/23/2015	00:05:14.512	$GPGGA,000515,2418.1540,N,08154.4652,W,1,9,1.7,18,M,,M,,*55
06/23/2015	00:05:15.532	$GPGGA,000516,2418.1545,N,08154.4624,W,1,9,1.7,17,M,,M,,*5D
06/23/2015	00:05:16.502	$GPGGA,000517,2418.1552,N,08154.4599,W,1,9,1.9,17,M,,M,,*51
06/23/2015	00:05:17.512	$GPGGA,000518,2418.1559,N,08154.4572,W,1,9,1.7,17,M,,M,,*5E
06/23/2015	00:05:18.602	$GPGGA,000519,2418.1565,N,08154.4544,W,1,9,1.7,17,M,,M,,*55
06/23/2015	00:05:19.653	$GPGGA,000520,2418.1572,N,08154.4519,W,1,9,1.7,17,M,,M,,*51
06/23/2015	00:05:20.583	$GPGGA,000521,2418.1579,N,08154.4492,W,1,9,1.7,17,M,,M,,*59
06/23/2015	00:05:21.584	$GPGGA,000522,2418.1586,N,08154.4465,W,1,9,1.7,17,M,,M,,*52
06/23/2015	00:05:23.001	$GPGGA,000523,2418.1592,N,08154.4439,W,1,9,1.7,17,M,,M,,*5F
06/23/2015	00:05:23.643	$GPGGA,000524,2418.1599,N,08154.4413,W,1,9,1.7,17,M,,M,,*5B
06/23/2015	00:05:24.587	$GPGGA,000525,2418.1608,N,08154.4385,W,1,9,1.7,17,M,,M,,*59
06/23/2015	00:05:25.585	$GPGGA,000526,2418.1616,N,08154.4360,W,1,9,1.7,17,M,,M,,*5E
06/23/2015	00:05:26.585	$GPGGA,000527,2418.1624,N,08154.4333,W,1,9,1.7,17,M,,M,,*58
06/23/2015	00:05:27.622	$GPGGA,000528,2418.1631,N,08154.4306,W,1,9,1.7,17,M,,M,,*55
06/23/2015	00:05:28.572	$GPGGA,000529,2418.1638,N,08154.4280,W,1,9,1.7,17,M,,M,,*52
06/23/2015	00:05:29.596	$GPGGA,000530,2418.1646,N,08154.4255,W,1,9,1.7,17,M,,M,,*5B
06/23/2015	00:05:30.572	$GPGGA,000531,2418.1651,N,08154.4228,W,1,9,1.7,17,M,,M,,*56
06/23/2015	00:05:31.583	$GPGGA,000532,2418.1656,N,08154.4203,W,1,9,1.7,17,M,,M,,*5B
06/23/2015	00:05:32.562	$GPGGA,000533,2418.1664,N,08154.4177,W,1,9,1.7,17,M,,M,,*5B
06/23/2015	00:05:33.583	$GPGGA,000534,2418.1673,N,08154.4151,W,1,9,1.7,17,M,,M,,*5E
06/23/2015	00:05:34.563	$GPGGA,000535,2418.1680,N,08154.4124,W,1,9,1.7,17,M,,M,,*51
06/23/2015	00:05:35.604	$GPGGA,000536,2418.1686,N,08154.4098,W,1,9,1.7,16,M,,M,,*53
06/23/2015	00:05:36.562	$GPGGA,000537,2418.1695,N,08154.4074,W,1,9,1.7,16,M,,M,,*52
06/23/2015	00:05:37.542	$GPGGA,000538,2418.1700,N,08154.4047,W,1,9,1.7,16,M,,M,,*50
06/23/2015	00:05:38.553	$GPGGA,000539,2418.1707,N,08154.4020,W,1,9,1.7,16,M,,M,,*57
06/23/2015	00:05:39.599	$GPGGA,000540,2418.1714,N,08154.3996,W,1,9,1.7,16,M,,M,,*58
06/23/2015	00:05:40.563	$GPGGA,000541,2418.1721,N,08154.3970,W,1,9,1.7,16,M,,M,,*57
06/23/2015	00:05:41.563	$GPGGA,000542,2418.1727,N,08154.3943,W,1,9,1.7,16,M,,M,,*52
06/23/2015	00:05:42.553	$GPGGA,000543,2418.1732,N,08154.3919,W,1,9,2.0,16,M,,M,,*5C
06/23/2015	00:05:43.603	$GPGGA,000544,2418.1740,N,08154.3891,W,1,8,2.3,16,M,,M,,*5D
06/23/2015	00:05:44.543	$GPGGA,000545,2418.1746,N,08154.3865,W,1,8,1.7,16,M,,M,,*56
06/23/2015	00:05:45.532	$GPGGA,000546,2418.1750,N,08154.3841,W,1,9,1.7,16,M,,M,,*55
06/23/2015	00:05:46.542	$GPGGA,000547,2418.1757,N,08154.3816,W,1,9,1.7,16,M,,M,,*51
06/23/2015	00:05:47.572	$GPGGA,000548,2418.1763,N,08154.3789,W,1,9,1.7,16,M,,M,,*50
06/23/2015	00:05:48.542	$GPGGA,000549,2418.1768,N,08154.3763,W,1,9,1.7,16,M,,M,,*5E
06/23/2015	00:05:49.522	$GPGGA,000550,2418.1774,N,08154.3738,W,1,9,2.0,16,M,,M,,*51
06/23/2015	00:05:50.542	$GPGGA,000551,2418.1779,N,08154.3712,W,1,9,2.0,16,M,,M,,*55
06/23/2015	00:05:51.572	$GPGGA,000552,2418.1783,N,08154.3687,W,1,8,2.0,16,M,,M,,*5F
06/23/2015	00:05:52.532	$GPGGA,000553,2418.1790,N,08154.3662,W,1,8,2.0,16,M,,M,,*57
06/23/2015	00:05:53.552	$GPGGA,000554,2418.1797,N,08154.3633,W,1,8,2.6,16,M,,M,,*55
06/23/2015	00:05:54.512	$GPGGA,000555,2418.1803,N,08154.3608,W,1,8,2.0,15,M,,M,,*5B
06/23/2015	00:05:55.533	$GPGGA,000556,2418.1810,N,08154.3580,W,1,8,2.0,15,M,,M,,*59
06/23/2015	00:05:56.523	$GPGGA,000557,2418.1815,N,08154.3554,W,1,8,2.0,15,M,,M,,*54
06/23/2015	00:05:57.623	$GPGGA,000558,2418.1821,N,08154.3528,W,1,8,2.0,15,M,,M,,*57
06/23/2015	00:05:58.523	$GPGGA,000559,2418.1826,N,08154.3502,W,1,8,2.0,15,M,,M,,*59
06/23/2015	00:05:59.583	$GPGGA,000600,2418.1833,N,08154.3475,W,1,8,2.0,15,M,,M,,*53
06/23/2015	00:06:00.523	$GPGGA,000601,2418.1837,N,08154.3448,W,1,8,2.0,14,M,,M,,*59
06/23/2015	00:06:01.503	$GPGGA,000602,2418.1841,N,08154.3422,W,1,8,1.7,14,M,,M,,*53
06/23/2015	00:06:02.512	$GPGGA,000603,2418.1847,N,08154.3393,W,1,8,1.7,14,M,,M,,*59
06/23/2015	00:06:03.562	$GPGGA,000604,2418.1852,N,08154.3366,W,1,9,2.0,14,M,,M,,*55
06/23/2015	00:06:04.512	$GPGGA,000605,2418.1857,N,08154.3340,W,1,9,1.7,14,M,,M,,*51
06/23/2015	00:06:05.602	$GPGGA,000606,2418.1862,N,08154.3313,W,1,9,1.7,14,M,,M,,*52
06/23/2015	00:06:06.512	$GPGGA,000607,2418.1866,N,08154.3286,W,1,9,2.0,14,M,,M,,*5E
06/23/2015	00:06:07.602	$GPGGA,000608,2418.1872,N,08154.3260,W,1,8,1.7,14,M,,M,,*59
06/23/2015	00:06:08.512	$GPGGA,000609,2418.1877,N,08154.3233,W,1,8,1.7,14,M,,M,,*5B
06/23/2015	00:06:09.497	$GPGGA,000610,2418.1881,N,08154.3207,W,1,9,2.0,14,M,,M,,*58
06/23/2015	00:06:10.582	$GPGGA,000611,2418.1887,N,08154.3177,W,1,9,2.0,14,M,,M,,*5B
06/23/2015	00:06:11.622	$GPGGA,000612,2418.1893,N,08154.3153,W,1,9,2.0,15,M,,M,,*5A
06/23/2015	00:06:12.502	$GPGGA,000613,2418.1893,N,08154.3153,W,1,9,2.0,15,M,,M,,*5B
06/23/2015	00:06:13.587	$GPGGA,000614,2418.1904,N,08154.3100,W,1,7,2.0,15,M,,M,,*5B
06/23/2015	00:06:14.503	$GPGGA,000615,2418.1909,N,08154.3077,W,1,7,2.0,15,M,,M,,*56
06/23/2015	00:06:15.633	$GPGGA,000616,2418.1916,N,08154.3050,W,1,8,2.0,15,M,,M,,*51
06/23/2015	00:06:16.585	$GPGGA,000617,2418.1920,N,08154.3023,W,1,8,2.0,15,M,,M,,*51
06/23/2015	00:06:17.583	$GPGGA,000618,2418.1927,N,08154.2998,W,1,8,2.0,15,M,,M,,*51
06/23/2015	00:06:18.563	$GPGGA,000619,2418.1934,N,08154.2969,W,1,8,1.7,15,M,,M,,*58
06/23/2015	00:06:19.573	$GPGGA,000620,2418.1940,N,08154.2941,W,1,9,1.7,15,M,,M,,*5A
06/23/2015	00:06:20.589	$GPGGA,000621,2418.1945,N,08154.2915,W,1,9,1.7,15,M,,M,,*5F
06/23/2015	00:06:21.592	$GPGGA,000622,2418.1953,N,08154.2889,W,1,9,1.7,15,M,,M,,*5F
06/23/2015	00:06:22.563	$GPGGA,000623,2418.1960,N,08154.2862,W,1,9,1.7,15,M,,M,,*5B
06/23/2015	00:06:23.592	$GPGGA,000624,2418.1966,N,08154.2836,W,1,9,1.7,15,M,,M,,*5B
06/23/2015	00:06:24.562	$GPGGA,000625,2418.1973,N,08154.2810,W,1,9,1.7,15,M,,M,,*5A
06/23/2015	00:06:25.584	$GPGGA,000626,2418.1980,N,08154.2784,W,1,9,1.7,15,M,,M,,*57
06/23/2015	00:06:26.833	$GPGGA,000627,2418.1987,N,08154.2758,W,1,9,2.0,15,M,,M,,*54
06/23/2015	00:06:27.584	$GPGGA,000628,2418.1992,N,08154.2731,W,1,9,1.7,15,M,,M,,*54
06/23/2015	00:06:28.552	$GPGGA,000629,2418.2000,N,08154.2705,W,1,9,1.7,15,M,,M,,*53
06/23/2015	00:06:29.562	$GPGGA,000630,2418.2007,N,08154.2680,W,1,9,1.7,15,M,,M,,*50
06/23/2015	00:06:30.543	$GPGGA,000631,2418.2013,N,08154.2655,W,1,9,2.0,15,M,,M,,*58
06/23/2015	00:06:31.587	$GPGGA,000632,2418.2020,N,08154.2629,W,1,8,2.0,15,M,,M,,*51
06/23/2015	00:06:32.543	$GPGGA,000633,2418.2025,N,08154.2603,W,1,8,2.0,15,M,,M,,*5D
06/23/2015	00:06:33.573	$GPGGA,000634,2418.2032,N,08154.2578,W,1,8,2.0,15,M,,M,,*53
06/23/2015	00:06:34.543	$GPGGA,000635,2418.2039,N,08154.2550,W,1,8,1.7,15,M,,M,,*57
06/23/2015	00:06:35.583	$GPGGA,000636,2418.2046,N,08154.2524,W,1,9,1.7,15,M,,M,,*5E
06/23/2015	00:06:36.533	$GPGGA,000637,2418.2053,N,08154.2499,W,1,9,2.0,15,M,,M,,*58
06/23/2015	00:06:37.542	$GPGGA,000638,2418.2058,N,08154.2471,W,1,8,2.0,15,M,,M,,*5B
06/23/2015	00:06:38.542	$GPGGA,000639,2418.2065,N,08154.2444,W,1,8,1.7,15,M,,M,,*56
06/23/2015	00:06:39.572	$GPGGA,000640,2418.2072,N,08154.2418,W,1,9,1.7,15,M,,M,,*56
06/23/2015	00:06:40.532	$GPGGA,000641,2418.2078,N,08154.2390,W,1,9,1.7,15,M,,M,,*5A
06/23/2015	00:06:41.542	$GPGGA,000642,2418.2085,N,08154.2363,W,1,9,1.7,15,M,,M,,*57
06/23/2015	00:06:42.512	$GPGGA,000643,2418.2090,N,08154.2336,W,1,9,1.7,15,M,,M,,*52
06/23/2015	00:06:43.532	$GPGGA,000644,2418.2096,N,08154.2309,W,1,9,1.7,15,M,,M,,*5F
06/23/2015	00:06:44.532	$GPGGA,000645,2418.2103,N,08154.2281,W,1,9,1.7,15,M,,M,,*52
06/23/2015	00:06:45.542	$GPGGA,000646,2418.2110,N,08154.2255,W,1,9,1.7,15,M,,M,,*5A
06/23/2015	00:06:46.522	$GPGGA,000647,2418.2115,N,08154.2228,W,1,9,1.7,15,M,,M,,*54
06/23/2015	00:06:47.542	$GPGGA,000648,2418.2122,N,08154.2200,W,1,9,1.7,15,M,,M,,*55
06/23/2015	00:06:48.513	$GPGGA,000649,2418.2129,N,08154.2176,W,1,9,1.7,15,M,,M,,*5D
06/23/2015	00:06:49.513	$GPGGA,000650,2418.2135,N,08154.2150,W,1,8,2.0,15,M,,M,,*59
06/23/2015	00:06:50.623	$GPGGA,000651,2418.2141,N,08154.2124,W,1,8,2.0,15,M,,M,,*58
06/23/2015	00:06:51.623	$GPGGA,000652,2418.2148,N,08154.2097,W,1,8,2.0,15,M,,M,,*5B
06/23/2015	00:06:52.493	$GPGGA,000653,2418.2154,N,08154.2071,W,1,8,1.7,15,M,,M,,*5B
06/23/2015	00:06:53.493	$GPGGA,000654,2418.2159,N,08154.2045,W,1,8,2.0,15,M,,M,,*52
06/23/2015	00:06:54.493	$GPGGA,000655,2418.2166,N,08154.2020,W,1,8,2.0,15,M,,M,,*5C
06/23/2015	00:06:55.522	$GPGGA,000656,2418.2172,N,08154.1993,W,1,8,2.0,15,M,,M,,*58
06/23/2015	00:06:56.500	$GPGGA,000657,2418.2179,N,08154.1966,W,1,8,2.0,15,M,,M,,*58
06/23/2015	00:06:57.622	$GPGGA,000658,2418.2184,N,08154.1940,W,1,7,2.6,15,M,,M,,*58
06/23/2015	00:06:58.502	$GPGGA,000659,2418.2190,N,08154.1914,W,1,7,2.0,15,M,,M,,*5B
06/23/2015	00:06:59.512	$GPGGA,000700,2418.2195,N,08154.1888,W,1,8,2.0,15,M,,M,,*58
06/23/2015	00:07:00.502	$GPGGA,000701,2418.2202,N,08154.1862,W,1,8,2.0,15,M,,M,,*50
06/23/2015	00:07:01.572	$GPGGA,000702,2418.2208,N,08154.1835,W,1,8,2.0,15,M,,M,,*5B
06/23/2015	00:07:02.572	$GPGGA,000703,2418.2213,N,08154.1809,W,1,8,2.0,15,M,,M,,*5F
06/23/2015	00:07:03.622	$GPGGA,000704,2418.2219,N,08154.1783,W,1,8,2.0,15,M,,M,,*5F
06/23/2015	00:07:04.582	$GPGGA,000705,2418.2224,N,08154.1755,W,1,8,2.0,14,M,,M,,*5A
06/23/2015	00:07:05.603	$GPGGA,000706,2418.2230,N,08154.1728,W,1,9,1.7,14,M,,M,,*53
06/23/2015	00:07:06.573	$GPGGA,000707,2418.2234,N,08154.1703,W,1,9,2.0,14,M,,M,,*5B
06/23/2015	00:07:07.586	$GPGGA,000708,2418.2240,N,08154.1675,W,1,8,2.0,14,M,,M,,*56
06/23/2015	00:07:08.563	$GPGGA,000709,2418.2245,N,08154.1649,W,1,8,1.7,14,M,,M,,*59
06/23/2015	00:07:09.583	$GPGGA,000710,2418.2251,N,08154.1624,W,1,8,2.0,14,M,,M,,*5B
06/23/2015	00:07:10.563	$GPGGA,000711,2418.2256,N,08154.1598,W,1,8,2.0,14,M,,M,,*59
06/23/2015	00:07:11.613	$GPGGA,000712,2418.2260,N,08154.1571,W,1,9,1.7,14,M,,M,,*5D
06/23/2015	00:07:12.552	$GPGGA,000713,2418.2266,N,08154.1544,W,1,9,2.0,14,M,,M,,*58
06/23/2015	00:07:13.582	$GPGGA,000714,2418.2271,N,08154.1516,W,1,9,1.7,14,M,,M,,*5A
06/23/2015	00:07:14.562	$GPGGA,000715,2418.2277,N,08154.1489,W,1,9,1.7,14,M,,M,,*5A
06/23/2015	00:07:15.583	$GPGGA,000716,2418.2282,N,08154.1464,W,1,8,2.0,14,M,,M,,*55
06/23/2015	00:07:16.552	$GPGGA,000717,2418.2289,N,08154.1435,W,1,8,2.0,14,M,,M,,*5B
06/23/2015	00:07:17.552	$GPGGA,000718,2418.2295,N,08154.1408,W,1,9,1.7,14,M,,M,,*52
06/23/2015	00:07:18.552	$GPGGA,000719,2418.2300,N,08154.1381,W,1,9,2.0,14,M,,M,,*5C
06/23/2015	00:07:19.572	$GPGGA,000720,2418.2306,N,08154.1355,W,1,8,1.8,14,M,,M,,*53
06/23/2015	00:07:20.542	$GPGGA,000721,2418.2311,N,08154.1328,W,1,8,2.0,15,M,,M,,*54
06/23/2015	00:07:21.562	$GPGGA,000722,2418.2318,N,08154.1302,W,1,8,2.0,15,M,,M,,*56
06/23/2015	00:07:22.532	$GPGGA,000723,2418.2324,N,08154.1275,W,1,8,2.0,15,M,,M,,*59
06/23/2015	00:07:23.553	$GPGGA,000724,2418.2329,N,08154.1249,W,1,8,2.0,15,M,,M,,*5C
06/23/2015	00:07:24.543	$GPGGA,000725,2418.2336,N,08154.1222,W,1,8,2.0,15,M,,M,,*5E
06/23/2015	00:07:25.553	$GPGGA,000726,2418.2343,N,08154.1195,W,1,8,2.0,15,M,,M,,*50
06/23/2015	00:07:26.543	$GPGGA,000727,2418.2350,N,08154.1170,W,1,8,2.0,15,M,,M,,*58
06/23/2015	00:07:27.573	$GPGGA,000728,2418.2357,N,08154.1142,W,1,8,2.0,14,M,,M,,*50
06/23/2015	00:07:28.533	$GPGGA,000729,2418.2363,N,08154.1118,W,1,8,2.0,14,M,,M,,*59
06/23/2015	00:07:29.523	$GPGGA,000730,2418.2370,N,08154.1089,W,1,9,1.7,14,M,,M,,*5F
06/23/2015	00:07:30.532	$GPGGA,000731,2418.2375,N,08154.1060,W,1,9,1.7,14,M,,M,,*5C
06/23/2015	00:07:31.562	$GPGGA,000732,2418.2383,N,08154.1033,W,1,9,1.7,14,M,,M,,*50
06/23/2015	00:07:32.632	$GPGGA,000733,2418.2390,N,08154.1006,W,1,9,1.7,14,M,,M,,*55
06/23/2015	00:07:33.542	$GPGGA,000734,2418.2397,N,08154.0978,W,1,9,1.7,15,M,,M,,*55
06/23/2015	00:07:34.642	$GPGGA,000735,2418.2403,N,08154.0954,W,1,9,1.7,15,M,,M,,*50
06/23/2015	00:07:35.542	$GPGGA,000736,2418.2411,N,08154.0928,W,1,9,1.7,15,M,,M,,*5B
06/23/2015	00:07:36.622	$GPGGA,000737,2418.2415,N,08154.0901,W,1,9,1.7,15,M,,M,,*55
06/23/2015	00:07:37.522	$GPGGA,000738,2418.2422,N,08154.0877,W,1,9,1.7,15,M,,M,,*5E
06/23/2015	00:07:38.512	$GPGGA,000739,2418.2430,N,08154.0849,W,1,9,2.0,15,M,,M,,*55
06/23/2015	00:07:39.522	$GPGGA,000740,2418.2437,N,08154.0823,W,1,9,1.7,15,M,,M,,*54
06/23/2015	00:07:40.513	$GPGGA,000741,2418.2443,N,08154.0798,W,1,9,1.7,15,M,,M,,*59
06/23/2015	00:07:41.623	$GPGGA,000742,2418.2450,N,08154.0771,W,1,9,1.7,15,M,,M,,*5F
06/23/2015	00:07:42.513	$GPGGA,000743,2418.2457,N,08154.0746,W,1,9,1.7,15,M,,M,,*5D
06/23/2015	00:07:43.513	$GPGGA,000744,2418.2462,N,08154.0721,W,1,9,1.7,15,M,,M,,*5D
06/23/2015	00:07:44.593	$GPGGA,000745,2418.2469,N,08154.0692,W,1,9,2.0,15,M,,M,,*5A
06/23/2015	00:07:45.584	$GPGGA,000746,2418.2476,N,08154.0664,W,1,9,1.7,15,M,,M,,*5A
06/23/2015	00:07:46.503	$GPGGA,000747,2418.2483,N,08154.0639,W,1,9,1.7,15,M,,M,,*59
06/23/2015	00:07:47.602	$GPGGA,000748,2418.2488,N,08154.0612,W,1,9,1.7,15,M,,M,,*54
06/23/2015	00:07:48.596	$GPGGA,000749,2418.2495,N,08154.0584,W,1,9,1.7,15,M,,M,,*55
06/23/2015	00:07:49.612	$GPGGA,000750,2418.2502,N,08154.0559,W,1,9,1.7,15,M,,M,,*52
06/23/2015	00:07:50.572	$GPGGA,000751,2418.2509,N,08154.0532,W,1,9,1.7,15,M,,M,,*55
06/23/2015	00:07:51.612	$GPGGA,000752,2418.2515,N,08154.0506,W,1,9,1.7,15,M,,M,,*5C
06/23/2015	00:07:52.582	$GPGGA,000753,2418.2522,N,08154.0480,W,1,9,1.7,15,M,,M,,*56
06/23/2015	00:07:53.583	$GPGGA,000754,2418.2529,N,08154.0453,W,1,9,1.7,15,M,,M,,*54
06/23/2015	00:07:54.572	$GPGGA,000755,2418.2534,N,08154.0427,W,1,9,1.7,15,M,,M,,*5A
06/23/2015	00:07:55.583	$GPGGA,000756,2418.2541,N,08154.0401,W,1,9,1.7,16,M,,M,,*5C
06/23/2015	00:07:56.572	$GPGGA,000757,2418.2548,N,08154.0376,W,1,9,1.7,16,M,,M,,*53
06/23/2015	00:07:57.600	$GPGGA,000758,2418.2553,N,08154.0350,W,1,9,1.7,16,M,,M,,*52
06/23/2015	00:07:58.573	$GPGGA,000759,2418.2559,N,08154.0323,W,1,9,1.7,16,M,,M,,*5D
06/23/2015	00:07:59.603	$GPGGA,000800,2418.2566,N,08154.0299,W,1,8,2.0,16,M,,M,,*57
06/23/2015	00:08:00.573	$GPGGA,000801,2418.2571,N,08154.0273,W,1,8,2.0,16,M,,M,,*54
06/23/2015	00:08:01.583	$GPGGA,000802,2418.2578,N,08154.0247,W,1,8,2.0,16,M,,M,,*59
06/23/2015	00:08:02.563	$GPGGA,000803,2418.2584,N,08154.0223,W,1,8,2.0,16,M,,M,,*59
06/23/2015	00:08:03.598	$GPGGA,000804,2418.2589,N,08154.0195,W,1,8,2.0,16,M,,M,,*5D
06/23/2015	00:08:04.543	$GPGGA,000805,2418.2595,N,08154.0168,W,1,8,1.7,16,M,,M,,*57
06/23/2015	00:08:05.562	$GPGGA,000806,2418.2599,N,08154.0142,W,1,9,1.7,16,M,,M,,*51
06/23/2015	00:08:06.552	$GPGGA,000807,2418.2605,N,08154.0115,W,1,9,1.7,16,M,,M,,*54
06/23/2015	00:08:07.582	$GPGGA,000808,2418.2610,N,08154.0088,W,1,9,1.7,16,M,,M,,*5A
06/23/2015	00:08:08.552	$GPGGA,000809,2418.2614,N,08154.0064,W,1,9,2.0,16,M,,M,,*59
06/23/2015	00:08:09.542	$GPGGA,000810,2418.2621,N,08154.0037,W,1,8,2.0,16,M,,M,,*50
06/23/2015	00:08:10.552	$GPGGA,000811,2418.2625,N,08154.0011,W,1,8,1.7,16,M,,M,,*55
06/23/2015	00:08:11.582	$GPGGA,000812,2418.2630,N,08153.9985,W,1,8,2.0,16,M,,M,,*5C
06/23/2015	00:08:12.542	$GPGGA,000813,2418.2635,N,08153.9959,W,1,8,2.0,16,M,,M,,*59
06/23/2015	00:08:13.532	$GPGGA,000814,2418.2639,N,08153.9932,W,1,8,2.0,16,M,,M,,*5F
06/23/2015	00:08:14.542	$GPGGA,000815,2418.2645,N,08153.9906,W,1,8,1.7,16,M,,M,,*56
06/23/2015	00:08:15.544	$GPGGA,000816,2418.2650,N,08153.9878,W,1,8,2.0,16,M,,M,,*5D
06/23/2015	00:08:16.523	$GPGGA,000817,2418.2656,N,08153.9851,W,1,8,1.7,16,M,,M,,*55
06/23/2015	00:08:17.523	$GPGGA,000818,2418.2661,N,08153.9823,W,1,8,2.0,16,M,,M,,*5F
06/23/2015	00:08:18.523	$GPGGA,000819,2418.2668,N,08153.9797,W,1,8,1.7,16,M,,M,,*53
06/23/2015	00:08:19.573	$GPGGA,000820,2418.2672,N,08153.9769,W,1,9,1.7,16,M,,M,,*52
06/23/2015	00:08:20.533	$GPGGA,000821,2418.2679,N,08153.9744,W,1,9,1.7,16,M,,M,,*57
06/23/2015	00:08:21.553	$GPGGA,000822,2418.2685,N,08153.9716,W,1,9,1.7,16,M,,M,,*50
06/23/2015	00:08:22.522	$GPGGA,000823,2418.2690,N,08153.9689,W,1,9,1.7,16,M,,M,,*52
06/23/2015	00:08:23.532	$GPGGA,000824,2418.2696,N,08153.9665,W,1,8,2.0,16,M,,M,,*54
06/23/2015	00:08:24.512	$GPGGA,000825,2418.2701,N,08153.9638,W,1,8,2.0,16,M,,M,,*52
06/23/2015	00:08:25.692	$GPGGA,000826,2418.2707,N,08153.9612,W,1,8,2.0,16,M,,M,,*5F
06/23/2015	00:08:26.532	$GPGGA,000827,2418.2712,N,08153.9588,W,1,8,2.0,16,M,,M,,*5A
06/23/2015	00:08:27.512	$GPGGA,000828,2418.2719,N,08153.9561,W,1,8,2.0,15,M,,M,,*5A
06/23/2015	00:08:28.612	$GPGGA,000829,2418.2725,N,08153.9534,W,1,8,2.0,15,M,,M,,*54
06/23/2015	00:08:29.502	$GPGGA,000830,2418.2730,N,08153.9508,W,1,8,2.0,15,M,,M,,*57
06/23/2015	00:08:30.512	$GPGGA,000831,2418.2737,N,08153.9484,W,1,8,2.0,15,M,,M,,*54
06/23/2015	00:08:31.532	$GPGGA,000832,2418.2743,N,08153.9457,W,1,8,2.0,15,M,,M,,*5A
06/23/2015	00:08:32.597	$GPGGA,000833,2418.2747,N,08153.9431,W,1,8,2.0,15,M,,M,,*5F
06/23/2015	00:08:33.497	$GPGGA,000834,2418.2754,N,08153.9407,W,1,8,2.0,15,M,,M,,*5F
06/23/2015	00:08:34.496	$GPGGA,000835,2418.2760,N,08153.9379,W,1,8,2.0,15,M,,M,,*57
06/23/2015	00:08:35.697	$GPGGA,000836,2418.2766,N,08153.9353,W,1,8,2.0,15,M,,M,,*5A
06/23/2015	00:08:36.623	$GPGGA,000837,2418.2773,N,08153.9329,W,1,8,2.0,15,M,,M,,*52
06/23/2015	00:08:37.493	$GPGGA,000838,2418.2777,N,08153.9302,W,1,8,2.0,15,M,,M,,*50
06/23/2015	00:08:38.573	$GPGGA,000839,2418.2783,N,08153.9275,W,1,8,1.7,15,M,,M,,*5F
06/23/2015	00:08:39.689	$GPGGA,000840,2418.2790,N,08153.9248,W,1,9,1.7,15,M,,M,,*5C
06/23/2015	00:08:40.612	$GPGGA,000841,2418.2795,N,08153.9221,W,1,9,1.7,15,M,,M,,*57
06/23/2015	00:08:41.688	$GPGGA,000842,2418.2802,N,08153.9194,W,1,9,1.7,15,M,,M,,*58
06/23/2015	00:08:42.572	$GPGGA,000843,2418.2808,N,08153.9167,W,1,9,1.7,15,M,,M,,*5F
06/23/2015	00:08:43.683	$GPGGA,000844,2418.2815,N,08153.9140,W,1,9,1.7,15,M,,M,,*51
06/23/2015	00:08:44.612	$GPGGA,000845,2418.2820,N,08153.9113,W,1,9,1.7,15,M,,M,,*50
06/23/2015	00:08:45.662	$GPGGA,000846,2418.2827,N,08153.9086,W,1,9,1.7,15,M,,M,,*59
06/23/2015	00:08:46.602	$GPGGA,000847,2418.2833,N,08153.9060,W,1,9,1.7,15,M,,M,,*55
06/23/2015	00:08:47.672	$GPGGA,000848,2418.2838,N,08153.9032,W,1,9,1.7,15,M,,M,,*56
06/23/2015	00:08:48.592	$GPGGA,000849,2418.2845,N,08153.9007,W,1,9,1.7,15,M,,M,,*5B
06/23/2015	00:08:49.672	$GPGGA,000850,2418.2852,N,08153.8980,W,1,9,1.7,15,M,,M,,*52
06/23/2015	00:08:50.583	$GPGGA,000851,2418.2858,N,08153.8952,W,1,9,1.7,15,M,,M,,*56
06/23/2015	00:08:51.663	$GPGGA,000852,2418.2863,N,08153.8927,W,1,9,1.7,15,M,,M,,*5F
06/23/2015	00:08:52.588	$GPGGA,000853,2418.2870,N,08153.8899,W,1,9,1.7,15,M,,M,,*58
06/23/2015	00:08:53.663	$GPGGA,000854,2418.2877,N,08153.8872,W,1,9,1.7,15,M,,M,,*5D
06/23/2015	00:08:54.589	$GPGGA,000855,2418.2884,N,08153.8848,W,1,9,1.7,16,M,,M,,*5A
06/23/2015	00:08:55.663	$GPGGA,000856,2418.2891,N,08153.8822,W,1,8,1.7,16,M,,M,,*50
06/23/2015	00:08:56.573	$GPGGA,000857,2418.2896,N,08153.8796,W,1,8,1.7,16,M,,M,,*56
06/23/2015	00:08:57.652	$GPGGA,000858,2418.2903,N,08153.8771,W,1,8,2.0,16,M,,M,,*59
06/23/2015	00:08:58.572	$GPGGA,000859,2418.2910,N,08153.8745,W,1,8,2.0,16,M,,M,,*5D
06/23/2015	00:08:59.672	$GPGGA,000900,2418.2916,N,08153.8721,W,1,8,2.0,16,M,,M,,*54
06/23/2015	00:09:00.562	$GPGGA,000901,2418.2923,N,08153.8694,W,1,8,2.0,16,M,,M,,*5C
06/23/2015	00:09:01.596	$GPGGA,000902,2418.2928,N,08153.8668,W,1,8,2.0,16,M,,M,,*57
06/23/2015	00:09:02.562	$GPGGA,000903,2418.2935,N,08153.8645,W,1,8,2.0,16,M,,M,,*55
06/23/2015	00:09:03.662	$GPGGA,000904,2418.2941,N,08153.8618,W,1,8,2.0,16,M,,M,,*59
06/23/2015	00:09:04.562	$GPGGA,000905,2418.2946,N,08153.8592,W,1,8,2.0,15,M,,M,,*5D
06/23/2015	00:09:05.652	$GPGGA,000906,2418.2952,N,08153.8568,W,1,8,1.7,15,M,,M,,*5A
06/23/2015	00:09:06.562	$GPGGA,000907,2418.2957,N,08153.8541,W,1,8,2.0,15,M,,M,,*51
06/23/2015	00:09:07.642	$GPGGA,000908,2418.2963,N,08153.8517,W,1,8,2.0,15,M,,M,,*5A
06/23/2015	00:09:08.523	$GPGGA,000909,2418.2968,N,08153.8493,W,1,8,2.0,15,M,,M,,*5D
06/23/2015	00:09:09.613	$GPGGA,000910,2418.2975,N,08153.8467,W,1,9,2.0,15,M,,M,,*53
06/23/2015	00:09:10.553	$GPGGA,000911,2418.2979,N,08153.8442,W,1,9,2.0,15,M,,M,,*59
06/23/2015	00:09:11.603	$GPGGA,000912,2418.2985,N,08153.8417,W,1,8,2.0,15,M,,M,,*58
06/23/2015	00:09:12.633	$GPGGA,000913,2418.2990,N,08153.8391,W,1,8,2.0,15,M,,M,,*54
06/23/2015	00:09:13.623	$GPGGA,000914,2418.2997,N,08153.8365,W,1,8,2.0,15,M,,M,,*5F
06/23/2015	00:09:14.584	$GPGGA,000915,2418.3003,N,08153.8340,W,1,8,2.0,15,M,,M,,*5C
06/23/2015	00:09:15.642	$GPGGA,000916,2418.3008,N,08153.8313,W,1,8,2.0,15,M,,M,,*52
06/23/2015	00:09:16.542	$GPGGA,000917,2418.3013,N,08153.8287,W,1,8,2.0,15,M,,M,,*55
06/23/2015	00:09:17.622	$GPGGA,000918,2418.3018,N,08153.8260,W,1,8,2.1,15,M,,M,,*59
06/23/2015	00:09:18.532	$GPGGA,000919,2418.3022,N,08153.8233,W,1,8,2.0,14,M,,M,,*57
06/23/2015	00:09:19.602	$GPGGA,000920,2418.3028,N,08153.8207,W,1,8,2.0,14,M,,M,,*50
06/23/2015	00:09:20.542	$GPGGA,000921,2418.3033,N,08153.8180,W,1,8,2.0,14,M,,M,,*57
06/23/2015	00:09:21.582	$GPGGA,000922,2418.3040,N,08153.8154,W,1,8,2.0,14,M,,M,,*59
06/23/2015	00:09:22.532	$GPGGA,000923,2418.3044,N,08153.8127,W,1,8,2.0,14,M,,M,,*58
06/23/2015	00:09:23.593	$GPGGA,000924,2418.3051,N,08153.8100,W,1,8,2.0,14,M,,M,,*5E
06/23/2015	00:09:24.592	$GPGGA,000925,2418.3057,N,08153.8073,W,1,8,2.0,14,M,,M,,*5C
06/23/2015	00:09:25.633	$GPGGA,000926,2418.3062,N,08153.8047,W,1,8,2.0,14,M,,M,,*5E
06/23/2015	00:09:26.533	$GPGGA,000927,2418.3066,N,08153.8020,W,1,8,2.0,14,M,,M,,*5A
06/23/2015	00:09:27.587	$GPGGA,000928,2418.3073,N,08153.7992,W,1,8,2.0,13,M,,M,,*59
06/23/2015	00:09:28.588	$GPGGA,000929,2418.3078,N,08153.7968,W,1,8,2.0,13,M,,M,,*56
06/23/2015	00:09:29.623	$GPGGA,000930,2418.3083,N,08153.7938,W,1,8,1.7,13,M,,M,,*5B
06/23/2015	00:09:30.584	$GPGGA,000931,2418.3090,N,08153.7909,W,1,8,1.7,13,M,,M,,*5A
06/23/2015	00:09:31.599	$GPGGA,000932,2418.3096,N,08153.7882,W,1,9,1.7,13,M,,M,,*5C
06/23/2015	00:09:32.572	$GPGGA,000933,2418.3102,N,08153.7854,W,1,9,1.7,13,M,,M,,*5A
06/23/2015	00:09:33.582	$GPGGA,000934,2418.3107,N,08153.7828,W,1,9,2.0,13,M,,M,,*57
06/23/2015	00:09:34.572	$GPGGA,000935,2418.3112,N,08153.7802,W,1,9,2.0,13,M,,M,,*5A
06/23/2015	00:09:35.662	$GPGGA,000936,2418.3118,N,08153.7777,W,1,8,2.0,13,M,,M,,*5F
06/23/2015	00:09:36.562	$GPGGA,000937,2418.3125,N,08153.7750,W,1,8,2.0,13,M,,M,,*55
06/23/2015	00:09:37.572	$GPGGA,000938,2418.3130,N,08153.7723,W,1,8,2.0,13,M,,M,,*5A
06/23/2015	00:09:38.562	$GPGGA,000939,2418.3136,N,08153.7697,W,1,8,2.0,13,M,,M,,*53
06/23/2015	00:09:39.652	$GPGGA,000940,2418.3143,N,08153.7670,W,1,8,2.6,13,M,,M,,*50
06/23/2015	00:09:40.562	$GPGGA,000941,2418.3149,N,08153.7645,W,1,8,2.0,13,M,,M,,*5B
06/23/2015	00:09:41.632	$GPGGA,000942,2418.3155,N,08153.7619,W,1,8,2.0,13,M,,M,,*5C
06/23/2015	00:09:42.572	$GPGGA,000943,2418.3159,N,08153.7592,W,1,8,2.0,13,M,,M,,*51
06/23/2015	00:09:43.594	$GPGGA,000944,2418.3167,N,08153.7568,W,1,8,2.0,13,M,,M,,*5E
06/23/2015	00:09:44.563	$GPGGA,000945,2418.3174,N,08153.7542,W,1,8,2.0,13,M,,M,,*55
06/23/2015	00:09:45.573	$GPGGA,000946,2418.3178,N,08153.7513,W,1,8,1.7,13,M,,M,,*5A
06/23/2015	00:09:46.563	$GPGGA,000947,2418.3185,N,08153.7487,W,1,8,1.7,13,M,,M,,*55
06/23/2015	00:09:48.091	$GPGGA,000948,2418.3192,N,08153.7461,W,1,9,1.7,13,M,,M,,*55
06/23/2015	00:09:48.544	$GPGGA,000949,2418.3199,N,08153.7433,W,1,9,1.7,13,M,,M,,*58
06/23/2015	00:09:49.595	$GPGGA,000950,2418.3205,N,08153.7406,W,1,9,1.7,13,M,,M,,*50
06/23/2015	00:09:50.562	$GPGGA,000951,2418.3212,N,08153.7380,W,1,9,1.7,13,M,,M,,*5E
06/23/2015	00:09:51.562	$GPGGA,000952,2418.3212,N,08153.7380,W,1,9,1.7,13,M,,M,,*5D
06/23/2015	00:09:52.542	$GPGGA,000953,2418.3224,N,08153.7326,W,1,9,2.0,14,M,,M,,*56
06/23/2015	00:09:53.572	$GPGGA,000954,2418.3231,N,08153.7302,W,1,8,2.0,14,M,,M,,*52
06/23/2015	00:09:54.542	$GPGGA,000955,2418.3238,N,08153.7275,W,1,8,2.0,14,M,,M,,*5B
06/23/2015	00:09:55.552	$GPGGA,000956,2418.3238,N,08153.7275,W,1,8,2.0,14,M,,M,,*58
06/23/2015	00:09:56.532	$GPGGA,000957,2418.3250,N,08153.7225,W,1,8,2.0,14,M,,M,,*52
06/23/2015	00:09:57.592	$GPGGA,000958,2418.3257,N,08153.7198,W,1,8,2.0,14,M,,M,,*5F
06/23/2015	00:09:58.522	$GPGGA,000959,2418.3263,N,08153.7172,W,1,8,2.0,14,M,,M,,*5D
06/23/2015	00:09:59.612	$GPGGA,001000,2418.3263,N,08153.7172,W,1,8,2.0,14,M,,M,,*59
06/23/2015	00:10:00.533	$GPGGA,001001,2418.3277,N,08153.7120,W,1,8,2.6,14,M,,M,,*5C
06/23/2015	00:10:01.573	$GPGGA,001002,2418.3282,N,08153.7094,W,1,7,2.0,14,M,,M,,*52
06/23/2015	00:10:02.623	$GPGGA,001003,2418.3288,N,08153.7070,W,1,7,2.0,14,M,,M,,*53
06/23/2015	00:10:03.653	$GPGGA,001004,2418.3293,N,08153.7044,W,1,8,2.0,14,M,,M,,*56
06/23/2015	00:10:04.633	$GPGGA,001005,2418.3299,N,08153.7019,W,1,8,2.0,14,M,,M,,*55
06/23/2015	00:10:05.533	$GPGGA,001006,2418.3299,N,08153.7019,W,1,8,2.0,14,M,,M,,*56
06/23/2015	00:10:06.623	$GPGGA,001007,2418.3311,N,08153.6968,W,1,8,2.0,14,M,,M,,*58
06/23/2015	00:10:07.542	$GPGGA,001008,2418.3311,N,08153.6968,W,1,8,2.0,14,M,,M,,*57
06/23/2015	00:10:08.512	$GPGGA,001009,2418.3322,N,08153.6916,W,1,8,1.7,14,M,,M,,*5B
06/23/2015	00:10:09.522	$GPGGA,001010,2418.3326,N,08153.6890,W,1,9,1.7,15,M,,M,,*58
06/23/2015	00:10:10.502	$GPGGA,001011,2418.3333,N,08153.6863,W,1,9,1.7,15,M,,M,,*51
06/23/2015	00:10:11.502	$GPGGA,001012,2418.3333,N,08153.6863,W,1,8,2.0,15,M,,M,,*57
06/23/2015	00:10:12.492	$GPGGA,001013,2418.3344,N,08153.6810,W,1,8,1.7,15,M,,M,,*56
06/23/2015	00:10:13.602	$GPGGA,001014,2418.3349,N,08153.6783,W,1,9,1.7,15,M,,M,,*58
06/23/2015	00:10:14.482	$GPGGA,001015,2418.3354,N,08153.6757,W,1,9,2.0,15,M,,M,,*58
06/23/2015	00:10:15.502	$GPGGA,001016,2418.3354,N,08153.6757,W,1,9,1.7,16,M,,M,,*5C
06/23/2015	00:10:16.572	$GPGGA,001017,2418.3365,N,08153.6702,W,1,9,1.7,16,M,,M,,*5F
06/23/2015	00:10:17.572	$GPGGA,001018,2418.3372,N,08153.6677,W,1,8,2.0,16,M,,M,,*50
06/23/2015	00:10:18.572	$GPGGA,001019,2418.3378,N,08153.6651,W,1,8,2.0,16,M,,M,,*5F
06/23/2015	00:10:19.632	$GPGGA,001020,2418.3383,N,08153.6625,W,1,8,2.0,16,M,,M,,*52
06/23/2015	00:10:20.562	$GPGGA,001021,2418.3390,N,08153.6599,W,1,8,2.0,16,M,,M,,*55
06/23/2015	00:10:21.582	$GPGGA,001022,2418.3394,N,08153.6573,W,1,8,2.0,17,M,,M,,*57
06/23/2015	00:10:22.584	$GPGGA,001023,2418.3401,N,08153.6547,W,1,8,2.0,17,M,,M,,*5A
06/23/2015	00:10:23.592	$GPGGA,001024,2418.3405,N,08153.6521,W,1,8,2.0,17,M,,M,,*59
06/23/2015	00:10:24.552	$GPGGA,001025,2418.3412,N,08153.6494,W,1,8,2.0,17,M,,M,,*51
06/23/2015	00:10:25.581	$GPGGA,001026,2418.3416,N,08153.6468,W,1,8,2.0,17,M,,M,,*55
06/23/2015	00:10:26.572	$GPGGA,001027,2418.3423,N,08153.6441,W,1,8,2.0,17,M,,M,,*59
06/23/2015	00:10:27.591	$GPGGA,001028,2418.3427,N,08153.6415,W,1,8,2.0,17,M,,M,,*53
06/23/2015	00:10:28.552	$GPGGA,001029,2418.3433,N,08153.6389,W,1,8,2.0,17,M,,M,,*55
06/23/2015	00:10:29.542	$GPGGA,001030,2418.3438,N,08153.6361,W,1,8,2.0,17,M,,M,,*50
06/23/2015	00:10:30.542	$GPGGA,001031,2418.3444,N,08153.6335,W,1,8,2.0,17,M,,M,,*5B
06/23/2015	00:10:31.582	$GPGGA,001032,2418.3449,N,08153.6309,W,1,8,2.0,17,M,,M,,*5A
06/23/2015	00:10:32.532	$GPGGA,001033,2418.3456,N,08153.6282,W,1,8,2.1,17,M,,M,,*56
06/23/2015	00:10:33.562	$GPGGA,001034,2418.3463,N,08153.6255,W,1,8,2.0,17,M,,M,,*5C
06/23/2015	00:10:34.542	$GPGGA,001035,2418.3470,N,08153.6230,W,1,8,2.0,17,M,,M,,*5C
06/23/2015	00:10:35.589	$GPGGA,001036,2418.3477,N,08153.6203,W,1,8,2.0,17,M,,M,,*58
06/23/2015	00:10:36.532	$GPGGA,001037,2418.3484,N,08153.6177,W,1,8,2.0,17,M,,M,,*55
06/23/2015	00:10:37.562	$GPGGA,001038,2418.3490,N,08153.6152,W,1,8,2.0,17,M,,M,,*58
06/23/2015	00:10:38.522	$GPGGA,001039,2418.3495,N,08153.6125,W,1,8,2.0,17,M,,M,,*5C
06/23/2015	00:10:39.542	$GPGGA,001040,2418.3503,N,08153.6099,W,1,8,2.0,17,M,,M,,*5A
06/23/2015	00:10:40.532	$GPGGA,001041,2418.3509,N,08153.6071,W,1,8,2.0,17,M,,M,,*57
06/23/2015	00:10:41.522	$GPGGA,001042,2418.3514,N,08153.6044,W,1,9,1.7,17,M,,M,,*5B
06/23/2015	00:10:42.531	$GPGGA,001043,2418.3521,N,08153.6019,W,1,9,2.0,17,M,,M,,*50
06/23/2015	00:10:43.561	$GPGGA,001044,2418.3528,N,08153.5990,W,1,8,2.0,17,M,,M,,*54
06/23/2015	00:10:44.531	$GPGGA,001045,2418.3534,N,08153.5964,W,1,8,1.7,17,M,,M,,*57
06/23/2015	00:10:45.542	$GPGGA,001046,2418.3539,N,08153.5937,W,1,9,1.7,17,M,,M,,*5E
06/23/2015	00:10:46.942	$GPGGA,001047,2418.3545,N,08153.5912,W,1,9,2.0,17,M,,M,,*57
06/23/2015	00:10:47.542	$GPGGA,001048,2418.3552,N,08153.5885,W,1,8,2.0,17,M,,M,,*50
06/23/2015	00:10:48.512	$GPGGA,001049,2418.3557,N,08153.5857,W,1,8,1.7,17,M,,M,,*5F
06/23/2015	00:10:49.512	$GPGGA,001050,2418.3563,N,08153.5832,W,1,8,2.0,17,M,,M,,*57
06/23/2015	00:10:50.512	$GPGGA,001051,2418.3571,N,08153.5807,W,1,8,2.0,17,M,,M,,*53
06/23/2015	00:10:51.532	$GPGGA,001052,2418.3575,N,08153.5780,W,1,8,2.0,17,M,,M,,*54
06/23/2015	00:10:52.492	$GPGGA,001053,2418.3582,N,08153.5755,W,1,8,2.0,18,M,,M,,*5A
06/23/2015	00:10:53.512	$GPGGA,001054,2418.3589,N,08153.5729,W,1,8,2.0,18,M,,M,,*5D
06/23/2015	00:10:54.512	$GPGGA,001055,2418.3596,N,08153.5702,W,1,8,2.0,18,M,,M,,*5B
06/23/2015	00:10:55.532	$GPGGA,001056,2418.3600,N,08153.5677,W,1,8,2.0,18,M,,M,,*57
06/23/2015	00:10:56.512	$GPGGA,001057,2418.3607,N,08153.5652,W,1,8,2.0,18,M,,M,,*56
06/23/2015	00:10:57.492	$GPGGA,001058,2418.3614,N,08153.5625,W,1,8,2.0,17,M,,M,,*54
06/23/2015	00:10:58.502	$GPGGA,001059,2418.3618,N,08153.5599,W,1,8,2.0,17,M,,M,,*5D
06/23/2015	00:10:59.522	$GPGGA,001100,2418.3625,N,08153.5573,W,1,8,2.0,17,M,,M,,*5A
06/23/2015	00:11:00.595	$GPGGA,001101,2418.3632,N,08153.5548,W,1,8,2.0,17,M,,M,,*55
06/23/2015	00:11:01.501	$GPGGA,001102,2418.3638,N,08153.5520,W,1,8,2.0,17,M,,M,,*52
06/23/2015	00:11:02.572	$GPGGA,001103,2418.3643,N,08153.5495,W,1,8,2.0,17,M,,M,,*50
06/23/2015	00:11:03.600	$GPGGA,001104,2418.3649,N,08153.5471,W,1,8,2.0,17,M,,M,,*57
06/23/2015	00:11:04.492	$GPGGA,001105,2418.3656,N,08153.5444,W,1,8,2.0,17,M,,M,,*5E
06/23/2015	00:11:05.588	$GPGGA,001106,2418.3661,N,08153.5417,W,1,8,2.0,17,M,,M,,*5F
06/23/2015	00:11:06.576	$GPGGA,001107,2418.3667,N,08153.5393,W,1,8,2.0,17,M,,M,,*53
06/23/2015	00:11:07.602	$GPGGA,001108,2418.3674,N,08153.5367,W,1,8,2.0,17,M,,M,,*55
06/23/2015	00:11:08.573	$GPGGA,001109,2418.3680,N,08153.5340,W,1,8,2.0,17,M,,M,,*5A
06/23/2015	00:11:09.562	$GPGGA,001110,2418.3686,N,08153.5315,W,1,8,2.0,17,M,,M,,*54
06/23/2015	00:11:10.576	$GPGGA,001111,2418.3693,N,08153.5289,W,1,8,2.0,17,M,,M,,*55
06/23/2015	00:11:11.573	$GPGGA,001112,2418.3698,N,08153.5263,W,1,8,2.0,16,M,,M,,*58
06/23/2015	00:11:12.562	$GPGGA,001113,2418.3705,N,08153.5237,W,1,8,2.0,16,M,,M,,*5D
06/23/2015	00:11:13.591	$GPGGA,001114,2418.3711,N,08153.5211,W,1,8,2.0,16,M,,M,,*5B
06/23/2015	00:11:14.552	$GPGGA,001115,2418.3718,N,08153.5185,W,1,8,2.0,16,M,,M,,*5D
06/23/2015	00:11:15.592	$GPGGA,001116,2418.3723,N,08153.5156,W,1,8,2.0,16,M,,M,,*58
06/23/2015	00:11:16.552	$GPGGA,001117,2418.3729,N,08153.5130,W,1,8,1.7,16,M,,M,,*57
06/23/2015	00:11:17.572	$GPGGA,001118,2418.3734,N,08153.5105,W,1,8,2.0,16,M,,M,,*56
06/23/2015	00:11:18.551	$GPGGA,001119,2418.3741,N,08153.5077,W,1,8,2.0,16,M,,M,,*51
06/23/2015	00:11:19.585	$GPGGA,001120,2418.3747,N,08153.5052,W,1,9,1.7,16,M,,M,,*5F
06/23/2015	00:11:20.552	$GPGGA,001121,2418.3752,N,08153.5026,W,1,9,2.0,16,M,,M,,*5D
06/23/2015	00:11:21.532	$GPGGA,001122,2418.3758,N,08153.4999,W,1,8,2.0,16,M,,M,,*59
06/23/2015	00:11:22.542	$GPGGA,001123,2418.3763,N,08153.4974,W,1,8,2.0,16,M,,M,,*53
06/23/2015	00:11:23.562	$GPGGA,001124,2418.3770,N,08153.4948,W,1,7,2.1,16,M,,M,,*57
06/23/2015	00:11:24.542	$GPGGA,001125,2418.3776,N,08153.4921,W,1,7,2.0,16,M,,M,,*5E
06/23/2015	00:11:25.562	$GPGGA,001126,2418.3783,N,08153.4895,W,1,8,2.0,16,M,,M,,*56
06/23/2015	00:11:26.532	$GPGGA,001127,2418.3788,N,08153.4868,W,1,8,2.0,16,M,,M,,*5E
06/23/2015	00:11:27.542	$GPGGA,001128,2418.3795,N,08153.4840,W,1,8,2.0,16,M,,M,,*57
06/23/2015	00:11:28.532	$GPGGA,001129,2418.3801,N,08153.4815,W,1,8,2.0,16,M,,M,,*54
06/23/2015	00:11:29.552	$GPGGA,001130,2418.3805,N,08153.4788,W,1,8,2.0,16,M,,M,,*53
06/23/2015	00:11:30.522	$GPGGA,001131,2418.3809,N,08153.4762,W,1,8,2.1,16,M,,M,,*5B
06/23/2015	00:11:31.542	$GPGGA,001132,2418.3813,N,08153.4736,W,1,8,2.0,16,M,,M,,*53
06/23/2015	00:11:32.512	$GPGGA,001133,2418.3820,N,08153.4709,W,1,8,2.0,15,M,,M,,*5D
06/23/2015	00:11:33.553	$GPGGA,001134,2418.3823,N,08153.4684,W,1,7,2.0,15,M,,M,,*52
06/23/2015	00:11:34.512	$GPGGA,001135,2418.3827,N,08153.4657,W,1,7,2.1,15,M,,M,,*58
06/23/2015	00:11:35.531	$GPGGA,001136,2418.3831,N,08153.4631,W,1,7,2.1,15,M,,M,,*5C
06/23/2015	00:11:36.521	$GPGGA,001137,2418.3835,N,08153.4605,W,1,7,2.0,15,M,,M,,*5F
06/23/2015	00:11:37.501	$GPGGA,001138,2418.3842,N,08153.4579,W,1,7,2.1,15,M,,M,,*59
06/23/2015	00:11:38.622	$GPGGA,001139,2418.3846,N,08153.4553,W,1,7,2.0,15,M,,M,,*55
06/23/2015	00:11:39.532	$GPGGA,001140,2418.3852,N,08153.4526,W,1,8,2.0,14,M,,M,,*52
06/23/2015	00:11:40.492	$GPGGA,001141,2418.3857,N,08153.4499,W,1,8,2.0,14,M,,M,,*53
06/23/2015	00:11:41.512	$GPGGA,001142,2418.3863,N,08153.4473,W,1,7,2.1,14,M,,M,,*5D
06/23/2015	00:11:42.492	$GPGGA,001143,2418.3866,N,08153.4446,W,1,7,2.0,14,M,,M,,*5E
06/23/2015	00:11:43.542	$GPGGA,001144,2418.3871,N,08153.4419,W,1,8,2.0,14,M,,M,,*5A
06/23/2015	00:11:44.512	$GPGGA,001145,2418.3878,N,08153.4392,W,1,8,2.1,14,M,,M,,*57
06/23/2015	00:11:45.534	$GPGGA,001146,2418.3882,N,08153.4366,W,1,8,2.0,14,M,,M,,*5B
06/23/2015	00:11:46.586	$GPGGA,001147,2418.3886,N,08153.4339,W,1,8,2.0,14,M,,M,,*54
06/23/2015	00:11:47.632	$GPGGA,001148,2418.3892,N,08153.4312,W,1,8,2.0,13,M,,M,,*50
06/23/2015	00:11:48.602	$GPGGA,001149,2418.3896,N,08153.4287,W,1,8,2.0,13,M,,M,,*58
06/23/2015	00:11:49.584	$GPGGA,001150,2418.3902,N,08153.4259,W,1,8,2.0,13,M,,M,,*5F
06/23/2015	00:11:50.602	$GPGGA,001151,2418.3907,N,08153.4232,W,1,8,2.0,13,M,,M,,*56
