Software Version Number: 1	Data File Format Number: 1	Build Version Number: 1	Error Count Since VI Started: 3	Manufacturer: Raytheon	 Model Number: RayMarine 120	 S/N: 	 Cal Date: 	 Wind Direction Offset: 0.00	 Slope (M)1: 0.00	 Offset (B)1: 0.00	 Slope (M)2: 0.00	 Offset (B)2: 0.00	 Slope (M)3: 0.00	 Offset (B)3: 0.00	 Slope (M)4: 0.00	 Offset (B)4: 0.00	 Slope (M)5: 0.00	 Offset (B)5: 0.00	 Slope (M)6: 0.00	 Offset (B)6: 0.00
Computer Date	Computer Time	GGA String
06/26/2015	04:00:00.531	$GPGGA,040001,2551.4790,N,07953.8042,W,1,8,1.9,17,M,,M,,*5C
06/26/2015	04:00:01.531	$GPGGA,040002,2551.4781,N,07953.8046,W,1,8,1.9,17,M,,M,,*5B
06/26/2015	04:00:02.515	$GPGGA,040003,2551.4773,N,07953.8049,W,1,8,1.9,17,M,,M,,*58
06/26/2015	04:00:03.591	$GPGGA,040004,2551.4764,N,07953.8053,W,1,8,1.9,16,M,,M,,*53
06/26/2015	04:00:04.518	$GPGGA,040005,2551.4756,N,07953.8056,W,1,8,1.9,16,M,,M,,*56
06/26/2015	04:00:05.514	$GPGGA,040006,2551.4749,N,07953.8060,W,1,8,1.9,16,M,,M,,*5E
06/26/2015	04:00:06.501	$GPGGA,040007,2551.4739,N,07953.8064,W,1,8,1.9,16,M,,M,,*5C
06/26/2015	04:00:08.530	$GPGGA,040009,2551.4724,N,07953.8071,W,1,8,1.9,16,M,,M,,*5A
06/26/2015	04:00:09.623	$GPGGA,040010,2551.4715,N,07953.8075,W,1,8,1.9,16,M,,M,,*54
06/26/2015	04:00:10.520	$GPGGA,040011,2551.4707,N,07953.8079,W,1,8,1.9,16,M,,M,,*5A
06/26/2015	04:00:11.620	$GPGGA,040012,2551.4699,N,07953.8082,W,1,8,1.9,16,M,,M,,*5B
06/26/2015	04:00:12.501	$GPGGA,040013,2551.4691,N,07953.8086,W,1,8,1.9,16,M,,M,,*56
06/26/2015	04:00:13.602	$GPGGA,040014,2551.4682,N,07953.8089,W,1,8,1.9,16,M,,M,,*5C
06/26/2015	04:00:14.502	$GPGGA,040015,2551.4674,N,07953.8093,W,1,8,1.9,16,M,,M,,*5F
06/26/2015	04:00:15.531	$GPGGA,040016,2551.4674,N,07953.8093,W,1,8,1.9,16,M,,M,,*5C
06/26/2015	04:00:16.481	$GPGGA,040017,2551.4659,N,07953.8100,W,1,8,1.9,16,M,,M,,*59
06/26/2015	04:00:17.581	$GPGGA,040018,2551.4651,N,07953.8104,W,1,8,1.9,16,M,,M,,*5A
06/26/2015	04:00:18.581	$GPGGA,040019,2551.4643,N,07953.8108,W,1,8,1.9,16,M,,M,,*54
06/26/2015	04:00:19.601	$GPGGA,040020,2551.4635,N,07953.8112,W,1,8,1.9,16,M,,M,,*54
06/26/2015	04:00:20.581	$GPGGA,040021,2551.4627,N,07953.8116,W,1,8,1.9,16,M,,M,,*52
06/26/2015	04:00:21.611	$GPGGA,040022,2551.4619,N,07953.8121,W,1,8,1.9,16,M,,M,,*58
06/26/2015	04:00:22.560	$GPGGA,040023,2551.4610,N,07953.8123,W,1,8,1.9,16,M,,M,,*52
06/26/2015	04:00:23.620	$GPGGA,040024,2551.4602,N,07953.8126,W,1,8,1.9,16,M,,M,,*53
06/26/2015	04:00:24.560	$GPGGA,040025,2551.4594,N,07953.8130,W,1,8,2.2,16,M,,M,,*51
06/26/2015	04:00:25.580	$GPGGA,040026,2551.4588,N,07953.8134,W,1,7,2.2,16,M,,M,,*54
06/26/2015	04:00:26.590	$GPGGA,040027,2551.4583,N,07953.8137,W,1,7,1.9,16,M,,M,,*55
06/26/2015	04:00:27.601	$GPGGA,040028,2551.4576,N,07953.8141,W,1,8,1.9,16,M,,M,,*5E
06/26/2015	04:00:28.560	$GPGGA,040029,2551.4569,N,07953.8144,W,1,8,1.9,16,M,,M,,*54
06/26/2015	04:00:29.580	$GPGGA,040030,2551.4562,N,07953.8148,W,1,8,1.9,16,M,,M,,*5B
06/26/2015	04:00:30.561	$GPGGA,040031,2551.4555,N,07953.8151,W,1,8,1.9,16,M,,M,,*56
06/26/2015	04:00:31.591	$GPGGA,040032,2551.4547,N,07953.8155,W,1,8,1.9,16,M,,M,,*52
06/26/2015	04:00:32.561	$GPGGA,040033,2551.4540,N,07953.8158,W,1,8,1.9,16,M,,M,,*59
06/26/2015	04:00:33.841	$GPGGA,040034,2551.4532,N,07953.8162,W,1,8,1.9,16,M,,M,,*52
06/26/2015	04:00:34.541	$GPGGA,040035,2551.4525,N,07953.8165,W,1,8,1.9,17,M,,M,,*53
06/26/2015	04:00:35.571	$GPGGA,040036,2551.4518,N,07953.8168,W,1,8,1.9,17,M,,M,,*53
06/26/2015	04:00:36.551	$GPGGA,040037,2551.4508,N,07953.8172,W,1,8,1.9,17,M,,M,,*58
06/26/2015	04:00:37.571	$GPGGA,040038,2551.4500,N,07953.8175,W,1,8,1.9,17,M,,M,,*58
06/26/2015	04:00:38.531	$GPGGA,040039,2551.4492,N,07953.8179,W,1,8,2.2,17,M,,M,,*57
06/26/2015	04:00:39.570	$GPGGA,040040,2551.4482,N,07953.8181,W,1,8,1.9,17,M,,M,,*57
06/26/2015	04:00:40.540	$GPGGA,040041,2551.4469,N,07953.8186,W,1,8,2.2,17,M,,M,,*5C
06/26/2015	04:00:41.560	$GPGGA,040042,2551.4460,N,07953.8188,W,1,8,1.9,17,M,,M,,*50
06/26/2015	04:00:42.520	$GPGGA,040043,2551.4451,N,07953.8191,W,1,8,1.9,17,M,,M,,*5B
06/26/2015	04:00:43.570	$GPGGA,040044,2551.4442,N,07953.8194,W,1,8,1.9,17,M,,M,,*5B
06/26/2015	04:00:44.520	$GPGGA,040045,2551.4433,N,07953.8197,W,1,8,1.9,17,M,,M,,*5F
06/26/2015	04:00:45.550	$GPGGA,040046,2551.4424,N,07953.8201,W,1,8,1.9,17,M,,M,,*56
06/26/2015	04:00:46.520	$GPGGA,040047,2551.4417,N,07953.8204,W,1,8,1.9,17,M,,M,,*52
06/26/2015	04:00:47.570	$GPGGA,040048,2551.4407,N,07953.8206,W,1,8,1.9,17,M,,M,,*5E
06/26/2015	04:00:48.515	$GPGGA,040049,2551.4399,N,07953.8209,W,1,8,2.2,17,M,,M,,*58
06/26/2015	04:00:49.551	$GPGGA,040050,2551.4390,N,07953.8212,W,1,8,1.9,17,M,,M,,*5B
06/26/2015	04:00:50.631	$GPGGA,040051,2551.4382,N,07953.8215,W,1,8,2.2,17,M,,M,,*56
06/26/2015	04:00:51.561	$GPGGA,040052,2551.4375,N,07953.8219,W,1,8,1.9,17,M,,M,,*59
06/26/2015	04:00:52.517	$GPGGA,040053,2551.4367,N,07953.8220,W,1,8,1.9,17,M,,M,,*51
06/26/2015	04:00:53.531	$GPGGA,040054,2551.4360,N,07953.8223,W,1,8,1.9,17,M,,M,,*52
06/26/2015	04:00:54.503	$GPGGA,040055,2551.4352,N,07953.8226,W,1,8,1.9,17,M,,M,,*57
06/26/2015	04:00:55.516	$GPGGA,040056,2551.4344,N,07953.8230,W,1,8,1.9,17,M,,M,,*54
06/26/2015	04:00:56.601	$GPGGA,040057,2551.4337,N,07953.8233,W,1,8,1.9,17,M,,M,,*52
06/26/2015	04:00:57.630	$GPGGA,040058,2551.4330,N,07953.8235,W,1,8,1.9,17,M,,M,,*5C
06/26/2015	04:00:58.518	$GPGGA,040059,2551.4323,N,07953.8238,W,1,8,1.9,17,M,,M,,*52
06/26/2015	04:00:59.520	$GPGGA,040100,2551.4315,N,07953.8241,W,1,8,1.9,17,M,,M,,*54
06/26/2015	04:01:00.590	$GPGGA,040101,2551.4307,N,07953.8245,W,1,8,1.9,17,M,,M,,*52
06/26/2015	04:01:01.620	$GPGGA,040102,2551.4299,N,07953.8248,W,1,8,1.9,17,M,,M,,*5A
06/26/2015	04:01:02.503	$GPGGA,040103,2551.4292,N,07953.8251,W,1,8,1.9,17,M,,M,,*58
06/26/2015	04:01:03.630	$GPGGA,040104,2551.4284,N,07953.8255,W,1,8,1.9,17,M,,M,,*5C
06/26/2015	04:01:04.503	$GPGGA,040105,2551.4276,N,07953.8259,W,1,8,1.9,17,M,,M,,*5C
06/26/2015	04:01:05.521	$GPGGA,040106,2551.4266,N,07953.8262,W,1,8,1.9,17,M,,M,,*56
06/26/2015	04:01:06.581	$GPGGA,040107,2551.4255,N,07953.8264,W,1,8,2.2,17,M,,M,,*59
06/26/2015	04:01:07.621	$GPGGA,040108,2551.4247,N,07953.8269,W,1,8,1.9,17,M,,M,,*50
06/26/2015	04:01:08.571	$GPGGA,040109,2551.4238,N,07953.8273,W,1,8,1.9,17,M,,M,,*52
06/26/2015	04:01:10.041	$GPGGA,040110,2551.4229,N,07953.8275,W,1,8,1.9,17,M,,M,,*5C
06/26/2015	04:01:10.571	$GPGGA,040111,2551.4221,N,07953.8278,W,1,8,1.9,17,M,,M,,*58
06/26/2015	04:01:11.591	$GPGGA,040112,2551.4213,N,07953.8282,W,1,8,1.9,17,M,,M,,*5F
06/26/2015	04:01:12.571	$GPGGA,040113,2551.4205,N,07953.8287,W,1,8,1.9,17,M,,M,,*5C
06/26/2015	04:01:13.591	$GPGGA,040114,2551.4197,N,07953.8291,W,1,8,1.9,17,M,,M,,*54
06/26/2015	04:01:14.570	$GPGGA,040115,2551.4189,N,07953.8293,W,1,8,1.9,17,M,,M,,*58
06/26/2015	04:01:15.611	$GPGGA,040116,2551.4182,N,07953.8298,W,1,8,1.9,17,M,,M,,*5B
06/26/2015	04:01:16.560	$GPGGA,040117,2551.4173,N,07953.8302,W,1,8,1.9,17,M,,M,,*56
06/26/2015	04:01:17.580	$GPGGA,040118,2551.4165,N,07953.8306,W,1,8,1.9,17,M,,M,,*5A
06/26/2015	04:01:18.550	$GPGGA,040119,2551.4160,N,07953.8309,W,1,8,2.2,17,M,,M,,*59
06/26/2015	04:01:19.580	$GPGGA,040120,2551.4153,N,07953.8313,W,1,8,1.9,17,M,,M,,*50
06/26/2015	04:01:20.550	$GPGGA,040121,2551.4146,N,07953.8316,W,1,8,1.9,17,M,,M,,*50
06/26/2015	04:01:21.570	$GPGGA,040122,2551.4140,N,07953.8320,W,1,8,1.9,17,M,,M,,*50
06/26/2015	04:01:22.560	$GPGGA,040123,2551.4133,N,07953.8324,W,1,8,1.9,17,M,,M,,*51
06/26/2015	04:01:23.582	$GPGGA,040124,2551.4125,N,07953.8327,W,1,8,1.9,17,M,,M,,*52
06/26/2015	04:01:24.561	$GPGGA,040125,2551.4117,N,07953.8331,W,1,8,1.9,17,M,,M,,*55
06/26/2015	04:01:25.561	$GPGGA,040126,2551.4106,N,07953.8335,W,1,7,2.1,17,M,,M,,*56
06/26/2015	04:01:26.541	$GPGGA,040127,2551.4097,N,07953.8336,W,1,7,1.9,17,M,,M,,*56
06/26/2015	04:01:27.581	$GPGGA,040128,2551.4088,N,07953.8340,W,1,8,1.9,17,M,,M,,*59
06/26/2015	04:01:28.531	$GPGGA,040129,2551.4079,N,07953.8343,W,1,8,1.9,17,M,,M,,*55
06/26/2015	04:01:29.551	$GPGGA,040130,2551.4070,N,07953.8346,W,1,8,1.9,17,M,,M,,*51
06/26/2015	04:01:30.541	$GPGGA,040131,2551.4060,N,07953.8349,W,1,8,1.9,17,M,,M,,*5E
06/26/2015	04:01:31.571	$GPGGA,040132,2551.4052,N,07953.8353,W,1,8,1.9,17,M,,M,,*57
06/26/2015	04:01:32.540	$GPGGA,040133,2551.4041,N,07953.8356,W,1,8,1.9,18,M,,M,,*5E
06/26/2015	04:01:33.530	$GPGGA,040134,2551.4032,N,07953.8360,W,1,8,1.9,18,M,,M,,*58
06/26/2015	04:01:34.540	$GPGGA,040135,2551.4024,N,07953.8363,W,1,8,1.9,18,M,,M,,*5D
06/26/2015	04:01:35.540	$GPGGA,040136,2551.4016,N,07953.8367,W,1,8,1.9,18,M,,M,,*5B
06/26/2015	04:01:36.530	$GPGGA,040137,2551.4007,N,07953.8370,W,1,8,1.9,18,M,,M,,*5C
06/26/2015	04:01:37.540	$GPGGA,040138,2551.3998,N,07953.8372,W,1,8,1.9,18,M,,M,,*59
06/26/2015	04:01:38.512	$GPGGA,040139,2551.3990,N,07953.8375,W,1,8,1.9,18,M,,M,,*57
06/26/2015	04:01:39.530	$GPGGA,040140,2551.3981,N,07953.8379,W,1,8,1.9,18,M,,M,,*55
06/26/2015	04:01:40.531	$GPGGA,040141,2551.3973,N,07953.8382,W,1,8,1.9,18,M,,M,,*5D
06/26/2015	04:01:41.521	$GPGGA,040142,2551.3965,N,07953.8385,W,1,8,1.9,18,M,,M,,*5E
06/26/2015	04:01:42.521	$GPGGA,040143,2551.3956,N,07953.8389,W,1,8,1.9,18,M,,M,,*53
06/26/2015	04:01:43.625	$GPGGA,040144,2551.3948,N,07953.8392,W,1,8,1.9,18,M,,M,,*51
06/26/2015	04:01:44.603	$GPGGA,040145,2551.3940,N,07953.8394,W,1,8,1.9,18,M,,M,,*5E
06/26/2015	04:01:45.602	$GPGGA,040146,2551.3932,N,07953.8397,W,1,8,1.9,18,M,,M,,*5B
06/26/2015	04:01:46.505	$GPGGA,040147,2551.3924,N,07953.8400,W,1,8,1.9,18,M,,M,,*54
06/26/2015	04:01:47.641	$GPGGA,040148,2551.3916,N,07953.8403,W,1,8,1.9,18,M,,M,,*59
06/26/2015	04:01:48.510	$GPGGA,040149,2551.3907,N,07953.8407,W,1,8,1.9,18,M,,M,,*5C
06/26/2015	04:01:49.590	$GPGGA,040150,2551.3900,N,07953.8410,W,1,8,1.9,18,M,,M,,*55
06/26/2015	04:01:50.504	$GPGGA,040151,2551.3893,N,07953.8414,W,1,8,1.9,18,M,,M,,*5B
06/26/2015	04:01:51.603	$GPGGA,040152,2551.3884,N,07953.8417,W,1,8,1.9,18,M,,M,,*5D
06/26/2015	04:01:52.501	$GPGGA,040153,2551.3876,N,07953.8419,W,1,8,1.9,18,M,,M,,*5F
06/26/2015	04:01:53.580	$GPGGA,040154,2551.3869,N,07953.8423,W,1,8,1.9,18,M,,M,,*5F
06/26/2015	04:01:54.510	$GPGGA,040155,2551.3861,N,07953.8426,W,1,8,1.9,18,M,,M,,*53
06/26/2015	04:01:55.590	$GPGGA,040156,2551.3853,N,07953.8429,W,1,8,1.9,18,M,,M,,*5E
06/26/2015	04:01:56.580	$GPGGA,040157,2551.3846,N,07953.8432,W,1,8,1.9,18,M,,M,,*51
06/26/2015	04:01:57.580	$GPGGA,040158,2551.3837,N,07953.8436,W,1,8,1.9,18,M,,M,,*5C
06/26/2015	04:01:58.581	$GPGGA,040159,2551.3829,N,07953.8439,W,1,8,1.9,18,M,,M,,*5D
06/26/2015	04:01:59.613	$GPGGA,040200,2551.3821,N,07953.8443,W,1,8,1.9,18,M,,M,,*57
06/26/2015	04:02:00.561	$GPGGA,040201,2551.3813,N,07953.8446,W,1,8,1.9,18,M,,M,,*52
06/26/2015	04:02:01.591	$GPGGA,040202,2551.3806,N,07953.8448,W,1,8,1.9,18,M,,M,,*5B
06/26/2015	04:02:02.571	$GPGGA,040203,2551.3797,N,07953.8451,W,1,8,1.9,18,M,,M,,*55
06/26/2015	04:02:03.604	$GPGGA,040204,2551.3789,N,07953.8455,W,1,8,1.9,18,M,,M,,*59
06/26/2015	04:02:04.561	$GPGGA,040205,2551.3781,N,07953.8457,W,1,8,1.9,18,M,,M,,*52
06/26/2015	04:02:05.581	$GPGGA,040206,2551.3773,N,07953.8461,W,1,8,1.9,18,M,,M,,*59
06/26/2015	04:02:06.561	$GPGGA,040207,2551.3766,N,07953.8465,W,1,8,1.9,18,M,,M,,*58
06/26/2015	04:02:07.590	$GPGGA,040208,2551.3759,N,07953.8468,W,1,8,1.9,18,M,,M,,*56
06/26/2015	04:02:08.560	$GPGGA,040209,2551.3749,N,07953.8472,W,1,8,1.9,18,M,,M,,*5D
06/26/2015	04:02:09.560	$GPGGA,040210,2551.3741,N,07953.8475,W,1,8,1.9,18,M,,M,,*5A
06/26/2015	04:02:10.550	$GPGGA,040211,2551.3734,N,07953.8477,W,1,8,1.9,18,M,,M,,*5B
06/26/2015	04:02:11.580	$GPGGA,040212,2551.3724,N,07953.8482,W,1,8,1.9,18,M,,M,,*53
06/26/2015	04:02:12.550	$GPGGA,040213,2551.3716,N,07953.8484,W,1,8,1.9,18,M,,M,,*55
06/26/2015	04:02:13.570	$GPGGA,040214,2551.3708,N,07953.8487,W,1,8,1.9,18,M,,M,,*5E
06/26/2015	04:02:14.550	$GPGGA,040215,2551.3700,N,07953.8490,W,1,8,1.9,18,M,,M,,*51
06/26/2015	04:02:15.581	$GPGGA,040216,2551.3692,N,07953.8493,W,1,8,1.9,18,M,,M,,*5B
06/26/2015	04:02:16.531	$GPGGA,040217,2551.3683,N,07953.8497,W,1,8,1.9,18,M,,M,,*5E
06/26/2015	04:02:17.531	$GPGGA,040218,2551.3676,N,07953.8501,W,1,8,1.9,18,M,,M,,*55
06/26/2015	04:02:18.541	$GPGGA,040219,2551.3667,N,07953.8504,W,1,8,1.9,18,M,,M,,*51
06/26/2015	04:02:19.561	$GPGGA,040220,2551.3659,N,07953.8508,W,1,8,1.9,18,M,,M,,*5A
06/26/2015	04:02:20.541	$GPGGA,040221,2551.3651,N,07953.8512,W,1,8,1.9,18,M,,M,,*58
06/26/2015	04:02:21.522	$GPGGA,040222,2551.3642,N,07953.8515,W,1,8,1.9,18,M,,M,,*5E
06/26/2015	04:02:22.541	$GPGGA,040223,2551.3634,N,07953.8519,W,1,8,1.9,18,M,,M,,*52
06/26/2015	04:02:23.551	$GPGGA,040224,2551.3626,N,07953.8522,W,1,8,1.9,18,M,,M,,*5E
06/26/2015	04:02:24.513	$GPGGA,040225,2551.3617,N,07953.8526,W,1,8,1.9,18,M,,M,,*59
06/26/2015	04:02:25.530	$GPGGA,040226,2551.3609,N,07953.8530,W,1,8,1.9,18,M,,M,,*52
06/26/2015	04:02:26.513	$GPGGA,040227,2551.3601,N,07953.8533,W,1,8,1.9,18,M,,M,,*58
06/26/2015	04:02:27.540	$GPGGA,040228,2551.3593,N,07953.8537,W,1,8,1.9,18,M,,M,,*5B
06/26/2015	04:02:28.530	$GPGGA,040229,2551.3584,N,07953.8541,W,1,8,1.9,18,M,,M,,*5D
06/26/2015	04:02:29.540	$GPGGA,040230,2551.3576,N,07953.8544,W,1,8,1.9,18,M,,M,,*5D
06/26/2015	04:02:30.515	$GPGGA,040231,2551.3568,N,07953.8548,W,1,8,1.9,18,M,,M,,*5F
06/26/2015	04:02:31.620	$GPGGA,040232,2551.3559,N,07953.8551,W,1,8,1.9,17,M,,M,,*59
06/26/2015	04:02:32.512	$GPGGA,040233,2551.3551,N,07953.8555,W,1,8,1.9,17,M,,M,,*54
06/26/2015	04:02:33.504	$GPGGA,040234,2551.3542,N,07953.8559,W,1,8,1.9,17,M,,M,,*5D
06/26/2015	04:02:34.621	$GPGGA,040235,2551.3535,N,07953.8563,W,1,8,1.9,17,M,,M,,*55
06/26/2015	04:02:35.615	$GPGGA,040236,2551.3528,N,07953.8566,W,1,7,2.1,17,M,,M,,*5B
06/26/2015	04:02:36.503	$GPGGA,040237,2551.3521,N,07953.8570,W,1,7,1.9,17,M,,M,,*5F
06/26/2015	04:02:37.621	$GPGGA,040238,2551.3512,N,07953.8574,W,1,8,1.9,17,M,,M,,*5B
06/26/2015	04:02:38.491	$GPGGA,040239,2551.3504,N,07953.8578,W,1,8,1.9,17,M,,M,,*51
06/26/2015	04:02:39.603	$GPGGA,040240,2551.3496,N,07953.8581,W,1,8,1.9,17,M,,M,,*53
06/26/2015	04:02:40.591	$GPGGA,040241,2551.3488,N,07953.8585,W,1,8,1.8,17,M,,M,,*58
06/26/2015	04:02:41.605	$GPGGA,040242,2551.3478,N,07953.8588,W,1,8,1.8,17,M,,M,,*59
06/26/2015	04:02:42.490	$GPGGA,040243,2551.3470,N,07953.8591,W,1,8,1.8,17,M,,M,,*58
06/26/2015	04:02:43.500	$GPGGA,040244,2551.3463,N,07953.8595,W,1,8,1.8,17,M,,M,,*59
06/26/2015	04:02:44.580	$GPGGA,040245,2551.3453,N,07953.8599,W,1,8,1.8,17,M,,M,,*57
06/26/2015	04:02:45.481	$GPGGA,040246,2551.3446,N,07953.8602,W,1,8,1.8,17,M,,M,,*51
06/26/2015	04:02:46.570	$GPGGA,040247,2551.3438,N,07953.8606,W,1,8,1.8,17,M,,M,,*5D
06/26/2015	04:02:47.590	$GPGGA,040248,2551.3429,N,07953.8609,W,1,8,1.8,17,M,,M,,*5D
06/26/2015	04:02:48.570	$GPGGA,040249,2551.3421,N,07953.8613,W,1,8,1.8,17,M,,M,,*5F
06/26/2015	04:02:49.560	$GPGGA,040250,2551.3413,N,07953.8616,W,1,8,1.8,17,M,,M,,*53
06/26/2015	04:02:50.571	$GPGGA,040251,2551.3405,N,07953.8620,W,1,8,1.8,17,M,,M,,*50
06/26/2015	04:02:51.591	$GPGGA,040252,2551.3396,N,07953.8623,W,1,8,1.8,17,M,,M,,*5D
06/26/2015	04:02:52.571	$GPGGA,040253,2551.3388,N,07953.8625,W,1,8,1.8,17,M,,M,,*55
06/26/2015	04:02:53.571	$GPGGA,040254,2551.3380,N,07953.8628,W,1,8,1.8,17,M,,M,,*57
06/26/2015	04:02:54.561	$GPGGA,040255,2551.3372,N,07953.8632,W,1,8,1.8,17,M,,M,,*50
06/26/2015	04:02:55.571	$GPGGA,040256,2551.3364,N,07953.8635,W,1,8,1.8,17,M,,M,,*53
06/26/2015	04:02:56.561	$GPGGA,040257,2551.3356,N,07953.8639,W,1,8,1.8,17,M,,M,,*5F
06/26/2015	04:02:57.551	$GPGGA,040258,2551.3348,N,07953.8642,W,1,8,1.8,17,M,,M,,*53
06/26/2015	04:02:58.561	$GPGGA,040259,2551.3341,N,07953.8645,W,1,8,1.8,17,M,,M,,*5C
06/26/2015	04:02:59.590	$GPGGA,040300,2551.3333,N,07953.8649,W,1,8,1.8,17,M,,M,,*58
06/26/2015	04:03:00.540	$GPGGA,040301,2551.3326,N,07953.8652,W,1,8,1.8,17,M,,M,,*57
06/26/2015	04:03:01.550	$GPGGA,040302,2551.3317,N,07953.8654,W,1,8,1.8,17,M,,M,,*50
06/26/2015	04:03:02.540	$GPGGA,040303,2551.3311,N,07953.8657,W,1,8,1.8,17,M,,M,,*54
06/26/2015	04:03:03.550	$GPGGA,040304,2551.3302,N,07953.8660,W,1,8,1.8,17,M,,M,,*55
06/26/2015	04:03:04.550	$GPGGA,040305,2551.3294,N,07953.8664,W,1,8,1.8,17,M,,M,,*5E
06/26/2015	04:03:05.550	$GPGGA,040306,2551.3286,N,07953.8667,W,1,8,1.8,17,M,,M,,*5D
06/26/2015	04:03:06.540	$GPGGA,040307,2551.3279,N,07953.8670,W,1,8,1.8,17,M,,M,,*5A
06/26/2015	04:03:07.580	$GPGGA,040308,2551.3270,N,07953.8674,W,1,8,1.8,17,M,,M,,*58
06/26/2015	04:03:08.521	$GPGGA,040309,2551.3262,N,07953.8676,W,1,8,1.8,17,M,,M,,*58
06/26/2015	04:03:09.561	$GPGGA,040310,2551.3254,N,07953.8679,W,1,8,1.8,17,M,,M,,*5A
06/26/2015	04:03:10.521	$GPGGA,040311,2551.3247,N,07953.8682,W,1,8,1.8,17,M,,M,,*5D
06/26/2015	04:03:11.541	$GPGGA,040312,2551.3239,N,07953.8686,W,1,8,1.8,17,M,,M,,*53
06/26/2015	04:03:12.516	$GPGGA,040313,2551.3230,N,07953.8689,W,1,8,1.8,17,M,,M,,*54
06/26/2015	04:03:13.515	$GPGGA,040314,2551.3222,N,07953.8692,W,1,8,1.8,17,M,,M,,*5A
06/26/2015	04:03:14.631	$GPGGA,040315,2551.3214,N,07953.8696,W,1,8,1.8,17,M,,M,,*5A
06/26/2015	04:03:15.521	$GPGGA,040316,2551.3206,N,07953.8699,W,1,8,1.8,17,M,,M,,*55
06/26/2015	04:03:16.631	$GPGGA,040317,2551.3199,N,07953.8703,W,1,8,1.8,17,M,,M,,*53
06/26/2015	04:03:17.530	$GPGGA,040318,2551.3190,N,07953.8707,W,1,8,1.8,17,M,,M,,*51
06/26/2015	04:03:18.530	$GPGGA,040319,2551.3181,N,07953.8710,W,1,8,1.8,17,M,,M,,*56
06/26/2015	04:03:19.640	$GPGGA,040320,2551.3174,N,07953.8714,W,1,8,1.8,17,M,,M,,*52
06/26/2015	04:03:20.515	$GPGGA,040321,2551.3164,N,07953.8717,W,1,8,1.8,17,M,,M,,*51
06/26/2015	04:03:21.602	$GPGGA,040322,2551.3156,N,07953.8721,W,1,8,1.8,17,M,,M,,*56
06/26/2015	04:03:22.514	$GPGGA,040323,2551.3147,N,07953.8723,W,1,8,1.8,17,M,,M,,*55
06/26/2015	04:03:23.503	$GPGGA,040324,2551.3138,N,07953.8728,W,1,8,1.8,17,M,,M,,*51
06/26/2015	04:03:24.490	$GPGGA,040325,2551.3129,N,07953.8732,W,1,8,2.2,17,M,,M,,*52
06/26/2015	04:03:25.631	$GPGGA,040326,2551.3123,N,07953.8735,W,1,7,1.8,17,M,,M,,*5A
06/26/2015	04:03:26.515	$GPGGA,040327,2551.3117,N,07953.8739,W,1,7,1.8,17,M,,M,,*50
06/26/2015	04:03:27.606	$GPGGA,040328,2551.3110,N,07953.8743,W,1,8,1.8,17,M,,M,,*5A
06/26/2015	04:03:28.504	$GPGGA,040329,2551.3100,N,07953.8746,W,1,8,1.8,17,M,,M,,*5F
06/26/2015	04:03:29.615	$GPGGA,040330,2551.3091,N,07953.8750,W,1,7,2.2,17,M,,M,,*5F
06/26/2015	04:03:30.501	$GPGGA,040331,2551.3082,N,07953.8754,W,1,7,2.2,17,M,,M,,*58
06/26/2015	04:03:31.501	$GPGGA,040332,2551.3073,N,07953.8757,W,1,7,2.2,17,M,,M,,*56
06/26/2015	04:03:32.602	$GPGGA,040333,2551.3064,N,07953.8761,W,1,7,2.2,16,M,,M,,*55
06/26/2015	04:03:33.601	$GPGGA,040334,2551.3055,N,07953.8765,W,1,7,2.2,16,M,,M,,*54
06/26/2015	04:03:34.590	$GPGGA,040335,2551.3046,N,07953.8769,W,1,7,2.2,16,M,,M,,*5B
06/26/2015	04:03:35.610	$GPGGA,040336,2551.3037,N,07953.8773,W,1,7,2.2,16,M,,M,,*55
06/26/2015	04:03:36.570	$GPGGA,040337,2551.3029,N,07953.8777,W,1,7,2.2,16,M,,M,,*5F
06/26/2015	04:03:37.590	$GPGGA,040338,2551.3019,N,07953.8782,W,1,7,2.2,16,M,,M,,*59
06/26/2015	04:03:38.570	$GPGGA,040339,2551.3011,N,07953.8786,W,1,7,2.2,16,M,,M,,*54
06/26/2015	04:03:39.601	$GPGGA,040340,2551.3002,N,07953.8788,W,1,7,2.2,16,M,,M,,*56
06/26/2015	04:03:40.570	$GPGGA,040341,2551.2993,N,07953.8793,W,1,7,2.2,16,M,,M,,*5D
06/26/2015	04:03:41.590	$GPGGA,040342,2551.2986,N,07953.8797,W,1,7,1.8,16,M,,M,,*57
06/26/2015	04:03:42.580	$GPGGA,040343,2551.2979,N,07953.8801,W,1,7,1.8,16,M,,M,,*56
06/26/2015	04:03:43.621	$GPGGA,040344,2551.2969,N,07953.8804,W,1,8,1.8,16,M,,M,,*5A
06/26/2015	04:03:44.561	$GPGGA,040345,2551.2961,N,07953.8808,W,1,8,1.8,15,M,,M,,*5C
06/26/2015	04:03:45.571	$GPGGA,040346,2551.2952,N,07953.8811,W,1,8,2.2,15,M,,M,,*5E
06/26/2015	04:03:46.561	$GPGGA,040347,2551.2948,N,07953.8815,W,1,8,1.8,15,M,,M,,*59
06/26/2015	04:03:47.651	$GPGGA,040348,2551.2941,N,07953.8819,W,1,8,1.8,15,M,,M,,*53
06/26/2015	04:03:48.551	$GPGGA,040349,2551.2933,N,07953.8822,W,1,8,1.8,15,M,,M,,*5F
06/26/2015	04:03:49.541	$GPGGA,040350,2551.2924,N,07953.8826,W,1,8,2.2,15,M,,M,,*5C
06/26/2015	04:03:50.541	$GPGGA,040351,2551.2917,N,07953.8829,W,1,8,1.8,15,M,,M,,*5B
06/26/2015	04:03:51.591	$GPGGA,040352,2551.2908,N,07953.8831,W,1,8,1.8,15,M,,M,,*5F
06/26/2015	04:03:52.550	$GPGGA,040353,2551.2900,N,07953.8834,W,1,8,1.8,15,M,,M,,*53
06/26/2015	04:03:53.540	$GPGGA,040354,2551.2890,N,07953.8838,W,1,8,2.2,15,M,,M,,*59
06/26/2015	04:03:55.060	$GPGGA,040355,2551.2882,N,07953.8842,W,1,8,1.8,15,M,,M,,*5F
06/26/2015	04:03:55.570	$GPGGA,040356,2551.2875,N,07953.8845,W,1,8,1.8,15,M,,M,,*53
06/26/2015	04:03:56.560	$GPGGA,040357,2551.2869,N,07953.8848,W,1,8,1.8,16,M,,M,,*51
06/26/2015	04:03:57.550	$GPGGA,040358,2551.2863,N,07953.8851,W,1,8,1.8,16,M,,M,,*5C
06/26/2015	04:03:58.530	$GPGGA,040359,2551.2856,N,07953.8855,W,1,8,1.8,16,M,,M,,*5F
06/26/2015	04:03:59.620	$GPGGA,040400,2551.2850,N,07953.8858,W,1,8,1.8,16,M,,M,,*5F
06/26/2015	04:04:00.521	$GPGGA,040401,2551.2843,N,07953.8862,W,1,8,2.1,16,M,,M,,*5F
06/26/2015	04:04:01.551	$GPGGA,040402,2551.2839,N,07953.8866,W,1,7,1.8,16,M,,M,,*50
06/26/2015	04:04:02.541	$GPGGA,040403,2551.2831,N,07953.8869,W,1,7,1.8,16,M,,M,,*56
06/26/2015	04:04:03.561	$GPGGA,040404,2551.2823,N,07953.8871,W,1,8,1.8,16,M,,M,,*54
06/26/2015	04:04:04.541	$GPGGA,040405,2551.2816,N,07953.8876,W,1,8,2.1,16,M,,M,,*5E
06/26/2015	04:04:05.641	$GPGGA,040406,2551.2807,N,07953.8878,W,1,7,1.8,16,M,,M,,*56
06/26/2015	04:04:06.541	$GPGGA,040407,2551.2799,N,07953.8881,W,1,7,1.8,17,M,,M,,*58
06/26/2015	04:04:07.621	$GPGGA,040408,2551.2792,N,07953.8884,W,1,8,1.8,17,M,,M,,*56
06/26/2015	04:04:08.601	$GPGGA,040409,2551.2784,N,07953.8887,W,1,8,1.8,17,M,,M,,*53
06/26/2015	04:04:09.517	$GPGGA,040410,2551.2775,N,07953.8889,W,1,8,1.8,17,M,,M,,*5B
06/26/2015	04:04:10.530	$GPGGA,040411,2551.2767,N,07953.8892,W,1,8,1.8,17,M,,M,,*53
06/26/2015	04:04:11.610	$GPGGA,040412,2551.2758,N,07953.8895,W,1,8,1.8,17,M,,M,,*5B
06/26/2015	04:04:12.620	$GPGGA,040413,2551.2749,N,07953.8898,W,1,8,1.8,17,M,,M,,*57
06/26/2015	04:04:13.603	$GPGGA,040414,2551.2741,N,07953.8900,W,1,8,1.8,17,M,,M,,*58
06/26/2015	04:04:14.520	$GPGGA,040415,2551.2733,N,07953.8902,W,1,8,1.8,17,M,,M,,*5E
06/26/2015	04:04:15.607	$GPGGA,040416,2551.2722,N,07953.8905,W,1,8,1.8,17,M,,M,,*5A
06/26/2015	04:04:16.516	$GPGGA,040417,2551.2715,N,07953.8907,W,1,8,1.8,18,M,,M,,*52
06/26/2015	04:04:17.630	$GPGGA,040418,2551.2705,N,07953.8912,W,1,8,1.8,18,M,,M,,*58
06/26/2015	04:04:18.581	$GPGGA,040419,2551.2694,N,07953.8913,W,1,8,2.2,18,M,,M,,*58
06/26/2015	04:04:19.621	$GPGGA,040420,2551.2684,N,07953.8916,W,1,7,2.2,18,M,,M,,*59
06/26/2015	04:04:20.604	$GPGGA,040421,2551.2673,N,07953.8920,W,1,7,2.2,18,M,,M,,*55
06/26/2015	04:04:21.581	$GPGGA,040422,2551.2666,N,07953.8923,W,1,7,1.8,18,M,,M,,*58
06/26/2015	04:04:22.581	$GPGGA,040423,2551.2658,N,07953.8925,W,1,7,1.8,18,M,,M,,*52
06/26/2015	04:04:23.591	$GPGGA,040424,2551.2648,N,07953.8930,W,1,8,2.2,18,M,,M,,*56
06/26/2015	04:04:24.581	$GPGGA,040425,2551.2641,N,07953.8931,W,1,8,2.2,18,M,,M,,*5F
06/26/2015	04:04:25.571	$GPGGA,040426,2551.2633,N,07953.8934,W,1,8,1.8,18,M,,M,,*55
06/26/2015	04:04:26.571	$GPGGA,040427,2551.2627,N,07953.8938,W,1,8,1.8,18,M,,M,,*5D
06/26/2015	04:04:27.610	$GPGGA,040428,2551.2618,N,07953.8942,W,1,8,1.8,18,M,,M,,*53
06/26/2015	04:04:28.570	$GPGGA,040429,2551.2610,N,07953.8945,W,1,8,1.8,18,M,,M,,*5D
06/26/2015	04:04:29.580	$GPGGA,040430,2551.2603,N,07953.8949,W,1,8,1.8,18,M,,M,,*5B
06/26/2015	04:04:30.560	$GPGGA,040431,2551.2594,N,07953.8952,W,1,8,1.8,18,M,,M,,*5D
06/26/2015	04:04:31.590	$GPGGA,040432,2551.2585,N,07953.8956,W,1,8,1.8,18,M,,M,,*5A
06/26/2015	04:04:32.560	$GPGGA,040433,2551.2574,N,07953.8960,W,1,8,2.2,18,M,,M,,*59
06/26/2015	04:04:33.550	$GPGGA,040434,2551.2565,N,07953.8964,W,1,7,2.2,18,M,,M,,*55
06/26/2015	04:04:34.560	$GPGGA,040435,2551.2556,N,07953.8968,W,1,7,2.2,18,M,,M,,*58
06/26/2015	04:04:35.581	$GPGGA,040436,2551.2549,N,07953.8972,W,1,7,2.2,17,M,,M,,*51
06/26/2015	04:04:36.561	$GPGGA,040437,2551.2542,N,07953.8977,W,1,7,1.8,17,M,,M,,*57
06/26/2015	04:04:37.541	$GPGGA,040438,2551.2534,N,07953.8981,W,1,8,1.8,17,M,,M,,*5F
06/26/2015	04:04:38.831	$GPGGA,040439,2551.2528,N,07953.8985,W,1,8,1.8,17,M,,M,,*57
06/26/2015	04:04:39.581	$GPGGA,040440,2551.2513,N,07953.8984,W,1,7,2.0,17,M,,M,,*54
06/26/2015	04:04:40.541	$GPGGA,040441,2551.2505,N,07953.8988,W,1,7,1.8,17,M,,M,,*55
06/26/2015	04:04:41.551	$GPGGA,040442,2551.2497,N,07953.8993,W,1,8,1.8,17,M,,M,,*59
06/26/2015	04:04:42.551	$GPGGA,040443,2551.2491,N,07953.8997,W,1,8,1.8,18,M,,M,,*55
06/26/2015	04:04:43.541	$GPGGA,040444,2551.2484,N,07953.9001,W,1,8,1.8,18,M,,M,,*51
06/26/2015	04:04:44.530	$GPGGA,040445,2551.2477,N,07953.9007,W,1,8,1.8,18,M,,M,,*5A
06/26/2015	04:04:45.521	$GPGGA,040446,2551.2470,N,07953.9010,W,1,8,1.8,18,M,,M,,*58
06/26/2015	04:04:46.540	$GPGGA,040447,2551.2464,N,07953.9014,W,1,8,1.8,18,M,,M,,*58
06/26/2015	04:04:47.570	$GPGGA,040448,2551.2456,N,07953.9017,W,1,8,1.8,18,M,,M,,*55
06/26/2015	04:04:48.540	$GPGGA,040449,2551.2448,N,07953.9021,W,1,8,1.8,18,M,,M,,*5E
06/26/2015	04:04:49.630	$GPGGA,040450,2551.2441,N,07953.9025,W,1,8,1.8,18,M,,M,,*5B
06/26/2015	04:04:50.514	$GPGGA,040451,2551.2433,N,07953.9029,W,1,8,1.8,18,M,,M,,*53
06/26/2015	04:04:51.550	$GPGGA,040452,2551.2424,N,07953.9033,W,1,8,1.8,18,M,,M,,*5D
06/26/2015	04:04:52.513	$GPGGA,040453,2551.2417,N,07953.9037,W,1,8,1.8,18,M,,M,,*58
06/26/2015	04:04:53.531	$GPGGA,040454,2551.2408,N,07953.9042,W,1,8,1.8,18,M,,M,,*53
06/26/2015	04:04:54.518	$GPGGA,040455,2551.2401,N,07953.9046,W,1,8,1.8,18,M,,M,,*5F
06/26/2015	04:04:55.621	$GPGGA,040456,2551.2390,N,07953.9048,W,1,8,1.8,18,M,,M,,*5D
06/26/2015	04:04:56.602	$GPGGA,040457,2551.2380,N,07953.9051,W,1,8,2.2,18,M,,M,,*5C
06/26/2015	04:04:57.516	$GPGGA,040458,2551.2374,N,07953.9055,W,1,7,2.2,18,M,,M,,*53
06/26/2015	04:04:58.521	$GPGGA,040459,2551.2368,N,07953.9059,W,1,7,1.8,18,M,,M,,*5A
06/26/2015	04:04:59.661	$GPGGA,040500,2551.2362,N,07953.9062,W,1,8,1.8,18,M,,M,,*5A
06/26/2015	04:05:00.615	$GPGGA,040501,2551.2355,N,07953.9065,W,1,8,1.8,18,M,,M,,*58
06/26/2015	04:05:01.531	$GPGGA,040502,2551.2345,N,07953.9069,W,1,8,1.8,18,M,,M,,*56
06/26/2015	04:05:02.613	$GPGGA,040503,2551.2336,N,07953.9073,W,1,8,2.2,18,M,,M,,*51
06/26/2015	04:05:03.503	$GPGGA,040504,2551.2328,N,07953.9076,W,1,7,2.2,18,M,,M,,*53
06/26/2015	04:05:04.610	$GPGGA,040505,2551.2322,N,07953.9079,W,1,7,1.8,18,M,,M,,*5E
06/26/2015	04:05:05.490	$GPGGA,040506,2551.2315,N,07953.9083,W,1,8,1.8,18,M,,M,,*53
06/26/2015	04:05:06.590	$GPGGA,040507,2551.2308,N,07953.9086,W,1,8,1.8,18,M,,M,,*5B
06/26/2015	04:05:07.513	$GPGGA,040508,2551.2301,N,07953.9090,W,1,8,1.8,18,M,,M,,*5A
06/26/2015	04:05:08.580	$GPGGA,040509,2551.2294,N,07953.9093,W,1,8,1.8,18,M,,M,,*55
06/26/2015	04:05:09.570	$GPGGA,040510,2551.2286,N,07953.9097,W,1,8,1.8,18,M,,M,,*5A
06/26/2015	04:05:10.581	$GPGGA,040511,2551.2279,N,07953.9100,W,1,8,1.8,18,M,,M,,*54
06/26/2015	04:05:11.579	$GPGGA,040512,2551.2271,N,07953.9102,W,1,8,1.8,19,M,,M,,*5C
06/26/2015	04:05:12.579	$GPGGA,040513,2551.2263,N,07953.9105,W,1,8,1.8,19,M,,M,,*59
06/26/2015	04:05:13.579	$GPGGA,040514,2551.2255,N,07953.9108,W,1,8,1.8,19,M,,M,,*56
06/26/2015	04:05:14.549	$GPGGA,040515,2551.2249,N,07953.9111,W,1,8,1.8,19,M,,M,,*52
06/26/2015	04:05:15.590	$GPGGA,040516,2551.2242,N,07953.9115,W,1,8,1.8,19,M,,M,,*5E
06/26/2015	04:05:16.549	$GPGGA,040517,2551.2232,N,07953.9116,W,1,8,1.8,19,M,,M,,*5B
06/26/2015	04:05:17.569	$GPGGA,040518,2551.2225,N,07953.9119,W,1,8,1.8,19,M,,M,,*5D
06/26/2015	04:05:18.549	$GPGGA,040519,2551.2217,N,07953.9122,W,1,8,1.8,19,M,,M,,*55
06/26/2015	04:05:19.568	$GPGGA,040520,2551.2208,N,07953.9126,W,1,8,1.8,19,M,,M,,*55
06/26/2015	04:05:20.548	$GPGGA,040521,2551.2200,N,07953.9127,W,1,8,1.8,19,M,,M,,*5D
06/26/2015	04:05:21.558	$GPGGA,040522,2551.2192,N,07953.9131,W,1,8,1.8,19,M,,M,,*51
06/26/2015	04:05:22.548	$GPGGA,040523,2551.2184,N,07953.9134,W,1,8,1.8,19,M,,M,,*52
06/26/2015	04:05:23.568	$GPGGA,040524,2551.2177,N,07953.9137,W,1,8,1.8,19,M,,M,,*5A
06/26/2015	04:05:24.538	$GPGGA,040525,2551.2168,N,07953.9140,W,1,8,1.8,19,M,,M,,*55
06/26/2015	04:05:25.558	$GPGGA,040526,2551.2159,N,07953.9142,W,1,8,1.8,19,M,,M,,*56
06/26/2015	04:05:26.538	$GPGGA,040527,2551.2151,N,07953.9145,W,1,8,1.8,19,M,,M,,*58
06/26/2015	04:05:27.568	$GPGGA,040528,2551.2143,N,07953.9149,W,1,8,1.8,19,M,,M,,*58
06/26/2015	04:05:28.529	$GPGGA,040529,2551.2133,N,07953.9152,W,1,8,1.8,19,M,,M,,*54
06/26/2015	04:05:29.519	$GPGGA,040530,2551.2126,N,07953.9155,W,1,8,1.8,19,M,,M,,*5F
06/26/2015	04:05:30.539	$GPGGA,040531,2551.2117,N,07953.9158,W,1,8,1.8,19,M,,M,,*51
06/26/2015	04:05:31.569	$GPGGA,040532,2551.2108,N,07953.9162,W,1,8,1.8,19,M,,M,,*55
06/26/2015	04:05:32.519	$GPGGA,040533,2551.2101,N,07953.9165,W,1,8,1.8,19,M,,M,,*5A
06/26/2015	04:05:33.529	$GPGGA,040534,2551.2092,N,07953.9167,W,1,8,1.8,19,M,,M,,*54
06/26/2015	04:05:34.512	$GPGGA,040535,2551.2084,N,07953.9170,W,1,8,1.8,19,M,,M,,*54
06/26/2015	04:05:35.529	$GPGGA,040536,2551.2076,N,07953.9173,W,1,8,1.8,19,M,,M,,*59
06/26/2015	04:05:36.519	$GPGGA,040537,2551.2068,N,07953.9176,W,1,8,1.8,19,M,,M,,*52
06/26/2015	04:05:37.518	$GPGGA,040538,2551.2059,N,07953.9180,W,1,8,1.8,19,M,,M,,*56
06/26/2015	04:05:38.518	$GPGGA,040539,2551.2052,N,07953.9184,W,1,8,1.8,19,M,,M,,*58
06/26/2015	04:05:39.558	$GPGGA,040540,2551.2044,N,07953.9187,W,1,8,1.8,19,M,,M,,*52
06/26/2015	04:05:40.508	$GPGGA,040541,2551.2036,N,07953.9191,W,1,8,1.8,19,M,,M,,*51
06/26/2015	04:05:41.508	$GPGGA,040542,2551.2029,N,07953.9194,W,1,8,1.8,19,M,,M,,*59
06/26/2015	04:05:42.501	$GPGGA,040543,2551.2019,N,07953.9196,W,1,8,1.8,19,M,,M,,*59
06/26/2015	04:05:43.638	$GPGGA,040544,2551.2012,N,07953.9201,W,1,8,1.8,19,M,,M,,*58
06/26/2015	04:05:44.518	$GPGGA,040545,2551.2004,N,07953.9205,W,1,8,1.8,19,M,,M,,*5A
06/26/2015	04:05:45.491	$GPGGA,040546,2551.1996,N,07953.9209,W,1,8,1.8,19,M,,M,,*54
06/26/2015	04:05:46.509	$GPGGA,040547,2551.1987,N,07953.9212,W,1,8,1.8,19,M,,M,,*5F
06/26/2015	04:05:47.600	$GPGGA,040548,2551.1979,N,07953.9216,W,1,8,1.8,19,M,,M,,*55
06/26/2015	04:05:48.489	$GPGGA,040549,2551.1971,N,07953.9220,W,1,8,1.8,19,M,,M,,*59
06/26/2015	04:05:49.579	$GPGGA,040550,2551.1964,N,07953.9223,W,1,8,1.8,19,M,,M,,*56
06/26/2015	04:05:50.504	$GPGGA,040551,2551.1954,N,07953.9227,W,1,8,1.8,19,M,,M,,*50
06/26/2015	04:05:51.499	$GPGGA,040552,2551.1946,N,07953.9231,W,1,8,1.8,19,M,,M,,*57
06/26/2015	04:05:52.579	$GPGGA,040553,2551.1937,N,07953.9236,W,1,8,1.8,19,M,,M,,*57
06/26/2015	04:05:53.579	$GPGGA,040554,2551.1929,N,07953.9239,W,1,8,1.8,19,M,,M,,*50
06/26/2015	04:05:54.588	$GPGGA,040555,2551.1921,N,07953.9245,W,1,8,1.8,19,M,,M,,*52
06/26/2015	04:05:55.505	$GPGGA,040556,2551.1913,N,07953.9248,W,1,8,1.8,19,M,,M,,*5D
06/26/2015	04:05:56.568	$GPGGA,040557,2551.1904,N,07953.9252,W,1,8,1.8,19,M,,M,,*51
06/26/2015	04:05:57.568	$GPGGA,040558,2551.1896,N,07953.9256,W,1,8,1.8,19,M,,M,,*50
06/26/2015	04:05:58.568	$GPGGA,040559,2551.1888,N,07953.9259,W,1,8,1.8,18,M,,M,,*50
06/26/2015	04:05:59.618	$GPGGA,040600,2551.1879,N,07953.9263,W,1,8,1.8,18,M,,M,,*58
06/26/2015	04:06:00.558	$GPGGA,040601,2551.1871,N,07953.9267,W,1,8,1.8,18,M,,M,,*55
06/26/2015	04:06:01.594	$GPGGA,040602,2551.1861,N,07953.9270,W,1,8,1.8,18,M,,M,,*51
06/26/2015	04:06:02.548	$GPGGA,040603,2551.1852,N,07953.9274,W,1,8,2.2,18,M,,M,,*5D
06/26/2015	04:06:03.592	$GPGGA,040604,2551.1843,N,07953.9278,W,1,7,2.2,18,M,,M,,*59
06/26/2015	04:06:04.559	$GPGGA,040605,2551.1834,N,07953.9281,W,1,7,2.2,18,M,,M,,*5E
06/26/2015	04:06:05.549	$GPGGA,040606,2551.1825,N,07953.9285,W,1,7,2.2,18,M,,M,,*59
06/26/2015	04:06:06.559	$GPGGA,040607,2551.1816,N,07953.9288,W,1,7,2.2,18,M,,M,,*55
06/26/2015	04:06:08.069	$GPGGA,040608,2551.1807,N,07953.9292,W,1,7,2.2,18,M,,M,,*51
06/26/2015	04:06:08.549	$GPGGA,040609,2551.1802,N,07953.9296,W,1,7,2.2,17,M,,M,,*5E
06/26/2015	04:06:09.559	$GPGGA,040610,2551.1798,N,07953.9299,W,1,8,1.8,17,M,,M,,*53
06/26/2015	04:06:10.539	$GPGGA,040611,2551.1790,N,07953.9303,W,1,8,1.8,17,M,,M,,*58
06/26/2015	04:06:11.578	$GPGGA,040612,2551.1783,N,07953.9306,W,1,8,1.8,17,M,,M,,*5C
06/26/2015	04:06:12.548	$GPGGA,040613,2551.1776,N,07953.9310,W,1,8,1.8,17,M,,M,,*50
06/26/2015	04:06:13.528	$GPGGA,040614,2551.1768,N,07953.9313,W,1,8,1.8,17,M,,M,,*5B
06/26/2015	04:06:14.538	$GPGGA,040615,2551.1760,N,07953.9317,W,1,8,1.8,17,M,,M,,*56
06/26/2015	04:06:15.569	$GPGGA,040616,2551.1754,N,07953.9319,W,1,8,1.8,17,M,,M,,*5C
06/26/2015	04:06:16.528	$GPGGA,040617,2551.1744,N,07953.9322,W,1,8,1.8,17,M,,M,,*54
06/26/2015	04:06:17.528	$GPGGA,040618,2551.1737,N,07953.9325,W,1,8,1.8,17,M,,M,,*58
06/26/2015	04:06:18.538	$GPGGA,040619,2551.1729,N,07953.9328,W,1,8,1.8,17,M,,M,,*5B
06/26/2015	04:06:19.528	$GPGGA,040620,2551.1720,N,07953.9332,W,1,8,1.8,17,M,,M,,*53
06/26/2015	04:06:20.518	$GPGGA,040621,2551.1711,N,07953.9335,W,1,8,1.8,17,M,,M,,*57
06/26/2015	04:06:21.529	$GPGGA,040622,2551.1703,N,07953.9336,W,1,8,1.8,17,M,,M,,*54
06/26/2015	04:06:22.529	$GPGGA,040623,2551.1694,N,07953.9339,W,1,8,1.8,17,M,,M,,*55
06/26/2015	04:06:23.529	$GPGGA,040624,2551.1686,N,07953.9342,W,1,8,1.8,18,M,,M,,*52
06/26/2015	04:06:24.509	$GPGGA,040625,2551.1678,N,07953.9346,W,1,8,1.8,18,M,,M,,*56
06/26/2015	04:06:25.519	$GPGGA,040626,2551.1669,N,07953.9347,W,1,8,1.8,18,M,,M,,*54
06/26/2015	04:06:26.519	$GPGGA,040627,2551.1660,N,07953.9350,W,1,8,1.8,18,M,,M,,*5A
06/26/2015	04:06:27.529	$GPGGA,040628,2551.1653,N,07953.9353,W,1,8,1.8,18,M,,M,,*56
06/26/2015	04:06:28.669	$GPGGA,040629,2551.1642,N,07953.9355,W,1,8,1.8,18,M,,M,,*51
06/26/2015	04:06:29.528	$GPGGA,040630,2551.1633,N,07953.9358,W,1,7,2.2,18,M,,M,,*54
06/26/2015	04:06:30.502	$GPGGA,040631,2551.1624,N,07953.9361,W,1,7,2.2,18,M,,M,,*59
06/26/2015	04:06:31.528	$GPGGA,040632,2551.1615,N,07953.9364,W,1,8,1.8,17,M,,M,,*54
06/26/2015	04:06:32.500	$GPGGA,040633,2551.1607,N,07953.9366,W,1,8,1.8,17,M,,M,,*54
06/26/2015	04:06:33.488	$GPGGA,040634,2551.1599,N,07953.9369,W,1,8,1.8,17,M,,M,,*58
06/26/2015	04:06:34.504	$GPGGA,040635,2551.1592,N,07953.9371,W,1,8,1.8,17,M,,M,,*5B
06/26/2015	04:06:35.688	$GPGGA,040636,2551.1585,N,07953.9375,W,1,8,1.8,17,M,,M,,*5A
06/26/2015	04:06:36.668	$GPGGA,040637,2551.1575,N,07953.9379,W,1,8,1.8,17,M,,M,,*58
06/26/2015	04:06:37.648	$GPGGA,040638,2551.1566,N,07953.9382,W,1,7,2.2,17,M,,M,,*57
06/26/2015	04:06:38.496	$GPGGA,040639,2551.1556,N,07953.9384,W,1,7,2.2,17,M,,M,,*53
06/26/2015	04:06:39.669	$GPGGA,040640,2551.1548,N,07953.9387,W,1,7,2.2,17,M,,M,,*51
06/26/2015	04:06:40.649	$GPGGA,040641,2551.1537,N,07953.9390,W,1,7,2.2,17,M,,M,,*5E
06/26/2015	04:06:41.659	$GPGGA,040642,2551.1528,N,07953.9394,W,1,7,2.2,17,M,,M,,*57
06/26/2015	04:06:42.669	$GPGGA,040643,2551.1520,N,07953.9397,W,1,7,1.8,17,M,,M,,*54
06/26/2015	04:06:43.649	$GPGGA,040644,2551.1513,N,07953.9400,W,1,8,1.8,17,M,,M,,*55
06/26/2015	04:06:44.649	$GPGGA,040645,2551.1506,N,07953.9404,W,1,8,1.8,17,M,,M,,*54
06/26/2015	04:06:45.629	$GPGGA,040646,2551.1499,N,07953.9408,W,1,8,1.8,17,M,,M,,*5C
06/26/2015	04:06:46.658	$GPGGA,040647,2551.1491,N,07953.9411,W,1,8,1.8,17,M,,M,,*5D
06/26/2015	04:06:47.578	$GPGGA,040648,2551.1483,N,07953.9415,W,1,8,1.8,17,M,,M,,*55
06/26/2015	04:06:48.638	$GPGGA,040649,2551.1474,N,07953.9418,W,1,8,1.8,17,M,,M,,*51
06/26/2015	04:06:49.590	$GPGGA,040650,2551.1466,N,07953.9422,W,1,8,1.8,17,M,,M,,*53
06/26/2015	04:06:50.629	$GPGGA,040651,2551.1459,N,07953.9425,W,1,8,1.8,17,M,,M,,*59
06/26/2015	04:06:51.638	$GPGGA,040652,2551.1451,N,07953.9429,W,1,8,1.8,17,M,,M,,*5E
06/26/2015	04:06:52.628	$GPGGA,040653,2551.1444,N,07953.9433,W,1,8,1.8,17,M,,M,,*50
06/26/2015	04:06:53.558	$GPGGA,040654,2551.1436,N,07953.9437,W,1,8,1.8,17,M,,M,,*56
06/26/2015	04:06:54.618	$GPGGA,040655,2551.1429,N,07953.9441,W,1,8,1.8,17,M,,M,,*58
06/26/2015	04:06:55.619	$GPGGA,040656,2551.1420,N,07953.9445,W,1,8,1.8,17,M,,M,,*56
06/26/2015	04:06:56.639	$GPGGA,040657,2551.1412,N,07953.9449,W,1,8,1.8,17,M,,M,,*5A
06/26/2015	04:06:57.580	$GPGGA,040658,2551.1404,N,07953.9454,W,1,8,1.8,17,M,,M,,*5E
06/26/2015	04:06:58.539	$GPGGA,040659,2551.1396,N,07953.9458,W,1,8,1.8,17,M,,M,,*5F
06/26/2015	04:06:59.649	$GPGGA,040700,2551.1389,N,07953.9462,W,1,8,1.8,16,M,,M,,*54
06/26/2015	04:07:00.529	$GPGGA,040701,2551.1379,N,07953.9465,W,1,8,1.8,16,M,,M,,*5D
06/26/2015	04:07:01.569	$GPGGA,040702,2551.1371,N,07953.9469,W,1,8,1.8,16,M,,M,,*5A
06/26/2015	04:07:02.529	$GPGGA,040703,2551.1364,N,07953.9473,W,1,8,1.8,16,M,,M,,*54
06/26/2015	04:07:03.610	$GPGGA,040704,2551.1354,N,07953.9477,W,1,8,1.8,16,M,,M,,*54
06/26/2015	04:07:04.604	$GPGGA,040705,2551.1346,N,07953.9481,W,1,8,1.8,16,M,,M,,*5F
06/26/2015	04:07:05.578	$GPGGA,040706,2551.1339,N,07953.9484,W,1,8,1.8,16,M,,M,,*51
06/26/2015	04:07:06.590	$GPGGA,040707,2551.1330,N,07953.9488,W,1,8,1.8,16,M,,M,,*55
06/26/2015	04:07:07.608	$GPGGA,040708,2551.1322,N,07953.9492,W,1,8,1.8,16,M,,M,,*52
06/26/2015	04:07:08.578	$GPGGA,040709,2551.1314,N,07953.9495,W,1,8,1.8,16,M,,M,,*51
06/26/2015	04:07:09.538	$GPGGA,040710,2551.1304,N,07953.9499,W,1,8,2.2,16,M,,M,,*5D
06/26/2015	04:07:10.518	$GPGGA,040711,2551.1297,N,07953.9503,W,1,8,2.2,16,M,,M,,*55
06/26/2015	04:07:11.578	$GPGGA,040712,2551.1289,N,07953.9506,W,1,8,1.8,16,M,,M,,*55
06/26/2015	04:07:12.578	$GPGGA,040713,2551.1281,N,07953.9509,W,1,8,2.2,16,M,,M,,*5A
06/26/2015	04:07:13.619	$GPGGA,040714,2551.1272,N,07953.9513,W,1,7,1.8,16,M,,M,,*5C
06/26/2015	04:07:14.579	$GPGGA,040715,2551.1265,N,07953.9516,W,1,7,1.8,16,M,,M,,*5E
06/26/2015	04:07:15.569	$GPGGA,040716,2551.1256,N,07953.9520,W,1,8,2.2,16,M,,M,,*5E
06/26/2015	04:07:16.505	$GPGGA,040717,2551.1247,N,07953.9523,W,1,8,2.2,16,M,,M,,*5C
06/26/2015	04:07:17.529	$GPGGA,040718,2551.1238,N,07953.9527,W,1,7,2.2,16,M,,M,,*50
06/26/2015	04:07:18.559	$GPGGA,040719,2551.1228,N,07953.9530,W,1,7,2.2,16,M,,M,,*56
06/26/2015	04:07:19.509	$GPGGA,040720,2551.1219,N,07953.9534,W,1,7,2.2,16,M,,M,,*5A
06/26/2015	04:07:20.569	$GPGGA,040721,2551.1212,N,07953.9538,W,1,7,2.2,16,M,,M,,*5C
06/26/2015	04:07:21.618	$GPGGA,040722,2551.1202,N,07953.9541,W,1,7,2.2,16,M,,M,,*50
06/26/2015	04:07:22.548	$GPGGA,040723,2551.1194,N,07953.9543,W,1,7,2.2,16,M,,M,,*5F
06/26/2015	04:07:23.568	$GPGGA,040724,2551.1184,N,07953.9548,W,1,7,2.2,16,M,,M,,*52
06/26/2015	04:07:24.558	$GPGGA,040725,2551.1176,N,07953.9550,W,1,7,2.2,16,M,,M,,*57
06/26/2015	04:07:25.592	$GPGGA,040726,2551.1172,N,07953.9553,W,1,7,1.8,16,M,,M,,*5A
06/26/2015	04:07:26.618	$GPGGA,040727,2551.1166,N,07953.9557,W,1,7,1.8,16,M,,M,,*5A
06/26/2015	04:07:27.608	$GPGGA,040728,2551.1160,N,07953.9560,W,1,8,1.8,16,M,,M,,*58
06/26/2015	04:07:28.602	$GPGGA,040729,2551.1154,N,07953.9563,W,1,8,1.8,16,M,,M,,*5D
06/26/2015	04:07:29.508	$GPGGA,040730,2551.1144,N,07953.9566,W,1,8,2.2,16,M,,M,,*58
06/26/2015	04:07:30.548	$GPGGA,040731,2551.1136,N,07953.9571,W,1,8,1.8,16,M,,M,,*53
06/26/2015	04:07:31.589	$GPGGA,040732,2551.1127,N,07953.9574,W,1,8,1.8,16,M,,M,,*55
06/26/2015	04:07:32.569	$GPGGA,040733,2551.1117,N,07953.9577,W,1,8,2.2,16,M,,M,,*5D
06/26/2015	04:07:33.600	$GPGGA,040734,2551.1108,N,07953.9581,W,1,7,2.2,16,M,,M,,*52
06/26/2015	04:07:34.569	$GPGGA,040735,2551.1100,N,07953.9584,W,1,7,1.8,16,M,,M,,*57
06/26/2015	04:07:35.600	$GPGGA,040736,2551.1093,N,07953.9586,W,1,8,1.8,16,M,,M,,*52
06/26/2015	04:07:36.559	$GPGGA,040737,2551.1083,N,07953.9589,W,1,8,2.2,16,M,,M,,*54
06/26/2015	04:07:37.589	$GPGGA,040738,2551.1077,N,07953.9593,W,1,7,1.8,16,M,,M,,*5D
06/26/2015	04:07:38.559	$GPGGA,040739,2551.1068,N,07953.9596,W,1,7,2.2,16,M,,M,,*5E
06/26/2015	04:07:39.588	$GPGGA,040740,2551.1058,N,07953.9599,W,1,7,2.2,16,M,,M,,*5C
06/26/2015	04:07:40.578	$GPGGA,040741,2551.1049,N,07953.9603,W,1,7,2.2,16,M,,M,,*5D
06/26/2015	04:07:41.558	$GPGGA,040742,2551.1040,N,07953.9606,W,1,7,2.2,16,M,,M,,*52
06/26/2015	04:07:42.558	$GPGGA,040743,2551.1033,N,07953.9608,W,1,7,1.8,16,M,,M,,*50
06/26/2015	04:07:43.578	$GPGGA,040744,2551.1024,N,07953.9611,W,1,8,2.2,16,M,,M,,*5F
06/26/2015	04:07:44.548	$GPGGA,040745,2551.1018,N,07953.9614,W,1,8,1.8,16,M,,M,,*5D
06/26/2015	04:07:45.578	$GPGGA,040746,2551.1010,N,07953.9617,W,1,8,2.2,16,M,,M,,*5C
06/26/2015	04:07:46.538	$GPGGA,040747,2551.0999,N,07953.9621,W,1,8,2.2,16,M,,M,,*51
06/26/2015	04:07:47.578	$GPGGA,040748,2551.0993,N,07953.9624,W,1,7,1.8,16,M,,M,,*57
06/26/2015	04:07:48.559	$GPGGA,040749,2551.0988,N,07953.9626,W,1,7,1.8,16,M,,M,,*5E
06/26/2015	04:07:49.599	$GPGGA,040750,2551.0978,N,07953.9629,W,1,8,2.2,16,M,,M,,*50
06/26/2015	04:07:50.549	$GPGGA,040751,2551.0970,N,07953.9632,W,1,8,2.2,16,M,,M,,*53
06/26/2015	04:07:51.579	$GPGGA,040752,2551.0964,N,07953.9635,W,1,7,1.8,16,M,,M,,*54
06/26/2015	04:07:52.549	$GPGGA,040753,2551.0957,N,07953.9639,W,1,7,1.8,16,M,,M,,*59
06/26/2015	04:07:53.559	$GPGGA,040754,2551.0948,N,07953.9640,W,1,8,1.8,16,M,,M,,*51
06/26/2015	04:07:54.549	$GPGGA,040755,2551.0941,N,07953.9644,W,1,8,1.8,16,M,,M,,*5D
06/26/2015	04:07:55.569	$GPGGA,040756,2551.0932,N,07953.9647,W,1,8,1.8,16,M,,M,,*59
06/26/2015	04:07:56.568	$GPGGA,040757,2551.0923,N,07953.9650,W,1,8,1.8,16,M,,M,,*5E
06/26/2015	04:07:57.558	$GPGGA,040758,2551.0914,N,07953.9653,W,1,8,1.8,16,M,,M,,*56
06/26/2015	04:07:58.518	$GPGGA,040759,2551.0914,N,07953.9653,W,1,8,1.8,16,M,,M,,*57
06/26/2015	04:07:59.569	$GPGGA,040800,2551.0898,N,07953.9660,W,1,8,1.8,16,M,,M,,*51
06/26/2015	04:08:00.528	$GPGGA,040801,2551.0898,N,07953.9660,W,1,8,1.8,16,M,,M,,*50
06/26/2015	04:08:01.548	$GPGGA,040802,2551.0880,N,07953.9667,W,1,8,1.8,16,M,,M,,*5D
06/26/2015	04:08:02.538	$GPGGA,040803,2551.0880,N,07953.9667,W,1,8,1.8,16,M,,M,,*5C
06/26/2015	04:08:03.638	$GPGGA,040804,2551.0864,N,07953.9673,W,1,8,1.8,16,M,,M,,*54
06/26/2015	04:08:04.518	$GPGGA,040805,2551.0864,N,07953.9673,W,1,8,1.8,16,M,,M,,*55
06/26/2015	04:08:05.529	$GPGGA,040806,2551.0846,N,07953.9682,W,1,8,1.8,16,M,,M,,*58
06/26/2015	04:08:06.529	$GPGGA,040807,2551.0838,N,07953.9684,W,1,8,1.8,16,M,,M,,*56
06/26/2015	04:08:07.559	$GPGGA,040808,2551.0830,N,07953.9689,W,1,8,1.8,16,M,,M,,*5C
06/26/2015	04:08:08.519	$GPGGA,040809,2551.0830,N,07953.9689,W,1,8,1.8,16,M,,M,,*5D
06/26/2015	04:08:09.619	$GPGGA,040810,2551.0815,N,07953.9696,W,1,8,1.8,16,M,,M,,*5C
06/26/2015	04:08:10.609	$GPGGA,040811,2551.0806,N,07953.9700,W,1,8,1.8,16,M,,M,,*51
06/26/2015	04:08:11.609	$GPGGA,040812,2551.0798,N,07953.9702,W,1,8,1.8,16,M,,M,,*58
06/26/2015	04:08:12.559	$GPGGA,040813,2551.0798,N,07953.9702,W,1,8,1.8,16,M,,M,,*59
06/26/2015	04:08:13.589	$GPGGA,040814,2551.0782,N,07953.9711,W,1,8,1.8,16,M,,M,,*57
06/26/2015	04:08:14.588	$GPGGA,040815,2551.0775,N,07953.9714,W,1,8,1.8,16,M,,M,,*5B
06/26/2015	04:08:15.501	$GPGGA,040816,2551.0768,N,07953.9718,W,1,8,1.8,16,M,,M,,*58
06/26/2015	04:08:16.578	$GPGGA,040817,2551.0759,N,07953.9722,W,1,8,1.8,16,M,,M,,*52
06/26/2015	04:08:17.588	$GPGGA,040818,2551.0751,N,07953.9725,W,1,8,1.8,16,M,,M,,*52
06/26/2015	04:08:18.578	$GPGGA,040819,2551.0743,N,07953.9729,W,1,8,1.8,16,M,,M,,*5C
06/26/2015	04:08:19.588	$GPGGA,040820,2551.0735,N,07953.9733,W,1,8,1.8,16,M,,M,,*5C
06/26/2015	04:08:20.578	$GPGGA,040821,2551.0728,N,07953.9736,W,1,8,1.8,16,M,,M,,*54
06/26/2015	04:08:21.608	$GPGGA,040822,2551.0719,N,07953.9740,W,1,8,1.8,16,M,,M,,*54
06/26/2015	04:08:22.568	$GPGGA,040823,2551.0710,N,07953.9743,W,1,8,1.8,16,M,,M,,*5F
06/26/2015	04:08:23.609	$GPGGA,040824,2551.0703,N,07953.9747,W,1,8,1.8,16,M,,M,,*5E
06/26/2015	04:08:24.569	$GPGGA,040825,2551.0694,N,07953.9751,W,1,8,1.8,16,M,,M,,*57
06/26/2015	04:08:25.589	$GPGGA,040826,2551.0687,N,07953.9754,W,1,8,1.8,16,M,,M,,*53
06/26/2015	04:08:26.559	$GPGGA,040827,2551.0678,N,07953.9758,W,1,8,1.8,16,M,,M,,*5E
06/26/2015	04:08:27.590	$GPGGA,040828,2551.0670,N,07953.9762,W,1,8,1.8,16,M,,M,,*50
06/26/2015	04:08:28.579	$GPGGA,040829,2551.0663,N,07953.9765,W,1,8,1.8,16,M,,M,,*54
06/26/2015	04:08:29.549	$GPGGA,040830,2551.0653,N,07953.9769,W,1,8,1.8,16,M,,M,,*53
06/26/2015	04:08:30.559	$GPGGA,040831,2551.0645,N,07953.9772,W,1,8,1.8,16,M,,M,,*5F
06/26/2015	04:08:31.618	$GPGGA,040832,2551.0638,N,07953.9774,W,1,8,1.8,16,M,,M,,*50
06/26/2015	04:08:32.558	$GPGGA,040833,2551.0629,N,07953.9777,W,1,8,1.8,16,M,,M,,*52
06/26/2015	04:08:33.598	$GPGGA,040834,2551.0620,N,07953.9780,W,1,8,1.8,16,M,,M,,*54
06/26/2015	04:08:34.558	$GPGGA,040835,2551.0611,N,07953.9784,W,1,8,1.8,16,M,,M,,*53
06/26/2015	04:08:35.548	$GPGGA,040836,2551.0602,N,07953.9787,W,1,7,2.2,16,M,,M,,*57
06/26/2015	04:08:36.548	$GPGGA,040837,2551.0594,N,07953.9790,W,1,7,1.8,16,M,,M,,*55
06/26/2015	04:08:37.538	$GPGGA,040838,2551.0584,N,07953.9794,W,1,8,1.8,16,M,,M,,*50
06/26/2015	04:08:38.538	$GPGGA,040839,2551.0575,N,07953.9796,W,1,8,2.2,16,M,,M,,*54
06/26/2015	04:08:39.578	$GPGGA,040840,2551.0566,N,07953.9801,W,1,7,2.2,16,M,,M,,*56
06/26/2015	04:08:40.530	$GPGGA,040841,2551.0557,N,07953.9803,W,1,7,2.2,16,M,,M,,*57
06/26/2015	04:08:41.529	$GPGGA,040842,2551.0548,N,07953.9806,W,1,7,2.2,15,M,,M,,*5C
06/26/2015	04:08:42.539	$GPGGA,040843,2551.0544,N,07953.9809,W,1,7,2.2,15,M,,M,,*5E
06/26/2015	04:08:43.539	$GPGGA,040844,2551.0535,N,07953.9812,W,1,8,1.8,15,M,,M,,*53
06/26/2015	04:08:44.519	$GPGGA,040845,2551.0526,N,07953.9816,W,1,8,2.2,15,M,,M,,*5D
06/26/2015	04:08:45.519	$GPGGA,040846,2551.0522,N,07953.9819,W,1,7,2.2,15,M,,M,,*5A
06/26/2015	04:08:46.529	$GPGGA,040847,2551.0512,N,07953.9821,W,1,7,1.8,15,M,,M,,*5A
06/26/2015	04:08:47.539	$GPGGA,040848,2551.0502,N,07953.9824,W,1,7,2.2,16,M,,M,,*5B
06/26/2015	04:08:48.519	$GPGGA,040849,2551.0499,N,07953.9827,W,1,7,2.2,16,M,,M,,*5A
06/26/2015	04:08:49.528	$GPGGA,040850,2551.0490,N,07953.9830,W,1,8,1.8,16,M,,M,,*5B
06/26/2015	04:08:50.528	$GPGGA,040851,2551.0483,N,07953.9832,W,1,8,2.2,16,M,,M,,*53
06/26/2015	04:08:51.558	$GPGGA,040852,2551.0473,N,07953.9835,W,1,8,1.8,16,M,,M,,*51
06/26/2015	04:08:52.504	$GPGGA,040853,2551.0464,N,07953.9838,W,1,8,2.2,16,M,,M,,*52
06/26/2015	04:08:53.528	$GPGGA,040854,2551.0454,N,07953.9841,W,1,7,2.2,16,M,,M,,*57
06/26/2015	04:08:54.503	$GPGGA,040855,2551.0444,N,07953.9845,W,1,7,2.2,16,M,,M,,*53
06/26/2015	04:08:55.528	$GPGGA,040856,2551.0435,N,07953.9848,W,1,7,2.2,16,M,,M,,*5B
06/26/2015	04:08:56.503	$GPGGA,040857,2551.0426,N,07953.9850,W,1,7,2.2,16,M,,M,,*51
06/26/2015	04:08:57.608	$GPGGA,040858,2551.0419,N,07953.9853,W,1,8,1.8,16,M,,M,,*57
06/26/2015	04:08:58.510	$GPGGA,040859,2551.0412,N,07953.9857,W,1,8,1.8,16,M,,M,,*59
06/26/2015	04:08:59.549	$GPGGA,040900,2551.0404,N,07953.9860,W,1,8,1.8,16,M,,M,,*57
06/26/2015	04:09:00.509	$GPGGA,040901,2551.0396,N,07953.9863,W,1,8,1.8,16,M,,M,,*59
06/26/2015	04:09:01.609	$GPGGA,040902,2551.0387,N,07953.9866,W,1,8,1.8,16,M,,M,,*5F
06/26/2015	04:09:02.609	$GPGGA,040903,2551.0379,N,07953.9870,W,1,8,1.8,16,M,,M,,*58
06/26/2015	04:09:03.629	$GPGGA,040904,2551.0371,N,07953.9874,W,1,8,1.8,16,M,,M,,*53
06/26/2015	04:09:04.590	$GPGGA,040905,2551.0363,N,07953.9877,W,1,8,1.8,16,M,,M,,*52
06/26/2015	04:09:05.619	$GPGGA,040906,2551.0356,N,07953.9881,W,1,8,1.8,16,M,,M,,*5E
06/26/2015	04:09:06.590	$GPGGA,040907,2551.0347,N,07953.9884,W,1,8,1.8,16,M,,M,,*5A
06/26/2015	04:09:07.590	$GPGGA,040908,2551.0339,N,07953.9888,W,1,8,1.8,16,M,,M,,*50
06/26/2015	04:09:08.578	$GPGGA,040909,2551.0332,N,07953.9892,W,1,8,1.8,16,M,,M,,*51
06/26/2015	04:09:09.578	$GPGGA,040910,2551.0324,N,07953.9895,W,1,8,1.8,16,M,,M,,*59
06/26/2015	04:09:10.568	$GPGGA,040911,2551.0316,N,07953.9899,W,1,8,1.8,16,M,,M,,*55
06/26/2015	04:09:11.618	$GPGGA,040912,2551.0307,N,07953.9902,W,1,8,1.8,16,M,,M,,*55
06/26/2015	04:09:12.568	$GPGGA,040913,2551.0299,N,07953.9906,W,1,8,1.8,17,M,,M,,*57
06/26/2015	04:09:13.578	$GPGGA,040914,2551.0291,N,07953.9910,W,1,8,1.8,17,M,,M,,*5F
06/26/2015	04:09:14.558	$GPGGA,040915,2551.0284,N,07953.9913,W,1,8,1.8,17,M,,M,,*59
06/26/2015	04:09:15.589	$GPGGA,040916,2551.0275,N,07953.9917,W,1,8,1.8,17,M,,M,,*50
06/26/2015	04:09:16.559	$GPGGA,040917,2551.0267,N,07953.9921,W,1,8,1.8,17,M,,M,,*57
06/26/2015	04:09:17.570	$GPGGA,040918,2551.0259,N,07953.9924,W,1,8,1.8,17,M,,M,,*50
06/26/2015	04:09:18.559	$GPGGA,040919,2551.0251,N,07953.9928,W,1,8,1.8,17,M,,M,,*55
06/26/2015	04:09:19.559	$GPGGA,040920,2551.0242,N,07953.9932,W,1,8,1.8,17,M,,M,,*56
06/26/2015	04:09:20.559	$GPGGA,040921,2551.0234,N,07953.9935,W,1,8,1.8,17,M,,M,,*51
06/26/2015	04:09:21.549	$GPGGA,040922,2551.0226,N,07953.9939,W,1,8,1.8,17,M,,M,,*5D
06/26/2015	04:09:22.539	$GPGGA,040923,2551.0219,N,07953.9943,W,1,8,1.8,17,M,,M,,*5D
06/26/2015	04:09:23.559	$GPGGA,040924,2551.0210,N,07953.9947,W,1,8,1.8,17,M,,M,,*57
06/26/2015	04:09:24.548	$GPGGA,040925,2551.0202,N,07953.9950,W,1,8,1.8,17,M,,M,,*53
06/26/2015	04:09:25.538	$GPGGA,040926,2551.0194,N,07953.9954,W,1,8,1.8,17,M,,M,,*58
06/26/2015	04:09:26.548	$GPGGA,040927,2551.0186,N,07953.9958,W,1,8,1.8,17,M,,M,,*56
06/26/2015	04:09:27.558	$GPGGA,040928,2551.0179,N,07953.9962,W,1,8,1.8,17,M,,M,,*50
06/26/2015	04:09:28.548	$GPGGA,040929,2551.0169,N,07953.9965,W,1,8,1.8,17,M,,M,,*57
06/26/2015	04:09:29.528	$GPGGA,040930,2551.0162,N,07953.9969,W,1,8,1.8,17,M,,M,,*58
06/26/2015	04:09:30.548	$GPGGA,040931,2551.0154,N,07953.9972,W,1,8,1.8,17,M,,M,,*56
06/26/2015	04:09:31.538	$GPGGA,040932,2551.0146,N,07953.9976,W,1,8,1.8,17,M,,M,,*52
06/26/2015	04:09:32.528	$GPGGA,040933,2551.0137,N,07953.9980,W,1,8,1.8,17,M,,M,,*5C
06/26/2015	04:09:33.529	$GPGGA,040934,2551.0130,N,07953.9983,W,1,8,1.8,17,M,,M,,*5F
06/26/2015	04:09:34.519	$GPGGA,040935,2551.0122,N,07953.9987,W,1,8,1.8,17,M,,M,,*59
06/26/2015	04:09:35.569	$GPGGA,040936,2551.0114,N,07953.9991,W,1,8,1.8,17,M,,M,,*58
06/26/2015	04:09:36.529	$GPGGA,040937,2551.0105,N,07953.9994,W,1,8,1.8,17,M,,M,,*5C
06/26/2015	04:09:37.509	$GPGGA,040938,2551.0097,N,07953.9998,W,1,8,1.8,17,M,,M,,*55
06/26/2015	04:09:38.529	$GPGGA,040939,2551.0089,N,07954.0003,W,1,8,1.8,17,M,,M,,*5E
06/26/2015	04:09:39.619	$GPGGA,040940,2551.0082,N,07954.0005,W,1,8,1.8,17,M,,M,,*5D
06/26/2015	04:09:40.518	$GPGGA,040941,2551.0074,N,07954.0008,W,1,8,1.8,17,M,,M,,*58
06/26/2015	04:09:41.618	$GPGGA,040942,2551.0064,N,07954.0012,W,1,8,1.8,17,M,,M,,*51
06/26/2015	04:09:42.518	$GPGGA,040943,2551.0054,N,07954.0015,W,1,8,2.2,17,M,,M,,*5D
06/26/2015	04:09:43.518	$GPGGA,040944,2551.0045,N,07954.0018,W,1,7,2.2,17,M,,M,,*58
06/26/2015	04:09:44.503	$GPGGA,040945,2551.0035,N,07954.0022,W,1,7,2.2,17,M,,M,,*57
06/26/2015	04:09:45.608	$GPGGA,040946,2551.0027,N,07954.0025,W,1,7,2.2,17,M,,M,,*50
06/26/2015	04:09:46.500	$GPGGA,040947,2551.0016,N,07954.0027,W,1,7,2.2,17,M,,M,,*51
06/26/2015	04:09:47.618	$GPGGA,040948,2551.0007,N,07954.0030,W,1,7,2.2,17,M,,M,,*58
06/26/2015	04:09:48.508	$GPGGA,040949,2550.9998,N,07954.0033,W,1,7,2.2,17,M,,M,,*5D
06/26/2015	04:09:49.618	$GPGGA,040950,2550.9989,N,07954.0036,W,1,7,2.2,17,M,,M,,*50
06/26/2015	04:09:50.579	$GPGGA,040951,2550.9980,N,07954.0040,W,1,7,2.2,17,M,,M,,*59
06/26/2015	04:09:51.659	$GPGGA,040952,2550.9971,N,07954.0043,W,1,7,2.2,17,M,,M,,*57
06/26/2015	04:09:52.499	$GPGGA,040953,2550.9962,N,07954.0045,W,1,7,2.2,16,M,,M,,*53
06/26/2015	04:09:53.609	$GPGGA,040954,2550.9953,N,07954.0048,W,1,7,2.2,16,M,,M,,*5B
06/26/2015	04:09:54.579	$GPGGA,040955,2550.9944,N,07954.0051,W,1,7,2.2,16,M,,M,,*54
06/26/2015	04:09:55.600	$GPGGA,040956,2550.9935,N,07954.0054,W,1,7,2.2,16,M,,M,,*54
06/26/2015	04:09:56.595	$GPGGA,040957,2550.9926,N,07954.0056,W,1,7,2.2,16,M,,M,,*55
06/26/2015	04:09:57.604	$GPGGA,040958,2550.9919,N,07954.0059,W,1,7,2.2,16,M,,M,,*59
06/26/2015	04:09:58.579	$GPGGA,040959,2550.9909,N,07954.0063,W,1,7,2.2,16,M,,M,,*50
06/26/2015	04:09:59.628	$GPGGA,041000,2550.9901,N,07954.0066,W,1,7,2.2,16,M,,M,,*59
06/26/2015	04:10:00.558	$GPGGA,041001,2550.9892,N,07954.0069,W,1,7,2.2,16,M,,M,,*5C
06/26/2015	04:10:01.568	$GPGGA,041002,2550.9884,N,07954.0072,W,1,7,2.2,16,M,,M,,*52
06/26/2015	04:10:02.578	$GPGGA,041003,2550.9876,N,07954.0074,W,1,7,2.2,16,M,,M,,*58
06/26/2015	04:10:03.602	$GPGGA,041004,2550.9868,N,07954.0077,W,1,7,2.2,16,M,,M,,*53
06/26/2015	04:10:04.568	$GPGGA,041005,2550.9862,N,07954.0080,W,1,7,2.2,15,M,,M,,*53
06/26/2015	04:10:05.578	$GPGGA,041006,2550.9856,N,07954.0083,W,1,8,1.8,15,M,,M,,*52
06/26/2015	04:10:06.568	$GPGGA,041007,2550.9850,N,07954.0087,W,1,8,1.8,15,M,,M,,*51
06/26/2015	04:10:07.601	$GPGGA,041008,2550.9843,N,07954.0090,W,1,8,1.8,15,M,,M,,*5A
06/26/2015	04:10:08.559	$GPGGA,041009,2550.9836,N,07954.0094,W,1,8,1.8,16,M,,M,,*5E
06/26/2015	04:10:09.569	$GPGGA,041010,2550.9829,N,07954.0095,W,1,8,1.8,16,M,,M,,*59
06/26/2015	04:10:10.539	$GPGGA,041011,2550.9822,N,07954.0098,W,1,8,1.8,16,M,,M,,*5E
06/26/2015	04:10:11.919	$GPGGA,041012,2550.9815,N,07954.0102,W,1,8,1.8,16,M,,M,,*5B
06/26/2015	04:10:12.549	$GPGGA,041013,2550.9807,N,07954.0105,W,1,8,1.8,16,M,,M,,*5E
06/26/2015	04:10:13.569	$GPGGA,041014,2550.9801,N,07954.0108,W,1,8,1.8,16,M,,M,,*52
06/26/2015	04:10:14.539	$GPGGA,041015,2550.9793,N,07954.0112,W,1,8,1.8,16,M,,M,,*5C
06/26/2015	04:10:15.579	$GPGGA,041016,2550.9785,N,07954.0115,W,1,8,1.8,16,M,,M,,*5F
06/26/2015	04:10:16.528	$GPGGA,041017,2550.9778,N,07954.0119,W,1,8,1.8,16,M,,M,,*50
06/26/2015	04:10:17.548	$GPGGA,041018,2550.9769,N,07954.0121,W,1,8,1.8,16,M,,M,,*54
06/26/2015	04:10:18.538	$GPGGA,041019,2550.9761,N,07954.0124,W,1,8,1.8,16,M,,M,,*58
06/26/2015	04:10:19.868	$GPGGA,041020,2550.9753,N,07954.0130,W,1,8,1.8,16,M,,M,,*56
06/26/2015	04:10:20.538	$GPGGA,041021,2550.9740,N,07954.0134,W,1,8,2.2,16,M,,M,,*58
06/26/2015	04:10:21.518	$GPGGA,041022,2550.9731,N,07954.0137,W,1,8,1.8,16,M,,M,,*57
06/26/2015	04:10:22.538	$GPGGA,041023,2550.9722,N,07954.0141,W,1,8,1.8,16,M,,M,,*55
06/26/2015	04:10:23.548	$GPGGA,041024,2550.9713,N,07954.0145,W,1,8,1.8,16,M,,M,,*54
06/26/2015	04:10:24.518	$GPGGA,041025,2550.9704,N,07954.0148,W,1,8,1.8,16,M,,M,,*5E
06/26/2015	04:10:25.509	$GPGGA,041026,2550.9696,N,07954.0152,W,1,8,1.8,16,M,,M,,*5C
06/26/2015	04:10:26.519	$GPGGA,041027,2550.9688,N,07954.0156,W,1,8,1.8,16,M,,M,,*56
06/26/2015	04:10:27.559	$GPGGA,041028,2550.9679,N,07954.0159,W,1,8,1.8,16,M,,M,,*58
06/26/2015	04:10:28.509	$GPGGA,041029,2550.9671,N,07954.0164,W,1,8,1.8,16,M,,M,,*5F
06/26/2015	04:10:29.529	$GPGGA,041030,2550.9663,N,07954.0167,W,1,8,1.8,16,M,,M,,*57
06/26/2015	04:10:30.514	$GPGGA,041031,2550.9655,N,07954.0171,W,1,8,1.8,16,M,,M,,*54
06/26/2015	04:10:31.519	$GPGGA,041032,2550.9648,N,07954.0175,W,1,8,1.8,16,M,,M,,*5F
06/26/2015	04:10:32.499	$GPGGA,041033,2550.9638,N,07954.0180,W,1,8,1.8,16,M,,M,,*53
06/26/2015	04:10:33.501	$GPGGA,041034,2550.9630,N,07954.0182,W,1,8,1.8,16,M,,M,,*5E
06/26/2015	04:10:34.508	$GPGGA,041035,2550.9622,N,07954.0186,W,1,8,1.8,16,M,,M,,*58
06/26/2015	04:10:35.598	$GPGGA,041036,2550.9614,N,07954.0191,W,1,8,1.8,16,M,,M,,*58
06/26/2015	04:10:36.498	$GPGGA,041037,2550.9606,N,07954.0193,W,1,8,1.8,16,M,,M,,*58
06/26/2015	04:10:37.628	$GPGGA,041038,2550.9598,N,07954.0197,W,1,8,1.8,16,M,,M,,*57
06/26/2015	04:10:38.499	$GPGGA,041039,2550.9590,N,07954.0200,W,1,8,1.8,16,M,,M,,*53
06/26/2015	04:10:39.508	$GPGGA,041040,2550.9581,N,07954.0204,W,1,8,1.8,16,M,,M,,*59
06/26/2015	04:10:40.601	$GPGGA,041041,2550.9573,N,07954.0209,W,1,8,1.8,15,M,,M,,*5B
06/26/2015	04:10:41.608	$GPGGA,041042,2550.9565,N,07954.0213,W,1,8,1.8,15,M,,M,,*54
06/26/2015	04:10:42.578	$GPGGA,041043,2550.9556,N,07954.0215,W,1,8,1.8,15,M,,M,,*53
06/26/2015	04:10:43.619	$GPGGA,041044,2550.9548,N,07954.0218,W,1,8,1.8,15,M,,M,,*56
06/26/2015	04:10:44.579	$GPGGA,041045,2550.9540,N,07954.0222,W,1,8,1.8,15,M,,M,,*56
06/26/2015	04:10:45.569	$GPGGA,041046,2550.9532,N,07954.0227,W,1,8,1.8,15,M,,M,,*55
06/26/2015	04:10:46.579	$GPGGA,041047,2550.9525,N,07954.0228,W,1,8,1.8,15,M,,M,,*5D
06/26/2015	04:10:47.591	$GPGGA,041048,2550.9516,N,07954.0232,W,1,8,1.8,15,M,,M,,*59
06/26/2015	04:10:48.569	$GPGGA,041049,2550.9508,N,07954.0235,W,1,8,1.8,15,M,,M,,*50
06/26/2015	04:10:49.589	$GPGGA,041050,2550.9500,N,07954.0238,W,1,8,1.8,15,M,,M,,*5D
06/26/2015	04:10:50.559	$GPGGA,041051,2550.9492,N,07954.0242,W,1,8,1.8,15,M,,M,,*5B
06/26/2015	04:10:51.608	$GPGGA,041052,2550.9485,N,07954.0245,W,1,8,1.8,15,M,,M,,*59
06/26/2015	04:10:52.558	$GPGGA,041053,2550.9476,N,07954.0247,W,1,8,1.8,15,M,,M,,*56
06/26/2015	04:10:53.578	$GPGGA,041054,2550.9467,N,07954.0251,W,1,8,1.8,15,M,,M,,*56
06/26/2015	04:10:54.558	$GPGGA,041055,2550.9460,N,07954.0253,W,1,8,2.1,15,M,,M,,*58
06/26/2015	04:10:55.558	$GPGGA,041056,2550.9450,N,07954.0257,W,1,7,2.1,15,M,,M,,*53
06/26/2015	04:10:56.558	$GPGGA,041057,2550.9443,N,07954.0260,W,1,7,2.1,15,M,,M,,*54
06/26/2015	04:10:57.548	$GPGGA,041058,2550.9435,N,07954.0262,W,1,8,1.8,15,M,,M,,*5D
06/26/2015	04:10:58.558	$GPGGA,041059,2550.9426,N,07954.0265,W,1,8,1.8,15,M,,M,,*59
06/26/2015	04:10:59.588	$GPGGA,041100,2550.9419,N,07954.0268,W,1,7,2.1,15,M,,M,,*50
06/26/2015	04:11:01.059	$GPGGA,041101,2550.9413,N,07954.0271,W,1,7,1.8,15,M,,M,,*59
06/26/2015	04:11:01.559	$GPGGA,041102,2550.9403,N,07954.0275,W,1,8,1.8,15,M,,M,,*50
06/26/2015	04:11:02.539	$GPGGA,041103,2550.9396,N,07954.0278,W,1,8,1.8,15,M,,M,,*57
06/26/2015	04:11:03.569	$GPGGA,041104,2550.9388,N,07954.0280,W,1,8,1.8,15,M,,M,,*58
06/26/2015	04:11:04.529	$GPGGA,041105,2550.9381,N,07954.0283,W,1,8,1.8,15,M,,M,,*53
06/26/2015	04:11:05.569	$GPGGA,041106,2550.9373,N,07954.0287,W,1,8,1.8,15,M,,M,,*59
06/26/2015	04:11:06.529	$GPGGA,041107,2550.9366,N,07954.0290,W,1,8,1.8,15,M,,M,,*5A
06/26/2015	04:11:07.569	$GPGGA,041108,2550.9359,N,07954.0293,W,1,8,1.8,15,M,,M,,*5A
06/26/2015	04:11:08.519	$GPGGA,041109,2550.9352,N,07954.0297,W,1,8,1.8,15,M,,M,,*54
06/26/2015	04:11:09.538	$GPGGA,041110,2550.9343,N,07954.0300,W,1,8,1.8,15,M,,M,,*53
06/26/2015	04:11:10.538	$GPGGA,041111,2550.9335,N,07954.0303,W,1,8,1.8,15,M,,M,,*50
06/26/2015	04:11:11.549	$GPGGA,041112,2550.9327,N,07954.0307,W,1,8,1.8,15,M,,M,,*54
06/26/2015	04:11:12.518	$GPGGA,041113,2550.9319,N,07954.0309,W,1,8,1.8,15,M,,M,,*56
06/26/2015	04:11:13.528	$GPGGA,041114,2550.9312,N,07954.0314,W,1,8,1.8,15,M,,M,,*56
06/26/2015	04:11:14.518	$GPGGA,041115,2550.9303,N,07954.0316,W,1,8,1.8,15,M,,M,,*55
06/26/2015	04:11:16.018	$GPGGA,041116,2550.9294,N,07954.0319,W,1,8,1.8,15,M,,M,,*56
06/26/2015	04:11:16.518	$GPGGA,041117,2550.9286,N,07954.0323,W,1,8,1.8,15,M,,M,,*5D
06/26/2015	04:11:17.490	$GPGGA,041118,2550.9278,N,07954.0327,W,1,8,1.8,15,M,,M,,*57
06/26/2015	04:11:18.591	$GPGGA,041119,2550.9270,N,07954.0330,W,1,8,1.8,15,M,,M,,*58
06/26/2015	04:11:19.628	$GPGGA,041120,2550.9262,N,07954.0334,W,1,8,1.8,15,M,,M,,*55
06/26/2015	04:11:20.508	$GPGGA,041121,2550.9254,N,07954.0339,W,1,8,1.8,15,M,,M,,*5C
06/26/2015	04:11:21.648	$GPGGA,041122,2550.9247,N,07954.0343,W,1,8,1.8,15,M,,M,,*50
06/26/2015	04:11:22.608	$GPGGA,041123,2550.9238,N,07954.0347,W,1,8,1.8,15,M,,M,,*5D
06/26/2015	04:11:23.508	$GPGGA,041124,2550.9230,N,07954.0350,W,1,8,1.8,15,M,,M,,*54
06/26/2015	04:11:24.480	$GPGGA,041125,2550.9222,N,07954.0354,W,1,8,1.8,15,M,,M,,*52
06/26/2015	04:11:25.598	$GPGGA,041126,2550.9214,N,07954.0358,W,1,8,1.8,15,M,,M,,*58
06/26/2015	04:11:26.497	$GPGGA,041127,2550.9207,N,07954.0361,W,1,8,1.8,15,M,,M,,*51
06/26/2015	04:11:27.627	$GPGGA,041128,2550.9198,N,07954.0365,W,1,8,1.8,15,M,,M,,*5F
06/26/2015	04:11:28.493	$GPGGA,041129,2550.9189,N,07954.0369,W,1,8,1.8,15,M,,M,,*52
06/26/2015	04:11:29.578	$GPGGA,041130,2550.9182,N,07954.0373,W,1,8,1.8,15,M,,M,,*5A
06/26/2015	04:11:30.568	$GPGGA,041131,2550.9174,N,07954.0377,W,1,8,1.8,15,M,,M,,*56
06/26/2015	04:11:31.608	$GPGGA,041132,2550.9165,N,07954.0381,W,1,8,1.8,15,M,,M,,*5C
06/26/2015	04:11:32.568	$GPGGA,041133,2550.9156,N,07954.0386,W,1,8,1.8,15,M,,M,,*5A
06/26/2015	04:11:33.595	$GPGGA,041134,2550.9148,N,07954.0390,W,1,8,1.8,15,M,,M,,*55
06/26/2015	04:11:34.558	$GPGGA,041135,2550.9139,N,07954.0394,W,1,8,1.8,15,M,,M,,*56
06/26/2015	04:11:35.628	$GPGGA,041136,2550.9131,N,07954.0397,W,1,8,1.8,15,M,,M,,*5E
06/26/2015	04:11:37.038	$GPGGA,041137,2550.9124,N,07954.0401,W,1,8,1.8,15,M,,M,,*53
06/26/2015	04:11:37.589	$GPGGA,041138,2550.9114,N,07954.0405,W,1,8,1.8,15,M,,M,,*5B
06/26/2015	04:11:38.548	$GPGGA,041139,2550.9106,N,07954.0408,W,1,8,1.8,15,M,,M,,*54
06/26/2015	04:11:39.598	$GPGGA,041140,2550.9099,N,07954.0412,W,1,8,1.8,15,M,,M,,*56
06/26/2015	04:11:40.828	$GPGGA,041141,2550.9090,N,07954.0416,W,1,8,1.8,15,M,,M,,*5A
06/26/2015	04:11:41.580	$GPGGA,041142,2550.9081,N,07954.0419,W,1,8,1.8,15,M,,M,,*56
06/26/2015	04:11:42.558	$GPGGA,041143,2550.9073,N,07954.0423,W,1,8,1.8,15,M,,M,,*53
06/26/2015	04:11:43.581	$GPGGA,041144,2550.9066,N,07954.0427,W,1,8,1.8,15,M,,M,,*54
06/26/2015	04:11:44.547	$GPGGA,041145,2550.9057,N,07954.0431,W,1,8,1.8,15,M,,M,,*50
06/26/2015	04:11:45.567	$GPGGA,041146,2550.9049,N,07954.0435,W,1,8,1.8,15,M,,M,,*58
06/26/2015	04:11:46.549	$GPGGA,041147,2550.9041,N,07954.0438,W,1,8,1.8,15,M,,M,,*5C
06/26/2015	04:11:47.578	$GPGGA,041148,2550.9034,N,07954.0441,W,1,8,1.8,15,M,,M,,*5F
06/26/2015	04:11:48.538	$GPGGA,041149,2550.9024,N,07954.0445,W,1,8,1.8,15,M,,M,,*5B
