Software Version Number: 1	Data File Format Number: 1	Build Version Number: 1	Error Count Since VI Started: 3	Manufacturer: Raytheon	 Model Number: RayMarine 120	 S/N: 	 Cal Date: 	 Wind Direction Offset: 0.00	 Slope (M)1: 0.00	 Offset (B)1: 0.00	 Slope (M)2: 0.00	 Offset (B)2: 0.00	 Slope (M)3: 0.00	 Offset (B)3: 0.00	 Slope (M)4: 0.00	 Offset (B)4: 0.00	 Slope (M)5: 0.00	 Offset (B)5: 0.00	 Slope (M)6: 0.00	 Offset (B)6: 0.00
Computer Date	Computer Time	GGA String
06/24/2015	21:00:00.543	$GPGGA,210001,2536.8649,N,08002.6568,W,1,8,2.4,16,M,,M,,*5D
06/24/2015	21:00:01.503	$GPGGA,210002,2536.8658,N,08002.6568,W,1,8,2.4,16,M,,M,,*5E
06/24/2015	21:00:02.573	$GPGGA,210003,2536.8668,N,08002.6568,W,1,8,2.4,16,M,,M,,*5C
06/24/2015	21:00:03.613	$GPGGA,210004,2536.8678,N,08002.6568,W,1,8,2.4,16,M,,M,,*5A
06/24/2015	21:00:04.573	$GPGGA,210005,2536.8687,N,08002.6571,W,1,8,2.4,16,M,,M,,*53
06/24/2015	21:00:05.573	$GPGGA,210006,2536.8698,N,08002.6572,W,1,8,2.4,16,M,,M,,*5D
06/24/2015	21:00:06.573	$GPGGA,210007,2536.8707,N,08002.6572,W,1,8,2.4,16,M,,M,,*5B
06/24/2015	21:00:07.593	$GPGGA,210008,2536.8707,N,08002.6572,W,1,8,2.4,16,M,,M,,*54
06/24/2015	21:00:08.573	$GPGGA,210009,2536.8726,N,08002.6572,W,1,8,2.4,16,M,,M,,*56
06/24/2015	21:00:09.583	$GPGGA,210010,2536.8736,N,08002.6573,W,1,8,2.4,16,M,,M,,*5E
06/24/2015	21:00:10.562	$GPGGA,210011,2536.8736,N,08002.6573,W,1,8,2.4,16,M,,M,,*5F
06/24/2015	21:00:11.582	$GPGGA,210012,2536.8755,N,08002.6573,W,1,8,2.4,16,M,,M,,*59
06/24/2015	21:00:12.553	$GPGGA,210013,2536.8765,N,08002.6575,W,1,8,2.4,16,M,,M,,*5D
06/24/2015	21:00:14.553	$GPGGA,210014,2536.8773,N,08002.6575,W,1,8,2.4,16,M,,M,,*5D
06/24/2015	21:00:14.583	$GPGGA,210015,2536.8783,N,08002.6574,W,1,8,2.7,16,M,,M,,*51
06/24/2015	21:00:15.613	$GPGGA,210016,2536.8792,N,08002.6575,W,1,7,2.4,16,M,,M,,*5F
06/24/2015	21:00:16.546	$GPGGA,210017,2536.8802,N,08002.6575,W,1,7,2.4,16,M,,M,,*58
06/24/2015	21:00:17.573	$GPGGA,210018,2536.8810,N,08002.6576,W,1,8,2.4,16,M,,M,,*58
06/24/2015	21:00:18.533	$GPGGA,210019,2536.8820,N,08002.6577,W,1,8,2.4,16,M,,M,,*5B
06/24/2015	21:00:19.573	$GPGGA,210020,2536.8830,N,08002.6577,W,1,8,2.4,16,M,,M,,*50
06/24/2015	21:00:20.547	$GPGGA,210021,2536.8839,N,08002.6577,W,1,8,2.7,16,M,,M,,*5B
06/24/2015	21:00:21.563	$GPGGA,210022,2536.8849,N,08002.6579,W,1,7,2.4,16,M,,M,,*5D
06/24/2015	21:00:22.550	$GPGGA,210023,2536.8859,N,08002.6578,W,1,7,2.4,16,M,,M,,*5C
06/24/2015	21:00:23.873	$GPGGA,210024,2536.8867,N,08002.6579,W,1,8,2.7,16,M,,M,,*5B
06/24/2015	21:00:24.563	$GPGGA,210025,2536.8878,N,08002.6580,W,1,8,2.4,16,M,,M,,*51
06/24/2015	21:00:25.843	$GPGGA,210026,2536.8886,N,08002.6580,W,1,8,2.4,16,M,,M,,*53
06/24/2015	21:00:26.554	$GPGGA,210027,2536.8896,N,08002.6580,W,1,8,2.4,16,M,,M,,*53
06/24/2015	21:00:27.533	$GPGGA,210028,2536.8906,N,08002.6582,W,1,8,2.4,16,M,,M,,*56
06/24/2015	21:00:28.545	$GPGGA,210029,2536.8914,N,08002.6583,W,1,8,2.4,16,M,,M,,*55
06/24/2015	21:00:29.522	$GPGGA,210030,2536.8925,N,08002.6584,W,1,8,2.4,16,M,,M,,*58
06/24/2015	21:00:30.557	$GPGGA,210031,2536.8932,N,08002.6584,W,1,8,2.4,16,M,,M,,*5F
06/24/2015	21:00:31.558	$GPGGA,210032,2536.8942,N,08002.6586,W,1,8,2.4,16,M,,M,,*59
06/24/2015	21:00:32.573	$GPGGA,210033,2536.8942,N,08002.6586,W,1,8,2.4,16,M,,M,,*58
06/24/2015	21:00:33.623	$GPGGA,210034,2536.8960,N,08002.6586,W,1,8,2.4,16,M,,M,,*5F
06/24/2015	21:00:34.547	$GPGGA,210035,2536.8969,N,08002.6589,W,1,8,2.4,16,M,,M,,*58
06/24/2015	21:00:35.533	$GPGGA,210036,2536.8978,N,08002.6590,W,1,8,2.4,16,M,,M,,*53
06/24/2015	21:00:36.523	$GPGGA,210037,2536.8978,N,08002.6590,W,1,8,2.4,16,M,,M,,*52
06/24/2015	21:00:37.513	$GPGGA,210038,2536.8996,N,08002.6591,W,1,8,2.4,16,M,,M,,*5C
06/24/2015	21:00:38.503	$GPGGA,210039,2536.8996,N,08002.6591,W,1,8,2.4,16,M,,M,,*5D
06/24/2015	21:00:39.613	$GPGGA,210040,2536.9015,N,08002.6591,W,1,8,2.4,16,M,,M,,*50
06/24/2015	21:00:40.613	$GPGGA,210041,2536.9023,N,08002.6593,W,1,8,2.4,16,M,,M,,*56
06/24/2015	21:00:41.503	$GPGGA,210042,2536.9032,N,08002.6594,W,1,8,2.4,16,M,,M,,*52
06/24/2015	21:00:42.493	$GPGGA,210043,2536.9032,N,08002.6594,W,1,8,2.4,16,M,,M,,*53
06/24/2015	21:00:43.633	$GPGGA,210044,2536.9051,N,08002.6594,W,1,8,2.4,16,M,,M,,*51
06/24/2015	21:00:44.603	$GPGGA,210045,2536.9059,N,08002.6597,W,1,8,2.7,16,M,,M,,*58
06/24/2015	21:00:45.582	$GPGGA,210046,2536.9066,N,08002.6596,W,1,8,2.4,16,M,,M,,*55
06/24/2015	21:00:46.602	$GPGGA,210047,2536.9076,N,08002.6597,W,1,8,2.4,16,M,,M,,*54
06/24/2015	21:00:47.602	$GPGGA,210048,2536.9084,N,08002.6598,W,1,8,2.4,16,M,,M,,*59
06/24/2015	21:00:48.573	$GPGGA,210049,2536.9091,N,08002.6598,W,1,8,2.4,16,M,,M,,*5C
06/24/2015	21:00:49.613	$GPGGA,210050,2536.9101,N,08002.6598,W,1,8,2.4,16,M,,M,,*5C
06/24/2015	21:00:50.573	$GPGGA,210051,2536.9109,N,08002.6600,W,1,8,2.4,16,M,,M,,*57
06/24/2015	21:00:52.089	$GPGGA,210052,2536.9117,N,08002.6601,W,1,8,2.4,16,M,,M,,*5A
06/24/2015	21:00:52.573	$GPGGA,210053,2536.9127,N,08002.6601,W,1,8,2.4,16,M,,M,,*58
06/24/2015	21:00:53.563	$GPGGA,210054,2536.9135,N,08002.6604,W,1,8,2.4,16,M,,M,,*59
06/24/2015	21:00:54.563	$GPGGA,210055,2536.9144,N,08002.6604,W,1,8,2.4,16,M,,M,,*5E
06/24/2015	21:00:55.603	$GPGGA,210056,2536.9152,N,08002.6604,W,1,8,2.4,16,M,,M,,*5A
06/24/2015	21:00:56.573	$GPGGA,210057,2536.9152,N,08002.6604,W,1,8,2.4,16,M,,M,,*5B
06/24/2015	21:00:57.563	$GPGGA,210058,2536.9169,N,08002.6607,W,1,8,2.4,16,M,,M,,*5F
06/24/2015	21:00:58.623	$GPGGA,210059,2536.9178,N,08002.6608,W,1,8,2.4,16,M,,M,,*51
06/24/2015	21:00:59.623	$GPGGA,210100,2536.9186,N,08002.6607,W,1,8,2.4,16,M,,M,,*52
06/24/2015	21:01:00.563	$GPGGA,210101,2536.9196,N,08002.6608,W,1,8,2.4,16,M,,M,,*5D
06/24/2015	21:01:01.555	$GPGGA,210102,2536.9204,N,08002.6609,W,1,8,2.4,16,M,,M,,*57
06/24/2015	21:01:02.555	$GPGGA,210103,2536.9214,N,08002.6611,W,1,8,2.4,16,M,,M,,*5E
06/24/2015	21:01:03.582	$GPGGA,210104,2536.9224,N,08002.6612,W,1,8,2.4,16,M,,M,,*59
06/24/2015	21:01:04.543	$GPGGA,210105,2536.9232,N,08002.6613,W,1,8,2.4,16,M,,M,,*5E
06/24/2015	21:01:05.555	$GPGGA,210106,2536.9243,N,08002.6615,W,1,8,2.4,16,M,,M,,*5D
06/24/2015	21:01:06.547	$GPGGA,210107,2536.9251,N,08002.6616,W,1,8,2.6,16,M,,M,,*5E
06/24/2015	21:01:07.563	$GPGGA,210108,2536.9261,N,08002.6618,W,1,8,2.4,16,M,,M,,*5E
06/24/2015	21:01:08.543	$GPGGA,210109,2536.9272,N,08002.6618,W,1,8,2.4,16,M,,M,,*5D
06/24/2015	21:01:09.523	$GPGGA,210110,2536.9283,N,08002.6620,W,1,7,2.6,16,M,,M,,*5D
06/24/2015	21:01:10.533	$GPGGA,210111,2536.9293,N,08002.6622,W,1,7,2.4,16,M,,M,,*5D
06/24/2015	21:01:11.563	$GPGGA,210112,2536.9303,N,08002.6622,W,1,8,2.4,16,M,,M,,*59
06/24/2015	21:01:12.535	$GPGGA,210113,2536.9312,N,08002.6623,W,1,8,2.4,16,M,,M,,*59
06/24/2015	21:01:13.559	$GPGGA,210114,2536.9321,N,08002.6623,W,1,8,2.4,15,M,,M,,*5D
06/24/2015	21:01:14.523	$GPGGA,210115,2536.9330,N,08002.6624,W,1,8,2.4,15,M,,M,,*5B
06/24/2015	21:01:15.533	$GPGGA,210116,2536.9340,N,08002.6626,W,1,8,2.4,15,M,,M,,*5D
06/24/2015	21:01:16.513	$GPGGA,210117,2536.9348,N,08002.6626,W,1,8,2.4,15,M,,M,,*54
06/24/2015	21:01:17.503	$GPGGA,210118,2536.9358,N,08002.6626,W,1,8,2.4,15,M,,M,,*5A
06/24/2015	21:01:18.523	$GPGGA,210119,2536.9366,N,08002.6626,W,1,8,2.4,14,M,,M,,*57
06/24/2015	21:01:19.533	$GPGGA,210120,2536.9376,N,08002.6627,W,1,8,2.4,14,M,,M,,*5D
06/24/2015	21:01:20.502	$GPGGA,210121,2536.9384,N,08002.6629,W,1,8,2.4,14,M,,M,,*5F
06/24/2015	21:01:21.522	$GPGGA,210122,2536.9394,N,08002.6629,W,1,8,2.4,14,M,,M,,*5D
06/24/2015	21:01:22.502	$GPGGA,210123,2536.9402,N,08002.6629,W,1,8,2.4,14,M,,M,,*54
06/24/2015	21:01:23.523	$GPGGA,210124,2536.9411,N,08002.6629,W,1,8,2.4,14,M,,M,,*51
06/24/2015	21:01:24.493	$GPGGA,210125,2536.9420,N,08002.6629,W,1,8,2.4,14,M,,M,,*52
06/24/2015	21:01:25.513	$GPGGA,210126,2536.9428,N,08002.6630,W,1,8,2.4,14,M,,M,,*51
06/24/2015	21:01:26.513	$GPGGA,210127,2536.9438,N,08002.6630,W,1,8,2.4,14,M,,M,,*51
06/24/2015	21:01:27.503	$GPGGA,210128,2536.9446,N,08002.6630,W,1,8,2.4,14,M,,M,,*57
06/24/2015	21:01:28.503	$GPGGA,210129,2536.9455,N,08002.6633,W,1,8,2.4,14,M,,M,,*57
06/24/2015	21:01:29.513	$GPGGA,210130,2536.9464,N,08002.6631,W,1,8,2.4,14,M,,M,,*5F
06/24/2015	21:01:30.504	$GPGGA,210131,2536.9474,N,08002.6631,W,1,8,2.4,14,M,,M,,*5F
06/24/2015	21:01:31.513	$GPGGA,210132,2536.9482,N,08002.6633,W,1,8,2.4,14,M,,M,,*57
06/24/2015	21:01:32.583	$GPGGA,210133,2536.9491,N,08002.6632,W,1,8,2.4,13,M,,M,,*52
06/24/2015	21:01:33.573	$GPGGA,210134,2536.9500,N,08002.6633,W,1,8,2.4,13,M,,M,,*5D
06/24/2015	21:01:34.583	$GPGGA,210135,2536.9509,N,08002.6632,W,1,8,2.4,13,M,,M,,*54
06/24/2015	21:01:35.633	$GPGGA,210136,2536.9517,N,08002.6633,W,1,8,2.4,13,M,,M,,*59
06/24/2015	21:01:36.573	$GPGGA,210137,2536.9525,N,08002.6633,W,1,8,2.4,13,M,,M,,*59
06/24/2015	21:01:37.593	$GPGGA,210138,2536.9535,N,08002.6632,W,1,8,2.4,13,M,,M,,*56
06/24/2015	21:01:38.562	$GPGGA,210139,2536.9543,N,08002.6633,W,1,8,2.4,13,M,,M,,*57
06/24/2015	21:01:39.582	$GPGGA,210140,2536.9553,N,08002.6632,W,1,8,2.4,13,M,,M,,*59
06/24/2015	21:01:40.573	$GPGGA,210141,2536.9561,N,08002.6633,W,1,8,2.4,13,M,,M,,*58
06/24/2015	21:01:41.583	$GPGGA,210142,2536.9571,N,08002.6633,W,1,8,2.4,13,M,,M,,*5A
06/24/2015	21:01:42.553	$GPGGA,210143,2536.9579,N,08002.6632,W,1,8,2.4,13,M,,M,,*52
06/24/2015	21:01:43.593	$GPGGA,210144,2536.9589,N,08002.6633,W,1,8,2.4,13,M,,M,,*5B
06/24/2015	21:01:44.573	$GPGGA,210145,2536.9597,N,08002.6633,W,1,8,2.4,13,M,,M,,*55
06/24/2015	21:01:45.563	$GPGGA,210146,2536.9607,N,08002.6632,W,1,8,2.4,13,M,,M,,*5D
06/24/2015	21:01:46.563	$GPGGA,210147,2536.9615,N,08002.6633,W,1,8,2.4,13,M,,M,,*5E
06/24/2015	21:01:47.553	$GPGGA,210148,2536.9623,N,08002.6633,W,1,8,2.4,13,M,,M,,*54
06/24/2015	21:01:48.563	$GPGGA,210149,2536.9633,N,08002.6634,W,1,8,2.4,13,M,,M,,*53
06/24/2015	21:01:49.563	$GPGGA,210150,2536.9641,N,08002.6633,W,1,8,2.4,13,M,,M,,*59
06/24/2015	21:01:50.556	$GPGGA,210151,2536.9651,N,08002.6633,W,1,8,2.4,13,M,,M,,*59
06/24/2015	21:01:53.023	$GPGGA,210153,2536.9668,N,08002.6636,W,1,7,2.4,13,M,,M,,*5B
06/24/2015	21:01:53.553	$GPGGA,210154,2536.9677,N,08002.6634,W,1,8,2.4,13,M,,M,,*5F
06/24/2015	21:01:54.545	$GPGGA,210155,2536.9686,N,08002.6636,W,1,8,2.4,13,M,,M,,*52
06/24/2015	21:01:55.544	$GPGGA,210156,2536.9694,N,08002.6635,W,1,7,2.6,13,M,,M,,*5C
06/24/2015	21:01:56.542	$GPGGA,210157,2536.9702,N,08002.6636,W,1,7,2.4,13,M,,M,,*52
06/24/2015	21:01:57.562	$GPGGA,210158,2536.9711,N,08002.6635,W,1,8,2.4,13,M,,M,,*53
06/24/2015	21:01:58.523	$GPGGA,210159,2536.9720,N,08002.6637,W,1,8,2.4,13,M,,M,,*52
06/24/2015	21:01:59.573	$GPGGA,210200,2536.9727,N,08002.6637,W,1,8,2.4,13,M,,M,,*5A
06/24/2015	21:02:00.523	$GPGGA,210201,2536.9735,N,08002.6636,W,1,8,2.4,13,M,,M,,*59
06/24/2015	21:02:01.523	$GPGGA,210202,2536.9745,N,08002.6637,W,1,7,2.5,13,M,,M,,*52
06/24/2015	21:02:02.523	$GPGGA,210203,2536.9753,N,08002.6637,W,1,7,2.4,13,M,,M,,*55
06/24/2015	21:02:03.533	$GPGGA,210204,2536.9762,N,08002.6637,W,1,8,2.4,13,M,,M,,*5F
06/24/2015	21:02:04.503	$GPGGA,210205,2536.9770,N,08002.6637,W,1,8,2.4,13,M,,M,,*5D
06/24/2015	21:02:05.523	$GPGGA,210206,2536.9778,N,08002.6636,W,1,8,2.4,13,M,,M,,*57
06/24/2015	21:02:06.513	$GPGGA,210207,2536.9787,N,08002.6638,W,1,8,2.4,13,M,,M,,*58
06/24/2015	21:02:07.543	$GPGGA,210208,2536.9795,N,08002.6638,W,1,8,2.4,13,M,,M,,*54
06/24/2015	21:02:08.503	$GPGGA,210209,2536.9803,N,08002.6637,W,1,8,2.4,13,M,,M,,*5A
06/24/2015	21:02:09.513	$GPGGA,210210,2536.9811,N,08002.6638,W,1,8,2.4,14,M,,M,,*59
06/24/2015	21:02:10.513	$GPGGA,210211,2536.9820,N,08002.6638,W,1,8,2.4,14,M,,M,,*5A
06/24/2015	21:02:11.513	$GPGGA,210212,2536.9828,N,08002.6640,W,1,8,2.4,14,M,,M,,*5E
06/24/2015	21:02:12.493	$GPGGA,210213,2536.9838,N,08002.6638,W,1,8,2.4,14,M,,M,,*51
06/24/2015	21:02:13.612	$GPGGA,210214,2536.9846,N,08002.6638,W,1,8,2.4,14,M,,M,,*5F
06/24/2015	21:02:14.512	$GPGGA,210215,2536.9854,N,08002.6640,W,1,8,2.4,14,M,,M,,*52
06/24/2015	21:02:15.503	$GPGGA,210216,2536.9864,N,08002.6640,W,1,8,2.4,14,M,,M,,*52
06/24/2015	21:02:16.593	$GPGGA,210217,2536.9872,N,08002.6639,W,1,8,2.4,14,M,,M,,*5A
06/24/2015	21:02:17.583	$GPGGA,210218,2536.9881,N,08002.6640,W,1,8,2.4,14,M,,M,,*57
06/24/2015	21:02:18.503	$GPGGA,210219,2536.9890,N,08002.6639,W,1,8,2.4,14,M,,M,,*58
06/24/2015	21:02:19.503	$GPGGA,210220,2536.9899,N,08002.6640,W,1,8,2.4,14,M,,M,,*55
06/24/2015	21:02:20.483	$GPGGA,210221,2536.9908,N,08002.6640,W,1,8,2.4,14,M,,M,,*5D
06/24/2015	21:02:21.573	$GPGGA,210222,2536.9917,N,08002.6639,W,1,8,2.4,14,M,,M,,*5E
06/24/2015	21:02:22.583	$GPGGA,210223,2536.9926,N,08002.6640,W,1,8,2.4,14,M,,M,,*53
06/24/2015	21:02:23.583	$GPGGA,210224,2536.9933,N,08002.6640,W,1,8,2.4,14,M,,M,,*50
06/24/2015	21:02:24.583	$GPGGA,210225,2536.9944,N,08002.6640,W,1,8,2.4,14,M,,M,,*51
06/24/2015	21:02:25.563	$GPGGA,210226,2536.9953,N,08002.6640,W,1,8,2.4,14,M,,M,,*54
06/24/2015	21:02:26.583	$GPGGA,210227,2536.9962,N,08002.6641,W,1,8,2.6,14,M,,M,,*54
06/24/2015	21:02:27.613	$GPGGA,210228,2536.9971,N,08002.6641,W,1,8,2.4,14,M,,M,,*5B
06/24/2015	21:02:28.553	$GPGGA,210229,2536.9980,N,08002.6641,W,1,8,2.4,14,M,,M,,*54
06/24/2015	21:02:29.583	$GPGGA,210230,2536.9987,N,08002.6641,W,1,8,2.4,14,M,,M,,*5B
06/24/2015	21:02:30.562	$GPGGA,210231,2536.9997,N,08002.6641,W,1,8,2.4,14,M,,M,,*5B
06/24/2015	21:02:31.562	$GPGGA,210232,2537.0005,N,08002.6641,W,1,7,2.6,14,M,,M,,*5F
06/24/2015	21:02:32.552	$GPGGA,210233,2537.0015,N,08002.6642,W,1,7,2.4,14,M,,M,,*5E
06/24/2015	21:02:33.563	$GPGGA,210234,2537.0023,N,08002.6642,W,1,8,2.4,14,M,,M,,*53
06/24/2015	21:02:34.559	$GPGGA,210235,2537.0033,N,08002.6642,W,1,8,2.4,14,M,,M,,*53
06/24/2015	21:02:35.883	$GPGGA,210236,2537.0042,N,08002.6642,W,1,8,2.4,14,M,,M,,*56
06/24/2015	21:02:36.553	$GPGGA,210237,2537.0051,N,08002.6644,W,1,8,2.4,14,M,,M,,*53
06/24/2015	21:02:37.533	$GPGGA,210238,2537.0062,N,08002.6641,W,1,7,2.8,14,M,,M,,*5A
06/24/2015	21:02:38.543	$GPGGA,210239,2537.0073,N,08002.6640,W,1,7,2.4,14,M,,M,,*56
06/24/2015	21:02:39.573	$GPGGA,210240,2537.0084,N,08002.6639,W,1,8,2.4,15,M,,M,,*50
06/24/2015	21:02:40.545	$GPGGA,210241,2537.0094,N,08002.6640,W,1,8,2.4,15,M,,M,,*5E
06/24/2015	21:02:41.563	$GPGGA,210242,2537.0103,N,08002.6639,W,1,8,2.4,15,M,,M,,*5C
06/24/2015	21:02:42.533	$GPGGA,210243,2537.0113,N,08002.6638,W,1,8,2.4,15,M,,M,,*5D
06/24/2015	21:02:43.573	$GPGGA,210244,2537.0123,N,08002.6640,W,1,8,2.4,15,M,,M,,*56
06/24/2015	21:02:44.533	$GPGGA,210245,2537.0132,N,08002.6640,W,1,8,2.4,15,M,,M,,*57
06/24/2015	21:02:45.563	$GPGGA,210246,2537.0142,N,08002.6640,W,1,8,2.4,15,M,,M,,*53
06/24/2015	21:02:46.513	$GPGGA,210247,2537.0150,N,08002.6639,W,1,8,2.4,16,M,,M,,*5C
06/24/2015	21:02:47.553	$GPGGA,210248,2537.0160,N,08002.6640,W,1,8,2.4,16,M,,M,,*5E
06/24/2015	21:02:48.532	$GPGGA,210249,2537.0168,N,08002.6642,W,1,8,2.4,16,M,,M,,*55
06/24/2015	21:02:49.550	$GPGGA,210250,2537.0179,N,08002.6641,W,1,8,2.4,16,M,,M,,*5E
06/24/2015	21:02:50.513	$GPGGA,210251,2537.0188,N,08002.6642,W,1,8,2.4,16,M,,M,,*52
06/24/2015	21:02:52.023	$GPGGA,210252,2537.0197,N,08002.6644,W,1,8,2.4,16,M,,M,,*59
06/24/2015	21:02:52.624	$GPGGA,210253,2537.0206,N,08002.6643,W,1,8,2.4,16,M,,M,,*54
06/24/2015	21:02:53.544	$GPGGA,210254,2537.0215,N,08002.6644,W,1,8,2.4,16,M,,M,,*56
06/24/2015	21:02:54.513	$GPGGA,210255,2537.0224,N,08002.6644,W,1,8,2.4,16,M,,M,,*55
06/24/2015	21:02:55.533	$GPGGA,210256,2537.0233,N,08002.6647,W,1,8,2.4,16,M,,M,,*53
06/24/2015	21:02:56.503	$GPGGA,210257,2537.0243,N,08002.6646,W,1,8,2.4,17,M,,M,,*55
06/24/2015	21:02:57.493	$GPGGA,210258,2537.0253,N,08002.6648,W,1,8,2.4,17,M,,M,,*55
06/24/2015	21:02:58.493	$GPGGA,210259,2537.0262,N,08002.6649,W,1,8,2.4,17,M,,M,,*57
06/24/2015	21:02:59.553	$GPGGA,210300,2537.0272,N,08002.6649,W,1,8,2.4,17,M,,M,,*5B
06/24/2015	21:03:00.613	$GPGGA,210301,2537.0282,N,08002.6651,W,1,8,2.4,17,M,,M,,*5C
06/24/2015	21:03:01.493	$GPGGA,210302,2537.0291,N,08002.6654,W,1,8,2.4,17,M,,M,,*58
06/24/2015	21:03:02.503	$GPGGA,210303,2537.0302,N,08002.6655,W,1,8,2.4,17,M,,M,,*53
06/24/2015	21:03:03.593	$GPGGA,210304,2537.0312,N,08002.6655,W,1,8,2.4,17,M,,M,,*55
06/24/2015	21:03:04.493	$GPGGA,210305,2537.0322,N,08002.6658,W,1,8,2.4,17,M,,M,,*5A
06/24/2015	21:03:05.613	$GPGGA,210306,2537.0331,N,08002.6659,W,1,8,2.4,17,M,,M,,*5A
06/24/2015	21:03:06.592	$GPGGA,210307,2537.0341,N,08002.6660,W,1,8,2.6,17,M,,M,,*54
06/24/2015	21:03:07.492	$GPGGA,210308,2537.0349,N,08002.6662,W,1,8,2.4,17,M,,M,,*53
06/24/2015	21:03:08.583	$GPGGA,210309,2537.0360,N,08002.6665,W,1,8,2.4,17,M,,M,,*5E
06/24/2015	21:03:09.603	$GPGGA,210310,2537.0370,N,08002.6665,W,1,8,2.4,17,M,,M,,*57
06/24/2015	21:03:10.573	$GPGGA,210311,2537.0381,N,08002.6667,W,1,8,2.4,17,M,,M,,*5A
06/24/2015	21:03:11.593	$GPGGA,210312,2537.0391,N,08002.6669,W,1,8,2.4,17,M,,M,,*56
06/24/2015	21:03:12.593	$GPGGA,210313,2537.0402,N,08002.6670,W,1,8,2.4,17,M,,M,,*52
06/24/2015	21:03:13.559	$GPGGA,210314,2537.0412,N,08002.6671,W,1,8,2.4,17,M,,M,,*55
06/24/2015	21:03:14.559	$GPGGA,210315,2537.0421,N,08002.6673,W,1,8,2.4,17,M,,M,,*56
06/24/2015	21:03:15.593	$GPGGA,210316,2537.0432,N,08002.6674,W,1,8,2.4,17,M,,M,,*50
06/24/2015	21:03:16.559	$GPGGA,210317,2537.0443,N,08002.6676,W,1,8,2.4,17,M,,M,,*55
06/24/2015	21:03:17.556	$GPGGA,210318,2537.0453,N,08002.6677,W,1,8,2.4,17,M,,M,,*5A
06/24/2015	21:03:18.559	$GPGGA,210319,2537.0464,N,08002.6680,W,1,8,2.4,17,M,,M,,*57
06/24/2015	21:03:19.573	$GPGGA,210320,2537.0475,N,08002.6681,W,1,8,2.4,17,M,,M,,*5C
06/24/2015	21:03:20.558	$GPGGA,210321,2537.0485,N,08002.6683,W,1,8,2.4,17,M,,M,,*50
06/24/2015	21:03:21.560	$GPGGA,210322,2537.0496,N,08002.6684,W,1,8,2.4,17,M,,M,,*56
06/24/2015	21:03:22.558	$GPGGA,210323,2537.0506,N,08002.6683,W,1,8,2.4,17,M,,M,,*58
06/24/2015	21:03:23.592	$GPGGA,210324,2537.0517,N,08002.6685,W,1,8,2.4,17,M,,M,,*59
06/24/2015	21:03:24.546	$GPGGA,210325,2537.0526,N,08002.6687,W,1,8,2.4,17,M,,M,,*58
06/24/2015	21:03:25.566	$GPGGA,210326,2537.0537,N,08002.6687,W,1,8,2.4,17,M,,M,,*5B
06/24/2015	21:03:26.553	$GPGGA,210327,2537.0547,N,08002.6688,W,1,8,2.4,16,M,,M,,*53
06/24/2015	21:03:27.583	$GPGGA,210328,2537.0558,N,08002.6691,W,1,8,2.4,16,M,,M,,*5A
06/24/2015	21:03:28.533	$GPGGA,210329,2537.0569,N,08002.6691,W,1,8,2.4,16,M,,M,,*59
06/24/2015	21:03:29.566	$GPGGA,210330,2537.0579,N,08002.6692,W,1,8,2.4,16,M,,M,,*53
06/24/2015	21:03:30.533	$GPGGA,210331,2537.0589,N,08002.6694,W,1,8,2.4,16,M,,M,,*5B
06/24/2015	21:03:31.565	$GPGGA,210332,2537.0600,N,08002.6696,W,1,8,2.4,16,M,,M,,*58
06/24/2015	21:03:32.524	$GPGGA,210333,2537.0609,N,08002.6698,W,1,8,2.4,16,M,,M,,*5E
06/24/2015	21:03:33.547	$GPGGA,210334,2537.0620,N,08002.6698,W,1,8,2.4,16,M,,M,,*52
06/24/2015	21:03:34.523	$GPGGA,210335,2537.0630,N,08002.6699,W,1,8,2.4,16,M,,M,,*53
06/24/2015	21:03:35.533	$GPGGA,210336,2537.0641,N,08002.6701,W,1,8,2.4,16,M,,M,,*56
06/24/2015	21:03:36.523	$GPGGA,210337,2537.0651,N,08002.6702,W,1,8,2.4,16,M,,M,,*55
06/24/2015	21:03:37.523	$GPGGA,210338,2537.0662,N,08002.6703,W,1,8,2.4,16,M,,M,,*5B
06/24/2015	21:03:38.623	$GPGGA,210339,2537.0672,N,08002.6703,W,1,8,2.4,16,M,,M,,*5B
06/24/2015	21:03:39.673	$GPGGA,210340,2537.0683,N,08002.6705,W,1,8,2.4,16,M,,M,,*5D
06/24/2015	21:03:40.522	$GPGGA,210341,2537.0692,N,08002.6707,W,1,8,2.4,16,M,,M,,*5E
06/24/2015	21:03:41.622	$GPGGA,210342,2537.0703,N,08002.6709,W,1,8,2.4,16,M,,M,,*5A
06/24/2015	21:03:42.512	$GPGGA,210343,2537.0713,N,08002.6708,W,1,8,2.4,16,M,,M,,*5B
06/24/2015	21:03:43.513	$GPGGA,210344,2537.0723,N,08002.6710,W,1,8,2.4,16,M,,M,,*56
06/24/2015	21:03:44.593	$GPGGA,210345,2537.0734,N,08002.6712,W,1,8,2.4,16,M,,M,,*53
06/24/2015	21:03:45.623	$GPGGA,210346,2537.0743,N,08002.6712,W,1,8,2.3,16,M,,M,,*57
06/24/2015	21:03:46.503	$GPGGA,210347,2537.0755,N,08002.6714,W,1,8,2.3,16,M,,M,,*57
06/24/2015	21:03:47.613	$GPGGA,210348,2537.0764,N,08002.6716,W,1,8,2.3,16,M,,M,,*58
06/24/2015	21:03:48.503	$GPGGA,210349,2537.0775,N,08002.6717,W,1,8,2.3,16,M,,M,,*58
06/24/2015	21:03:49.613	$GPGGA,210350,2537.0786,N,08002.6717,W,1,8,2.3,16,M,,M,,*5C
06/24/2015	21:03:50.503	$GPGGA,210351,2537.0796,N,08002.6720,W,1,8,2.3,16,M,,M,,*58
06/24/2015	21:03:51.493	$GPGGA,210352,2537.0806,N,08002.6720,W,1,8,2.3,16,M,,M,,*5D
06/24/2015	21:03:52.483	$GPGGA,210353,2537.0817,N,08002.6721,W,1,8,2.3,16,M,,M,,*5D
06/24/2015	21:03:53.493	$GPGGA,210354,2537.0826,N,08002.6723,W,1,8,2.3,15,M,,M,,*59
06/24/2015	21:03:54.583	$GPGGA,210355,2537.0836,N,08002.6724,W,1,8,2.3,15,M,,M,,*5E
06/24/2015	21:03:55.623	$GPGGA,210356,2537.0847,N,08002.6725,W,1,8,2.3,15,M,,M,,*5A
06/24/2015	21:03:56.593	$GPGGA,210357,2537.0858,N,08002.6727,W,1,8,2.3,15,M,,M,,*57
06/24/2015	21:03:57.593	$GPGGA,210358,2537.0868,N,08002.6728,W,1,8,2.3,15,M,,M,,*54
06/24/2015	21:03:58.562	$GPGGA,210359,2537.0878,N,08002.6730,W,1,8,2.3,15,M,,M,,*5D
06/24/2015	21:03:59.644	$GPGGA,210400,2537.0887,N,08002.6731,W,1,8,2.3,15,M,,M,,*57
06/24/2015	21:04:00.573	$GPGGA,210401,2537.0898,N,08002.6734,W,1,8,2.3,15,M,,M,,*5D
06/24/2015	21:04:01.593	$GPGGA,210402,2537.0909,N,08002.6734,W,1,8,2.3,15,M,,M,,*57
06/24/2015	21:04:03.603	$GPGGA,210403,2537.0919,N,08002.6736,W,1,8,2.3,15,M,,M,,*55
06/24/2015	21:04:03.633	$GPGGA,210404,2537.0930,N,08002.6739,W,1,8,2.3,15,M,,M,,*56
06/24/2015	21:04:04.563	$GPGGA,210405,2537.0941,N,08002.6742,W,1,8,2.3,15,M,,M,,*5D
06/24/2015	21:04:05.563	$GPGGA,210406,2537.0952,N,08002.6745,W,1,8,2.3,15,M,,M,,*5B
06/24/2015	21:04:06.563	$GPGGA,210407,2537.0963,N,08002.6748,W,1,8,2.3,15,M,,M,,*55
06/24/2015	21:04:07.603	$GPGGA,210408,2537.0973,N,08002.6749,W,1,8,2.3,15,M,,M,,*5A
06/24/2015	21:04:08.555	$GPGGA,210409,2537.0984,N,08002.6752,W,1,8,2.3,15,M,,M,,*59
06/24/2015	21:04:09.573	$GPGGA,210410,2537.0995,N,08002.6756,W,1,8,2.3,15,M,,M,,*55
06/24/2015	21:04:10.555	$GPGGA,210411,2537.1005,N,08002.6757,W,1,8,2.3,15,M,,M,,*54
06/24/2015	21:04:11.583	$GPGGA,210412,2537.1014,N,08002.6760,W,1,8,2.3,14,M,,M,,*52
06/24/2015	21:04:12.533	$GPGGA,210413,2537.1026,N,08002.6763,W,1,8,2.3,14,M,,M,,*51
06/24/2015	21:04:13.543	$GPGGA,210414,2537.1035,N,08002.6766,W,1,8,2.3,14,M,,M,,*51
06/24/2015	21:04:14.543	$GPGGA,210415,2537.1046,N,08002.6767,W,1,8,2.3,14,M,,M,,*55
06/24/2015	21:04:15.582	$GPGGA,210416,2537.1057,N,08002.6770,W,1,8,2.3,14,M,,M,,*50
06/24/2015	21:04:16.542	$GPGGA,210417,2537.1068,N,08002.6774,W,1,8,2.3,14,M,,M,,*59
06/24/2015	21:04:17.552	$GPGGA,210418,2537.1078,N,08002.6777,W,1,8,2.3,14,M,,M,,*54
06/24/2015	21:04:18.543	$GPGGA,210419,2537.1089,N,08002.6778,W,1,8,2.3,14,M,,M,,*54
06/24/2015	21:04:19.593	$GPGGA,210420,2537.1100,N,08002.6781,W,1,8,2.3,14,M,,M,,*58
06/24/2015	21:04:20.533	$GPGGA,210421,2537.1110,N,08002.6783,W,1,8,2.3,14,M,,M,,*5A
06/24/2015	21:04:21.557	$GPGGA,210422,2537.1121,N,08002.6786,W,1,8,2.3,14,M,,M,,*5E
06/24/2015	21:04:22.543	$GPGGA,210423,2537.1131,N,08002.6789,W,1,8,2.3,14,M,,M,,*51
06/24/2015	21:04:23.563	$GPGGA,210424,2537.1142,N,08002.6792,W,1,8,2.3,13,M,,M,,*5F
06/24/2015	21:04:24.545	$GPGGA,210425,2537.1153,N,08002.6795,W,1,8,2.3,13,M,,M,,*59
06/24/2015	21:04:25.546	$GPGGA,210426,2537.1162,N,08002.6797,W,1,8,2.3,13,M,,M,,*5A
06/24/2015	21:04:26.533	$GPGGA,210427,2537.1172,N,08002.6799,W,1,8,2.3,13,M,,M,,*54
06/24/2015	21:04:27.533	$GPGGA,210428,2537.1183,N,08002.6801,W,1,8,2.3,13,M,,M,,*5B
06/24/2015	21:04:28.513	$GPGGA,210429,2537.1194,N,08002.6804,W,1,8,2.3,13,M,,M,,*59
06/24/2015	21:04:29.523	$GPGGA,210430,2537.1204,N,08002.6806,W,1,8,2.3,13,M,,M,,*59
06/24/2015	21:04:30.533	$GPGGA,210431,2537.1215,N,08002.6808,W,1,8,2.3,13,M,,M,,*56
06/24/2015	21:04:32.545	$GPGGA,210433,2537.1236,N,08002.6814,W,1,8,2.3,13,M,,M,,*58
06/24/2015	21:04:33.522	$GPGGA,210434,2537.1247,N,08002.6817,W,1,8,2.3,13,M,,M,,*5A
06/24/2015	21:04:34.593	$GPGGA,210435,2537.1258,N,08002.6817,W,1,8,2.3,13,M,,M,,*55
06/24/2015	21:04:35.603	$GPGGA,210436,2537.1268,N,08002.6821,W,1,8,2.3,12,M,,M,,*51
06/24/2015	21:04:36.513	$GPGGA,210437,2537.1279,N,08002.6822,W,1,8,2.3,12,M,,M,,*53
06/24/2015	21:04:37.503	$GPGGA,210438,2537.1288,N,08002.6824,W,1,8,2.3,12,M,,M,,*54
06/24/2015	21:04:38.513	$GPGGA,210439,2537.1299,N,08002.6826,W,1,8,2.3,12,M,,M,,*57
06/24/2015	21:04:39.545	$GPGGA,210440,2537.1310,N,08002.6828,W,1,8,2.3,12,M,,M,,*57
06/24/2015	21:04:40.583	$GPGGA,210441,2537.1320,N,08002.6831,W,1,8,2.3,12,M,,M,,*5D
06/24/2015	21:04:41.503	$GPGGA,210442,2537.1331,N,08002.6833,W,1,8,2.3,12,M,,M,,*5C
06/24/2015	21:04:42.583	$GPGGA,210443,2537.1341,N,08002.6835,W,1,8,2.3,12,M,,M,,*5C
06/24/2015	21:04:43.583	$GPGGA,210444,2537.1352,N,08002.6839,W,1,8,2.3,12,M,,M,,*55
06/24/2015	21:04:44.583	$GPGGA,210445,2537.1363,N,08002.6839,W,1,8,2.3,12,M,,M,,*56
06/24/2015	21:04:45.593	$GPGGA,210446,2537.1373,N,08002.6842,W,1,8,2.3,12,M,,M,,*58
06/24/2015	21:04:46.563	$GPGGA,210447,2537.1382,N,08002.6844,W,1,8,2.3,12,M,,M,,*51
06/24/2015	21:04:47.603	$GPGGA,210448,2537.1393,N,08002.6847,W,1,8,2.3,11,M,,M,,*5E
06/24/2015	21:04:48.573	$GPGGA,210449,2537.1404,N,08002.6850,W,1,8,2.3,11,M,,M,,*50
06/24/2015	21:04:49.573	$GPGGA,210450,2537.1414,N,08002.6851,W,1,8,2.3,11,M,,M,,*58
06/24/2015	21:04:50.572	$GPGGA,210451,2537.1425,N,08002.6853,W,1,8,2.3,11,M,,M,,*59
06/24/2015	21:04:51.592	$GPGGA,210452,2537.1436,N,08002.6855,W,1,8,2.3,11,M,,M,,*5E
06/24/2015	21:04:52.562	$GPGGA,210453,2537.1446,N,08002.6858,W,1,8,2.3,11,M,,M,,*55
06/24/2015	21:04:53.843	$GPGGA,210454,2537.1457,N,08002.6861,W,1,8,2.3,11,M,,M,,*58
06/24/2015	21:04:54.545	$GPGGA,210455,2537.1468,N,08002.6862,W,1,8,2.3,11,M,,M,,*56
06/24/2015	21:04:55.613	$GPGGA,210456,2537.1478,N,08002.6864,W,1,8,2.3,11,M,,M,,*52
06/24/2015	21:04:56.553	$GPGGA,210457,2537.1489,N,08002.6866,W,1,8,2.3,11,M,,M,,*5F
06/24/2015	21:04:57.543	$GPGGA,210458,2537.1500,N,08002.6868,W,1,8,2.3,11,M,,M,,*5E
06/24/2015	21:04:58.545	$GPGGA,210459,2537.1510,N,08002.6871,W,1,8,2.3,11,M,,M,,*56
06/24/2015	21:04:59.593	$GPGGA,210500,2537.1519,N,08002.6873,W,1,8,2.3,11,M,,M,,*50
06/24/2015	21:05:00.533	$GPGGA,210501,2537.1530,N,08002.6875,W,1,8,2.3,10,M,,M,,*5D
06/24/2015	21:05:01.534	$GPGGA,210502,2537.1541,N,08002.6878,W,1,8,2.3,10,M,,M,,*55
06/24/2015	21:05:02.548	$GPGGA,210503,2537.1552,N,08002.6879,W,1,8,2.3,10,M,,M,,*57
06/24/2015	21:05:03.563	$GPGGA,210504,2537.1562,N,08002.6882,W,1,8,2.3,10,M,,M,,*57
06/24/2015	21:05:04.533	$GPGGA,210505,2537.1573,N,08002.6883,W,1,8,2.3,10,M,,M,,*57
06/24/2015	21:05:05.563	$GPGGA,210506,2537.1584,N,08002.6886,W,1,8,2.3,10,M,,M,,*59
06/24/2015	21:05:06.523	$GPGGA,210507,2537.1595,N,08002.6889,W,1,8,2.3,10,M,,M,,*57
06/24/2015	21:05:07.562	$GPGGA,210508,2537.1605,N,08002.6890,W,1,8,2.3,10,M,,M,,*5A
06/24/2015	21:05:08.532	$GPGGA,210509,2537.1616,N,08002.6893,W,1,8,2.3,10,M,,M,,*5A
06/24/2015	21:05:09.553	$GPGGA,210510,2537.1627,N,08002.6894,W,1,8,2.3,10,M,,M,,*57
06/24/2015	21:05:10.513	$GPGGA,210511,2537.1638,N,08002.6897,W,1,8,2.3,10,M,,M,,*5B
06/24/2015	21:05:11.511	$GPGGA,210512,2537.1648,N,08002.6900,W,1,8,2.3,10,M,,M,,*50
06/24/2015	21:05:12.511	$GPGGA,210513,2537.1659,N,08002.6904,W,1,8,2.3,10,M,,M,,*55
06/24/2015	21:05:13.521	$GPGGA,210514,2537.1670,N,08002.6907,W,1,8,2.3,10,M,,M,,*5A
06/24/2015	21:05:14.491	$GPGGA,210515,2537.1681,N,08002.6909,W,1,8,2.3,10,M,,M,,*5B
06/24/2015	21:05:15.511	$GPGGA,210516,2537.1691,N,08002.6911,W,1,8,2.3,9,M,,M,,*68
06/24/2015	21:05:16.491	$GPGGA,210517,2537.1702,N,08002.6915,W,1,8,2.3,9,M,,M,,*66
06/24/2015	21:05:17.491	$GPGGA,210518,2537.1702,N,08002.6915,W,1,8,2.3,9,M,,M,,*69
06/24/2015	21:05:18.491	$GPGGA,210519,2537.1722,N,08002.6919,W,1,8,2.3,9,M,,M,,*66
06/24/2015	21:05:19.511	$GPGGA,210520,2537.1734,N,08002.6922,W,1,8,2.3,9,M,,M,,*63
06/24/2015	21:05:20.481	$GPGGA,210521,2537.1745,N,08002.6925,W,1,8,2.3,9,M,,M,,*63
06/24/2015	21:05:21.501	$GPGGA,210522,2537.1756,N,08002.6927,W,1,8,2.3,9,M,,M,,*60
06/24/2015	21:05:22.481	$GPGGA,210523,2537.1765,N,08002.6930,W,1,8,2.3,9,M,,M,,*67
06/24/2015	21:05:23.611	$GPGGA,210524,2537.1776,N,08002.6933,W,1,8,2.3,9,M,,M,,*61
06/24/2015	21:05:24.491	$GPGGA,210525,2537.1786,N,08002.6934,W,1,8,2.3,9,M,,M,,*68
06/24/2015	21:05:25.590	$GPGGA,210526,2537.1797,N,08002.6937,W,1,8,2.3,9,M,,M,,*68
06/24/2015	21:05:26.570	$GPGGA,210527,2537.1808,N,08002.6940,W,1,8,2.3,9,M,,M,,*60
06/24/2015	21:05:27.580	$GPGGA,210528,2537.1819,N,08002.6943,W,1,8,2.3,9,M,,M,,*6C
06/24/2015	21:05:28.571	$GPGGA,210529,2537.1830,N,08002.6944,W,1,8,2.3,9,M,,M,,*61
06/24/2015	21:05:29.591	$GPGGA,210530,2537.1841,N,08002.6947,W,1,8,2.3,9,M,,M,,*6C
06/24/2015	21:05:30.571	$GPGGA,210531,2537.1852,N,08002.6949,W,1,8,2.3,9,M,,M,,*61
06/24/2015	21:05:31.611	$GPGGA,210532,2537.1862,N,08002.6951,W,1,8,2.3,9,M,,M,,*68
06/24/2015	21:05:32.551	$GPGGA,210533,2537.1873,N,08002.6954,W,1,8,2.3,9,M,,M,,*6C
06/24/2015	21:05:33.581	$GPGGA,210534,2537.1883,N,08002.6956,W,1,8,2.3,9,M,,M,,*66
06/24/2015	21:05:34.561	$GPGGA,210535,2537.1895,N,08002.6959,W,1,8,2.3,9,M,,M,,*6F
06/24/2015	21:05:35.561	$GPGGA,210536,2537.1905,N,08002.6962,W,1,8,2.3,9,M,,M,,*6C
06/24/2015	21:05:36.552	$GPGGA,210537,2537.1916,N,08002.6963,W,1,8,2.3,9,M,,M,,*6E
06/24/2015	21:05:37.581	$GPGGA,210538,2537.1927,N,08002.6965,W,1,8,2.3,9,M,,M,,*65
06/24/2015	21:05:38.541	$GPGGA,210539,2537.1938,N,08002.6967,W,1,8,2.3,8,M,,M,,*69
06/24/2015	21:05:39.571	$GPGGA,210540,2537.1948,N,08002.6969,W,1,8,2.3,8,M,,M,,*6E
06/24/2015	21:05:40.531	$GPGGA,210541,2537.1959,N,08002.6973,W,1,8,2.3,8,M,,M,,*64
06/24/2015	21:05:41.531	$GPGGA,210542,2537.1970,N,08002.6974,W,1,8,2.3,8,M,,M,,*6B
06/24/2015	21:05:42.550	$GPGGA,210543,2537.1980,N,08002.6976,W,1,8,2.3,8,M,,M,,*67
06/24/2015	21:05:43.570	$GPGGA,210544,2537.1991,N,08002.6978,W,1,8,2.3,8,M,,M,,*6E
06/24/2015	21:05:44.530	$GPGGA,210545,2537.2002,N,08002.6980,W,1,8,2.3,8,M,,M,,*68
06/24/2015	21:05:45.541	$GPGGA,210546,2537.2011,N,08002.6983,W,1,8,2.3,8,M,,M,,*6A
06/24/2015	21:05:46.533	$GPGGA,210547,2537.2023,N,08002.6984,W,1,8,2.3,8,M,,M,,*6D
06/24/2015	21:05:47.551	$GPGGA,210548,2537.2034,N,08002.6987,W,1,8,2.3,8,M,,M,,*67
06/24/2015	21:05:48.521	$GPGGA,210549,2537.2045,N,08002.6990,W,1,8,2.3,8,M,,M,,*66
06/24/2015	21:05:49.551	$GPGGA,210550,2537.2054,N,08002.6991,W,1,8,2.3,8,M,,M,,*6F
06/24/2015	21:05:50.511	$GPGGA,210551,2537.2065,N,08002.6994,W,1,8,2.3,8,M,,M,,*69
06/24/2015	21:05:51.561	$GPGGA,210552,2537.2076,N,08002.6994,W,1,8,2.3,8,M,,M,,*68
06/24/2015	21:05:52.521	$GPGGA,210553,2537.2086,N,08002.6998,W,1,8,2.3,8,M,,M,,*6A
06/24/2015	21:05:53.521	$GPGGA,210554,2537.2099,N,08002.6999,W,1,8,2.3,8,M,,M,,*62
06/24/2015	21:05:54.534	$GPGGA,210555,2537.2108,N,08002.7001,W,1,8,2.3,8,M,,M,,*63
06/24/2015	21:05:55.521	$GPGGA,210556,2537.2119,N,08002.7003,W,1,8,2.3,8,M,,M,,*62
06/24/2015	21:05:56.511	$GPGGA,210557,2537.2130,N,08002.7005,W,1,8,2.3,8,M,,M,,*6E
06/24/2015	21:05:57.636	$GPGGA,210558,2537.2141,N,08002.7009,W,1,8,2.3,8,M,,M,,*6B
06/24/2015	21:05:58.491	$GPGGA,210559,2537.2152,N,08002.7010,W,1,8,2.3,8,M,,M,,*60
06/24/2015	21:05:59.511	$GPGGA,210600,2537.2162,N,08002.7012,W,1,8,2.3,8,M,,M,,*6E
06/24/2015	21:06:00.490	$GPGGA,210601,2537.2173,N,08002.7016,W,1,8,2.3,8,M,,M,,*6B
06/24/2015	21:06:01.490	$GPGGA,210602,2537.2184,N,08002.7017,W,1,8,2.3,8,M,,M,,*61
06/24/2015	21:06:02.610	$GPGGA,210603,2537.2195,N,08002.7019,W,1,8,2.3,8,M,,M,,*6E
06/24/2015	21:06:03.511	$GPGGA,210604,2537.2206,N,08002.7021,W,1,8,2.3,8,M,,M,,*6B
06/24/2015	21:06:04.582	$GPGGA,210605,2537.2216,N,08002.7023,W,1,8,2.3,8,M,,M,,*69
06/24/2015	21:06:05.591	$GPGGA,210606,2537.2227,N,08002.7024,W,1,8,2.3,8,M,,M,,*6F
06/24/2015	21:06:06.491	$GPGGA,210607,2537.2238,N,08002.7027,W,1,8,2.3,8,M,,M,,*63
06/24/2015	21:06:07.591	$GPGGA,210608,2537.2249,N,08002.7028,W,1,8,2.3,8,M,,M,,*65
06/24/2015	21:06:08.601	$GPGGA,210609,2537.2260,N,08002.7030,W,1,8,2.3,8,M,,M,,*66
06/24/2015	21:06:09.481	$GPGGA,210610,2537.2271,N,08002.7032,W,1,8,2.3,8,M,,M,,*6C
06/24/2015	21:06:10.591	$GPGGA,210611,2537.2281,N,08002.7034,W,1,8,2.3,8,M,,M,,*64
06/24/2015	21:06:11.581	$GPGGA,210612,2537.2292,N,08002.7037,W,1,8,2.3,8,M,,M,,*66
06/24/2015	21:06:12.491	$GPGGA,210613,2537.2303,N,08002.7038,W,1,8,2.3,8,M,,M,,*61
06/24/2015	21:06:13.601	$GPGGA,210614,2537.2314,N,08002.7041,W,1,8,2.3,8,M,,M,,*6E
06/24/2015	21:06:14.581	$GPGGA,210615,2537.2325,N,08002.7042,W,1,8,2.3,8,M,,M,,*6E
06/24/2015	21:06:15.581	$GPGGA,210616,2537.2335,N,08002.7045,W,1,8,2.3,8,M,,M,,*6B
06/24/2015	21:06:16.471	$GPGGA,210617,2537.2346,N,08002.7048,W,1,8,2.3,8,M,,M,,*63
06/24/2015	21:06:17.560	$GPGGA,210618,2537.2356,N,08002.7048,W,1,8,2.3,8,M,,M,,*6D
06/24/2015	21:06:18.560	$GPGGA,210619,2537.2367,N,08002.7050,W,1,8,2.3,8,M,,M,,*67
06/24/2015	21:06:20.053	$GPGGA,210620,2537.2376,N,08002.7052,W,1,8,2.3,8,M,,M,,*6F
06/24/2015	21:06:20.561	$GPGGA,210621,2537.2388,N,08002.7055,W,1,8,2.3,8,M,,M,,*68
06/24/2015	21:06:21.561	$GPGGA,210622,2537.2399,N,08002.7056,W,1,8,2.3,8,M,,M,,*68
06/24/2015	21:06:22.561	$GPGGA,210623,2537.2408,N,08002.7059,W,1,8,2.3,8,M,,M,,*69
06/24/2015	21:06:23.581	$GPGGA,210624,2537.2419,N,08002.7060,W,1,8,2.3,8,M,,M,,*64
06/24/2015	21:06:24.551	$GPGGA,210625,2537.2430,N,08002.7063,W,1,8,2.3,8,M,,M,,*6D
06/24/2015	21:06:25.571	$GPGGA,210626,2537.2441,N,08002.7063,W,1,8,2.3,8,M,,M,,*68
06/24/2015	21:06:26.541	$GPGGA,210627,2537.2451,N,08002.7066,W,1,8,2.3,8,M,,M,,*6D
06/24/2015	21:06:27.542	$GPGGA,210628,2537.2462,N,08002.7067,W,1,8,2.3,8,M,,M,,*63
06/24/2015	21:06:28.541	$GPGGA,210629,2537.2473,N,08002.7070,W,1,8,2.3,8,M,,M,,*64
06/24/2015	21:06:29.551	$GPGGA,210630,2537.2484,N,08002.7070,W,1,8,2.3,8,M,,M,,*64
06/24/2015	21:06:30.544	$GPGGA,210631,2537.2495,N,08002.7072,W,1,8,2.3,8,M,,M,,*67
06/24/2015	21:06:31.571	$GPGGA,210632,2537.2505,N,08002.7074,W,1,8,2.3,8,M,,M,,*6A
06/24/2015	21:06:32.545	$GPGGA,210633,2537.2516,N,08002.7077,W,1,8,2.3,8,M,,M,,*6A
06/24/2015	21:06:33.551	$GPGGA,210634,2537.2527,N,08002.7078,W,1,8,2.3,8,M,,M,,*60
06/24/2015	21:06:34.521	$GPGGA,210635,2537.2538,N,08002.7081,W,1,8,2.3,8,M,,M,,*69
06/24/2015	21:06:35.531	$GPGGA,210636,2537.2549,N,08002.7084,W,1,8,2.3,8,M,,M,,*69
06/24/2015	21:06:36.537	$GPGGA,210637,2537.2560,N,08002.7085,W,1,8,2.3,8,M,,M,,*62
06/24/2015	21:06:37.544	$GPGGA,210638,2537.2570,N,08002.7086,W,1,8,2.3,8,M,,M,,*6F
06/24/2015	21:06:38.511	$GPGGA,210639,2537.2581,N,08002.7088,W,1,8,2.3,8,M,,M,,*6E
06/24/2015	21:06:39.521	$GPGGA,210640,2537.2592,N,08002.7090,W,1,8,2.3,8,M,,M,,*6B
06/24/2015	21:06:40.511	$GPGGA,210641,2537.2603,N,08002.7092,W,1,8,2.3,8,M,,M,,*63
06/24/2015	21:06:41.501	$GPGGA,210642,2537.2614,N,08002.7093,W,1,8,2.3,8,M,,M,,*67
06/24/2015	21:06:42.521	$GPGGA,210643,2537.2625,N,08002.7095,W,1,8,2.3,8,M,,M,,*62
06/24/2015	21:06:43.551	$GPGGA,210644,2537.2635,N,08002.7096,W,1,8,2.3,8,M,,M,,*67
06/24/2015	21:06:44.521	$GPGGA,210645,2537.2646,N,08002.7099,W,1,8,2.3,8,M,,M,,*6D
06/24/2015	21:06:45.531	$GPGGA,210646,2537.2657,N,08002.7099,W,1,8,2.3,8,M,,M,,*6E
06/24/2015	21:06:46.501	$GPGGA,210647,2537.2668,N,08002.7100,W,1,8,2.3,8,M,,M,,*62
06/24/2015	21:06:47.532	$GPGGA,210648,2537.2679,N,08002.7103,W,1,8,2.3,8,M,,M,,*6E
06/24/2015	21:06:48.511	$GPGGA,210649,2537.2690,N,08002.7106,W,1,8,2.3,8,M,,M,,*6D
06/24/2015	21:06:49.511	$GPGGA,210650,2537.2701,N,08002.7107,W,1,8,2.3,8,M,,M,,*6D
06/24/2015	21:06:50.511	$GPGGA,210651,2537.2711,N,08002.7110,W,1,8,2.3,8,M,,M,,*6B
06/24/2015	21:06:51.681	$GPGGA,210652,2537.2722,N,08002.7111,W,1,8,2.3,8,M,,M,,*69
06/24/2015	21:06:52.490	$GPGGA,210653,2537.2733,N,08002.7114,W,1,8,2.3,8,M,,M,,*6D
06/24/2015	21:06:53.480	$GPGGA,210654,2537.2746,N,08002.7118,W,1,8,2.3,8,M,,M,,*64
06/24/2015	21:06:54.580	$GPGGA,210655,2537.2757,N,08002.7121,W,1,8,2.3,8,M,,M,,*6F
06/24/2015	21:06:55.691	$GPGGA,210656,2537.2768,N,08002.7125,W,1,8,2.3,8,M,,M,,*64
06/24/2015	21:06:56.501	$GPGGA,210657,2537.2780,N,08002.7128,W,1,8,2.3,8,M,,M,,*6E
06/24/2015	21:06:57.681	$GPGGA,210658,2537.2790,N,08002.7132,W,1,8,2.3,8,M,,M,,*6B
06/24/2015	21:06:58.491	$GPGGA,210659,2537.2802,N,08002.7135,W,1,8,2.3,8,M,,M,,*69
06/24/2015	21:06:59.681	$GPGGA,210700,2537.2813,N,08002.7139,W,1,8,2.3,8,M,,M,,*68
06/24/2015	21:07:00.491	$GPGGA,210701,2537.2823,N,08002.7142,W,1,8,2.3,8,M,,M,,*66
06/24/2015	21:07:01.651	$GPGGA,210702,2537.2834,N,08002.7144,W,1,8,2.3,9,M,,M,,*64
06/24/2015	21:07:02.611	$GPGGA,210703,2537.2845,N,08002.7147,W,1,8,2.3,9,M,,M,,*60
06/24/2015	21:07:03.681	$GPGGA,210704,2537.2856,N,08002.7150,W,1,8,2.3,9,M,,M,,*63
06/24/2015	21:07:04.561	$GPGGA,210705,2537.2867,N,08002.7153,W,1,8,2.3,9,M,,M,,*63
06/24/2015	21:07:05.651	$GPGGA,210706,2537.2878,N,08002.7157,W,1,8,2.3,9,M,,M,,*6A
06/24/2015	21:07:06.581	$GPGGA,210707,2537.2889,N,08002.7160,W,1,8,2.3,9,M,,M,,*61
06/24/2015	21:07:07.671	$GPGGA,210708,2537.2901,N,08002.7162,W,1,8,2.3,9,M,,M,,*6D
06/24/2015	21:07:08.551	$GPGGA,210709,2537.2912,N,08002.7165,W,1,8,2.3,9,M,,M,,*69
06/24/2015	21:07:09.671	$GPGGA,210710,2537.2923,N,08002.7168,W,1,8,2.3,9,M,,M,,*6E
06/24/2015	21:07:10.540	$GPGGA,210711,2537.2935,N,08002.7171,W,1,8,2.3,9,M,,M,,*60
06/24/2015	21:07:11.670	$GPGGA,210712,2537.2946,N,08002.7173,W,1,8,2.3,9,M,,M,,*65
06/24/2015	21:07:12.610	$GPGGA,210713,2537.2957,N,08002.7176,W,1,8,2.3,9,M,,M,,*61
06/24/2015	21:07:13.651	$GPGGA,210714,2537.2968,N,08002.7179,W,1,8,2.3,9,M,,M,,*65
06/24/2015	21:07:14.541	$GPGGA,210715,2537.2979,N,08002.7182,W,1,8,2.3,9,M,,M,,*60
06/24/2015	21:07:15.671	$GPGGA,210716,2537.2990,N,08002.7184,W,1,8,2.3,9,M,,M,,*62
06/24/2015	21:07:16.533	$GPGGA,210717,2537.3000,N,08002.7187,W,1,8,2.3,9,M,,M,,*61
06/24/2015	21:07:17.531	$GPGGA,210718,2537.3013,N,08002.7190,W,1,8,2.3,9,M,,M,,*6A
06/24/2015	21:07:18.561	$GPGGA,210719,2537.3024,N,08002.7193,W,1,8,2.3,9,M,,M,,*6C
06/24/2015	21:07:19.644	$GPGGA,210720,2537.3035,N,08002.7196,W,1,8,2.3,9,M,,M,,*63
06/24/2015	21:07:20.561	$GPGGA,210721,2537.3046,N,08002.7198,W,1,8,2.3,9,M,,M,,*68
06/24/2015	21:07:21.641	$GPGGA,210722,2537.3058,N,08002.7200,W,1,8,2.3,9,M,,M,,*66
06/24/2015	21:07:22.551	$GPGGA,210723,2537.3069,N,08002.7204,W,1,8,2.3,9,M,,M,,*61
06/24/2015	21:07:23.651	$GPGGA,210724,2537.3080,N,08002.7205,W,1,8,2.3,9,M,,M,,*60
06/24/2015	21:07:24.551	$GPGGA,210725,2537.3090,N,08002.7208,W,1,8,2.3,9,M,,M,,*6D
06/24/2015	21:07:25.581	$GPGGA,210726,2537.3101,N,08002.7211,W,1,8,2.3,9,M,,M,,*6F
06/24/2015	21:07:26.551	$GPGGA,210727,2537.3112,N,08002.7212,W,1,8,2.3,9,M,,M,,*6F
06/24/2015	21:07:27.650	$GPGGA,210728,2537.3123,N,08002.7215,W,1,8,2.3,9,M,,M,,*65
06/24/2015	21:07:28.550	$GPGGA,210729,2537.3134,N,08002.7218,W,1,8,2.3,9,M,,M,,*6F
06/24/2015	21:07:29.580	$GPGGA,210730,2537.3145,N,08002.7219,W,1,8,2.3,9,M,,M,,*60
06/24/2015	21:07:30.533	$GPGGA,210731,2537.3156,N,08002.7222,W,1,8,2.3,9,M,,M,,*6B
06/24/2015	21:07:31.621	$GPGGA,210732,2537.3167,N,08002.7225,W,1,8,2.3,9,M,,M,,*6D
06/24/2015	21:07:32.501	$GPGGA,210733,2537.3177,N,08002.7226,W,1,8,2.3,9,M,,M,,*6E
06/24/2015	21:07:33.581	$GPGGA,210734,2537.3190,N,08002.7229,W,1,8,2.3,9,M,,M,,*6F
06/24/2015	21:07:34.591	$GPGGA,210735,2537.3201,N,08002.7232,W,1,8,2.3,9,M,,M,,*6F
06/24/2015	21:07:35.601	$GPGGA,210736,2537.3212,N,08002.7233,W,1,8,2.3,9,M,,M,,*6F
06/24/2015	21:07:36.534	$GPGGA,210737,2537.3223,N,08002.7236,W,1,8,2.3,9,M,,M,,*69
06/24/2015	21:07:37.571	$GPGGA,210738,2537.3234,N,08002.7240,W,1,8,2.3,9,M,,M,,*61
06/24/2015	21:07:38.591	$GPGGA,210739,2537.3245,N,08002.7243,W,1,8,2.3,9,M,,M,,*65
06/24/2015	21:07:39.601	$GPGGA,210740,2537.3256,N,08002.7244,W,1,8,2.3,9,M,,M,,*6E
06/24/2015	21:07:40.521	$GPGGA,210741,2537.3267,N,08002.7247,W,1,8,2.3,9,M,,M,,*6E
06/24/2015	21:07:41.481	$GPGGA,210742,2537.3279,N,08002.7249,W,1,8,2.3,9,M,,M,,*6C
06/24/2015	21:07:42.511	$GPGGA,210743,2537.3289,N,08002.7252,W,1,8,2.3,9,M,,M,,*68
06/24/2015	21:07:43.491	$GPGGA,210744,2537.3300,N,08002.7255,W,1,8,2.3,9,M,,M,,*68
06/24/2015	21:07:44.511	$GPGGA,210745,2537.3313,N,08002.7259,W,1,8,2.3,9,M,,M,,*67
06/24/2015	21:07:45.580	$GPGGA,210746,2537.3324,N,08002.7262,W,1,8,2.3,9,M,,M,,*68
06/24/2015	21:07:46.530	$GPGGA,210747,2537.3335,N,08002.7265,W,1,8,2.3,9,M,,M,,*6E
06/24/2015	21:07:47.630	$GPGGA,210748,2537.3347,N,08002.7269,W,1,8,2.3,9,M,,M,,*68
06/24/2015	21:07:48.571	$GPGGA,210749,2537.3358,N,08002.7272,W,1,8,2.3,9,M,,M,,*6D
06/24/2015	21:07:49.581	$GPGGA,210750,2537.3369,N,08002.7274,W,1,8,2.3,9,M,,M,,*61
06/24/2015	21:07:50.561	$GPGGA,210751,2537.3380,N,08002.7279,W,1,8,2.3,9,M,,M,,*6A
06/24/2015	21:07:51.591	$GPGGA,210752,2537.3391,N,08002.7281,W,1,8,2.5,9,M,,M,,*68
06/24/2015	21:07:52.561	$GPGGA,210753,2537.3404,N,08002.7283,W,1,8,2.3,9,M,,M,,*66
06/24/2015	21:07:54.581	$GPGGA,210755,2537.3426,N,08002.7290,W,1,8,2.3,9,M,,M,,*62
06/24/2015	21:07:55.601	$GPGGA,210756,2537.3437,N,08002.7292,W,1,8,2.3,9,M,,M,,*63
06/24/2015	21:07:56.553	$GPGGA,210757,2537.3448,N,08002.7294,W,1,8,2.3,9,M,,M,,*6C
06/24/2015	21:07:57.621	$GPGGA,210758,2537.3459,N,08002.7298,W,1,8,2.3,10,M,,M,,*57
06/24/2015	21:07:58.551	$GPGGA,210759,2537.3470,N,08002.7301,W,1,8,2.3,10,M,,M,,*5C
06/24/2015	21:07:59.641	$GPGGA,210800,2537.3481,N,08002.7305,W,1,8,2.3,10,M,,M,,*55
06/24/2015	21:08:00.552	$GPGGA,210801,2537.3492,N,08002.7306,W,1,8,2.3,10,M,,M,,*55
06/24/2015	21:08:01.571	$GPGGA,210802,2537.3503,N,08002.7309,W,1,8,2.3,10,M,,M,,*50
06/24/2015	21:08:02.560	$GPGGA,210803,2537.3514,N,08002.7312,W,1,8,2.3,10,M,,M,,*5D
06/24/2015	21:08:03.610	$GPGGA,210804,2537.3527,N,08002.7314,W,1,8,2.3,10,M,,M,,*5C
06/24/2015	21:08:04.542	$GPGGA,210805,2537.3538,N,08002.7317,W,1,8,2.3,10,M,,M,,*50
06/24/2015	21:08:05.561	$GPGGA,210806,2537.3549,N,08002.7319,W,1,8,2.3,11,M,,M,,*5A
06/24/2015	21:08:06.548	$GPGGA,210807,2537.3560,N,08002.7323,W,1,8,2.3,11,M,,M,,*59
06/24/2015	21:08:07.611	$GPGGA,210808,2537.3571,N,08002.7324,W,1,8,2.3,11,M,,M,,*51
06/24/2015	21:08:08.542	$GPGGA,210809,2537.3582,N,08002.7327,W,1,8,2.3,11,M,,M,,*5F
06/24/2015	21:08:09.571	$GPGGA,210810,2537.3593,N,08002.7330,W,1,8,2.3,11,M,,M,,*51
06/24/2015	21:08:10.532	$GPGGA,210811,2537.3604,N,08002.7334,W,1,8,2.3,11,M,,M,,*59
06/24/2015	21:08:11.571	$GPGGA,210812,2537.3604,N,08002.7334,W,1,8,2.3,11,M,,M,,*5A
06/24/2015	21:08:12.543	$GPGGA,210813,2537.3628,N,08002.7338,W,1,8,2.3,11,M,,M,,*59
06/24/2015	21:08:13.561	$GPGGA,210814,2537.3639,N,08002.7341,W,1,8,2.3,12,M,,M,,*53
06/24/2015	21:08:14.531	$GPGGA,210815,2537.3650,N,08002.7345,W,1,8,2.3,12,M,,M,,*59
06/24/2015	21:08:15.591	$GPGGA,210816,2537.3661,N,08002.7344,W,1,8,1.9,12,M,,M,,*50
06/24/2015	21:08:16.532	$GPGGA,210817,2537.3674,N,08002.7345,W,1,8,1.9,12,M,,M,,*54
06/24/2015	21:08:17.521	$GPGGA,210818,2537.3674,N,08002.7345,W,1,8,1.9,12,M,,M,,*5B
06/24/2015	21:08:18.511	$GPGGA,210819,2537.3686,N,08002.7346,W,1,8,1.9,12,M,,M,,*54
06/24/2015	21:08:19.521	$GPGGA,210820,2537.3698,N,08002.7346,W,1,8,1.9,12,M,,M,,*51
06/24/2015	21:08:20.510	$GPGGA,210821,2537.3721,N,08002.7348,W,1,8,1.9,13,M,,M,,*5C
06/24/2015	21:08:21.510	$GPGGA,210822,2537.3721,N,08002.7348,W,1,8,1.9,13,M,,M,,*5F
06/24/2015	21:08:22.590	$GPGGA,210823,2537.3744,N,08002.7350,W,1,8,1.9,13,M,,M,,*54
06/24/2015	21:08:23.544	$GPGGA,210824,2537.3744,N,08002.7350,W,1,8,1.9,13,M,,M,,*53
06/24/2015	21:08:24.511	$GPGGA,210825,2537.3755,N,08002.7352,W,1,8,1.9,14,M,,M,,*57
06/24/2015	21:08:25.621	$GPGGA,210826,2537.3766,N,08002.7353,W,1,8,1.9,14,M,,M,,*55
06/24/2015	21:08:26.511	$GPGGA,210827,2537.3790,N,08002.7357,W,1,8,1.9,14,M,,M,,*59
06/24/2015	21:08:27.534	$GPGGA,210828,2537.3801,N,08002.7359,W,1,8,1.9,14,M,,M,,*5F
06/24/2015	21:08:28.501	$GPGGA,210829,2537.3812,N,08002.7360,W,1,8,1.9,15,M,,M,,*57
06/24/2015	21:08:29.581	$GPGGA,210830,2537.3824,N,08002.7363,W,1,7,2.0,15,M,,M,,*5C
06/24/2015	21:08:30.491	$GPGGA,210831,2537.3835,N,08002.7366,W,1,7,1.9,15,M,,M,,*52
06/24/2015	21:08:31.547	$GPGGA,210832,2537.3835,N,08002.7366,W,1,8,1.9,15,M,,M,,*5E
06/24/2015	21:08:32.571	$GPGGA,210833,2537.3859,N,08002.7367,W,1,8,2.1,16,M,,M,,*5C
06/24/2015	21:08:33.481	$GPGGA,210834,2537.3859,N,08002.7367,W,1,7,2.1,16,M,,M,,*54
06/24/2015	21:08:34.491	$GPGGA,210835,2537.3880,N,08002.7373,W,1,7,2.1,16,M,,M,,*54
06/24/2015	21:08:35.601	$GPGGA,210836,2537.3891,N,08002.7374,W,1,7,2.1,16,M,,M,,*50
06/24/2015	21:08:36.561	$GPGGA,210837,2537.3902,N,08002.7375,W,1,7,2.1,16,M,,M,,*5B
06/24/2015	21:08:37.600	$GPGGA,210838,2537.3913,N,08002.7377,W,1,8,2.1,17,M,,M,,*58
06/24/2015	21:08:38.560	$GPGGA,210839,2537.3922,N,08002.7381,W,1,8,2.1,17,M,,M,,*52
06/24/2015	21:08:39.610	$GPGGA,210840,2537.3932,N,08002.7382,W,1,9,1.9,17,M,,M,,*54
06/24/2015	21:08:40.554	$GPGGA,210841,2537.3943,N,08002.7384,W,1,9,2.1,17,M,,M,,*5E
06/24/2015	21:08:41.591	$GPGGA,210842,2537.3956,N,08002.7384,W,1,9,1.9,17,M,,M,,*52
06/24/2015	21:08:42.549	$GPGGA,210843,2537.3967,N,08002.7388,W,1,9,1.9,18,M,,M,,*52
06/24/2015	21:08:43.591	$GPGGA,210844,2537.3978,N,08002.7389,W,1,8,2.1,18,M,,M,,*50
06/24/2015	21:08:44.545	$GPGGA,210845,2537.3987,N,08002.7392,W,1,8,1.9,18,M,,M,,*50
06/24/2015	21:08:45.571	$GPGGA,210846,2537.3997,N,08002.7395,W,1,9,1.9,18,M,,M,,*54
06/24/2015	21:08:46.548	$GPGGA,210847,2537.4010,N,08002.7397,W,1,9,2.3,18,M,,M,,*5F
06/24/2015	21:08:47.581	$GPGGA,210848,2537.4021,N,08002.7399,W,1,9,1.9,18,M,,M,,*55
06/24/2015	21:08:48.548	$GPGGA,210849,2537.4033,N,08002.7400,W,1,9,1.9,19,M,,M,,*51
06/24/2015	21:08:49.546	$GPGGA,210850,2537.4044,N,08002.7402,W,1,9,1.9,19,M,,M,,*5B
06/24/2015	21:08:50.550	$GPGGA,210851,2537.4057,N,08002.7402,W,1,9,1.9,19,M,,M,,*58
06/24/2015	21:08:51.571	$GPGGA,210852,2537.4068,N,08002.7403,W,1,9,1.9,19,M,,M,,*56
06/24/2015	21:08:52.544	$GPGGA,210853,2537.4080,N,08002.7404,W,1,9,1.9,19,M,,M,,*56
06/24/2015	21:08:53.561	$GPGGA,210854,2537.4091,N,08002.7406,W,1,9,1.9,19,M,,M,,*53
06/24/2015	21:08:54.536	$GPGGA,210855,2537.4102,N,08002.7408,W,1,9,1.9,19,M,,M,,*57
06/24/2015	21:08:55.570	$GPGGA,210856,2537.4113,N,08002.7410,W,1,9,1.9,20,M,,M,,*57
06/24/2015	21:08:56.538	$GPGGA,210857,2537.4126,N,08002.7411,W,1,9,1.9,20,M,,M,,*51
06/24/2015	21:08:57.534	$GPGGA,210858,2537.4137,N,08002.7413,W,1,9,1.9,20,M,,M,,*5C
06/24/2015	21:08:58.512	$GPGGA,210859,2537.4149,N,08002.7415,W,1,9,1.9,20,M,,M,,*52
06/24/2015	21:08:59.591	$GPGGA,210900,2537.4160,N,08002.7417,W,1,9,1.9,20,M,,M,,*56
06/24/2015	21:09:00.535	$GPGGA,210901,2537.4171,N,08002.7421,W,1,9,1.9,20,M,,M,,*52
06/24/2015	21:09:01.561	$GPGGA,210902,2537.4182,N,08002.7424,W,1,9,1.9,20,M,,M,,*58
06/24/2015	21:09:02.511	$GPGGA,210903,2537.4195,N,08002.7422,W,1,9,2.2,20,M,,M,,*51
06/24/2015	21:09:03.535	$GPGGA,210904,2537.4206,N,08002.7424,W,1,9,1.9,20,M,,M,,*51
06/24/2015	21:09:04.521	$GPGGA,210905,2537.4217,N,08002.7428,W,1,9,1.9,20,M,,M,,*5C
06/24/2015	21:09:05.545	$GPGGA,210906,2537.4229,N,08002.7429,W,1,9,1.9,20,M,,M,,*53
06/24/2015	21:09:06.521	$GPGGA,210907,2537.4240,N,08002.7431,W,1,9,1.9,20,M,,M,,*54
06/24/2015	21:09:07.621	$GPGGA,210908,2537.4250,N,08002.7435,W,1,9,1.9,20,M,,M,,*5E
06/24/2015	21:09:08.601	$GPGGA,210909,2537.4263,N,08002.7435,W,1,9,1.9,20,M,,M,,*5F
06/24/2015	21:09:09.511	$GPGGA,210910,2537.4274,N,08002.7438,W,1,9,1.9,20,M,,M,,*5C
06/24/2015	21:09:10.501	$GPGGA,210911,2537.4286,N,08002.7440,W,1,9,1.9,20,M,,M,,*5F
06/24/2015	21:09:11.533	$GPGGA,210912,2537.4297,N,08002.7442,W,1,9,1.9,20,M,,M,,*5E
06/24/2015	21:09:12.490	$GPGGA,210913,2537.4308,N,08002.7444,W,1,9,1.9,20,M,,M,,*5E
06/24/2015	21:09:13.490	$GPGGA,210914,2537.4319,N,08002.7446,W,1,9,1.9,20,M,,M,,*5B
06/24/2015	21:09:14.590	$GPGGA,210915,2537.4330,N,08002.7449,W,1,9,1.9,20,M,,M,,*5E
06/24/2015	21:09:15.601	$GPGGA,210916,2537.4341,N,08002.7453,W,1,9,1.9,20,M,,M,,*50
06/24/2015	21:09:16.581	$GPGGA,210917,2537.4352,N,08002.7453,W,1,9,1.9,20,M,,M,,*53
06/24/2015	21:09:17.581	$GPGGA,210918,2537.4363,N,08002.7457,W,1,9,1.9,20,M,,M,,*5A
06/24/2015	21:09:18.591	$GPGGA,210919,2537.4375,N,08002.7460,W,1,9,2.2,20,M,,M,,*50
06/24/2015	21:09:19.491	$GPGGA,210920,2537.4387,N,08002.7460,W,1,9,1.9,20,M,,M,,*5F
06/24/2015	21:09:20.571	$GPGGA,210921,2537.4398,N,08002.7461,W,1,9,1.9,20,M,,M,,*51
06/24/2015	21:09:21.581	$GPGGA,210922,2537.4409,N,08002.7462,W,1,9,1.9,20,M,,M,,*5E
06/24/2015	21:09:22.581	$GPGGA,210923,2537.4422,N,08002.7464,W,1,9,1.9,20,M,,M,,*50
06/24/2015	21:09:23.601	$GPGGA,210924,2537.4433,N,08002.7464,W,1,9,1.9,20,M,,M,,*57
06/24/2015	21:09:24.561	$GPGGA,210925,2537.4445,N,08002.7465,W,1,9,1.9,20,M,,M,,*56
06/24/2015	21:09:25.591	$GPGGA,210926,2537.4456,N,08002.7467,W,1,9,1.9,20,M,,M,,*55
06/24/2015	21:09:26.561	$GPGGA,210927,2537.4467,N,08002.7468,W,1,9,1.9,20,M,,M,,*59
06/24/2015	21:09:27.591	$GPGGA,210928,2537.4478,N,08002.7469,W,1,9,1.9,20,M,,M,,*59
06/24/2015	21:09:28.561	$GPGGA,210929,2537.4489,N,08002.7471,W,1,9,1.9,20,M,,M,,*5F
06/24/2015	21:09:29.581	$GPGGA,210930,2537.4500,N,08002.7473,W,1,9,1.9,20,M,,M,,*55
06/24/2015	21:09:30.560	$GPGGA,210931,2537.4513,N,08002.7475,W,1,9,1.9,20,M,,M,,*50
06/24/2015	21:09:31.590	$GPGGA,210932,2537.4524,N,08002.7476,W,1,9,1.9,20,M,,M,,*54
06/24/2015	21:09:32.540	$GPGGA,210933,2537.4535,N,08002.7478,W,1,9,1.9,19,M,,M,,*51
06/24/2015	21:09:33.571	$GPGGA,210934,2537.4547,N,08002.7478,W,1,9,1.9,19,M,,M,,*53
06/24/2015	21:09:34.551	$GPGGA,210935,2537.4557,N,08002.7479,W,1,9,1.9,19,M,,M,,*52
06/24/2015	21:09:35.561	$GPGGA,210936,2537.4568,N,08002.7482,W,1,9,1.9,19,M,,M,,*59
06/24/2015	21:09:36.541	$GPGGA,210937,2537.4579,N,08002.7483,W,1,9,1.9,19,M,,M,,*59
06/24/2015	21:09:37.531	$GPGGA,210938,2537.4590,N,08002.7486,W,1,9,1.9,19,M,,M,,*54
06/24/2015	21:09:38.541	$GPGGA,210939,2537.4601,N,08002.7486,W,1,9,1.9,19,M,,M,,*5E
06/24/2015	21:09:39.561	$GPGGA,210940,2537.4612,N,08002.7489,W,1,9,1.9,19,M,,M,,*5D
06/24/2015	21:09:40.541	$GPGGA,210941,2537.4623,N,08002.7490,W,1,9,1.9,19,M,,M,,*56
06/24/2015	21:09:41.561	$GPGGA,210942,2537.4635,N,08002.7493,W,1,9,1.9,19,M,,M,,*51
06/24/2015	21:09:42.531	$GPGGA,210943,2537.4646,N,08002.7492,W,1,9,2.2,19,M,,M,,*5D
06/24/2015	21:09:43.581	$GPGGA,210944,2537.4658,N,08002.7493,W,1,9,1.9,19,M,,M,,*5C
06/24/2015	21:09:44.541	$GPGGA,210945,2537.4669,N,08002.7493,W,1,9,1.9,19,M,,M,,*5F
06/24/2015	21:09:45.521	$GPGGA,210946,2537.4680,N,08002.7496,W,1,9,1.9,19,M,,M,,*5E
06/24/2015	21:09:46.511	$GPGGA,210947,2537.4691,N,08002.7496,W,1,9,1.9,19,M,,M,,*5F
06/24/2015	21:09:47.548	$GPGGA,210948,2537.4702,N,08002.7500,W,1,9,1.9,19,M,,M,,*55
06/24/2015	21:09:48.533	$GPGGA,210949,2537.4713,N,08002.7496,W,1,9,2.2,19,M,,M,,*52
06/24/2015	21:09:49.550	$GPGGA,210950,2537.4724,N,08002.7498,W,1,9,1.9,19,M,,M,,*58
06/24/2015	21:09:50.633	$GPGGA,210951,2537.4737,N,08002.7500,W,1,9,1.9,19,M,,M,,*5B
06/24/2015	21:09:51.521	$GPGGA,210952,2537.4747,N,08002.7503,W,1,9,1.9,19,M,,M,,*5C
06/24/2015	21:09:52.501	$GPGGA,210953,2537.4758,N,08002.7504,W,1,9,2.1,19,M,,M,,*5F
06/24/2015	21:09:53.511	$GPGGA,210954,2537.4769,N,08002.7505,W,1,9,1.9,19,M,,M,,*50
06/24/2015	21:09:54.621	$GPGGA,210955,2537.4780,N,08002.7508,W,1,9,1.9,19,M,,M,,*5B
06/24/2015	21:09:55.551	$GPGGA,210956,2537.4791,N,08002.7509,W,1,9,1.9,19,M,,M,,*59
06/24/2015	21:09:56.511	$GPGGA,210957,2537.4803,N,08002.7511,W,1,9,1.9,19,M,,M,,*55
06/24/2015	21:09:57.591	$GPGGA,210958,2537.4814,N,08002.7514,W,1,9,1.9,19,M,,M,,*59
06/24/2015	21:09:58.511	$GPGGA,210959,2537.4825,N,08002.7514,W,1,9,1.9,19,M,,M,,*5A
06/24/2015	21:09:59.541	$GPGGA,211000,2537.4836,N,08002.7516,W,1,9,1.9,19,M,,M,,*5E
06/24/2015	21:10:00.501	$GPGGA,211001,2537.4847,N,08002.7518,W,1,9,1.9,19,M,,M,,*57
06/24/2015	21:10:01.581	$GPGGA,211002,2537.4859,N,08002.7519,W,1,9,1.9,19,M,,M,,*5A
06/24/2015	21:10:02.501	$GPGGA,211003,2537.4870,N,08002.7520,W,1,9,1.9,19,M,,M,,*5A
06/24/2015	21:10:03.591	$GPGGA,211004,2537.4881,N,08002.7522,W,1,9,1.9,19,M,,M,,*51
06/24/2015	21:10:04.870	$GPGGA,211005,2537.4892,N,08002.7523,W,1,9,1.9,19,M,,M,,*53
06/24/2015	21:10:05.480	$GPGGA,211006,2537.4903,N,08002.7523,W,1,9,1.9,19,M,,M,,*59
06/24/2015	21:10:06.570	$GPGGA,211007,2537.4914,N,08002.7525,W,1,9,1.9,19,M,,M,,*58
06/24/2015	21:10:07.580	$GPGGA,211008,2537.4925,N,08002.7526,W,1,9,1.9,19,M,,M,,*56
06/24/2015	21:10:08.591	$GPGGA,211009,2537.4937,N,08002.7527,W,1,9,1.9,19,M,,M,,*55
06/24/2015	21:10:09.591	$GPGGA,211010,2537.4947,N,08002.7529,W,1,9,1.9,19,M,,M,,*54
06/24/2015	21:10:10.561	$GPGGA,211011,2537.4958,N,08002.7532,W,1,9,1.9,18,M,,M,,*50
06/24/2015	21:10:11.571	$GPGGA,211012,2537.4969,N,08002.7533,W,1,8,2.2,18,M,,M,,*59
06/24/2015	21:10:12.571	$GPGGA,211013,2537.4979,N,08002.7536,W,1,8,2.2,18,M,,M,,*5C
06/24/2015	21:10:13.581	$GPGGA,211014,2537.4990,N,08002.7538,W,1,8,2.2,18,M,,M,,*52
06/24/2015	21:10:14.561	$GPGGA,211015,2537.5002,N,08002.7540,W,1,8,2.2,18,M,,M,,*5F
06/24/2015	21:10:15.571	$GPGGA,211016,2537.5012,N,08002.7541,W,1,8,2.2,18,M,,M,,*5C
06/24/2015	21:10:16.551	$GPGGA,211017,2537.5023,N,08002.7543,W,1,8,2.2,18,M,,M,,*5D
06/24/2015	21:10:17.581	$GPGGA,211018,2537.5034,N,08002.7545,W,1,8,2.2,18,M,,M,,*52
06/24/2015	21:10:18.551	$GPGGA,211019,2537.5045,N,08002.7547,W,1,8,2.2,18,M,,M,,*57
06/24/2015	21:10:19.581	$GPGGA,211020,2537.5056,N,08002.7548,W,1,8,2.2,17,M,,M,,*5F
06/24/2015	21:10:20.561	$GPGGA,211021,2537.5067,N,08002.7550,W,1,8,2.2,17,M,,M,,*55
06/24/2015	21:10:21.541	$GPGGA,211022,2537.5078,N,08002.7551,W,1,8,2.2,17,M,,M,,*59
06/24/2015	21:10:22.550	$GPGGA,211023,2537.5089,N,08002.7552,W,1,8,2.2,17,M,,M,,*55
06/24/2015	21:10:23.580	$GPGGA,211024,2537.5099,N,08002.7554,W,1,8,2.2,17,M,,M,,*55
06/24/2015	21:10:24.541	$GPGGA,211025,2537.5110,N,08002.7554,W,1,8,2.2,17,M,,M,,*54
06/24/2015	21:10:25.544	$GPGGA,211026,2537.5121,N,08002.7555,W,1,8,2.2,16,M,,M,,*55
06/24/2015	21:10:26.547	$GPGGA,211027,2537.5134,N,08002.7558,W,1,8,2.2,16,M,,M,,*5D
06/24/2015	21:10:27.561	$GPGGA,211028,2537.5143,N,08002.7558,W,1,8,2.2,16,M,,M,,*52
06/24/2015	21:10:28.531	$GPGGA,211029,2537.5154,N,08002.7559,W,1,8,2.2,16,M,,M,,*54
06/24/2015	21:10:29.561	$GPGGA,211030,2537.5165,N,08002.7561,W,1,8,2.2,16,M,,M,,*55
06/24/2015	21:10:30.532	$GPGGA,211031,2537.5178,N,08002.7562,W,1,8,2.2,16,M,,M,,*5B
06/24/2015	21:10:31.571	$GPGGA,211032,2537.5189,N,08002.7563,W,1,8,2.2,16,M,,M,,*57
06/24/2015	21:10:32.536	$GPGGA,211033,2537.5200,N,08002.7565,W,1,8,2.2,15,M,,M,,*51
06/24/2015	21:10:33.546	$GPGGA,211034,2537.5211,N,08002.7566,W,1,8,2.2,15,M,,M,,*55
06/24/2015	21:10:34.511	$GPGGA,211035,2537.5222,N,08002.7568,W,1,8,2.2,15,M,,M,,*5A
06/24/2015	21:10:35.650	$GPGGA,211036,2537.5233,N,08002.7569,W,1,8,2.2,15,M,,M,,*58
06/24/2015	21:10:36.511	$GPGGA,211037,2537.5244,N,08002.7569,W,1,8,1.9,15,M,,M,,*51
06/24/2015	21:10:37.521	$GPGGA,211038,2537.5255,N,08002.7570,W,1,8,2.2,15,M,,M,,*5E
06/24/2015	21:10:38.511	$GPGGA,211039,2537.5266,N,08002.7572,W,1,8,2.2,15,M,,M,,*5D
06/24/2015	21:10:39.531	$GPGGA,211040,2537.5276,N,08002.7573,W,1,8,2.2,15,M,,M,,*53
06/24/2015	21:10:40.600	$GPGGA,211041,2537.5289,N,08002.7573,W,1,8,2.2,15,M,,M,,*52
06/24/2015	21:10:41.500	$GPGGA,211042,2537.5300,N,08002.7573,W,1,9,1.9,14,M,,M,,*59
06/24/2015	21:10:42.520	$GPGGA,211043,2537.5311,N,08002.7574,W,1,9,1.9,14,M,,M,,*5F
06/24/2015	21:10:43.533	$GPGGA,211044,2537.5320,N,08002.7576,W,1,8,2.2,14,M,,M,,*51
06/24/2015	21:10:44.511	$GPGGA,211045,2537.5331,N,08002.7577,W,1,8,2.2,14,M,,M,,*51
06/24/2015	21:10:45.601	$GPGGA,211046,2537.5345,N,08002.7577,W,1,7,2.6,14,M,,M,,*5A
06/24/2015	21:10:46.491	$GPGGA,211047,2537.5358,N,08002.7576,W,1,7,2.2,14,M,,M,,*52
06/24/2015	21:10:47.601	$GPGGA,211048,2537.5370,N,08002.7575,W,1,9,1.9,14,M,,M,,*52
06/24/2015	21:10:48.501	$GPGGA,211049,2537.5381,N,08002.7574,W,1,9,1.9,14,M,,M,,*5C
06/24/2015	21:10:49.611	$GPGGA,211050,2537.5395,N,08002.7574,W,1,9,1.9,14,M,,M,,*51
06/24/2015	21:10:50.581	$GPGGA,211051,2537.5406,N,08002.7574,W,1,9,1.9,15,M,,M,,*5C
06/24/2015	21:10:51.611	$GPGGA,211052,2537.5419,N,08002.7574,W,1,9,1.9,15,M,,M,,*51
06/24/2015	21:10:52.581	$GPGGA,211053,2537.5431,N,08002.7574,W,1,9,1.9,15,M,,M,,*5A
06/24/2015	21:10:53.611	$GPGGA,211054,2537.5442,N,08002.7576,W,1,9,1.9,15,M,,M,,*5B
06/24/2015	21:10:54.581	$GPGGA,211055,2537.5453,N,08002.7576,W,1,9,1.9,15,M,,M,,*5A
06/24/2015	21:10:55.591	$GPGGA,211056,2537.5464,N,08002.7577,W,1,9,1.9,15,M,,M,,*5C
06/24/2015	21:10:56.571	$GPGGA,211057,2537.5475,N,08002.7577,W,1,9,1.9,16,M,,M,,*5E
06/24/2015	21:10:57.560	$GPGGA,211058,2537.5486,N,08002.7579,W,1,9,1.9,16,M,,M,,*53
06/24/2015	21:10:58.570	$GPGGA,211059,2537.5497,N,08002.7580,W,1,9,1.9,16,M,,M,,*54
06/24/2015	21:10:59.620	$GPGGA,211100,2537.5508,N,08002.7581,W,1,8,2.2,16,M,,M,,*56
06/24/2015	21:11:00.561	$GPGGA,211101,2537.5518,N,08002.7583,W,1,8,2.2,16,M,,M,,*54
06/24/2015	21:11:01.581	$GPGGA,211102,2537.5531,N,08002.7584,W,1,9,1.9,16,M,,M,,*52
06/24/2015	21:11:02.571	$GPGGA,211103,2537.5542,N,08002.7582,W,1,9,1.9,16,M,,M,,*51
06/24/2015	21:11:03.581	$GPGGA,211104,2537.5553,N,08002.7584,W,1,9,1.9,17,M,,M,,*51
06/24/2015	21:11:04.561	$GPGGA,211105,2537.5565,N,08002.7583,W,1,9,1.9,17,M,,M,,*52
06/24/2015	21:11:05.571	$GPGGA,211106,2537.5576,N,08002.7583,W,1,8,2.0,17,M,,M,,*58
06/24/2015	21:11:07.591	$GPGGA,211108,2537.5598,N,08002.7584,W,1,8,2.0,17,M,,M,,*51
06/24/2015	21:11:08.551	$GPGGA,211109,2537.5612,N,08002.7584,W,1,8,1.9,17,M,,M,,*5B
06/24/2015	21:11:09.561	$GPGGA,211110,2537.5623,N,08002.7585,W,1,9,1.9,17,M,,M,,*51
06/24/2015	21:11:10.541	$GPGGA,211111,2537.5634,N,08002.7585,W,1,9,2.2,18,M,,M,,*51
06/24/2015	21:11:11.571	$GPGGA,211112,2537.5645,N,08002.7584,W,1,9,1.9,18,M,,M,,*5D
06/24/2015	21:11:12.531	$GPGGA,211113,2537.5656,N,08002.7584,W,1,9,1.9,18,M,,M,,*5E
06/24/2015	21:11:13.535	$GPGGA,211114,2537.5667,N,08002.7587,W,1,9,1.9,18,M,,M,,*58
06/24/2015	21:11:14.532	$GPGGA,211115,2537.5678,N,08002.7587,W,1,9,1.9,18,M,,M,,*57
06/24/2015	21:11:15.550	$GPGGA,211116,2537.5690,N,08002.7587,W,1,9,1.9,18,M,,M,,*52
06/24/2015	21:11:16.520	$GPGGA,211117,2537.5701,N,08002.7588,W,1,9,1.9,18,M,,M,,*55
06/24/2015	21:11:17.523	$GPGGA,211118,2537.5712,N,08002.7590,W,1,9,1.9,18,M,,M,,*51
06/24/2015	21:11:18.510	$GPGGA,211119,2537.5723,N,08002.7590,W,1,9,1.9,19,M,,M,,*53
06/24/2015	21:11:19.560	$GPGGA,211120,2537.5735,N,08002.7591,W,1,9,1.9,19,M,,M,,*5F
06/24/2015	21:11:20.527	$GPGGA,211121,2537.5745,N,08002.7594,W,1,9,1.9,19,M,,M,,*5C
06/24/2015	21:11:21.500	$GPGGA,211122,2537.5757,N,08002.7594,W,1,9,1.9,19,M,,M,,*5C
06/24/2015	21:11:22.510	$GPGGA,211123,2537.5768,N,08002.7594,W,1,9,1.9,19,M,,M,,*51
06/24/2015	21:11:23.532	$GPGGA,211124,2537.5779,N,08002.7597,W,1,9,1.9,19,M,,M,,*55
06/24/2015	21:11:24.524	$GPGGA,211125,2537.5789,N,08002.7598,W,1,9,1.9,19,M,,M,,*54
06/24/2015	21:11:25.630	$GPGGA,211126,2537.5802,N,08002.7598,W,1,9,1.9,19,M,,M,,*5B
06/24/2015	21:11:26.500	$GPGGA,211127,2537.5811,N,08002.7598,W,1,9,1.9,19,M,,M,,*58
06/24/2015	21:11:27.520	$GPGGA,211128,2537.5822,N,08002.7601,W,1,9,1.9,19,M,,M,,*54
06/24/2015	21:11:28.511	$GPGGA,211129,2537.5835,N,08002.7600,W,1,9,1.9,19,M,,M,,*52
06/24/2015	21:11:29.491	$GPGGA,211130,2537.5846,N,08002.7601,W,1,9,1.9,19,M,,M,,*5F
06/24/2015	21:11:30.491	$GPGGA,211131,2537.5857,N,08002.7602,W,1,9,1.9,19,M,,M,,*5D
06/24/2015	21:11:31.523	$GPGGA,211132,2537.5867,N,08002.7602,W,1,9,1.9,19,M,,M,,*5D
06/24/2015	21:11:32.580	$GPGGA,211133,2537.5879,N,08002.7603,W,1,9,1.9,19,M,,M,,*52
06/24/2015	21:11:33.610	$GPGGA,211134,2537.5890,N,08002.7605,W,1,9,1.9,19,M,,M,,*54
06/24/2015	21:11:34.490	$GPGGA,211135,2537.5900,N,08002.7605,W,1,9,1.9,19,M,,M,,*5D
06/24/2015	21:11:35.600	$GPGGA,211136,2537.5912,N,08002.7605,W,1,8,1.9,19,M,,M,,*5C
06/24/2015	21:11:36.490	$GPGGA,211137,2537.5923,N,08002.7608,W,1,8,1.9,19,M,,M,,*52
06/24/2015	21:11:37.480	$GPGGA,211138,2537.5934,N,08002.7608,W,1,9,1.9,19,M,,M,,*5A
06/24/2015	21:11:38.570	$GPGGA,211139,2537.5945,N,08002.7608,W,1,9,1.9,19,M,,M,,*5D
06/24/2015	21:11:39.650	$GPGGA,211140,2537.5956,N,08002.7609,W,1,9,1.9,19,M,,M,,*50
06/24/2015	21:11:40.570	$GPGGA,211141,2537.5966,N,08002.7609,W,1,9,1.9,19,M,,M,,*52
06/24/2015	21:11:41.580	$GPGGA,211142,2537.5977,N,08002.7609,W,1,9,1.9,19,M,,M,,*51
06/24/2015	21:11:42.570	$GPGGA,211143,2537.5988,N,08002.7610,W,1,9,1.9,19,M,,M,,*58
06/24/2015	21:11:43.580	$GPGGA,211144,2537.5999,N,08002.7613,W,1,9,2.2,19,M,,M,,*54
06/24/2015	21:11:44.560	$GPGGA,211145,2537.6009,N,08002.7616,W,1,9,2.2,19,M,,M,,*53
06/24/2015	21:11:45.571	$GPGGA,211146,2537.6019,N,08002.7615,W,1,8,2.2,19,M,,M,,*53
06/24/2015	21:11:46.561	$GPGGA,211147,2537.6030,N,08002.7616,W,1,8,1.9,19,M,,M,,*52
06/24/2015	21:11:47.581	$GPGGA,211148,2537.6041,N,08002.7616,W,1,9,1.9,19,M,,M,,*5A
06/24/2015	21:11:48.551	$GPGGA,211149,2537.6050,N,08002.7614,W,1,9,2.6,19,M,,M,,*55
06/24/2015	21:11:49.561	$GPGGA,211150,2537.6060,N,08002.7616,W,1,7,2.6,18,M,,M,,*53
06/24/2015	21:11:50.550	$GPGGA,211151,2537.6068,N,08002.7614,W,1,7,2.6,18,M,,M,,*58
06/24/2015	21:11:51.600	$GPGGA,211152,2537.6078,N,08002.7617,W,1,7,2.8,18,M,,M,,*57
06/24/2015	21:11:52.540	$GPGGA,211153,2537.6089,N,08002.7619,W,1,7,2.8,18,M,,M,,*56
06/24/2015	21:11:53.540	$GPGGA,211154,2537.6102,N,08002.7618,W,1,7,2.6,18,M,,M,,*5C
