Software Version Number: 1	Data File Format Number: 1	Build Version Number: 1	Error Count Since VI Started: 1	Manufacturer: Raytheon	 Model Number: RayMarine 120	 S/N: 	 Cal Date: 	 Wind Direction Offset: 0.00	 Slope (M)1: 0.00	 Offset (B)1: 0.00	 Slope (M)2: 0.00	 Offset (B)2: 0.00	 Slope (M)3: 0.00	 Offset (B)3: 0.00	 Slope (M)4: 0.00	 Offset (B)4: 0.00	 Slope (M)5: 0.00	 Offset (B)5: 0.00	 Slope (M)6: 0.00	 Offset (B)6: 0.00
Computer Date	Computer Time	GGA String
06/19/2015	17:00:00.554	$GPGGA,170001,2514.5988,N,07918.3255,W,1,10,1.5,13,M,,M,,*68
06/19/2015	17:00:01.535	$GPGGA,170002,2514.5988,N,07918.3263,W,1,9,1.6,13,M,,M,,*55
06/19/2015	17:00:02.545	$GPGGA,170003,2514.5988,N,07918.3271,W,1,9,1.5,13,M,,M,,*54
06/19/2015	17:00:03.585	$GPGGA,170004,2514.5990,N,07918.3280,W,1,10,1.5,13,M,,M,,*6C
06/19/2015	17:00:04.535	$GPGGA,170005,2514.5989,N,07918.3289,W,1,10,1.5,13,M,,M,,*6C
06/19/2015	17:00:05.579	$GPGGA,170006,2514.5990,N,07918.3298,W,1,10,1.5,13,M,,M,,*67
06/19/2015	17:00:06.535	$GPGGA,170007,2514.5989,N,07918.3306,W,1,10,1.5,13,M,,M,,*68
06/19/2015	17:00:07.577	$GPGGA,170008,2514.5991,N,07918.3314,W,1,10,1.5,13,M,,M,,*6D
06/19/2015	17:00:08.545	$GPGGA,170009,2514.5990,N,07918.3324,W,1,10,1.5,14,M,,M,,*69
06/19/2015	17:00:09.536	$GPGGA,170010,2514.5992,N,07918.3331,W,1,10,1.5,14,M,,M,,*67
06/19/2015	17:00:10.525	$GPGGA,170011,2514.5992,N,07918.3340,W,1,10,1.5,14,M,,M,,*60
06/19/2015	17:00:11.561	$GPGGA,170012,2514.5992,N,07918.3349,W,1,10,1.5,14,M,,M,,*6A
06/19/2015	17:00:12.525	$GPGGA,170013,2514.5992,N,07918.3357,W,1,10,1.5,14,M,,M,,*64
06/19/2015	17:00:13.635	$GPGGA,170014,2514.5992,N,07918.3365,W,1,10,1.5,14,M,,M,,*62
06/19/2015	17:00:14.515	$GPGGA,170015,2514.5992,N,07918.3374,W,1,10,1.5,14,M,,M,,*63
06/19/2015	17:00:15.535	$GPGGA,170016,2514.5994,N,07918.3383,W,1,10,1.5,14,M,,M,,*6E
06/19/2015	17:00:16.625	$GPGGA,170017,2514.5993,N,07918.3392,W,1,10,1.5,14,M,,M,,*68
06/19/2015	17:00:17.504	$GPGGA,170018,2514.5995,N,07918.3400,W,1,10,1.5,14,M,,M,,*6D
06/19/2015	17:00:18.525	$GPGGA,170019,2514.5994,N,07918.3408,W,1,10,1.5,14,M,,M,,*65
06/19/2015	17:00:19.615	$GPGGA,170020,2514.5995,N,07918.3417,W,1,10,1.5,14,M,,M,,*60
06/19/2015	17:00:20.515	$GPGGA,170021,2514.5994,N,07918.3425,W,1,10,1.5,14,M,,M,,*61
06/19/2015	17:00:21.635	$GPGGA,170022,2514.5995,N,07918.3433,W,1,10,1.5,14,M,,M,,*64
06/19/2015	17:00:22.515	$GPGGA,170023,2514.5995,N,07918.3443,W,1,10,1.5,14,M,,M,,*62
06/19/2015	17:00:23.515	$GPGGA,170024,2514.5995,N,07918.3450,W,1,10,1.5,14,M,,M,,*67
06/19/2015	17:00:24.595	$GPGGA,170025,2514.5997,N,07918.3458,W,1,10,1.5,14,M,,M,,*6C
06/19/2015	17:00:25.505	$GPGGA,170026,2514.5996,N,07918.3468,W,1,10,1.5,14,M,,M,,*6D
06/19/2015	17:00:26.505	$GPGGA,170027,2514.5997,N,07918.3475,W,1,10,1.5,14,M,,M,,*61
06/19/2015	17:00:27.615	$GPGGA,170028,2514.5996,N,07918.3484,W,1,10,1.5,14,M,,M,,*61
06/19/2015	17:00:28.495	$GPGGA,170029,2514.5998,N,07918.3493,W,1,10,1.5,14,M,,M,,*68
06/19/2015	17:00:29.576	$GPGGA,170030,2514.5997,N,07918.3501,W,1,10,1.5,14,M,,M,,*65
06/19/2015	17:00:30.576	$GPGGA,170031,2514.5998,N,07918.3509,W,1,10,1.5,14,M,,M,,*63
06/19/2015	17:00:31.585	$GPGGA,170032,2514.5997,N,07918.3519,W,1,10,1.5,14,M,,M,,*6E
06/19/2015	17:00:32.570	$GPGGA,170033,2514.5998,N,07918.3526,W,1,10,1.5,14,M,,M,,*6C
06/19/2015	17:00:33.595	$GPGGA,170034,2514.5999,N,07918.3535,W,1,10,1.5,14,M,,M,,*68
06/19/2015	17:00:34.574	$GPGGA,170035,2514.5999,N,07918.3544,W,1,10,1.5,14,M,,M,,*6F
06/19/2015	17:00:35.624	$GPGGA,170036,2514.5999,N,07918.3552,W,1,10,1.5,14,M,,M,,*6B
06/19/2015	17:00:36.576	$GPGGA,170037,2514.5999,N,07918.3562,W,1,10,1.5,14,M,,M,,*69
06/19/2015	17:00:37.569	$GPGGA,170038,2514.5999,N,07918.3570,W,1,10,1.5,14,M,,M,,*65
06/19/2015	17:00:38.566	$GPGGA,170039,2514.5999,N,07918.3578,W,1,10,1.5,14,M,,M,,*6C
06/19/2015	17:00:39.605	$GPGGA,170040,2514.5999,N,07918.3587,W,1,10,1.5,14,M,,M,,*62
06/19/2015	17:00:40.566	$GPGGA,170041,2514.6001,N,07918.3596,W,1,10,1.5,14,M,,M,,*68
06/19/2015	17:00:41.585	$GPGGA,170042,2514.6000,N,07918.3605,W,1,10,1.5,14,M,,M,,*63
06/19/2015	17:00:42.565	$GPGGA,170043,2514.6001,N,07918.3613,W,1,10,1.5,14,M,,M,,*64
06/19/2015	17:00:43.565	$GPGGA,170044,2514.6000,N,07918.3623,W,1,10,1.5,14,M,,M,,*61
06/19/2015	17:00:44.565	$GPGGA,170045,2514.6001,N,07918.3631,W,1,10,1.5,14,M,,M,,*62
06/19/2015	17:00:45.545	$GPGGA,170046,2514.6002,N,07918.3641,W,1,10,1.5,14,M,,M,,*65
06/19/2015	17:00:46.560	$GPGGA,170047,2514.6001,N,07918.3649,W,1,10,1.5,14,M,,M,,*6F
06/19/2015	17:00:47.595	$GPGGA,170048,2514.6002,N,07918.3657,W,1,10,1.5,14,M,,M,,*6C
06/19/2015	17:00:48.545	$GPGGA,170049,2514.6001,N,07918.3665,W,1,10,1.5,14,M,,M,,*6F
06/19/2015	17:00:49.566	$GPGGA,170050,2514.6002,N,07918.3674,W,1,10,1.5,14,M,,M,,*64
06/19/2015	17:00:50.545	$GPGGA,170051,2514.6003,N,07918.3682,W,1,10,1.5,14,M,,M,,*6D
06/19/2015	17:00:51.545	$GPGGA,170052,2514.6001,N,07918.3692,W,1,10,1.5,14,M,,M,,*6D
06/19/2015	17:00:52.544	$GPGGA,170053,2514.6002,N,07918.3700,W,1,10,1.5,14,M,,M,,*65
06/19/2015	17:00:53.545	$GPGGA,170054,2514.6003,N,07918.3708,W,1,10,1.5,14,M,,M,,*6B
06/19/2015	17:00:54.525	$GPGGA,170055,2514.6003,N,07918.3717,W,1,10,1.5,14,M,,M,,*64
06/19/2015	17:00:55.575	$GPGGA,170056,2514.6003,N,07918.3726,W,1,10,1.5,14,M,,M,,*65
06/19/2015	17:00:56.545	$GPGGA,170057,2514.6003,N,07918.3735,W,1,10,1.5,14,M,,M,,*66
06/19/2015	17:00:57.557	$GPGGA,170058,2514.6003,N,07918.3743,W,1,10,1.5,14,M,,M,,*68
06/19/2015	17:00:58.525	$GPGGA,170059,2514.6003,N,07918.3753,W,1,10,1.5,14,M,,M,,*68
06/19/2015	17:00:59.565	$GPGGA,170100,2514.6003,N,07918.3761,W,1,10,1.5,14,M,,M,,*64
06/19/2015	17:01:00.516	$GPGGA,170101,2514.6003,N,07918.3770,W,1,10,1.5,14,M,,M,,*65
06/19/2015	17:01:01.535	$GPGGA,170102,2514.6003,N,07918.3779,W,1,10,1.5,14,M,,M,,*6F
06/19/2015	17:01:02.565	$GPGGA,170103,2514.6005,N,07918.3787,W,1,10,1.5,14,M,,M,,*69
06/19/2015	17:01:03.525	$GPGGA,170104,2514.6004,N,07918.3797,W,1,10,1.5,14,M,,M,,*6E
06/19/2015	17:01:04.626	$GPGGA,170105,2514.6005,N,07918.3805,W,1,10,1.5,14,M,,M,,*6A
06/19/2015	17:01:05.635	$GPGGA,170106,2514.6006,N,07918.3813,W,1,10,1.5,14,M,,M,,*6D
06/19/2015	17:01:06.515	$GPGGA,170107,2514.6005,N,07918.3822,W,1,10,1.5,14,M,,M,,*6D
06/19/2015	17:01:07.535	$GPGGA,170108,2514.6006,N,07918.3831,W,1,10,1.5,14,M,,M,,*63
06/19/2015	17:01:08.505	$GPGGA,170109,2514.6005,N,07918.3840,W,1,10,1.5,14,M,,M,,*67
06/19/2015	17:01:09.494	$GPGGA,170110,2514.6006,N,07918.3849,W,1,10,1.5,14,M,,M,,*65
06/19/2015	17:01:10.514	$GPGGA,170111,2514.6008,N,07918.3858,W,1,10,1.5,14,M,,M,,*6A
06/19/2015	17:01:11.525	$GPGGA,170112,2514.6006,N,07918.3867,W,1,10,1.5,14,M,,M,,*6B
06/19/2015	17:01:12.495	$GPGGA,170113,2514.6008,N,07918.3876,W,1,10,1.5,14,M,,M,,*64
06/19/2015	17:01:13.595	$GPGGA,170114,2514.6009,N,07918.3885,W,1,10,1.5,14,M,,M,,*6E
06/19/2015	17:01:14.505	$GPGGA,170115,2514.6007,N,07918.3892,W,1,10,1.9,14,M,,M,,*6B
06/19/2015	17:01:15.505	$GPGGA,170116,2514.6006,N,07918.3900,W,1,10,1.5,14,M,,M,,*6F
06/19/2015	17:01:16.585	$GPGGA,170117,2514.6006,N,07918.3909,W,1,10,1.5,14,M,,M,,*67
06/19/2015	17:01:17.605	$GPGGA,170118,2514.6006,N,07918.3916,W,1,10,1.5,14,M,,M,,*66
06/19/2015	17:01:18.595	$GPGGA,170119,2514.6005,N,07918.3924,W,1,10,1.5,14,M,,M,,*65
06/19/2015	17:01:19.615	$GPGGA,170120,2514.6006,N,07918.3934,W,1,10,1.5,14,M,,M,,*6D
06/19/2015	17:01:20.895	$GPGGA,170121,2514.6006,N,07918.3942,W,1,10,1.5,14,M,,M,,*6D
06/19/2015	17:01:21.605	$GPGGA,170122,2514.6006,N,07918.3952,W,1,10,1.5,15,M,,M,,*6E
06/19/2015	17:01:22.575	$GPGGA,170123,2514.6006,N,07918.3960,W,1,10,1.5,15,M,,M,,*6E
06/19/2015	17:01:23.615	$GPGGA,170124,2514.6006,N,07918.3970,W,1,10,1.5,15,M,,M,,*68
06/19/2015	17:01:24.568	$GPGGA,170125,2514.6006,N,07918.3978,W,1,10,1.5,15,M,,M,,*61
06/19/2015	17:01:25.566	$GPGGA,170126,2514.6008,N,07918.3986,W,1,10,1.5,15,M,,M,,*6D
06/19/2015	17:01:26.567	$GPGGA,170127,2514.6007,N,07918.3996,W,1,10,1.5,15,M,,M,,*62
06/19/2015	17:01:27.574	$GPGGA,170128,2514.6008,N,07918.4004,W,1,10,1.5,15,M,,M,,*67
06/19/2015	17:01:28.566	$GPGGA,170129,2514.6007,N,07918.4014,W,1,10,1.5,15,M,,M,,*68
06/19/2015	17:01:29.585	$GPGGA,170130,2514.6008,N,07918.4022,W,1,10,1.5,15,M,,M,,*6A
06/19/2015	17:01:30.561	$GPGGA,170131,2514.6007,N,07918.4032,W,1,10,1.5,15,M,,M,,*65
06/19/2015	17:01:31.595	$GPGGA,170132,2514.6008,N,07918.4040,W,1,10,1.5,15,M,,M,,*6C
06/19/2015	17:01:32.560	$GPGGA,170133,2514.6007,N,07918.4050,W,1,10,1.5,15,M,,M,,*63
06/19/2015	17:01:33.545	$GPGGA,170134,2514.6008,N,07918.4058,W,1,10,1.5,15,M,,M,,*63
06/19/2015	17:01:34.558	$GPGGA,170135,2514.6007,N,07918.4068,W,1,10,1.5,15,M,,M,,*6E
06/19/2015	17:01:35.585	$GPGGA,170136,2514.6008,N,07918.4076,W,1,10,1.5,15,M,,M,,*6D
06/19/2015	17:01:36.572	$GPGGA,170137,2514.6007,N,07918.4086,W,1,10,1.5,15,M,,M,,*6C
06/19/2015	17:01:37.577	$GPGGA,170138,2514.6008,N,07918.4094,W,1,10,1.5,15,M,,M,,*6F
06/19/2015	17:01:38.545	$GPGGA,170139,2514.6007,N,07918.4104,W,1,10,1.5,15,M,,M,,*69
06/19/2015	17:01:39.585	$GPGGA,170140,2514.6008,N,07918.4112,W,1,10,1.5,15,M,,M,,*6F
06/19/2015	17:01:40.545	$GPGGA,170141,2514.6007,N,07918.4122,W,1,10,1.5,15,M,,M,,*62
06/19/2015	17:01:41.546	$GPGGA,170142,2514.6008,N,07918.4130,W,1,10,1.5,15,M,,M,,*6D
06/19/2015	17:01:42.535	$GPGGA,170143,2514.6007,N,07918.4140,W,1,10,1.5,15,M,,M,,*64
06/19/2015	17:01:43.580	$GPGGA,170144,2514.6008,N,07918.4149,W,1,10,1.5,15,M,,M,,*65
06/19/2015	17:01:44.534	$GPGGA,170145,2514.6007,N,07918.4158,W,1,10,1.5,15,M,,M,,*6B
06/19/2015	17:01:45.534	$GPGGA,170146,2514.6008,N,07918.4167,W,1,10,1.5,15,M,,M,,*6B
06/19/2015	17:01:46.535	$GPGGA,170147,2514.6007,N,07918.4176,W,1,10,1.5,15,M,,M,,*65
06/19/2015	17:01:47.545	$GPGGA,170148,2514.6008,N,07918.4184,W,1,10,1.5,15,M,,M,,*68
06/19/2015	17:01:48.545	$GPGGA,170149,2514.6007,N,07918.4194,W,1,10,1.5,15,M,,M,,*67
06/19/2015	17:01:49.556	$GPGGA,170150,2514.6008,N,07918.4203,W,1,10,1.5,15,M,,M,,*6D
06/19/2015	17:01:50.515	$GPGGA,170151,2514.6007,N,07918.4212,W,1,10,1.7,15,M,,M,,*61
06/19/2015	17:01:51.535	$GPGGA,170152,2514.6008,N,07918.4220,W,1,9,1.7,15,M,,M,,*54
06/19/2015	17:01:52.505	$GPGGA,170153,2514.6009,N,07918.4230,W,1,9,1.5,15,M,,M,,*57
06/19/2015	17:01:53.535	$GPGGA,170154,2514.6010,N,07918.4241,W,1,10,1.5,15,M,,M,,*66
06/19/2015	17:01:54.625	$GPGGA,170155,2514.6010,N,07918.4250,W,1,10,1.9,15,M,,M,,*6B
06/19/2015	17:01:55.535	$GPGGA,170156,2514.6012,N,07918.4260,W,1,9,1.9,15,M,,M,,*51
06/19/2015	17:01:56.616	$GPGGA,170157,2514.6013,N,07918.4270,W,1,9,1.5,15,M,,M,,*5C
06/19/2015	17:01:57.625	$GPGGA,170158,2514.6012,N,07918.4279,W,1,10,1.5,15,M,,M,,*63
06/19/2015	17:01:58.515	$GPGGA,170159,2514.6013,N,07918.4289,W,1,10,1.5,15,M,,M,,*6C
06/19/2015	17:01:59.569	$GPGGA,170200,2514.6014,N,07918.4299,W,1,10,1.5,15,M,,M,,*65
06/19/2015	17:02:00.515	$GPGGA,170201,2514.6014,N,07918.4308,W,1,10,1.5,15,M,,M,,*6D
06/19/2015	17:02:01.625	$GPGGA,170202,2514.6014,N,07918.4317,W,1,10,1.5,15,M,,M,,*60
06/19/2015	17:02:02.504	$GPGGA,170203,2514.6014,N,07918.4326,W,1,10,1.5,15,M,,M,,*63
06/19/2015	17:02:03.505	$GPGGA,170204,2514.6014,N,07918.4335,W,1,10,1.5,15,M,,M,,*66
06/19/2015	17:02:04.595	$GPGGA,170205,2514.6016,N,07918.4343,W,1,10,1.5,15,M,,M,,*64
06/19/2015	17:02:05.595	$GPGGA,170206,2514.6015,N,07918.4353,W,1,10,1.5,15,M,,M,,*65
06/19/2015	17:02:06.495	$GPGGA,170207,2514.6016,N,07918.4361,W,1,10,1.5,15,M,,M,,*66
06/19/2015	17:02:08.595	$GPGGA,170209,2514.6014,N,07918.4379,W,1,10,1.5,15,M,,M,,*63
06/19/2015	17:02:09.595	$GPGGA,170210,2514.6016,N,07918.4389,W,1,10,1.5,15,M,,M,,*66
06/19/2015	17:02:10.595	$GPGGA,170211,2514.6015,N,07918.4397,W,1,10,1.5,15,M,,M,,*6B
06/19/2015	17:02:11.615	$GPGGA,170212,2514.6016,N,07918.4407,W,1,10,1.5,15,M,,M,,*65
06/19/2015	17:02:12.858	$GPGGA,170213,2514.6015,N,07918.4415,W,1,10,1.5,15,M,,M,,*64
06/19/2015	17:02:13.595	$GPGGA,170214,2514.6016,N,07918.4425,W,1,10,1.5,15,M,,M,,*63
06/19/2015	17:02:14.574	$GPGGA,170215,2514.6015,N,07918.4434,W,1,10,1.5,15,M,,M,,*61
06/19/2015	17:02:15.625	$GPGGA,170216,2514.6016,N,07918.4443,W,1,10,1.5,15,M,,M,,*61
06/19/2015	17:02:16.577	$GPGGA,170217,2514.6015,N,07918.4452,W,1,10,1.5,15,M,,M,,*63
06/19/2015	17:02:17.575	$GPGGA,170218,2514.6016,N,07918.4462,W,1,10,1.5,15,M,,M,,*6C
06/19/2015	17:02:18.571	$GPGGA,170219,2514.6014,N,07918.4469,W,1,10,1.5,15,M,,M,,*64
06/19/2015	17:02:19.594	$GPGGA,170220,2514.6016,N,07918.4480,W,1,10,1.5,15,M,,M,,*6B
06/19/2015	17:02:20.569	$GPGGA,170221,2514.6015,N,07918.4488,W,1,10,1.5,15,M,,M,,*61
06/19/2015	17:02:21.575	$GPGGA,170222,2514.6016,N,07918.4498,W,1,10,1.5,15,M,,M,,*60
06/19/2015	17:02:22.563	$GPGGA,170223,2514.6015,N,07918.4508,W,1,10,1.5,15,M,,M,,*6A
06/19/2015	17:02:23.595	$GPGGA,170224,2514.6017,N,07918.4516,W,1,10,1.5,16,M,,M,,*63
06/19/2015	17:02:24.545	$GPGGA,170225,2514.6017,N,07918.4525,W,1,10,1.5,16,M,,M,,*62
06/19/2015	17:02:25.585	$GPGGA,170226,2514.6017,N,07918.4535,W,1,10,1.5,16,M,,M,,*60
06/19/2015	17:02:26.545	$GPGGA,170227,2514.6017,N,07918.4545,W,1,10,1.5,16,M,,M,,*66
06/19/2015	17:02:27.575	$GPGGA,170228,2514.6017,N,07918.4553,W,1,10,1.5,16,M,,M,,*6E
06/19/2015	17:02:28.535	$GPGGA,170229,2514.6017,N,07918.4563,W,1,10,1.5,16,M,,M,,*6C
06/19/2015	17:02:29.575	$GPGGA,170230,2514.6019,N,07918.4574,W,1,10,1.5,16,M,,M,,*6C
06/19/2015	17:02:30.545	$GPGGA,170231,2514.6018,N,07918.4581,W,1,10,1.5,16,M,,M,,*66
06/19/2015	17:02:31.585	$GPGGA,170232,2514.6019,N,07918.4592,W,1,10,1.5,16,M,,M,,*66
06/19/2015	17:02:32.535	$GPGGA,170233,2514.6018,N,07918.4600,W,1,10,1.5,16,M,,M,,*6E
06/19/2015	17:02:33.555	$GPGGA,170234,2514.6019,N,07918.4610,W,1,10,1.5,16,M,,M,,*69
06/19/2015	17:02:34.545	$GPGGA,170235,2514.6018,N,07918.4620,W,1,10,1.5,16,M,,M,,*6A
06/19/2015	17:02:35.585	$GPGGA,170236,2514.6020,N,07918.4628,W,1,10,1.5,16,M,,M,,*6A
06/19/2015	17:02:36.535	$GPGGA,170237,2514.6019,N,07918.4637,W,1,10,1.5,16,M,,M,,*6F
06/19/2015	17:02:37.558	$GPGGA,170238,2514.6020,N,07918.4646,W,1,10,1.5,16,M,,M,,*6C
06/19/2015	17:02:38.535	$GPGGA,170239,2514.6018,N,07918.4655,W,1,10,1.5,16,M,,M,,*64
06/19/2015	17:02:39.555	$GPGGA,170240,2514.6021,N,07918.4665,W,1,10,1.5,16,M,,M,,*63
06/19/2015	17:02:40.545	$GPGGA,170241,2514.6021,N,07918.4675,W,1,10,1.5,16,M,,M,,*63
06/19/2015	17:02:41.615	$GPGGA,170242,2514.6019,N,07918.4684,W,1,10,1.5,16,M,,M,,*65
06/19/2015	17:02:42.515	$GPGGA,170243,2514.6020,N,07918.4694,W,1,10,1.5,16,M,,M,,*6F
06/19/2015	17:02:43.567	$GPGGA,170244,2514.6021,N,07918.4704,W,1,10,1.5,16,M,,M,,*61
06/19/2015	17:02:44.525	$GPGGA,170245,2514.6021,N,07918.4712,W,1,10,1.5,16,M,,M,,*67
06/19/2015	17:02:45.535	$GPGGA,170246,2514.6021,N,07918.4722,W,1,10,1.5,16,M,,M,,*67
06/19/2015	17:02:46.535	$GPGGA,170247,2514.6021,N,07918.4732,W,1,10,1.5,16,M,,M,,*67
06/19/2015	17:02:47.615	$GPGGA,170248,2514.6021,N,07918.4740,W,1,10,1.5,16,M,,M,,*6D
06/19/2015	17:02:48.595	$GPGGA,170249,2514.6021,N,07918.4749,W,1,10,1.5,16,M,,M,,*65
06/19/2015	17:02:49.625	$GPGGA,170250,2514.6021,N,07918.4758,W,1,10,1.5,16,M,,M,,*6D
06/19/2015	17:02:50.525	$GPGGA,170251,2514.6021,N,07918.4767,W,1,10,1.5,16,M,,M,,*60
06/19/2015	17:02:52.574	$GPGGA,170253,2514.6022,N,07918.4785,W,1,10,1.5,16,M,,M,,*6D
06/19/2015	17:02:53.595	$GPGGA,170254,2514.6023,N,07918.4794,W,1,10,1.5,16,M,,M,,*6B
06/19/2015	17:02:54.584	$GPGGA,170255,2514.6022,N,07918.4803,W,1,10,1.5,16,M,,M,,*6A
06/19/2015	17:02:55.624	$GPGGA,170256,2514.6024,N,07918.4812,W,1,10,1.5,16,M,,M,,*6F
06/19/2015	17:02:56.576	$GPGGA,170257,2514.6022,N,07918.4823,W,1,10,1.5,16,M,,M,,*6A
06/19/2015	17:02:57.595	$GPGGA,170258,2514.6024,N,07918.4831,W,1,10,1.5,16,M,,M,,*60
06/19/2015	17:02:58.575	$GPGGA,170259,2514.6023,N,07918.4839,W,1,10,1.5,16,M,,M,,*6E
06/19/2015	17:02:59.605	$GPGGA,170300,2514.6024,N,07918.4849,W,1,10,1.5,16,M,,M,,*63
06/19/2015	17:03:00.585	$GPGGA,170301,2514.6023,N,07918.4859,W,1,10,1.5,16,M,,M,,*64
06/19/2015	17:03:01.575	$GPGGA,170302,2514.6024,N,07918.4867,W,1,10,1.5,16,M,,M,,*6D
06/19/2015	17:03:02.575	$GPGGA,170303,2514.6026,N,07918.4877,W,1,10,1.5,16,M,,M,,*6F
06/19/2015	17:03:03.605	$GPGGA,170304,2514.6025,N,07918.4886,W,1,10,1.5,16,M,,M,,*65
06/19/2015	17:03:04.569	$GPGGA,170305,2514.6026,N,07918.4895,W,1,10,1.5,16,M,,M,,*65
06/19/2015	17:03:05.585	$GPGGA,170306,2514.6025,N,07918.4906,W,1,10,1.5,16,M,,M,,*6E
06/19/2015	17:03:06.565	$GPGGA,170307,2514.6027,N,07918.4914,W,1,10,1.5,16,M,,M,,*6E
06/19/2015	17:03:07.555	$GPGGA,170308,2514.6026,N,07918.4924,W,1,10,1.5,16,M,,M,,*63
06/19/2015	17:03:08.556	$GPGGA,170309,2514.6027,N,07918.4932,W,1,10,1.5,16,M,,M,,*64
06/19/2015	17:03:09.575	$GPGGA,170310,2514.6026,N,07918.4942,W,1,10,1.5,16,M,,M,,*6A
06/19/2015	17:03:10.548	$GPGGA,170311,2514.6028,N,07918.4951,W,1,10,1.5,15,M,,M,,*64
06/19/2015	17:03:11.585	$GPGGA,170312,2514.6026,N,07918.4960,W,1,10,1.5,15,M,,M,,*6B
06/19/2015	17:03:12.547	$GPGGA,170313,2514.6027,N,07918.4969,W,1,10,1.5,15,M,,M,,*62
06/19/2015	17:03:13.534	$GPGGA,170314,2514.6026,N,07918.4978,W,1,10,1.5,15,M,,M,,*64
06/19/2015	17:03:14.534	$GPGGA,170315,2514.6028,N,07918.4987,W,1,10,1.5,15,M,,M,,*6B
06/19/2015	17:03:15.546	$GPGGA,170316,2514.6026,N,07918.4996,W,1,10,1.5,15,M,,M,,*66
06/19/2015	17:03:16.545	$GPGGA,170317,2514.6027,N,07918.5005,W,1,10,1.5,15,M,,M,,*64
06/19/2015	17:03:17.524	$GPGGA,170318,2514.6028,N,07918.5014,W,1,10,1.5,15,M,,M,,*64
06/19/2015	17:03:18.546	$GPGGA,170319,2514.6028,N,07918.5025,W,1,10,1.5,15,M,,M,,*67
06/19/2015	17:03:19.544	$GPGGA,170320,2514.6028,N,07918.5033,W,1,10,1.5,15,M,,M,,*6A
06/19/2015	17:03:20.534	$GPGGA,170321,2514.6028,N,07918.5041,W,1,10,1.5,15,M,,M,,*6E
06/19/2015	17:03:21.548	$GPGGA,170322,2514.6028,N,07918.5051,W,1,10,1.5,15,M,,M,,*6C
06/19/2015	17:03:22.514	$GPGGA,170323,2514.6028,N,07918.5061,W,1,10,1.5,15,M,,M,,*6E
06/19/2015	17:03:23.534	$GPGGA,170324,2514.6028,N,07918.5069,W,1,10,1.5,15,M,,M,,*61
06/19/2015	17:03:24.535	$GPGGA,170325,2514.6028,N,07918.5079,W,1,10,1.5,15,M,,M,,*61
06/19/2015	17:03:25.515	$GPGGA,170326,2514.6028,N,07918.5088,W,1,10,1.5,15,M,,M,,*6C
06/19/2015	17:03:26.515	$GPGGA,170327,2514.6030,N,07918.5098,W,1,10,1.5,15,M,,M,,*65
06/19/2015	17:03:27.535	$GPGGA,170328,2514.6031,N,07918.5109,W,1,9,2.0,15,M,,M,,*5C
06/19/2015	17:03:28.505	$GPGGA,170329,2514.6030,N,07918.5117,W,1,9,1.5,15,M,,M,,*55
06/19/2015	17:03:29.514	$GPGGA,170330,2514.6031,N,07918.5126,W,1,10,1.5,15,M,,M,,*66
06/19/2015	17:03:30.504	$GPGGA,170331,2514.6030,N,07918.5134,W,1,10,1.5,15,M,,M,,*65
06/19/2015	17:03:31.524	$GPGGA,170332,2514.6031,N,07918.5142,W,1,10,1.5,15,M,,M,,*66
06/19/2015	17:03:32.594	$GPGGA,170333,2514.6030,N,07918.5152,W,1,10,1.5,15,M,,M,,*67
06/19/2015	17:03:33.494	$GPGGA,170334,2514.6031,N,07918.5160,W,1,10,1.5,15,M,,M,,*60
06/19/2015	17:03:34.504	$GPGGA,170335,2514.6029,N,07918.5168,W,1,10,1.5,15,M,,M,,*60
06/19/2015	17:03:35.534	$GPGGA,170336,2514.6030,N,07918.5177,W,1,9,1.5,15,M,,M,,*5D
06/19/2015	17:03:36.494	$GPGGA,170337,2514.6029,N,07918.5186,W,1,9,1.7,15,M,,M,,*58
06/19/2015	17:03:37.584	$GPGGA,170338,2514.6031,N,07918.5195,W,1,10,1.5,15,M,,M,,*66
06/19/2015	17:03:38.504	$GPGGA,170339,2514.6031,N,07918.5206,W,1,10,1.5,15,M,,M,,*6E
06/19/2015	17:03:39.594	$GPGGA,170340,2514.6032,N,07918.5215,W,1,9,2.0,15,M,,M,,*5F
06/19/2015	17:03:40.494	$GPGGA,170341,2514.6035,N,07918.5227,W,1,9,1.5,15,M,,M,,*5E
06/19/2015	17:03:41.485	$GPGGA,170342,2514.6035,N,07918.5235,W,1,10,1.5,15,M,,M,,*66
06/19/2015	17:03:42.575	$GPGGA,170343,2514.6037,N,07918.5246,W,1,10,1.5,15,M,,M,,*61
06/19/2015	17:03:43.615	$GPGGA,170344,2514.6036,N,07918.5256,W,1,10,1.5,15,M,,M,,*66
06/19/2015	17:03:44.575	$GPGGA,170345,2514.6038,N,07918.5264,W,1,10,1.5,15,M,,M,,*68
06/19/2015	17:03:45.585	$GPGGA,170346,2514.6037,N,07918.5274,W,1,10,1.5,15,M,,M,,*65
06/19/2015	17:03:46.585	$GPGGA,170347,2514.6039,N,07918.5282,W,1,10,1.5,15,M,,M,,*63
06/19/2015	17:03:47.604	$GPGGA,170348,2514.6039,N,07918.5292,W,1,10,1.5,15,M,,M,,*6D
06/19/2015	17:03:49.006	$GPGGA,170349,2514.6039,N,07918.5300,W,1,10,1.7,15,M,,M,,*64
06/19/2015	17:03:49.564	$GPGGA,170350,2514.6039,N,07918.5311,W,1,10,1.5,15,M,,M,,*6E
06/19/2015	17:03:50.564	$GPGGA,170351,2514.6041,N,07918.5319,W,1,10,1.5,15,M,,M,,*68
06/19/2015	17:03:51.594	$GPGGA,170352,2514.6040,N,07918.5329,W,1,10,1.5,15,M,,M,,*69
06/19/2015	17:03:52.564	$GPGGA,170353,2514.6041,N,07918.5337,W,1,10,1.5,15,M,,M,,*66
06/19/2015	17:03:53.574	$GPGGA,170354,2514.6042,N,07918.5347,W,1,10,1.5,15,M,,M,,*65
06/19/2015	17:03:54.559	$GPGGA,170355,2514.6041,N,07918.5357,W,1,10,1.5,15,M,,M,,*66
06/19/2015	17:03:55.574	$GPGGA,170356,2514.6042,N,07918.5365,W,1,10,1.5,15,M,,M,,*67
06/19/2015	17:03:56.558	$GPGGA,170357,2514.6042,N,07918.5374,W,1,10,1.5,15,M,,M,,*66
06/19/2015	17:03:57.546	$GPGGA,170358,2514.6044,N,07918.5384,W,1,10,1.5,15,M,,M,,*60
06/19/2015	17:03:58.548	$GPGGA,170359,2514.6042,N,07918.5392,W,1,10,1.5,15,M,,M,,*60
06/19/2015	17:03:59.585	$GPGGA,170400,2514.6044,N,07918.5402,W,1,9,1.7,15,M,,M,,*59
06/19/2015	17:04:00.535	$GPGGA,170401,2514.6045,N,07918.5412,W,1,9,1.5,15,M,,M,,*5A
06/19/2015	17:04:01.535	$GPGGA,170402,2514.6044,N,07918.5420,W,1,10,1.5,15,M,,M,,*61
06/19/2015	17:04:02.556	$GPGGA,170403,2514.6045,N,07918.5430,W,1,10,1.5,15,M,,M,,*60
06/19/2015	17:04:03.585	$GPGGA,170404,2514.6044,N,07918.5439,W,1,10,1.5,16,M,,M,,*6C
06/19/2015	17:04:07.224	$GPGGA,170407,2514.6046,N,07918.5467,W,1,10,1.5,16,M,,M,,*66
06/19/2015	17:04:07.569	$GPGGA,170408,2514.6046,N,07918.5478,W,1,10,1.5,16,M,,M,,*67
06/19/2015	17:04:08.524	$GPGGA,170409,2514.6046,N,07918.5486,W,1,10,2.0,15,M,,M,,*62
06/19/2015	17:04:09.534	$GPGGA,170410,2514.6049,N,07918.5495,W,1,9,1.7,15,M,,M,,*5B
06/19/2015	17:04:10.534	$GPGGA,170411,2514.6048,N,07918.5506,W,1,9,1.5,15,M,,M,,*52
06/19/2015	17:04:11.557	$GPGGA,170412,2514.6049,N,07918.5516,W,1,10,1.5,15,M,,M,,*69
06/19/2015	17:04:12.514	$GPGGA,170413,2514.6048,N,07918.5524,W,1,10,2.0,15,M,,M,,*6E
06/19/2015	17:04:13.514	$GPGGA,170414,2514.6050,N,07918.5533,W,1,10,1.5,15,M,,M,,*60
06/19/2015	17:04:14.504	$GPGGA,170415,2514.6050,N,07918.5543,W,1,10,1.5,15,M,,M,,*66
06/19/2015	17:04:15.514	$GPGGA,170416,2514.6052,N,07918.5554,W,1,9,2.0,15,M,,M,,*5F
06/19/2015	17:04:16.515	$GPGGA,170417,2514.6051,N,07918.5564,W,1,9,1.5,15,M,,M,,*58
06/19/2015	17:04:17.515	$GPGGA,170418,2514.6053,N,07918.5572,W,1,10,1.5,15,M,,M,,*6A
06/19/2015	17:04:18.505	$GPGGA,170419,2514.6053,N,07918.5582,W,1,10,2.0,15,M,,M,,*62
06/19/2015	17:04:19.505	$GPGGA,170420,2514.6055,N,07918.5592,W,1,9,2.0,15,M,,M,,*57
06/19/2015	17:04:20.525	$GPGGA,170421,2514.6054,N,07918.5600,W,1,9,2.0,15,M,,M,,*5F
06/19/2015	17:04:21.634	$GPGGA,170422,2514.6055,N,07918.5607,W,1,10,1.5,15,M,,M,,*64
06/19/2015	17:04:22.514	$GPGGA,170423,2514.6054,N,07918.5615,W,1,10,1.5,15,M,,M,,*67
06/19/2015	17:04:23.604	$GPGGA,170424,2514.6053,N,07918.5623,W,1,10,1.5,15,M,,M,,*62
06/19/2015	17:04:24.614	$GPGGA,170425,2514.6055,N,07918.5632,W,1,10,1.5,15,M,,M,,*65
06/19/2015	17:04:25.624	$GPGGA,170426,2514.6057,N,07918.5641,W,1,10,1.5,15,M,,M,,*60
06/19/2015	17:04:26.594	$GPGGA,170427,2514.6055,N,07918.5650,W,1,10,2.0,15,M,,M,,*65
06/19/2015	17:04:27.594	$GPGGA,170428,2514.6056,N,07918.5657,W,1,10,1.5,15,M,,M,,*68
06/19/2015	17:04:28.594	$GPGGA,170429,2514.6055,N,07918.5665,W,1,10,1.5,15,M,,M,,*6B
06/19/2015	17:04:29.604	$GPGGA,170430,2514.6056,N,07918.5672,W,1,10,1.5,16,M,,M,,*65
06/19/2015	17:04:30.584	$GPGGA,170431,2514.6055,N,07918.5680,W,1,10,1.5,16,M,,M,,*6A
06/19/2015	17:04:31.594	$GPGGA,170432,2514.6056,N,07918.5687,W,1,10,1.5,16,M,,M,,*6D
06/19/2015	17:04:32.574	$GPGGA,170433,2514.6055,N,07918.5695,W,1,10,1.5,16,M,,M,,*6C
06/19/2015	17:04:33.605	$GPGGA,170434,2514.6056,N,07918.5704,W,1,10,1.5,16,M,,M,,*61
06/19/2015	17:04:34.565	$GPGGA,170435,2514.6055,N,07918.5710,W,1,10,1.5,16,M,,M,,*66
06/19/2015	17:04:35.596	$GPGGA,170436,2514.6057,N,07918.5719,W,1,10,1.5,16,M,,M,,*6E
06/19/2015	17:04:36.575	$GPGGA,170437,2514.6055,N,07918.5726,W,1,10,1.5,17,M,,M,,*60
06/19/2015	17:04:37.564	$GPGGA,170438,2514.6056,N,07918.5735,W,1,10,1.5,17,M,,M,,*6E
06/19/2015	17:04:39.594	$GPGGA,170439,2514.6055,N,07918.5744,W,1,10,1.5,17,M,,M,,*6A
06/19/2015	17:04:39.624	$GPGGA,170440,2514.6057,N,07918.5751,W,1,10,1.5,17,M,,M,,*62
06/19/2015	17:04:40.565	$GPGGA,170441,2514.6057,N,07918.5759,W,1,10,1.5,17,M,,M,,*6B
06/19/2015	17:04:41.561	$GPGGA,170442,2514.6055,N,07918.5769,W,1,10,1.5,17,M,,M,,*69
06/19/2015	17:04:42.564	$GPGGA,170443,2514.6056,N,07918.5777,W,1,10,1.7,18,M,,M,,*69
06/19/2015	17:04:43.559	$GPGGA,170444,2514.6055,N,07918.5785,W,1,10,1.5,18,M,,M,,*62
06/19/2015	17:04:44.560	$GPGGA,170445,2514.6056,N,07918.5793,W,1,10,1.5,18,M,,M,,*67
06/19/2015	17:04:45.546	$GPGGA,170446,2514.6055,N,07918.5802,W,1,10,1.5,18,M,,M,,*60
06/19/2015	17:04:46.548	$GPGGA,170447,2514.6057,N,07918.5811,W,1,10,1.5,18,M,,M,,*61
06/19/2015	17:04:47.584	$GPGGA,170448,2514.6057,N,07918.5820,W,1,10,1.5,18,M,,M,,*6C
06/19/2015	17:04:48.559	$GPGGA,170449,2514.6057,N,07918.5828,W,1,10,1.7,18,M,,M,,*67
06/19/2015	17:04:49.534	$GPGGA,170450,2514.6055,N,07918.5836,W,1,9,1.7,18,M,,M,,*5A
06/19/2015	17:04:50.546	$GPGGA,170451,2514.6056,N,07918.5845,W,1,9,1.5,18,M,,M,,*5E
06/19/2015	17:04:51.585	$GPGGA,170452,2514.6057,N,07918.5854,W,1,10,1.5,18,M,,M,,*64
06/19/2015	17:04:52.554	$GPGGA,170453,2514.6057,N,07918.5863,W,1,10,1.5,18,M,,M,,*61
06/19/2015	17:04:53.551	$GPGGA,170454,2514.6057,N,07918.5871,W,1,10,1.5,18,M,,M,,*65
06/19/2015	17:04:54.525	$GPGGA,170455,2514.6057,N,07918.5881,W,1,10,1.5,18,M,,M,,*6B
06/19/2015	17:04:55.585	$GPGGA,170456,2514.6059,N,07918.5889,W,1,10,1.5,18,M,,M,,*6E
06/19/2015	17:04:56.524	$GPGGA,170457,2514.6060,N,07918.5897,W,1,10,1.5,18,M,,M,,*6A
06/19/2015	17:04:57.534	$GPGGA,170458,2514.6060,N,07918.5905,W,1,10,1.5,18,M,,M,,*6F
06/19/2015	17:04:58.524	$GPGGA,170459,2514.6060,N,07918.5914,W,1,10,1.5,18,M,,M,,*6E
06/19/2015	17:04:59.546	$GPGGA,170500,2514.6060,N,07918.5922,W,1,9,1.7,18,M,,M,,*5C
06/19/2015	17:05:00.614	$GPGGA,170501,2514.6064,N,07918.5932,W,1,9,1.5,18,M,,M,,*5A
06/19/2015	17:05:01.525	$GPGGA,170502,2514.6064,N,07918.5940,W,1,10,1.5,18,M,,M,,*64
06/19/2015	17:05:02.524	$GPGGA,170503,2514.6064,N,07918.5948,W,1,10,1.5,18,M,,M,,*6D
06/19/2015	17:05:03.684	$GPGGA,170504,2514.6066,N,07918.5957,W,1,10,1.5,18,M,,M,,*66
06/19/2015	17:05:04.514	$GPGGA,170505,2514.6068,N,07918.5965,W,1,10,1.5,18,M,,M,,*68
06/19/2015	17:05:05.967	$GPGGA,170506,2514.6068,N,07918.5975,W,1,10,1.5,18,M,,M,,*6A
06/19/2015	17:05:06.524	$GPGGA,170507,2514.6071,N,07918.5983,W,1,10,1.5,18,M,,M,,*6A
06/19/2015	17:05:07.684	$GPGGA,170508,2514.6070,N,07918.5991,W,1,10,1.5,18,M,,M,,*67
06/19/2015	17:05:08.516	$GPGGA,170509,2514.6071,N,07918.6001,W,1,10,1.5,18,M,,M,,*64
06/19/2015	17:05:09.505	$GPGGA,170510,2514.6073,N,07918.6009,W,1,10,1.5,18,M,,M,,*66
06/19/2015	17:05:10.685	$GPGGA,170511,2514.6072,N,07918.6019,W,1,10,1.5,18,M,,M,,*67
06/19/2015	17:05:11.675	$GPGGA,170512,2514.6073,N,07918.6026,W,1,10,1.7,18,M,,M,,*6B
06/19/2015	17:05:12.515	$GPGGA,170513,2514.6072,N,07918.6035,W,1,10,1.7,18,M,,M,,*69
06/19/2015	17:05:13.585	$GPGGA,170514,2514.6073,N,07918.6044,W,1,9,1.7,18,M,,M,,*51
06/19/2015	17:05:14.594	$GPGGA,170515,2514.6074,N,07918.6052,W,1,9,1.5,18,M,,M,,*52
06/19/2015	17:05:15.674	$GPGGA,170516,2514.6073,N,07918.6060,W,1,10,1.5,18,M,,M,,*6F
06/19/2015	17:05:16.514	$GPGGA,170517,2514.6074,N,07918.6069,W,1,10,1.5,18,M,,M,,*60
06/19/2015	17:05:17.494	$GPGGA,170518,2514.6073,N,07918.6077,W,1,10,1.5,18,M,,M,,*67
06/19/2015	17:05:18.494	$GPGGA,170519,2514.6075,N,07918.6087,W,1,10,1.5,18,M,,M,,*6F
06/19/2015	17:05:19.674	$GPGGA,170520,2514.6075,N,07918.6095,W,1,10,1.5,18,M,,M,,*66
06/19/2015	17:05:20.584	$GPGGA,170521,2514.6077,N,07918.6103,W,1,10,1.5,18,M,,M,,*6B
06/19/2015	17:05:21.574	$GPGGA,170522,2514.6076,N,07918.6113,W,1,10,1.5,18,M,,M,,*68
06/19/2015	17:05:22.624	$GPGGA,170523,2514.6078,N,07918.6120,W,1,10,1.4,17,M,,M,,*69
06/19/2015	17:05:23.664	$GPGGA,170524,2514.6079,N,07918.6128,W,1,10,1.4,17,M,,M,,*67
06/19/2015	17:05:24.645	$GPGGA,170525,2514.6081,N,07918.6136,W,1,10,1.4,17,M,,M,,*6E
06/19/2015	17:05:25.614	$GPGGA,170526,2514.6082,N,07918.6145,W,1,10,1.4,17,M,,M,,*6A
06/19/2015	17:05:26.625	$GPGGA,170527,2514.6082,N,07918.6152,W,1,10,1.4,17,M,,M,,*6D
06/19/2015	17:05:27.625	$GPGGA,170528,2514.6082,N,07918.6161,W,1,10,1.4,17,M,,M,,*62
06/19/2015	17:05:28.615	$GPGGA,170529,2514.6084,N,07918.6171,W,1,10,1.4,17,M,,M,,*64
06/19/2015	17:05:29.635	$GPGGA,170530,2514.6085,N,07918.6178,W,1,10,1.4,17,M,,M,,*64
06/19/2015	17:05:30.625	$GPGGA,170531,2514.6086,N,07918.6188,W,1,10,1.4,17,M,,M,,*69
06/19/2015	17:05:31.604	$GPGGA,170532,2514.6086,N,07918.6196,W,1,10,1.4,17,M,,M,,*65
06/19/2015	17:05:32.547	$GPGGA,170533,2514.6086,N,07918.6207,W,1,10,1.5,17,M,,M,,*6E
06/19/2015	17:05:33.604	$GPGGA,170534,2514.6088,N,07918.6214,W,1,10,1.4,17,M,,M,,*64
06/19/2015	17:05:34.604	$GPGGA,170535,2514.6089,N,07918.6223,W,1,10,1.4,17,M,,M,,*60
06/19/2015	17:05:35.657	$GPGGA,170536,2514.6089,N,07918.6232,W,1,10,1.4,17,M,,M,,*63
06/19/2015	17:05:36.549	$GPGGA,170537,2514.6089,N,07918.6240,W,1,10,1.4,17,M,,M,,*67
06/19/2015	17:05:37.574	$GPGGA,170538,2514.6092,N,07918.6247,W,1,10,1.4,17,M,,M,,*65
06/19/2015	17:05:38.546	$GPGGA,170539,2514.6093,N,07918.6255,W,1,10,1.4,17,M,,M,,*66
06/19/2015	17:05:39.624	$GPGGA,170540,2514.6093,N,07918.6264,W,1,10,1.4,17,M,,M,,*6A
06/19/2015	17:05:40.534	$GPGGA,170541,2514.6093,N,07918.6272,W,1,10,1.4,17,M,,M,,*6C
06/19/2015	17:05:41.574	$GPGGA,170542,2514.6093,N,07918.6280,W,1,10,1.4,17,M,,M,,*62
06/19/2015	17:05:42.614	$GPGGA,170543,2514.6095,N,07918.6290,W,1,10,1.4,17,M,,M,,*64
06/19/2015	17:05:43.605	$GPGGA,170544,2514.6096,N,07918.6297,W,1,10,1.4,17,M,,M,,*67
06/19/2015	17:05:44.595	$GPGGA,170545,2514.6095,N,07918.6305,W,1,10,1.4,17,M,,M,,*6F
06/19/2015	17:05:45.525	$GPGGA,170546,2514.6096,N,07918.6315,W,1,10,1.4,17,M,,M,,*6E
06/19/2015	17:05:46.595	$GPGGA,170547,2514.6097,N,07918.6322,W,1,10,1.4,17,M,,M,,*6A
06/19/2015	17:05:47.595	$GPGGA,170548,2514.6097,N,07918.6329,W,1,11,1.4,17,M,,M,,*6F
06/19/2015	17:05:48.647	$GPGGA,170549,2514.6100,N,07918.6337,W,1,11,1.4,17,M,,M,,*6E
06/19/2015	17:05:49.551	$GPGGA,170550,2514.6102,N,07918.6345,W,1,11,1.4,17,M,,M,,*61
06/19/2015	17:05:50.514	$GPGGA,170551,2514.6101,N,07918.6352,W,1,11,1.4,17,M,,M,,*65
06/19/2015	17:05:51.574	$GPGGA,170552,2514.6103,N,07918.6360,W,1,11,1.5,17,M,,M,,*64
06/19/2015	17:05:52.634	$GPGGA,170553,2514.6102,N,07918.6367,W,1,11,1.4,17,M,,M,,*62
06/19/2015	17:05:53.634	$GPGGA,170554,2514.6103,N,07918.6374,W,1,11,1.5,17,M,,M,,*67
06/19/2015	17:05:54.574	$GPGGA,170555,2514.6101,N,07918.6381,W,1,11,1.5,17,M,,M,,*6E
06/19/2015	17:05:55.574	$GPGGA,170556,2514.6104,N,07918.6389,W,1,10,1.4,17,M,,M,,*60
06/19/2015	17:05:56.574	$GPGGA,170557,2514.6104,N,07918.6398,W,1,10,1.4,17,M,,M,,*61
06/19/2015	17:05:57.494	$GPGGA,170558,2514.6104,N,07918.6405,W,1,11,1.4,17,M,,M,,*6C
06/19/2015	17:05:58.584	$GPGGA,170559,2514.6106,N,07918.6414,W,1,11,1.4,17,M,,M,,*6F
06/19/2015	17:05:59.664	$GPGGA,170600,2514.6107,N,07918.6423,W,1,11,1.4,17,M,,M,,*65
06/19/2015	17:06:00.564	$GPGGA,170601,2514.6109,N,07918.6432,W,1,11,1.4,18,M,,M,,*65
06/19/2015	17:06:01.625	$GPGGA,170602,2514.6110,N,07918.6441,W,1,11,1.5,18,M,,M,,*6B
06/19/2015	17:06:02.595	$GPGGA,170603,2514.6111,N,07918.6450,W,1,11,1.5,18,M,,M,,*6B
06/19/2015	17:06:03.625	$GPGGA,170604,2514.6111,N,07918.6459,W,1,10,1.4,18,M,,M,,*65
06/19/2015	17:06:04.585	$GPGGA,170605,2514.6111,N,07918.6467,W,1,10,1.4,18,M,,M,,*69
06/19/2015	17:06:05.595	$GPGGA,170606,2514.6114,N,07918.6477,W,1,11,1.4,18,M,,M,,*6F
06/19/2015	17:06:06.584	$GPGGA,170607,2514.6115,N,07918.6485,W,1,11,1.4,18,M,,M,,*62
06/19/2015	17:06:07.614	$GPGGA,170608,2514.6115,N,07918.6493,W,1,11,1.4,18,M,,M,,*6A
06/19/2015	17:06:08.584	$GPGGA,170609,2514.6115,N,07918.6503,W,1,11,1.4,18,M,,M,,*63
06/19/2015	17:06:09.604	$GPGGA,170610,2514.6115,N,07918.6511,W,1,11,1.4,19,M,,M,,*69
06/19/2015	17:06:10.574	$GPGGA,170611,2514.6117,N,07918.6519,W,1,11,1.4,19,M,,M,,*62
06/19/2015	17:06:11.614	$GPGGA,170612,2514.6116,N,07918.6528,W,1,11,1.4,19,M,,M,,*62
06/19/2015	17:06:12.604	$GPGGA,170613,2514.6118,N,07918.6535,W,1,11,1.5,19,M,,M,,*60
06/19/2015	17:06:13.584	$GPGGA,170614,2514.6117,N,07918.6544,W,1,10,1.5,19,M,,M,,*6F
06/19/2015	17:06:14.594	$GPGGA,170615,2514.6118,N,07918.6551,W,1,10,1.4,19,M,,M,,*64
06/19/2015	17:06:15.594	$GPGGA,170616,2514.6117,N,07918.6559,W,1,11,1.4,19,M,,M,,*61
06/19/2015	17:06:16.594	$GPGGA,170617,2514.6118,N,07918.6568,W,1,11,1.4,19,M,,M,,*6D
06/19/2015	17:06:17.594	$GPGGA,170618,2514.6120,N,07918.6576,W,1,11,1.4,19,M,,M,,*66
06/19/2015	17:06:19.648	$GPGGA,170620,2514.6120,N,07918.6593,W,1,11,1.5,19,M,,M,,*67
06/19/2015	17:06:20.575	$GPGGA,170621,2514.6121,N,07918.6600,W,1,11,1.4,19,M,,M,,*6F
06/19/2015	17:06:21.565	$GPGGA,170622,2514.6120,N,07918.6609,W,1,11,1.4,19,M,,M,,*64
06/19/2015	17:06:22.575	$GPGGA,170623,2514.6121,N,07918.6618,W,1,11,1.5,19,M,,M,,*65
06/19/2015	17:06:23.585	$GPGGA,170624,2514.6122,N,07918.6627,W,1,10,1.5,19,M,,M,,*6C
06/19/2015	17:06:24.554	$GPGGA,170625,2514.6124,N,07918.6637,W,1,10,1.5,19,M,,M,,*6A
06/19/2015	17:06:25.559	$GPGGA,170626,2514.6122,N,07918.6644,W,1,10,1.5,19,M,,M,,*6B
06/19/2015	17:06:26.574	$GPGGA,170627,2514.6124,N,07918.6652,W,1,10,1.4,19,M,,M,,*6A
06/19/2015	17:06:27.584	$GPGGA,170628,2514.6125,N,07918.6662,W,1,11,1.5,19,M,,M,,*67
06/19/2015	17:06:28.574	$GPGGA,170629,2514.6125,N,07918.6670,W,1,11,1.5,19,M,,M,,*65
06/19/2015	17:06:29.544	$GPGGA,170630,2514.6125,N,07918.6678,W,1,10,1.5,19,M,,M,,*64
06/19/2015	17:06:30.564	$GPGGA,170631,2514.6125,N,07918.6678,W,1,10,1.4,19,M,,M,,*64
06/19/2015	17:06:31.564	$GPGGA,170632,2514.6128,N,07918.6695,W,1,11,1.4,19,M,,M,,*68
06/19/2015	17:06:32.594	$GPGGA,170633,2514.6127,N,07918.6703,W,1,11,1.5,19,M,,M,,*69
06/19/2015	17:06:33.564	$GPGGA,170634,2514.6128,N,07918.6712,W,1,10,1.4,19,M,,M,,*61
06/19/2015	17:06:34.546	$GPGGA,170635,2514.6128,N,07918.6712,W,1,10,1.4,19,M,,M,,*60
06/19/2015	17:06:35.684	$GPGGA,170636,2514.6129,N,07918.6730,W,1,11,1.4,19,M,,M,,*63
06/19/2015	17:06:36.555	$GPGGA,170637,2514.6129,N,07918.6730,W,1,11,1.4,19,M,,M,,*62
06/19/2015	17:06:37.526	$GPGGA,170638,2514.6129,N,07918.6748,W,1,11,1.4,19,M,,M,,*62
06/19/2015	17:06:38.635	$GPGGA,170639,2514.6129,N,07918.6756,W,1,11,1.4,18,M,,M,,*6D
06/19/2015	17:06:39.635	$GPGGA,170640,2514.6131,N,07918.6763,W,1,11,1.4,18,M,,M,,*6C
06/19/2015	17:06:40.615	$GPGGA,170641,2514.6132,N,07918.6772,W,1,11,1.4,18,M,,M,,*6E
06/19/2015	17:06:41.614	$GPGGA,170642,2514.6131,N,07918.6779,W,1,11,1.4,18,M,,M,,*65
06/19/2015	17:06:42.524	$GPGGA,170643,2514.6131,N,07918.6779,W,1,11,1.4,18,M,,M,,*64
06/19/2015	17:06:43.634	$GPGGA,170644,2514.6133,N,07918.6796,W,1,11,1.4,18,M,,M,,*60
06/19/2015	17:06:44.547	$GPGGA,170645,2514.6133,N,07918.6803,W,1,11,1.4,18,M,,M,,*62
06/19/2015	17:06:45.604	$GPGGA,170646,2514.6133,N,07918.6810,W,1,11,1.4,18,M,,M,,*63
06/19/2015	17:06:46.614	$GPGGA,170647,2514.6135,N,07918.6818,W,1,11,1.4,18,M,,M,,*6C
06/19/2015	17:06:47.524	$GPGGA,170648,2514.6136,N,07918.6826,W,1,11,1.4,17,M,,M,,*62
06/19/2015	17:06:48.604	$GPGGA,170649,2514.6135,N,07918.6835,W,1,11,1.4,17,M,,M,,*62
06/19/2015	17:06:49.615	$GPGGA,170650,2514.6136,N,07918.6842,W,1,11,1.4,17,M,,M,,*69
06/19/2015	17:06:50.604	$GPGGA,170651,2514.6138,N,07918.6850,W,1,11,1.4,17,M,,M,,*65
06/19/2015	17:06:51.604	$GPGGA,170652,2514.6137,N,07918.6858,W,1,11,1.4,17,M,,M,,*61
06/19/2015	17:06:52.604	$GPGGA,170653,2514.6138,N,07918.6865,W,1,11,1.4,17,M,,M,,*61
06/19/2015	17:06:53.605	$GPGGA,170654,2514.6139,N,07918.6873,W,1,11,1.4,17,M,,M,,*60
06/19/2015	17:06:54.585	$GPGGA,170655,2514.6140,N,07918.6882,W,1,11,1.4,17,M,,M,,*61
06/19/2015	17:06:55.649	$GPGGA,170656,2514.6140,N,07918.6889,W,1,11,1.4,17,M,,M,,*69
06/19/2015	17:06:56.595	$GPGGA,170657,2514.6140,N,07918.6897,W,1,11,1.4,17,M,,M,,*67
06/19/2015	17:06:57.595	$GPGGA,170658,2514.6140,N,07918.6905,W,1,11,1.4,17,M,,M,,*62
06/19/2015	17:06:58.585	$GPGGA,170659,2514.6140,N,07918.6913,W,1,11,1.4,17,M,,M,,*64
06/19/2015	17:06:59.624	$GPGGA,170700,2514.6140,N,07918.6922,W,1,11,1.4,17,M,,M,,*6B
06/19/2015	17:07:00.584	$GPGGA,170701,2514.6140,N,07918.6922,W,1,11,1.4,17,M,,M,,*6A
06/19/2015	17:07:01.604	$GPGGA,170702,2514.6143,N,07918.6937,W,1,11,1.4,17,M,,M,,*6E
06/19/2015	17:07:02.584	$GPGGA,170703,2514.6142,N,07918.6947,W,1,11,1.4,17,M,,M,,*69
06/19/2015	17:07:03.604	$GPGGA,170704,2514.6143,N,07918.6954,W,1,11,1.4,17,M,,M,,*6D
06/19/2015	17:07:04.574	$GPGGA,170705,2514.6143,N,07918.6962,W,1,11,1.4,17,M,,M,,*69
06/19/2015	17:07:05.584	$GPGGA,170706,2514.6143,N,07918.6970,W,1,11,1.4,17,M,,M,,*69
06/19/2015	17:07:06.574	$GPGGA,170707,2514.6144,N,07918.6978,W,1,11,1.4,17,M,,M,,*67
06/19/2015	17:07:07.574	$GPGGA,170708,2514.6144,N,07918.6987,W,1,11,1.4,17,M,,M,,*68
06/19/2015	17:07:08.564	$GPGGA,170709,2514.6144,N,07918.6995,W,1,11,1.4,17,M,,M,,*6A
06/19/2015	17:07:09.558	$GPGGA,170710,2514.6144,N,07918.7003,W,1,11,1.4,17,M,,M,,*65
06/19/2015	17:07:10.561	$GPGGA,170711,2514.6146,N,07918.7012,W,1,11,1.4,17,M,,M,,*66
06/19/2015	17:07:11.575	$GPGGA,170712,2514.6145,N,07918.7020,W,1,11,1.4,17,M,,M,,*67
06/19/2015	17:07:12.550	$GPGGA,170713,2514.6146,N,07918.7028,W,1,11,1.4,17,M,,M,,*6D
06/19/2015	17:07:13.545	$GPGGA,170714,2514.6145,N,07918.7037,W,1,11,1.4,17,M,,M,,*67
06/19/2015	17:07:14.549	$GPGGA,170715,2514.6147,N,07918.7045,W,1,11,1.4,17,M,,M,,*61
06/19/2015	17:07:15.561	$GPGGA,170716,2514.6147,N,07918.7053,W,1,11,1.4,17,M,,M,,*65
06/19/2015	17:07:16.534	$GPGGA,170717,2514.6147,N,07918.7061,W,1,11,1.4,17,M,,M,,*65
06/19/2015	17:07:17.558	$GPGGA,170718,2514.6147,N,07918.7070,W,1,11,1.4,17,M,,M,,*6A
06/19/2015	17:07:18.549	$GPGGA,170719,2514.6147,N,07918.7078,W,1,11,1.4,17,M,,M,,*63
06/19/2015	17:07:19.584	$GPGGA,170720,2514.6149,N,07918.7086,W,1,11,1.4,17,M,,M,,*66
06/19/2015	17:07:20.565	$GPGGA,170721,2514.6148,N,07918.7095,W,1,11,1.4,17,M,,M,,*64
06/19/2015	17:07:21.565	$GPGGA,170722,2514.6150,N,07918.7103,W,1,11,1.4,17,M,,M,,*60
06/19/2015	17:07:22.649	$GPGGA,170723,2514.6149,N,07918.7113,W,1,11,1.4,17,M,,M,,*68
06/19/2015	17:07:23.654	$GPGGA,170724,2514.6151,N,07918.7121,W,1,11,1.4,17,M,,M,,*67
06/19/2015	17:07:24.524	$GPGGA,170725,2514.6151,N,07918.7128,W,1,11,1.4,17,M,,M,,*6F
06/19/2015	17:07:25.524	$GPGGA,170726,2514.6151,N,07918.7136,W,1,11,1.4,17,M,,M,,*63
06/19/2015	17:07:26.524	$GPGGA,170727,2514.6151,N,07918.7146,W,1,11,1.4,17,M,,M,,*65
06/19/2015	17:07:27.553	$GPGGA,170728,2514.6151,N,07918.7153,W,1,11,1.4,17,M,,M,,*6E
06/19/2015	17:07:28.625	$GPGGA,170729,2514.6153,N,07918.7161,W,1,11,1.4,17,M,,M,,*6C
06/19/2015	17:07:29.635	$GPGGA,170730,2514.6152,N,07918.7169,W,1,11,1.4,17,M,,M,,*6D
06/19/2015	17:07:30.535	$GPGGA,170731,2514.6153,N,07918.7178,W,1,11,1.4,17,M,,M,,*6D
06/19/2015	17:07:31.549	$GPGGA,170732,2514.6154,N,07918.7186,W,1,11,1.4,17,M,,M,,*68
06/19/2015	17:07:32.525	$GPGGA,170733,2514.6154,N,07918.7196,W,1,11,1.4,17,M,,M,,*68
06/19/2015	17:07:33.645	$GPGGA,170734,2514.6153,N,07918.7204,W,1,11,1.4,17,M,,M,,*60
06/19/2015	17:07:34.614	$GPGGA,170735,2514.6154,N,07918.7211,W,1,11,1.4,17,M,,M,,*62
06/19/2015	17:07:35.648	$GPGGA,170736,2514.6154,N,07918.7219,W,1,11,1.4,17,M,,M,,*69
06/19/2015	17:07:36.614	$GPGGA,170737,2514.6156,N,07918.7229,W,1,11,1.4,16,M,,M,,*68
06/19/2015	17:07:37.614	$GPGGA,170738,2514.6155,N,07918.7236,W,1,11,1.4,16,M,,M,,*6A
06/19/2015	17:07:38.594	$GPGGA,170739,2514.6156,N,07918.7244,W,1,11,1.4,16,M,,M,,*6D
06/19/2015	17:07:39.624	$GPGGA,170740,2514.6157,N,07918.7252,W,1,11,1.4,16,M,,M,,*65
06/19/2015	17:07:40.594	$GPGGA,170741,2514.6158,N,07918.7262,W,1,11,1.4,16,M,,M,,*68
06/19/2015	17:07:41.604	$GPGGA,170742,2514.6158,N,07918.7269,W,1,11,1.4,16,M,,M,,*60
06/19/2015	17:07:48.646	$GPGGA,170749,2514.6161,N,07918.7328,W,1,11,1.4,16,M,,M,,*65
06/19/2015	17:07:49.595	$GPGGA,170750,2514.6161,N,07918.7337,W,1,11,1.4,16,M,,M,,*63
06/19/2015	17:07:50.575	$GPGGA,170751,2514.6162,N,07918.7345,W,1,11,1.4,16,M,,M,,*64
06/19/2015	17:07:51.604	$GPGGA,170752,2514.6162,N,07918.7353,W,1,11,1.4,16,M,,M,,*60
06/19/2015	17:07:52.574	$GPGGA,170753,2514.6162,N,07918.7363,W,1,11,1.4,16,M,,M,,*62
06/19/2015	17:07:53.564	$GPGGA,170754,2514.6164,N,07918.7370,W,1,11,1.4,16,M,,M,,*61
06/19/2015	17:07:54.565	$GPGGA,170755,2514.6163,N,07918.7379,W,1,11,1.4,16,M,,M,,*6E
06/19/2015	17:07:55.604	$GPGGA,170756,2514.6164,N,07918.7388,W,1,11,1.4,16,M,,M,,*64
06/19/2015	17:07:56.565	$GPGGA,170757,2514.6165,N,07918.7396,W,1,11,1.4,16,M,,M,,*6B
06/19/2015	17:07:57.561	$GPGGA,170758,2514.6165,N,07918.7404,W,1,11,1.4,16,M,,M,,*68
06/19/2015	17:07:58.548	$GPGGA,170759,2514.6165,N,07918.7413,W,1,11,1.4,16,M,,M,,*6F
06/19/2015	17:07:59.594	$GPGGA,170800,2514.6167,N,07918.7421,W,1,11,1.4,16,M,,M,,*6F
06/19/2015	17:08:00.556	$GPGGA,170801,2514.6166,N,07918.7431,W,1,11,1.4,16,M,,M,,*6E
06/19/2015	17:08:01.554	$GPGGA,170802,2514.6167,N,07918.7439,W,1,11,1.4,16,M,,M,,*64
06/19/2015	17:08:02.557	$GPGGA,170803,2514.6168,N,07918.7447,W,1,11,1.4,16,M,,M,,*63
06/19/2015	17:08:03.556	$GPGGA,170804,2514.6167,N,07918.7456,W,1,11,1.4,16,M,,M,,*6B
06/19/2015	17:08:04.549	$GPGGA,170805,2514.6169,N,07918.7464,W,1,11,1.4,16,M,,M,,*65
06/19/2015	17:08:05.535	$GPGGA,170806,2514.6169,N,07918.7471,W,1,11,1.4,16,M,,M,,*62
06/19/2015	17:08:06.535	$GPGGA,170807,2514.6169,N,07918.7480,W,1,11,1.4,16,M,,M,,*6D
06/19/2015	17:08:07.585	$GPGGA,170808,2514.6171,N,07918.7489,W,1,11,1.4,16,M,,M,,*62
06/19/2015	17:08:08.651	$GPGGA,170809,2514.6172,N,07918.7497,W,1,11,1.4,16,M,,M,,*6F
06/19/2015	17:08:09.556	$GPGGA,170810,2514.6171,N,07918.7505,W,1,11,1.4,16,M,,M,,*6E
06/19/2015	17:08:10.524	$GPGGA,170811,2514.6172,N,07918.7514,W,1,11,1.4,16,M,,M,,*6C
06/19/2015	17:08:11.557	$GPGGA,170812,2514.6172,N,07918.7522,W,1,11,1.4,16,M,,M,,*6A
06/19/2015	17:08:12.547	$GPGGA,170813,2514.6174,N,07918.7530,W,1,11,1.4,16,M,,M,,*6E
06/19/2015	17:08:13.545	$GPGGA,170814,2514.6173,N,07918.7538,W,1,11,1.4,16,M,,M,,*66
06/19/2015	17:08:14.534	$GPGGA,170815,2514.6175,N,07918.7547,W,1,11,1.4,16,M,,M,,*69
06/19/2015	17:08:15.565	$GPGGA,170816,2514.6174,N,07918.7555,W,1,11,1.4,16,M,,M,,*68
06/19/2015	17:08:16.534	$GPGGA,170817,2514.6176,N,07918.7563,W,1,11,1.4,16,M,,M,,*6E
06/19/2015	17:08:17.514	$GPGGA,170818,2514.6176,N,07918.7572,W,1,11,1.4,16,M,,M,,*61
06/19/2015	17:08:18.614	$GPGGA,170819,2514.6176,N,07918.7580,W,1,11,1.4,15,M,,M,,*6E
06/19/2015	17:08:19.659	$GPGGA,170820,2514.6176,N,07918.7588,W,1,11,1.4,15,M,,M,,*6C
06/19/2015	17:08:20.624	$GPGGA,170821,2514.6178,N,07918.7597,W,1,11,1.4,15,M,,M,,*6D
06/19/2015	17:08:21.625	$GPGGA,170822,2514.6179,N,07918.7605,W,1,11,1.4,15,M,,M,,*67
06/19/2015	17:08:22.615	$GPGGA,170823,2514.6178,N,07918.7613,W,1,11,1.4,15,M,,M,,*60
06/19/2015	17:08:23.635	$GPGGA,170824,2514.6180,N,07918.7621,W,1,11,1.4,15,M,,M,,*61
06/19/2015	17:08:24.605	$GPGGA,170825,2514.6180,N,07918.7630,W,1,11,1.4,15,M,,M,,*60
06/19/2015	17:08:25.647	$GPGGA,170826,2514.6180,N,07918.7637,W,1,11,1.4,15,M,,M,,*64
06/19/2015	17:08:26.614	$GPGGA,170827,2514.6182,N,07918.7646,W,1,11,1.5,15,M,,M,,*60
06/19/2015	17:08:27.604	$GPGGA,170828,2514.6183,N,07918.7655,W,1,11,1.4,15,M,,M,,*6D
06/19/2015	17:08:28.594	$GPGGA,170829,2514.6183,N,07918.7663,W,1,11,1.4,15,M,,M,,*69
06/19/2015	17:08:29.624	$GPGGA,170830,2514.6185,N,07918.7673,W,1,11,1.4,15,M,,M,,*66
06/19/2015	17:08:30.584	$GPGGA,170831,2514.6186,N,07918.7681,W,1,11,1.4,15,M,,M,,*69
06/19/2015	17:08:31.624	$GPGGA,170832,2514.6187,N,07918.7689,W,1,11,1.4,15,M,,M,,*63
06/19/2015	17:08:32.584	$GPGGA,170833,2514.6189,N,07918.7697,W,1,11,1.4,15,M,,M,,*63
06/19/2015	17:08:33.614	$GPGGA,170834,2514.6190,N,07918.7706,W,1,11,1.4,15,M,,M,,*65
06/19/2015	17:08:34.594	$GPGGA,170835,2514.6189,N,07918.7714,W,1,11,1.4,15,M,,M,,*6F
06/19/2015	17:08:35.644	$GPGGA,170836,2514.6190,N,07918.7724,W,1,11,1.4,15,M,,M,,*67
06/19/2015	17:08:36.584	$GPGGA,170837,2514.6191,N,07918.7731,W,1,11,1.4,15,M,,M,,*63
06/19/2015	17:08:37.574	$GPGGA,170838,2514.6193,N,07918.7739,W,1,11,1.4,15,M,,M,,*66
06/19/2015	17:08:38.585	$GPGGA,170839,2514.6192,N,07918.7747,W,1,11,1.4,15,M,,M,,*6F
06/19/2015	17:08:39.615	$GPGGA,170840,2514.6193,N,07918.7756,W,1,11,1.4,15,M,,M,,*60
06/19/2015	17:08:40.575	$GPGGA,170841,2514.6194,N,07918.7764,W,1,11,1.4,15,M,,M,,*67
06/19/2015	17:08:41.575	$GPGGA,170842,2514.6194,N,07918.7771,W,1,11,1.4,15,M,,M,,*60
06/19/2015	17:08:42.575	$GPGGA,170843,2514.6194,N,07918.7779,W,1,11,1.4,15,M,,M,,*69
06/19/2015	17:08:43.605	$GPGGA,170844,2514.6196,N,07918.7787,W,1,11,1.4,15,M,,M,,*6D
06/19/2015	17:08:44.574	$GPGGA,170845,2514.6197,N,07918.7796,W,1,11,1.4,15,M,,M,,*6D
06/19/2015	17:08:45.574	$GPGGA,170846,2514.6196,N,07918.7803,W,1,11,1.4,15,M,,M,,*6C
06/19/2015	17:08:46.564	$GPGGA,170847,2514.6198,N,07918.7812,W,1,11,1.4,15,M,,M,,*63
06/19/2015	17:08:47.584	$GPGGA,170848,2514.6198,N,07918.7821,W,1,11,1.4,15,M,,M,,*6C
06/19/2015	17:08:48.574	$GPGGA,170849,2514.6198,N,07918.7829,W,1,11,1.4,15,M,,M,,*65
06/19/2015	17:08:49.584	$GPGGA,170850,2514.6200,N,07918.7836,W,1,11,1.4,15,M,,M,,*61
06/19/2015	17:08:50.564	$GPGGA,170851,2514.6199,N,07918.7845,W,1,11,1.4,15,M,,M,,*67
06/19/2015	17:08:51.574	$GPGGA,170852,2514.6200,N,07918.7854,W,1,11,1.4,15,M,,M,,*67
06/19/2015	17:08:52.544	$GPGGA,170853,2514.6201,N,07918.7861,W,1,11,1.4,15,M,,M,,*61
06/19/2015	17:08:53.544	$GPGGA,170854,2514.6201,N,07918.7869,W,1,11,1.4,15,M,,M,,*6E
06/19/2015	17:08:54.554	$GPGGA,170855,2514.6201,N,07918.7879,W,1,11,1.4,15,M,,M,,*6E
06/19/2015	17:08:55.584	$GPGGA,170856,2514.6201,N,07918.7887,W,1,11,1.4,15,M,,M,,*6C
06/19/2015	17:08:56.548	$GPGGA,170857,2514.6201,N,07918.7894,W,1,11,1.4,15,M,,M,,*6F
06/19/2015	17:08:57.553	$GPGGA,170858,2514.6204,N,07918.7904,W,1,11,1.4,15,M,,M,,*6D
06/19/2015	17:08:58.525	$GPGGA,170859,2514.6203,N,07918.7912,W,1,11,1.4,15,M,,M,,*6C
06/19/2015	17:08:59.605	$GPGGA,170900,2514.6204,N,07918.7920,W,1,11,1.4,15,M,,M,,*67
06/19/2015	17:09:00.525	$GPGGA,170901,2514.6203,N,07918.7928,W,1,11,1.4,15,M,,M,,*69
06/19/2015	17:09:01.546	$GPGGA,170902,2514.6205,N,07918.7937,W,1,11,1.4,15,M,,M,,*62
06/19/2015	17:09:02.524	$GPGGA,170903,2514.6205,N,07918.7945,W,1,11,1.4,15,M,,M,,*66
06/19/2015	17:09:03.647	$GPGGA,170904,2514.6205,N,07918.7953,W,1,11,1.4,15,M,,M,,*66
06/19/2015	17:09:04.534	$GPGGA,170905,2514.6205,N,07918.7962,W,1,11,1.4,15,M,,M,,*65
06/19/2015	17:09:05.634	$GPGGA,170906,2514.6207,N,07918.7971,W,1,11,1.4,15,M,,M,,*66
06/19/2015	17:09:06.504	$GPGGA,170907,2514.6206,N,07918.7980,W,1,11,1.4,15,M,,M,,*68
06/19/2015	17:09:07.545	$GPGGA,170908,2514.6207,N,07918.7988,W,1,11,1.4,15,M,,M,,*6E
06/19/2015	17:09:08.504	$GPGGA,170909,2514.6208,N,07918.7996,W,1,11,1.4,15,M,,M,,*6F
06/19/2015	17:09:09.594	$GPGGA,170910,2514.6207,N,07918.8004,W,1,11,1.4,15,M,,M,,*65
06/19/2015	17:09:10.494	$GPGGA,170911,2514.6208,N,07918.8013,W,1,11,1.4,15,M,,M,,*6D
06/19/2015	17:09:12.504	$GPGGA,170912,2514.6207,N,07918.8021,W,1,10,1.5,15,M,,M,,*60
06/19/2015	17:09:12.536	$GPGGA,170913,2514.6208,N,07918.8029,W,1,10,1.4,15,M,,M,,*67
06/19/2015	17:09:13.594	$GPGGA,170914,2514.6207,N,07918.8038,W,1,11,1.4,15,M,,M,,*6E
06/19/2015	17:09:14.594	$GPGGA,170915,2514.6208,N,07918.8045,W,1,11,1.4,15,M,,M,,*6A
06/19/2015	17:09:15.594	$GPGGA,170916,2514.6206,N,07918.8053,W,1,11,1.4,15,M,,M,,*60
06/19/2015	17:09:16.584	$GPGGA,170917,2514.6208,N,07918.8061,W,1,11,1.4,15,M,,M,,*6E
06/19/2015	17:09:17.614	$GPGGA,170918,2514.6207,N,07918.8069,W,1,11,1.4,15,M,,M,,*66
06/19/2015	17:09:18.584	$GPGGA,170919,2514.6206,N,07918.8078,W,1,11,1.4,15,M,,M,,*66
06/19/2015	17:09:19.603	$GPGGA,170920,2514.6208,N,07918.8086,W,1,11,1.4,15,M,,M,,*63
06/19/2015	17:09:20.593	$GPGGA,170921,2514.6207,N,07918.8094,W,1,11,1.4,15,M,,M,,*6E
06/19/2015	17:09:21.583	$GPGGA,170922,2514.6208,N,07918.8103,W,1,11,1.4,15,M,,M,,*6D
06/19/2015	17:09:22.583	$GPGGA,170923,2514.6207,N,07918.8111,W,1,11,1.4,15,M,,M,,*60
06/19/2015	17:09:23.594	$GPGGA,170924,2514.6208,N,07918.8119,W,1,11,1.4,15,M,,M,,*60
06/19/2015	17:09:24.584	$GPGGA,170925,2514.6208,N,07918.8129,W,1,11,1.4,15,M,,M,,*62
06/19/2015	17:09:25.559	$GPGGA,170926,2514.6208,N,07918.8136,W,1,11,1.4,15,M,,M,,*6F
06/19/2015	17:09:26.574	$GPGGA,170927,2514.6208,N,07918.8144,W,1,11,1.4,15,M,,M,,*6B
06/19/2015	17:09:27.574	$GPGGA,170928,2514.6209,N,07918.8154,W,1,11,1.4,15,M,,M,,*64
06/19/2015	17:09:28.574	$GPGGA,170929,2514.6208,N,07918.8161,W,1,11,1.4,15,M,,M,,*62
06/19/2015	17:09:29.594	$GPGGA,170930,2514.6208,N,07918.8170,W,1,11,1.4,15,M,,M,,*6A
06/19/2015	17:09:30.574	$GPGGA,170931,2514.6211,N,07918.8179,W,1,11,1.5,15,M,,M,,*6B
06/19/2015	17:09:31.604	$GPGGA,170932,2514.6210,N,07918.8186,W,1,11,1.4,15,M,,M,,*68
06/19/2015	17:09:32.555	$GPGGA,170933,2514.6212,N,07918.8195,W,1,11,1.4,15,M,,M,,*69
06/19/2015	17:09:33.574	$GPGGA,170934,2514.6212,N,07918.8204,W,1,11,1.4,15,M,,M,,*65
06/19/2015	17:09:34.558	$GPGGA,170935,2514.6212,N,07918.8212,W,1,11,1.4,15,M,,M,,*63
06/19/2015	17:09:35.624	$GPGGA,170936,2514.6214,N,07918.8220,W,1,11,1.4,15,M,,M,,*67
06/19/2015	17:09:36.554	$GPGGA,170937,2514.6213,N,07918.8228,W,1,11,1.6,15,M,,M,,*6B
06/19/2015	17:09:37.536	$GPGGA,170938,2514.6215,N,07918.8235,W,1,11,1.4,15,M,,M,,*6C
06/19/2015	17:09:38.552	$GPGGA,170939,2514.6216,N,07918.8242,W,1,11,1.4,15,M,,M,,*6E
06/19/2015	17:09:39.583	$GPGGA,170940,2514.6214,N,07918.8251,W,1,11,1.4,15,M,,M,,*60
06/19/2015	17:09:40.542	$GPGGA,170941,2514.6215,N,07918.8259,W,1,11,1.4,15,M,,M,,*68
06/19/2015	17:09:41.548	$GPGGA,170942,2514.6216,N,07918.8267,W,1,10,1.6,15,M,,M,,*66
06/19/2015	17:09:42.556	$GPGGA,170943,2514.6216,N,07918.8277,W,1,10,1.6,15,M,,M,,*66
06/19/2015	17:09:43.574	$GPGGA,170944,2514.6216,N,07918.8284,W,1,10,1.6,15,M,,M,,*6D
06/19/2015	17:09:44.551	$GPGGA,170945,2514.6216,N,07918.8293,W,1,10,1.6,15,M,,M,,*6A
06/19/2015	17:09:45.555	$GPGGA,170946,2514.6216,N,07918.8302,W,1,10,1.6,15,M,,M,,*60
06/19/2015	17:09:46.543	$GPGGA,170947,2514.6216,N,07918.8310,W,1,10,1.6,15,M,,M,,*62
06/19/2015	17:09:47.539	$GPGGA,170948,2514.6216,N,07918.8317,W,1,10,1.6,14,M,,M,,*6B
06/19/2015	17:09:48.556	$GPGGA,170949,2514.6216,N,07918.8325,W,1,10,1.4,14,M,,M,,*69
06/19/2015	17:09:49.559	$GPGGA,170950,2514.6216,N,07918.8335,W,1,11,1.4,14,M,,M,,*61
06/19/2015	17:09:50.514	$GPGGA,170951,2514.6218,N,07918.8342,W,1,11,1.6,14,M,,M,,*6C
06/19/2015	17:09:52.074	$GPGGA,170952,2514.6219,N,07918.8350,W,1,11,1.4,14,M,,M,,*6F
06/19/2015	17:09:52.524	$GPGGA,170953,2514.6219,N,07918.8358,W,1,11,1.4,14,M,,M,,*66
06/19/2015	17:09:53.647	$GPGGA,170954,2514.6219,N,07918.8368,W,1,11,1.4,14,M,,M,,*62
06/19/2015	17:09:54.623	$GPGGA,170955,2514.6218,N,07918.8378,W,1,11,1.6,14,M,,M,,*61
06/19/2015	17:09:55.564	$GPGGA,170956,2514.6217,N,07918.8387,W,1,10,1.6,14,M,,M,,*6C
06/19/2015	17:09:56.523	$GPGGA,170957,2514.6219,N,07918.8394,W,1,10,1.6,14,M,,M,,*61
06/19/2015	17:09:57.623	$GPGGA,170958,2514.6217,N,07918.8404,W,1,11,1.4,14,M,,M,,*6D
06/19/2015	17:09:58.604	$GPGGA,170959,2514.6218,N,07918.8414,W,1,11,1.4,14,M,,M,,*62
06/19/2015	17:09:59.624	$GPGGA,171000,2514.6217,N,07918.8423,W,1,11,1.4,14,M,,M,,*6D
06/19/2015	17:10:00.514	$GPGGA,171001,2514.6218,N,07918.8432,W,1,11,1.4,14,M,,M,,*63
06/19/2015	17:10:01.604	$GPGGA,171002,2514.6216,N,07918.8439,W,1,10,1.4,14,M,,M,,*64
06/19/2015	17:10:02.504	$GPGGA,171003,2514.6216,N,07918.8448,W,1,10,1.4,14,M,,M,,*63
06/19/2015	17:10:03.614	$GPGGA,171004,2514.6216,N,07918.8457,W,1,11,1.6,14,M,,M,,*69
06/19/2015	17:10:04.594	$GPGGA,171005,2514.6216,N,07918.8465,W,1,11,1.4,14,M,,M,,*6B
06/19/2015	17:10:06.069	$GPGGA,171006,2514.6216,N,07918.8473,W,1,11,1.4,14,M,,M,,*6F
06/19/2015	17:10:06.594	$GPGGA,171007,2514.6216,N,07918.8483,W,1,11,1.6,14,M,,M,,*63
06/19/2015	17:10:07.604	$GPGGA,171008,2514.6216,N,07918.8491,W,1,10,1.4,14,M,,M,,*6C
06/19/2015	17:10:08.584	$GPGGA,171009,2514.6214,N,07918.8498,W,1,10,1.4,14,M,,M,,*66
06/19/2015	17:10:09.594	$GPGGA,171010,2514.6216,N,07918.8506,W,1,11,1.4,14,M,,M,,*6B
06/19/2015	17:10:10.584	$GPGGA,171011,2514.6216,N,07918.8516,W,1,11,1.4,14,M,,M,,*6B
06/19/2015	17:10:11.603	$GPGGA,171012,2514.6214,N,07918.8524,W,1,11,1.4,14,M,,M,,*6B
06/19/2015	17:10:12.573	$GPGGA,171013,2514.6215,N,07918.8533,W,1,11,1.4,14,M,,M,,*6D
06/19/2015	17:10:13.593	$GPGGA,171014,2514.6214,N,07918.8541,W,1,11,1.4,14,M,,M,,*6E
06/19/2015	17:10:14.573	$GPGGA,171015,2514.6213,N,07918.8549,W,1,11,1.4,14,M,,M,,*60
06/19/2015	17:10:15.648	$GPGGA,171016,2514.6214,N,07918.8558,W,1,11,1.4,14,M,,M,,*64
06/19/2015	17:10:16.574	$GPGGA,171017,2514.6215,N,07918.8566,W,1,11,1.4,14,M,,M,,*69
06/19/2015	17:10:17.584	$GPGGA,171018,2514.6213,N,07918.8574,W,1,11,1.4,14,M,,M,,*63
06/19/2015	17:10:18.594	$GPGGA,171019,2514.6212,N,07918.8582,W,1,11,1.4,14,M,,M,,*6A
06/19/2015	17:10:19.594	$GPGGA,171020,2514.6214,N,07918.8591,W,1,11,1.4,14,M,,M,,*64
06/19/2015	17:10:20.574	$GPGGA,171021,2514.6213,N,07918.8600,W,1,11,1.4,14,M,,M,,*69
06/19/2015	17:10:21.554	$GPGGA,171022,2514.6212,N,07918.8607,W,1,11,1.4,14,M,,M,,*6C
06/19/2015	17:10:22.564	$GPGGA,171023,2514.6212,N,07918.8616,W,1,11,1.4,14,M,,M,,*6D
06/19/2015	17:10:23.604	$GPGGA,171024,2514.6212,N,07918.8627,W,1,11,1.8,14,M,,M,,*64
06/19/2015	17:10:24.564	$GPGGA,171025,2514.6212,N,07918.8634,W,1,11,1.4,14,M,,M,,*6B
06/19/2015	17:10:25.546	$GPGGA,171026,2514.6212,N,07918.8642,W,1,11,1.5,15,M,,M,,*69
06/19/2015	17:10:26.554	$GPGGA,171027,2514.6212,N,07918.8653,W,1,11,1.4,15,M,,M,,*69
06/19/2015	17:10:27.574	$GPGGA,171028,2514.6214,N,07918.8663,W,1,11,1.4,15,M,,M,,*63
06/19/2015	17:10:28.554	$GPGGA,171029,2514.6212,N,07918.8671,W,1,11,1.5,15,M,,M,,*66
06/19/2015	17:10:29.563	$GPGGA,171030,2514.6212,N,07918.8679,W,1,10,1.5,15,M,,M,,*67
06/19/2015	17:10:30.535	$GPGGA,171031,2514.6212,N,07918.8689,W,1,10,1.4,15,M,,M,,*68
06/19/2015	17:10:31.553	$GPGGA,171032,2514.6210,N,07918.8697,W,1,11,1.4,15,M,,M,,*67
06/19/2015	17:10:32.646	$GPGGA,171033,2514.6211,N,07918.8707,W,1,11,1.4,15,M,,M,,*6F
06/19/2015	17:10:33.564	$GPGGA,171034,2514.6212,N,07918.8715,W,1,11,1.4,15,M,,M,,*68
06/19/2015	17:10:34.554	$GPGGA,171035,2514.6212,N,07918.8723,W,1,11,1.4,15,M,,M,,*6C
06/19/2015	17:10:35.574	$GPGGA,171036,2514.6209,N,07918.8733,W,1,11,1.8,15,M,,M,,*68
06/19/2015	17:10:36.549	$GPGGA,171037,2514.6211,N,07918.8743,W,1,11,1.6,15,M,,M,,*69
06/19/2015	17:10:37.514	$GPGGA,171038,2514.6210,N,07918.8753,W,1,10,1.4,15,M,,M,,*65
06/19/2015	17:10:38.635	$GPGGA,171039,2514.6209,N,07918.8761,W,1,10,1.4,15,M,,M,,*6D
06/19/2015	17:10:39.624	$GPGGA,171040,2514.6209,N,07918.8768,W,1,11,1.4,16,M,,M,,*68
06/19/2015	17:10:40.548	$GPGGA,171041,2514.6209,N,07918.8779,W,1,11,1.5,16,M,,M,,*68
06/19/2015	17:10:41.824	$GPGGA,171042,2514.6208,N,07918.8786,W,1,10,1.4,16,M,,M,,*6A
06/19/2015	17:10:42.524	$GPGGA,171043,2514.6208,N,07918.8786,W,1,10,1.4,16,M,,M,,*6B
06/19/2015	17:10:43.554	$GPGGA,171044,2514.6208,N,07918.8806,W,1,10,1.4,16,M,,M,,*6B
06/19/2015	17:10:44.541	$GPGGA,171045,2514.6207,N,07918.8815,W,1,10,1.4,16,M,,M,,*67
06/19/2015	17:10:45.614	$GPGGA,171046,2514.6206,N,07918.8823,W,1,11,1.4,16,M,,M,,*61
06/19/2015	17:10:46.513	$GPGGA,171047,2514.6208,N,07918.8833,W,1,11,1.4,16,M,,M,,*6F
06/19/2015	17:10:47.573	$GPGGA,171048,2514.6208,N,07918.8840,W,1,11,1.4,16,M,,M,,*64
06/19/2015	17:10:48.593	$GPGGA,171049,2514.6206,N,07918.8849,W,1,11,1.6,16,M,,M,,*60
06/19/2015	17:10:49.603	$GPGGA,171050,2514.6207,N,07918.8859,W,1,10,1.4,16,M,,M,,*6B
06/19/2015	17:10:50.593	$GPGGA,171051,2514.6208,N,07918.8866,W,1,10,1.4,16,M,,M,,*69
06/19/2015	17:10:51.634	$GPGGA,171052,2514.6206,N,07918.8874,W,1,11,1.4,16,M,,M,,*66
06/19/2015	17:10:52.524	$GPGGA,171053,2514.6207,N,07918.8884,W,1,11,1.6,16,M,,M,,*6B
06/19/2015	17:10:53.604	$GPGGA,171054,2514.6206,N,07918.8891,W,1,10,1.4,16,M,,M,,*6A
06/19/2015	17:10:54.604	$GPGGA,171055,2514.6207,N,07918.8900,W,1,10,1.4,16,M,,M,,*63
06/19/2015	17:10:55.647	$GPGGA,171056,2514.6206,N,07918.8909,W,1,11,1.4,16,M,,M,,*69
06/19/2015	17:10:56.584	$GPGGA,171057,2514.6205,N,07918.8920,W,1,11,1.4,16,M,,M,,*60
06/19/2015	17:10:57.614	$GPGGA,171058,2514.6207,N,07918.8928,W,1,11,1.4,16,M,,M,,*65
06/19/2015	17:10:58.574	$GPGGA,171059,2514.6206,N,07918.8938,W,1,11,1.4,16,M,,M,,*64
06/19/2015	17:10:59.614	$GPGGA,171100,2514.6205,N,07918.8946,W,1,10,1.6,16,M,,M,,*60
06/19/2015	17:11:00.594	$GPGGA,171101,2514.6205,N,07918.8954,W,1,10,1.4,16,M,,M,,*60
06/19/2015	17:11:01.584	$GPGGA,171102,2514.6205,N,07918.8964,W,1,11,1.6,16,M,,M,,*63
06/19/2015	17:11:02.564	$GPGGA,171103,2514.6203,N,07918.8974,W,1,11,1.6,16,M,,M,,*65
06/19/2015	17:11:03.584	$GPGGA,171104,2514.6204,N,07918.8983,W,1,9,1.6,16,M,,M,,*54
06/19/2015	17:11:04.563	$GPGGA,171105,2514.6205,N,07918.8990,W,1,9,1.4,16,M,,M,,*54
06/19/2015	17:11:05.603	$GPGGA,171106,2514.6205,N,07918.8999,W,1,11,1.4,16,M,,M,,*67
06/19/2015	17:11:06.563	$GPGGA,171107,2514.6205,N,07918.9008,W,1,11,1.6,16,M,,M,,*64
06/19/2015	17:11:07.613	$GPGGA,171108,2514.6205,N,07918.9018,W,1,10,1.6,16,M,,M,,*6B
06/19/2015	17:11:08.554	$GPGGA,171109,2514.6205,N,07918.9028,W,1,10,1.6,16,M,,M,,*69
06/19/2015	17:11:09.584	$GPGGA,171110,2514.6203,N,07918.9036,W,1,10,1.6,16,M,,M,,*68
06/19/2015	17:11:10.564	$GPGGA,171111,2514.6202,N,07918.9046,W,1,10,1.6,16,M,,M,,*6F
06/19/2015	17:11:11.584	$GPGGA,171112,2514.6203,N,07918.9055,W,1,10,1.6,15,M,,M,,*6C
06/19/2015	17:11:12.544	$GPGGA,171113,2514.6201,N,07918.9065,W,1,10,1.6,15,M,,M,,*6C
06/19/2015	17:11:13.584	$GPGGA,171114,2514.6201,N,07918.9075,W,1,10,1.6,15,M,,M,,*6A
06/19/2015	17:11:14.545	$GPGGA,171115,2514.6201,N,07918.9084,W,1,10,1.6,15,M,,M,,*65
06/19/2015	17:11:15.574	$GPGGA,171116,2514.6200,N,07918.9093,W,1,10,1.6,15,M,,M,,*61
06/19/2015	17:11:16.554	$GPGGA,171117,2514.6199,N,07918.9102,W,1,10,1.6,15,M,,M,,*6A
06/19/2015	17:11:17.564	$GPGGA,171118,2514.6200,N,07918.9112,W,1,10,1.6,15,M,,M,,*67
06/19/2015	17:11:19.594	$GPGGA,171120,2514.6198,N,07918.9131,W,1,10,1.6,15,M,,M,,*6F
06/19/2015	17:11:20.548	$GPGGA,171121,2514.6198,N,07918.9140,W,1,10,1.6,15,M,,M,,*68
06/19/2015	17:11:21.548	$GPGGA,171122,2514.6198,N,07918.9151,W,1,10,1.6,15,M,,M,,*6B
06/19/2015	17:11:22.533	$GPGGA,171123,2514.6198,N,07918.9159,W,1,10,1.6,15,M,,M,,*62
06/19/2015	17:11:23.563	$GPGGA,171124,2514.6196,N,07918.9169,W,1,10,1.6,15,M,,M,,*68
06/19/2015	17:11:24.537	$GPGGA,171125,2514.6197,N,07918.9176,W,1,10,1.4,15,M,,M,,*64
06/19/2015	17:11:25.554	$GPGGA,171126,2514.6196,N,07918.9184,W,1,11,1.4,15,M,,M,,*6A
06/19/2015	17:11:26.524	$GPGGA,171127,2514.6195,N,07918.9194,W,1,11,1.6,15,M,,M,,*6B
06/19/2015	17:11:27.644	$GPGGA,171128,2514.6196,N,07918.9205,W,1,10,1.6,15,M,,M,,*6D
06/19/2015	17:11:28.514	$GPGGA,171129,2514.6195,N,07918.9214,W,1,10,1.4,14,M,,M,,*6C
06/19/2015	17:11:29.534	$GPGGA,171130,2514.6194,N,07918.9223,W,1,11,1.4,14,M,,M,,*60
06/19/2015	17:11:30.514	$GPGGA,171131,2514.6194,N,07918.9232,W,1,11,1.4,14,M,,M,,*61
06/19/2015	17:11:31.645	$GPGGA,171132,2514.6194,N,07918.9241,W,1,11,1.4,14,M,,M,,*66
06/19/2015	17:11:32.514	$GPGGA,171133,2514.6194,N,07918.9250,W,1,11,1.4,14,M,,M,,*67
06/19/2015	17:11:33.524	$GPGGA,171134,2514.6194,N,07918.9259,W,1,10,1.6,14,M,,M,,*6A
06/19/2015	17:11:34.514	$GPGGA,171135,2514.6194,N,07918.9267,W,1,10,1.4,14,M,,M,,*64
06/19/2015	17:11:35.624	$GPGGA,171136,2514.6192,N,07918.9274,W,1,11,1.4,14,M,,M,,*62
06/19/2015	17:11:36.514	$GPGGA,171137,2514.6193,N,07918.9282,W,1,11,1.4,14,M,,M,,*6B
06/19/2015	17:11:37.604	$GPGGA,171138,2514.6192,N,07918.9292,W,1,11,1.4,14,M,,M,,*64
06/19/2015	17:11:38.494	$GPGGA,171139,2514.6191,N,07918.9301,W,1,11,1.6,14,M,,M,,*6F
06/19/2015	17:11:39.523	$GPGGA,171140,2514.6191,N,07918.9310,W,1,10,1.6,14,M,,M,,*60
06/19/2015	17:11:40.613	$GPGGA,171141,2514.6189,N,07918.9318,W,1,10,1.5,14,M,,M,,*63
06/19/2015	17:11:41.493	$GPGGA,171142,2514.6190,N,07918.9328,W,1,11,1.4,14,M,,M,,*6B
06/19/2015	17:11:42.583	$GPGGA,171143,2514.6189,N,07918.9336,W,1,11,1.4,14,M,,M,,*6D
06/19/2015	17:11:43.604	$GPGGA,171144,2514.6190,N,07918.9344,W,1,10,1.5,14,M,,M,,*67
06/19/2015	17:11:44.594	$GPGGA,171145,2514.6189,N,07918.9353,W,1,10,1.6,14,M,,M,,*6B
06/19/2015	17:11:45.624	$GPGGA,171146,2514.6190,N,07918.9361,W,1,11,1.4,14,M,,M,,*62
06/19/2015	17:11:46.584	$GPGGA,171147,2514.6188,N,07918.9371,W,1,11,1.5,14,M,,M,,*6A
06/19/2015	17:11:47.594	$GPGGA,171148,2514.6187,N,07918.9380,W,1,10,1.6,14,M,,M,,*66
06/19/2015	17:11:48.584	$GPGGA,171149,2514.6189,N,07918.9390,W,1,10,1.6,14,M,,M,,*68
06/19/2015	17:11:49.594	$GPGGA,171150,2514.6188,N,07918.9400,W,1,10,1.6,14,M,,M,,*6F
06/19/2015	17:11:50.574	$GPGGA,171151,2514.6187,N,07918.9408,W,1,10,1.4,14,M,,M,,*6B
06/19/2015	17:11:51.604	$GPGGA,171152,2514.6187,N,07918.9418,W,1,11,1.4,14,M,,M,,*68
