Software Version Number: 1	Data File Format Number: 1	Build Version Number: 1	Error Count Since VI Started: 1	Manufacturer: Raytheon	 Model Number: RayMarine 120	 S/N: 	 Cal Date: 	 Wind Direction Offset: 0.00	 Slope (M)1: 0.00	 Offset (B)1: 0.00	 Slope (M)2: 0.00	 Offset (B)2: 0.00	 Slope (M)3: 0.00	 Offset (B)3: 0.00	 Slope (M)4: 0.00	 Offset (B)4: 0.00	 Slope (M)5: 0.00	 Offset (B)5: 0.00	 Slope (M)6: 0.00	 Offset (B)6: 0.00
Computer Date	Computer Time	GGA String
06/12/2015	02:00:00.088	$GPGGA,020000,2428.9505,N,08119.0773,W,1,9,2.1,29,M,,M,,*54
06/12/2015	02:00:00.537	$GPGGA,020001,2428.9503,N,08119.0777,W,1,9,2.1,29,M,,M,,*57
06/12/2015	02:00:01.954	$GPGGA,020002,2428.9500,N,08119.0784,W,1,9,2.1,29,M,,M,,*5B
06/12/2015	02:00:02.504	$GPGGA,020003,2428.9500,N,08119.0789,W,1,9,2.1,29,M,,M,,*57
06/12/2015	02:00:03.535	$GPGGA,020004,2428.9498,N,08119.0795,W,1,8,2.3,29,M,,M,,*5E
06/12/2015	02:00:04.504	$GPGGA,020005,2428.9499,N,08119.0800,W,1,8,2.1,29,M,,M,,*5F
06/12/2015	02:00:05.513	$GPGGA,020006,2428.9496,N,08119.0806,W,1,8,2.7,28,M,,M,,*52
06/12/2015	02:00:06.523	$GPGGA,020007,2428.9493,N,08119.0809,W,1,8,2.1,28,M,,M,,*5F
06/12/2015	02:00:07.503	$GPGGA,020008,2428.9492,N,08119.0816,W,1,9,2.1,28,M,,M,,*5E
06/12/2015	02:00:08.493	$GPGGA,020009,2428.9490,N,08119.0821,W,1,9,2.1,28,M,,M,,*59
06/12/2015	02:00:09.493	$GPGGA,020010,2428.9489,N,08119.0827,W,1,9,2.1,28,M,,M,,*5F
06/12/2015	02:00:10.583	$GPGGA,020011,2428.9486,N,08119.0831,W,1,9,2.1,28,M,,M,,*56
06/12/2015	02:00:11.603	$GPGGA,020012,2428.9484,N,08119.0836,W,1,9,2.1,28,M,,M,,*50
06/12/2015	02:00:12.493	$GPGGA,020013,2428.9482,N,08119.0840,W,1,9,2.1,28,M,,M,,*56
06/12/2015	02:00:13.614	$GPGGA,020014,2428.9482,N,08119.0846,W,1,8,2.3,28,M,,M,,*54
06/12/2015	02:00:14.574	$GPGGA,020015,2428.9482,N,08119.0853,W,1,8,2.1,28,M,,M,,*53
06/12/2015	02:00:15.604	$GPGGA,020016,2428.9479,N,08119.0857,W,1,8,2.3,28,M,,M,,*52
06/12/2015	02:00:16.564	$GPGGA,020017,2428.9478,N,08119.0863,W,1,8,2.3,28,M,,M,,*55
06/12/2015	02:00:17.584	$GPGGA,020018,2428.9482,N,08119.0867,W,1,8,2.3,28,M,,M,,*5B
06/12/2015	02:00:18.584	$GPGGA,020019,2428.9482,N,08119.0871,W,1,8,2.1,28,M,,M,,*5F
06/12/2015	02:00:19.584	$GPGGA,020020,2428.9482,N,08119.0874,W,1,8,2.3,28,M,,M,,*52
06/12/2015	02:00:20.574	$GPGGA,020021,2428.9480,N,08119.0878,W,1,8,2.9,29,M,,M,,*56
06/12/2015	02:00:21.574	$GPGGA,020022,2428.9481,N,08119.0882,W,1,8,2.3,29,M,,M,,*5B
06/12/2015	02:00:22.993	$GPGGA,020023,2428.9479,N,08119.0887,W,1,8,2.1,29,M,,M,,*5A
06/12/2015	02:00:23.603	$GPGGA,020024,2428.9478,N,08119.0892,W,1,8,2.3,29,M,,M,,*5A
06/12/2015	02:00:24.563	$GPGGA,020025,2428.9476,N,08119.0897,W,1,8,2.3,29,M,,M,,*50
06/12/2015	02:00:25.573	$GPGGA,020026,2428.9477,N,08119.0903,W,1,8,2.3,29,M,,M,,*5E
06/12/2015	02:00:26.553	$GPGGA,020027,2428.9474,N,08119.0904,W,1,8,2.3,29,M,,M,,*5B
06/12/2015	02:00:27.883	$GPGGA,020028,2428.9473,N,08119.0910,W,1,9,2.1,30,M,,M,,*5D
06/12/2015	02:00:28.549	$GPGGA,020029,2428.9474,N,08119.0917,W,1,9,2.3,30,M,,M,,*5E
06/12/2015	02:00:29.536	$GPGGA,020030,2428.9473,N,08119.0921,W,1,8,2.3,30,M,,M,,*55
06/12/2015	02:00:30.554	$GPGGA,020031,2428.9471,N,08119.0926,W,1,8,2.7,30,M,,M,,*55
06/12/2015	02:00:31.549	$GPGGA,020032,2428.9469,N,08119.0932,W,1,8,2.3,30,M,,M,,*5E
06/12/2015	02:00:32.547	$GPGGA,020033,2428.9470,N,08119.0940,W,1,8,2.3,30,M,,M,,*52
06/12/2015	02:00:33.541	$GPGGA,020034,2428.9467,N,08119.0947,W,1,9,2.1,30,M,,M,,*57
06/12/2015	02:00:34.550	$GPGGA,020035,2428.9464,N,08119.0951,W,1,9,2.3,30,M,,M,,*50
06/12/2015	02:00:35.546	$GPGGA,020036,2428.9464,N,08119.0958,W,1,9,2.1,31,M,,M,,*59
06/12/2015	02:00:36.548	$GPGGA,020037,2428.9462,N,08119.0965,W,1,9,3.1,31,M,,M,,*51
06/12/2015	02:00:37.553	$GPGGA,020038,2428.9460,N,08119.0970,W,1,8,2.3,31,M,,M,,*5A
06/12/2015	02:00:38.524	$GPGGA,020039,2428.9460,N,08119.0972,W,1,8,3.1,31,M,,M,,*5A
06/12/2015	02:00:39.545	$GPGGA,020040,2428.9462,N,08119.0979,W,1,8,2.3,31,M,,M,,*5E
06/12/2015	02:00:40.523	$GPGGA,020041,2428.9458,N,08119.0986,W,1,8,2.3,31,M,,M,,*56
06/12/2015	02:00:41.513	$GPGGA,020042,2428.9456,N,08119.0993,W,1,7,3.1,31,M,,M,,*53
06/12/2015	02:00:42.534	$GPGGA,020043,2428.9455,N,08119.0999,W,1,7,2.2,31,M,,M,,*59
06/12/2015	02:00:43.563	$GPGGA,020044,2428.9453,N,08119.1005,W,1,8,2.3,30,M,,M,,*5A
06/12/2015	02:00:44.633	$GPGGA,020045,2428.9453,N,08119.1011,W,1,8,2.3,30,M,,M,,*5E
06/12/2015	02:00:45.623	$GPGGA,020046,2428.9453,N,08119.1017,W,1,8,2.3,30,M,,M,,*5B
06/12/2015	02:00:46.603	$GPGGA,020047,2428.9449,N,08119.1027,W,1,8,2.1,30,M,,M,,*50
06/12/2015	02:00:47.643	$GPGGA,020048,2428.9449,N,08119.1033,W,1,8,2.3,30,M,,M,,*58
06/12/2015	02:00:48.504	$GPGGA,020049,2428.9449,N,08119.1037,W,1,8,2.1,30,M,,M,,*5F
06/12/2015	02:00:49.524	$GPGGA,020050,2428.9449,N,08119.1040,W,1,8,2.3,29,M,,M,,*5D
06/12/2015	02:00:50.614	$GPGGA,020051,2428.9449,N,08119.1045,W,1,8,2.3,29,M,,M,,*59
06/12/2015	02:00:51.634	$GPGGA,020052,2428.9447,N,08119.1051,W,1,8,2.3,29,M,,M,,*51
06/12/2015	02:00:52.505	$GPGGA,020053,2428.9446,N,08119.1055,W,1,8,2.2,29,M,,M,,*54
06/12/2015	02:00:53.584	$GPGGA,020054,2428.9445,N,08119.1060,W,1,8,2.3,29,M,,M,,*57
06/12/2015	02:00:54.604	$GPGGA,020055,2428.9445,N,08119.1066,W,1,8,2.3,29,M,,M,,*50
06/12/2015	02:00:55.624	$GPGGA,020056,2428.9445,N,08119.1067,W,1,8,2.3,29,M,,M,,*52
06/12/2015	02:00:56.514	$GPGGA,020057,2428.9443,N,08119.1071,W,1,8,2.2,29,M,,M,,*53
06/12/2015	02:00:57.593	$GPGGA,020058,2428.9444,N,08119.1077,W,1,8,2.3,29,M,,M,,*5C
06/12/2015	02:00:58.483	$GPGGA,020059,2428.9443,N,08119.1082,W,1,8,2.3,29,M,,M,,*50
06/12/2015	02:00:59.603	$GPGGA,020100,2428.9442,N,08119.1087,W,1,8,2.3,29,M,,M,,*59
06/12/2015	02:01:00.563	$GPGGA,020101,2428.9442,N,08119.1095,W,1,8,2.3,29,M,,M,,*5B
06/12/2015	02:01:01.625	$GPGGA,020102,2428.9439,N,08119.1099,W,1,7,3.1,28,M,,M,,*55
06/12/2015	02:01:02.583	$GPGGA,020103,2428.9440,N,08119.1105,W,1,7,3.1,28,M,,M,,*5E
06/12/2015	02:01:03.583	$GPGGA,020104,2428.9438,N,08119.1110,W,1,7,3.1,28,M,,M,,*52
06/12/2015	02:01:04.573	$GPGGA,020105,2428.9436,N,08119.1116,W,1,7,2.3,28,M,,M,,*58
06/12/2015	02:01:05.593	$GPGGA,020106,2428.9435,N,08119.1123,W,1,7,3.1,28,M,,M,,*5D
06/12/2015	02:01:06.553	$GPGGA,020107,2428.9435,N,08119.1128,W,1,7,3.1,28,M,,M,,*57
06/12/2015	02:01:07.593	$GPGGA,020108,2428.9433,N,08119.1134,W,1,7,3.1,28,M,,M,,*53
06/12/2015	02:01:08.553	$GPGGA,020109,2428.9432,N,08119.1138,W,1,7,3.1,27,M,,M,,*50
06/12/2015	02:01:09.542	$GPGGA,020110,2428.9433,N,08119.1142,W,1,8,2.3,27,M,,M,,*58
06/12/2015	02:01:10.553	$GPGGA,020111,2428.9431,N,08119.1149,W,1,8,2.3,27,M,,M,,*50
06/12/2015	02:01:11.583	$GPGGA,020112,2428.9431,N,08119.1150,W,1,8,2.3,27,M,,M,,*5B
06/12/2015	02:01:12.553	$GPGGA,020113,2428.9431,N,08119.1156,W,1,8,2.2,27,M,,M,,*5D
06/12/2015	02:01:13.563	$GPGGA,020114,2428.9429,N,08119.1163,W,1,7,3.1,27,M,,M,,*58
06/12/2015	02:01:14.535	$GPGGA,020115,2428.9427,N,08119.1167,W,1,7,2.3,27,M,,M,,*50
06/12/2015	02:01:15.572	$GPGGA,020116,2428.9425,N,08119.1171,W,1,7,3.1,27,M,,M,,*55
06/12/2015	02:01:16.536	$GPGGA,020117,2428.9424,N,08119.1175,W,1,7,2.2,27,M,,M,,*53
06/12/2015	02:01:17.553	$GPGGA,020118,2428.9424,N,08119.1181,W,1,8,2.4,27,M,,M,,*5E
06/12/2015	02:01:18.527	$GPGGA,020119,2428.9424,N,08119.1182,W,1,8,2.3,27,M,,M,,*5B
06/12/2015	02:01:20.073	$GPGGA,020120,2428.9424,N,08119.1185,W,1,9,2.2,27,M,,M,,*56
06/12/2015	02:01:20.534	$GPGGA,020121,2428.9424,N,08119.1192,W,1,9,2.2,27,M,,M,,*51
06/12/2015	02:01:21.543	$GPGGA,020122,2428.9424,N,08119.1200,W,1,9,2.2,28,M,,M,,*55
06/12/2015	02:01:22.525	$GPGGA,020123,2428.9420,N,08119.1207,W,1,9,3.1,28,M,,M,,*55
06/12/2015	02:01:23.564	$GPGGA,020124,2428.9419,N,08119.1211,W,1,9,2.2,28,M,,M,,*5D
06/12/2015	02:01:24.513	$GPGGA,020125,2428.9418,N,08119.1217,W,1,9,3.1,28,M,,M,,*59
06/12/2015	02:01:25.525	$GPGGA,020126,2428.9419,N,08119.1221,W,1,8,2.3,28,M,,M,,*5C
06/12/2015	02:01:26.523	$GPGGA,020127,2428.9417,N,08119.1228,W,1,8,2.3,28,M,,M,,*5A
06/12/2015	02:01:27.533	$GPGGA,020128,2428.9417,N,08119.1232,W,1,8,2.3,28,M,,M,,*5E
06/12/2015	02:01:28.513	$GPGGA,020129,2428.9415,N,08119.1237,W,1,8,2.2,28,M,,M,,*59
06/12/2015	02:01:29.513	$GPGGA,020130,2428.9414,N,08119.1243,W,1,8,2.3,29,M,,M,,*53
06/12/2015	02:01:30.503	$GPGGA,020131,2428.9415,N,08119.1248,W,1,8,2.3,29,M,,M,,*58
06/12/2015	02:01:31.533	$GPGGA,020132,2428.9413,N,08119.1254,W,1,9,2.2,29,M,,M,,*50
06/12/2015	02:01:32.502	$GPGGA,020133,2428.9413,N,08119.1259,W,1,9,2.2,29,M,,M,,*5C
06/12/2015	02:01:33.513	$GPGGA,020134,2428.9411,N,08119.1265,W,1,9,2.2,29,M,,M,,*56
06/12/2015	02:01:34.513	$GPGGA,020135,2428.9410,N,08119.1272,W,1,9,2.3,29,M,,M,,*51
06/12/2015	02:01:35.513	$GPGGA,020136,2428.9408,N,08119.1276,W,1,8,2.3,29,M,,M,,*5E
06/12/2015	02:01:36.504	$GPGGA,020137,2428.9406,N,08119.1282,W,1,8,2.3,29,M,,M,,*5A
06/12/2015	02:01:37.683	$GPGGA,020138,2428.9406,N,08119.1287,W,1,8,2.3,29,M,,M,,*50
06/12/2015	02:01:38.493	$GPGGA,020139,2428.9404,N,08119.1293,W,1,8,2.3,29,M,,M,,*56
06/12/2015	02:01:39.513	$GPGGA,020140,2428.9402,N,08119.1298,W,1,9,2.2,29,M,,M,,*55
06/12/2015	02:01:40.493	$GPGGA,020141,2428.9400,N,08119.1304,W,1,9,2.3,29,M,,M,,*53
06/12/2015	02:01:41.673	$GPGGA,020142,2428.9399,N,08119.1308,W,1,8,2.3,29,M,,M,,*5A
06/12/2015	02:01:42.573	$GPGGA,020143,2428.9398,N,08119.1312,W,1,8,2.3,29,M,,M,,*51
06/12/2015	02:01:43.683	$GPGGA,020144,2428.9396,N,08119.1318,W,1,9,2.2,29,M,,M,,*52
06/12/2015	02:01:44.603	$GPGGA,020145,2428.9395,N,08119.1324,W,1,9,2.2,29,M,,M,,*5F
06/12/2015	02:01:45.683	$GPGGA,020146,2428.9393,N,08119.1333,W,1,9,2.2,29,M,,M,,*5C
06/12/2015	02:01:46.613	$GPGGA,020147,2428.9390,N,08119.1340,W,1,9,2.2,29,M,,M,,*5A
06/12/2015	02:01:47.663	$GPGGA,020148,2428.9391,N,08119.1344,W,1,7,2.2,29,M,,M,,*5E
06/12/2015	02:01:48.625	$GPGGA,020149,2428.9390,N,08119.1349,W,1,7,2.3,29,M,,M,,*52
06/12/2015	02:01:49.473	$GPGGA,020150,2428.9388,N,08119.1355,W,1,8,2.3,29,M,,M,,*51
06/12/2015	02:01:50.593	$GPGGA,020151,2428.9386,N,08119.1362,W,1,8,2.3,29,M,,M,,*5A
06/12/2015	02:01:51.663	$GPGGA,020152,2428.9385,N,08119.1369,W,1,8,3.1,29,M,,M,,*52
06/12/2015	02:01:52.584	$GPGGA,020153,2428.9384,N,08119.1376,W,1,8,3.1,29,M,,M,,*5C
06/12/2015	02:01:53.663	$GPGGA,020154,2428.9382,N,08119.1381,W,1,9,2.3,29,M,,M,,*57
06/12/2015	02:01:54.553	$GPGGA,020155,2428.9379,N,08119.1387,W,1,9,2.3,29,M,,M,,*54
06/12/2015	02:01:55.673	$GPGGA,020156,2428.9377,N,08119.1392,W,1,8,2.3,29,M,,M,,*5C
06/12/2015	02:01:56.553	$GPGGA,020157,2428.9375,N,08119.1400,W,1,8,2.3,29,M,,M,,*53
06/12/2015	02:01:57.653	$GPGGA,020158,2428.9376,N,08119.1407,W,1,8,2.3,29,M,,M,,*58
06/12/2015	02:01:58.543	$GPGGA,020159,2428.9372,N,08119.1413,W,1,8,2.2,29,M,,M,,*59
06/12/2015	02:01:59.643	$GPGGA,020200,2428.9371,N,08119.1420,W,1,8,2.2,29,M,,M,,*55
06/12/2015	02:02:00.593	$GPGGA,020201,2428.9370,N,08119.1425,W,1,8,2.4,29,M,,M,,*56
06/12/2015	02:02:01.643	$GPGGA,020202,2428.9367,N,08119.1431,W,1,8,2.4,29,M,,M,,*56
06/12/2015	02:02:02.573	$GPGGA,020203,2428.9364,N,08119.1436,W,1,8,2.3,29,M,,M,,*54
06/12/2015	02:02:04.064	$GPGGA,020204,2428.9363,N,08119.1445,W,1,8,2.3,29,M,,M,,*50
06/12/2015	02:02:04.563	$GPGGA,020205,2428.9361,N,08119.1450,W,1,8,3.1,29,M,,M,,*54
06/12/2015	02:02:05.643	$GPGGA,020206,2428.9359,N,08119.1456,W,1,9,2.2,28,M,,M,,*58
06/12/2015	02:02:06.563	$GPGGA,020207,2428.9355,N,08119.1460,W,1,9,2.2,28,M,,M,,*50
06/12/2015	02:02:07.652	$GPGGA,020208,2428.9355,N,08119.1464,W,1,9,2.2,28,M,,M,,*5B
06/12/2015	02:02:08.563	$GPGGA,020209,2428.9355,N,08119.1471,W,1,9,2.8,28,M,,M,,*54
06/12/2015	02:02:09.528	$GPGGA,020210,2428.9350,N,08119.1478,W,1,8,2.8,28,M,,M,,*51
06/12/2015	02:02:10.523	$GPGGA,020211,2428.9348,N,08119.1482,W,1,8,2.4,28,M,,M,,*50
06/12/2015	02:02:11.643	$GPGGA,020212,2428.9345,N,08119.1488,W,1,8,2.2,28,M,,M,,*52
06/12/2015	02:02:12.513	$GPGGA,020213,2428.9344,N,08119.1495,W,1,8,2.2,28,M,,M,,*5E
06/12/2015	02:02:13.633	$GPGGA,020214,2428.9342,N,08119.1500,W,1,8,2.4,28,M,,M,,*54
06/12/2015	02:02:14.513	$GPGGA,020215,2428.9341,N,08119.1506,W,1,8,2.4,28,M,,M,,*50
06/12/2015	02:02:15.613	$GPGGA,020216,2428.9341,N,08119.1510,W,1,8,2.2,28,M,,M,,*52
06/12/2015	02:02:16.541	$GPGGA,020217,2428.9341,N,08119.1517,W,1,8,2.4,28,M,,M,,*52
06/12/2015	02:02:17.613	$GPGGA,020218,2428.9339,N,08119.1521,W,1,8,2.2,28,M,,M,,*51
06/12/2015	02:02:18.503	$GPGGA,020219,2428.9338,N,08119.1525,W,1,8,2.2,28,M,,M,,*55
06/12/2015	02:02:19.633	$GPGGA,020220,2428.9341,N,08119.1532,W,1,9,2.4,28,M,,M,,*50
06/12/2015	02:02:20.541	$GPGGA,020221,2428.9339,N,08119.1539,W,1,9,2.4,28,M,,M,,*55
06/12/2015	02:02:21.593	$GPGGA,020222,2428.9337,N,08119.1546,W,1,8,2.2,28,M,,M,,*57
06/12/2015	02:02:22.613	$GPGGA,020223,2428.9337,N,08119.1553,W,1,8,2.3,28,M,,M,,*53
06/12/2015	02:02:23.623	$GPGGA,020224,2428.9337,N,08119.1557,W,1,8,2.3,28,M,,M,,*50
06/12/2015	02:02:24.528	$GPGGA,020225,2428.9335,N,08119.1564,W,1,8,2.3,28,M,,M,,*53
06/12/2015	02:02:25.492	$GPGGA,020226,2428.9333,N,08119.1569,W,1,8,2.3,28,M,,M,,*5B
06/12/2015	02:02:26.603	$GPGGA,020227,2428.9331,N,08119.1575,W,1,8,2.3,28,M,,M,,*55
06/12/2015	02:02:27.633	$GPGGA,020228,2428.9330,N,08119.1582,W,1,8,2.3,27,M,,M,,*5C
06/12/2015	02:02:28.603	$GPGGA,020229,2428.9330,N,08119.1589,W,1,8,2.3,27,M,,M,,*56
06/12/2015	02:02:29.573	$GPGGA,020230,2428.9327,N,08119.1593,W,1,8,2.3,27,M,,M,,*53
06/12/2015	02:02:30.528	$GPGGA,020231,2428.9326,N,08119.1600,W,1,8,2.3,27,M,,M,,*5A
06/12/2015	02:02:31.593	$GPGGA,020232,2428.9325,N,08119.1605,W,1,8,2.3,27,M,,M,,*5F
06/12/2015	02:02:32.542	$GPGGA,020233,2428.9326,N,08119.1611,W,1,8,2.3,27,M,,M,,*58
06/12/2015	02:02:33.593	$GPGGA,020234,2428.9323,N,08119.1616,W,1,8,2.3,27,M,,M,,*5D
06/12/2015	02:02:34.503	$GPGGA,020235,2428.9321,N,08119.1622,W,1,8,2.3,26,M,,M,,*58
06/12/2015	02:02:35.583	$GPGGA,020236,2428.9325,N,08119.1627,W,1,8,2.2,26,M,,M,,*5B
06/12/2015	02:02:36.583	$GPGGA,020237,2428.9323,N,08119.1633,W,1,8,3.1,26,M,,M,,*5B
06/12/2015	02:02:37.593	$GPGGA,020238,2428.9320,N,08119.1637,W,1,7,2.3,26,M,,M,,*5F
06/12/2015	02:02:38.563	$GPGGA,020239,2428.9320,N,08119.1637,W,1,7,2.3,26,M,,M,,*5E
06/12/2015	02:02:39.593	$GPGGA,020240,2428.9326,N,08119.1651,W,1,9,2.2,26,M,,M,,*59
06/12/2015	02:02:40.563	$GPGGA,020241,2428.9321,N,08119.1655,W,1,9,2.3,25,M,,M,,*59
06/12/2015	02:02:41.573	$GPGGA,020242,2428.9319,N,08119.1660,W,1,8,2.3,25,M,,M,,*56
06/12/2015	02:02:42.562	$GPGGA,020243,2428.9321,N,08119.1666,W,1,8,2.2,25,M,,M,,*5B
06/12/2015	02:02:43.573	$GPGGA,020244,2428.9319,N,08119.1670,W,1,9,2.2,25,M,,M,,*51
06/12/2015	02:02:44.553	$GPGGA,020245,2428.9316,N,08119.1674,W,1,9,2.3,25,M,,M,,*5A
06/12/2015	02:02:45.583	$GPGGA,020246,2428.9318,N,08119.1680,W,1,8,2.2,25,M,,M,,*5C
06/12/2015	02:02:46.553	$GPGGA,020247,2428.9317,N,08119.1687,W,1,8,2.2,25,M,,M,,*55
06/12/2015	02:02:47.593	$GPGGA,020248,2428.9315,N,08119.1691,W,1,9,2.2,25,M,,M,,*5E
06/12/2015	02:02:48.543	$GPGGA,020249,2428.9313,N,08119.1696,W,1,9,2.3,25,M,,M,,*5F
06/12/2015	02:02:49.593	$GPGGA,020250,2428.9312,N,08119.1702,W,1,8,2.2,25,M,,M,,*5A
06/12/2015	02:02:50.539	$GPGGA,020251,2428.9310,N,08119.1709,W,1,8,2.3,24,M,,M,,*52
06/12/2015	02:02:51.613	$GPGGA,020252,2428.9307,N,08119.1713,W,1,8,2.2,24,M,,M,,*5D
06/12/2015	02:02:52.543	$GPGGA,020253,2428.9305,N,08119.1720,W,1,8,2.3,24,M,,M,,*5F
06/12/2015	02:02:53.883	$GPGGA,020254,2428.9305,N,08119.1724,W,1,8,2.3,24,M,,M,,*5C
06/12/2015	02:02:54.536	$GPGGA,020255,2428.9305,N,08119.1728,W,1,8,2.3,24,M,,M,,*51
06/12/2015	02:02:55.623	$GPGGA,020256,2428.9305,N,08119.1734,W,1,9,2.3,24,M,,M,,*5E
06/12/2015	02:02:56.553	$GPGGA,020257,2428.9301,N,08119.1739,W,1,9,2.2,24,M,,M,,*57
06/12/2015	02:02:57.563	$GPGGA,020258,2428.9299,N,08119.1745,W,1,9,2.3,24,M,,M,,*52
06/12/2015	02:02:58.533	$GPGGA,020259,2428.9296,N,08119.1752,W,1,9,2.3,24,M,,M,,*5A
06/12/2015	02:02:59.583	$GPGGA,020300,2428.9295,N,08119.1756,W,1,8,2.3,24,M,,M,,*51
06/12/2015	02:03:00.533	$GPGGA,020301,2428.9294,N,08119.1763,W,1,8,2.3,24,M,,M,,*57
06/12/2015	02:03:01.623	$GPGGA,020302,2428.9291,N,08119.1768,W,1,8,2.3,24,M,,M,,*5A
06/12/2015	02:03:02.543	$GPGGA,020303,2428.9290,N,08119.1774,W,1,8,2.3,24,M,,M,,*57
06/12/2015	02:03:03.553	$GPGGA,020304,2428.9290,N,08119.1774,W,1,8,2.3,24,M,,M,,*50
06/12/2015	02:03:04.504	$GPGGA,020305,2428.9287,N,08119.1785,W,1,8,2.3,24,M,,M,,*59
06/12/2015	02:03:05.624	$GPGGA,020306,2428.9286,N,08119.1790,W,1,9,2.2,23,M,,M,,*58
06/12/2015	02:03:06.525	$GPGGA,020307,2428.9286,N,08119.1790,W,1,9,2.2,23,M,,M,,*59
06/12/2015	02:03:07.535	$GPGGA,020308,2428.9283,N,08119.1801,W,1,8,2.3,23,M,,M,,*54
06/12/2015	02:03:08.533	$GPGGA,020309,2428.9283,N,08119.1807,W,1,8,2.3,23,M,,M,,*53
06/12/2015	02:03:09.526	$GPGGA,020310,2428.9283,N,08119.1807,W,1,8,2.3,23,M,,M,,*5B
06/12/2015	02:03:10.503	$GPGGA,020311,2428.9277,N,08119.1818,W,1,8,2.2,23,M,,M,,*5E
06/12/2015	02:03:11.563	$GPGGA,020312,2428.9277,N,08119.1818,W,1,9,2.2,23,M,,M,,*5C
06/12/2015	02:03:12.583	$GPGGA,020313,2428.9279,N,08119.1828,W,1,9,2.2,23,M,,M,,*50
06/12/2015	02:03:13.503	$GPGGA,020314,2428.9279,N,08119.1828,W,1,9,2.2,23,M,,M,,*57
06/12/2015	02:03:14.513	$GPGGA,020315,2428.9277,N,08119.1832,W,1,9,2.3,23,M,,M,,*52
06/12/2015	02:03:15.633	$GPGGA,020316,2428.9276,N,08119.1846,W,1,8,2.3,23,M,,M,,*52
06/12/2015	02:03:16.503	$GPGGA,020317,2428.9274,N,08119.1853,W,1,8,2.3,23,M,,M,,*55
06/12/2015	02:03:17.592	$GPGGA,020318,2428.9272,N,08119.1860,W,1,8,2.3,23,M,,M,,*5C
06/12/2015	02:03:18.493	$GPGGA,020319,2428.9270,N,08119.1864,W,1,8,2.3,23,M,,M,,*5B
06/12/2015	02:03:19.627	$GPGGA,020320,2428.9269,N,08119.1869,W,1,8,2.3,23,M,,M,,*54
06/12/2015	02:03:20.583	$GPGGA,020321,2428.9268,N,08119.1875,W,1,8,2.2,23,M,,M,,*58
06/12/2015	02:03:21.573	$GPGGA,020322,2428.9268,N,08119.1875,W,1,9,2.2,22,M,,M,,*5B
06/12/2015	02:03:22.563	$GPGGA,020323,2428.9265,N,08119.1889,W,1,9,2.2,22,M,,M,,*54
06/12/2015	02:03:23.593	$GPGGA,020324,2428.9265,N,08119.1894,W,1,8,2.3,22,M,,M,,*5F
06/12/2015	02:03:24.583	$GPGGA,020325,2428.9263,N,08119.1900,W,1,8,3.1,22,M,,M,,*57
06/12/2015	02:03:25.563	$GPGGA,020326,2428.9261,N,08119.1904,W,1,7,3.1,22,M,,M,,*5D
06/12/2015	02:03:26.563	$GPGGA,020327,2428.9260,N,08119.1909,W,1,7,2.3,22,M,,M,,*53
06/12/2015	02:03:28.029	$GPGGA,020328,2428.9258,N,08119.1915,W,1,8,2.3,22,M,,M,,*55
06/12/2015	02:03:28.553	$GPGGA,020329,2428.9255,N,08119.1922,W,1,8,2.3,22,M,,M,,*5D
06/12/2015	02:03:29.583	$GPGGA,020330,2428.9256,N,08119.1926,W,1,8,2.3,22,M,,M,,*52
06/12/2015	02:03:30.843	$GPGGA,020331,2428.9254,N,08119.1930,W,1,8,3.1,22,M,,M,,*55
06/12/2015	02:03:31.603	$GPGGA,020332,2428.9254,N,08119.1936,W,1,8,2.3,22,M,,M,,*53
06/12/2015	02:03:32.553	$GPGGA,020333,2428.9251,N,08119.1941,W,1,8,2.3,22,M,,M,,*57
06/12/2015	02:03:33.573	$GPGGA,020334,2428.9249,N,08119.1947,W,1,8,2.3,21,M,,M,,*5C
06/12/2015	02:03:34.573	$GPGGA,020335,2428.9250,N,08119.1951,W,1,8,2.3,21,M,,M,,*52
06/12/2015	02:03:35.583	$GPGGA,020336,2428.9248,N,08119.1955,W,1,8,2.8,21,M,,M,,*57
06/12/2015	02:03:36.553	$GPGGA,020337,2428.9247,N,08119.1962,W,1,8,2.3,21,M,,M,,*56
06/12/2015	02:03:37.563	$GPGGA,020338,2428.9245,N,08119.1966,W,1,8,2.3,21,M,,M,,*5F
06/12/2015	02:03:38.538	$GPGGA,020339,2428.9243,N,08119.1973,W,1,8,2.3,21,M,,M,,*5C
06/12/2015	02:03:39.563	$GPGGA,020340,2428.9242,N,08119.1976,W,1,9,2.2,21,M,,M,,*56
06/12/2015	02:03:40.543	$GPGGA,020341,2428.9240,N,08119.1981,W,1,9,2.3,21,M,,M,,*5C
06/12/2015	02:03:41.563	$GPGGA,020342,2428.9240,N,08119.1987,W,1,8,2.3,21,M,,M,,*58
06/12/2015	02:03:42.534	$GPGGA,020343,2428.9237,N,08119.1992,W,1,8,2.3,21,M,,M,,*5D
06/12/2015	02:03:43.544	$GPGGA,020344,2428.9236,N,08119.1998,W,1,8,2.3,21,M,,M,,*51
06/12/2015	02:03:44.533	$GPGGA,020345,2428.9236,N,08119.2003,W,1,8,2.3,21,M,,M,,*58
06/12/2015	02:03:45.527	$GPGGA,020346,2428.9236,N,08119.2009,W,1,9,2.2,22,M,,M,,*52
06/12/2015	02:03:46.513	$GPGGA,020347,2428.9233,N,08119.2013,W,1,9,3.1,22,M,,M,,*5F
06/12/2015	02:03:47.563	$GPGGA,020348,2428.9234,N,08119.2017,W,1,9,2.2,22,M,,M,,*51
06/12/2015	02:03:48.545	$GPGGA,020349,2428.9231,N,08119.2023,W,1,9,2.2,22,M,,M,,*52
06/12/2015	02:03:49.643	$GPGGA,020350,2428.9229,N,08119.2027,W,1,9,2.2,22,M,,M,,*57
06/12/2015	02:03:50.503	$GPGGA,020351,2428.9229,N,08119.2034,W,1,9,2.2,22,M,,M,,*54
06/12/2015	02:03:51.544	$GPGGA,020352,2428.9227,N,08119.2038,W,1,9,2.2,22,M,,M,,*55
06/12/2015	02:03:52.530	$GPGGA,020353,2428.9225,N,08119.2042,W,1,9,2.2,23,M,,M,,*5A
06/12/2015	02:03:53.529	$GPGGA,020354,2428.9225,N,08119.2049,W,1,8,2.3,23,M,,M,,*56
06/12/2015	02:03:54.493	$GPGGA,020355,2428.9225,N,08119.2056,W,1,8,2.3,23,M,,M,,*59
06/12/2015	02:03:55.529	$GPGGA,020356,2428.9220,N,08119.2059,W,1,9,2.2,23,M,,M,,*50
06/12/2015	02:03:56.493	$GPGGA,020357,2428.9219,N,08119.2066,W,1,9,2.3,23,M,,M,,*56
06/12/2015	02:03:57.493	$GPGGA,020358,2428.9221,N,08119.2071,W,1,8,2.3,23,M,,M,,*55
06/12/2015	02:03:58.503	$GPGGA,020359,2428.9218,N,08119.2075,W,1,8,2.3,23,M,,M,,*5A
06/12/2015	02:03:59.534	$GPGGA,020400,2428.9216,N,08119.2079,W,1,9,2.2,23,M,,M,,*53
06/12/2015	02:04:00.483	$GPGGA,020401,2428.9217,N,08119.2085,W,1,9,2.2,23,M,,M,,*50
06/12/2015	02:04:01.513	$GPGGA,020402,2428.9215,N,08119.2090,W,1,9,2.2,24,M,,M,,*52
06/12/2015	02:04:02.583	$GPGGA,020403,2428.9214,N,08119.2095,W,1,9,2.2,24,M,,M,,*57
06/12/2015	02:04:03.513	$GPGGA,020404,2428.9212,N,08119.2099,W,1,9,2.2,24,M,,M,,*5A
06/12/2015	02:04:04.503	$GPGGA,020405,2428.9211,N,08119.2104,W,1,9,2.2,24,M,,M,,*5D
06/12/2015	02:04:05.593	$GPGGA,020406,2428.9213,N,08119.2110,W,1,8,2.8,24,M,,M,,*52
06/12/2015	02:04:06.493	$GPGGA,020407,2428.9211,N,08119.2115,W,1,8,2.2,24,M,,M,,*5E
06/12/2015	02:04:07.625	$GPGGA,020408,2428.9209,N,08119.2120,W,1,9,2.2,24,M,,M,,*5F
06/12/2015	02:04:08.573	$GPGGA,020409,2428.9207,N,08119.2124,W,1,9,2.2,24,M,,M,,*54
06/12/2015	02:04:09.582	$GPGGA,020410,2428.9207,N,08119.2129,W,1,9,2.2,24,M,,M,,*51
06/12/2015	02:04:10.563	$GPGGA,020411,2428.9207,N,08119.2135,W,1,9,2.2,24,M,,M,,*5D
06/12/2015	02:04:11.603	$GPGGA,020412,2428.9204,N,08119.2142,W,1,8,2.8,24,M,,M,,*56
06/12/2015	02:04:12.563	$GPGGA,020413,2428.9203,N,08119.2146,W,1,8,2.2,24,M,,M,,*5E
06/12/2015	02:04:13.583	$GPGGA,020414,2428.9201,N,08119.2150,W,1,9,2.2,24,M,,M,,*5D
06/12/2015	02:04:14.563	$GPGGA,020415,2428.9200,N,08119.2154,W,1,9,2.3,24,M,,M,,*58
06/12/2015	02:04:15.593	$GPGGA,020416,2428.9200,N,08119.2160,W,1,8,2.3,24,M,,M,,*5D
06/12/2015	02:04:16.573	$GPGGA,020417,2428.9200,N,08119.2165,W,1,8,2.2,24,M,,M,,*58
06/12/2015	02:04:17.573	$GPGGA,020418,2428.9196,N,08119.2169,W,1,9,2.2,24,M,,M,,*56
06/12/2015	02:04:18.553	$GPGGA,020419,2428.9195,N,08119.2175,W,1,9,2.3,24,M,,M,,*58
06/12/2015	02:04:20.553	$GPGGA,020421,2428.9193,N,08119.2184,W,1,8,2.3,24,M,,M,,*5A
06/12/2015	02:04:21.563	$GPGGA,020422,2428.9190,N,08119.2189,W,1,9,2.2,24,M,,M,,*57
06/12/2015	02:04:22.543	$GPGGA,020423,2428.9189,N,08119.2194,W,1,9,2.2,24,M,,M,,*52
06/12/2015	02:04:23.573	$GPGGA,020424,2428.9186,N,08119.2198,W,1,8,2.3,24,M,,M,,*56
06/12/2015	02:04:24.543	$GPGGA,020425,2428.9184,N,08119.2204,W,1,8,2.3,24,M,,M,,*53
06/12/2015	02:04:25.533	$GPGGA,020426,2428.9185,N,08119.2209,W,1,8,2.3,25,M,,M,,*5D
06/12/2015	02:04:26.543	$GPGGA,020427,2428.9182,N,08119.2214,W,1,8,2.2,25,M,,M,,*56
06/12/2015	02:04:27.562	$GPGGA,020428,2428.9182,N,08119.2218,W,1,9,2.2,25,M,,M,,*54
06/12/2015	02:04:28.525	$GPGGA,020429,2428.9182,N,08119.2225,W,1,9,3.2,25,M,,M,,*5A
06/12/2015	02:04:29.553	$GPGGA,020430,2428.9182,N,08119.2230,W,1,8,2.3,25,M,,M,,*57
06/12/2015	02:04:30.529	$GPGGA,020431,2428.9179,N,08119.2236,W,1,8,2.3,25,M,,M,,*54
06/12/2015	02:04:31.553	$GPGGA,020432,2428.9178,N,08119.2241,W,1,8,2.3,24,M,,M,,*57
06/12/2015	02:04:32.533	$GPGGA,020433,2428.9182,N,08119.2247,W,1,8,2.3,24,M,,M,,*55
06/12/2015	02:04:33.553	$GPGGA,020434,2428.9182,N,08119.2252,W,1,9,2.2,24,M,,M,,*56
06/12/2015	02:04:34.533	$GPGGA,020435,2428.9182,N,08119.2258,W,1,9,2.3,24,M,,M,,*5C
06/12/2015	02:04:35.638	$GPGGA,020436,2428.9182,N,08119.2263,W,1,9,2.2,24,M,,M,,*56
06/12/2015	02:04:36.524	$GPGGA,020437,2428.9180,N,08119.2269,W,1,9,2.2,24,M,,M,,*5F
06/12/2015	02:04:37.543	$GPGGA,020438,2428.9178,N,08119.2274,W,1,9,2.2,24,M,,M,,*5B
06/12/2015	02:04:38.504	$GPGGA,020439,2428.9178,N,08119.2280,W,1,9,2.2,24,M,,M,,*51
06/12/2015	02:04:39.513	$GPGGA,020440,2428.9176,N,08119.2285,W,1,9,2.2,24,M,,M,,*54
06/12/2015	02:04:40.883	$GPGGA,020441,2428.9175,N,08119.2291,W,1,9,2.2,24,M,,M,,*53
06/12/2015	02:04:41.593	$GPGGA,020442,2428.9173,N,08119.2296,W,1,9,2.2,23,M,,M,,*56
06/12/2015	02:04:42.503	$GPGGA,020443,2428.9174,N,08119.2301,W,1,9,2.2,23,M,,M,,*5F
06/12/2015	02:04:43.533	$GPGGA,020444,2428.9172,N,08119.2308,W,1,9,2.2,23,M,,M,,*57
06/12/2015	02:04:44.592	$GPGGA,020445,2428.9171,N,08119.2309,W,1,9,2.4,23,M,,M,,*52
06/12/2015	02:04:45.623	$GPGGA,020446,2428.9168,N,08119.2313,W,1,9,2.2,23,M,,M,,*54
06/12/2015	02:04:46.863	$GPGGA,020447,2428.9170,N,08119.2319,W,1,9,2.2,23,M,,M,,*56
06/12/2015	02:04:47.603	$GPGGA,020448,2428.9168,N,08119.2324,W,1,9,2.2,23,M,,M,,*5E
06/12/2015	02:04:48.503	$GPGGA,020449,2428.9166,N,08119.2327,W,1,9,2.4,23,M,,M,,*54
06/12/2015	02:04:49.603	$GPGGA,020450,2428.9165,N,08119.2330,W,1,9,2.2,23,M,,M,,*5F
06/12/2015	02:04:50.583	$GPGGA,020451,2428.9164,N,08119.2335,W,1,9,2.2,23,M,,M,,*5A
06/12/2015	02:04:51.593	$GPGGA,020452,2428.9164,N,08119.2342,W,1,9,2.2,23,M,,M,,*59
06/12/2015	02:04:52.493	$GPGGA,020453,2428.9162,N,08119.2345,W,1,9,2.4,23,M,,M,,*5F
06/12/2015	02:04:53.583	$GPGGA,020454,2428.9161,N,08119.2350,W,1,9,2.2,23,M,,M,,*59
06/12/2015	02:04:54.813	$GPGGA,020455,2428.9160,N,08119.2353,W,1,9,2.2,23,M,,M,,*5A
06/12/2015	02:04:56.083	$GPGGA,020456,2428.9158,N,08119.2357,W,1,9,2.2,23,M,,M,,*56
06/12/2015	02:04:56.573	$GPGGA,020457,2428.9157,N,08119.2363,W,1,9,2.2,23,M,,M,,*5F
06/12/2015	02:04:57.603	$GPGGA,020458,2428.9156,N,08119.2368,W,1,9,2.2,23,M,,M,,*5A
06/12/2015	02:04:58.573	$GPGGA,020459,2428.9155,N,08119.2374,W,1,9,2.2,23,M,,M,,*55
06/12/2015	02:04:59.573	$GPGGA,020500,2428.9154,N,08119.2378,W,1,9,2.2,23,M,,M,,*55
06/12/2015	02:05:00.553	$GPGGA,020501,2428.9153,N,08119.2382,W,1,9,2.2,23,M,,M,,*56
06/12/2015	02:05:01.583	$GPGGA,020502,2428.9151,N,08119.2388,W,1,9,2.2,23,M,,M,,*5D
06/12/2015	02:05:02.562	$GPGGA,020503,2428.9150,N,08119.2393,W,1,9,2.2,23,M,,M,,*57
06/12/2015	02:05:03.583	$GPGGA,020504,2428.9149,N,08119.2400,W,1,9,2.2,23,M,,M,,*55
06/12/2015	02:05:04.563	$GPGGA,020505,2428.9148,N,08119.2406,W,1,9,2.2,23,M,,M,,*53
06/12/2015	02:05:05.563	$GPGGA,020506,2428.9147,N,08119.2410,W,1,8,2.3,23,M,,M,,*58
06/12/2015	02:05:06.553	$GPGGA,020507,2428.9146,N,08119.2415,W,1,8,2.3,23,M,,M,,*5D
06/12/2015	02:05:07.593	$GPGGA,020508,2428.9146,N,08119.2421,W,1,8,2.3,24,M,,M,,*52
06/12/2015	02:05:08.534	$GPGGA,020509,2428.9144,N,08119.2426,W,1,8,2.2,24,M,,M,,*57
06/12/2015	02:05:09.541	$GPGGA,020510,2428.9142,N,08119.2431,W,1,9,2.2,24,M,,M,,*5E
06/12/2015	02:05:10.545	$GPGGA,020511,2428.9142,N,08119.2438,W,1,9,2.3,24,M,,M,,*57
06/12/2015	02:05:11.573	$GPGGA,020512,2428.9142,N,08119.2443,W,1,8,2.3,24,M,,M,,*59
06/12/2015	02:05:12.542	$GPGGA,020513,2428.9140,N,08119.2447,W,1,8,3.2,24,M,,M,,*5E
06/12/2015	02:05:13.563	$GPGGA,020514,2428.9137,N,08119.2453,W,1,8,2.3,24,M,,M,,*5C
06/12/2015	02:05:14.541	$GPGGA,020515,2428.9135,N,08119.2457,W,1,8,2.3,24,M,,M,,*5B
06/12/2015	02:05:15.563	$GPGGA,020516,2428.9135,N,08119.2462,W,1,8,2.3,24,M,,M,,*5E
06/12/2015	02:05:16.539	$GPGGA,020517,2428.9135,N,08119.2467,W,1,8,2.3,24,M,,M,,*5A
06/12/2015	02:05:17.554	$GPGGA,020518,2428.9131,N,08119.2472,W,1,7,3.2,24,M,,M,,*5A
06/12/2015	02:05:18.537	$GPGGA,020519,2428.9130,N,08119.2478,W,1,7,2.3,25,M,,M,,*51
06/12/2015	02:05:19.562	$GPGGA,020520,2428.9128,N,08119.2483,W,1,8,2.3,25,M,,M,,*59
06/12/2015	02:05:20.542	$GPGGA,020521,2428.9128,N,08119.2489,W,1,8,2.3,25,M,,M,,*52
06/12/2015	02:05:21.513	$GPGGA,020522,2428.9126,N,08119.2493,W,1,8,2.3,25,M,,M,,*54
06/12/2015	02:05:22.527	$GPGGA,020523,2428.9124,N,08119.2498,W,1,8,3.2,25,M,,M,,*5C
06/12/2015	02:05:23.542	$GPGGA,020524,2428.9124,N,08119.2504,W,1,8,2.3,25,M,,M,,*5F
06/12/2015	02:05:24.532	$GPGGA,020525,2428.9124,N,08119.2509,W,1,8,2.3,25,M,,M,,*53
06/12/2015	02:05:25.627	$GPGGA,020526,2428.9121,N,08119.2514,W,1,8,2.3,25,M,,M,,*59
06/12/2015	02:05:26.503	$GPGGA,020527,2428.9119,N,08119.2520,W,1,8,2.3,25,M,,M,,*54
06/12/2015	02:05:27.553	$GPGGA,020528,2428.9120,N,08119.2525,W,1,7,3.1,25,M,,M,,*58
06/12/2015	02:05:28.513	$GPGGA,020529,2428.9118,N,08119.2529,W,1,7,2.3,26,M,,M,,*5E
06/12/2015	02:05:29.613	$GPGGA,020530,2428.9117,N,08119.2533,W,1,8,2.3,26,M,,M,,*5D
06/12/2015	02:05:30.503	$GPGGA,020531,2428.9114,N,08119.2537,W,1,8,2.3,26,M,,M,,*5B
06/12/2015	02:05:31.513	$GPGGA,020532,2428.9113,N,08119.2543,W,1,8,2.3,26,M,,M,,*5C
06/12/2015	02:05:32.593	$GPGGA,020533,2428.9113,N,08119.2548,W,1,8,2.3,26,M,,M,,*56
06/12/2015	02:05:33.483	$GPGGA,020534,2428.9111,N,08119.2554,W,1,8,2.3,26,M,,M,,*5E
06/12/2015	02:05:34.503	$GPGGA,020535,2428.9109,N,08119.2558,W,1,8,2.3,26,M,,M,,*5A
06/12/2015	02:05:35.503	$GPGGA,020536,2428.9108,N,08119.2562,W,1,8,2.3,26,M,,M,,*51
06/12/2015	02:05:36.593	$GPGGA,020537,2428.9109,N,08119.2568,W,1,8,2.3,27,M,,M,,*5A
06/12/2015	02:05:37.472	$GPGGA,020538,2428.9106,N,08119.2573,W,1,8,2.3,27,M,,M,,*50
06/12/2015	02:05:38.593	$GPGGA,020539,2428.9104,N,08119.2579,W,1,8,2.3,27,M,,M,,*59
06/12/2015	02:05:39.583	$GPGGA,020540,2428.9103,N,08119.2584,W,1,8,2.3,27,M,,M,,*52
06/12/2015	02:05:40.493	$GPGGA,020541,2428.9104,N,08119.2590,W,1,8,2.3,27,M,,M,,*51
06/12/2015	02:05:41.483	$GPGGA,020542,2428.9102,N,08119.2594,W,1,8,2.3,27,M,,M,,*50
06/12/2015	02:05:42.483	$GPGGA,020543,2428.9101,N,08119.2599,W,1,8,3.2,27,M,,M,,*5F
06/12/2015	02:05:43.584	$GPGGA,020544,2428.9100,N,08119.2605,W,1,7,3.2,27,M,,M,,*50
06/12/2015	02:05:44.573	$GPGGA,020545,2428.9097,N,08119.2609,W,1,7,2.3,27,M,,M,,*52
06/12/2015	02:05:45.563	$GPGGA,020546,2428.9095,N,08119.2615,W,1,9,2.2,27,M,,M,,*51
06/12/2015	02:05:46.563	$GPGGA,020547,2428.9093,N,08119.2619,W,1,9,2.3,27,M,,M,,*5B
06/12/2015	02:05:47.625	$GPGGA,020548,2428.9094,N,08119.2624,W,1,8,2.3,28,M,,M,,*53
06/12/2015	02:05:48.553	$GPGGA,020549,2428.9091,N,08119.2630,W,1,8,2.2,28,M,,M,,*53
06/12/2015	02:05:49.563	$GPGGA,020550,2428.9089,N,08119.2634,W,1,9,2.2,28,M,,M,,*57
06/12/2015	02:05:50.563	$GPGGA,020551,2428.9088,N,08119.2639,W,1,9,2.3,28,M,,M,,*5B
06/12/2015	02:05:51.573	$GPGGA,020552,2428.9088,N,08119.2645,W,1,8,2.3,28,M,,M,,*52
06/12/2015	02:05:52.843	$GPGGA,020553,2428.9086,N,08119.2649,W,1,8,2.3,28,M,,M,,*51
06/12/2015	02:05:53.543	$GPGGA,020554,2428.9085,N,08119.2655,W,1,8,2.3,28,M,,M,,*58
06/12/2015	02:05:54.552	$GPGGA,020555,2428.9087,N,08119.2660,W,1,8,3.2,28,M,,M,,*5D
06/12/2015	02:05:55.573	$GPGGA,020556,2428.9084,N,08119.2666,W,1,8,2.3,28,M,,M,,*5B
06/12/2015	02:05:56.553	$GPGGA,020557,2428.9081,N,08119.2670,W,1,8,2.2,28,M,,M,,*59
06/12/2015	02:05:57.533	$GPGGA,020558,2428.9081,N,08119.2674,W,1,8,2.3,28,M,,M,,*53
06/12/2015	02:05:58.533	$GPGGA,020559,2428.9081,N,08119.2680,W,1,8,2.3,28,M,,M,,*59
06/12/2015	02:05:59.573	$GPGGA,020600,2428.9078,N,08119.2685,W,1,8,2.3,28,M,,M,,*55
06/12/2015	02:06:00.543	$GPGGA,020601,2428.9077,N,08119.2688,W,1,8,3.1,28,M,,M,,*55
06/12/2015	02:06:01.553	$GPGGA,020602,2428.9075,N,08119.2695,W,1,8,2.3,28,M,,M,,*5B
06/12/2015	02:06:02.533	$GPGGA,020603,2428.9073,N,08119.2700,W,1,8,2.3,28,M,,M,,*51
06/12/2015	02:06:03.543	$GPGGA,020604,2428.9073,N,08119.2706,W,1,9,2.2,28,M,,M,,*50
06/12/2015	02:06:04.533	$GPGGA,020605,2428.9071,N,08119.2711,W,1,9,2.2,28,M,,M,,*55
06/12/2015	02:06:05.563	$GPGGA,020606,2428.9070,N,08119.2715,W,1,8,2.3,28,M,,M,,*53
06/12/2015	02:06:06.543	$GPGGA,020607,2428.9070,N,08119.2720,W,1,8,2.3,28,M,,M,,*54
06/12/2015	02:06:07.533	$GPGGA,020608,2428.9070,N,08119.2725,W,1,8,2.3,28,M,,M,,*5E
06/12/2015	02:06:08.513	$GPGGA,020609,2428.9070,N,08119.2731,W,1,8,2.3,28,M,,M,,*5A
06/12/2015	02:06:09.553	$GPGGA,020610,2428.9067,N,08119.2733,W,1,9,2.2,28,M,,M,,*56
06/12/2015	02:06:10.528	$GPGGA,020611,2428.9066,N,08119.2738,W,1,9,2.3,28,M,,M,,*5C
06/12/2015	02:06:11.563	$GPGGA,020612,2428.9066,N,08119.2743,W,1,8,2.3,28,M,,M,,*52
06/12/2015	02:06:12.502	$GPGGA,020613,2428.9066,N,08119.2749,W,1,8,3.1,28,M,,M,,*5A
06/12/2015	02:06:13.526	$GPGGA,020614,2428.9066,N,08119.2751,W,1,9,2.2,28,M,,M,,*57
06/12/2015	02:06:14.503	$GPGGA,020615,2428.9066,N,08119.2756,W,1,9,2.3,28,M,,M,,*50
06/12/2015	02:06:15.543	$GPGGA,020616,2428.9064,N,08119.2760,W,1,9,2.2,28,M,,M,,*55
06/12/2015	02:06:16.613	$GPGGA,020617,2428.9063,N,08119.2767,W,1,9,2.4,28,M,,M,,*52
06/12/2015	02:06:17.513	$GPGGA,020618,2428.9061,N,08119.2771,W,1,8,2.4,28,M,,M,,*59
06/12/2015	02:06:18.503	$GPGGA,020619,2428.9062,N,08119.2776,W,1,8,2.4,28,M,,M,,*5C
06/12/2015	02:06:19.553	$GPGGA,020620,2428.9059,N,08119.2780,W,1,8,2.4,28,M,,M,,*57
06/12/2015	02:06:20.593	$GPGGA,020621,2428.9056,N,08119.2786,W,1,8,3.1,28,M,,M,,*5B
06/12/2015	02:06:21.483	$GPGGA,020622,2428.9057,N,08119.2790,W,1,7,3.1,28,M,,M,,*51
06/12/2015	02:06:22.583	$GPGGA,020623,2428.9055,N,08119.2796,W,1,7,2.4,27,M,,M,,*5F
06/12/2015	02:06:23.633	$GPGGA,020624,2428.9053,N,08119.2800,W,1,8,2.4,27,M,,M,,*51
06/12/2015	02:06:24.504	$GPGGA,020625,2428.9054,N,08119.2807,W,1,8,2.4,27,M,,M,,*50
06/12/2015	02:06:25.603	$GPGGA,020626,2428.9050,N,08119.2809,W,1,8,2.4,27,M,,M,,*59
06/12/2015	02:06:26.573	$GPGGA,020627,2428.9049,N,08119.2814,W,1,8,2.4,27,M,,M,,*5C
06/12/2015	02:06:27.493	$GPGGA,020628,2428.9048,N,08119.2818,W,1,8,2.4,27,M,,M,,*5E
06/12/2015	02:06:28.573	$GPGGA,020629,2428.9048,N,08119.2823,W,1,8,2.4,27,M,,M,,*57
06/12/2015	02:06:29.592	$GPGGA,020630,2428.9048,N,08119.2829,W,1,8,2.4,27,M,,M,,*55
06/12/2015	02:06:30.573	$GPGGA,020631,2428.9046,N,08119.2834,W,1,8,2.4,27,M,,M,,*56
06/12/2015	02:06:31.635	$GPGGA,020632,2428.9043,N,08119.2837,W,1,8,2.4,27,M,,M,,*53
06/12/2015	02:06:32.573	$GPGGA,020633,2428.9045,N,08119.2841,W,1,8,2.2,27,M,,M,,*53
06/12/2015	02:06:33.893	$GPGGA,020634,2428.9045,N,08119.2847,W,1,9,2.2,27,M,,M,,*53
06/12/2015	02:06:34.573	$GPGGA,020635,2428.9043,N,08119.2851,W,1,9,2.2,27,M,,M,,*53
06/12/2015	02:06:35.593	$GPGGA,020636,2428.9041,N,08119.2858,W,1,9,2.2,27,M,,M,,*5B
06/12/2015	02:06:36.573	$GPGGA,020637,2428.9041,N,08119.2861,W,1,9,2.2,27,M,,M,,*50
06/12/2015	02:06:37.573	$GPGGA,020638,2428.9041,N,08119.2868,W,1,9,2.2,27,M,,M,,*56
06/12/2015	02:06:38.553	$GPGGA,020639,2428.9041,N,08119.2872,W,1,9,2.2,27,M,,M,,*5C
06/12/2015	02:06:39.613	$GPGGA,020640,2428.9039,N,08119.2879,W,1,9,2.2,27,M,,M,,*56
06/12/2015	02:06:40.553	$GPGGA,020641,2428.9040,N,08119.2883,W,1,9,2.2,27,M,,M,,*5C
06/12/2015	02:06:41.564	$GPGGA,020642,2428.9037,N,08119.2888,W,1,9,2.2,27,M,,M,,*54
06/12/2015	02:06:42.543	$GPGGA,020643,2428.9037,N,08119.2894,W,1,9,2.2,27,M,,M,,*58
06/12/2015	02:06:43.593	$GPGGA,020644,2428.9037,N,08119.2899,W,1,9,2.2,27,M,,M,,*52
06/12/2015	02:06:44.543	$GPGGA,020645,2428.9034,N,08119.2905,W,1,9,2.2,27,M,,M,,*54
06/12/2015	02:06:45.534	$GPGGA,020646,2428.9034,N,08119.2909,W,1,9,2.2,27,M,,M,,*5B
06/12/2015	02:06:46.543	$GPGGA,020647,2428.9034,N,08119.2915,W,1,9,2.2,27,M,,M,,*57
06/12/2015	02:06:47.562	$GPGGA,020648,2428.9034,N,08119.2921,W,1,9,2.2,27,M,,M,,*5F
06/12/2015	02:06:48.543	$GPGGA,020649,2428.9031,N,08119.2926,W,1,9,2.2,27,M,,M,,*5C
06/12/2015	02:06:49.563	$GPGGA,020650,2428.9030,N,08119.2931,W,1,9,2.2,27,M,,M,,*53
06/12/2015	02:06:50.533	$GPGGA,020651,2428.9030,N,08119.2937,W,1,9,2.2,27,M,,M,,*54
06/12/2015	02:06:51.573	$GPGGA,020652,2428.9030,N,08119.2944,W,1,9,2.2,27,M,,M,,*53
06/12/2015	02:06:52.523	$GPGGA,020653,2428.9028,N,08119.2948,W,1,9,2.2,27,M,,M,,*57
06/12/2015	02:06:53.543	$GPGGA,020654,2428.9027,N,08119.2953,W,1,9,2.2,27,M,,M,,*55
06/12/2015	02:06:54.543	$GPGGA,020655,2428.9027,N,08119.2959,W,1,9,2.2,27,M,,M,,*5E
06/12/2015	02:06:55.643	$GPGGA,020656,2428.9026,N,08119.2964,W,1,9,2.2,27,M,,M,,*52
06/12/2015	02:06:56.536	$GPGGA,020657,2428.9026,N,08119.2970,W,1,9,2.2,26,M,,M,,*57
06/12/2015	02:06:57.543	$GPGGA,020658,2428.9024,N,08119.2975,W,1,9,2.2,26,M,,M,,*5F
06/12/2015	02:06:58.502	$GPGGA,020659,2428.9023,N,08119.2980,W,1,9,2.2,26,M,,M,,*53
06/12/2015	02:06:59.624	$GPGGA,020700,2428.9021,N,08119.2985,W,1,9,2.4,26,M,,M,,*5F
06/12/2015	02:07:00.522	$GPGGA,020701,2428.9022,N,08119.2991,W,1,9,2.2,26,M,,M,,*5E
06/12/2015	02:07:01.532	$GPGGA,020702,2428.9019,N,08119.2995,W,1,9,2.4,26,M,,M,,*57
06/12/2015	02:07:02.512	$GPGGA,020703,2428.9018,N,08119.3000,W,1,9,2.4,26,M,,M,,*53
06/12/2015	02:07:03.602	$GPGGA,020704,2428.9017,N,08119.3006,W,1,8,2.4,26,M,,M,,*5C
06/12/2015	02:07:04.491	$GPGGA,020705,2428.9016,N,08119.3011,W,1,8,2.4,26,M,,M,,*5A
06/12/2015	02:07:05.515	$GPGGA,020706,2428.9014,N,08119.3017,W,1,8,2.4,26,M,,M,,*5D
06/12/2015	02:07:06.501	$GPGGA,020707,2428.9012,N,08119.3022,W,1,8,2.4,25,M,,M,,*5F
06/12/2015	02:07:08.531	$GPGGA,020709,2428.9010,N,08119.3032,W,1,8,2.4,25,M,,M,,*52
06/12/2015	02:07:09.581	$GPGGA,020710,2428.9009,N,08119.3039,W,1,8,2.4,25,M,,M,,*59
06/12/2015	02:07:10.519	$GPGGA,020711,2428.9007,N,08119.3045,W,1,8,2.4,25,M,,M,,*5D
06/12/2015	02:07:11.581	$GPGGA,020712,2428.9005,N,08119.3049,W,1,8,2.4,25,M,,M,,*50
06/12/2015	02:07:12.591	$GPGGA,020713,2428.9005,N,08119.3054,W,1,8,3.1,25,M,,M,,*59
06/12/2015	02:07:13.481	$GPGGA,020714,2428.9005,N,08119.3058,W,1,7,2.4,25,M,,M,,*59
06/12/2015	02:07:14.561	$GPGGA,020715,2428.9003,N,08119.3064,W,1,7,2.4,25,M,,M,,*51
06/12/2015	02:07:15.612	$GPGGA,020716,2428.9002,N,08119.3068,W,1,8,2.4,25,M,,M,,*50
06/12/2015	02:07:16.552	$GPGGA,020717,2428.9001,N,08119.3071,W,1,8,2.4,25,M,,M,,*5A
06/12/2015	02:07:17.472	$GPGGA,020718,2428.9001,N,08119.3075,W,1,8,3.2,25,M,,M,,*56
06/12/2015	02:07:18.552	$GPGGA,020719,2428.9003,N,08119.3082,W,1,8,3.2,25,M,,M,,*5D
06/12/2015	02:07:19.622	$GPGGA,020720,2428.9002,N,08119.3086,W,1,8,2.4,24,M,,M,,*54
06/12/2015	02:07:20.552	$GPGGA,020721,2428.9003,N,08119.3090,W,1,8,2.4,24,M,,M,,*53
06/12/2015	02:07:21.552	$GPGGA,020722,2428.9001,N,08119.3096,W,1,9,2.2,24,M,,M,,*53
06/12/2015	02:07:22.551	$GPGGA,020723,2428.9001,N,08119.3100,W,1,9,2.2,24,M,,M,,*5C
06/12/2015	02:07:23.561	$GPGGA,020724,2428.8999,N,08119.3105,W,1,9,3.2,24,M,,M,,*56
06/12/2015	02:07:24.551	$GPGGA,020725,2428.8995,N,08119.3110,W,1,9,3.2,24,M,,M,,*5F
06/12/2015	02:07:25.561	$GPGGA,020726,2428.8994,N,08119.3114,W,1,8,2.4,24,M,,M,,*5F
06/12/2015	02:07:26.551	$GPGGA,020727,2428.8992,N,08119.3119,W,1,8,3.2,24,M,,M,,*52
06/12/2015	02:07:27.551	$GPGGA,020728,2428.8989,N,08119.3125,W,1,8,2.4,24,M,,M,,*5F
06/12/2015	02:07:28.541	$GPGGA,020729,2428.8988,N,08119.3129,W,1,8,2.2,24,M,,M,,*55
06/12/2015	02:07:29.531	$GPGGA,020730,2428.8987,N,08119.3133,W,1,8,2.9,25,M,,M,,*53
06/12/2015	02:07:30.541	$GPGGA,020731,2428.8985,N,08119.3137,W,1,8,2.4,25,M,,M,,*59
06/12/2015	02:07:31.561	$GPGGA,020732,2428.8983,N,08119.3141,W,1,8,2.4,25,M,,M,,*5D
06/12/2015	02:07:32.525	$GPGGA,020733,2428.8980,N,08119.3147,W,1,8,2.4,25,M,,M,,*59
06/12/2015	02:07:33.532	$GPGGA,020734,2428.8979,N,08119.3154,W,1,8,2.4,25,M,,M,,*5A
06/12/2015	02:07:34.528	$GPGGA,020735,2428.8979,N,08119.3159,W,1,8,2.4,25,M,,M,,*56
06/12/2015	02:07:35.562	$GPGGA,020736,2428.8976,N,08119.3161,W,1,7,3.1,25,M,,M,,*5A
06/12/2015	02:07:36.525	$GPGGA,020737,2428.8971,N,08119.3165,W,1,7,3.1,25,M,,M,,*58
06/12/2015	02:07:37.520	$GPGGA,020738,2428.8969,N,08119.3170,W,1,9,2.2,26,M,,M,,*55
06/12/2015	02:07:38.517	$GPGGA,020739,2428.8965,N,08119.3176,W,1,9,2.4,26,M,,M,,*58
06/12/2015	02:07:39.532	$GPGGA,020740,2428.8962,N,08119.3181,W,1,8,2.4,26,M,,M,,*58
06/12/2015	02:07:40.511	$GPGGA,020741,2428.8964,N,08119.3186,W,1,8,3.1,27,M,,M,,*5D
06/12/2015	02:07:41.528	$GPGGA,020742,2428.8965,N,08119.3191,W,1,7,3.2,27,M,,M,,*55
06/12/2015	02:07:42.523	$GPGGA,020743,2428.8965,N,08119.3195,W,1,7,2.4,27,M,,M,,*57
06/12/2015	02:07:43.541	$GPGGA,020744,2428.8965,N,08119.3201,W,1,8,2.4,27,M,,M,,*51
06/12/2015	02:07:44.501	$GPGGA,020745,2428.8963,N,08119.3206,W,1,8,2.4,27,M,,M,,*51
06/12/2015	02:07:45.531	$GPGGA,020746,2428.8962,N,08119.3215,W,1,8,2.4,27,M,,M,,*51
06/12/2015	02:07:46.501	$GPGGA,020747,2428.8962,N,08119.3219,W,1,8,3.1,27,M,,M,,*58
06/12/2015	02:07:47.601	$GPGGA,020748,2428.8962,N,08119.3224,W,1,8,2.4,27,M,,M,,*5D
06/12/2015	02:07:48.517	$GPGGA,020749,2428.8962,N,08119.3230,W,1,8,2.4,27,M,,M,,*59
06/12/2015	02:07:49.491	$GPGGA,020750,2428.8962,N,08119.3237,W,1,8,2.4,27,M,,M,,*56
06/12/2015	02:07:50.501	$GPGGA,020751,2428.8961,N,08119.3241,W,1,8,2.4,27,M,,M,,*55
06/12/2015	02:07:51.532	$GPGGA,020752,2428.8960,N,08119.3248,W,1,8,2.4,27,M,,M,,*5E
06/12/2015	02:07:52.492	$GPGGA,020753,2428.8961,N,08119.3255,W,1,8,2.4,27,M,,M,,*52
06/12/2015	02:07:53.602	$GPGGA,020754,2428.8960,N,08119.3259,W,1,8,2.4,27,M,,M,,*58
06/12/2015	02:07:54.602	$GPGGA,020755,2428.8959,N,08119.3266,W,1,8,2.2,26,M,,M,,*58
06/12/2015	02:07:55.592	$GPGGA,020756,2428.8960,N,08119.3270,W,1,8,2.4,26,M,,M,,*50
06/12/2015	02:07:56.602	$GPGGA,020757,2428.8959,N,08119.3275,W,1,8,2.4,26,M,,M,,*5E
06/12/2015	02:07:57.481	$GPGGA,020758,2428.8958,N,08119.3280,W,1,8,2.4,26,M,,M,,*5A
06/12/2015	02:07:58.581	$GPGGA,020759,2428.8958,N,08119.3287,W,1,8,2.4,26,M,,M,,*5C
06/12/2015	02:07:59.601	$GPGGA,020800,2428.8958,N,08119.3291,W,1,9,2.2,25,M,,M,,*5C
06/12/2015	02:08:00.581	$GPGGA,020801,2428.8958,N,08119.3295,W,1,9,2.2,25,M,,M,,*59
06/12/2015	02:08:01.571	$GPGGA,020802,2428.8956,N,08119.3302,W,1,9,2.2,25,M,,M,,*5B
06/12/2015	02:08:02.571	$GPGGA,020803,2428.8955,N,08119.3307,W,1,9,2.4,25,M,,M,,*5A
06/12/2015	02:08:03.571	$GPGGA,020804,2428.8954,N,08119.3311,W,1,9,2.2,25,M,,M,,*5D
06/12/2015	02:08:04.571	$GPGGA,020805,2428.8951,N,08119.3316,W,1,9,2.2,25,M,,M,,*5E
06/12/2015	02:08:05.571	$GPGGA,020806,2428.8951,N,08119.3322,W,1,9,2.2,24,M,,M,,*5B
06/12/2015	02:08:06.561	$GPGGA,020807,2428.8951,N,08119.3328,W,1,9,2.2,24,M,,M,,*50
06/12/2015	02:08:07.591	$GPGGA,020808,2428.8948,N,08119.3335,W,1,9,2.2,24,M,,M,,*5B
06/12/2015	02:08:08.552	$GPGGA,020809,2428.8949,N,08119.3339,W,1,9,2.4,24,M,,M,,*51
06/12/2015	02:08:09.572	$GPGGA,020810,2428.8948,N,08119.3345,W,1,9,2.2,24,M,,M,,*55
06/12/2015	02:08:10.552	$GPGGA,020811,2428.8947,N,08119.3350,W,1,9,2.4,24,M,,M,,*59
06/12/2015	02:08:11.582	$GPGGA,020812,2428.8947,N,08119.3356,W,1,9,2.2,24,M,,M,,*5A
06/12/2015	02:08:12.552	$GPGGA,020813,2428.8944,N,08119.3363,W,1,9,2.2,24,M,,M,,*5E
06/12/2015	02:08:13.542	$GPGGA,020814,2428.8945,N,08119.3370,W,1,8,2.4,24,M,,M,,*5D
06/12/2015	02:08:14.541	$GPGGA,020815,2428.8942,N,08119.3374,W,1,8,2.4,24,M,,M,,*5F
06/12/2015	02:08:15.581	$GPGGA,020816,2428.8940,N,08119.3379,W,1,8,2.4,23,M,,M,,*54
06/12/2015	02:08:16.541	$GPGGA,020817,2428.8938,N,08119.3385,W,1,8,2.4,23,M,,M,,*59
06/12/2015	02:08:17.561	$GPGGA,020818,2428.8937,N,08119.3392,W,1,9,2.2,23,M,,M,,*58
06/12/2015	02:08:18.541	$GPGGA,020819,2428.8934,N,08119.3399,W,1,9,2.4,23,M,,M,,*57
06/12/2015	02:08:19.561	$GPGGA,020820,2428.8931,N,08119.3403,W,1,8,2.4,23,M,,M,,*5D
06/12/2015	02:08:20.531	$GPGGA,020821,2428.8930,N,08119.3410,W,1,8,2.4,23,M,,M,,*5F
06/12/2015	02:08:21.525	$GPGGA,020822,2428.8929,N,08119.3415,W,1,8,2.4,23,M,,M,,*51
06/12/2015	02:08:22.526	$GPGGA,020823,2428.8926,N,08119.3421,W,1,8,2.4,23,M,,M,,*58
06/12/2015	02:08:23.541	$GPGGA,020824,2428.8924,N,08119.3426,W,1,8,2.4,23,M,,M,,*5A
06/12/2015	02:08:24.533	$GPGGA,020825,2428.8922,N,08119.3432,W,1,8,2.4,23,M,,M,,*58
06/12/2015	02:08:25.513	$GPGGA,020826,2428.8919,N,08119.3439,W,1,8,2.4,23,M,,M,,*58
06/12/2015	02:08:26.517	$GPGGA,020827,2428.8918,N,08119.3444,W,1,8,2.4,22,M,,M,,*53
06/12/2015	02:08:27.527	$GPGGA,020828,2428.8918,N,08119.3451,W,1,8,2.4,22,M,,M,,*58
06/12/2015	02:08:28.524	$GPGGA,020829,2428.8914,N,08119.3457,W,1,8,3.1,22,M,,M,,*57
06/12/2015	02:08:29.542	$GPGGA,020830,2428.8911,N,08119.3461,W,1,8,2.4,22,M,,M,,*5B
06/12/2015	02:08:30.514	$GPGGA,020831,2428.8911,N,08119.3469,W,1,8,2.4,22,M,,M,,*52
06/12/2015	02:08:31.542	$GPGGA,020832,2428.8908,N,08119.3476,W,1,7,3.1,22,M,,M,,*5C
06/12/2015	02:08:32.524	$GPGGA,020833,2428.8906,N,08119.3482,W,1,7,2.5,22,M,,M,,*5D
06/12/2015	02:08:33.615	$GPGGA,020834,2428.8904,N,08119.3486,W,1,8,2.4,22,M,,M,,*52
06/12/2015	02:08:34.618	$GPGGA,020835,2428.8904,N,08119.3490,W,1,8,2.4,22,M,,M,,*54
06/12/2015	02:08:35.641	$GPGGA,020836,2428.8900,N,08119.3497,W,1,8,2.4,22,M,,M,,*54
06/12/2015	02:08:36.491	$GPGGA,020837,2428.8900,N,08119.3502,W,1,8,2.4,22,M,,M,,*58
06/12/2015	02:08:37.515	$GPGGA,020838,2428.8897,N,08119.3511,W,1,8,2.4,22,M,,M,,*5A
06/12/2015	02:08:38.481	$GPGGA,020839,2428.8896,N,08119.3515,W,1,8,3.1,22,M,,M,,*5A
06/12/2015	02:08:39.501	$GPGGA,020840,2428.8893,N,08119.3522,W,1,7,3.2,22,M,,M,,*59
06/12/2015	02:08:40.581	$GPGGA,020841,2428.8889,N,08119.3526,W,1,7,2.4,22,M,,M,,*50
06/12/2015	02:08:41.471	$GPGGA,020842,2428.8886,N,08119.3533,W,1,8,2.4,22,M,,M,,*57
06/12/2015	02:08:42.571	$GPGGA,020843,2428.8884,N,08119.3540,W,1,8,2.4,22,M,,M,,*50
06/12/2015	02:08:43.592	$GPGGA,020844,2428.8882,N,08119.3544,W,1,8,2.4,22,M,,M,,*55
06/12/2015	02:08:44.492	$GPGGA,020845,2428.8879,N,08119.3551,W,1,8,2.4,22,M,,M,,*54
06/12/2015	02:08:45.572	$GPGGA,020846,2428.8878,N,08119.3552,W,1,7,3.1,22,M,,M,,*5E
06/12/2015	02:08:46.572	$GPGGA,020847,2428.8876,N,08119.3558,W,1,7,2.4,22,M,,M,,*5F
06/12/2015	02:08:47.892	$GPGGA,020848,2428.8875,N,08119.3563,W,1,8,2.4,22,M,,M,,*54
06/12/2015	02:08:48.572	$GPGGA,020849,2428.8873,N,08119.3569,W,1,8,2.4,23,M,,M,,*58
06/12/2015	02:08:49.581	$GPGGA,020850,2428.8871,N,08119.3574,W,1,8,2.4,23,M,,M,,*5E
06/12/2015	02:08:50.561	$GPGGA,020851,2428.8871,N,08119.3577,W,1,8,2.4,23,M,,M,,*5C
06/12/2015	02:08:51.591	$GPGGA,020852,2428.8866,N,08119.3584,W,1,8,2.5,23,M,,M,,*54
06/12/2015	02:08:52.561	$GPGGA,020853,2428.8865,N,08119.3591,W,1,8,2.2,23,M,,M,,*55
06/12/2015	02:08:53.581	$GPGGA,020854,2428.8864,N,08119.3599,W,1,9,2.2,24,M,,M,,*5D
06/12/2015	02:08:54.551	$GPGGA,020855,2428.8861,N,08119.3605,W,1,9,2.2,24,M,,M,,*5F
06/12/2015	02:08:55.581	$GPGGA,020856,2428.8862,N,08119.3610,W,1,8,2.4,24,M,,M,,*5C
06/12/2015	02:08:56.541	$GPGGA,020857,2428.8859,N,08119.3616,W,1,8,2.2,24,M,,M,,*55
06/12/2015	02:08:57.541	$GPGGA,020858,2428.8858,N,08119.3623,W,1,9,2.2,24,M,,M,,*5C
06/12/2015	02:08:58.551	$GPGGA,020859,2428.8857,N,08119.3629,W,1,9,2.2,25,M,,M,,*59
06/12/2015	02:08:59.611	$GPGGA,020900,2428.8855,N,08119.3635,W,1,9,2.2,25,M,,M,,*5B
06/12/2015	02:09:00.552	$GPGGA,020901,2428.8856,N,08119.3642,W,1,9,2.2,25,M,,M,,*59
06/12/2015	02:09:01.552	$GPGGA,020902,2428.8853,N,08119.3649,W,1,9,2.2,25,M,,M,,*54
06/12/2015	02:09:03.602	$GPGGA,020904,2428.8852,N,08119.3660,W,1,9,2.2,25,M,,M,,*58
06/12/2015	02:09:04.532	$GPGGA,020905,2428.8850,N,08119.3665,W,1,9,2.2,25,M,,M,,*5E
06/12/2015	02:09:05.542	$GPGGA,020906,2428.8849,N,08119.3672,W,1,9,2.2,25,M,,M,,*53
06/12/2015	02:09:06.813	$GPGGA,020907,2428.8847,N,08119.3679,W,1,9,2.2,25,M,,M,,*57
06/12/2015	02:09:07.571	$GPGGA,020908,2428.8846,N,08119.3685,W,1,9,2.2,25,M,,M,,*5A
06/12/2015	02:09:08.522	$GPGGA,020909,2428.8844,N,08119.3690,W,1,9,2.4,26,M,,M,,*58
06/12/2015	02:09:09.561	$GPGGA,020910,2428.8843,N,08119.3696,W,1,9,2.2,26,M,,M,,*57
06/12/2015	02:09:10.521	$GPGGA,020911,2428.8842,N,08119.3703,W,1,9,2.2,26,M,,M,,*5A
06/12/2015	02:09:11.531	$GPGGA,020912,2428.8842,N,08119.3710,W,1,9,2.2,26,M,,M,,*5B
06/12/2015	02:09:12.531	$GPGGA,020913,2428.8839,N,08119.3717,W,1,9,2.2,26,M,,M,,*51
06/12/2015	02:09:13.517	$GPGGA,020914,2428.8839,N,08119.3719,W,1,8,2.4,26,M,,M,,*5F
06/12/2015	02:09:14.527	$GPGGA,020915,2428.8839,N,08119.3726,W,1,8,2.5,26,M,,M,,*53
06/12/2015	02:09:15.521	$GPGGA,020916,2428.8839,N,08119.3733,W,1,9,2.2,26,M,,M,,*52
06/12/2015	02:09:16.501	$GPGGA,020917,2428.8835,N,08119.3740,W,1,9,2.2,26,M,,M,,*5B
06/12/2015	02:09:17.521	$GPGGA,020918,2428.8833,N,08119.3747,W,1,9,2.2,26,M,,M,,*55
06/12/2015	02:09:18.502	$GPGGA,020919,2428.8832,N,08119.3754,W,1,9,2.4,26,M,,M,,*51
06/12/2015	02:09:19.532	$GPGGA,020920,2428.8829,N,08119.3761,W,1,8,2.4,26,M,,M,,*56
06/12/2015	02:09:20.520	$GPGGA,020921,2428.8828,N,08119.3765,W,1,8,2.4,26,M,,M,,*52
06/12/2015	02:09:21.502	$GPGGA,020922,2428.8828,N,08119.3770,W,1,9,2.2,26,M,,M,,*52
06/12/2015	02:09:22.592	$GPGGA,020923,2428.8825,N,08119.3777,W,1,9,2.4,26,M,,M,,*5F
06/12/2015	02:09:23.542	$GPGGA,020924,2428.8822,N,08119.3783,W,1,8,2.4,26,M,,M,,*55
06/12/2015	02:09:24.501	$GPGGA,020925,2428.8821,N,08119.3790,W,1,8,2.4,26,M,,M,,*55
06/12/2015	02:09:25.631	$GPGGA,020926,2428.8820,N,08119.3797,W,1,8,2.4,25,M,,M,,*53
06/12/2015	02:09:26.501	$GPGGA,020927,2428.8818,N,08119.3802,W,1,8,2.4,25,M,,M,,*5A
06/12/2015	02:09:27.521	$GPGGA,020928,2428.8814,N,08119.3808,W,1,8,2.4,25,M,,M,,*53
06/12/2015	02:09:28.491	$GPGGA,020929,2428.8813,N,08119.3815,W,1,8,2.4,25,M,,M,,*59
06/12/2015	02:09:29.631	$GPGGA,020930,2428.8815,N,08119.3822,W,1,8,3.0,25,M,,M,,*56
06/12/2015	02:09:30.501	$GPGGA,020931,2428.8810,N,08119.3827,W,1,8,3.0,25,M,,M,,*57
06/12/2015	02:09:31.651	$GPGGA,020932,2428.8806,N,08119.3831,W,1,8,2.4,25,M,,M,,*51
06/12/2015	02:09:32.641	$GPGGA,020933,2428.8803,N,08119.3837,W,1,8,2.4,25,M,,M,,*53
06/12/2015	02:09:33.624	$GPGGA,020934,2428.8801,N,08119.3842,W,1,8,2.4,25,M,,M,,*54
06/12/2015	02:09:34.631	$GPGGA,020935,2428.8799,N,08119.3848,W,1,8,2.4,25,M,,M,,*51
06/12/2015	02:09:35.652	$GPGGA,020936,2428.8797,N,08119.3855,W,1,7,2.4,25,M,,M,,*5F
06/12/2015	02:09:36.632	$GPGGA,020937,2428.8798,N,08119.3862,W,1,7,2.4,25,M,,M,,*55
06/12/2015	02:09:37.592	$GPGGA,020938,2428.8793,N,08119.3869,W,1,8,2.4,25,M,,M,,*55
06/12/2015	02:09:38.642	$GPGGA,020939,2428.8792,N,08119.3874,W,1,8,2.4,25,M,,M,,*59
06/12/2015	02:09:39.572	$GPGGA,020940,2428.8792,N,08119.3881,W,1,9,2.2,25,M,,M,,*5A
06/12/2015	02:09:40.552	$GPGGA,020941,2428.8789,N,08119.3887,W,1,9,2.4,25,M,,M,,*51
06/12/2015	02:09:41.592	$GPGGA,020942,2428.8788,N,08119.3895,W,1,7,3.2,25,M,,M,,*59
06/12/2015	02:09:42.881	$GPGGA,020943,2428.8785,N,08119.3900,W,1,7,2.4,25,M,,M,,*5F
06/12/2015	02:09:43.601	$GPGGA,020944,2428.8783,N,08119.3906,W,1,8,2.4,25,M,,M,,*57
06/12/2015	02:09:44.631	$GPGGA,020945,2428.8781,N,08119.3913,W,1,8,3.2,25,M,,M,,*57
06/12/2015	02:09:45.581	$GPGGA,020946,2428.8781,N,08119.3920,W,1,7,2.4,25,M,,M,,*5C
06/12/2015	02:09:46.625	$GPGGA,020947,2428.8779,N,08119.3927,W,1,7,2.4,25,M,,M,,*5D
06/12/2015	02:09:47.601	$GPGGA,020948,2428.8777,N,08119.3932,W,1,8,2.4,25,M,,M,,*57
06/12/2015	02:09:48.601	$GPGGA,020949,2428.8774,N,08119.3938,W,1,8,2.4,24,M,,M,,*5E
06/12/2015	02:09:49.531	$GPGGA,020950,2428.8772,N,08119.3945,W,1,8,2.4,24,M,,M,,*5A
06/12/2015	02:09:50.611	$GPGGA,020951,2428.8770,N,08119.3952,W,1,8,2.4,24,M,,M,,*5F
06/12/2015	02:09:51.621	$GPGGA,020952,2428.8767,N,08119.3956,W,1,8,2.4,24,M,,M,,*5E
06/12/2015	02:09:52.591	$GPGGA,020953,2428.8765,N,08119.3963,W,1,8,2.4,24,M,,M,,*5B
06/12/2015	02:09:54.626	$GPGGA,020955,2428.8760,N,08119.3975,W,1,8,2.4,24,M,,M,,*5F
06/12/2015	02:09:55.592	$GPGGA,020956,2428.8759,N,08119.3981,W,1,8,3.2,24,M,,M,,*5A
06/12/2015	02:09:57.067	$GPGGA,020957,2428.8756,N,08119.3988,W,1,8,3.2,24,M,,M,,*5D
06/12/2015	02:09:57.542	$GPGGA,020958,2428.8753,N,08119.3993,W,1,8,2.4,23,M,,M,,*5D
06/12/2015	02:09:58.582	$GPGGA,020959,2428.8752,N,08119.3999,W,1,8,2.4,23,M,,M,,*57
06/12/2015	02:09:59.581	$GPGGA,021000,2428.8749,N,08119.4006,W,1,9,2.2,23,M,,M,,*56
06/12/2015	02:10:00.582	$GPGGA,021001,2428.8748,N,08119.4011,W,1,9,2.4,23,M,,M,,*56
06/12/2015	02:10:01.541	$GPGGA,021002,2428.8745,N,08119.4017,W,1,8,2.4,23,M,,M,,*5F
06/12/2015	02:10:02.571	$GPGGA,021003,2428.8741,N,08119.4024,W,1,8,2.4,23,M,,M,,*5A
06/12/2015	02:10:03.571	$GPGGA,021004,2428.8741,N,08119.4030,W,1,8,2.4,23,M,,M,,*58
06/12/2015	02:10:04.571	$GPGGA,021005,2428.8738,N,08119.4037,W,1,8,2.4,23,M,,M,,*50
06/12/2015	02:10:05.561	$GPGGA,021006,2428.8735,N,08119.4043,W,1,8,2.4,23,M,,M,,*5D
06/12/2015	02:10:06.571	$GPGGA,021007,2428.8734,N,08119.4048,W,1,8,2.4,24,M,,M,,*51
06/12/2015	02:10:07.581	$GPGGA,021008,2428.8731,N,08119.4057,W,1,8,2.4,24,M,,M,,*55
06/12/2015	02:10:08.561	$GPGGA,021009,2428.8730,N,08119.4064,W,1,8,2.2,24,M,,M,,*53
06/12/2015	02:10:09.624	$GPGGA,021010,2428.8724,N,08119.4069,W,1,9,2.4,24,M,,M,,*54
06/12/2015	02:10:10.552	$GPGGA,021011,2428.8723,N,08119.4075,W,1,9,2.4,24,M,,M,,*5F
06/12/2015	02:10:11.562	$GPGGA,021012,2428.8719,N,08119.4082,W,1,8,2.4,24,M,,M,,*5C
06/12/2015	02:10:12.582	$GPGGA,021013,2428.8717,N,08119.4090,W,1,8,3.3,24,M,,M,,*56
06/12/2015	02:10:13.614	$GPGGA,021014,2428.8713,N,08119.4095,W,1,7,2.2,24,M,,M,,*5F
06/12/2015	02:10:14.552	$GPGGA,021015,2428.8712,N,08119.4104,W,1,7,3.3,24,M,,M,,*56
06/12/2015	02:10:15.627	$GPGGA,021016,2428.8708,N,08119.4111,W,1,7,2.4,24,M,,M,,*5C
06/12/2015	02:10:16.582	$GPGGA,021017,2428.8706,N,08119.4118,W,1,7,2.4,24,M,,M,,*5A
06/12/2015	02:10:17.591	$GPGGA,021018,2428.8703,N,08119.4123,W,1,8,2.4,24,M,,M,,*57
06/12/2015	02:10:18.541	$GPGGA,021019,2428.8699,N,08119.4129,W,1,8,2.4,23,M,,M,,*59
06/12/2015	02:10:19.601	$GPGGA,021020,2428.8698,N,08119.4137,W,1,8,3.3,23,M,,M,,*5B
06/12/2015	02:10:20.591	$GPGGA,021021,2428.8698,N,08119.4145,W,1,8,2.2,23,M,,M,,*5F
06/12/2015	02:10:21.591	$GPGGA,021022,2428.8694,N,08119.4151,W,1,9,2.2,23,M,,M,,*54
06/12/2015	02:10:22.591	$GPGGA,021023,2428.8690,N,08119.4158,W,1,9,2.4,23,M,,M,,*5E
06/12/2015	02:10:23.591	$GPGGA,021024,2428.8688,N,08119.4165,W,1,8,2.4,23,M,,M,,*5F
06/12/2015	02:10:24.561	$GPGGA,021025,2428.8685,N,08119.4173,W,1,8,2.4,23,M,,M,,*54
06/12/2015	02:10:25.591	$GPGGA,021026,2428.8687,N,08119.4180,W,1,8,3.0,23,M,,M,,*5C
06/12/2015	02:10:26.562	$GPGGA,021027,2428.8681,N,08119.4187,W,1,8,2.4,24,M,,M,,*5E
06/12/2015	02:10:27.591	$GPGGA,021028,2428.8677,N,08119.4194,W,1,8,2.4,24,M,,M,,*5A
06/12/2015	02:10:28.582	$GPGGA,021029,2428.8676,N,08119.4201,W,1,8,2.4,24,M,,M,,*55
06/12/2015	02:10:29.562	$GPGGA,021030,2428.8673,N,08119.4207,W,1,8,2.2,24,M,,M,,*58
06/12/2015	02:10:30.562	$GPGGA,021031,2428.8670,N,08119.4216,W,1,8,2.4,24,M,,M,,*5C
06/12/2015	02:10:31.582	$GPGGA,021032,2428.8667,N,08119.4223,W,1,8,2.4,24,M,,M,,*5F
06/12/2015	02:10:32.582	$GPGGA,021033,2428.8662,N,08119.4230,W,1,8,2.4,24,M,,M,,*59
06/12/2015	02:10:33.562	$GPGGA,021034,2428.8658,N,08119.4236,W,1,8,2.4,24,M,,M,,*51
06/12/2015	02:10:34.561	$GPGGA,021035,2428.8656,N,08119.4243,W,1,8,2.2,24,M,,M,,*5A
06/12/2015	02:10:35.612	$GPGGA,021036,2428.8651,N,08119.4250,W,1,9,2.2,24,M,,M,,*5D
06/12/2015	02:10:36.561	$GPGGA,021037,2428.8647,N,08119.4257,W,1,9,2.4,24,M,,M,,*5A
06/12/2015	02:10:37.571	$GPGGA,021038,2428.8644,N,08119.4264,W,1,8,2.2,24,M,,M,,*51
06/12/2015	02:10:38.541	$GPGGA,021039,2428.8640,N,08119.4271,W,1,8,2.4,24,M,,M,,*56
06/12/2015	02:10:39.571	$GPGGA,021040,2428.8636,N,08119.4277,W,1,8,2.4,24,M,,M,,*5F
06/12/2015	02:10:40.561	$GPGGA,021041,2428.8633,N,08119.4285,W,1,8,2.2,24,M,,M,,*50
06/12/2015	02:10:41.551	$GPGGA,021042,2428.8630,N,08119.4292,W,1,9,2.2,24,M,,M,,*57
06/12/2015	02:10:42.551	$GPGGA,021043,2428.8629,N,08119.4299,W,1,9,2.2,24,M,,M,,*55
06/12/2015	02:10:43.991	$GPGGA,021044,2428.8624,N,08119.4303,W,1,9,2.2,24,M,,M,,*5D
06/12/2015	02:10:44.551	$GPGGA,021045,2428.8623,N,08119.4313,W,1,9,2.4,24,M,,M,,*5C
06/12/2015	02:10:45.527	$GPGGA,021046,2428.8620,N,08119.4321,W,1,8,2.4,24,M,,M,,*5C
06/12/2015	02:10:46.542	$GPGGA,021047,2428.8615,N,08119.4325,W,1,8,2.4,24,M,,M,,*5F
06/12/2015	02:10:47.552	$GPGGA,021048,2428.8611,N,08119.4332,W,1,8,2.4,24,M,,M,,*52
06/12/2015	02:10:48.518	$GPGGA,021049,2428.8611,N,08119.4332,W,1,8,2.2,24,M,,M,,*55
06/12/2015	02:10:49.624	$GPGGA,021050,2428.8605,N,08119.4348,W,1,9,2.2,24,M,,M,,*54
06/12/2015	02:10:50.542	$GPGGA,021051,2428.8601,N,08119.4354,W,1,9,2.4,24,M,,M,,*5A
06/12/2015	02:10:51.552	$GPGGA,021052,2428.8597,N,08119.4361,W,1,8,2.4,24,M,,M,,*52
06/12/2015	02:10:52.524	$GPGGA,021053,2428.8597,N,08119.4361,W,1,8,2.4,24,M,,M,,*53
06/12/2015	02:10:53.531	$GPGGA,021054,2428.8597,N,08119.4376,W,1,9,3.0,24,M,,M,,*56
06/12/2015	02:10:54.541	$GPGGA,021055,2428.8593,N,08119.4382,W,1,9,2.4,24,M,,M,,*5D
06/12/2015	02:10:55.531	$GPGGA,021056,2428.8589,N,08119.4389,W,1,8,2.4,24,M,,M,,*5F
06/12/2015	02:10:56.541	$GPGGA,021057,2428.8589,N,08119.4389,W,1,8,2.4,24,M,,M,,*5E
06/12/2015	02:10:57.501	$GPGGA,021058,2428.8588,N,08119.4404,W,1,9,2.2,24,M,,M,,*55
06/12/2015	02:10:58.591	$GPGGA,021059,2428.8583,N,08119.4409,W,1,9,2.2,24,M,,M,,*52
06/12/2015	02:10:59.551	$GPGGA,021100,2428.8580,N,08119.4418,W,1,8,2.4,24,M,,M,,*5B
06/12/2015	02:11:00.591	$GPGGA,021101,2428.8578,N,08119.4426,W,1,8,2.4,24,M,,M,,*50
06/12/2015	02:11:01.601	$GPGGA,021102,2428.8577,N,08119.4433,W,1,8,2.4,24,M,,M,,*58
06/12/2015	02:11:02.501	$GPGGA,021103,2428.8577,N,08119.4433,W,1,8,2.2,24,M,,M,,*5F
06/12/2015	02:11:03.502	$GPGGA,021104,2428.8575,N,08119.4440,W,1,8,2.4,24,M,,M,,*58
06/12/2015	02:11:04.602	$GPGGA,021105,2428.8568,N,08119.4452,W,1,8,2.4,24,M,,M,,*56
06/12/2015	02:11:05.592	$GPGGA,021106,2428.8568,N,08119.4460,W,1,8,2.4,23,M,,M,,*53
06/12/2015	02:11:06.582	$GPGGA,021107,2428.8564,N,08119.4467,W,1,8,2.2,23,M,,M,,*5F
06/12/2015	02:11:08.602	$GPGGA,021109,2428.8557,N,08119.4480,W,1,8,2.4,23,M,,M,,*5E
06/12/2015	02:11:09.581	$GPGGA,021110,2428.8554,N,08119.4487,W,1,8,2.4,23,M,,M,,*52
06/12/2015	02:11:10.561	$GPGGA,021111,2428.8549,N,08119.4494,W,1,8,2.2,23,M,,M,,*5B
06/12/2015	02:11:11.571	$GPGGA,021112,2428.8546,N,08119.4502,W,1,8,2.4,23,M,,M,,*5F
06/12/2015	02:11:13.051	$GPGGA,021113,2428.8544,N,08119.4510,W,1,8,2.4,23,M,,M,,*5F
06/12/2015	02:11:13.562	$GPGGA,021114,2428.8540,N,08119.4516,W,1,8,2.4,23,M,,M,,*5A
06/12/2015	02:11:14.571	$GPGGA,021115,2428.8536,N,08119.4523,W,1,8,2.4,22,M,,M,,*5D
06/12/2015	02:11:15.571	$GPGGA,021116,2428.8535,N,08119.4531,W,1,8,2.4,22,M,,M,,*5E
06/12/2015	02:11:16.571	$GPGGA,021117,2428.8532,N,08119.4538,W,1,8,2.4,22,M,,M,,*51
06/12/2015	02:11:17.561	$GPGGA,021118,2428.8528,N,08119.4545,W,1,8,2.4,22,M,,M,,*5F
06/12/2015	02:11:18.551	$GPGGA,021119,2428.8523,N,08119.4553,W,1,8,2.4,22,M,,M,,*52
06/12/2015	02:11:19.581	$GPGGA,021120,2428.8521,N,08119.4561,W,1,8,3.0,22,M,,M,,*5E
06/12/2015	02:11:20.552	$GPGGA,021121,2428.8517,N,08119.4570,W,1,8,2.4,22,M,,M,,*5F
06/12/2015	02:11:21.562	$GPGGA,021122,2428.8512,N,08119.4575,W,1,9,2.2,21,M,,M,,*58
06/12/2015	02:11:22.552	$GPGGA,021123,2428.8510,N,08119.4581,W,1,9,2.4,21,M,,M,,*56
06/12/2015	02:11:23.582	$GPGGA,021124,2428.8507,N,08119.4588,W,1,7,3.3,21,M,,M,,*56
06/12/2015	02:11:24.532	$GPGGA,021125,2428.8506,N,08119.4597,W,1,7,2.4,21,M,,M,,*5E
06/12/2015	02:11:25.562	$GPGGA,021126,2428.8503,N,08119.4604,W,1,7,3.3,21,M,,M,,*57
06/12/2015	02:11:26.532	$GPGGA,021127,2428.8497,N,08119.4610,W,1,7,2.4,21,M,,M,,*59
06/12/2015	02:11:27.571	$GPGGA,021128,2428.8495,N,08119.4617,W,1,8,2.4,21,M,,M,,*5C
06/12/2015	02:11:28.531	$GPGGA,021129,2428.8494,N,08119.4626,W,1,8,2.4,21,M,,M,,*5E
06/12/2015	02:11:29.551	$GPGGA,021130,2428.8489,N,08119.4633,W,1,8,2.4,21,M,,M,,*5E
06/12/2015	02:11:30.531	$GPGGA,021131,2428.8484,N,08119.4639,W,1,8,2.4,21,M,,M,,*58
06/12/2015	02:11:31.551	$GPGGA,021132,2428.8482,N,08119.4646,W,1,8,2.4,21,M,,M,,*55
06/12/2015	02:11:32.521	$GPGGA,021133,2428.8481,N,08119.4653,W,1,8,2.4,21,M,,M,,*53
06/12/2015	02:11:33.521	$GPGGA,021134,2428.8476,N,08119.4660,W,1,8,2.4,21,M,,M,,*5C
06/12/2015	02:11:34.531	$GPGGA,021135,2428.8472,N,08119.4668,W,1,8,2.4,21,M,,M,,*51
06/12/2015	02:11:35.561	$GPGGA,021136,2428.8470,N,08119.4676,W,1,8,2.4,21,M,,M,,*5F
06/12/2015	02:11:36.512	$GPGGA,021137,2428.8468,N,08119.4684,W,1,8,2.4,21,M,,M,,*5A
06/12/2015	02:11:37.551	$GPGGA,021138,2428.8463,N,08119.4690,W,1,7,3.3,21,M,,M,,*52
06/12/2015	02:11:38.515	$GPGGA,021139,2428.8460,N,08119.4697,W,1,7,2.4,21,M,,M,,*51
06/12/2015	02:11:39.516	$GPGGA,021140,2428.8456,N,08119.4704,W,1,8,2.4,21,M,,M,,*5E
06/12/2015	02:11:40.623	$GPGGA,021141,2428.8452,N,08119.4711,W,1,8,2.4,21,M,,M,,*5F
06/12/2015	02:11:41.515	$GPGGA,021142,2428.8448,N,08119.4718,W,1,8,2.4,21,M,,M,,*5E
06/12/2015	02:11:42.502	$GPGGA,021143,2428.8446,N,08119.4725,W,1,8,2.4,22,M,,M,,*5C
06/12/2015	02:11:43.542	$GPGGA,021144,2428.8443,N,08119.4732,W,1,8,2.4,22,M,,M,,*58
06/12/2015	02:11:44.501	$GPGGA,021145,2428.8439,N,08119.4738,W,1,8,2.4,22,M,,M,,*5E
06/12/2015	02:11:45.491	$GPGGA,021146,2428.8436,N,08119.4747,W,1,8,2.4,22,M,,M,,*5A
06/12/2015	02:11:46.591	$GPGGA,021147,2428.8434,N,08119.4754,W,1,8,2.4,22,M,,M,,*5B
06/12/2015	02:11:47.803	$GPGGA,021148,2428.8431,N,08119.4761,W,1,8,2.4,23,M,,M,,*56
06/12/2015	02:11:48.582	$GPGGA,021149,2428.8429,N,08119.4767,W,1,8,2.4,23,M,,M,,*58
06/12/2015	02:11:49.501	$GPGGA,021150,2428.8427,N,08119.4774,W,1,9,2.3,23,M,,M,,*5A
06/12/2015	02:11:50.502	$GPGGA,021151,2428.8425,N,08119.4783,W,1,9,2.4,23,M,,M,,*56
06/12/2015	02:11:51.631	$GPGGA,021152,2428.8423,N,08119.4790,W,1,8,2.4,23,M,,M,,*50
