Software Version Number: 1	Data File Format Number: 1	Build Version Number: 1	Error Count Since VI Started: 1	Manufacturer: Raytheon	 Model Number: RayMarine 120	 S/N: 	 Cal Date: 	 Wind Direction Offset: 0.00	 Slope (M)1: 0.00	 Offset (B)1: 0.00	 Slope (M)2: 0.00	 Offset (B)2: 0.00	 Slope (M)3: 0.00	 Offset (B)3: 0.00	 Slope (M)4: 0.00	 Offset (B)4: 0.00	 Slope (M)5: 0.00	 Offset (B)5: 0.00	 Slope (M)6: 0.00	 Offset (B)6: 0.00
Computer Date	Computer Time	GGA String
06/19/2015	03:00:00.579	$GPGGA,030001,2603.1980,N,07918.9070,W,1,10,1.8,8,M,,M,,*5C
06/19/2015	03:00:01.642	$GPGGA,030002,2603.1964,N,07918.9063,W,1,10,1.8,8,M,,M,,*57
06/19/2015	03:00:02.579	$GPGGA,030003,2603.1946,N,07918.9054,W,1,10,1.8,8,M,,M,,*52
06/19/2015	03:00:03.609	$GPGGA,030004,2603.1929,N,07918.9046,W,1,10,1.8,8,M,,M,,*5F
06/19/2015	03:00:04.569	$GPGGA,030005,2603.1913,N,07918.9038,W,1,10,1.8,8,M,,M,,*5E
06/19/2015	03:00:05.589	$GPGGA,030006,2603.1895,N,07918.9029,W,1,10,1.8,8,M,,M,,*52
06/19/2015	03:00:06.569	$GPGGA,030007,2603.1878,N,07918.9022,W,1,10,1.8,8,M,,M,,*5B
06/19/2015	03:00:07.589	$GPGGA,030008,2603.1861,N,07918.9014,W,1,10,1.8,8,M,,M,,*59
06/19/2015	03:00:08.569	$GPGGA,030009,2603.1844,N,07918.9006,W,1,10,1.8,8,M,,M,,*5C
06/19/2015	03:00:09.579	$GPGGA,030010,2603.1827,N,07918.8999,W,1,10,1.8,8,M,,M,,*5F
06/19/2015	03:00:10.559	$GPGGA,030011,2603.1810,N,07918.8991,W,1,10,1.8,8,M,,M,,*52
06/19/2015	03:00:11.590	$GPGGA,030012,2603.1794,N,07918.8983,W,1,10,1.8,8,M,,M,,*51
06/19/2015	03:00:12.550	$GPGGA,030013,2603.1776,N,07918.8977,W,1,10,1.8,8,M,,M,,*57
06/19/2015	03:00:13.966	$GPGGA,030014,2603.1759,N,07918.8969,W,1,10,1.8,8,M,,M,,*52
06/19/2015	03:00:14.569	$GPGGA,030015,2603.1742,N,07918.8961,W,1,10,1.8,8,M,,M,,*51
06/19/2015	03:00:15.611	$GPGGA,030016,2603.1725,N,07918.8954,W,1,10,1.8,8,M,,M,,*55
06/19/2015	03:00:16.541	$GPGGA,030017,2603.1707,N,07918.8947,W,1,10,1.8,8,M,,M,,*56
06/19/2015	03:00:17.589	$GPGGA,030018,2603.1707,N,07918.8947,W,1,10,1.8,8,M,,M,,*59
06/19/2015	03:00:18.539	$GPGGA,030019,2603.1690,N,07918.8939,W,1,10,1.8,8,M,,M,,*5E
06/19/2015	03:00:19.589	$GPGGA,030020,2603.1656,N,07918.8924,W,1,10,1.8,8,M,,M,,*52
06/19/2015	03:00:20.549	$GPGGA,030021,2603.1639,N,07918.8917,W,1,10,1.8,8,M,,M,,*5A
06/19/2015	03:00:21.599	$GPGGA,030022,2603.1622,N,07918.8910,W,1,10,1.8,8,M,,M,,*54
06/19/2015	03:00:22.540	$GPGGA,030023,2603.1606,N,07918.8903,W,1,10,1.8,8,M,,M,,*51
06/19/2015	03:00:23.599	$GPGGA,030024,2603.1588,N,07918.8895,W,1,10,1.8,8,M,,M,,*5D
06/19/2015	03:00:24.543	$GPGGA,030025,2603.1570,N,07918.8888,W,1,10,1.8,8,M,,M,,*57
06/19/2015	03:00:25.559	$GPGGA,030026,2603.1570,N,07918.8888,W,1,10,1.8,8,M,,M,,*54
06/19/2015	03:00:26.519	$GPGGA,030027,2603.1536,N,07918.8873,W,1,10,1.8,8,M,,M,,*53
06/19/2015	03:00:27.599	$GPGGA,030028,2603.1519,N,07918.8866,W,1,10,1.8,8,M,,M,,*55
06/19/2015	03:00:28.551	$GPGGA,030029,2603.1502,N,07918.8859,W,1,10,1.8,8,M,,M,,*52
06/19/2015	03:00:29.580	$GPGGA,030030,2603.1485,N,07918.8851,W,1,10,1.8,8,M,,M,,*5C
06/19/2015	03:00:30.547	$GPGGA,030031,2603.1485,N,07918.8851,W,1,10,1.8,8,M,,M,,*5D
06/19/2015	03:00:31.599	$GPGGA,030032,2603.1467,N,07918.8843,W,1,10,1.8,8,M,,M,,*51
06/19/2015	03:00:32.541	$GPGGA,030033,2603.1433,N,07918.8829,W,1,10,1.8,8,M,,M,,*5D
06/19/2015	03:00:33.529	$GPGGA,030034,2603.1433,N,07918.8829,W,1,10,1.8,8,M,,M,,*5A
06/19/2015	03:00:34.529	$GPGGA,030035,2603.1398,N,07918.8813,W,1,10,1.8,8,M,,M,,*54
06/19/2015	03:00:35.589	$GPGGA,030036,2603.1398,N,07918.8813,W,1,10,1.8,8,M,,M,,*57
06/19/2015	03:00:36.509	$GPGGA,030037,2603.1364,N,07918.8798,W,1,10,1.8,8,M,,M,,*59
06/19/2015	03:00:37.609	$GPGGA,030038,2603.1347,N,07918.8790,W,1,10,1.8,8,M,,M,,*5F
06/19/2015	03:00:38.509	$GPGGA,030039,2603.1330,N,07918.8782,W,1,10,1.8,8,M,,M,,*5D
06/19/2015	03:00:39.620	$GPGGA,030040,2603.1312,N,07918.8775,W,1,10,1.8,8,M,,M,,*5B
06/19/2015	03:00:40.509	$GPGGA,030041,2603.1295,N,07918.8767,W,1,10,1.8,8,M,,M,,*57
06/19/2015	03:00:41.599	$GPGGA,030042,2603.1278,N,07918.8759,W,1,10,1.8,8,M,,M,,*5A
06/19/2015	03:00:42.589	$GPGGA,030043,2603.1263,N,07918.8750,W,1,10,1.8,8,M,,M,,*58
06/19/2015	03:00:43.519	$GPGGA,030044,2603.1263,N,07918.8750,W,1,10,1.8,8,M,,M,,*5F
06/19/2015	03:00:44.599	$GPGGA,030045,2603.1227,N,07918.8733,W,1,10,1.8,8,M,,M,,*5B
06/19/2015	03:00:45.629	$GPGGA,030046,2603.1210,N,07918.8725,W,1,10,1.8,8,M,,M,,*5B
06/19/2015	03:00:46.510	$GPGGA,030047,2603.1194,N,07918.8716,W,1,10,1.8,8,M,,M,,*55
06/19/2015	03:00:47.630	$GPGGA,030048,2603.1176,N,07918.8707,W,1,10,1.8,8,M,,M,,*56
06/19/2015	03:00:48.599	$GPGGA,030049,2603.1158,N,07918.8699,W,1,10,1.8,8,M,,M,,*5D
06/19/2015	03:00:49.599	$GPGGA,030050,2603.1141,N,07918.8690,W,1,10,1.8,9,M,,M,,*55
06/19/2015	03:00:50.579	$GPGGA,030051,2603.1125,N,07918.8681,W,1,10,1.8,9,M,,M,,*56
06/19/2015	03:00:51.629	$GPGGA,030052,2603.1108,N,07918.8672,W,1,10,1.8,9,M,,M,,*56
06/19/2015	03:00:52.579	$GPGGA,030053,2603.1091,N,07918.8664,W,1,10,1.8,9,M,,M,,*51
06/19/2015	03:00:53.580	$GPGGA,030054,2603.1075,N,07918.8655,W,1,10,1.8,9,M,,M,,*5E
06/19/2015	03:00:54.579	$GPGGA,030055,2603.1058,N,07918.8646,W,1,10,1.8,9,M,,M,,*52
06/19/2015	03:00:55.579	$GPGGA,030056,2603.1041,N,07918.8638,W,1,10,1.8,9,M,,M,,*50
06/19/2015	03:00:56.569	$GPGGA,030057,2603.1024,N,07918.8629,W,1,10,1.8,9,M,,M,,*52
06/19/2015	03:00:57.599	$GPGGA,030058,2603.1007,N,07918.8621,W,1,10,1.8,9,M,,M,,*54
06/19/2015	03:00:58.569	$GPGGA,030059,2603.0990,N,07918.8612,W,1,10,1.8,9,M,,M,,*53
06/19/2015	03:00:59.599	$GPGGA,030100,2603.0990,N,07918.8612,W,1,10,1.8,9,M,,M,,*5E
06/19/2015	03:01:00.559	$GPGGA,030101,2603.0956,N,07918.8595,W,1,10,1.8,9,M,,M,,*59
06/19/2015	03:01:01.589	$GPGGA,030102,2603.0938,N,07918.8587,W,1,10,1.8,9,M,,M,,*51
06/19/2015	03:01:02.559	$GPGGA,030103,2603.0921,N,07918.8578,W,1,10,1.8,9,M,,M,,*58
06/19/2015	03:01:03.600	$GPGGA,030104,2603.0905,N,07918.8570,W,1,10,1.8,9,M,,M,,*51
06/19/2015	03:01:04.552	$GPGGA,030105,2603.0888,N,07918.8561,W,1,10,1.8,9,M,,M,,*54
06/19/2015	03:01:05.560	$GPGGA,030106,2603.0870,N,07918.8554,W,1,10,1.8,9,M,,M,,*56
06/19/2015	03:01:06.539	$GPGGA,030107,2603.0854,N,07918.8545,W,1,10,1.8,9,M,,M,,*51
06/19/2015	03:01:07.590	$GPGGA,030108,2603.0837,N,07918.8537,W,1,10,1.8,9,M,,M,,*5E
06/19/2015	03:01:08.540	$GPGGA,030109,2603.0819,N,07918.8530,W,1,10,1.8,9,M,,M,,*54
06/19/2015	03:01:09.542	$GPGGA,030110,2603.0802,N,07918.8522,W,1,10,1.8,9,M,,M,,*55
06/19/2015	03:01:10.555	$GPGGA,030111,2603.0786,N,07918.8513,W,1,10,1.8,9,M,,M,,*55
06/19/2015	03:01:11.541	$GPGGA,030112,2603.0768,N,07918.8505,W,1,10,1.8,9,M,,M,,*51
06/19/2015	03:01:12.551	$GPGGA,030113,2603.0750,N,07918.8497,W,1,10,1.8,9,M,,M,,*51
06/19/2015	03:01:13.539	$GPGGA,030114,2603.0733,N,07918.8489,W,1,10,1.8,9,M,,M,,*5C
06/19/2015	03:01:14.539	$GPGGA,030115,2603.0717,N,07918.8482,W,1,10,1.8,9,M,,M,,*50
06/19/2015	03:01:15.540	$GPGGA,030116,2603.0699,N,07918.8474,W,1,10,1.8,9,M,,M,,*5D
06/19/2015	03:01:16.529	$GPGGA,030117,2603.0681,N,07918.8466,W,1,10,1.8,9,M,,M,,*56
06/19/2015	03:01:17.550	$GPGGA,030118,2603.0664,N,07918.8459,W,1,10,1.8,9,M,,M,,*5E
06/19/2015	03:01:18.529	$GPGGA,030119,2603.0647,N,07918.8451,W,1,10,1.8,9,M,,M,,*56
06/19/2015	03:01:19.529	$GPGGA,030120,2603.0630,N,07918.8443,W,1,10,1.8,9,M,,M,,*5F
06/19/2015	03:01:20.529	$GPGGA,030121,2603.0612,N,07918.8435,W,1,10,1.8,9,M,,M,,*5F
06/19/2015	03:01:21.520	$GPGGA,030122,2603.0594,N,07918.8428,W,1,10,1.8,9,M,,M,,*5D
06/19/2015	03:01:22.530	$GPGGA,030123,2603.0577,N,07918.8421,W,1,10,1.8,9,M,,M,,*58
06/19/2015	03:01:23.659	$GPGGA,030124,2603.0560,N,07918.8413,W,1,10,1.8,9,M,,M,,*58
06/19/2015	03:01:24.519	$GPGGA,030125,2603.0542,N,07918.8405,W,1,10,1.8,9,M,,M,,*5E
06/19/2015	03:01:25.519	$GPGGA,030126,2603.0526,N,07918.8398,W,1,10,1.8,9,M,,M,,*5C
06/19/2015	03:01:26.519	$GPGGA,030127,2603.0508,N,07918.8390,W,1,10,1.8,9,M,,M,,*59
06/19/2015	03:01:27.629	$GPGGA,030128,2603.0490,N,07918.8382,W,1,10,1.8,9,M,,M,,*55
06/19/2015	03:01:28.599	$GPGGA,030129,2603.0472,N,07918.8376,W,1,10,1.8,9,M,,M,,*53
06/19/2015	03:01:29.639	$GPGGA,030130,2603.0455,N,07918.8368,W,1,10,1.8,9,M,,M,,*51
06/19/2015	03:01:30.509	$GPGGA,030131,2603.0439,N,07918.8360,W,1,10,1.8,9,M,,M,,*52
06/19/2015	03:01:31.609	$GPGGA,030132,2603.0421,N,07918.8352,W,1,10,1.8,9,M,,M,,*59
06/19/2015	03:01:34.379	$GPGGA,030134,2603.0385,N,07918.8337,W,1,10,1.8,9,M,,M,,*55
06/19/2015	03:01:34.499	$GPGGA,030135,2603.0368,N,07918.8329,W,1,10,1.8,9,M,,M,,*58
06/19/2015	03:01:35.609	$GPGGA,030136,2603.0350,N,07918.8321,W,1,10,1.8,9,M,,M,,*58
06/19/2015	03:01:36.499	$GPGGA,030137,2603.0333,N,07918.8313,W,1,10,1.8,9,M,,M,,*5D
06/19/2015	03:01:37.579	$GPGGA,030138,2603.0316,N,07918.8305,W,1,10,1.8,9,M,,M,,*52
06/19/2015	03:01:38.590	$GPGGA,030139,2603.0298,N,07918.8296,W,1,10,1.8,9,M,,M,,*5F
06/19/2015	03:01:39.600	$GPGGA,030140,2603.0280,N,07918.8288,W,1,10,1.8,9,M,,M,,*57
06/19/2015	03:01:40.580	$GPGGA,030141,2603.0263,N,07918.8280,W,1,10,1.8,9,M,,M,,*53
06/19/2015	03:01:41.579	$GPGGA,030142,2603.0245,N,07918.8272,W,1,10,1.8,9,M,,M,,*59
06/19/2015	03:01:42.579	$GPGGA,030143,2603.0228,N,07918.8263,W,1,10,1.8,9,M,,M,,*53
06/19/2015	03:01:43.609	$GPGGA,030144,2603.0211,N,07918.8255,W,1,10,1.8,9,M,,M,,*5B
06/19/2015	03:01:44.569	$GPGGA,030145,2603.0193,N,07918.8247,W,1,10,1.8,9,M,,M,,*50
06/19/2015	03:01:45.589	$GPGGA,030146,2603.0176,N,07918.8238,W,1,10,1.8,9,M,,M,,*50
06/19/2015	03:01:46.579	$GPGGA,030147,2603.0159,N,07918.8229,W,1,10,1.8,9,M,,M,,*5C
06/19/2015	03:01:47.609	$GPGGA,030148,2603.0141,N,07918.8221,W,1,10,1.8,9,M,,M,,*52
06/19/2015	03:01:48.569	$GPGGA,030149,2603.0125,N,07918.8212,W,1,10,1.8,9,M,,M,,*51
06/19/2015	03:01:49.551	$GPGGA,030150,2603.0107,N,07918.8203,W,1,10,1.8,9,M,,M,,*59
06/19/2015	03:01:50.569	$GPGGA,030151,2603.0089,N,07918.8195,W,1,10,1.8,9,M,,M,,*53
06/19/2015	03:01:51.569	$GPGGA,030152,2603.0072,N,07918.8186,W,1,10,1.8,9,M,,M,,*56
06/19/2015	03:01:52.561	$GPGGA,030153,2603.0056,N,07918.8178,W,1,10,1.8,9,M,,M,,*50
06/19/2015	03:01:54.543	$GPGGA,030155,2603.0021,N,07918.8161,W,1,10,1.8,9,M,,M,,*5E
06/19/2015	03:01:55.554	$GPGGA,030156,2603.0004,N,07918.8152,W,1,10,1.8,9,M,,M,,*5A
06/19/2015	03:01:56.554	$GPGGA,030157,2602.9986,N,07918.8144,W,1,10,1.8,9,M,,M,,*57
06/19/2015	03:01:57.580	$GPGGA,030158,2602.9969,N,07918.8135,W,1,10,1.8,9,M,,M,,*5F
06/19/2015	03:01:58.550	$GPGGA,030159,2602.9952,N,07918.8127,W,1,10,1.8,9,M,,M,,*55
06/19/2015	03:01:59.589	$GPGGA,030200,2602.9935,N,07918.8118,W,1,10,1.8,9,M,,M,,*57
06/19/2015	03:02:00.549	$GPGGA,030201,2602.9917,N,07918.8110,W,1,10,1.8,9,M,,M,,*5E
06/19/2015	03:02:01.569	$GPGGA,030202,2602.9901,N,07918.8102,W,1,10,1.8,9,M,,M,,*59
06/19/2015	03:02:02.544	$GPGGA,030203,2602.9883,N,07918.8094,W,1,10,1.8,9,M,,M,,*5D
06/19/2015	03:02:03.579	$GPGGA,030204,2602.9865,N,07918.8086,W,1,10,1.8,9,M,,M,,*51
06/19/2015	03:02:04.559	$GPGGA,030205,2602.9850,N,07918.8077,W,1,10,1.8,9,M,,M,,*58
06/19/2015	03:02:05.529	$GPGGA,030206,2602.9832,N,07918.8068,W,1,10,1.8,9,M,,M,,*51
06/19/2015	03:02:06.509	$GPGGA,030207,2602.9814,N,07918.8061,W,1,10,1.8,9,M,,M,,*5D
06/19/2015	03:02:07.519	$GPGGA,030208,2602.9797,N,07918.8052,W,1,10,1.8,9,M,,M,,*56
06/19/2015	03:02:08.529	$GPGGA,030209,2602.9780,N,07918.8044,W,1,10,1.8,9,M,,M,,*56
06/19/2015	03:02:09.509	$GPGGA,030210,2602.9762,N,07918.8036,W,1,10,1.8,9,M,,M,,*57
06/19/2015	03:02:10.531	$GPGGA,030211,2602.9745,N,07918.8028,W,1,10,1.8,9,M,,M,,*5C
06/19/2015	03:02:11.549	$GPGGA,030212,2602.9728,N,07918.8020,W,1,10,1.8,9,M,,M,,*5C
06/19/2015	03:02:12.519	$GPGGA,030213,2602.9710,N,07918.8012,W,1,10,1.8,9,M,,M,,*57
06/19/2015	03:02:13.499	$GPGGA,030214,2602.9693,N,07918.8003,W,1,10,1.8,9,M,,M,,*5A
06/19/2015	03:02:14.619	$GPGGA,030215,2602.9675,N,07918.7996,W,1,10,1.8,9,M,,M,,*59
06/19/2015	03:02:15.529	$GPGGA,030216,2602.9659,N,07918.7988,W,1,10,1.8,9,M,,M,,*5B
06/19/2015	03:02:16.588	$GPGGA,030217,2602.9641,N,07918.7979,W,1,10,1.8,9,M,,M,,*5D
06/19/2015	03:02:17.508	$GPGGA,030218,2602.9623,N,07918.7971,W,1,10,1.8,9,M,,M,,*5E
06/19/2015	03:02:18.498	$GPGGA,030219,2602.9606,N,07918.7963,W,1,10,1.8,9,M,,M,,*5B
06/19/2015	03:02:19.634	$GPGGA,030220,2602.9590,N,07918.7955,W,1,10,1.8,9,M,,M,,*58
06/19/2015	03:02:20.509	$GPGGA,030221,2602.9572,N,07918.7947,W,1,10,1.8,9,M,,M,,*56
06/19/2015	03:02:21.578	$GPGGA,030222,2602.9555,N,07918.7939,W,1,10,1.8,9,M,,M,,*59
06/19/2015	03:02:23.053	$GPGGA,030223,2602.9537,N,07918.7932,W,1,10,1.8,9,M,,M,,*57
06/19/2015	03:02:23.508	$GPGGA,030224,2602.9519,N,07918.7924,W,1,10,1.8,9,M,,M,,*5B
06/19/2015	03:02:24.499	$GPGGA,030225,2602.9502,N,07918.7917,W,1,10,1.8,9,M,,M,,*50
06/19/2015	03:02:25.610	$GPGGA,030226,2602.9484,N,07918.7909,W,1,10,1.8,9,M,,M,,*53
06/19/2015	03:02:26.499	$GPGGA,030227,2602.9467,N,07918.7901,W,1,10,1.8,9,M,,M,,*57
06/19/2015	03:02:27.579	$GPGGA,030228,2602.9449,N,07918.7894,W,1,10,1.8,9,M,,M,,*59
06/19/2015	03:02:28.579	$GPGGA,030229,2602.9431,N,07918.7886,W,1,10,1.8,9,M,,M,,*54
06/19/2015	03:02:29.609	$GPGGA,030230,2602.9414,N,07918.7878,W,1,10,1.8,9,M,,M,,*5A
06/19/2015	03:02:30.569	$GPGGA,030231,2602.9396,N,07918.7870,W,1,10,1.8,9,M,,M,,*5E
06/19/2015	03:02:31.579	$GPGGA,030232,2602.9378,N,07918.7862,W,1,10,1.8,9,M,,M,,*5E
06/19/2015	03:02:32.569	$GPGGA,030233,2602.9361,N,07918.7855,W,1,10,1.8,9,M,,M,,*53
06/19/2015	03:02:33.568	$GPGGA,030234,2602.9344,N,07918.7847,W,1,10,1.8,9,M,,M,,*50
06/19/2015	03:02:34.568	$GPGGA,030235,2602.9326,N,07918.7839,W,1,10,1.8,9,M,,M,,*5C
06/19/2015	03:02:35.598	$GPGGA,030236,2602.9309,N,07918.7832,W,1,10,1.8,9,M,,M,,*59
06/19/2015	03:02:36.558	$GPGGA,030237,2602.9291,N,07918.7824,W,1,10,1.8,9,M,,M,,*5F
06/19/2015	03:02:37.578	$GPGGA,030238,2602.9274,N,07918.7816,W,1,10,1.8,9,M,,M,,*5A
06/19/2015	03:02:38.548	$GPGGA,030239,2602.9256,N,07918.7808,W,1,10,1.8,9,M,,M,,*54
06/19/2015	03:02:39.588	$GPGGA,030240,2602.9238,N,07918.7801,W,1,10,1.8,9,M,,M,,*5B
06/19/2015	03:02:40.548	$GPGGA,030241,2602.9221,N,07918.7793,W,1,10,1.8,9,M,,M,,*56
06/19/2015	03:02:41.579	$GPGGA,030242,2602.9204,N,07918.7784,W,1,10,1.8,9,M,,M,,*54
06/19/2015	03:02:42.542	$GPGGA,030243,2602.9186,N,07918.7776,W,1,10,1.8,9,M,,M,,*51
06/19/2015	03:02:43.569	$GPGGA,030244,2602.9168,N,07918.7768,W,1,10,1.8,9,M,,M,,*59
06/19/2015	03:02:44.549	$GPGGA,030245,2602.9153,N,07918.7759,W,1,10,1.8,9,M,,M,,*52
06/19/2015	03:02:45.547	$GPGGA,030246,2602.9135,N,07918.7751,W,1,10,1.8,9,M,,M,,*59
06/19/2015	03:02:46.542	$GPGGA,030247,2602.9117,N,07918.7743,W,1,10,1.8,9,M,,M,,*5B
06/19/2015	03:02:47.559	$GPGGA,030248,2602.9100,N,07918.7735,W,1,10,1.8,9,M,,M,,*53
06/19/2015	03:02:48.549	$GPGGA,030249,2602.9083,N,07918.7726,W,1,10,1.8,9,M,,M,,*5A
06/19/2015	03:02:49.549	$GPGGA,030250,2602.9066,N,07918.7718,W,1,10,1.8,9,M,,M,,*54
06/19/2015	03:02:50.532	$GPGGA,030251,2602.9048,N,07918.7709,W,1,10,1.8,9,M,,M,,*59
06/19/2015	03:02:51.578	$GPGGA,030252,2602.9031,N,07918.7700,W,1,10,1.8,9,M,,M,,*5D
06/19/2015	03:02:52.530	$GPGGA,030253,2602.9013,N,07918.7692,W,1,10,1.8,9,M,,M,,*56
06/19/2015	03:02:53.568	$GPGGA,030254,2602.8996,N,07918.7683,W,1,10,1.8,9,M,,M,,*54
06/19/2015	03:02:54.518	$GPGGA,030255,2602.8979,N,07918.7674,W,1,10,1.8,9,M,,M,,*5C
06/19/2015	03:02:55.558	$GPGGA,030256,2602.8961,N,07918.7665,W,1,10,1.8,9,M,,M,,*56
06/19/2015	03:02:56.518	$GPGGA,030257,2602.8944,N,07918.7656,W,1,10,1.8,9,M,,M,,*50
06/19/2015	03:02:57.518	$GPGGA,030258,2602.8927,N,07918.7648,W,1,10,1.8,9,M,,M,,*55
06/19/2015	03:02:58.508	$GPGGA,030259,2602.8911,N,07918.7639,W,1,10,1.8,9,M,,M,,*57
06/19/2015	03:02:59.543	$GPGGA,030300,2602.8893,N,07918.7631,W,1,10,1.8,9,M,,M,,*59
06/19/2015	03:03:00.519	$GPGGA,030301,2602.8875,N,07918.7622,W,1,10,1.8,9,M,,M,,*52
06/19/2015	03:03:01.509	$GPGGA,030302,2602.8858,N,07918.7614,W,1,10,1.8,9,M,,M,,*5B
06/19/2015	03:03:02.519	$GPGGA,030303,2602.8842,N,07918.7605,W,1,10,1.8,9,M,,M,,*51
06/19/2015	03:03:03.519	$GPGGA,030304,2602.8824,N,07918.7596,W,1,10,1.8,9,M,,M,,*5F
06/19/2015	03:03:04.519	$GPGGA,030305,2602.8806,N,07918.7588,W,1,10,1.8,9,M,,M,,*51
06/19/2015	03:03:05.499	$GPGGA,030306,2602.8789,N,07918.7580,W,1,10,1.8,9,M,,M,,*52
06/19/2015	03:03:06.619	$GPGGA,030307,2602.8771,N,07918.7571,W,1,10,1.8,9,M,,M,,*5A
06/19/2015	03:03:07.599	$GPGGA,030308,2602.8754,N,07918.7563,W,1,10,1.8,9,M,,M,,*51
06/19/2015	03:03:08.499	$GPGGA,030309,2602.8737,N,07918.7555,W,1,10,1.8,9,M,,M,,*50
06/19/2015	03:03:09.488	$GPGGA,030310,2602.8720,N,07918.7547,W,1,10,1.8,9,M,,M,,*5D
06/19/2015	03:03:10.488	$GPGGA,030311,2602.8702,N,07918.7539,W,1,10,1.8,9,M,,M,,*55
06/19/2015	03:03:12.538	$GPGGA,030313,2602.8669,N,07918.7523,W,1,10,1.8,9,M,,M,,*50
06/19/2015	03:03:13.498	$GPGGA,030314,2602.8651,N,07918.7515,W,1,10,1.8,9,M,,M,,*59
06/19/2015	03:03:14.579	$GPGGA,030315,2602.8633,N,07918.7508,W,1,10,1.8,9,M,,M,,*50
06/19/2015	03:03:15.632	$GPGGA,030316,2602.8616,N,07918.7500,W,1,10,1.8,9,M,,M,,*5C
06/19/2015	03:03:16.579	$GPGGA,030317,2602.8598,N,07918.7491,W,1,10,1.8,9,M,,M,,*51
06/19/2015	03:03:17.489	$GPGGA,030318,2602.8582,N,07918.7484,W,1,10,1.8,9,M,,M,,*51
06/19/2015	03:03:18.579	$GPGGA,030319,2602.8564,N,07918.7477,W,1,10,1.8,10,M,,M,,*6C
06/19/2015	03:03:19.589	$GPGGA,030320,2602.8546,N,07918.7468,W,1,10,1.8,10,M,,M,,*68
06/19/2015	03:03:20.579	$GPGGA,030321,2602.8528,N,07918.7461,W,1,10,1.8,10,M,,M,,*68
06/19/2015	03:03:21.569	$GPGGA,030322,2602.8510,N,07918.7453,W,1,10,1.8,10,M,,M,,*61
06/19/2015	03:03:22.579	$GPGGA,030323,2602.8493,N,07918.7445,W,1,10,1.8,10,M,,M,,*6D
06/19/2015	03:03:23.631	$GPGGA,030324,2602.8475,N,07918.7437,W,1,10,1.8,10,M,,M,,*67
06/19/2015	03:03:24.569	$GPGGA,030325,2602.8458,N,07918.7430,W,1,10,1.8,10,M,,M,,*6E
06/19/2015	03:03:25.579	$GPGGA,030326,2602.8441,N,07918.7422,W,1,10,1.8,10,M,,M,,*66
06/19/2015	03:03:26.568	$GPGGA,030327,2602.8423,N,07918.7414,W,1,10,1.8,10,M,,M,,*66
06/19/2015	03:03:27.598	$GPGGA,030328,2602.8405,N,07918.7406,W,1,10,1.8,10,M,,M,,*6E
06/19/2015	03:03:28.568	$GPGGA,030329,2602.8388,N,07918.7399,W,1,10,1.8,10,M,,M,,*6C
06/19/2015	03:03:29.578	$GPGGA,030330,2602.8370,N,07918.7391,W,1,10,1.8,10,M,,M,,*6B
06/19/2015	03:03:30.548	$GPGGA,030331,2602.8353,N,07918.7383,W,1,10,1.8,10,M,,M,,*68
06/19/2015	03:03:31.588	$GPGGA,030332,2602.8335,N,07918.7375,W,1,10,1.8,10,M,,M,,*62
06/19/2015	03:03:32.558	$GPGGA,030333,2602.8317,N,07918.7367,W,1,10,1.8,10,M,,M,,*60
06/19/2015	03:03:33.569	$GPGGA,030334,2602.8299,N,07918.7360,W,1,10,1.8,10,M,,M,,*67
06/19/2015	03:03:34.549	$GPGGA,030335,2602.8282,N,07918.7351,W,1,10,1.8,10,M,,M,,*6E
06/19/2015	03:03:35.589	$GPGGA,030336,2602.8264,N,07918.7344,W,1,10,1.8,10,M,,M,,*61
06/19/2015	03:03:36.549	$GPGGA,030337,2602.8247,N,07918.7336,W,1,10,1.8,10,M,,M,,*64
06/19/2015	03:03:37.539	$GPGGA,030338,2602.8229,N,07918.7328,W,1,10,1.8,10,M,,M,,*6C
06/19/2015	03:03:38.549	$GPGGA,030339,2602.8212,N,07918.7320,W,1,10,1.8,10,M,,M,,*6D
06/19/2015	03:03:39.589	$GPGGA,030340,2602.8195,N,07918.7312,W,1,10,1.8,10,M,,M,,*6E
06/19/2015	03:03:40.531	$GPGGA,030341,2602.8177,N,07918.7303,W,1,10,1.8,10,M,,M,,*63
06/19/2015	03:03:41.532	$GPGGA,030342,2602.8160,N,07918.7295,W,1,10,1.8,10,M,,M,,*68
06/19/2015	03:03:42.541	$GPGGA,030343,2602.8142,N,07918.7287,W,1,10,1.8,10,M,,M,,*6A
06/19/2015	03:03:43.538	$GPGGA,030344,2602.8125,N,07918.7278,W,1,10,1.8,10,M,,M,,*6C
06/19/2015	03:03:44.528	$GPGGA,030345,2602.8109,N,07918.7270,W,1,10,1.8,10,M,,M,,*6B
06/19/2015	03:03:45.518	$GPGGA,030346,2602.8091,N,07918.7262,W,1,10,1.8,10,M,,M,,*6B
06/19/2015	03:03:46.638	$GPGGA,030347,2602.8073,N,07918.7254,W,1,10,1.8,10,M,,M,,*63
06/19/2015	03:03:47.558	$GPGGA,030348,2602.8056,N,07918.7244,W,1,10,1.8,10,M,,M,,*6A
06/19/2015	03:03:48.518	$GPGGA,030349,2602.8040,N,07918.7235,W,1,10,1.8,10,M,,M,,*6A
06/19/2015	03:03:49.568	$GPGGA,030350,2602.8022,N,07918.7227,W,1,10,1.8,10,M,,M,,*65
06/19/2015	03:03:50.508	$GPGGA,030351,2602.8004,N,07918.7218,W,1,10,1.8,10,M,,M,,*6C
06/19/2015	03:03:51.669	$GPGGA,030352,2602.7987,N,07918.7209,W,1,10,1.8,10,M,,M,,*62
06/19/2015	03:03:52.510	$GPGGA,030353,2602.7970,N,07918.7200,W,1,10,1.8,10,M,,M,,*62
06/19/2015	03:03:53.529	$GPGGA,030354,2602.7953,N,07918.7191,W,1,10,1.8,10,M,,M,,*6F
06/19/2015	03:03:54.609	$GPGGA,030355,2602.7935,N,07918.7183,W,1,10,1.8,10,M,,M,,*6D
06/19/2015	03:03:55.539	$GPGGA,030356,2602.7918,N,07918.7174,W,1,10,1.8,10,M,,M,,*69
06/19/2015	03:03:56.499	$GPGGA,030357,2602.7901,N,07918.7164,W,1,10,1.8,10,M,,M,,*61
06/19/2015	03:03:58.543	$GPGGA,030359,2602.7867,N,07918.7147,W,1,10,1.8,10,M,,M,,*6F
06/19/2015	03:03:59.659	$GPGGA,030400,2602.7850,N,07918.7138,W,1,10,1.8,10,M,,M,,*68
06/19/2015	03:04:00.509	$GPGGA,030401,2602.7832,N,07918.7129,W,1,10,1.8,10,M,,M,,*6D
06/19/2015	03:04:01.498	$GPGGA,030402,2602.7816,N,07918.7122,W,1,10,1.8,10,M,,M,,*63
06/19/2015	03:04:02.588	$GPGGA,030403,2602.7799,N,07918.7113,W,1,10,1.8,11,M,,M,,*69
06/19/2015	03:04:03.632	$GPGGA,030404,2602.7782,N,07918.7105,W,1,10,1.8,11,M,,M,,*63
06/19/2015	03:04:04.578	$GPGGA,030405,2602.7766,N,07918.7096,W,1,10,1.8,11,M,,M,,*63
06/19/2015	03:04:05.629	$GPGGA,030406,2602.7747,N,07918.7088,W,1,10,1.8,11,M,,M,,*6C
06/19/2015	03:04:06.578	$GPGGA,030407,2602.7730,N,07918.7079,W,1,10,1.8,11,M,,M,,*63
06/19/2015	03:04:07.642	$GPGGA,030408,2602.7713,N,07918.7071,W,1,10,1.8,11,M,,M,,*65
06/19/2015	03:04:08.579	$GPGGA,030409,2602.7695,N,07918.7063,W,1,10,1.8,11,M,,M,,*68
06/19/2015	03:04:09.599	$GPGGA,030410,2602.7679,N,07918.7055,W,1,10,1.8,11,M,,M,,*67
06/19/2015	03:04:10.579	$GPGGA,030411,2602.7661,N,07918.7047,W,1,10,1.8,11,M,,M,,*6C
06/19/2015	03:04:11.609	$GPGGA,030412,2602.7643,N,07918.7039,W,1,10,1.8,11,M,,M,,*66
06/19/2015	03:04:12.879	$GPGGA,030413,2602.7626,N,07918.7031,W,1,10,1.8,11,M,,M,,*6C
06/19/2015	03:04:13.589	$GPGGA,030414,2602.7608,N,07918.7023,W,1,10,1.8,11,M,,M,,*64
06/19/2015	03:04:14.579	$GPGGA,030415,2602.7592,N,07918.7016,W,1,10,1.8,11,M,,M,,*63
06/19/2015	03:04:15.609	$GPGGA,030416,2602.7574,N,07918.7008,W,1,10,1.8,11,M,,M,,*67
06/19/2015	03:04:16.569	$GPGGA,030417,2602.7556,N,07918.7001,W,1,10,1.8,11,M,,M,,*6F
06/19/2015	03:04:17.579	$GPGGA,030418,2602.7539,N,07918.6993,W,1,10,1.8,11,M,,M,,*6A
06/19/2015	03:04:18.568	$GPGGA,030419,2602.7522,N,07918.6985,W,1,10,1.8,11,M,,M,,*66
06/19/2015	03:04:19.598	$GPGGA,030420,2602.7504,N,07918.6978,W,1,10,1.8,11,M,,M,,*6A
06/19/2015	03:04:20.548	$GPGGA,030421,2602.7487,N,07918.6970,W,1,10,1.8,11,M,,M,,*69
06/19/2015	03:04:21.568	$GPGGA,030422,2602.7469,N,07918.6963,W,1,10,1.8,11,M,,M,,*68
06/19/2015	03:04:23.080	$GPGGA,030423,2602.7451,N,07918.6956,W,1,10,1.8,11,M,,M,,*64
06/19/2015	03:04:23.588	$GPGGA,030424,2602.7434,N,07918.6948,W,1,10,1.8,11,M,,M,,*6F
06/19/2015	03:04:24.558	$GPGGA,030425,2602.7417,N,07918.6941,W,1,10,1.8,11,M,,M,,*66
06/19/2015	03:04:25.542	$GPGGA,030426,2602.7399,N,07918.6933,W,1,10,1.8,11,M,,M,,*61
06/19/2015	03:04:26.549	$GPGGA,030427,2602.7381,N,07918.6926,W,1,10,1.8,11,M,,M,,*6D
06/19/2015	03:04:27.599	$GPGGA,030428,2602.7363,N,07918.6919,W,1,10,1.8,11,M,,M,,*62
06/19/2015	03:04:28.559	$GPGGA,030429,2602.7346,N,07918.6911,W,1,10,1.8,11,M,,M,,*6C
06/19/2015	03:04:29.569	$GPGGA,030430,2602.7329,N,07918.6904,W,1,10,1.8,11,M,,M,,*69
06/19/2015	03:04:30.545	$GPGGA,030431,2602.7310,N,07918.6896,W,1,10,1.8,11,M,,M,,*68
06/19/2015	03:04:31.579	$GPGGA,030432,2602.7293,N,07918.6888,W,1,10,1.8,11,M,,M,,*6E
06/19/2015	03:04:32.535	$GPGGA,030433,2602.7276,N,07918.6881,W,1,10,1.8,11,M,,M,,*6D
06/19/2015	03:04:33.534	$GPGGA,030434,2602.7258,N,07918.6873,W,1,10,1.8,11,M,,M,,*6B
06/19/2015	03:04:34.519	$GPGGA,030435,2602.7242,N,07918.6865,W,1,10,1.8,11,M,,M,,*66
06/19/2015	03:04:35.598	$GPGGA,030436,2602.7224,N,07918.6858,W,1,10,1.8,11,M,,M,,*6B
06/19/2015	03:04:36.548	$GPGGA,030437,2602.7206,N,07918.6849,W,1,10,1.8,11,M,,M,,*6A
06/19/2015	03:04:37.540	$GPGGA,030438,2602.7189,N,07918.6841,W,1,10,1.8,11,M,,M,,*69
06/19/2015	03:04:38.535	$GPGGA,030439,2602.7173,N,07918.6833,W,1,10,1.8,11,M,,M,,*68
06/19/2015	03:04:39.568	$GPGGA,030440,2602.7155,N,07918.6825,W,1,10,1.8,11,M,,M,,*65
06/19/2015	03:04:40.518	$GPGGA,030441,2602.7137,N,07918.6816,W,1,10,1.8,11,M,,M,,*60
06/19/2015	03:04:41.658	$GPGGA,030442,2602.7120,N,07918.6808,W,1,10,1.8,11,M,,M,,*6A
06/19/2015	03:04:42.645	$GPGGA,030443,2602.7103,N,07918.6799,W,1,10,1.8,11,M,,M,,*6D
06/19/2015	03:04:44.209	$GPGGA,030444,2602.7086,N,07918.6790,W,1,10,1.8,11,M,,M,,*6F
06/19/2015	03:04:44.534	$GPGGA,030445,2602.7068,N,07918.6782,W,1,10,1.8,11,M,,M,,*6D
06/19/2015	03:04:45.641	$GPGGA,030446,2602.7051,N,07918.6773,W,1,10,1.8,11,M,,M,,*6A
06/19/2015	03:04:46.643	$GPGGA,030447,2602.7036,N,07918.6764,W,1,10,1.8,11,M,,M,,*6C
06/19/2015	03:04:47.651	$GPGGA,030448,2602.7018,N,07918.6755,W,1,10,1.8,11,M,,M,,*6D
06/19/2015	03:04:48.536	$GPGGA,030449,2602.7000,N,07918.6747,W,1,10,1.8,11,M,,M,,*66
06/19/2015	03:04:49.609	$GPGGA,030450,2602.6984,N,07918.6737,W,1,10,1.8,11,M,,M,,*6D
06/19/2015	03:04:50.529	$GPGGA,030451,2602.6967,N,07918.6728,W,1,10,1.8,11,M,,M,,*6F
06/19/2015	03:04:51.599	$GPGGA,030452,2602.6949,N,07918.6719,W,1,10,1.8,11,M,,M,,*62
06/19/2015	03:04:52.589	$GPGGA,030453,2602.6932,N,07918.6710,W,1,10,1.8,11,M,,M,,*66
06/19/2015	03:04:53.588	$GPGGA,030454,2602.6915,N,07918.6701,W,1,10,1.8,11,M,,M,,*64
06/19/2015	03:04:54.588	$GPGGA,030455,2602.6897,N,07918.6693,W,1,10,1.8,11,M,,M,,*64
06/19/2015	03:04:55.638	$GPGGA,030456,2602.6880,N,07918.6685,W,1,10,1.8,11,M,,M,,*66
06/19/2015	03:04:56.579	$GPGGA,030457,2602.6863,N,07918.6676,W,1,10,1.8,11,M,,M,,*66
06/19/2015	03:04:57.588	$GPGGA,030458,2602.6846,N,07918.6668,W,1,10,1.8,11,M,,M,,*61
06/19/2015	03:04:58.848	$GPGGA,030459,2602.6828,N,07918.6659,W,1,10,1.8,11,M,,M,,*6A
06/19/2015	03:04:59.608	$GPGGA,030500,2602.6812,N,07918.6651,W,1,10,1.8,11,M,,M,,*66
06/19/2015	03:05:00.568	$GPGGA,030501,2602.6794,N,07918.6642,W,1,10,1.8,11,M,,M,,*64
06/19/2015	03:05:01.599	$GPGGA,030502,2602.6777,N,07918.6634,W,1,10,1.8,11,M,,M,,*6B
06/19/2015	03:05:02.569	$GPGGA,030503,2602.6760,N,07918.6626,W,1,10,1.8,11,M,,M,,*6F
06/19/2015	03:05:03.609	$GPGGA,030504,2602.6743,N,07918.6617,W,1,10,1.8,11,M,,M,,*6B
06/19/2015	03:05:04.569	$GPGGA,030505,2602.6726,N,07918.6609,W,1,10,1.8,11,M,,M,,*66
06/19/2015	03:05:05.589	$GPGGA,030506,2602.6708,N,07918.6601,W,1,10,1.8,11,M,,M,,*61
06/19/2015	03:05:06.559	$GPGGA,030507,2602.6691,N,07918.6593,W,1,10,1.8,11,M,,M,,*69
06/19/2015	03:05:07.589	$GPGGA,030508,2602.6674,N,07918.6585,W,1,10,1.8,11,M,,M,,*6A
06/19/2015	03:05:08.559	$GPGGA,030509,2602.6657,N,07918.6577,W,1,10,1.8,11,M,,M,,*67
06/19/2015	03:05:09.579	$GPGGA,030510,2602.6639,N,07918.6570,W,1,10,1.8,11,M,,M,,*60
06/19/2015	03:05:10.558	$GPGGA,030511,2602.6622,N,07918.6561,W,1,10,1.8,11,M,,M,,*6B
06/19/2015	03:05:11.588	$GPGGA,030512,2602.6606,N,07918.6554,W,1,10,1.8,11,M,,M,,*68
06/19/2015	03:05:12.548	$GPGGA,030513,2602.6588,N,07918.6546,W,1,10,1.8,11,M,,M,,*6F
06/19/2015	03:05:13.568	$GPGGA,030514,2602.6570,N,07918.6539,W,1,10,1.8,11,M,,M,,*67
06/19/2015	03:05:14.558	$GPGGA,030515,2602.6552,N,07918.6531,W,1,10,1.8,11,M,,M,,*6E
06/19/2015	03:05:15.548	$GPGGA,030516,2602.6534,N,07918.6523,W,1,10,1.8,11,M,,M,,*6E
06/19/2015	03:05:16.558	$GPGGA,030517,2602.6517,N,07918.6516,W,1,10,1.8,11,M,,M,,*68
06/19/2015	03:05:17.568	$GPGGA,030518,2602.6501,N,07918.6509,W,1,10,1.8,11,M,,M,,*6E
06/19/2015	03:05:18.545	$GPGGA,030519,2602.6483,N,07918.6501,W,1,10,1.8,11,M,,M,,*6C
06/19/2015	03:05:19.569	$GPGGA,030520,2602.6465,N,07918.6494,W,1,10,1.8,11,M,,M,,*63
06/19/2015	03:05:20.542	$GPGGA,030521,2602.6447,N,07918.6487,W,1,10,1.8,11,M,,M,,*60
06/19/2015	03:05:21.549	$GPGGA,030522,2602.6430,N,07918.6480,W,1,10,1.8,11,M,,M,,*64
06/19/2015	03:05:22.533	$GPGGA,030523,2602.6412,N,07918.6472,W,1,10,1.8,11,M,,M,,*68
06/19/2015	03:05:23.559	$GPGGA,030524,2602.6395,N,07918.6465,W,1,10,1.8,11,M,,M,,*61
06/19/2015	03:05:24.531	$GPGGA,030525,2602.6377,N,07918.6458,W,1,10,1.8,11,M,,M,,*62
06/19/2015	03:05:25.559	$GPGGA,030526,2602.6359,N,07918.6451,W,1,10,1.8,11,M,,M,,*64
06/19/2015	03:05:26.530	$GPGGA,030527,2602.6342,N,07918.6442,W,1,10,1.8,11,M,,M,,*6D
06/19/2015	03:05:27.569	$GPGGA,030528,2602.6324,N,07918.6436,W,1,10,1.8,11,M,,M,,*61
06/19/2015	03:05:28.539	$GPGGA,030529,2602.6307,N,07918.6428,W,1,10,1.8,11,M,,M,,*6E
06/19/2015	03:05:29.518	$GPGGA,030530,2602.6289,N,07918.6420,W,1,10,1.8,11,M,,M,,*69
06/19/2015	03:05:30.630	$GPGGA,030531,2602.6272,N,07918.6413,W,1,10,1.8,11,M,,M,,*6C
06/19/2015	03:05:31.648	$GPGGA,030532,2602.6254,N,07918.6405,W,1,10,1.8,11,M,,M,,*6C
06/19/2015	03:05:32.518	$GPGGA,030533,2602.6237,N,07918.6397,W,1,10,1.8,11,M,,M,,*64
06/19/2015	03:05:33.518	$GPGGA,030534,2602.6219,N,07918.6389,W,1,10,1.8,11,M,,M,,*60
06/19/2015	03:05:34.528	$GPGGA,030535,2602.6201,N,07918.6381,W,1,10,1.8,11,M,,M,,*60
06/19/2015	03:05:35.518	$GPGGA,030536,2602.6184,N,07918.6372,W,1,10,1.8,11,M,,M,,*61
06/19/2015	03:05:36.599	$GPGGA,030537,2602.6166,N,07918.6364,W,1,10,1.8,11,M,,M,,*6B
06/19/2015	03:05:37.633	$GPGGA,030538,2602.6149,N,07918.6356,W,1,10,1.8,11,M,,M,,*68
06/19/2015	03:05:38.519	$GPGGA,030539,2602.6131,N,07918.6347,W,1,10,1.8,11,M,,M,,*66
06/19/2015	03:05:39.531	$GPGGA,030540,2602.6115,N,07918.6339,W,1,10,1.8,11,M,,M,,*67
06/19/2015	03:05:40.599	$GPGGA,030541,2602.6097,N,07918.6330,W,1,10,1.8,11,M,,M,,*64
06/19/2015	03:05:41.509	$GPGGA,030542,2602.6079,N,07918.6321,W,1,10,1.8,11,M,,M,,*67
06/19/2015	03:05:42.589	$GPGGA,030543,2602.6061,N,07918.6313,W,1,10,1.8,11,M,,M,,*6E
06/19/2015	03:05:43.609	$GPGGA,030544,2602.6044,N,07918.6304,W,1,10,1.8,11,M,,M,,*68
06/19/2015	03:05:44.499	$GPGGA,030545,2602.6028,N,07918.6295,W,1,10,1.8,11,M,,M,,*6A
06/19/2015	03:05:45.598	$GPGGA,030546,2602.6010,N,07918.6286,W,1,10,1.8,11,M,,M,,*60
06/19/2015	03:05:46.588	$GPGGA,030547,2602.5992,N,07918.6278,W,1,10,1.8,11,M,,M,,*60
06/19/2015	03:05:47.631	$GPGGA,030548,2602.5975,N,07918.6269,W,1,10,1.8,11,M,,M,,*66
06/19/2015	03:05:48.588	$GPGGA,030549,2602.5958,N,07918.6259,W,1,10,1.8,11,M,,M,,*6B
06/19/2015	03:05:49.578	$GPGGA,030550,2602.5941,N,07918.6251,W,1,10,1.8,11,M,,M,,*63
06/19/2015	03:05:50.568	$GPGGA,030551,2602.5923,N,07918.6242,W,1,10,1.8,11,M,,M,,*64
06/19/2015	03:05:51.608	$GPGGA,030552,2602.5906,N,07918.6233,W,1,10,1.8,11,M,,M,,*66
06/19/2015	03:05:52.588	$GPGGA,030553,2602.5889,N,07918.6225,W,1,10,1.8,11,M,,M,,*66
06/19/2015	03:05:53.899	$GPGGA,030554,2602.5872,N,07918.6216,W,1,10,1.8,11,M,,M,,*65
06/19/2015	03:05:54.559	$GPGGA,030555,2602.5854,N,07918.6206,W,1,10,1.8,11,M,,M,,*61
06/19/2015	03:05:55.569	$GPGGA,030556,2602.5837,N,07918.6198,W,1,10,1.8,11,M,,M,,*63
06/19/2015	03:05:56.569	$GPGGA,030557,2602.5820,N,07918.6190,W,1,10,1.8,11,M,,M,,*6C
06/19/2015	03:05:57.599	$GPGGA,030558,2602.5804,N,07918.6181,W,1,10,1.8,11,M,,M,,*65
06/19/2015	03:05:58.569	$GPGGA,030559,2602.5786,N,07918.6173,W,1,10,1.8,11,M,,M,,*6C
06/19/2015	03:05:59.589	$GPGGA,030600,2602.5768,N,07918.6164,W,1,10,1.8,11,M,,M,,*65
06/19/2015	03:06:00.569	$GPGGA,030601,2602.5750,N,07918.6156,W,1,10,1.8,11,M,,M,,*6E
06/19/2015	03:06:01.549	$GPGGA,030602,2602.5733,N,07918.6147,W,1,10,1.8,11,M,,M,,*68
06/19/2015	03:06:02.549	$GPGGA,030603,2602.5715,N,07918.6139,W,1,10,1.8,11,M,,M,,*64
06/19/2015	03:06:03.868	$GPGGA,030604,2602.5699,N,07918.6131,W,1,10,1.8,11,M,,M,,*6E
06/19/2015	03:06:04.578	$GPGGA,030605,2602.5681,N,07918.6123,W,1,10,1.8,11,M,,M,,*65
06/19/2015	03:06:05.541	$GPGGA,030606,2602.5664,N,07918.6114,W,1,10,1.8,11,M,,M,,*69
06/19/2015	03:06:06.548	$GPGGA,030607,2602.5646,N,07918.6106,W,1,10,1.8,11,M,,M,,*6B
06/19/2015	03:06:07.558	$GPGGA,030608,2602.5628,N,07918.6098,W,1,10,1.8,11,M,,M,,*6A
06/19/2015	03:06:08.548	$GPGGA,030609,2602.5611,N,07918.6090,W,1,10,1.8,11,M,,M,,*69
06/19/2015	03:06:09.528	$GPGGA,030610,2602.5593,N,07918.6082,W,1,10,1.8,11,M,,M,,*6B
06/19/2015	03:06:10.540	$GPGGA,030611,2602.5575,N,07918.6074,W,1,10,1.8,11,M,,M,,*6B
06/19/2015	03:06:11.579	$GPGGA,030612,2602.5558,N,07918.6066,W,1,10,1.8,11,M,,M,,*64
06/19/2015	03:06:12.529	$GPGGA,030613,2602.5540,N,07918.6058,W,1,10,1.8,11,M,,M,,*61
06/19/2015	03:06:13.539	$GPGGA,030614,2602.5523,N,07918.6050,W,1,10,1.8,11,M,,M,,*6B
06/19/2015	03:06:14.529	$GPGGA,030615,2602.5505,N,07918.6042,W,1,10,1.8,11,M,,M,,*6D
06/19/2015	03:06:15.559	$GPGGA,030616,2602.5488,N,07918.6035,W,1,10,1.8,11,M,,M,,*6A
06/19/2015	03:06:16.534	$GPGGA,030617,2602.5470,N,07918.6027,W,1,10,1.8,11,M,,M,,*6F
06/19/2015	03:06:17.519	$GPGGA,030618,2602.5452,N,07918.6019,W,1,10,1.8,11,M,,M,,*6D
06/19/2015	03:06:18.644	$GPGGA,030619,2602.5435,N,07918.6012,W,1,10,1.8,11,M,,M,,*66
06/19/2015	03:06:19.539	$GPGGA,030620,2602.5417,N,07918.6004,W,1,10,1.8,11,M,,M,,*6B
06/19/2015	03:06:20.529	$GPGGA,030621,2602.5399,N,07918.5997,W,1,10,1.8,11,M,,M,,*6B
06/19/2015	03:06:21.648	$GPGGA,030622,2602.5381,N,07918.5990,W,1,10,1.8,11,M,,M,,*66
06/19/2015	03:06:22.508	$GPGGA,030623,2602.5363,N,07918.5982,W,1,10,1.8,11,M,,M,,*68
06/19/2015	03:06:23.518	$GPGGA,030624,2602.5345,N,07918.5975,W,1,10,1.8,11,M,,M,,*63
06/19/2015	03:06:24.528	$GPGGA,030625,2602.5328,N,07918.5968,W,1,10,1.8,11,M,,M,,*65
06/19/2015	03:06:25.530	$GPGGA,030626,2602.5310,N,07918.5961,W,1,10,1.8,11,M,,M,,*64
06/19/2015	03:06:26.598	$GPGGA,030627,2602.5292,N,07918.5953,W,1,10,1.8,11,M,,M,,*6F
06/19/2015	03:06:27.530	$GPGGA,030628,2602.5274,N,07918.5946,W,1,10,1.8,11,M,,M,,*6C
06/19/2015	03:06:28.519	$GPGGA,030629,2602.5256,N,07918.5938,W,1,10,1.8,11,M,,M,,*64
06/19/2015	03:06:29.619	$GPGGA,030630,2602.5239,N,07918.5930,W,1,10,1.8,11,M,,M,,*6D
06/19/2015	03:06:30.519	$GPGGA,030631,2602.5221,N,07918.5923,W,1,10,1.8,11,M,,M,,*67
06/19/2015	03:06:31.649	$GPGGA,030632,2602.5202,N,07918.5916,W,1,10,1.8,11,M,,M,,*63
06/19/2015	03:06:32.509	$GPGGA,030633,2602.5186,N,07918.5908,W,1,10,1.8,11,M,,M,,*62
06/19/2015	03:06:33.619	$GPGGA,030634,2602.5168,N,07918.5900,W,1,10,1.8,11,M,,M,,*6D
06/19/2015	03:06:34.589	$GPGGA,030635,2602.5150,N,07918.5892,W,1,10,1.8,11,M,,M,,*6D
06/19/2015	03:06:35.609	$GPGGA,030636,2602.5132,N,07918.5884,W,1,10,1.8,11,M,,M,,*6D
06/19/2015	03:06:36.599	$GPGGA,030637,2602.5114,N,07918.5876,W,1,10,1.8,11,M,,M,,*65
06/19/2015	03:06:37.619	$GPGGA,030638,2602.5096,N,07918.5868,W,1,10,1.8,11,M,,M,,*6E
06/19/2015	03:06:38.588	$GPGGA,030639,2602.5079,N,07918.5860,W,1,10,1.8,11,M,,M,,*66
06/19/2015	03:06:39.588	$GPGGA,030640,2602.5060,N,07918.5852,W,1,10,1.8,11,M,,M,,*61
06/19/2015	03:06:40.498	$GPGGA,030641,2602.5043,N,07918.5843,W,1,10,1.8,11,M,,M,,*61
06/19/2015	03:06:41.588	$GPGGA,030642,2602.5025,N,07918.5835,W,1,10,1.8,11,M,,M,,*63
06/19/2015	03:06:42.578	$GPGGA,030643,2602.5007,N,07918.5826,W,1,10,1.8,11,M,,M,,*60
06/19/2015	03:06:43.628	$GPGGA,030644,2602.4991,N,07918.5817,W,1,10,1.8,11,M,,M,,*62
06/19/2015	03:06:44.568	$GPGGA,030645,2602.4973,N,07918.5809,W,1,10,1.8,11,M,,M,,*60
06/19/2015	03:06:45.569	$GPGGA,030646,2602.4955,N,07918.5800,W,1,10,1.8,11,M,,M,,*6E
06/19/2015	03:06:46.569	$GPGGA,030647,2602.4937,N,07918.5790,W,1,10,1.8,11,M,,M,,*6D
06/19/2015	03:06:47.599	$GPGGA,030648,2602.4919,N,07918.5782,W,1,10,1.8,11,M,,M,,*6D
06/19/2015	03:06:48.559	$GPGGA,030649,2602.4902,N,07918.5773,W,1,10,1.8,11,M,,M,,*68
06/19/2015	03:06:49.569	$GPGGA,030650,2602.4885,N,07918.5764,W,1,10,1.8,11,M,,M,,*68
06/19/2015	03:06:50.551	$GPGGA,030651,2602.4867,N,07918.5755,W,1,10,1.8,11,M,,M,,*67
06/19/2015	03:06:51.599	$GPGGA,030652,2602.4850,N,07918.5746,W,1,10,1.8,11,M,,M,,*62
06/19/2015	03:06:52.569	$GPGGA,030653,2602.4832,N,07918.5737,W,1,10,1.8,11,M,,M,,*61
06/19/2015	03:06:53.579	$GPGGA,030654,2602.4814,N,07918.5728,W,1,10,1.8,11,M,,M,,*6C
06/19/2015	03:06:54.559	$GPGGA,030655,2602.4796,N,07918.5719,W,1,10,1.8,11,M,,M,,*6A
06/19/2015	03:06:55.578	$GPGGA,030656,2602.4778,N,07918.5710,W,1,10,1.8,11,M,,M,,*60
06/19/2015	03:06:56.558	$GPGGA,030657,2602.4761,N,07918.5701,W,1,10,1.8,11,M,,M,,*69
06/19/2015	03:06:57.578	$GPGGA,030658,2602.4744,N,07918.5692,W,1,10,1.8,11,M,,M,,*6A
06/19/2015	03:06:58.548	$GPGGA,030659,2602.4726,N,07918.5683,W,1,10,1.8,11,M,,M,,*6F
06/19/2015	03:07:00.068	$GPGGA,030700,2602.4709,N,07918.5675,W,1,10,1.8,11,M,,M,,*66
06/19/2015	03:07:00.540	$GPGGA,030701,2602.4692,N,07918.5666,W,1,10,1.8,11,M,,M,,*66
06/19/2015	03:07:01.545	$GPGGA,030702,2602.4674,N,07918.5657,W,1,10,1.8,11,M,,M,,*6F
06/19/2015	03:07:02.541	$GPGGA,030703,2602.4657,N,07918.5649,W,1,10,1.8,11,M,,M,,*60
06/19/2015	03:07:03.559	$GPGGA,030704,2602.4641,N,07918.5640,W,1,10,1.8,11,M,,M,,*69
06/19/2015	03:07:04.549	$GPGGA,030705,2602.4622,N,07918.5632,W,1,10,1.8,11,M,,M,,*68
06/19/2015	03:07:05.544	$GPGGA,030706,2602.4604,N,07918.5624,W,1,10,1.8,11,M,,M,,*68
06/19/2015	03:07:06.531	$GPGGA,030707,2602.4587,N,07918.5616,W,1,10,1.8,11,M,,M,,*60
06/19/2015	03:07:07.690	$GPGGA,030708,2602.4569,N,07918.5608,W,1,10,1.8,11,M,,M,,*60
06/19/2015	03:07:08.543	$GPGGA,030709,2602.4552,N,07918.5600,W,1,10,1.8,11,M,,M,,*61
06/19/2015	03:07:09.544	$GPGGA,030710,2602.4534,N,07918.5592,W,1,10,1.8,11,M,,M,,*61
06/19/2015	03:07:10.519	$GPGGA,030711,2602.4516,N,07918.5585,W,1,10,1.8,11,M,,M,,*66
06/19/2015	03:07:11.533	$GPGGA,030712,2602.4498,N,07918.5577,W,1,10,1.8,11,M,,M,,*6F
06/19/2015	03:07:12.679	$GPGGA,030713,2602.4480,N,07918.5569,W,1,10,1.8,11,M,,M,,*68
06/19/2015	03:07:13.678	$GPGGA,030714,2602.4462,N,07918.5562,W,1,10,1.8,11,M,,M,,*68
06/19/2015	03:07:14.668	$GPGGA,030715,2602.4444,N,07918.5554,W,1,10,1.8,11,M,,M,,*68
06/19/2015	03:07:15.518	$GPGGA,030716,2602.4426,N,07918.5547,W,1,10,1.8,11,M,,M,,*6D
06/19/2015	03:07:16.529	$GPGGA,030717,2602.4408,N,07918.5539,W,1,10,1.8,11,M,,M,,*69
06/19/2015	03:07:17.498	$GPGGA,030718,2602.4391,N,07918.5532,W,1,10,1.8,11,M,,M,,*6A
06/19/2015	03:07:18.598	$GPGGA,030719,2602.4373,N,07918.5525,W,1,10,1.8,11,M,,M,,*61
06/19/2015	03:07:19.678	$GPGGA,030720,2602.4355,N,07918.5517,W,1,10,1.8,11,M,,M,,*6E
06/19/2015	03:07:20.598	$GPGGA,030721,2602.4337,N,07918.5510,W,1,10,1.8,11,M,,M,,*6C
06/19/2015	03:07:21.589	$GPGGA,030722,2602.4320,N,07918.5502,W,1,10,1.8,11,M,,M,,*6A
06/19/2015	03:07:22.499	$GPGGA,030723,2602.4302,N,07918.5495,W,1,10,1.8,11,M,,M,,*64
06/19/2015	03:07:23.689	$GPGGA,030724,2602.4284,N,07918.5488,W,1,10,1.8,11,M,,M,,*60
06/19/2015	03:07:24.589	$GPGGA,030725,2602.4266,N,07918.5480,W,1,10,1.8,11,M,,M,,*65
06/19/2015	03:07:25.640	$GPGGA,030726,2602.4248,N,07918.5473,W,1,10,1.8,11,M,,M,,*66
06/19/2015	03:07:26.579	$GPGGA,030727,2602.4230,N,07918.5466,W,1,10,1.8,11,M,,M,,*6C
06/19/2015	03:07:27.679	$GPGGA,030728,2602.4213,N,07918.5458,W,1,10,1.8,11,M,,M,,*6F
06/19/2015	03:07:28.599	$GPGGA,030729,2602.4195,N,07918.5450,W,1,10,1.8,11,M,,M,,*6B
06/19/2015	03:07:29.619	$GPGGA,030730,2602.4178,N,07918.5442,W,1,10,1.8,11,M,,M,,*63
06/19/2015	03:07:30.648	$GPGGA,030731,2602.4160,N,07918.5434,W,1,10,1.8,11,M,,M,,*6A
06/19/2015	03:07:31.588	$GPGGA,030732,2602.4142,N,07918.5426,W,1,10,1.8,11,M,,M,,*6A
06/19/2015	03:07:32.658	$GPGGA,030733,2602.4124,N,07918.5418,W,1,10,1.8,11,M,,M,,*66
06/19/2015	03:07:33.658	$GPGGA,030734,2602.4106,N,07918.5411,W,1,10,1.8,11,M,,M,,*68
06/19/2015	03:07:34.648	$GPGGA,030735,2602.4088,N,07918.5403,W,1,10,1.8,11,M,,M,,*6D
06/19/2015	03:07:35.648	$GPGGA,030736,2602.4070,N,07918.5395,W,1,10,1.8,11,M,,M,,*61
06/19/2015	03:07:36.642	$GPGGA,030737,2602.4052,N,07918.5387,W,1,10,1.8,11,M,,M,,*63
06/19/2015	03:07:37.608	$GPGGA,030738,2602.4034,N,07918.5379,W,1,10,1.8,11,M,,M,,*6D
06/19/2015	03:07:38.559	$GPGGA,030739,2602.4016,N,07918.5371,W,1,10,1.8,11,M,,M,,*64
06/19/2015	03:07:39.649	$GPGGA,030740,2602.3999,N,07918.5363,W,1,10,1.8,11,M,,M,,*60
06/19/2015	03:07:40.559	$GPGGA,030741,2602.3981,N,07918.5355,W,1,10,1.8,11,M,,M,,*6D
06/19/2015	03:07:41.599	$GPGGA,030742,2602.3963,N,07918.5347,W,1,10,1.8,11,M,,M,,*61
06/19/2015	03:07:42.552	$GPGGA,030743,2602.3947,N,07918.5338,W,1,10,1.8,11,M,,M,,*6E
06/19/2015	03:07:43.659	$GPGGA,030744,2602.3929,N,07918.5329,W,1,10,1.8,11,M,,M,,*61
06/19/2015	03:07:44.549	$GPGGA,030745,2602.3911,N,07918.5321,W,1,10,1.8,11,M,,M,,*63
06/19/2015	03:07:45.599	$GPGGA,030746,2602.3893,N,07918.5313,W,1,10,1.8,11,M,,M,,*6A
06/19/2015	03:07:46.609	$GPGGA,030747,2602.3876,N,07918.5303,W,1,10,1.8,11,M,,M,,*61
06/19/2015	03:07:47.639	$GPGGA,030748,2602.3858,N,07918.5295,W,1,10,1.8,11,M,,M,,*6C
06/19/2015	03:07:48.618	$GPGGA,030749,2602.3842,N,07918.5287,W,1,10,1.8,11,M,,M,,*65
06/19/2015	03:07:49.568	$GPGGA,030750,2602.3824,N,07918.5278,W,1,10,1.8,11,M,,M,,*6D
06/19/2015	03:07:50.544	$GPGGA,030751,2602.3807,N,07918.5268,W,1,10,1.8,11,M,,M,,*6C
06/19/2015	03:07:51.544	$GPGGA,030752,2602.3790,N,07918.5260,W,1,10,1.8,11,M,,M,,*66
06/19/2015	03:07:52.608	$GPGGA,030753,2602.3773,N,07918.5252,W,1,10,1.8,11,M,,M,,*6B
06/19/2015	03:07:53.533	$GPGGA,030754,2602.3755,N,07918.5243,W,1,10,1.8,11,M,,M,,*68
06/19/2015	03:07:54.598	$GPGGA,030755,2602.3738,N,07918.5234,W,1,10,1.8,11,M,,M,,*62
06/19/2015	03:07:55.633	$GPGGA,030756,2602.3721,N,07918.5226,W,1,10,1.8,11,M,,M,,*6A
06/19/2015	03:07:56.589	$GPGGA,030757,2602.3703,N,07918.5217,W,1,10,1.8,11,M,,M,,*69
06/19/2015	03:07:57.519	$GPGGA,030758,2602.3687,N,07918.5209,W,1,10,1.8,11,M,,M,,*64
06/19/2015	03:07:58.589	$GPGGA,030759,2602.3669,N,07918.5200,W,1,10,1.8,11,M,,M,,*6C
06/19/2015	03:07:59.609	$GPGGA,030800,2602.3651,N,07918.5191,W,1,10,1.8,11,M,,M,,*6F
06/19/2015	03:08:00.520	$GPGGA,030801,2602.3634,N,07918.5183,W,1,10,1.8,11,M,,M,,*6E
06/19/2015	03:08:01.619	$GPGGA,030802,2602.3616,N,07918.5175,W,1,10,1.8,11,M,,M,,*64
06/19/2015	03:08:02.643	$GPGGA,030803,2602.3600,N,07918.5166,W,1,10,1.8,11,M,,M,,*60
06/19/2015	03:08:03.641	$GPGGA,030804,2602.3582,N,07918.5158,W,1,10,1.8,11,M,,M,,*63
06/19/2015	03:08:04.630	$GPGGA,030805,2602.3564,N,07918.5149,W,1,10,1.8,11,M,,M,,*6A
06/19/2015	03:08:05.639	$GPGGA,030806,2602.3546,N,07918.5141,W,1,10,1.8,11,M,,M,,*61
06/19/2015	03:08:06.568	$GPGGA,030807,2602.3528,N,07918.5132,W,1,10,1.8,11,M,,M,,*6C
06/19/2015	03:08:07.608	$GPGGA,030808,2602.3510,N,07918.5125,W,1,10,1.8,11,M,,M,,*6E
06/19/2015	03:08:08.568	$GPGGA,030809,2602.3492,N,07918.5116,W,1,10,1.8,11,M,,M,,*64
06/19/2015	03:08:09.588	$GPGGA,030810,2602.3474,N,07918.5108,W,1,10,1.8,11,M,,M,,*6B
06/19/2015	03:08:10.558	$GPGGA,030811,2602.3456,N,07918.5101,W,1,10,1.8,10,M,,M,,*62
06/19/2015	03:08:11.598	$GPGGA,030812,2602.3438,N,07918.5093,W,1,10,1.8,10,M,,M,,*63
06/19/2015	03:08:12.578	$GPGGA,030813,2602.3420,N,07918.5084,W,1,10,1.8,10,M,,M,,*6D
06/19/2015	03:08:13.578	$GPGGA,030814,2602.3402,N,07918.5077,W,1,10,1.8,10,M,,M,,*66
06/19/2015	03:08:14.558	$GPGGA,030815,2602.3384,N,07918.5069,W,1,10,1.8,10,M,,M,,*61
06/19/2015	03:08:15.599	$GPGGA,030816,2602.3366,N,07918.5061,W,1,10,1.8,10,M,,M,,*66
06/19/2015	03:08:16.578	$GPGGA,030817,2602.3348,N,07918.5053,W,1,10,1.8,10,M,,M,,*6A
06/19/2015	03:08:17.578	$GPGGA,030818,2602.3330,N,07918.5046,W,1,10,1.8,10,M,,M,,*6E
06/19/2015	03:08:18.588	$GPGGA,030819,2602.3312,N,07918.5038,W,1,10,1.8,10,M,,M,,*66
06/19/2015	03:08:19.588	$GPGGA,030820,2602.3294,N,07918.5030,W,1,10,1.8,10,M,,M,,*6B
06/19/2015	03:08:20.578	$GPGGA,030821,2602.3277,N,07918.5023,W,1,10,1.8,10,M,,M,,*65
06/19/2015	03:08:21.588	$GPGGA,030822,2602.3277,N,07918.5023,W,1,10,1.8,10,M,,M,,*66
06/19/2015	03:08:22.558	$GPGGA,030823,2602.3241,N,07918.5007,W,1,10,1.8,10,M,,M,,*64
06/19/2015	03:08:23.598	$GPGGA,030824,2602.3223,N,07918.5000,W,1,10,1.8,10,M,,M,,*60
06/19/2015	03:08:24.579	$GPGGA,030825,2602.3206,N,07918.4992,W,1,10,1.8,10,M,,M,,*65
06/19/2015	03:08:25.588	$GPGGA,030826,2602.3188,N,07918.4985,W,1,10,1.8,10,M,,M,,*65
06/19/2015	03:08:26.578	$GPGGA,030827,2602.3170,N,07918.4977,W,1,10,1.8,10,M,,M,,*6E
06/19/2015	03:08:27.588	$GPGGA,030828,2602.3152,N,07918.4970,W,1,10,1.8,10,M,,M,,*66
06/19/2015	03:08:28.558	$GPGGA,030829,2602.3152,N,07918.4970,W,1,10,1.8,10,M,,M,,*67
06/19/2015	03:08:29.568	$GPGGA,030830,2602.3116,N,07918.4954,W,1,10,1.8,10,M,,M,,*69
06/19/2015	03:08:30.568	$GPGGA,030831,2602.3098,N,07918.4946,W,1,10,1.8,10,M,,M,,*6C
06/19/2015	03:08:31.568	$GPGGA,030832,2602.3080,N,07918.4938,W,1,10,1.8,10,M,,M,,*6F
06/19/2015	03:08:32.558	$GPGGA,030833,2602.3063,N,07918.4930,W,1,10,1.8,10,M,,M,,*6B
06/19/2015	03:08:33.548	$GPGGA,030834,2602.3045,N,07918.4921,W,1,10,1.8,10,M,,M,,*68
06/19/2015	03:08:34.558	$GPGGA,030835,2602.3027,N,07918.4913,W,1,10,1.8,10,M,,M,,*6C
06/19/2015	03:08:35.608	$GPGGA,030836,2602.3010,N,07918.4905,W,1,10,1.8,10,M,,M,,*6C
06/19/2015	03:08:36.568	$GPGGA,030837,2602.2993,N,07918.4896,W,1,10,1.8,10,M,,M,,*65
06/19/2015	03:08:37.538	$GPGGA,030838,2602.2976,N,07918.4888,W,1,10,1.8,10,M,,M,,*6E
06/19/2015	03:08:38.578	$GPGGA,030839,2602.2957,N,07918.4880,W,1,10,1.8,10,M,,M,,*64
06/19/2015	03:08:39.568	$GPGGA,030840,2602.2939,N,07918.4872,W,1,10,1.9,10,M,,M,,*6E
06/19/2015	03:08:40.537	$GPGGA,030841,2602.2939,N,07918.4872,W,1,10,1.9,10,M,,M,,*6F
06/19/2015	03:08:41.558	$GPGGA,030842,2602.2904,N,07918.4856,W,1,10,1.8,10,M,,M,,*65
06/19/2015	03:08:42.538	$GPGGA,030843,2602.2904,N,07918.4856,W,1,10,1.8,10,M,,M,,*64
06/19/2015	03:08:43.578	$GPGGA,030844,2602.2869,N,07918.4839,W,1,10,1.8,10,M,,M,,*60
06/19/2015	03:08:44.638	$GPGGA,030845,2602.2852,N,07918.4831,W,1,10,1.8,10,M,,M,,*61
06/19/2015	03:08:45.648	$GPGGA,030846,2602.2835,N,07918.4823,W,1,10,1.8,10,M,,M,,*60
06/19/2015	03:08:46.532	$GPGGA,030847,2602.2835,N,07918.4823,W,1,10,1.8,10,M,,M,,*61
06/19/2015	03:08:47.658	$GPGGA,030848,2602.2802,N,07918.4805,W,1,10,1.8,10,M,,M,,*6E
06/19/2015	03:08:48.548	$GPGGA,030849,2602.2802,N,07918.4805,W,1,10,1.8,10,M,,M,,*6F
06/19/2015	03:08:49.548	$GPGGA,030850,2602.2767,N,07918.4788,W,1,10,1.8,10,M,,M,,*61
06/19/2015	03:08:50.540	$GPGGA,030851,2602.2767,N,07918.4788,W,1,10,1.8,10,M,,M,,*60
06/19/2015	03:08:51.648	$GPGGA,030852,2602.2733,N,07918.4771,W,1,10,1.8,10,M,,M,,*64
06/19/2015	03:08:52.528	$GPGGA,030853,2602.2733,N,07918.4771,W,1,10,1.8,10,M,,M,,*65
06/19/2015	03:08:53.508	$GPGGA,030854,2602.2698,N,07918.4753,W,1,10,1.8,11,M,,M,,*63
06/19/2015	03:08:54.528	$GPGGA,030855,2602.2698,N,07918.4753,W,1,10,1.8,11,M,,M,,*62
06/19/2015	03:08:55.626	$GPGGA,030856,2602.2664,N,07918.4736,W,1,10,1.8,11,M,,M,,*61
06/19/2015	03:08:56.538	$GPGGA,030857,2602.2664,N,07918.4736,W,1,10,1.8,11,M,,M,,*60
06/19/2015	03:08:57.629	$GPGGA,030858,2602.2629,N,07918.4718,W,1,10,1.8,11,M,,M,,*6A
06/19/2015	03:08:58.518	$GPGGA,030859,2602.2629,N,07918.4718,W,1,10,1.8,11,M,,M,,*6B
06/19/2015	03:08:59.648	$GPGGA,030900,2602.2596,N,07918.4700,W,1,10,1.8,11,M,,M,,*68
06/19/2015	03:09:00.598	$GPGGA,030901,2602.2578,N,07918.4691,W,1,10,1.8,11,M,,M,,*60
06/19/2015	03:09:01.598	$GPGGA,030902,2602.2560,N,07918.4683,W,1,10,1.8,11,M,,M,,*69
06/19/2015	03:09:02.598	$GPGGA,030903,2602.2543,N,07918.4674,W,1,10,1.8,11,M,,M,,*61
06/19/2015	03:09:03.588	$GPGGA,030904,2602.2525,N,07918.4665,W,1,10,1.8,11,M,,M,,*66
06/19/2015	03:09:04.588	$GPGGA,030905,2602.2509,N,07918.4657,W,1,10,1.8,11,M,,M,,*68
06/19/2015	03:09:05.618	$GPGGA,030906,2602.2491,N,07918.4649,W,1,10,1.8,11,M,,M,,*64
06/19/2015	03:09:06.588	$GPGGA,030907,2602.2473,N,07918.4640,W,1,10,1.8,11,M,,M,,*60
06/19/2015	03:09:07.598	$GPGGA,030908,2602.2455,N,07918.4632,W,1,10,1.8,11,M,,M,,*6E
06/19/2015	03:09:08.588	$GPGGA,030909,2602.2437,N,07918.4624,W,1,10,1.8,11,M,,M,,*6C
06/19/2015	03:09:09.588	$GPGGA,030910,2602.2420,N,07918.4615,W,1,10,1.8,11,M,,M,,*60
06/19/2015	03:09:10.568	$GPGGA,030911,2602.2403,N,07918.4607,W,1,10,1.8,11,M,,M,,*63
06/19/2015	03:09:11.608	$GPGGA,030912,2602.2385,N,07918.4599,W,1,10,1.8,11,M,,M,,*6D
06/19/2015	03:09:12.568	$GPGGA,030913,2602.2368,N,07918.4590,W,1,10,1.8,11,M,,M,,*66
06/19/2015	03:09:13.588	$GPGGA,030914,2602.2350,N,07918.4583,W,1,10,1.8,11,M,,M,,*68
06/19/2015	03:09:14.558	$GPGGA,030915,2602.2332,N,07918.4575,W,1,10,1.8,11,M,,M,,*64
06/19/2015	03:09:15.568	$GPGGA,030916,2602.2315,N,07918.4567,W,1,10,1.8,11,M,,M,,*61
06/19/2015	03:09:16.568	$GPGGA,030917,2602.2297,N,07918.4559,W,1,10,1.8,11,M,,M,,*66
06/19/2015	03:09:17.588	$GPGGA,030918,2602.2279,N,07918.4551,W,1,10,1.8,11,M,,M,,*61
06/19/2015	03:09:18.548	$GPGGA,030919,2602.2261,N,07918.4544,W,1,10,1.8,11,M,,M,,*6D
06/19/2015	03:09:19.578	$GPGGA,030920,2602.2243,N,07918.4536,W,1,10,1.8,11,M,,M,,*62
06/19/2015	03:09:20.548	$GPGGA,030921,2602.2226,N,07918.4528,W,1,10,1.8,11,M,,M,,*6F
06/19/2015	03:09:21.578	$GPGGA,030922,2602.2208,N,07918.4521,W,1,10,1.8,11,M,,M,,*69
06/19/2015	03:09:22.558	$GPGGA,030923,2602.2191,N,07918.4514,W,1,10,1.8,11,M,,M,,*6D
06/19/2015	03:09:23.578	$GPGGA,030924,2602.2173,N,07918.4506,W,1,10,1.8,11,M,,M,,*65
06/19/2015	03:09:24.558	$GPGGA,030925,2602.2155,N,07918.4499,W,1,10,1.8,11,M,,M,,*67
06/19/2015	03:09:25.568	$GPGGA,030926,2602.2137,N,07918.4491,W,1,10,1.8,11,M,,M,,*68
06/19/2015	03:09:26.538	$GPGGA,030927,2602.2119,N,07918.4484,W,1,10,1.8,11,M,,M,,*61
06/19/2015	03:09:27.578	$GPGGA,030928,2602.2101,N,07918.4477,W,1,10,1.8,11,M,,M,,*6B
06/19/2015	03:09:28.548	$GPGGA,030929,2602.2083,N,07918.4469,W,1,10,1.8,11,M,,M,,*6E
06/19/2015	03:09:29.532	$GPGGA,030930,2602.2065,N,07918.4461,W,1,10,1.8,11,M,,M,,*66
06/19/2015	03:09:30.538	$GPGGA,030931,2602.2047,N,07918.4454,W,1,10,1.8,12,M,,M,,*62
06/19/2015	03:09:31.568	$GPGGA,030932,2602.2030,N,07918.4446,W,1,10,1.8,12,M,,M,,*62
06/19/2015	03:09:32.534	$GPGGA,030933,2602.2012,N,07918.4439,W,1,10,1.8,12,M,,M,,*6B
06/19/2015	03:09:33.548	$GPGGA,030934,2602.1994,N,07918.4431,W,1,10,1.8,12,M,,M,,*60
06/19/2015	03:09:34.548	$GPGGA,030935,2602.1978,N,07918.4423,W,1,10,1.8,12,M,,M,,*60
06/19/2015	03:09:35.648	$GPGGA,030936,2602.1960,N,07918.4415,W,1,10,1.8,12,M,,M,,*6F
06/19/2015	03:09:36.638	$GPGGA,030937,2602.1942,N,07918.4407,W,1,10,1.8,12,M,,M,,*6D
06/19/2015	03:09:37.638	$GPGGA,030938,2602.1924,N,07918.4398,W,1,10,1.8,12,M,,M,,*63
06/19/2015	03:09:38.532	$GPGGA,030939,2602.1906,N,07918.4389,W,1,10,1.8,12,M,,M,,*62
06/19/2015	03:09:39.548	$GPGGA,030940,2602.1888,N,07918.4381,W,1,10,1.8,12,M,,M,,*63
06/19/2015	03:09:40.520	$GPGGA,030941,2602.1870,N,07918.4373,W,1,10,1.8,12,M,,M,,*68
06/19/2015	03:09:41.638	$GPGGA,030942,2602.1853,N,07918.4364,W,1,10,1.8,12,M,,M,,*6C
06/19/2015	03:09:42.519	$GPGGA,030943,2602.1835,N,07918.4355,W,1,10,1.8,12,M,,M,,*6F
06/19/2015	03:09:43.538	$GPGGA,030944,2602.1817,N,07918.4346,W,1,10,1.8,12,M,,M,,*6A
06/19/2015	03:09:44.524	$GPGGA,030945,2602.1801,N,07918.4337,W,1,10,1.8,12,M,,M,,*6A
06/19/2015	03:09:45.532	$GPGGA,030946,2602.1783,N,07918.4328,W,1,10,1.8,12,M,,M,,*62
06/19/2015	03:09:46.588	$GPGGA,030947,2602.1765,N,07918.4320,W,1,10,1.8,12,M,,M,,*63
06/19/2015	03:09:47.538	$GPGGA,030948,2602.1747,N,07918.4311,W,1,10,1.8,12,M,,M,,*6E
06/19/2015	03:09:48.518	$GPGGA,030949,2602.1729,N,07918.4302,W,1,10,1.8,12,M,,M,,*65
06/19/2015	03:09:50.607	$GPGGA,030950,2602.1712,N,07918.4294,W,1,10,1.8,12,M,,M,,*6B
06/19/2015	03:09:50.647	$GPGGA,030951,2602.1695,N,07918.4285,W,1,10,1.8,12,M,,M,,*64
06/19/2015	03:09:51.598	$GPGGA,030952,2602.1678,N,07918.4276,W,1,10,1.8,12,M,,M,,*68
06/19/2015	03:09:52.508	$GPGGA,030953,2602.1660,N,07918.4268,W,1,10,1.8,12,M,,M,,*6F
06/19/2015	03:09:53.634	$GPGGA,030954,2602.1642,N,07918.4259,W,1,10,1.8,12,M,,M,,*6A
06/19/2015	03:09:54.608	$GPGGA,030955,2602.1625,N,07918.4250,W,1,10,1.8,12,M,,M,,*63
06/19/2015	03:09:55.588	$GPGGA,030956,2602.1607,N,07918.4242,W,1,10,1.8,12,M,,M,,*63
06/19/2015	03:09:56.588	$GPGGA,030957,2602.1589,N,07918.4234,W,1,10,1.8,12,M,,M,,*66
06/19/2015	03:09:57.578	$GPGGA,030958,2602.1571,N,07918.4225,W,1,10,1.8,12,M,,M,,*6E
06/19/2015	03:09:58.578	$GPGGA,030959,2602.1554,N,07918.4217,W,1,10,1.8,12,M,,M,,*69
06/19/2015	03:09:59.638	$GPGGA,031000,2602.1536,N,07918.4209,W,1,10,1.8,12,M,,M,,*66
06/19/2015	03:10:00.588	$GPGGA,031001,2602.1518,N,07918.4201,W,1,10,1.8,12,M,,M,,*63
06/19/2015	03:10:01.568	$GPGGA,031002,2602.1501,N,07918.4193,W,1,10,1.8,12,M,,M,,*60
06/19/2015	03:10:02.568	$GPGGA,031003,2602.1483,N,07918.4184,W,1,10,1.8,12,M,,M,,*6C
06/19/2015	03:10:03.598	$GPGGA,031004,2602.1466,N,07918.4176,W,1,10,1.8,12,M,,M,,*6D
06/19/2015	03:10:04.568	$GPGGA,031005,2602.1447,N,07918.4168,W,1,10,1.8,12,M,,M,,*60
06/19/2015	03:10:05.578	$GPGGA,031006,2602.1429,N,07918.4160,W,1,9,1.9,12,M,,M,,*5A
06/19/2015	03:10:06.558	$GPGGA,031007,2602.1411,N,07918.4152,W,1,9,1.8,12,M,,M,,*50
06/19/2015	03:10:07.598	$GPGGA,031008,2602.1394,N,07918.4145,W,1,10,1.8,12,M,,M,,*6B
06/19/2015	03:10:08.568	$GPGGA,031009,2602.1376,N,07918.4137,W,1,10,1.8,12,M,,M,,*63
06/19/2015	03:10:09.568	$GPGGA,031010,2602.1358,N,07918.4129,W,1,10,1.8,12,M,,M,,*68
06/19/2015	03:10:10.568	$GPGGA,031011,2602.1340,N,07918.4122,W,1,10,1.8,13,M,,M,,*6A
06/19/2015	03:10:11.568	$GPGGA,031012,2602.1322,N,07918.4113,W,1,10,1.8,13,M,,M,,*6F
06/19/2015	03:10:12.558	$GPGGA,031013,2602.1306,N,07918.4105,W,1,10,1.8,13,M,,M,,*6F
06/19/2015	03:10:13.558	$GPGGA,031014,2602.1288,N,07918.4099,W,1,10,1.8,13,M,,M,,*6B
06/19/2015	03:10:14.558	$GPGGA,031015,2602.1270,N,07918.4091,W,1,10,1.8,13,M,,M,,*65
06/19/2015	03:10:15.588	$GPGGA,031016,2602.1252,N,07918.4083,W,1,10,1.8,13,M,,M,,*65
06/19/2015	03:10:16.538	$GPGGA,031017,2602.1234,N,07918.4075,W,1,10,1.8,13,M,,M,,*6D
06/19/2015	03:10:17.588	$GPGGA,031018,2602.1216,N,07918.4067,W,1,10,1.8,13,M,,M,,*61
06/19/2015	03:10:18.548	$GPGGA,031019,2602.1198,N,07918.4060,W,1,10,1.8,13,M,,M,,*62
06/19/2015	03:10:19.578	$GPGGA,031020,2602.1180,N,07918.4052,W,1,10,1.8,13,M,,M,,*60
06/19/2015	03:10:20.548	$GPGGA,031021,2602.1162,N,07918.4045,W,1,10,1.8,13,M,,M,,*6B
06/19/2015	03:10:21.530	$GPGGA,031022,2602.1144,N,07918.4037,W,1,10,1.8,13,M,,M,,*69
06/19/2015	03:10:22.530	$GPGGA,031023,2602.1126,N,07918.4030,W,1,10,1.8,13,M,,M,,*6B
06/19/2015	03:10:23.548	$GPGGA,031024,2602.1108,N,07918.4022,W,1,10,1.8,13,M,,M,,*63
06/19/2015	03:10:25.029	$GPGGA,031025,2602.1090,N,07918.4014,W,1,10,1.8,13,M,,M,,*67
06/19/2015	03:10:25.537	$GPGGA,031026,2602.1072,N,07918.4007,W,1,10,1.8,13,M,,M,,*6A
06/19/2015	03:10:26.520	$GPGGA,031027,2602.1054,N,07918.3999,W,1,10,1.8,13,M,,M,,*66
06/19/2015	03:10:27.548	$GPGGA,031028,2602.1036,N,07918.3991,W,1,10,1.8,13,M,,M,,*65
06/19/2015	03:10:28.530	$GPGGA,031029,2602.1018,N,07918.3983,W,1,10,1.8,13,M,,M,,*6B
06/19/2015	03:10:29.538	$GPGGA,031030,2602.1000,N,07918.3975,W,1,10,1.8,13,M,,M,,*63
06/19/2015	03:10:30.518	$GPGGA,031031,2602.0982,N,07918.3967,W,1,10,1.8,13,M,,M,,*63
06/19/2015	03:10:31.621	$GPGGA,031032,2602.0964,N,07918.3960,W,1,10,1.8,13,M,,M,,*6F
06/19/2015	03:10:32.608	$GPGGA,031033,2602.0946,N,07918.3951,W,1,10,1.8,13,M,,M,,*6C
06/19/2015	03:10:33.498	$GPGGA,031034,2602.0928,N,07918.3943,W,1,10,1.8,14,M,,M,,*67
06/19/2015	03:10:34.518	$GPGGA,031035,2602.0911,N,07918.3935,W,1,10,1.7,14,M,,M,,*62
06/19/2015	03:10:35.620	$GPGGA,031036,2602.0892,N,07918.3928,W,1,10,1.7,14,M,,M,,*67
06/19/2015	03:10:36.508	$GPGGA,031037,2602.0874,N,07918.3919,W,1,10,1.7,14,M,,M,,*6C
06/19/2015	03:10:37.498	$GPGGA,031038,2602.0856,N,07918.3912,W,1,10,1.7,14,M,,M,,*68
06/19/2015	03:10:38.508	$GPGGA,031039,2602.0838,N,07918.3903,W,1,10,1.7,14,M,,M,,*61
06/19/2015	03:10:39.519	$GPGGA,031040,2602.0820,N,07918.3895,W,1,10,1.7,14,M,,M,,*68
06/19/2015	03:10:40.598	$GPGGA,031041,2602.0802,N,07918.3886,W,1,10,1.7,14,M,,M,,*6B
06/19/2015	03:10:41.631	$GPGGA,031042,2602.0784,N,07918.3878,W,1,10,1.7,14,M,,M,,*68
06/19/2015	03:10:42.508	$GPGGA,031043,2602.0766,N,07918.3870,W,1,10,1.7,14,M,,M,,*6D
06/19/2015	03:10:43.638	$GPGGA,031044,2602.0748,N,07918.3861,W,1,10,1.7,14,M,,M,,*66
06/19/2015	03:10:44.588	$GPGGA,031045,2602.0730,N,07918.3852,W,1,10,1.7,14,M,,M,,*68
06/19/2015	03:10:45.618	$GPGGA,031046,2602.0714,N,07918.3843,W,1,10,1.7,14,M,,M,,*6D
06/19/2015	03:10:46.578	$GPGGA,031047,2602.0695,N,07918.3834,W,1,10,1.7,14,M,,M,,*64
06/19/2015	03:10:47.619	$GPGGA,031048,2602.0677,N,07918.3825,W,1,10,1.7,14,M,,M,,*67
06/19/2015	03:10:48.578	$GPGGA,031049,2602.0659,N,07918.3816,W,1,10,1.7,14,M,,M,,*6A
06/19/2015	03:10:49.568	$GPGGA,031050,2602.0641,N,07918.3807,W,1,10,1.7,14,M,,M,,*6B
06/19/2015	03:10:50.578	$GPGGA,031051,2602.0624,N,07918.3798,W,1,10,1.7,14,M,,M,,*60
06/19/2015	03:10:51.598	$GPGGA,031052,2602.0606,N,07918.3789,W,1,10,1.7,14,M,,M,,*63
06/19/2015	03:10:52.578	$GPGGA,031053,2602.0588,N,07918.3780,W,1,10,1.7,14,M,,M,,*6E
06/19/2015	03:10:53.568	$GPGGA,031054,2602.0570,N,07918.3771,W,1,10,1.7,14,M,,M,,*60
06/19/2015	03:10:55.068	$GPGGA,031055,2602.0553,N,07918.3762,W,1,10,1.7,14,M,,M,,*62
06/19/2015	03:10:55.588	$GPGGA,031056,2602.0535,N,07918.3753,W,1,10,1.7,14,M,,M,,*63
06/19/2015	03:10:56.568	$GPGGA,031057,2602.0517,N,07918.3745,W,1,10,1.7,14,M,,M,,*65
06/19/2015	03:10:57.558	$GPGGA,031058,2602.0499,N,07918.3736,W,1,10,1.7,14,M,,M,,*69
06/19/2015	03:10:58.568	$GPGGA,031059,2602.0481,N,07918.3727,W,1,10,1.7,14,M,,M,,*61
06/19/2015	03:10:59.648	$GPGGA,031100,2602.0463,N,07918.3719,W,1,10,1.7,14,M,,M,,*6D
06/19/2015	03:11:00.557	$GPGGA,031101,2602.0445,N,07918.3710,W,1,10,1.7,14,M,,M,,*61
06/19/2015	03:11:01.568	$GPGGA,031102,2602.0428,N,07918.3702,W,1,10,1.7,14,M,,M,,*6A
06/19/2015	03:11:02.558	$GPGGA,031103,2602.0410,N,07918.3693,W,1,10,1.7,14,M,,M,,*69
06/19/2015	03:11:03.588	$GPGGA,031104,2602.0392,N,07918.3685,W,1,10,1.7,14,M,,M,,*64
06/19/2015	03:11:04.548	$GPGGA,031105,2602.0374,N,07918.3677,W,1,10,1.7,14,M,,M,,*60
06/19/2015	03:11:05.578	$GPGGA,031106,2602.0356,N,07918.3669,W,1,10,1.7,14,M,,M,,*6C
06/19/2015	03:11:06.548	$GPGGA,031107,2602.0338,N,07918.3660,W,1,10,1.7,14,M,,M,,*6C
06/19/2015	03:11:07.558	$GPGGA,031108,2602.0320,N,07918.3653,W,1,10,1.7,14,M,,M,,*6A
06/19/2015	03:11:08.548	$GPGGA,031109,2602.0303,N,07918.3645,W,1,10,1.7,14,M,,M,,*6D
06/19/2015	03:11:09.538	$GPGGA,031110,2602.0285,N,07918.3636,W,1,10,1.7,14,M,,M,,*6E
06/19/2015	03:11:10.538	$GPGGA,031111,2602.0266,N,07918.3629,W,1,10,1.7,14,M,,M,,*6C
06/19/2015	03:11:11.538	$GPGGA,031112,2602.0248,N,07918.3621,W,1,10,1.7,14,M,,M,,*6B
06/19/2015	03:11:12.519	$GPGGA,031113,2602.0230,N,07918.3613,W,1,10,1.9,14,M,,M,,*6A
06/19/2015	03:11:13.520	$GPGGA,031114,2602.0212,N,07918.3605,W,1,10,1.7,14,M,,M,,*64
06/19/2015	03:11:14.648	$GPGGA,031115,2602.0194,N,07918.3598,W,1,10,1.7,14,M,,M,,*6F
06/19/2015	03:11:15.568	$GPGGA,031116,2602.0176,N,07918.3592,W,1,10,1.7,14,M,,M,,*6A
06/19/2015	03:11:16.621	$GPGGA,031117,2602.0158,N,07918.3584,W,1,10,1.7,14,M,,M,,*60
06/19/2015	03:11:18.568	$GPGGA,031119,2602.0122,N,07918.3570,W,1,10,1.7,14,M,,M,,*68
06/19/2015	03:11:19.619	$GPGGA,031120,2602.0104,N,07918.3562,W,1,10,1.7,14,M,,M,,*65
06/19/2015	03:11:20.529	$GPGGA,031121,2602.0086,N,07918.3554,W,1,10,1.7,14,M,,M,,*6A
06/19/2015	03:11:21.520	$GPGGA,031122,2602.0067,N,07918.3547,W,1,10,1.7,14,M,,M,,*64
06/19/2015	03:11:22.608	$GPGGA,031123,2602.0049,N,07918.3539,W,1,10,1.7,14,M,,M,,*60
06/19/2015	03:11:23.533	$GPGGA,031124,2602.0031,N,07918.3531,W,1,10,1.7,14,M,,M,,*60
06/19/2015	03:11:24.508	$GPGGA,031125,2602.0013,N,07918.3523,W,1,10,1.9,14,M,,M,,*6C
06/19/2015	03:11:25.528	$GPGGA,031126,2601.9995,N,07918.3515,W,1,9,1.9,14,M,,M,,*5F
06/19/2015	03:11:26.520	$GPGGA,031127,2601.9977,N,07918.3507,W,1,9,1.7,14,M,,M,,*5F
06/19/2015	03:11:27.508	$GPGGA,031128,2601.9959,N,07918.3500,W,1,10,1.7,14,M,,M,,*63
06/19/2015	03:11:28.488	$GPGGA,031129,2601.9941,N,07918.3491,W,1,10,1.7,14,M,,M,,*62
06/19/2015	03:11:29.630	$GPGGA,031130,2601.9923,N,07918.3484,W,1,9,1.9,14,M,,M,,*5C
06/19/2015	03:11:30.588	$GPGGA,031131,2601.9905,N,07918.3476,W,1,9,1.7,14,M,,M,,*5A
06/19/2015	03:11:31.522	$GPGGA,031132,2601.9887,N,07918.3469,W,1,10,1.7,14,M,,M,,*64
06/19/2015	03:11:32.598	$GPGGA,031133,2601.9869,N,07918.3461,W,1,10,1.7,14,M,,M,,*6D
06/19/2015	03:11:33.625	$GPGGA,031134,2601.9851,N,07918.3453,W,1,10,1.7,14,M,,M,,*60
06/19/2015	03:11:34.588	$GPGGA,031135,2601.9833,N,07918.3445,W,1,10,1.7,14,M,,M,,*62
06/19/2015	03:11:35.607	$GPGGA,031136,2601.9815,N,07918.3436,W,1,10,1.7,14,M,,M,,*61
06/19/2015	03:11:36.588	$GPGGA,031137,2601.9797,N,07918.3428,W,1,10,1.7,14,M,,M,,*6A
06/19/2015	03:11:37.598	$GPGGA,031138,2601.9779,N,07918.3420,W,1,10,1.7,14,M,,M,,*6D
06/19/2015	03:11:38.568	$GPGGA,031139,2601.9761,N,07918.3411,W,1,10,1.7,14,M,,M,,*67
06/19/2015	03:11:39.626	$GPGGA,031140,2601.9743,N,07918.3403,W,1,10,1.7,14,M,,M,,*6A
06/19/2015	03:11:40.578	$GPGGA,031141,2601.9725,N,07918.3395,W,1,10,1.7,14,M,,M,,*63
06/19/2015	03:11:41.588	$GPGGA,031142,2601.9708,N,07918.3386,W,1,10,1.7,14,M,,M,,*6D
06/19/2015	03:11:42.578	$GPGGA,031143,2601.9691,N,07918.3377,W,1,10,1.7,14,M,,M,,*63
06/19/2015	03:11:43.588	$GPGGA,031144,2601.9673,N,07918.3369,W,1,10,1.7,14,M,,M,,*67
06/19/2015	03:11:44.578	$GPGGA,031145,2601.9655,N,07918.3360,W,1,10,1.7,14,M,,M,,*6B
06/19/2015	03:11:45.578	$GPGGA,031146,2601.9637,N,07918.3351,W,1,10,1.7,14,M,,M,,*6E
06/19/2015	03:11:46.568	$GPGGA,031147,2601.9619,N,07918.3343,W,1,10,1.7,14,M,,M,,*60
