Software Version Number: 1	Data File Format Number: 1	Build Version Number: 1	Error Count Since VI Started: 3	Manufacturer: Raytheon	 Model Number: RayMarine 120	 S/N: 	 Cal Date: 	 Wind Direction Offset: 0.00	 Slope (M)1: 0.00	 Offset (B)1: 0.00	 Slope (M)2: 0.00	 Offset (B)2: 0.00	 Slope (M)3: 0.00	 Offset (B)3: 0.00	 Slope (M)4: 0.00	 Offset (B)4: 0.00	 Slope (M)5: 0.00	 Offset (B)5: 0.00	 Slope (M)6: 0.00	 Offset (B)6: 0.00
Computer Date	Computer Time	GGA String
06/25/2015	08:00:00.525	$GPGGA,080001,2519.3045,N,07952.9395,W,1,10,2.1,12,M,,M,,*6A
06/25/2015	08:00:01.535	$GPGGA,080002,2519.3038,N,07952.9395,W,1,9,2.1,12,M,,M,,*5B
06/25/2015	08:00:02.525	$GPGGA,080003,2519.3031,N,07952.9387,W,1,9,1.5,12,M,,M,,*57
06/25/2015	08:00:03.565	$GPGGA,080004,2519.3024,N,07952.9384,W,1,10,1.5,12,M,,M,,*6F
06/25/2015	08:00:04.515	$GPGGA,080005,2519.3017,N,07952.9380,W,1,10,1.5,12,M,,M,,*6A
06/25/2015	08:00:05.555	$GPGGA,080006,2519.3010,N,07952.9377,W,1,10,1.5,12,M,,M,,*66
06/25/2015	08:00:06.515	$GPGGA,080007,2519.3004,N,07952.9374,W,1,10,1.5,12,M,,M,,*61
06/25/2015	08:00:07.535	$GPGGA,080008,2519.2997,N,07952.9370,W,1,9,2.1,12,M,,M,,*57
06/25/2015	08:00:08.516	$GPGGA,080009,2519.2988,N,07952.9366,W,1,9,1.5,12,M,,M,,*58
06/25/2015	08:00:09.525	$GPGGA,080010,2519.2981,N,07952.9362,W,1,10,1.5,12,M,,M,,*65
06/25/2015	08:00:10.505	$GPGGA,080011,2519.2975,N,07952.9358,W,1,10,1.5,12,M,,M,,*66
06/25/2015	08:00:11.555	$GPGGA,080012,2519.2968,N,07952.9355,W,1,10,1.5,12,M,,M,,*64
06/25/2015	08:00:12.525	$GPGGA,080013,2519.2959,N,07952.9353,W,1,10,1.5,12,M,,M,,*61
06/25/2015	08:00:13.535	$GPGGA,080014,2519.2952,N,07952.9350,W,1,10,1.5,12,M,,M,,*6E
06/25/2015	08:00:14.505	$GPGGA,080015,2519.2945,N,07952.9347,W,1,10,1.5,13,M,,M,,*6E
06/25/2015	08:00:15.555	$GPGGA,080016,2519.2937,N,07952.9345,W,1,9,1.6,13,M,,M,,*51
06/25/2015	08:00:16.825	$GPGGA,080017,2519.2930,N,07952.9343,W,1,9,1.6,13,M,,M,,*51
06/25/2015	08:00:17.505	$GPGGA,080018,2519.2922,N,07952.9339,W,1,9,1.6,13,M,,M,,*50
06/25/2015	08:00:18.595	$GPGGA,080019,2519.2916,N,07952.9335,W,1,9,1.6,13,M,,M,,*5A
06/25/2015	08:00:19.715	$GPGGA,080020,2519.2908,N,07952.9332,W,1,10,1.5,13,M,,M,,*63
06/25/2015	08:00:20.555	$GPGGA,080021,2519.2901,N,07952.9329,W,1,10,1.5,13,M,,M,,*61
06/25/2015	08:00:21.585	$GPGGA,080022,2519.2896,N,07952.9325,W,1,10,1.5,13,M,,M,,*61
06/25/2015	08:00:22.585	$GPGGA,080023,2519.2887,N,07952.9321,W,1,10,1.5,13,M,,M,,*64
06/25/2015	08:00:23.707	$GPGGA,080024,2519.2880,N,07952.9318,W,1,10,1.5,13,M,,M,,*6E
06/25/2015	08:00:24.615	$GPGGA,080025,2519.2874,N,07952.9314,W,1,10,1.5,13,M,,M,,*68
06/25/2015	08:00:25.666	$GPGGA,080026,2519.2867,N,07952.9310,W,1,10,1.5,13,M,,M,,*6D
06/25/2015	08:00:26.606	$GPGGA,080027,2519.2860,N,07952.9307,W,1,10,1.5,13,M,,M,,*6D
06/25/2015	08:00:27.698	$GPGGA,080028,2519.2853,N,07952.9303,W,1,10,1.5,13,M,,M,,*66
06/25/2015	08:00:28.575	$GPGGA,080029,2519.2847,N,07952.9298,W,1,10,1.5,13,M,,M,,*61
06/25/2015	08:00:29.675	$GPGGA,080030,2519.2840,N,07952.9295,W,1,10,1.5,13,M,,M,,*63
06/25/2015	08:00:30.566	$GPGGA,080031,2519.2832,N,07952.9292,W,1,10,1.5,13,M,,M,,*60
06/25/2015	08:00:31.675	$GPGGA,080032,2519.2825,N,07952.9286,W,1,9,1.5,13,M,,M,,*58
06/25/2015	08:00:32.606	$GPGGA,080033,2519.2818,N,07952.9283,W,1,9,1.5,13,M,,M,,*52
06/25/2015	08:00:33.565	$GPGGA,080034,2519.2811,N,07952.9281,W,1,10,1.5,13,M,,M,,*66
06/25/2015	08:00:34.599	$GPGGA,080035,2519.2803,N,07952.9275,W,1,10,1.5,13,M,,M,,*6F
06/25/2015	08:00:35.575	$GPGGA,080036,2519.2798,N,07952.9270,W,1,10,1.5,13,M,,M,,*64
06/25/2015	08:00:36.565	$GPGGA,080037,2519.2791,N,07952.9269,W,1,10,1.5,13,M,,M,,*64
06/25/2015	08:00:37.615	$GPGGA,080038,2519.2784,N,07952.9264,W,1,10,1.5,13,M,,M,,*62
06/25/2015	08:00:38.585	$GPGGA,080039,2519.2778,N,07952.9259,W,1,10,1.5,13,M,,M,,*6E
06/25/2015	08:00:39.675	$GPGGA,080040,2519.2771,N,07952.9256,W,1,10,1.5,13,M,,M,,*66
06/25/2015	08:00:40.595	$GPGGA,080041,2519.2764,N,07952.9254,W,1,10,1.5,13,M,,M,,*61
06/25/2015	08:00:41.615	$GPGGA,080042,2519.2758,N,07952.9249,W,1,10,1.5,13,M,,M,,*61
06/25/2015	08:00:42.545	$GPGGA,080043,2519.2751,N,07952.9246,W,1,10,1.5,13,M,,M,,*66
06/25/2015	08:00:43.676	$GPGGA,080044,2519.2744,N,07952.9243,W,1,10,1.5,13,M,,M,,*60
06/25/2015	08:00:44.565	$GPGGA,080045,2519.2737,N,07952.9239,W,1,10,1.5,13,M,,M,,*68
06/25/2015	08:00:45.535	$GPGGA,080046,2519.2729,N,07952.9235,W,1,9,1.6,13,M,,M,,*53
06/25/2015	08:00:46.585	$GPGGA,080047,2519.2722,N,07952.9232,W,1,9,1.6,13,M,,M,,*5E
06/25/2015	08:00:47.665	$GPGGA,080048,2519.2715,N,07952.9229,W,1,9,1.6,13,M,,M,,*5F
06/25/2015	08:00:48.535	$GPGGA,080049,2519.2708,N,07952.9226,W,1,9,1.6,13,M,,M,,*5D
06/25/2015	08:00:49.655	$GPGGA,080050,2519.2701,N,07952.9222,W,1,9,1.5,13,M,,M,,*5B
06/25/2015	08:00:50.565	$GPGGA,080051,2519.2694,N,07952.9218,W,1,9,1.5,13,M,,M,,*5E
06/25/2015	08:00:51.625	$GPGGA,080052,2519.2688,N,07952.9216,W,1,10,1.5,13,M,,M,,*66
06/25/2015	08:00:52.525	$GPGGA,080053,2519.2680,N,07952.9213,W,1,10,1.5,13,M,,M,,*6A
06/25/2015	08:00:53.635	$GPGGA,080054,2519.2674,N,07952.9209,W,1,9,1.6,13,M,,M,,*56
06/25/2015	08:00:54.515	$GPGGA,080055,2519.2668,N,07952.9205,W,1,9,1.5,13,M,,M,,*55
06/25/2015	08:00:55.655	$GPGGA,080056,2519.2661,N,07952.9202,W,1,10,1.5,13,M,,M,,*60
06/25/2015	08:00:56.555	$GPGGA,080057,2519.2655,N,07952.9199,W,1,10,1.5,13,M,,M,,*67
06/25/2015	08:00:57.635	$GPGGA,080058,2519.2648,N,07952.9196,W,1,10,1.5,13,M,,M,,*6B
06/25/2015	08:00:58.610	$GPGGA,080059,2519.2640,N,07952.9192,W,1,10,1.5,13,M,,M,,*66
06/25/2015	08:00:59.655	$GPGGA,080100,2519.2634,N,07952.9190,W,1,10,1.5,13,M,,M,,*6A
06/25/2015	08:01:00.556	$GPGGA,080101,2519.2627,N,07952.9187,W,1,10,2.1,13,M,,M,,*68
06/25/2015	08:01:01.498	$GPGGA,080102,2519.2619,N,07952.9185,W,1,9,2.1,13,M,,M,,*5C
06/25/2015	08:01:02.605	$GPGGA,080103,2519.2614,N,07952.9182,W,1,9,1.5,13,M,,M,,*50
06/25/2015	08:01:03.606	$GPGGA,080104,2519.2607,N,07952.9180,W,1,10,1.5,12,M,,M,,*6E
06/25/2015	08:01:04.555	$GPGGA,080105,2519.2598,N,07952.9175,W,1,10,1.5,12,M,,M,,*60
06/25/2015	08:01:05.615	$GPGGA,080106,2519.2592,N,07952.9172,W,1,10,1.5,12,M,,M,,*6E
06/25/2015	08:01:06.535	$GPGGA,080107,2519.2583,N,07952.9170,W,1,10,1.5,12,M,,M,,*6D
06/25/2015	08:01:07.507	$GPGGA,080108,2519.2576,N,07952.9166,W,1,10,1.5,12,M,,M,,*6F
06/25/2015	08:01:08.535	$GPGGA,080109,2519.2569,N,07952.9162,W,1,10,1.5,12,M,,M,,*64
06/25/2015	08:01:09.585	$GPGGA,080110,2519.2562,N,07952.9160,W,1,10,1.5,12,M,,M,,*65
06/25/2015	08:01:10.585	$GPGGA,080111,2519.2556,N,07952.9157,W,1,10,1.5,12,M,,M,,*67
06/25/2015	08:01:11.645	$GPGGA,080112,2519.2547,N,07952.9152,W,1,10,1.5,12,M,,M,,*61
06/25/2015	08:01:12.585	$GPGGA,080113,2519.2542,N,07952.9149,W,1,10,1.5,12,M,,M,,*6F
06/25/2015	08:01:13.635	$GPGGA,080114,2519.2533,N,07952.9147,W,1,10,1.5,12,M,,M,,*60
06/25/2015	08:01:14.585	$GPGGA,080115,2519.2527,N,07952.9143,W,1,10,1.5,12,M,,M,,*60
06/25/2015	08:01:15.595	$GPGGA,080116,2519.2520,N,07952.9140,W,1,10,1.5,12,M,,M,,*67
06/25/2015	08:01:16.585	$GPGGA,080117,2519.2511,N,07952.9138,W,1,10,1.6,12,M,,M,,*68
06/25/2015	08:01:17.606	$GPGGA,080118,2519.2504,N,07952.9134,W,1,9,1.5,12,M,,M,,*54
06/25/2015	08:01:18.566	$GPGGA,080119,2519.2498,N,07952.9131,W,1,9,1.5,12,M,,M,,*54
06/25/2015	08:01:19.605	$GPGGA,080120,2519.2491,N,07952.9128,W,1,10,1.6,12,M,,M,,*64
06/25/2015	08:01:20.575	$GPGGA,080121,2519.2486,N,07952.9124,W,1,10,1.5,13,M,,M,,*6D
06/25/2015	08:01:21.607	$GPGGA,080122,2519.2480,N,07952.9121,W,1,10,1.5,13,M,,M,,*6D
06/25/2015	08:01:22.565	$GPGGA,080123,2519.2473,N,07952.9119,W,1,10,1.6,13,M,,M,,*68
06/25/2015	08:01:23.585	$GPGGA,080124,2519.2463,N,07952.9113,W,1,9,1.5,13,M,,M,,*5F
06/25/2015	08:01:24.565	$GPGGA,080125,2519.2455,N,07952.9110,W,1,9,1.5,13,M,,M,,*58
06/25/2015	08:01:25.565	$GPGGA,080126,2519.2448,N,07952.9107,W,1,10,1.5,13,M,,M,,*69
06/25/2015	08:01:26.565	$GPGGA,080127,2519.2448,N,07952.9107,W,1,10,1.5,13,M,,M,,*68
06/25/2015	08:01:28.585	$GPGGA,080129,2519.2427,N,07952.9096,W,1,10,1.6,13,M,,M,,*65
06/25/2015	08:01:29.605	$GPGGA,080130,2519.2420,N,07952.9091,W,1,9,1.5,13,M,,M,,*56
06/25/2015	08:01:30.555	$GPGGA,080131,2519.2412,N,07952.9087,W,1,9,1.6,13,M,,M,,*52
06/25/2015	08:01:31.595	$GPGGA,080132,2519.2405,N,07952.9083,W,1,9,1.5,13,M,,M,,*50
06/25/2015	08:01:32.545	$GPGGA,080133,2519.2399,N,07952.9080,W,1,9,1.5,13,M,,M,,*50
06/25/2015	08:01:33.596	$GPGGA,080134,2519.2392,N,07952.9077,W,1,10,1.5,13,M,,M,,*6C
06/25/2015	08:01:34.545	$GPGGA,080135,2519.2384,N,07952.9072,W,1,10,1.6,13,M,,M,,*6C
06/25/2015	08:01:35.586	$GPGGA,080136,2519.2377,N,07952.9068,W,1,9,1.5,13,M,,M,,*53
06/25/2015	08:01:36.546	$GPGGA,080137,2519.2370,N,07952.9066,W,1,9,1.5,13,M,,M,,*5B
06/25/2015	08:01:37.556	$GPGGA,080138,2519.2370,N,07952.9066,W,1,10,1.5,13,M,,M,,*6C
06/25/2015	08:01:38.545	$GPGGA,080139,2519.2355,N,07952.9058,W,1,10,1.6,13,M,,M,,*64
06/25/2015	08:01:39.575	$GPGGA,080140,2519.2355,N,07952.9058,W,1,9,1.6,13,M,,M,,*52
06/25/2015	08:01:40.525	$GPGGA,080141,2519.2340,N,07952.9051,W,1,9,1.6,13,M,,M,,*5E
06/25/2015	08:01:41.575	$GPGGA,080142,2519.2332,N,07952.9046,W,1,9,1.5,12,M,,M,,*5C
06/25/2015	08:01:42.535	$GPGGA,080143,2519.2332,N,07952.9046,W,1,9,1.5,12,M,,M,,*5D
06/25/2015	08:01:43.595	$GPGGA,080144,2519.2319,N,07952.9040,W,1,10,1.6,12,M,,M,,*6E
06/25/2015	08:01:44.545	$GPGGA,080145,2519.2311,N,07952.9036,W,1,10,1.6,12,M,,M,,*66
06/25/2015	08:01:45.615	$GPGGA,080146,2519.2311,N,07952.9036,W,1,9,1.6,12,M,,M,,*5D
06/25/2015	08:01:46.525	$GPGGA,080147,2519.2299,N,07952.9030,W,1,9,1.5,12,M,,M,,*58
06/25/2015	08:01:47.655	$GPGGA,080148,2519.2292,N,07952.9026,W,1,10,1.5,12,M,,M,,*63
06/25/2015	08:01:48.525	$GPGGA,080149,2519.2285,N,07952.9023,W,1,10,1.5,12,M,,M,,*61
06/25/2015	08:01:49.625	$GPGGA,080150,2519.2278,N,07952.9020,W,1,10,1.5,12,M,,M,,*68
06/25/2015	08:01:50.525	$GPGGA,080151,2519.2271,N,07952.9018,W,1,10,1.5,12,M,,M,,*6B
06/25/2015	08:01:51.645	$GPGGA,080152,2519.2264,N,07952.9013,W,1,10,1.5,12,M,,M,,*67
06/25/2015	08:01:52.525	$GPGGA,080153,2519.2257,N,07952.9011,W,1,10,1.5,12,M,,M,,*64
06/25/2015	08:01:53.626	$GPGGA,080154,2519.2250,N,07952.9009,W,1,10,1.5,12,M,,M,,*6D
06/25/2015	08:01:54.514	$GPGGA,080155,2519.2243,N,07952.9005,W,1,10,1.5,12,M,,M,,*62
06/25/2015	08:01:55.535	$GPGGA,080156,2519.2243,N,07952.9005,W,1,10,1.5,12,M,,M,,*61
06/25/2015	08:01:56.515	$GPGGA,080157,2519.2228,N,07952.9000,W,1,10,1.5,12,M,,M,,*68
06/25/2015	08:01:57.535	$GPGGA,080158,2519.2228,N,07952.9000,W,1,10,1.5,12,M,,M,,*67
06/25/2015	08:01:58.516	$GPGGA,080159,2519.2215,N,07952.8993,W,1,10,1.5,12,M,,M,,*6A
06/25/2015	08:01:59.655	$GPGGA,080200,2519.2207,N,07952.8990,W,1,10,1.5,12,M,,M,,*65
06/25/2015	08:02:00.585	$GPGGA,080201,2519.2200,N,07952.8987,W,1,10,1.5,12,M,,M,,*65
06/25/2015	08:02:01.585	$GPGGA,080202,2519.2193,N,07952.8985,W,1,10,1.5,12,M,,M,,*6D
06/25/2015	08:02:02.585	$GPGGA,080203,2519.2188,N,07952.8980,W,1,10,1.5,12,M,,M,,*63
06/25/2015	08:02:03.585	$GPGGA,080204,2519.2180,N,07952.8977,W,1,10,1.5,12,M,,M,,*64
06/25/2015	08:02:04.585	$GPGGA,080205,2519.2173,N,07952.8975,W,1,10,1.5,12,M,,M,,*6B
06/25/2015	08:02:05.575	$GPGGA,080206,2519.2166,N,07952.8972,W,1,10,1.5,12,M,,M,,*6B
06/25/2015	08:02:06.575	$GPGGA,080207,2519.2159,N,07952.8967,W,1,10,1.5,12,M,,M,,*62
06/25/2015	08:02:07.597	$GPGGA,080208,2519.2151,N,07952.8965,W,1,10,1.5,12,M,,M,,*67
06/25/2015	08:02:08.585	$GPGGA,080209,2519.2144,N,07952.8962,W,1,10,1.5,12,M,,M,,*65
06/25/2015	08:02:09.565	$GPGGA,080210,2519.2137,N,07952.8959,W,1,10,1.5,12,M,,M,,*61
06/25/2015	08:02:10.576	$GPGGA,080211,2519.2131,N,07952.8955,W,1,10,1.5,12,M,,M,,*6A
06/25/2015	08:02:11.600	$GPGGA,080212,2519.2124,N,07952.8953,W,1,10,1.5,12,M,,M,,*6B
06/25/2015	08:02:12.553	$GPGGA,080213,2519.2117,N,07952.8950,W,1,10,1.5,12,M,,M,,*69
06/25/2015	08:02:13.583	$GPGGA,080214,2519.2109,N,07952.8946,W,1,10,1.5,12,M,,M,,*66
06/25/2015	08:02:14.553	$GPGGA,080215,2519.2101,N,07952.8943,W,1,10,1.6,12,M,,M,,*69
06/25/2015	08:02:15.586	$GPGGA,080216,2519.2094,N,07952.8941,W,1,9,1.6,12,M,,M,,*5D
06/25/2015	08:02:16.544	$GPGGA,080217,2519.2088,N,07952.8938,W,1,9,1.6,11,M,,M,,*5C
06/25/2015	08:02:17.573	$GPGGA,080218,2519.2083,N,07952.8933,W,1,10,1.5,11,M,,M,,*68
06/25/2015	08:02:18.543	$GPGGA,080219,2519.2076,N,07952.8932,W,1,10,1.5,11,M,,M,,*62
06/25/2015	08:02:19.573	$GPGGA,080220,2519.2076,N,07952.8932,W,1,10,1.5,11,M,,M,,*68
06/25/2015	08:02:20.533	$GPGGA,080221,2519.2062,N,07952.8924,W,1,10,1.5,11,M,,M,,*6B
06/25/2015	08:02:21.563	$GPGGA,080222,2519.2055,N,07952.8922,W,1,10,1.5,11,M,,M,,*6A
06/25/2015	08:02:22.554	$GPGGA,080223,2519.2049,N,07952.8919,W,1,10,1.5,11,M,,M,,*6E
06/25/2015	08:02:23.585	$GPGGA,080224,2519.2041,N,07952.8915,W,1,10,1.5,11,M,,M,,*6D
06/25/2015	08:02:24.523	$GPGGA,080225,2519.2036,N,07952.8911,W,1,10,1.5,11,M,,M,,*68
06/25/2015	08:02:25.523	$GPGGA,080226,2519.2027,N,07952.8909,W,1,10,1.5,11,M,,M,,*62
06/25/2015	08:02:26.533	$GPGGA,080227,2519.2019,N,07952.8906,W,1,10,1.6,11,M,,M,,*62
06/25/2015	08:02:27.563	$GPGGA,080228,2519.2012,N,07952.8901,W,1,9,1.6,11,M,,M,,*59
06/25/2015	08:02:28.534	$GPGGA,080229,2519.2004,N,07952.8897,W,1,9,1.6,11,M,,M,,*51
06/25/2015	08:02:29.543	$GPGGA,080230,2519.1998,N,07952.8895,W,1,10,1.5,11,M,,M,,*6F
06/25/2015	08:02:30.523	$GPGGA,080231,2519.1991,N,07952.8891,W,1,10,1.5,11,M,,M,,*63
06/25/2015	08:02:31.563	$GPGGA,080232,2519.1982,N,07952.8887,W,1,9,1.6,10,M,,M,,*5F
06/25/2015	08:02:32.523	$GPGGA,080233,2519.1974,N,07952.8884,W,1,9,1.6,10,M,,M,,*54
06/25/2015	08:02:33.523	$GPGGA,080234,2519.1971,N,07952.8881,W,1,9,1.6,10,M,,M,,*53
06/25/2015	08:02:34.598	$GPGGA,080235,2519.1964,N,07952.8876,W,1,9,1.5,10,M,,M,,*5D
06/25/2015	08:02:35.533	$GPGGA,080236,2519.1957,N,07952.8873,W,1,10,1.5,10,M,,M,,*63
06/25/2015	08:02:36.513	$GPGGA,080237,2519.1953,N,07952.8871,W,1,10,1.5,10,M,,M,,*64
06/25/2015	08:02:37.543	$GPGGA,080238,2519.1945,N,07952.8866,W,1,10,1.5,10,M,,M,,*6A
06/25/2015	08:02:38.503	$GPGGA,080239,2519.1938,N,07952.8863,W,1,10,1.5,10,M,,M,,*64
06/25/2015	08:02:39.503	$GPGGA,080240,2519.1932,N,07952.8861,W,1,10,1.5,10,M,,M,,*62
06/25/2015	08:02:40.598	$GPGGA,080241,2519.1925,N,07952.8857,W,1,10,1.5,10,M,,M,,*60
06/25/2015	08:02:41.513	$GPGGA,080242,2519.1917,N,07952.8853,W,1,10,1.5,10,M,,M,,*66
06/25/2015	08:02:42.495	$GPGGA,080243,2519.1911,N,07952.8850,W,1,10,1.6,10,M,,M,,*61
06/25/2015	08:02:43.523	$GPGGA,080244,2519.1904,N,07952.8847,W,1,10,1.5,10,M,,M,,*67
06/25/2015	08:02:44.497	$GPGGA,080245,2519.1896,N,07952.8844,W,1,10,1.5,10,M,,M,,*6F
06/25/2015	08:02:45.504	$GPGGA,080246,2519.1889,N,07952.8841,W,1,10,1.5,10,M,,M,,*67
06/25/2015	08:02:46.486	$GPGGA,080247,2519.1882,N,07952.8837,W,1,10,1.5,10,M,,M,,*6C
06/25/2015	08:02:47.503	$GPGGA,080248,2519.1875,N,07952.8835,W,1,10,1.5,10,M,,M,,*69
06/25/2015	08:02:48.583	$GPGGA,080249,2519.1868,N,07952.8832,W,1,10,1.5,10,M,,M,,*63
06/25/2015	08:02:49.593	$GPGGA,080250,2519.1861,N,07952.8828,W,1,10,1.5,10,M,,M,,*69
06/25/2015	08:02:50.585	$GPGGA,080251,2519.1855,N,07952.8825,W,1,10,1.5,10,M,,M,,*62
06/25/2015	08:02:51.583	$GPGGA,080252,2519.1848,N,07952.8821,W,1,10,1.5,9,M,,M,,*51
06/25/2015	08:02:52.573	$GPGGA,080253,2519.1841,N,07952.8819,W,1,10,1.5,9,M,,M,,*52
06/25/2015	08:02:53.563	$GPGGA,080254,2519.1832,N,07952.8816,W,1,10,1.5,9,M,,M,,*5E
06/25/2015	08:02:54.563	$GPGGA,080255,2519.1825,N,07952.8812,W,1,10,1.5,9,M,,M,,*5D
06/25/2015	08:02:55.573	$GPGGA,080256,2519.1819,N,07952.8809,W,1,10,1.5,9,M,,M,,*5B
06/25/2015	08:02:56.573	$GPGGA,080257,2519.1812,N,07952.8806,W,1,10,1.5,9,M,,M,,*5E
06/25/2015	08:02:57.563	$GPGGA,080258,2519.1805,N,07952.8803,W,1,10,1.5,9,M,,M,,*52
06/25/2015	08:02:58.563	$GPGGA,080259,2519.1797,N,07952.8799,W,1,10,1.5,9,M,,M,,*5B
06/25/2015	08:02:59.593	$GPGGA,080300,2519.1790,N,07952.8796,W,1,10,1.5,9,M,,M,,*5E
06/25/2015	08:03:00.543	$GPGGA,080301,2519.1783,N,07952.8794,W,1,10,1.5,9,M,,M,,*5F
06/25/2015	08:03:01.563	$GPGGA,080302,2519.1776,N,07952.8790,W,1,10,1.5,9,M,,M,,*52
06/25/2015	08:03:02.553	$GPGGA,080303,2519.1770,N,07952.8786,W,1,10,1.5,9,M,,M,,*52
06/25/2015	08:03:03.574	$GPGGA,080304,2519.1762,N,07952.8783,W,1,10,1.5,9,M,,M,,*53
06/25/2015	08:03:04.553	$GPGGA,080305,2519.1755,N,07952.8782,W,1,10,1.5,9,M,,M,,*57
06/25/2015	08:03:05.543	$GPGGA,080306,2519.1748,N,07952.8777,W,1,10,1.5,9,M,,M,,*52
06/25/2015	08:03:06.553	$GPGGA,080307,2519.1740,N,07952.8773,W,1,10,1.5,9,M,,M,,*5F
06/25/2015	08:03:07.564	$GPGGA,080308,2519.1734,N,07952.8771,W,1,10,1.5,9,M,,M,,*51
06/25/2015	08:03:08.543	$GPGGA,080309,2519.1727,N,07952.8768,W,1,10,1.5,9,M,,M,,*5A
06/25/2015	08:03:09.573	$GPGGA,080310,2519.1720,N,07952.8763,W,1,10,1.5,9,M,,M,,*5E
06/25/2015	08:03:10.543	$GPGGA,080311,2519.1714,N,07952.8761,W,1,10,1.5,9,M,,M,,*5A
06/25/2015	08:03:11.563	$GPGGA,080312,2519.1707,N,07952.8758,W,1,10,1.5,9,M,,M,,*51
06/25/2015	08:03:12.533	$GPGGA,080313,2519.1700,N,07952.8754,W,1,10,1.5,9,M,,M,,*5B
06/25/2015	08:03:13.523	$GPGGA,080314,2519.1694,N,07952.8750,W,1,10,1.5,9,M,,M,,*54
06/25/2015	08:03:14.533	$GPGGA,080315,2519.1686,N,07952.8747,W,1,10,1.5,8,M,,M,,*51
06/25/2015	08:03:15.563	$GPGGA,080316,2519.1679,N,07952.8744,W,1,10,1.5,8,M,,M,,*51
06/25/2015	08:03:16.523	$GPGGA,080317,2519.1673,N,07952.8741,W,1,10,1.5,8,M,,M,,*5F
06/25/2015	08:03:17.553	$GPGGA,080318,2519.1665,N,07952.8738,W,1,10,1.5,8,M,,M,,*59
06/25/2015	08:03:18.523	$GPGGA,080319,2519.1660,N,07952.8735,W,1,10,1.5,8,M,,M,,*50
06/25/2015	08:03:19.553	$GPGGA,080320,2519.1653,N,07952.8732,W,1,10,1.5,8,M,,M,,*5D
06/25/2015	08:03:20.524	$GPGGA,080321,2519.1646,N,07952.8729,W,1,10,1.5,8,M,,M,,*52
06/25/2015	08:03:21.534	$GPGGA,080322,2519.1640,N,07952.8726,W,1,10,1.5,8,M,,M,,*58
06/25/2015	08:03:22.773	$GPGGA,080323,2519.1632,N,07952.8722,W,1,10,1.5,8,M,,M,,*58
06/25/2015	08:03:23.553	$GPGGA,080324,2519.1625,N,07952.8719,W,1,10,1.5,8,M,,M,,*51
06/25/2015	08:03:24.523	$GPGGA,080325,2519.1618,N,07952.8717,W,1,10,1.5,8,M,,M,,*50
06/25/2015	08:03:25.543	$GPGGA,080326,2519.1611,N,07952.8713,W,1,10,1.5,8,M,,M,,*5E
06/25/2015	08:03:26.503	$GPGGA,080327,2519.1604,N,07952.8709,W,1,10,1.5,8,M,,M,,*50
06/25/2015	08:03:27.523	$GPGGA,080328,2519.1599,N,07952.8708,W,1,10,1.5,8,M,,M,,*59
06/25/2015	08:03:28.493	$GPGGA,080329,2519.1591,N,07952.8704,W,1,10,1.5,8,M,,M,,*5C
06/25/2015	08:03:29.503	$GPGGA,080330,2519.1584,N,07952.8699,W,1,10,1.5,8,M,,M,,*55
06/25/2015	08:03:30.485	$GPGGA,080331,2519.1578,N,07952.8696,W,1,10,1.5,8,M,,M,,*58
06/25/2015	08:03:31.513	$GPGGA,080332,2519.1570,N,07952.8695,W,1,10,1.5,8,M,,M,,*50
06/25/2015	08:03:32.603	$GPGGA,080333,2519.1563,N,07952.8690,W,1,10,1.5,8,M,,M,,*56
06/25/2015	08:03:33.503	$GPGGA,080334,2519.1557,N,07952.8686,W,1,10,1.5,8,M,,M,,*51
06/25/2015	08:03:34.585	$GPGGA,080335,2519.1550,N,07952.8683,W,1,10,1.5,8,M,,M,,*52
06/25/2015	08:03:35.513	$GPGGA,080336,2519.1543,N,07952.8679,W,1,10,1.5,8,M,,M,,*56
06/25/2015	08:03:37.053	$GPGGA,080337,2519.1537,N,07952.8675,W,1,10,1.5,8,M,,M,,*58
06/25/2015	08:03:37.486	$GPGGA,080338,2519.1530,N,07952.8671,W,1,10,1.5,8,M,,M,,*54
06/25/2015	08:03:38.574	$GPGGA,080339,2519.1523,N,07952.8668,W,1,10,1.5,8,M,,M,,*5F
06/25/2015	08:03:39.603	$GPGGA,080340,2519.1516,N,07952.8664,W,1,10,1.5,8,M,,M,,*5B
06/25/2015	08:03:40.493	$GPGGA,080341,2519.1508,N,07952.8660,W,1,10,1.6,8,M,,M,,*52
06/25/2015	08:03:41.593	$GPGGA,080342,2519.1501,N,07952.8656,W,1,9,1.6,8,M,,M,,*65
06/25/2015	08:03:42.573	$GPGGA,080343,2519.1495,N,07952.8653,W,1,9,1.6,8,M,,M,,*6D
06/25/2015	08:03:43.583	$GPGGA,080344,2519.1489,N,07952.8650,W,1,10,1.5,8,M,,M,,*5F
06/25/2015	08:03:44.573	$GPGGA,080345,2519.1483,N,07952.8645,W,1,10,1.5,8,M,,M,,*50
06/25/2015	08:03:45.623	$GPGGA,080346,2519.1477,N,07952.8641,W,1,10,1.5,8,M,,M,,*5C
06/25/2015	08:03:46.563	$GPGGA,080347,2519.1471,N,07952.8640,W,1,10,1.5,8,M,,M,,*5A
06/25/2015	08:03:47.584	$GPGGA,080348,2519.1465,N,07952.8636,W,1,10,1.5,8,M,,M,,*51
06/25/2015	08:03:48.563	$GPGGA,080349,2519.1458,N,07952.8631,W,1,10,1.5,9,M,,M,,*58
06/25/2015	08:03:49.553	$GPGGA,080350,2519.1451,N,07952.8629,W,1,10,1.5,9,M,,M,,*50
06/25/2015	08:03:50.553	$GPGGA,080351,2519.1444,N,07952.8626,W,1,10,1.5,9,M,,M,,*5A
06/25/2015	08:03:51.583	$GPGGA,080352,2519.1437,N,07952.8621,W,1,10,1.5,9,M,,M,,*5A
06/25/2015	08:03:52.543	$GPGGA,080353,2519.1430,N,07952.8618,W,1,10,1.5,9,M,,M,,*56
06/25/2015	08:03:53.563	$GPGGA,080354,2519.1423,N,07952.8616,W,1,10,1.5,9,M,,M,,*5D
06/25/2015	08:03:54.563	$GPGGA,080355,2519.1418,N,07952.8612,W,1,10,1.5,9,M,,M,,*50
06/25/2015	08:03:55.574	$GPGGA,080356,2519.1411,N,07952.8607,W,1,10,1.5,9,M,,M,,*5E
06/25/2015	08:03:56.534	$GPGGA,080357,2519.1404,N,07952.8603,W,1,10,2.1,9,M,,M,,*58
06/25/2015	08:03:57.573	$GPGGA,080358,2519.1398,N,07952.8599,W,1,10,1.5,9,M,,M,,*52
06/25/2015	08:03:58.553	$GPGGA,080359,2519.1391,N,07952.8595,W,1,10,1.4,9,M,,M,,*57
06/25/2015	08:03:59.583	$GPGGA,080400,2519.1385,N,07952.8593,W,1,10,1.4,9,M,,M,,*5F
06/25/2015	08:04:00.523	$GPGGA,080401,2519.1378,N,07952.8590,W,1,10,1.4,9,M,,M,,*5F
06/25/2015	08:04:01.523	$GPGGA,080402,2519.1371,N,07952.8585,W,1,10,1.4,9,M,,M,,*51
06/25/2015	08:04:02.533	$GPGGA,080403,2519.1365,N,07952.8583,W,1,10,1.4,10,M,,M,,*6B
06/25/2015	08:04:03.584	$GPGGA,080404,2519.1359,N,07952.8579,W,1,10,1.4,10,M,,M,,*66
06/25/2015	08:04:04.523	$GPGGA,080405,2519.1351,N,07952.8574,W,1,10,1.4,10,M,,M,,*62
06/25/2015	08:04:05.533	$GPGGA,080406,2519.1346,N,07952.8573,W,1,10,1.4,10,M,,M,,*60
06/25/2015	08:04:06.523	$GPGGA,080407,2519.1339,N,07952.8570,W,1,10,1.4,10,M,,M,,*6A
06/25/2015	08:04:07.563	$GPGGA,080408,2519.1331,N,07952.8565,W,1,10,1.4,10,M,,M,,*69
06/25/2015	08:04:08.533	$GPGGA,080409,2519.1325,N,07952.8563,W,1,10,1.4,10,M,,M,,*6B
06/25/2015	08:04:09.513	$GPGGA,080410,2519.1318,N,07952.8561,W,1,10,1.4,10,M,,M,,*6F
06/25/2015	08:04:10.613	$GPGGA,080411,2519.1311,N,07952.8556,W,1,10,1.4,10,M,,M,,*63
06/25/2015	08:04:11.633	$GPGGA,080412,2519.1304,N,07952.8553,W,1,10,1.4,10,M,,M,,*61
06/25/2015	08:04:12.513	$GPGGA,080413,2519.1297,N,07952.8551,W,1,10,1.4,10,M,,M,,*69
06/25/2015	08:04:13.614	$GPGGA,080414,2519.1292,N,07952.8548,W,1,10,1.4,10,M,,M,,*63
06/25/2015	08:04:14.603	$GPGGA,080415,2519.1283,N,07952.8544,W,1,10,1.4,10,M,,M,,*6E
06/25/2015	08:04:15.513	$GPGGA,080416,2519.1277,N,07952.8541,W,1,10,1.4,10,M,,M,,*63
06/25/2015	08:04:16.593	$GPGGA,080417,2519.1270,N,07952.8538,W,1,10,1.4,10,M,,M,,*6B
06/25/2015	08:04:17.623	$GPGGA,080418,2519.1263,N,07952.8534,W,1,10,1.4,10,M,,M,,*6A
06/25/2015	08:04:18.598	$GPGGA,080419,2519.1256,N,07952.8531,W,1,10,1.4,10,M,,M,,*68
06/25/2015	08:04:19.603	$GPGGA,080420,2519.1249,N,07952.8528,W,1,10,1.4,10,M,,M,,*64
06/25/2015	08:04:20.504	$GPGGA,080421,2519.1243,N,07952.8524,W,1,10,1.4,10,M,,M,,*63
06/25/2015	08:04:21.487	$GPGGA,080422,2519.1236,N,07952.8521,W,1,10,1.4,10,M,,M,,*67
06/25/2015	08:04:22.613	$GPGGA,080423,2519.1230,N,07952.8519,W,1,10,1.4,10,M,,M,,*6B
06/25/2015	08:04:23.613	$GPGGA,080424,2519.1221,N,07952.8513,W,1,10,1.4,10,M,,M,,*66
06/25/2015	08:04:24.595	$GPGGA,080425,2519.1213,N,07952.8508,W,1,10,1.7,10,M,,M,,*6F
06/25/2015	08:04:25.584	$GPGGA,080426,2519.1205,N,07952.8506,W,1,10,1.4,10,M,,M,,*66
06/25/2015	08:04:26.584	$GPGGA,080427,2519.1198,N,07952.8502,W,1,10,1.4,10,M,,M,,*64
06/25/2015	08:04:27.587	$GPGGA,080428,2519.1191,N,07952.8497,W,1,9,1.4,10,M,,M,,*57
06/25/2015	08:04:28.573	$GPGGA,080429,2519.1185,N,07952.8495,W,1,9,1.4,10,M,,M,,*51
06/25/2015	08:04:29.583	$GPGGA,080430,2519.1180,N,07952.8494,W,1,10,1.4,10,M,,M,,*65
06/25/2015	08:04:30.574	$GPGGA,080431,2519.1172,N,07952.8489,W,1,10,1.4,11,M,,M,,*64
06/25/2015	08:04:31.633	$GPGGA,080432,2519.1165,N,07952.8485,W,1,10,1.4,11,M,,M,,*6D
06/25/2015	08:04:32.563	$GPGGA,080433,2519.1158,N,07952.8483,W,1,10,1.4,11,M,,M,,*64
06/25/2015	08:04:33.586	$GPGGA,080434,2519.1151,N,07952.8480,W,1,10,1.4,11,M,,M,,*69
06/25/2015	08:04:34.573	$GPGGA,080435,2519.1143,N,07952.8476,W,1,10,1.7,11,M,,M,,*61
06/25/2015	08:04:35.598	$GPGGA,080436,2519.1136,N,07952.8472,W,1,10,1.4,11,M,,M,,*67
06/25/2015	08:04:36.554	$GPGGA,080437,2519.1129,N,07952.8469,W,1,10,1.7,11,M,,M,,*61
06/25/2015	08:04:37.585	$GPGGA,080438,2519.1122,N,07952.8464,W,1,10,1.4,11,M,,M,,*6B
06/25/2015	08:04:38.553	$GPGGA,080439,2519.1113,N,07952.8459,W,1,10,1.4,11,M,,M,,*66
06/25/2015	08:04:39.597	$GPGGA,080440,2519.1105,N,07952.8456,W,1,10,1.4,11,M,,M,,*60
06/25/2015	08:04:40.553	$GPGGA,080441,2519.1100,N,07952.8453,W,1,10,1.4,12,M,,M,,*62
06/25/2015	08:04:41.585	$GPGGA,080442,2519.1091,N,07952.8448,W,1,10,1.4,12,M,,M,,*62
06/25/2015	08:04:42.553	$GPGGA,080443,2519.1084,N,07952.8446,W,1,10,1.7,12,M,,M,,*6A
06/25/2015	08:04:43.598	$GPGGA,080444,2519.1078,N,07952.8444,W,1,9,1.4,12,M,,M,,*57
06/25/2015	08:04:44.533	$GPGGA,080445,2519.1070,N,07952.8440,W,1,9,1.4,12,M,,M,,*5A
06/25/2015	08:04:45.573	$GPGGA,080446,2519.1062,N,07952.8436,W,1,10,1.4,12,M,,M,,*63
06/25/2015	08:04:46.533	$GPGGA,080447,2519.1057,N,07952.8434,W,1,10,1.7,12,M,,M,,*65
06/25/2015	08:04:47.563	$GPGGA,080448,2519.1049,N,07952.8430,W,1,11,1.4,12,M,,M,,*63
06/25/2015	08:04:48.534	$GPGGA,080449,2519.1042,N,07952.8428,W,1,11,1.4,12,M,,M,,*60
06/25/2015	08:04:49.543	$GPGGA,080450,2519.1036,N,07952.8423,W,1,10,1.7,12,M,,M,,*62
06/25/2015	08:04:50.533	$GPGGA,080451,2519.1029,N,07952.8419,W,1,10,1.4,12,M,,M,,*67
06/25/2015	08:04:51.563	$GPGGA,080452,2519.1022,N,07952.8418,W,1,11,1.4,12,M,,M,,*6F
06/25/2015	08:04:52.533	$GPGGA,080453,2519.1017,N,07952.8415,W,1,11,1.4,12,M,,M,,*65
06/25/2015	08:04:53.523	$GPGGA,080454,2519.1010,N,07952.8411,W,1,10,1.4,12,M,,M,,*60
06/25/2015	08:04:54.633	$GPGGA,080455,2519.1003,N,07952.8409,W,1,10,1.4,12,M,,M,,*6A
06/25/2015	08:04:55.533	$GPGGA,080456,2519.0995,N,07952.8407,W,1,10,1.4,12,M,,M,,*60
06/25/2015	08:04:56.513	$GPGGA,080457,2519.0988,N,07952.8403,W,1,10,1.4,12,M,,M,,*69
06/25/2015	08:04:57.523	$GPGGA,080458,2519.0982,N,07952.8398,W,1,11,1.4,12,M,,M,,*68
06/25/2015	08:04:58.513	$GPGGA,080459,2519.0974,N,07952.8396,W,1,11,1.4,12,M,,M,,*6E
06/25/2015	08:04:59.573	$GPGGA,080500,2519.0967,N,07952.8394,W,1,11,1.4,12,M,,M,,*63
06/25/2015	08:05:00.523	$GPGGA,080501,2519.0961,N,07952.8388,W,1,11,1.4,12,M,,M,,*69
06/25/2015	08:05:01.633	$GPGGA,080502,2519.0954,N,07952.8385,W,1,11,1.4,12,M,,M,,*61
06/25/2015	08:05:02.523	$GPGGA,080503,2519.0946,N,07952.8383,W,1,11,1.4,12,M,,M,,*65
06/25/2015	08:05:03.543	$GPGGA,080504,2519.0941,N,07952.8377,W,1,11,1.4,12,M,,M,,*6E
06/25/2015	08:05:04.613	$GPGGA,080505,2519.0934,N,07952.8374,W,1,11,1.7,12,M,,M,,*6D
06/25/2015	08:05:05.502	$GPGGA,080506,2519.0925,N,07952.8371,W,1,10,1.7,12,M,,M,,*6A
06/25/2015	08:05:06.613	$GPGGA,080507,2519.0919,N,07952.8367,W,1,10,1.7,13,M,,M,,*62
06/25/2015	08:05:07.673	$GPGGA,080508,2519.0912,N,07952.8363,W,1,10,1.7,13,M,,M,,*62
06/25/2015	08:05:08.595	$GPGGA,080509,2519.0905,N,07952.8358,W,1,10,1.4,13,M,,M,,*6E
06/25/2015	08:05:09.603	$GPGGA,080510,2519.0898,N,07952.8355,W,1,11,1.4,13,M,,M,,*6F
06/25/2015	08:05:10.507	$GPGGA,080511,2519.0891,N,07952.8351,W,1,11,1.4,13,M,,M,,*63
06/25/2015	08:05:11.623	$GPGGA,080512,2519.0885,N,07952.8346,W,1,10,1.4,13,M,,M,,*62
06/25/2015	08:05:12.583	$GPGGA,080513,2519.0878,N,07952.8344,W,1,10,1.7,13,M,,M,,*60
06/25/2015	08:05:13.603	$GPGGA,080514,2519.0871,N,07952.8342,W,1,10,1.4,13,M,,M,,*6B
06/25/2015	08:05:14.595	$GPGGA,080515,2519.0864,N,07952.8338,W,1,10,1.4,13,M,,M,,*63
06/25/2015	08:05:15.673	$GPGGA,080516,2519.0858,N,07952.8334,W,1,11,1.4,13,M,,M,,*62
06/25/2015	08:05:16.593	$GPGGA,080517,2519.0851,N,07952.8332,W,1,11,1.4,13,M,,M,,*6C
06/25/2015	08:05:17.901	$GPGGA,080518,2519.0844,N,07952.8328,W,1,11,1.7,13,M,,M,,*6F
06/25/2015	08:05:18.573	$GPGGA,080519,2519.0837,N,07952.8324,W,1,11,1.4,13,M,,M,,*65
06/25/2015	08:05:19.603	$GPGGA,080520,2519.0829,N,07952.8319,W,1,11,1.4,13,M,,M,,*6E
06/25/2015	08:05:20.573	$GPGGA,080521,2519.0822,N,07952.8314,W,1,11,1.4,13,M,,M,,*69
06/25/2015	08:05:21.563	$GPGGA,080522,2519.0815,N,07952.8309,W,1,11,1.4,13,M,,M,,*62
06/25/2015	08:05:22.573	$GPGGA,080523,2519.0806,N,07952.8306,W,1,11,1.7,13,M,,M,,*6D
06/25/2015	08:05:23.624	$GPGGA,080524,2519.0800,N,07952.8302,W,1,10,1.7,13,M,,M,,*69
06/25/2015	08:05:25.596	$GPGGA,080526,2519.0786,N,07952.8297,W,1,11,1.4,14,M,,M,,*62
06/25/2015	08:05:26.564	$GPGGA,080527,2519.0779,N,07952.8293,W,1,11,1.4,14,M,,M,,*67
06/25/2015	08:05:27.623	$GPGGA,080528,2519.0773,N,07952.8289,W,1,11,1.4,14,M,,M,,*69
06/25/2015	08:05:28.585	$GPGGA,080529,2519.0765,N,07952.8286,W,1,11,1.4,14,M,,M,,*60
06/25/2015	08:05:29.573	$GPGGA,080530,2519.0758,N,07952.8283,W,1,11,1.4,14,M,,M,,*63
06/25/2015	08:05:30.553	$GPGGA,080531,2519.0752,N,07952.8279,W,1,11,1.4,14,M,,M,,*6D
06/25/2015	08:05:31.553	$GPGGA,080532,2519.0744,N,07952.8276,W,1,11,1.4,14,M,,M,,*66
06/25/2015	08:05:32.553	$GPGGA,080533,2519.0737,N,07952.8272,W,1,11,1.4,14,M,,M,,*67
06/25/2015	08:05:33.583	$GPGGA,080534,2519.0730,N,07952.8269,W,1,11,1.4,14,M,,M,,*6D
06/25/2015	08:05:34.533	$GPGGA,080535,2519.0723,N,07952.8266,W,1,11,1.4,14,M,,M,,*61
06/25/2015	08:05:35.594	$GPGGA,080536,2519.0717,N,07952.8262,W,1,11,1.4,14,M,,M,,*61
06/25/2015	08:05:36.543	$GPGGA,080537,2519.0710,N,07952.8258,W,1,11,1.4,14,M,,M,,*6E
06/25/2015	08:05:37.564	$GPGGA,080538,2519.0703,N,07952.8259,W,1,11,1.4,14,M,,M,,*62
06/25/2015	08:05:38.543	$GPGGA,080539,2519.0695,N,07952.8253,W,1,11,1.4,14,M,,M,,*67
06/25/2015	08:05:39.573	$GPGGA,080540,2519.0688,N,07952.8249,W,1,11,1.4,14,M,,M,,*6E
06/25/2015	08:05:40.534	$GPGGA,080541,2519.0681,N,07952.8249,W,1,11,1.4,14,M,,M,,*66
06/25/2015	08:05:41.563	$GPGGA,080542,2519.0674,N,07952.8246,W,1,11,1.4,14,M,,M,,*60
06/25/2015	08:05:42.533	$GPGGA,080543,2519.0667,N,07952.8242,W,1,11,1.4,14,M,,M,,*67
06/25/2015	08:05:43.603	$GPGGA,080544,2519.0660,N,07952.8241,W,1,11,1.4,14,M,,M,,*64
06/25/2015	08:05:44.544	$GPGGA,080545,2519.0653,N,07952.8239,W,1,11,1.4,14,M,,M,,*6A
06/25/2015	08:05:45.523	$GPGGA,080546,2519.0646,N,07952.8234,W,1,11,1.4,14,M,,M,,*60
06/25/2015	08:05:46.633	$GPGGA,080547,2519.0640,N,07952.8232,W,1,11,1.4,14,M,,M,,*61
06/25/2015	08:05:47.585	$GPGGA,080548,2519.0634,N,07952.8231,W,1,11,1.4,14,M,,M,,*6E
06/25/2015	08:05:48.513	$GPGGA,080549,2519.0628,N,07952.8230,W,1,11,1.4,14,M,,M,,*63
06/25/2015	08:05:49.543	$GPGGA,080550,2519.0621,N,07952.8225,W,1,11,1.4,14,M,,M,,*66
06/25/2015	08:05:50.633	$GPGGA,080551,2519.0614,N,07952.8223,W,1,11,1.4,14,M,,M,,*67
06/25/2015	08:05:51.613	$GPGGA,080552,2519.0607,N,07952.8221,W,1,11,1.4,14,M,,M,,*64
06/25/2015	08:05:52.533	$GPGGA,080553,2519.0600,N,07952.8217,W,1,11,1.4,14,M,,M,,*67
06/25/2015	08:05:53.503	$GPGGA,080554,2519.0594,N,07952.8213,W,1,11,1.4,14,M,,M,,*6A
06/25/2015	08:05:54.523	$GPGGA,080555,2519.0587,N,07952.8211,W,1,11,1.4,14,M,,M,,*6B
06/25/2015	08:05:55.543	$GPGGA,080556,2519.0580,N,07952.8208,W,1,10,1.7,14,M,,M,,*65
06/25/2015	08:05:56.613	$GPGGA,080557,2519.0573,N,07952.8204,W,1,10,1.7,14,M,,M,,*64
06/25/2015	08:05:57.603	$GPGGA,080558,2519.0566,N,07952.8201,W,1,10,1.4,14,M,,M,,*69
06/25/2015	08:05:58.524	$GPGGA,080559,2519.0560,N,07952.8199,W,1,10,1.7,14,M,,M,,*6F
06/25/2015	08:05:59.663	$GPGGA,080600,2519.0553,N,07952.8195,W,1,10,1.7,14,M,,M,,*6C
06/25/2015	08:06:00.513	$GPGGA,080601,2519.0544,N,07952.8190,W,1,10,1.4,14,M,,M,,*6D
06/25/2015	08:06:01.584	$GPGGA,080602,2519.0537,N,07952.8187,W,1,10,1.4,14,M,,M,,*6C
06/25/2015	08:06:02.583	$GPGGA,080603,2519.0531,N,07952.8182,W,1,10,1.7,14,M,,M,,*6D
06/25/2015	08:06:03.523	$GPGGA,080604,2519.0524,N,07952.8179,W,1,10,1.7,14,M,,M,,*6A
06/25/2015	08:06:04.583	$GPGGA,080605,2519.0517,N,07952.8176,W,1,10,1.4,14,M,,M,,*67
06/25/2015	08:06:05.603	$GPGGA,080606,2519.0510,N,07952.8171,W,1,10,1.4,14,M,,M,,*64
06/25/2015	08:06:06.585	$GPGGA,080607,2519.0504,N,07952.8168,W,1,10,1.4,14,M,,M,,*68
06/25/2015	08:06:07.593	$GPGGA,080608,2519.0497,N,07952.8165,W,1,11,1.7,14,M,,M,,*63
06/25/2015	08:06:08.573	$GPGGA,080609,2519.0490,N,07952.8162,W,1,11,1.7,14,M,,M,,*62
06/25/2015	08:06:09.594	$GPGGA,080610,2519.0482,N,07952.8160,W,1,11,1.4,14,M,,M,,*68
06/25/2015	08:06:10.573	$GPGGA,080611,2519.0475,N,07952.8156,W,1,11,1.4,14,M,,M,,*64
06/25/2015	08:06:11.623	$GPGGA,080612,2519.0468,N,07952.8152,W,1,11,1.4,14,M,,M,,*6F
06/25/2015	08:06:12.573	$GPGGA,080613,2519.0461,N,07952.8149,W,1,11,1.4,14,M,,M,,*6D
06/25/2015	08:06:13.585	$GPGGA,080614,2519.0451,N,07952.8145,W,1,11,1.4,14,M,,M,,*65
06/25/2015	08:06:14.563	$GPGGA,080615,2519.0445,N,07952.8141,W,1,11,1.4,14,M,,M,,*65
06/25/2015	08:06:15.596	$GPGGA,080616,2519.0439,N,07952.8139,W,1,11,1.4,14,M,,M,,*62
06/25/2015	08:06:16.563	$GPGGA,080617,2519.0432,N,07952.8135,W,1,11,1.4,14,M,,M,,*64
06/25/2015	08:06:17.553	$GPGGA,080618,2519.0424,N,07952.8132,W,1,11,1.4,14,M,,M,,*6B
06/25/2015	08:06:18.553	$GPGGA,080619,2519.0417,N,07952.8129,W,1,11,1.4,14,M,,M,,*60
06/25/2015	08:06:19.553	$GPGGA,080620,2519.0410,N,07952.8124,W,1,11,1.4,14,M,,M,,*60
06/25/2015	08:06:20.553	$GPGGA,080621,2519.0403,N,07952.8122,W,1,11,1.4,14,M,,M,,*65
06/25/2015	08:06:21.573	$GPGGA,080622,2519.0396,N,07952.8119,W,1,11,1.4,14,M,,M,,*65
06/25/2015	08:06:22.553	$GPGGA,080623,2519.0389,N,07952.8114,W,1,11,1.4,14,M,,M,,*67
06/25/2015	08:06:23.563	$GPGGA,080624,2519.0383,N,07952.8111,W,1,11,1.4,14,M,,M,,*6F
06/25/2015	08:06:24.533	$GPGGA,080625,2519.0376,N,07952.8109,W,1,11,1.4,14,M,,M,,*6D
06/25/2015	08:06:25.563	$GPGGA,080626,2519.0368,N,07952.8105,W,1,11,1.4,14,M,,M,,*6D
06/25/2015	08:06:26.543	$GPGGA,080627,2519.0363,N,07952.8101,W,1,11,1.4,14,M,,M,,*63
06/25/2015	08:06:27.553	$GPGGA,080628,2519.0353,N,07952.8098,W,1,10,1.4,15,M,,M,,*6E
06/25/2015	08:06:28.543	$GPGGA,080629,2519.0345,N,07952.8095,W,1,10,1.4,15,M,,M,,*65
06/25/2015	08:06:29.533	$GPGGA,080630,2519.0338,N,07952.8091,W,1,11,1.4,15,M,,M,,*62
06/25/2015	08:06:30.533	$GPGGA,080631,2519.0332,N,07952.8087,W,1,11,1.4,15,M,,M,,*6E
06/25/2015	08:06:31.553	$GPGGA,080632,2519.0324,N,07952.8085,W,1,11,1.4,15,M,,M,,*68
06/25/2015	08:06:32.533	$GPGGA,080633,2519.0318,N,07952.8082,W,1,11,1.4,15,M,,M,,*61
06/25/2015	08:06:33.624	$GPGGA,080634,2519.0310,N,07952.8075,W,1,10,1.7,15,M,,M,,*64
06/25/2015	08:06:34.533	$GPGGA,080635,2519.0303,N,07952.8071,W,1,10,1.4,15,M,,M,,*60
06/25/2015	08:06:35.563	$GPGGA,080636,2519.0298,N,07952.8069,W,1,10,1.4,15,M,,M,,*69
06/25/2015	08:06:36.513	$GPGGA,080637,2519.0291,N,07952.8065,W,1,10,1.4,15,M,,M,,*6D
06/25/2015	08:06:37.533	$GPGGA,080638,2519.0284,N,07952.8060,W,1,11,1.4,15,M,,M,,*62
06/25/2015	08:06:38.513	$GPGGA,080639,2519.0276,N,07952.8058,W,1,11,1.4,15,M,,M,,*65
06/25/2015	08:06:39.543	$GPGGA,080640,2519.0269,N,07952.8055,W,1,11,1.4,15,M,,M,,*68
06/25/2015	08:06:40.523	$GPGGA,080641,2519.0262,N,07952.8049,W,1,11,1.4,15,M,,M,,*6F
06/25/2015	08:06:41.603	$GPGGA,080642,2519.0256,N,07952.8047,W,1,10,1.4,15,M,,M,,*64
06/25/2015	08:06:42.503	$GPGGA,080643,2519.0251,N,07952.8044,W,1,10,1.4,15,M,,M,,*61
06/25/2015	08:06:43.533	$GPGGA,080644,2519.0244,N,07952.8040,W,1,10,1.4,15,M,,M,,*66
06/25/2015	08:06:44.603	$GPGGA,080645,2519.0237,N,07952.8037,W,1,10,1.4,15,M,,M,,*63
06/25/2015	08:06:45.633	$GPGGA,080646,2519.0230,N,07952.8035,W,1,11,1.4,15,M,,M,,*64
06/25/2015	08:06:46.503	$GPGGA,080647,2519.0224,N,07952.8033,W,1,11,1.4,15,M,,M,,*66
06/25/2015	08:06:47.603	$GPGGA,080648,2519.0219,N,07952.8028,W,1,11,1.4,15,M,,M,,*6D
06/25/2015	08:06:48.600	$GPGGA,080649,2519.0211,N,07952.8026,W,1,11,1.4,15,M,,M,,*6A
06/25/2015	08:06:49.497	$GPGGA,080650,2519.0204,N,07952.8025,W,1,11,1.4,15,M,,M,,*65
06/25/2015	08:06:50.586	$GPGGA,080651,2519.0198,N,07952.8019,W,1,11,1.4,15,M,,M,,*6D
06/25/2015	08:06:51.633	$GPGGA,080652,2519.0191,N,07952.8016,W,1,11,1.4,15,M,,M,,*68
06/25/2015	08:06:52.586	$GPGGA,080653,2519.0184,N,07952.8017,W,1,11,1.4,15,M,,M,,*6C
06/25/2015	08:06:53.602	$GPGGA,080654,2519.0177,N,07952.8012,W,1,11,1.4,15,M,,M,,*62
06/25/2015	08:06:54.585	$GPGGA,080655,2519.0170,N,07952.8007,W,1,11,1.4,15,M,,M,,*60
06/25/2015	08:06:55.663	$GPGGA,080656,2519.0164,N,07952.8006,W,1,11,1.4,15,M,,M,,*67
06/25/2015	08:06:56.599	$GPGGA,080657,2519.0157,N,07952.8005,W,1,11,1.4,15,M,,M,,*65
06/25/2015	08:06:57.573	$GPGGA,080658,2519.0151,N,07952.7999,W,1,10,1.7,15,M,,M,,*6D
06/25/2015	08:06:58.586	$GPGGA,080659,2519.0144,N,07952.7996,W,1,10,1.4,15,M,,M,,*64
06/25/2015	08:06:59.603	$GPGGA,080700,2519.0136,N,07952.7994,W,1,11,1.4,15,M,,M,,*6F
06/25/2015	08:07:00.563	$GPGGA,080701,2519.0132,N,07952.7991,W,1,11,1.4,15,M,,M,,*6F
06/25/2015	08:07:01.563	$GPGGA,080702,2519.0125,N,07952.7986,W,1,10,1.7,15,M,,M,,*6E
06/25/2015	08:07:02.573	$GPGGA,080703,2519.0116,N,07952.7984,W,1,10,1.4,15,M,,M,,*6E
06/25/2015	08:07:03.597	$GPGGA,080704,2519.0109,N,07952.7981,W,1,11,1.4,15,M,,M,,*63
06/25/2015	08:07:04.563	$GPGGA,080705,2519.0103,N,07952.7975,W,1,11,1.4,15,M,,M,,*63
06/25/2015	08:07:05.553	$GPGGA,080706,2519.0096,N,07952.7972,W,1,11,1.4,15,M,,M,,*6A
06/25/2015	08:07:06.563	$GPGGA,080707,2519.0089,N,07952.7970,W,1,11,1.4,15,M,,M,,*67
06/25/2015	08:07:07.583	$GPGGA,080708,2519.0082,N,07952.7966,W,1,11,1.4,15,M,,M,,*64
06/25/2015	08:07:08.574	$GPGGA,080709,2519.0075,N,07952.7962,W,1,11,1.4,15,M,,M,,*69
06/25/2015	08:07:09.564	$GPGGA,080710,2519.0068,N,07952.7959,W,1,11,1.4,15,M,,M,,*65
06/25/2015	08:07:10.553	$GPGGA,080711,2519.0061,N,07952.7956,W,1,11,1.4,15,M,,M,,*62
06/25/2015	08:07:11.563	$GPGGA,080712,2519.0054,N,07952.7952,W,1,11,1.4,15,M,,M,,*63
06/25/2015	08:07:12.553	$GPGGA,080713,2519.0049,N,07952.7949,W,1,11,1.4,15,M,,M,,*64
06/25/2015	08:07:13.583	$GPGGA,080714,2519.0040,N,07952.7946,W,1,11,1.4,15,M,,M,,*65
06/25/2015	08:07:14.553	$GPGGA,080715,2519.0034,N,07952.7943,W,1,11,1.4,15,M,,M,,*62
06/25/2015	08:07:15.553	$GPGGA,080716,2519.0028,N,07952.7940,W,1,11,1.4,15,M,,M,,*6F
06/25/2015	08:07:16.533	$GPGGA,080717,2519.0020,N,07952.7937,W,1,11,1.4,15,M,,M,,*66
06/25/2015	08:07:17.543	$GPGGA,080718,2519.0014,N,07952.7933,W,1,11,1.4,15,M,,M,,*6A
06/25/2015	08:07:18.623	$GPGGA,080719,2519.0007,N,07952.7931,W,1,11,1.4,15,M,,M,,*6B
06/25/2015	08:07:19.663	$GPGGA,080720,2518.9999,N,07952.7928,W,1,11,1.4,15,M,,M,,*6F
06/25/2015	08:07:20.523	$GPGGA,080721,2518.9993,N,07952.7924,W,1,11,1.4,15,M,,M,,*68
06/25/2015	08:07:21.533	$GPGGA,080722,2518.9986,N,07952.7920,W,1,11,1.4,15,M,,M,,*6B
06/25/2015	08:07:22.523	$GPGGA,080723,2518.9978,N,07952.7918,W,1,11,1.4,15,M,,M,,*60
06/25/2015	08:07:23.553	$GPGGA,080724,2518.9973,N,07952.7915,W,1,11,1.4,15,M,,M,,*61
06/25/2015	08:07:24.613	$GPGGA,080725,2518.9966,N,07952.7911,W,1,11,1.4,15,M,,M,,*60
06/25/2015	08:07:25.634	$GPGGA,080726,2518.9959,N,07952.7908,W,1,11,1.4,15,M,,M,,*67
06/25/2015	08:07:26.523	$GPGGA,080727,2518.9951,N,07952.7906,W,1,11,1.4,15,M,,M,,*60
06/25/2015	08:07:27.633	$GPGGA,080728,2518.9945,N,07952.7903,W,1,10,1.4,14,M,,M,,*6F
06/25/2015	08:07:28.623	$GPGGA,080729,2518.9938,N,07952.7899,W,1,10,1.4,14,M,,M,,*66
06/25/2015	08:07:29.633	$GPGGA,080730,2518.9931,N,07952.7896,W,1,11,1.4,14,M,,M,,*69
06/25/2015	08:07:30.523	$GPGGA,080731,2518.9924,N,07952.7894,W,1,11,1.4,14,M,,M,,*6E
06/25/2015	08:07:31.613	$GPGGA,080732,2518.9916,N,07952.7890,W,1,11,1.4,14,M,,M,,*68
06/25/2015	08:07:32.513	$GPGGA,080733,2518.9910,N,07952.7887,W,1,11,1.4,14,M,,M,,*69
06/25/2015	08:07:33.593	$GPGGA,080734,2518.9903,N,07952.7884,W,1,11,1.4,14,M,,M,,*6F
06/25/2015	08:07:34.513	$GPGGA,080735,2518.9897,N,07952.7881,W,1,11,1.4,14,M,,M,,*67
06/25/2015	08:07:35.633	$GPGGA,080736,2518.9890,N,07952.7878,W,1,11,1.4,14,M,,M,,*65
06/25/2015	08:07:36.533	$GPGGA,080737,2518.9883,N,07952.7875,W,1,11,1.4,14,M,,M,,*6B
06/25/2015	08:07:37.589	$GPGGA,080738,2518.9875,N,07952.7871,W,1,11,1.4,14,M,,M,,*69
06/25/2015	08:07:38.586	$GPGGA,080739,2518.9868,N,07952.7868,W,1,11,1.4,14,M,,M,,*6C
06/25/2015	08:07:39.613	$GPGGA,080740,2518.9861,N,07952.7865,W,1,11,1.4,14,M,,M,,*66
06/25/2015	08:07:40.585	$GPGGA,080741,2518.9854,N,07952.7862,W,1,11,1.4,14,M,,M,,*66
06/25/2015	08:07:41.603	$GPGGA,080742,2518.9848,N,07952.7858,W,1,11,1.4,14,M,,M,,*61
06/25/2015	08:07:42.587	$GPGGA,080743,2518.9840,N,07952.7855,W,1,11,1.4,14,M,,M,,*65
06/25/2015	08:07:43.614	$GPGGA,080744,2518.9832,N,07952.7852,W,1,11,1.4,14,M,,M,,*60
06/25/2015	08:07:44.573	$GPGGA,080745,2518.9826,N,07952.7849,W,1,11,1.4,14,M,,M,,*6E
06/25/2015	08:07:45.613	$GPGGA,080746,2518.9819,N,07952.7845,W,1,11,1.4,14,M,,M,,*6D
06/25/2015	08:07:46.587	$GPGGA,080747,2518.9812,N,07952.7842,W,1,11,1.4,14,M,,M,,*60
06/25/2015	08:07:47.586	$GPGGA,080748,2518.9805,N,07952.7838,W,1,11,1.4,14,M,,M,,*64
06/25/2015	08:07:48.588	$GPGGA,080749,2518.9799,N,07952.7835,W,1,11,1.4,14,M,,M,,*62
06/25/2015	08:07:49.596	$GPGGA,080750,2518.9792,N,07952.7832,W,1,11,1.4,14,M,,M,,*66
06/25/2015	08:07:50.563	$GPGGA,080751,2518.9785,N,07952.7828,W,1,11,1.4,14,M,,M,,*6A
06/25/2015	08:07:51.599	$GPGGA,080752,2518.9778,N,07952.7825,W,1,10,1.4,14,M,,M,,*67
06/25/2015	08:07:52.563	$GPGGA,080753,2518.9771,N,07952.7821,W,1,10,1.4,14,M,,M,,*6B
06/25/2015	08:07:53.585	$GPGGA,080754,2518.9765,N,07952.7818,W,1,11,1.4,14,M,,M,,*62
06/25/2015	08:07:54.553	$GPGGA,080755,2518.9758,N,07952.7815,W,1,11,1.4,14,M,,M,,*60
06/25/2015	08:07:55.603	$GPGGA,080756,2518.9751,N,07952.7812,W,1,11,1.4,14,M,,M,,*6D
06/25/2015	08:07:56.563	$GPGGA,080757,2518.9745,N,07952.7808,W,1,11,1.4,14,M,,M,,*62
06/25/2015	08:07:57.543	$GPGGA,080758,2518.9738,N,07952.7804,W,1,11,1.4,14,M,,M,,*6B
06/25/2015	08:07:58.553	$GPGGA,080759,2518.9731,N,07952.7801,W,1,11,1.4,14,M,,M,,*66
06/25/2015	08:07:59.586	$GPGGA,080800,2518.9725,N,07952.7798,W,1,11,1.4,14,M,,M,,*6F
06/25/2015	08:08:00.574	$GPGGA,080801,2518.9717,N,07952.7795,W,1,11,1.4,14,M,,M,,*62
06/25/2015	08:08:01.553	$GPGGA,080802,2518.9710,N,07952.7790,W,1,11,1.4,14,M,,M,,*63
06/25/2015	08:08:02.533	$GPGGA,080803,2518.9703,N,07952.7787,W,1,11,1.4,14,M,,M,,*66
06/25/2015	08:08:03.553	$GPGGA,080804,2518.9696,N,07952.7785,W,1,10,1.4,14,M,,M,,*6F
06/25/2015	08:08:04.543	$GPGGA,080805,2518.9689,N,07952.7781,W,1,10,1.4,14,M,,M,,*64
06/25/2015	08:08:05.533	$GPGGA,080806,2518.9682,N,07952.7778,W,1,11,1.4,14,M,,M,,*6B
06/25/2015	08:08:06.533	$GPGGA,080807,2518.9677,N,07952.7774,W,1,11,1.4,14,M,,M,,*6C
06/25/2015	08:08:07.563	$GPGGA,080808,2518.9668,N,07952.7771,W,1,11,1.4,14,M,,M,,*68
06/25/2015	08:08:08.533	$GPGGA,080809,2518.9661,N,07952.7767,W,1,11,1.4,14,M,,M,,*67
06/25/2015	08:08:09.553	$GPGGA,080810,2518.9653,N,07952.7764,W,1,11,1.4,14,M,,M,,*6D
06/25/2015	08:08:10.543	$GPGGA,080811,2518.9646,N,07952.7760,W,1,11,1.4,14,M,,M,,*6C
06/25/2015	08:08:11.533	$GPGGA,080812,2518.9641,N,07952.7757,W,1,11,1.4,14,M,,M,,*6C
06/25/2015	08:08:12.503	$GPGGA,080813,2518.9632,N,07952.7755,W,1,11,1.4,14,M,,M,,*6B
06/25/2015	08:08:13.513	$GPGGA,080814,2518.9626,N,07952.7752,W,1,11,1.4,14,M,,M,,*6E
06/25/2015	08:08:14.503	$GPGGA,080815,2518.9619,N,07952.7748,W,1,11,1.4,14,M,,M,,*68
06/25/2015	08:08:15.543	$GPGGA,080816,2518.9610,N,07952.7745,W,1,11,1.4,14,M,,M,,*6F
06/25/2015	08:08:16.513	$GPGGA,080817,2518.9603,N,07952.7743,W,1,11,1.4,13,M,,M,,*6D
06/25/2015	08:08:17.643	$GPGGA,080818,2518.9596,N,07952.7739,W,1,11,1.4,13,M,,M,,*60
06/25/2015	08:08:18.513	$GPGGA,080819,2518.9590,N,07952.7736,W,1,11,1.4,13,M,,M,,*68
06/25/2015	08:08:19.502	$GPGGA,080820,2518.9583,N,07952.7733,W,1,11,1.4,13,M,,M,,*65
06/25/2015	08:08:20.592	$GPGGA,080821,2518.9576,N,07952.7730,W,1,11,1.4,13,M,,M,,*6D
06/25/2015	08:08:21.502	$GPGGA,080822,2518.9567,N,07952.7727,W,1,11,1.4,13,M,,M,,*68
06/25/2015	08:08:22.502	$GPGGA,080823,2518.9561,N,07952.7723,W,1,11,1.4,13,M,,M,,*6B
06/25/2015	08:08:23.662	$GPGGA,080824,2518.9554,N,07952.7719,W,1,11,1.4,13,M,,M,,*63
06/25/2015	08:08:24.662	$GPGGA,080825,2518.9547,N,07952.7716,W,1,11,1.4,13,M,,M,,*6F
06/25/2015	08:08:25.672	$GPGGA,080826,2518.9538,N,07952.7713,W,1,11,1.4,13,M,,M,,*61
06/25/2015	08:08:26.662	$GPGGA,080827,2518.9531,N,07952.7709,W,1,11,1.4,13,M,,M,,*62
06/25/2015	08:08:27.674	$GPGGA,080828,2518.9525,N,07952.7706,W,1,11,1.4,13,M,,M,,*67
06/25/2015	08:08:28.573	$GPGGA,080829,2518.9518,N,07952.7702,W,1,11,1.4,13,M,,M,,*6C
06/25/2015	08:08:29.623	$GPGGA,080830,2518.9509,N,07952.7699,W,1,11,1.4,13,M,,M,,*67
06/25/2015	08:08:30.653	$GPGGA,080831,2518.9502,N,07952.7696,W,1,11,1.4,13,M,,M,,*62
06/25/2015	08:08:31.633	$GPGGA,080832,2518.9496,N,07952.7691,W,1,11,1.4,13,M,,M,,*6A
06/25/2015	08:08:32.643	$GPGGA,080833,2518.9489,N,07952.7688,W,1,11,1.4,13,M,,M,,*6D
06/25/2015	08:08:33.613	$GPGGA,080834,2518.9482,N,07952.7687,W,1,11,1.4,13,M,,M,,*6E
06/25/2015	08:08:34.643	$GPGGA,080835,2518.9474,N,07952.7683,W,1,11,1.4,13,M,,M,,*62
06/25/2015	08:08:35.675	$GPGGA,080836,2518.9467,N,07952.7678,W,1,11,1.4,13,M,,M,,*67
06/25/2015	08:08:36.552	$GPGGA,080837,2518.9460,N,07952.7677,W,1,11,1.4,13,M,,M,,*6E
06/25/2015	08:08:37.642	$GPGGA,080838,2518.9453,N,07952.7675,W,1,10,1.4,13,M,,M,,*62
06/25/2015	08:08:38.632	$GPGGA,080839,2518.9445,N,07952.7669,W,1,10,1.4,13,M,,M,,*69
06/25/2015	08:08:39.642	$GPGGA,080840,2518.9439,N,07952.7667,W,1,11,1.4,13,M,,M,,*63
06/25/2015	08:08:40.642	$GPGGA,080841,2518.9432,N,07952.7665,W,1,11,1.4,13,M,,M,,*6B
06/25/2015	08:08:41.602	$GPGGA,080842,2518.9425,N,07952.7661,W,1,11,1.4,13,M,,M,,*6A
06/25/2015	08:08:43.062	$GPGGA,080843,2518.9418,N,07952.7657,W,1,11,1.4,13,M,,M,,*60
06/25/2015	08:08:43.632	$GPGGA,080844,2518.9411,N,07952.7655,W,1,11,1.4,13,M,,M,,*6C
06/25/2015	08:08:44.622	$GPGGA,080845,2518.9406,N,07952.7652,W,1,11,1.4,13,M,,M,,*6C
06/25/2015	08:08:45.643	$GPGGA,080846,2518.9397,N,07952.7648,W,1,11,1.4,13,M,,M,,*6B
06/25/2015	08:08:46.543	$GPGGA,080847,2518.9391,N,07952.7644,W,1,11,1.4,13,M,,M,,*60
06/25/2015	08:08:47.643	$GPGGA,080848,2518.9384,N,07952.7642,W,1,11,1.4,13,M,,M,,*6D
06/25/2015	08:08:48.593	$GPGGA,080849,2518.9377,N,07952.7639,W,1,11,1.4,13,M,,M,,*6C
06/25/2015	08:08:49.553	$GPGGA,080850,2518.9370,N,07952.7634,W,1,11,1.4,13,M,,M,,*6E
06/25/2015	08:08:50.533	$GPGGA,080851,2518.9364,N,07952.7631,W,1,11,1.4,13,M,,M,,*6F
06/25/2015	08:08:51.585	$GPGGA,080852,2518.9357,N,07952.7628,W,1,11,1.4,13,M,,M,,*64
06/25/2015	08:08:52.593	$GPGGA,080853,2518.9352,N,07952.7624,W,1,11,1.4,13,M,,M,,*6C
06/25/2015	08:08:53.585	$GPGGA,080854,2518.9344,N,07952.7621,W,1,11,1.4,13,M,,M,,*69
06/25/2015	08:08:54.522	$GPGGA,080855,2518.9337,N,07952.7617,W,1,11,1.4,13,M,,M,,*69
06/25/2015	08:08:55.612	$GPGGA,080856,2518.9330,N,07952.7613,W,1,11,1.4,13,M,,M,,*69
06/25/2015	08:08:56.522	$GPGGA,080857,2518.9323,N,07952.7609,W,1,11,1.4,13,M,,M,,*61
06/25/2015	08:08:57.562	$GPGGA,080858,2518.9316,N,07952.7606,W,1,11,1.4,13,M,,M,,*67
06/25/2015	08:08:58.512	$GPGGA,080859,2518.9309,N,07952.7601,W,1,11,1.4,13,M,,M,,*6F
06/25/2015	08:08:59.652	$GPGGA,080900,2518.9302,N,07952.7597,W,1,11,1.4,13,M,,M,,*65
06/25/2015	08:09:00.592	$GPGGA,080901,2518.9295,N,07952.7594,W,1,11,1.4,13,M,,M,,*68
06/25/2015	08:09:01.542	$GPGGA,080902,2518.9288,N,07952.7589,W,1,11,1.4,13,M,,M,,*6B
06/25/2015	08:09:02.632	$GPGGA,080903,2518.9281,N,07952.7585,W,1,11,1.4,13,M,,M,,*6F
06/25/2015	08:09:03.633	$GPGGA,080904,2518.9276,N,07952.7581,W,1,11,1.4,13,M,,M,,*64
06/25/2015	08:09:04.573	$GPGGA,080905,2518.9268,N,07952.7578,W,1,11,1.4,13,M,,M,,*6C
06/25/2015	08:09:05.643	$GPGGA,080906,2518.9260,N,07952.7573,W,1,11,1.4,13,M,,M,,*6C
06/25/2015	08:09:06.603	$GPGGA,080907,2518.9254,N,07952.7570,W,1,11,1.4,13,M,,M,,*69
06/25/2015	08:09:07.633	$GPGGA,080908,2518.9247,N,07952.7567,W,1,11,1.4,13,M,,M,,*62
06/25/2015	08:09:08.563	$GPGGA,080909,2518.9240,N,07952.7563,W,1,11,1.4,13,M,,M,,*60
06/25/2015	08:09:09.593	$GPGGA,080910,2518.9233,N,07952.7560,W,1,11,1.4,13,M,,M,,*6F
06/25/2015	08:09:10.573	$GPGGA,080911,2518.9226,N,07952.7557,W,1,11,1.4,13,M,,M,,*6E
06/25/2015	08:09:11.612	$GPGGA,080912,2518.9220,N,07952.7553,W,1,11,1.4,13,M,,M,,*6F
06/25/2015	08:09:12.592	$GPGGA,080913,2518.9213,N,07952.7548,W,1,11,1.4,13,M,,M,,*64
06/25/2015	08:09:13.602	$GPGGA,080914,2518.9207,N,07952.7546,W,1,11,1.4,13,M,,M,,*68
06/25/2015	08:09:14.602	$GPGGA,080915,2518.9200,N,07952.7542,W,1,11,1.4,13,M,,M,,*6A
06/25/2015	08:09:15.612	$GPGGA,080916,2518.9193,N,07952.7539,W,1,11,1.4,13,M,,M,,*6C
06/25/2015	08:09:16.592	$GPGGA,080917,2518.9186,N,07952.7535,W,1,11,1.4,13,M,,M,,*65
06/25/2015	08:09:17.584	$GPGGA,080918,2518.9179,N,07952.7533,W,1,11,1.4,13,M,,M,,*6C
06/25/2015	08:09:18.592	$GPGGA,080919,2518.9172,N,07952.7530,W,1,11,1.4,13,M,,M,,*65
06/25/2015	08:09:19.585	$GPGGA,080920,2518.9166,N,07952.7526,W,1,11,1.4,13,M,,M,,*6D
06/25/2015	08:09:20.603	$GPGGA,080921,2518.9160,N,07952.7522,W,1,11,1.4,13,M,,M,,*6E
06/25/2015	08:09:21.588	$GPGGA,080922,2518.9151,N,07952.7520,W,1,11,1.4,13,M,,M,,*6D
06/25/2015	08:09:22.563	$GPGGA,080923,2518.9146,N,07952.7518,W,1,11,1.4,13,M,,M,,*61
06/25/2015	08:09:23.590	$GPGGA,080924,2518.9137,N,07952.7513,W,1,10,1.4,13,M,,M,,*6A
06/25/2015	08:09:24.588	$GPGGA,080925,2518.9131,N,07952.7511,W,1,10,1.4,13,M,,M,,*6F
06/25/2015	08:09:25.603	$GPGGA,080926,2518.9124,N,07952.7511,W,1,11,1.4,13,M,,M,,*69
06/25/2015	08:09:26.613	$GPGGA,080927,2518.9117,N,07952.7507,W,1,11,1.4,13,M,,M,,*6F
06/25/2015	08:09:27.593	$GPGGA,080928,2518.9113,N,07952.7504,W,1,11,1.4,13,M,,M,,*67
06/25/2015	08:09:28.563	$GPGGA,080929,2518.9106,N,07952.7502,W,1,11,1.4,13,M,,M,,*64
06/25/2015	08:09:29.574	$GPGGA,080930,2518.9097,N,07952.7501,W,1,11,1.4,13,M,,M,,*66
06/25/2015	08:09:30.578	$GPGGA,080931,2518.9091,N,07952.7498,W,1,11,1.4,13,M,,M,,*60
06/25/2015	08:09:31.602	$GPGGA,080932,2518.9085,N,07952.7494,W,1,11,1.4,13,M,,M,,*6A
06/25/2015	08:09:32.562	$GPGGA,080933,2518.9078,N,07952.7492,W,1,11,1.4,13,M,,M,,*6F
06/25/2015	08:09:33.582	$GPGGA,080934,2518.9071,N,07952.7491,W,1,11,1.4,13,M,,M,,*62
06/25/2015	08:09:34.573	$GPGGA,080935,2518.9066,N,07952.7486,W,1,11,1.4,13,M,,M,,*63
06/25/2015	08:09:38.125	$GPGGA,080938,2518.9045,N,07952.7478,W,1,11,1.4,13,M,,M,,*6E
06/25/2015	08:09:38.553	$GPGGA,080939,2518.9038,N,07952.7475,W,1,11,1.4,13,M,,M,,*68
06/25/2015	08:09:39.563	$GPGGA,080940,2518.9032,N,07952.7471,W,1,11,1.4,13,M,,M,,*68
06/25/2015	08:09:40.563	$GPGGA,080941,2518.9025,N,07952.7468,W,1,11,1.4,13,M,,M,,*67
06/25/2015	08:09:41.563	$GPGGA,080942,2518.9019,N,07952.7466,W,1,11,1.4,13,M,,M,,*65
06/25/2015	08:09:42.543	$GPGGA,080943,2518.9012,N,07952.7463,W,1,11,1.4,13,M,,M,,*6A
06/25/2015	08:09:43.563	$GPGGA,080944,2518.9005,N,07952.7458,W,1,11,1.4,13,M,,M,,*63
06/25/2015	08:09:44.563	$GPGGA,080945,2518.8999,N,07952.7457,W,1,11,1.4,13,M,,M,,*60
06/25/2015	08:09:45.583	$GPGGA,080946,2518.8992,N,07952.7454,W,1,11,1.4,13,M,,M,,*6B
06/25/2015	08:09:46.582	$GPGGA,080947,2518.8985,N,07952.7449,W,1,11,1.4,13,M,,M,,*60
06/25/2015	08:09:47.622	$GPGGA,080948,2518.8979,N,07952.7446,W,1,11,1.4,13,M,,M,,*63
06/25/2015	08:09:48.522	$GPGGA,080949,2518.8979,N,07952.7446,W,1,11,1.4,13,M,,M,,*62
06/25/2015	08:09:49.652	$GPGGA,080950,2518.8965,N,07952.7440,W,1,11,1.4,13,M,,M,,*61
06/25/2015	08:09:50.532	$GPGGA,080951,2518.8965,N,07952.7440,W,1,11,1.4,13,M,,M,,*60
06/25/2015	08:09:51.622	$GPGGA,080952,2518.8952,N,07952.7433,W,1,11,1.4,13,M,,M,,*63
06/25/2015	08:09:52.512	$GPGGA,080953,2518.8952,N,07952.7433,W,1,11,1.4,13,M,,M,,*62
06/25/2015	08:09:53.612	$GPGGA,080954,2518.8940,N,07952.7426,W,1,11,1.4,13,M,,M,,*62
06/25/2015	08:09:54.612	$GPGGA,080955,2518.8932,N,07952.7422,W,1,11,1.4,13,M,,M,,*62
06/25/2015	08:09:55.633	$GPGGA,080956,2518.8926,N,07952.7419,W,1,11,1.4,13,M,,M,,*6C
06/25/2015	08:09:56.623	$GPGGA,080957,2518.8918,N,07952.7415,W,1,11,1.4,13,M,,M,,*6C
06/25/2015	08:09:57.603	$GPGGA,080958,2518.8912,N,07952.7411,W,1,11,1.4,13,M,,M,,*6D
06/25/2015	08:09:58.523	$GPGGA,080959,2518.8912,N,07952.7411,W,1,11,1.4,13,M,,M,,*6C
06/25/2015	08:09:59.623	$GPGGA,081000,2518.8898,N,07952.7404,W,1,11,1.4,13,M,,M,,*6F
06/25/2015	08:10:00.593	$GPGGA,081001,2518.8891,N,07952.7400,W,1,11,1.4,13,M,,M,,*63
06/25/2015	08:10:01.623	$GPGGA,081002,2518.8884,N,07952.7396,W,1,11,1.4,13,M,,M,,*6C
06/25/2015	08:10:02.587	$GPGGA,081003,2518.8878,N,07952.7393,W,1,11,1.4,13,M,,M,,*6B
06/25/2015	08:10:03.593	$GPGGA,081004,2518.8871,N,07952.7389,W,1,11,1.4,13,M,,M,,*6E
06/25/2015	08:10:04.584	$GPGGA,081005,2518.8864,N,07952.7384,W,1,11,1.4,13,M,,M,,*66
06/25/2015	08:10:05.622	$GPGGA,081006,2518.8857,N,07952.7381,W,1,11,1.4,13,M,,M,,*60
06/25/2015	08:10:06.572	$GPGGA,081007,2518.8849,N,07952.7378,W,1,11,1.4,13,M,,M,,*68
06/25/2015	08:10:08.042	$GPGGA,081008,2518.8842,N,07952.7374,W,1,11,1.4,13,M,,M,,*60
06/25/2015	08:10:08.575	$GPGGA,081009,2518.8835,N,07952.7370,W,1,11,1.4,13,M,,M,,*65
06/25/2015	08:10:09.473	$GPGGA,081010,2518.8828,N,07952.7366,W,1,11,1.4,13,M,,M,,*66
06/25/2015	08:10:10.576	$GPGGA,081011,2518.8821,N,07952.7364,W,1,11,1.8,13,M,,M,,*60
06/25/2015	08:10:11.582	$GPGGA,081012,2518.8815,N,07952.7359,W,1,10,1.8,13,M,,M,,*6B
06/25/2015	08:10:12.576	$GPGGA,081013,2518.8808,N,07952.7356,W,1,10,1.8,13,M,,M,,*69
06/25/2015	08:10:13.590	$GPGGA,081014,2518.8801,N,07952.7353,W,1,10,1.8,13,M,,M,,*62
06/25/2015	08:10:14.563	$GPGGA,081015,2518.8794,N,07952.7350,W,1,10,1.8,13,M,,M,,*63
06/25/2015	08:10:15.623	$GPGGA,081016,2518.8788,N,07952.7346,W,1,10,1.8,13,M,,M,,*6A
06/25/2015	08:10:16.563	$GPGGA,081017,2518.8781,N,07952.7343,W,1,10,1.8,13,M,,M,,*67
06/25/2015	08:10:17.563	$GPGGA,081018,2518.8773,N,07952.7339,W,1,10,1.8,13,M,,M,,*68
06/25/2015	08:10:18.563	$GPGGA,081019,2518.8766,N,07952.7336,W,1,10,1.8,13,M,,M,,*62
06/25/2015	08:10:19.588	$GPGGA,081020,2518.8759,N,07952.7332,W,1,10,1.8,13,M,,M,,*60
06/25/2015	08:10:20.563	$GPGGA,081021,2518.8752,N,07952.7330,W,1,10,1.8,13,M,,M,,*68
06/25/2015	08:10:21.572	$GPGGA,081022,2518.8745,N,07952.7326,W,1,10,1.8,13,M,,M,,*6A
06/25/2015	08:10:22.552	$GPGGA,081023,2518.8738,N,07952.7322,W,1,10,1.8,13,M,,M,,*65
06/25/2015	08:10:23.582	$GPGGA,081024,2518.8731,N,07952.7320,W,1,10,1.8,13,M,,M,,*69
06/25/2015	08:10:24.543	$GPGGA,081025,2518.8724,N,07952.7317,W,1,10,1.8,13,M,,M,,*68
06/25/2015	08:10:25.576	$GPGGA,081026,2518.8717,N,07952.7313,W,1,9,1.8,13,M,,M,,*57
06/25/2015	08:10:26.542	$GPGGA,081027,2518.8710,N,07952.7311,W,1,9,1.8,13,M,,M,,*53
06/25/2015	08:10:27.574	$GPGGA,081028,2518.8703,N,07952.7307,W,1,10,1.8,13,M,,M,,*61
06/25/2015	08:10:30.002	$GPGGA,081030,2518.8689,N,07952.7302,W,1,10,1.8,13,M,,M,,*6E
06/25/2015	08:10:30.553	$GPGGA,081031,2518.8682,N,07952.7299,W,1,10,1.8,13,M,,M,,*67
06/25/2015	08:10:31.563	$GPGGA,081032,2518.8676,N,07952.7296,W,1,10,1.8,12,M,,M,,*61
06/25/2015	08:10:32.543	$GPGGA,081033,2518.8669,N,07952.7293,W,1,10,1.8,12,M,,M,,*6B
06/25/2015	08:10:33.513	$GPGGA,081034,2518.8660,N,07952.7290,W,1,10,1.8,12,M,,M,,*66
06/25/2015	08:10:34.533	$GPGGA,081035,2518.8655,N,07952.7288,W,1,10,1.8,12,M,,M,,*68
06/25/2015	08:10:35.573	$GPGGA,081036,2518.8648,N,07952.7285,W,1,9,1.8,12,M,,M,,*52
06/25/2015	08:10:36.533	$GPGGA,081037,2518.8640,N,07952.7281,W,1,9,1.8,12,M,,M,,*5F
06/25/2015	08:10:37.553	$GPGGA,081038,2518.8633,N,07952.7279,W,1,10,1.8,12,M,,M,,*6B
06/25/2015	08:10:38.633	$GPGGA,081039,2518.8626,N,07952.7276,W,1,10,1.8,12,M,,M,,*61
06/25/2015	08:10:39.522	$GPGGA,081040,2518.8620,N,07952.7273,W,1,10,1.8,12,M,,M,,*6C
06/25/2015	08:10:40.512	$GPGGA,081041,2518.8615,N,07952.7270,W,1,10,1.8,12,M,,M,,*68
06/25/2015	08:10:41.532	$GPGGA,081042,2518.8607,N,07952.7267,W,1,10,1.8,12,M,,M,,*6E
06/25/2015	08:10:42.502	$GPGGA,081043,2518.8600,N,07952.7263,W,1,10,1.8,12,M,,M,,*6C
06/25/2015	08:10:43.522	$GPGGA,081044,2518.8593,N,07952.7259,W,1,9,1.8,12,M,,M,,*53
06/25/2015	08:10:44.492	$GPGGA,081045,2518.8586,N,07952.7257,W,1,9,1.8,12,M,,M,,*58
06/25/2015	08:10:45.612	$GPGGA,081046,2518.8578,N,07952.7253,W,1,10,1.8,12,M,,M,,*66
06/25/2015	08:10:46.489	$GPGGA,081047,2518.8572,N,07952.7249,W,1,10,1.8,12,M,,M,,*66
06/25/2015	08:10:47.512	$GPGGA,081048,2518.8565,N,07952.7246,W,1,10,1.8,12,M,,M,,*60
06/25/2015	08:10:48.503	$GPGGA,081049,2518.8558,N,07952.7243,W,1,10,1.8,12,M,,M,,*6A
06/25/2015	08:10:49.513	$GPGGA,081050,2518.8553,N,07952.7239,W,1,10,1.8,12,M,,M,,*64
06/25/2015	08:10:50.503	$GPGGA,081051,2518.8546,N,07952.7235,W,1,10,1.8,12,M,,M,,*6D
06/25/2015	08:10:51.493	$GPGGA,081052,2518.8539,N,07952.7233,W,1,10,1.8,12,M,,M,,*60
06/25/2015	08:10:52.603	$GPGGA,081053,2518.8530,N,07952.7230,W,1,10,1.8,12,M,,M,,*6B
06/25/2015	08:10:53.593	$GPGGA,081054,2518.8523,N,07952.7226,W,1,9,2.2,12,M,,M,,*58
06/25/2015	08:10:54.493	$GPGGA,081055,2518.8515,N,07952.7222,W,1,9,1.8,12,M,,M,,*51
06/25/2015	08:10:55.493	$GPGGA,081056,2518.8507,N,07952.7220,W,1,10,1.8,12,M,,M,,*6B
06/25/2015	08:10:56.584	$GPGGA,081057,2518.8500,N,07952.7217,W,1,10,1.8,12,M,,M,,*69
06/25/2015	08:10:57.573	$GPGGA,081058,2518.8492,N,07952.7212,W,1,10,1.8,12,M,,M,,*69
06/25/2015	08:10:58.574	$GPGGA,081059,2518.8484,N,07952.7209,W,1,10,1.8,12,M,,M,,*65
06/25/2015	08:10:59.622	$GPGGA,081100,2518.8476,N,07952.7207,W,1,10,1.8,12,M,,M,,*6B
06/25/2015	08:11:00.575	$GPGGA,081101,2518.8468,N,07952.7203,W,1,10,1.8,12,M,,M,,*61
06/25/2015	08:11:01.575	$GPGGA,081102,2518.8460,N,07952.7198,W,1,10,1.8,12,M,,M,,*6B
06/25/2015	08:11:02.582	$GPGGA,081103,2518.8453,N,07952.7195,W,1,10,1.8,12,M,,M,,*67
06/25/2015	08:11:03.582	$GPGGA,081104,2518.8445,N,07952.7191,W,1,10,1.8,12,M,,M,,*63
06/25/2015	08:11:04.562	$GPGGA,081105,2518.8438,N,07952.7187,W,1,10,1.8,12,M,,M,,*6F
06/25/2015	08:11:05.583	$GPGGA,081106,2518.8430,N,07952.7183,W,1,10,1.8,13,M,,M,,*61
06/25/2015	08:11:06.563	$GPGGA,081107,2518.8423,N,07952.7178,W,1,10,1.8,13,M,,M,,*66
06/25/2015	08:11:07.585	$GPGGA,081108,2518.8416,N,07952.7176,W,1,10,1.8,13,M,,M,,*61
06/25/2015	08:11:08.563	$GPGGA,081109,2518.8409,N,07952.7172,W,1,10,1.8,13,M,,M,,*6A
06/25/2015	08:11:09.563	$GPGGA,081110,2518.8401,N,07952.7167,W,1,10,1.8,13,M,,M,,*6E
06/25/2015	08:11:10.585	$GPGGA,081111,2518.8394,N,07952.7164,W,1,10,1.8,13,M,,M,,*67
06/25/2015	08:11:11.585	$GPGGA,081112,2518.8387,N,07952.7161,W,1,10,1.8,13,M,,M,,*63
06/25/2015	08:11:12.543	$GPGGA,081113,2518.8380,N,07952.7156,W,1,10,1.8,13,M,,M,,*61
06/25/2015	08:11:13.563	$GPGGA,081114,2518.8373,N,07952.7152,W,1,10,1.8,13,M,,M,,*6E
06/25/2015	08:11:14.552	$GPGGA,081115,2518.8366,N,07952.7150,W,1,10,1.8,13,M,,M,,*69
06/25/2015	08:11:15.572	$GPGGA,081116,2518.8359,N,07952.7146,W,1,10,1.8,13,M,,M,,*61
06/25/2015	08:11:16.542	$GPGGA,081117,2518.8353,N,07952.7141,W,1,10,1.8,14,M,,M,,*6A
06/25/2015	08:11:17.532	$GPGGA,081118,2518.8345,N,07952.7139,W,1,10,1.8,14,M,,M,,*6D
06/25/2015	08:11:18.532	$GPGGA,081119,2518.8340,N,07952.7135,W,1,10,1.8,14,M,,M,,*65
06/25/2015	08:11:19.563	$GPGGA,081120,2518.8333,N,07952.7131,W,1,10,1.8,14,M,,M,,*6F
06/25/2015	08:11:20.552	$GPGGA,081121,2518.8324,N,07952.7128,W,1,10,1.8,14,M,,M,,*60
06/25/2015	08:11:21.532	$GPGGA,081122,2518.8317,N,07952.7125,W,1,9,1.8,14,M,,M,,*56
06/25/2015	08:11:22.532	$GPGGA,081123,2518.8311,N,07952.7121,W,1,9,1.8,14,M,,M,,*55
06/25/2015	08:11:23.554	$GPGGA,081124,2518.8304,N,07952.7116,W,1,10,1.8,14,M,,M,,*6A
06/25/2015	08:11:24.533	$GPGGA,081125,2518.8295,N,07952.7113,W,1,10,1.8,14,M,,M,,*67
06/25/2015	08:11:25.523	$GPGGA,081126,2518.8289,N,07952.7111,W,1,10,1.8,14,M,,M,,*6B
06/25/2015	08:11:26.523	$GPGGA,081127,2518.8281,N,07952.7105,W,1,10,1.8,14,M,,M,,*67
06/25/2015	08:11:27.523	$GPGGA,081128,2518.8275,N,07952.7101,W,1,9,1.8,14,M,,M,,*5F
06/25/2015	08:11:28.623	$GPGGA,081129,2518.8268,N,07952.7099,W,1,9,1.8,14,M,,M,,*52
06/25/2015	08:11:29.513	$GPGGA,081130,2518.8260,N,07952.7095,W,1,10,1.8,14,M,,M,,*66
06/25/2015	08:11:30.533	$GPGGA,081131,2518.8253,N,07952.7090,W,1,10,1.8,14,M,,M,,*62
06/25/2015	08:11:31.532	$GPGGA,081132,2518.8246,N,07952.7088,W,1,10,1.8,14,M,,M,,*6C
06/25/2015	08:11:32.512	$GPGGA,081133,2518.8239,N,07952.7085,W,1,10,1.8,14,M,,M,,*68
06/25/2015	08:11:33.622	$GPGGA,081134,2518.8232,N,07952.7080,W,1,10,1.8,14,M,,M,,*61
06/25/2015	08:11:34.502	$GPGGA,081135,2518.8226,N,07952.7077,W,1,10,1.8,14,M,,M,,*6D
06/25/2015	08:11:35.532	$GPGGA,081136,2518.8218,N,07952.7075,W,1,10,1.8,14,M,,M,,*61
06/25/2015	08:11:36.592	$GPGGA,081137,2518.8211,N,07952.7071,W,1,10,1.8,14,M,,M,,*6D
06/25/2015	08:11:37.489	$GPGGA,081138,2518.8204,N,07952.7066,W,1,10,1.8,14,M,,M,,*60
06/25/2015	08:11:38.822	$GPGGA,081139,2518.8197,N,07952.7066,W,1,10,1.8,14,M,,M,,*68
06/25/2015	08:11:39.522	$GPGGA,081140,2518.8190,N,07952.7062,W,1,10,1.8,14,M,,M,,*65
06/25/2015	08:11:40.513	$GPGGA,081141,2518.8185,N,07952.7058,W,1,10,1.8,14,M,,M,,*69
06/25/2015	08:11:41.503	$GPGGA,081142,2518.8177,N,07952.7055,W,1,9,1.8,14,M,,M,,*52
06/25/2015	08:11:42.480	$GPGGA,081143,2518.8169,N,07952.7054,W,1,9,1.8,14,M,,M,,*5D
06/25/2015	08:11:43.593	$GPGGA,081144,2518.8163,N,07952.7048,W,1,9,1.8,14,M,,M,,*5D
06/25/2015	08:11:44.523	$GPGGA,081145,2518.8156,N,07952.7045,W,1,9,1.8,14,M,,M,,*57
06/25/2015	08:11:45.498	$GPGGA,081146,2518.8148,N,07952.7042,W,1,10,1.8,14,M,,M,,*64
