Software Version Number: 1	Data File Format Number: 1	Build Version Number: 1	Error Count Since VI Started: 1	Manufacturer: Raytheon	 Model Number: RayMarine 120	 S/N: 	 Cal Date: 	 Wind Direction Offset: 0.00	 Slope (M)1: 0.00	 Offset (B)1: 0.00	 Slope (M)2: 0.00	 Offset (B)2: 0.00	 Slope (M)3: 0.00	 Offset (B)3: 0.00	 Slope (M)4: 0.00	 Offset (B)4: 0.00	 Slope (M)5: 0.00	 Offset (B)5: 0.00	 Slope (M)6: 0.00	 Offset (B)6: 0.00
Computer Date	Computer Time	GGA String
06/18/2015	17:00:00.650	$GPGGA,170001,2546.4818,N,07925.2251,W,1,10,1.4,18,M,,M,,*67
06/18/2015	17:00:01.660	$GPGGA,170002,2546.4824,N,07925.2246,W,1,10,1.4,18,M,,M,,*6D
06/18/2015	17:00:02.540	$GPGGA,170003,2546.4828,N,07925.2241,W,1,10,1.4,18,M,,M,,*67
06/18/2015	17:00:03.580	$GPGGA,170004,2546.4836,N,07925.2235,W,1,10,1.4,19,M,,M,,*6D
06/18/2015	17:00:04.530	$GPGGA,170005,2546.4841,N,07925.2229,W,1,10,1.4,19,M,,M,,*61
06/18/2015	17:00:05.540	$GPGGA,170006,2546.4845,N,07925.2225,W,1,10,1.4,19,M,,M,,*6A
06/18/2015	17:00:06.610	$GPGGA,170007,2546.4854,N,07925.2216,W,1,10,1.7,19,M,,M,,*68
06/18/2015	17:00:07.540	$GPGGA,170008,2546.4861,N,07925.2209,W,1,10,1.4,19,M,,M,,*6C
06/18/2015	17:00:08.520	$GPGGA,170009,2546.4865,N,07925.2204,W,1,10,1.4,19,M,,M,,*64
06/18/2015	17:00:09.530	$GPGGA,170010,2546.4871,N,07925.2199,W,1,10,1.4,19,M,,M,,*6E
06/18/2015	17:00:10.510	$GPGGA,170011,2546.4876,N,07925.2195,W,1,10,1.4,19,M,,M,,*64
06/18/2015	17:00:11.561	$GPGGA,170012,2546.4882,N,07925.2191,W,1,9,1.7,19,M,,M,,*53
06/18/2015	17:00:12.501	$GPGGA,170013,2546.4888,N,07925.2187,W,1,9,1.4,19,M,,M,,*5C
06/18/2015	17:00:13.602	$GPGGA,170014,2546.4893,N,07925.2182,W,1,10,1.4,19,M,,M,,*6C
06/18/2015	17:00:14.602	$GPGGA,170015,2546.4896,N,07925.2181,W,1,10,2.1,19,M,,M,,*6D
06/18/2015	17:00:15.521	$GPGGA,170016,2546.4901,N,07925.2178,W,1,9,1.7,19,M,,M,,*5A
06/18/2015	17:00:16.590	$GPGGA,170017,2546.4906,N,07925.2175,W,1,9,1.4,19,M,,M,,*52
06/18/2015	17:00:17.620	$GPGGA,170018,2546.4911,N,07925.2173,W,1,10,1.4,19,M,,M,,*65
06/18/2015	17:00:18.590	$GPGGA,170019,2546.4917,N,07925.2169,W,1,10,1.4,19,M,,M,,*69
06/18/2015	17:00:19.640	$GPGGA,170020,2546.4922,N,07925.2166,W,1,10,1.4,19,M,,M,,*6A
06/18/2015	17:00:20.590	$GPGGA,170021,2546.4928,N,07925.2163,W,1,10,1.4,19,M,,M,,*64
06/18/2015	17:00:21.590	$GPGGA,170022,2546.4932,N,07925.2156,W,1,9,1.8,19,M,,M,,*5E
06/18/2015	17:00:22.590	$GPGGA,170023,2546.4936,N,07925.2149,W,1,9,1.4,19,M,,M,,*59
06/18/2015	17:00:23.610	$GPGGA,170024,2546.4941,N,07925.2145,W,1,10,1.4,19,M,,M,,*6A
06/18/2015	17:00:24.570	$GPGGA,170025,2546.4948,N,07925.2140,W,1,10,1.4,19,M,,M,,*67
06/18/2015	17:00:25.600	$GPGGA,170026,2546.4954,N,07925.2136,W,1,10,1.4,19,M,,M,,*68
06/18/2015	17:00:26.580	$GPGGA,170027,2546.4959,N,07925.2132,W,1,10,1.4,19,M,,M,,*60
06/18/2015	17:00:27.620	$GPGGA,170028,2546.4966,N,07925.2128,W,1,10,1.4,19,M,,M,,*68
06/18/2015	17:00:28.571	$GPGGA,170029,2546.4973,N,07925.2124,W,1,10,1.4,19,M,,M,,*61
06/18/2015	17:00:29.591	$GPGGA,170030,2546.4980,N,07925.2121,W,1,9,1.9,19,M,,M,,*55
06/18/2015	17:00:30.571	$GPGGA,170031,2546.4987,N,07925.2117,W,1,9,1.9,19,M,,M,,*56
06/18/2015	17:00:31.601	$GPGGA,170032,2546.4993,N,07925.2113,W,1,9,1.9,19,M,,M,,*54
06/18/2015	17:00:32.571	$GPGGA,170033,2546.4998,N,07925.2110,W,1,9,1.9,19,M,,M,,*5D
06/18/2015	17:00:33.550	$GPGGA,170034,2546.5005,N,07925.2106,W,1,9,1.9,19,M,,M,,*51
06/18/2015	17:00:34.560	$GPGGA,170035,2546.5012,N,07925.2103,W,1,9,1.9,19,M,,M,,*53
06/18/2015	17:00:35.590	$GPGGA,170036,2546.5016,N,07925.2096,W,1,9,1.9,19,M,,M,,*59
06/18/2015	17:00:36.561	$GPGGA,170037,2546.5023,N,07925.2090,W,1,9,1.4,19,M,,M,,*55
06/18/2015	17:00:37.600	$GPGGA,170038,2546.5027,N,07925.2087,W,1,10,1.4,19,M,,M,,*60
06/18/2015	17:00:38.550	$GPGGA,170039,2546.5034,N,07925.2083,W,1,10,1.9,18,M,,M,,*6B
06/18/2015	17:00:39.590	$GPGGA,170040,2546.5042,N,07925.2078,W,1,9,1.9,18,M,,M,,*58
06/18/2015	17:00:40.550	$GPGGA,170041,2546.5048,N,07925.2074,W,1,9,1.4,18,M,,M,,*52
06/18/2015	17:00:41.860	$GPGGA,170042,2546.5052,N,07925.2069,W,1,10,1.4,18,M,,M,,*6E
06/18/2015	17:00:42.530	$GPGGA,170043,2546.5060,N,07925.2065,W,1,10,1.4,18,M,,M,,*62
06/18/2015	17:00:43.560	$GPGGA,170044,2546.5067,N,07925.2061,W,1,9,1.9,18,M,,M,,*53
06/18/2015	17:00:44.530	$GPGGA,170045,2546.5073,N,07925.2058,W,1,9,1.9,18,M,,M,,*5D
06/18/2015	17:00:45.540	$GPGGA,170046,2546.5078,N,07925.2054,W,1,9,1.9,18,M,,M,,*59
06/18/2015	17:00:46.531	$GPGGA,170047,2546.5085,N,07925.2049,W,1,9,1.4,18,M,,M,,*5B
06/18/2015	17:00:47.541	$GPGGA,170048,2546.5092,N,07925.2045,W,1,10,1.4,18,M,,M,,*66
06/18/2015	17:00:48.521	$GPGGA,170049,2546.5098,N,07925.2041,W,1,10,1.4,18,M,,M,,*69
06/18/2015	17:00:49.641	$GPGGA,170050,2546.5105,N,07925.2037,W,1,9,1.9,18,M,,M,,*50
06/18/2015	17:00:50.521	$GPGGA,170051,2546.5112,N,07925.2033,W,1,9,1.9,17,M,,M,,*5C
06/18/2015	17:00:51.560	$GPGGA,170052,2546.5117,N,07925.2029,W,1,9,1.9,17,M,,M,,*51
06/18/2015	17:00:52.640	$GPGGA,170053,2546.5124,N,07925.2025,W,1,9,1.9,17,M,,M,,*5C
06/18/2015	17:00:53.640	$GPGGA,170054,2546.5131,N,07925.2021,W,1,9,1.9,17,M,,M,,*5B
06/18/2015	17:00:54.520	$GPGGA,170055,2546.5136,N,07925.2017,W,1,9,1.9,17,M,,M,,*58
06/18/2015	17:00:55.660	$GPGGA,170056,2546.5143,N,07925.2013,W,1,9,1.9,17,M,,M,,*5D
06/18/2015	17:00:56.513	$GPGGA,170057,2546.5150,N,07925.2009,W,1,9,1.9,17,M,,M,,*55
06/18/2015	17:00:57.530	$GPGGA,170058,2546.5157,N,07925.2005,W,1,9,1.9,17,M,,M,,*51
06/18/2015	17:00:58.520	$GPGGA,170059,2546.5163,N,07925.2000,W,1,9,1.9,17,M,,M,,*52
06/18/2015	17:00:59.560	$GPGGA,170100,2546.5170,N,07925.1995,W,1,9,1.9,16,M,,M,,*5A
06/18/2015	17:01:00.600	$GPGGA,170101,2546.5175,N,07925.1989,W,1,9,1.9,16,M,,M,,*53
06/18/2015	17:01:01.920	$GPGGA,170102,2546.5181,N,07925.1981,W,1,10,1.4,16,M,,M,,*66
06/18/2015	17:01:02.620	$GPGGA,170103,2546.5186,N,07925.1975,W,1,10,1.4,16,M,,M,,*6B
06/18/2015	17:01:03.611	$GPGGA,170104,2546.5190,N,07925.1968,W,1,10,1.4,16,M,,M,,*67
06/18/2015	17:01:05.621	$GPGGA,170106,2546.5201,N,07925.1956,W,1,10,1.4,16,M,,M,,*63
06/18/2015	17:01:06.591	$GPGGA,170107,2546.5208,N,07925.1950,W,1,10,1.4,17,M,,M,,*6C
06/18/2015	17:01:07.611	$GPGGA,170108,2546.5214,N,07925.1945,W,1,10,1.4,17,M,,M,,*6A
06/18/2015	17:01:08.590	$GPGGA,170109,2546.5219,N,07925.1940,W,1,10,1.4,17,M,,M,,*63
06/18/2015	17:01:09.580	$GPGGA,170110,2546.5226,N,07925.1934,W,1,10,1.4,17,M,,M,,*64
06/18/2015	17:01:10.580	$GPGGA,170111,2546.5233,N,07925.1929,W,1,10,1.5,17,M,,M,,*6C
06/18/2015	17:01:11.620	$GPGGA,170112,2546.5239,N,07925.1924,W,1,10,1.5,17,M,,M,,*68
06/18/2015	17:01:12.580	$GPGGA,170113,2546.5244,N,07925.1920,W,1,10,1.5,17,M,,M,,*67
06/18/2015	17:01:13.590	$GPGGA,170114,2546.5251,N,07925.1915,W,1,9,1.7,17,M,,M,,*58
06/18/2015	17:01:14.570	$GPGGA,170115,2546.5257,N,07925.1911,W,1,9,1.5,17,M,,M,,*59
06/18/2015	17:01:15.600	$GPGGA,170116,2546.5262,N,07925.1908,W,1,10,1.5,17,M,,M,,*6C
06/18/2015	17:01:16.570	$GPGGA,170117,2546.5269,N,07925.1904,W,1,10,1.5,17,M,,M,,*6A
06/18/2015	17:01:17.580	$GPGGA,170118,2546.5275,N,07925.1899,W,1,10,1.5,18,M,,M,,*62
06/18/2015	17:01:18.570	$GPGGA,170119,2546.5280,N,07925.1894,W,1,10,1.7,18,M,,M,,*66
06/18/2015	17:01:19.590	$GPGGA,170120,2546.5287,N,07925.1890,W,1,9,1.7,18,M,,M,,*57
06/18/2015	17:01:20.560	$GPGGA,170121,2546.5294,N,07925.1885,W,1,9,1.7,18,M,,M,,*50
06/18/2015	17:01:21.581	$GPGGA,170122,2546.5301,N,07925.1881,W,1,10,1.5,18,M,,M,,*60
06/18/2015	17:01:22.551	$GPGGA,170123,2546.5305,N,07925.1876,W,1,10,1.7,18,M,,M,,*6F
06/18/2015	17:01:23.591	$GPGGA,170124,2546.5313,N,07925.1871,W,1,9,1.7,18,M,,M,,*50
06/18/2015	17:01:24.561	$GPGGA,170125,2546.5320,N,07925.1865,W,1,9,1.7,18,M,,M,,*54
06/18/2015	17:01:25.571	$GPGGA,170126,2546.5326,N,07925.1860,W,1,10,1.5,18,M,,M,,*6E
06/18/2015	17:01:26.560	$GPGGA,170127,2546.5331,N,07925.1858,W,1,10,1.7,18,M,,M,,*60
06/18/2015	17:01:27.590	$GPGGA,170128,2546.5338,N,07925.1853,W,1,10,1.5,18,M,,M,,*6F
06/18/2015	17:01:28.550	$GPGGA,170129,2546.5341,N,07925.1849,W,1,10,1.5,18,M,,M,,*6B
06/18/2015	17:01:29.540	$GPGGA,170130,2546.5348,N,07925.1845,W,1,10,1.5,18,M,,M,,*66
06/18/2015	17:01:30.550	$GPGGA,170131,2546.5354,N,07925.1840,W,1,10,1.5,18,M,,M,,*6F
06/18/2015	17:01:31.570	$GPGGA,170132,2546.5359,N,07925.1836,W,1,10,1.5,18,M,,M,,*60
06/18/2015	17:01:32.540	$GPGGA,170133,2546.5365,N,07925.1832,W,1,10,1.5,18,M,,M,,*6A
06/18/2015	17:01:33.580	$GPGGA,170134,2546.5372,N,07925.1827,W,1,10,1.5,18,M,,M,,*6F
06/18/2015	17:01:34.550	$GPGGA,170135,2546.5378,N,07925.1823,W,1,10,1.5,18,M,,M,,*60
06/18/2015	17:01:35.540	$GPGGA,170136,2546.5384,N,07925.1819,W,1,10,1.5,18,M,,M,,*69
06/18/2015	17:01:36.540	$GPGGA,170137,2546.5391,N,07925.1816,W,1,10,1.9,18,M,,M,,*6F
06/18/2015	17:01:37.560	$GPGGA,170138,2546.5398,N,07925.1812,W,1,9,1.9,18,M,,M,,*55
06/18/2015	17:01:38.641	$GPGGA,170139,2546.5403,N,07925.1808,W,1,9,1.9,18,M,,M,,*5A
06/18/2015	17:01:39.581	$GPGGA,170140,2546.5410,N,07925.1803,W,1,9,1.9,18,M,,M,,*5D
06/18/2015	17:01:40.531	$GPGGA,170141,2546.5417,N,07925.1798,W,1,9,1.9,18,M,,M,,*56
06/18/2015	17:01:41.611	$GPGGA,170142,2546.5424,N,07925.1792,W,1,10,1.5,18,M,,M,,*6B
06/18/2015	17:01:42.521	$GPGGA,170143,2546.5428,N,07925.1786,W,1,10,1.5,18,M,,M,,*63
06/18/2015	17:01:43.650	$GPGGA,170144,2546.5435,N,07925.1781,W,1,10,1.5,18,M,,M,,*6F
06/18/2015	17:01:44.520	$GPGGA,170145,2546.5441,N,07925.1776,W,1,10,1.7,18,M,,M,,*67
06/18/2015	17:01:45.630	$GPGGA,170146,2546.5448,N,07925.1772,W,1,10,1.5,18,M,,M,,*6B
06/18/2015	17:01:46.610	$GPGGA,170147,2546.5453,N,07925.1768,W,1,10,1.9,18,M,,M,,*67
06/18/2015	17:01:47.510	$GPGGA,170148,2546.5460,N,07925.1762,W,1,10,1.5,18,M,,M,,*6E
06/18/2015	17:01:48.600	$GPGGA,170149,2546.5466,N,07925.1756,W,1,10,1.5,18,M,,M,,*6E
06/18/2015	17:01:49.520	$GPGGA,170150,2546.5471,N,07925.1751,W,1,10,1.5,18,M,,M,,*67
06/18/2015	17:01:50.590	$GPGGA,170151,2546.5479,N,07925.1747,W,1,10,1.5,18,M,,M,,*69
06/18/2015	17:01:51.601	$GPGGA,170152,2546.5486,N,07925.1743,W,1,9,1.9,18,M,,M,,*5A
06/18/2015	17:01:52.590	$GPGGA,170153,2546.5492,N,07925.1736,W,1,9,1.9,18,M,,M,,*5C
06/18/2015	17:01:53.610	$GPGGA,170154,2546.5497,N,07925.1730,W,1,10,1.5,18,M,,M,,*6C
06/18/2015	17:01:54.590	$GPGGA,170155,2546.5503,N,07925.1724,W,1,10,1.5,18,M,,M,,*64
06/18/2015	17:01:55.650	$GPGGA,170156,2546.5508,N,07925.1718,W,1,10,1.5,18,M,,M,,*63
06/18/2015	17:01:56.591	$GPGGA,170157,2546.5515,N,07925.1713,W,1,10,1.5,18,M,,M,,*65
06/18/2015	17:01:57.611	$GPGGA,170158,2546.5522,N,07925.1709,W,1,10,1.5,18,M,,M,,*65
06/18/2015	17:01:58.593	$GPGGA,170159,2546.5529,N,07925.1705,W,1,10,1.9,18,M,,M,,*6F
06/18/2015	17:01:59.621	$GPGGA,170200,2546.5536,N,07925.1701,W,1,10,1.5,18,M,,M,,*66
06/18/2015	17:02:00.581	$GPGGA,170201,2546.5543,N,07925.1695,W,1,10,1.5,18,M,,M,,*69
06/18/2015	17:02:01.590	$GPGGA,170202,2546.5549,N,07925.1690,W,1,10,1.5,18,M,,M,,*65
06/18/2015	17:02:02.590	$GPGGA,170203,2546.5555,N,07925.1685,W,1,10,1.5,18,M,,M,,*6D
06/18/2015	17:02:03.630	$GPGGA,170204,2546.5562,N,07925.1681,W,1,10,1.5,18,M,,M,,*6A
06/18/2015	17:02:04.560	$GPGGA,170205,2546.5569,N,07925.1676,W,1,10,1.9,18,M,,M,,*64
06/18/2015	17:02:05.590	$GPGGA,170206,2546.5576,N,07925.1673,W,1,9,1.9,18,M,,M,,*54
06/18/2015	17:02:06.560	$GPGGA,170207,2546.5582,N,07925.1669,W,1,9,1.9,18,M,,M,,*55
06/18/2015	17:02:07.560	$GPGGA,170208,2546.5589,N,07925.1663,W,1,9,1.9,18,M,,M,,*5B
06/18/2015	17:02:08.540	$GPGGA,170209,2546.5594,N,07925.1658,W,1,9,1.5,17,M,,M,,*5D
06/18/2015	17:02:09.550	$GPGGA,170210,2546.5601,N,07925.1654,W,1,10,1.5,17,M,,M,,*6E
06/18/2015	17:02:10.551	$GPGGA,170211,2546.5608,N,07925.1649,W,1,10,1.9,17,M,,M,,*66
06/18/2015	17:02:11.580	$GPGGA,170212,2546.5615,N,07925.1643,W,1,10,1.5,17,M,,M,,*6F
06/18/2015	17:02:12.550	$GPGGA,170213,2546.5620,N,07925.1639,W,1,10,1.5,17,M,,M,,*65
06/18/2015	17:02:13.540	$GPGGA,170214,2546.5627,N,07925.1635,W,1,9,1.9,17,M,,M,,*5D
06/18/2015	17:02:14.550	$GPGGA,170215,2546.5634,N,07925.1629,W,1,9,1.5,17,M,,M,,*5F
06/18/2015	17:02:15.540	$GPGGA,170216,2546.5641,N,07925.1624,W,1,10,1.5,17,M,,M,,*6B
06/18/2015	17:02:16.550	$GPGGA,170217,2546.5645,N,07925.1618,W,1,10,1.5,17,M,,M,,*61
06/18/2015	17:02:17.560	$GPGGA,170218,2546.5651,N,07925.1615,W,1,9,1.7,17,M,,M,,*5C
06/18/2015	17:02:18.529	$GPGGA,170219,2546.5656,N,07925.1611,W,1,9,1.5,17,M,,M,,*5C
06/18/2015	17:02:19.539	$GPGGA,170220,2546.5662,N,07925.1606,W,1,10,1.5,17,M,,M,,*6F
06/18/2015	17:02:20.539	$GPGGA,170221,2546.5667,N,07925.1602,W,1,10,1.5,17,M,,M,,*6F
06/18/2015	17:02:21.539	$GPGGA,170222,2546.5674,N,07925.1597,W,1,10,1.5,17,M,,M,,*61
06/18/2015	17:02:22.529	$GPGGA,170223,2546.5681,N,07925.1591,W,1,10,1.5,17,M,,M,,*6C
06/18/2015	17:02:23.560	$GPGGA,170224,2546.5687,N,07925.1587,W,1,9,1.7,17,M,,M,,*50
06/18/2015	17:02:24.520	$GPGGA,170225,2546.5694,N,07925.1582,W,1,9,1.9,17,M,,M,,*58
06/18/2015	17:02:25.560	$GPGGA,170226,2546.5701,N,07925.1576,W,1,9,1.7,17,M,,M,,*53
06/18/2015	17:02:26.630	$GPGGA,170227,2546.5706,N,07925.1571,W,1,9,1.7,17,M,,M,,*52
06/18/2015	17:02:27.570	$GPGGA,170228,2546.5713,N,07925.1565,W,1,9,1.7,17,M,,M,,*5C
06/18/2015	17:02:28.510	$GPGGA,170229,2546.5720,N,07925.1560,W,1,9,1.7,17,M,,M,,*58
06/18/2015	17:02:29.640	$GPGGA,170230,2546.5727,N,07925.1557,W,1,8,1.5,17,M,,M,,*50
06/18/2015	17:02:30.490	$GPGGA,170231,2546.5732,N,07925.1554,W,1,8,1.5,17,M,,M,,*56
06/18/2015	17:02:31.660	$GPGGA,170232,2546.5738,N,07925.1549,W,1,10,1.5,17,M,,M,,*6A
06/18/2015	17:02:32.510	$GPGGA,170233,2546.5745,N,07925.1544,W,1,10,1.5,17,M,,M,,*6C
06/18/2015	17:02:33.510	$GPGGA,170234,2546.5750,N,07925.1539,W,1,10,1.5,17,M,,M,,*65
06/18/2015	17:02:34.600	$GPGGA,170235,2546.5756,N,07925.1534,W,1,10,1.7,17,M,,M,,*6D
06/18/2015	17:02:35.500	$GPGGA,170236,2546.5763,N,07925.1528,W,1,9,1.7,17,M,,M,,*5D
06/18/2015	17:02:36.599	$GPGGA,170237,2546.5768,N,07925.1523,W,1,9,1.5,17,M,,M,,*5E
06/18/2015	17:02:37.629	$GPGGA,170238,2546.5773,N,07925.1518,W,1,10,1.5,17,M,,M,,*6B
06/18/2015	17:02:38.499	$GPGGA,170239,2546.5779,N,07925.1514,W,1,10,1.5,17,M,,M,,*6C
06/18/2015	17:02:39.619	$GPGGA,170240,2546.5785,N,07925.1510,W,1,10,1.5,17,M,,M,,*65
06/18/2015	17:02:40.500	$GPGGA,170241,2546.5792,N,07925.1506,W,1,10,1.5,17,M,,M,,*65
06/18/2015	17:02:41.591	$GPGGA,170242,2546.5797,N,07925.1501,W,1,9,2.1,17,M,,M,,*5B
06/18/2015	17:02:42.580	$GPGGA,170243,2546.5804,N,07925.1492,W,1,9,1.5,17,M,,M,,*53
06/18/2015	17:02:43.630	$GPGGA,170244,2546.5811,N,07925.1486,W,1,10,1.5,17,M,,M,,*6D
06/18/2015	17:02:44.580	$GPGGA,170245,2546.5818,N,07925.1481,W,1,10,1.5,17,M,,M,,*62
06/18/2015	17:02:45.590	$GPGGA,170246,2546.5825,N,07925.1476,W,1,10,1.5,17,M,,M,,*67
06/18/2015	17:02:46.580	$GPGGA,170247,2546.5832,N,07925.1471,W,1,10,1.5,16,M,,M,,*66
06/18/2015	17:02:47.630	$GPGGA,170248,2546.5837,N,07925.1467,W,1,10,1.5,16,M,,M,,*6B
06/18/2015	17:02:48.580	$GPGGA,170249,2546.5843,N,07925.1461,W,1,10,1.5,16,M,,M,,*6F
06/18/2015	17:02:49.591	$GPGGA,170250,2546.5850,N,07925.1456,W,1,10,1.5,16,M,,M,,*61
06/18/2015	17:02:50.560	$GPGGA,170251,2546.5855,N,07925.1450,W,1,10,1.5,16,M,,M,,*63
06/18/2015	17:02:51.650	$GPGGA,170252,2546.5861,N,07925.1447,W,1,10,1.9,16,M,,M,,*6D
06/18/2015	17:02:52.560	$GPGGA,170253,2546.5868,N,07925.1442,W,1,10,2.2,16,M,,M,,*68
06/18/2015	17:02:53.589	$GPGGA,170254,2546.5875,N,07925.1438,W,1,8,1.9,16,M,,M,,*5F
06/18/2015	17:02:54.559	$GPGGA,170255,2546.5880,N,07925.1434,W,1,8,2.2,16,M,,M,,*50
06/18/2015	17:02:55.599	$GPGGA,170256,2546.5887,N,07925.1429,W,1,8,1.9,16,M,,M,,*50
06/18/2015	17:02:56.559	$GPGGA,170257,2546.5894,N,07925.1423,W,1,8,1.9,16,M,,M,,*59
06/18/2015	17:02:57.539	$GPGGA,170258,2546.5901,N,07925.1418,W,1,9,2.1,16,M,,M,,*59
06/18/2015	17:02:58.550	$GPGGA,170259,2546.5905,N,07925.1415,W,1,9,2.2,16,M,,M,,*52
06/18/2015	17:02:59.591	$GPGGA,170300,2546.5912,N,07925.1410,W,1,8,1.5,16,M,,M,,*59
06/18/2015	17:03:00.550	$GPGGA,170301,2546.5918,N,07925.1405,W,1,8,1.5,16,M,,M,,*56
06/18/2015	17:03:01.530	$GPGGA,170302,2546.5923,N,07925.1398,W,1,10,1.5,16,M,,M,,*67
06/18/2015	17:03:02.550	$GPGGA,170303,2546.5929,N,07925.1393,W,1,10,1.5,16,M,,M,,*67
06/18/2015	17:03:03.560	$GPGGA,170304,2546.5936,N,07925.1386,W,1,10,1.5,17,M,,M,,*6B
06/18/2015	17:03:04.540	$GPGGA,170305,2546.5941,N,07925.1381,W,1,10,1.5,17,M,,M,,*6D
06/18/2015	17:03:05.570	$GPGGA,170306,2546.5945,N,07925.1375,W,1,10,1.5,17,M,,M,,*61
06/18/2015	17:03:06.530	$GPGGA,170307,2546.5952,N,07925.1368,W,1,10,1.5,17,M,,M,,*6A
06/18/2015	17:03:07.601	$GPGGA,170308,2546.5959,N,07925.1361,W,1,10,1.5,17,M,,M,,*67
06/18/2015	17:03:08.520	$GPGGA,170309,2546.5965,N,07925.1355,W,1,10,1.5,17,M,,M,,*6E
06/18/2015	17:03:09.560	$GPGGA,170310,2546.5970,N,07925.1350,W,1,10,2.0,18,M,,M,,*6E
06/18/2015	17:03:10.540	$GPGGA,170311,2546.5974,N,07925.1344,W,1,10,1.5,18,M,,M,,*68
06/18/2015	17:03:11.569	$GPGGA,170312,2546.5983,N,07925.1341,W,1,10,1.5,18,M,,M,,*66
06/18/2015	17:03:12.519	$GPGGA,170313,2546.5988,N,07925.1337,W,1,10,1.5,18,M,,M,,*6D
06/18/2015	17:03:13.629	$GPGGA,170314,2546.5992,N,07925.1332,W,1,10,1.9,18,M,,M,,*68
06/18/2015	17:03:14.629	$GPGGA,170315,2546.5999,N,07925.1327,W,1,10,1.5,18,M,,M,,*6A
06/18/2015	17:03:15.619	$GPGGA,170316,2546.6006,N,07925.1322,W,1,10,1.5,18,M,,M,,*60
06/18/2015	17:03:16.540	$GPGGA,170317,2546.6010,N,07925.1317,W,1,10,1.5,19,M,,M,,*61
06/18/2015	17:03:17.610	$GPGGA,170318,2546.6017,N,07925.1311,W,1,10,1.5,19,M,,M,,*6F
06/18/2015	17:03:18.640	$GPGGA,170319,2546.6024,N,07925.1305,W,1,10,1.9,19,M,,M,,*67
06/18/2015	17:03:19.630	$GPGGA,170320,2546.6030,N,07925.1300,W,1,9,1.9,19,M,,M,,*55
06/18/2015	17:03:20.530	$GPGGA,170321,2546.6035,N,07925.1295,W,1,9,1.9,19,M,,M,,*5C
06/18/2015	17:03:21.500	$GPGGA,170322,2546.6042,N,07925.1289,W,1,9,1.9,19,M,,M,,*52
06/18/2015	17:03:22.600	$GPGGA,170323,2546.6049,N,07925.1283,W,1,9,1.9,19,M,,M,,*52
06/18/2015	17:03:23.620	$GPGGA,170324,2546.6053,N,07925.1276,W,1,9,1.5,19,M,,M,,*58
06/18/2015	17:03:24.591	$GPGGA,170325,2546.6059,N,07925.1268,W,1,9,1.5,19,M,,M,,*5C
06/18/2015	17:03:25.500	$GPGGA,170326,2546.6064,N,07925.1261,W,1,10,1.5,19,M,,M,,*60
06/18/2015	17:03:26.590	$GPGGA,170327,2546.6070,N,07925.1255,W,1,10,1.5,19,M,,M,,*63
06/18/2015	17:03:27.620	$GPGGA,170328,2546.6075,N,07925.1249,W,1,10,1.5,19,M,,M,,*64
06/18/2015	17:03:28.579	$GPGGA,170329,2546.6081,N,07925.1242,W,1,10,1.5,19,M,,M,,*65
06/18/2015	17:03:29.609	$GPGGA,170330,2546.6086,N,07925.1235,W,1,10,1.5,19,M,,M,,*6A
06/18/2015	17:03:30.591	$GPGGA,170331,2546.6092,N,07925.1229,W,1,10,1.5,19,M,,M,,*63
06/18/2015	17:03:31.591	$GPGGA,170332,2546.6096,N,07925.1224,W,1,9,1.5,19,M,,M,,*51
06/18/2015	17:03:32.590	$GPGGA,170333,2546.6103,N,07925.1219,W,1,9,1.5,19,M,,M,,*53
06/18/2015	17:03:33.600	$GPGGA,170334,2546.6107,N,07925.1214,W,1,10,1.5,19,M,,M,,*65
06/18/2015	17:03:34.570	$GPGGA,170335,2546.6113,N,07925.1208,W,1,10,1.5,19,M,,M,,*6C
06/18/2015	17:03:35.600	$GPGGA,170336,2546.6118,N,07925.1202,W,1,10,1.5,19,M,,M,,*6E
06/18/2015	17:03:36.570	$GPGGA,170337,2546.6125,N,07925.1196,W,1,10,1.5,19,M,,M,,*6F
06/18/2015	17:03:37.590	$GPGGA,170338,2546.6129,N,07925.1189,W,1,10,1.5,20,M,,M,,*68
06/18/2015	17:03:38.570	$GPGGA,170339,2546.6129,N,07925.1189,W,1,10,1.5,20,M,,M,,*69
06/18/2015	17:03:39.610	$GPGGA,170340,2546.6140,N,07925.1177,W,1,10,1.5,20,M,,M,,*69
06/18/2015	17:03:40.561	$GPGGA,170341,2546.6147,N,07925.1172,W,1,10,1.5,20,M,,M,,*6A
06/18/2015	17:03:41.550	$GPGGA,170342,2546.6151,N,07925.1166,W,1,9,1.7,20,M,,M,,*51
06/18/2015	17:03:42.560	$GPGGA,170343,2546.6158,N,07925.1160,W,1,9,1.7,20,M,,M,,*5F
06/18/2015	17:03:43.580	$GPGGA,170344,2546.6164,N,07925.1155,W,1,9,1.7,20,M,,M,,*51
06/18/2015	17:03:44.550	$GPGGA,170345,2546.6167,N,07925.1153,W,1,9,1.5,20,M,,M,,*57
06/18/2015	17:03:45.580	$GPGGA,170346,2546.6172,N,07925.1149,W,1,10,1.5,20,M,,M,,*63
06/18/2015	17:03:46.549	$GPGGA,170347,2546.6176,N,07925.1142,W,1,10,1.5,20,M,,M,,*6D
06/18/2015	17:03:47.589	$GPGGA,170348,2546.6183,N,07925.1136,W,1,10,1.5,20,M,,M,,*6B
06/18/2015	17:03:48.549	$GPGGA,170349,2546.6187,N,07925.1129,W,1,10,1.5,20,M,,M,,*60
06/18/2015	17:03:49.570	$GPGGA,170350,2546.6194,N,07925.1123,W,1,10,1.5,20,M,,M,,*60
06/18/2015	17:03:50.549	$GPGGA,170351,2546.6200,N,07925.1116,W,1,10,1.5,20,M,,M,,*69
06/18/2015	17:03:51.571	$GPGGA,170352,2546.6205,N,07925.1109,W,1,10,1.5,20,M,,M,,*61
06/18/2015	17:03:52.540	$GPGGA,170353,2546.6211,N,07925.1103,W,1,10,1.5,20,M,,M,,*6F
06/18/2015	17:03:53.520	$GPGGA,170354,2546.6216,N,07925.1097,W,1,10,1.5,20,M,,M,,*63
06/18/2015	17:03:54.530	$GPGGA,170355,2546.6223,N,07925.1090,W,1,10,1.5,20,M,,M,,*63
06/18/2015	17:03:55.591	$GPGGA,170356,2546.6229,N,07925.1084,W,1,10,1.5,20,M,,M,,*6F
06/18/2015	17:03:56.520	$GPGGA,170357,2546.6234,N,07925.1079,W,1,10,1.5,20,M,,M,,*60
06/18/2015	17:03:57.540	$GPGGA,170358,2546.6240,N,07925.1069,W,1,9,1.9,20,M,,M,,*59
06/18/2015	17:03:58.530	$GPGGA,170359,2546.6245,N,07925.1062,W,1,9,1.5,20,M,,M,,*5A
06/18/2015	17:03:59.580	$GPGGA,170400,2546.6252,N,07925.1057,W,1,10,1.5,20,M,,M,,*69
06/18/2015	17:04:00.520	$GPGGA,170401,2546.6258,N,07925.1052,W,1,10,1.5,20,M,,M,,*67
06/18/2015	17:04:01.630	$GPGGA,170402,2546.6265,N,07925.1046,W,1,9,1.9,20,M,,M,,*5B
06/18/2015	17:04:02.500	$GPGGA,170403,2546.6272,N,07925.1041,W,1,9,1.9,20,M,,M,,*5B
06/18/2015	17:04:03.529	$GPGGA,170404,2546.6277,N,07925.1033,W,1,9,1.9,20,M,,M,,*5C
06/18/2015	17:04:04.509	$GPGGA,170405,2546.6281,N,07925.1025,W,1,9,1.5,20,M,,M,,*5F
06/18/2015	17:04:05.609	$GPGGA,170406,2546.6287,N,07925.1018,W,1,10,1.5,20,M,,M,,*6C
06/18/2015	17:04:06.509	$GPGGA,170407,2546.6292,N,07925.1011,W,1,10,1.5,20,M,,M,,*60
06/18/2015	17:04:07.529	$GPGGA,170408,2546.6299,N,07925.1004,W,1,10,1.5,20,M,,M,,*60
06/18/2015	17:04:08.500	$GPGGA,170409,2546.6303,N,07925.0997,W,1,10,1.5,20,M,,M,,*61
06/18/2015	17:04:09.530	$GPGGA,170410,2546.6310,N,07925.0993,W,1,10,1.5,20,M,,M,,*6F
06/18/2015	17:04:10.510	$GPGGA,170411,2546.6317,N,07925.0988,W,1,10,2.1,20,M,,M,,*64
06/18/2015	17:04:11.600	$GPGGA,170412,2546.6324,N,07925.0982,W,1,9,1.9,20,M,,M,,*5E
06/18/2015	17:04:12.593	$GPGGA,170413,2546.6331,N,07925.0977,W,1,9,2.1,20,M,,M,,*5A
06/18/2015	17:04:13.620	$GPGGA,170414,2546.6337,N,07925.0973,W,1,9,1.9,20,M,,M,,*54
06/18/2015	17:04:14.500	$GPGGA,170415,2546.6344,N,07925.0967,W,1,9,1.9,20,M,,M,,*54
06/18/2015	17:04:15.620	$GPGGA,170416,2546.6349,N,07925.0961,W,1,8,2.1,20,M,,M,,*56
06/18/2015	17:04:16.580	$GPGGA,170417,2546.6356,N,07925.0954,W,1,8,2.1,20,M,,M,,*5F
06/18/2015	17:04:17.940	$GPGGA,170418,2546.6362,N,07925.0948,W,1,9,1.7,20,M,,M,,*5E
06/18/2015	17:04:19.640	$GPGGA,170420,2546.6373,N,07925.0937,W,1,10,1.5,19,M,,M,,*6D
06/18/2015	17:04:20.569	$GPGGA,170421,2546.6377,N,07925.0932,W,1,10,1.5,19,M,,M,,*6D
06/18/2015	17:04:21.569	$GPGGA,170422,2546.6382,N,07925.0927,W,1,10,1.5,19,M,,M,,*60
06/18/2015	17:04:22.569	$GPGGA,170423,2546.6389,N,07925.0921,W,1,10,1.9,19,M,,M,,*60
06/18/2015	17:04:23.599	$GPGGA,170424,2546.6396,N,07925.0915,W,1,9,1.9,19,M,,M,,*56
06/18/2015	17:04:24.569	$GPGGA,170425,2546.6400,N,07925.0910,W,1,9,1.9,19,M,,M,,*5A
06/18/2015	17:04:25.591	$GPGGA,170426,2546.6407,N,07925.0904,W,1,9,1.9,19,M,,M,,*5B
06/18/2015	17:04:27.630	$GPGGA,170428,2546.6418,N,07925.0887,W,1,10,1.5,19,M,,M,,*65
06/18/2015	17:04:28.550	$GPGGA,170429,2546.6424,N,07925.0882,W,1,10,1.7,19,M,,M,,*6C
06/18/2015	17:04:29.570	$GPGGA,170430,2546.6429,N,07925.0877,W,1,8,2.0,19,M,,M,,*5E
06/18/2015	17:04:30.550	$GPGGA,170431,2546.6436,N,07925.0873,W,1,8,1.9,19,M,,M,,*5F
06/18/2015	17:04:31.591	$GPGGA,170432,2546.6440,N,07925.0871,W,1,10,1.5,19,M,,M,,*6A
06/18/2015	17:04:32.560	$GPGGA,170433,2546.6447,N,07925.0867,W,1,10,1.5,19,M,,M,,*6B
06/18/2015	17:04:33.570	$GPGGA,170434,2546.6453,N,07925.0862,W,1,10,1.5,19,M,,M,,*6C
06/18/2015	17:04:34.550	$GPGGA,170435,2546.6458,N,07925.0856,W,1,10,1.9,19,M,,M,,*6D
06/18/2015	17:04:35.590	$GPGGA,170436,2546.6464,N,07925.0850,W,1,9,1.9,19,M,,M,,*5F
06/18/2015	17:04:36.550	$GPGGA,170437,2546.6471,N,07925.0844,W,1,9,1.9,18,M,,M,,*5E
06/18/2015	17:04:37.570	$GPGGA,170438,2546.6476,N,07925.0839,W,1,9,1.9,18,M,,M,,*5C
06/18/2015	17:04:38.529	$GPGGA,170439,2546.6482,N,07925.0833,W,1,9,1.9,18,M,,M,,*5C
06/18/2015	17:04:39.539	$GPGGA,170440,2546.6487,N,07925.0827,W,1,9,1.9,18,M,,M,,*52
06/18/2015	17:04:40.539	$GPGGA,170441,2546.6494,N,07925.0821,W,1,9,1.9,18,M,,M,,*57
06/18/2015	17:04:41.549	$GPGGA,170442,2546.6500,N,07925.0815,W,1,8,2.1,18,M,,M,,*55
06/18/2015	17:04:42.539	$GPGGA,170443,2546.6505,N,07925.0810,W,1,8,1.5,18,M,,M,,*53
06/18/2015	17:04:43.540	$GPGGA,170444,2546.6508,N,07925.0805,W,1,10,1.5,18,M,,M,,*64
06/18/2015	17:04:44.540	$GPGGA,170445,2546.6514,N,07925.0798,W,1,10,1.5,18,M,,M,,*63
06/18/2015	17:04:45.520	$GPGGA,170446,2546.6519,N,07925.0793,W,1,10,1.5,18,M,,M,,*66
06/18/2015	17:04:46.530	$GPGGA,170447,2546.6523,N,07925.0787,W,1,10,1.5,18,M,,M,,*6B
06/18/2015	17:04:47.530	$GPGGA,170448,2546.6530,N,07925.0783,W,1,10,1.5,18,M,,M,,*62
06/18/2015	17:04:48.520	$GPGGA,170449,2546.6534,N,07925.0775,W,1,10,1.9,18,M,,M,,*62
06/18/2015	17:04:49.510	$GPGGA,170450,2546.6541,N,07925.0772,W,1,10,1.5,18,M,,M,,*63
06/18/2015	17:04:50.630	$GPGGA,170451,2546.6548,N,07925.0766,W,1,10,1.5,18,M,,M,,*6E
06/18/2015	17:04:51.560	$GPGGA,170452,2546.6552,N,07925.0762,W,1,10,1.5,18,M,,M,,*62
06/18/2015	17:04:52.520	$GPGGA,170453,2546.6559,N,07925.0755,W,1,10,1.5,18,M,,M,,*6C
06/18/2015	17:04:53.610	$GPGGA,170454,2546.6566,N,07925.0749,W,1,10,1.5,18,M,,M,,*6A
06/18/2015	17:04:54.510	$GPGGA,170455,2546.6570,N,07925.0744,W,1,10,1.5,18,M,,M,,*61
06/18/2015	17:04:55.510	$GPGGA,170456,2546.6577,N,07925.0739,W,1,10,1.5,18,M,,M,,*6F
06/18/2015	17:04:56.609	$GPGGA,170457,2546.6584,N,07925.0733,W,1,10,1.5,18,M,,M,,*68
06/18/2015	17:04:57.639	$GPGGA,170458,2546.6590,N,07925.0728,W,1,10,1.5,18,M,,M,,*68
06/18/2015	17:04:58.509	$GPGGA,170459,2546.6597,N,07925.0724,W,1,10,1.5,18,M,,M,,*62
06/18/2015	17:04:59.639	$GPGGA,170500,2546.6604,N,07925.0719,W,1,10,1.5,18,M,,M,,*68
06/18/2015	17:05:00.589	$GPGGA,170501,2546.6609,N,07925.0715,W,1,10,1.5,18,M,,M,,*68
06/18/2015	17:05:01.600	$GPGGA,170502,2546.6616,N,07925.0711,W,1,10,1.5,18,M,,M,,*61
06/18/2015	17:05:02.600	$GPGGA,170503,2546.6623,N,07925.0706,W,1,10,1.5,18,M,,M,,*60
06/18/2015	17:05:03.591	$GPGGA,170504,2546.6628,N,07925.0702,W,1,10,1.5,18,M,,M,,*68
06/18/2015	17:05:04.580	$GPGGA,170505,2546.6635,N,07925.0699,W,1,10,1.5,18,M,,M,,*66
06/18/2015	17:05:05.591	$GPGGA,170506,2546.6642,N,07925.0694,W,1,10,1.5,18,M,,M,,*68
06/18/2015	17:05:06.592	$GPGGA,170507,2546.6649,N,07925.0691,W,1,10,1.5,19,M,,M,,*66
06/18/2015	17:05:07.603	$GPGGA,170508,2546.6655,N,07925.0687,W,1,9,1.7,19,M,,M,,*59
06/18/2015	17:05:08.580	$GPGGA,170509,2546.6662,N,07925.0682,W,1,9,1.5,19,M,,M,,*5B
06/18/2015	17:05:09.630	$GPGGA,170510,2546.6669,N,07925.0679,W,1,10,1.5,19,M,,M,,*64
06/18/2015	17:05:10.570	$GPGGA,170511,2546.6675,N,07925.0677,W,1,10,1.8,19,M,,M,,*6B
06/18/2015	17:05:11.603	$GPGGA,170512,2546.6682,N,07925.0673,W,1,9,1.7,19,M,,M,,*53
06/18/2015	17:05:12.560	$GPGGA,170513,2546.6689,N,07925.0670,W,1,9,1.5,19,M,,M,,*58
06/18/2015	17:05:13.596	$GPGGA,170514,2546.6696,N,07925.0667,W,1,10,1.5,19,M,,M,,*6F
06/18/2015	17:05:14.569	$GPGGA,170515,2546.6703,N,07925.0664,W,1,10,1.5,19,M,,M,,*60
06/18/2015	17:05:15.592	$GPGGA,170516,2546.6710,N,07925.0661,W,1,9,1.7,19,M,,M,,*5E
06/18/2015	17:05:16.559	$GPGGA,170517,2546.6714,N,07925.0658,W,1,9,1.7,19,M,,M,,*51
06/18/2015	17:05:17.559	$GPGGA,170518,2546.6721,N,07925.0656,W,1,10,1.5,19,M,,M,,*6C
06/18/2015	17:05:18.560	$GPGGA,170519,2546.6729,N,07925.0652,W,1,10,1.6,19,M,,M,,*62
06/18/2015	17:05:19.560	$GPGGA,170520,2546.6735,N,07925.0650,W,1,9,1.7,19,M,,M,,*5E
06/18/2015	17:05:20.560	$GPGGA,170521,2546.6742,N,07925.0647,W,1,9,1.6,19,M,,M,,*58
06/18/2015	17:05:21.570	$GPGGA,170522,2546.6747,N,07925.0644,W,1,10,1.5,19,M,,M,,*66
06/18/2015	17:05:22.560	$GPGGA,170523,2546.6754,N,07925.0642,W,1,10,1.5,19,M,,M,,*63
06/18/2015	17:05:23.580	$GPGGA,170524,2546.6761,N,07925.0639,W,1,9,1.6,19,M,,M,,*55
06/18/2015	17:05:24.530	$GPGGA,170525,2546.6768,N,07925.0637,W,1,9,1.6,19,M,,M,,*53
06/18/2015	17:05:25.580	$GPGGA,170526,2546.6775,N,07925.0635,W,1,10,1.5,19,M,,M,,*65
06/18/2015	17:05:26.530	$GPGGA,170527,2546.6782,N,07925.0632,W,1,10,1.5,19,M,,M,,*6B
06/18/2015	17:05:27.570	$GPGGA,170528,2546.6790,N,07925.0630,W,1,10,1.5,19,M,,M,,*65
06/18/2015	17:05:28.540	$GPGGA,170529,2546.6796,N,07925.0627,W,1,10,1.5,19,M,,M,,*64
06/18/2015	17:05:30.559	$GPGGA,170531,2546.6810,N,07925.0622,W,1,10,1.5,20,M,,M,,*63
06/18/2015	17:05:31.549	$GPGGA,170532,2546.6816,N,07925.0620,W,1,10,1.5,20,M,,M,,*64
06/18/2015	17:05:32.539	$GPGGA,170533,2546.6823,N,07925.0617,W,1,10,1.5,20,M,,M,,*67
06/18/2015	17:05:33.559	$GPGGA,170534,2546.6830,N,07925.0615,W,1,10,1.5,20,M,,M,,*60
06/18/2015	17:05:34.539	$GPGGA,170535,2546.6837,N,07925.0612,W,1,10,1.5,20,M,,M,,*61
06/18/2015	17:05:35.692	$GPGGA,170536,2546.6843,N,07925.0610,W,1,10,1.5,20,M,,M,,*63
06/18/2015	17:05:36.530	$GPGGA,170537,2546.6848,N,07925.0609,W,1,10,1.5,20,M,,M,,*61
06/18/2015	17:05:37.530	$GPGGA,170538,2546.6855,N,07925.0606,W,1,10,1.5,20,M,,M,,*6D
06/18/2015	17:05:38.680	$GPGGA,170539,2546.6862,N,07925.0603,W,1,10,1.5,20,M,,M,,*6D
06/18/2015	17:05:39.520	$GPGGA,170540,2546.6869,N,07925.0601,W,1,10,1.5,20,M,,M,,*6A
06/18/2015	17:05:40.600	$GPGGA,170541,2546.6873,N,07925.0599,W,1,10,1.5,20,M,,M,,*62
06/18/2015	17:05:41.640	$GPGGA,170542,2546.6881,N,07925.0596,W,1,10,1.5,21,M,,M,,*62
06/18/2015	17:05:42.500	$GPGGA,170543,2546.6888,N,07925.0594,W,1,10,1.5,21,M,,M,,*68
06/18/2015	17:05:43.680	$GPGGA,170544,2546.6894,N,07925.0592,W,1,10,1.5,21,M,,M,,*64
06/18/2015	17:05:44.510	$GPGGA,170545,2546.6901,N,07925.0589,W,1,10,1.5,21,M,,M,,*62
06/18/2015	17:05:45.660	$GPGGA,170546,2546.6906,N,07925.0586,W,1,10,1.5,21,M,,M,,*69
06/18/2015	17:05:46.600	$GPGGA,170547,2546.6913,N,07925.0584,W,1,10,1.5,21,M,,M,,*6E
06/18/2015	17:05:47.601	$GPGGA,170548,2546.6920,N,07925.0581,W,1,10,1.5,21,M,,M,,*64
06/18/2015	17:05:48.669	$GPGGA,170549,2546.6927,N,07925.0579,W,1,10,1.5,21,M,,M,,*65
06/18/2015	17:05:49.649	$GPGGA,170550,2546.6933,N,07925.0577,W,1,10,1.5,21,M,,M,,*66
06/18/2015	17:05:50.600	$GPGGA,170551,2546.6940,N,07925.0574,W,1,10,1.5,21,M,,M,,*60
06/18/2015	17:05:51.649	$GPGGA,170552,2546.6946,N,07925.0572,W,1,10,1.5,21,M,,M,,*63
06/18/2015	17:05:52.579	$GPGGA,170553,2546.6953,N,07925.0570,W,1,10,1.5,21,M,,M,,*64
06/18/2015	17:05:53.630	$GPGGA,170554,2546.6960,N,07925.0568,W,1,10,1.5,21,M,,M,,*6A
06/18/2015	17:05:54.650	$GPGGA,170555,2546.6966,N,07925.0566,W,1,10,1.5,21,M,,M,,*63
06/18/2015	17:05:55.650	$GPGGA,170556,2546.6973,N,07925.0564,W,1,10,1.5,21,M,,M,,*66
06/18/2015	17:05:56.570	$GPGGA,170557,2546.6978,N,07925.0562,W,1,10,1.5,21,M,,M,,*6A
06/18/2015	17:05:57.620	$GPGGA,170558,2546.6985,N,07925.0560,W,1,10,1.5,21,M,,M,,*65
06/18/2015	17:05:58.650	$GPGGA,170559,2546.6992,N,07925.0558,W,1,10,1.5,21,M,,M,,*69
06/18/2015	17:05:59.670	$GPGGA,170600,2546.6999,N,07925.0557,W,1,10,1.5,21,M,,M,,*62
06/18/2015	17:06:00.640	$GPGGA,170601,2546.7005,N,07925.0555,W,1,10,1.5,21,M,,M,,*6C
06/18/2015	17:06:01.610	$GPGGA,170602,2546.7013,N,07925.0554,W,1,10,1.5,21,M,,M,,*69
06/18/2015	17:06:02.640	$GPGGA,170603,2546.7020,N,07925.0553,W,1,10,1.5,21,M,,M,,*6F
06/18/2015	17:06:03.570	$GPGGA,170604,2546.7025,N,07925.0550,W,1,9,1.9,21,M,,M,,*5A
06/18/2015	17:06:04.620	$GPGGA,170605,2546.7032,N,07925.0550,W,1,9,1.5,21,M,,M,,*51
06/18/2015	17:06:05.599	$GPGGA,170606,2546.7039,N,07925.0549,W,1,10,1.5,21,M,,M,,*69
06/18/2015	17:06:06.629	$GPGGA,170607,2546.7047,N,07925.0546,W,1,10,1.9,21,M,,M,,*62
06/18/2015	17:06:07.559	$GPGGA,170608,2546.7052,N,07925.0543,W,1,9,1.9,21,M,,M,,*54
06/18/2015	17:06:08.609	$GPGGA,170609,2546.7057,N,07925.0541,W,1,9,1.5,21,M,,M,,*5E
06/18/2015	17:06:09.540	$GPGGA,170610,2546.7065,N,07925.0540,W,1,10,1.5,21,M,,M,,*6E
06/18/2015	17:06:10.609	$GPGGA,170611,2546.7072,N,07925.0539,W,1,10,2.0,21,M,,M,,*61
06/18/2015	17:06:11.640	$GPGGA,170612,2546.7078,N,07925.0537,W,1,10,1.5,21,M,,M,,*60
06/18/2015	17:06:12.600	$GPGGA,170613,2546.7085,N,07925.0538,W,1,10,1.5,21,M,,M,,*6C
06/18/2015	17:06:13.530	$GPGGA,170614,2546.7092,N,07925.0535,W,1,9,2.0,21,M,,M,,*5E
06/18/2015	17:06:14.600	$GPGGA,170615,2546.7097,N,07925.0534,W,1,9,2.0,21,M,,M,,*5B
06/18/2015	17:06:15.620	$GPGGA,170616,2546.7104,N,07925.0532,W,1,9,1.5,21,M,,M,,*53
06/18/2015	17:06:16.600	$GPGGA,170617,2546.7110,N,07925.0529,W,1,9,1.5,21,M,,M,,*5D
06/18/2015	17:06:17.590	$GPGGA,170618,2546.7115,N,07925.0526,W,1,10,1.5,21,M,,M,,*60
06/18/2015	17:06:18.530	$GPGGA,170619,2546.7122,N,07925.0523,W,1,10,1.5,21,M,,M,,*60
06/18/2015	17:06:19.630	$GPGGA,170620,2546.7128,N,07925.0521,W,1,10,1.5,21,M,,M,,*62
06/18/2015	17:06:20.600	$GPGGA,170621,2546.7135,N,07925.0521,W,1,10,2.0,21,M,,M,,*69
06/18/2015	17:06:21.582	$GPGGA,170622,2546.7141,N,07925.0520,W,1,9,2.0,21,M,,M,,*50
06/18/2015	17:06:22.580	$GPGGA,170623,2546.7148,N,07925.0519,W,1,9,1.5,21,M,,M,,*54
06/18/2015	17:06:23.619	$GPGGA,170624,2546.7154,N,07925.0518,W,1,10,1.5,21,M,,M,,*67
06/18/2015	17:06:24.509	$GPGGA,170625,2546.7162,N,07925.0516,W,1,10,1.5,21,M,,M,,*6D
06/18/2015	17:06:25.629	$GPGGA,170626,2546.7166,N,07925.0515,W,1,10,1.5,21,M,,M,,*69
06/18/2015	17:06:26.629	$GPGGA,170627,2546.7173,N,07925.0516,W,1,10,1.5,21,M,,M,,*6F
06/18/2015	17:06:27.519	$GPGGA,170628,2546.7180,N,07925.0514,W,1,10,1.5,21,M,,M,,*6E
06/18/2015	17:06:28.610	$GPGGA,170629,2546.7188,N,07925.0513,W,1,10,1.5,20,M,,M,,*61
06/18/2015	17:06:29.501	$GPGGA,170630,2546.7194,N,07925.0513,W,1,10,1.5,20,M,,M,,*64
06/18/2015	17:06:30.570	$GPGGA,170631,2546.7199,N,07925.0511,W,1,10,1.7,20,M,,M,,*68
06/18/2015	17:06:31.620	$GPGGA,170632,2546.7205,N,07925.0513,W,1,9,1.5,20,M,,M,,*55
06/18/2015	17:06:32.570	$GPGGA,170633,2546.7212,N,07925.0512,W,1,9,2.0,20,M,,M,,*55
06/18/2015	17:06:33.550	$GPGGA,170634,2546.7219,N,07925.0511,W,1,9,2.2,20,M,,M,,*58
06/18/2015	17:06:34.590	$GPGGA,170635,2546.7224,N,07925.0509,W,1,9,1.5,20,M,,M,,*5A
06/18/2015	17:06:35.610	$GPGGA,170636,2546.7231,N,07925.0508,W,1,10,1.5,20,M,,M,,*64
06/18/2015	17:06:36.610	$GPGGA,170637,2546.7237,N,07925.0506,W,1,10,1.7,20,M,,M,,*6F
06/18/2015	17:06:37.630	$GPGGA,170638,2546.7242,N,07925.0507,W,1,9,1.5,20,M,,M,,*59
06/18/2015	17:06:38.580	$GPGGA,170639,2546.7251,N,07925.0506,W,1,9,2.2,20,M,,M,,*5F
06/18/2015	17:06:39.620	$GPGGA,170640,2546.7256,N,07925.0509,W,1,8,2.0,20,M,,M,,*5A
06/18/2015	17:06:40.579	$GPGGA,170641,2546.7262,N,07925.0507,W,1,8,1.5,20,M,,M,,*54
06/18/2015	17:06:41.609	$GPGGA,170642,2546.7269,N,07925.0505,W,1,10,1.7,20,M,,M,,*65
06/18/2015	17:06:42.590	$GPGGA,170643,2546.7274,N,07925.0504,W,1,10,1.5,20,M,,M,,*6B
06/18/2015	17:06:43.629	$GPGGA,170644,2546.7281,N,07925.0504,W,1,10,2.2,20,M,,M,,*62
06/18/2015	17:06:44.569	$GPGGA,170645,2546.7289,N,07925.0503,W,1,10,2.2,20,M,,M,,*6C
06/18/2015	17:06:45.599	$GPGGA,170646,2546.7298,N,07925.0503,W,1,8,1.5,20,M,,M,,*52
06/18/2015	17:06:46.570	$GPGGA,170647,2546.7303,N,07925.0502,W,1,8,1.7,20,M,,M,,*53
06/18/2015	17:06:47.600	$GPGGA,170648,2546.7310,N,07925.0501,W,1,9,1.7,20,M,,M,,*5C
06/18/2015	17:06:48.600	$GPGGA,170649,2546.7314,N,07925.0502,W,1,9,1.5,20,M,,M,,*58
06/18/2015	17:06:49.580	$GPGGA,170650,2546.7321,N,07925.0499,W,1,10,1.5,20,M,,M,,*6D
06/18/2015	17:06:50.560	$GPGGA,170651,2546.7328,N,07925.0497,W,1,10,1.7,20,M,,M,,*69
06/18/2015	17:06:51.590	$GPGGA,170652,2546.7336,N,07925.0496,W,1,9,1.7,20,M,,M,,*5C
06/18/2015	17:06:52.570	$GPGGA,170653,2546.7341,N,07925.0496,W,1,9,1.5,20,M,,M,,*5F
06/18/2015	17:06:53.580	$GPGGA,170654,2546.7346,N,07925.0498,W,1,10,1.5,20,M,,M,,*69
06/18/2015	17:06:54.600	$GPGGA,170655,2546.7352,N,07925.0496,W,1,10,1.7,20,M,,M,,*61
06/18/2015	17:06:55.580	$GPGGA,170656,2546.7359,N,07925.0494,W,1,9,1.7,20,M,,M,,*53
06/18/2015	17:06:56.580	$GPGGA,170657,2546.7365,N,07925.0491,W,1,9,1.5,20,M,,M,,*5A
06/18/2015	17:06:57.580	$GPGGA,170658,2546.7372,N,07925.0490,W,1,10,1.5,20,M,,M,,*6A
06/18/2015	17:06:58.579	$GPGGA,170659,2546.7379,N,07925.0489,W,1,10,1.5,20,M,,M,,*68
06/18/2015	17:06:59.629	$GPGGA,170700,2546.7386,N,07925.0488,W,1,10,1.5,20,M,,M,,*64
06/18/2015	17:07:00.579	$GPGGA,170701,2546.7393,N,07925.0488,W,1,10,1.5,20,M,,M,,*61
06/18/2015	17:07:01.559	$GPGGA,170702,2546.7399,N,07925.0487,W,1,10,1.5,20,M,,M,,*67
06/18/2015	17:07:02.569	$GPGGA,170703,2546.7407,N,07925.0486,W,1,10,1.5,20,M,,M,,*67
06/18/2015	17:07:03.580	$GPGGA,170704,2546.7411,N,07925.0489,W,1,9,1.5,20,M,,M,,*50
06/18/2015	17:07:04.560	$GPGGA,170705,2546.7417,N,07925.0489,W,1,9,1.5,20,M,,M,,*57
06/18/2015	17:07:05.560	$GPGGA,170706,2546.7424,N,07925.0487,W,1,10,1.5,20,M,,M,,*62
06/18/2015	17:07:06.560	$GPGGA,170707,2546.7430,N,07925.0488,W,1,10,1.5,20,M,,M,,*69
06/18/2015	17:07:07.550	$GPGGA,170708,2546.7437,N,07925.0487,W,1,10,1.5,20,M,,M,,*6E
06/18/2015	17:07:08.560	$GPGGA,170709,2546.7443,N,07925.0488,W,1,10,1.5,20,M,,M,,*63
06/18/2015	17:07:09.550	$GPGGA,170710,2546.7448,N,07925.0487,W,1,10,1.5,20,M,,M,,*6F
06/18/2015	17:07:10.530	$GPGGA,170711,2546.7448,N,07925.0487,W,1,10,1.5,20,M,,M,,*6E
06/18/2015	17:07:11.550	$GPGGA,170712,2546.7462,N,07925.0487,W,1,10,1.5,20,M,,M,,*65
06/18/2015	17:07:12.610	$GPGGA,170713,2546.7468,N,07925.0488,W,1,10,1.5,20,M,,M,,*61
06/18/2015	17:07:13.510	$GPGGA,170714,2546.7476,N,07925.0487,W,1,9,1.5,20,M,,M,,*5E
06/18/2015	17:07:14.560	$GPGGA,170715,2546.7484,N,07925.0488,W,1,9,1.5,20,M,,M,,*5D
06/18/2015	17:07:15.529	$GPGGA,170716,2546.7490,N,07925.0488,W,1,10,1.5,20,M,,M,,*63
06/18/2015	17:07:16.629	$GPGGA,170717,2546.7498,N,07925.0488,W,1,10,1.5,20,M,,M,,*6A
06/18/2015	17:07:17.619	$GPGGA,170718,2546.7505,N,07925.0488,W,1,10,1.5,20,M,,M,,*60
06/18/2015	17:07:18.599	$GPGGA,170719,2546.7512,N,07925.0487,W,1,10,1.7,20,M,,M,,*6A
06/18/2015	17:07:19.619	$GPGGA,170720,2546.7519,N,07925.0486,W,1,9,1.7,21,M,,M,,*53
06/18/2015	17:07:20.609	$GPGGA,170721,2546.7523,N,07925.0489,W,1,9,1.5,21,M,,M,,*56
06/18/2015	17:07:21.620	$GPGGA,170722,2546.7533,N,07925.0488,W,1,10,1.5,21,M,,M,,*6D
06/18/2015	17:07:22.610	$GPGGA,170723,2546.7540,N,07925.0487,W,1,10,1.7,21,M,,M,,*65
06/18/2015	17:07:23.630	$GPGGA,170724,2546.7548,N,07925.0484,W,1,9,1.7,21,M,,M,,*51
06/18/2015	17:07:24.600	$GPGGA,170725,2546.7556,N,07925.0482,W,1,9,1.5,21,M,,M,,*5B
06/18/2015	17:07:25.591	$GPGGA,170726,2546.7563,N,07925.0482,W,1,10,1.5,21,M,,M,,*66
06/18/2015	17:07:26.600	$GPGGA,170727,2546.7570,N,07925.0481,W,1,10,1.5,21,M,,M,,*66
06/18/2015	17:07:27.630	$GPGGA,170728,2546.7577,N,07925.0481,W,1,9,1.7,21,M,,M,,*54
06/18/2015	17:07:28.580	$GPGGA,170729,2546.7584,N,07925.0480,W,1,9,1.5,21,M,,M,,*5A
06/18/2015	17:07:29.591	$GPGGA,170730,2546.7591,N,07925.0481,W,1,9,1.7,21,M,,M,,*55
06/18/2015	17:07:30.580	$GPGGA,170731,2546.7596,N,07925.0484,W,1,9,1.5,21,M,,M,,*54
06/18/2015	17:07:31.610	$GPGGA,170732,2546.7603,N,07925.0482,W,1,10,1.5,21,M,,M,,*66
06/18/2015	17:07:32.590	$GPGGA,170733,2546.7609,N,07925.0485,W,1,10,1.7,21,M,,M,,*68
06/18/2015	17:07:33.569	$GPGGA,170734,2546.7614,N,07925.0486,W,1,10,1.5,21,M,,M,,*62
06/18/2015	17:07:34.579	$GPGGA,170735,2546.7623,N,07925.0485,W,1,10,1.5,21,M,,M,,*64
06/18/2015	17:07:35.609	$GPGGA,170736,2546.7630,N,07925.0484,W,1,9,1.7,21,M,,M,,*5E
06/18/2015	17:07:36.579	$GPGGA,170737,2546.7636,N,07925.0484,W,1,9,1.7,21,M,,M,,*59
06/18/2015	17:07:37.579	$GPGGA,170738,2546.7643,N,07925.0488,W,1,9,1.7,21,M,,M,,*58
06/18/2015	17:07:38.560	$GPGGA,170739,2546.7648,N,07925.0489,W,1,9,1.5,21,M,,M,,*51
06/18/2015	17:07:39.600	$GPGGA,170740,2546.7654,N,07925.0489,W,1,10,1.5,21,M,,M,,*6A
06/18/2015	17:07:40.560	$GPGGA,170741,2546.7661,N,07925.0488,W,1,10,1.5,21,M,,M,,*6C
06/18/2015	17:07:41.550	$GPGGA,170742,2546.7670,N,07925.0488,W,1,10,1.5,21,M,,M,,*6F
06/18/2015	17:07:42.570	$GPGGA,170743,2546.7675,N,07925.0487,W,1,10,1.7,21,M,,M,,*66
06/18/2015	17:07:43.591	$GPGGA,170744,2546.7682,N,07925.0489,W,1,10,1.5,21,M,,M,,*65
06/18/2015	17:07:44.550	$GPGGA,170745,2546.7688,N,07925.0491,W,1,10,1.5,21,M,,M,,*67
06/18/2015	17:07:45.590	$GPGGA,170746,2546.7696,N,07925.0489,W,1,10,1.5,21,M,,M,,*62
06/18/2015	17:07:46.550	$GPGGA,170747,2546.7701,N,07925.0491,W,1,10,1.7,21,M,,M,,*67
06/18/2015	17:07:47.580	$GPGGA,170748,2546.7707,N,07925.0491,W,1,10,1.5,21,M,,M,,*6C
06/18/2015	17:07:48.540	$GPGGA,170749,2546.7714,N,07925.0492,W,1,10,1.5,21,M,,M,,*6C
06/18/2015	17:07:49.540	$GPGGA,170750,2546.7721,N,07925.0492,W,1,10,1.5,21,M,,M,,*62
06/18/2015	17:07:50.549	$GPGGA,170751,2546.7728,N,07925.0493,W,1,10,1.5,21,M,,M,,*6B
06/18/2015	17:07:51.569	$GPGGA,170752,2546.7733,N,07925.0493,W,1,10,1.5,21,M,,M,,*62
06/18/2015	17:07:52.539	$GPGGA,170753,2546.7740,N,07925.0493,W,1,10,1.5,21,M,,M,,*67
06/18/2015	17:07:53.559	$GPGGA,170754,2546.7747,N,07925.0493,W,1,10,1.5,21,M,,M,,*67
06/18/2015	17:07:54.629	$GPGGA,170755,2546.7754,N,07925.0493,W,1,10,1.5,21,M,,M,,*64
06/18/2015	17:07:55.569	$GPGGA,170756,2546.7760,N,07925.0495,W,1,10,1.5,21,M,,M,,*66
06/18/2015	17:07:56.530	$GPGGA,170757,2546.7765,N,07925.0491,W,1,10,2.0,21,M,,M,,*60
06/18/2015	17:07:57.540	$GPGGA,170758,2546.7772,N,07925.0489,W,1,10,1.5,21,M,,M,,*66
06/18/2015	17:07:58.520	$GPGGA,170759,2546.7779,N,07925.0491,W,1,10,1.5,21,M,,M,,*65
06/18/2015	17:07:59.680	$GPGGA,170800,2546.7786,N,07925.0492,W,1,9,2.0,21,M,,M,,*5B
06/18/2015	17:08:00.540	$GPGGA,170801,2546.7794,N,07925.0493,W,1,9,2.0,21,M,,M,,*58
06/18/2015	17:08:01.630	$GPGGA,170802,2546.7802,N,07925.0495,W,1,9,2.0,21,M,,M,,*5D
06/18/2015	17:08:02.520	$GPGGA,170803,2546.7809,N,07925.0495,W,1,9,2.0,21,M,,M,,*57
06/18/2015	17:08:03.530	$GPGGA,170804,2546.7816,N,07925.0498,W,1,9,2.0,21,M,,M,,*53
06/18/2015	17:08:04.520	$GPGGA,170805,2546.7823,N,07925.0499,W,1,9,2.0,21,M,,M,,*55
06/18/2015	17:08:05.510	$GPGGA,170806,2546.7831,N,07925.0498,W,1,9,2.0,21,M,,M,,*54
06/18/2015	17:08:06.590	$GPGGA,170807,2546.7838,N,07925.0499,W,1,9,2.0,20,M,,M,,*5C
06/18/2015	17:08:07.610	$GPGGA,170808,2546.7841,N,07925.0496,W,1,9,2.0,20,M,,M,,*52
06/18/2015	17:08:08.589	$GPGGA,170809,2546.7849,N,07925.0498,W,1,9,1.5,20,M,,M,,*53
06/18/2015	17:08:09.479	$GPGGA,170810,2546.7858,N,07925.0499,W,1,9,2.0,20,M,,M,,*5C
06/18/2015	17:08:10.581	$GPGGA,170811,2546.7865,N,07925.0500,W,1,9,2.0,20,M,,M,,*52
06/18/2015	17:08:11.639	$GPGGA,170812,2546.7870,N,07925.0502,W,1,9,2.0,20,M,,M,,*57
06/18/2015	17:08:12.569	$GPGGA,170813,2546.7878,N,07925.0501,W,1,9,2.0,20,M,,M,,*5D
06/18/2015	17:08:13.480	$GPGGA,170814,2546.7885,N,07925.0502,W,1,10,1.5,20,M,,M,,*65
06/18/2015	17:08:14.589	$GPGGA,170815,2546.7891,N,07925.0501,W,1,10,1.7,20,M,,M,,*60
06/18/2015	17:08:15.609	$GPGGA,170816,2546.7896,N,07925.0502,W,1,10,1.5,20,M,,M,,*65
06/18/2015	17:08:16.582	$GPGGA,170817,2546.7905,N,07925.0502,W,1,10,1.5,20,M,,M,,*6F
06/18/2015	17:08:17.579	$GPGGA,170818,2546.7910,N,07925.0502,W,1,10,1.5,20,M,,M,,*64
06/18/2015	17:08:18.579	$GPGGA,170819,2546.7917,N,07925.0504,W,1,10,1.5,20,M,,M,,*64
06/18/2015	17:08:19.609	$GPGGA,170820,2546.7924,N,07925.0506,W,1,10,1.5,20,M,,M,,*6C
06/18/2015	17:08:20.569	$GPGGA,170821,2546.7931,N,07925.0506,W,1,10,1.5,20,M,,M,,*69
06/18/2015	17:08:21.589	$GPGGA,170822,2546.7938,N,07925.0509,W,1,10,1.5,20,M,,M,,*6C
06/18/2015	17:08:22.559	$GPGGA,170823,2546.7945,N,07925.0509,W,1,10,2.0,20,M,,M,,*61
06/18/2015	17:08:23.580	$GPGGA,170824,2546.7952,N,07925.0509,W,1,10,1.5,20,M,,M,,*66
06/18/2015	17:08:24.570	$GPGGA,170825,2546.7959,N,07925.0509,W,1,10,1.5,20,M,,M,,*6C
06/18/2015	17:08:25.549	$GPGGA,170826,2546.7964,N,07925.0510,W,1,10,1.5,20,M,,M,,*69
06/18/2015	17:08:26.559	$GPGGA,170827,2546.7971,N,07925.0509,W,1,10,1.5,20,M,,M,,*64
06/18/2015	17:08:27.579	$GPGGA,170828,2546.7978,N,07925.0509,W,1,10,1.5,20,M,,M,,*62
06/18/2015	17:08:28.569	$GPGGA,170829,2546.7985,N,07925.0509,W,1,10,1.7,20,M,,M,,*63
06/18/2015	17:08:29.549	$GPGGA,170830,2546.7990,N,07925.0510,W,1,9,1.7,20,M,,M,,*5F
06/18/2015	17:08:30.549	$GPGGA,170831,2546.7997,N,07925.0510,W,1,9,1.5,20,M,,M,,*5B
06/18/2015	17:08:31.591	$GPGGA,170832,2546.8006,N,07925.0510,W,1,10,1.5,20,M,,M,,*6E
06/18/2015	17:08:32.559	$GPGGA,170833,2546.8013,N,07925.0510,W,1,10,1.5,20,M,,M,,*6B
06/18/2015	17:08:33.539	$GPGGA,170834,2546.8019,N,07925.0510,W,1,10,1.5,20,M,,M,,*66
06/18/2015	17:08:34.539	$GPGGA,170835,2546.8026,N,07925.0510,W,1,10,1.5,20,M,,M,,*6B
06/18/2015	17:08:35.549	$GPGGA,170836,2546.8033,N,07925.0510,W,1,10,1.5,20,M,,M,,*6C
06/18/2015	17:08:36.549	$GPGGA,170837,2546.8040,N,07925.0511,W,1,10,1.5,20,M,,M,,*68
06/18/2015	17:08:37.529	$GPGGA,170838,2546.8047,N,07925.0511,W,1,10,1.5,20,M,,M,,*60
06/18/2015	17:08:38.539	$GPGGA,170839,2546.8054,N,07925.0511,W,1,10,1.5,20,M,,M,,*63
06/18/2015	17:08:39.549	$GPGGA,170840,2546.8061,N,07925.0513,W,1,10,1.5,20,M,,M,,*69
06/18/2015	17:08:40.539	$GPGGA,170841,2546.8068,N,07925.0512,W,1,10,1.5,20,M,,M,,*60
06/18/2015	17:08:41.530	$GPGGA,170842,2546.8075,N,07925.0513,W,1,10,1.5,20,M,,M,,*6E
06/18/2015	17:08:42.520	$GPGGA,170843,2546.8082,N,07925.0514,W,1,10,1.5,20,M,,M,,*60
06/18/2015	17:08:43.539	$GPGGA,170844,2546.8090,N,07925.0514,W,1,10,1.5,20,M,,M,,*64
06/18/2015	17:08:44.519	$GPGGA,170845,2546.8097,N,07925.0516,W,1,10,1.5,20,M,,M,,*60
06/18/2015	17:08:45.619	$GPGGA,170846,2546.8104,N,07925.0515,W,1,10,1.5,20,M,,M,,*6B
06/18/2015	17:08:46.519	$GPGGA,170847,2546.8111,N,07925.0517,W,1,10,1.5,20,M,,M,,*6C
06/18/2015	17:08:47.539	$GPGGA,170848,2546.8118,N,07925.0517,W,1,10,1.5,20,M,,M,,*6A
06/18/2015	17:08:48.519	$GPGGA,170849,2546.8125,N,07925.0518,W,1,10,1.5,20,M,,M,,*6A
06/18/2015	17:08:49.499	$GPGGA,170850,2546.8131,N,07925.0518,W,1,10,1.5,21,M,,M,,*66
06/18/2015	17:08:50.619	$GPGGA,170851,2546.8140,N,07925.0520,W,1,10,1.5,21,M,,M,,*6A
06/18/2015	17:08:51.509	$GPGGA,170852,2546.8147,N,07925.0520,W,1,10,1.5,21,M,,M,,*6E
06/18/2015	17:08:52.509	$GPGGA,170853,2546.8155,N,07925.0520,W,1,10,1.5,21,M,,M,,*6C
06/18/2015	17:08:53.509	$GPGGA,170854,2546.8161,N,07925.0521,W,1,10,1.5,21,M,,M,,*6D
06/18/2015	17:08:54.589	$GPGGA,170855,2546.8169,N,07925.0522,W,1,10,1.5,21,M,,M,,*67
06/18/2015	17:08:55.639	$GPGGA,170856,2546.8176,N,07925.0524,W,1,10,1.5,21,M,,M,,*6C
06/18/2015	17:08:56.589	$GPGGA,170857,2546.8183,N,07925.0524,W,1,10,1.5,21,M,,M,,*67
06/18/2015	17:08:57.599	$GPGGA,170858,2546.8191,N,07925.0525,W,1,10,1.5,21,M,,M,,*6A
06/18/2015	17:08:58.590	$GPGGA,170859,2546.8198,N,07925.0527,W,1,10,1.5,20,M,,M,,*61
06/18/2015	17:09:00.609	$GPGGA,170901,2546.8212,N,07925.0527,W,1,10,1.5,20,M,,M,,*6C
06/18/2015	17:09:01.589	$GPGGA,170902,2546.8219,N,07925.0528,W,1,10,1.5,20,M,,M,,*6B
06/18/2015	17:09:02.579	$GPGGA,170903,2546.8227,N,07925.0529,W,1,10,1.5,20,M,,M,,*66
06/18/2015	17:09:03.580	$GPGGA,170904,2546.8235,N,07925.0531,W,1,10,1.5,20,M,,M,,*6B
06/18/2015	17:09:04.579	$GPGGA,170905,2546.8242,N,07925.0531,W,1,10,1.5,20,M,,M,,*6A
06/18/2015	17:09:05.569	$GPGGA,170906,2546.8249,N,07925.0533,W,1,10,1.5,20,M,,M,,*60
06/18/2015	17:09:06.579	$GPGGA,170907,2546.8257,N,07925.0535,W,1,10,1.5,20,M,,M,,*68
06/18/2015	17:09:07.609	$GPGGA,170908,2546.8264,N,07925.0534,W,1,10,1.5,20,M,,M,,*66
06/18/2015	17:09:08.859	$GPGGA,170909,2546.8271,N,07925.0536,W,1,10,1.5,20,M,,M,,*61
06/18/2015	17:09:09.589	$GPGGA,170910,2546.8278,N,07925.0538,W,1,10,1.5,20,M,,M,,*6E
06/18/2015	17:09:10.559	$GPGGA,170911,2546.8286,N,07925.0538,W,1,10,1.5,20,M,,M,,*6E
06/18/2015	17:09:11.599	$GPGGA,170912,2546.8293,N,07925.0539,W,1,10,1.5,20,M,,M,,*68
06/18/2015	17:09:12.569	$GPGGA,170913,2546.8300,N,07925.0542,W,1,10,1.5,20,M,,M,,*6E
06/18/2015	17:09:13.569	$GPGGA,170914,2546.8307,N,07925.0541,W,1,10,1.5,20,M,,M,,*6D
06/18/2015	17:09:14.549	$GPGGA,170915,2546.8315,N,07925.0542,W,1,10,1.5,20,M,,M,,*6C
06/18/2015	17:09:15.589	$GPGGA,170916,2546.8322,N,07925.0546,W,1,10,1.5,20,M,,M,,*6F
06/18/2015	17:09:16.550	$GPGGA,170917,2546.8329,N,07925.0545,W,1,10,1.4,20,M,,M,,*67
06/18/2015	17:09:17.550	$GPGGA,170918,2546.8337,N,07925.0546,W,1,10,1.4,20,M,,M,,*64
06/18/2015	17:09:18.549	$GPGGA,170919,2546.8344,N,07925.0547,W,1,10,1.4,20,M,,M,,*60
06/18/2015	17:09:19.549	$GPGGA,170920,2546.8351,N,07925.0549,W,1,10,1.4,20,M,,M,,*60
06/18/2015	17:09:20.549	$GPGGA,170921,2546.8360,N,07925.0548,W,1,10,1.4,19,M,,M,,*68
06/18/2015	17:09:21.569	$GPGGA,170922,2546.8368,N,07925.0549,W,1,10,1.4,19,M,,M,,*62
06/18/2015	17:09:22.539	$GPGGA,170923,2546.8373,N,07925.0550,W,1,10,1.4,19,M,,M,,*61
06/18/2015	17:09:23.569	$GPGGA,170924,2546.8382,N,07925.0551,W,1,10,1.4,19,M,,M,,*69
06/18/2015	17:09:24.529	$GPGGA,170925,2546.8389,N,07925.0551,W,1,10,1.4,19,M,,M,,*63
06/18/2015	17:09:25.549	$GPGGA,170926,2546.8396,N,07925.0553,W,1,10,1.4,19,M,,M,,*6C
06/18/2015	17:09:26.530	$GPGGA,170927,2546.8402,N,07925.0554,W,1,10,1.4,19,M,,M,,*60
06/18/2015	17:09:27.559	$GPGGA,170928,2546.8411,N,07925.0554,W,1,10,1.4,19,M,,M,,*6D
06/18/2015	17:09:28.529	$GPGGA,170929,2546.8419,N,07925.0556,W,1,10,1.4,19,M,,M,,*66
06/18/2015	17:09:29.529	$GPGGA,170930,2546.8426,N,07925.0556,W,1,10,1.4,19,M,,M,,*62
06/18/2015	17:09:30.529	$GPGGA,170931,2546.8433,N,07925.0557,W,1,10,1.5,19,M,,M,,*67
06/18/2015	17:09:31.529	$GPGGA,170932,2546.8441,N,07925.0558,W,1,10,1.4,19,M,,M,,*6F
06/18/2015	17:09:32.629	$GPGGA,170933,2546.8449,N,07925.0560,W,1,10,1.4,19,M,,M,,*6D
06/18/2015	17:09:33.610	$GPGGA,170934,2546.8458,N,07925.0561,W,1,10,1.4,19,M,,M,,*6B
06/18/2015	17:09:34.530	$GPGGA,170935,2546.8466,N,07925.0563,W,1,10,1.4,19,M,,M,,*65
06/18/2015	17:09:35.619	$GPGGA,170936,2546.8474,N,07925.0564,W,1,10,1.4,19,M,,M,,*62
06/18/2015	17:09:36.609	$GPGGA,170937,2546.8481,N,07925.0564,W,1,10,1.4,19,M,,M,,*69
06/18/2015	17:09:37.599	$GPGGA,170938,2546.8488,N,07925.0565,W,1,10,1.4,19,M,,M,,*6E
06/18/2015	17:09:38.609	$GPGGA,170939,2546.8497,N,07925.0567,W,1,10,1.4,19,M,,M,,*63
06/18/2015	17:09:39.619	$GPGGA,170940,2546.8505,N,07925.0567,W,1,10,1.4,20,M,,M,,*6D
06/18/2015	17:09:40.599	$GPGGA,170941,2546.8512,N,07925.0568,W,1,10,1.4,20,M,,M,,*65
06/18/2015	17:09:41.609	$GPGGA,170942,2546.8519,N,07925.0571,W,1,10,1.4,20,M,,M,,*65
06/18/2015	17:09:42.619	$GPGGA,170943,2546.8527,N,07925.0570,W,1,10,1.4,20,M,,M,,*68
06/18/2015	17:09:43.509	$GPGGA,170944,2546.8534,N,07925.0572,W,1,10,1.4,20,M,,M,,*6F
06/18/2015	17:09:44.582	$GPGGA,170945,2546.8541,N,07925.0572,W,1,10,1.4,20,M,,M,,*6C
06/18/2015	17:09:45.599	$GPGGA,170946,2546.8548,N,07925.0574,W,1,10,1.4,20,M,,M,,*60
06/18/2015	17:09:46.586	$GPGGA,170947,2546.8555,N,07925.0575,W,1,10,1.4,20,M,,M,,*6C
06/18/2015	17:09:47.629	$GPGGA,170948,2546.8563,N,07925.0576,W,1,11,1.4,20,M,,M,,*64
06/18/2015	17:09:48.589	$GPGGA,170949,2546.8570,N,07925.0578,W,1,11,1.4,20,M,,M,,*69
06/18/2015	17:09:49.599	$GPGGA,170950,2546.8578,N,07925.0578,W,1,11,1.4,20,M,,M,,*69
06/18/2015	17:09:50.590	$GPGGA,170951,2546.8585,N,07925.0579,W,1,11,1.4,20,M,,M,,*6B
06/18/2015	17:09:52.610	$GPGGA,170953,2546.8600,N,07925.0582,W,1,11,1.4,20,M,,M,,*63
06/18/2015	17:09:53.569	$GPGGA,170954,2546.8607,N,07925.0583,W,1,11,1.4,20,M,,M,,*62
06/18/2015	17:09:54.581	$GPGGA,170955,2546.8614,N,07925.0585,W,1,11,1.4,20,M,,M,,*67
06/18/2015	17:09:55.609	$GPGGA,170956,2546.8622,N,07925.0585,W,1,11,1.4,20,M,,M,,*61
06/18/2015	17:09:56.580	$GPGGA,170957,2546.8629,N,07925.0587,W,1,11,1.4,20,M,,M,,*69
06/18/2015	17:09:57.559	$GPGGA,170958,2546.8636,N,07925.0589,W,1,11,1.4,20,M,,M,,*66
06/18/2015	17:09:58.559	$GPGGA,170959,2546.8643,N,07925.0589,W,1,11,1.4,20,M,,M,,*65
06/18/2015	17:09:59.619	$GPGGA,171000,2546.8651,N,07925.0590,W,1,10,1.5,20,M,,M,,*6A
06/18/2015	17:10:00.569	$GPGGA,171001,2546.8658,N,07925.0592,W,1,10,1.4,20,M,,M,,*61
06/18/2015	17:10:01.559	$GPGGA,171002,2546.8665,N,07925.0592,W,1,11,1.4,20,M,,M,,*6D
06/18/2015	17:10:02.559	$GPGGA,171003,2546.8672,N,07925.0593,W,1,11,1.4,20,M,,M,,*6B
06/18/2015	17:10:03.559	$GPGGA,171004,2546.8680,N,07925.0594,W,1,11,1.4,20,M,,M,,*66
06/18/2015	17:10:04.559	$GPGGA,171005,2546.8687,N,07925.0596,W,1,11,1.4,20,M,,M,,*62
06/18/2015	17:10:05.559	$GPGGA,171006,2546.8694,N,07925.0597,W,1,11,1.4,20,M,,M,,*62
06/18/2015	17:10:06.559	$GPGGA,171007,2546.8701,N,07925.0598,W,1,11,1.4,20,M,,M,,*61
06/18/2015	17:10:07.699	$GPGGA,171008,2546.8708,N,07925.0600,W,1,11,1.4,20,M,,M,,*65
06/18/2015	17:10:08.530	$GPGGA,171009,2546.8716,N,07925.0601,W,1,11,1.4,20,M,,M,,*6A
06/18/2015	17:10:09.560	$GPGGA,171010,2546.8723,N,07925.0603,W,1,11,1.4,20,M,,M,,*66
06/18/2015	17:10:10.539	$GPGGA,171011,2546.8732,N,07925.0603,W,1,11,1.4,20,M,,M,,*67
06/18/2015	17:10:11.649	$GPGGA,171012,2546.8738,N,07925.0604,W,1,11,1.4,20,M,,M,,*69
06/18/2015	17:10:12.649	$GPGGA,171013,2546.8745,N,07925.0607,W,1,11,1.4,20,M,,M,,*61
06/18/2015	17:10:13.659	$GPGGA,171014,2546.8754,N,07925.0607,W,1,11,1.4,20,M,,M,,*66
06/18/2015	17:10:14.529	$GPGGA,171015,2546.8761,N,07925.0608,W,1,11,1.4,20,M,,M,,*6E
06/18/2015	17:10:15.559	$GPGGA,171016,2546.8768,N,07925.0610,W,1,11,1.4,20,M,,M,,*6D
06/18/2015	17:10:16.640	$GPGGA,171017,2546.8776,N,07925.0611,W,1,11,1.4,20,M,,M,,*62
06/18/2015	17:10:17.519	$GPGGA,171018,2546.8783,N,07925.0612,W,1,11,1.4,20,M,,M,,*64
06/18/2015	17:10:18.629	$GPGGA,171019,2546.8790,N,07925.0614,W,1,11,1.4,19,M,,M,,*6B
06/18/2015	17:10:19.519	$GPGGA,171020,2546.8798,N,07925.0613,W,1,11,1.4,19,M,,M,,*6E
06/18/2015	17:10:20.629	$GPGGA,171021,2546.8805,N,07925.0615,W,1,11,1.4,19,M,,M,,*62
06/18/2015	17:10:21.519	$GPGGA,171022,2546.8812,N,07925.0616,W,1,11,1.4,19,M,,M,,*64
06/18/2015	17:10:22.619	$GPGGA,171023,2546.8819,N,07925.0618,W,1,11,1.4,19,M,,M,,*60
06/18/2015	17:10:23.529	$GPGGA,171024,2546.8826,N,07925.0618,W,1,11,1.4,19,M,,M,,*6B
06/18/2015	17:10:24.599	$GPGGA,171025,2546.8834,N,07925.0619,W,1,11,1.4,19,M,,M,,*68
06/18/2015	17:10:25.599	$GPGGA,171026,2546.8842,N,07925.0621,W,1,11,1.4,19,M,,M,,*61
06/18/2015	17:10:26.610	$GPGGA,171027,2546.8849,N,07925.0621,W,1,11,1.4,19,M,,M,,*6B
06/18/2015	17:10:27.520	$GPGGA,171028,2546.8857,N,07925.0622,W,1,11,1.4,19,M,,M,,*68
06/18/2015	17:10:28.839	$GPGGA,171029,2546.8864,N,07925.0625,W,1,11,1.4,19,M,,M,,*6E
06/18/2015	17:10:29.609	$GPGGA,171030,2546.8871,N,07925.0625,W,1,11,1.4,19,M,,M,,*62
06/18/2015	17:10:30.599	$GPGGA,171031,2546.8878,N,07925.0626,W,1,11,1.4,19,M,,M,,*69
06/18/2015	17:10:31.639	$GPGGA,171032,2546.8886,N,07925.0628,W,1,11,1.4,19,M,,M,,*65
06/18/2015	17:10:32.589	$GPGGA,171033,2546.8895,N,07925.0629,W,1,11,1.4,19,M,,M,,*67
06/18/2015	17:10:33.609	$GPGGA,171034,2546.8902,N,07925.0629,W,1,11,1.4,19,M,,M,,*6F
06/18/2015	17:10:34.595	$GPGGA,171035,2546.8910,N,07925.0632,W,1,11,1.4,19,M,,M,,*67
06/18/2015	17:10:35.609	$GPGGA,171036,2546.8918,N,07925.0632,W,1,11,1.4,19,M,,M,,*6C
06/18/2015	17:10:36.592	$GPGGA,171037,2546.8925,N,07925.0633,W,1,11,1.4,19,M,,M,,*62
06/18/2015	17:10:37.590	$GPGGA,171038,2546.8932,N,07925.0634,W,1,11,1.4,19,M,,M,,*6C
06/18/2015	17:10:38.590	$GPGGA,171039,2546.8940,N,07925.0636,W,1,11,1.4,19,M,,M,,*6A
06/18/2015	17:10:39.599	$GPGGA,171040,2546.8947,N,07925.0636,W,1,11,1.4,19,M,,M,,*63
06/18/2015	17:10:40.580	$GPGGA,171041,2546.8954,N,07925.0639,W,1,11,1.4,19,M,,M,,*6F
06/18/2015	17:10:41.599	$GPGGA,171042,2546.8961,N,07925.0639,W,1,11,1.4,19,M,,M,,*6A
06/18/2015	17:10:42.581	$GPGGA,171043,2546.8969,N,07925.0640,W,1,11,1.4,19,M,,M,,*6D
06/18/2015	17:10:43.610	$GPGGA,171044,2546.8976,N,07925.0641,W,1,11,1.4,19,M,,M,,*65
06/18/2015	17:10:44.570	$GPGGA,171045,2546.8985,N,07925.0643,W,1,11,1.4,18,M,,M,,*6B
06/18/2015	17:10:45.583	$GPGGA,171046,2546.8992,N,07925.0643,W,1,11,1.4,18,M,,M,,*6E
06/18/2015	17:10:46.569	$GPGGA,171047,2546.9000,N,07925.0645,W,1,11,1.4,18,M,,M,,*6A
06/18/2015	17:10:47.629	$GPGGA,171048,2546.9007,N,07925.0647,W,1,11,1.4,18,M,,M,,*60
06/18/2015	17:10:48.559	$GPGGA,171049,2546.9015,N,07925.0647,W,1,11,1.4,18,M,,M,,*62
06/18/2015	17:10:49.559	$GPGGA,171050,2546.9022,N,07925.0648,W,1,11,1.4,18,M,,M,,*61
06/18/2015	17:10:50.559	$GPGGA,171051,2546.9030,N,07925.0650,W,1,11,1.4,18,M,,M,,*6A
06/18/2015	17:10:51.591	$GPGGA,171052,2546.9037,N,07925.0651,W,1,11,1.4,18,M,,M,,*6F
06/18/2015	17:10:52.539	$GPGGA,171053,2546.9045,N,07925.0651,W,1,11,1.4,18,M,,M,,*6B
06/18/2015	17:10:53.581	$GPGGA,171054,2546.9052,N,07925.0654,W,1,11,1.4,18,M,,M,,*6F
06/18/2015	17:10:54.549	$GPGGA,171055,2546.9059,N,07925.0655,W,1,11,1.4,18,M,,M,,*64
06/18/2015	17:10:55.589	$GPGGA,171056,2546.9068,N,07925.0655,W,1,11,1.4,18,M,,M,,*65
06/18/2015	17:10:56.559	$GPGGA,171057,2546.9074,N,07925.0658,W,1,11,1.4,18,M,,M,,*64
06/18/2015	17:10:57.589	$GPGGA,171058,2546.9083,N,07925.0658,W,1,11,1.4,18,M,,M,,*63
06/18/2015	17:10:58.649	$GPGGA,171059,2546.9090,N,07925.0658,W,1,11,1.4,18,M,,M,,*60
06/18/2015	17:10:59.629	$GPGGA,171100,2546.9098,N,07925.0661,W,1,11,1.4,18,M,,M,,*6F
06/18/2015	17:11:00.559	$GPGGA,171101,2546.9105,N,07925.0661,W,1,11,1.4,18,M,,M,,*6B
06/18/2015	17:11:01.550	$GPGGA,171102,2546.9113,N,07925.0662,W,1,11,1.4,18,M,,M,,*6C
06/18/2015	17:11:02.540	$GPGGA,171103,2546.9120,N,07925.0663,W,1,11,1.4,18,M,,M,,*6C
06/18/2015	17:11:03.589	$GPGGA,171104,2546.9128,N,07925.0665,W,1,11,1.4,18,M,,M,,*65
06/18/2015	17:11:04.529	$GPGGA,171105,2546.9135,N,07925.0665,W,1,11,1.4,18,M,,M,,*68
06/18/2015	17:11:05.529	$GPGGA,171106,2546.9142,N,07925.0666,W,1,11,1.4,18,M,,M,,*68
06/18/2015	17:11:06.549	$GPGGA,171107,2546.9149,N,07925.0668,W,1,11,1.4,18,M,,M,,*6C
06/18/2015	17:11:07.529	$GPGGA,171108,2546.9156,N,07925.0668,W,1,11,1.4,18,M,,M,,*6D
06/18/2015	17:11:08.609	$GPGGA,171109,2546.9164,N,07925.0669,W,1,11,1.4,18,M,,M,,*6C
06/18/2015	17:11:09.609	$GPGGA,171110,2546.9173,N,07925.0670,W,1,11,1.4,18,M,,M,,*6A
06/18/2015	17:11:10.629	$GPGGA,171111,2546.9180,N,07925.0672,W,1,11,1.4,18,M,,M,,*65
06/18/2015	17:11:11.639	$GPGGA,171112,2546.9188,N,07925.0672,W,1,11,1.4,18,M,,M,,*6E
06/18/2015	17:11:12.609	$GPGGA,171113,2546.9195,N,07925.0673,W,1,11,1.4,18,M,,M,,*62
06/18/2015	17:11:13.639	$GPGGA,171114,2546.9203,N,07925.0675,W,1,11,1.4,18,M,,M,,*6F
06/18/2015	17:11:14.530	$GPGGA,171115,2546.9210,N,07925.0676,W,1,11,1.4,18,M,,M,,*6F
06/18/2015	17:11:15.559	$GPGGA,171116,2546.9218,N,07925.0676,W,1,11,1.4,18,M,,M,,*64
06/18/2015	17:11:16.599	$GPGGA,171117,2546.9225,N,07925.0677,W,1,11,1.4,18,M,,M,,*6A
06/18/2015	17:11:17.619	$GPGGA,171118,2546.9232,N,07925.0677,W,1,11,1.4,18,M,,M,,*63
06/18/2015	17:11:18.590	$GPGGA,171119,2546.9240,N,07925.0679,W,1,11,1.4,18,M,,M,,*69
06/18/2015	17:11:19.600	$GPGGA,171120,2546.9247,N,07925.0680,W,1,11,1.4,17,M,,M,,*6D
06/18/2015	17:11:20.599	$GPGGA,171121,2546.9254,N,07925.0680,W,1,11,1.4,17,M,,M,,*6E
06/18/2015	17:11:21.599	$GPGGA,171122,2546.9263,N,07925.0683,W,1,11,1.4,17,M,,M,,*6A
06/18/2015	17:11:22.599	$GPGGA,171123,2546.9269,N,07925.0683,W,1,11,1.4,17,M,,M,,*61
06/18/2015	17:11:24.106	$GPGGA,171124,2546.9278,N,07925.0684,W,1,11,1.4,17,M,,M,,*61
06/18/2015	17:11:24.590	$GPGGA,171125,2546.9286,N,07925.0684,W,1,11,1.4,17,M,,M,,*61
06/18/2015	17:11:25.569	$GPGGA,171126,2546.9293,N,07925.0686,W,1,11,1.4,17,M,,M,,*64
06/18/2015	17:11:26.589	$GPGGA,171127,2546.9301,N,07925.0687,W,1,11,1.4,17,M,,M,,*6E
06/18/2015	17:11:27.599	$GPGGA,171128,2546.9308,N,07925.0687,W,1,10,1.4,17,M,,M,,*69
06/18/2015	17:11:28.580	$GPGGA,171129,2546.9316,N,07925.0690,W,1,10,1.4,17,M,,M,,*61
06/18/2015	17:11:29.589	$GPGGA,171130,2546.9323,N,07925.0691,W,1,11,1.5,17,M,,M,,*6E
06/18/2015	17:11:30.559	$GPGGA,171131,2546.9332,N,07925.0691,W,1,11,1.5,17,M,,M,,*6F
06/18/2015	17:11:31.599	$GPGGA,171132,2546.9340,N,07925.0691,W,1,11,1.4,17,M,,M,,*68
06/18/2015	17:11:32.569	$GPGGA,171133,2546.9348,N,07925.0691,W,1,11,1.4,17,M,,M,,*61
06/18/2015	17:11:33.589	$GPGGA,171134,2546.9355,N,07925.0693,W,1,11,1.4,17,M,,M,,*68
06/18/2015	17:11:34.559	$GPGGA,171135,2546.9363,N,07925.0694,W,1,11,1.5,17,M,,M,,*6A
06/18/2015	17:11:35.589	$GPGGA,171136,2546.9373,N,07925.0695,W,1,11,1.4,17,M,,M,,*68
06/18/2015	17:11:36.550	$GPGGA,171137,2546.9381,N,07925.0695,W,1,11,1.4,17,M,,M,,*64
06/18/2015	17:11:37.550	$GPGGA,171138,2546.9390,N,07925.0697,W,1,11,1.4,17,M,,M,,*69
06/18/2015	17:11:38.569	$GPGGA,171139,2546.9398,N,07925.0698,W,1,11,1.4,17,M,,M,,*6F
06/18/2015	17:11:39.589	$GPGGA,171140,2546.9406,N,07925.0698,W,1,11,1.4,18,M,,M,,*6E
06/18/2015	17:11:40.549	$GPGGA,171141,2546.9413,N,07925.0699,W,1,11,1.4,18,M,,M,,*6A
06/18/2015	17:11:41.559	$GPGGA,171142,2546.9422,N,07925.0701,W,1,11,1.4,18,M,,M,,*6B
06/18/2015	17:11:42.559	$GPGGA,171143,2546.9428,N,07925.0701,W,1,11,1.4,18,M,,M,,*60
06/18/2015	17:11:43.579	$GPGGA,171144,2546.9438,N,07925.0702,W,1,11,1.4,18,M,,M,,*65
06/18/2015	17:11:44.549	$GPGGA,171145,2546.9445,N,07925.0702,W,1,11,1.4,18,M,,M,,*6E
06/18/2015	17:11:45.559	$GPGGA,171146,2546.9453,N,07925.0704,W,1,11,1.4,18,M,,M,,*6C
06/18/2015	17:11:46.529	$GPGGA,171147,2546.9460,N,07925.0704,W,1,11,1.4,18,M,,M,,*6D
06/18/2015	17:11:47.559	$GPGGA,171148,2546.9467,N,07925.0705,W,1,11,1.4,19,M,,M,,*65
