Software Version Number: 1	Data File Format Number: 1	Build Version Number: 1	Error Count Since VI Started: 1	Manufacturer: Raytheon	 Model Number: RayMarine 120	 S/N: 	 Cal Date: 	 Wind Direction Offset: 0.00	 Slope (M)1: 0.00	 Offset (B)1: 0.00	 Slope (M)2: 0.00	 Offset (B)2: 0.00	 Slope (M)3: 0.00	 Offset (B)3: 0.00	 Slope (M)4: 0.00	 Offset (B)4: 0.00	 Slope (M)5: 0.00	 Offset (B)5: 0.00	 Slope (M)6: 0.00	 Offset (B)6: 0.00
Computer Date	Computer Time	GGA String
06/17/2015	18:00:00.594	$GPGGA,180001,2543.8846,N,08009.7258,W,1,11,1.6,11,M,,M,,*64
06/17/2015	18:00:01.584	$GPGGA,180002,2543.8846,N,08009.7259,W,1,11,1.6,11,M,,M,,*66
06/17/2015	18:00:02.584	$GPGGA,180003,2543.8846,N,08009.7259,W,1,11,1.6,11,M,,M,,*67
06/17/2015	18:00:03.904	$GPGGA,180004,2543.8846,N,08009.7259,W,1,11,1.6,11,M,,M,,*60
06/17/2015	18:00:04.584	$GPGGA,180005,2543.8846,N,08009.7261,W,1,11,1.6,11,M,,M,,*6A
06/17/2015	18:00:05.594	$GPGGA,180006,2543.8846,N,08009.7259,W,1,11,1.6,11,M,,M,,*62
06/17/2015	18:00:06.574	$GPGGA,180007,2543.8846,N,08009.7261,W,1,11,1.6,11,M,,M,,*68
06/17/2015	18:00:07.604	$GPGGA,180008,2543.8846,N,08009.7260,W,1,11,1.6,11,M,,M,,*66
06/17/2015	18:00:08.574	$GPGGA,180009,2543.8846,N,08009.7261,W,1,11,1.6,11,M,,M,,*66
06/17/2015	18:00:09.584	$GPGGA,180010,2543.8846,N,08009.7260,W,1,11,1.6,11,M,,M,,*6F
06/17/2015	18:00:10.554	$GPGGA,180011,2543.8846,N,08009.7261,W,1,11,1.6,11,M,,M,,*6F
06/17/2015	18:00:11.584	$GPGGA,180012,2543.8846,N,08009.7260,W,1,11,1.6,11,M,,M,,*6D
06/17/2015	18:00:12.564	$GPGGA,180013,2543.8848,N,08009.7261,W,1,11,1.6,11,M,,M,,*63
06/17/2015	18:00:13.584	$GPGGA,180014,2543.8847,N,08009.7260,W,1,11,1.6,11,M,,M,,*6A
06/17/2015	18:00:14.555	$GPGGA,180015,2543.8848,N,08009.7261,W,1,11,1.6,11,M,,M,,*65
06/17/2015	18:00:15.575	$GPGGA,180016,2543.8847,N,08009.7260,W,1,11,1.6,11,M,,M,,*68
06/17/2015	18:00:16.554	$GPGGA,180017,2543.8848,N,08009.7261,W,1,11,1.6,11,M,,M,,*67
06/17/2015	18:00:17.844	$GPGGA,180018,2543.8847,N,08009.7262,W,1,11,1.6,11,M,,M,,*64
06/17/2015	18:00:18.554	$GPGGA,180019,2543.8848,N,08009.7261,W,1,11,1.6,11,M,,M,,*69
06/17/2015	18:00:19.554	$GPGGA,180020,2543.8847,N,08009.7262,W,1,11,1.6,11,M,,M,,*6F
06/17/2015	18:00:20.537	$GPGGA,180021,2543.8848,N,08009.7261,W,1,11,1.6,11,M,,M,,*62
06/17/2015	18:00:21.574	$GPGGA,180022,2543.8847,N,08009.7262,W,1,11,1.6,11,M,,M,,*6D
06/17/2015	18:00:22.544	$GPGGA,180023,2543.8848,N,08009.7261,W,1,11,1.6,10,M,,M,,*61
06/17/2015	18:00:23.584	$GPGGA,180024,2543.8847,N,08009.7262,W,1,11,1.6,10,M,,M,,*6A
06/17/2015	18:00:24.534	$GPGGA,180025,2543.8848,N,08009.7261,W,1,11,1.6,10,M,,M,,*67
06/17/2015	18:00:25.545	$GPGGA,180026,2543.8849,N,08009.7262,W,1,11,1.6,10,M,,M,,*66
06/17/2015	18:00:26.524	$GPGGA,180027,2543.8848,N,08009.7261,W,1,11,1.6,10,M,,M,,*65
06/17/2015	18:00:27.544	$GPGGA,180028,2543.8849,N,08009.7262,W,1,11,1.6,10,M,,M,,*68
06/17/2015	18:00:28.544	$GPGGA,180029,2543.8848,N,08009.7261,W,1,11,1.6,10,M,,M,,*6B
06/17/2015	18:00:29.524	$GPGGA,180030,2543.8849,N,08009.7262,W,1,11,1.6,10,M,,M,,*61
06/17/2015	18:00:30.634	$GPGGA,180031,2543.8848,N,08009.7262,W,1,11,1.6,10,M,,M,,*61
06/17/2015	18:00:31.655	$GPGGA,180032,2543.8849,N,08009.7262,W,1,11,1.6,10,M,,M,,*63
06/17/2015	18:00:32.635	$GPGGA,180033,2543.8848,N,08009.7263,W,1,11,1.6,10,M,,M,,*62
06/17/2015	18:00:33.505	$GPGGA,180034,2543.8849,N,08009.7263,W,1,11,1.6,10,M,,M,,*64
06/17/2015	18:00:34.614	$GPGGA,180035,2543.8848,N,08009.7263,W,1,11,1.6,10,M,,M,,*64
06/17/2015	18:00:35.654	$GPGGA,180036,2543.8849,N,08009.7265,W,1,11,1.6,10,M,,M,,*60
06/17/2015	18:00:36.524	$GPGGA,180037,2543.8848,N,08009.7264,W,1,11,1.6,10,M,,M,,*61
06/17/2015	18:00:37.634	$GPGGA,180038,2543.8849,N,08009.7265,W,1,11,1.6,10,M,,M,,*6E
06/17/2015	18:00:38.614	$GPGGA,180039,2543.8848,N,08009.7264,W,1,11,1.6,10,M,,M,,*6F
06/17/2015	18:00:39.644	$GPGGA,180040,2543.8849,N,08009.7265,W,1,11,1.6,10,M,,M,,*61
06/17/2015	18:00:40.624	$GPGGA,180041,2543.8848,N,08009.7265,W,1,11,1.6,10,M,,M,,*61
06/17/2015	18:00:41.604	$GPGGA,180042,2543.8847,N,08009.7265,W,1,11,1.6,10,M,,M,,*6D
06/17/2015	18:00:42.584	$GPGGA,180043,2543.8848,N,08009.7265,W,1,11,1.6,10,M,,M,,*63
06/17/2015	18:00:43.614	$GPGGA,180044,2543.8847,N,08009.7265,W,1,11,1.6,10,M,,M,,*6B
06/17/2015	18:00:44.594	$GPGGA,180045,2543.8848,N,08009.7265,W,1,11,1.6,10,M,,M,,*65
06/17/2015	18:00:45.584	$GPGGA,180046,2543.8847,N,08009.7266,W,1,11,1.6,10,M,,M,,*6A
06/17/2015	18:00:46.594	$GPGGA,180047,2543.8848,N,08009.7266,W,1,11,1.6,10,M,,M,,*64
06/17/2015	18:00:47.614	$GPGGA,180048,2543.8847,N,08009.7266,W,1,11,1.6,10,M,,M,,*64
06/17/2015	18:00:48.584	$GPGGA,180049,2543.8848,N,08009.7266,W,1,11,1.6,10,M,,M,,*6A
06/17/2015	18:00:49.595	$GPGGA,180050,2543.8846,N,08009.7265,W,1,11,1.6,9,M,,M,,*57
06/17/2015	18:00:50.565	$GPGGA,180051,2543.8846,N,08009.7265,W,1,11,1.6,9,M,,M,,*56
06/17/2015	18:00:51.604	$GPGGA,180052,2543.8846,N,08009.7265,W,1,11,1.6,9,M,,M,,*55
06/17/2015	18:00:52.584	$GPGGA,180053,2543.8846,N,08009.7265,W,1,11,1.6,9,M,,M,,*54
06/17/2015	18:00:54.004	$GPGGA,180054,2543.8846,N,08009.7265,W,1,11,1.6,9,M,,M,,*53
06/17/2015	18:00:54.574	$GPGGA,180055,2543.8846,N,08009.7265,W,1,11,1.6,9,M,,M,,*52
06/17/2015	18:00:55.604	$GPGGA,180056,2543.8846,N,08009.7265,W,1,11,1.6,9,M,,M,,*51
06/17/2015	18:00:56.564	$GPGGA,180057,2543.8846,N,08009.7266,W,1,11,1.6,9,M,,M,,*53
06/17/2015	18:00:57.584	$GPGGA,180058,2543.8846,N,08009.7266,W,1,11,1.6,9,M,,M,,*5C
06/17/2015	18:00:58.554	$GPGGA,180059,2543.8846,N,08009.7265,W,1,11,1.6,9,M,,M,,*5E
06/17/2015	18:00:59.604	$GPGGA,180100,2543.8846,N,08009.7265,W,1,11,1.6,9,M,,M,,*53
06/17/2015	18:01:00.554	$GPGGA,180101,2543.8846,N,08009.7265,W,1,11,1.6,9,M,,M,,*52
06/17/2015	18:01:01.544	$GPGGA,180102,2543.8846,N,08009.7265,W,1,11,1.6,9,M,,M,,*51
06/17/2015	18:01:02.554	$GPGGA,180103,2543.8846,N,08009.7265,W,1,11,1.6,9,M,,M,,*50
06/17/2015	18:01:03.574	$GPGGA,180104,2543.8844,N,08009.7264,W,1,11,1.6,9,M,,M,,*54
06/17/2015	18:01:04.535	$GPGGA,180105,2543.8845,N,08009.7265,W,1,11,1.6,9,M,,M,,*55
06/17/2015	18:01:05.554	$GPGGA,180106,2543.8844,N,08009.7264,W,1,11,1.6,9,M,,M,,*56
06/17/2015	18:01:06.536	$GPGGA,180107,2543.8845,N,08009.7265,W,1,11,1.6,9,M,,M,,*57
06/17/2015	18:01:07.545	$GPGGA,180108,2543.8844,N,08009.7264,W,1,11,1.6,9,M,,M,,*58
06/17/2015	18:01:08.635	$GPGGA,180109,2543.8845,N,08009.7265,W,1,11,1.6,9,M,,M,,*59
06/17/2015	18:01:09.554	$GPGGA,180110,2543.8844,N,08009.7264,W,1,11,1.6,9,M,,M,,*51
06/17/2015	18:01:10.524	$GPGGA,180111,2543.8845,N,08009.7265,W,1,11,1.6,9,M,,M,,*50
06/17/2015	18:01:11.534	$GPGGA,180112,2543.8844,N,08009.7264,W,1,11,1.6,9,M,,M,,*53
06/17/2015	18:01:12.514	$GPGGA,180113,2543.8843,N,08009.7265,W,1,11,1.6,9,M,,M,,*54
06/17/2015	18:01:13.544	$GPGGA,180114,2543.8844,N,08009.7265,W,1,11,1.6,9,M,,M,,*54
06/17/2015	18:01:14.537	$GPGGA,180115,2543.8843,N,08009.7265,W,1,11,1.6,9,M,,M,,*52
06/17/2015	18:01:15.564	$GPGGA,180116,2543.8844,N,08009.7265,W,1,11,1.6,9,M,,M,,*56
06/17/2015	18:01:16.674	$GPGGA,180117,2543.8843,N,08009.7265,W,1,11,1.6,9,M,,M,,*50
06/17/2015	18:01:17.674	$GPGGA,180118,2543.8844,N,08009.7265,W,1,11,1.6,9,M,,M,,*58
06/17/2015	18:01:18.504	$GPGGA,180119,2543.8843,N,08009.7265,W,1,11,1.6,9,M,,M,,*5E
06/17/2015	18:01:19.684	$GPGGA,180120,2543.8844,N,08009.7265,W,1,11,1.6,9,M,,M,,*53
06/17/2015	18:01:20.514	$GPGGA,180121,2543.8845,N,08009.7265,W,1,11,1.6,9,M,,M,,*53
06/17/2015	18:01:21.664	$GPGGA,180122,2543.8844,N,08009.7265,W,1,11,1.6,9,M,,M,,*51
06/17/2015	18:01:22.524	$GPGGA,180123,2543.8845,N,08009.7265,W,1,11,1.6,9,M,,M,,*51
06/17/2015	18:01:23.674	$GPGGA,180124,2543.8844,N,08009.7265,W,1,11,1.6,8,M,,M,,*56
06/17/2015	18:01:24.595	$GPGGA,180125,2543.8845,N,08009.7265,W,1,11,1.6,8,M,,M,,*56
06/17/2015	18:01:25.645	$GPGGA,180126,2543.8844,N,08009.7265,W,1,11,1.6,8,M,,M,,*54
06/17/2015	18:01:26.594	$GPGGA,180127,2543.8845,N,08009.7265,W,1,11,1.6,8,M,,M,,*54
06/17/2015	18:01:27.684	$GPGGA,180128,2543.8844,N,08009.7265,W,1,11,1.6,8,M,,M,,*5A
06/17/2015	18:01:28.584	$GPGGA,180129,2543.8845,N,08009.7265,W,1,11,1.6,8,M,,M,,*5A
06/17/2015	18:01:29.634	$GPGGA,180130,2543.8844,N,08009.7265,W,1,11,1.6,8,M,,M,,*53
06/17/2015	18:01:30.584	$GPGGA,180131,2543.8845,N,08009.7265,W,1,11,1.6,8,M,,M,,*53
06/17/2015	18:01:31.684	$GPGGA,180132,2543.8843,N,08009.7265,W,1,11,1.6,8,M,,M,,*56
06/17/2015	18:01:32.584	$GPGGA,180133,2543.8844,N,08009.7265,W,1,11,1.6,8,M,,M,,*50
06/17/2015	18:01:33.624	$GPGGA,180134,2543.8843,N,08009.7265,W,1,11,1.6,8,M,,M,,*50
06/17/2015	18:01:34.584	$GPGGA,180135,2543.8844,N,08009.7265,W,1,11,1.6,8,M,,M,,*56
06/17/2015	18:01:35.674	$GPGGA,180136,2543.8843,N,08009.7265,W,1,11,1.6,8,M,,M,,*52
06/17/2015	18:01:36.644	$GPGGA,180137,2543.8842,N,08009.7265,W,1,11,1.6,8,M,,M,,*52
06/17/2015	18:01:37.594	$GPGGA,180138,2543.8842,N,08009.7264,W,1,11,1.6,8,M,,M,,*5C
06/17/2015	18:01:38.624	$GPGGA,180139,2543.8842,N,08009.7265,W,1,11,1.6,8,M,,M,,*5C
06/17/2015	18:01:39.624	$GPGGA,180140,2543.8842,N,08009.7265,W,1,11,1.6,8,M,,M,,*52
06/17/2015	18:01:40.624	$GPGGA,180141,2543.8842,N,08009.7264,W,1,11,1.6,8,M,,M,,*52
06/17/2015	18:01:41.605	$GPGGA,180142,2543.8842,N,08009.7265,W,1,11,1.6,8,M,,M,,*50
06/17/2015	18:01:42.615	$GPGGA,180143,2543.8842,N,08009.7264,W,1,11,1.6,8,M,,M,,*50
06/17/2015	18:01:43.645	$GPGGA,180144,2543.8842,N,08009.7265,W,1,11,1.6,8,M,,M,,*56
06/17/2015	18:01:44.624	$GPGGA,180145,2543.8842,N,08009.7265,W,1,11,1.6,8,M,,M,,*57
06/17/2015	18:01:45.544	$GPGGA,180146,2543.8842,N,08009.7265,W,1,11,1.6,8,M,,M,,*54
06/17/2015	18:01:46.614	$GPGGA,180147,2543.8842,N,08009.7265,W,1,11,1.6,8,M,,M,,*55
06/17/2015	18:01:47.554	$GPGGA,180148,2543.8842,N,08009.7265,W,1,11,1.6,8,M,,M,,*5A
06/17/2015	18:01:48.614	$GPGGA,180149,2543.8842,N,08009.7265,W,1,11,1.6,8,M,,M,,*5B
06/17/2015	18:01:49.535	$GPGGA,180150,2543.8842,N,08009.7265,W,1,11,1.6,8,M,,M,,*53
06/17/2015	18:01:50.604	$GPGGA,180151,2543.8842,N,08009.7265,W,1,11,1.6,8,M,,M,,*52
06/17/2015	18:01:51.624	$GPGGA,180152,2543.8842,N,08009.7266,W,1,11,1.6,8,M,,M,,*52
06/17/2015	18:01:52.604	$GPGGA,180153,2543.8842,N,08009.7266,W,1,11,1.6,8,M,,M,,*53
06/17/2015	18:01:53.634	$GPGGA,180154,2543.8842,N,08009.7266,W,1,11,1.6,8,M,,M,,*54
06/17/2015	18:01:54.594	$GPGGA,180155,2543.8842,N,08009.7267,W,1,11,1.6,8,M,,M,,*54
06/17/2015	18:01:55.624	$GPGGA,180156,2543.8842,N,08009.7267,W,1,11,1.6,8,M,,M,,*57
06/17/2015	18:01:56.594	$GPGGA,180157,2543.8842,N,08009.7267,W,1,11,1.6,8,M,,M,,*56
06/17/2015	18:01:57.574	$GPGGA,180158,2543.8842,N,08009.7267,W,1,11,1.6,8,M,,M,,*59
06/17/2015	18:01:58.514	$GPGGA,180159,2543.8842,N,08009.7269,W,1,11,1.6,8,M,,M,,*56
06/17/2015	18:01:59.605	$GPGGA,180200,2543.8842,N,08009.7268,W,1,10,1.9,8,M,,M,,*56
06/17/2015	18:02:00.515	$GPGGA,180201,2543.8842,N,08009.7266,W,1,10,1.6,8,M,,M,,*56
06/17/2015	18:02:01.514	$GPGGA,180202,2543.8842,N,08009.7266,W,1,11,1.6,8,M,,M,,*54
06/17/2015	18:02:02.574	$GPGGA,180203,2543.8840,N,08009.7266,W,1,11,1.6,8,M,,M,,*57
06/17/2015	18:02:03.594	$GPGGA,180204,2543.8841,N,08009.7265,W,1,11,1.6,8,M,,M,,*52
06/17/2015	18:02:04.504	$GPGGA,180205,2543.8840,N,08009.7266,W,1,11,1.6,8,M,,M,,*51
06/17/2015	18:02:05.544	$GPGGA,180206,2543.8841,N,08009.7267,W,1,10,1.9,8,M,,M,,*5C
06/17/2015	18:02:06.504	$GPGGA,180207,2543.8842,N,08009.7267,W,1,10,1.9,8,M,,M,,*5E
06/17/2015	18:02:07.584	$GPGGA,180208,2543.8842,N,08009.7267,W,1,10,1.9,8,M,,M,,*51
06/17/2015	18:02:08.494	$GPGGA,180209,2543.8842,N,08009.7269,W,1,10,1.9,8,M,,M,,*5E
06/17/2015	18:02:09.564	$GPGGA,180210,2543.8842,N,08009.7268,W,1,10,1.6,8,M,,M,,*58
06/17/2015	18:02:10.604	$GPGGA,180211,2543.8842,N,08009.7266,W,1,10,1.6,8,M,,M,,*57
06/17/2015	18:02:11.624	$GPGGA,180212,2543.8842,N,08009.7265,W,1,11,1.6,8,M,,M,,*56
06/17/2015	18:02:12.584	$GPGGA,180213,2543.8840,N,08009.7264,W,1,11,1.6,8,M,,M,,*54
06/17/2015	18:02:13.604	$GPGGA,180214,2543.8841,N,08009.7263,W,1,11,1.6,8,M,,M,,*55
06/17/2015	18:02:14.614	$GPGGA,180215,2543.8840,N,08009.7263,W,1,11,1.6,8,M,,M,,*55
06/17/2015	18:02:15.624	$GPGGA,180216,2543.8841,N,08009.7263,W,1,11,1.6,9,M,,M,,*56
06/17/2015	18:02:16.615	$GPGGA,180217,2543.8840,N,08009.7263,W,1,11,1.6,9,M,,M,,*56
06/17/2015	18:02:17.595	$GPGGA,180218,2543.8841,N,08009.7262,W,1,11,1.6,9,M,,M,,*59
06/17/2015	18:02:18.605	$GPGGA,180219,2543.8839,N,08009.7262,W,1,11,1.6,9,M,,M,,*57
06/17/2015	18:02:19.634	$GPGGA,180220,2543.8839,N,08009.7263,W,1,11,1.6,9,M,,M,,*5C
06/17/2015	18:02:20.584	$GPGGA,180221,2543.8839,N,08009.7263,W,1,11,1.6,9,M,,M,,*5D
06/17/2015	18:02:21.594	$GPGGA,180222,2543.8839,N,08009.7263,W,1,11,1.6,9,M,,M,,*5E
06/17/2015	18:02:22.574	$GPGGA,180223,2543.8841,N,08009.7263,W,1,11,2.0,9,M,,M,,*55
06/17/2015	18:02:23.574	$GPGGA,180224,2543.8840,N,08009.7263,W,1,10,2.0,9,M,,M,,*52
06/17/2015	18:02:24.574	$GPGGA,180225,2543.8841,N,08009.7263,W,1,10,2.0,9,M,,M,,*52
06/17/2015	18:02:25.584	$GPGGA,180226,2543.8840,N,08009.7263,W,1,10,2.0,9,M,,M,,*50
06/17/2015	18:02:26.554	$GPGGA,180227,2543.8841,N,08009.7263,W,1,10,2.0,9,M,,M,,*50
06/17/2015	18:02:27.594	$GPGGA,180228,2543.8840,N,08009.7263,W,1,10,2.0,9,M,,M,,*5E
06/17/2015	18:02:28.564	$GPGGA,180229,2543.8841,N,08009.7265,W,1,10,2.0,9,M,,M,,*58
06/17/2015	18:02:29.574	$GPGGA,180230,2543.8840,N,08009.7264,W,1,10,2.0,9,M,,M,,*50
06/17/2015	18:02:30.564	$GPGGA,180231,2543.8841,N,08009.7265,W,1,10,2.0,9,M,,M,,*51
06/17/2015	18:02:31.584	$GPGGA,180232,2543.8840,N,08009.7265,W,1,10,2.0,9,M,,M,,*53
06/17/2015	18:02:32.574	$GPGGA,180233,2543.8841,N,08009.7265,W,1,10,2.0,9,M,,M,,*53
06/17/2015	18:02:33.574	$GPGGA,180234,2543.8840,N,08009.7265,W,1,10,2.0,9,M,,M,,*55
06/17/2015	18:02:34.555	$GPGGA,180235,2543.8841,N,08009.7265,W,1,10,2.0,9,M,,M,,*55
06/17/2015	18:02:35.555	$GPGGA,180236,2543.8841,N,08009.7265,W,1,10,2.0,9,M,,M,,*56
06/17/2015	18:02:36.554	$GPGGA,180237,2543.8841,N,08009.7265,W,1,10,2.0,9,M,,M,,*57
06/17/2015	18:02:37.564	$GPGGA,180238,2543.8840,N,08009.7265,W,1,10,2.0,9,M,,M,,*59
06/17/2015	18:02:38.538	$GPGGA,180239,2543.8840,N,08009.7265,W,1,10,2.0,9,M,,M,,*58
06/17/2015	18:02:39.544	$GPGGA,180240,2543.8840,N,08009.7265,W,1,10,2.0,9,M,,M,,*56
06/17/2015	18:02:40.554	$GPGGA,180241,2543.8839,N,08009.7265,W,1,10,2.0,9,M,,M,,*59
06/17/2015	18:02:41.564	$GPGGA,180242,2543.8841,N,08009.7266,W,1,10,2.0,8,M,,M,,*57
06/17/2015	18:02:42.564	$GPGGA,180243,2543.8840,N,08009.7266,W,1,10,2.0,8,M,,M,,*57
06/17/2015	18:02:43.534	$GPGGA,180244,2543.8839,N,08009.7266,W,1,10,2.0,8,M,,M,,*5E
06/17/2015	18:02:44.544	$GPGGA,180245,2543.8839,N,08009.7266,W,1,10,2.0,8,M,,M,,*5F
06/17/2015	18:02:45.524	$GPGGA,180246,2543.8839,N,08009.7267,W,1,10,2.0,8,M,,M,,*5D
06/17/2015	18:02:46.554	$GPGGA,180247,2543.8839,N,08009.7267,W,1,10,2.0,8,M,,M,,*5C
06/17/2015	18:02:47.544	$GPGGA,180248,2543.8839,N,08009.7267,W,1,10,2.0,8,M,,M,,*53
06/17/2015	18:02:48.564	$GPGGA,180249,2543.8839,N,08009.7267,W,1,10,1.6,8,M,,M,,*57
06/17/2015	18:02:49.524	$GPGGA,180250,2543.8839,N,08009.7267,W,1,11,2.0,8,M,,M,,*5B
06/17/2015	18:02:50.554	$GPGGA,180251,2543.8839,N,08009.7267,W,1,11,2.0,8,M,,M,,*5A
06/17/2015	18:02:51.615	$GPGGA,180252,2543.8839,N,08009.7269,W,1,10,2.0,8,M,,M,,*56
06/17/2015	18:02:52.615	$GPGGA,180253,2543.8839,N,08009.7270,W,1,10,1.6,8,M,,M,,*5A
06/17/2015	18:02:53.605	$GPGGA,180254,2543.8839,N,08009.7270,W,1,11,1.6,8,M,,M,,*5C
06/17/2015	18:02:54.614	$GPGGA,180255,2543.8837,N,08009.7272,W,1,11,1.6,8,M,,M,,*51
06/17/2015	18:02:55.614	$GPGGA,180256,2543.8838,N,08009.7272,W,1,11,1.6,8,M,,M,,*5D
06/17/2015	18:02:56.604	$GPGGA,180257,2543.8837,N,08009.7273,W,1,11,1.6,8,M,,M,,*52
06/17/2015	18:02:57.594	$GPGGA,180258,2543.8836,N,08009.7274,W,1,11,1.6,8,M,,M,,*5B
06/17/2015	18:02:58.594	$GPGGA,180259,2543.8837,N,08009.7276,W,1,11,1.6,8,M,,M,,*59
06/17/2015	18:02:59.625	$GPGGA,180300,2543.8836,N,08009.7276,W,1,11,1.6,8,M,,M,,*55
06/17/2015	18:03:00.584	$GPGGA,180301,2543.8837,N,08009.7276,W,1,11,1.6,8,M,,M,,*55
06/17/2015	18:03:01.604	$GPGGA,180302,2543.8835,N,08009.7277,W,1,11,1.6,8,M,,M,,*55
06/17/2015	18:03:02.584	$GPGGA,180303,2543.8835,N,08009.7279,W,1,11,1.6,8,M,,M,,*5A
06/17/2015	18:03:03.634	$GPGGA,180304,2543.8835,N,08009.7278,W,1,11,1.6,9,M,,M,,*5D
06/17/2015	18:03:04.634	$GPGGA,180305,2543.8835,N,08009.7279,W,1,11,1.6,9,M,,M,,*5D
06/17/2015	18:03:05.574	$GPGGA,180306,2543.8835,N,08009.7280,W,1,11,1.6,9,M,,M,,*58
06/17/2015	18:03:06.594	$GPGGA,180307,2543.8835,N,08009.7279,W,1,11,1.6,9,M,,M,,*5F
06/17/2015	18:03:07.594	$GPGGA,180308,2543.8835,N,08009.7280,W,1,11,1.6,9,M,,M,,*56
06/17/2015	18:03:08.584	$GPGGA,180309,2543.8835,N,08009.7279,W,1,11,1.6,9,M,,M,,*51
06/17/2015	18:03:09.565	$GPGGA,180310,2543.8835,N,08009.7280,W,1,11,1.6,9,M,,M,,*5F
06/17/2015	18:03:10.565	$GPGGA,180311,2543.8835,N,08009.7280,W,1,11,1.6,9,M,,M,,*5E
06/17/2015	18:03:11.604	$GPGGA,180312,2543.8835,N,08009.7280,W,1,11,1.6,10,M,,M,,*65
06/17/2015	18:03:12.574	$GPGGA,180313,2543.8835,N,08009.7279,W,1,11,1.6,10,M,,M,,*62
06/17/2015	18:03:13.594	$GPGGA,180314,2543.8835,N,08009.7280,W,1,11,1.6,10,M,,M,,*63
06/17/2015	18:03:14.554	$GPGGA,180315,2543.8835,N,08009.7279,W,1,11,1.6,10,M,,M,,*64
06/17/2015	18:03:15.604	$GPGGA,180316,2543.8835,N,08009.7280,W,1,11,1.6,10,M,,M,,*61
06/17/2015	18:03:16.549	$GPGGA,180317,2543.8835,N,08009.7280,W,1,11,1.6,10,M,,M,,*60
06/17/2015	18:03:17.544	$GPGGA,180318,2543.8835,N,08009.7279,W,1,11,1.6,10,M,,M,,*69
06/17/2015	18:03:18.564	$GPGGA,180319,2543.8835,N,08009.7280,W,1,11,1.6,10,M,,M,,*6E
06/17/2015	18:03:19.594	$GPGGA,180320,2543.8835,N,08009.7279,W,1,11,1.6,10,M,,M,,*62
06/17/2015	18:03:20.554	$GPGGA,180321,2543.8835,N,08009.7280,W,1,11,1.6,10,M,,M,,*65
06/17/2015	18:03:21.538	$GPGGA,180322,2543.8835,N,08009.7280,W,1,11,1.6,10,M,,M,,*66
06/17/2015	18:03:22.554	$GPGGA,180323,2543.8835,N,08009.7280,W,1,11,1.6,10,M,,M,,*67
06/17/2015	18:03:23.544	$GPGGA,180324,2543.8835,N,08009.7280,W,1,11,1.6,10,M,,M,,*60
06/17/2015	18:03:24.654	$GPGGA,180325,2543.8835,N,08009.7280,W,1,11,1.6,10,M,,M,,*61
06/17/2015	18:03:25.554	$GPGGA,180326,2543.8835,N,08009.7280,W,1,11,1.6,10,M,,M,,*62
06/17/2015	18:03:26.546	$GPGGA,180327,2543.8835,N,08009.7280,W,1,11,1.6,10,M,,M,,*63
06/17/2015	18:03:27.665	$GPGGA,180328,2543.8835,N,08009.7279,W,1,11,1.6,11,M,,M,,*6B
06/17/2015	18:03:28.537	$GPGGA,180329,2543.8835,N,08009.7280,W,1,11,1.6,11,M,,M,,*6C
06/17/2015	18:03:29.634	$GPGGA,180330,2543.8835,N,08009.7278,W,1,11,1.6,11,M,,M,,*63
06/17/2015	18:03:30.545	$GPGGA,180331,2543.8835,N,08009.7279,W,1,11,1.6,11,M,,M,,*63
06/17/2015	18:03:31.654	$GPGGA,180332,2543.8835,N,08009.7278,W,1,11,1.6,11,M,,M,,*61
06/17/2015	18:03:32.635	$GPGGA,180333,2543.8835,N,08009.7279,W,1,11,1.6,11,M,,M,,*61
06/17/2015	18:03:33.644	$GPGGA,180334,2543.8835,N,08009.7278,W,1,11,1.6,11,M,,M,,*67
06/17/2015	18:03:34.524	$GPGGA,180335,2543.8835,N,08009.7279,W,1,11,1.6,11,M,,M,,*67
06/17/2015	18:03:35.624	$GPGGA,180336,2543.8835,N,08009.7278,W,1,11,1.6,11,M,,M,,*65
06/17/2015	18:03:36.524	$GPGGA,180337,2543.8835,N,08009.7279,W,1,11,1.6,11,M,,M,,*65
06/17/2015	18:03:37.604	$GPGGA,180338,2543.8835,N,08009.7277,W,1,11,1.6,11,M,,M,,*64
06/17/2015	18:03:38.615	$GPGGA,180339,2543.8835,N,08009.7277,W,1,11,1.6,11,M,,M,,*65
06/17/2015	18:03:39.624	$GPGGA,180340,2543.8835,N,08009.7277,W,1,11,1.6,11,M,,M,,*6B
06/17/2015	18:03:40.614	$GPGGA,180341,2543.8835,N,08009.7277,W,1,11,1.6,11,M,,M,,*6A
06/17/2015	18:03:41.634	$GPGGA,180342,2543.8835,N,08009.7277,W,1,11,1.6,11,M,,M,,*69
06/17/2015	18:03:42.594	$GPGGA,180343,2543.8835,N,08009.7277,W,1,11,1.6,11,M,,M,,*68
06/17/2015	18:03:43.644	$GPGGA,180344,2543.8835,N,08009.7277,W,1,11,1.6,11,M,,M,,*6F
06/17/2015	18:03:44.585	$GPGGA,180345,2543.8833,N,08009.7277,W,1,11,1.6,11,M,,M,,*68
06/17/2015	18:03:45.615	$GPGGA,180346,2543.8835,N,08009.7277,W,1,11,1.6,11,M,,M,,*6D
06/17/2015	18:03:46.584	$GPGGA,180347,2543.8833,N,08009.7277,W,1,11,1.6,11,M,,M,,*6A
06/17/2015	18:03:47.634	$GPGGA,180348,2543.8835,N,08009.7277,W,1,11,1.6,11,M,,M,,*63
06/17/2015	18:03:48.584	$GPGGA,180349,2543.8835,N,08009.7277,W,1,11,1.6,11,M,,M,,*62
06/17/2015	18:03:49.604	$GPGGA,180350,2543.8835,N,08009.7277,W,1,11,1.6,11,M,,M,,*6A
06/17/2015	18:03:50.584	$GPGGA,180351,2543.8835,N,08009.7277,W,1,11,1.6,11,M,,M,,*6B
06/17/2015	18:03:51.594	$GPGGA,180352,2543.8835,N,08009.7277,W,1,11,1.6,11,M,,M,,*68
06/17/2015	18:03:52.584	$GPGGA,180353,2543.8835,N,08009.7276,W,1,11,1.6,11,M,,M,,*68
06/17/2015	18:03:53.584	$GPGGA,180354,2543.8835,N,08009.7276,W,1,11,1.6,11,M,,M,,*6F
06/17/2015	18:03:54.584	$GPGGA,180355,2543.8835,N,08009.7276,W,1,11,1.6,11,M,,M,,*6E
06/17/2015	18:03:55.594	$GPGGA,180356,2543.8835,N,08009.7276,W,1,11,1.6,11,M,,M,,*6D
06/17/2015	18:03:56.574	$GPGGA,180357,2543.8835,N,08009.7276,W,1,11,1.6,11,M,,M,,*6C
06/17/2015	18:03:57.564	$GPGGA,180358,2543.8835,N,08009.7276,W,1,11,1.6,11,M,,M,,*63
06/17/2015	18:03:58.574	$GPGGA,180359,2543.8835,N,08009.7276,W,1,11,1.6,11,M,,M,,*62
06/17/2015	18:03:59.574	$GPGGA,180400,2543.8835,N,08009.7276,W,1,11,1.6,10,M,,M,,*68
06/17/2015	18:04:00.554	$GPGGA,180401,2543.8835,N,08009.7276,W,1,11,1.6,10,M,,M,,*69
06/17/2015	18:04:01.575	$GPGGA,180402,2543.8835,N,08009.7276,W,1,11,1.6,10,M,,M,,*6A
06/17/2015	18:04:02.555	$GPGGA,180403,2543.8833,N,08009.7275,W,1,11,1.6,10,M,,M,,*6E
06/17/2015	18:04:03.565	$GPGGA,180404,2543.8834,N,08009.7276,W,1,11,1.6,10,M,,M,,*6D
06/17/2015	18:04:04.564	$GPGGA,180405,2543.8833,N,08009.7275,W,1,11,1.6,10,M,,M,,*68
06/17/2015	18:04:05.574	$GPGGA,180406,2543.8834,N,08009.7274,W,1,11,1.6,10,M,,M,,*6D
06/17/2015	18:04:06.544	$GPGGA,180407,2543.8833,N,08009.7274,W,1,11,1.6,10,M,,M,,*6B
06/17/2015	18:04:07.584	$GPGGA,180408,2543.8834,N,08009.7274,W,1,11,1.6,10,M,,M,,*63
06/17/2015	18:04:08.544	$GPGGA,180409,2543.8833,N,08009.7273,W,1,11,1.6,10,M,,M,,*62
06/17/2015	18:04:09.564	$GPGGA,180410,2543.8834,N,08009.7273,W,1,11,1.6,10,M,,M,,*6D
06/17/2015	18:04:10.524	$GPGGA,180411,2543.8833,N,08009.7273,W,1,11,1.6,10,M,,M,,*6B
06/17/2015	18:04:11.574	$GPGGA,180412,2543.8834,N,08009.7273,W,1,11,1.6,10,M,,M,,*6F
06/17/2015	18:04:12.524	$GPGGA,180413,2543.8832,N,08009.7273,W,1,11,1.6,10,M,,M,,*68
06/17/2015	18:04:13.644	$GPGGA,180414,2543.8833,N,08009.7272,W,1,11,1.6,10,M,,M,,*6F
06/17/2015	18:04:14.544	$GPGGA,180415,2543.8832,N,08009.7272,W,1,11,1.6,10,M,,M,,*6F
06/17/2015	18:04:15.636	$GPGGA,180416,2543.8833,N,08009.7272,W,1,11,1.6,10,M,,M,,*6D
06/17/2015	18:04:16.534	$GPGGA,180417,2543.8832,N,08009.7271,W,1,11,1.6,10,M,,M,,*6E
06/17/2015	18:04:17.674	$GPGGA,180418,2543.8833,N,08009.7272,W,1,11,1.6,10,M,,M,,*63
06/17/2015	18:04:18.614	$GPGGA,180419,2543.8832,N,08009.7271,W,1,11,1.6,10,M,,M,,*60
06/17/2015	18:04:19.645	$GPGGA,180420,2543.8833,N,08009.7272,W,1,11,1.6,10,M,,M,,*68
06/17/2015	18:04:20.615	$GPGGA,180421,2543.8832,N,08009.7270,W,1,11,1.6,10,M,,M,,*6A
06/17/2015	18:04:21.514	$GPGGA,180422,2543.8833,N,08009.7272,W,1,11,1.6,10,M,,M,,*6A
06/17/2015	18:04:22.614	$GPGGA,180423,2543.8832,N,08009.7270,W,1,11,1.6,10,M,,M,,*68
06/17/2015	18:04:23.654	$GPGGA,180424,2543.8833,N,08009.7270,W,1,11,1.6,10,M,,M,,*6E
06/17/2015	18:04:24.614	$GPGGA,180425,2543.8832,N,08009.7270,W,1,11,1.6,10,M,,M,,*6E
06/17/2015	18:04:25.615	$GPGGA,180426,2543.8834,N,08009.7270,W,1,11,1.6,10,M,,M,,*6B
06/17/2015	18:04:26.604	$GPGGA,180427,2543.8833,N,08009.7270,W,1,11,1.6,10,M,,M,,*6D
06/17/2015	18:04:27.604	$GPGGA,180428,2543.8834,N,08009.7270,W,1,11,1.6,10,M,,M,,*65
06/17/2015	18:04:28.584	$GPGGA,180429,2543.8833,N,08009.7269,W,1,11,1.6,10,M,,M,,*6B
06/17/2015	18:04:29.604	$GPGGA,180430,2543.8834,N,08009.7269,W,1,11,1.6,10,M,,M,,*64
06/17/2015	18:04:30.594	$GPGGA,180431,2543.8833,N,08009.7269,W,1,11,1.6,10,M,,M,,*62
06/17/2015	18:04:31.644	$GPGGA,180432,2543.8834,N,08009.7269,W,1,11,1.6,10,M,,M,,*66
06/17/2015	18:04:32.594	$GPGGA,180433,2543.8833,N,08009.7269,W,1,11,1.6,10,M,,M,,*60
06/17/2015	18:04:33.604	$GPGGA,180434,2543.8834,N,08009.7269,W,1,11,1.6,10,M,,M,,*60
06/17/2015	18:04:34.604	$GPGGA,180435,2543.8833,N,08009.7268,W,1,11,1.6,10,M,,M,,*67
06/17/2015	18:04:35.614	$GPGGA,180436,2543.8834,N,08009.7269,W,1,11,1.6,10,M,,M,,*62
06/17/2015	18:04:36.585	$GPGGA,180437,2543.8833,N,08009.7268,W,1,11,1.6,10,M,,M,,*65
06/17/2015	18:04:37.595	$GPGGA,180438,2543.8834,N,08009.7269,W,1,11,1.6,10,M,,M,,*6C
06/17/2015	18:04:38.574	$GPGGA,180439,2543.8833,N,08009.7268,W,1,11,1.6,10,M,,M,,*6B
06/17/2015	18:04:39.614	$GPGGA,180440,2543.8834,N,08009.7269,W,1,11,1.6,10,M,,M,,*63
06/17/2015	18:04:40.564	$GPGGA,180441,2543.8833,N,08009.7268,W,1,11,1.6,10,M,,M,,*64
06/17/2015	18:04:41.594	$GPGGA,180442,2543.8834,N,08009.7269,W,1,11,1.6,10,M,,M,,*61
06/17/2015	18:04:42.574	$GPGGA,180443,2543.8833,N,08009.7268,W,1,11,1.6,10,M,,M,,*66
06/17/2015	18:04:43.614	$GPGGA,180444,2543.8834,N,08009.7269,W,1,10,2.0,10,M,,M,,*63
06/17/2015	18:04:44.554	$GPGGA,180445,2543.8833,N,08009.7269,W,1,10,2.0,10,M,,M,,*65
06/17/2015	18:04:45.554	$GPGGA,180446,2543.8834,N,08009.7269,W,1,11,1.6,10,M,,M,,*65
06/17/2015	18:04:46.564	$GPGGA,180447,2543.8833,N,08009.7272,W,1,11,2.0,10,M,,M,,*6C
06/17/2015	18:04:47.564	$GPGGA,180448,2543.8832,N,08009.7272,W,1,11,1.6,10,M,,M,,*67
06/17/2015	18:04:48.544	$GPGGA,180449,2543.8834,N,08009.7271,W,1,11,1.6,10,M,,M,,*63
06/17/2015	18:04:49.574	$GPGGA,180450,2543.8833,N,08009.7272,W,1,10,2.0,10,M,,M,,*6B
06/17/2015	18:04:50.554	$GPGGA,180451,2543.8834,N,08009.7271,W,1,10,2.0,10,M,,M,,*6E
06/17/2015	18:04:51.584	$GPGGA,180452,2543.8833,N,08009.7270,W,1,10,2.0,10,M,,M,,*6B
06/17/2015	18:04:52.535	$GPGGA,180453,2543.8834,N,08009.7270,W,1,10,2.0,10,M,,M,,*6D
06/17/2015	18:04:53.534	$GPGGA,180454,2543.8835,N,08009.7270,W,1,10,2.0,10,M,,M,,*6B
06/17/2015	18:04:54.655	$GPGGA,180455,2543.8835,N,08009.7272,W,1,10,2.0,10,M,,M,,*68
06/17/2015	18:04:55.545	$GPGGA,180456,2543.8835,N,08009.7270,W,1,11,1.6,10,M,,M,,*6D
06/17/2015	18:04:56.544	$GPGGA,180457,2543.8835,N,08009.7272,W,1,11,2.0,10,M,,M,,*6B
06/17/2015	18:04:57.524	$GPGGA,180458,2543.8835,N,08009.7272,W,1,11,1.6,10,M,,M,,*61
06/17/2015	18:04:58.624	$GPGGA,180459,2543.8835,N,08009.7270,W,1,11,1.6,10,M,,M,,*62
06/17/2015	18:04:59.664	$GPGGA,180500,2543.8835,N,08009.7269,W,1,11,1.6,10,M,,M,,*67
06/17/2015	18:05:00.624	$GPGGA,180501,2543.8835,N,08009.7268,W,1,11,1.6,10,M,,M,,*67
06/17/2015	18:05:01.536	$GPGGA,180502,2543.8835,N,08009.7269,W,1,11,1.6,10,M,,M,,*65
06/17/2015	18:05:02.614	$GPGGA,180503,2543.8837,N,08009.7268,W,1,11,1.6,10,M,,M,,*67
06/17/2015	18:05:03.624	$GPGGA,180504,2543.8836,N,08009.7269,W,1,11,1.6,10,M,,M,,*60
06/17/2015	18:05:04.538	$GPGGA,180505,2543.8835,N,08009.7267,W,1,11,1.6,10,M,,M,,*6C
06/17/2015	18:05:05.614	$GPGGA,180506,2543.8835,N,08009.7267,W,1,11,1.6,10,M,,M,,*6F
06/17/2015	18:05:06.524	$GPGGA,180507,2543.8835,N,08009.7269,W,1,11,1.6,10,M,,M,,*60
06/17/2015	18:05:07.625	$GPGGA,180508,2543.8835,N,08009.7268,W,1,11,1.6,10,M,,M,,*6E
06/17/2015	18:05:08.514	$GPGGA,180509,2543.8835,N,08009.7269,W,1,11,1.6,10,M,,M,,*6E
06/17/2015	18:05:09.614	$GPGGA,180510,2543.8835,N,08009.7269,W,1,11,1.6,10,M,,M,,*66
06/17/2015	18:05:10.604	$GPGGA,180511,2543.8833,N,08009.7269,W,1,11,1.6,10,M,,M,,*61
06/17/2015	18:05:11.625	$GPGGA,180512,2543.8834,N,08009.7270,W,1,11,1.6,10,M,,M,,*6D
06/17/2015	18:05:12.605	$GPGGA,180513,2543.8833,N,08009.7270,W,1,11,1.6,10,M,,M,,*6B
06/17/2015	18:05:13.644	$GPGGA,180514,2543.8834,N,08009.7272,W,1,11,1.6,10,M,,M,,*69
06/17/2015	18:05:14.604	$GPGGA,180515,2543.8832,N,08009.7271,W,1,11,1.6,10,M,,M,,*6D
06/17/2015	18:05:15.624	$GPGGA,180516,2543.8833,N,08009.7272,W,1,11,1.6,10,M,,M,,*6C
06/17/2015	18:05:16.594	$GPGGA,180517,2543.8832,N,08009.7272,W,1,11,1.6,10,M,,M,,*6C
06/17/2015	18:05:17.604	$GPGGA,180518,2543.8831,N,08009.7272,W,1,11,1.6,10,M,,M,,*60
06/17/2015	18:05:18.584	$GPGGA,180519,2543.8831,N,08009.7272,W,1,11,1.6,10,M,,M,,*61
06/17/2015	18:05:19.614	$GPGGA,180520,2543.8831,N,08009.7272,W,1,11,1.6,10,M,,M,,*6B
06/17/2015	18:05:20.574	$GPGGA,180521,2543.8831,N,08009.7272,W,1,11,1.6,10,M,,M,,*6A
06/17/2015	18:05:21.574	$GPGGA,180522,2543.8831,N,08009.7272,W,1,11,1.6,10,M,,M,,*69
06/17/2015	18:05:22.574	$GPGGA,180523,2543.8831,N,08009.7272,W,1,11,1.6,10,M,,M,,*68
06/17/2015	18:05:23.624	$GPGGA,180524,2543.8831,N,08009.7271,W,1,11,1.6,10,M,,M,,*6C
06/17/2015	18:05:24.574	$GPGGA,180525,2543.8831,N,08009.7272,W,1,11,1.6,10,M,,M,,*6E
06/17/2015	18:05:25.604	$GPGGA,180526,2543.8831,N,08009.7271,W,1,11,1.6,10,M,,M,,*6E
06/17/2015	18:05:26.564	$GPGGA,180527,2543.8831,N,08009.7272,W,1,11,1.6,10,M,,M,,*6C
06/17/2015	18:05:27.594	$GPGGA,180528,2543.8831,N,08009.7272,W,1,10,1.9,10,M,,M,,*6D
06/17/2015	18:05:28.564	$GPGGA,180529,2543.8831,N,08009.7272,W,1,10,1.9,11,M,,M,,*6D
06/17/2015	18:05:29.585	$GPGGA,180530,2543.8831,N,08009.7272,W,1,10,1.9,11,M,,M,,*65
06/17/2015	18:05:30.565	$GPGGA,180531,2543.8831,N,08009.7273,W,1,10,1.9,11,M,,M,,*65
06/17/2015	18:05:31.594	$GPGGA,180532,2543.8831,N,08009.7273,W,1,10,1.9,11,M,,M,,*66
06/17/2015	18:05:32.564	$GPGGA,180533,2543.8831,N,08009.7273,W,1,10,1.9,11,M,,M,,*67
06/17/2015	18:05:33.544	$GPGGA,180534,2543.8831,N,08009.7274,W,1,10,1.9,11,M,,M,,*67
06/17/2015	18:05:34.554	$GPGGA,180535,2543.8831,N,08009.7274,W,1,10,1.9,11,M,,M,,*66
06/17/2015	18:05:35.594	$GPGGA,180536,2543.8831,N,08009.7274,W,1,10,1.9,11,M,,M,,*65
06/17/2015	18:05:36.554	$GPGGA,180537,2543.8831,N,08009.7274,W,1,10,1.9,11,M,,M,,*64
06/17/2015	18:05:37.534	$GPGGA,180538,2543.8831,N,08009.7272,W,1,10,1.9,11,M,,M,,*6D
06/17/2015	18:05:38.554	$GPGGA,180539,2543.8831,N,08009.7273,W,1,10,1.6,11,M,,M,,*62
06/17/2015	18:05:39.694	$GPGGA,180540,2543.8831,N,08009.7273,W,1,10,1.6,11,M,,M,,*6C
06/17/2015	18:05:40.537	$GPGGA,180541,2543.8831,N,08009.7271,W,1,10,1.6,11,M,,M,,*6F
06/17/2015	18:05:41.547	$GPGGA,180542,2543.8831,N,08009.7270,W,1,11,1.6,11,M,,M,,*6C
06/17/2015	18:05:42.536	$GPGGA,180543,2543.8830,N,08009.7269,W,1,11,1.6,11,M,,M,,*64
06/17/2015	18:05:43.584	$GPGGA,180544,2543.8831,N,08009.7268,W,1,11,1.6,11,M,,M,,*63
06/17/2015	18:05:44.524	$GPGGA,180545,2543.8830,N,08009.7269,W,1,11,1.6,11,M,,M,,*62
06/17/2015	18:05:45.644	$GPGGA,180546,2543.8831,N,08009.7268,W,1,11,1.6,11,M,,M,,*61
06/17/2015	18:05:46.536	$GPGGA,180547,2543.8830,N,08009.7269,W,1,11,1.6,11,M,,M,,*60
06/17/2015	18:05:47.665	$GPGGA,180548,2543.8831,N,08009.7267,W,1,11,1.6,11,M,,M,,*60
06/17/2015	18:05:48.634	$GPGGA,180549,2543.8830,N,08009.7267,W,1,11,1.6,11,M,,M,,*60
06/17/2015	18:05:49.634	$GPGGA,180550,2543.8831,N,08009.7267,W,1,11,1.6,12,M,,M,,*6A
06/17/2015	18:05:50.534	$GPGGA,180551,2543.8830,N,08009.7267,W,1,11,1.6,12,M,,M,,*6A
06/17/2015	18:05:51.634	$GPGGA,180552,2543.8831,N,08009.7267,W,1,11,1.6,12,M,,M,,*68
06/17/2015	18:05:52.604	$GPGGA,180553,2543.8830,N,08009.7266,W,1,11,1.6,12,M,,M,,*69
06/17/2015	18:05:53.624	$GPGGA,180554,2543.8831,N,08009.7266,W,1,11,1.6,12,M,,M,,*6F
06/17/2015	18:05:54.604	$GPGGA,180555,2543.8830,N,08009.7266,W,1,11,1.6,12,M,,M,,*6F
06/17/2015	18:05:55.634	$GPGGA,180556,2543.8831,N,08009.7266,W,1,11,1.6,12,M,,M,,*6D
06/17/2015	18:05:56.614	$GPGGA,180557,2543.8831,N,08009.7266,W,1,11,1.6,12,M,,M,,*6C
06/17/2015	18:05:57.634	$GPGGA,180558,2543.8830,N,08009.7266,W,1,11,1.6,12,M,,M,,*62
06/17/2015	18:05:58.594	$GPGGA,180559,2543.8831,N,08009.7266,W,1,11,1.6,12,M,,M,,*62
06/17/2015	18:05:59.635	$GPGGA,180600,2543.8831,N,08009.7266,W,1,11,1.6,12,M,,M,,*6D
06/17/2015	18:06:00.604	$GPGGA,180601,2543.8831,N,08009.7266,W,1,11,1.6,12,M,,M,,*6C
06/17/2015	18:06:01.584	$GPGGA,180602,2543.8831,N,08009.7265,W,1,11,1.6,12,M,,M,,*6C
06/17/2015	18:06:02.594	$GPGGA,180603,2543.8831,N,08009.7265,W,1,11,1.6,12,M,,M,,*6D
06/17/2015	18:06:03.614	$GPGGA,180604,2543.8831,N,08009.7265,W,1,11,1.6,12,M,,M,,*6A
06/17/2015	18:06:04.583	$GPGGA,180605,2543.8831,N,08009.7265,W,1,11,1.6,12,M,,M,,*6B
06/17/2015	18:06:05.593	$GPGGA,180606,2543.8831,N,08009.7265,W,1,11,1.6,12,M,,M,,*68
06/17/2015	18:06:06.572	$GPGGA,180607,2543.8831,N,08009.7265,W,1,11,1.6,12,M,,M,,*69
06/17/2015	18:06:07.602	$GPGGA,180608,2543.8831,N,08009.7266,W,1,11,1.6,12,M,,M,,*65
06/17/2015	18:06:08.572	$GPGGA,180609,2543.8831,N,08009.7266,W,1,11,1.6,12,M,,M,,*64
06/17/2015	18:06:09.582	$GPGGA,180610,2543.8831,N,08009.7266,W,1,11,1.6,12,M,,M,,*6C
06/17/2015	18:06:10.552	$GPGGA,180611,2543.8831,N,08009.7266,W,1,11,1.6,12,M,,M,,*6D
06/17/2015	18:06:11.602	$GPGGA,180612,2543.8831,N,08009.7266,W,1,11,2.0,12,M,,M,,*6B
06/17/2015	18:06:12.552	$GPGGA,180613,2543.8830,N,08009.7269,W,1,11,1.6,13,M,,M,,*60
06/17/2015	18:06:13.562	$GPGGA,180614,2543.8831,N,08009.7269,W,1,11,1.6,13,M,,M,,*66
06/17/2015	18:06:14.552	$GPGGA,180615,2543.8830,N,08009.7269,W,1,11,1.6,13,M,,M,,*66
06/17/2015	18:06:15.612	$GPGGA,180616,2543.8831,N,08009.7269,W,1,11,1.6,13,M,,M,,*64
06/17/2015	18:06:16.552	$GPGGA,180617,2543.8830,N,08009.7269,W,1,11,1.6,13,M,,M,,*64
06/17/2015	18:06:17.552	$GPGGA,180618,2543.8831,N,08009.7269,W,1,11,1.6,13,M,,M,,*6A
06/17/2015	18:06:18.552	$GPGGA,180619,2543.8830,N,08009.7269,W,1,11,1.6,13,M,,M,,*6A
06/17/2015	18:06:19.572	$GPGGA,180620,2543.8831,N,08009.7269,W,1,11,1.6,13,M,,M,,*61
06/17/2015	18:06:20.572	$GPGGA,180621,2543.8830,N,08009.7269,W,1,11,1.6,13,M,,M,,*61
06/17/2015	18:06:21.542	$GPGGA,180622,2543.8831,N,08009.7269,W,1,11,1.6,13,M,,M,,*63
06/17/2015	18:06:22.553	$GPGGA,180623,2543.8831,N,08009.7269,W,1,11,1.6,13,M,,M,,*62
06/17/2015	18:06:23.572	$GPGGA,180624,2543.8831,N,08009.7269,W,1,11,1.6,13,M,,M,,*65
06/17/2015	18:06:24.542	$GPGGA,180625,2543.8831,N,08009.7269,W,1,11,1.6,13,M,,M,,*64
06/17/2015	18:06:25.542	$GPGGA,180626,2543.8831,N,08009.7269,W,1,11,1.6,13,M,,M,,*67
06/17/2015	18:06:26.532	$GPGGA,180627,2543.8831,N,08009.7269,W,1,11,1.6,13,M,,M,,*66
06/17/2015	18:06:27.562	$GPGGA,180628,2543.8833,N,08009.7269,W,1,11,1.6,13,M,,M,,*6B
06/17/2015	18:06:28.542	$GPGGA,180629,2543.8832,N,08009.7269,W,1,11,2.0,13,M,,M,,*6E
06/17/2015	18:06:29.512	$GPGGA,180630,2543.8834,N,08009.7269,W,1,10,2.0,13,M,,M,,*61
06/17/2015	18:06:30.542	$GPGGA,180631,2543.8832,N,08009.7272,W,1,10,1.6,13,M,,M,,*69
06/17/2015	18:06:31.542	$GPGGA,180632,2543.8833,N,08009.7271,W,1,11,2.0,13,M,,M,,*6C
06/17/2015	18:06:32.602	$GPGGA,180633,2543.8834,N,08009.7270,W,1,11,1.6,13,M,,M,,*6E
06/17/2015	18:06:33.503	$GPGGA,180634,2543.8833,N,08009.7270,W,1,11,2.0,13,M,,M,,*6B
06/17/2015	18:06:34.622	$GPGGA,180635,2543.8834,N,08009.7270,W,1,11,2.0,13,M,,M,,*6D
06/17/2015	18:06:35.632	$GPGGA,180636,2543.8835,N,08009.7269,W,1,10,1.6,13,M,,M,,*63
06/17/2015	18:06:36.523	$GPGGA,180637,2543.8835,N,08009.7269,W,1,10,2.0,13,M,,M,,*67
06/17/2015	18:06:37.492	$GPGGA,180638,2543.8835,N,08009.7269,W,1,10,2.0,13,M,,M,,*68
06/17/2015	18:06:38.592	$GPGGA,180639,2543.8835,N,08009.7272,W,1,10,1.6,13,M,,M,,*66
06/17/2015	18:06:39.613	$GPGGA,180640,2543.8835,N,08009.7272,W,1,11,1.6,13,M,,M,,*69
06/17/2015	18:06:40.523	$GPGGA,180641,2543.8835,N,08009.7272,W,1,11,2.0,13,M,,M,,*6D
06/17/2015	18:06:41.602	$GPGGA,180642,2543.8835,N,08009.7272,W,1,10,2.0,13,M,,M,,*6F
06/17/2015	18:06:42.512	$GPGGA,180643,2543.8835,N,08009.7272,W,1,10,2.0,13,M,,M,,*6E
06/17/2015	18:06:43.602	$GPGGA,180644,2543.8835,N,08009.7271,W,1,10,2.0,13,M,,M,,*6A
06/17/2015	18:06:44.492	$GPGGA,180645,2543.8835,N,08009.7272,W,1,10,2.0,13,M,,M,,*68
06/17/2015	18:06:45.592	$GPGGA,180646,2543.8837,N,08009.7271,W,1,10,2.0,13,M,,M,,*6A
06/17/2015	18:06:46.492	$GPGGA,180647,2543.8836,N,08009.7272,W,1,10,2.0,13,M,,M,,*69
06/17/2015	18:06:49.012	$GPGGA,180649,2543.8836,N,08009.7272,W,1,10,2.0,13,M,,M,,*67
06/17/2015	18:06:49.572	$GPGGA,180650,2543.8838,N,08009.7270,W,1,10,2.0,13,M,,M,,*63
06/17/2015	18:06:50.572	$GPGGA,180651,2543.8837,N,08009.7270,W,1,10,2.0,13,M,,M,,*6D
06/17/2015	18:06:51.602	$GPGGA,180652,2543.8838,N,08009.7270,W,1,10,2.0,13,M,,M,,*61
06/17/2015	18:06:52.572	$GPGGA,180653,2543.8837,N,08009.7270,W,1,10,2.0,13,M,,M,,*6F
06/17/2015	18:06:53.582	$GPGGA,180654,2543.8839,N,08009.7270,W,1,10,2.0,13,M,,M,,*66
06/17/2015	18:06:54.562	$GPGGA,180655,2543.8839,N,08009.7270,W,1,10,2.0,13,M,,M,,*67
06/17/2015	18:06:55.592	$GPGGA,180656,2543.8839,N,08009.7270,W,1,10,2.0,12,M,,M,,*65
06/17/2015	18:06:56.563	$GPGGA,180657,2543.8839,N,08009.7269,W,1,10,2.0,12,M,,M,,*6C
06/17/2015	18:06:57.573	$GPGGA,180658,2543.8839,N,08009.7269,W,1,10,2.0,12,M,,M,,*63
06/17/2015	18:06:58.552	$GPGGA,180659,2543.8839,N,08009.7269,W,1,10,2.0,12,M,,M,,*62
06/17/2015	18:06:59.592	$GPGGA,180700,2543.8839,N,08009.7269,W,1,10,2.0,12,M,,M,,*6F
06/17/2015	18:07:00.542	$GPGGA,180701,2543.8839,N,08009.7269,W,1,10,2.0,12,M,,M,,*6E
06/17/2015	18:07:01.562	$GPGGA,180702,2543.8839,N,08009.7269,W,1,10,2.0,12,M,,M,,*6D
06/17/2015	18:07:02.562	$GPGGA,180703,2543.8841,N,08009.7269,W,1,10,2.0,12,M,,M,,*63
06/17/2015	18:07:03.542	$GPGGA,180704,2543.8840,N,08009.7269,W,1,11,1.6,12,M,,M,,*61
06/17/2015	18:07:04.542	$GPGGA,180705,2543.8841,N,08009.7269,W,1,11,2.0,12,M,,M,,*64
06/17/2015	18:07:05.562	$GPGGA,180706,2543.8840,N,08009.7269,W,1,10,2.0,12,M,,M,,*67
06/17/2015	18:07:06.532	$GPGGA,180707,2543.8841,N,08009.7269,W,1,10,2.0,12,M,,M,,*67
06/17/2015	18:07:07.572	$GPGGA,180708,2543.8840,N,08009.7268,W,1,10,2.0,12,M,,M,,*68
06/17/2015	18:07:08.652	$GPGGA,180709,2543.8839,N,08009.7273,W,1,10,2.0,12,M,,M,,*6D
06/17/2015	18:07:09.542	$GPGGA,180710,2543.8839,N,08009.7272,W,1,11,1.6,12,M,,M,,*60
06/17/2015	18:07:10.552	$GPGGA,180711,2543.8839,N,08009.7271,W,1,11,1.9,12,M,,M,,*6D
06/17/2015	18:07:11.532	$GPGGA,180712,2543.8839,N,08009.7272,W,1,10,1.9,12,M,,M,,*6C
06/17/2015	18:07:12.532	$GPGGA,180713,2543.8839,N,08009.7270,W,1,10,1.9,12,M,,M,,*6F
06/17/2015	18:07:13.552	$GPGGA,180714,2543.8839,N,08009.7270,W,1,10,1.9,12,M,,M,,*68
06/17/2015	18:07:14.513	$GPGGA,180715,2543.8839,N,08009.7270,W,1,10,1.9,12,M,,M,,*69
06/17/2015	18:07:15.543	$GPGGA,180716,2543.8839,N,08009.7269,W,1,10,1.9,12,M,,M,,*62
06/17/2015	18:07:16.512	$GPGGA,180717,2543.8839,N,08009.7269,W,1,10,1.9,12,M,,M,,*63
06/17/2015	18:07:17.502	$GPGGA,180718,2543.8839,N,08009.7269,W,1,10,1.9,12,M,,M,,*6C
06/17/2015	18:07:18.526	$GPGGA,180719,2543.8839,N,08009.7268,W,1,10,1.9,12,M,,M,,*6C
06/17/2015	18:07:19.526	$GPGGA,180720,2543.8839,N,08009.7269,W,1,10,1.9,11,M,,M,,*64
06/17/2015	18:07:20.512	$GPGGA,180721,2543.8839,N,08009.7268,W,1,10,1.9,11,M,,M,,*64
06/17/2015	18:07:21.512	$GPGGA,180722,2543.8839,N,08009.7267,W,1,10,1.9,11,M,,M,,*68
06/17/2015	18:07:22.492	$GPGGA,180723,2543.8839,N,08009.7267,W,1,10,1.9,11,M,,M,,*69
06/17/2015	18:07:23.602	$GPGGA,180724,2543.8839,N,08009.7267,W,1,10,1.9,11,M,,M,,*6E
06/17/2015	18:07:24.502	$GPGGA,180725,2543.8839,N,08009.7267,W,1,10,1.9,11,M,,M,,*6F
06/17/2015	18:07:25.512	$GPGGA,180726,2543.8839,N,08009.7266,W,1,10,1.9,11,M,,M,,*6D
06/17/2015	18:07:26.592	$GPGGA,180727,2543.8839,N,08009.7266,W,1,10,1.9,11,M,,M,,*6C
06/17/2015	18:07:27.592	$GPGGA,180728,2543.8839,N,08009.7266,W,1,10,1.9,11,M,,M,,*63
06/17/2015	18:07:28.582	$GPGGA,180729,2543.8839,N,08009.7266,W,1,10,1.6,11,M,,M,,*6D
06/17/2015	18:07:29.592	$GPGGA,180730,2543.8839,N,08009.7266,W,1,10,1.9,11,M,,M,,*6A
06/17/2015	18:07:30.492	$GPGGA,180731,2543.8839,N,08009.7266,W,1,10,1.9,11,M,,M,,*6B
06/17/2015	18:07:31.623	$GPGGA,180732,2543.8839,N,08009.7266,W,1,10,1.9,11,M,,M,,*68
06/17/2015	18:07:32.583	$GPGGA,180733,2543.8839,N,08009.7265,W,1,10,1.9,11,M,,M,,*6A
06/17/2015	18:07:33.622	$GPGGA,180734,2543.8839,N,08009.7265,W,1,10,1.9,11,M,,M,,*6D
06/17/2015	18:07:34.572	$GPGGA,180735,2543.8839,N,08009.7266,W,1,10,1.9,11,M,,M,,*6F
06/17/2015	18:07:35.602	$GPGGA,180736,2543.8841,N,08009.7266,W,1,10,1.9,11,M,,M,,*63
06/17/2015	18:07:36.572	$GPGGA,180737,2543.8840,N,08009.7266,W,1,10,1.9,11,M,,M,,*63
06/17/2015	18:07:37.572	$GPGGA,180738,2543.8841,N,08009.7266,W,1,10,1.9,11,M,,M,,*6D
06/17/2015	18:07:38.572	$GPGGA,180739,2543.8840,N,08009.7266,W,1,10,1.9,11,M,,M,,*6D
06/17/2015	18:07:39.572	$GPGGA,180740,2543.8839,N,08009.7266,W,1,10,1.9,10,M,,M,,*6C
06/17/2015	18:07:40.552	$GPGGA,180741,2543.8839,N,08009.7266,W,1,10,1.9,10,M,,M,,*6D
06/17/2015	18:07:41.572	$GPGGA,180742,2543.8839,N,08009.7266,W,1,10,1.9,10,M,,M,,*6E
06/17/2015	18:07:42.562	$GPGGA,180743,2543.8841,N,08009.7266,W,1,10,1.9,10,M,,M,,*60
06/17/2015	18:07:43.552	$GPGGA,180744,2543.8839,N,08009.7266,W,1,10,1.9,10,M,,M,,*68
06/17/2015	18:07:44.542	$GPGGA,180745,2543.8841,N,08009.7266,W,1,10,1.9,10,M,,M,,*66
06/17/2015	18:07:45.572	$GPGGA,180746,2543.8840,N,08009.7266,W,1,10,1.9,10,M,,M,,*64
06/17/2015	18:07:46.542	$GPGGA,180747,2543.8841,N,08009.7266,W,1,10,1.9,10,M,,M,,*64
06/17/2015	18:07:47.552	$GPGGA,180748,2543.8840,N,08009.7266,W,1,10,1.9,10,M,,M,,*6A
06/17/2015	18:07:48.552	$GPGGA,180749,2543.8841,N,08009.7266,W,1,10,1.9,10,M,,M,,*6A
06/17/2015	18:07:49.533	$GPGGA,180750,2543.8840,N,08009.7266,W,1,10,1.9,10,M,,M,,*63
06/17/2015	18:07:50.543	$GPGGA,180751,2543.8841,N,08009.7266,W,1,10,1.9,10,M,,M,,*63
06/17/2015	18:07:51.552	$GPGGA,180752,2543.8840,N,08009.7266,W,1,10,1.9,10,M,,M,,*61
06/17/2015	18:07:52.532	$GPGGA,180753,2543.8841,N,08009.7266,W,1,10,1.9,10,M,,M,,*61
06/17/2015	18:07:53.542	$GPGGA,180754,2543.8840,N,08009.7266,W,1,10,1.9,10,M,,M,,*67
06/17/2015	18:07:54.522	$GPGGA,180755,2543.8841,N,08009.7267,W,1,10,1.9,10,M,,M,,*66
06/17/2015	18:07:55.542	$GPGGA,180756,2543.8840,N,08009.7266,W,1,10,1.9,10,M,,M,,*65
06/17/2015	18:07:56.523	$GPGGA,180757,2543.8841,N,08009.7266,W,1,10,1.9,10,M,,M,,*65
06/17/2015	18:07:57.542	$GPGGA,180758,2543.8842,N,08009.7266,W,1,10,1.9,10,M,,M,,*69
06/17/2015	18:07:58.532	$GPGGA,180759,2543.8842,N,08009.7266,W,1,10,1.9,10,M,,M,,*68
06/17/2015	18:07:59.552	$GPGGA,180800,2543.8842,N,08009.7266,W,1,10,1.9,10,M,,M,,*6B
06/17/2015	18:08:00.512	$GPGGA,180801,2543.8842,N,08009.7267,W,1,10,1.9,10,M,,M,,*6B
06/17/2015	18:08:01.632	$GPGGA,180802,2543.8842,N,08009.7267,W,1,10,1.9,10,M,,M,,*68
06/17/2015	18:08:02.625	$GPGGA,180803,2543.8842,N,08009.7266,W,1,10,1.9,10,M,,M,,*68
06/17/2015	18:08:03.622	$GPGGA,180804,2543.8842,N,08009.7267,W,1,10,1.9,10,M,,M,,*6E
06/17/2015	18:08:04.512	$GPGGA,180805,2543.8842,N,08009.7267,W,1,10,1.9,10,M,,M,,*6F
06/17/2015	18:08:05.523	$GPGGA,180806,2543.8842,N,08009.7267,W,1,10,1.9,10,M,,M,,*6C
06/17/2015	18:08:06.503	$GPGGA,180807,2543.8842,N,08009.7267,W,1,10,1.9,10,M,,M,,*6D
06/17/2015	18:08:07.543	$GPGGA,180808,2543.8842,N,08009.7267,W,1,10,1.9,10,M,,M,,*62
06/17/2015	18:08:08.512	$GPGGA,180809,2543.8842,N,08009.7267,W,1,10,1.9,10,M,,M,,*63
06/17/2015	18:08:09.492	$GPGGA,180810,2543.8842,N,08009.7267,W,1,10,1.9,10,M,,M,,*6B
06/17/2015	18:08:10.592	$GPGGA,180811,2543.8844,N,08009.7267,W,1,10,1.9,10,M,,M,,*6C
06/17/2015	18:08:11.602	$GPGGA,180812,2543.8843,N,08009.7267,W,1,10,1.9,10,M,,M,,*68
06/17/2015	18:08:12.592	$GPGGA,180813,2543.8844,N,08009.7267,W,1,10,1.9,10,M,,M,,*6E
06/17/2015	18:08:13.632	$GPGGA,180814,2543.8843,N,08009.7267,W,1,10,1.9,10,M,,M,,*6E
06/17/2015	18:08:14.582	$GPGGA,180815,2543.8844,N,08009.7269,W,1,10,1.9,10,M,,M,,*66
06/17/2015	18:08:15.492	$GPGGA,180816,2543.8843,N,08009.7267,W,1,10,1.9,10,M,,M,,*6C
06/17/2015	18:08:16.492	$GPGGA,180817,2543.8844,N,08009.7269,W,1,10,1.9,10,M,,M,,*64
06/17/2015	18:08:17.592	$GPGGA,180818,2543.8845,N,08009.7267,W,1,10,1.9,10,M,,M,,*64
06/17/2015	18:08:18.572	$GPGGA,180819,2543.8844,N,08009.7269,W,1,10,1.9,10,M,,M,,*6A
06/17/2015	18:08:19.622	$GPGGA,180820,2543.8845,N,08009.7268,W,1,10,1.9,10,M,,M,,*60
06/17/2015	18:08:20.582	$GPGGA,180821,2543.8843,N,08009.7269,W,1,10,1.9,10,M,,M,,*66
06/17/2015	18:08:21.562	$GPGGA,180822,2543.8844,N,08009.7268,W,1,10,1.9,10,M,,M,,*63
06/17/2015	18:08:22.572	$GPGGA,180823,2543.8843,N,08009.7269,W,1,10,1.9,10,M,,M,,*64
06/17/2015	18:08:23.592	$GPGGA,180824,2543.8844,N,08009.7268,W,1,10,1.9,10,M,,M,,*65
06/17/2015	18:08:24.563	$GPGGA,180825,2543.8843,N,08009.7269,W,1,10,1.9,10,M,,M,,*62
06/17/2015	18:08:25.583	$GPGGA,180826,2543.8844,N,08009.7268,W,1,10,1.9,10,M,,M,,*67
06/17/2015	18:08:26.562	$GPGGA,180827,2543.8843,N,08009.7269,W,1,10,1.9,10,M,,M,,*60
06/17/2015	18:08:27.592	$GPGGA,180828,2543.8844,N,08009.7268,W,1,10,1.9,10,M,,M,,*69
06/17/2015	18:08:28.562	$GPGGA,180829,2543.8843,N,08009.7269,W,1,10,1.9,10,M,,M,,*6E
06/17/2015	18:08:29.572	$GPGGA,180830,2543.8844,N,08009.7268,W,1,10,1.9,10,M,,M,,*60
06/17/2015	18:08:30.572	$GPGGA,180831,2543.8842,N,08009.7269,W,1,10,1.9,10,M,,M,,*66
06/17/2015	18:08:31.582	$GPGGA,180832,2543.8842,N,08009.7267,W,1,10,1.9,10,M,,M,,*6B
06/17/2015	18:08:32.562	$GPGGA,180833,2543.8842,N,08009.7267,W,1,10,1.9,10,M,,M,,*6A
06/17/2015	18:08:33.542	$GPGGA,180834,2543.8842,N,08009.7267,W,1,10,1.9,10,M,,M,,*6D
06/17/2015	18:08:34.542	$GPGGA,180835,2543.8842,N,08009.7267,W,1,10,1.9,10,M,,M,,*6C
06/17/2015	18:08:35.572	$GPGGA,180836,2543.8842,N,08009.7267,W,1,10,1.9,10,M,,M,,*6F
06/17/2015	18:08:36.542	$GPGGA,180837,2543.8842,N,08009.7267,W,1,10,1.9,10,M,,M,,*6E
06/17/2015	18:08:37.562	$GPGGA,180838,2543.8842,N,08009.7267,W,1,10,1.9,10,M,,M,,*61
06/17/2015	18:08:38.552	$GPGGA,180839,2543.8842,N,08009.7267,W,1,10,1.9,10,M,,M,,*60
06/17/2015	18:08:39.562	$GPGGA,180840,2543.8842,N,08009.7267,W,1,10,1.9,9,M,,M,,*56
06/17/2015	18:08:40.522	$GPGGA,180841,2543.8842,N,08009.7267,W,1,10,1.9,9,M,,M,,*57
06/17/2015	18:08:41.524	$GPGGA,180842,2543.8842,N,08009.7267,W,1,10,1.9,9,M,,M,,*54
06/17/2015	18:08:42.513	$GPGGA,180843,2543.8842,N,08009.7267,W,1,10,2.1,9,M,,M,,*5E
06/17/2015	18:08:43.542	$GPGGA,180844,2543.8842,N,08009.7266,W,1,10,1.9,9,M,,M,,*53
06/17/2015	18:08:44.512	$GPGGA,180845,2543.8842,N,08009.7266,W,1,10,1.9,9,M,,M,,*52
06/17/2015	18:08:45.512	$GPGGA,180846,2543.8842,N,08009.7266,W,1,10,1.9,9,M,,M,,*51
06/17/2015	18:08:46.512	$GPGGA,180847,2543.8842,N,08009.7266,W,1,10,1.9,9,M,,M,,*50
06/17/2015	18:08:47.532	$GPGGA,180848,2543.8844,N,08009.7266,W,1,10,1.9,9,M,,M,,*59
06/17/2015	18:08:48.502	$GPGGA,180849,2543.8843,N,08009.7266,W,1,10,1.9,9,M,,M,,*5F
06/17/2015	18:08:49.602	$GPGGA,180850,2543.8844,N,08009.7266,W,1,10,1.9,9,M,,M,,*50
06/17/2015	18:08:50.642	$GPGGA,180851,2543.8845,N,08009.7266,W,1,10,1.9,9,M,,M,,*50
06/17/2015	18:08:51.602	$GPGGA,180852,2543.8846,N,08009.7265,W,1,10,1.9,9,M,,M,,*53
06/17/2015	18:08:52.642	$GPGGA,180853,2543.8846,N,08009.7265,W,1,10,1.9,9,M,,M,,*52
06/17/2015	18:08:53.682	$GPGGA,180854,2543.8846,N,08009.7265,W,1,10,1.9,9,M,,M,,*55
06/17/2015	18:08:54.502	$GPGGA,180855,2543.8846,N,08009.7265,W,1,10,1.9,9,M,,M,,*54
06/17/2015	18:08:55.692	$GPGGA,180856,2543.8848,N,08009.7265,W,1,10,1.9,9,M,,M,,*59
06/17/2015	18:08:56.502	$GPGGA,180857,2543.8847,N,08009.7265,W,1,10,1.9,9,M,,M,,*57
06/17/2015	18:08:57.682	$GPGGA,180858,2543.8849,N,08009.7264,W,1,10,1.9,9,M,,M,,*57
06/17/2015	18:08:58.626	$GPGGA,180859,2543.8848,N,08009.7265,W,1,10,1.9,9,M,,M,,*56
06/17/2015	18:08:59.603	$GPGGA,180900,2543.8849,N,08009.7264,W,1,10,1.9,9,M,,M,,*5B
06/17/2015	18:09:00.603	$GPGGA,180901,2543.8848,N,08009.7265,W,1,10,1.9,9,M,,M,,*5A
06/17/2015	18:09:01.682	$GPGGA,180902,2543.8849,N,08009.7264,W,1,10,1.9,9,M,,M,,*59
06/17/2015	18:09:02.602	$GPGGA,180903,2543.8849,N,08009.7265,W,1,10,1.9,9,M,,M,,*59
06/17/2015	18:09:03.672	$GPGGA,180904,2543.8849,N,08009.7264,W,1,10,1.9,9,M,,M,,*5F
06/17/2015	18:09:04.632	$GPGGA,180905,2543.8849,N,08009.7265,W,1,10,1.9,9,M,,M,,*5F
06/17/2015	18:09:05.662	$GPGGA,180906,2543.8850,N,08009.7264,W,1,10,1.9,9,M,,M,,*55
06/17/2015	18:09:06.594	$GPGGA,180907,2543.8850,N,08009.7265,W,1,10,1.9,9,M,,M,,*55
06/17/2015	18:09:07.672	$GPGGA,180908,2543.8850,N,08009.7264,W,1,10,1.9,9,M,,M,,*5B
06/17/2015	18:09:08.562	$GPGGA,180909,2543.8850,N,08009.7265,W,1,10,1.9,10,M,,M,,*63
06/17/2015	18:09:09.562	$GPGGA,180910,2543.8850,N,08009.7265,W,1,10,1.9,10,M,,M,,*6B
06/17/2015	18:09:10.592	$GPGGA,180911,2543.8850,N,08009.7265,W,1,10,1.9,10,M,,M,,*6A
06/17/2015	18:09:11.672	$GPGGA,180912,2543.8850,N,08009.7265,W,1,10,1.9,10,M,,M,,*69
06/17/2015	18:09:12.552	$GPGGA,180913,2543.8850,N,08009.7265,W,1,10,1.9,10,M,,M,,*68
06/17/2015	18:09:13.682	$GPGGA,180914,2543.8850,N,08009.7265,W,1,10,1.9,10,M,,M,,*6F
06/17/2015	18:09:14.582	$GPGGA,180915,2543.8850,N,08009.7264,W,1,10,1.9,10,M,,M,,*6F
06/17/2015	18:09:15.672	$GPGGA,180916,2543.8850,N,08009.7265,W,1,10,1.9,10,M,,M,,*6D
06/17/2015	18:09:16.573	$GPGGA,180917,2543.8850,N,08009.7264,W,1,10,1.9,10,M,,M,,*6D
06/17/2015	18:09:17.543	$GPGGA,180918,2543.8850,N,08009.7265,W,1,10,1.9,10,M,,M,,*63
06/17/2015	18:09:18.572	$GPGGA,180919,2543.8849,N,08009.7264,W,1,10,1.9,10,M,,M,,*6B
06/17/2015	18:09:19.552	$GPGGA,180920,2543.8849,N,08009.7265,W,1,10,1.9,10,M,,M,,*60
06/17/2015	18:09:20.572	$GPGGA,180921,2543.8850,N,08009.7264,W,1,10,1.9,10,M,,M,,*68
06/17/2015	18:09:21.612	$GPGGA,180922,2543.8850,N,08009.7265,W,1,10,1.9,10,M,,M,,*6A
06/17/2015	18:09:22.592	$GPGGA,180923,2543.8850,N,08009.7263,W,1,10,1.9,10,M,,M,,*6D
06/17/2015	18:09:23.624	$GPGGA,180924,2543.8849,N,08009.7263,W,1,10,1.9,10,M,,M,,*62
06/17/2015	18:09:24.562	$GPGGA,180925,2543.8850,N,08009.7263,W,1,10,1.9,10,M,,M,,*6B
06/17/2015	18:09:25.572	$GPGGA,180926,2543.8850,N,08009.7263,W,1,10,1.9,10,M,,M,,*68
06/17/2015	18:09:26.562	$GPGGA,180927,2543.8850,N,08009.7263,W,1,10,1.9,10,M,,M,,*69
06/17/2015	18:09:27.652	$GPGGA,180928,2543.8850,N,08009.7263,W,1,10,1.9,10,M,,M,,*66
06/17/2015	18:09:28.552	$GPGGA,180929,2543.8850,N,08009.7263,W,1,10,1.9,10,M,,M,,*67
06/17/2015	18:09:29.602	$GPGGA,180930,2543.8850,N,08009.7263,W,1,10,1.9,10,M,,M,,*6F
06/17/2015	18:09:30.542	$GPGGA,180931,2543.8850,N,08009.7263,W,1,10,1.9,10,M,,M,,*6E
06/17/2015	18:09:31.523	$GPGGA,180932,2543.8850,N,08009.7263,W,1,10,1.9,10,M,,M,,*6D
06/17/2015	18:09:32.642	$GPGGA,180933,2543.8850,N,08009.7263,W,1,10,1.9,10,M,,M,,*6C
06/17/2015	18:09:33.502	$GPGGA,180934,2543.8850,N,08009.7263,W,1,10,1.9,10,M,,M,,*6B
06/17/2015	18:09:34.623	$GPGGA,180935,2543.8850,N,08009.7263,W,1,10,1.9,10,M,,M,,*6A
06/17/2015	18:09:35.603	$GPGGA,180936,2543.8850,N,08009.7263,W,1,10,1.9,10,M,,M,,*69
06/17/2015	18:09:36.602	$GPGGA,180937,2543.8850,N,08009.7263,W,1,10,1.9,10,M,,M,,*68
06/17/2015	18:09:37.492	$GPGGA,180938,2543.8850,N,08009.7263,W,1,10,1.9,10,M,,M,,*67
06/17/2015	18:09:38.542	$GPGGA,180939,2543.8852,N,08009.7263,W,1,10,1.9,10,M,,M,,*64
06/17/2015	18:09:39.612	$GPGGA,180940,2543.8851,N,08009.7262,W,1,10,1.9,10,M,,M,,*68
06/17/2015	18:09:40.532	$GPGGA,180941,2543.8852,N,08009.7263,W,1,10,1.9,10,M,,M,,*6B
06/17/2015	18:09:41.632	$GPGGA,180942,2543.8851,N,08009.7263,W,1,10,1.9,10,M,,M,,*6B
06/17/2015	18:09:42.522	$GPGGA,180943,2543.8852,N,08009.7263,W,1,10,1.9,10,M,,M,,*69
06/17/2015	18:09:43.624	$GPGGA,180944,2543.8851,N,08009.7263,W,1,10,1.9,10,M,,M,,*6D
06/17/2015	18:09:44.592	$GPGGA,180945,2543.8852,N,08009.7263,W,1,10,1.9,10,M,,M,,*6F
06/17/2015	18:09:45.602	$GPGGA,180946,2543.8851,N,08009.7263,W,1,10,1.9,10,M,,M,,*6F
06/17/2015	18:09:46.582	$GPGGA,180947,2543.8852,N,08009.7263,W,1,10,1.9,10,M,,M,,*6D
06/17/2015	18:09:47.622	$GPGGA,180948,2543.8851,N,08009.7263,W,1,10,1.9,10,M,,M,,*61
06/17/2015	18:09:48.572	$GPGGA,180949,2543.8852,N,08009.7265,W,1,10,1.9,9,M,,M,,*5D
06/17/2015	18:09:49.592	$GPGGA,180950,2543.8851,N,08009.7264,W,1,10,1.9,9,M,,M,,*57
06/17/2015	18:09:50.572	$GPGGA,180951,2543.8852,N,08009.7265,W,1,10,1.9,9,M,,M,,*54
06/17/2015	18:09:51.603	$GPGGA,180952,2543.8851,N,08009.7264,W,1,10,1.9,9,M,,M,,*55
06/17/2015	18:09:52.563	$GPGGA,180953,2543.8852,N,08009.7265,W,1,10,1.9,9,M,,M,,*56
06/17/2015	18:09:53.602	$GPGGA,180954,2543.8853,N,08009.7264,W,1,10,1.9,9,M,,M,,*51
06/17/2015	18:09:54.562	$GPGGA,180955,2543.8853,N,08009.7265,W,1,10,1.9,9,M,,M,,*51
06/17/2015	18:09:55.625	$GPGGA,180956,2543.8851,N,08009.7265,W,1,10,1.9,9,M,,M,,*50
06/17/2015	18:09:56.562	$GPGGA,180957,2543.8853,N,08009.7266,W,1,10,1.9,9,M,,M,,*50
06/17/2015	18:09:57.612	$GPGGA,180958,2543.8853,N,08009.7266,W,1,10,1.9,9,M,,M,,*5F
06/17/2015	18:09:58.562	$GPGGA,180959,2543.8853,N,08009.7266,W,1,10,1.9,9,M,,M,,*5E
06/17/2015	18:09:59.622	$GPGGA,181000,2543.8851,N,08009.7266,W,1,10,1.9,9,M,,M,,*58
06/17/2015	18:10:00.552	$GPGGA,181001,2543.8852,N,08009.7267,W,1,10,1.9,9,M,,M,,*5B
06/17/2015	18:10:01.602	$GPGGA,181002,2543.8851,N,08009.7267,W,1,10,1.9,9,M,,M,,*5B
06/17/2015	18:10:02.552	$GPGGA,181003,2543.8852,N,08009.7267,W,1,10,1.9,9,M,,M,,*59
06/17/2015	18:10:03.612	$GPGGA,181004,2543.8851,N,08009.7269,W,1,10,1.9,9,M,,M,,*53
06/17/2015	18:10:04.542	$GPGGA,181005,2543.8852,N,08009.7268,W,1,10,1.9,9,M,,M,,*50
06/17/2015	18:10:05.582	$GPGGA,181006,2543.8851,N,08009.7269,W,1,10,1.9,8,M,,M,,*50
06/17/2015	18:10:06.542	$GPGGA,181007,2543.8852,N,08009.7268,W,1,10,1.9,8,M,,M,,*53
06/17/2015	18:10:07.602	$GPGGA,181008,2543.8851,N,08009.7269,W,1,10,1.9,8,M,,M,,*5E
06/17/2015	18:10:08.532	$GPGGA,181009,2543.8852,N,08009.7268,W,1,10,1.9,8,M,,M,,*5D
06/17/2015	18:10:09.593	$GPGGA,181010,2543.8851,N,08009.7269,W,1,10,1.9,8,M,,M,,*57
06/17/2015	18:10:10.533	$GPGGA,181011,2543.8852,N,08009.7269,W,1,10,1.9,8,M,,M,,*55
06/17/2015	18:10:11.592	$GPGGA,181012,2543.8851,N,08009.7269,W,1,10,1.9,8,M,,M,,*55
06/17/2015	18:10:12.526	$GPGGA,181013,2543.8852,N,08009.7269,W,1,10,1.9,8,M,,M,,*57
06/17/2015	18:10:13.652	$GPGGA,181014,2543.8851,N,08009.7269,W,1,10,1.9,8,M,,M,,*53
06/17/2015	18:10:14.523	$GPGGA,181015,2543.8852,N,08009.7269,W,1,10,1.9,8,M,,M,,*51
06/17/2015	18:10:15.532	$GPGGA,181016,2543.8852,N,08009.7269,W,1,10,1.9,8,M,,M,,*52
06/17/2015	18:10:16.512	$GPGGA,181017,2543.8852,N,08009.7269,W,1,10,1.9,8,M,,M,,*53
06/17/2015	18:10:17.562	$GPGGA,181018,2543.8852,N,08009.7269,W,1,10,1.9,8,M,,M,,*5C
06/17/2015	18:10:18.512	$GPGGA,181019,2543.8852,N,08009.7269,W,1,10,1.9,8,M,,M,,*5D
06/17/2015	18:10:19.582	$GPGGA,181020,2543.8851,N,08009.7269,W,1,10,1.9,8,M,,M,,*54
06/17/2015	18:10:20.532	$GPGGA,181021,2543.8851,N,08009.7269,W,1,10,1.9,8,M,,M,,*55
06/17/2015	18:10:21.522	$GPGGA,181022,2543.8851,N,08009.7269,W,1,10,1.9,8,M,,M,,*56
06/17/2015	18:10:22.592	$GPGGA,181023,2543.8852,N,08009.7269,W,1,10,1.9,8,M,,M,,*54
06/17/2015	18:10:23.602	$GPGGA,181024,2543.8852,N,08009.7269,W,1,10,1.9,8,M,,M,,*53
06/17/2015	18:10:24.592	$GPGGA,181025,2543.8852,N,08009.7269,W,1,10,1.9,8,M,,M,,*52
06/17/2015	18:10:25.512	$GPGGA,181026,2543.8852,N,08009.7269,W,1,10,1.9,7,M,,M,,*5E
06/17/2015	18:10:26.593	$GPGGA,181027,2543.8850,N,08009.7269,W,1,10,1.9,7,M,,M,,*5D
06/17/2015	18:10:27.633	$GPGGA,181028,2543.8850,N,08009.7269,W,1,10,1.9,7,M,,M,,*52
06/17/2015	18:10:28.492	$GPGGA,181029,2543.8850,N,08009.7269,W,1,10,1.9,7,M,,M,,*53
06/17/2015	18:10:29.623	$GPGGA,181030,2543.8850,N,08009.7269,W,1,10,1.9,7,M,,M,,*5B
06/17/2015	18:10:30.482	$GPGGA,181031,2543.8850,N,08009.7269,W,1,10,1.9,7,M,,M,,*5A
06/17/2015	18:10:31.623	$GPGGA,181032,2543.8850,N,08009.7269,W,1,10,1.9,7,M,,M,,*59
06/17/2015	18:10:32.572	$GPGGA,181033,2543.8850,N,08009.7269,W,1,10,1.9,7,M,,M,,*58
06/17/2015	18:10:33.602	$GPGGA,181034,2543.8850,N,08009.7269,W,1,10,1.9,7,M,,M,,*5F
06/17/2015	18:10:34.572	$GPGGA,181035,2543.8850,N,08009.7269,W,1,10,1.9,7,M,,M,,*5E
06/17/2015	18:10:35.612	$GPGGA,181036,2543.8850,N,08009.7269,W,1,10,1.9,7,M,,M,,*5D
06/17/2015	18:10:36.572	$GPGGA,181037,2543.8850,N,08009.7269,W,1,10,1.9,7,M,,M,,*5C
06/17/2015	18:10:37.592	$GPGGA,181038,2543.8850,N,08009.7268,W,1,10,1.9,7,M,,M,,*52
06/17/2015	18:10:38.562	$GPGGA,181039,2543.8850,N,08009.7269,W,1,10,1.9,7,M,,M,,*52
06/17/2015	18:10:39.592	$GPGGA,181040,2543.8850,N,08009.7267,W,1,10,1.9,7,M,,M,,*52
06/17/2015	18:10:40.562	$GPGGA,181041,2543.8850,N,08009.7267,W,1,10,1.9,7,M,,M,,*53
06/17/2015	18:10:41.582	$GPGGA,181042,2543.8850,N,08009.7267,W,1,10,1.9,7,M,,M,,*50
06/17/2015	18:10:42.562	$GPGGA,181043,2543.8850,N,08009.7266,W,1,10,1.9,7,M,,M,,*50
06/17/2015	18:10:43.582	$GPGGA,181044,2543.8850,N,08009.7266,W,1,10,1.9,7,M,,M,,*57
06/17/2015	18:10:44.563	$GPGGA,181045,2543.8850,N,08009.7266,W,1,10,1.9,7,M,,M,,*56
06/17/2015	18:10:45.543	$GPGGA,181046,2543.8850,N,08009.7266,W,1,10,1.9,7,M,,M,,*55
06/17/2015	18:10:46.542	$GPGGA,181047,2543.8850,N,08009.7265,W,1,10,1.9,7,M,,M,,*57
06/17/2015	18:10:47.582	$GPGGA,181048,2543.8850,N,08009.7265,W,1,10,1.9,7,M,,M,,*58
06/17/2015	18:10:48.542	$GPGGA,181049,2543.8850,N,08009.7265,W,1,10,1.9,7,M,,M,,*59
06/17/2015	18:10:49.532	$GPGGA,181050,2543.8850,N,08009.7265,W,1,10,1.9,7,M,,M,,*51
06/17/2015	18:10:50.542	$GPGGA,181051,2543.8850,N,08009.7265,W,1,10,1.9,7,M,,M,,*50
06/17/2015	18:10:51.582	$GPGGA,181052,2543.8850,N,08009.7265,W,1,10,1.9,6,M,,M,,*52
06/17/2015	18:10:52.542	$GPGGA,181053,2543.8850,N,08009.7265,W,1,10,1.9,6,M,,M,,*53
06/17/2015	18:10:53.532	$GPGGA,181054,2543.8850,N,08009.7265,W,1,10,1.9,6,M,,M,,*54
06/17/2015	18:10:54.533	$GPGGA,181055,2543.8850,N,08009.7264,W,1,10,1.9,6,M,,M,,*54
06/17/2015	18:10:55.572	$GPGGA,181056,2543.8850,N,08009.7265,W,1,10,1.9,6,M,,M,,*56
06/17/2015	18:10:56.532	$GPGGA,181057,2543.8850,N,08009.7264,W,1,10,1.9,6,M,,M,,*56
06/17/2015	18:10:57.523	$GPGGA,181058,2543.8850,N,08009.7265,W,1,10,1.9,6,M,,M,,*58
06/17/2015	18:10:58.522	$GPGGA,181059,2543.8850,N,08009.7265,W,1,10,1.9,6,M,,M,,*59
06/17/2015	18:10:59.672	$GPGGA,181100,2543.8850,N,08009.7265,W,1,10,1.9,6,M,,M,,*54
06/17/2015	18:11:00.522	$GPGGA,181101,2543.8850,N,08009.7265,W,1,10,1.9,6,M,,M,,*55
06/17/2015	18:11:01.533	$GPGGA,181102,2543.8850,N,08009.7266,W,1,10,1.9,6,M,,M,,*55
06/17/2015	18:11:02.523	$GPGGA,181103,2543.8850,N,08009.7266,W,1,10,1.9,6,M,,M,,*54
06/17/2015	18:11:03.652	$GPGGA,181104,2543.8850,N,08009.7266,W,1,10,1.9,6,M,,M,,*53
06/17/2015	18:11:04.512	$GPGGA,181105,2543.8850,N,08009.7266,W,1,10,1.9,6,M,,M,,*52
06/17/2015	18:11:05.523	$GPGGA,181106,2543.8850,N,08009.7266,W,1,10,1.9,6,M,,M,,*51
06/17/2015	18:11:06.522	$GPGGA,181107,2543.8850,N,08009.7266,W,1,10,1.9,6,M,,M,,*50
06/17/2015	18:11:07.542	$GPGGA,181108,2543.8850,N,08009.7267,W,1,10,1.9,6,M,,M,,*5E
06/17/2015	18:11:08.612	$GPGGA,181109,2543.8850,N,08009.7266,W,1,10,1.9,6,M,,M,,*5E
06/17/2015	18:11:09.602	$GPGGA,181110,2543.8850,N,08009.7266,W,1,10,1.9,6,M,,M,,*56
06/17/2015	18:11:10.512	$GPGGA,181111,2543.8850,N,08009.7266,W,1,10,1.9,6,M,,M,,*57
06/17/2015	18:11:11.602	$GPGGA,181112,2543.8850,N,08009.7267,W,1,10,1.9,6,M,,M,,*55
06/17/2015	18:11:12.492	$GPGGA,181113,2543.8850,N,08009.7267,W,1,10,1.9,6,M,,M,,*54
06/17/2015	18:11:13.492	$GPGGA,181114,2543.8850,N,08009.7267,W,1,10,1.9,6,M,,M,,*53
06/17/2015	18:11:14.572	$GPGGA,181115,2543.8850,N,08009.7267,W,1,10,1.9,6,M,,M,,*52
06/17/2015	18:11:15.632	$GPGGA,181116,2543.8850,N,08009.7267,W,1,10,1.9,7,M,,M,,*50
06/17/2015	18:11:16.572	$GPGGA,181117,2543.8850,N,08009.7267,W,1,10,1.9,7,M,,M,,*51
06/17/2015	18:11:17.602	$GPGGA,181118,2543.8850,N,08009.7267,W,1,10,1.9,7,M,,M,,*5E
06/17/2015	18:11:18.582	$GPGGA,181119,2543.8850,N,08009.7267,W,1,10,1.9,7,M,,M,,*5F
06/17/2015	18:11:19.613	$GPGGA,181120,2543.8850,N,08009.7267,W,1,10,1.9,7,M,,M,,*55
06/17/2015	18:11:20.573	$GPGGA,181121,2543.8850,N,08009.7267,W,1,10,1.9,7,M,,M,,*54
06/17/2015	18:11:21.592	$GPGGA,181122,2543.8850,N,08009.7269,W,1,10,1.9,7,M,,M,,*59
06/17/2015	18:11:22.562	$GPGGA,181123,2543.8850,N,08009.7268,W,1,10,1.9,7,M,,M,,*59
06/17/2015	18:11:23.592	$GPGGA,181124,2543.8850,N,08009.7269,W,1,10,1.9,7,M,,M,,*5F
06/17/2015	18:11:24.552	$GPGGA,181125,2543.8850,N,08009.7268,W,1,10,1.9,7,M,,M,,*5F
06/17/2015	18:11:25.552	$GPGGA,181126,2543.8850,N,08009.7267,W,1,10,1.9,7,M,,M,,*53
06/17/2015	18:11:26.562	$GPGGA,181127,2543.8850,N,08009.7267,W,1,10,1.9,7,M,,M,,*52
06/17/2015	18:11:27.592	$GPGGA,181128,2543.8850,N,08009.7267,W,1,10,1.9,7,M,,M,,*5D
06/17/2015	18:11:28.562	$GPGGA,181129,2543.8850,N,08009.7269,W,1,10,1.9,7,M,,M,,*52
06/17/2015	18:11:29.552	$GPGGA,181130,2543.8850,N,08009.7267,W,1,10,1.9,7,M,,M,,*54
06/17/2015	18:11:30.562	$GPGGA,181131,2543.8850,N,08009.7267,W,1,10,1.9,7,M,,M,,*55
06/17/2015	18:11:31.582	$GPGGA,181132,2543.8850,N,08009.7267,W,1,10,1.9,7,M,,M,,*56
06/17/2015	18:11:32.542	$GPGGA,181133,2543.8850,N,08009.7267,W,1,10,1.9,7,M,,M,,*57
06/17/2015	18:11:33.572	$GPGGA,181134,2543.8852,N,08009.7267,W,1,10,1.9,7,M,,M,,*52
06/17/2015	18:11:34.532	$GPGGA,181135,2543.8851,N,08009.7266,W,1,10,1.9,7,M,,M,,*51
06/17/2015	18:11:35.562	$GPGGA,181136,2543.8852,N,08009.7266,W,1,10,1.9,7,M,,M,,*51
06/17/2015	18:11:36.563	$GPGGA,181137,2543.8853,N,08009.7266,W,1,10,1.9,7,M,,M,,*51
06/17/2015	18:11:37.523	$GPGGA,181138,2543.8853,N,08009.7266,W,1,10,1.9,7,M,,M,,*5E
06/17/2015	18:11:38.542	$GPGGA,181139,2543.8853,N,08009.7266,W,1,10,1.9,7,M,,M,,*5F
06/17/2015	18:11:40.023	$GPGGA,181140,2543.8853,N,08009.7265,W,1,10,1.9,7,M,,M,,*52
06/17/2015	18:11:40.542	$GPGGA,181141,2543.8853,N,08009.7265,W,1,10,1.9,7,M,,M,,*53
06/17/2015	18:11:41.532	$GPGGA,181142,2543.8853,N,08009.7265,W,1,10,1.9,7,M,,M,,*50
06/17/2015	18:11:42.532	$GPGGA,181143,2543.8853,N,08009.7265,W,1,10,1.9,7,M,,M,,*51
06/17/2015	18:11:43.572	$GPGGA,181144,2543.8853,N,08009.7265,W,1,10,1.9,7,M,,M,,*56
