Software Version Number: 1	Data File Format Number: 1	Build Version Number: 1	Error Count Since VI Started: 3	Manufacturer: Raytheon	 Model Number: RayMarine 120	 S/N: 	 Cal Date: 	 Wind Direction Offset: 0.00	 Slope (M)1: 0.00	 Offset (B)1: 0.00	 Slope (M)2: 0.00	 Offset (B)2: 0.00	 Slope (M)3: 0.00	 Offset (B)3: 0.00	 Slope (M)4: 0.00	 Offset (B)4: 0.00	 Slope (M)5: 0.00	 Offset (B)5: 0.00	 Slope (M)6: 0.00	 Offset (B)6: 0.00
Computer Date	Computer Time	GGA String
06/22/2015	14:00:00.090	$GPGGA,140000,2423.8040,N,08205.6542,W,1,9,1.4,17,M,,M,,*5E
06/22/2015	14:00:00.539	$GPGGA,140001,2423.8016,N,08205.6532,W,1,9,1.4,17,M,,M,,*5B
06/22/2015	14:00:01.619	$GPGGA,140002,2423.7994,N,08205.6521,W,1,9,1.4,17,M,,M,,*56
06/22/2015	14:00:02.530	$GPGGA,140003,2423.7972,N,08205.6509,W,1,9,1.4,17,M,,M,,*55
06/22/2015	14:00:03.619	$GPGGA,140004,2423.7950,N,08205.6499,W,1,9,1.4,17,M,,M,,*5A
06/22/2015	14:00:04.539	$GPGGA,140005,2423.7928,N,08205.6488,W,1,9,1.4,17,M,,M,,*54
06/22/2015	14:00:05.590	$GPGGA,140006,2423.7905,N,08205.6478,W,1,9,1.4,17,M,,M,,*57
06/22/2015	14:00:06.530	$GPGGA,140007,2423.7882,N,08205.6467,W,1,9,1.5,17,M,,M,,*57
06/22/2015	14:00:07.590	$GPGGA,140008,2423.7860,N,08205.6457,W,1,9,1.4,17,M,,M,,*56
06/22/2015	14:00:08.580	$GPGGA,140009,2423.7838,N,08205.6448,W,1,9,1.4,17,M,,M,,*54
06/22/2015	14:00:09.630	$GPGGA,140010,2423.7816,N,08205.6437,W,1,10,1.4,17,M,,M,,*60
06/22/2015	14:00:10.570	$GPGGA,140011,2423.7793,N,08205.6427,W,1,10,1.4,17,M,,M,,*62
06/22/2015	14:00:11.630	$GPGGA,140012,2423.7771,N,08205.6418,W,1,10,1.4,17,M,,M,,*61
06/22/2015	14:00:12.580	$GPGGA,140013,2423.7749,N,08205.6408,W,1,10,1.4,17,M,,M,,*6A
06/22/2015	14:00:13.600	$GPGGA,140014,2423.7727,N,08205.6398,W,1,10,1.4,18,M,,M,,*64
06/22/2015	14:00:14.561	$GPGGA,140015,2423.7704,N,08205.6388,W,1,10,1.4,18,M,,M,,*65
06/22/2015	14:00:15.639	$GPGGA,140016,2423.7682,N,08205.6378,W,1,10,1.4,18,M,,M,,*66
06/22/2015	14:00:16.566	$GPGGA,140017,2423.7661,N,08205.6370,W,1,10,1.4,18,M,,M,,*62
06/22/2015	14:00:17.629	$GPGGA,140018,2423.7639,N,08205.6360,W,1,10,1.4,18,M,,M,,*61
06/22/2015	14:00:18.569	$GPGGA,140019,2423.7616,N,08205.6349,W,1,10,1.4,18,M,,M,,*66
06/22/2015	14:00:19.619	$GPGGA,140020,2423.7593,N,08205.6340,W,1,10,1.4,18,M,,M,,*6B
06/22/2015	14:00:20.559	$GPGGA,140021,2423.7571,N,08205.6332,W,1,10,1.4,18,M,,M,,*63
06/22/2015	14:00:21.589	$GPGGA,140022,2423.7549,N,08205.6322,W,1,10,1.4,18,M,,M,,*6A
06/22/2015	14:00:22.559	$GPGGA,140023,2423.7527,N,08205.6312,W,1,10,1.4,18,M,,M,,*60
06/22/2015	14:00:23.600	$GPGGA,140024,2423.7504,N,08205.6303,W,1,10,1.4,18,M,,M,,*66
06/22/2015	14:00:24.553	$GPGGA,140025,2423.7481,N,08205.6295,W,1,10,1.4,18,M,,M,,*65
06/22/2015	14:00:25.580	$GPGGA,140026,2423.7481,N,08205.6295,W,1,10,1.4,18,M,,M,,*66
06/22/2015	14:00:26.560	$GPGGA,140027,2423.7437,N,08205.6277,W,1,10,1.4,18,M,,M,,*66
06/22/2015	14:00:27.610	$GPGGA,140028,2423.7415,N,08205.6268,W,1,10,1.4,18,M,,M,,*67
06/22/2015	14:00:28.551	$GPGGA,140029,2423.7391,N,08205.6261,W,1,10,1.4,18,M,,M,,*64
06/22/2015	14:00:29.560	$GPGGA,140030,2423.7391,N,08205.6261,W,1,10,1.4,18,M,,M,,*6C
06/22/2015	14:00:30.540	$GPGGA,140031,2423.7345,N,08205.6243,W,1,10,1.5,19,M,,M,,*64
06/22/2015	14:00:31.600	$GPGGA,140032,2423.7322,N,08205.6234,W,1,9,1.4,19,M,,M,,*5F
06/22/2015	14:00:32.550	$GPGGA,140033,2423.7300,N,08205.6226,W,1,9,1.5,19,M,,M,,*5C
06/22/2015	14:00:33.599	$GPGGA,140034,2423.7300,N,08205.6226,W,1,9,1.5,19,M,,M,,*5B
06/22/2015	14:00:34.539	$GPGGA,140035,2423.7254,N,08205.6210,W,1,9,1.4,18,M,,M,,*5F
06/22/2015	14:00:35.599	$GPGGA,140036,2423.7231,N,08205.6201,W,1,10,1.5,18,M,,M,,*66
06/22/2015	14:00:36.639	$GPGGA,140037,2423.7208,N,08205.6193,W,1,10,1.5,18,M,,M,,*65
06/22/2015	14:00:37.579	$GPGGA,140038,2423.7186,N,08205.6185,W,1,9,1.4,18,M,,M,,*51
06/22/2015	14:00:38.529	$GPGGA,140039,2423.7164,N,08205.6178,W,1,9,1.4,18,M,,M,,*5E
06/22/2015	14:00:39.599	$GPGGA,140040,2423.7141,N,08205.6169,W,1,10,1.4,18,M,,M,,*6F
06/22/2015	14:00:40.630	$GPGGA,140041,2423.7117,N,08205.6162,W,1,10,1.4,18,M,,M,,*66
06/22/2015	14:00:41.620	$GPGGA,140042,2423.7094,N,08205.6155,W,1,10,1.4,18,M,,M,,*6B
06/22/2015	14:00:42.630	$GPGGA,140043,2423.7073,N,08205.6147,W,1,10,1.5,18,M,,M,,*61
06/22/2015	14:00:43.620	$GPGGA,140044,2423.7050,N,08205.6139,W,1,10,1.4,18,M,,M,,*6F
06/22/2015	14:00:44.561	$GPGGA,140045,2423.7027,N,08205.6133,W,1,10,1.4,18,M,,M,,*64
06/22/2015	14:00:45.520	$GPGGA,140046,2423.7027,N,08205.6133,W,1,10,1.4,18,M,,M,,*67
06/22/2015	14:00:46.500	$GPGGA,140047,2423.6982,N,08205.6118,W,1,10,1.4,18,M,,M,,*68
06/22/2015	14:00:47.540	$GPGGA,140048,2423.6982,N,08205.6118,W,1,10,1.4,18,M,,M,,*67
06/22/2015	14:00:48.520	$GPGGA,140049,2423.6935,N,08205.6104,W,1,10,1.4,18,M,,M,,*67
06/22/2015	14:00:49.630	$GPGGA,140050,2423.6911,N,08205.6096,W,1,10,1.4,18,M,,M,,*63
06/22/2015	14:00:50.529	$GPGGA,140051,2423.6911,N,08205.6096,W,1,10,1.4,18,M,,M,,*62
06/22/2015	14:00:51.599	$GPGGA,140052,2423.6866,N,08205.6084,W,1,10,1.4,18,M,,M,,*63
06/22/2015	14:00:52.589	$GPGGA,140053,2423.6841,N,08205.6076,W,1,10,1.4,18,M,,M,,*6A
06/22/2015	14:00:53.589	$GPGGA,140054,2423.6819,N,08205.6070,W,1,10,1.4,18,M,,M,,*66
06/22/2015	14:00:54.590	$GPGGA,140055,2423.6795,N,08205.6064,W,1,10,1.4,18,M,,M,,*69
06/22/2015	14:00:55.629	$GPGGA,140056,2423.6772,N,08205.6057,W,1,9,1.5,18,M,,M,,*5A
06/22/2015	14:00:56.579	$GPGGA,140057,2423.6750,N,08205.6050,W,1,9,1.4,18,M,,M,,*5D
06/22/2015	14:00:57.580	$GPGGA,140058,2423.6726,N,08205.6045,W,1,10,1.4,18,M,,M,,*6F
06/22/2015	14:00:58.490	$GPGGA,140059,2423.6702,N,08205.6039,W,1,10,1.5,18,M,,M,,*62
06/22/2015	14:00:59.630	$GPGGA,140100,2423.6679,N,08205.6031,W,1,9,1.5,18,M,,M,,*52
06/22/2015	14:01:00.570	$GPGGA,140101,2423.6656,N,08205.6024,W,1,9,1.4,18,M,,M,,*5B
06/22/2015	14:01:01.600	$GPGGA,140102,2423.6633,N,08205.6019,W,1,10,1.4,18,M,,M,,*6D
06/22/2015	14:01:02.570	$GPGGA,140103,2423.6608,N,08205.6013,W,1,10,1.4,17,M,,M,,*61
06/22/2015	14:01:03.910	$GPGGA,140104,2423.6585,N,08205.6006,W,1,10,1.4,17,M,,M,,*64
06/22/2015	14:01:04.620	$GPGGA,140105,2423.6563,N,08205.6000,W,1,10,1.4,17,M,,M,,*6B
06/22/2015	14:01:05.600	$GPGGA,140106,2423.6538,N,08205.5993,W,1,9,1.5,17,M,,M,,*5F
06/22/2015	14:01:06.552	$GPGGA,140107,2423.6516,N,08205.5986,W,1,9,1.4,17,M,,M,,*57
06/22/2015	14:01:07.600	$GPGGA,140108,2423.6491,N,08205.5981,W,1,10,1.4,17,M,,M,,*69
06/22/2015	14:01:08.557	$GPGGA,140109,2423.6469,N,08205.5975,W,1,10,1.4,17,M,,M,,*64
06/22/2015	14:01:09.579	$GPGGA,140110,2423.6444,N,08205.5968,W,1,10,1.4,17,M,,M,,*6F
06/22/2015	14:01:10.563	$GPGGA,140111,2423.6422,N,08205.5960,W,1,10,1.4,17,M,,M,,*66
06/22/2015	14:01:11.599	$GPGGA,140112,2423.6398,N,08205.5954,W,1,10,1.4,17,M,,M,,*64
06/22/2015	14:01:12.551	$GPGGA,140113,2423.6375,N,08205.5948,W,1,10,1.4,17,M,,M,,*6B
06/22/2015	14:01:13.569	$GPGGA,140114,2423.6351,N,08205.5941,W,1,10,1.4,17,M,,M,,*63
06/22/2015	14:01:14.540	$GPGGA,140115,2423.6328,N,08205.5932,W,1,10,1.4,16,M,,M,,*69
06/22/2015	14:01:15.590	$GPGGA,140116,2423.6304,N,08205.5925,W,1,10,1.4,16,M,,M,,*62
06/22/2015	14:01:16.550	$GPGGA,140117,2423.6282,N,08205.5920,W,1,10,1.4,16,M,,M,,*69
06/22/2015	14:01:17.580	$GPGGA,140118,2423.6259,N,08205.5912,W,1,10,1.4,16,M,,M,,*61
06/22/2015	14:01:18.540	$GPGGA,140119,2423.6235,N,08205.5905,W,1,10,1.6,16,M,,M,,*6E
06/22/2015	14:01:19.570	$GPGGA,140120,2423.6213,N,08205.5898,W,1,10,1.4,16,M,,M,,*67
06/22/2015	14:01:20.540	$GPGGA,140121,2423.6189,N,08205.5892,W,1,10,1.4,16,M,,M,,*6C
06/22/2015	14:01:21.820	$GPGGA,140122,2423.6166,N,08205.5885,W,1,10,1.4,16,M,,M,,*68
06/22/2015	14:01:22.540	$GPGGA,140123,2423.6143,N,08205.5877,W,1,10,1.4,16,M,,M,,*63
06/22/2015	14:01:23.550	$GPGGA,140124,2423.6120,N,08205.5871,W,1,10,1.4,16,M,,M,,*67
06/22/2015	14:01:24.520	$GPGGA,140125,2423.6097,N,08205.5865,W,1,10,1.4,16,M,,M,,*6E
06/22/2015	14:01:25.519	$GPGGA,140126,2423.6075,N,08205.5857,W,1,10,1.4,16,M,,M,,*60
06/22/2015	14:01:26.539	$GPGGA,140127,2423.6051,N,08205.5850,W,1,10,1.4,16,M,,M,,*60
06/22/2015	14:01:27.539	$GPGGA,140128,2423.6028,N,08205.5844,W,1,10,1.4,16,M,,M,,*64
06/22/2015	14:01:28.539	$GPGGA,140129,2423.6005,N,08205.5836,W,1,10,1.5,16,M,,M,,*6E
06/22/2015	14:01:29.529	$GPGGA,140130,2423.5982,N,08205.5830,W,1,10,1.4,16,M,,M,,*64
06/22/2015	14:01:30.529	$GPGGA,140131,2423.5959,N,08205.5824,W,1,10,1.4,16,M,,M,,*66
06/22/2015	14:01:31.560	$GPGGA,140132,2423.5936,N,08205.5816,W,1,10,1.4,16,M,,M,,*6D
06/22/2015	14:01:32.510	$GPGGA,140133,2423.5913,N,08205.5808,W,1,10,1.4,16,M,,M,,*64
06/22/2015	14:01:33.520	$GPGGA,140134,2423.5889,N,08205.5802,W,1,10,1.4,16,M,,M,,*6B
06/22/2015	14:01:34.530	$GPGGA,140135,2423.5867,N,08205.5796,W,1,10,1.4,16,M,,M,,*68
06/22/2015	14:01:35.540	$GPGGA,140136,2423.5844,N,08205.5788,W,1,10,1.4,16,M,,M,,*65
06/22/2015	14:01:36.520	$GPGGA,140137,2423.5822,N,08205.5779,W,1,10,1.4,16,M,,M,,*6A
06/22/2015	14:01:37.600	$GPGGA,140138,2423.5798,N,08205.5774,W,1,10,1.4,16,M,,M,,*66
06/22/2015	14:01:38.500	$GPGGA,140139,2423.5775,N,08205.5767,W,1,10,1.4,16,M,,M,,*66
06/22/2015	14:01:39.610	$GPGGA,140140,2423.5752,N,08205.5759,W,1,10,1.4,16,M,,M,,*60
06/22/2015	14:01:40.510	$GPGGA,140141,2423.5729,N,08205.5751,W,1,10,1.4,16,M,,M,,*65
06/22/2015	14:01:41.590	$GPGGA,140142,2423.5706,N,08205.5745,W,1,10,1.4,16,M,,M,,*6E
06/22/2015	14:01:42.620	$GPGGA,140143,2423.5682,N,08205.5739,W,1,10,1.4,16,M,,M,,*69
06/22/2015	14:01:43.619	$GPGGA,140144,2423.5659,N,08205.5731,W,1,9,1.6,16,M,,M,,*5A
06/22/2015	14:01:44.599	$GPGGA,140145,2423.5636,N,08205.5725,W,1,9,1.4,16,M,,M,,*55
06/22/2015	14:01:45.589	$GPGGA,140146,2423.5613,N,08205.5720,W,1,10,1.4,16,M,,M,,*6C
06/22/2015	14:01:46.499	$GPGGA,140147,2423.5591,N,08205.5713,W,1,10,1.4,16,M,,M,,*64
06/22/2015	14:01:47.619	$GPGGA,140148,2423.5566,N,08205.5706,W,1,10,1.4,16,M,,M,,*67
06/22/2015	14:01:48.589	$GPGGA,140149,2423.5544,N,08205.5699,W,1,10,1.4,16,M,,M,,*61
06/22/2015	14:01:49.579	$GPGGA,140150,2423.5522,N,08205.5694,W,1,10,1.4,16,M,,M,,*64
06/22/2015	14:01:50.580	$GPGGA,140151,2423.5497,N,08205.5687,W,1,10,1.4,16,M,,M,,*68
06/22/2015	14:01:51.580	$GPGGA,140152,2423.5475,N,08205.5679,W,1,10,1.4,16,M,,M,,*66
06/22/2015	14:01:52.580	$GPGGA,140153,2423.5451,N,08205.5674,W,1,10,1.4,16,M,,M,,*6C
06/22/2015	14:01:53.580	$GPGGA,140154,2423.5428,N,08205.5669,W,1,10,1.4,16,M,,M,,*69
06/22/2015	14:01:54.570	$GPGGA,140155,2423.5405,N,08205.5660,W,1,10,1.4,16,M,,M,,*6E
06/22/2015	14:01:55.610	$GPGGA,140156,2423.5381,N,08205.5654,W,1,10,1.4,16,M,,M,,*61
06/22/2015	14:01:56.570	$GPGGA,140157,2423.5358,N,08205.5651,W,1,10,1.4,16,M,,M,,*61
06/22/2015	14:01:57.580	$GPGGA,140158,2423.5334,N,08205.5643,W,1,9,1.5,16,M,,M,,*5E
06/22/2015	14:01:58.560	$GPGGA,140159,2423.5313,N,08205.5635,W,1,9,1.5,16,M,,M,,*5B
06/22/2015	14:01:59.610	$GPGGA,140200,2423.5289,N,08205.5630,W,1,10,1.4,16,M,,M,,*6A
06/22/2015	14:02:00.559	$GPGGA,140201,2423.5264,N,08205.5624,W,1,10,1.4,16,M,,M,,*6D
06/22/2015	14:02:01.569	$GPGGA,140202,2423.5242,N,08205.5618,W,1,10,1.4,16,M,,M,,*65
06/22/2015	14:02:02.550	$GPGGA,140203,2423.5219,N,08205.5610,W,1,10,1.4,16,M,,M,,*62
06/22/2015	14:02:03.579	$GPGGA,140204,2423.5195,N,08205.5604,W,1,10,1.4,16,M,,M,,*67
06/22/2015	14:02:04.561	$GPGGA,140205,2423.5173,N,08205.5598,W,1,10,1.4,16,M,,M,,*68
06/22/2015	14:02:05.539	$GPGGA,140206,2423.5150,N,08205.5591,W,1,10,1.4,16,M,,M,,*63
06/22/2015	14:02:06.549	$GPGGA,140207,2423.5126,N,08205.5584,W,1,10,1.4,16,M,,M,,*67
06/22/2015	14:02:07.570	$GPGGA,140208,2423.5103,N,08205.5579,W,1,10,1.4,15,M,,M,,*6E
06/22/2015	14:02:08.550	$GPGGA,140209,2423.5079,N,08205.5572,W,1,10,1.5,15,M,,M,,*69
06/22/2015	14:02:09.540	$GPGGA,140210,2423.5056,N,08205.5564,W,1,10,1.4,15,M,,M,,*6A
06/22/2015	14:02:10.540	$GPGGA,140211,2423.5032,N,08205.5559,W,1,10,1.4,15,M,,M,,*67
06/22/2015	14:02:11.550	$GPGGA,140212,2423.5009,N,08205.5553,W,1,10,1.4,15,M,,M,,*66
06/22/2015	14:02:12.540	$GPGGA,140213,2423.4985,N,08205.5545,W,1,10,1.4,15,M,,M,,*6C
06/22/2015	14:02:13.530	$GPGGA,140214,2423.4962,N,08205.5538,W,1,10,1.4,15,M,,M,,*68
06/22/2015	14:02:14.540	$GPGGA,140215,2423.4938,N,08205.5533,W,1,10,1.4,15,M,,M,,*6D
06/22/2015	14:02:15.561	$GPGGA,140216,2423.4916,N,08205.5526,W,1,10,1.4,15,M,,M,,*66
06/22/2015	14:02:16.520	$GPGGA,140217,2423.4893,N,08205.5517,W,1,10,1.4,15,M,,M,,*69
06/22/2015	14:02:17.540	$GPGGA,140218,2423.4869,N,08205.5511,W,1,10,1.4,15,M,,M,,*65
06/22/2015	14:02:18.509	$GPGGA,140219,2423.4846,N,08205.5506,W,1,10,1.4,15,M,,M,,*6F
06/22/2015	14:02:19.539	$GPGGA,140220,2423.4825,N,08205.5498,W,1,10,1.4,15,M,,M,,*66
06/22/2015	14:02:20.509	$GPGGA,140221,2423.4800,N,08205.5490,W,1,10,1.4,14,M,,M,,*69
06/22/2015	14:02:21.529	$GPGGA,140222,2423.4778,N,08205.5483,W,1,10,1.4,14,M,,M,,*68
06/22/2015	14:02:22.519	$GPGGA,140223,2423.4755,N,08205.5477,W,1,10,1.5,14,M,,M,,*6C
06/22/2015	14:02:23.529	$GPGGA,140224,2423.4734,N,08205.5469,W,1,10,1.4,14,M,,M,,*62
06/22/2015	14:02:24.599	$GPGGA,140225,2423.4711,N,08205.5461,W,1,10,1.4,14,M,,M,,*6C
06/22/2015	14:02:25.610	$GPGGA,140226,2423.4688,N,08205.5454,W,1,9,1.5,14,M,,M,,*51
06/22/2015	14:02:26.510	$GPGGA,140227,2423.4666,N,08205.5447,W,1,9,1.4,14,M,,M,,*53
06/22/2015	14:02:28.540	$GPGGA,140229,2423.4619,N,08205.5431,W,1,10,1.4,14,M,,M,,*6C
06/22/2015	14:02:29.601	$GPGGA,140230,2423.4595,N,08205.5424,W,1,10,1.4,14,M,,M,,*67
06/22/2015	14:02:30.510	$GPGGA,140231,2423.4572,N,08205.5416,W,1,10,1.4,14,M,,M,,*6E
06/22/2015	14:02:31.500	$GPGGA,140232,2423.4549,N,08205.5407,W,1,9,1.5,14,M,,M,,*5C
06/22/2015	14:02:32.590	$GPGGA,140233,2423.4525,N,08205.5399,W,1,9,1.5,14,M,,M,,*57
06/22/2015	14:02:33.490	$GPGGA,140234,2423.4502,N,08205.5393,W,1,10,1.4,14,M,,M,,*66
06/22/2015	14:02:34.580	$GPGGA,140235,2423.4479,N,08205.5385,W,1,10,1.4,14,M,,M,,*6D
06/22/2015	14:02:35.629	$GPGGA,140236,2423.4455,N,08205.5375,W,1,10,1.4,14,M,,M,,*6F
06/22/2015	14:02:36.579	$GPGGA,140237,2423.4433,N,08205.5368,W,1,10,1.4,14,M,,M,,*62
06/22/2015	14:02:37.589	$GPGGA,140238,2423.4411,N,08205.5361,W,1,9,1.5,14,M,,M,,*5D
06/22/2015	14:02:38.569	$GPGGA,140239,2423.4389,N,08205.5352,W,1,9,1.4,14,M,,M,,*5B
06/22/2015	14:02:39.579	$GPGGA,140240,2423.4366,N,08205.5342,W,1,10,1.4,14,M,,M,,*6D
06/22/2015	14:02:40.563	$GPGGA,140241,2423.4344,N,08205.5334,W,1,10,1.5,14,M,,M,,*6C
06/22/2015	14:02:41.579	$GPGGA,140242,2423.4321,N,08205.5327,W,1,10,1.4,14,M,,M,,*6F
06/22/2015	14:02:42.580	$GPGGA,140243,2423.4301,N,08205.5319,W,1,10,1.4,14,M,,M,,*61
06/22/2015	14:02:43.580	$GPGGA,140244,2423.4277,N,08205.5309,W,1,10,1.4,14,M,,M,,*67
06/22/2015	14:02:44.562	$GPGGA,140245,2423.4254,N,08205.5301,W,1,10,1.4,14,M,,M,,*6F
06/22/2015	14:02:45.564	$GPGGA,140246,2423.4232,N,08205.5294,W,1,10,1.4,14,M,,M,,*61
06/22/2015	14:02:46.570	$GPGGA,140247,2423.4208,N,08205.5285,W,1,10,1.4,14,M,,M,,*69
06/22/2015	14:02:47.590	$GPGGA,140248,2423.4186,N,08205.5277,W,1,10,1.4,14,M,,M,,*6E
06/22/2015	14:02:48.562	$GPGGA,140249,2423.4164,N,08205.5270,W,1,10,1.4,14,M,,M,,*64
06/22/2015	14:02:49.580	$GPGGA,140250,2423.4140,N,08205.5262,W,1,10,1.4,14,M,,M,,*69
06/22/2015	14:02:50.562	$GPGGA,140251,2423.4117,N,08205.5253,W,1,10,1.4,14,M,,M,,*68
06/22/2015	14:02:51.580	$GPGGA,140252,2423.4095,N,08205.5246,W,1,10,1.4,14,M,,M,,*64
06/22/2015	14:02:52.560	$GPGGA,140253,2423.4071,N,08205.5238,W,1,10,1.4,14,M,,M,,*66
06/22/2015	14:02:53.561	$GPGGA,140254,2423.4048,N,08205.5230,W,1,10,1.4,14,M,,M,,*63
06/22/2015	14:02:54.550	$GPGGA,140255,2423.4025,N,08205.5223,W,1,10,1.4,14,M,,M,,*6B
06/22/2015	14:02:55.579	$GPGGA,140256,2423.4001,N,08205.5215,W,1,10,1.4,15,M,,M,,*6A
06/22/2015	14:02:56.539	$GPGGA,140257,2423.3978,N,08205.5208,W,1,10,1.4,15,M,,M,,*67
06/22/2015	14:02:57.539	$GPGGA,140258,2423.3958,N,08205.5200,W,1,10,1.4,15,M,,M,,*62
06/22/2015	14:02:58.539	$GPGGA,140259,2423.3933,N,08205.5192,W,1,10,1.4,15,M,,M,,*66
06/22/2015	14:02:59.589	$GPGGA,140300,2423.3911,N,08205.5186,W,1,10,1.4,15,M,,M,,*6E
06/22/2015	14:03:00.540	$GPGGA,140301,2423.3889,N,08205.5179,W,1,10,1.4,15,M,,M,,*6F
06/22/2015	14:03:01.521	$GPGGA,140302,2423.3865,N,08205.5171,W,1,9,1.6,15,M,,M,,*5C
06/22/2015	14:03:02.530	$GPGGA,140303,2423.3843,N,08205.5163,W,1,9,1.4,15,M,,M,,*58
06/22/2015	14:03:03.570	$GPGGA,140304,2423.3820,N,08205.5157,W,1,10,1.4,15,M,,M,,*65
06/22/2015	14:03:04.820	$GPGGA,140305,2423.3797,N,08205.5149,W,1,10,1.6,15,M,,M,,*6A
06/22/2015	14:03:05.550	$GPGGA,140306,2423.3773,N,08205.5142,W,1,9,1.6,15,M,,M,,*50
06/22/2015	14:03:06.510	$GPGGA,140307,2423.3750,N,08205.5135,W,1,9,1.6,15,M,,M,,*50
06/22/2015	14:03:07.551	$GPGGA,140308,2423.3727,N,08205.5128,W,1,10,1.4,15,M,,M,,*69
06/22/2015	14:03:08.530	$GPGGA,140309,2423.3703,N,08205.5121,W,1,10,1.4,15,M,,M,,*67
06/22/2015	14:03:09.630	$GPGGA,140310,2423.3683,N,08205.5114,W,1,10,1.4,15,M,,M,,*60
06/22/2015	14:03:10.499	$GPGGA,140311,2423.3659,N,08205.5106,W,1,10,1.4,15,M,,M,,*65
06/22/2015	14:03:11.529	$GPGGA,140312,2423.3637,N,08205.5100,W,1,10,1.4,15,M,,M,,*68
06/22/2015	14:03:12.599	$GPGGA,140313,2423.3615,N,08205.5093,W,1,10,1.4,15,M,,M,,*62
06/22/2015	14:03:13.499	$GPGGA,140314,2423.3591,N,08205.5085,W,1,10,1.4,15,M,,M,,*6D
06/22/2015	14:03:14.509	$GPGGA,140315,2423.3568,N,08205.5080,W,1,10,1.4,15,M,,M,,*6F
06/22/2015	14:03:15.509	$GPGGA,140316,2423.3546,N,08205.5074,W,1,9,1.6,15,M,,M,,*51
06/22/2015	14:03:16.589	$GPGGA,140317,2423.3523,N,08205.5065,W,1,9,1.6,15,M,,M,,*53
06/22/2015	14:03:17.479	$GPGGA,140318,2423.3500,N,08205.5057,W,1,10,1.4,14,M,,M,,*67
06/22/2015	14:03:18.599	$GPGGA,140319,2423.3476,N,08205.5052,W,1,10,1.4,14,M,,M,,*63
06/22/2015	14:03:19.589	$GPGGA,140320,2423.3452,N,08205.5045,W,1,8,1.8,14,M,,M,,*5C
06/22/2015	14:03:20.589	$GPGGA,140321,2423.3430,N,08205.5035,W,1,8,1.4,14,M,,M,,*52
06/22/2015	14:03:21.579	$GPGGA,140322,2423.3407,N,08205.5028,W,1,10,1.4,14,M,,M,,*60
06/22/2015	14:03:22.579	$GPGGA,140323,2423.3384,N,08205.5023,W,1,10,1.4,14,M,,M,,*66
06/22/2015	14:03:23.489	$GPGGA,140324,2423.3362,N,08205.5014,W,1,10,1.4,14,M,,M,,*6D
06/22/2015	14:03:24.569	$GPGGA,140325,2423.3340,N,08205.5006,W,1,10,1.4,14,M,,M,,*6F
06/22/2015	14:03:25.569	$GPGGA,140326,2423.3317,N,08205.4999,W,1,10,1.4,14,M,,M,,*60
06/22/2015	14:03:26.561	$GPGGA,140327,2423.3294,N,08205.4991,W,1,10,1.4,14,M,,M,,*63
06/22/2015	14:03:27.589	$GPGGA,140328,2423.3272,N,08205.4983,W,1,10,1.4,14,M,,M,,*67
06/22/2015	14:03:28.569	$GPGGA,140329,2423.3250,N,08205.4975,W,1,10,1.4,14,M,,M,,*6F
06/22/2015	14:03:29.579	$GPGGA,140330,2423.3226,N,08205.4967,W,1,10,1.4,14,M,,M,,*65
06/22/2015	14:03:30.559	$GPGGA,140331,2423.3203,N,08205.4957,W,1,10,1.4,14,M,,M,,*60
06/22/2015	14:03:31.589	$GPGGA,140332,2423.3181,N,08205.4950,W,1,9,1.6,14,M,,M,,*57
06/22/2015	14:03:32.554	$GPGGA,140333,2423.3156,N,08205.4941,W,1,9,1.4,14,M,,M,,*5E
06/22/2015	14:03:33.579	$GPGGA,140334,2423.3134,N,08205.4932,W,1,10,1.4,14,M,,M,,*61
06/22/2015	14:03:34.550	$GPGGA,140335,2423.3110,N,08205.4923,W,1,10,1.4,14,M,,M,,*66
06/22/2015	14:03:35.579	$GPGGA,140336,2423.3087,N,08205.4915,W,1,10,1.4,14,M,,M,,*6F
06/22/2015	14:03:36.541	$GPGGA,140337,2423.3063,N,08205.4907,W,1,10,1.4,14,M,,M,,*67
06/22/2015	14:03:37.539	$GPGGA,140338,2423.3040,N,08205.4897,W,1,10,1.4,14,M,,M,,*61
06/22/2015	14:03:38.549	$GPGGA,140339,2423.3017,N,08205.4887,W,1,10,1.6,14,M,,M,,*61
06/22/2015	14:03:39.569	$GPGGA,140340,2423.2994,N,08205.4879,W,1,10,1.4,14,M,,M,,*6F
06/22/2015	14:03:40.552	$GPGGA,140341,2423.2971,N,08205.4871,W,1,10,1.4,14,M,,M,,*6D
06/22/2015	14:03:41.540	$GPGGA,140342,2423.2950,N,08205.4861,W,1,10,1.4,14,M,,M,,*6C
06/22/2015	14:03:42.542	$GPGGA,140343,2423.2926,N,08205.4851,W,1,10,1.6,14,M,,M,,*6D
06/22/2015	14:03:43.569	$GPGGA,140344,2423.2903,N,08205.4844,W,1,10,1.4,14,M,,M,,*6B
06/22/2015	14:03:44.539	$GPGGA,140345,2423.2880,N,08205.4836,W,1,10,1.4,14,M,,M,,*65
06/22/2015	14:03:45.559	$GPGGA,140346,2423.2858,N,08205.4826,W,1,10,1.4,14,M,,M,,*62
06/22/2015	14:03:46.529	$GPGGA,140347,2423.2835,N,08205.4818,W,1,10,1.4,14,M,,M,,*65
06/22/2015	14:03:47.569	$GPGGA,140348,2423.2813,N,08205.4811,W,1,10,1.4,14,M,,M,,*67
06/22/2015	14:03:48.519	$GPGGA,140349,2423.2789,N,08205.4802,W,1,10,1.4,14,M,,M,,*68
06/22/2015	14:03:49.519	$GPGGA,140350,2423.2766,N,08205.4793,W,1,10,1.4,14,M,,M,,*66
06/22/2015	14:03:50.541	$GPGGA,140351,2423.2744,N,08205.4786,W,1,10,1.4,14,M,,M,,*63
06/22/2015	14:03:51.541	$GPGGA,140352,2423.2720,N,08205.4779,W,1,10,1.4,14,M,,M,,*62
06/22/2015	14:03:52.529	$GPGGA,140353,2423.2697,N,08205.4771,W,1,10,1.4,14,M,,M,,*66
06/22/2015	14:03:53.509	$GPGGA,140354,2423.2674,N,08205.4762,W,1,10,1.4,14,M,,M,,*6E
06/22/2015	14:03:54.609	$GPGGA,140355,2423.2652,N,08205.4756,W,1,10,1.4,13,M,,M,,*6B
06/22/2015	14:03:55.544	$GPGGA,140356,2423.2627,N,08205.4749,W,1,10,1.4,13,M,,M,,*64
06/22/2015	14:03:56.519	$GPGGA,140357,2423.2605,N,08205.4740,W,1,10,1.6,13,M,,M,,*6E
06/22/2015	14:03:57.519	$GPGGA,140358,2423.2583,N,08205.4732,W,1,10,1.4,13,M,,M,,*6B
06/22/2015	14:03:58.509	$GPGGA,140359,2423.2561,N,08205.4726,W,1,10,1.6,13,M,,M,,*61
06/22/2015	14:03:59.559	$GPGGA,140400,2423.2539,N,08205.4719,W,1,9,1.6,13,M,,M,,*53
06/22/2015	14:04:00.589	$GPGGA,140401,2423.2518,N,08205.4708,W,1,9,1.4,13,M,,M,,*53
06/22/2015	14:04:01.489	$GPGGA,140402,2423.2497,N,08205.4702,W,1,10,1.4,13,M,,M,,*64
06/22/2015	14:04:02.499	$GPGGA,140403,2423.2475,N,08205.4697,W,1,10,1.6,13,M,,M,,*66
06/22/2015	14:04:03.520	$GPGGA,140404,2423.2455,N,08205.4689,W,1,9,1.6,13,M,,M,,*54
06/22/2015	14:04:04.509	$GPGGA,140405,2423.2437,N,08205.4682,W,1,9,1.4,13,M,,M,,*58
06/22/2015	14:04:05.609	$GPGGA,140406,2423.2417,N,08205.4677,W,1,10,1.4,13,M,,M,,*6B
06/22/2015	14:04:06.509	$GPGGA,140407,2423.2399,N,08205.4672,W,1,10,1.4,13,M,,M,,*6E
06/22/2015	14:04:07.619	$GPGGA,140408,2423.2381,N,08205.4665,W,1,10,1.6,13,M,,M,,*6C
06/22/2015	14:04:08.590	$GPGGA,140409,2423.2365,N,08205.4658,W,1,10,1.4,13,M,,M,,*6B
06/22/2015	14:04:09.489	$GPGGA,140410,2423.2348,N,08205.4652,W,1,10,1.4,13,M,,M,,*66
06/22/2015	14:04:10.499	$GPGGA,140411,2423.2332,N,08205.4646,W,1,10,1.4,13,M,,M,,*6F
06/22/2015	14:04:11.644	$GPGGA,140412,2423.2316,N,08205.4641,W,1,10,1.4,13,M,,M,,*6D
06/22/2015	14:04:12.579	$GPGGA,140413,2423.2300,N,08205.4636,W,1,10,1.4,13,M,,M,,*6B
06/22/2015	14:04:13.479	$GPGGA,140414,2423.2285,N,08205.4630,W,1,10,1.4,13,M,,M,,*66
06/22/2015	14:04:14.579	$GPGGA,140415,2423.2271,N,08205.4622,W,1,10,1.4,13,M,,M,,*6F
06/22/2015	14:04:15.652	$GPGGA,140416,2423.2255,N,08205.4617,W,1,10,1.4,13,M,,M,,*6C
06/22/2015	14:04:16.579	$GPGGA,140417,2423.2242,N,08205.4613,W,1,10,1.4,13,M,,M,,*6F
06/22/2015	14:04:17.589	$GPGGA,140418,2423.2228,N,08205.4606,W,1,10,1.4,13,M,,M,,*68
06/22/2015	14:04:18.569	$GPGGA,140419,2423.2214,N,08205.4600,W,1,10,1.4,13,M,,M,,*60
06/22/2015	14:04:19.609	$GPGGA,140420,2423.2202,N,08205.4595,W,1,10,1.4,13,M,,M,,*62
06/22/2015	14:04:20.569	$GPGGA,140421,2423.2188,N,08205.4590,W,1,10,1.4,13,M,,M,,*67
06/22/2015	14:04:21.589	$GPGGA,140422,2423.2175,N,08205.4584,W,1,10,1.5,13,M,,M,,*62
06/22/2015	14:04:22.559	$GPGGA,140423,2423.2163,N,08205.4578,W,1,10,1.5,13,M,,M,,*67
06/22/2015	14:04:23.619	$GPGGA,140424,2423.2150,N,08205.4573,W,1,10,1.5,13,M,,M,,*6B
06/22/2015	14:04:24.559	$GPGGA,140425,2423.2138,N,08205.4567,W,1,10,1.5,13,M,,M,,*61
06/22/2015	14:04:25.579	$GPGGA,140426,2423.2126,N,08205.4562,W,1,10,1.5,13,M,,M,,*68
06/22/2015	14:04:26.552	$GPGGA,140427,2423.2114,N,08205.4559,W,1,10,1.5,13,M,,M,,*60
06/22/2015	14:04:27.589	$GPGGA,140428,2423.2102,N,08205.4555,W,1,10,1.5,13,M,,M,,*64
06/22/2015	14:04:28.549	$GPGGA,140429,2423.2090,N,08205.4546,W,1,10,1.5,13,M,,M,,*6D
06/22/2015	14:04:29.599	$GPGGA,140430,2423.2079,N,08205.4543,W,1,10,1.5,13,M,,M,,*67
06/22/2015	14:04:30.541	$GPGGA,140431,2423.2068,N,08205.4541,W,1,10,1.5,13,M,,M,,*64
06/22/2015	14:04:31.549	$GPGGA,140432,2423.2057,N,08205.4534,W,1,10,1.5,13,M,,M,,*69
06/22/2015	14:04:32.541	$GPGGA,140433,2423.2047,N,08205.4528,W,1,10,1.5,13,M,,M,,*64
06/22/2015	14:04:33.569	$GPGGA,140434,2423.2036,N,08205.4526,W,1,10,1.5,13,M,,M,,*6B
06/22/2015	14:04:34.551	$GPGGA,140435,2423.2025,N,08205.4522,W,1,10,1.5,13,M,,M,,*6C
06/22/2015	14:04:35.569	$GPGGA,140436,2423.2014,N,08205.4516,W,1,10,1.5,13,M,,M,,*6A
06/22/2015	14:04:36.540	$GPGGA,140437,2423.2004,N,08205.4511,W,1,10,1.5,13,M,,M,,*6D
06/22/2015	14:04:37.548	$GPGGA,140438,2423.1993,N,08205.4507,W,1,10,1.5,13,M,,M,,*61
06/22/2015	14:04:38.639	$GPGGA,140439,2423.1983,N,08205.4503,W,1,10,1.5,13,M,,M,,*65
06/22/2015	14:04:39.569	$GPGGA,140440,2423.1973,N,08205.4498,W,1,10,1.6,13,M,,M,,*64
06/22/2015	14:04:40.529	$GPGGA,140441,2423.1962,N,08205.4492,W,1,10,1.6,13,M,,M,,*6F
06/22/2015	14:04:41.559	$GPGGA,140442,2423.1953,N,08205.4488,W,1,9,1.5,13,M,,M,,*5E
06/22/2015	14:04:42.529	$GPGGA,140443,2423.1943,N,08205.4483,W,1,9,1.5,13,M,,M,,*55
06/22/2015	14:04:43.559	$GPGGA,140444,2423.1935,N,08205.4479,W,1,10,1.5,13,M,,M,,*6E
06/22/2015	14:04:44.629	$GPGGA,140445,2423.1924,N,08205.4474,W,1,10,1.5,13,M,,M,,*62
06/22/2015	14:04:45.529	$GPGGA,140446,2423.1914,N,08205.4469,W,1,10,1.5,14,M,,M,,*69
06/22/2015	14:04:46.519	$GPGGA,140447,2423.1906,N,08205.4463,W,1,10,1.5,14,M,,M,,*61
06/22/2015	14:04:47.539	$GPGGA,140448,2423.1895,N,08205.4460,W,1,10,1.5,14,M,,M,,*66
06/22/2015	14:04:48.509	$GPGGA,140449,2423.1886,N,08205.4456,W,1,10,1.5,14,M,,M,,*60
06/22/2015	14:04:49.529	$GPGGA,140450,2423.1877,N,08205.4450,W,1,10,1.5,14,M,,M,,*60
06/22/2015	14:04:50.509	$GPGGA,140451,2423.1877,N,08205.4450,W,1,10,1.5,14,M,,M,,*61
06/22/2015	14:04:51.629	$GPGGA,140452,2423.1857,N,08205.4443,W,1,10,1.5,14,M,,M,,*62
06/22/2015	14:04:52.520	$GPGGA,140453,2423.1848,N,08205.4439,W,1,10,1.5,14,M,,M,,*60
06/22/2015	14:04:53.599	$GPGGA,140454,2423.1838,N,08205.4432,W,1,10,1.5,14,M,,M,,*6B
06/22/2015	14:04:54.509	$GPGGA,140455,2423.1830,N,08205.4428,W,1,10,1.5,14,M,,M,,*69
06/22/2015	14:04:55.599	$GPGGA,140456,2423.1820,N,08205.4425,W,1,10,1.5,14,M,,M,,*66
06/22/2015	14:04:56.519	$GPGGA,140457,2423.1810,N,08205.4419,W,1,10,1.5,14,M,,M,,*6B
06/22/2015	14:04:57.599	$GPGGA,140458,2423.1801,N,08205.4414,W,1,10,1.5,14,M,,M,,*69
06/22/2015	14:04:58.509	$GPGGA,140459,2423.1792,N,08205.4410,W,1,10,1.5,14,M,,M,,*69
06/22/2015	14:04:59.629	$GPGGA,140500,2423.1783,N,08205.4405,W,1,10,1.5,14,M,,M,,*60
06/22/2015	14:05:00.499	$GPGGA,140501,2423.1774,N,08205.4400,W,1,10,1.6,14,M,,M,,*6F
06/22/2015	14:05:01.589	$GPGGA,140502,2423.1765,N,08205.4397,W,1,9,1.6,14,M,,M,,*5D
06/22/2015	14:05:02.579	$GPGGA,140503,2423.1756,N,08205.4392,W,1,9,1.6,14,M,,M,,*59
06/22/2015	14:05:03.619	$GPGGA,140504,2423.1748,N,08205.4388,W,1,10,1.5,14,M,,M,,*61
06/22/2015	14:05:04.579	$GPGGA,140505,2423.1740,N,08205.4382,W,1,10,1.5,14,M,,M,,*62
06/22/2015	14:05:05.589	$GPGGA,140506,2423.1730,N,08205.4378,W,1,10,1.5,14,M,,M,,*63
06/22/2015	14:05:06.569	$GPGGA,140507,2423.1722,N,08205.4375,W,1,10,1.5,14,M,,M,,*6C
06/22/2015	14:05:07.569	$GPGGA,140508,2423.1714,N,08205.4370,W,1,10,1.5,14,M,,M,,*63
06/22/2015	14:05:08.569	$GPGGA,140509,2423.1705,N,08205.4363,W,1,10,1.5,14,M,,M,,*60
06/22/2015	14:05:09.579	$GPGGA,140510,2423.1697,N,08205.4359,W,1,10,1.5,14,M,,M,,*6B
06/22/2015	14:05:10.551	$GPGGA,140511,2423.1690,N,08205.4358,W,1,10,1.6,14,M,,M,,*6F
06/22/2015	14:05:11.589	$GPGGA,140512,2423.1683,N,08205.4352,W,1,10,1.5,14,M,,M,,*67
06/22/2015	14:05:12.558	$GPGGA,140513,2423.1678,N,08205.4346,W,1,10,1.5,14,M,,M,,*67
06/22/2015	14:05:13.569	$GPGGA,140514,2423.1671,N,08205.4343,W,1,10,1.5,14,M,,M,,*6C
06/22/2015	14:05:14.550	$GPGGA,140515,2423.1664,N,08205.4341,W,1,10,1.5,14,M,,M,,*6B
06/22/2015	14:05:15.589	$GPGGA,140516,2423.1657,N,08205.4336,W,1,10,1.5,14,M,,M,,*68
06/22/2015	14:05:16.550	$GPGGA,140517,2423.1651,N,08205.4331,W,1,10,1.5,14,M,,M,,*68
06/22/2015	14:05:17.552	$GPGGA,140518,2423.1646,N,08205.4328,W,1,10,1.5,14,M,,M,,*69
06/22/2015	14:05:18.554	$GPGGA,140519,2423.1646,N,08205.4328,W,1,10,1.5,14,M,,M,,*68
06/22/2015	14:05:19.579	$GPGGA,140520,2423.1633,N,08205.4320,W,1,10,1.5,14,M,,M,,*68
06/22/2015	14:05:20.539	$GPGGA,140521,2423.1628,N,08205.4317,W,1,10,1.5,14,M,,M,,*67
06/22/2015	14:05:21.569	$GPGGA,140522,2423.1621,N,08205.4311,W,1,10,1.5,14,M,,M,,*6B
06/22/2015	14:05:22.529	$GPGGA,140523,2423.1615,N,08205.4306,W,1,10,1.5,14,M,,M,,*6B
06/22/2015	14:05:23.541	$GPGGA,140524,2423.1610,N,08205.4303,W,1,10,1.5,14,M,,M,,*6C
06/22/2015	14:05:24.539	$GPGGA,140525,2423.1603,N,08205.4300,W,1,10,1.5,14,M,,M,,*6C
06/22/2015	14:05:25.541	$GPGGA,140526,2423.1597,N,08205.4295,W,1,10,1.5,14,M,,M,,*6C
06/22/2015	14:05:26.519	$GPGGA,140527,2423.1591,N,08205.4290,W,1,10,1.5,14,M,,M,,*6E
06/22/2015	14:05:27.540	$GPGGA,140528,2423.1584,N,08205.4286,W,1,10,1.5,14,M,,M,,*62
06/22/2015	14:05:28.529	$GPGGA,140529,2423.1577,N,08205.4284,W,1,10,1.5,14,M,,M,,*6D
06/22/2015	14:05:29.519	$GPGGA,140530,2423.1570,N,08205.4278,W,1,10,1.5,14,M,,M,,*61
06/22/2015	14:05:30.569	$GPGGA,140531,2423.1564,N,08205.4273,W,1,10,1.5,14,M,,M,,*6E
06/22/2015	14:05:31.540	$GPGGA,140532,2423.1557,N,08205.4270,W,1,10,1.5,14,M,,M,,*6E
06/22/2015	14:05:32.529	$GPGGA,140533,2423.1550,N,08205.4266,W,1,10,1.5,14,M,,M,,*6F
06/22/2015	14:05:33.555	$GPGGA,140534,2423.1544,N,08205.4261,W,1,10,1.5,14,M,,M,,*6A
06/22/2015	14:05:34.519	$GPGGA,140535,2423.1537,N,08205.4256,W,1,10,1.5,14,M,,M,,*6B
06/22/2015	14:05:35.653	$GPGGA,140536,2423.1530,N,08205.4253,W,1,10,1.5,14,M,,M,,*6A
06/22/2015	14:05:36.529	$GPGGA,140537,2423.1523,N,08205.4249,W,1,10,1.5,14,M,,M,,*62
06/22/2015	14:05:37.529	$GPGGA,140538,2423.1517,N,08205.4244,W,1,10,1.5,14,M,,M,,*67
06/22/2015	14:05:38.499	$GPGGA,140539,2423.1510,N,08205.4239,W,1,10,1.5,14,M,,M,,*6B
06/22/2015	14:05:39.520	$GPGGA,140540,2423.1503,N,08205.4235,W,1,10,1.5,14,M,,M,,*6B
06/22/2015	14:05:40.499	$GPGGA,140541,2423.1496,N,08205.4231,W,1,10,1.5,14,M,,M,,*63
06/22/2015	14:05:41.499	$GPGGA,140542,2423.1488,N,08205.4227,W,1,10,1.5,14,M,,M,,*68
06/22/2015	14:05:42.609	$GPGGA,140543,2423.1483,N,08205.4222,W,1,10,1.5,14,M,,M,,*67
06/22/2015	14:05:43.609	$GPGGA,140544,2423.1476,N,08205.4217,W,1,10,1.5,14,M,,M,,*6C
06/22/2015	14:05:44.489	$GPGGA,140545,2423.1469,N,08205.4214,W,1,10,1.5,14,M,,M,,*60
06/22/2015	14:05:45.489	$GPGGA,140546,2423.1461,N,08205.4209,W,1,10,1.5,14,M,,M,,*67
06/22/2015	14:05:46.589	$GPGGA,140547,2423.1454,N,08205.4204,W,1,10,1.5,14,M,,M,,*6D
06/22/2015	14:05:47.598	$GPGGA,140548,2423.1447,N,08205.4199,W,1,10,1.5,14,M,,M,,*67
06/22/2015	14:05:48.489	$GPGGA,140549,2423.1440,N,08205.4195,W,1,10,1.5,14,M,,M,,*6D
06/22/2015	14:05:49.589	$GPGGA,140550,2423.1433,N,08205.4190,W,1,10,1.5,14,M,,M,,*64
06/22/2015	14:05:50.599	$GPGGA,140551,2423.1425,N,08205.4186,W,1,10,1.5,14,M,,M,,*65
06/22/2015	14:05:51.589	$GPGGA,140552,2423.1419,N,08205.4181,W,1,10,1.5,14,M,,M,,*6E
06/22/2015	14:05:52.569	$GPGGA,140553,2423.1412,N,08205.4176,W,1,10,1.5,14,M,,M,,*6C
06/22/2015	14:05:53.599	$GPGGA,140554,2423.1404,N,08205.4172,W,1,10,1.5,14,M,,M,,*68
06/22/2015	14:05:54.579	$GPGGA,140555,2423.1397,N,08205.4168,W,1,10,1.5,14,M,,M,,*6F
06/22/2015	14:05:55.640	$GPGGA,140556,2423.1390,N,08205.4163,W,1,10,1.5,14,M,,M,,*60
06/22/2015	14:05:56.569	$GPGGA,140557,2423.1383,N,08205.4158,W,1,10,1.5,14,M,,M,,*6B
06/22/2015	14:05:57.589	$GPGGA,140558,2423.1375,N,08205.4154,W,1,10,1.5,14,M,,M,,*61
06/22/2015	14:05:58.569	$GPGGA,140559,2423.1368,N,08205.4149,W,1,10,1.5,14,M,,M,,*60
06/22/2015	14:05:59.599	$GPGGA,140600,2423.1360,N,08205.4144,W,1,10,1.5,14,M,,M,,*6A
06/22/2015	14:06:00.559	$GPGGA,140601,2423.1353,N,08205.4139,W,1,10,1.5,14,M,,M,,*61
06/22/2015	14:06:01.579	$GPGGA,140602,2423.1346,N,08205.4135,W,1,10,1.5,14,M,,M,,*6A
06/22/2015	14:06:02.559	$GPGGA,140603,2423.1337,N,08205.4131,W,1,10,1.5,14,M,,M,,*69
06/22/2015	14:06:03.579	$GPGGA,140604,2423.1329,N,08205.4125,W,1,10,1.5,14,M,,M,,*64
06/22/2015	14:06:04.551	$GPGGA,140605,2423.1322,N,08205.4120,W,1,10,1.5,14,M,,M,,*6B
06/22/2015	14:06:05.559	$GPGGA,140606,2423.1314,N,08205.4117,W,1,10,1.5,14,M,,M,,*69
06/22/2015	14:06:06.559	$GPGGA,140607,2423.1306,N,08205.4113,W,1,10,1.5,14,M,,M,,*6F
06/22/2015	14:06:07.579	$GPGGA,140608,2423.1299,N,08205.4107,W,1,10,1.5,14,M,,M,,*62
06/22/2015	14:06:08.949	$GPGGA,140609,2423.1292,N,08205.4102,W,1,10,1.5,14,M,,M,,*6D
06/22/2015	14:06:09.540	$GPGGA,140610,2423.1282,N,08205.4098,W,1,10,1.5,14,M,,M,,*66
06/22/2015	14:06:10.539	$GPGGA,140611,2423.1274,N,08205.4094,W,1,10,1.5,14,M,,M,,*62
06/22/2015	14:06:11.569	$GPGGA,140612,2423.1267,N,08205.4089,W,1,10,1.5,14,M,,M,,*6F
06/22/2015	14:06:12.529	$GPGGA,140613,2423.1259,N,08205.4085,W,1,10,1.5,14,M,,M,,*6F
06/22/2015	14:06:13.529	$GPGGA,140614,2423.1252,N,08205.4081,W,1,10,1.5,14,M,,M,,*67
06/22/2015	14:06:14.541	$GPGGA,140615,2423.1243,N,08205.4076,W,1,10,1.5,14,M,,M,,*6E
06/22/2015	14:06:15.539	$GPGGA,140616,2423.1234,N,08205.4071,W,1,10,1.5,14,M,,M,,*6A
06/22/2015	14:06:16.529	$GPGGA,140617,2423.1227,N,08205.4066,W,1,10,1.5,14,M,,M,,*6F
06/22/2015	14:06:17.519	$GPGGA,140618,2423.1218,N,08205.4062,W,1,10,1.5,13,M,,M,,*6F
06/22/2015	14:06:18.529	$GPGGA,140619,2423.1210,N,08205.4058,W,1,10,1.5,13,M,,M,,*6F
06/22/2015	14:06:19.542	$GPGGA,140620,2423.1201,N,08205.4054,W,1,10,1.5,13,M,,M,,*69
06/22/2015	14:06:20.519	$GPGGA,140621,2423.1194,N,08205.4049,W,1,10,1.5,13,M,,M,,*6B
06/22/2015	14:06:21.529	$GPGGA,140622,2423.1185,N,08205.4044,W,1,10,1.5,13,M,,M,,*65
06/22/2015	14:06:22.528	$GPGGA,140623,2423.1176,N,08205.4040,W,1,10,1.5,13,M,,M,,*6C
06/22/2015	14:06:23.539	$GPGGA,140624,2423.1169,N,08205.4035,W,1,10,1.5,13,M,,M,,*67
06/22/2015	14:06:24.509	$GPGGA,140625,2423.1159,N,08205.4032,W,1,10,1.5,13,M,,M,,*62
06/22/2015	14:06:25.529	$GPGGA,140626,2423.1151,N,08205.4028,W,1,10,1.5,13,M,,M,,*62
06/22/2015	14:06:26.509	$GPGGA,140627,2423.1143,N,08205.4021,W,1,10,1.5,13,M,,M,,*69
06/22/2015	14:06:27.542	$GPGGA,140628,2423.1134,N,08205.4017,W,1,10,1.5,13,M,,M,,*63
06/22/2015	14:06:28.599	$GPGGA,140629,2423.1126,N,08205.4015,W,1,10,1.5,13,M,,M,,*63
06/22/2015	14:06:29.489	$GPGGA,140630,2423.1118,N,08205.4010,W,1,10,1.5,13,M,,M,,*63
06/22/2015	14:06:30.529	$GPGGA,140631,2423.1111,N,08205.4004,W,1,10,1.5,13,M,,M,,*6E
06/22/2015	14:06:31.641	$GPGGA,140632,2423.1101,N,08205.4000,W,1,10,1.5,13,M,,M,,*68
06/22/2015	14:06:32.519	$GPGGA,140633,2423.1093,N,08205.3997,W,1,10,1.5,13,M,,M,,*63
06/22/2015	14:06:33.629	$GPGGA,140634,2423.1086,N,08205.3991,W,1,9,1.6,13,M,,M,,*5D
06/22/2015	14:06:34.499	$GPGGA,140635,2423.1077,N,08205.3987,W,1,9,1.6,13,M,,M,,*55
06/22/2015	14:06:35.599	$GPGGA,140636,2423.1069,N,08205.3983,W,1,10,1.5,13,M,,M,,*66
06/22/2015	14:06:36.499	$GPGGA,140637,2423.1060,N,08205.3979,W,1,10,1.5,13,M,,M,,*6B
06/22/2015	14:06:37.579	$GPGGA,140638,2423.1051,N,08205.3974,W,1,9,1.6,13,M,,M,,*50
06/22/2015	14:06:38.489	$GPGGA,140639,2423.1043,N,08205.3968,W,1,9,1.6,13,M,,M,,*5F
06/22/2015	14:06:39.599	$GPGGA,140640,2423.1035,N,08205.3966,W,1,9,1.6,13,M,,M,,*5E
06/22/2015	14:06:40.569	$GPGGA,140641,2423.1028,N,08205.3962,W,1,9,1.5,13,M,,M,,*54
06/22/2015	14:06:41.599	$GPGGA,140642,2423.1019,N,08205.3960,W,1,10,1.5,13,M,,M,,*6F
06/22/2015	14:06:42.579	$GPGGA,140643,2423.1012,N,08205.3957,W,1,10,1.5,13,M,,M,,*61
06/22/2015	14:06:43.589	$GPGGA,140644,2423.1004,N,08205.3953,W,1,10,1.5,13,M,,M,,*65
06/22/2015	14:06:44.569	$GPGGA,140645,2423.0995,N,08205.3948,W,1,10,1.5,13,M,,M,,*6E
06/22/2015	14:06:45.589	$GPGGA,140646,2423.0988,N,08205.3945,W,1,10,1.5,13,M,,M,,*6C
06/22/2015	14:06:46.559	$GPGGA,140647,2423.0978,N,08205.3941,W,1,10,1.5,13,M,,M,,*66
06/22/2015	14:06:47.599	$GPGGA,140648,2423.0970,N,08205.3935,W,1,9,1.6,13,M,,M,,*59
06/22/2015	14:06:48.569	$GPGGA,140649,2423.0963,N,08205.3930,W,1,9,1.5,13,M,,M,,*5C
06/22/2015	14:06:49.589	$GPGGA,140650,2423.0953,N,08205.3926,W,1,10,1.5,13,M,,M,,*68
06/22/2015	14:06:50.557	$GPGGA,140651,2423.0945,N,08205.3923,W,1,10,1.5,13,M,,M,,*6B
06/22/2015	14:06:51.589	$GPGGA,140652,2423.0936,N,08205.3919,W,1,10,1.5,13,M,,M,,*65
06/22/2015	14:06:52.559	$GPGGA,140653,2423.0928,N,08205.3914,W,1,10,1.5,14,M,,M,,*61
06/22/2015	14:06:53.569	$GPGGA,140654,2423.0919,N,08205.3908,W,1,10,1.5,14,M,,M,,*69
06/22/2015	14:06:54.554	$GPGGA,140655,2423.0910,N,08205.3904,W,1,10,1.5,14,M,,M,,*6D
06/22/2015	14:06:55.599	$GPGGA,140656,2423.0902,N,08205.3901,W,1,10,1.5,14,M,,M,,*68
06/22/2015	14:06:56.542	$GPGGA,140657,2423.0894,N,08205.3898,W,1,10,1.6,14,M,,M,,*65
06/22/2015	14:06:57.579	$GPGGA,140658,2423.0887,N,08205.3892,W,1,10,1.5,14,M,,M,,*61
06/22/2015	14:06:58.540	$GPGGA,140659,2423.0878,N,08205.3886,W,1,10,1.5,14,M,,M,,*65
06/22/2015	14:06:59.579	$GPGGA,140700,2423.0870,N,08205.3883,W,1,10,1.5,14,M,,M,,*65
06/22/2015	14:07:00.545	$GPGGA,140701,2423.0862,N,08205.3880,W,1,10,1.5,14,M,,M,,*64
06/22/2015	14:07:01.529	$GPGGA,140702,2423.0854,N,08205.3875,W,1,10,1.5,14,M,,M,,*68
06/22/2015	14:07:02.539	$GPGGA,140703,2423.0846,N,08205.3869,W,1,10,1.5,14,M,,M,,*67
06/22/2015	14:07:03.579	$GPGGA,140704,2423.0838,N,08205.3866,W,1,10,1.5,14,M,,M,,*66
06/22/2015	14:07:04.540	$GPGGA,140705,2423.0829,N,08205.3863,W,1,10,1.5,14,M,,M,,*62
06/22/2015	14:07:05.529	$GPGGA,140706,2423.0822,N,08205.3858,W,1,10,1.5,14,M,,M,,*62
06/22/2015	14:07:06.542	$GPGGA,140707,2423.0813,N,08205.3853,W,1,10,1.5,14,M,,M,,*6A
06/22/2015	14:07:07.529	$GPGGA,140708,2423.0806,N,08205.3850,W,1,10,1.5,14,M,,M,,*62
06/22/2015	14:07:08.529	$GPGGA,140709,2423.0798,N,08205.3846,W,1,10,1.5,14,M,,M,,*6C
06/22/2015	14:07:09.529	$GPGGA,140710,2423.0790,N,08205.3842,W,1,10,1.5,14,M,,M,,*68
06/22/2015	14:07:10.509	$GPGGA,140711,2423.0781,N,08205.3838,W,1,10,1.5,14,M,,M,,*64
06/22/2015	14:07:11.529	$GPGGA,140712,2423.0775,N,08205.3833,W,1,10,1.5,14,M,,M,,*67
06/22/2015	14:07:12.529	$GPGGA,140713,2423.0765,N,08205.3828,W,1,10,1.5,14,M,,M,,*6D
06/22/2015	14:07:13.529	$GPGGA,140714,2423.0757,N,08205.3825,W,1,10,1.5,14,M,,M,,*66
06/22/2015	14:07:14.509	$GPGGA,140715,2423.0748,N,08205.3822,W,1,10,1.5,14,M,,M,,*6E
06/22/2015	14:07:15.509	$GPGGA,140716,2423.0740,N,08205.3817,W,1,10,1.5,14,M,,M,,*63
06/22/2015	14:07:16.509	$GPGGA,140717,2423.0732,N,08205.3813,W,1,10,1.5,14,M,,M,,*63
06/22/2015	14:07:17.629	$GPGGA,140718,2423.0723,N,08205.3809,W,1,10,1.5,15,M,,M,,*66
06/22/2015	14:07:18.509	$GPGGA,140719,2423.0714,N,08205.3805,W,1,10,1.5,15,M,,M,,*6F
06/22/2015	14:07:19.519	$GPGGA,140720,2423.0705,N,08205.3802,W,1,10,1.5,15,M,,M,,*62
06/22/2015	14:07:20.599	$GPGGA,140721,2423.0696,N,08205.3798,W,1,10,1.5,15,M,,M,,*64
06/22/2015	14:07:21.489	$GPGGA,140722,2423.0687,N,08205.3794,W,1,9,1.6,15,M,,M,,*50
06/22/2015	14:07:22.652	$GPGGA,140723,2423.0678,N,08205.3790,W,1,9,1.5,15,M,,M,,*56
06/22/2015	14:07:23.669	$GPGGA,140724,2423.0669,N,08205.3787,W,1,10,1.5,14,M,,M,,*6E
06/22/2015	14:07:24.589	$GPGGA,140725,2423.0660,N,08205.3783,W,1,10,1.5,14,M,,M,,*62
06/22/2015	14:07:25.659	$GPGGA,140726,2423.0652,N,08205.3780,W,1,10,1.5,14,M,,M,,*63
06/22/2015	14:07:26.659	$GPGGA,140727,2423.0643,N,08205.3775,W,1,10,1.5,14,M,,M,,*68
06/22/2015	14:07:27.659	$GPGGA,140728,2423.0634,N,08205.3771,W,1,10,1.5,14,M,,M,,*63
06/22/2015	14:07:28.659	$GPGGA,140729,2423.0627,N,08205.3768,W,1,10,1.5,14,M,,M,,*68
06/22/2015	14:07:29.619	$GPGGA,140730,2423.0617,N,08205.3765,W,1,10,1.5,14,M,,M,,*6E
06/22/2015	14:07:30.579	$GPGGA,140731,2423.0609,N,08205.3759,W,1,10,1.5,14,M,,M,,*6F
06/22/2015	14:07:31.669	$GPGGA,140732,2423.0600,N,08205.3755,W,1,10,1.5,14,M,,M,,*69
06/22/2015	14:07:32.569	$GPGGA,140733,2423.0591,N,08205.3752,W,1,10,1.5,14,M,,M,,*64
06/22/2015	14:07:33.609	$GPGGA,140734,2423.0582,N,08205.3748,W,1,10,1.5,14,M,,M,,*6A
06/22/2015	14:07:34.629	$GPGGA,140735,2423.0575,N,08205.3745,W,1,10,1.5,14,M,,M,,*6E
06/22/2015	14:07:35.650	$GPGGA,140736,2423.0566,N,08205.3741,W,1,10,1.5,14,M,,M,,*6B
06/22/2015	14:07:36.559	$GPGGA,140737,2423.0557,N,08205.3736,W,1,10,1.5,14,M,,M,,*68
06/22/2015	14:07:37.599	$GPGGA,140738,2423.0548,N,08205.3734,W,1,10,1.5,14,M,,M,,*6B
06/22/2015	14:07:38.559	$GPGGA,140739,2423.0540,N,08205.3730,W,1,10,1.5,14,M,,M,,*66
06/22/2015	14:07:39.659	$GPGGA,140740,2423.0531,N,08205.3725,W,1,10,1.5,14,M,,M,,*6A
06/22/2015	14:07:40.619	$GPGGA,140741,2423.0523,N,08205.3722,W,1,10,1.5,14,M,,M,,*6F
06/22/2015	14:07:41.609	$GPGGA,140742,2423.0515,N,08205.3719,W,1,10,1.5,14,M,,M,,*61
06/22/2015	14:07:42.549	$GPGGA,140743,2423.0505,N,08205.3714,W,1,10,1.5,14,M,,M,,*6C
06/22/2015	14:07:43.669	$GPGGA,140744,2423.0497,N,08205.3709,W,1,10,1.5,14,M,,M,,*6D
06/22/2015	14:07:44.549	$GPGGA,140745,2423.0487,N,08205.3706,W,1,10,1.5,14,M,,M,,*62
06/22/2015	14:07:45.640	$GPGGA,140746,2423.0477,N,08205.3703,W,1,9,1.5,14,M,,M,,*53
06/22/2015	14:07:46.541	$GPGGA,140747,2423.0468,N,08205.3697,W,1,9,1.5,14,M,,M,,*50
06/22/2015	14:07:47.599	$GPGGA,140748,2423.0459,N,08205.3694,W,1,10,1.5,14,M,,M,,*66
06/22/2015	14:07:48.599	$GPGGA,140749,2423.0450,N,08205.3691,W,1,10,1.5,14,M,,M,,*6B
06/22/2015	14:07:49.529	$GPGGA,140750,2423.0441,N,08205.3686,W,1,9,1.6,14,M,,M,,*5E
06/22/2015	14:07:50.599	$GPGGA,140751,2423.0432,N,08205.3682,W,1,9,1.5,14,M,,M,,*5C
06/22/2015	14:07:51.599	$GPGGA,140752,2423.0423,N,08205.3680,W,1,10,1.5,14,M,,M,,*65
06/22/2015	14:07:52.589	$GPGGA,140753,2423.0415,N,08205.3675,W,1,10,1.5,14,M,,M,,*6B
06/22/2015	14:07:53.559	$GPGGA,140754,2423.0406,N,08205.3670,W,1,10,1.5,14,M,,M,,*6B
06/22/2015	14:07:54.529	$GPGGA,140755,2423.0398,N,08205.3667,W,1,10,1.5,14,M,,M,,*6C
06/22/2015	14:07:55.589	$GPGGA,140756,2423.0390,N,08205.3664,W,1,10,1.5,14,M,,M,,*64
06/22/2015	14:07:56.589	$GPGGA,140757,2423.0382,N,08205.3658,W,1,10,1.5,14,M,,M,,*69
06/22/2015	14:07:57.579	$GPGGA,140758,2423.0374,N,08205.3654,W,1,10,1.5,14,M,,M,,*63
06/22/2015	14:07:58.589	$GPGGA,140759,2423.0364,N,08205.3653,W,1,10,1.5,14,M,,M,,*64
06/22/2015	14:07:59.599	$GPGGA,140800,2423.0357,N,08205.3648,W,1,10,1.5,14,M,,M,,*6D
06/22/2015	14:08:00.629	$GPGGA,140801,2423.0349,N,08205.3643,W,1,10,1.5,14,M,,M,,*68
06/22/2015	14:08:01.558	$GPGGA,140802,2423.0339,N,08205.3640,W,1,10,1.5,14,M,,M,,*6F
06/22/2015	14:08:02.579	$GPGGA,140803,2423.0331,N,08205.3637,W,1,10,1.5,14,M,,M,,*66
06/22/2015	14:08:03.659	$GPGGA,140804,2423.0322,N,08205.3632,W,1,10,1.5,14,M,,M,,*66
06/22/2015	14:08:04.579	$GPGGA,140805,2423.0314,N,08205.3628,W,1,10,1.5,14,M,,M,,*69
06/22/2015	14:08:05.499	$GPGGA,140806,2423.0306,N,08205.3625,W,1,10,1.5,14,M,,M,,*64
06/22/2015	14:08:06.499	$GPGGA,140807,2423.0298,N,08205.3621,W,1,10,1.5,14,M,,M,,*67
06/22/2015	14:08:07.669	$GPGGA,140808,2423.0289,N,08205.3617,W,1,10,1.5,14,M,,M,,*6D
06/22/2015	14:08:08.569	$GPGGA,140809,2423.0281,N,08205.3612,W,1,10,1.5,14,M,,M,,*61
06/22/2015	14:08:09.619	$GPGGA,140810,2423.0273,N,08205.3609,W,1,10,1.5,14,M,,M,,*6E
06/22/2015	14:08:10.559	$GPGGA,140811,2423.0263,N,08205.3604,W,1,10,1.5,14,M,,M,,*63
06/22/2015	14:08:11.619	$GPGGA,140812,2423.0255,N,08205.3599,W,1,10,1.5,14,M,,M,,*62
06/22/2015	14:08:12.589	$GPGGA,140813,2423.0247,N,08205.3595,W,1,10,1.5,14,M,,M,,*6C
06/22/2015	14:08:13.589	$GPGGA,140814,2423.0239,N,08205.3592,W,1,10,1.5,14,M,,M,,*65
06/22/2015	14:08:14.589	$GPGGA,140815,2423.0230,N,08205.3587,W,1,10,1.5,14,M,,M,,*69
06/22/2015	14:08:15.619	$GPGGA,140816,2423.0222,N,08205.3582,W,1,10,1.5,14,M,,M,,*6C
06/22/2015	14:08:16.589	$GPGGA,140817,2423.0215,N,08205.3579,W,1,10,1.5,14,M,,M,,*6D
06/22/2015	14:08:17.609	$GPGGA,140818,2423.0206,N,08205.3575,W,1,10,1.5,14,M,,M,,*6C
06/22/2015	14:08:18.579	$GPGGA,140819,2423.0197,N,08205.3570,W,1,10,1.5,14,M,,M,,*63
06/22/2015	14:08:19.619	$GPGGA,140820,2423.0188,N,08205.3566,W,1,10,1.6,14,M,,M,,*63
06/22/2015	14:08:20.569	$GPGGA,140821,2423.0181,N,08205.3563,W,1,10,1.5,14,M,,M,,*6D
06/22/2015	14:08:21.589	$GPGGA,140822,2423.0173,N,08205.3559,W,1,10,1.5,14,M,,M,,*6A
06/22/2015	14:08:22.589	$GPGGA,140823,2423.0165,N,08205.3556,W,1,10,1.5,14,M,,M,,*63
06/22/2015	14:08:23.589	$GPGGA,140824,2423.0157,N,08205.3552,W,1,10,1.6,14,M,,M,,*62
06/22/2015	14:08:24.569	$GPGGA,140825,2423.0150,N,08205.3549,W,1,10,1.5,14,M,,M,,*6D
06/22/2015	14:08:25.589	$GPGGA,140826,2423.0141,N,08205.3545,W,1,10,1.6,14,M,,M,,*61
06/22/2015	14:08:26.559	$GPGGA,140827,2423.0134,N,08205.3542,W,1,10,1.5,14,M,,M,,*66
06/22/2015	14:08:27.589	$GPGGA,140828,2423.0126,N,08205.3538,W,1,10,1.6,14,M,,M,,*64
06/22/2015	14:08:28.559	$GPGGA,140829,2423.0118,N,08205.3534,W,1,10,1.5,14,M,,M,,*67
06/22/2015	14:08:29.579	$GPGGA,140830,2423.0111,N,08205.3530,W,1,10,1.5,14,M,,M,,*62
06/22/2015	14:08:30.549	$GPGGA,140831,2423.0103,N,08205.3527,W,1,10,1.5,14,M,,M,,*66
06/22/2015	14:08:31.589	$GPGGA,140832,2423.0096,N,08205.3523,W,1,10,1.5,14,M,,M,,*6C
06/22/2015	14:08:32.555	$GPGGA,140833,2423.0096,N,08205.3523,W,1,10,1.5,14,M,,M,,*6D
06/22/2015	14:08:33.569	$GPGGA,140834,2423.0081,N,08205.3515,W,1,10,1.5,14,M,,M,,*69
06/22/2015	14:08:34.559	$GPGGA,140835,2423.0074,N,08205.3513,W,1,10,1.5,14,M,,M,,*64
06/22/2015	14:08:35.599	$GPGGA,140836,2423.0065,N,08205.3508,W,1,10,1.5,14,M,,M,,*6D
06/22/2015	14:08:36.559	$GPGGA,140837,2423.0058,N,08205.3504,W,1,10,1.5,14,M,,M,,*6E
06/22/2015	14:08:37.559	$GPGGA,140838,2423.0051,N,08205.3500,W,1,10,1.5,14,M,,M,,*6C
06/22/2015	14:08:38.559	$GPGGA,140839,2423.0044,N,08205.3499,W,1,10,1.5,14,M,,M,,*68
06/22/2015	14:08:39.550	$GPGGA,140840,2423.0036,N,08205.3495,W,1,10,1.5,14,M,,M,,*6F
06/22/2015	14:08:40.559	$GPGGA,140841,2423.0031,N,08205.3490,W,1,10,1.5,14,M,,M,,*6C
06/22/2015	14:08:42.036	$GPGGA,140842,2423.0023,N,08205.3487,W,1,10,1.5,14,M,,M,,*6A
06/22/2015	14:08:42.569	$GPGGA,140843,2423.0016,N,08205.3485,W,1,10,1.6,14,M,,M,,*6C
06/22/2015	14:08:43.549	$GPGGA,140844,2423.0009,N,08205.3481,W,1,9,1.6,14,M,,M,,*59
06/22/2015	14:08:44.569	$GPGGA,140845,2423.0002,N,08205.3476,W,1,9,1.5,14,M,,M,,*58
06/22/2015	14:08:45.529	$GPGGA,140846,2422.9996,N,08205.3473,W,1,10,1.5,14,M,,M,,*6A
06/22/2015	14:08:46.529	$GPGGA,140847,2422.9996,N,08205.3473,W,1,10,1.5,14,M,,M,,*6B
06/22/2015	14:08:47.579	$GPGGA,140848,2422.9982,N,08205.3466,W,1,10,1.5,14,M,,M,,*65
06/22/2015	14:08:48.552	$GPGGA,140849,2422.9982,N,08205.3466,W,1,10,1.5,14,M,,M,,*64
06/22/2015	14:08:49.519	$GPGGA,140850,2422.9969,N,08205.3460,W,1,10,1.5,14,M,,M,,*6F
06/22/2015	14:08:50.549	$GPGGA,140851,2422.9969,N,08205.3460,W,1,10,1.5,14,M,,M,,*6E
06/22/2015	14:08:51.629	$GPGGA,140852,2422.9956,N,08205.3453,W,1,10,1.5,14,M,,M,,*61
06/22/2015	14:08:52.559	$GPGGA,140853,2422.9949,N,08205.3450,W,1,10,1.6,14,M,,M,,*6E
06/22/2015	14:08:53.529	$GPGGA,140854,2422.9941,N,08205.3446,W,1,9,1.6,14,M,,M,,*5E
06/22/2015	14:08:54.619	$GPGGA,140855,2422.9934,N,08205.3444,W,1,9,1.5,14,M,,M,,*5C
06/22/2015	14:08:55.629	$GPGGA,140856,2422.9928,N,08205.3441,W,1,9,1.6,14,M,,M,,*54
06/22/2015	14:08:56.609	$GPGGA,140857,2422.9921,N,08205.3437,W,1,9,1.6,14,M,,M,,*5D
06/22/2015	14:08:57.599	$GPGGA,140858,2422.9915,N,08205.3434,W,1,10,1.5,14,M,,M,,*6D
06/22/2015	14:08:58.599	$GPGGA,140859,2422.9908,N,08205.3432,W,1,10,1.5,14,M,,M,,*66
06/22/2015	14:08:59.529	$GPGGA,140900,2422.9901,N,08205.3428,W,1,10,1.5,14,M,,M,,*69
06/22/2015	14:09:00.499	$GPGGA,140901,2422.9901,N,08205.3428,W,1,10,1.6,14,M,,M,,*6B
06/22/2015	14:09:01.599	$GPGGA,140902,2422.9888,N,08205.3423,W,1,10,1.5,14,M,,M,,*60
06/22/2015	14:09:02.599	$GPGGA,140903,2422.9881,N,08205.3419,W,1,10,1.5,14,M,,M,,*61
06/22/2015	14:09:03.609	$GPGGA,140904,2422.9875,N,08205.3415,W,1,10,1.5,14,M,,M,,*61
06/22/2015	14:09:04.599	$GPGGA,140905,2422.9875,N,08205.3415,W,1,10,1.5,14,M,,M,,*60
06/22/2015	14:09:05.579	$GPGGA,140906,2422.9862,N,08205.3410,W,1,9,1.6,14,M,,M,,*5B
06/22/2015	14:09:06.589	$GPGGA,140907,2422.9856,N,08205.3406,W,1,9,1.5,14,M,,M,,*59
06/22/2015	14:09:07.629	$GPGGA,140908,2422.9850,N,08205.3402,W,1,10,1.5,14,M,,M,,*6C
06/22/2015	14:09:08.589	$GPGGA,140909,2422.9843,N,08205.3400,W,1,10,1.5,14,M,,M,,*6D
06/22/2015	14:09:09.569	$GPGGA,140910,2422.9837,N,08205.3396,W,1,9,1.6,14,M,,M,,*55
06/22/2015	14:09:10.569	$GPGGA,140911,2422.9830,N,08205.3393,W,1,9,1.6,14,M,,M,,*56
06/22/2015	14:09:11.569	$GPGGA,140912,2422.9825,N,08205.3390,W,1,9,1.6,14,M,,M,,*52
06/22/2015	14:09:12.569	$GPGGA,140913,2422.9818,N,08205.3386,W,1,9,1.5,14,M,,M,,*59
06/22/2015	14:09:13.579	$GPGGA,140914,2422.9811,N,08205.3382,W,1,10,1.5,14,M,,M,,*6B
06/22/2015	14:09:14.559	$GPGGA,140915,2422.9805,N,08205.3379,W,1,10,1.5,14,M,,M,,*6B
06/22/2015	14:09:15.589	$GPGGA,140916,2422.9799,N,08205.3377,W,1,10,1.5,14,M,,M,,*6C
06/22/2015	14:09:16.559	$GPGGA,140917,2422.9792,N,08205.3372,W,1,10,1.5,14,M,,M,,*63
06/22/2015	14:09:17.568	$GPGGA,140918,2422.9786,N,08205.3369,W,1,10,1.5,14,M,,M,,*63
06/22/2015	14:09:18.558	$GPGGA,140919,2422.9780,N,08205.3367,W,1,10,1.5,14,M,,M,,*6A
06/22/2015	14:09:19.588	$GPGGA,140920,2422.9774,N,08205.3363,W,1,10,1.5,14,M,,M,,*6F
06/22/2015	14:09:20.558	$GPGGA,140921,2422.9768,N,08205.3359,W,1,10,1.5,14,M,,M,,*6A
06/22/2015	14:09:21.543	$GPGGA,140922,2422.9761,N,08205.3358,W,1,10,1.5,14,M,,M,,*61
06/22/2015	14:09:22.548	$GPGGA,140923,2422.9755,N,08205.3354,W,1,10,1.5,14,M,,M,,*6B
06/22/2015	14:09:23.568	$GPGGA,140924,2422.9749,N,08205.3349,W,1,10,1.5,14,M,,M,,*6D
06/22/2015	14:09:24.548	$GPGGA,140925,2422.9743,N,08205.3346,W,1,10,1.5,14,M,,M,,*69
06/22/2015	14:09:25.568	$GPGGA,140926,2422.9738,N,08205.3344,W,1,10,1.5,14,M,,M,,*64
06/22/2015	14:09:26.548	$GPGGA,140927,2422.9731,N,08205.3340,W,1,10,1.5,14,M,,M,,*68
06/22/2015	14:09:27.568	$GPGGA,140928,2422.9724,N,08205.3336,W,1,10,1.5,14,M,,M,,*62
06/22/2015	14:09:28.543	$GPGGA,140929,2422.9718,N,08205.3334,W,1,10,1.5,14,M,,M,,*6E
06/22/2015	14:09:29.519	$GPGGA,140930,2422.9713,N,08205.3331,W,1,10,1.5,14,M,,M,,*68
06/22/2015	14:09:30.540	$GPGGA,140931,2422.9706,N,08205.3327,W,1,10,1.5,14,M,,M,,*6A
06/22/2015	14:09:31.549	$GPGGA,140932,2422.9699,N,08205.3324,W,1,10,1.5,14,M,,M,,*6D
06/22/2015	14:09:32.529	$GPGGA,140933,2422.9693,N,08205.3323,W,1,10,1.5,14,M,,M,,*61
06/22/2015	14:09:33.529	$GPGGA,140934,2422.9686,N,08205.3318,W,1,9,2.1,14,M,,M,,*55
06/22/2015	14:09:34.509	$GPGGA,140935,2422.9679,N,08205.3314,W,1,9,1.5,14,M,,M,,*5F
06/22/2015	14:09:35.541	$GPGGA,140936,2422.9673,N,08205.3311,W,1,10,1.5,14,M,,M,,*6B
06/22/2015	14:09:36.508	$GPGGA,140937,2422.9666,N,08205.3308,W,1,10,1.5,14,M,,M,,*66
06/22/2015	14:09:37.508	$GPGGA,140938,2422.9659,N,08205.3304,W,1,10,1.5,14,M,,M,,*69
06/22/2015	14:09:38.498	$GPGGA,140939,2422.9651,N,08205.3301,W,1,10,1.5,14,M,,M,,*65
06/22/2015	14:09:39.528	$GPGGA,140940,2422.9645,N,08205.3296,W,1,10,1.5,14,M,,M,,*61
06/22/2015	14:09:40.919	$GPGGA,140941,2422.9638,N,08205.3294,W,1,10,1.5,14,M,,M,,*68
06/22/2015	14:09:41.630	$GPGGA,140942,2422.9631,N,08205.3292,W,1,10,1.5,14,M,,M,,*64
06/22/2015	14:09:42.518	$GPGGA,140943,2422.9624,N,08205.3287,W,1,10,1.5,14,M,,M,,*65
06/22/2015	14:09:43.538	$GPGGA,140944,2422.9619,N,08205.3283,W,1,10,1.5,14,M,,M,,*68
06/22/2015	14:09:44.598	$GPGGA,140945,2422.9612,N,08205.3281,W,1,10,1.5,14,M,,M,,*60
06/22/2015	14:09:45.589	$GPGGA,140946,2422.9604,N,08205.3280,W,1,10,1.5,14,M,,M,,*65
06/22/2015	14:09:46.509	$GPGGA,140947,2422.9598,N,08205.3275,W,1,10,1.5,15,M,,M,,*69
06/22/2015	14:09:47.609	$GPGGA,140948,2422.9591,N,08205.3270,W,1,10,1.5,15,M,,M,,*6A
06/22/2015	14:09:48.499	$GPGGA,140949,2422.9585,N,08205.3269,W,1,10,1.5,15,M,,M,,*66
06/22/2015	14:09:49.579	$GPGGA,140950,2422.9579,N,08205.3267,W,1,10,1.5,15,M,,M,,*63
06/22/2015	14:09:50.589	$GPGGA,140951,2422.9572,N,08205.3262,W,1,10,1.5,15,M,,M,,*6C
06/22/2015	14:09:51.599	$GPGGA,140952,2422.9565,N,08205.3259,W,1,10,1.5,15,M,,M,,*61
06/22/2015	14:09:52.499	$GPGGA,140953,2422.9559,N,08205.3256,W,1,10,1.5,15,M,,M,,*60
06/22/2015	14:09:53.598	$GPGGA,140954,2422.9552,N,08205.3252,W,1,10,1.5,15,M,,M,,*68
06/22/2015	14:09:54.578	$GPGGA,140955,2422.9547,N,08205.3250,W,1,10,1.5,15,M,,M,,*6F
06/22/2015	14:09:55.608	$GPGGA,140956,2422.9540,N,08205.3247,W,1,10,1.5,15,M,,M,,*6D
06/22/2015	14:09:56.578	$GPGGA,140957,2422.9533,N,08205.3243,W,1,10,1.5,15,M,,M,,*6C
06/22/2015	14:09:57.578	$GPGGA,140958,2422.9527,N,08205.3239,W,1,10,1.5,15,M,,M,,*6B
06/22/2015	14:09:58.578	$GPGGA,140959,2422.9520,N,08205.3237,W,1,10,1.5,15,M,,M,,*63
06/22/2015	14:09:59.631	$GPGGA,141000,2422.9514,N,08205.3235,W,1,10,1.5,15,M,,M,,*62
06/22/2015	14:10:00.568	$GPGGA,141001,2422.9507,N,08205.3231,W,1,10,1.5,15,M,,M,,*65
06/22/2015	14:10:01.588	$GPGGA,141002,2422.9501,N,08205.3228,W,1,10,1.5,15,M,,M,,*68
06/22/2015	14:10:02.558	$GPGGA,141003,2422.9496,N,08205.3224,W,1,10,1.5,14,M,,M,,*6B
06/22/2015	14:10:03.589	$GPGGA,141004,2422.9489,N,08205.3222,W,1,10,1.5,14,M,,M,,*64
06/22/2015	14:10:04.559	$GPGGA,141005,2422.9482,N,08205.3220,W,1,10,1.5,14,M,,M,,*6C
06/22/2015	14:10:05.549	$GPGGA,141006,2422.9475,N,08205.3216,W,1,10,1.5,14,M,,M,,*62
06/22/2015	14:10:06.559	$GPGGA,141007,2422.9468,N,08205.3212,W,1,10,1.5,14,M,,M,,*6B
06/22/2015	14:10:07.589	$GPGGA,141008,2422.9462,N,08205.3210,W,1,10,1.5,14,M,,M,,*6C
06/22/2015	14:10:08.549	$GPGGA,141009,2422.9456,N,08205.3208,W,1,10,1.5,14,M,,M,,*63
06/22/2015	14:10:09.539	$GPGGA,141010,2422.9450,N,08205.3204,W,1,10,1.5,14,M,,M,,*61
06/22/2015	14:10:10.548	$GPGGA,141011,2422.9443,N,08205.3200,W,1,10,1.5,14,M,,M,,*66
06/22/2015	14:10:11.588	$GPGGA,141012,2422.9437,N,08205.3198,W,1,10,1.5,14,M,,M,,*64
06/22/2015	14:10:12.540	$GPGGA,141013,2422.9431,N,08205.3195,W,1,10,1.5,14,M,,M,,*6E
06/22/2015	14:10:13.548	$GPGGA,141014,2422.9424,N,08205.3192,W,1,10,1.5,14,M,,M,,*6A
06/22/2015	14:10:14.538	$GPGGA,141015,2422.9417,N,08205.3189,W,1,10,1.5,14,M,,M,,*61
06/22/2015	14:10:15.540	$GPGGA,141016,2422.9411,N,08205.3186,W,1,10,1.5,14,M,,M,,*6B
06/22/2015	14:10:16.548	$GPGGA,141017,2422.9404,N,08205.3184,W,1,10,1.5,14,M,,M,,*6C
06/22/2015	14:10:17.530	$GPGGA,141018,2422.9397,N,08205.3181,W,1,10,1.5,13,M,,M,,*6C
06/22/2015	14:10:18.538	$GPGGA,141019,2422.9390,N,08205.3177,W,1,10,1.6,13,M,,M,,*60
06/22/2015	14:10:19.558	$GPGGA,141020,2422.9385,N,08205.3175,W,1,10,1.5,13,M,,M,,*6F
06/22/2015	14:10:20.519	$GPGGA,141021,2422.9378,N,08205.3173,W,1,10,1.5,13,M,,M,,*6A
06/22/2015	14:10:21.519	$GPGGA,141022,2422.9371,N,08205.3170,W,1,9,1.6,13,M,,M,,*58
06/22/2015	14:10:22.533	$GPGGA,141023,2422.9364,N,08205.3167,W,1,9,1.6,13,M,,M,,*5B
06/22/2015	14:10:23.539	$GPGGA,141024,2422.9357,N,08205.3165,W,1,9,1.6,13,M,,M,,*5E
06/22/2015	14:10:24.519	$GPGGA,141025,2422.9350,N,08205.3161,W,1,9,1.6,13,M,,M,,*5C
06/22/2015	14:10:25.530	$GPGGA,141026,2422.9344,N,08205.3158,W,1,9,1.6,13,M,,M,,*50
06/22/2015	14:10:26.519	$GPGGA,141027,2422.9337,N,08205.3156,W,1,9,1.6,13,M,,M,,*5B
06/22/2015	14:10:27.518	$GPGGA,141028,2422.9331,N,08205.3153,W,1,9,1.6,13,M,,M,,*57
06/22/2015	14:10:28.508	$GPGGA,141029,2422.9324,N,08205.3149,W,1,9,1.5,13,M,,M,,*5A
06/22/2015	14:10:29.518	$GPGGA,141030,2422.9316,N,08205.3146,W,1,9,1.6,12,M,,M,,*5E
06/22/2015	14:10:30.508	$GPGGA,141031,2422.9310,N,08205.3145,W,1,9,1.5,12,M,,M,,*59
06/22/2015	14:10:31.630	$GPGGA,141032,2422.9303,N,08205.3143,W,1,9,1.6,12,M,,M,,*5D
06/22/2015	14:10:32.498	$GPGGA,141033,2422.9296,N,08205.3139,W,1,9,1.5,12,M,,M,,*5F
06/22/2015	14:10:33.518	$GPGGA,141034,2422.9290,N,08205.3135,W,1,9,1.6,12,M,,M,,*51
06/22/2015	14:10:34.508	$GPGGA,141035,2422.9283,N,08205.3133,W,1,9,1.6,12,M,,M,,*54
06/22/2015	14:10:36.078	$GPGGA,141036,2422.9276,N,08205.3131,W,1,9,1.6,12,M,,M,,*5F
06/22/2015	14:10:36.608	$GPGGA,141037,2422.9270,N,08205.3128,W,1,9,1.6,12,M,,M,,*50
06/22/2015	14:10:37.618	$GPGGA,141038,2422.9263,N,08205.3125,W,1,10,1.5,12,M,,M,,*6B
06/22/2015	14:10:38.499	$GPGGA,141039,2422.9256,N,08205.3121,W,1,10,1.6,12,M,,M,,*6B
06/22/2015	14:10:39.819	$GPGGA,141040,2422.9250,N,08205.3119,W,1,9,1.6,12,M,,M,,*50
06/22/2015	14:10:40.589	$GPGGA,141041,2422.9243,N,08205.3117,W,1,9,1.6,11,M,,M,,*5E
06/22/2015	14:10:41.489	$GPGGA,141042,2422.9237,N,08205.3114,W,1,9,1.6,11,M,,M,,*5D
06/22/2015	14:10:42.579	$GPGGA,141043,2422.9230,N,08205.3111,W,1,9,1.5,11,M,,M,,*5D
06/22/2015	14:10:43.609	$GPGGA,141044,2422.9223,N,08205.3107,W,1,9,1.6,11,M,,M,,*5C
06/22/2015	14:10:44.569	$GPGGA,141045,2422.9218,N,08205.3105,W,1,9,1.6,11,M,,M,,*57
06/22/2015	14:10:45.588	$GPGGA,141046,2422.9211,N,08205.3102,W,1,9,1.6,11,M,,M,,*5A
06/22/2015	14:10:46.578	$GPGGA,141047,2422.9204,N,08205.3099,W,1,9,1.5,11,M,,M,,*5F
06/22/2015	14:10:47.608	$GPGGA,141048,2422.9197,N,08205.3096,W,1,9,1.6,11,M,,M,,*55
06/22/2015	14:10:48.558	$GPGGA,141049,2422.9190,N,08205.3092,W,1,9,1.6,11,M,,M,,*57
06/22/2015	14:10:49.578	$GPGGA,141050,2422.9183,N,08205.3090,W,1,9,1.6,11,M,,M,,*5F
06/22/2015	14:10:50.558	$GPGGA,141051,2422.9176,N,08205.3088,W,1,9,1.6,11,M,,M,,*5D
06/22/2015	14:10:51.568	$GPGGA,141052,2422.9169,N,08205.3084,W,1,9,1.6,11,M,,M,,*5C
06/22/2015	14:10:52.558	$GPGGA,141053,2422.9162,N,08205.3081,W,1,9,1.6,11,M,,M,,*53
06/22/2015	14:10:53.568	$GPGGA,141054,2422.9155,N,08205.3079,W,1,9,1.6,11,M,,M,,*57
06/22/2015	14:10:54.558	$GPGGA,141055,2422.9149,N,08205.3075,W,1,9,1.6,11,M,,M,,*57
06/22/2015	14:10:55.579	$GPGGA,141056,2422.9142,N,08205.3072,W,1,9,1.6,11,M,,M,,*58
06/22/2015	14:10:56.559	$GPGGA,141057,2422.9135,N,08205.3070,W,1,9,1.6,11,M,,M,,*5B
06/22/2015	14:10:57.579	$GPGGA,141058,2422.9128,N,08205.3067,W,1,9,1.6,11,M,,M,,*5E
06/22/2015	14:10:58.559	$GPGGA,141059,2422.9121,N,08205.3064,W,1,9,1.6,11,M,,M,,*55
06/22/2015	14:10:59.589	$GPGGA,141100,2422.9114,N,08205.3061,W,1,9,1.6,11,M,,M,,*5B
06/22/2015	14:11:00.549	$GPGGA,141101,2422.9108,N,08205.3059,W,1,9,1.6,11,M,,M,,*5C
06/22/2015	14:11:01.529	$GPGGA,141102,2422.9101,N,08205.3056,W,1,9,1.6,11,M,,M,,*59
06/22/2015	14:11:03.908	$GPGGA,141104,2422.9088,N,08205.3050,W,1,9,1.6,11,M,,M,,*59
06/22/2015	14:11:04.548	$GPGGA,141105,2422.9081,N,08205.3048,W,1,9,1.6,11,M,,M,,*58
06/22/2015	14:11:05.528	$GPGGA,141106,2422.9074,N,08205.3044,W,1,10,1.5,11,M,,M,,*66
06/22/2015	14:11:06.540	$GPGGA,141107,2422.9068,N,08205.3041,W,1,10,1.6,11,M,,M,,*6C
06/22/2015	14:11:07.578	$GPGGA,141108,2422.9063,N,08205.3039,W,1,9,1.6,11,M,,M,,*5F
06/22/2015	14:11:08.528	$GPGGA,141109,2422.9057,N,08205.3037,W,1,9,1.6,11,M,,M,,*57
06/22/2015	14:11:09.558	$GPGGA,141110,2422.9050,N,08205.3033,W,1,10,1.5,11,M,,M,,*67
06/22/2015	14:11:10.640	$GPGGA,141111,2422.9043,N,08205.3029,W,1,10,1.6,11,M,,M,,*6C
06/22/2015	14:11:11.540	$GPGGA,141112,2422.9038,N,08205.3028,W,1,9,1.6,11,M,,M,,*5A
06/22/2015	14:11:12.528	$GPGGA,141113,2422.9031,N,08205.3026,W,1,9,2.1,11,M,,M,,*58
06/22/2015	14:11:13.509	$GPGGA,141114,2422.9024,N,08205.3022,W,1,10,1.5,11,M,,M,,*60
06/22/2015	14:11:14.529	$GPGGA,141115,2422.9018,N,08205.3018,W,1,10,1.5,11,M,,M,,*67
06/22/2015	14:11:15.529	$GPGGA,141116,2422.9010,N,08205.3015,W,1,9,1.6,11,M,,M,,*5A
06/22/2015	14:11:16.519	$GPGGA,141117,2422.9003,N,08205.3013,W,1,9,1.6,12,M,,M,,*5C
06/22/2015	14:11:17.640	$GPGGA,141118,2422.8997,N,08205.3008,W,1,10,1.5,12,M,,M,,*67
06/22/2015	14:11:18.619	$GPGGA,141119,2422.8990,N,08205.3005,W,1,10,1.5,12,M,,M,,*6C
06/22/2015	14:11:19.632	$GPGGA,141120,2422.8984,N,08205.3002,W,1,10,1.5,12,M,,M,,*64
06/22/2015	14:11:20.508	$GPGGA,141121,2422.8977,N,08205.3000,W,1,10,1.5,12,M,,M,,*6B
06/22/2015	14:11:21.629	$GPGGA,141122,2422.8970,N,08205.2996,W,1,10,1.5,12,M,,M,,*68
06/22/2015	14:11:22.618	$GPGGA,141123,2422.8965,N,08205.2993,W,1,10,1.5,12,M,,M,,*68
06/22/2015	14:11:23.608	$GPGGA,141124,2422.8958,N,08205.2991,W,1,10,1.5,12,M,,M,,*63
06/22/2015	14:11:24.588	$GPGGA,141125,2422.8951,N,08205.2988,W,1,10,1.5,12,M,,M,,*63
06/22/2015	14:11:25.618	$GPGGA,141126,2422.8944,N,08205.2984,W,1,10,1.5,12,M,,M,,*68
06/22/2015	14:11:26.498	$GPGGA,141127,2422.8937,N,08205.2981,W,1,10,1.5,13,M,,M,,*69
06/22/2015	14:11:27.638	$GPGGA,141128,2422.8931,N,08205.2979,W,1,10,1.5,13,M,,M,,*67
06/22/2015	14:11:28.588	$GPGGA,141129,2422.8925,N,08205.2975,W,1,10,1.5,13,M,,M,,*6F
06/22/2015	14:11:29.618	$GPGGA,141130,2422.8918,N,08205.2972,W,1,10,1.5,13,M,,M,,*6E
06/22/2015	14:11:30.589	$GPGGA,141131,2422.8912,N,08205.2971,W,1,10,1.5,13,M,,M,,*66
06/22/2015	14:11:31.599	$GPGGA,141132,2422.8905,N,08205.2967,W,1,10,1.5,13,M,,M,,*64
06/22/2015	14:11:32.579	$GPGGA,141133,2422.8900,N,08205.2964,W,1,10,1.5,13,M,,M,,*63
06/22/2015	14:11:33.599	$GPGGA,141134,2422.8893,N,08205.2964,W,1,10,1.5,13,M,,M,,*6F
06/22/2015	14:11:34.579	$GPGGA,141135,2422.8886,N,08205.2960,W,1,10,1.5,13,M,,M,,*6E
06/22/2015	14:11:35.599	$GPGGA,141136,2422.8879,N,08205.2956,W,1,10,1.5,14,M,,M,,*6F
06/22/2015	14:11:36.559	$GPGGA,141137,2422.8873,N,08205.2954,W,1,10,1.5,14,M,,M,,*66
06/22/2015	14:11:37.578	$GPGGA,141138,2422.8866,N,08205.2953,W,1,10,1.5,14,M,,M,,*6A
06/22/2015	14:11:38.568	$GPGGA,141139,2422.8860,N,08205.2949,W,1,10,1.5,14,M,,M,,*66
06/22/2015	14:11:39.588	$GPGGA,141140,2422.8853,N,08205.2946,W,1,10,1.5,14,M,,M,,*67
06/22/2015	14:11:40.568	$GPGGA,141141,2422.8847,N,08205.2944,W,1,10,1.5,14,M,,M,,*61
06/22/2015	14:11:41.578	$GPGGA,141142,2422.8840,N,08205.2942,W,1,10,1.5,14,M,,M,,*63
