Software Version Number: 1	Data File Format Number: 1	Build Version Number: 1	Error Count Since VI Started: 2	Manufacturer: Raytheon	 Model Number: RayMarine 120	 S/N: 	 Cal Date: 	 Wind Direction Offset: 0.00	 Slope (M)1: 0.00	 Offset (B)1: 0.00	 Slope (M)2: 0.00	 Offset (B)2: 0.00	 Slope (M)3: 0.00	 Offset (B)3: 0.00	 Slope (M)4: 0.00	 Offset (B)4: 0.00	 Slope (M)5: 0.00	 Offset (B)5: 0.00	 Slope (M)6: 0.00	 Offset (B)6: 0.00
Computer Date	Computer Time	GGA String
06/20/2015	21:00:00.536	$GPGGA,210001,2456.4283,N,08019.7707,W,1,10,1.5,18,M,,M,,*61
06/20/2015	21:00:01.527	$GPGGA,210002,2456.4285,N,08019.7695,W,1,11,1.5,18,M,,M,,*6F
06/20/2015	21:00:02.527	$GPGGA,210003,2456.4286,N,08019.7683,W,1,11,1.5,18,M,,M,,*6A
06/20/2015	21:00:03.537	$GPGGA,210004,2456.4289,N,08019.7670,W,1,11,1.5,18,M,,M,,*6E
06/20/2015	21:00:04.557	$GPGGA,210005,2456.4292,N,08019.7658,W,1,11,1.5,18,M,,M,,*6F
06/20/2015	21:00:05.527	$GPGGA,210006,2456.4294,N,08019.7647,W,1,11,1.5,18,M,,M,,*64
06/20/2015	21:00:06.536	$GPGGA,210007,2456.4296,N,08019.7634,W,1,11,1.5,18,M,,M,,*63
06/20/2015	21:00:07.566	$GPGGA,210008,2456.4300,N,08019.7623,W,1,11,1.5,18,M,,M,,*64
06/20/2015	21:00:08.526	$GPGGA,210009,2456.4301,N,08019.7613,W,1,11,1.5,18,M,,M,,*67
06/20/2015	21:00:09.526	$GPGGA,210010,2456.4304,N,08019.7601,W,1,11,1.5,18,M,,M,,*69
06/20/2015	21:00:10.526	$GPGGA,210011,2456.4305,N,08019.7591,W,1,11,1.5,18,M,,M,,*63
06/20/2015	21:00:11.566	$GPGGA,210012,2456.4307,N,08019.7581,W,1,11,1.5,18,M,,M,,*63
06/20/2015	21:00:12.516	$GPGGA,210013,2456.4308,N,08019.7569,W,1,11,1.5,18,M,,M,,*6B
06/20/2015	21:00:13.646	$GPGGA,210014,2456.4311,N,08019.7558,W,1,11,1.5,18,M,,M,,*66
06/20/2015	21:00:14.506	$GPGGA,210015,2456.4314,N,08019.7546,W,1,11,1.5,18,M,,M,,*6D
06/20/2015	21:00:15.566	$GPGGA,210016,2456.4315,N,08019.7535,W,1,10,1.5,18,M,,M,,*6A
06/20/2015	21:00:16.616	$GPGGA,210017,2456.4318,N,08019.7523,W,1,10,1.5,18,M,,M,,*61
06/20/2015	21:00:17.596	$GPGGA,210018,2456.4319,N,08019.7511,W,1,11,1.5,18,M,,M,,*6F
06/20/2015	21:00:18.492	$GPGGA,210019,2456.4322,N,08019.7499,W,1,11,1.5,18,M,,M,,*67
06/20/2015	21:00:19.500	$GPGGA,210020,2456.4323,N,08019.7487,W,1,10,1.5,18,M,,M,,*62
06/20/2015	21:00:20.488	$GPGGA,210021,2456.4326,N,08019.7476,W,1,10,1.5,18,M,,M,,*68
06/20/2015	21:00:21.607	$GPGGA,210022,2456.4328,N,08019.7465,W,1,11,1.5,18,M,,M,,*66
06/20/2015	21:00:22.492	$GPGGA,210023,2456.4329,N,08019.7453,W,1,11,1.5,18,M,,M,,*63
06/20/2015	21:00:23.627	$GPGGA,210024,2456.4330,N,08019.7442,W,1,11,1.5,18,M,,M,,*6C
06/20/2015	21:00:24.499	$GPGGA,210025,2456.4333,N,08019.7430,W,1,11,1.5,18,M,,M,,*6B
06/20/2015	21:00:25.606	$GPGGA,210026,2456.4333,N,08019.7419,W,1,11,1.5,18,M,,M,,*63
06/20/2015	21:00:26.576	$GPGGA,210027,2456.4336,N,08019.7408,W,1,11,1.5,18,M,,M,,*67
06/20/2015	21:00:27.606	$GPGGA,210028,2456.4337,N,08019.7399,W,1,11,2.1,18,M,,M,,*61
06/20/2015	21:00:28.576	$GPGGA,210029,2456.4340,N,08019.7391,W,1,11,1.5,17,M,,M,,*60
06/20/2015	21:00:29.586	$GPGGA,210030,2456.4341,N,08019.7381,W,1,11,1.5,17,M,,M,,*68
06/20/2015	21:00:30.576	$GPGGA,210031,2456.4341,N,08019.7369,W,1,11,1.5,17,M,,M,,*6F
06/20/2015	21:00:31.616	$GPGGA,210032,2456.4343,N,08019.7357,W,1,10,1.5,17,M,,M,,*62
06/20/2015	21:00:32.566	$GPGGA,210033,2456.4344,N,08019.7347,W,1,10,1.5,17,M,,M,,*65
06/20/2015	21:00:33.556	$GPGGA,210034,2456.4348,N,08019.7341,W,1,11,2.1,17,M,,M,,*6E
06/20/2015	21:00:34.566	$GPGGA,210035,2456.4348,N,08019.7330,W,1,11,2.1,16,M,,M,,*68
06/20/2015	21:00:35.586	$GPGGA,210036,2456.4351,N,08019.7321,W,1,10,2.4,16,M,,M,,*67
06/20/2015	21:00:36.557	$GPGGA,210037,2456.4352,N,08019.7307,W,1,10,1.5,16,M,,M,,*63
06/20/2015	21:00:37.589	$GPGGA,210038,2456.4352,N,08019.7297,W,1,10,1.5,16,M,,M,,*64
06/20/2015	21:00:38.567	$GPGGA,210039,2456.4352,N,08019.7287,W,1,10,1.5,16,M,,M,,*64
06/20/2015	21:00:39.600	$GPGGA,210040,2456.4354,N,08019.7275,W,1,11,1.5,15,M,,M,,*63
06/20/2015	21:00:40.547	$GPGGA,210041,2456.4355,N,08019.7263,W,1,11,1.5,15,M,,M,,*64
06/20/2015	21:00:41.566	$GPGGA,210042,2456.4355,N,08019.7255,W,1,11,2.4,15,M,,M,,*60
06/20/2015	21:00:42.556	$GPGGA,210043,2456.4355,N,08019.7242,W,1,11,1.5,15,M,,M,,*65
06/20/2015	21:00:43.616	$GPGGA,210044,2456.4355,N,08019.7228,W,1,11,1.5,15,M,,M,,*6E
06/20/2015	21:00:44.556	$GPGGA,210045,2456.4355,N,08019.7216,W,1,11,1.5,15,M,,M,,*62
06/20/2015	21:00:45.576	$GPGGA,210046,2456.4355,N,08019.7203,W,1,11,1.5,15,M,,M,,*65
06/20/2015	21:00:46.546	$GPGGA,210047,2456.4355,N,08019.7190,W,1,11,1.5,15,M,,M,,*6D
06/20/2015	21:00:47.576	$GPGGA,210048,2456.4355,N,08019.7177,W,1,11,1.5,15,M,,M,,*6B
06/20/2015	21:00:48.536	$GPGGA,210049,2456.4355,N,08019.7164,W,1,11,1.5,15,M,,M,,*68
06/20/2015	21:00:49.566	$GPGGA,210050,2456.4355,N,08019.7152,W,1,11,1.5,15,M,,M,,*65
06/20/2015	21:00:50.536	$GPGGA,210051,2456.4355,N,08019.7140,W,1,11,1.5,16,M,,M,,*64
06/20/2015	21:00:51.616	$GPGGA,210052,2456.4353,N,08019.7127,W,1,11,1.5,16,M,,M,,*60
06/20/2015	21:00:52.526	$GPGGA,210053,2456.4354,N,08019.7116,W,1,11,1.5,16,M,,M,,*64
06/20/2015	21:00:53.536	$GPGGA,210054,2456.4353,N,08019.7104,W,1,11,1.5,16,M,,M,,*67
06/20/2015	21:00:54.517	$GPGGA,210055,2456.4354,N,08019.7093,W,1,11,1.5,16,M,,M,,*6E
06/20/2015	21:00:55.590	$GPGGA,210056,2456.4352,N,08019.7082,W,1,11,1.5,16,M,,M,,*6B
06/20/2015	21:00:56.527	$GPGGA,210057,2456.4354,N,08019.7070,W,1,11,1.5,17,M,,M,,*60
06/20/2015	21:00:57.537	$GPGGA,210058,2456.4353,N,08019.7059,W,1,10,1.5,17,M,,M,,*62
06/20/2015	21:00:58.527	$GPGGA,210059,2456.4353,N,08019.7059,W,1,10,1.5,17,M,,M,,*63
06/20/2015	21:00:59.566	$GPGGA,210100,2456.4352,N,08019.7038,W,1,11,1.5,17,M,,M,,*69
06/20/2015	21:01:00.626	$GPGGA,210101,2456.4354,N,08019.7027,W,1,11,1.5,17,M,,M,,*60
06/20/2015	21:01:01.599	$GPGGA,210102,2456.4352,N,08019.7016,W,1,11,1.5,17,M,,M,,*67
06/20/2015	21:01:02.626	$GPGGA,210103,2456.4352,N,08019.7005,W,1,11,1.5,18,M,,M,,*6B
06/20/2015	21:01:03.636	$GPGGA,210104,2456.4352,N,08019.6995,W,1,11,1.5,18,M,,M,,*6D
06/20/2015	21:01:04.516	$GPGGA,210105,2456.4350,N,08019.6984,W,1,11,1.5,18,M,,M,,*6E
06/20/2015	21:01:05.599	$GPGGA,210106,2456.4351,N,08019.6973,W,1,11,1.5,18,M,,M,,*64
06/20/2015	21:01:06.516	$GPGGA,210107,2456.4348,N,08019.6963,W,1,11,1.5,18,M,,M,,*6C
06/20/2015	21:01:08.566	$GPGGA,210109,2456.4346,N,08019.6942,W,1,10,1.5,18,M,,M,,*6E
06/20/2015	21:01:09.590	$GPGGA,210110,2456.4345,N,08019.6931,W,1,11,1.5,18,M,,M,,*60
06/20/2015	21:01:10.586	$GPGGA,210111,2456.4344,N,08019.6920,W,1,11,1.5,19,M,,M,,*61
06/20/2015	21:01:11.627	$GPGGA,210112,2456.4343,N,08019.6910,W,1,11,1.5,19,M,,M,,*66
06/20/2015	21:01:12.517	$GPGGA,210113,2456.4344,N,08019.6899,W,1,11,1.5,19,M,,M,,*60
06/20/2015	21:01:13.857	$GPGGA,210114,2456.4341,N,08019.6889,W,1,11,1.5,19,M,,M,,*63
06/20/2015	21:01:14.577	$GPGGA,210115,2456.4339,N,08019.6878,W,1,11,1.5,19,M,,M,,*63
06/20/2015	21:01:15.606	$GPGGA,210116,2456.4338,N,08019.6867,W,1,10,1.5,19,M,,M,,*6E
06/20/2015	21:01:16.591	$GPGGA,210117,2456.4340,N,08019.6859,W,1,10,1.5,19,M,,M,,*6D
06/20/2015	21:01:17.576	$GPGGA,210118,2456.4337,N,08019.6849,W,1,11,1.5,19,M,,M,,*62
06/20/2015	21:01:18.596	$GPGGA,210119,2456.4335,N,08019.6839,W,1,11,1.5,19,M,,M,,*66
06/20/2015	21:01:19.596	$GPGGA,210120,2456.4334,N,08019.6827,W,1,11,1.5,19,M,,M,,*62
06/20/2015	21:01:20.576	$GPGGA,210121,2456.4333,N,08019.6816,W,1,11,1.5,19,M,,M,,*66
06/20/2015	21:01:21.556	$GPGGA,210122,2456.4331,N,08019.6808,W,1,9,1.5,19,M,,M,,*51
06/20/2015	21:01:22.566	$GPGGA,210123,2456.4330,N,08019.6798,W,1,9,1.5,19,M,,M,,*57
06/20/2015	21:01:23.576	$GPGGA,210124,2456.4328,N,08019.6789,W,1,11,1.5,19,M,,M,,*60
06/20/2015	21:01:24.556	$GPGGA,210125,2456.4327,N,08019.6780,W,1,11,1.5,19,M,,M,,*67
06/20/2015	21:01:25.576	$GPGGA,210126,2456.4324,N,08019.6770,W,1,11,1.5,19,M,,M,,*68
06/20/2015	21:01:26.556	$GPGGA,210127,2456.4323,N,08019.6760,W,1,11,1.5,19,M,,M,,*6F
06/20/2015	21:01:27.589	$GPGGA,210128,2456.4321,N,08019.6749,W,1,11,1.5,19,M,,M,,*69
06/20/2015	21:01:28.556	$GPGGA,210129,2456.4319,N,08019.6738,W,1,11,1.5,19,M,,M,,*65
06/20/2015	21:01:29.577	$GPGGA,210130,2456.4315,N,08019.6728,W,1,11,1.5,19,M,,M,,*60
06/20/2015	21:01:30.557	$GPGGA,210131,2456.4313,N,08019.6718,W,1,11,1.5,19,M,,M,,*64
06/20/2015	21:01:31.577	$GPGGA,210132,2456.4310,N,08019.6707,W,1,10,1.5,19,M,,M,,*6B
06/20/2015	21:01:32.557	$GPGGA,210133,2456.4308,N,08019.6698,W,1,10,1.5,19,M,,M,,*64
06/20/2015	21:01:33.557	$GPGGA,210134,2456.4306,N,08019.6689,W,1,10,1.5,19,M,,M,,*6D
06/20/2015	21:01:34.546	$GPGGA,210135,2456.4305,N,08019.6679,W,1,10,1.5,19,M,,M,,*60
06/20/2015	21:01:35.566	$GPGGA,210136,2456.4303,N,08019.6671,W,1,11,1.5,19,M,,M,,*6C
06/20/2015	21:01:36.546	$GPGGA,210137,2456.4301,N,08019.6662,W,1,11,1.5,19,M,,M,,*6D
06/20/2015	21:01:37.566	$GPGGA,210138,2456.4299,N,08019.6652,W,1,11,1.5,19,M,,M,,*61
06/20/2015	21:01:38.526	$GPGGA,210139,2456.4297,N,08019.6643,W,1,11,1.5,19,M,,M,,*6E
06/20/2015	21:01:39.576	$GPGGA,210140,2456.4296,N,08019.6633,W,1,11,1.5,19,M,,M,,*66
06/20/2015	21:01:40.526	$GPGGA,210141,2456.4294,N,08019.6624,W,1,11,1.5,19,M,,M,,*63
06/20/2015	21:01:41.526	$GPGGA,210142,2456.4291,N,08019.6615,W,1,11,1.5,19,M,,M,,*67
06/20/2015	21:01:42.516	$GPGGA,210143,2456.4290,N,08019.6605,W,1,11,1.5,19,M,,M,,*66
06/20/2015	21:01:43.546	$GPGGA,210144,2456.4286,N,08019.6596,W,1,11,1.5,19,M,,M,,*6F
06/20/2015	21:01:44.516	$GPGGA,210145,2456.4283,N,08019.6586,W,1,11,1.5,18,M,,M,,*6B
06/20/2015	21:01:45.626	$GPGGA,210146,2456.4281,N,08019.6577,W,1,11,1.5,18,M,,M,,*64
06/20/2015	21:01:46.527	$GPGGA,210147,2456.4279,N,08019.6568,W,1,11,1.5,18,M,,M,,*6C
06/20/2015	21:01:47.537	$GPGGA,210148,2456.4277,N,08019.6558,W,1,11,1.5,18,M,,M,,*6E
06/20/2015	21:01:48.527	$GPGGA,210149,2456.4274,N,08019.6549,W,1,11,1.5,18,M,,M,,*6C
06/20/2015	21:01:49.627	$GPGGA,210150,2456.4272,N,08019.6540,W,1,11,1.5,18,M,,M,,*6B
06/20/2015	21:01:50.517	$GPGGA,210151,2456.4268,N,08019.6531,W,1,11,1.5,18,M,,M,,*67
06/20/2015	21:01:51.626	$GPGGA,210152,2456.4266,N,08019.6522,W,1,11,1.5,18,M,,M,,*68
06/20/2015	21:01:52.516	$GPGGA,210153,2456.4265,N,08019.6513,W,1,11,1.5,18,M,,M,,*68
06/20/2015	21:01:53.606	$GPGGA,210154,2456.4261,N,08019.6504,W,1,11,1.5,18,M,,M,,*6D
06/20/2015	21:01:54.516	$GPGGA,210155,2456.4258,N,08019.6495,W,1,11,1.5,18,M,,M,,*6F
06/20/2015	21:01:55.656	$GPGGA,210156,2456.4255,N,08019.6487,W,1,11,1.5,18,M,,M,,*62
06/20/2015	21:01:56.500	$GPGGA,210157,2456.4252,N,08019.6478,W,1,11,1.5,18,M,,M,,*64
06/20/2015	21:01:57.589	$GPGGA,210158,2456.4249,N,08019.6470,W,1,11,1.5,18,M,,M,,*69
06/20/2015	21:01:58.587	$GPGGA,210159,2456.4245,N,08019.6462,W,1,11,1.5,18,M,,M,,*67
06/20/2015	21:01:59.596	$GPGGA,210200,2456.4242,N,08019.6453,W,1,11,1.5,18,M,,M,,*6D
06/20/2015	21:02:00.590	$GPGGA,210201,2456.4240,N,08019.6445,W,1,11,1.5,18,M,,M,,*69
06/20/2015	21:02:01.606	$GPGGA,210202,2456.4236,N,08019.6437,W,1,10,1.5,18,M,,M,,*6F
06/20/2015	21:02:02.576	$GPGGA,210203,2456.4233,N,08019.6432,W,1,10,1.5,18,M,,M,,*6E
06/20/2015	21:02:03.617	$GPGGA,210204,2456.4231,N,08019.6426,W,1,11,1.5,18,M,,M,,*6F
06/20/2015	21:02:04.577	$GPGGA,210205,2456.4229,N,08019.6420,W,1,11,1.5,18,M,,M,,*61
06/20/2015	21:02:05.597	$GPGGA,210206,2456.4225,N,08019.6414,W,1,11,1.5,18,M,,M,,*69
06/20/2015	21:02:06.577	$GPGGA,210207,2456.4222,N,08019.6408,W,1,11,1.5,18,M,,M,,*62
06/20/2015	21:02:07.617	$GPGGA,210208,2456.4219,N,08019.6401,W,1,11,1.5,18,M,,M,,*6C
06/20/2015	21:02:08.577	$GPGGA,210209,2456.4216,N,08019.6395,W,1,11,1.5,18,M,,M,,*68
06/20/2015	21:02:09.566	$GPGGA,210210,2456.4212,N,08019.6389,W,1,11,1.5,18,M,,M,,*69
06/20/2015	21:02:10.576	$GPGGA,210211,2456.4209,N,08019.6381,W,1,11,1.5,18,M,,M,,*6A
06/20/2015	21:02:11.601	$GPGGA,210212,2456.4205,N,08019.6376,W,1,11,1.5,17,M,,M,,*62
06/20/2015	21:02:12.556	$GPGGA,210213,2456.4202,N,08019.6370,W,1,11,1.5,17,M,,M,,*62
06/20/2015	21:02:13.592	$GPGGA,210214,2456.4200,N,08019.6363,W,1,11,1.5,17,M,,M,,*65
06/20/2015	21:02:14.556	$GPGGA,210215,2456.4195,N,08019.6356,W,1,11,1.5,17,M,,M,,*6D
06/20/2015	21:02:15.594	$GPGGA,210216,2456.4193,N,08019.6351,W,1,10,1.5,17,M,,M,,*6E
06/20/2015	21:02:16.546	$GPGGA,210217,2456.4189,N,08019.6346,W,1,10,1.5,17,M,,M,,*62
06/20/2015	21:02:17.591	$GPGGA,210218,2456.4184,N,08019.6339,W,1,11,1.5,17,M,,M,,*69
06/20/2015	21:02:18.556	$GPGGA,210219,2456.4182,N,08019.6333,W,1,11,1.5,17,M,,M,,*64
06/20/2015	21:02:19.556	$GPGGA,210220,2456.4178,N,08019.6328,W,1,11,1.5,17,M,,M,,*61
06/20/2015	21:02:20.566	$GPGGA,210221,2456.4173,N,08019.6323,W,1,11,1.5,17,M,,M,,*60
06/20/2015	21:02:21.577	$GPGGA,210222,2456.4169,N,08019.6317,W,1,11,1.5,17,M,,M,,*6F
06/20/2015	21:02:22.537	$GPGGA,210223,2456.4165,N,08019.6312,W,1,11,1.5,17,M,,M,,*67
06/20/2015	21:02:23.547	$GPGGA,210224,2456.4160,N,08019.6306,W,1,9,1.6,17,M,,M,,*5A
06/20/2015	21:02:24.547	$GPGGA,210225,2456.4156,N,08019.6301,W,1,9,1.5,17,M,,M,,*5A
06/20/2015	21:02:25.547	$GPGGA,210226,2456.4151,N,08019.6296,W,1,11,1.5,17,M,,M,,*68
06/20/2015	21:02:26.526	$GPGGA,210227,2456.4147,N,08019.6294,W,1,11,1.5,17,M,,M,,*6C
06/20/2015	21:02:27.576	$GPGGA,210228,2456.4143,N,08019.6289,W,1,11,1.5,17,M,,M,,*6B
06/20/2015	21:02:28.546	$GPGGA,210229,2456.4139,N,08019.6285,W,1,11,1.5,17,M,,M,,*6B
06/20/2015	21:02:29.536	$GPGGA,210230,2456.4135,N,08019.6281,W,1,11,1.5,17,M,,M,,*6B
06/20/2015	21:02:30.536	$GPGGA,210231,2456.4131,N,08019.6278,W,1,11,1.5,17,M,,M,,*68
06/20/2015	21:02:31.556	$GPGGA,210232,2456.4128,N,08019.6274,W,1,11,1.5,17,M,,M,,*6F
06/20/2015	21:02:32.526	$GPGGA,210233,2456.4124,N,08019.6270,W,1,11,1.5,17,M,,M,,*66
06/20/2015	21:02:33.526	$GPGGA,210234,2456.4118,N,08019.6267,W,1,11,1.5,17,M,,M,,*68
06/20/2015	21:02:34.516	$GPGGA,210235,2456.4114,N,08019.6265,W,1,11,1.5,17,M,,M,,*67
06/20/2015	21:02:35.546	$GPGGA,210236,2456.4109,N,08019.6261,W,1,11,1.5,17,M,,M,,*6C
06/20/2015	21:02:36.516	$GPGGA,210237,2456.4106,N,08019.6258,W,1,11,1.5,17,M,,M,,*68
06/20/2015	21:02:37.616	$GPGGA,210238,2456.4100,N,08019.6256,W,1,11,1.5,17,M,,M,,*6F
06/20/2015	21:02:38.516	$GPGGA,210239,2456.4095,N,08019.6253,W,1,11,1.5,17,M,,M,,*66
06/20/2015	21:02:39.537	$GPGGA,210240,2456.4091,N,08019.6250,W,1,11,1.5,17,M,,M,,*6F
06/20/2015	21:02:40.497	$GPGGA,210241,2456.4086,N,08019.6248,W,1,11,1.5,17,M,,M,,*61
06/20/2015	21:02:41.527	$GPGGA,210242,2456.4082,N,08019.6245,W,1,11,1.5,17,M,,M,,*6B
06/20/2015	21:02:42.507	$GPGGA,210243,2456.4077,N,08019.6243,W,1,11,1.5,17,M,,M,,*66
06/20/2015	21:02:43.627	$GPGGA,210244,2456.4072,N,08019.6241,W,1,11,1.5,17,M,,M,,*66
06/20/2015	21:02:44.516	$GPGGA,210245,2456.4067,N,08019.6238,W,1,11,1.5,17,M,,M,,*6D
06/20/2015	21:02:45.606	$GPGGA,210246,2456.4063,N,08019.6236,W,1,11,1.5,17,M,,M,,*64
06/20/2015	21:02:46.600	$GPGGA,210247,2456.4059,N,08019.6235,W,1,11,1.5,18,M,,M,,*60
06/20/2015	21:02:47.646	$GPGGA,210248,2456.4053,N,08019.6233,W,1,11,1.5,18,M,,M,,*63
06/20/2015	21:02:48.596	$GPGGA,210249,2456.4048,N,08019.6231,W,1,11,1.5,18,M,,M,,*6A
06/20/2015	21:02:49.597	$GPGGA,210250,2456.4044,N,08019.6229,W,1,11,1.5,18,M,,M,,*67
06/20/2015	21:02:50.496	$GPGGA,210251,2456.4039,N,08019.6228,W,1,11,1.5,18,M,,M,,*6D
06/20/2015	21:02:51.636	$GPGGA,210252,2456.4034,N,08019.6227,W,1,10,1.5,18,M,,M,,*6D
06/20/2015	21:02:52.576	$GPGGA,210253,2456.4030,N,08019.6224,W,1,10,1.5,18,M,,M,,*6B
06/20/2015	21:02:53.576	$GPGGA,210254,2456.4024,N,08019.6223,W,1,11,1.5,18,M,,M,,*6F
06/20/2015	21:02:54.566	$GPGGA,210255,2456.4019,N,08019.6222,W,1,11,1.5,18,M,,M,,*61
06/20/2015	21:02:55.616	$GPGGA,210256,2456.4014,N,08019.6221,W,1,11,1.5,18,M,,M,,*6C
06/20/2015	21:02:56.567	$GPGGA,210257,2456.4009,N,08019.6220,W,1,11,1.5,18,M,,M,,*60
06/20/2015	21:02:57.590	$GPGGA,210258,2456.4005,N,08019.6219,W,1,11,1.5,18,M,,M,,*69
06/20/2015	21:02:58.567	$GPGGA,210259,2456.4001,N,08019.6219,W,1,11,1.5,18,M,,M,,*6C
06/20/2015	21:02:59.617	$GPGGA,210300,2456.3995,N,08019.6218,W,1,11,1.5,18,M,,M,,*63
06/20/2015	21:03:00.567	$GPGGA,210301,2456.3990,N,08019.6216,W,1,11,1.5,18,M,,M,,*69
06/20/2015	21:03:01.576	$GPGGA,210302,2456.3985,N,08019.6217,W,1,11,1.5,18,M,,M,,*6F
06/20/2015	21:03:02.566	$GPGGA,210303,2456.3981,N,08019.6217,W,1,11,1.5,18,M,,M,,*6A
06/20/2015	21:03:03.599	$GPGGA,210304,2456.3977,N,08019.6216,W,1,11,1.5,18,M,,M,,*65
06/20/2015	21:03:04.556	$GPGGA,210305,2456.3973,N,08019.6217,W,1,11,2.1,18,M,,M,,*66
06/20/2015	21:03:05.576	$GPGGA,210306,2456.3969,N,08019.6217,W,1,10,2.1,18,M,,M,,*6F
06/20/2015	21:03:06.554	$GPGGA,210307,2456.3965,N,08019.6218,W,1,10,2.1,18,M,,M,,*6D
06/20/2015	21:03:07.556	$GPGGA,210308,2456.3960,N,08019.6218,W,1,10,2.1,18,M,,M,,*67
06/20/2015	21:03:08.536	$GPGGA,210309,2456.3958,N,08019.6218,W,1,10,2.1,18,M,,M,,*6D
06/20/2015	21:03:09.526	$GPGGA,210310,2456.3954,N,08019.6219,W,1,10,2.1,18,M,,M,,*68
06/20/2015	21:03:10.546	$GPGGA,210311,2456.3949,N,08019.6221,W,1,10,2.1,18,M,,M,,*6E
06/20/2015	21:03:11.546	$GPGGA,210312,2456.3944,N,08019.6220,W,1,10,2.1,18,M,,M,,*61
06/20/2015	21:03:12.536	$GPGGA,210313,2456.3941,N,08019.6222,W,1,10,2.1,18,M,,M,,*67
06/20/2015	21:03:13.526	$GPGGA,210314,2456.3937,N,08019.6222,W,1,10,2.1,18,M,,M,,*61
06/20/2015	21:03:14.536	$GPGGA,210315,2456.3933,N,08019.6223,W,1,10,2.1,18,M,,M,,*65
06/20/2015	21:03:15.556	$GPGGA,210316,2456.3930,N,08019.6225,W,1,10,2.1,18,M,,M,,*63
06/20/2015	21:03:16.526	$GPGGA,210317,2456.3926,N,08019.6225,W,1,10,2.1,18,M,,M,,*65
06/20/2015	21:03:17.536	$GPGGA,210318,2456.3922,N,08019.6226,W,1,10,2.1,18,M,,M,,*6D
06/20/2015	21:03:18.516	$GPGGA,210319,2456.3920,N,08019.6228,W,1,10,2.8,18,M,,M,,*69
06/20/2015	21:03:19.535	$GPGGA,210320,2456.3916,N,08019.6228,W,1,9,2.2,18,M,,M,,*54
06/20/2015	21:03:20.525	$GPGGA,210321,2456.3913,N,08019.6230,W,1,9,2.1,18,M,,M,,*5A
06/20/2015	21:03:21.955	$GPGGA,210322,2456.3909,N,08019.6232,W,1,9,2.2,18,M,,M,,*53
06/20/2015	21:03:22.515	$GPGGA,210323,2456.3906,N,08019.6231,W,1,9,2.1,18,M,,M,,*5D
06/20/2015	21:03:23.515	$GPGGA,210324,2456.3902,N,08019.6235,W,1,9,2.2,18,M,,M,,*59
06/20/2015	21:03:24.496	$GPGGA,210325,2456.3900,N,08019.6236,W,1,9,2.1,18,M,,M,,*5A
06/20/2015	21:03:25.526	$GPGGA,210326,2456.3896,N,08019.6237,W,1,10,2.1,18,M,,M,,*6E
06/20/2015	21:03:26.516	$GPGGA,210327,2456.3893,N,08019.6239,W,1,10,2.4,18,M,,M,,*61
06/20/2015	21:03:27.546	$GPGGA,210328,2456.3890,N,08019.6240,W,1,10,2.1,18,M,,M,,*66
06/20/2015	21:03:28.506	$GPGGA,210329,2456.3887,N,08019.6243,W,1,10,2.1,18,M,,M,,*62
06/20/2015	21:03:29.490	$GPGGA,210330,2456.3884,N,08019.6244,W,1,10,2.1,18,M,,M,,*6E
06/20/2015	21:03:30.657	$GPGGA,210331,2456.3882,N,08019.6246,W,1,10,2.1,18,M,,M,,*6B
06/20/2015	21:03:31.656	$GPGGA,210332,2456.3882,N,08019.6250,W,1,9,2.1,18,M,,M,,*57
06/20/2015	21:03:32.491	$GPGGA,210333,2456.3879,N,08019.6251,W,1,9,2.1,18,M,,M,,*53
06/20/2015	21:03:33.481	$GPGGA,210334,2456.3878,N,08019.6254,W,1,10,2.1,18,M,,M,,*68
06/20/2015	21:03:34.496	$GPGGA,210335,2456.3876,N,08019.6257,W,1,10,2.1,18,M,,M,,*64
06/20/2015	21:03:35.666	$GPGGA,210336,2456.3875,N,08019.6258,W,1,10,2.1,18,M,,M,,*6B
06/20/2015	21:03:36.578	$GPGGA,210337,2456.3871,N,08019.6261,W,1,10,2.1,18,M,,M,,*64
06/20/2015	21:03:37.597	$GPGGA,210338,2456.3869,N,08019.6264,W,1,9,2.2,19,M,,M,,*5D
06/20/2015	21:03:38.486	$GPGGA,210339,2456.3867,N,08019.6268,W,1,9,2.2,19,M,,M,,*5E
06/20/2015	21:03:39.665	$GPGGA,210340,2456.3866,N,08019.6269,W,1,9,2.4,19,M,,M,,*56
06/20/2015	21:03:40.635	$GPGGA,210341,2456.3864,N,08019.6272,W,1,9,2.4,19,M,,M,,*5F
06/20/2015	21:03:41.590	$GPGGA,210342,2456.3862,N,08019.6275,W,1,10,2.1,19,M,,M,,*60
06/20/2015	21:03:42.636	$GPGGA,210343,2456.3860,N,08019.6277,W,1,10,2.2,19,M,,M,,*62
06/20/2015	21:03:43.616	$GPGGA,210344,2456.3859,N,08019.6282,W,1,9,2.2,19,M,,M,,*5D
06/20/2015	21:03:44.616	$GPGGA,210345,2456.3860,N,08019.6286,W,1,9,2.1,20,M,,M,,*5B
06/20/2015	21:03:45.626	$GPGGA,210346,2456.3858,N,08019.6288,W,1,10,2.1,20,M,,M,,*65
06/20/2015	21:03:46.636	$GPGGA,210347,2456.3857,N,08019.6291,W,1,10,2.8,20,M,,M,,*6A
06/20/2015	21:03:47.636	$GPGGA,210348,2456.3855,N,08019.6294,W,1,8,2.1,20,M,,M,,*52
06/20/2015	21:03:48.626	$GPGGA,210349,2456.3854,N,08019.6298,W,1,8,2.1,20,M,,M,,*5E
06/20/2015	21:03:49.583	$GPGGA,210350,2456.3853,N,08019.6301,W,1,10,2.1,20,M,,M,,*69
06/20/2015	21:03:50.626	$GPGGA,210351,2456.3853,N,08019.6305,W,1,10,2.1,20,M,,M,,*6C
06/20/2015	21:03:51.596	$GPGGA,210352,2456.3853,N,08019.6305,W,1,8,2.5,20,M,,M,,*52
06/20/2015	21:03:52.606	$GPGGA,210353,2456.3853,N,08019.6308,W,1,8,2.1,20,M,,M,,*5A
06/20/2015	21:03:53.597	$GPGGA,210354,2456.3853,N,08019.6313,W,1,10,2.1,20,M,,M,,*6E
06/20/2015	21:03:54.545	$GPGGA,210355,2456.3853,N,08019.6318,W,1,10,2.1,20,M,,M,,*64
06/20/2015	21:03:55.545	$GPGGA,210356,2456.3851,N,08019.6322,W,1,9,2.2,20,M,,M,,*57
06/20/2015	21:03:56.615	$GPGGA,210357,2456.3852,N,08019.6326,W,1,9,2.3,20,M,,M,,*50
06/20/2015	21:03:57.525	$GPGGA,210358,2456.3850,N,08019.6331,W,1,8,2.3,20,M,,M,,*5A
06/20/2015	21:03:58.592	$GPGGA,210359,2456.3849,N,08019.6335,W,1,8,2.1,20,M,,M,,*55
06/20/2015	21:03:59.591	$GPGGA,210400,2456.3848,N,08019.6340,W,1,10,2.1,20,M,,M,,*64
06/20/2015	21:04:00.596	$GPGGA,210401,2456.3849,N,08019.6344,W,1,10,2.1,20,M,,M,,*60
06/20/2015	21:04:01.581	$GPGGA,210402,2456.3848,N,08019.6349,W,1,10,2.1,20,M,,M,,*6F
06/20/2015	21:04:02.591	$GPGGA,210403,2456.3849,N,08019.6353,W,1,10,2.1,20,M,,M,,*64
06/20/2015	21:04:03.578	$GPGGA,210404,2456.3849,N,08019.6358,W,1,10,2.1,20,M,,M,,*68
06/20/2015	21:04:04.577	$GPGGA,210405,2456.3850,N,08019.6363,W,1,10,2.1,20,M,,M,,*69
06/20/2015	21:04:05.579	$GPGGA,210406,2456.3850,N,08019.6367,W,1,10,2.1,20,M,,M,,*6E
06/20/2015	21:04:06.516	$GPGGA,210407,2456.3850,N,08019.6373,W,1,10,2.1,20,M,,M,,*6A
06/20/2015	21:04:07.579	$GPGGA,210408,2456.3853,N,08019.6377,W,1,10,2.1,20,M,,M,,*62
06/20/2015	21:04:08.589	$GPGGA,210409,2456.3853,N,08019.6381,W,1,10,2.1,20,M,,M,,*6A
06/20/2015	21:04:09.566	$GPGGA,210410,2456.3853,N,08019.6387,W,1,10,2.1,20,M,,M,,*64
06/20/2015	21:04:10.581	$GPGGA,210411,2456.3855,N,08019.6394,W,1,10,2.4,20,M,,M,,*64
06/20/2015	21:04:11.635	$GPGGA,210412,2456.3856,N,08019.6398,W,1,9,2.1,20,M,,M,,*55
06/20/2015	21:04:12.581	$GPGGA,210413,2456.3857,N,08019.6400,W,1,9,2.2,20,M,,M,,*50
06/20/2015	21:04:13.615	$GPGGA,210414,2456.3860,N,08019.6405,W,1,9,2.2,19,M,,M,,*5C
06/20/2015	21:04:14.565	$GPGGA,210415,2456.3863,N,08019.6409,W,1,9,2.2,19,M,,M,,*52
06/20/2015	21:04:15.635	$GPGGA,210416,2456.3864,N,08019.6414,W,1,9,2.1,19,M,,M,,*59
06/20/2015	21:04:16.556	$GPGGA,210417,2456.3866,N,08019.6418,W,1,9,2.1,19,M,,M,,*56
06/20/2015	21:04:17.626	$GPGGA,210418,2456.3867,N,08019.6423,W,1,10,2.2,20,M,,M,,*61
06/20/2015	21:04:18.556	$GPGGA,210419,2456.3870,N,08019.6428,W,1,10,2.2,20,M,,M,,*6D
06/20/2015	21:04:19.566	$GPGGA,210420,2456.3871,N,08019.6434,W,1,9,2.1,20,M,,M,,*50
06/20/2015	21:04:20.496	$GPGGA,210421,2456.3875,N,08019.6439,W,1,9,2.1,20,M,,M,,*58
06/20/2015	21:04:21.486	$GPGGA,210422,2456.3875,N,08019.6445,W,1,10,2.1,20,M,,M,,*68
06/20/2015	21:04:22.556	$GPGGA,210423,2456.3878,N,08019.6452,W,1,10,2.1,20,M,,M,,*62
06/20/2015	21:04:23.596	$GPGGA,210424,2456.3881,N,08019.6456,W,1,10,2.1,20,M,,M,,*67
06/20/2015	21:04:24.596	$GPGGA,210425,2456.3882,N,08019.6463,W,1,10,2.2,20,M,,M,,*60
06/20/2015	21:04:25.466	$GPGGA,210426,2456.3885,N,08019.6468,W,1,9,2.2,20,M,,M,,*57
06/20/2015	21:04:26.577	$GPGGA,210427,2456.3886,N,08019.6474,W,1,9,2.2,19,M,,M,,*52
06/20/2015	21:04:27.606	$GPGGA,210428,2456.3889,N,08019.6481,W,1,9,2.8,19,M,,M,,*52
06/20/2015	21:04:28.546	$GPGGA,210429,2456.3891,N,08019.6486,W,1,9,2.2,19,M,,M,,*57
06/20/2015	21:04:29.565	$GPGGA,210430,2456.3892,N,08019.6493,W,1,9,2.2,19,M,,M,,*58
06/20/2015	21:04:30.575	$GPGGA,210431,2456.3893,N,08019.6500,W,1,9,2.2,19,M,,M,,*53
06/20/2015	21:04:32.565	$GPGGA,210432,2456.3896,N,08019.6507,W,1,9,2.2,19,M,,M,,*52
06/20/2015	21:04:32.595	$GPGGA,210433,2456.3898,N,08019.6512,W,1,9,2.2,19,M,,M,,*59
06/20/2015	21:04:33.605	$GPGGA,210434,2456.3900,N,08019.6519,W,1,9,2.2,19,M,,M,,*55
06/20/2015	21:04:34.556	$GPGGA,210435,2456.3902,N,08019.6525,W,1,9,2.2,19,M,,M,,*59
06/20/2015	21:04:35.596	$GPGGA,210436,2456.3904,N,08019.6532,W,1,9,2.2,19,M,,M,,*5A
06/20/2015	21:04:36.576	$GPGGA,210437,2456.3904,N,08019.6537,W,1,9,2.2,19,M,,M,,*5E
06/20/2015	21:04:37.556	$GPGGA,210438,2456.3907,N,08019.6544,W,1,9,2.2,19,M,,M,,*56
06/20/2015	21:04:38.556	$GPGGA,210439,2456.3909,N,08019.6550,W,1,9,2.2,19,M,,M,,*5C
06/20/2015	21:04:39.646	$GPGGA,210440,2456.3910,N,08019.6557,W,1,9,2.2,19,M,,M,,*5D
06/20/2015	21:04:40.566	$GPGGA,210441,2456.3911,N,08019.6565,W,1,9,2.4,19,M,,M,,*5A
06/20/2015	21:04:41.566	$GPGGA,210442,2456.3911,N,08019.6573,W,1,8,2.4,18,M,,M,,*5E
06/20/2015	21:04:42.536	$GPGGA,210443,2456.3914,N,08019.6582,W,1,8,2.4,18,M,,M,,*54
06/20/2015	21:04:43.576	$GPGGA,210444,2456.3915,N,08019.6587,W,1,9,2.1,18,M,,M,,*53
06/20/2015	21:04:44.566	$GPGGA,210445,2456.3917,N,08019.6593,W,1,9,2.1,18,M,,M,,*55
06/20/2015	21:04:45.556	$GPGGA,210446,2456.3918,N,08019.6601,W,1,10,2.4,18,M,,M,,*6C
06/20/2015	21:04:46.587	$GPGGA,210447,2456.3918,N,08019.6611,W,1,10,2.4,18,M,,M,,*6C
06/20/2015	21:04:47.565	$GPGGA,210448,2456.3920,N,08019.6618,W,1,9,2.4,18,M,,M,,*59
06/20/2015	21:04:48.555	$GPGGA,210449,2456.3922,N,08019.6624,W,1,9,2.1,18,M,,M,,*50
06/20/2015	21:04:49.565	$GPGGA,210450,2456.3922,N,08019.6633,W,1,10,2.4,18,M,,M,,*63
06/20/2015	21:04:50.545	$GPGGA,210451,2456.3924,N,08019.6640,W,1,10,2.4,18,M,,M,,*60
06/20/2015	21:04:51.546	$GPGGA,210452,2456.3925,N,08019.6649,W,1,9,2.4,18,M,,M,,*53
06/20/2015	21:04:52.546	$GPGGA,210453,2456.3927,N,08019.6658,W,1,9,2.3,18,M,,M,,*57
06/20/2015	21:04:53.946	$GPGGA,210454,2456.3928,N,08019.6665,W,1,9,2.3,18,M,,M,,*51
06/20/2015	21:04:54.536	$GPGGA,210455,2456.3928,N,08019.6665,W,1,9,2.3,18,M,,M,,*50
06/20/2015	21:04:55.566	$GPGGA,210456,2456.3931,N,08019.6680,W,1,10,2.3,17,M,,M,,*67
06/20/2015	21:04:56.526	$GPGGA,210457,2456.3932,N,08019.6687,W,1,10,2.3,17,M,,M,,*62
06/20/2015	21:04:58.593	$GPGGA,210459,2456.3935,N,08019.6705,W,1,9,2.3,17,M,,M,,*58
06/20/2015	21:04:59.636	$GPGGA,210500,2456.3934,N,08019.6712,W,1,9,2.3,17,M,,M,,*52
06/20/2015	21:05:00.516	$GPGGA,210501,2456.3934,N,08019.6712,W,1,9,2.3,17,M,,M,,*53
06/20/2015	21:05:01.526	$GPGGA,210502,2456.3938,N,08019.6728,W,1,9,2.3,17,M,,M,,*55
06/20/2015	21:05:02.556	$GPGGA,210503,2456.3939,N,08019.6735,W,1,9,2.4,17,M,,M,,*5E
06/20/2015	21:05:03.625	$GPGGA,210504,2456.3940,N,08019.6743,W,1,8,2.4,17,M,,M,,*57
06/20/2015	21:05:04.505	$GPGGA,210505,2456.3940,N,08019.6743,W,1,8,2.3,17,M,,M,,*51
06/20/2015	21:05:05.625	$GPGGA,210506,2456.3942,N,08019.6759,W,1,9,2.3,17,M,,M,,*5A
06/20/2015	21:05:06.505	$GPGGA,210507,2456.3942,N,08019.6759,W,1,9,2.3,17,M,,M,,*5B
06/20/2015	21:05:07.545	$GPGGA,210508,2456.3945,N,08019.6774,W,1,10,2.3,17,M,,M,,*64
06/20/2015	21:05:08.605	$GPGGA,210509,2456.3944,N,08019.6782,W,1,10,2.3,17,M,,M,,*6D
06/20/2015	21:05:09.486	$GPGGA,210510,2456.3947,N,08019.6790,W,1,9,2.3,17,M,,M,,*5D
06/20/2015	21:05:10.580	$GPGGA,210511,2456.3949,N,08019.6797,W,1,9,2.3,17,M,,M,,*55
06/20/2015	21:05:11.496	$GPGGA,210512,2456.3948,N,08019.6806,W,1,10,2.1,17,M,,M,,*6A
06/20/2015	21:05:12.506	$GPGGA,210513,2456.3950,N,08019.6814,W,1,10,2.3,16,M,,M,,*62
06/20/2015	21:05:13.596	$GPGGA,210514,2456.3951,N,08019.6821,W,1,9,2.3,16,M,,M,,*5A
06/20/2015	21:05:14.595	$GPGGA,210515,2456.3954,N,08019.6828,W,1,9,2.3,16,M,,M,,*57
06/20/2015	21:05:15.506	$GPGGA,210516,2456.3954,N,08019.6836,W,1,9,2.3,16,M,,M,,*5B
06/20/2015	21:05:16.583	$GPGGA,210517,2456.3958,N,08019.6836,W,1,9,2.4,16,M,,M,,*51
06/20/2015	21:05:17.566	$GPGGA,210518,2456.3961,N,08019.6842,W,1,10,2.1,16,M,,M,,*6A
06/20/2015	21:05:18.566	$GPGGA,210519,2456.3961,N,08019.6850,W,1,10,2.1,16,M,,M,,*68
06/20/2015	21:05:19.580	$GPGGA,210520,2456.3962,N,08019.6860,W,1,9,2.3,16,M,,M,,*58
06/20/2015	21:05:20.556	$GPGGA,210521,2456.3965,N,08019.6868,W,1,9,2.3,16,M,,M,,*56
06/20/2015	21:05:21.605	$GPGGA,210522,2456.3965,N,08019.6875,W,1,9,2.3,16,M,,M,,*59
06/20/2015	21:05:22.565	$GPGGA,210523,2456.3965,N,08019.6884,W,1,9,2.3,16,M,,M,,*56
06/20/2015	21:05:23.580	$GPGGA,210524,2456.3968,N,08019.6890,W,1,9,2.3,16,M,,M,,*59
06/20/2015	21:05:24.565	$GPGGA,210525,2456.3969,N,08019.6900,W,1,9,2.1,16,M,,M,,*53
06/20/2015	21:05:25.545	$GPGGA,210526,2456.3971,N,08019.6908,W,1,9,2.3,16,M,,M,,*53
06/20/2015	21:05:26.556	$GPGGA,210527,2456.3972,N,08019.6915,W,1,9,2.3,16,M,,M,,*5D
06/20/2015	21:05:27.590	$GPGGA,210528,2456.3974,N,08019.6923,W,1,9,2.3,16,M,,M,,*51
06/20/2015	21:05:28.546	$GPGGA,210529,2456.3975,N,08019.6930,W,1,9,2.3,16,M,,M,,*53
06/20/2015	21:05:29.566	$GPGGA,210530,2456.3976,N,08019.6938,W,1,8,2.4,16,M,,M,,*56
06/20/2015	21:05:30.556	$GPGGA,210531,2456.3976,N,08019.6947,W,1,8,2.3,16,M,,M,,*58
06/20/2015	21:05:31.582	$GPGGA,210532,2456.3978,N,08019.6954,W,1,9,2.3,16,M,,M,,*56
06/20/2015	21:05:32.546	$GPGGA,210533,2456.3979,N,08019.6962,W,1,9,2.3,16,M,,M,,*53
06/20/2015	21:05:33.566	$GPGGA,210534,2456.3980,N,08019.6969,W,1,9,2.3,16,M,,M,,*59
06/20/2015	21:05:34.526	$GPGGA,210535,2456.3983,N,08019.6976,W,1,9,2.3,16,M,,M,,*55
06/20/2015	21:05:35.584	$GPGGA,210536,2456.3983,N,08019.6983,W,1,9,2.3,16,M,,M,,*5C
06/20/2015	21:05:36.536	$GPGGA,210537,2456.3985,N,08019.6991,W,1,9,2.3,16,M,,M,,*58
06/20/2015	21:05:37.566	$GPGGA,210538,2456.3987,N,08019.6998,W,1,9,2.3,16,M,,M,,*5C
06/20/2015	21:05:38.535	$GPGGA,210539,2456.3987,N,08019.7006,W,1,9,2.3,16,M,,M,,*52
06/20/2015	21:05:39.565	$GPGGA,210540,2456.3989,N,08019.7014,W,1,9,2.3,16,M,,M,,*51
06/20/2015	21:05:40.525	$GPGGA,210541,2456.3990,N,08019.7023,W,1,9,2.4,16,M,,M,,*5B
06/20/2015	21:05:41.555	$GPGGA,210542,2456.3992,N,08019.7030,W,1,9,2.3,16,M,,M,,*5F
06/20/2015	21:05:42.525	$GPGGA,210543,2456.3994,N,08019.7035,W,1,9,2.1,16,M,,M,,*5F
06/20/2015	21:05:43.565	$GPGGA,210544,2456.3994,N,08019.7043,W,1,9,2.2,16,M,,M,,*5A
06/20/2015	21:05:44.506	$GPGGA,210545,2456.3996,N,08019.7052,W,1,9,2.3,16,M,,M,,*58
06/20/2015	21:05:45.536	$GPGGA,210546,2456.3997,N,08019.7059,W,1,9,2.3,16,M,,M,,*51
06/20/2015	21:05:46.516	$GPGGA,210547,2456.3997,N,08019.7064,W,1,9,2.1,16,M,,M,,*5C
06/20/2015	21:05:47.636	$GPGGA,210548,2456.3998,N,08019.7071,W,1,10,2.1,16,M,,M,,*60
06/20/2015	21:05:48.516	$GPGGA,210549,2456.4001,N,08019.7079,W,1,10,2.1,16,M,,M,,*67
06/20/2015	21:05:49.526	$GPGGA,210550,2456.4001,N,08019.7088,W,1,9,2.3,16,M,,M,,*5B
06/20/2015	21:05:50.496	$GPGGA,210551,2456.4003,N,08019.7095,W,1,9,2.4,16,M,,M,,*53
06/20/2015	21:05:51.546	$GPGGA,210552,2456.4004,N,08019.7103,W,1,10,2.1,16,M,,M,,*64
06/20/2015	21:05:52.526	$GPGGA,210553,2456.4005,N,08019.7110,W,1,10,2.1,16,M,,M,,*66
06/20/2015	21:05:53.587	$GPGGA,210554,2456.4007,N,08019.7117,W,1,8,2.4,16,M,,M,,*58
06/20/2015	21:05:55.616	$GPGGA,210555,2456.4008,N,08019.7120,W,1,8,2.2,16,M,,M,,*54
06/20/2015	21:05:55.646	$GPGGA,210556,2456.4010,N,08019.7126,W,1,9,2.2,16,M,,M,,*59
06/20/2015	21:05:56.495	$GPGGA,210557,2456.4011,N,08019.7133,W,1,9,2.1,16,M,,M,,*5E
06/20/2015	21:05:57.615	$GPGGA,210558,2456.4014,N,08019.7139,W,1,9,2.2,16,M,,M,,*5D
06/20/2015	21:05:58.495	$GPGGA,210559,2456.4016,N,08019.7146,W,1,9,2.1,16,M,,M,,*55
06/20/2015	21:05:59.995	$GPGGA,210600,2456.4016,N,08019.7153,W,1,10,2.1,16,M,,M,,*66
06/20/2015	21:06:00.585	$GPGGA,210601,2456.4018,N,08019.7160,W,1,10,2.1,16,M,,M,,*69
06/20/2015	21:06:01.596	$GPGGA,210602,2456.4019,N,08019.7168,W,1,9,2.2,16,M,,M,,*58
06/20/2015	21:06:02.576	$GPGGA,210603,2456.4018,N,08019.7176,W,1,9,2.1,16,M,,M,,*54
06/20/2015	21:06:03.496	$GPGGA,210604,2456.4021,N,08019.7183,W,1,10,2.1,16,M,,M,,*6B
06/20/2015	21:06:04.576	$GPGGA,210605,2456.4022,N,08019.7191,W,1,10,2.2,16,M,,M,,*69
06/20/2015	21:06:05.577	$GPGGA,210606,2456.4021,N,08019.7198,W,1,10,2.1,16,M,,M,,*63
06/20/2015	21:06:06.566	$GPGGA,210607,2456.4022,N,08019.7207,W,1,10,2.1,16,M,,M,,*64
06/20/2015	21:06:07.586	$GPGGA,210608,2456.4023,N,08019.7215,W,1,10,2.1,16,M,,M,,*69
06/20/2015	21:06:08.580	$GPGGA,210609,2456.4023,N,08019.7223,W,1,10,2.1,16,M,,M,,*6D
06/20/2015	21:06:09.578	$GPGGA,210610,2456.4025,N,08019.7230,W,1,10,2.1,16,M,,M,,*61
06/20/2015	21:06:10.566	$GPGGA,210611,2456.4026,N,08019.7238,W,1,10,2.1,16,M,,M,,*6B
06/20/2015	21:06:11.588	$GPGGA,210612,2456.4026,N,08019.7245,W,1,10,2.1,16,M,,M,,*62
06/20/2015	21:06:12.566	$GPGGA,210613,2456.4026,N,08019.7254,W,1,10,2.1,16,M,,M,,*63
06/20/2015	21:06:13.565	$GPGGA,210614,2456.4026,N,08019.7262,W,1,10,2.1,16,M,,M,,*61
06/20/2015	21:06:14.555	$GPGGA,210615,2456.4027,N,08019.7269,W,1,10,2.1,16,M,,M,,*6A
06/20/2015	21:06:15.605	$GPGGA,210616,2456.4027,N,08019.7276,W,1,10,2.1,16,M,,M,,*67
06/20/2015	21:06:16.555	$GPGGA,210617,2456.4027,N,08019.7283,W,1,10,2.1,16,M,,M,,*6C
06/20/2015	21:06:17.575	$GPGGA,210618,2456.4029,N,08019.7290,W,1,10,2.1,16,M,,M,,*6F
06/20/2015	21:06:18.555	$GPGGA,210619,2456.4028,N,08019.7298,W,1,10,2.1,16,M,,M,,*67
06/20/2015	21:06:19.580	$GPGGA,210620,2456.4029,N,08019.7308,W,1,10,2.1,16,M,,M,,*64
06/20/2015	21:06:20.546	$GPGGA,210621,2456.4028,N,08019.7319,W,1,10,2.3,16,M,,M,,*66
06/20/2015	21:06:21.556	$GPGGA,210622,2456.4027,N,08019.7327,W,1,10,2.1,16,M,,M,,*65
06/20/2015	21:06:22.546	$GPGGA,210623,2456.4029,N,08019.7332,W,1,10,2.3,16,M,,M,,*6C
06/20/2015	21:06:23.576	$GPGGA,210624,2456.4028,N,08019.7341,W,1,10,2.1,16,M,,M,,*6C
06/20/2015	21:06:24.536	$GPGGA,210625,2456.4029,N,08019.7350,W,1,10,2.3,16,M,,M,,*6E
06/20/2015	21:06:25.566	$GPGGA,210626,2456.4027,N,08019.7356,W,1,9,2.3,15,M,,M,,*5E
06/20/2015	21:06:26.526	$GPGGA,210627,2456.4027,N,08019.7363,W,1,9,2.1,15,M,,M,,*5B
06/20/2015	21:06:27.577	$GPGGA,210628,2456.4027,N,08019.7370,W,1,10,2.1,15,M,,M,,*6E
06/20/2015	21:06:28.526	$GPGGA,210629,2456.4027,N,08019.7377,W,1,10,2.1,15,M,,M,,*68
06/20/2015	21:06:29.516	$GPGGA,210630,2456.4026,N,08019.7382,W,1,10,2.1,15,M,,M,,*6B
06/20/2015	21:06:30.526	$GPGGA,210631,2456.4026,N,08019.7389,W,1,10,2.1,15,M,,M,,*61
06/20/2015	21:06:31.525	$GPGGA,210632,2456.4026,N,08019.7395,W,1,9,2.2,15,M,,M,,*54
06/20/2015	21:06:32.525	$GPGGA,210633,2456.4025,N,08019.7402,W,1,9,2.2,15,M,,M,,*5F
06/20/2015	21:06:33.535	$GPGGA,210634,2456.4026,N,08019.7410,W,1,9,2.2,15,M,,M,,*58
06/20/2015	21:06:34.535	$GPGGA,210635,2456.4024,N,08019.7417,W,1,9,2.1,15,M,,M,,*5F
06/20/2015	21:06:35.525	$GPGGA,210636,2456.4025,N,08019.7422,W,1,9,2.2,15,M,,M,,*58
06/20/2015	21:06:36.506	$GPGGA,210637,2456.4023,N,08019.7429,W,1,9,2.2,14,M,,M,,*55
06/20/2015	21:06:37.496	$GPGGA,210638,2456.4025,N,08019.7438,W,1,9,2.2,14,M,,M,,*5C
06/20/2015	21:06:38.516	$GPGGA,210639,2456.4023,N,08019.7444,W,1,9,2.2,14,M,,M,,*50
06/20/2015	21:06:39.526	$GPGGA,210640,2456.4021,N,08019.7450,W,1,10,2.1,14,M,,M,,*62
06/20/2015	21:06:40.506	$GPGGA,210641,2456.4022,N,08019.7457,W,1,10,2.2,14,M,,M,,*64
06/20/2015	21:06:41.496	$GPGGA,210642,2456.4021,N,08019.7464,W,1,9,2.2,14,M,,M,,*5C
06/20/2015	21:06:42.596	$GPGGA,210643,2456.4020,N,08019.7471,W,1,9,2.1,14,M,,M,,*5B
06/20/2015	21:06:43.626	$GPGGA,210644,2456.4018,N,08019.7478,W,1,10,2.1,13,M,,M,,*61
06/20/2015	21:06:45.516	$GPGGA,210646,2456.4017,N,08019.7491,W,1,9,2.2,13,M,,M,,*50
06/20/2015	21:06:46.497	$GPGGA,210647,2456.4016,N,08019.7498,W,1,9,2.2,13,M,,M,,*59
06/20/2015	21:06:47.496	$GPGGA,210648,2456.4018,N,08019.7504,W,1,8,2.3,13,M,,M,,*5C
06/20/2015	21:06:48.587	$GPGGA,210649,2456.4016,N,08019.7511,W,1,8,2.2,13,M,,M,,*56
06/20/2015	21:06:49.491	$GPGGA,210650,2456.4016,N,08019.7518,W,1,8,2.8,13,M,,M,,*5D
06/20/2015	21:06:50.591	$GPGGA,210651,2456.4016,N,08019.7525,W,1,8,2.8,13,M,,M,,*52
06/20/2015	21:06:51.495	$GPGGA,210652,2456.4012,N,08019.7529,W,1,9,2.4,13,M,,M,,*54
06/20/2015	21:06:52.489	$GPGGA,210653,2456.4012,N,08019.7536,W,1,9,2.4,13,M,,M,,*5B
06/20/2015	21:06:53.605	$GPGGA,210654,2456.4012,N,08019.7543,W,1,9,2.4,13,M,,M,,*5E
06/20/2015	21:06:54.487	$GPGGA,210655,2456.4008,N,08019.7548,W,1,9,2.8,13,M,,M,,*53
06/20/2015	21:06:55.582	$GPGGA,210656,2456.4006,N,08019.7555,W,1,9,2.4,13,M,,M,,*5E
06/20/2015	21:06:56.580	$GPGGA,210657,2456.4005,N,08019.7562,W,1,9,2.1,13,M,,M,,*5D
06/20/2015	21:06:57.891	$GPGGA,210658,2456.4003,N,08019.7569,W,1,9,2.4,13,M,,M,,*5A
06/20/2015	21:06:58.556	$GPGGA,210659,2456.4001,N,08019.7576,W,1,9,2.4,14,M,,M,,*50
06/20/2015	21:07:00.054	$GPGGA,210700,2456.3999,N,08019.7581,W,1,9,2.4,14,M,,M,,*5A
06/20/2015	21:07:00.566	$GPGGA,210701,2456.3998,N,08019.7590,W,1,9,2.4,14,M,,M,,*5A
06/20/2015	21:07:01.592	$GPGGA,210702,2456.3996,N,08019.7595,W,1,10,2.1,14,M,,M,,*6F
06/20/2015	21:07:02.556	$GPGGA,210703,2456.3994,N,08019.7601,W,1,10,2.1,14,M,,M,,*62
06/20/2015	21:07:03.582	$GPGGA,210704,2456.3991,N,08019.7608,W,1,8,2.5,14,M,,M,,*54
06/20/2015	21:07:04.546	$GPGGA,210705,2456.3989,N,08019.7616,W,1,8,2.4,15,M,,M,,*53
06/20/2015	21:07:05.546	$GPGGA,210706,2456.3987,N,08019.7621,W,1,9,2.4,15,M,,M,,*5B
06/20/2015	21:07:06.555	$GPGGA,210707,2456.3984,N,08019.7627,W,1,9,2.4,15,M,,M,,*5F
06/20/2015	21:07:07.575	$GPGGA,210708,2456.3983,N,08019.7635,W,1,9,2.4,15,M,,M,,*54
06/20/2015	21:07:08.535	$GPGGA,210709,2456.3980,N,08019.7641,W,1,9,2.4,15,M,,M,,*55
06/20/2015	21:07:09.555	$GPGGA,210710,2456.3978,N,08019.7648,W,1,9,2.4,15,M,,M,,*53
06/20/2015	21:07:10.535	$GPGGA,210711,2456.3976,N,08019.7653,W,1,9,2.5,15,M,,M,,*57
06/20/2015	21:07:11.556	$GPGGA,210712,2456.3973,N,08019.7660,W,1,9,2.2,16,M,,M,,*55
06/20/2015	21:07:12.536	$GPGGA,210713,2456.3969,N,08019.7666,W,1,9,2.4,16,M,,M,,*5F
06/20/2015	21:07:13.536	$GPGGA,210714,2456.3967,N,08019.7673,W,1,10,2.1,16,M,,M,,*6F
06/20/2015	21:07:14.546	$GPGGA,210715,2456.3966,N,08019.7680,W,1,10,2.5,16,M,,M,,*67
06/20/2015	21:07:15.556	$GPGGA,210716,2456.3967,N,08019.7688,W,1,10,2.1,16,M,,M,,*69
06/20/2015	21:07:16.536	$GPGGA,210717,2456.3965,N,08019.7695,W,1,10,2.1,16,M,,M,,*66
06/20/2015	21:07:17.516	$GPGGA,210718,2456.3962,N,08019.7700,W,1,9,2.4,17,M,,M,,*5F
06/20/2015	21:07:18.526	$GPGGA,210719,2456.3960,N,08019.7706,W,1,9,2.7,17,M,,M,,*59
06/20/2015	21:07:19.526	$GPGGA,210720,2456.3959,N,08019.7713,W,1,9,2.2,17,M,,M,,*58
06/20/2015	21:07:20.526	$GPGGA,210721,2456.3958,N,08019.7720,W,1,9,2.1,17,M,,M,,*5B
06/20/2015	21:07:21.526	$GPGGA,210722,2456.3955,N,08019.7725,W,1,9,2.2,17,M,,M,,*53
06/20/2015	21:07:22.506	$GPGGA,210723,2456.3954,N,08019.7732,W,1,9,2.7,17,M,,M,,*50
06/20/2015	21:07:23.535	$GPGGA,210724,2456.3954,N,08019.7739,W,1,8,2.7,17,M,,M,,*5D
06/20/2015	21:07:24.525	$GPGGA,210725,2456.3951,N,08019.7746,W,1,8,2.2,17,M,,M,,*54
06/20/2015	21:07:25.535	$GPGGA,210726,2456.3949,N,08019.7753,W,1,9,2.2,17,M,,M,,*5B
06/20/2015	21:07:26.505	$GPGGA,210727,2456.3948,N,08019.7758,W,1,9,2.5,17,M,,M,,*57
06/20/2015	21:07:27.525	$GPGGA,210728,2456.3947,N,08019.7764,W,1,10,2.1,17,M,,M,,*64
06/20/2015	21:07:28.495	$GPGGA,210729,2456.3942,N,08019.7771,W,1,10,2.1,17,M,,M,,*64
06/20/2015	21:07:29.516	$GPGGA,210730,2456.3941,N,08019.7776,W,1,9,2.2,17,M,,M,,*53
06/20/2015	21:07:30.516	$GPGGA,210731,2456.3940,N,08019.7783,W,1,9,2.2,18,M,,M,,*56
06/20/2015	21:07:31.616	$GPGGA,210732,2456.3938,N,08019.7790,W,1,10,2.1,18,M,,M,,*63
06/20/2015	21:07:32.506	$GPGGA,210733,2456.3936,N,08019.7796,W,1,10,2.2,18,M,,M,,*69
06/20/2015	21:07:33.506	$GPGGA,210734,2456.3936,N,08019.7803,W,1,9,2.2,18,M,,M,,*55
06/20/2015	21:07:34.491	$GPGGA,210735,2456.3936,N,08019.7811,W,1,9,2.1,18,M,,M,,*54
06/20/2015	21:07:35.506	$GPGGA,210736,2456.3934,N,08019.7816,W,1,10,2.1,18,M,,M,,*6A
06/20/2015	21:07:36.592	$GPGGA,210737,2456.3935,N,08019.7823,W,1,10,2.1,19,M,,M,,*6D
06/20/2015	21:07:37.596	$GPGGA,210738,2456.3932,N,08019.7832,W,1,10,2.1,19,M,,M,,*65
06/20/2015	21:07:38.588	$GPGGA,210739,2456.3931,N,08019.7839,W,1,10,2.1,19,M,,M,,*6C
06/20/2015	21:07:39.616	$GPGGA,210740,2456.3932,N,08019.7844,W,1,9,2.2,19,M,,M,,*50
06/20/2015	21:07:40.577	$GPGGA,210741,2456.3930,N,08019.7851,W,1,9,2.2,19,M,,M,,*57
06/20/2015	21:07:41.605	$GPGGA,210742,2456.3929,N,08019.7859,W,1,9,2.2,19,M,,M,,*54
06/20/2015	21:07:42.579	$GPGGA,210743,2456.3927,N,08019.7866,W,1,9,2.1,20,M,,M,,*5E
06/20/2015	21:07:43.575	$GPGGA,210744,2456.3928,N,08019.7873,W,1,9,2.2,20,M,,M,,*51
06/20/2015	21:07:44.878	$GPGGA,210745,2456.3926,N,08019.7880,W,1,9,2.7,20,M,,M,,*57
06/20/2015	21:07:45.595	$GPGGA,210746,2456.3925,N,08019.7887,W,1,10,2.1,20,M,,M,,*6E
06/20/2015	21:07:46.567	$GPGGA,210747,2456.3923,N,08019.7894,W,1,10,2.1,20,M,,M,,*6B
06/20/2015	21:07:47.606	$GPGGA,210748,2456.3924,N,08019.7901,W,1,10,2.1,20,M,,M,,*6E
06/20/2015	21:07:48.566	$GPGGA,210749,2456.3922,N,08019.7906,W,1,10,2.4,20,M,,M,,*6B
06/20/2015	21:07:49.556	$GPGGA,210750,2456.3922,N,08019.7915,W,1,10,2.1,20,M,,M,,*64
06/20/2015	21:07:50.566	$GPGGA,210751,2456.3920,N,08019.7923,W,1,10,2.1,20,M,,M,,*62
06/20/2015	21:07:51.596	$GPGGA,210752,2456.3921,N,08019.7930,W,1,10,2.1,20,M,,M,,*62
06/20/2015	21:07:52.557	$GPGGA,210753,2456.3919,N,08019.7937,W,1,10,2.1,20,M,,M,,*6F
06/20/2015	21:07:53.588	$GPGGA,210754,2456.3918,N,08019.7944,W,1,10,2.1,21,M,,M,,*6C
06/20/2015	21:07:54.546	$GPGGA,210755,2456.3918,N,08019.7951,W,1,10,2.1,21,M,,M,,*69
06/20/2015	21:07:55.596	$GPGGA,210756,2456.3918,N,08019.7959,W,1,10,2.1,21,M,,M,,*62
06/20/2015	21:07:56.546	$GPGGA,210757,2456.3918,N,08019.7966,W,1,10,2.1,21,M,,M,,*6F
06/20/2015	21:07:57.536	$GPGGA,210758,2456.3918,N,08019.7970,W,1,9,2.3,21,M,,M,,*5D
06/20/2015	21:07:58.545	$GPGGA,210759,2456.3916,N,08019.7977,W,1,9,2.1,21,M,,M,,*57
06/20/2015	21:07:59.635	$GPGGA,210800,2456.3917,N,08019.7984,W,1,10,2.1,21,M,,M,,*61
06/20/2015	21:08:00.545	$GPGGA,210801,2456.3916,N,08019.7991,W,1,10,2.1,21,M,,M,,*65
06/20/2015	21:08:01.555	$GPGGA,210802,2456.3915,N,08019.7998,W,1,10,2.1,21,M,,M,,*6C
06/20/2015	21:08:02.525	$GPGGA,210803,2456.3914,N,08019.8003,W,1,10,2.1,21,M,,M,,*68
06/20/2015	21:08:03.585	$GPGGA,210804,2456.3914,N,08019.8009,W,1,10,2.1,21,M,,M,,*65
06/20/2015	21:08:04.536	$GPGGA,210805,2456.3914,N,08019.8017,W,1,10,2.1,21,M,,M,,*6B
06/20/2015	21:08:05.556	$GPGGA,210806,2456.3913,N,08019.8024,W,1,10,2.1,21,M,,M,,*6F
06/20/2015	21:08:06.536	$GPGGA,210807,2456.3912,N,08019.8029,W,1,10,2.1,21,M,,M,,*62
06/20/2015	21:08:07.546	$GPGGA,210808,2456.3911,N,08019.8035,W,1,10,2.1,21,M,,M,,*63
06/20/2015	21:08:08.516	$GPGGA,210809,2456.3913,N,08019.8042,W,1,10,2.1,21,M,,M,,*60
06/20/2015	21:08:09.526	$GPGGA,210810,2456.3911,N,08019.8050,W,1,10,2.1,21,M,,M,,*69
06/20/2015	21:08:10.526	$GPGGA,210811,2456.3909,N,08019.8057,W,1,10,2.1,21,M,,M,,*66
06/20/2015	21:08:11.546	$GPGGA,210812,2456.3910,N,08019.8065,W,1,8,2.3,21,M,,M,,*57
06/20/2015	21:08:12.516	$GPGGA,210813,2456.3909,N,08019.8074,W,1,8,2.2,21,M,,M,,*5F
06/20/2015	21:08:13.516	$GPGGA,210814,2456.3907,N,08019.8082,W,1,9,2.2,21,M,,M,,*5E
06/20/2015	21:08:14.506	$GPGGA,210815,2456.3906,N,08019.8089,W,1,9,2.1,21,M,,M,,*56
06/20/2015	21:08:15.526	$GPGGA,210816,2456.3905,N,08019.8096,W,1,9,2.2,21,M,,M,,*5B
06/20/2015	21:08:16.515	$GPGGA,210817,2456.3906,N,08019.8103,W,1,9,2.3,21,M,,M,,*55
06/20/2015	21:08:17.625	$GPGGA,210818,2456.3904,N,08019.8111,W,1,9,2.3,21,M,,M,,*5B
06/20/2015	21:08:18.497	$GPGGA,210819,2456.3902,N,08019.8119,W,1,9,2.3,21,M,,M,,*54
06/20/2015	21:08:19.525	$GPGGA,210820,2456.3903,N,08019.8126,W,1,10,2.1,21,M,,M,,*69
06/20/2015	21:08:20.495	$GPGGA,210821,2456.3901,N,08019.8134,W,1,10,2.2,20,M,,M,,*6B
06/20/2015	21:08:21.496	$GPGGA,210822,2456.3900,N,08019.8143,W,1,9,2.2,20,M,,M,,*51
06/20/2015	21:08:22.596	$GPGGA,210823,2456.3898,N,08019.8151,W,1,9,2.1,20,M,,M,,*50
06/20/2015	21:08:23.496	$GPGGA,210824,2456.3899,N,08019.8158,W,1,9,2.1,20,M,,M,,*5F
06/20/2015	21:08:24.496	$GPGGA,210825,2456.3896,N,08019.8166,W,1,9,2.1,20,M,,M,,*5C
06/20/2015	21:08:25.616	$GPGGA,210826,2456.3895,N,08019.8173,W,1,9,2.3,19,M,,M,,*50
06/20/2015	21:08:26.496	$GPGGA,210827,2456.3896,N,08019.8180,W,1,9,2.3,19,M,,M,,*5E
06/20/2015	21:08:27.616	$GPGGA,210828,2456.3896,N,08019.8188,W,1,9,2.1,19,M,,M,,*5B
06/20/2015	21:08:28.496	$GPGGA,210829,2456.3896,N,08019.8194,W,1,9,2.1,19,M,,M,,*57
06/20/2015	21:08:29.588	$GPGGA,210830,2456.3896,N,08019.8201,W,1,10,2.1,19,M,,M,,*68
06/20/2015	21:08:30.579	$GPGGA,210831,2456.3896,N,08019.8208,W,1,10,2.1,19,M,,M,,*60
06/20/2015	21:08:31.606	$GPGGA,210832,2456.3896,N,08019.8215,W,1,9,2.1,19,M,,M,,*57
06/20/2015	21:08:32.577	$GPGGA,210833,2456.3895,N,08019.8222,W,1,9,2.1,19,M,,M,,*51
06/20/2015	21:08:33.575	$GPGGA,210834,2456.3894,N,08019.8228,W,1,10,2.1,19,M,,M,,*65
06/20/2015	21:08:34.581	$GPGGA,210835,2456.3893,N,08019.8235,W,1,10,2.4,19,M,,M,,*6A
06/20/2015	21:08:35.615	$GPGGA,210836,2456.3893,N,08019.8242,W,1,9,2.7,19,M,,M,,*52
06/20/2015	21:08:36.565	$GPGGA,210837,2456.3891,N,08019.8249,W,1,9,2.1,19,M,,M,,*5C
06/20/2015	21:08:37.595	$GPGGA,210838,2456.3889,N,08019.8256,W,1,10,2.4,19,M,,M,,*69
06/20/2015	21:08:38.555	$GPGGA,210839,2456.3889,N,08019.8263,W,1,10,2.4,19,M,,M,,*6E
06/20/2015	21:08:39.606	$GPGGA,210840,2456.3886,N,08019.8270,W,1,9,2.4,19,M,,M,,*55
06/20/2015	21:08:40.566	$GPGGA,210841,2456.3884,N,08019.8277,W,1,9,2.4,19,M,,M,,*51
06/20/2015	21:08:41.578	$GPGGA,210842,2456.3882,N,08019.8284,W,1,9,2.1,19,M,,M,,*5D
06/20/2015	21:08:42.556	$GPGGA,210843,2456.3882,N,08019.8291,W,1,9,2.1,19,M,,M,,*58
06/20/2015	21:08:43.579	$GPGGA,210844,2456.3879,N,08019.8298,W,1,10,2.4,19,M,,M,,*6F
06/20/2015	21:08:45.590	$GPGGA,210846,2456.3876,N,08019.8311,W,1,8,2.4,19,M,,M,,*5B
06/20/2015	21:08:46.546	$GPGGA,210847,2456.3875,N,08019.8318,W,1,8,2.7,19,M,,M,,*53
06/20/2015	21:08:47.616	$GPGGA,210848,2456.3871,N,08019.8325,W,1,8,2.1,19,M,,M,,*50
06/20/2015	21:08:48.536	$GPGGA,210849,2456.3871,N,08019.8332,W,1,8,2.1,20,M,,M,,*5D
06/20/2015	21:08:49.536	$GPGGA,210850,2456.3869,N,08019.8339,W,1,10,2.4,20,M,,M,,*6B
06/20/2015	21:08:50.536	$GPGGA,210851,2456.3866,N,08019.8345,W,1,10,2.4,20,M,,M,,*6E
06/20/2015	21:08:51.565	$GPGGA,210852,2456.3865,N,08019.8353,W,1,9,2.7,20,M,,M,,*52
06/20/2015	21:08:52.535	$GPGGA,210853,2456.3862,N,08019.8358,W,1,9,2.1,20,M,,M,,*59
06/20/2015	21:08:53.525	$GPGGA,210854,2456.3860,N,08019.8365,W,1,9,2.4,20,M,,M,,*57
06/20/2015	21:08:54.535	$GPGGA,210855,2456.3858,N,08019.8372,W,1,9,2.4,20,M,,M,,*5B
06/20/2015	21:08:55.535	$GPGGA,210856,2456.3857,N,08019.8378,W,1,9,2.4,20,M,,M,,*5D
06/20/2015	21:08:56.526	$GPGGA,210857,2456.3854,N,08019.8385,W,1,9,2.7,20,M,,M,,*5E
06/20/2015	21:08:57.557	$GPGGA,210858,2456.3850,N,08019.8390,W,1,8,2.1,20,M,,M,,*56
06/20/2015	21:08:58.526	$GPGGA,210859,2456.3849,N,08019.8396,W,1,8,2.7,20,M,,M,,*5F
06/20/2015	21:08:59.616	$GPGGA,210900,2456.3847,N,08019.8404,W,1,8,2.7,20,M,,M,,*50
06/20/2015	21:09:00.516	$GPGGA,210901,2456.3846,N,08019.8411,W,1,8,2.7,20,M,,M,,*54
06/20/2015	21:09:01.536	$GPGGA,210902,2456.3844,N,08019.8418,W,1,8,2.7,20,M,,M,,*5C
06/20/2015	21:09:02.536	$GPGGA,210903,2456.3843,N,08019.8425,W,1,8,2.4,20,M,,M,,*57
06/20/2015	21:09:03.636	$GPGGA,210904,2456.3842,N,08019.8432,W,1,9,2.4,19,M,,M,,*5C
06/20/2015	21:09:04.526	$GPGGA,210905,2456.3839,N,08019.8439,W,1,9,2.7,19,M,,M,,*59
06/20/2015	21:09:05.616	$GPGGA,210906,2456.3839,N,08019.8444,W,1,8,2.7,19,M,,M,,*51
06/20/2015	21:09:06.536	$GPGGA,210907,2456.3836,N,08019.8451,W,1,8,2.4,19,M,,M,,*58
06/20/2015	21:09:07.616	$GPGGA,210908,2456.3835,N,08019.8458,W,1,9,2.7,19,M,,M,,*5F
06/20/2015	21:09:08.515	$GPGGA,210909,2456.3833,N,08019.8465,W,1,9,2.4,19,M,,M,,*55
06/20/2015	21:09:09.495	$GPGGA,210910,2456.3830,N,08019.8470,W,1,9,2.1,19,M,,M,,*5F
06/20/2015	21:09:10.485	$GPGGA,210911,2456.3829,N,08019.8477,W,1,9,2.1,19,M,,M,,*51
06/20/2015	21:09:11.582	$GPGGA,210912,2456.3828,N,08019.8484,W,1,10,2.1,19,M,,M,,*67
06/20/2015	21:09:12.595	$GPGGA,210913,2456.3826,N,08019.8491,W,1,10,2.1,19,M,,M,,*6C
06/20/2015	21:09:13.505	$GPGGA,210914,2456.3825,N,08019.8497,W,1,10,2.1,19,M,,M,,*6E
06/20/2015	21:09:14.581	$GPGGA,210915,2456.3824,N,08019.8504,W,1,10,2.1,19,M,,M,,*65
06/20/2015	21:09:15.505	$GPGGA,210916,2456.3822,N,08019.8511,W,1,9,2.1,19,M,,M,,*5C
06/20/2015	21:09:16.575	$GPGGA,210917,2456.3820,N,08019.8517,W,1,9,2.1,19,M,,M,,*59
06/20/2015	21:09:17.585	$GPGGA,210918,2456.3820,N,08019.8524,W,1,10,2.1,19,M,,M,,*6E
06/20/2015	21:09:18.580	$GPGGA,210919,2456.3819,N,08019.8531,W,1,10,2.1,19,M,,M,,*61
06/20/2015	21:09:19.495	$GPGGA,210920,2456.3817,N,08019.8537,W,1,10,2.3,19,M,,M,,*61
06/20/2015	21:09:20.568	$GPGGA,210921,2456.3817,N,08019.8544,W,1,10,2.3,19,M,,M,,*64
06/20/2015	21:09:21.565	$GPGGA,210922,2456.3817,N,08019.8551,W,1,9,2.7,19,M,,M,,*5F
06/20/2015	21:09:22.569	$GPGGA,210923,2456.3815,N,08019.8558,W,1,9,2.7,19,M,,M,,*55
06/20/2015	21:09:23.575	$GPGGA,210924,2456.3816,N,08019.8566,W,1,9,2.3,19,M,,M,,*58
06/20/2015	21:09:24.576	$GPGGA,210925,2456.3814,N,08019.8569,W,1,9,2.3,19,M,,M,,*54
06/20/2015	21:09:25.556	$GPGGA,210926,2456.3812,N,08019.8576,W,1,10,2.1,19,M,,M,,*65
06/20/2015	21:09:26.545	$GPGGA,210927,2456.3811,N,08019.8580,W,1,10,2.1,19,M,,M,,*6E
06/20/2015	21:09:27.569	$GPGGA,210928,2456.3810,N,08019.8585,W,1,10,2.1,19,M,,M,,*65
06/20/2015	21:09:28.545	$GPGGA,210929,2456.3810,N,08019.8592,W,1,10,2.1,19,M,,M,,*62
06/20/2015	21:09:29.545	$GPGGA,210930,2456.3810,N,08019.8599,W,1,10,2.1,19,M,,M,,*61
06/20/2015	21:09:30.555	$GPGGA,210931,2456.3808,N,08019.8606,W,1,10,2.1,20,M,,M,,*66
06/20/2015	21:09:31.576	$GPGGA,210932,2456.3806,N,08019.8614,W,1,10,2.1,20,M,,M,,*68
06/20/2015	21:09:32.535	$GPGGA,210933,2456.3806,N,08019.8623,W,1,10,2.3,20,M,,M,,*6F
06/20/2015	21:09:33.566	$GPGGA,210934,2456.3806,N,08019.8629,W,1,10,2.1,20,M,,M,,*60
06/20/2015	21:09:34.545	$GPGGA,210935,2456.3804,N,08019.8638,W,1,10,2.2,20,M,,M,,*60
06/20/2015	21:09:35.568	$GPGGA,210936,2456.3805,N,08019.8642,W,1,9,2.2,20,M,,M,,*57
06/20/2015	21:09:36.525	$GPGGA,210937,2456.3804,N,08019.8649,W,1,9,2.1,21,M,,M,,*5E
06/20/2015	21:09:37.525	$GPGGA,210938,2456.3803,N,08019.8657,W,1,10,2.1,21,M,,M,,*61
06/20/2015	21:09:38.535	$GPGGA,210939,2456.3803,N,08019.8664,W,1,10,2.1,21,M,,M,,*60
06/20/2015	21:09:39.535	$GPGGA,210940,2456.3802,N,08019.8671,W,1,10,2.1,21,M,,M,,*6B
06/20/2015	21:09:40.535	$GPGGA,210941,2456.3802,N,08019.8678,W,1,10,2.1,21,M,,M,,*63
06/20/2015	21:09:41.556	$GPGGA,210942,2456.3801,N,08019.8688,W,1,10,2.1,21,M,,M,,*6C
06/20/2015	21:09:42.536	$GPGGA,210943,2456.3802,N,08019.8692,W,1,10,2.2,22,M,,M,,*65
06/20/2015	21:09:43.555	$GPGGA,210944,2456.3801,N,08019.8697,W,1,10,2.1,22,M,,M,,*67
06/20/2015	21:09:44.515	$GPGGA,210945,2456.3802,N,08019.8703,W,1,10,2.1,22,M,,M,,*69
06/20/2015	21:09:45.545	$GPGGA,210946,2456.3800,N,08019.8714,W,1,10,2.1,22,M,,M,,*6E
06/20/2015	21:09:46.525	$GPGGA,210947,2456.3799,N,08019.8723,W,1,10,2.2,22,M,,M,,*67
06/20/2015	21:09:47.645	$GPGGA,210948,2456.3799,N,08019.8733,W,1,9,2.2,22,M,,M,,*51
06/20/2015	21:09:48.505	$GPGGA,210949,2456.3799,N,08019.8743,W,1,9,2.1,22,M,,M,,*54
06/20/2015	21:09:49.505	$GPGGA,210950,2456.3796,N,08019.8754,W,1,10,2.1,22,M,,M,,*6D
06/20/2015	21:09:50.615	$GPGGA,210951,2456.3795,N,08019.8761,W,1,10,2.1,22,M,,M,,*69
06/20/2015	21:09:51.535	$GPGGA,210952,2456.3794,N,08019.8770,W,1,9,2.2,22,M,,M,,*50
06/20/2015	21:09:52.495	$GPGGA,210953,2456.3795,N,08019.8776,W,1,9,2.2,22,M,,M,,*56
06/20/2015	21:09:53.485	$GPGGA,210954,2456.3793,N,08019.8783,W,1,10,2.1,22,M,,M,,*66
06/20/2015	21:09:54.505	$GPGGA,210955,2456.3792,N,08019.8793,W,1,10,2.1,22,M,,M,,*67
06/20/2015	21:09:55.535	$GPGGA,210956,2456.3792,N,08019.8801,W,1,9,2.1,22,M,,M,,*58
06/20/2015	21:09:56.505	$GPGGA,210957,2456.3790,N,08019.8808,W,1,9,2.3,21,M,,M,,*53
06/20/2015	21:09:57.635	$GPGGA,210958,2456.3791,N,08019.8815,W,1,9,2.2,21,M,,M,,*50
06/20/2015	21:09:58.495	$GPGGA,210959,2456.3789,N,08019.8822,W,1,9,2.1,21,M,,M,,*5F
06/20/2015	21:09:59.596	$GPGGA,211000,2456.3788,N,08019.8830,W,1,8,2.3,21,M,,M,,*5A
06/20/2015	21:10:00.486	$GPGGA,211001,2456.3785,N,08019.8840,W,1,8,2.2,21,M,,M,,*50
06/20/2015	21:10:02.605	$GPGGA,211003,2456.3785,N,08019.8855,W,1,9,2.1,21,M,,M,,*54
06/20/2015	21:10:03.585	$GPGGA,211004,2456.3784,N,08019.8862,W,1,9,2.1,20,M,,M,,*57
06/20/2015	21:10:04.485	$GPGGA,211005,2456.3783,N,08019.8867,W,1,9,2.1,20,M,,M,,*54
06/20/2015	21:10:05.575	$GPGGA,211006,2456.3784,N,08019.8876,W,1,9,2.1,20,M,,M,,*50
06/20/2015	21:10:06.568	$GPGGA,211007,2456.3783,N,08019.8883,W,1,9,2.1,20,M,,M,,*5C
06/20/2015	21:10:07.585	$GPGGA,211008,2456.3782,N,08019.8891,W,1,9,2.1,20,M,,M,,*51
06/20/2015	21:10:08.565	$GPGGA,211009,2456.3781,N,08019.8898,W,1,9,2.2,20,M,,M,,*59
06/20/2015	21:10:09.568	$GPGGA,211010,2456.3781,N,08019.8905,W,1,10,2.1,20,M,,M,,*6F
06/20/2015	21:10:10.567	$GPGGA,211011,2456.3779,N,08019.8913,W,1,10,2.1,20,M,,M,,*6E
06/20/2015	21:10:11.582	$GPGGA,211012,2456.3778,N,08019.8920,W,1,10,2.1,20,M,,M,,*6C
06/20/2015	21:10:12.566	$GPGGA,211013,2456.3777,N,08019.8927,W,1,10,2.1,20,M,,M,,*65
06/20/2015	21:10:13.567	$GPGGA,211014,2456.3775,N,08019.8934,W,1,10,2.1,20,M,,M,,*62
06/20/2015	21:10:14.555	$GPGGA,211015,2456.3774,N,08019.8941,W,1,10,2.1,20,M,,M,,*60
06/20/2015	21:10:15.605	$GPGGA,211016,2456.3773,N,08019.8949,W,1,10,2.1,19,M,,M,,*66
06/20/2015	21:10:16.556	$GPGGA,211017,2456.3772,N,08019.8956,W,1,10,2.1,19,M,,M,,*68
06/20/2015	21:10:17.536	$GPGGA,211018,2456.3770,N,08019.8963,W,1,10,2.1,19,M,,M,,*63
06/20/2015	21:10:18.555	$GPGGA,211019,2456.3768,N,08019.8970,W,1,10,2.1,19,M,,M,,*69
06/20/2015	21:10:19.585	$GPGGA,211020,2456.3769,N,08019.8978,W,1,9,2.4,19,M,,M,,*57
06/20/2015	21:10:20.546	$GPGGA,211021,2456.3767,N,08019.8985,W,1,9,2.1,19,M,,M,,*5F
06/20/2015	21:10:21.555	$GPGGA,211022,2456.3764,N,08019.8990,W,1,9,2.1,19,M,,M,,*5B
06/20/2015	21:10:22.535	$GPGGA,211023,2456.3763,N,08019.8997,W,1,9,2.1,19,M,,M,,*5A
06/20/2015	21:10:23.535	$GPGGA,211024,2456.3760,N,08019.9003,W,1,10,2.1,19,M,,M,,*63
06/20/2015	21:10:24.525	$GPGGA,211025,2456.3759,N,08019.9010,W,1,10,2.1,19,M,,M,,*6A
06/20/2015	21:10:25.545	$GPGGA,211026,2456.3757,N,08019.9017,W,1,10,2.1,19,M,,M,,*60
06/20/2015	21:10:26.535	$GPGGA,211027,2456.3754,N,08019.9025,W,1,10,2.7,19,M,,M,,*65
06/20/2015	21:10:27.567	$GPGGA,211028,2456.3752,N,08019.9030,W,1,9,2.4,19,M,,M,,*53
06/20/2015	21:10:28.535	$GPGGA,211029,2456.3749,N,08019.9037,W,1,9,2.1,19,M,,M,,*5A
06/20/2015	21:10:29.525	$GPGGA,211030,2456.3747,N,08019.9044,W,1,10,2.1,19,M,,M,,*60
06/20/2015	21:10:30.525	$GPGGA,211031,2456.3746,N,08019.9051,W,1,10,2.1,19,M,,M,,*64
06/20/2015	21:10:31.525	$GPGGA,211032,2456.3743,N,08019.9058,W,1,9,2.1,19,M,,M,,*53
06/20/2015	21:10:32.515	$GPGGA,211033,2456.3742,N,08019.9066,W,1,9,2.4,20,M,,M,,*51
06/20/2015	21:10:33.525	$GPGGA,211034,2456.3739,N,08019.9072,W,1,9,2.4,20,M,,M,,*5F
06/20/2015	21:10:34.626	$GPGGA,211035,2456.3736,N,08019.9079,W,1,9,2.1,20,M,,M,,*5F
06/20/2015	21:10:35.556	$GPGGA,211036,2456.3737,N,08019.9087,W,1,10,2.1,20,M,,M,,*64
06/20/2015	21:10:36.625	$GPGGA,211037,2456.3734,N,08019.9095,W,1,10,2.7,20,M,,M,,*63
06/20/2015	21:10:37.515	$GPGGA,211038,2456.3732,N,08019.9101,W,1,9,2.4,20,M,,M,,*5D
06/20/2015	21:10:38.615	$GPGGA,211039,2456.3731,N,08019.9108,W,1,9,2.1,20,M,,M,,*53
06/20/2015	21:10:39.625	$GPGGA,211040,2456.3730,N,08019.9116,W,1,10,2.1,20,M,,M,,*6B
06/20/2015	21:10:40.515	$GPGGA,211041,2456.3727,N,08019.9123,W,1,10,2.4,20,M,,M,,*6F
06/20/2015	21:10:41.505	$GPGGA,211042,2456.3727,N,08019.9131,W,1,8,2.7,20,M,,M,,*55
06/20/2015	21:10:42.495	$GPGGA,211043,2456.3724,N,08019.9138,W,1,8,2.4,20,M,,M,,*5D
06/20/2015	21:10:43.595	$GPGGA,211044,2456.3723,N,08019.9145,W,1,9,2.4,21,M,,M,,*57
06/20/2015	21:10:44.505	$GPGGA,211045,2456.3721,N,08019.9154,W,1,9,2.4,21,M,,M,,*54
06/20/2015	21:10:45.505	$GPGGA,211046,2456.3720,N,08019.9160,W,1,9,2.4,21,M,,M,,*51
06/20/2015	21:10:46.495	$GPGGA,211047,2456.3718,N,08019.9169,W,1,9,2.4,20,M,,M,,*53
06/20/2015	21:10:47.586	$GPGGA,211048,2456.3717,N,08019.9176,W,1,9,2.4,20,M,,M,,*5D
06/20/2015	21:10:48.582	$GPGGA,211049,2456.3716,N,08019.9184,W,1,9,2.4,20,M,,M,,*50
06/20/2015	21:10:49.475	$GPGGA,211050,2456.3713,N,08019.9191,W,1,9,2.4,20,M,,M,,*59
06/20/2015	21:10:50.574	$GPGGA,211051,2456.3712,N,08019.9198,W,1,9,2.4,20,M,,M,,*50
06/20/2015	21:10:51.616	$GPGGA,211052,2456.3710,N,08019.9205,W,1,9,2.4,20,M,,M,,*56
06/20/2015	21:10:52.486	$GPGGA,211053,2456.3709,N,08019.9212,W,1,9,2.1,20,M,,M,,*5C
06/20/2015	21:10:53.605	$GPGGA,211054,2456.3707,N,08019.9220,W,1,9,2.4,20,M,,M,,*51
06/20/2015	21:10:54.580	$GPGGA,211055,2456.3706,N,08019.9227,W,1,9,2.1,20,M,,M,,*53
06/20/2015	21:10:55.572	$GPGGA,211056,2456.3705,N,08019.9234,W,1,9,2.4,20,M,,M,,*54
06/20/2015	21:10:56.576	$GPGGA,211057,2456.3701,N,08019.9238,W,1,9,2.1,20,M,,M,,*58
06/20/2015	21:10:57.574	$GPGGA,211058,2456.3700,N,08019.9245,W,1,10,2.1,20,M,,M,,*64
06/20/2015	21:10:58.578	$GPGGA,211059,2456.3699,N,08019.9254,W,1,10,2.1,20,M,,M,,*64
06/20/2015	21:10:59.595	$GPGGA,211100,2456.3698,N,08019.9261,W,1,9,2.4,20,M,,M,,*53
06/20/2015	21:11:00.568	$GPGGA,211101,2456.3696,N,08019.9268,W,1,9,2.1,20,M,,M,,*50
06/20/2015	21:11:01.545	$GPGGA,211102,2456.3697,N,08019.9275,W,1,8,2.3,20,M,,M,,*5D
06/20/2015	21:11:02.555	$GPGGA,211103,2456.3695,N,08019.9285,W,1,8,2.1,20,M,,M,,*53
06/20/2015	21:11:03.578	$GPGGA,211104,2456.3694,N,08019.9292,W,1,10,2.1,20,M,,M,,*6A
06/20/2015	21:11:04.555	$GPGGA,211105,2456.3694,N,08019.9297,W,1,10,2.1,20,M,,M,,*6E
06/20/2015	21:11:05.545	$GPGGA,211106,2456.3694,N,08019.9304,W,1,9,2.1,20,M,,M,,*5E
06/20/2015	21:11:06.555	$GPGGA,211107,2456.3696,N,08019.9313,W,1,9,2.1,20,M,,M,,*5B
06/20/2015	21:11:07.586	$GPGGA,211108,2456.3694,N,08019.9318,W,1,10,2.1,20,M,,M,,*65
06/20/2015	21:11:08.546	$GPGGA,211109,2456.3692,N,08019.9325,W,1,10,2.2,20,M,,M,,*6F
06/20/2015	21:11:09.568	$GPGGA,211110,2456.3693,N,08019.9329,W,1,10,2.1,19,M,,M,,*63
06/20/2015	21:11:10.546	$GPGGA,211111,2456.3692,N,08019.9336,W,1,10,2.1,19,M,,M,,*6D
06/20/2015	21:11:11.569	$GPGGA,211112,2456.3691,N,08019.9342,W,1,8,2.3,19,M,,M,,*55
06/20/2015	21:11:12.535	$GPGGA,211113,2456.3691,N,08019.9346,W,1,8,2.1,19,M,,M,,*52
06/20/2015	21:11:13.555	$GPGGA,211114,2456.3690,N,08019.9353,W,1,10,2.0,19,M,,M,,*68
06/20/2015	21:11:14.535	$GPGGA,211115,2456.3690,N,08019.9358,W,1,10,2.0,19,M,,M,,*62
06/20/2015	21:11:15.535	$GPGGA,211116,2456.3689,N,08019.9366,W,1,10,2.0,20,M,,M,,*6E
06/20/2015	21:11:16.515	$GPGGA,211117,2456.3688,N,08019.9371,W,1,10,2.2,20,M,,M,,*6A
06/20/2015	21:11:17.515	$GPGGA,211118,2456.3687,N,08019.9376,W,1,10,2.0,20,M,,M,,*6F
06/20/2015	21:11:18.535	$GPGGA,211119,2456.3687,N,08019.9382,W,1,10,2.0,20,M,,M,,*65
06/20/2015	21:11:19.525	$GPGGA,211120,2456.3687,N,08019.9390,W,1,9,2.4,20,M,,M,,*50
06/20/2015	21:11:20.525	$GPGGA,211121,2456.3685,N,08019.9398,W,1,9,2.0,20,M,,M,,*5F
06/20/2015	21:11:21.505	$GPGGA,211122,2456.3684,N,08019.9407,W,1,9,2.2,20,M,,M,,*5E
06/20/2015	21:11:22.525	$GPGGA,211123,2456.3683,N,08019.9413,W,1,9,2.0,20,M,,M,,*5F
06/20/2015	21:11:23.545	$GPGGA,211124,2456.3682,N,08019.9422,W,1,9,2.4,20,M,,M,,*5F
06/20/2015	21:11:24.505	$GPGGA,211125,2456.3681,N,08019.9429,W,1,9,2.0,20,M,,M,,*52
06/20/2015	21:11:25.515	$GPGGA,211126,2456.3680,N,08019.9436,W,1,10,2.0,20,M,,M,,*66
06/20/2015	21:11:26.547	$GPGGA,211127,2456.3680,N,08019.9444,W,1,10,2.0,20,M,,M,,*62
06/20/2015	21:11:27.606	$GPGGA,211128,2456.3678,N,08019.9452,W,1,10,2.0,20,M,,M,,*6D
06/20/2015	21:11:28.495	$GPGGA,211129,2456.3679,N,08019.9458,W,1,10,2.0,20,M,,M,,*67
06/20/2015	21:11:29.515	$GPGGA,211130,2456.3677,N,08019.9466,W,1,10,2.0,20,M,,M,,*6C
06/20/2015	21:11:30.505	$GPGGA,211131,2456.3678,N,08019.9474,W,1,10,2.0,20,M,,M,,*61
06/20/2015	21:11:31.505	$GPGGA,211132,2456.3676,N,08019.9483,W,1,10,2.0,20,M,,M,,*64
06/20/2015	21:11:32.625	$GPGGA,211133,2456.3674,N,08019.9488,W,1,10,2.2,20,M,,M,,*6E
06/20/2015	21:11:33.515	$GPGGA,211134,2456.3676,N,08019.9494,W,1,10,2.0,20,M,,M,,*64
06/20/2015	21:11:34.505	$GPGGA,211135,2456.3676,N,08019.9501,W,1,10,2.2,20,M,,M,,*6A
06/20/2015	21:11:35.685	$GPGGA,211136,2456.3676,N,08019.9508,W,1,10,2.0,20,M,,M,,*62
06/20/2015	21:11:36.615	$GPGGA,211137,2456.3674,N,08019.9516,W,1,10,2.0,20,M,,M,,*6E
06/20/2015	21:11:37.495	$GPGGA,211138,2456.3672,N,08019.9524,W,1,10,2.0,20,M,,M,,*66
06/20/2015	21:11:38.577	$GPGGA,211139,2456.3672,N,08019.9534,W,1,10,2.2,20,M,,M,,*64
06/20/2015	21:11:39.680	$GPGGA,211140,2456.3672,N,08019.9541,W,1,10,2.0,20,M,,M,,*6A
06/20/2015	21:11:40.495	$GPGGA,211141,2456.3671,N,08019.9550,W,1,10,2.0,20,M,,M,,*68
06/20/2015	21:11:41.475	$GPGGA,211142,2456.3672,N,08019.9559,W,1,9,2.2,20,M,,M,,*5B
06/20/2015	21:11:42.595	$GPGGA,211143,2456.3671,N,08019.9567,W,1,9,2.2,19,M,,M,,*5E
06/20/2015	21:11:43.580	$GPGGA,211144,2456.3672,N,08019.9575,W,1,8,2.3,19,M,,M,,*59
06/20/2015	21:11:44.596	$GPGGA,211145,2456.3671,N,08019.9585,W,1,8,2.0,19,M,,M,,*57
06/20/2015	21:11:45.681	$GPGGA,211146,2456.3670,N,08019.9595,W,1,10,2.0,19,M,,M,,*6D
06/20/2015	21:11:46.571	$GPGGA,211147,2456.3672,N,08019.9603,W,1,10,2.0,19,M,,M,,*62
06/20/2015	21:11:47.679	$GPGGA,211148,2456.3672,N,08019.9611,W,1,8,2.2,19,M,,M,,*55
