Software Version Number: 1	Data File Format Number: 1	Build Version Number: 1	Error Count Since VI Started: 1	Manufacturer: Raytheon	 Model Number: RayMarine 120	 S/N: 	 Cal Date: 	 Wind Direction Offset: 0.00	 Slope (M)1: 0.00	 Offset (B)1: 0.00	 Slope (M)2: 0.00	 Offset (B)2: 0.00	 Slope (M)3: 0.00	 Offset (B)3: 0.00	 Slope (M)4: 0.00	 Offset (B)4: 0.00	 Slope (M)5: 0.00	 Offset (B)5: 0.00	 Slope (M)6: 0.00	 Offset (B)6: 0.00
Computer Date	Computer Time	GGA String
06/12/2015	05:00:00.547	$GPGGA,050001,2427.8506,N,08124.8358,W,1,10,1.6,17,M,,M,,*65
06/12/2015	05:00:01.547	$GPGGA,050002,2427.8508,N,08124.8364,W,1,10,1.6,17,M,,M,,*67
06/12/2015	05:00:02.557	$GPGGA,050003,2427.8506,N,08124.8371,W,1,10,1.6,17,M,,M,,*6C
06/12/2015	05:00:03.610	$GPGGA,050004,2427.8506,N,08124.8376,W,1,9,1.8,17,M,,M,,*5A
06/12/2015	05:00:04.547	$GPGGA,050005,2427.8503,N,08124.8381,W,1,9,1.6,17,M,,M,,*58
06/12/2015	05:00:05.537	$GPGGA,050006,2427.8500,N,08124.8385,W,1,10,1.6,17,M,,M,,*64
06/12/2015	05:00:06.537	$GPGGA,050007,2427.8501,N,08124.8389,W,1,10,1.6,17,M,,M,,*68
06/12/2015	05:00:07.567	$GPGGA,050008,2427.8499,N,08124.8396,W,1,10,1.6,18,M,,M,,*66
06/12/2015	05:00:09.022	$GPGGA,050009,2427.8496,N,08124.8400,W,1,10,1.7,18,M,,M,,*61
06/12/2015	05:00:09.526	$GPGGA,050010,2427.8498,N,08124.8407,W,1,10,1.6,18,M,,M,,*61
06/12/2015	05:00:10.536	$GPGGA,050011,2427.8499,N,08124.8411,W,1,10,1.6,18,M,,M,,*66
06/12/2015	05:00:11.576	$GPGGA,050012,2427.8497,N,08124.8418,W,1,10,1.6,18,M,,M,,*62
06/12/2015	05:00:12.526	$GPGGA,050013,2427.8494,N,08124.8422,W,1,10,1.6,18,M,,M,,*69
06/12/2015	05:00:13.556	$GPGGA,050014,2427.8495,N,08124.8428,W,1,9,1.6,18,M,,M,,*5D
06/12/2015	05:00:14.519	$GPGGA,050015,2427.8495,N,08124.8434,W,1,9,1.6,18,M,,M,,*51
06/12/2015	05:00:15.566	$GPGGA,050016,2427.8494,N,08124.8439,W,1,9,1.6,19,M,,M,,*5F
06/12/2015	05:00:16.517	$GPGGA,050017,2427.8495,N,08124.8446,W,1,9,1.6,19,M,,M,,*57
06/12/2015	05:00:17.527	$GPGGA,050018,2427.8495,N,08124.8451,W,1,10,1.6,19,M,,M,,*66
06/12/2015	05:00:18.517	$GPGGA,050019,2427.8494,N,08124.8457,W,1,10,1.6,19,M,,M,,*60
06/12/2015	05:00:19.547	$GPGGA,050020,2427.8492,N,08124.8461,W,1,9,1.6,19,M,,M,,*51
06/12/2015	05:00:20.627	$GPGGA,050021,2427.8492,N,08124.8466,W,1,9,1.6,19,M,,M,,*57
06/12/2015	05:00:21.497	$GPGGA,050022,2427.8492,N,08124.8472,W,1,10,1.6,19,M,,M,,*69
06/12/2015	05:00:22.618	$GPGGA,050023,2427.8489,N,08124.8479,W,1,10,1.6,19,M,,M,,*69
06/12/2015	05:00:23.537	$GPGGA,050024,2427.8488,N,08124.8483,W,1,9,1.6,19,M,,M,,*52
06/12/2015	05:00:24.524	$GPGGA,050025,2427.8488,N,08124.8487,W,1,9,1.6,20,M,,M,,*5D
06/12/2015	05:00:25.608	$GPGGA,050026,2427.8488,N,08124.8493,W,1,9,1.6,20,M,,M,,*5B
06/12/2015	05:00:26.612	$GPGGA,050027,2427.8485,N,08124.8497,W,1,9,1.6,20,M,,M,,*53
06/12/2015	05:00:27.616	$GPGGA,050028,2427.8483,N,08124.8502,W,1,9,1.6,20,M,,M,,*57
06/12/2015	05:00:28.486	$GPGGA,050029,2427.8482,N,08124.8508,W,1,9,2.0,20,M,,M,,*58
06/12/2015	05:00:29.510	$GPGGA,050030,2427.8483,N,08124.8515,W,1,8,2.0,20,M,,M,,*5C
06/12/2015	05:00:30.496	$GPGGA,050031,2427.8482,N,08124.8519,W,1,8,1.6,20,M,,M,,*55
06/12/2015	05:00:31.520	$GPGGA,050032,2427.8484,N,08124.8524,W,1,9,1.6,20,M,,M,,*5F
06/12/2015	05:00:32.486	$GPGGA,050033,2427.8482,N,08124.8530,W,1,9,1.6,20,M,,M,,*5D
06/12/2015	05:00:33.497	$GPGGA,050034,2427.8483,N,08124.8534,W,1,8,2.0,20,M,,M,,*5B
06/12/2015	05:00:34.488	$GPGGA,050035,2427.8481,N,08124.8541,W,1,8,1.6,20,M,,M,,*5F
06/12/2015	05:00:35.613	$GPGGA,050036,2427.8481,N,08124.8548,W,1,8,2.0,20,M,,M,,*50
06/12/2015	05:00:36.477	$GPGGA,050037,2427.8478,N,08124.8551,W,1,8,2.0,20,M,,M,,*5F
06/12/2015	05:00:37.477	$GPGGA,050038,2427.8476,N,08124.8556,W,1,8,2.0,20,M,,M,,*59
06/12/2015	05:00:38.567	$GPGGA,050039,2427.8477,N,08124.8562,W,1,8,2.0,20,M,,M,,*5E
06/12/2015	05:00:39.597	$GPGGA,050040,2427.8475,N,08124.8566,W,1,8,2.0,20,M,,M,,*56
06/12/2015	05:00:40.567	$GPGGA,050041,2427.8476,N,08124.8570,W,1,8,2.0,20,M,,M,,*53
06/12/2015	05:00:41.567	$GPGGA,050042,2427.8475,N,08124.8577,W,1,9,1.6,20,M,,M,,*50
06/12/2015	05:00:42.567	$GPGGA,050043,2427.8477,N,08124.8584,W,1,9,1.6,20,M,,M,,*5F
06/12/2015	05:00:43.587	$GPGGA,050044,2427.8479,N,08124.8587,W,1,9,1.6,21,M,,M,,*54
06/12/2015	05:00:44.546	$GPGGA,050045,2427.8476,N,08124.8592,W,1,9,1.6,21,M,,M,,*5E
06/12/2015	05:00:45.566	$GPGGA,050046,2427.8475,N,08124.8598,W,1,8,2.0,21,M,,M,,*50
06/12/2015	05:00:46.556	$GPGGA,050047,2427.8474,N,08124.8602,W,1,8,1.6,21,M,,M,,*55
06/12/2015	05:00:47.597	$GPGGA,050048,2427.8472,N,08124.8606,W,1,9,1.6,21,M,,M,,*59
06/12/2015	05:00:48.556	$GPGGA,050049,2427.8473,N,08124.8613,W,1,9,1.6,21,M,,M,,*5D
06/12/2015	05:00:49.546	$GPGGA,050050,2427.8471,N,08124.8618,W,1,9,1.6,21,M,,M,,*5C
06/12/2015	05:00:50.546	$GPGGA,050051,2427.8468,N,08124.8623,W,1,9,1.6,21,M,,M,,*5D
06/12/2015	05:00:51.567	$GPGGA,050052,2427.8466,N,08124.8627,W,1,9,1.6,21,M,,M,,*54
06/12/2015	05:00:52.547	$GPGGA,050053,2427.8465,N,08124.8631,W,1,9,1.6,21,M,,M,,*51
06/12/2015	05:00:53.547	$GPGGA,050054,2427.8463,N,08124.8635,W,1,9,1.6,21,M,,M,,*54
06/12/2015	05:00:54.537	$GPGGA,050055,2427.8460,N,08124.8641,W,1,9,1.6,21,M,,M,,*55
06/12/2015	05:00:55.537	$GPGGA,050056,2427.8459,N,08124.8645,W,1,9,1.6,21,M,,M,,*58
06/12/2015	05:00:56.537	$GPGGA,050057,2427.8456,N,08124.8649,W,1,9,1.6,21,M,,M,,*5A
06/12/2015	05:00:57.557	$GPGGA,050058,2427.8456,N,08124.8654,W,1,9,1.6,21,M,,M,,*59
06/12/2015	05:00:58.527	$GPGGA,050059,2427.8454,N,08124.8660,W,1,9,1.6,21,M,,M,,*5D
06/12/2015	05:00:59.557	$GPGGA,050100,2427.8452,N,08124.8663,W,1,9,1.6,21,M,,M,,*55
06/12/2015	05:01:00.527	$GPGGA,050101,2427.8449,N,08124.8667,W,1,9,1.6,21,M,,M,,*5A
06/12/2015	05:01:01.517	$GPGGA,050102,2427.8448,N,08124.8671,W,1,9,1.6,21,M,,M,,*5F
06/12/2015	05:01:02.526	$GPGGA,050103,2427.8447,N,08124.8676,W,1,9,1.6,21,M,,M,,*56
06/12/2015	05:01:03.576	$GPGGA,050104,2427.8445,N,08124.8681,W,1,9,1.6,21,M,,M,,*5B
06/12/2015	05:01:04.519	$GPGGA,050105,2427.8442,N,08124.8685,W,1,9,1.6,21,M,,M,,*59
06/12/2015	05:01:05.546	$GPGGA,050106,2427.8441,N,08124.8689,W,1,9,1.6,21,M,,M,,*55
06/12/2015	05:01:06.506	$GPGGA,050107,2427.8439,N,08124.8694,W,1,9,1.6,21,M,,M,,*57
06/12/2015	05:01:07.536	$GPGGA,050108,2427.8438,N,08124.8699,W,1,9,1.6,21,M,,M,,*54
06/12/2015	05:01:08.527	$GPGGA,050109,2427.8435,N,08124.8703,W,1,9,1.6,21,M,,M,,*5A
06/12/2015	05:01:09.519	$GPGGA,050110,2427.8434,N,08124.8707,W,1,9,1.6,21,M,,M,,*57
06/12/2015	05:01:10.498	$GPGGA,050111,2427.8431,N,08124.8712,W,1,9,1.6,21,M,,M,,*57
06/12/2015	05:01:11.527	$GPGGA,050112,2427.8429,N,08124.8717,W,1,9,1.6,21,M,,M,,*58
06/12/2015	05:01:12.497	$GPGGA,050113,2427.8430,N,08124.8721,W,1,9,1.6,21,M,,M,,*54
06/12/2015	05:01:13.647	$GPGGA,050114,2427.8427,N,08124.8725,W,1,9,1.6,21,M,,M,,*51
06/12/2015	05:01:14.487	$GPGGA,050115,2427.8424,N,08124.8729,W,1,9,1.6,21,M,,M,,*5F
06/12/2015	05:01:15.527	$GPGGA,050116,2427.8423,N,08124.8735,W,1,9,1.6,21,M,,M,,*56
06/12/2015	05:01:16.657	$GPGGA,050117,2427.8421,N,08124.8739,W,1,9,1.6,21,M,,M,,*59
06/12/2015	05:01:17.477	$GPGGA,050118,2427.8420,N,08124.8743,W,1,9,1.6,21,M,,M,,*5A
06/12/2015	05:01:18.647	$GPGGA,050119,2427.8418,N,08124.8747,W,1,9,1.6,21,M,,M,,*54
06/12/2015	05:01:19.518	$GPGGA,050120,2427.8416,N,08124.8753,W,1,9,1.6,21,M,,M,,*55
06/12/2015	05:01:20.476	$GPGGA,050121,2427.8416,N,08124.8757,W,1,9,1.6,21,M,,M,,*50
06/12/2015	05:01:21.496	$GPGGA,050122,2427.8414,N,08124.8761,W,1,9,1.6,21,M,,M,,*54
06/12/2015	05:01:22.476	$GPGGA,050123,2427.8412,N,08124.8764,W,1,9,1.6,21,M,,M,,*56
06/12/2015	05:01:23.586	$GPGGA,050124,2427.8411,N,08124.8769,W,1,9,1.6,21,M,,M,,*5F
06/12/2015	05:01:24.646	$GPGGA,050125,2427.8409,N,08124.8773,W,1,9,1.6,20,M,,M,,*5D
06/12/2015	05:01:25.597	$GPGGA,050126,2427.8409,N,08124.8779,W,1,9,1.6,20,M,,M,,*54
06/12/2015	05:01:26.477	$GPGGA,050127,2427.8407,N,08124.8783,W,1,9,1.6,20,M,,M,,*5E
06/12/2015	05:01:27.477	$GPGGA,050128,2427.8405,N,08124.8786,W,1,9,1.6,20,M,,M,,*56
06/12/2015	05:01:28.627	$GPGGA,050129,2427.8403,N,08124.8790,W,1,9,1.6,20,M,,M,,*56
06/12/2015	05:01:30.041	$GPGGA,050130,2427.8402,N,08124.8795,W,1,9,1.6,20,M,,M,,*5A
06/12/2015	05:01:30.557	$GPGGA,050131,2427.8400,N,08124.8800,W,1,9,1.6,20,M,,M,,*5A
06/12/2015	05:01:31.647	$GPGGA,050132,2427.8399,N,08124.8802,W,1,9,1.6,20,M,,M,,*5C
06/12/2015	05:01:32.557	$GPGGA,050133,2427.8398,N,08124.8808,W,1,9,1.6,20,M,,M,,*56
06/12/2015	05:01:33.597	$GPGGA,050134,2427.8396,N,08124.8812,W,1,9,1.6,20,M,,M,,*54
06/12/2015	05:01:34.547	$GPGGA,050135,2427.8394,N,08124.8818,W,1,9,1.6,20,M,,M,,*5D
06/12/2015	05:01:35.647	$GPGGA,050136,2427.8393,N,08124.8820,W,1,9,1.6,20,M,,M,,*52
06/12/2015	05:01:36.625	$GPGGA,050137,2427.8391,N,08124.8824,W,1,9,1.6,20,M,,M,,*55
06/12/2015	05:01:37.596	$GPGGA,050138,2427.8389,N,08124.8829,W,1,9,1.6,19,M,,M,,*54
06/12/2015	05:01:38.646	$GPGGA,050139,2427.8390,N,08124.8834,W,1,9,1.6,19,M,,M,,*51
06/12/2015	05:01:39.626	$GPGGA,050140,2427.8387,N,08124.8838,W,1,9,1.6,19,M,,M,,*55
06/12/2015	05:01:40.620	$GPGGA,050141,2427.8385,N,08124.8844,W,1,9,1.6,19,M,,M,,*5D
06/12/2015	05:01:41.576	$GPGGA,050142,2427.8384,N,08124.8848,W,1,9,1.6,19,M,,M,,*53
06/12/2015	05:01:42.608	$GPGGA,050143,2427.8383,N,08124.8852,W,1,9,1.6,19,M,,M,,*5E
06/12/2015	05:01:43.647	$GPGGA,050144,2427.8381,N,08124.8856,W,1,9,1.6,19,M,,M,,*5F
06/12/2015	05:01:44.587	$GPGGA,050145,2427.8380,N,08124.8860,W,1,9,1.6,19,M,,M,,*5A
06/12/2015	05:01:45.527	$GPGGA,050146,2427.8378,N,08124.8866,W,1,9,1.6,19,M,,M,,*58
06/12/2015	05:01:46.597	$GPGGA,050147,2427.8376,N,08124.8869,W,1,9,1.6,19,M,,M,,*58
06/12/2015	05:01:47.577	$GPGGA,050148,2427.8374,N,08124.8873,W,1,9,1.6,19,M,,M,,*5E
06/12/2015	05:01:48.587	$GPGGA,050149,2427.8373,N,08124.8878,W,1,9,1.6,19,M,,M,,*53
06/12/2015	05:01:49.567	$GPGGA,050150,2427.8371,N,08124.8883,W,1,9,1.6,19,M,,M,,*5D
06/12/2015	05:01:50.512	$GPGGA,050151,2427.8369,N,08124.8885,W,1,9,1.6,19,M,,M,,*53
06/12/2015	05:01:51.627	$GPGGA,050152,2427.8367,N,08124.8889,W,1,9,1.6,19,M,,M,,*52
06/12/2015	05:01:52.514	$GPGGA,050153,2427.8366,N,08124.8895,W,1,9,1.6,19,M,,M,,*5F
06/12/2015	05:01:53.567	$GPGGA,050154,2427.8364,N,08124.8899,W,1,9,1.6,18,M,,M,,*57
06/12/2015	05:01:54.507	$GPGGA,050155,2427.8363,N,08124.8903,W,1,9,1.6,18,M,,M,,*53
06/12/2015	05:01:55.586	$GPGGA,050156,2427.8360,N,08124.8907,W,1,9,1.6,18,M,,M,,*57
06/12/2015	05:01:56.577	$GPGGA,050157,2427.8359,N,08124.8912,W,1,9,1.6,18,M,,M,,*58
06/12/2015	05:01:57.619	$GPGGA,050158,2427.8358,N,08124.8916,W,1,9,1.6,18,M,,M,,*52
06/12/2015	05:01:58.519	$GPGGA,050159,2427.8356,N,08124.8920,W,1,9,1.6,18,M,,M,,*58
06/12/2015	05:01:59.576	$GPGGA,050200,2427.8355,N,08124.8923,W,1,9,1.6,18,M,,M,,*57
06/12/2015	05:02:00.567	$GPGGA,050201,2427.8353,N,08124.8928,W,1,9,1.6,18,M,,M,,*5B
06/12/2015	05:02:01.527	$GPGGA,050202,2427.8352,N,08124.8932,W,1,9,1.6,18,M,,M,,*52
06/12/2015	05:02:02.557	$GPGGA,050203,2427.8351,N,08124.8936,W,1,9,1.6,18,M,,M,,*54
06/12/2015	05:02:03.628	$GPGGA,050204,2427.8349,N,08124.8941,W,1,9,1.6,18,M,,M,,*5A
06/12/2015	05:02:04.557	$GPGGA,050205,2427.8348,N,08124.8945,W,1,9,1.6,18,M,,M,,*5E
06/12/2015	05:02:05.597	$GPGGA,050206,2427.8346,N,08124.8949,W,1,9,1.6,18,M,,M,,*5F
06/12/2015	05:02:06.547	$GPGGA,050207,2427.8344,N,08124.8952,W,1,9,1.6,18,M,,M,,*56
06/12/2015	05:02:07.497	$GPGGA,050208,2427.8344,N,08124.8957,W,1,9,1.6,18,M,,M,,*5C
06/12/2015	05:02:08.577	$GPGGA,050209,2427.8342,N,08124.8961,W,1,9,1.6,18,M,,M,,*5E
06/12/2015	05:02:09.611	$GPGGA,050210,2427.8340,N,08124.8964,W,1,9,1.6,18,M,,M,,*51
06/12/2015	05:02:10.547	$GPGGA,050211,2427.8338,N,08124.8968,W,1,9,1.6,18,M,,M,,*53
06/12/2015	05:02:11.587	$GPGGA,050212,2427.8336,N,08124.8974,W,1,9,1.6,17,M,,M,,*5C
06/12/2015	05:02:12.576	$GPGGA,050213,2427.8335,N,08124.8978,W,1,9,1.6,17,M,,M,,*52
06/12/2015	05:02:13.546	$GPGGA,050214,2427.8333,N,08124.8981,W,1,9,1.6,17,M,,M,,*55
06/12/2015	05:02:14.566	$GPGGA,050215,2427.8331,N,08124.8985,W,1,9,1.6,17,M,,M,,*52
06/12/2015	05:02:15.586	$GPGGA,050216,2427.8330,N,08124.8990,W,1,9,1.6,17,M,,M,,*54
06/12/2015	05:02:16.566	$GPGGA,050217,2427.8329,N,08124.8995,W,1,9,1.6,17,M,,M,,*58
06/12/2015	05:02:17.586	$GPGGA,050218,2427.8326,N,08124.8999,W,1,9,1.6,17,M,,M,,*54
06/12/2015	05:02:18.597	$GPGGA,050219,2427.8326,N,08124.9003,W,1,9,1.6,17,M,,M,,*5E
06/12/2015	05:02:19.597	$GPGGA,050220,2427.8324,N,08124.9007,W,1,9,1.6,17,M,,M,,*52
06/12/2015	05:02:20.547	$GPGGA,050221,2427.8322,N,08124.9011,W,1,9,1.6,17,M,,M,,*52
06/12/2015	05:02:21.577	$GPGGA,050222,2427.8320,N,08124.9015,W,1,9,1.6,17,M,,M,,*57
06/12/2015	05:02:22.558	$GPGGA,050223,2427.8319,N,08124.9021,W,1,9,1.6,17,M,,M,,*5B
06/12/2015	05:02:23.587	$GPGGA,050224,2427.8317,N,08124.9025,W,1,9,1.6,17,M,,M,,*56
06/12/2015	05:02:24.547	$GPGGA,050225,2427.8315,N,08124.9028,W,1,9,1.6,17,M,,M,,*58
06/12/2015	05:02:25.567	$GPGGA,050226,2427.8315,N,08124.9033,W,1,9,1.6,17,M,,M,,*51
06/12/2015	05:02:26.577	$GPGGA,050227,2427.8313,N,08124.9039,W,1,9,1.6,17,M,,M,,*5C
06/12/2015	05:02:27.577	$GPGGA,050228,2427.8311,N,08124.9043,W,1,9,1.6,17,M,,M,,*5C
06/12/2015	05:02:28.547	$GPGGA,050229,2427.8309,N,08124.9046,W,1,9,1.6,17,M,,M,,*51
06/12/2015	05:02:29.556	$GPGGA,050230,2427.8307,N,08124.9050,W,1,9,1.6,17,M,,M,,*50
06/12/2015	05:02:30.546	$GPGGA,050231,2427.8306,N,08124.9055,W,1,9,1.6,17,M,,M,,*55
06/12/2015	05:02:31.608	$GPGGA,050232,2427.8305,N,08124.9061,W,1,9,1.6,17,M,,M,,*52
06/12/2015	05:02:32.546	$GPGGA,050233,2427.8304,N,08124.9064,W,1,9,1.6,17,M,,M,,*57
06/12/2015	05:02:33.526	$GPGGA,050234,2427.8300,N,08124.9068,W,1,9,1.6,17,M,,M,,*58
06/12/2015	05:02:34.546	$GPGGA,050235,2427.8299,N,08124.9073,W,1,9,1.6,17,M,,M,,*52
06/12/2015	05:02:35.611	$GPGGA,050236,2427.8298,N,08124.9079,W,1,9,1.6,17,M,,M,,*5A
06/12/2015	05:02:36.587	$GPGGA,050237,2427.8297,N,08124.9082,W,1,9,1.6,16,M,,M,,*51
06/12/2015	05:02:37.547	$GPGGA,050238,2427.8294,N,08124.9086,W,1,9,1.6,16,M,,M,,*59
06/12/2015	05:02:38.547	$GPGGA,050239,2427.8293,N,08124.9090,W,1,9,2.0,16,M,,M,,*5D
06/12/2015	05:02:39.567	$GPGGA,050240,2427.8293,N,08124.9097,W,1,8,1.6,16,M,,M,,*50
06/12/2015	05:02:40.521	$GPGGA,050241,2427.8293,N,08124.9097,W,1,8,1.6,16,M,,M,,*51
06/12/2015	05:02:41.516	$GPGGA,050242,2427.8291,N,08124.9104,W,1,9,1.6,16,M,,M,,*5A
06/12/2015	05:02:42.557	$GPGGA,050243,2427.8290,N,08124.9108,W,1,9,1.6,16,M,,M,,*56
06/12/2015	05:02:43.567	$GPGGA,050244,2427.8288,N,08124.9113,W,1,9,1.6,16,M,,M,,*52
06/12/2015	05:02:44.547	$GPGGA,050245,2427.8287,N,08124.9119,W,1,9,1.6,17,M,,M,,*57
06/12/2015	05:02:45.527	$GPGGA,050246,2427.8288,N,08124.9124,W,1,9,1.6,17,M,,M,,*55
06/12/2015	05:02:46.547	$GPGGA,050247,2427.8286,N,08124.9129,W,1,9,1.6,17,M,,M,,*57
06/12/2015	05:02:47.536	$GPGGA,050248,2427.8282,N,08124.9133,W,1,9,1.6,17,M,,M,,*57
06/12/2015	05:02:48.596	$GPGGA,050249,2427.8281,N,08124.9138,W,1,9,1.6,17,M,,M,,*5E
06/12/2015	05:02:49.496	$GPGGA,050250,2427.8280,N,08124.9142,W,1,9,1.6,17,M,,M,,*5A
06/12/2015	05:02:50.586	$GPGGA,050251,2427.8279,N,08124.9147,W,1,9,1.6,17,M,,M,,*58
06/12/2015	05:02:51.506	$GPGGA,050252,2427.8275,N,08124.9151,W,1,9,1.6,17,M,,M,,*50
06/12/2015	05:02:52.546	$GPGGA,050253,2427.8273,N,08124.9155,W,1,9,1.6,17,M,,M,,*53
06/12/2015	05:02:53.518	$GPGGA,050254,2427.8272,N,08124.9162,W,1,9,1.6,17,M,,M,,*51
06/12/2015	05:02:54.497	$GPGGA,050255,2427.8272,N,08124.9162,W,1,9,1.6,17,M,,M,,*50
06/12/2015	05:02:55.623	$GPGGA,050256,2427.8269,N,08124.9169,W,1,8,1.8,17,M,,M,,*5D
06/12/2015	05:02:56.597	$GPGGA,050257,2427.8266,N,08124.9173,W,1,8,1.8,17,M,,M,,*58
06/12/2015	05:02:57.612	$GPGGA,050258,2427.8264,N,08124.9177,W,1,9,1.6,17,M,,M,,*5E
06/12/2015	05:02:58.577	$GPGGA,050259,2427.8262,N,08124.9181,W,1,9,1.6,17,M,,M,,*50
06/12/2015	05:02:59.497	$GPGGA,050300,2427.8261,N,08124.9187,W,1,9,1.6,17,M,,M,,*58
06/12/2015	05:03:00.567	$GPGGA,050301,2427.8258,N,08124.9192,W,1,9,1.6,17,M,,M,,*57
06/12/2015	05:03:01.487	$GPGGA,050302,2427.8255,N,08124.9196,W,1,9,1.6,17,M,,M,,*5D
06/12/2015	05:03:02.567	$GPGGA,050303,2427.8254,N,08124.9201,W,1,9,1.6,17,M,,M,,*50
06/12/2015	05:03:03.577	$GPGGA,050304,2427.8252,N,08124.9205,W,1,9,1.6,17,M,,M,,*55
06/12/2015	05:03:04.566	$GPGGA,050305,2427.8250,N,08124.9212,W,1,9,1.6,17,M,,M,,*50
06/12/2015	05:03:05.556	$GPGGA,050306,2427.8247,N,08124.9216,W,1,9,1.6,17,M,,M,,*51
06/12/2015	05:03:06.566	$GPGGA,050307,2427.8246,N,08124.9223,W,1,9,1.6,17,M,,M,,*57
06/12/2015	05:03:07.566	$GPGGA,050308,2427.8244,N,08124.9227,W,1,9,1.6,17,M,,M,,*5E
06/12/2015	05:03:08.546	$GPGGA,050309,2427.8241,N,08124.9231,W,1,9,1.6,17,M,,M,,*5D
06/12/2015	05:03:09.577	$GPGGA,050310,2427.8239,N,08124.9236,W,1,9,1.6,17,M,,M,,*5D
06/12/2015	05:03:10.558	$GPGGA,050311,2427.8239,N,08124.9241,W,1,9,1.6,17,M,,M,,*5C
06/12/2015	05:03:11.577	$GPGGA,050312,2427.8236,N,08124.9245,W,1,9,1.6,17,M,,M,,*54
06/12/2015	05:03:12.547	$GPGGA,050313,2427.8232,N,08124.9250,W,1,9,1.6,17,M,,M,,*55
06/12/2015	05:03:13.557	$GPGGA,050314,2427.8232,N,08124.9257,W,1,9,1.6,18,M,,M,,*5A
06/12/2015	05:03:14.557	$GPGGA,050315,2427.8232,N,08124.9263,W,1,9,1.6,18,M,,M,,*5C
06/12/2015	05:03:15.577	$GPGGA,050316,2427.8228,N,08124.9266,W,1,9,1.6,18,M,,M,,*51
06/12/2015	05:03:16.537	$GPGGA,050317,2427.8221,N,08124.9270,W,1,9,2.0,18,M,,M,,*5B
06/12/2015	05:03:17.547	$GPGGA,050318,2427.8219,N,08124.9275,W,1,9,1.6,18,M,,M,,*5F
06/12/2015	05:03:18.547	$GPGGA,050319,2427.8218,N,08124.9281,W,1,9,1.6,18,M,,M,,*54
06/12/2015	05:03:19.537	$GPGGA,050320,2427.8217,N,08124.9286,W,1,8,1.8,18,M,,M,,*59
06/12/2015	05:03:20.537	$GPGGA,050321,2427.8217,N,08124.9292,W,1,8,1.6,17,M,,M,,*5C
06/12/2015	05:03:21.547	$GPGGA,050322,2427.8214,N,08124.9297,W,1,9,1.6,17,M,,M,,*58
06/12/2015	05:03:22.518	$GPGGA,050323,2427.8212,N,08124.9303,W,1,9,1.6,17,M,,M,,*53
06/12/2015	05:03:23.566	$GPGGA,050324,2427.8210,N,08124.9307,W,1,8,2.0,17,M,,M,,*56
06/12/2015	05:03:24.536	$GPGGA,050325,2427.8207,N,08124.9313,W,1,8,2.0,17,M,,M,,*54
06/12/2015	05:03:25.525	$GPGGA,050326,2427.8208,N,08124.9318,W,1,9,1.6,17,M,,M,,*57
06/12/2015	05:03:26.523	$GPGGA,050327,2427.8209,N,08124.9324,W,1,9,1.6,17,M,,M,,*58
06/12/2015	05:03:27.556	$GPGGA,050328,2427.8207,N,08124.9329,W,1,9,1.6,17,M,,M,,*54
06/12/2015	05:03:28.528	$GPGGA,050329,2427.8206,N,08124.9335,W,1,9,1.6,17,M,,M,,*59
06/12/2015	05:03:29.547	$GPGGA,050330,2427.8206,N,08124.9340,W,1,9,1.6,17,M,,M,,*53
06/12/2015	05:03:30.508	$GPGGA,050331,2427.8206,N,08124.9346,W,1,9,1.8,17,M,,M,,*5A
06/12/2015	05:03:31.557	$GPGGA,050332,2427.8203,N,08124.9351,W,1,9,1.6,17,M,,M,,*54
06/12/2015	05:03:32.525	$GPGGA,050333,2427.8203,N,08124.9358,W,1,9,2.0,17,M,,M,,*59
06/12/2015	05:03:33.537	$GPGGA,050334,2427.8200,N,08124.9364,W,1,8,2.0,17,M,,M,,*53
06/12/2015	05:03:34.509	$GPGGA,050335,2427.8196,N,08124.9368,W,1,8,1.6,17,M,,M,,*57
06/12/2015	05:03:35.527	$GPGGA,050336,2427.8195,N,08124.9372,W,1,8,2.0,17,M,,M,,*59
06/12/2015	05:03:36.609	$GPGGA,050337,2427.8192,N,08124.9379,W,1,8,2.0,17,M,,M,,*54
06/12/2015	05:03:37.520	$GPGGA,050338,2427.8187,N,08124.9383,W,1,8,2.0,17,M,,M,,*5A
06/12/2015	05:03:38.507	$GPGGA,050339,2427.8185,N,08124.9389,W,1,8,2.0,17,M,,M,,*53
06/12/2015	05:03:39.526	$GPGGA,050340,2427.8183,N,08124.9395,W,1,9,1.6,17,M,,M,,*52
06/12/2015	05:03:40.510	$GPGGA,050341,2427.8182,N,08124.9401,W,1,9,2.0,17,M,,M,,*5D
06/12/2015	05:03:41.497	$GPGGA,050342,2427.8179,N,08124.9407,W,1,8,2.0,17,M,,M,,*5D
06/12/2015	05:03:42.496	$GPGGA,050343,2427.8177,N,08124.9411,W,1,8,1.6,17,M,,M,,*50
06/12/2015	05:03:43.615	$GPGGA,050344,2427.8174,N,08124.9416,W,1,8,2.0,17,M,,M,,*56
06/12/2015	05:03:44.576	$GPGGA,050345,2427.8172,N,08124.9422,W,1,8,2.0,17,M,,M,,*56
06/12/2015	05:03:45.609	$GPGGA,050346,2427.8169,N,08124.9429,W,1,8,2.0,17,M,,M,,*54
06/12/2015	05:03:46.497	$GPGGA,050347,2427.8167,N,08124.9434,W,1,8,2.0,17,M,,M,,*57
06/12/2015	05:03:47.597	$GPGGA,050348,2427.8165,N,08124.9440,W,1,8,2.0,17,M,,M,,*59
06/12/2015	05:03:48.577	$GPGGA,050349,2427.8164,N,08124.9447,W,1,8,2.0,17,M,,M,,*5E
06/12/2015	05:03:49.567	$GPGGA,050350,2427.8166,N,08124.9454,W,1,9,1.6,17,M,,M,,*52
06/12/2015	05:03:50.577	$GPGGA,050351,2427.8161,N,08124.9458,W,1,9,1.6,17,M,,M,,*58
06/12/2015	05:03:51.477	$GPGGA,050352,2427.8157,N,08124.9462,W,1,8,2.0,17,M,,M,,*53
06/12/2015	05:03:52.557	$GPGGA,050353,2427.8156,N,08124.9470,W,1,8,2.0,17,M,,M,,*50
06/12/2015	05:03:53.577	$GPGGA,050354,2427.8154,N,08124.9477,W,1,8,2.0,16,M,,M,,*53
06/12/2015	05:03:54.567	$GPGGA,050355,2427.8153,N,08124.9483,W,1,8,2.0,16,M,,M,,*5E
06/12/2015	05:03:55.587	$GPGGA,050356,2427.8152,N,08124.9490,W,1,9,1.6,16,M,,M,,*5A
06/12/2015	05:03:56.557	$GPGGA,050357,2427.8149,N,08124.9495,W,1,9,1.6,16,M,,M,,*54
06/12/2015	05:03:57.546	$GPGGA,050358,2427.8147,N,08124.9501,W,1,8,2.0,16,M,,M,,*5D
06/12/2015	05:03:58.566	$GPGGA,050359,2427.8143,N,08124.9506,W,1,8,2.0,16,M,,M,,*5F
06/12/2015	05:03:59.596	$GPGGA,050400,2427.8140,N,08124.9513,W,1,8,2.0,16,M,,M,,*53
06/12/2015	05:04:00.546	$GPGGA,050401,2427.8138,N,08124.9520,W,1,8,2.0,16,M,,M,,*5D
06/12/2015	05:04:01.566	$GPGGA,050402,2427.8135,N,08124.9527,W,1,8,2.0,16,M,,M,,*54
06/12/2015	05:04:02.536	$GPGGA,050403,2427.8140,N,08124.9534,W,1,8,2.0,16,M,,M,,*55
06/12/2015	05:04:03.577	$GPGGA,050404,2427.8141,N,08124.9539,W,1,9,1.6,17,M,,M,,*5B
06/12/2015	05:04:04.537	$GPGGA,050405,2427.8139,N,08124.9545,W,1,9,1.6,17,M,,M,,*5E
06/12/2015	05:04:05.557	$GPGGA,050406,2427.8141,N,08124.9552,W,1,9,1.6,17,M,,M,,*54
06/12/2015	05:04:06.537	$GPGGA,050407,2427.8136,N,08124.9559,W,1,9,1.6,17,M,,M,,*5E
06/12/2015	05:04:07.567	$GPGGA,050408,2427.8134,N,08124.9566,W,1,8,2.0,17,M,,M,,*5B
06/12/2015	05:04:08.547	$GPGGA,050409,2427.8132,N,08124.9571,W,1,8,2.0,17,M,,M,,*5A
06/12/2015	05:04:09.517	$GPGGA,050410,2427.8129,N,08124.9577,W,1,9,1.6,17,M,,M,,*5A
06/12/2015	05:04:10.527	$GPGGA,050411,2427.8127,N,08124.9584,W,1,9,2.0,17,M,,M,,*5C
06/12/2015	05:04:12.557	$GPGGA,050413,2427.8120,N,08124.9596,W,1,8,2.0,17,M,,M,,*5B
06/12/2015	05:04:13.517	$GPGGA,050414,2427.8118,N,08124.9603,W,1,9,1.6,17,M,,M,,*5C
06/12/2015	05:04:14.526	$GPGGA,050415,2427.8119,N,08124.9610,W,1,9,1.6,17,M,,M,,*5E
06/12/2015	05:04:15.566	$GPGGA,050416,2427.8117,N,08124.9617,W,1,9,1.6,17,M,,M,,*54
06/12/2015	05:04:16.526	$GPGGA,050417,2427.8119,N,08124.9624,W,1,9,2.0,17,M,,M,,*5E
06/12/2015	05:04:17.512	$GPGGA,050418,2427.8113,N,08124.9629,W,1,9,1.6,17,M,,M,,*53
06/12/2015	05:04:18.506	$GPGGA,050419,2427.8109,N,08124.9636,W,1,9,2.0,17,M,,M,,*52
06/12/2015	05:04:19.526	$GPGGA,050420,2427.8109,N,08124.9643,W,1,7,2.7,17,M,,M,,*53
06/12/2015	05:04:20.518	$GPGGA,050421,2427.8105,N,08124.9650,W,1,7,2.0,17,M,,M,,*5B
06/12/2015	05:04:21.537	$GPGGA,050422,2427.8102,N,08124.9655,W,1,8,2.0,17,M,,M,,*55
06/12/2015	05:04:22.517	$GPGGA,050423,2427.8102,N,08124.9662,W,1,8,2.0,17,M,,M,,*50
06/12/2015	05:04:23.557	$GPGGA,050424,2427.8100,N,08124.9668,W,1,8,2.0,17,M,,M,,*5F
06/12/2015	05:04:24.507	$GPGGA,050425,2427.8095,N,08124.9675,W,1,8,2.0,17,M,,M,,*5F
06/12/2015	05:04:25.587	$GPGGA,050426,2427.8092,N,08124.9682,W,1,7,2.7,17,M,,M,,*5B
06/12/2015	05:04:26.497	$GPGGA,050427,2427.8091,N,08124.9689,W,1,7,2.7,17,M,,M,,*52
06/12/2015	05:04:27.507	$GPGGA,050428,2427.8087,N,08124.9696,W,1,8,2.0,17,M,,M,,*5C
06/12/2015	05:04:29.027	$GPGGA,050429,2427.8085,N,08124.9702,W,1,8,2.0,17,M,,M,,*53
06/12/2015	05:04:29.510	$GPGGA,050430,2427.8083,N,08124.9709,W,1,8,2.0,17,M,,M,,*56
06/12/2015	05:04:30.497	$GPGGA,050431,2427.8080,N,08124.9715,W,1,8,2.7,17,M,,M,,*5E
06/12/2015	05:04:31.611	$GPGGA,050432,2427.8077,N,08124.9722,W,1,7,2.7,17,M,,M,,*5E
06/12/2015	05:04:32.576	$GPGGA,050433,2427.8075,N,08124.9730,W,1,7,1.6,17,M,,M,,*5C
06/12/2015	05:04:33.596	$GPGGA,050434,2427.8073,N,08124.9737,W,1,8,2.0,17,M,,M,,*50
06/12/2015	05:04:34.486	$GPGGA,050435,2427.8069,N,08124.9743,W,1,8,2.0,17,M,,M,,*59
06/12/2015	05:04:35.596	$GPGGA,050436,2427.8067,N,08124.9751,W,1,8,2.0,17,M,,M,,*57
06/12/2015	05:04:36.487	$GPGGA,050437,2427.8068,N,08124.9758,W,1,8,2.0,17,M,,M,,*50
06/12/2015	05:04:37.596	$GPGGA,050438,2427.8064,N,08124.9762,W,1,8,2.0,17,M,,M,,*5A
06/12/2015	05:04:38.567	$GPGGA,050439,2427.8062,N,08124.9767,W,1,8,2.0,17,M,,M,,*58
06/12/2015	05:04:39.587	$GPGGA,050440,2427.8062,N,08124.9776,W,1,8,2.0,17,M,,M,,*56
06/12/2015	05:04:40.567	$GPGGA,050441,2427.8056,N,08124.9784,W,1,8,2.0,17,M,,M,,*5D
06/12/2015	05:04:41.567	$GPGGA,050442,2427.8051,N,08124.9790,W,1,8,1.7,17,M,,M,,*58
06/12/2015	05:04:42.567	$GPGGA,050443,2427.8049,N,08124.9796,W,1,8,1.6,17,M,,M,,*57
06/12/2015	05:04:43.597	$GPGGA,050444,2427.8051,N,08124.9802,W,1,8,2.0,17,M,,M,,*5E
06/12/2015	05:04:44.557	$GPGGA,050445,2427.8048,N,08124.9810,W,1,8,1.7,17,M,,M,,*50
06/12/2015	05:04:45.547	$GPGGA,050446,2427.8049,N,08124.9817,W,1,7,2.7,17,M,,M,,*59
06/12/2015	05:04:46.557	$GPGGA,050447,2427.8044,N,08124.9824,W,1,7,1.6,17,M,,M,,*57
06/12/2015	05:04:47.587	$GPGGA,050448,2427.8041,N,08124.9831,W,1,8,2.0,18,M,,M,,*5C
06/12/2015	05:04:48.547	$GPGGA,050449,2427.8038,N,08124.9839,W,1,8,1.6,18,M,,M,,*5E
06/12/2015	05:04:49.536	$GPGGA,050450,2427.8036,N,08124.9845,W,1,8,1.7,18,M,,M,,*52
06/12/2015	05:04:50.546	$GPGGA,050451,2427.8033,N,08124.9852,W,1,8,1.6,18,M,,M,,*51
06/12/2015	05:04:51.576	$GPGGA,050452,2427.8031,N,08124.9860,W,1,9,1.6,18,M,,M,,*50
06/12/2015	05:04:52.536	$GPGGA,050453,2427.8028,N,08124.9867,W,1,9,1.6,18,M,,M,,*5E
06/12/2015	05:04:53.556	$GPGGA,050454,2427.8026,N,08124.9874,W,1,9,1.6,18,M,,M,,*55
06/12/2015	05:04:54.536	$GPGGA,050455,2427.8023,N,08124.9882,W,1,9,1.6,18,M,,M,,*58
06/12/2015	05:04:55.557	$GPGGA,050456,2427.8022,N,08124.9889,W,1,8,2.0,18,M,,M,,*55
06/12/2015	05:04:56.537	$GPGGA,050457,2427.8018,N,08124.9896,W,1,8,1.6,18,M,,M,,*56
06/12/2015	05:04:57.527	$GPGGA,050458,2427.8016,N,08124.9903,W,1,8,2.0,18,M,,M,,*5F
06/12/2015	05:04:58.527	$GPGGA,050459,2427.8013,N,08124.9910,W,1,8,1.6,18,M,,M,,*5C
06/12/2015	05:04:59.567	$GPGGA,050500,2427.8012,N,08124.9917,W,1,9,1.6,18,M,,M,,*56
06/12/2015	05:05:00.977	$GPGGA,050501,2427.8013,N,08124.9924,W,1,9,1.6,18,M,,M,,*56
06/12/2015	05:05:01.547	$GPGGA,050502,2427.8010,N,08124.9931,W,1,9,1.6,18,M,,M,,*52
06/12/2015	05:05:02.510	$GPGGA,050503,2427.8008,N,08124.9938,W,1,9,1.6,18,M,,M,,*53
06/12/2015	05:05:03.537	$GPGGA,050504,2427.8004,N,08124.9943,W,1,9,1.6,18,M,,M,,*54
06/12/2015	05:05:04.509	$GPGGA,050505,2427.8002,N,08124.9950,W,1,9,2.0,18,M,,M,,*54
06/12/2015	05:05:05.517	$GPGGA,050506,2427.8000,N,08124.9957,W,1,9,1.6,18,M,,M,,*57
06/12/2015	05:05:06.506	$GPGGA,050507,2427.7997,N,08124.9964,W,1,9,1.6,18,M,,M,,*5E
06/12/2015	05:05:07.556	$GPGGA,050508,2427.7993,N,08124.9971,W,1,9,1.6,18,M,,M,,*51
06/12/2015	05:05:08.526	$GPGGA,050509,2427.7990,N,08124.9976,W,1,9,1.6,18,M,,M,,*54
06/12/2015	05:05:09.496	$GPGGA,050510,2427.7988,N,08124.9985,W,1,9,1.6,18,M,,M,,*59
06/12/2015	05:05:10.508	$GPGGA,050511,2427.7986,N,08124.9990,W,1,9,2.0,18,M,,M,,*57
06/12/2015	05:05:11.546	$GPGGA,050512,2427.7984,N,08124.9997,W,1,8,2.0,18,M,,M,,*50
06/12/2015	05:05:12.496	$GPGGA,050513,2427.7983,N,08125.0004,W,1,8,1.6,18,M,,M,,*58
06/12/2015	05:05:13.487	$GPGGA,050514,2427.7979,N,08125.0011,W,1,9,1.6,18,M,,M,,*5F
06/12/2015	05:05:14.587	$GPGGA,050515,2427.7975,N,08125.0018,W,1,9,2.0,18,M,,M,,*5E
06/12/2015	05:05:15.547	$GPGGA,050516,2427.7973,N,08125.0025,W,1,8,2.0,18,M,,M,,*54
06/12/2015	05:05:16.497	$GPGGA,050517,2427.7970,N,08125.0030,W,1,8,1.6,18,M,,M,,*57
06/12/2015	05:05:17.587	$GPGGA,050518,2427.7968,N,08125.0037,W,1,8,2.0,18,M,,M,,*53
06/12/2015	05:05:18.497	$GPGGA,050519,2427.7966,N,08125.0044,W,1,8,2.0,18,M,,M,,*58
06/12/2015	05:05:19.497	$GPGGA,050520,2427.7964,N,08125.0051,W,1,8,2.0,18,M,,M,,*54
06/12/2015	05:05:20.477	$GPGGA,050521,2427.7961,N,08125.0058,W,1,8,2.0,18,M,,M,,*59
06/12/2015	05:05:21.487	$GPGGA,050522,2427.7961,N,08125.0065,W,1,8,2.0,18,M,,M,,*54
06/12/2015	05:05:22.577	$GPGGA,050523,2427.7958,N,08125.0072,W,1,8,1.6,18,M,,M,,*5C
06/12/2015	05:05:23.587	$GPGGA,050524,2427.7957,N,08125.0077,W,1,9,1.6,18,M,,M,,*50
06/12/2015	05:05:24.576	$GPGGA,050525,2427.7957,N,08125.0085,W,1,9,1.6,18,M,,M,,*5C
06/12/2015	05:05:25.556	$GPGGA,050526,2427.7955,N,08125.0092,W,1,9,1.6,18,M,,M,,*5B
06/12/2015	05:05:26.556	$GPGGA,050527,2427.7952,N,08125.0099,W,1,9,1.6,19,M,,M,,*57
06/12/2015	05:05:27.577	$GPGGA,050528,2427.7950,N,08125.0106,W,1,9,1.6,19,M,,M,,*5D
06/12/2015	05:05:28.556	$GPGGA,050529,2427.7950,N,08125.0115,W,1,9,1.6,19,M,,M,,*5E
06/12/2015	05:05:29.576	$GPGGA,050530,2427.7950,N,08125.0121,W,1,9,1.6,19,M,,M,,*51
06/12/2015	05:05:30.557	$GPGGA,050531,2427.7945,N,08125.0127,W,1,9,1.6,19,M,,M,,*52
06/12/2015	05:05:31.609	$GPGGA,050532,2427.7944,N,08125.0134,W,1,9,1.6,19,M,,M,,*52
06/12/2015	05:05:32.557	$GPGGA,050533,2427.7945,N,08125.0144,W,1,9,1.6,19,M,,M,,*55
06/12/2015	05:05:33.567	$GPGGA,050534,2427.7943,N,08125.0150,W,1,9,1.6,19,M,,M,,*51
06/12/2015	05:05:34.557	$GPGGA,050535,2427.7940,N,08125.0157,W,1,9,1.6,19,M,,M,,*54
06/12/2015	05:05:35.557	$GPGGA,050536,2427.7939,N,08125.0164,W,1,9,1.6,19,M,,M,,*59
06/12/2015	05:05:36.547	$GPGGA,050537,2427.7939,N,08125.0173,W,1,9,1.6,19,M,,M,,*5E
06/12/2015	05:05:37.567	$GPGGA,050538,2427.7936,N,08125.0181,W,1,9,1.6,19,M,,M,,*53
06/12/2015	05:05:38.537	$GPGGA,050539,2427.7933,N,08125.0186,W,1,9,1.6,19,M,,M,,*50
06/12/2015	05:05:39.567	$GPGGA,050540,2427.7932,N,08125.0193,W,1,9,1.6,19,M,,M,,*5B
06/12/2015	05:05:40.537	$GPGGA,050541,2427.7932,N,08125.0202,W,1,9,1.6,19,M,,M,,*51
06/12/2015	05:05:41.526	$GPGGA,050542,2427.7929,N,08125.0209,W,1,9,1.6,19,M,,M,,*53
06/12/2015	05:05:42.536	$GPGGA,050543,2427.7928,N,08125.0215,W,1,9,1.6,19,M,,M,,*5E
06/12/2015	05:05:43.896	$GPGGA,050544,2427.7926,N,08125.0224,W,1,9,1.6,19,M,,M,,*55
06/12/2015	05:05:44.536	$GPGGA,050545,2427.7923,N,08125.0231,W,1,9,1.6,19,M,,M,,*55
06/12/2015	05:05:45.546	$GPGGA,050546,2427.7921,N,08125.0238,W,1,9,1.6,19,M,,M,,*5D
06/12/2015	05:05:46.519	$GPGGA,050547,2427.7919,N,08125.0246,W,1,9,1.6,19,M,,M,,*5E
06/12/2015	05:05:47.546	$GPGGA,050548,2427.7917,N,08125.0253,W,1,8,2.0,19,M,,M,,*5F
06/12/2015	05:05:48.537	$GPGGA,050549,2427.7914,N,08125.0260,W,1,8,1.6,19,M,,M,,*58
06/12/2015	05:05:49.512	$GPGGA,050550,2427.7914,N,08125.0267,W,1,9,1.6,19,M,,M,,*56
06/12/2015	05:05:50.527	$GPGGA,050551,2427.7911,N,08125.0275,W,1,9,1.6,19,M,,M,,*51
06/12/2015	05:05:51.547	$GPGGA,050552,2427.7910,N,08125.0282,W,1,9,1.6,19,M,,M,,*5B
06/12/2015	05:05:52.526	$GPGGA,050553,2427.7907,N,08125.0289,W,1,9,1.6,19,M,,M,,*57
06/12/2015	05:05:53.537	$GPGGA,050554,2427.7905,N,08125.0296,W,1,9,1.6,19,M,,M,,*5C
06/12/2015	05:05:54.520	$GPGGA,050555,2427.7903,N,08125.0303,W,1,9,1.6,19,M,,M,,*56
06/12/2015	05:05:55.567	$GPGGA,050556,2427.7903,N,08125.0309,W,1,9,1.6,19,M,,M,,*5F
06/12/2015	05:05:56.637	$GPGGA,050557,2427.7900,N,08125.0318,W,1,9,1.6,19,M,,M,,*5D
06/12/2015	05:05:57.508	$GPGGA,050558,2427.7899,N,08125.0325,W,1,9,1.6,19,M,,M,,*5D
06/12/2015	05:05:58.613	$GPGGA,050559,2427.7897,N,08125.0333,W,1,9,1.6,19,M,,M,,*55
06/12/2015	05:05:59.676	$GPGGA,050600,2427.7896,N,08125.0340,W,1,9,1.6,19,M,,M,,*5F
06/12/2015	05:06:00.509	$GPGGA,050601,2427.7893,N,08125.0347,W,1,9,1.6,19,M,,M,,*5C
06/12/2015	05:06:02.036	$GPGGA,050602,2427.7894,N,08125.0355,W,1,9,1.6,19,M,,M,,*5B
06/12/2015	05:06:02.496	$GPGGA,050603,2427.7892,N,08125.0361,W,1,9,1.6,19,M,,M,,*5B
06/12/2015	05:06:03.636	$GPGGA,050604,2427.7889,N,08125.0368,W,1,9,1.6,19,M,,M,,*5F
06/12/2015	05:06:04.496	$GPGGA,050605,2427.7888,N,08125.0376,W,1,9,1.6,19,M,,M,,*50
06/12/2015	05:06:05.612	$GPGGA,050606,2427.7888,N,08125.0384,W,1,9,1.6,19,M,,M,,*5E
06/12/2015	05:06:07.527	$GPGGA,050608,2427.7883,N,08125.0397,W,1,9,1.6,19,M,,M,,*59
06/12/2015	05:06:08.587	$GPGGA,050609,2427.7881,N,08125.0405,W,1,9,1.6,19,M,,M,,*56
06/12/2015	05:06:09.477	$GPGGA,050610,2427.7881,N,08125.0412,W,1,9,1.6,19,M,,M,,*58
06/12/2015	05:06:10.577	$GPGGA,050611,2427.7880,N,08125.0419,W,1,9,1.6,19,M,,M,,*53
06/12/2015	05:06:11.609	$GPGGA,050612,2427.7878,N,08125.0424,W,1,9,1.6,19,M,,M,,*59
06/12/2015	05:06:12.577	$GPGGA,050613,2427.7875,N,08125.0433,W,1,9,1.6,19,M,,M,,*53
06/12/2015	05:06:13.597	$GPGGA,050614,2427.7874,N,08125.0441,W,1,9,1.6,19,M,,M,,*50
06/12/2015	05:06:14.567	$GPGGA,050615,2427.7871,N,08125.0448,W,1,9,1.6,19,M,,M,,*5D
06/12/2015	05:06:15.597	$GPGGA,050616,2427.7870,N,08125.0453,W,1,9,1.6,19,M,,M,,*55
06/12/2015	05:06:16.576	$GPGGA,050617,2427.7868,N,08125.0459,W,1,9,1.6,19,M,,M,,*57
06/12/2015	05:06:17.576	$GPGGA,050618,2427.7865,N,08125.0466,W,1,9,1.6,19,M,,M,,*59
06/12/2015	05:06:18.556	$GPGGA,050619,2427.7863,N,08125.0474,W,1,9,1.6,19,M,,M,,*5D
06/12/2015	05:06:19.607	$GPGGA,050620,2427.7861,N,08125.0481,W,1,9,1.6,19,M,,M,,*5F
06/12/2015	05:06:20.566	$GPGGA,050621,2427.7858,N,08125.0488,W,1,9,1.6,19,M,,M,,*5D
06/12/2015	05:06:21.576	$GPGGA,050622,2427.7857,N,08125.0495,W,1,9,1.6,19,M,,M,,*5D
06/12/2015	05:06:22.556	$GPGGA,050623,2427.7856,N,08125.0502,W,1,9,1.6,19,M,,M,,*52
06/12/2015	05:06:23.577	$GPGGA,050624,2427.7852,N,08125.0506,W,1,9,1.6,19,M,,M,,*55
06/12/2015	05:06:25.028	$GPGGA,050625,2427.7849,N,08125.0513,W,1,9,1.6,19,M,,M,,*5A
06/12/2015	05:06:25.537	$GPGGA,050626,2427.7847,N,08125.0520,W,1,9,2.0,19,M,,M,,*52
06/12/2015	05:06:26.547	$GPGGA,050627,2427.7845,N,08125.0527,W,1,9,2.0,19,M,,M,,*56
06/12/2015	05:06:27.577	$GPGGA,050628,2427.7842,N,08125.0535,W,1,8,1.6,19,M,,M,,*59
06/12/2015	05:06:28.557	$GPGGA,050629,2427.7840,N,08125.0540,W,1,8,1.6,19,M,,M,,*58
06/12/2015	05:06:29.867	$GPGGA,050630,2427.7838,N,08125.0547,W,1,9,1.6,19,M,,M,,*59
06/12/2015	05:06:30.537	$GPGGA,050631,2427.7838,N,08125.0554,W,1,9,1.7,19,M,,M,,*5B
06/12/2015	05:06:31.547	$GPGGA,050632,2427.7834,N,08125.0561,W,1,8,1.7,19,M,,M,,*53
06/12/2015	05:06:32.527	$GPGGA,050633,2427.7831,N,08125.0567,W,1,8,2.0,19,M,,M,,*55
06/12/2015	05:06:33.557	$GPGGA,050634,2427.7831,N,08125.0572,W,1,8,2.0,19,M,,M,,*56
06/12/2015	05:06:34.536	$GPGGA,050635,2427.7831,N,08125.0578,W,1,8,2.0,19,M,,M,,*5D
06/12/2015	05:06:35.566	$GPGGA,050636,2427.7827,N,08125.0585,W,1,8,2.7,19,M,,M,,*5C
06/12/2015	05:06:36.526	$GPGGA,050637,2427.7823,N,08125.0590,W,1,8,2.0,19,M,,M,,*5A
06/12/2015	05:06:37.526	$GPGGA,050638,2427.7821,N,08125.0598,W,1,8,2.0,19,M,,M,,*5F
06/12/2015	05:06:38.547	$GPGGA,050639,2427.7818,N,08125.0605,W,1,8,2.0,19,M,,M,,*53
06/12/2015	05:06:40.056	$GPGGA,050640,2427.7816,N,08125.0612,W,1,8,2.0,19,M,,M,,*55
06/12/2015	05:06:40.507	$GPGGA,050641,2427.7813,N,08125.0619,W,1,8,2.0,19,M,,M,,*5A
06/12/2015	05:06:41.527	$GPGGA,050642,2427.7810,N,08125.0626,W,1,8,2.0,19,M,,M,,*56
06/12/2015	05:06:42.537	$GPGGA,050643,2427.7807,N,08125.0632,W,1,8,2.0,19,M,,M,,*54
06/12/2015	05:06:43.627	$GPGGA,050644,2427.7804,N,08125.0639,W,1,8,2.0,19,M,,M,,*5B
06/12/2015	05:06:44.527	$GPGGA,050645,2427.7803,N,08125.0647,W,1,8,2.0,19,M,,M,,*54
06/12/2015	05:06:45.517	$GPGGA,050646,2427.7799,N,08125.0654,W,1,8,2.0,19,M,,M,,*59
06/12/2015	05:06:46.597	$GPGGA,050647,2427.7796,N,08125.0661,W,1,8,2.0,19,M,,M,,*51
06/12/2015	05:06:47.547	$GPGGA,050648,2427.7793,N,08125.0668,W,1,8,2.0,19,M,,M,,*52
06/12/2015	05:06:48.587	$GPGGA,050649,2427.7791,N,08125.0676,W,1,8,2.0,19,M,,M,,*5E
06/12/2015	05:06:49.587	$GPGGA,050650,2427.7788,N,08125.0683,W,1,8,2.0,19,M,,M,,*54
06/12/2015	05:06:50.587	$GPGGA,050651,2427.7786,N,08125.0688,W,1,8,2.0,19,M,,M,,*50
06/12/2015	05:06:51.556	$GPGGA,050652,2427.7789,N,08125.0697,W,1,9,1.6,19,M,,M,,*56
06/12/2015	05:06:53.010	$GPGGA,050653,2427.7788,N,08125.0705,W,1,9,1.6,19,M,,M,,*5C
06/12/2015	05:06:53.586	$GPGGA,050654,2427.7785,N,08125.0712,W,1,9,2.0,19,M,,M,,*55
06/12/2015	05:06:54.516	$GPGGA,050655,2427.7786,N,08125.0719,W,1,9,1.6,19,M,,M,,*59
06/12/2015	05:06:55.586	$GPGGA,050656,2427.7782,N,08125.0726,W,1,9,2.0,19,M,,M,,*57
06/12/2015	05:06:56.577	$GPGGA,050657,2427.7780,N,08125.0733,W,1,9,2.0,19,M,,M,,*50
06/12/2015	05:06:57.577	$GPGGA,050658,2427.7776,N,08125.0740,W,1,7,2.0,19,M,,M,,*5C
06/12/2015	05:06:58.565	$GPGGA,050659,2427.7771,N,08125.0745,W,1,7,2.0,19,M,,M,,*5F
06/12/2015	05:06:59.606	$GPGGA,050700,2427.7769,N,08125.0753,W,1,8,2.0,19,M,,M,,*53
06/12/2015	05:07:00.555	$GPGGA,050701,2427.7767,N,08125.0760,W,1,8,2.0,19,M,,M,,*5C
06/12/2015	05:07:01.585	$GPGGA,050702,2427.7766,N,08125.0766,W,1,8,2.0,19,M,,M,,*58
06/12/2015	05:07:02.555	$GPGGA,050703,2427.7763,N,08125.0771,W,1,8,2.0,19,M,,M,,*5A
06/12/2015	05:07:03.575	$GPGGA,050704,2427.7765,N,08125.0778,W,1,8,1.6,19,M,,M,,*57
06/12/2015	05:07:04.555	$GPGGA,050705,2427.7762,N,08125.0784,W,1,8,1.6,19,M,,M,,*52
06/12/2015	05:07:05.545	$GPGGA,050706,2427.7758,N,08125.0791,W,1,8,2.0,19,M,,M,,*59
06/12/2015	05:07:06.545	$GPGGA,050707,2427.7755,N,08125.0798,W,1,8,2.0,19,M,,M,,*5C
06/12/2015	05:07:07.575	$GPGGA,050708,2427.7755,N,08125.0806,W,1,8,2.0,19,M,,M,,*5B
06/12/2015	05:07:08.535	$GPGGA,050709,2427.7752,N,08125.0813,W,1,8,2.0,19,M,,M,,*59
06/12/2015	05:07:09.554	$GPGGA,050710,2427.7748,N,08125.0818,W,1,8,2.0,19,M,,M,,*51
06/12/2015	05:07:10.544	$GPGGA,050711,2427.7748,N,08125.0824,W,1,8,2.7,19,M,,M,,*58
06/12/2015	05:07:11.574	$GPGGA,050712,2427.7745,N,08125.0831,W,1,9,1.6,19,M,,M,,*51
06/12/2015	05:07:12.534	$GPGGA,050713,2427.7744,N,08125.0838,W,1,9,1.7,19,M,,M,,*59
06/12/2015	05:07:13.524	$GPGGA,050714,2427.7741,N,08125.0846,W,1,9,1.6,19,M,,M,,*53
06/12/2015	05:07:14.534	$GPGGA,050715,2427.7738,N,08125.0853,W,1,9,2.0,19,M,,M,,*5D
06/12/2015	05:07:15.564	$GPGGA,050716,2427.7737,N,08125.0860,W,1,8,2.0,19,M,,M,,*50
06/12/2015	05:07:16.525	$GPGGA,050717,2427.7734,N,08125.0865,W,1,8,2.0,19,M,,M,,*57
06/12/2015	05:07:17.565	$GPGGA,050718,2427.7733,N,08125.0871,W,1,9,1.6,19,M,,M,,*5E
06/12/2015	05:07:18.515	$GPGGA,050719,2427.7735,N,08125.0879,W,1,9,1.6,19,M,,M,,*51
06/12/2015	05:07:19.545	$GPGGA,050720,2427.7733,N,08125.0885,W,1,9,1.6,19,M,,M,,*5E
06/12/2015	05:07:20.525	$GPGGA,050721,2427.7729,N,08125.0892,W,1,9,1.6,19,M,,M,,*52
06/12/2015	05:07:21.511	$GPGGA,050722,2427.7729,N,08125.0899,W,1,9,1.6,19,M,,M,,*5A
06/12/2015	05:07:22.525	$GPGGA,050723,2427.7729,N,08125.0907,W,1,9,1.6,19,M,,M,,*5D
06/12/2015	05:07:23.525	$GPGGA,050724,2427.7727,N,08125.0914,W,1,9,1.6,19,M,,M,,*56
06/12/2015	05:07:24.515	$GPGGA,050725,2427.7724,N,08125.0918,W,1,9,1.6,19,M,,M,,*58
06/12/2015	05:07:25.505	$GPGGA,050726,2427.7722,N,08125.0923,W,1,9,1.6,19,M,,M,,*55
06/12/2015	05:07:26.514	$GPGGA,050727,2427.7721,N,08125.0930,W,1,9,1.6,19,M,,M,,*55
06/12/2015	05:07:27.514	$GPGGA,050728,2427.7719,N,08125.0937,W,1,9,1.6,19,M,,M,,*56
06/12/2015	05:07:28.497	$GPGGA,050729,2427.7715,N,08125.0944,W,1,9,1.6,19,M,,M,,*5F
06/12/2015	05:07:29.544	$GPGGA,050730,2427.7713,N,08125.0951,W,1,9,1.6,19,M,,M,,*55
06/12/2015	05:07:30.499	$GPGGA,050731,2427.7711,N,08125.0958,W,1,9,1.6,19,M,,M,,*5F
06/12/2015	05:07:31.524	$GPGGA,050732,2427.7708,N,08125.0965,W,1,9,1.6,19,M,,M,,*5A
06/12/2015	05:07:32.484	$GPGGA,050733,2427.7705,N,08125.0970,W,1,9,1.6,20,M,,M,,*58
06/12/2015	05:07:33.611	$GPGGA,050734,2427.7704,N,08125.0977,W,1,9,1.6,20,M,,M,,*59
06/12/2015	05:07:34.585	$GPGGA,050735,2427.7701,N,08125.0983,W,1,9,1.6,20,M,,M,,*56
06/12/2015	05:07:35.496	$GPGGA,050736,2427.7697,N,08125.0990,W,1,9,1.6,20,M,,M,,*59
06/12/2015	05:07:36.598	$GPGGA,050737,2427.7697,N,08125.0998,W,1,9,1.6,20,M,,M,,*50
06/12/2015	05:07:37.609	$GPGGA,050738,2427.7695,N,08125.1004,W,1,9,1.6,20,M,,M,,*50
06/12/2015	05:07:38.495	$GPGGA,050739,2427.7691,N,08125.1011,W,1,9,1.6,20,M,,M,,*51
06/12/2015	05:07:39.585	$GPGGA,050740,2427.7690,N,08125.1017,W,1,9,1.6,20,M,,M,,*58
06/12/2015	05:07:40.485	$GPGGA,050741,2427.7690,N,08125.1026,W,1,9,1.6,20,M,,M,,*5B
06/12/2015	05:07:41.585	$GPGGA,050742,2427.7686,N,08125.1031,W,1,9,1.6,20,M,,M,,*59
06/12/2015	05:07:42.485	$GPGGA,050743,2427.7684,N,08125.1037,W,1,9,1.6,20,M,,M,,*5C
06/12/2015	05:07:43.607	$GPGGA,050744,2427.7682,N,08125.1044,W,1,9,1.6,20,M,,M,,*59
06/12/2015	05:07:44.565	$GPGGA,050745,2427.7680,N,08125.1051,W,1,9,1.6,20,M,,M,,*5E
06/12/2015	05:07:45.564	$GPGGA,050746,2427.7677,N,08125.1059,W,1,9,1.6,20,M,,M,,*5D
06/12/2015	05:07:46.464	$GPGGA,050747,2427.7674,N,08125.1066,W,1,9,2.0,20,M,,M,,*56
06/12/2015	05:07:47.564	$GPGGA,050748,2427.7672,N,08125.1073,W,1,8,2.0,20,M,,M,,*5A
06/12/2015	05:07:48.554	$GPGGA,050749,2427.7670,N,08125.1080,W,1,8,1.6,20,M,,M,,*50
06/12/2015	05:07:49.564	$GPGGA,050750,2427.7668,N,08125.1087,W,1,9,1.6,19,M,,M,,*5D
06/12/2015	05:07:50.564	$GPGGA,050751,2427.7668,N,08125.1092,W,1,9,1.6,19,M,,M,,*58
06/12/2015	05:07:51.565	$GPGGA,050752,2427.7665,N,08125.1100,W,1,9,1.6,19,M,,M,,*5C
06/12/2015	05:07:52.555	$GPGGA,050753,2427.7663,N,08125.1109,W,1,9,2.0,19,M,,M,,*57
06/12/2015	05:07:53.565	$GPGGA,050754,2427.7664,N,08125.1116,W,1,9,1.6,19,M,,M,,*5C
06/12/2015	05:07:54.545	$GPGGA,050755,2427.7661,N,08125.1123,W,1,9,1.6,19,M,,M,,*5E
06/12/2015	05:07:55.585	$GPGGA,050756,2427.7661,N,08125.1131,W,1,9,1.6,19,M,,M,,*5E
06/12/2015	05:07:56.545	$GPGGA,050757,2427.7661,N,08125.1138,W,1,9,1.6,19,M,,M,,*56
06/12/2015	05:07:57.555	$GPGGA,050758,2427.7657,N,08125.1143,W,1,9,1.6,19,M,,M,,*50
06/12/2015	05:07:58.545	$GPGGA,050759,2427.7655,N,08125.1150,W,1,9,1.6,19,M,,M,,*51
06/12/2015	05:07:59.598	$GPGGA,050800,2427.7656,N,08125.1158,W,1,9,1.6,19,M,,M,,*59
06/12/2015	05:08:00.545	$GPGGA,050801,2427.7654,N,08125.1165,W,1,9,1.6,19,M,,M,,*54
06/12/2015	05:08:01.524	$GPGGA,050802,2427.7651,N,08125.1171,W,1,9,1.6,19,M,,M,,*57
06/12/2015	05:08:02.534	$GPGGA,050803,2427.7648,N,08125.1178,W,1,9,1.6,19,M,,M,,*57
06/12/2015	05:08:03.544	$GPGGA,050804,2427.7649,N,08125.1186,W,1,9,1.6,19,M,,M,,*50
06/12/2015	05:08:04.524	$GPGGA,050805,2427.7647,N,08125.1193,W,1,9,1.6,19,M,,M,,*5B
06/12/2015	05:08:05.514	$GPGGA,050806,2427.7643,N,08125.1200,W,1,9,1.6,19,M,,M,,*55
06/12/2015	05:08:06.524	$GPGGA,050807,2427.7640,N,08125.1207,W,1,9,2.0,19,M,,M,,*55
06/12/2015	05:08:07.564	$GPGGA,050808,2427.7641,N,08125.1214,W,1,9,1.6,19,M,,M,,*5C
06/12/2015	05:08:08.505	$GPGGA,050809,2427.7639,N,08125.1222,W,1,9,1.6,19,M,,M,,*57
06/12/2015	05:08:09.506	$GPGGA,050810,2427.7639,N,08125.1229,W,1,9,1.6,19,M,,M,,*54
06/12/2015	05:08:10.515	$GPGGA,050811,2427.7636,N,08125.1236,W,1,9,1.6,19,M,,M,,*54
06/12/2015	05:08:11.545	$GPGGA,050812,2427.7634,N,08125.1243,W,1,9,1.6,19,M,,M,,*57
06/12/2015	05:08:12.506	$GPGGA,050813,2427.7633,N,08125.1251,W,1,9,1.6,19,M,,M,,*52
06/12/2015	05:08:13.515	$GPGGA,050814,2427.7630,N,08125.1257,W,1,9,1.6,19,M,,M,,*50
06/12/2015	05:08:14.505	$GPGGA,050815,2427.7627,N,08125.1264,W,1,9,2.0,19,M,,M,,*52
06/12/2015	05:08:15.625	$GPGGA,050816,2427.7625,N,08125.1272,W,1,9,1.6,19,M,,M,,*51
06/12/2015	05:08:16.498	$GPGGA,050817,2427.7623,N,08125.1279,W,1,9,2.0,19,M,,M,,*58
06/12/2015	05:08:17.497	$GPGGA,050818,2427.7621,N,08125.1286,W,1,9,1.6,19,M,,M,,*50
06/12/2015	05:08:18.508	$GPGGA,050819,2427.7618,N,08125.1291,W,1,9,1.6,19,M,,M,,*5D
06/12/2015	05:08:19.624	$GPGGA,050820,2427.7616,N,08125.1298,W,1,9,1.6,19,M,,M,,*50
06/12/2015	05:08:20.504	$GPGGA,050821,2427.7614,N,08125.1306,W,1,9,1.6,19,M,,M,,*55
06/12/2015	05:08:21.604	$GPGGA,050822,2427.7611,N,08125.1313,W,1,9,1.6,19,M,,M,,*57
06/12/2015	05:08:22.505	$GPGGA,050823,2427.7609,N,08125.1320,W,1,9,1.6,19,M,,M,,*5F
06/12/2015	05:08:23.544	$GPGGA,050824,2427.7608,N,08125.1326,W,1,8,1.7,19,M,,M,,*5F
06/12/2015	05:08:24.574	$GPGGA,050825,2427.7607,N,08125.1333,W,1,8,1.6,19,M,,M,,*54
06/12/2015	05:08:25.575	$GPGGA,050826,2427.7605,N,08125.1338,W,1,9,1.6,19,M,,M,,*5F
06/12/2015	05:08:26.501	$GPGGA,050827,2427.7603,N,08125.1345,W,1,9,1.6,19,M,,M,,*52
06/12/2015	05:08:27.615	$GPGGA,050828,2427.7601,N,08125.1351,W,1,8,1.7,19,M,,M,,*5A
06/12/2015	05:08:28.575	$GPGGA,050829,2427.7599,N,08125.1358,W,1,8,1.7,19,M,,M,,*50
06/12/2015	05:08:29.565	$GPGGA,050830,2427.7596,N,08125.1365,W,1,9,1.6,19,M,,M,,*59
06/12/2015	05:08:30.485	$GPGGA,050831,2427.7596,N,08125.1373,W,1,9,1.7,19,M,,M,,*5E
06/12/2015	05:08:31.486	$GPGGA,050832,2427.7593,N,08125.1380,W,1,9,1.6,19,M,,M,,*55
06/12/2015	05:08:32.555	$GPGGA,050833,2427.7590,N,08125.1385,W,1,9,1.6,19,M,,M,,*52
06/12/2015	05:08:33.565	$GPGGA,050834,2427.7589,N,08125.1391,W,1,9,1.6,19,M,,M,,*58
06/12/2015	05:08:34.555	$GPGGA,050835,2427.7589,N,08125.1398,W,1,9,1.6,19,M,,M,,*50
06/12/2015	05:08:35.585	$GPGGA,050836,2427.7585,N,08125.1405,W,1,8,1.7,19,M,,M,,*5C
06/12/2015	05:08:36.545	$GPGGA,050837,2427.7583,N,08125.1413,W,1,8,1.6,19,M,,M,,*5D
06/12/2015	05:08:37.554	$GPGGA,050838,2427.7580,N,08125.1420,W,1,9,1.6,19,M,,M,,*50
06/12/2015	05:08:38.554	$GPGGA,050839,2427.7578,N,08125.1428,W,1,9,2.0,19,M,,M,,*5B
06/12/2015	05:08:39.554	$GPGGA,050840,2427.7578,N,08125.1434,W,1,8,1.7,19,M,,M,,*5D
06/12/2015	05:08:40.545	$GPGGA,050841,2427.7575,N,08125.1441,W,1,8,1.7,19,M,,M,,*53
06/12/2015	05:08:41.564	$GPGGA,050842,2427.7574,N,08125.1449,W,1,9,1.6,19,M,,M,,*59
06/12/2015	05:08:42.544	$GPGGA,050843,2427.7574,N,08125.1456,W,1,9,1.6,19,M,,M,,*56
06/12/2015	05:08:43.599	$GPGGA,050844,2427.7571,N,08125.1463,W,1,9,1.6,19,M,,M,,*52
06/12/2015	05:08:44.535	$GPGGA,050845,2427.7569,N,08125.1468,W,1,9,1.6,19,M,,M,,*51
06/12/2015	05:08:45.555	$GPGGA,050846,2427.7568,N,08125.1475,W,1,8,1.7,19,M,,M,,*5F
06/12/2015	05:08:46.545	$GPGGA,050847,2427.7567,N,08125.1482,W,1,8,1.6,19,M,,M,,*58
06/12/2015	05:08:47.575	$GPGGA,050848,2427.7564,N,08125.1488,W,1,9,1.6,19,M,,M,,*5F
06/12/2015	05:08:48.535	$GPGGA,050849,2427.7562,N,08125.1493,W,1,9,1.6,19,M,,M,,*52
06/12/2015	05:08:49.525	$GPGGA,050850,2427.7561,N,08125.1499,W,1,8,1.7,19,M,,M,,*53
06/12/2015	05:08:50.535	$GPGGA,050851,2427.7558,N,08125.1504,W,1,8,1.6,19,M,,M,,*5C
06/12/2015	05:08:51.565	$GPGGA,050852,2427.7556,N,08125.1512,W,1,9,1.6,19,M,,M,,*57
06/12/2015	05:08:52.535	$GPGGA,050853,2427.7554,N,08125.1519,W,1,9,1.7,19,M,,M,,*5E
06/12/2015	05:08:53.510	$GPGGA,050854,2427.7551,N,08125.1524,W,1,8,1.7,19,M,,M,,*53
06/12/2015	05:08:54.534	$GPGGA,050855,2427.7549,N,08125.1529,W,1,8,1.6,19,M,,M,,*57
06/12/2015	05:08:55.524	$GPGGA,050856,2427.7549,N,08125.1536,W,1,9,1.6,19,M,,M,,*5B
06/12/2015	05:08:56.504	$GPGGA,050857,2427.7545,N,08125.1543,W,1,9,1.6,19,M,,M,,*54
06/12/2015	05:08:57.544	$GPGGA,050858,2427.7542,N,08125.1550,W,1,9,1.6,20,M,,M,,*54
06/12/2015	05:08:58.514	$GPGGA,050859,2427.7540,N,08125.1557,W,1,9,1.6,20,M,,M,,*50
06/12/2015	05:08:59.564	$GPGGA,050900,2427.7539,N,08125.1565,W,1,9,1.6,20,M,,M,,*52
06/12/2015	05:09:00.515	$GPGGA,050901,2427.7536,N,08125.1569,W,1,9,1.7,20,M,,M,,*51
06/12/2015	05:09:01.665	$GPGGA,050902,2427.7533,N,08125.1576,W,1,9,1.6,20,M,,M,,*58
06/12/2015	05:09:02.505	$GPGGA,050903,2427.7532,N,08125.1582,W,1,9,1.6,20,M,,M,,*53
06/12/2015	05:09:03.535	$GPGGA,050904,2427.7531,N,08125.1590,W,1,9,1.6,20,M,,M,,*54
06/12/2015	05:09:04.515	$GPGGA,050905,2427.7527,N,08125.1597,W,1,9,1.6,20,M,,M,,*55
06/12/2015	05:09:05.515	$GPGGA,050906,2427.7524,N,08125.1604,W,1,9,1.6,20,M,,M,,*5C
06/12/2015	05:09:06.496	$GPGGA,050907,2427.7523,N,08125.1611,W,1,9,1.6,20,M,,M,,*5E
06/12/2015	05:09:07.525	$GPGGA,050908,2427.7520,N,08125.1618,W,1,9,1.6,20,M,,M,,*5B
06/12/2015	05:09:08.585	$GPGGA,050909,2427.7517,N,08125.1624,W,1,9,2.0,20,M,,M,,*54
06/12/2015	05:09:09.675	$GPGGA,050910,2427.7513,N,08125.1631,W,1,8,1.6,20,M,,M,,*58
06/12/2015	05:09:10.500	$GPGGA,050911,2427.7510,N,08125.1637,W,1,8,1.6,20,M,,M,,*5C
06/12/2015	05:09:11.684	$GPGGA,050912,2427.7507,N,08125.1644,W,1,9,1.6,20,M,,M,,*5C
06/12/2015	05:09:12.497	$GPGGA,050913,2427.7506,N,08125.1651,W,1,9,1.6,20,M,,M,,*58
06/12/2015	05:09:13.944	$GPGGA,050914,2427.7504,N,08125.1658,W,1,9,1.6,20,M,,M,,*54
06/12/2015	05:09:14.474	$GPGGA,050915,2427.7502,N,08125.1665,W,1,9,1.6,20,M,,M,,*5D
06/12/2015	05:09:15.674	$GPGGA,050916,2427.7502,N,08125.1671,W,1,9,1.6,19,M,,M,,*51
06/12/2015	05:09:16.574	$GPGGA,050917,2427.7500,N,08125.1678,W,1,9,1.6,19,M,,M,,*5B
06/12/2015	05:09:17.664	$GPGGA,050918,2427.7497,N,08125.1685,W,1,9,1.6,19,M,,M,,*59
06/12/2015	05:09:18.565	$GPGGA,050919,2427.7496,N,08125.1691,W,1,9,1.6,19,M,,M,,*5C
06/12/2015	05:09:19.665	$GPGGA,050920,2427.7495,N,08125.1698,W,1,9,1.6,19,M,,M,,*5C
06/12/2015	05:09:20.605	$GPGGA,050921,2427.7493,N,08125.1705,W,1,9,1.6,19,M,,M,,*5E
06/12/2015	05:09:21.675	$GPGGA,050922,2427.7491,N,08125.1712,W,1,9,1.6,19,M,,M,,*59
06/12/2015	05:09:22.555	$GPGGA,050923,2427.7491,N,08125.1720,W,1,9,1.6,19,M,,M,,*59
06/12/2015	05:09:23.665	$GPGGA,050924,2427.7489,N,08125.1727,W,1,9,1.6,19,M,,M,,*50
06/12/2015	05:09:24.585	$GPGGA,050925,2427.7486,N,08125.1732,W,1,9,1.6,19,M,,M,,*5A
06/12/2015	05:09:25.656	$GPGGA,050926,2427.7485,N,08125.1739,W,1,9,1.6,19,M,,M,,*51
06/12/2015	05:09:26.575	$GPGGA,050927,2427.7484,N,08125.1748,W,1,9,1.6,19,M,,M,,*57
06/12/2015	05:09:27.655	$GPGGA,050928,2427.7481,N,08125.1753,W,1,8,2.0,19,M,,M,,*53
06/12/2015	05:09:28.575	$GPGGA,050929,2427.7478,N,08125.1760,W,1,8,1.7,19,M,,M,,*50
06/12/2015	05:09:29.654	$GPGGA,050930,2427.7477,N,08125.1767,W,1,8,1.7,19,M,,M,,*50
06/12/2015	05:09:30.574	$GPGGA,050931,2427.7477,N,08125.1774,W,1,8,1.6,19,M,,M,,*52
06/12/2015	05:09:31.674	$GPGGA,050932,2427.7475,N,08125.1779,W,1,9,1.6,19,M,,M,,*5F
06/12/2015	05:09:32.575	$GPGGA,050933,2427.7473,N,08125.1786,W,1,9,1.6,19,M,,M,,*58
06/12/2015	05:09:33.644	$GPGGA,050934,2427.7473,N,08125.1796,W,1,9,1.6,19,M,,M,,*5E
06/12/2015	05:09:34.534	$GPGGA,050935,2427.7469,N,08125.1801,W,1,9,1.7,19,M,,M,,*54
06/12/2015	05:09:35.645	$GPGGA,050936,2427.7467,N,08125.1808,W,1,9,1.6,19,M,,M,,*51
06/12/2015	05:09:36.556	$GPGGA,050937,2427.7466,N,08125.1815,W,1,9,1.6,19,M,,M,,*5D
06/12/2015	05:09:37.525	$GPGGA,050938,2427.7463,N,08125.1822,W,1,9,1.6,19,M,,M,,*53
06/12/2015	05:09:38.556	$GPGGA,050939,2427.7460,N,08125.1831,W,1,9,1.6,19,M,,M,,*53
06/12/2015	05:09:39.645	$GPGGA,050940,2427.7459,N,08125.1837,W,1,9,1.6,20,M,,M,,*5B
06/12/2015	05:09:40.555	$GPGGA,050941,2427.7458,N,08125.1846,W,1,9,1.6,20,M,,M,,*5D
06/12/2015	05:09:41.615	$GPGGA,050942,2427.7456,N,08125.1853,W,1,9,1.6,20,M,,M,,*54
06/12/2015	05:09:42.555	$GPGGA,050943,2427.7455,N,08125.1860,W,1,9,1.6,20,M,,M,,*56
06/12/2015	05:09:43.665	$GPGGA,050944,2427.7453,N,08125.1866,W,1,9,1.6,20,M,,M,,*51
06/12/2015	05:09:44.555	$GPGGA,050945,2427.7452,N,08125.1873,W,1,9,1.6,20,M,,M,,*55
06/12/2015	05:09:45.575	$GPGGA,050946,2427.7449,N,08125.1880,W,1,9,1.6,20,M,,M,,*50
06/12/2015	05:09:46.544	$GPGGA,050947,2427.7448,N,08125.1887,W,1,9,1.6,20,M,,M,,*57
06/12/2015	05:09:47.611	$GPGGA,050948,2427.7448,N,08125.1895,W,1,9,1.6,20,M,,M,,*5B
06/12/2015	05:09:48.544	$GPGGA,050949,2427.7445,N,08125.1901,W,1,9,1.6,20,M,,M,,*5B
06/12/2015	05:09:49.584	$GPGGA,050950,2427.7444,N,08125.1908,W,1,9,1.6,20,M,,M,,*5B
06/12/2015	05:09:50.494	$GPGGA,050951,2427.7441,N,08125.1915,W,1,9,1.6,20,M,,M,,*53
06/12/2015	05:09:51.507	$GPGGA,050952,2427.7439,N,08125.1922,W,1,9,1.6,20,M,,M,,*5B
06/12/2015	05:09:52.498	$GPGGA,050953,2427.7437,N,08125.1929,W,1,9,1.6,20,M,,M,,*5F
06/12/2015	05:09:53.625	$GPGGA,050954,2427.7435,N,08125.1936,W,1,9,1.6,20,M,,M,,*54
06/12/2015	05:09:54.525	$GPGGA,050955,2427.7433,N,08125.1941,W,1,9,1.6,20,M,,M,,*53
06/12/2015	05:09:55.625	$GPGGA,050956,2427.7432,N,08125.1948,W,1,9,1.6,20,M,,M,,*58
06/12/2015	05:09:56.535	$GPGGA,050957,2427.7430,N,08125.1955,W,1,9,1.6,20,M,,M,,*57
06/12/2015	05:09:57.575	$GPGGA,050958,2427.7427,N,08125.1962,W,1,9,1.6,20,M,,M,,*5A
06/12/2015	05:09:58.585	$GPGGA,050959,2427.7426,N,08125.1967,W,1,9,1.6,20,M,,M,,*5F
06/12/2015	05:09:59.635	$GPGGA,051000,2427.7424,N,08125.1974,W,1,9,1.6,20,M,,M,,*5B
06/12/2015	05:10:00.601	$GPGGA,051001,2427.7421,N,08125.1981,W,1,9,1.6,20,M,,M,,*55
06/12/2015	05:10:01.575	$GPGGA,051002,2427.7420,N,08125.1990,W,1,9,1.6,20,M,,M,,*57
06/12/2015	05:10:02.585	$GPGGA,051003,2427.7419,N,08125.1996,W,1,9,1.6,20,M,,M,,*5A
06/12/2015	05:10:03.609	$GPGGA,051004,2427.7415,N,08125.2003,W,1,9,1.6,20,M,,M,,*57
06/12/2015	05:10:04.600	$GPGGA,051005,2427.7415,N,08125.2012,W,1,9,2.0,20,M,,M,,*53
06/12/2015	05:10:05.624	$GPGGA,051006,2427.7412,N,08125.2017,W,1,8,1.6,20,M,,M,,*56
06/12/2015	05:10:06.500	$GPGGA,051007,2427.7411,N,08125.2024,W,1,8,1.6,20,M,,M,,*54
06/12/2015	05:10:07.574	$GPGGA,051008,2427.7409,N,08125.2032,W,1,9,2.0,20,M,,M,,*51
06/12/2015	05:10:08.504	$GPGGA,051009,2427.7406,N,08125.2039,W,1,9,2.0,20,M,,M,,*54
06/12/2015	05:10:09.602	$GPGGA,051010,2427.7403,N,08125.2046,W,1,8,1.6,20,M,,M,,*55
06/12/2015	05:10:10.555	$GPGGA,051011,2427.7402,N,08125.2055,W,1,8,1.6,20,M,,M,,*57
06/12/2015	05:10:11.612	$GPGGA,051012,2427.7401,N,08125.2060,W,1,9,1.6,20,M,,M,,*50
06/12/2015	05:10:12.565	$GPGGA,051013,2427.7397,N,08125.2067,W,1,9,1.6,20,M,,M,,*5E
06/12/2015	05:10:13.615	$GPGGA,051014,2427.7395,N,08125.2074,W,1,9,1.6,20,M,,M,,*59
06/12/2015	05:10:14.545	$GPGGA,051015,2427.7393,N,08125.2081,W,1,9,1.6,20,M,,M,,*54
06/12/2015	05:10:15.595	$GPGGA,051016,2427.7391,N,08125.2089,W,1,9,1.6,20,M,,M,,*5D
06/12/2015	05:10:16.545	$GPGGA,051017,2427.7390,N,08125.2096,W,1,9,1.6,20,M,,M,,*53
06/12/2015	05:10:17.575	$GPGGA,051018,2427.7387,N,08125.2103,W,1,9,1.6,20,M,,M,,*57
06/12/2015	05:10:18.545	$GPGGA,051019,2427.7386,N,08125.2111,W,1,9,1.6,20,M,,M,,*54
06/12/2015	05:10:19.611	$GPGGA,051020,2427.7385,N,08125.2117,W,1,9,1.6,20,M,,M,,*5B
06/12/2015	05:10:20.545	$GPGGA,051021,2427.7383,N,08125.2125,W,1,9,1.6,20,M,,M,,*5D
06/12/2015	05:10:21.574	$GPGGA,051022,2427.7383,N,08125.2133,W,1,9,1.6,20,M,,M,,*59
06/12/2015	05:10:22.534	$GPGGA,051023,2427.7381,N,08125.2142,W,1,9,1.6,20,M,,M,,*5C
06/12/2015	05:10:23.634	$GPGGA,051024,2427.7380,N,08125.2150,W,1,9,1.8,20,M,,M,,*57
06/12/2015	05:10:24.544	$GPGGA,051025,2427.7379,N,08125.2157,W,1,9,1.6,20,M,,M,,*59
06/12/2015	05:10:25.554	$GPGGA,051026,2427.7379,N,08125.2162,W,1,9,1.8,20,M,,M,,*52
06/12/2015	05:10:26.534	$GPGGA,051027,2427.7376,N,08125.2168,W,1,9,1.6,20,M,,M,,*58
06/12/2015	05:10:27.554	$GPGGA,051028,2427.7376,N,08125.2168,W,1,9,1.6,20,M,,M,,*57
06/12/2015	05:10:28.965	$GPGGA,051029,2427.7375,N,08125.2180,W,1,9,1.6,20,M,,M,,*53
06/12/2015	05:10:29.575	$GPGGA,051030,2427.7374,N,08125.2190,W,1,9,1.6,20,M,,M,,*5B
06/12/2015	05:10:30.515	$GPGGA,051031,2427.7372,N,08125.2197,W,1,9,1.6,20,M,,M,,*5B
06/12/2015	05:10:31.597	$GPGGA,051032,2427.7372,N,08125.2204,W,1,9,1.6,20,M,,M,,*51
06/12/2015	05:10:32.525	$GPGGA,051033,2427.7370,N,08125.2211,W,1,9,1.6,20,M,,M,,*56
06/12/2015	05:10:33.545	$GPGGA,051034,2427.7371,N,08125.2218,W,1,9,1.6,20,M,,M,,*59
06/12/2015	05:10:34.535	$GPGGA,051035,2427.7371,N,08125.2218,W,1,9,1.6,20,M,,M,,*58
06/12/2015	05:10:35.645	$GPGGA,051036,2427.7366,N,08125.2234,W,1,9,1.6,20,M,,M,,*53
06/12/2015	05:10:36.525	$GPGGA,051037,2427.7367,N,08125.2243,W,1,9,1.6,20,M,,M,,*53
06/12/2015	05:10:37.615	$GPGGA,051038,2427.7365,N,08125.2251,W,1,9,1.6,20,M,,M,,*5D
06/12/2015	05:10:38.515	$GPGGA,051039,2427.7365,N,08125.2258,W,1,9,1.6,20,M,,M,,*55
06/12/2015	05:10:39.574	$GPGGA,051040,2427.7365,N,08125.2265,W,1,9,1.8,20,M,,M,,*5B
06/12/2015	05:10:40.614	$GPGGA,051041,2427.7363,N,08125.2269,W,1,9,1.8,20,M,,M,,*50
06/12/2015	05:10:41.574	$GPGGA,051042,2427.7361,N,08125.2277,W,1,9,1.6,20,M,,M,,*50
06/12/2015	05:10:42.484	$GPGGA,051043,2427.7361,N,08125.2277,W,1,9,1.6,20,M,,M,,*51
06/12/2015	05:10:43.605	$GPGGA,051044,2427.7359,N,08125.2294,W,1,9,1.6,20,M,,M,,*50
06/12/2015	05:10:44.494	$GPGGA,051045,2427.7360,N,08125.2302,W,1,9,1.6,20,M,,M,,*55
06/12/2015	05:10:45.515	$GPGGA,051046,2427.7360,N,08125.2302,W,1,9,1.6,20,M,,M,,*56
06/12/2015	05:10:46.585	$GPGGA,051047,2427.7356,N,08125.2316,W,1,9,1.6,20,M,,M,,*57
06/12/2015	05:10:47.498	$GPGGA,051048,2427.7356,N,08125.2316,W,1,9,1.6,20,M,,M,,*58
06/12/2015	05:10:48.499	$GPGGA,051049,2427.7354,N,08125.2332,W,1,9,1.6,20,M,,M,,*5D
06/12/2015	05:10:50.355	$GPGGA,051050,2427.7352,N,08125.2341,W,1,9,1.6,19,M,,M,,*5D
06/12/2015	05:10:50.506	$GPGGA,051051,2427.7351,N,08125.2349,W,1,9,1.6,19,M,,M,,*57
06/12/2015	05:10:51.598	$GPGGA,051052,2427.7352,N,08125.2356,W,1,9,1.6,19,M,,M,,*59
06/12/2015	05:10:52.485	$GPGGA,051053,2427.7350,N,08125.2363,W,1,9,1.6,19,M,,M,,*5C
06/12/2015	05:10:53.597	$GPGGA,051054,2427.7348,N,08125.2370,W,1,9,1.6,19,M,,M,,*50
06/12/2015	05:10:54.565	$GPGGA,051055,2427.7347,N,08125.2377,W,1,9,1.6,19,M,,M,,*59
06/12/2015	05:10:56.596	$GPGGA,051057,2427.7346,N,08125.2392,W,1,9,1.6,19,M,,M,,*51
06/12/2015	05:10:57.564	$GPGGA,051058,2427.7344,N,08125.2399,W,1,9,1.6,19,M,,M,,*57
06/12/2015	05:10:58.555	$GPGGA,051059,2427.7343,N,08125.2406,W,1,9,1.8,19,M,,M,,*5E
06/12/2015	05:10:59.584	$GPGGA,051100,2427.7341,N,08125.2413,W,1,9,1.6,19,M,,M,,*5B
06/12/2015	05:11:00.554	$GPGGA,051101,2427.7340,N,08125.2421,W,1,9,1.6,19,M,,M,,*5A
06/12/2015	05:11:01.584	$GPGGA,051102,2427.7339,N,08125.2428,W,1,9,1.6,19,M,,M,,*5E
06/12/2015	05:11:02.544	$GPGGA,051103,2427.7338,N,08125.2435,W,1,9,1.8,19,M,,M,,*5C
06/12/2015	05:11:03.595	$GPGGA,051104,2427.7337,N,08125.2440,W,1,9,1.6,19,M,,M,,*58
06/12/2015	05:11:04.545	$GPGGA,051105,2427.7336,N,08125.2446,W,1,9,1.6,19,M,,M,,*5E
06/12/2015	05:11:05.565	$GPGGA,051106,2427.7336,N,08125.2453,W,1,9,1.6,19,M,,M,,*59
06/12/2015	05:11:06.545	$GPGGA,051107,2427.7336,N,08125.2458,W,1,9,1.6,19,M,,M,,*53
06/12/2015	05:11:07.575	$GPGGA,051108,2427.7334,N,08125.2465,W,1,9,1.6,19,M,,M,,*50
06/12/2015	05:11:08.535	$GPGGA,051109,2427.7332,N,08125.2471,W,1,9,1.6,19,M,,M,,*52
06/12/2015	05:11:09.535	$GPGGA,051110,2427.7332,N,08125.2479,W,1,9,1.6,19,M,,M,,*52
06/12/2015	05:11:10.545	$GPGGA,051111,2427.7332,N,08125.2486,W,1,9,1.6,19,M,,M,,*53
06/12/2015	05:11:11.575	$GPGGA,051112,2427.7329,N,08125.2493,W,1,9,1.6,19,M,,M,,*5E
06/12/2015	05:11:12.535	$GPGGA,051113,2427.7327,N,08125.2501,W,1,9,1.6,19,M,,M,,*5B
06/12/2015	05:11:13.525	$GPGGA,051114,2427.7328,N,08125.2508,W,1,9,1.6,19,M,,M,,*5A
06/12/2015	05:11:14.534	$GPGGA,051115,2427.7326,N,08125.2516,W,1,9,1.6,19,M,,M,,*5A
06/12/2015	05:11:15.554	$GPGGA,051116,2427.7325,N,08125.2523,W,1,9,1.6,19,M,,M,,*5C
06/12/2015	05:11:16.524	$GPGGA,051117,2427.7321,N,08125.2529,W,1,9,1.6,19,M,,M,,*53
06/12/2015	05:11:17.554	$GPGGA,051118,2427.7320,N,08125.2536,W,1,9,1.6,19,M,,M,,*53
06/12/2015	05:11:18.514	$GPGGA,051119,2427.7321,N,08125.2545,W,1,9,1.6,19,M,,M,,*57
06/12/2015	05:11:19.544	$GPGGA,051120,2427.7319,N,08125.2552,W,1,9,1.6,19,M,,M,,*50
06/12/2015	05:11:20.515	$GPGGA,051121,2427.7316,N,08125.2559,W,1,9,1.6,19,M,,M,,*55
06/12/2015	05:11:21.545	$GPGGA,051122,2427.7317,N,08125.2568,W,1,9,1.6,19,M,,M,,*55
06/12/2015	05:11:22.508	$GPGGA,051123,2427.7318,N,08125.2574,W,1,9,1.6,19,M,,M,,*56
06/12/2015	05:11:23.545	$GPGGA,051124,2427.7315,N,08125.2580,W,1,8,2.0,19,M,,M,,*53
06/12/2015	05:11:24.501	$GPGGA,051125,2427.7314,N,08125.2588,W,1,8,1.6,19,M,,M,,*5E
06/12/2015	05:11:25.515	$GPGGA,051126,2427.7314,N,08125.2597,W,1,8,2.0,19,M,,M,,*56
06/12/2015	05:11:26.495	$GPGGA,051127,2427.7312,N,08125.2603,W,1,8,1.6,19,M,,M,,*5A
06/12/2015	05:11:27.525	$GPGGA,051128,2427.7311,N,08125.2609,W,1,9,1.6,19,M,,M,,*5D
06/12/2015	05:11:28.615	$GPGGA,051129,2427.7308,N,08125.2616,W,1,9,2.0,19,M,,M,,*5F
06/12/2015	05:11:29.505	$GPGGA,051130,2427.7307,N,08125.2623,W,1,9,1.6,19,M,,M,,*5B
06/12/2015	05:11:30.585	$GPGGA,051131,2427.7303,N,08125.2630,W,1,9,1.6,19,M,,M,,*5C
06/12/2015	05:11:31.624	$GPGGA,051132,2427.7300,N,08125.2638,W,1,8,2.0,19,M,,M,,*50
06/12/2015	05:11:32.497	$GPGGA,051133,2427.7299,N,08125.2645,W,1,8,1.6,19,M,,M,,*5F
06/12/2015	05:11:33.524	$GPGGA,051134,2427.7297,N,08125.2650,W,1,9,1.6,19,M,,M,,*53
06/12/2015	05:11:34.597	$GPGGA,051135,2427.7296,N,08125.2659,W,1,9,1.6,19,M,,M,,*5A
06/12/2015	05:11:35.607	$GPGGA,051136,2427.7296,N,08125.2666,W,1,8,2.0,19,M,,M,,*51
06/12/2015	05:11:36.499	$GPGGA,051137,2427.7293,N,08125.2673,W,1,8,1.6,19,M,,M,,*54
06/12/2015	05:11:37.607	$GPGGA,051138,2427.7292,N,08125.2681,W,1,9,1.6,19,M,,M,,*56
06/12/2015	05:11:38.486	$GPGGA,051139,2427.7292,N,08125.2688,W,1,9,1.6,19,M,,M,,*5E
06/12/2015	05:11:39.495	$GPGGA,051140,2427.7290,N,08125.2695,W,1,9,1.6,19,M,,M,,*5E
06/12/2015	05:11:40.575	$GPGGA,051141,2427.7289,N,08125.2702,W,1,9,1.6,19,M,,M,,*58
06/12/2015	05:11:41.598	$GPGGA,051142,2427.7287,N,08125.2709,W,1,9,1.6,19,M,,M,,*5E
06/12/2015	05:11:42.565	$GPGGA,051143,2427.7285,N,08125.2717,W,1,9,1.6,19,M,,M,,*52
06/12/2015	05:11:43.607	$GPGGA,051144,2427.7283,N,08125.2724,W,1,9,1.6,19,M,,M,,*53
06/12/2015	05:11:44.565	$GPGGA,051145,2427.7282,N,08125.2731,W,1,9,1.6,19,M,,M,,*57
06/12/2015	05:11:45.597	$GPGGA,051146,2427.7281,N,08125.2738,W,1,9,1.6,19,M,,M,,*5E
06/12/2015	05:11:46.555	$GPGGA,051147,2427.7279,N,08125.2745,W,1,9,1.6,19,M,,M,,*52
06/12/2015	05:11:47.605	$GPGGA,051148,2427.7278,N,08125.2751,W,1,9,1.6,19,M,,M,,*59
06/12/2015	05:11:48.565	$GPGGA,051149,2427.7278,N,08125.2758,W,1,9,1.6,19,M,,M,,*51
06/12/2015	05:11:49.564	$GPGGA,051150,2427.7276,N,08125.2765,W,1,9,1.6,19,M,,M,,*59
06/12/2015	05:11:50.564	$GPGGA,051151,2427.7273,N,08125.2774,W,1,9,1.6,19,M,,M,,*5D
