Software Version Number: 1	Data File Format Number: 1	Build Version Number: 1	Error Count Since VI Started: 3	Manufacturer: Raytheon	 Model Number: RayMarine 120	 S/N: 	 Cal Date: 	 Wind Direction Offset: 0.00	 Slope (M)1: 0.00	 Offset (B)1: 0.00	 Slope (M)2: 0.00	 Offset (B)2: 0.00	 Slope (M)3: 0.00	 Offset (B)3: 0.00	 Slope (M)4: 0.00	 Offset (B)4: 0.00	 Slope (M)5: 0.00	 Offset (B)5: 0.00	 Slope (M)6: 0.00	 Offset (B)6: 0.00
Computer Date	Computer Time	GGA String
06/26/2015	17:00:00.083	$GPGGA,170000,2557.0872,N,08000.4949,W,1,11,1.5,16,M,,M,,*65
06/26/2015	17:00:00.625	$GPGGA,170001,2557.0894,N,08000.4939,W,1,11,1.5,16,M,,M,,*6B
06/26/2015	17:00:01.665	$GPGGA,170002,2557.0916,N,08000.4928,W,1,11,1.5,16,M,,M,,*63
06/26/2015	17:00:02.575	$GPGGA,170003,2557.0938,N,08000.4918,W,1,11,1.5,16,M,,M,,*6D
06/26/2015	17:00:03.675	$GPGGA,170004,2557.0961,N,08000.4908,W,1,11,1.5,16,M,,M,,*67
06/26/2015	17:00:04.565	$GPGGA,170005,2557.0983,N,08000.4897,W,1,11,1.5,16,M,,M,,*6D
06/26/2015	17:00:05.615	$GPGGA,170006,2557.1003,N,08000.4887,W,1,11,1.5,16,M,,M,,*6F
06/26/2015	17:00:06.648	$GPGGA,170007,2557.1026,N,08000.4877,W,1,11,1.5,16,M,,M,,*66
06/26/2015	17:00:07.645	$GPGGA,170008,2557.1049,N,08000.4866,W,1,11,1.5,16,M,,M,,*60
06/26/2015	17:00:08.564	$GPGGA,170009,2557.1070,N,08000.4855,W,1,11,1.5,16,M,,M,,*6B
06/26/2015	17:00:09.604	$GPGGA,170010,2557.1092,N,08000.4845,W,1,11,1.5,16,M,,M,,*6E
06/26/2015	17:00:10.554	$GPGGA,170011,2557.1114,N,08000.4834,W,1,11,1.5,16,M,,M,,*66
06/26/2015	17:00:11.604	$GPGGA,170012,2557.1135,N,08000.4823,W,1,11,1.5,16,M,,M,,*60
06/26/2015	17:00:12.594	$GPGGA,170013,2557.1156,N,08000.4812,W,1,11,1.5,16,M,,M,,*66
06/26/2015	17:00:13.605	$GPGGA,170014,2557.1178,N,08000.4801,W,1,11,1.5,16,M,,M,,*6F
06/26/2015	17:00:14.605	$GPGGA,170015,2557.1200,N,08000.4790,W,1,11,1.5,16,M,,M,,*65
06/26/2015	17:00:15.615	$GPGGA,170016,2557.1221,N,08000.4779,W,1,11,1.5,16,M,,M,,*62
06/26/2015	17:00:16.538	$GPGGA,170017,2557.1244,N,08000.4769,W,1,11,1.5,16,M,,M,,*61
06/26/2015	17:00:17.585	$GPGGA,170018,2557.1265,N,08000.4757,W,1,11,1.5,16,M,,M,,*60
06/26/2015	17:00:18.606	$GPGGA,170019,2557.1286,N,08000.4746,W,1,11,1.6,16,M,,M,,*6F
06/26/2015	17:00:19.595	$GPGGA,170020,2557.1306,N,08000.4735,W,1,10,1.6,16,M,,M,,*69
06/26/2015	17:00:20.538	$GPGGA,170021,2557.1328,N,08000.4724,W,1,10,1.5,16,M,,M,,*67
06/26/2015	17:00:21.565	$GPGGA,170022,2557.1349,N,08000.4713,W,1,11,1.5,16,M,,M,,*66
06/26/2015	17:00:22.605	$GPGGA,170023,2557.1370,N,08000.4702,W,1,11,1.5,16,M,,M,,*6D
06/26/2015	17:00:23.615	$GPGGA,170024,2557.1392,N,08000.4692,W,1,11,1.5,16,M,,M,,*6E
06/26/2015	17:00:24.524	$GPGGA,170025,2557.1414,N,08000.4681,W,1,11,1.5,16,M,,M,,*64
06/26/2015	17:00:25.554	$GPGGA,170026,2557.1435,N,08000.4670,W,1,11,1.5,15,M,,M,,*69
06/26/2015	17:00:26.584	$GPGGA,170027,2557.1457,N,08000.4659,W,1,11,1.5,15,M,,M,,*67
06/26/2015	17:00:27.574	$GPGGA,170028,2557.1479,N,08000.4649,W,1,10,1.5,15,M,,M,,*64
06/26/2015	17:00:28.514	$GPGGA,170029,2557.1500,N,08000.4638,W,1,10,1.5,15,M,,M,,*6C
06/26/2015	17:00:29.544	$GPGGA,170030,2557.1519,N,08000.4626,W,1,11,1.5,15,M,,M,,*62
06/26/2015	17:00:30.639	$GPGGA,170031,2557.1541,N,08000.4616,W,1,11,1.5,15,M,,M,,*6D
06/26/2015	17:00:31.575	$GPGGA,170032,2557.1563,N,08000.4605,W,1,11,1.5,15,M,,M,,*6C
06/26/2015	17:00:32.575	$GPGGA,170033,2557.1584,N,08000.4593,W,1,11,1.5,15,M,,M,,*68
06/26/2015	17:00:33.638	$GPGGA,170034,2557.1606,N,08000.4582,W,1,11,1.5,15,M,,M,,*66
06/26/2015	17:00:34.575	$GPGGA,170035,2557.1627,N,08000.4572,W,1,11,1.5,15,M,,M,,*6B
06/26/2015	17:00:35.615	$GPGGA,170036,2557.1649,N,08000.4561,W,1,11,1.5,15,M,,M,,*62
06/26/2015	17:00:36.565	$GPGGA,170037,2557.1670,N,08000.4550,W,1,11,1.5,15,M,,M,,*6B
06/26/2015	17:00:37.595	$GPGGA,170038,2557.1691,N,08000.4539,W,1,11,1.5,15,M,,M,,*64
06/26/2015	17:00:38.585	$GPGGA,170039,2557.1713,N,08000.4529,W,1,11,1.5,15,M,,M,,*6F
06/26/2015	17:00:39.495	$GPGGA,170040,2557.1735,N,08000.4518,W,1,11,1.5,15,M,,M,,*67
06/26/2015	17:00:40.595	$GPGGA,170041,2557.1756,N,08000.4507,W,1,11,1.5,15,M,,M,,*6D
06/26/2015	17:00:41.594	$GPGGA,170042,2557.1776,N,08000.4497,W,1,11,1.5,15,M,,M,,*64
06/26/2015	17:00:42.554	$GPGGA,170043,2557.1799,N,08000.4486,W,1,11,1.5,15,M,,M,,*64
06/26/2015	17:00:43.614	$GPGGA,170044,2557.1821,N,08000.4476,W,1,11,1.5,14,M,,M,,*61
06/26/2015	17:00:44.584	$GPGGA,170045,2557.1841,N,08000.4466,W,1,11,1.5,14,M,,M,,*67
06/26/2015	17:00:45.614	$GPGGA,170046,2557.1862,N,08000.4454,W,1,11,1.5,14,M,,M,,*64
06/26/2015	17:00:46.584	$GPGGA,170047,2557.1884,N,08000.4443,W,1,11,1.7,14,M,,M,,*69
06/26/2015	17:00:48.089	$GPGGA,170048,2557.1908,N,08000.4435,W,1,10,1.5,14,M,,M,,*61
06/26/2015	17:00:48.615	$GPGGA,170049,2557.1930,N,08000.4424,W,1,10,1.5,14,M,,M,,*6B
06/26/2015	17:00:50.005	$GPGGA,170050,2557.1951,N,08000.4413,W,1,11,1.7,14,M,,M,,*63
06/26/2015	17:00:50.565	$GPGGA,170051,2557.1971,N,08000.4403,W,1,11,1.5,14,M,,M,,*63
06/26/2015	17:00:51.605	$GPGGA,170052,2557.1995,N,08000.4393,W,1,11,1.5,14,M,,M,,*64
06/26/2015	17:00:52.585	$GPGGA,170053,2557.2017,N,08000.4383,W,1,11,1.5,14,M,,M,,*64
06/26/2015	17:00:53.596	$GPGGA,170054,2557.2038,N,08000.4372,W,1,11,1.7,14,M,,M,,*62
06/26/2015	17:00:54.555	$GPGGA,170055,2557.2060,N,08000.4362,W,1,11,1.5,14,M,,M,,*6D
06/26/2015	17:00:55.595	$GPGGA,170056,2557.2060,N,08000.4362,W,1,11,1.5,14,M,,M,,*6E
06/26/2015	17:00:56.555	$GPGGA,170057,2557.2103,N,08000.4342,W,1,11,1.5,14,M,,M,,*69
06/26/2015	17:00:57.565	$GPGGA,170058,2557.2125,N,08000.4332,W,1,11,1.5,14,M,,M,,*65
06/26/2015	17:00:58.595	$GPGGA,170059,2557.2148,N,08000.4323,W,1,11,1.5,14,M,,M,,*6F
06/26/2015	17:00:59.594	$GPGGA,170100,2557.2148,N,08000.4323,W,1,11,1.5,14,M,,M,,*62
06/26/2015	17:01:00.574	$GPGGA,170101,2557.2191,N,08000.4303,W,1,11,1.5,14,M,,M,,*65
06/26/2015	17:01:01.594	$GPGGA,170102,2557.2213,N,08000.4293,W,1,11,1.5,14,M,,M,,*67
06/26/2015	17:01:02.554	$GPGGA,170103,2557.2237,N,08000.4282,W,1,11,1.5,14,M,,M,,*60
06/26/2015	17:01:03.624	$GPGGA,170104,2557.2259,N,08000.4273,W,1,11,1.5,14,M,,M,,*61
06/26/2015	17:01:04.564	$GPGGA,170105,2557.2281,N,08000.4263,W,1,11,1.5,14,M,,M,,*64
06/26/2015	17:01:05.574	$GPGGA,170106,2557.2303,N,08000.4253,W,1,11,1.5,14,M,,M,,*6F
06/26/2015	17:01:06.555	$GPGGA,170107,2557.2303,N,08000.4253,W,1,11,1.5,14,M,,M,,*6E
06/26/2015	17:01:07.555	$GPGGA,170108,2557.2347,N,08000.4234,W,1,11,1.5,14,M,,M,,*60
06/26/2015	17:01:08.575	$GPGGA,170109,2557.2347,N,08000.4234,W,1,11,1.5,14,M,,M,,*61
06/26/2015	17:01:09.555	$GPGGA,170110,2557.2393,N,08000.4214,W,1,11,1.5,14,M,,M,,*62
06/26/2015	17:01:10.575	$GPGGA,170111,2557.2415,N,08000.4204,W,1,11,1.5,14,M,,M,,*6B
06/26/2015	17:01:11.555	$GPGGA,170112,2557.2437,N,08000.4195,W,1,11,1.5,14,M,,M,,*63
06/26/2015	17:01:12.575	$GPGGA,170113,2557.2459,N,08000.4184,W,1,11,1.5,14,M,,M,,*6A
06/26/2015	17:01:13.625	$GPGGA,170114,2557.2482,N,08000.4174,W,1,11,1.5,14,M,,M,,*64
06/26/2015	17:01:14.536	$GPGGA,170115,2557.2482,N,08000.4174,W,1,11,1.5,14,M,,M,,*65
06/26/2015	17:01:15.575	$GPGGA,170116,2557.2526,N,08000.4155,W,1,11,1.5,14,M,,M,,*6A
06/26/2015	17:01:16.539	$GPGGA,170117,2557.2526,N,08000.4155,W,1,11,1.5,14,M,,M,,*6B
06/26/2015	17:01:17.524	$GPGGA,170118,2557.2570,N,08000.4134,W,1,11,1.5,14,M,,M,,*60
06/26/2015	17:01:18.564	$GPGGA,170119,2557.2570,N,08000.4134,W,1,11,1.5,14,M,,M,,*61
06/26/2015	17:01:19.624	$GPGGA,170120,2557.2614,N,08000.4115,W,1,11,1.5,14,M,,M,,*69
06/26/2015	17:01:20.554	$GPGGA,170121,2557.2614,N,08000.4115,W,1,11,1.5,14,M,,M,,*68
06/26/2015	17:01:21.604	$GPGGA,170122,2557.2657,N,08000.4094,W,1,11,1.5,14,M,,M,,*64
06/26/2015	17:01:22.514	$GPGGA,170123,2557.2679,N,08000.4084,W,1,11,1.7,15,M,,M,,*6B
06/26/2015	17:01:23.647	$GPGGA,170124,2557.2701,N,08000.4074,W,1,11,1.5,15,M,,M,,*6F
06/26/2015	17:01:24.525	$GPGGA,170125,2557.2701,N,08000.4074,W,1,11,1.5,15,M,,M,,*6E
06/26/2015	17:01:25.615	$GPGGA,170126,2557.2743,N,08000.4053,W,1,11,1.5,15,M,,M,,*6E
06/26/2015	17:01:26.595	$GPGGA,170127,2557.2766,N,08000.4044,W,1,11,1.7,15,M,,M,,*6C
06/26/2015	17:01:27.615	$GPGGA,170128,2557.2789,N,08000.4034,W,1,11,1.5,15,M,,M,,*67
06/26/2015	17:01:28.585	$GPGGA,170129,2557.2809,N,08000.4023,W,1,11,1.5,15,M,,M,,*67
06/26/2015	17:01:29.625	$GPGGA,170130,2557.2831,N,08000.4013,W,1,11,1.5,15,M,,M,,*67
06/26/2015	17:01:30.575	$GPGGA,170131,2557.2854,N,08000.4004,W,1,11,1.5,15,M,,M,,*63
06/26/2015	17:01:31.585	$GPGGA,170132,2557.2876,N,08000.3994,W,1,11,1.5,15,M,,M,,*67
06/26/2015	17:01:32.595	$GPGGA,170133,2557.2896,N,08000.3983,W,1,11,1.5,15,M,,M,,*6E
06/26/2015	17:01:33.585	$GPGGA,170134,2557.2919,N,08000.3973,W,1,11,1.5,15,M,,M,,*60
06/26/2015	17:01:34.574	$GPGGA,170135,2557.2941,N,08000.3962,W,1,11,1.5,15,M,,M,,*6C
06/26/2015	17:01:35.584	$GPGGA,170136,2557.2961,N,08000.3952,W,1,11,1.5,15,M,,M,,*6E
06/26/2015	17:01:36.564	$GPGGA,170137,2557.2984,N,08000.3941,W,1,11,1.5,15,M,,M,,*66
06/26/2015	17:01:37.594	$GPGGA,170138,2557.3004,N,08000.3930,W,1,11,1.5,15,M,,M,,*6F
06/26/2015	17:01:38.564	$GPGGA,170139,2557.3026,N,08000.3920,W,1,11,1.5,15,M,,M,,*6F
06/26/2015	17:01:39.594	$GPGGA,170140,2557.3049,N,08000.3910,W,1,11,1.5,15,M,,M,,*6B
06/26/2015	17:01:40.975	$GPGGA,170141,2557.3069,N,08000.3898,W,1,11,1.5,15,M,,M,,*69
06/26/2015	17:01:41.575	$GPGGA,170142,2557.3091,N,08000.3889,W,1,11,1.5,15,M,,M,,*6D
06/26/2015	17:01:42.565	$GPGGA,170143,2557.3113,N,08000.3879,W,1,11,1.5,15,M,,M,,*68
06/26/2015	17:01:43.585	$GPGGA,170144,2557.3134,N,08000.3868,W,1,11,1.5,15,M,,M,,*6A
06/26/2015	17:01:44.545	$GPGGA,170145,2557.3156,N,08000.3857,W,1,11,1.5,15,M,,M,,*63
06/26/2015	17:01:45.545	$GPGGA,170146,2557.3177,N,08000.3847,W,1,11,1.5,15,M,,M,,*62
06/26/2015	17:01:46.545	$GPGGA,170147,2557.3199,N,08000.3836,W,1,11,1.5,15,M,,M,,*65
06/26/2015	17:01:47.585	$GPGGA,170148,2557.3221,N,08000.3825,W,1,11,1.5,15,M,,M,,*68
06/26/2015	17:01:48.552	$GPGGA,170149,2557.3242,N,08000.3814,W,1,11,1.5,15,M,,M,,*6E
06/26/2015	17:01:49.575	$GPGGA,170150,2557.3264,N,08000.3804,W,1,11,1.5,15,M,,M,,*63
06/26/2015	17:01:50.565	$GPGGA,170151,2557.3285,N,08000.3793,W,1,11,1.5,15,M,,M,,*6C
06/26/2015	17:01:51.548	$GPGGA,170152,2557.3306,N,08000.3781,W,1,11,1.5,15,M,,M,,*66
06/26/2015	17:01:52.544	$GPGGA,170153,2557.3328,N,08000.3772,W,1,11,1.5,15,M,,M,,*67
06/26/2015	17:01:53.584	$GPGGA,170154,2557.3349,N,08000.3761,W,1,11,1.5,15,M,,M,,*65
06/26/2015	17:01:54.535	$GPGGA,170155,2557.3369,N,08000.3749,W,1,11,1.5,15,M,,M,,*6C
06/26/2015	17:01:55.574	$GPGGA,170156,2557.3391,N,08000.3738,W,1,11,1.5,15,M,,M,,*6E
06/26/2015	17:01:56.536	$GPGGA,170157,2557.3412,N,08000.3728,W,1,11,1.5,15,M,,M,,*62
06/26/2015	17:01:57.654	$GPGGA,170158,2557.3434,N,08000.3717,W,1,11,1.5,15,M,,M,,*65
06/26/2015	17:01:58.541	$GPGGA,170159,2557.3455,N,08000.3705,W,1,11,1.5,15,M,,M,,*60
06/26/2015	17:01:59.575	$GPGGA,170200,2557.3476,N,08000.3695,W,1,11,1.5,15,M,,M,,*66
06/26/2015	17:02:00.539	$GPGGA,170201,2557.3497,N,08000.3684,W,1,11,1.5,15,M,,M,,*68
06/26/2015	17:02:01.675	$GPGGA,170202,2557.3517,N,08000.3673,W,1,11,1.5,15,M,,M,,*6A
06/26/2015	17:02:02.615	$GPGGA,170203,2557.3539,N,08000.3662,W,1,11,1.5,15,M,,M,,*67
06/26/2015	17:02:03.565	$GPGGA,170204,2557.3560,N,08000.3651,W,1,11,1.5,15,M,,M,,*6C
06/26/2015	17:02:04.605	$GPGGA,170205,2557.3582,N,08000.3640,W,1,11,1.5,15,M,,M,,*61
06/26/2015	17:02:05.525	$GPGGA,170206,2557.3604,N,08000.3629,W,1,11,1.5,15,M,,M,,*60
06/26/2015	17:02:06.595	$GPGGA,170207,2557.3625,N,08000.3618,W,1,11,1.5,15,M,,M,,*60
06/26/2015	17:02:07.515	$GPGGA,170208,2557.3646,N,08000.3606,W,1,11,1.5,15,M,,M,,*65
06/26/2015	17:02:08.595	$GPGGA,170209,2557.3668,N,08000.3596,W,1,11,1.5,15,M,,M,,*62
06/26/2015	17:02:09.624	$GPGGA,170210,2557.3689,N,08000.3586,W,1,11,1.5,15,M,,M,,*64
06/26/2015	17:02:10.504	$GPGGA,170211,2557.3709,N,08000.3574,W,1,11,1.5,15,M,,M,,*61
06/26/2015	17:02:11.504	$GPGGA,170212,2557.3732,N,08000.3564,W,1,11,1.5,15,M,,M,,*6B
06/26/2015	17:02:12.594	$GPGGA,170213,2557.3752,N,08000.3554,W,1,11,1.5,15,M,,M,,*6F
06/26/2015	17:02:13.624	$GPGGA,170214,2557.3773,N,08000.3542,W,1,11,1.5,15,M,,M,,*6C
06/26/2015	17:02:14.584	$GPGGA,170215,2557.3795,N,08000.3531,W,1,11,1.5,15,M,,M,,*61
06/26/2015	17:02:15.625	$GPGGA,170216,2557.3817,N,08000.3521,W,1,11,1.5,15,M,,M,,*66
06/26/2015	17:02:16.585	$GPGGA,170217,2557.3839,N,08000.3510,W,1,11,1.6,15,M,,M,,*6A
06/26/2015	17:02:17.595	$GPGGA,170218,2557.3860,N,08000.3500,W,1,11,1.6,15,M,,M,,*68
06/26/2015	17:02:18.855	$GPGGA,170219,2557.3882,N,08000.3489,W,1,11,1.6,15,M,,M,,*65
06/26/2015	17:02:19.585	$GPGGA,170220,2557.3904,N,08000.3478,W,1,11,1.6,15,M,,M,,*6E
06/26/2015	17:02:20.565	$GPGGA,170221,2557.3925,N,08000.3468,W,1,11,1.6,15,M,,M,,*6D
06/26/2015	17:02:21.585	$GPGGA,170222,2557.3947,N,08000.3458,W,1,10,1.7,15,M,,M,,*69
06/26/2015	17:02:22.565	$GPGGA,170223,2557.3968,N,08000.3447,W,1,10,1.7,15,M,,M,,*6B
06/26/2015	17:02:23.605	$GPGGA,170224,2557.3990,N,08000.3437,W,1,11,1.6,15,M,,M,,*6C
06/26/2015	17:02:24.555	$GPGGA,170225,2557.4012,N,08000.3427,W,1,11,1.6,15,M,,M,,*68
06/26/2015	17:02:25.576	$GPGGA,170226,2557.4034,N,08000.3416,W,1,10,1.8,15,M,,M,,*62
06/26/2015	17:02:26.564	$GPGGA,170227,2557.4055,N,08000.3408,W,1,10,1.8,15,M,,M,,*6B
06/26/2015	17:02:27.604	$GPGGA,170228,2557.4077,N,08000.3398,W,1,11,1.6,15,M,,M,,*65
06/26/2015	17:02:28.544	$GPGGA,170229,2557.4099,N,08000.3388,W,1,11,1.8,15,M,,M,,*6B
06/26/2015	17:02:29.574	$GPGGA,170230,2557.4120,N,08000.3378,W,1,10,1.8,15,M,,M,,*6E
06/26/2015	17:02:30.546	$GPGGA,170231,2557.4142,N,08000.3368,W,1,10,1.8,15,M,,M,,*6A
06/26/2015	17:02:31.574	$GPGGA,170232,2557.4166,N,08000.3358,W,1,10,1.8,15,M,,M,,*6C
06/26/2015	17:02:32.554	$GPGGA,170233,2557.4188,N,08000.3349,W,1,10,1.8,15,M,,M,,*6D
06/26/2015	17:02:36.548	$GPGGA,170237,2557.4276,N,08000.3311,W,1,10,1.8,15,M,,M,,*66
06/26/2015	17:02:37.535	$GPGGA,170238,2557.4297,N,08000.3300,W,1,11,1.6,15,M,,M,,*69
06/26/2015	17:02:38.545	$GPGGA,170239,2557.4319,N,08000.3291,W,1,11,1.8,15,M,,M,,*68
06/26/2015	17:02:39.575	$GPGGA,170240,2557.4343,N,08000.3281,W,1,10,1.8,15,M,,M,,*69
06/26/2015	17:02:40.537	$GPGGA,170241,2557.4363,N,08000.3270,W,1,10,1.8,15,M,,M,,*64
06/26/2015	17:02:41.525	$GPGGA,170242,2557.4386,N,08000.3261,W,1,10,1.8,15,M,,M,,*6C
06/26/2015	17:02:42.637	$GPGGA,170243,2557.4408,N,08000.3254,W,1,10,1.8,15,M,,M,,*6A
06/26/2015	17:02:43.555	$GPGGA,170244,2557.4430,N,08000.3243,W,1,11,1.6,15,M,,M,,*6F
06/26/2015	17:02:44.634	$GPGGA,170245,2557.4449,N,08000.3234,W,1,11,1.8,15,M,,M,,*6E
06/26/2015	17:02:45.524	$GPGGA,170246,2557.4473,N,08000.3224,W,1,11,1.6,15,M,,M,,*6B
06/26/2015	17:02:46.635	$GPGGA,170247,2557.4496,N,08000.3214,W,1,11,1.8,15,M,,M,,*6C
06/26/2015	17:02:47.564	$GPGGA,170248,2557.4518,N,08000.3203,W,1,11,1.6,15,M,,M,,*6C
06/26/2015	17:02:48.524	$GPGGA,170249,2557.4539,N,08000.3194,W,1,11,1.8,15,M,,M,,*6D
06/26/2015	17:02:49.664	$GPGGA,170250,2557.4561,N,08000.3185,W,1,11,1.6,15,M,,M,,*66
06/26/2015	17:02:50.605	$GPGGA,170251,2557.4583,N,08000.3174,W,1,11,1.6,15,M,,M,,*65
06/26/2015	17:02:51.505	$GPGGA,170252,2557.4604,N,08000.3164,W,1,10,1.8,15,M,,M,,*64
06/26/2015	17:02:52.541	$GPGGA,170253,2557.4626,N,08000.3153,W,1,10,1.6,15,M,,M,,*6F
06/26/2015	17:02:53.625	$GPGGA,170254,2557.4647,N,08000.3144,W,1,11,1.6,15,M,,M,,*68
06/26/2015	17:02:54.605	$GPGGA,170255,2557.4669,N,08000.3133,W,1,11,1.6,16,M,,M,,*66
06/26/2015	17:02:55.635	$GPGGA,170256,2557.4690,N,08000.3124,W,1,11,1.6,16,M,,M,,*65
06/26/2015	17:02:56.595	$GPGGA,170257,2557.4711,N,08000.3113,W,1,11,1.6,16,M,,M,,*68
06/26/2015	17:02:57.625	$GPGGA,170258,2557.4733,N,08000.3102,W,1,11,1.6,16,M,,M,,*67
06/26/2015	17:02:58.595	$GPGGA,170259,2557.4755,N,08000.3093,W,1,11,1.6,16,M,,M,,*6F
06/26/2015	17:02:59.647	$GPGGA,170300,2557.4776,N,08000.3082,W,1,11,1.6,16,M,,M,,*63
06/26/2015	17:03:00.575	$GPGGA,170301,2557.4796,N,08000.3071,W,1,11,1.6,16,M,,M,,*60
06/26/2015	17:03:01.584	$GPGGA,170302,2557.4818,N,08000.3062,W,1,11,1.6,16,M,,M,,*68
06/26/2015	17:03:02.584	$GPGGA,170303,2557.4839,N,08000.3052,W,1,11,1.6,16,M,,M,,*69
06/26/2015	17:03:03.634	$GPGGA,170304,2557.4861,N,08000.3040,W,1,11,1.6,16,M,,M,,*60
06/26/2015	17:03:04.564	$GPGGA,170305,2557.4883,N,08000.3030,W,1,11,1.6,16,M,,M,,*6A
06/26/2015	17:03:05.604	$GPGGA,170306,2557.4904,N,08000.3021,W,1,11,1.6,16,M,,M,,*67
06/26/2015	17:03:06.584	$GPGGA,170307,2557.4926,N,08000.3009,W,1,11,1.6,16,M,,M,,*6C
06/26/2015	17:03:07.604	$GPGGA,170308,2557.4947,N,08000.2998,W,1,11,1.6,16,M,,M,,*64
06/26/2015	17:03:08.575	$GPGGA,170309,2557.4968,N,08000.2988,W,1,11,1.6,16,M,,M,,*69
06/26/2015	17:03:09.575	$GPGGA,170310,2557.4990,N,08000.2978,W,1,11,1.6,16,M,,M,,*69
06/26/2015	17:03:10.575	$GPGGA,170311,2557.5011,N,08000.2966,W,1,11,1.6,16,M,,M,,*66
06/26/2015	17:03:11.595	$GPGGA,170312,2557.5031,N,08000.2956,W,1,11,1.6,16,M,,M,,*64
06/26/2015	17:03:12.565	$GPGGA,170313,2557.5053,N,08000.2946,W,1,11,1.6,16,M,,M,,*60
06/26/2015	17:03:13.555	$GPGGA,170314,2557.5074,N,08000.2935,W,1,11,1.6,16,M,,M,,*66
06/26/2015	17:03:14.565	$GPGGA,170315,2557.5095,N,08000.2923,W,1,11,1.6,16,M,,M,,*6F
06/26/2015	17:03:15.585	$GPGGA,170316,2557.5117,N,08000.2914,W,1,11,1.6,16,M,,M,,*63
06/26/2015	17:03:16.565	$GPGGA,170317,2557.5139,N,08000.2904,W,1,11,1.6,16,M,,M,,*6F
06/26/2015	17:03:17.548	$GPGGA,170318,2557.5160,N,08000.2892,W,1,11,1.6,16,M,,M,,*62
06/26/2015	17:03:18.555	$GPGGA,170319,2557.5181,N,08000.2880,W,1,11,1.6,16,M,,M,,*6F
06/26/2015	17:03:19.547	$GPGGA,170320,2557.5201,N,08000.2871,W,1,11,1.6,16,M,,M,,*60
06/26/2015	17:03:20.554	$GPGGA,170321,2557.5224,N,08000.2860,W,1,11,1.6,16,M,,M,,*66
06/26/2015	17:03:21.574	$GPGGA,170322,2557.5244,N,08000.2848,W,1,11,1.6,16,M,,M,,*69
06/26/2015	17:03:22.548	$GPGGA,170323,2557.5266,N,08000.2837,W,1,11,1.6,16,M,,M,,*60
06/26/2015	17:03:23.594	$GPGGA,170324,2557.5287,N,08000.2827,W,1,11,1.6,16,M,,M,,*69
06/26/2015	17:03:24.546	$GPGGA,170325,2557.5308,N,08000.2816,W,1,11,1.6,16,M,,M,,*6C
06/26/2015	17:03:25.539	$GPGGA,170326,2557.5329,N,08000.2805,W,1,11,1.6,16,M,,M,,*6E
06/26/2015	17:03:26.536	$GPGGA,170327,2557.5349,N,08000.2795,W,1,11,1.6,16,M,,M,,*6F
06/26/2015	17:03:27.665	$GPGGA,170328,2557.5372,N,08000.2784,W,1,11,1.6,16,M,,M,,*68
06/26/2015	17:03:28.548	$GPGGA,170329,2557.5392,N,08000.2774,W,1,11,1.6,16,M,,M,,*68
06/26/2015	17:03:29.625	$GPGGA,170330,2557.5414,N,08000.2763,W,1,11,1.6,16,M,,M,,*6F
06/26/2015	17:03:30.515	$GPGGA,170331,2557.5435,N,08000.2752,W,1,11,1.6,16,M,,M,,*6F
06/26/2015	17:03:31.547	$GPGGA,170332,2557.5457,N,08000.2742,W,1,11,1.6,16,M,,M,,*69
06/26/2015	17:03:32.505	$GPGGA,170333,2557.5479,N,08000.2731,W,1,11,1.6,16,M,,M,,*60
06/26/2015	17:03:33.625	$GPGGA,170334,2557.5500,N,08000.2719,W,1,11,1.6,16,M,,M,,*62
06/26/2015	17:03:34.525	$GPGGA,170335,2557.5521,N,08000.2709,W,1,11,1.6,16,M,,M,,*61
06/26/2015	17:03:35.625	$GPGGA,170336,2557.5543,N,08000.2699,W,1,11,1.6,16,M,,M,,*6E
06/26/2015	17:03:36.604	$GPGGA,170337,2557.5564,N,08000.2688,W,1,11,1.6,16,M,,M,,*6A
06/26/2015	17:03:37.494	$GPGGA,170338,2557.5584,N,08000.2676,W,1,11,1.6,16,M,,M,,*6A
06/26/2015	17:03:38.604	$GPGGA,170339,2557.5607,N,08000.2666,W,1,11,1.6,16,M,,M,,*62
06/26/2015	17:03:39.614	$GPGGA,170340,2557.5629,N,08000.2656,W,1,11,1.6,16,M,,M,,*63
06/26/2015	17:03:40.514	$GPGGA,170341,2557.5649,N,08000.2645,W,1,11,1.6,16,M,,M,,*66
06/26/2015	17:03:41.624	$GPGGA,170342,2557.5670,N,08000.2634,W,1,11,1.6,16,M,,M,,*69
06/26/2015	17:03:42.594	$GPGGA,170343,2557.5692,N,08000.2624,W,1,11,1.6,16,M,,M,,*65
06/26/2015	17:03:43.647	$GPGGA,170344,2557.5714,N,08000.2615,W,1,11,1.6,16,M,,M,,*6F
06/26/2015	17:03:44.595	$GPGGA,170345,2557.5735,N,08000.2604,W,1,11,1.6,16,M,,M,,*6D
06/26/2015	17:03:45.595	$GPGGA,170346,2557.5756,N,08000.2592,W,1,11,1.6,16,M,,M,,*67
06/26/2015	17:03:46.595	$GPGGA,170347,2557.5778,N,08000.2583,W,1,11,1.6,16,M,,M,,*6A
06/26/2015	17:03:47.595	$GPGGA,170348,2557.5800,N,08000.2574,W,1,11,1.6,16,M,,M,,*6D
06/26/2015	17:03:48.585	$GPGGA,170349,2557.5821,N,08000.2563,W,1,11,1.6,16,M,,M,,*69
06/26/2015	17:03:49.595	$GPGGA,170350,2557.5842,N,08000.2551,W,1,11,1.6,16,M,,M,,*65
06/26/2015	17:03:50.575	$GPGGA,170351,2557.5865,N,08000.2542,W,1,11,1.6,16,M,,M,,*63
06/26/2015	17:03:51.605	$GPGGA,170352,2557.5886,N,08000.2532,W,1,11,1.6,16,M,,M,,*6A
06/26/2015	17:03:52.575	$GPGGA,170353,2557.5908,N,08000.2521,W,1,11,1.6,16,M,,M,,*6E
06/26/2015	17:03:53.585	$GPGGA,170354,2557.5927,N,08000.2511,W,1,10,1.8,16,M,,M,,*68
06/26/2015	17:03:54.584	$GPGGA,170355,2557.5949,N,08000.2501,W,1,10,1.6,16,M,,M,,*6E
06/26/2015	17:03:55.604	$GPGGA,170356,2557.5973,N,08000.2492,W,1,10,1.7,16,M,,M,,*6E
06/26/2015	17:03:56.554	$GPGGA,170357,2557.5995,N,08000.2481,W,1,10,1.6,16,M,,M,,*64
06/26/2015	17:03:57.584	$GPGGA,170358,2557.6017,N,08000.2470,W,1,11,1.6,16,M,,M,,*64
06/26/2015	17:03:58.564	$GPGGA,170359,2557.6038,N,08000.2462,W,1,11,1.8,16,M,,M,,*65
06/26/2015	17:03:59.604	$GPGGA,170400,2557.6060,N,08000.2451,W,1,10,1.7,16,M,,M,,*6D
06/26/2015	17:04:00.545	$GPGGA,170401,2557.6082,N,08000.2441,W,1,10,2.0,16,M,,M,,*65
06/26/2015	17:04:01.565	$GPGGA,170402,2557.6104,N,08000.2432,W,1,10,1.8,16,M,,M,,*66
06/26/2015	17:04:02.555	$GPGGA,170403,2557.6126,N,08000.2422,W,1,10,1.8,16,M,,M,,*66
06/26/2015	17:04:03.575	$GPGGA,170404,2557.6149,N,08000.2411,W,1,10,1.8,16,M,,M,,*68
06/26/2015	17:04:04.545	$GPGGA,170405,2557.6171,N,08000.2401,W,1,10,1.8,16,M,,M,,*63
06/26/2015	17:04:05.575	$GPGGA,170406,2557.6193,N,08000.2390,W,1,10,1.8,16,M,,M,,*63
06/26/2015	17:04:06.545	$GPGGA,170407,2557.6215,N,08000.2380,W,1,10,2.0,16,M,,M,,*65
06/26/2015	17:04:07.585	$GPGGA,170408,2557.6234,N,08000.2374,W,1,10,1.8,16,M,,M,,*69
06/26/2015	17:04:08.536	$GPGGA,170409,2557.6256,N,08000.2363,W,1,10,1.6,16,M,,M,,*64
06/26/2015	17:04:09.565	$GPGGA,170410,2557.6277,N,08000.2356,W,1,10,1.8,16,M,,M,,*67
06/26/2015	17:04:10.525	$GPGGA,170411,2557.6299,N,08000.2346,W,1,10,1.6,16,M,,M,,*69
06/26/2015	17:04:11.564	$GPGGA,170412,2557.6321,N,08000.2335,W,1,11,1.6,16,M,,M,,*6D
06/26/2015	17:04:12.614	$GPGGA,170413,2557.6341,N,08000.2330,W,1,11,1.6,16,M,,M,,*6F
06/26/2015	17:04:13.536	$GPGGA,170414,2557.6363,N,08000.2319,W,1,11,1.6,16,M,,M,,*63
06/26/2015	17:04:14.624	$GPGGA,170415,2557.6385,N,08000.2308,W,1,11,1.6,16,M,,M,,*6A
06/26/2015	17:04:15.630	$GPGGA,170416,2557.6407,N,08000.2297,W,1,11,1.6,16,M,,M,,*63
06/26/2015	17:04:16.514	$GPGGA,170417,2557.6429,N,08000.2286,W,1,11,1.6,16,M,,M,,*6E
06/26/2015	17:04:17.528	$GPGGA,170418,2557.6450,N,08000.2276,W,1,11,1.6,16,M,,M,,*60
06/26/2015	17:04:18.624	$GPGGA,170419,2557.6471,N,08000.2266,W,1,11,1.6,16,M,,M,,*63
06/26/2015	17:04:19.664	$GPGGA,170420,2557.6493,N,08000.2255,W,1,11,1.6,16,M,,M,,*65
06/26/2015	17:04:20.594	$GPGGA,170421,2557.6514,N,08000.2245,W,1,11,1.6,16,M,,M,,*6B
06/26/2015	17:04:21.514	$GPGGA,170422,2557.6536,N,08000.2235,W,1,11,1.6,16,M,,M,,*6F
06/26/2015	17:04:22.514	$GPGGA,170423,2557.6558,N,08000.2225,W,1,11,1.6,16,M,,M,,*67
06/26/2015	17:04:23.524	$GPGGA,170424,2557.6580,N,08000.2215,W,1,11,1.6,16,M,,M,,*66
06/26/2015	17:04:24.594	$GPGGA,170425,2557.6601,N,08000.2204,W,1,11,1.6,16,M,,M,,*6D
06/26/2015	17:04:25.494	$GPGGA,170426,2557.6622,N,08000.2194,W,1,11,1.6,16,M,,M,,*65
06/26/2015	17:04:26.584	$GPGGA,170427,2557.6644,N,08000.2185,W,1,11,1.6,16,M,,M,,*64
06/26/2015	17:04:27.504	$GPGGA,170428,2557.6666,N,08000.2174,W,1,11,1.6,16,M,,M,,*65
06/26/2015	17:04:28.505	$GPGGA,170429,2557.6686,N,08000.2164,W,1,11,1.6,16,M,,M,,*6B
06/26/2015	17:04:29.614	$GPGGA,170430,2557.6709,N,08000.2154,W,1,11,1.6,16,M,,M,,*66
06/26/2015	17:04:30.574	$GPGGA,170431,2557.6731,N,08000.2144,W,1,11,1.6,16,M,,M,,*6D
06/26/2015	17:04:31.614	$GPGGA,170432,2557.6751,N,08000.2132,W,1,11,1.6,16,M,,M,,*69
06/26/2015	17:04:32.574	$GPGGA,170433,2557.6774,N,08000.2122,W,1,11,1.6,16,M,,M,,*6E
06/26/2015	17:04:33.594	$GPGGA,170434,2557.6796,N,08000.2111,W,1,11,1.6,16,M,,M,,*65
06/26/2015	17:04:34.584	$GPGGA,170435,2557.6816,N,08000.2100,W,1,11,1.6,16,M,,M,,*63
06/26/2015	17:04:35.594	$GPGGA,170436,2557.6839,N,08000.2090,W,1,11,1.6,16,M,,M,,*65
06/26/2015	17:04:36.564	$GPGGA,170437,2557.6861,N,08000.2079,W,1,11,1.6,16,M,,M,,*6E
06/26/2015	17:04:37.574	$GPGGA,170438,2557.6880,N,08000.2068,W,1,11,1.6,16,M,,M,,*6E
06/26/2015	17:04:38.564	$GPGGA,170439,2557.6904,N,08000.2058,W,1,11,1.6,16,M,,M,,*61
06/26/2015	17:04:39.594	$GPGGA,170440,2557.6924,N,08000.2046,W,1,11,1.6,16,M,,M,,*62
06/26/2015	17:04:40.564	$GPGGA,170441,2557.6945,N,08000.2035,W,1,11,1.6,16,M,,M,,*60
06/26/2015	17:04:41.574	$GPGGA,170442,2557.6967,N,08000.2025,W,1,11,1.6,16,M,,M,,*62
06/26/2015	17:04:42.564	$GPGGA,170443,2557.6989,N,08000.2013,W,1,11,1.6,16,M,,M,,*66
06/26/2015	17:04:43.584	$GPGGA,170444,2557.7010,N,08000.2002,W,1,11,1.6,16,M,,M,,*69
06/26/2015	17:04:44.554	$GPGGA,170445,2557.7032,N,08000.1992,W,1,11,1.6,16,M,,M,,*6B
06/26/2015	17:04:45.564	$GPGGA,170446,2557.7054,N,08000.1981,W,1,11,1.6,16,M,,M,,*6A
06/26/2015	17:04:46.554	$GPGGA,170447,2557.7076,N,08000.1970,W,1,11,1.8,16,M,,M,,*6B
06/26/2015	17:04:47.604	$GPGGA,170448,2557.7097,N,08000.1960,W,1,10,1.6,16,M,,M,,*65
06/26/2015	17:04:48.535	$GPGGA,170449,2557.7119,N,08000.1949,W,1,10,1.6,16,M,,M,,*68
06/26/2015	17:04:49.554	$GPGGA,170450,2557.7140,N,08000.1936,W,1,11,1.6,16,M,,M,,*65
06/26/2015	17:04:50.544	$GPGGA,170451,2557.7162,N,08000.1925,W,1,11,1.6,16,M,,M,,*66
06/26/2015	17:04:51.574	$GPGGA,170452,2557.7184,N,08000.1914,W,1,11,1.6,16,M,,M,,*6F
06/26/2015	17:04:52.554	$GPGGA,170453,2557.7205,N,08000.1902,W,1,11,1.6,16,M,,M,,*63
06/26/2015	17:04:53.564	$GPGGA,170454,2557.7226,N,08000.1890,W,1,11,1.6,16,M,,M,,*6F
06/26/2015	17:04:54.537	$GPGGA,170455,2557.7248,N,08000.1879,W,1,11,1.6,16,M,,M,,*61
06/26/2015	17:04:55.574	$GPGGA,170456,2557.7270,N,08000.1869,W,1,11,1.6,16,M,,M,,*68
06/26/2015	17:04:56.535	$GPGGA,170457,2557.7291,N,08000.1857,W,1,11,1.6,17,M,,M,,*6A
06/26/2015	17:04:57.544	$GPGGA,170458,2557.7311,N,08000.1846,W,1,11,1.6,17,M,,M,,*6C
06/26/2015	17:04:58.544	$GPGGA,170459,2557.7334,N,08000.1836,W,1,11,1.6,17,M,,M,,*6D
06/26/2015	17:04:59.594	$GPGGA,170500,2557.7354,N,08000.1825,W,1,11,1.6,17,M,,M,,*64
06/26/2015	17:05:00.534	$GPGGA,170501,2557.7375,N,08000.1814,W,1,11,1.6,17,M,,M,,*64
06/26/2015	17:05:01.544	$GPGGA,170502,2557.7397,N,08000.1803,W,1,11,1.6,17,M,,M,,*6D
06/26/2015	17:05:02.604	$GPGGA,170503,2557.7419,N,08000.1793,W,1,11,1.6,17,M,,M,,*6B
06/26/2015	17:05:03.575	$GPGGA,170504,2557.7440,N,08000.1782,W,1,11,1.6,17,M,,M,,*60
06/26/2015	17:05:04.504	$GPGGA,170505,2557.7462,N,08000.1771,W,1,11,1.6,17,M,,M,,*6D
06/26/2015	17:05:05.604	$GPGGA,170506,2557.7484,N,08000.1761,W,1,11,1.6,17,M,,M,,*67
06/26/2015	17:05:06.514	$GPGGA,170507,2557.7505,N,08000.1751,W,1,11,1.6,17,M,,M,,*6D
06/26/2015	17:05:07.636	$GPGGA,170508,2557.7527,N,08000.1740,W,1,11,1.6,17,M,,M,,*62
06/26/2015	17:05:08.524	$GPGGA,170509,2557.7549,N,08000.1729,W,1,11,1.6,17,M,,M,,*64
06/26/2015	17:05:09.604	$GPGGA,170510,2557.7570,N,08000.1719,W,1,11,1.6,17,M,,M,,*65
06/26/2015	17:05:10.514	$GPGGA,170511,2557.7592,N,08000.1709,W,1,11,1.6,17,M,,M,,*69
06/26/2015	17:05:11.604	$GPGGA,170512,2557.7614,N,08000.1698,W,1,11,1.6,17,M,,M,,*6E
06/26/2015	17:05:12.504	$GPGGA,170513,2557.7635,N,08000.1688,W,1,11,1.6,17,M,,M,,*6D
06/26/2015	17:05:13.604	$GPGGA,170514,2557.7657,N,08000.1678,W,1,11,1.6,17,M,,M,,*61
06/26/2015	17:05:14.574	$GPGGA,170515,2557.7679,N,08000.1667,W,1,11,1.6,17,M,,M,,*62
06/26/2015	17:05:15.614	$GPGGA,170516,2557.7701,N,08000.1657,W,1,11,1.6,17,M,,M,,*6C
06/26/2015	17:05:16.574	$GPGGA,170517,2557.7722,N,08000.1647,W,1,11,1.6,17,M,,M,,*6D
06/26/2015	17:05:17.594	$GPGGA,170518,2557.7744,N,08000.1637,W,1,11,1.6,17,M,,M,,*65
06/26/2015	17:05:18.574	$GPGGA,170519,2557.7766,N,08000.1626,W,1,11,1.9,17,M,,M,,*6B
06/26/2015	17:05:19.614	$GPGGA,170520,2557.7789,N,08000.1616,W,1,10,1.9,17,M,,M,,*62
06/26/2015	17:05:20.574	$GPGGA,170521,2557.7809,N,08000.1609,W,1,10,1.9,17,M,,M,,*6A
06/26/2015	17:05:21.554	$GPGGA,170522,2557.7831,N,08000.1598,W,1,11,1.9,18,M,,M,,*67
06/26/2015	17:05:22.564	$GPGGA,170523,2557.7854,N,08000.1587,W,1,11,1.9,18,M,,M,,*6B
06/26/2015	17:05:23.594	$GPGGA,170524,2557.7876,N,08000.1577,W,1,10,1.9,18,M,,M,,*62
06/26/2015	17:05:24.564	$GPGGA,170525,2557.7898,N,08000.1568,W,1,10,1.9,17,M,,M,,*62
06/26/2015	17:05:25.564	$GPGGA,170526,2557.7919,N,08000.1558,W,1,11,1.9,17,M,,M,,*6B
06/26/2015	17:05:26.554	$GPGGA,170527,2557.7942,N,08000.1547,W,1,11,1.9,17,M,,M,,*6A
06/26/2015	17:05:27.554	$GPGGA,170528,2557.7964,N,08000.1537,W,1,10,1.9,17,M,,M,,*67
06/26/2015	17:05:28.554	$GPGGA,170529,2557.7986,N,08000.1527,W,1,10,1.6,17,M,,M,,*64
06/26/2015	17:05:29.574	$GPGGA,170530,2557.8008,N,08000.1517,W,1,11,1.6,17,M,,M,,*6E
06/26/2015	17:05:30.554	$GPGGA,170531,2557.8029,N,08000.1507,W,1,11,1.6,17,M,,M,,*6D
06/26/2015	17:05:31.604	$GPGGA,170532,2557.8051,N,08000.1496,W,1,10,1.9,17,M,,M,,*66
06/26/2015	17:05:32.536	$GPGGA,170533,2557.8073,N,08000.1486,W,1,10,1.9,17,M,,M,,*66
06/26/2015	17:05:33.564	$GPGGA,170534,2557.8094,N,08000.1479,W,1,10,1.9,17,M,,M,,*68
06/26/2015	17:05:34.544	$GPGGA,170535,2557.8116,N,08000.1467,W,1,10,1.6,17,M,,M,,*62
06/26/2015	17:05:35.544	$GPGGA,170536,2557.8137,N,08000.1460,W,1,10,1.9,17,M,,M,,*6A
06/26/2015	17:05:36.531	$GPGGA,170537,2557.8159,N,08000.1452,W,1,10,1.6,17,M,,M,,*6D
06/26/2015	17:05:37.537	$GPGGA,170538,2557.8180,N,08000.1443,W,1,11,1.6,18,M,,M,,*68
06/26/2015	17:05:38.525	$GPGGA,170539,2557.8199,N,08000.1434,W,1,11,1.6,18,M,,M,,*61
06/26/2015	17:05:39.538	$GPGGA,170540,2557.8221,N,08000.1424,W,1,11,1.6,18,M,,M,,*6E
06/26/2015	17:05:40.530	$GPGGA,170541,2557.8243,N,08000.1416,W,1,11,1.6,18,M,,M,,*6A
06/26/2015	17:05:41.530	$GPGGA,170542,2557.8266,N,08000.1406,W,1,11,1.6,18,M,,M,,*6F
06/26/2015	17:05:42.541	$GPGGA,170543,2557.8286,N,08000.1394,W,1,11,1.6,18,M,,M,,*6C
06/26/2015	17:05:43.554	$GPGGA,170544,2557.8308,N,08000.1385,W,1,11,1.6,18,M,,M,,*6C
06/26/2015	17:05:44.514	$GPGGA,170545,2557.8331,N,08000.1375,W,1,11,1.6,18,M,,M,,*68
06/26/2015	17:05:45.528	$GPGGA,170546,2557.8351,N,08000.1364,W,1,11,1.6,18,M,,M,,*6D
06/26/2015	17:05:46.504	$GPGGA,170547,2557.8373,N,08000.1353,W,1,11,1.6,18,M,,M,,*68
06/26/2015	17:05:47.541	$GPGGA,170548,2557.8396,N,08000.1343,W,1,11,1.6,18,M,,M,,*6D
06/26/2015	17:05:48.594	$GPGGA,170549,2557.8418,N,08000.1333,W,1,11,1.6,18,M,,M,,*6A
06/26/2015	17:05:49.640	$GPGGA,170550,2557.8440,N,08000.1321,W,1,11,1.6,18,M,,M,,*6C
06/26/2015	17:05:50.504	$GPGGA,170551,2557.8461,N,08000.1311,W,1,11,1.6,18,M,,M,,*6D
06/26/2015	17:05:51.539	$GPGGA,170552,2557.8483,N,08000.1302,W,1,11,1.6,18,M,,M,,*60
06/26/2015	17:05:52.604	$GPGGA,170553,2557.8505,N,08000.1291,W,1,11,1.6,18,M,,M,,*65
06/26/2015	17:05:53.629	$GPGGA,170554,2557.8527,N,08000.1280,W,1,11,1.6,18,M,,M,,*62
06/26/2015	17:05:54.504	$GPGGA,170555,2557.8548,N,08000.1270,W,1,11,1.6,18,M,,M,,*65
06/26/2015	17:05:55.631	$GPGGA,170556,2557.8570,N,08000.1260,W,1,11,1.6,18,M,,M,,*6C
06/26/2015	17:05:56.504	$GPGGA,170557,2557.8592,N,08000.1249,W,1,11,1.6,18,M,,M,,*6A
06/26/2015	17:05:57.630	$GPGGA,170558,2557.8613,N,08000.1238,W,1,11,1.6,18,M,,M,,*69
06/26/2015	17:05:58.594	$GPGGA,170559,2557.8635,N,08000.1228,W,1,11,1.6,18,M,,M,,*6D
06/26/2015	17:05:59.654	$GPGGA,170600,2557.8657,N,08000.1218,W,1,11,1.6,18,M,,M,,*65
06/26/2015	17:06:00.584	$GPGGA,170601,2557.8678,N,08000.1207,W,1,11,1.6,18,M,,M,,*67
06/26/2015	17:06:01.614	$GPGGA,170602,2557.8700,N,08000.1196,W,1,11,1.6,18,M,,M,,*61
06/26/2015	17:06:02.574	$GPGGA,170603,2557.8722,N,08000.1186,W,1,11,1.6,18,M,,M,,*61
06/26/2015	17:06:03.594	$GPGGA,170604,2557.8743,N,08000.1175,W,1,11,1.6,18,M,,M,,*6D
06/26/2015	17:06:04.574	$GPGGA,170605,2557.8765,N,08000.1164,W,1,11,1.6,18,M,,M,,*68
06/26/2015	17:06:05.564	$GPGGA,170606,2557.8787,N,08000.1154,W,1,11,1.6,17,M,,M,,*6B
06/26/2015	17:06:06.564	$GPGGA,170607,2557.8808,N,08000.1143,W,1,11,1.6,17,M,,M,,*64
06/26/2015	17:06:07.594	$GPGGA,170608,2557.8830,N,08000.1132,W,1,11,1.6,17,M,,M,,*66
06/26/2015	17:06:08.574	$GPGGA,170609,2557.8850,N,08000.1121,W,1,11,1.6,17,M,,M,,*63
06/26/2015	17:06:09.584	$GPGGA,170610,2557.8873,N,08000.1110,W,1,11,1.6,17,M,,M,,*68
06/26/2015	17:06:10.564	$GPGGA,170611,2557.8893,N,08000.1099,W,1,11,1.6,17,M,,M,,*67
06/26/2015	17:06:11.564	$GPGGA,170612,2557.8915,N,08000.1088,W,1,11,1.6,17,M,,M,,*6B
06/26/2015	17:06:12.544	$GPGGA,170613,2557.8936,N,08000.1078,W,1,11,1.6,17,M,,M,,*64
06/26/2015	17:06:13.574	$GPGGA,170614,2557.8958,N,08000.1067,W,1,11,1.6,17,M,,M,,*65
06/26/2015	17:06:14.544	$GPGGA,170615,2557.8979,N,08000.1056,W,1,11,1.6,17,M,,M,,*65
06/26/2015	17:06:15.574	$GPGGA,170616,2557.9001,N,08000.1044,W,1,11,1.6,17,M,,M,,*62
06/26/2015	17:06:16.544	$GPGGA,170617,2557.9023,N,08000.1034,W,1,11,1.6,17,M,,M,,*64
06/26/2015	17:06:17.574	$GPGGA,170618,2557.9044,N,08000.1023,W,1,11,1.6,17,M,,M,,*6C
06/26/2015	17:06:18.534	$GPGGA,170619,2557.9066,N,08000.1012,W,1,11,1.6,17,M,,M,,*6F
06/26/2015	17:06:19.574	$GPGGA,170620,2557.9087,N,08000.1001,W,1,11,1.6,17,M,,M,,*68
06/26/2015	17:06:20.544	$GPGGA,170621,2557.9109,N,08000.0991,W,1,11,1.6,17,M,,M,,*6F
06/26/2015	17:06:21.536	$GPGGA,170622,2557.9131,N,08000.0981,W,1,11,1.6,17,M,,M,,*66
06/26/2015	17:06:22.536	$GPGGA,170623,2557.9153,N,08000.0969,W,1,11,1.6,17,M,,M,,*65
06/26/2015	17:06:23.544	$GPGGA,170624,2557.9174,N,08000.0958,W,1,11,1.6,17,M,,M,,*65
06/26/2015	17:06:24.526	$GPGGA,170625,2557.9196,N,08000.0948,W,1,11,1.6,16,M,,M,,*68
06/26/2015	17:06:25.544	$GPGGA,170626,2557.9218,N,08000.0937,W,1,11,1.6,16,M,,M,,*66
06/26/2015	17:06:26.514	$GPGGA,170627,2557.9239,N,08000.0926,W,1,11,1.6,16,M,,M,,*64
06/26/2015	17:06:27.544	$GPGGA,170628,2557.9261,N,08000.0915,W,1,11,1.6,16,M,,M,,*66
06/26/2015	17:06:28.527	$GPGGA,170629,2557.9282,N,08000.0905,W,1,11,1.6,16,M,,M,,*6B
06/26/2015	17:06:29.544	$GPGGA,170630,2557.9305,N,08000.0894,W,1,11,1.6,16,M,,M,,*64
06/26/2015	17:06:30.514	$GPGGA,170631,2557.9326,N,08000.0883,W,1,11,1.6,16,M,,M,,*62
06/26/2015	17:06:31.534	$GPGGA,170632,2557.9347,N,08000.0872,W,1,11,1.6,16,M,,M,,*68
06/26/2015	17:06:32.504	$GPGGA,170633,2557.9369,N,08000.0862,W,1,11,1.6,16,M,,M,,*64
06/26/2015	17:06:33.638	$GPGGA,170634,2557.9391,N,08000.0851,W,1,11,1.6,16,M,,M,,*64
06/26/2015	17:06:34.504	$GPGGA,170635,2557.9412,N,08000.0840,W,1,11,1.6,16,M,,M,,*69
06/26/2015	17:06:35.514	$GPGGA,170636,2557.9434,N,08000.0830,W,1,11,1.6,16,M,,M,,*69
06/26/2015	17:06:36.594	$GPGGA,170637,2557.9456,N,08000.0820,W,1,11,1.6,16,M,,M,,*6D
06/26/2015	17:06:37.594	$GPGGA,170638,2557.9478,N,08000.0809,W,1,11,1.6,16,M,,M,,*65
06/26/2015	17:06:38.494	$GPGGA,170639,2557.9500,N,08000.0799,W,1,11,1.6,16,M,,M,,*6C
06/26/2015	17:06:39.504	$GPGGA,170640,2557.9521,N,08000.0788,W,1,11,1.6,16,M,,M,,*61
06/26/2015	17:06:40.514	$GPGGA,170641,2557.9543,N,08000.0777,W,1,11,1.6,16,M,,M,,*64
06/26/2015	17:06:41.594	$GPGGA,170642,2557.9565,N,08000.0767,W,1,11,1.6,16,M,,M,,*62
06/26/2015	17:06:42.504	$GPGGA,170643,2557.9586,N,08000.0757,W,1,11,1.6,15,M,,M,,*6E
06/26/2015	17:06:43.594	$GPGGA,170644,2557.9608,N,08000.0747,W,1,11,1.6,15,M,,M,,*6D
06/26/2015	17:06:44.594	$GPGGA,170645,2557.9630,N,08000.0736,W,1,11,1.6,15,M,,M,,*61
06/26/2015	17:06:45.604	$GPGGA,170646,2557.9651,N,08000.0726,W,1,11,1.6,15,M,,M,,*64
06/26/2015	17:06:46.574	$GPGGA,170647,2557.9673,N,08000.0718,W,1,11,1.9,15,M,,M,,*67
06/26/2015	17:06:47.604	$GPGGA,170648,2557.9695,N,08000.0708,W,1,11,1.6,15,M,,M,,*6E
06/26/2015	17:06:48.574	$GPGGA,170649,2557.9716,N,08000.0698,W,1,11,1.6,15,M,,M,,*6D
06/26/2015	17:06:49.594	$GPGGA,170650,2557.9738,N,08000.0689,W,1,11,1.6,15,M,,M,,*69
06/26/2015	17:06:50.574	$GPGGA,170651,2557.9760,N,08000.0680,W,1,11,1.6,15,M,,M,,*6C
06/26/2015	17:06:51.604	$GPGGA,170652,2557.9781,N,08000.0670,W,1,11,1.6,15,M,,M,,*6F
06/26/2015	17:06:52.564	$GPGGA,170653,2557.9803,N,08000.0661,W,1,11,1.6,15,M,,M,,*6B
06/26/2015	17:06:53.584	$GPGGA,170654,2557.9825,N,08000.0653,W,1,11,1.6,15,M,,M,,*69
06/26/2015	17:06:54.564	$GPGGA,170655,2557.9846,N,08000.0642,W,1,11,1.6,15,M,,M,,*6D
06/26/2015	17:06:55.594	$GPGGA,170656,2557.9868,N,08000.0632,W,1,11,1.6,15,M,,M,,*65
06/26/2015	17:06:56.564	$GPGGA,170657,2557.9890,N,08000.0623,W,1,11,1.6,15,M,,M,,*63
06/26/2015	17:06:57.544	$GPGGA,170658,2557.9912,N,08000.0614,W,1,11,1.6,16,M,,M,,*60
06/26/2015	17:06:58.564	$GPGGA,170659,2557.9933,N,08000.0603,W,1,11,1.6,16,M,,M,,*64
06/26/2015	17:06:59.594	$GPGGA,170700,2557.9955,N,08000.0592,W,1,10,1.9,16,M,,M,,*6C
06/26/2015	17:07:00.554	$GPGGA,170701,2557.9977,N,08000.0584,W,1,10,1.9,16,M,,M,,*6A
06/26/2015	17:07:01.554	$GPGGA,170702,2557.9998,N,08000.0575,W,1,11,1.6,16,M,,M,,*68
06/26/2015	17:07:02.554	$GPGGA,170703,2558.0020,N,08000.0562,W,1,11,1.6,16,M,,M,,*63
06/26/2015	17:07:03.584	$GPGGA,170704,2558.0042,N,08000.0554,W,1,10,1.9,16,M,,M,,*6B
06/26/2015	17:07:04.544	$GPGGA,170705,2558.0065,N,08000.0543,W,1,10,1.6,16,M,,M,,*66
06/26/2015	17:07:05.564	$GPGGA,170706,2558.0087,N,08000.0530,W,1,11,1.6,16,M,,M,,*6C
06/26/2015	17:07:06.554	$GPGGA,170707,2558.0109,N,08000.0518,W,1,11,1.6,16,M,,M,,*60
06/26/2015	17:07:07.544	$GPGGA,170708,2558.0132,N,08000.0508,W,1,10,1.9,17,M,,M,,*69
06/26/2015	17:07:08.526	$GPGGA,170709,2558.0153,N,08000.0501,W,1,10,1.6,17,M,,M,,*69
06/26/2015	17:07:09.574	$GPGGA,170710,2558.0174,N,08000.0488,W,1,11,1.6,17,M,,M,,*65
06/26/2015	17:07:10.539	$GPGGA,170711,2558.0197,N,08000.0478,W,1,11,1.9,17,M,,M,,*69
06/26/2015	17:07:11.574	$GPGGA,170712,2558.0219,N,08000.0469,W,1,10,1.9,17,M,,M,,*6E
06/26/2015	17:07:12.614	$GPGGA,170713,2558.0240,N,08000.0458,W,1,10,1.6,17,M,,M,,*6E
06/26/2015	17:07:13.704	$GPGGA,170714,2558.0261,N,08000.0447,W,1,11,1.6,17,M,,M,,*65
06/26/2015	17:07:14.525	$GPGGA,170715,2558.0284,N,08000.0438,W,1,11,1.6,17,M,,M,,*67
06/26/2015	17:07:15.534	$GPGGA,170716,2558.0305,N,08000.0428,W,1,11,1.6,17,M,,M,,*6D
06/26/2015	17:07:16.514	$GPGGA,170717,2558.0326,N,08000.0416,W,1,11,1.6,17,M,,M,,*60
06/26/2015	17:07:17.514	$GPGGA,170718,2558.0348,N,08000.0406,W,1,11,1.6,17,M,,M,,*66
06/26/2015	17:07:18.514	$GPGGA,170719,2558.0370,N,08000.0397,W,1,11,1.6,17,M,,M,,*63
06/26/2015	17:07:19.704	$GPGGA,170720,2558.0392,N,08000.0386,W,1,11,1.6,18,M,,M,,*6A
06/26/2015	17:07:20.514	$GPGGA,170721,2558.0413,N,08000.0375,W,1,11,1.6,18,M,,M,,*69
06/26/2015	17:07:21.684	$GPGGA,170722,2558.0435,N,08000.0366,W,1,11,1.6,18,M,,M,,*6C
06/26/2015	17:07:22.594	$GPGGA,170723,2558.0457,N,08000.0356,W,1,11,1.6,18,M,,M,,*6A
06/26/2015	17:07:23.514	$GPGGA,170724,2558.0478,N,08000.0345,W,1,11,1.6,18,M,,M,,*62
06/26/2015	17:07:24.494	$GPGGA,170725,2558.0499,N,08000.0334,W,1,11,1.6,18,M,,M,,*6A
06/26/2015	17:07:25.684	$GPGGA,170726,2558.0521,N,08000.0325,W,1,11,1.6,18,M,,M,,*6B
06/26/2015	17:07:26.494	$GPGGA,170727,2558.0543,N,08000.0315,W,1,11,1.6,18,M,,M,,*6D
06/26/2015	17:07:27.695	$GPGGA,170728,2558.0564,N,08000.0304,W,1,11,1.6,18,M,,M,,*67
06/26/2015	17:07:28.614	$GPGGA,170729,2558.0584,N,08000.0293,W,1,11,1.6,18,M,,M,,*67
06/26/2015	17:07:29.674	$GPGGA,170730,2558.0607,N,08000.0284,W,1,11,1.6,18,M,,M,,*61
06/26/2015	17:07:30.584	$GPGGA,170731,2558.0627,N,08000.0273,W,1,11,1.6,18,M,,M,,*6A
06/26/2015	17:07:31.694	$GPGGA,170732,2558.0648,N,08000.0262,W,1,11,1.6,18,M,,M,,*60
06/26/2015	17:07:32.626	$GPGGA,170733,2558.0670,N,08000.0253,W,1,11,1.6,18,M,,M,,*68
06/26/2015	17:07:33.674	$GPGGA,170734,2558.0692,N,08000.0242,W,1,11,1.6,18,M,,M,,*63
06/26/2015	17:07:34.574	$GPGGA,170735,2558.0712,N,08000.0231,W,1,11,1.6,18,M,,M,,*6F
06/26/2015	17:07:35.674	$GPGGA,170736,2558.0734,N,08000.0221,W,1,11,1.6,18,M,,M,,*69
06/26/2015	17:07:36.594	$GPGGA,170737,2558.0756,N,08000.0211,W,1,11,1.6,18,M,,M,,*6F
06/26/2015	17:07:37.674	$GPGGA,170738,2558.0775,N,08000.0200,W,1,11,1.6,17,M,,M,,*6E
06/26/2015	17:07:38.604	$GPGGA,170739,2558.0797,N,08000.0189,W,1,11,1.6,17,M,,M,,*61
06/26/2015	17:07:39.674	$GPGGA,170740,2558.0818,N,08000.0179,W,1,11,1.6,17,M,,M,,*68
06/26/2015	17:07:40.605	$GPGGA,170741,2558.0840,N,08000.0168,W,1,11,1.6,17,M,,M,,*64
06/26/2015	17:07:41.664	$GPGGA,170742,2558.0861,N,08000.0158,W,1,11,1.6,17,M,,M,,*67
06/26/2015	17:07:42.556	$GPGGA,170743,2558.0882,N,08000.0147,W,1,11,1.6,17,M,,M,,*65
06/26/2015	17:07:43.684	$GPGGA,170744,2558.0904,N,08000.0137,W,1,11,1.6,17,M,,M,,*6A
06/26/2015	17:07:44.544	$GPGGA,170745,2558.0925,N,08000.0127,W,1,11,1.6,17,M,,M,,*69
06/26/2015	17:07:45.544	$GPGGA,170746,2558.0945,N,08000.0116,W,1,11,1.6,17,M,,M,,*6E
06/26/2015	17:07:46.574	$GPGGA,170747,2558.0966,N,08000.0105,W,1,11,1.6,17,M,,M,,*6C
06/26/2015	17:07:47.664	$GPGGA,170748,2558.0988,N,08000.0096,W,1,11,1.6,17,M,,M,,*68
06/26/2015	17:07:48.584	$GPGGA,170749,2558.1010,N,08000.0085,W,1,11,1.6,17,M,,M,,*62
06/26/2015	17:07:49.604	$GPGGA,170750,2558.1031,N,08000.0074,W,1,11,1.6,17,M,,M,,*67
06/26/2015	17:07:50.584	$GPGGA,170751,2558.1053,N,08000.0064,W,1,11,1.6,17,M,,M,,*63
06/26/2015	17:07:51.664	$GPGGA,170752,2558.1074,N,08000.0054,W,1,11,1.6,17,M,,M,,*66
06/26/2015	17:07:52.536	$GPGGA,170753,2558.1095,N,08000.0044,W,1,11,1.6,17,M,,M,,*69
06/26/2015	17:07:53.604	$GPGGA,170754,2558.1117,N,08000.0034,W,1,11,1.6,17,M,,M,,*62
06/26/2015	17:07:54.564	$GPGGA,170755,2558.1138,N,08000.0023,W,1,11,1.6,17,M,,M,,*68
06/26/2015	17:07:55.654	$GPGGA,170756,2558.1160,N,08000.0013,W,1,11,1.6,17,M,,M,,*65
06/26/2015	17:07:56.564	$GPGGA,170757,2558.1180,N,08000.0004,W,1,11,1.6,17,M,,M,,*6C
06/26/2015	17:07:57.604	$GPGGA,170758,2558.1203,N,07959.9993,W,1,11,1.6,17,M,,M,,*6F
06/26/2015	17:07:58.527	$GPGGA,170759,2558.1223,N,07959.9983,W,1,11,1.6,17,M,,M,,*6D
06/26/2015	17:07:59.644	$GPGGA,170800,2558.1245,N,07959.9973,W,1,11,1.6,17,M,,M,,*61
06/26/2015	17:08:00.554	$GPGGA,170801,2558.1266,N,07959.9963,W,1,11,1.6,17,M,,M,,*60
06/26/2015	17:08:01.614	$GPGGA,170802,2558.1288,N,07959.9953,W,1,11,1.6,17,M,,M,,*60
06/26/2015	17:08:02.554	$GPGGA,170803,2558.1310,N,07959.9943,W,1,11,1.6,17,M,,M,,*60
06/26/2015	17:08:03.644	$GPGGA,170804,2558.1331,N,07959.9933,W,1,11,1.6,17,M,,M,,*63
06/26/2015	17:08:04.624	$GPGGA,170805,2558.1353,N,07959.9923,W,1,11,1.6,17,M,,M,,*67
06/26/2015	17:08:05.624	$GPGGA,170806,2558.1374,N,07959.9912,W,1,11,1.6,17,M,,M,,*63
06/26/2015	17:08:06.544	$GPGGA,170807,2558.1396,N,07959.9903,W,1,11,1.6,17,M,,M,,*6E
06/26/2015	17:08:07.614	$GPGGA,170808,2558.1418,N,07959.9893,W,1,11,1.6,17,M,,M,,*68
06/26/2015	17:08:08.539	$GPGGA,170809,2558.1439,N,07959.9883,W,1,11,1.6,17,M,,M,,*6B
06/26/2015	17:08:09.635	$GPGGA,170810,2558.1461,N,07959.9873,W,1,11,1.6,17,M,,M,,*61
06/26/2015	17:08:10.542	$GPGGA,170811,2558.1483,N,07959.9863,W,1,11,2.0,17,M,,M,,*68
06/26/2015	17:08:11.604	$GPGGA,170812,2558.1503,N,07959.9854,W,1,9,1.6,17,M,,M,,*5A
06/26/2015	17:08:12.539	$GPGGA,170813,2558.1523,N,07959.9845,W,1,9,1.6,17,M,,M,,*59
06/26/2015	17:08:13.594	$GPGGA,170814,2558.1544,N,07959.9835,W,1,11,1.6,17,M,,M,,*61
06/26/2015	17:08:14.584	$GPGGA,170815,2558.1566,N,07959.9826,W,1,11,1.6,17,M,,M,,*62
06/26/2015	17:08:15.637	$GPGGA,170816,2558.1588,N,07959.9816,W,1,11,1.6,17,M,,M,,*62
06/26/2015	17:08:16.584	$GPGGA,170817,2558.1609,N,07959.9806,W,1,11,1.6,17,M,,M,,*68
06/26/2015	17:08:17.584	$GPGGA,170818,2558.1631,N,07959.9796,W,1,11,1.6,17,M,,M,,*6A
06/26/2015	17:08:18.584	$GPGGA,170819,2558.1652,N,07959.9787,W,1,11,1.6,17,M,,M,,*6E
06/26/2015	17:08:19.626	$GPGGA,170820,2558.1674,N,07959.9776,W,1,11,1.6,17,M,,M,,*6E
06/26/2015	17:08:20.574	$GPGGA,170821,2558.1695,N,07959.9766,W,1,11,1.6,17,M,,M,,*61
06/26/2015	17:08:21.637	$GPGGA,170822,2558.1717,N,07959.9756,W,1,11,1.6,17,M,,M,,*6A
06/26/2015	17:08:23.067	$GPGGA,170823,2558.1739,N,07959.9746,W,1,11,1.6,17,M,,M,,*66
06/26/2015	17:08:23.674	$GPGGA,170824,2558.1761,N,07959.9736,W,1,11,1.9,17,M,,M,,*64
06/26/2015	17:08:24.574	$GPGGA,170825,2558.1781,N,07959.9727,W,1,11,1.6,16,M,,M,,*65
06/26/2015	17:08:25.630	$GPGGA,170826,2558.1801,N,07959.9717,W,1,11,1.6,16,M,,M,,*62
06/26/2015	17:08:26.564	$GPGGA,170827,2558.1823,N,07959.9708,W,1,11,1.6,16,M,,M,,*6D
06/26/2015	17:08:27.654	$GPGGA,170828,2558.1844,N,07959.9700,W,1,11,1.6,16,M,,M,,*6B
06/26/2015	17:08:28.564	$GPGGA,170829,2558.1866,N,07959.9691,W,1,11,1.6,16,M,,M,,*63
06/26/2015	17:08:29.638	$GPGGA,170830,2558.1887,N,07959.9681,W,1,11,1.6,16,M,,M,,*65
06/26/2015	17:08:30.554	$GPGGA,170831,2558.1908,N,07959.9671,W,1,11,1.6,16,M,,M,,*6D
06/26/2015	17:08:31.629	$GPGGA,170832,2558.1931,N,07959.9662,W,1,11,1.6,16,M,,M,,*66
06/26/2015	17:08:32.554	$GPGGA,170833,2558.1952,N,07959.9652,W,1,11,1.6,16,M,,M,,*61
06/26/2015	17:08:33.647	$GPGGA,170834,2558.1973,N,07959.9642,W,1,11,1.6,16,M,,M,,*64
06/26/2015	17:08:34.544	$GPGGA,170835,2558.1995,N,07959.9632,W,1,11,1.9,16,M,,M,,*65
06/26/2015	17:08:35.642	$GPGGA,170836,2558.2017,N,07959.9622,W,1,10,1.9,16,M,,M,,*66
06/26/2015	17:08:36.574	$GPGGA,170837,2558.2038,N,07959.9612,W,1,10,1.6,16,M,,M,,*66
06/26/2015	17:08:37.584	$GPGGA,170838,2558.2038,N,07959.9612,W,1,11,1.6,16,M,,M,,*68
06/26/2015	17:08:38.564	$GPGGA,170839,2558.2081,N,07959.9594,W,1,11,1.6,16,M,,M,,*66
06/26/2015	17:08:39.594	$GPGGA,170840,2558.2101,N,07959.9584,W,1,11,1.6,16,M,,M,,*60
06/26/2015	17:08:40.536	$GPGGA,170841,2558.2122,N,07959.9575,W,1,11,1.6,16,M,,M,,*6E
06/26/2015	17:08:41.574	$GPGGA,170842,2558.2144,N,07959.9566,W,1,11,1.6,16,M,,M,,*6F
06/26/2015	17:08:42.536	$GPGGA,170843,2558.2166,N,07959.9557,W,1,11,1.6,16,M,,M,,*6C
06/26/2015	17:08:43.684	$GPGGA,170844,2558.2187,N,07959.9548,W,1,11,1.6,16,M,,M,,*6A
06/26/2015	17:08:44.544	$GPGGA,170845,2558.2187,N,07959.9548,W,1,11,1.6,16,M,,M,,*6B
06/26/2015	17:08:45.635	$GPGGA,170846,2558.2229,N,07959.9530,W,1,11,1.6,16,M,,M,,*60
06/26/2015	17:08:46.535	$GPGGA,170847,2558.2251,N,07959.9520,W,1,11,1.6,16,M,,M,,*6F
06/26/2015	17:08:47.664	$GPGGA,170848,2558.2273,N,07959.9511,W,1,11,1.6,16,M,,M,,*62
06/26/2015	17:08:48.524	$GPGGA,170849,2558.2294,N,07959.9501,W,1,11,1.6,16,M,,M,,*6B
06/26/2015	17:08:49.604	$GPGGA,170850,2558.2314,N,07959.9491,W,1,11,1.6,16,M,,M,,*62
06/26/2015	17:08:50.605	$GPGGA,170851,2558.2336,N,07959.9481,W,1,11,1.6,16,M,,M,,*62
06/26/2015	17:08:51.654	$GPGGA,170852,2558.2357,N,07959.9472,W,1,11,1.6,16,M,,M,,*6A
06/26/2015	17:08:52.604	$GPGGA,170853,2558.2379,N,07959.9461,W,1,11,1.6,16,M,,M,,*65
06/26/2015	17:08:53.639	$GPGGA,170854,2558.2400,N,07959.9450,W,1,11,1.6,16,M,,M,,*69
06/26/2015	17:08:54.604	$GPGGA,170855,2558.2422,N,07959.9441,W,1,11,1.6,16,M,,M,,*68
06/26/2015	17:08:55.634	$GPGGA,170856,2558.2444,N,07959.9430,W,1,11,1.6,16,M,,M,,*6D
06/26/2015	17:08:56.505	$GPGGA,170857,2558.2465,N,07959.9419,W,1,11,1.6,16,M,,M,,*64
06/26/2015	17:08:57.625	$GPGGA,170858,2558.2486,N,07959.9409,W,1,11,1.6,16,M,,M,,*67
06/26/2015	17:08:58.604	$GPGGA,170859,2558.2508,N,07959.9399,W,1,11,1.6,16,M,,M,,*6F
06/26/2015	17:08:59.674	$GPGGA,170900,2558.2529,N,07959.9388,W,1,11,1.6,16,M,,M,,*61
06/26/2015	17:09:00.584	$GPGGA,170901,2558.2549,N,07959.9377,W,1,11,1.6,16,M,,M,,*66
06/26/2015	17:09:01.595	$GPGGA,170902,2558.2571,N,07959.9366,W,1,11,1.6,16,M,,M,,*6E
06/26/2015	17:09:02.584	$GPGGA,170903,2558.2592,N,07959.9356,W,1,11,1.6,16,M,,M,,*61
06/26/2015	17:09:03.604	$GPGGA,170904,2558.2614,N,07959.9345,W,1,11,1.6,16,M,,M,,*69
06/26/2015	17:09:04.584	$GPGGA,170905,2558.2635,N,07959.9334,W,1,11,1.6,16,M,,M,,*6D
06/26/2015	17:09:05.604	$GPGGA,170906,2558.2657,N,07959.9324,W,1,11,1.6,16,M,,M,,*6B
06/26/2015	17:09:06.574	$GPGGA,170907,2558.2678,N,07959.9313,W,1,11,1.6,16,M,,M,,*63
06/26/2015	17:09:07.594	$GPGGA,170908,2558.2699,N,07959.9303,W,1,11,1.6,16,M,,M,,*62
06/26/2015	17:09:08.584	$GPGGA,170909,2558.2721,N,07959.9293,W,1,11,1.6,16,M,,M,,*69
06/26/2015	17:09:09.594	$GPGGA,170910,2558.2742,N,07959.9282,W,1,11,1.6,16,M,,M,,*64
06/26/2015	17:09:10.564	$GPGGA,170911,2558.2762,N,07959.9271,W,1,11,1.6,16,M,,M,,*6B
06/26/2015	17:09:11.594	$GPGGA,170912,2558.2784,N,07959.9261,W,1,11,1.6,15,M,,M,,*62
06/26/2015	17:09:12.564	$GPGGA,170913,2558.2805,N,07959.9250,W,1,11,1.6,15,M,,M,,*67
06/26/2015	17:09:13.594	$GPGGA,170914,2558.2827,N,07959.9240,W,1,11,1.6,15,M,,M,,*61
06/26/2015	17:09:14.554	$GPGGA,170915,2558.2848,N,07959.9229,W,1,11,1.6,15,M,,M,,*66
06/26/2015	17:09:15.594	$GPGGA,170916,2558.2870,N,07959.9218,W,1,11,1.6,15,M,,M,,*6C
06/26/2015	17:09:16.564	$GPGGA,170917,2558.2892,N,07959.9208,W,1,11,1.6,15,M,,M,,*60
06/26/2015	17:09:17.554	$GPGGA,170918,2558.2913,N,07959.9197,W,1,11,1.6,15,M,,M,,*62
06/26/2015	17:09:18.564	$GPGGA,170919,2558.2934,N,07959.9187,W,1,11,1.6,15,M,,M,,*67
06/26/2015	17:09:19.564	$GPGGA,170920,2558.2956,N,07959.9177,W,1,11,1.6,15,M,,M,,*66
06/26/2015	17:09:20.544	$GPGGA,170921,2558.2978,N,07959.9166,W,1,11,1.6,15,M,,M,,*6B
06/26/2015	17:09:21.541	$GPGGA,170922,2558.2997,N,07959.9155,W,1,11,1.6,15,M,,M,,*69
06/26/2015	17:09:22.544	$GPGGA,170923,2558.3019,N,07959.9145,W,1,11,1.6,15,M,,M,,*67
06/26/2015	17:09:23.564	$GPGGA,170924,2558.3042,N,07959.9136,W,1,11,1.6,15,M,,M,,*6A
06/26/2015	17:09:24.544	$GPGGA,170925,2558.3062,N,07959.9125,W,1,11,1.6,15,M,,M,,*6B
06/26/2015	17:09:25.538	$GPGGA,170926,2558.3083,N,07959.9114,W,1,11,1.6,15,M,,M,,*65
06/26/2015	17:09:26.524	$GPGGA,170927,2558.3105,N,07959.9105,W,1,11,1.6,15,M,,M,,*6B
06/26/2015	17:09:27.564	$GPGGA,170928,2558.3127,N,07959.9095,W,1,11,1.6,15,M,,M,,*6C
06/26/2015	17:09:28.514	$GPGGA,170929,2558.3148,N,07959.9084,W,1,11,1.6,15,M,,M,,*64
06/26/2015	17:09:29.544	$GPGGA,170930,2558.3170,N,07959.9074,W,1,11,1.6,15,M,,M,,*68
06/26/2015	17:09:30.536	$GPGGA,170931,2558.3191,N,07959.9063,W,1,11,1.6,14,M,,M,,*61
06/26/2015	17:09:31.554	$GPGGA,170932,2558.3213,N,07959.9053,W,1,11,1.6,14,M,,M,,*68
06/26/2015	17:09:32.514	$GPGGA,170933,2558.3235,N,07959.9043,W,1,11,1.6,14,M,,M,,*6C
06/26/2015	17:09:33.514	$GPGGA,170934,2558.3257,N,07959.9032,W,1,10,1.9,14,M,,M,,*67
06/26/2015	17:09:34.614	$GPGGA,170935,2558.3278,N,07959.9022,W,1,10,1.9,14,M,,M,,*6A
06/26/2015	17:09:35.554	$GPGGA,170936,2558.3300,N,07959.9012,W,1,11,1.6,14,M,,M,,*6A
06/26/2015	17:09:36.514	$GPGGA,170937,2558.3321,N,07959.9003,W,1,11,1.9,14,M,,M,,*67
06/26/2015	17:09:37.637	$GPGGA,170938,2558.3342,N,07959.8995,W,1,11,1.6,14,M,,M,,*65
06/26/2015	17:09:38.636	$GPGGA,170939,2558.3364,N,07959.8986,W,1,11,1.6,14,M,,M,,*62
06/26/2015	17:09:39.636	$GPGGA,170940,2558.3385,N,07959.8976,W,1,11,1.6,14,M,,M,,*6C
06/26/2015	17:09:40.614	$GPGGA,170941,2558.3408,N,07959.8965,W,1,11,1.6,14,M,,M,,*6D
06/26/2015	17:09:41.594	$GPGGA,170942,2558.3430,N,07959.8955,W,1,10,1.9,14,M,,M,,*68
06/26/2015	17:09:42.504	$GPGGA,170943,2558.3452,N,07959.8945,W,1,10,1.6,14,M,,M,,*63
06/26/2015	17:09:43.624	$GPGGA,170944,2558.3474,N,07959.8934,W,1,11,1.6,14,M,,M,,*67
06/26/2015	17:09:44.594	$GPGGA,170945,2558.3495,N,07959.8923,W,1,11,1.6,14,M,,M,,*6F
06/26/2015	17:09:45.604	$GPGGA,170946,2558.3517,N,07959.8914,W,1,11,1.6,14,M,,M,,*63
06/26/2015	17:09:46.595	$GPGGA,170947,2558.3539,N,07959.8904,W,1,11,1.6,14,M,,M,,*6F
06/26/2015	17:09:47.595	$GPGGA,170948,2558.3560,N,07959.8893,W,1,11,1.6,14,M,,M,,*63
06/26/2015	17:09:48.584	$GPGGA,170949,2558.3582,N,07959.8883,W,1,11,1.6,14,M,,M,,*6F
06/26/2015	17:09:49.594	$GPGGA,170950,2558.3604,N,07959.8874,W,1,10,1.7,14,M,,M,,*62
06/26/2015	17:09:50.584	$GPGGA,170951,2558.3625,N,07959.8863,W,1,10,1.6,14,M,,M,,*67
06/26/2015	17:09:52.605	$GPGGA,170953,2558.3668,N,07959.8843,W,1,11,1.6,14,M,,M,,*6F
06/26/2015	17:09:53.628	$GPGGA,170954,2558.3690,N,07959.8833,W,1,11,1.6,13,M,,M,,*6F
06/26/2015	17:09:54.585	$GPGGA,170955,2558.3712,N,07959.8824,W,1,11,1.6,13,M,,M,,*63
06/26/2015	17:09:55.604	$GPGGA,170956,2558.3733,N,07959.8814,W,1,11,1.6,13,M,,M,,*60
06/26/2015	17:09:56.564	$GPGGA,170957,2558.3754,N,07959.8804,W,1,11,1.6,13,M,,M,,*61
06/26/2015	17:09:57.554	$GPGGA,170958,2558.3776,N,07959.8795,W,1,11,1.6,13,M,,M,,*69
06/26/2015	17:09:58.564	$GPGGA,170959,2558.3798,N,07959.8785,W,1,11,1.6,13,M,,M,,*69
06/26/2015	17:09:59.614	$GPGGA,171000,2558.3819,N,07959.8775,W,1,11,1.6,13,M,,M,,*64
06/26/2015	17:10:00.565	$GPGGA,171001,2558.3839,N,07959.8765,W,1,11,1.6,13,M,,M,,*66
06/26/2015	17:10:01.584	$GPGGA,171002,2558.3863,N,07959.8755,W,1,11,1.6,13,M,,M,,*69
06/26/2015	17:10:02.564	$GPGGA,171003,2558.3884,N,07959.8745,W,1,11,1.6,13,M,,M,,*60
06/26/2015	17:10:03.644	$GPGGA,171004,2558.3906,N,07959.8736,W,1,11,1.6,12,M,,M,,*69
06/26/2015	17:10:04.544	$GPGGA,171005,2558.3928,N,07959.8726,W,1,11,1.6,12,M,,M,,*65
06/26/2015	17:10:05.554	$GPGGA,171006,2558.3949,N,07959.8716,W,1,11,1.6,12,M,,M,,*62
06/26/2015	17:10:06.544	$GPGGA,171007,2558.3969,N,07959.8707,W,1,11,1.6,12,M,,M,,*61
06/26/2015	17:10:07.564	$GPGGA,171008,2558.3992,N,07959.8697,W,1,11,1.6,12,M,,M,,*62
06/26/2015	17:10:08.534	$GPGGA,171009,2558.4012,N,07959.8687,W,1,11,1.6,12,M,,M,,*64
06/26/2015	17:10:09.564	$GPGGA,171010,2558.4034,N,07959.8677,W,1,10,1.9,12,M,,M,,*69
06/26/2015	17:10:10.544	$GPGGA,171011,2558.4055,N,07959.8668,W,1,10,1.9,12,M,,M,,*61
06/26/2015	17:10:11.544	$GPGGA,171012,2558.4077,N,07959.8657,W,1,11,1.6,12,M,,M,,*60
06/26/2015	17:10:12.525	$GPGGA,171013,2558.4099,N,07959.8648,W,1,11,1.6,12,M,,M,,*6F
06/26/2015	17:10:13.535	$GPGGA,171014,2558.4122,N,07959.8639,W,1,11,1.6,12,M,,M,,*6F
06/26/2015	17:10:14.694	$GPGGA,171015,2558.4142,N,07959.8629,W,1,11,1.7,12,M,,M,,*68
06/26/2015	17:10:15.544	$GPGGA,171016,2558.4163,N,07959.8618,W,1,11,1.6,12,M,,M,,*6B
06/26/2015	17:10:16.514	$GPGGA,171017,2558.4184,N,07959.8608,W,1,11,1.6,12,M,,M,,*62
06/26/2015	17:10:17.535	$GPGGA,171018,2558.4207,N,07959.8599,W,1,11,1.6,12,M,,M,,*6E
06/26/2015	17:10:18.531	$GPGGA,171019,2558.4228,N,07959.8588,W,1,11,1.7,12,M,,M,,*63
06/26/2015	17:10:19.614	$GPGGA,171020,2558.4249,N,07959.8577,W,1,11,1.6,12,M,,M,,*6F
06/26/2015	17:10:20.524	$GPGGA,171021,2558.4271,N,07959.8567,W,1,11,1.6,12,M,,M,,*64
06/26/2015	17:10:21.614	$GPGGA,171022,2558.4290,N,07959.8556,W,1,11,1.6,12,M,,M,,*6A
06/26/2015	17:10:22.605	$GPGGA,171023,2558.4312,N,07959.8545,W,1,11,1.6,12,M,,M,,*62
06/26/2015	17:10:23.514	$GPGGA,171024,2558.4333,N,07959.8535,W,1,11,1.6,12,M,,M,,*61
06/26/2015	17:10:24.504	$GPGGA,171025,2558.4354,N,07959.8524,W,1,11,1.6,12,M,,M,,*61
06/26/2015	17:10:25.614	$GPGGA,171026,2558.4376,N,07959.8514,W,1,11,1.6,12,M,,M,,*61
06/26/2015	17:10:26.614	$GPGGA,171027,2558.4397,N,07959.8504,W,1,11,1.6,12,M,,M,,*6E
06/26/2015	17:10:27.614	$GPGGA,171028,2558.4417,N,07959.8493,W,1,11,1.6,12,M,,M,,*61
06/26/2015	17:10:28.604	$GPGGA,171029,2558.4438,N,07959.8482,W,1,11,1.6,12,M,,M,,*6D
06/26/2015	17:10:29.584	$GPGGA,171030,2558.4460,N,07959.8471,W,1,11,1.6,12,M,,M,,*64
06/26/2015	17:10:30.614	$GPGGA,171031,2558.4481,N,07959.8460,W,1,11,1.6,12,M,,M,,*6A
06/26/2015	17:10:31.614	$GPGGA,171032,2558.4502,N,07959.8450,W,1,11,1.6,12,M,,M,,*60
06/26/2015	17:10:32.584	$GPGGA,171033,2558.4524,N,07959.8439,W,1,11,1.6,12,M,,M,,*6A
06/26/2015	17:10:33.604	$GPGGA,171034,2558.4545,N,07959.8429,W,1,11,1.6,12,M,,M,,*6B
06/26/2015	17:10:34.574	$GPGGA,171035,2558.4565,N,07959.8418,W,1,11,1.6,12,M,,M,,*6A
06/26/2015	17:10:35.635	$GPGGA,171036,2558.4586,N,07959.8407,W,1,11,1.6,12,M,,M,,*6A
06/26/2015	17:10:36.584	$GPGGA,171037,2558.4608,N,07959.8397,W,1,11,1.6,12,M,,M,,*60
06/26/2015	17:10:37.594	$GPGGA,171038,2558.4630,N,07959.8387,W,1,11,1.6,12,M,,M,,*65
06/26/2015	17:10:38.574	$GPGGA,171039,2558.4651,N,07959.8376,W,1,11,1.7,12,M,,M,,*6C
06/26/2015	17:10:39.604	$GPGGA,171040,2558.4673,N,07959.8365,W,1,11,1.6,12,M,,M,,*61
06/26/2015	17:10:40.574	$GPGGA,171041,2558.4694,N,07959.8355,W,1,11,1.6,12,M,,M,,*6A
06/26/2015	17:10:41.584	$GPGGA,171042,2558.4716,N,07959.8344,W,1,11,1.6,12,M,,M,,*62
06/26/2015	17:10:42.554	$GPGGA,171043,2558.4737,N,07959.8333,W,1,11,1.6,12,M,,M,,*60
06/26/2015	17:10:43.594	$GPGGA,171044,2558.4758,N,07959.8322,W,1,11,1.6,12,M,,M,,*6E
06/26/2015	17:10:44.554	$GPGGA,171045,2558.4778,N,07959.8311,W,1,11,1.6,12,M,,M,,*6D
06/26/2015	17:10:45.554	$GPGGA,171046,2558.4799,N,07959.8301,W,1,11,1.6,12,M,,M,,*60
06/26/2015	17:10:46.564	$GPGGA,171047,2558.4823,N,07959.8291,W,1,11,1.6,12,M,,M,,*67
06/26/2015	17:10:47.564	$GPGGA,171048,2558.4843,N,07959.8279,W,1,10,1.7,12,M,,M,,*68
06/26/2015	17:10:48.554	$GPGGA,171049,2558.4864,N,07959.8268,W,1,10,1.6,12,M,,M,,*6D
06/26/2015	17:10:49.584	$GPGGA,171050,2558.4886,N,07959.8258,W,1,11,1.6,12,M,,M,,*6B
06/26/2015	17:10:50.544	$GPGGA,171051,2558.4907,N,07959.8248,W,1,11,1.6,12,M,,M,,*63
06/26/2015	17:10:51.584	$GPGGA,171052,2558.4928,N,07959.8237,W,1,11,1.6,12,M,,M,,*65
06/26/2015	17:10:52.535	$GPGGA,171053,2558.4950,N,07959.8227,W,1,11,1.9,12,M,,M,,*65
06/26/2015	17:10:53.564	$GPGGA,171054,2558.4971,N,07959.8218,W,1,11,1.6,12,M,,M,,*62
06/26/2015	17:10:54.538	$GPGGA,171055,2558.4991,N,07959.8208,W,1,11,1.6,12,M,,M,,*6C
06/26/2015	17:10:55.541	$GPGGA,171056,2558.5013,N,07959.8198,W,1,11,1.6,12,M,,M,,*67
06/26/2015	17:10:56.525	$GPGGA,171057,2558.5034,N,07959.8188,W,1,11,1.6,12,M,,M,,*62
06/26/2015	17:10:57.564	$GPGGA,171058,2558.5056,N,07959.8178,W,1,11,1.6,12,M,,M,,*66
06/26/2015	17:10:58.527	$GPGGA,171059,2558.5078,N,07959.8168,W,1,11,1.6,12,M,,M,,*6A
06/26/2015	17:10:59.564	$GPGGA,171100,2558.5099,N,07959.8157,W,1,9,1.8,12,M,,M,,*53
06/26/2015	17:11:00.639	$GPGGA,171101,2558.5121,N,07959.8148,W,1,9,1.9,12,M,,M,,*5F
06/26/2015	17:11:01.537	$GPGGA,171102,2558.5143,N,07959.8138,W,1,11,1.6,12,M,,M,,*69
06/26/2015	17:11:02.646	$GPGGA,171103,2558.5163,N,07959.8128,W,1,11,1.6,12,M,,M,,*6B
06/26/2015	17:11:03.554	$GPGGA,171104,2558.5185,N,07959.8117,W,1,11,1.6,12,M,,M,,*68
06/26/2015	17:11:04.529	$GPGGA,171105,2558.5206,N,07959.8107,W,1,11,1.9,12,M,,M,,*6F
06/26/2015	17:11:05.614	$GPGGA,171106,2558.5228,N,07959.8095,W,1,11,1.6,12,M,,M,,*65
06/26/2015	17:11:06.514	$GPGGA,171107,2558.5248,N,07959.8084,W,1,11,1.6,13,M,,M,,*63
06/26/2015	17:11:07.536	$GPGGA,171108,2558.5269,N,07959.8073,W,1,11,1.6,13,M,,M,,*67
06/26/2015	17:11:08.504	$GPGGA,171109,2558.5291,N,07959.8064,W,1,11,1.6,13,M,,M,,*67
06/26/2015	17:11:09.604	$GPGGA,171110,2558.5313,N,07959.8054,W,1,11,1.6,13,M,,M,,*67
06/26/2015	17:11:10.605	$GPGGA,171111,2558.5334,N,07959.8043,W,1,11,1.6,13,M,,M,,*65
06/26/2015	17:11:11.602	$GPGGA,171112,2558.5356,N,07959.8034,W,1,11,1.6,13,M,,M,,*62
06/26/2015	17:11:12.582	$GPGGA,171113,2558.5378,N,07959.8025,W,1,11,1.6,13,M,,M,,*6F
06/26/2015	17:11:13.492	$GPGGA,171114,2558.5399,N,07959.8014,W,1,11,1.6,13,M,,M,,*65
06/26/2015	17:11:14.492	$GPGGA,171115,2558.5421,N,07959.8005,W,1,11,1.6,13,M,,M,,*60
06/26/2015	17:11:15.583	$GPGGA,171116,2558.5442,N,07959.7995,W,1,11,1.6,13,M,,M,,*69
06/26/2015	17:11:16.582	$GPGGA,171117,2558.5464,N,07959.7986,W,1,11,1.6,13,M,,M,,*6E
06/26/2015	17:11:17.592	$GPGGA,171118,2558.5485,N,07959.7976,W,1,11,1.6,13,M,,M,,*61
06/26/2015	17:11:18.582	$GPGGA,171119,2558.5507,N,07959.7967,W,1,11,1.6,13,M,,M,,*6B
06/26/2015	17:11:19.582	$GPGGA,171120,2558.5529,N,07959.7957,W,1,11,1.6,13,M,,M,,*6E
06/26/2015	17:11:20.572	$GPGGA,171121,2558.5551,N,07959.7948,W,1,11,1.6,13,M,,M,,*6E
06/26/2015	17:11:21.562	$GPGGA,171122,2558.5573,N,07959.7939,W,1,11,1.6,14,M,,M,,*6C
06/26/2015	17:11:22.572	$GPGGA,171123,2558.5594,N,07959.7929,W,1,11,1.6,14,M,,M,,*65
06/26/2015	17:11:23.592	$GPGGA,171124,2558.5616,N,07959.7919,W,1,10,1.7,14,M,,M,,*68
06/26/2015	17:11:24.562	$GPGGA,171125,2558.5640,N,07959.7911,W,1,10,1.6,14,M,,M,,*63
06/26/2015	17:11:25.562	$GPGGA,171126,2558.5661,N,07959.7901,W,1,11,1.6,14,M,,M,,*63
06/26/2015	17:11:26.562	$GPGGA,171127,2558.5681,N,07959.7890,W,1,11,1.6,14,M,,M,,*65
06/26/2015	17:11:27.582	$GPGGA,171128,2558.5703,N,07959.7881,W,1,11,1.6,14,M,,M,,*61
06/26/2015	17:11:28.562	$GPGGA,171129,2558.5725,N,07959.7872,W,1,11,1.6,14,M,,M,,*68
06/26/2015	17:11:29.542	$GPGGA,171130,2558.5746,N,07959.7861,W,1,11,1.6,14,M,,M,,*67
06/26/2015	17:11:30.552	$GPGGA,171131,2558.5768,N,07959.7852,W,1,11,1.6,14,M,,M,,*6A
06/26/2015	17:11:31.582	$GPGGA,171132,2558.5789,N,07959.7842,W,1,11,1.6,14,M,,M,,*67
06/26/2015	17:11:32.552	$GPGGA,171133,2558.5811,N,07959.7833,W,1,11,1.6,14,M,,M,,*6E
06/26/2015	17:11:33.572	$GPGGA,171134,2558.5833,N,07959.7823,W,1,11,1.6,14,M,,M,,*68
06/26/2015	17:11:34.532	$GPGGA,171135,2558.5854,N,07959.7813,W,1,11,1.6,14,M,,M,,*6B
06/26/2015	17:11:35.582	$GPGGA,171136,2558.5876,N,07959.7803,W,1,10,1.9,14,M,,M,,*67
06/26/2015	17:11:36.542	$GPGGA,171137,2558.5897,N,07959.7794,W,1,10,1.6,14,M,,M,,*67
06/26/2015	17:11:37.530	$GPGGA,171138,2558.5918,N,07959.7784,W,1,11,1.6,14,M,,M,,*6E
06/26/2015	17:11:38.542	$GPGGA,171139,2558.5938,N,07959.7774,W,1,11,1.6,14,M,,M,,*62
06/26/2015	17:11:39.552	$GPGGA,171140,2558.5959,N,07959.7764,W,1,11,1.6,14,M,,M,,*6A
06/26/2015	17:11:40.532	$GPGGA,171141,2558.5981,N,07959.7755,W,1,11,1.6,14,M,,M,,*6C
06/26/2015	17:11:41.533	$GPGGA,171142,2558.6003,N,07959.7745,W,1,11,1.6,14,M,,M,,*6E
06/26/2015	17:11:42.532	$GPGGA,171143,2558.6024,N,07959.7734,W,1,11,1.7,14,M,,M,,*6D
