Software Version Number: 1	Data File Format Number: 1	Build Version Number: 1	Error Count Since VI Started: 2	Manufacturer: Raytheon	 Model Number: RayMarine 120	 S/N: 	 Cal Date: 	 Wind Direction Offset: 0.00	 Slope (M)1: 0.00	 Offset (B)1: 0.00	 Slope (M)2: 0.00	 Offset (B)2: 0.00	 Slope (M)3: 0.00	 Offset (B)3: 0.00	 Slope (M)4: 0.00	 Offset (B)4: 0.00	 Slope (M)5: 0.00	 Offset (B)5: 0.00	 Slope (M)6: 0.00	 Offset (B)6: 0.00
Computer Date	Computer Time	GGA String
06/20/2015	10:00:00.562	$GPGGA,100001,2448.5758,N,08030.4756,W,1,10,1.3,17,M,,M,,*6B
06/20/2015	10:00:01.558	$GPGGA,100002,2448.5755,N,08030.4763,W,1,10,1.3,17,M,,M,,*63
06/20/2015	10:00:02.567	$GPGGA,100003,2448.5753,N,08030.4770,W,1,10,1.3,17,M,,M,,*66
06/20/2015	10:00:03.587	$GPGGA,100004,2448.5750,N,08030.4779,W,1,10,1.3,17,M,,M,,*6B
06/20/2015	10:00:04.557	$GPGGA,100005,2448.5750,N,08030.4779,W,1,10,1.3,17,M,,M,,*6A
06/20/2015	10:00:05.567	$GPGGA,100006,2448.5746,N,08030.4792,W,1,10,1.3,17,M,,M,,*6B
06/20/2015	10:00:06.537	$GPGGA,100007,2448.5742,N,08030.4798,W,1,10,1.3,17,M,,M,,*64
06/20/2015	10:00:07.566	$GPGGA,100008,2448.5740,N,08030.4805,W,1,10,1.3,17,M,,M,,*62
06/20/2015	10:00:08.516	$GPGGA,100009,2448.5740,N,08030.4805,W,1,10,1.3,17,M,,M,,*63
06/20/2015	10:00:09.526	$GPGGA,100010,2448.5736,N,08030.4819,W,1,10,1.3,17,M,,M,,*67
06/20/2015	10:00:10.537	$GPGGA,100011,2448.5736,N,08030.4819,W,1,10,1.3,17,M,,M,,*66
06/20/2015	10:00:11.566	$GPGGA,100012,2448.5730,N,08030.4834,W,1,10,1.3,17,M,,M,,*6C
06/20/2015	10:00:12.576	$GPGGA,100013,2448.5728,N,08030.4841,W,1,10,1.3,17,M,,M,,*66
06/20/2015	10:00:13.526	$GPGGA,100014,2448.5726,N,08030.4848,W,1,10,1.3,17,M,,M,,*66
06/20/2015	10:00:14.526	$GPGGA,100015,2448.5726,N,08030.4848,W,1,10,1.5,17,M,,M,,*61
06/20/2015	10:00:15.636	$GPGGA,100016,2448.5718,N,08030.4863,W,1,10,1.3,17,M,,M,,*60
06/20/2015	10:00:16.536	$GPGGA,100017,2448.5718,N,08030.4863,W,1,10,1.3,17,M,,M,,*61
06/20/2015	10:00:17.596	$GPGGA,100018,2448.5714,N,08030.4877,W,1,10,1.3,17,M,,M,,*67
06/20/2015	10:00:18.516	$GPGGA,100019,2448.5714,N,08030.4877,W,1,10,1.3,17,M,,M,,*66
06/20/2015	10:00:19.506	$GPGGA,100020,2448.5708,N,08030.4891,W,1,9,1.5,17,M,,M,,*57
06/20/2015	10:00:20.596	$GPGGA,100021,2448.5705,N,08030.4899,W,1,9,1.3,17,M,,M,,*55
06/20/2015	10:00:21.506	$GPGGA,100022,2448.5703,N,08030.4906,W,1,10,1.3,17,M,,M,,*6F
06/20/2015	10:00:22.506	$GPGGA,100023,2448.5703,N,08030.4906,W,1,10,1.3,17,M,,M,,*6E
06/20/2015	10:00:23.596	$GPGGA,100024,2448.5699,N,08030.4917,W,1,9,1.5,17,M,,M,,*55
06/20/2015	10:00:24.551	$GPGGA,100025,2448.5697,N,08030.4924,W,1,9,1.3,17,M,,M,,*5C
06/20/2015	10:00:25.586	$GPGGA,100026,2448.5695,N,08030.4929,W,1,10,1.3,17,M,,M,,*68
06/20/2015	10:00:26.586	$GPGGA,100027,2448.5693,N,08030.4935,W,1,10,1.3,17,M,,M,,*62
06/20/2015	10:00:27.616	$GPGGA,100028,2448.5690,N,08030.4942,W,1,10,1.3,17,M,,M,,*6E
06/20/2015	10:00:28.586	$GPGGA,100029,2448.5688,N,08030.4949,W,1,10,1.3,17,M,,M,,*6D
06/20/2015	10:00:29.596	$GPGGA,100030,2448.5686,N,08030.4956,W,1,10,1.3,17,M,,M,,*65
06/20/2015	10:00:30.566	$GPGGA,100031,2448.5683,N,08030.4962,W,1,10,1.3,17,M,,M,,*66
06/20/2015	10:00:31.606	$GPGGA,100032,2448.5679,N,08030.4969,W,1,9,1.9,17,M,,M,,*59
06/20/2015	10:00:32.576	$GPGGA,100033,2448.5677,N,08030.4976,W,1,9,1.9,17,M,,M,,*58
06/20/2015	10:00:33.576	$GPGGA,100034,2448.5674,N,08030.4983,W,1,9,1.9,17,M,,M,,*56
06/20/2015	10:00:35.016	$GPGGA,100035,2448.5670,N,08030.4990,W,1,9,1.9,16,M,,M,,*50
06/20/2015	10:00:35.596	$GPGGA,100036,2448.5667,N,08030.4997,W,1,9,1.9,16,M,,M,,*52
06/20/2015	10:00:36.552	$GPGGA,100037,2448.5665,N,08030.5004,W,1,9,1.9,16,M,,M,,*53
06/20/2015	10:00:38.578	$GPGGA,100039,2448.5658,N,08030.5018,W,1,9,1.9,16,M,,M,,*5E
06/20/2015	10:00:39.566	$GPGGA,100040,2448.5656,N,08030.5025,W,1,9,1.9,16,M,,M,,*50
06/20/2015	10:00:40.548	$GPGGA,100041,2448.5654,N,08030.5033,W,1,9,1.9,16,M,,M,,*54
06/20/2015	10:00:41.567	$GPGGA,100042,2448.5652,N,08030.5037,W,1,8,2.0,16,M,,M,,*5E
06/20/2015	10:00:42.559	$GPGGA,100043,2448.5647,N,08030.5044,W,1,8,1.9,16,M,,M,,*55
06/20/2015	10:00:43.586	$GPGGA,100044,2448.5645,N,08030.5051,W,1,10,1.3,16,M,,M,,*67
06/20/2015	10:00:44.559	$GPGGA,100045,2448.5642,N,08030.5058,W,1,10,1.5,16,M,,M,,*6E
06/20/2015	10:00:45.536	$GPGGA,100046,2448.5638,N,08030.5065,W,1,10,1.3,16,M,,M,,*68
06/20/2015	10:00:46.552	$GPGGA,100047,2448.5635,N,08030.5073,W,1,10,1.3,16,M,,M,,*63
06/20/2015	10:00:47.576	$GPGGA,100048,2448.5634,N,08030.5081,W,1,10,1.3,16,M,,M,,*60
06/20/2015	10:00:48.554	$GPGGA,100049,2448.5632,N,08030.5087,W,1,10,1.3,16,M,,M,,*61
06/20/2015	10:00:49.552	$GPGGA,100050,2448.5630,N,08030.5094,W,1,9,1.5,15,M,,M,,*54
06/20/2015	10:00:50.546	$GPGGA,100051,2448.5628,N,08030.5101,W,1,9,1.3,15,M,,M,,*57
06/20/2015	10:00:51.566	$GPGGA,100052,2448.5627,N,08030.5108,W,1,10,1.3,15,M,,M,,*6A
06/20/2015	10:00:52.526	$GPGGA,100053,2448.5627,N,08030.5115,W,1,10,1.3,15,M,,M,,*67
06/20/2015	10:00:53.526	$GPGGA,100054,2448.5625,N,08030.5120,W,1,9,1.5,15,M,,M,,*5A
06/20/2015	10:00:54.516	$GPGGA,100055,2448.5623,N,08030.5127,W,1,9,1.5,16,M,,M,,*59
06/20/2015	10:00:55.553	$GPGGA,100056,2448.5623,N,08030.5134,W,1,10,1.3,16,M,,M,,*66
06/20/2015	10:00:56.526	$GPGGA,100057,2448.5622,N,08030.5141,W,1,10,1.3,16,M,,M,,*64
06/20/2015	10:00:57.526	$GPGGA,100058,2448.5620,N,08030.5146,W,1,9,1.5,16,M,,M,,*50
06/20/2015	10:00:58.506	$GPGGA,100059,2448.5620,N,08030.5153,W,1,9,1.5,16,M,,M,,*55
06/20/2015	10:00:59.537	$GPGGA,100100,2448.5620,N,08030.5160,W,1,9,1.5,16,M,,M,,*58
06/20/2015	10:01:00.526	$GPGGA,100101,2448.5617,N,08030.5166,W,1,9,1.5,16,M,,M,,*5B
06/20/2015	10:01:01.516	$GPGGA,100102,2448.5616,N,08030.5173,W,1,9,1.5,16,M,,M,,*5D
06/20/2015	10:01:02.516	$GPGGA,100103,2448.5616,N,08030.5180,W,1,9,1.5,16,M,,M,,*50
06/20/2015	10:01:03.546	$GPGGA,100104,2448.5613,N,08030.5188,W,1,9,1.5,16,M,,M,,*5A
06/20/2015	10:01:04.596	$GPGGA,100105,2448.5610,N,08030.5196,W,1,9,1.3,16,M,,M,,*51
06/20/2015	10:01:05.506	$GPGGA,100106,2448.5609,N,08030.5202,W,1,10,1.3,16,M,,M,,*6C
06/20/2015	10:01:06.506	$GPGGA,100107,2448.5609,N,08030.5209,W,1,10,1.5,16,M,,M,,*60
06/20/2015	10:01:07.527	$GPGGA,100108,2448.5606,N,08030.5217,W,1,9,1.5,16,M,,M,,*57
06/20/2015	10:01:08.496	$GPGGA,100109,2448.5605,N,08030.5224,W,1,9,1.3,16,M,,M,,*53
06/20/2015	10:01:09.596	$GPGGA,100110,2448.5602,N,08030.5231,W,1,10,1.3,16,M,,M,,*60
06/20/2015	10:01:10.496	$GPGGA,100111,2448.5602,N,08030.5236,W,1,10,1.3,16,M,,M,,*66
06/20/2015	10:01:11.516	$GPGGA,100112,2448.5599,N,08030.5243,W,1,9,1.5,16,M,,M,,*58
06/20/2015	10:01:12.586	$GPGGA,100113,2448.5598,N,08030.5250,W,1,9,1.5,16,M,,M,,*5A
06/20/2015	10:01:13.596	$GPGGA,100114,2448.5595,N,08030.5258,W,1,10,1.3,16,M,,M,,*66
06/20/2015	10:01:14.586	$GPGGA,100115,2448.5593,N,08030.5264,W,1,10,1.3,16,M,,M,,*6E
06/20/2015	10:01:15.496	$GPGGA,100116,2448.5591,N,08030.5271,W,1,10,1.3,16,M,,M,,*6B
06/20/2015	10:01:16.487	$GPGGA,100117,2448.5589,N,08030.5278,W,1,10,1.3,16,M,,M,,*6A
06/20/2015	10:01:17.606	$GPGGA,100118,2448.5588,N,08030.5285,W,1,10,1.3,16,M,,M,,*66
06/20/2015	10:01:18.566	$GPGGA,100119,2448.5587,N,08030.5292,W,1,10,1.3,16,M,,M,,*6E
06/20/2015	10:01:19.616	$GPGGA,100120,2448.5584,N,08030.5297,W,1,10,1.3,17,M,,M,,*63
06/20/2015	10:01:20.566	$GPGGA,100121,2448.5580,N,08030.5307,W,1,10,1.5,17,M,,M,,*68
06/20/2015	10:01:21.596	$GPGGA,100122,2448.5578,N,08030.5314,W,1,10,1.3,17,M,,M,,*68
06/20/2015	10:01:22.566	$GPGGA,100123,2448.5576,N,08030.5322,W,1,10,1.3,17,M,,M,,*62
06/20/2015	10:01:23.606	$GPGGA,100124,2448.5574,N,08030.5327,W,1,10,1.3,17,M,,M,,*62
06/20/2015	10:01:24.568	$GPGGA,100125,2448.5573,N,08030.5334,W,1,10,1.5,17,M,,M,,*60
06/20/2015	10:01:25.586	$GPGGA,100126,2448.5573,N,08030.5340,W,1,10,1.3,17,M,,M,,*66
06/20/2015	10:01:26.558	$GPGGA,100127,2448.5570,N,08030.5345,W,1,10,1.3,17,M,,M,,*61
06/20/2015	10:01:27.616	$GPGGA,100128,2448.5569,N,08030.5351,W,1,10,1.3,17,M,,M,,*63
06/20/2015	10:01:28.560	$GPGGA,100129,2448.5569,N,08030.5358,W,1,10,1.5,17,M,,M,,*6D
06/20/2015	10:01:29.576	$GPGGA,100130,2448.5566,N,08030.5365,W,1,10,1.3,17,M,,M,,*62
06/20/2015	10:01:30.564	$GPGGA,100131,2448.5564,N,08030.5372,W,1,10,1.3,17,M,,M,,*67
06/20/2015	10:01:31.553	$GPGGA,100132,2448.5562,N,08030.5377,W,1,10,1.3,17,M,,M,,*67
06/20/2015	10:01:32.552	$GPGGA,100133,2448.5562,N,08030.5386,W,1,10,1.5,17,M,,M,,*6E
06/20/2015	10:01:33.576	$GPGGA,100134,2448.5559,N,08030.5391,W,1,10,1.3,17,M,,M,,*61
06/20/2015	10:01:34.557	$GPGGA,100135,2448.5556,N,08030.5398,W,1,10,1.3,17,M,,M,,*66
06/20/2015	10:01:35.549	$GPGGA,100136,2448.5553,N,08030.5405,W,1,10,1.3,17,M,,M,,*63
06/20/2015	10:01:36.551	$GPGGA,100137,2448.5551,N,08030.5412,W,1,10,1.3,17,M,,M,,*66
06/20/2015	10:01:37.526	$GPGGA,100138,2448.5549,N,08030.5420,W,1,10,1.3,17,M,,M,,*61
06/20/2015	10:01:38.536	$GPGGA,100139,2448.5546,N,08030.5427,W,1,10,1.3,17,M,,M,,*68
06/20/2015	10:01:39.550	$GPGGA,100140,2448.5544,N,08030.5434,W,1,10,1.3,17,M,,M,,*66
06/20/2015	10:01:40.536	$GPGGA,100141,2448.5542,N,08030.5441,W,1,10,1.3,17,M,,M,,*63
06/20/2015	10:01:41.526	$GPGGA,100142,2448.5540,N,08030.5446,W,1,10,1.3,17,M,,M,,*65
06/20/2015	10:01:42.536	$GPGGA,100143,2448.5537,N,08030.5453,W,1,10,1.3,17,M,,M,,*60
06/20/2015	10:01:43.536	$GPGGA,100144,2448.5536,N,08030.5460,W,1,10,1.3,17,M,,M,,*66
06/20/2015	10:01:44.616	$GPGGA,100145,2448.5533,N,08030.5466,W,1,10,1.3,17,M,,M,,*64
06/20/2015	10:01:45.548	$GPGGA,100146,2448.5530,N,08030.5473,W,1,10,1.3,17,M,,M,,*60
06/20/2015	10:01:46.516	$GPGGA,100147,2448.5529,N,08030.5480,W,1,10,1.3,17,M,,M,,*65
06/20/2015	10:01:47.536	$GPGGA,100148,2448.5526,N,08030.5485,W,1,10,1.3,17,M,,M,,*60
06/20/2015	10:01:48.506	$GPGGA,100149,2448.5523,N,08030.5492,W,1,10,1.3,17,M,,M,,*62
06/20/2015	10:01:49.536	$GPGGA,100150,2448.5522,N,08030.5499,W,1,9,1.9,17,M,,M,,*52
06/20/2015	10:01:50.506	$GPGGA,100151,2448.5518,N,08030.5506,W,1,9,1.9,17,M,,M,,*5D
06/20/2015	10:01:51.527	$GPGGA,100152,2448.5515,N,08030.5513,W,1,9,1.9,16,M,,M,,*56
06/20/2015	10:01:52.496	$GPGGA,100153,2448.5512,N,08030.5520,W,1,9,1.9,16,M,,M,,*50
06/20/2015	10:01:53.616	$GPGGA,100154,2448.5509,N,08030.5525,W,1,9,1.9,16,M,,M,,*58
06/20/2015	10:01:54.596	$GPGGA,100155,2448.5506,N,08030.5532,W,1,9,1.9,16,M,,M,,*50
06/20/2015	10:01:55.526	$GPGGA,100156,2448.5504,N,08030.5538,W,1,9,1.9,16,M,,M,,*5B
06/20/2015	10:01:56.506	$GPGGA,100157,2448.5501,N,08030.5546,W,1,9,1.9,16,M,,M,,*56
06/20/2015	10:01:57.606	$GPGGA,100158,2448.5498,N,08030.5553,W,1,9,1.9,16,M,,M,,*5C
06/20/2015	10:01:58.526	$GPGGA,100159,2448.5495,N,08030.5558,W,1,9,1.9,16,M,,M,,*5B
06/20/2015	10:01:59.666	$GPGGA,100200,2448.5493,N,08030.5565,W,1,10,1.3,16,M,,M,,*6E
06/20/2015	10:02:00.596	$GPGGA,100201,2448.5492,N,08030.5572,W,1,10,1.3,16,M,,M,,*68
06/20/2015	10:02:01.596	$GPGGA,100202,2448.5490,N,08030.5578,W,1,10,1.3,16,M,,M,,*63
06/20/2015	10:02:02.576	$GPGGA,100203,2448.5488,N,08030.5585,W,1,10,1.3,16,M,,M,,*69
06/20/2015	10:02:03.616	$GPGGA,100204,2448.5486,N,08030.5592,W,1,10,1.3,16,M,,M,,*66
06/20/2015	10:02:04.576	$GPGGA,100205,2448.5484,N,08030.5597,W,1,10,1.3,16,M,,M,,*60
06/20/2015	10:02:05.596	$GPGGA,100206,2448.5481,N,08030.5604,W,1,10,1.3,16,M,,M,,*6F
06/20/2015	10:02:06.566	$GPGGA,100207,2448.5479,N,08030.5611,W,1,10,1.3,16,M,,M,,*6D
06/20/2015	10:02:07.606	$GPGGA,100208,2448.5476,N,08030.5618,W,1,9,1.9,16,M,,M,,*56
06/20/2015	10:02:08.586	$GPGGA,100209,2448.5477,N,08030.5623,W,1,9,1.3,15,M,,M,,*57
06/20/2015	10:02:09.587	$GPGGA,100210,2448.5475,N,08030.5629,W,1,10,1.3,15,M,,M,,*6F
06/20/2015	10:02:10.566	$GPGGA,100211,2448.5475,N,08030.5636,W,1,10,1.3,15,M,,M,,*60
06/20/2015	10:02:11.616	$GPGGA,100212,2448.5471,N,08030.5643,W,1,10,1.3,16,M,,M,,*66
06/20/2015	10:02:12.557	$GPGGA,100213,2448.5472,N,08030.5648,W,1,10,1.9,16,M,,M,,*65
06/20/2015	10:02:13.576	$GPGGA,100214,2448.5468,N,08030.5655,W,1,10,1.3,16,M,,M,,*6F
06/20/2015	10:02:14.566	$GPGGA,100215,2448.5464,N,08030.5662,W,1,10,1.3,16,M,,M,,*66
06/20/2015	10:02:15.586	$GPGGA,100216,2448.5462,N,08030.5668,W,1,10,1.3,16,M,,M,,*69
06/20/2015	10:02:16.565	$GPGGA,100217,2448.5459,N,08030.5676,W,1,10,1.3,16,M,,M,,*6F
06/20/2015	10:02:17.553	$GPGGA,100218,2448.5457,N,08030.5683,W,1,10,1.3,16,M,,M,,*64
06/20/2015	10:02:18.567	$GPGGA,100219,2448.5452,N,08030.5688,W,1,10,1.3,16,M,,M,,*6B
06/20/2015	10:02:19.586	$GPGGA,100220,2448.5450,N,08030.5695,W,1,10,1.3,16,M,,M,,*6F
06/20/2015	10:02:20.550	$GPGGA,100221,2448.5447,N,08030.5702,W,1,10,1.3,16,M,,M,,*67
06/20/2015	10:02:21.576	$GPGGA,100222,2448.5443,N,08030.5709,W,1,10,1.3,16,M,,M,,*6B
06/20/2015	10:02:22.553	$GPGGA,100223,2448.5440,N,08030.5715,W,1,10,1.3,16,M,,M,,*64
06/20/2015	10:02:23.550	$GPGGA,100224,2448.5439,N,08030.5723,W,1,10,1.3,16,M,,M,,*68
06/20/2015	10:02:24.546	$GPGGA,100225,2448.5437,N,08030.5728,W,1,10,1.9,16,M,,M,,*66
06/20/2015	10:02:25.536	$GPGGA,100226,2448.5433,N,08030.5737,W,1,9,1.5,16,M,,M,,*5B
06/20/2015	10:02:26.527	$GPGGA,100227,2448.5428,N,08030.5745,W,1,9,1.3,16,M,,M,,*53
06/20/2015	10:02:27.536	$GPGGA,100228,2448.5425,N,08030.5753,W,1,9,1.9,16,M,,M,,*5C
06/20/2015	10:02:28.536	$GPGGA,100229,2448.5422,N,08030.5760,W,1,9,1.9,16,M,,M,,*5A
06/20/2015	10:02:29.526	$GPGGA,100230,2448.5421,N,08030.5767,W,1,9,1.9,16,M,,M,,*56
06/20/2015	10:02:30.536	$GPGGA,100231,2448.5417,N,08030.5773,W,1,9,1.3,16,M,,M,,*5D
06/20/2015	10:02:31.563	$GPGGA,100232,2448.5414,N,08030.5780,W,1,9,1.9,16,M,,M,,*5B
06/20/2015	10:02:32.516	$GPGGA,100233,2448.5412,N,08030.5787,W,1,9,1.9,16,M,,M,,*5B
06/20/2015	10:02:33.516	$GPGGA,100234,2448.5410,N,08030.5793,W,1,9,1.9,16,M,,M,,*5B
06/20/2015	10:02:34.516	$GPGGA,100235,2448.5406,N,08030.5799,W,1,9,2.1,16,M,,M,,*5C
06/20/2015	10:02:35.526	$GPGGA,100236,2448.5404,N,08030.5806,W,1,9,1.9,16,M,,M,,*5F
06/20/2015	10:02:36.526	$GPGGA,100237,2448.5403,N,08030.5811,W,1,9,1.9,16,M,,M,,*5F
06/20/2015	10:02:37.506	$GPGGA,100238,2448.5399,N,08030.5818,W,1,9,1.9,16,M,,M,,*5D
06/20/2015	10:02:38.516	$GPGGA,100239,2448.5396,N,08030.5825,W,1,9,1.9,16,M,,M,,*5D
06/20/2015	10:02:39.516	$GPGGA,100240,2448.5394,N,08030.5832,W,1,9,1.9,16,M,,M,,*57
06/20/2015	10:02:40.506	$GPGGA,100241,2448.5392,N,08030.5839,W,1,9,1.9,16,M,,M,,*5B
06/20/2015	10:02:41.596	$GPGGA,100242,2448.5395,N,08030.5845,W,1,9,1.9,15,M,,M,,*57
06/20/2015	10:02:42.496	$GPGGA,100243,2448.5392,N,08030.5853,W,1,9,1.3,15,M,,M,,*5C
06/20/2015	10:02:43.626	$GPGGA,100244,2448.5392,N,08030.5860,W,1,9,1.4,15,M,,M,,*5C
06/20/2015	10:02:44.507	$GPGGA,100245,2448.5392,N,08030.5867,W,1,9,1.4,15,M,,M,,*5A
06/20/2015	10:02:45.496	$GPGGA,100246,2448.5392,N,08030.5871,W,1,10,1.3,15,M,,M,,*61
06/20/2015	10:02:46.496	$GPGGA,100247,2448.5389,N,08030.5878,W,1,10,1.5,15,M,,M,,*65
06/20/2015	10:02:47.526	$GPGGA,100248,2448.5389,N,08030.5885,W,1,10,1.3,15,M,,M,,*6E
06/20/2015	10:02:48.506	$GPGGA,100249,2448.5386,N,08030.5892,W,1,10,1.7,15,M,,M,,*62
06/20/2015	10:02:49.596	$GPGGA,100250,2448.5383,N,08030.5897,W,1,9,1.5,15,M,,M,,*50
06/20/2015	10:02:50.496	$GPGGA,100251,2448.5381,N,08030.5903,W,1,9,1.3,16,M,,M,,*5A
06/20/2015	10:02:51.606	$GPGGA,100252,2448.5379,N,08030.5910,W,1,9,1.5,16,M,,M,,*5A
06/20/2015	10:02:52.586	$GPGGA,100253,2448.5378,N,08030.5918,W,1,9,1.3,16,M,,M,,*54
06/20/2015	10:02:53.586	$GPGGA,100254,2448.5374,N,08030.5925,W,1,9,1.5,16,M,,M,,*57
06/20/2015	10:02:54.576	$GPGGA,100255,2448.5372,N,08030.5930,W,1,9,1.3,16,M,,M,,*52
06/20/2015	10:02:55.616	$GPGGA,100256,2448.5370,N,08030.5936,W,1,10,1.3,16,M,,M,,*6D
06/20/2015	10:02:56.576	$GPGGA,100257,2448.5368,N,08030.5943,W,1,10,1.3,16,M,,M,,*67
06/20/2015	10:02:57.596	$GPGGA,100258,2448.5367,N,08030.5951,W,1,10,1.3,16,M,,M,,*64
06/20/2015	10:02:58.576	$GPGGA,100259,2448.5364,N,08030.5957,W,1,10,1.3,16,M,,M,,*60
06/20/2015	10:02:59.606	$GPGGA,100300,2448.5363,N,08030.5965,W,1,10,1.3,16,M,,M,,*6B
06/20/2015	10:03:00.566	$GPGGA,100301,2448.5360,N,08030.5972,W,1,10,1.3,16,M,,M,,*6F
06/20/2015	10:03:01.577	$GPGGA,100302,2448.5358,N,08030.5979,W,1,10,1.3,17,M,,M,,*6D
06/20/2015	10:03:02.566	$GPGGA,100303,2448.5356,N,08030.5987,W,1,10,1.3,17,M,,M,,*63
06/20/2015	10:03:03.606	$GPGGA,100304,2448.5354,N,08030.5993,W,1,10,1.3,17,M,,M,,*63
06/20/2015	10:03:04.560	$GPGGA,100305,2448.5352,N,08030.6001,W,1,10,1.5,17,M,,M,,*63
06/20/2015	10:03:05.576	$GPGGA,100306,2448.5349,N,08030.6009,W,1,10,1.3,17,M,,M,,*64
06/20/2015	10:03:06.556	$GPGGA,100307,2448.5346,N,08030.6019,W,1,10,1.3,17,M,,M,,*6B
06/20/2015	10:03:07.596	$GPGGA,100308,2448.5343,N,08030.6026,W,1,10,1.3,17,M,,M,,*6D
06/20/2015	10:03:08.556	$GPGGA,100309,2448.5342,N,08030.6033,W,1,10,1.3,17,M,,M,,*69
06/20/2015	10:03:09.566	$GPGGA,100310,2448.5338,N,08030.6040,W,1,9,1.5,17,M,,M,,*56
06/20/2015	10:03:10.536	$GPGGA,100311,2448.5336,N,08030.6046,W,1,9,1.9,17,M,,M,,*53
06/20/2015	10:03:11.566	$GPGGA,100312,2448.5334,N,08030.6055,W,1,10,1.3,17,M,,M,,*62
06/20/2015	10:03:12.547	$GPGGA,100313,2448.5332,N,08030.6062,W,1,10,1.3,17,M,,M,,*61
06/20/2015	10:03:13.526	$GPGGA,100314,2448.5334,N,08030.6069,W,1,9,1.4,17,M,,M,,*54
06/20/2015	10:03:14.536	$GPGGA,100315,2448.5332,N,08030.6074,W,1,9,1.5,18,M,,M,,*51
06/20/2015	10:03:15.566	$GPGGA,100316,2448.5331,N,08030.6081,W,1,9,1.5,18,M,,M,,*5B
06/20/2015	10:03:16.536	$GPGGA,100317,2448.5327,N,08030.6088,W,1,9,1.5,18,M,,M,,*54
06/20/2015	10:03:17.561	$GPGGA,100318,2448.5323,N,08030.6095,W,1,9,1.5,18,M,,M,,*53
06/20/2015	10:03:18.536	$GPGGA,100319,2448.5318,N,08030.6102,W,1,9,2.1,18,M,,M,,*52
06/20/2015	10:03:19.577	$GPGGA,100320,2448.5314,N,08030.6107,W,1,8,2.1,18,M,,M,,*50
06/20/2015	10:03:20.516	$GPGGA,100321,2448.5311,N,08030.6114,W,1,8,2.1,18,M,,M,,*56
06/20/2015	10:03:21.558	$GPGGA,100322,2448.5309,N,08030.6121,W,1,9,1.5,18,M,,M,,*5C
06/20/2015	10:03:22.516	$GPGGA,100323,2448.5303,N,08030.6127,W,1,9,1.5,18,M,,M,,*51
06/20/2015	10:03:23.566	$GPGGA,100324,2448.5298,N,08030.6134,W,1,9,1.5,18,M,,M,,*57
06/20/2015	10:03:24.516	$GPGGA,100325,2448.5292,N,08030.6142,W,1,9,1.3,18,M,,M,,*5B
06/20/2015	10:03:25.526	$GPGGA,100326,2448.5286,N,08030.6149,W,1,10,1.3,18,M,,M,,*6E
06/20/2015	10:03:26.506	$GPGGA,100327,2448.5280,N,08030.6156,W,1,10,1.3,18,M,,M,,*67
06/20/2015	10:03:27.666	$GPGGA,100328,2448.5274,N,08030.6163,W,1,10,1.3,18,M,,M,,*65
06/20/2015	10:03:28.506	$GPGGA,100329,2448.5268,N,08030.6170,W,1,10,1.3,18,M,,M,,*6B
06/20/2015	10:03:29.616	$GPGGA,100330,2448.5260,N,08030.6175,W,1,9,1.3,18,M,,M,,*56
06/20/2015	10:03:30.496	$GPGGA,100331,2448.5253,N,08030.6182,W,1,9,1.3,18,M,,M,,*5F
06/20/2015	10:03:31.616	$GPGGA,100332,2448.5247,N,08030.6189,W,1,10,1.5,18,M,,M,,*6C
06/20/2015	10:03:32.606	$GPGGA,100333,2448.5239,N,08030.6196,W,1,10,1.4,18,M,,M,,*6B
06/20/2015	10:03:33.647	$GPGGA,100334,2448.5230,N,08030.6203,W,1,9,1.3,18,M,,M,,*55
06/20/2015	10:03:34.596	$GPGGA,100335,2448.5221,N,08030.6210,W,1,9,1.3,18,M,,M,,*56
06/20/2015	10:03:35.506	$GPGGA,100336,2448.5213,N,08030.6217,W,1,10,1.3,18,M,,M,,*6B
06/20/2015	10:03:36.587	$GPGGA,100337,2448.5205,N,08030.6222,W,1,10,1.3,18,M,,M,,*6B
06/20/2015	10:03:37.596	$GPGGA,100338,2448.5197,N,08030.6228,W,1,10,1.9,18,M,,M,,*6C
06/20/2015	10:03:38.596	$GPGGA,100339,2448.5188,N,08030.6232,W,1,10,1.3,18,M,,M,,*62
06/20/2015	10:03:39.627	$GPGGA,100340,2448.5179,N,08030.6239,W,1,10,1.9,18,M,,M,,*63
06/20/2015	10:03:40.586	$GPGGA,100341,2448.5170,N,08030.6243,W,1,10,1.3,18,M,,M,,*6C
06/20/2015	10:03:41.596	$GPGGA,100342,2448.5161,N,08030.6247,W,1,10,1.3,18,M,,M,,*6B
06/20/2015	10:03:42.576	$GPGGA,100343,2448.5152,N,08030.6253,W,1,10,1.3,18,M,,M,,*6F
06/20/2015	10:03:43.606	$GPGGA,100344,2448.5141,N,08030.6257,W,1,10,1.3,18,M,,M,,*6E
06/20/2015	10:03:44.586	$GPGGA,100345,2448.5132,N,08030.6259,W,1,10,1.3,18,M,,M,,*65
06/20/2015	10:03:45.596	$GPGGA,100346,2448.5118,N,08030.6262,W,1,10,1.9,18,M,,M,,*6C
06/20/2015	10:03:46.576	$GPGGA,100347,2448.5110,N,08030.6265,W,1,10,1.5,19,M,,M,,*6F
06/20/2015	10:03:47.586	$GPGGA,100348,2448.5101,N,08030.6268,W,1,9,1.5,19,M,,M,,*55
06/20/2015	10:03:48.566	$GPGGA,100349,2448.5087,N,08030.6268,W,1,9,2.1,19,M,,M,,*5C
06/20/2015	10:03:49.586	$GPGGA,100350,2448.5074,N,08030.6269,W,1,8,1.9,19,M,,M,,*53
06/20/2015	10:03:50.566	$GPGGA,100351,2448.5060,N,08030.6270,W,1,8,1.9,19,M,,M,,*5F
06/20/2015	10:03:51.596	$GPGGA,100352,2448.5045,N,08030.6272,W,1,9,1.9,19,M,,M,,*58
06/20/2015	10:03:52.565	$GPGGA,100353,2448.5031,N,08030.6272,W,1,9,1.9,19,M,,M,,*5A
06/20/2015	10:03:53.586	$GPGGA,100354,2448.5017,N,08030.6271,W,1,9,1.9,19,M,,M,,*5A
06/20/2015	10:03:54.559	$GPGGA,100355,2448.5003,N,08030.6272,W,1,9,1.9,18,M,,M,,*5C
06/20/2015	10:03:55.576	$GPGGA,100356,2448.4993,N,08030.6270,W,1,9,1.3,18,M,,M,,*56
06/20/2015	10:03:56.560	$GPGGA,100357,2448.4980,N,08030.6268,W,1,9,1.3,18,M,,M,,*5C
06/20/2015	10:03:57.561	$GPGGA,100358,2448.4964,N,08030.6267,W,1,10,2.1,18,M,,M,,*6F
06/20/2015	10:03:58.561	$GPGGA,100359,2448.4955,N,08030.6264,W,1,10,1.5,18,M,,M,,*68
06/20/2015	10:03:59.586	$GPGGA,100400,2448.4942,N,08030.6261,W,1,9,1.5,18,M,,M,,*58
06/20/2015	10:04:00.536	$GPGGA,100401,2448.4930,N,08030.6257,W,1,9,1.5,18,M,,M,,*59
06/20/2015	10:04:01.564	$GPGGA,100402,2448.4915,N,08030.6254,W,1,9,1.5,18,M,,M,,*5E
06/20/2015	10:04:02.536	$GPGGA,100403,2448.4899,N,08030.6250,W,1,9,2.1,18,M,,M,,*59
06/20/2015	10:04:03.576	$GPGGA,100404,2448.4884,N,08030.6245,W,1,8,1.5,18,M,,M,,*50
06/20/2015	10:04:04.554	$GPGGA,100405,2448.4868,N,08030.6240,W,1,8,1.5,18,M,,M,,*56
06/20/2015	10:04:05.556	$GPGGA,100406,2448.4854,N,08030.6235,W,1,9,1.5,18,M,,M,,*59
06/20/2015	10:04:06.556	$GPGGA,100407,2448.4838,N,08030.6230,W,1,9,1.5,18,M,,M,,*57
06/20/2015	10:04:07.586	$GPGGA,100408,2448.4822,N,08030.6225,W,1,9,2.1,18,M,,M,,*50
06/20/2015	10:04:08.526	$GPGGA,100409,2448.4807,N,08030.6219,W,1,9,2.1,18,M,,M,,*59
06/20/2015	10:04:09.570	$GPGGA,100410,2448.4790,N,08030.6214,W,1,8,2.1,18,M,,M,,*5C
06/20/2015	10:04:10.516	$GPGGA,100411,2448.4774,N,08030.6209,W,1,8,1.5,18,M,,M,,*5C
06/20/2015	10:04:11.555	$GPGGA,100412,2448.4761,N,08030.6203,W,1,9,1.5,18,M,,M,,*50
06/20/2015	10:04:12.536	$GPGGA,100413,2448.4747,N,08030.6197,W,1,9,1.5,17,M,,M,,*54
06/20/2015	10:04:13.554	$GPGGA,100414,2448.4733,N,08030.6191,W,1,9,1.5,17,M,,M,,*56
06/20/2015	10:04:14.796	$GPGGA,100415,2448.4717,N,08030.6185,W,1,9,1.5,17,M,,M,,*54
06/20/2015	10:04:15.516	$GPGGA,100416,2448.4700,N,08030.6180,W,1,9,2.1,17,M,,M,,*53
06/20/2015	10:04:16.626	$GPGGA,100417,2448.4684,N,08030.6173,W,1,9,2.1,17,M,,M,,*53
06/20/2015	10:04:17.506	$GPGGA,100418,2448.4666,N,08030.6166,W,1,9,2.1,17,M,,M,,*54
06/20/2015	10:04:18.496	$GPGGA,100419,2448.4649,N,08030.6160,W,1,9,2.1,17,M,,M,,*5E
06/20/2015	10:04:19.562	$GPGGA,100420,2448.4633,N,08030.6153,W,1,8,2.1,17,M,,M,,*58
06/20/2015	10:04:20.596	$GPGGA,100421,2448.4615,N,08030.6146,W,1,8,2.1,17,M,,M,,*59
06/20/2015	10:04:21.526	$GPGGA,100422,2448.4598,N,08030.6139,W,1,8,2.1,17,M,,M,,*54
06/20/2015	10:04:22.586	$GPGGA,100423,2448.4583,N,08030.6133,W,1,8,2.2,16,M,,M,,*57
06/20/2015	10:04:23.596	$GPGGA,100424,2448.4566,N,08030.6127,W,1,7,2.1,16,M,,M,,*52
06/20/2015	10:04:24.506	$GPGGA,100425,2448.4551,N,08030.6122,W,1,7,2.1,16,M,,M,,*52
06/20/2015	10:04:25.506	$GPGGA,100426,2448.4536,N,08030.6117,W,1,8,2.1,16,M,,M,,*59
06/20/2015	10:04:26.606	$GPGGA,100427,2448.4520,N,08030.6110,W,1,8,2.1,16,M,,M,,*58
06/20/2015	10:04:27.516	$GPGGA,100428,2448.4504,N,08030.6103,W,1,8,2.2,16,M,,M,,*50
06/20/2015	10:04:28.586	$GPGGA,100429,2448.4489,N,08030.6096,W,1,8,2.2,16,M,,M,,*58
06/20/2015	10:04:29.586	$GPGGA,100430,2448.4472,N,08030.6090,W,1,8,2.1,16,M,,M,,*51
06/20/2015	10:04:30.496	$GPGGA,100431,2448.4456,N,08030.6081,W,1,8,2.2,16,M,,M,,*55
06/20/2015	10:04:31.616	$GPGGA,100432,2448.4439,N,08030.6073,W,1,7,2.2,16,M,,M,,*5D
06/20/2015	10:04:32.576	$GPGGA,100433,2448.4424,N,08030.6064,W,1,7,2.2,16,M,,M,,*56
06/20/2015	10:04:33.576	$GPGGA,100434,2448.4410,N,08030.6057,W,1,7,1.5,16,M,,M,,*52
06/20/2015	10:04:34.560	$GPGGA,100435,2448.4397,N,08030.6049,W,1,7,1.5,16,M,,M,,*54
06/20/2015	10:04:35.596	$GPGGA,100436,2448.4381,N,08030.6040,W,1,8,1.5,16,M,,M,,*56
06/20/2015	10:04:36.559	$GPGGA,100437,2448.4366,N,08030.6030,W,1,8,1.5,16,M,,M,,*59
06/20/2015	10:04:37.576	$GPGGA,100438,2448.4350,N,08030.6021,W,1,9,1.5,16,M,,M,,*52
06/20/2015	10:04:38.566	$GPGGA,100439,2448.4334,N,08030.6013,W,1,9,1.5,16,M,,M,,*50
06/20/2015	10:04:39.576	$GPGGA,100440,2448.4319,N,08030.6003,W,1,9,1.5,16,M,,M,,*50
06/20/2015	10:04:40.559	$GPGGA,100441,2448.4303,N,08030.5993,W,1,9,1.5,16,M,,M,,*59
06/20/2015	10:04:41.566	$GPGGA,100442,2448.4287,N,08030.5984,W,1,9,1.5,16,M,,M,,*51
06/20/2015	10:04:42.996	$GPGGA,100443,2448.4276,N,08030.5973,W,1,9,2.1,16,M,,M,,*51
06/20/2015	10:04:43.586	$GPGGA,100444,2448.4262,N,08030.5961,W,1,9,1.5,16,M,,M,,*57
06/20/2015	10:04:44.559	$GPGGA,100445,2448.4248,N,08030.5951,W,1,9,1.5,16,M,,M,,*5D
06/20/2015	10:04:45.558	$GPGGA,100446,2448.4231,N,08030.5940,W,1,9,1.5,16,M,,M,,*50
06/20/2015	10:04:46.558	$GPGGA,100447,2448.4215,N,08030.5928,W,1,9,2.1,16,M,,M,,*5E
06/20/2015	10:04:47.576	$GPGGA,100448,2448.4200,N,08030.5915,W,1,8,2.1,16,M,,M,,*5A
06/20/2015	10:04:48.547	$GPGGA,100449,2448.4186,N,08030.5904,W,1,8,1.5,16,M,,M,,*51
06/20/2015	10:04:49.536	$GPGGA,100450,2448.4172,N,08030.5893,W,1,9,1.5,16,M,,M,,*5C
06/20/2015	10:04:50.536	$GPGGA,100451,2448.4156,N,08030.5879,W,1,9,1.5,16,M,,M,,*5F
06/20/2015	10:04:51.576	$GPGGA,100452,2448.4143,N,08030.5866,W,1,8,2.1,16,M,,M,,*50
06/20/2015	10:04:52.536	$GPGGA,100453,2448.4128,N,08030.5853,W,1,8,1.5,16,M,,M,,*5D
06/20/2015	10:04:53.546	$GPGGA,100454,2448.4114,N,08030.5840,W,1,8,2.1,16,M,,M,,*50
06/20/2015	10:04:54.526	$GPGGA,100455,2448.4101,N,08030.5826,W,1,8,1.5,16,M,,M,,*52
06/20/2015	10:04:55.558	$GPGGA,100456,2448.4088,N,08030.5812,W,1,9,1.5,16,M,,M,,*57
06/20/2015	10:04:56.526	$GPGGA,100457,2448.4073,N,08030.5799,W,1,9,1.5,16,M,,M,,*5E
06/20/2015	10:04:57.536	$GPGGA,100458,2448.4060,N,08030.5785,W,1,8,2.1,16,M,,M,,*58
06/20/2015	10:04:58.536	$GPGGA,100459,2448.4045,N,08030.5769,W,1,8,1.5,16,M,,M,,*5B
06/20/2015	10:04:59.586	$GPGGA,100500,2448.4032,N,08030.5755,W,1,8,2.1,16,M,,M,,*5E
06/20/2015	10:05:00.536	$GPGGA,100501,2448.4021,N,08030.5741,W,1,8,2.1,16,M,,M,,*58
06/20/2015	10:05:01.636	$GPGGA,100502,2448.4009,N,08030.5726,W,1,9,1.5,16,M,,M,,*56
06/20/2015	10:05:02.516	$GPGGA,100503,2448.3996,N,08030.5710,W,1,9,1.5,16,M,,M,,*5A
06/20/2015	10:05:03.557	$GPGGA,100504,2448.3984,N,08030.5694,W,1,9,1.5,16,M,,M,,*53
06/20/2015	10:05:04.517	$GPGGA,100505,2448.3971,N,08030.5679,W,1,9,1.5,16,M,,M,,*5B
06/20/2015	10:05:05.526	$GPGGA,100506,2448.3959,N,08030.5664,W,1,9,1.5,16,M,,M,,*5E
06/20/2015	10:05:06.506	$GPGGA,100507,2448.3947,N,08030.5647,W,1,9,1.8,16,M,,M,,*5C
06/20/2015	10:05:07.506	$GPGGA,100508,2448.3936,N,08030.5632,W,1,9,1.5,16,M,,M,,*5A
06/20/2015	10:05:08.596	$GPGGA,100509,2448.3924,N,08030.5616,W,1,9,1.5,16,M,,M,,*5E
06/20/2015	10:05:09.516	$GPGGA,100510,2448.3913,N,08030.5599,W,1,8,1.7,16,M,,M,,*55
06/20/2015	10:05:10.596	$GPGGA,100511,2448.3901,N,08030.5585,W,1,8,1.7,16,M,,M,,*5A
06/20/2015	10:05:11.496	$GPGGA,100512,2448.3889,N,08030.5569,W,1,8,1.7,16,M,,M,,*5A
06/20/2015	10:05:12.586	$GPGGA,100513,2448.3878,N,08030.5551,W,1,8,1.7,16,M,,M,,*5E
06/20/2015	10:05:13.496	$GPGGA,100514,2448.3867,N,08030.5534,W,1,8,1.7,16,M,,M,,*54
06/20/2015	10:05:14.586	$GPGGA,100515,2448.3854,N,08030.5517,W,1,8,1.7,16,M,,M,,*54
06/20/2015	10:05:15.596	$GPGGA,100516,2448.3844,N,08030.5498,W,1,9,1.5,16,M,,M,,*53
06/20/2015	10:05:16.497	$GPGGA,100517,2448.3835,N,08030.5480,W,1,9,1.5,16,M,,M,,*5D
06/20/2015	10:05:17.486	$GPGGA,100518,2448.3824,N,08030.5462,W,1,9,1.5,16,M,,M,,*5E
06/20/2015	10:05:18.586	$GPGGA,100519,2448.3812,N,08030.5443,W,1,9,2.1,17,M,,M,,*5F
06/20/2015	10:05:19.616	$GPGGA,100520,2448.3803,N,08030.5423,W,1,9,1.5,17,M,,M,,*54
06/20/2015	10:05:20.566	$GPGGA,100521,2448.3793,N,08030.5404,W,1,9,1.5,17,M,,M,,*56
06/20/2015	10:05:21.607	$GPGGA,100522,2448.3783,N,08030.5385,W,1,9,1.5,17,M,,M,,*5A
06/20/2015	10:05:22.566	$GPGGA,100523,2448.3777,N,08030.5365,W,1,9,1.5,17,M,,M,,*5E
06/20/2015	10:05:23.616	$GPGGA,100524,2448.3768,N,08030.5344,W,1,9,1.5,17,M,,M,,*54
06/20/2015	10:05:24.559	$GPGGA,100525,2448.3759,N,08030.5325,W,1,9,1.5,17,M,,M,,*50
06/20/2015	10:05:25.586	$GPGGA,100526,2448.3750,N,08030.5305,W,1,9,1.5,17,M,,M,,*58
06/20/2015	10:05:26.556	$GPGGA,100527,2448.3742,N,08030.5282,W,1,9,1.6,17,M,,M,,*57
06/20/2015	10:05:27.596	$GPGGA,100528,2448.3734,N,08030.5261,W,1,9,1.5,17,M,,M,,*57
06/20/2015	10:05:28.556	$GPGGA,100529,2448.3725,N,08030.5242,W,1,9,1.8,17,M,,M,,*5A
06/20/2015	10:05:29.576	$GPGGA,100530,2448.3716,N,08030.5221,W,1,7,2.1,17,M,,M,,*53
06/20/2015	10:05:30.556	$GPGGA,100531,2448.3707,N,08030.5198,W,1,7,1.6,18,M,,M,,*58
06/20/2015	10:05:31.576	$GPGGA,100532,2448.3698,N,08030.5176,W,1,8,1.6,18,M,,M,,*53
06/20/2015	10:05:32.556	$GPGGA,100533,2448.3688,N,08030.5151,W,1,8,1.7,18,M,,M,,*57
06/20/2015	10:05:33.566	$GPGGA,100534,2448.3682,N,08030.5131,W,1,9,1.5,18,M,,M,,*5F
06/20/2015	10:05:34.536	$GPGGA,100535,2448.3676,N,08030.5110,W,1,9,1.6,18,M,,M,,*55
06/20/2015	10:05:35.576	$GPGGA,100536,2448.3669,N,08030.5089,W,1,8,1.6,18,M,,M,,*58
06/20/2015	10:05:36.546	$GPGGA,100537,2448.3660,N,08030.5069,W,1,8,1.6,18,M,,M,,*5E
06/20/2015	10:05:37.576	$GPGGA,100538,2448.3653,N,08030.5048,W,1,9,1.5,18,M,,M,,*50
06/20/2015	10:05:38.526	$GPGGA,100539,2448.3647,N,08030.5029,W,1,9,1.6,18,M,,M,,*50
06/20/2015	10:05:39.566	$GPGGA,100540,2448.3637,N,08030.5008,W,1,9,1.5,18,M,,M,,*59
06/20/2015	10:05:40.548	$GPGGA,100541,2448.3629,N,08030.4986,W,1,9,1.5,18,M,,M,,*59
06/20/2015	10:05:41.556	$GPGGA,100542,2448.3620,N,08030.4964,W,1,8,1.6,18,M,,M,,*5D
06/20/2015	10:05:42.536	$GPGGA,100543,2448.3612,N,08030.4944,W,1,8,1.5,18,M,,M,,*5C
06/20/2015	10:05:43.549	$GPGGA,100544,2448.3604,N,08030.4923,W,1,9,1.5,18,M,,M,,*5C
06/20/2015	10:05:44.536	$GPGGA,100545,2448.3595,N,08030.4902,W,1,9,1.7,18,M,,M,,*57
06/20/2015	10:05:45.516	$GPGGA,100546,2448.3586,N,08030.4881,W,1,9,1.5,18,M,,M,,*5E
06/20/2015	10:05:46.636	$GPGGA,100547,2448.3577,N,08030.4860,W,1,9,1.5,18,M,,M,,*5E
06/20/2015	10:05:47.526	$GPGGA,100548,2448.3569,N,08030.4839,W,1,9,1.5,18,M,,M,,*52
06/20/2015	10:05:48.506	$GPGGA,100549,2448.3560,N,08030.4819,W,1,9,1.5,18,M,,M,,*58
06/20/2015	10:05:49.526	$GPGGA,100550,2448.3551,N,08030.4799,W,1,9,1.5,18,M,,M,,*55
06/20/2015	10:05:50.527	$GPGGA,100551,2448.3543,N,08030.4778,W,1,9,2.1,18,M,,M,,*5F
06/20/2015	10:05:51.536	$GPGGA,100552,2448.3535,N,08030.4758,W,1,9,1.5,18,M,,M,,*58
06/20/2015	10:05:52.526	$GPGGA,100553,2448.3526,N,08030.4738,W,1,9,1.5,19,M,,M,,*5C
06/20/2015	10:05:53.506	$GPGGA,100554,2448.3518,N,08030.4719,W,1,8,1.7,19,M,,M,,*56
06/20/2015	10:05:54.616	$GPGGA,100555,2448.3510,N,08030.4699,W,1,8,1.5,19,M,,M,,*54
06/20/2015	10:05:55.636	$GPGGA,100556,2448.3500,N,08030.4680,W,1,9,1.5,19,M,,M,,*5F
06/20/2015	10:05:56.497	$GPGGA,100557,2448.3492,N,08030.4660,W,1,9,1.5,19,M,,M,,*5A
06/20/2015	10:05:57.636	$GPGGA,100558,2448.3482,N,08030.4642,W,1,9,1.5,19,M,,M,,*54
06/20/2015	10:05:58.506	$GPGGA,100559,2448.3474,N,08030.4622,W,1,9,1.5,19,M,,M,,*5A
06/20/2015	10:05:59.556	$GPGGA,100600,2448.3463,N,08030.4602,W,1,9,1.5,19,M,,M,,*51
06/20/2015	10:06:00.586	$GPGGA,100601,2448.3453,N,08030.4583,W,1,9,1.5,19,M,,M,,*59
06/20/2015	10:06:01.606	$GPGGA,100602,2448.3443,N,08030.4565,W,1,9,1.5,19,M,,M,,*53
06/20/2015	10:06:02.586	$GPGGA,100603,2448.3434,N,08030.4546,W,1,9,1.5,19,M,,M,,*53
06/20/2015	10:06:03.626	$GPGGA,100604,2448.3425,N,08030.4527,W,1,9,1.5,19,M,,M,,*53
06/20/2015	10:06:04.579	$GPGGA,100605,2448.3416,N,08030.4508,W,1,9,1.5,19,M,,M,,*5F
06/20/2015	10:06:05.581	$GPGGA,100606,2448.3405,N,08030.4491,W,1,9,1.5,19,M,,M,,*5F
06/20/2015	10:06:06.586	$GPGGA,100607,2448.3394,N,08030.4472,W,1,9,1.5,19,M,,M,,*5C
06/20/2015	10:06:07.606	$GPGGA,100608,2448.3384,N,08030.4453,W,1,9,1.5,19,M,,M,,*51
06/20/2015	10:06:08.586	$GPGGA,100609,2448.3374,N,08030.4435,W,1,9,1.7,19,M,,M,,*5D
06/20/2015	10:06:09.586	$GPGGA,100610,2448.3363,N,08030.4416,W,1,8,1.7,19,M,,M,,*53
06/20/2015	10:06:10.562	$GPGGA,100611,2448.3352,N,08030.4398,W,1,8,1.8,19,M,,M,,*5E
06/20/2015	10:06:11.586	$GPGGA,100612,2448.3344,N,08030.4379,W,1,7,2.0,19,M,,M,,*51
06/20/2015	10:06:12.586	$GPGGA,100613,2448.3333,N,08030.4361,W,1,7,1.6,19,M,,M,,*5C
06/20/2015	10:06:13.587	$GPGGA,100614,2448.3322,N,08030.4340,W,1,7,2.0,19,M,,M,,*5D
06/20/2015	10:06:14.569	$GPGGA,100615,2448.3312,N,08030.4320,W,1,7,1.6,19,M,,M,,*5C
06/20/2015	10:06:15.567	$GPGGA,100616,2448.3302,N,08030.4300,W,1,9,1.5,19,M,,M,,*51
06/20/2015	10:06:16.566	$GPGGA,100617,2448.3290,N,08030.4282,W,1,9,1.5,19,M,,M,,*51
06/20/2015	10:06:17.550	$GPGGA,100618,2448.3280,N,08030.4264,W,1,8,2.1,19,M,,M,,*51
06/20/2015	10:06:18.567	$GPGGA,100619,2448.3271,N,08030.4245,W,1,8,1.6,19,M,,M,,*59
06/20/2015	10:06:19.576	$GPGGA,100620,2448.3260,N,08030.4226,W,1,9,1.5,19,M,,M,,*54
06/20/2015	10:06:20.546	$GPGGA,100621,2448.3250,N,08030.4208,W,1,9,1.5,19,M,,M,,*5A
06/20/2015	10:06:21.576	$GPGGA,100622,2448.3241,N,08030.4189,W,1,9,1.5,19,M,,M,,*53
06/20/2015	10:06:22.562	$GPGGA,100623,2448.3230,N,08030.4170,W,1,9,1.5,19,M,,M,,*52
06/20/2015	10:06:23.586	$GPGGA,100624,2448.3221,N,08030.4152,W,1,9,1.5,19,M,,M,,*55
06/20/2015	10:06:24.536	$GPGGA,100625,2448.3210,N,08030.4132,W,1,9,1.5,19,M,,M,,*50
06/20/2015	10:06:25.536	$GPGGA,100626,2448.3199,N,08030.4114,W,1,8,2.1,19,M,,M,,*53
06/20/2015	10:06:26.552	$GPGGA,100627,2448.3188,N,08030.4095,W,1,8,1.5,19,M,,M,,*5D
06/20/2015	10:06:27.576	$GPGGA,100628,2448.3177,N,08030.4075,W,1,9,1.5,19,M,,M,,*5D
06/20/2015	10:06:28.546	$GPGGA,100629,2448.3168,N,08030.4056,W,1,9,1.5,19,M,,M,,*53
06/20/2015	10:06:29.547	$GPGGA,100630,2448.3159,N,08030.4037,W,1,9,1.5,19,M,,M,,*5E
06/20/2015	10:06:30.547	$GPGGA,100631,2448.3149,N,08030.4019,W,1,9,1.5,19,M,,M,,*52
06/20/2015	10:06:31.537	$GPGGA,100632,2448.3139,N,08030.4000,W,1,9,1.5,19,M,,M,,*5E
06/20/2015	10:06:32.517	$GPGGA,100633,2448.3130,N,08030.3980,W,1,9,1.5,19,M,,M,,*50
06/20/2015	10:06:33.526	$GPGGA,100634,2448.3120,N,08030.3961,W,1,9,1.5,19,M,,M,,*59
06/20/2015	10:06:34.536	$GPGGA,100635,2448.3109,N,08030.3942,W,1,9,1.5,19,M,,M,,*52
06/20/2015	10:06:35.560	$GPGGA,100636,2448.3099,N,08030.3923,W,1,9,1.5,19,M,,M,,*5E
06/20/2015	10:06:36.516	$GPGGA,100637,2448.3089,N,08030.3903,W,1,9,1.5,19,M,,M,,*5C
06/20/2015	10:06:37.686	$GPGGA,100638,2448.3080,N,08030.3884,W,1,9,1.5,20,M,,M,,*5E
06/20/2015	10:06:38.657	$GPGGA,100639,2448.3069,N,08030.3865,W,1,9,1.5,20,M,,M,,*57
06/20/2015	10:06:40.093	$GPGGA,100640,2448.3058,N,08030.3845,W,1,9,1.5,20,M,,M,,*59
06/20/2015	10:06:40.606	$GPGGA,100641,2448.3048,N,08030.3826,W,1,9,1.5,20,M,,M,,*5C
06/20/2015	10:06:41.496	$GPGGA,100642,2448.3038,N,08030.3807,W,1,9,1.5,20,M,,M,,*5B
06/20/2015	10:06:42.516	$GPGGA,100643,2448.3026,N,08030.3787,W,1,9,1.5,20,M,,M,,*52
06/20/2015	10:06:43.706	$GPGGA,100644,2448.3015,N,08030.3768,W,1,8,1.6,20,M,,M,,*56
06/20/2015	10:06:44.596	$GPGGA,100645,2448.3006,N,08030.3750,W,1,8,1.6,20,M,,M,,*5E
06/20/2015	10:06:45.596	$GPGGA,100646,2448.2995,N,08030.3731,W,1,9,1.5,20,M,,M,,*5A
06/20/2015	10:06:46.636	$GPGGA,100647,2448.2983,N,08030.3712,W,1,9,1.5,20,M,,M,,*5D
06/20/2015	10:06:47.716	$GPGGA,100648,2448.2972,N,08030.3693,W,1,9,1.5,20,M,,M,,*54
06/20/2015	10:06:48.627	$GPGGA,100649,2448.2961,N,08030.3673,W,1,9,1.5,19,M,,M,,*53
06/20/2015	10:06:49.686	$GPGGA,100650,2448.2951,N,08030.3654,W,1,9,1.5,19,M,,M,,*5D
06/20/2015	10:06:50.886	$GPGGA,100651,2448.2940,N,08030.3635,W,1,9,1.6,19,M,,M,,*58
06/20/2015	10:06:51.496	$GPGGA,100652,2448.2930,N,08030.3616,W,1,8,1.6,19,M,,M,,*5C
06/20/2015	10:06:52.576	$GPGGA,100653,2448.2919,N,08030.3597,W,1,8,1.6,19,M,,M,,*5C
06/20/2015	10:06:53.686	$GPGGA,100654,2448.2907,N,08030.3577,W,1,9,1.5,19,M,,M,,*58
06/20/2015	10:06:54.616	$GPGGA,100655,2448.2894,N,08030.3558,W,1,9,2.1,19,M,,M,,*58
06/20/2015	10:06:55.586	$GPGGA,100656,2448.2883,N,08030.3539,W,1,8,2.1,19,M,,M,,*5B
06/20/2015	10:06:56.606	$GPGGA,100657,2448.2872,N,08030.3518,W,1,8,2.3,19,M,,M,,*55
06/20/2015	10:06:57.651	$GPGGA,100658,2448.2863,N,08030.3500,W,1,9,1.5,19,M,,M,,*57
06/20/2015	10:06:58.566	$GPGGA,100659,2448.2851,N,08030.3480,W,1,9,1.6,19,M,,M,,*5D
06/20/2015	10:06:59.696	$GPGGA,100700,2448.2840,N,08030.3460,W,1,8,2.1,19,M,,M,,*5B
06/20/2015	10:07:00.576	$GPGGA,100701,2448.2829,N,08030.3442,W,1,8,2.3,19,M,,M,,*57
06/20/2015	10:07:01.676	$GPGGA,100702,2448.2817,N,08030.3423,W,1,7,2.3,19,M,,M,,*51
06/20/2015	10:07:02.863	$GPGGA,100703,2448.2809,N,08030.3402,W,1,7,1.5,19,M,,M,,*59
06/20/2015	10:07:03.566	$GPGGA,100704,2448.2798,N,08030.3382,W,1,9,1.5,19,M,,M,,*58
06/20/2015	10:07:04.558	$GPGGA,100705,2448.2786,N,08030.3363,W,1,9,2.1,19,M,,M,,*5E
06/20/2015	10:07:05.906	$GPGGA,100706,2448.2775,N,08030.3343,W,1,9,2.1,19,M,,M,,*53
06/20/2015	10:07:06.575	$GPGGA,100707,2448.2766,N,08030.3323,W,1,9,2.1,19,M,,M,,*56
06/20/2015	10:07:07.654	$GPGGA,100708,2448.2756,N,08030.3303,W,1,9,1.5,19,M,,M,,*5F
06/20/2015	10:07:08.545	$GPGGA,100709,2448.2745,N,08030.3284,W,1,9,1.5,19,M,,M,,*52
06/20/2015	10:07:09.634	$GPGGA,100710,2448.2734,N,08030.3265,W,1,8,2.1,18,M,,M,,*54
06/20/2015	10:07:10.554	$GPGGA,100711,2448.2723,N,08030.3244,W,1,8,2.1,18,M,,M,,*50
06/20/2015	10:07:11.654	$GPGGA,100712,2448.2713,N,08030.3225,W,1,8,2.1,18,M,,M,,*57
06/20/2015	10:07:12.524	$GPGGA,100713,2448.2702,N,08030.3206,W,1,8,2.1,18,M,,M,,*57
06/20/2015	10:07:13.635	$GPGGA,100714,2448.2691,N,08030.3186,W,1,8,2.1,18,M,,M,,*50
06/20/2015	10:07:14.554	$GPGGA,100715,2448.2684,N,08030.3167,W,1,8,2.1,18,M,,M,,*5A
06/20/2015	10:07:15.645	$GPGGA,100716,2448.2673,N,08030.3147,W,1,9,1.5,18,M,,M,,*55
06/20/2015	10:07:16.514	$GPGGA,100717,2448.2664,N,08030.3128,W,1,9,2.1,18,M,,M,,*5C
06/20/2015	10:07:17.634	$GPGGA,100718,2448.2655,N,08030.3108,W,1,9,1.5,18,M,,M,,*54
06/20/2015	10:07:18.514	$GPGGA,100719,2448.2646,N,08030.3089,W,1,9,1.5,18,M,,M,,*5F
06/20/2015	10:07:19.636	$GPGGA,100720,2448.2639,N,08030.3071,W,1,9,1.6,18,M,,M,,*59
06/20/2015	10:07:21.664	$GPGGA,100722,2448.2621,N,08030.3032,W,1,9,1.5,18,M,,M,,*56
06/20/2015	10:07:22.544	$GPGGA,100723,2448.2612,N,08030.3013,W,1,9,1.5,18,M,,M,,*54
06/20/2015	10:07:23.594	$GPGGA,100724,2448.2603,N,08030.2994,W,1,8,1.6,18,M,,M,,*56
06/20/2015	10:07:24.504	$GPGGA,100725,2448.2594,N,08030.2974,W,1,8,1.6,18,M,,M,,*54
06/20/2015	10:07:25.624	$GPGGA,100726,2448.2586,N,08030.2955,W,1,9,1.5,18,M,,M,,*55
06/20/2015	10:07:26.534	$GPGGA,100727,2448.2578,N,08030.2936,W,1,9,1.5,18,M,,M,,*50
06/20/2015	10:07:27.564	$GPGGA,100728,2448.2568,N,08030.2916,W,1,9,1.6,18,M,,M,,*5F
06/20/2015	10:07:28.547	$GPGGA,100729,2448.2558,N,08030.2897,W,1,9,1.5,18,M,,M,,*56
06/20/2015	10:07:29.574	$GPGGA,100730,2448.2549,N,08030.2876,W,1,9,1.5,18,M,,M,,*51
06/20/2015	10:07:30.594	$GPGGA,100731,2448.2540,N,08030.2857,W,1,9,1.5,18,M,,M,,*5A
06/20/2015	10:07:31.594	$GPGGA,100732,2448.2531,N,08030.2838,W,1,9,1.5,18,M,,M,,*56
06/20/2015	10:07:32.514	$GPGGA,100733,2448.2520,N,08030.2818,W,1,9,1.5,18,M,,M,,*55
06/20/2015	10:07:33.614	$GPGGA,100734,2448.2510,N,08030.2799,W,1,9,1.5,18,M,,M,,*57
06/20/2015	10:07:34.604	$GPGGA,100735,2448.2499,N,08030.2780,W,1,9,2.1,17,M,,M,,*56
06/20/2015	10:07:35.584	$GPGGA,100736,2448.2487,N,08030.2760,W,1,8,2.1,17,M,,M,,*55
06/20/2015	10:07:36.584	$GPGGA,100737,2448.2478,N,08030.2740,W,1,8,1.5,17,M,,M,,*51
06/20/2015	10:07:37.574	$GPGGA,100738,2448.2467,N,08030.2721,W,1,9,1.5,17,M,,M,,*56
06/20/2015	10:07:38.574	$GPGGA,100739,2448.2456,N,08030.2701,W,1,9,1.5,17,M,,M,,*57
06/20/2015	10:07:39.594	$GPGGA,100740,2448.2446,N,08030.2681,W,1,9,1.5,17,M,,M,,*51
06/20/2015	10:07:40.574	$GPGGA,100741,2448.2437,N,08030.2662,W,1,9,1.5,17,M,,M,,*5B
06/20/2015	10:07:41.625	$GPGGA,100742,2448.2426,N,08030.2643,W,1,9,1.5,17,M,,M,,*5B
06/20/2015	10:07:42.564	$GPGGA,100743,2448.2416,N,08030.2623,W,1,9,1.5,17,M,,M,,*5F
06/20/2015	10:07:43.594	$GPGGA,100744,2448.2406,N,08030.2604,W,1,9,1.5,17,M,,M,,*5C
06/20/2015	10:07:44.574	$GPGGA,100745,2448.2395,N,08030.2585,W,1,9,1.5,17,M,,M,,*5A
06/20/2015	10:07:45.594	$GPGGA,100746,2448.2384,N,08030.2566,W,1,9,2.7,17,M,,M,,*55
06/20/2015	10:07:46.554	$GPGGA,100747,2448.2375,N,08030.2545,W,1,9,1.5,17,M,,M,,*5A
06/20/2015	10:07:47.604	$GPGGA,100748,2448.2366,N,08030.2526,W,1,9,1.8,17,M,,M,,*5F
06/20/2015	10:07:48.555	$GPGGA,100749,2448.2352,N,08030.2511,W,1,9,2.3,17,M,,M,,*55
06/20/2015	10:07:49.624	$GPGGA,100750,2448.2340,N,08030.2492,W,1,7,2.4,17,M,,M,,*5D
06/20/2015	10:07:50.547	$GPGGA,100751,2448.2326,N,08030.2475,W,1,7,1.5,17,M,,M,,*57
06/20/2015	10:07:51.594	$GPGGA,100752,2448.2314,N,08030.2460,W,1,9,2.1,17,M,,M,,*58
06/20/2015	10:07:52.550	$GPGGA,100753,2448.2303,N,08030.2443,W,1,9,1.5,17,M,,M,,*59
06/20/2015	10:07:53.604	$GPGGA,100754,2448.2293,N,08030.2425,W,1,9,1.5,17,M,,M,,*56
06/20/2015	10:07:54.550	$GPGGA,100755,2448.2283,N,08030.2406,W,1,9,1.5,17,M,,M,,*57
06/20/2015	10:07:55.594	$GPGGA,100756,2448.2273,N,08030.2387,W,1,9,1.5,17,M,,M,,*55
06/20/2015	10:07:56.558	$GPGGA,100757,2448.2262,N,08030.2368,W,1,9,1.5,17,M,,M,,*55
06/20/2015	10:07:57.564	$GPGGA,100758,2448.2250,N,08030.2350,W,1,9,2.2,17,M,,M,,*54
06/20/2015	10:07:58.524	$GPGGA,100759,2448.2240,N,08030.2330,W,1,9,2.2,17,M,,M,,*52
06/20/2015	10:07:59.664	$GPGGA,100800,2448.2229,N,08030.2311,W,1,9,2.7,18,M,,M,,*57
06/20/2015	10:08:00.551	$GPGGA,100801,2448.2216,N,08030.2295,W,1,9,1.6,18,M,,M,,*55
06/20/2015	10:08:01.564	$GPGGA,100802,2448.2204,N,08030.2277,W,1,8,1.6,18,M,,M,,*58
06/20/2015	10:08:02.541	$GPGGA,100803,2448.2195,N,08030.2258,W,1,8,1.6,18,M,,M,,*5F
06/20/2015	10:08:03.584	$GPGGA,100804,2448.2184,N,08030.2239,W,1,8,1.6,18,M,,M,,*5F
06/20/2015	10:08:04.544	$GPGGA,100805,2448.2173,N,08030.2222,W,1,8,1.6,18,M,,M,,*5C
06/20/2015	10:08:06.554	$GPGGA,100807,2448.2151,N,08030.2183,W,1,8,1.6,18,M,,M,,*56
06/20/2015	10:08:07.554	$GPGGA,100808,2448.2141,N,08030.2164,W,1,7,2.0,18,M,,M,,*5B
06/20/2015	10:08:08.544	$GPGGA,100809,2448.2131,N,08030.2143,W,1,7,2.0,18,M,,M,,*58
06/20/2015	10:08:09.524	$GPGGA,100810,2448.2131,N,08030.2143,W,1,7,2.0,18,M,,M,,*50
06/20/2015	10:08:10.524	$GPGGA,100811,2448.2109,N,08030.2105,W,1,7,1.5,18,M,,M,,*5E
06/20/2015	10:08:11.648	$GPGGA,100812,2448.2099,N,08030.2085,W,1,9,1.5,18,M,,M,,*52
06/20/2015	10:08:12.537	$GPGGA,100813,2448.2090,N,08030.2064,W,1,9,1.5,18,M,,M,,*55
06/20/2015	10:08:13.564	$GPGGA,100814,2448.2079,N,08030.2045,W,1,9,2.2,18,M,,M,,*52
06/20/2015	10:08:14.514	$GPGGA,100815,2448.2069,N,08030.2025,W,1,9,2.2,18,M,,M,,*54
06/20/2015	10:08:15.644	$GPGGA,100816,2448.2061,N,08030.2004,W,1,9,1.5,18,M,,M,,*58
06/20/2015	10:08:16.515	$GPGGA,100817,2448.2054,N,08030.1985,W,1,9,1.5,18,M,,M,,*5C
06/20/2015	10:08:17.624	$GPGGA,100818,2448.2044,N,08030.1966,W,1,9,1.5,18,M,,M,,*5F
06/20/2015	10:08:18.514	$GPGGA,100819,2448.2036,N,08030.1946,W,1,9,1.5,18,M,,M,,*59
06/20/2015	10:08:19.645	$GPGGA,100820,2448.2027,N,08030.1926,W,1,8,1.6,18,M,,M,,*57
06/20/2015	10:08:20.604	$GPGGA,100821,2448.2018,N,08030.1906,W,1,8,1.5,18,M,,M,,*5B
06/20/2015	10:08:21.564	$GPGGA,100822,2448.2008,N,08030.1886,W,1,9,1.6,18,M,,M,,*52
06/20/2015	10:08:22.584	$GPGGA,100823,2448.1998,N,08030.1866,W,1,9,1.6,18,M,,M,,*5E
06/20/2015	10:08:23.504	$GPGGA,100824,2448.1998,N,08030.1866,W,1,9,1.5,18,M,,M,,*5A
06/20/2015	10:08:24.504	$GPGGA,100825,2448.1982,N,08030.1826,W,1,9,1.5,18,M,,M,,*54
06/20/2015	10:08:25.594	$GPGGA,100826,2448.1971,N,08030.1808,W,1,9,1.5,18,M,,M,,*57
06/20/2015	10:08:26.594	$GPGGA,100827,2448.1964,N,08030.1788,W,1,9,1.5,18,M,,M,,*55
06/20/2015	10:08:27.584	$GPGGA,100828,2448.1954,N,08030.1768,W,1,8,1.6,18,M,,M,,*55
06/20/2015	10:08:28.574	$GPGGA,100829,2448.1943,N,08030.1748,W,1,8,1.6,18,M,,M,,*50
06/20/2015	10:08:29.574	$GPGGA,100830,2448.1935,N,08030.1728,W,1,9,1.5,18,M,,M,,*5D
06/20/2015	10:08:30.574	$GPGGA,100831,2448.1925,N,08030.1708,W,1,9,1.5,18,M,,M,,*5F
06/20/2015	10:08:31.584	$GPGGA,100832,2448.1917,N,08030.1687,W,1,8,1.6,18,M,,M,,*59
06/20/2015	10:08:32.574	$GPGGA,100833,2448.1906,N,08030.1668,W,1,8,1.5,18,M,,M,,*5A
06/20/2015	10:08:33.584	$GPGGA,100834,2448.1897,N,08030.1647,W,1,9,1.5,18,M,,M,,*58
06/20/2015	10:08:34.554	$GPGGA,100835,2448.1889,N,08030.1627,W,1,9,1.5,18,M,,M,,*50
06/20/2015	10:08:35.594	$GPGGA,100836,2448.1879,N,08030.1607,W,1,9,1.5,18,M,,M,,*5E
06/20/2015	10:08:36.564	$GPGGA,100837,2448.1870,N,08030.1586,W,1,9,1.5,18,M,,M,,*5C
06/20/2015	10:08:37.584	$GPGGA,100838,2448.1861,N,08030.1565,W,1,9,1.5,18,M,,M,,*5E
06/20/2015	10:08:38.564	$GPGGA,100839,2448.1852,N,08030.1544,W,1,9,1.5,18,M,,M,,*5C
06/20/2015	10:08:39.594	$GPGGA,100840,2448.1842,N,08030.1523,W,1,9,1.5,18,M,,M,,*52
06/20/2015	10:08:40.552	$GPGGA,100841,2448.1832,N,08030.1502,W,1,9,1.5,18,M,,M,,*57
06/20/2015	10:08:41.574	$GPGGA,100842,2448.1823,N,08030.1481,W,1,9,1.5,18,M,,M,,*5E
06/20/2015	10:08:42.551	$GPGGA,100843,2448.1814,N,08030.1461,W,1,9,1.5,18,M,,M,,*55
06/20/2015	10:08:43.574	$GPGGA,100844,2448.1805,N,08030.1440,W,1,9,1.5,18,M,,M,,*51
06/20/2015	10:08:44.551	$GPGGA,100845,2448.1796,N,08030.1419,W,1,9,1.5,18,M,,M,,*59
06/20/2015	10:08:45.534	$GPGGA,100846,2448.1787,N,08030.1399,W,1,9,1.5,18,M,,M,,*55
06/20/2015	10:08:46.538	$GPGGA,100847,2448.1777,N,08030.1379,W,1,9,1.5,18,M,,M,,*55
06/20/2015	10:08:47.574	$GPGGA,100848,2448.1768,N,08030.1358,W,1,9,1.5,18,M,,M,,*57
06/20/2015	10:08:48.549	$GPGGA,100849,2448.1759,N,08030.1338,W,1,9,1.5,18,M,,M,,*52
06/20/2015	10:08:49.524	$GPGGA,100850,2448.1749,N,08030.1317,W,1,9,1.5,18,M,,M,,*56
06/20/2015	10:08:50.534	$GPGGA,100851,2448.1740,N,08030.1297,W,1,9,1.5,18,M,,M,,*57
06/20/2015	10:08:51.537	$GPGGA,100852,2448.1731,N,08030.1277,W,1,9,1.5,18,M,,M,,*5C
06/20/2015	10:08:53.549	$GPGGA,100853,2448.1722,N,08030.1256,W,1,9,1.5,18,M,,M,,*5C
06/20/2015	10:08:53.574	$GPGGA,100854,2448.1712,N,08030.1236,W,1,9,1.5,18,M,,M,,*5E
06/20/2015	10:08:54.786	$GPGGA,100855,2448.1703,N,08030.1216,W,1,9,1.5,18,M,,M,,*5D
06/20/2015	10:08:55.564	$GPGGA,100856,2448.1694,N,08030.1195,W,1,8,1.6,18,M,,M,,*5B
06/20/2015	10:08:56.514	$GPGGA,100857,2448.1684,N,08030.1175,W,1,8,1.5,18,M,,M,,*56
06/20/2015	10:08:57.524	$GPGGA,100858,2448.1676,N,08030.1155,W,1,9,1.5,18,M,,M,,*57
06/20/2015	10:08:58.524	$GPGGA,100859,2448.1666,N,08030.1134,W,1,9,1.5,18,M,,M,,*50
06/20/2015	10:08:59.594	$GPGGA,100900,2448.1661,N,08030.1114,W,1,8,1.5,18,M,,M,,*59
06/20/2015	10:09:00.504	$GPGGA,100901,2448.1654,N,08030.1095,W,1,8,1.4,18,M,,M,,*57
06/20/2015	10:09:01.514	$GPGGA,100902,2448.1644,N,08030.1075,W,1,9,1.4,18,M,,M,,*5A
06/20/2015	10:09:02.594	$GPGGA,100903,2448.1635,N,08030.1055,W,1,9,1.4,18,M,,M,,*5F
06/20/2015	10:09:03.550	$GPGGA,100904,2448.1626,N,08030.1035,W,1,9,1.4,18,M,,M,,*5C
06/20/2015	10:09:04.494	$GPGGA,100905,2448.1617,N,08030.1015,W,1,9,1.4,18,M,,M,,*5D
06/20/2015	10:09:05.614	$GPGGA,100906,2448.1608,N,08030.0995,W,1,9,1.4,18,M,,M,,*50
06/20/2015	10:09:06.514	$GPGGA,100907,2448.1599,N,08030.0975,W,1,9,1.4,18,M,,M,,*54
06/20/2015	10:09:07.524	$GPGGA,100908,2448.1588,N,08030.0955,W,1,9,1.4,18,M,,M,,*59
06/20/2015	10:09:08.604	$GPGGA,100909,2448.1578,N,08030.0935,W,1,9,1.5,18,M,,M,,*50
06/20/2015	10:09:09.615	$GPGGA,100910,2448.1570,N,08030.0915,W,1,8,1.5,19,M,,M,,*52
06/20/2015	10:09:10.505	$GPGGA,100911,2448.1559,N,08030.0895,W,1,8,1.6,19,M,,M,,*52
06/20/2015	10:09:11.504	$GPGGA,100912,2448.1552,N,08030.0875,W,1,8,1.5,19,M,,M,,*57
06/20/2015	10:09:12.584	$GPGGA,100913,2448.1537,N,08030.0855,W,1,8,1.4,19,M,,M,,*56
06/20/2015	10:09:13.584	$GPGGA,100914,2448.1528,N,08030.0836,W,1,9,1.4,19,M,,M,,*5B
06/20/2015	10:09:14.884	$GPGGA,100915,2448.1520,N,08030.0817,W,1,9,1.4,19,M,,M,,*51
06/20/2015	10:09:15.585	$GPGGA,100916,2448.1512,N,08030.0798,W,1,9,1.4,19,M,,M,,*5B
06/20/2015	10:09:16.574	$GPGGA,100917,2448.1501,N,08030.0779,W,1,9,1.4,19,M,,M,,*57
06/20/2015	10:09:17.594	$GPGGA,100918,2448.1492,N,08030.0760,W,1,9,1.4,19,M,,M,,*5B
06/20/2015	10:09:18.564	$GPGGA,100919,2448.1483,N,08030.0742,W,1,9,1.5,19,M,,M,,*5B
06/20/2015	10:09:19.574	$GPGGA,100920,2448.1472,N,08030.0723,W,1,8,1.7,19,M,,M,,*5B
06/20/2015	10:09:20.574	$GPGGA,100921,2448.1463,N,08030.0702,W,1,8,1.5,19,M,,M,,*5B
06/20/2015	10:09:21.574	$GPGGA,100922,2448.1454,N,08030.0681,W,1,8,1.5,19,M,,M,,*56
06/20/2015	10:09:22.564	$GPGGA,100923,2448.1442,N,08030.0661,W,1,8,1.5,19,M,,M,,*5E
06/20/2015	10:09:23.594	$GPGGA,100924,2448.1430,N,08030.0641,W,1,8,1.5,19,M,,M,,*5E
06/20/2015	10:09:24.564	$GPGGA,100925,2448.1418,N,08030.0622,W,1,8,1.4,18,M,,M,,*50
06/20/2015	10:09:25.548	$GPGGA,100926,2448.1407,N,08030.0603,W,1,9,1.4,18,M,,M,,*5F
06/20/2015	10:09:26.551	$GPGGA,100927,2448.1395,N,08030.0584,W,1,9,1.4,18,M,,M,,*5E
06/20/2015	10:09:27.584	$GPGGA,100928,2448.1383,N,08030.0566,W,1,7,1.8,18,M,,M,,*58
06/20/2015	10:09:28.554	$GPGGA,100929,2448.1371,N,08030.0549,W,1,7,1.4,18,M,,M,,*55
06/20/2015	10:09:29.574	$GPGGA,100930,2448.1361,N,08030.0530,W,1,9,1.4,18,M,,M,,*5C
06/20/2015	10:09:30.546	$GPGGA,100931,2448.1351,N,08030.0512,W,1,9,1.4,18,M,,M,,*5E
06/20/2015	10:09:31.574	$GPGGA,100932,2448.1342,N,08030.0497,W,1,8,1.7,18,M,,M,,*51
06/20/2015	10:09:32.554	$GPGGA,100933,2448.1332,N,08030.0480,W,1,8,1.4,18,M,,M,,*52
06/20/2015	10:09:33.564	$GPGGA,100934,2448.1324,N,08030.0464,W,1,9,1.4,18,M,,M,,*59
06/20/2015	10:09:34.544	$GPGGA,100935,2448.1317,N,08030.0448,W,1,9,1.4,19,M,,M,,*57
06/20/2015	10:09:35.574	$GPGGA,100936,2448.1310,N,08030.0432,W,1,8,1.7,19,M,,M,,*5C
06/20/2015	10:09:36.544	$GPGGA,100937,2448.1301,N,08030.0419,W,1,8,1.7,19,M,,M,,*54
06/20/2015	10:09:38.015	$GPGGA,100938,2448.1294,N,08030.0404,W,1,9,1.4,19,M,,M,,*58
06/20/2015	10:09:38.545	$GPGGA,100939,2448.1288,N,08030.0392,W,1,9,1.7,19,M,,M,,*5F
06/20/2015	10:09:39.574	$GPGGA,100940,2448.1281,N,08030.0378,W,1,9,1.4,19,M,,M,,*5F
06/20/2015	10:09:40.514	$GPGGA,100941,2448.1275,N,08030.0364,W,1,9,1.4,19,M,,M,,*58
06/20/2015	10:09:41.538	$GPGGA,100942,2448.1270,N,08030.0351,W,1,8,1.7,19,M,,M,,*5A
06/20/2015	10:09:42.524	$GPGGA,100943,2448.1264,N,08030.0337,W,1,8,1.7,19,M,,M,,*5E
06/20/2015	10:09:44.056	$GPGGA,100944,2448.1259,N,08030.0324,W,1,9,1.4,19,M,,M,,*57
06/20/2015	10:09:44.514	$GPGGA,100945,2448.1254,N,08030.0313,W,1,9,1.4,19,M,,M,,*5F
06/20/2015	10:09:45.537	$GPGGA,100946,2448.1249,N,08030.0302,W,1,8,1.5,19,M,,M,,*50
06/20/2015	10:09:46.524	$GPGGA,100947,2448.1245,N,08030.0290,W,1,8,1.4,19,M,,M,,*56
06/20/2015	10:09:47.537	$GPGGA,100948,2448.1241,N,08030.0279,W,1,10,1.4,19,M,,M,,*63
06/20/2015	10:09:48.604	$GPGGA,100949,2448.1236,N,08030.0269,W,1,10,1.5,19,M,,M,,*62
06/20/2015	10:09:49.524	$GPGGA,100950,2448.1232,N,08030.0257,W,1,10,1.4,19,M,,M,,*62
06/20/2015	10:09:52.164	$GPGGA,100952,2448.1223,N,08030.0236,W,1,10,1.4,19,M,,M,,*67
06/20/2015	10:09:52.524	$GPGGA,100953,2448.1219,N,08030.0226,W,1,10,1.4,19,M,,M,,*6E
06/20/2015	10:09:53.514	$GPGGA,100954,2448.1216,N,08030.0215,W,1,10,1.4,19,M,,M,,*66
06/20/2015	10:09:54.594	$GPGGA,100955,2448.1210,N,08030.0204,W,1,10,1.4,19,M,,M,,*61
06/20/2015	10:09:55.524	$GPGGA,100956,2448.1207,N,08030.0195,W,1,10,1.4,19,M,,M,,*6F
06/20/2015	10:09:56.484	$GPGGA,100957,2448.1203,N,08030.0185,W,1,10,1.5,19,M,,M,,*6A
06/20/2015	10:09:57.504	$GPGGA,100958,2448.1200,N,08030.0175,W,1,9,1.5,19,M,,M,,*51
06/20/2015	10:09:58.504	$GPGGA,100959,2448.1198,N,08030.0167,W,1,9,1.5,19,M,,M,,*51
06/20/2015	10:09:59.546	$GPGGA,101000,2448.1194,N,08030.0159,W,1,9,1.5,19,M,,M,,*54
06/20/2015	10:10:00.484	$GPGGA,101001,2448.1191,N,08030.0149,W,1,9,1.5,19,M,,M,,*51
06/20/2015	10:10:01.615	$GPGGA,101002,2448.1189,N,08030.0142,W,1,9,1.7,19,M,,M,,*52
06/20/2015	10:10:02.584	$GPGGA,101003,2448.1184,N,08030.0133,W,1,9,1.4,19,M,,M,,*5B
06/20/2015	10:10:03.624	$GPGGA,101004,2448.1181,N,08030.0126,W,1,10,1.4,19,M,,M,,*65
06/20/2015	10:10:04.594	$GPGGA,101005,2448.1180,N,08030.0119,W,1,10,1.4,19,M,,M,,*69
06/20/2015	10:10:05.564	$GPGGA,101006,2448.1178,N,08030.0111,W,1,9,1.5,19,M,,M,,*5C
06/20/2015	10:10:06.564	$GPGGA,101007,2448.1179,N,08030.0105,W,1,9,1.5,19,M,,M,,*59
06/20/2015	10:10:07.616	$GPGGA,101008,2448.1176,N,08030.0099,W,1,10,1.4,19,M,,M,,*64
06/20/2015	10:10:08.564	$GPGGA,101009,2448.1176,N,08030.0092,W,1,10,1.4,19,M,,M,,*6E
06/20/2015	10:10:09.584	$GPGGA,101010,2448.1176,N,08030.0086,W,1,10,1.4,19,M,,M,,*63
06/20/2015	10:10:10.564	$GPGGA,101011,2448.1176,N,08030.0082,W,1,10,1.4,19,M,,M,,*66
06/20/2015	10:10:11.594	$GPGGA,101012,2448.1176,N,08030.0077,W,1,9,1.5,19,M,,M,,*56
06/20/2015	10:10:12.554	$GPGGA,101013,2448.1176,N,08030.0071,W,1,9,1.4,19,M,,M,,*50
06/20/2015	10:10:13.584	$GPGGA,101014,2448.1176,N,08030.0067,W,1,10,1.4,19,M,,M,,*68
06/20/2015	10:10:14.554	$GPGGA,101015,2448.1176,N,08030.0063,W,1,10,1.4,19,M,,M,,*6D
06/20/2015	10:10:15.594	$GPGGA,101016,2448.1178,N,08030.0060,W,1,9,1.4,19,M,,M,,*5B
06/20/2015	10:10:16.554	$GPGGA,101017,2448.1179,N,08030.0057,W,1,9,1.5,19,M,,M,,*5E
06/20/2015	10:10:17.564	$GPGGA,101018,2448.1178,N,08030.0054,W,1,9,1.5,19,M,,M,,*53
06/20/2015	10:10:18.544	$GPGGA,101019,2448.1179,N,08030.0051,W,1,9,1.4,19,M,,M,,*57
06/20/2015	10:10:19.554	$GPGGA,101020,2448.1180,N,08030.0048,W,1,10,1.4,19,M,,M,,*6B
06/20/2015	10:10:20.544	$GPGGA,101021,2448.1180,N,08030.0045,W,1,10,1.4,19,M,,M,,*67
06/20/2015	10:10:21.574	$GPGGA,101022,2448.1180,N,08030.0041,W,1,10,1.4,19,M,,M,,*60
06/20/2015	10:10:22.535	$GPGGA,101023,2448.1180,N,08030.0039,W,1,10,1.4,19,M,,M,,*6E
06/20/2015	10:10:23.584	$GPGGA,101024,2448.1180,N,08030.0035,W,1,10,1.4,19,M,,M,,*65
06/20/2015	10:10:24.545	$GPGGA,101025,2448.1182,N,08030.0031,W,1,10,1.4,19,M,,M,,*62
06/20/2015	10:10:25.524	$GPGGA,101026,2448.1183,N,08030.0028,W,1,9,1.4,19,M,,M,,*50
06/20/2015	10:10:26.535	$GPGGA,101027,2448.1183,N,08030.0025,W,1,9,1.4,19,M,,M,,*5C
06/20/2015	10:10:27.554	$GPGGA,101028,2448.1185,N,08030.0021,W,1,10,1.4,19,M,,M,,*69
06/20/2015	10:10:28.524	$GPGGA,101029,2448.1187,N,08030.0017,W,1,10,1.4,19,M,,M,,*6F
06/20/2015	10:10:29.524	$GPGGA,101030,2448.1187,N,08030.0013,W,1,9,1.5,19,M,,M,,*5A
06/20/2015	10:10:30.524	$GPGGA,101031,2448.1190,N,08030.0009,W,1,9,1.5,19,M,,M,,*56
06/20/2015	10:10:31.535	$GPGGA,101032,2448.1191,N,08030.0005,W,1,10,1.4,19,M,,M,,*61
06/20/2015	10:10:32.536	$GPGGA,101033,2448.1193,N,08030.0001,W,1,10,1.5,19,M,,M,,*67
06/20/2015	10:10:33.545	$GPGGA,101034,2448.1194,N,08029.9998,W,1,9,1.5,19,M,,M,,*57
06/20/2015	10:10:34.514	$GPGGA,101035,2448.1194,N,08029.9994,W,1,9,1.5,19,M,,M,,*5A
06/20/2015	10:10:35.646	$GPGGA,101036,2448.1196,N,08029.9991,W,1,9,1.5,19,M,,M,,*5E
06/20/2015	10:10:36.525	$GPGGA,101037,2448.1198,N,08029.9988,W,1,9,1.5,19,M,,M,,*59
06/20/2015	10:10:37.634	$GPGGA,101038,2448.1198,N,08029.9985,W,1,10,1.4,19,M,,M,,*62
06/20/2015	10:10:38.524	$GPGGA,101039,2448.1200,N,08029.9982,W,1,10,1.5,19,M,,M,,*67
06/20/2015	10:10:39.614	$GPGGA,101040,2448.1199,N,08029.9980,W,1,9,1.5,19,M,,M,,*50
06/20/2015	10:10:40.494	$GPGGA,101041,2448.1201,N,08029.9977,W,1,9,1.4,19,M,,M,,*5A
06/20/2015	10:10:41.494	$GPGGA,101042,2448.1201,N,08029.9975,W,1,9,1.5,19,M,,M,,*5A
06/20/2015	10:10:42.504	$GPGGA,101043,2448.1204,N,08029.9972,W,1,9,1.5,19,M,,M,,*59
06/20/2015	10:10:43.604	$GPGGA,101044,2448.1205,N,08029.9969,W,1,9,1.5,19,M,,M,,*55
06/20/2015	10:10:44.484	$GPGGA,101045,2448.1205,N,08029.9966,W,1,9,1.5,19,M,,M,,*5B
06/20/2015	10:10:45.594	$GPGGA,101046,2448.1208,N,08029.9963,W,1,9,1.5,19,M,,M,,*50
06/20/2015	10:10:46.504	$GPGGA,101047,2448.1211,N,08029.9960,W,1,9,1.4,19,M,,M,,*5B
06/20/2015	10:10:47.604	$GPGGA,101048,2448.1212,N,08029.9957,W,1,10,1.4,19,M,,M,,*6B
06/20/2015	10:10:48.827	$GPGGA,101049,2448.1214,N,08029.9954,W,1,10,1.4,19,M,,M,,*6F
06/20/2015	10:10:49.614	$GPGGA,101050,2448.1215,N,08029.9951,W,1,10,1.4,19,M,,M,,*63
06/20/2015	10:10:50.584	$GPGGA,101051,2448.1216,N,08029.9949,W,1,10,1.4,19,M,,M,,*68
06/20/2015	10:10:51.584	$GPGGA,101052,2448.1218,N,08029.9946,W,1,10,1.4,19,M,,M,,*6A
06/20/2015	10:10:52.574	$GPGGA,101053,2448.1219,N,08029.9943,W,1,10,1.4,19,M,,M,,*6F
06/20/2015	10:10:53.594	$GPGGA,101054,2448.1218,N,08029.9940,W,1,9,1.5,19,M,,M,,*53
06/20/2015	10:10:54.564	$GPGGA,101055,2448.1219,N,08029.9937,W,1,9,1.4,19,M,,M,,*52
06/20/2015	10:10:55.604	$GPGGA,101056,2448.1222,N,08029.9935,W,1,10,1.4,19,M,,M,,*63
06/20/2015	10:10:56.574	$GPGGA,101057,2448.1223,N,08029.9933,W,1,10,1.5,20,M,,M,,*6E
06/20/2015	10:10:57.594	$GPGGA,101058,2448.1223,N,08029.9930,W,1,9,1.5,20,M,,M,,*5A
06/20/2015	10:10:58.564	$GPGGA,101059,2448.1225,N,08029.9927,W,1,9,1.6,20,M,,M,,*58
06/20/2015	10:10:59.584	$GPGGA,101100,2448.1226,N,08029.9925,W,1,8,1.6,20,M,,M,,*55
06/20/2015	10:11:00.564	$GPGGA,101101,2448.1227,N,08029.9922,W,1,8,1.6,20,M,,M,,*52
06/20/2015	10:11:01.574	$GPGGA,101102,2448.1229,N,08029.9919,W,1,8,1.6,20,M,,M,,*57
06/20/2015	10:11:02.564	$GPGGA,101103,2448.1230,N,08029.9917,W,1,8,1.5,20,M,,M,,*53
06/20/2015	10:11:03.594	$GPGGA,101104,2448.1232,N,08029.9915,W,1,9,1.5,20,M,,M,,*55
06/20/2015	10:11:04.545	$GPGGA,101105,2448.1231,N,08029.9911,W,1,9,1.6,20,M,,M,,*50
06/20/2015	10:11:05.584	$GPGGA,101106,2448.1233,N,08029.9908,W,1,9,1.5,20,M,,M,,*5A
06/20/2015	10:11:06.554	$GPGGA,101107,2448.1234,N,08029.9906,W,1,9,1.5,20,M,,M,,*52
06/20/2015	10:11:07.584	$GPGGA,101108,2448.1234,N,08029.9903,W,1,9,1.5,20,M,,M,,*58
06/20/2015	10:11:08.550	$GPGGA,101109,2448.1237,N,08029.9901,W,1,9,1.5,20,M,,M,,*58
06/20/2015	10:11:09.564	$GPGGA,101110,2448.1237,N,08029.9898,W,1,9,1.5,20,M,,M,,*51
06/20/2015	10:11:10.548	$GPGGA,101111,2448.1238,N,08029.9896,W,1,9,1.5,20,M,,M,,*51
06/20/2015	10:11:11.553	$GPGGA,101112,2448.1241,N,08029.9894,W,1,9,1.5,20,M,,M,,*5E
06/20/2015	10:11:12.548	$GPGGA,101113,2448.1241,N,08029.9892,W,1,9,1.5,19,M,,M,,*53
06/20/2015	10:11:13.549	$GPGGA,101114,2448.1243,N,08029.9889,W,1,9,1.5,19,M,,M,,*5C
06/20/2015	10:11:14.524	$GPGGA,101115,2448.1244,N,08029.9887,W,1,9,1.5,19,M,,M,,*54
06/20/2015	10:11:15.549	$GPGGA,101116,2448.1245,N,08029.9884,W,1,9,1.5,19,M,,M,,*55
06/20/2015	10:11:16.524	$GPGGA,101117,2448.1245,N,08029.9882,W,1,9,1.5,19,M,,M,,*52
06/20/2015	10:11:17.524	$GPGGA,101118,2448.1247,N,08029.9880,W,1,9,1.5,19,M,,M,,*5D
06/20/2015	10:11:18.534	$GPGGA,101119,2448.1248,N,08029.9878,W,1,9,1.5,19,M,,M,,*54
06/20/2015	10:11:19.574	$GPGGA,101120,2448.1250,N,08029.9875,W,1,9,1.5,19,M,,M,,*5A
06/20/2015	10:11:20.614	$GPGGA,101121,2448.1249,N,08029.9874,W,1,9,1.5,19,M,,M,,*52
06/20/2015	10:11:21.848	$GPGGA,101122,2448.1251,N,08029.9871,W,1,9,1.5,19,M,,M,,*5D
06/20/2015	10:11:22.524	$GPGGA,101123,2448.1252,N,08029.9868,W,1,9,1.5,19,M,,M,,*57
06/20/2015	10:11:23.574	$GPGGA,101124,2448.1252,N,08029.9866,W,1,9,1.5,19,M,,M,,*5E
06/20/2015	10:11:24.524	$GPGGA,101125,2448.1254,N,08029.9864,W,1,9,1.5,19,M,,M,,*5B
06/20/2015	10:11:25.644	$GPGGA,101126,2448.1255,N,08029.9861,W,1,9,1.5,18,M,,M,,*5D
06/20/2015	10:11:26.504	$GPGGA,101127,2448.1256,N,08029.9859,W,1,9,1.5,18,M,,M,,*54
06/20/2015	10:11:27.614	$GPGGA,101128,2448.1258,N,08029.9856,W,1,9,1.5,18,M,,M,,*5A
06/20/2015	10:11:28.614	$GPGGA,101129,2448.1257,N,08029.9855,W,1,9,1.5,18,M,,M,,*57
06/20/2015	10:11:29.524	$GPGGA,101130,2448.1259,N,08029.9853,W,1,9,1.5,18,M,,M,,*57
06/20/2015	10:11:30.614	$GPGGA,101131,2448.1262,N,08029.9850,W,1,9,1.5,18,M,,M,,*5D
06/20/2015	10:11:31.524	$GPGGA,101132,2448.1261,N,08029.9848,W,1,9,1.5,18,M,,M,,*54
06/20/2015	10:11:32.494	$GPGGA,101133,2448.1263,N,08029.9846,W,1,9,1.5,18,M,,M,,*59
06/20/2015	10:11:33.614	$GPGGA,101134,2448.1266,N,08029.9844,W,1,9,1.5,18,M,,M,,*59
06/20/2015	10:11:34.504	$GPGGA,101135,2448.1265,N,08029.9842,W,1,9,1.5,18,M,,M,,*5D
06/20/2015	10:11:35.624	$GPGGA,101136,2448.1266,N,08029.9839,W,1,9,1.5,18,M,,M,,*51
06/20/2015	10:11:36.504	$GPGGA,101137,2448.1269,N,08029.9837,W,1,9,1.5,18,M,,M,,*51
06/20/2015	10:11:37.604	$GPGGA,101138,2448.1270,N,08029.9836,W,1,9,1.5,18,M,,M,,*57
06/20/2015	10:11:38.584	$GPGGA,101139,2448.1270,N,08029.9834,W,1,9,1.5,17,M,,M,,*5B
06/20/2015	10:11:39.614	$GPGGA,101140,2448.1273,N,08029.9831,W,1,9,1.5,17,M,,M,,*53
06/20/2015	10:11:40.584	$GPGGA,101141,2448.1273,N,08029.9829,W,1,9,1.5,17,M,,M,,*5B
06/20/2015	10:11:41.584	$GPGGA,101142,2448.1274,N,08029.9827,W,1,9,1.5,17,M,,M,,*51
06/20/2015	10:11:42.574	$GPGGA,101143,2448.1276,N,08029.9825,W,1,9,1.5,17,M,,M,,*50
06/20/2015	10:11:43.604	$GPGGA,101144,2448.1279,N,08029.9823,W,1,9,1.5,17,M,,M,,*5E
06/20/2015	10:11:44.574	$GPGGA,101145,2448.1280,N,08029.9821,W,1,9,1.5,17,M,,M,,*5B
06/20/2015	10:11:45.574	$GPGGA,101146,2448.1281,N,08029.9819,W,1,9,1.5,17,M,,M,,*52
06/20/2015	10:11:46.565	$GPGGA,101147,2448.1283,N,08029.9817,W,1,9,1.5,17,M,,M,,*5F
06/20/2015	10:11:47.604	$GPGGA,101148,2448.1286,N,08029.9815,W,1,9,1.5,17,M,,M,,*57
06/20/2015	10:11:48.564	$GPGGA,101149,2448.1287,N,08029.9813,W,1,9,1.5,17,M,,M,,*51
06/20/2015	10:11:49.584	$GPGGA,101150,2448.1288,N,08029.9811,W,1,9,1.5,17,M,,M,,*54
