Software Version Number: 1	Data File Format Number: 1	Build Version Number: 1	Error Count Since VI Started: 1	Manufacturer: Raytheon	 Model Number: RayMarine 120	 S/N: 	 Cal Date: 	 Wind Direction Offset: 0.00	 Slope (M)1: 0.00	 Offset (B)1: 0.00	 Slope (M)2: 0.00	 Offset (B)2: 0.00	 Slope (M)3: 0.00	 Offset (B)3: 0.00	 Slope (M)4: 0.00	 Offset (B)4: 0.00	 Slope (M)5: 0.00	 Offset (B)5: 0.00	 Slope (M)6: 0.00	 Offset (B)6: 0.00
Computer Date	Computer Time	GGA String
06/16/2015	19:00:00.495	$GPGGA,190001,2428.9575,N,08053.6706,W,1,10,1.8,27,M,,M,,*6F
06/16/2015	19:00:01.615	$GPGGA,190002,2428.9576,N,08053.6688,W,1,10,1.8,27,M,,M,,*68
06/16/2015	19:00:02.515	$GPGGA,190003,2428.9579,N,08053.6672,W,1,10,1.8,27,M,,M,,*63
06/16/2015	19:00:03.635	$GPGGA,190004,2428.9582,N,08053.6656,W,1,10,1.8,27,M,,M,,*66
06/16/2015	19:00:04.515	$GPGGA,190005,2428.9583,N,08053.6639,W,1,10,1.8,27,M,,M,,*6F
06/16/2015	19:00:05.485	$GPGGA,190006,2428.9586,N,08053.6622,W,1,10,1.8,27,M,,M,,*63
06/16/2015	19:00:06.495	$GPGGA,190007,2428.9587,N,08053.6606,W,1,10,1.8,27,M,,M,,*65
06/16/2015	19:00:07.485	$GPGGA,190008,2428.9590,N,08053.6589,W,1,10,1.8,28,M,,M,,*67
06/16/2015	19:00:08.495	$GPGGA,190009,2428.9592,N,08053.6572,W,1,10,1.8,28,M,,M,,*60
06/16/2015	19:00:09.895	$GPGGA,190010,2428.9594,N,08053.6554,W,1,10,1.8,28,M,,M,,*6A
06/16/2015	19:00:10.495	$GPGGA,190011,2428.9596,N,08053.6538,W,1,10,1.8,28,M,,M,,*63
06/16/2015	19:00:11.585	$GPGGA,190012,2428.9597,N,08053.6521,W,1,10,1.8,28,M,,M,,*69
06/16/2015	19:00:12.571	$GPGGA,190013,2428.9600,N,08053.6504,W,1,10,1.8,28,M,,M,,*62
06/16/2015	19:00:13.569	$GPGGA,190014,2428.9601,N,08053.6487,W,1,10,1.8,28,M,,M,,*6E
06/16/2015	19:00:14.576	$GPGGA,190015,2428.9604,N,08053.6470,W,1,10,1.8,28,M,,M,,*62
06/16/2015	19:00:15.576	$GPGGA,190016,2428.9605,N,08053.6452,W,1,10,1.8,28,M,,M,,*60
06/16/2015	19:00:16.566	$GPGGA,190017,2428.9608,N,08053.6435,W,1,10,1.8,28,M,,M,,*6D
06/16/2015	19:00:17.585	$GPGGA,190018,2428.9612,N,08053.6418,W,1,10,1.8,28,M,,M,,*66
06/16/2015	19:00:18.567	$GPGGA,190019,2428.9612,N,08053.6401,W,1,10,1.8,28,M,,M,,*6F
06/16/2015	19:00:19.585	$GPGGA,190020,2428.9615,N,08053.6383,W,1,10,1.8,28,M,,M,,*6F
06/16/2015	19:00:20.567	$GPGGA,190021,2428.9617,N,08053.6367,W,1,10,1.8,28,M,,M,,*66
06/16/2015	19:00:21.568	$GPGGA,190022,2428.9619,N,08053.6349,W,1,10,1.8,28,M,,M,,*67
06/16/2015	19:00:22.845	$GPGGA,190023,2428.9621,N,08053.6332,W,1,10,1.8,28,M,,M,,*61
06/16/2015	19:00:23.555	$GPGGA,190024,2428.9623,N,08053.6315,W,1,10,1.8,28,M,,M,,*61
06/16/2015	19:00:24.555	$GPGGA,190025,2428.9626,N,08053.6297,W,1,10,1.8,28,M,,M,,*6E
06/16/2015	19:00:25.555	$GPGGA,190026,2428.9628,N,08053.6281,W,1,10,1.8,28,M,,M,,*64
06/16/2015	19:00:26.545	$GPGGA,190027,2428.9630,N,08053.6263,W,1,10,1.8,28,M,,M,,*60
06/16/2015	19:00:27.567	$GPGGA,190028,2428.9633,N,08053.6246,W,1,10,1.8,28,M,,M,,*6B
06/16/2015	19:00:28.555	$GPGGA,190029,2428.9633,N,08053.6230,W,1,10,1.8,28,M,,M,,*6B
06/16/2015	19:00:29.555	$GPGGA,190030,2428.9636,N,08053.6213,W,1,10,1.8,28,M,,M,,*67
06/16/2015	19:00:30.545	$GPGGA,190031,2428.9640,N,08053.6196,W,1,10,1.8,28,M,,M,,*69
06/16/2015	19:00:31.574	$GPGGA,190032,2428.9641,N,08053.6180,W,1,10,1.8,28,M,,M,,*6C
06/16/2015	19:00:32.536	$GPGGA,190033,2428.9643,N,08053.6162,W,1,10,1.8,28,M,,M,,*63
06/16/2015	19:00:33.546	$GPGGA,190034,2428.9646,N,08053.6146,W,1,10,1.8,28,M,,M,,*67
06/16/2015	19:00:34.535	$GPGGA,190035,2428.9650,N,08053.6129,W,1,10,1.8,28,M,,M,,*68
06/16/2015	19:00:35.567	$GPGGA,190036,2428.9651,N,08053.6112,W,1,10,1.8,28,M,,M,,*62
06/16/2015	19:00:36.535	$GPGGA,190037,2428.9652,N,08053.6096,W,1,10,1.8,28,M,,M,,*6D
06/16/2015	19:00:37.515	$GPGGA,190038,2428.9655,N,08053.6079,W,1,10,1.8,28,M,,M,,*64
06/16/2015	19:00:38.535	$GPGGA,190039,2428.9659,N,08053.6062,W,1,10,1.8,28,M,,M,,*63
06/16/2015	19:00:39.566	$GPGGA,190040,2428.9659,N,08053.6046,W,1,10,1.8,28,M,,M,,*6B
06/16/2015	19:00:40.505	$GPGGA,190041,2428.9659,N,08053.6029,W,1,10,1.8,28,M,,M,,*63
06/16/2015	19:00:41.515	$GPGGA,190042,2428.9664,N,08053.6012,W,1,10,1.8,28,M,,M,,*66
06/16/2015	19:00:42.515	$GPGGA,190043,2428.9665,N,08053.5994,W,1,10,1.8,28,M,,M,,*62
06/16/2015	19:00:43.535	$GPGGA,190044,2428.9666,N,08053.5979,W,1,10,1.8,28,M,,M,,*65
06/16/2015	19:00:44.505	$GPGGA,190045,2428.9669,N,08053.5961,W,1,10,1.8,28,M,,M,,*62
06/16/2015	19:00:45.535	$GPGGA,190046,2428.9672,N,08053.5944,W,1,10,1.8,28,M,,M,,*6C
06/16/2015	19:00:46.505	$GPGGA,190047,2428.9671,N,08053.5929,W,1,10,1.8,28,M,,M,,*65
06/16/2015	19:00:47.625	$GPGGA,190048,2428.9673,N,08053.5912,W,1,10,1.8,28,M,,M,,*60
06/16/2015	19:00:48.625	$GPGGA,190049,2428.9677,N,08053.5895,W,1,10,1.8,28,M,,M,,*6B
06/16/2015	19:00:49.586	$GPGGA,190050,2428.9680,N,08053.5878,W,1,10,1.8,28,M,,M,,*68
06/16/2015	19:00:50.506	$GPGGA,190051,2428.9679,N,08053.5861,W,1,10,1.8,28,M,,M,,*67
06/16/2015	19:00:51.526	$GPGGA,190052,2428.9683,N,08053.5845,W,1,10,1.8,27,M,,M,,*68
06/16/2015	19:00:52.505	$GPGGA,190053,2428.9688,N,08053.5828,W,1,10,1.8,27,M,,M,,*69
06/16/2015	19:00:53.485	$GPGGA,190054,2428.9690,N,08053.5810,W,1,10,1.8,27,M,,M,,*6C
06/16/2015	19:00:54.585	$GPGGA,190055,2428.9691,N,08053.5796,W,1,10,2.4,27,M,,M,,*62
06/16/2015	19:00:55.585	$GPGGA,190056,2428.9694,N,08053.5781,W,1,10,1.8,27,M,,M,,*6D
06/16/2015	19:00:56.580	$GPGGA,190057,2428.9697,N,08053.5764,W,1,10,1.8,27,M,,M,,*64
06/16/2015	19:00:57.615	$GPGGA,190058,2428.9698,N,08053.5748,W,1,10,1.8,27,M,,M,,*6A
06/16/2015	19:00:58.495	$GPGGA,190059,2428.9702,N,08053.5733,W,1,10,1.8,27,M,,M,,*65
06/16/2015	19:00:59.595	$GPGGA,190100,2428.9704,N,08053.5716,W,1,10,1.8,27,M,,M,,*69
06/16/2015	19:01:00.576	$GPGGA,190101,2428.9705,N,08053.5700,W,1,10,1.8,27,M,,M,,*6E
06/16/2015	19:01:01.567	$GPGGA,190102,2428.9708,N,08053.5685,W,1,10,1.8,27,M,,M,,*6C
06/16/2015	19:01:02.578	$GPGGA,190103,2428.9711,N,08053.5670,W,1,10,1.8,27,M,,M,,*6F
06/16/2015	19:01:03.615	$GPGGA,190104,2428.9713,N,08053.5654,W,1,10,1.8,27,M,,M,,*6C
06/16/2015	19:01:04.555	$GPGGA,190105,2428.9713,N,08053.5638,W,1,10,1.8,27,M,,M,,*67
06/16/2015	19:01:05.577	$GPGGA,190106,2428.9716,N,08053.5622,W,1,10,1.8,27,M,,M,,*6A
06/16/2015	19:01:06.556	$GPGGA,190107,2428.9719,N,08053.5607,W,1,10,1.8,27,M,,M,,*63
06/16/2015	19:01:07.596	$GPGGA,190108,2428.9720,N,08053.5590,W,1,10,1.8,27,M,,M,,*6B
06/16/2015	19:01:08.556	$GPGGA,190109,2428.9722,N,08053.5574,W,1,10,1.8,27,M,,M,,*62
06/16/2015	19:01:09.555	$GPGGA,190110,2428.9724,N,08053.5558,W,1,10,1.8,27,M,,M,,*62
06/16/2015	19:01:10.555	$GPGGA,190111,2428.9727,N,08053.5541,W,1,10,1.8,27,M,,M,,*68
06/16/2015	19:01:11.578	$GPGGA,190112,2428.9729,N,08053.5525,W,1,10,1.8,27,M,,M,,*67
06/16/2015	19:01:13.565	$GPGGA,190114,2428.9734,N,08053.5493,W,1,10,1.8,27,M,,M,,*61
06/16/2015	19:01:14.545	$GPGGA,190115,2428.9735,N,08053.5475,W,1,10,1.8,27,M,,M,,*69
06/16/2015	19:01:15.580	$GPGGA,190116,2428.9737,N,08053.5460,W,1,10,1.8,27,M,,M,,*6C
06/16/2015	19:01:16.535	$GPGGA,190117,2428.9738,N,08053.5443,W,1,10,1.8,27,M,,M,,*63
06/16/2015	19:01:17.568	$GPGGA,190118,2428.9742,N,08053.5426,W,1,10,1.8,27,M,,M,,*62
06/16/2015	19:01:18.535	$GPGGA,190119,2428.9744,N,08053.5410,W,1,10,1.8,27,M,,M,,*60
06/16/2015	19:01:19.555	$GPGGA,190120,2428.9745,N,08053.5395,W,1,10,1.8,27,M,,M,,*61
06/16/2015	19:01:20.535	$GPGGA,190121,2428.9748,N,08053.5378,W,1,10,1.8,27,M,,M,,*6E
06/16/2015	19:01:21.535	$GPGGA,190122,2428.9751,N,08053.5362,W,1,10,1.8,27,M,,M,,*6E
06/16/2015	19:01:22.525	$GPGGA,190123,2428.9753,N,08053.5345,W,1,10,1.8,27,M,,M,,*68
06/16/2015	19:01:23.525	$GPGGA,190124,2428.9755,N,08053.5329,W,1,10,1.8,27,M,,M,,*63
06/16/2015	19:01:24.526	$GPGGA,190125,2428.9756,N,08053.5312,W,1,10,1.8,27,M,,M,,*69
06/16/2015	19:01:25.556	$GPGGA,190126,2428.9759,N,08053.5294,W,1,10,1.8,27,M,,M,,*6A
06/16/2015	19:01:26.516	$GPGGA,190127,2428.9762,N,08053.5279,W,1,10,1.8,27,M,,M,,*60
06/16/2015	19:01:27.535	$GPGGA,190128,2428.9763,N,08053.5262,W,1,10,1.8,27,M,,M,,*64
06/16/2015	19:01:28.625	$GPGGA,190129,2428.9764,N,08053.5244,W,1,10,1.8,27,M,,M,,*66
06/16/2015	19:01:29.936	$GPGGA,190130,2428.9767,N,08053.5228,W,1,10,1.8,27,M,,M,,*67
06/16/2015	19:01:30.505	$GPGGA,190131,2428.9770,N,08053.5211,W,1,10,1.8,27,M,,M,,*6A
06/16/2015	19:01:31.635	$GPGGA,190132,2428.9771,N,08053.5194,W,1,10,1.8,27,M,,M,,*66
06/16/2015	19:01:32.515	$GPGGA,190133,2428.9774,N,08053.5178,W,1,10,1.8,27,M,,M,,*60
06/16/2015	19:01:33.505	$GPGGA,190134,2428.9777,N,08053.5161,W,1,10,1.8,27,M,,M,,*6C
06/16/2015	19:01:34.495	$GPGGA,190135,2428.9778,N,08053.5144,W,1,10,1.8,27,M,,M,,*65
06/16/2015	19:01:35.505	$GPGGA,190136,2428.9780,N,08053.5127,W,1,10,1.8,27,M,,M,,*64
06/16/2015	19:01:36.505	$GPGGA,190137,2428.9781,N,08053.5110,W,1,10,1.8,27,M,,M,,*60
06/16/2015	19:01:37.505	$GPGGA,190138,2428.9785,N,08053.5092,W,1,10,1.8,27,M,,M,,*60
06/16/2015	19:01:38.485	$GPGGA,190139,2428.9787,N,08053.5075,W,1,10,1.8,27,M,,M,,*6A
06/16/2015	19:01:39.495	$GPGGA,190140,2428.9788,N,08053.5059,W,1,10,1.8,27,M,,M,,*65
06/16/2015	19:01:41.025	$GPGGA,190141,2428.9791,N,08053.5042,W,1,10,1.8,27,M,,M,,*66
06/16/2015	19:01:41.626	$GPGGA,190142,2428.9794,N,08053.5025,W,1,10,1.8,27,M,,M,,*61
06/16/2015	19:01:42.576	$GPGGA,190143,2428.9795,N,08053.5008,W,1,10,1.8,27,M,,M,,*6E
06/16/2015	19:01:43.586	$GPGGA,190144,2428.9796,N,08053.4991,W,1,10,1.8,27,M,,M,,*62
06/16/2015	19:01:44.577	$GPGGA,190145,2428.9796,N,08053.4973,W,1,10,2.1,27,M,,M,,*65
06/16/2015	19:01:45.585	$GPGGA,190146,2428.9799,N,08053.4956,W,1,10,1.8,27,M,,M,,*64
06/16/2015	19:01:46.580	$GPGGA,190147,2428.9802,N,08053.4941,W,1,10,1.8,27,M,,M,,*6E
06/16/2015	19:01:47.485	$GPGGA,190148,2428.9803,N,08053.4924,W,1,10,1.8,27,M,,M,,*63
06/16/2015	19:01:48.555	$GPGGA,190149,2428.9803,N,08053.4906,W,1,10,2.1,27,M,,M,,*68
06/16/2015	19:01:49.585	$GPGGA,190150,2428.9807,N,08053.4891,W,1,10,1.8,27,M,,M,,*61
06/16/2015	19:01:50.566	$GPGGA,190151,2428.9810,N,08053.4876,W,1,10,1.8,26,M,,M,,*6E
06/16/2015	19:01:51.615	$GPGGA,190152,2428.9810,N,08053.4859,W,1,10,1.8,26,M,,M,,*60
06/16/2015	19:01:52.555	$GPGGA,190153,2428.9813,N,08053.4844,W,1,10,1.8,26,M,,M,,*6E
06/16/2015	19:01:53.555	$GPGGA,190154,2428.9816,N,08053.4830,W,1,10,1.8,26,M,,M,,*6F
06/16/2015	19:01:54.555	$GPGGA,190155,2428.9817,N,08053.4813,W,1,10,1.8,26,M,,M,,*6E
06/16/2015	19:01:55.575	$GPGGA,190156,2428.9818,N,08053.4798,W,1,10,1.8,26,M,,M,,*6E
06/16/2015	19:01:56.555	$GPGGA,190157,2428.9821,N,08053.4783,W,1,10,1.8,26,M,,M,,*6F
06/16/2015	19:01:57.545	$GPGGA,190158,2428.9823,N,08053.4767,W,1,10,1.8,26,M,,M,,*68
06/16/2015	19:01:58.555	$GPGGA,190159,2428.9825,N,08053.4751,W,1,10,1.8,26,M,,M,,*6A
06/16/2015	19:01:59.586	$GPGGA,190200,2428.9825,N,08053.4736,W,1,10,1.8,26,M,,M,,*64
06/16/2015	19:02:00.546	$GPGGA,190201,2428.9828,N,08053.4721,W,1,10,1.8,26,M,,M,,*6E
06/16/2015	19:02:01.556	$GPGGA,190202,2428.9831,N,08053.4704,W,1,10,1.8,26,M,,M,,*62
06/16/2015	19:02:02.545	$GPGGA,190203,2428.9832,N,08053.4688,W,1,10,1.8,26,M,,M,,*65
06/16/2015	19:02:03.566	$GPGGA,190204,2428.9832,N,08053.4673,W,1,10,1.8,26,M,,M,,*66
06/16/2015	19:02:04.525	$GPGGA,190205,2428.9836,N,08053.4657,W,1,10,1.8,26,M,,M,,*65
06/16/2015	19:02:05.525	$GPGGA,190206,2428.9836,N,08053.4642,W,1,10,1.8,26,M,,M,,*62
06/16/2015	19:02:06.535	$GPGGA,190207,2428.9836,N,08053.4625,W,1,10,1.8,26,M,,M,,*62
06/16/2015	19:02:07.555	$GPGGA,190208,2428.9839,N,08053.4610,W,1,10,1.8,26,M,,M,,*64
06/16/2015	19:02:08.525	$GPGGA,190209,2428.9843,N,08053.4595,W,1,10,1.8,26,M,,M,,*66
06/16/2015	19:02:09.555	$GPGGA,190210,2428.9843,N,08053.4578,W,1,10,1.8,26,M,,M,,*6D
06/16/2015	19:02:10.525	$GPGGA,190211,2428.9845,N,08053.4563,W,1,10,1.7,26,M,,M,,*6F
06/16/2015	19:02:11.535	$GPGGA,190212,2428.9847,N,08053.4548,W,1,10,1.7,26,M,,M,,*67
06/16/2015	19:02:12.525	$GPGGA,190213,2428.9849,N,08053.4531,W,1,10,1.7,26,M,,M,,*66
06/16/2015	19:02:13.545	$GPGGA,190214,2428.9850,N,08053.4516,W,1,10,1.7,26,M,,M,,*6C
06/16/2015	19:02:14.805	$GPGGA,190215,2428.9853,N,08053.4500,W,1,10,1.7,26,M,,M,,*69
06/16/2015	19:02:15.645	$GPGGA,190216,2428.9854,N,08053.4483,W,1,10,1.7,26,M,,M,,*67
06/16/2015	19:02:16.506	$GPGGA,190217,2428.9856,N,08053.4469,W,1,10,1.7,26,M,,M,,*60
06/16/2015	19:02:17.496	$GPGGA,190218,2428.9860,N,08053.4453,W,1,10,1.7,26,M,,M,,*63
06/16/2015	19:02:18.516	$GPGGA,190219,2428.9861,N,08053.4436,W,1,10,1.7,26,M,,M,,*60
06/16/2015	19:02:19.555	$GPGGA,190220,2428.9861,N,08053.4420,W,1,10,1.7,26,M,,M,,*6D
06/16/2015	19:02:20.505	$GPGGA,190221,2428.9865,N,08053.4406,W,1,10,1.7,26,M,,M,,*6C
06/16/2015	19:02:21.515	$GPGGA,190222,2428.9867,N,08053.4390,W,1,10,1.7,26,M,,M,,*65
06/16/2015	19:02:22.605	$GPGGA,190223,2428.9868,N,08053.4373,W,1,10,1.7,26,M,,M,,*66
06/16/2015	19:02:23.625	$GPGGA,190224,2428.9870,N,08053.4358,W,1,10,1.7,26,M,,M,,*61
06/16/2015	19:02:24.505	$GPGGA,190225,2428.9872,N,08053.4343,W,1,10,1.7,26,M,,M,,*68
06/16/2015	19:02:25.625	$GPGGA,190226,2428.9874,N,08053.4326,W,1,10,1.7,26,M,,M,,*6E
06/16/2015	19:02:26.595	$GPGGA,190227,2428.9875,N,08053.4311,W,1,10,1.7,26,M,,M,,*6A
06/16/2015	19:02:27.505	$GPGGA,190228,2428.9878,N,08053.4295,W,1,10,1.7,26,M,,M,,*65
06/16/2015	19:02:28.495	$GPGGA,190229,2428.9879,N,08053.4279,W,1,10,1.7,26,M,,M,,*67
06/16/2015	19:02:29.585	$GPGGA,190230,2428.9882,N,08053.4263,W,1,10,1.7,26,M,,M,,*60
06/16/2015	19:02:30.575	$GPGGA,190231,2428.9883,N,08053.4246,W,1,10,1.7,26,M,,M,,*67
06/16/2015	19:02:31.615	$GPGGA,190232,2428.9885,N,08053.4230,W,1,10,1.7,26,M,,M,,*63
06/16/2015	19:02:32.571	$GPGGA,190233,2428.9886,N,08053.4215,W,1,10,1.7,26,M,,M,,*66
06/16/2015	19:02:33.605	$GPGGA,190234,2428.9888,N,08053.4198,W,1,10,1.7,26,M,,M,,*69
06/16/2015	19:02:34.575	$GPGGA,190235,2428.9890,N,08053.4182,W,1,10,1.7,26,M,,M,,*6A
06/16/2015	19:02:35.636	$GPGGA,190236,2428.9890,N,08053.4166,W,1,10,1.7,26,M,,M,,*63
06/16/2015	19:02:36.573	$GPGGA,190237,2428.9892,N,08053.4150,W,1,10,1.7,26,M,,M,,*65
06/16/2015	19:02:37.576	$GPGGA,190238,2428.9893,N,08053.4133,W,1,10,1.7,26,M,,M,,*6E
06/16/2015	19:02:38.567	$GPGGA,190239,2428.9894,N,08053.4117,W,1,10,1.7,26,M,,M,,*6E
06/16/2015	19:02:39.595	$GPGGA,190240,2428.9897,N,08053.4101,W,1,10,1.7,26,M,,M,,*64
06/16/2015	19:02:40.571	$GPGGA,190241,2428.9897,N,08053.4085,W,1,10,1.7,26,M,,M,,*68
06/16/2015	19:02:41.545	$GPGGA,190242,2428.9900,N,08053.4067,W,1,10,1.7,26,M,,M,,*68
06/16/2015	19:02:42.555	$GPGGA,190243,2428.9901,N,08053.4052,W,1,10,1.7,26,M,,M,,*6E
06/16/2015	19:02:43.578	$GPGGA,190244,2428.9903,N,08053.4036,W,1,10,1.7,26,M,,M,,*69
06/16/2015	19:02:44.555	$GPGGA,190245,2428.9904,N,08053.4019,W,1,10,1.7,26,M,,M,,*62
06/16/2015	19:02:45.555	$GPGGA,190246,2428.9907,N,08053.4003,W,1,10,1.7,26,M,,M,,*69
06/16/2015	19:02:46.545	$GPGGA,190247,2428.9908,N,08053.3987,W,1,10,1.7,26,M,,M,,*65
06/16/2015	19:02:47.577	$GPGGA,190248,2428.9910,N,08053.3971,W,1,10,1.7,26,M,,M,,*6A
06/16/2015	19:02:48.545	$GPGGA,190249,2428.9911,N,08053.3954,W,1,10,1.7,26,M,,M,,*6D
06/16/2015	19:02:49.535	$GPGGA,190250,2428.9915,N,08053.3939,W,1,10,1.7,26,M,,M,,*6A
06/16/2015	19:02:50.545	$GPGGA,190251,2428.9917,N,08053.3922,W,1,10,1.7,26,M,,M,,*63
06/16/2015	19:02:51.566	$GPGGA,190252,2428.9918,N,08053.3906,W,1,10,1.7,26,M,,M,,*69
06/16/2015	19:02:52.546	$GPGGA,190253,2428.9919,N,08053.3890,W,1,10,1.7,26,M,,M,,*67
06/16/2015	19:02:53.556	$GPGGA,190254,2428.9922,N,08053.3874,W,1,10,1.7,26,M,,M,,*62
06/16/2015	19:02:54.525	$GPGGA,190255,2428.9924,N,08053.3857,W,1,10,1.7,26,M,,M,,*64
06/16/2015	19:02:55.535	$GPGGA,190256,2428.9925,N,08053.3841,W,1,10,1.7,25,M,,M,,*62
06/16/2015	19:02:56.535	$GPGGA,190257,2428.9928,N,08053.3824,W,1,10,1.7,25,M,,M,,*6D
06/16/2015	19:02:57.535	$GPGGA,190258,2428.9930,N,08053.3808,W,1,10,1.7,25,M,,M,,*65
06/16/2015	19:02:58.535	$GPGGA,190259,2428.9930,N,08053.3791,W,1,10,1.7,25,M,,M,,*6B
06/16/2015	19:02:59.615	$GPGGA,190300,2428.9930,N,08053.3775,W,1,10,1.7,25,M,,M,,*6C
06/16/2015	19:03:00.535	$GPGGA,190301,2428.9935,N,08053.3758,W,1,10,1.7,25,M,,M,,*67
06/16/2015	19:03:01.545	$GPGGA,190302,2428.9936,N,08053.3741,W,1,10,1.7,25,M,,M,,*6F
06/16/2015	19:03:02.525	$GPGGA,190303,2428.9937,N,08053.3725,W,1,10,1.7,25,M,,M,,*6D
06/16/2015	19:03:03.625	$GPGGA,190304,2428.9939,N,08053.3708,W,1,10,1.7,25,M,,M,,*6B
06/16/2015	19:03:04.545	$GPGGA,190305,2428.9941,N,08053.3691,W,1,10,1.7,25,M,,M,,*64
06/16/2015	19:03:05.635	$GPGGA,190306,2428.9943,N,08053.3674,W,1,10,1.7,25,M,,M,,*6E
06/16/2015	19:03:06.515	$GPGGA,190307,2428.9944,N,08053.3657,W,1,10,1.7,25,M,,M,,*69
06/16/2015	19:03:07.605	$GPGGA,190308,2428.9946,N,08053.3641,W,1,10,1.7,25,M,,M,,*63
06/16/2015	19:03:08.525	$GPGGA,190309,2428.9948,N,08053.3623,W,1,10,1.7,25,M,,M,,*68
06/16/2015	19:03:09.616	$GPGGA,190310,2428.9951,N,08053.3606,W,1,10,1.8,25,M,,M,,*60
06/16/2015	19:03:10.506	$GPGGA,190311,2428.9954,N,08053.3589,W,1,10,1.7,25,M,,M,,*6F
06/16/2015	19:03:11.606	$GPGGA,190312,2428.9955,N,08053.3571,W,1,10,1.7,25,M,,M,,*6A
06/16/2015	19:03:12.495	$GPGGA,190313,2428.9958,N,08053.3554,W,1,10,1.7,25,M,,M,,*61
06/16/2015	19:03:13.495	$GPGGA,190314,2428.9959,N,08053.3537,W,1,10,1.7,25,M,,M,,*62
06/16/2015	19:03:14.591	$GPGGA,190315,2428.9961,N,08053.3520,W,1,10,1.7,25,M,,M,,*6E
06/16/2015	19:03:15.625	$GPGGA,190316,2428.9962,N,08053.3504,W,1,10,1.7,25,M,,M,,*68
06/16/2015	19:03:16.588	$GPGGA,190317,2428.9965,N,08053.3487,W,1,10,1.7,25,M,,M,,*64
06/16/2015	19:03:17.576	$GPGGA,190318,2428.9968,N,08053.3470,W,1,10,1.7,25,M,,M,,*6E
06/16/2015	19:03:18.578	$GPGGA,190319,2428.9967,N,08053.3452,W,1,10,1.7,25,M,,M,,*60
06/16/2015	19:03:19.579	$GPGGA,190320,2428.9969,N,08053.3436,W,1,10,1.7,25,M,,M,,*66
06/16/2015	19:03:20.572	$GPGGA,190321,2428.9973,N,08053.3419,W,1,10,1.7,25,M,,M,,*61
06/16/2015	19:03:21.566	$GPGGA,190322,2428.9976,N,08053.3401,W,1,10,1.7,25,M,,M,,*6E
06/16/2015	19:03:22.578	$GPGGA,190323,2428.9975,N,08053.3383,W,1,10,1.7,25,M,,M,,*61
06/16/2015	19:03:23.605	$GPGGA,190324,2428.9977,N,08053.3367,W,1,10,1.7,25,M,,M,,*6E
06/16/2015	19:03:24.572	$GPGGA,190325,2428.9980,N,08053.3350,W,1,10,1.7,25,M,,M,,*63
06/16/2015	19:03:25.937	$GPGGA,190326,2428.9983,N,08053.3331,W,1,10,1.7,25,M,,M,,*64
06/16/2015	19:03:26.570	$GPGGA,190327,2428.9984,N,08053.3315,W,1,10,1.7,25,M,,M,,*64
06/16/2015	19:03:27.606	$GPGGA,190328,2428.9987,N,08053.3299,W,1,10,1.7,25,M,,M,,*6D
06/16/2015	19:03:28.556	$GPGGA,190329,2428.9988,N,08053.3281,W,1,10,1.7,24,M,,M,,*6B
06/16/2015	19:03:29.545	$GPGGA,190330,2428.9991,N,08053.3264,W,1,10,1.7,24,M,,M,,*60
06/16/2015	19:03:30.545	$GPGGA,190331,2428.9991,N,08053.3249,W,1,10,1.7,24,M,,M,,*6E
06/16/2015	19:03:31.585	$GPGGA,190332,2428.9995,N,08053.3232,W,1,10,1.7,24,M,,M,,*65
06/16/2015	19:03:32.545	$GPGGA,190333,2428.9997,N,08053.3214,W,1,10,1.7,24,M,,M,,*62
06/16/2015	19:03:33.566	$GPGGA,190334,2428.9998,N,08053.3198,W,1,10,1.7,24,M,,M,,*6D
06/16/2015	19:03:34.545	$GPGGA,190335,2429.0002,N,08053.3182,W,1,10,1.7,24,M,,M,,*65
06/16/2015	19:03:35.555	$GPGGA,190336,2429.0002,N,08053.3165,W,1,10,1.7,24,M,,M,,*6F
06/16/2015	19:03:36.545	$GPGGA,190337,2429.0004,N,08053.3148,W,1,10,1.7,24,M,,M,,*67
06/16/2015	19:03:37.525	$GPGGA,190338,2429.0006,N,08053.3133,W,1,10,1.7,24,M,,M,,*66
06/16/2015	19:03:38.535	$GPGGA,190339,2429.0009,N,08053.3116,W,1,10,1.7,24,M,,M,,*6F
06/16/2015	19:03:39.555	$GPGGA,190340,2429.0009,N,08053.3099,W,1,10,1.7,24,M,,M,,*67
06/16/2015	19:03:40.535	$GPGGA,190341,2429.0013,N,08053.3084,W,1,10,1.7,24,M,,M,,*61
06/16/2015	19:03:41.555	$GPGGA,190342,2429.0015,N,08053.3068,W,1,10,1.7,24,M,,M,,*66
06/16/2015	19:03:42.525	$GPGGA,190343,2429.0018,N,08053.3051,W,1,10,1.7,24,M,,M,,*60
06/16/2015	19:03:43.568	$GPGGA,190344,2429.0019,N,08053.3035,W,1,10,1.7,24,M,,M,,*64
06/16/2015	19:03:44.516	$GPGGA,190345,2429.0020,N,08053.3019,W,1,10,1.7,24,M,,M,,*61
06/16/2015	19:03:45.556	$GPGGA,190346,2429.0023,N,08053.3002,W,1,10,1.7,24,M,,M,,*6B
06/16/2015	19:03:46.516	$GPGGA,190347,2429.0026,N,08053.2985,W,1,10,1.7,24,M,,M,,*68
06/16/2015	19:03:47.647	$GPGGA,190348,2429.0027,N,08053.2969,W,1,10,1.7,24,M,,M,,*64
06/16/2015	19:03:48.625	$GPGGA,190349,2429.0030,N,08053.2953,W,1,10,1.7,24,M,,M,,*6A
06/16/2015	19:03:49.525	$GPGGA,190350,2429.0033,N,08053.2937,W,1,10,1.7,24,M,,M,,*63
06/16/2015	19:03:50.515	$GPGGA,190351,2429.0032,N,08053.2920,W,1,10,1.7,24,M,,M,,*65
06/16/2015	19:03:51.625	$GPGGA,190352,2429.0034,N,08053.2903,W,1,10,1.7,24,M,,M,,*61
06/16/2015	19:03:52.505	$GPGGA,190353,2429.0038,N,08053.2887,W,1,10,1.7,24,M,,M,,*61
06/16/2015	19:03:53.525	$GPGGA,190354,2429.0041,N,08053.2872,W,1,10,1.7,24,M,,M,,*62
06/16/2015	19:03:54.505	$GPGGA,190355,2429.0040,N,08053.2855,W,1,10,1.7,24,M,,M,,*67
06/16/2015	19:03:55.625	$GPGGA,190356,2429.0042,N,08053.2838,W,1,10,1.7,24,M,,M,,*6D
06/16/2015	19:03:56.505	$GPGGA,190357,2429.0045,N,08053.2822,W,1,10,1.7,24,M,,M,,*60
06/16/2015	19:03:57.615	$GPGGA,190358,2429.0048,N,08053.2805,W,1,10,1.7,24,M,,M,,*67
06/16/2015	19:03:58.515	$GPGGA,190359,2429.0047,N,08053.2788,W,1,10,1.7,24,M,,M,,*63
06/16/2015	19:03:59.665	$GPGGA,190400,2429.0049,N,08053.2772,W,1,10,1.7,24,M,,M,,*63
06/16/2015	19:04:00.495	$GPGGA,190401,2429.0052,N,08053.2755,W,1,10,1.7,24,M,,M,,*6D
06/16/2015	19:04:01.496	$GPGGA,190402,2429.0056,N,08053.2740,W,1,10,1.7,24,M,,M,,*6E
06/16/2015	19:04:02.576	$GPGGA,190403,2429.0056,N,08053.2722,W,1,10,1.7,24,M,,M,,*6B
06/16/2015	19:04:03.506	$GPGGA,190404,2429.0059,N,08053.2706,W,1,10,1.7,24,M,,M,,*65
06/16/2015	19:04:04.495	$GPGGA,190405,2429.0060,N,08053.2690,W,1,10,1.7,24,M,,M,,*60
06/16/2015	19:04:05.576	$GPGGA,190406,2429.0063,N,08053.2672,W,1,9,2.0,24,M,,M,,*50
06/16/2015	19:04:06.575	$GPGGA,190407,2429.0061,N,08053.2657,W,1,9,1.8,24,M,,M,,*5F
06/16/2015	19:04:07.575	$GPGGA,190408,2429.0066,N,08053.2643,W,1,10,1.7,24,M,,M,,*65
06/16/2015	19:04:08.577	$GPGGA,190409,2429.0070,N,08053.2627,W,1,10,1.7,24,M,,M,,*61
06/16/2015	19:04:09.568	$GPGGA,190410,2429.0069,N,08053.2610,W,1,10,1.7,24,M,,M,,*65
06/16/2015	19:04:10.567	$GPGGA,190411,2429.0074,N,08053.2595,W,1,10,1.7,24,M,,M,,*66
06/16/2015	19:04:11.595	$GPGGA,190412,2429.0078,N,08053.2580,W,1,10,1.7,24,M,,M,,*6D
06/16/2015	19:04:12.565	$GPGGA,190413,2429.0078,N,08053.2565,W,1,10,1.7,24,M,,M,,*67
06/16/2015	19:04:13.545	$GPGGA,190414,2429.0081,N,08053.2548,W,1,10,1.7,24,M,,M,,*69
06/16/2015	19:04:14.566	$GPGGA,190415,2429.0084,N,08053.2533,W,1,10,1.8,24,M,,M,,*6E
06/16/2015	19:04:15.595	$GPGGA,190416,2429.0085,N,08053.2519,W,1,10,1.7,24,M,,M,,*6B
06/16/2015	19:04:16.545	$GPGGA,190417,2429.0088,N,08053.2502,W,1,10,1.7,24,M,,M,,*6D
06/16/2015	19:04:17.585	$GPGGA,190418,2429.0089,N,08053.2487,W,1,10,1.7,24,M,,M,,*6F
06/16/2015	19:04:18.555	$GPGGA,190419,2429.0091,N,08053.2473,W,1,10,1.7,24,M,,M,,*6C
06/16/2015	19:04:19.576	$GPGGA,190420,2429.0094,N,08053.2457,W,1,10,1.7,24,M,,M,,*65
06/16/2015	19:04:20.536	$GPGGA,190421,2429.0095,N,08053.2441,W,1,10,1.7,24,M,,M,,*62
06/16/2015	19:04:21.570	$GPGGA,190422,2429.0094,N,08053.2425,W,1,10,1.7,24,M,,M,,*62
06/16/2015	19:04:22.545	$GPGGA,190423,2429.0098,N,08053.2410,W,1,10,1.7,24,M,,M,,*69
06/16/2015	19:04:23.578	$GPGGA,190424,2429.0099,N,08053.2394,W,1,10,1.7,25,M,,M,,*65
06/16/2015	19:04:24.535	$GPGGA,190425,2429.0102,N,08053.2378,W,1,10,1.7,25,M,,M,,*65
06/16/2015	19:04:25.535	$GPGGA,190426,2429.0103,N,08053.2363,W,1,10,1.7,25,M,,M,,*6D
06/16/2015	19:04:26.535	$GPGGA,190427,2429.0105,N,08053.2347,W,1,10,1.7,25,M,,M,,*6C
06/16/2015	19:04:27.535	$GPGGA,190428,2429.0107,N,08053.2330,W,1,10,1.7,25,M,,M,,*61
06/16/2015	19:04:28.535	$GPGGA,190429,2429.0109,N,08053.2313,W,1,10,1.7,25,M,,M,,*6F
06/16/2015	19:04:29.555	$GPGGA,190430,2429.0110,N,08053.2298,W,1,10,1.7,25,M,,M,,*6D
06/16/2015	19:04:30.525	$GPGGA,190431,2429.0112,N,08053.2282,W,1,10,1.7,25,M,,M,,*65
06/16/2015	19:04:31.545	$GPGGA,190432,2429.0114,N,08053.2265,W,1,10,1.7,25,M,,M,,*69
06/16/2015	19:04:32.525	$GPGGA,190433,2429.0114,N,08053.2248,W,1,10,1.7,25,M,,M,,*67
06/16/2015	19:04:33.625	$GPGGA,190434,2429.0117,N,08053.2233,W,1,10,1.7,25,M,,M,,*6F
06/16/2015	19:04:34.525	$GPGGA,190435,2429.0121,N,08053.2216,W,1,10,1.7,26,M,,M,,*6F
06/16/2015	19:04:35.535	$GPGGA,190436,2429.0121,N,08053.2199,W,1,10,1.7,26,M,,M,,*68
06/16/2015	19:04:36.516	$GPGGA,190437,2429.0124,N,08053.2183,W,1,10,1.7,26,M,,M,,*67
06/16/2015	19:04:37.516	$GPGGA,190438,2429.0127,N,08053.2168,W,1,10,1.7,26,M,,M,,*6E
06/16/2015	19:04:38.496	$GPGGA,190439,2429.0128,N,08053.2150,W,1,10,1.7,26,M,,M,,*6B
06/16/2015	19:04:39.635	$GPGGA,190440,2429.0130,N,08053.2134,W,1,10,1.7,26,M,,M,,*6E
06/16/2015	19:04:40.505	$GPGGA,190441,2429.0132,N,08053.2118,W,1,10,1.7,26,M,,M,,*63
06/16/2015	19:04:41.625	$GPGGA,190442,2429.0135,N,08053.2102,W,1,10,1.7,26,M,,M,,*6C
06/16/2015	19:04:42.505	$GPGGA,190443,2429.0135,N,08053.2085,W,1,10,1.7,26,M,,M,,*63
06/16/2015	19:04:43.595	$GPGGA,190444,2429.0138,N,08053.2069,W,1,10,1.7,26,M,,M,,*6B
06/16/2015	19:04:44.585	$GPGGA,190445,2429.0141,N,08053.2054,W,1,10,1.7,26,M,,M,,*6A
06/16/2015	19:04:45.625	$GPGGA,190446,2429.0143,N,08053.2037,W,1,10,1.7,26,M,,M,,*6E
06/16/2015	19:04:46.585	$GPGGA,190447,2429.0143,N,08053.2020,W,1,10,1.7,26,M,,M,,*69
06/16/2015	19:04:47.605	$GPGGA,190448,2429.0148,N,08053.2004,W,1,10,1.7,26,M,,M,,*6B
06/16/2015	19:04:48.575	$GPGGA,190449,2429.0150,N,08053.1988,W,1,10,1.7,26,M,,M,,*6D
06/16/2015	19:04:49.605	$GPGGA,190450,2429.0152,N,08053.1971,W,1,10,1.7,26,M,,M,,*61
06/16/2015	19:04:50.585	$GPGGA,190451,2429.0154,N,08053.1955,W,1,10,1.7,26,M,,M,,*60
06/16/2015	19:04:51.615	$GPGGA,190452,2429.0157,N,08053.1940,W,1,10,1.7,26,M,,M,,*64
06/16/2015	19:04:52.575	$GPGGA,190453,2429.0160,N,08053.1924,W,1,10,1.7,26,M,,M,,*63
06/16/2015	19:04:53.566	$GPGGA,190454,2429.0161,N,08053.1906,W,1,10,1.7,26,M,,M,,*65
06/16/2015	19:04:54.576	$GPGGA,190455,2429.0164,N,08053.1892,W,1,10,1.7,27,M,,M,,*6C
06/16/2015	19:04:55.606	$GPGGA,190456,2429.0167,N,08053.1877,W,1,10,1.7,27,M,,M,,*67
06/16/2015	19:04:56.565	$GPGGA,190457,2429.0168,N,08053.1859,W,1,10,1.7,27,M,,M,,*65
06/16/2015	19:04:57.585	$GPGGA,190458,2429.0170,N,08053.1844,W,1,10,1.7,27,M,,M,,*6F
06/16/2015	19:04:58.555	$GPGGA,190459,2429.0172,N,08053.1829,W,1,10,1.7,27,M,,M,,*67
06/16/2015	19:04:59.595	$GPGGA,190500,2429.0175,N,08053.1813,W,1,10,1.7,27,M,,M,,*64
06/16/2015	19:05:00.568	$GPGGA,190501,2429.0177,N,08053.1797,W,1,10,1.7,27,M,,M,,*64
06/16/2015	19:05:01.585	$GPGGA,190502,2429.0179,N,08053.1781,W,1,10,1.7,27,M,,M,,*6E
06/16/2015	19:05:02.555	$GPGGA,190503,2429.0182,N,08053.1766,W,1,10,1.7,27,M,,M,,*62
06/16/2015	19:05:03.586	$GPGGA,190504,2429.0182,N,08053.1749,W,1,10,1.7,27,M,,M,,*68
06/16/2015	19:05:04.545	$GPGGA,190505,2429.0183,N,08053.1733,W,1,10,1.7,27,M,,M,,*65
06/16/2015	19:05:05.535	$GPGGA,190506,2429.0188,N,08053.1718,W,1,10,1.7,27,M,,M,,*64
06/16/2015	19:05:06.545	$GPGGA,190507,2429.0190,N,08053.1702,W,1,10,1.7,27,M,,M,,*67
06/16/2015	19:05:07.575	$GPGGA,190508,2429.0192,N,08053.1686,W,1,10,1.7,27,M,,M,,*67
06/16/2015	19:05:08.536	$GPGGA,190509,2429.0193,N,08053.1670,W,1,10,1.7,27,M,,M,,*6E
06/16/2015	19:05:09.525	$GPGGA,190510,2429.0197,N,08053.1654,W,1,10,1.7,27,M,,M,,*64
06/16/2015	19:05:10.535	$GPGGA,190511,2429.0200,N,08053.1638,W,1,10,1.7,27,M,,M,,*62
06/16/2015	19:05:11.562	$GPGGA,190512,2429.0199,N,08053.1621,W,1,10,1.7,27,M,,M,,*6A
06/16/2015	19:05:12.535	$GPGGA,190513,2429.0201,N,08053.1604,W,1,10,1.7,26,M,,M,,*6F
06/16/2015	19:05:13.515	$GPGGA,190514,2429.0206,N,08053.1589,W,1,10,1.7,26,M,,M,,*69
06/16/2015	19:05:14.524	$GPGGA,190515,2429.0208,N,08053.1573,W,1,10,1.7,26,M,,M,,*63
06/16/2015	19:05:15.560	$GPGGA,190516,2429.0210,N,08053.1556,W,1,10,1.7,26,M,,M,,*6E
06/16/2015	19:05:16.514	$GPGGA,190517,2429.0211,N,08053.1539,W,1,10,1.7,26,M,,M,,*67
06/16/2015	19:05:17.534	$GPGGA,190518,2429.0214,N,08053.1523,W,1,10,1.7,26,M,,M,,*66
06/16/2015	19:05:18.504	$GPGGA,190519,2429.0217,N,08053.1506,W,1,10,1.7,26,M,,M,,*63
06/16/2015	19:05:19.565	$GPGGA,190520,2429.0219,N,08053.1489,W,1,10,1.7,26,M,,M,,*61
06/16/2015	19:05:20.644	$GPGGA,190521,2429.0219,N,08053.1473,W,1,10,1.7,26,M,,M,,*65
06/16/2015	19:05:21.524	$GPGGA,190522,2429.0222,N,08053.1457,W,1,10,1.7,26,M,,M,,*68
06/16/2015	19:05:22.505	$GPGGA,190523,2429.0226,N,08053.1440,W,1,10,1.7,26,M,,M,,*6B
06/16/2015	19:05:23.695	$GPGGA,190524,2429.0229,N,08053.1423,W,1,10,1.7,26,M,,M,,*66
06/16/2015	19:05:24.535	$GPGGA,190525,2429.0229,N,08053.1407,W,1,10,1.7,26,M,,M,,*61
06/16/2015	19:05:25.685	$GPGGA,190526,2429.0233,N,08053.1391,W,1,10,1.7,26,M,,M,,*61
06/16/2015	19:05:26.505	$GPGGA,190527,2429.0236,N,08053.1373,W,1,10,1.7,26,M,,M,,*69
06/16/2015	19:05:27.505	$GPGGA,190528,2429.0237,N,08053.1357,W,1,10,1.7,26,M,,M,,*61
06/16/2015	19:05:28.495	$GPGGA,190529,2429.0239,N,08053.1341,W,1,10,1.7,26,M,,M,,*69
06/16/2015	19:05:29.675	$GPGGA,190530,2429.0240,N,08053.1323,W,1,10,1.7,25,M,,M,,*68
06/16/2015	19:05:30.575	$GPGGA,190531,2429.0244,N,08053.1306,W,1,10,1.7,25,M,,M,,*6A
06/16/2015	19:05:31.504	$GPGGA,190532,2429.0247,N,08053.1291,W,1,10,1.7,25,M,,M,,*65
06/16/2015	19:05:32.484	$GPGGA,190533,2429.0250,N,08053.1273,W,1,10,1.7,25,M,,M,,*6E
06/16/2015	19:05:33.484	$GPGGA,190534,2429.0253,N,08053.1256,W,1,10,1.7,25,M,,M,,*6D
06/16/2015	19:05:34.614	$GPGGA,190535,2429.0255,N,08053.1241,W,1,10,1.7,25,M,,M,,*6C
06/16/2015	19:05:35.584	$GPGGA,190536,2429.0258,N,08053.1225,W,1,10,1.7,25,M,,M,,*60
06/16/2015	19:05:36.574	$GPGGA,190537,2429.0258,N,08053.1208,W,1,10,1.7,25,M,,M,,*6E
06/16/2015	19:05:37.661	$GPGGA,190538,2429.0262,N,08053.1192,W,1,10,1.7,25,M,,M,,*68
06/16/2015	19:05:38.567	$GPGGA,190539,2429.0266,N,08053.1178,W,1,10,1.7,25,M,,M,,*69
06/16/2015	19:05:39.670	$GPGGA,190540,2429.0266,N,08053.1161,W,1,9,1.7,25,M,,M,,*57
06/16/2015	19:05:40.585	$GPGGA,190541,2429.0266,N,08053.1147,W,1,9,1.7,25,M,,M,,*52
06/16/2015	19:05:41.570	$GPGGA,190542,2429.0266,N,08053.1135,W,1,10,1.7,25,M,,M,,*6C
06/16/2015	19:05:42.870	$GPGGA,190543,2429.0269,N,08053.1119,W,1,10,1.7,25,M,,M,,*6C
06/16/2015	19:05:43.675	$GPGGA,190544,2429.0269,N,08053.1104,W,1,10,1.7,25,M,,M,,*67
06/16/2015	19:05:44.585	$GPGGA,190545,2429.0271,N,08053.1089,W,1,10,1.7,25,M,,M,,*6B
06/16/2015	19:05:45.645	$GPGGA,190546,2429.0273,N,08053.1074,W,1,10,1.7,25,M,,M,,*68
06/16/2015	19:05:46.575	$GPGGA,190547,2429.0275,N,08053.1059,W,1,10,1.7,25,M,,M,,*60
06/16/2015	19:05:47.657	$GPGGA,190548,2429.0276,N,08053.1043,W,1,10,1.7,25,M,,M,,*67
06/16/2015	19:05:48.568	$GPGGA,190549,2429.0276,N,08053.1028,W,1,10,1.7,25,M,,M,,*6B
06/16/2015	19:05:49.534	$GPGGA,190550,2429.0279,N,08053.1013,W,1,10,1.7,25,M,,M,,*64
06/16/2015	19:05:50.574	$GPGGA,190551,2429.0280,N,08053.0998,W,1,10,1.7,25,M,,M,,*68
06/16/2015	19:05:51.661	$GPGGA,190552,2429.0282,N,08053.0982,W,1,10,1.7,25,M,,M,,*62
06/16/2015	19:05:52.534	$GPGGA,190553,2429.0284,N,08053.0966,W,1,10,1.7,25,M,,M,,*6F
06/16/2015	19:05:53.614	$GPGGA,190554,2429.0286,N,08053.0952,W,1,10,1.7,25,M,,M,,*6D
06/16/2015	19:05:54.555	$GPGGA,190555,2429.0287,N,08053.0935,W,1,10,1.7,25,M,,M,,*6C
06/16/2015	19:05:55.644	$GPGGA,190556,2429.0289,N,08053.0919,W,1,10,1.7,26,M,,M,,*6C
06/16/2015	19:05:56.567	$GPGGA,190557,2429.0291,N,08053.0904,W,1,10,1.7,26,M,,M,,*68
06/16/2015	19:05:57.525	$GPGGA,190558,2429.0293,N,08053.0888,W,1,10,1.7,26,M,,M,,*60
06/16/2015	19:05:58.569	$GPGGA,190559,2429.0294,N,08053.0872,W,1,10,1.7,26,M,,M,,*63
06/16/2015	19:05:59.655	$GPGGA,190600,2429.0297,N,08053.0855,W,1,10,1.7,26,M,,M,,*6A
06/16/2015	19:06:00.545	$GPGGA,190601,2429.0298,N,08053.0839,W,1,10,1.7,26,M,,M,,*6E
06/16/2015	19:06:01.515	$GPGGA,190602,2429.0300,N,08053.0823,W,1,10,1.7,26,M,,M,,*66
06/16/2015	19:06:02.561	$GPGGA,190603,2429.0302,N,08053.0806,W,1,10,1.7,26,M,,M,,*62
06/16/2015	19:06:03.635	$GPGGA,190604,2429.0305,N,08053.0790,W,1,10,1.7,26,M,,M,,*62
06/16/2015	19:06:04.515	$GPGGA,190605,2429.0307,N,08053.0775,W,1,10,1.7,26,M,,M,,*6A
06/16/2015	19:06:05.615	$GPGGA,190606,2429.0308,N,08053.0756,W,1,10,2.0,26,M,,M,,*63
06/16/2015	19:06:06.504	$GPGGA,190607,2429.0311,N,08053.0740,W,1,10,2.0,26,M,,M,,*6D
06/16/2015	19:06:07.624	$GPGGA,190608,2429.0312,N,08053.0724,W,1,10,1.7,26,M,,M,,*67
06/16/2015	19:06:08.561	$GPGGA,190609,2429.0313,N,08053.0707,W,1,10,2.0,26,M,,M,,*62
06/16/2015	19:06:09.614	$GPGGA,190610,2429.0315,N,08053.0690,W,1,9,1.7,26,M,,M,,*5F
06/16/2015	19:06:10.524	$GPGGA,190611,2429.0319,N,08053.0675,W,1,9,1.7,26,M,,M,,*59
06/16/2015	19:06:11.604	$GPGGA,190612,2429.0320,N,08053.0658,W,1,10,2.0,26,M,,M,,*63
06/16/2015	19:06:12.524	$GPGGA,190613,2429.0323,N,08053.0642,W,1,10,1.7,26,M,,M,,*6E
06/16/2015	19:06:13.567	$GPGGA,190614,2429.0323,N,08053.0624,W,1,10,2.0,26,M,,M,,*6D
06/16/2015	19:06:14.525	$GPGGA,190615,2429.0327,N,08053.0609,W,1,10,2.3,26,M,,M,,*64
06/16/2015	19:06:15.575	$GPGGA,190616,2429.0331,N,08053.0592,W,1,9,1.7,26,M,,M,,*5E
06/16/2015	19:06:16.575	$GPGGA,190617,2429.0334,N,08053.0575,W,1,9,1.7,26,M,,M,,*53
06/16/2015	19:06:17.605	$GPGGA,190618,2429.0338,N,08053.0558,W,1,10,1.7,26,M,,M,,*67
06/16/2015	19:06:18.525	$GPGGA,190619,2429.0338,N,08053.0541,W,1,10,1.7,26,M,,M,,*6E
06/16/2015	19:06:19.605	$GPGGA,190620,2429.0341,N,08053.0524,W,1,10,1.7,26,M,,M,,*69
06/16/2015	19:06:20.525	$GPGGA,190621,2429.0344,N,08053.0507,W,1,10,1.7,26,M,,M,,*6C
06/16/2015	19:06:21.585	$GPGGA,190622,2429.0345,N,08053.0491,W,1,10,1.7,26,M,,M,,*60
06/16/2015	19:06:22.575	$GPGGA,190623,2429.0349,N,08053.0475,W,1,10,1.7,26,M,,M,,*67
06/16/2015	19:06:23.615	$GPGGA,190624,2429.0349,N,08053.0457,W,1,10,1.7,26,M,,M,,*60
06/16/2015	19:06:24.568	$GPGGA,190625,2429.0352,N,08053.0440,W,1,10,1.7,26,M,,M,,*6D
06/16/2015	19:06:25.569	$GPGGA,190626,2429.0355,N,08053.0424,W,1,10,1.7,26,M,,M,,*6B
06/16/2015	19:06:26.574	$GPGGA,190627,2429.0356,N,08053.0405,W,1,10,1.7,26,M,,M,,*6A
06/16/2015	19:06:27.634	$GPGGA,190628,2429.0356,N,08053.0389,W,1,10,1.7,26,M,,M,,*66
06/16/2015	19:06:28.563	$GPGGA,190629,2429.0359,N,08053.0372,W,1,10,1.7,26,M,,M,,*6C
06/16/2015	19:06:29.624	$GPGGA,190630,2429.0363,N,08053.0355,W,1,10,1.7,26,M,,M,,*68
06/16/2015	19:06:30.556	$GPGGA,190631,2429.0363,N,08053.0337,W,1,10,1.7,26,M,,M,,*6D
06/16/2015	19:06:31.635	$GPGGA,190632,2429.0363,N,08053.0321,W,1,10,1.7,26,M,,M,,*69
06/16/2015	19:06:32.568	$GPGGA,190633,2429.0367,N,08053.0304,W,1,10,1.7,26,M,,M,,*6B
06/16/2015	19:06:33.595	$GPGGA,190634,2429.0369,N,08053.0286,W,1,10,1.7,26,M,,M,,*69
06/16/2015	19:06:34.545	$GPGGA,190635,2429.0370,N,08053.0270,W,1,10,1.7,26,M,,M,,*69
06/16/2015	19:06:35.595	$GPGGA,190636,2429.0372,N,08053.0254,W,1,10,1.7,26,M,,M,,*6E
06/16/2015	19:06:36.555	$GPGGA,190637,2429.0374,N,08053.0236,W,1,10,1.7,26,M,,M,,*6D
06/16/2015	19:06:37.605	$GPGGA,190638,2429.0376,N,08053.0219,W,1,10,1.7,26,M,,M,,*6D
06/16/2015	19:06:38.535	$GPGGA,190639,2429.0378,N,08053.0203,W,1,10,1.7,26,M,,M,,*69
06/16/2015	19:06:39.595	$GPGGA,190640,2429.0378,N,08053.0186,W,1,10,1.7,26,M,,M,,*69
06/16/2015	19:06:40.545	$GPGGA,190641,2429.0381,N,08053.0169,W,1,10,1.7,26,M,,M,,*6F
06/16/2015	19:06:41.568	$GPGGA,190642,2429.0381,N,08053.0169,W,1,10,1.7,26,M,,M,,*6C
06/16/2015	19:06:42.544	$GPGGA,190643,2429.0384,N,08053.0135,W,1,10,1.7,26,M,,M,,*61
06/16/2015	19:06:43.584	$GPGGA,190644,2429.0387,N,08053.0118,W,1,10,1.7,26,M,,M,,*6A
06/16/2015	19:06:44.534	$GPGGA,190645,2429.0389,N,08053.0101,W,1,10,1.7,26,M,,M,,*6D
06/16/2015	19:06:45.574	$GPGGA,190646,2429.0389,N,08053.0101,W,1,10,1.7,26,M,,M,,*6E
06/16/2015	19:06:46.524	$GPGGA,190647,2429.0392,N,08053.0067,W,1,10,1.7,27,M,,M,,*65
06/16/2015	19:06:47.604	$GPGGA,190648,2429.0395,N,08053.0050,W,1,10,1.7,27,M,,M,,*69
06/16/2015	19:06:48.535	$GPGGA,190649,2429.0396,N,08053.0034,W,1,10,1.7,27,M,,M,,*69
06/16/2015	19:06:49.535	$GPGGA,190650,2429.0396,N,08053.0034,W,1,9,1.7,27,M,,M,,*59
06/16/2015	19:06:50.545	$GPGGA,190651,2429.0399,N,08052.9999,W,1,9,1.7,27,M,,M,,*51
06/16/2015	19:06:51.635	$GPGGA,190652,2429.0402,N,08052.9984,W,1,10,1.7,27,M,,M,,*63
06/16/2015	19:06:52.525	$GPGGA,190653,2429.0401,N,08052.9967,W,1,10,1.7,27,M,,M,,*6C
06/16/2015	19:06:53.515	$GPGGA,190654,2429.0401,N,08052.9967,W,1,10,1.7,27,M,,M,,*6B
06/16/2015	19:06:54.615	$GPGGA,190655,2429.0407,N,08052.9932,W,1,10,1.7,27,M,,M,,*6C
06/16/2015	19:06:55.625	$GPGGA,190656,2429.0409,N,08052.9916,W,1,10,1.7,27,M,,M,,*67
06/16/2015	19:06:56.505	$GPGGA,190657,2429.0413,N,08052.9899,W,1,10,1.7,27,M,,M,,*6B
06/16/2015	19:06:57.535	$GPGGA,190658,2429.0413,N,08052.9899,W,1,10,1.7,27,M,,M,,*64
06/16/2015	19:06:58.505	$GPGGA,190659,2429.0416,N,08052.9864,W,1,10,1.7,27,M,,M,,*62
06/16/2015	19:06:59.660	$GPGGA,190700,2429.0420,N,08052.9848,W,1,10,1.7,27,M,,M,,*64
06/16/2015	19:07:00.494	$GPGGA,190701,2429.0423,N,08052.9829,W,1,10,1.7,27,M,,M,,*61
06/16/2015	19:07:01.494	$GPGGA,190702,2429.0423,N,08052.9829,W,1,10,1.7,27,M,,M,,*62
06/16/2015	19:07:02.584	$GPGGA,190703,2429.0427,N,08052.9796,W,1,10,1.7,27,M,,M,,*6C
06/16/2015	19:07:03.524	$GPGGA,190704,2429.0427,N,08052.9796,W,1,10,1.7,27,M,,M,,*6B
06/16/2015	19:07:04.584	$GPGGA,190705,2429.0431,N,08052.9761,W,1,10,1.7,27,M,,M,,*65
06/16/2015	19:07:05.494	$GPGGA,190706,2429.0432,N,08052.9746,W,1,10,1.7,27,M,,M,,*60
06/16/2015	19:07:06.585	$GPGGA,190707,2429.0435,N,08052.9729,W,1,10,1.7,27,M,,M,,*6F
06/16/2015	19:07:07.585	$GPGGA,190708,2429.0438,N,08052.9712,W,1,10,1.7,27,M,,M,,*65
06/16/2015	19:07:08.575	$GPGGA,190709,2429.0439,N,08052.9696,W,1,10,1.7,27,M,,M,,*68
06/16/2015	19:07:09.575	$GPGGA,190710,2429.0441,N,08052.9679,W,1,10,1.7,27,M,,M,,*6E
06/16/2015	19:07:10.575	$GPGGA,190711,2429.0443,N,08052.9663,W,1,10,1.7,27,M,,M,,*66
06/16/2015	19:07:11.585	$GPGGA,190712,2429.0445,N,08052.9646,W,1,10,1.7,27,M,,M,,*64
06/16/2015	19:07:12.558	$GPGGA,190713,2429.0446,N,08052.9629,W,1,10,1.7,27,M,,M,,*6F
06/16/2015	19:07:13.585	$GPGGA,190714,2429.0450,N,08052.9613,W,1,10,1.7,27,M,,M,,*66
06/16/2015	19:07:14.565	$GPGGA,190715,2429.0453,N,08052.9596,W,1,10,1.7,27,M,,M,,*6A
06/16/2015	19:07:15.585	$GPGGA,190716,2429.0453,N,08052.9580,W,1,10,1.7,27,M,,M,,*6E
06/16/2015	19:07:16.564	$GPGGA,190717,2429.0456,N,08052.9562,W,1,10,1.7,27,M,,M,,*66
06/16/2015	19:07:17.584	$GPGGA,190718,2429.0459,N,08052.9546,W,1,10,1.7,27,M,,M,,*60
06/16/2015	19:07:18.557	$GPGGA,190719,2429.0461,N,08052.9529,W,1,10,1.7,27,M,,M,,*63
06/16/2015	19:07:19.584	$GPGGA,190720,2429.0461,N,08052.9511,W,1,10,1.7,27,M,,M,,*62
06/16/2015	19:07:20.554	$GPGGA,190721,2429.0464,N,08052.9494,W,1,10,1.7,27,M,,M,,*6A
06/16/2015	19:07:21.544	$GPGGA,190722,2429.0467,N,08052.9478,W,1,10,1.7,27,M,,M,,*68
06/16/2015	19:07:22.554	$GPGGA,190723,2429.0468,N,08052.9460,W,1,10,1.7,27,M,,M,,*6F
06/16/2015	19:07:23.556	$GPGGA,190724,2429.0471,N,08052.9443,W,1,10,1.7,26,M,,M,,*60
06/16/2015	19:07:24.545	$GPGGA,190725,2429.0472,N,08052.9427,W,1,10,1.7,26,M,,M,,*60
06/16/2015	19:07:25.558	$GPGGA,190726,2429.0475,N,08052.9411,W,1,10,1.7,26,M,,M,,*61
06/16/2015	19:07:26.535	$GPGGA,190727,2429.0477,N,08052.9393,W,1,10,1.7,26,M,,M,,*6F
06/16/2015	19:07:27.565	$GPGGA,190728,2429.0479,N,08052.9377,W,1,10,1.7,26,M,,M,,*64
06/16/2015	19:07:28.535	$GPGGA,190729,2429.0481,N,08052.9361,W,1,10,1.7,26,M,,M,,*65
06/16/2015	19:07:29.556	$GPGGA,190730,2429.0482,N,08052.9344,W,1,10,1.7,26,M,,M,,*69
06/16/2015	19:07:30.525	$GPGGA,190731,2429.0486,N,08052.9327,W,1,10,1.7,26,M,,M,,*69
06/16/2015	19:07:31.535	$GPGGA,190732,2429.0488,N,08052.9309,W,1,10,1.7,26,M,,M,,*68
06/16/2015	19:07:32.535	$GPGGA,190733,2429.0490,N,08052.9293,W,1,10,1.7,26,M,,M,,*62
06/16/2015	19:07:33.558	$GPGGA,190734,2429.0493,N,08052.9277,W,1,10,1.7,26,M,,M,,*6C
06/16/2015	19:07:34.534	$GPGGA,190735,2429.0495,N,08052.9259,W,1,10,1.7,26,M,,M,,*67
06/16/2015	19:07:35.556	$GPGGA,190736,2429.0496,N,08052.9244,W,1,10,1.7,26,M,,M,,*6B
06/16/2015	19:07:36.504	$GPGGA,190737,2429.0497,N,08052.9228,W,1,10,1.7,26,M,,M,,*61
06/16/2015	19:07:37.544	$GPGGA,190738,2429.0500,N,08052.9210,W,1,10,1.7,26,M,,M,,*6A
06/16/2015	19:07:38.504	$GPGGA,190739,2429.0503,N,08052.9194,W,1,10,1.7,26,M,,M,,*67
06/16/2015	19:07:40.924	$GPGGA,190741,2429.0504,N,08052.9162,W,1,10,1.7,26,M,,M,,*66
06/16/2015	19:07:41.615	$GPGGA,190742,2429.0508,N,08052.9144,W,1,10,1.7,26,M,,M,,*6D
06/16/2015	19:07:42.505	$GPGGA,190743,2429.0511,N,08052.9130,W,1,10,1.7,26,M,,M,,*67
06/16/2015	19:07:43.625	$GPGGA,190744,2429.0511,N,08052.9113,W,1,10,1.7,26,M,,M,,*61
06/16/2015	19:07:44.505	$GPGGA,190745,2429.0513,N,08052.9095,W,1,10,1.7,26,M,,M,,*6D
06/16/2015	19:07:45.495	$GPGGA,190746,2429.0515,N,08052.9081,W,1,10,1.7,26,M,,M,,*6D
06/16/2015	19:07:46.495	$GPGGA,190747,2429.0518,N,08052.9065,W,1,10,1.7,26,M,,M,,*6B
06/16/2015	19:07:47.535	$GPGGA,190748,2429.0518,N,08052.9047,W,1,10,1.7,26,M,,M,,*64
06/16/2015	19:07:48.585	$GPGGA,190749,2429.0522,N,08052.9032,W,1,10,1.7,26,M,,M,,*6E
06/16/2015	19:07:49.485	$GPGGA,190750,2429.0525,N,08052.9017,W,1,10,1.7,26,M,,M,,*66
06/16/2015	19:07:50.575	$GPGGA,190751,2429.0526,N,08052.9000,W,1,10,1.7,26,M,,M,,*62
06/16/2015	19:07:51.624	$GPGGA,190752,2429.0528,N,08052.8984,W,1,10,1.7,26,M,,M,,*6B
06/16/2015	19:07:52.584	$GPGGA,190753,2429.0529,N,08052.8969,W,1,10,1.7,26,M,,M,,*68
06/16/2015	19:07:53.584	$GPGGA,190754,2429.0532,N,08052.8953,W,1,10,1.7,26,M,,M,,*6C
06/16/2015	19:07:54.574	$GPGGA,190755,2429.0533,N,08052.8936,W,1,10,1.7,26,M,,M,,*6F
06/16/2015	19:07:55.614	$GPGGA,190756,2429.0536,N,08052.8920,W,1,10,1.7,26,M,,M,,*6E
06/16/2015	19:07:56.566	$GPGGA,190757,2429.0539,N,08052.8904,W,1,10,1.7,26,M,,M,,*66
06/16/2015	19:07:57.562	$GPGGA,190758,2429.0540,N,08052.8888,W,1,10,1.7,26,M,,M,,*62
06/16/2015	19:07:58.570	$GPGGA,190759,2429.0543,N,08052.8871,W,1,10,1.7,26,M,,M,,*66
06/16/2015	19:07:59.625	$GPGGA,190800,2429.0544,N,08052.8855,W,1,10,1.7,26,M,,M,,*64
06/16/2015	19:08:00.558	$GPGGA,190801,2429.0547,N,08052.8840,W,1,10,1.7,26,M,,M,,*62
06/16/2015	19:08:01.585	$GPGGA,190802,2429.0551,N,08052.8823,W,1,10,1.7,26,M,,M,,*63
06/16/2015	19:08:02.561	$GPGGA,190803,2429.0553,N,08052.8806,W,1,10,1.7,26,M,,M,,*67
06/16/2015	19:08:03.585	$GPGGA,190804,2429.0554,N,08052.8789,W,1,10,1.7,26,M,,M,,*6F
06/16/2015	19:08:04.565	$GPGGA,190805,2429.0558,N,08052.8774,W,1,10,1.7,26,M,,M,,*60
06/16/2015	19:08:05.563	$GPGGA,190806,2429.0562,N,08052.8757,W,1,10,1.7,26,M,,M,,*6B
06/16/2015	19:08:06.559	$GPGGA,190807,2429.0562,N,08052.8739,W,1,10,1.7,26,M,,M,,*62
06/16/2015	19:08:07.585	$GPGGA,190808,2429.0565,N,08052.8723,W,1,10,1.7,26,M,,M,,*61
06/16/2015	19:08:08.535	$GPGGA,190809,2429.0569,N,08052.8706,W,1,10,1.7,26,M,,M,,*6B
06/16/2015	19:08:09.534	$GPGGA,190810,2429.0569,N,08052.8688,W,1,10,1.7,26,M,,M,,*64
06/16/2015	19:08:10.561	$GPGGA,190811,2429.0571,N,08052.8670,W,1,10,2.0,26,M,,M,,*6F
06/16/2015	19:08:11.584	$GPGGA,190812,2429.0573,N,08052.8653,W,1,9,2.0,25,M,,M,,*54
06/16/2015	19:08:12.534	$GPGGA,190813,2429.0576,N,08052.8636,W,1,9,2.0,25,M,,M,,*53
06/16/2015	19:08:13.544	$GPGGA,190814,2429.0574,N,08052.8618,W,1,9,2.0,25,M,,M,,*5A
06/16/2015	19:08:14.534	$GPGGA,190815,2429.0576,N,08052.8601,W,1,9,2.0,25,M,,M,,*51
06/16/2015	19:08:15.554	$GPGGA,190816,2429.0580,N,08052.8583,W,1,9,2.0,25,M,,M,,*52
06/16/2015	19:08:16.535	$GPGGA,190817,2429.0580,N,08052.8566,W,1,9,2.0,25,M,,M,,*58
06/16/2015	19:08:17.535	$GPGGA,190818,2429.0582,N,08052.8549,W,1,9,2.0,25,M,,M,,*58
06/16/2015	19:08:18.515	$GPGGA,190819,2429.0586,N,08052.8532,W,1,9,2.0,24,M,,M,,*50
06/16/2015	19:08:19.556	$GPGGA,190820,2429.0589,N,08052.8514,W,1,9,2.0,24,M,,M,,*51
06/16/2015	19:08:20.525	$GPGGA,190821,2429.0590,N,08052.8497,W,1,9,2.9,24,M,,M,,*5B
06/16/2015	19:08:21.545	$GPGGA,190822,2429.0591,N,08052.8482,W,1,9,2.0,24,M,,M,,*54
06/16/2015	19:08:22.515	$GPGGA,190823,2429.0594,N,08052.8466,W,1,9,2.0,24,M,,M,,*5A
06/16/2015	19:08:23.525	$GPGGA,190824,2429.0596,N,08052.8449,W,1,9,2.0,23,M,,M,,*55
06/16/2015	19:08:24.505	$GPGGA,190825,2429.0597,N,08052.8432,W,1,9,2.0,23,M,,M,,*59
06/16/2015	19:08:25.535	$GPGGA,190826,2429.0598,N,08052.8416,W,1,9,2.0,23,M,,M,,*53
06/16/2015	19:08:26.514	$GPGGA,190827,2429.0602,N,08052.8399,W,1,9,2.0,23,M,,M,,*52
06/16/2015	19:08:27.534	$GPGGA,190828,2429.0605,N,08052.8382,W,1,9,2.0,23,M,,M,,*50
06/16/2015	19:08:28.504	$GPGGA,190829,2429.0603,N,08052.8367,W,1,9,2.9,22,M,,M,,*54
06/16/2015	19:08:29.494	$GPGGA,190830,2429.0605,N,08052.8351,W,1,9,2.0,22,M,,M,,*56
06/16/2015	19:08:30.504	$GPGGA,190831,2429.0611,N,08052.8334,W,1,9,2.0,22,M,,M,,*51
06/16/2015	19:08:31.614	$GPGGA,190832,2429.0610,N,08052.8318,W,1,8,2.9,22,M,,M,,*55
06/16/2015	19:08:32.494	$GPGGA,190833,2429.0612,N,08052.8300,W,1,8,2.0,22,M,,M,,*56
06/16/2015	19:08:33.494	$GPGGA,190834,2429.0616,N,08052.8284,W,1,9,2.0,22,M,,M,,*59
06/16/2015	19:08:34.485	$GPGGA,190835,2429.0619,N,08052.8268,W,1,9,2.0,21,M,,M,,*56
06/16/2015	19:08:35.635	$GPGGA,190836,2429.0620,N,08052.8251,W,1,9,2.0,21,M,,M,,*55
06/16/2015	19:08:36.505	$GPGGA,190837,2429.0620,N,08052.8235,W,1,9,2.0,21,M,,M,,*56
06/16/2015	19:08:37.595	$GPGGA,190838,2429.0623,N,08052.8220,W,1,9,2.0,21,M,,M,,*5E
06/16/2015	19:08:38.495	$GPGGA,190839,2429.0625,N,08052.8204,W,1,9,2.0,21,M,,M,,*5F
06/16/2015	19:08:39.495	$GPGGA,190840,2429.0626,N,08052.8189,W,1,9,2.0,21,M,,M,,*54
06/16/2015	19:08:40.576	$GPGGA,190841,2429.0627,N,08052.8173,W,1,9,2.0,21,M,,M,,*51
06/16/2015	19:08:41.585	$GPGGA,190842,2429.0630,N,08052.8157,W,1,9,2.0,21,M,,M,,*52
06/16/2015	19:08:42.475	$GPGGA,190843,2429.0633,N,08052.8141,W,1,9,2.0,21,M,,M,,*57
06/16/2015	19:08:43.575	$GPGGA,190844,2429.0634,N,08052.8125,W,1,9,2.0,21,M,,M,,*55
06/16/2015	19:08:44.567	$GPGGA,190845,2429.0634,N,08052.8109,W,1,9,2.0,21,M,,M,,*5A
06/16/2015	19:08:45.584	$GPGGA,190846,2429.0638,N,08052.8092,W,1,9,2.0,21,M,,M,,*56
06/16/2015	19:08:46.568	$GPGGA,190847,2429.0640,N,08052.8076,W,1,9,2.0,21,M,,M,,*52
06/16/2015	19:08:47.594	$GPGGA,190848,2429.0641,N,08052.8059,W,1,9,2.0,21,M,,M,,*51
06/16/2015	19:08:48.554	$GPGGA,190849,2429.0643,N,08052.8043,W,1,9,2.0,21,M,,M,,*59
06/16/2015	19:08:49.567	$GPGGA,190850,2429.0645,N,08052.8027,W,1,9,2.0,21,M,,M,,*55
06/16/2015	19:08:50.556	$GPGGA,190851,2429.0648,N,08052.8010,W,1,9,2.0,21,M,,M,,*5D
06/16/2015	19:08:51.595	$GPGGA,190852,2429.0648,N,08052.7993,W,1,9,2.0,21,M,,M,,*53
06/16/2015	19:08:52.545	$GPGGA,190853,2429.0651,N,08052.7977,W,1,9,2.0,21,M,,M,,*50
06/16/2015	19:08:53.556	$GPGGA,190854,2429.0652,N,08052.7960,W,1,9,2.0,21,M,,M,,*52
06/16/2015	19:08:54.555	$GPGGA,190855,2429.0655,N,08052.7943,W,1,9,2.0,21,M,,M,,*55
06/16/2015	19:08:55.576	$GPGGA,190856,2429.0656,N,08052.7927,W,1,9,2.0,21,M,,M,,*57
06/16/2015	19:08:56.535	$GPGGA,190857,2429.0659,N,08052.7909,W,1,9,2.0,21,M,,M,,*55
06/16/2015	19:08:57.558	$GPGGA,190858,2429.0662,N,08052.7891,W,1,9,2.0,21,M,,M,,*52
06/16/2015	19:08:59.615	$GPGGA,190900,2429.0665,N,08052.7858,W,1,9,2.0,21,M,,M,,*5C
06/16/2015	19:09:00.535	$GPGGA,190901,2429.0667,N,08052.7840,W,1,9,2.0,21,M,,M,,*56
06/16/2015	19:09:01.560	$GPGGA,190902,2429.0669,N,08052.7824,W,1,9,2.0,20,M,,M,,*58
06/16/2015	19:09:02.534	$GPGGA,190903,2429.0670,N,08052.7808,W,1,9,2.0,20,M,,M,,*5F
06/16/2015	19:09:03.559	$GPGGA,190904,2429.0673,N,08052.7791,W,1,9,2.0,20,M,,M,,*54
06/16/2015	19:09:04.514	$GPGGA,190905,2429.0674,N,08052.7773,W,1,9,2.0,20,M,,M,,*5E
06/16/2015	19:09:05.534	$GPGGA,190906,2429.0676,N,08052.7758,W,1,9,2.0,20,M,,M,,*56
06/16/2015	19:09:06.524	$GPGGA,190907,2429.0677,N,08052.7741,W,1,9,2.0,20,M,,M,,*5E
06/16/2015	19:09:07.524	$GPGGA,190908,2429.0681,N,08052.7724,W,1,9,2.0,20,M,,M,,*5B
06/16/2015	19:09:08.524	$GPGGA,190909,2429.0681,N,08052.7708,W,1,9,2.0,20,M,,M,,*54
06/16/2015	19:09:09.545	$GPGGA,190910,2429.0683,N,08052.7692,W,1,9,2.0,20,M,,M,,*5C
06/16/2015	19:09:10.525	$GPGGA,190911,2429.0685,N,08052.7675,W,1,9,2.0,20,M,,M,,*52
06/16/2015	19:09:11.625	$GPGGA,190912,2429.0685,N,08052.7658,W,1,9,2.0,20,M,,M,,*5E
06/16/2015	19:09:12.625	$GPGGA,190913,2429.0688,N,08052.7641,W,1,9,2.0,20,M,,M,,*5A
06/16/2015	19:09:13.535	$GPGGA,190914,2429.0690,N,08052.7625,W,1,9,2.0,20,M,,M,,*56
06/16/2015	19:09:14.515	$GPGGA,190915,2429.0692,N,08052.7608,W,1,9,2.0,20,M,,M,,*5A
06/16/2015	19:09:15.545	$GPGGA,190916,2429.0694,N,08052.7591,W,1,9,2.0,20,M,,M,,*5C
06/16/2015	19:09:16.495	$GPGGA,190917,2429.0695,N,08052.7575,W,1,9,2.0,20,M,,M,,*56
06/16/2015	19:09:17.515	$GPGGA,190918,2429.0696,N,08052.7558,W,1,9,2.0,19,M,,M,,*5F
06/16/2015	19:09:18.505	$GPGGA,190919,2429.0698,N,08052.7542,W,1,9,2.0,19,M,,M,,*5B
06/16/2015	19:09:19.614	$GPGGA,190920,2429.0699,N,08052.7526,W,1,9,2.0,19,M,,M,,*52
06/16/2015	19:09:20.504	$GPGGA,190921,2429.0701,N,08052.7509,W,1,9,2.0,19,M,,M,,*5E
06/16/2015	19:09:21.504	$GPGGA,190922,2429.0703,N,08052.7492,W,1,9,2.0,19,M,,M,,*5C
06/16/2015	19:09:22.580	$GPGGA,190923,2429.0705,N,08052.7476,W,1,9,2.0,19,M,,M,,*51
06/16/2015	19:09:23.494	$GPGGA,190924,2429.0706,N,08052.7459,W,1,9,2.0,19,M,,M,,*58
06/16/2015	19:09:24.474	$GPGGA,190925,2429.0708,N,08052.7442,W,1,9,2.0,19,M,,M,,*5D
06/16/2015	19:09:25.494	$GPGGA,190926,2429.0710,N,08052.7425,W,1,9,2.0,19,M,,M,,*56
06/16/2015	19:09:26.575	$GPGGA,190927,2429.0710,N,08052.7408,W,1,9,2.0,19,M,,M,,*58
06/16/2015	19:09:27.615	$GPGGA,190928,2429.0713,N,08052.7392,W,1,9,2.0,19,M,,M,,*50
06/16/2015	19:09:28.485	$GPGGA,190929,2429.0714,N,08052.7375,W,1,9,2.0,19,M,,M,,*5F
06/16/2015	19:09:29.605	$GPGGA,190930,2429.0717,N,08052.7357,W,1,9,2.0,19,M,,M,,*54
06/16/2015	19:09:30.565	$GPGGA,190931,2429.0719,N,08052.7340,W,1,9,2.0,18,M,,M,,*5C
06/16/2015	19:09:31.585	$GPGGA,190932,2429.0721,N,08052.7324,W,1,9,2.0,18,M,,M,,*56
06/16/2015	19:09:32.567	$GPGGA,190933,2429.0723,N,08052.7306,W,1,9,2.0,18,M,,M,,*55
06/16/2015	19:09:33.556	$GPGGA,190934,2429.0724,N,08052.7289,W,1,9,2.0,18,M,,M,,*53
06/16/2015	19:09:34.558	$GPGGA,190935,2429.0727,N,08052.7273,W,1,9,2.0,18,M,,M,,*54
06/16/2015	19:09:35.585	$GPGGA,190936,2429.0728,N,08052.7257,W,1,9,2.0,18,M,,M,,*5E
06/16/2015	19:09:36.554	$GPGGA,190937,2429.0731,N,08052.7239,W,1,9,2.0,18,M,,M,,*5F
06/16/2015	19:09:37.565	$GPGGA,190938,2429.0732,N,08052.7223,W,1,9,2.0,18,M,,M,,*58
06/16/2015	19:09:38.554	$GPGGA,190939,2429.0735,N,08052.7207,W,1,9,2.0,18,M,,M,,*58
06/16/2015	19:09:39.584	$GPGGA,190940,2429.0737,N,08052.7190,W,1,9,2.0,18,M,,M,,*59
06/16/2015	19:09:40.544	$GPGGA,190941,2429.0739,N,08052.7173,W,1,9,2.0,18,M,,M,,*5B
06/16/2015	19:09:41.534	$GPGGA,190942,2429.0741,N,08052.7157,W,1,9,2.0,18,M,,M,,*51
06/16/2015	19:09:42.544	$GPGGA,190943,2429.0742,N,08052.7140,W,1,9,2.0,18,M,,M,,*55
06/16/2015	19:09:43.584	$GPGGA,190944,2429.0746,N,08052.7124,W,1,9,2.0,18,M,,M,,*54
06/16/2015	19:09:44.545	$GPGGA,190945,2429.0746,N,08052.7107,W,1,9,2.0,17,M,,M,,*5B
06/16/2015	19:09:45.557	$GPGGA,190946,2429.0749,N,08052.7091,W,1,9,2.0,17,M,,M,,*59
06/16/2015	19:09:46.535	$GPGGA,190947,2429.0752,N,08052.7075,W,1,9,2.0,17,M,,M,,*58
06/16/2015	19:09:47.575	$GPGGA,190948,2429.0755,N,08052.7057,W,1,9,2.0,17,M,,M,,*50
06/16/2015	19:09:48.525	$GPGGA,190949,2429.0757,N,08052.7041,W,1,9,2.0,17,M,,M,,*54
06/16/2015	19:09:49.525	$GPGGA,190950,2429.0759,N,08052.7025,W,1,9,2.0,17,M,,M,,*50
06/16/2015	19:09:50.545	$GPGGA,190951,2429.0760,N,08052.7008,W,1,9,2.0,17,M,,M,,*54
06/16/2015	19:09:51.558	$GPGGA,190952,2429.0764,N,08052.6992,W,1,9,2.0,17,M,,M,,*58
06/16/2015	19:09:52.515	$GPGGA,190953,2429.0766,N,08052.6976,W,1,9,2.0,17,M,,M,,*51
06/16/2015	19:09:53.525	$GPGGA,190954,2429.0768,N,08052.6959,W,1,9,2.0,17,M,,M,,*55
06/16/2015	19:09:54.514	$GPGGA,190955,2429.0768,N,08052.6943,W,1,9,2.0,17,M,,M,,*5F
06/16/2015	19:09:55.568	$GPGGA,190956,2429.0771,N,08052.6927,W,1,9,2.0,17,M,,M,,*56
06/16/2015	19:09:56.514	$GPGGA,190957,2429.0774,N,08052.6911,W,1,9,2.0,17,M,,M,,*57
06/16/2015	19:09:57.545	$GPGGA,190958,2429.0775,N,08052.6894,W,1,9,2.0,17,M,,M,,*55
06/16/2015	19:09:58.624	$GPGGA,190959,2429.0777,N,08052.6877,W,1,9,1.9,17,M,,M,,*51
06/16/2015	19:09:59.574	$GPGGA,191000,2429.0781,N,08052.6861,W,1,9,1.9,17,M,,M,,*5B
06/16/2015	19:10:00.524	$GPGGA,191001,2429.0784,N,08052.6844,W,1,9,1.9,17,M,,M,,*58
06/16/2015	19:10:01.605	$GPGGA,191002,2429.0783,N,08052.6827,W,1,9,1.9,17,M,,M,,*59
06/16/2015	19:10:02.595	$GPGGA,191003,2429.0786,N,08052.6810,W,1,9,1.9,17,M,,M,,*59
06/16/2015	19:10:03.525	$GPGGA,191004,2429.0789,N,08052.6793,W,1,9,1.9,17,M,,M,,*55
06/16/2015	19:10:04.505	$GPGGA,191005,2429.0790,N,08052.6777,W,1,9,1.9,17,M,,M,,*56
06/16/2015	19:10:05.525	$GPGGA,191006,2429.0790,N,08052.6760,W,1,9,1.9,17,M,,M,,*53
06/16/2015	19:10:06.595	$GPGGA,191007,2429.0793,N,08052.6743,W,1,9,1.9,16,M,,M,,*51
06/16/2015	19:10:07.505	$GPGGA,191008,2429.0797,N,08052.6726,W,1,9,1.9,16,M,,M,,*59
06/16/2015	19:10:08.585	$GPGGA,191009,2429.0797,N,08052.6711,W,1,9,1.9,16,M,,M,,*5C
06/16/2015	19:10:09.615	$GPGGA,191010,2429.0799,N,08052.6694,W,1,9,1.9,16,M,,M,,*56
06/16/2015	19:10:10.505	$GPGGA,191011,2429.0802,N,08052.6677,W,1,9,1.9,16,M,,M,,*57
06/16/2015	19:10:11.624	$GPGGA,191012,2429.0804,N,08052.6661,W,1,9,1.9,16,M,,M,,*55
06/16/2015	19:10:12.494	$GPGGA,191013,2429.0806,N,08052.6644,W,1,9,1.9,16,M,,M,,*51
06/16/2015	19:10:13.484	$GPGGA,191014,2429.0807,N,08052.6627,W,1,9,1.9,16,M,,M,,*52
06/16/2015	19:10:14.584	$GPGGA,191015,2429.0811,N,08052.6610,W,1,9,1.9,16,M,,M,,*50
06/16/2015	19:10:15.614	$GPGGA,191016,2429.0811,N,08052.6593,W,1,9,1.9,16,M,,M,,*5B
06/16/2015	19:10:16.574	$GPGGA,191017,2429.0814,N,08052.6577,W,1,9,1.9,16,M,,M,,*55
06/16/2015	19:10:17.605	$GPGGA,191018,2429.0817,N,08052.6560,W,1,9,1.9,16,M,,M,,*5F
06/16/2015	19:10:18.566	$GPGGA,191019,2429.0818,N,08052.6543,W,1,9,1.9,16,M,,M,,*50
06/16/2015	19:10:19.605	$GPGGA,191020,2429.0820,N,08052.6527,W,1,9,1.9,16,M,,M,,*53
06/16/2015	19:10:20.595	$GPGGA,191021,2429.0822,N,08052.6510,W,1,9,1.9,16,M,,M,,*54
06/16/2015	19:10:21.575	$GPGGA,191022,2429.0824,N,08052.6493,W,1,9,1.9,16,M,,M,,*5B
06/16/2015	19:10:22.566	$GPGGA,191023,2429.0825,N,08052.6475,W,1,9,1.9,16,M,,M,,*53
06/16/2015	19:10:23.605	$GPGGA,191024,2429.0828,N,08052.6459,W,1,9,1.9,16,M,,M,,*57
06/16/2015	19:10:24.558	$GPGGA,191025,2429.0829,N,08052.6443,W,1,9,1.9,16,M,,M,,*5C
06/16/2015	19:10:25.595	$GPGGA,191026,2429.0831,N,08052.6425,W,1,9,1.9,16,M,,M,,*56
06/16/2015	19:10:26.545	$GPGGA,191027,2429.0833,N,08052.6408,W,1,9,1.9,16,M,,M,,*5A
06/16/2015	19:10:27.585	$GPGGA,191028,2429.0836,N,08052.6392,W,1,9,1.9,16,M,,M,,*54
06/16/2015	19:10:28.560	$GPGGA,191029,2429.0836,N,08052.6375,W,1,9,1.9,16,M,,M,,*5C
06/16/2015	19:10:29.574	$GPGGA,191030,2429.0839,N,08052.6358,W,1,9,1.9,16,M,,M,,*54
06/16/2015	19:10:30.544	$GPGGA,191031,2429.0842,N,08052.6342,W,1,9,1.9,16,M,,M,,*52
06/16/2015	19:10:31.604	$GPGGA,191032,2429.0844,N,08052.6327,W,1,9,1.9,16,M,,M,,*54
06/16/2015	19:10:32.534	$GPGGA,191033,2429.0844,N,08052.6309,W,1,9,1.9,16,M,,M,,*59
06/16/2015	19:10:33.524	$GPGGA,191034,2429.0847,N,08052.6293,W,1,9,1.9,16,M,,M,,*5F
06/16/2015	19:10:34.534	$GPGGA,191035,2429.0850,N,08052.6278,W,1,9,1.9,16,M,,M,,*5D
06/16/2015	19:10:35.614	$GPGGA,191036,2429.0851,N,08052.6261,W,1,9,1.9,16,M,,M,,*57
06/16/2015	19:10:36.535	$GPGGA,191037,2429.0853,N,08052.6244,W,1,9,1.9,16,M,,M,,*53
06/16/2015	19:10:37.545	$GPGGA,191038,2429.0854,N,08052.6228,W,1,9,1.9,16,M,,M,,*51
06/16/2015	19:10:38.515	$GPGGA,191039,2429.0857,N,08052.6212,W,1,9,1.9,16,M,,M,,*5A
06/16/2015	19:10:39.560	$GPGGA,191040,2429.0858,N,08052.6196,W,1,9,1.9,16,M,,M,,*54
06/16/2015	19:10:40.535	$GPGGA,191041,2429.0861,N,08052.6179,W,1,9,1.9,16,M,,M,,*5E
06/16/2015	19:10:41.562	$GPGGA,191042,2429.0862,N,08052.6163,W,1,9,1.9,16,M,,M,,*55
06/16/2015	19:10:42.505	$GPGGA,191043,2429.0865,N,08052.6147,W,1,9,1.9,16,M,,M,,*55
06/16/2015	19:10:43.635	$GPGGA,191044,2429.0868,N,08052.6130,W,1,9,1.9,16,M,,M,,*5F
06/16/2015	19:10:44.525	$GPGGA,191045,2429.0869,N,08052.6113,W,1,9,1.9,16,M,,M,,*5E
06/16/2015	19:10:45.535	$GPGGA,191046,2429.0872,N,08052.6097,W,1,9,1.9,16,M,,M,,*5A
06/16/2015	19:10:46.534	$GPGGA,191047,2429.0875,N,08052.6080,W,1,9,1.9,16,M,,M,,*5A
06/16/2015	19:10:47.514	$GPGGA,191048,2429.0876,N,08052.6063,W,1,9,1.9,16,M,,M,,*5B
06/16/2015	19:10:48.514	$GPGGA,191049,2429.0879,N,08052.6047,W,1,9,1.9,16,M,,M,,*53
06/16/2015	19:10:49.524	$GPGGA,191050,2429.0883,N,08052.6031,W,1,9,1.9,16,M,,M,,*5F
06/16/2015	19:10:50.514	$GPGGA,191051,2429.0885,N,08052.6014,W,1,9,1.9,16,M,,M,,*5F
06/16/2015	19:10:51.604	$GPGGA,191052,2429.0887,N,08052.5997,W,1,9,1.9,16,M,,M,,*5F
06/16/2015	19:10:52.494	$GPGGA,191053,2429.0891,N,08052.5980,W,1,9,1.9,16,M,,M,,*5F
06/16/2015	19:10:53.624	$GPGGA,191054,2429.0894,N,08052.5964,W,1,9,1.9,16,M,,M,,*57
06/16/2015	19:10:54.515	$GPGGA,191055,2429.0894,N,08052.5964,W,1,9,1.9,16,M,,M,,*56
06/16/2015	19:10:55.675	$GPGGA,191056,2429.0898,N,08052.5931,W,1,9,1.9,16,M,,M,,*59
06/16/2015	19:10:56.515	$GPGGA,191057,2429.0901,N,08052.5914,W,1,9,1.9,16,M,,M,,*5E
06/16/2015	19:10:57.585	$GPGGA,191058,2429.0902,N,08052.5897,W,1,9,1.9,16,M,,M,,*58
06/16/2015	19:10:58.575	$GPGGA,191059,2429.0905,N,08052.5881,W,1,9,1.9,16,M,,M,,*59
06/16/2015	19:10:59.625	$GPGGA,191100,2429.0908,N,08052.5864,W,1,9,1.9,16,M,,M,,*52
06/16/2015	19:11:00.575	$GPGGA,191101,2429.0909,N,08052.5847,W,1,9,1.9,16,M,,M,,*53
06/16/2015	19:11:01.573	$GPGGA,191102,2429.0911,N,08052.5832,W,1,9,1.9,16,M,,M,,*5B
06/16/2015	19:11:02.576	$GPGGA,191103,2429.0914,N,08052.5815,W,1,9,1.9,16,M,,M,,*5A
06/16/2015	19:11:03.585	$GPGGA,191104,2429.0916,N,08052.5799,W,1,9,1.9,16,M,,M,,*54
06/16/2015	19:11:04.574	$GPGGA,191105,2429.0918,N,08052.5782,W,1,9,1.9,16,M,,M,,*51
06/16/2015	19:11:05.584	$GPGGA,191106,2429.0919,N,08052.5765,W,1,9,1.9,16,M,,M,,*5A
06/16/2015	19:11:06.545	$GPGGA,191107,2429.0922,N,08052.5750,W,1,9,1.9,16,M,,M,,*55
06/16/2015	19:11:09.734	$GPGGA,191110,2429.0927,N,08052.5701,W,1,9,1.9,16,M,,M,,*52
06/16/2015	19:11:10.548	$GPGGA,191111,2429.0929,N,08052.5684,W,1,9,1.9,16,M,,M,,*51
06/16/2015	19:11:11.567	$GPGGA,191112,2429.0930,N,08052.5667,W,1,9,1.9,16,M,,M,,*57
06/16/2015	19:11:12.544	$GPGGA,191113,2429.0933,N,08052.5651,W,1,9,1.9,16,M,,M,,*50
06/16/2015	19:11:13.534	$GPGGA,191114,2429.0934,N,08052.5635,W,1,9,1.9,16,M,,M,,*52
06/16/2015	19:11:14.562	$GPGGA,191115,2429.0936,N,08052.5618,W,1,9,1.9,16,M,,M,,*5E
06/16/2015	19:11:15.564	$GPGGA,191116,2429.0937,N,08052.5602,W,1,9,1.9,16,M,,M,,*57
06/16/2015	19:11:16.534	$GPGGA,191117,2429.0940,N,08052.5586,W,1,9,1.9,16,M,,M,,*59
06/16/2015	19:11:17.554	$GPGGA,191118,2429.0941,N,08052.5569,W,1,9,1.9,16,M,,M,,*56
06/16/2015	19:11:18.524	$GPGGA,191119,2429.0941,N,08052.5552,W,1,9,1.9,16,M,,M,,*5F
06/16/2015	19:11:19.568	$GPGGA,191120,2429.0945,N,08052.5536,W,1,9,1.9,16,M,,M,,*53
06/16/2015	19:11:20.524	$GPGGA,191121,2429.0948,N,08052.5520,W,1,9,1.9,16,M,,M,,*58
06/16/2015	19:11:21.523	$GPGGA,191122,2429.0948,N,08052.5503,W,1,9,1.9,16,M,,M,,*5A
06/16/2015	19:11:22.524	$GPGGA,191123,2429.0949,N,08052.5487,W,1,9,1.9,16,M,,M,,*57
06/16/2015	19:11:23.554	$GPGGA,191124,2429.0952,N,08052.5469,W,1,9,1.9,16,M,,M,,*5A
06/16/2015	19:11:24.514	$GPGGA,191125,2429.0955,N,08052.5452,W,1,9,1.9,16,M,,M,,*54
06/16/2015	19:11:25.524	$GPGGA,191126,2429.0956,N,08052.5437,W,1,9,1.9,16,M,,M,,*57
06/16/2015	19:11:26.514	$GPGGA,191127,2429.0958,N,08052.5420,W,1,9,1.9,16,M,,M,,*5E
06/16/2015	19:11:27.544	$GPGGA,191128,2429.0959,N,08052.5402,W,1,9,1.9,16,M,,M,,*50
06/16/2015	19:11:28.514	$GPGGA,191129,2429.0962,N,08052.5387,W,1,9,1.9,16,M,,M,,*53
06/16/2015	19:11:29.514	$GPGGA,191130,2429.0965,N,08052.5370,W,1,9,1.9,16,M,,M,,*54
06/16/2015	19:11:30.504	$GPGGA,191131,2429.0966,N,08052.5353,W,1,9,1.9,16,M,,M,,*57
06/16/2015	19:11:31.553	$GPGGA,191132,2429.0967,N,08052.5337,W,1,9,1.9,16,M,,M,,*57
06/16/2015	19:11:32.594	$GPGGA,191133,2429.0970,N,08052.5322,W,1,9,1.9,16,M,,M,,*54
06/16/2015	19:11:33.494	$GPGGA,191134,2429.0974,N,08052.5304,W,1,9,1.9,16,M,,M,,*53
06/16/2015	19:11:34.494	$GPGGA,191135,2429.0974,N,08052.5288,W,1,9,1.9,16,M,,M,,*57
06/16/2015	19:11:35.514	$GPGGA,191136,2429.0977,N,08052.5273,W,1,9,1.9,16,M,,M,,*53
06/16/2015	19:11:36.484	$GPGGA,191137,2429.0980,N,08052.5256,W,1,9,1.9,16,M,,M,,*5D
06/16/2015	19:11:37.504	$GPGGA,191138,2429.0981,N,08052.5239,W,1,9,1.9,16,M,,M,,*5A
06/16/2015	19:11:38.584	$GPGGA,191139,2429.0981,N,08052.5225,W,1,9,1.9,16,M,,M,,*56
06/16/2015	19:11:39.494	$GPGGA,191140,2429.0984,N,08052.5209,W,1,9,1.9,16,M,,M,,*53
06/16/2015	19:11:40.574	$GPGGA,191141,2429.0987,N,08052.5192,W,1,9,1.9,16,M,,M,,*50
06/16/2015	19:11:41.624	$GPGGA,191142,2429.0988,N,08052.5176,W,1,9,1.9,16,M,,M,,*56
06/16/2015	19:11:43.524	$GPGGA,191144,2429.0992,N,08052.5144,W,1,9,1.9,16,M,,M,,*5A
06/16/2015	19:11:44.564	$GPGGA,191145,2429.0995,N,08052.5128,W,1,9,1.9,16,M,,M,,*56
06/16/2015	19:11:45.564	$GPGGA,191146,2429.0998,N,08052.5112,W,1,9,1.9,16,M,,M,,*51
06/16/2015	19:11:46.474	$GPGGA,191147,2429.0999,N,08052.5096,W,1,9,1.9,16,M,,M,,*5C
06/16/2015	19:11:47.604	$GPGGA,191148,2429.1001,N,08052.5081,W,1,9,1.9,16,M,,M,,*5C
