Software Version Number: 1	Data File Format Number: 1	Build Version Number: 1	Error Count Since VI Started: 1	Manufacturer: Raytheon	 Model Number: RayMarine 120	 S/N: 	 Cal Date: 	 Wind Direction Offset: 0.00	 Slope (M)1: 0.00	 Offset (B)1: 0.00	 Slope (M)2: 0.00	 Offset (B)2: 0.00	 Slope (M)3: 0.00	 Offset (B)3: 0.00	 Slope (M)4: 0.00	 Offset (B)4: 0.00	 Slope (M)5: 0.00	 Offset (B)5: 0.00	 Slope (M)6: 0.00	 Offset (B)6: 0.00
Computer Date	Computer Time	GGA String
06/13/2015	17:00:00.534	$GPGGA,170001,2422.6566,N,08106.0968,W,1,9,1.4,17,M,,M,,*50
06/13/2015	17:00:01.524	$GPGGA,170002,2422.6576,N,08106.0982,W,1,10,1.4,17,M,,M,,*6E
06/13/2015	17:00:02.534	$GPGGA,170003,2422.6588,N,08106.0993,W,1,10,1.4,17,M,,M,,*6E
06/13/2015	17:00:03.534	$GPGGA,170004,2422.6601,N,08106.1008,W,1,10,1.4,17,M,,M,,*61
06/13/2015	17:00:04.534	$GPGGA,170005,2422.6609,N,08106.1022,W,1,10,1.4,17,M,,M,,*60
06/13/2015	17:00:05.554	$GPGGA,170006,2422.6620,N,08106.1035,W,1,10,1.4,17,M,,M,,*6E
06/13/2015	17:00:06.534	$GPGGA,170007,2422.6633,N,08106.1046,W,1,10,1.4,17,M,,M,,*69
06/13/2015	17:00:07.555	$GPGGA,170008,2422.6642,N,08106.1058,W,1,10,1.4,17,M,,M,,*6F
06/13/2015	17:00:08.655	$GPGGA,170009,2422.6653,N,08106.1070,W,1,10,1.4,17,M,,M,,*64
06/13/2015	17:00:09.525	$GPGGA,170010,2422.6663,N,08106.1081,W,1,10,1.4,17,M,,M,,*61
06/13/2015	17:00:10.615	$GPGGA,170011,2422.6674,N,08106.1094,W,1,10,1.4,17,M,,M,,*62
06/13/2015	17:00:11.554	$GPGGA,170012,2422.6685,N,08106.1105,W,1,10,1.4,17,M,,M,,*66
06/13/2015	17:00:12.524	$GPGGA,170013,2422.6696,N,08106.1118,W,1,10,1.4,17,M,,M,,*69
06/13/2015	17:00:13.634	$GPGGA,170014,2422.6707,N,08106.1134,W,1,10,1.4,17,M,,M,,*69
06/13/2015	17:00:14.594	$GPGGA,170015,2422.6718,N,08106.1145,W,1,10,1.4,17,M,,M,,*60
06/13/2015	17:00:15.604	$GPGGA,170016,2422.6729,N,08106.1156,W,1,10,1.4,17,M,,M,,*63
06/13/2015	17:00:16.505	$GPGGA,170017,2422.6739,N,08106.1165,W,1,10,1.4,17,M,,M,,*63
06/13/2015	17:00:17.594	$GPGGA,170018,2422.6747,N,08106.1176,W,1,10,1.4,17,M,,M,,*67
06/13/2015	17:00:18.604	$GPGGA,170019,2422.6757,N,08106.1188,W,1,10,1.4,17,M,,M,,*66
06/13/2015	17:00:20.064	$GPGGA,170020,2422.6767,N,08106.1200,W,1,10,1.4,18,M,,M,,*63
06/13/2015	17:00:20.606	$GPGGA,170021,2422.6778,N,08106.1214,W,1,10,1.4,18,M,,M,,*69
06/13/2015	17:00:21.614	$GPGGA,170022,2422.6786,N,08106.1228,W,1,10,1.4,18,M,,M,,*64
06/13/2015	17:00:22.574	$GPGGA,170023,2422.6797,N,08106.1241,W,1,10,1.4,18,M,,M,,*6A
06/13/2015	17:00:23.634	$GPGGA,170024,2422.6805,N,08106.1253,W,1,10,1.4,18,M,,M,,*6A
06/13/2015	17:00:24.575	$GPGGA,170025,2422.6814,N,08106.1262,W,1,10,1.4,18,M,,M,,*69
06/13/2015	17:00:25.565	$GPGGA,170026,2422.6823,N,08106.1275,W,1,10,1.4,18,M,,M,,*68
06/13/2015	17:00:26.565	$GPGGA,170027,2422.6832,N,08106.1286,W,1,10,1.4,18,M,,M,,*65
06/13/2015	17:00:27.625	$GPGGA,170028,2422.6841,N,08106.1298,W,1,10,1.4,18,M,,M,,*61
06/13/2015	17:00:28.574	$GPGGA,170029,2422.6851,N,08106.1312,W,1,10,1.4,18,M,,M,,*62
06/13/2015	17:00:29.594	$GPGGA,170030,2422.6859,N,08106.1326,W,1,10,1.4,18,M,,M,,*65
06/13/2015	17:00:30.564	$GPGGA,170031,2422.6869,N,08106.1338,W,1,10,1.4,18,M,,M,,*68
06/13/2015	17:00:31.594	$GPGGA,170032,2422.6880,N,08106.1351,W,1,10,1.4,18,M,,M,,*63
06/13/2015	17:00:32.574	$GPGGA,170033,2422.6888,N,08106.1363,W,1,10,1.4,18,M,,M,,*6B
06/13/2015	17:00:33.574	$GPGGA,170034,2422.6898,N,08106.1376,W,1,10,1.4,18,M,,M,,*69
06/13/2015	17:00:34.564	$GPGGA,170035,2422.6906,N,08106.1387,W,1,10,1.4,18,M,,M,,*60
06/13/2015	17:00:35.574	$GPGGA,170036,2422.6915,N,08106.1399,W,1,10,1.4,18,M,,M,,*6E
06/13/2015	17:00:36.564	$GPGGA,170037,2422.6924,N,08106.1410,W,1,10,1.4,18,M,,M,,*6B
06/13/2015	17:00:37.564	$GPGGA,170038,2422.6934,N,08106.1423,W,1,10,1.4,18,M,,M,,*65
06/13/2015	17:00:38.554	$GPGGA,170039,2422.6944,N,08106.1436,W,1,10,1.4,18,M,,M,,*67
06/13/2015	17:00:39.584	$GPGGA,170040,2422.6955,N,08106.1450,W,1,9,1.6,18,M,,M,,*53
06/13/2015	17:00:40.544	$GPGGA,170041,2422.6967,N,08106.1463,W,1,9,1.4,18,M,,M,,*51
06/13/2015	17:00:41.544	$GPGGA,170042,2422.6977,N,08106.1475,W,1,10,1.4,18,M,,M,,*6C
06/13/2015	17:00:42.545	$GPGGA,170043,2422.6987,N,08106.1488,W,1,10,1.4,18,M,,M,,*60
06/13/2015	17:00:43.575	$GPGGA,170044,2422.6993,N,08106.1499,W,1,10,1.4,18,M,,M,,*62
06/13/2015	17:00:44.545	$GPGGA,170045,2422.7003,N,08106.1510,W,1,10,1.6,18,M,,M,,*60
06/13/2015	17:00:45.565	$GPGGA,170046,2422.7011,N,08106.1521,W,1,10,1.4,18,M,,M,,*60
06/13/2015	17:00:46.534	$GPGGA,170047,2422.7021,N,08106.1535,W,1,10,1.4,18,M,,M,,*67
06/13/2015	17:00:47.574	$GPGGA,170048,2422.7032,N,08106.1548,W,1,10,1.4,18,M,,M,,*60
06/13/2015	17:00:48.544	$GPGGA,170049,2422.7042,N,08106.1564,W,1,10,1.4,18,M,,M,,*68
06/13/2015	17:00:49.524	$GPGGA,170050,2422.7050,N,08106.1579,W,1,10,1.4,18,M,,M,,*6F
06/13/2015	17:00:50.634	$GPGGA,170051,2422.7061,N,08106.1591,W,1,10,1.4,18,M,,M,,*6A
06/13/2015	17:00:51.544	$GPGGA,170052,2422.7070,N,08106.1604,W,1,10,1.4,18,M,,M,,*66
06/13/2015	17:00:52.521	$GPGGA,170053,2422.7079,N,08106.1615,W,1,10,1.4,18,M,,M,,*6E
06/13/2015	17:00:53.517	$GPGGA,170054,2422.7086,N,08106.1626,W,1,10,1.4,18,M,,M,,*69
06/13/2015	17:00:54.508	$GPGGA,170055,2422.7096,N,08106.1637,W,1,10,1.4,18,M,,M,,*69
06/13/2015	17:00:55.644	$GPGGA,170056,2422.7104,N,08106.1649,W,1,10,1.4,18,M,,M,,*69
06/13/2015	17:00:56.524	$GPGGA,170057,2422.7115,N,08106.1663,W,1,10,1.4,19,M,,M,,*61
06/13/2015	17:00:57.621	$GPGGA,170058,2422.7126,N,08106.1677,W,1,10,1.4,19,M,,M,,*6B
06/13/2015	17:00:58.515	$GPGGA,170059,2422.7137,N,08106.1691,W,1,10,1.4,19,M,,M,,*62
06/13/2015	17:00:59.625	$GPGGA,170100,2422.7147,N,08106.1703,W,1,10,1.4,19,M,,M,,*62
06/13/2015	17:01:00.507	$GPGGA,170101,2422.7155,N,08106.1716,W,1,10,1.4,19,M,,M,,*64
06/13/2015	17:01:01.620	$GPGGA,170102,2422.7164,N,08106.1727,W,1,9,1.5,19,M,,M,,*5E
06/13/2015	17:01:02.595	$GPGGA,170103,2422.7173,N,08106.1738,W,1,9,1.4,19,M,,M,,*56
06/13/2015	17:01:03.674	$GPGGA,170104,2422.7183,N,08106.1748,W,1,10,1.4,19,M,,M,,*61
06/13/2015	17:01:04.584	$GPGGA,170105,2422.7191,N,08106.1760,W,1,10,1.4,19,M,,M,,*69
06/13/2015	17:01:05.624	$GPGGA,170106,2422.7202,N,08106.1774,W,1,10,1.4,19,M,,M,,*66
06/13/2015	17:01:06.584	$GPGGA,170107,2422.7215,N,08106.1786,W,1,10,1.4,19,M,,M,,*6C
06/13/2015	17:01:07.507	$GPGGA,170108,2422.7227,N,08106.1800,W,1,10,1.4,19,M,,M,,*63
06/13/2015	17:01:08.594	$GPGGA,170109,2422.7238,N,08106.1814,W,1,10,1.4,19,M,,M,,*69
06/13/2015	17:01:09.584	$GPGGA,170110,2422.7249,N,08106.1826,W,1,10,1.4,19,M,,M,,*66
06/13/2015	17:01:10.584	$GPGGA,170111,2422.7260,N,08106.1837,W,1,10,1.4,19,M,,M,,*6C
06/13/2015	17:01:11.616	$GPGGA,170112,2422.7269,N,08106.1848,W,1,10,1.4,19,M,,M,,*6E
06/13/2015	17:01:12.584	$GPGGA,170113,2422.7278,N,08106.1861,W,1,10,1.4,19,M,,M,,*64
06/13/2015	17:01:13.564	$GPGGA,170114,2422.7289,N,08106.1871,W,1,10,1.4,19,M,,M,,*6C
06/13/2015	17:01:14.574	$GPGGA,170115,2422.7300,N,08106.1883,W,1,10,1.4,19,M,,M,,*60
06/13/2015	17:01:15.616	$GPGGA,170116,2422.7310,N,08106.1897,W,1,10,1.4,19,M,,M,,*67
06/13/2015	17:01:16.555	$GPGGA,170117,2422.7321,N,08106.1911,W,1,10,1.4,19,M,,M,,*6B
06/13/2015	17:01:17.575	$GPGGA,170118,2422.7335,N,08106.1923,W,1,10,1.4,19,M,,M,,*60
06/13/2015	17:01:18.565	$GPGGA,170119,2422.7347,N,08106.1936,W,1,10,1.4,19,M,,M,,*60
06/13/2015	17:01:19.595	$GPGGA,170120,2422.7357,N,08106.1948,W,1,10,1.4,19,M,,M,,*62
06/13/2015	17:01:20.565	$GPGGA,170121,2422.7368,N,08106.1962,W,1,10,1.5,19,M,,M,,*66
06/13/2015	17:01:21.564	$GPGGA,170122,2422.7379,N,08106.1970,W,1,10,1.4,19,M,,M,,*67
06/13/2015	17:01:22.564	$GPGGA,170123,2422.7390,N,08106.1981,W,1,10,1.4,19,M,,M,,*6F
06/13/2015	17:01:23.594	$GPGGA,170124,2422.7400,N,08106.1994,W,1,10,1.4,19,M,,M,,*62
06/13/2015	17:01:24.544	$GPGGA,170125,2422.7411,N,08106.2006,W,1,10,1.4,19,M,,M,,*62
06/13/2015	17:01:25.534	$GPGGA,170126,2422.7424,N,08106.2019,W,1,10,1.4,19,M,,M,,*69
06/13/2015	17:01:26.554	$GPGGA,170127,2422.7435,N,08106.2031,W,1,10,1.4,19,M,,M,,*62
06/13/2015	17:01:27.574	$GPGGA,170128,2422.7444,N,08106.2046,W,1,10,1.4,19,M,,M,,*6B
06/13/2015	17:01:28.544	$GPGGA,170129,2422.7455,N,08106.2057,W,1,10,1.4,19,M,,M,,*6A
06/13/2015	17:01:29.544	$GPGGA,170130,2422.7466,N,08106.2067,W,1,10,1.4,19,M,,M,,*61
06/13/2015	17:01:30.534	$GPGGA,170131,2422.7473,N,08106.2078,W,1,10,1.4,19,M,,M,,*6A
06/13/2015	17:01:31.544	$GPGGA,170132,2422.7484,N,08106.2090,W,1,9,1.5,19,M,,M,,*5E
06/13/2015	17:01:32.534	$GPGGA,170133,2422.7495,N,08106.2100,W,1,9,1.4,19,M,,M,,*56
06/13/2015	17:01:33.524	$GPGGA,170134,2422.7505,N,08106.2113,W,1,10,1.4,19,M,,M,,*63
06/13/2015	17:01:34.645	$GPGGA,170135,2422.7515,N,08106.2126,W,1,10,1.4,19,M,,M,,*65
06/13/2015	17:01:35.565	$GPGGA,170136,2422.7524,N,08106.2139,W,1,10,1.4,19,M,,M,,*6A
06/13/2015	17:01:36.516	$GPGGA,170137,2422.7534,N,08106.2153,W,1,10,1.4,19,M,,M,,*66
06/13/2015	17:01:37.535	$GPGGA,170138,2422.7544,N,08106.2165,W,1,10,1.4,19,M,,M,,*6B
06/13/2015	17:01:38.534	$GPGGA,170139,2422.7552,N,08106.2178,W,1,10,1.4,19,M,,M,,*61
06/13/2015	17:01:39.634	$GPGGA,170140,2422.7562,N,08106.2189,W,1,10,1.4,19,M,,M,,*62
06/13/2015	17:01:40.534	$GPGGA,170141,2422.7570,N,08106.2200,W,1,10,1.6,19,M,,M,,*60
06/13/2015	17:01:41.514	$GPGGA,170142,2422.7577,N,08106.2214,W,1,9,1.6,19,M,,M,,*59
06/13/2015	17:01:42.524	$GPGGA,170143,2422.7587,N,08106.2226,W,1,9,1.4,19,M,,M,,*54
06/13/2015	17:01:43.684	$GPGGA,170144,2422.7596,N,08106.2240,W,1,10,1.4,19,M,,M,,*6B
06/13/2015	17:01:44.514	$GPGGA,170145,2422.7605,N,08106.2254,W,1,10,1.4,18,M,,M,,*67
06/13/2015	17:01:45.604	$GPGGA,170146,2422.7614,N,08106.2267,W,1,10,1.4,18,M,,M,,*64
06/13/2015	17:01:46.509	$GPGGA,170147,2422.7623,N,08106.2280,W,1,10,1.4,18,M,,M,,*68
06/13/2015	17:01:47.624	$GPGGA,170148,2422.7631,N,08106.2294,W,1,10,1.4,18,M,,M,,*61
06/13/2015	17:01:48.607	$GPGGA,170149,2422.7639,N,08106.2308,W,1,10,1.4,18,M,,M,,*6C
06/13/2015	17:01:49.594	$GPGGA,170150,2422.7646,N,08106.2320,W,1,10,1.4,18,M,,M,,*66
06/13/2015	17:01:50.504	$GPGGA,170151,2422.7656,N,08106.2332,W,1,10,1.4,18,M,,M,,*65
06/13/2015	17:01:51.518	$GPGGA,170152,2422.7663,N,08106.2346,W,1,10,1.4,18,M,,M,,*63
06/13/2015	17:01:52.595	$GPGGA,170153,2422.7671,N,08106.2360,W,1,10,1.4,18,M,,M,,*65
06/13/2015	17:01:53.485	$GPGGA,170154,2422.7679,N,08106.2375,W,1,10,1.4,18,M,,M,,*6E
06/13/2015	17:01:54.495	$GPGGA,170155,2422.7686,N,08106.2391,W,1,10,1.6,18,M,,M,,*67
06/13/2015	17:01:55.635	$GPGGA,170156,2422.7695,N,08106.2406,W,1,9,1.6,18,M,,M,,*57
06/13/2015	17:01:56.584	$GPGGA,170157,2422.7701,N,08106.2420,W,1,9,1.4,18,M,,M,,*5C
06/13/2015	17:01:57.574	$GPGGA,170158,2422.7708,N,08106.2433,W,1,10,1.4,18,M,,M,,*60
06/13/2015	17:01:58.584	$GPGGA,170159,2422.7715,N,08106.2446,W,1,10,1.4,18,M,,M,,*6F
06/13/2015	17:01:59.644	$GPGGA,170200,2422.7724,N,08106.2460,W,1,10,1.4,18,M,,M,,*66
06/13/2015	17:02:00.574	$GPGGA,170201,2422.7729,N,08106.2473,W,1,10,1.4,18,M,,M,,*68
06/13/2015	17:02:01.564	$GPGGA,170202,2422.7737,N,08106.2486,W,1,10,1.4,18,M,,M,,*6E
06/13/2015	17:02:02.574	$GPGGA,170203,2422.7746,N,08106.2500,W,1,10,1.4,18,M,,M,,*66
06/13/2015	17:02:03.644	$GPGGA,170204,2422.7751,N,08106.2514,W,1,10,1.4,18,M,,M,,*62
06/13/2015	17:02:04.564	$GPGGA,170205,2422.7758,N,08106.2529,W,1,10,1.4,18,M,,M,,*64
06/13/2015	17:02:05.554	$GPGGA,170206,2422.7766,N,08106.2541,W,1,10,1.4,18,M,,M,,*64
06/13/2015	17:02:06.564	$GPGGA,170207,2422.7773,N,08106.2555,W,1,10,1.4,18,M,,M,,*64
06/13/2015	17:02:07.585	$GPGGA,170208,2422.7780,N,08106.2569,W,1,10,1.4,18,M,,M,,*68
06/13/2015	17:02:08.544	$GPGGA,170209,2422.7787,N,08106.2584,W,1,10,1.4,18,M,,M,,*6D
06/13/2015	17:02:09.585	$GPGGA,170210,2422.7794,N,08106.2598,W,1,10,1.4,18,M,,M,,*6A
06/13/2015	17:02:10.555	$GPGGA,170211,2422.7800,N,08106.2610,W,1,10,1.4,18,M,,M,,*6A
06/13/2015	17:02:11.585	$GPGGA,170212,2422.7805,N,08106.2624,W,1,10,1.4,18,M,,M,,*6B
06/13/2015	17:02:12.545	$GPGGA,170213,2422.7813,N,08106.2638,W,1,10,1.4,18,M,,M,,*60
06/13/2015	17:02:13.564	$GPGGA,170214,2422.7820,N,08106.2653,W,1,10,1.4,18,M,,M,,*6A
06/13/2015	17:02:14.534	$GPGGA,170215,2422.7826,N,08106.2670,W,1,10,1.4,18,M,,M,,*6C
06/13/2015	17:02:15.584	$GPGGA,170216,2422.7831,N,08106.2684,W,1,10,1.4,18,M,,M,,*62
06/13/2015	17:02:16.544	$GPGGA,170217,2422.7838,N,08106.2699,W,1,10,1.4,18,M,,M,,*66
06/13/2015	17:02:17.525	$GPGGA,170218,2422.7845,N,08106.2711,W,1,10,1.4,18,M,,M,,*62
06/13/2015	17:02:18.544	$GPGGA,170219,2422.7852,N,08106.2724,W,1,10,1.4,18,M,,M,,*63
06/13/2015	17:02:19.584	$GPGGA,170220,2422.7858,N,08106.2738,W,1,10,1.4,18,M,,M,,*6E
06/13/2015	17:02:20.534	$GPGGA,170221,2422.7865,N,08106.2753,W,1,10,1.4,18,M,,M,,*6C
06/13/2015	17:02:21.544	$GPGGA,170222,2422.7872,N,08106.2767,W,1,10,1.4,18,M,,M,,*6E
06/13/2015	17:02:22.534	$GPGGA,170223,2422.7878,N,08106.2782,W,1,10,1.4,18,M,,M,,*6E
06/13/2015	17:02:23.544	$GPGGA,170224,2422.7885,N,08106.2796,W,1,10,1.4,18,M,,M,,*6E
06/13/2015	17:02:24.524	$GPGGA,170225,2422.7892,N,08106.2809,W,1,10,1.4,18,M,,M,,*60
06/13/2015	17:02:25.534	$GPGGA,170226,2422.7898,N,08106.2823,W,1,10,1.4,18,M,,M,,*61
06/13/2015	17:02:26.506	$GPGGA,170227,2422.7903,N,08106.2837,W,1,10,1.4,18,M,,M,,*66
06/13/2015	17:02:27.517	$GPGGA,170228,2422.7912,N,08106.2850,W,1,10,1.4,18,M,,M,,*68
06/13/2015	17:02:28.508	$GPGGA,170229,2422.7920,N,08106.2865,W,1,10,1.4,18,M,,M,,*6E
06/13/2015	17:02:29.508	$GPGGA,170230,2422.7925,N,08106.2879,W,1,10,1.4,18,M,,M,,*6E
06/13/2015	17:02:30.609	$GPGGA,170231,2422.7932,N,08106.2894,W,1,10,1.4,18,M,,M,,*6A
06/13/2015	17:02:31.664	$GPGGA,170232,2422.7939,N,08106.2906,W,1,10,1.4,18,M,,M,,*68
06/13/2015	17:02:32.595	$GPGGA,170233,2422.7948,N,08106.2919,W,1,10,1.4,18,M,,M,,*61
06/13/2015	17:02:33.525	$GPGGA,170234,2422.7953,N,08106.2934,W,1,10,1.4,18,M,,M,,*63
06/13/2015	17:02:34.509	$GPGGA,170235,2422.7961,N,08106.2948,W,1,10,1.4,18,M,,M,,*68
06/13/2015	17:02:35.634	$GPGGA,170236,2422.7968,N,08106.2962,W,1,10,1.4,18,M,,M,,*6A
06/13/2015	17:02:36.594	$GPGGA,170237,2422.7977,N,08106.2975,W,1,10,1.4,18,M,,M,,*63
06/13/2015	17:02:37.627	$GPGGA,170238,2422.7984,N,08106.2988,W,1,10,1.4,18,M,,M,,*62
06/13/2015	17:02:38.604	$GPGGA,170239,2422.7992,N,08106.3002,W,1,10,1.4,18,M,,M,,*6E
06/13/2015	17:02:39.594	$GPGGA,170240,2422.8000,N,08106.3016,W,1,10,1.4,18,M,,M,,*68
06/13/2015	17:02:40.594	$GPGGA,170241,2422.8008,N,08106.3031,W,1,10,1.4,18,M,,M,,*64
06/13/2015	17:02:41.607	$GPGGA,170242,2422.8015,N,08106.3045,W,1,10,1.4,18,M,,M,,*68
06/13/2015	17:02:42.875	$GPGGA,170243,2422.8022,N,08106.3058,W,1,10,1.4,18,M,,M,,*61
06/13/2015	17:02:43.674	$GPGGA,170244,2422.8032,N,08106.3071,W,1,10,1.4,18,M,,M,,*6C
06/13/2015	17:02:44.585	$GPGGA,170245,2422.8040,N,08106.3085,W,1,10,1.4,18,M,,M,,*63
06/13/2015	17:02:45.585	$GPGGA,170246,2422.8047,N,08106.3097,W,1,10,1.4,18,M,,M,,*64
06/13/2015	17:02:46.575	$GPGGA,170247,2422.8057,N,08106.3111,W,1,10,1.4,18,M,,M,,*6B
06/13/2015	17:02:47.595	$GPGGA,170248,2422.8065,N,08106.3125,W,1,10,1.4,18,M,,M,,*62
06/13/2015	17:02:48.574	$GPGGA,170249,2422.8073,N,08106.3139,W,1,10,1.4,18,M,,M,,*69
06/13/2015	17:02:49.574	$GPGGA,170250,2422.8082,N,08106.3152,W,1,10,1.4,18,M,,M,,*62
06/13/2015	17:02:50.564	$GPGGA,170251,2422.8090,N,08106.3166,W,1,10,1.4,18,M,,M,,*67
06/13/2015	17:02:51.610	$GPGGA,170252,2422.8098,N,08106.3179,W,1,10,1.4,18,M,,M,,*62
06/13/2015	17:02:52.564	$GPGGA,170253,2422.8108,N,08106.3193,W,1,10,1.7,18,M,,M,,*6C
06/13/2015	17:02:53.596	$GPGGA,170254,2422.8116,N,08106.3206,W,1,9,1.4,18,M,,M,,*50
06/13/2015	17:02:54.564	$GPGGA,170255,2422.8127,N,08106.3219,W,1,9,1.4,18,M,,M,,*5D
06/13/2015	17:02:55.609	$GPGGA,170256,2422.8136,N,08106.3233,W,1,10,1.4,18,M,,M,,*6E
06/13/2015	17:02:56.554	$GPGGA,170257,2422.8144,N,08106.3248,W,1,10,1.4,18,M,,M,,*66
06/13/2015	17:02:57.584	$GPGGA,170258,2422.8152,N,08106.3262,W,1,10,1.4,18,M,,M,,*66
06/13/2015	17:02:58.544	$GPGGA,170259,2422.8161,N,08106.3275,W,1,10,1.4,18,M,,M,,*61
06/13/2015	17:02:59.624	$GPGGA,170300,2422.8169,N,08106.3288,W,1,10,1.4,18,M,,M,,*66
06/13/2015	17:03:00.544	$GPGGA,170301,2422.8177,N,08106.3303,W,1,10,1.4,18,M,,M,,*6A
06/13/2015	17:03:01.585	$GPGGA,170302,2422.8185,N,08106.3316,W,1,10,1.4,18,M,,M,,*60
06/13/2015	17:03:02.555	$GPGGA,170303,2422.8195,N,08106.3331,W,1,10,1.6,18,M,,M,,*67
06/13/2015	17:03:03.610	$GPGGA,170304,2422.8203,N,08106.3346,W,1,9,1.4,18,M,,M,,*56
06/13/2015	17:03:04.545	$GPGGA,170305,2422.8210,N,08106.3361,W,1,9,1.4,18,M,,M,,*50
06/13/2015	17:03:05.545	$GPGGA,170306,2422.8217,N,08106.3376,W,1,10,1.7,18,M,,M,,*69
06/13/2015	17:03:06.544	$GPGGA,170307,2422.8225,N,08106.3389,W,1,10,1.4,18,M,,M,,*6A
06/13/2015	17:03:07.554	$GPGGA,170308,2422.8234,N,08106.3403,W,1,10,1.4,18,M,,M,,*60
06/13/2015	17:03:08.544	$GPGGA,170309,2422.8242,N,08106.3417,W,1,10,1.4,18,M,,M,,*65
06/13/2015	17:03:09.634	$GPGGA,170310,2422.8250,N,08106.3430,W,1,10,1.4,18,M,,M,,*6B
06/13/2015	17:03:10.544	$GPGGA,170311,2422.8260,N,08106.3446,W,1,10,1.4,18,M,,M,,*68
06/13/2015	17:03:11.644	$GPGGA,170312,2422.8268,N,08106.3461,W,1,10,1.4,18,M,,M,,*66
06/13/2015	17:03:12.544	$GPGGA,170313,2422.8277,N,08106.3475,W,1,10,1.4,18,M,,M,,*6C
06/13/2015	17:03:13.534	$GPGGA,170314,2422.8285,N,08106.3490,W,1,10,1.4,18,M,,M,,*6D
06/13/2015	17:03:14.534	$GPGGA,170315,2422.8292,N,08106.3504,W,1,10,1.4,18,M,,M,,*66
06/13/2015	17:03:15.616	$GPGGA,170316,2422.8299,N,08106.3517,W,1,10,1.4,18,M,,M,,*6C
06/13/2015	17:03:16.524	$GPGGA,170317,2422.8307,N,08106.3530,W,1,10,1.4,18,M,,M,,*6E
06/13/2015	17:03:17.509	$GPGGA,170318,2422.8317,N,08106.3544,W,1,10,1.4,18,M,,M,,*63
06/13/2015	17:03:18.511	$GPGGA,170319,2422.8322,N,08106.3560,W,1,10,1.4,18,M,,M,,*62
06/13/2015	17:03:20.123	$GPGGA,170320,2422.8332,N,08106.3576,W,1,10,1.4,18,M,,M,,*6E
06/13/2015	17:03:20.525	$GPGGA,170321,2422.8340,N,08106.3589,W,1,10,1.4,18,M,,M,,*6A
06/13/2015	17:03:21.625	$GPGGA,170322,2422.8340,N,08106.3589,W,1,10,1.4,18,M,,M,,*69
06/13/2015	17:03:22.515	$GPGGA,170323,2422.8354,N,08106.3620,W,1,10,1.4,18,M,,M,,*6D
06/13/2015	17:03:23.564	$GPGGA,170324,2422.8362,N,08106.3632,W,1,10,1.4,18,M,,M,,*6C
06/13/2015	17:03:24.594	$GPGGA,170325,2422.8371,N,08106.3645,W,1,10,1.4,18,M,,M,,*6F
06/13/2015	17:03:25.594	$GPGGA,170326,2422.8379,N,08106.3658,W,1,10,1.4,18,M,,M,,*68
06/13/2015	17:03:26.598	$GPGGA,170327,2422.8387,N,08106.3672,W,1,10,1.4,18,M,,M,,*60
06/13/2015	17:03:27.634	$GPGGA,170328,2422.8394,N,08106.3686,W,1,10,1.4,18,M,,M,,*66
06/13/2015	17:03:28.594	$GPGGA,170329,2422.8402,N,08106.3703,W,1,10,1.4,18,M,,M,,*63
06/13/2015	17:03:29.574	$GPGGA,170330,2422.8411,N,08106.3717,W,1,10,1.4,18,M,,M,,*6C
06/13/2015	17:03:30.584	$GPGGA,170331,2422.8419,N,08106.3732,W,1,10,1.4,18,M,,M,,*62
06/13/2015	17:03:31.619	$GPGGA,170332,2422.8426,N,08106.3746,W,1,10,1.4,18,M,,M,,*6E
06/13/2015	17:03:32.574	$GPGGA,170333,2422.8434,N,08106.3759,W,1,10,1.4,18,M,,M,,*62
06/13/2015	17:03:33.585	$GPGGA,170334,2422.8441,N,08106.3772,W,1,10,1.4,18,M,,M,,*6E
06/13/2015	17:03:34.584	$GPGGA,170335,2422.8448,N,08106.3786,W,1,10,1.4,18,M,,M,,*6D
06/13/2015	17:03:35.608	$GPGGA,170336,2422.8455,N,08106.3801,W,1,10,1.4,18,M,,M,,*62
06/13/2015	17:03:36.575	$GPGGA,170337,2422.8463,N,08106.3815,W,1,10,1.4,18,M,,M,,*63
06/13/2015	17:03:37.565	$GPGGA,170338,2422.8473,N,08106.3829,W,1,10,1.4,18,M,,M,,*62
06/13/2015	17:03:38.575	$GPGGA,170339,2422.8479,N,08106.3845,W,1,10,1.6,18,M,,M,,*61
06/13/2015	17:03:39.595	$GPGGA,170340,2422.8485,N,08106.3860,W,1,10,1.4,18,M,,M,,*69
06/13/2015	17:03:40.565	$GPGGA,170341,2422.8495,N,08106.3874,W,1,10,1.4,18,M,,M,,*6C
06/13/2015	17:03:41.574	$GPGGA,170342,2422.8502,N,08106.3889,W,1,10,1.4,18,M,,M,,*62
06/13/2015	17:03:42.554	$GPGGA,170343,2422.8509,N,08106.3902,W,1,10,1.4,18,M,,M,,*6A
06/13/2015	17:03:43.634	$GPGGA,170344,2422.8517,N,08106.3916,W,1,10,1.4,18,M,,M,,*67
06/13/2015	17:03:44.544	$GPGGA,170345,2422.8526,N,08106.3931,W,1,10,1.4,18,M,,M,,*61
06/13/2015	17:03:45.564	$GPGGA,170346,2422.8531,N,08106.3945,W,1,10,1.4,18,M,,M,,*67
06/13/2015	17:03:46.544	$GPGGA,170347,2422.8539,N,08106.3960,W,1,10,1.4,18,M,,M,,*69
06/13/2015	17:03:47.594	$GPGGA,170348,2422.8549,N,08106.3975,W,1,10,1.4,18,M,,M,,*65
06/13/2015	17:03:48.534	$GPGGA,170349,2422.8557,N,08106.3989,W,1,10,1.4,18,M,,M,,*68
06/13/2015	17:03:49.544	$GPGGA,170350,2422.8564,N,08106.4004,W,1,10,1.4,18,M,,M,,*6B
06/13/2015	17:03:50.544	$GPGGA,170351,2422.8571,N,08106.4018,W,1,10,1.4,18,M,,M,,*63
06/13/2015	17:03:51.544	$GPGGA,170352,2422.8579,N,08106.4032,W,1,10,1.4,18,M,,M,,*60
06/13/2015	17:03:52.524	$GPGGA,170353,2422.8586,N,08106.4046,W,1,10,1.4,18,M,,M,,*62
06/13/2015	17:03:53.544	$GPGGA,170354,2422.8593,N,08106.4061,W,1,10,1.4,18,M,,M,,*64
06/13/2015	17:03:54.525	$GPGGA,170355,2422.8602,N,08106.4076,W,1,10,1.4,18,M,,M,,*68
06/13/2015	17:03:55.535	$GPGGA,170356,2422.8611,N,08106.4090,W,1,10,1.4,18,M,,M,,*61
06/13/2015	17:03:56.535	$GPGGA,170357,2422.8618,N,08106.4104,W,1,10,1.6,18,M,,M,,*67
06/13/2015	17:03:57.820	$GPGGA,170358,2422.8625,N,08106.4118,W,1,10,1.4,18,M,,M,,*69
06/13/2015	17:03:58.534	$GPGGA,170359,2422.8635,N,08106.4131,W,1,10,1.4,18,M,,M,,*62
06/13/2015	17:03:59.624	$GPGGA,170400,2422.8643,N,08106.4144,W,1,10,1.4,18,M,,M,,*6A
06/13/2015	17:04:00.532	$GPGGA,170401,2422.8651,N,08106.4158,W,1,10,1.4,18,M,,M,,*65
06/13/2015	17:04:01.619	$GPGGA,170402,2422.8660,N,08106.4173,W,1,10,1.4,18,M,,M,,*6D
06/13/2015	17:04:02.524	$GPGGA,170403,2422.8667,N,08106.4189,W,1,10,1.4,18,M,,M,,*6E
06/13/2015	17:04:03.654	$GPGGA,170404,2422.8675,N,08106.4203,W,1,10,1.4,18,M,,M,,*6B
06/13/2015	17:04:04.607	$GPGGA,170405,2422.8683,N,08106.4217,W,1,10,1.4,18,M,,M,,*66
06/13/2015	17:04:05.605	$GPGGA,170406,2422.8690,N,08106.4230,W,1,10,1.4,18,M,,M,,*62
06/13/2015	17:04:06.597	$GPGGA,170407,2422.8697,N,08106.4245,W,1,10,1.4,18,M,,M,,*66
06/13/2015	17:04:07.601	$GPGGA,170408,2422.8705,N,08106.4259,W,1,10,1.4,18,M,,M,,*6E
06/13/2015	17:04:08.599	$GPGGA,170409,2422.8715,N,08106.4272,W,1,10,1.4,18,M,,M,,*67
06/13/2015	17:04:09.584	$GPGGA,170410,2422.8723,N,08106.4288,W,1,10,1.4,18,M,,M,,*6F
06/13/2015	17:04:10.585	$GPGGA,170411,2422.8730,N,08106.4303,W,1,10,1.4,18,M,,M,,*6E
06/13/2015	17:04:11.598	$GPGGA,170412,2422.8740,N,08106.4317,W,1,10,1.4,18,M,,M,,*6F
06/13/2015	17:04:12.584	$GPGGA,170413,2422.8747,N,08106.4332,W,1,10,1.4,18,M,,M,,*6E
06/13/2015	17:04:13.574	$GPGGA,170414,2422.8754,N,08106.4346,W,1,10,1.4,18,M,,M,,*68
06/13/2015	17:04:14.574	$GPGGA,170415,2422.8763,N,08106.4358,W,1,10,1.4,18,M,,M,,*62
06/13/2015	17:04:15.609	$GPGGA,170416,2422.8770,N,08106.4372,W,1,10,1.4,18,M,,M,,*6B
06/13/2015	17:04:16.563	$GPGGA,170417,2422.8780,N,08106.4386,W,1,10,1.7,18,M,,M,,*6D
06/13/2015	17:04:17.573	$GPGGA,170418,2422.8788,N,08106.4400,W,1,10,1.4,18,M,,M,,*60
06/13/2015	17:04:18.583	$GPGGA,170419,2422.8798,N,08106.4415,W,1,10,1.4,18,M,,M,,*64
06/13/2015	17:04:19.607	$GPGGA,170420,2422.8806,N,08106.4429,W,1,10,1.4,18,M,,M,,*69
06/13/2015	17:04:20.563	$GPGGA,170421,2422.8815,N,08106.4444,W,1,10,1.4,18,M,,M,,*61
06/13/2015	17:04:21.593	$GPGGA,170422,2422.8823,N,08106.4458,W,1,10,1.4,18,M,,M,,*6A
06/13/2015	17:04:22.564	$GPGGA,170423,2422.8831,N,08106.4472,W,1,10,1.4,18,M,,M,,*60
06/13/2015	17:04:23.598	$GPGGA,170424,2422.8839,N,08106.4485,W,1,10,1.4,18,M,,M,,*67
06/13/2015	17:04:24.598	$GPGGA,170425,2422.8846,N,08106.4498,W,1,10,1.4,18,M,,M,,*62
06/13/2015	17:04:25.574	$GPGGA,170426,2422.8855,N,08106.4512,W,1,10,1.4,18,M,,M,,*60
06/13/2015	17:04:26.554	$GPGGA,170427,2422.8864,N,08106.4525,W,1,10,1.4,18,M,,M,,*67
06/13/2015	17:04:27.554	$GPGGA,170428,2422.8874,N,08106.4541,W,1,10,1.4,18,M,,M,,*6B
06/13/2015	17:04:28.564	$GPGGA,170429,2422.8882,N,08106.4556,W,1,10,1.4,18,M,,M,,*65
06/13/2015	17:04:30.074	$GPGGA,170430,2422.8891,N,08106.4572,W,1,10,1.4,18,M,,M,,*69
06/13/2015	17:04:30.534	$GPGGA,170431,2422.8899,N,08106.4586,W,1,10,1.4,18,M,,M,,*6B
06/13/2015	17:04:31.584	$GPGGA,170432,2422.8907,N,08106.4599,W,1,10,1.4,18,M,,M,,*60
06/13/2015	17:04:32.534	$GPGGA,170433,2422.8913,N,08106.4613,W,1,10,1.4,18,M,,M,,*65
06/13/2015	17:04:33.573	$GPGGA,170434,2422.8921,N,08106.4624,W,1,10,1.4,18,M,,M,,*67
06/13/2015	17:04:34.543	$GPGGA,170435,2422.8929,N,08106.4637,W,1,10,1.4,18,M,,M,,*6C
06/13/2015	17:04:35.563	$GPGGA,170436,2422.8939,N,08106.4653,W,1,10,1.4,18,M,,M,,*6C
06/13/2015	17:04:36.533	$GPGGA,170437,2422.8946,N,08106.4671,W,1,10,1.4,18,M,,M,,*65
06/13/2015	17:04:37.523	$GPGGA,170438,2422.8954,N,08106.4686,W,1,10,1.4,18,M,,M,,*61
06/13/2015	17:04:38.543	$GPGGA,170439,2422.8962,N,08106.4700,W,1,10,1.4,18,M,,M,,*6A
06/13/2015	17:04:39.544	$GPGGA,170440,2422.8969,N,08106.4712,W,1,10,1.4,18,M,,M,,*6C
06/13/2015	17:04:40.534	$GPGGA,170441,2422.8976,N,08106.4725,W,1,10,1.4,18,M,,M,,*67
06/13/2015	17:04:41.524	$GPGGA,170442,2422.8985,N,08106.4736,W,1,10,1.4,18,M,,M,,*6A
06/13/2015	17:04:42.513	$GPGGA,170443,2422.8994,N,08106.4749,W,1,10,1.4,18,M,,M,,*63
06/13/2015	17:04:43.564	$GPGGA,170444,2422.9001,N,08106.4765,W,1,9,1.6,18,M,,M,,*54
06/13/2015	17:04:44.674	$GPGGA,170445,2422.9011,N,08106.4780,W,1,9,1.6,18,M,,M,,*5F
06/13/2015	17:04:45.524	$GPGGA,170446,2422.9019,N,08106.4796,W,1,9,1.7,18,M,,M,,*52
06/13/2015	17:04:46.498	$GPGGA,170447,2422.9026,N,08106.4812,W,1,9,1.4,18,M,,M,,*5F
06/13/2015	17:04:47.644	$GPGGA,170448,2422.9033,N,08106.4826,W,1,10,1.4,18,M,,M,,*6B
06/13/2015	17:04:48.524	$GPGGA,170449,2422.9041,N,08106.4837,W,1,10,1.4,18,M,,M,,*6F
06/13/2015	17:04:49.634	$GPGGA,170450,2422.9051,N,08106.4850,W,1,10,1.4,18,M,,M,,*67
06/13/2015	17:04:50.513	$GPGGA,170451,2422.9058,N,08106.4866,W,1,10,1.4,18,M,,M,,*6A
06/13/2015	17:04:51.599	$GPGGA,170452,2422.9066,N,08106.4881,W,1,10,1.4,18,M,,M,,*6D
06/13/2015	17:04:52.583	$GPGGA,170453,2422.9074,N,08106.4895,W,1,10,1.4,18,M,,M,,*6A
06/13/2015	17:04:53.643	$GPGGA,170454,2422.9083,N,08106.4910,W,1,10,1.4,18,M,,M,,*69
06/13/2015	17:04:54.585	$GPGGA,170455,2422.9090,N,08106.4924,W,1,10,1.4,18,M,,M,,*6D
06/13/2015	17:04:55.623	$GPGGA,170456,2422.9098,N,08106.4938,W,1,10,1.4,18,M,,M,,*6B
06/13/2015	17:04:56.583	$GPGGA,170457,2422.9106,N,08106.4950,W,1,10,1.4,18,M,,M,,*62
06/13/2015	17:04:57.575	$GPGGA,170458,2422.9115,N,08106.4964,W,1,10,1.4,19,M,,M,,*69
06/13/2015	17:04:58.584	$GPGGA,170459,2422.9123,N,08106.4978,W,1,10,1.4,19,M,,M,,*60
06/13/2015	17:04:59.619	$GPGGA,170500,2422.9131,N,08106.4993,W,1,10,1.4,19,M,,M,,*6B
06/13/2015	17:05:00.574	$GPGGA,170501,2422.9138,N,08106.5007,W,1,10,1.4,19,M,,M,,*66
06/13/2015	17:05:01.596	$GPGGA,170502,2422.9146,N,08106.5022,W,1,10,1.4,19,M,,M,,*6B
06/13/2015	17:05:02.574	$GPGGA,170503,2422.9153,N,08106.5036,W,1,10,1.4,19,M,,M,,*6B
06/13/2015	17:05:03.609	$GPGGA,170504,2422.9160,N,08106.5050,W,1,10,1.4,19,M,,M,,*6C
06/13/2015	17:05:04.564	$GPGGA,170505,2422.9167,N,08106.5062,W,1,10,1.4,19,M,,M,,*6B
06/13/2015	17:05:05.584	$GPGGA,170506,2422.9174,N,08106.5076,W,1,10,1.4,19,M,,M,,*6F
06/13/2015	17:05:06.554	$GPGGA,170507,2422.9184,N,08106.5090,W,1,10,1.4,19,M,,M,,*69
06/13/2015	17:05:07.584	$GPGGA,170508,2422.9191,N,08106.5105,W,1,9,1.7,19,M,,M,,*54
06/13/2015	17:05:08.563	$GPGGA,170509,2422.9196,N,08106.5120,W,1,9,1.4,19,M,,M,,*56
06/13/2015	17:05:09.553	$GPGGA,170510,2422.9203,N,08106.5134,W,1,10,1.4,19,M,,M,,*6C
06/13/2015	17:05:10.573	$GPGGA,170511,2422.9211,N,08106.5148,W,1,10,1.4,19,M,,M,,*65
06/13/2015	17:05:11.583	$GPGGA,170512,2422.9218,N,08106.5163,W,1,10,1.4,19,M,,M,,*66
06/13/2015	17:05:12.543	$GPGGA,170513,2422.9227,N,08106.5177,W,1,10,1.4,19,M,,M,,*6E
06/13/2015	17:05:13.587	$GPGGA,170514,2422.9234,N,08106.5192,W,1,10,1.4,19,M,,M,,*60
06/13/2015	17:05:14.534	$GPGGA,170515,2422.9242,N,08106.5206,W,1,10,1.7,19,M,,M,,*6D
06/13/2015	17:05:15.574	$GPGGA,170516,2422.9249,N,08106.5218,W,1,10,1.4,19,M,,M,,*69
06/13/2015	17:05:16.544	$GPGGA,170517,2422.9257,N,08106.5232,W,1,10,1.4,19,M,,M,,*6F
06/13/2015	17:05:17.544	$GPGGA,170518,2422.9264,N,08106.5246,W,1,10,1.4,19,M,,M,,*63
06/13/2015	17:05:18.554	$GPGGA,170519,2422.9272,N,08106.5260,W,1,10,1.4,19,M,,M,,*61
06/13/2015	17:05:19.554	$GPGGA,170520,2422.9279,N,08106.5275,W,1,10,1.4,19,M,,M,,*64
06/13/2015	17:05:20.534	$GPGGA,170521,2422.9289,N,08106.5289,W,1,10,1.4,19,M,,M,,*69
06/13/2015	17:05:21.544	$GPGGA,170522,2422.9297,N,08106.5303,W,1,10,1.4,19,M,,M,,*66
06/13/2015	17:05:22.554	$GPGGA,170523,2422.9304,N,08106.5318,W,1,10,1.4,19,M,,M,,*66
06/13/2015	17:05:23.564	$GPGGA,170524,2422.9312,N,08106.5329,W,1,10,1.4,19,M,,M,,*64
06/13/2015	17:05:24.524	$GPGGA,170525,2422.9321,N,08106.5343,W,1,10,1.4,19,M,,M,,*69
06/13/2015	17:05:25.513	$GPGGA,170526,2422.9326,N,08106.5357,W,1,10,1.4,19,M,,M,,*68
06/13/2015	17:05:26.533	$GPGGA,170527,2422.9334,N,08106.5370,W,1,10,1.4,19,M,,M,,*6F
06/13/2015	17:05:27.709	$GPGGA,170528,2422.9344,N,08106.5386,W,1,10,1.7,19,M,,M,,*6D
06/13/2015	17:05:28.653	$GPGGA,170529,2422.9352,N,08106.5401,W,1,10,1.7,19,M,,M,,*63
06/13/2015	17:05:29.508	$GPGGA,170530,2422.9359,N,08106.5417,W,1,9,1.7,19,M,,M,,*5F
06/13/2015	17:05:30.506	$GPGGA,170531,2422.9366,N,08106.5433,W,1,9,1.7,19,M,,M,,*54
06/13/2015	17:05:31.523	$GPGGA,170532,2422.9375,N,08106.5448,W,1,9,1.7,19,M,,M,,*59
06/13/2015	17:05:32.634	$GPGGA,170533,2422.9380,N,08106.5462,W,1,9,1.7,19,M,,M,,*5A
06/13/2015	17:05:33.684	$GPGGA,170534,2422.9388,N,08106.5475,W,1,9,1.7,19,M,,M,,*53
06/13/2015	17:05:34.524	$GPGGA,170535,2422.9395,N,08106.5489,W,1,9,1.7,19,M,,M,,*5D
06/13/2015	17:05:35.524	$GPGGA,170536,2422.9402,N,08106.5504,W,1,9,1.7,19,M,,M,,*53
06/13/2015	17:05:36.497	$GPGGA,170537,2422.9411,N,08106.5520,W,1,9,1.7,19,M,,M,,*56
06/13/2015	17:05:37.502	$GPGGA,170538,2422.9419,N,08106.5536,W,1,9,1.7,19,M,,M,,*56
06/13/2015	17:05:38.584	$GPGGA,170539,2422.9427,N,08106.5553,W,1,9,1.7,18,M,,M,,*58
06/13/2015	17:05:39.684	$GPGGA,170540,2422.9434,N,08106.5567,W,1,9,1.7,18,M,,M,,*53
06/13/2015	17:05:40.504	$GPGGA,170541,2422.9441,N,08106.5582,W,1,9,1.7,18,M,,M,,*5B
06/13/2015	17:05:41.494	$GPGGA,170542,2422.9449,N,08106.5594,W,1,9,1.7,18,M,,M,,*57
06/13/2015	17:05:42.496	$GPGGA,170543,2422.9456,N,08106.5607,W,1,9,1.7,18,M,,M,,*51
06/13/2015	17:05:43.696	$GPGGA,170544,2422.9463,N,08106.5621,W,1,9,1.7,18,M,,M,,*54
06/13/2015	17:05:44.573	$GPGGA,170545,2422.9471,N,08106.5636,W,1,9,1.7,18,M,,M,,*50
06/13/2015	17:05:45.673	$GPGGA,170546,2422.9482,N,08106.5651,W,1,9,1.7,18,M,,M,,*5E
06/13/2015	17:05:46.595	$GPGGA,170547,2422.9489,N,08106.5668,W,1,9,1.7,18,M,,M,,*5E
06/13/2015	17:05:47.683	$GPGGA,170548,2422.9499,N,08106.5683,W,1,9,1.7,18,M,,M,,*55
06/13/2015	17:05:48.610	$GPGGA,170549,2422.9509,N,08106.5697,W,1,9,1.7,18,M,,M,,*59
06/13/2015	17:05:49.554	$GPGGA,170550,2422.9516,N,08106.5712,W,1,9,1.7,18,M,,M,,*53
06/13/2015	17:05:50.554	$GPGGA,170551,2422.9523,N,08106.5723,W,1,9,1.7,18,M,,M,,*56
06/13/2015	17:05:51.684	$GPGGA,170552,2422.9532,N,08106.5734,W,1,9,1.7,18,M,,M,,*53
06/13/2015	17:05:52.584	$GPGGA,170553,2422.9540,N,08106.5746,W,1,9,1.7,18,M,,M,,*52
06/13/2015	17:05:53.554	$GPGGA,170554,2422.9550,N,08106.5762,W,1,8,1.9,17,M,,M,,*52
06/13/2015	17:05:54.554	$GPGGA,170555,2422.9558,N,08106.5777,W,1,8,1.7,17,M,,M,,*51
06/13/2015	17:05:55.564	$GPGGA,170556,2422.9568,N,08106.5795,W,1,9,1.7,17,M,,M,,*5C
06/13/2015	17:05:56.544	$GPGGA,170557,2422.9578,N,08106.5810,W,1,9,1.7,17,M,,M,,*5E
06/13/2015	17:05:57.654	$GPGGA,170558,2422.9586,N,08106.5824,W,1,9,1.5,17,M,,M,,*55
06/13/2015	17:05:58.584	$GPGGA,170559,2422.9594,N,08106.5836,W,1,9,1.5,17,M,,M,,*54
06/13/2015	17:05:59.674	$GPGGA,170600,2422.9601,N,08106.5849,W,1,9,1.5,17,M,,M,,*5C
06/13/2015	17:06:00.573	$GPGGA,170601,2422.9610,N,08106.5861,W,1,9,1.5,17,M,,M,,*57
06/13/2015	17:06:01.653	$GPGGA,170602,2422.9619,N,08106.5874,W,1,9,1.5,17,M,,M,,*59
06/13/2015	17:06:02.533	$GPGGA,170603,2422.9630,N,08106.5889,W,1,9,1.5,17,M,,M,,*51
06/13/2015	17:06:03.683	$GPGGA,170604,2422.9640,N,08106.5903,W,1,9,1.5,17,M,,M,,*52
06/13/2015	17:06:04.563	$GPGGA,170605,2422.9648,N,08106.5918,W,1,9,1.5,17,M,,M,,*51
06/13/2015	17:06:05.613	$GPGGA,170606,2422.9659,N,08106.5932,W,1,9,1.5,17,M,,M,,*5A
06/13/2015	17:06:06.523	$GPGGA,170607,2422.9670,N,08106.5943,W,1,9,1.5,17,M,,M,,*56
06/13/2015	17:06:07.614	$GPGGA,170608,2422.9684,N,08106.5954,W,1,9,1.5,17,M,,M,,*54
06/13/2015	17:06:08.574	$GPGGA,170609,2422.9695,N,08106.5965,W,1,9,1.5,17,M,,M,,*57
06/13/2015	17:06:09.634	$GPGGA,170610,2422.9704,N,08106.5979,W,1,9,1.5,17,M,,M,,*5B
06/13/2015	17:06:10.554	$GPGGA,170611,2422.9715,N,08106.5990,W,1,9,1.7,17,M,,M,,*5F
06/13/2015	17:06:11.634	$GPGGA,170612,2422.9726,N,08106.6002,W,1,9,1.7,17,M,,M,,*5D
06/13/2015	17:06:12.554	$GPGGA,170613,2422.9735,N,08106.6016,W,1,9,1.7,18,M,,M,,*54
06/13/2015	17:06:13.624	$GPGGA,170614,2422.9747,N,08106.6031,W,1,9,1.7,18,M,,M,,*53
06/13/2015	17:06:14.514	$GPGGA,170615,2422.9759,N,08106.6044,W,1,9,1.7,18,M,,M,,*5F
06/13/2015	17:06:15.597	$GPGGA,170616,2422.9771,N,08106.6055,W,1,9,1.7,18,M,,M,,*56
06/13/2015	17:06:16.608	$GPGGA,170617,2422.9780,N,08106.6069,W,1,9,1.7,18,M,,M,,*56
06/13/2015	17:06:17.634	$GPGGA,170618,2422.9789,N,08106.6080,W,1,9,1.7,18,M,,M,,*57
06/13/2015	17:06:18.543	$GPGGA,170619,2422.9799,N,08106.6091,W,1,9,1.7,18,M,,M,,*57
06/13/2015	17:06:19.595	$GPGGA,170620,2422.9811,N,08106.6100,W,1,9,1.5,18,M,,M,,*59
06/13/2015	17:06:20.597	$GPGGA,170621,2422.9823,N,08106.6113,W,1,9,1.5,18,M,,M,,*5B
06/13/2015	17:06:21.498	$GPGGA,170622,2422.9835,N,08106.6125,W,1,9,1.5,18,M,,M,,*5A
06/13/2015	17:06:22.597	$GPGGA,170623,2422.9846,N,08106.6138,W,1,9,1.5,19,M,,M,,*52
06/13/2015	17:06:23.623	$GPGGA,170624,2422.9857,N,08106.6150,W,1,9,1.5,19,M,,M,,*5B
06/13/2015	17:06:24.594	$GPGGA,170625,2422.9868,N,08106.6160,W,1,9,1.5,19,M,,M,,*55
06/13/2015	17:06:25.588	$GPGGA,170626,2422.9879,N,08106.6171,W,1,9,1.5,19,M,,M,,*56
06/13/2015	17:06:26.600	$GPGGA,170627,2422.9889,N,08106.6181,W,1,9,1.5,19,M,,M,,*57
06/13/2015	17:06:27.584	$GPGGA,170628,2422.9899,N,08106.6190,W,1,9,1.5,19,M,,M,,*59
06/13/2015	17:06:28.584	$GPGGA,170629,2422.9910,N,08106.6199,W,1,9,1.5,19,M,,M,,*51
06/13/2015	17:06:29.624	$GPGGA,170630,2422.9919,N,08106.6208,W,1,9,1.5,19,M,,M,,*5B
06/13/2015	17:06:30.584	$GPGGA,170631,2422.9926,N,08106.6218,W,1,9,1.7,20,M,,M,,*5F
06/13/2015	17:06:31.598	$GPGGA,170632,2422.9937,N,08106.6228,W,1,9,1.5,20,M,,M,,*5D
06/13/2015	17:06:32.574	$GPGGA,170633,2422.9946,N,08106.6236,W,1,9,1.5,20,M,,M,,*55
06/13/2015	17:06:33.596	$GPGGA,170634,2422.9954,N,08106.6241,W,1,9,1.5,20,M,,M,,*51
06/13/2015	17:06:34.574	$GPGGA,170635,2422.9959,N,08106.6250,W,1,9,1.7,20,M,,M,,*5F
06/13/2015	17:06:35.612	$GPGGA,170636,2422.9969,N,08106.6257,W,1,9,1.5,20,M,,M,,*5A
06/13/2015	17:06:36.563	$GPGGA,170637,2422.9977,N,08106.6261,W,1,9,1.7,20,M,,M,,*53
06/13/2015	17:06:37.594	$GPGGA,170638,2422.9983,N,08106.6268,W,1,8,1.5,20,M,,M,,*5D
06/13/2015	17:06:38.563	$GPGGA,170639,2422.9990,N,08106.6273,W,1,8,1.5,20,M,,M,,*54
06/13/2015	17:06:39.623	$GPGGA,170640,2422.9998,N,08106.6276,W,1,9,1.5,20,M,,M,,*56
06/13/2015	17:06:40.553	$GPGGA,170641,2423.0005,N,08106.6283,W,1,9,1.5,20,M,,M,,*58
06/13/2015	17:06:41.584	$GPGGA,170642,2423.0013,N,08106.6286,W,1,9,1.5,20,M,,M,,*59
06/13/2015	17:06:42.554	$GPGGA,170643,2423.0013,N,08106.6286,W,1,9,1.5,20,M,,M,,*58
06/13/2015	17:06:43.608	$GPGGA,170644,2423.0022,N,08106.6290,W,1,9,1.5,20,M,,M,,*5A
06/13/2015	17:06:44.554	$GPGGA,170645,2423.0033,N,08106.6300,W,1,9,1.5,20,M,,M,,*53
06/13/2015	17:06:45.584	$GPGGA,170646,2423.0038,N,08106.6304,W,1,9,1.5,20,M,,M,,*5F
06/13/2015	17:06:46.554	$GPGGA,170647,2423.0045,N,08106.6308,W,1,9,1.5,20,M,,M,,*58
06/13/2015	17:06:47.610	$GPGGA,170648,2423.0049,N,08106.6312,W,1,10,1.5,20,M,,M,,*68
06/13/2015	17:06:48.594	$GPGGA,170649,2423.0055,N,08106.6318,W,1,10,1.5,20,M,,M,,*6E
06/13/2015	17:06:49.584	$GPGGA,170650,2423.0060,N,08106.6322,W,1,10,1.5,20,M,,M,,*69
06/13/2015	17:06:50.554	$GPGGA,170651,2423.0060,N,08106.6322,W,1,10,1.5,20,M,,M,,*68
06/13/2015	17:06:51.584	$GPGGA,170652,2423.0070,N,08106.6327,W,1,10,1.5,20,M,,M,,*6F
06/13/2015	17:06:52.534	$GPGGA,170653,2423.0074,N,08106.6333,W,1,10,1.5,20,M,,M,,*6F
06/13/2015	17:06:53.573	$GPGGA,170654,2423.0074,N,08106.6333,W,1,10,1.5,20,M,,M,,*68
06/13/2015	17:06:54.533	$GPGGA,170655,2423.0084,N,08106.6340,W,1,10,1.5,20,M,,M,,*62
06/13/2015	17:06:55.607	$GPGGA,170656,2423.0088,N,08106.6342,W,1,10,1.5,20,M,,M,,*6F
06/13/2015	17:06:56.643	$GPGGA,170657,2423.0092,N,08106.6345,W,1,10,1.5,20,M,,M,,*62
06/13/2015	17:06:57.663	$GPGGA,170658,2423.0096,N,08106.6351,W,1,10,1.5,20,M,,M,,*6C
06/13/2015	17:06:58.523	$GPGGA,170659,2423.0099,N,08106.6353,W,1,10,1.5,20,M,,M,,*60
06/13/2015	17:06:59.674	$GPGGA,170700,2423.0103,N,08106.6353,W,1,10,1.5,20,M,,M,,*6F
06/13/2015	17:07:00.534	$GPGGA,170701,2423.0107,N,08106.6355,W,1,10,1.6,20,M,,M,,*6F
06/13/2015	17:07:01.644	$GPGGA,170702,2423.0107,N,08106.6355,W,1,9,1.6,20,M,,M,,*54
06/13/2015	17:07:02.524	$GPGGA,170703,2423.0114,N,08106.6365,W,1,9,1.5,20,M,,M,,*57
06/13/2015	17:07:03.974	$GPGGA,170704,2423.0121,N,08106.6364,W,1,10,1.5,20,M,,M,,*6F
06/13/2015	17:07:04.514	$GPGGA,170705,2423.0125,N,08106.6367,W,1,10,1.5,20,M,,M,,*69
06/13/2015	17:07:05.509	$GPGGA,170706,2423.0125,N,08106.6367,W,1,10,1.5,20,M,,M,,*6A
06/13/2015	17:07:07.544	$GPGGA,170707,2423.0131,N,08106.6376,W,1,10,1.7,20,M,,M,,*6C
06/13/2015	17:07:07.574	$GPGGA,170708,2423.0136,N,08106.6375,W,1,10,1.5,20,M,,M,,*65
06/13/2015	17:07:08.524	$GPGGA,170709,2423.0136,N,08106.6375,W,1,10,1.5,20,M,,M,,*64
06/13/2015	17:07:09.496	$GPGGA,170710,2423.0141,N,08106.6377,W,1,9,1.7,20,M,,M,,*54
06/13/2015	17:07:10.583	$GPGGA,170711,2423.0148,N,08106.6384,W,1,9,1.5,20,M,,M,,*52
06/13/2015	17:07:11.602	$GPGGA,170712,2423.0153,N,08106.6382,W,1,10,1.5,20,M,,M,,*65
06/13/2015	17:07:12.496	$GPGGA,170713,2423.0154,N,08106.6385,W,1,10,1.6,20,M,,M,,*67
06/13/2015	17:07:13.517	$GPGGA,170714,2423.0154,N,08106.6385,W,1,10,1.5,20,M,,M,,*63
06/13/2015	17:07:14.595	$GPGGA,170715,2423.0161,N,08106.6386,W,1,10,1.5,20,M,,M,,*67
06/13/2015	17:07:15.608	$GPGGA,170716,2423.0164,N,08106.6387,W,1,10,1.5,20,M,,M,,*60
06/13/2015	17:07:16.584	$GPGGA,170717,2423.0164,N,08106.6391,W,1,10,1.7,20,M,,M,,*64
06/13/2015	17:07:17.574	$GPGGA,170718,2423.0168,N,08106.6394,W,1,10,1.5,20,M,,M,,*60
06/13/2015	17:07:18.584	$GPGGA,170719,2423.0175,N,08106.6391,W,1,10,1.5,20,M,,M,,*68
06/13/2015	17:07:19.617	$GPGGA,170720,2423.0177,N,08106.6392,W,1,10,1.5,20,M,,M,,*63
06/13/2015	17:07:20.574	$GPGGA,170721,2423.0179,N,08106.6395,W,1,10,1.5,20,M,,M,,*6B
06/13/2015	17:07:21.596	$GPGGA,170722,2423.0183,N,08106.6394,W,1,9,1.7,20,M,,M,,*56
06/13/2015	17:07:22.574	$GPGGA,170723,2423.0189,N,08106.6395,W,1,9,1.5,20,M,,M,,*5E
06/13/2015	17:07:23.595	$GPGGA,170724,2423.0192,N,08106.6396,W,1,10,1.5,20,M,,M,,*68
06/13/2015	17:07:24.574	$GPGGA,170725,2423.0197,N,08106.6396,W,1,10,1.7,20,M,,M,,*6E
06/13/2015	17:07:25.554	$GPGGA,170726,2423.0201,N,08106.6398,W,1,10,1.5,21,M,,M,,*6C
06/13/2015	17:07:26.554	$GPGGA,170727,2423.0203,N,08106.6398,W,1,10,1.7,21,M,,M,,*6D
06/13/2015	17:07:27.594	$GPGGA,170728,2423.0206,N,08106.6400,W,1,9,1.7,21,M,,M,,*59
06/13/2015	17:07:28.563	$GPGGA,170729,2423.0208,N,08106.6402,W,1,9,1.7,21,M,,M,,*54
06/13/2015	17:07:29.583	$GPGGA,170730,2423.0211,N,08106.6403,W,1,9,1.7,21,M,,M,,*55
06/13/2015	17:07:30.543	$GPGGA,170731,2423.0214,N,08106.6405,W,1,9,1.7,21,M,,M,,*57
06/13/2015	17:07:31.593	$GPGGA,170732,2423.0218,N,08106.6407,W,1,10,1.5,21,M,,M,,*60
06/13/2015	17:07:32.553	$GPGGA,170733,2423.0222,N,08106.6409,W,1,10,1.7,21,M,,M,,*64
06/13/2015	17:07:33.553	$GPGGA,170734,2423.0225,N,08106.6407,W,1,10,1.5,21,M,,M,,*68
06/13/2015	17:07:34.554	$GPGGA,170735,2423.0226,N,08106.6409,W,1,10,1.5,21,M,,M,,*64
06/13/2015	17:07:35.544	$GPGGA,170736,2423.0229,N,08106.6412,W,1,10,1.5,21,M,,M,,*62
06/13/2015	17:07:36.544	$GPGGA,170737,2423.0233,N,08106.6413,W,1,10,1.7,21,M,,M,,*6B
06/13/2015	17:07:37.564	$GPGGA,170738,2423.0237,N,08106.6413,W,1,9,1.7,21,M,,M,,*58
06/13/2015	17:07:38.534	$GPGGA,170739,2423.0240,N,08106.6416,W,1,9,1.7,21,M,,M,,*5C
06/13/2015	17:07:39.544	$GPGGA,170740,2423.0244,N,08106.6417,W,1,10,1.5,20,M,,M,,*6C
06/13/2015	17:07:40.534	$GPGGA,170741,2423.0247,N,08106.6417,W,1,10,1.5,20,M,,M,,*6E
06/13/2015	17:07:41.534	$GPGGA,170742,2423.0253,N,08106.6417,W,1,9,1.7,20,M,,M,,*52
06/13/2015	17:07:42.514	$GPGGA,170743,2423.0254,N,08106.6420,W,1,9,1.5,20,M,,M,,*52
06/13/2015	17:07:43.614	$GPGGA,170744,2423.0258,N,08106.6421,W,1,9,1.7,20,M,,M,,*5A
06/13/2015	17:07:44.534	$GPGGA,170745,2423.0264,N,08106.6420,W,1,9,1.7,20,M,,M,,*55
06/13/2015	17:07:45.533	$GPGGA,170746,2423.0268,N,08106.6420,W,1,10,1.5,20,M,,M,,*60
06/13/2015	17:07:46.513	$GPGGA,170747,2423.0271,N,08106.6423,W,1,10,1.5,20,M,,M,,*6A
06/13/2015	17:07:47.533	$GPGGA,170748,2423.0276,N,08106.6422,W,1,10,1.5,20,M,,M,,*63
06/13/2015	17:07:48.513	$GPGGA,170749,2423.0280,N,08106.6423,W,1,10,1.5,20,M,,M,,*6A
06/13/2015	17:07:49.504	$GPGGA,170750,2423.0283,N,08106.6424,W,1,10,1.5,20,M,,M,,*66
06/13/2015	17:07:50.623	$GPGGA,170751,2423.0286,N,08106.6424,W,1,10,1.5,20,M,,M,,*62
06/13/2015	17:07:51.524	$GPGGA,170752,2423.0290,N,08106.6425,W,1,10,1.5,20,M,,M,,*67
06/13/2015	17:07:52.598	$GPGGA,170753,2423.0294,N,08106.6425,W,1,10,1.5,20,M,,M,,*62
06/13/2015	17:07:53.595	$GPGGA,170754,2423.0298,N,08106.6425,W,1,9,1.7,20,M,,M,,*53
06/13/2015	17:07:54.614	$GPGGA,170755,2423.0300,N,08106.6428,W,1,9,1.5,20,M,,M,,*5D
06/13/2015	17:07:55.534	$GPGGA,170756,2423.0302,N,08106.6430,W,1,10,1.5,20,M,,M,,*6D
06/13/2015	17:07:56.507	$GPGGA,170757,2423.0307,N,08106.6429,W,1,10,1.5,20,M,,M,,*61
06/13/2015	17:07:57.594	$GPGGA,170758,2423.0311,N,08106.6431,W,1,10,1.5,21,M,,M,,*61
06/13/2015	17:07:58.598	$GPGGA,170759,2423.0313,N,08106.6434,W,1,10,1.7,21,M,,M,,*65
06/13/2015	17:07:59.644	$GPGGA,170800,2423.0316,N,08106.6434,W,1,10,1.5,21,M,,M,,*61
06/13/2015	17:08:01.634	$GPGGA,170802,2423.0322,N,08106.6434,W,1,9,1.7,21,M,,M,,*5E
06/13/2015	17:08:02.574	$GPGGA,170803,2423.0323,N,08106.6438,W,1,9,1.5,21,M,,M,,*50
06/13/2015	17:08:03.613	$GPGGA,170804,2423.0326,N,08106.6439,W,1,10,1.5,21,M,,M,,*6B
06/13/2015	17:08:04.573	$GPGGA,170805,2423.0329,N,08106.6439,W,1,10,1.7,21,M,,M,,*67
06/13/2015	17:08:05.573	$GPGGA,170806,2423.0333,N,08106.6438,W,1,10,1.5,21,M,,M,,*6C
06/13/2015	17:08:06.583	$GPGGA,170807,2423.0336,N,08106.6441,W,1,10,1.5,21,M,,M,,*66
06/13/2015	17:08:07.613	$GPGGA,170808,2423.0335,N,08106.6443,W,1,10,1.5,21,M,,M,,*68
06/13/2015	17:08:08.573	$GPGGA,170809,2423.0338,N,08106.6443,W,1,10,1.5,21,M,,M,,*64
06/13/2015	17:08:09.597	$GPGGA,170810,2423.0344,N,08106.6440,W,1,9,1.7,21,M,,M,,*5E
06/13/2015	17:08:10.564	$GPGGA,170811,2423.0347,N,08106.6439,W,1,9,1.5,21,M,,M,,*50
06/13/2015	17:08:11.599	$GPGGA,170812,2423.0349,N,08106.6441,W,1,10,1.5,21,M,,M,,*6A
06/13/2015	17:08:12.574	$GPGGA,170813,2423.0352,N,08106.6442,W,1,10,1.5,21,M,,M,,*62
06/13/2015	17:08:13.574	$GPGGA,170814,2423.0356,N,08106.6441,W,1,10,1.5,21,M,,M,,*62
06/13/2015	17:08:14.564	$GPGGA,170815,2423.0360,N,08106.6440,W,1,10,1.5,21,M,,M,,*67
06/13/2015	17:08:15.574	$GPGGA,170816,2423.0363,N,08106.6441,W,1,10,1.5,21,M,,M,,*66
06/13/2015	17:08:16.544	$GPGGA,170817,2423.0366,N,08106.6442,W,1,10,1.5,21,M,,M,,*61
06/13/2015	17:08:17.574	$GPGGA,170818,2423.0370,N,08106.6442,W,1,10,1.5,21,M,,M,,*69
06/13/2015	17:08:18.554	$GPGGA,170819,2423.0376,N,08106.6442,W,1,10,1.5,21,M,,M,,*6E
06/13/2015	17:08:19.584	$GPGGA,170820,2423.0378,N,08106.6443,W,1,10,1.5,21,M,,M,,*6B
06/13/2015	17:08:20.543	$GPGGA,170821,2423.0380,N,08106.6445,W,1,10,1.5,21,M,,M,,*6B
06/13/2015	17:08:21.543	$GPGGA,170822,2423.0385,N,08106.6445,W,1,10,1.5,21,M,,M,,*6D
06/13/2015	17:08:22.543	$GPGGA,170823,2423.0388,N,08106.6445,W,1,10,1.5,21,M,,M,,*61
06/13/2015	17:08:23.583	$GPGGA,170824,2423.0391,N,08106.6447,W,1,9,1.7,21,M,,M,,*56
06/13/2015	17:08:24.543	$GPGGA,170825,2423.0394,N,08106.6449,W,1,9,1.5,21,M,,M,,*5E
06/13/2015	17:08:25.573	$GPGGA,170826,2423.0399,N,08106.6449,W,1,10,1.5,21,M,,M,,*68
06/13/2015	17:08:26.544	$GPGGA,170827,2423.0403,N,08106.6450,W,1,10,1.5,21,M,,M,,*65
06/13/2015	17:08:27.574	$GPGGA,170828,2423.0405,N,08106.6452,W,1,10,1.5,21,M,,M,,*6E
06/13/2015	17:08:28.534	$GPGGA,170829,2423.0407,N,08106.6451,W,1,10,1.7,21,M,,M,,*6C
06/13/2015	17:08:29.544	$GPGGA,170830,2423.0410,N,08106.6453,W,1,10,1.5,21,M,,M,,*62
06/13/2015	17:08:30.534	$GPGGA,170831,2423.0414,N,08106.6456,W,1,10,1.5,21,M,,M,,*62
06/13/2015	17:08:31.524	$GPGGA,170832,2423.0417,N,08106.6457,W,1,10,1.5,21,M,,M,,*63
06/13/2015	17:08:32.524	$GPGGA,170833,2423.0421,N,08106.6459,W,1,10,1.5,21,M,,M,,*69
06/13/2015	17:08:33.544	$GPGGA,170834,2423.0421,N,08106.6461,W,1,10,1.5,21,M,,M,,*65
06/13/2015	17:08:34.524	$GPGGA,170835,2423.0424,N,08106.6463,W,1,10,1.5,21,M,,M,,*63
06/13/2015	17:08:35.534	$GPGGA,170836,2423.0428,N,08106.6463,W,1,10,1.5,21,M,,M,,*6C
06/13/2015	17:08:36.613	$GPGGA,170837,2423.0431,N,08106.6465,W,1,10,1.5,21,M,,M,,*63
06/13/2015	17:08:37.504	$GPGGA,170838,2423.0432,N,08106.6467,W,1,9,1.7,21,M,,M,,*57
06/13/2015	17:08:38.523	$GPGGA,170839,2423.0436,N,08106.6470,W,1,9,1.7,21,M,,M,,*54
06/13/2015	17:08:39.608	$GPGGA,170840,2423.0439,N,08106.6471,W,1,10,1.5,21,M,,M,,*6E
06/13/2015	17:08:40.513	$GPGGA,170841,2423.0442,N,08106.6474,W,1,10,1.5,21,M,,M,,*66
06/13/2015	17:08:41.503	$GPGGA,170842,2423.0443,N,08106.6475,W,1,10,1.5,21,M,,M,,*65
06/13/2015	17:08:42.620	$GPGGA,170843,2423.0445,N,08106.6478,W,1,10,1.5,21,M,,M,,*6F
06/13/2015	17:08:43.643	$GPGGA,170844,2423.0448,N,08106.6478,W,1,10,1.5,20,M,,M,,*64
06/13/2015	17:08:44.598	$GPGGA,170845,2423.0449,N,08106.6481,W,1,10,1.5,20,M,,M,,*62
06/13/2015	17:08:45.598	$GPGGA,170846,2423.0450,N,08106.6482,W,1,10,1.5,20,M,,M,,*6A
06/13/2015	17:08:46.597	$GPGGA,170847,2423.0454,N,08106.6483,W,1,10,1.5,20,M,,M,,*6E
06/13/2015	17:08:47.606	$GPGGA,170848,2423.0457,N,08106.6485,W,1,10,1.5,20,M,,M,,*64
06/13/2015	17:08:48.598	$GPGGA,170849,2423.0459,N,08106.6488,W,1,10,1.5,20,M,,M,,*66
06/13/2015	17:08:49.574	$GPGGA,170850,2423.0461,N,08106.6488,W,1,10,1.5,20,M,,M,,*65
06/13/2015	17:08:50.584	$GPGGA,170851,2423.0464,N,08106.6488,W,1,10,1.5,20,M,,M,,*61
06/13/2015	17:08:51.606	$GPGGA,170852,2423.0466,N,08106.6488,W,1,10,1.5,20,M,,M,,*60
06/13/2015	17:08:52.574	$GPGGA,170853,2423.0468,N,08106.6490,W,1,10,1.5,20,M,,M,,*66
06/13/2015	17:08:53.595	$GPGGA,170854,2423.0468,N,08106.6492,W,1,10,1.5,20,M,,M,,*63
06/13/2015	17:08:54.584	$GPGGA,170855,2423.0471,N,08106.6493,W,1,10,1.5,20,M,,M,,*6B
06/13/2015	17:08:55.623	$GPGGA,170856,2423.0474,N,08106.6495,W,1,10,1.5,20,M,,M,,*6B
06/13/2015	17:08:56.573	$GPGGA,170857,2423.0475,N,08106.6496,W,1,10,1.5,20,M,,M,,*68
06/13/2015	17:08:57.563	$GPGGA,170858,2423.0479,N,08106.6497,W,1,10,1.5,20,M,,M,,*6A
06/13/2015	17:08:58.563	$GPGGA,170859,2423.0481,N,08106.6497,W,1,10,1.5,20,M,,M,,*6C
06/13/2015	17:08:59.614	$GPGGA,170900,2423.0480,N,08106.6499,W,1,9,1.7,20,M,,M,,*54
06/13/2015	17:09:00.573	$GPGGA,170901,2423.0484,N,08106.6497,W,1,9,1.7,20,M,,M,,*5F
06/13/2015	17:09:01.589	$GPGGA,170902,2423.0488,N,08106.6499,W,1,10,1.5,20,M,,M,,*64
06/13/2015	17:09:02.554	$GPGGA,170903,2423.0490,N,08106.6501,W,1,10,1.5,20,M,,M,,*6C
06/13/2015	17:09:03.594	$GPGGA,170904,2423.0490,N,08106.6503,W,1,10,1.5,20,M,,M,,*69
06/13/2015	17:09:04.554	$GPGGA,170905,2423.0493,N,08106.6503,W,1,10,1.5,20,M,,M,,*6B
06/13/2015	17:09:05.574	$GPGGA,170906,2423.0497,N,08106.6504,W,1,10,1.5,20,M,,M,,*6B
06/13/2015	17:09:06.554	$GPGGA,170907,2423.0497,N,08106.6504,W,1,10,1.5,20,M,,M,,*6A
06/13/2015	17:09:07.574	$GPGGA,170908,2423.0497,N,08106.6504,W,1,10,1.5,20,M,,M,,*65
06/13/2015	17:09:08.554	$GPGGA,170909,2423.0500,N,08106.6504,W,1,10,1.5,20,M,,M,,*6B
06/13/2015	17:09:09.564	$GPGGA,170910,2423.0504,N,08106.6507,W,1,10,1.5,20,M,,M,,*64
06/13/2015	17:09:10.544	$GPGGA,170911,2423.0504,N,08106.6510,W,1,10,1.5,20,M,,M,,*63
06/13/2015	17:09:11.574	$GPGGA,170912,2423.0506,N,08106.6510,W,1,10,1.5,20,M,,M,,*62
06/13/2015	17:09:12.524	$GPGGA,170913,2423.0508,N,08106.6509,W,1,10,1.5,20,M,,M,,*65
06/13/2015	17:09:13.563	$GPGGA,170914,2423.0508,N,08106.6510,W,1,10,1.5,20,M,,M,,*6A
06/13/2015	17:09:14.543	$GPGGA,170915,2423.0510,N,08106.6510,W,1,10,1.5,20,M,,M,,*62
06/13/2015	17:09:15.643	$GPGGA,170916,2423.0511,N,08106.6511,W,1,10,1.5,20,M,,M,,*61
06/13/2015	17:09:16.523	$GPGGA,170917,2423.0514,N,08106.6514,W,1,10,1.5,20,M,,M,,*60
06/13/2015	17:09:17.553	$GPGGA,170918,2423.0517,N,08106.6515,W,1,10,1.5,20,M,,M,,*6D
06/13/2015	17:09:18.543	$GPGGA,170919,2423.0518,N,08106.6517,W,1,10,1.5,20,M,,M,,*61
06/13/2015	17:09:19.544	$GPGGA,170920,2423.0517,N,08106.6516,W,1,10,1.5,20,M,,M,,*65
06/13/2015	17:09:20.634	$GPGGA,170921,2423.0519,N,08106.6515,W,1,10,1.5,20,M,,M,,*69
06/13/2015	17:09:21.511	$GPGGA,170922,2423.0521,N,08106.6517,W,1,10,1.5,19,M,,M,,*69
06/13/2015	17:09:22.524	$GPGGA,170923,2423.0524,N,08106.6518,W,1,10,1.6,19,M,,M,,*61
06/13/2015	17:09:23.614	$GPGGA,170924,2423.0526,N,08106.6521,W,1,10,1.5,19,M,,M,,*6D
06/13/2015	17:09:24.509	$GPGGA,170925,2423.0528,N,08106.6521,W,1,10,1.5,19,M,,M,,*62
06/13/2015	17:09:25.524	$GPGGA,170926,2423.0529,N,08106.6520,W,1,10,1.5,19,M,,M,,*61
06/13/2015	17:09:26.514	$GPGGA,170927,2423.0531,N,08106.6521,W,1,10,1.5,19,M,,M,,*68
06/13/2015	17:09:27.634	$GPGGA,170928,2423.0533,N,08106.6521,W,1,10,1.5,19,M,,M,,*65
06/13/2015	17:09:28.614	$GPGGA,170929,2423.0533,N,08106.6522,W,1,10,1.7,19,M,,M,,*65
06/13/2015	17:09:29.584	$GPGGA,170930,2423.0536,N,08106.6524,W,1,9,1.7,19,M,,M,,*56
06/13/2015	17:09:30.597	$GPGGA,170931,2423.0539,N,08106.6525,W,1,9,1.5,19,M,,M,,*5B
06/13/2015	17:09:31.595	$GPGGA,170932,2423.0540,N,08106.6525,W,1,10,1.5,19,M,,M,,*6E
06/13/2015	17:09:32.583	$GPGGA,170933,2423.0542,N,08106.6525,W,1,10,1.5,19,M,,M,,*6D
06/13/2015	17:09:33.583	$GPGGA,170934,2423.0544,N,08106.6525,W,1,10,1.5,19,M,,M,,*6C
06/13/2015	17:09:34.573	$GPGGA,170935,2423.0547,N,08106.6526,W,1,10,1.5,19,M,,M,,*6D
06/13/2015	17:09:35.583	$GPGGA,170936,2423.0547,N,08106.6528,W,1,9,1.7,19,M,,M,,*5A
06/13/2015	17:09:36.584	$GPGGA,170937,2423.0549,N,08106.6529,W,1,9,1.5,19,M,,M,,*56
06/13/2015	17:09:37.609	$GPGGA,170938,2423.0551,N,08106.6529,W,1,10,1.5,19,M,,M,,*68
06/13/2015	17:09:38.574	$GPGGA,170939,2423.0554,N,08106.6529,W,1,10,1.5,19,M,,M,,*6C
06/13/2015	17:09:39.624	$GPGGA,170940,2423.0557,N,08106.6530,W,1,10,1.5,19,M,,M,,*69
06/13/2015	17:09:40.564	$GPGGA,170941,2423.0558,N,08106.6532,W,1,10,1.7,19,M,,M,,*67
06/13/2015	17:09:41.589	$GPGGA,170942,2423.0560,N,08106.6533,W,1,9,1.7,19,M,,M,,*56
06/13/2015	17:09:42.574	$GPGGA,170943,2423.0562,N,08106.6533,W,1,9,1.7,19,M,,M,,*55
06/13/2015	17:09:43.588	$GPGGA,170944,2423.0564,N,08106.6535,W,1,9,1.7,19,M,,M,,*52
06/13/2015	17:09:44.554	$GPGGA,170945,2423.0565,N,08106.6534,W,1,9,1.7,19,M,,M,,*53
06/13/2015	17:09:45.574	$GPGGA,170946,2423.0566,N,08106.6536,W,1,9,1.7,19,M,,M,,*51
06/13/2015	17:09:46.554	$GPGGA,170947,2423.0568,N,08106.6539,W,1,9,1.7,20,M,,M,,*5B
06/13/2015	17:09:47.594	$GPGGA,170948,2423.0569,N,08106.6540,W,1,9,1.7,20,M,,M,,*5B
06/13/2015	17:09:48.553	$GPGGA,170949,2423.0572,N,08106.6542,W,1,9,1.7,20,M,,M,,*52
06/13/2015	17:09:49.600	$GPGGA,170950,2423.0571,N,08106.6544,W,1,9,1.7,20,M,,M,,*5F
06/13/2015	17:09:50.543	$GPGGA,170951,2423.0573,N,08106.6546,W,1,9,1.7,20,M,,M,,*5E
06/13/2015	17:09:51.553	$GPGGA,170952,2423.0575,N,08106.6547,W,1,9,1.7,20,M,,M,,*5A
06/13/2015	17:09:52.543	$GPGGA,170953,2423.0576,N,08106.6547,W,1,9,1.7,20,M,,M,,*58
06/13/2015	17:09:53.533	$GPGGA,170954,2423.0579,N,08106.6550,W,1,9,1.7,20,M,,M,,*56
06/13/2015	17:09:54.534	$GPGGA,170955,2423.0578,N,08106.6554,W,1,9,1.7,20,M,,M,,*52
06/13/2015	17:09:55.584	$GPGGA,170956,2423.0580,N,08106.6557,W,1,9,1.7,20,M,,M,,*55
06/13/2015	17:09:56.524	$GPGGA,170957,2423.0580,N,08106.6557,W,1,9,1.7,20,M,,M,,*54
06/13/2015	17:09:57.574	$GPGGA,170958,2423.0583,N,08106.6559,W,1,9,1.7,20,M,,M,,*56
06/13/2015	17:09:58.534	$GPGGA,170959,2423.0583,N,08106.6561,W,1,9,1.7,20,M,,M,,*5C
06/13/2015	17:09:59.574	$GPGGA,171000,2423.0584,N,08106.6564,W,1,9,1.7,20,M,,M,,*5A
06/13/2015	17:10:00.528	$GPGGA,171001,2423.0586,N,08106.6568,W,1,9,1.7,20,M,,M,,*55
06/13/2015	17:10:01.654	$GPGGA,171002,2423.0587,N,08106.6571,W,1,9,1.7,20,M,,M,,*5F
06/13/2015	17:10:02.534	$GPGGA,171003,2423.0589,N,08106.6573,W,1,9,1.7,20,M,,M,,*52
06/13/2015	17:10:03.684	$GPGGA,171004,2423.0590,N,08106.6575,W,1,9,1.7,19,M,,M,,*51
06/13/2015	17:10:04.514	$GPGGA,171005,2423.0591,N,08106.6579,W,1,9,1.7,19,M,,M,,*5D
06/13/2015	17:10:05.497	$GPGGA,171006,2423.0594,N,08106.6582,W,1,9,1.7,19,M,,M,,*5F
06/13/2015	17:10:06.613	$GPGGA,171007,2423.0594,N,08106.6586,W,1,9,1.7,19,M,,M,,*5A
06/13/2015	17:10:07.543	$GPGGA,171008,2423.0596,N,08106.6590,W,1,9,1.7,19,M,,M,,*50
06/13/2015	17:10:08.513	$GPGGA,171009,2423.0598,N,08106.6594,W,1,9,1.7,19,M,,M,,*5B
06/13/2015	17:10:09.495	$GPGGA,171010,2423.0601,N,08106.6597,W,1,9,1.7,19,M,,M,,*53
06/13/2015	17:10:10.602	$GPGGA,171011,2423.0604,N,08106.6600,W,1,9,1.7,19,M,,M,,*5A
06/13/2015	17:10:11.633	$GPGGA,171012,2423.0605,N,08106.6604,W,1,9,1.7,19,M,,M,,*5C
06/13/2015	17:10:12.503	$GPGGA,171013,2423.0607,N,08106.6608,W,1,9,1.7,19,M,,M,,*53
06/13/2015	17:10:13.503	$GPGGA,171014,2423.0611,N,08106.6611,W,1,9,1.7,19,M,,M,,*5B
06/13/2015	17:10:14.503	$GPGGA,171015,2423.0613,N,08106.6615,W,1,9,1.7,19,M,,M,,*5C
06/13/2015	17:10:15.503	$GPGGA,171016,2423.0616,N,08106.6618,W,1,9,1.7,19,M,,M,,*57
06/13/2015	17:10:16.585	$GPGGA,171017,2423.0618,N,08106.6622,W,1,9,1.7,19,M,,M,,*51
06/13/2015	17:10:17.584	$GPGGA,171018,2423.0620,N,08106.6623,W,1,9,1.7,19,M,,M,,*54
06/13/2015	17:10:18.585	$GPGGA,171019,2423.0623,N,08106.6626,W,1,9,1.7,19,M,,M,,*53
06/13/2015	17:10:19.604	$GPGGA,171020,2423.0626,N,08106.6630,W,1,9,1.7,19,M,,M,,*5B
06/13/2015	17:10:20.573	$GPGGA,171021,2423.0629,N,08106.6634,W,1,9,1.7,19,M,,M,,*51
06/13/2015	17:10:21.613	$GPGGA,171022,2423.0630,N,08106.6637,W,1,9,1.7,19,M,,M,,*59
06/13/2015	17:10:22.574	$GPGGA,171023,2423.0634,N,08106.6638,W,1,9,1.7,19,M,,M,,*53
06/13/2015	17:10:23.913	$GPGGA,171024,2423.0636,N,08106.6641,W,1,9,1.7,19,M,,M,,*58
06/13/2015	17:10:24.573	$GPGGA,171025,2423.0638,N,08106.6644,W,1,9,1.7,19,M,,M,,*52
06/13/2015	17:10:25.597	$GPGGA,171026,2423.0641,N,08106.6647,W,1,9,1.7,19,M,,M,,*5C
06/13/2015	17:10:26.563	$GPGGA,171027,2423.0644,N,08106.6649,W,1,9,1.7,19,M,,M,,*56
06/13/2015	17:10:27.583	$GPGGA,171028,2423.0647,N,08106.6651,W,1,9,1.7,19,M,,M,,*53
06/13/2015	17:10:28.563	$GPGGA,171029,2423.0649,N,08106.6655,W,1,9,1.7,19,M,,M,,*58
06/13/2015	17:10:29.583	$GPGGA,171030,2423.0652,N,08106.6656,W,1,9,1.7,19,M,,M,,*59
06/13/2015	17:10:30.603	$GPGGA,171031,2423.0656,N,08106.6658,W,1,9,1.7,19,M,,M,,*52
06/13/2015	17:10:31.583	$GPGGA,171032,2423.0659,N,08106.6659,W,1,9,1.7,19,M,,M,,*5F
06/13/2015	17:10:32.543	$GPGGA,171033,2423.0662,N,08106.6662,W,1,9,1.7,19,M,,M,,*5E
06/13/2015	17:10:33.563	$GPGGA,171034,2423.0663,N,08106.6663,W,1,9,1.7,19,M,,M,,*59
06/13/2015	17:10:34.543	$GPGGA,171035,2423.0666,N,08106.6665,W,1,9,1.7,19,M,,M,,*5B
06/13/2015	17:10:36.543	$GPGGA,171036,2423.0670,N,08106.6665,W,1,9,1.7,19,M,,M,,*5F
06/13/2015	17:10:36.573	$GPGGA,171037,2423.0673,N,08106.6669,W,1,9,1.7,19,M,,M,,*51
06/13/2015	17:10:37.553	$GPGGA,171038,2423.0674,N,08106.6671,W,1,9,1.7,19,M,,M,,*50
06/13/2015	17:10:38.553	$GPGGA,171039,2423.0677,N,08106.6673,W,1,9,1.7,19,M,,M,,*50
06/13/2015	17:10:39.564	$GPGGA,171040,2423.0681,N,08106.6672,W,1,9,1.7,19,M,,M,,*56
06/13/2015	17:10:40.543	$GPGGA,171041,2423.0683,N,08106.6673,W,1,9,1.7,19,M,,M,,*54
06/13/2015	17:10:41.573	$GPGGA,171042,2423.0684,N,08106.6676,W,1,9,1.7,19,M,,M,,*55
06/13/2015	17:10:42.533	$GPGGA,171043,2423.0685,N,08106.6677,W,1,9,1.9,19,M,,M,,*5A
06/13/2015	17:10:43.573	$GPGGA,171044,2423.0691,N,08106.6677,W,1,8,1.7,19,M,,M,,*57
06/13/2015	17:10:44.533	$GPGGA,171045,2423.0691,N,08106.6677,W,1,8,1.7,19,M,,M,,*56
06/13/2015	17:10:45.553	$GPGGA,171046,2423.0695,N,08106.6680,W,1,9,1.7,19,M,,M,,*58
06/13/2015	17:10:46.523	$GPGGA,171047,2423.0698,N,08106.6679,W,1,9,1.7,19,M,,M,,*52
06/13/2015	17:10:47.543	$GPGGA,171048,2423.0701,N,08106.6680,W,1,9,1.7,19,M,,M,,*5A
06/13/2015	17:10:48.523	$GPGGA,171049,2423.0703,N,08106.6680,W,1,9,1.7,19,M,,M,,*59
06/13/2015	17:10:49.543	$GPGGA,171050,2423.0705,N,08106.6683,W,1,9,1.7,19,M,,M,,*54
06/13/2015	17:10:50.553	$GPGGA,171051,2423.0709,N,08106.6682,W,1,9,1.7,19,M,,M,,*58
06/13/2015	17:10:51.543	$GPGGA,171052,2423.0712,N,08106.6681,W,1,9,1.7,19,M,,M,,*52
06/13/2015	17:10:52.523	$GPGGA,171053,2423.0713,N,08106.6684,W,1,9,1.7,19,M,,M,,*57
06/13/2015	17:10:53.595	$GPGGA,171054,2423.0714,N,08106.6684,W,1,9,1.7,19,M,,M,,*57
06/13/2015	17:10:54.493	$GPGGA,171055,2423.0717,N,08106.6683,W,1,9,1.7,19,M,,M,,*52
06/13/2015	17:10:55.543	$GPGGA,171056,2423.0721,N,08106.6682,W,1,9,1.7,19,M,,M,,*55
06/13/2015	17:10:56.583	$GPGGA,171057,2423.0721,N,08106.6684,W,1,9,1.7,19,M,,M,,*52
06/13/2015	17:10:57.494	$GPGGA,171058,2423.0723,N,08106.6687,W,1,9,1.7,19,M,,M,,*5C
06/13/2015	17:10:58.596	$GPGGA,171059,2423.0727,N,08106.6687,W,1,9,1.7,19,M,,M,,*59
06/13/2015	17:10:59.633	$GPGGA,171100,2423.0728,N,08106.6686,W,1,9,1.7,19,M,,M,,*5A
06/13/2015	17:11:00.588	$GPGGA,171101,2423.0730,N,08106.6687,W,1,9,1.7,19,M,,M,,*53
06/13/2015	17:11:01.603	$GPGGA,171102,2423.0731,N,08106.6689,W,1,9,1.7,19,M,,M,,*5F
06/13/2015	17:11:02.513	$GPGGA,171103,2423.0734,N,08106.6689,W,1,9,1.7,19,M,,M,,*5B
06/13/2015	17:11:03.553	$GPGGA,171104,2423.0737,N,08106.6691,W,1,9,1.7,19,M,,M,,*56
06/13/2015	17:11:04.573	$GPGGA,171105,2423.0739,N,08106.6692,W,1,9,1.7,19,M,,M,,*5A
06/13/2015	17:11:05.573	$GPGGA,171106,2423.0741,N,08106.6695,W,1,9,1.7,19,M,,M,,*51
06/13/2015	17:11:06.573	$GPGGA,171107,2423.0743,N,08106.6696,W,1,9,1.7,19,M,,M,,*51
06/13/2015	17:11:07.603	$GPGGA,171108,2423.0746,N,08106.6696,W,1,9,1.7,19,M,,M,,*5B
06/13/2015	17:11:08.588	$GPGGA,171109,2423.0748,N,08106.6698,W,1,9,1.7,19,M,,M,,*5A
06/13/2015	17:11:09.590	$GPGGA,171110,2423.0750,N,08106.6702,W,1,9,1.7,19,M,,M,,*59
06/13/2015	17:11:10.563	$GPGGA,171111,2423.0753,N,08106.6703,W,1,9,1.7,19,M,,M,,*5A
06/13/2015	17:11:11.603	$GPGGA,171112,2423.0757,N,08106.6706,W,1,9,1.7,19,M,,M,,*58
06/13/2015	17:11:12.553	$GPGGA,171113,2423.0759,N,08106.6709,W,1,9,1.7,19,M,,M,,*58
06/13/2015	17:11:13.573	$GPGGA,171114,2423.0760,N,08106.6712,W,1,9,1.7,19,M,,M,,*5F
06/13/2015	17:11:14.554	$GPGGA,171115,2423.0763,N,08106.6714,W,1,9,1.7,19,M,,M,,*5B
06/13/2015	17:11:15.573	$GPGGA,171116,2423.0766,N,08106.6717,W,1,9,1.7,19,M,,M,,*5E
06/13/2015	17:11:16.553	$GPGGA,171117,2423.0768,N,08106.6719,W,1,9,1.7,19,M,,M,,*5F
06/13/2015	17:11:17.587	$GPGGA,171118,2423.0773,N,08106.6721,W,1,9,1.7,19,M,,M,,*51
06/13/2015	17:11:18.553	$GPGGA,171119,2423.0773,N,08106.6721,W,1,9,1.7,19,M,,M,,*50
06/13/2015	17:11:19.585	$GPGGA,171120,2423.0775,N,08106.6730,W,1,9,1.7,19,M,,M,,*5C
06/13/2015	17:11:20.543	$GPGGA,171121,2423.0779,N,08106.6731,W,1,9,1.7,19,M,,M,,*50
06/13/2015	17:11:21.553	$GPGGA,171122,2423.0782,N,08106.6734,W,1,9,1.7,19,M,,M,,*52
06/13/2015	17:11:22.533	$GPGGA,171123,2423.0784,N,08106.6738,W,1,9,1.7,19,M,,M,,*59
06/13/2015	17:11:23.563	$GPGGA,171124,2423.0786,N,08106.6741,W,1,9,1.7,19,M,,M,,*52
06/13/2015	17:11:24.533	$GPGGA,171125,2423.0789,N,08106.6743,W,1,9,1.7,19,M,,M,,*5E
06/13/2015	17:11:25.523	$GPGGA,171126,2423.0792,N,08106.6746,W,1,9,1.7,19,M,,M,,*52
06/13/2015	17:11:26.533	$GPGGA,171127,2423.0795,N,08106.6750,W,1,9,2.0,19,M,,M,,*57
06/13/2015	17:11:27.553	$GPGGA,171128,2423.0797,N,08106.6754,W,1,9,1.7,18,M,,M,,*5B
06/13/2015	17:11:28.523	$GPGGA,171129,2423.0800,N,08106.6756,W,1,9,1.7,18,M,,M,,*59
06/13/2015	17:11:29.533	$GPGGA,171130,2423.0803,N,08106.6757,W,1,9,1.7,18,M,,M,,*53
06/13/2015	17:11:30.533	$GPGGA,171131,2423.0806,N,08106.6759,W,1,9,1.7,18,M,,M,,*59
06/13/2015	17:11:31.553	$GPGGA,171132,2423.0807,N,08106.6763,W,1,9,1.7,18,M,,M,,*52
06/13/2015	17:11:32.514	$GPGGA,171133,2423.0807,N,08106.6766,W,1,9,2.0,18,M,,M,,*52
06/13/2015	17:11:33.643	$GPGGA,171134,2423.0811,N,08106.6767,W,1,8,2.0,18,M,,M,,*52
06/13/2015	17:11:34.503	$GPGGA,171135,2423.0814,N,08106.6768,W,1,8,1.7,18,M,,M,,*5D
06/13/2015	17:11:35.523	$GPGGA,171136,2423.0815,N,08106.6770,W,1,8,2.0,18,M,,M,,*52
06/13/2015	17:11:36.523	$GPGGA,171137,2423.0817,N,08106.6774,W,1,8,1.7,18,M,,M,,*51
06/13/2015	17:11:37.603	$GPGGA,171138,2423.0818,N,08106.6775,W,1,9,1.7,18,M,,M,,*51
06/13/2015	17:11:38.523	$GPGGA,171139,2423.0822,N,08106.6777,W,1,9,2.0,18,M,,M,,*5F
06/13/2015	17:11:39.533	$GPGGA,171140,2423.0824,N,08106.6777,W,1,9,1.7,18,M,,M,,*53
06/13/2015	17:11:40.503	$GPGGA,171141,2423.0826,N,08106.6779,W,1,9,1.7,18,M,,M,,*5E
06/13/2015	17:11:41.513	$GPGGA,171142,2423.0828,N,08106.6781,W,1,8,2.0,18,M,,M,,*51
06/13/2015	17:11:42.613	$GPGGA,171143,2423.0829,N,08106.6783,W,1,8,2.0,18,M,,M,,*53
06/13/2015	17:11:43.523	$GPGGA,171144,2423.0833,N,08106.6785,W,1,9,1.7,18,M,,M,,*5C
