Software Version Number: 1	Data File Format Number: 1	Build Version Number: 1	Error Count Since VI Started: 1	Manufacturer: Raytheon	 Model Number: RayMarine 120	 S/N: 	 Cal Date: 	 Wind Direction Offset: 0.00	 Slope (M)1: 0.00	 Offset (B)1: 0.00	 Slope (M)2: 0.00	 Offset (B)2: 0.00	 Slope (M)3: 0.00	 Offset (B)3: 0.00	 Slope (M)4: 0.00	 Offset (B)4: 0.00	 Slope (M)5: 0.00	 Offset (B)5: 0.00	 Slope (M)6: 0.00	 Offset (B)6: 0.00
Computer Date	Computer Time	GGA String
06/10/2015	03:00:00.548	$GPGGA,030001,2543.8839,N,08009.7291,W,1,11,1.5,15,M,,M,,*64
06/10/2015	03:00:01.548	$GPGGA,030002,2543.8839,N,08009.7291,W,1,11,1.5,14,M,,M,,*66
06/10/2015	03:00:02.558	$GPGGA,030003,2543.8839,N,08009.7291,W,1,11,1.5,14,M,,M,,*67
06/10/2015	03:00:03.578	$GPGGA,030004,2543.8839,N,08009.7291,W,1,11,1.5,14,M,,M,,*60
06/10/2015	03:00:04.547	$GPGGA,030005,2543.8839,N,08009.7291,W,1,11,1.5,14,M,,M,,*61
06/10/2015	03:00:05.557	$GPGGA,030006,2543.8839,N,08009.7291,W,1,11,1.5,14,M,,M,,*62
06/10/2015	03:00:06.547	$GPGGA,030007,2543.8839,N,08009.7291,W,1,11,1.5,14,M,,M,,*63
06/10/2015	03:00:07.547	$GPGGA,030008,2543.8839,N,08009.7291,W,1,11,1.5,14,M,,M,,*6C
06/10/2015	03:00:08.547	$GPGGA,030009,2543.8839,N,08009.7291,W,1,11,1.5,14,M,,M,,*6D
06/10/2015	03:00:09.527	$GPGGA,030010,2543.8839,N,08009.7291,W,1,11,1.5,14,M,,M,,*65
06/10/2015	03:00:10.537	$GPGGA,030011,2543.8839,N,08009.7291,W,1,11,1.5,14,M,,M,,*64
06/10/2015	03:00:11.567	$GPGGA,030012,2543.8839,N,08009.7291,W,1,11,1.5,14,M,,M,,*67
06/10/2015	03:00:12.547	$GPGGA,030013,2543.8841,N,08009.7291,W,1,11,1.5,14,M,,M,,*69
06/10/2015	03:00:13.517	$GPGGA,030014,2543.8839,N,08009.7291,W,1,11,1.5,14,M,,M,,*61
06/10/2015	03:00:14.538	$GPGGA,030015,2543.8839,N,08009.7291,W,1,11,1.5,14,M,,M,,*60
06/10/2015	03:00:15.567	$GPGGA,030016,2543.8839,N,08009.7291,W,1,11,1.5,14,M,,M,,*63
06/10/2015	03:00:16.518	$GPGGA,030017,2543.8839,N,08009.7291,W,1,11,1.5,14,M,,M,,*62
06/10/2015	03:00:17.528	$GPGGA,030018,2543.8839,N,08009.7291,W,1,11,1.5,14,M,,M,,*6D
06/10/2015	03:00:18.638	$GPGGA,030019,2543.8839,N,08009.7290,W,1,11,1.5,15,M,,M,,*6C
06/10/2015	03:00:19.558	$GPGGA,030020,2543.8839,N,08009.7290,W,1,11,1.5,14,M,,M,,*67
06/10/2015	03:00:20.518	$GPGGA,030021,2543.8839,N,08009.7290,W,1,11,1.5,15,M,,M,,*67
06/10/2015	03:00:21.618	$GPGGA,030022,2543.8839,N,08009.7290,W,1,11,1.5,15,M,,M,,*64
06/10/2015	03:00:22.497	$GPGGA,030023,2543.8839,N,08009.7291,W,1,11,1.5,15,M,,M,,*64
06/10/2015	03:00:23.627	$GPGGA,030024,2543.8839,N,08009.7291,W,1,11,1.5,14,M,,M,,*62
06/10/2015	03:00:24.617	$GPGGA,030025,2543.8839,N,08009.7291,W,1,11,1.5,14,M,,M,,*63
06/10/2015	03:00:25.597	$GPGGA,030026,2543.8839,N,08009.7291,W,1,11,1.5,14,M,,M,,*60
06/10/2015	03:00:26.497	$GPGGA,030027,2543.8839,N,08009.7291,W,1,11,1.5,14,M,,M,,*61
06/10/2015	03:00:27.627	$GPGGA,030028,2543.8839,N,08009.7291,W,1,11,1.5,14,M,,M,,*6E
06/10/2015	03:00:28.497	$GPGGA,030029,2543.8839,N,08009.7291,W,1,11,1.5,14,M,,M,,*6F
06/10/2015	03:00:29.587	$GPGGA,030030,2543.8839,N,08009.7291,W,1,11,1.5,14,M,,M,,*67
06/10/2015	03:00:30.587	$GPGGA,030031,2543.8839,N,08009.7291,W,1,11,1.5,14,M,,M,,*66
06/10/2015	03:00:31.507	$GPGGA,030032,2543.8839,N,08009.7291,W,1,11,1.5,14,M,,M,,*65
06/10/2015	03:00:32.577	$GPGGA,030033,2543.8839,N,08009.7291,W,1,11,1.5,14,M,,M,,*64
06/10/2015	03:00:33.578	$GPGGA,030034,2543.8839,N,08009.7291,W,1,11,1.5,14,M,,M,,*63
06/10/2015	03:00:34.488	$GPGGA,030035,2543.8839,N,08009.7291,W,1,11,1.5,14,M,,M,,*62
06/10/2015	03:00:35.588	$GPGGA,030036,2543.8841,N,08009.7290,W,1,11,1.5,14,M,,M,,*6F
06/10/2015	03:00:36.568	$GPGGA,030037,2543.8840,N,08009.7290,W,1,11,1.5,14,M,,M,,*6F
06/10/2015	03:00:37.618	$GPGGA,030038,2543.8841,N,08009.7290,W,1,11,1.5,14,M,,M,,*61
06/10/2015	03:00:38.578	$GPGGA,030039,2543.8840,N,08009.7290,W,1,11,1.5,14,M,,M,,*61
06/10/2015	03:00:39.587	$GPGGA,030040,2543.8842,N,08009.7290,W,1,11,1.5,14,M,,M,,*6D
06/10/2015	03:00:40.577	$GPGGA,030041,2543.8842,N,08009.7291,W,1,11,1.5,14,M,,M,,*6D
06/10/2015	03:00:41.587	$GPGGA,030042,2543.8842,N,08009.7290,W,1,11,1.5,14,M,,M,,*6F
06/10/2015	03:00:42.567	$GPGGA,030043,2543.8842,N,08009.7290,W,1,11,1.5,14,M,,M,,*6E
06/10/2015	03:00:43.597	$GPGGA,030044,2543.8842,N,08009.7290,W,1,11,1.5,14,M,,M,,*69
06/10/2015	03:00:44.557	$GPGGA,030045,2543.8842,N,08009.7290,W,1,11,1.5,14,M,,M,,*68
06/10/2015	03:00:45.577	$GPGGA,030046,2543.8842,N,08009.7290,W,1,11,1.5,14,M,,M,,*6B
06/10/2015	03:00:46.547	$GPGGA,030047,2543.8842,N,08009.7290,W,1,11,1.5,14,M,,M,,*6A
06/10/2015	03:00:47.587	$GPGGA,030048,2543.8842,N,08009.7291,W,1,11,1.5,14,M,,M,,*64
06/10/2015	03:00:48.547	$GPGGA,030049,2543.8842,N,08009.7291,W,1,11,1.5,14,M,,M,,*65
06/10/2015	03:00:49.588	$GPGGA,030050,2543.8842,N,08009.7290,W,1,11,1.5,14,M,,M,,*6C
06/10/2015	03:00:50.547	$GPGGA,030051,2543.8842,N,08009.7290,W,1,11,1.5,14,M,,M,,*6D
06/10/2015	03:00:51.578	$GPGGA,030052,2543.8842,N,08009.7291,W,1,11,1.5,14,M,,M,,*6F
06/10/2015	03:00:52.558	$GPGGA,030053,2543.8842,N,08009.7291,W,1,11,1.5,14,M,,M,,*6E
06/10/2015	03:00:53.558	$GPGGA,030054,2543.8842,N,08009.7291,W,1,11,1.5,14,M,,M,,*69
06/10/2015	03:00:54.538	$GPGGA,030055,2543.8842,N,08009.7291,W,1,11,1.5,14,M,,M,,*68
06/10/2015	03:00:55.588	$GPGGA,030056,2543.8842,N,08009.7290,W,1,11,1.5,14,M,,M,,*6A
06/10/2015	03:00:56.548	$GPGGA,030057,2543.8842,N,08009.7291,W,1,11,1.5,14,M,,M,,*6A
06/10/2015	03:00:57.537	$GPGGA,030058,2543.8842,N,08009.7290,W,1,11,1.5,14,M,,M,,*64
06/10/2015	03:00:58.527	$GPGGA,030059,2543.8844,N,08009.7290,W,1,11,1.5,14,M,,M,,*63
06/10/2015	03:00:59.567	$GPGGA,030100,2543.8842,N,08009.7290,W,1,11,1.5,14,M,,M,,*68
06/10/2015	03:01:00.537	$GPGGA,030101,2543.8844,N,08009.7290,W,1,11,1.5,14,M,,M,,*6F
06/10/2015	03:01:01.517	$GPGGA,030102,2543.8843,N,08009.7290,W,1,11,1.5,14,M,,M,,*6B
06/10/2015	03:01:02.537	$GPGGA,030103,2543.8844,N,08009.7289,W,1,11,1.5,14,M,,M,,*65
06/10/2015	03:01:03.557	$GPGGA,030104,2543.8842,N,08009.7290,W,1,11,1.5,14,M,,M,,*6C
06/10/2015	03:01:04.527	$GPGGA,030105,2543.8844,N,08009.7289,W,1,11,1.5,14,M,,M,,*63
06/10/2015	03:01:05.547	$GPGGA,030106,2543.8843,N,08009.7290,W,1,11,1.5,15,M,,M,,*6E
06/10/2015	03:01:06.527	$GPGGA,030107,2543.8844,N,08009.7289,W,1,11,1.5,15,M,,M,,*60
06/10/2015	03:01:07.647	$GPGGA,030108,2543.8843,N,08009.7290,W,1,11,1.5,15,M,,M,,*60
06/10/2015	03:01:08.515	$GPGGA,030109,2543.8842,N,08009.7289,W,1,11,1.5,15,M,,M,,*68
06/10/2015	03:01:09.618	$GPGGA,030110,2543.8842,N,08009.7290,W,1,11,1.5,15,M,,M,,*68
06/10/2015	03:01:10.508	$GPGGA,030111,2543.8842,N,08009.7289,W,1,11,1.5,15,M,,M,,*61
06/10/2015	03:01:11.618	$GPGGA,030112,2543.8842,N,08009.7288,W,1,11,1.5,15,M,,M,,*63
06/10/2015	03:01:12.498	$GPGGA,030113,2543.8842,N,08009.7288,W,1,11,1.5,15,M,,M,,*62
06/10/2015	03:01:13.608	$GPGGA,030114,2543.8842,N,08009.7288,W,1,11,1.5,15,M,,M,,*65
06/10/2015	03:01:14.507	$GPGGA,030115,2543.8842,N,08009.7287,W,1,11,1.5,15,M,,M,,*6B
06/10/2015	03:01:15.637	$GPGGA,030116,2543.8842,N,08009.7287,W,1,11,1.5,15,M,,M,,*68
06/10/2015	03:01:16.597	$GPGGA,030117,2543.8842,N,08009.7287,W,1,11,1.5,15,M,,M,,*69
06/10/2015	03:01:17.608	$GPGGA,030118,2543.8844,N,08009.7287,W,1,11,1.5,15,M,,M,,*60
06/10/2015	03:01:18.507	$GPGGA,030119,2543.8842,N,08009.7287,W,1,11,1.5,15,M,,M,,*67
06/10/2015	03:01:19.607	$GPGGA,030120,2543.8842,N,08009.7286,W,1,11,1.5,15,M,,M,,*6C
06/10/2015	03:01:20.497	$GPGGA,030121,2543.8842,N,08009.7287,W,1,11,1.5,15,M,,M,,*6C
06/10/2015	03:01:21.577	$GPGGA,030122,2543.8844,N,08009.7286,W,1,11,1.5,15,M,,M,,*68
06/10/2015	03:01:22.598	$GPGGA,030123,2543.8843,N,08009.7287,W,1,11,1.5,15,M,,M,,*6F
06/10/2015	03:01:23.627	$GPGGA,030124,2543.8844,N,08009.7286,W,1,11,1.5,15,M,,M,,*6E
06/10/2015	03:01:24.587	$GPGGA,030125,2543.8843,N,08009.7287,W,1,11,1.5,15,M,,M,,*69
06/10/2015	03:01:25.587	$GPGGA,030126,2543.8844,N,08009.7286,W,1,11,1.5,15,M,,M,,*6C
06/10/2015	03:01:26.578	$GPGGA,030127,2543.8843,N,08009.7287,W,1,11,1.5,15,M,,M,,*6B
06/10/2015	03:01:27.648	$GPGGA,030128,2543.8845,N,08009.7286,W,1,11,1.5,15,M,,M,,*63
06/10/2015	03:01:28.578	$GPGGA,030129,2543.8844,N,08009.7287,W,1,11,1.5,15,M,,M,,*62
06/10/2015	03:01:29.578	$GPGGA,030130,2543.8845,N,08009.7285,W,1,11,1.5,15,M,,M,,*69
06/10/2015	03:01:30.578	$GPGGA,030131,2543.8844,N,08009.7285,W,1,11,1.5,15,M,,M,,*69
06/10/2015	03:01:31.608	$GPGGA,030132,2543.8845,N,08009.7287,W,1,11,1.5,15,M,,M,,*69
06/10/2015	03:01:32.557	$GPGGA,030133,2543.8843,N,08009.7285,W,1,11,1.5,15,M,,M,,*6C
06/10/2015	03:01:33.587	$GPGGA,030134,2543.8844,N,08009.7287,W,1,11,1.5,15,M,,M,,*6E
06/10/2015	03:01:34.557	$GPGGA,030135,2543.8843,N,08009.7286,W,1,11,1.5,15,M,,M,,*69
06/10/2015	03:01:35.588	$GPGGA,030136,2543.8844,N,08009.7287,W,1,11,1.5,15,M,,M,,*6C
06/10/2015	03:01:36.547	$GPGGA,030137,2543.8843,N,08009.7286,W,1,11,1.5,15,M,,M,,*6B
06/10/2015	03:01:37.577	$GPGGA,030138,2543.8844,N,08009.7287,W,1,11,1.5,15,M,,M,,*62
06/10/2015	03:01:38.557	$GPGGA,030139,2543.8845,N,08009.7286,W,1,11,1.5,15,M,,M,,*63
06/10/2015	03:01:39.587	$GPGGA,030140,2543.8844,N,08009.7287,W,1,11,1.5,15,M,,M,,*6D
06/10/2015	03:01:40.547	$GPGGA,030141,2543.8843,N,08009.7286,W,1,11,1.5,15,M,,M,,*6A
06/10/2015	03:01:41.568	$GPGGA,030142,2543.8844,N,08009.7287,W,1,11,1.5,15,M,,M,,*6F
06/10/2015	03:01:42.557	$GPGGA,030143,2543.8843,N,08009.7286,W,1,11,1.5,15,M,,M,,*68
06/10/2015	03:01:43.548	$GPGGA,030144,2543.8844,N,08009.7287,W,1,11,1.5,15,M,,M,,*69
06/10/2015	03:01:44.538	$GPGGA,030145,2543.8843,N,08009.7286,W,1,11,1.5,15,M,,M,,*6E
06/10/2015	03:01:45.578	$GPGGA,030146,2543.8844,N,08009.7287,W,1,11,1.5,15,M,,M,,*6B
06/10/2015	03:01:46.548	$GPGGA,030147,2543.8843,N,08009.7286,W,1,11,1.5,15,M,,M,,*6C
06/10/2015	03:01:47.588	$GPGGA,030148,2543.8844,N,08009.7287,W,1,11,1.5,15,M,,M,,*65
06/10/2015	03:01:48.538	$GPGGA,030149,2543.8843,N,08009.7287,W,1,11,1.5,15,M,,M,,*63
06/10/2015	03:01:49.537	$GPGGA,030150,2543.8844,N,08009.7287,W,1,11,1.5,15,M,,M,,*6C
06/10/2015	03:01:50.537	$GPGGA,030151,2543.8843,N,08009.7287,W,1,11,1.5,15,M,,M,,*6A
06/10/2015	03:01:51.537	$GPGGA,030152,2543.8844,N,08009.7287,W,1,11,1.5,15,M,,M,,*6E
06/10/2015	03:01:52.617	$GPGGA,030153,2543.8843,N,08009.7287,W,1,11,1.5,15,M,,M,,*68
06/10/2015	03:01:53.517	$GPGGA,030154,2543.8845,N,08009.7287,W,1,11,1.5,15,M,,M,,*69
06/10/2015	03:01:54.527	$GPGGA,030155,2543.8844,N,08009.7287,W,1,11,1.5,15,M,,M,,*69
06/10/2015	03:01:55.547	$GPGGA,030156,2543.8845,N,08009.7287,W,1,11,1.5,15,M,,M,,*6B
06/10/2015	03:01:56.517	$GPGGA,030157,2543.8844,N,08009.7287,W,1,11,1.5,15,M,,M,,*6B
06/10/2015	03:01:57.687	$GPGGA,030158,2543.8845,N,08009.7287,W,1,11,1.5,15,M,,M,,*65
06/10/2015	03:01:58.607	$GPGGA,030159,2543.8844,N,08009.7287,W,1,11,1.5,15,M,,M,,*65
06/10/2015	03:01:59.568	$GPGGA,030200,2543.8845,N,08009.7286,W,1,11,1.5,15,M,,M,,*6A
06/10/2015	03:02:00.517	$GPGGA,030201,2543.8844,N,08009.7287,W,1,11,1.5,15,M,,M,,*6B
06/10/2015	03:02:01.508	$GPGGA,030202,2543.8845,N,08009.7286,W,1,11,1.5,15,M,,M,,*68
06/10/2015	03:02:02.528	$GPGGA,030203,2543.8846,N,08009.7287,W,1,11,1.5,15,M,,M,,*6B
06/10/2015	03:02:03.698	$GPGGA,030204,2543.8846,N,08009.7286,W,1,11,1.5,15,M,,M,,*6D
06/10/2015	03:02:04.528	$GPGGA,030205,2543.8846,N,08009.7287,W,1,11,1.5,15,M,,M,,*6D
06/10/2015	03:02:05.688	$GPGGA,030206,2543.8846,N,08009.7286,W,1,11,1.5,15,M,,M,,*6F
06/10/2015	03:02:06.598	$GPGGA,030207,2543.8846,N,08009.7287,W,1,11,1.5,15,M,,M,,*6F
06/10/2015	03:02:07.697	$GPGGA,030208,2543.8846,N,08009.7287,W,1,11,1.5,15,M,,M,,*60
06/10/2015	03:02:08.507	$GPGGA,030209,2543.8846,N,08009.7287,W,1,11,1.5,15,M,,M,,*61
06/10/2015	03:02:09.687	$GPGGA,030210,2543.8846,N,08009.7287,W,1,11,1.5,15,M,,M,,*69
06/10/2015	03:02:10.607	$GPGGA,030211,2543.8846,N,08009.7287,W,1,11,1.5,15,M,,M,,*68
06/10/2015	03:02:11.697	$GPGGA,030212,2543.8846,N,08009.7286,W,1,11,1.5,15,M,,M,,*6A
06/10/2015	03:02:12.637	$GPGGA,030213,2543.8846,N,08009.7287,W,1,11,1.5,15,M,,M,,*6A
06/10/2015	03:02:13.677	$GPGGA,030214,2543.8846,N,08009.7287,W,1,11,1.5,15,M,,M,,*6D
06/10/2015	03:02:14.607	$GPGGA,030215,2543.8846,N,08009.7287,W,1,11,1.5,15,M,,M,,*6C
06/10/2015	03:02:15.697	$GPGGA,030216,2543.8846,N,08009.7287,W,1,11,1.5,15,M,,M,,*6F
06/10/2015	03:02:16.577	$GPGGA,030217,2543.8846,N,08009.7287,W,1,11,1.5,15,M,,M,,*6E
06/10/2015	03:02:17.677	$GPGGA,030218,2543.8846,N,08009.7287,W,1,11,1.5,15,M,,M,,*61
06/10/2015	03:02:18.568	$GPGGA,030219,2543.8846,N,08009.7288,W,1,11,1.5,15,M,,M,,*6F
06/10/2015	03:02:19.678	$GPGGA,030220,2543.8846,N,08009.7288,W,1,11,1.5,15,M,,M,,*65
06/10/2015	03:02:20.568	$GPGGA,030221,2543.8846,N,08009.7288,W,1,11,1.5,15,M,,M,,*64
06/10/2015	03:02:21.648	$GPGGA,030222,2543.8846,N,08009.7288,W,1,11,1.5,15,M,,M,,*67
06/10/2015	03:02:22.598	$GPGGA,030223,2543.8846,N,08009.7288,W,1,11,1.5,15,M,,M,,*66
06/10/2015	03:02:23.678	$GPGGA,030224,2543.8846,N,08009.7288,W,1,11,1.5,15,M,,M,,*61
06/10/2015	03:02:24.607	$GPGGA,030225,2543.8846,N,08009.7288,W,1,11,1.5,15,M,,M,,*60
06/10/2015	03:02:25.617	$GPGGA,030226,2543.8844,N,08009.7290,W,1,11,1.5,15,M,,M,,*68
06/10/2015	03:02:26.567	$GPGGA,030227,2543.8845,N,08009.7289,W,1,11,1.5,15,M,,M,,*60
06/10/2015	03:02:27.667	$GPGGA,030228,2543.8844,N,08009.7290,W,1,11,1.5,15,M,,M,,*66
06/10/2015	03:02:28.577	$GPGGA,030229,2543.8845,N,08009.7289,W,1,11,1.5,15,M,,M,,*6E
06/10/2015	03:02:29.547	$GPGGA,030230,2543.8846,N,08009.7290,W,1,11,1.5,15,M,,M,,*6D
06/10/2015	03:02:30.567	$GPGGA,030231,2543.8846,N,08009.7289,W,1,11,1.5,15,M,,M,,*64
06/10/2015	03:02:31.657	$GPGGA,030232,2543.8846,N,08009.7290,W,1,11,1.5,15,M,,M,,*6F
06/10/2015	03:02:32.547	$GPGGA,030233,2543.8846,N,08009.7289,W,1,11,1.5,15,M,,M,,*66
06/10/2015	03:02:33.610	$GPGGA,030234,2543.8846,N,08009.7290,W,1,11,1.5,15,M,,M,,*69
06/10/2015	03:02:34.577	$GPGGA,030235,2543.8846,N,08009.7289,W,1,11,1.5,15,M,,M,,*60
06/10/2015	03:02:35.657	$GPGGA,030236,2543.8846,N,08009.7290,W,1,11,1.5,15,M,,M,,*6B
06/10/2015	03:02:36.538	$GPGGA,030237,2543.8846,N,08009.7289,W,1,11,1.5,15,M,,M,,*62
06/10/2015	03:02:37.608	$GPGGA,030238,2543.8846,N,08009.7290,W,1,11,1.5,15,M,,M,,*65
06/10/2015	03:02:38.558	$GPGGA,030239,2543.8846,N,08009.7289,W,1,11,1.5,15,M,,M,,*6C
06/10/2015	03:02:39.668	$GPGGA,030240,2543.8846,N,08009.7290,W,1,11,1.5,15,M,,M,,*6A
06/10/2015	03:02:40.558	$GPGGA,030241,2543.8846,N,08009.7289,W,1,11,1.5,15,M,,M,,*63
06/10/2015	03:02:41.598	$GPGGA,030242,2543.8846,N,08009.7290,W,1,11,1.5,15,M,,M,,*68
06/10/2015	03:02:42.567	$GPGGA,030243,2543.8846,N,08009.7289,W,1,11,1.5,15,M,,M,,*61
06/10/2015	03:02:43.627	$GPGGA,030244,2543.8846,N,08009.7290,W,1,11,1.5,15,M,,M,,*6E
06/10/2015	03:02:44.517	$GPGGA,030245,2543.8846,N,08009.7289,W,1,11,1.5,15,M,,M,,*67
06/10/2015	03:02:45.577	$GPGGA,030246,2543.8846,N,08009.7290,W,1,11,1.5,15,M,,M,,*6C
06/10/2015	03:02:46.507	$GPGGA,030247,2543.8846,N,08009.7289,W,1,11,1.5,15,M,,M,,*65
06/10/2015	03:02:47.677	$GPGGA,030248,2543.8846,N,08009.7290,W,1,11,1.5,15,M,,M,,*62
06/10/2015	03:02:48.508	$GPGGA,030249,2543.8846,N,08009.7289,W,1,11,1.5,15,M,,M,,*6B
06/10/2015	03:02:49.497	$GPGGA,030250,2543.8846,N,08009.7290,W,1,11,1.5,15,M,,M,,*6B
06/10/2015	03:02:50.547	$GPGGA,030251,2543.8846,N,08009.7289,W,1,11,1.5,15,M,,M,,*62
06/10/2015	03:02:51.607	$GPGGA,030252,2543.8846,N,08009.7290,W,1,11,1.5,15,M,,M,,*69
06/10/2015	03:02:52.557	$GPGGA,030253,2543.8846,N,08009.7289,W,1,11,1.5,15,M,,M,,*60
06/10/2015	03:02:53.608	$GPGGA,030254,2543.8846,N,08009.7290,W,1,11,1.5,15,M,,M,,*6F
06/10/2015	03:02:54.588	$GPGGA,030255,2543.8846,N,08009.7289,W,1,11,1.5,15,M,,M,,*66
06/10/2015	03:02:55.498	$GPGGA,030256,2543.8846,N,08009.7290,W,1,11,1.5,15,M,,M,,*6D
06/10/2015	03:02:56.588	$GPGGA,030257,2543.8846,N,08009.7290,W,1,11,1.5,15,M,,M,,*6C
06/10/2015	03:02:57.608	$GPGGA,030258,2543.8846,N,08009.7290,W,1,11,1.5,15,M,,M,,*63
06/10/2015	03:02:58.528	$GPGGA,030259,2543.8846,N,08009.7290,W,1,11,1.5,15,M,,M,,*62
06/10/2015	03:02:59.647	$GPGGA,030300,2543.8846,N,08009.7291,W,1,11,1.5,15,M,,M,,*6E
06/10/2015	03:03:00.597	$GPGGA,030301,2543.8846,N,08009.7291,W,1,11,1.5,15,M,,M,,*6F
06/10/2015	03:03:01.577	$GPGGA,030302,2543.8846,N,08009.7291,W,1,11,1.5,15,M,,M,,*6C
06/10/2015	03:03:02.587	$GPGGA,030303,2543.8846,N,08009.7291,W,1,11,1.5,15,M,,M,,*6D
06/10/2015	03:03:03.647	$GPGGA,030304,2543.8846,N,08009.7291,W,1,11,1.5,15,M,,M,,*6A
06/10/2015	03:03:04.577	$GPGGA,030305,2543.8846,N,08009.7291,W,1,11,1.5,15,M,,M,,*6B
06/10/2015	03:03:05.607	$GPGGA,030306,2543.8846,N,08009.7291,W,1,11,1.5,15,M,,M,,*68
06/10/2015	03:03:06.567	$GPGGA,030307,2543.8846,N,08009.7291,W,1,11,1.5,15,M,,M,,*69
06/10/2015	03:03:07.648	$GPGGA,030308,2543.8846,N,08009.7291,W,1,11,1.5,15,M,,M,,*66
06/10/2015	03:03:08.567	$GPGGA,030309,2543.8846,N,08009.7291,W,1,11,1.5,15,M,,M,,*67
06/10/2015	03:03:09.597	$GPGGA,030310,2543.8846,N,08009.7291,W,1,11,1.5,15,M,,M,,*6F
06/10/2015	03:03:10.557	$GPGGA,030311,2543.8846,N,08009.7291,W,1,11,1.5,15,M,,M,,*6E
06/10/2015	03:03:11.628	$GPGGA,030312,2543.8846,N,08009.7291,W,1,11,1.5,15,M,,M,,*6D
06/10/2015	03:03:12.568	$GPGGA,030313,2543.8846,N,08009.7291,W,1,11,1.5,15,M,,M,,*6C
06/10/2015	03:03:13.608	$GPGGA,030314,2543.8846,N,08009.7291,W,1,11,1.5,15,M,,M,,*6B
06/10/2015	03:03:14.568	$GPGGA,030315,2543.8846,N,08009.7291,W,1,11,1.5,15,M,,M,,*6A
06/10/2015	03:03:15.598	$GPGGA,030316,2543.8846,N,08009.7291,W,1,11,1.5,15,M,,M,,*69
06/10/2015	03:03:16.548	$GPGGA,030317,2543.8846,N,08009.7291,W,1,11,1.5,15,M,,M,,*68
06/10/2015	03:03:17.587	$GPGGA,030318,2543.8846,N,08009.7291,W,1,11,1.5,15,M,,M,,*67
06/10/2015	03:03:18.537	$GPGGA,030319,2543.8846,N,08009.7291,W,1,11,1.5,15,M,,M,,*66
06/10/2015	03:03:19.597	$GPGGA,030320,2543.8846,N,08009.7291,W,1,11,1.5,15,M,,M,,*6C
06/10/2015	03:03:20.537	$GPGGA,030321,2543.8848,N,08009.7291,W,1,11,1.5,15,M,,M,,*63
06/10/2015	03:03:21.617	$GPGGA,030322,2543.8847,N,08009.7291,W,1,11,1.5,15,M,,M,,*6F
06/10/2015	03:03:22.567	$GPGGA,030323,2543.8848,N,08009.7291,W,1,11,1.5,15,M,,M,,*61
06/10/2015	03:03:23.557	$GPGGA,030324,2543.8848,N,08009.7291,W,1,11,1.5,15,M,,M,,*66
06/10/2015	03:03:24.537	$GPGGA,030325,2543.8848,N,08009.7291,W,1,11,1.5,15,M,,M,,*67
06/10/2015	03:03:25.567	$GPGGA,030326,2543.8847,N,08009.7291,W,1,11,1.5,15,M,,M,,*6B
06/10/2015	03:03:26.527	$GPGGA,030327,2543.8848,N,08009.7291,W,1,11,1.5,15,M,,M,,*65
06/10/2015	03:03:27.647	$GPGGA,030328,2543.8847,N,08009.7291,W,1,11,1.5,15,M,,M,,*65
06/10/2015	03:03:28.538	$GPGGA,030329,2543.8848,N,08009.7291,W,1,11,1.5,15,M,,M,,*6B
06/10/2015	03:03:29.578	$GPGGA,030330,2543.8847,N,08009.7291,W,1,11,1.5,15,M,,M,,*6C
06/10/2015	03:03:30.538	$GPGGA,030331,2543.8848,N,08009.7291,W,1,11,1.5,15,M,,M,,*62
06/10/2015	03:03:31.588	$GPGGA,030332,2543.8847,N,08009.7291,W,1,11,1.5,15,M,,M,,*6E
06/10/2015	03:03:32.638	$GPGGA,030333,2543.8848,N,08009.7291,W,1,11,1.5,15,M,,M,,*60
06/10/2015	03:03:33.578	$GPGGA,030334,2543.8847,N,08009.7291,W,1,11,1.5,15,M,,M,,*68
06/10/2015	03:03:34.527	$GPGGA,030335,2543.8848,N,08009.7291,W,1,11,1.5,15,M,,M,,*66
06/10/2015	03:03:35.597	$GPGGA,030336,2543.8847,N,08009.7291,W,1,11,1.5,15,M,,M,,*6A
06/10/2015	03:03:36.608	$GPGGA,030337,2543.8848,N,08009.7291,W,1,11,1.5,15,M,,M,,*64
06/10/2015	03:03:37.637	$GPGGA,030338,2543.8848,N,08009.7291,W,1,11,1.5,15,M,,M,,*6B
06/10/2015	03:03:38.517	$GPGGA,030339,2543.8848,N,08009.7291,W,1,11,1.5,15,M,,M,,*6A
06/10/2015	03:03:39.657	$GPGGA,030340,2543.8847,N,08009.7292,W,1,11,1.5,16,M,,M,,*6B
06/10/2015	03:03:40.527	$GPGGA,030341,2543.8848,N,08009.7291,W,1,11,1.5,16,M,,M,,*66
06/10/2015	03:03:41.627	$GPGGA,030342,2543.8849,N,08009.7291,W,1,11,1.5,16,M,,M,,*64
06/10/2015	03:03:42.527	$GPGGA,030343,2543.8847,N,08009.7292,W,1,11,1.5,16,M,,M,,*68
06/10/2015	03:03:43.627	$GPGGA,030344,2543.8848,N,08009.7292,W,1,11,1.5,16,M,,M,,*60
06/10/2015	03:03:44.587	$GPGGA,030345,2543.8849,N,08009.7292,W,1,11,1.5,16,M,,M,,*60
06/10/2015	03:03:45.608	$GPGGA,030346,2543.8848,N,08009.7292,W,1,11,1.5,16,M,,M,,*62
06/10/2015	03:03:46.498	$GPGGA,030347,2543.8849,N,08009.7292,W,1,11,1.5,16,M,,M,,*62
06/10/2015	03:03:47.638	$GPGGA,030348,2543.8849,N,08009.7292,W,1,11,1.5,16,M,,M,,*6D
06/10/2015	03:03:48.578	$GPGGA,030349,2543.8849,N,08009.7292,W,1,11,1.5,16,M,,M,,*6C
06/10/2015	03:03:49.578	$GPGGA,030350,2543.8848,N,08009.7291,W,1,11,1.5,16,M,,M,,*66
06/10/2015	03:03:50.588	$GPGGA,030351,2543.8849,N,08009.7291,W,1,11,1.5,16,M,,M,,*66
06/10/2015	03:03:51.597	$GPGGA,030352,2543.8849,N,08009.7291,W,1,11,1.5,16,M,,M,,*65
06/10/2015	03:03:52.577	$GPGGA,030353,2543.8849,N,08009.7291,W,1,11,1.5,16,M,,M,,*64
06/10/2015	03:03:53.567	$GPGGA,030354,2543.8849,N,08009.7291,W,1,11,1.5,16,M,,M,,*63
06/10/2015	03:03:54.577	$GPGGA,030355,2543.8849,N,08009.7291,W,1,11,1.5,16,M,,M,,*62
06/10/2015	03:03:55.597	$GPGGA,030356,2543.8849,N,08009.7290,W,1,11,1.5,16,M,,M,,*60
06/10/2015	03:03:56.568	$GPGGA,030357,2543.8849,N,08009.7290,W,1,11,1.5,16,M,,M,,*61
06/10/2015	03:03:57.557	$GPGGA,030358,2543.8849,N,08009.7291,W,1,11,1.5,16,M,,M,,*6F
06/10/2015	03:03:58.557	$GPGGA,030359,2543.8850,N,08009.7291,W,1,11,1.5,16,M,,M,,*66
06/10/2015	03:03:59.617	$GPGGA,030400,2543.8850,N,08009.7291,W,1,11,1.5,16,M,,M,,*6D
06/10/2015	03:04:00.557	$GPGGA,030401,2543.8850,N,08009.7291,W,1,11,1.5,16,M,,M,,*6C
06/10/2015	03:04:01.548	$GPGGA,030402,2543.8850,N,08009.7291,W,1,11,1.5,16,M,,M,,*6F
06/10/2015	03:04:02.547	$GPGGA,030403,2543.8850,N,08009.7291,W,1,11,1.5,16,M,,M,,*6E
06/10/2015	03:04:03.587	$GPGGA,030404,2543.8852,N,08009.7290,W,1,11,1.5,16,M,,M,,*6A
06/10/2015	03:04:04.557	$GPGGA,030405,2543.8851,N,08009.7290,W,1,11,1.5,16,M,,M,,*68
06/10/2015	03:04:05.537	$GPGGA,030406,2543.8852,N,08009.7290,W,1,11,1.5,16,M,,M,,*68
06/10/2015	03:04:06.527	$GPGGA,030407,2543.8851,N,08009.7290,W,1,11,1.5,16,M,,M,,*6A
06/10/2015	03:04:07.577	$GPGGA,030408,2543.8852,N,08009.7290,W,1,11,1.5,16,M,,M,,*66
06/10/2015	03:04:08.537	$GPGGA,030409,2543.8851,N,08009.7290,W,1,11,1.5,16,M,,M,,*64
06/10/2015	03:04:09.546	$GPGGA,030410,2543.8853,N,08009.7290,W,1,11,1.5,16,M,,M,,*6E
06/10/2015	03:04:10.526	$GPGGA,030411,2543.8853,N,08009.7290,W,1,11,1.5,16,M,,M,,*6F
06/10/2015	03:04:11.546	$GPGGA,030412,2543.8851,N,08009.7290,W,1,11,1.5,16,M,,M,,*6E
06/10/2015	03:04:12.546	$GPGGA,030413,2543.8852,N,08009.7289,W,1,11,1.5,16,M,,M,,*64
06/10/2015	03:04:13.557	$GPGGA,030414,2543.8851,N,08009.7290,W,1,11,1.5,16,M,,M,,*68
06/10/2015	03:04:14.537	$GPGGA,030415,2543.8852,N,08009.7289,W,1,11,1.5,16,M,,M,,*62
06/10/2015	03:04:15.567	$GPGGA,030416,2543.8851,N,08009.7290,W,1,11,1.5,16,M,,M,,*6A
06/10/2015	03:04:16.517	$GPGGA,030417,2543.8850,N,08009.7289,W,1,11,1.6,16,M,,M,,*61
06/10/2015	03:04:17.537	$GPGGA,030418,2543.8850,N,08009.7288,W,1,11,1.6,16,M,,M,,*6F
06/10/2015	03:04:18.527	$GPGGA,030419,2543.8850,N,08009.7288,W,1,11,1.6,16,M,,M,,*6E
06/10/2015	03:04:19.557	$GPGGA,030420,2543.8850,N,08009.7288,W,1,11,1.6,16,M,,M,,*64
06/10/2015	03:04:20.517	$GPGGA,030421,2543.8850,N,08009.7288,W,1,11,1.6,16,M,,M,,*65
06/10/2015	03:04:21.527	$GPGGA,030422,2543.8849,N,08009.7288,W,1,11,1.6,16,M,,M,,*6E
06/10/2015	03:04:22.517	$GPGGA,030423,2543.8849,N,08009.7288,W,1,11,1.5,16,M,,M,,*6C
06/10/2015	03:04:23.637	$GPGGA,030424,2543.8849,N,08009.7288,W,1,11,1.5,16,M,,M,,*6B
06/10/2015	03:04:24.517	$GPGGA,030425,2543.8849,N,08009.7288,W,1,11,1.5,16,M,,M,,*6A
06/10/2015	03:04:25.617	$GPGGA,030426,2543.8849,N,08009.7288,W,1,11,1.5,16,M,,M,,*69
06/10/2015	03:04:26.497	$GPGGA,030427,2543.8849,N,08009.7288,W,1,11,1.5,16,M,,M,,*68
06/10/2015	03:04:27.626	$GPGGA,030428,2543.8849,N,08009.7287,W,1,11,1.5,16,M,,M,,*68
06/10/2015	03:04:28.506	$GPGGA,030429,2543.8849,N,08009.7287,W,1,11,1.6,16,M,,M,,*6A
06/10/2015	03:04:29.516	$GPGGA,030430,2543.8849,N,08009.7288,W,1,11,1.6,16,M,,M,,*6D
06/10/2015	03:04:30.496	$GPGGA,030431,2543.8849,N,08009.7287,W,1,11,1.6,16,M,,M,,*63
06/10/2015	03:04:31.597	$GPGGA,030432,2543.8850,N,08009.7288,W,1,11,1.6,16,M,,M,,*67
06/10/2015	03:04:32.597	$GPGGA,030433,2543.8850,N,08009.7288,W,1,11,1.6,16,M,,M,,*66
06/10/2015	03:04:33.607	$GPGGA,030434,2543.8850,N,08009.7288,W,1,11,1.6,16,M,,M,,*61
06/10/2015	03:04:34.498	$GPGGA,030435,2543.8850,N,08009.7288,W,1,11,1.6,16,M,,M,,*60
06/10/2015	03:04:35.599	$GPGGA,030436,2543.8850,N,08009.7288,W,1,11,1.6,16,M,,M,,*63
06/10/2015	03:04:36.577	$GPGGA,030437,2543.8850,N,08009.7288,W,1,11,1.6,16,M,,M,,*62
06/10/2015	03:04:37.617	$GPGGA,030438,2543.8850,N,08009.7288,W,1,11,1.6,16,M,,M,,*6D
06/10/2015	03:04:38.567	$GPGGA,030439,2543.8850,N,08009.7288,W,1,11,1.6,16,M,,M,,*6C
06/10/2015	03:04:39.577	$GPGGA,030440,2543.8850,N,08009.7288,W,1,11,1.6,16,M,,M,,*62
06/10/2015	03:04:40.577	$GPGGA,030441,2543.8850,N,08009.7288,W,1,11,1.6,16,M,,M,,*63
06/10/2015	03:04:41.587	$GPGGA,030442,2543.8850,N,08009.7288,W,1,11,1.6,16,M,,M,,*60
06/10/2015	03:04:42.557	$GPGGA,030443,2543.8850,N,08009.7288,W,1,11,1.6,16,M,,M,,*61
06/10/2015	03:04:43.587	$GPGGA,030444,2543.8850,N,08009.7288,W,1,11,1.6,16,M,,M,,*66
06/10/2015	03:04:44.556	$GPGGA,030445,2543.8850,N,08009.7288,W,1,11,1.6,16,M,,M,,*67
06/10/2015	03:04:45.546	$GPGGA,030446,2543.8850,N,08009.7288,W,1,11,1.6,16,M,,M,,*64
06/10/2015	03:04:46.546	$GPGGA,030447,2543.8850,N,08009.7288,W,1,11,1.6,16,M,,M,,*65
06/10/2015	03:04:47.586	$GPGGA,030448,2543.8850,N,08009.7288,W,1,11,1.6,16,M,,M,,*6A
06/10/2015	03:04:48.547	$GPGGA,030449,2543.8850,N,08009.7288,W,1,11,1.6,16,M,,M,,*6B
06/10/2015	03:04:49.577	$GPGGA,030450,2543.8852,N,08009.7288,W,1,11,1.6,16,M,,M,,*61
06/10/2015	03:04:50.547	$GPGGA,030451,2543.8850,N,08009.7288,W,1,11,1.6,16,M,,M,,*62
06/10/2015	03:04:51.587	$GPGGA,030452,2543.8852,N,08009.7288,W,1,11,1.6,16,M,,M,,*63
06/10/2015	03:04:52.548	$GPGGA,030453,2543.8850,N,08009.7288,W,1,11,1.6,16,M,,M,,*60
06/10/2015	03:04:53.537	$GPGGA,030454,2543.8850,N,08009.7288,W,1,11,1.6,16,M,,M,,*67
06/10/2015	03:04:54.547	$GPGGA,030455,2543.8850,N,08009.7290,W,1,11,1.6,16,M,,M,,*6F
06/10/2015	03:04:55.577	$GPGGA,030456,2543.8850,N,08009.7289,W,1,11,1.6,16,M,,M,,*64
06/10/2015	03:04:56.547	$GPGGA,030457,2543.8850,N,08009.7290,W,1,11,1.6,16,M,,M,,*6D
06/10/2015	03:04:57.527	$GPGGA,030458,2543.8850,N,08009.7289,W,1,11,1.6,16,M,,M,,*6A
06/10/2015	03:04:58.537	$GPGGA,030459,2543.8850,N,08009.7290,W,1,11,1.6,16,M,,M,,*63
06/10/2015	03:04:59.577	$GPGGA,030500,2543.8850,N,08009.7289,W,1,11,1.6,16,M,,M,,*66
06/10/2015	03:05:00.527	$GPGGA,030501,2543.8850,N,08009.7290,W,1,11,1.6,16,M,,M,,*6F
06/10/2015	03:05:01.556	$GPGGA,030502,2543.8850,N,08009.7289,W,1,11,1.6,16,M,,M,,*64
06/10/2015	03:05:02.516	$GPGGA,030503,2543.8852,N,08009.7290,W,1,11,1.6,16,M,,M,,*6F
06/10/2015	03:05:03.566	$GPGGA,030504,2543.8851,N,08009.7290,W,1,11,1.6,16,M,,M,,*6B
06/10/2015	03:05:04.526	$GPGGA,030505,2543.8852,N,08009.7290,W,1,11,1.6,16,M,,M,,*69
06/10/2015	03:05:05.516	$GPGGA,030506,2543.8851,N,08009.7290,W,1,11,1.6,16,M,,M,,*69
06/10/2015	03:05:06.517	$GPGGA,030507,2543.8852,N,08009.7290,W,1,11,1.6,16,M,,M,,*6B
06/10/2015	03:05:08.887	$GPGGA,030509,2543.8853,N,08009.7290,W,1,11,1.6,16,M,,M,,*64
06/10/2015	03:05:09.627	$GPGGA,030510,2543.8853,N,08009.7290,W,1,11,1.6,16,M,,M,,*6C
06/10/2015	03:05:10.527	$GPGGA,030511,2543.8853,N,08009.7291,W,1,11,1.6,16,M,,M,,*6C
06/10/2015	03:05:11.547	$GPGGA,030512,2543.8851,N,08009.7290,W,1,11,1.6,16,M,,M,,*6C
06/10/2015	03:05:12.617	$GPGGA,030513,2543.8853,N,08009.7291,W,1,11,1.6,16,M,,M,,*6E
06/10/2015	03:05:13.597	$GPGGA,030514,2543.8853,N,08009.7291,W,1,11,1.6,16,M,,M,,*69
06/10/2015	03:05:14.497	$GPGGA,030515,2543.8851,N,08009.7291,W,1,11,1.6,16,M,,M,,*6A
06/10/2015	03:05:15.637	$GPGGA,030516,2543.8852,N,08009.7291,W,1,11,1.6,16,M,,M,,*6A
06/10/2015	03:05:16.497	$GPGGA,030517,2543.8851,N,08009.7291,W,1,11,1.6,16,M,,M,,*68
06/10/2015	03:05:17.587	$GPGGA,030518,2543.8852,N,08009.7291,W,1,11,1.6,16,M,,M,,*64
06/10/2015	03:05:18.487	$GPGGA,030519,2543.8851,N,08009.7291,W,1,11,1.6,16,M,,M,,*66
06/10/2015	03:05:19.596	$GPGGA,030520,2543.8852,N,08009.7291,W,1,11,1.6,16,M,,M,,*6F
06/10/2015	03:05:20.586	$GPGGA,030521,2543.8850,N,08009.7291,W,1,11,1.6,16,M,,M,,*6C
06/10/2015	03:05:21.486	$GPGGA,030522,2543.8850,N,08009.7291,W,1,11,1.6,16,M,,M,,*6F
06/10/2015	03:05:22.577	$GPGGA,030523,2543.8850,N,08009.7291,W,1,11,1.6,16,M,,M,,*6E
06/10/2015	03:05:23.587	$GPGGA,030524,2543.8852,N,08009.7291,W,1,11,1.6,16,M,,M,,*6B
06/10/2015	03:05:24.577	$GPGGA,030525,2543.8851,N,08009.7291,W,1,11,1.6,16,M,,M,,*69
06/10/2015	03:05:25.617	$GPGGA,030526,2543.8852,N,08009.7292,W,1,11,1.6,16,M,,M,,*6A
06/10/2015	03:05:26.567	$GPGGA,030527,2543.8850,N,08009.7292,W,1,11,1.6,16,M,,M,,*69
06/10/2015	03:05:27.587	$GPGGA,030528,2543.8850,N,08009.7292,W,1,11,1.6,16,M,,M,,*66
06/10/2015	03:05:28.567	$GPGGA,030529,2543.8850,N,08009.7292,W,1,11,1.6,16,M,,M,,*67
06/10/2015	03:05:29.567	$GPGGA,030530,2543.8850,N,08009.7292,W,1,11,1.6,16,M,,M,,*6F
06/10/2015	03:05:30.567	$GPGGA,030531,2543.8850,N,08009.7292,W,1,11,1.6,16,M,,M,,*6E
06/10/2015	03:05:31.607	$GPGGA,030532,2543.8850,N,08009.7294,W,1,11,1.6,16,M,,M,,*6B
06/10/2015	03:05:32.567	$GPGGA,030533,2543.8850,N,08009.7293,W,1,11,1.6,16,M,,M,,*6D
06/10/2015	03:05:33.577	$GPGGA,030534,2543.8850,N,08009.7294,W,1,11,1.6,16,M,,M,,*6D
06/10/2015	03:05:34.547	$GPGGA,030535,2543.8850,N,08009.7293,W,1,11,1.6,16,M,,M,,*6B
06/10/2015	03:05:35.587	$GPGGA,030536,2543.8850,N,08009.7294,W,1,11,1.6,16,M,,M,,*6F
06/10/2015	03:05:36.546	$GPGGA,030537,2543.8850,N,08009.7293,W,1,11,1.6,16,M,,M,,*69
06/10/2015	03:05:37.566	$GPGGA,030538,2543.8850,N,08009.7294,W,1,11,1.6,16,M,,M,,*61
06/10/2015	03:05:38.556	$GPGGA,030539,2543.8850,N,08009.7293,W,1,11,1.6,16,M,,M,,*67
06/10/2015	03:05:39.586	$GPGGA,030540,2543.8850,N,08009.7294,W,1,11,1.6,16,M,,M,,*6E
06/10/2015	03:05:40.546	$GPGGA,030541,2543.8850,N,08009.7293,W,1,11,1.6,16,M,,M,,*68
06/10/2015	03:05:41.567	$GPGGA,030542,2543.8850,N,08009.7294,W,1,11,1.6,16,M,,M,,*6C
06/10/2015	03:05:42.537	$GPGGA,030543,2543.8850,N,08009.7293,W,1,11,1.6,16,M,,M,,*6A
06/10/2015	03:05:43.547	$GPGGA,030544,2543.8850,N,08009.7294,W,1,11,1.6,16,M,,M,,*6A
06/10/2015	03:05:44.547	$GPGGA,030545,2543.8850,N,08009.7293,W,1,11,1.6,16,M,,M,,*6C
06/10/2015	03:05:45.527	$GPGGA,030546,2543.8850,N,08009.7294,W,1,11,1.6,16,M,,M,,*68
06/10/2015	03:05:46.537	$GPGGA,030547,2543.8850,N,08009.7294,W,1,11,1.6,16,M,,M,,*69
06/10/2015	03:05:47.577	$GPGGA,030548,2543.8850,N,08009.7294,W,1,11,1.6,16,M,,M,,*66
06/10/2015	03:05:48.517	$GPGGA,030549,2543.8850,N,08009.7293,W,1,11,1.6,16,M,,M,,*60
06/10/2015	03:05:49.557	$GPGGA,030550,2543.8850,N,08009.7294,W,1,11,1.6,16,M,,M,,*6F
06/10/2015	03:05:50.517	$GPGGA,030551,2543.8850,N,08009.7293,W,1,11,1.6,16,M,,M,,*69
06/10/2015	03:05:51.567	$GPGGA,030552,2543.8849,N,08009.7294,W,1,11,1.6,16,M,,M,,*65
06/10/2015	03:05:52.527	$GPGGA,030553,2543.8849,N,08009.7294,W,1,11,1.6,16,M,,M,,*64
06/10/2015	03:05:53.537	$GPGGA,030554,2543.8849,N,08009.7294,W,1,11,1.6,16,M,,M,,*63
06/10/2015	03:05:54.526	$GPGGA,030555,2543.8848,N,08009.7294,W,1,11,1.6,16,M,,M,,*63
06/10/2015	03:05:55.526	$GPGGA,030556,2543.8849,N,08009.7294,W,1,11,1.6,16,M,,M,,*61
06/10/2015	03:05:56.526	$GPGGA,030557,2543.8848,N,08009.7294,W,1,11,1.6,16,M,,M,,*61
06/10/2015	03:05:57.526	$GPGGA,030558,2543.8849,N,08009.7293,W,1,11,1.6,16,M,,M,,*68
06/10/2015	03:05:58.507	$GPGGA,030559,2543.8848,N,08009.7294,W,1,11,1.6,16,M,,M,,*6F
06/10/2015	03:05:59.527	$GPGGA,030600,2543.8849,N,08009.7293,W,1,11,1.6,16,M,,M,,*66
06/10/2015	03:06:00.517	$GPGGA,030601,2543.8847,N,08009.7294,W,1,11,1.6,16,M,,M,,*6E
06/10/2015	03:06:01.607	$GPGGA,030602,2543.8849,N,08009.7293,W,1,11,1.6,17,M,,M,,*65
06/10/2015	03:06:02.527	$GPGGA,030603,2543.8848,N,08009.7294,W,1,11,1.6,17,M,,M,,*62
06/10/2015	03:06:03.617	$GPGGA,030604,2543.8849,N,08009.7293,W,1,11,1.6,17,M,,M,,*63
06/10/2015	03:06:04.497	$GPGGA,030605,2543.8848,N,08009.7294,W,1,11,1.6,17,M,,M,,*64
06/10/2015	03:06:05.507	$GPGGA,030606,2543.8849,N,08009.7293,W,1,11,1.6,17,M,,M,,*61
06/10/2015	03:06:06.587	$GPGGA,030607,2543.8848,N,08009.7294,W,1,11,1.6,17,M,,M,,*66
06/10/2015	03:06:07.527	$GPGGA,030608,2543.8849,N,08009.7293,W,1,11,1.6,17,M,,M,,*6F
06/10/2015	03:06:08.587	$GPGGA,030609,2543.8849,N,08009.7294,W,1,11,1.6,17,M,,M,,*69
06/10/2015	03:06:09.587	$GPGGA,030610,2543.8849,N,08009.7293,W,1,11,1.6,17,M,,M,,*66
06/10/2015	03:06:10.577	$GPGGA,030611,2543.8849,N,08009.7294,W,1,11,1.6,17,M,,M,,*60
06/10/2015	03:06:11.586	$GPGGA,030612,2543.8849,N,08009.7293,W,1,11,1.6,17,M,,M,,*64
06/10/2015	03:06:12.576	$GPGGA,030613,2543.8849,N,08009.7294,W,1,11,1.6,17,M,,M,,*62
06/10/2015	03:06:13.586	$GPGGA,030614,2543.8849,N,08009.7294,W,1,11,1.6,17,M,,M,,*65
06/10/2015	03:06:14.576	$GPGGA,030615,2543.8849,N,08009.7294,W,1,11,1.6,17,M,,M,,*64
06/10/2015	03:06:15.596	$GPGGA,030616,2543.8849,N,08009.7294,W,1,11,1.6,17,M,,M,,*67
06/10/2015	03:06:16.577	$GPGGA,030617,2543.8850,N,08009.7294,W,1,11,1.6,17,M,,M,,*6E
06/10/2015	03:06:17.587	$GPGGA,030618,2543.8850,N,08009.7294,W,1,11,1.6,17,M,,M,,*61
06/10/2015	03:06:18.577	$GPGGA,030619,2543.8850,N,08009.7294,W,1,11,1.6,17,M,,M,,*60
06/10/2015	03:06:19.587	$GPGGA,030620,2543.8850,N,08009.7294,W,1,11,1.6,17,M,,M,,*6A
06/10/2015	03:06:20.577	$GPGGA,030621,2543.8850,N,08009.7294,W,1,11,1.6,17,M,,M,,*6B
06/10/2015	03:06:21.597	$GPGGA,030622,2543.8850,N,08009.7294,W,1,11,1.6,17,M,,M,,*68
06/10/2015	03:06:22.567	$GPGGA,030623,2543.8850,N,08009.7294,W,1,11,1.6,17,M,,M,,*69
06/10/2015	03:06:23.587	$GPGGA,030624,2543.8849,N,08009.7294,W,1,11,1.6,17,M,,M,,*66
06/10/2015	03:06:24.557	$GPGGA,030625,2543.8849,N,08009.7294,W,1,11,1.6,17,M,,M,,*67
06/10/2015	03:06:25.577	$GPGGA,030626,2543.8849,N,08009.7294,W,1,11,1.6,17,M,,M,,*64
06/10/2015	03:06:26.567	$GPGGA,030627,2543.8849,N,08009.7294,W,1,11,1.6,17,M,,M,,*65
06/10/2015	03:06:27.557	$GPGGA,030628,2543.8849,N,08009.7295,W,1,11,1.6,17,M,,M,,*6B
06/10/2015	03:06:28.547	$GPGGA,030629,2543.8849,N,08009.7295,W,1,11,1.6,18,M,,M,,*65
06/10/2015	03:06:29.576	$GPGGA,030630,2543.8849,N,08009.7295,W,1,11,1.6,18,M,,M,,*6D
06/10/2015	03:06:30.556	$GPGGA,030631,2543.8849,N,08009.7294,W,1,11,1.6,18,M,,M,,*6D
06/10/2015	03:06:31.576	$GPGGA,030632,2543.8849,N,08009.7294,W,1,11,1.6,18,M,,M,,*6E
06/10/2015	03:06:32.546	$GPGGA,030633,2543.8849,N,08009.7295,W,1,11,1.6,18,M,,M,,*6E
06/10/2015	03:06:33.537	$GPGGA,030634,2543.8849,N,08009.7294,W,1,11,1.6,18,M,,M,,*68
06/10/2015	03:06:34.537	$GPGGA,030635,2543.8850,N,08009.7294,W,1,11,1.6,18,M,,M,,*61
06/10/2015	03:06:35.567	$GPGGA,030636,2543.8850,N,08009.7295,W,1,11,1.6,18,M,,M,,*63
06/10/2015	03:06:36.537	$GPGGA,030637,2543.8850,N,08009.7295,W,1,11,1.6,18,M,,M,,*62
06/10/2015	03:06:37.527	$GPGGA,030638,2543.8850,N,08009.7295,W,1,11,1.6,18,M,,M,,*6D
06/10/2015	03:06:38.527	$GPGGA,030639,2543.8850,N,08009.7295,W,1,11,1.6,18,M,,M,,*6C
06/10/2015	03:06:39.577	$GPGGA,030640,2543.8850,N,08009.7295,W,1,11,1.6,18,M,,M,,*62
06/10/2015	03:06:40.527	$GPGGA,030641,2543.8850,N,08009.7295,W,1,11,1.6,18,M,,M,,*63
06/10/2015	03:06:41.817	$GPGGA,030642,2543.8850,N,08009.7295,W,1,11,1.6,18,M,,M,,*60
06/10/2015	03:06:42.527	$GPGGA,030643,2543.8850,N,08009.7295,W,1,11,1.6,18,M,,M,,*61
06/10/2015	03:06:43.547	$GPGGA,030644,2543.8850,N,08009.7295,W,1,11,1.6,18,M,,M,,*66
06/10/2015	03:06:44.517	$GPGGA,030645,2543.8852,N,08009.7295,W,1,11,1.6,18,M,,M,,*65
06/10/2015	03:06:45.507	$GPGGA,030646,2543.8850,N,08009.7295,W,1,11,1.6,18,M,,M,,*64
06/10/2015	03:06:46.526	$GPGGA,030647,2543.8850,N,08009.7295,W,1,11,1.6,18,M,,M,,*65
06/10/2015	03:06:47.676	$GPGGA,030648,2543.8850,N,08009.7295,W,1,11,1.6,19,M,,M,,*6B
06/10/2015	03:06:48.516	$GPGGA,030649,2543.8852,N,08009.7295,W,1,11,1.6,19,M,,M,,*68
06/10/2015	03:06:49.496	$GPGGA,030650,2543.8851,N,08009.7295,W,1,11,1.6,19,M,,M,,*63
06/10/2015	03:06:50.526	$GPGGA,030651,2543.8852,N,08009.7295,W,1,11,1.6,19,M,,M,,*61
06/10/2015	03:06:51.517	$GPGGA,030652,2543.8851,N,08009.7295,W,1,11,1.6,19,M,,M,,*61
06/10/2015	03:06:52.837	$GPGGA,030653,2543.8852,N,08009.7295,W,1,11,1.6,19,M,,M,,*63
06/10/2015	03:06:53.607	$GPGGA,030654,2543.8851,N,08009.7295,W,1,11,1.6,19,M,,M,,*67
06/10/2015	03:06:54.597	$GPGGA,030655,2543.8852,N,08009.7294,W,1,11,1.6,19,M,,M,,*64
06/10/2015	03:06:55.527	$GPGGA,030656,2543.8851,N,08009.7295,W,1,11,1.6,19,M,,M,,*65
06/10/2015	03:06:56.587	$GPGGA,030657,2543.8852,N,08009.7294,W,1,11,1.6,19,M,,M,,*66
06/10/2015	03:06:57.607	$GPGGA,030658,2543.8851,N,08009.7294,W,1,11,1.6,19,M,,M,,*6A
06/10/2015	03:06:58.587	$GPGGA,030659,2543.8852,N,08009.7294,W,1,11,1.6,19,M,,M,,*68
06/10/2015	03:06:59.667	$GPGGA,030700,2543.8851,N,08009.7294,W,1,11,1.6,19,M,,M,,*66
06/10/2015	03:07:00.577	$GPGGA,030701,2543.8852,N,08009.7294,W,1,11,1.6,19,M,,M,,*64
06/10/2015	03:07:01.597	$GPGGA,030702,2543.8851,N,08009.7294,W,1,11,1.6,19,M,,M,,*64
06/10/2015	03:07:02.577	$GPGGA,030703,2543.8852,N,08009.7294,W,1,11,1.6,19,M,,M,,*66
06/10/2015	03:07:03.617	$GPGGA,030704,2543.8851,N,08009.7294,W,1,11,1.6,19,M,,M,,*62
06/10/2015	03:07:04.576	$GPGGA,030705,2543.8853,N,08009.7295,W,1,11,1.6,19,M,,M,,*60
06/10/2015	03:07:05.587	$GPGGA,030706,2543.8853,N,08009.7295,W,1,11,1.6,19,M,,M,,*63
06/10/2015	03:07:06.576	$GPGGA,030707,2543.8853,N,08009.7295,W,1,11,1.6,19,M,,M,,*62
06/10/2015	03:07:07.606	$GPGGA,030708,2543.8853,N,08009.7295,W,1,11,1.6,19,M,,M,,*6D
06/10/2015	03:07:08.567	$GPGGA,030709,2543.8853,N,08009.7295,W,1,11,1.6,19,M,,M,,*6C
06/10/2015	03:07:09.587	$GPGGA,030710,2543.8853,N,08009.7295,W,1,11,1.6,19,M,,M,,*64
06/10/2015	03:07:10.577	$GPGGA,030711,2543.8853,N,08009.7295,W,1,11,1.6,19,M,,M,,*65
06/10/2015	03:07:11.597	$GPGGA,030712,2543.8853,N,08009.7295,W,1,11,1.6,20,M,,M,,*6C
06/10/2015	03:07:12.557	$GPGGA,030713,2543.8853,N,08009.7295,W,1,11,1.6,20,M,,M,,*6D
06/10/2015	03:07:13.577	$GPGGA,030714,2543.8853,N,08009.7295,W,1,11,1.6,20,M,,M,,*6A
06/10/2015	03:07:14.567	$GPGGA,030715,2543.8853,N,08009.7295,W,1,11,1.6,19,M,,M,,*61
06/10/2015	03:07:15.607	$GPGGA,030716,2543.8853,N,08009.7295,W,1,11,1.6,19,M,,M,,*62
06/10/2015	03:07:16.547	$GPGGA,030717,2543.8853,N,08009.7295,W,1,11,1.6,19,M,,M,,*63
06/10/2015	03:07:17.567	$GPGGA,030718,2543.8853,N,08009.7295,W,1,11,1.6,19,M,,M,,*6C
06/10/2015	03:07:18.547	$GPGGA,030719,2543.8853,N,08009.7295,W,1,11,1.6,19,M,,M,,*6D
06/10/2015	03:07:19.577	$GPGGA,030720,2543.8853,N,08009.7295,W,1,11,1.6,19,M,,M,,*67
06/10/2015	03:07:20.547	$GPGGA,030721,2543.8853,N,08009.7295,W,1,11,1.6,19,M,,M,,*66
06/10/2015	03:07:21.566	$GPGGA,030722,2543.8853,N,08009.7295,W,1,11,1.6,19,M,,M,,*65
06/10/2015	03:07:22.536	$GPGGA,030723,2543.8853,N,08009.7295,W,1,11,1.6,19,M,,M,,*64
06/10/2015	03:07:23.556	$GPGGA,030724,2543.8853,N,08009.7295,W,1,11,1.6,19,M,,M,,*63
06/10/2015	03:07:24.536	$GPGGA,030725,2543.8853,N,08009.7295,W,1,11,1.6,19,M,,M,,*62
06/10/2015	03:07:25.536	$GPGGA,030726,2543.8853,N,08009.7295,W,1,11,1.6,19,M,,M,,*61
06/10/2015	03:07:26.538	$GPGGA,030727,2543.8853,N,08009.7295,W,1,11,1.6,19,M,,M,,*60
06/10/2015	03:07:27.577	$GPGGA,030728,2543.8853,N,08009.7296,W,1,11,1.6,19,M,,M,,*6C
06/10/2015	03:07:28.537	$GPGGA,030729,2543.8853,N,08009.7296,W,1,11,1.6,19,M,,M,,*6D
06/10/2015	03:07:29.517	$GPGGA,030730,2543.8853,N,08009.7295,W,1,11,1.6,19,M,,M,,*66
06/10/2015	03:07:30.537	$GPGGA,030731,2543.8853,N,08009.7295,W,1,11,1.6,19,M,,M,,*67
06/10/2015	03:07:31.647	$GPGGA,030732,2543.8853,N,08009.7296,W,1,11,1.6,19,M,,M,,*67
06/10/2015	03:07:32.617	$GPGGA,030733,2543.8853,N,08009.7295,W,1,11,1.6,19,M,,M,,*65
06/10/2015	03:07:33.547	$GPGGA,030734,2543.8853,N,08009.7295,W,1,11,1.6,19,M,,M,,*62
06/10/2015	03:07:34.517	$GPGGA,030735,2543.8853,N,08009.7295,W,1,11,1.6,19,M,,M,,*63
06/10/2015	03:07:35.627	$GPGGA,030736,2543.8853,N,08009.7295,W,1,11,1.6,19,M,,M,,*60
06/10/2015	03:07:36.517	$GPGGA,030737,2543.8853,N,08009.7295,W,1,11,1.6,19,M,,M,,*61
06/10/2015	03:07:37.507	$GPGGA,030738,2543.8853,N,08009.7295,W,1,11,1.6,19,M,,M,,*6E
06/10/2015	03:07:38.527	$GPGGA,030739,2543.8853,N,08009.7295,W,1,11,1.6,19,M,,M,,*6F
06/10/2015	03:07:39.536	$GPGGA,030740,2543.8851,N,08009.7295,W,1,11,1.6,19,M,,M,,*63
06/10/2015	03:07:40.506	$GPGGA,030741,2543.8852,N,08009.7295,W,1,11,1.6,19,M,,M,,*61
06/10/2015	03:07:41.526	$GPGGA,030742,2543.8851,N,08009.7295,W,1,11,1.6,19,M,,M,,*61
06/10/2015	03:07:42.526	$GPGGA,030743,2543.8852,N,08009.7295,W,1,11,1.6,19,M,,M,,*63
06/10/2015	03:07:43.527	$GPGGA,030744,2543.8851,N,08009.7295,W,1,11,1.6,19,M,,M,,*67
06/10/2015	03:07:44.778	$GPGGA,030745,2543.8850,N,08009.7295,W,1,11,1.6,19,M,,M,,*67
06/10/2015	03:07:45.507	$GPGGA,030746,2543.8850,N,08009.7295,W,1,11,1.6,19,M,,M,,*64
06/10/2015	03:07:46.577	$GPGGA,030747,2543.8850,N,08009.7295,W,1,11,1.6,19,M,,M,,*65
06/10/2015	03:07:48.627	$GPGGA,030749,2543.8849,N,08009.7295,W,1,11,1.6,18,M,,M,,*62
06/10/2015	03:07:49.587	$GPGGA,030750,2543.8849,N,08009.7295,W,1,11,1.6,18,M,,M,,*6A
06/10/2015	03:07:50.577	$GPGGA,030751,2543.8849,N,08009.7295,W,1,11,1.6,18,M,,M,,*6B
06/10/2015	03:07:51.627	$GPGGA,030752,2543.8849,N,08009.7295,W,1,11,1.6,18,M,,M,,*68
06/10/2015	03:07:52.577	$GPGGA,030753,2543.8849,N,08009.7295,W,1,11,1.6,18,M,,M,,*69
06/10/2015	03:07:53.567	$GPGGA,030754,2543.8848,N,08009.7295,W,1,11,1.6,18,M,,M,,*6F
06/10/2015	03:07:54.567	$GPGGA,030755,2543.8849,N,08009.7295,W,1,11,1.6,18,M,,M,,*6F
06/10/2015	03:07:55.607	$GPGGA,030756,2543.8848,N,08009.7296,W,1,11,1.6,18,M,,M,,*6E
06/10/2015	03:07:56.576	$GPGGA,030757,2543.8849,N,08009.7296,W,1,11,1.6,18,M,,M,,*6E
06/10/2015	03:07:57.586	$GPGGA,030758,2543.8849,N,08009.7296,W,1,11,1.6,18,M,,M,,*61
06/10/2015	03:07:59.046	$GPGGA,030759,2543.8849,N,08009.7296,W,1,11,1.6,18,M,,M,,*60
06/10/2015	03:07:59.616	$GPGGA,030800,2543.8848,N,08009.7298,W,1,11,1.6,18,M,,M,,*6C
06/10/2015	03:08:00.566	$GPGGA,030801,2543.8849,N,08009.7297,W,1,11,1.6,18,M,,M,,*63
06/10/2015	03:08:01.547	$GPGGA,030802,2543.8847,N,08009.7298,W,1,11,1.6,18,M,,M,,*61
06/10/2015	03:08:02.557	$GPGGA,030803,2543.8849,N,08009.7297,W,1,11,1.6,17,M,,M,,*6E
06/10/2015	03:08:03.587	$GPGGA,030804,2543.8848,N,08009.7298,W,1,11,1.6,17,M,,M,,*67
06/10/2015	03:08:04.557	$GPGGA,030805,2543.8849,N,08009.7297,W,1,11,1.6,17,M,,M,,*68
06/10/2015	03:08:05.537	$GPGGA,030806,2543.8848,N,08009.7298,W,1,11,1.6,17,M,,M,,*65
06/10/2015	03:08:06.557	$GPGGA,030807,2543.8849,N,08009.7298,W,1,11,1.6,17,M,,M,,*65
06/10/2015	03:08:07.577	$GPGGA,030808,2543.8848,N,08009.7298,W,1,11,1.6,17,M,,M,,*6B
06/10/2015	03:08:08.557	$GPGGA,030809,2543.8849,N,08009.7298,W,1,11,1.6,17,M,,M,,*6B
06/10/2015	03:08:09.537	$GPGGA,030810,2543.8848,N,08009.7299,W,1,11,1.6,17,M,,M,,*63
06/10/2015	03:08:10.547	$GPGGA,030811,2543.8849,N,08009.7299,W,1,11,1.6,17,M,,M,,*63
06/10/2015	03:08:11.547	$GPGGA,030812,2543.8848,N,08009.7299,W,1,11,1.6,17,M,,M,,*61
06/10/2015	03:08:12.537	$GPGGA,030813,2543.8849,N,08009.7301,W,1,11,1.6,17,M,,M,,*61
06/10/2015	03:08:13.528	$GPGGA,030814,2543.8848,N,08009.7300,W,1,11,1.6,17,M,,M,,*66
06/10/2015	03:08:14.536	$GPGGA,030815,2543.8849,N,08009.7301,W,1,11,1.6,17,M,,M,,*67
06/10/2015	03:08:15.536	$GPGGA,030816,2543.8848,N,08009.7300,W,1,11,1.6,17,M,,M,,*64
06/10/2015	03:08:16.536	$GPGGA,030817,2543.8849,N,08009.7301,W,1,11,1.6,17,M,,M,,*65
06/10/2015	03:08:17.526	$GPGGA,030818,2543.8848,N,08009.7301,W,1,11,1.6,16,M,,M,,*6A
06/10/2015	03:08:18.517	$GPGGA,030819,2543.8849,N,08009.7301,W,1,11,1.6,16,M,,M,,*6A
06/10/2015	03:08:19.567	$GPGGA,030820,2543.8848,N,08009.7301,W,1,11,1.6,16,M,,M,,*61
06/10/2015	03:08:20.507	$GPGGA,030821,2543.8849,N,08009.7301,W,1,11,1.6,16,M,,M,,*61
06/10/2015	03:08:21.517	$GPGGA,030822,2543.8848,N,08009.7301,W,1,11,1.6,16,M,,M,,*63
06/10/2015	03:08:22.627	$GPGGA,030823,2543.8849,N,08009.7301,W,1,11,1.6,16,M,,M,,*63
06/10/2015	03:08:23.647	$GPGGA,030824,2543.8848,N,08009.7301,W,1,11,1.6,16,M,,M,,*65
06/10/2015	03:08:24.507	$GPGGA,030825,2543.8849,N,08009.7301,W,1,11,1.6,16,M,,M,,*65
06/10/2015	03:08:25.517	$GPGGA,030826,2543.8849,N,08009.7301,W,1,11,1.6,16,M,,M,,*66
06/10/2015	03:08:26.517	$GPGGA,030827,2543.8849,N,08009.7301,W,1,11,1.6,16,M,,M,,*67
06/10/2015	03:08:27.607	$GPGGA,030828,2543.8849,N,08009.7301,W,1,11,1.6,16,M,,M,,*68
06/10/2015	03:08:28.497	$GPGGA,030829,2543.8849,N,08009.7300,W,1,11,1.6,16,M,,M,,*68
06/10/2015	03:08:29.517	$GPGGA,030830,2543.8849,N,08009.7301,W,1,11,1.6,16,M,,M,,*61
06/10/2015	03:08:30.597	$GPGGA,030831,2543.8849,N,08009.7300,W,1,11,1.6,16,M,,M,,*61
06/10/2015	03:08:31.636	$GPGGA,030832,2543.8849,N,08009.7301,W,1,11,1.6,16,M,,M,,*63
06/10/2015	03:08:32.506	$GPGGA,030833,2543.8849,N,08009.7301,W,1,11,1.6,15,M,,M,,*61
06/10/2015	03:08:33.596	$GPGGA,030834,2543.8849,N,08009.7301,W,1,11,1.6,15,M,,M,,*66
06/10/2015	03:08:34.496	$GPGGA,030835,2543.8849,N,08009.7301,W,1,11,1.6,15,M,,M,,*67
06/10/2015	03:08:35.606	$GPGGA,030836,2543.8850,N,08009.7301,W,1,11,1.6,15,M,,M,,*6C
06/10/2015	03:08:36.497	$GPGGA,030837,2543.8850,N,08009.7301,W,1,11,1.6,15,M,,M,,*6D
06/10/2015	03:08:37.607	$GPGGA,030838,2543.8849,N,08009.7301,W,1,11,1.6,15,M,,M,,*6A
06/10/2015	03:08:38.597	$GPGGA,030839,2543.8849,N,08009.7301,W,1,11,1.6,15,M,,M,,*6B
06/10/2015	03:08:39.607	$GPGGA,030840,2543.8850,N,08009.7301,W,1,11,1.6,15,M,,M,,*6D
06/10/2015	03:08:40.567	$GPGGA,030841,2543.8850,N,08009.7301,W,1,11,1.6,15,M,,M,,*6C
06/10/2015	03:08:41.597	$GPGGA,030842,2543.8850,N,08009.7301,W,1,11,1.6,15,M,,M,,*6F
06/10/2015	03:08:42.917	$GPGGA,030843,2543.8850,N,08009.7301,W,1,11,1.6,15,M,,M,,*6E
06/10/2015	03:08:43.577	$GPGGA,030844,2543.8849,N,08009.7301,W,1,11,1.6,15,M,,M,,*61
06/10/2015	03:08:44.567	$GPGGA,030845,2543.8849,N,08009.7301,W,1,11,1.6,15,M,,M,,*60
06/10/2015	03:08:45.587	$GPGGA,030846,2543.8849,N,08009.7301,W,1,11,1.6,15,M,,M,,*63
06/10/2015	03:08:46.567	$GPGGA,030847,2543.8849,N,08009.7300,W,1,11,1.6,15,M,,M,,*63
06/10/2015	03:08:47.587	$GPGGA,030848,2543.8848,N,08009.7301,W,1,11,1.6,15,M,,M,,*6C
06/10/2015	03:08:48.557	$GPGGA,030849,2543.8849,N,08009.7300,W,1,11,1.6,15,M,,M,,*6D
06/10/2015	03:08:49.576	$GPGGA,030850,2543.8849,N,08009.7301,W,1,11,1.6,15,M,,M,,*64
06/10/2015	03:08:50.566	$GPGGA,030851,2543.8848,N,08009.7300,W,1,11,1.6,15,M,,M,,*65
06/10/2015	03:08:51.586	$GPGGA,030852,2543.8849,N,08009.7299,W,1,11,1.6,15,M,,M,,*66
06/10/2015	03:08:53.046	$GPGGA,030853,2543.8848,N,08009.7301,W,1,11,1.6,14,M,,M,,*67
06/10/2015	03:08:53.557	$GPGGA,030854,2543.8849,N,08009.7299,W,1,11,1.6,14,M,,M,,*61
06/10/2015	03:08:54.547	$GPGGA,030855,2543.8848,N,08009.7299,W,1,11,1.6,14,M,,M,,*61
06/10/2015	03:08:55.547	$GPGGA,030856,2543.8849,N,08009.7299,W,1,11,1.6,14,M,,M,,*63
06/10/2015	03:08:56.547	$GPGGA,030857,2543.8847,N,08009.7298,W,1,11,1.6,14,M,,M,,*6D
06/10/2015	03:08:57.537	$GPGGA,030858,2543.8848,N,08009.7298,W,1,11,1.6,14,M,,M,,*6D
06/10/2015	03:08:58.547	$GPGGA,030859,2543.8847,N,08009.7298,W,1,11,1.6,14,M,,M,,*63
06/10/2015	03:08:59.557	$GPGGA,030900,2543.8848,N,08009.7298,W,1,11,1.6,14,M,,M,,*61
06/10/2015	03:09:00.537	$GPGGA,030901,2543.8847,N,08009.7298,W,1,11,1.6,14,M,,M,,*6F
06/10/2015	03:09:01.527	$GPGGA,030902,2543.8846,N,08009.7298,W,1,11,1.6,14,M,,M,,*6D
06/10/2015	03:09:02.537	$GPGGA,030903,2543.8846,N,08009.7298,W,1,11,1.6,14,M,,M,,*6C
06/10/2015	03:09:03.567	$GPGGA,030904,2543.8846,N,08009.7298,W,1,11,1.6,14,M,,M,,*6B
06/10/2015	03:09:04.537	$GPGGA,030905,2543.8846,N,08009.7298,W,1,11,1.6,14,M,,M,,*6A
06/10/2015	03:09:05.797	$GPGGA,030906,2543.8846,N,08009.7298,W,1,11,1.6,14,M,,M,,*69
06/10/2015	03:09:06.516	$GPGGA,030907,2543.8846,N,08009.7298,W,1,11,1.6,14,M,,M,,*68
06/10/2015	03:09:07.526	$GPGGA,030908,2543.8846,N,08009.7298,W,1,11,1.6,14,M,,M,,*67
06/10/2015	03:09:08.526	$GPGGA,030909,2543.8846,N,08009.7298,W,1,11,1.6,14,M,,M,,*66
06/10/2015	03:09:09.546	$GPGGA,030910,2543.8846,N,08009.7298,W,1,11,1.6,14,M,,M,,*6E
06/10/2015	03:09:10.516	$GPGGA,030911,2543.8846,N,08009.7298,W,1,11,1.6,14,M,,M,,*6F
06/10/2015	03:09:11.537	$GPGGA,030912,2543.8846,N,08009.7298,W,1,11,1.6,14,M,,M,,*6C
06/10/2015	03:09:12.517	$GPGGA,030913,2543.8846,N,08009.7298,W,1,11,1.6,14,M,,M,,*6D
06/10/2015	03:09:13.617	$GPGGA,030914,2543.8846,N,08009.7298,W,1,11,1.6,14,M,,M,,*6A
06/10/2015	03:09:14.499	$GPGGA,030915,2543.8846,N,08009.7298,W,1,11,1.6,14,M,,M,,*6B
06/10/2015	03:09:15.537	$GPGGA,030916,2543.8846,N,08009.7298,W,1,11,1.6,14,M,,M,,*68
06/10/2015	03:09:16.597	$GPGGA,030917,2543.8846,N,08009.7298,W,1,11,1.6,15,M,,M,,*68
06/10/2015	03:09:17.597	$GPGGA,030918,2543.8844,N,08009.7298,W,1,11,1.6,15,M,,M,,*65
06/10/2015	03:09:18.598	$GPGGA,030919,2543.8845,N,08009.7298,W,1,11,1.6,15,M,,M,,*65
06/10/2015	03:09:19.627	$GPGGA,030920,2543.8844,N,08009.7297,W,1,11,1.6,15,M,,M,,*61
06/10/2015	03:09:20.507	$GPGGA,030921,2543.8845,N,08009.7298,W,1,11,1.6,15,M,,M,,*6E
06/10/2015	03:09:21.627	$GPGGA,030922,2543.8844,N,08009.7297,W,1,11,1.6,15,M,,M,,*63
06/10/2015	03:09:22.587	$GPGGA,030923,2543.8845,N,08009.7298,W,1,11,1.6,15,M,,M,,*6C
06/10/2015	03:09:23.627	$GPGGA,030924,2543.8844,N,08009.7297,W,1,11,1.6,15,M,,M,,*65
06/10/2015	03:09:24.586	$GPGGA,030925,2543.8843,N,08009.7296,W,1,11,1.6,15,M,,M,,*62
06/10/2015	03:09:25.606	$GPGGA,030926,2543.8844,N,08009.7296,W,1,11,1.6,15,M,,M,,*66
06/10/2015	03:09:26.586	$GPGGA,030927,2543.8845,N,08009.7296,W,1,11,1.6,15,M,,M,,*66
06/10/2015	03:09:27.496	$GPGGA,030928,2543.8843,N,08009.7296,W,1,11,1.6,15,M,,M,,*6F
06/10/2015	03:09:28.587	$GPGGA,030929,2543.8844,N,08009.7296,W,1,11,1.6,15,M,,M,,*69
06/10/2015	03:09:29.597	$GPGGA,030930,2543.8843,N,08009.7296,W,1,11,1.6,15,M,,M,,*66
06/10/2015	03:09:30.567	$GPGGA,030931,2543.8844,N,08009.7296,W,1,11,1.6,15,M,,M,,*60
06/10/2015	03:09:31.597	$GPGGA,030932,2543.8843,N,08009.7296,W,1,11,1.6,15,M,,M,,*64
06/10/2015	03:09:32.567	$GPGGA,030933,2543.8844,N,08009.7296,W,1,11,1.6,15,M,,M,,*62
06/10/2015	03:09:33.587	$GPGGA,030934,2543.8843,N,08009.7295,W,1,11,1.6,15,M,,M,,*61
06/10/2015	03:09:34.577	$GPGGA,030935,2543.8844,N,08009.7296,W,1,11,1.6,15,M,,M,,*64
06/10/2015	03:09:35.597	$GPGGA,030936,2543.8843,N,08009.7295,W,1,11,1.6,15,M,,M,,*63
06/10/2015	03:09:36.567	$GPGGA,030937,2543.8844,N,08009.7295,W,1,11,1.6,15,M,,M,,*65
06/10/2015	03:09:37.587	$GPGGA,030938,2543.8842,N,08009.7295,W,1,11,1.6,15,M,,M,,*6C
06/10/2015	03:09:38.567	$GPGGA,030939,2543.8844,N,08009.7295,W,1,11,1.6,15,M,,M,,*6B
06/10/2015	03:09:39.587	$GPGGA,030940,2543.8843,N,08009.7295,W,1,11,1.6,15,M,,M,,*62
06/10/2015	03:09:40.577	$GPGGA,030941,2543.8844,N,08009.7295,W,1,11,1.6,15,M,,M,,*64
06/10/2015	03:09:41.576	$GPGGA,030942,2543.8843,N,08009.7295,W,1,11,1.6,15,M,,M,,*60
06/10/2015	03:09:42.556	$GPGGA,030943,2543.8844,N,08009.7295,W,1,11,1.6,15,M,,M,,*66
06/10/2015	03:09:43.576	$GPGGA,030944,2543.8843,N,08009.7295,W,1,11,1.6,15,M,,M,,*66
06/10/2015	03:09:44.546	$GPGGA,030945,2543.8844,N,08009.7295,W,1,11,1.6,15,M,,M,,*60
06/10/2015	03:09:45.536	$GPGGA,030946,2543.8843,N,08009.7295,W,1,11,1.6,15,M,,M,,*64
06/10/2015	03:09:46.547	$GPGGA,030947,2543.8844,N,08009.7295,W,1,11,1.6,15,M,,M,,*62
06/10/2015	03:09:47.547	$GPGGA,030948,2543.8843,N,08009.7295,W,1,11,1.6,15,M,,M,,*6A
06/10/2015	03:09:48.537	$GPGGA,030949,2543.8844,N,08009.7295,W,1,11,1.6,15,M,,M,,*6C
06/10/2015	03:09:49.537	$GPGGA,030950,2543.8843,N,08009.7295,W,1,11,1.6,15,M,,M,,*63
06/10/2015	03:09:50.537	$GPGGA,030951,2543.8844,N,08009.7295,W,1,11,1.6,15,M,,M,,*65
06/10/2015	03:09:51.577	$GPGGA,030952,2543.8843,N,08009.7295,W,1,11,1.6,15,M,,M,,*61
06/10/2015	03:09:52.547	$GPGGA,030953,2543.8844,N,08009.7295,W,1,11,1.6,15,M,,M,,*67
06/10/2015	03:09:53.527	$GPGGA,030954,2543.8843,N,08009.7295,W,1,11,1.6,15,M,,M,,*67
06/10/2015	03:09:54.527	$GPGGA,030955,2543.8844,N,08009.7295,W,1,11,1.6,15,M,,M,,*61
06/10/2015	03:09:55.567	$GPGGA,030956,2543.8843,N,08009.7294,W,1,11,1.6,15,M,,M,,*64
06/10/2015	03:09:56.527	$GPGGA,030957,2543.8844,N,08009.7295,W,1,11,1.6,15,M,,M,,*63
06/10/2015	03:09:57.677	$GPGGA,030958,2543.8843,N,08009.7295,W,1,11,1.6,15,M,,M,,*6B
06/10/2015	03:09:58.537	$GPGGA,030959,2543.8845,N,08009.7294,W,1,11,1.6,15,M,,M,,*6D
06/10/2015	03:09:59.566	$GPGGA,031000,2543.8843,N,08009.7295,W,1,11,1.6,16,M,,M,,*6D
06/10/2015	03:10:00.506	$GPGGA,031001,2543.8844,N,08009.7295,W,1,11,1.6,16,M,,M,,*6B
06/10/2015	03:10:01.676	$GPGGA,031002,2543.8843,N,08009.7295,W,1,11,1.6,16,M,,M,,*6F
06/10/2015	03:10:02.516	$GPGGA,031003,2543.8844,N,08009.7295,W,1,11,1.6,16,M,,M,,*69
06/10/2015	03:10:03.687	$GPGGA,031004,2543.8843,N,08009.7295,W,1,11,1.6,16,M,,M,,*69
06/10/2015	03:10:04.527	$GPGGA,031005,2543.8845,N,08009.7295,W,1,11,1.6,16,M,,M,,*6E
06/10/2015	03:10:05.677	$GPGGA,031006,2543.8844,N,08009.7295,W,1,11,1.6,16,M,,M,,*6C
06/10/2015	03:10:06.498	$GPGGA,031007,2543.8845,N,08009.7296,W,1,11,1.6,16,M,,M,,*6F
06/10/2015	03:10:07.687	$GPGGA,031008,2543.8844,N,08009.7296,W,1,11,1.6,16,M,,M,,*61
06/10/2015	03:10:08.597	$GPGGA,031009,2543.8845,N,08009.7296,W,1,11,1.6,16,M,,M,,*61
06/10/2015	03:10:09.627	$GPGGA,031010,2543.8844,N,08009.7298,W,1,11,1.6,16,M,,M,,*66
06/10/2015	03:10:10.507	$GPGGA,031011,2543.8845,N,08009.7297,W,1,11,1.6,16,M,,M,,*69
06/10/2015	03:10:11.507	$GPGGA,031012,2543.8844,N,08009.7298,W,1,11,1.6,16,M,,M,,*64
06/10/2015	03:10:12.497	$GPGGA,031013,2543.8845,N,08009.7297,W,1,11,1.6,16,M,,M,,*6B
06/10/2015	03:10:13.637	$GPGGA,031014,2543.8844,N,08009.7298,W,1,11,1.6,16,M,,M,,*62
06/10/2015	03:10:14.577	$GPGGA,031015,2543.8845,N,08009.7298,W,1,11,1.6,16,M,,M,,*62
06/10/2015	03:10:15.677	$GPGGA,031016,2543.8844,N,08009.7298,W,1,11,1.6,16,M,,M,,*60
06/10/2015	03:10:16.626	$GPGGA,031017,2543.8845,N,08009.7298,W,1,11,1.6,16,M,,M,,*60
06/10/2015	03:10:17.566	$GPGGA,031018,2543.8846,N,08009.7298,W,1,11,1.6,16,M,,M,,*6C
06/10/2015	03:10:18.646	$GPGGA,031019,2543.8846,N,08009.7299,W,1,11,1.6,16,M,,M,,*6C
06/10/2015	03:10:19.667	$GPGGA,031020,2543.8846,N,08009.7299,W,1,11,1.6,16,M,,M,,*66
06/10/2015	03:10:20.567	$GPGGA,031021,2543.8846,N,08009.7301,W,1,11,1.6,16,M,,M,,*67
06/10/2015	03:10:21.627	$GPGGA,031022,2543.8846,N,08009.7300,W,1,11,1.6,16,M,,M,,*65
06/10/2015	03:10:22.637	$GPGGA,031023,2543.8846,N,08009.7301,W,1,11,1.6,16,M,,M,,*65
06/10/2015	03:10:23.617	$GPGGA,031024,2543.8846,N,08009.7300,W,1,11,1.6,16,M,,M,,*63
06/10/2015	03:10:24.557	$GPGGA,031025,2543.8846,N,08009.7301,W,1,11,1.6,16,M,,M,,*63
06/10/2015	03:10:25.637	$GPGGA,031026,2543.8846,N,08009.7301,W,1,11,1.6,16,M,,M,,*60
06/10/2015	03:10:26.637	$GPGGA,031027,2543.8846,N,08009.7301,W,1,11,1.6,16,M,,M,,*61
06/10/2015	03:10:27.657	$GPGGA,031028,2543.8846,N,08009.7301,W,1,11,1.6,16,M,,M,,*6E
06/10/2015	03:10:28.617	$GPGGA,031029,2543.8846,N,08009.7301,W,1,11,1.6,16,M,,M,,*6F
06/10/2015	03:10:29.547	$GPGGA,031030,2543.8846,N,08009.7301,W,1,11,1.6,16,M,,M,,*67
06/10/2015	03:10:30.607	$GPGGA,031031,2543.8848,N,08009.7301,W,1,11,1.6,16,M,,M,,*68
06/10/2015	03:10:31.657	$GPGGA,031032,2543.8847,N,08009.7302,W,1,11,1.6,16,M,,M,,*67
06/10/2015	03:10:32.607	$GPGGA,031033,2543.8848,N,08009.7302,W,1,11,1.6,16,M,,M,,*69
06/10/2015	03:10:33.587	$GPGGA,031034,2543.8847,N,08009.7302,W,1,11,1.6,16,M,,M,,*61
06/10/2015	03:10:34.606	$GPGGA,031035,2543.8848,N,08009.7302,W,1,11,1.6,16,M,,M,,*6F
06/10/2015	03:10:35.636	$GPGGA,031036,2543.8847,N,08009.7303,W,1,11,1.6,16,M,,M,,*62
06/10/2015	03:10:36.536	$GPGGA,031037,2543.8848,N,08009.7303,W,1,11,1.6,16,M,,M,,*6C
06/10/2015	03:10:37.536	$GPGGA,031038,2543.8847,N,08009.7303,W,1,11,1.6,17,M,,M,,*6D
06/10/2015	03:10:38.597	$GPGGA,031039,2543.8848,N,08009.7303,W,1,11,1.6,17,M,,M,,*63
06/10/2015	03:10:39.627	$GPGGA,031040,2543.8849,N,08009.7303,W,1,11,1.6,17,M,,M,,*6C
06/10/2015	03:10:40.587	$GPGGA,031041,2543.8847,N,08009.7303,W,1,11,1.6,17,M,,M,,*63
06/10/2015	03:10:42.628	$GPGGA,031043,2543.8848,N,08009.7303,W,1,11,1.6,17,M,,M,,*6E
06/10/2015	03:10:43.587	$GPGGA,031044,2543.8849,N,08009.7303,W,1,11,1.6,17,M,,M,,*68
06/10/2015	03:10:44.577	$GPGGA,031045,2543.8848,N,08009.7302,W,1,11,1.6,17,M,,M,,*69
06/10/2015	03:10:45.637	$GPGGA,031046,2543.8847,N,08009.7302,W,1,11,1.6,17,M,,M,,*65
06/10/2015	03:10:46.577	$GPGGA,031047,2543.8848,N,08009.7302,W,1,11,1.6,17,M,,M,,*6B
06/10/2015	03:10:47.647	$GPGGA,031048,2543.8847,N,08009.7302,W,1,11,1.6,17,M,,M,,*6B
06/10/2015	03:10:48.577	$GPGGA,031049,2543.8848,N,08009.7302,W,1,11,1.6,17,M,,M,,*65
06/10/2015	03:10:49.627	$GPGGA,031050,2543.8847,N,08009.7302,W,1,11,1.6,17,M,,M,,*62
06/10/2015	03:10:50.577	$GPGGA,031051,2543.8848,N,08009.7302,W,1,11,1.6,17,M,,M,,*6C
06/10/2015	03:10:51.586	$GPGGA,031052,2543.8847,N,08009.7302,W,1,11,1.6,17,M,,M,,*60
06/10/2015	03:10:52.616	$GPGGA,031053,2543.8848,N,08009.7302,W,1,11,1.6,17,M,,M,,*6E
06/10/2015	03:10:53.596	$GPGGA,031054,2543.8847,N,08009.7302,W,1,11,1.6,17,M,,M,,*66
06/10/2015	03:10:54.596	$GPGGA,031055,2543.8848,N,08009.7302,W,1,11,1.6,17,M,,M,,*68
06/10/2015	03:10:55.506	$GPGGA,031056,2543.8847,N,08009.7302,W,1,11,1.6,17,M,,M,,*64
06/10/2015	03:10:56.586	$GPGGA,031057,2543.8848,N,08009.7302,W,1,11,1.6,17,M,,M,,*6A
06/10/2015	03:10:57.625	$GPGGA,031058,2543.8847,N,08009.7303,W,1,11,1.6,17,M,,M,,*6B
06/10/2015	03:10:58.575	$GPGGA,031059,2543.8848,N,08009.7303,W,1,11,1.6,17,M,,M,,*65
06/10/2015	03:10:59.625	$GPGGA,031100,2543.8847,N,08009.7303,W,1,11,1.6,17,M,,M,,*67
06/10/2015	03:11:00.575	$GPGGA,031101,2543.8848,N,08009.7303,W,1,11,1.6,17,M,,M,,*69
06/10/2015	03:11:01.585	$GPGGA,031102,2543.8847,N,08009.7303,W,1,11,1.6,17,M,,M,,*65
06/10/2015	03:11:02.575	$GPGGA,031103,2543.8848,N,08009.7303,W,1,11,1.6,17,M,,M,,*6B
06/10/2015	03:11:03.575	$GPGGA,031104,2543.8847,N,08009.7303,W,1,11,1.6,17,M,,M,,*63
06/10/2015	03:11:04.575	$GPGGA,031105,2543.8846,N,08009.7303,W,1,11,1.6,17,M,,M,,*63
06/10/2015	03:11:05.585	$GPGGA,031106,2543.8846,N,08009.7303,W,1,11,1.6,17,M,,M,,*60
06/10/2015	03:11:06.595	$GPGGA,031107,2543.8846,N,08009.7303,W,1,11,1.6,17,M,,M,,*61
06/10/2015	03:11:07.595	$GPGGA,031108,2543.8846,N,08009.7303,W,1,11,1.6,17,M,,M,,*6E
06/10/2015	03:11:08.565	$GPGGA,031109,2543.8846,N,08009.7302,W,1,11,1.6,17,M,,M,,*6E
06/10/2015	03:11:09.584	$GPGGA,031110,2543.8846,N,08009.7302,W,1,11,1.6,17,M,,M,,*66
06/10/2015	03:11:10.564	$GPGGA,031111,2543.8846,N,08009.7302,W,1,11,1.6,17,M,,M,,*67
06/10/2015	03:11:11.614	$GPGGA,031112,2543.8844,N,08009.7302,W,1,11,1.6,17,M,,M,,*66
06/10/2015	03:11:12.574	$GPGGA,031113,2543.8845,N,08009.7302,W,1,11,1.6,17,M,,M,,*66
06/10/2015	03:11:13.545	$GPGGA,031114,2543.8844,N,08009.7302,W,1,11,1.6,17,M,,M,,*60
06/10/2015	03:11:14.555	$GPGGA,031115,2543.8845,N,08009.7302,W,1,11,1.6,17,M,,M,,*60
06/10/2015	03:11:15.595	$GPGGA,031116,2543.8844,N,08009.7301,W,1,11,1.6,17,M,,M,,*61
06/10/2015	03:11:16.565	$GPGGA,031117,2543.8843,N,08009.7301,W,1,11,1.6,17,M,,M,,*67
06/10/2015	03:11:17.565	$GPGGA,031118,2543.8844,N,08009.7301,W,1,11,1.6,17,M,,M,,*6F
06/10/2015	03:11:18.585	$GPGGA,031119,2543.8843,N,08009.7301,W,1,11,1.6,17,M,,M,,*69
06/10/2015	03:11:19.595	$GPGGA,031120,2543.8844,N,08009.7301,W,1,11,1.6,17,M,,M,,*64
06/10/2015	03:11:20.565	$GPGGA,031121,2543.8843,N,08009.7300,W,1,11,1.6,17,M,,M,,*63
06/10/2015	03:11:21.555	$GPGGA,031122,2543.8844,N,08009.7301,W,1,11,1.6,17,M,,M,,*66
06/10/2015	03:11:22.545	$GPGGA,031123,2543.8844,N,08009.7301,W,1,11,1.6,17,M,,M,,*67
06/10/2015	03:11:23.555	$GPGGA,031124,2543.8844,N,08009.7301,W,1,10,1.9,17,M,,M,,*6E
06/10/2015	03:11:24.585	$GPGGA,031125,2543.8842,N,08009.7300,W,1,10,1.9,17,M,,M,,*68
06/10/2015	03:11:25.535	$GPGGA,031126,2543.8844,N,08009.7301,W,1,10,1.6,17,M,,M,,*63
06/10/2015	03:11:26.534	$GPGGA,031127,2543.8844,N,08009.7301,W,1,10,1.6,17,M,,M,,*62
06/10/2015	03:11:27.544	$GPGGA,031128,2543.8839,N,08009.7297,W,1,10,1.9,17,M,,M,,*66
06/10/2015	03:11:28.564	$GPGGA,031129,2543.8839,N,08009.7297,W,1,10,1.6,17,M,,M,,*68
06/10/2015	03:11:29.554	$GPGGA,031130,2543.8838,N,08009.7295,W,1,11,1.6,17,M,,M,,*62
06/10/2015	03:11:30.554	$GPGGA,031131,2543.8838,N,08009.7295,W,1,11,1.9,17,M,,M,,*6C
06/10/2015	03:11:31.545	$GPGGA,031132,2543.8838,N,08009.7294,W,1,10,1.9,18,M,,M,,*60
06/10/2015	03:11:32.545	$GPGGA,031133,2543.8838,N,08009.7294,W,1,10,1.9,18,M,,M,,*61
06/10/2015	03:11:33.535	$GPGGA,031134,2543.8838,N,08009.7294,W,1,10,1.9,18,M,,M,,*66
06/10/2015	03:11:34.605	$GPGGA,031135,2543.8837,N,08009.7294,W,1,10,1.9,18,M,,M,,*68
06/10/2015	03:11:35.565	$GPGGA,031136,2543.8838,N,08009.7294,W,1,10,1.9,18,M,,M,,*64
06/10/2015	03:11:36.535	$GPGGA,031137,2543.8838,N,08009.7294,W,1,10,1.9,18,M,,M,,*65
06/10/2015	03:11:37.505	$GPGGA,031138,2543.8838,N,08009.7294,W,1,10,1.9,18,M,,M,,*6A
06/10/2015	03:11:38.545	$GPGGA,031139,2543.8839,N,08009.7295,W,1,10,1.6,18,M,,M,,*64
06/10/2015	03:11:39.525	$GPGGA,031140,2543.8839,N,08009.7295,W,1,11,1.6,18,M,,M,,*6B
06/10/2015	03:11:40.515	$GPGGA,031141,2543.8839,N,08009.7295,W,1,11,1.6,18,M,,M,,*6A
06/10/2015	03:11:41.595	$GPGGA,031142,2543.8839,N,08009.7296,W,1,11,1.6,18,M,,M,,*6A
06/10/2015	03:11:42.515	$GPGGA,031143,2543.8839,N,08009.7296,W,1,11,1.6,18,M,,M,,*6B
