Software Version Number: 1	Data File Format Number: 1	Build Version Number: 1	Error Count Since VI Started: 3	Manufacturer: Raytheon	 Model Number: RayMarine 120	 S/N: 	 Cal Date: 	 Wind Direction Offset: 0.00	 Slope (M)1: 0.00	 Offset (B)1: 0.00	 Slope (M)2: 0.00	 Offset (B)2: 0.00	 Slope (M)3: 0.00	 Offset (B)3: 0.00	 Slope (M)4: 0.00	 Offset (B)4: 0.00	 Slope (M)5: 0.00	 Offset (B)5: 0.00	 Slope (M)6: 0.00	 Offset (B)6: 0.00
Computer Date	Computer Time	GGA String
06/23/2015	12:00:00.528	$GPGGA,120001,2509.5471,N,08009.4918,W,1,11,1.4,12,M,,M,,*68
06/23/2015	12:00:01.638	$GPGGA,120002,2509.5497,N,08009.4901,W,1,11,1.4,12,M,,M,,*6B
06/23/2015	12:00:02.618	$GPGGA,120003,2509.5525,N,08009.4886,W,1,11,1.4,12,M,,M,,*6C
06/23/2015	12:00:03.528	$GPGGA,120004,2509.5551,N,08009.4870,W,1,10,1.4,12,M,,M,,*60
06/23/2015	12:00:04.618	$GPGGA,120005,2509.5579,N,08009.4854,W,1,10,1.4,12,M,,M,,*6D
06/23/2015	12:00:05.598	$GPGGA,120006,2509.5605,N,08009.4839,W,1,11,1.4,12,M,,M,,*6C
06/23/2015	12:00:06.608	$GPGGA,120007,2509.5633,N,08009.4824,W,1,11,1.4,12,M,,M,,*64
06/23/2015	12:00:07.668	$GPGGA,120008,2509.5659,N,08009.4808,W,1,10,1.4,12,M,,M,,*68
06/23/2015	12:00:08.608	$GPGGA,120009,2509.5687,N,08009.4789,W,1,10,1.4,12,M,,M,,*6C
06/23/2015	12:00:09.628	$GPGGA,120010,2509.5714,N,08009.4775,W,1,11,1.4,12,M,,M,,*6D
06/23/2015	12:00:10.598	$GPGGA,120011,2509.5742,N,08009.4758,W,1,11,1.4,12,M,,M,,*60
06/23/2015	12:00:11.646	$GPGGA,120012,2509.5768,N,08009.4741,W,1,11,1.4,12,M,,M,,*63
06/23/2015	12:00:12.578	$GPGGA,120013,2509.5796,N,08009.4726,W,1,11,1.4,12,M,,M,,*62
06/23/2015	12:00:13.607	$GPGGA,120014,2509.5824,N,08009.4711,W,1,11,1.4,12,M,,M,,*67
06/23/2015	12:00:14.577	$GPGGA,120015,2509.5850,N,08009.4693,W,1,11,1.4,12,M,,M,,*6E
06/23/2015	12:00:15.607	$GPGGA,120016,2509.5876,N,08009.4676,W,1,11,1.4,12,M,,M,,*62
06/23/2015	12:00:16.577	$GPGGA,120017,2509.5904,N,08009.4663,W,1,11,1.4,12,M,,M,,*63
06/23/2015	12:00:17.597	$GPGGA,120018,2509.5930,N,08009.4646,W,1,11,1.4,12,M,,M,,*6C
06/23/2015	12:00:18.567	$GPGGA,120019,2509.5956,N,08009.4629,W,1,11,1.4,12,M,,M,,*64
06/23/2015	12:00:20.045	$GPGGA,120020,2509.5983,N,08009.4613,W,1,11,1.4,12,M,,M,,*6F
06/23/2015	12:00:20.577	$GPGGA,120021,2509.6010,N,08009.4598,W,1,11,1.4,12,M,,M,,*6E
06/23/2015	12:00:21.987	$GPGGA,120022,2509.6037,N,08009.4583,W,1,11,1.4,12,M,,M,,*62
06/23/2015	12:00:22.557	$GPGGA,120023,2509.6063,N,08009.4567,W,1,11,1.4,12,M,,M,,*68
06/23/2015	12:00:23.657	$GPGGA,120024,2509.6089,N,08009.4551,W,1,10,1.4,12,M,,M,,*6F
06/23/2015	12:00:24.557	$GPGGA,120025,2509.6117,N,08009.4535,W,1,10,1.4,12,M,,M,,*6A
06/23/2015	12:00:25.567	$GPGGA,120026,2509.6143,N,08009.4521,W,1,10,1.4,12,M,,M,,*6D
06/23/2015	12:00:26.987	$GPGGA,120027,2509.6171,N,08009.4506,W,1,10,1.4,12,M,,M,,*68
06/23/2015	12:00:27.587	$GPGGA,120028,2509.6198,N,08009.4490,W,1,11,1.4,12,M,,M,,*6F
06/23/2015	12:00:28.568	$GPGGA,120029,2509.6223,N,08009.4476,W,1,11,1.4,12,M,,M,,*65
06/23/2015	12:00:29.568	$GPGGA,120030,2509.6252,N,08009.4463,W,1,11,1.4,12,M,,M,,*6F
06/23/2015	12:00:30.548	$GPGGA,120031,2509.6279,N,08009.4447,W,1,11,1.4,12,M,,M,,*61
06/23/2015	12:00:31.567	$GPGGA,120032,2509.6305,N,08009.4432,W,1,11,1.4,12,M,,M,,*6A
06/23/2015	12:00:32.557	$GPGGA,120033,2509.6333,N,08009.4418,W,1,11,1.4,12,M,,M,,*66
06/23/2015	12:00:33.567	$GPGGA,120034,2509.6360,N,08009.4403,W,1,11,1.4,12,M,,M,,*6D
06/23/2015	12:00:34.541	$GPGGA,120035,2509.6386,N,08009.4389,W,1,11,1.4,12,M,,M,,*61
06/23/2015	12:00:35.567	$GPGGA,120036,2509.6414,N,08009.4373,W,1,11,1.4,12,M,,M,,*6B
06/23/2015	12:00:36.540	$GPGGA,120037,2509.6440,N,08009.4359,W,1,11,1.4,12,M,,M,,*63
06/23/2015	12:00:37.637	$GPGGA,120038,2509.6468,N,08009.4345,W,1,10,1.4,12,M,,M,,*6A
06/23/2015	12:00:38.547	$GPGGA,120039,2509.6494,N,08009.4330,W,1,10,1.4,12,M,,M,,*6A
06/23/2015	12:00:39.577	$GPGGA,120040,2509.6522,N,08009.4314,W,1,10,1.4,12,M,,M,,*6E
06/23/2015	12:00:40.547	$GPGGA,120041,2509.6550,N,08009.4299,W,1,10,1.4,12,M,,M,,*6E
06/23/2015	12:00:41.657	$GPGGA,120042,2509.6576,N,08009.4284,W,1,11,1.4,12,M,,M,,*64
06/23/2015	12:00:42.541	$GPGGA,120043,2509.6602,N,08009.4267,W,1,11,1.4,12,M,,M,,*68
06/23/2015	12:00:43.647	$GPGGA,120044,2509.6631,N,08009.4250,W,1,11,1.4,12,M,,M,,*6B
06/23/2015	12:00:44.547	$GPGGA,120045,2509.6657,N,08009.4234,W,1,11,1.4,12,M,,M,,*68
06/23/2015	12:00:45.608	$GPGGA,120046,2509.6685,N,08009.4220,W,1,11,1.4,12,M,,M,,*61
06/23/2015	12:00:46.541	$GPGGA,120047,2509.6711,N,08009.4203,W,1,11,1.4,12,M,,M,,*6D
06/23/2015	12:00:47.568	$GPGGA,120048,2509.6739,N,08009.4186,W,1,11,1.4,12,M,,M,,*66
06/23/2015	12:00:48.607	$GPGGA,120049,2509.6767,N,08009.4172,W,1,11,1.4,12,M,,M,,*67
06/23/2015	12:00:49.607	$GPGGA,120050,2509.6794,N,08009.4155,W,1,10,1.4,12,M,,M,,*67
06/23/2015	12:00:50.607	$GPGGA,120051,2509.6819,N,08009.4140,W,1,10,1.4,12,M,,M,,*68
06/23/2015	12:00:51.607	$GPGGA,120052,2509.6848,N,08009.4126,W,1,11,1.4,12,M,,M,,*6E
06/23/2015	12:00:52.607	$GPGGA,120053,2509.6873,N,08009.4109,W,1,11,1.4,12,M,,M,,*6A
06/23/2015	12:00:53.617	$GPGGA,120054,2509.6899,N,08009.4094,W,1,11,1.4,12,M,,M,,*6C
06/23/2015	12:00:54.597	$GPGGA,120055,2509.6927,N,08009.4082,W,1,11,1.4,12,M,,M,,*6E
06/23/2015	12:00:55.647	$GPGGA,120056,2509.6955,N,08009.4066,W,1,10,1.4,12,M,,M,,*63
06/23/2015	12:00:56.587	$GPGGA,120057,2509.6982,N,08009.4050,W,1,10,1.4,12,M,,M,,*6D
06/23/2015	12:00:57.597	$GPGGA,120058,2509.7009,N,08009.4033,W,1,11,1.4,12,M,,M,,*6D
06/23/2015	12:00:58.587	$GPGGA,120059,2509.7036,N,08009.4020,W,1,11,1.4,12,M,,M,,*62
06/23/2015	12:00:59.597	$GPGGA,120100,2509.7063,N,08009.4005,W,1,11,1.4,12,M,,M,,*68
06/23/2015	12:01:00.577	$GPGGA,120101,2509.7089,N,08009.3988,W,1,11,1.4,12,M,,M,,*66
06/23/2015	12:01:01.587	$GPGGA,120102,2509.7117,N,08009.3973,W,1,11,1.4,12,M,,M,,*67
06/23/2015	12:01:02.577	$GPGGA,120103,2509.7144,N,08009.3958,W,1,11,1.4,12,M,,M,,*69
06/23/2015	12:01:03.608	$GPGGA,120104,2509.7170,N,08009.3940,W,1,11,1.4,12,M,,M,,*60
06/23/2015	12:01:04.558	$GPGGA,120105,2509.7198,N,08009.3925,W,1,11,1.4,12,M,,M,,*64
06/23/2015	12:01:05.588	$GPGGA,120106,2509.7224,N,08009.3910,W,1,11,1.4,12,M,,M,,*65
06/23/2015	12:01:06.567	$GPGGA,120107,2509.7251,N,08009.3893,W,1,11,1.4,12,M,,M,,*6C
06/23/2015	12:01:07.607	$GPGGA,120108,2509.7278,N,08009.3875,W,1,11,1.4,13,M,,M,,*61
06/23/2015	12:01:08.577	$GPGGA,120109,2509.7305,N,08009.3861,W,1,11,1.4,13,M,,M,,*6E
06/23/2015	12:01:09.567	$GPGGA,120110,2509.7332,N,08009.3844,W,1,11,1.4,13,M,,M,,*65
06/23/2015	12:01:10.587	$GPGGA,120111,2509.7357,N,08009.3828,W,1,11,1.4,13,M,,M,,*6D
06/23/2015	12:01:11.587	$GPGGA,120112,2509.7383,N,08009.3813,W,1,11,1.4,13,M,,M,,*6F
06/23/2015	12:01:12.557	$GPGGA,120113,2509.7411,N,08009.3797,W,1,11,1.4,13,M,,M,,*61
06/23/2015	12:01:13.587	$GPGGA,120114,2509.7437,N,08009.3782,W,1,11,1.4,13,M,,M,,*66
06/23/2015	12:01:14.547	$GPGGA,120115,2509.7464,N,08009.3767,W,1,11,1.4,13,M,,M,,*6A
06/23/2015	12:01:15.607	$GPGGA,120116,2509.7490,N,08009.3752,W,1,10,1.4,13,M,,M,,*65
06/23/2015	12:01:16.547	$GPGGA,120117,2509.7516,N,08009.3736,W,1,10,1.4,13,M,,M,,*69
06/23/2015	12:01:17.537	$GPGGA,120118,2509.7545,N,08009.3722,W,1,11,1.4,13,M,,M,,*64
06/23/2015	12:01:18.557	$GPGGA,120119,2509.7571,N,08009.3706,W,1,11,1.4,13,M,,M,,*64
06/23/2015	12:01:19.567	$GPGGA,120120,2509.7599,N,08009.3690,W,1,11,1.4,13,M,,M,,*66
06/23/2015	12:01:20.538	$GPGGA,120121,2509.7625,N,08009.3676,W,1,11,1.4,12,M,,M,,*6A
06/23/2015	12:01:21.568	$GPGGA,120122,2509.7653,N,08009.3662,W,1,11,1.4,12,M,,M,,*6D
06/23/2015	12:01:23.618	$GPGGA,120124,2509.7706,N,08009.3631,W,1,11,1.4,12,M,,M,,*6C
06/23/2015	12:01:24.538	$GPGGA,120125,2509.7733,N,08009.3619,W,1,11,1.4,12,M,,M,,*61
06/23/2015	12:01:25.530	$GPGGA,120126,2509.7761,N,08009.3601,W,1,9,1.5,12,M,,M,,*54
06/23/2015	12:01:26.537	$GPGGA,120127,2509.7786,N,08009.3588,W,1,9,1.4,12,M,,M,,*5F
06/23/2015	12:01:27.632	$GPGGA,120128,2509.7813,N,08009.3576,W,1,11,1.4,12,M,,M,,*6B
06/23/2015	12:01:28.517	$GPGGA,120129,2509.7841,N,08009.3561,W,1,11,1.4,12,M,,M,,*6B
06/23/2015	12:01:29.517	$GPGGA,120130,2509.7867,N,08009.3546,W,1,11,1.4,12,M,,M,,*62
06/23/2015	12:01:30.629	$GPGGA,120131,2509.7895,N,08009.3532,W,1,11,1.4,12,M,,M,,*6D
06/23/2015	12:01:31.647	$GPGGA,120132,2509.7921,N,08009.3516,W,1,11,1.4,12,M,,M,,*66
06/23/2015	12:01:32.533	$GPGGA,120133,2509.7950,N,08009.3502,W,1,11,1.4,12,M,,M,,*64
06/23/2015	12:01:33.517	$GPGGA,120134,2509.7977,N,08009.3488,W,1,11,1.4,12,M,,M,,*65
06/23/2015	12:01:34.507	$GPGGA,120135,2509.8004,N,08009.3472,W,1,11,1.4,12,M,,M,,*63
06/23/2015	12:01:35.657	$GPGGA,120136,2509.8031,N,08009.3458,W,1,11,1.4,12,M,,M,,*6E
06/23/2015	12:01:36.517	$GPGGA,120137,2509.8058,N,08009.3444,W,1,11,1.4,12,M,,M,,*6D
06/23/2015	12:01:37.627	$GPGGA,120138,2509.8084,N,08009.3428,W,1,10,1.4,12,M,,M,,*68
06/23/2015	12:01:39.069	$GPGGA,120139,2509.8112,N,08009.3412,W,1,10,1.4,12,M,,M,,*6E
06/23/2015	12:01:39.618	$GPGGA,120140,2509.8140,N,08009.3397,W,1,11,1.4,12,M,,M,,*6C
06/23/2015	12:01:40.598	$GPGGA,120141,2509.8167,N,08009.3381,W,1,11,1.4,12,M,,M,,*6F
06/23/2015	12:01:41.607	$GPGGA,120142,2509.8194,N,08009.3366,W,1,11,1.4,12,M,,M,,*69
06/23/2015	12:01:42.587	$GPGGA,120143,2509.8221,N,08009.3351,W,1,11,1.4,12,M,,M,,*61
06/23/2015	12:01:43.637	$GPGGA,120144,2509.8248,N,08009.3335,W,1,11,1.4,12,M,,M,,*6B
06/23/2015	12:01:44.587	$GPGGA,120145,2509.8275,N,08009.3320,W,1,11,1.4,12,M,,M,,*60
06/23/2015	12:01:45.607	$GPGGA,120146,2509.8302,N,08009.3304,W,1,11,1.4,12,M,,M,,*64
06/23/2015	12:01:46.587	$GPGGA,120147,2509.8329,N,08009.3288,W,1,11,1.4,12,M,,M,,*69
06/23/2015	12:01:47.617	$GPGGA,120148,2509.8355,N,08009.3273,W,1,11,1.4,12,M,,M,,*69
06/23/2015	12:01:48.567	$GPGGA,120149,2509.8383,N,08009.3256,W,1,11,1.4,12,M,,M,,*64
06/23/2015	12:01:49.567	$GPGGA,120150,2509.8409,N,08009.3239,W,1,11,1.4,12,M,,M,,*60
06/23/2015	12:01:50.577	$GPGGA,120151,2509.8438,N,08009.3224,W,1,11,1.4,12,M,,M,,*6F
06/23/2015	12:01:51.597	$GPGGA,120152,2509.8465,N,08009.3208,W,1,11,1.4,12,M,,M,,*6A
06/23/2015	12:01:52.567	$GPGGA,120153,2509.8491,N,08009.3192,W,1,11,1.4,12,M,,M,,*60
06/23/2015	12:01:53.587	$GPGGA,120154,2509.8519,N,08009.3177,W,1,11,1.4,12,M,,M,,*6D
06/23/2015	12:01:54.567	$GPGGA,120155,2509.8546,N,08009.3161,W,1,11,1.4,12,M,,M,,*61
06/23/2015	12:01:55.578	$GPGGA,120156,2509.8574,N,08009.3145,W,1,11,1.4,12,M,,M,,*65
06/23/2015	12:01:56.568	$GPGGA,120157,2509.8600,N,08009.3129,W,1,11,1.4,12,M,,M,,*6E
06/23/2015	12:01:57.588	$GPGGA,120158,2509.8626,N,08009.3113,W,1,11,1.4,12,M,,M,,*6C
06/23/2015	12:01:58.557	$GPGGA,120159,2509.8654,N,08009.3097,W,1,11,1.4,12,M,,M,,*65
06/23/2015	12:01:59.587	$GPGGA,120200,2509.8680,N,08009.3082,W,1,11,1.4,12,M,,M,,*67
06/23/2015	12:02:00.547	$GPGGA,120201,2509.8708,N,08009.3065,W,1,11,1.4,12,M,,M,,*6E
06/23/2015	12:02:01.587	$GPGGA,120202,2509.8734,N,08009.3049,W,1,11,1.4,12,M,,M,,*6C
06/23/2015	12:02:02.557	$GPGGA,120203,2509.8763,N,08009.3034,W,1,11,1.4,12,M,,M,,*65
06/23/2015	12:02:03.567	$GPGGA,120204,2509.8790,N,08009.3018,W,1,11,1.4,12,M,,M,,*60
06/23/2015	12:02:04.542	$GPGGA,120205,2509.8817,N,08009.3002,W,1,11,1.4,12,M,,M,,*6A
06/23/2015	12:02:05.567	$GPGGA,120206,2509.8845,N,08009.2987,W,1,11,1.4,12,M,,M,,*6B
06/23/2015	12:02:06.542	$GPGGA,120207,2509.8871,N,08009.2972,W,1,11,1.4,12,M,,M,,*67
06/23/2015	12:02:07.567	$GPGGA,120208,2509.8899,N,08009.2956,W,1,11,1.4,12,M,,M,,*68
06/23/2015	12:02:08.543	$GPGGA,120209,2509.8927,N,08009.2940,W,1,11,1.4,12,M,,M,,*6A
06/23/2015	12:02:09.637	$GPGGA,120210,2509.8954,N,08009.2925,W,1,11,1.4,12,M,,M,,*65
06/23/2015	12:02:10.527	$GPGGA,120211,2509.8982,N,08009.2909,W,1,11,1.4,12,M,,M,,*61
06/23/2015	12:02:11.557	$GPGGA,120212,2509.9008,N,08009.2893,W,1,11,1.4,12,M,,M,,*6A
06/23/2015	12:02:12.517	$GPGGA,120213,2509.9037,N,08009.2878,W,1,11,1.4,12,M,,M,,*62
06/23/2015	12:02:13.550	$GPGGA,120214,2509.9063,N,08009.2862,W,1,11,1.4,12,M,,M,,*6F
06/23/2015	12:02:14.518	$GPGGA,120215,2509.9091,N,08009.2847,W,1,11,1.4,12,M,,M,,*64
06/23/2015	12:02:15.528	$GPGGA,120216,2509.9119,N,08009.2833,W,1,11,1.4,12,M,,M,,*65
06/23/2015	12:02:16.517	$GPGGA,120217,2509.9146,N,08009.2816,W,1,11,1.4,11,M,,M,,*6A
06/23/2015	12:02:17.647	$GPGGA,120218,2509.9174,N,08009.2800,W,1,11,1.4,11,M,,M,,*63
06/23/2015	12:02:18.617	$GPGGA,120219,2509.9200,N,08009.2786,W,1,11,1.4,11,M,,M,,*63
06/23/2015	12:02:19.517	$GPGGA,120220,2509.9229,N,08009.2771,W,1,11,1.4,11,M,,M,,*6A
06/23/2015	12:02:20.507	$GPGGA,120221,2509.9256,N,08009.2754,W,1,11,1.4,11,M,,M,,*64
06/23/2015	12:02:21.607	$GPGGA,120222,2509.9283,N,08009.2741,W,1,11,1.4,11,M,,M,,*6B
06/23/2015	12:02:22.607	$GPGGA,120223,2509.9311,N,08009.2726,W,1,11,1.4,11,M,,M,,*61
06/23/2015	12:02:23.647	$GPGGA,120224,2509.9337,N,08009.2709,W,1,10,1.4,11,M,,M,,*6E
06/23/2015	12:02:24.507	$GPGGA,120225,2509.9366,N,08009.2694,W,1,10,1.4,11,M,,M,,*6E
06/23/2015	12:02:25.597	$GPGGA,120226,2509.9394,N,08009.2680,W,1,11,1.4,11,M,,M,,*64
06/23/2015	12:02:26.597	$GPGGA,120227,2509.9420,N,08009.2663,W,1,11,1.4,11,M,,M,,*60
06/23/2015	12:02:27.637	$GPGGA,120228,2509.9446,N,08009.2647,W,1,10,1.4,11,M,,M,,*68
06/23/2015	12:02:28.597	$GPGGA,120229,2509.9474,N,08009.2632,W,1,10,1.4,11,M,,M,,*6A
06/23/2015	12:02:29.607	$GPGGA,120230,2509.9500,N,08009.2615,W,1,11,1.4,11,M,,M,,*64
06/23/2015	12:02:30.598	$GPGGA,120231,2509.9528,N,08009.2599,W,1,11,1.4,11,M,,M,,*68
06/23/2015	12:02:31.618	$GPGGA,120232,2509.9554,N,08009.2582,W,1,11,1.4,11,M,,M,,*6A
06/23/2015	12:02:32.588	$GPGGA,120233,2509.9582,N,08009.2566,W,1,11,1.4,11,M,,M,,*6A
06/23/2015	12:02:33.577	$GPGGA,120234,2509.9608,N,08009.2550,W,1,11,1.4,11,M,,M,,*69
06/23/2015	12:02:34.587	$GPGGA,120235,2509.9636,N,08009.2535,W,1,11,1.4,11,M,,M,,*66
06/23/2015	12:02:35.607	$GPGGA,120236,2509.9662,N,08009.2519,W,1,11,1.4,11,M,,M,,*6A
06/23/2015	12:02:36.577	$GPGGA,120237,2509.9690,N,08009.2502,W,1,11,1.4,11,M,,M,,*6C
06/23/2015	12:02:37.617	$GPGGA,120238,2509.9716,N,08009.2487,W,1,11,1.4,11,M,,M,,*60
06/23/2015	12:02:38.567	$GPGGA,120239,2509.9745,N,08009.2472,W,1,11,1.4,11,M,,M,,*6D
06/23/2015	12:02:39.607	$GPGGA,120240,2509.9771,N,08009.2454,W,1,11,1.4,11,M,,M,,*60
06/23/2015	12:02:40.567	$GPGGA,120241,2509.9799,N,08009.2438,W,1,11,1.4,11,M,,M,,*6D
06/23/2015	12:02:41.587	$GPGGA,120242,2509.9827,N,08009.2424,W,1,11,1.4,11,M,,M,,*69
06/23/2015	12:02:42.557	$GPGGA,120243,2509.9853,N,08009.2407,W,1,11,1.4,11,M,,M,,*6A
06/23/2015	12:02:43.607	$GPGGA,120244,2509.9879,N,08009.2390,W,1,11,1.4,11,M,,M,,*6C
06/23/2015	12:02:44.557	$GPGGA,120245,2509.9908,N,08009.2375,W,1,11,1.4,11,M,,M,,*61
06/23/2015	12:02:45.587	$GPGGA,120246,2509.9935,N,08009.2358,W,1,11,1.4,12,M,,M,,*60
06/23/2015	12:02:46.557	$GPGGA,120247,2509.9961,N,08009.2341,W,1,11,1.4,12,M,,M,,*68
06/23/2015	12:02:47.597	$GPGGA,120248,2509.9988,N,08009.2325,W,1,11,1.4,12,M,,M,,*62
06/23/2015	12:02:48.548	$GPGGA,120249,2510.0016,N,08009.2310,W,1,11,1.4,12,M,,M,,*6A
06/23/2015	12:02:49.578	$GPGGA,120250,2510.0042,N,08009.2293,W,1,11,1.4,12,M,,M,,*69
06/23/2015	12:02:50.547	$GPGGA,120251,2510.0069,N,08009.2276,W,1,11,1.4,12,M,,M,,*6A
06/23/2015	12:02:51.577	$GPGGA,120252,2510.0096,N,08009.2262,W,1,11,1.4,12,M,,M,,*6C
06/23/2015	12:02:52.545	$GPGGA,120253,2510.0124,N,08009.2245,W,1,11,1.4,12,M,,M,,*60
06/23/2015	12:02:53.567	$GPGGA,120254,2510.0150,N,08009.2228,W,1,11,1.4,12,M,,M,,*6F
06/23/2015	12:02:54.543	$GPGGA,120255,2510.0178,N,08009.2213,W,1,11,1.4,12,M,,M,,*6C
06/23/2015	12:02:55.707	$GPGGA,120256,2510.0206,N,08009.2198,W,1,11,1.4,12,M,,M,,*65
06/23/2015	12:02:56.547	$GPGGA,120257,2510.0230,N,08009.2182,W,1,11,1.4,12,M,,M,,*6A
06/23/2015	12:02:57.547	$GPGGA,120258,2510.0258,N,08009.2164,W,1,11,1.4,12,M,,M,,*63
06/23/2015	12:02:58.557	$GPGGA,120259,2510.0284,N,08009.2149,W,1,11,1.4,12,M,,M,,*6C
06/23/2015	12:02:59.577	$GPGGA,120300,2510.0313,N,08009.2134,W,1,11,1.4,12,M,,M,,*64
06/23/2015	12:03:00.617	$GPGGA,120301,2510.0340,N,08009.2119,W,1,11,1.4,12,M,,M,,*6C
06/23/2015	12:03:01.688	$GPGGA,120302,2510.0367,N,08009.2102,W,1,11,1.4,12,M,,M,,*60
06/23/2015	12:03:02.517	$GPGGA,120303,2510.0394,N,08009.2085,W,1,11,1.4,12,M,,M,,*63
06/23/2015	12:03:03.687	$GPGGA,120304,2510.0421,N,08009.2071,W,1,11,1.4,12,M,,M,,*66
06/23/2015	12:03:04.529	$GPGGA,120305,2510.0448,N,08009.2056,W,1,11,1.4,12,M,,M,,*6D
06/23/2015	12:03:05.537	$GPGGA,120306,2510.0475,N,08009.2038,W,1,11,1.4,12,M,,M,,*68
06/23/2015	12:03:06.529	$GPGGA,120307,2510.0500,N,08009.2023,W,1,11,1.4,12,M,,M,,*60
06/23/2015	12:03:07.528	$GPGGA,120308,2510.0529,N,08009.2008,W,1,11,1.4,12,M,,M,,*6D
06/23/2015	12:03:08.627	$GPGGA,120309,2510.0555,N,08009.1992,W,1,11,1.4,12,M,,M,,*6E
06/23/2015	12:03:09.507	$GPGGA,120310,2510.0582,N,08009.1976,W,1,11,1.4,12,M,,M,,*66
06/23/2015	12:03:10.677	$GPGGA,120311,2510.0609,N,08009.1961,W,1,11,1.4,12,M,,M,,*61
06/23/2015	12:03:11.687	$GPGGA,120312,2510.0637,N,08009.1946,W,1,11,1.4,12,M,,M,,*6A
06/23/2015	12:03:12.607	$GPGGA,120313,2510.0663,N,08009.1928,W,1,11,1.4,12,M,,M,,*62
06/23/2015	12:03:13.587	$GPGGA,120314,2510.0692,N,08009.1913,W,1,11,1.4,12,M,,M,,*63
06/23/2015	12:03:14.667	$GPGGA,120315,2510.0719,N,08009.1899,W,1,11,1.4,12,M,,M,,*63
06/23/2015	12:03:15.677	$GPGGA,120316,2510.0746,N,08009.1882,W,1,11,1.4,12,M,,M,,*60
06/23/2015	12:03:16.667	$GPGGA,120317,2510.0773,N,08009.1867,W,1,11,1.4,12,M,,M,,*6C
06/23/2015	12:03:17.627	$GPGGA,120318,2510.0799,N,08009.1852,W,1,11,1.4,12,M,,M,,*61
06/23/2015	12:03:18.667	$GPGGA,120319,2510.0826,N,08009.1835,W,1,11,1.4,12,M,,M,,*6A
06/23/2015	12:03:19.657	$GPGGA,120320,2510.0854,N,08009.1820,W,1,11,1.4,12,M,,M,,*61
06/23/2015	12:03:20.657	$GPGGA,120321,2510.0882,N,08009.1805,W,1,11,1.4,12,M,,M,,*6C
06/23/2015	12:03:21.627	$GPGGA,120322,2510.0908,N,08009.1788,W,1,10,1.4,12,M,,M,,*67
06/23/2015	12:03:22.577	$GPGGA,120323,2510.0934,N,08009.1773,W,1,10,1.4,12,M,,M,,*6D
06/23/2015	12:03:23.630	$GPGGA,120324,2510.0961,N,08009.1758,W,1,11,1.4,12,M,,M,,*62
06/23/2015	12:03:24.629	$GPGGA,120325,2510.0987,N,08009.1743,W,1,11,1.4,12,M,,M,,*61
06/23/2015	12:03:25.618	$GPGGA,120326,2510.1014,N,08009.1728,W,1,11,1.4,12,M,,M,,*6D
06/23/2015	12:03:26.567	$GPGGA,120327,2510.1042,N,08009.1711,W,1,11,1.4,12,M,,M,,*65
06/23/2015	12:03:27.627	$GPGGA,120328,2510.1068,N,08009.1694,W,1,11,1.4,12,M,,M,,*6E
06/23/2015	12:03:28.637	$GPGGA,120329,2510.1096,N,08009.1680,W,1,11,1.4,12,M,,M,,*6B
06/23/2015	12:03:29.557	$GPGGA,120330,2510.1124,N,08009.1665,W,1,11,1.4,12,M,,M,,*60
06/23/2015	12:03:30.617	$GPGGA,120331,2510.1150,N,08009.1647,W,1,11,1.4,12,M,,M,,*62
06/23/2015	12:03:31.617	$GPGGA,120332,2510.1176,N,08009.1631,W,1,11,1.4,12,M,,M,,*64
06/23/2015	12:03:32.557	$GPGGA,120333,2510.1204,N,08009.1618,W,1,11,1.4,12,M,,M,,*68
06/23/2015	12:03:33.557	$GPGGA,120334,2510.1232,N,08009.1600,W,1,11,1.4,12,M,,M,,*63
06/23/2015	12:03:34.547	$GPGGA,120335,2510.1258,N,08009.1583,W,1,11,1.4,12,M,,M,,*66
06/23/2015	12:03:35.617	$GPGGA,120336,2510.1287,N,08009.1569,W,1,11,1.4,12,M,,M,,*63
06/23/2015	12:03:36.607	$GPGGA,120337,2510.1313,N,08009.1553,W,1,11,1.4,12,M,,M,,*67
06/23/2015	12:03:37.557	$GPGGA,120338,2510.1339,N,08009.1536,W,1,11,1.4,12,M,,M,,*63
06/23/2015	12:03:38.617	$GPGGA,120339,2510.1367,N,08009.1520,W,1,11,1.4,12,M,,M,,*6E
06/23/2015	12:03:39.617	$GPGGA,120340,2510.1395,N,08009.1505,W,1,11,1.4,12,M,,M,,*6A
06/23/2015	12:03:40.538	$GPGGA,120341,2510.1422,N,08009.1488,W,1,11,1.4,12,M,,M,,*64
06/23/2015	12:03:41.578	$GPGGA,120342,2510.1449,N,08009.1472,W,1,11,1.4,12,M,,M,,*6F
06/23/2015	12:03:42.598	$GPGGA,120343,2510.1476,N,08009.1457,W,1,11,1.4,12,M,,M,,*65
06/23/2015	12:03:43.647	$GPGGA,120344,2510.1503,N,08009.1440,W,1,11,1.4,12,M,,M,,*67
06/23/2015	12:03:44.529	$GPGGA,120345,2510.1530,N,08009.1424,W,1,11,1.4,12,M,,M,,*64
06/23/2015	12:03:45.527	$GPGGA,120346,2510.1557,N,08009.1408,W,1,11,1.4,12,M,,M,,*68
06/23/2015	12:03:46.647	$GPGGA,120347,2510.1584,N,08009.1393,W,1,11,1.4,12,M,,M,,*62
06/23/2015	12:03:47.597	$GPGGA,120348,2510.1612,N,08009.1377,W,1,11,1.4,12,M,,M,,*6B
06/23/2015	12:03:48.617	$GPGGA,120349,2510.1639,N,08009.1360,W,1,11,1.4,12,M,,M,,*65
06/23/2015	12:03:49.577	$GPGGA,120350,2510.1667,N,08009.1345,W,1,11,1.4,12,M,,M,,*61
06/23/2015	12:03:50.637	$GPGGA,120351,2510.1693,N,08009.1328,W,1,11,1.4,12,M,,M,,*60
06/23/2015	12:03:51.637	$GPGGA,120352,2510.1721,N,08009.1313,W,1,11,1.4,12,M,,M,,*63
06/23/2015	12:03:52.577	$GPGGA,120353,2510.1749,N,08009.1297,W,1,11,1.4,12,M,,M,,*61
06/23/2015	12:03:53.587	$GPGGA,120354,2510.1776,N,08009.1282,W,1,11,1.4,12,M,,M,,*6E
06/23/2015	12:03:54.607	$GPGGA,120355,2510.1804,N,08009.1266,W,1,11,1.4,12,M,,M,,*6F
06/23/2015	12:03:55.647	$GPGGA,120356,2510.1830,N,08009.1249,W,1,11,1.4,12,M,,M,,*66
06/23/2015	12:03:56.607	$GPGGA,120357,2510.1858,N,08009.1233,W,1,11,1.4,12,M,,M,,*64
06/23/2015	12:03:57.637	$GPGGA,120358,2510.1886,N,08009.1219,W,1,11,1.4,12,M,,M,,*60
06/23/2015	12:03:58.588	$GPGGA,120359,2510.1913,N,08009.1202,W,1,11,1.4,12,M,,M,,*66
06/23/2015	12:03:59.648	$GPGGA,120400,2510.1941,N,08009.1187,W,1,11,1.4,12,M,,M,,*64
06/23/2015	12:04:00.598	$GPGGA,120401,2510.1967,N,08009.1170,W,1,11,1.4,12,M,,M,,*69
06/23/2015	12:04:01.627	$GPGGA,120402,2510.1995,N,08009.1154,W,1,11,1.4,11,M,,M,,*62
06/23/2015	12:04:02.597	$GPGGA,120403,2510.2021,N,08009.1140,W,1,11,1.4,11,M,,M,,*63
06/23/2015	12:04:03.607	$GPGGA,120404,2510.2050,N,08009.1124,W,1,11,1.4,11,M,,M,,*60
06/23/2015	12:04:05.624	$GPGGA,120406,2510.2104,N,08009.1092,W,1,11,1.4,11,M,,M,,*6E
06/23/2015	12:04:06.597	$GPGGA,120407,2510.2130,N,08009.1076,W,1,11,1.4,11,M,,M,,*62
06/23/2015	12:04:07.638	$GPGGA,120408,2510.2159,N,08009.1060,W,1,11,1.4,11,M,,M,,*65
06/23/2015	12:04:08.617	$GPGGA,120409,2510.2186,N,08009.1046,W,1,11,1.4,11,M,,M,,*62
06/23/2015	12:04:09.628	$GPGGA,120410,2510.2213,N,08009.1029,W,1,11,1.4,11,M,,M,,*6C
06/23/2015	12:04:10.597	$GPGGA,120411,2510.2241,N,08009.1013,W,1,11,1.4,11,M,,M,,*63
06/23/2015	12:04:11.607	$GPGGA,120412,2510.2269,N,08009.0999,W,1,11,1.4,11,M,,M,,*60
06/23/2015	12:04:12.577	$GPGGA,120413,2510.2296,N,08009.0982,W,1,11,1.4,11,M,,M,,*6B
06/23/2015	12:04:13.597	$GPGGA,120414,2510.2324,N,08009.0966,W,1,11,1.4,11,M,,M,,*6E
06/23/2015	12:04:14.567	$GPGGA,120415,2510.2352,N,08009.0951,W,1,11,1.4,11,M,,M,,*6A
06/23/2015	12:04:15.588	$GPGGA,120416,2510.2379,N,08009.0934,W,1,10,1.4,11,M,,M,,*62
06/23/2015	12:04:16.598	$GPGGA,120417,2510.2407,N,08009.0918,W,1,10,1.4,11,M,,M,,*63
06/23/2015	12:04:17.558	$GPGGA,120418,2510.2435,N,08009.0902,W,1,11,1.4,11,M,,M,,*67
06/23/2015	12:04:18.587	$GPGGA,120419,2510.2462,N,08009.0886,W,1,11,1.4,11,M,,M,,*69
06/23/2015	12:04:19.597	$GPGGA,120420,2510.2491,N,08009.0871,W,1,11,1.4,11,M,,M,,*67
06/23/2015	12:04:20.577	$GPGGA,120421,2510.2518,N,08009.0853,W,1,11,1.4,11,M,,M,,*66
06/23/2015	12:04:21.577	$GPGGA,120422,2510.2545,N,08009.0838,W,1,11,1.4,11,M,,M,,*60
06/23/2015	12:04:22.577	$GPGGA,120423,2510.2573,N,08009.0822,W,1,11,1.4,11,M,,M,,*6F
06/23/2015	12:04:23.617	$GPGGA,120424,2510.2599,N,08009.0806,W,1,11,1.4,11,M,,M,,*6A
06/23/2015	12:04:24.577	$GPGGA,120425,2510.2625,N,08009.0789,W,1,11,1.4,12,M,,M,,*64
06/23/2015	12:04:25.547	$GPGGA,120426,2510.2652,N,08009.0774,W,1,11,1.4,12,M,,M,,*65
06/23/2015	12:04:26.567	$GPGGA,120427,2510.2652,N,08009.0774,W,1,11,1.5,12,M,,M,,*65
06/23/2015	12:04:27.557	$GPGGA,120428,2510.2707,N,08009.0742,W,1,11,1.4,12,M,,M,,*6F
06/23/2015	12:04:28.557	$GPGGA,120429,2510.2707,N,08009.0742,W,1,11,1.4,12,M,,M,,*6E
06/23/2015	12:04:29.547	$GPGGA,120430,2510.2762,N,08009.0708,W,1,10,1.4,12,M,,M,,*6A
06/23/2015	12:04:30.557	$GPGGA,120431,2510.2762,N,08009.0708,W,1,10,1.4,12,M,,M,,*6B
06/23/2015	12:04:31.587	$GPGGA,120432,2510.2816,N,08009.0679,W,1,11,1.4,12,M,,M,,*62
06/23/2015	12:04:32.542	$GPGGA,120433,2510.2816,N,08009.0679,W,1,11,1.4,12,M,,M,,*63
06/23/2015	12:04:33.588	$GPGGA,120434,2510.2869,N,08009.0645,W,1,11,1.4,12,M,,M,,*63
06/23/2015	12:04:34.544	$GPGGA,120435,2510.2869,N,08009.0645,W,1,11,1.4,12,M,,M,,*62
06/23/2015	12:04:35.647	$GPGGA,120436,2510.2924,N,08009.0616,W,1,11,1.4,12,M,,M,,*6F
06/23/2015	12:04:36.539	$GPGGA,120437,2510.2924,N,08009.0616,W,1,11,1.4,12,M,,M,,*6E
06/23/2015	12:04:37.639	$GPGGA,120438,2510.2978,N,08009.0583,W,1,11,1.4,12,M,,M,,*67
06/23/2015	12:04:38.617	$GPGGA,120439,2510.3006,N,08009.0569,W,1,11,1.4,12,M,,M,,*63
06/23/2015	12:04:39.533	$GPGGA,120440,2510.3033,N,08009.0553,W,1,11,1.4,12,M,,M,,*62
06/23/2015	12:04:40.617	$GPGGA,120441,2510.3058,N,08009.0535,W,1,11,1.4,12,M,,M,,*6E
06/23/2015	12:04:41.617	$GPGGA,120442,2510.3087,N,08009.0521,W,1,11,1.4,12,M,,M,,*6A
06/23/2015	12:04:42.617	$GPGGA,120443,2510.3115,N,08009.0508,W,1,11,1.4,12,M,,M,,*6A
06/23/2015	12:04:43.647	$GPGGA,120444,2510.3141,N,08009.0490,W,1,11,1.4,12,M,,M,,*6C
06/23/2015	12:04:44.597	$GPGGA,120445,2510.3167,N,08009.0473,W,1,11,1.4,13,M,,M,,*65
06/23/2015	12:04:45.643	$GPGGA,120446,2510.3195,N,08009.0461,W,1,11,1.4,13,M,,M,,*68
06/23/2015	12:04:46.597	$GPGGA,120447,2510.3223,N,08009.0444,W,1,11,1.4,13,M,,M,,*60
06/23/2015	12:04:47.647	$GPGGA,120448,2510.3250,N,08009.0430,W,1,11,1.4,13,M,,M,,*68
06/23/2015	12:04:48.607	$GPGGA,120449,2510.3250,N,08009.0430,W,1,11,1.4,13,M,,M,,*69
06/23/2015	12:04:49.597	$GPGGA,120450,2510.3304,N,08009.0400,W,1,10,1.4,13,M,,M,,*63
06/23/2015	12:04:50.598	$GPGGA,120451,2510.3331,N,08009.0387,W,1,10,1.4,13,M,,M,,*6C
06/23/2015	12:04:51.631	$GPGGA,120452,2510.3360,N,08009.0375,W,1,11,1.4,13,M,,M,,*67
06/23/2015	12:04:52.588	$GPGGA,120453,2510.3386,N,08009.0359,W,1,11,1.5,13,M,,M,,*61
06/23/2015	12:04:53.587	$GPGGA,120454,2510.3411,N,08009.0346,W,1,11,1.4,13,M,,M,,*60
06/23/2015	12:04:54.587	$GPGGA,120455,2510.3438,N,08009.0331,W,1,11,1.4,13,M,,M,,*6A
06/23/2015	12:04:55.617	$GPGGA,120456,2510.3465,N,08009.0316,W,1,11,1.4,13,M,,M,,*64
06/23/2015	12:04:56.587	$GPGGA,120457,2510.3491,N,08009.0302,W,1,11,1.4,13,M,,M,,*6B
06/23/2015	12:04:57.577	$GPGGA,120458,2510.3517,N,08009.0286,W,1,11,1.4,13,M,,M,,*66
06/23/2015	12:04:58.577	$GPGGA,120459,2510.3544,N,08009.0271,W,1,11,1.4,13,M,,M,,*69
06/23/2015	12:05:00.077	$GPGGA,120500,2510.3571,N,08009.0256,W,1,11,1.4,13,M,,M,,*67
06/23/2015	12:05:00.587	$GPGGA,120501,2510.3597,N,08009.0239,W,1,11,1.4,13,M,,M,,*67
06/23/2015	12:05:01.567	$GPGGA,120502,2510.3625,N,08009.0224,W,1,11,1.4,13,M,,M,,*62
06/23/2015	12:05:02.577	$GPGGA,120503,2510.3651,N,08009.0208,W,1,11,1.4,13,M,,M,,*6E
06/23/2015	12:05:03.597	$GPGGA,120504,2510.3679,N,08009.0191,W,1,11,1.4,13,M,,M,,*60
06/23/2015	12:05:04.557	$GPGGA,120505,2510.3705,N,08009.0176,W,1,11,1.4,13,M,,M,,*62
06/23/2015	12:05:05.567	$GPGGA,120506,2510.3734,N,08009.0161,W,1,11,1.4,13,M,,M,,*65
06/23/2015	12:05:06.577	$GPGGA,120507,2510.3761,N,08009.0143,W,1,11,1.4,13,M,,M,,*64
06/23/2015	12:05:07.597	$GPGGA,120508,2510.3788,N,08009.0129,W,1,11,1.4,13,M,,M,,*60
06/23/2015	12:05:08.558	$GPGGA,120509,2510.3816,N,08009.0113,W,1,11,1.4,13,M,,M,,*60
06/23/2015	12:05:09.558	$GPGGA,120510,2510.3842,N,08009.0097,W,1,11,1.4,13,M,,M,,*64
06/23/2015	12:05:10.567	$GPGGA,120511,2510.3871,N,08009.0083,W,1,11,1.4,13,M,,M,,*60
06/23/2015	12:05:11.588	$GPGGA,120512,2510.3898,N,08009.0066,W,1,10,1.4,13,M,,M,,*6E
06/23/2015	12:05:12.567	$GPGGA,120513,2510.3925,N,08009.0052,W,1,10,1.4,13,M,,M,,*6F
06/23/2015	12:05:13.567	$GPGGA,120514,2510.3953,N,08009.0037,W,1,11,1.4,13,M,,M,,*6B
06/23/2015	12:05:14.545	$GPGGA,120515,2510.3979,N,08009.0020,W,1,11,1.4,13,M,,M,,*64
06/23/2015	12:05:15.567	$GPGGA,120516,2510.4008,N,08009.0005,W,1,11,1.4,13,M,,M,,*68
06/23/2015	12:05:16.542	$GPGGA,120517,2510.4036,N,08008.9990,W,1,11,1.4,13,M,,M,,*69
06/23/2015	12:05:17.644	$GPGGA,120518,2510.4062,N,08008.9974,W,1,11,1.4,13,M,,M,,*6D
06/23/2015	12:05:18.557	$GPGGA,120519,2510.4090,N,08008.9958,W,1,11,1.4,13,M,,M,,*6F
06/23/2015	12:05:19.667	$GPGGA,120520,2510.4117,N,08008.9944,W,1,11,1.4,13,M,,M,,*66
06/23/2015	12:05:20.657	$GPGGA,120521,2510.4144,N,08008.9927,W,1,11,1.4,13,M,,M,,*64
06/23/2015	12:05:21.548	$GPGGA,120522,2510.4171,N,08008.9911,W,1,10,1.4,13,M,,M,,*65
06/23/2015	12:05:22.540	$GPGGA,120523,2510.4200,N,08008.9895,W,1,10,1.4,13,M,,M,,*6C
06/23/2015	12:05:23.646	$GPGGA,120524,2510.4228,N,08008.9878,W,1,11,1.4,13,M,,M,,*63
06/23/2015	12:05:24.543	$GPGGA,120525,2510.4256,N,08008.9862,W,1,11,1.4,13,M,,M,,*60
06/23/2015	12:05:25.658	$GPGGA,120526,2510.4283,N,08008.9845,W,1,11,1.4,13,M,,M,,*6E
06/23/2015	12:05:26.542	$GPGGA,120527,2510.4310,N,08008.9829,W,1,11,1.4,13,M,,M,,*6E
06/23/2015	12:05:27.633	$GPGGA,120528,2510.4337,N,08008.9815,W,1,11,1.4,13,M,,M,,*6B
06/23/2015	12:05:28.617	$GPGGA,120529,2510.4365,N,08008.9797,W,1,11,1.4,13,M,,M,,*68
06/23/2015	12:05:29.517	$GPGGA,120530,2510.4391,N,08008.9781,W,1,11,1.4,13,M,,M,,*6C
06/23/2015	12:05:30.607	$GPGGA,120531,2510.4420,N,08008.9768,W,1,11,1.4,13,M,,M,,*67
06/23/2015	12:05:31.657	$GPGGA,120532,2510.4446,N,08008.9751,W,1,10,1.4,13,M,,M,,*6F
06/23/2015	12:05:32.597	$GPGGA,120533,2510.4473,N,08008.9735,W,1,10,1.4,13,M,,M,,*6A
06/23/2015	12:05:33.819	$GPGGA,120534,2510.4500,N,08008.9720,W,1,11,1.4,13,M,,M,,*6D
06/23/2015	12:05:34.607	$GPGGA,120535,2510.4529,N,08008.9704,W,1,11,1.4,13,M,,M,,*61
06/23/2015	12:05:35.647	$GPGGA,120536,2510.4554,N,08008.9686,W,1,11,1.4,13,M,,M,,*63
06/23/2015	12:05:36.597	$GPGGA,120537,2510.4582,N,08008.9671,W,1,11,1.4,13,M,,M,,*61
06/23/2015	12:05:37.597	$GPGGA,120538,2510.4608,N,08008.9655,W,1,10,1.4,13,M,,M,,*68
06/23/2015	12:05:38.597	$GPGGA,120539,2510.4636,N,08008.9639,W,1,10,1.4,13,M,,M,,*6E
06/23/2015	12:05:39.628	$GPGGA,120540,2510.4662,N,08008.9623,W,1,10,1.4,13,M,,M,,*6A
06/23/2015	12:05:40.597	$GPGGA,120541,2510.4690,N,08008.9606,W,1,10,1.3,13,M,,M,,*66
06/23/2015	12:05:41.607	$GPGGA,120542,2510.4716,N,08008.9591,W,1,11,1.3,13,M,,M,,*66
06/23/2015	12:05:42.577	$GPGGA,120543,2510.4744,N,08008.9574,W,1,11,1.3,13,M,,M,,*6B
06/23/2015	12:05:43.618	$GPGGA,120544,2510.4771,N,08008.9558,W,1,11,1.3,13,M,,M,,*64
06/23/2015	12:05:44.578	$GPGGA,120545,2510.4796,N,08008.9543,W,1,11,1.3,13,M,,M,,*66
06/23/2015	12:05:45.597	$GPGGA,120546,2510.4824,N,08008.9526,W,1,10,1.4,13,M,,M,,*66
06/23/2015	12:05:46.587	$GPGGA,120547,2510.4850,N,08008.9509,W,1,10,1.3,13,M,,M,,*6E
06/23/2015	12:05:48.607	$GPGGA,120549,2510.4904,N,08008.9477,W,1,11,1.3,13,M,,M,,*69
06/23/2015	12:05:49.567	$GPGGA,120550,2510.4933,N,08008.9461,W,1,11,1.3,13,M,,M,,*62
06/23/2015	12:05:50.577	$GPGGA,120551,2510.4958,N,08008.9446,W,1,11,1.3,13,M,,M,,*6B
06/23/2015	12:05:51.597	$GPGGA,120552,2510.4987,N,08008.9429,W,1,11,1.3,13,M,,M,,*63
06/23/2015	12:05:52.557	$GPGGA,120553,2510.5013,N,08008.9413,W,1,11,1.4,13,M,,M,,*69
06/23/2015	12:05:53.597	$GPGGA,120554,2510.5038,N,08008.9398,W,1,11,1.3,13,M,,M,,*64
06/23/2015	12:05:54.557	$GPGGA,120555,2510.5067,N,08008.9383,W,1,11,1.3,13,M,,M,,*65
06/23/2015	12:05:55.607	$GPGGA,120556,2510.5092,N,08008.9367,W,1,11,1.3,13,M,,M,,*66
06/23/2015	12:05:56.577	$GPGGA,120557,2510.5120,N,08008.9351,W,1,11,1.3,13,M,,M,,*6A
06/23/2015	12:05:57.547	$GPGGA,120558,2510.5146,N,08008.9335,W,1,11,1.3,13,M,,M,,*67
06/23/2015	12:05:58.557	$GPGGA,120559,2510.5172,N,08008.9320,W,1,11,1.3,13,M,,M,,*65
06/23/2015	12:05:59.587	$GPGGA,120600,2510.5200,N,08008.9303,W,1,11,1.3,13,M,,M,,*6D
06/23/2015	12:06:00.548	$GPGGA,120601,2510.5228,N,08008.9288,W,1,11,1.3,13,M,,M,,*64
06/23/2015	12:06:01.588	$GPGGA,120602,2510.5255,N,08008.9272,W,1,11,1.3,13,M,,M,,*68
06/23/2015	12:06:02.658	$GPGGA,120603,2510.5283,N,08008.9256,W,1,11,1.4,13,M,,M,,*63
06/23/2015	12:06:03.577	$GPGGA,120604,2510.5311,N,08008.9241,W,1,11,1.3,13,M,,M,,*6F
06/23/2015	12:06:04.547	$GPGGA,120605,2510.5338,N,08008.9223,W,1,11,1.4,13,M,,M,,*66
06/23/2015	12:06:05.532	$GPGGA,120606,2510.5367,N,08008.9207,W,1,10,1.4,13,M,,M,,*68
06/23/2015	12:06:06.539	$GPGGA,120607,2510.5395,N,08008.9194,W,1,10,1.3,13,M,,M,,*6A
06/23/2015	12:06:07.557	$GPGGA,120608,2510.5421,N,08008.9178,W,1,10,1.4,13,M,,M,,*68
06/23/2015	12:06:08.546	$GPGGA,120609,2510.5448,N,08008.9163,W,1,10,1.3,13,M,,M,,*6B
06/23/2015	12:06:09.547	$GPGGA,120610,2510.5475,N,08008.9149,W,1,11,1.3,13,M,,M,,*64
06/23/2015	12:06:10.549	$GPGGA,120611,2510.5503,N,08008.9132,W,1,11,1.3,13,M,,M,,*69
06/23/2015	12:06:11.528	$GPGGA,120612,2510.5529,N,08008.9117,W,1,11,1.3,13,M,,M,,*65
06/23/2015	12:06:12.519	$GPGGA,120613,2510.5557,N,08008.9102,W,1,11,1.3,13,M,,M,,*69
06/23/2015	12:06:13.607	$GPGGA,120614,2510.5583,N,08008.9086,W,1,11,1.3,13,M,,M,,*6A
06/23/2015	12:06:14.507	$GPGGA,120615,2510.5611,N,08008.9071,W,1,11,1.3,12,M,,M,,*6A
06/23/2015	12:06:15.647	$GPGGA,120616,2510.5638,N,08008.9054,W,1,10,1.4,12,M,,M,,*63
06/23/2015	12:06:16.637	$GPGGA,120617,2510.5665,N,08008.9038,W,1,10,1.3,12,M,,M,,*67
06/23/2015	12:06:17.597	$GPGGA,120618,2510.5692,N,08008.9022,W,1,11,1.3,12,M,,M,,*6A
06/23/2015	12:06:18.597	$GPGGA,120619,2510.5719,N,08008.9006,W,1,11,1.3,12,M,,M,,*6F
06/23/2015	12:06:19.637	$GPGGA,120620,2510.5746,N,08008.8989,W,1,11,1.3,12,M,,M,,*60
06/23/2015	12:06:20.586	$GPGGA,120621,2510.5773,N,08008.8973,W,1,11,1.3,12,M,,M,,*62
06/23/2015	12:06:21.487	$GPGGA,120622,2510.5800,N,08008.8958,W,1,11,1.3,12,M,,M,,*63
06/23/2015	12:06:22.596	$GPGGA,120623,2510.5826,N,08008.8941,W,1,11,1.4,12,M,,M,,*69
06/23/2015	12:06:23.618	$GPGGA,120624,2510.5854,N,08008.8924,W,1,11,1.3,12,M,,M,,*6F
06/23/2015	12:06:24.606	$GPGGA,120625,2510.5880,N,08008.8908,W,1,11,1.3,12,M,,M,,*69
06/23/2015	12:06:25.606	$GPGGA,120626,2510.5908,N,08008.8892,W,1,11,1.3,12,M,,M,,*69
06/23/2015	12:06:26.586	$GPGGA,120627,2510.5934,N,08008.8875,W,1,11,1.3,12,M,,M,,*6E
06/23/2015	12:06:27.627	$GPGGA,120628,2510.5961,N,08008.8856,W,1,11,1.3,12,M,,M,,*60
06/23/2015	12:06:28.588	$GPGGA,120629,2510.5988,N,08008.8840,W,1,11,1.3,12,M,,M,,*61
06/23/2015	12:06:29.607	$GPGGA,120630,2510.6013,N,08008.8827,W,1,10,1.4,12,M,,M,,*66
06/23/2015	12:06:30.577	$GPGGA,120631,2510.6039,N,08008.8810,W,1,10,1.4,12,M,,M,,*6B
06/23/2015	12:06:31.597	$GPGGA,120632,2510.6066,N,08008.8794,W,1,11,1.3,12,M,,M,,*67
06/23/2015	12:06:32.577	$GPGGA,120633,2510.6093,N,08008.8778,W,1,11,1.3,13,M,,M,,*6F
06/23/2015	12:06:33.577	$GPGGA,120634,2510.6120,N,08008.8761,W,1,11,1.3,13,M,,M,,*69
06/23/2015	12:06:34.577	$GPGGA,120635,2510.6147,N,08008.8746,W,1,11,1.3,13,M,,M,,*6C
06/23/2015	12:06:35.587	$GPGGA,120636,2510.6176,N,08008.8729,W,1,10,1.4,13,M,,M,,*62
06/23/2015	12:06:36.557	$GPGGA,120637,2510.6201,N,08008.8713,W,1,10,1.3,13,M,,M,,*6E
06/23/2015	12:06:37.567	$GPGGA,120638,2510.6230,N,08008.8696,W,1,10,1.4,13,M,,M,,*68
06/23/2015	12:06:38.566	$GPGGA,120639,2510.6258,N,08008.8679,W,1,10,1.3,13,M,,M,,*61
06/23/2015	12:06:39.566	$GPGGA,120640,2510.6284,N,08008.8662,W,1,10,1.4,13,M,,M,,*63
06/23/2015	12:06:40.556	$GPGGA,120641,2510.6312,N,08008.8648,W,1,10,1.4,13,M,,M,,*64
06/23/2015	12:06:42.418	$GPGGA,120642,2510.6337,N,08008.8632,W,1,10,1.4,13,M,,M,,*6D
06/23/2015	12:06:42.556	$GPGGA,120643,2510.6364,N,08008.8616,W,1,10,1.3,12,M,,M,,*6A
06/23/2015	12:06:43.586	$GPGGA,120644,2510.6391,N,08008.8601,W,1,11,1.3,12,M,,M,,*60
06/23/2015	12:06:44.866	$GPGGA,120645,2510.6417,N,08008.8584,W,1,11,1.3,12,M,,M,,*66
06/23/2015	12:06:45.537	$GPGGA,120646,2510.6445,N,08008.8567,W,1,11,1.3,12,M,,M,,*6F
06/23/2015	12:06:46.533	$GPGGA,120647,2510.6472,N,08008.8550,W,1,11,1.3,12,M,,M,,*6E
06/23/2015	12:06:47.567	$GPGGA,120648,2510.6500,N,08008.8532,W,1,11,1.3,13,M,,M,,*60
06/23/2015	12:06:48.537	$GPGGA,120649,2510.6526,N,08008.8516,W,1,11,1.4,13,M,,M,,*64
06/23/2015	12:06:49.547	$GPGGA,120650,2510.6555,N,08008.8500,W,1,10,1.4,13,M,,M,,*6E
06/23/2015	12:06:50.938	$GPGGA,120651,2510.6581,N,08008.8483,W,1,10,1.3,13,M,,M,,*6B
06/23/2015	12:06:51.537	$GPGGA,120652,2510.6609,N,08008.8466,W,1,11,1.3,13,M,,M,,*61
06/23/2015	12:06:52.647	$GPGGA,120653,2510.6637,N,08008.8451,W,1,11,1.3,13,M,,M,,*69
06/23/2015	12:06:53.657	$GPGGA,120654,2510.6664,N,08008.8434,W,1,11,1.3,13,M,,M,,*6B
06/23/2015	12:06:54.517	$GPGGA,120655,2510.6691,N,08008.8417,W,1,11,1.3,13,M,,M,,*61
06/23/2015	12:06:55.556	$GPGGA,120656,2510.6720,N,08008.8403,W,1,10,1.4,13,M,,M,,*6A
06/23/2015	12:06:56.536	$GPGGA,120657,2510.6746,N,08008.8388,W,1,10,1.3,13,M,,M,,*68
06/23/2015	12:06:57.523	$GPGGA,120658,2510.6771,N,08008.8370,W,1,11,1.3,13,M,,M,,*65
06/23/2015	12:06:58.533	$GPGGA,120659,2510.6799,N,08008.8355,W,1,11,1.3,13,M,,M,,*65
06/23/2015	12:06:59.546	$GPGGA,120700,2510.6826,N,08008.8341,W,1,11,1.3,13,M,,M,,*66
06/23/2015	12:07:00.617	$GPGGA,120701,2510.6851,N,08008.8323,W,1,11,1.4,13,M,,M,,*64
06/23/2015	12:07:01.606	$GPGGA,120702,2510.6877,N,08008.8305,W,1,11,1.3,13,M,,M,,*60
06/23/2015	12:07:02.520	$GPGGA,120703,2510.6904,N,08008.8289,W,1,11,1.3,13,M,,M,,*61
06/23/2015	12:07:03.647	$GPGGA,120704,2510.6930,N,08008.8273,W,1,10,1.4,13,M,,M,,*62
06/23/2015	12:07:04.525	$GPGGA,120705,2510.6955,N,08008.8257,W,1,10,1.3,14,M,,M,,*66
06/23/2015	12:07:05.620	$GPGGA,120706,2510.6981,N,08008.8242,W,1,11,1.3,14,M,,M,,*69
06/23/2015	12:07:06.507	$GPGGA,120707,2510.7009,N,08008.8226,W,1,11,1.3,14,M,,M,,*62
06/23/2015	12:07:07.637	$GPGGA,120708,2510.7036,N,08008.8210,W,1,11,1.3,14,M,,M,,*64
06/23/2015	12:07:08.597	$GPGGA,120709,2510.7064,N,08008.8196,W,1,11,1.3,14,M,,M,,*6F
06/23/2015	12:07:09.627	$GPGGA,120710,2510.7092,N,08008.8179,W,1,11,1.3,14,M,,M,,*6F
06/23/2015	12:07:10.607	$GPGGA,120711,2510.7119,N,08008.8162,W,1,11,1.3,14,M,,M,,*66
06/23/2015	12:07:11.621	$GPGGA,120712,2510.7147,N,08008.8148,W,1,11,1.3,14,M,,M,,*66
06/23/2015	12:07:12.587	$GPGGA,120713,2510.7175,N,08008.8132,W,1,11,1.3,14,M,,M,,*6B
06/23/2015	12:07:13.586	$GPGGA,120714,2510.7202,N,08008.8115,W,1,11,1.3,15,M,,M,,*6B
06/23/2015	12:07:14.576	$GPGGA,120715,2510.7229,N,08008.8101,W,1,11,1.3,15,M,,M,,*66
06/23/2015	12:07:15.618	$GPGGA,120716,2510.7256,N,08008.8085,W,1,11,1.3,15,M,,M,,*60
06/23/2015	12:07:16.576	$GPGGA,120717,2510.7284,N,08008.8070,W,1,11,1.4,15,M,,M,,*63
06/23/2015	12:07:17.596	$GPGGA,120718,2510.7311,N,08008.8054,W,1,11,1.3,15,M,,M,,*60
06/23/2015	12:07:18.566	$GPGGA,120719,2510.7339,N,08008.8039,W,1,11,1.3,15,M,,M,,*60
06/23/2015	12:07:19.606	$GPGGA,120720,2510.7368,N,08008.8024,W,1,11,1.3,15,M,,M,,*62
06/23/2015	12:07:20.577	$GPGGA,120721,2510.7394,N,08008.8007,W,1,11,1.3,15,M,,M,,*61
06/23/2015	12:07:21.567	$GPGGA,120722,2510.7422,N,08008.7990,W,1,11,1.3,15,M,,M,,*60
06/23/2015	12:07:22.567	$GPGGA,120723,2510.7451,N,08008.7977,W,1,11,1.3,15,M,,M,,*6C
06/23/2015	12:07:23.607	$GPGGA,120724,2510.7479,N,08008.7961,W,1,11,1.3,15,M,,M,,*66
06/23/2015	12:07:24.567	$GPGGA,120725,2510.7506,N,08008.7944,W,1,11,1.3,15,M,,M,,*69
06/23/2015	12:07:25.587	$GPGGA,120726,2510.7534,N,08008.7930,W,1,10,1.4,14,M,,M,,*6F
06/23/2015	12:07:26.567	$GPGGA,120727,2510.7562,N,08008.7915,W,1,10,1.3,14,M,,M,,*6D
06/23/2015	12:07:27.577	$GPGGA,120728,2510.7589,N,08008.7899,W,1,11,1.3,14,M,,M,,*63
06/23/2015	12:07:28.557	$GPGGA,120729,2510.7617,N,08008.7886,W,1,11,1.3,14,M,,M,,*68
06/23/2015	12:07:29.547	$GPGGA,120730,2510.7643,N,08008.7871,W,1,11,1.3,14,M,,M,,*69
06/23/2015	12:07:30.556	$GPGGA,120731,2510.7671,N,08008.7854,W,1,11,1.3,14,M,,M,,*6E
06/23/2015	12:07:31.566	$GPGGA,120732,2510.7699,N,08008.7840,W,1,11,1.3,14,M,,M,,*6E
06/23/2015	12:07:32.546	$GPGGA,120733,2510.7726,N,08008.7826,W,1,11,1.3,14,M,,M,,*6A
06/23/2015	12:07:33.546	$GPGGA,120734,2510.7753,N,08008.7810,W,1,10,1.4,14,M,,M,,*6C
06/23/2015	12:07:34.556	$GPGGA,120735,2510.7779,N,08008.7794,W,1,10,1.3,14,M,,M,,*61
06/23/2015	12:07:35.546	$GPGGA,120736,2510.7807,N,08008.7781,W,1,11,1.3,14,M,,M,,*61
06/23/2015	12:07:36.536	$GPGGA,120737,2510.7836,N,08008.7764,W,1,11,1.4,14,M,,M,,*6E
06/23/2015	12:07:37.576	$GPGGA,120738,2510.7862,N,08008.7747,W,1,11,1.3,14,M,,M,,*66
06/23/2015	12:07:38.540	$GPGGA,120739,2510.7888,N,08008.7731,W,1,11,1.4,14,M,,M,,*65
06/23/2015	12:07:39.687	$GPGGA,120740,2510.7917,N,08008.7714,W,1,11,1.3,14,M,,M,,*6C
06/23/2015	12:07:40.538	$GPGGA,120741,2510.7946,N,08008.7696,W,1,11,1.3,14,M,,M,,*62
06/23/2015	12:07:41.523	$GPGGA,120742,2510.7972,N,08008.7680,W,1,11,1.3,14,M,,M,,*61
06/23/2015	12:07:42.534	$GPGGA,120743,2510.8000,N,08008.7662,W,1,11,1.3,14,M,,M,,*6F
06/23/2015	12:07:43.657	$GPGGA,120744,2510.8029,N,08008.7646,W,1,11,1.3,14,M,,M,,*65
06/23/2015	12:07:44.541	$GPGGA,120745,2510.8057,N,08008.7629,W,1,11,1.3,14,M,,M,,*64
06/23/2015	12:07:45.657	$GPGGA,120746,2510.8083,N,08008.7612,W,1,11,1.3,14,M,,M,,*66
06/23/2015	12:07:46.617	$GPGGA,120747,2510.8112,N,08008.7597,W,1,11,1.3,14,M,,M,,*60
06/23/2015	12:07:47.697	$GPGGA,120748,2510.8141,N,08008.7581,W,1,11,1.3,14,M,,M,,*6E
06/23/2015	12:07:48.534	$GPGGA,120749,2510.8167,N,08008.7562,W,1,11,1.3,14,M,,M,,*66
06/23/2015	12:07:49.646	$GPGGA,120750,2510.8195,N,08008.7546,W,1,10,1.3,14,M,,M,,*64
06/23/2015	12:07:50.520	$GPGGA,120751,2510.8223,N,08008.7532,W,1,10,1.3,14,M,,M,,*68
06/23/2015	12:07:51.636	$GPGGA,120752,2510.8250,N,08008.7516,W,1,11,1.3,14,M,,M,,*68
06/23/2015	12:07:52.524	$GPGGA,120753,2510.8275,N,08008.7499,W,1,11,1.3,14,M,,M,,*68
06/23/2015	12:07:53.496	$GPGGA,120754,2510.8304,N,08008.7482,W,1,11,1.3,14,M,,M,,*62
06/23/2015	12:07:54.506	$GPGGA,120755,2510.8333,N,08008.7467,W,1,11,1.4,14,M,,M,,*6B
06/23/2015	12:07:55.635	$GPGGA,120756,2510.8358,N,08008.7449,W,1,10,1.3,14,M,,M,,*6F
06/23/2015	12:07:56.587	$GPGGA,120757,2510.8387,N,08008.7433,W,1,10,1.3,14,M,,M,,*61
06/23/2015	12:07:57.607	$GPGGA,120758,2510.8412,N,08008.7418,W,1,11,1.4,14,M,,M,,*6A
06/23/2015	12:07:58.497	$GPGGA,120759,2510.8440,N,08008.7401,W,1,11,1.4,14,M,,M,,*64
06/23/2015	12:07:59.637	$GPGGA,120800,2510.8466,N,08008.7386,W,1,9,1.5,14,M,,M,,*53
06/23/2015	12:08:00.587	$GPGGA,120801,2510.8495,N,08008.7371,W,1,9,1.3,14,M,,M,,*50
06/23/2015	12:08:01.597	$GPGGA,120802,2510.8524,N,08008.7354,W,1,11,1.4,14,M,,M,,*61
06/23/2015	12:08:02.587	$GPGGA,120803,2510.8552,N,08008.7338,W,1,11,1.3,14,M,,M,,*6C
06/23/2015	12:08:03.617	$GPGGA,120804,2510.8579,N,08008.7322,W,1,11,1.3,14,M,,M,,*69
06/23/2015	12:08:04.577	$GPGGA,120805,2510.8607,N,08008.7305,W,1,11,1.4,14,M,,M,,*60
06/23/2015	12:08:05.596	$GPGGA,120806,2510.8633,N,08008.7291,W,1,10,1.3,14,M,,M,,*6E
06/23/2015	12:08:06.576	$GPGGA,120807,2510.8658,N,08008.7276,W,1,10,1.3,14,M,,M,,*6B
06/23/2015	12:08:07.620	$GPGGA,120808,2510.8683,N,08008.7260,W,1,11,1.3,14,M,,M,,*64
06/23/2015	12:08:08.576	$GPGGA,120809,2510.8711,N,08008.7244,W,1,11,1.3,14,M,,M,,*69
06/23/2015	12:08:09.586	$GPGGA,120810,2510.8737,N,08008.7229,W,1,11,1.3,14,M,,M,,*6E
06/23/2015	12:08:10.576	$GPGGA,120811,2510.8763,N,08008.7213,W,1,11,1.3,14,M,,M,,*67
06/23/2015	12:08:11.636	$GPGGA,120812,2510.8791,N,08008.7197,W,1,11,1.3,14,M,,M,,*66
06/23/2015	12:08:12.566	$GPGGA,120813,2510.8817,N,08008.7181,W,1,11,1.4,14,M,,M,,*66
06/23/2015	12:08:13.577	$GPGGA,120814,2510.8844,N,08008.7166,W,1,10,1.3,14,M,,M,,*68
06/23/2015	12:08:14.557	$GPGGA,120815,2510.8871,N,08008.7150,W,1,10,1.4,14,M,,M,,*6D
06/23/2015	12:08:15.587	$GPGGA,120816,2510.8899,N,08008.7132,W,1,10,1.3,14,M,,M,,*6B
06/23/2015	12:08:16.558	$GPGGA,120817,2510.8925,N,08008.7114,W,1,10,1.4,14,M,,M,,*6F
06/23/2015	12:08:17.557	$GPGGA,120818,2510.8951,N,08008.7100,W,1,10,1.3,14,M,,M,,*61
06/23/2015	12:08:18.547	$GPGGA,120819,2510.8979,N,08008.7084,W,1,10,1.3,14,M,,M,,*67
06/23/2015	12:08:19.587	$GPGGA,120820,2510.9005,N,08008.7066,W,1,11,1.3,14,M,,M,,*63
06/23/2015	12:08:20.557	$GPGGA,120821,2510.9034,N,08008.7049,W,1,11,1.3,14,M,,M,,*6D
06/23/2015	12:08:21.557	$GPGGA,120822,2510.9062,N,08008.7036,W,1,11,1.3,15,M,,M,,*64
06/23/2015	12:08:22.567	$GPGGA,120823,2510.9088,N,08008.7018,W,1,11,1.3,15,M,,M,,*6D
06/23/2015	12:08:23.556	$GPGGA,120824,2510.9116,N,08008.7001,W,1,11,1.3,15,M,,M,,*64
06/23/2015	12:08:24.546	$GPGGA,120825,2510.9145,N,08008.6988,W,1,11,1.4,15,M,,M,,*6D
06/23/2015	12:08:25.566	$GPGGA,120826,2510.9174,N,08008.6970,W,1,10,1.4,15,M,,M,,*6A
06/23/2015	12:08:26.557	$GPGGA,120827,2510.9200,N,08008.6953,W,1,10,1.3,15,M,,M,,*6D
06/23/2015	12:08:27.576	$GPGGA,120828,2510.9228,N,08008.6940,W,1,11,1.3,15,M,,M,,*6B
06/23/2015	12:08:28.556	$GPGGA,120829,2510.9257,N,08008.6923,W,1,11,1.4,15,M,,M,,*60
06/23/2015	12:08:29.536	$GPGGA,120830,2510.9283,N,08008.6906,W,1,10,1.3,15,M,,M,,*60
06/23/2015	12:08:30.520	$GPGGA,120831,2510.9308,N,08008.6894,W,1,10,1.3,15,M,,M,,*69
06/23/2015	12:08:31.637	$GPGGA,120832,2510.9336,N,08008.6878,W,1,11,1.3,15,M,,M,,*64
06/23/2015	12:08:32.537	$GPGGA,120833,2510.9362,N,08008.6862,W,1,11,1.3,15,M,,M,,*6F
06/23/2015	12:08:33.637	$GPGGA,120834,2510.9390,N,08008.6848,W,1,11,1.3,15,M,,M,,*6D
06/23/2015	12:08:35.053	$GPGGA,120835,2510.9417,N,08008.6833,W,1,11,1.3,15,M,,M,,*68
06/23/2015	12:08:35.647	$GPGGA,120836,2510.9445,N,08008.6815,W,1,11,1.3,15,M,,M,,*68
06/23/2015	12:08:36.617	$GPGGA,120837,2510.9474,N,08008.6800,W,1,11,1.4,15,M,,M,,*68
06/23/2015	12:08:37.617	$GPGGA,120838,2510.9502,N,08008.6785,W,1,11,1.3,15,M,,M,,*62
06/23/2015	12:08:38.617	$GPGGA,120839,2510.9529,N,08008.6768,W,1,11,1.3,15,M,,M,,*69
06/23/2015	12:08:39.567	$GPGGA,120840,2510.9557,N,08008.6752,W,1,11,1.4,14,M,,M,,*61
06/23/2015	12:08:40.530	$GPGGA,120841,2510.9586,N,08008.6735,W,1,11,1.3,14,M,,M,,*6A
06/23/2015	12:08:41.626	$GPGGA,120842,2510.9612,N,08008.6720,W,1,11,1.3,14,M,,M,,*63
06/23/2015	12:08:42.596	$GPGGA,120843,2510.9640,N,08008.6703,W,1,11,1.3,14,M,,M,,*64
06/23/2015	12:08:43.596	$GPGGA,120844,2510.9666,N,08008.6687,W,1,11,1.3,14,M,,M,,*6A
06/23/2015	12:08:44.596	$GPGGA,120845,2510.9695,N,08008.6672,W,1,11,1.3,14,M,,M,,*6D
06/23/2015	12:08:45.618	$GPGGA,120846,2510.9722,N,08008.6657,W,1,11,1.3,14,M,,M,,*64
06/23/2015	12:08:46.586	$GPGGA,120847,2510.9749,N,08008.6639,W,1,11,1.4,14,M,,M,,*67
06/23/2015	12:08:47.616	$GPGGA,120848,2510.9778,N,08008.6623,W,1,10,1.4,14,M,,M,,*60
06/23/2015	12:08:48.577	$GPGGA,120849,2510.9805,N,08008.6608,W,1,10,1.3,14,M,,M,,*6A
06/23/2015	12:08:49.607	$GPGGA,120850,2510.9832,N,08008.6592,W,1,11,1.3,14,M,,M,,*67
06/23/2015	12:08:50.577	$GPGGA,120851,2510.9860,N,08008.6574,W,1,11,1.3,14,M,,M,,*69
06/23/2015	12:08:51.617	$GPGGA,120852,2510.9888,N,08008.6558,W,1,10,1.4,14,M,,M,,*64
06/23/2015	12:08:52.567	$GPGGA,120853,2510.9917,N,08008.6543,W,1,10,1.4,14,M,,M,,*68
06/23/2015	12:08:53.587	$GPGGA,120854,2510.9944,N,08008.6527,W,1,11,1.3,14,M,,M,,*6D
06/23/2015	12:08:54.577	$GPGGA,120855,2510.9969,N,08008.6509,W,1,11,1.3,14,M,,M,,*6F
06/23/2015	12:08:55.597	$GPGGA,120856,2510.9998,N,08008.6495,W,1,11,1.3,14,M,,M,,*66
06/23/2015	12:08:56.577	$GPGGA,120857,2511.0023,N,08008.6479,W,1,11,1.4,14,M,,M,,*63
06/23/2015	12:08:57.587	$GPGGA,120858,2511.0052,N,08008.6462,W,1,10,1.4,14,M,,M,,*61
06/23/2015	12:08:58.556	$GPGGA,120859,2511.0078,N,08008.6446,W,1,10,1.4,14,M,,M,,*6E
06/23/2015	12:08:59.576	$GPGGA,120900,2511.0106,N,08008.6430,W,1,10,1.4,13,M,,M,,*6D
06/23/2015	12:09:00.566	$GPGGA,120901,2511.0106,N,08008.6430,W,1,10,1.3,13,M,,M,,*6B
06/23/2015	12:09:01.546	$GPGGA,120902,2511.0161,N,08008.6399,W,1,10,1.4,13,M,,M,,*6A
06/23/2015	12:09:02.546	$GPGGA,120903,2511.0188,N,08008.6381,W,1,10,1.3,13,M,,M,,*62
06/23/2015	12:09:03.586	$GPGGA,120904,2511.0215,N,08008.6365,W,1,11,1.3,13,M,,M,,*69
06/23/2015	12:09:04.546	$GPGGA,120905,2511.0240,N,08008.6349,W,1,11,1.3,13,M,,M,,*66
06/23/2015	12:09:05.557	$GPGGA,120906,2511.0269,N,08008.6334,W,1,11,1.3,12,M,,M,,*65
06/23/2015	12:09:06.787	$GPGGA,120907,2511.0297,N,08008.6318,W,1,11,1.3,12,M,,M,,*6B
06/23/2015	12:09:07.557	$GPGGA,120908,2511.0323,N,08008.6302,W,1,10,1.4,12,M,,M,,*67
06/23/2015	12:09:08.547	$GPGGA,120909,2511.0351,N,08008.6286,W,1,10,1.3,12,M,,M,,*69
06/23/2015	12:09:09.567	$GPGGA,120910,2511.0378,N,08008.6271,W,1,11,1.3,12,M,,M,,*63
06/23/2015	12:09:10.533	$GPGGA,120911,2511.0406,N,08008.6255,W,1,11,1.3,12,M,,M,,*6A
06/23/2015	12:09:11.577	$GPGGA,120912,2511.0434,N,08008.6239,W,1,11,1.3,12,M,,M,,*62
06/23/2015	12:09:12.547	$GPGGA,120913,2511.0461,N,08008.6224,W,1,11,1.5,12,M,,M,,*69
06/23/2015	12:09:13.633	$GPGGA,120914,2511.0490,N,08008.6210,W,1,11,1.3,12,M,,M,,*61
06/23/2015	12:09:14.630	$GPGGA,120915,2511.0518,N,08008.6193,W,1,11,1.3,12,M,,M,,*69
06/23/2015	12:09:15.532	$GPGGA,120916,2511.0544,N,08008.6174,W,1,11,1.3,12,M,,M,,*6A
06/23/2015	12:09:16.618	$GPGGA,120917,2511.0573,N,08008.6158,W,1,11,1.4,12,M,,M,,*66
06/23/2015	12:09:17.618	$GPGGA,120918,2511.0602,N,08008.6144,W,1,11,1.3,12,M,,M,,*66
06/23/2015	12:09:18.636	$GPGGA,120919,2511.0629,N,08008.6127,W,1,11,1.3,12,M,,M,,*6B
06/23/2015	12:09:19.566	$GPGGA,120920,2511.0656,N,08008.6111,W,1,11,1.3,12,M,,M,,*6C
06/23/2015	12:09:20.528	$GPGGA,120921,2511.0685,N,08008.6095,W,1,11,1.3,12,M,,M,,*6E
06/23/2015	12:09:21.506	$GPGGA,120922,2511.0710,N,08008.6080,W,1,11,1.3,12,M,,M,,*64
06/23/2015	12:09:22.606	$GPGGA,120923,2511.0739,N,08008.6064,W,1,11,1.3,12,M,,M,,*64
06/23/2015	12:09:23.647	$GPGGA,120924,2511.0767,N,08008.6048,W,1,11,1.3,12,M,,M,,*66
06/23/2015	12:09:24.618	$GPGGA,120925,2511.0793,N,08008.6032,W,1,11,1.3,12,M,,M,,*61
06/23/2015	12:09:25.628	$GPGGA,120926,2511.0821,N,08008.6015,W,1,11,1.3,12,M,,M,,*61
06/23/2015	12:09:26.607	$GPGGA,120927,2511.0849,N,08008.6001,W,1,11,1.3,12,M,,M,,*6B
06/23/2015	12:09:27.617	$GPGGA,120928,2511.0876,N,08008.5987,W,1,11,1.3,12,M,,M,,*6C
06/23/2015	12:09:28.597	$GPGGA,120929,2511.0901,N,08008.5968,W,1,11,1.4,12,M,,M,,*6A
06/23/2015	12:09:29.618	$GPGGA,120930,2511.0929,N,08008.5952,W,1,10,1.4,13,M,,M,,*61
06/23/2015	12:09:30.597	$GPGGA,120931,2511.0958,N,08008.5938,W,1,10,1.3,13,M,,M,,*6D
06/23/2015	12:09:31.618	$GPGGA,120932,2511.0984,N,08008.5920,W,1,11,1.3,13,M,,M,,*67
06/23/2015	12:09:32.597	$GPGGA,120933,2511.1010,N,08008.5905,W,1,11,1.3,13,M,,M,,*64
06/23/2015	12:09:33.586	$GPGGA,120934,2511.1038,N,08008.5892,W,1,11,1.3,13,M,,M,,*66
06/23/2015	12:09:34.606	$GPGGA,120935,2511.1066,N,08008.5875,W,1,11,1.3,13,M,,M,,*65
06/23/2015	12:09:35.626	$GPGGA,120936,2511.1092,N,08008.5859,W,1,11,1.3,13,M,,M,,*63
06/23/2015	12:09:36.596	$GPGGA,120937,2511.1120,N,08008.5844,W,1,11,1.3,14,M,,M,,*61
06/23/2015	12:09:37.586	$GPGGA,120938,2511.1147,N,08008.5830,W,1,11,1.3,14,M,,M,,*6C
06/23/2015	12:09:38.576	$GPGGA,120939,2511.1174,N,08008.5813,W,1,11,1.3,14,M,,M,,*6C
06/23/2015	12:09:39.606	$GPGGA,120940,2511.1201,N,08008.5797,W,1,11,1.3,14,M,,M,,*60
06/23/2015	12:09:40.587	$GPGGA,120941,2511.1229,N,08008.5782,W,1,11,1.3,14,M,,M,,*6F
06/23/2015	12:09:41.597	$GPGGA,120942,2511.1256,N,08008.5766,W,1,11,1.3,14,M,,M,,*6E
06/23/2015	12:09:42.577	$GPGGA,120943,2511.1284,N,08008.5751,W,1,11,1.3,14,M,,M,,*64
06/23/2015	12:09:43.597	$GPGGA,120944,2511.1310,N,08008.5736,W,1,10,1.4,14,M,,M,,*68
06/23/2015	12:09:44.567	$GPGGA,120945,2511.1339,N,08008.5720,W,1,10,1.4,14,M,,M,,*65
06/23/2015	12:09:45.557	$GPGGA,120946,2511.1366,N,08008.5703,W,1,11,1.3,14,M,,M,,*6B
06/23/2015	12:09:46.577	$GPGGA,120947,2511.1393,N,08008.5687,W,1,11,1.4,14,M,,M,,*6A
06/23/2015	12:09:47.567	$GPGGA,120948,2511.1421,N,08008.5672,W,1,10,1.4,14,M,,M,,*60
06/23/2015	12:09:48.858	$GPGGA,120949,2511.1447,N,08008.5657,W,1,10,1.4,14,M,,M,,*66
06/23/2015	12:09:49.577	$GPGGA,120950,2511.1475,N,08008.5640,W,1,11,1.3,14,M,,M,,*6F
06/23/2015	12:09:50.556	$GPGGA,120951,2511.1503,N,08008.5624,W,1,11,1.5,14,M,,M,,*6A
06/23/2015	12:09:51.596	$GPGGA,120952,2511.1530,N,08008.5606,W,1,10,1.4,14,M,,M,,*69
06/23/2015	12:09:52.546	$GPGGA,120953,2511.1559,N,08008.5590,W,1,10,1.4,14,M,,M,,*6B
06/23/2015	12:09:53.556	$GPGGA,120954,2511.1587,N,08008.5574,W,1,11,1.3,14,M,,M,,*63
06/23/2015	12:09:54.996	$GPGGA,120955,2511.1613,N,08008.5558,W,1,11,1.4,14,M,,M,,*65
06/23/2015	12:09:55.576	$GPGGA,120956,2511.1641,N,08008.5543,W,1,10,1.4,14,M,,M,,*6A
06/23/2015	12:09:56.546	$GPGGA,120957,2511.1669,N,08008.5528,W,1,10,1.4,14,M,,M,,*6C
06/23/2015	12:09:57.576	$GPGGA,120958,2511.1696,N,08008.5511,W,1,10,1.4,14,M,,M,,*69
06/23/2015	12:09:58.547	$GPGGA,120959,2511.1724,N,08008.5494,W,1,10,1.4,14,M,,M,,*6C
06/23/2015	12:09:59.587	$GPGGA,121000,2511.1753,N,08008.5479,W,1,10,1.4,14,M,,M,,*6B
06/23/2015	12:10:00.547	$GPGGA,121001,2511.1778,N,08008.5462,W,1,10,1.4,14,M,,M,,*69
06/23/2015	12:10:01.537	$GPGGA,121002,2511.1805,N,08008.5445,W,1,11,1.3,14,M,,M,,*6C
06/23/2015	12:10:02.532	$GPGGA,121003,2511.1832,N,08008.5431,W,1,11,1.4,14,M,,M,,*6D
06/23/2015	12:10:03.547	$GPGGA,121004,2511.1859,N,08008.5415,W,1,11,1.3,14,M,,M,,*66
06/23/2015	12:10:04.530	$GPGGA,121005,2511.1886,N,08008.5396,W,1,11,1.3,14,M,,M,,*69
06/23/2015	12:10:05.519	$GPGGA,121006,2511.1913,N,08008.5380,W,1,10,1.4,14,M,,M,,*66
06/23/2015	12:10:06.537	$GPGGA,121007,2511.1942,N,08008.5364,W,1,10,1.4,14,M,,M,,*69
06/23/2015	12:10:07.567	$GPGGA,121008,2511.1970,N,08008.5345,W,1,10,1.4,14,M,,M,,*64
06/23/2015	12:10:08.630	$GPGGA,121009,2511.1996,N,08008.5329,W,1,10,1.4,14,M,,M,,*67
06/23/2015	12:10:09.546	$GPGGA,121010,2511.2025,N,08008.5313,W,1,11,1.3,14,M,,M,,*62
06/23/2015	12:10:10.517	$GPGGA,121011,2511.2050,N,08008.5298,W,1,11,1.4,14,M,,M,,*64
06/23/2015	12:10:11.536	$GPGGA,121012,2511.2079,N,08008.5280,W,1,11,1.3,14,M,,M,,*62
06/23/2015	12:10:12.528	$GPGGA,121013,2511.2105,N,08008.5263,W,1,11,1.4,14,M,,M,,*63
06/23/2015	12:10:13.506	$GPGGA,121014,2511.2133,N,08008.5247,W,1,10,1.4,14,M,,M,,*66
06/23/2015	12:10:14.606	$GPGGA,121015,2511.2162,N,08008.5230,W,1,10,1.4,14,M,,M,,*63
06/23/2015	12:10:15.532	$GPGGA,121016,2511.2190,N,08008.5213,W,1,11,1.3,14,M,,M,,*6A
06/23/2015	12:10:16.607	$GPGGA,121017,2511.2216,N,08008.5198,W,1,11,1.5,14,M,,M,,*60
06/23/2015	12:10:17.587	$GPGGA,121018,2511.2245,N,08008.5181,W,1,11,1.3,14,M,,M,,*67
06/23/2015	12:10:18.587	$GPGGA,121019,2511.2271,N,08008.5165,W,1,11,1.3,14,M,,M,,*6B
06/23/2015	12:10:19.633	$GPGGA,121020,2511.2298,N,08008.5151,W,1,10,1.4,14,M,,M,,*67
06/23/2015	12:10:20.597	$GPGGA,121021,2511.2328,N,08008.5133,W,1,10,1.4,14,M,,M,,*68
06/23/2015	12:10:21.587	$GPGGA,121022,2511.2354,N,08008.5116,W,1,10,1.4,14,M,,M,,*67
06/23/2015	12:10:22.587	$GPGGA,121023,2511.2383,N,08008.5102,W,1,10,1.3,14,M,,M,,*6E
06/23/2015	12:10:23.597	$GPGGA,121024,2511.2411,N,08008.5085,W,1,11,1.3,14,M,,M,,*6A
06/23/2015	12:10:24.587	$GPGGA,121025,2511.2437,N,08008.5068,W,1,11,1.3,14,M,,M,,*6C
06/23/2015	12:10:25.576	$GPGGA,121026,2511.2466,N,08008.5053,W,1,11,1.3,14,M,,M,,*63
06/23/2015	12:10:26.586	$GPGGA,121027,2511.2495,N,08008.5039,W,1,11,1.3,14,M,,M,,*62
06/23/2015	12:10:27.606	$GPGGA,121028,2511.2520,N,08008.5022,W,1,11,1.3,14,M,,M,,*68
06/23/2015	12:10:28.576	$GPGGA,121029,2511.2548,N,08008.5005,W,1,11,1.3,14,M,,M,,*62
06/23/2015	12:10:29.596	$GPGGA,121030,2511.2574,N,08008.4991,W,1,10,1.4,14,M,,M,,*66
06/23/2015	12:10:30.576	$GPGGA,121031,2511.2600,N,08008.4977,W,1,10,1.3,14,M,,M,,*68
06/23/2015	12:10:31.596	$GPGGA,121032,2511.2627,N,08008.4962,W,1,10,1.4,14,M,,M,,*6D
06/23/2015	12:10:32.576	$GPGGA,121033,2511.2654,N,08008.4948,W,1,10,1.3,14,M,,M,,*67
06/23/2015	12:10:33.597	$GPGGA,121034,2511.2679,N,08008.4932,W,1,9,1.5,14,M,,M,,*5C
06/23/2015	12:10:34.557	$GPGGA,121035,2511.2707,N,08008.4916,W,1,9,1.3,14,M,,M,,*55
06/23/2015	12:10:35.597	$GPGGA,121036,2511.2735,N,08008.4903,W,1,11,1.3,15,M,,M,,*6B
06/23/2015	12:10:36.557	$GPGGA,121037,2511.2762,N,08008.4889,W,1,11,1.4,15,M,,M,,*6C
06/23/2015	12:10:37.587	$GPGGA,121038,2511.2787,N,08008.4873,W,1,10,1.4,15,M,,M,,*6C
06/23/2015	12:10:38.557	$GPGGA,121039,2511.2813,N,08008.4857,W,1,10,1.3,15,M,,M,,*6E
06/23/2015	12:10:39.587	$GPGGA,121040,2511.2841,N,08008.4844,W,1,11,1.3,15,M,,M,,*64
06/23/2015	12:10:40.557	$GPGGA,121041,2511.2867,N,08008.4829,W,1,11,1.3,15,M,,M,,*6A
06/23/2015	12:10:41.577	$GPGGA,121042,2511.2892,N,08008.4809,W,1,10,1.4,15,M,,M,,*67
06/23/2015	12:10:42.537	$GPGGA,121043,2511.2919,N,08008.4795,W,1,10,1.3,15,M,,M,,*69
06/23/2015	12:10:43.586	$GPGGA,121044,2511.2946,N,08008.4780,W,1,10,1.4,15,M,,M,,*67
06/23/2015	12:10:44.636	$GPGGA,121045,2511.2974,N,08008.4762,W,1,10,1.4,15,M,,M,,*6B
06/23/2015	12:10:45.566	$GPGGA,121046,2511.3000,N,08008.4746,W,1,11,1.3,15,M,,M,,*63
06/23/2015	12:10:46.536	$GPGGA,121047,2511.3029,N,08008.4732,W,1,11,1.4,15,M,,M,,*6D
06/23/2015	12:10:47.556	$GPGGA,121048,2511.3058,N,08008.4716,W,1,10,1.4,15,M,,M,,*63
06/23/2015	12:10:48.527	$GPGGA,121049,2511.3084,N,08008.4698,W,1,10,1.3,15,M,,M,,*63
06/23/2015	12:10:49.706	$GPGGA,121050,2511.3112,N,08008.4681,W,1,9,1.3,15,M,,M,,*55
06/23/2015	12:10:50.520	$GPGGA,121051,2511.3141,N,08008.4667,W,1,9,1.3,15,M,,M,,*5A
06/23/2015	12:10:51.547	$GPGGA,121052,2511.3170,N,08008.4651,W,1,11,1.3,15,M,,M,,*67
06/23/2015	12:10:52.647	$GPGGA,121053,2511.3196,N,08008.4632,W,1,11,1.4,15,M,,M,,*6C
06/23/2015	12:10:53.540	$GPGGA,121054,2511.3225,N,08008.4617,W,1,11,1.3,15,M,,M,,*60
06/23/2015	12:10:54.532	$GPGGA,121055,2511.3253,N,08008.4601,W,1,11,1.3,15,M,,M,,*67
06/23/2015	12:10:55.722	$GPGGA,121056,2511.3279,N,08008.4582,W,1,11,1.3,15,M,,M,,*64
06/23/2015	12:10:56.637	$GPGGA,121057,2511.3307,N,08008.4567,W,1,11,1.3,15,M,,M,,*66
06/23/2015	12:10:57.707	$GPGGA,121058,2511.3335,N,08008.4552,W,1,11,1.3,15,M,,M,,*6E
06/23/2015	12:10:58.607	$GPGGA,121059,2511.3362,N,08008.4534,W,1,11,1.3,15,M,,M,,*6D
06/23/2015	12:10:59.718	$GPGGA,121100,2511.3387,N,08008.4518,W,1,11,1.3,15,M,,M,,*65
06/23/2015	12:11:00.636	$GPGGA,121101,2511.3416,N,08008.4502,W,1,11,1.4,15,M,,M,,*67
06/23/2015	12:11:01.720	$GPGGA,121102,2511.3443,N,08008.4487,W,1,11,1.3,15,M,,M,,*6F
06/23/2015	12:11:02.686	$GPGGA,121103,2511.3470,N,08008.4471,W,1,11,1.3,15,M,,M,,*67
06/23/2015	12:11:03.606	$GPGGA,121104,2511.3498,N,08008.4455,W,1,11,1.3,15,M,,M,,*60
06/23/2015	12:11:04.646	$GPGGA,121105,2511.3524,N,08008.4438,W,1,11,1.4,15,M,,M,,*6B
06/23/2015	12:11:05.496	$GPGGA,121106,2511.3553,N,08008.4423,W,1,10,1.4,15,M,,M,,*63
06/23/2015	12:11:06.636	$GPGGA,121107,2511.3581,N,08008.4407,W,1,10,1.3,15,M,,M,,*6C
06/23/2015	12:11:07.596	$GPGGA,121108,2511.3609,N,08008.4390,W,1,11,1.3,15,M,,M,,*68
06/23/2015	12:11:08.627	$GPGGA,121109,2511.3636,N,08008.4374,W,1,11,1.4,15,M,,M,,*68
06/23/2015	12:11:10.647	$GPGGA,121111,2511.3691,N,08008.4344,W,1,10,1.3,14,M,,M,,*68
06/23/2015	12:11:11.697	$GPGGA,121112,2511.3719,N,08008.4326,W,1,11,1.3,14,M,,M,,*6F
06/23/2015	12:11:12.607	$GPGGA,121113,2511.3747,N,08008.4311,W,1,11,1.3,14,M,,M,,*61
06/23/2015	12:11:13.697	$GPGGA,121114,2511.3776,N,08008.4297,W,1,11,1.5,14,M,,M,,*6D
06/23/2015	12:11:14.607	$GPGGA,121115,2511.3803,N,08008.4281,W,1,11,1.5,14,M,,M,,*66
06/23/2015	12:11:15.697	$GPGGA,121116,2511.3831,N,08008.4265,W,1,11,1.3,14,M,,M,,*68
06/23/2015	12:11:16.907	$GPGGA,121117,2511.3860,N,08008.4250,W,1,11,1.4,14,M,,M,,*6C
06/23/2015	12:11:17.637	$GPGGA,121118,2511.3888,N,08008.4235,W,1,10,1.4,14,M,,M,,*67
06/23/2015	12:11:18.596	$GPGGA,121119,2511.3915,N,08008.4218,W,1,10,1.4,14,M,,M,,*6C
06/23/2015	12:11:19.666	$GPGGA,121120,2511.3943,N,08008.4202,W,1,11,1.3,14,M,,M,,*68
06/23/2015	12:11:20.586	$GPGGA,121121,2511.3971,N,08008.4186,W,1,11,1.3,14,M,,M,,*67
06/23/2015	12:11:21.556	$GPGGA,121122,2511.3997,N,08008.4169,W,1,11,1.3,13,M,,M,,*6A
06/23/2015	12:11:22.586	$GPGGA,121123,2511.4026,N,08008.4154,W,1,11,1.4,13,M,,M,,*66
06/23/2015	12:11:23.676	$GPGGA,121124,2511.4055,N,08008.4139,W,1,10,1.4,13,M,,M,,*6F
06/23/2015	12:11:24.556	$GPGGA,121125,2511.4081,N,08008.4121,W,1,10,1.4,13,M,,M,,*6E
06/23/2015	12:11:25.667	$GPGGA,121126,2511.4110,N,08008.4107,W,1,11,1.3,13,M,,M,,*66
06/23/2015	12:11:26.547	$GPGGA,121127,2511.4139,N,08008.4095,W,1,11,1.3,13,M,,M,,*66
06/23/2015	12:11:27.657	$GPGGA,121128,2511.4167,N,08008.4078,W,1,10,1.3,13,M,,M,,*60
06/23/2015	12:11:28.547	$GPGGA,121129,2511.4195,N,08008.4061,W,1,10,1.3,13,M,,M,,*64
06/23/2015	12:11:29.637	$GPGGA,121130,2511.4224,N,08008.4049,W,1,11,1.3,13,M,,M,,*6E
06/23/2015	12:11:30.537	$GPGGA,121131,2511.4251,N,08008.4034,W,1,11,1.3,13,M,,M,,*67
06/23/2015	12:11:31.637	$GPGGA,121132,2511.4279,N,08008.4017,W,1,11,1.3,13,M,,M,,*6F
06/23/2015	12:11:32.537	$GPGGA,121133,2511.4305,N,08008.4002,W,1,11,1.3,13,M,,M,,*60
06/23/2015	12:11:33.647	$GPGGA,121134,2511.4334,N,08008.3989,W,1,11,1.4,13,M,,M,,*6F
06/23/2015	12:11:34.537	$GPGGA,121135,2511.4359,N,08008.3971,W,1,11,1.4,13,M,,M,,*62
06/23/2015	12:11:35.646	$GPGGA,121136,2511.4387,N,08008.3955,W,1,11,1.3,13,M,,M,,*63
06/23/2015	12:11:36.566	$GPGGA,121137,2511.4415,N,08008.3941,W,1,11,1.4,13,M,,M,,*6C
06/23/2015	12:11:37.627	$GPGGA,121138,2511.4441,N,08008.3924,W,1,10,1.3,13,M,,M,,*67
06/23/2015	12:11:38.566	$GPGGA,121139,2511.4469,N,08008.3909,W,1,10,1.4,13,M,,M,,*64
06/23/2015	12:11:39.620	$GPGGA,121140,2511.4496,N,08008.3896,W,1,10,1.3,13,M,,M,,*6A
06/23/2015	12:11:40.516	$GPGGA,121141,2511.4523,N,08008.3879,W,1,10,1.3,13,M,,M,,*65
06/23/2015	12:11:41.606	$GPGGA,121142,2511.4550,N,08008.3864,W,1,10,1.4,13,M,,M,,*69
06/23/2015	12:11:42.636	$GPGGA,121143,2511.4578,N,08008.3850,W,1,10,1.4,13,M,,M,,*65
06/23/2015	12:11:43.657	$GPGGA,121144,2511.4607,N,08008.3835,W,1,10,1.4,13,M,,M,,*6A
