Software Version Number: 1	Data File Format Number: 1	Build Version Number: 1	Error Count Since VI Started: 2	Manufacturer: Raytheon	 Model Number: RayMarine 120	 S/N: 	 Cal Date: 	 Wind Direction Offset: 0.00	 Slope (M)1: 0.00	 Offset (B)1: 0.00	 Slope (M)2: 0.00	 Offset (B)2: 0.00	 Slope (M)3: 0.00	 Offset (B)3: 0.00	 Slope (M)4: 0.00	 Offset (B)4: 0.00	 Slope (M)5: 0.00	 Offset (B)5: 0.00	 Slope (M)6: 0.00	 Offset (B)6: 0.00
Computer Date	Computer Time	GGA String
06/20/2015	04:00:00.562	$GPGGA,040001,2504.9236,N,07953.1739,W,1,9,1.8,16,M,,M,,*5B
06/20/2015	04:00:01.572	$GPGGA,040002,2504.9227,N,07953.1756,W,1,10,1.9,16,M,,M,,*68
06/20/2015	04:00:02.562	$GPGGA,040003,2504.9218,N,07953.1772,W,1,10,1.9,16,M,,M,,*63
06/20/2015	04:00:03.584	$GPGGA,040004,2504.9212,N,07953.1790,W,1,9,1.8,16,M,,M,,*5B
06/20/2015	04:00:04.562	$GPGGA,040005,2504.9204,N,07953.1806,W,1,9,1.8,16,M,,M,,*5D
06/20/2015	04:00:05.562	$GPGGA,040006,2504.9195,N,07953.1822,W,1,10,1.8,16,M,,M,,*6B
06/20/2015	04:00:06.552	$GPGGA,040007,2504.9187,N,07953.1839,W,1,10,1.8,16,M,,M,,*63
06/20/2015	04:00:07.572	$GPGGA,040008,2504.9179,N,07953.1857,W,1,10,1.8,16,M,,M,,*65
06/20/2015	04:00:08.543	$GPGGA,040009,2504.9171,N,07953.1873,W,1,10,1.8,16,M,,M,,*6A
06/20/2015	04:00:09.573	$GPGGA,040010,2504.9162,N,07953.1889,W,1,10,1.8,16,M,,M,,*65
06/20/2015	04:00:10.543	$GPGGA,040011,2504.9154,N,07953.1905,W,1,10,1.8,16,M,,M,,*64
06/20/2015	04:00:11.563	$GPGGA,040012,2504.9146,N,07953.1922,W,1,10,1.8,16,M,,M,,*61
06/20/2015	04:00:12.533	$GPGGA,040013,2504.9136,N,07953.1940,W,1,10,1.8,16,M,,M,,*63
06/20/2015	04:00:13.543	$GPGGA,040014,2504.9128,N,07953.1956,W,1,10,2.0,16,M,,M,,*67
06/20/2015	04:00:14.543	$GPGGA,040015,2504.9119,N,07953.1973,W,1,10,2.0,16,M,,M,,*63
06/20/2015	04:00:15.533	$GPGGA,040016,2504.9110,N,07953.1988,W,1,9,1.8,16,M,,M,,*5E
06/20/2015	04:00:16.532	$GPGGA,040017,2504.9102,N,07953.2005,W,1,9,1.8,16,M,,M,,*53
06/20/2015	04:00:17.532	$GPGGA,040018,2504.9095,N,07953.2021,W,1,10,2.0,15,M,,M,,*65
06/20/2015	04:00:18.522	$GPGGA,040019,2504.9085,N,07953.2038,W,1,10,1.8,15,M,,M,,*66
06/20/2015	04:00:19.572	$GPGGA,040020,2504.9077,N,07953.2053,W,1,10,1.8,15,M,,M,,*6C
06/20/2015	04:00:20.522	$GPGGA,040021,2504.9068,N,07953.2070,W,1,10,1.8,15,M,,M,,*62
06/20/2015	04:00:21.522	$GPGGA,040022,2504.9060,N,07953.2086,W,1,10,1.8,15,M,,M,,*60
06/20/2015	04:00:22.512	$GPGGA,040023,2504.9052,N,07953.2103,W,1,10,1.8,15,M,,M,,*6C
06/20/2015	04:00:23.532	$GPGGA,040024,2504.9043,N,07953.2120,W,1,10,1.8,15,M,,M,,*6A
06/20/2015	04:00:24.622	$GPGGA,040025,2504.9035,N,07953.2136,W,1,10,1.8,15,M,,M,,*6D
06/20/2015	04:00:25.532	$GPGGA,040026,2504.9026,N,07953.2153,W,1,10,1.8,15,M,,M,,*6F
06/20/2015	04:00:26.543	$GPGGA,040027,2504.9017,N,07953.2169,W,1,10,1.8,15,M,,M,,*65
06/20/2015	04:00:27.613	$GPGGA,040028,2504.9008,N,07953.2186,W,1,10,1.8,15,M,,M,,*65
06/20/2015	04:00:28.533	$GPGGA,040029,2504.9001,N,07953.2202,W,1,10,1.8,15,M,,M,,*62
06/20/2015	04:00:29.613	$GPGGA,040030,2504.8991,N,07953.2219,W,1,10,1.8,15,M,,M,,*61
06/20/2015	04:00:30.513	$GPGGA,040031,2504.8983,N,07953.2236,W,1,10,1.8,15,M,,M,,*6E
06/20/2015	04:00:31.603	$GPGGA,040032,2504.8973,N,07953.2251,W,1,10,1.8,15,M,,M,,*63
06/20/2015	04:00:32.513	$GPGGA,040033,2504.8965,N,07953.2269,W,1,10,1.9,15,M,,M,,*6F
06/20/2015	04:00:33.602	$GPGGA,040034,2504.8956,N,07953.2284,W,1,9,1.8,15,M,,M,,*52
06/20/2015	04:00:34.532	$GPGGA,040035,2504.8945,N,07953.2301,W,1,9,1.8,15,M,,M,,*5D
06/20/2015	04:00:35.599	$GPGGA,040036,2504.8936,N,07953.2319,W,1,10,1.8,15,M,,M,,*6B
06/20/2015	04:00:36.502	$GPGGA,040037,2504.8929,N,07953.2335,W,1,10,1.8,15,M,,M,,*6A
06/20/2015	04:00:37.602	$GPGGA,040038,2504.8918,N,07953.2352,W,1,10,1.8,15,M,,M,,*66
06/20/2015	04:00:38.497	$GPGGA,040039,2504.8911,N,07953.2368,W,1,10,1.8,15,M,,M,,*67
06/20/2015	04:00:39.612	$GPGGA,040040,2504.8904,N,07953.2386,W,1,10,1.8,15,M,,M,,*6D
06/20/2015	04:00:40.586	$GPGGA,040041,2504.8894,N,07953.2403,W,1,10,1.8,14,M,,M,,*6F
06/20/2015	04:00:41.572	$GPGGA,040042,2504.8885,N,07953.2420,W,1,10,1.9,14,M,,M,,*6C
06/20/2015	04:00:42.572	$GPGGA,040043,2504.8879,N,07953.2436,W,1,10,1.9,14,M,,M,,*69
06/20/2015	04:00:43.573	$GPGGA,040044,2504.8872,N,07953.2453,W,1,9,1.9,14,M,,M,,*5E
06/20/2015	04:00:44.563	$GPGGA,040045,2504.8864,N,07953.2471,W,1,9,1.9,14,M,,M,,*58
06/20/2015	04:00:45.573	$GPGGA,040046,2504.8857,N,07953.2487,W,1,9,1.9,14,M,,M,,*52
06/20/2015	04:00:46.553	$GPGGA,040047,2504.8849,N,07953.2505,W,1,9,1.8,14,M,,M,,*56
06/20/2015	04:00:47.603	$GPGGA,040048,2504.8842,N,07953.2522,W,1,10,1.8,14,M,,M,,*6F
06/20/2015	04:00:48.553	$GPGGA,040049,2504.8833,N,07953.2540,W,1,10,1.8,14,M,,M,,*6C
06/20/2015	04:00:49.573	$GPGGA,040050,2504.8824,N,07953.2556,W,1,10,1.8,14,M,,M,,*65
06/20/2015	04:00:50.553	$GPGGA,040051,2504.8815,N,07953.2572,W,1,10,1.8,14,M,,M,,*60
06/20/2015	04:00:51.590	$GPGGA,040052,2504.8807,N,07953.2590,W,1,9,1.8,14,M,,M,,*54
06/20/2015	04:00:52.542	$GPGGA,040053,2504.8799,N,07953.2606,W,1,9,1.8,14,M,,M,,*51
06/20/2015	04:00:53.562	$GPGGA,040054,2504.8789,N,07953.2621,W,1,9,1.9,14,M,,M,,*53
06/20/2015	04:00:54.542	$GPGGA,040055,2504.8779,N,07953.2637,W,1,9,1.9,14,M,,M,,*5A
06/20/2015	04:00:55.572	$GPGGA,040056,2504.8771,N,07953.2653,W,1,10,1.8,14,M,,M,,*6A
06/20/2015	04:00:56.542	$GPGGA,040057,2504.8763,N,07953.2668,W,1,10,1.9,14,M,,M,,*61
06/20/2015	04:00:57.552	$GPGGA,040058,2504.8753,N,07953.2684,W,1,9,1.9,14,M,,M,,*57
06/20/2015	04:00:58.542	$GPGGA,040059,2504.8745,N,07953.2700,W,1,9,1.9,14,M,,M,,*5C
06/20/2015	04:00:59.572	$GPGGA,040100,2504.8736,N,07953.2717,W,1,9,1.9,14,M,,M,,*53
06/20/2015	04:01:00.532	$GPGGA,040101,2504.8730,N,07953.2733,W,1,9,1.8,15,M,,M,,*52
06/20/2015	04:01:01.563	$GPGGA,040102,2504.8721,N,07953.2749,W,1,9,2.0,15,M,,M,,*57
06/20/2015	04:01:02.523	$GPGGA,040103,2504.8712,N,07953.2764,W,1,9,1.8,15,M,,M,,*52
06/20/2015	04:01:03.553	$GPGGA,040104,2504.8701,N,07953.2780,W,1,9,1.9,15,M,,M,,*5C
06/20/2015	04:01:04.523	$GPGGA,040105,2504.8692,N,07953.2797,W,1,9,1.9,15,M,,M,,*50
06/20/2015	04:01:05.553	$GPGGA,040106,2504.8684,N,07953.2814,W,1,10,1.8,15,M,,M,,*69
06/20/2015	04:01:06.533	$GPGGA,040107,2504.8676,N,07953.2829,W,1,10,1.8,15,M,,M,,*6B
06/20/2015	04:01:07.533	$GPGGA,040108,2504.8669,N,07953.2845,W,1,9,1.8,15,M,,M,,*58
06/20/2015	04:01:08.512	$GPGGA,040109,2504.8660,N,07953.2862,W,1,9,1.8,15,M,,M,,*55
06/20/2015	04:01:09.542	$GPGGA,040110,2504.8652,N,07953.2879,W,1,10,1.8,15,M,,M,,*6E
06/20/2015	04:01:10.512	$GPGGA,040111,2504.8643,N,07953.2895,W,1,10,1.8,15,M,,M,,*6D
06/20/2015	04:01:11.632	$GPGGA,040112,2504.8634,N,07953.2912,W,1,9,1.8,15,M,,M,,*58
06/20/2015	04:01:12.622	$GPGGA,040113,2504.8626,N,07953.2927,W,1,9,1.8,15,M,,M,,*5C
06/20/2015	04:01:13.612	$GPGGA,040114,2504.8617,N,07953.2944,W,1,10,1.8,15,M,,M,,*64
06/20/2015	04:01:14.512	$GPGGA,040115,2504.8609,N,07953.2960,W,1,10,1.8,15,M,,M,,*6C
06/20/2015	04:01:15.522	$GPGGA,040116,2504.8601,N,07953.2977,W,1,9,1.8,14,M,,M,,*58
06/20/2015	04:01:16.585	$GPGGA,040117,2504.8593,N,07953.2993,W,1,9,1.8,14,M,,M,,*5B
06/20/2015	04:01:17.622	$GPGGA,040118,2504.8583,N,07953.3009,W,1,9,1.8,14,M,,M,,*5E
06/20/2015	04:01:18.513	$GPGGA,040119,2504.8575,N,07953.3027,W,1,9,1.8,14,M,,M,,*5A
06/20/2015	04:01:19.633	$GPGGA,040120,2504.8568,N,07953.3043,W,1,9,1.8,14,M,,M,,*5E
06/20/2015	04:01:20.493	$GPGGA,040121,2504.8557,N,07953.3058,W,1,9,1.8,14,M,,M,,*59
06/20/2015	04:01:21.492	$GPGGA,040122,2504.8549,N,07953.3074,W,1,10,1.8,14,M,,M,,*63
06/20/2015	04:01:22.493	$GPGGA,040123,2504.8541,N,07953.3092,W,1,10,1.8,14,M,,M,,*62
06/20/2015	04:01:23.613	$GPGGA,040124,2504.8532,N,07953.3108,W,1,10,1.8,14,M,,M,,*63
06/20/2015	04:01:24.586	$GPGGA,040125,2504.8523,N,07953.3125,W,1,10,1.8,14,M,,M,,*6D
06/20/2015	04:01:25.573	$GPGGA,040126,2504.8515,N,07953.3140,W,1,10,1.8,14,M,,M,,*68
06/20/2015	04:01:26.572	$GPGGA,040127,2504.8507,N,07953.3158,W,1,10,1.8,14,M,,M,,*63
06/20/2015	04:01:27.612	$GPGGA,040128,2504.8499,N,07953.3175,W,1,9,1.8,14,M,,M,,*5D
06/20/2015	04:01:28.562	$GPGGA,040129,2504.8489,N,07953.3191,W,1,9,1.8,14,M,,M,,*57
06/20/2015	04:01:29.597	$GPGGA,040130,2504.8482,N,07953.3209,W,1,9,1.8,14,M,,M,,*56
06/20/2015	04:01:30.572	$GPGGA,040131,2504.8475,N,07953.3226,W,1,9,1.8,14,M,,M,,*52
06/20/2015	04:01:31.572	$GPGGA,040132,2504.8466,N,07953.3244,W,1,10,1.8,14,M,,M,,*6F
06/20/2015	04:01:32.563	$GPGGA,040133,2504.8457,N,07953.3260,W,1,10,1.8,14,M,,M,,*6A
06/20/2015	04:01:33.562	$GPGGA,040134,2504.8450,N,07953.3278,W,1,9,1.8,14,M,,M,,*5B
06/20/2015	04:01:34.562	$GPGGA,040135,2504.8442,N,07953.3295,W,1,9,1.8,13,M,,M,,*5D
06/20/2015	04:01:35.582	$GPGGA,040136,2504.8434,N,07953.3311,W,1,10,1.8,13,M,,M,,*6A
06/20/2015	04:01:36.563	$GPGGA,040137,2504.8425,N,07953.3328,W,1,10,1.9,13,M,,M,,*60
06/20/2015	04:01:37.563	$GPGGA,040138,2504.8419,N,07953.3346,W,1,9,1.8,13,M,,M,,*51
06/20/2015	04:01:38.553	$GPGGA,040139,2504.8411,N,07953.3363,W,1,9,1.8,13,M,,M,,*5F
06/20/2015	04:01:39.573	$GPGGA,040140,2504.8403,N,07953.3379,W,1,9,1.8,13,M,,M,,*59
06/20/2015	04:01:40.553	$GPGGA,040141,2504.8395,N,07953.3396,W,1,9,1.8,13,M,,M,,*51
06/20/2015	04:01:41.533	$GPGGA,040142,2504.8388,N,07953.3414,W,1,10,1.8,13,M,,M,,*6B
06/20/2015	04:01:42.553	$GPGGA,040143,2504.8380,N,07953.3430,W,1,10,1.8,13,M,,M,,*64
06/20/2015	04:01:43.572	$GPGGA,040144,2504.8372,N,07953.3447,W,1,10,1.8,13,M,,M,,*6E
06/20/2015	04:01:44.542	$GPGGA,040145,2504.8363,N,07953.3464,W,1,10,1.8,13,M,,M,,*6E
06/20/2015	04:01:45.563	$GPGGA,040146,2504.8355,N,07953.3479,W,1,10,1.8,13,M,,M,,*64
06/20/2015	04:01:46.542	$GPGGA,040147,2504.8347,N,07953.3495,W,1,10,1.8,13,M,,M,,*64
06/20/2015	04:01:47.542	$GPGGA,040148,2504.8338,N,07953.3512,W,1,10,1.8,13,M,,M,,*6D
06/20/2015	04:01:48.533	$GPGGA,040149,2504.8331,N,07953.3530,W,1,10,1.8,13,M,,M,,*65
06/20/2015	04:01:49.552	$GPGGA,040150,2504.8322,N,07953.3545,W,1,10,1.8,13,M,,M,,*6D
06/20/2015	04:01:50.522	$GPGGA,040151,2504.8316,N,07953.3562,W,1,10,1.9,13,M,,M,,*6F
06/20/2015	04:01:51.562	$GPGGA,040152,2504.8308,N,07953.3578,W,1,10,1.8,13,M,,M,,*69
06/20/2015	04:01:52.522	$GPGGA,040153,2504.8300,N,07953.3595,W,1,10,1.8,14,M,,M,,*64
06/20/2015	04:01:53.543	$GPGGA,040154,2504.8293,N,07953.3611,W,1,10,1.8,14,M,,M,,*67
06/20/2015	04:01:54.513	$GPGGA,040155,2504.8283,N,07953.3627,W,1,10,1.8,14,M,,M,,*62
06/20/2015	04:01:55.523	$GPGGA,040156,2504.8275,N,07953.3643,W,1,10,1.8,14,M,,M,,*6A
06/20/2015	04:01:56.633	$GPGGA,040157,2504.8265,N,07953.3660,W,1,10,1.8,14,M,,M,,*6B
06/20/2015	04:01:57.503	$GPGGA,040158,2504.8257,N,07953.3678,W,1,10,1.8,14,M,,M,,*6C
06/20/2015	04:01:58.623	$GPGGA,040159,2504.8247,N,07953.3693,W,1,10,1.8,14,M,,M,,*69
06/20/2015	04:01:59.653	$GPGGA,040200,2504.8239,N,07953.3710,W,1,10,1.8,14,M,,M,,*65
06/20/2015	04:02:00.502	$GPGGA,040201,2504.8230,N,07953.3728,W,1,10,1.8,14,M,,M,,*66
06/20/2015	04:02:01.497	$GPGGA,040202,2504.8221,N,07953.3743,W,1,9,2.0,14,M,,M,,*5B
06/20/2015	04:02:02.612	$GPGGA,040203,2504.8214,N,07953.3757,W,1,9,1.8,14,M,,M,,*52
06/20/2015	04:02:03.542	$GPGGA,040204,2504.8204,N,07953.3775,W,1,10,1.8,14,M,,M,,*6C
06/20/2015	04:02:04.522	$GPGGA,040205,2504.8196,N,07953.3790,W,1,10,1.8,14,M,,M,,*6E
06/20/2015	04:02:05.622	$GPGGA,040206,2504.8189,N,07953.3806,W,1,10,1.8,14,M,,M,,*63
06/20/2015	04:02:06.612	$GPGGA,040207,2504.8178,N,07953.3822,W,1,10,2.0,14,M,,M,,*61
06/20/2015	04:02:07.603	$GPGGA,040208,2504.8170,N,07953.3837,W,1,10,1.8,14,M,,M,,*69
06/20/2015	04:02:08.498	$GPGGA,040209,2504.8159,N,07953.3853,W,1,10,1.8,14,M,,M,,*61
06/20/2015	04:02:09.572	$GPGGA,040210,2504.8150,N,07953.3870,W,1,9,1.9,14,M,,M,,*58
06/20/2015	04:02:10.572	$GPGGA,040211,2504.8141,N,07953.3887,W,1,9,1.8,14,M,,M,,*50
06/20/2015	04:02:11.613	$GPGGA,040212,2504.8134,N,07953.3902,W,1,10,1.8,14,M,,M,,*65
06/20/2015	04:02:12.503	$GPGGA,040213,2504.8123,N,07953.3920,W,1,10,1.8,14,M,,M,,*62
06/20/2015	04:02:13.583	$GPGGA,040214,2504.8114,N,07953.3935,W,1,10,1.8,14,M,,M,,*65
06/20/2015	04:02:14.573	$GPGGA,040215,2504.8105,N,07953.3952,W,1,10,1.8,15,M,,M,,*64
06/20/2015	04:02:15.613	$GPGGA,040216,2504.8096,N,07953.3968,W,1,10,1.8,15,M,,M,,*65
06/20/2015	04:02:16.563	$GPGGA,040217,2504.8087,N,07953.3985,W,1,10,1.9,15,M,,M,,*66
06/20/2015	04:02:17.573	$GPGGA,040218,2504.8078,N,07953.4000,W,1,9,1.9,15,M,,M,,*52
06/20/2015	04:02:18.572	$GPGGA,040219,2504.8071,N,07953.4017,W,1,9,1.9,15,M,,M,,*5C
06/20/2015	04:02:19.584	$GPGGA,040220,2504.8064,N,07953.4035,W,1,10,1.8,15,M,,M,,*6B
06/20/2015	04:02:20.572	$GPGGA,040221,2504.8055,N,07953.4051,W,1,10,1.8,15,M,,M,,*6A
06/20/2015	04:02:21.562	$GPGGA,040222,2504.8046,N,07953.4068,W,1,10,1.8,15,M,,M,,*61
06/20/2015	04:02:22.552	$GPGGA,040223,2504.8037,N,07953.4086,W,1,10,1.8,15,M,,M,,*66
06/20/2015	04:02:23.572	$GPGGA,040224,2504.8029,N,07953.4101,W,1,10,1.8,15,M,,M,,*60
06/20/2015	04:02:24.562	$GPGGA,040225,2504.8020,N,07953.4118,W,1,10,1.8,15,M,,M,,*60
06/20/2015	04:02:25.563	$GPGGA,040226,2504.8012,N,07953.4134,W,1,10,1.8,15,M,,M,,*6C
06/20/2015	04:02:26.552	$GPGGA,040227,2504.8004,N,07953.4151,W,1,10,1.8,15,M,,M,,*69
06/20/2015	04:02:27.583	$GPGGA,040228,2504.7997,N,07953.4167,W,1,10,1.8,15,M,,M,,*6F
06/20/2015	04:02:28.553	$GPGGA,040229,2504.7990,N,07953.4184,W,1,10,1.8,15,M,,M,,*64
06/20/2015	04:02:29.543	$GPGGA,040230,2504.7982,N,07953.4202,W,1,10,1.8,15,M,,M,,*62
06/20/2015	04:02:30.553	$GPGGA,040231,2504.7975,N,07953.4217,W,1,10,1.8,15,M,,M,,*6F
06/20/2015	04:02:31.573	$GPGGA,040232,2504.7968,N,07953.4235,W,1,10,1.8,15,M,,M,,*60
06/20/2015	04:02:32.533	$GPGGA,040233,2504.7958,N,07953.4252,W,1,10,1.8,15,M,,M,,*63
06/20/2015	04:02:33.563	$GPGGA,040234,2504.7948,N,07953.4268,W,1,9,1.9,15,M,,M,,*55
06/20/2015	04:02:34.533	$GPGGA,040235,2504.7940,N,07953.4285,W,1,9,1.9,15,M,,M,,*5F
06/20/2015	04:02:35.543	$GPGGA,040236,2504.7932,N,07953.4303,W,1,10,1.8,15,M,,M,,*6F
06/20/2015	04:02:36.522	$GPGGA,040237,2504.7924,N,07953.4318,W,1,10,1.8,15,M,,M,,*63
06/20/2015	04:02:37.542	$GPGGA,040238,2504.7915,N,07953.4335,W,1,10,1.8,15,M,,M,,*61
06/20/2015	04:02:39.602	$GPGGA,040240,2504.7898,N,07953.4368,W,1,10,1.8,15,M,,M,,*62
06/20/2015	04:02:40.532	$GPGGA,040241,2504.7890,N,07953.4386,W,1,10,1.8,15,M,,M,,*6B
06/20/2015	04:02:41.522	$GPGGA,040242,2504.7882,N,07953.4402,W,1,10,1.8,15,M,,M,,*60
06/20/2015	04:02:42.522	$GPGGA,040243,2504.7874,N,07953.4419,W,1,10,1.8,15,M,,M,,*62
06/20/2015	04:02:43.562	$GPGGA,040244,2504.7867,N,07953.4436,W,1,10,1.8,15,M,,M,,*6A
06/20/2015	04:02:45.943	$GPGGA,040245,2504.7858,N,07953.4452,W,1,10,1.8,15,M,,M,,*65
06/20/2015	04:02:45.973	$GPGGA,040246,2504.7850,N,07953.4469,W,1,10,1.8,15,M,,M,,*66
06/20/2015	04:02:46.503	$GPGGA,040247,2504.7841,N,07953.4484,W,1,10,1.8,15,M,,M,,*64
06/20/2015	04:02:47.523	$GPGGA,040248,2504.7833,N,07953.4501,W,1,10,1.8,15,M,,M,,*62
06/20/2015	04:02:48.643	$GPGGA,040249,2504.7825,N,07953.4519,W,1,10,1.8,15,M,,M,,*6D
06/20/2015	04:02:49.594	$GPGGA,040250,2504.7816,N,07953.4534,W,1,10,1.8,15,M,,M,,*6A
06/20/2015	04:02:50.493	$GPGGA,040251,2504.7809,N,07953.4549,W,1,10,1.8,15,M,,M,,*6F
06/20/2015	04:02:51.553	$GPGGA,040252,2504.7802,N,07953.4566,W,1,10,1.8,15,M,,M,,*6A
06/20/2015	04:02:52.633	$GPGGA,040253,2504.7793,N,07953.4582,W,1,10,1.8,15,M,,M,,*66
06/20/2015	04:02:53.687	$GPGGA,040254,2504.7784,N,07953.4597,W,1,10,1.8,15,M,,M,,*63
06/20/2015	04:02:54.512	$GPGGA,040255,2504.7776,N,07953.4614,W,1,10,1.8,15,M,,M,,*67
06/20/2015	04:02:55.695	$GPGGA,040256,2504.7768,N,07953.4632,W,1,9,1.8,15,M,,M,,*57
06/20/2015	04:02:56.502	$GPGGA,040257,2504.7759,N,07953.4646,W,1,9,1.8,15,M,,M,,*57
06/20/2015	04:02:57.493	$GPGGA,040258,2504.7751,N,07953.4664,W,1,10,1.8,15,M,,M,,*68
06/20/2015	04:02:58.572	$GPGGA,040259,2504.7742,N,07953.4679,W,1,10,1.8,15,M,,M,,*67
06/20/2015	04:02:59.702	$GPGGA,040300,2504.7733,N,07953.4696,W,1,10,1.8,15,M,,M,,*6D
06/20/2015	04:03:00.599	$GPGGA,040301,2504.7726,N,07953.4712,W,1,10,1.8,15,M,,M,,*65
06/20/2015	04:03:01.672	$GPGGA,040302,2504.7716,N,07953.4729,W,1,10,1.8,15,M,,M,,*6D
06/20/2015	04:03:02.602	$GPGGA,040303,2504.7708,N,07953.4745,W,1,10,1.8,15,M,,M,,*69
06/20/2015	04:03:03.693	$GPGGA,040304,2504.7698,N,07953.4762,W,1,10,1.8,15,M,,M,,*63
06/20/2015	04:03:04.613	$GPGGA,040305,2504.7690,N,07953.4779,W,1,10,1.8,15,M,,M,,*60
06/20/2015	04:03:05.573	$GPGGA,040306,2504.7681,N,07953.4794,W,1,10,1.8,15,M,,M,,*60
06/20/2015	04:03:06.593	$GPGGA,040307,2504.7672,N,07953.4812,W,1,10,1.8,15,M,,M,,*6C
06/20/2015	04:03:07.673	$GPGGA,040308,2504.7663,N,07953.4827,W,1,10,1.8,15,M,,M,,*65
06/20/2015	04:03:08.603	$GPGGA,040309,2504.7654,N,07953.4845,W,1,10,1.8,15,M,,M,,*64
06/20/2015	04:03:09.553	$GPGGA,040310,2504.7645,N,07953.4860,W,1,10,1.8,15,M,,M,,*6B
06/20/2015	04:03:10.586	$GPGGA,040311,2504.7637,N,07953.4878,W,1,10,1.8,15,M,,M,,*66
06/20/2015	04:03:11.683	$GPGGA,040312,2504.7628,N,07953.4895,W,1,10,1.8,15,M,,M,,*68
06/20/2015	04:03:12.552	$GPGGA,040313,2504.7618,N,07953.4911,W,1,10,1.9,15,M,,M,,*66
06/20/2015	04:03:13.662	$GPGGA,040314,2504.7611,N,07953.4928,W,1,10,1.8,15,M,,M,,*63
06/20/2015	04:03:14.552	$GPGGA,040315,2504.7603,N,07953.4946,W,1,10,1.8,15,M,,M,,*69
06/20/2015	04:03:15.662	$GPGGA,040316,2504.7596,N,07953.4964,W,1,10,1.8,15,M,,M,,*65
06/20/2015	04:03:16.572	$GPGGA,040317,2504.7589,N,07953.4979,W,1,10,1.8,15,M,,M,,*66
06/20/2015	04:03:17.612	$GPGGA,040318,2504.7580,N,07953.4996,W,1,10,1.8,15,M,,M,,*61
06/20/2015	04:03:18.572	$GPGGA,040319,2504.7574,N,07953.5012,W,1,10,1.8,15,M,,M,,*6F
06/20/2015	04:03:19.653	$GPGGA,040320,2504.7565,N,07953.5029,W,1,10,1.8,15,M,,M,,*6D
06/20/2015	04:03:20.562	$GPGGA,040321,2504.7558,N,07953.5045,W,1,10,1.8,15,M,,M,,*68
06/20/2015	04:03:21.533	$GPGGA,040322,2504.7551,N,07953.5062,W,1,10,1.8,15,M,,M,,*67
06/20/2015	04:03:22.563	$GPGGA,040323,2504.7543,N,07953.5079,W,1,10,1.8,15,M,,M,,*6F
06/20/2015	04:03:23.533	$GPGGA,040324,2504.7536,N,07953.5095,W,1,9,1.8,15,M,,M,,*50
06/20/2015	04:03:24.573	$GPGGA,040325,2504.7531,N,07953.5112,W,1,9,1.8,15,M,,M,,*58
06/20/2015	04:03:25.633	$GPGGA,040326,2504.7522,N,07953.5130,W,1,10,1.8,15,M,,M,,*61
06/20/2015	04:03:26.573	$GPGGA,040327,2504.7514,N,07953.5145,W,1,10,1.8,16,M,,M,,*64
06/20/2015	04:03:27.543	$GPGGA,040328,2504.7507,N,07953.5163,W,1,10,1.8,16,M,,M,,*6D
06/20/2015	04:03:28.552	$GPGGA,040329,2504.7499,N,07953.5181,W,1,10,1.8,16,M,,M,,*66
06/20/2015	04:03:29.622	$GPGGA,040330,2504.7491,N,07953.5196,W,1,9,1.9,16,M,,M,,*59
06/20/2015	04:03:30.542	$GPGGA,040331,2504.7480,N,07953.5211,W,1,9,1.8,16,M,,M,,*55
06/20/2015	04:03:31.592	$GPGGA,040332,2504.7471,N,07953.5228,W,1,10,1.8,16,M,,M,,*6A
06/20/2015	04:03:32.512	$GPGGA,040333,2504.7466,N,07953.5246,W,1,10,1.8,16,M,,M,,*65
06/20/2015	04:03:33.632	$GPGGA,040334,2504.7456,N,07953.5261,W,1,10,1.8,16,M,,M,,*64
06/20/2015	04:03:34.542	$GPGGA,040335,2504.7446,N,07953.5278,W,1,10,1.8,16,M,,M,,*6C
06/20/2015	04:03:35.602	$GPGGA,040336,2504.7438,N,07953.5294,W,1,10,1.8,16,M,,M,,*64
06/20/2015	04:03:36.512	$GPGGA,040337,2504.7430,N,07953.5311,W,1,10,1.8,16,M,,M,,*61
06/20/2015	04:03:37.572	$GPGGA,040338,2504.7420,N,07953.5326,W,1,10,1.9,16,M,,M,,*6A
06/20/2015	04:03:38.496	$GPGGA,040339,2504.7412,N,07953.5344,W,1,10,1.9,16,M,,M,,*6E
06/20/2015	04:03:39.633	$GPGGA,040340,2504.7403,N,07953.5361,W,1,8,1.9,16,M,,M,,*5E
06/20/2015	04:03:40.533	$GPGGA,040341,2504.7392,N,07953.5377,W,1,8,1.9,16,M,,M,,*57
06/20/2015	04:03:41.653	$GPGGA,040342,2504.7384,N,07953.5394,W,1,9,1.8,16,M,,M,,*5E
06/20/2015	04:03:42.593	$GPGGA,040343,2504.7377,N,07953.5412,W,1,9,1.8,16,M,,M,,*5A
06/20/2015	04:03:43.633	$GPGGA,040344,2504.7368,N,07953.5427,W,1,10,1.8,16,M,,M,,*6D
06/20/2015	04:03:44.598	$GPGGA,040345,2504.7358,N,07953.5444,W,1,10,1.9,16,M,,M,,*6B
06/20/2015	04:03:45.573	$GPGGA,040346,2504.7350,N,07953.5460,W,1,9,1.9,16,M,,M,,*5E
06/20/2015	04:03:46.572	$GPGGA,040347,2504.7340,N,07953.5477,W,1,9,1.9,16,M,,M,,*58
06/20/2015	04:03:47.589	$GPGGA,040348,2504.7330,N,07953.5491,W,1,9,1.9,15,M,,M,,*5B
06/20/2015	04:03:48.522	$GPGGA,040349,2504.7321,N,07953.5507,W,1,9,1.9,15,M,,M,,*54
06/20/2015	04:03:49.632	$GPGGA,040350,2504.7314,N,07953.5524,W,1,9,1.8,15,M,,M,,*5A
06/20/2015	04:03:50.572	$GPGGA,040351,2504.7303,N,07953.5539,W,1,9,1.8,15,M,,M,,*51
06/20/2015	04:03:51.602	$GPGGA,040352,2504.7294,N,07953.5556,W,1,10,1.8,15,M,,M,,*6C
06/20/2015	04:03:52.562	$GPGGA,040353,2504.7285,N,07953.5571,W,1,10,1.9,15,M,,M,,*69
06/20/2015	04:03:53.602	$GPGGA,040354,2504.7276,N,07953.5587,W,1,9,1.8,15,M,,M,,*52
06/20/2015	04:03:54.572	$GPGGA,040355,2504.7276,N,07953.5587,W,1,9,1.8,15,M,,M,,*53
06/20/2015	04:03:55.642	$GPGGA,040356,2504.7260,N,07953.5621,W,1,10,1.8,15,M,,M,,*60
06/20/2015	04:03:56.563	$GPGGA,040357,2504.7253,N,07953.5636,W,1,10,1.8,15,M,,M,,*67
06/20/2015	04:03:57.573	$GPGGA,040358,2504.7244,N,07953.5651,W,1,10,1.8,15,M,,M,,*6F
06/20/2015	04:03:58.563	$GPGGA,040359,2504.7235,N,07953.5668,W,1,10,1.8,15,M,,M,,*62
06/20/2015	04:03:59.663	$GPGGA,040400,2504.7226,N,07953.5684,W,1,10,1.8,15,M,,M,,*69
06/20/2015	04:04:00.553	$GPGGA,040401,2504.7218,N,07953.5701,W,1,10,2.0,15,M,,M,,*62
06/20/2015	04:04:01.586	$GPGGA,040402,2504.7207,N,07953.5716,W,1,9,1.9,15,M,,M,,*5B
06/20/2015	04:04:02.543	$GPGGA,040403,2504.7199,N,07953.5733,W,1,9,1.9,15,M,,M,,*59
06/20/2015	04:04:03.602	$GPGGA,040404,2504.7189,N,07953.5749,W,1,10,1.8,15,M,,M,,*6B
06/20/2015	04:04:04.552	$GPGGA,040405,2504.7179,N,07953.5766,W,1,10,1.8,15,M,,M,,*68
06/20/2015	04:04:05.574	$GPGGA,040406,2504.7179,N,07953.5766,W,1,10,1.8,15,M,,M,,*6B
06/20/2015	04:04:06.542	$GPGGA,040407,2504.7163,N,07953.5798,W,1,10,1.9,15,M,,M,,*61
06/20/2015	04:04:07.612	$GPGGA,040408,2504.7156,N,07953.5814,W,1,9,1.8,15,M,,M,,*5A
06/20/2015	04:04:08.532	$GPGGA,040409,2504.7148,N,07953.5831,W,1,9,1.8,16,M,,M,,*50
06/20/2015	04:04:09.542	$GPGGA,040410,2504.7148,N,07953.5831,W,1,9,1.8,16,M,,M,,*58
06/20/2015	04:04:10.522	$GPGGA,040411,2504.7141,N,07953.5849,W,1,9,1.8,16,M,,M,,*5F
06/20/2015	04:04:11.576	$GPGGA,040412,2504.7124,N,07953.5881,W,1,9,1.8,16,M,,M,,*5B
06/20/2015	04:04:12.523	$GPGGA,040413,2504.7116,N,07953.5897,W,1,9,1.8,16,M,,M,,*5C
06/20/2015	04:04:13.574	$GPGGA,040414,2504.7108,N,07953.5914,W,1,9,1.8,16,M,,M,,*5E
06/20/2015	04:04:14.632	$GPGGA,040415,2504.7099,N,07953.5932,W,1,9,1.8,16,M,,M,,*52
06/20/2015	04:04:15.578	$GPGGA,040416,2504.7091,N,07953.5947,W,1,10,1.8,16,M,,M,,*63
06/20/2015	04:04:16.522	$GPGGA,040417,2504.7084,N,07953.5965,W,1,10,1.8,16,M,,M,,*66
06/20/2015	04:04:17.632	$GPGGA,040418,2504.7076,N,07953.5982,W,1,9,1.8,16,M,,M,,*55
06/20/2015	04:04:18.512	$GPGGA,040419,2504.7067,N,07953.5997,W,1,9,1.8,16,M,,M,,*50
06/20/2015	04:04:19.532	$GPGGA,040420,2504.7067,N,07953.5997,W,1,9,1.8,16,M,,M,,*5A
06/20/2015	04:04:20.542	$GPGGA,040421,2504.7051,N,07953.6033,W,1,9,1.8,16,M,,M,,*5A
06/20/2015	04:04:21.621	$GPGGA,040422,2504.7043,N,07953.6048,W,1,9,1.8,16,M,,M,,*56
06/20/2015	04:04:22.511	$GPGGA,040423,2504.7034,N,07953.6066,W,1,9,1.8,16,M,,M,,*5B
06/20/2015	04:04:23.622	$GPGGA,040424,2504.7027,N,07953.6081,W,1,9,1.8,17,M,,M,,*56
06/20/2015	04:04:24.502	$GPGGA,040425,2504.7018,N,07953.6098,W,1,9,1.8,17,M,,M,,*53
06/20/2015	04:04:25.502	$GPGGA,040426,2504.7018,N,07953.6098,W,1,9,1.9,17,M,,M,,*51
06/20/2015	04:04:26.492	$GPGGA,040427,2504.7001,N,07953.6131,W,1,9,1.9,17,M,,M,,*5A
06/20/2015	04:04:27.523	$GPGGA,040428,2504.6993,N,07953.6149,W,1,10,1.8,17,M,,M,,*60
06/20/2015	04:04:28.575	$GPGGA,040429,2504.6985,N,07953.6164,W,1,10,1.9,17,M,,M,,*68
06/20/2015	04:04:29.512	$GPGGA,040430,2504.6985,N,07953.6164,W,1,10,1.8,17,M,,M,,*61
06/20/2015	04:04:30.489	$GPGGA,040431,2504.6969,N,07953.6199,W,1,10,1.8,17,M,,M,,*60
06/20/2015	04:04:31.493	$GPGGA,040432,2504.6969,N,07953.6199,W,1,9,1.9,17,M,,M,,*5A
06/20/2015	04:04:32.487	$GPGGA,040433,2504.6950,N,07953.6232,W,1,9,2.0,17,M,,M,,*59
06/20/2015	04:04:33.602	$GPGGA,040434,2504.6942,N,07953.6247,W,1,10,1.8,17,M,,M,,*6C
06/20/2015	04:04:34.490	$GPGGA,040435,2504.6935,N,07953.6265,W,1,10,1.9,17,M,,M,,*6C
06/20/2015	04:04:35.612	$GPGGA,040436,2504.6927,N,07953.6283,W,1,10,1.8,18,M,,M,,*6A
06/20/2015	04:04:36.562	$GPGGA,040437,2504.6920,N,07953.6300,W,1,10,1.8,18,M,,M,,*66
06/20/2015	04:04:37.602	$GPGGA,040438,2504.6913,N,07953.6318,W,1,10,1.8,18,M,,M,,*60
06/20/2015	04:04:38.631	$GPGGA,040439,2504.6904,N,07953.6333,W,1,10,1.8,18,M,,M,,*6E
06/20/2015	04:04:39.592	$GPGGA,040440,2504.6895,N,07953.6348,W,1,9,1.9,18,M,,M,,*5C
06/20/2015	04:04:40.551	$GPGGA,040441,2504.6888,N,07953.6366,W,1,9,2.0,18,M,,M,,*57
06/20/2015	04:04:41.592	$GPGGA,040442,2504.6888,N,07953.6366,W,1,10,1.8,18,M,,M,,*67
06/20/2015	04:04:42.562	$GPGGA,040443,2504.6871,N,07953.6399,W,1,10,1.8,18,M,,M,,*60
06/20/2015	04:04:43.597	$GPGGA,040444,2504.6862,N,07953.6416,W,1,10,1.8,18,M,,M,,*65
06/20/2015	04:04:44.552	$GPGGA,040445,2504.6855,N,07953.6434,W,1,10,1.9,18,M,,M,,*61
06/20/2015	04:04:45.579	$GPGGA,040446,2504.6845,N,07953.6450,W,1,9,1.9,18,M,,M,,*59
06/20/2015	04:04:46.542	$GPGGA,040447,2504.6837,N,07953.6467,W,1,9,1.9,18,M,,M,,*59
06/20/2015	04:04:47.577	$GPGGA,040448,2504.6830,N,07953.6485,W,1,10,1.8,18,M,,M,,*64
06/20/2015	04:04:48.542	$GPGGA,040449,2504.6823,N,07953.6500,W,1,10,1.8,18,M,,M,,*6B
06/20/2015	04:04:49.562	$GPGGA,040450,2504.6815,N,07953.6517,W,1,10,1.8,18,M,,M,,*60
06/20/2015	04:04:50.542	$GPGGA,040451,2504.6806,N,07953.6535,W,1,10,1.8,19,M,,M,,*62
06/20/2015	04:04:51.576	$GPGGA,040452,2504.6797,N,07953.6550,W,1,9,1.9,19,M,,M,,*5C
06/20/2015	04:04:52.542	$GPGGA,040453,2504.6788,N,07953.6566,W,1,9,1.9,19,M,,M,,*56
06/20/2015	04:04:53.532	$GPGGA,040454,2504.6781,N,07953.6583,W,1,9,1.9,19,M,,M,,*53
06/20/2015	04:04:54.532	$GPGGA,040455,2504.6773,N,07953.6600,W,1,9,1.8,19,M,,M,,*56
06/20/2015	04:04:55.561	$GPGGA,040456,2504.6765,N,07953.6616,W,1,9,1.9,19,M,,M,,*54
06/20/2015	04:04:56.531	$GPGGA,040457,2504.6754,N,07953.6633,W,1,9,1.8,19,M,,M,,*51
06/20/2015	04:04:57.561	$GPGGA,040458,2504.6745,N,07953.6649,W,1,9,1.9,19,M,,M,,*52
06/20/2015	04:04:58.522	$GPGGA,040459,2504.6737,N,07953.6667,W,1,9,1.9,19,M,,M,,*5A
06/20/2015	04:04:59.574	$GPGGA,040500,2504.6727,N,07953.6683,W,1,9,1.9,19,M,,M,,*5C
06/20/2015	04:05:00.532	$GPGGA,040501,2504.6718,N,07953.6698,W,1,9,1.9,19,M,,M,,*5B
06/20/2015	04:05:01.552	$GPGGA,040502,2504.6711,N,07953.6716,W,1,9,1.9,19,M,,M,,*56
06/20/2015	04:05:02.522	$GPGGA,040503,2504.6702,N,07953.6731,W,1,9,1.9,19,M,,M,,*50
06/20/2015	04:05:03.522	$GPGGA,040504,2504.6694,N,07953.6746,W,1,9,1.9,19,M,,M,,*59
06/20/2015	04:05:04.522	$GPGGA,040505,2504.6685,N,07953.6763,W,1,9,1.9,18,M,,M,,*5E
06/20/2015	04:05:05.522	$GPGGA,040506,2504.6678,N,07953.6779,W,1,9,1.9,18,M,,M,,*54
06/20/2015	04:05:06.502	$GPGGA,040507,2504.6669,N,07953.6796,W,1,9,1.9,18,M,,M,,*54
06/20/2015	04:05:07.522	$GPGGA,040508,2504.6660,N,07953.6811,W,1,9,1.9,18,M,,M,,*52
06/20/2015	04:05:08.512	$GPGGA,040509,2504.6651,N,07953.6828,W,1,9,1.9,18,M,,M,,*5B
06/20/2015	04:05:09.522	$GPGGA,040510,2504.6642,N,07953.6844,W,1,9,1.9,18,M,,M,,*5B
06/20/2015	04:05:10.492	$GPGGA,040511,2504.6635,N,07953.6861,W,1,9,1.9,18,M,,M,,*5D
06/20/2015	04:05:11.542	$GPGGA,040512,2504.6628,N,07953.6876,W,1,10,1.8,18,M,,M,,*6D
06/20/2015	04:05:12.492	$GPGGA,040513,2504.6620,N,07953.6893,W,1,10,1.8,18,M,,M,,*6F
06/20/2015	04:05:13.501	$GPGGA,040514,2504.6613,N,07953.6908,W,1,10,1.8,18,M,,M,,*6B
06/20/2015	04:05:14.586	$GPGGA,040515,2504.6604,N,07953.6925,W,1,10,1.8,18,M,,M,,*63
06/20/2015	04:05:15.601	$GPGGA,040516,2504.6595,N,07953.6940,W,1,10,1.8,18,M,,M,,*68
06/20/2015	04:05:16.502	$GPGGA,040517,2504.6588,N,07953.6955,W,1,10,1.8,18,M,,M,,*61
06/20/2015	04:05:17.502	$GPGGA,040518,2504.6578,N,07953.6972,W,1,10,1.8,18,M,,M,,*64
06/20/2015	04:05:18.577	$GPGGA,040519,2504.6570,N,07953.6988,W,1,10,1.8,18,M,,M,,*68
06/20/2015	04:05:19.613	$GPGGA,040520,2504.6560,N,07953.7005,W,1,10,1.8,18,M,,M,,*6E
06/20/2015	04:05:20.602	$GPGGA,040521,2504.6552,N,07953.7020,W,1,10,1.8,18,M,,M,,*69
06/20/2015	04:05:21.582	$GPGGA,040522,2504.6542,N,07953.7037,W,1,10,1.8,18,M,,M,,*6D
06/20/2015	04:05:22.482	$GPGGA,040523,2504.6534,N,07953.7052,W,1,10,1.8,18,M,,M,,*6E
06/20/2015	04:05:23.602	$GPGGA,040524,2504.6526,N,07953.7068,W,1,10,1.8,18,M,,M,,*63
06/20/2015	04:05:24.576	$GPGGA,040525,2504.6516,N,07953.7085,W,1,10,1.8,18,M,,M,,*62
06/20/2015	04:05:25.572	$GPGGA,040526,2504.6507,N,07953.7100,W,1,9,1.9,18,M,,M,,*54
06/20/2015	04:05:26.575	$GPGGA,040527,2504.6499,N,07953.7117,W,1,9,1.9,18,M,,M,,*55
06/20/2015	04:05:27.584	$GPGGA,040528,2504.6491,N,07953.7132,W,1,9,1.9,18,M,,M,,*55
06/20/2015	04:05:28.562	$GPGGA,040529,2504.6483,N,07953.7149,W,1,9,1.9,18,M,,M,,*5B
06/20/2015	04:05:29.582	$GPGGA,040530,2504.6473,N,07953.7164,W,1,9,1.9,18,M,,M,,*53
06/20/2015	04:05:30.551	$GPGGA,040531,2504.6465,N,07953.7182,W,1,9,1.9,18,M,,M,,*5D
06/20/2015	04:05:31.581	$GPGGA,040532,2504.6458,N,07953.7198,W,1,9,1.9,18,M,,M,,*5B
06/20/2015	04:05:32.551	$GPGGA,040533,2504.6449,N,07953.7215,W,1,9,1.9,17,M,,M,,*53
06/20/2015	04:05:33.562	$GPGGA,040534,2504.6440,N,07953.7232,W,1,9,1.9,17,M,,M,,*58
06/20/2015	04:05:34.542	$GPGGA,040535,2504.6432,N,07953.7248,W,1,9,1.8,17,M,,M,,*50
06/20/2015	04:05:35.573	$GPGGA,040536,2504.6425,N,07953.7265,W,1,10,1.8,17,M,,M,,*62
06/20/2015	04:05:36.542	$GPGGA,040537,2504.6418,N,07953.7281,W,1,10,1.9,17,M,,M,,*66
06/20/2015	04:05:37.533	$GPGGA,040538,2504.6408,N,07953.7298,W,1,9,1.9,17,M,,M,,*58
06/20/2015	04:05:38.542	$GPGGA,040539,2504.6401,N,07953.7314,W,1,9,1.9,17,M,,M,,*55
06/20/2015	04:05:39.574	$GPGGA,040540,2504.6393,N,07953.7331,W,1,10,1.8,17,M,,M,,*69
06/20/2015	04:05:40.562	$GPGGA,040541,2504.6383,N,07953.7348,W,1,10,1.9,17,M,,M,,*66
06/20/2015	04:05:41.552	$GPGGA,040542,2504.6375,N,07953.7364,W,1,9,1.9,17,M,,M,,*5A
06/20/2015	04:05:42.533	$GPGGA,040543,2504.6367,N,07953.7381,W,1,9,1.9,17,M,,M,,*53
06/20/2015	04:05:43.562	$GPGGA,040544,2504.6358,N,07953.7397,W,1,9,1.9,17,M,,M,,*5F
06/20/2015	04:05:44.532	$GPGGA,040545,2504.6349,N,07953.7413,W,1,9,1.9,17,M,,M,,*55
06/20/2015	04:05:45.552	$GPGGA,040546,2504.6342,N,07953.7431,W,1,9,1.9,17,M,,M,,*5D
06/20/2015	04:05:46.532	$GPGGA,040547,2504.6335,N,07953.7446,W,1,9,1.8,16,M,,M,,*5C
06/20/2015	04:05:47.542	$GPGGA,040548,2504.6326,N,07953.7462,W,1,9,1.9,16,M,,M,,*56
06/20/2015	04:05:48.522	$GPGGA,040549,2504.6317,N,07953.7479,W,1,9,1.9,16,M,,M,,*5F
06/20/2015	04:05:49.531	$GPGGA,040550,2504.6310,N,07953.7496,W,1,10,1.8,16,M,,M,,*68
06/20/2015	04:05:50.521	$GPGGA,040551,2504.6303,N,07953.7514,W,1,10,1.8,16,M,,M,,*60
06/20/2015	04:05:51.562	$GPGGA,040552,2504.6295,N,07953.7532,W,1,10,1.8,16,M,,M,,*69
06/20/2015	04:05:52.512	$GPGGA,040553,2504.6288,N,07953.7548,W,1,10,1.7,16,M,,M,,*66
06/20/2015	04:05:53.512	$GPGGA,040554,2504.6279,N,07953.7565,W,1,9,1.9,16,M,,M,,*56
06/20/2015	04:05:54.502	$GPGGA,040555,2504.6272,N,07953.7581,W,1,9,1.9,16,M,,M,,*56
06/20/2015	04:05:55.532	$GPGGA,040556,2504.6264,N,07953.7598,W,1,10,1.7,16,M,,M,,*6C
06/20/2015	04:05:56.494	$GPGGA,040557,2504.6256,N,07953.7613,W,1,10,1.7,16,M,,M,,*6C
06/20/2015	04:05:57.512	$GPGGA,040558,2504.6250,N,07953.7630,W,1,9,1.9,16,M,,M,,*52
06/20/2015	04:05:58.502	$GPGGA,040559,2504.6241,N,07953.7645,W,1,9,1.7,16,M,,M,,*5F
06/20/2015	04:05:59.622	$GPGGA,040600,2504.6232,N,07953.7663,W,1,9,1.9,16,M,,M,,*5E
06/20/2015	04:06:00.502	$GPGGA,040601,2504.6223,N,07953.7678,W,1,9,1.9,16,M,,M,,*55
06/20/2015	04:06:01.492	$GPGGA,040602,2504.6213,N,07953.7695,W,1,9,1.9,16,M,,M,,*56
06/20/2015	04:06:02.852	$GPGGA,040603,2504.6205,N,07953.7711,W,1,9,1.9,16,M,,M,,*5D
06/20/2015	04:06:03.622	$GPGGA,040604,2504.6198,N,07953.7728,W,1,9,1.9,16,M,,M,,*57
06/20/2015	04:06:04.502	$GPGGA,040605,2504.6190,N,07953.7745,W,1,9,1.7,15,M,,M,,*58
06/20/2015	04:06:05.582	$GPGGA,040606,2504.6181,N,07953.7760,W,1,9,1.9,15,M,,M,,*52
06/20/2015	04:06:06.577	$GPGGA,040607,2504.6172,N,07953.7776,W,1,9,1.9,15,M,,M,,*58
06/20/2015	04:06:07.591	$GPGGA,040608,2504.6165,N,07953.7793,W,1,10,1.7,15,M,,M,,*6C
06/20/2015	04:06:08.483	$GPGGA,040609,2504.6158,N,07953.7809,W,1,10,1.7,15,M,,M,,*6F
06/20/2015	04:06:09.484	$GPGGA,040610,2504.6149,N,07953.7826,W,1,10,1.7,15,M,,M,,*6A
06/20/2015	04:06:10.579	$GPGGA,040611,2504.6141,N,07953.7843,W,1,10,1.7,15,M,,M,,*60
06/20/2015	04:06:11.602	$GPGGA,040612,2504.6133,N,07953.7861,W,1,10,1.7,15,M,,M,,*66
06/20/2015	04:06:12.562	$GPGGA,040613,2504.6126,N,07953.7879,W,1,10,1.7,15,M,,M,,*6A
06/20/2015	04:06:13.577	$GPGGA,040614,2504.6118,N,07953.7895,W,1,10,1.7,15,M,,M,,*62
06/20/2015	04:06:14.562	$GPGGA,040615,2504.6111,N,07953.7912,W,1,10,1.7,15,M,,M,,*64
06/20/2015	04:06:15.602	$GPGGA,040616,2504.6104,N,07953.7928,W,1,10,1.7,15,M,,M,,*6A
06/20/2015	04:06:16.562	$GPGGA,040617,2504.6095,N,07953.7945,W,1,10,1.9,15,M,,M,,*67
06/20/2015	04:06:17.572	$GPGGA,040618,2504.6091,N,07953.7963,W,1,9,1.9,15,M,,M,,*50
06/20/2015	04:06:18.552	$GPGGA,040619,2504.6086,N,07953.7980,W,1,9,1.7,15,M,,M,,*54
06/20/2015	04:06:19.576	$GPGGA,040620,2504.6077,N,07953.7999,W,1,10,1.7,15,M,,M,,*60
06/20/2015	04:06:20.562	$GPGGA,040621,2504.6070,N,07953.8016,W,1,10,1.7,15,M,,M,,*67
06/20/2015	04:06:21.562	$GPGGA,040622,2504.6061,N,07953.8032,W,1,10,1.7,15,M,,M,,*62
06/20/2015	04:06:22.552	$GPGGA,040623,2504.6051,N,07953.8049,W,1,10,1.7,15,M,,M,,*6C
06/20/2015	04:06:23.583	$GPGGA,040624,2504.6044,N,07953.8067,W,1,9,1.9,15,M,,M,,*55
06/20/2015	04:06:24.551	$GPGGA,040625,2504.6035,N,07953.8082,W,1,9,1.7,15,M,,M,,*57
06/20/2015	04:06:25.551	$GPGGA,040626,2504.6024,N,07953.8098,W,1,9,1.9,15,M,,M,,*51
06/20/2015	04:06:26.542	$GPGGA,040627,2504.6014,N,07953.8115,W,1,9,1.9,15,M,,M,,*57
06/20/2015	04:06:27.542	$GPGGA,040628,2504.6006,N,07953.8132,W,1,8,2.0,15,M,,M,,*55
06/20/2015	04:06:28.522	$GPGGA,040629,2504.5996,N,07953.8147,W,1,8,1.9,15,M,,M,,*5F
06/20/2015	04:06:29.552	$GPGGA,040630,2504.5986,N,07953.8163,W,1,9,1.9,15,M,,M,,*51
06/20/2015	04:06:30.532	$GPGGA,040631,2504.5978,N,07953.8179,W,1,9,1.9,15,M,,M,,*5A
06/20/2015	04:06:31.576	$GPGGA,040632,2504.5970,N,07953.8197,W,1,9,1.9,15,M,,M,,*51
06/20/2015	04:06:32.522	$GPGGA,040633,2504.5961,N,07953.8212,W,1,9,1.9,15,M,,M,,*5E
06/20/2015	04:06:33.512	$GPGGA,040634,2504.5952,N,07953.8227,W,1,9,1.9,15,M,,M,,*5F
06/20/2015	04:06:34.522	$GPGGA,040635,2504.5943,N,07953.8244,W,1,9,2.0,15,M,,M,,*51
06/20/2015	04:06:35.522	$GPGGA,040636,2504.5935,N,07953.8260,W,1,9,1.9,15,M,,M,,*5F
06/20/2015	04:06:36.522	$GPGGA,040637,2504.5927,N,07953.8277,W,1,9,1.9,15,M,,M,,*5B
06/20/2015	04:06:37.542	$GPGGA,040638,2504.5916,N,07953.8291,W,1,9,1.9,15,M,,M,,*5E
06/20/2015	04:06:38.502	$GPGGA,040639,2504.5909,N,07953.8309,W,1,9,2.0,15,M,,M,,*5B
06/20/2015	04:06:39.522	$GPGGA,040640,2504.5901,N,07953.8327,W,1,10,1.7,15,M,,M,,*6D
06/20/2015	04:06:40.521	$GPGGA,040641,2504.5891,N,07953.8342,W,1,10,1.7,15,M,,M,,*67
06/20/2015	04:06:41.501	$GPGGA,040642,2504.5881,N,07953.8357,W,1,10,1.7,15,M,,M,,*61
06/20/2015	04:06:42.521	$GPGGA,040643,2504.5873,N,07953.8374,W,1,10,2.4,15,M,,M,,*6C
06/20/2015	04:06:43.532	$GPGGA,040644,2504.5864,N,07953.8390,W,1,10,1.7,15,M,,M,,*67
06/20/2015	04:06:44.592	$GPGGA,040645,2504.5855,N,07953.8405,W,1,10,1.7,15,M,,M,,*6F
06/20/2015	04:06:45.492	$GPGGA,040646,2504.5845,N,07953.8421,W,1,10,1.7,15,M,,M,,*6B
06/20/2015	04:06:46.512	$GPGGA,040647,2504.5835,N,07953.8436,W,1,10,1.9,15,M,,M,,*65
06/20/2015	04:06:47.602	$GPGGA,040648,2504.5826,N,07953.8452,W,1,9,1.9,15,M,,M,,*52
06/20/2015	04:06:48.512	$GPGGA,040649,2504.5817,N,07953.8468,W,1,9,1.7,15,M,,M,,*56
06/20/2015	04:06:49.592	$GPGGA,040650,2504.5807,N,07953.8483,W,1,10,1.7,15,M,,M,,*62
06/20/2015	04:06:50.502	$GPGGA,040651,2504.5797,N,07953.8498,W,1,10,1.7,15,M,,M,,*6F
06/20/2015	04:06:51.512	$GPGGA,040652,2504.5789,N,07953.8515,W,1,9,1.9,16,M,,M,,*52
06/20/2015	04:06:52.484	$GPGGA,040653,2504.5780,N,07953.8530,W,1,9,1.9,16,M,,M,,*5D
06/20/2015	04:06:53.482	$GPGGA,040654,2504.5772,N,07953.8548,W,1,9,1.8,16,M,,M,,*59
06/20/2015	04:06:54.576	$GPGGA,040655,2504.5764,N,07953.8563,W,1,9,1.7,16,M,,M,,*59
06/20/2015	04:06:55.492	$GPGGA,040656,2504.5755,N,07953.8580,W,1,10,1.7,16,M,,M,,*6D
06/20/2015	04:06:56.482	$GPGGA,040657,2504.5746,N,07953.8596,W,1,10,1.9,16,M,,M,,*67
06/20/2015	04:06:57.562	$GPGGA,040658,2504.5739,N,07953.8613,W,1,9,1.9,16,M,,M,,*56
06/20/2015	04:06:58.561	$GPGGA,040659,2504.5728,N,07953.8628,W,1,9,1.9,16,M,,M,,*5F
06/20/2015	04:06:59.631	$GPGGA,040700,2504.5721,N,07953.8645,W,1,10,1.7,16,M,,M,,*66
06/20/2015	04:07:00.561	$GPGGA,040701,2504.5712,N,07953.8661,W,1,10,1.9,16,M,,M,,*6F
06/20/2015	04:07:01.584	$GPGGA,040702,2504.5705,N,07953.8678,W,1,9,1.9,16,M,,M,,*5A
06/20/2015	04:07:02.562	$GPGGA,040703,2504.5697,N,07953.8696,W,1,9,1.7,16,M,,M,,*5F
06/20/2015	04:07:03.578	$GPGGA,040704,2504.5689,N,07953.8712,W,1,10,1.7,16,M,,M,,*62
06/20/2015	04:07:04.552	$GPGGA,040705,2504.5681,N,07953.8729,W,1,10,1.9,16,M,,M,,*6D
06/20/2015	04:07:05.552	$GPGGA,040706,2504.5672,N,07953.8746,W,1,8,2.0,16,M,,M,,*58
06/20/2015	04:07:06.562	$GPGGA,040707,2504.5663,N,07953.8764,W,1,8,1.7,16,M,,M,,*5D
06/20/2015	04:07:07.562	$GPGGA,040708,2504.5656,N,07953.8780,W,1,9,1.9,16,M,,M,,*51
06/20/2015	04:07:08.552	$GPGGA,040709,2504.5646,N,07953.8797,W,1,9,1.9,16,M,,M,,*57
06/20/2015	04:07:09.562	$GPGGA,040710,2504.5638,N,07953.8813,W,1,9,1.9,16,M,,M,,*55
06/20/2015	04:07:10.542	$GPGGA,040711,2504.5629,N,07953.8830,W,1,9,1.8,16,M,,M,,*54
06/20/2015	04:07:11.577	$GPGGA,040712,2504.5622,N,07953.8848,W,1,8,2.0,16,M,,M,,*59
06/20/2015	04:07:12.542	$GPGGA,040713,2504.5613,N,07953.8863,W,1,8,1.9,16,M,,M,,*59
06/20/2015	04:07:13.532	$GPGGA,040714,2504.5605,N,07953.8880,W,1,9,1.9,16,M,,M,,*55
06/20/2015	04:07:14.542	$GPGGA,040715,2504.5598,N,07953.8898,W,1,9,1.7,16,M,,M,,*54
06/20/2015	04:07:15.579	$GPGGA,040716,2504.5591,N,07953.8914,W,1,8,2.0,16,M,,M,,*5E
06/20/2015	04:07:16.531	$GPGGA,040717,2504.5582,N,07953.8931,W,1,8,1.8,16,M,,M,,*51
06/20/2015	04:07:17.561	$GPGGA,040718,2504.5574,N,07953.8949,W,1,10,1.7,16,M,,M,,*6E
06/20/2015	04:07:18.522	$GPGGA,040719,2504.5566,N,07953.8965,W,1,10,1.7,16,M,,M,,*62
06/20/2015	04:07:19.552	$GPGGA,040720,2504.5558,N,07953.8982,W,1,9,1.9,16,M,,M,,*5A
06/20/2015	04:07:20.532	$GPGGA,040721,2504.5548,N,07953.8999,W,1,9,1.9,16,M,,M,,*50
06/20/2015	04:07:21.562	$GPGGA,040722,2504.5540,N,07953.9014,W,1,9,1.9,16,M,,M,,*56
06/20/2015	04:07:22.522	$GPGGA,040723,2504.5531,N,07953.9032,W,1,9,1.9,16,M,,M,,*55
06/20/2015	04:07:23.562	$GPGGA,040724,2504.5523,N,07953.9048,W,1,9,1.9,16,M,,M,,*5C
06/20/2015	04:07:24.532	$GPGGA,040725,2504.5515,N,07953.9065,W,1,9,1.9,16,M,,M,,*57
06/20/2015	04:07:25.542	$GPGGA,040726,2504.5505,N,07953.9082,W,1,9,1.9,16,M,,M,,*5C
06/20/2015	04:07:26.502	$GPGGA,040727,2504.5497,N,07953.9098,W,1,9,1.9,16,M,,M,,*5C
06/20/2015	04:07:27.532	$GPGGA,040728,2504.5487,N,07953.9115,W,1,8,2.0,16,M,,M,,*5D
06/20/2015	04:07:28.512	$GPGGA,040729,2504.5479,N,07953.9133,W,1,8,1.9,16,M,,M,,*53
06/20/2015	04:07:29.532	$GPGGA,040730,2504.5469,N,07953.9149,W,1,8,2.0,15,M,,M,,*5E
06/20/2015	04:07:30.512	$GPGGA,040731,2504.5461,N,07953.9166,W,1,8,2.0,15,M,,M,,*5A
06/20/2015	04:07:31.562	$GPGGA,040732,2504.5451,N,07953.9183,W,1,8,2.0,15,M,,M,,*51
06/20/2015	04:07:32.512	$GPGGA,040733,2504.5443,N,07953.9198,W,1,8,2.0,15,M,,M,,*59
06/20/2015	04:07:33.491	$GPGGA,040734,2504.5434,N,07953.9216,W,1,8,2.0,15,M,,M,,*5B
06/20/2015	04:07:34.501	$GPGGA,040735,2504.5426,N,07953.9231,W,1,8,2.0,15,M,,M,,*5C
06/20/2015	04:07:35.542	$GPGGA,040736,2504.5416,N,07953.9248,W,1,8,2.0,15,M,,M,,*52
06/20/2015	04:07:36.590	$GPGGA,040737,2504.5407,N,07953.9263,W,1,8,2.0,15,M,,M,,*5A
06/20/2015	04:07:37.622	$GPGGA,040738,2504.5399,N,07953.9281,W,1,8,2.0,14,M,,M,,*58
06/20/2015	04:07:38.592	$GPGGA,040739,2504.5390,N,07953.9296,W,1,8,2.0,14,M,,M,,*56
06/20/2015	04:07:39.622	$GPGGA,040740,2504.5381,N,07953.9313,W,1,8,2.0,14,M,,M,,*54
06/20/2015	04:07:40.602	$GPGGA,040741,2504.5372,N,07953.9329,W,1,8,2.0,14,M,,M,,*50
06/20/2015	04:07:41.612	$GPGGA,040742,2504.5364,N,07953.9346,W,1,8,2.0,14,M,,M,,*5D
06/20/2015	04:07:42.492	$GPGGA,040743,2504.5356,N,07953.9361,W,1,8,2.0,14,M,,M,,*58
06/20/2015	04:07:43.492	$GPGGA,040744,2504.5347,N,07953.9378,W,1,9,1.9,14,M,,M,,*5C
06/20/2015	04:07:44.572	$GPGGA,040745,2504.5341,N,07953.9394,W,1,9,1.7,14,M,,M,,*57
06/20/2015	04:07:45.602	$GPGGA,040746,2504.5334,N,07953.9409,W,1,10,1.7,14,M,,M,,*6D
06/20/2015	04:07:46.573	$GPGGA,040747,2504.5327,N,07953.9425,W,1,10,1.7,14,M,,M,,*60
06/20/2015	04:07:47.612	$GPGGA,040748,2504.5317,N,07953.9440,W,1,10,2.0,14,M,,M,,*6B
06/20/2015	04:07:48.575	$GPGGA,040749,2504.5310,N,07953.9456,W,1,10,1.7,14,M,,M,,*6E
06/20/2015	04:07:49.582	$GPGGA,040750,2504.5300,N,07953.9472,W,1,10,1.9,14,M,,M,,*6F
06/20/2015	04:07:50.571	$GPGGA,040751,2504.5291,N,07953.9487,W,1,10,1.9,14,M,,M,,*6D
06/20/2015	04:07:51.611	$GPGGA,040752,2504.5282,N,07953.9503,W,1,9,2.0,14,M,,M,,*53
06/20/2015	04:07:52.561	$GPGGA,040753,2504.5274,N,07953.9520,W,1,9,2.0,14,M,,M,,*5A
06/20/2015	04:07:53.582	$GPGGA,040754,2504.5264,N,07953.9535,W,1,8,1.9,14,M,,M,,*53
06/20/2015	04:07:54.552	$GPGGA,040755,2504.5256,N,07953.9552,W,1,8,1.9,14,M,,M,,*52
06/20/2015	04:07:55.612	$GPGGA,040756,2504.5248,N,07953.9567,W,1,9,2.0,14,M,,M,,*53
06/20/2015	04:07:56.562	$GPGGA,040757,2504.5239,N,07953.9585,W,1,9,1.9,14,M,,M,,*52
06/20/2015	04:07:57.562	$GPGGA,040758,2504.5229,N,07953.9600,W,1,9,1.9,14,M,,M,,*52
06/20/2015	04:07:58.542	$GPGGA,040759,2504.5221,N,07953.9617,W,1,9,1.7,14,M,,M,,*53
06/20/2015	04:07:59.632	$GPGGA,040800,2504.5216,N,07953.9635,W,1,10,1.7,14,M,,M,,*6C
06/20/2015	04:08:00.543	$GPGGA,040801,2504.5208,N,07953.9653,W,1,10,1.9,14,M,,M,,*6C
06/20/2015	04:08:02.572	$GPGGA,040803,2504.5190,N,07953.9684,W,1,9,1.8,14,M,,M,,*5F
06/20/2015	04:08:03.562	$GPGGA,040804,2504.5183,N,07953.9701,W,1,9,1.9,14,M,,M,,*57
06/20/2015	04:08:04.542	$GPGGA,040805,2504.5175,N,07953.9718,W,1,9,2.0,14,M,,M,,*5D
06/20/2015	04:08:05.552	$GPGGA,040806,2504.5165,N,07953.9734,W,1,8,1.9,14,M,,M,,*5A
06/20/2015	04:08:06.542	$GPGGA,040807,2504.5158,N,07953.9749,W,1,8,1.7,14,M,,M,,*51
06/20/2015	04:08:07.562	$GPGGA,040808,2504.5152,N,07953.9766,W,1,10,1.9,14,M,,M,,*6E
06/20/2015	04:08:08.541	$GPGGA,040809,2504.5144,N,07953.9781,W,1,10,1.9,14,M,,M,,*61
06/20/2015	04:08:09.531	$GPGGA,040810,2504.5135,N,07953.9798,W,1,9,1.9,14,M,,M,,*5F
06/20/2015	04:08:10.521	$GPGGA,040811,2504.5128,N,07953.9814,W,1,9,1.7,14,M,,M,,*57
06/20/2015	04:08:11.602	$GPGGA,040812,2504.5121,N,07953.9831,W,1,10,1.9,14,M,,M,,*6C
06/20/2015	04:08:12.552	$GPGGA,040813,2504.5111,N,07953.9848,W,1,10,1.9,14,M,,M,,*60
06/20/2015	04:08:13.502	$GPGGA,040814,2504.5103,N,07953.9864,W,1,9,1.9,14,M,,M,,*52
06/20/2015	04:08:14.522	$GPGGA,040815,2504.5094,N,07953.9881,W,1,9,1.9,14,M,,M,,*57
06/20/2015	04:08:15.562	$GPGGA,040816,2504.5085,N,07953.9899,W,1,9,1.9,14,M,,M,,*5D
06/20/2015	04:08:16.522	$GPGGA,040817,2504.5076,N,07953.9914,W,1,9,2.0,14,M,,M,,*5E
06/20/2015	04:08:17.612	$GPGGA,040818,2504.5067,N,07953.9931,W,1,8,2.6,14,M,,M,,*51
06/20/2015	04:08:18.532	$GPGGA,040819,2504.5060,N,07953.9949,W,1,8,1.9,14,M,,M,,*54
06/20/2015	04:08:19.512	$GPGGA,040820,2504.5051,N,07953.9964,W,1,9,1.9,14,M,,M,,*52
06/20/2015	04:08:20.512	$GPGGA,040821,2504.5045,N,07953.9979,W,1,9,1.8,14,M,,M,,*5B
06/20/2015	04:08:21.522	$GPGGA,040822,2504.5038,N,07953.9996,W,1,9,1.8,15,M,,M,,*52
06/20/2015	04:08:22.492	$GPGGA,040823,2504.5033,N,07954.0012,W,1,9,1.9,15,M,,M,,*52
06/20/2015	04:08:23.602	$GPGGA,040824,2504.5024,N,07954.0029,W,1,9,1.9,15,M,,M,,*5B
06/20/2015	04:08:24.512	$GPGGA,040825,2504.5013,N,07954.0043,W,1,9,1.7,15,M,,M,,*5C
06/20/2015	04:08:25.521	$GPGGA,040826,2504.5005,N,07954.0061,W,1,10,2.0,15,M,,M,,*64
06/20/2015	04:08:26.511	$GPGGA,040827,2504.4997,N,07954.0077,W,1,10,1.9,15,M,,M,,*6B
06/20/2015	04:08:27.582	$GPGGA,040828,2504.4988,N,07954.0092,W,1,9,1.9,15,M,,M,,*59
06/20/2015	04:08:28.492	$GPGGA,040829,2504.4980,N,07954.0108,W,1,9,1.9,15,M,,M,,*52
06/20/2015	04:08:29.492	$GPGGA,040830,2504.4973,N,07954.0126,W,1,9,1.9,15,M,,M,,*5A
06/20/2015	04:08:30.574	$GPGGA,040831,2504.4966,N,07954.0141,W,1,9,1.9,15,M,,M,,*5E
06/20/2015	04:08:31.622	$GPGGA,040832,2504.4956,N,07954.0157,W,1,9,1.9,15,M,,M,,*59
06/20/2015	04:08:32.583	$GPGGA,040833,2504.4948,N,07954.0174,W,1,9,1.9,15,M,,M,,*56
06/20/2015	04:08:33.579	$GPGGA,040834,2504.4940,N,07954.0191,W,1,9,1.9,16,M,,M,,*51
06/20/2015	04:08:34.577	$GPGGA,040835,2504.4931,N,07954.0207,W,1,9,1.9,16,M,,M,,*5A
06/20/2015	04:08:35.588	$GPGGA,040836,2504.4923,N,07954.0224,W,1,9,1.7,16,M,,M,,*55
06/20/2015	04:08:36.577	$GPGGA,040837,2504.4915,N,07954.0239,W,1,9,1.7,16,M,,M,,*5D
06/20/2015	04:08:37.552	$GPGGA,040838,2504.4908,N,07954.0256,W,1,10,1.7,16,M,,M,,*6F
06/20/2015	04:08:38.580	$GPGGA,040839,2504.4898,N,07954.0271,W,1,10,1.7,16,M,,M,,*63
06/20/2015	04:08:39.589	$GPGGA,040840,2504.4890,N,07954.0287,W,1,9,1.9,16,M,,M,,*5A
06/20/2015	04:08:40.552	$GPGGA,040841,2504.4880,N,07954.0303,W,1,9,1.9,16,M,,M,,*57
06/20/2015	04:08:41.589	$GPGGA,040842,2504.4872,N,07954.0318,W,1,9,1.9,16,M,,M,,*53
06/20/2015	04:08:42.552	$GPGGA,040843,2504.4863,N,07954.0334,W,1,9,1.9,16,M,,M,,*5C
06/20/2015	04:08:43.584	$GPGGA,040844,2504.4854,N,07954.0350,W,1,10,1.7,16,M,,M,,*6B
06/20/2015	04:08:44.551	$GPGGA,040845,2504.4844,N,07954.0366,W,1,10,1.9,17,M,,M,,*61
06/20/2015	04:08:45.575	$GPGGA,040846,2504.4836,N,07954.0383,W,1,9,1.9,17,M,,M,,*54
06/20/2015	04:08:46.542	$GPGGA,040847,2504.4825,N,07954.0398,W,1,9,1.9,17,M,,M,,*5D
06/20/2015	04:08:47.585	$GPGGA,040848,2504.4818,N,07954.0415,W,1,10,1.7,17,M,,M,,*68
06/20/2015	04:08:48.542	$GPGGA,040849,2504.4811,N,07954.0433,W,1,10,1.7,17,M,,M,,*64
06/20/2015	04:08:49.552	$GPGGA,040850,2504.4803,N,07954.0448,W,1,9,1.9,17,M,,M,,*55
06/20/2015	04:08:50.532	$GPGGA,040851,2504.4793,N,07954.0463,W,1,9,1.9,17,M,,M,,*5B
06/20/2015	04:08:51.542	$GPGGA,040852,2504.4785,N,07954.0480,W,1,9,1.9,17,M,,M,,*52
06/20/2015	04:08:52.532	$GPGGA,040853,2504.4778,N,07954.0498,W,1,9,1.9,17,M,,M,,*58
06/20/2015	04:08:53.552	$GPGGA,040854,2504.4768,N,07954.0513,W,1,9,1.9,17,M,,M,,*5C
06/20/2015	04:08:54.532	$GPGGA,040855,2504.4760,N,07954.0531,W,1,9,2.0,17,M,,M,,*5F
06/20/2015	04:08:55.532	$GPGGA,040856,2504.4751,N,07954.0549,W,1,10,1.7,17,M,,M,,*6D
06/20/2015	04:08:57.312	$GPGGA,040857,2504.4744,N,07954.0565,W,1,10,1.9,17,M,,M,,*68
06/20/2015	04:08:57.512	$GPGGA,040858,2504.4734,N,07954.0583,W,1,9,1.8,17,M,,M,,*51
06/20/2015	04:08:59.542	$GPGGA,040859,2504.4726,N,07954.0600,W,1,9,1.7,17,M,,M,,*54
06/20/2015	04:08:59.575	$GPGGA,040900,2504.4720,N,07954.0616,W,1,10,1.7,17,M,,M,,*60
06/20/2015	04:09:00.531	$GPGGA,040901,2504.4713,N,07954.0633,W,1,10,1.7,17,M,,M,,*66
06/20/2015	04:09:01.541	$GPGGA,040902,2504.4706,N,07954.0650,W,1,9,1.8,17,M,,M,,*53
06/20/2015	04:09:02.511	$GPGGA,040903,2504.4697,N,07954.0666,W,1,9,1.8,17,M,,M,,*5E
06/20/2015	04:09:03.532	$GPGGA,040904,2504.4691,N,07954.0683,W,1,10,1.7,17,M,,M,,*63
06/20/2015	04:09:04.512	$GPGGA,040905,2504.4684,N,07954.0701,W,1,10,1.7,17,M,,M,,*6D
06/20/2015	04:09:05.502	$GPGGA,040906,2504.4674,N,07954.0719,W,1,10,1.7,17,M,,M,,*68
06/20/2015	04:09:06.512	$GPGGA,040907,2504.4666,N,07954.0735,W,1,10,1.7,17,M,,M,,*64
06/20/2015	04:09:07.612	$GPGGA,040908,2504.4659,N,07954.0752,W,1,10,1.7,17,M,,M,,*66
06/20/2015	04:09:08.492	$GPGGA,040909,2504.4648,N,07954.0770,W,1,10,1.9,17,M,,M,,*69
06/20/2015	04:09:09.512	$GPGGA,040910,2504.4639,N,07954.0785,W,1,9,1.9,17,M,,M,,*55
06/20/2015	04:09:10.482	$GPGGA,040911,2504.4631,N,07954.0802,W,1,9,1.9,17,M,,M,,*5C
06/20/2015	04:09:11.522	$GPGGA,040912,2504.4623,N,07954.0818,W,1,8,2.0,17,M,,M,,*5C
06/20/2015	04:09:12.492	$GPGGA,040913,2504.4613,N,07954.0834,W,1,8,1.9,17,M,,M,,*5A
06/20/2015	04:09:13.962	$GPGGA,040914,2504.4605,N,07954.0850,W,1,9,1.9,17,M,,M,,*59
06/20/2015	04:09:14.482	$GPGGA,040915,2504.4597,N,07954.0867,W,1,9,1.9,17,M,,M,,*54
06/20/2015	04:09:15.502	$GPGGA,040916,2504.4587,N,07954.0882,W,1,9,1.9,17,M,,M,,*5D
06/20/2015	04:09:16.592	$GPGGA,040917,2504.4579,N,07954.0899,W,1,9,1.9,17,M,,M,,*57
06/20/2015	04:09:18.041	$GPGGA,040918,2504.4572,N,07954.0915,W,1,9,1.9,17,M,,M,,*56
06/20/2015	04:09:18.482	$GPGGA,040919,2504.4562,N,07954.0930,W,1,9,1.9,17,M,,M,,*51
06/20/2015	04:09:19.491	$GPGGA,040920,2504.4552,N,07954.0947,W,1,9,1.9,17,M,,M,,*58
06/20/2015	04:09:20.576	$GPGGA,040921,2504.4543,N,07954.0965,W,1,9,2.0,17,M,,M,,*53
06/20/2015	04:09:21.586	$GPGGA,040922,2504.4536,N,07954.0982,W,1,8,2.0,17,M,,M,,*5A
06/20/2015	04:09:22.562	$GPGGA,040923,2504.4526,N,07954.0997,W,1,8,2.0,17,M,,M,,*5E
06/20/2015	04:09:23.577	$GPGGA,040924,2504.4518,N,07954.1013,W,1,9,1.9,17,M,,M,,*5B
06/20/2015	04:09:24.562	$GPGGA,040925,2504.4508,N,07954.1030,W,1,9,1.9,17,M,,M,,*5A
06/20/2015	04:09:25.562	$GPGGA,040926,2504.4500,N,07954.1046,W,1,9,1.9,17,M,,M,,*50
06/20/2015	04:09:26.552	$GPGGA,040927,2504.4490,N,07954.1063,W,1,9,1.9,17,M,,M,,*5E
06/20/2015	04:09:27.602	$GPGGA,040928,2504.4482,N,07954.1080,W,1,9,1.9,17,M,,M,,*5F
06/20/2015	04:09:28.562	$GPGGA,040929,2504.4473,N,07954.1095,W,1,9,1.9,17,M,,M,,*54
06/20/2015	04:09:29.562	$GPGGA,040930,2504.4465,N,07954.1111,W,1,9,1.9,17,M,,M,,*56
06/20/2015	04:09:30.575	$GPGGA,040931,2504.4456,N,07954.1127,W,1,9,1.9,17,M,,M,,*52
06/20/2015	04:09:31.592	$GPGGA,040932,2504.4449,N,07954.1143,W,1,9,1.9,17,M,,M,,*5D
06/20/2015	04:09:32.542	$GPGGA,040933,2504.4442,N,07954.1160,W,1,9,1.7,17,M,,M,,*58
06/20/2015	04:09:33.542	$GPGGA,040934,2504.4432,N,07954.1175,W,1,9,1.9,17,M,,M,,*52
06/20/2015	04:09:34.552	$GPGGA,040935,2504.4422,N,07954.1192,W,1,9,1.9,17,M,,M,,*5B
06/20/2015	04:09:35.575	$GPGGA,040936,2504.4414,N,07954.1207,W,1,8,2.0,17,M,,M,,*59
06/20/2015	04:09:36.551	$GPGGA,040937,2504.4406,N,07954.1225,W,1,8,1.9,17,M,,M,,*51
06/20/2015	04:09:37.541	$GPGGA,040938,2504.4398,N,07954.1240,W,1,8,2.0,17,M,,M,,*57
06/20/2015	04:09:38.542	$GPGGA,040939,2504.4389,N,07954.1257,W,1,8,2.0,17,M,,M,,*50
06/20/2015	04:09:39.542	$GPGGA,040940,2504.4381,N,07954.1272,W,1,9,1.9,17,M,,M,,*5A
06/20/2015	04:09:40.542	$GPGGA,040941,2504.4374,N,07954.1288,W,1,9,1.9,17,M,,M,,*54
06/20/2015	04:09:41.552	$GPGGA,040942,2504.4366,N,07954.1304,W,1,9,1.9,17,M,,M,,*51
06/20/2015	04:09:42.552	$GPGGA,040943,2504.4356,N,07954.1320,W,1,9,2.0,17,M,,M,,*5F
06/20/2015	04:09:43.552	$GPGGA,040944,2504.4348,N,07954.1337,W,1,8,2.0,17,M,,M,,*50
06/20/2015	04:09:44.512	$GPGGA,040945,2504.4341,N,07954.1353,W,1,8,2.0,17,M,,M,,*5A
06/20/2015	04:09:45.542	$GPGGA,040946,2504.4333,N,07954.1369,W,1,9,1.9,17,M,,M,,*5E
06/20/2015	04:09:46.522	$GPGGA,040947,2504.4324,N,07954.1385,W,1,9,1.9,17,M,,M,,*5B
06/20/2015	04:09:47.542	$GPGGA,040948,2504.4316,N,07954.1402,W,1,9,1.9,17,M,,M,,*5D
06/20/2015	04:09:48.532	$GPGGA,040949,2504.4308,N,07954.1420,W,1,9,1.9,17,M,,M,,*53
06/20/2015	04:09:49.632	$GPGGA,040950,2504.4301,N,07954.1438,W,1,9,1.9,17,M,,M,,*5B
06/20/2015	04:09:50.512	$GPGGA,040951,2504.4290,N,07954.1453,W,1,9,1.9,17,M,,M,,*5E
06/20/2015	04:09:51.562	$GPGGA,040952,2504.4281,N,07954.1470,W,1,9,1.9,17,M,,M,,*5C
06/20/2015	04:09:52.502	$GPGGA,040953,2504.4273,N,07954.1488,W,1,9,1.9,17,M,,M,,*57
06/20/2015	04:09:53.501	$GPGGA,040954,2504.4265,N,07954.1504,W,1,9,1.9,17,M,,M,,*52
06/20/2015	04:09:54.621	$GPGGA,040955,2504.4255,N,07954.1519,W,1,9,1.9,17,M,,M,,*5C
06/20/2015	04:09:55.621	$GPGGA,040956,2504.4247,N,07954.1536,W,1,9,1.9,17,M,,M,,*51
06/20/2015	04:09:56.502	$GPGGA,040957,2504.4240,N,07954.1553,W,1,9,1.9,17,M,,M,,*54
06/20/2015	04:09:57.502	$GPGGA,040958,2504.4230,N,07954.1568,W,1,9,1.9,17,M,,M,,*54
06/20/2015	04:09:58.482	$GPGGA,040959,2504.4222,N,07954.1583,W,1,9,1.9,17,M,,M,,*53
06/20/2015	04:09:59.502	$GPGGA,041000,2504.4214,N,07954.1600,W,1,9,1.9,17,M,,M,,*5A
06/20/2015	04:10:00.588	$GPGGA,041001,2504.4207,N,07954.1618,W,1,9,1.9,17,M,,M,,*50
06/20/2015	04:10:01.486	$GPGGA,041002,2504.4200,N,07954.1633,W,1,10,1.7,17,M,,M,,*6B
06/20/2015	04:10:02.607	$GPGGA,041003,2504.4193,N,07954.1651,W,1,10,1.8,17,M,,M,,*68
06/20/2015	04:10:03.589	$GPGGA,041004,2504.4184,N,07954.1669,W,1,9,1.8,17,M,,M,,*5A
06/20/2015	04:10:04.488	$GPGGA,041005,2504.4176,N,07954.1687,W,1,9,1.8,17,M,,M,,*56
06/20/2015	04:10:05.612	$GPGGA,041006,2504.4167,N,07954.1703,W,1,9,1.8,16,M,,M,,*59
06/20/2015	04:10:06.583	$GPGGA,041007,2504.4160,N,07954.1720,W,1,9,1.8,16,M,,M,,*5E
06/20/2015	04:10:07.574	$GPGGA,041008,2504.4153,N,07954.1738,W,1,9,1.8,16,M,,M,,*58
06/20/2015	04:10:08.568	$GPGGA,041009,2504.4144,N,07954.1754,W,1,9,1.8,16,M,,M,,*55
06/20/2015	04:10:09.578	$GPGGA,041010,2504.4136,N,07954.1771,W,1,9,1.8,16,M,,M,,*5F
06/20/2015	04:10:10.568	$GPGGA,041011,2504.4129,N,07954.1788,W,1,9,2.0,16,M,,M,,*5D
06/20/2015	04:10:11.621	$GPGGA,041012,2504.4122,N,07954.1806,W,1,9,1.8,16,M,,M,,*57
06/20/2015	04:10:12.574	$GPGGA,041013,2504.4115,N,07954.1824,W,1,9,1.7,16,M,,M,,*5D
06/20/2015	04:10:13.551	$GPGGA,041014,2504.4107,N,07954.1840,W,1,10,1.7,16,M,,M,,*63
06/20/2015	04:10:14.541	$GPGGA,041015,2504.4099,N,07954.1857,W,1,10,1.7,16,M,,M,,*62
06/20/2015	04:10:15.581	$GPGGA,041016,2504.4092,N,07954.1875,W,1,10,1.7,16,M,,M,,*6A
06/20/2015	04:10:16.561	$GPGGA,041017,2504.4085,N,07954.1891,W,1,10,1.7,16,M,,M,,*67
06/20/2015	04:10:17.561	$GPGGA,041018,2504.4078,N,07954.1908,W,1,10,1.7,16,M,,M,,*6B
06/20/2015	04:10:18.563	$GPGGA,041019,2504.4071,N,07954.1926,W,1,10,1.7,16,M,,M,,*6F
06/20/2015	04:10:19.551	$GPGGA,041020,2504.4064,N,07954.1943,W,1,10,1.7,16,M,,M,,*62
06/20/2015	04:10:20.541	$GPGGA,041021,2504.4059,N,07954.1959,W,1,10,1.7,16,M,,M,,*66
06/20/2015	04:10:21.561	$GPGGA,041022,2504.4050,N,07954.1976,W,1,10,1.7,16,M,,M,,*61
06/20/2015	04:10:22.531	$GPGGA,041023,2504.4042,N,07954.1994,W,1,10,1.7,16,M,,M,,*6F
06/20/2015	04:10:23.912	$GPGGA,041024,2504.4038,N,07954.2012,W,1,9,1.9,16,M,,M,,*57
06/20/2015	04:10:24.532	$GPGGA,041025,2504.4034,N,07954.2030,W,1,9,1.7,16,M,,M,,*54
06/20/2015	04:10:25.552	$GPGGA,041026,2504.4025,N,07954.2048,W,1,10,1.7,16,M,,M,,*60
06/20/2015	04:10:26.532	$GPGGA,041027,2504.4019,N,07954.2064,W,1,10,1.7,16,M,,M,,*60
06/20/2015	04:10:27.552	$GPGGA,041028,2504.4012,N,07954.2081,W,1,9,1.7,16,M,,M,,*57
06/20/2015	04:10:28.521	$GPGGA,041029,2504.4006,N,07954.2099,W,1,9,1.7,16,M,,M,,*5A
06/20/2015	04:10:29.551	$GPGGA,041030,2504.3998,N,07954.2114,W,1,9,1.7,16,M,,M,,*5F
06/20/2015	04:10:30.511	$GPGGA,041031,2504.3991,N,07954.2132,W,1,9,1.7,16,M,,M,,*53
06/20/2015	04:10:31.551	$GPGGA,041032,2504.3984,N,07954.2147,W,1,9,1.7,16,M,,M,,*56
06/20/2015	04:10:32.521	$GPGGA,041033,2504.3976,N,07954.2164,W,1,9,1.7,16,M,,M,,*5B
06/20/2015	04:10:33.531	$GPGGA,041034,2504.3969,N,07954.2182,W,1,10,1.7,16,M,,M,,*62
06/20/2015	04:10:34.501	$GPGGA,041035,2504.3961,N,07954.2198,W,1,10,1.7,16,M,,M,,*60
06/20/2015	04:10:35.521	$GPGGA,041036,2504.3952,N,07954.2215,W,1,9,1.7,16,M,,M,,*5D
06/20/2015	04:10:36.501	$GPGGA,041037,2504.3944,N,07954.2233,W,1,9,1.7,16,M,,M,,*5F
06/20/2015	04:10:37.491	$GPGGA,041038,2504.3936,N,07954.2249,W,1,9,1.7,16,M,,M,,*58
06/20/2015	04:10:38.501	$GPGGA,041039,2504.3929,N,07954.2265,W,1,9,1.7,16,M,,M,,*59
06/20/2015	04:10:39.521	$GPGGA,041040,2504.3922,N,07954.2283,W,1,10,1.7,17,M,,M,,*6D
06/20/2015	04:10:40.491	$GPGGA,041041,2504.3913,N,07954.2298,W,1,10,1.7,17,M,,M,,*64
06/20/2015	04:10:41.492	$GPGGA,041042,2504.3905,N,07954.2316,W,1,10,1.7,17,M,,M,,*67
06/20/2015	04:10:42.502	$GPGGA,041043,2504.3897,N,07954.2332,W,1,10,1.7,17,M,,M,,*6A
06/20/2015	04:10:43.592	$GPGGA,041044,2504.3889,N,07954.2348,W,1,9,1.7,17,M,,M,,*57
06/20/2015	04:10:44.482	$GPGGA,041045,2504.3880,N,07954.2364,W,1,9,1.7,17,M,,M,,*51
06/20/2015	04:10:46.531	$GPGGA,041047,2504.3864,N,07954.2399,W,1,10,1.7,17,M,,M,,*63
06/20/2015	04:10:47.591	$GPGGA,041048,2504.3857,N,07954.2415,W,1,10,1.7,17,M,,M,,*6F
06/20/2015	04:10:48.651	$GPGGA,041049,2504.3848,N,07954.2431,W,1,10,1.7,17,M,,M,,*66
06/20/2015	04:10:49.574	$GPGGA,041050,2504.3840,N,07954.2449,W,1,10,1.7,17,M,,M,,*69
06/20/2015	04:10:50.481	$GPGGA,041051,2504.3833,N,07954.2465,W,1,10,1.7,17,M,,M,,*62
06/20/2015	04:10:51.491	$GPGGA,041052,2504.3825,N,07954.2482,W,1,10,1.7,17,M,,M,,*6F
06/20/2015	04:10:52.641	$GPGGA,041053,2504.3817,N,07954.2497,W,1,10,1.7,17,M,,M,,*6B
06/20/2015	04:10:53.564	$GPGGA,041054,2504.3810,N,07954.2514,W,1,10,1.7,17,M,,M,,*61
06/20/2015	04:10:54.564	$GPGGA,041055,2504.3801,N,07954.2532,W,1,10,1.7,17,M,,M,,*64
06/20/2015	04:10:55.641	$GPGGA,041056,2504.3792,N,07954.2548,W,1,9,1.7,17,M,,M,,*57
06/20/2015	04:10:56.551	$GPGGA,041057,2504.3784,N,07954.2565,W,1,9,1.7,17,M,,M,,*5E
06/20/2015	04:10:57.601	$GPGGA,041058,2504.3777,N,07954.2583,W,1,10,1.7,17,M,,M,,*6D
06/20/2015	04:10:58.632	$GPGGA,041059,2504.3768,N,07954.2599,W,1,10,1.9,17,M,,M,,*67
06/20/2015	04:10:59.663	$GPGGA,041100,2504.3760,N,07954.2616,W,1,9,1.9,17,M,,M,,*5E
06/20/2015	04:11:00.622	$GPGGA,041101,2504.3754,N,07954.2634,W,1,9,1.9,17,M,,M,,*58
06/20/2015	04:11:01.602	$GPGGA,041102,2504.3748,N,07954.2650,W,1,10,1.7,17,M,,M,,*62
06/20/2015	04:11:02.622	$GPGGA,041103,2504.3741,N,07954.2667,W,1,10,1.9,17,M,,M,,*60
06/20/2015	04:11:03.611	$GPGGA,041104,2504.3731,N,07954.2684,W,1,9,1.9,17,M,,M,,*55
06/20/2015	04:11:04.541	$GPGGA,041105,2504.3723,N,07954.2702,W,1,9,1.7,17,M,,M,,*56
06/20/2015	04:11:05.581	$GPGGA,041106,2504.3714,N,07954.2720,W,1,10,1.7,17,M,,M,,*69
06/20/2015	04:11:06.541	$GPGGA,041107,2504.3707,N,07954.2736,W,1,10,1.7,17,M,,M,,*6D
06/20/2015	04:11:07.631	$GPGGA,041108,2504.3700,N,07954.2754,W,1,10,1.7,17,M,,M,,*61
06/20/2015	04:11:08.611	$GPGGA,041109,2504.3690,N,07954.2769,W,1,10,1.7,17,M,,M,,*66
06/20/2015	04:11:09.531	$GPGGA,041110,2504.3682,N,07954.2786,W,1,10,1.7,17,M,,M,,*6C
06/20/2015	04:11:10.601	$GPGGA,041111,2504.3676,N,07954.2804,W,1,10,1.7,17,M,,M,,*63
06/20/2015	04:11:11.591	$GPGGA,041112,2504.3667,N,07954.2822,W,1,9,1.7,17,M,,M,,*5C
06/20/2015	04:11:12.581	$GPGGA,041113,2504.3658,N,07954.2837,W,1,9,1.7,17,M,,M,,*55
06/20/2015	04:11:13.601	$GPGGA,041114,2504.3651,N,07954.2854,W,1,10,1.9,17,M,,M,,*68
06/20/2015	04:11:14.521	$GPGGA,041115,2504.3642,N,07954.2872,W,1,10,1.9,17,M,,M,,*6F
06/20/2015	04:11:15.601	$GPGGA,041116,2504.3634,N,07954.2887,W,1,10,1.7,17,M,,M,,*69
06/20/2015	04:11:16.592	$GPGGA,041117,2504.3626,N,07954.2905,W,1,10,1.7,17,M,,M,,*60
06/20/2015	04:11:17.570	$GPGGA,041118,2504.3619,N,07954.2921,W,1,10,1.7,17,M,,M,,*65
06/20/2015	04:11:18.572	$GPGGA,041119,2504.3611,N,07954.2937,W,1,10,1.7,17,M,,M,,*6B
06/20/2015	04:11:19.582	$GPGGA,041120,2504.3602,N,07954.2955,W,1,10,1.7,17,M,,M,,*67
06/20/2015	04:11:20.571	$GPGGA,041121,2504.3595,N,07954.2971,W,1,10,1.7,17,M,,M,,*6D
06/20/2015	04:11:21.561	$GPGGA,041122,2504.3588,N,07954.2988,W,1,9,1.7,17,M,,M,,*5C
06/20/2015	04:11:22.572	$GPGGA,041123,2504.3580,N,07954.3006,W,1,9,1.7,17,M,,M,,*5B
06/20/2015	04:11:23.601	$GPGGA,041124,2504.3572,N,07954.3021,W,1,10,1.7,17,M,,M,,*6C
06/20/2015	04:11:24.565	$GPGGA,041125,2504.3564,N,07954.3038,W,1,10,1.9,17,M,,M,,*6C
06/20/2015	04:11:25.531	$GPGGA,041126,2504.3557,N,07954.3053,W,1,8,1.7,17,M,,M,,*55
06/20/2015	04:11:26.491	$GPGGA,041127,2504.3549,N,07954.3069,W,1,8,1.7,17,M,,M,,*52
06/20/2015	04:11:27.571	$GPGGA,041128,2504.3542,N,07954.3086,W,1,10,1.7,17,M,,M,,*6E
06/20/2015	04:11:28.491	$GPGGA,041129,2504.3535,N,07954.3103,W,1,10,1.7,17,M,,M,,*63
06/20/2015	04:11:29.543	$GPGGA,041130,2504.3526,N,07954.3119,W,1,10,1.7,17,M,,M,,*62
06/20/2015	04:11:30.611	$GPGGA,041131,2504.3519,N,07954.3136,W,1,10,1.7,17,M,,M,,*62
06/20/2015	04:11:31.611	$GPGGA,041132,2504.3511,N,07954.3154,W,1,10,1.7,17,M,,M,,*6D
06/20/2015	04:11:32.481	$GPGGA,041133,2504.3503,N,07954.3169,W,1,10,1.7,17,M,,M,,*61
06/20/2015	04:11:33.501	$GPGGA,041134,2504.3494,N,07954.3186,W,1,10,1.7,17,M,,M,,*68
06/20/2015	04:11:34.582	$GPGGA,041135,2504.3486,N,07954.3204,W,1,10,1.7,17,M,,M,,*63
06/20/2015	04:11:35.566	$GPGGA,041136,2504.3479,N,07954.3220,W,1,10,1.7,17,M,,M,,*66
06/20/2015	04:11:36.575	$GPGGA,041137,2504.3470,N,07954.3237,W,1,10,1.7,17,M,,M,,*68
06/20/2015	04:11:37.602	$GPGGA,041138,2504.3461,N,07954.3253,W,1,9,1.7,17,M,,M,,*5D
06/20/2015	04:11:38.578	$GPGGA,041139,2504.3454,N,07954.3271,W,1,9,1.7,17,M,,M,,*5A
06/20/2015	04:11:39.551	$GPGGA,041140,2504.3447,N,07954.3289,W,1,10,1.7,17,M,,M,,*69
06/20/2015	04:11:40.581	$GPGGA,041141,2504.3438,N,07954.3306,W,1,10,1.9,17,M,,M,,*68
06/20/2015	04:11:41.591	$GPGGA,041142,2504.3429,N,07954.3322,W,1,9,1.7,17,M,,M,,*5B
06/20/2015	04:11:42.567	$GPGGA,041143,2504.3423,N,07954.3340,W,1,9,1.7,17,M,,M,,*54
06/20/2015	04:11:43.591	$GPGGA,041144,2504.3414,N,07954.3357,W,1,10,1.7,17,M,,M,,*69
06/20/2015	04:11:44.565	$GPGGA,041145,2504.3406,N,07954.3374,W,1,10,1.7,17,M,,M,,*6A
06/20/2015	04:11:45.581	$GPGGA,041146,2504.3400,N,07954.3390,W,1,9,1.7,17,M,,M,,*5D
06/20/2015	04:11:46.581	$GPGGA,041147,2504.3393,N,07954.3408,W,1,9,1.7,17,M,,M,,*57
