Software Version Number: 1	Data File Format Number: 1	Build Version Number: 1	Error Count Since VI Started: 1	Manufacturer: Raytheon	 Model Number: RayMarine 120	 S/N: 	 Cal Date: 	 Wind Direction Offset: 0.00	 Slope (M)1: 0.00	 Offset (B)1: 0.00	 Slope (M)2: 0.00	 Offset (B)2: 0.00	 Slope (M)3: 0.00	 Offset (B)3: 0.00	 Slope (M)4: 0.00	 Offset (B)4: 0.00	 Slope (M)5: 0.00	 Offset (B)5: 0.00	 Slope (M)6: 0.00	 Offset (B)6: 0.00
Computer Date	Computer Time	GGA String
06/15/2015	08:00:00.565	$GPGGA,080001,2420.1998,N,08048.4324,W,1,10,1.4,15,M,,M,,*61
06/15/2015	08:00:01.585	$GPGGA,080002,2420.2007,N,08048.4342,W,1,10,1.4,15,M,,M,,*6E
06/15/2015	08:00:02.577	$GPGGA,080003,2420.2014,N,08048.4361,W,1,10,1.4,15,M,,M,,*6C
06/15/2015	08:00:03.585	$GPGGA,080004,2420.2025,N,08048.4379,W,1,10,1.4,15,M,,M,,*60
06/15/2015	08:00:04.555	$GPGGA,080005,2420.2035,N,08048.4394,W,1,10,1.4,15,M,,M,,*63
06/15/2015	08:00:05.545	$GPGGA,080006,2420.2043,N,08048.4409,W,1,10,1.4,15,M,,M,,*62
06/15/2015	08:00:06.556	$GPGGA,080007,2420.2050,N,08048.4425,W,1,10,1.4,15,M,,M,,*6F
06/15/2015	08:00:07.576	$GPGGA,080008,2420.2060,N,08048.4440,W,1,10,1.4,15,M,,M,,*60
06/15/2015	08:00:08.555	$GPGGA,080009,2420.2070,N,08048.4455,W,1,10,1.4,15,M,,M,,*64
06/15/2015	08:00:09.535	$GPGGA,080010,2420.2079,N,08048.4472,W,1,10,1.4,15,M,,M,,*60
06/15/2015	08:00:10.545	$GPGGA,080011,2420.2089,N,08048.4490,W,1,10,1.4,15,M,,M,,*62
06/15/2015	08:00:11.565	$GPGGA,080012,2420.2097,N,08048.4508,W,1,10,1.4,15,M,,M,,*6E
06/15/2015	08:00:12.535	$GPGGA,080013,2420.2108,N,08048.4525,W,1,10,1.4,15,M,,M,,*67
06/15/2015	08:00:13.565	$GPGGA,080014,2420.2119,N,08048.4543,W,1,9,1.6,15,M,,M,,*5A
06/15/2015	08:00:14.545	$GPGGA,080015,2420.2128,N,08048.4560,W,1,9,1.7,15,M,,M,,*59
06/15/2015	08:00:15.535	$GPGGA,080016,2420.2137,N,08048.4577,W,1,8,1.7,15,M,,M,,*53
06/15/2015	08:00:16.526	$GPGGA,080017,2420.2150,N,08048.4592,W,1,8,1.6,15,M,,M,,*59
06/15/2015	08:00:17.655	$GPGGA,080018,2420.2159,N,08048.4606,W,1,9,1.6,15,M,,M,,*50
06/15/2015	08:00:18.525	$GPGGA,080019,2420.2169,N,08048.4618,W,1,9,1.7,15,M,,M,,*5C
06/15/2015	08:00:19.545	$GPGGA,080020,2420.2177,N,08048.4632,W,1,9,1.5,15,M,,M,,*53
06/15/2015	08:00:20.515	$GPGGA,080021,2420.2188,N,08048.4650,W,1,9,1.4,15,M,,M,,*57
06/15/2015	08:00:21.535	$GPGGA,080022,2420.2199,N,08048.4667,W,1,9,1.6,15,M,,M,,*52
06/15/2015	08:00:22.525	$GPGGA,080023,2420.2211,N,08048.4684,W,1,9,1.6,15,M,,M,,*5D
06/15/2015	08:00:23.525	$GPGGA,080024,2420.2220,N,08048.4704,W,1,9,1.6,15,M,,M,,*51
06/15/2015	08:00:24.508	$GPGGA,080025,2420.2230,N,08048.4722,W,1,9,1.7,15,M,,M,,*54
06/15/2015	08:00:25.525	$GPGGA,080026,2420.2238,N,08048.4736,W,1,10,1.4,15,M,,M,,*61
06/15/2015	08:00:26.506	$GPGGA,080027,2420.2247,N,08048.4751,W,1,10,1.4,15,M,,M,,*69
06/15/2015	08:00:27.615	$GPGGA,080028,2420.2256,N,08048.4765,W,1,9,1.5,15,M,,M,,*58
06/15/2015	08:00:28.505	$GPGGA,080029,2420.2266,N,08048.4780,W,1,9,1.4,15,M,,M,,*50
06/15/2015	08:00:29.515	$GPGGA,080030,2420.2277,N,08048.4796,W,1,9,1.6,15,M,,M,,*5D
06/15/2015	08:00:30.505	$GPGGA,080031,2420.2289,N,08048.4812,W,1,9,1.6,15,M,,M,,*5E
06/15/2015	08:00:31.615	$GPGGA,080032,2420.2299,N,08048.4830,W,1,9,1.6,15,M,,M,,*5C
06/15/2015	08:00:32.615	$GPGGA,080033,2420.2310,N,08048.4848,W,1,9,1.6,15,M,,M,,*52
06/15/2015	08:00:33.589	$GPGGA,080034,2420.2321,N,08048.4864,W,1,9,1.6,15,M,,M,,*59
06/15/2015	08:00:34.588	$GPGGA,080035,2420.2332,N,08048.4881,W,1,9,1.6,15,M,,M,,*51
06/15/2015	08:00:35.595	$GPGGA,080036,2420.2343,N,08048.4897,W,1,9,1.5,15,M,,M,,*50
06/15/2015	08:00:36.488	$GPGGA,080037,2420.2354,N,08048.4913,W,1,9,1.4,15,M,,M,,*5B
06/15/2015	08:00:37.615	$GPGGA,080038,2420.2365,N,08048.4926,W,1,10,1.4,15,M,,M,,*68
06/15/2015	08:00:38.576	$GPGGA,080039,2420.2374,N,08048.4940,W,1,10,1.4,15,M,,M,,*69
06/15/2015	08:00:39.615	$GPGGA,080040,2420.2385,N,08048.4956,W,1,10,1.4,15,M,,M,,*6E
06/15/2015	08:00:40.590	$GPGGA,080041,2420.2394,N,08048.4971,W,1,10,1.6,15,M,,M,,*68
06/15/2015	08:00:41.605	$GPGGA,080042,2420.2404,N,08048.4986,W,1,9,1.6,15,M,,M,,*55
06/15/2015	08:00:42.581	$GPGGA,080043,2420.2414,N,08048.5001,W,1,9,1.4,15,M,,M,,*50
06/15/2015	08:00:43.625	$GPGGA,080044,2420.2425,N,08048.5018,W,1,10,1.4,15,M,,M,,*65
06/15/2015	08:00:44.582	$GPGGA,080045,2420.2433,N,08048.5033,W,1,10,1.4,15,M,,M,,*6A
06/15/2015	08:00:45.589	$GPGGA,080046,2420.2444,N,08048.5050,W,1,10,1.4,15,M,,M,,*6C
06/15/2015	08:00:46.578	$GPGGA,080047,2420.2454,N,08048.5065,W,1,10,1.4,15,M,,M,,*6A
06/15/2015	08:00:47.595	$GPGGA,080048,2420.2462,N,08048.5081,W,1,9,1.6,15,M,,M,,*50
06/15/2015	08:00:48.555	$GPGGA,080049,2420.2472,N,08048.5097,W,1,9,1.6,15,M,,M,,*57
06/15/2015	08:00:49.583	$GPGGA,080050,2420.2480,N,08048.5110,W,1,10,1.4,15,M,,M,,*66
06/15/2015	08:00:50.565	$GPGGA,080051,2420.2488,N,08048.5126,W,1,10,1.4,15,M,,M,,*6A
06/15/2015	08:00:51.596	$GPGGA,080052,2420.2498,N,08048.5142,W,1,10,1.4,15,M,,M,,*6A
06/15/2015	08:00:52.555	$GPGGA,080053,2420.2509,N,08048.5159,W,1,10,1.4,15,M,,M,,*68
06/15/2015	08:00:53.555	$GPGGA,080054,2420.2518,N,08048.5177,W,1,10,1.4,15,M,,M,,*63
06/15/2015	08:00:54.565	$GPGGA,080055,2420.2526,N,08048.5192,W,1,10,1.4,15,M,,M,,*64
06/15/2015	08:00:55.580	$GPGGA,080056,2420.2536,N,08048.5207,W,1,10,1.4,15,M,,M,,*69
06/15/2015	08:00:56.545	$GPGGA,080057,2420.2544,N,08048.5222,W,1,10,1.4,16,M,,M,,*69
06/15/2015	08:00:57.545	$GPGGA,080058,2420.2552,N,08048.5238,W,1,10,1.4,16,M,,M,,*6A
06/15/2015	08:00:58.565	$GPGGA,080059,2420.2562,N,08048.5253,W,1,10,1.4,16,M,,M,,*65
06/15/2015	08:00:59.588	$GPGGA,080100,2420.2570,N,08048.5271,W,1,10,1.4,16,M,,M,,*6B
06/15/2015	08:01:00.555	$GPGGA,080101,2420.2578,N,08048.5289,W,1,10,1.5,16,M,,M,,*64
06/15/2015	08:01:01.545	$GPGGA,080102,2420.2589,N,08048.5307,W,1,10,1.4,16,M,,M,,*6F
06/15/2015	08:01:03.625	$GPGGA,080104,2420.2609,N,08048.5340,W,1,10,1.4,16,M,,M,,*61
06/15/2015	08:01:04.525	$GPGGA,080105,2420.2621,N,08048.5354,W,1,10,1.8,16,M,,M,,*63
06/15/2015	08:01:05.525	$GPGGA,080106,2420.2632,N,08048.5368,W,1,8,1.8,16,M,,M,,*54
06/15/2015	08:01:06.535	$GPGGA,080107,2420.2641,N,08048.5381,W,1,8,1.5,16,M,,M,,*5B
06/15/2015	08:01:07.565	$GPGGA,080108,2420.2652,N,08048.5395,W,1,9,1.5,16,M,,M,,*52
06/15/2015	08:01:08.635	$GPGGA,080109,2420.2663,N,08048.5410,W,1,9,1.5,16,M,,M,,*5B
06/15/2015	08:01:09.535	$GPGGA,080110,2420.2672,N,08048.5427,W,1,9,1.5,17,M,,M,,*56
06/15/2015	08:01:10.645	$GPGGA,080111,2420.2682,N,08048.5445,W,1,9,1.5,17,M,,M,,*5C
06/15/2015	08:01:11.555	$GPGGA,080112,2420.2693,N,08048.5463,W,1,8,1.8,17,M,,M,,*57
06/15/2015	08:01:12.626	$GPGGA,080113,2420.2706,N,08048.5480,W,1,8,1.8,17,M,,M,,*56
06/15/2015	08:01:13.615	$GPGGA,080114,2420.2715,N,08048.5495,W,1,8,1.8,17,M,,M,,*57
06/15/2015	08:01:14.515	$GPGGA,080115,2420.2724,N,08048.5509,W,1,8,2.0,17,M,,M,,*5B
06/15/2015	08:01:15.535	$GPGGA,080116,2420.2735,N,08048.5524,W,1,8,1.8,17,M,,M,,*5C
06/15/2015	08:01:16.505	$GPGGA,080117,2420.2746,N,08048.5536,W,1,8,1.8,17,M,,M,,*5A
06/15/2015	08:01:17.615	$GPGGA,080118,2420.2757,N,08048.5551,W,1,9,1.5,18,M,,M,,*57
06/15/2015	08:01:18.515	$GPGGA,080119,2420.2769,N,08048.5568,W,1,9,1.8,18,M,,M,,*5C
06/15/2015	08:01:19.605	$GPGGA,080120,2420.2780,N,08048.5586,W,1,8,1.8,18,M,,M,,*50
06/15/2015	08:01:20.585	$GPGGA,080121,2420.2790,N,08048.5603,W,1,8,1.8,18,M,,M,,*5E
06/15/2015	08:01:21.487	$GPGGA,080122,2420.2801,N,08048.5621,W,1,8,1.8,18,M,,M,,*5A
06/15/2015	08:01:22.595	$GPGGA,080123,2420.2813,N,08048.5636,W,1,8,1.8,18,M,,M,,*5E
06/15/2015	08:01:23.505	$GPGGA,080124,2420.2823,N,08048.5650,W,1,8,1.8,18,M,,M,,*5A
06/15/2015	08:01:24.495	$GPGGA,080125,2420.2831,N,08048.5665,W,1,8,1.8,18,M,,M,,*5E
06/15/2015	08:01:25.579	$GPGGA,080126,2420.2841,N,08048.5680,W,1,8,1.8,18,M,,M,,*51
06/15/2015	08:01:26.587	$GPGGA,080127,2420.2852,N,08048.5694,W,1,8,1.8,18,M,,M,,*57
06/15/2015	08:01:27.625	$GPGGA,080128,2420.2863,N,08048.5709,W,1,9,1.5,18,M,,M,,*53
06/15/2015	08:01:28.588	$GPGGA,080129,2420.2874,N,08048.5727,W,1,9,1.5,18,M,,M,,*58
06/15/2015	08:01:29.588	$GPGGA,080130,2420.2884,N,08048.5744,W,1,8,1.8,18,M,,M,,*56
06/15/2015	08:01:30.586	$GPGGA,080131,2420.2896,N,08048.5762,W,1,8,1.8,18,M,,M,,*50
06/15/2015	08:01:31.590	$GPGGA,080132,2420.2906,N,08048.5777,W,1,8,1.8,18,M,,M,,*5F
06/15/2015	08:01:32.588	$GPGGA,080133,2420.2916,N,08048.5793,W,1,8,1.8,18,M,,M,,*55
06/15/2015	08:01:33.605	$GPGGA,080134,2420.2927,N,08048.5809,W,1,8,1.8,18,M,,M,,*5C
06/15/2015	08:01:34.565	$GPGGA,080135,2420.2935,N,08048.5827,W,1,8,2.0,18,M,,M,,*59
06/15/2015	08:01:35.595	$GPGGA,080136,2420.2943,N,08048.5842,W,1,8,1.8,18,M,,M,,*53
06/15/2015	08:01:36.555	$GPGGA,080137,2420.2953,N,08048.5854,W,1,8,1.8,18,M,,M,,*54
06/15/2015	08:01:37.545	$GPGGA,080138,2420.2964,N,08048.5870,W,1,8,1.9,19,M,,M,,*59
06/15/2015	08:01:38.565	$GPGGA,080139,2420.2972,N,08048.5886,W,1,8,1.5,19,M,,M,,*5A
06/15/2015	08:01:39.595	$GPGGA,080140,2420.2984,N,08048.5903,W,1,9,1.5,19,M,,M,,*50
06/15/2015	08:01:40.555	$GPGGA,080141,2420.2993,N,08048.5921,W,1,9,1.5,19,M,,M,,*57
06/15/2015	08:01:41.565	$GPGGA,080142,2420.3001,N,08048.5937,W,1,8,1.8,19,M,,M,,*5C
06/15/2015	08:01:42.545	$GPGGA,080143,2420.3011,N,08048.5954,W,1,8,1.8,19,M,,M,,*59
06/15/2015	08:01:43.565	$GPGGA,080144,2420.3022,N,08048.5968,W,1,8,1.8,19,M,,M,,*51
06/15/2015	08:01:44.555	$GPGGA,080145,2420.3031,N,08048.5983,W,1,8,1.8,19,M,,M,,*57
06/15/2015	08:01:45.535	$GPGGA,080146,2420.3040,N,08048.5998,W,1,8,1.8,19,M,,M,,*58
06/15/2015	08:01:46.545	$GPGGA,080147,2420.3051,N,08048.6015,W,1,8,1.5,19,M,,M,,*5B
06/15/2015	08:01:47.577	$GPGGA,080148,2420.3061,N,08048.6030,W,1,9,1.5,19,M,,M,,*51
06/15/2015	08:01:48.525	$GPGGA,080149,2420.3069,N,08048.6048,W,1,9,1.5,19,M,,M,,*57
06/15/2015	08:01:49.535	$GPGGA,080150,2420.3080,N,08048.6064,W,1,9,1.5,19,M,,M,,*56
06/15/2015	08:01:50.535	$GPGGA,080151,2420.3090,N,08048.6081,W,1,9,1.5,19,M,,M,,*5D
06/15/2015	08:01:51.565	$GPGGA,080152,2420.3100,N,08048.6098,W,1,8,1.8,19,M,,M,,*52
06/15/2015	08:01:52.535	$GPGGA,080153,2420.3109,N,08048.6113,W,1,8,1.8,19,M,,M,,*58
06/15/2015	08:01:53.555	$GPGGA,080154,2420.3116,N,08048.6129,W,1,8,1.8,19,M,,M,,*58
06/15/2015	08:01:54.525	$GPGGA,080155,2420.3129,N,08048.6145,W,1,8,1.9,19,M,,M,,*5E
06/15/2015	08:01:55.545	$GPGGA,080156,2420.3138,N,08048.6160,W,1,9,1.5,19,M,,M,,*57
06/15/2015	08:01:56.525	$GPGGA,080157,2420.3145,N,08048.6178,W,1,9,1.5,19,M,,M,,*55
06/15/2015	08:01:57.515	$GPGGA,080158,2420.3156,N,08048.6194,W,1,9,1.5,19,M,,M,,*5A
06/15/2015	08:01:59.077	$GPGGA,080159,2420.3167,N,08048.6210,W,1,9,1.5,19,M,,M,,*56
06/15/2015	08:01:59.695	$GPGGA,080200,2420.3176,N,08048.6226,W,1,9,1.5,19,M,,M,,*5C
06/15/2015	08:02:00.505	$GPGGA,080201,2420.3184,N,08048.6243,W,1,9,1.5,19,M,,M,,*53
06/15/2015	08:02:01.636	$GPGGA,080202,2420.3194,N,08048.6258,W,1,9,1.5,19,M,,M,,*5B
06/15/2015	08:02:02.505	$GPGGA,080203,2420.3203,N,08048.6275,W,1,9,1.5,19,M,,M,,*58
06/15/2015	08:02:03.515	$GPGGA,080204,2420.3210,N,08048.6291,W,1,8,1.9,19,M,,M,,*5A
06/15/2015	08:02:04.505	$GPGGA,080205,2420.3221,N,08048.6308,W,1,8,1.5,19,M,,M,,*54
06/15/2015	08:02:05.525	$GPGGA,080206,2420.3228,N,08048.6326,W,1,9,1.5,19,M,,M,,*53
06/15/2015	08:02:06.595	$GPGGA,080207,2420.3238,N,08048.6344,W,1,9,1.5,19,M,,M,,*57
06/15/2015	08:02:07.678	$GPGGA,080208,2420.3246,N,08048.6359,W,1,9,1.5,20,M,,M,,*57
06/15/2015	08:02:08.505	$GPGGA,080209,2420.3256,N,08048.6376,W,1,9,1.5,20,M,,M,,*5A
06/15/2015	08:02:09.665	$GPGGA,080210,2420.3266,N,08048.6391,W,1,9,1.5,20,M,,M,,*58
06/15/2015	08:02:10.595	$GPGGA,080211,2420.3274,N,08048.6409,W,1,9,1.5,20,M,,M,,*5C
06/15/2015	08:02:11.645	$GPGGA,080212,2420.3281,N,08048.6424,W,1,8,1.8,20,M,,M,,*56
06/15/2015	08:02:12.588	$GPGGA,080213,2420.3290,N,08048.6439,W,1,8,1.9,20,M,,M,,*5A
06/15/2015	08:02:13.590	$GPGGA,080214,2420.3300,N,08048.6456,W,1,9,1.5,20,M,,M,,*51
06/15/2015	08:02:14.576	$GPGGA,080215,2420.3304,N,08048.6471,W,1,9,1.9,20,M,,M,,*5D
06/15/2015	08:02:15.665	$GPGGA,080216,2420.3315,N,08048.6488,W,1,9,1.5,19,M,,M,,*5E
06/15/2015	08:02:16.577	$GPGGA,080217,2420.3326,N,08048.6506,W,1,9,1.5,19,M,,M,,*58
06/15/2015	08:02:17.615	$GPGGA,080218,2420.3336,N,08048.6522,W,1,9,1.9,19,M,,M,,*5C
06/15/2015	08:02:18.635	$GPGGA,080219,2420.3344,N,08048.6539,W,1,9,1.9,19,M,,M,,*52
06/15/2015	08:02:19.645	$GPGGA,080220,2420.3354,N,08048.6557,W,1,9,1.5,19,M,,M,,*5D
06/15/2015	08:02:20.565	$GPGGA,080221,2420.3365,N,08048.6572,W,1,9,1.8,19,M,,M,,*54
06/15/2015	08:02:21.655	$GPGGA,080222,2420.3375,N,08048.6589,W,1,8,1.8,19,M,,M,,*53
06/15/2015	08:02:22.615	$GPGGA,080223,2420.3382,N,08048.6604,W,1,8,1.8,19,M,,M,,*5C
06/15/2015	08:02:23.625	$GPGGA,080224,2420.3390,N,08048.6618,W,1,8,1.5,19,M,,M,,*58
06/15/2015	08:02:24.615	$GPGGA,080225,2420.3400,N,08048.6633,W,1,8,1.5,19,M,,M,,*5E
06/15/2015	08:02:25.595	$GPGGA,080226,2420.3409,N,08048.6648,W,1,9,1.5,19,M,,M,,*59
06/15/2015	08:02:26.625	$GPGGA,080227,2420.3418,N,08048.6665,W,1,9,1.5,19,M,,M,,*57
06/15/2015	08:02:27.605	$GPGGA,080228,2420.3427,N,08048.6683,W,1,9,1.5,19,M,,M,,*5C
06/15/2015	08:02:28.545	$GPGGA,080229,2420.3437,N,08048.6699,W,1,9,1.8,19,M,,M,,*5A
06/15/2015	08:02:29.589	$GPGGA,080230,2420.3448,N,08048.6717,W,1,8,1.8,19,M,,M,,*5C
06/15/2015	08:02:30.545	$GPGGA,080231,2420.3456,N,08048.6735,W,1,8,1.8,19,M,,M,,*52
06/15/2015	08:02:31.635	$GPGGA,080232,2420.3466,N,08048.6752,W,1,8,1.8,19,M,,M,,*53
06/15/2015	08:02:32.605	$GPGGA,080233,2420.3477,N,08048.6767,W,1,8,1.8,19,M,,M,,*54
06/15/2015	08:02:33.595	$GPGGA,080234,2420.3487,N,08048.6782,W,1,8,1.8,19,M,,M,,*57
06/15/2015	08:02:34.595	$GPGGA,080235,2420.3497,N,08048.6799,W,1,8,1.8,19,M,,M,,*5D
06/15/2015	08:02:35.605	$GPGGA,080236,2420.3506,N,08048.6814,W,1,8,1.5,19,M,,M,,*50
06/15/2015	08:02:36.526	$GPGGA,080237,2420.3517,N,08048.6832,W,1,8,1.5,19,M,,M,,*55
06/15/2015	08:02:37.555	$GPGGA,080238,2420.3528,N,08048.6847,W,1,8,1.8,19,M,,M,,*59
06/15/2015	08:02:38.605	$GPGGA,080239,2420.3539,N,08048.6864,W,1,8,1.8,19,M,,M,,*59
06/15/2015	08:02:39.585	$GPGGA,080240,2420.3549,N,08048.6882,W,1,8,1.8,19,M,,M,,*58
06/15/2015	08:02:40.586	$GPGGA,080241,2420.3559,N,08048.6897,W,1,8,1.8,19,M,,M,,*5C
06/15/2015	08:02:41.587	$GPGGA,080242,2420.3568,N,08048.6912,W,1,8,1.8,19,M,,M,,*51
06/15/2015	08:02:42.576	$GPGGA,080243,2420.3577,N,08048.6927,W,1,8,1.5,19,M,,M,,*55
06/15/2015	08:02:43.645	$GPGGA,080244,2420.3586,N,08048.6941,W,1,9,1.5,19,M,,M,,*5D
06/15/2015	08:02:44.636	$GPGGA,080245,2420.3596,N,08048.6958,W,1,9,1.5,19,M,,M,,*55
06/15/2015	08:02:45.555	$GPGGA,080246,2420.3604,N,08048.6974,W,1,9,1.5,19,M,,M,,*50
06/15/2015	08:02:46.577	$GPGGA,080247,2420.3613,N,08048.6992,W,1,9,1.8,19,M,,M,,*52
06/15/2015	08:02:47.587	$GPGGA,080248,2420.3622,N,08048.7010,W,1,8,1.8,19,M,,M,,*5C
06/15/2015	08:02:48.605	$GPGGA,080249,2420.3632,N,08048.7027,W,1,8,1.8,19,M,,M,,*58
06/15/2015	08:02:49.605	$GPGGA,080250,2420.3640,N,08048.7042,W,1,8,1.5,19,M,,M,,*5B
06/15/2015	08:02:50.580	$GPGGA,080251,2420.3649,N,08048.7057,W,1,8,1.5,19,M,,M,,*57
06/15/2015	08:02:51.577	$GPGGA,080252,2420.3657,N,08048.7074,W,1,9,1.5,19,M,,M,,*5B
06/15/2015	08:02:52.555	$GPGGA,080253,2420.3665,N,08048.7088,W,1,9,1.8,19,M,,M,,*55
06/15/2015	08:02:53.495	$GPGGA,080254,2420.3676,N,08048.7104,W,1,8,1.8,19,M,,M,,*54
06/15/2015	08:02:54.595	$GPGGA,080255,2420.3685,N,08048.7121,W,1,8,1.8,19,M,,M,,*5E
06/15/2015	08:02:55.635	$GPGGA,080256,2420.3694,N,08048.7139,W,1,8,1.8,19,M,,M,,*54
06/15/2015	08:02:56.615	$GPGGA,080257,2420.3701,N,08048.7154,W,1,8,1.8,19,M,,M,,*53
06/15/2015	08:02:57.605	$GPGGA,080258,2420.3711,N,08048.7171,W,1,8,1.8,19,M,,M,,*5A
06/15/2015	08:02:58.555	$GPGGA,080259,2420.3721,N,08048.7187,W,1,8,1.8,19,M,,M,,*51
06/15/2015	08:02:59.615	$GPGGA,080300,2420.3730,N,08048.7202,W,1,8,1.5,19,M,,M,,*5F
06/15/2015	08:03:00.595	$GPGGA,080301,2420.3737,N,08048.7218,W,1,8,1.5,19,M,,M,,*52
06/15/2015	08:03:01.605	$GPGGA,080302,2420.3745,N,08048.7233,W,1,9,1.5,19,M,,M,,*5C
06/15/2015	08:03:02.595	$GPGGA,080303,2420.3755,N,08048.7249,W,1,9,1.5,19,M,,M,,*51
06/15/2015	08:03:03.595	$GPGGA,080304,2420.3766,N,08048.7265,W,1,9,1.6,19,M,,M,,*5B
06/15/2015	08:03:04.595	$GPGGA,080305,2420.3776,N,08048.7279,W,1,9,1.8,19,M,,M,,*58
06/15/2015	08:03:05.581	$GPGGA,080306,2420.3784,N,08048.7294,W,1,8,1.8,19,M,,M,,*54
06/15/2015	08:03:06.605	$GPGGA,080307,2420.3795,N,08048.7309,W,1,8,1.8,19,M,,M,,*50
06/15/2015	08:03:07.605	$GPGGA,080308,2420.3808,N,08048.7326,W,1,8,1.8,19,M,,M,,*59
06/15/2015	08:03:08.565	$GPGGA,080309,2420.3819,N,08048.7341,W,1,8,1.8,19,M,,M,,*59
06/15/2015	08:03:09.589	$GPGGA,080310,2420.3830,N,08048.7356,W,1,8,1.8,19,M,,M,,*5C
06/15/2015	08:03:10.565	$GPGGA,080311,2420.3839,N,08048.7373,W,1,8,1.8,19,M,,M,,*53
06/15/2015	08:03:11.616	$GPGGA,080312,2420.3849,N,08048.7386,W,1,8,1.8,19,M,,M,,*5D
06/15/2015	08:03:12.576	$GPGGA,080313,2420.3860,N,08048.7400,W,1,8,1.8,19,M,,M,,*5E
06/15/2015	08:03:13.578	$GPGGA,080314,2420.3868,N,08048.7415,W,1,8,1.8,19,M,,M,,*55
06/15/2015	08:03:14.578	$GPGGA,080315,2420.3878,N,08048.7431,W,1,8,1.8,19,M,,M,,*53
06/15/2015	08:03:15.585	$GPGGA,080316,2420.3889,N,08048.7447,W,1,8,1.8,19,M,,M,,*5F
06/15/2015	08:03:16.565	$GPGGA,080317,2420.3902,N,08048.7462,W,1,8,1.8,19,M,,M,,*5B
06/15/2015	08:03:17.565	$GPGGA,080318,2420.3910,N,08048.7479,W,1,8,1.8,19,M,,M,,*5D
06/15/2015	08:03:18.589	$GPGGA,080319,2420.3918,N,08048.7494,W,1,8,1.8,19,M,,M,,*57
06/15/2015	08:03:19.565	$GPGGA,080320,2420.3931,N,08048.7509,W,1,8,1.8,19,M,,M,,*53
06/15/2015	08:03:20.565	$GPGGA,080321,2420.3942,N,08048.7525,W,1,8,1.8,19,M,,M,,*58
06/15/2015	08:03:21.555	$GPGGA,080322,2420.3950,N,08048.7543,W,1,8,1.8,18,M,,M,,*59
06/15/2015	08:03:22.579	$GPGGA,080323,2420.3961,N,08048.7559,W,1,8,1.8,18,M,,M,,*51
06/15/2015	08:03:23.586	$GPGGA,080324,2420.3972,N,08048.7576,W,1,8,1.8,18,M,,M,,*59
06/15/2015	08:03:24.555	$GPGGA,080325,2420.3980,N,08048.7592,W,1,8,1.8,18,M,,M,,*5F
06/15/2015	08:03:25.545	$GPGGA,080326,2420.3990,N,08048.7608,W,1,8,1.8,18,M,,M,,*5D
06/15/2015	08:03:26.545	$GPGGA,080327,2420.4001,N,08048.7621,W,1,8,2.3,18,M,,M,,*59
06/15/2015	08:03:27.605	$GPGGA,080328,2420.4011,N,08048.7634,W,1,7,1.5,18,M,,M,,*59
06/15/2015	08:03:29.675	$GPGGA,080330,2420.4033,N,08048.7667,W,1,9,1.5,18,M,,M,,*58
06/15/2015	08:03:30.565	$GPGGA,080331,2420.4044,N,08048.7685,W,1,9,1.8,18,M,,M,,*58
06/15/2015	08:03:31.577	$GPGGA,080332,2420.4054,N,08048.7702,W,1,8,1.8,18,M,,M,,*55
06/15/2015	08:03:32.576	$GPGGA,080333,2420.4063,N,08048.7720,W,1,8,1.8,18,M,,M,,*50
06/15/2015	08:03:33.545	$GPGGA,080334,2420.4072,N,08048.7735,W,1,8,1.5,18,M,,M,,*5E
06/15/2015	08:03:34.525	$GPGGA,080335,2420.4072,N,08048.7735,W,1,8,1.5,18,M,,M,,*5F
06/15/2015	08:03:35.578	$GPGGA,080336,2420.4091,N,08048.7765,W,1,9,1.5,19,M,,M,,*54
06/15/2015	08:03:36.535	$GPGGA,080337,2420.4091,N,08048.7765,W,1,9,1.5,19,M,,M,,*55
06/15/2015	08:03:37.526	$GPGGA,080338,2420.4108,N,08048.7800,W,1,8,1.9,19,M,,M,,*5A
06/15/2015	08:03:38.555	$GPGGA,080339,2420.4108,N,08048.7800,W,1,8,1.5,19,M,,M,,*57
06/15/2015	08:03:39.535	$GPGGA,080340,2420.4127,N,08048.7836,W,1,9,1.5,19,M,,M,,*50
06/15/2015	08:03:40.505	$GPGGA,080341,2420.4127,N,08048.7836,W,1,9,1.5,19,M,,M,,*51
06/15/2015	08:03:41.595	$GPGGA,080342,2420.4142,N,08048.7868,W,1,9,1.5,19,M,,M,,*5A
06/15/2015	08:03:42.590	$GPGGA,080343,2420.4151,N,08048.7883,W,1,9,1.5,19,M,,M,,*5C
06/15/2015	08:03:43.635	$GPGGA,080344,2420.4159,N,08048.7899,W,1,9,1.5,19,M,,M,,*58
06/15/2015	08:03:44.605	$GPGGA,080345,2420.4167,N,08048.7915,W,1,9,1.5,19,M,,M,,*51
06/15/2015	08:03:45.587	$GPGGA,080346,2420.4175,N,08048.7933,W,1,9,1.5,19,M,,M,,*55
06/15/2015	08:03:46.591	$GPGGA,080347,2420.4185,N,08048.7951,W,1,9,1.9,19,M,,M,,*53
06/15/2015	08:03:47.636	$GPGGA,080348,2420.4193,N,08048.7969,W,1,9,1.5,19,M,,M,,*5C
06/15/2015	08:03:48.589	$GPGGA,080349,2420.4202,N,08048.7985,W,1,9,1.5,19,M,,M,,*54
06/15/2015	08:03:49.591	$GPGGA,080350,2420.4211,N,08048.8002,W,1,9,1.5,19,M,,M,,*57
06/15/2015	08:03:50.577	$GPGGA,080351,2420.4221,N,08048.8017,W,1,9,1.5,19,M,,M,,*51
06/15/2015	08:03:51.605	$GPGGA,080352,2420.4229,N,08048.8033,W,1,9,1.5,19,M,,M,,*5C
06/15/2015	08:03:52.577	$GPGGA,080353,2420.4236,N,08048.8049,W,1,9,1.5,19,M,,M,,*5E
06/15/2015	08:03:53.605	$GPGGA,080354,2420.4246,N,08048.8065,W,1,7,2.3,19,M,,M,,*5B
06/15/2015	08:03:54.575	$GPGGA,080355,2420.4254,N,08048.8082,W,1,7,1.9,19,M,,M,,*59
06/15/2015	08:03:55.591	$GPGGA,080356,2420.4261,N,08048.8100,W,1,7,2.3,19,M,,M,,*5E
06/15/2015	08:03:56.576	$GPGGA,080357,2420.4272,N,08048.8116,W,1,7,2.3,19,M,,M,,*5A
06/15/2015	08:03:57.566	$GPGGA,080358,2420.4278,N,08048.8129,W,1,8,1.8,19,M,,M,,*54
06/15/2015	08:03:58.577	$GPGGA,080359,2420.4286,N,08048.8145,W,1,8,1.5,19,M,,M,,*53
06/15/2015	08:03:59.605	$GPGGA,080400,2420.4299,N,08048.8162,W,1,8,1.9,19,M,,M,,*5F
06/15/2015	08:04:00.565	$GPGGA,080401,2420.4311,N,08048.8179,W,1,8,1.8,19,M,,M,,*54
06/15/2015	08:04:01.585	$GPGGA,080402,2420.4322,N,08048.8194,W,1,8,1.8,19,M,,M,,*54
06/15/2015	08:04:02.565	$GPGGA,080403,2420.4332,N,08048.8209,W,1,8,1.8,19,M,,M,,*53
06/15/2015	08:04:03.595	$GPGGA,080404,2420.4343,N,08048.8224,W,1,8,1.8,19,M,,M,,*5D
06/15/2015	08:04:04.553	$GPGGA,080405,2420.4352,N,08048.8241,W,1,8,1.8,19,M,,M,,*5F
06/15/2015	08:04:05.533	$GPGGA,080406,2420.4363,N,08048.8258,W,1,8,1.8,19,M,,M,,*56
06/15/2015	08:04:06.533	$GPGGA,080407,2420.4376,N,08048.8273,W,1,8,1.8,19,M,,M,,*5A
06/15/2015	08:04:07.543	$GPGGA,080408,2420.4387,N,08048.8291,W,1,9,1.5,20,M,,M,,*51
06/15/2015	08:04:08.543	$GPGGA,080409,2420.4397,N,08048.8309,W,1,9,1.5,20,M,,M,,*51
06/15/2015	08:04:09.523	$GPGGA,080410,2420.4409,N,08048.8327,W,1,8,1.8,20,M,,M,,*59
06/15/2015	08:04:10.533	$GPGGA,080411,2420.4419,N,08048.8343,W,1,8,1.8,20,M,,M,,*5B
06/15/2015	08:04:11.553	$GPGGA,080412,2420.4427,N,08048.8358,W,1,8,1.8,20,M,,M,,*5F
06/15/2015	08:04:12.523	$GPGGA,080413,2420.4437,N,08048.8372,W,1,8,1.8,20,M,,M,,*57
06/15/2015	08:04:13.533	$GPGGA,080414,2420.4445,N,08048.8387,W,1,8,1.8,20,M,,M,,*5F
06/15/2015	08:04:14.533	$GPGGA,080415,2420.4455,N,08048.8403,W,1,8,1.5,20,M,,M,,*59
06/15/2015	08:04:15.564	$GPGGA,080416,2420.4464,N,08048.8419,W,1,8,1.9,20,M,,M,,*5F
06/15/2015	08:04:16.523	$GPGGA,080417,2420.4474,N,08048.8439,W,1,8,1.5,20,M,,M,,*51
06/15/2015	08:04:17.523	$GPGGA,080418,2420.4485,N,08048.8457,W,1,9,1.5,20,M,,M,,*59
06/15/2015	08:04:18.513	$GPGGA,080419,2420.4493,N,08048.8475,W,1,9,1.8,20,M,,M,,*52
06/15/2015	08:04:19.633	$GPGGA,080420,2420.4503,N,08048.8491,W,1,8,1.8,20,M,,M,,*5B
06/15/2015	08:04:20.513	$GPGGA,080421,2420.4511,N,08048.8506,W,1,8,1.8,20,M,,M,,*56
06/15/2015	08:04:21.523	$GPGGA,080422,2420.4521,N,08048.8519,W,1,9,1.5,20,M,,M,,*54
06/15/2015	08:04:22.493	$GPGGA,080423,2420.4529,N,08048.8533,W,1,9,1.5,20,M,,M,,*55
06/15/2015	08:04:23.523	$GPGGA,080424,2420.4536,N,08048.8548,W,1,9,1.5,20,M,,M,,*50
06/15/2015	08:04:24.503	$GPGGA,080425,2420.4546,N,08048.8564,W,1,9,1.9,20,M,,M,,*54
06/15/2015	08:04:25.503	$GPGGA,080426,2420.4557,N,08048.8582,W,1,9,1.5,20,M,,M,,*53
06/15/2015	08:04:26.593	$GPGGA,080427,2420.4568,N,08048.8602,W,1,9,1.8,20,M,,M,,*58
06/15/2015	08:04:27.523	$GPGGA,080428,2420.4576,N,08048.8620,W,1,8,1.8,20,M,,M,,*59
06/15/2015	08:04:28.593	$GPGGA,080429,2420.4586,N,08048.8638,W,1,8,1.8,20,M,,M,,*5E
06/15/2015	08:04:29.513	$GPGGA,080430,2420.4597,N,08048.8652,W,1,8,1.8,20,M,,M,,*5A
06/15/2015	08:04:30.503	$GPGGA,080431,2420.4607,N,08048.8667,W,1,8,1.8,19,M,,M,,*5D
06/15/2015	08:04:31.633	$GPGGA,080432,2420.4614,N,08048.8681,W,1,8,1.8,19,M,,M,,*54
06/15/2015	08:04:32.493	$GPGGA,080433,2420.4622,N,08048.8696,W,1,8,1.5,19,M,,M,,*5B
06/15/2015	08:04:33.593	$GPGGA,080434,2420.4633,N,08048.8711,W,1,9,1.5,19,M,,M,,*53
06/15/2015	08:04:34.573	$GPGGA,080435,2420.4644,N,08048.8729,W,1,9,1.5,19,M,,M,,*59
06/15/2015	08:04:35.603	$GPGGA,080436,2420.4651,N,08048.8747,W,1,8,1.8,19,M,,M,,*5A
06/15/2015	08:04:36.603	$GPGGA,080437,2420.4661,N,08048.8764,W,1,8,1.8,19,M,,M,,*59
06/15/2015	08:04:37.563	$GPGGA,080438,2420.4670,N,08048.8780,W,1,8,1.8,19,M,,M,,*5C
06/15/2015	08:04:38.573	$GPGGA,080439,2420.4680,N,08048.8797,W,1,8,1.8,19,M,,M,,*54
06/15/2015	08:04:39.613	$GPGGA,080440,2420.4688,N,08048.8811,W,1,8,1.8,19,M,,M,,*53
06/15/2015	08:04:40.573	$GPGGA,080441,2420.4698,N,08048.8826,W,1,8,1.8,19,M,,M,,*57
06/15/2015	08:04:41.564	$GPGGA,080442,2420.4708,N,08048.8841,W,1,8,1.8,19,M,,M,,*5D
06/15/2015	08:04:42.564	$GPGGA,080443,2420.4716,N,08048.8858,W,1,8,1.8,19,M,,M,,*5B
06/15/2015	08:04:43.583	$GPGGA,080444,2420.4724,N,08048.8874,W,1,8,1.8,19,M,,M,,*53
06/15/2015	08:04:44.553	$GPGGA,080445,2420.4737,N,08048.8891,W,1,8,1.8,19,M,,M,,*5B
06/15/2015	08:04:45.573	$GPGGA,080446,2420.4748,N,08048.8909,W,1,8,1.8,19,M,,M,,*50
06/15/2015	08:04:46.543	$GPGGA,080447,2420.4756,N,08048.8927,W,1,8,1.8,18,M,,M,,*53
06/15/2015	08:04:47.583	$GPGGA,080448,2420.4766,N,08048.8943,W,1,8,1.8,18,M,,M,,*5D
06/15/2015	08:04:48.553	$GPGGA,080449,2420.4776,N,08048.8960,W,1,8,1.8,18,M,,M,,*5C
06/15/2015	08:04:49.543	$GPGGA,080450,2420.4784,N,08048.8974,W,1,8,1.8,18,M,,M,,*5C
06/15/2015	08:04:50.553	$GPGGA,080451,2420.4792,N,08048.8990,W,1,8,1.8,18,M,,M,,*50
06/15/2015	08:04:51.574	$GPGGA,080452,2420.4803,N,08048.9006,W,1,8,1.8,18,M,,M,,*53
06/15/2015	08:04:52.543	$GPGGA,080453,2420.4811,N,08048.9021,W,1,8,1.8,18,M,,M,,*54
06/15/2015	08:04:53.553	$GPGGA,080454,2420.4821,N,08048.9037,W,1,8,1.8,18,M,,M,,*57
06/15/2015	08:04:54.543	$GPGGA,080455,2420.4831,N,08048.9054,W,1,8,1.8,18,M,,M,,*52
06/15/2015	08:04:55.573	$GPGGA,080456,2420.4842,N,08048.9071,W,1,8,1.8,18,M,,M,,*52
06/15/2015	08:04:56.542	$GPGGA,080457,2420.4852,N,08048.9086,W,1,8,1.8,18,M,,M,,*5A
06/15/2015	08:04:57.553	$GPGGA,080458,2420.4861,N,08048.9104,W,1,8,1.8,17,M,,M,,*51
06/15/2015	08:04:58.523	$GPGGA,080459,2420.4871,N,08048.9119,W,1,8,1.8,17,M,,M,,*5D
06/15/2015	08:04:59.583	$GPGGA,080500,2420.4879,N,08048.9134,W,1,8,1.8,17,M,,M,,*57
06/15/2015	08:05:00.523	$GPGGA,080501,2420.4890,N,08048.9151,W,1,8,1.8,17,M,,M,,*52
06/15/2015	08:05:01.553	$GPGGA,080502,2420.4901,N,08048.9166,W,1,8,1.8,17,M,,M,,*5C
06/15/2015	08:05:02.534	$GPGGA,080503,2420.4910,N,08048.9183,W,1,8,1.8,17,M,,M,,*56
06/15/2015	08:05:03.563	$GPGGA,080504,2420.4919,N,08048.9198,W,1,8,1.8,17,M,,M,,*52
06/15/2015	08:05:04.513	$GPGGA,080505,2420.4930,N,08048.9214,W,1,8,1.8,17,M,,M,,*5F
06/15/2015	08:05:05.533	$GPGGA,080506,2420.4937,N,08048.9230,W,1,7,2.0,17,M,,M,,*59
06/15/2015	08:05:06.633	$GPGGA,080507,2420.4948,N,08048.9248,W,1,7,1.8,17,M,,M,,*54
06/15/2015	08:05:07.643	$GPGGA,080508,2420.4955,N,08048.9263,W,1,8,1.8,17,M,,M,,*51
06/15/2015	08:05:08.523	$GPGGA,080509,2420.4964,N,08048.9281,W,1,8,1.8,16,M,,M,,*5F
06/15/2015	08:05:09.523	$GPGGA,080510,2420.4975,N,08048.9296,W,1,8,1.8,16,M,,M,,*51
06/15/2015	08:05:10.503	$GPGGA,080511,2420.4984,N,08048.9313,W,1,8,1.8,16,M,,M,,*52
06/15/2015	08:05:11.503	$GPGGA,080512,2420.4995,N,08048.9328,W,1,8,1.8,16,M,,M,,*59
06/15/2015	08:05:12.513	$GPGGA,080513,2420.5004,N,08048.9346,W,1,8,1.8,16,M,,M,,*50
06/15/2015	08:05:13.503	$GPGGA,080514,2420.5013,N,08048.9361,W,1,8,1.8,16,M,,M,,*54
06/15/2015	08:05:14.513	$GPGGA,080515,2420.5023,N,08048.9376,W,1,8,1.8,16,M,,M,,*50
06/15/2015	08:05:15.613	$GPGGA,080516,2420.5031,N,08048.9393,W,1,8,1.8,16,M,,M,,*5B
06/15/2015	08:05:16.503	$GPGGA,080517,2420.5041,N,08048.9407,W,1,8,1.8,16,M,,M,,*57
06/15/2015	08:05:17.493	$GPGGA,080518,2420.5049,N,08048.9422,W,1,9,1.5,16,M,,M,,*5B
06/15/2015	08:05:18.503	$GPGGA,080519,2420.5056,N,08048.9436,W,1,9,1.5,16,M,,M,,*51
06/15/2015	08:05:19.603	$GPGGA,080520,2420.5067,N,08048.9452,W,1,9,1.5,16,M,,M,,*5B
06/15/2015	08:05:20.583	$GPGGA,080521,2420.5074,N,08048.9469,W,1,9,1.5,16,M,,M,,*50
06/15/2015	08:05:21.576	$GPGGA,080522,2420.5085,N,08048.9487,W,1,9,1.5,17,M,,M,,*5C
06/15/2015	08:05:22.583	$GPGGA,080523,2420.5096,N,08048.9505,W,1,9,1.8,17,M,,M,,*59
06/15/2015	08:05:23.583	$GPGGA,080524,2420.5105,N,08048.9523,W,1,8,1.8,17,M,,M,,*50
06/15/2015	08:05:24.578	$GPGGA,080525,2420.5114,N,08048.9539,W,1,8,1.8,17,M,,M,,*5A
06/15/2015	08:05:25.603	$GPGGA,080526,2420.5125,N,08048.9556,W,1,8,1.8,17,M,,M,,*52
06/15/2015	08:05:26.563	$GPGGA,080527,2420.5132,N,08048.9570,W,1,8,1.8,17,M,,M,,*51
06/15/2015	08:05:27.583	$GPGGA,080528,2420.5141,N,08048.9585,W,1,8,1.9,17,M,,M,,*51
06/15/2015	08:05:28.574	$GPGGA,080529,2420.5150,N,08048.9602,W,1,8,1.9,17,M,,M,,*5C
06/15/2015	08:05:29.573	$GPGGA,080530,2420.5161,N,08048.9618,W,1,9,1.5,17,M,,M,,*50
06/15/2015	08:05:30.564	$GPGGA,080531,2420.5171,N,08048.9636,W,1,9,1.5,17,M,,M,,*5C
06/15/2015	08:05:31.593	$GPGGA,080532,2420.5179,N,08048.9654,W,1,8,1.8,17,M,,M,,*5F
06/15/2015	08:05:32.582	$GPGGA,080533,2420.5190,N,08048.9671,W,1,8,1.8,17,M,,M,,*5E
06/15/2015	08:05:33.578	$GPGGA,080534,2420.5199,N,08048.9686,W,1,8,1.8,17,M,,M,,*58
06/15/2015	08:05:34.553	$GPGGA,080535,2420.5208,N,08048.9702,W,1,8,2.3,17,M,,M,,*57
06/15/2015	08:05:35.593	$GPGGA,080536,2420.5217,N,08048.9718,W,1,8,1.8,17,M,,M,,*59
06/15/2015	08:05:36.553	$GPGGA,080537,2420.5228,N,08048.9736,W,1,8,1.8,17,M,,M,,*58
06/15/2015	08:05:37.564	$GPGGA,080538,2420.5237,N,08048.9752,W,1,8,1.8,17,M,,M,,*5B
06/15/2015	08:05:38.544	$GPGGA,080539,2420.5247,N,08048.9770,W,1,8,1.8,17,M,,M,,*5D
06/15/2015	08:05:39.570	$GPGGA,080540,2420.5257,N,08048.9787,W,1,8,1.8,17,M,,M,,*5A
06/15/2015	08:05:40.533	$GPGGA,080541,2420.5268,N,08048.9802,W,1,8,1.8,17,M,,M,,*55
06/15/2015	08:05:41.564	$GPGGA,080542,2420.5279,N,08048.9819,W,1,8,1.8,17,M,,M,,*5C
06/15/2015	08:05:42.543	$GPGGA,080543,2420.5287,N,08048.9834,W,1,8,1.8,17,M,,M,,*53
06/15/2015	08:05:43.543	$GPGGA,080544,2420.5297,N,08048.9850,W,1,8,1.8,17,M,,M,,*57
06/15/2015	08:05:44.543	$GPGGA,080545,2420.5308,N,08048.9867,W,1,8,1.8,17,M,,M,,*55
06/15/2015	08:05:45.553	$GPGGA,080546,2420.5318,N,08048.9884,W,1,8,1.8,17,M,,M,,*5A
06/15/2015	08:05:46.543	$GPGGA,080547,2420.5329,N,08048.9899,W,1,8,1.8,17,M,,M,,*55
06/15/2015	08:05:47.584	$GPGGA,080548,2420.5337,N,08048.9917,W,1,8,1.8,17,M,,M,,*52
06/15/2015	08:05:48.533	$GPGGA,080549,2420.5347,N,08048.9931,W,1,8,1.8,17,M,,M,,*50
06/15/2015	08:05:49.513	$GPGGA,080550,2420.5358,N,08048.9947,W,1,8,1.8,17,M,,M,,*57
06/15/2015	08:05:50.523	$GPGGA,080551,2420.5366,N,08048.9964,W,1,8,1.8,17,M,,M,,*5A
06/15/2015	08:05:51.564	$GPGGA,080552,2420.5374,N,08048.9980,W,1,8,1.8,17,M,,M,,*50
06/15/2015	08:05:52.513	$GPGGA,080553,2420.5385,N,08048.9996,W,1,8,1.8,17,M,,M,,*58
06/15/2015	08:05:53.523	$GPGGA,080554,2420.5396,N,08049.0011,W,1,8,1.8,17,M,,M,,*53
06/15/2015	08:05:54.503	$GPGGA,080555,2420.5406,N,08049.0027,W,1,8,1.8,17,M,,M,,*59
06/15/2015	08:05:55.513	$GPGGA,080556,2420.5414,N,08049.0044,W,1,8,1.8,17,M,,M,,*5C
06/15/2015	08:05:56.623	$GPGGA,080557,2420.5424,N,08049.0061,W,1,8,1.8,17,M,,M,,*59
06/15/2015	08:05:57.513	$GPGGA,080558,2420.5435,N,08049.0077,W,1,8,1.8,17,M,,M,,*51
06/15/2015	08:05:58.503	$GPGGA,080559,2420.5445,N,08049.0094,W,1,8,1.8,17,M,,M,,*5A
06/15/2015	08:05:59.643	$GPGGA,080600,2420.5453,N,08049.0110,W,1,8,1.8,17,M,,M,,*5F
06/15/2015	08:06:00.513	$GPGGA,080601,2420.5463,N,08049.0127,W,1,8,1.8,17,M,,M,,*59
06/15/2015	08:06:01.613	$GPGGA,080602,2420.5472,N,08049.0144,W,1,8,1.8,17,M,,M,,*5F
06/15/2015	08:06:02.503	$GPGGA,080603,2420.5482,N,08049.0159,W,1,8,1.8,17,M,,M,,*5D
06/15/2015	08:06:03.603	$GPGGA,080604,2420.5492,N,08049.0177,W,1,8,1.8,17,M,,M,,*57
06/15/2015	08:06:04.513	$GPGGA,080605,2420.5501,N,08049.0192,W,1,8,1.8,17,M,,M,,*56
06/15/2015	08:06:05.623	$GPGGA,080606,2420.5511,N,08049.0210,W,1,8,1.8,17,M,,M,,*5D
06/15/2015	08:06:06.583	$GPGGA,080607,2420.5521,N,08049.0225,W,1,8,1.8,17,M,,M,,*59
06/15/2015	08:06:07.623	$GPGGA,080608,2420.5531,N,08049.0242,W,1,8,1.8,17,M,,M,,*56
06/15/2015	08:06:08.593	$GPGGA,080609,2420.5539,N,08049.0257,W,1,8,1.8,17,M,,M,,*5B
06/15/2015	08:06:09.583	$GPGGA,080610,2420.5547,N,08049.0275,W,1,8,1.8,17,M,,M,,*5A
06/15/2015	08:06:10.483	$GPGGA,080611,2420.5557,N,08049.0293,W,1,8,1.8,17,M,,M,,*52
06/15/2015	08:06:11.643	$GPGGA,080612,2420.5566,N,08049.0309,W,1,8,1.8,17,M,,M,,*51
06/15/2015	08:06:12.583	$GPGGA,080613,2420.5576,N,08049.0325,W,1,8,1.8,17,M,,M,,*5F
06/15/2015	08:06:13.578	$GPGGA,080614,2420.5583,N,08049.0341,W,1,9,1.6,17,M,,M,,*5F
06/15/2015	08:06:14.577	$GPGGA,080615,2420.5594,N,08049.0358,W,1,9,1.8,17,M,,M,,*5E
06/15/2015	08:06:15.575	$GPGGA,080616,2420.5604,N,08049.0374,W,1,8,1.8,17,M,,M,,*58
06/15/2015	08:06:16.577	$GPGGA,080617,2420.5612,N,08049.0391,W,1,8,1.8,17,M,,M,,*55
06/15/2015	08:06:17.564	$GPGGA,080618,2420.5620,N,08049.0408,W,1,8,1.8,17,M,,M,,*5C
06/15/2015	08:06:18.567	$GPGGA,080619,2420.5630,N,08049.0426,W,1,8,1.8,17,M,,M,,*50
06/15/2015	08:06:19.613	$GPGGA,080620,2420.5641,N,08049.0441,W,1,8,1.8,17,M,,M,,*5D
06/15/2015	08:06:20.553	$GPGGA,080621,2420.5648,N,08049.0457,W,1,8,1.6,17,M,,M,,*5C
06/15/2015	08:06:21.593	$GPGGA,080622,2420.5658,N,08049.0473,W,1,9,1.6,17,M,,M,,*59
06/15/2015	08:06:22.543	$GPGGA,080623,2420.5667,N,08049.0488,W,1,9,1.6,17,M,,M,,*50
06/15/2015	08:06:23.593	$GPGGA,080624,2420.5676,N,08049.0506,W,1,9,1.6,17,M,,M,,*50
06/15/2015	08:06:24.553	$GPGGA,080625,2420.5685,N,08049.0524,W,1,9,1.8,17,M,,M,,*53
06/15/2015	08:06:25.576	$GPGGA,080626,2420.5694,N,08049.0539,W,1,8,1.8,17,M,,M,,*5D
06/15/2015	08:06:26.553	$GPGGA,080627,2420.5703,N,08049.0556,W,1,8,1.8,17,M,,M,,*5A
06/15/2015	08:06:27.583	$GPGGA,080628,2420.5712,N,08049.0571,W,1,8,1.8,17,M,,M,,*50
06/15/2015	08:06:28.533	$GPGGA,080629,2420.5721,N,08049.0587,W,1,8,1.8,17,M,,M,,*58
06/15/2015	08:06:29.571	$GPGGA,080630,2420.5730,N,08049.0603,W,1,8,1.8,17,M,,M,,*5F
06/15/2015	08:06:30.543	$GPGGA,080631,2420.5739,N,08049.0618,W,1,8,1.6,17,M,,M,,*53
06/15/2015	08:06:31.565	$GPGGA,080632,2420.5750,N,08049.0636,W,1,9,1.6,17,M,,M,,*52
06/15/2015	08:06:32.533	$GPGGA,080633,2420.5760,N,08049.0654,W,1,9,1.8,17,M,,M,,*5A
06/15/2015	08:06:33.567	$GPGGA,080634,2420.5768,N,08049.0670,W,1,8,1.8,17,M,,M,,*52
06/15/2015	08:06:34.543	$GPGGA,080635,2420.5778,N,08049.0686,W,1,8,1.8,17,M,,M,,*5B
06/15/2015	08:06:35.543	$GPGGA,080636,2420.5789,N,08049.0701,W,1,8,1.8,17,M,,M,,*58
06/15/2015	08:06:36.533	$GPGGA,080637,2420.5799,N,08049.0716,W,1,8,1.8,17,M,,M,,*5E
06/15/2015	08:06:37.533	$GPGGA,080638,2420.5807,N,08049.0733,W,1,8,1.8,17,M,,M,,*5E
06/15/2015	08:06:38.533	$GPGGA,080639,2420.5818,N,08049.0751,W,1,8,1.8,17,M,,M,,*55
06/15/2015	08:06:39.564	$GPGGA,080640,2420.5829,N,08049.0767,W,1,8,1.8,17,M,,M,,*5C
06/15/2015	08:06:40.513	$GPGGA,080641,2420.5839,N,08049.0784,W,1,8,1.8,17,M,,M,,*51
06/15/2015	08:06:41.543	$GPGGA,080642,2420.5847,N,08049.0802,W,1,8,1.8,17,M,,M,,*5A
06/15/2015	08:06:42.513	$GPGGA,080643,2420.5858,N,08049.0816,W,1,8,1.8,17,M,,M,,*50
06/15/2015	08:06:43.663	$GPGGA,080644,2420.5869,N,08049.0831,W,1,8,1.8,17,M,,M,,*50
06/15/2015	08:06:44.513	$GPGGA,080645,2420.5876,N,08049.0845,W,1,8,1.8,17,M,,M,,*5C
06/15/2015	08:06:45.513	$GPGGA,080646,2420.5886,N,08049.0861,W,1,8,1.8,17,M,,M,,*56
06/15/2015	08:06:46.623	$GPGGA,080647,2420.5897,N,08049.0876,W,1,8,1.6,17,M,,M,,*5F
06/15/2015	08:06:47.613	$GPGGA,080648,2420.5908,N,08049.0893,W,1,9,1.8,17,M,,M,,*53
06/15/2015	08:06:48.493	$GPGGA,080649,2420.5916,N,08049.0912,W,1,9,1.8,17,M,,M,,*55
06/15/2015	08:06:49.633	$GPGGA,080650,2420.5925,N,08049.0930,W,1,8,1.8,17,M,,M,,*5C
06/15/2015	08:06:50.603	$GPGGA,080651,2420.5934,N,08049.0947,W,1,8,1.8,17,M,,M,,*5D
06/15/2015	08:06:51.523	$GPGGA,080652,2420.5947,N,08049.0961,W,1,8,1.8,17,M,,M,,*5E
06/15/2015	08:06:52.483	$GPGGA,080653,2420.5955,N,08049.0977,W,1,8,1.8,17,M,,M,,*5B
06/15/2015	08:06:53.593	$GPGGA,080654,2420.5962,N,08049.0993,W,1,8,1.8,17,M,,M,,*52
06/15/2015	08:06:54.503	$GPGGA,080655,2420.5973,N,08049.1008,W,1,8,1.8,17,M,,M,,*59
06/15/2015	08:06:55.503	$GPGGA,080656,2420.5983,N,08049.1023,W,1,8,1.8,16,M,,M,,*5D
06/15/2015	08:06:56.583	$GPGGA,080657,2420.5991,N,08049.1041,W,1,8,1.8,16,M,,M,,*5B
06/15/2015	08:06:57.593	$GPGGA,080658,2420.6001,N,08049.1059,W,1,8,1.8,16,M,,M,,*5E
06/15/2015	08:06:58.483	$GPGGA,080659,2420.6010,N,08049.1077,W,1,8,1.8,16,M,,M,,*53
06/15/2015	08:06:59.623	$GPGGA,080700,2420.6021,N,08049.1095,W,1,8,1.8,16,M,,M,,*50
06/15/2015	08:07:00.576	$GPGGA,080701,2420.6028,N,08049.1110,W,1,8,1.8,16,M,,M,,*54
06/15/2015	08:07:01.593	$GPGGA,080702,2420.6039,N,08049.1125,W,1,8,1.6,16,M,,M,,*5F
06/15/2015	08:07:02.573	$GPGGA,080703,2420.6048,N,08049.1141,W,1,8,1.6,16,M,,M,,*5A
06/15/2015	08:07:03.613	$GPGGA,080704,2420.6056,N,08049.1156,W,1,9,1.6,16,M,,M,,*55
06/15/2015	08:07:04.574	$GPGGA,080705,2420.6064,N,08049.1174,W,1,9,1.8,16,M,,M,,*5B
06/15/2015	08:07:06.603	$GPGGA,080707,2420.6085,N,08049.1208,W,1,8,1.8,16,M,,M,,*5F
06/15/2015	08:07:07.603	$GPGGA,080708,2420.6093,N,08049.1225,W,1,8,1.8,16,M,,M,,*58
06/15/2015	08:07:08.567	$GPGGA,080709,2420.6100,N,08049.1240,W,1,8,1.6,16,M,,M,,*5F
06/15/2015	08:07:09.573	$GPGGA,080710,2420.6111,N,08049.1255,W,1,9,1.8,16,M,,M,,*5C
06/15/2015	08:07:10.563	$GPGGA,080711,2420.6118,N,08049.1269,W,1,9,1.6,16,M,,M,,*55
06/15/2015	08:07:11.593	$GPGGA,080712,2420.6128,N,08049.1286,W,1,9,1.8,16,M,,M,,*5A
06/15/2015	08:07:12.553	$GPGGA,080713,2420.6138,N,08049.1302,W,1,9,1.8,16,M,,M,,*57
06/15/2015	08:07:13.553	$GPGGA,080714,2420.6147,N,08049.1319,W,1,8,1.8,16,M,,M,,*53
06/15/2015	08:07:14.553	$GPGGA,080715,2420.6157,N,08049.1335,W,1,8,1.8,16,M,,M,,*5D
06/15/2015	08:07:15.623	$GPGGA,080716,2420.6167,N,08049.1351,W,1,8,1.8,16,M,,M,,*5F
06/15/2015	08:07:16.543	$GPGGA,080717,2420.6176,N,08049.1367,W,1,8,1.8,16,M,,M,,*5B
06/15/2015	08:07:17.574	$GPGGA,080718,2420.6186,N,08049.1384,W,1,8,1.8,16,M,,M,,*56
06/15/2015	08:07:18.553	$GPGGA,080719,2420.6196,N,08049.1400,W,1,8,1.8,16,M,,M,,*5D
06/15/2015	08:07:19.575	$GPGGA,080720,2420.6205,N,08049.1416,W,1,8,1.8,16,M,,M,,*59
06/15/2015	08:07:20.543	$GPGGA,080721,2420.6215,N,08049.1432,W,1,8,1.8,16,M,,M,,*5F
06/15/2015	08:07:21.523	$GPGGA,080722,2420.6223,N,08049.1449,W,1,8,1.8,16,M,,M,,*55
06/15/2015	08:07:22.543	$GPGGA,080723,2420.6233,N,08049.1465,W,1,8,1.8,16,M,,M,,*5B
06/15/2015	08:07:23.574	$GPGGA,080724,2420.6244,N,08049.1481,W,1,8,1.8,16,M,,M,,*56
06/15/2015	08:07:24.533	$GPGGA,080725,2420.6252,N,08049.1496,W,1,8,1.8,16,M,,M,,*56
06/15/2015	08:07:25.553	$GPGGA,080726,2420.6262,N,08049.1514,W,1,8,1.8,16,M,,M,,*5D
06/15/2015	08:07:26.533	$GPGGA,080727,2420.6272,N,08049.1530,W,1,8,1.8,16,M,,M,,*5B
06/15/2015	08:07:27.613	$GPGGA,080728,2420.6281,N,08049.1547,W,1,8,1.8,16,M,,M,,*58
06/15/2015	08:07:28.513	$GPGGA,080729,2420.6291,N,08049.1564,W,1,8,1.8,16,M,,M,,*59
06/15/2015	08:07:29.533	$GPGGA,080730,2420.6299,N,08049.1580,W,1,8,1.8,16,M,,M,,*53
06/15/2015	08:07:30.543	$GPGGA,080731,2420.6308,N,08049.1595,W,1,8,1.8,16,M,,M,,*5F
06/15/2015	08:07:31.553	$GPGGA,080732,2420.6317,N,08049.1611,W,1,8,1.8,16,M,,M,,*5D
06/15/2015	08:07:32.513	$GPGGA,080733,2420.6326,N,08049.1626,W,1,8,1.8,16,M,,M,,*5A
06/15/2015	08:07:33.503	$GPGGA,080734,2420.6335,N,08049.1644,W,1,8,1.9,15,M,,M,,*59
06/15/2015	08:07:34.533	$GPGGA,080735,2420.6345,N,08049.1660,W,1,8,1.9,15,M,,M,,*59
06/15/2015	08:07:35.633	$GPGGA,080736,2420.6353,N,08049.1677,W,1,8,1.9,15,M,,M,,*5B
06/15/2015	08:07:36.533	$GPGGA,080737,2420.6362,N,08049.1694,W,1,8,1.9,15,M,,M,,*55
06/15/2015	08:07:37.623	$GPGGA,080738,2420.6373,N,08049.1709,W,1,8,1.9,15,M,,M,,*5F
06/15/2015	08:07:38.523	$GPGGA,080739,2420.6382,N,08049.1725,W,1,8,1.9,15,M,,M,,*5E
06/15/2015	08:07:39.553	$GPGGA,080740,2420.6391,N,08049.1741,W,1,8,1.9,15,M,,M,,*50
06/15/2015	08:07:40.603	$GPGGA,080741,2420.6400,N,08049.1757,W,1,8,1.9,15,M,,M,,*59
06/15/2015	08:07:41.593	$GPGGA,080742,2420.6411,N,08049.1774,W,1,8,1.9,15,M,,M,,*5B
06/15/2015	08:07:42.503	$GPGGA,080743,2420.6421,N,08049.1792,W,1,8,1.9,15,M,,M,,*51
06/15/2015	08:07:43.593	$GPGGA,080744,2420.6431,N,08049.1808,W,1,8,1.9,15,M,,M,,*5B
06/15/2015	08:07:44.593	$GPGGA,080745,2420.6440,N,08049.1825,W,1,8,1.9,15,M,,M,,*53
06/15/2015	08:07:45.493	$GPGGA,080746,2420.6450,N,08049.1842,W,1,8,1.9,15,M,,M,,*50
06/15/2015	08:07:46.575	$GPGGA,080747,2420.6458,N,08049.1858,W,1,8,1.9,15,M,,M,,*52
06/15/2015	08:07:47.583	$GPGGA,080748,2420.6469,N,08049.1875,W,1,8,1.9,15,M,,M,,*50
06/15/2015	08:07:48.575	$GPGGA,080749,2420.6479,N,08049.1891,W,1,8,1.9,15,M,,M,,*5A
06/15/2015	08:07:49.583	$GPGGA,080750,2420.6489,N,08049.1908,W,1,8,1.9,15,M,,M,,*5C
06/15/2015	08:07:50.593	$GPGGA,080751,2420.6497,N,08049.1925,W,1,8,1.9,15,M,,M,,*5D
06/15/2015	08:07:51.613	$GPGGA,080752,2420.6508,N,08049.1941,W,1,8,1.9,15,M,,M,,*5B
06/15/2015	08:07:52.575	$GPGGA,080753,2420.6519,N,08049.1958,W,1,8,1.9,15,M,,M,,*52
06/15/2015	08:07:53.575	$GPGGA,080754,2420.6530,N,08049.1973,W,1,8,1.9,15,M,,M,,*57
06/15/2015	08:07:54.563	$GPGGA,080755,2420.6537,N,08049.1990,W,1,8,1.9,15,M,,M,,*5C
06/15/2015	08:07:55.593	$GPGGA,080756,2420.6548,N,08049.2005,W,1,8,1.9,15,M,,M,,*51
06/15/2015	08:07:56.565	$GPGGA,080757,2420.6558,N,08049.2020,W,1,8,1.9,15,M,,M,,*56
06/15/2015	08:07:57.573	$GPGGA,080758,2420.6568,N,08049.2035,W,1,8,1.9,15,M,,M,,*5E
06/15/2015	08:07:58.563	$GPGGA,080759,2420.6577,N,08049.2052,W,1,8,1.9,14,M,,M,,*51
06/15/2015	08:07:59.603	$GPGGA,080800,2420.6588,N,08049.2068,W,1,8,1.9,14,M,,M,,*5B
06/15/2015	08:08:00.553	$GPGGA,080801,2420.6598,N,08049.2084,W,1,8,1.9,14,M,,M,,*59
06/15/2015	08:08:01.553	$GPGGA,080802,2420.6608,N,08049.2099,W,1,8,1.9,14,M,,M,,*5C
06/15/2015	08:08:02.553	$GPGGA,080803,2420.6617,N,08049.2115,W,1,8,1.9,14,M,,M,,*56
06/15/2015	08:08:03.583	$GPGGA,080804,2420.6626,N,08049.2132,W,1,8,1.9,14,M,,M,,*56
06/15/2015	08:08:04.553	$GPGGA,080805,2420.6637,N,08049.2147,W,1,8,1.9,14,M,,M,,*55
06/15/2015	08:08:05.543	$GPGGA,080806,2420.6646,N,08049.2164,W,1,8,1.9,14,M,,M,,*51
06/15/2015	08:08:06.543	$GPGGA,080807,2420.6656,N,08049.2180,W,1,8,1.9,14,M,,M,,*5B
06/15/2015	08:08:07.566	$GPGGA,080808,2420.6664,N,08049.2197,W,1,8,1.9,14,M,,M,,*53
06/15/2015	08:08:08.533	$GPGGA,080809,2420.6674,N,08049.2212,W,1,8,1.9,14,M,,M,,*5D
06/15/2015	08:08:09.543	$GPGGA,080810,2420.6685,N,08049.2229,W,1,8,1.9,14,M,,M,,*53
06/15/2015	08:08:10.533	$GPGGA,080811,2420.6695,N,08049.2244,W,1,8,1.9,14,M,,M,,*58
06/15/2015	08:08:11.553	$GPGGA,080812,2420.6703,N,08049.2262,W,1,8,1.9,14,M,,M,,*51
06/15/2015	08:08:12.533	$GPGGA,080813,2420.6711,N,08049.2279,W,1,8,1.9,14,M,,M,,*59
06/15/2015	08:08:13.523	$GPGGA,080814,2420.6721,N,08049.2294,W,1,8,1.9,14,M,,M,,*5E
06/15/2015	08:08:14.623	$GPGGA,080815,2420.6729,N,08049.2310,W,1,8,1.9,14,M,,M,,*5A
06/15/2015	08:08:15.533	$GPGGA,080816,2420.6736,N,08049.2327,W,1,8,1.9,14,M,,M,,*53
06/15/2015	08:08:16.513	$GPGGA,080817,2420.6747,N,08049.2342,W,1,8,1.9,14,M,,M,,*57
06/15/2015	08:08:17.533	$GPGGA,080818,2420.6757,N,08049.2359,W,1,8,1.9,14,M,,M,,*53
06/15/2015	08:08:18.533	$GPGGA,080819,2420.6765,N,08049.2375,W,1,8,1.9,14,M,,M,,*5D
06/15/2015	08:08:19.543	$GPGGA,080820,2420.6774,N,08049.2392,W,1,8,1.9,14,M,,M,,*5E
06/15/2015	08:08:20.503	$GPGGA,080821,2420.6783,N,08049.2408,W,1,8,1.9,14,M,,M,,*53
06/15/2015	08:08:21.513	$GPGGA,080822,2420.6793,N,08049.2424,W,1,8,1.9,14,M,,M,,*5F
06/15/2015	08:08:22.503	$GPGGA,080823,2420.6801,N,08049.2439,W,1,8,1.9,14,M,,M,,*56
06/15/2015	08:08:23.513	$GPGGA,080824,2420.6810,N,08049.2456,W,1,8,1.9,14,M,,M,,*58
06/15/2015	08:08:24.493	$GPGGA,080825,2420.6819,N,08049.2472,W,1,8,1.9,14,M,,M,,*56
06/15/2015	08:08:26.543	$GPGGA,080827,2420.6837,N,08049.2507,W,1,8,1.9,14,M,,M,,*5B
06/15/2015	08:08:27.603	$GPGGA,080828,2420.6847,N,08049.2523,W,1,8,1.9,14,M,,M,,*55
06/15/2015	08:08:28.583	$GPGGA,080829,2420.6855,N,08049.2540,W,1,8,1.9,14,M,,M,,*52
06/15/2015	08:08:29.493	$GPGGA,080830,2420.6862,N,08049.2555,W,1,8,1.9,14,M,,M,,*5A
06/15/2015	08:08:30.593	$GPGGA,080831,2420.6872,N,08049.2570,W,1,8,1.9,14,M,,M,,*5D
06/15/2015	08:08:31.503	$GPGGA,080832,2420.6880,N,08049.2587,W,1,8,1.9,13,M,,M,,*5C
06/15/2015	08:08:32.576	$GPGGA,080833,2420.6890,N,08049.2603,W,1,8,1.9,13,M,,M,,*53
06/15/2015	08:08:33.593	$GPGGA,080834,2420.6899,N,08049.2620,W,1,8,1.9,13,M,,M,,*5C
06/15/2015	08:08:34.576	$GPGGA,080835,2420.6908,N,08049.2638,W,1,8,1.9,13,M,,M,,*5D
06/15/2015	08:08:35.593	$GPGGA,080836,2420.6917,N,08049.2655,W,1,8,1.9,13,M,,M,,*5B
06/15/2015	08:08:36.578	$GPGGA,080837,2420.6926,N,08049.2671,W,1,8,1.9,13,M,,M,,*5E
06/15/2015	08:08:37.603	$GPGGA,080838,2420.6935,N,08049.2688,W,1,8,1.9,13,M,,M,,*55
06/15/2015	08:08:38.569	$GPGGA,080839,2420.6944,N,08049.2703,W,1,8,1.9,13,M,,M,,*50
06/15/2015	08:08:39.593	$GPGGA,080840,2420.6953,N,08049.2720,W,1,8,1.9,13,M,,M,,*59
06/15/2015	08:08:40.578	$GPGGA,080841,2420.6962,N,08049.2735,W,1,8,1.9,13,M,,M,,*5E
06/15/2015	08:08:41.575	$GPGGA,080842,2420.6971,N,08049.2751,W,1,8,1.9,13,M,,M,,*5D
06/15/2015	08:08:42.566	$GPGGA,080843,2420.6981,N,08049.2768,W,1,8,1.9,13,M,,M,,*59
06/15/2015	08:08:43.603	$GPGGA,080844,2420.6989,N,08049.2785,W,1,8,1.9,13,M,,M,,*55
06/15/2015	08:08:44.566	$GPGGA,080845,2420.6999,N,08049.2803,W,1,8,1.9,13,M,,M,,*54
06/15/2015	08:08:45.583	$GPGGA,080846,2420.7009,N,08049.2818,W,1,8,1.9,13,M,,M,,*5C
06/15/2015	08:08:46.553	$GPGGA,080847,2420.7018,N,08049.2833,W,1,8,1.9,13,M,,M,,*54
06/15/2015	08:08:47.593	$GPGGA,080848,2420.7027,N,08049.2850,W,1,8,1.9,13,M,,M,,*52
06/15/2015	08:08:48.553	$GPGGA,080849,2420.7036,N,08049.2866,W,1,8,1.9,13,M,,M,,*56
06/15/2015	08:08:49.543	$GPGGA,080850,2420.7046,N,08049.2883,W,1,8,1.9,13,M,,M,,*52
06/15/2015	08:08:50.553	$GPGGA,080851,2420.7054,N,08049.2898,W,1,8,1.9,13,M,,M,,*5A
06/15/2015	08:08:51.576	$GPGGA,080852,2420.7064,N,08049.2915,W,1,8,1.9,13,M,,M,,*5E
06/15/2015	08:08:52.533	$GPGGA,080853,2420.7074,N,08049.2931,W,1,8,1.9,13,M,,M,,*58
06/15/2015	08:08:53.533	$GPGGA,080854,2420.7083,N,08049.2948,W,1,8,1.9,13,M,,M,,*59
06/15/2015	08:08:54.543	$GPGGA,080855,2420.7094,N,08049.2966,W,1,8,1.9,13,M,,M,,*52
06/15/2015	08:08:55.574	$GPGGA,080856,2420.7104,N,08049.2981,W,1,8,1.9,13,M,,M,,*50
06/15/2015	08:08:56.533	$GPGGA,080857,2420.7115,N,08049.2999,W,1,8,1.9,13,M,,M,,*58
06/15/2015	08:08:57.563	$GPGGA,080858,2420.7123,N,08049.3016,W,1,8,1.9,13,M,,M,,*5D
06/15/2015	08:08:58.533	$GPGGA,080859,2420.7133,N,08049.3031,W,1,8,1.9,13,M,,M,,*58
06/15/2015	08:08:59.583	$GPGGA,080900,2420.7144,N,08049.3046,W,1,8,1.9,13,M,,M,,*55
06/15/2015	08:09:00.533	$GPGGA,080901,2420.7155,N,08049.3063,W,1,8,1.9,13,M,,M,,*53
06/15/2015	08:09:01.553	$GPGGA,080902,2420.7164,N,08049.3078,W,1,8,1.9,13,M,,M,,*58
06/15/2015	08:09:02.513	$GPGGA,080903,2420.7173,N,08049.3094,W,1,8,1.9,13,M,,M,,*5D
06/15/2015	08:09:03.643	$GPGGA,080904,2420.7184,N,08049.3111,W,1,8,1.9,13,M,,M,,*5E
06/15/2015	08:09:04.513	$GPGGA,080905,2420.7195,N,08049.3129,W,1,8,1.7,13,M,,M,,*5A
06/15/2015	08:09:05.533	$GPGGA,080906,2420.7205,N,08049.3147,W,1,8,1.7,13,M,,M,,*5B
06/15/2015	08:09:06.513	$GPGGA,080907,2420.7215,N,08049.3163,W,1,8,1.7,13,M,,M,,*5D
06/15/2015	08:09:07.543	$GPGGA,080908,2420.7224,N,08049.3180,W,1,8,1.7,13,M,,M,,*5D
06/15/2015	08:09:08.603	$GPGGA,080909,2420.7234,N,08049.3197,W,1,8,1.7,13,M,,M,,*5B
06/15/2015	08:09:09.503	$GPGGA,080910,2420.7242,N,08049.3212,W,1,8,1.7,13,M,,M,,*5C
06/15/2015	08:09:10.513	$GPGGA,080911,2420.7252,N,08049.3228,W,1,8,1.7,13,M,,M,,*55
06/15/2015	08:09:11.513	$GPGGA,080912,2420.7262,N,08049.3245,W,1,8,1.7,13,M,,M,,*5E
06/15/2015	08:09:12.493	$GPGGA,080913,2420.7271,N,08049.3262,W,1,8,1.7,13,M,,M,,*58
06/15/2015	08:09:13.493	$GPGGA,080914,2420.7280,N,08049.3280,W,1,8,1.7,14,M,,M,,*5A
06/15/2015	08:09:14.603	$GPGGA,080915,2420.7289,N,08049.3296,W,1,8,1.7,14,M,,M,,*55
06/15/2015	08:09:15.603	$GPGGA,080916,2420.7298,N,08049.3314,W,1,8,1.7,14,M,,M,,*5D
06/15/2015	08:09:16.503	$GPGGA,080917,2420.7306,N,08049.3331,W,1,8,1.7,14,M,,M,,*5D
06/15/2015	08:09:17.603	$GPGGA,080918,2420.7316,N,08049.3346,W,1,8,1.7,14,M,,M,,*53
06/15/2015	08:09:18.494	$GPGGA,080919,2420.7325,N,08049.3363,W,1,8,1.9,14,M,,M,,*5B
06/15/2015	08:09:19.503	$GPGGA,080920,2420.7332,N,08049.3379,W,1,8,1.7,14,M,,M,,*52
06/15/2015	08:09:20.593	$GPGGA,080921,2420.7343,N,08049.3396,W,1,8,1.7,14,M,,M,,*54
06/15/2015	08:09:21.613	$GPGGA,080922,2420.7354,N,08049.3412,W,1,8,1.7,14,M,,M,,*5A
06/15/2015	08:09:22.579	$GPGGA,080923,2420.7363,N,08049.3430,W,1,8,1.7,14,M,,M,,*5F
06/15/2015	08:09:23.613	$GPGGA,080924,2420.7372,N,08049.3447,W,1,8,1.7,14,M,,M,,*58
06/15/2015	08:09:24.576	$GPGGA,080925,2420.7381,N,08049.3464,W,1,8,1.7,14,M,,M,,*54
06/15/2015	08:09:25.568	$GPGGA,080926,2420.7390,N,08049.3479,W,1,8,1.7,14,M,,M,,*5B
06/15/2015	08:09:26.574	$GPGGA,080927,2420.7397,N,08049.3494,W,1,8,1.9,14,M,,M,,*50
06/15/2015	08:09:27.613	$GPGGA,080928,2420.7407,N,08049.3511,W,1,8,1.7,14,M,,M,,*53
06/15/2015	08:09:28.575	$GPGGA,080929,2420.7415,N,08049.3527,W,1,8,1.7,14,M,,M,,*54
06/15/2015	08:09:29.583	$GPGGA,080930,2420.7426,N,08049.3544,W,1,8,1.7,14,M,,M,,*59
06/15/2015	08:09:30.577	$GPGGA,080931,2420.7437,N,08049.3562,W,1,8,1.7,14,M,,M,,*5C
06/15/2015	08:09:31.583	$GPGGA,080932,2420.7446,N,08049.3577,W,1,8,1.7,14,M,,M,,*5D
06/15/2015	08:09:32.566	$GPGGA,080933,2420.7455,N,08049.3594,W,1,8,1.7,14,M,,M,,*53
06/15/2015	08:09:33.576	$GPGGA,080934,2420.7465,N,08049.3607,W,1,8,1.7,15,M,,M,,*5F
06/15/2015	08:09:34.563	$GPGGA,080935,2420.7475,N,08049.3623,W,1,8,1.7,15,M,,M,,*59
06/15/2015	08:09:35.877	$GPGGA,080936,2420.7484,N,08049.3638,W,1,8,1.7,15,M,,M,,*5E
06/15/2015	08:09:36.570	$GPGGA,080937,2420.7494,N,08049.3653,W,1,8,1.7,15,M,,M,,*53
06/15/2015	08:09:37.543	$GPGGA,080938,2420.7505,N,08049.3670,W,1,8,1.7,15,M,,M,,*54
06/15/2015	08:09:38.553	$GPGGA,080939,2420.7516,N,08049.3685,W,1,8,1.7,15,M,,M,,*5D
06/15/2015	08:09:39.593	$GPGGA,080940,2420.7526,N,08049.3703,W,1,8,1.7,15,M,,M,,*5F
06/15/2015	08:09:40.543	$GPGGA,080941,2420.7536,N,08049.3718,W,1,8,1.7,15,M,,M,,*55
06/15/2015	08:09:41.543	$GPGGA,080942,2420.7547,N,08049.3733,W,1,8,1.7,15,M,,M,,*59
06/15/2015	08:09:42.543	$GPGGA,080943,2420.7558,N,08049.3748,W,1,8,1.7,15,M,,M,,*5A
06/15/2015	08:09:43.567	$GPGGA,080944,2420.7567,N,08049.3764,W,1,9,1.4,15,M,,M,,*5D
06/15/2015	08:09:44.533	$GPGGA,080945,2420.7577,N,08049.3780,W,1,9,1.4,15,M,,M,,*57
06/15/2015	08:09:45.553	$GPGGA,080946,2420.7588,N,08049.3797,W,1,8,1.7,15,M,,M,,*50
06/15/2015	08:09:46.533	$GPGGA,080947,2420.7599,N,08049.3813,W,1,8,1.4,15,M,,M,,*51
06/15/2015	08:09:47.533	$GPGGA,080948,2420.7609,N,08049.3829,W,1,10,1.4,15,M,,M,,*64
06/15/2015	08:09:48.668	$GPGGA,080949,2420.7617,N,08049.3845,W,1,10,1.4,15,M,,M,,*60
06/15/2015	08:09:49.713	$GPGGA,080950,2420.7628,N,08049.3862,W,1,10,1.4,15,M,,M,,*61
06/15/2015	08:09:50.523	$GPGGA,080951,2420.7639,N,08049.3877,W,1,10,1.4,15,M,,M,,*64
06/15/2015	08:09:51.533	$GPGGA,080952,2420.7649,N,08049.3892,W,1,9,1.7,15,M,,M,,*50
06/15/2015	08:09:52.653	$GPGGA,080953,2420.7657,N,08049.3909,W,1,9,1.7,15,M,,M,,*5D
06/15/2015	08:09:53.693	$GPGGA,080954,2420.7668,N,08049.3923,W,1,9,1.7,15,M,,M,,*5E
06/15/2015	08:09:54.603	$GPGGA,080955,2420.7678,N,08049.3938,W,1,9,1.7,15,M,,M,,*54
06/15/2015	08:09:55.523	$GPGGA,080956,2420.7686,N,08049.3956,W,1,10,1.4,16,M,,M,,*66
06/15/2015	08:09:56.603	$GPGGA,080957,2420.7697,N,08049.3972,W,1,10,1.7,16,M,,M,,*62
06/15/2015	08:09:57.503	$GPGGA,080958,2420.7707,N,08049.3989,W,1,9,1.7,16,M,,M,,*59
06/15/2015	08:09:58.503	$GPGGA,080959,2420.7717,N,08049.4006,W,1,9,1.7,16,M,,M,,*50
06/15/2015	08:09:59.564	$GPGGA,081000,2420.7726,N,08049.4021,W,1,9,1.7,16,M,,M,,*53
06/15/2015	08:10:00.603	$GPGGA,081001,2420.7736,N,08049.4036,W,1,9,1.7,16,M,,M,,*55
06/15/2015	08:10:01.493	$GPGGA,081002,2420.7744,N,08049.4053,W,1,9,1.7,16,M,,M,,*50
06/15/2015	08:10:02.603	$GPGGA,081003,2420.7753,N,08049.4069,W,1,9,1.7,16,M,,M,,*5E
06/15/2015	08:10:03.723	$GPGGA,081004,2420.7762,N,08049.4086,W,1,9,1.7,16,M,,M,,*5A
06/15/2015	08:10:04.623	$GPGGA,081005,2420.7772,N,08049.4104,W,1,9,1.7,16,M,,M,,*51
06/15/2015	08:10:05.493	$GPGGA,081006,2420.7783,N,08049.4122,W,1,8,1.8,16,M,,M,,*56
06/15/2015	08:10:06.483	$GPGGA,081007,2420.7793,N,08049.4140,W,1,8,1.7,16,M,,M,,*5D
06/15/2015	08:10:07.683	$GPGGA,081008,2420.7802,N,08049.4158,W,1,9,1.7,16,M,,M,,*5D
06/15/2015	08:10:08.563	$GPGGA,081009,2420.7813,N,08049.4173,W,1,9,1.7,16,M,,M,,*55
06/15/2015	08:10:09.663	$GPGGA,081010,2420.7823,N,08049.4189,W,1,9,1.7,16,M,,M,,*5B
06/15/2015	08:10:10.566	$GPGGA,081011,2420.7831,N,08049.4206,W,1,9,1.7,16,M,,M,,*5D
06/15/2015	08:10:11.992	$GPGGA,081012,2420.7838,N,08049.4223,W,1,9,1.7,16,M,,M,,*50
06/15/2015	08:10:13.132	$GPGGA,081013,2420.7849,N,08049.4239,W,1,9,1.7,16,M,,M,,*5C
06/15/2015	08:10:13.553	$GPGGA,081014,2420.7859,N,08049.4256,W,1,9,1.7,16,M,,M,,*53
06/15/2015	08:10:14.592	$GPGGA,081015,2420.7867,N,08049.4274,W,1,9,1.7,16,M,,M,,*5F
06/15/2015	08:10:15.670	$GPGGA,081016,2420.7876,N,08049.4292,W,1,9,1.7,16,M,,M,,*54
06/15/2015	08:10:16.602	$GPGGA,081017,2420.7887,N,08049.4308,W,1,9,1.7,16,M,,M,,*59
06/15/2015	08:10:17.665	$GPGGA,081018,2420.7895,N,08049.4325,W,1,9,1.7,16,M,,M,,*5A
06/15/2015	08:10:19.032	$GPGGA,081019,2420.7903,N,08049.4342,W,1,9,1.7,16,M,,M,,*54
06/15/2015	08:10:19.672	$GPGGA,081020,2420.7912,N,08049.4357,W,1,9,1.7,16,M,,M,,*5A
06/15/2015	08:10:20.572	$GPGGA,081021,2420.7921,N,08049.4372,W,1,9,1.7,16,M,,M,,*5C
06/15/2015	08:10:21.659	$GPGGA,081022,2420.7930,N,08049.4387,W,1,9,1.7,16,M,,M,,*55
06/15/2015	08:10:22.569	$GPGGA,081023,2420.7938,N,08049.4404,W,1,9,1.7,16,M,,M,,*50
06/15/2015	08:10:23.553	$GPGGA,081024,2420.7948,N,08049.4420,W,1,9,1.7,16,M,,M,,*56
06/15/2015	08:10:24.572	$GPGGA,081025,2420.7957,N,08049.4436,W,1,9,1.7,16,M,,M,,*5E
06/15/2015	08:10:25.623	$GPGGA,081026,2420.7966,N,08049.4454,W,1,9,1.7,16,M,,M,,*5B
06/15/2015	08:10:26.571	$GPGGA,081027,2420.7975,N,08049.4470,W,1,9,1.7,16,M,,M,,*5E
06/15/2015	08:10:27.654	$GPGGA,081028,2420.7985,N,08049.4487,W,1,9,1.7,16,M,,M,,*56
06/15/2015	08:10:28.568	$GPGGA,081029,2420.7993,N,08049.4503,W,1,9,1.7,16,M,,M,,*5D
06/15/2015	08:10:29.642	$GPGGA,081030,2420.8001,N,08049.4520,W,1,9,1.7,16,M,,M,,*59
06/15/2015	08:10:30.567	$GPGGA,081031,2420.8011,N,08049.4535,W,1,9,1.7,16,M,,M,,*5D
06/15/2015	08:10:31.642	$GPGGA,081032,2420.8021,N,08049.4550,W,1,9,1.7,16,M,,M,,*5E
06/15/2015	08:10:32.552	$GPGGA,081033,2420.8028,N,08049.4563,W,1,9,1.7,16,M,,M,,*56
06/15/2015	08:10:33.592	$GPGGA,081034,2420.8036,N,08049.4579,W,1,10,1.7,16,M,,M,,*6D
06/15/2015	08:10:34.554	$GPGGA,081035,2420.8047,N,08049.4595,W,1,10,1.7,16,M,,M,,*68
06/15/2015	08:10:35.602	$GPGGA,081036,2420.8057,N,08049.4613,W,1,9,1.7,16,M,,M,,*5F
06/15/2015	08:10:36.512	$GPGGA,081037,2420.8065,N,08049.4632,W,1,9,1.7,16,M,,M,,*5C
06/15/2015	08:10:37.582	$GPGGA,081038,2420.8075,N,08049.4647,W,1,9,1.7,16,M,,M,,*50
06/15/2015	08:10:38.542	$GPGGA,081039,2420.8083,N,08049.4664,W,1,9,1.7,16,M,,M,,*59
06/15/2015	08:10:39.624	$GPGGA,081040,2420.8091,N,08049.4678,W,1,9,1.7,16,M,,M,,*59
06/15/2015	08:10:40.543	$GPGGA,081041,2420.8100,N,08049.4693,W,1,9,1.4,16,M,,M,,*57
06/15/2015	08:10:41.623	$GPGGA,081042,2420.8109,N,08049.4708,W,1,10,1.4,16,M,,M,,*66
06/15/2015	08:10:42.503	$GPGGA,081043,2420.8116,N,08049.4725,W,1,10,1.4,16,M,,M,,*66
06/15/2015	08:10:43.643	$GPGGA,081044,2420.8126,N,08049.4741,W,1,10,1.7,16,M,,M,,*63
06/15/2015	08:10:44.543	$GPGGA,081045,2420.8136,N,08049.4758,W,1,10,1.4,16,M,,M,,*68
06/15/2015	08:10:45.623	$GPGGA,081046,2420.8145,N,08049.4776,W,1,10,1.7,16,M,,M,,*60
06/15/2015	08:10:46.532	$GPGGA,081047,2420.8154,N,08049.4791,W,1,10,1.7,16,M,,M,,*68
06/15/2015	08:10:47.502	$GPGGA,081048,2420.8163,N,08049.4808,W,1,9,1.7,16,M,,M,,*54
06/15/2015	08:10:48.592	$GPGGA,081049,2420.8174,N,08049.4823,W,1,9,1.7,16,M,,M,,*5A
06/15/2015	08:10:49.592	$GPGGA,081050,2420.8184,N,08049.4838,W,1,9,1.7,16,M,,M,,*57
06/15/2015	08:10:50.532	$GPGGA,081051,2420.8192,N,08049.4856,W,1,9,1.7,16,M,,M,,*59
06/15/2015	08:10:51.592	$GPGGA,081052,2420.8201,N,08049.4874,W,1,9,1.7,16,M,,M,,*53
06/15/2015	08:10:52.532	$GPGGA,081053,2420.8210,N,08049.4888,W,1,9,1.4,16,M,,M,,*52
06/15/2015	08:10:53.593	$GPGGA,081054,2420.8220,N,08049.4903,W,1,10,1.4,16,M,,M,,*6C
06/15/2015	08:10:54.572	$GPGGA,081055,2420.8228,N,08049.4918,W,1,10,1.4,16,M,,M,,*6F
06/15/2015	08:10:55.642	$GPGGA,081056,2420.8238,N,08049.4931,W,1,10,1.4,16,M,,M,,*66
06/15/2015	08:10:56.583	$GPGGA,081057,2420.8248,N,08049.4944,W,1,10,1.4,16,M,,M,,*62
06/15/2015	08:10:57.633	$GPGGA,081058,2420.8257,N,08049.4960,W,1,10,1.6,16,M,,M,,*67
06/15/2015	08:10:58.573	$GPGGA,081059,2420.8267,N,08049.4975,W,1,10,1.6,16,M,,M,,*61
06/15/2015	08:10:59.643	$GPGGA,081100,2420.8277,N,08049.4990,W,1,9,1.4,17,M,,M,,*5D
06/15/2015	08:11:00.565	$GPGGA,081101,2420.8286,N,08049.5009,W,1,9,1.7,17,M,,M,,*59
06/15/2015	08:11:01.603	$GPGGA,081102,2420.8296,N,08049.5027,W,1,9,1.7,17,M,,M,,*57
06/15/2015	08:11:02.564	$GPGGA,081103,2420.8307,N,08049.5043,W,1,9,1.7,17,M,,M,,*5D
06/15/2015	08:11:03.613	$GPGGA,081104,2420.8318,N,08049.5058,W,1,9,1.7,17,M,,M,,*5E
06/15/2015	08:11:04.562	$GPGGA,081105,2420.8326,N,08049.5076,W,1,9,1.7,17,M,,M,,*5E
06/15/2015	08:11:05.622	$GPGGA,081106,2420.8336,N,08049.5092,W,1,9,1.9,17,M,,M,,*58
06/15/2015	08:11:06.565	$GPGGA,081107,2420.8347,N,08049.5109,W,1,9,1.7,17,M,,M,,*52
06/15/2015	08:11:07.654	$GPGGA,081108,2420.8358,N,08049.5127,W,1,9,1.7,17,M,,M,,*5F
06/15/2015	08:11:08.563	$GPGGA,081109,2420.8367,N,08049.5145,W,1,9,1.7,17,M,,M,,*56
06/15/2015	08:11:09.582	$GPGGA,081110,2420.8378,N,08049.5162,W,1,9,1.7,17,M,,M,,*55
06/15/2015	08:11:10.542	$GPGGA,081111,2420.8387,N,08049.5177,W,1,9,1.7,17,M,,M,,*50
06/15/2015	08:11:11.592	$GPGGA,081112,2420.8397,N,08049.5192,W,1,9,1.7,17,M,,M,,*59
06/15/2015	08:11:12.542	$GPGGA,081113,2420.8405,N,08049.5209,W,1,9,1.7,17,M,,M,,*55
06/15/2015	08:11:13.555	$GPGGA,081114,2420.8405,N,08049.5209,W,1,9,1.7,17,M,,M,,*52
06/15/2015	08:11:14.543	$GPGGA,081115,2420.8423,N,08049.5242,W,1,9,1.7,17,M,,M,,*58
06/15/2015	08:11:15.593	$GPGGA,081116,2420.8433,N,08049.5258,W,1,9,1.7,17,M,,M,,*51
06/15/2015	08:11:16.543	$GPGGA,081117,2420.8443,N,08049.5275,W,1,9,1.9,17,M,,M,,*56
06/15/2015	08:11:17.603	$GPGGA,081118,2420.8451,N,08049.5292,W,1,8,1.7,17,M,,M,,*5C
06/15/2015	08:11:18.543	$GPGGA,081119,2420.8459,N,08049.5307,W,1,8,1.7,17,M,,M,,*58
06/15/2015	08:11:19.593	$GPGGA,081120,2420.8469,N,08049.5322,W,1,9,1.7,17,M,,M,,*57
06/15/2015	08:11:20.643	$GPGGA,081121,2420.8479,N,08049.5339,W,1,9,1.7,17,M,,M,,*5D
06/15/2015	08:11:21.658	$GPGGA,081122,2420.8479,N,08049.5339,W,1,10,1.4,17,M,,M,,*65
06/15/2015	08:11:22.522	$GPGGA,081123,2420.8495,N,08049.5370,W,1,10,1.4,16,M,,M,,*6A
06/15/2015	08:11:23.592	$GPGGA,081124,2420.8506,N,08049.5387,W,1,10,1.4,16,M,,M,,*6E
06/15/2015	08:11:24.632	$GPGGA,081125,2420.8516,N,08049.5404,W,1,10,1.4,16,M,,M,,*62
06/15/2015	08:11:25.632	$GPGGA,081126,2420.8526,N,08049.5420,W,1,9,1.7,16,M,,M,,*5F
06/15/2015	08:11:26.522	$GPGGA,081127,2420.8535,N,08049.5437,W,1,9,1.7,16,M,,M,,*5A
06/15/2015	08:11:27.582	$GPGGA,081128,2420.8545,N,08049.5452,W,1,9,1.7,16,M,,M,,*51
06/15/2015	08:11:28.632	$GPGGA,081129,2420.8553,N,08049.5467,W,1,9,1.7,16,M,,M,,*51
06/15/2015	08:11:29.612	$GPGGA,081130,2420.8563,N,08049.5482,W,1,10,1.4,16,M,,M,,*6A
06/15/2015	08:11:30.512	$GPGGA,081131,2420.8571,N,08049.5498,W,1,10,1.4,16,M,,M,,*63
06/15/2015	08:11:31.532	$GPGGA,081132,2420.8571,N,08049.5498,W,1,10,1.4,16,M,,M,,*60
06/15/2015	08:11:32.503	$GPGGA,081133,2420.8592,N,08049.5528,W,1,10,1.4,16,M,,M,,*66
06/15/2015	08:11:33.503	$GPGGA,081134,2420.8592,N,08049.5528,W,1,10,1.4,16,M,,M,,*61
06/15/2015	08:11:34.523	$GPGGA,081135,2420.8600,N,08049.5545,W,1,10,1.4,16,M,,M,,*63
06/15/2015	08:11:35.623	$GPGGA,081136,2420.8622,N,08049.5575,W,1,9,1.6,16,M,,M,,*59
06/15/2015	08:11:36.593	$GPGGA,081137,2420.8633,N,08049.5590,W,1,9,1.6,16,M,,M,,*53
06/15/2015	08:11:37.603	$GPGGA,081138,2420.8643,N,08049.5605,W,1,10,1.4,16,M,,M,,*6E
06/15/2015	08:11:38.533	$GPGGA,081139,2420.8643,N,08049.5605,W,1,10,1.4,16,M,,M,,*6F
06/15/2015	08:11:39.622	$GPGGA,081140,2420.8664,N,08049.5636,W,1,10,1.4,16,M,,M,,*64
06/15/2015	08:11:40.612	$GPGGA,081141,2420.8676,N,08049.5651,W,1,10,1.4,16,M,,M,,*67
06/15/2015	08:11:41.592	$GPGGA,081142,2420.8687,N,08049.5665,W,1,10,1.4,17,M,,M,,*6C
06/15/2015	08:11:42.592	$GPGGA,081143,2420.8697,N,08049.5681,W,1,10,1.6,17,M,,M,,*64
06/15/2015	08:11:43.612	$GPGGA,081144,2420.8708,N,08049.5697,W,1,9,1.6,17,M,,M,,*5B
06/15/2015	08:11:44.572	$GPGGA,081145,2420.8721,N,08049.5713,W,1,9,1.4,17,M,,M,,*5E
06/15/2015	08:11:45.592	$GPGGA,081146,2420.8732,N,08049.5730,W,1,10,1.4,17,M,,M,,*66
06/15/2015	08:11:46.582	$GPGGA,081147,2420.8741,N,08049.5748,W,1,10,1.4,17,M,,M,,*6C
06/15/2015	08:11:47.602	$GPGGA,081148,2420.8752,N,08049.5763,W,1,10,1.4,17,M,,M,,*68
06/15/2015	08:11:49.033	$GPGGA,081149,2420.8763,N,08049.5780,W,1,10,1.4,17,M,,M,,*66
06/15/2015	08:11:49.566	$GPGGA,081150,2420.8774,N,08049.5795,W,1,10,1.4,17,M,,M,,*6C
06/15/2015	08:11:50.559	$GPGGA,081151,2420.8784,N,08049.5813,W,1,10,1.4,17,M,,M,,*63
