Software Version Number: 1	Data File Format Number: 1	Build Version Number: 1	Error Count Since VI Started: 1	Manufacturer: Raytheon	 Model Number: RayMarine 120	 S/N: 	 Cal Date: 	 Wind Direction Offset: 0.00	 Slope (M)1: 0.00	 Offset (B)1: 0.00	 Slope (M)2: 0.00	 Offset (B)2: 0.00	 Slope (M)3: 0.00	 Offset (B)3: 0.00	 Slope (M)4: 0.00	 Offset (B)4: 0.00	 Slope (M)5: 0.00	 Offset (B)5: 0.00	 Slope (M)6: 0.00	 Offset (B)6: 0.00
Computer Date	Computer Time	GGA String
06/12/2015	10:00:00.521	$GPGGA,100001,2429.8351,N,08115.4461,W,1,8,1.8,14,M,,M,,*5C
06/12/2015	10:00:01.601	$GPGGA,100002,2429.8354,N,08115.4445,W,1,8,1.6,14,M,,M,,*52
06/12/2015	10:00:02.599	$GPGGA,100003,2429.8358,N,08115.4428,W,1,8,1.6,14,M,,M,,*54
06/12/2015	10:00:03.531	$GPGGA,100004,2429.8362,N,08115.4412,W,1,8,1.6,14,M,,M,,*53
06/12/2015	10:00:04.511	$GPGGA,100005,2429.8365,N,08115.4395,W,1,8,1.6,14,M,,M,,*5D
06/12/2015	10:00:05.531	$GPGGA,100006,2429.8365,N,08115.4379,W,1,8,1.6,14,M,,M,,*5C
06/12/2015	10:00:06.511	$GPGGA,100007,2429.8369,N,08115.4362,W,1,8,1.6,14,M,,M,,*5B
06/12/2015	10:00:07.521	$GPGGA,100008,2429.8372,N,08115.4344,W,1,8,1.6,14,M,,M,,*5A
06/12/2015	10:00:08.582	$GPGGA,100009,2429.8376,N,08115.4329,W,1,8,1.6,15,M,,M,,*55
06/12/2015	10:00:09.597	$GPGGA,100010,2429.8378,N,08115.4310,W,1,8,1.6,15,M,,M,,*59
06/12/2015	10:00:10.571	$GPGGA,100011,2429.8380,N,08115.4293,W,1,8,1.6,15,M,,M,,*55
06/12/2015	10:00:11.571	$GPGGA,100012,2429.8385,N,08115.4278,W,1,8,1.6,15,M,,M,,*56
06/12/2015	10:00:12.499	$GPGGA,100013,2429.8389,N,08115.4259,W,1,8,1.6,15,M,,M,,*58
06/12/2015	10:00:13.611	$GPGGA,100014,2429.8390,N,08115.4241,W,1,8,1.6,15,M,,M,,*5E
06/12/2015	10:00:14.561	$GPGGA,100015,2429.8391,N,08115.4225,W,1,8,1.6,15,M,,M,,*5C
06/12/2015	10:00:15.571	$GPGGA,100016,2429.8396,N,08115.4209,W,1,8,1.6,15,M,,M,,*56
06/12/2015	10:00:16.561	$GPGGA,100017,2429.8401,N,08115.4191,W,1,8,1.6,15,M,,M,,*5C
06/12/2015	10:00:17.520	$GPGGA,100018,2429.8401,N,08115.4172,W,1,8,1.6,15,M,,M,,*5E
06/12/2015	10:00:18.481	$GPGGA,100019,2429.8402,N,08115.4156,W,1,8,1.6,15,M,,M,,*5A
06/12/2015	10:00:19.551	$GPGGA,100020,2429.8405,N,08115.4139,W,1,8,1.6,15,M,,M,,*5E
06/12/2015	10:00:20.582	$GPGGA,100021,2429.8411,N,08115.4121,W,1,8,1.8,15,M,,M,,*5D
06/12/2015	10:00:21.521	$GPGGA,100022,2429.8412,N,08115.4104,W,1,7,1.6,15,M,,M,,*5B
06/12/2015	10:00:22.551	$GPGGA,100023,2429.8412,N,08115.4086,W,1,7,1.6,15,M,,M,,*51
06/12/2015	10:00:23.489	$GPGGA,100024,2429.8418,N,08115.4069,W,1,8,1.6,15,M,,M,,*52
06/12/2015	10:00:24.571	$GPGGA,100025,2429.8423,N,08115.4051,W,1,8,1.8,15,M,,M,,*5E
06/12/2015	10:00:25.571	$GPGGA,100026,2429.8423,N,08115.4033,W,1,7,1.6,15,M,,M,,*58
06/12/2015	10:00:26.541	$GPGGA,100027,2429.8427,N,08115.4017,W,1,7,1.6,15,M,,M,,*5B
06/12/2015	10:00:27.596	$GPGGA,100028,2429.8432,N,08115.3999,W,1,8,1.6,15,M,,M,,*57
06/12/2015	10:00:28.581	$GPGGA,100029,2429.8434,N,08115.3980,W,1,8,1.6,15,M,,M,,*58
06/12/2015	10:00:29.571	$GPGGA,100030,2429.8437,N,08115.3963,W,1,8,1.6,15,M,,M,,*5E
06/12/2015	10:00:30.561	$GPGGA,100031,2429.8441,N,08115.3945,W,1,8,1.8,15,M,,M,,*54
06/12/2015	10:00:31.571	$GPGGA,100032,2429.8445,N,08115.3926,W,1,7,1.8,15,M,,M,,*59
06/12/2015	10:00:32.571	$GPGGA,100033,2429.8448,N,08115.3908,W,1,7,1.8,15,M,,M,,*59
06/12/2015	10:00:33.551	$GPGGA,100034,2429.8452,N,08115.3890,W,1,7,1.6,15,M,,M,,*5B
06/12/2015	10:00:34.582	$GPGGA,100035,2429.8452,N,08115.3890,W,1,7,1.6,15,M,,M,,*5A
06/12/2015	10:00:35.571	$GPGGA,100036,2429.8459,N,08115.3854,W,1,8,1.6,15,M,,M,,*55
06/12/2015	10:00:36.561	$GPGGA,100037,2429.8463,N,08115.3837,W,1,8,1.8,15,M,,M,,*56
06/12/2015	10:00:37.571	$GPGGA,100038,2429.8465,N,08115.3818,W,1,7,1.6,15,M,,M,,*53
06/12/2015	10:00:38.541	$GPGGA,100039,2429.8470,N,08115.3799,W,1,7,1.6,15,M,,M,,*50
06/12/2015	10:00:39.588	$GPGGA,100040,2429.8474,N,08115.3782,W,1,8,1.8,15,M,,M,,*51
06/12/2015	10:00:40.551	$GPGGA,100041,2429.8477,N,08115.3762,W,1,8,1.8,15,M,,M,,*5D
06/12/2015	10:00:41.561	$GPGGA,100042,2429.8481,N,08115.3744,W,1,7,1.8,15,M,,M,,*5C
06/12/2015	10:00:42.551	$GPGGA,100043,2429.8487,N,08115.3727,W,1,7,1.8,15,M,,M,,*5E
06/12/2015	10:00:43.587	$GPGGA,100044,2429.8490,N,08115.3707,W,1,7,1.8,15,M,,M,,*5D
06/12/2015	10:00:44.571	$GPGGA,100045,2429.8491,N,08115.3691,W,1,7,1.6,15,M,,M,,*5D
06/12/2015	10:00:45.551	$GPGGA,100046,2429.8494,N,08115.3673,W,1,8,1.6,15,M,,M,,*58
06/12/2015	10:00:46.571	$GPGGA,100047,2429.8498,N,08115.3656,W,1,8,1.8,15,M,,M,,*5C
06/12/2015	10:00:47.561	$GPGGA,100048,2429.8503,N,08115.3639,W,1,7,1.8,15,M,,M,,*56
06/12/2015	10:00:48.551	$GPGGA,100049,2429.8503,N,08115.3639,W,1,7,1.8,15,M,,M,,*57
06/12/2015	10:00:49.531	$GPGGA,100050,2429.8509,N,08115.3600,W,1,7,1.8,15,M,,M,,*5F
06/12/2015	10:00:50.551	$GPGGA,100051,2429.8513,N,08115.3586,W,1,7,1.6,15,M,,M,,*56
06/12/2015	10:00:51.585	$GPGGA,100052,2429.8519,N,08115.3568,W,1,8,1.6,15,M,,M,,*50
06/12/2015	10:00:52.550	$GPGGA,100053,2429.8521,N,08115.3551,W,1,8,1.6,15,M,,M,,*50
06/12/2015	10:00:53.541	$GPGGA,100054,2429.8521,N,08115.3535,W,1,8,1.6,15,M,,M,,*55
06/12/2015	10:00:54.551	$GPGGA,100055,2429.8526,N,08115.3519,W,1,8,1.8,15,M,,M,,*53
06/12/2015	10:00:55.521	$GPGGA,100056,2429.8531,N,08115.3501,W,1,7,1.8,15,M,,M,,*50
06/12/2015	10:00:56.551	$GPGGA,100057,2429.8531,N,08115.3501,W,1,7,1.8,15,M,,M,,*51
06/12/2015	10:00:57.541	$GPGGA,100058,2429.8535,N,08115.3468,W,1,8,1.8,15,M,,M,,*5B
06/12/2015	10:00:58.631	$GPGGA,100059,2429.8541,N,08115.3449,W,1,8,1.8,15,M,,M,,*5A
06/12/2015	10:00:59.541	$GPGGA,100100,2429.8544,N,08115.3433,W,1,7,1.8,15,M,,M,,*50
06/12/2015	10:01:00.551	$GPGGA,100101,2429.8544,N,08115.3433,W,1,7,1.8,15,M,,M,,*51
06/12/2015	10:01:01.611	$GPGGA,100102,2429.8552,N,08115.3397,W,1,7,1.8,15,M,,M,,*5C
06/12/2015	10:01:02.531	$GPGGA,100103,2429.8556,N,08115.3381,W,1,7,1.8,14,M,,M,,*5F
06/12/2015	10:01:03.551	$GPGGA,100104,2429.8555,N,08115.3366,W,1,7,1.6,14,M,,M,,*5C
06/12/2015	10:01:04.511	$GPGGA,100105,2429.8555,N,08115.3366,W,1,7,1.6,14,M,,M,,*5D
06/12/2015	10:01:05.484	$GPGGA,100106,2429.8566,N,08115.3331,W,1,7,1.8,14,M,,M,,*52
06/12/2015	10:01:06.531	$GPGGA,100107,2429.8566,N,08115.3331,W,1,7,1.8,14,M,,M,,*53
06/12/2015	10:01:07.501	$GPGGA,100108,2429.8573,N,08115.3296,W,1,7,1.8,14,M,,M,,*54
06/12/2015	10:01:08.581	$GPGGA,100109,2429.8578,N,08115.3279,W,1,7,1.8,14,M,,M,,*5F
06/12/2015	10:01:09.610	$GPGGA,100110,2429.8582,N,08115.3261,W,1,7,1.8,14,M,,M,,*5B
06/12/2015	10:01:10.501	$GPGGA,100111,2429.8582,N,08115.3261,W,1,7,1.8,14,M,,M,,*5A
06/12/2015	10:01:11.611	$GPGGA,100112,2429.8589,N,08115.3227,W,1,8,1.6,14,M,,M,,*51
06/12/2015	10:01:12.591	$GPGGA,100113,2429.8593,N,08115.3209,W,1,8,1.8,14,M,,M,,*59
06/12/2015	10:01:13.485	$GPGGA,100114,2429.8596,N,08115.3190,W,1,7,1.8,14,M,,M,,*57
06/12/2015	10:01:14.571	$GPGGA,100115,2429.8603,N,08115.3173,W,1,7,1.8,14,M,,M,,*54
06/12/2015	10:01:15.485	$GPGGA,100116,2429.8607,N,08115.3155,W,1,7,1.8,14,M,,M,,*57
06/12/2015	10:01:16.571	$GPGGA,100117,2429.8609,N,08115.3135,W,1,7,1.8,14,M,,M,,*5E
06/12/2015	10:01:17.561	$GPGGA,100118,2429.8614,N,08115.3119,W,1,7,1.8,14,M,,M,,*53
06/12/2015	10:01:18.561	$GPGGA,100119,2429.8620,N,08115.3101,W,1,7,1.8,14,M,,M,,*5C
06/12/2015	10:01:19.902	$GPGGA,100120,2429.8622,N,08115.3083,W,1,7,1.8,14,M,,M,,*5F
06/12/2015	10:01:20.551	$GPGGA,100121,2429.8624,N,08115.3067,W,1,7,1.6,14,M,,M,,*5C
06/12/2015	10:01:21.561	$GPGGA,100122,2429.8626,N,08115.3052,W,1,8,1.6,14,M,,M,,*54
06/12/2015	10:01:22.561	$GPGGA,100123,2429.8633,N,08115.3033,W,1,8,1.6,14,M,,M,,*56
06/12/2015	10:01:23.581	$GPGGA,100124,2429.8636,N,08115.3015,W,1,8,1.6,14,M,,M,,*50
06/12/2015	10:01:24.561	$GPGGA,100125,2429.8638,N,08115.3001,W,1,8,1.8,14,M,,M,,*54
06/12/2015	10:01:25.561	$GPGGA,100126,2429.8640,N,08115.2984,W,1,8,1.6,14,M,,M,,*53
06/12/2015	10:01:26.541	$GPGGA,100127,2429.8643,N,08115.2968,W,1,8,1.6,14,M,,M,,*53
06/12/2015	10:01:27.580	$GPGGA,100128,2429.8647,N,08115.2950,W,1,8,1.6,14,M,,M,,*53
06/12/2015	10:01:28.551	$GPGGA,100129,2429.8651,N,08115.2932,W,1,8,1.8,14,M,,M,,*5F
06/12/2015	10:01:29.561	$GPGGA,100130,2429.8657,N,08115.2917,W,1,7,1.8,14,M,,M,,*59
06/12/2015	10:01:30.531	$GPGGA,100131,2429.8661,N,08115.2898,W,1,7,1.8,14,M,,M,,*5B
06/12/2015	10:01:31.571	$GPGGA,100132,2429.8664,N,08115.2880,W,1,7,1.8,14,M,,M,,*54
06/12/2015	10:01:32.541	$GPGGA,100133,2429.8667,N,08115.2865,W,1,7,1.6,14,M,,M,,*53
06/12/2015	10:01:33.521	$GPGGA,100134,2429.8672,N,08115.2849,W,1,8,1.6,14,M,,M,,*51
06/12/2015	10:01:34.531	$GPGGA,100135,2429.8676,N,08115.2830,W,1,8,1.8,14,M,,M,,*54
06/12/2015	10:01:35.541	$GPGGA,100136,2429.8678,N,08115.2812,W,1,8,1.6,14,M,,M,,*57
06/12/2015	10:01:36.521	$GPGGA,100137,2429.8683,N,08115.2799,W,1,8,1.6,14,M,,M,,*5E
06/12/2015	10:01:37.521	$GPGGA,100138,2429.8690,N,08115.2781,W,1,8,1.6,14,M,,M,,*5A
06/12/2015	10:01:38.521	$GPGGA,100139,2429.8689,N,08115.2763,W,1,8,1.8,14,M,,M,,*51
06/12/2015	10:01:39.561	$GPGGA,100140,2429.8693,N,08115.2748,W,1,8,1.6,14,M,,M,,*53
06/12/2015	10:01:40.521	$GPGGA,100141,2429.8698,N,08115.2731,W,1,8,1.6,14,M,,M,,*57
06/12/2015	10:01:41.551	$GPGGA,100142,2429.8701,N,08115.2715,W,1,8,1.6,14,M,,M,,*53
06/12/2015	10:01:42.511	$GPGGA,100143,2429.8703,N,08115.2699,W,1,8,1.6,14,M,,M,,*55
06/12/2015	10:01:43.531	$GPGGA,100144,2429.8707,N,08115.2681,W,1,8,1.6,14,M,,M,,*5F
06/12/2015	10:01:44.520	$GPGGA,100145,2429.8711,N,08115.2665,W,1,8,1.6,14,M,,M,,*53
06/12/2015	10:01:45.531	$GPGGA,100146,2429.8714,N,08115.2650,W,1,8,1.6,14,M,,M,,*53
06/12/2015	10:01:46.501	$GPGGA,100147,2429.8716,N,08115.2633,W,1,8,1.6,14,M,,M,,*55
06/12/2015	10:01:47.531	$GPGGA,100148,2429.8719,N,08115.2616,W,1,8,1.6,14,M,,M,,*52
06/12/2015	10:01:48.511	$GPGGA,100149,2429.8723,N,08115.2599,W,1,8,1.6,14,M,,M,,*5E
06/12/2015	10:01:49.592	$GPGGA,100150,2429.8726,N,08115.2585,W,1,8,1.6,14,M,,M,,*5E
06/12/2015	10:01:50.491	$GPGGA,100151,2429.8729,N,08115.2569,W,1,8,1.6,14,M,,M,,*52
06/12/2015	10:01:51.511	$GPGGA,100152,2429.8733,N,08115.2552,W,1,8,1.6,14,M,,M,,*52
06/12/2015	10:01:52.601	$GPGGA,100153,2429.8734,N,08115.2535,W,1,8,1.6,14,M,,M,,*55
06/12/2015	10:01:53.511	$GPGGA,100154,2429.8737,N,08115.2519,W,1,8,1.6,14,M,,M,,*5F
06/12/2015	10:01:54.493	$GPGGA,100155,2429.8741,N,08115.2503,W,1,8,1.6,14,M,,M,,*54
06/12/2015	10:01:55.491	$GPGGA,100156,2429.8744,N,08115.2485,W,1,8,1.6,14,M,,M,,*5D
06/12/2015	10:01:56.586	$GPGGA,100157,2429.8745,N,08115.2467,W,1,8,1.6,14,M,,M,,*51
06/12/2015	10:01:57.591	$GPGGA,100158,2429.8748,N,08115.2451,W,1,8,1.6,14,M,,M,,*56
06/12/2015	10:01:58.601	$GPGGA,100159,2429.8751,N,08115.2434,W,1,8,1.6,14,M,,M,,*5C
06/12/2015	10:01:59.541	$GPGGA,100200,2429.8752,N,08115.2416,W,1,8,1.6,14,M,,M,,*50
06/12/2015	10:02:00.571	$GPGGA,100201,2429.8755,N,08115.2398,W,1,8,1.6,14,M,,M,,*57
06/12/2015	10:02:01.601	$GPGGA,100202,2429.8758,N,08115.2380,W,1,8,1.6,14,M,,M,,*50
06/12/2015	10:02:02.570	$GPGGA,100203,2429.8761,N,08115.2362,W,1,8,1.6,14,M,,M,,*57
06/12/2015	10:02:03.631	$GPGGA,100204,2429.8763,N,08115.2344,W,1,8,1.6,14,M,,M,,*56
06/12/2015	10:02:04.561	$GPGGA,100205,2429.8766,N,08115.2326,W,1,8,1.6,14,M,,M,,*56
06/12/2015	10:02:05.561	$GPGGA,100206,2429.8768,N,08115.2307,W,1,8,1.6,14,M,,M,,*58
06/12/2015	10:02:06.561	$GPGGA,100207,2429.8770,N,08115.2288,W,1,8,1.6,14,M,,M,,*56
06/12/2015	10:02:07.594	$GPGGA,100208,2429.8773,N,08115.2271,W,1,8,1.6,14,M,,M,,*5C
06/12/2015	10:02:08.561	$GPGGA,100209,2429.8776,N,08115.2254,W,1,8,1.6,14,M,,M,,*5F
06/12/2015	10:02:09.592	$GPGGA,100210,2429.8777,N,08115.2235,W,1,8,1.6,14,M,,M,,*51
06/12/2015	10:02:10.561	$GPGGA,100211,2429.8781,N,08115.2217,W,1,8,1.6,14,M,,M,,*59
06/12/2015	10:02:11.583	$GPGGA,100212,2429.8784,N,08115.2199,W,1,8,1.6,14,M,,M,,*5A
06/12/2015	10:02:12.551	$GPGGA,100213,2429.8787,N,08115.2181,W,1,8,1.6,14,M,,M,,*51
06/12/2015	10:02:13.561	$GPGGA,100214,2429.8790,N,08115.2164,W,1,8,1.6,14,M,,M,,*5B
06/12/2015	10:02:14.551	$GPGGA,100215,2429.8792,N,08115.2145,W,1,8,1.6,14,M,,M,,*5B
06/12/2015	10:02:15.571	$GPGGA,100216,2429.8795,N,08115.2126,W,1,8,1.6,14,M,,M,,*5A
06/12/2015	10:02:16.541	$GPGGA,100217,2429.8799,N,08115.2110,W,1,8,1.6,14,M,,M,,*52
06/12/2015	10:02:17.541	$GPGGA,100218,2429.8801,N,08115.2093,W,1,8,1.6,14,M,,M,,*59
06/12/2015	10:02:18.531	$GPGGA,100219,2429.8805,N,08115.2074,W,1,8,1.6,14,M,,M,,*55
06/12/2015	10:02:19.570	$GPGGA,100220,2429.8809,N,08115.2056,W,1,8,1.6,14,M,,M,,*53
06/12/2015	10:02:20.531	$GPGGA,100221,2429.8813,N,08115.2040,W,1,8,1.8,14,M,,M,,*50
06/12/2015	10:02:21.521	$GPGGA,100222,2429.8815,N,08115.2024,W,1,7,1.8,14,M,,M,,*58
06/12/2015	10:02:22.531	$GPGGA,100223,2429.8819,N,08115.2005,W,1,7,1.6,14,M,,M,,*58
06/12/2015	10:02:23.551	$GPGGA,100224,2429.8823,N,08115.1986,W,1,7,1.8,14,M,,M,,*59
06/12/2015	10:02:24.531	$GPGGA,100225,2429.8827,N,08115.1969,W,1,7,1.8,14,M,,M,,*5D
06/12/2015	10:02:25.541	$GPGGA,100226,2429.8831,N,08115.1954,W,1,7,1.8,14,M,,M,,*57
06/12/2015	10:02:26.521	$GPGGA,100227,2429.8834,N,08115.1940,W,1,7,1.8,14,M,,M,,*56
06/12/2015	10:02:27.531	$GPGGA,100228,2429.8838,N,08115.1927,W,1,7,1.7,14,M,,M,,*5B
06/12/2015	10:02:28.531	$GPGGA,100229,2429.8839,N,08115.1915,W,1,7,1.8,14,M,,M,,*55
06/12/2015	10:02:29.541	$GPGGA,100230,2429.8842,N,08115.1898,W,1,7,1.8,14,M,,M,,*55
06/12/2015	10:02:30.511	$GPGGA,100231,2429.8848,N,08115.1885,W,1,7,1.8,14,M,,M,,*52
06/12/2015	10:02:31.551	$GPGGA,100232,2429.8852,N,08115.1871,W,1,8,1.6,14,M,,M,,*50
06/12/2015	10:02:32.621	$GPGGA,100233,2429.8853,N,08115.1854,W,1,8,1.6,14,M,,M,,*57
06/12/2015	10:02:33.521	$GPGGA,100234,2429.8856,N,08115.1841,W,1,7,1.8,14,M,,M,,*50
06/12/2015	10:02:34.500	$GPGGA,100235,2429.8864,N,08115.1827,W,1,7,1.6,15,M,,M,,*5F
06/12/2015	10:02:35.521	$GPGGA,100236,2429.8867,N,08115.1809,W,1,8,1.6,15,M,,M,,*5C
06/12/2015	10:02:36.511	$GPGGA,100237,2429.8871,N,08115.1790,W,1,8,1.6,15,M,,M,,*55
06/12/2015	10:02:37.911	$GPGGA,100238,2429.8875,N,08115.1775,W,1,8,1.6,15,M,,M,,*55
06/12/2015	10:02:38.496	$GPGGA,100239,2429.8882,N,08115.1760,W,1,8,1.8,15,M,,M,,*56
06/12/2015	10:02:39.504	$GPGGA,100240,2429.8885,N,08115.1741,W,1,8,1.6,15,M,,M,,*52
06/12/2015	10:02:40.481	$GPGGA,100241,2429.8889,N,08115.1726,W,1,8,1.6,15,M,,M,,*5E
06/12/2015	10:02:41.611	$GPGGA,100242,2429.8895,N,08115.1709,W,1,7,1.8,15,M,,M,,*5C
06/12/2015	10:02:42.500	$GPGGA,100243,2429.8898,N,08115.1692,W,1,7,1.8,16,M,,M,,*50
06/12/2015	10:02:43.652	$GPGGA,100244,2429.8903,N,08115.1676,W,1,7,1.8,16,M,,M,,*5E
06/12/2015	10:02:44.490	$GPGGA,100245,2429.8909,N,08115.1659,W,1,7,1.8,16,M,,M,,*58
06/12/2015	10:02:45.485	$GPGGA,100246,2429.8913,N,08115.1641,W,1,8,1.6,16,M,,M,,*58
06/12/2015	10:02:46.486	$GPGGA,100247,2429.8917,N,08115.1624,W,1,8,1.8,16,M,,M,,*50
06/12/2015	10:02:47.582	$GPGGA,100248,2429.8922,N,08115.1608,W,1,7,1.8,16,M,,M,,*58
06/12/2015	10:02:48.571	$GPGGA,100249,2429.8925,N,08115.1590,W,1,7,1.8,16,M,,M,,*5C
06/12/2015	10:02:49.471	$GPGGA,100250,2429.8929,N,08115.1572,W,1,7,1.8,16,M,,M,,*54
06/12/2015	10:02:50.571	$GPGGA,100251,2429.8933,N,08115.1555,W,1,7,1.8,16,M,,M,,*5B
06/12/2015	10:02:51.571	$GPGGA,100252,2429.8940,N,08115.1537,W,1,7,1.8,16,M,,M,,*58
06/12/2015	10:02:52.571	$GPGGA,100253,2429.8943,N,08115.1520,W,1,7,1.8,16,M,,M,,*5C
06/12/2015	10:02:53.596	$GPGGA,100254,2429.8946,N,08115.1503,W,1,7,1.8,16,M,,M,,*5F
06/12/2015	10:02:54.570	$GPGGA,100255,2429.8951,N,08115.1486,W,1,7,1.8,16,M,,M,,*54
06/12/2015	10:02:55.595	$GPGGA,100256,2429.8954,N,08115.1469,W,1,8,1.6,16,M,,M,,*52
06/12/2015	10:02:56.551	$GPGGA,100257,2429.8958,N,08115.1451,W,1,8,1.8,16,M,,M,,*5A
06/12/2015	10:02:57.571	$GPGGA,100258,2429.8961,N,08115.1433,W,1,7,1.8,16,M,,M,,*54
06/12/2015	10:02:58.541	$GPGGA,100259,2429.8965,N,08115.1417,W,1,7,1.6,16,M,,M,,*59
06/12/2015	10:02:59.598	$GPGGA,100300,2429.8969,N,08115.1399,W,1,8,1.6,16,M,,M,,*56
06/12/2015	10:03:00.541	$GPGGA,100301,2429.8974,N,08115.1380,W,1,8,1.8,16,M,,M,,*5D
06/12/2015	10:03:01.541	$GPGGA,100302,2429.8976,N,08115.1363,W,1,8,1.6,16,M,,M,,*5F
06/12/2015	10:03:02.551	$GPGGA,100303,2429.8980,N,08115.1346,W,1,8,1.6,16,M,,M,,*50
06/12/2015	10:03:03.583	$GPGGA,100304,2429.8983,N,08115.1330,W,1,8,1.6,16,M,,M,,*55
06/12/2015	10:03:04.531	$GPGGA,100305,2429.8987,N,08115.1311,W,1,8,1.6,16,M,,M,,*53
06/12/2015	10:03:05.561	$GPGGA,100306,2429.8990,N,08115.1292,W,1,8,1.6,16,M,,M,,*5C
06/12/2015	10:03:06.541	$GPGGA,100307,2429.8993,N,08115.1276,W,1,8,1.6,16,M,,M,,*54
06/12/2015	10:03:07.561	$GPGGA,100308,2429.8997,N,08115.1259,W,1,8,1.6,16,M,,M,,*52
06/12/2015	10:03:08.531	$GPGGA,100309,2429.8998,N,08115.1240,W,1,8,1.6,16,M,,M,,*54
06/12/2015	10:03:09.521	$GPGGA,100310,2429.9001,N,08115.1222,W,1,8,1.6,16,M,,M,,*50
06/12/2015	10:03:10.531	$GPGGA,100311,2429.9005,N,08115.1204,W,1,8,1.6,16,M,,M,,*51
06/12/2015	10:03:11.571	$GPGGA,100312,2429.9007,N,08115.1187,W,1,8,1.6,16,M,,M,,*58
06/12/2015	10:03:12.520	$GPGGA,100313,2429.9010,N,08115.1169,W,1,8,1.6,16,M,,M,,*5F
06/12/2015	10:03:13.531	$GPGGA,100314,2429.9012,N,08115.1150,W,1,8,1.6,16,M,,M,,*50
06/12/2015	10:03:14.521	$GPGGA,100315,2429.9015,N,08115.1133,W,1,8,1.6,16,M,,M,,*53
06/12/2015	10:03:15.561	$GPGGA,100316,2429.9016,N,08115.1115,W,1,8,1.6,16,M,,M,,*57
06/12/2015	10:03:16.511	$GPGGA,100317,2429.9018,N,08115.1096,W,1,8,1.6,16,M,,M,,*52
06/12/2015	10:03:17.511	$GPGGA,100318,2429.9022,N,08115.1077,W,1,8,1.6,16,M,,M,,*5B
06/12/2015	10:03:18.631	$GPGGA,100319,2429.9025,N,08115.1061,W,1,8,1.6,16,M,,M,,*5A
06/12/2015	10:03:19.531	$GPGGA,100320,2429.9026,N,08115.1043,W,1,8,1.6,16,M,,M,,*53
06/12/2015	10:03:20.501	$GPGGA,100321,2429.9029,N,08115.1023,W,1,8,1.6,16,M,,M,,*5B
06/12/2015	10:03:21.492	$GPGGA,100322,2429.9032,N,08115.1006,W,1,8,1.6,16,M,,M,,*55
06/12/2015	10:03:22.611	$GPGGA,100323,2429.9036,N,08115.0990,W,1,8,1.6,16,M,,M,,*57
06/12/2015	10:03:23.521	$GPGGA,100324,2429.9039,N,08115.0971,W,1,8,1.6,16,M,,M,,*50
06/12/2015	10:03:24.511	$GPGGA,100325,2429.9041,N,08115.0953,W,1,8,1.6,16,M,,M,,*5E
06/12/2015	10:03:25.511	$GPGGA,100326,2429.9043,N,08115.0936,W,1,8,1.6,16,M,,M,,*5C
06/12/2015	10:03:26.583	$GPGGA,100327,2429.9047,N,08115.0917,W,1,8,1.6,16,M,,M,,*5A
06/12/2015	10:03:27.592	$GPGGA,100328,2429.9050,N,08115.0902,W,1,8,1.6,16,M,,M,,*57
06/12/2015	10:03:28.501	$GPGGA,100329,2429.9052,N,08115.0885,W,1,8,1.6,16,M,,M,,*5A
06/12/2015	10:03:29.502	$GPGGA,100330,2429.9055,N,08115.0865,W,1,8,1.6,16,M,,M,,*5B
06/12/2015	10:03:30.494	$GPGGA,100331,2429.9059,N,08115.0850,W,1,8,1.6,16,M,,M,,*50
06/12/2015	10:03:31.511	$GPGGA,100332,2429.9063,N,08115.0836,W,1,8,1.6,16,M,,M,,*5A
06/12/2015	10:03:32.501	$GPGGA,100333,2429.9066,N,08115.0817,W,1,8,1.6,16,M,,M,,*5D
06/12/2015	10:03:33.486	$GPGGA,100334,2429.9069,N,08115.0800,W,1,7,1.8,16,M,,M,,*52
06/12/2015	10:03:34.571	$GPGGA,100335,2429.9070,N,08115.0785,W,1,7,1.6,16,M,,M,,*57
06/12/2015	10:03:35.621	$GPGGA,100336,2429.9074,N,08115.0769,W,1,8,1.6,16,M,,M,,*5D
06/12/2015	10:03:36.571	$GPGGA,100337,2429.9079,N,08115.0751,W,1,8,1.8,16,M,,M,,*54
06/12/2015	10:03:37.586	$GPGGA,100338,2429.9081,N,08115.0734,W,1,8,1.6,16,M,,M,,*51
06/12/2015	10:03:38.561	$GPGGA,100339,2429.9084,N,08115.0716,W,1,8,1.6,16,M,,M,,*55
06/12/2015	10:03:39.586	$GPGGA,100340,2429.9088,N,08115.0700,W,1,8,1.6,15,M,,M,,*53
06/12/2015	10:03:40.571	$GPGGA,100341,2429.9091,N,08115.0683,W,1,8,1.8,15,M,,M,,*5E
06/12/2015	10:03:41.561	$GPGGA,100342,2429.9095,N,08115.0664,W,1,7,1.8,15,M,,M,,*5F
06/12/2015	10:03:42.561	$GPGGA,100343,2429.9098,N,08115.0647,W,1,7,1.8,15,M,,M,,*52
06/12/2015	10:03:43.593	$GPGGA,100344,2429.9102,N,08115.0631,W,1,7,1.8,15,M,,M,,*56
06/12/2015	10:03:44.551	$GPGGA,100345,2429.9105,N,08115.0613,W,1,7,1.8,15,M,,M,,*50
06/12/2015	10:03:45.571	$GPGGA,100346,2429.9108,N,08115.0595,W,1,7,1.8,15,M,,M,,*53
06/12/2015	10:03:46.551	$GPGGA,100347,2429.9113,N,08115.0578,W,1,7,1.8,15,M,,M,,*5B
06/12/2015	10:03:47.570	$GPGGA,100348,2429.9117,N,08115.0560,W,1,7,1.8,15,M,,M,,*59
06/12/2015	10:03:48.561	$GPGGA,100349,2429.9120,N,08115.0543,W,1,7,1.8,15,M,,M,,*5D
06/12/2015	10:03:49.541	$GPGGA,100350,2429.9123,N,08115.0525,W,1,7,1.8,15,M,,M,,*56
06/12/2015	10:03:50.551	$GPGGA,100351,2429.9128,N,08115.0507,W,1,7,1.8,15,M,,M,,*5C
06/12/2015	10:03:51.571	$GPGGA,100352,2429.9131,N,08115.0489,W,1,7,1.8,15,M,,M,,*50
06/12/2015	10:03:52.541	$GPGGA,100353,2429.9135,N,08115.0472,W,1,7,1.8,15,M,,M,,*51
06/12/2015	10:03:53.571	$GPGGA,100354,2429.9138,N,08115.0454,W,1,7,1.8,14,M,,M,,*5E
06/12/2015	10:03:54.531	$GPGGA,100355,2429.9144,N,08115.0436,W,1,7,1.8,14,M,,M,,*50
06/12/2015	10:03:55.541	$GPGGA,100356,2429.9146,N,08115.0422,W,1,7,1.8,14,M,,M,,*54
06/12/2015	10:03:56.541	$GPGGA,100357,2429.9149,N,08115.0404,W,1,7,1.6,14,M,,M,,*50
06/12/2015	10:03:57.571	$GPGGA,100358,2429.9153,N,08115.0388,W,1,8,1.6,14,M,,M,,*58
06/12/2015	10:03:58.521	$GPGGA,100359,2429.9157,N,08115.0371,W,1,8,1.6,14,M,,M,,*5B
06/12/2015	10:03:59.561	$GPGGA,100400,2429.9163,N,08115.0353,W,1,7,1.8,14,M,,M,,*56
06/12/2015	10:04:00.521	$GPGGA,100401,2429.9167,N,08115.0335,W,1,7,1.8,14,M,,M,,*53
06/12/2015	10:04:01.501	$GPGGA,100402,2429.9171,N,08115.0317,W,1,7,1.8,14,M,,M,,*57
06/12/2015	10:04:02.621	$GPGGA,100403,2429.9175,N,08115.0300,W,1,7,1.8,14,M,,M,,*54
06/12/2015	10:04:03.551	$GPGGA,100404,2429.9180,N,08115.0282,W,1,7,1.8,14,M,,M,,*52
06/12/2015	10:04:04.510	$GPGGA,100405,2429.9182,N,08115.0264,W,1,7,1.8,14,M,,M,,*59
06/12/2015	10:04:05.620	$GPGGA,100406,2429.9188,N,08115.0246,W,1,7,1.8,14,M,,M,,*50
06/12/2015	10:04:06.490	$GPGGA,100407,2429.9192,N,08115.0227,W,1,7,1.8,14,M,,M,,*5D
06/12/2015	10:04:07.500	$GPGGA,100408,2429.9195,N,08115.0210,W,1,7,1.8,14,M,,M,,*51
06/12/2015	10:04:08.500	$GPGGA,100409,2429.9199,N,08115.0191,W,1,7,1.8,14,M,,M,,*56
06/12/2015	10:04:09.483	$GPGGA,100410,2429.9203,N,08115.0172,W,1,7,1.8,14,M,,M,,*53
06/12/2015	10:04:10.500	$GPGGA,100411,2429.9207,N,08115.0154,W,1,7,1.8,14,M,,M,,*52
06/12/2015	10:04:11.490	$GPGGA,100412,2429.9209,N,08115.0136,W,1,8,1.6,14,M,,M,,*5A
06/12/2015	10:04:12.500	$GPGGA,100413,2429.9213,N,08115.0117,W,1,8,1.6,14,M,,M,,*53
06/12/2015	10:04:13.620	$GPGGA,100414,2429.9218,N,08115.0098,W,1,8,1.8,14,M,,M,,*57
06/12/2015	10:04:14.481	$GPGGA,100415,2429.9221,N,08115.0079,W,1,8,1.8,14,M,,M,,*53
06/12/2015	10:04:15.481	$GPGGA,100416,2429.9222,N,08115.0061,W,1,7,1.8,14,M,,M,,*55
06/12/2015	10:04:16.511	$GPGGA,100417,2429.9227,N,08115.0044,W,1,7,1.6,14,M,,M,,*58
06/12/2015	10:04:17.581	$GPGGA,100418,2429.9232,N,08115.0023,W,1,8,1.6,14,M,,M,,*5D
06/12/2015	10:04:18.572	$GPGGA,100419,2429.9235,N,08115.0006,W,1,8,1.6,14,M,,M,,*5C
06/12/2015	10:04:19.591	$GPGGA,100420,2429.9236,N,08114.9990,W,1,8,1.6,14,M,,M,,*5B
06/12/2015	10:04:20.572	$GPGGA,100421,2429.9240,N,08114.9970,W,1,8,1.6,14,M,,M,,*55
06/12/2015	10:04:21.582	$GPGGA,100422,2429.9243,N,08114.9953,W,1,8,1.6,14,M,,M,,*54
06/12/2015	10:04:22.560	$GPGGA,100423,2429.9247,N,08114.9937,W,1,8,1.6,14,M,,M,,*53
06/12/2015	10:04:23.600	$GPGGA,100424,2429.9250,N,08114.9919,W,1,8,1.6,14,M,,M,,*5E
06/12/2015	10:04:24.550	$GPGGA,100425,2429.9253,N,08114.9902,W,1,8,1.6,14,M,,M,,*56
06/12/2015	10:04:25.560	$GPGGA,100426,2429.9257,N,08114.9886,W,1,8,1.6,14,M,,M,,*5C
06/12/2015	10:04:26.560	$GPGGA,100427,2429.9261,N,08114.9869,W,1,8,1.6,14,M,,M,,*59
06/12/2015	10:04:27.610	$GPGGA,100428,2429.9261,N,08114.9851,W,1,8,1.6,14,M,,M,,*5D
06/12/2015	10:04:28.561	$GPGGA,100429,2429.9264,N,08114.9835,W,1,8,1.6,14,M,,M,,*5B
06/12/2015	10:04:29.570	$GPGGA,100430,2429.9268,N,08114.9817,W,1,8,1.6,14,M,,M,,*5F
06/12/2015	10:04:30.550	$GPGGA,100431,2429.9272,N,08114.9799,W,1,8,1.6,14,M,,M,,*5C
06/12/2015	10:04:31.571	$GPGGA,100432,2429.9272,N,08114.9782,W,1,8,1.6,14,M,,M,,*55
06/12/2015	10:04:32.540	$GPGGA,100433,2429.9275,N,08114.9764,W,1,8,1.6,14,M,,M,,*5B
06/12/2015	10:04:33.571	$GPGGA,100434,2429.9279,N,08114.9747,W,1,8,1.6,14,M,,M,,*51
06/12/2015	10:04:34.541	$GPGGA,100435,2429.9283,N,08114.9729,W,1,8,1.6,14,M,,M,,*5D
06/12/2015	10:04:35.572	$GPGGA,100436,2429.9283,N,08114.9711,W,1,8,1.6,14,M,,M,,*55
06/12/2015	10:04:36.551	$GPGGA,100437,2429.9286,N,08114.9693,W,1,8,1.6,14,M,,M,,*5A
06/12/2015	10:04:37.531	$GPGGA,100438,2429.9290,N,08114.9676,W,1,8,1.6,14,M,,M,,*59
06/12/2015	10:04:38.531	$GPGGA,100439,2429.9293,N,08114.9658,W,1,8,1.6,14,M,,M,,*57
06/12/2015	10:04:39.610	$GPGGA,100440,2429.9294,N,08114.9639,W,1,8,1.6,14,M,,M,,*59
06/12/2015	10:04:40.850	$GPGGA,100441,2429.9297,N,08114.9621,W,1,8,1.6,14,M,,M,,*52
06/12/2015	10:04:41.560	$GPGGA,100442,2429.9301,N,08114.9602,W,1,8,1.6,14,M,,M,,*5E
06/12/2015	10:04:42.520	$GPGGA,100443,2429.9301,N,08114.9585,W,1,8,1.6,14,M,,M,,*53
06/12/2015	10:04:43.550	$GPGGA,100444,2429.9305,N,08114.9566,W,1,8,1.6,14,M,,M,,*5D
06/12/2015	10:04:44.530	$GPGGA,100445,2429.9308,N,08114.9547,W,1,8,1.6,14,M,,M,,*52
06/12/2015	10:04:45.540	$GPGGA,100446,2429.9311,N,08114.9529,W,1,8,1.6,14,M,,M,,*51
06/12/2015	10:04:46.530	$GPGGA,100447,2429.9312,N,08114.9509,W,1,8,1.6,14,M,,M,,*51
06/12/2015	10:04:47.540	$GPGGA,100448,2429.9315,N,08114.9493,W,1,8,1.6,14,M,,M,,*5B
06/12/2015	10:04:48.500	$GPGGA,100449,2429.9319,N,08114.9474,W,1,8,1.6,14,M,,M,,*5F
06/12/2015	10:04:49.540	$GPGGA,100450,2429.9322,N,08114.9453,W,1,8,1.6,14,M,,M,,*5A
06/12/2015	10:04:50.520	$GPGGA,100451,2429.9321,N,08114.9438,W,1,8,1.6,14,M,,M,,*55
06/12/2015	10:04:51.531	$GPGGA,100452,2429.9325,N,08114.9421,W,1,8,1.6,14,M,,M,,*5A
06/12/2015	10:04:52.502	$GPGGA,100453,2429.9330,N,08114.9400,W,1,8,1.6,14,M,,M,,*5C
06/12/2015	10:04:53.531	$GPGGA,100454,2429.9330,N,08114.9384,W,1,8,1.6,14,M,,M,,*50
06/12/2015	10:04:54.511	$GPGGA,100455,2429.9330,N,08114.9369,W,1,8,1.6,14,M,,M,,*52
06/12/2015	10:04:55.531	$GPGGA,100456,2429.9334,N,08114.9351,W,1,8,1.6,14,M,,M,,*5E
06/12/2015	10:04:56.493	$GPGGA,100457,2429.9337,N,08114.9332,W,1,8,1.6,14,M,,M,,*59
06/12/2015	10:04:57.487	$GPGGA,100458,2429.9339,N,08114.9315,W,1,8,1.6,14,M,,M,,*5D
06/12/2015	10:04:58.500	$GPGGA,100459,2429.9341,N,08114.9299,W,1,8,1.6,14,M,,M,,*56
06/12/2015	10:04:59.550	$GPGGA,100500,2429.9344,N,08114.9282,W,1,8,1.6,14,M,,M,,*54
06/12/2015	10:05:00.510	$GPGGA,100501,2429.9346,N,08114.9264,W,1,8,1.6,14,M,,M,,*5F
06/12/2015	10:05:01.572	$GPGGA,100502,2429.9350,N,08114.9246,W,1,8,1.6,14,M,,M,,*5B
06/12/2015	10:05:02.489	$GPGGA,100503,2429.9352,N,08114.9230,W,1,8,1.8,14,M,,M,,*57
06/12/2015	10:05:03.540	$GPGGA,100504,2429.9352,N,08114.9213,W,1,7,1.6,14,M,,M,,*50
06/12/2015	10:05:04.590	$GPGGA,100505,2429.9355,N,08114.9196,W,1,7,1.6,14,M,,M,,*58
06/12/2015	10:05:05.490	$GPGGA,100506,2429.9359,N,08114.9179,W,1,8,1.8,14,M,,M,,*57
06/12/2015	10:05:06.560	$GPGGA,100507,2429.9363,N,08114.9160,W,1,8,1.8,14,M,,M,,*57
06/12/2015	10:05:07.570	$GPGGA,100508,2429.9366,N,08114.9143,W,1,7,1.8,14,M,,M,,*53
06/12/2015	10:05:08.583	$GPGGA,100509,2429.9370,N,08114.9126,W,1,7,1.8,14,M,,M,,*56
06/12/2015	10:05:09.561	$GPGGA,100510,2429.9376,N,08114.9107,W,1,8,1.8,14,M,,M,,*54
06/12/2015	10:05:10.561	$GPGGA,100511,2429.9379,N,08114.9089,W,1,8,1.8,14,M,,M,,*5D
06/12/2015	10:05:11.573	$GPGGA,100512,2429.9384,N,08114.9072,W,1,7,1.8,14,M,,M,,*57
06/12/2015	10:05:12.561	$GPGGA,100513,2429.9388,N,08114.9056,W,1,7,1.8,14,M,,M,,*5C
06/12/2015	10:05:13.561	$GPGGA,100514,2429.9391,N,08114.9037,W,1,8,1.8,14,M,,M,,*5B
06/12/2015	10:05:14.550	$GPGGA,100515,2429.9395,N,08114.9019,W,1,8,1.8,14,M,,M,,*52
06/12/2015	10:05:15.570	$GPGGA,100516,2429.9401,N,08114.9002,W,1,7,1.8,14,M,,M,,*5E
06/12/2015	10:05:16.560	$GPGGA,100517,2429.9404,N,08114.8985,W,1,7,1.8,14,M,,M,,*5D
06/12/2015	10:05:17.570	$GPGGA,100518,2429.9408,N,08114.8968,W,1,7,1.8,14,M,,M,,*5D
06/12/2015	10:05:18.550	$GPGGA,100519,2429.9413,N,08114.8950,W,1,7,1.6,14,M,,M,,*53
06/12/2015	10:05:19.571	$GPGGA,100520,2429.9417,N,08114.8933,W,1,8,1.6,14,M,,M,,*57
06/12/2015	10:05:20.540	$GPGGA,100521,2429.9420,N,08114.8916,W,1,8,1.6,14,M,,M,,*55
06/12/2015	10:05:21.530	$GPGGA,100522,2429.9426,N,08114.8898,W,1,8,1.6,14,M,,M,,*57
06/12/2015	10:05:22.540	$GPGGA,100523,2429.9430,N,08114.8881,W,1,8,1.8,14,M,,M,,*57
06/12/2015	10:05:23.585	$GPGGA,100524,2429.9434,N,08114.8862,W,1,8,1.6,14,M,,M,,*57
06/12/2015	10:05:24.530	$GPGGA,100525,2429.9437,N,08114.8844,W,1,8,1.8,14,M,,M,,*5F
06/12/2015	10:05:25.551	$GPGGA,100526,2429.9442,N,08114.8826,W,1,7,1.8,14,M,,M,,*55
06/12/2015	10:05:26.521	$GPGGA,100527,2429.9446,N,08114.8806,W,1,7,1.8,14,M,,M,,*52
06/12/2015	10:05:27.561	$GPGGA,100528,2429.9451,N,08114.8789,W,1,7,1.8,13,M,,M,,*54
06/12/2015	10:05:28.531	$GPGGA,100529,2429.9455,N,08114.8772,W,1,7,1.8,13,M,,M,,*55
06/12/2015	10:05:29.521	$GPGGA,100530,2429.9458,N,08114.8754,W,1,8,1.6,13,M,,M,,*55
06/12/2015	10:05:30.531	$GPGGA,100531,2429.9462,N,08114.8737,W,1,8,1.6,13,M,,M,,*58
06/12/2015	10:05:31.550	$GPGGA,100532,2429.9467,N,08114.8721,W,1,7,1.8,13,M,,M,,*58
06/12/2015	10:05:32.510	$GPGGA,100533,2429.9471,N,08114.8701,W,1,7,1.8,13,M,,M,,*5C
06/12/2015	10:05:33.520	$GPGGA,100534,2429.9474,N,08114.8682,W,1,7,1.8,13,M,,M,,*54
06/12/2015	10:05:34.500	$GPGGA,100535,2429.9480,N,08114.8666,W,1,7,1.8,13,M,,M,,*54
06/12/2015	10:05:35.520	$GPGGA,100536,2429.9485,N,08114.8648,W,1,7,1.8,13,M,,M,,*5E
06/12/2015	10:05:36.500	$GPGGA,100537,2429.9488,N,08114.8629,W,1,7,1.8,13,M,,M,,*55
06/12/2015	10:05:37.500	$GPGGA,100538,2429.9492,N,08114.8611,W,1,7,1.8,13,M,,M,,*5A
06/12/2015	10:05:38.520	$GPGGA,100539,2429.9498,N,08114.8594,W,1,7,1.8,13,M,,M,,*5F
06/12/2015	10:05:39.620	$GPGGA,100540,2429.9500,N,08114.8577,W,1,7,1.8,13,M,,M,,*5C
06/12/2015	10:05:40.500	$GPGGA,100541,2429.9500,N,08114.8560,W,1,7,1.8,13,M,,M,,*5B
06/12/2015	10:05:41.500	$GPGGA,100542,2429.9505,N,08114.8543,W,1,8,1.6,13,M,,M,,*5D
06/12/2015	10:05:42.490	$GPGGA,100543,2429.9507,N,08114.8527,W,1,8,1.6,13,M,,M,,*5C
06/12/2015	10:05:43.521	$GPGGA,100544,2429.9509,N,08114.8508,W,1,8,1.6,13,M,,M,,*58
06/12/2015	10:05:44.601	$GPGGA,100545,2429.9514,N,08114.8490,W,1,8,1.6,13,M,,M,,*55
06/12/2015	10:05:45.511	$GPGGA,100546,2429.9518,N,08114.8474,W,1,8,1.6,13,M,,M,,*50
06/12/2015	10:05:46.491	$GPGGA,100547,2429.9518,N,08114.8457,W,1,8,1.6,13,M,,M,,*50
06/12/2015	10:05:47.511	$GPGGA,100548,2429.9520,N,08114.8438,W,1,8,1.6,13,M,,M,,*5D
06/12/2015	10:05:48.481	$GPGGA,100549,2429.9527,N,08114.8421,W,1,8,1.6,13,M,,M,,*53
06/12/2015	10:05:49.483	$GPGGA,100550,2429.9529,N,08114.8404,W,1,8,1.6,13,M,,M,,*52
06/12/2015	10:05:50.980	$GPGGA,100551,2429.9531,N,08114.8387,W,1,8,1.6,14,M,,M,,*51
06/12/2015	10:05:51.600	$GPGGA,100552,2429.9534,N,08114.8370,W,1,8,1.6,14,M,,M,,*5F
06/12/2015	10:05:52.490	$GPGGA,100553,2429.9539,N,08114.8352,W,1,8,1.6,14,M,,M,,*53
06/12/2015	10:05:53.472	$GPGGA,100554,2429.9540,N,08114.8335,W,1,8,1.6,14,M,,M,,*5B
06/12/2015	10:05:54.572	$GPGGA,100555,2429.9543,N,08114.8318,W,1,8,1.6,14,M,,M,,*56
06/12/2015	10:05:55.610	$GPGGA,100556,2429.9547,N,08114.8299,W,1,8,1.6,14,M,,M,,*59
06/12/2015	10:05:56.560	$GPGGA,100557,2429.9550,N,08114.8281,W,1,8,1.6,14,M,,M,,*57
06/12/2015	10:05:57.600	$GPGGA,100558,2429.9553,N,08114.8264,W,1,8,1.6,14,M,,M,,*50
06/12/2015	10:05:58.572	$GPGGA,100559,2429.9557,N,08114.8245,W,1,8,1.6,14,M,,M,,*56
06/12/2015	10:05:59.580	$GPGGA,100600,2429.9558,N,08114.8227,W,1,8,1.6,14,M,,M,,*52
06/12/2015	10:06:00.562	$GPGGA,100601,2429.9561,N,08114.8210,W,1,8,1.6,14,M,,M,,*5D
06/12/2015	10:06:01.551	$GPGGA,100602,2429.9565,N,08114.8191,W,1,8,1.6,14,M,,M,,*50
06/12/2015	10:06:02.541	$GPGGA,100603,2429.9567,N,08114.8174,W,1,8,1.6,14,M,,M,,*58
06/12/2015	10:06:03.591	$GPGGA,100604,2429.9570,N,08114.8158,W,1,8,1.6,14,M,,M,,*57
06/12/2015	10:06:04.541	$GPGGA,100605,2429.9572,N,08114.8140,W,1,8,1.6,14,M,,M,,*5D
06/12/2015	10:06:05.561	$GPGGA,100606,2429.9576,N,08114.8121,W,1,8,1.6,14,M,,M,,*5D
06/12/2015	10:06:06.540	$GPGGA,100607,2429.9578,N,08114.8104,W,1,8,1.6,14,M,,M,,*55
06/12/2015	10:06:07.580	$GPGGA,100608,2429.9579,N,08114.8087,W,1,8,1.6,14,M,,M,,*51
06/12/2015	10:06:08.550	$GPGGA,100609,2429.9583,N,08114.8068,W,1,8,1.6,14,M,,M,,*54
06/12/2015	10:06:09.570	$GPGGA,100610,2429.9586,N,08114.8050,W,1,8,1.6,14,M,,M,,*52
06/12/2015	10:06:10.530	$GPGGA,100611,2429.9587,N,08114.8034,W,1,8,1.6,14,M,,M,,*50
06/12/2015	10:06:11.574	$GPGGA,100612,2429.9590,N,08114.8015,W,1,8,1.6,14,M,,M,,*56
06/12/2015	10:06:12.891	$GPGGA,100613,2429.9594,N,08114.7997,W,1,8,1.6,14,M,,M,,*5F
06/12/2015	10:06:13.576	$GPGGA,100614,2429.9596,N,08114.7980,W,1,8,1.6,14,M,,M,,*5C
06/12/2015	10:06:14.530	$GPGGA,100615,2429.9599,N,08114.7962,W,1,8,1.6,14,M,,M,,*5E
06/12/2015	10:06:15.530	$GPGGA,100616,2429.9601,N,08114.7943,W,1,8,1.6,14,M,,M,,*5C
06/12/2015	10:06:16.530	$GPGGA,100617,2429.9604,N,08114.7926,W,1,8,1.6,14,M,,M,,*5B
06/12/2015	10:06:17.550	$GPGGA,100618,2429.9608,N,08114.7908,W,1,8,1.6,14,M,,M,,*54
06/12/2015	10:06:18.511	$GPGGA,100619,2429.9608,N,08114.7890,W,1,8,1.6,14,M,,M,,*55
06/12/2015	10:06:19.561	$GPGGA,100620,2429.9612,N,08114.7872,W,1,8,1.6,14,M,,M,,*58
06/12/2015	10:06:20.511	$GPGGA,100621,2429.9618,N,08114.7854,W,1,8,1.6,14,M,,M,,*57
06/12/2015	10:06:21.501	$GPGGA,100622,2429.9619,N,08114.7835,W,1,8,1.6,14,M,,M,,*52
06/12/2015	10:06:22.521	$GPGGA,100623,2429.9622,N,08114.7819,W,1,8,1.6,14,M,,M,,*55
06/12/2015	10:06:23.561	$GPGGA,100624,2429.9628,N,08114.7801,W,1,8,1.6,14,M,,M,,*51
06/12/2015	10:06:24.500	$GPGGA,100625,2429.9630,N,08114.7782,W,1,8,1.6,14,M,,M,,*5D
06/12/2015	10:06:25.620	$GPGGA,100626,2429.9632,N,08114.7767,W,1,7,1.8,14,M,,M,,*56
06/12/2015	10:06:26.520	$GPGGA,100627,2429.9637,N,08114.7748,W,1,7,1.6,14,M,,M,,*51
06/12/2015	10:06:27.630	$GPGGA,100628,2429.9640,N,08114.7732,W,1,7,1.8,14,M,,M,,*5D
06/12/2015	10:06:28.510	$GPGGA,100629,2429.9641,N,08114.7715,W,1,7,1.6,14,M,,M,,*56
06/12/2015	10:06:29.510	$GPGGA,100630,2429.9644,N,08114.7696,W,1,8,1.6,14,M,,M,,*5E
06/12/2015	10:06:30.500	$GPGGA,100631,2429.9651,N,08114.7678,W,1,8,1.6,14,M,,M,,*5B
06/12/2015	10:06:31.510	$GPGGA,100632,2429.9655,N,08114.7661,W,1,7,1.8,14,M,,M,,*55
06/12/2015	10:06:32.500	$GPGGA,100633,2429.9659,N,08114.7641,W,1,7,1.8,14,M,,M,,*5A
06/12/2015	10:06:33.481	$GPGGA,100634,2429.9662,N,08114.7621,W,1,7,1.8,14,M,,M,,*53
06/12/2015	10:06:34.500	$GPGGA,100635,2429.9668,N,08114.7606,W,1,7,1.6,13,M,,M,,*54
06/12/2015	10:06:35.621	$GPGGA,100636,2429.9673,N,08114.7590,W,1,7,1.8,13,M,,M,,*5F
06/12/2015	10:06:36.501	$GPGGA,100637,2429.9677,N,08114.7570,W,1,7,1.6,13,M,,M,,*5A
06/12/2015	10:06:37.491	$GPGGA,100638,2429.9677,N,08114.7554,W,1,7,1.8,13,M,,M,,*5D
06/12/2015	10:06:38.585	$GPGGA,100639,2429.9682,N,08114.7538,W,1,7,1.6,13,M,,M,,*52
06/12/2015	10:06:39.587	$GPGGA,100640,2429.9688,N,08114.7522,W,1,8,1.6,13,M,,M,,*52
06/12/2015	10:06:40.561	$GPGGA,100641,2429.9691,N,08114.7503,W,1,8,1.8,13,M,,M,,*56
06/12/2015	10:06:41.571	$GPGGA,100642,2429.9693,N,08114.7485,W,1,7,1.8,13,M,,M,,*57
06/12/2015	10:06:42.471	$GPGGA,100643,2429.9695,N,08114.7471,W,1,7,1.8,13,M,,M,,*5B
06/12/2015	10:06:43.600	$GPGGA,100644,2429.9701,N,08114.7454,W,1,8,1.6,13,M,,M,,*56
06/12/2015	10:06:44.582	$GPGGA,100645,2429.9704,N,08114.7435,W,1,8,1.6,13,M,,M,,*55
06/12/2015	10:06:45.560	$GPGGA,100646,2429.9706,N,08114.7418,W,1,7,1.8,13,M,,M,,*5A
06/12/2015	10:06:46.570	$GPGGA,100647,2429.9711,N,08114.7400,W,1,7,1.8,13,M,,M,,*54
06/12/2015	10:06:47.570	$GPGGA,100648,2429.9716,N,08114.7384,W,1,7,1.8,13,M,,M,,*57
06/12/2015	10:06:48.570	$GPGGA,100649,2429.9717,N,08114.7367,W,1,7,1.8,13,M,,M,,*5A
06/12/2015	10:06:49.560	$GPGGA,100650,2429.9722,N,08114.7348,W,1,8,1.6,13,M,,M,,*58
06/12/2015	10:06:50.550	$GPGGA,100651,2429.9727,N,08114.7331,W,1,8,1.8,13,M,,M,,*5C
06/12/2015	10:06:51.890	$GPGGA,100652,2429.9730,N,08114.7316,W,1,7,1.8,13,M,,M,,*53
06/12/2015	10:06:52.540	$GPGGA,100653,2429.9734,N,08114.7299,W,1,7,1.6,13,M,,M,,*5E
06/12/2015	10:06:54.587	$GPGGA,100655,2429.9742,N,08114.7263,W,1,7,1.8,13,M,,M,,*52
06/12/2015	10:06:55.572	$GPGGA,100656,2429.9745,N,08114.7247,W,1,7,1.8,13,M,,M,,*50
06/12/2015	10:06:56.541	$GPGGA,100657,2429.9748,N,08114.7233,W,1,7,1.8,12,M,,M,,*5E
06/12/2015	10:06:57.551	$GPGGA,100658,2429.9753,N,08114.7214,W,1,8,1.6,12,M,,M,,*5F
06/12/2015	10:06:58.531	$GPGGA,100659,2429.9755,N,08114.7198,W,1,8,1.8,12,M,,M,,*51
06/12/2015	10:06:59.550	$GPGGA,100700,2429.9756,N,08114.7185,W,1,8,1.6,12,M,,M,,*5D
06/12/2015	10:07:00.540	$GPGGA,100701,2429.9760,N,08114.7171,W,1,8,1.6,12,M,,M,,*52
06/12/2015	10:07:01.560	$GPGGA,100702,2429.9763,N,08114.7154,W,1,8,1.6,12,M,,M,,*55
06/12/2015	10:07:02.531	$GPGGA,100703,2429.9764,N,08114.7137,W,1,8,1.6,12,M,,M,,*56
06/12/2015	10:07:03.585	$GPGGA,100704,2429.9767,N,08114.7123,W,1,8,1.6,13,M,,M,,*56
06/12/2015	10:07:04.530	$GPGGA,100705,2429.9769,N,08114.7110,W,1,8,1.6,13,M,,M,,*59
06/12/2015	10:07:05.510	$GPGGA,100706,2429.9771,N,08114.7093,W,1,8,1.6,13,M,,M,,*59
06/12/2015	10:07:06.530	$GPGGA,100707,2429.9774,N,08114.7077,W,1,8,1.6,13,M,,M,,*57
06/12/2015	10:07:07.520	$GPGGA,100708,2429.9773,N,08114.7066,W,1,8,1.6,13,M,,M,,*5F
06/12/2015	10:07:08.982	$GPGGA,100709,2429.9774,N,08114.7049,W,1,8,1.6,13,M,,M,,*54
06/12/2015	10:07:09.540	$GPGGA,100710,2429.9776,N,08114.7033,W,1,7,2.1,13,M,,M,,*58
06/12/2015	10:07:10.501	$GPGGA,100711,2429.9775,N,08114.7019,W,1,7,1.6,13,M,,M,,*56
06/12/2015	10:07:11.692	$GPGGA,100712,2429.9774,N,08114.7002,W,1,8,1.6,13,M,,M,,*51
06/12/2015	10:07:12.521	$GPGGA,100713,2429.9773,N,08114.6986,W,1,8,1.6,13,M,,M,,*53
06/12/2015	10:07:13.691	$GPGGA,100714,2429.9774,N,08114.6970,W,1,8,1.6,13,M,,M,,*5A
06/12/2015	10:07:14.601	$GPGGA,100715,2429.9773,N,08114.6953,W,1,8,1.6,13,M,,M,,*5D
06/12/2015	10:07:15.551	$GPGGA,100716,2429.9772,N,08114.6936,W,1,8,1.6,13,M,,M,,*5C
06/12/2015	10:07:16.487	$GPGGA,100717,2429.9771,N,08114.6921,W,1,8,1.6,13,M,,M,,*58
06/12/2015	10:07:17.510	$GPGGA,100718,2429.9771,N,08114.6904,W,1,8,1.6,13,M,,M,,*50
06/12/2015	10:07:18.490	$GPGGA,100719,2429.9769,N,08114.6886,W,1,8,1.6,13,M,,M,,*53
06/12/2015	10:07:19.540	$GPGGA,100720,2429.9767,N,08114.6871,W,1,8,1.6,13,M,,M,,*5F
06/12/2015	10:07:20.500	$GPGGA,100721,2429.9767,N,08114.6853,W,1,8,1.6,13,M,,M,,*5E
06/12/2015	10:07:21.483	$GPGGA,100722,2429.9764,N,08114.6836,W,1,8,1.6,13,M,,M,,*5D
06/12/2015	10:07:22.583	$GPGGA,100723,2429.9761,N,08114.6822,W,1,8,1.6,14,M,,M,,*5B
06/12/2015	10:07:23.690	$GPGGA,100724,2429.9760,N,08114.6804,W,1,8,1.8,14,M,,M,,*57
06/12/2015	10:07:24.510	$GPGGA,100725,2429.9757,N,08114.6786,W,1,8,1.8,14,M,,M,,*57
06/12/2015	10:07:25.672	$GPGGA,100726,2429.9754,N,08114.6770,W,1,8,1.6,14,M,,M,,*50
06/12/2015	10:07:26.572	$GPGGA,100727,2429.9751,N,08114.6754,W,1,8,1.8,14,M,,M,,*5C
06/12/2015	10:07:27.581	$GPGGA,100728,2429.9749,N,08114.6736,W,1,8,1.6,14,M,,M,,*50
06/12/2015	10:07:28.621	$GPGGA,100729,2429.9746,N,08114.6718,W,1,8,1.8,14,M,,M,,*5C
06/12/2015	10:07:29.661	$GPGGA,100730,2429.9742,N,08114.6702,W,1,7,1.8,14,M,,M,,*54
06/12/2015	10:07:30.591	$GPGGA,100731,2429.9740,N,08114.6688,W,1,7,1.6,14,M,,M,,*5A
06/12/2015	10:07:31.677	$GPGGA,100732,2429.9738,N,08114.6671,W,1,8,1.6,14,M,,M,,*5F
06/12/2015	10:07:32.591	$GPGGA,100733,2429.9733,N,08114.6654,W,1,8,1.8,14,M,,M,,*5C
06/12/2015	10:07:33.661	$GPGGA,100734,2429.9731,N,08114.6639,W,1,7,1.8,14,M,,M,,*5D
06/12/2015	10:07:34.580	$GPGGA,100735,2429.9728,N,08114.6626,W,1,7,1.8,14,M,,M,,*5A
06/12/2015	10:07:35.661	$GPGGA,100736,2429.9725,N,08114.6610,W,1,8,1.6,14,M,,M,,*50
06/12/2015	10:07:36.578	$GPGGA,100737,2429.9721,N,08114.6594,W,1,8,1.6,14,M,,M,,*5A
06/12/2015	10:07:37.640	$GPGGA,100738,2429.9720,N,08114.6581,W,1,8,1.6,14,M,,M,,*50
06/12/2015	10:07:38.620	$GPGGA,100739,2429.9717,N,08114.6568,W,1,8,1.6,15,M,,M,,*53
06/12/2015	10:07:39.673	$GPGGA,100740,2429.9713,N,08114.6553,W,1,8,1.6,15,M,,M,,*51
06/12/2015	10:07:40.578	$GPGGA,100741,2429.9713,N,08114.6539,W,1,8,1.6,15,M,,M,,*5C
06/12/2015	10:07:41.540	$GPGGA,100742,2429.9709,N,08114.6525,W,1,7,1.8,15,M,,M,,*58
06/12/2015	10:07:42.540	$GPGGA,100743,2429.9706,N,08114.6510,W,1,7,1.6,15,M,,M,,*5E
06/12/2015	10:07:43.680	$GPGGA,100744,2429.9706,N,08114.6496,W,1,7,1.8,15,M,,M,,*58
06/12/2015	10:07:44.570	$GPGGA,100745,2429.9702,N,08114.6480,W,1,7,1.6,15,M,,M,,*54
06/12/2015	10:07:45.651	$GPGGA,100746,2429.9702,N,08114.6466,W,1,8,1.6,15,M,,M,,*50
06/12/2015	10:07:46.561	$GPGGA,100747,2429.9699,N,08114.6450,W,1,8,1.6,15,M,,M,,*57
06/12/2015	10:07:47.661	$GPGGA,100748,2429.9696,N,08114.6436,W,1,8,1.6,15,M,,M,,*57
06/12/2015	10:07:48.574	$GPGGA,100749,2429.9695,N,08114.6420,W,1,8,1.6,15,M,,M,,*52
06/12/2015	10:07:49.631	$GPGGA,100750,2429.9695,N,08114.6404,W,1,8,1.6,15,M,,M,,*5C
06/12/2015	10:07:50.521	$GPGGA,100751,2429.9691,N,08114.6390,W,1,8,1.6,15,M,,M,,*53
06/12/2015	10:07:51.600	$GPGGA,100752,2429.9689,N,08114.6374,W,1,8,1.6,15,M,,M,,*53
06/12/2015	10:07:52.550	$GPGGA,100753,2429.9690,N,08114.6358,W,1,8,1.6,15,M,,M,,*54
06/12/2015	10:07:53.600	$GPGGA,100754,2429.9688,N,08114.6343,W,1,8,1.6,15,M,,M,,*50
06/12/2015	10:07:54.520	$GPGGA,100755,2429.9685,N,08114.6327,W,1,8,1.6,15,M,,M,,*5E
06/12/2015	10:07:55.641	$GPGGA,100756,2429.9684,N,08114.6311,W,1,8,1.6,15,M,,M,,*59
06/12/2015	10:07:56.540	$GPGGA,100757,2429.9684,N,08114.6296,W,1,8,1.7,15,M,,M,,*57
06/12/2015	10:07:57.590	$GPGGA,100758,2429.9684,N,08114.6284,W,1,7,1.6,15,M,,M,,*55
06/12/2015	10:07:58.560	$GPGGA,100759,2429.9680,N,08114.6270,W,1,7,1.7,15,M,,M,,*5A
06/12/2015	10:07:59.600	$GPGGA,100800,2429.9680,N,08114.6255,W,1,7,1.6,16,M,,M,,*5C
06/12/2015	10:08:00.500	$GPGGA,100801,2429.9682,N,08114.6239,W,1,7,1.6,16,M,,M,,*55
06/12/2015	10:08:01.600	$GPGGA,100802,2429.9678,N,08114.6225,W,1,8,1.6,16,M,,M,,*51
06/12/2015	10:08:02.540	$GPGGA,100803,2429.9677,N,08114.6213,W,1,8,2.1,16,M,,M,,*5E
06/12/2015	10:08:03.642	$GPGGA,100804,2429.9680,N,08114.6198,W,1,7,2.1,16,M,,M,,*5E
06/12/2015	10:08:04.611	$GPGGA,100805,2429.9678,N,08114.6185,W,1,7,1.6,16,M,,M,,*50
06/12/2015	10:08:05.581	$GPGGA,100806,2429.9675,N,08114.6172,W,1,8,1.6,16,M,,M,,*59
06/12/2015	10:08:06.531	$GPGGA,100807,2429.9676,N,08114.6157,W,1,8,1.6,16,M,,M,,*5C
06/12/2015	10:08:07.611	$GPGGA,100808,2429.9674,N,08114.6144,W,1,8,1.8,16,M,,M,,*5D
06/12/2015	10:08:08.541	$GPGGA,100809,2429.9673,N,08114.6129,W,1,8,1.6,16,M,,M,,*5E
06/12/2015	10:08:09.582	$GPGGA,100810,2429.9669,N,08114.6114,W,1,8,1.6,16,M,,M,,*53
06/12/2015	10:08:10.520	$GPGGA,100811,2429.9669,N,08114.6099,W,1,8,1.6,16,M,,M,,*56
06/12/2015	10:08:11.590	$GPGGA,100812,2429.9669,N,08114.6086,W,1,8,1.8,16,M,,M,,*55
06/12/2015	10:08:12.510	$GPGGA,100813,2429.9666,N,08114.6072,W,1,8,1.6,16,M,,M,,*5E
06/12/2015	10:08:13.590	$GPGGA,100814,2429.9666,N,08114.6056,W,1,8,1.6,17,M,,M,,*5E
06/12/2015	10:08:14.500	$GPGGA,100815,2429.9666,N,08114.6041,W,1,8,1.6,17,M,,M,,*59
06/12/2015	10:08:15.583	$GPGGA,100816,2429.9666,N,08114.6028,W,1,8,1.7,17,M,,M,,*54
06/12/2015	10:08:16.590	$GPGGA,100817,2429.9663,N,08114.6011,W,1,8,1.7,17,M,,M,,*5A
06/12/2015	10:08:17.571	$GPGGA,100818,2429.9664,N,08114.5994,W,1,7,1.6,17,M,,M,,*5B
06/12/2015	10:08:18.571	$GPGGA,100819,2429.9662,N,08114.5979,W,1,7,1.6,17,M,,M,,*5F
06/12/2015	10:08:19.581	$GPGGA,100820,2429.9660,N,08114.5965,W,1,8,1.6,17,M,,M,,*55
06/12/2015	10:08:20.561	$GPGGA,100821,2429.9659,N,08114.5950,W,1,8,1.6,17,M,,M,,*58
06/12/2015	10:08:21.574	$GPGGA,100822,2429.9662,N,08114.5936,W,1,8,2.1,17,M,,M,,*57
06/12/2015	10:08:22.561	$GPGGA,100823,2429.9660,N,08114.5921,W,1,8,1.6,17,M,,M,,*56
06/12/2015	10:08:23.672	$GPGGA,100824,2429.9659,N,08114.5904,W,1,8,1.6,17,M,,M,,*5C
06/12/2015	10:08:24.551	$GPGGA,100825,2429.9659,N,08114.5890,W,1,8,1.8,17,M,,M,,*5F
06/12/2015	10:08:25.611	$GPGGA,100826,2429.9656,N,08114.5876,W,1,7,1.8,18,M,,M,,*5B
06/12/2015	10:08:26.550	$GPGGA,100827,2429.9655,N,08114.5861,W,1,7,1.8,18,M,,M,,*5F
06/12/2015	10:08:27.600	$GPGGA,100828,2429.9653,N,08114.5848,W,1,7,1.6,18,M,,M,,*53
06/12/2015	10:08:28.550	$GPGGA,100829,2429.9655,N,08114.5836,W,1,7,2.1,18,M,,M,,*59
06/12/2015	10:08:29.573	$GPGGA,100830,2429.9657,N,08114.5823,W,1,7,1.6,18,M,,M,,*53
06/12/2015	10:08:30.550	$GPGGA,100831,2429.9656,N,08114.5811,W,1,7,1.6,18,M,,M,,*52
06/12/2015	10:08:31.575	$GPGGA,100832,2429.9656,N,08114.5811,W,1,8,1.6,18,M,,M,,*5E
06/12/2015	10:08:32.541	$GPGGA,100833,2429.9661,N,08114.5785,W,1,8,1.6,18,M,,M,,*59
06/12/2015	10:08:33.600	$GPGGA,100834,2429.9659,N,08114.5774,W,1,8,1.6,18,M,,M,,*5B
06/12/2015	10:08:34.540	$GPGGA,100835,2429.9662,N,08114.5763,W,1,8,1.6,18,M,,M,,*54
06/12/2015	10:08:35.621	$GPGGA,100836,2429.9666,N,08114.5752,W,1,8,1.8,18,M,,M,,*5F
06/12/2015	10:08:36.560	$GPGGA,100837,2429.9666,N,08114.5741,W,1,8,1.8,18,M,,M,,*5C
06/12/2015	10:08:37.560	$GPGGA,100838,2429.9668,N,08114.5733,W,1,7,1.6,18,M,,M,,*59
06/12/2015	10:08:38.541	$GPGGA,100839,2429.9672,N,08114.5724,W,1,7,1.6,18,M,,M,,*55
06/12/2015	10:08:40.551	$GPGGA,100840,2429.9675,N,08114.5714,W,1,8,1.6,18,M,,M,,*50
06/12/2015	10:08:40.581	$GPGGA,100841,2429.9677,N,08114.5704,W,1,8,1.6,18,M,,M,,*52
06/12/2015	10:08:41.561	$GPGGA,100842,2429.9677,N,08114.5704,W,1,8,1.6,18,M,,M,,*51
06/12/2015	10:08:42.511	$GPGGA,100843,2429.9686,N,08114.5688,W,1,8,1.6,18,M,,M,,*5B
06/12/2015	10:08:43.611	$GPGGA,100844,2429.9686,N,08114.5688,W,1,7,1.8,18,M,,M,,*5D
06/12/2015	10:08:44.500	$GPGGA,100845,2429.9694,N,08114.5673,W,1,7,1.6,18,M,,M,,*55
06/12/2015	10:08:45.530	$GPGGA,100846,2429.9694,N,08114.5673,W,1,8,1.6,18,M,,M,,*59
06/12/2015	10:08:46.530	$GPGGA,100847,2429.9702,N,08114.5658,W,1,8,1.6,18,M,,M,,*5F
06/12/2015	10:08:47.572	$GPGGA,100848,2429.9702,N,08114.5658,W,1,8,1.6,18,M,,M,,*50
06/12/2015	10:08:48.540	$GPGGA,100849,2429.9715,N,08114.5646,W,1,8,1.6,18,M,,M,,*58
06/12/2015	10:08:49.570	$GPGGA,100850,2429.9720,N,08114.5639,W,1,8,1.6,18,M,,M,,*5E
06/12/2015	10:08:50.590	$GPGGA,100851,2429.9726,N,08114.5634,W,1,8,1.6,18,M,,M,,*54
06/12/2015	10:08:51.641	$GPGGA,100852,2429.9726,N,08114.5634,W,1,8,1.6,18,M,,M,,*57
06/12/2015	10:08:52.900	$GPGGA,100853,2429.9737,N,08114.5625,W,1,8,1.6,18,M,,M,,*56
06/12/2015	10:08:53.520	$GPGGA,100854,2429.9737,N,08114.5625,W,1,7,2.1,18,M,,M,,*5A
06/12/2015	10:08:54.487	$GPGGA,100855,2429.9745,N,08114.5616,W,1,7,1.6,18,M,,M,,*5A
06/12/2015	10:08:55.521	$GPGGA,100856,2429.9745,N,08114.5616,W,1,8,1.6,18,M,,M,,*56
06/12/2015	10:08:56.587	$GPGGA,100857,2429.9756,N,08114.5608,W,1,8,2.1,18,M,,M,,*5E
06/12/2015	10:08:57.621	$GPGGA,100858,2429.9760,N,08114.5603,W,1,8,1.6,18,M,,M,,*5B
06/12/2015	10:08:58.501	$GPGGA,100859,2429.9760,N,08114.5603,W,1,8,1.6,18,M,,M,,*5A
06/12/2015	10:08:59.551	$GPGGA,100900,2429.9767,N,08114.5601,W,1,8,1.6,18,M,,M,,*52
06/12/2015	10:09:00.611	$GPGGA,100901,2429.9778,N,08114.5595,W,1,8,1.6,18,M,,M,,*53
06/12/2015	10:09:01.586	$GPGGA,100902,2429.9787,N,08114.5592,W,1,7,1.9,18,M,,M,,*57
06/12/2015	10:09:02.570	$GPGGA,100903,2429.9795,N,08114.5593,W,1,7,1.6,18,M,,M,,*5B
06/12/2015	10:09:03.500	$GPGGA,100904,2429.9803,N,08114.5593,W,1,8,1.6,18,M,,M,,*53
06/12/2015	10:09:04.579	$GPGGA,100905,2429.9809,N,08114.5592,W,1,8,1.6,18,M,,M,,*59
06/12/2015	10:09:05.577	$GPGGA,100906,2429.9816,N,08114.5590,W,1,7,1.9,19,M,,M,,*57
06/12/2015	10:09:06.560	$GPGGA,100907,2429.9821,N,08114.5589,W,1,7,1.6,19,M,,M,,*55
06/12/2015	10:09:07.586	$GPGGA,100908,2429.9827,N,08114.5593,W,1,8,1.6,19,M,,M,,*58
06/12/2015	10:09:08.571	$GPGGA,100909,2429.9834,N,08114.5596,W,1,8,1.6,19,M,,M,,*5E
06/12/2015	10:09:09.551	$GPGGA,100910,2429.9842,N,08114.5592,W,1,8,1.6,19,M,,M,,*53
06/12/2015	10:09:10.550	$GPGGA,100911,2429.9846,N,08114.5594,W,1,8,1.6,19,M,,M,,*50
06/12/2015	10:09:11.590	$GPGGA,100912,2429.9850,N,08114.5600,W,1,8,1.6,19,M,,M,,*5A
06/12/2015	10:09:12.550	$GPGGA,100913,2429.9857,N,08114.5601,W,1,8,1.6,19,M,,M,,*5D
06/12/2015	10:09:13.561	$GPGGA,100914,2429.9863,N,08114.5600,W,1,8,1.6,19,M,,M,,*5C
06/12/2015	10:09:14.551	$GPGGA,100915,2429.9868,N,08114.5604,W,1,8,1.6,19,M,,M,,*52
06/12/2015	10:09:15.587	$GPGGA,100916,2429.9872,N,08114.5610,W,1,8,1.6,19,M,,M,,*5F
06/12/2015	10:09:16.551	$GPGGA,100917,2429.9878,N,08114.5612,W,1,8,1.6,19,M,,M,,*56
06/12/2015	10:09:17.574	$GPGGA,100918,2429.9883,N,08114.5614,W,1,7,1.9,19,M,,M,,*5B
06/12/2015	10:09:18.551	$GPGGA,100919,2429.9886,N,08114.5618,W,1,7,1.6,20,M,,M,,*56
06/12/2015	10:09:19.570	$GPGGA,100920,2429.9890,N,08114.5621,W,1,8,1.6,20,M,,M,,*5E
06/12/2015	10:09:20.540	$GPGGA,100921,2429.9894,N,08114.5626,W,1,8,1.6,20,M,,M,,*5C
06/12/2015	10:09:21.530	$GPGGA,100922,2429.9897,N,08114.5630,W,1,8,1.6,20,M,,M,,*5B
06/12/2015	10:09:22.540	$GPGGA,100923,2429.9901,N,08114.5634,W,1,8,1.6,20,M,,M,,*50
06/12/2015	10:09:23.580	$GPGGA,100924,2429.9904,N,08114.5639,W,1,8,1.6,20,M,,M,,*5F
06/12/2015	10:09:24.530	$GPGGA,100925,2429.9908,N,08114.5643,W,1,8,1.6,20,M,,M,,*5F
06/12/2015	10:09:25.530	$GPGGA,100926,2429.9911,N,08114.5648,W,1,8,1.6,20,M,,M,,*5F
06/12/2015	10:09:26.530	$GPGGA,100927,2429.9914,N,08114.5654,W,1,8,1.6,20,M,,M,,*56
06/12/2015	10:09:27.530	$GPGGA,100928,2429.9915,N,08114.5658,W,1,8,1.6,20,M,,M,,*54
06/12/2015	10:09:28.530	$GPGGA,100929,2429.9918,N,08114.5663,W,1,8,1.6,20,M,,M,,*50
06/12/2015	10:09:29.550	$GPGGA,100930,2429.9919,N,08114.5669,W,1,8,1.6,20,M,,M,,*53
06/12/2015	10:09:30.521	$GPGGA,100931,2429.9922,N,08114.5675,W,1,8,1.6,20,M,,M,,*57
06/12/2015	10:09:31.541	$GPGGA,100932,2429.9922,N,08114.5679,W,1,8,1.6,20,M,,M,,*58
06/12/2015	10:09:32.511	$GPGGA,100933,2429.9925,N,08114.5684,W,1,8,1.6,20,M,,M,,*5C
06/12/2015	10:09:33.541	$GPGGA,100934,2429.9924,N,08114.5690,W,1,8,1.6,19,M,,M,,*55
06/12/2015	10:09:34.521	$GPGGA,100935,2429.9926,N,08114.5697,W,1,8,1.6,19,M,,M,,*51
06/12/2015	10:09:35.611	$GPGGA,100936,2429.9926,N,08114.5702,W,1,8,1.6,19,M,,M,,*5F
06/12/2015	10:09:36.884	$GPGGA,100937,2429.9926,N,08114.5708,W,1,8,1.6,19,M,,M,,*54
06/12/2015	10:09:37.520	$GPGGA,100938,2429.9926,N,08114.5712,W,1,8,1.6,19,M,,M,,*50
06/12/2015	10:09:38.510	$GPGGA,100939,2429.9926,N,08114.5716,W,1,8,1.6,19,M,,M,,*55
06/12/2015	10:09:39.520	$GPGGA,100940,2429.9926,N,08114.5720,W,1,8,1.6,19,M,,M,,*5E
06/12/2015	10:09:40.484	$GPGGA,100941,2429.9926,N,08114.5726,W,1,8,1.6,19,M,,M,,*59
06/12/2015	10:09:41.490	$GPGGA,100942,2429.9926,N,08114.5731,W,1,7,1.9,19,M,,M,,*5C
06/12/2015	10:09:42.590	$GPGGA,100943,2429.9926,N,08114.5737,W,1,7,1.6,19,M,,M,,*54
06/12/2015	10:09:43.550	$GPGGA,100944,2429.9926,N,08114.5740,W,1,8,1.6,19,M,,M,,*5C
06/12/2015	10:09:44.486	$GPGGA,100945,2429.9926,N,08114.5744,W,1,8,1.6,19,M,,M,,*59
06/12/2015	10:09:45.486	$GPGGA,100946,2429.9926,N,08114.5748,W,1,8,1.6,19,M,,M,,*56
06/12/2015	10:09:46.580	$GPGGA,100947,2429.9924,N,08114.5753,W,1,8,1.9,19,M,,M,,*50
06/12/2015	10:09:47.490	$GPGGA,100948,2429.9923,N,08114.5759,W,1,7,1.9,19,M,,M,,*5D
06/12/2015	10:09:48.571	$GPGGA,100949,2429.9921,N,08114.5763,W,1,7,1.6,19,M,,M,,*58
06/12/2015	10:09:49.591	$GPGGA,100950,2429.9922,N,08114.5769,W,1,8,1.6,19,M,,M,,*56
06/12/2015	10:09:50.483	$GPGGA,100951,2429.9921,N,08114.5773,W,1,8,1.9,19,M,,M,,*50
06/12/2015	10:09:51.601	$GPGGA,100952,2429.9919,N,08114.5777,W,1,7,1.9,19,M,,M,,*53
06/12/2015	10:09:52.571	$GPGGA,100953,2429.9917,N,08114.5781,W,1,7,1.9,19,M,,M,,*55
06/12/2015	10:09:53.561	$GPGGA,100954,2429.9918,N,08114.5788,W,1,8,1.6,19,M,,M,,*54
06/12/2015	10:09:54.560	$GPGGA,100955,2429.9917,N,08114.5795,W,1,8,1.6,18,M,,M,,*57
06/12/2015	10:09:55.582	$GPGGA,100956,2429.9915,N,08114.5798,W,1,7,1.9,18,M,,M,,*5B
06/12/2015	10:09:56.560	$GPGGA,100957,2429.9913,N,08114.5802,W,1,7,1.6,18,M,,M,,*5F
06/12/2015	10:09:57.570	$GPGGA,100958,2429.9914,N,08114.5807,W,1,8,1.6,18,M,,M,,*5D
06/12/2015	10:09:58.540	$GPGGA,100959,2429.9912,N,08114.5813,W,1,8,1.9,18,M,,M,,*50
06/12/2015	10:10:00.580	$GPGGA,101001,2429.9906,N,08114.5824,W,1,7,1.6,18,M,,M,,*54
06/12/2015	10:10:01.560	$GPGGA,101002,2429.9907,N,08114.5829,W,1,8,1.6,18,M,,M,,*54
06/12/2015	10:10:02.530	$GPGGA,101003,2429.9905,N,08114.5835,W,1,8,1.6,18,M,,M,,*5A
06/12/2015	10:10:03.570	$GPGGA,101004,2429.9903,N,08114.5838,W,1,8,1.6,18,M,,M,,*56
06/12/2015	10:10:04.530	$GPGGA,101005,2429.9902,N,08114.5843,W,1,8,1.6,18,M,,M,,*5A
06/12/2015	10:10:05.550	$GPGGA,101006,2429.9899,N,08114.5847,W,1,8,1.6,18,M,,M,,*5E
06/12/2015	10:10:06.530	$GPGGA,101007,2429.9898,N,08114.5853,W,1,8,1.6,18,M,,M,,*5B
06/12/2015	10:10:07.570	$GPGGA,101008,2429.9897,N,08114.5860,W,1,8,1.6,18,M,,M,,*5B
06/12/2015	10:10:08.530	$GPGGA,101009,2429.9895,N,08114.5863,W,1,8,1.6,18,M,,M,,*5B
06/12/2015	10:10:09.510	$GPGGA,101010,2429.9892,N,08114.5867,W,1,8,1.6,18,M,,M,,*50
06/12/2015	10:10:10.530	$GPGGA,101011,2429.9891,N,08114.5871,W,1,8,1.6,18,M,,M,,*55
06/12/2015	10:10:11.549	$GPGGA,101012,2429.9890,N,08114.5876,W,1,8,1.6,18,M,,M,,*50
06/12/2015	10:10:12.519	$GPGGA,101013,2429.9887,N,08114.5882,W,1,8,1.6,18,M,,M,,*5C
06/12/2015	10:10:13.549	$GPGGA,101014,2429.9884,N,08114.5885,W,1,8,1.6,18,M,,M,,*5F
06/12/2015	10:10:14.519	$GPGGA,101015,2429.9885,N,08114.5889,W,1,8,1.6,18,M,,M,,*53
06/12/2015	10:10:15.539	$GPGGA,101016,2429.9883,N,08114.5894,W,1,8,1.6,18,M,,M,,*5A
06/12/2015	10:10:16.520	$GPGGA,101017,2429.9880,N,08114.5899,W,1,8,1.6,18,M,,M,,*55
06/12/2015	10:10:17.620	$GPGGA,101018,2429.9877,N,08114.5903,W,1,8,1.6,18,M,,M,,*50
06/12/2015	10:10:18.520	$GPGGA,101019,2429.9876,N,08114.5907,W,1,8,1.6,18,M,,M,,*54
06/12/2015	10:10:19.520	$GPGGA,101020,2429.9876,N,08114.5912,W,1,8,1.6,18,M,,M,,*5A
06/12/2015	10:10:20.490	$GPGGA,101021,2429.9874,N,08114.5917,W,1,8,1.6,18,M,,M,,*5C
06/12/2015	10:10:21.520	$GPGGA,101022,2429.9872,N,08114.5919,W,1,8,1.6,18,M,,M,,*57
06/12/2015	10:10:22.490	$GPGGA,101023,2429.9872,N,08114.5925,W,1,8,1.6,18,M,,M,,*59
06/12/2015	10:10:23.530	$GPGGA,101024,2429.9870,N,08114.5930,W,1,8,1.6,18,M,,M,,*58
06/12/2015	10:10:24.500	$GPGGA,101025,2429.9867,N,08114.5934,W,1,8,1.6,18,M,,M,,*5B
06/12/2015	10:10:25.610	$GPGGA,101026,2429.9863,N,08114.5939,W,1,8,1.6,18,M,,M,,*51
06/12/2015	10:10:26.500	$GPGGA,101027,2429.9865,N,08114.5943,W,1,8,1.6,18,M,,M,,*5B
06/12/2015	10:10:27.500	$GPGGA,101028,2429.9863,N,08114.5950,W,1,7,1.9,18,M,,M,,*50
06/12/2015	10:10:28.590	$GPGGA,101029,2429.9857,N,08114.5952,W,1,7,1.9,18,M,,M,,*54
06/12/2015	10:10:29.499	$GPGGA,101030,2429.9855,N,08114.5957,W,1,8,1.6,18,M,,M,,*5B
06/12/2015	10:10:30.469	$GPGGA,101031,2429.9857,N,08114.5964,W,1,8,1.8,18,M,,M,,*56
06/12/2015	10:10:31.482	$GPGGA,101032,2429.9854,N,08114.5968,W,1,7,1.9,18,M,,M,,*54
06/12/2015	10:10:32.575	$GPGGA,101033,2429.9851,N,08114.5972,W,1,7,1.9,18,M,,M,,*5B
06/12/2015	10:10:33.851	$GPGGA,101034,2429.9852,N,08114.5979,W,1,8,1.6,18,M,,M,,*54
06/12/2015	10:10:34.580	$GPGGA,101035,2429.9851,N,08114.5986,W,1,8,1.6,18,M,,M,,*56
06/12/2015	10:10:35.580	$GPGGA,101036,2429.9847,N,08114.5990,W,1,7,1.9,18,M,,M,,*55
06/12/2015	10:10:36.560	$GPGGA,101037,2429.9844,N,08114.5993,W,1,7,1.9,18,M,,M,,*54
06/12/2015	10:10:37.580	$GPGGA,101038,2429.9843,N,08114.5999,W,1,8,1.6,18,M,,M,,*56
06/12/2015	10:10:38.562	$GPGGA,101039,2429.9843,N,08114.6006,W,1,8,1.6,18,M,,M,,*5B
06/12/2015	10:10:40.076	$GPGGA,101040,2429.9840,N,08114.6012,W,1,8,1.6,18,M,,M,,*53
06/12/2015	10:10:40.550	$GPGGA,101041,2429.9841,N,08114.6017,W,1,8,1.6,18,M,,M,,*56
06/12/2015	10:10:41.570	$GPGGA,101042,2429.9842,N,08114.6023,W,1,8,1.6,18,M,,M,,*51
06/12/2015	10:10:43.010	$GPGGA,101043,2429.9839,N,08114.6029,W,1,8,1.6,18,M,,M,,*56
06/12/2015	10:10:43.580	$GPGGA,101044,2429.9838,N,08114.6033,W,1,8,1.6,18,M,,M,,*5B
06/12/2015	10:10:44.540	$GPGGA,101045,2429.9839,N,08114.6040,W,1,8,1.6,18,M,,M,,*5F
06/12/2015	10:10:45.570	$GPGGA,101046,2429.9837,N,08114.6044,W,1,8,1.6,18,M,,M,,*56
06/12/2015	10:10:46.549	$GPGGA,101047,2429.9833,N,08114.6051,W,1,8,1.6,18,M,,M,,*57
06/12/2015	10:10:47.589	$GPGGA,101048,2429.9832,N,08114.6056,W,1,8,1.6,19,M,,M,,*5F
06/12/2015	10:10:48.540	$GPGGA,101049,2429.9834,N,08114.6062,W,1,8,1.6,19,M,,M,,*5F
06/12/2015	10:10:49.529	$GPGGA,101050,2429.9832,N,08114.6066,W,1,8,1.6,19,M,,M,,*55
06/12/2015	10:10:50.549	$GPGGA,101051,2429.9829,N,08114.6073,W,1,8,1.6,19,M,,M,,*5A
06/12/2015	10:10:51.540	$GPGGA,101052,2429.9827,N,08114.6078,W,1,8,1.6,19,M,,M,,*5C
06/12/2015	10:10:52.540	$GPGGA,101053,2429.9828,N,08114.6084,W,1,8,1.6,19,M,,M,,*51
06/12/2015	10:10:53.561	$GPGGA,101054,2429.9825,N,08114.6088,W,1,8,1.6,19,M,,M,,*57
06/12/2015	10:10:54.530	$GPGGA,101055,2429.9822,N,08114.6094,W,1,8,1.6,19,M,,M,,*5C
06/12/2015	10:10:55.560	$GPGGA,101056,2429.9823,N,08114.6099,W,1,8,1.6,19,M,,M,,*53
06/12/2015	10:10:56.521	$GPGGA,101057,2429.9821,N,08114.6105,W,1,8,1.6,19,M,,M,,*54
06/12/2015	10:10:58.540	$GPGGA,101059,2429.9818,N,08114.6116,W,1,8,1.6,19,M,,M,,*52
06/12/2015	10:10:59.551	$GPGGA,101100,2429.9816,N,08114.6123,W,1,8,1.6,19,M,,M,,*57
06/12/2015	10:11:00.520	$GPGGA,101101,2429.9814,N,08114.6127,W,1,8,1.6,19,M,,M,,*50
06/12/2015	10:11:01.530	$GPGGA,101102,2429.9811,N,08114.6132,W,1,8,1.6,19,M,,M,,*52
06/12/2015	10:11:02.520	$GPGGA,101103,2429.9813,N,08114.6138,W,1,8,1.6,19,M,,M,,*5B
06/12/2015	10:11:03.550	$GPGGA,101104,2429.9808,N,08114.6143,W,1,7,1.7,19,M,,M,,*54
06/12/2015	10:11:04.619	$GPGGA,101105,2429.9807,N,08114.6149,W,1,7,1.9,19,M,,M,,*5E
06/12/2015	10:11:05.529	$GPGGA,101106,2429.9807,N,08114.6156,W,1,8,1.6,19,M,,M,,*53
06/12/2015	10:11:06.509	$GPGGA,101107,2429.9804,N,08114.6160,W,1,8,1.6,19,M,,M,,*54
06/12/2015	10:11:07.519	$GPGGA,101108,2429.9803,N,08114.6164,W,1,8,1.6,19,M,,M,,*58
06/12/2015	10:11:08.510	$GPGGA,101109,2429.9803,N,08114.6170,W,1,8,1.9,19,M,,M,,*53
06/12/2015	10:11:09.510	$GPGGA,101110,2429.9805,N,08114.6175,W,1,8,1.6,19,M,,M,,*57
06/12/2015	10:11:10.490	$GPGGA,101111,2429.9803,N,08114.6181,W,1,8,1.9,19,M,,M,,*54
06/12/2015	10:11:11.600	$GPGGA,101112,2429.9803,N,08114.6185,W,1,7,1.9,19,M,,M,,*5C
06/12/2015	10:11:12.500	$GPGGA,101113,2429.9805,N,08114.6190,W,1,7,1.9,19,M,,M,,*5F
06/12/2015	10:11:13.610	$GPGGA,101114,2429.9804,N,08114.6196,W,1,7,1.9,19,M,,M,,*5F
06/12/2015	10:11:14.500	$GPGGA,101115,2429.9806,N,08114.6200,W,1,7,1.9,19,M,,M,,*50
06/12/2015	10:11:15.510	$GPGGA,101116,2429.9807,N,08114.6206,W,1,8,1.6,19,M,,M,,*54
06/12/2015	10:11:16.480	$GPGGA,101117,2429.9805,N,08114.6210,W,1,8,1.6,19,M,,M,,*50
06/12/2015	10:11:17.480	$GPGGA,101118,2429.9803,N,08114.6217,W,1,8,1.6,19,M,,M,,*5E
06/12/2015	10:11:18.500	$GPGGA,101119,2429.9803,N,08114.6221,W,1,8,1.6,19,M,,M,,*5A
06/12/2015	10:11:19.600	$GPGGA,101120,2429.9803,N,08114.6228,W,1,8,1.6,19,M,,M,,*59
06/12/2015	10:11:20.480	$GPGGA,101121,2429.9801,N,08114.6233,W,1,8,1.6,19,M,,M,,*50
06/12/2015	10:11:21.479	$GPGGA,101122,2429.9799,N,08114.6239,W,1,8,1.6,19,M,,M,,*57
06/12/2015	10:11:22.561	$GPGGA,101123,2429.9799,N,08114.6243,W,1,8,1.6,19,M,,M,,*5B
06/12/2015	10:11:23.619	$GPGGA,101124,2429.9798,N,08114.6247,W,1,8,1.6,19,M,,M,,*59
06/12/2015	10:11:24.570	$GPGGA,101125,2429.9799,N,08114.6254,W,1,8,1.6,19,M,,M,,*5B
06/12/2015	10:11:25.563	$GPGGA,101126,2429.9798,N,08114.6259,W,1,8,1.6,18,M,,M,,*55
06/12/2015	10:11:26.550	$GPGGA,101127,2429.9796,N,08114.6264,W,1,8,1.6,18,M,,M,,*54
06/12/2015	10:11:27.590	$GPGGA,101128,2429.9796,N,08114.6268,W,1,8,1.6,18,M,,M,,*57
06/12/2015	10:11:28.573	$GPGGA,101129,2429.9798,N,08114.6275,W,1,8,1.6,18,M,,M,,*54
06/12/2015	10:11:29.570	$GPGGA,101130,2429.9796,N,08114.6279,W,1,8,1.6,18,M,,M,,*5E
06/12/2015	10:11:30.561	$GPGGA,101131,2429.9794,N,08114.6283,W,1,8,1.6,18,M,,M,,*58
06/12/2015	10:11:31.580	$GPGGA,101132,2429.9793,N,08114.6288,W,1,8,1.6,18,M,,M,,*57
06/12/2015	10:11:32.540	$GPGGA,101133,2429.9794,N,08114.6293,W,1,8,1.6,18,M,,M,,*5B
06/12/2015	10:11:33.562	$GPGGA,101134,2429.9793,N,08114.6298,W,1,7,1.9,18,M,,M,,*50
06/12/2015	10:11:34.540	$GPGGA,101135,2429.9794,N,08114.6302,W,1,7,1.9,18,M,,M,,*54
06/12/2015	10:11:35.570	$GPGGA,101136,2429.9793,N,08114.6306,W,1,7,1.9,18,M,,M,,*54
06/12/2015	10:11:36.540	$GPGGA,101137,2429.9794,N,08114.6311,W,1,7,1.9,18,M,,M,,*54
06/12/2015	10:11:37.550	$GPGGA,101138,2429.9793,N,08114.6316,W,1,7,1.9,18,M,,M,,*5B
06/12/2015	10:11:38.530	$GPGGA,101139,2429.9792,N,08114.6320,W,1,7,1.9,18,M,,M,,*5E
06/12/2015	10:11:39.539	$GPGGA,101140,2429.9791,N,08114.6326,W,1,7,1.9,18,M,,M,,*55
06/12/2015	10:11:40.529	$GPGGA,101141,2429.9792,N,08114.6330,W,1,7,1.9,18,M,,M,,*50
06/12/2015	10:11:41.519	$GPGGA,101142,2429.9792,N,08114.6335,W,1,7,1.9,18,M,,M,,*56
06/12/2015	10:11:42.529	$GPGGA,101143,2429.9791,N,08114.6340,W,1,7,1.9,18,M,,M,,*56
06/12/2015	10:11:43.563	$GPGGA,101144,2429.9790,N,08114.6344,W,1,8,1.6,18,M,,M,,*54
06/12/2015	10:11:44.520	$GPGGA,101145,2429.9789,N,08114.6349,W,1,8,1.6,18,M,,M,,*50
06/12/2015	10:11:45.520	$GPGGA,101146,2429.9792,N,08114.6355,W,1,8,1.6,18,M,,M,,*54
06/12/2015	10:11:46.520	$GPGGA,101147,2429.9792,N,08114.6359,W,1,8,1.6,18,M,,M,,*59
06/12/2015	10:11:47.530	$GPGGA,101148,2429.9792,N,08114.6365,W,1,8,1.6,18,M,,M,,*59
06/12/2015	10:11:48.520	$GPGGA,101149,2429.9790,N,08114.6369,W,1,8,1.6,18,M,,M,,*56
06/12/2015	10:11:50.550	$GPGGA,101151,2429.9791,N,08114.6378,W,1,8,1.6,18,M,,M,,*5E
06/12/2015	10:11:51.540	$GPGGA,101152,2429.9789,N,08114.6384,W,1,8,1.6,18,M,,M,,*57
