Software Version Number: 1	Data File Format Number: 1	Build Version Number: 1	Error Count Since VI Started: 2	Manufacturer: Raytheon	 Model Number: RayMarine 120	 S/N: 	 Cal Date: 	 Wind Direction Offset: 0.00	 Slope (M)1: 0.00	 Offset (B)1: 0.00	 Slope (M)2: 0.00	 Offset (B)2: 0.00	 Slope (M)3: 0.00	 Offset (B)3: 0.00	 Slope (M)4: 0.00	 Offset (B)4: 0.00	 Slope (M)5: 0.00	 Offset (B)5: 0.00	 Slope (M)6: 0.00	 Offset (B)6: 0.00
Computer Date	Computer Time	GGA String
06/20/2015	16:00:00.513	$GPGGA,160001,2452.9688,N,08019.4914,W,1,11,1.3,12,M,,M,,*61
06/20/2015	16:00:01.613	$GPGGA,160002,2452.9686,N,08019.4931,W,1,10,1.3,12,M,,M,,*6A
06/20/2015	16:00:02.663	$GPGGA,160003,2452.9685,N,08019.4947,W,1,10,1.3,12,M,,M,,*69
06/20/2015	16:00:03.673	$GPGGA,160004,2452.9684,N,08019.4964,W,1,10,1.3,12,M,,M,,*6E
06/20/2015	16:00:04.573	$GPGGA,160005,2452.9680,N,08019.4980,W,1,10,1.3,12,M,,M,,*61
06/20/2015	16:00:05.613	$GPGGA,160006,2452.9678,N,08019.4996,W,1,10,1.3,12,M,,M,,*62
06/20/2015	16:00:06.623	$GPGGA,160007,2452.9677,N,08019.5011,W,1,10,1.3,12,M,,M,,*6B
06/20/2015	16:00:07.683	$GPGGA,160008,2452.9674,N,08019.5025,W,1,11,1.3,12,M,,M,,*61
06/20/2015	16:00:08.620	$GPGGA,160009,2452.9673,N,08019.5041,W,1,11,1.3,12,M,,M,,*65
06/20/2015	16:00:09.583	$GPGGA,160010,2452.9669,N,08019.5058,W,1,10,1.3,12,M,,M,,*6F
06/20/2015	16:00:10.633	$GPGGA,160011,2452.9667,N,08019.5073,W,1,10,1.3,12,M,,M,,*69
06/20/2015	16:00:11.653	$GPGGA,160012,2452.9666,N,08019.5090,W,1,11,1.3,12,M,,M,,*67
06/20/2015	16:00:12.553	$GPGGA,160013,2452.9663,N,08019.5105,W,1,11,1.3,12,M,,M,,*6E
06/20/2015	16:00:13.593	$GPGGA,160014,2452.9661,N,08019.5121,W,1,11,1.3,12,M,,M,,*6D
06/20/2015	16:00:14.553	$GPGGA,160015,2452.9659,N,08019.5137,W,1,11,1.3,12,M,,M,,*60
06/20/2015	16:00:15.653	$GPGGA,160016,2452.9656,N,08019.5155,W,1,10,1.4,12,M,,M,,*6E
06/20/2015	16:00:16.602	$GPGGA,160017,2452.9653,N,08019.5171,W,1,10,1.3,12,M,,M,,*6B
06/20/2015	16:00:17.582	$GPGGA,160018,2452.9650,N,08019.5186,W,1,10,1.3,12,M,,M,,*6F
06/20/2015	16:00:18.542	$GPGGA,160019,2452.9648,N,08019.5203,W,1,10,1.3,12,M,,M,,*69
06/20/2015	16:00:19.632	$GPGGA,160020,2452.9644,N,08019.5220,W,1,10,1.3,12,M,,M,,*6E
06/20/2015	16:00:20.612	$GPGGA,160021,2452.9641,N,08019.5238,W,1,10,1.3,12,M,,M,,*63
06/20/2015	16:00:22.602	$GPGGA,160022,2452.9638,N,08019.5254,W,1,10,1.3,12,M,,M,,*64
06/20/2015	16:00:22.632	$GPGGA,160023,2452.9635,N,08019.5272,W,1,10,1.3,12,M,,M,,*6C
06/20/2015	16:00:23.602	$GPGGA,160024,2452.9632,N,08019.5289,W,1,10,1.3,12,M,,M,,*68
06/20/2015	16:00:24.593	$GPGGA,160025,2452.9630,N,08019.5307,W,1,10,1.3,12,M,,M,,*6C
06/20/2015	16:00:25.573	$GPGGA,160026,2452.9626,N,08019.5325,W,1,11,1.3,13,M,,M,,*68
06/20/2015	16:00:26.523	$GPGGA,160027,2452.9623,N,08019.5341,W,1,11,1.3,13,M,,M,,*6E
06/20/2015	16:00:27.583	$GPGGA,160028,2452.9620,N,08019.5359,W,1,11,1.3,13,M,,M,,*6B
06/20/2015	16:00:28.583	$GPGGA,160029,2452.9617,N,08019.5376,W,1,11,1.3,13,M,,M,,*63
06/20/2015	16:00:29.517	$GPGGA,160030,2452.9614,N,08019.5394,W,1,10,1.3,13,M,,M,,*65
06/20/2015	16:00:30.517	$GPGGA,160031,2452.9612,N,08019.5412,W,1,10,1.3,13,M,,M,,*6B
06/20/2015	16:00:31.603	$GPGGA,160032,2452.9608,N,08019.5430,W,1,11,1.3,13,M,,M,,*62
06/20/2015	16:00:32.583	$GPGGA,160033,2452.9606,N,08019.5448,W,1,11,1.3,13,M,,M,,*62
06/20/2015	16:00:33.516	$GPGGA,160034,2452.9602,N,08019.5466,W,1,11,1.3,13,M,,M,,*6D
06/20/2015	16:00:34.572	$GPGGA,160035,2452.9599,N,08019.5482,W,1,11,1.3,13,M,,M,,*67
06/20/2015	16:00:35.612	$GPGGA,160036,2452.9597,N,08019.5500,W,1,11,1.3,13,M,,M,,*61
06/20/2015	16:00:36.502	$GPGGA,160037,2452.9594,N,08019.5518,W,1,11,1.3,13,M,,M,,*6A
06/20/2015	16:00:37.582	$GPGGA,160038,2452.9590,N,08019.5535,W,1,11,1.3,13,M,,M,,*6E
06/20/2015	16:00:38.562	$GPGGA,160039,2452.9587,N,08019.5553,W,1,11,1.3,13,M,,M,,*69
06/20/2015	16:00:39.632	$GPGGA,160040,2452.9584,N,08019.5571,W,1,10,1.3,13,M,,M,,*65
06/20/2015	16:00:40.622	$GPGGA,160041,2452.9581,N,08019.5589,W,1,10,1.3,13,M,,M,,*66
06/20/2015	16:00:41.526	$GPGGA,160042,2452.9577,N,08019.5607,W,1,11,1.3,13,M,,M,,*68
06/20/2015	16:00:42.493	$GPGGA,160043,2452.9574,N,08019.5625,W,1,11,1.3,13,M,,M,,*6A
06/20/2015	16:00:43.563	$GPGGA,160044,2452.9570,N,08019.5644,W,1,9,1.5,13,M,,M,,*51
06/20/2015	16:00:44.584	$GPGGA,160045,2452.9567,N,08019.5661,W,1,9,1.3,13,M,,M,,*57
06/20/2015	16:00:45.527	$GPGGA,160046,2452.9565,N,08019.5679,W,1,11,1.3,12,M,,M,,*67
06/20/2015	16:00:46.563	$GPGGA,160047,2452.9561,N,08019.5697,W,1,11,1.3,12,M,,M,,*62
06/20/2015	16:00:47.543	$GPGGA,160048,2452.9558,N,08019.5716,W,1,10,1.3,12,M,,M,,*6E
06/20/2015	16:00:48.553	$GPGGA,160049,2452.9556,N,08019.5733,W,1,10,1.3,12,M,,M,,*66
06/20/2015	16:00:49.573	$GPGGA,160050,2452.9554,N,08019.5752,W,1,11,1.3,12,M,,M,,*6A
06/20/2015	16:00:50.543	$GPGGA,160051,2452.9551,N,08019.5770,W,1,11,1.3,12,M,,M,,*6E
06/20/2015	16:00:51.602	$GPGGA,160052,2452.9547,N,08019.5788,W,1,11,1.3,12,M,,M,,*6D
06/20/2015	16:00:52.542	$GPGGA,160053,2452.9544,N,08019.5806,W,1,11,1.3,12,M,,M,,*66
06/20/2015	16:00:53.603	$GPGGA,160054,2452.9545,N,08019.5824,W,1,10,1.4,12,M,,M,,*66
06/20/2015	16:00:54.572	$GPGGA,160055,2452.9540,N,08019.5842,W,1,10,1.3,12,M,,M,,*65
06/20/2015	16:00:55.616	$GPGGA,160056,2452.9536,N,08019.5860,W,1,10,1.3,12,M,,M,,*67
06/20/2015	16:00:56.562	$GPGGA,160057,2452.9532,N,08019.5879,W,1,10,1.5,12,M,,M,,*6C
06/20/2015	16:00:57.592	$GPGGA,160058,2452.9530,N,08019.5899,W,1,8,1.4,12,M,,M,,*57
06/20/2015	16:00:58.562	$GPGGA,160059,2452.9529,N,08019.5917,W,1,8,1.4,12,M,,M,,*59
06/20/2015	16:01:00.573	$GPGGA,160100,2452.9525,N,08019.5933,W,1,10,1.4,12,M,,M,,*67
06/20/2015	16:01:00.603	$GPGGA,160101,2452.9525,N,08019.5952,W,1,10,1.3,12,M,,M,,*66
06/20/2015	16:01:01.563	$GPGGA,160102,2452.9521,N,08019.5969,W,1,11,1.3,12,M,,M,,*68
06/20/2015	16:01:02.833	$GPGGA,160103,2452.9520,N,08019.5987,W,1,11,1.4,12,M,,M,,*6F
06/20/2015	16:01:03.613	$GPGGA,160104,2452.9518,N,08019.6005,W,1,10,1.4,13,M,,M,,*63
06/20/2015	16:01:04.553	$GPGGA,160105,2452.9514,N,08019.6024,W,1,10,1.4,13,M,,M,,*6D
06/20/2015	16:01:05.573	$GPGGA,160106,2452.9511,N,08019.6044,W,1,10,1.3,13,M,,M,,*6A
06/20/2015	16:01:06.553	$GPGGA,160107,2452.9508,N,08019.6060,W,1,10,1.3,13,M,,M,,*65
06/20/2015	16:01:07.573	$GPGGA,160108,2452.9505,N,08019.6078,W,1,10,1.4,13,M,,M,,*69
06/20/2015	16:01:08.543	$GPGGA,160109,2452.9502,N,08019.6096,W,1,10,1.3,13,M,,M,,*68
06/20/2015	16:01:09.562	$GPGGA,160110,2452.9498,N,08019.6116,W,1,10,1.3,13,M,,M,,*6B
06/20/2015	16:01:10.552	$GPGGA,160111,2452.9496,N,08019.6134,W,1,10,1.3,13,M,,M,,*64
06/20/2015	16:01:11.562	$GPGGA,160112,2452.9494,N,08019.6152,W,1,10,1.3,13,M,,M,,*65
06/20/2015	16:01:12.602	$GPGGA,160113,2452.9493,N,08019.6171,W,1,10,1.3,13,M,,M,,*62
06/20/2015	16:01:13.562	$GPGGA,160114,2452.9490,N,08019.6190,W,1,11,1.3,13,M,,M,,*68
06/20/2015	16:01:14.552	$GPGGA,160115,2452.9489,N,08019.6210,W,1,11,1.3,13,M,,M,,*6A
06/20/2015	16:01:15.572	$GPGGA,160116,2452.9486,N,08019.6228,W,1,11,1.3,13,M,,M,,*6D
06/20/2015	16:01:16.527	$GPGGA,160117,2452.9486,N,08019.6228,W,1,11,1.3,13,M,,M,,*6C
06/20/2015	16:01:17.553	$GPGGA,160118,2452.9482,N,08019.6268,W,1,11,1.3,13,M,,M,,*63
06/20/2015	16:01:18.553	$GPGGA,160119,2452.9480,N,08019.6286,W,1,11,1.3,13,M,,M,,*60
06/20/2015	16:01:19.543	$GPGGA,160120,2452.9478,N,08019.6304,W,1,11,1.3,13,M,,M,,*66
06/20/2015	16:01:20.532	$GPGGA,160121,2452.9478,N,08019.6304,W,1,11,1.3,13,M,,M,,*67
06/20/2015	16:01:21.520	$GPGGA,160122,2452.9471,N,08019.6341,W,1,11,1.3,13,M,,M,,*6C
06/20/2015	16:01:22.553	$GPGGA,160123,2452.9469,N,08019.6360,W,1,11,1.3,13,M,,M,,*67
06/20/2015	16:01:23.520	$GPGGA,160124,2452.9469,N,08019.6360,W,1,11,1.3,13,M,,M,,*60
06/20/2015	16:01:24.521	$GPGGA,160125,2452.9467,N,08019.6378,W,1,11,1.3,13,M,,M,,*66
06/20/2015	16:01:25.518	$GPGGA,160126,2452.9461,N,08019.6416,W,1,10,1.3,13,M,,M,,*6D
06/20/2015	16:01:26.630	$GPGGA,160127,2452.9460,N,08019.6434,W,1,10,1.3,13,M,,M,,*6D
06/20/2015	16:01:27.632	$GPGGA,160128,2452.9458,N,08019.6452,W,1,11,1.3,13,M,,M,,*68
06/20/2015	16:01:28.636	$GPGGA,160129,2452.9456,N,08019.6470,W,1,11,1.3,13,M,,M,,*67
06/20/2015	16:01:29.502	$GPGGA,160130,2452.9455,N,08019.6488,W,1,11,1.3,13,M,,M,,*6B
06/20/2015	16:01:30.516	$GPGGA,160131,2452.9455,N,08019.6488,W,1,11,1.3,13,M,,M,,*6A
06/20/2015	16:01:31.627	$GPGGA,160132,2452.9451,N,08019.6524,W,1,10,1.4,13,M,,M,,*6C
06/20/2015	16:01:32.602	$GPGGA,160133,2452.9449,N,08019.6543,W,1,10,1.3,13,M,,M,,*62
06/20/2015	16:01:33.614	$GPGGA,160134,2452.9447,N,08019.6561,W,1,10,1.3,13,M,,M,,*6B
06/20/2015	16:01:34.503	$GPGGA,160135,2452.9444,N,08019.6580,W,1,10,1.3,13,M,,M,,*66
06/20/2015	16:01:35.593	$GPGGA,160136,2452.9442,N,08019.6600,W,1,10,1.3,13,M,,M,,*68
06/20/2015	16:01:36.603	$GPGGA,160137,2452.9439,N,08019.6618,W,1,10,1.3,13,M,,M,,*6C
06/20/2015	16:01:37.593	$GPGGA,160138,2452.9435,N,08019.6637,W,1,10,1.3,13,M,,M,,*62
06/20/2015	16:01:38.503	$GPGGA,160139,2452.9435,N,08019.6637,W,1,10,1.5,13,M,,M,,*65
06/20/2015	16:01:39.583	$GPGGA,160140,2452.9429,N,08019.6676,W,1,9,1.5,13,M,,M,,*5B
06/20/2015	16:01:40.503	$GPGGA,160141,2452.9429,N,08019.6676,W,1,9,1.3,14,M,,M,,*5B
06/20/2015	16:01:41.593	$GPGGA,160142,2452.9422,N,08019.6713,W,1,10,1.3,14,M,,M,,*69
06/20/2015	16:01:42.563	$GPGGA,160143,2452.9419,N,08019.6731,W,1,10,1.3,14,M,,M,,*60
06/20/2015	16:01:43.593	$GPGGA,160144,2452.9417,N,08019.6750,W,1,10,1.3,14,M,,M,,*6E
06/20/2015	16:01:44.562	$GPGGA,160145,2452.9413,N,08019.6768,W,1,10,1.3,14,M,,M,,*60
06/20/2015	16:01:46.612	$GPGGA,160147,2452.9409,N,08019.6803,W,1,10,1.5,14,M,,M,,*6D
06/20/2015	16:01:47.592	$GPGGA,160148,2452.9406,N,08019.6819,W,1,10,1.3,14,M,,M,,*60
06/20/2015	16:01:48.562	$GPGGA,160149,2452.9406,N,08019.6836,W,1,10,1.3,14,M,,M,,*6C
06/20/2015	16:01:49.552	$GPGGA,160150,2452.9402,N,08019.6854,W,1,10,1.3,14,M,,M,,*64
06/20/2015	16:01:50.562	$GPGGA,160151,2452.9399,N,08019.6872,W,1,10,1.3,14,M,,M,,*64
06/20/2015	16:01:51.583	$GPGGA,160152,2452.9396,N,08019.6889,W,1,11,1.3,14,M,,M,,*6D
06/20/2015	16:01:52.553	$GPGGA,160153,2452.9393,N,08019.6908,W,1,11,1.3,14,M,,M,,*61
06/20/2015	16:01:53.573	$GPGGA,160154,2452.9390,N,08019.6926,W,1,11,1.3,14,M,,M,,*69
06/20/2015	16:01:54.543	$GPGGA,160155,2452.9388,N,08019.6944,W,1,11,1.3,14,M,,M,,*65
06/20/2015	16:01:55.573	$GPGGA,160156,2452.9384,N,08019.6962,W,1,11,1.3,14,M,,M,,*6E
06/20/2015	16:01:56.543	$GPGGA,160157,2452.9379,N,08019.6981,W,1,11,1.3,14,M,,M,,*60
06/20/2015	16:01:57.533	$GPGGA,160158,2452.9377,N,08019.6999,W,1,9,1.5,14,M,,M,,*57
06/20/2015	16:01:58.583	$GPGGA,160159,2452.9374,N,08019.7017,W,1,9,1.3,14,M,,M,,*5D
06/20/2015	16:01:59.583	$GPGGA,160200,2452.9370,N,08019.7035,W,1,10,1.3,14,M,,M,,*6E
06/20/2015	16:02:00.543	$GPGGA,160201,2452.9366,N,08019.7055,W,1,10,1.3,14,M,,M,,*6E
06/20/2015	16:02:01.532	$GPGGA,160202,2452.9363,N,08019.7074,W,1,9,1.5,14,M,,M,,*55
06/20/2015	16:02:02.532	$GPGGA,160203,2452.9360,N,08019.7092,W,1,9,1.3,14,M,,M,,*59
06/20/2015	16:02:03.542	$GPGGA,160204,2452.9357,N,08019.7110,W,1,11,1.3,14,M,,M,,*68
06/20/2015	16:02:04.532	$GPGGA,160205,2452.9355,N,08019.7128,W,1,11,1.3,14,M,,M,,*60
06/20/2015	16:02:05.522	$GPGGA,160206,2452.9352,N,08019.7146,W,1,10,1.3,14,M,,M,,*6D
06/20/2015	16:02:06.523	$GPGGA,160207,2452.9349,N,08019.7164,W,1,10,1.3,14,M,,M,,*66
06/20/2015	16:02:07.552	$GPGGA,160208,2452.9345,N,08019.7182,W,1,11,1.3,14,M,,M,,*6C
06/20/2015	16:02:08.517	$GPGGA,160209,2452.9342,N,08019.7200,W,1,11,1.3,14,M,,M,,*63
06/20/2015	16:02:09.530	$GPGGA,160210,2452.9341,N,08019.7218,W,1,10,1.3,14,M,,M,,*60
06/20/2015	16:02:10.533	$GPGGA,160211,2452.9337,N,08019.7236,W,1,10,1.3,14,M,,M,,*6C
06/20/2015	16:02:11.543	$GPGGA,160212,2452.9334,N,08019.7254,W,1,10,1.3,14,M,,M,,*68
06/20/2015	16:02:12.503	$GPGGA,160213,2452.9331,N,08019.7273,W,1,10,1.3,14,M,,M,,*69
06/20/2015	16:02:13.503	$GPGGA,160214,2452.9330,N,08019.7292,W,1,10,1.3,14,M,,M,,*60
06/20/2015	16:02:14.524	$GPGGA,160215,2452.9325,N,08019.7310,W,1,10,1.3,14,M,,M,,*6E
06/20/2015	16:02:15.533	$GPGGA,160216,2452.9323,N,08019.7328,W,1,10,1.3,14,M,,M,,*60
06/20/2015	16:02:16.503	$GPGGA,160217,2452.9320,N,08019.7346,W,1,10,1.3,14,M,,M,,*6A
06/20/2015	16:02:17.503	$GPGGA,160218,2452.9319,N,08019.7366,W,1,10,1.3,14,M,,M,,*6D
06/20/2015	16:02:18.593	$GPGGA,160219,2452.9315,N,08019.7384,W,1,10,1.3,14,M,,M,,*6C
06/20/2015	16:02:19.522	$GPGGA,160220,2452.9312,N,08019.7402,W,1,10,1.3,14,M,,M,,*68
06/20/2015	16:02:20.502	$GPGGA,160221,2452.9310,N,08019.7421,W,1,10,1.3,14,M,,M,,*6A
06/20/2015	16:02:21.582	$GPGGA,160222,2452.9309,N,08019.7440,W,1,10,1.3,14,M,,M,,*66
06/20/2015	16:02:22.502	$GPGGA,160223,2452.9305,N,08019.7457,W,1,10,1.6,14,M,,M,,*68
06/20/2015	16:02:23.522	$GPGGA,160224,2452.9301,N,08019.7475,W,1,10,1.3,14,M,,M,,*6E
06/20/2015	16:02:24.583	$GPGGA,160225,2452.9299,N,08019.7493,W,1,10,1.3,14,M,,M,,*67
06/20/2015	16:02:25.472	$GPGGA,160226,2452.9296,N,08019.7511,W,1,11,1.3,14,M,,M,,*61
06/20/2015	16:02:26.503	$GPGGA,160227,2452.9291,N,08019.7529,W,1,11,1.3,14,M,,M,,*6C
06/20/2015	16:02:27.593	$GPGGA,160228,2452.9288,N,08019.7547,W,1,10,1.3,14,M,,M,,*62
06/20/2015	16:02:28.573	$GPGGA,160229,2452.9286,N,08019.7565,W,1,10,1.3,14,M,,M,,*6D
06/20/2015	16:02:29.603	$GPGGA,160230,2452.9284,N,08019.7583,W,1,10,1.3,14,M,,M,,*6F
06/20/2015	16:02:30.573	$GPGGA,160231,2452.9280,N,08019.7601,W,1,10,1.3,14,M,,M,,*63
06/20/2015	16:02:31.623	$GPGGA,160232,2452.9277,N,08019.7619,W,1,10,1.3,14,M,,M,,*61
06/20/2015	16:02:32.563	$GPGGA,160233,2452.9274,N,08019.7638,W,1,10,1.3,14,M,,M,,*60
06/20/2015	16:02:33.593	$GPGGA,160234,2452.9272,N,08019.7656,W,1,10,1.3,14,M,,M,,*69
06/20/2015	16:02:34.563	$GPGGA,160235,2452.9269,N,08019.7674,W,1,10,1.4,14,M,,M,,*65
06/20/2015	16:02:35.593	$GPGGA,160236,2452.9267,N,08019.7693,W,1,9,1.4,14,M,,M,,*59
06/20/2015	16:02:36.562	$GPGGA,160237,2452.9265,N,08019.7713,W,1,9,1.3,14,M,,M,,*54
06/20/2015	16:02:37.582	$GPGGA,160238,2452.9263,N,08019.7731,W,1,10,1.3,15,M,,M,,*64
06/20/2015	16:02:38.562	$GPGGA,160239,2452.9260,N,08019.7750,W,1,10,1.3,15,M,,M,,*61
06/20/2015	16:02:39.592	$GPGGA,160240,2452.9258,N,08019.7769,W,1,10,1.3,15,M,,M,,*6E
06/20/2015	16:02:40.552	$GPGGA,160241,2452.9256,N,08019.7789,W,1,10,1.3,15,M,,M,,*6F
06/20/2015	16:02:41.572	$GPGGA,160242,2452.9254,N,08019.7807,W,1,10,1.3,15,M,,M,,*67
06/20/2015	16:02:42.552	$GPGGA,160243,2452.9250,N,08019.7825,W,1,10,1.3,15,M,,M,,*62
06/20/2015	16:02:43.582	$GPGGA,160244,2452.9248,N,08019.7844,W,1,10,1.3,15,M,,M,,*6B
06/20/2015	16:02:44.553	$GPGGA,160245,2452.9247,N,08019.7863,W,1,10,1.3,15,M,,M,,*60
06/20/2015	16:02:45.533	$GPGGA,160246,2452.9245,N,08019.7881,W,1,11,1.3,15,M,,M,,*6C
06/20/2015	16:02:46.543	$GPGGA,160247,2452.9242,N,08019.7901,W,1,11,1.3,15,M,,M,,*63
06/20/2015	16:02:47.573	$GPGGA,160248,2452.9238,N,08019.7920,W,1,10,1.3,15,M,,M,,*63
06/20/2015	16:02:48.543	$GPGGA,160249,2452.9236,N,08019.7939,W,1,10,1.3,15,M,,M,,*64
06/20/2015	16:02:49.553	$GPGGA,160250,2452.9233,N,08019.7959,W,1,10,1.3,15,M,,M,,*6F
06/20/2015	16:02:50.533	$GPGGA,160251,2452.9230,N,08019.7977,W,1,10,1.3,15,M,,M,,*61
06/20/2015	16:02:51.573	$GPGGA,160252,2452.9226,N,08019.7996,W,1,10,1.3,15,M,,M,,*6A
06/20/2015	16:02:52.533	$GPGGA,160253,2452.9223,N,08019.8014,W,1,10,1.3,15,M,,M,,*62
06/20/2015	16:02:53.526	$GPGGA,160254,2452.9220,N,08019.8033,W,1,10,1.3,15,M,,M,,*63
06/20/2015	16:02:54.522	$GPGGA,160255,2452.9218,N,08019.8053,W,1,10,1.3,15,M,,M,,*6F
06/20/2015	16:02:55.572	$GPGGA,160256,2452.9214,N,08019.8071,W,1,11,1.3,15,M,,M,,*61
06/20/2015	16:02:56.532	$GPGGA,160257,2452.9211,N,08019.8089,W,1,11,1.3,15,M,,M,,*62
06/20/2015	16:02:57.542	$GPGGA,160258,2452.9207,N,08019.8107,W,1,10,1.3,15,M,,M,,*6C
06/20/2015	16:02:58.527	$GPGGA,160259,2452.9204,N,08019.8126,W,1,10,1.3,15,M,,M,,*6D
06/20/2015	16:02:59.582	$GPGGA,160300,2452.9200,N,08019.8144,W,1,10,1.3,15,M,,M,,*60
06/20/2015	16:03:00.526	$GPGGA,160301,2452.9196,N,08019.8162,W,1,10,1.3,15,M,,M,,*69
06/20/2015	16:03:01.503	$GPGGA,160302,2452.9193,N,08019.8181,W,1,10,1.3,15,M,,M,,*62
06/20/2015	16:03:02.623	$GPGGA,160303,2452.9190,N,08019.8199,W,1,10,1.3,15,M,,M,,*69
06/20/2015	16:03:03.514	$GPGGA,160304,2452.9186,N,08019.8217,W,1,10,1.3,15,M,,M,,*6C
06/20/2015	16:03:04.629	$GPGGA,160305,2452.9182,N,08019.8235,W,1,10,1.3,15,M,,M,,*69
06/20/2015	16:03:05.516	$GPGGA,160306,2452.9180,N,08019.8253,W,1,10,1.3,15,M,,M,,*68
06/20/2015	16:03:06.513	$GPGGA,160307,2452.9178,N,08019.8271,W,1,10,1.3,15,M,,M,,*6E
06/20/2015	16:03:07.524	$GPGGA,160308,2452.9174,N,08019.8288,W,1,11,1.3,15,M,,M,,*6A
06/20/2015	16:03:08.614	$GPGGA,160309,2452.9171,N,08019.8307,W,1,11,1.3,15,M,,M,,*68
06/20/2015	16:03:09.593	$GPGGA,160310,2452.9167,N,08019.8325,W,1,10,1.3,15,M,,M,,*66
06/20/2015	16:03:10.833	$GPGGA,160311,2452.9164,N,08019.8345,W,1,10,1.3,15,M,,M,,*62
06/20/2015	16:03:11.632	$GPGGA,160312,2452.9162,N,08019.8363,W,1,10,1.3,15,M,,M,,*63
06/20/2015	16:03:12.582	$GPGGA,160313,2452.9158,N,08019.8381,W,1,10,1.3,15,M,,M,,*67
06/20/2015	16:03:13.612	$GPGGA,160314,2452.9155,N,08019.8399,W,1,10,1.3,15,M,,M,,*64
06/20/2015	16:03:14.582	$GPGGA,160315,2452.9153,N,08019.8418,W,1,10,1.3,15,M,,M,,*6D
06/20/2015	16:03:15.632	$GPGGA,160316,2452.9150,N,08019.8436,W,1,11,1.3,15,M,,M,,*60
06/20/2015	16:03:16.572	$GPGGA,160317,2452.9147,N,08019.8454,W,1,11,1.3,15,M,,M,,*63
06/20/2015	16:03:17.482	$GPGGA,160318,2452.9144,N,08019.8472,W,1,11,1.3,15,M,,M,,*6B
06/20/2015	16:03:18.572	$GPGGA,160319,2452.9142,N,08019.8490,W,1,11,1.3,15,M,,M,,*60
06/20/2015	16:03:19.593	$GPGGA,160320,2452.9139,N,08019.8509,W,1,10,1.3,15,M,,M,,*66
06/20/2015	16:03:20.573	$GPGGA,160321,2452.9137,N,08019.8527,W,1,10,1.3,15,M,,M,,*65
06/20/2015	16:03:21.603	$GPGGA,160322,2452.9135,N,08019.8546,W,1,10,1.3,15,M,,M,,*63
06/20/2015	16:03:22.563	$GPGGA,160323,2452.9131,N,08019.8564,W,1,10,1.3,15,M,,M,,*66
06/20/2015	16:03:23.583	$GPGGA,160324,2452.9130,N,08019.8584,W,1,10,1.3,15,M,,M,,*6E
06/20/2015	16:03:24.563	$GPGGA,160325,2452.9128,N,08019.8602,W,1,10,1.3,15,M,,M,,*6B
06/20/2015	16:03:25.573	$GPGGA,160326,2452.9124,N,08019.8620,W,1,10,1.3,15,M,,M,,*64
06/20/2015	16:03:26.563	$GPGGA,160327,2452.9122,N,08019.8638,W,1,10,1.3,15,M,,M,,*6A
06/20/2015	16:03:27.563	$GPGGA,160328,2452.9120,N,08019.8656,W,1,10,1.3,15,M,,M,,*6F
06/20/2015	16:03:28.563	$GPGGA,160329,2452.9117,N,08019.8675,W,1,10,1.4,15,M,,M,,*6C
06/20/2015	16:03:29.572	$GPGGA,160330,2452.9114,N,08019.8696,W,1,10,1.3,15,M,,M,,*6D
06/20/2015	16:03:30.562	$GPGGA,160331,2452.9113,N,08019.8714,W,1,10,1.3,15,M,,M,,*60
06/20/2015	16:03:31.592	$GPGGA,160332,2452.9110,N,08019.8732,W,1,9,1.4,15,M,,M,,*5B
06/20/2015	16:03:32.562	$GPGGA,160333,2452.9106,N,08019.8751,W,1,9,1.3,15,M,,M,,*5F
06/20/2015	16:03:33.572	$GPGGA,160334,2452.9104,N,08019.8770,W,1,10,1.3,15,M,,M,,*61
06/20/2015	16:03:34.542	$GPGGA,160335,2452.9101,N,08019.8788,W,1,10,1.3,15,M,,M,,*62
06/20/2015	16:03:35.572	$GPGGA,160336,2452.9099,N,08019.8808,W,1,10,1.3,15,M,,M,,*66
06/20/2015	16:03:36.543	$GPGGA,160337,2452.9095,N,08019.8826,W,1,10,1.3,15,M,,M,,*67
06/20/2015	16:03:37.529	$GPGGA,160338,2452.9093,N,08019.8844,W,1,10,1.3,15,M,,M,,*6A
06/20/2015	16:03:39.603	$GPGGA,160340,2452.9088,N,08019.8881,W,1,10,1.3,15,M,,M,,*66
06/20/2015	16:03:40.529	$GPGGA,160341,2452.9084,N,08019.8899,W,1,10,1.3,15,M,,M,,*62
06/20/2015	16:03:41.563	$GPGGA,160342,2452.9081,N,08019.8918,W,1,10,1.3,15,M,,M,,*6C
06/20/2015	16:03:42.535	$GPGGA,160343,2452.9078,N,08019.8938,W,1,10,1.3,15,M,,M,,*69
06/20/2015	16:03:43.553	$GPGGA,160344,2452.9075,N,08019.8956,W,1,10,1.3,15,M,,M,,*6B
06/20/2015	16:03:44.543	$GPGGA,160345,2452.9072,N,08019.8975,W,1,10,1.5,15,M,,M,,*6A
06/20/2015	16:03:45.517	$GPGGA,160346,2452.9070,N,08019.8995,W,1,9,1.5,15,M,,M,,*5D
06/20/2015	16:03:46.524	$GPGGA,160347,2452.9066,N,08019.9012,W,1,9,1.3,15,M,,M,,*5A
06/20/2015	16:03:47.552	$GPGGA,160348,2452.9063,N,08019.9032,W,1,10,1.3,15,M,,M,,*6A
06/20/2015	16:03:48.632	$GPGGA,160349,2452.9061,N,08019.9050,W,1,10,1.3,15,M,,M,,*6D
06/20/2015	16:03:49.623	$GPGGA,160350,2452.9059,N,08019.9068,W,1,10,1.3,15,M,,M,,*65
06/20/2015	16:03:50.502	$GPGGA,160351,2452.9054,N,08019.9087,W,1,10,1.3,15,M,,M,,*68
06/20/2015	16:03:51.527	$GPGGA,160352,2452.9052,N,08019.9105,W,1,9,1.5,15,M,,M,,*58
06/20/2015	16:03:52.625	$GPGGA,160353,2452.9050,N,08019.9122,W,1,9,1.4,15,M,,M,,*5F
06/20/2015	16:03:53.592	$GPGGA,160354,2452.9048,N,08019.9140,W,1,10,1.3,15,M,,M,,*6A
06/20/2015	16:03:54.535	$GPGGA,160355,2452.9045,N,08019.9158,W,1,10,1.3,15,M,,M,,*6F
06/20/2015	16:03:55.643	$GPGGA,160356,2452.9042,N,08019.9176,W,1,11,1.3,15,M,,M,,*66
06/20/2015	16:03:56.521	$GPGGA,160357,2452.9038,N,08019.9195,W,1,11,1.3,15,M,,M,,*67
06/20/2015	16:03:57.603	$GPGGA,160358,2452.9035,N,08019.9213,W,1,9,1.5,15,M,,M,,*57
06/20/2015	16:03:58.493	$GPGGA,160359,2452.9034,N,08019.9231,W,1,9,1.3,15,M,,M,,*51
06/20/2015	16:03:59.663	$GPGGA,160400,2452.9030,N,08019.9249,W,1,10,1.3,15,M,,M,,*69
06/20/2015	16:04:00.493	$GPGGA,160401,2452.9026,N,08019.9267,W,1,10,1.3,15,M,,M,,*63
06/20/2015	16:04:01.583	$GPGGA,160402,2452.9023,N,08019.9286,W,1,10,1.3,15,M,,M,,*6A
06/20/2015	16:04:02.583	$GPGGA,160403,2452.9020,N,08019.9306,W,1,10,1.5,15,M,,M,,*67
06/20/2015	16:04:03.592	$GPGGA,160404,2452.9018,N,08019.9322,W,1,10,1.3,15,M,,M,,*6B
06/20/2015	16:04:04.582	$GPGGA,160405,2452.9016,N,08019.9339,W,1,10,1.3,15,M,,M,,*6E
06/20/2015	16:04:05.624	$GPGGA,160406,2452.9013,N,08019.9357,W,1,10,1.3,15,M,,M,,*60
06/20/2015	16:04:06.562	$GPGGA,160407,2452.9012,N,08019.9375,W,1,10,1.3,15,M,,M,,*60
06/20/2015	16:04:07.592	$GPGGA,160408,2452.9008,N,08019.9393,W,1,10,1.3,15,M,,M,,*6C
06/20/2015	16:04:08.572	$GPGGA,160409,2452.9006,N,08019.9409,W,1,10,1.3,15,M,,M,,*67
06/20/2015	16:04:09.572	$GPGGA,160410,2452.9003,N,08019.9427,W,1,10,1.3,15,M,,M,,*66
06/20/2015	16:04:10.572	$GPGGA,160411,2452.9001,N,08019.9445,W,1,10,1.3,15,M,,M,,*61
06/20/2015	16:04:11.593	$GPGGA,160412,2452.8998,N,08019.9463,W,1,10,1.3,15,M,,M,,*6E
06/20/2015	16:04:12.573	$GPGGA,160413,2452.8997,N,08019.9481,W,1,10,1.3,15,M,,M,,*6C
06/20/2015	16:04:13.583	$GPGGA,160414,2452.8995,N,08019.9499,W,1,10,1.3,15,M,,M,,*60
06/20/2015	16:04:14.553	$GPGGA,160415,2452.8994,N,08019.9517,W,1,10,1.4,15,M,,M,,*60
06/20/2015	16:04:15.622	$GPGGA,160416,2452.8992,N,08019.9534,W,1,10,1.4,15,M,,M,,*64
06/20/2015	16:04:16.563	$GPGGA,160417,2452.8993,N,08019.9553,W,1,10,1.4,15,M,,M,,*65
06/20/2015	16:04:17.573	$GPGGA,160418,2452.8991,N,08019.9571,W,1,10,1.4,15,M,,M,,*68
06/20/2015	16:04:18.553	$GPGGA,160419,2452.8990,N,08019.9592,W,1,10,1.4,15,M,,M,,*65
06/20/2015	16:04:19.583	$GPGGA,160420,2452.8990,N,08019.9611,W,1,11,1.3,15,M,,M,,*61
06/20/2015	16:04:20.553	$GPGGA,160421,2452.8990,N,08019.9629,W,1,11,1.3,15,M,,M,,*6B
06/20/2015	16:04:21.572	$GPGGA,160422,2452.8990,N,08019.9649,W,1,10,1.4,15,M,,M,,*68
06/20/2015	16:04:22.542	$GPGGA,160423,2452.8989,N,08019.9668,W,1,10,1.4,15,M,,M,,*62
06/20/2015	16:04:23.552	$GPGGA,160424,2452.8990,N,08019.9687,W,1,11,1.3,15,M,,M,,*6A
06/20/2015	16:04:24.542	$GPGGA,160425,2452.8992,N,08019.9708,W,1,11,1.3,15,M,,M,,*6F
06/20/2015	16:04:25.532	$GPGGA,160426,2452.8991,N,08019.9729,W,1,11,1.3,15,M,,M,,*6C
06/20/2015	16:04:26.552	$GPGGA,160427,2452.8992,N,08019.9748,W,1,11,1.3,15,M,,M,,*69
06/20/2015	16:04:27.572	$GPGGA,160428,2452.8994,N,08019.9769,W,1,11,1.3,15,M,,M,,*63
06/20/2015	16:04:28.526	$GPGGA,160429,2452.8994,N,08019.9790,W,1,11,1.3,15,M,,M,,*64
06/20/2015	16:04:29.563	$GPGGA,160430,2452.8996,N,08019.9809,W,1,11,1.3,15,M,,M,,*61
06/20/2015	16:04:30.544	$GPGGA,160431,2452.8997,N,08019.9827,W,1,11,1.3,15,M,,M,,*6D
06/20/2015	16:04:31.533	$GPGGA,160432,2452.9000,N,08019.9848,W,1,11,1.3,15,M,,M,,*61
06/20/2015	16:04:32.533	$GPGGA,160433,2452.9003,N,08019.9866,W,1,11,1.3,15,M,,M,,*6F
06/20/2015	16:04:33.523	$GPGGA,160434,2452.9004,N,08019.9886,W,1,11,1.3,15,M,,M,,*61
06/20/2015	16:04:34.533	$GPGGA,160435,2452.9007,N,08019.9906,W,1,11,1.3,15,M,,M,,*6A
06/20/2015	16:04:35.653	$GPGGA,160436,2452.9008,N,08019.9928,W,1,11,1.3,15,M,,M,,*6A
06/20/2015	16:04:36.521	$GPGGA,160437,2452.9011,N,08019.9947,W,1,11,1.3,15,M,,M,,*6A
06/20/2015	16:04:37.525	$GPGGA,160438,2452.9014,N,08019.9967,W,1,11,1.3,15,M,,M,,*62
06/20/2015	16:04:38.602	$GPGGA,160439,2452.9016,N,08019.9987,W,1,11,1.3,15,M,,M,,*6F
06/20/2015	16:04:39.532	$GPGGA,160440,2452.9018,N,08020.0007,W,1,11,1.3,15,M,,M,,*6D
06/20/2015	16:04:40.516	$GPGGA,160441,2452.9021,N,08020.0026,W,1,11,1.3,15,M,,M,,*65
06/20/2015	16:04:41.515	$GPGGA,160442,2452.9023,N,08020.0047,W,1,11,1.3,15,M,,M,,*63
06/20/2015	16:04:42.602	$GPGGA,160443,2452.9023,N,08020.0068,W,1,11,1.3,15,M,,M,,*6F
06/20/2015	16:04:43.562	$GPGGA,160444,2452.9026,N,08020.0087,W,1,11,1.3,15,M,,M,,*6C
06/20/2015	16:04:44.592	$GPGGA,160445,2452.9027,N,08020.0108,W,1,11,1.3,15,M,,M,,*6A
06/20/2015	16:04:45.625	$GPGGA,160446,2452.9029,N,08020.0128,W,1,11,1.3,15,M,,M,,*65
06/20/2015	16:04:46.494	$GPGGA,160447,2452.9030,N,08020.0148,W,1,11,1.3,15,M,,M,,*6A
06/20/2015	16:04:47.613	$GPGGA,160448,2452.9033,N,08020.0168,W,1,11,1.3,15,M,,M,,*64
06/20/2015	16:04:48.519	$GPGGA,160449,2452.9034,N,08020.0188,W,1,11,1.3,15,M,,M,,*6C
06/20/2015	16:04:49.583	$GPGGA,160450,2452.9037,N,08020.0207,W,1,11,1.3,15,M,,M,,*63
06/20/2015	16:04:50.494	$GPGGA,160451,2452.9039,N,08020.0228,W,1,11,1.3,15,M,,M,,*61
06/20/2015	16:04:51.623	$GPGGA,160452,2452.9041,N,08020.0247,W,1,11,1.3,15,M,,M,,*64
06/20/2015	16:04:52.583	$GPGGA,160453,2452.9041,N,08020.0268,W,1,11,1.3,15,M,,M,,*68
06/20/2015	16:04:53.613	$GPGGA,160454,2452.9044,N,08020.0289,W,1,11,1.3,15,M,,M,,*65
06/20/2015	16:04:54.583	$GPGGA,160455,2452.9044,N,08020.0308,W,1,11,1.3,15,M,,M,,*6C
06/20/2015	16:04:55.613	$GPGGA,160456,2452.9045,N,08020.0327,W,1,10,1.3,15,M,,M,,*62
06/20/2015	16:04:56.572	$GPGGA,160457,2452.9047,N,08020.0347,W,1,10,1.3,15,M,,M,,*67
06/20/2015	16:04:57.572	$GPGGA,160458,2452.9050,N,08020.0368,W,1,10,1.3,15,M,,M,,*63
06/20/2015	16:04:58.572	$GPGGA,160459,2452.9052,N,08020.0387,W,1,10,1.3,15,M,,M,,*61
06/20/2015	16:04:59.622	$GPGGA,160500,2452.9052,N,08020.0406,W,1,11,1.3,15,M,,M,,*63
06/20/2015	16:05:00.562	$GPGGA,160501,2452.9054,N,08020.0426,W,1,11,1.3,15,M,,M,,*66
06/20/2015	16:05:01.552	$GPGGA,160502,2452.9055,N,08020.0446,W,1,11,1.3,15,M,,M,,*62
06/20/2015	16:05:02.562	$GPGGA,160503,2452.9055,N,08020.0464,W,1,11,1.4,14,M,,M,,*65
06/20/2015	16:05:03.582	$GPGGA,160504,2452.9057,N,08020.0484,W,1,10,1.3,14,M,,M,,*68
06/20/2015	16:05:04.573	$GPGGA,160505,2452.9056,N,08020.0504,W,1,10,1.3,14,M,,M,,*61
06/20/2015	16:05:05.583	$GPGGA,160506,2452.9058,N,08020.0525,W,1,11,1.3,14,M,,M,,*6E
06/20/2015	16:05:06.553	$GPGGA,160507,2452.9059,N,08020.0546,W,1,11,1.3,14,M,,M,,*6B
06/20/2015	16:05:07.583	$GPGGA,160508,2452.9059,N,08020.0567,W,1,11,1.3,14,M,,M,,*67
06/20/2015	16:05:08.553	$GPGGA,160509,2452.9059,N,08020.0585,W,1,11,1.4,14,M,,M,,*6D
06/20/2015	16:05:09.583	$GPGGA,160510,2452.9059,N,08020.0605,W,1,10,1.3,14,M,,M,,*68
06/20/2015	16:05:10.543	$GPGGA,160511,2452.9059,N,08020.0625,W,1,10,1.3,14,M,,M,,*6B
06/20/2015	16:05:11.593	$GPGGA,160512,2452.9061,N,08020.0645,W,1,11,1.3,14,M,,M,,*64
06/20/2015	16:05:12.543	$GPGGA,160513,2452.9060,N,08020.0665,W,1,11,1.4,14,M,,M,,*61
06/20/2015	16:05:13.526	$GPGGA,160514,2452.9061,N,08020.0681,W,1,10,1.4,14,M,,M,,*6C
06/20/2015	16:05:14.552	$GPGGA,160515,2452.9060,N,08020.0699,W,1,10,1.4,14,M,,M,,*65
06/20/2015	16:05:15.602	$GPGGA,160516,2452.9062,N,08020.0716,W,1,10,1.4,14,M,,M,,*62
06/20/2015	16:05:16.532	$GPGGA,160517,2452.9061,N,08020.0733,W,1,10,1.4,14,M,,M,,*67
06/20/2015	16:05:17.552	$GPGGA,160518,2452.9063,N,08020.0749,W,1,10,1.3,14,M,,M,,*60
06/20/2015	16:05:18.516	$GPGGA,160519,2452.9063,N,08020.0769,W,1,10,1.3,14,M,,M,,*63
06/20/2015	16:05:19.613	$GPGGA,160520,2452.9065,N,08020.0785,W,1,11,1.3,14,M,,M,,*6C
06/20/2015	16:05:20.542	$GPGGA,160521,2452.9066,N,08020.0802,W,1,11,1.3,14,M,,M,,*6E
06/20/2015	16:05:21.563	$GPGGA,160522,2452.9066,N,08020.0816,W,1,11,1.4,14,M,,M,,*6F
06/20/2015	16:05:22.543	$GPGGA,160523,2452.9068,N,08020.0828,W,1,11,1.4,14,M,,M,,*6D
06/20/2015	16:05:23.573	$GPGGA,160524,2452.9069,N,08020.0840,W,1,10,1.4,14,M,,M,,*64
06/20/2015	16:05:24.503	$GPGGA,160525,2452.9070,N,08020.0853,W,1,10,1.4,14,M,,M,,*6F
06/20/2015	16:05:25.533	$GPGGA,160526,2452.9072,N,08020.0865,W,1,10,1.4,14,M,,M,,*6B
06/20/2015	16:05:26.503	$GPGGA,160527,2452.9073,N,08020.0878,W,1,10,1.4,14,M,,M,,*67
06/20/2015	16:05:27.563	$GPGGA,160528,2452.9074,N,08020.0889,W,1,10,1.4,14,M,,M,,*61
06/20/2015	16:05:28.533	$GPGGA,160529,2452.9077,N,08020.0900,W,1,10,1.4,14,M,,M,,*63
06/20/2015	16:05:29.528	$GPGGA,160530,2452.9079,N,08020.0911,W,1,10,1.4,14,M,,M,,*65
06/20/2015	16:05:30.503	$GPGGA,160531,2452.9080,N,08020.0922,W,1,10,1.4,14,M,,M,,*62
06/20/2015	16:05:31.602	$GPGGA,160532,2452.9081,N,08020.0933,W,1,10,1.4,14,M,,M,,*60
06/20/2015	16:05:32.528	$GPGGA,160533,2452.9084,N,08020.0944,W,1,10,1.4,14,M,,M,,*64
06/20/2015	16:05:33.622	$GPGGA,160534,2452.9086,N,08020.0957,W,1,10,1.4,14,M,,M,,*63
06/20/2015	16:05:34.524	$GPGGA,160535,2452.9087,N,08020.0972,W,1,10,1.3,14,M,,M,,*63
06/20/2015	16:05:35.632	$GPGGA,160536,2452.9088,N,08020.0982,W,1,11,1.3,14,M,,M,,*61
06/20/2015	16:05:36.526	$GPGGA,160537,2452.9090,N,08020.0990,W,1,11,1.4,14,M,,M,,*6D
06/20/2015	16:05:37.625	$GPGGA,160538,2452.9091,N,08020.0999,W,1,10,1.4,14,M,,M,,*6B
06/20/2015	16:05:38.593	$GPGGA,160539,2452.9095,N,08020.1008,W,1,10,1.4,14,M,,M,,*6E
06/20/2015	16:05:39.593	$GPGGA,160540,2452.9097,N,08020.1017,W,1,10,1.4,14,M,,M,,*6C
06/20/2015	16:05:40.584	$GPGGA,160541,2452.9098,N,08020.1026,W,1,10,1.4,14,M,,M,,*60
06/20/2015	16:05:41.603	$GPGGA,160542,2452.9101,N,08020.1034,W,1,10,1.4,14,M,,M,,*61
06/20/2015	16:05:42.583	$GPGGA,160543,2452.9102,N,08020.1044,W,1,10,1.4,14,M,,M,,*64
06/20/2015	16:05:43.613	$GPGGA,160544,2452.9106,N,08020.1055,W,1,10,1.4,14,M,,M,,*67
06/20/2015	16:05:44.573	$GPGGA,160545,2452.9108,N,08020.1064,W,1,10,1.3,14,M,,M,,*6D
06/20/2015	16:05:45.583	$GPGGA,160546,2452.9109,N,08020.1073,W,1,11,1.4,13,M,,M,,*68
06/20/2015	16:05:46.593	$GPGGA,160547,2452.9113,N,08020.1080,W,1,11,1.4,13,M,,M,,*6E
06/20/2015	16:05:47.573	$GPGGA,160548,2452.9115,N,08020.1088,W,1,10,1.4,13,M,,M,,*6E
06/20/2015	16:05:48.572	$GPGGA,160549,2452.9117,N,08020.1098,W,1,10,1.4,13,M,,M,,*6C
06/20/2015	16:05:49.562	$GPGGA,160550,2452.9120,N,08020.1105,W,1,11,1.3,13,M,,M,,*63
06/20/2015	16:05:50.562	$GPGGA,160551,2452.9123,N,08020.1114,W,1,11,1.3,13,M,,M,,*61
06/20/2015	16:05:51.572	$GPGGA,160552,2452.9124,N,08020.1121,W,1,11,1.4,13,M,,M,,*64
06/20/2015	16:05:52.562	$GPGGA,160553,2452.9127,N,08020.1129,W,1,11,1.4,13,M,,M,,*6E
06/20/2015	16:05:53.572	$GPGGA,160554,2452.9130,N,08020.1135,W,1,10,1.4,13,M,,M,,*63
06/20/2015	16:05:54.552	$GPGGA,160555,2452.9133,N,08020.1142,W,1,10,1.4,13,M,,M,,*61
06/20/2015	16:05:55.582	$GPGGA,160556,2452.9135,N,08020.1149,W,1,10,1.4,13,M,,M,,*6F
06/20/2015	16:05:56.543	$GPGGA,160557,2452.9138,N,08020.1156,W,1,10,1.3,13,M,,M,,*6A
06/20/2015	16:05:57.553	$GPGGA,160558,2452.9142,N,08020.1167,W,1,10,1.4,13,M,,M,,*6D
06/20/2015	16:05:58.543	$GPGGA,160559,2452.9145,N,08020.1174,W,1,10,1.3,13,M,,M,,*6E
06/20/2015	16:05:59.563	$GPGGA,160600,2452.9148,N,08020.1181,W,1,11,1.3,13,M,,M,,*67
06/20/2015	16:06:00.543	$GPGGA,160601,2452.9151,N,08020.1189,W,1,11,1.3,13,M,,M,,*66
06/20/2015	16:06:01.533	$GPGGA,160602,2452.9155,N,08020.1196,W,1,10,1.3,13,M,,M,,*6E
06/20/2015	16:06:02.543	$GPGGA,160603,2452.9157,N,08020.1203,W,1,10,1.3,13,M,,M,,*62
06/20/2015	16:06:03.543	$GPGGA,160604,2452.9160,N,08020.1210,W,1,11,1.3,13,M,,M,,*62
06/20/2015	16:06:04.536	$GPGGA,160605,2452.9163,N,08020.1217,W,1,11,1.3,13,M,,M,,*67
06/20/2015	16:06:05.573	$GPGGA,160606,2452.9166,N,08020.1225,W,1,11,1.3,13,M,,M,,*60
06/20/2015	16:06:06.537	$GPGGA,160607,2452.9169,N,08020.1232,W,1,11,1.3,13,M,,M,,*68
06/20/2015	16:06:07.552	$GPGGA,160608,2452.9171,N,08020.1236,W,1,10,1.3,13,M,,M,,*6B
06/20/2015	16:06:08.519	$GPGGA,160609,2452.9174,N,08020.1243,W,1,10,1.4,13,M,,M,,*6A
06/20/2015	16:06:09.522	$GPGGA,160610,2452.9178,N,08020.1248,W,1,10,1.4,13,M,,M,,*65
06/20/2015	16:06:10.522	$GPGGA,160611,2452.9182,N,08020.1254,W,1,10,1.3,13,M,,M,,*6B
06/20/2015	16:06:11.633	$GPGGA,160612,2452.9185,N,08020.1259,W,1,11,1.3,13,M,,M,,*63
06/20/2015	16:06:12.517	$GPGGA,160613,2452.9188,N,08020.1264,W,1,11,1.3,13,M,,M,,*61
06/20/2015	16:06:13.511	$GPGGA,160614,2452.9191,N,08020.1270,W,1,10,1.4,13,M,,M,,*6D
06/20/2015	16:06:14.512	$GPGGA,160615,2452.9195,N,08020.1279,W,1,10,1.4,13,M,,M,,*61
06/20/2015	16:06:15.542	$GPGGA,160616,2452.9198,N,08020.1284,W,1,11,1.3,13,M,,M,,*6B
06/20/2015	16:06:16.515	$GPGGA,160617,2452.9200,N,08020.1290,W,1,11,1.4,13,M,,M,,*6A
06/20/2015	16:06:17.522	$GPGGA,160618,2452.9203,N,08020.1295,W,1,10,1.4,13,M,,M,,*62
06/20/2015	16:06:18.612	$GPGGA,160619,2452.9207,N,08020.1301,W,1,10,1.4,13,M,,M,,*6B
06/20/2015	16:06:19.592	$GPGGA,160620,2452.9210,N,08020.1308,W,1,10,1.4,13,M,,M,,*6E
06/20/2015	16:06:20.522	$GPGGA,160621,2452.9211,N,08020.1312,W,1,10,1.4,13,M,,M,,*65
06/20/2015	16:06:21.516	$GPGGA,160622,2452.9214,N,08020.1319,W,1,10,1.4,13,M,,M,,*68
06/20/2015	16:06:22.492	$GPGGA,160623,2452.9218,N,08020.1324,W,1,10,1.3,13,M,,M,,*6C
06/20/2015	16:06:23.524	$GPGGA,160624,2452.9221,N,08020.1330,W,1,10,1.4,13,M,,M,,*63
06/20/2015	16:06:24.492	$GPGGA,160625,2452.9224,N,08020.1335,W,1,10,1.4,13,M,,M,,*62
06/20/2015	16:06:25.612	$GPGGA,160626,2452.9227,N,08020.1344,W,1,10,1.4,13,M,,M,,*64
06/20/2015	16:06:26.482	$GPGGA,160627,2452.9229,N,08020.1349,W,1,10,1.3,13,M,,M,,*61
06/20/2015	16:06:27.492	$GPGGA,160628,2452.9232,N,08020.1355,W,1,11,1.3,13,M,,M,,*68
06/20/2015	16:06:28.572	$GPGGA,160629,2452.9235,N,08020.1360,W,1,11,1.4,13,M,,M,,*6F
06/20/2015	16:06:29.582	$GPGGA,160630,2452.9238,N,08020.1366,W,1,10,1.4,13,M,,M,,*6D
06/20/2015	16:06:30.562	$GPGGA,160631,2452.9240,N,08020.1370,W,1,10,1.4,13,M,,M,,*64
06/20/2015	16:06:31.602	$GPGGA,160632,2452.9243,N,08020.1376,W,1,10,1.4,13,M,,M,,*62
06/20/2015	16:06:32.572	$GPGGA,160633,2452.9247,N,08020.1381,W,1,10,1.4,13,M,,M,,*6F
06/20/2015	16:06:33.583	$GPGGA,160634,2452.9249,N,08020.1387,W,1,10,1.4,13,M,,M,,*60
06/20/2015	16:06:34.562	$GPGGA,160635,2452.9251,N,08020.1392,W,1,10,1.4,13,M,,M,,*6C
06/20/2015	16:06:35.603	$GPGGA,160636,2452.9254,N,08020.1398,W,1,10,1.4,13,M,,M,,*60
06/20/2015	16:06:36.552	$GPGGA,160637,2452.9257,N,08020.1403,W,1,10,1.4,13,M,,M,,*67
06/20/2015	16:06:37.552	$GPGGA,160638,2452.9260,N,08020.1409,W,1,10,1.4,13,M,,M,,*66
06/20/2015	16:06:38.552	$GPGGA,160639,2452.9263,N,08020.1413,W,1,10,1.4,12,M,,M,,*6E
06/20/2015	16:06:39.562	$GPGGA,160640,2452.9265,N,08020.1421,W,1,10,1.4,12,M,,M,,*67
06/20/2015	16:06:40.552	$GPGGA,160641,2452.9268,N,08020.1427,W,1,10,1.3,12,M,,M,,*6A
06/20/2015	16:06:41.562	$GPGGA,160642,2452.9269,N,08020.1432,W,1,10,1.4,12,M,,M,,*6B
06/20/2015	16:06:42.552	$GPGGA,160643,2452.9272,N,08020.1438,W,1,10,1.4,12,M,,M,,*6A
06/20/2015	16:06:43.552	$GPGGA,160644,2452.9276,N,08020.1443,W,1,10,1.4,12,M,,M,,*65
06/20/2015	16:06:44.532	$GPGGA,160645,2452.9278,N,08020.1449,W,1,10,1.4,12,M,,M,,*60
06/20/2015	16:06:45.552	$GPGGA,160646,2452.9281,N,08020.1453,W,1,10,1.4,12,M,,M,,*6E
06/20/2015	16:06:46.542	$GPGGA,160647,2452.9283,N,08020.1459,W,1,10,1.4,12,M,,M,,*67
06/20/2015	16:06:47.572	$GPGGA,160648,2452.9286,N,08020.1464,W,1,10,1.4,12,M,,M,,*63
06/20/2015	16:06:48.552	$GPGGA,160649,2452.9289,N,08020.1470,W,1,10,1.4,12,M,,M,,*68
06/20/2015	16:06:49.532	$GPGGA,160650,2452.9292,N,08020.1475,W,1,10,1.4,12,M,,M,,*6F
06/20/2015	16:06:50.542	$GPGGA,160651,2452.9294,N,08020.1481,W,1,10,1.4,12,M,,M,,*63
06/20/2015	16:06:51.532	$GPGGA,160652,2452.9297,N,08020.1485,W,1,10,1.4,12,M,,M,,*67
06/20/2015	16:06:52.532	$GPGGA,160653,2452.9300,N,08020.1492,W,1,10,1.4,12,M,,M,,*6F
06/20/2015	16:06:53.552	$GPGGA,160654,2452.9303,N,08020.1499,W,1,10,1.4,12,M,,M,,*60
06/20/2015	16:06:54.532	$GPGGA,160655,2452.9305,N,08020.1504,W,1,10,1.3,12,M,,M,,*65
06/20/2015	16:06:55.542	$GPGGA,160656,2452.9308,N,08020.1510,W,1,10,1.4,12,M,,M,,*69
06/20/2015	16:06:56.532	$GPGGA,160657,2452.9312,N,08020.1517,W,1,10,1.4,12,M,,M,,*64
06/20/2015	16:06:57.522	$GPGGA,160658,2452.9315,N,08020.1524,W,1,11,1.3,12,M,,M,,*6A
06/20/2015	16:06:58.505	$GPGGA,160659,2452.9319,N,08020.1529,W,1,11,1.3,12,M,,M,,*6A
06/20/2015	16:06:59.542	$GPGGA,160700,2452.9322,N,08020.1536,W,1,11,1.3,12,M,,M,,*61
06/20/2015	16:07:00.513	$GPGGA,160701,2452.9323,N,08020.1543,W,1,11,1.3,12,M,,M,,*63
06/20/2015	16:07:01.509	$GPGGA,160702,2452.9326,N,08020.1550,W,1,10,1.3,12,M,,M,,*66
06/20/2015	16:07:02.492	$GPGGA,160703,2452.9330,N,08020.1557,W,1,10,1.3,12,M,,M,,*67
06/20/2015	16:07:03.542	$GPGGA,160704,2452.9334,N,08020.1564,W,1,11,1.3,12,M,,M,,*65
06/20/2015	16:07:04.507	$GPGGA,160705,2452.9339,N,08020.1569,W,1,11,1.3,12,M,,M,,*64
06/20/2015	16:07:05.615	$GPGGA,160706,2452.9343,N,08020.1576,W,1,11,1.3,12,M,,M,,*64
06/20/2015	16:07:06.510	$GPGGA,160707,2452.9346,N,08020.1583,W,1,11,1.3,12,M,,M,,*6A
06/20/2015	16:07:07.632	$GPGGA,160708,2452.9350,N,08020.1590,W,1,11,1.3,12,M,,M,,*60
06/20/2015	16:07:08.582	$GPGGA,160709,2452.9354,N,08020.1595,W,1,11,1.3,12,M,,M,,*60
06/20/2015	16:07:09.492	$GPGGA,160710,2452.9357,N,08020.1602,W,1,11,1.3,12,M,,M,,*66
06/20/2015	16:07:10.492	$GPGGA,160711,2452.9359,N,08020.1608,W,1,11,1.3,12,M,,M,,*63
06/20/2015	16:07:11.603	$GPGGA,160712,2452.9362,N,08020.1615,W,1,11,1.3,12,M,,M,,*64
06/20/2015	16:07:12.492	$GPGGA,160713,2452.9366,N,08020.1622,W,1,11,1.3,12,M,,M,,*65
06/20/2015	16:07:13.606	$GPGGA,160714,2452.9370,N,08020.1629,W,1,11,1.3,13,M,,M,,*6F
06/20/2015	16:07:14.572	$GPGGA,160715,2452.9373,N,08020.1636,W,1,11,1.3,13,M,,M,,*63
06/20/2015	16:07:15.615	$GPGGA,160716,2452.9376,N,08020.1642,W,1,11,1.3,13,M,,M,,*66
06/20/2015	16:07:16.582	$GPGGA,160717,2452.9380,N,08020.1649,W,1,11,1.3,13,M,,M,,*65
06/20/2015	16:07:17.572	$GPGGA,160718,2452.9384,N,08020.1656,W,1,11,1.3,13,M,,M,,*60
06/20/2015	16:07:18.573	$GPGGA,160719,2452.9386,N,08020.1662,W,1,11,1.3,13,M,,M,,*64
06/20/2015	16:07:19.573	$GPGGA,160720,2452.9388,N,08020.1669,W,1,11,1.3,13,M,,M,,*6B
06/20/2015	16:07:20.563	$GPGGA,160721,2452.9393,N,08020.1676,W,1,11,1.3,13,M,,M,,*6E
06/20/2015	16:07:21.562	$GPGGA,160722,2452.9397,N,08020.1683,W,1,11,1.3,13,M,,M,,*63
06/20/2015	16:07:22.552	$GPGGA,160723,2452.9398,N,08020.1689,W,1,11,1.3,13,M,,M,,*67
06/20/2015	16:07:23.592	$GPGGA,160724,2452.9402,N,08020.1695,W,1,11,1.3,13,M,,M,,*69
06/20/2015	16:07:24.563	$GPGGA,160725,2452.9406,N,08020.1702,W,1,11,1.3,13,M,,M,,*63
06/20/2015	16:07:25.573	$GPGGA,160726,2452.9409,N,08020.1709,W,1,11,1.3,13,M,,M,,*64
06/20/2015	16:07:26.542	$GPGGA,160727,2452.9412,N,08020.1716,W,1,11,1.3,13,M,,M,,*61
06/20/2015	16:07:27.582	$GPGGA,160728,2452.9416,N,08020.1723,W,1,11,1.3,13,M,,M,,*6C
06/20/2015	16:07:28.553	$GPGGA,160729,2452.9420,N,08020.1730,W,1,11,1.3,13,M,,M,,*6A
06/20/2015	16:07:29.562	$GPGGA,160730,2452.9423,N,08020.1735,W,1,11,1.3,13,M,,M,,*64
06/20/2015	16:07:30.562	$GPGGA,160731,2452.9426,N,08020.1742,W,1,11,1.3,13,M,,M,,*60
06/20/2015	16:07:31.572	$GPGGA,160732,2452.9430,N,08020.1749,W,1,11,1.3,13,M,,M,,*6F
06/20/2015	16:07:32.552	$GPGGA,160733,2452.9431,N,08020.1756,W,1,11,1.3,13,M,,M,,*61
06/20/2015	16:07:33.531	$GPGGA,160734,2452.9435,N,08020.1763,W,1,11,1.3,13,M,,M,,*64
06/20/2015	16:07:34.532	$GPGGA,160735,2452.9438,N,08020.1768,W,1,11,1.3,13,M,,M,,*63
06/20/2015	16:07:35.582	$GPGGA,160736,2452.9442,N,08020.1775,W,1,11,1.3,13,M,,M,,*61
06/20/2015	16:07:36.532	$GPGGA,160737,2452.9445,N,08020.1782,W,1,11,1.3,13,M,,M,,*6F
06/20/2015	16:07:37.522	$GPGGA,160738,2452.9448,N,08020.1789,W,1,11,1.3,13,M,,M,,*66
06/20/2015	16:07:38.522	$GPGGA,160739,2452.9451,N,08020.1796,W,1,11,1.3,13,M,,M,,*61
06/20/2015	16:07:39.552	$GPGGA,160740,2452.9453,N,08020.1801,W,1,11,1.3,13,M,,M,,*6C
06/20/2015	16:07:40.532	$GPGGA,160741,2452.9458,N,08020.1808,W,1,11,1.3,13,M,,M,,*6F
06/20/2015	16:07:41.532	$GPGGA,160742,2452.9460,N,08020.1814,W,1,11,1.3,13,M,,M,,*6A
06/20/2015	16:07:42.532	$GPGGA,160743,2452.9464,N,08020.1821,W,1,11,1.3,13,M,,M,,*69
06/20/2015	16:07:43.522	$GPGGA,160744,2452.9467,N,08020.1828,W,1,11,1.3,13,M,,M,,*64
06/20/2015	16:07:44.512	$GPGGA,160745,2452.9470,N,08020.1835,W,1,11,1.3,13,M,,M,,*6F
06/20/2015	16:07:45.514	$GPGGA,160746,2452.9471,N,08020.1840,W,1,11,1.3,13,M,,M,,*6F
06/20/2015	16:07:46.542	$GPGGA,160747,2452.9474,N,08020.1847,W,1,11,1.3,13,M,,M,,*6C
06/20/2015	16:07:47.522	$GPGGA,160748,2452.9478,N,08020.1854,W,1,10,1.3,13,M,,M,,*6C
06/20/2015	16:07:48.504	$GPGGA,160749,2452.9481,N,08020.1861,W,1,10,1.3,13,M,,M,,*6D
06/20/2015	16:07:49.532	$GPGGA,160750,2452.9484,N,08020.1866,W,1,11,1.3,13,M,,M,,*66
06/20/2015	16:07:50.513	$GPGGA,160751,2452.9487,N,08020.1872,W,1,11,1.4,13,M,,M,,*66
06/20/2015	16:07:51.692	$GPGGA,160752,2452.9491,N,08020.1876,W,1,10,1.3,13,M,,M,,*60
06/20/2015	16:07:52.642	$GPGGA,160753,2452.9493,N,08020.1884,W,1,10,1.3,13,M,,M,,*6E
06/20/2015	16:07:53.682	$GPGGA,160754,2452.9496,N,08020.1890,W,1,11,1.4,13,M,,M,,*6F
06/20/2015	16:07:54.505	$GPGGA,160755,2452.9500,N,08020.1897,W,1,11,1.4,13,M,,M,,*67
06/20/2015	16:07:55.692	$GPGGA,160756,2452.9503,N,08020.1904,W,1,10,1.4,13,M,,M,,*6D
06/20/2015	16:07:56.617	$GPGGA,160757,2452.9507,N,08020.1909,W,1,10,1.4,13,M,,M,,*65
06/20/2015	16:07:57.673	$GPGGA,160758,2452.9510,N,08020.1915,W,1,10,1.4,13,M,,M,,*61
06/20/2015	16:07:58.512	$GPGGA,160759,2452.9511,N,08020.1922,W,1,10,1.4,12,M,,M,,*64
06/20/2015	16:07:59.692	$GPGGA,160800,2452.9514,N,08020.1929,W,1,10,1.4,12,M,,M,,*69
06/20/2015	16:08:00.482	$GPGGA,160801,2452.9518,N,08020.1936,W,1,10,1.4,12,M,,M,,*6A
06/20/2015	16:08:01.672	$GPGGA,160802,2452.9521,N,08020.1941,W,1,10,1.4,12,M,,M,,*63
06/20/2015	16:08:02.492	$GPGGA,160803,2452.9524,N,08020.1951,W,1,10,1.4,12,M,,M,,*66
06/20/2015	16:08:03.682	$GPGGA,160804,2452.9527,N,08020.1959,W,1,11,1.3,12,M,,M,,*6C
06/20/2015	16:08:04.572	$GPGGA,160805,2452.9529,N,08020.1967,W,1,11,1.3,12,M,,M,,*6E
06/20/2015	16:08:05.682	$GPGGA,160806,2452.9532,N,08020.1976,W,1,11,1.3,12,M,,M,,*67
06/20/2015	16:08:06.562	$GPGGA,160807,2452.9534,N,08020.1983,W,1,11,1.3,12,M,,M,,*6A
06/20/2015	16:08:07.682	$GPGGA,160808,2452.9538,N,08020.1992,W,1,11,1.3,12,M,,M,,*69
06/20/2015	16:08:08.608	$GPGGA,160809,2452.9539,N,08020.1998,W,1,11,1.4,12,M,,M,,*64
06/20/2015	16:08:09.662	$GPGGA,160810,2452.9543,N,08020.2003,W,1,10,1.4,12,M,,M,,*68
06/20/2015	16:08:10.592	$GPGGA,160811,2452.9545,N,08020.2009,W,1,10,1.4,12,M,,M,,*65
06/20/2015	16:08:11.672	$GPGGA,160812,2452.9547,N,08020.2016,W,1,10,1.4,12,M,,M,,*6A
06/20/2015	16:08:12.582	$GPGGA,160813,2452.9550,N,08020.2021,W,1,10,1.4,12,M,,M,,*69
06/20/2015	16:08:14.582	$GPGGA,160815,2452.9556,N,08020.2034,W,1,10,1.4,12,M,,M,,*6D
06/20/2015	16:08:15.672	$GPGGA,160816,2452.9557,N,08020.2041,W,1,10,1.4,12,M,,M,,*6D
06/20/2015	16:08:16.572	$GPGGA,160817,2452.9560,N,08020.2046,W,1,10,1.4,12,M,,M,,*6F
06/20/2015	16:08:17.662	$GPGGA,160818,2452.9563,N,08020.2056,W,1,10,1.4,12,M,,M,,*62
06/20/2015	16:08:18.542	$GPGGA,160819,2452.9565,N,08020.2064,W,1,10,1.3,12,M,,M,,*63
06/20/2015	16:08:19.672	$GPGGA,160820,2452.9568,N,08020.2071,W,1,11,1.3,12,M,,M,,*61
06/20/2015	16:08:20.572	$GPGGA,160821,2452.9570,N,08020.2079,W,1,11,1.3,12,M,,M,,*61
06/20/2015	16:08:22.073	$GPGGA,160822,2452.9572,N,08020.2086,W,1,11,1.3,12,M,,M,,*60
06/20/2015	16:08:22.532	$GPGGA,160823,2452.9574,N,08020.2093,W,1,11,1.3,13,M,,M,,*62
06/20/2015	16:08:23.622	$GPGGA,160824,2452.9576,N,08020.2099,W,1,11,1.3,13,M,,M,,*6D
06/20/2015	16:08:24.562	$GPGGA,160825,2452.9578,N,08020.2106,W,1,11,1.3,13,M,,M,,*65
06/20/2015	16:08:25.632	$GPGGA,160826,2452.9579,N,08020.2113,W,1,10,1.3,13,M,,M,,*62
06/20/2015	16:08:26.532	$GPGGA,160827,2452.9583,N,08020.2120,W,1,10,1.3,13,M,,M,,*66
06/20/2015	16:08:27.642	$GPGGA,160828,2452.9585,N,08020.2126,W,1,11,1.3,13,M,,M,,*68
06/20/2015	16:08:28.532	$GPGGA,160829,2452.9586,N,08020.2132,W,1,11,1.3,13,M,,M,,*6F
06/20/2015	16:08:29.512	$GPGGA,160830,2452.9587,N,08020.2140,W,1,10,1.3,13,M,,M,,*62
06/20/2015	16:08:30.552	$GPGGA,160831,2452.9590,N,08020.2149,W,1,10,1.4,13,M,,M,,*6B
06/20/2015	16:08:31.642	$GPGGA,160832,2452.9592,N,08020.2155,W,1,11,1.3,13,M,,M,,*61
06/20/2015	16:08:32.572	$GPGGA,160833,2452.9591,N,08020.2162,W,1,11,1.3,13,M,,M,,*67
06/20/2015	16:08:33.512	$GPGGA,160834,2452.9593,N,08020.2169,W,1,10,1.3,13,M,,M,,*68
06/20/2015	16:08:34.542	$GPGGA,160835,2452.9592,N,08020.2178,W,1,10,1.3,13,M,,M,,*68
06/20/2015	16:08:35.642	$GPGGA,160836,2452.9594,N,08020.2183,W,1,10,1.3,13,M,,M,,*69
06/20/2015	16:08:36.614	$GPGGA,160837,2452.9594,N,08020.2190,W,1,10,1.3,13,M,,M,,*6A
06/20/2015	16:08:37.602	$GPGGA,160838,2452.9594,N,08020.2197,W,1,10,1.3,13,M,,M,,*62
06/20/2015	16:08:38.532	$GPGGA,160839,2452.9596,N,08020.2204,W,1,10,1.3,13,M,,M,,*68
06/20/2015	16:08:39.632	$GPGGA,160840,2452.9597,N,08020.2209,W,1,10,1.3,13,M,,M,,*6A
06/20/2015	16:08:40.542	$GPGGA,160841,2452.9597,N,08020.2215,W,1,10,1.3,13,M,,M,,*66
06/20/2015	16:08:41.602	$GPGGA,160842,2452.9599,N,08020.2222,W,1,10,1.4,13,M,,M,,*68
06/20/2015	16:08:42.522	$GPGGA,160843,2452.9598,N,08020.2227,W,1,10,1.3,13,M,,M,,*6A
06/20/2015	16:08:43.661	$GPGGA,160844,2452.9601,N,08020.2233,W,1,11,1.3,13,M,,M,,*6A
06/20/2015	16:08:44.542	$GPGGA,160845,2452.9603,N,08020.2238,W,1,11,1.3,13,M,,M,,*62
06/20/2015	16:08:45.492	$GPGGA,160846,2452.9604,N,08020.2243,W,1,11,1.3,13,M,,M,,*6A
06/20/2015	16:08:46.582	$GPGGA,160847,2452.9603,N,08020.2249,W,1,11,1.4,13,M,,M,,*61
06/20/2015	16:08:47.632	$GPGGA,160848,2452.9604,N,08020.2255,W,1,10,1.4,13,M,,M,,*65
06/20/2015	16:08:48.582	$GPGGA,160849,2452.9607,N,08020.2261,W,1,10,1.3,13,M,,M,,*67
06/20/2015	16:08:49.572	$GPGGA,160850,2452.9608,N,08020.2266,W,1,11,1.4,13,M,,M,,*61
06/20/2015	16:08:50.504	$GPGGA,160851,2452.9608,N,08020.2270,W,1,11,1.3,13,M,,M,,*60
06/20/2015	16:08:51.652	$GPGGA,160852,2452.9610,N,08020.2276,W,1,11,1.3,13,M,,M,,*6C
06/20/2015	16:08:52.572	$GPGGA,160853,2452.9611,N,08020.2281,W,1,11,1.3,14,M,,M,,*63
06/20/2015	16:08:53.605	$GPGGA,160854,2452.9610,N,08020.2287,W,1,11,1.3,14,M,,M,,*63
06/20/2015	16:08:54.522	$GPGGA,160855,2452.9611,N,08020.2291,W,1,11,1.5,14,M,,M,,*62
06/20/2015	16:08:55.592	$GPGGA,160856,2452.9610,N,08020.2296,W,1,9,1.4,14,M,,M,,*5F
06/20/2015	16:08:56.572	$GPGGA,160857,2452.9612,N,08020.2302,W,1,9,1.4,14,M,,M,,*50
06/20/2015	16:08:57.582	$GPGGA,160858,2452.9610,N,08020.2309,W,1,10,1.4,14,M,,M,,*6E
06/20/2015	16:08:58.562	$GPGGA,160859,2452.9611,N,08020.2313,W,1,10,1.3,14,M,,M,,*62
06/20/2015	16:08:59.652	$GPGGA,160900,2452.9612,N,08020.2319,W,1,11,1.3,14,M,,M,,*67
06/20/2015	16:09:00.562	$GPGGA,160901,2452.9610,N,08020.2324,W,1,11,1.3,14,M,,M,,*6A
06/20/2015	16:09:01.592	$GPGGA,160902,2452.9609,N,08020.2330,W,1,11,1.3,14,M,,M,,*64
06/20/2015	16:09:02.552	$GPGGA,160903,2452.9611,N,08020.2337,W,1,11,1.3,14,M,,M,,*6B
06/20/2015	16:09:03.615	$GPGGA,160904,2452.9609,N,08020.2341,W,1,10,1.3,14,M,,M,,*65
06/20/2015	16:09:04.562	$GPGGA,160905,2452.9610,N,08020.2346,W,1,10,1.3,14,M,,M,,*6B
06/20/2015	16:09:05.592	$GPGGA,160906,2452.9608,N,08020.2352,W,1,11,1.3,14,M,,M,,*65
06/20/2015	16:09:06.552	$GPGGA,160907,2452.9608,N,08020.2356,W,1,11,1.3,14,M,,M,,*60
06/20/2015	16:09:07.622	$GPGGA,160908,2452.9606,N,08020.2360,W,1,11,1.3,14,M,,M,,*64
06/20/2015	16:09:08.572	$GPGGA,160909,2452.9607,N,08020.2366,W,1,11,1.3,14,M,,M,,*62
06/20/2015	16:09:09.572	$GPGGA,160910,2452.9608,N,08020.2373,W,1,11,1.3,14,M,,M,,*61
06/20/2015	16:09:10.562	$GPGGA,160911,2452.9606,N,08020.2377,W,1,11,1.3,14,M,,M,,*6A
06/20/2015	16:09:11.592	$GPGGA,160912,2452.9605,N,08020.2382,W,1,11,1.3,15,M,,M,,*61
06/20/2015	16:09:12.552	$GPGGA,160913,2452.9605,N,08020.2388,W,1,11,1.3,15,M,,M,,*6A
06/20/2015	16:09:13.573	$GPGGA,160914,2452.9605,N,08020.2388,W,1,11,1.3,15,M,,M,,*6D
06/20/2015	16:09:14.552	$GPGGA,160915,2452.9605,N,08020.2397,W,1,11,1.4,15,M,,M,,*65
06/20/2015	16:09:15.592	$GPGGA,160916,2452.9605,N,08020.2402,W,1,10,1.3,15,M,,M,,*6B
06/20/2015	16:09:16.542	$GPGGA,160917,2452.9604,N,08020.2407,W,1,10,1.3,15,M,,M,,*6E
06/20/2015	16:09:17.572	$GPGGA,160918,2452.9603,N,08020.2413,W,1,11,1.3,15,M,,M,,*62
06/20/2015	16:09:18.541	$GPGGA,160919,2452.9604,N,08020.2418,W,1,11,1.3,15,M,,M,,*6F
06/20/2015	16:09:19.642	$GPGGA,160920,2452.9603,N,08020.2424,W,1,11,1.3,15,M,,M,,*6D
06/20/2015	16:09:20.532	$GPGGA,160921,2452.9602,N,08020.2429,W,1,11,1.3,15,M,,M,,*60
06/20/2015	16:09:21.622	$GPGGA,160922,2452.9603,N,08020.2435,W,1,11,1.3,15,M,,M,,*6F
06/20/2015	16:09:22.542	$GPGGA,160923,2452.9602,N,08020.2440,W,1,11,1.3,15,M,,M,,*6D
06/20/2015	16:09:23.662	$GPGGA,160924,2452.9601,N,08020.2446,W,1,11,1.3,15,M,,M,,*6F
06/20/2015	16:09:24.516	$GPGGA,160925,2452.9601,N,08020.2451,W,1,11,1.3,15,M,,M,,*68
06/20/2015	16:09:25.534	$GPGGA,160926,2452.9601,N,08020.2451,W,1,11,1.3,15,M,,M,,*6B
06/20/2015	16:09:26.522	$GPGGA,160927,2452.9601,N,08020.2457,W,1,11,1.4,15,M,,M,,*6B
06/20/2015	16:09:27.534	$GPGGA,160928,2452.9602,N,08020.2467,W,1,10,1.3,15,M,,M,,*62
06/20/2015	16:09:28.592	$GPGGA,160929,2452.9603,N,08020.2472,W,1,10,1.3,15,M,,M,,*66
06/20/2015	16:09:29.532	$GPGGA,160930,2452.9603,N,08020.2472,W,1,11,1.3,15,M,,M,,*6F
06/20/2015	16:09:30.518	$GPGGA,160931,2452.9603,N,08020.2483,W,1,11,1.3,15,M,,M,,*60
06/20/2015	16:09:31.632	$GPGGA,160932,2452.9601,N,08020.2489,W,1,11,1.3,15,M,,M,,*6B
06/20/2015	16:09:32.592	$GPGGA,160933,2452.9603,N,08020.2496,W,1,11,1.4,15,M,,M,,*61
06/20/2015	16:09:33.522	$GPGGA,160934,2452.9603,N,08020.2496,W,1,9,1.5,15,M,,M,,*5E
06/20/2015	16:09:34.515	$GPGGA,160935,2452.9604,N,08020.2507,W,1,9,1.5,15,M,,M,,*51
06/20/2015	16:09:35.662	$GPGGA,160936,2452.9604,N,08020.2511,W,1,10,1.4,15,M,,M,,*6C
06/20/2015	16:09:36.502	$GPGGA,160937,2452.9604,N,08020.2518,W,1,10,1.4,15,M,,M,,*64
06/20/2015	16:09:37.582	$GPGGA,160938,2452.9605,N,08020.2522,W,1,11,1.3,15,M,,M,,*65
06/20/2015	16:09:38.592	$GPGGA,160939,2452.9607,N,08020.2526,W,1,11,1.3,15,M,,M,,*62
06/20/2015	16:09:39.592	$GPGGA,160940,2452.9608,N,08020.2533,W,1,11,1.3,15,M,,M,,*67
06/20/2015	16:09:40.492	$GPGGA,160941,2452.9608,N,08020.2538,W,1,11,1.4,15,M,,M,,*6A
06/20/2015	16:09:41.606	$GPGGA,160942,2452.9610,N,08020.2543,W,1,10,1.4,15,M,,M,,*6D
06/20/2015	16:09:42.582	$GPGGA,160943,2452.9612,N,08020.2547,W,1,10,1.3,15,M,,M,,*6D
06/20/2015	16:09:43.622	$GPGGA,160944,2452.9615,N,08020.2554,W,1,10,1.3,15,M,,M,,*6F
06/20/2015	16:09:44.572	$GPGGA,160945,2452.9615,N,08020.2558,W,1,10,1.3,15,M,,M,,*62
06/20/2015	16:09:45.572	$GPGGA,160946,2452.9615,N,08020.2562,W,1,9,1.5,15,M,,M,,*56
06/20/2015	16:09:46.572	$GPGGA,160947,2452.9615,N,08020.2570,W,1,9,1.3,15,M,,M,,*52
06/20/2015	16:09:47.616	$GPGGA,160948,2452.9618,N,08020.2577,W,1,10,1.3,15,M,,M,,*6F
06/20/2015	16:09:48.582	$GPGGA,160949,2452.9616,N,08020.2583,W,1,10,1.5,15,M,,M,,*6D
06/20/2015	16:09:49.592	$GPGGA,160950,2452.9615,N,08020.2588,W,1,10,1.3,15,M,,M,,*6B
06/20/2015	16:09:50.552	$GPGGA,160951,2452.9617,N,08020.2597,W,1,10,1.5,15,M,,M,,*60
06/20/2015	16:09:51.562	$GPGGA,160952,2452.9615,N,08020.2605,W,1,8,1.6,15,M,,M,,*53
06/20/2015	16:09:52.552	$GPGGA,160953,2452.9619,N,08020.2605,W,1,8,1.5,15,M,,M,,*5D
06/20/2015	16:09:53.551	$GPGGA,160954,2452.9621,N,08020.2610,W,1,10,1.3,15,M,,M,,*6A
06/20/2015	16:09:54.562	$GPGGA,160955,2452.9620,N,08020.2619,W,1,10,1.3,15,M,,M,,*63
06/20/2015	16:09:55.592	$GPGGA,160956,2452.9622,N,08020.2626,W,1,8,1.6,15,M,,M,,*52
06/20/2015	16:09:56.542	$GPGGA,160957,2452.9620,N,08020.2633,W,1,8,1.6,15,M,,M,,*55
06/20/2015	16:09:57.562	$GPGGA,160958,2452.9620,N,08020.2633,W,1,8,1.6,15,M,,M,,*5A
06/20/2015	16:09:58.542	$GPGGA,160959,2452.9621,N,08020.2646,W,1,8,1.5,15,M,,M,,*5B
06/20/2015	16:09:59.592	$GPGGA,161000,2452.9617,N,08020.2656,W,1,8,1.6,15,M,,M,,*58
06/20/2015	16:10:00.822	$GPGGA,161001,2452.9619,N,08020.2662,W,1,8,1.5,15,M,,M,,*53
06/20/2015	16:10:01.552	$GPGGA,161002,2452.9621,N,08020.2667,W,1,9,1.4,15,M,,M,,*5E
06/20/2015	16:10:02.542	$GPGGA,161003,2452.9622,N,08020.2674,W,1,9,1.4,15,M,,M,,*5E
06/20/2015	16:10:03.572	$GPGGA,161004,2452.9622,N,08020.2681,W,1,9,1.5,15,M,,M,,*52
06/20/2015	16:10:04.532	$GPGGA,161005,2452.9625,N,08020.2686,W,1,9,1.5,15,M,,M,,*53
06/20/2015	16:10:05.562	$GPGGA,161006,2452.9626,N,08020.2692,W,1,9,1.4,15,M,,M,,*57
06/20/2015	16:10:06.532	$GPGGA,161007,2452.9628,N,08020.2699,W,1,9,1.4,15,M,,M,,*53
06/20/2015	16:10:07.542	$GPGGA,161008,2452.9630,N,08020.2703,W,1,9,1.4,15,M,,M,,*57
06/20/2015	16:10:08.532	$GPGGA,161009,2452.9632,N,08020.2709,W,1,9,1.4,15,M,,M,,*5E
06/20/2015	16:10:09.532	$GPGGA,161010,2452.9631,N,08020.2714,W,1,9,1.4,15,M,,M,,*59
06/20/2015	16:10:10.512	$GPGGA,161011,2452.9633,N,08020.2721,W,1,9,1.3,15,M,,M,,*5B
06/20/2015	16:10:11.562	$GPGGA,161012,2452.9636,N,08020.2728,W,1,11,1.3,15,M,,M,,*6D
06/20/2015	16:10:12.512	$GPGGA,161013,2452.9637,N,08020.2732,W,1,11,1.4,15,M,,M,,*61
06/20/2015	16:10:13.512	$GPGGA,161014,2452.9637,N,08020.2738,W,1,10,1.3,15,M,,M,,*6A
06/20/2015	16:10:14.522	$GPGGA,161015,2452.9640,N,08020.2743,W,1,10,1.3,15,M,,M,,*67
06/20/2015	16:10:15.522	$GPGGA,161016,2452.9641,N,08020.2750,W,1,10,1.3,15,M,,M,,*67
06/20/2015	16:10:16.505	$GPGGA,161017,2452.9641,N,08020.2756,W,1,10,1.4,15,M,,M,,*67
06/20/2015	16:10:17.615	$GPGGA,161018,2452.9644,N,08020.2761,W,1,9,1.4,15,M,,M,,*51
06/20/2015	16:10:18.512	$GPGGA,161019,2452.9646,N,08020.2767,W,1,9,1.4,15,M,,M,,*54
06/20/2015	16:10:19.522	$GPGGA,161020,2452.9645,N,08020.2774,W,1,9,1.4,15,M,,M,,*5F
06/20/2015	16:10:20.502	$GPGGA,161021,2452.9647,N,08020.2779,W,1,9,1.3,15,M,,M,,*56
06/20/2015	16:10:21.508	$GPGGA,161022,2452.9646,N,08020.2786,W,1,10,1.3,15,M,,M,,*6C
06/20/2015	16:10:22.505	$GPGGA,161023,2452.9647,N,08020.2794,W,1,10,1.3,15,M,,M,,*6F
06/20/2015	16:10:23.632	$GPGGA,161024,2452.9644,N,08020.2803,W,1,8,1.6,15,M,,M,,*56
06/20/2015	16:10:24.582	$GPGGA,161025,2452.9646,N,08020.2811,W,1,8,1.3,15,M,,M,,*53
06/20/2015	16:10:25.614	$GPGGA,161026,2452.9645,N,08020.2818,W,1,10,1.3,16,M,,M,,*60
06/20/2015	16:10:26.582	$GPGGA,161027,2452.9646,N,08020.2823,W,1,10,1.3,16,M,,M,,*6A
06/20/2015	16:10:27.504	$GPGGA,161028,2452.9647,N,08020.2829,W,1,10,1.3,16,M,,M,,*6E
06/20/2015	16:10:28.571	$GPGGA,161029,2452.9648,N,08020.2836,W,1,10,1.3,16,M,,M,,*6E
06/20/2015	16:10:29.482	$GPGGA,161030,2452.9648,N,08020.2841,W,1,10,1.3,16,M,,M,,*66
06/20/2015	16:10:30.572	$GPGGA,161031,2452.9646,N,08020.2850,W,1,10,1.3,16,M,,M,,*69
06/20/2015	16:10:31.592	$GPGGA,161032,2452.9648,N,08020.2857,W,1,9,1.5,16,M,,M,,*5D
06/20/2015	16:10:32.562	$GPGGA,161033,2452.9646,N,08020.2863,W,1,9,1.5,16,M,,M,,*55
06/20/2015	16:10:33.604	$GPGGA,161034,2452.9647,N,08020.2869,W,1,9,1.5,16,M,,M,,*59
06/20/2015	16:10:34.562	$GPGGA,161035,2452.9648,N,08020.2876,W,1,9,1.5,16,M,,M,,*59
06/20/2015	16:10:35.612	$GPGGA,161036,2452.9648,N,08020.2883,W,1,8,1.6,16,M,,M,,*52
06/20/2015	16:10:36.562	$GPGGA,161037,2452.9648,N,08020.2888,W,1,8,1.4,16,M,,M,,*5A
06/20/2015	16:10:37.562	$GPGGA,161038,2452.9650,N,08020.2894,W,1,11,1.3,16,M,,M,,*6E
06/20/2015	16:10:39.622	$GPGGA,161040,2452.9654,N,08020.2905,W,1,11,1.3,15,M,,M,,*6F
06/20/2015	16:10:40.563	$GPGGA,161041,2452.9655,N,08020.2909,W,1,11,1.4,15,M,,M,,*64
06/20/2015	16:10:41.572	$GPGGA,161042,2452.9655,N,08020.2916,W,1,10,1.4,15,M,,M,,*68
06/20/2015	16:10:42.552	$GPGGA,161043,2452.9655,N,08020.2923,W,1,10,1.3,15,M,,M,,*68
06/20/2015	16:10:43.608	$GPGGA,161044,2452.9655,N,08020.2930,W,1,11,1.3,15,M,,M,,*6C
06/20/2015	16:10:44.552	$GPGGA,161045,2452.9653,N,08020.2935,W,1,11,1.3,15,M,,M,,*6E
06/20/2015	16:10:45.562	$GPGGA,161046,2452.9654,N,08020.2942,W,1,10,1.4,15,M,,M,,*6C
06/20/2015	16:10:46.552	$GPGGA,161047,2452.9652,N,08020.2949,W,1,10,1.4,15,M,,M,,*60
06/20/2015	16:10:47.582	$GPGGA,161048,2452.9654,N,08020.2955,W,1,9,1.5,15,M,,M,,*5D
06/20/2015	16:10:48.562	$GPGGA,161049,2452.9655,N,08020.2960,W,1,9,1.4,15,M,,M,,*5A
06/20/2015	16:10:49.532	$GPGGA,161050,2452.9655,N,08020.2964,W,1,11,1.3,15,M,,M,,*68
06/20/2015	16:10:50.542	$GPGGA,161051,2452.9655,N,08020.2970,W,1,11,1.3,15,M,,M,,*6C
06/20/2015	16:10:51.582	$GPGGA,161052,2452.9657,N,08020.2974,W,1,10,1.4,15,M,,M,,*6F
06/20/2015	16:10:52.542	$GPGGA,161053,2452.9658,N,08020.2980,W,1,10,1.3,15,M,,M,,*6D
06/20/2015	16:10:53.552	$GPGGA,161054,2452.9656,N,08020.2986,W,1,10,1.4,15,M,,M,,*65
06/20/2015	16:10:54.532	$GPGGA,161055,2452.9657,N,08020.2991,W,1,10,1.4,15,M,,M,,*63
06/20/2015	16:10:55.552	$GPGGA,161056,2452.9656,N,08020.2996,W,1,11,1.3,15,M,,M,,*60
06/20/2015	16:10:56.515	$GPGGA,161057,2452.9658,N,08020.3002,W,1,11,1.3,15,M,,M,,*6A
06/20/2015	16:10:57.522	$GPGGA,161058,2452.9657,N,08020.3009,W,1,9,1.5,15,M,,M,,*5E
06/20/2015	16:10:58.512	$GPGGA,161059,2452.9658,N,08020.3011,W,1,9,1.4,15,M,,M,,*58
06/20/2015	16:10:59.652	$GPGGA,161100,2452.9656,N,08020.3018,W,1,10,1.4,15,M,,M,,*6A
06/20/2015	16:11:00.522	$GPGGA,161101,2452.9655,N,08020.3024,W,1,10,1.3,15,M,,M,,*60
06/20/2015	16:11:01.512	$GPGGA,161102,2452.9655,N,08020.3031,W,1,11,1.3,15,M,,M,,*66
06/20/2015	16:11:02.502	$GPGGA,161103,2452.9655,N,08020.3033,W,1,11,1.4,15,M,,M,,*62
06/20/2015	16:11:03.672	$GPGGA,161104,2452.9655,N,08020.3038,W,1,11,1.3,15,M,,M,,*69
06/20/2015	16:11:04.625	$GPGGA,161105,2452.9652,N,08020.3043,W,1,11,1.3,15,M,,M,,*63
06/20/2015	16:11:05.515	$GPGGA,161106,2452.9655,N,08020.3047,W,1,9,1.5,15,M,,M,,*5C
06/20/2015	16:11:06.505	$GPGGA,161107,2452.9655,N,08020.3053,W,1,9,1.3,15,M,,M,,*5E
06/20/2015	16:11:07.505	$GPGGA,161108,2452.9653,N,08020.3056,W,1,9,1.5,15,M,,M,,*54
06/20/2015	16:11:08.502	$GPGGA,161109,2452.9652,N,08020.3061,W,1,9,1.5,15,M,,M,,*50
06/20/2015	16:11:09.502	$GPGGA,161110,2452.9655,N,08020.3067,W,1,9,1.5,15,M,,M,,*59
06/20/2015	16:11:10.506	$GPGGA,161111,2452.9652,N,08020.3071,W,1,9,1.4,15,M,,M,,*59
06/20/2015	16:11:11.505	$GPGGA,161112,2452.9651,N,08020.3074,W,1,10,1.4,15,M,,M,,*64
06/20/2015	16:11:12.492	$GPGGA,161113,2452.9650,N,08020.3078,W,1,10,1.4,15,M,,M,,*68
06/20/2015	16:11:13.622	$GPGGA,161114,2452.9648,N,08020.3082,W,1,7,2.1,15,M,,M,,*53
06/20/2015	16:11:14.492	$GPGGA,161115,2452.9646,N,08020.3085,W,1,7,1.4,15,M,,M,,*5D
06/20/2015	16:11:15.622	$GPGGA,161116,2452.9645,N,08020.3087,W,1,10,1.4,15,M,,M,,*69
06/20/2015	16:11:16.882	$GPGGA,161117,2452.9644,N,08020.3092,W,1,10,1.4,15,M,,M,,*6D
06/20/2015	16:11:17.592	$GPGGA,161118,2452.9642,N,08020.3096,W,1,10,1.4,15,M,,M,,*60
06/20/2015	16:11:18.572	$GPGGA,161119,2452.9639,N,08020.3098,W,1,10,1.4,15,M,,M,,*63
06/20/2015	16:11:19.592	$GPGGA,161120,2452.9638,N,08020.3101,W,1,10,1.4,16,M,,M,,*6A
06/20/2015	16:11:20.562	$GPGGA,161121,2452.9637,N,08020.3104,W,1,10,1.3,16,M,,M,,*66
06/20/2015	16:11:21.562	$GPGGA,161122,2452.9635,N,08020.3107,W,1,11,1.3,16,M,,M,,*65
06/20/2015	16:11:22.562	$GPGGA,161123,2452.9634,N,08020.3110,W,1,11,1.4,16,M,,M,,*64
06/20/2015	16:11:23.592	$GPGGA,161124,2452.9633,N,08020.3112,W,1,11,1.3,16,M,,M,,*61
06/20/2015	16:11:24.572	$GPGGA,161125,2452.9631,N,08020.3115,W,1,11,1.3,16,M,,M,,*65
06/20/2015	16:11:25.572	$GPGGA,161126,2452.9630,N,08020.3118,W,1,10,1.4,16,M,,M,,*6C
06/20/2015	16:11:26.562	$GPGGA,161127,2452.9630,N,08020.3118,W,1,10,1.3,16,M,,M,,*6A
06/20/2015	16:11:27.592	$GPGGA,161128,2452.9630,N,08020.3122,W,1,11,1.3,16,M,,M,,*6D
06/20/2015	16:11:28.552	$GPGGA,161129,2452.9627,N,08020.3125,W,1,11,1.4,17,M,,M,,*6B
06/20/2015	16:11:29.572	$GPGGA,161130,2452.9626,N,08020.3129,W,1,10,1.4,17,M,,M,,*6F
06/20/2015	16:11:30.552	$GPGGA,161131,2452.9626,N,08020.3132,W,1,10,1.4,17,M,,M,,*64
06/20/2015	16:11:31.582	$GPGGA,161132,2452.9626,N,08020.3134,W,1,10,1.4,17,M,,M,,*61
06/20/2015	16:11:32.542	$GPGGA,161133,2452.9624,N,08020.3137,W,1,10,1.4,17,M,,M,,*61
06/20/2015	16:11:33.582	$GPGGA,161134,2452.9626,N,08020.3139,W,1,8,1.6,17,M,,M,,*51
06/20/2015	16:11:34.552	$GPGGA,161135,2452.9624,N,08020.3143,W,1,8,1.5,17,M,,M,,*5C
06/20/2015	16:11:35.562	$GPGGA,161136,2452.9622,N,08020.3147,W,1,10,1.4,17,M,,M,,*65
06/20/2015	16:11:36.542	$GPGGA,161137,2452.9621,N,08020.3150,W,1,10,1.4,17,M,,M,,*61
06/20/2015	16:11:37.532	$GPGGA,161138,2452.9622,N,08020.3151,W,1,10,1.4,17,M,,M,,*6C
06/20/2015	16:11:38.541	$GPGGA,161139,2452.9623,N,08020.3154,W,1,10,1.5,17,M,,M,,*68
06/20/2015	16:11:39.572	$GPGGA,161140,2452.9625,N,08020.3158,W,1,10,1.4,17,M,,M,,*6D
06/20/2015	16:11:40.523	$GPGGA,161141,2452.9623,N,08020.3161,W,1,10,1.4,17,M,,M,,*60
06/20/2015	16:11:41.522	$GPGGA,161142,2452.9622,N,08020.3163,W,1,9,1.5,17,M,,M,,*59
06/20/2015	16:11:42.772	$GPGGA,161143,2452.9623,N,08020.3166,W,1,9,1.5,17,M,,M,,*5C
06/20/2015	16:11:43.542	$GPGGA,161144,2452.9626,N,08020.3168,W,1,10,1.4,17,M,,M,,*69
06/20/2015	16:11:44.532	$GPGGA,161145,2452.9626,N,08020.3170,W,1,10,1.4,17,M,,M,,*61
