Software Version Number: 1	Data File Format Number: 1	Build Version Number: 1	Error Count Since VI Started: 3	Manufacturer: Raytheon	 Model Number: RayMarine 120	 S/N: 	 Cal Date: 	 Wind Direction Offset: 0.00	 Slope (M)1: 0.00	 Offset (B)1: 0.00	 Slope (M)2: 0.00	 Offset (B)2: 0.00	 Slope (M)3: 0.00	 Offset (B)3: 0.00	 Slope (M)4: 0.00	 Offset (B)4: 0.00	 Slope (M)5: 0.00	 Offset (B)5: 0.00	 Slope (M)6: 0.00	 Offset (B)6: 0.00
Computer Date	Computer Time	GGA String
06/25/2015	20:00:00.544	$GPGGA,200001,2549.2790,N,07949.4641,W,1,10,1.6,19,M,,M,,*6F
06/25/2015	20:00:01.564	$GPGGA,200002,2549.2809,N,07949.4630,W,1,10,1.6,19,M,,M,,*65
06/25/2015	20:00:02.564	$GPGGA,200003,2549.2827,N,07949.4618,W,1,10,1.7,19,M,,M,,*63
06/25/2015	20:00:03.584	$GPGGA,200004,2549.2845,N,07949.4606,W,1,9,1.7,19,M,,M,,*57
06/25/2015	20:00:04.556	$GPGGA,200005,2549.2863,N,07949.4593,W,1,9,1.7,19,M,,M,,*5D
06/25/2015	20:00:05.560	$GPGGA,200006,2549.2881,N,07949.4582,W,1,9,1.6,19,M,,M,,*53
06/25/2015	20:00:06.552	$GPGGA,200007,2549.2881,N,07949.4582,W,1,9,1.6,19,M,,M,,*52
06/25/2015	20:00:08.544	$GPGGA,200009,2549.2936,N,07949.4546,W,1,10,1.7,19,M,,M,,*60
06/25/2015	20:00:09.574	$GPGGA,200010,2549.2956,N,07949.4534,W,1,9,1.7,19,M,,M,,*53
06/25/2015	20:00:10.562	$GPGGA,200011,2549.2975,N,07949.4522,W,1,9,1.6,19,M,,M,,*55
06/25/2015	20:00:11.550	$GPGGA,200012,2549.2975,N,07949.4522,W,1,10,1.6,19,M,,M,,*6E
06/25/2015	20:00:12.523	$GPGGA,200013,2549.3011,N,07949.4497,W,1,10,1.7,19,M,,M,,*6B
06/25/2015	20:00:13.523	$GPGGA,200014,2549.3011,N,07949.4497,W,1,9,1.7,19,M,,M,,*54
06/25/2015	20:00:14.503	$GPGGA,200015,2549.3050,N,07949.4472,W,1,9,1.6,19,M,,M,,*5A
06/25/2015	20:00:16.077	$GPGGA,200016,2549.3069,N,07949.4460,W,1,9,1.7,19,M,,M,,*51
06/25/2015	20:00:16.493	$GPGGA,200017,2549.3069,N,07949.4460,W,1,9,1.7,19,M,,M,,*50
06/25/2015	20:00:17.513	$GPGGA,200018,2549.3087,N,07949.4447,W,1,9,1.7,18,M,,M,,*5B
06/25/2015	20:00:18.503	$GPGGA,200019,2549.3123,N,07949.4420,W,1,9,1.7,18,M,,M,,*54
06/25/2015	20:00:19.536	$GPGGA,200020,2549.3123,N,07949.4420,W,1,9,1.7,18,M,,M,,*5E
06/25/2015	20:00:20.503	$GPGGA,200021,2549.3159,N,07949.4394,W,1,9,1.7,18,M,,M,,*5A
06/25/2015	20:00:21.548	$GPGGA,200022,2549.3176,N,07949.4381,W,1,9,1.7,18,M,,M,,*50
06/25/2015	20:00:22.603	$GPGGA,200023,2549.3194,N,07949.4368,W,1,9,1.7,18,M,,M,,*5A
06/25/2015	20:00:23.623	$GPGGA,200024,2549.3213,N,07949.4355,W,1,9,1.7,18,M,,M,,*5F
06/25/2015	20:00:24.493	$GPGGA,200025,2549.3231,N,07949.4342,W,1,9,1.7,18,M,,M,,*58
06/25/2015	20:00:25.613	$GPGGA,200026,2549.3248,N,07949.4330,W,1,9,1.7,18,M,,M,,*50
06/25/2015	20:00:26.493	$GPGGA,200027,2549.3248,N,07949.4330,W,1,9,2.1,19,M,,M,,*55
06/25/2015	20:00:27.562	$GPGGA,200028,2549.3284,N,07949.4306,W,1,8,2.1,19,M,,M,,*5E
06/25/2015	20:00:28.593	$GPGGA,200029,2549.3300,N,07949.4294,W,1,8,2.1,19,M,,M,,*58
06/25/2015	20:00:29.593	$GPGGA,200030,2549.3318,N,07949.4281,W,1,8,2.1,19,M,,M,,*5D
06/25/2015	20:00:30.563	$GPGGA,200031,2549.3336,N,07949.4269,W,1,8,1.7,19,M,,M,,*53
06/25/2015	20:00:31.504	$GPGGA,200032,2549.3336,N,07949.4269,W,1,9,1.7,19,M,,M,,*51
06/25/2015	20:00:32.483	$GPGGA,200033,2549.3372,N,07949.4245,W,1,9,2.1,19,M,,M,,*5B
06/25/2015	20:00:33.563	$GPGGA,200034,2549.3390,N,07949.4232,W,1,9,1.7,19,M,,M,,*55
06/25/2015	20:00:34.553	$GPGGA,200035,2549.3408,N,07949.4219,W,1,9,1.7,19,M,,M,,*5B
06/25/2015	20:00:35.573	$GPGGA,200036,2549.3423,N,07949.4207,W,1,8,2.1,19,M,,M,,*5A
06/25/2015	20:00:36.563	$GPGGA,200037,2549.3441,N,07949.4195,W,1,8,1.6,20,M,,M,,*59
06/25/2015	20:00:37.593	$GPGGA,200038,2549.3459,N,07949.4181,W,1,9,1.7,20,M,,M,,*5A
06/25/2015	20:00:38.553	$GPGGA,200039,2549.3477,N,07949.4168,W,1,9,1.7,20,M,,M,,*50
06/25/2015	20:00:39.583	$GPGGA,200040,2549.3495,N,07949.4156,W,1,9,1.7,20,M,,M,,*5F
06/25/2015	20:00:40.548	$GPGGA,200041,2549.3513,N,07949.4144,W,1,9,1.7,20,M,,M,,*52
06/25/2015	20:00:41.573	$GPGGA,200042,2549.3530,N,07949.4131,W,1,8,2.1,20,M,,M,,*56
06/25/2015	20:00:42.543	$GPGGA,200043,2549.3546,N,07949.4120,W,1,8,2.1,20,M,,M,,*56
06/25/2015	20:00:43.863	$GPGGA,200044,2549.3564,N,07949.4107,W,1,9,1.9,20,M,,M,,*5E
06/25/2015	20:00:44.543	$GPGGA,200045,2549.3582,N,07949.4095,W,1,9,2.1,20,M,,M,,*56
06/25/2015	20:00:45.533	$GPGGA,200046,2549.3600,N,07949.4083,W,1,8,2.1,20,M,,M,,*5A
06/25/2015	20:00:46.533	$GPGGA,200047,2549.3618,N,07949.4070,W,1,8,2.1,21,M,,M,,*5F
06/25/2015	20:00:47.603	$GPGGA,200048,2549.3635,N,07949.4057,W,1,8,2.1,21,M,,M,,*5A
06/25/2015	20:00:48.543	$GPGGA,200049,2549.3653,N,07949.4044,W,1,8,2.1,21,M,,M,,*59
06/25/2015	20:00:49.523	$GPGGA,200050,2549.3671,N,07949.4031,W,1,8,2.1,21,M,,M,,*53
06/25/2015	20:00:50.523	$GPGGA,200051,2549.3689,N,07949.4019,W,1,8,2.1,21,M,,M,,*5F
06/25/2015	20:00:51.545	$GPGGA,200052,2549.3705,N,07949.4009,W,1,9,1.7,21,M,,M,,*5C
06/25/2015	20:00:52.523	$GPGGA,200053,2549.3723,N,07949.3997,W,1,9,1.7,21,M,,M,,*50
06/25/2015	20:00:53.513	$GPGGA,200054,2549.3741,N,07949.3986,W,1,9,1.7,21,M,,M,,*53
06/25/2015	20:00:54.523	$GPGGA,200055,2549.3758,N,07949.3974,W,1,9,1.7,21,M,,M,,*57
06/25/2015	20:00:55.523	$GPGGA,200056,2549.3776,N,07949.3961,W,1,9,1.7,22,M,,M,,*5F
06/25/2015	20:00:56.534	$GPGGA,200057,2549.3794,N,07949.3949,W,1,9,1.7,22,M,,M,,*58
06/25/2015	20:00:57.503	$GPGGA,200058,2549.3812,N,07949.3937,W,1,9,1.7,22,M,,M,,*5F
06/25/2015	20:00:58.513	$GPGGA,200059,2549.3828,N,07949.3924,W,1,9,1.7,22,M,,M,,*55
06/25/2015	20:00:59.553	$GPGGA,200100,2549.3846,N,07949.3914,W,1,8,2.2,22,M,,M,,*54
06/25/2015	20:01:00.513	$GPGGA,200101,2549.3866,N,07949.3903,W,1,8,1.6,22,M,,M,,*56
06/25/2015	20:01:01.493	$GPGGA,200102,2549.3885,N,07949.3892,W,1,9,1.7,22,M,,M,,*51
06/25/2015	20:01:02.492	$GPGGA,200103,2549.3903,N,07949.3879,W,1,9,1.7,22,M,,M,,*5A
06/25/2015	20:01:03.523	$GPGGA,200104,2549.3921,N,07949.3867,W,1,9,1.7,22,M,,M,,*52
06/25/2015	20:01:04.503	$GPGGA,200105,2549.3940,N,07949.3855,W,1,9,1.7,23,M,,M,,*54
06/25/2015	20:01:05.483	$GPGGA,200106,2549.3958,N,07949.3842,W,1,9,1.7,23,M,,M,,*58
06/25/2015	20:01:06.503	$GPGGA,200107,2549.3976,N,07949.3829,W,1,9,2.1,23,M,,M,,*5D
06/25/2015	20:01:07.503	$GPGGA,200108,2549.3994,N,07949.3816,W,1,9,1.7,23,M,,M,,*57
06/25/2015	20:01:08.603	$GPGGA,200109,2549.4012,N,07949.3803,W,1,9,1.8,22,M,,M,,*5C
06/25/2015	20:01:09.493	$GPGGA,200110,2549.4032,N,07949.3789,W,1,8,1.8,22,M,,M,,*5A
06/25/2015	20:01:10.483	$GPGGA,200111,2549.4050,N,07949.3776,W,1,8,1.7,22,M,,M,,*50
06/25/2015	20:01:11.513	$GPGGA,200112,2549.4069,N,07949.3765,W,1,9,1.7,22,M,,M,,*5A
06/25/2015	20:01:12.473	$GPGGA,200113,2549.4091,N,07949.3751,W,1,9,1.7,22,M,,M,,*5B
06/25/2015	20:01:13.613	$GPGGA,200114,2549.4108,N,07949.3738,W,1,10,1.6,22,M,,M,,*6B
06/25/2015	20:01:14.473	$GPGGA,200115,2549.4127,N,07949.3726,W,1,10,1.7,22,M,,M,,*69
06/25/2015	20:01:15.593	$GPGGA,200116,2549.4146,N,07949.3714,W,1,9,1.7,22,M,,M,,*54
06/25/2015	20:01:16.473	$GPGGA,200117,2549.4164,N,07949.3702,W,1,9,2.9,22,M,,M,,*5F
06/25/2015	20:01:17.583	$GPGGA,200118,2549.4182,N,07949.3689,W,1,9,1.7,22,M,,M,,*57
06/25/2015	20:01:18.573	$GPGGA,200119,2549.4200,N,07949.3677,W,1,9,1.7,22,M,,M,,*5E
06/25/2015	20:01:19.583	$GPGGA,200120,2549.4218,N,07949.3664,W,1,9,1.7,21,M,,M,,*5C
06/25/2015	20:01:20.473	$GPGGA,200121,2549.4236,N,07949.3651,W,1,9,1.7,21,M,,M,,*57
06/25/2015	20:01:21.553	$GPGGA,200122,2549.4254,N,07949.3638,W,1,9,1.7,21,M,,M,,*5F
06/25/2015	20:01:22.553	$GPGGA,200123,2549.4272,N,07949.3626,W,1,9,1.7,21,M,,M,,*55
06/25/2015	20:01:23.573	$GPGGA,200124,2549.4290,N,07949.3614,W,1,9,1.7,21,M,,M,,*5F
06/25/2015	20:01:24.553	$GPGGA,200125,2549.4310,N,07949.3600,W,1,9,1.7,21,M,,M,,*52
06/25/2015	20:01:25.573	$GPGGA,200126,2549.4328,N,07949.3588,W,1,10,1.6,21,M,,M,,*60
06/25/2015	20:01:26.553	$GPGGA,200127,2549.4346,N,07949.3575,W,1,10,1.7,21,M,,M,,*6A
06/25/2015	20:01:27.573	$GPGGA,200128,2549.4365,N,07949.3562,W,1,8,2.1,21,M,,M,,*5E
06/25/2015	20:01:28.543	$GPGGA,200129,2549.4384,N,07949.3552,W,1,8,2.1,21,M,,M,,*53
06/25/2015	20:01:29.543	$GPGGA,200130,2549.4402,N,07949.3539,W,1,10,1.6,21,M,,M,,*62
06/25/2015	20:01:30.543	$GPGGA,200131,2549.4420,N,07949.3527,W,1,10,1.7,21,M,,M,,*6D
06/25/2015	20:01:31.583	$GPGGA,200132,2549.4441,N,07949.3515,W,1,9,1.7,21,M,,M,,*50
06/25/2015	20:01:32.553	$GPGGA,200133,2549.4460,N,07949.3503,W,1,9,1.7,21,M,,M,,*55
06/25/2015	20:01:33.543	$GPGGA,200134,2549.4477,N,07949.3490,W,1,9,1.7,21,M,,M,,*5F
06/25/2015	20:01:34.535	$GPGGA,200135,2549.4496,N,07949.3478,W,1,9,1.7,21,M,,M,,*57
06/25/2015	20:01:35.573	$GPGGA,200136,2549.4514,N,07949.3465,W,1,9,1.7,21,M,,M,,*53
06/25/2015	20:01:36.523	$GPGGA,200137,2549.4532,N,07949.3452,W,1,9,2.1,21,M,,M,,*57
06/25/2015	20:01:37.543	$GPGGA,200138,2549.4550,N,07949.3440,W,1,9,1.7,21,M,,M,,*5A
06/25/2015	20:01:38.523	$GPGGA,200139,2549.4570,N,07949.3428,W,1,9,1.7,21,M,,M,,*57
06/25/2015	20:01:39.563	$GPGGA,200140,2549.4589,N,07949.3416,W,1,8,1.8,21,M,,M,,*5C
06/25/2015	20:01:40.523	$GPGGA,200141,2549.4607,N,07949.3403,W,1,8,1.7,21,M,,M,,*53
06/25/2015	20:01:41.513	$GPGGA,200142,2549.4625,N,07949.3390,W,1,9,1.7,21,M,,M,,*5C
06/25/2015	20:01:42.523	$GPGGA,200143,2549.4644,N,07949.3378,W,1,9,1.7,21,M,,M,,*5C
06/25/2015	20:01:43.533	$GPGGA,200144,2549.4662,N,07949.3366,W,1,10,1.6,21,M,,M,,*69
06/25/2015	20:01:44.523	$GPGGA,200145,2549.4680,N,07949.3353,W,1,10,1.7,21,M,,M,,*63
06/25/2015	20:01:45.503	$GPGGA,200146,2549.4695,N,07949.3341,W,1,9,1.7,21,M,,M,,*5F
06/25/2015	20:01:46.513	$GPGGA,200147,2549.4711,N,07949.3327,W,1,9,2.1,21,M,,M,,*56
06/25/2015	20:01:47.514	$GPGGA,200148,2549.4729,N,07949.3314,W,1,10,1.6,21,M,,M,,*6E
06/25/2015	20:01:48.513	$GPGGA,200149,2549.4745,N,07949.3304,W,1,10,1.7,21,M,,M,,*65
06/25/2015	20:01:49.504	$GPGGA,200150,2549.4764,N,07949.3292,W,1,10,1.6,21,M,,M,,*61
06/25/2015	20:01:50.513	$GPGGA,200151,2549.4782,N,07949.3279,W,1,10,1.7,22,M,,M,,*6F
06/25/2015	20:01:51.513	$GPGGA,200152,2549.4799,N,07949.3266,W,1,9,1.7,22,M,,M,,*50
06/25/2015	20:01:52.503	$GPGGA,200153,2549.4818,N,07949.3253,W,1,9,1.7,22,M,,M,,*51
06/25/2015	20:01:53.503	$GPGGA,200154,2549.4838,N,07949.3239,W,1,8,2.1,22,M,,M,,*5C
06/25/2015	20:01:54.583	$GPGGA,200155,2549.4856,N,07949.3226,W,1,8,2.1,22,M,,M,,*5B
06/25/2015	20:01:55.513	$GPGGA,200156,2549.4875,N,07949.3213,W,1,8,2.1,22,M,,M,,*5F
06/25/2015	20:01:56.473	$GPGGA,200157,2549.4893,N,07949.3201,W,1,8,2.1,22,M,,M,,*55
06/25/2015	20:01:57.573	$GPGGA,200158,2549.4911,N,07949.3188,W,1,8,2.1,22,M,,M,,*53
06/25/2015	20:01:58.493	$GPGGA,200159,2549.4930,N,07949.3175,W,1,8,2.1,22,M,,M,,*53
06/25/2015	20:01:59.514	$GPGGA,200200,2549.4948,N,07949.3162,W,1,8,2.1,22,M,,M,,*55
06/25/2015	20:02:00.473	$GPGGA,200201,2549.4966,N,07949.3150,W,1,8,1.7,22,M,,M,,*5C
06/25/2015	20:02:01.573	$GPGGA,200202,2549.4984,N,07949.3138,W,1,9,1.7,22,M,,M,,*5C
06/25/2015	20:02:02.483	$GPGGA,200203,2549.5002,N,07949.3124,W,1,9,1.7,22,M,,M,,*56
06/25/2015	20:02:03.573	$GPGGA,200204,2549.5020,N,07949.3111,W,1,9,2.1,22,M,,M,,*52
06/25/2015	20:02:04.473	$GPGGA,200205,2549.5038,N,07949.3098,W,1,9,2.1,22,M,,M,,*5A
06/25/2015	20:02:05.573	$GPGGA,200206,2549.5056,N,07949.3085,W,1,8,2.2,21,M,,M,,*5C
06/25/2015	20:02:06.563	$GPGGA,200207,2549.5071,N,07949.3072,W,1,8,1.7,21,M,,M,,*56
06/25/2015	20:02:07.583	$GPGGA,200208,2549.5089,N,07949.3059,W,1,10,1.6,21,M,,M,,*6F
06/25/2015	20:02:08.563	$GPGGA,200209,2549.5107,N,07949.3046,W,1,10,2.2,21,M,,M,,*60
06/25/2015	20:02:09.563	$GPGGA,200210,2549.5123,N,07949.3033,W,1,8,2.2,21,M,,M,,*55
06/25/2015	20:02:10.573	$GPGGA,200211,2549.5142,N,07949.3021,W,1,8,2.1,21,M,,M,,*53
06/25/2015	20:02:11.583	$GPGGA,200212,2549.5161,N,07949.3008,W,1,10,1.6,21,M,,M,,*67
06/25/2015	20:02:12.562	$GPGGA,200213,2549.5177,N,07949.2994,W,1,10,2.1,21,M,,M,,*68
06/25/2015	20:02:13.553	$GPGGA,200214,2549.5193,N,07949.2981,W,1,8,2.1,21,M,,M,,*58
06/25/2015	20:02:14.553	$GPGGA,200215,2549.5214,N,07949.2968,W,1,8,1.6,21,M,,M,,*56
06/25/2015	20:02:15.573	$GPGGA,200216,2549.5233,N,07949.2956,W,1,9,1.7,21,M,,M,,*5D
06/25/2015	20:02:16.543	$GPGGA,200217,2549.5251,N,07949.2942,W,1,9,2.1,21,M,,M,,*58
06/25/2015	20:02:17.563	$GPGGA,200218,2549.5269,N,07949.2930,W,1,9,1.9,21,M,,M,,*52
06/25/2015	20:02:18.533	$GPGGA,200219,2549.5287,N,07949.2917,W,1,9,1.7,21,M,,M,,*58
06/25/2015	20:02:19.563	$GPGGA,200220,2549.5304,N,07949.2905,W,1,7,2.9,21,M,,M,,*58
06/25/2015	20:02:20.541	$GPGGA,200221,2549.5320,N,07949.2891,W,1,7,2.4,21,M,,M,,*5E
06/25/2015	20:02:21.523	$GPGGA,200222,2549.5338,N,07949.2878,W,1,8,2.1,21,M,,M,,*59
06/25/2015	20:02:22.533	$GPGGA,200223,2549.5354,N,07949.2866,W,1,8,2.1,21,M,,M,,*5D
06/25/2015	20:02:23.553	$GPGGA,200224,2549.5372,N,07949.2853,W,1,9,1.9,21,M,,M,,*52
06/25/2015	20:02:24.533	$GPGGA,200225,2549.5388,N,07949.2842,W,1,9,1.6,21,M,,M,,*59
06/25/2015	20:02:25.553	$GPGGA,200226,2549.5407,N,07949.2831,W,1,10,1.6,21,M,,M,,*66
06/25/2015	20:02:26.523	$GPGGA,200227,2549.5424,N,07949.2819,W,1,10,1.6,22,M,,M,,*6F
06/25/2015	20:02:27.563	$GPGGA,200228,2549.5442,N,07949.2807,W,1,10,1.6,22,M,,M,,*6F
06/25/2015	20:02:28.513	$GPGGA,200229,2549.5461,N,07949.2795,W,1,10,1.6,22,M,,M,,*6B
06/25/2015	20:02:29.523	$GPGGA,200230,2549.5481,N,07949.2784,W,1,10,1.6,22,M,,M,,*6D
06/25/2015	20:02:30.503	$GPGGA,200231,2549.5497,N,07949.2771,W,1,10,1.7,22,M,,M,,*60
06/25/2015	20:02:31.513	$GPGGA,200232,2549.5517,N,07949.2758,W,1,8,2.2,22,M,,M,,*5E
06/25/2015	20:02:32.523	$GPGGA,200233,2549.5536,N,07949.2747,W,1,8,1.7,22,M,,M,,*54
06/25/2015	20:02:33.503	$GPGGA,200234,2549.5555,N,07949.2736,W,1,9,1.7,22,M,,M,,*51
06/25/2015	20:02:34.503	$GPGGA,200235,2549.5575,N,07949.2724,W,1,9,1.7,22,M,,M,,*51
06/25/2015	20:02:35.503	$GPGGA,200236,2549.5593,N,07949.2711,W,1,9,1.7,22,M,,M,,*5C
06/25/2015	20:02:36.613	$GPGGA,200237,2549.5612,N,07949.2699,W,1,9,1.7,22,M,,M,,*56
06/25/2015	20:02:37.493	$GPGGA,200238,2549.5630,N,07949.2687,W,1,9,1.7,22,M,,M,,*56
06/25/2015	20:02:38.614	$GPGGA,200239,2549.5648,N,07949.2675,W,1,9,1.7,22,M,,M,,*55
06/25/2015	20:02:39.623	$GPGGA,200240,2549.5667,N,07949.2663,W,1,9,1.7,22,M,,M,,*51
06/25/2015	20:02:40.583	$GPGGA,200241,2549.5687,N,07949.2651,W,1,9,1.7,22,M,,M,,*5F
06/25/2015	20:02:41.513	$GPGGA,200242,2549.5706,N,07949.2638,W,1,9,1.7,22,M,,M,,*5B
06/25/2015	20:02:42.473	$GPGGA,200243,2549.5724,N,07949.2626,W,1,9,1.7,22,M,,M,,*55
06/25/2015	20:02:43.583	$GPGGA,200244,2549.5741,N,07949.2614,W,1,9,1.7,22,M,,M,,*50
06/25/2015	20:02:44.993	$GPGGA,200245,2549.5760,N,07949.2602,W,1,9,1.6,22,M,,M,,*54
06/25/2015	20:02:45.573	$GPGGA,200246,2549.5779,N,07949.2590,W,1,9,1.7,22,M,,M,,*56
06/25/2015	20:02:46.493	$GPGGA,200247,2549.5799,N,07949.2578,W,1,9,1.7,22,M,,M,,*5F
06/25/2015	20:02:47.592	$GPGGA,200248,2549.5818,N,07949.2565,W,1,9,1.7,22,M,,M,,*5A
06/25/2015	20:02:48.483	$GPGGA,200249,2549.5836,N,07949.2553,W,1,9,1.7,22,M,,M,,*52
06/25/2015	20:02:49.594	$GPGGA,200250,2549.5855,N,07949.2541,W,1,9,1.7,22,M,,M,,*5C
06/25/2015	20:02:50.583	$GPGGA,200251,2549.5873,N,07949.2529,W,1,9,2.1,22,M,,M,,*52
06/25/2015	20:02:51.583	$GPGGA,200252,2549.5893,N,07949.2518,W,1,9,1.7,22,M,,M,,*58
06/25/2015	20:02:52.553	$GPGGA,200253,2549.5912,N,07949.2505,W,1,9,1.7,22,M,,M,,*5D
06/25/2015	20:02:53.583	$GPGGA,200254,2549.5930,N,07949.2494,W,1,9,1.7,22,M,,M,,*53
06/25/2015	20:02:54.553	$GPGGA,200255,2549.5948,N,07949.2482,W,1,9,1.7,22,M,,M,,*5A
06/25/2015	20:02:55.613	$GPGGA,200256,2549.5966,N,07949.2470,W,1,9,1.7,22,M,,M,,*58
06/25/2015	20:02:56.545	$GPGGA,200257,2549.5984,N,07949.2457,W,1,9,1.7,22,M,,M,,*50
06/25/2015	20:02:57.573	$GPGGA,200258,2549.6003,N,07949.2445,W,1,8,2.2,22,M,,M,,*5E
06/25/2015	20:02:58.553	$GPGGA,200259,2549.6021,N,07949.2432,W,1,8,2.2,22,M,,M,,*5F
06/25/2015	20:02:59.613	$GPGGA,200300,2549.6041,N,07949.2421,W,1,8,2.2,22,M,,M,,*56
06/25/2015	20:03:00.533	$GPGGA,200301,2549.6057,N,07949.2409,W,1,8,1.7,22,M,,M,,*5C
06/25/2015	20:03:01.563	$GPGGA,200302,2549.6075,N,07949.2396,W,1,10,1.6,22,M,,M,,*66
06/25/2015	20:03:02.544	$GPGGA,200303,2549.6093,N,07949.2385,W,1,10,1.6,22,M,,M,,*6D
06/25/2015	20:03:03.573	$GPGGA,200304,2549.6111,N,07949.2372,W,1,9,1.7,22,M,,M,,*50
06/25/2015	20:03:04.537	$GPGGA,200305,2549.6126,N,07949.2360,W,1,9,1.6,22,M,,M,,*57
06/25/2015	20:03:05.540	$GPGGA,200306,2549.6144,N,07949.2349,W,1,9,1.9,22,M,,M,,*54
06/25/2015	20:03:06.539	$GPGGA,200307,2549.6164,N,07949.2336,W,1,9,1.6,22,M,,M,,*50
06/25/2015	20:03:08.563	$GPGGA,200309,2549.6201,N,07949.2309,W,1,10,1.9,22,M,,M,,*65
06/25/2015	20:03:09.523	$GPGGA,200310,2549.6219,N,07949.2297,W,1,8,2.1,22,M,,M,,*50
06/25/2015	20:03:10.523	$GPGGA,200311,2549.6236,N,07949.2285,W,1,8,1.9,22,M,,M,,*54
06/25/2015	20:03:11.523	$GPGGA,200312,2549.6255,N,07949.2272,W,1,9,1.9,22,M,,M,,*5B
06/25/2015	20:03:12.513	$GPGGA,200313,2549.6273,N,07949.2260,W,1,9,2.1,22,M,,M,,*56
06/25/2015	20:03:13.503	$GPGGA,200314,2549.6292,N,07949.2247,W,1,9,1.9,22,M,,M,,*50
06/25/2015	20:03:14.513	$GPGGA,200315,2549.6310,N,07949.2233,W,1,9,2.1,22,M,,M,,*52
06/25/2015	20:03:15.513	$GPGGA,200316,2549.6331,N,07949.2221,W,1,8,2.1,22,M,,M,,*50
06/25/2015	20:03:16.523	$GPGGA,200317,2549.6348,N,07949.2208,W,1,8,2.1,22,M,,M,,*54
06/25/2015	20:03:17.513	$GPGGA,200318,2549.6366,N,07949.2197,W,1,9,1.9,22,M,,M,,*58
06/25/2015	20:03:18.513	$GPGGA,200319,2549.6381,N,07949.2188,W,1,9,1.7,22,M,,M,,*50
06/25/2015	20:03:19.663	$GPGGA,200320,2549.6398,N,07949.2175,W,1,9,1.6,22,M,,M,,*51
06/25/2015	20:03:20.513	$GPGGA,200321,2549.6415,N,07949.2163,W,1,9,1.6,22,M,,M,,*55
06/25/2015	20:03:21.544	$GPGGA,200322,2549.6431,N,07949.2152,W,1,9,1.7,22,M,,M,,*53
06/25/2015	20:03:22.513	$GPGGA,200323,2549.6450,N,07949.2139,W,1,9,1.9,22,M,,M,,*56
06/25/2015	20:03:23.553	$GPGGA,200324,2549.6469,N,07949.2125,W,1,9,1.7,23,M,,M,,*59
06/25/2015	20:03:24.523	$GPGGA,200325,2549.6487,N,07949.2112,W,1,9,2.2,23,M,,M,,*5A
06/25/2015	20:03:25.623	$GPGGA,200326,2549.6505,N,07949.2098,W,1,9,2.1,23,M,,M,,*52
06/25/2015	20:03:26.503	$GPGGA,200327,2549.6523,N,07949.2085,W,1,9,2.1,23,M,,M,,*5B
06/25/2015	20:03:27.653	$GPGGA,200328,2549.6543,N,07949.2073,W,1,10,2.1,23,M,,M,,*63
06/25/2015	20:03:28.504	$GPGGA,200329,2549.6562,N,07949.2060,W,1,10,2.1,23,M,,M,,*63
06/25/2015	20:03:29.503	$GPGGA,200330,2549.6580,N,07949.2047,W,1,9,2.1,23,M,,M,,*5A
06/25/2015	20:03:30.573	$GPGGA,200331,2549.6598,N,07949.2034,W,1,9,2.1,23,M,,M,,*56
06/25/2015	20:03:31.493	$GPGGA,200332,2549.6616,N,07949.2021,W,1,9,2.1,23,M,,M,,*54
06/25/2015	20:03:32.573	$GPGGA,200333,2549.6634,N,07949.2008,W,1,9,2.1,23,M,,M,,*5E
06/25/2015	20:03:33.593	$GPGGA,200334,2549.6653,N,07949.1995,W,1,9,2.1,23,M,,M,,*56
06/25/2015	20:03:34.463	$GPGGA,200335,2549.6670,N,07949.1982,W,1,9,2.1,23,M,,M,,*50
06/25/2015	20:03:35.613	$GPGGA,200336,2549.6688,N,07949.1969,W,1,8,2.2,23,M,,M,,*53
06/25/2015	20:03:36.563	$GPGGA,200337,2549.6706,N,07949.1956,W,1,8,2.2,23,M,,M,,*59
06/25/2015	20:03:37.583	$GPGGA,200338,2549.6721,N,07949.1944,W,1,8,2.1,23,M,,M,,*53
06/25/2015	20:03:38.563	$GPGGA,200339,2549.6740,N,07949.1931,W,1,8,2.1,23,M,,M,,*57
06/25/2015	20:03:39.583	$GPGGA,200340,2549.6758,N,07949.1919,W,1,9,2.1,22,M,,M,,*5A
06/25/2015	20:03:40.553	$GPGGA,200341,2549.6778,N,07949.1909,W,1,9,1.6,22,M,,M,,*5C
06/25/2015	20:03:41.593	$GPGGA,200342,2549.6796,N,07949.1895,W,1,10,2.2,22,M,,M,,*64
06/25/2015	20:03:42.553	$GPGGA,200343,2549.6812,N,07949.1882,W,1,10,1.7,22,M,,M,,*66
06/25/2015	20:03:43.583	$GPGGA,200344,2549.6832,N,07949.1869,W,1,9,1.6,22,M,,M,,*5F
06/25/2015	20:03:44.553	$GPGGA,200345,2549.6848,N,07949.1856,W,1,9,1.6,22,M,,M,,*5F
06/25/2015	20:03:45.563	$GPGGA,200346,2549.6866,N,07949.1844,W,1,10,1.6,22,M,,M,,*6B
06/25/2015	20:03:46.553	$GPGGA,200347,2549.6884,N,07949.1830,W,1,10,1.9,22,M,,M,,*6A
06/25/2015	20:03:47.573	$GPGGA,200348,2549.6902,N,07949.1818,W,1,9,1.9,22,M,,M,,*58
06/25/2015	20:03:48.543	$GPGGA,200349,2549.6920,N,07949.1806,W,1,9,1.9,22,M,,M,,*56
06/25/2015	20:03:49.563	$GPGGA,200350,2549.6938,N,07949.1794,W,1,9,1.9,22,M,,M,,*53
06/25/2015	20:03:50.543	$GPGGA,200351,2549.6956,N,07949.1782,W,1,9,1.9,22,M,,M,,*5D
06/25/2015	20:03:51.593	$GPGGA,200352,2549.6974,N,07949.1769,W,1,9,1.9,22,M,,M,,*5B
06/25/2015	20:03:52.523	$GPGGA,200353,2549.6992,N,07949.1757,W,1,9,1.9,21,M,,M,,*5C
06/25/2015	20:03:53.563	$GPGGA,200354,2549.7010,N,07949.1745,W,1,9,1.7,21,M,,M,,*54
06/25/2015	20:03:54.535	$GPGGA,200355,2549.7029,N,07949.1733,W,1,9,1.6,21,M,,M,,*5F
06/25/2015	20:03:55.535	$GPGGA,200356,2549.7047,N,07949.1721,W,1,10,1.6,21,M,,M,,*6F
06/25/2015	20:03:56.543	$GPGGA,200357,2549.7065,N,07949.1709,W,1,10,1.6,21,M,,M,,*64
06/25/2015	20:03:58.088	$GPGGA,200358,2549.7083,N,07949.1697,W,1,10,1.7,21,M,,M,,*64
06/25/2015	20:03:58.523	$GPGGA,200359,2549.7101,N,07949.1685,W,1,10,2.2,21,M,,M,,*6B
06/25/2015	20:03:59.613	$GPGGA,200400,2549.7119,N,07949.1672,W,1,8,2.2,21,M,,M,,*58
06/25/2015	20:04:00.523	$GPGGA,200401,2549.7139,N,07949.1660,W,1,8,2.2,21,M,,M,,*58
06/25/2015	20:04:01.535	$GPGGA,200402,2549.7158,N,07949.1648,W,1,8,1.7,21,M,,M,,*50
06/25/2015	20:04:02.514	$GPGGA,200403,2549.7177,N,07949.1636,W,1,8,1.7,21,M,,M,,*55
06/25/2015	20:04:03.563	$GPGGA,200404,2549.7195,N,07949.1624,W,1,9,1.7,21,M,,M,,*5C
06/25/2015	20:04:04.534	$GPGGA,200405,2549.7213,N,07949.1610,W,1,9,1.7,21,M,,M,,*57
06/25/2015	20:04:05.537	$GPGGA,200406,2549.7231,N,07949.1598,W,1,9,1.7,21,M,,M,,*57
06/25/2015	20:04:06.623	$GPGGA,200407,2549.7249,N,07949.1585,W,1,9,1.7,21,M,,M,,*55
06/25/2015	20:04:07.553	$GPGGA,200408,2549.7269,N,07949.1572,W,1,9,1.7,21,M,,M,,*50
06/25/2015	20:04:08.523	$GPGGA,200409,2549.7288,N,07949.1557,W,1,9,1.6,21,M,,M,,*58
06/25/2015	20:04:09.493	$GPGGA,200410,2549.7307,N,07949.1544,W,1,10,1.6,21,M,,M,,*6C
06/25/2015	20:04:10.513	$GPGGA,200411,2549.7325,N,07949.1532,W,1,10,1.7,21,M,,M,,*6D
06/25/2015	20:04:11.533	$GPGGA,200412,2549.7343,N,07949.1519,W,1,9,2.1,21,M,,M,,*5A
06/25/2015	20:04:12.513	$GPGGA,200413,2549.7363,N,07949.1506,W,1,9,1.7,21,M,,M,,*52
06/25/2015	20:04:13.593	$GPGGA,200414,2549.7382,N,07949.1493,W,1,9,1.7,21,M,,M,,*57
06/25/2015	20:04:14.593	$GPGGA,200415,2549.7400,N,07949.1482,W,1,9,1.6,21,M,,M,,*5A
06/25/2015	20:04:15.593	$GPGGA,200416,2549.7419,N,07949.1470,W,1,10,1.9,21,M,,M,,*6B
06/25/2015	20:04:16.513	$GPGGA,200417,2549.7437,N,07949.1458,W,1,10,1.7,21,M,,M,,*62
06/25/2015	20:04:17.583	$GPGGA,200418,2549.7455,N,07949.1447,W,1,9,1.6,21,M,,M,,*5E
06/25/2015	20:04:18.483	$GPGGA,200419,2549.7475,N,07949.1434,W,1,9,2.1,21,M,,M,,*5D
06/25/2015	20:04:19.534	$GPGGA,200420,2549.7493,N,07949.1423,W,1,8,1.6,21,M,,M,,*5C
06/25/2015	20:04:20.573	$GPGGA,200421,2549.7512,N,07949.1412,W,1,8,1.7,21,M,,M,,*56
06/25/2015	20:04:21.593	$GPGGA,200422,2549.7530,N,07949.1401,W,1,9,1.7,21,M,,M,,*56
06/25/2015	20:04:22.563	$GPGGA,200423,2549.7549,N,07949.1390,W,1,9,1.7,21,M,,M,,*56
06/25/2015	20:04:23.604	$GPGGA,200424,2549.7567,N,07949.1378,W,1,9,1.7,21,M,,M,,*5B
06/25/2015	20:04:24.573	$GPGGA,200425,2549.7585,N,07949.1366,W,1,9,1.7,21,M,,M,,*59
06/25/2015	20:04:25.563	$GPGGA,200426,2549.7605,N,07949.1355,W,1,9,1.7,21,M,,M,,*51
06/25/2015	20:04:26.558	$GPGGA,200427,2549.7623,N,07949.1343,W,1,9,1.7,21,M,,M,,*53
06/25/2015	20:04:27.563	$GPGGA,200428,2549.7642,N,07949.1332,W,1,9,1.7,21,M,,M,,*5D
06/25/2015	20:04:28.553	$GPGGA,200429,2549.7661,N,07949.1321,W,1,9,1.7,21,M,,M,,*5F
06/25/2015	20:04:29.553	$GPGGA,200430,2549.7679,N,07949.1309,W,1,8,1.8,21,M,,M,,*5A
06/25/2015	20:04:30.554	$GPGGA,200431,2549.7699,N,07949.1296,W,1,8,1.8,21,M,,M,,*52
06/25/2015	20:04:31.573	$GPGGA,200432,2549.7719,N,07949.1283,W,1,8,2.3,21,M,,M,,*54
06/25/2015	20:04:32.550	$GPGGA,200433,2549.7737,N,07949.1272,W,1,8,1.7,22,M,,M,,*53
06/25/2015	20:04:33.563	$GPGGA,200434,2549.7755,N,07949.1260,W,1,9,1.6,22,M,,M,,*53
06/25/2015	20:04:34.549	$GPGGA,200435,2549.7775,N,07949.1248,W,1,9,1.6,22,M,,M,,*5A
06/25/2015	20:04:35.593	$GPGGA,200436,2549.7794,N,07949.1235,W,1,9,1.9,22,M,,M,,*53
06/25/2015	20:04:36.548	$GPGGA,200437,2549.7811,N,07949.1222,W,1,9,1.6,22,M,,M,,*59
06/25/2015	20:04:37.536	$GPGGA,200438,2549.7830,N,07949.1209,W,1,9,1.9,22,M,,M,,*53
06/25/2015	20:04:38.549	$GPGGA,200439,2549.7848,N,07949.1197,W,1,9,1.6,22,M,,M,,*56
06/25/2015	20:04:39.573	$GPGGA,200440,2549.7866,N,07949.1184,W,1,9,1.9,22,M,,M,,*59
06/25/2015	20:04:43.213	$GPGGA,200441,2549.7866,N,07949.1184,W,1,9,1.9,22,M,,M,,*58
06/25/2015	20:04:43.563	$GPGGA,200444,2549.7938,N,07949.1132,W,1,9,2.1,23,M,,M,,*50
06/25/2015	20:04:44.513	$GPGGA,200445,2549.7954,N,07949.1119,W,1,9,2.1,23,M,,M,,*52
06/25/2015	20:04:45.523	$GPGGA,200446,2549.7971,N,07949.1104,W,1,9,2.1,23,M,,M,,*5A
06/25/2015	20:04:46.523	$GPGGA,200447,2549.7990,N,07949.1090,W,1,9,1.6,23,M,,M,,*5C
06/25/2015	20:04:47.553	$GPGGA,200448,2549.8008,N,07949.1077,W,1,10,1.6,23,M,,M,,*65
06/25/2015	20:04:48.523	$GPGGA,200449,2549.8026,N,07949.1064,W,1,10,1.9,24,M,,M,,*62
06/25/2015	20:04:49.523	$GPGGA,200450,2549.8044,N,07949.1052,W,1,8,2.5,24,M,,M,,*5D
06/25/2015	20:04:50.513	$GPGGA,200451,2549.8062,N,07949.1038,W,1,8,2.5,24,M,,M,,*54
06/25/2015	20:04:51.553	$GPGGA,200452,2549.8080,N,07949.1026,W,1,8,2.5,24,M,,M,,*54
06/25/2015	20:04:52.604	$GPGGA,200453,2549.8097,N,07949.1014,W,1,8,2.5,24,M,,M,,*52
06/25/2015	20:04:53.513	$GPGGA,200454,2549.8115,N,07949.1001,W,1,9,2.1,24,M,,M,,*5F
06/25/2015	20:04:54.493	$GPGGA,200455,2549.8133,N,07949.0988,W,1,9,2.1,24,M,,M,,*53
06/25/2015	20:04:55.534	$GPGGA,200456,2549.8151,N,07949.0975,W,1,9,2.1,24,M,,M,,*56
06/25/2015	20:04:56.493	$GPGGA,200457,2549.8169,N,07949.0963,W,1,9,2.1,24,M,,M,,*5B
06/25/2015	20:04:57.504	$GPGGA,200458,2549.8188,N,07949.0950,W,1,9,2.1,25,M,,M,,*5A
06/25/2015	20:04:58.513	$GPGGA,200459,2549.8205,N,07949.0937,W,1,9,2.1,25,M,,M,,*5C
06/25/2015	20:04:59.603	$GPGGA,200500,2549.8223,N,07949.0925,W,1,9,2.1,25,M,,M,,*56
06/25/2015	20:05:00.473	$GPGGA,200501,2549.8241,N,07949.0912,W,1,9,2.1,25,M,,M,,*57
06/25/2015	20:05:01.473	$GPGGA,200502,2549.8259,N,07949.0900,W,1,8,2.5,25,M,,M,,*5B
06/25/2015	20:05:02.583	$GPGGA,200503,2549.8275,N,07949.0887,W,1,8,2.1,25,M,,M,,*5E
06/25/2015	20:05:03.593	$GPGGA,200504,2549.8295,N,07949.0875,W,1,9,2.1,25,M,,M,,*5B
06/25/2015	20:05:04.493	$GPGGA,200505,2549.8313,N,07949.0862,W,1,9,2.1,25,M,,M,,*53
06/25/2015	20:05:05.583	$GPGGA,200506,2549.8331,N,07949.0849,W,1,8,2.5,25,M,,M,,*5C
06/25/2015	20:05:06.483	$GPGGA,200507,2549.8347,N,07949.0837,W,1,8,2.5,25,M,,M,,*55
06/25/2015	20:05:07.592	$GPGGA,200508,2549.8365,N,07949.0824,W,1,8,2.5,25,M,,M,,*58
06/25/2015	20:05:08.563	$GPGGA,200509,2549.8385,N,07949.0812,W,1,8,2.5,25,M,,M,,*52
06/25/2015	20:05:09.593	$GPGGA,200510,2549.8401,N,07949.0800,W,1,8,2.5,25,M,,M,,*52
06/25/2015	20:05:10.563	$GPGGA,200511,2549.8419,N,07949.0789,W,1,8,1.6,25,M,,M,,*54
06/25/2015	20:05:11.604	$GPGGA,200512,2549.8436,N,07949.0775,W,1,10,1.6,25,M,,M,,*60
06/25/2015	20:05:12.563	$GPGGA,200513,2549.8452,N,07949.0761,W,1,10,1.6,25,M,,M,,*66
06/25/2015	20:05:13.573	$GPGGA,200514,2549.8470,N,07949.0749,W,1,10,1.6,25,M,,M,,*6B
06/25/2015	20:05:14.563	$GPGGA,200515,2549.8488,N,07949.0736,W,1,10,2.1,25,M,,M,,*61
06/25/2015	20:05:15.603	$GPGGA,200516,2549.8506,N,07949.0724,W,1,9,2.1,25,M,,M,,*5E
06/25/2015	20:05:16.544	$GPGGA,200517,2549.8524,N,07949.0712,W,1,9,2.1,25,M,,M,,*5A
06/25/2015	20:05:17.563	$GPGGA,200518,2549.8542,N,07949.0700,W,1,9,2.1,25,M,,M,,*56
06/25/2015	20:05:18.563	$GPGGA,200519,2549.8560,N,07949.0686,W,1,9,2.1,25,M,,M,,*58
06/25/2015	20:05:19.544	$GPGGA,200520,2549.8578,N,07949.0674,W,1,10,1.6,25,M,,M,,*6A
06/25/2015	20:05:20.544	$GPGGA,200521,2549.8596,N,07949.0660,W,1,10,1.9,25,M,,M,,*61
06/25/2015	20:05:21.563	$GPGGA,200522,2549.8615,N,07949.0648,W,1,9,1.9,25,M,,M,,*58
06/25/2015	20:05:22.536	$GPGGA,200523,2549.8633,N,07949.0638,W,1,9,1.9,25,M,,M,,*5A
06/25/2015	20:05:23.573	$GPGGA,200524,2549.8651,N,07949.0624,W,1,9,1.7,26,M,,M,,*59
06/25/2015	20:05:24.523	$GPGGA,200525,2549.8668,N,07949.0612,W,1,9,1.7,26,M,,M,,*57
06/25/2015	20:05:25.563	$GPGGA,200526,2549.8686,N,07949.0599,W,1,10,1.6,26,M,,M,,*6D
06/25/2015	20:05:26.523	$GPGGA,200527,2549.8705,N,07949.0587,W,1,10,1.6,26,M,,M,,*69
06/25/2015	20:05:27.573	$GPGGA,200528,2549.8723,N,07949.0575,W,1,9,1.7,26,M,,M,,*56
06/25/2015	20:05:28.523	$GPGGA,200529,2549.8743,N,07949.0563,W,1,9,2.3,26,M,,M,,*51
06/25/2015	20:05:29.543	$GPGGA,200530,2549.8763,N,07949.0554,W,1,9,1.7,26,M,,M,,*58
06/25/2015	20:05:30.513	$GPGGA,200531,2549.8781,N,07949.0544,W,1,9,1.6,26,M,,M,,*55
06/25/2015	20:05:32.563	$GPGGA,200533,2549.8820,N,07949.0521,W,1,10,1.6,26,M,,M,,*68
06/25/2015	20:05:33.513	$GPGGA,200534,2549.8839,N,07949.0510,W,1,9,1.7,25,M,,M,,*5F
06/25/2015	20:05:34.523	$GPGGA,200535,2549.8859,N,07949.0498,W,1,9,1.7,25,M,,M,,*59
06/25/2015	20:05:35.523	$GPGGA,200536,2549.8878,N,07949.0487,W,1,10,1.6,25,M,,M,,*6E
06/25/2015	20:05:36.513	$GPGGA,200537,2549.8896,N,07949.0475,W,1,10,1.6,25,M,,M,,*62
06/25/2015	20:05:37.503	$GPGGA,200538,2549.8914,N,07949.0463,W,1,10,1.6,25,M,,M,,*61
06/25/2015	20:05:38.637	$GPGGA,200539,2549.8933,N,07949.0451,W,1,10,1.6,24,M,,M,,*65
06/25/2015	20:05:39.543	$GPGGA,200540,2549.8953,N,07949.0438,W,1,9,1.7,24,M,,M,,*5B
06/25/2015	20:05:40.513	$GPGGA,200541,2549.8971,N,07949.0426,W,1,9,1.7,24,M,,M,,*55
06/25/2015	20:05:41.503	$GPGGA,200542,2549.8990,N,07949.0414,W,1,10,1.6,24,M,,M,,*61
06/25/2015	20:05:42.612	$GPGGA,200543,2549.9008,N,07949.0401,W,1,10,1.6,24,M,,M,,*6D
06/25/2015	20:05:43.513	$GPGGA,200544,2549.9027,N,07949.0389,W,1,10,1.6,24,M,,M,,*60
06/25/2015	20:05:44.503	$GPGGA,200545,2549.9045,N,07949.0376,W,1,10,1.6,24,M,,M,,*65
06/25/2015	20:05:45.593	$GPGGA,200546,2549.9065,N,07949.0364,W,1,9,1.7,23,M,,M,,*59
06/25/2015	20:05:46.493	$GPGGA,200547,2549.9083,N,07949.0352,W,1,9,1.7,23,M,,M,,*55
06/25/2015	20:05:47.583	$GPGGA,200548,2549.9102,N,07949.0340,W,1,8,2.3,23,M,,M,,*57
06/25/2015	20:05:48.573	$GPGGA,200549,2549.9120,N,07949.0327,W,1,8,1.7,23,M,,M,,*50
06/25/2015	20:05:49.583	$GPGGA,200550,2549.9138,N,07949.0314,W,1,9,1.7,23,M,,M,,*50
06/25/2015	20:05:50.573	$GPGGA,200551,2549.9156,N,07949.0301,W,1,9,1.7,23,M,,M,,*5D
06/25/2015	20:05:51.613	$GPGGA,200552,2549.9174,N,07949.0289,W,1,9,1.7,23,M,,M,,*5F
06/25/2015	20:05:52.503	$GPGGA,200553,2549.9193,N,07949.0277,W,1,9,1.7,23,M,,M,,*56
06/25/2015	20:05:53.483	$GPGGA,200554,2549.9211,N,07949.0263,W,1,8,1.7,23,M,,M,,*5C
06/25/2015	20:05:54.583	$GPGGA,200555,2549.9231,N,07949.0249,W,1,8,1.7,23,M,,M,,*57
06/25/2015	20:05:55.603	$GPGGA,200556,2549.9249,N,07949.0236,W,1,9,1.7,23,M,,M,,*52
06/25/2015	20:05:56.593	$GPGGA,200557,2549.9268,N,07949.0223,W,1,9,1.6,23,M,,M,,*55
06/25/2015	20:05:57.583	$GPGGA,200558,2549.9287,N,07949.0210,W,1,9,1.9,22,M,,M,,*55
06/25/2015	20:05:58.563	$GPGGA,200559,2549.9305,N,07949.0198,W,1,9,1.9,22,M,,M,,*5C
06/25/2015	20:05:59.592	$GPGGA,200600,2549.9323,N,07949.0185,W,1,10,1.6,22,M,,M,,*6C
06/25/2015	20:06:00.563	$GPGGA,200601,2549.9341,N,07949.0174,W,1,10,1.9,22,M,,M,,*68
06/25/2015	20:06:01.573	$GPGGA,200602,2549.9359,N,07949.0162,W,1,9,1.9,22,M,,M,,*5D
06/25/2015	20:06:02.545	$GPGGA,200603,2549.9377,N,07949.0149,W,1,9,1.9,22,M,,M,,*59
06/25/2015	20:06:03.583	$GPGGA,200604,2549.9395,N,07949.0137,W,1,10,1.6,22,M,,M,,*6C
06/25/2015	20:06:04.583	$GPGGA,200605,2549.9416,N,07949.0127,W,1,10,2.2,22,M,,M,,*67
06/25/2015	20:06:05.593	$GPGGA,200606,2549.9433,N,07949.0114,W,1,10,1.6,22,M,,M,,*64
06/25/2015	20:06:06.563	$GPGGA,200607,2549.9449,N,07949.0101,W,1,10,2.2,22,M,,M,,*6B
06/25/2015	20:06:07.573	$GPGGA,200608,2549.9469,N,07949.0088,W,1,9,2.2,22,M,,M,,*5E
06/25/2015	20:06:08.540	$GPGGA,200609,2549.9485,N,07949.0075,W,1,9,2.2,21,M,,M,,*5C
06/25/2015	20:06:09.544	$GPGGA,200610,2549.9503,N,07949.0063,W,1,9,2.2,21,M,,M,,*5C
06/25/2015	20:06:10.533	$GPGGA,200611,2549.9521,N,07949.0050,W,1,9,1.6,21,M,,M,,*5A
06/25/2015	20:06:11.533	$GPGGA,200612,2549.9539,N,07949.0036,W,1,10,1.6,21,M,,M,,*68
06/25/2015	20:06:12.525	$GPGGA,200613,2549.9557,N,07949.0022,W,1,10,1.6,21,M,,M,,*64
06/25/2015	20:06:13.543	$GPGGA,200614,2549.9574,N,07949.0009,W,1,9,1.9,21,M,,M,,*5C
06/25/2015	20:06:14.533	$GPGGA,200615,2549.9590,N,07948.9995,W,1,9,1.9,21,M,,M,,*53
06/25/2015	20:06:15.523	$GPGGA,200616,2549.9610,N,07948.9983,W,1,9,1.9,22,M,,M,,*5F
06/25/2015	20:06:16.513	$GPGGA,200617,2549.9628,N,07948.9970,W,1,9,2.5,22,M,,M,,*56
06/25/2015	20:06:18.512	$GPGGA,200619,2549.9662,N,07948.9944,W,1,8,2.2,22,M,,M,,*57
06/25/2015	20:06:21.622	$GPGGA,200622,2549.9716,N,07948.9906,W,1,8,2.2,22,M,,M,,*5B
06/25/2015	20:06:22.493	$GPGGA,200623,2549.9734,N,07948.9893,W,1,8,2.2,22,M,,M,,*57
06/25/2015	20:06:23.512	$GPGGA,200624,2549.9753,N,07948.9881,W,1,9,2.2,22,M,,M,,*53
06/25/2015	20:06:25.502	$GPGGA,200626,2549.9788,N,07948.9856,W,1,9,2.2,22,M,,M,,*5D
06/25/2015	20:06:26.652	$GPGGA,200627,2549.9806,N,07948.9843,W,1,9,2.2,22,M,,M,,*51
06/25/2015	20:06:27.492	$GPGGA,200628,2549.9824,N,07948.9830,W,1,9,2.2,22,M,,M,,*5A
06/25/2015	20:06:28.483	$GPGGA,200629,2549.9843,N,07948.9817,W,1,9,2.5,22,M,,M,,*58
06/25/2015	20:06:29.493	$GPGGA,200630,2549.9861,N,07948.9804,W,1,8,2.5,22,M,,M,,*53
06/25/2015	20:06:30.583	$GPGGA,200631,2549.9876,N,07948.9793,W,1,8,2.5,22,M,,M,,*55
06/25/2015	20:06:32.483	$GPGGA,200633,2549.9912,N,07948.9767,W,1,9,2.2,23,M,,M,,*58
06/25/2015	20:06:33.593	$GPGGA,200634,2549.9930,N,07948.9754,W,1,8,2.5,23,M,,M,,*59
06/25/2015	20:06:34.483	$GPGGA,200635,2549.9948,N,07948.9741,W,1,8,2.5,23,M,,M,,*53
06/25/2015	20:06:35.582	$GPGGA,200636,2549.9966,N,07948.9728,W,1,8,2.5,23,M,,M,,*53
06/25/2015	20:06:36.625	$GPGGA,200637,2549.9984,N,07948.9714,W,1,8,1.9,23,M,,M,,*5E
06/25/2015	20:06:37.602	$GPGGA,200638,2550.0002,N,07948.9700,W,1,9,1.6,23,M,,M,,*5C
06/25/2015	20:06:38.552	$GPGGA,200639,2550.0020,N,07948.9686,W,1,9,1.6,23,M,,M,,*52
06/25/2015	20:06:39.652	$GPGGA,200640,2550.0038,N,07948.9674,W,1,10,1.6,23,M,,M,,*60
06/25/2015	20:06:40.635	$GPGGA,200641,2550.0056,N,07948.9661,W,1,10,1.6,23,M,,M,,*6D
06/25/2015	20:06:41.602	$GPGGA,200642,2550.0074,N,07948.9649,W,1,10,2.2,23,M,,M,,*63
06/25/2015	20:06:42.632	$GPGGA,200643,2550.0092,N,07948.9637,W,1,10,1.6,23,M,,M,,*64
06/25/2015	20:06:43.642	$GPGGA,200644,2550.0112,N,07948.9625,W,1,10,2.2,23,M,,M,,*6E
06/25/2015	20:06:44.628	$GPGGA,200645,2550.0128,N,07948.9611,W,1,10,2.2,23,M,,M,,*61
06/25/2015	20:06:45.543	$GPGGA,200646,2550.0148,N,07948.9599,W,1,9,2.2,23,M,,M,,*5F
06/25/2015	20:06:46.623	$GPGGA,200647,2550.0165,N,07948.9587,W,1,9,2.2,23,M,,M,,*5E
06/25/2015	20:06:47.638	$GPGGA,200648,2550.0185,N,07948.9575,W,1,9,2.2,23,M,,M,,*52
06/25/2015	20:06:48.613	$GPGGA,200649,2550.0201,N,07948.9562,W,1,9,2.2,23,M,,M,,*5A
06/25/2015	20:06:49.573	$GPGGA,200650,2550.0219,N,07948.9550,W,1,9,2.2,22,M,,M,,*5B
06/25/2015	20:06:50.613	$GPGGA,200651,2550.0239,N,07948.9537,W,1,9,2.2,22,M,,M,,*59
06/25/2015	20:06:51.593	$GPGGA,200652,2550.0257,N,07948.9525,W,1,9,2.2,22,M,,M,,*51
06/25/2015	20:06:52.602	$GPGGA,200653,2550.0275,N,07948.9512,W,1,9,2.2,22,M,,M,,*54
06/25/2015	20:06:53.562	$GPGGA,200654,2550.0293,N,07948.9499,W,1,9,2.2,22,M,,M,,*59
06/25/2015	20:06:54.602	$GPGGA,200655,2550.0312,N,07948.9486,W,1,9,2.2,22,M,,M,,*5E
06/25/2015	20:06:55.572	$GPGGA,200656,2550.0331,N,07948.9475,W,1,9,2.2,22,M,,M,,*50
06/25/2015	20:06:56.582	$GPGGA,200657,2550.0348,N,07948.9461,W,1,9,2.2,22,M,,M,,*5A
06/25/2015	20:06:57.512	$GPGGA,200658,2550.0367,N,07948.9448,W,1,9,2.2,22,M,,M,,*53
06/25/2015	20:06:58.572	$GPGGA,200659,2550.0385,N,07948.9435,W,1,9,1.6,22,M,,M,,*53
06/25/2015	20:06:59.582	$GPGGA,200700,2550.0403,N,07948.9422,W,1,10,1.6,22,M,,M,,*69
06/25/2015	20:07:00.572	$GPGGA,200701,2550.0421,N,07948.9409,W,1,10,1.6,22,M,,M,,*61
06/25/2015	20:07:01.547	$GPGGA,200702,2550.0439,N,07948.9395,W,1,9,1.6,22,M,,M,,*51
06/25/2015	20:07:02.518	$GPGGA,200703,2550.0456,N,07948.9380,W,1,9,1.6,22,M,,M,,*5D
06/25/2015	20:07:03.590	$GPGGA,200704,2550.0474,N,07948.9367,W,1,10,1.6,21,M,,M,,*68
06/25/2015	20:07:04.576	$GPGGA,200705,2550.0493,N,07948.9355,W,1,10,1.6,21,M,,M,,*61
06/25/2015	20:07:05.553	$GPGGA,200706,2550.0510,N,07948.9341,W,1,9,1.6,21,M,,M,,*55
06/25/2015	20:07:06.583	$GPGGA,200707,2550.0528,N,07948.9327,W,1,9,1.6,21,M,,M,,*5F
06/25/2015	20:07:07.573	$GPGGA,200708,2550.0544,N,07948.9313,W,1,10,1.6,21,M,,M,,*65
06/25/2015	20:07:08.613	$GPGGA,200709,2550.0562,N,07948.9300,W,1,10,2.2,21,M,,M,,*65
06/25/2015	20:07:09.562	$GPGGA,200710,2550.0580,N,07948.9287,W,1,9,2.2,21,M,,M,,*57
06/25/2015	20:07:10.562	$GPGGA,200711,2550.0598,N,07948.9275,W,1,9,2.5,21,M,,M,,*55
06/25/2015	20:07:11.562	$GPGGA,200712,2550.0616,N,07948.9263,W,1,8,2.2,21,M,,M,,*52
06/25/2015	20:07:12.562	$GPGGA,200713,2550.0633,N,07948.9250,W,1,8,2.2,21,M,,M,,*54
06/25/2015	20:07:13.542	$GPGGA,200714,2550.0649,N,07948.9237,W,1,9,2.2,20,M,,M,,*5F
06/25/2015	20:07:14.562	$GPGGA,200715,2550.0667,N,07948.9225,W,1,9,2.2,20,M,,M,,*51
06/25/2015	20:07:16.012	$GPGGA,200716,2550.0684,N,07948.9212,W,1,9,2.2,20,M,,M,,*5B
06/25/2015	20:07:16.552	$GPGGA,200717,2550.0701,N,07948.9199,W,1,9,2.2,20,M,,M,,*56
06/25/2015	20:07:17.552	$GPGGA,200718,2550.0719,N,07948.9186,W,1,9,2.3,20,M,,M,,*5F
06/25/2015	20:07:18.552	$GPGGA,200719,2550.0735,N,07948.9173,W,1,9,2.2,20,M,,M,,*5B
06/25/2015	20:07:19.602	$GPGGA,200720,2550.0753,N,07948.9159,W,1,9,2.2,20,M,,M,,*59
06/25/2015	20:07:20.563	$GPGGA,200721,2550.0771,N,07948.9146,W,1,9,2.2,20,M,,M,,*56
06/25/2015	20:07:21.613	$GPGGA,200722,2550.0788,N,07948.9133,W,1,9,2.2,20,M,,M,,*51
06/25/2015	20:07:22.573	$GPGGA,200723,2550.0804,N,07948.9119,W,1,9,2.2,20,M,,M,,*53
06/25/2015	20:07:23.583	$GPGGA,200724,2550.0818,N,07948.9100,W,1,9,1.6,20,M,,M,,*56
06/25/2015	20:07:24.563	$GPGGA,200725,2550.0835,N,07948.9088,W,1,9,2.2,21,M,,M,,*5F
06/25/2015	20:07:25.573	$GPGGA,200726,2550.0851,N,07948.9074,W,1,9,1.6,21,M,,M,,*5A
06/25/2015	20:07:26.553	$GPGGA,200727,2550.0869,N,07948.9061,W,1,9,2.2,21,M,,M,,*53
06/25/2015	20:07:27.572	$GPGGA,200728,2550.0886,N,07948.9049,W,1,9,2.2,21,M,,M,,*57
06/25/2015	20:07:28.572	$GPGGA,200729,2550.0904,N,07948.9036,W,1,9,2.2,21,M,,M,,*55
06/25/2015	20:07:29.582	$GPGGA,200730,2550.0919,N,07948.9022,W,1,9,1.6,21,M,,M,,*53
06/25/2015	20:07:30.552	$GPGGA,200731,2550.0938,N,07948.9010,W,1,9,1.6,21,M,,M,,*50
06/25/2015	20:07:31.582	$GPGGA,200732,2550.0955,N,07948.8997,W,1,10,2.2,21,M,,M,,*60
06/25/2015	20:07:32.582	$GPGGA,200733,2550.0970,N,07948.8981,W,1,10,1.6,21,M,,M,,*66
06/25/2015	20:07:33.582	$GPGGA,200734,2550.0987,N,07948.8969,W,1,10,2.2,21,M,,M,,*68
06/25/2015	20:07:34.552	$GPGGA,200735,2550.1005,N,07948.8956,W,1,10,2.2,21,M,,M,,*67
06/25/2015	20:07:35.645	$GPGGA,200736,2550.1021,N,07948.8942,W,1,9,1.6,21,M,,M,,*58
06/25/2015	20:07:36.552	$GPGGA,200737,2550.1021,N,07948.8942,W,1,9,1.6,21,M,,M,,*59
06/25/2015	20:07:37.552	$GPGGA,200738,2550.1053,N,07948.8913,W,1,10,1.6,21,M,,M,,*6F
06/25/2015	20:07:38.563	$GPGGA,200739,2550.1071,N,07948.8899,W,1,10,1.6,21,M,,M,,*6D
06/25/2015	20:07:39.583	$GPGGA,200740,2550.1089,N,07948.8887,W,1,10,2.2,21,M,,M,,*6C
06/25/2015	20:07:40.838	$GPGGA,200741,2550.1107,N,07948.8874,W,1,10,2.5,21,M,,M,,*61
06/25/2015	20:07:41.553	$GPGGA,200742,2550.1122,N,07948.8861,W,1,8,2.2,21,M,,M,,*5F
06/25/2015	20:07:42.553	$GPGGA,200743,2550.1140,N,07948.8849,W,1,8,2.2,21,M,,M,,*50
06/25/2015	20:07:43.583	$GPGGA,200744,2550.1158,N,07948.8836,W,1,9,2.2,21,M,,M,,*57
06/25/2015	20:07:44.542	$GPGGA,200745,2550.1175,N,07948.8823,W,1,9,2.2,21,M,,M,,*5D
06/25/2015	20:07:45.532	$GPGGA,200746,2550.1193,N,07948.8810,W,1,9,2.2,21,M,,M,,*56
06/25/2015	20:07:46.533	$GPGGA,200747,2550.1209,N,07948.8798,W,1,9,2.2,21,M,,M,,*58
06/25/2015	20:07:47.532	$GPGGA,200748,2550.1227,N,07948.8785,W,1,9,2.2,21,M,,M,,*57
06/25/2015	20:07:48.532	$GPGGA,200749,2550.1227,N,07948.8785,W,1,9,2.2,21,M,,M,,*56
06/25/2015	20:07:49.522	$GPGGA,200750,2550.1261,N,07948.8759,W,1,9,2.2,21,M,,M,,*5D
06/25/2015	20:07:50.513	$GPGGA,200751,2550.1261,N,07948.8759,W,1,9,2.2,21,M,,M,,*5C
06/25/2015	20:07:51.552	$GPGGA,200752,2550.1295,N,07948.8733,W,1,9,2.2,21,M,,M,,*58
06/25/2015	20:07:52.532	$GPGGA,200753,2550.1295,N,07948.8733,W,1,9,2.2,21,M,,M,,*59
06/25/2015	20:07:53.562	$GPGGA,200754,2550.1330,N,07948.8707,W,1,9,2.2,21,M,,M,,*57
06/25/2015	20:07:54.536	$GPGGA,200755,2550.1330,N,07948.8707,W,1,9,2.2,21,M,,M,,*56
06/25/2015	20:07:55.553	$GPGGA,200756,2550.1363,N,07948.8682,W,1,8,2.4,21,M,,M,,*58
06/25/2015	20:07:56.563	$GPGGA,200757,2550.1378,N,07948.8668,W,1,8,2.5,21,M,,M,,*56
06/25/2015	20:07:57.513	$GPGGA,200758,2550.1393,N,07948.8655,W,1,8,2.5,21,M,,M,,*52
06/25/2015	20:07:58.553	$GPGGA,200759,2550.1410,N,07948.8641,W,1,8,2.5,21,M,,M,,*5A
06/25/2015	20:07:59.553	$GPGGA,200800,2550.1429,N,07948.8628,W,1,8,2.5,21,M,,M,,*5C
06/25/2015	20:08:00.543	$GPGGA,200801,2550.1446,N,07948.8615,W,1,8,2.2,21,M,,M,,*5D
06/25/2015	20:08:01.593	$GPGGA,200802,2550.1462,N,07948.8601,W,1,9,2.2,21,M,,M,,*5C
06/25/2015	20:08:02.492	$GPGGA,200803,2550.1462,N,07948.8601,W,1,9,2.5,21,M,,M,,*5A
06/25/2015	20:08:03.623	$GPGGA,200804,2550.1497,N,07948.8575,W,1,8,2.5,21,M,,M,,*56
06/25/2015	20:08:05.079	$GPGGA,200805,2550.1516,N,07948.8562,W,1,8,2.2,21,M,,M,,*5E
06/25/2015	20:08:05.592	$GPGGA,200806,2550.1533,N,07948.8549,W,1,9,2.2,21,M,,M,,*52
06/25/2015	20:08:06.582	$GPGGA,200807,2550.1550,N,07948.8534,W,1,9,2.2,21,M,,M,,*5C
06/25/2015	20:08:07.612	$GPGGA,200808,2550.1568,N,07948.8521,W,1,10,1.6,21,M,,M,,*63
06/25/2015	20:08:08.582	$GPGGA,200809,2550.1586,N,07948.8508,W,1,10,1.6,21,M,,M,,*69
06/25/2015	20:08:09.602	$GPGGA,200810,2550.1602,N,07948.8492,W,1,10,1.6,21,M,,M,,*6C
06/25/2015	20:08:10.562	$GPGGA,200811,2550.1619,N,07948.8477,W,1,10,1.6,21,M,,M,,*6C
06/25/2015	20:08:11.582	$GPGGA,200812,2550.1635,N,07948.8463,W,1,10,1.6,21,M,,M,,*64
06/25/2015	20:08:12.582	$GPGGA,200813,2550.1653,N,07948.8450,W,1,10,1.6,21,M,,M,,*65
06/25/2015	20:08:13.593	$GPGGA,200814,2550.1671,N,07948.8437,W,1,10,1.6,21,M,,M,,*63
06/25/2015	20:08:14.563	$GPGGA,200815,2550.1689,N,07948.8424,W,1,10,1.6,21,M,,M,,*67
06/25/2015	20:08:15.603	$GPGGA,200816,2550.1707,N,07948.8411,W,1,10,1.6,21,M,,M,,*65
06/25/2015	20:08:16.583	$GPGGA,200817,2550.1727,N,07948.8399,W,1,10,1.7,21,M,,M,,*60
06/25/2015	20:08:17.573	$GPGGA,200818,2550.1745,N,07948.8387,W,1,10,1.7,21,M,,M,,*64
06/25/2015	20:08:18.553	$GPGGA,200819,2550.1763,N,07948.8374,W,1,10,2.2,21,M,,M,,*6B
06/25/2015	20:08:19.582	$GPGGA,200820,2550.1781,N,07948.8362,W,1,10,1.7,21,M,,M,,*6C
06/25/2015	20:08:20.572	$GPGGA,200821,2550.1799,N,07948.8349,W,1,10,1.7,21,M,,M,,*6D
06/25/2015	20:08:21.532	$GPGGA,200822,2550.1818,N,07948.8337,W,1,10,1.7,21,M,,M,,*61
06/25/2015	20:08:22.552	$GPGGA,200823,2550.1836,N,07948.8324,W,1,10,1.6,21,M,,M,,*6F
06/25/2015	20:08:23.592	$GPGGA,200824,2550.1852,N,07948.8312,W,1,10,1.6,21,M,,M,,*6F
06/25/2015	20:08:24.542	$GPGGA,200825,2550.1872,N,07948.8299,W,1,10,1.6,21,M,,M,,*6E
06/25/2015	20:08:25.572	$GPGGA,200826,2550.1891,N,07948.8287,W,1,10,1.6,20,M,,M,,*6E
06/25/2015	20:08:26.532	$GPGGA,200827,2550.1909,N,07948.8277,W,1,10,2.2,20,M,,M,,*67
06/25/2015	20:08:27.572	$GPGGA,200828,2550.1928,N,07948.8267,W,1,10,1.6,20,M,,M,,*6D
06/25/2015	20:08:28.535	$GPGGA,200829,2550.1948,N,07948.8254,W,1,10,1.7,20,M,,M,,*6B
06/25/2015	20:08:29.522	$GPGGA,200830,2550.1964,N,07948.8240,W,1,9,2.2,20,M,,M,,*56
06/25/2015	20:08:30.524	$GPGGA,200831,2550.1981,N,07948.8227,W,1,9,2.2,19,M,,M,,*57
06/25/2015	20:08:31.523	$GPGGA,200832,2550.2000,N,07948.8214,W,1,9,2.2,19,M,,M,,*57
06/25/2015	20:08:32.543	$GPGGA,200833,2550.2017,N,07948.8201,W,1,9,2.2,19,M,,M,,*54
06/25/2015	20:08:33.513	$GPGGA,200834,2550.2034,N,07948.8188,W,1,9,2.2,19,M,,M,,*50
06/25/2015	20:08:34.513	$GPGGA,200835,2550.2050,N,07948.8175,W,1,9,2.2,19,M,,M,,*51
06/25/2015	20:08:35.543	$GPGGA,200836,2550.2068,N,07948.8162,W,1,8,2.5,19,M,,M,,*59
06/25/2015	20:08:36.537	$GPGGA,200837,2550.2086,N,07948.8149,W,1,8,2.2,18,M,,M,,*57
06/25/2015	20:08:37.542	$GPGGA,200838,2550.2103,N,07948.8136,W,1,9,2.2,18,M,,M,,*5D
06/25/2015	20:08:38.523	$GPGGA,200839,2550.2119,N,07948.8123,W,1,9,2.2,18,M,,M,,*53
06/25/2015	20:08:39.522	$GPGGA,200840,2550.2137,N,07948.8111,W,1,9,2.2,18,M,,M,,*50
06/25/2015	20:08:40.492	$GPGGA,200841,2550.2155,N,07948.8098,W,1,9,2.4,18,M,,M,,*53
06/25/2015	20:08:41.612	$GPGGA,200842,2550.2172,N,07948.8085,W,1,9,2.2,18,M,,M,,*5F
06/25/2015	20:08:42.512	$GPGGA,200843,2550.2188,N,07948.8072,W,1,9,2.2,18,M,,M,,*53
06/25/2015	20:08:43.662	$GPGGA,200844,2550.2206,N,07948.8060,W,1,9,2.2,18,M,,M,,*52
06/25/2015	20:08:44.502	$GPGGA,200845,2550.2222,N,07948.8046,W,1,9,2.2,18,M,,M,,*51
06/25/2015	20:08:45.582	$GPGGA,200846,2550.2238,N,07948.8033,W,1,9,2.2,18,M,,M,,*5B
06/25/2015	20:08:46.483	$GPGGA,200847,2550.2255,N,07948.8020,W,1,9,2.2,18,M,,M,,*53
06/25/2015	20:08:47.534	$GPGGA,200848,2550.2273,N,07948.8007,W,1,9,2.2,18,M,,M,,*5D
06/25/2015	20:08:48.583	$GPGGA,200849,2550.2289,N,07948.7994,W,1,9,2.2,18,M,,M,,*55
06/25/2015	20:08:49.493	$GPGGA,200850,2550.2306,N,07948.7981,W,1,9,2.2,19,M,,M,,*5E
06/25/2015	20:08:50.833	$GPGGA,200851,2550.2324,N,07948.7968,W,1,9,2.2,19,M,,M,,*58
06/25/2015	20:08:51.493	$GPGGA,200852,2550.2341,N,07948.7955,W,1,9,2.2,19,M,,M,,*56
06/25/2015	20:08:52.573	$GPGGA,200853,2550.2356,N,07948.7940,W,1,9,2.2,19,M,,M,,*55
06/25/2015	20:08:53.593	$GPGGA,200854,2550.2372,N,07948.7926,W,1,10,1.7,19,M,,M,,*6A
06/25/2015	20:08:54.602	$GPGGA,200855,2550.2390,N,07948.7912,W,1,10,2.2,19,M,,M,,*66
06/25/2015	20:08:55.582	$GPGGA,200856,2550.2406,N,07948.7898,W,1,10,1.7,19,M,,M,,*68
06/25/2015	20:08:56.582	$GPGGA,200857,2550.2421,N,07948.7883,W,1,10,1.7,20,M,,M,,*6C
06/25/2015	20:08:57.572	$GPGGA,200858,2550.2437,N,07948.7870,W,1,10,1.7,20,M,,M,,*68
06/25/2015	20:08:58.572	$GPGGA,200859,2550.2455,N,07948.7858,W,1,10,2.2,20,M,,M,,*61
06/25/2015	20:08:59.602	$GPGGA,200900,2550.2472,N,07948.7845,W,1,9,2.2,20,M,,M,,*5D
06/25/2015	20:09:00.552	$GPGGA,200901,2550.2488,N,07948.7831,W,1,9,2.2,20,M,,M,,*5A
06/25/2015	20:09:01.582	$GPGGA,200902,2550.2505,N,07948.7818,W,1,9,2.2,20,M,,M,,*56
06/25/2015	20:09:02.562	$GPGGA,200903,2550.2524,N,07948.7805,W,1,9,2.2,21,M,,M,,*59
06/25/2015	20:09:03.592	$GPGGA,200904,2550.2541,N,07948.7792,W,1,9,1.7,21,M,,M,,*5A
06/25/2015	20:09:04.562	$GPGGA,200905,2550.2556,N,07948.7779,W,1,9,2.2,21,M,,M,,*5E
06/25/2015	20:09:06.574	$GPGGA,200907,2550.2592,N,07948.7752,W,1,9,2.2,21,M,,M,,*5D
06/25/2015	20:09:07.563	$GPGGA,200908,2550.2609,N,07948.7739,W,1,9,2.2,21,M,,M,,*5E
06/25/2015	20:09:08.563	$GPGGA,200909,2550.2625,N,07948.7726,W,1,9,2.2,21,M,,M,,*5F
06/25/2015	20:09:09.543	$GPGGA,200910,2550.2643,N,07948.7712,W,1,9,2.2,21,M,,M,,*50
06/25/2015	20:09:10.543	$GPGGA,200911,2550.2659,N,07948.7699,W,1,9,2.2,21,M,,M,,*58
06/25/2015	20:09:11.537	$GPGGA,200912,2550.2675,N,07948.7683,W,1,10,1.7,22,M,,M,,*63
06/25/2015	20:09:12.552	$GPGGA,200913,2550.2690,N,07948.7669,W,1,10,1.7,22,M,,M,,*6D
06/25/2015	20:09:13.542	$GPGGA,200914,2550.2708,N,07948.7655,W,1,10,1.7,22,M,,M,,*65
06/25/2015	20:09:14.536	$GPGGA,200915,2550.2725,N,07948.7642,W,1,10,1.7,22,M,,M,,*6D
06/25/2015	20:09:15.562	$GPGGA,200916,2550.2743,N,07948.7629,W,1,9,2.2,22,M,,M,,*5D
06/25/2015	20:09:16.522	$GPGGA,200917,2550.2758,N,07948.7615,W,1,9,2.2,22,M,,M,,*59
06/25/2015	20:09:17.533	$GPGGA,200918,2550.2776,N,07948.7602,W,1,10,1.7,22,M,,M,,*62
06/25/2015	20:09:18.512	$GPGGA,200919,2550.2797,N,07948.7592,W,1,10,2.2,22,M,,M,,*60
06/25/2015	20:09:19.562	$GPGGA,200920,2550.2812,N,07948.7578,W,1,9,1.7,22,M,,M,,*52
06/25/2015	20:09:20.512	$GPGGA,200921,2550.2827,N,07948.7565,W,1,9,2.2,22,M,,M,,*5F
06/25/2015	20:09:21.533	$GPGGA,200922,2550.2845,N,07948.7552,W,1,8,2.6,22,M,,M,,*59
06/25/2015	20:09:22.524	$GPGGA,200923,2550.2860,N,07948.7539,W,1,8,2.2,22,M,,M,,*56
06/25/2015	20:09:23.533	$GPGGA,200924,2550.2878,N,07948.7525,W,1,9,2.2,23,M,,M,,*55
06/25/2015	20:09:24.503	$GPGGA,200925,2550.2895,N,07948.7513,W,1,9,2.2,23,M,,M,,*52
06/25/2015	20:09:25.513	$GPGGA,200926,2550.2913,N,07948.7501,W,1,9,2.2,23,M,,M,,*5D
06/25/2015	20:09:26.493	$GPGGA,200927,2550.2930,N,07948.7487,W,1,9,2.2,23,M,,M,,*52
06/25/2015	20:09:27.553	$GPGGA,200928,2550.2948,N,07948.7474,W,1,8,2.4,23,M,,M,,*59
06/25/2015	20:09:28.493	$GPGGA,200929,2550.2968,N,07948.7461,W,1,8,2.2,23,M,,M,,*58
06/25/2015	20:09:29.837	$GPGGA,200930,2550.2986,N,07948.7448,W,1,9,2.2,23,M,,M,,*5A
06/25/2015	20:09:30.482	$GPGGA,200931,2550.3007,N,07948.7435,W,1,9,2.2,23,M,,M,,*50
06/25/2015	20:09:31.512	$GPGGA,200932,2550.3026,N,07948.7422,W,1,9,2.2,23,M,,M,,*56
06/25/2015	20:09:32.482	$GPGGA,200933,2550.3043,N,07948.7408,W,1,9,2.2,23,M,,M,,*5C
06/25/2015	20:09:33.592	$GPGGA,200934,2550.3060,N,07948.7396,W,1,8,2.6,23,M,,M,,*5F
06/25/2015	20:09:34.602	$GPGGA,200935,2550.3079,N,07948.7382,W,1,8,2.6,22,M,,M,,*52
06/25/2015	20:09:35.813	$GPGGA,200936,2550.3097,N,07948.7370,W,1,8,2.6,22,M,,M,,*5C
06/25/2015	20:09:36.482	$GPGGA,200937,2550.3113,N,07948.7358,W,1,8,2.2,22,M,,M,,*5E
06/25/2015	20:09:37.562	$GPGGA,200938,2550.3130,N,07948.7345,W,1,9,2.2,22,M,,M,,*5D
06/25/2015	20:09:38.562	$GPGGA,200939,2550.3148,N,07948.7333,W,1,9,2.2,22,M,,M,,*52
06/25/2015	20:09:39.622	$GPGGA,200940,2550.3167,N,07948.7319,W,1,9,2.2,22,M,,M,,*59
06/25/2015	20:09:40.573	$GPGGA,200941,2550.3184,N,07948.7306,W,1,9,2.2,22,M,,M,,*5B
06/25/2015	20:09:41.583	$GPGGA,200942,2550.3202,N,07948.7293,W,1,9,2.2,22,M,,M,,*58
06/25/2015	20:09:42.553	$GPGGA,200943,2550.3221,N,07948.7281,W,1,9,2.2,22,M,,M,,*5B
06/25/2015	20:09:43.583	$GPGGA,200944,2550.3237,N,07948.7267,W,1,9,2.2,22,M,,M,,*53
06/25/2015	20:09:44.573	$GPGGA,200945,2550.3253,N,07948.7253,W,1,9,2.2,21,M,,M,,*54
06/25/2015	20:09:45.573	$GPGGA,200946,2550.3271,N,07948.7238,W,1,10,1.7,21,M,,M,,*64
06/25/2015	20:09:46.573	$GPGGA,200947,2550.3289,N,07948.7225,W,1,10,1.7,21,M,,M,,*6E
06/25/2015	20:09:47.602	$GPGGA,200948,2550.3304,N,07948.7210,W,1,9,2.2,21,M,,M,,*5D
06/25/2015	20:09:49.051	$GPGGA,200949,2550.3322,N,07948.7196,W,1,9,1.7,21,M,,M,,*53
06/25/2015	20:09:49.572	$GPGGA,200950,2550.3340,N,07948.7184,W,1,10,1.7,21,M,,M,,*64
06/25/2015	20:09:50.542	$GPGGA,200951,2550.3358,N,07948.7171,W,1,10,1.7,21,M,,M,,*66
06/25/2015	20:09:51.572	$GPGGA,200952,2550.3376,N,07948.7158,W,1,10,1.7,21,M,,M,,*62
06/25/2015	20:09:52.542	$GPGGA,200953,2550.3394,N,07948.7146,W,1,10,2.2,21,M,,M,,*66
06/25/2015	20:09:53.552	$GPGGA,200954,2550.3412,N,07948.7133,W,1,9,2.2,21,M,,M,,*52
06/25/2015	20:09:54.552	$GPGGA,200955,2550.3430,N,07948.7121,W,1,9,1.7,21,M,,M,,*56
06/25/2015	20:09:55.562	$GPGGA,200956,2550.3447,N,07948.7109,W,1,10,1.7,21,M,,M,,*67
06/25/2015	20:09:56.532	$GPGGA,200957,2550.3466,N,07948.7098,W,1,10,2.2,21,M,,M,,*6A
06/25/2015	20:09:57.524	$GPGGA,200958,2550.3484,N,07948.7086,W,1,10,1.7,21,M,,M,,*60
06/25/2015	20:09:58.543	$GPGGA,200959,2550.3501,N,07948.7073,W,1,10,2.2,21,M,,M,,*61
06/25/2015	20:09:59.593	$GPGGA,201000,2550.3519,N,07948.7061,W,1,9,2.2,21,M,,M,,*57
06/25/2015	20:10:00.534	$GPGGA,201001,2550.3535,N,07948.7049,W,1,9,2.6,21,M,,M,,*56
06/25/2015	20:10:01.513	$GPGGA,201002,2550.3553,N,07948.7036,W,1,9,2.2,21,M,,M,,*59
06/25/2015	20:10:02.538	$GPGGA,201003,2550.3571,N,07948.7024,W,1,9,2.6,21,M,,M,,*5F
06/25/2015	20:10:03.543	$GPGGA,201004,2550.3589,N,07948.7012,W,1,8,2.6,21,M,,M,,*5B
06/25/2015	20:10:04.552	$GPGGA,201005,2550.3604,N,07948.6999,W,1,8,2.2,21,M,,M,,*53
06/25/2015	20:10:05.526	$GPGGA,201006,2550.3622,N,07948.6986,W,1,9,2.2,21,M,,M,,*5B
06/25/2015	20:10:06.526	$GPGGA,201007,2550.3640,N,07948.6973,W,1,9,2.2,21,M,,M,,*54
06/25/2015	20:10:07.552	$GPGGA,201008,2550.3658,N,07948.6961,W,1,9,2.2,21,M,,M,,*51
06/25/2015	20:10:08.528	$GPGGA,201009,2550.3676,N,07948.6947,W,1,9,2.2,21,M,,M,,*58
06/25/2015	20:10:09.636	$GPGGA,201010,2550.3691,N,07948.6933,W,1,9,2.2,21,M,,M,,*5A
06/25/2015	20:10:10.512	$GPGGA,201011,2550.3708,N,07948.6920,W,1,9,1.7,21,M,,M,,*5E
06/25/2015	20:10:11.532	$GPGGA,201012,2550.3726,N,07948.6907,W,1,9,2.2,21,M,,M,,*52
06/25/2015	20:10:12.524	$GPGGA,201013,2550.3743,N,07948.6894,W,1,9,2.2,21,M,,M,,*5B
06/25/2015	20:10:13.533	$GPGGA,201014,2550.3759,N,07948.6878,W,1,10,1.7,21,M,,M,,*6B
06/25/2015	20:10:14.503	$GPGGA,201015,2550.3777,N,07948.6868,W,1,10,1.7,21,M,,M,,*67
06/25/2015	20:10:17.903	$GPGGA,201017,2550.3812,N,07948.6841,W,1,10,2.2,21,M,,M,,*64
06/25/2015	20:10:17.938	$GPGGA,201018,2550.3828,N,07948.6828,W,1,9,2.2,21,M,,M,,*55
06/25/2015	20:10:18.613	$GPGGA,201019,2550.3846,N,07948.6815,W,1,9,2.2,21,M,,M,,*52
06/25/2015	20:10:19.593	$GPGGA,201020,2550.3862,N,07948.6802,W,1,9,2.2,21,M,,M,,*58
06/25/2015	20:10:20.583	$GPGGA,201021,2550.3878,N,07948.6787,W,1,9,2.2,21,M,,M,,*50
06/25/2015	20:10:21.573	$GPGGA,201022,2550.3896,N,07948.6774,W,1,10,1.7,21,M,,M,,*61
06/25/2015	20:10:22.492	$GPGGA,201023,2550.3911,N,07948.6759,W,1,10,2.2,21,M,,M,,*67
06/25/2015	20:10:24.942	$GPGGA,201025,2550.3946,N,07948.6733,W,1,10,2.2,21,M,,M,,*6F
06/25/2015	20:10:25.592	$GPGGA,201026,2550.3964,N,07948.6719,W,1,9,2.2,21,M,,M,,*5C
06/25/2015	20:10:26.592	$GPGGA,201027,2550.3979,N,07948.6704,W,1,9,1.7,21,M,,M,,*5B
06/25/2015	20:10:27.592	$GPGGA,201028,2550.3996,N,07948.6691,W,1,10,1.7,21,M,,M,,*60
06/25/2015	20:10:28.572	$GPGGA,201029,2550.4012,N,07948.6678,W,1,10,2.2,21,M,,M,,*62
06/25/2015	20:10:29.582	$GPGGA,201030,2550.4030,N,07948.6666,W,1,9,2.2,21,M,,M,,*5D
06/25/2015	20:10:30.593	$GPGGA,201031,2550.4048,N,07948.6652,W,1,9,1.7,21,M,,M,,*52
06/25/2015	20:10:31.582	$GPGGA,201032,2550.4065,N,07948.6639,W,1,9,2.2,21,M,,M,,*55
06/25/2015	20:10:35.434	$GPGGA,201033,2550.4081,N,07948.6625,W,1,9,1.7,21,M,,M,,*55
06/25/2015	20:10:35.593	$GPGGA,201036,2550.4131,N,07948.6585,W,1,9,2.2,21,M,,M,,*55
06/25/2015	20:10:36.553	$GPGGA,201037,2550.4149,N,07948.6572,W,1,9,2.2,21,M,,M,,*53
06/25/2015	20:10:37.583	$GPGGA,201038,2550.4164,N,07948.6558,W,1,9,2.2,21,M,,M,,*5B
06/25/2015	20:10:38.543	$GPGGA,201039,2550.4182,N,07948.6544,W,1,9,1.7,21,M,,M,,*59
06/25/2015	20:10:41.572	$GPGGA,201042,2550.4234,N,07948.6506,W,1,9,2.2,21,M,,M,,*5B
06/25/2015	20:10:42.532	$GPGGA,201043,2550.4250,N,07948.6493,W,1,9,1.7,21,M,,M,,*53
06/25/2015	20:10:43.562	$GPGGA,201044,2550.4271,N,07948.6480,W,1,8,2.4,21,M,,M,,*54
06/25/2015	20:10:44.542	$GPGGA,201045,2550.4290,N,07948.6467,W,1,8,2.2,21,M,,M,,*55
06/25/2015	20:10:45.533	$GPGGA,201046,2550.4307,N,07948.6454,W,1,10,1.7,20,M,,M,,*67
06/25/2015	20:10:46.552	$GPGGA,201047,2550.4326,N,07948.6441,W,1,10,1.7,20,M,,M,,*61
06/25/2015	20:10:47.533	$GPGGA,201048,2550.4344,N,07948.6428,W,1,10,1.7,20,M,,M,,*65
06/25/2015	20:10:48.525	$GPGGA,201049,2550.4359,N,07948.6415,W,1,10,1.7,20,M,,M,,*66
06/25/2015	20:10:49.522	$GPGGA,201050,2550.4376,N,07948.6400,W,1,9,2.2,20,M,,M,,*59
06/25/2015	20:10:50.523	$GPGGA,201051,2550.4393,N,07948.6386,W,1,9,1.7,20,M,,M,,*5C
06/25/2015	20:10:51.543	$GPGGA,201052,2550.4409,N,07948.6372,W,1,10,1.7,20,M,,M,,*68
06/25/2015	20:10:52.525	$GPGGA,201053,2550.4427,N,07948.6359,W,1,10,1.7,19,M,,M,,*66
06/25/2015	20:10:53.553	$GPGGA,201054,2550.4444,N,07948.6345,W,1,10,1.7,19,M,,M,,*69
06/25/2015	20:10:54.503	$GPGGA,201055,2550.4460,N,07948.6332,W,1,10,2.2,19,M,,M,,*68
06/25/2015	20:10:55.553	$GPGGA,201056,2550.4480,N,07948.6319,W,1,9,2.2,19,M,,M,,*54
06/25/2015	20:10:56.524	$GPGGA,201057,2550.4496,N,07948.6306,W,1,9,2.4,19,M,,M,,*5A
06/25/2015	20:10:57.562	$GPGGA,201058,2550.4514,N,07948.6292,W,1,8,2.4,19,M,,M,,*53
06/25/2015	20:10:58.962	$GPGGA,201059,2550.4534,N,07948.6281,W,1,8,2.2,19,M,,M,,*54
06/25/2015	20:10:59.662	$GPGGA,201100,2550.4553,N,07948.6269,W,1,10,1.9,19,M,,M,,*6F
06/25/2015	20:11:00.513	$GPGGA,201101,2550.4568,N,07948.6256,W,1,10,1.9,19,M,,M,,*6A
06/25/2015	20:11:01.629	$GPGGA,201102,2550.4583,N,07948.6239,W,1,9,1.9,19,M,,M,,*5D
06/25/2015	20:11:02.493	$GPGGA,201103,2550.4601,N,07948.6227,W,1,9,1.9,19,M,,M,,*5A
06/25/2015	20:11:03.502	$GPGGA,201104,2550.4621,N,07948.6215,W,1,9,2.2,19,M,,M,,*56
06/25/2015	20:11:04.592	$GPGGA,201105,2550.4637,N,07948.6202,W,1,9,2.3,19,M,,M,,*57
06/25/2015	20:11:05.482	$GPGGA,201106,2550.4655,N,07948.6188,W,1,9,2.3,19,M,,M,,*51
06/25/2015	20:11:06.503	$GPGGA,201107,2550.4673,N,07948.6176,W,1,9,1.7,19,M,,M,,*52
06/25/2015	20:11:07.502	$GPGGA,201108,2550.4693,N,07948.6163,W,1,9,2.3,19,M,,M,,*50
06/25/2015	20:11:08.483	$GPGGA,201109,2550.4709,N,07948.6150,W,1,9,2.3,19,M,,M,,*53
06/25/2015	20:11:09.573	$GPGGA,201110,2550.4727,N,07948.6137,W,1,9,2.3,19,M,,M,,*56
06/25/2015	20:11:10.573	$GPGGA,201111,2550.4745,N,07948.6124,W,1,9,2.3,18,M,,M,,*50
06/25/2015	20:11:11.613	$GPGGA,201112,2550.4763,N,07948.6111,W,1,9,2.3,18,M,,M,,*51
06/25/2015	20:11:12.583	$GPGGA,201113,2550.4781,N,07948.6099,W,1,9,2.3,18,M,,M,,*5D
06/25/2015	20:11:13.593	$GPGGA,201114,2550.4799,N,07948.6085,W,1,9,2.3,18,M,,M,,*5E
06/25/2015	20:11:14.582	$GPGGA,201115,2550.4817,N,07948.6072,W,1,9,2.3,18,M,,M,,*5E
06/25/2015	20:11:15.592	$GPGGA,201116,2550.4835,N,07948.6059,W,1,9,2.3,18,M,,M,,*54
06/25/2015	20:11:16.572	$GPGGA,201117,2550.4853,N,07948.6047,W,1,9,2.3,18,M,,M,,*5A
06/25/2015	20:11:17.582	$GPGGA,201118,2550.4870,N,07948.6034,W,1,9,2.3,18,M,,M,,*50
06/25/2015	20:11:18.552	$GPGGA,201119,2550.4888,N,07948.6022,W,1,9,2.3,18,M,,M,,*51
06/25/2015	20:11:19.602	$GPGGA,201120,2550.4906,N,07948.6009,W,1,9,2.3,18,M,,M,,*55
06/25/2015	20:11:20.552	$GPGGA,201121,2550.4922,N,07948.5996,W,1,9,2.3,18,M,,M,,*5E
06/25/2015	20:11:21.583	$GPGGA,201122,2550.4940,N,07948.5983,W,1,9,2.3,18,M,,M,,*5D
06/25/2015	20:11:22.572	$GPGGA,201123,2550.4958,N,07948.5971,W,1,9,2.6,18,M,,M,,*5D
06/25/2015	20:11:23.612	$GPGGA,201124,2550.4975,N,07948.5959,W,1,8,2.3,18,M,,M,,*5B
06/25/2015	20:11:24.552	$GPGGA,201125,2550.4990,N,07948.5947,W,1,8,2.3,18,M,,M,,*5E
06/25/2015	20:11:26.046	$GPGGA,201126,2550.5006,N,07948.5934,W,1,9,2.3,18,M,,M,,*5F
06/25/2015	20:11:26.533	$GPGGA,201127,2550.5023,N,07948.5922,W,1,9,2.3,18,M,,M,,*5E
06/25/2015	20:11:27.613	$GPGGA,201128,2550.5042,N,07948.5910,W,1,9,2.3,18,M,,M,,*57
06/25/2015	20:11:28.543	$GPGGA,201129,2550.5059,N,07948.5896,W,1,9,2.3,19,M,,M,,*52
06/25/2015	20:11:29.553	$GPGGA,201130,2550.5077,N,07948.5884,W,1,9,2.3,19,M,,M,,*55
06/25/2015	20:11:30.553	$GPGGA,201131,2550.5095,N,07948.5871,W,1,9,2.3,19,M,,M,,*52
06/25/2015	20:11:31.629	$GPGGA,201132,2550.5110,N,07948.5858,W,1,9,2.3,19,M,,M,,*56
06/25/2015	20:11:32.533	$GPGGA,201133,2550.5128,N,07948.5846,W,1,9,2.4,20,M,,M,,*5E
06/25/2015	20:11:33.552	$GPGGA,201134,2550.5145,N,07948.5830,W,1,8,1.7,20,M,,M,,*52
06/25/2015	20:11:34.552	$GPGGA,201135,2550.5161,N,07948.5817,W,1,8,1.7,20,M,,M,,*50
06/25/2015	20:11:35.562	$GPGGA,201136,2550.5175,N,07948.5804,W,1,10,1.7,20,M,,M,,*6D
06/25/2015	20:11:36.543	$GPGGA,201137,2550.5193,N,07948.5791,W,1,10,1.7,21,M,,M,,*66
06/25/2015	20:11:37.542	$GPGGA,201138,2550.5211,N,07948.5778,W,1,10,2.3,21,M,,M,,*60
06/25/2015	20:11:38.522	$GPGGA,201139,2550.5226,N,07948.5765,W,1,10,2.3,21,M,,M,,*69
06/25/2015	20:11:39.572	$GPGGA,201140,2550.5244,N,07948.5753,W,1,9,1.7,21,M,,M,,*59
06/25/2015	20:11:40.647	$GPGGA,201141,2550.5261,N,07948.5740,W,1,9,1.7,21,M,,M,,*5D
06/25/2015	20:11:41.641	$GPGGA,201142,2550.5276,N,07948.5726,W,1,10,2.3,22,M,,M,,*64
06/25/2015	20:11:42.512	$GPGGA,201143,2550.5294,N,07948.5712,W,1,10,2.3,22,M,,M,,*6E
06/25/2015	20:11:43.543	$GPGGA,201144,2550.5311,N,07948.5699,W,1,9,1.7,22,M,,M,,*58
06/25/2015	20:11:44.593	$GPGGA,201145,2550.5329,N,07948.5685,W,1,9,1.7,22,M,,M,,*5F
06/25/2015	20:11:45.543	$GPGGA,201146,2550.5345,N,07948.5672,W,1,10,2.3,22,M,,M,,*61
06/25/2015	20:11:46.493	$GPGGA,201147,2550.5362,N,07948.5658,W,1,10,2.3,22,M,,M,,*6D
06/25/2015	20:11:47.553	$GPGGA,201148,2550.5378,N,07948.5646,W,1,9,2.3,23,M,,M,,*5F
06/25/2015	20:11:48.503	$GPGGA,201149,2550.5396,N,07948.5632,W,1,9,2.3,23,M,,M,,*5D
06/25/2015	20:11:49.640	$GPGGA,201150,2550.5413,N,07948.5618,W,1,9,2.3,23,M,,M,,*57
06/25/2015	20:11:50.512	$GPGGA,201151,2550.5430,N,07948.5605,W,1,9,2.3,23,M,,M,,*5B
06/25/2015	20:11:51.638	$GPGGA,201152,2550.5448,N,07948.5592,W,1,9,2.3,23,M,,M,,*5A
06/25/2015	20:11:52.612	$GPGGA,201153,2550.5464,N,07948.5578,W,1,9,2.3,23,M,,M,,*51
06/25/2015	20:11:53.592	$GPGGA,201154,2550.5481,N,07948.5565,W,1,9,2.3,23,M,,M,,*51
06/25/2015	20:11:54.572	$GPGGA,201155,2550.5499,N,07948.5552,W,1,9,2.3,23,M,,M,,*5D
06/25/2015	20:11:55.638	$GPGGA,201156,2550.5515,N,07948.5538,W,1,9,2.3,23,M,,M,,*57
06/25/2015	20:11:56.582	$GPGGA,201157,2550.5532,N,07948.5525,W,1,9,1.7,23,M,,M,,*58
06/25/2015	20:11:57.602	$GPGGA,201158,2550.5549,N,07948.5512,W,1,10,2.3,23,M,,M,,*60
06/25/2015	20:11:58.592	$GPGGA,201159,2550.5565,N,07948.5498,W,1,10,2.3,23,M,,M,,*6C
06/25/2015	20:11:59.592	$GPGGA,201200,2550.5583,N,07948.5485,W,1,9,2.3,23,M,,M,,*5F
06/25/2015	20:12:00.573	$GPGGA,201201,2550.5600,N,07948.5472,W,1,9,2.3,23,M,,M,,*5E
06/25/2015	20:12:01.603	$GPGGA,201202,2550.5616,N,07948.5459,W,1,9,2.3,23,M,,M,,*53
06/25/2015	20:12:02.563	$GPGGA,201203,2550.5634,N,07948.5445,W,1,9,2.3,24,M,,M,,*58
