Software Version Number: 1	Data File Format Number: 1	Build Version Number: 1	Error Count Since VI Started: 3	Manufacturer: Raytheon	 Model Number: RayMarine 120	 S/N: 	 Cal Date: 	 Wind Direction Offset: 0.00	 Slope (M)1: 0.00	 Offset (B)1: 0.00	 Slope (M)2: 0.00	 Offset (B)2: 0.00	 Slope (M)3: 0.00	 Offset (B)3: 0.00	 Slope (M)4: 0.00	 Offset (B)4: 0.00	 Slope (M)5: 0.00	 Offset (B)5: 0.00	 Slope (M)6: 0.00	 Offset (B)6: 0.00
Computer Date	Computer Time	GGA String
06/22/2015	04:00:00.521	$GPGGA,040001,2424.3520,N,08157.7616,W,1,9,1.7,14,M,,M,,*56
06/22/2015	04:00:01.546	$GPGGA,040002,2424.3518,N,08157.7624,W,1,9,1.7,14,M,,M,,*5F
06/22/2015	04:00:02.529	$GPGGA,040003,2424.3519,N,08157.7631,W,1,9,1.7,14,M,,M,,*5B
06/22/2015	04:00:03.556	$GPGGA,040004,2424.3518,N,08157.7639,W,1,9,1.7,14,M,,M,,*55
06/22/2015	04:00:04.519	$GPGGA,040005,2424.3520,N,08157.7648,W,1,9,1.7,14,M,,M,,*59
06/22/2015	04:00:05.506	$GPGGA,040006,2424.3518,N,08157.7655,W,1,9,1.7,14,M,,M,,*5D
06/22/2015	04:00:06.626	$GPGGA,040007,2424.3517,N,08157.7663,W,1,9,1.7,14,M,,M,,*56
06/22/2015	04:00:07.626	$GPGGA,040008,2424.3519,N,08157.7670,W,1,9,1.7,14,M,,M,,*55
06/22/2015	04:00:08.520	$GPGGA,040009,2424.3518,N,08157.7678,W,1,9,1.8,14,M,,M,,*52
06/22/2015	04:00:09.526	$GPGGA,040010,2424.3519,N,08157.7686,W,1,8,1.8,14,M,,M,,*5B
06/22/2015	04:00:10.518	$GPGGA,040011,2424.3517,N,08157.7693,W,1,8,1.7,14,M,,M,,*5F
06/22/2015	04:00:11.566	$GPGGA,040012,2424.3519,N,08157.7702,W,1,9,1.7,14,M,,M,,*5A
06/22/2015	04:00:12.596	$GPGGA,040013,2424.3518,N,08157.7710,W,1,9,1.7,14,M,,M,,*59
06/22/2015	04:00:13.519	$GPGGA,040014,2424.3519,N,08157.7717,W,1,9,1.8,14,M,,M,,*57
06/22/2015	04:00:14.526	$GPGGA,040015,2424.3518,N,08157.7724,W,1,9,1.8,14,M,,M,,*57
06/22/2015	04:00:15.620	$GPGGA,040016,2424.3519,N,08157.7732,W,1,8,1.8,14,M,,M,,*53
06/22/2015	04:00:16.587	$GPGGA,040017,2424.3518,N,08157.7739,W,1,8,1.8,14,M,,M,,*58
06/22/2015	04:00:17.511	$GPGGA,040018,2424.3517,N,08157.7749,W,1,8,1.7,14,M,,M,,*50
06/22/2015	04:00:18.507	$GPGGA,040019,2424.3519,N,08157.7756,W,1,8,1.7,14,M,,M,,*51
06/22/2015	04:00:19.546	$GPGGA,040020,2424.3517,N,08157.7762,W,1,9,1.8,14,M,,M,,*5C
06/22/2015	04:00:20.606	$GPGGA,040021,2424.3517,N,08157.7771,W,1,9,1.8,14,M,,M,,*5F
06/22/2015	04:00:21.617	$GPGGA,040022,2424.3519,N,08157.7778,W,1,8,1.8,14,M,,M,,*5A
06/22/2015	04:00:22.576	$GPGGA,040023,2424.3518,N,08157.7785,W,1,8,1.7,14,M,,M,,*57
06/22/2015	04:00:23.596	$GPGGA,040024,2424.3519,N,08157.7793,W,1,9,1.7,14,M,,M,,*57
06/22/2015	04:00:24.576	$GPGGA,040025,2424.3517,N,08157.7800,W,1,9,1.7,14,M,,M,,*5D
06/22/2015	04:00:25.566	$GPGGA,040026,2424.3519,N,08157.7807,W,1,9,1.7,14,M,,M,,*57
06/22/2015	04:00:26.567	$GPGGA,040027,2424.3518,N,08157.7814,W,1,9,1.7,14,M,,M,,*55
06/22/2015	04:00:27.606	$GPGGA,040028,2424.3517,N,08157.7822,W,1,9,1.7,14,M,,M,,*50
06/22/2015	04:00:28.566	$GPGGA,040029,2424.3517,N,08157.7829,W,1,9,1.7,14,M,,M,,*5A
06/22/2015	04:00:29.586	$GPGGA,040030,2424.3517,N,08157.7836,W,1,9,1.8,14,M,,M,,*53
06/22/2015	04:00:30.566	$GPGGA,040031,2424.3519,N,08157.7843,W,1,9,1.8,14,M,,M,,*5E
06/22/2015	04:00:31.609	$GPGGA,040032,2424.3518,N,08157.7848,W,1,9,1.7,14,M,,M,,*58
06/22/2015	04:00:32.567	$GPGGA,040033,2424.3519,N,08157.7855,W,1,9,1.7,14,M,,M,,*54
06/22/2015	04:00:33.577	$GPGGA,040034,2424.3518,N,08157.7862,W,1,9,1.7,14,M,,M,,*56
06/22/2015	04:00:34.557	$GPGGA,040035,2424.3519,N,08157.7870,W,1,9,1.7,14,M,,M,,*55
06/22/2015	04:00:35.576	$GPGGA,040036,2424.3518,N,08157.7876,W,1,8,1.8,14,M,,M,,*5F
06/22/2015	04:00:36.556	$GPGGA,040037,2424.3519,N,08157.7884,W,1,8,1.7,14,M,,M,,*5D
06/22/2015	04:00:37.576	$GPGGA,040038,2424.3518,N,08157.7892,W,1,9,1.7,14,M,,M,,*55
06/22/2015	04:00:38.546	$GPGGA,040039,2424.3519,N,08157.7901,W,1,9,1.7,14,M,,M,,*5E
06/22/2015	04:00:39.586	$GPGGA,040040,2424.3518,N,08157.7908,W,1,9,1.7,14,M,,M,,*58
06/22/2015	04:00:40.546	$GPGGA,040041,2424.3519,N,08157.7915,W,1,9,1.7,14,M,,M,,*54
06/22/2015	04:00:41.566	$GPGGA,040042,2424.3520,N,08157.7923,W,1,9,1.7,15,M,,M,,*59
06/22/2015	04:00:42.546	$GPGGA,040043,2424.3518,N,08157.7931,W,1,9,1.8,15,M,,M,,*5F
06/22/2015	04:00:43.566	$GPGGA,040044,2424.3520,N,08157.7938,W,1,8,1.8,15,M,,M,,*5B
06/22/2015	04:00:44.546	$GPGGA,040045,2424.3521,N,08157.7945,W,1,8,1.7,15,M,,M,,*5E
06/22/2015	04:00:45.526	$GPGGA,040046,2424.3521,N,08157.7952,W,1,10,1.7,15,M,,M,,*62
06/22/2015	04:00:46.536	$GPGGA,040047,2424.3521,N,08157.7960,W,1,10,1.7,15,M,,M,,*62
06/22/2015	04:00:47.906	$GPGGA,040048,2424.3521,N,08157.7969,W,1,9,1.8,15,M,,M,,*53
06/22/2015	04:00:48.527	$GPGGA,040049,2424.3521,N,08157.7977,W,1,9,1.7,15,M,,M,,*52
06/22/2015	04:00:49.636	$GPGGA,040050,2424.3521,N,08157.7982,W,1,10,1.7,15,M,,M,,*68
06/22/2015	04:00:50.520	$GPGGA,040051,2424.3521,N,08157.7989,W,1,10,1.7,15,M,,M,,*62
06/22/2015	04:00:51.657	$GPGGA,040052,2424.3521,N,08157.7998,W,1,10,1.7,15,M,,M,,*61
06/22/2015	04:00:52.527	$GPGGA,040053,2424.3521,N,08157.8006,W,1,10,1.8,15,M,,M,,*6E
06/22/2015	04:00:53.656	$GPGGA,040054,2424.3521,N,08157.8013,W,1,9,1.8,15,M,,M,,*55
06/22/2015	04:00:54.626	$GPGGA,040055,2424.3521,N,08157.8021,W,1,9,1.8,15,M,,M,,*55
06/22/2015	04:00:55.636	$GPGGA,040056,2424.3521,N,08157.8029,W,1,9,1.8,15,M,,M,,*5E
06/22/2015	04:00:56.521	$GPGGA,040057,2424.3521,N,08157.8038,W,1,9,1.7,15,M,,M,,*50
06/22/2015	04:00:57.522	$GPGGA,040058,2424.3521,N,08157.8046,W,1,9,1.8,15,M,,M,,*59
06/22/2015	04:00:58.610	$GPGGA,040059,2424.3521,N,08157.8053,W,1,9,1.7,15,M,,M,,*53
06/22/2015	04:00:59.566	$GPGGA,040100,2424.3521,N,08157.8063,W,1,10,1.7,15,M,,M,,*65
06/22/2015	04:01:00.618	$GPGGA,040101,2424.3521,N,08157.8069,W,1,10,1.7,15,M,,M,,*6E
06/22/2015	04:01:01.519	$GPGGA,040102,2424.3521,N,08157.8078,W,1,10,1.7,15,M,,M,,*6D
06/22/2015	04:01:02.517	$GPGGA,040103,2424.3521,N,08157.8085,W,1,10,1.7,15,M,,M,,*6E
06/22/2015	04:01:03.622	$GPGGA,040104,2424.3523,N,08157.8094,W,1,9,1.8,15,M,,M,,*5C
06/22/2015	04:01:04.586	$GPGGA,040105,2424.3522,N,08157.8103,W,1,9,1.7,15,M,,M,,*5C
06/22/2015	04:01:05.496	$GPGGA,040106,2424.3523,N,08157.8110,W,1,10,1.7,15,M,,M,,*64
06/22/2015	04:01:06.586	$GPGGA,040107,2424.3522,N,08157.8116,W,1,10,1.7,15,M,,M,,*62
06/22/2015	04:01:07.509	$GPGGA,040108,2424.3524,N,08157.8125,W,1,9,1.8,15,M,,M,,*5C
06/22/2015	04:01:08.587	$GPGGA,040109,2424.3523,N,08157.8133,W,1,9,1.8,15,M,,M,,*5D
06/22/2015	04:01:09.587	$GPGGA,040110,2424.3524,N,08157.8140,W,1,10,1.7,15,M,,M,,*61
06/22/2015	04:01:10.496	$GPGGA,040111,2424.3523,N,08157.8148,W,1,10,1.7,15,M,,M,,*6F
06/22/2015	04:01:11.596	$GPGGA,040112,2424.3524,N,08157.8157,W,1,8,1.8,15,M,,M,,*53
06/22/2015	04:01:12.586	$GPGGA,040113,2424.3523,N,08157.8165,W,1,8,1.8,15,M,,M,,*54
06/22/2015	04:01:13.566	$GPGGA,040114,2424.3524,N,08157.8172,W,1,9,1.7,15,M,,M,,*5C
06/22/2015	04:01:14.566	$GPGGA,040115,2424.3523,N,08157.8179,W,1,9,1.7,15,M,,M,,*51
06/22/2015	04:01:15.626	$GPGGA,040116,2424.3524,N,08157.8186,W,1,9,1.7,15,M,,M,,*55
06/22/2015	04:01:16.566	$GPGGA,040117,2424.3523,N,08157.8194,W,1,9,1.7,15,M,,M,,*50
06/22/2015	04:01:17.586	$GPGGA,040118,2424.3524,N,08157.8201,W,1,9,1.7,15,M,,M,,*57
06/22/2015	04:01:18.576	$GPGGA,040119,2424.3523,N,08157.8209,W,1,9,1.7,15,M,,M,,*59
06/22/2015	04:01:19.607	$GPGGA,040120,2424.3524,N,08157.8216,W,1,9,1.7,15,M,,M,,*5A
06/22/2015	04:01:20.566	$GPGGA,040121,2424.3523,N,08157.8224,W,1,9,1.7,15,M,,M,,*5D
06/22/2015	04:01:21.577	$GPGGA,040122,2424.3524,N,08157.8233,W,1,9,1.7,15,M,,M,,*5F
06/22/2015	04:01:22.566	$GPGGA,040123,2424.3523,N,08157.8240,W,1,9,1.7,15,M,,M,,*5D
06/22/2015	04:01:23.609	$GPGGA,040124,2424.3524,N,08157.8246,W,1,9,1.7,15,M,,M,,*5B
06/22/2015	04:01:24.566	$GPGGA,040125,2424.3522,N,08157.8255,W,1,9,1.7,15,M,,M,,*5E
06/22/2015	04:01:25.557	$GPGGA,040126,2424.3523,N,08157.8262,W,1,9,1.7,15,M,,M,,*58
06/22/2015	04:01:26.557	$GPGGA,040127,2424.3522,N,08157.8270,W,1,9,1.7,15,M,,M,,*5B
06/22/2015	04:01:27.587	$GPGGA,040128,2424.3521,N,08157.8277,W,1,9,1.7,15,M,,M,,*50
06/22/2015	04:01:28.556	$GPGGA,040129,2424.3521,N,08157.8285,W,1,9,1.7,15,M,,M,,*5C
06/22/2015	04:01:29.536	$GPGGA,040130,2424.3521,N,08157.8293,W,1,9,1.7,15,M,,M,,*53
06/22/2015	04:01:30.536	$GPGGA,040131,2424.3521,N,08157.8300,W,1,9,1.7,15,M,,M,,*59
06/22/2015	04:01:31.546	$GPGGA,040132,2424.3521,N,08157.8307,W,1,9,1.7,15,M,,M,,*5D
06/22/2015	04:01:32.547	$GPGGA,040133,2424.3521,N,08157.8316,W,1,9,1.7,15,M,,M,,*5C
06/22/2015	04:01:33.536	$GPGGA,040134,2424.3521,N,08157.8324,W,1,9,1.7,15,M,,M,,*5A
06/22/2015	04:01:34.536	$GPGGA,040135,2424.3521,N,08157.8331,W,1,9,1.7,15,M,,M,,*5F
06/22/2015	04:01:35.576	$GPGGA,040136,2424.3521,N,08157.8338,W,1,10,1.7,15,M,,M,,*6D
06/22/2015	04:01:36.546	$GPGGA,040137,2424.3521,N,08157.8345,W,1,10,1.7,15,M,,M,,*66
06/22/2015	04:01:37.536	$GPGGA,040138,2424.3521,N,08157.8353,W,1,10,1.7,14,M,,M,,*6F
06/22/2015	04:01:38.546	$GPGGA,040139,2424.3521,N,08157.8360,W,1,10,1.7,14,M,,M,,*6E
06/22/2015	04:01:39.646	$GPGGA,040140,2424.3521,N,08157.8367,W,1,9,1.7,14,M,,M,,*5F
06/22/2015	04:01:40.526	$GPGGA,040141,2424.3521,N,08157.8374,W,1,9,1.7,14,M,,M,,*5C
06/22/2015	04:01:41.536	$GPGGA,040142,2424.3521,N,08157.8382,W,1,10,1.7,14,M,,M,,*6E
06/22/2015	04:01:42.527	$GPGGA,040143,2424.3521,N,08157.8390,W,1,10,1.7,14,M,,M,,*6C
06/22/2015	04:01:43.567	$GPGGA,040144,2424.3519,N,08157.8397,W,1,9,1.7,14,M,,M,,*5F
06/22/2015	04:01:44.527	$GPGGA,040145,2424.3517,N,08157.8407,W,1,9,1.7,14,M,,M,,*5E
06/22/2015	04:01:45.509	$GPGGA,040146,2424.3519,N,08157.8414,W,1,10,1.7,14,M,,M,,*69
06/22/2015	04:01:46.518	$GPGGA,040147,2424.3518,N,08157.8421,W,1,10,1.7,14,M,,M,,*6F
06/22/2015	04:01:47.536	$GPGGA,040148,2424.3517,N,08157.8428,W,1,10,1.7,14,M,,M,,*66
06/22/2015	04:01:48.608	$GPGGA,040149,2424.3517,N,08157.8436,W,1,10,1.7,14,M,,M,,*68
06/22/2015	04:01:49.607	$GPGGA,040150,2424.3517,N,08157.8443,W,1,9,1.7,14,M,,M,,*5A
06/22/2015	04:01:50.520	$GPGGA,040151,2424.3517,N,08157.8450,W,1,9,1.7,14,M,,M,,*59
06/22/2015	04:01:51.536	$GPGGA,040152,2424.3517,N,08157.8458,W,1,10,1.7,14,M,,M,,*6A
06/22/2015	04:01:52.518	$GPGGA,040153,2424.3515,N,08157.8465,W,1,10,1.7,14,M,,M,,*67
06/22/2015	04:01:53.596	$GPGGA,040154,2424.3516,N,08157.8473,W,1,9,1.7,14,M,,M,,*5C
06/22/2015	04:01:54.509	$GPGGA,040155,2424.3515,N,08157.8480,W,1,9,1.7,14,M,,M,,*52
06/22/2015	04:01:55.616	$GPGGA,040156,2424.3516,N,08157.8487,W,1,9,1.7,14,M,,M,,*55
06/22/2015	04:01:56.514	$GPGGA,040157,2424.3515,N,08157.8495,W,1,9,1.7,14,M,,M,,*54
06/22/2015	04:01:57.496	$GPGGA,040158,2424.3516,N,08157.8504,W,1,9,1.7,14,M,,M,,*51
06/22/2015	04:01:58.886	$GPGGA,040159,2424.3515,N,08157.8511,W,1,9,1.7,14,M,,M,,*57
06/22/2015	04:01:59.636	$GPGGA,040200,2424.3516,N,08157.8519,W,1,9,1.7,14,M,,M,,*53
06/22/2015	04:02:00.577	$GPGGA,040201,2424.3515,N,08157.8526,W,1,9,1.7,14,M,,M,,*5D
06/22/2015	04:02:01.587	$GPGGA,040202,2424.3514,N,08157.8533,W,1,9,1.7,14,M,,M,,*5B
06/22/2015	04:02:02.577	$GPGGA,040203,2424.3516,N,08157.8540,W,1,9,1.7,14,M,,M,,*5C
06/22/2015	04:02:03.622	$GPGGA,040204,2424.3515,N,08157.8548,W,1,9,1.7,14,M,,M,,*50
06/22/2015	04:02:04.576	$GPGGA,040205,2424.3516,N,08157.8555,W,1,9,1.7,14,M,,M,,*5E
06/22/2015	04:02:05.587	$GPGGA,040206,2424.3515,N,08157.8562,W,1,9,1.7,14,M,,M,,*5A
06/22/2015	04:02:07.636	$GPGGA,040208,2424.3517,N,08157.8577,W,1,9,1.7,14,M,,M,,*52
06/22/2015	04:02:08.576	$GPGGA,040209,2424.3517,N,08157.8584,W,1,9,1.7,14,M,,M,,*5F
06/22/2015	04:02:09.926	$GPGGA,040210,2424.3517,N,08157.8591,W,1,9,1.7,14,M,,M,,*53
06/22/2015	04:02:10.556	$GPGGA,040211,2424.3517,N,08157.8599,W,1,9,1.7,14,M,,M,,*5A
06/22/2015	04:02:11.556	$GPGGA,040212,2424.3517,N,08157.8606,W,1,9,1.7,13,M,,M,,*5B
06/22/2015	04:02:12.546	$GPGGA,040213,2424.3517,N,08157.8614,W,1,9,1.7,13,M,,M,,*59
06/22/2015	04:02:13.576	$GPGGA,040214,2424.3517,N,08157.8621,W,1,9,1.7,13,M,,M,,*58
06/22/2015	04:02:14.546	$GPGGA,040215,2424.3517,N,08157.8629,W,1,9,1.7,13,M,,M,,*51
06/22/2015	04:02:15.576	$GPGGA,040216,2424.3515,N,08157.8638,W,1,9,1.7,13,M,,M,,*50
06/22/2015	04:02:16.556	$GPGGA,040217,2424.3516,N,08157.8645,W,1,9,1.7,13,M,,M,,*58
06/22/2015	04:02:17.546	$GPGGA,040218,2424.3515,N,08157.8652,W,1,9,1.7,13,M,,M,,*52
06/22/2015	04:02:18.546	$GPGGA,040219,2424.3517,N,08157.8660,W,1,9,1.7,13,M,,M,,*50
06/22/2015	04:02:19.546	$GPGGA,040220,2424.3517,N,08157.8667,W,1,10,1.7,13,M,,M,,*65
06/22/2015	04:02:20.525	$GPGGA,040221,2424.3517,N,08157.8674,W,1,10,1.7,13,M,,M,,*66
06/22/2015	04:02:21.565	$GPGGA,040222,2424.3517,N,08157.8682,W,1,9,1.7,13,M,,M,,*54
06/22/2015	04:02:22.525	$GPGGA,040223,2424.3515,N,08157.8689,W,1,9,1.7,13,M,,M,,*5C
06/22/2015	04:02:23.545	$GPGGA,040224,2424.3516,N,08157.8696,W,1,9,1.7,13,M,,M,,*56
06/22/2015	04:02:24.525	$GPGGA,040225,2424.3517,N,08157.8704,W,1,9,1.7,13,M,,M,,*5C
06/22/2015	04:02:25.535	$GPGGA,040226,2424.3517,N,08157.8712,W,1,10,1.7,13,M,,M,,*60
06/22/2015	04:02:26.515	$GPGGA,040227,2424.3515,N,08157.8719,W,1,10,1.7,13,M,,M,,*68
06/22/2015	04:02:27.897	$GPGGA,040228,2424.3516,N,08157.8726,W,1,9,1.7,13,M,,M,,*50
06/22/2015	04:02:28.536	$GPGGA,040229,2424.3515,N,08157.8735,W,1,9,1.7,13,M,,M,,*50
06/22/2015	04:02:29.526	$GPGGA,040230,2424.3516,N,08157.8743,W,1,9,1.7,13,M,,M,,*5A
06/22/2015	04:02:30.516	$GPGGA,040231,2424.3515,N,08157.8750,W,1,9,1.7,13,M,,M,,*5A
06/22/2015	04:02:31.536	$GPGGA,040232,2424.3517,N,08157.8755,W,1,9,1.7,13,M,,M,,*5E
06/22/2015	04:02:32.508	$GPGGA,040233,2424.3517,N,08157.8764,W,1,9,1.7,13,M,,M,,*5D
06/22/2015	04:02:33.609	$GPGGA,040234,2424.3515,N,08157.8770,W,1,9,1.7,13,M,,M,,*5D
06/22/2015	04:02:34.516	$GPGGA,040235,2424.3516,N,08157.8779,W,1,9,1.7,13,M,,M,,*56
06/22/2015	04:02:35.536	$GPGGA,040236,2424.3514,N,08157.8786,W,1,9,1.7,13,M,,M,,*57
06/22/2015	04:02:36.526	$GPGGA,040237,2424.3514,N,08157.8793,W,1,9,1.7,13,M,,M,,*52
06/22/2015	04:02:37.626	$GPGGA,040238,2424.3514,N,08157.8801,W,1,9,1.7,13,M,,M,,*59
06/22/2015	04:02:38.498	$GPGGA,040239,2424.3514,N,08157.8808,W,1,9,1.7,13,M,,M,,*51
06/22/2015	04:02:39.525	$GPGGA,040240,2424.3514,N,08157.8815,W,1,10,1.7,13,M,,M,,*6B
06/22/2015	04:02:40.655	$GPGGA,040241,2424.3514,N,08157.8823,W,1,10,1.7,13,M,,M,,*6F
06/22/2015	04:02:41.505	$GPGGA,040242,2424.3513,N,08157.8831,W,1,9,1.7,13,M,,M,,*50
06/22/2015	04:02:42.503	$GPGGA,040243,2424.3513,N,08157.8838,W,1,9,1.7,13,M,,M,,*58
06/22/2015	04:02:43.496	$GPGGA,040244,2424.3513,N,08157.8845,W,1,9,1.7,13,M,,M,,*55
06/22/2015	04:02:44.495	$GPGGA,040245,2424.3514,N,08157.8853,W,1,9,1.7,13,M,,M,,*54
06/22/2015	04:02:45.496	$GPGGA,040246,2424.3514,N,08157.8860,W,1,10,1.7,13,M,,M,,*6F
06/22/2015	04:02:46.913	$GPGGA,040247,2424.3513,N,08157.8869,W,1,10,1.7,13,M,,M,,*60
06/22/2015	04:02:47.503	$GPGGA,040248,2424.3513,N,08157.8876,W,1,9,1.7,13,M,,M,,*59
06/22/2015	04:02:48.646	$GPGGA,040249,2424.3512,N,08157.8884,W,1,9,1.9,13,M,,M,,*5A
06/22/2015	04:02:49.607	$GPGGA,040250,2424.3510,N,08157.8891,W,1,9,1.7,12,M,,M,,*5B
06/22/2015	04:02:50.576	$GPGGA,040251,2424.3510,N,08157.8899,W,1,9,1.7,12,M,,M,,*52
06/22/2015	04:02:51.656	$GPGGA,040252,2424.3508,N,08157.8906,W,1,10,1.7,12,M,,M,,*67
06/22/2015	04:02:52.646	$GPGGA,040253,2424.3509,N,08157.8913,W,1,10,1.7,12,M,,M,,*63
06/22/2015	04:02:53.676	$GPGGA,040254,2424.3508,N,08157.8920,W,1,10,1.7,12,M,,M,,*65
06/22/2015	04:02:54.646	$GPGGA,040255,2424.3509,N,08157.8927,W,1,10,1.7,12,M,,M,,*62
06/22/2015	04:02:55.635	$GPGGA,040256,2424.3508,N,08157.8934,W,1,10,1.7,13,M,,M,,*63
06/22/2015	04:02:56.645	$GPGGA,040257,2424.3507,N,08157.8941,W,1,10,1.7,13,M,,M,,*6F
06/22/2015	04:02:57.555	$GPGGA,040258,2424.3509,N,08157.8949,W,1,10,1.7,13,M,,M,,*66
06/22/2015	04:02:58.555	$GPGGA,040259,2424.3508,N,08157.8956,W,1,10,1.7,13,M,,M,,*68
06/22/2015	04:02:59.615	$GPGGA,040300,2424.3509,N,08157.8963,W,1,9,1.7,13,M,,M,,*5A
06/22/2015	04:03:00.556	$GPGGA,040301,2424.3508,N,08157.8970,W,1,9,1.7,13,M,,M,,*58
06/22/2015	04:03:01.606	$GPGGA,040302,2424.3510,N,08157.8977,W,1,10,1.7,13,M,,M,,*6D
06/22/2015	04:03:02.545	$GPGGA,040303,2424.3510,N,08157.8983,W,1,10,1.7,13,M,,M,,*67
06/22/2015	04:03:03.606	$GPGGA,040304,2424.3510,N,08157.8990,W,1,10,1.7,13,M,,M,,*62
06/22/2015	04:03:04.597	$GPGGA,040305,2424.3510,N,08157.8999,W,1,10,1.7,13,M,,M,,*6A
06/22/2015	04:03:05.616	$GPGGA,040306,2424.3510,N,08157.9007,W,1,10,1.7,13,M,,M,,*66
06/22/2015	04:03:06.608	$GPGGA,040307,2424.3510,N,08157.9015,W,1,10,1.7,13,M,,M,,*64
06/22/2015	04:03:07.616	$GPGGA,040308,2424.3510,N,08157.9022,W,1,10,1.7,13,M,,M,,*6F
06/22/2015	04:03:08.596	$GPGGA,040309,2424.3510,N,08157.9029,W,1,10,1.7,13,M,,M,,*65
06/22/2015	04:03:09.576	$GPGGA,040310,2424.3510,N,08157.9037,W,1,10,1.7,13,M,,M,,*62
06/22/2015	04:03:10.536	$GPGGA,040311,2424.3512,N,08157.9046,W,1,10,1.7,13,M,,M,,*67
06/22/2015	04:03:11.606	$GPGGA,040312,2424.3511,N,08157.9053,W,1,10,1.7,13,M,,M,,*63
06/22/2015	04:03:12.596	$GPGGA,040313,2424.3512,N,08157.9061,W,1,10,1.7,13,M,,M,,*60
06/22/2015	04:03:13.535	$GPGGA,040314,2424.3511,N,08157.9068,W,1,10,1.7,14,M,,M,,*6A
06/22/2015	04:03:14.595	$GPGGA,040315,2424.3512,N,08157.9075,W,1,10,1.7,14,M,,M,,*64
06/22/2015	04:03:15.609	$GPGGA,040316,2424.3511,N,08157.9083,W,1,10,1.7,14,M,,M,,*6D
06/22/2015	04:03:16.595	$GPGGA,040317,2424.3513,N,08157.9091,W,1,10,1.7,14,M,,M,,*6D
06/22/2015	04:03:17.575	$GPGGA,040318,2424.3512,N,08157.9098,W,1,10,1.7,14,M,,M,,*6A
06/22/2015	04:03:18.597	$GPGGA,040319,2424.3513,N,08157.9107,W,1,10,1.7,14,M,,M,,*6D
06/22/2015	04:03:19.655	$GPGGA,040320,2424.3512,N,08157.9113,W,1,9,1.7,14,M,,M,,*5B
06/22/2015	04:03:20.646	$GPGGA,040321,2424.3513,N,08157.9122,W,1,9,1.7,14,M,,M,,*59
06/22/2015	04:03:21.636	$GPGGA,040322,2424.3513,N,08157.9129,W,1,10,1.7,14,M,,M,,*69
06/22/2015	04:03:22.510	$GPGGA,040323,2424.3513,N,08157.9136,W,1,10,1.7,14,M,,M,,*66
06/22/2015	04:03:23.576	$GPGGA,040324,2424.3513,N,08157.9144,W,1,10,1.7,14,M,,M,,*64
06/22/2015	04:03:24.586	$GPGGA,040325,2424.3513,N,08157.9151,W,1,10,1.7,14,M,,M,,*61
06/22/2015	04:03:25.646	$GPGGA,040326,2424.3512,N,08157.9159,W,1,9,1.7,14,M,,M,,*53
06/22/2015	04:03:26.576	$GPGGA,040327,2424.3513,N,08157.9167,W,1,9,1.7,14,M,,M,,*5E
06/22/2015	04:03:27.576	$GPGGA,040328,2424.3511,N,08157.9176,W,1,10,1.7,14,M,,M,,*6B
06/22/2015	04:03:28.566	$GPGGA,040329,2424.3512,N,08157.9184,W,1,10,1.7,14,M,,M,,*64
06/22/2015	04:03:29.626	$GPGGA,040330,2424.3513,N,08157.9191,W,1,10,1.7,14,M,,M,,*69
06/22/2015	04:03:30.565	$GPGGA,040331,2424.3512,N,08157.9199,W,1,10,1.7,14,M,,M,,*61
06/22/2015	04:03:31.606	$GPGGA,040332,2424.3513,N,08157.9206,W,1,10,1.7,14,M,,M,,*66
06/22/2015	04:03:32.555	$GPGGA,040333,2424.3513,N,08157.9213,W,1,10,1.7,14,M,,M,,*63
06/22/2015	04:03:33.625	$GPGGA,040334,2424.3514,N,08157.9221,W,1,10,1.7,14,M,,M,,*62
06/22/2015	04:03:34.585	$GPGGA,040335,2424.3514,N,08157.9230,W,1,10,1.7,14,M,,M,,*63
06/22/2015	04:03:35.597	$GPGGA,040336,2424.3514,N,08157.9238,W,1,10,1.7,14,M,,M,,*68
06/22/2015	04:03:36.555	$GPGGA,040337,2424.3516,N,08157.9245,W,1,10,1.7,14,M,,M,,*61
06/22/2015	04:03:37.508	$GPGGA,040338,2424.3515,N,08157.9252,W,1,10,1.7,14,M,,M,,*6B
06/22/2015	04:03:38.586	$GPGGA,040339,2424.3516,N,08157.9260,W,1,10,1.7,14,M,,M,,*68
06/22/2015	04:03:39.612	$GPGGA,040340,2424.3515,N,08157.9268,W,1,9,1.7,14,M,,M,,*55
06/22/2015	04:03:40.576	$GPGGA,040341,2424.3516,N,08157.9275,W,1,9,1.7,14,M,,M,,*5B
06/22/2015	04:03:41.626	$GPGGA,040342,2424.3514,N,08157.9285,W,1,10,1.7,14,M,,M,,*6D
06/22/2015	04:03:42.586	$GPGGA,040343,2424.3514,N,08157.9293,W,1,10,1.7,15,M,,M,,*6A
06/22/2015	04:03:43.626	$GPGGA,040344,2424.3516,N,08157.9300,W,1,10,1.7,15,M,,M,,*64
06/22/2015	04:03:44.576	$GPGGA,040345,2424.3515,N,08157.9308,W,1,10,1.7,15,M,,M,,*6E
06/22/2015	04:03:45.566	$GPGGA,040346,2424.3516,N,08157.9317,W,1,10,1.7,15,M,,M,,*60
06/22/2015	04:03:46.576	$GPGGA,040347,2424.3517,N,08157.9324,W,1,10,1.7,15,M,,M,,*60
06/22/2015	04:03:47.625	$GPGGA,040348,2424.3515,N,08157.9332,W,1,10,1.7,15,M,,M,,*6A
06/22/2015	04:03:48.575	$GPGGA,040349,2424.3516,N,08157.9340,W,1,10,1.7,15,M,,M,,*6D
06/22/2015	04:03:49.575	$GPGGA,040350,2424.3515,N,08157.9347,W,1,10,1.7,15,M,,M,,*61
06/22/2015	04:03:50.585	$GPGGA,040351,2424.3516,N,08157.9355,W,1,10,1.7,15,M,,M,,*60
06/22/2015	04:03:51.614	$GPGGA,040352,2424.3517,N,08157.9364,W,1,10,1.7,15,M,,M,,*60
06/22/2015	04:03:52.565	$GPGGA,040353,2424.3515,N,08157.9371,W,1,10,1.7,15,M,,M,,*67
06/22/2015	04:03:53.555	$GPGGA,040354,2424.3516,N,08157.9379,W,1,9,1.7,15,M,,M,,*53
06/22/2015	04:03:54.565	$GPGGA,040355,2424.3515,N,08157.9386,W,1,9,1.7,15,M,,M,,*51
06/22/2015	04:03:55.586	$GPGGA,040356,2424.3516,N,08157.9394,W,1,10,1.7,15,M,,M,,*6A
06/22/2015	04:03:56.586	$GPGGA,040357,2424.3517,N,08157.9401,W,1,10,1.7,15,M,,M,,*61
06/22/2015	04:03:57.556	$GPGGA,040358,2424.3515,N,08157.9408,W,1,10,1.7,15,M,,M,,*65
06/22/2015	04:03:58.566	$GPGGA,040359,2424.3516,N,08157.9418,W,1,10,1.7,15,M,,M,,*66
06/22/2015	04:03:59.607	$GPGGA,040400,2424.3515,N,08157.9426,W,1,9,1.7,15,M,,M,,*5B
06/22/2015	04:04:00.556	$GPGGA,040401,2424.3516,N,08157.9433,W,1,9,1.7,15,M,,M,,*5D
06/22/2015	04:04:01.556	$GPGGA,040402,2424.3515,N,08157.9440,W,1,9,1.7,15,M,,M,,*59
06/22/2015	04:04:02.586	$GPGGA,040403,2424.3516,N,08157.9448,W,1,9,1.7,15,M,,M,,*53
06/22/2015	04:04:03.546	$GPGGA,040404,2424.3514,N,08157.9456,W,1,10,1.7,15,M,,M,,*61
06/22/2015	04:04:04.556	$GPGGA,040405,2424.3514,N,08157.9465,W,1,10,1.7,15,M,,M,,*60
06/22/2015	04:04:05.535	$GPGGA,040406,2424.3514,N,08157.9472,W,1,9,1.7,15,M,,M,,*5D
06/22/2015	04:04:06.575	$GPGGA,040407,2424.3514,N,08157.9472,W,1,9,1.7,15,M,,M,,*5C
06/22/2015	04:04:07.585	$GPGGA,040408,2424.3514,N,08157.9485,W,1,9,1.7,15,M,,M,,*5B
06/22/2015	04:04:08.555	$GPGGA,040409,2424.3514,N,08157.9485,W,1,9,1.7,15,M,,M,,*5A
06/22/2015	04:04:09.555	$GPGGA,040410,2424.3514,N,08157.9501,W,1,9,1.7,15,M,,M,,*5F
06/22/2015	04:04:10.545	$GPGGA,040411,2424.3514,N,08157.9501,W,1,9,1.7,15,M,,M,,*5E
06/22/2015	04:04:11.635	$GPGGA,040412,2424.3513,N,08157.9516,W,1,9,1.7,15,M,,M,,*5C
06/22/2015	04:04:12.615	$GPGGA,040413,2424.3513,N,08157.9523,W,1,9,1.7,15,M,,M,,*5B
06/22/2015	04:04:13.626	$GPGGA,040414,2424.3513,N,08157.9530,W,1,9,1.7,15,M,,M,,*5E
06/22/2015	04:04:14.626	$GPGGA,040415,2424.3513,N,08157.9538,W,1,9,1.7,15,M,,M,,*57
06/22/2015	04:04:15.636	$GPGGA,040416,2424.3513,N,08157.9545,W,1,10,1.7,14,M,,M,,*67
06/22/2015	04:04:16.536	$GPGGA,040417,2424.3513,N,08157.9545,W,1,10,1.7,14,M,,M,,*66
06/22/2015	04:04:17.515	$GPGGA,040418,2424.3513,N,08157.9560,W,1,10,1.7,14,M,,M,,*6E
06/22/2015	04:04:18.611	$GPGGA,040419,2424.3513,N,08157.9567,W,1,10,1.7,14,M,,M,,*68
06/22/2015	04:04:19.556	$GPGGA,040420,2424.3513,N,08157.9567,W,1,9,1.7,14,M,,M,,*5A
06/22/2015	04:04:20.606	$GPGGA,040421,2424.3513,N,08157.9582,W,1,9,1.7,14,M,,M,,*50
06/22/2015	04:04:21.526	$GPGGA,040422,2424.3513,N,08157.9582,W,1,9,1.7,14,M,,M,,*53
06/22/2015	04:04:22.515	$GPGGA,040423,2424.3513,N,08157.9590,W,1,9,1.7,14,M,,M,,*51
06/22/2015	04:04:23.615	$GPGGA,040424,2424.3512,N,08157.9606,W,1,9,1.7,14,M,,M,,*5B
06/22/2015	04:04:24.615	$GPGGA,040425,2424.3513,N,08157.9613,W,1,9,1.7,14,M,,M,,*5F
06/22/2015	04:04:25.595	$GPGGA,040426,2424.3513,N,08157.9621,W,1,9,1.7,14,M,,M,,*5D
06/22/2015	04:04:26.597	$GPGGA,040427,2424.3513,N,08157.9628,W,1,9,1.7,14,M,,M,,*55
06/22/2015	04:04:27.510	$GPGGA,040428,2424.3513,N,08157.9636,W,1,10,1.7,14,M,,M,,*6D
06/22/2015	04:04:28.585	$GPGGA,040429,2424.3513,N,08157.9644,W,1,10,1.7,14,M,,M,,*69
06/22/2015	04:04:29.605	$GPGGA,040430,2424.3513,N,08157.9653,W,1,9,1.7,14,M,,M,,*5F
06/22/2015	04:04:30.586	$GPGGA,040431,2424.3513,N,08157.9660,W,1,9,1.7,14,M,,M,,*5E
06/22/2015	04:04:31.586	$GPGGA,040432,2424.3513,N,08157.9668,W,1,10,1.7,14,M,,M,,*6D
06/22/2015	04:04:32.576	$GPGGA,040433,2424.3514,N,08157.9675,W,1,10,1.7,14,M,,M,,*67
06/22/2015	04:04:33.616	$GPGGA,040434,2424.3514,N,08157.9682,W,1,10,1.7,14,M,,M,,*68
06/22/2015	04:04:34.586	$GPGGA,040435,2424.3514,N,08157.9690,W,1,10,1.7,14,M,,M,,*6A
06/22/2015	04:04:35.616	$GPGGA,040436,2424.3516,N,08157.9697,W,1,10,1.7,14,M,,M,,*6C
06/22/2015	04:04:36.576	$GPGGA,040437,2424.3515,N,08157.9705,W,1,10,1.7,14,M,,M,,*64
06/22/2015	04:04:37.601	$GPGGA,040438,2424.3516,N,08157.9714,W,1,10,1.7,14,M,,M,,*68
06/22/2015	04:04:38.566	$GPGGA,040439,2424.3515,N,08157.9720,W,1,10,1.7,14,M,,M,,*6D
06/22/2015	04:04:39.601	$GPGGA,040440,2424.3516,N,08157.9729,W,1,10,1.7,14,M,,M,,*69
06/22/2015	04:04:40.565	$GPGGA,040441,2424.3515,N,08157.9736,W,1,10,1.7,14,M,,M,,*65
06/22/2015	04:04:41.585	$GPGGA,040442,2424.3516,N,08157.9743,W,1,10,1.7,14,M,,M,,*67
06/22/2015	04:04:42.565	$GPGGA,040443,2424.3515,N,08157.9751,W,1,10,1.7,14,M,,M,,*66
06/22/2015	04:04:43.597	$GPGGA,040444,2424.3516,N,08157.9758,W,1,10,1.7,14,M,,M,,*6B
06/22/2015	04:04:44.565	$GPGGA,040445,2424.3515,N,08157.9766,W,1,10,1.7,14,M,,M,,*64
06/22/2015	04:04:45.555	$GPGGA,040446,2424.3516,N,08157.9774,W,1,10,1.7,14,M,,M,,*67
06/22/2015	04:04:46.555	$GPGGA,040447,2424.3514,N,08157.9783,W,1,10,1.7,14,M,,M,,*6C
06/22/2015	04:04:47.596	$GPGGA,040448,2424.3516,N,08157.9790,W,1,10,1.7,14,M,,M,,*63
06/22/2015	04:04:48.556	$GPGGA,040449,2424.3515,N,08157.9798,W,1,10,1.7,14,M,,M,,*69
06/22/2015	04:04:49.566	$GPGGA,040450,2424.3516,N,08157.9805,W,1,10,1.7,14,M,,M,,*69
06/22/2015	04:04:50.536	$GPGGA,040451,2424.3515,N,08157.9813,W,1,10,1.7,14,M,,M,,*6C
06/22/2015	04:04:51.546	$GPGGA,040452,2424.3516,N,08157.9821,W,1,10,1.7,14,M,,M,,*6D
06/22/2015	04:04:52.536	$GPGGA,040453,2424.3514,N,08157.9830,W,1,10,1.7,14,M,,M,,*6E
06/22/2015	04:04:53.566	$GPGGA,040454,2424.3516,N,08157.9837,W,1,10,1.7,14,M,,M,,*6C
06/22/2015	04:04:54.536	$GPGGA,040455,2424.3515,N,08157.9845,W,1,10,1.7,14,M,,M,,*6B
06/22/2015	04:04:55.566	$GPGGA,040456,2424.3514,N,08157.9852,W,1,10,1.7,14,M,,M,,*6F
06/22/2015	04:04:56.546	$GPGGA,040457,2424.3516,N,08157.9859,W,1,10,1.7,14,M,,M,,*67
06/22/2015	04:04:57.526	$GPGGA,040458,2424.3515,N,08157.9867,W,1,10,1.7,14,M,,M,,*66
06/22/2015	04:04:58.535	$GPGGA,040459,2424.3514,N,08157.9875,W,1,10,1.7,14,M,,M,,*65
06/22/2015	04:04:59.675	$GPGGA,040500,2424.3513,N,08157.9884,W,1,9,1.7,14,M,,M,,*59
06/22/2015	04:05:00.635	$GPGGA,040501,2424.3513,N,08157.9891,W,1,9,1.7,14,M,,M,,*5C
06/22/2015	04:05:01.635	$GPGGA,040502,2424.3513,N,08157.9899,W,1,10,1.7,14,M,,M,,*6F
06/22/2015	04:05:02.515	$GPGGA,040503,2424.3514,N,08157.9906,W,1,10,1.7,14,M,,M,,*6E
06/22/2015	04:05:03.535	$GPGGA,040504,2424.3514,N,08157.9914,W,1,10,1.7,14,M,,M,,*6A
06/22/2015	04:05:04.511	$GPGGA,040505,2424.3514,N,08157.9921,W,1,10,1.7,14,M,,M,,*6D
06/22/2015	04:05:05.511	$GPGGA,040506,2424.3514,N,08157.9929,W,1,10,1.7,14,M,,M,,*66
06/22/2015	04:05:06.556	$GPGGA,040507,2424.3514,N,08157.9936,W,1,10,1.7,14,M,,M,,*69
06/22/2015	04:05:07.616	$GPGGA,040508,2424.3514,N,08157.9946,W,1,10,1.7,14,M,,M,,*61
06/22/2015	04:05:08.510	$GPGGA,040509,2424.3514,N,08157.9951,W,1,10,1.7,14,M,,M,,*66
06/22/2015	04:05:09.497	$GPGGA,040510,2424.3514,N,08157.9960,W,1,10,1.7,14,M,,M,,*6C
06/22/2015	04:05:10.616	$GPGGA,040511,2424.3514,N,08157.9967,W,1,10,1.7,14,M,,M,,*6A
06/22/2015	04:05:11.521	$GPGGA,040512,2424.3516,N,08157.9975,W,1,10,1.7,14,M,,M,,*68
06/22/2015	04:05:12.496	$GPGGA,040513,2424.3514,N,08157.9982,W,1,10,1.7,14,M,,M,,*63
06/22/2015	04:05:13.626	$GPGGA,040514,2424.3514,N,08157.9990,W,1,10,1.7,14,M,,M,,*67
06/22/2015	04:05:14.606	$GPGGA,040515,2424.3514,N,08157.9998,W,1,10,1.7,14,M,,M,,*6E
06/22/2015	04:05:15.615	$GPGGA,040516,2424.3514,N,08158.0007,W,1,10,1.7,14,M,,M,,*64
06/22/2015	04:05:16.511	$GPGGA,040517,2424.3514,N,08158.0014,W,1,10,1.7,14,M,,M,,*67
06/22/2015	04:05:17.615	$GPGGA,040518,2424.3514,N,08158.0022,W,1,10,1.7,14,M,,M,,*6D
06/22/2015	04:05:18.605	$GPGGA,040519,2424.3514,N,08158.0029,W,1,10,1.7,14,M,,M,,*67
06/22/2015	04:05:19.615	$GPGGA,040520,2424.3513,N,08158.0036,W,1,10,1.7,14,M,,M,,*64
06/22/2015	04:05:20.585	$GPGGA,040521,2424.3513,N,08158.0044,W,1,10,1.7,14,M,,M,,*60
06/22/2015	04:05:21.605	$GPGGA,040522,2424.3514,N,08158.0054,W,1,10,1.7,14,M,,M,,*65
06/22/2015	04:05:22.585	$GPGGA,040523,2424.3514,N,08158.0061,W,1,10,1.7,13,M,,M,,*65
06/22/2015	04:05:23.606	$GPGGA,040524,2424.3513,N,08158.0068,W,1,10,1.7,13,M,,M,,*6C
06/22/2015	04:05:24.576	$GPGGA,040525,2424.3513,N,08158.0076,W,1,10,1.7,13,M,,M,,*62
06/22/2015	04:05:25.586	$GPGGA,040526,2424.3513,N,08158.0083,W,1,10,1.7,13,M,,M,,*6B
06/22/2015	04:05:26.576	$GPGGA,040527,2424.3514,N,08158.0091,W,1,10,1.7,13,M,,M,,*6E
06/22/2015	04:05:27.606	$GPGGA,040528,2424.3513,N,08158.0098,W,1,10,1.7,13,M,,M,,*6F
06/22/2015	04:05:28.576	$GPGGA,040529,2424.3513,N,08158.0106,W,1,10,1.7,13,M,,M,,*68
06/22/2015	04:05:29.586	$GPGGA,040530,2424.3513,N,08158.0115,W,1,10,1.7,13,M,,M,,*62
06/22/2015	04:05:30.576	$GPGGA,040531,2424.3513,N,08158.0123,W,1,10,1.7,13,M,,M,,*66
06/22/2015	04:05:31.586	$GPGGA,040532,2424.3512,N,08158.0130,W,1,10,1.7,13,M,,M,,*66
06/22/2015	04:05:32.565	$GPGGA,040533,2424.3513,N,08158.0137,W,1,10,1.7,13,M,,M,,*61
06/22/2015	04:05:33.585	$GPGGA,040534,2424.3512,N,08158.0145,W,1,10,1.7,13,M,,M,,*62
06/22/2015	04:05:34.565	$GPGGA,040535,2424.3513,N,08158.0153,W,1,10,1.7,13,M,,M,,*65
06/22/2015	04:05:35.565	$GPGGA,040536,2424.3511,N,08158.0160,W,1,10,1.7,13,M,,M,,*64
06/22/2015	04:05:36.555	$GPGGA,040537,2424.3513,N,08158.0168,W,1,10,1.7,13,M,,M,,*6F
06/22/2015	04:05:37.545	$GPGGA,040538,2424.3512,N,08158.0175,W,1,10,1.7,13,M,,M,,*6D
06/22/2015	04:05:38.555	$GPGGA,040539,2424.3513,N,08158.0182,W,1,10,1.7,13,M,,M,,*65
06/22/2015	04:05:39.585	$GPGGA,040540,2424.3512,N,08158.0191,W,1,10,1.7,13,M,,M,,*68
06/22/2015	04:05:40.536	$GPGGA,040541,2424.3513,N,08158.0197,W,1,10,1.7,13,M,,M,,*6E
06/22/2015	04:05:41.556	$GPGGA,040542,2424.3512,N,08158.0206,W,1,10,1.7,13,M,,M,,*67
06/22/2015	04:05:42.546	$GPGGA,040543,2424.3513,N,08158.0213,W,1,10,1.7,13,M,,M,,*63
06/22/2015	04:05:43.546	$GPGGA,040544,2424.3512,N,08158.0220,W,1,10,1.7,13,M,,M,,*65
06/22/2015	04:05:44.526	$GPGGA,040545,2424.3513,N,08158.0228,W,1,10,1.7,13,M,,M,,*6D
06/22/2015	04:05:45.526	$GPGGA,040546,2424.3512,N,08158.0235,W,1,10,1.7,13,M,,M,,*63
06/22/2015	04:05:46.536	$GPGGA,040547,2424.3513,N,08158.0242,W,1,10,1.7,13,M,,M,,*63
06/22/2015	04:05:47.576	$GPGGA,040548,2424.3512,N,08158.0250,W,1,10,1.7,13,M,,M,,*6E
06/22/2015	04:05:48.526	$GPGGA,040549,2424.3513,N,08158.0257,W,1,10,1.7,13,M,,M,,*69
06/22/2015	04:05:49.636	$GPGGA,040550,2424.3513,N,08158.0265,W,1,10,1.7,13,M,,M,,*60
06/22/2015	04:05:50.535	$GPGGA,040551,2424.3513,N,08158.0272,W,1,10,1.7,13,M,,M,,*67
06/22/2015	04:05:51.525	$GPGGA,040552,2424.3513,N,08158.0280,W,1,10,1.7,13,M,,M,,*69
06/22/2015	04:05:52.525	$GPGGA,040553,2424.3513,N,08158.0287,W,1,10,1.7,13,M,,M,,*6F
06/22/2015	04:05:53.645	$GPGGA,040554,2424.3513,N,08158.0296,W,1,10,1.7,13,M,,M,,*68
06/22/2015	04:05:54.635	$GPGGA,040555,2424.3513,N,08158.0303,W,1,10,1.7,13,M,,M,,*64
06/22/2015	04:05:55.645	$GPGGA,040556,2424.3514,N,08158.0311,W,1,10,1.7,13,M,,M,,*63
06/22/2015	04:05:56.525	$GPGGA,040557,2424.3514,N,08158.0319,W,1,10,1.7,13,M,,M,,*6A
06/22/2015	04:05:57.826	$GPGGA,040558,2424.3514,N,08158.0327,W,1,10,1.7,13,M,,M,,*68
06/22/2015	04:05:58.516	$GPGGA,040559,2424.3514,N,08158.0334,W,1,10,1.7,13,M,,M,,*6B
06/22/2015	04:05:59.546	$GPGGA,040600,2424.3514,N,08158.0341,W,1,10,1.7,13,M,,M,,*66
06/22/2015	04:06:00.616	$GPGGA,040601,2424.3514,N,08158.0350,W,1,10,1.7,13,M,,M,,*67
06/22/2015	04:06:01.626	$GPGGA,040602,2424.3514,N,08158.0358,W,1,10,1.7,13,M,,M,,*6C
06/22/2015	04:06:02.508	$GPGGA,040603,2424.3514,N,08158.0365,W,1,10,1.7,13,M,,M,,*63
06/22/2015	04:06:03.626	$GPGGA,040604,2424.3514,N,08158.0372,W,1,10,1.7,13,M,,M,,*62
06/22/2015	04:06:04.506	$GPGGA,040605,2424.3516,N,08158.0380,W,1,10,1.7,13,M,,M,,*6C
06/22/2015	04:06:05.605	$GPGGA,040606,2424.3515,N,08158.0387,W,1,10,1.7,13,M,,M,,*6B
06/22/2015	04:06:06.596	$GPGGA,040607,2424.3516,N,08158.0395,W,1,10,1.7,13,M,,M,,*6A
06/22/2015	04:06:07.610	$GPGGA,040608,2424.3515,N,08158.0402,W,1,10,1.7,13,M,,M,,*6F
06/22/2015	04:06:08.595	$GPGGA,040609,2424.3516,N,08158.0410,W,1,10,1.7,13,M,,M,,*6E
06/22/2015	04:06:09.585	$GPGGA,040610,2424.3515,N,08158.0419,W,1,10,1.7,13,M,,M,,*6C
06/22/2015	04:06:10.585	$GPGGA,040611,2424.3514,N,08158.0426,W,1,10,1.7,13,M,,M,,*60
06/22/2015	04:06:11.585	$GPGGA,040612,2424.3516,N,08158.0434,W,1,10,1.7,13,M,,M,,*62
06/22/2015	04:06:12.575	$GPGGA,040613,2424.3515,N,08158.0441,W,1,10,1.7,13,M,,M,,*62
06/22/2015	04:06:13.613	$GPGGA,040614,2424.3516,N,08158.0448,W,1,10,1.7,13,M,,M,,*6F
06/22/2015	04:06:14.585	$GPGGA,040615,2424.3514,N,08158.0456,W,1,10,1.7,13,M,,M,,*63
06/22/2015	04:06:15.586	$GPGGA,040616,2424.3514,N,08158.0463,W,1,10,1.7,13,M,,M,,*66
06/22/2015	04:06:16.576	$GPGGA,040617,2424.3516,N,08158.0471,W,1,10,1.7,13,M,,M,,*66
06/22/2015	04:06:17.566	$GPGGA,040618,2424.3515,N,08158.0480,W,1,10,1.7,13,M,,M,,*64
06/22/2015	04:06:18.576	$GPGGA,040619,2424.3516,N,08158.0486,W,1,10,1.7,13,M,,M,,*60
06/22/2015	04:06:19.613	$GPGGA,040620,2424.3515,N,08158.0495,W,1,10,1.7,13,M,,M,,*6B
06/22/2015	04:06:20.566	$GPGGA,040621,2424.3516,N,08158.0502,W,1,10,1.7,13,M,,M,,*66
06/22/2015	04:06:21.576	$GPGGA,040622,2424.3515,N,08158.0509,W,1,10,1.7,13,M,,M,,*6D
06/22/2015	04:06:22.566	$GPGGA,040623,2424.3516,N,08158.0517,W,1,10,1.7,13,M,,M,,*60
06/22/2015	04:06:23.586	$GPGGA,040624,2424.3515,N,08158.0525,W,1,10,1.7,13,M,,M,,*65
06/22/2015	04:06:24.566	$GPGGA,040625,2424.3516,N,08158.0532,W,1,10,1.7,13,M,,M,,*61
06/22/2015	04:06:25.585	$GPGGA,040626,2424.3515,N,08158.0539,W,1,10,1.7,13,M,,M,,*6A
06/22/2015	04:06:26.545	$GPGGA,040627,2424.3516,N,08158.0547,W,1,10,1.7,13,M,,M,,*61
06/22/2015	04:06:27.575	$GPGGA,040628,2424.3515,N,08158.0556,W,1,10,1.7,13,M,,M,,*6D
06/22/2015	04:06:28.545	$GPGGA,040629,2424.3514,N,08158.0563,W,1,10,1.7,13,M,,M,,*6B
06/22/2015	04:06:29.565	$GPGGA,040630,2424.3514,N,08158.0571,W,1,10,1.7,13,M,,M,,*60
06/22/2015	04:06:30.535	$GPGGA,040631,2424.3513,N,08158.0578,W,1,10,1.7,13,M,,M,,*6F
06/22/2015	04:06:31.545	$GPGGA,040632,2424.3513,N,08158.0586,W,1,10,1.7,13,M,,M,,*6D
06/22/2015	04:06:32.546	$GPGGA,040633,2424.3513,N,08158.0594,W,1,10,1.7,13,M,,M,,*6F
06/22/2015	04:06:33.536	$GPGGA,040634,2424.3513,N,08158.0601,W,1,10,1.7,13,M,,M,,*67
06/22/2015	04:06:34.536	$GPGGA,040635,2424.3512,N,08158.0610,W,1,10,1.7,13,M,,M,,*67
06/22/2015	04:06:35.566	$GPGGA,040636,2424.3513,N,08158.0616,W,1,10,1.7,13,M,,M,,*63
06/22/2015	04:06:36.526	$GPGGA,040637,2424.3512,N,08158.0623,W,1,10,1.7,13,M,,M,,*65
06/22/2015	04:06:37.526	$GPGGA,040638,2424.3513,N,08158.0632,W,1,10,1.7,13,M,,M,,*6B
06/22/2015	04:06:38.526	$GPGGA,040639,2424.3511,N,08158.0639,W,1,10,1.7,13,M,,M,,*63
06/22/2015	04:06:39.546	$GPGGA,040640,2424.3512,N,08158.0647,W,1,10,1.7,13,M,,M,,*67
06/22/2015	04:06:40.636	$GPGGA,040641,2424.3511,N,08158.0654,W,1,10,1.7,13,M,,M,,*67
06/22/2015	04:06:41.536	$GPGGA,040642,2424.3510,N,08158.0661,W,1,10,1.7,13,M,,M,,*63
06/22/2015	04:06:42.515	$GPGGA,040643,2424.3510,N,08158.0668,W,1,10,1.7,13,M,,M,,*6B
06/22/2015	04:06:43.545	$GPGGA,040644,2424.3510,N,08158.0676,W,1,10,1.7,13,M,,M,,*63
06/22/2015	04:06:44.515	$GPGGA,040645,2424.3510,N,08158.0683,W,1,10,1.7,13,M,,M,,*68
06/22/2015	04:06:45.506	$GPGGA,040646,2424.3510,N,08158.0691,W,1,10,1.7,13,M,,M,,*68
06/22/2015	04:06:46.525	$GPGGA,040647,2424.3510,N,08158.0698,W,1,10,1.7,13,M,,M,,*60
06/22/2015	04:06:47.645	$GPGGA,040648,2424.3510,N,08158.0706,W,1,10,1.7,13,M,,M,,*69
06/22/2015	04:06:48.525	$GPGGA,040649,2424.3510,N,08158.0715,W,1,10,1.7,13,M,,M,,*6A
06/22/2015	04:06:49.635	$GPGGA,040650,2424.3508,N,08158.0722,W,1,10,1.7,13,M,,M,,*6F
06/22/2015	04:06:50.606	$GPGGA,040651,2424.3509,N,08158.0730,W,1,10,1.7,13,M,,M,,*6C
06/22/2015	04:06:51.516	$GPGGA,040652,2424.3507,N,08158.0737,W,1,10,1.7,13,M,,M,,*66
06/22/2015	04:06:52.608	$GPGGA,040653,2424.3509,N,08158.0744,W,1,10,1.7,13,M,,M,,*6D
06/22/2015	04:06:53.599	$GPGGA,040654,2424.3507,N,08158.0751,W,1,10,1.7,13,M,,M,,*60
06/22/2015	04:06:54.607	$GPGGA,040655,2424.3508,N,08158.0759,W,1,10,1.7,13,M,,M,,*66
06/22/2015	04:06:55.626	$GPGGA,040656,2424.3507,N,08158.0767,W,1,10,1.7,13,M,,M,,*67
06/22/2015	04:06:56.512	$GPGGA,040657,2424.3508,N,08158.0774,W,1,10,1.7,13,M,,M,,*6B
06/22/2015	04:06:57.514	$GPGGA,040658,2424.3507,N,08158.0781,W,1,10,1.7,13,M,,M,,*61
06/22/2015	04:06:58.586	$GPGGA,040659,2424.3508,N,08158.0789,W,1,10,1.7,13,M,,M,,*67
06/22/2015	04:06:59.626	$GPGGA,040700,2424.3506,N,08158.0798,W,1,10,1.7,13,M,,M,,*64
06/22/2015	04:07:00.585	$GPGGA,040701,2424.3506,N,08158.0805,W,1,10,1.7,13,M,,M,,*6E
06/22/2015	04:07:01.585	$GPGGA,040702,2424.3506,N,08158.0811,W,1,10,1.7,13,M,,M,,*68
06/22/2015	04:07:02.585	$GPGGA,040703,2424.3505,N,08158.0818,W,1,10,1.7,13,M,,M,,*63
06/22/2015	04:07:03.615	$GPGGA,040704,2424.3506,N,08158.0827,W,1,10,1.7,13,M,,M,,*6B
06/22/2015	04:07:04.585	$GPGGA,040705,2424.3504,N,08158.0835,W,1,10,1.7,13,M,,M,,*6B
06/22/2015	04:07:05.565	$GPGGA,040706,2424.3505,N,08158.0842,W,1,10,1.7,13,M,,M,,*69
06/22/2015	04:07:06.575	$GPGGA,040707,2424.3504,N,08158.0849,W,1,10,1.7,13,M,,M,,*62
06/22/2015	04:07:07.636	$GPGGA,040708,2424.3505,N,08158.0856,W,1,10,1.7,13,M,,M,,*62
06/22/2015	04:07:08.566	$GPGGA,040709,2424.3503,N,08158.0864,W,1,10,1.7,13,M,,M,,*64
06/22/2015	04:07:09.596	$GPGGA,040710,2424.3503,N,08158.0872,W,1,10,1.7,13,M,,M,,*6B
06/22/2015	04:07:10.836	$GPGGA,040711,2424.3503,N,08158.0879,W,1,10,1.7,13,M,,M,,*61
06/22/2015	04:07:11.606	$GPGGA,040712,2424.3503,N,08158.0886,W,1,10,1.7,13,M,,M,,*62
06/22/2015	04:07:12.557	$GPGGA,040713,2424.3503,N,08158.0894,W,1,10,1.7,13,M,,M,,*60
06/22/2015	04:07:13.576	$GPGGA,040714,2424.3501,N,08158.0903,W,1,10,1.7,13,M,,M,,*6A
06/22/2015	04:07:14.566	$GPGGA,040715,2424.3502,N,08158.0910,W,1,10,1.7,13,M,,M,,*6A
06/22/2015	04:07:15.596	$GPGGA,040716,2424.3501,N,08158.0917,W,1,10,1.7,13,M,,M,,*6D
06/22/2015	04:07:16.566	$GPGGA,040717,2424.3502,N,08158.0923,W,1,10,1.7,13,M,,M,,*68
06/22/2015	04:07:17.575	$GPGGA,040718,2424.3500,N,08158.0932,W,1,10,1.7,13,M,,M,,*65
06/22/2015	04:07:18.555	$GPGGA,040719,2424.3499,N,08158.0939,W,1,10,1.7,13,M,,M,,*6E
06/22/2015	04:07:19.585	$GPGGA,040720,2424.3499,N,08158.0947,W,1,10,1.7,13,M,,M,,*6D
06/22/2015	04:07:20.555	$GPGGA,040721,2424.3499,N,08158.0954,W,1,10,1.7,13,M,,M,,*6E
06/22/2015	04:07:21.575	$GPGGA,040722,2424.3499,N,08158.0962,W,1,10,1.7,13,M,,M,,*68
06/22/2015	04:07:22.535	$GPGGA,040723,2424.3497,N,08158.0970,W,1,10,1.7,13,M,,M,,*64
06/22/2015	04:07:23.585	$GPGGA,040724,2424.3499,N,08158.0979,W,1,10,1.7,13,M,,M,,*64
06/22/2015	04:07:24.545	$GPGGA,040725,2424.3497,N,08158.0986,W,1,10,1.7,13,M,,M,,*6B
06/22/2015	04:07:25.566	$GPGGA,040726,2424.3496,N,08158.0993,W,1,10,1.7,13,M,,M,,*6D
06/22/2015	04:07:26.536	$GPGGA,040727,2424.3498,N,08158.1001,W,1,10,1.7,13,M,,M,,*61
06/22/2015	04:07:27.556	$GPGGA,040728,2424.3496,N,08158.1008,W,1,10,1.7,13,M,,M,,*69
06/22/2015	04:07:28.526	$GPGGA,040729,2424.3497,N,08158.1015,W,1,10,1.7,13,M,,M,,*65
06/22/2015	04:07:29.526	$GPGGA,040730,2424.3496,N,08158.1022,W,1,10,1.7,13,M,,M,,*68
06/22/2015	04:07:30.526	$GPGGA,040731,2424.3498,N,08158.1030,W,1,10,1.7,13,M,,M,,*64
06/22/2015	04:07:31.556	$GPGGA,040732,2424.3496,N,08158.1037,W,1,10,1.7,13,M,,M,,*6E
06/22/2015	04:07:32.646	$GPGGA,040733,2424.3497,N,08158.1045,W,1,10,1.7,13,M,,M,,*6B
06/22/2015	04:07:33.616	$GPGGA,040734,2424.3496,N,08158.1052,W,1,10,1.7,13,M,,M,,*6B
06/22/2015	04:07:34.513	$GPGGA,040735,2424.3497,N,08158.1059,W,1,10,1.7,13,M,,M,,*60
06/22/2015	04:07:35.535	$GPGGA,040736,2424.3495,N,08158.1067,W,1,10,1.7,13,M,,M,,*6C
06/22/2015	04:07:36.635	$GPGGA,040737,2424.3495,N,08158.1074,W,1,10,1.7,13,M,,M,,*6F
06/22/2015	04:07:37.625	$GPGGA,040738,2424.3495,N,08158.1082,W,1,10,1.7,13,M,,M,,*69
06/22/2015	04:07:38.510	$GPGGA,040739,2424.3494,N,08158.1089,W,1,10,1.7,13,M,,M,,*62
06/22/2015	04:07:39.685	$GPGGA,040740,2424.3495,N,08158.1096,W,1,10,1.7,13,M,,M,,*63
06/22/2015	04:07:40.525	$GPGGA,040741,2424.3494,N,08158.1103,W,1,10,1.7,13,M,,M,,*6E
06/22/2015	04:07:41.635	$GPGGA,040742,2424.3493,N,08158.1111,W,1,10,1.7,13,M,,M,,*69
06/22/2015	04:07:42.516	$GPGGA,040743,2424.3492,N,08158.1118,W,1,10,1.7,13,M,,M,,*60
06/22/2015	04:07:43.626	$GPGGA,040744,2424.3494,N,08158.1125,W,1,10,1.7,13,M,,M,,*6F
06/22/2015	04:07:44.607	$GPGGA,040745,2424.3492,N,08158.1134,W,1,10,1.7,13,M,,M,,*68
06/22/2015	04:07:45.506	$GPGGA,040746,2424.3492,N,08158.1142,W,1,9,1.7,13,M,,M,,*52
06/22/2015	04:07:46.496	$GPGGA,040747,2424.3492,N,08158.1149,W,1,9,1.7,13,M,,M,,*58
06/22/2015	04:07:47.516	$GPGGA,040748,2424.3492,N,08158.1156,W,1,10,1.7,13,M,,M,,*61
06/22/2015	04:07:48.596	$GPGGA,040749,2424.3492,N,08158.1163,W,1,10,1.7,13,M,,M,,*66
06/22/2015	04:07:49.616	$GPGGA,040750,2424.3492,N,08158.1171,W,1,10,1.7,13,M,,M,,*6D
06/22/2015	04:07:50.888	$GPGGA,040751,2424.3492,N,08158.1178,W,1,10,1.7,13,M,,M,,*65
06/22/2015	04:07:51.686	$GPGGA,040752,2424.3492,N,08158.1185,W,1,10,1.7,13,M,,M,,*64
06/22/2015	04:07:52.585	$GPGGA,040753,2424.3494,N,08158.1193,W,1,10,1.7,13,M,,M,,*64
06/22/2015	04:07:53.595	$GPGGA,040754,2424.3493,N,08158.1200,W,1,10,1.7,13,M,,M,,*6D
06/22/2015	04:07:54.575	$GPGGA,040755,2424.3494,N,08158.1207,W,1,10,1.7,13,M,,M,,*6C
06/22/2015	04:07:55.625	$GPGGA,040756,2424.3493,N,08158.1215,W,1,10,1.7,14,M,,M,,*6C
06/22/2015	04:07:56.585	$GPGGA,040757,2424.3494,N,08158.1222,W,1,10,1.7,14,M,,M,,*6E
06/22/2015	04:07:57.565	$GPGGA,040758,2424.3493,N,08158.1230,W,1,10,1.7,14,M,,M,,*65
06/22/2015	04:07:58.575	$GPGGA,040759,2424.3494,N,08158.1237,W,1,10,1.7,14,M,,M,,*64
06/22/2015	04:07:59.625	$GPGGA,040800,2424.3493,N,08158.1246,W,1,10,1.7,14,M,,M,,*66
06/22/2015	04:08:00.576	$GPGGA,040801,2424.3494,N,08158.1253,W,1,10,1.7,14,M,,M,,*64
06/22/2015	04:08:01.566	$GPGGA,040802,2424.3492,N,08158.1261,W,1,10,1.7,14,M,,M,,*60
06/22/2015	04:08:02.566	$GPGGA,040803,2424.3494,N,08158.1268,W,1,10,1.7,14,M,,M,,*6E
06/22/2015	04:08:03.596	$GPGGA,040804,2424.3492,N,08158.1275,W,1,10,1.7,14,M,,M,,*63
06/22/2015	04:08:04.556	$GPGGA,040805,2424.3492,N,08158.1283,W,1,10,1.7,14,M,,M,,*6B
06/22/2015	04:08:05.599	$GPGGA,040806,2424.3494,N,08158.1290,W,1,10,1.7,14,M,,M,,*6C
06/22/2015	04:08:06.566	$GPGGA,040807,2424.3493,N,08158.1297,W,1,10,1.7,14,M,,M,,*6D
06/22/2015	04:08:07.566	$GPGGA,040808,2424.3492,N,08158.1305,W,1,10,1.7,14,M,,M,,*69
06/22/2015	04:08:08.556	$GPGGA,040809,2424.3494,N,08158.1312,W,1,10,1.7,14,M,,M,,*68
06/22/2015	04:08:09.576	$GPGGA,040810,2424.3493,N,08158.1319,W,1,10,1.7,14,M,,M,,*6C
06/22/2015	04:08:10.555	$GPGGA,040811,2424.3494,N,08158.1326,W,1,10,1.7,14,M,,M,,*66
06/22/2015	04:08:11.565	$GPGGA,040812,2424.3493,N,08158.1334,W,1,10,1.7,14,M,,M,,*61
06/22/2015	04:08:12.545	$GPGGA,040813,2424.3494,N,08158.1341,W,1,10,1.7,14,M,,M,,*65
06/22/2015	04:08:13.565	$GPGGA,040814,2424.3492,N,08158.1349,W,1,10,1.7,14,M,,M,,*6C
06/22/2015	04:08:14.535	$GPGGA,040815,2424.3494,N,08158.1356,W,1,10,1.7,14,M,,M,,*65
06/22/2015	04:08:15.545	$GPGGA,040816,2424.3493,N,08158.1363,W,1,10,1.7,14,M,,M,,*67
06/22/2015	04:08:16.655	$GPGGA,040817,2424.3494,N,08158.1370,W,1,10,1.7,14,M,,M,,*63
06/22/2015	04:08:17.556	$GPGGA,040818,2424.3493,N,08158.1378,W,1,10,1.7,14,M,,M,,*63
06/22/2015	04:08:18.526	$GPGGA,040819,2424.3494,N,08158.1385,W,1,10,1.7,14,M,,M,,*67
06/22/2015	04:08:19.576	$GPGGA,040820,2424.3493,N,08158.1392,W,1,10,1.7,14,M,,M,,*6C
06/22/2015	04:08:20.546	$GPGGA,040821,2424.3494,N,08158.1399,W,1,10,1.7,14,M,,M,,*61
06/22/2015	04:08:21.556	$GPGGA,040822,2424.3493,N,08158.1406,W,1,10,1.7,14,M,,M,,*64
06/22/2015	04:08:22.536	$GPGGA,040823,2424.3494,N,08158.1413,W,1,10,1.7,14,M,,M,,*66
06/22/2015	04:08:23.556	$GPGGA,040824,2424.3495,N,08158.1420,W,1,10,1.7,14,M,,M,,*60
06/22/2015	04:08:24.516	$GPGGA,040825,2424.3494,N,08158.1428,W,1,10,1.7,14,M,,M,,*68
06/22/2015	04:08:25.626	$GPGGA,040826,2424.3495,N,08158.1435,W,1,10,1.7,14,M,,M,,*66
06/22/2015	04:08:26.546	$GPGGA,040827,2424.3493,N,08158.1442,W,1,10,1.7,14,M,,M,,*61
06/22/2015	04:08:27.635	$GPGGA,040828,2424.3494,N,08158.1450,W,1,10,1.7,14,M,,M,,*6A
06/22/2015	04:08:28.525	$GPGGA,040829,2424.3493,N,08158.1457,W,1,10,1.7,14,M,,M,,*6B
06/22/2015	04:08:29.525	$GPGGA,040830,2424.3494,N,08158.1464,W,1,10,1.7,14,M,,M,,*64
06/22/2015	04:08:30.525	$GPGGA,040831,2424.3493,N,08158.1472,W,1,10,1.7,14,M,,M,,*65
06/22/2015	04:08:31.565	$GPGGA,040832,2424.3494,N,08158.1479,W,1,10,1.7,14,M,,M,,*6A
06/22/2015	04:08:32.635	$GPGGA,040833,2424.3493,N,08158.1488,W,1,10,1.7,14,M,,M,,*62
06/22/2015	04:08:33.605	$GPGGA,040834,2424.3494,N,08158.1496,W,1,10,1.6,14,M,,M,,*6C
06/22/2015	04:08:34.525	$GPGGA,040835,2424.3493,N,08158.1503,W,1,10,1.6,14,M,,M,,*67
06/22/2015	04:08:35.626	$GPGGA,040836,2424.3494,N,08158.1510,W,1,10,1.6,14,M,,M,,*61
06/22/2015	04:08:36.516	$GPGGA,040837,2424.3493,N,08158.1518,W,1,10,1.6,14,M,,M,,*6F
06/22/2015	04:08:37.626	$GPGGA,040838,2424.3494,N,08158.1526,W,1,10,1.6,14,M,,M,,*6A
06/22/2015	04:08:38.586	$GPGGA,040839,2424.3493,N,08158.1535,W,1,10,1.6,14,M,,M,,*6E
06/22/2015	04:08:39.636	$GPGGA,040840,2424.3494,N,08158.1542,W,1,10,1.6,14,M,,M,,*67
06/22/2015	04:08:40.604	$GPGGA,040841,2424.3493,N,08158.1550,W,1,10,1.6,14,M,,M,,*62
06/22/2015	04:08:41.616	$GPGGA,040842,2424.3494,N,08158.1557,W,1,10,1.6,14,M,,M,,*61
06/22/2015	04:08:42.586	$GPGGA,040843,2424.3493,N,08158.1565,W,1,10,1.6,14,M,,M,,*66
06/22/2015	04:08:43.616	$GPGGA,040844,2424.3492,N,08158.1573,W,1,10,1.6,14,M,,M,,*67
06/22/2015	04:08:44.609	$GPGGA,040845,2424.3492,N,08158.1582,W,1,10,1.6,14,M,,M,,*68
06/22/2015	04:08:45.595	$GPGGA,040846,2424.3492,N,08158.1590,W,1,10,1.6,14,M,,M,,*68
06/22/2015	04:08:46.576	$GPGGA,040847,2424.3492,N,08158.1597,W,1,10,1.6,14,M,,M,,*6E
06/22/2015	04:08:47.615	$GPGGA,040848,2424.3492,N,08158.1604,W,1,10,1.6,14,M,,M,,*68
06/22/2015	04:08:48.565	$GPGGA,040849,2424.3492,N,08158.1612,W,1,10,1.6,14,M,,M,,*6E
06/22/2015	04:08:49.565	$GPGGA,040850,2424.3492,N,08158.1620,W,1,10,1.6,14,M,,M,,*67
06/22/2015	04:08:50.575	$GPGGA,040851,2424.3492,N,08158.1629,W,1,10,1.6,14,M,,M,,*6F
06/22/2015	04:08:51.595	$GPGGA,040852,2424.3492,N,08158.1636,W,1,10,1.6,14,M,,M,,*62
06/22/2015	04:08:52.566	$GPGGA,040853,2424.3492,N,08158.1644,W,1,10,1.6,14,M,,M,,*66
06/22/2015	04:08:53.586	$GPGGA,040854,2424.3492,N,08158.1651,W,1,10,1.6,13,M,,M,,*62
06/22/2015	04:08:54.566	$GPGGA,040855,2424.3490,N,08158.1659,W,1,10,1.6,13,M,,M,,*69
06/22/2015	04:08:55.577	$GPGGA,040856,2424.3491,N,08158.1666,W,1,10,1.6,13,M,,M,,*67
06/22/2015	04:08:56.566	$GPGGA,040857,2424.3490,N,08158.1673,W,1,10,1.6,13,M,,M,,*63
06/22/2015	04:08:57.576	$GPGGA,040858,2424.3491,N,08158.1681,W,1,10,1.6,13,M,,M,,*60
06/22/2015	04:08:58.566	$GPGGA,040859,2424.3490,N,08158.1689,W,1,10,1.6,13,M,,M,,*68
06/22/2015	04:08:59.599	$GPGGA,040900,2424.3489,N,08158.1698,W,1,10,1.6,13,M,,M,,*6D
06/22/2015	04:09:00.556	$GPGGA,040901,2424.3490,N,08158.1705,W,1,10,1.6,13,M,,M,,*61
06/22/2015	04:09:01.546	$GPGGA,040902,2424.3489,N,08158.1712,W,1,10,1.6,13,M,,M,,*6C
06/22/2015	04:09:02.555	$GPGGA,040903,2424.3488,N,08158.1720,W,1,10,1.6,13,M,,M,,*6D
06/22/2015	04:09:03.555	$GPGGA,040904,2424.3488,N,08158.1727,W,1,10,1.6,13,M,,M,,*6D
06/22/2015	04:09:04.555	$GPGGA,040905,2424.3488,N,08158.1734,W,1,10,1.6,13,M,,M,,*6E
06/22/2015	04:09:05.575	$GPGGA,040906,2424.3488,N,08158.1742,W,1,10,1.6,13,M,,M,,*6C
06/22/2015	04:09:06.535	$GPGGA,040907,2424.3488,N,08158.1749,W,1,10,1.7,13,M,,M,,*67
06/22/2015	04:09:07.545	$GPGGA,040908,2424.3488,N,08158.1757,W,1,10,1.6,13,M,,M,,*66
06/22/2015	04:09:08.645	$GPGGA,040909,2424.3490,N,08158.1764,W,1,10,1.6,13,M,,M,,*6E
06/22/2015	04:09:09.565	$GPGGA,040910,2424.3488,N,08158.1771,W,1,10,1.6,13,M,,M,,*6B
06/22/2015	04:09:10.514	$GPGGA,040911,2424.3488,N,08158.1778,W,1,10,1.6,13,M,,M,,*63
06/22/2015	04:09:11.534	$GPGGA,040912,2424.3490,N,08158.1786,W,1,10,1.6,13,M,,M,,*68
06/22/2015	04:09:12.504	$GPGGA,040913,2424.3489,N,08158.1793,W,1,10,1.6,13,M,,M,,*65
06/22/2015	04:09:13.804	$GPGGA,040914,2424.3488,N,08158.1800,W,1,10,1.6,13,M,,M,,*66
06/22/2015	04:09:14.624	$GPGGA,040915,2424.3488,N,08158.1808,W,1,10,1.6,13,M,,M,,*6F
06/22/2015	04:09:15.614	$GPGGA,040916,2424.3488,N,08158.1815,W,1,10,1.6,13,M,,M,,*60
06/22/2015	04:09:16.504	$GPGGA,040917,2424.3488,N,08158.1822,W,1,10,1.6,13,M,,M,,*65
06/22/2015	04:09:17.624	$GPGGA,040918,2424.3488,N,08158.1829,W,1,10,1.6,13,M,,M,,*61
06/22/2015	04:09:18.524	$GPGGA,040919,2424.3488,N,08158.1837,W,1,10,1.6,13,M,,M,,*6F
06/22/2015	04:09:19.634	$GPGGA,040920,2424.3488,N,08158.1844,W,1,10,1.6,13,M,,M,,*61
06/22/2015	04:09:20.603	$GPGGA,040921,2424.3488,N,08158.1851,W,1,10,1.6,13,M,,M,,*64
06/22/2015	04:09:21.513	$GPGGA,040922,2424.3488,N,08158.1858,W,1,10,1.6,13,M,,M,,*6E
06/22/2015	04:09:22.493	$GPGGA,040923,2424.3488,N,08158.1866,W,1,10,1.6,13,M,,M,,*62
06/22/2015	04:09:23.643	$GPGGA,040924,2424.3488,N,08158.1873,W,1,10,1.6,13,M,,M,,*61
06/22/2015	04:09:24.602	$GPGGA,040925,2424.3488,N,08158.1880,W,1,10,1.6,13,M,,M,,*6C
06/22/2015	04:09:25.603	$GPGGA,040926,2424.3488,N,08158.1889,W,1,10,1.6,13,M,,M,,*66
06/22/2015	04:09:26.596	$GPGGA,040927,2424.3488,N,08158.1895,W,1,10,1.6,13,M,,M,,*6A
06/22/2015	04:09:27.495	$GPGGA,040928,2424.3488,N,08158.1904,W,1,10,1.6,13,M,,M,,*6C
06/22/2015	04:09:28.584	$GPGGA,040929,2424.3488,N,08158.1911,W,1,10,1.6,13,M,,M,,*69
06/22/2015	04:09:29.574	$GPGGA,040930,2424.3488,N,08158.1918,W,1,10,1.6,13,M,,M,,*68
06/22/2015	04:09:30.574	$GPGGA,040931,2424.3488,N,08158.1926,W,1,10,1.6,13,M,,M,,*64
06/22/2015	04:09:31.586	$GPGGA,040932,2424.3488,N,08158.1933,W,1,10,1.6,13,M,,M,,*63
06/22/2015	04:09:32.565	$GPGGA,040933,2424.3488,N,08158.1940,W,1,10,1.6,13,M,,M,,*66
06/22/2015	04:09:33.597	$GPGGA,040934,2424.3488,N,08158.1948,W,1,10,1.6,13,M,,M,,*69
06/22/2015	04:09:34.574	$GPGGA,040935,2424.3488,N,08158.1956,W,1,10,1.6,13,M,,M,,*67
06/22/2015	04:09:35.614	$GPGGA,040936,2424.3488,N,08158.1965,W,1,10,1.6,13,M,,M,,*64
06/22/2015	04:09:36.564	$GPGGA,040937,2424.3488,N,08158.1973,W,1,10,1.6,13,M,,M,,*62
06/22/2015	04:09:37.583	$GPGGA,040938,2424.3488,N,08158.1980,W,1,10,1.6,13,M,,M,,*61
06/22/2015	04:09:38.563	$GPGGA,040939,2424.3488,N,08158.1987,W,1,10,1.6,13,M,,M,,*67
06/22/2015	04:09:39.613	$GPGGA,040940,2424.3486,N,08158.1994,W,1,10,1.6,13,M,,M,,*65
06/22/2015	04:09:40.563	$GPGGA,040941,2424.3487,N,08158.2002,W,1,10,1.6,13,M,,M,,*60
06/22/2015	04:09:41.553	$GPGGA,040942,2424.3486,N,08158.2009,W,1,10,1.6,13,M,,M,,*69
06/22/2015	04:09:42.543	$GPGGA,040943,2424.3487,N,08158.2017,W,1,10,1.6,13,M,,M,,*66
06/22/2015	04:09:43.573	$GPGGA,040944,2424.3488,N,08158.2024,W,1,10,1.6,13,M,,M,,*6E
06/22/2015	04:09:44.553	$GPGGA,040945,2424.3488,N,08158.2032,W,1,10,1.6,13,M,,M,,*68
06/22/2015	04:09:45.574	$GPGGA,040946,2424.3488,N,08158.2041,W,1,10,1.6,13,M,,M,,*6F
06/22/2015	04:09:46.554	$GPGGA,040947,2424.3488,N,08158.2048,W,1,10,1.6,13,M,,M,,*67
06/22/2015	04:09:47.584	$GPGGA,040948,2424.3488,N,08158.2056,W,1,10,1.6,13,M,,M,,*67
06/22/2015	04:09:48.534	$GPGGA,040949,2424.3488,N,08158.2063,W,1,10,1.6,13,M,,M,,*60
06/22/2015	04:09:49.564	$GPGGA,040950,2424.3488,N,08158.2070,W,1,10,1.6,13,M,,M,,*6A
06/22/2015	04:09:50.544	$GPGGA,040951,2424.3488,N,08158.2078,W,1,10,1.6,13,M,,M,,*63
06/22/2015	04:09:51.574	$GPGGA,040952,2424.3490,N,08158.2085,W,1,10,1.6,13,M,,M,,*6B
06/22/2015	04:09:52.544	$GPGGA,040953,2424.3489,N,08158.2092,W,1,10,1.6,13,M,,M,,*64
06/22/2015	04:09:53.524	$GPGGA,040954,2424.3490,N,08158.2100,W,1,10,1.6,13,M,,M,,*61
06/22/2015	04:09:54.534	$GPGGA,040955,2424.3489,N,08158.2107,W,1,10,1.6,13,M,,M,,*6F
06/22/2015	04:09:55.573	$GPGGA,040956,2424.3491,N,08158.2114,W,1,10,1.6,13,M,,M,,*67
06/22/2015	04:09:56.543	$GPGGA,040957,2424.3490,N,08158.2122,W,1,10,1.6,13,M,,M,,*62
06/22/2015	04:09:57.563	$GPGGA,040958,2424.3491,N,08158.2131,W,1,10,1.6,13,M,,M,,*6E
06/22/2015	04:09:58.534	$GPGGA,040959,2424.3490,N,08158.2137,W,1,10,1.6,13,M,,M,,*68
06/22/2015	04:09:59.563	$GPGGA,041000,2424.3492,N,08158.2144,W,1,10,1.6,13,M,,M,,*6A
06/22/2015	04:10:00.533	$GPGGA,041001,2424.3492,N,08158.2153,W,1,10,1.6,13,M,,M,,*6D
06/22/2015	04:10:01.513	$GPGGA,041002,2424.3492,N,08158.2160,W,1,10,1.6,13,M,,M,,*6E
06/22/2015	04:10:02.513	$GPGGA,041003,2424.3492,N,08158.2168,W,1,10,1.6,13,M,,M,,*67
06/22/2015	04:10:03.534	$GPGGA,041004,2424.3492,N,08158.2175,W,1,10,1.6,13,M,,M,,*6C
06/22/2015	04:10:04.614	$GPGGA,041005,2424.3492,N,08158.2182,W,1,10,1.6,13,M,,M,,*65
06/22/2015	04:10:05.534	$GPGGA,041006,2424.3492,N,08158.2189,W,1,10,1.6,13,M,,M,,*6D
06/22/2015	04:10:06.515	$GPGGA,041007,2424.3492,N,08158.2197,W,1,10,1.6,13,M,,M,,*63
06/22/2015	04:10:07.524	$GPGGA,041008,2424.3492,N,08158.2204,W,1,10,1.6,13,M,,M,,*65
06/22/2015	04:10:08.597	$GPGGA,041009,2424.3494,N,08158.2212,W,1,10,1.6,13,M,,M,,*65
06/22/2015	04:10:09.644	$GPGGA,041010,2424.3493,N,08158.2219,W,1,10,1.6,13,M,,M,,*61
06/22/2015	04:10:10.514	$GPGGA,041011,2424.3494,N,08158.2227,W,1,10,1.6,13,M,,M,,*6A
06/22/2015	04:10:11.634	$GPGGA,041012,2424.3495,N,08158.2234,W,1,10,1.6,13,M,,M,,*6A
06/22/2015	04:10:12.513	$GPGGA,041013,2424.3493,N,08158.2243,W,1,10,1.6,13,M,,M,,*6D
06/22/2015	04:10:13.613	$GPGGA,041014,2424.3494,N,08158.2249,W,1,10,1.6,13,M,,M,,*67
06/22/2015	04:10:14.583	$GPGGA,041015,2424.3495,N,08158.2258,W,1,10,1.6,13,M,,M,,*67
06/22/2015	04:10:15.633	$GPGGA,041016,2424.3494,N,08158.2265,W,1,10,1.6,13,M,,M,,*6B
06/22/2015	04:10:16.593	$GPGGA,041017,2424.3493,N,08158.2272,W,1,10,1.6,13,M,,M,,*6B
06/22/2015	04:10:17.593	$GPGGA,041018,2424.3494,N,08158.2280,W,1,10,1.6,13,M,,M,,*6E
06/22/2015	04:10:18.593	$GPGGA,041019,2424.3493,N,08158.2287,W,1,10,1.6,13,M,,M,,*6F
06/22/2015	04:10:19.603	$GPGGA,041020,2424.3494,N,08158.2294,W,1,10,1.6,13,M,,M,,*60
06/22/2015	04:10:20.574	$GPGGA,041021,2424.3493,N,08158.2302,W,1,10,1.6,13,M,,M,,*68
06/22/2015	04:10:21.614	$GPGGA,041022,2424.3494,N,08158.2310,W,1,10,1.6,13,M,,M,,*6F
06/22/2015	04:10:22.574	$GPGGA,041023,2424.3493,N,08158.2317,W,1,10,1.6,13,M,,M,,*6E
06/22/2015	04:10:23.614	$GPGGA,041024,2424.3492,N,08158.2324,W,1,10,1.6,13,M,,M,,*68
06/22/2015	04:10:24.564	$GPGGA,041025,2424.3492,N,08158.2332,W,1,10,1.6,13,M,,M,,*6E
06/22/2015	04:10:25.574	$GPGGA,041026,2424.3492,N,08158.2339,W,1,10,1.6,13,M,,M,,*66
06/22/2015	04:10:26.574	$GPGGA,041027,2424.3492,N,08158.2346,W,1,10,1.6,13,M,,M,,*6F
06/22/2015	04:10:27.614	$GPGGA,041028,2424.3492,N,08158.2355,W,1,10,1.6,13,M,,M,,*62
06/22/2015	04:10:28.564	$GPGGA,041029,2424.3490,N,08158.2361,W,1,10,1.6,13,M,,M,,*66
06/22/2015	04:10:29.554	$GPGGA,041030,2424.3491,N,08158.2368,W,1,10,1.6,13,M,,M,,*66
06/22/2015	04:10:30.573	$GPGGA,041031,2424.3490,N,08158.2377,W,1,10,1.6,13,M,,M,,*68
06/22/2015	04:10:31.563	$GPGGA,041032,2424.3491,N,08158.2384,W,1,10,1.6,13,M,,M,,*66
06/22/2015	04:10:32.563	$GPGGA,041033,2424.3489,N,08158.2392,W,1,10,1.6,13,M,,M,,*69
06/22/2015	04:10:33.593	$GPGGA,041034,2424.3490,N,08158.2399,W,1,10,1.6,13,M,,M,,*6D
06/22/2015	04:10:34.554	$GPGGA,041035,2424.3489,N,08158.2406,W,1,10,1.6,13,M,,M,,*65
06/22/2015	04:10:35.594	$GPGGA,041036,2424.3488,N,08158.2413,W,1,10,1.6,13,M,,M,,*63
06/22/2015	04:10:36.543	$GPGGA,041037,2424.3488,N,08158.2421,W,1,10,1.6,13,M,,M,,*63
06/22/2015	04:10:37.573	$GPGGA,041038,2424.3488,N,08158.2428,W,1,10,1.6,13,M,,M,,*65
06/22/2015	04:10:38.554	$GPGGA,041039,2424.3488,N,08158.2435,W,1,10,1.6,13,M,,M,,*68
06/22/2015	04:10:39.544	$GPGGA,041040,2424.3488,N,08158.2442,W,1,10,1.6,13,M,,M,,*66
06/22/2015	04:10:40.554	$GPGGA,041041,2424.3488,N,08158.2449,W,1,10,1.6,13,M,,M,,*6C
06/22/2015	04:10:41.564	$GPGGA,041042,2424.3488,N,08158.2457,W,1,10,1.6,13,M,,M,,*60
06/22/2015	04:10:42.544	$GPGGA,041043,2424.3488,N,08158.2464,W,1,10,1.6,13,M,,M,,*61
06/22/2015	04:10:43.585	$GPGGA,041044,2424.3486,N,08158.2471,W,1,10,1.6,13,M,,M,,*6C
06/22/2015	04:10:44.534	$GPGGA,041045,2424.3487,N,08158.2479,W,1,10,1.6,13,M,,M,,*64
06/22/2015	04:10:45.534	$GPGGA,041046,2424.3486,N,08158.2486,W,1,10,1.6,13,M,,M,,*66
06/22/2015	04:10:46.524	$GPGGA,041047,2424.3487,N,08158.2493,W,1,10,1.6,13,M,,M,,*62
06/22/2015	04:10:47.543	$GPGGA,041048,2424.3486,N,08158.2501,W,1,10,1.6,13,M,,M,,*66
06/22/2015	04:10:48.523	$GPGGA,041049,2424.3487,N,08158.2508,W,1,10,1.6,13,M,,M,,*6F
06/22/2015	04:10:49.553	$GPGGA,041050,2424.3486,N,08158.2516,W,1,10,1.6,13,M,,M,,*69
06/22/2015	04:10:50.533	$GPGGA,041051,2424.3487,N,08158.2523,W,1,10,1.6,13,M,,M,,*6F
06/22/2015	04:10:51.543	$GPGGA,041052,2424.3488,N,08158.2530,W,1,10,1.6,13,M,,M,,*61
06/22/2015	04:10:52.523	$GPGGA,041053,2424.3488,N,08158.2538,W,1,10,1.6,13,M,,M,,*68
06/22/2015	04:10:53.703	$GPGGA,041054,2424.3488,N,08158.2545,W,1,10,1.6,13,M,,M,,*65
06/22/2015	04:10:54.653	$GPGGA,041055,2424.3488,N,08158.2554,W,1,10,1.6,13,M,,M,,*64
06/22/2015	04:10:55.705	$GPGGA,041056,2424.3488,N,08158.2561,W,1,10,1.6,13,M,,M,,*61
06/22/2015	04:10:56.574	$GPGGA,041057,2424.3488,N,08158.2569,W,1,10,1.6,13,M,,M,,*68
06/22/2015	04:10:57.514	$GPGGA,041058,2424.3488,N,08158.2576,W,1,10,1.6,13,M,,M,,*69
06/22/2015	04:10:58.494	$GPGGA,041059,2424.3488,N,08158.2583,W,1,10,1.6,13,M,,M,,*62
06/22/2015	04:10:59.734	$GPGGA,041100,2424.3488,N,08158.2590,W,1,10,1.6,13,M,,M,,*6D
06/22/2015	04:11:00.544	$GPGGA,041101,2424.3490,N,08158.2598,W,1,10,1.6,13,M,,M,,*6D
06/22/2015	04:11:01.690	$GPGGA,041102,2424.3489,N,08158.2606,W,1,10,1.6,13,M,,M,,*62
06/22/2015	04:11:02.514	$GPGGA,041103,2424.3490,N,08158.2613,W,1,10,1.6,13,M,,M,,*6F
06/22/2015	04:11:03.703	$GPGGA,041104,2424.3491,N,08158.2621,W,1,10,1.6,13,M,,M,,*68
06/22/2015	04:11:04.524	$GPGGA,041105,2424.3490,N,08158.2630,W,1,10,1.6,13,M,,M,,*68
06/22/2015	04:11:05.673	$GPGGA,041106,2424.3491,N,08158.2637,W,1,10,1.6,13,M,,M,,*6D
06/22/2015	04:11:06.597	$GPGGA,041107,2424.3492,N,08158.2645,W,1,10,1.6,13,M,,M,,*6A
06/22/2015	04:11:07.703	$GPGGA,041108,2424.3492,N,08158.2652,W,1,10,1.6,13,M,,M,,*63
06/22/2015	04:11:08.585	$GPGGA,041109,2424.3492,N,08158.2660,W,1,10,1.6,13,M,,M,,*63
06/22/2015	04:11:09.687	$GPGGA,041110,2424.3492,N,08158.2667,W,1,10,1.6,13,M,,M,,*6C
06/22/2015	04:11:10.613	$GPGGA,041111,2424.3492,N,08158.2675,W,1,10,1.6,13,M,,M,,*6E
06/22/2015	04:11:11.699	$GPGGA,041112,2424.3492,N,08158.2682,W,1,10,1.6,13,M,,M,,*65
06/22/2015	04:11:12.573	$GPGGA,041113,2424.3492,N,08158.2691,W,1,10,1.6,13,M,,M,,*66
06/22/2015	04:11:13.690	$GPGGA,041114,2424.3492,N,08158.2699,W,1,10,1.6,13,M,,M,,*69
06/22/2015	04:11:14.624	$GPGGA,041115,2424.3492,N,08158.2706,W,1,10,1.6,13,M,,M,,*6F
06/22/2015	04:11:15.688	$GPGGA,041116,2424.3492,N,08158.2713,W,1,10,1.6,13,M,,M,,*68
06/22/2015	04:11:16.594	$GPGGA,041117,2424.3492,N,08158.2721,W,1,10,1.6,13,M,,M,,*68
06/22/2015	04:11:17.654	$GPGGA,041118,2424.3492,N,08158.2729,W,1,10,1.6,13,M,,M,,*6F
06/22/2015	04:11:18.598	$GPGGA,041119,2424.3492,N,08158.2738,W,1,10,1.6,13,M,,M,,*6E
06/22/2015	04:11:19.698	$GPGGA,041120,2424.3492,N,08158.2745,W,1,10,1.6,13,M,,M,,*6E
06/22/2015	04:11:20.554	$GPGGA,041121,2424.3494,N,08158.2753,W,1,10,1.6,13,M,,M,,*6E
06/22/2015	04:11:21.688	$GPGGA,041122,2424.3492,N,08158.2760,W,1,10,1.6,13,M,,M,,*6B
06/22/2015	04:11:22.588	$GPGGA,041123,2424.3494,N,08158.2768,W,1,10,1.6,13,M,,M,,*64
06/22/2015	04:11:23.673	$GPGGA,041124,2424.3493,N,08158.2776,W,1,10,1.6,13,M,,M,,*6B
06/22/2015	04:11:24.583	$GPGGA,041125,2424.3494,N,08158.2783,W,1,10,1.6,13,M,,M,,*67
06/22/2015	04:11:25.543	$GPGGA,041126,2424.3493,N,08158.2790,W,1,10,1.6,13,M,,M,,*61
06/22/2015	04:11:26.584	$GPGGA,041127,2424.3494,N,08158.2800,W,1,10,1.6,13,M,,M,,*61
06/22/2015	04:11:27.653	$GPGGA,041128,2424.3493,N,08158.2807,W,1,10,1.6,13,M,,M,,*6E
06/22/2015	04:11:28.543	$GPGGA,041129,2424.3494,N,08158.2814,W,1,10,1.6,13,M,,M,,*6A
06/22/2015	04:11:29.633	$GPGGA,041130,2424.3493,N,08158.2822,W,1,10,1.6,13,M,,M,,*60
06/22/2015	04:11:30.584	$GPGGA,041131,2424.3494,N,08158.2830,W,1,10,1.6,13,M,,M,,*65
06/22/2015	04:11:31.674	$GPGGA,041132,2424.3492,N,08158.2837,W,1,10,1.6,13,M,,M,,*67
06/22/2015	04:11:32.534	$GPGGA,041133,2424.3492,N,08158.2845,W,1,10,1.6,13,M,,M,,*63
06/22/2015	04:11:33.644	$GPGGA,041134,2424.3492,N,08158.2852,W,1,10,1.6,13,M,,M,,*62
06/22/2015	04:11:34.534	$GPGGA,041135,2424.3492,N,08158.2861,W,1,10,1.6,13,M,,M,,*63
06/22/2015	04:11:35.644	$GPGGA,041136,2424.3492,N,08158.2868,W,1,10,1.6,13,M,,M,,*69
06/22/2015	04:11:36.554	$GPGGA,041137,2424.3492,N,08158.2876,W,1,10,1.6,13,M,,M,,*67
06/22/2015	04:11:37.634	$GPGGA,041138,2424.3494,N,08158.2883,W,1,10,1.6,13,M,,M,,*64
06/22/2015	04:11:38.524	$GPGGA,041139,2424.3493,N,08158.2890,W,1,10,1.6,13,M,,M,,*60
06/22/2015	04:11:39.643	$GPGGA,041140,2424.3492,N,08158.2897,W,1,10,1.6,13,M,,M,,*68
06/22/2015	04:11:40.533	$GPGGA,041141,2424.3492,N,08158.2905,W,1,10,1.6,13,M,,M,,*63
06/22/2015	04:11:41.623	$GPGGA,041142,2424.3492,N,08158.2912,W,1,10,1.6,13,M,,M,,*66
06/22/2015	04:11:42.523	$GPGGA,041143,2424.3492,N,08158.2920,W,1,10,1.6,13,M,,M,,*66
