Software Version Number: 1	Data File Format Number: 1	Build Version Number: 1	Error Count Since VI Started: 1	Manufacturer: Raytheon	 Model Number: RayMarine 120	 S/N: 	 Cal Date: 	 Wind Direction Offset: 0.00	 Slope (M)1: 0.00	 Offset (B)1: 0.00	 Slope (M)2: 0.00	 Offset (B)2: 0.00	 Slope (M)3: 0.00	 Offset (B)3: 0.00	 Slope (M)4: 0.00	 Offset (B)4: 0.00	 Slope (M)5: 0.00	 Offset (B)5: 0.00	 Slope (M)6: 0.00	 Offset (B)6: 0.00
Computer Date	Computer Time	GGA String
06/15/2015	13:00:00.511	$GPGGA,130001,2426.6976,N,08058.1312,W,1,11,1.3,15,M,,M,,*6D
06/15/2015	13:00:01.611	$GPGGA,130002,2426.6971,N,08058.1304,W,1,11,1.3,15,M,,M,,*6E
06/15/2015	13:00:02.601	$GPGGA,130003,2426.6967,N,08058.1295,W,1,11,1.3,15,M,,M,,*61
06/15/2015	13:00:03.644	$GPGGA,130004,2426.6960,N,08058.1288,W,1,11,1.3,15,M,,M,,*6D
06/15/2015	13:00:04.501	$GPGGA,130005,2426.6955,N,08058.1282,W,1,11,1.3,15,M,,M,,*60
06/15/2015	13:00:05.491	$GPGGA,130006,2426.6951,N,08058.1272,W,1,11,1.3,15,M,,M,,*68
06/15/2015	13:00:06.492	$GPGGA,130007,2426.6945,N,08058.1264,W,1,11,1.3,15,M,,M,,*6B
06/15/2015	13:00:07.911	$GPGGA,130008,2426.6939,N,08058.1260,W,1,11,1.3,15,M,,M,,*6B
06/15/2015	13:00:08.591	$GPGGA,130009,2426.6935,N,08058.1251,W,1,11,1.3,15,M,,M,,*64
06/15/2015	13:00:09.601	$GPGGA,130010,2426.6931,N,08058.1241,W,1,11,1.3,15,M,,M,,*69
06/15/2015	13:00:10.571	$GPGGA,130011,2426.6924,N,08058.1236,W,1,11,1.3,15,M,,M,,*6C
06/15/2015	13:00:11.631	$GPGGA,130012,2426.6919,N,08058.1229,W,1,10,1.4,15,M,,M,,*69
06/15/2015	13:00:12.581	$GPGGA,130013,2426.6914,N,08058.1220,W,1,10,1.3,15,M,,M,,*6B
06/15/2015	13:00:13.591	$GPGGA,130014,2426.6909,N,08058.1213,W,1,11,1.3,15,M,,M,,*61
06/15/2015	13:00:14.981	$GPGGA,130015,2426.6903,N,08058.1206,W,1,11,1.3,15,M,,M,,*6E
06/15/2015	13:00:15.591	$GPGGA,130016,2426.6897,N,08058.1198,W,1,11,1.3,15,M,,M,,*65
06/15/2015	13:00:16.571	$GPGGA,130017,2426.6893,N,08058.1190,W,1,11,1.4,15,M,,M,,*6F
06/15/2015	13:00:17.581	$GPGGA,130018,2426.6888,N,08058.1185,W,1,9,1.4,15,M,,M,,*57
06/15/2015	13:00:18.562	$GPGGA,130019,2426.6881,N,08058.1177,W,1,9,1.4,15,M,,M,,*52
06/15/2015	13:00:19.571	$GPGGA,130020,2426.6875,N,08058.1170,W,1,10,1.4,15,M,,M,,*6C
06/15/2015	13:00:20.561	$GPGGA,130021,2426.6870,N,08058.1164,W,1,10,1.3,15,M,,M,,*6A
06/15/2015	13:00:21.561	$GPGGA,130022,2426.6863,N,08058.1156,W,1,9,1.4,15,M,,M,,*55
06/15/2015	13:00:22.552	$GPGGA,130023,2426.6859,N,08058.1147,W,1,9,1.4,15,M,,M,,*5D
06/15/2015	13:00:23.591	$GPGGA,130024,2426.6855,N,08058.1138,W,1,10,1.4,15,M,,M,,*66
06/15/2015	13:00:24.553	$GPGGA,130025,2426.6848,N,08058.1131,W,1,10,1.3,15,M,,M,,*65
06/15/2015	13:00:25.541	$GPGGA,130026,2426.6841,N,08058.1126,W,1,9,1.4,15,M,,M,,*56
06/15/2015	13:00:26.543	$GPGGA,130027,2426.6837,N,08058.1118,W,1,9,1.4,15,M,,M,,*5B
06/15/2015	13:00:27.554	$GPGGA,130028,2426.6831,N,08058.1110,W,1,10,1.4,15,M,,M,,*62
06/15/2015	13:00:28.543	$GPGGA,130029,2426.6824,N,08058.1104,W,1,10,1.3,15,M,,M,,*65
06/15/2015	13:00:29.532	$GPGGA,130030,2426.6819,N,08058.1097,W,1,10,1.4,15,M,,M,,*6F
06/15/2015	13:00:30.543	$GPGGA,130031,2426.6813,N,08058.1087,W,1,10,1.4,15,M,,M,,*65
06/15/2015	13:00:31.561	$GPGGA,130032,2426.6807,N,08058.1079,W,1,10,1.4,15,M,,M,,*62
06/15/2015	13:00:32.531	$GPGGA,130033,2426.6801,N,08058.1072,W,1,10,1.3,15,M,,M,,*69
06/15/2015	13:00:33.521	$GPGGA,130034,2426.6794,N,08058.1064,W,1,11,1.3,15,M,,M,,*6B
06/15/2015	13:00:34.545	$GPGGA,130035,2426.6788,N,08058.1057,W,1,11,1.3,15,M,,M,,*67
06/15/2015	13:00:35.554	$GPGGA,130036,2426.6781,N,08058.1049,W,1,11,1.3,15,M,,M,,*62
06/15/2015	13:00:36.642	$GPGGA,130037,2426.6776,N,08058.1042,W,1,11,1.3,15,M,,M,,*60
06/15/2015	13:00:37.541	$GPGGA,130038,2426.6770,N,08058.1035,W,1,11,1.3,15,M,,M,,*69
06/15/2015	13:00:38.511	$GPGGA,130039,2426.6762,N,08058.1028,W,1,11,1.4,15,M,,M,,*60
06/15/2015	13:00:39.562	$GPGGA,130040,2426.6758,N,08058.1020,W,1,11,1.3,15,M,,M,,*68
06/15/2015	13:00:40.611	$GPGGA,130041,2426.6752,N,08058.1013,W,1,11,1.4,15,M,,M,,*64
06/15/2015	13:00:41.622	$GPGGA,130042,2426.6745,N,08058.1006,W,1,11,1.3,15,M,,M,,*62
06/15/2015	13:00:42.531	$GPGGA,130043,2426.6740,N,08058.0998,W,1,11,1.3,15,M,,M,,*69
06/15/2015	13:00:43.653	$GPGGA,130044,2426.6734,N,08058.0991,W,1,11,1.3,15,M,,M,,*64
06/15/2015	13:00:44.521	$GPGGA,130045,2426.6729,N,08058.0983,W,1,11,1.3,15,M,,M,,*6A
06/15/2015	13:00:45.611	$GPGGA,130046,2426.6723,N,08058.0974,W,1,10,1.4,15,M,,M,,*6D
06/15/2015	13:00:46.511	$GPGGA,130047,2426.6718,N,08058.0967,W,1,10,1.3,15,M,,M,,*61
06/15/2015	13:00:47.622	$GPGGA,130048,2426.6711,N,08058.0961,W,1,11,1.3,15,M,,M,,*60
06/15/2015	13:00:48.501	$GPGGA,130049,2426.6707,N,08058.0952,W,1,11,1.3,15,M,,M,,*66
06/15/2015	13:00:49.621	$GPGGA,130050,2426.6701,N,08058.0943,W,1,11,1.3,15,M,,M,,*68
06/15/2015	13:00:50.601	$GPGGA,130051,2426.6694,N,08058.0936,W,1,11,1.3,15,M,,M,,*66
06/15/2015	13:00:51.601	$GPGGA,130052,2426.6689,N,08058.0931,W,1,11,1.3,15,M,,M,,*6E
06/15/2015	13:00:52.581	$GPGGA,130053,2426.6682,N,08058.0923,W,1,11,1.3,15,M,,M,,*67
06/15/2015	13:00:53.581	$GPGGA,130054,2426.6678,N,08058.0914,W,1,11,1.3,15,M,,M,,*61
06/15/2015	13:00:54.601	$GPGGA,130055,2426.6671,N,08058.0906,W,1,11,1.3,15,M,,M,,*6A
06/15/2015	13:00:55.591	$GPGGA,130056,2426.6666,N,08058.0900,W,1,11,1.3,15,M,,M,,*69
06/15/2015	13:00:56.581	$GPGGA,130057,2426.6660,N,08058.0892,W,1,11,1.3,15,M,,M,,*64
06/15/2015	13:00:57.591	$GPGGA,130058,2426.6655,N,08058.0883,W,1,11,1.3,15,M,,M,,*6D
06/15/2015	13:00:58.581	$GPGGA,130059,2426.6651,N,08058.0875,W,1,11,1.3,15,M,,M,,*61
06/15/2015	13:00:59.631	$GPGGA,130100,2426.6646,N,08058.0867,W,1,11,1.3,15,M,,M,,*69
06/15/2015	13:01:00.571	$GPGGA,130101,2426.6640,N,08058.0860,W,1,11,1.3,15,M,,M,,*69
06/15/2015	13:01:01.591	$GPGGA,130102,2426.6635,N,08058.0851,W,1,11,1.3,15,M,,M,,*6A
06/15/2015	13:01:02.571	$GPGGA,130103,2426.6630,N,08058.0842,W,1,11,1.3,15,M,,M,,*6C
06/15/2015	13:01:03.621	$GPGGA,130104,2426.6625,N,08058.0838,W,1,10,1.3,15,M,,M,,*63
06/15/2015	13:01:04.571	$GPGGA,130105,2426.6619,N,08058.0832,W,1,10,1.3,15,M,,M,,*67
06/15/2015	13:01:05.561	$GPGGA,130106,2426.6613,N,08058.0822,W,1,11,1.3,15,M,,M,,*6E
06/15/2015	13:01:06.571	$GPGGA,130107,2426.6609,N,08058.0814,W,1,11,1.3,15,M,,M,,*61
06/15/2015	13:01:07.581	$GPGGA,130108,2426.6603,N,08058.0809,W,1,10,1.3,15,M,,M,,*69
06/15/2015	13:01:08.552	$GPGGA,130109,2426.6599,N,08058.0802,W,1,10,1.3,15,M,,M,,*63
06/15/2015	13:01:09.546	$GPGGA,130110,2426.6595,N,08058.0792,W,1,11,1.3,15,M,,M,,*60
06/15/2015	13:01:10.545	$GPGGA,130111,2426.6589,N,08058.0783,W,1,11,1.3,15,M,,M,,*6C
06/15/2015	13:01:11.571	$GPGGA,130112,2426.6583,N,08058.0776,W,1,11,1.3,15,M,,M,,*6F
06/15/2015	13:01:12.547	$GPGGA,130113,2426.6578,N,08058.0768,W,1,11,1.3,15,M,,M,,*65
06/15/2015	13:01:13.544	$GPGGA,130114,2426.6575,N,08058.0758,W,1,11,1.3,15,M,,M,,*6C
06/15/2015	13:01:14.546	$GPGGA,130115,2426.6570,N,08058.0750,W,1,11,1.3,15,M,,M,,*60
06/15/2015	13:01:15.542	$GPGGA,130116,2426.6563,N,08058.0744,W,1,10,1.3,15,M,,M,,*65
06/15/2015	13:01:16.554	$GPGGA,130117,2426.6559,N,08058.0738,W,1,10,1.2,15,M,,M,,*67
06/15/2015	13:01:17.541	$GPGGA,130118,2426.6554,N,08058.0728,W,1,11,1.2,15,M,,M,,*65
06/15/2015	13:01:18.531	$GPGGA,130119,2426.6548,N,08058.0720,W,1,11,1.2,15,M,,M,,*61
06/15/2015	13:01:19.571	$GPGGA,130120,2426.6542,N,08058.0715,W,1,11,1.2,15,M,,M,,*67
06/15/2015	13:01:20.551	$GPGGA,130121,2426.6537,N,08058.0708,W,1,11,1.2,15,M,,M,,*68
06/15/2015	13:01:21.522	$GPGGA,130122,2426.6532,N,08058.0699,W,1,11,1.2,15,M,,M,,*67
06/15/2015	13:01:22.544	$GPGGA,130123,2426.6527,N,08058.0690,W,1,11,1.2,15,M,,M,,*6B
06/15/2015	13:01:23.542	$GPGGA,130124,2426.6523,N,08058.0682,W,1,10,1.3,15,M,,M,,*6B
06/15/2015	13:01:24.531	$GPGGA,130125,2426.6516,N,08058.0675,W,1,10,1.2,15,M,,M,,*65
06/15/2015	13:01:25.531	$GPGGA,130126,2426.6512,N,08058.0668,W,1,11,1.2,15,M,,M,,*6F
06/15/2015	13:01:26.521	$GPGGA,130127,2426.6505,N,08058.0661,W,1,11,1.2,15,M,,M,,*61
06/15/2015	13:01:27.551	$GPGGA,130128,2426.6501,N,08058.0651,W,1,11,1.2,15,M,,M,,*69
06/15/2015	13:01:28.511	$GPGGA,130129,2426.6496,N,08058.0642,W,1,11,1.3,15,M,,M,,*64
06/15/2015	13:01:29.644	$GPGGA,130130,2426.6490,N,08058.0634,W,1,10,1.2,15,M,,M,,*6B
06/15/2015	13:01:30.531	$GPGGA,130131,2426.6485,N,08058.0626,W,1,10,1.2,15,M,,M,,*6D
06/15/2015	13:01:32.024	$GPGGA,130132,2426.6480,N,08058.0616,W,1,11,1.2,15,M,,M,,*69
06/15/2015	13:01:32.501	$GPGGA,130133,2426.6476,N,08058.0609,W,1,11,1.3,15,M,,M,,*6E
06/15/2015	13:01:33.521	$GPGGA,130134,2426.6469,N,08058.0602,W,1,11,1.2,15,M,,M,,*6D
06/15/2015	13:01:34.501	$GPGGA,130135,2426.6463,N,08058.0595,W,1,11,1.2,15,M,,M,,*6B
06/15/2015	13:01:35.631	$GPGGA,130136,2426.6459,N,08058.0583,W,1,11,1.4,15,M,,M,,*60
06/15/2015	13:01:36.511	$GPGGA,130137,2426.6452,N,08058.0573,W,1,11,1.4,15,M,,M,,*65
06/15/2015	13:01:37.644	$GPGGA,130138,2426.6447,N,08058.0566,W,1,11,1.2,15,M,,M,,*6C
06/15/2015	13:01:38.601	$GPGGA,130139,2426.6442,N,08058.0557,W,1,11,1.2,15,M,,M,,*6A
06/15/2015	13:01:39.521	$GPGGA,130140,2426.6437,N,08058.0547,W,1,11,1.2,15,M,,M,,*67
06/15/2015	13:01:40.501	$GPGGA,130141,2426.6430,N,08058.0538,W,1,11,1.3,15,M,,M,,*68
06/15/2015	13:01:41.611	$GPGGA,130142,2426.6424,N,08058.0531,W,1,10,1.2,15,M,,M,,*67
06/15/2015	13:01:42.591	$GPGGA,130143,2426.6420,N,08058.0524,W,1,10,1.2,15,M,,M,,*66
06/15/2015	13:01:43.631	$GPGGA,130144,2426.6415,N,08058.0515,W,1,11,1.3,15,M,,M,,*65
06/15/2015	13:01:44.581	$GPGGA,130145,2426.6408,N,08058.0505,W,1,11,1.2,15,M,,M,,*68
06/15/2015	13:01:45.611	$GPGGA,130146,2426.6402,N,08058.0497,W,1,11,1.2,15,M,,M,,*6B
06/15/2015	13:01:46.592	$GPGGA,130147,2426.6398,N,08058.0487,W,1,11,1.2,15,M,,M,,*6F
06/15/2015	13:01:47.631	$GPGGA,130148,2426.6393,N,08058.0479,W,1,11,1.2,15,M,,M,,*6A
06/15/2015	13:01:48.581	$GPGGA,130149,2426.6386,N,08058.0470,W,1,11,1.2,15,M,,M,,*66
06/15/2015	13:01:49.591	$GPGGA,130150,2426.6382,N,08058.0462,W,1,11,1.2,15,M,,M,,*69
06/15/2015	13:01:50.571	$GPGGA,130151,2426.6376,N,08058.0452,W,1,11,1.2,15,M,,M,,*60
06/15/2015	13:01:51.602	$GPGGA,130152,2426.6371,N,08058.0443,W,1,11,1.2,15,M,,M,,*64
06/15/2015	13:01:52.561	$GPGGA,130153,2426.6364,N,08058.0435,W,1,11,1.2,15,M,,M,,*60
06/15/2015	13:01:53.591	$GPGGA,130154,2426.6359,N,08058.0425,W,1,11,1.2,15,M,,M,,*68
06/15/2015	13:01:54.561	$GPGGA,130155,2426.6354,N,08058.0415,W,1,11,1.4,15,M,,M,,*61
06/15/2015	13:01:55.631	$GPGGA,130156,2426.6349,N,08058.0408,W,1,9,1.2,15,M,,M,,*5D
06/15/2015	13:01:56.561	$GPGGA,130157,2426.6342,N,08058.0400,W,1,9,1.2,15,M,,M,,*5F
06/15/2015	13:01:57.581	$GPGGA,130158,2426.6337,N,08058.0390,W,1,11,1.2,15,M,,M,,*65
06/15/2015	13:01:58.581	$GPGGA,130159,2426.6332,N,08058.0379,W,1,11,1.2,15,M,,M,,*66
06/15/2015	13:01:59.601	$GPGGA,130200,2426.6326,N,08058.0370,W,1,11,1.4,15,M,,M,,*63
06/15/2015	13:02:00.560	$GPGGA,130201,2426.6320,N,08058.0363,W,1,11,1.2,15,M,,M,,*60
06/15/2015	13:02:01.554	$GPGGA,130202,2426.6314,N,08058.0354,W,1,11,1.2,15,M,,M,,*60
06/15/2015	13:02:02.546	$GPGGA,130203,2426.6310,N,08058.0343,W,1,11,1.2,15,M,,M,,*63
06/15/2015	13:02:03.612	$GPGGA,130204,2426.6303,N,08058.0334,W,1,11,1.2,15,M,,M,,*66
06/15/2015	13:02:04.544	$GPGGA,130205,2426.6299,N,08058.0326,W,1,11,1.2,15,M,,M,,*66
06/15/2015	13:02:05.571	$GPGGA,130206,2426.6292,N,08058.0317,W,1,11,1.2,15,M,,M,,*6C
06/15/2015	13:02:06.651	$GPGGA,130207,2426.6286,N,08058.0309,W,1,11,1.2,15,M,,M,,*67
06/15/2015	13:02:07.581	$GPGGA,130208,2426.6281,N,08058.0300,W,1,11,1.2,15,M,,M,,*66
06/15/2015	13:02:08.556	$GPGGA,130209,2426.6275,N,08058.0291,W,1,11,1.2,15,M,,M,,*65
06/15/2015	13:02:09.563	$GPGGA,130210,2426.6268,N,08058.0283,W,1,11,1.2,15,M,,M,,*62
06/15/2015	13:02:10.541	$GPGGA,130211,2426.6264,N,08058.0275,W,1,11,1.2,15,M,,M,,*66
06/15/2015	13:02:11.571	$GPGGA,130212,2426.6259,N,08058.0266,W,1,11,1.2,15,M,,M,,*69
06/15/2015	13:02:12.556	$GPGGA,130213,2426.6252,N,08058.0259,W,1,11,1.4,15,M,,M,,*69
06/15/2015	13:02:13.571	$GPGGA,130214,2426.6245,N,08058.0252,W,1,10,1.4,15,M,,M,,*62
06/15/2015	13:02:14.531	$GPGGA,130215,2426.6239,N,08058.0244,W,1,10,1.2,15,M,,M,,*69
06/15/2015	13:02:15.564	$GPGGA,130216,2426.6234,N,08058.0237,W,1,11,1.3,15,M,,M,,*63
06/15/2015	13:02:16.531	$GPGGA,130217,2426.6228,N,08058.0230,W,1,11,1.7,15,M,,M,,*6C
06/15/2015	13:02:17.551	$GPGGA,130218,2426.6221,N,08058.0221,W,1,9,1.2,15,M,,M,,*56
06/15/2015	13:02:18.531	$GPGGA,130219,2426.6216,N,08058.0213,W,1,9,1.2,15,M,,M,,*52
06/15/2015	13:02:19.642	$GPGGA,130220,2426.6210,N,08058.0206,W,1,11,1.4,16,M,,M,,*66
06/15/2015	13:02:20.531	$GPGGA,130221,2426.6205,N,08058.0195,W,1,11,2.0,16,M,,M,,*6D
06/15/2015	13:02:21.521	$GPGGA,130222,2426.6198,N,08058.0186,W,1,8,1.4,16,M,,M,,*54
06/15/2015	13:02:22.531	$GPGGA,130223,2426.6194,N,08058.0179,W,1,8,1.2,16,M,,M,,*5F
06/15/2015	13:02:23.661	$GPGGA,130224,2426.6187,N,08058.0173,W,1,11,1.4,16,M,,M,,*6E
06/15/2015	13:02:24.541	$GPGGA,130225,2426.6180,N,08058.0167,W,1,11,1.2,16,M,,M,,*6B
06/15/2015	13:02:25.591	$GPGGA,130226,2426.6174,N,08058.0157,W,1,11,1.2,16,M,,M,,*60
06/15/2015	13:02:26.592	$GPGGA,130227,2426.6170,N,08058.0150,W,1,11,1.4,16,M,,M,,*64
06/15/2015	13:02:27.653	$GPGGA,130228,2426.6161,N,08058.0144,W,1,10,1.2,16,M,,M,,*69
06/15/2015	13:02:28.611	$GPGGA,130229,2426.6155,N,08058.0137,W,1,10,1.3,16,M,,M,,*6A
06/15/2015	13:02:29.591	$GPGGA,130230,2426.6153,N,08058.0129,W,1,10,1.4,17,M,,M,,*6D
06/15/2015	13:02:30.591	$GPGGA,130231,2426.6147,N,08058.0121,W,1,10,1.2,17,M,,M,,*67
06/15/2015	13:02:31.560	$GPGGA,130232,2426.6140,N,08058.0114,W,1,11,1.4,17,M,,M,,*62
06/15/2015	13:02:32.581	$GPGGA,130233,2426.6135,N,08058.0108,W,1,11,1.4,17,M,,M,,*6C
06/15/2015	13:02:33.501	$GPGGA,130234,2426.6129,N,08058.0101,W,1,10,1.4,17,M,,M,,*6E
06/15/2015	13:02:34.581	$GPGGA,130235,2426.6124,N,08058.0092,W,1,10,1.4,17,M,,M,,*69
06/15/2015	13:02:35.601	$GPGGA,130236,2426.6117,N,08058.0085,W,1,10,1.4,17,M,,M,,*6C
06/15/2015	13:02:36.591	$GPGGA,130237,2426.6112,N,08058.0079,W,1,10,1.4,17,M,,M,,*6B
06/15/2015	13:02:37.571	$GPGGA,130238,2426.6106,N,08058.0073,W,1,10,1.4,17,M,,M,,*6B
06/15/2015	13:02:38.581	$GPGGA,130239,2426.6100,N,08058.0066,W,1,10,1.3,17,M,,M,,*6F
06/15/2015	13:02:39.581	$GPGGA,130240,2426.6093,N,08058.0059,W,1,9,1.3,18,M,,M,,*51
06/15/2015	13:02:40.571	$GPGGA,130241,2426.6086,N,08058.0054,W,1,9,1.3,18,M,,M,,*59
06/15/2015	13:02:41.557	$GPGGA,130242,2426.6079,N,08058.0049,W,1,11,1.2,18,M,,M,,*6E
06/15/2015	13:02:42.571	$GPGGA,130243,2426.6073,N,08058.0042,W,1,11,1.2,18,M,,M,,*6E
06/15/2015	13:02:43.581	$GPGGA,130244,2426.6068,N,08058.0033,W,1,11,1.2,18,M,,M,,*65
06/15/2015	13:02:44.561	$GPGGA,130245,2426.6061,N,08058.0025,W,1,11,1.2,18,M,,M,,*6A
06/15/2015	13:02:45.555	$GPGGA,130246,2426.6055,N,08058.0021,W,1,11,1.2,18,M,,M,,*6A
06/15/2015	13:02:46.561	$GPGGA,130247,2426.6048,N,08058.0014,W,1,11,1.2,19,M,,M,,*60
06/15/2015	13:02:47.563	$GPGGA,130248,2426.6043,N,08058.0004,W,1,11,1.2,19,M,,M,,*65
06/15/2015	13:02:48.562	$GPGGA,130249,2426.6039,N,08057.9996,W,1,11,1.2,19,M,,M,,*6D
06/15/2015	13:02:49.544	$GPGGA,130250,2426.6032,N,08057.9990,W,1,11,1.2,19,M,,M,,*68
06/15/2015	13:02:50.561	$GPGGA,130251,2426.6026,N,08057.9983,W,1,11,1.2,19,M,,M,,*6E
06/15/2015	13:02:51.555	$GPGGA,130252,2426.6021,N,08057.9975,W,1,11,1.2,19,M,,M,,*63
06/15/2015	13:02:52.555	$GPGGA,130253,2426.6017,N,08057.9966,W,1,11,1.2,19,M,,M,,*65
06/15/2015	13:02:53.571	$GPGGA,130254,2426.6011,N,08057.9957,W,1,11,1.2,19,M,,M,,*66
06/15/2015	13:02:54.554	$GPGGA,130255,2426.6004,N,08057.9950,W,1,11,1.2,19,M,,M,,*64
06/15/2015	13:02:55.541	$GPGGA,130256,2426.5999,N,08057.9944,W,1,11,1.2,19,M,,M,,*6C
06/15/2015	13:02:56.531	$GPGGA,130257,2426.5994,N,08057.9934,W,1,11,1.2,19,M,,M,,*67
06/15/2015	13:02:57.571	$GPGGA,130258,2426.5989,N,08057.9925,W,1,11,1.2,19,M,,M,,*64
06/15/2015	13:02:58.531	$GPGGA,130259,2426.5982,N,08057.9919,W,1,11,1.2,20,M,,M,,*6B
06/15/2015	13:02:59.571	$GPGGA,130300,2426.5977,N,08057.9911,W,1,11,1.2,20,M,,M,,*64
06/15/2015	13:03:00.531	$GPGGA,130301,2426.5972,N,08057.9902,W,1,11,1.2,20,M,,M,,*62
06/15/2015	13:03:01.644	$GPGGA,130302,2426.5967,N,08057.9893,W,1,11,1.2,20,M,,M,,*6C
06/15/2015	13:03:02.553	$GPGGA,130303,2426.5961,N,08057.9886,W,1,11,1.2,20,M,,M,,*6F
06/15/2015	13:03:03.657	$GPGGA,130304,2426.5956,N,08057.9879,W,1,11,1.2,20,M,,M,,*6C
06/15/2015	13:03:04.531	$GPGGA,130305,2426.5950,N,08057.9870,W,1,11,1.2,20,M,,M,,*62
06/15/2015	13:03:05.511	$GPGGA,130306,2426.5945,N,08057.9861,W,1,11,1.2,20,M,,M,,*65
06/15/2015	13:03:06.531	$GPGGA,130307,2426.5941,N,08057.9854,W,1,11,1.2,20,M,,M,,*66
06/15/2015	13:03:07.611	$GPGGA,130308,2426.5935,N,08057.9847,W,1,11,1.2,20,M,,M,,*68
06/15/2015	13:03:08.522	$GPGGA,130309,2426.5930,N,08057.9838,W,1,11,1.2,20,M,,M,,*64
06/15/2015	13:03:09.521	$GPGGA,130310,2426.5925,N,08057.9829,W,1,11,1.2,20,M,,M,,*68
06/15/2015	13:03:10.501	$GPGGA,130311,2426.5919,N,08057.9822,W,1,11,1.2,20,M,,M,,*6D
06/15/2015	13:03:11.531	$GPGGA,130312,2426.5914,N,08057.9813,W,1,11,1.2,19,M,,M,,*6B
06/15/2015	13:03:12.511	$GPGGA,130313,2426.5910,N,08057.9804,W,1,11,1.2,19,M,,M,,*68
06/15/2015	13:03:13.501	$GPGGA,130314,2426.5905,N,08057.9796,W,1,11,1.2,19,M,,M,,*6F
06/15/2015	13:03:14.591	$GPGGA,130315,2426.5898,N,08057.9788,W,1,11,1.3,19,M,,M,,*65
06/15/2015	13:03:15.821	$GPGGA,130316,2426.5893,N,08057.9779,W,1,11,1.2,19,M,,M,,*62
06/15/2015	13:03:16.591	$GPGGA,130317,2426.5889,N,08057.9770,W,1,11,1.3,19,M,,M,,*60
06/15/2015	13:03:17.591	$GPGGA,130318,2426.5883,N,08057.9763,W,1,11,1.2,19,M,,M,,*66
06/15/2015	13:03:18.591	$GPGGA,130319,2426.5877,N,08057.9755,W,1,11,1.2,19,M,,M,,*69
06/15/2015	13:03:19.621	$GPGGA,130320,2426.5874,N,08057.9746,W,1,11,1.2,19,M,,M,,*62
06/15/2015	13:03:20.591	$GPGGA,130321,2426.5869,N,08057.9738,W,1,11,1.2,19,M,,M,,*66
06/15/2015	13:03:21.601	$GPGGA,130322,2426.5862,N,08057.9730,W,1,11,1.2,19,M,,M,,*66
06/15/2015	13:03:22.591	$GPGGA,130323,2426.5858,N,08057.9722,W,1,11,1.2,19,M,,M,,*6D
06/15/2015	13:03:23.621	$GPGGA,130324,2426.5853,N,08057.9713,W,1,11,1.2,19,M,,M,,*63
06/15/2015	13:03:24.572	$GPGGA,130325,2426.5847,N,08057.9705,W,1,11,1.2,19,M,,M,,*60
06/15/2015	13:03:25.581	$GPGGA,130326,2426.5844,N,08057.9697,W,1,11,1.2,19,M,,M,,*6A
06/15/2015	13:03:26.581	$GPGGA,130327,2426.5838,N,08057.9689,W,1,11,1.2,19,M,,M,,*6F
06/15/2015	13:03:27.591	$GPGGA,130328,2426.5833,N,08057.9680,W,1,11,1.2,19,M,,M,,*62
06/15/2015	13:03:28.571	$GPGGA,130329,2426.5827,N,08057.9672,W,1,11,1.2,19,M,,M,,*6B
06/15/2015	13:03:29.562	$GPGGA,130330,2426.5822,N,08057.9664,W,1,11,1.2,19,M,,M,,*61
06/15/2015	13:03:30.571	$GPGGA,130331,2426.5817,N,08057.9654,W,1,11,1.2,19,M,,M,,*65
06/15/2015	13:03:31.601	$GPGGA,130332,2426.5813,N,08057.9645,W,1,10,1.3,19,M,,M,,*62
06/15/2015	13:03:32.571	$GPGGA,130333,2426.5806,N,08057.9639,W,1,10,1.2,19,M,,M,,*6D
06/15/2015	13:03:33.571	$GPGGA,130334,2426.5801,N,08057.9628,W,1,11,1.2,19,M,,M,,*6C
06/15/2015	13:03:34.561	$GPGGA,130335,2426.5798,N,08057.9619,W,1,11,1.3,19,M,,M,,*61
06/15/2015	13:03:35.561	$GPGGA,130336,2426.5793,N,08057.9612,W,1,11,1.2,18,M,,M,,*62
06/15/2015	13:03:36.559	$GPGGA,130337,2426.5787,N,08057.9604,W,1,11,1.3,18,M,,M,,*60
06/15/2015	13:03:37.547	$GPGGA,130338,2426.5782,N,08057.9596,W,1,11,1.2,18,M,,M,,*63
06/15/2015	13:03:38.556	$GPGGA,130339,2426.5779,N,08057.9587,W,1,11,1.2,18,M,,M,,*66
06/15/2015	13:03:39.548	$GPGGA,130340,2426.5775,N,08057.9579,W,1,11,1.2,18,M,,M,,*65
06/15/2015	13:03:40.557	$GPGGA,130341,2426.5768,N,08057.9572,W,1,11,1.3,18,M,,M,,*62
06/15/2015	13:03:41.552	$GPGGA,130342,2426.5762,N,08057.9564,W,1,11,1.2,18,M,,M,,*6D
06/15/2015	13:03:42.543	$GPGGA,130343,2426.5758,N,08057.9554,W,1,11,1.2,18,M,,M,,*66
06/15/2015	13:03:43.557	$GPGGA,130344,2426.5753,N,08057.9545,W,1,10,1.3,18,M,,M,,*6A
06/15/2015	13:03:44.549	$GPGGA,130345,2426.5746,N,08057.9539,W,1,10,1.2,18,M,,M,,*65
06/15/2015	13:03:45.531	$GPGGA,130346,2426.5741,N,08057.9531,W,1,11,1.2,18,M,,M,,*68
06/15/2015	13:03:46.641	$GPGGA,130347,2426.5737,N,08057.9522,W,1,11,1.2,18,M,,M,,*6A
06/15/2015	13:03:47.644	$GPGGA,130348,2426.5732,N,08057.9516,W,1,11,1.2,18,M,,M,,*67
06/15/2015	13:03:48.545	$GPGGA,130349,2426.5726,N,08057.9509,W,1,11,1.2,18,M,,M,,*6D
06/15/2015	13:03:49.641	$GPGGA,130350,2426.5721,N,08057.9499,W,1,11,1.2,17,M,,M,,*65
06/15/2015	13:03:50.511	$GPGGA,130351,2426.5717,N,08057.9491,W,1,11,1.2,17,M,,M,,*69
06/15/2015	13:03:51.546	$GPGGA,130352,2426.5711,N,08057.9485,W,1,11,1.2,17,M,,M,,*69
06/15/2015	13:03:52.521	$GPGGA,130353,2426.5705,N,08057.9477,W,1,11,1.2,17,M,,M,,*60
06/15/2015	13:03:53.621	$GPGGA,130354,2426.5700,N,08057.9468,W,1,11,1.2,17,M,,M,,*6C
06/15/2015	13:03:54.521	$GPGGA,130355,2426.5695,N,08057.9460,W,1,11,1.2,17,M,,M,,*68
06/15/2015	13:03:55.521	$GPGGA,130356,2426.5690,N,08057.9453,W,1,11,1.2,17,M,,M,,*6E
06/15/2015	13:03:56.611	$GPGGA,130357,2426.5685,N,08057.9444,W,1,11,1.2,17,M,,M,,*6D
06/15/2015	13:03:57.631	$GPGGA,130358,2426.5681,N,08057.9437,W,1,11,1.2,17,M,,M,,*62
06/15/2015	13:03:58.611	$GPGGA,130359,2426.5674,N,08057.9428,W,1,11,1.2,17,M,,M,,*67
06/15/2015	13:03:59.701	$GPGGA,130400,2426.5669,N,08057.9420,W,1,11,1.2,17,M,,M,,*68
06/15/2015	13:04:00.521	$GPGGA,130401,2426.5664,N,08057.9413,W,1,11,1.2,17,M,,M,,*64
06/15/2015	13:04:01.501	$GPGGA,130402,2426.5658,N,08057.9405,W,1,11,1.2,17,M,,M,,*6F
06/15/2015	13:04:02.591	$GPGGA,130403,2426.5652,N,08057.9396,W,1,11,1.3,17,M,,M,,*68
06/15/2015	13:04:04.031	$GPGGA,130404,2426.5648,N,08057.9389,W,1,11,1.2,17,M,,M,,*6B
06/15/2015	13:04:04.581	$GPGGA,130405,2426.5643,N,08057.9382,W,1,11,1.3,17,M,,M,,*6B
06/15/2015	13:04:05.491	$GPGGA,130406,2426.5638,N,08057.9374,W,1,10,1.3,17,M,,M,,*6C
06/15/2015	13:04:06.571	$GPGGA,130407,2426.5634,N,08057.9366,W,1,10,1.3,17,M,,M,,*62
06/15/2015	13:04:07.601	$GPGGA,130408,2426.5627,N,08057.9359,W,1,10,1.3,17,M,,M,,*63
06/15/2015	13:04:08.571	$GPGGA,130409,2426.5622,N,08057.9350,W,1,10,1.2,17,M,,M,,*6F
06/15/2015	13:04:09.571	$GPGGA,130410,2426.5617,N,08057.9343,W,1,11,1.2,17,M,,M,,*62
06/15/2015	13:04:10.571	$GPGGA,130411,2426.5611,N,08057.9337,W,1,11,1.3,17,M,,M,,*67
06/15/2015	13:04:11.600	$GPGGA,130412,2426.5606,N,08057.9329,W,1,11,1.2,16,M,,M,,*6D
06/15/2015	13:04:12.570	$GPGGA,130413,2426.5602,N,08057.9320,W,1,11,1.2,16,M,,M,,*61
06/15/2015	13:04:13.570	$GPGGA,130414,2426.5598,N,08057.9313,W,1,11,1.2,16,M,,M,,*66
06/15/2015	13:04:14.570	$GPGGA,130415,2426.5591,N,08057.9306,W,1,11,1.3,16,M,,M,,*6B
06/15/2015	13:04:15.590	$GPGGA,130416,2426.5587,N,08057.9299,W,1,11,1.2,16,M,,M,,*69
06/15/2015	13:04:16.570	$GPGGA,130417,2426.5582,N,08057.9291,W,1,11,1.2,16,M,,M,,*65
06/15/2015	13:04:17.570	$GPGGA,130418,2426.5577,N,08057.9283,W,1,11,1.2,16,M,,M,,*63
06/15/2015	13:04:18.560	$GPGGA,130419,2426.5571,N,08057.9276,W,1,11,1.2,16,M,,M,,*6E
06/15/2015	13:04:19.580	$GPGGA,130420,2426.5567,N,08057.9270,W,1,11,1.2,16,M,,M,,*65
06/15/2015	13:04:20.560	$GPGGA,130421,2426.5563,N,08057.9262,W,1,11,1.2,16,M,,M,,*63
06/15/2015	13:04:21.545	$GPGGA,130422,2426.5558,N,08057.9255,W,1,11,1.2,16,M,,M,,*6C
06/15/2015	13:04:22.551	$GPGGA,130423,2426.5552,N,08057.9248,W,1,11,1.3,16,M,,M,,*6A
06/15/2015	13:04:23.581	$GPGGA,130424,2426.5545,N,08057.9242,W,1,10,1.3,16,M,,M,,*60
06/15/2015	13:04:24.535	$GPGGA,130425,2426.5541,N,08057.9235,W,1,10,1.2,16,M,,M,,*64
06/15/2015	13:04:25.551	$GPGGA,130426,2426.5535,N,08057.9229,W,1,11,1.2,16,M,,M,,*68
06/15/2015	13:04:26.541	$GPGGA,130427,2426.5530,N,08057.9222,W,1,11,1.2,16,M,,M,,*67
06/15/2015	13:04:27.555	$GPGGA,130428,2426.5526,N,08057.9215,W,1,11,1.2,16,M,,M,,*6B
06/15/2015	13:04:28.536	$GPGGA,130429,2426.5520,N,08057.9209,W,1,11,1.2,16,M,,M,,*61
06/15/2015	13:04:29.570	$GPGGA,130430,2426.5515,N,08057.9203,W,1,11,1.2,16,M,,M,,*65
06/15/2015	13:04:30.548	$GPGGA,130431,2426.5511,N,08057.9194,W,1,11,1.2,16,M,,M,,*6D
06/15/2015	13:04:31.580	$GPGGA,130432,2426.5506,N,08057.9188,W,1,10,1.3,16,M,,M,,*65
06/15/2015	13:04:32.543	$GPGGA,130433,2426.5500,N,08057.9183,W,1,10,1.2,16,M,,M,,*68
06/15/2015	13:04:33.660	$GPGGA,130434,2426.5497,N,08057.9176,W,1,11,1.2,16,M,,M,,*6B
06/15/2015	13:04:34.531	$GPGGA,130435,2426.5493,N,08057.9169,W,1,11,1.2,16,M,,M,,*60
06/15/2015	13:04:35.570	$GPGGA,130436,2426.5488,N,08057.9165,W,1,10,1.4,16,M,,M,,*62
06/15/2015	13:04:36.530	$GPGGA,130437,2426.5484,N,08057.9158,W,1,10,1.2,16,M,,M,,*67
06/15/2015	13:04:37.510	$GPGGA,130438,2426.5481,N,08057.9150,W,1,11,1.2,16,M,,M,,*64
06/15/2015	13:04:38.520	$GPGGA,130439,2426.5477,N,08057.9145,W,1,11,1.3,16,M,,M,,*69
06/15/2015	13:04:39.691	$GPGGA,130440,2426.5473,N,08057.9138,W,1,11,1.2,16,M,,M,,*68
06/15/2015	13:04:40.521	$GPGGA,130441,2426.5468,N,08057.9131,W,1,11,1.2,16,M,,M,,*6A
06/15/2015	13:04:41.636	$GPGGA,130442,2426.5464,N,08057.9125,W,1,10,1.2,16,M,,M,,*61
06/15/2015	13:04:42.521	$GPGGA,130443,2426.5461,N,08057.9118,W,1,10,1.2,16,M,,M,,*6B
06/15/2015	13:04:43.547	$GPGGA,130444,2426.5457,N,08057.9110,W,1,11,1.2,16,M,,M,,*60
06/15/2015	13:04:44.601	$GPGGA,130445,2426.5453,N,08057.9105,W,1,11,1.3,16,M,,M,,*60
06/15/2015	13:04:45.511	$GPGGA,130446,2426.5448,N,08057.9099,W,1,11,1.2,16,M,,M,,*6C
06/15/2015	13:04:46.600	$GPGGA,130447,2426.5444,N,08057.9092,W,1,11,1.2,16,M,,M,,*6A
06/15/2015	13:04:47.546	$GPGGA,130448,2426.5440,N,08057.9085,W,1,10,1.2,16,M,,M,,*66
06/15/2015	13:04:48.500	$GPGGA,130449,2426.5436,N,08057.9077,W,1,10,1.2,17,M,,M,,*6A
06/15/2015	13:04:49.610	$GPGGA,130450,2426.5433,N,08057.9071,W,1,10,1.2,17,M,,M,,*61
06/15/2015	13:04:50.670	$GPGGA,130451,2426.5428,N,08057.9064,W,1,10,1.2,17,M,,M,,*6E
06/15/2015	13:04:51.680	$GPGGA,130452,2426.5424,N,08057.9058,W,1,10,1.2,17,M,,M,,*6E
06/15/2015	13:04:52.510	$GPGGA,130453,2426.5421,N,08057.9049,W,1,10,1.2,17,M,,M,,*6A
06/15/2015	13:04:53.633	$GPGGA,130454,2426.5417,N,08057.9042,W,1,10,1.2,17,M,,M,,*63
06/15/2015	13:04:54.660	$GPGGA,130455,2426.5412,N,08057.9037,W,1,10,1.2,17,M,,M,,*65
06/15/2015	13:04:55.660	$GPGGA,130456,2426.5408,N,08057.9029,W,1,10,1.2,17,M,,M,,*62
06/15/2015	13:04:56.490	$GPGGA,130457,2426.5405,N,08057.9020,W,1,10,1.2,17,M,,M,,*67
06/15/2015	13:04:57.611	$GPGGA,130458,2426.5403,N,08057.9014,W,1,10,1.3,17,M,,M,,*68
06/15/2015	13:04:58.641	$GPGGA,130459,2426.5397,N,08057.9009,W,1,10,1.2,17,M,,M,,*6E
06/15/2015	13:04:59.641	$GPGGA,130500,2426.5394,N,08057.9001,W,1,10,1.2,17,M,,M,,*68
06/15/2015	13:05:00.635	$GPGGA,130501,2426.5392,N,08057.8995,W,1,10,1.2,17,M,,M,,*6A
06/15/2015	13:05:01.611	$GPGGA,130502,2426.5387,N,08057.8991,W,1,9,1.3,17,M,,M,,*50
06/15/2015	13:05:02.631	$GPGGA,130503,2426.5383,N,08057.8984,W,1,9,1.2,17,M,,M,,*50
06/15/2015	13:05:03.632	$GPGGA,130504,2426.5380,N,08057.8976,W,1,9,1.2,17,M,,M,,*59
06/15/2015	13:05:04.630	$GPGGA,130505,2426.5376,N,08057.8970,W,1,9,1.2,17,M,,M,,*57
06/15/2015	13:05:05.600	$GPGGA,130506,2426.5372,N,08057.8965,W,1,10,1.2,17,M,,M,,*6C
06/15/2015	13:05:06.620	$GPGGA,130507,2426.5369,N,08057.8959,W,1,10,1.2,17,M,,M,,*68
06/15/2015	13:05:07.600	$GPGGA,130508,2426.5365,N,08057.8951,W,1,10,1.2,17,M,,M,,*63
06/15/2015	13:05:08.560	$GPGGA,130509,2426.5361,N,08057.8944,W,1,10,1.2,17,M,,M,,*62
06/15/2015	13:05:09.632	$GPGGA,130510,2426.5357,N,08057.8939,W,1,9,1.2,17,M,,M,,*5D
06/15/2015	13:05:10.537	$GPGGA,130511,2426.5352,N,08057.8933,W,1,9,1.2,17,M,,M,,*53
06/15/2015	13:05:11.610	$GPGGA,130512,2426.5350,N,08057.8925,W,1,10,1.2,17,M,,M,,*6D
06/15/2015	13:05:12.600	$GPGGA,130513,2426.5347,N,08057.8917,W,1,10,1.2,17,M,,M,,*6B
06/15/2015	13:05:13.560	$GPGGA,130514,2426.5342,N,08057.8912,W,1,10,1.2,17,M,,M,,*6C
06/15/2015	13:05:14.601	$GPGGA,130515,2426.5338,N,08057.8909,W,1,10,1.2,17,M,,M,,*6A
06/15/2015	13:05:15.601	$GPGGA,130516,2426.5334,N,08057.8901,W,1,10,1.2,17,M,,M,,*6D
06/15/2015	13:05:16.601	$GPGGA,130517,2426.5331,N,08057.8892,W,1,10,1.2,17,M,,M,,*62
06/15/2015	13:05:17.591	$GPGGA,130518,2426.5327,N,08057.8888,W,1,10,1.2,17,M,,M,,*61
06/15/2015	13:05:18.601	$GPGGA,130519,2426.5321,N,08057.8883,W,1,10,1.2,17,M,,M,,*6D
06/15/2015	13:05:19.581	$GPGGA,130520,2426.5318,N,08057.8877,W,1,9,1.2,17,M,,M,,*5E
06/15/2015	13:05:20.521	$GPGGA,130521,2426.5314,N,08057.8871,W,1,9,1.2,17,M,,M,,*55
06/15/2015	13:05:21.570	$GPGGA,130522,2426.5309,N,08057.8866,W,1,9,1.3,17,M,,M,,*5D
06/15/2015	13:05:22.520	$GPGGA,130523,2426.5305,N,08057.8861,W,1,9,1.3,17,M,,M,,*57
06/15/2015	13:05:23.590	$GPGGA,130524,2426.5300,N,08057.8853,W,1,10,1.2,17,M,,M,,*6D
06/15/2015	13:05:24.590	$GPGGA,130525,2426.5296,N,08057.8845,W,1,10,1.2,17,M,,M,,*65
06/15/2015	13:05:25.570	$GPGGA,130526,2426.5292,N,08057.8839,W,1,10,1.2,17,M,,M,,*69
06/15/2015	13:05:26.570	$GPGGA,130527,2426.5288,N,08057.8832,W,1,10,1.2,17,M,,M,,*68
06/15/2015	13:05:27.590	$GPGGA,130528,2426.5284,N,08057.8825,W,1,10,1.2,18,M,,M,,*62
06/15/2015	13:05:28.580	$GPGGA,130529,2426.5280,N,08057.8819,W,1,10,1.2,18,M,,M,,*68
06/15/2015	13:05:29.552	$GPGGA,130530,2426.5274,N,08057.8813,W,1,11,1.2,18,M,,M,,*60
06/15/2015	13:05:30.580	$GPGGA,130531,2426.5270,N,08057.8806,W,1,11,1.2,18,M,,M,,*61
06/15/2015	13:05:31.644	$GPGGA,130532,2426.5266,N,08057.8799,W,1,11,1.2,18,M,,M,,*6C
06/15/2015	13:05:32.601	$GPGGA,130533,2426.5262,N,08057.8794,W,1,11,1.2,18,M,,M,,*64
06/15/2015	13:05:33.536	$GPGGA,130534,2426.5257,N,08057.8789,W,1,11,1.2,18,M,,M,,*69
06/15/2015	13:05:34.561	$GPGGA,130535,2426.5252,N,08057.8785,W,1,11,1.2,18,M,,M,,*61
06/15/2015	13:05:35.571	$GPGGA,130536,2426.5249,N,08057.8778,W,1,11,1.2,18,M,,M,,*6A
06/15/2015	13:05:36.561	$GPGGA,130537,2426.5245,N,08057.8773,W,1,11,1.2,18,M,,M,,*6C
06/15/2015	13:05:37.621	$GPGGA,130538,2426.5241,N,08057.8765,W,1,10,1.2,18,M,,M,,*61
06/15/2015	13:05:38.601	$GPGGA,130539,2426.5238,N,08057.8758,W,1,10,1.2,19,M,,M,,*61
06/15/2015	13:05:39.637	$GPGGA,130540,2426.5234,N,08057.8751,W,1,11,1.2,19,M,,M,,*6B
06/15/2015	13:05:40.600	$GPGGA,130541,2426.5230,N,08057.8745,W,1,11,1.2,19,M,,M,,*6B
06/15/2015	13:05:41.580	$GPGGA,130542,2426.5226,N,08057.8738,W,1,11,1.2,19,M,,M,,*65
06/15/2015	13:05:42.580	$GPGGA,130543,2426.5221,N,08057.8731,W,1,11,1.2,19,M,,M,,*6A
06/15/2015	13:05:43.610	$GPGGA,130544,2426.5219,N,08057.8724,W,1,11,1.2,19,M,,M,,*62
06/15/2015	13:05:44.580	$GPGGA,130545,2426.5213,N,08057.8718,W,1,11,1.2,19,M,,M,,*66
06/15/2015	13:05:45.590	$GPGGA,130546,2426.5208,N,08057.8712,W,1,11,1.2,19,M,,M,,*65
06/15/2015	13:05:46.570	$GPGGA,130547,2426.5205,N,08057.8705,W,1,11,1.3,19,M,,M,,*6E
06/15/2015	13:05:47.590	$GPGGA,130548,2426.5201,N,08057.8698,W,1,9,1.2,19,M,,M,,*58
06/15/2015	13:05:48.580	$GPGGA,130549,2426.5197,N,08057.8693,W,1,9,1.2,19,M,,M,,*5E
06/15/2015	13:05:49.571	$GPGGA,130550,2426.5191,N,08057.8687,W,1,10,1.2,19,M,,M,,*6D
06/15/2015	13:05:50.591	$GPGGA,130551,2426.5187,N,08057.8679,W,1,10,1.2,19,M,,M,,*6A
06/15/2015	13:05:51.601	$GPGGA,130552,2426.5184,N,08057.8671,W,1,10,1.2,19,M,,M,,*62
06/15/2015	13:05:52.591	$GPGGA,130553,2426.5180,N,08057.8666,W,1,10,1.2,19,M,,M,,*61
06/15/2015	13:05:53.581	$GPGGA,130554,2426.5175,N,08057.8661,W,1,11,1.2,19,M,,M,,*6A
06/15/2015	13:05:54.561	$GPGGA,130555,2426.5172,N,08057.8654,W,1,11,1.2,19,M,,M,,*6A
06/15/2015	13:05:55.601	$GPGGA,130556,2426.5168,N,08057.8647,W,1,11,1.2,19,M,,M,,*60
06/15/2015	13:05:56.560	$GPGGA,130557,2426.5168,N,08057.8647,W,1,11,1.2,19,M,,M,,*61
06/15/2015	13:05:57.580	$GPGGA,130558,2426.5161,N,08057.8635,W,1,11,1.2,19,M,,M,,*62
06/15/2015	13:05:58.560	$GPGGA,130559,2426.5156,N,08057.8629,W,1,11,1.2,19,M,,M,,*6A
06/15/2015	13:05:59.590	$GPGGA,130600,2426.5154,N,08057.8622,W,1,11,1.2,19,M,,M,,*6C
06/15/2015	13:06:00.570	$GPGGA,130601,2426.5150,N,08057.8614,W,1,11,1.2,19,M,,M,,*6C
06/15/2015	13:06:01.540	$GPGGA,130602,2426.5145,N,08057.8608,W,1,11,1.2,19,M,,M,,*66
06/15/2015	13:06:02.570	$GPGGA,130603,2426.5143,N,08057.8601,W,1,11,1.2,19,M,,M,,*68
06/15/2015	13:06:03.590	$GPGGA,130604,2426.5139,N,08057.8594,W,1,11,1.2,19,M,,M,,*6D
06/15/2015	13:06:04.534	$GPGGA,130605,2426.5139,N,08057.8594,W,1,11,1.2,19,M,,M,,*6C
06/15/2015	13:06:05.540	$GPGGA,130606,2426.5132,N,08057.8580,W,1,11,1.2,19,M,,M,,*61
06/15/2015	13:06:06.551	$GPGGA,130607,2426.5132,N,08057.8580,W,1,11,1.2,19,M,,M,,*60
06/15/2015	13:06:07.571	$GPGGA,130608,2426.5123,N,08057.8566,W,1,11,1.2,19,M,,M,,*67
06/15/2015	13:06:08.631	$GPGGA,130609,2426.5121,N,08057.8560,W,1,11,1.2,19,M,,M,,*62
06/15/2015	13:06:09.538	$GPGGA,130610,2426.5117,N,08057.8553,W,1,11,1.2,19,M,,M,,*6F
06/15/2015	13:06:10.541	$GPGGA,130611,2426.5114,N,08057.8545,W,1,11,1.2,19,M,,M,,*6A
06/15/2015	13:06:11.544	$GPGGA,130612,2426.5109,N,08057.8539,W,1,11,1.2,19,M,,M,,*6E
06/15/2015	13:06:12.571	$GPGGA,130613,2426.5105,N,08057.8533,W,1,11,1.2,19,M,,M,,*69
06/15/2015	13:06:13.521	$GPGGA,130614,2426.5101,N,08057.8525,W,1,11,1.2,19,M,,M,,*6D
06/15/2015	13:06:14.610	$GPGGA,130615,2426.5099,N,08057.8516,W,1,11,1.2,19,M,,M,,*6C
06/15/2015	13:06:15.560	$GPGGA,130616,2426.5096,N,08057.8510,W,1,11,1.2,19,M,,M,,*66
06/15/2015	13:06:16.610	$GPGGA,130617,2426.5090,N,08057.8505,W,1,11,1.2,19,M,,M,,*65
06/15/2015	13:06:17.500	$GPGGA,130618,2426.5087,N,08057.8498,W,1,11,1.2,19,M,,M,,*69
06/15/2015	13:06:18.620	$GPGGA,130619,2426.5085,N,08057.8490,W,1,11,1.2,19,M,,M,,*62
06/15/2015	13:06:19.650	$GPGGA,130620,2426.5079,N,08057.8482,W,1,10,1.2,19,M,,M,,*69
06/15/2015	13:06:20.520	$GPGGA,130621,2426.5079,N,08057.8482,W,1,10,1.2,19,M,,M,,*68
06/15/2015	13:06:21.510	$GPGGA,130622,2426.5074,N,08057.8470,W,1,11,1.2,19,M,,M,,*6A
06/15/2015	13:06:22.610	$GPGGA,130623,2426.5070,N,08057.8462,W,1,11,1.2,19,M,,M,,*6C
06/15/2015	13:06:23.610	$GPGGA,130624,2426.5067,N,08057.8455,W,1,11,1.2,19,M,,M,,*69
06/15/2015	13:06:24.602	$GPGGA,130625,2426.5062,N,08057.8449,W,1,11,1.2,19,M,,M,,*60
06/15/2015	13:06:25.621	$GPGGA,130626,2426.5060,N,08057.8444,W,1,11,1.2,19,M,,M,,*6C
06/15/2015	13:06:26.591	$GPGGA,130627,2426.5057,N,08057.8436,W,1,11,1.2,19,M,,M,,*6C
06/15/2015	13:06:27.633	$GPGGA,130628,2426.5054,N,08057.8429,W,1,10,1.2,19,M,,M,,*6F
06/15/2015	13:06:28.611	$GPGGA,130629,2426.5050,N,08057.8424,W,1,10,1.2,19,M,,M,,*67
06/15/2015	13:06:29.601	$GPGGA,130630,2426.5047,N,08057.8418,W,1,11,1.2,19,M,,M,,*67
06/15/2015	13:06:30.591	$GPGGA,130631,2426.5045,N,08057.8411,W,1,11,1.2,19,M,,M,,*6D
06/15/2015	13:06:31.611	$GPGGA,130632,2426.5042,N,08057.8404,W,1,11,1.2,19,M,,M,,*6D
06/15/2015	13:06:32.580	$GPGGA,130633,2426.5038,N,08057.8399,W,1,11,1.2,19,M,,M,,*62
06/15/2015	13:06:33.600	$GPGGA,130634,2426.5034,N,08057.8393,W,1,11,1.2,19,M,,M,,*63
06/15/2015	13:06:34.580	$GPGGA,130635,2426.5034,N,08057.8393,W,1,11,1.2,19,M,,M,,*62
06/15/2015	13:06:35.580	$GPGGA,130636,2426.5029,N,08057.8380,W,1,11,1.2,19,M,,M,,*6F
06/15/2015	13:06:36.580	$GPGGA,130637,2426.5025,N,08057.8376,W,1,11,1.2,19,M,,M,,*6B
06/15/2015	13:06:37.570	$GPGGA,130638,2426.5022,N,08057.8368,W,1,10,1.2,19,M,,M,,*6D
06/15/2015	13:06:38.570	$GPGGA,130639,2426.5020,N,08057.8362,W,1,10,1.2,19,M,,M,,*64
06/15/2015	13:06:39.570	$GPGGA,130640,2426.5015,N,08057.8359,W,1,10,1.2,19,M,,M,,*64
06/15/2015	13:06:40.570	$GPGGA,130641,2426.5013,N,08057.8353,W,1,10,1.2,19,M,,M,,*69
06/15/2015	13:06:41.551	$GPGGA,130642,2426.5010,N,08057.8346,W,1,10,1.2,19,M,,M,,*6D
06/15/2015	13:06:42.571	$GPGGA,130643,2426.5006,N,08057.8343,W,1,10,1.2,18,M,,M,,*6F
06/15/2015	13:06:43.582	$GPGGA,130644,2426.5002,N,08057.8338,W,1,10,1.2,18,M,,M,,*60
06/15/2015	13:06:44.571	$GPGGA,130645,2426.5000,N,08057.8330,W,1,10,1.2,18,M,,M,,*6B
06/15/2015	13:06:45.571	$GPGGA,130646,2426.4996,N,08057.8325,W,1,10,1.2,18,M,,M,,*6B
06/15/2015	13:06:46.551	$GPGGA,130647,2426.4992,N,08057.8322,W,1,10,1.2,18,M,,M,,*69
06/15/2015	13:06:47.551	$GPGGA,130648,2426.4989,N,08057.8318,W,1,8,1.4,18,M,,M,,*5A
06/15/2015	13:06:48.561	$GPGGA,130649,2426.4987,N,08057.8311,W,1,8,1.3,18,M,,M,,*5B
06/15/2015	13:06:50.077	$GPGGA,130650,2426.4984,N,08057.8306,W,1,11,1.2,18,M,,M,,*6F
06/15/2015	13:06:50.550	$GPGGA,130651,2426.4982,N,08057.8304,W,1,11,1.2,18,M,,M,,*6A
06/15/2015	13:06:51.550	$GPGGA,130652,2426.4980,N,08057.8299,W,1,10,1.2,18,M,,M,,*6F
06/15/2015	13:06:52.550	$GPGGA,130653,2426.4978,N,08057.8292,W,1,10,1.2,18,M,,M,,*62
06/15/2015	13:06:53.560	$GPGGA,130654,2426.4975,N,08057.8288,W,1,11,1.2,18,M,,M,,*62
06/15/2015	13:06:54.540	$GPGGA,130655,2426.4971,N,08057.8284,W,1,11,1.3,18,M,,M,,*6A
06/15/2015	13:06:55.550	$GPGGA,130656,2426.4969,N,08057.8279,W,1,10,1.2,18,M,,M,,*62
06/15/2015	13:06:56.542	$GPGGA,130657,2426.4966,N,08057.8272,W,1,10,1.2,18,M,,M,,*67
06/15/2015	13:06:57.830	$GPGGA,130658,2426.4964,N,08057.8269,W,1,10,1.2,18,M,,M,,*60
06/15/2015	13:06:58.520	$GPGGA,130659,2426.4960,N,08057.8263,W,1,10,1.2,18,M,,M,,*6F
06/15/2015	13:06:59.681	$GPGGA,130700,2426.4958,N,08057.8259,W,1,10,1.2,18,M,,M,,*60
06/15/2015	13:07:00.541	$GPGGA,130701,2426.4956,N,08057.8257,W,1,10,1.2,18,M,,M,,*61
06/15/2015	13:07:01.535	$GPGGA,130702,2426.4953,N,08057.8252,W,1,11,1.2,18,M,,M,,*63
06/15/2015	13:07:02.611	$GPGGA,130703,2426.4950,N,08057.8246,W,1,11,1.2,18,M,,M,,*64
06/15/2015	13:07:03.651	$GPGGA,130704,2426.4948,N,08057.8241,W,1,11,1.2,18,M,,M,,*6D
06/15/2015	13:07:05.547	$GPGGA,130706,2426.4941,N,08057.8232,W,1,11,1.2,18,M,,M,,*62
06/15/2015	13:07:06.620	$GPGGA,130707,2426.4937,N,08057.8227,W,1,11,1.2,18,M,,M,,*66
06/15/2015	13:07:07.620	$GPGGA,130708,2426.4934,N,08057.8221,W,1,10,1.2,18,M,,M,,*6D
06/15/2015	13:07:08.610	$GPGGA,130709,2426.4932,N,08057.8216,W,1,10,1.2,18,M,,M,,*6E
06/15/2015	13:07:09.600	$GPGGA,130710,2426.4930,N,08057.8214,W,1,11,1.2,18,M,,M,,*67
06/15/2015	13:07:10.600	$GPGGA,130711,2426.4926,N,08057.8208,W,1,11,1.2,18,M,,M,,*6C
06/15/2015	13:07:11.510	$GPGGA,130712,2426.4921,N,08057.8201,W,1,11,1.2,18,M,,M,,*61
06/15/2015	13:07:12.510	$GPGGA,130713,2426.4917,N,08057.8195,W,1,11,1.2,18,M,,M,,*6B
06/15/2015	13:07:13.590	$GPGGA,130714,2426.4913,N,08057.8191,W,1,11,1.2,18,M,,M,,*6C
06/15/2015	13:07:14.590	$GPGGA,130715,2426.4910,N,08057.8186,W,1,11,1.2,18,M,,M,,*68
06/15/2015	13:07:15.620	$GPGGA,130716,2426.4908,N,08057.8181,W,1,11,1.2,18,M,,M,,*65
06/15/2015	13:07:16.591	$GPGGA,130717,2426.4904,N,08057.8175,W,1,11,1.2,18,M,,M,,*63
06/15/2015	13:07:17.601	$GPGGA,130718,2426.4901,N,08057.8169,W,1,10,1.2,18,M,,M,,*65
06/15/2015	13:07:18.581	$GPGGA,130719,2426.4899,N,08057.8165,W,1,10,1.3,18,M,,M,,*69
06/15/2015	13:07:19.601	$GPGGA,130720,2426.4897,N,08057.8162,W,1,11,1.2,18,M,,M,,*6A
06/15/2015	13:07:20.581	$GPGGA,130721,2426.4893,N,08057.8157,W,1,11,1.2,18,M,,M,,*69
06/15/2015	13:07:21.601	$GPGGA,130722,2426.4891,N,08057.8152,W,1,11,1.2,18,M,,M,,*6D
06/15/2015	13:07:22.581	$GPGGA,130723,2426.4888,N,08057.8147,W,1,11,1.2,18,M,,M,,*60
06/15/2015	13:07:23.621	$GPGGA,130724,2426.4884,N,08057.8144,W,1,10,1.3,18,M,,M,,*68
06/15/2015	13:07:24.570	$GPGGA,130725,2426.4883,N,08057.8138,W,1,10,1.3,18,M,,M,,*65
06/15/2015	13:07:25.590	$GPGGA,130726,2426.4879,N,08057.8132,W,1,10,1.3,18,M,,M,,*69
06/15/2015	13:07:26.570	$GPGGA,130727,2426.4877,N,08057.8128,W,1,10,1.2,18,M,,M,,*6C
06/15/2015	13:07:27.590	$GPGGA,130728,2426.4873,N,08057.8125,W,1,11,1.2,18,M,,M,,*6B
06/15/2015	13:07:28.560	$GPGGA,130729,2426.4872,N,08057.8120,W,1,11,1.3,18,M,,M,,*6F
06/15/2015	13:07:29.550	$GPGGA,130730,2426.4869,N,08057.8115,W,1,10,1.2,18,M,,M,,*6B
06/15/2015	13:07:30.560	$GPGGA,130731,2426.4866,N,08057.8111,W,1,10,1.2,18,M,,M,,*61
06/15/2015	13:07:31.610	$GPGGA,130732,2426.4863,N,08057.8107,W,1,11,1.2,18,M,,M,,*61
06/15/2015	13:07:32.550	$GPGGA,130733,2426.4861,N,08057.8102,W,1,11,1.2,18,M,,M,,*67
06/15/2015	13:07:33.570	$GPGGA,130734,2426.4858,N,08057.8097,W,1,10,1.2,18,M,,M,,*66
06/15/2015	13:07:34.551	$GPGGA,130735,2426.4854,N,08057.8093,W,1,10,1.2,18,M,,M,,*6F
06/15/2015	13:07:35.561	$GPGGA,130736,2426.4851,N,08057.8087,W,1,10,1.2,18,M,,M,,*6C
06/15/2015	13:07:36.542	$GPGGA,130737,2426.4848,N,08057.8081,W,1,10,1.2,18,M,,M,,*63
06/15/2015	13:07:37.581	$GPGGA,130738,2426.4845,N,08057.8077,W,1,10,1.2,18,M,,M,,*68
06/15/2015	13:07:38.534	$GPGGA,130739,2426.4843,N,08057.8072,W,1,10,1.2,18,M,,M,,*6A
06/15/2015	13:07:39.922	$GPGGA,130740,2426.4839,N,08057.8066,W,1,10,1.2,18,M,,M,,*6C
06/15/2015	13:07:40.542	$GPGGA,130741,2426.4836,N,08057.8061,W,1,10,1.2,18,M,,M,,*65
06/15/2015	13:07:41.570	$GPGGA,130742,2426.4832,N,08057.8058,W,1,9,1.5,18,M,,M,,*57
06/15/2015	13:07:42.531	$GPGGA,130743,2426.4827,N,08057.8056,W,1,9,1.2,18,M,,M,,*5B
06/15/2015	13:07:43.550	$GPGGA,130744,2426.4823,N,08057.8052,W,1,11,1.2,18,M,,M,,*65
06/15/2015	13:07:44.520	$GPGGA,130745,2426.4820,N,08057.8046,W,1,11,1.2,19,M,,M,,*63
06/15/2015	13:07:45.660	$GPGGA,130746,2426.4818,N,08057.8042,W,1,10,1.2,19,M,,M,,*6E
06/15/2015	13:07:46.530	$GPGGA,130747,2426.4814,N,08057.8039,W,1,10,1.2,19,M,,M,,*6F
06/15/2015	13:07:47.540	$GPGGA,130748,2426.4811,N,08057.8033,W,1,11,1.2,19,M,,M,,*6E
06/15/2015	13:07:48.520	$GPGGA,130749,2426.4808,N,08057.8025,W,1,11,1.2,19,M,,M,,*60
06/15/2015	13:07:49.641	$GPGGA,130750,2426.4803,N,08057.8020,W,1,10,1.2,19,M,,M,,*67
06/15/2015	13:07:50.533	$GPGGA,130751,2426.4800,N,08057.8017,W,1,10,1.2,19,M,,M,,*61
06/15/2015	13:07:51.651	$GPGGA,130752,2426.4798,N,08057.8011,W,1,11,1.2,19,M,,M,,*6B
06/15/2015	13:07:52.537	$GPGGA,130753,2426.4796,N,08057.8003,W,1,11,1.2,19,M,,M,,*67
06/15/2015	13:07:53.611	$GPGGA,130754,2426.4790,N,08057.8000,W,1,10,1.2,19,M,,M,,*64
06/15/2015	13:07:54.521	$GPGGA,130755,2426.4786,N,08057.7996,W,1,10,1.2,19,M,,M,,*6B
06/15/2015	13:07:55.611	$GPGGA,130756,2426.4785,N,08057.7989,W,1,11,1.2,19,M,,M,,*64
06/15/2015	13:07:56.501	$GPGGA,130757,2426.4780,N,08057.7983,W,1,11,1.2,19,M,,M,,*6A
06/15/2015	13:07:57.601	$GPGGA,130758,2426.4776,N,08057.7978,W,1,10,1.2,19,M,,M,,*69
06/15/2015	13:07:58.511	$GPGGA,130759,2426.4772,N,08057.7973,W,1,10,1.2,19,M,,M,,*67
06/15/2015	13:07:59.631	$GPGGA,130800,2426.4771,N,08057.7968,W,1,11,1.2,19,M,,M,,*6C
06/15/2015	13:08:00.590	$GPGGA,130801,2426.4767,N,08057.7963,W,1,11,1.2,19,M,,M,,*61
06/15/2015	13:08:01.630	$GPGGA,130802,2426.4761,N,08057.7956,W,1,10,1.2,19,M,,M,,*63
06/15/2015	13:08:02.590	$GPGGA,130803,2426.4758,N,08057.7950,W,1,10,1.2,19,M,,M,,*6E
06/15/2015	13:08:03.620	$GPGGA,130804,2426.4755,N,08057.7947,W,1,11,1.2,19,M,,M,,*63
06/15/2015	13:08:04.590	$GPGGA,130805,2426.4751,N,08057.7941,W,1,11,1.2,19,M,,M,,*60
06/15/2015	13:08:05.600	$GPGGA,130806,2426.4747,N,08057.7935,W,1,11,1.2,19,M,,M,,*67
06/15/2015	13:08:06.580	$GPGGA,130807,2426.4744,N,08057.7928,W,1,11,1.2,19,M,,M,,*69
06/15/2015	13:08:07.600	$GPGGA,130808,2426.4742,N,08057.7923,W,1,10,1.2,19,M,,M,,*6A
06/15/2015	13:08:08.580	$GPGGA,130809,2426.4736,N,08057.7920,W,1,10,1.2,20,M,,M,,*61
06/15/2015	13:08:09.581	$GPGGA,130810,2426.4731,N,08057.7914,W,1,11,1.2,20,M,,M,,*68
06/15/2015	13:08:10.581	$GPGGA,130811,2426.4729,N,08057.7906,W,1,11,1.2,20,M,,M,,*63
06/15/2015	13:08:11.621	$GPGGA,130812,2426.4725,N,08057.7904,W,1,10,1.2,20,M,,M,,*6F
06/15/2015	13:08:12.581	$GPGGA,130813,2426.4720,N,08057.7900,W,1,10,1.2,20,M,,M,,*6F
06/15/2015	13:08:13.561	$GPGGA,130814,2426.4715,N,08057.7892,W,1,11,1.2,20,M,,M,,*65
06/15/2015	13:08:14.571	$GPGGA,130815,2426.4713,N,08057.7885,W,1,11,1.2,20,M,,M,,*64
06/15/2015	13:08:15.601	$GPGGA,130816,2426.4708,N,08057.7880,W,1,10,1.2,20,M,,M,,*69
06/15/2015	13:08:16.570	$GPGGA,130817,2426.4704,N,08057.7874,W,1,10,1.2,20,M,,M,,*6F
06/15/2015	13:08:17.580	$GPGGA,130818,2426.4700,N,08057.7867,W,1,11,1.2,20,M,,M,,*67
06/15/2015	13:08:18.551	$GPGGA,130819,2426.4696,N,08057.7862,W,1,11,1.2,20,M,,M,,*6D
06/15/2015	13:08:19.600	$GPGGA,130820,2426.4692,N,08057.7857,W,1,11,1.2,20,M,,M,,*65
06/15/2015	13:08:20.560	$GPGGA,130821,2426.4688,N,08057.7851,W,1,11,1.2,20,M,,M,,*69
06/15/2015	13:08:21.560	$GPGGA,130822,2426.4685,N,08057.7846,W,1,11,1.2,20,M,,M,,*61
06/15/2015	13:08:22.555	$GPGGA,130823,2426.4679,N,08057.7840,W,1,11,1.2,20,M,,M,,*65
06/15/2015	13:08:23.600	$GPGGA,130824,2426.4677,N,08057.7834,W,1,11,1.2,20,M,,M,,*6F
06/15/2015	13:08:24.550	$GPGGA,130825,2426.4673,N,08057.7828,W,1,11,1.2,20,M,,M,,*67
06/15/2015	13:08:25.560	$GPGGA,130826,2426.4667,N,08057.7824,W,1,11,1.2,20,M,,M,,*6D
06/15/2015	13:08:26.551	$GPGGA,130827,2426.4663,N,08057.7817,W,1,11,1.2,20,M,,M,,*68
06/15/2015	13:08:27.561	$GPGGA,130828,2426.4660,N,08057.7810,W,1,11,1.2,20,M,,M,,*63
06/15/2015	13:08:28.544	$GPGGA,130829,2426.4655,N,08057.7806,W,1,11,1.2,20,M,,M,,*63
06/15/2015	13:08:29.546	$GPGGA,130830,2426.4650,N,08057.7800,W,1,11,1.2,20,M,,M,,*68
06/15/2015	13:08:30.545	$GPGGA,130831,2426.4646,N,08057.7794,W,1,11,1.2,20,M,,M,,*6C
06/15/2015	13:08:31.581	$GPGGA,130832,2426.4642,N,08057.7786,W,1,11,1.2,20,M,,M,,*68
06/15/2015	13:08:32.533	$GPGGA,130833,2426.4639,N,08057.7780,W,1,11,1.2,20,M,,M,,*63
06/15/2015	13:08:33.543	$GPGGA,130834,2426.4633,N,08057.7774,W,1,10,1.2,20,M,,M,,*64
06/15/2015	13:08:34.648	$GPGGA,130835,2426.4630,N,08057.7768,W,1,10,1.2,20,M,,M,,*6B
06/15/2015	13:08:35.570	$GPGGA,130836,2426.4627,N,08057.7760,W,1,11,1.2,20,M,,M,,*67
06/15/2015	13:08:36.551	$GPGGA,130837,2426.4622,N,08057.7755,W,1,11,1.3,20,M,,M,,*64
06/15/2015	13:08:37.510	$GPGGA,130838,2426.4616,N,08057.7750,W,1,9,1.3,20,M,,M,,*50
06/15/2015	13:08:38.533	$GPGGA,130839,2426.4613,N,08057.7741,W,1,9,1.2,20,M,,M,,*55
06/15/2015	13:08:39.642	$GPGGA,130840,2426.4610,N,08057.7734,W,1,10,1.2,20,M,,M,,*62
06/15/2015	13:08:40.552	$GPGGA,130841,2426.4605,N,08057.7730,W,1,10,1.2,20,M,,M,,*63
06/15/2015	13:08:41.610	$GPGGA,130842,2426.4601,N,08057.7723,W,1,11,1.2,20,M,,M,,*67
06/15/2015	13:08:42.520	$GPGGA,130843,2426.4597,N,08057.7716,W,1,11,1.2,20,M,,M,,*6C
06/15/2015	13:08:43.510	$GPGGA,130844,2426.4594,N,08057.7710,W,1,11,1.2,20,M,,M,,*6E
06/15/2015	13:08:44.601	$GPGGA,130845,2426.4588,N,08057.7705,W,1,11,1.2,20,M,,M,,*66
06/15/2015	13:08:45.634	$GPGGA,130846,2426.4584,N,08057.7696,W,1,11,1.2,20,M,,M,,*62
06/15/2015	13:08:46.511	$GPGGA,130847,2426.4580,N,08057.7690,W,1,11,1.2,20,M,,M,,*61
06/15/2015	13:08:47.644	$GPGGA,130848,2426.4576,N,08057.7685,W,1,11,1.2,20,M,,M,,*63
06/15/2015	13:08:48.591	$GPGGA,130849,2426.4572,N,08057.7678,W,1,11,1.2,20,M,,M,,*64
06/15/2015	13:08:49.601	$GPGGA,130850,2426.4567,N,08057.7670,W,1,11,1.2,20,M,,M,,*60
06/15/2015	13:08:50.601	$GPGGA,130851,2426.4561,N,08057.7665,W,1,11,1.2,20,M,,M,,*63
06/15/2015	13:08:51.600	$GPGGA,130852,2426.4556,N,08057.7658,W,1,11,1.2,20,M,,M,,*6A
06/15/2015	13:08:52.610	$GPGGA,130853,2426.4552,N,08057.7651,W,1,11,1.2,20,M,,M,,*66
06/15/2015	13:08:53.610	$GPGGA,130854,2426.4548,N,08057.7644,W,1,11,1.2,20,M,,M,,*6E
06/15/2015	13:08:54.590	$GPGGA,130855,2426.4543,N,08057.7637,W,1,11,1.2,20,M,,M,,*60
06/15/2015	13:08:55.610	$GPGGA,130856,2426.4538,N,08057.7631,W,1,11,1.2,20,M,,M,,*69
06/15/2015	13:08:56.600	$GPGGA,130857,2426.4534,N,08057.7624,W,1,11,1.2,20,M,,M,,*60
06/15/2015	13:08:57.610	$GPGGA,130858,2426.4529,N,08057.7616,W,1,11,1.2,20,M,,M,,*62
06/15/2015	13:08:58.580	$GPGGA,130859,2426.4526,N,08057.7609,W,1,11,1.2,20,M,,M,,*62
06/15/2015	13:08:59.640	$GPGGA,130900,2426.4521,N,08057.7601,W,1,10,1.3,20,M,,M,,*60
06/15/2015	13:09:00.580	$GPGGA,130901,2426.4515,N,08057.7594,W,1,10,1.2,20,M,,M,,*68
06/15/2015	13:09:01.591	$GPGGA,130902,2426.4511,N,08057.7585,W,1,11,1.2,20,M,,M,,*6E
06/15/2015	13:09:02.561	$GPGGA,130903,2426.4507,N,08057.7576,W,1,11,1.2,20,M,,M,,*64
06/15/2015	13:09:03.601	$GPGGA,130904,2426.4503,N,08057.7571,W,1,9,1.3,20,M,,M,,*58
06/15/2015	13:09:04.571	$GPGGA,130905,2426.4498,N,08057.7565,W,1,9,1.2,20,M,,M,,*5E
06/15/2015	13:09:05.561	$GPGGA,130906,2426.4496,N,08057.7557,W,1,10,1.2,20,M,,M,,*6A
06/15/2015	13:09:06.561	$GPGGA,130907,2426.4493,N,08057.7550,W,1,10,1.2,20,M,,M,,*69
06/15/2015	13:09:07.591	$GPGGA,130908,2426.4489,N,08057.7545,W,1,10,1.2,20,M,,M,,*69
06/15/2015	13:09:08.561	$GPGGA,130909,2426.4483,N,08057.7539,W,1,10,1.2,20,M,,M,,*69
06/15/2015	13:09:09.550	$GPGGA,130910,2426.4482,N,08057.7531,W,1,10,1.2,20,M,,M,,*68
06/15/2015	13:09:10.560	$GPGGA,130911,2426.4478,N,08057.7524,W,1,10,1.2,20,M,,M,,*68
06/15/2015	13:09:11.560	$GPGGA,130912,2426.4472,N,08057.7517,W,1,10,1.2,20,M,,M,,*61
06/15/2015	13:09:12.550	$GPGGA,130913,2426.4469,N,08057.7510,W,1,10,1.2,20,M,,M,,*6D
06/15/2015	13:09:13.570	$GPGGA,130914,2426.4465,N,08057.7502,W,1,9,1.3,20,M,,M,,*5C
06/15/2015	13:09:14.543	$GPGGA,130915,2426.4460,N,08057.7495,W,1,9,1.2,20,M,,M,,*56
06/15/2015	13:09:15.600	$GPGGA,130916,2426.4457,N,08057.7487,W,1,10,1.2,20,M,,M,,*6A
06/15/2015	13:09:16.560	$GPGGA,130917,2426.4453,N,08057.7481,W,1,10,1.2,20,M,,M,,*69
06/15/2015	13:09:17.560	$GPGGA,130918,2426.4449,N,08057.7475,W,1,10,1.2,20,M,,M,,*66
06/15/2015	13:09:18.543	$GPGGA,130919,2426.4444,N,08057.7468,W,1,10,1.2,20,M,,M,,*66
06/15/2015	13:09:19.561	$GPGGA,130920,2426.4442,N,08057.7459,W,1,10,1.2,20,M,,M,,*68
06/15/2015	13:09:20.537	$GPGGA,130921,2426.4436,N,08057.7453,W,1,10,1.2,20,M,,M,,*60
06/15/2015	13:09:21.537	$GPGGA,130922,2426.4431,N,08057.7447,W,1,10,1.2,20,M,,M,,*61
06/15/2015	13:09:22.644	$GPGGA,130923,2426.4428,N,08057.7438,W,1,10,1.2,20,M,,M,,*60
06/15/2015	13:09:23.661	$GPGGA,130924,2426.4424,N,08057.7431,W,1,10,1.2,20,M,,M,,*62
06/15/2015	13:09:24.942	$GPGGA,130925,2426.4417,N,08057.7426,W,1,10,1.2,20,M,,M,,*65
06/15/2015	13:09:25.532	$GPGGA,130926,2426.4413,N,08057.7418,W,1,10,1.2,20,M,,M,,*6F
06/15/2015	13:09:26.632	$GPGGA,130927,2426.4410,N,08057.7409,W,1,10,1.2,20,M,,M,,*6D
06/15/2015	13:09:27.690	$GPGGA,130928,2426.4406,N,08057.7403,W,1,10,1.3,20,M,,M,,*6E
06/15/2015	13:09:28.520	$GPGGA,130929,2426.4400,N,08057.7397,W,1,10,1.3,20,M,,M,,*63
06/15/2015	13:09:29.541	$GPGGA,130930,2426.4395,N,08057.7388,W,1,9,1.3,20,M,,M,,*56
06/15/2015	13:09:30.600	$GPGGA,130931,2426.4392,N,08057.7380,W,1,9,1.4,20,M,,M,,*5F
06/15/2015	13:09:31.660	$GPGGA,130932,2426.4389,N,08057.7374,W,1,8,1.3,20,M,,M,,*5B
06/15/2015	13:09:32.536	$GPGGA,130933,2426.4384,N,08057.7369,W,1,8,1.3,20,M,,M,,*5B
06/15/2015	13:09:33.641	$GPGGA,130934,2426.4379,N,08057.7363,W,1,8,1.3,20,M,,M,,*54
06/15/2015	13:09:34.500	$GPGGA,130935,2426.4377,N,08057.7355,W,1,8,1.3,20,M,,M,,*5E
06/15/2015	13:09:35.620	$GPGGA,130936,2426.4373,N,08057.7349,W,1,9,1.3,20,M,,M,,*55
06/15/2015	13:09:36.511	$GPGGA,130937,2426.4367,N,08057.7344,W,1,9,1.3,20,M,,M,,*5C
06/15/2015	13:09:37.611	$GPGGA,130938,2426.4364,N,08057.7336,W,1,9,1.3,20,M,,M,,*55
06/15/2015	13:09:38.512	$GPGGA,130939,2426.4360,N,08057.7328,W,1,9,1.3,20,M,,M,,*5F
06/15/2015	13:09:39.661	$GPGGA,130940,2426.4355,N,08057.7323,W,1,8,1.3,20,M,,M,,*5D
06/15/2015	13:09:40.591	$GPGGA,130941,2426.4350,N,08057.7316,W,1,8,1.3,20,M,,M,,*5F
06/15/2015	13:09:41.491	$GPGGA,130942,2426.4346,N,08057.7307,W,1,9,1.3,20,M,,M,,*5A
06/15/2015	13:09:42.591	$GPGGA,130943,2426.4341,N,08057.7301,W,1,9,1.3,20,M,,M,,*5A
06/15/2015	13:09:43.601	$GPGGA,130944,2426.4337,N,08057.7295,W,1,9,1.3,20,M,,M,,*50
06/15/2015	13:09:44.580	$GPGGA,130945,2426.4332,N,08057.7288,W,1,9,1.3,20,M,,M,,*58
06/15/2015	13:09:45.590	$GPGGA,130946,2426.4328,N,08057.7279,W,1,9,1.3,20,M,,M,,*5E
06/15/2015	13:09:46.580	$GPGGA,130947,2426.4323,N,08057.7273,W,1,9,1.3,20,M,,M,,*5E
06/15/2015	13:09:47.600	$GPGGA,130948,2426.4319,N,08057.7268,W,1,10,1.3,20,M,,M,,*6A
06/15/2015	13:09:48.580	$GPGGA,130949,2426.4315,N,08057.7260,W,1,10,1.3,20,M,,M,,*6F
06/15/2015	13:09:49.590	$GPGGA,130950,2426.4312,N,08057.7253,W,1,10,1.3,20,M,,M,,*60
06/15/2015	13:09:50.570	$GPGGA,130951,2426.4305,N,08057.7247,W,1,10,1.3,20,M,,M,,*62
06/15/2015	13:09:51.610	$GPGGA,130952,2426.4301,N,08057.7239,W,1,10,1.3,20,M,,M,,*6C
06/15/2015	13:09:52.570	$GPGGA,130953,2426.4297,N,08057.7232,W,1,10,1.3,19,M,,M,,*62
06/15/2015	13:09:53.590	$GPGGA,130954,2426.4294,N,08057.7225,W,1,10,1.3,19,M,,M,,*60
06/15/2015	13:09:54.561	$GPGGA,130955,2426.4288,N,08057.7218,W,1,10,1.3,19,M,,M,,*62
06/15/2015	13:09:55.591	$GPGGA,130956,2426.4284,N,08057.7212,W,1,10,1.3,19,M,,M,,*67
06/15/2015	13:09:56.561	$GPGGA,130957,2426.4280,N,08057.7204,W,1,10,1.3,19,M,,M,,*65
06/15/2015	13:09:57.551	$GPGGA,130958,2426.4276,N,08057.7197,W,1,10,1.3,19,M,,M,,*6A
06/15/2015	13:09:58.551	$GPGGA,130959,2426.4270,N,08057.7190,W,1,10,1.3,19,M,,M,,*6A
06/15/2015	13:09:59.601	$GPGGA,131000,2426.4266,N,08057.7182,W,1,10,1.3,19,M,,M,,*6A
06/15/2015	13:10:00.561	$GPGGA,131001,2426.4262,N,08057.7175,W,1,10,1.3,19,M,,M,,*67
06/15/2015	13:10:01.540	$GPGGA,131002,2426.4256,N,08057.7170,W,1,10,1.3,19,M,,M,,*66
06/15/2015	13:10:02.550	$GPGGA,131003,2426.4254,N,08057.7162,W,1,10,1.3,19,M,,M,,*66
06/15/2015	13:10:03.620	$GPGGA,131004,2426.4250,N,08057.7153,W,1,10,1.3,19,M,,M,,*67
06/15/2015	13:10:04.535	$GPGGA,131005,2426.4244,N,08057.7148,W,1,10,1.3,19,M,,M,,*69
06/15/2015	13:10:05.524	$GPGGA,131006,2426.4240,N,08057.7143,W,1,10,1.3,19,M,,M,,*65
06/15/2015	13:10:06.550	$GPGGA,131007,2426.4236,N,08057.7134,W,1,10,1.3,19,M,,M,,*65
06/15/2015	13:10:07.540	$GPGGA,131008,2426.4232,N,08057.7126,W,1,10,1.3,19,M,,M,,*6D
06/15/2015	13:10:08.510	$GPGGA,131009,2426.4226,N,08057.7121,W,1,10,1.3,19,M,,M,,*6E
06/15/2015	13:10:09.550	$GPGGA,131010,2426.4222,N,08057.7116,W,1,9,1.3,19,M,,M,,*5E
06/15/2015	13:10:10.530	$GPGGA,131011,2426.4218,N,08057.7110,W,1,9,1.3,19,M,,M,,*50
06/15/2015	13:10:11.560	$GPGGA,131012,2426.4214,N,08057.7104,W,1,10,1.3,19,M,,M,,*62
06/15/2015	13:10:12.530	$GPGGA,131013,2426.4209,N,08057.7099,W,1,10,1.3,19,M,,M,,*6A
06/15/2015	13:10:13.540	$GPGGA,131014,2426.4203,N,08057.7096,W,1,10,1.3,19,M,,M,,*68
06/15/2015	13:10:14.521	$GPGGA,131015,2426.4200,N,08057.7086,W,1,10,1.3,19,M,,M,,*6B
06/15/2015	13:10:15.650	$GPGGA,131016,2426.4196,N,08057.7078,W,1,9,1.3,19,M,,M,,*5D
06/15/2015	13:10:16.530	$GPGGA,131017,2426.4191,N,08057.7071,W,1,9,1.5,19,M,,M,,*54
06/15/2015	13:10:17.500	$GPGGA,131018,2426.4187,N,08057.7062,W,1,9,1.3,19,M,,M,,*58
06/15/2015	13:10:18.610	$GPGGA,131019,2426.4183,N,08057.7052,W,1,9,1.5,19,M,,M,,*58
06/15/2015	13:10:19.539	$GPGGA,131020,2426.4178,N,08057.7045,W,1,9,1.5,19,M,,M,,*50
06/15/2015	13:10:20.519	$GPGGA,131021,2426.4174,N,08057.7037,W,1,9,1.3,19,M,,M,,*5E
06/15/2015	13:10:21.509	$GPGGA,131022,2426.4171,N,08057.7027,W,1,9,1.3,19,M,,M,,*59
06/15/2015	13:10:22.510	$GPGGA,131023,2426.4166,N,08057.7020,W,1,9,1.3,19,M,,M,,*59
06/15/2015	13:10:23.624	$GPGGA,131024,2426.4161,N,08057.7019,W,1,10,1.5,19,M,,M,,*6D
06/15/2015	13:10:24.590	$GPGGA,131025,2426.4155,N,08057.7013,W,1,10,1.3,19,M,,M,,*67
06/15/2015	13:10:25.620	$GPGGA,131026,2426.4151,N,08057.7007,W,1,10,1.3,19,M,,M,,*65
06/15/2015	13:10:26.580	$GPGGA,131027,2426.4147,N,08057.7004,W,1,10,1.3,19,M,,M,,*60
06/15/2015	13:10:27.621	$GPGGA,131028,2426.4142,N,08057.7001,W,1,10,1.3,19,M,,M,,*6F
06/15/2015	13:10:28.600	$GPGGA,131029,2426.4137,N,08057.6993,W,1,10,1.3,19,M,,M,,*6F
06/15/2015	13:10:29.580	$GPGGA,131030,2426.4135,N,08057.6987,W,1,9,1.3,19,M,,M,,*58
06/15/2015	13:10:30.580	$GPGGA,131031,2426.4130,N,08057.6981,W,1,9,1.3,19,M,,M,,*5A
06/15/2015	13:10:31.600	$GPGGA,131032,2426.4125,N,08057.6973,W,1,10,1.3,19,M,,M,,*68
06/15/2015	13:10:32.570	$GPGGA,131033,2426.4121,N,08057.6967,W,1,10,1.3,19,M,,M,,*68
06/15/2015	13:10:33.580	$GPGGA,131034,2426.4117,N,08057.6959,W,1,10,1.3,19,M,,M,,*67
06/15/2015	13:10:34.570	$GPGGA,131035,2426.4113,N,08057.6952,W,1,10,1.3,19,M,,M,,*69
06/15/2015	13:10:35.590	$GPGGA,131036,2426.4109,N,08057.6945,W,1,10,1.3,19,M,,M,,*67
06/15/2015	13:10:36.559	$GPGGA,131037,2426.4104,N,08057.6938,W,1,10,1.3,19,M,,M,,*61
06/15/2015	13:10:37.579	$GPGGA,131038,2426.4099,N,08057.6931,W,1,10,1.3,19,M,,M,,*62
06/15/2015	13:10:38.559	$GPGGA,131039,2426.4095,N,08057.6924,W,1,10,1.5,19,M,,M,,*6D
06/15/2015	13:10:39.590	$GPGGA,131040,2426.4091,N,08057.6920,W,1,8,1.5,19,M,,M,,*5A
06/15/2015	13:10:40.560	$GPGGA,131041,2426.4086,N,08057.6916,W,1,8,1.3,19,M,,M,,*5E
06/15/2015	13:10:41.560	$GPGGA,131042,2426.4082,N,08057.6909,W,1,9,1.5,19,M,,M,,*50
06/15/2015	13:10:42.550	$GPGGA,131043,2426.4079,N,08057.6902,W,1,9,1.3,19,M,,M,,*58
06/15/2015	13:10:43.590	$GPGGA,131044,2426.4075,N,08057.6896,W,1,10,1.3,18,M,,M,,*66
06/15/2015	13:10:44.541	$GPGGA,131045,2426.4070,N,08057.6890,W,1,10,1.3,18,M,,M,,*64
06/15/2015	13:10:45.550	$GPGGA,131046,2426.4068,N,08057.6881,W,1,10,1.3,18,M,,M,,*6E
06/15/2015	13:10:46.550	$GPGGA,131047,2426.4066,N,08057.6874,W,1,10,1.3,18,M,,M,,*6B
06/15/2015	13:10:47.570	$GPGGA,131048,2426.4059,N,08057.6870,W,1,10,1.3,18,M,,M,,*6C
06/15/2015	13:10:48.550	$GPGGA,131049,2426.4055,N,08057.6863,W,1,10,1.3,18,M,,M,,*63
06/15/2015	13:10:49.560	$GPGGA,131050,2426.4053,N,08057.6854,W,1,9,1.5,18,M,,M,,*57
06/15/2015	13:10:50.535	$GPGGA,131051,2426.4049,N,08057.6848,W,1,9,1.3,18,M,,M,,*56
06/15/2015	13:10:51.537	$GPGGA,131052,2426.4043,N,08057.6843,W,1,9,1.5,18,M,,M,,*52
06/15/2015	13:10:52.533	$GPGGA,131053,2426.4039,N,08057.6836,W,1,9,1.3,18,M,,M,,*5A
06/15/2015	13:10:53.527	$GPGGA,131054,2426.4036,N,08057.6827,W,1,10,1.3,18,M,,M,,*6A
06/15/2015	13:10:54.540	$GPGGA,131055,2426.4034,N,08057.6819,W,1,10,1.3,18,M,,M,,*64
06/15/2015	13:10:55.569	$GPGGA,131056,2426.4030,N,08057.6814,W,1,10,1.3,18,M,,M,,*6E
06/15/2015	13:10:56.534	$GPGGA,131057,2426.4024,N,08057.6809,W,1,10,1.3,18,M,,M,,*66
06/15/2015	13:10:57.536	$GPGGA,131058,2426.4020,N,08057.6801,W,1,10,1.3,18,M,,M,,*65
06/15/2015	13:10:58.524	$GPGGA,131059,2426.4017,N,08057.6795,W,1,10,1.3,18,M,,M,,*62
06/15/2015	13:10:59.570	$GPGGA,131100,2426.4012,N,08057.6790,W,1,10,1.3,18,M,,M,,*6F
06/15/2015	13:11:00.534	$GPGGA,131101,2426.4008,N,08057.6784,W,1,10,1.3,18,M,,M,,*60
06/15/2015	13:11:01.510	$GPGGA,131102,2426.4005,N,08057.6778,W,1,9,1.4,18,M,,M,,*52
06/15/2015	13:11:02.625	$GPGGA,131103,2426.3996,N,08057.6770,W,1,9,1.4,19,M,,M,,*5E
06/15/2015	13:11:03.610	$GPGGA,131104,2426.3994,N,08057.6763,W,1,10,1.3,19,M,,M,,*66
06/15/2015	13:11:04.500	$GPGGA,131105,2426.3992,N,08057.6757,W,1,10,1.3,19,M,,M,,*66
06/15/2015	13:11:05.510	$GPGGA,131106,2426.3987,N,08057.6753,W,1,10,1.3,19,M,,M,,*65
06/15/2015	13:11:06.500	$GPGGA,131107,2426.3983,N,08057.6745,W,1,10,1.3,19,M,,M,,*67
06/15/2015	13:11:07.639	$GPGGA,131108,2426.3981,N,08057.6736,W,1,8,1.5,19,M,,M,,*51
06/15/2015	13:11:08.510	$GPGGA,131109,2426.3978,N,08057.6731,W,1,8,1.3,19,M,,M,,*57
06/15/2015	13:11:09.490	$GPGGA,131110,2426.3973,N,08057.6727,W,1,10,1.3,19,M,,M,,*6A
06/15/2015	13:11:10.580	$GPGGA,131111,2426.3969,N,08057.6718,W,1,10,1.3,19,M,,M,,*6C
06/15/2015	13:11:11.600	$GPGGA,131112,2426.3965,N,08057.6710,W,1,9,1.4,19,M,,M,,*54
06/15/2015	13:11:12.499	$GPGGA,131113,2426.3960,N,08057.6704,W,1,9,1.3,19,M,,M,,*52
06/15/2015	13:11:13.599	$GPGGA,131114,2426.3956,N,08057.6698,W,1,10,1.3,19,M,,M,,*6C
06/15/2015	13:11:14.490	$GPGGA,131115,2426.3952,N,08057.6690,W,1,10,1.3,19,M,,M,,*61
06/15/2015	13:11:15.510	$GPGGA,131116,2426.3948,N,08057.6683,W,1,10,1.3,19,M,,M,,*6B
06/15/2015	13:11:16.580	$GPGGA,131117,2426.3943,N,08057.6677,W,1,10,1.4,19,M,,M,,*6D
06/15/2015	13:11:17.570	$GPGGA,131118,2426.3940,N,08057.6669,W,1,10,1.3,19,M,,M,,*69
06/15/2015	13:11:18.570	$GPGGA,131119,2426.3936,N,08057.6662,W,1,10,1.3,18,M,,M,,*63
06/15/2015	13:11:19.580	$GPGGA,131120,2426.3930,N,08057.6656,W,1,10,1.3,18,M,,M,,*68
06/15/2015	13:11:20.570	$GPGGA,131121,2426.3926,N,08057.6648,W,1,10,1.3,18,M,,M,,*61
06/15/2015	13:11:21.580	$GPGGA,131122,2426.3922,N,08057.6641,W,1,10,1.3,18,M,,M,,*6F
06/15/2015	13:11:22.570	$GPGGA,131123,2426.3918,N,08057.6634,W,1,10,1.3,18,M,,M,,*65
06/15/2015	13:11:23.590	$GPGGA,131124,2426.3913,N,08057.6627,W,1,10,1.3,18,M,,M,,*6B
06/15/2015	13:11:24.570	$GPGGA,131125,2426.3909,N,08057.6620,W,1,10,1.3,18,M,,M,,*66
06/15/2015	13:11:25.570	$GPGGA,131126,2426.3904,N,08057.6613,W,1,10,1.3,18,M,,M,,*68
06/15/2015	13:11:26.550	$GPGGA,131127,2426.3900,N,08057.6606,W,1,10,1.3,18,M,,M,,*69
06/15/2015	13:11:27.580	$GPGGA,131128,2426.3895,N,08057.6598,W,1,10,1.3,18,M,,M,,*6F
06/15/2015	13:11:28.560	$GPGGA,131129,2426.3891,N,08057.6592,W,1,10,1.3,18,M,,M,,*60
06/15/2015	13:11:29.569	$GPGGA,131130,2426.3885,N,08057.6586,W,1,10,1.3,18,M,,M,,*68
06/15/2015	13:11:30.559	$GPGGA,131131,2426.3882,N,08057.6578,W,1,10,1.3,18,M,,M,,*6F
06/15/2015	13:11:31.560	$GPGGA,131132,2426.3877,N,08057.6571,W,1,9,1.3,18,M,,M,,*57
06/15/2015	13:11:32.550	$GPGGA,131133,2426.3873,N,08057.6564,W,1,9,1.3,18,M,,M,,*56
06/15/2015	13:11:33.540	$GPGGA,131134,2426.3867,N,08057.6558,W,1,10,1.3,18,M,,M,,*63
06/15/2015	13:11:34.540	$GPGGA,131135,2426.3862,N,08057.6551,W,1,10,1.3,18,M,,M,,*6E
06/15/2015	13:11:35.590	$GPGGA,131136,2426.3858,N,08057.6544,W,1,9,1.3,18,M,,M,,*58
06/15/2015	13:11:36.532	$GPGGA,131137,2426.3853,N,08057.6536,W,1,9,1.3,18,M,,M,,*57
06/15/2015	13:11:37.530	$GPGGA,131138,2426.3849,N,08057.6530,W,1,10,1.3,18,M,,M,,*6D
06/15/2015	13:11:38.534	$GPGGA,131139,2426.3844,N,08057.6523,W,1,10,1.3,18,M,,M,,*63
06/15/2015	13:11:39.580	$GPGGA,131140,2426.3840,N,08057.6515,W,1,10,1.3,18,M,,M,,*6C
06/15/2015	13:11:40.540	$GPGGA,131141,2426.3835,N,08057.6508,W,1,10,1.3,18,M,,M,,*63
06/15/2015	13:11:41.540	$GPGGA,131142,2426.3830,N,08057.6502,W,1,10,1.3,18,M,,M,,*6F
