Software Version Number: 1	Data File Format Number: 1	Build Version Number: 1	Error Count Since VI Started: 1	Manufacturer: Raytheon	 Model Number: RayMarine 120	 S/N: 	 Cal Date: 	 Wind Direction Offset: 0.00	 Slope (M)1: 0.00	 Offset (B)1: 0.00	 Slope (M)2: 0.00	 Offset (B)2: 0.00	 Slope (M)3: 0.00	 Offset (B)3: 0.00	 Slope (M)4: 0.00	 Offset (B)4: 0.00	 Slope (M)5: 0.00	 Offset (B)5: 0.00	 Slope (M)6: 0.00	 Offset (B)6: 0.00
Computer Date	Computer Time	GGA String
06/19/2015	04:00:00.569	$GPGGA,040001,2556.3958,N,07916.5034,W,1,10,1.4,21,M,,M,,*6A
06/19/2015	04:00:01.609	$GPGGA,040002,2556.3936,N,07916.5034,W,1,10,1.4,21,M,,M,,*61
06/19/2015	04:00:02.569	$GPGGA,040003,2556.3915,N,07916.5033,W,1,10,1.4,21,M,,M,,*66
06/19/2015	04:00:03.589	$GPGGA,040004,2556.3894,N,07916.5031,W,1,10,1.4,21,M,,M,,*6B
06/19/2015	04:00:04.559	$GPGGA,040005,2556.3875,N,07916.5032,W,1,10,1.4,21,M,,M,,*66
06/19/2015	04:00:05.569	$GPGGA,040006,2556.3853,N,07916.5029,W,1,10,1.4,21,M,,M,,*6B
06/19/2015	04:00:06.559	$GPGGA,040007,2556.3832,N,07916.5028,W,1,10,1.4,21,M,,M,,*6C
06/19/2015	04:00:07.579	$GPGGA,040008,2556.3811,N,07916.5027,W,1,10,1.4,21,M,,M,,*6D
06/19/2015	04:00:08.550	$GPGGA,040009,2556.3790,N,07916.5026,W,1,10,1.4,21,M,,M,,*6B
06/19/2015	04:00:09.540	$GPGGA,040010,2556.3770,N,07916.5025,W,1,10,1.4,21,M,,M,,*6E
06/19/2015	04:00:10.550	$GPGGA,040011,2556.3747,N,07916.5025,W,1,10,1.4,21,M,,M,,*6B
06/19/2015	04:00:11.641	$GPGGA,040012,2556.3727,N,07916.5023,W,1,10,1.4,21,M,,M,,*68
06/19/2015	04:00:12.540	$GPGGA,040013,2556.3706,N,07916.5022,W,1,10,1.4,21,M,,M,,*6B
06/19/2015	04:00:13.570	$GPGGA,040014,2556.3684,N,07916.5020,W,1,10,1.4,21,M,,M,,*65
06/19/2015	04:00:14.531	$GPGGA,040015,2556.3665,N,07916.5020,W,1,10,1.4,21,M,,M,,*6B
06/19/2015	04:00:15.559	$GPGGA,040016,2556.3644,N,07916.5019,W,1,10,1.4,21,M,,M,,*61
06/19/2015	04:00:16.542	$GPGGA,040017,2556.3623,N,07916.5017,W,1,10,1.4,21,M,,M,,*6F
06/19/2015	04:00:17.531	$GPGGA,040018,2556.3602,N,07916.5016,W,1,10,1.4,21,M,,M,,*62
06/19/2015	04:00:18.519	$GPGGA,040019,2556.3580,N,07916.5018,W,1,10,1.4,21,M,,M,,*64
06/19/2015	04:00:19.549	$GPGGA,040020,2556.3560,N,07916.5014,W,1,10,1.4,21,M,,M,,*6C
06/19/2015	04:00:20.529	$GPGGA,040021,2556.3539,N,07916.5013,W,1,10,1.4,21,M,,M,,*66
06/19/2015	04:00:21.519	$GPGGA,040022,2556.3517,N,07916.5014,W,1,10,1.4,21,M,,M,,*6E
06/19/2015	04:00:22.509	$GPGGA,040023,2556.3496,N,07916.5012,W,1,10,1.4,21,M,,M,,*61
06/19/2015	04:00:23.559	$GPGGA,040024,2556.3476,N,07916.5009,W,1,10,1.4,21,M,,M,,*62
06/19/2015	04:00:24.519	$GPGGA,040025,2556.3456,N,07916.5008,W,1,10,1.4,21,M,,M,,*60
06/19/2015	04:00:25.531	$GPGGA,040026,2556.3435,N,07916.5007,W,1,10,1.4,21,M,,M,,*69
06/19/2015	04:00:26.510	$GPGGA,040027,2556.3414,N,07916.5006,W,1,10,1.4,21,M,,M,,*6A
06/19/2015	04:00:27.531	$GPGGA,040028,2556.3394,N,07916.5005,W,1,10,1.4,21,M,,M,,*69
06/19/2015	04:00:28.510	$GPGGA,040029,2556.3373,N,07916.5003,W,1,10,1.4,21,M,,M,,*67
06/19/2015	04:00:29.532	$GPGGA,040030,2556.3352,N,07916.5002,W,1,10,1.4,21,M,,M,,*6D
06/19/2015	04:00:30.510	$GPGGA,040031,2556.3331,N,07916.5001,W,1,10,1.4,21,M,,M,,*6A
06/19/2015	04:00:31.520	$GPGGA,040032,2556.3311,N,07916.5000,W,1,10,1.4,21,M,,M,,*6A
06/19/2015	04:00:32.509	$GPGGA,040033,2556.3290,N,07916.4999,W,1,10,1.4,21,M,,M,,*6B
06/19/2015	04:00:33.499	$GPGGA,040034,2556.3270,N,07916.4998,W,1,10,1.4,21,M,,M,,*63
06/19/2015	04:00:34.519	$GPGGA,040035,2556.3250,N,07916.4996,W,1,10,1.4,21,M,,M,,*6E
06/19/2015	04:00:35.519	$GPGGA,040036,2556.3228,N,07916.4995,W,1,9,1.9,21,M,,M,,*54
06/19/2015	04:00:36.509	$GPGGA,040037,2556.3207,N,07916.4994,W,1,9,1.4,21,M,,M,,*54
06/19/2015	04:00:37.619	$GPGGA,040038,2556.3186,N,07916.4994,W,1,10,1.4,21,M,,M,,*69
06/19/2015	04:00:38.509	$GPGGA,040039,2556.3165,N,07916.4996,W,1,10,1.4,21,M,,M,,*67
06/19/2015	04:00:39.629	$GPGGA,040040,2556.3145,N,07916.4992,W,1,10,1.4,21,M,,M,,*6F
06/19/2015	04:00:40.589	$GPGGA,040041,2556.3124,N,07916.4993,W,1,10,1.9,21,M,,M,,*65
06/19/2015	04:00:41.599	$GPGGA,040042,2556.3103,N,07916.4993,W,1,10,1.4,21,M,,M,,*6E
06/19/2015	04:00:42.579	$GPGGA,040043,2556.3082,N,07916.4994,W,1,10,1.4,21,M,,M,,*60
06/19/2015	04:00:43.620	$GPGGA,040044,2556.3062,N,07916.4996,W,1,10,1.4,21,M,,M,,*6B
06/19/2015	04:00:44.580	$GPGGA,040045,2556.3040,N,07916.4994,W,1,10,1.4,21,M,,M,,*68
06/19/2015	04:00:45.590	$GPGGA,040046,2556.3019,N,07916.4994,W,1,10,1.4,21,M,,M,,*67
06/19/2015	04:00:46.590	$GPGGA,040047,2556.2998,N,07916.4994,W,1,10,1.4,21,M,,M,,*67
06/19/2015	04:00:47.600	$GPGGA,040048,2556.2977,N,07916.4994,W,1,10,1.4,21,M,,M,,*69
06/19/2015	04:00:48.560	$GPGGA,040049,2556.2957,N,07916.4993,W,1,10,1.4,21,M,,M,,*6D
06/19/2015	04:00:49.560	$GPGGA,040050,2556.2935,N,07916.4993,W,1,10,1.4,21,M,,M,,*61
06/19/2015	04:00:50.559	$GPGGA,040051,2556.2914,N,07916.4993,W,1,10,1.4,21,M,,M,,*63
06/19/2015	04:00:51.619	$GPGGA,040052,2556.2893,N,07916.4993,W,1,10,1.4,21,M,,M,,*6E
06/19/2015	04:00:52.559	$GPGGA,040053,2556.2874,N,07916.4993,W,1,10,1.4,21,M,,M,,*66
06/19/2015	04:00:53.559	$GPGGA,040054,2556.2852,N,07916.4993,W,1,10,1.4,21,M,,M,,*65
06/19/2015	04:00:54.559	$GPGGA,040055,2556.2831,N,07916.4990,W,1,10,1.4,21,M,,M,,*62
06/19/2015	04:00:55.589	$GPGGA,040056,2556.2810,N,07916.4988,W,1,9,1.9,21,M,,M,,*5E
06/19/2015	04:00:56.569	$GPGGA,040057,2556.2791,N,07916.4987,W,1,9,1.9,21,M,,M,,*56
06/19/2015	04:00:57.543	$GPGGA,040058,2556.2769,N,07916.4987,W,1,10,1.4,21,M,,M,,*6B
06/19/2015	04:00:58.559	$GPGGA,040059,2556.2749,N,07916.4984,W,1,10,1.4,21,M,,M,,*6B
06/19/2015	04:00:59.589	$GPGGA,040100,2556.2727,N,07916.4986,W,1,9,1.9,21,M,,M,,*59
06/19/2015	04:01:00.541	$GPGGA,040101,2556.2708,N,07916.4985,W,1,9,1.4,21,M,,M,,*5B
06/19/2015	04:01:01.549	$GPGGA,040102,2556.2686,N,07916.4986,W,1,10,1.4,21,M,,M,,*64
06/19/2015	04:01:02.546	$GPGGA,040103,2556.2665,N,07916.4984,W,1,10,1.4,21,M,,M,,*6A
06/19/2015	04:01:03.570	$GPGGA,040104,2556.2644,N,07916.4985,W,1,10,1.4,21,M,,M,,*6F
06/19/2015	04:01:04.544	$GPGGA,040105,2556.2625,N,07916.4983,W,1,10,1.4,21,M,,M,,*6F
06/19/2015	04:01:05.560	$GPGGA,040106,2556.2603,N,07916.4981,W,1,10,1.4,21,M,,M,,*6A
06/19/2015	04:01:06.550	$GPGGA,040107,2556.2582,N,07916.4982,W,1,10,1.4,21,M,,M,,*62
06/19/2015	04:01:07.579	$GPGGA,040108,2556.2562,N,07916.4979,W,1,10,1.4,21,M,,M,,*67
06/19/2015	04:01:08.547	$GPGGA,040109,2556.2542,N,07916.4978,W,1,10,1.4,21,M,,M,,*65
06/19/2015	04:01:09.519	$GPGGA,040110,2556.2520,N,07916.4978,W,1,10,1.4,21,M,,M,,*69
06/19/2015	04:01:10.537	$GPGGA,040111,2556.2500,N,07916.4976,W,1,10,1.4,21,M,,M,,*64
06/19/2015	04:01:11.543	$GPGGA,040112,2556.2478,N,07916.4975,W,1,10,1.4,21,M,,M,,*6A
06/19/2015	04:01:12.645	$GPGGA,040113,2556.2458,N,07916.4973,W,1,10,1.4,21,M,,M,,*6F
06/19/2015	04:01:13.632	$GPGGA,040114,2556.2438,N,07916.4972,W,1,10,1.4,21,M,,M,,*6F
06/19/2015	04:01:14.519	$GPGGA,040115,2556.2417,N,07916.4970,W,1,10,1.4,21,M,,M,,*61
06/19/2015	04:01:15.569	$GPGGA,040116,2556.2397,N,07916.4969,W,1,10,1.4,21,M,,M,,*65
06/19/2015	04:01:16.519	$GPGGA,040117,2556.2376,N,07916.4967,W,1,10,1.4,21,M,,M,,*65
06/19/2015	04:01:17.619	$GPGGA,040118,2556.2355,N,07916.4965,W,1,10,1.4,21,M,,M,,*69
06/19/2015	04:01:18.635	$GPGGA,040119,2556.2333,N,07916.4964,W,1,10,1.4,21,M,,M,,*69
06/19/2015	04:01:19.640	$GPGGA,040120,2556.2314,N,07916.4962,W,1,10,1.4,21,M,,M,,*60
06/19/2015	04:01:20.500	$GPGGA,040121,2556.2292,N,07916.4961,W,1,10,1.4,21,M,,M,,*6D
06/19/2015	04:01:21.520	$GPGGA,040122,2556.2272,N,07916.4959,W,1,10,1.4,21,M,,M,,*6B
06/19/2015	04:01:22.600	$GPGGA,040123,2556.2251,N,07916.4957,W,1,10,1.4,21,M,,M,,*65
06/19/2015	04:01:23.540	$GPGGA,040124,2556.2231,N,07916.4956,W,1,10,1.4,21,M,,M,,*65
06/19/2015	04:01:24.520	$GPGGA,040125,2556.2209,N,07916.4955,W,1,10,1.4,21,M,,M,,*6C
06/19/2015	04:01:25.489	$GPGGA,040126,2556.2189,N,07916.4954,W,1,10,1.4,21,M,,M,,*65
06/19/2015	04:01:26.589	$GPGGA,040127,2556.2168,N,07916.4952,W,1,10,1.4,21,M,,M,,*6D
06/19/2015	04:01:27.600	$GPGGA,040128,2556.2148,N,07916.4951,W,1,10,1.4,22,M,,M,,*60
06/19/2015	04:01:28.509	$GPGGA,040129,2556.2126,N,07916.4950,W,1,10,1.4,22,M,,M,,*68
06/19/2015	04:01:29.589	$GPGGA,040130,2556.2105,N,07916.4948,W,1,10,1.4,22,M,,M,,*68
06/19/2015	04:01:30.489	$GPGGA,040131,2556.2085,N,07916.4947,W,1,10,1.4,22,M,,M,,*6F
06/19/2015	04:01:31.649	$GPGGA,040132,2556.2065,N,07916.4946,W,1,10,1.4,22,M,,M,,*63
06/19/2015	04:01:32.579	$GPGGA,040133,2556.2043,N,07916.4946,W,1,10,1.4,22,M,,M,,*66
06/19/2015	04:01:33.599	$GPGGA,040134,2556.2022,N,07916.4945,W,1,10,1.4,22,M,,M,,*65
06/19/2015	04:01:34.579	$GPGGA,040135,2556.2001,N,07916.4941,W,1,10,1.4,22,M,,M,,*61
06/19/2015	04:01:35.579	$GPGGA,040136,2556.1980,N,07916.4943,W,1,9,1.9,22,M,,M,,*56
06/19/2015	04:01:36.580	$GPGGA,040137,2556.1960,N,07916.4942,W,1,9,1.4,22,M,,M,,*55
06/19/2015	04:01:37.570	$GPGGA,040138,2556.1939,N,07916.4939,W,1,10,1.4,21,M,,M,,*61
06/19/2015	04:01:39.062	$GPGGA,040139,2556.1918,N,07916.4939,W,1,10,1.9,21,M,,M,,*6E
06/19/2015	04:01:39.600	$GPGGA,040140,2556.1896,N,07916.4937,W,1,10,1.4,21,M,,M,,*64
06/19/2015	04:01:40.570	$GPGGA,040141,2556.1877,N,07916.4935,W,1,10,1.9,21,M,,M,,*65
06/19/2015	04:01:41.560	$GPGGA,040142,2556.1855,N,07916.4933,W,1,9,1.9,21,M,,M,,*58
06/19/2015	04:01:42.569	$GPGGA,040143,2556.1835,N,07916.4932,W,1,9,1.9,21,M,,M,,*5E
06/19/2015	04:01:43.569	$GPGGA,040144,2556.1813,N,07916.4931,W,1,9,1.9,21,M,,M,,*5E
06/19/2015	04:01:44.559	$GPGGA,040145,2556.1792,N,07916.4929,W,1,9,1.9,21,M,,M,,*50
06/19/2015	04:01:45.569	$GPGGA,040146,2556.1772,N,07916.4931,W,1,9,1.9,21,M,,M,,*54
06/19/2015	04:01:46.549	$GPGGA,040147,2556.1751,N,07916.4929,W,1,9,1.4,20,M,,M,,*51
06/19/2015	04:01:47.589	$GPGGA,040148,2556.1730,N,07916.4928,W,1,10,1.4,20,M,,M,,*60
06/19/2015	04:01:48.549	$GPGGA,040149,2556.1708,N,07916.4929,W,1,10,1.9,20,M,,M,,*66
06/19/2015	04:01:49.569	$GPGGA,040150,2556.1689,N,07916.4931,W,1,10,1.4,20,M,,M,,*62
06/19/2015	04:01:50.549	$GPGGA,040151,2556.1666,N,07916.4930,W,1,10,1.4,20,M,,M,,*63
06/19/2015	04:01:51.599	$GPGGA,040152,2556.1646,N,07916.4931,W,1,10,1.4,20,M,,M,,*63
06/19/2015	04:01:52.549	$GPGGA,040153,2556.1624,N,07916.4931,W,1,10,1.4,20,M,,M,,*66
06/19/2015	04:01:53.530	$GPGGA,040154,2556.1603,N,07916.4931,W,1,10,1.4,20,M,,M,,*64
06/19/2015	04:01:54.550	$GPGGA,040155,2556.1582,N,07916.4931,W,1,10,1.4,20,M,,M,,*6F
06/19/2015	04:01:55.580	$GPGGA,040156,2556.1560,N,07916.4932,W,1,10,1.4,20,M,,M,,*63
06/19/2015	04:01:56.560	$GPGGA,040157,2556.1539,N,07916.4931,W,1,10,1.4,20,M,,M,,*6D
06/19/2015	04:01:57.560	$GPGGA,040158,2556.1518,N,07916.4930,W,1,10,1.4,20,M,,M,,*60
06/19/2015	04:01:58.540	$GPGGA,040159,2556.1497,N,07916.4931,W,1,10,1.4,20,M,,M,,*66
06/19/2015	04:01:59.590	$GPGGA,040200,2556.1477,N,07916.4930,W,1,10,1.4,20,M,,M,,*66
06/19/2015	04:02:00.541	$GPGGA,040201,2556.1455,N,07916.4929,W,1,10,1.4,20,M,,M,,*6F
06/19/2015	04:02:01.549	$GPGGA,040202,2556.1436,N,07916.4927,W,1,10,1.4,20,M,,M,,*67
06/19/2015	04:02:02.519	$GPGGA,040203,2556.1414,N,07916.4926,W,1,10,1.4,20,M,,M,,*67
06/19/2015	04:02:03.569	$GPGGA,040204,2556.1393,N,07916.4925,W,1,10,1.4,20,M,,M,,*6B
06/19/2015	04:02:04.529	$GPGGA,040205,2556.1372,N,07916.4924,W,1,10,1.4,20,M,,M,,*64
06/19/2015	04:02:05.547	$GPGGA,040206,2556.1351,N,07916.4922,W,1,10,1.4,20,M,,M,,*60
06/19/2015	04:02:06.532	$GPGGA,040207,2556.1330,N,07916.4921,W,1,10,1.4,20,M,,M,,*65
06/19/2015	04:02:07.541	$GPGGA,040208,2556.1310,N,07916.4919,W,1,10,1.4,20,M,,M,,*63
06/19/2015	04:02:08.531	$GPGGA,040209,2556.1288,N,07916.4918,W,1,10,1.4,20,M,,M,,*63
06/19/2015	04:02:09.629	$GPGGA,040210,2556.1268,N,07916.4916,W,1,10,1.4,20,M,,M,,*6B
06/19/2015	04:02:10.529	$GPGGA,040211,2556.1246,N,07916.4915,W,1,10,1.4,20,M,,M,,*65
06/19/2015	04:02:11.530	$GPGGA,040212,2556.1225,N,07916.4914,W,1,10,1.4,20,M,,M,,*62
06/19/2015	04:02:12.520	$GPGGA,040213,2556.1205,N,07916.4912,W,1,10,1.4,20,M,,M,,*67
06/19/2015	04:02:13.620	$GPGGA,040214,2556.1183,N,07916.4910,W,1,10,1.4,20,M,,M,,*6F
06/19/2015	04:02:14.500	$GPGGA,040215,2556.1162,N,07916.4910,W,1,10,1.4,20,M,,M,,*61
06/19/2015	04:02:15.510	$GPGGA,040216,2556.1141,N,07916.4909,W,1,10,1.4,20,M,,M,,*6B
06/19/2015	04:02:16.600	$GPGGA,040217,2556.1120,N,07916.4907,W,1,10,1.4,21,M,,M,,*62
06/19/2015	04:02:17.609	$GPGGA,040218,2556.1100,N,07916.4906,W,1,10,1.4,21,M,,M,,*6E
06/19/2015	04:02:18.599	$GPGGA,040219,2556.1078,N,07916.4905,W,1,10,1.4,21,M,,M,,*62
06/19/2015	04:02:19.509	$GPGGA,040220,2556.1057,N,07916.4904,W,1,10,1.4,21,M,,M,,*64
06/19/2015	04:02:20.589	$GPGGA,040221,2556.1036,N,07916.4903,W,1,10,1.4,21,M,,M,,*65
06/19/2015	04:02:21.589	$GPGGA,040222,2556.1015,N,07916.4902,W,1,10,1.4,21,M,,M,,*66
06/19/2015	04:02:22.579	$GPGGA,040223,2556.0994,N,07916.4901,W,1,10,1.4,21,M,,M,,*65
06/19/2015	04:02:23.619	$GPGGA,040224,2556.0974,N,07916.4900,W,1,10,1.4,21,M,,M,,*6D
06/19/2015	04:02:24.579	$GPGGA,040225,2556.0952,N,07916.4899,W,1,10,1.4,21,M,,M,,*69
06/19/2015	04:02:25.599	$GPGGA,040226,2556.0931,N,07916.4897,W,1,10,1.4,21,M,,M,,*61
06/19/2015	04:02:26.589	$GPGGA,040227,2556.0910,N,07916.4896,W,1,10,1.4,21,M,,M,,*62
06/19/2015	04:02:27.609	$GPGGA,040228,2556.0889,N,07916.4895,W,1,10,1.4,21,M,,M,,*6F
06/19/2015	04:02:28.570	$GPGGA,040229,2556.0867,N,07916.4894,W,1,10,1.4,21,M,,M,,*6F
06/19/2015	04:02:29.600	$GPGGA,040230,2556.0847,N,07916.4892,W,1,10,1.4,21,M,,M,,*63
06/19/2015	04:02:30.570	$GPGGA,040231,2556.0826,N,07916.4891,W,1,10,1.4,21,M,,M,,*66
06/19/2015	04:02:31.600	$GPGGA,040232,2556.0804,N,07916.4890,W,1,10,1.4,21,M,,M,,*64
06/19/2015	04:02:32.570	$GPGGA,040233,2556.0784,N,07916.4889,W,1,10,1.4,21,M,,M,,*6A
06/19/2015	04:02:33.580	$GPGGA,040234,2556.0762,N,07916.4888,W,1,10,1.4,21,M,,M,,*64
06/19/2015	04:02:34.560	$GPGGA,040235,2556.0741,N,07916.4887,W,1,10,1.4,21,M,,M,,*6B
06/19/2015	04:02:35.589	$GPGGA,040236,2556.0719,N,07916.4885,W,1,10,1.4,21,M,,M,,*67
06/19/2015	04:02:36.559	$GPGGA,040237,2556.0699,N,07916.4884,W,1,10,1.4,21,M,,M,,*6E
06/19/2015	04:02:37.559	$GPGGA,040238,2556.0677,N,07916.4883,W,1,10,1.4,21,M,,M,,*66
06/19/2015	04:02:38.569	$GPGGA,040239,2556.0656,N,07916.4882,W,1,10,1.4,21,M,,M,,*65
06/19/2015	04:02:39.579	$GPGGA,040240,2556.0635,N,07916.4881,W,1,10,1.4,21,M,,M,,*6D
06/19/2015	04:02:40.550	$GPGGA,040241,2556.0614,N,07916.4880,W,1,10,1.4,21,M,,M,,*6E
06/19/2015	04:02:41.569	$GPGGA,040242,2556.0593,N,07916.4879,W,1,10,1.4,21,M,,M,,*67
06/19/2015	04:02:42.549	$GPGGA,040243,2556.0571,N,07916.4878,W,1,10,1.4,21,M,,M,,*6B
06/19/2015	04:02:43.619	$GPGGA,040244,2556.0551,N,07916.4877,W,1,10,1.4,21,M,,M,,*61
06/19/2015	04:02:44.549	$GPGGA,040245,2556.0529,N,07916.4876,W,1,10,1.4,21,M,,M,,*6E
06/19/2015	04:02:45.569	$GPGGA,040246,2556.0508,N,07916.4877,W,1,10,1.4,21,M,,M,,*6F
06/19/2015	04:02:46.530	$GPGGA,040247,2556.0486,N,07916.4875,W,1,10,1.4,21,M,,M,,*6B
06/19/2015	04:02:47.600	$GPGGA,040248,2556.0465,N,07916.4874,W,1,10,1.4,21,M,,M,,*68
06/19/2015	04:02:48.550	$GPGGA,040249,2556.0444,N,07916.4873,W,1,10,1.4,21,M,,M,,*6D
06/19/2015	04:02:49.546	$GPGGA,040250,2556.0424,N,07916.4874,W,1,10,1.4,21,M,,M,,*64
06/19/2015	04:02:50.539	$GPGGA,040251,2556.0403,N,07916.4872,W,1,10,1.5,21,M,,M,,*67
06/19/2015	04:02:51.600	$GPGGA,040252,2556.0383,N,07916.4870,W,1,9,1.4,21,M,,M,,*50
06/19/2015	04:02:52.530	$GPGGA,040253,2556.0363,N,07916.4868,W,1,9,1.4,21,M,,M,,*56
06/19/2015	04:02:53.530	$GPGGA,040254,2556.0343,N,07916.4868,W,1,10,1.4,21,M,,M,,*6B
06/19/2015	04:02:54.643	$GPGGA,040255,2556.0322,N,07916.4868,W,1,10,1.4,21,M,,M,,*6D
06/19/2015	04:02:55.999	$GPGGA,040256,2556.0302,N,07916.4867,W,1,10,1.4,21,M,,M,,*63
06/19/2015	04:02:56.529	$GPGGA,040257,2556.0280,N,07916.4866,W,1,10,1.4,21,M,,M,,*68
06/19/2015	04:02:57.609	$GPGGA,040258,2556.0259,N,07916.4865,W,1,10,1.4,21,M,,M,,*60
06/19/2015	04:02:58.529	$GPGGA,040259,2556.0239,N,07916.4866,W,1,10,1.4,21,M,,M,,*64
06/19/2015	04:02:59.579	$GPGGA,040300,2556.0217,N,07916.4863,W,1,10,1.4,21,M,,M,,*60
06/19/2015	04:03:00.630	$GPGGA,040301,2556.0197,N,07916.4862,W,1,10,1.4,21,M,,M,,*6B
06/19/2015	04:03:01.609	$GPGGA,040302,2556.0177,N,07916.4863,W,1,10,1.4,21,M,,M,,*67
06/19/2015	04:03:02.599	$GPGGA,040303,2556.0156,N,07916.4860,W,1,10,1.4,21,M,,M,,*66
06/19/2015	04:03:03.560	$GPGGA,040304,2556.0135,N,07916.4858,W,1,10,1.4,21,M,,M,,*6F
06/19/2015	04:03:04.600	$GPGGA,040305,2556.0115,N,07916.4859,W,1,10,1.4,21,M,,M,,*6D
06/19/2015	04:03:05.520	$GPGGA,040306,2556.0094,N,07916.4856,W,1,10,1.4,21,M,,M,,*69
06/19/2015	04:03:06.510	$GPGGA,040307,2556.0072,N,07916.4855,W,1,10,1.4,21,M,,M,,*63
06/19/2015	04:03:07.600	$GPGGA,040308,2556.0052,N,07916.4854,W,1,10,1.4,21,M,,M,,*6F
06/19/2015	04:03:08.590	$GPGGA,040309,2556.0031,N,07916.4852,W,1,10,1.4,21,M,,M,,*6D
06/19/2015	04:03:09.520	$GPGGA,040310,2556.0010,N,07916.4850,W,1,10,1.4,21,M,,M,,*64
06/19/2015	04:03:10.579	$GPGGA,040311,2555.9989,N,07916.4850,W,1,10,1.4,21,M,,M,,*66
06/19/2015	04:03:11.609	$GPGGA,040312,2555.9968,N,07916.4848,W,1,10,1.4,21,M,,M,,*63
06/19/2015	04:03:12.589	$GPGGA,040313,2555.9948,N,07916.4847,W,1,10,1.4,21,M,,M,,*6F
06/19/2015	04:03:13.609	$GPGGA,040314,2555.9926,N,07916.4846,W,1,10,1.4,21,M,,M,,*61
06/19/2015	04:03:14.589	$GPGGA,040315,2555.9905,N,07916.4844,W,1,10,1.4,21,M,,M,,*63
06/19/2015	04:03:15.589	$GPGGA,040316,2555.9884,N,07916.4843,W,1,10,1.4,21,M,,M,,*6F
06/19/2015	04:03:16.579	$GPGGA,040317,2555.9863,N,07916.4841,W,1,10,1.4,21,M,,M,,*65
06/19/2015	04:03:17.579	$GPGGA,040318,2555.9843,N,07916.4839,W,1,10,1.4,21,M,,M,,*67
06/19/2015	04:03:18.579	$GPGGA,040319,2555.9820,N,07916.4839,W,1,10,1.4,21,M,,M,,*63
06/19/2015	04:03:19.609	$GPGGA,040320,2555.9800,N,07916.4838,W,1,10,1.4,21,M,,M,,*6A
06/19/2015	04:03:20.569	$GPGGA,040321,2555.9779,N,07916.4836,W,1,10,1.4,21,M,,M,,*64
06/19/2015	04:03:21.560	$GPGGA,040322,2555.9758,N,07916.4835,W,1,10,1.4,21,M,,M,,*67
06/19/2015	04:03:22.570	$GPGGA,040323,2555.9738,N,07916.4834,W,1,10,1.4,21,M,,M,,*61
06/19/2015	04:03:23.590	$GPGGA,040324,2555.9716,N,07916.4831,W,1,10,1.4,21,M,,M,,*6F
06/19/2015	04:03:24.580	$GPGGA,040325,2555.9695,N,07916.4830,W,1,10,1.4,21,M,,M,,*65
06/19/2015	04:03:25.580	$GPGGA,040326,2555.9674,N,07916.4828,W,1,10,1.4,21,M,,M,,*60
06/19/2015	04:03:26.560	$GPGGA,040327,2555.9652,N,07916.4827,W,1,10,1.4,21,M,,M,,*6A
06/19/2015	04:03:27.559	$GPGGA,040328,2555.9631,N,07916.4825,W,1,10,1.4,21,M,,M,,*62
06/19/2015	04:03:28.559	$GPGGA,040329,2555.9631,N,07916.4825,W,1,10,1.4,21,M,,M,,*63
06/19/2015	04:03:29.569	$GPGGA,040330,2555.9590,N,07916.4823,W,1,10,1.4,22,M,,M,,*66
06/19/2015	04:03:30.549	$GPGGA,040331,2555.9568,N,07916.4823,W,1,10,1.4,22,M,,M,,*60
06/19/2015	04:03:31.549	$GPGGA,040332,2555.9547,N,07916.4822,W,1,10,1.4,22,M,,M,,*6F
06/19/2015	04:03:32.539	$GPGGA,040333,2555.9526,N,07916.4820,W,1,10,1.4,22,M,,M,,*6B
06/19/2015	04:03:33.569	$GPGGA,040334,2555.9505,N,07916.4818,W,1,10,1.4,22,M,,M,,*66
06/19/2015	04:03:34.533	$GPGGA,040335,2555.9485,N,07916.4816,W,1,10,1.8,22,M,,M,,*6C
06/19/2015	04:03:35.569	$GPGGA,040336,2555.9464,N,07916.4813,W,1,9,1.8,22,M,,M,,*5D
06/19/2015	04:03:36.569	$GPGGA,040337,2555.9442,N,07916.4811,W,1,9,1.8,22,M,,M,,*5A
06/19/2015	04:03:37.537	$GPGGA,040338,2555.9421,N,07916.4810,W,1,9,1.8,22,M,,M,,*51
06/19/2015	04:03:38.543	$GPGGA,040339,2555.9402,N,07916.4808,W,1,9,1.8,22,M,,M,,*58
06/19/2015	04:03:39.570	$GPGGA,040340,2555.9379,N,07916.4806,W,1,9,1.8,22,M,,M,,*53
06/19/2015	04:03:40.530	$GPGGA,040341,2555.9359,N,07916.4805,W,1,9,1.8,22,M,,M,,*53
06/19/2015	04:03:41.520	$GPGGA,040342,2555.9337,N,07916.4804,W,1,9,1.8,22,M,,M,,*59
06/19/2015	04:03:42.520	$GPGGA,040343,2555.9316,N,07916.4803,W,1,9,1.8,21,M,,M,,*5F
06/19/2015	04:03:43.550	$GPGGA,040344,2555.9295,N,07916.4802,W,1,9,1.8,21,M,,M,,*53
06/19/2015	04:03:44.609	$GPGGA,040345,2555.9273,N,07916.4802,W,1,9,1.8,21,M,,M,,*5A
06/19/2015	04:03:45.542	$GPGGA,040346,2555.9252,N,07916.4800,W,1,9,1.8,21,M,,M,,*58
06/19/2015	04:03:46.534	$GPGGA,040347,2555.9231,N,07916.4801,W,1,9,1.8,21,M,,M,,*5D
06/19/2015	04:03:47.649	$GPGGA,040348,2555.9211,N,07916.4800,W,1,10,1.8,21,M,,M,,*69
06/19/2015	04:03:48.633	$GPGGA,040349,2555.9189,N,07916.4798,W,1,10,1.8,21,M,,M,,*64
06/19/2015	04:03:49.519	$GPGGA,040350,2555.9168,N,07916.4797,W,1,10,1.8,21,M,,M,,*6C
06/19/2015	04:03:50.519	$GPGGA,040351,2555.9146,N,07916.4798,W,1,10,1.8,20,M,,M,,*6F
06/19/2015	04:03:51.549	$GPGGA,040352,2555.9125,N,07916.4796,W,1,10,1.8,20,M,,M,,*67
06/19/2015	04:03:52.519	$GPGGA,040353,2555.9104,N,07916.4794,W,1,10,1.8,20,M,,M,,*67
06/19/2015	04:03:53.589	$GPGGA,040354,2555.9084,N,07916.4794,W,1,9,1.9,20,M,,M,,*50
06/19/2015	04:03:54.519	$GPGGA,040355,2555.9063,N,07916.4794,W,1,9,1.8,20,M,,M,,*59
06/19/2015	04:03:55.536	$GPGGA,040356,2555.9041,N,07916.4791,W,1,10,1.8,20,M,,M,,*67
06/19/2015	04:03:56.590	$GPGGA,040357,2555.9018,N,07916.4790,W,1,10,1.8,20,M,,M,,*6B
06/19/2015	04:03:57.500	$GPGGA,040358,2555.8995,N,07916.4789,W,1,10,1.8,19,M,,M,,*6B
06/19/2015	04:03:58.590	$GPGGA,040359,2555.8973,N,07916.4788,W,1,10,1.8,19,M,,M,,*63
06/19/2015	04:03:59.521	$GPGGA,040400,2555.8952,N,07916.4786,W,1,10,1.8,19,M,,M,,*65
06/19/2015	04:04:00.590	$GPGGA,040401,2555.8930,N,07916.4784,W,1,10,1.8,19,M,,M,,*62
06/19/2015	04:04:01.620	$GPGGA,040402,2555.8908,N,07916.4783,W,1,10,1.8,19,M,,M,,*6D
06/19/2015	04:04:02.579	$GPGGA,040403,2555.8887,N,07916.4782,W,1,10,1.8,19,M,,M,,*6B
06/19/2015	04:04:03.599	$GPGGA,040404,2555.8865,N,07916.4780,W,1,10,1.8,18,M,,M,,*63
06/19/2015	04:04:04.590	$GPGGA,040405,2555.8844,N,07916.4778,W,1,10,1.8,18,M,,M,,*66
06/19/2015	04:04:05.569	$GPGGA,040406,2555.8824,N,07916.4776,W,1,10,1.8,18,M,,M,,*6D
06/19/2015	04:04:06.569	$GPGGA,040407,2555.8802,N,07916.4775,W,1,10,1.8,18,M,,M,,*6B
06/19/2015	04:04:07.569	$GPGGA,040408,2555.8781,N,07916.4773,W,1,10,1.8,18,M,,M,,*66
06/19/2015	04:04:08.559	$GPGGA,040409,2555.8760,N,07916.4771,W,1,10,1.8,18,M,,M,,*6A
06/19/2015	04:04:09.559	$GPGGA,040410,2555.8739,N,07916.4770,W,1,10,1.8,18,M,,M,,*6F
06/19/2015	04:04:11.899	$GPGGA,040412,2555.8696,N,07916.4765,W,1,10,1.8,17,M,,M,,*62
06/19/2015	04:04:12.569	$GPGGA,040413,2555.8676,N,07916.4763,W,1,10,1.8,17,M,,M,,*6B
06/19/2015	04:04:13.569	$GPGGA,040414,2555.8655,N,07916.4762,W,1,10,1.8,17,M,,M,,*6C
06/19/2015	04:04:14.569	$GPGGA,040415,2555.8633,N,07916.4760,W,1,10,1.8,17,M,,M,,*6F
06/19/2015	04:04:15.579	$GPGGA,040416,2555.8613,N,07916.4759,W,1,10,1.8,17,M,,M,,*64
06/19/2015	04:04:16.549	$GPGGA,040417,2555.8593,N,07916.4756,W,1,10,1.8,17,M,,M,,*61
06/19/2015	04:04:17.540	$GPGGA,040418,2555.8571,N,07916.4756,W,1,10,1.8,17,M,,M,,*62
06/19/2015	04:04:18.549	$GPGGA,040419,2555.8550,N,07916.4755,W,1,10,1.8,17,M,,M,,*63
06/19/2015	04:04:19.578	$GPGGA,040420,2555.8529,N,07916.4753,W,1,10,1.8,17,M,,M,,*61
06/19/2015	04:04:20.537	$GPGGA,040421,2555.8508,N,07916.4752,W,1,10,1.8,17,M,,M,,*62
06/19/2015	04:04:21.568	$GPGGA,040422,2555.8488,N,07916.4751,W,1,10,1.8,17,M,,M,,*6B
06/19/2015	04:04:22.538	$GPGGA,040423,2555.8465,N,07916.4750,W,1,10,1.8,17,M,,M,,*68
06/19/2015	04:04:23.559	$GPGGA,040424,2555.8445,N,07916.4749,W,1,10,1.8,17,M,,M,,*65
06/19/2015	04:04:24.531	$GPGGA,040425,2555.8424,N,07916.4749,W,1,10,1.8,17,M,,M,,*63
06/19/2015	04:04:25.521	$GPGGA,040426,2555.8403,N,07916.4747,W,1,10,1.8,17,M,,M,,*6B
06/19/2015	04:04:26.539	$GPGGA,040427,2555.8382,N,07916.4746,W,1,10,1.8,17,M,,M,,*65
06/19/2015	04:04:27.569	$GPGGA,040428,2555.8362,N,07916.4747,W,1,9,1.8,17,M,,M,,*5D
06/19/2015	04:04:28.533	$GPGGA,040429,2555.8340,N,07916.4744,W,1,9,1.8,17,M,,M,,*5F
06/19/2015	04:04:29.530	$GPGGA,040430,2555.8320,N,07916.4743,W,1,10,1.8,17,M,,M,,*6E
06/19/2015	04:04:30.531	$GPGGA,040431,2555.8298,N,07916.4744,W,1,10,1.8,17,M,,M,,*6A
06/19/2015	04:04:31.549	$GPGGA,040432,2555.8277,N,07916.4742,W,1,10,1.8,17,M,,M,,*6E
06/19/2015	04:04:32.529	$GPGGA,040433,2555.8257,N,07916.4741,W,1,10,1.8,17,M,,M,,*6E
06/19/2015	04:04:33.626	$GPGGA,040434,2555.8235,N,07916.4741,W,1,10,1.8,17,M,,M,,*6D
06/19/2015	04:04:34.533	$GPGGA,040435,2555.8214,N,07916.4740,W,1,10,1.8,17,M,,M,,*6E
06/19/2015	04:04:35.533	$GPGGA,040436,2555.8193,N,07916.4739,W,1,10,1.8,17,M,,M,,*6F
06/19/2015	04:04:36.509	$GPGGA,040437,2555.8172,N,07916.4738,W,1,10,1.8,17,M,,M,,*60
06/19/2015	04:04:37.621	$GPGGA,040438,2555.8152,N,07916.4738,W,1,10,1.8,17,M,,M,,*6D
06/19/2015	04:04:38.508	$GPGGA,040439,2555.8129,N,07916.4737,W,1,10,1.8,17,M,,M,,*6F
06/19/2015	04:04:39.532	$GPGGA,040440,2555.8109,N,07916.4737,W,1,10,1.8,17,M,,M,,*63
06/19/2015	04:04:40.508	$GPGGA,040441,2555.8087,N,07916.4737,W,1,10,1.8,17,M,,M,,*65
06/19/2015	04:04:41.609	$GPGGA,040442,2555.8066,N,07916.4736,W,1,10,1.8,17,M,,M,,*68
06/19/2015	04:04:42.509	$GPGGA,040443,2555.8044,N,07916.4736,W,1,10,1.8,17,M,,M,,*69
06/19/2015	04:04:43.536	$GPGGA,040444,2555.8023,N,07916.4735,W,1,10,1.8,17,M,,M,,*6C
06/19/2015	04:04:44.589	$GPGGA,040445,2555.8002,N,07916.4736,W,1,10,1.8,17,M,,M,,*6D
06/19/2015	04:04:45.609	$GPGGA,040446,2555.7981,N,07916.4734,W,1,10,1.8,17,M,,M,,*61
06/19/2015	04:04:46.509	$GPGGA,040447,2555.7961,N,07916.4734,W,1,10,1.8,17,M,,M,,*6E
06/19/2015	04:04:47.599	$GPGGA,040448,2555.7939,N,07916.4733,W,1,10,1.8,17,M,,M,,*6B
06/19/2015	04:04:48.489	$GPGGA,040449,2555.7918,N,07916.4732,W,1,10,1.8,17,M,,M,,*68
06/19/2015	04:04:49.579	$GPGGA,040450,2555.7897,N,07916.4731,W,1,10,1.8,17,M,,M,,*65
06/19/2015	04:04:50.589	$GPGGA,040451,2555.7875,N,07916.4732,W,1,10,1.8,17,M,,M,,*6B
06/19/2015	04:04:51.589	$GPGGA,040452,2555.7854,N,07916.4730,W,1,10,1.8,17,M,,M,,*69
06/19/2015	04:04:52.579	$GPGGA,040453,2555.7833,N,07916.4730,W,1,10,1.8,17,M,,M,,*69
06/19/2015	04:04:53.569	$GPGGA,040454,2555.7813,N,07916.4728,W,1,10,1.8,17,M,,M,,*65
06/19/2015	04:04:55.608	$GPGGA,040456,2555.7770,N,07916.4729,W,1,9,1.9,17,M,,M,,*55
06/19/2015	04:04:56.558	$GPGGA,040457,2555.7749,N,07916.4726,W,1,9,1.8,17,M,,M,,*50
06/19/2015	04:04:57.588	$GPGGA,040458,2555.7728,N,07916.4725,W,1,9,1.9,17,M,,M,,*5A
06/19/2015	04:04:58.559	$GPGGA,040459,2555.7708,N,07916.4724,W,1,9,1.8,17,M,,M,,*59
06/19/2015	04:04:59.633	$GPGGA,040500,2555.7686,N,07916.4725,W,1,10,1.8,17,M,,M,,*6A
06/19/2015	04:05:00.559	$GPGGA,040501,2555.7665,N,07916.4722,W,1,10,1.8,17,M,,M,,*61
06/19/2015	04:05:01.589	$GPGGA,040502,2555.7644,N,07916.4720,W,1,10,1.8,17,M,,M,,*63
06/19/2015	04:05:02.559	$GPGGA,040503,2555.7623,N,07916.4720,W,1,10,1.9,17,M,,M,,*62
06/19/2015	04:05:03.579	$GPGGA,040504,2555.7603,N,07916.4718,W,1,10,1.8,17,M,,M,,*6D
06/19/2015	04:05:04.569	$GPGGA,040505,2555.7582,N,07916.4715,W,1,10,1.8,17,M,,M,,*6B
06/19/2015	04:05:05.569	$GPGGA,040506,2555.7560,N,07916.4714,W,1,10,1.8,17,M,,M,,*65
06/19/2015	04:05:06.549	$GPGGA,040507,2555.7539,N,07916.4713,W,1,10,1.9,17,M,,M,,*6E
06/19/2015	04:05:07.549	$GPGGA,040508,2555.7518,N,07916.4710,W,1,10,1.8,17,M,,M,,*60
06/19/2015	04:05:08.549	$GPGGA,040509,2555.7497,N,07916.4708,W,1,10,1.8,17,M,,M,,*6E
06/19/2015	04:05:09.559	$GPGGA,040510,2555.7475,N,07916.4706,W,1,10,1.8,17,M,,M,,*64
06/19/2015	04:05:10.539	$GPGGA,040511,2555.7455,N,07916.4704,W,1,10,1.8,17,M,,M,,*65
06/19/2015	04:05:11.569	$GPGGA,040512,2555.7434,N,07916.4702,W,1,10,1.8,17,M,,M,,*67
06/19/2015	04:05:12.529	$GPGGA,040513,2555.7412,N,07916.4700,W,1,10,1.8,17,M,,M,,*60
06/19/2015	04:05:13.538	$GPGGA,040514,2555.7391,N,07916.4699,W,1,10,1.8,17,M,,M,,*6A
06/19/2015	04:05:14.548	$GPGGA,040515,2555.7372,N,07916.4697,W,1,10,1.8,18,M,,M,,*67
06/19/2015	04:05:15.558	$GPGGA,040516,2555.7350,N,07916.4695,W,1,10,1.8,18,M,,M,,*66
06/19/2015	04:05:16.530	$GPGGA,040517,2555.7329,N,07916.4693,W,1,10,1.8,18,M,,M,,*6F
06/19/2015	04:05:17.549	$GPGGA,040518,2555.7308,N,07916.4692,W,1,10,1.8,18,M,,M,,*62
06/19/2015	04:05:18.521	$GPGGA,040519,2555.7287,N,07916.4691,W,1,10,1.8,18,M,,M,,*66
06/19/2015	04:05:19.539	$GPGGA,040520,2555.7267,N,07916.4689,W,1,10,1.8,18,M,,M,,*6B
06/19/2015	04:05:20.509	$GPGGA,040521,2555.7245,N,07916.4687,W,1,10,1.8,18,M,,M,,*64
06/19/2015	04:05:21.539	$GPGGA,040522,2555.7224,N,07916.4686,W,1,10,1.8,18,M,,M,,*61
06/19/2015	04:05:22.527	$GPGGA,040523,2555.7203,N,07916.4685,W,1,10,1.8,18,M,,M,,*66
06/19/2015	04:05:23.539	$GPGGA,040524,2555.7182,N,07916.4684,W,1,10,1.8,18,M,,M,,*6A
06/19/2015	04:05:24.509	$GPGGA,040525,2555.7161,N,07916.4682,W,1,10,1.9,18,M,,M,,*61
06/19/2015	04:05:25.524	$GPGGA,040526,2555.7138,N,07916.4681,W,1,9,1.9,18,M,,M,,*55
06/19/2015	04:05:26.599	$GPGGA,040527,2555.7117,N,07916.4680,W,1,9,1.8,18,M,,M,,*59
06/19/2015	04:05:27.529	$GPGGA,040528,2555.7096,N,07916.4678,W,1,10,1.8,18,M,,M,,*61
06/19/2015	04:05:28.599	$GPGGA,040529,2555.7076,N,07916.4677,W,1,10,1.9,18,M,,M,,*60
06/19/2015	04:05:29.488	$GPGGA,040530,2555.7052,N,07916.4676,W,1,9,1.9,18,M,,M,,*57
06/19/2015	04:05:30.632	$GPGGA,040531,2555.7031,N,07916.4675,W,1,9,1.8,18,M,,M,,*51
06/19/2015	04:05:31.708	$GPGGA,040532,2555.7010,N,07916.4673,W,1,9,1.8,18,M,,M,,*57
06/19/2015	04:05:32.632	$GPGGA,040533,2555.6989,N,07916.4673,W,1,9,1.8,18,M,,M,,*5E
06/19/2015	04:05:33.478	$GPGGA,040534,2555.6968,N,07916.4672,W,1,9,1.9,18,M,,M,,*56
06/19/2015	04:05:34.489	$GPGGA,040535,2555.6947,N,07916.4672,W,1,9,1.8,18,M,,M,,*5B
06/19/2015	04:05:35.509	$GPGGA,040536,2555.6926,N,07916.4671,W,1,10,1.8,18,M,,M,,*64
06/19/2015	04:05:36.579	$GPGGA,040537,2555.6906,N,07916.4671,W,1,10,1.8,18,M,,M,,*67
06/19/2015	04:05:37.669	$GPGGA,040538,2555.6884,N,07916.4670,W,1,10,1.8,18,M,,M,,*62
06/19/2015	04:05:38.499	$GPGGA,040539,2555.6862,N,07916.4671,W,1,10,1.8,18,M,,M,,*6A
06/19/2015	04:05:39.699	$GPGGA,040540,2555.6841,N,07916.4669,W,1,10,1.8,18,M,,M,,*6C
06/19/2015	04:05:40.611	$GPGGA,040541,2555.6820,N,07916.4669,W,1,10,1.8,18,M,,M,,*6A
06/19/2015	04:05:41.679	$GPGGA,040542,2555.6798,N,07916.4669,W,1,10,1.8,18,M,,M,,*65
06/19/2015	04:05:42.579	$GPGGA,040543,2555.6778,N,07916.4668,W,1,10,1.9,18,M,,M,,*6A
06/19/2015	04:05:43.579	$GPGGA,040544,2555.6758,N,07916.4668,W,1,10,1.8,18,M,,M,,*6E
06/19/2015	04:05:44.599	$GPGGA,040545,2555.6737,N,07916.4668,W,1,10,1.8,18,M,,M,,*66
06/19/2015	04:05:45.659	$GPGGA,040546,2555.6715,N,07916.4668,W,1,10,1.8,18,M,,M,,*65
06/19/2015	04:05:46.589	$GPGGA,040547,2555.6695,N,07916.4668,W,1,10,1.8,18,M,,M,,*6D
06/19/2015	04:05:47.688	$GPGGA,040548,2555.6674,N,07916.4667,W,1,10,1.8,18,M,,M,,*62
06/19/2015	04:05:48.558	$GPGGA,040549,2555.6653,N,07916.4668,W,1,10,1.8,18,M,,M,,*69
06/19/2015	04:05:49.558	$GPGGA,040550,2555.6632,N,07916.4667,W,1,10,1.8,18,M,,M,,*69
06/19/2015	04:05:50.588	$GPGGA,040551,2555.6611,N,07916.4666,W,1,10,1.8,18,M,,M,,*68
06/19/2015	04:05:52.549	$GPGGA,040552,2555.6590,N,07916.4667,W,1,10,1.8,18,M,,M,,*60
06/19/2015	04:05:52.579	$GPGGA,040553,2555.6570,N,07916.4666,W,1,10,1.8,18,M,,M,,*6E
06/19/2015	04:05:53.669	$GPGGA,040554,2555.6548,N,07916.4664,W,1,10,1.8,18,M,,M,,*60
06/19/2015	04:05:54.579	$GPGGA,040555,2555.6527,N,07916.4665,W,1,10,1.8,18,M,,M,,*69
06/19/2015	04:05:55.669	$GPGGA,040556,2555.6506,N,07916.4663,W,1,10,1.8,18,M,,M,,*6F
06/19/2015	04:05:56.570	$GPGGA,040557,2555.6484,N,07916.4664,W,1,10,1.8,18,M,,M,,*62
06/19/2015	04:05:57.649	$GPGGA,040558,2555.6465,N,07916.4663,W,1,9,1.8,18,M,,M,,*5D
06/19/2015	04:05:58.569	$GPGGA,040559,2555.6443,N,07916.4661,W,1,9,1.8,18,M,,M,,*5A
06/19/2015	04:05:59.669	$GPGGA,040600,2555.6422,N,07916.4660,W,1,9,1.9,18,M,,M,,*52
06/19/2015	04:06:00.569	$GPGGA,040601,2555.6400,N,07916.4659,W,1,9,1.9,18,M,,M,,*59
06/19/2015	04:06:01.639	$GPGGA,040602,2555.6377,N,07916.4658,W,1,9,1.9,18,M,,M,,*5C
06/19/2015	04:06:02.529	$GPGGA,040603,2555.6357,N,07916.4656,W,1,9,1.9,18,M,,M,,*51
06/19/2015	04:06:03.639	$GPGGA,040604,2555.6336,N,07916.4655,W,1,10,1.8,18,M,,M,,*6B
06/19/2015	04:06:04.528	$GPGGA,040605,2555.6315,N,07916.4654,W,1,10,1.8,18,M,,M,,*6A
06/19/2015	04:06:05.628	$GPGGA,040606,2555.6295,N,07916.4653,W,1,10,1.8,18,M,,M,,*67
06/19/2015	04:06:06.528	$GPGGA,040607,2555.6273,N,07916.4652,W,1,10,1.8,18,M,,M,,*6F
06/19/2015	04:06:07.528	$GPGGA,040608,2555.6252,N,07916.4650,W,1,10,1.8,18,M,,M,,*61
06/19/2015	04:06:08.549	$GPGGA,040609,2555.6232,N,07916.4650,W,1,10,1.8,18,M,,M,,*66
06/19/2015	04:06:09.528	$GPGGA,040610,2555.6212,N,07916.4647,W,1,10,1.8,18,M,,M,,*6A
06/19/2015	04:06:10.569	$GPGGA,040611,2555.6190,N,07916.4646,W,1,10,1.8,18,M,,M,,*63
06/19/2015	04:06:11.609	$GPGGA,040612,2555.6169,N,07916.4646,W,1,10,1.8,18,M,,M,,*66
06/19/2015	04:06:12.623	$GPGGA,040613,2555.6148,N,07916.4644,W,1,10,1.8,18,M,,M,,*66
06/19/2015	04:06:13.649	$GPGGA,040614,2555.6129,N,07916.4641,W,1,10,1.8,18,M,,M,,*63
06/19/2015	04:06:14.509	$GPGGA,040615,2555.6107,N,07916.4640,W,1,10,1.8,18,M,,M,,*6F
06/19/2015	04:06:15.623	$GPGGA,040616,2555.6086,N,07916.4638,W,1,10,1.8,18,M,,M,,*6B
06/19/2015	04:06:16.549	$GPGGA,040617,2555.6066,N,07916.4636,W,1,10,1.8,18,M,,M,,*6A
06/19/2015	04:06:17.625	$GPGGA,040618,2555.6046,N,07916.4634,W,1,9,1.8,18,M,,M,,*5D
06/19/2015	04:06:18.539	$GPGGA,040619,2555.6025,N,07916.4632,W,1,9,1.8,18,M,,M,,*5F
06/19/2015	04:06:19.519	$GPGGA,040620,2555.6003,N,07916.4632,W,1,10,1.8,18,M,,M,,*69
06/19/2015	04:06:20.599	$GPGGA,040621,2555.5982,N,07916.4630,W,1,10,1.8,18,M,,M,,*69
06/19/2015	04:06:21.589	$GPGGA,040622,2555.5960,N,07916.4628,W,1,10,1.9,18,M,,M,,*6E
06/19/2015	04:06:22.588	$GPGGA,040623,2555.5941,N,07916.4626,W,1,10,1.8,18,M,,M,,*63
06/19/2015	04:06:23.598	$GPGGA,040624,2555.5920,N,07916.4625,W,1,10,1.9,18,M,,M,,*61
06/19/2015	04:06:24.519	$GPGGA,040625,2555.5898,N,07916.4623,W,1,10,1.9,18,M,,M,,*64
06/19/2015	04:06:25.648	$GPGGA,040626,2555.5878,N,07916.4622,W,1,9,1.8,18,M,,M,,*51
06/19/2015	04:06:26.589	$GPGGA,040627,2555.5858,N,07916.4620,W,1,9,1.8,18,M,,M,,*50
06/19/2015	04:06:27.627	$GPGGA,040628,2555.5836,N,07916.4619,W,1,10,1.8,17,M,,M,,*6A
06/19/2015	04:06:28.534	$GPGGA,040629,2555.5815,N,07916.4620,W,1,10,1.8,17,M,,M,,*60
06/19/2015	04:06:29.609	$GPGGA,040630,2555.5795,N,07916.4617,W,1,10,1.8,17,M,,M,,*6B
06/19/2015	04:06:30.579	$GPGGA,040631,2555.5775,N,07916.4616,W,1,10,1.8,17,M,,M,,*65
06/19/2015	04:06:31.599	$GPGGA,040632,2555.5752,N,07916.4617,W,1,10,1.8,17,M,,M,,*62
06/19/2015	04:06:32.579	$GPGGA,040633,2555.5732,N,07916.4614,W,1,10,1.8,17,M,,M,,*66
06/19/2015	04:06:33.579	$GPGGA,040634,2555.5711,N,07916.4613,W,1,10,1.8,17,M,,M,,*67
06/19/2015	04:06:34.579	$GPGGA,040635,2555.5689,N,07916.4612,W,1,10,1.8,17,M,,M,,*67
06/19/2015	04:06:35.626	$GPGGA,040636,2555.5667,N,07916.4611,W,1,10,1.8,17,M,,M,,*67
06/19/2015	04:06:36.559	$GPGGA,040637,2555.5646,N,07916.4610,W,1,10,1.8,17,M,,M,,*64
06/19/2015	04:06:37.609	$GPGGA,040638,2555.5625,N,07916.4610,W,1,10,1.8,17,M,,M,,*6E
06/19/2015	04:06:38.569	$GPGGA,040639,2555.5603,N,07916.4609,W,1,10,1.8,17,M,,M,,*63
06/19/2015	04:06:39.588	$GPGGA,040640,2555.5582,N,07916.4608,W,1,10,1.8,17,M,,M,,*66
06/19/2015	04:06:40.568	$GPGGA,040641,2555.5560,N,07916.4608,W,1,10,1.8,17,M,,M,,*6B
06/19/2015	04:06:41.588	$GPGGA,040642,2555.5540,N,07916.4607,W,1,10,1.8,17,M,,M,,*65
06/19/2015	04:06:42.548	$GPGGA,040643,2555.5517,N,07916.4606,W,1,10,1.9,17,M,,M,,*66
06/19/2015	04:06:43.589	$GPGGA,040644,2555.5495,N,07916.4606,W,1,9,1.8,17,M,,M,,*53
06/19/2015	04:06:44.559	$GPGGA,040645,2555.5495,N,07916.4606,W,1,9,1.8,17,M,,M,,*52
06/19/2015	04:06:45.589	$GPGGA,040646,2555.5453,N,07916.4604,W,1,10,1.9,17,M,,M,,*60
06/19/2015	04:06:46.542	$GPGGA,040647,2555.5430,N,07916.4604,W,1,10,1.9,17,M,,M,,*64
06/19/2015	04:06:47.589	$GPGGA,040648,2555.5410,N,07916.4604,W,1,9,1.8,17,M,,M,,*50
06/19/2015	04:06:48.532	$GPGGA,040649,2555.5387,N,07916.4602,W,1,9,1.8,17,M,,M,,*5E
06/19/2015	04:06:49.639	$GPGGA,040650,2555.5365,N,07916.4603,W,1,9,1.8,17,M,,M,,*5B
06/19/2015	04:06:50.544	$GPGGA,040651,2555.5345,N,07916.4602,W,1,9,1.8,17,M,,M,,*59
06/19/2015	04:06:51.639	$GPGGA,040652,2555.5345,N,07916.4602,W,1,10,1.8,17,M,,M,,*62
06/19/2015	04:06:52.543	$GPGGA,040653,2555.5302,N,07916.4600,W,1,10,1.8,17,M,,M,,*62
06/19/2015	04:06:53.589	$GPGGA,040654,2555.5280,N,07916.4600,W,1,10,1.8,17,M,,M,,*6E
06/19/2015	04:06:54.539	$GPGGA,040655,2555.5259,N,07916.4600,W,1,10,1.8,17,M,,M,,*6B
06/19/2015	04:06:55.609	$GPGGA,040656,2555.5239,N,07916.4599,W,1,10,1.8,17,M,,M,,*6D
06/19/2015	04:06:56.544	$GPGGA,040657,2555.5219,N,07916.4598,W,1,10,1.8,17,M,,M,,*6F
06/19/2015	04:06:57.548	$GPGGA,040658,2555.5219,N,07916.4598,W,1,10,1.8,17,M,,M,,*60
06/19/2015	04:06:58.536	$GPGGA,040659,2555.5176,N,07916.4599,W,1,10,1.8,16,M,,M,,*6B
06/19/2015	04:06:59.608	$GPGGA,040700,2555.5176,N,07916.4599,W,1,10,1.8,16,M,,M,,*66
06/19/2015	04:07:00.538	$GPGGA,040701,2555.5134,N,07916.4597,W,1,10,1.8,16,M,,M,,*6F
06/19/2015	04:07:01.679	$GPGGA,040702,2555.5114,N,07916.4597,W,1,10,1.8,16,M,,M,,*6E
06/19/2015	04:07:02.530	$GPGGA,040703,2555.5093,N,07916.4596,W,1,10,1.8,16,M,,M,,*60
06/19/2015	04:07:03.559	$GPGGA,040704,2555.5072,N,07916.4594,W,1,10,1.8,16,M,,M,,*6A
06/19/2015	04:07:04.634	$GPGGA,040705,2555.5050,N,07916.4593,W,1,10,1.8,16,M,,M,,*6C
06/19/2015	04:07:05.623	$GPGGA,040706,2555.5031,N,07916.4595,W,1,9,1.9,16,M,,M,,*57
06/19/2015	04:07:06.539	$GPGGA,040707,2555.5009,N,07916.4592,W,1,9,1.9,16,M,,M,,*5A
06/19/2015	04:07:07.540	$GPGGA,040708,2555.4988,N,07916.4590,W,1,9,1.9,16,M,,M,,*56
06/19/2015	04:07:08.523	$GPGGA,040709,2555.4988,N,07916.4590,W,1,9,2.0,16,M,,M,,*5D
06/19/2015	04:07:09.579	$GPGGA,040710,2555.4967,N,07916.4588,W,1,10,1.8,16,M,,M,,*6E
06/19/2015	04:07:10.519	$GPGGA,040711,2555.4927,N,07916.4585,W,1,10,1.8,16,M,,M,,*66
06/19/2015	04:07:11.539	$GPGGA,040712,2555.4908,N,07916.4583,W,1,10,1.8,16,M,,M,,*6E
06/19/2015	04:07:12.540	$GPGGA,040713,2555.4886,N,07916.4582,W,1,10,1.8,16,M,,M,,*69
06/19/2015	04:07:13.609	$GPGGA,040714,2555.4865,N,07916.4580,W,1,10,1.8,16,M,,M,,*61
06/19/2015	04:07:14.508	$GPGGA,040715,2555.4845,N,07916.4578,W,1,10,1.8,16,M,,M,,*65
06/19/2015	04:07:15.623	$GPGGA,040716,2555.4825,N,07916.4576,W,1,10,1.8,17,M,,M,,*6F
06/19/2015	04:07:16.598	$GPGGA,040717,2555.4803,N,07916.4575,W,1,10,1.8,17,M,,M,,*69
06/19/2015	04:07:17.568	$GPGGA,040718,2555.4803,N,07916.4575,W,1,10,1.8,17,M,,M,,*66
06/19/2015	04:07:18.579	$GPGGA,040719,2555.4762,N,07916.4571,W,1,10,1.8,17,M,,M,,*6B
06/19/2015	04:07:19.632	$GPGGA,040720,2555.4742,N,07916.4569,W,1,10,1.8,17,M,,M,,*6A
06/19/2015	04:07:20.589	$GPGGA,040721,2555.4720,N,07916.4568,W,1,10,1.8,17,M,,M,,*6E
06/19/2015	04:07:21.634	$GPGGA,040722,2555.4720,N,07916.4568,W,1,10,1.8,17,M,,M,,*6D
06/19/2015	04:07:22.579	$GPGGA,040723,2555.4678,N,07916.4564,W,1,10,1.8,17,M,,M,,*6C
06/19/2015	04:07:23.599	$GPGGA,040724,2555.4657,N,07916.4562,W,1,10,1.8,17,M,,M,,*60
06/19/2015	04:07:24.579	$GPGGA,040725,2555.4637,N,07916.4561,W,1,10,1.8,17,M,,M,,*64
06/19/2015	04:07:25.589	$GPGGA,040726,2555.4615,N,07916.4560,W,1,10,1.8,17,M,,M,,*66
06/19/2015	04:07:26.579	$GPGGA,040727,2555.4595,N,07916.4559,W,1,10,1.8,18,M,,M,,*69
06/19/2015	04:07:27.599	$GPGGA,040728,2555.4574,N,07916.4557,W,1,10,1.8,18,M,,M,,*67
06/19/2015	04:07:28.569	$GPGGA,040729,2555.4554,N,07916.4556,W,1,10,1.8,18,M,,M,,*65
06/19/2015	04:07:29.559	$GPGGA,040730,2555.4532,N,07916.4555,W,1,10,1.8,18,M,,M,,*6E
06/19/2015	04:07:30.569	$GPGGA,040731,2555.4512,N,07916.4554,W,1,10,1.8,18,M,,M,,*6C
06/19/2015	04:07:31.579	$GPGGA,040732,2555.4491,N,07916.4552,W,1,10,1.8,18,M,,M,,*63
06/19/2015	04:07:32.558	$GPGGA,040733,2555.4471,N,07916.4552,W,1,10,1.8,18,M,,M,,*6C
06/19/2015	04:07:33.548	$GPGGA,040734,2555.4449,N,07916.4551,W,1,10,1.8,18,M,,M,,*63
06/19/2015	04:07:34.568	$GPGGA,040735,2555.4428,N,07916.4550,W,1,10,1.8,18,M,,M,,*64
06/19/2015	04:07:35.588	$GPGGA,040736,2555.4407,N,07916.4549,W,1,10,1.8,18,M,,M,,*62
06/19/2015	04:07:36.539	$GPGGA,040737,2555.4385,N,07916.4549,W,1,10,1.8,18,M,,M,,*6E
06/19/2015	04:07:37.569	$GPGGA,040738,2555.4364,N,07916.4547,W,1,10,1.8,18,M,,M,,*60
06/19/2015	04:07:38.549	$GPGGA,040739,2555.4343,N,07916.4548,W,1,10,1.8,18,M,,M,,*6B
06/19/2015	04:07:39.589	$GPGGA,040740,2555.4323,N,07916.4546,W,1,10,1.8,18,M,,M,,*6D
06/19/2015	04:07:40.533	$GPGGA,040741,2555.4301,N,07916.4544,W,1,10,1.8,18,M,,M,,*6E
06/19/2015	04:07:41.579	$GPGGA,040742,2555.4278,N,07916.4545,W,1,10,1.8,18,M,,M,,*63
06/19/2015	04:07:42.529	$GPGGA,040743,2555.4258,N,07916.4543,W,1,10,1.8,18,M,,M,,*66
06/19/2015	04:07:43.579	$GPGGA,040744,2555.4236,N,07916.4542,W,1,10,1.8,18,M,,M,,*68
06/19/2015	04:07:44.539	$GPGGA,040745,2555.4215,N,07916.4541,W,1,10,1.8,18,M,,M,,*6B
06/19/2015	04:07:45.539	$GPGGA,040746,2555.4193,N,07916.4541,W,1,10,1.8,18,M,,M,,*65
06/19/2015	04:07:46.539	$GPGGA,040747,2555.4171,N,07916.4540,W,1,10,1.8,18,M,,M,,*69
06/19/2015	04:07:47.549	$GPGGA,040748,2555.4150,N,07916.4539,W,1,10,1.8,18,M,,M,,*6B
06/19/2015	04:07:48.519	$GPGGA,040749,2555.4129,N,07916.4537,W,1,10,1.8,18,M,,M,,*6A
06/19/2015	04:07:49.658	$GPGGA,040750,2555.4107,N,07916.4538,W,1,10,1.8,18,M,,M,,*61
06/19/2015	04:07:50.538	$GPGGA,040751,2555.4088,N,07916.4537,W,1,10,1.8,18,M,,M,,*69
06/19/2015	04:07:51.568	$GPGGA,040752,2555.4066,N,07916.4536,W,1,10,1.8,18,M,,M,,*6B
06/19/2015	04:07:52.518	$GPGGA,040753,2555.4044,N,07916.4534,W,1,10,1.8,18,M,,M,,*68
06/19/2015	04:07:53.529	$GPGGA,040754,2555.4023,N,07916.4534,W,1,10,1.8,18,M,,M,,*6E
06/19/2015	04:07:54.509	$GPGGA,040755,2555.4001,N,07916.4534,W,1,10,1.8,18,M,,M,,*6F
06/19/2015	04:07:55.649	$GPGGA,040756,2555.3980,N,07916.4533,W,1,10,1.8,18,M,,M,,*6C
06/19/2015	04:07:56.521	$GPGGA,040757,2555.3958,N,07916.4532,W,1,10,1.8,18,M,,M,,*69
06/19/2015	04:07:57.499	$GPGGA,040758,2555.3937,N,07916.4531,W,1,10,1.8,18,M,,M,,*6C
06/19/2015	04:07:58.938	$GPGGA,040759,2555.3916,N,07916.4531,W,1,10,1.8,18,M,,M,,*6E
06/19/2015	04:07:59.631	$GPGGA,040800,2555.3895,N,07916.4529,W,1,10,1.8,18,M,,M,,*6E
06/19/2015	04:08:00.509	$GPGGA,040801,2555.3873,N,07916.4528,W,1,10,1.8,18,M,,M,,*66
06/19/2015	04:08:01.522	$GPGGA,040802,2555.3853,N,07916.4528,W,1,10,1.8,18,M,,M,,*67
06/19/2015	04:08:02.589	$GPGGA,040803,2555.3831,N,07916.4526,W,1,10,1.8,18,M,,M,,*6C
06/19/2015	04:08:03.619	$GPGGA,040804,2555.3810,N,07916.4525,W,1,10,1.8,18,M,,M,,*6B
06/19/2015	04:08:04.519	$GPGGA,040805,2555.3790,N,07916.4525,W,1,10,1.9,18,M,,M,,*6C
06/19/2015	04:08:05.579	$GPGGA,040806,2555.3771,N,07916.4524,W,1,10,1.8,18,M,,M,,*60
06/19/2015	04:08:06.589	$GPGGA,040807,2555.3750,N,07916.4522,W,1,10,1.8,18,M,,M,,*64
06/19/2015	04:08:07.608	$GPGGA,040808,2555.3730,N,07916.4523,W,1,10,1.8,18,M,,M,,*6C
06/19/2015	04:08:08.578	$GPGGA,040809,2555.3708,N,07916.4521,W,1,10,1.8,18,M,,M,,*64
06/19/2015	04:08:09.619	$GPGGA,040810,2555.3687,N,07916.4520,W,1,10,1.8,18,M,,M,,*6B
06/19/2015	04:08:10.588	$GPGGA,040811,2555.3665,N,07916.4518,W,1,10,1.8,18,M,,M,,*6D
06/19/2015	04:08:11.609	$GPGGA,040812,2555.3645,N,07916.4517,W,1,10,1.8,18,M,,M,,*63
06/19/2015	04:08:12.579	$GPGGA,040813,2555.3625,N,07916.4516,W,1,10,1.8,18,M,,M,,*65
06/19/2015	04:08:13.569	$GPGGA,040814,2555.3604,N,07916.4515,W,1,10,1.8,18,M,,M,,*62
06/19/2015	04:08:14.569	$GPGGA,040815,2555.3583,N,07916.4516,W,1,10,1.8,18,M,,M,,*6C
06/19/2015	04:08:15.609	$GPGGA,040816,2555.3562,N,07916.4513,W,1,10,1.8,18,M,,M,,*65
06/19/2015	04:08:16.569	$GPGGA,040817,2555.3541,N,07916.4511,W,1,10,1.8,18,M,,M,,*67
06/19/2015	04:08:17.589	$GPGGA,040818,2555.3518,N,07916.4510,W,1,10,1.8,18,M,,M,,*65
06/19/2015	04:08:18.559	$GPGGA,040819,2555.3496,N,07916.4509,W,1,10,1.9,18,M,,M,,*6A
06/19/2015	04:08:19.589	$GPGGA,040820,2555.3475,N,07916.4507,W,1,9,1.9,18,M,,M,,*5B
06/19/2015	04:08:20.559	$GPGGA,040821,2555.3453,N,07916.4506,W,1,9,1.8,18,M,,M,,*5E
06/19/2015	04:08:21.579	$GPGGA,040822,2555.3431,N,07916.4504,W,1,9,1.9,18,M,,M,,*5A
06/19/2015	04:08:22.559	$GPGGA,040823,2555.3410,N,07916.4503,W,1,9,1.9,18,M,,M,,*5F
06/19/2015	04:08:23.589	$GPGGA,040824,2555.3389,N,07916.4502,W,1,9,1.9,18,M,,M,,*5E
06/19/2015	04:08:24.538	$GPGGA,040825,2555.3369,N,07916.4501,W,1,9,1.8,18,M,,M,,*53
06/19/2015	04:08:25.548	$GPGGA,040826,2555.3347,N,07916.4499,W,1,10,1.8,17,M,,M,,*6B
06/19/2015	04:08:26.548	$GPGGA,040827,2555.3326,N,07916.4498,W,1,10,1.8,17,M,,M,,*6C
06/19/2015	04:08:27.548	$GPGGA,040828,2555.3304,N,07916.4497,W,1,9,1.9,17,M,,M,,*55
06/19/2015	04:08:28.549	$GPGGA,040829,2555.3282,N,07916.4495,W,1,9,1.8,17,M,,M,,*58
06/19/2015	04:08:29.559	$GPGGA,040830,2555.3261,N,07916.4494,W,1,10,1.8,17,M,,M,,*64
06/19/2015	04:08:30.549	$GPGGA,040831,2555.3239,N,07916.4493,W,1,10,1.8,17,M,,M,,*6F
06/19/2015	04:08:31.549	$GPGGA,040832,2555.3217,N,07916.4492,W,1,10,1.8,17,M,,M,,*61
06/19/2015	04:08:32.549	$GPGGA,040833,2555.3196,N,07916.4491,W,1,10,1.8,17,M,,M,,*69
06/19/2015	04:08:33.539	$GPGGA,040834,2555.3174,N,07916.4490,W,1,10,1.8,17,M,,M,,*63
06/19/2015	04:08:34.539	$GPGGA,040835,2555.3153,N,07916.4489,W,1,10,1.8,17,M,,M,,*6F
06/19/2015	04:08:35.559	$GPGGA,040836,2555.3131,N,07916.4487,W,1,10,1.8,17,M,,M,,*66
06/19/2015	04:08:36.539	$GPGGA,040837,2555.3110,N,07916.4486,W,1,10,1.8,17,M,,M,,*65
06/19/2015	04:08:37.519	$GPGGA,040838,2555.3087,N,07916.4487,W,1,9,1.9,17,M,,M,,*5D
06/19/2015	04:08:38.529	$GPGGA,040839,2555.3066,N,07916.4484,W,1,9,1.9,17,M,,M,,*50
06/19/2015	04:08:39.539	$GPGGA,040840,2555.3045,N,07916.4483,W,1,9,1.9,17,M,,M,,*58
06/19/2015	04:08:40.523	$GPGGA,040841,2555.3024,N,07916.4483,W,1,9,1.9,17,M,,M,,*5E
06/19/2015	04:08:41.520	$GPGGA,040842,2555.3004,N,07916.4482,W,1,10,1.8,16,M,,M,,*66
06/19/2015	04:08:42.523	$GPGGA,040843,2555.2983,N,07916.4481,W,1,10,1.9,16,M,,M,,*62
06/19/2015	04:08:43.548	$GPGGA,040844,2555.2964,N,07916.4481,W,1,10,1.8,16,M,,M,,*6D
06/19/2015	04:08:44.608	$GPGGA,040845,2555.2944,N,07916.4480,W,1,10,1.8,16,M,,M,,*6F
06/19/2015	04:08:45.510	$GPGGA,040846,2555.2924,N,07916.4479,W,1,10,1.8,16,M,,M,,*6C
06/19/2015	04:08:46.609	$GPGGA,040847,2555.2903,N,07916.4478,W,1,10,1.8,16,M,,M,,*69
06/19/2015	04:08:47.839	$GPGGA,040848,2555.2882,N,07916.4478,W,1,10,1.8,16,M,,M,,*6E
06/19/2015	04:08:48.509	$GPGGA,040849,2555.2860,N,07916.4476,W,1,10,1.9,16,M,,M,,*6C
06/19/2015	04:08:49.500	$GPGGA,040850,2555.2839,N,07916.4475,W,1,10,1.8,16,M,,M,,*6A
06/19/2015	04:08:50.519	$GPGGA,040851,2555.2820,N,07916.4474,W,1,10,1.9,16,M,,M,,*63
06/19/2015	04:08:51.669	$GPGGA,040852,2555.2799,N,07916.4473,W,1,10,1.8,16,M,,M,,*6B
06/19/2015	04:08:52.530	$GPGGA,040853,2555.2777,N,07916.4473,W,1,10,1.8,16,M,,M,,*6A
06/19/2015	04:08:53.621	$GPGGA,040854,2555.2757,N,07916.4472,W,1,10,1.8,16,M,,M,,*6E
06/19/2015	04:08:54.599	$GPGGA,040855,2555.2737,N,07916.4471,W,1,10,1.8,16,M,,M,,*6A
06/19/2015	04:08:55.619	$GPGGA,040856,2555.2715,N,07916.4470,W,1,10,1.8,16,M,,M,,*68
06/19/2015	04:08:56.579	$GPGGA,040857,2555.2694,N,07916.4469,W,1,10,1.8,16,M,,M,,*69
06/19/2015	04:08:57.621	$GPGGA,040858,2555.2672,N,07916.4468,W,1,10,1.8,16,M,,M,,*6F
06/19/2015	04:08:58.489	$GPGGA,040859,2555.2651,N,07916.4466,W,1,10,1.9,16,M,,M,,*60
06/19/2015	04:08:59.608	$GPGGA,040900,2555.2632,N,07916.4466,W,1,10,1.8,16,M,,M,,*69
06/19/2015	04:09:00.578	$GPGGA,040901,2555.2611,N,07916.4465,W,1,10,1.8,16,M,,M,,*6A
06/19/2015	04:09:01.598	$GPGGA,040902,2555.2592,N,07916.4466,W,1,10,1.8,16,M,,M,,*62
06/19/2015	04:09:02.578	$GPGGA,040903,2555.2571,N,07916.4465,W,1,10,1.8,16,M,,M,,*6D
06/19/2015	04:09:03.579	$GPGGA,040904,2555.2550,N,07916.4464,W,1,10,1.8,16,M,,M,,*68
06/19/2015	04:09:04.589	$GPGGA,040905,2555.2529,N,07916.4465,W,1,10,1.8,16,M,,M,,*66
06/19/2015	04:09:05.559	$GPGGA,040906,2555.2509,N,07916.4465,W,1,10,1.8,16,M,,M,,*67
06/19/2015	04:09:06.559	$GPGGA,040907,2555.2488,N,07916.4465,W,1,10,1.8,16,M,,M,,*6E
06/19/2015	04:09:07.579	$GPGGA,040908,2555.2467,N,07916.4467,W,1,10,1.8,16,M,,M,,*62
06/19/2015	04:09:08.559	$GPGGA,040909,2555.2448,N,07916.4469,W,1,10,1.8,16,M,,M,,*60
06/19/2015	04:09:09.579	$GPGGA,040910,2555.2426,N,07916.4469,W,1,10,1.8,16,M,,M,,*60
06/19/2015	04:09:10.559	$GPGGA,040911,2555.2406,N,07916.4469,W,1,10,1.8,16,M,,M,,*63
06/19/2015	04:09:11.599	$GPGGA,040912,2555.2385,N,07916.4472,W,1,9,2.0,16,M,,M,,*55
06/19/2015	04:09:12.559	$GPGGA,040913,2555.2363,N,07916.4473,W,1,9,1.8,16,M,,M,,*56
06/19/2015	04:09:13.579	$GPGGA,040914,2555.2343,N,07916.4474,W,1,10,1.8,16,M,,M,,*6C
06/19/2015	04:09:14.559	$GPGGA,040915,2555.2322,N,07916.4476,W,1,10,1.8,16,M,,M,,*68
06/19/2015	04:09:15.579	$GPGGA,040916,2555.2301,N,07916.4478,W,1,10,1.8,16,M,,M,,*64
06/19/2015	04:09:16.549	$GPGGA,040917,2555.2279,N,07916.4480,W,1,10,1.8,16,M,,M,,*6C
06/19/2015	04:09:17.543	$GPGGA,040918,2555.2258,N,07916.4483,W,1,9,1.9,16,M,,M,,*5A
06/19/2015	04:09:18.548	$GPGGA,040919,2555.2238,N,07916.4485,W,1,9,1.8,16,M,,M,,*5A
06/19/2015	04:09:19.548	$GPGGA,040920,2555.2217,N,07916.4487,W,1,10,1.8,16,M,,M,,*67
06/19/2015	04:09:20.548	$GPGGA,040921,2555.2197,N,07916.4490,W,1,10,1.8,16,M,,M,,*6B
06/19/2015	04:09:21.541	$GPGGA,040922,2555.2175,N,07916.4494,W,1,10,1.8,16,M,,M,,*60
06/19/2015	04:09:22.534	$GPGGA,040923,2555.2155,N,07916.4495,W,1,10,1.8,16,M,,M,,*62
06/19/2015	04:09:23.543	$GPGGA,040924,2555.2134,N,07916.4498,W,1,10,1.8,17,M,,M,,*6E
06/19/2015	04:09:24.540	$GPGGA,040925,2555.2113,N,07916.4501,W,1,10,1.8,17,M,,M,,*6B
06/19/2015	04:09:25.569	$GPGGA,040926,2555.2091,N,07916.4503,W,1,10,1.8,17,M,,M,,*61
06/19/2015	04:09:26.532	$GPGGA,040927,2555.2069,N,07916.4505,W,1,10,1.8,17,M,,M,,*61
06/19/2015	04:09:27.569	$GPGGA,040928,2555.2048,N,07916.4508,W,1,9,1.9,17,M,,M,,*59
06/19/2015	04:09:28.548	$GPGGA,040929,2555.2026,N,07916.4509,W,1,9,2.0,17,M,,M,,*5B
06/19/2015	04:09:29.545	$GPGGA,040930,2555.2003,N,07916.4512,W,1,10,1.8,17,M,,M,,*6D
06/19/2015	04:09:30.527	$GPGGA,040931,2555.1982,N,07916.4513,W,1,10,1.8,17,M,,M,,*6E
06/19/2015	04:09:31.539	$GPGGA,040932,2555.1960,N,07916.4516,W,1,10,1.8,17,M,,M,,*64
06/19/2015	04:09:32.523	$GPGGA,040933,2555.1938,N,07916.4516,W,1,10,1.8,17,M,,M,,*68
06/19/2015	04:09:33.535	$GPGGA,040934,2555.1917,N,07916.4520,W,1,9,2.0,17,M,,M,,*54
06/19/2015	04:09:34.508	$GPGGA,040935,2555.1895,N,07916.4521,W,1,9,1.8,17,M,,M,,*54
06/19/2015	04:09:35.632	$GPGGA,040936,2555.1875,N,07916.4523,W,1,10,1.8,17,M,,M,,*63
06/19/2015	04:09:36.524	$GPGGA,040937,2555.1855,N,07916.4525,W,1,10,1.8,17,M,,M,,*66
06/19/2015	04:09:37.598	$GPGGA,040938,2555.1833,N,07916.4528,W,1,10,1.8,18,M,,M,,*6B
06/19/2015	04:09:38.534	$GPGGA,040939,2555.1813,N,07916.4530,W,1,10,1.8,18,M,,M,,*61
06/19/2015	04:09:39.620	$GPGGA,040940,2555.1792,N,07916.4531,W,1,10,1.8,18,M,,M,,*68
06/19/2015	04:09:40.509	$GPGGA,040941,2555.1772,N,07916.4534,W,1,10,1.8,18,M,,M,,*62
06/19/2015	04:09:41.509	$GPGGA,040942,2555.1750,N,07916.4537,W,1,10,1.8,18,M,,M,,*62
06/19/2015	04:09:42.489	$GPGGA,040943,2555.1730,N,07916.4538,W,1,10,1.8,18,M,,M,,*6A
06/19/2015	04:09:43.599	$GPGGA,040944,2555.1711,N,07916.4539,W,1,9,2.0,18,M,,M,,*5C
06/19/2015	04:09:44.589	$GPGGA,040945,2555.1689,N,07916.4541,W,1,9,1.8,18,M,,M,,*59
06/19/2015	04:09:45.621	$GPGGA,040946,2555.1668,N,07916.4543,W,1,10,1.8,18,M,,M,,*6F
06/19/2015	04:09:46.589	$GPGGA,040947,2555.1649,N,07916.4543,W,1,10,1.9,17,M,,M,,*63
06/19/2015	04:09:47.589	$GPGGA,040948,2555.1629,N,07916.4546,W,1,10,1.8,17,M,,M,,*6E
06/19/2015	04:09:48.579	$GPGGA,040949,2555.1609,N,07916.4549,W,1,10,1.8,17,M,,M,,*62
06/19/2015	04:09:49.599	$GPGGA,040950,2555.1590,N,07916.4549,W,1,10,1.8,17,M,,M,,*69
06/19/2015	04:09:50.589	$GPGGA,040951,2555.1567,N,07916.4552,W,1,10,1.8,17,M,,M,,*6A
06/19/2015	04:09:51.599	$GPGGA,040952,2555.1548,N,07916.4552,W,1,9,1.9,17,M,,M,,*5D
06/19/2015	04:09:52.568	$GPGGA,040953,2555.1527,N,07916.4552,W,1,9,1.8,17,M,,M,,*54
06/19/2015	04:09:53.568	$GPGGA,040954,2555.1506,N,07916.4556,W,1,10,1.8,17,M,,M,,*6C
06/19/2015	04:09:54.578	$GPGGA,040955,2555.1487,N,07916.4554,W,1,10,1.8,17,M,,M,,*67
06/19/2015	04:09:55.588	$GPGGA,040956,2555.1465,N,07916.4555,W,1,10,1.8,18,M,,M,,*66
06/19/2015	04:09:56.579	$GPGGA,040957,2555.1445,N,07916.4556,W,1,10,1.8,18,M,,M,,*66
06/19/2015	04:09:57.579	$GPGGA,040958,2555.1424,N,07916.4556,W,1,10,1.8,18,M,,M,,*6E
06/19/2015	04:09:58.569	$GPGGA,040959,2555.1404,N,07916.4556,W,1,10,1.8,18,M,,M,,*6D
06/19/2015	04:09:59.633	$GPGGA,041000,2555.1382,N,07916.4556,W,1,10,1.8,18,M,,M,,*60
06/19/2015	04:10:00.559	$GPGGA,041001,2555.1361,N,07916.4556,W,1,10,1.8,18,M,,M,,*6C
06/19/2015	04:10:01.559	$GPGGA,041002,2555.1339,N,07916.4557,W,1,10,1.8,18,M,,M,,*63
06/19/2015	04:10:02.569	$GPGGA,041003,2555.1318,N,07916.4557,W,1,10,1.8,18,M,,M,,*61
06/19/2015	04:10:03.589	$GPGGA,041004,2555.1296,N,07916.4556,W,1,10,1.8,18,M,,M,,*60
06/19/2015	04:10:04.549	$GPGGA,041005,2555.1275,N,07916.4559,W,1,10,1.8,17,M,,M,,*6C
06/19/2015	04:10:05.569	$GPGGA,041006,2555.1253,N,07916.4558,W,1,10,1.8,17,M,,M,,*6A
06/19/2015	04:10:06.539	$GPGGA,041007,2555.1232,N,07916.4559,W,1,10,1.9,17,M,,M,,*6C
06/19/2015	04:10:07.549	$GPGGA,041008,2555.1210,N,07916.4559,W,1,10,1.8,17,M,,M,,*62
06/19/2015	04:10:08.539	$GPGGA,041009,2555.1192,N,07916.4561,W,1,10,1.9,17,M,,M,,*60
06/19/2015	04:10:09.568	$GPGGA,041010,2555.1171,N,07916.4563,W,1,10,1.8,17,M,,M,,*66
06/19/2015	04:10:10.538	$GPGGA,041011,2555.1151,N,07916.4562,W,1,10,1.8,17,M,,M,,*64
06/19/2015	04:10:11.588	$GPGGA,041012,2555.1129,N,07916.4563,W,1,10,1.8,17,M,,M,,*69
06/19/2015	04:10:12.519	$GPGGA,041013,2555.1111,N,07916.4566,W,1,10,1.8,17,M,,M,,*66
06/19/2015	04:10:13.528	$GPGGA,041014,2555.1089,N,07916.4566,W,1,10,1.8,17,M,,M,,*61
06/19/2015	04:10:14.548	$GPGGA,041015,2555.1068,N,07916.4567,W,1,10,1.8,17,M,,M,,*6E
06/19/2015	04:10:15.578	$GPGGA,041016,2555.1048,N,07916.4570,W,1,10,1.8,17,M,,M,,*69
06/19/2015	04:10:16.538	$GPGGA,041017,2555.1028,N,07916.4570,W,1,10,1.8,17,M,,M,,*6E
06/19/2015	04:10:17.538	$GPGGA,041018,2555.1006,N,07916.4571,W,1,10,1.8,17,M,,M,,*6C
06/19/2015	04:10:18.510	$GPGGA,041019,2555.0986,N,07916.4572,W,1,10,1.9,17,M,,M,,*6F
06/19/2015	04:10:19.518	$GPGGA,041020,2555.0966,N,07916.4574,W,1,10,1.8,17,M,,M,,*6C
06/19/2015	04:10:20.628	$GPGGA,041021,2555.0945,N,07916.4577,W,1,10,1.9,17,M,,M,,*6E
06/19/2015	04:10:21.548	$GPGGA,041022,2555.0923,N,07916.4576,W,1,9,1.9,17,M,,M,,*54
06/19/2015	04:10:22.518	$GPGGA,041023,2555.0901,N,07916.4577,W,1,9,1.8,17,M,,M,,*55
06/19/2015	04:10:23.559	$GPGGA,041024,2555.0880,N,07916.4579,W,1,10,1.8,17,M,,M,,*6C
06/19/2015	04:10:24.499	$GPGGA,041025,2555.0858,N,07916.4581,W,1,10,2.0,17,M,,M,,*64
06/19/2015	04:10:25.519	$GPGGA,041026,2555.0838,N,07916.4582,W,1,10,1.8,17,M,,M,,*69
06/19/2015	04:10:26.609	$GPGGA,041027,2555.0817,N,07916.4584,W,1,10,1.8,17,M,,M,,*63
06/19/2015	04:10:27.648	$GPGGA,041028,2555.0797,N,07916.4585,W,1,10,1.8,17,M,,M,,*6A
06/19/2015	04:10:28.488	$GPGGA,041029,2555.0776,N,07916.4588,W,1,10,1.8,17,M,,M,,*69
06/19/2015	04:10:29.488	$GPGGA,041030,2555.0757,N,07916.4588,W,1,9,1.9,17,M,,M,,*5B
06/19/2015	04:10:30.588	$GPGGA,041031,2555.0734,N,07916.4592,W,1,9,1.9,17,M,,M,,*54
06/19/2015	04:10:31.628	$GPGGA,041032,2555.0714,N,07916.4595,W,1,9,2.1,17,M,,M,,*59
06/19/2015	04:10:32.578	$GPGGA,041033,2555.0692,N,07916.4594,W,1,9,1.9,17,M,,M,,*5D
06/19/2015	04:10:33.488	$GPGGA,041034,2555.0670,N,07916.4596,W,1,9,1.9,17,M,,M,,*54
06/19/2015	04:10:34.578	$GPGGA,041035,2555.0650,N,07916.4599,W,1,9,1.7,17,M,,M,,*56
06/19/2015	04:10:35.910	$GPGGA,041036,2555.0629,N,07916.4602,W,1,10,1.7,17,M,,M,,*62
06/19/2015	04:10:36.568	$GPGGA,041037,2555.0609,N,07916.4603,W,1,10,1.7,17,M,,M,,*60
06/19/2015	04:10:37.613	$GPGGA,041038,2555.0589,N,07916.4604,W,1,10,1.7,17,M,,M,,*63
06/19/2015	04:10:38.578	$GPGGA,041039,2555.0569,N,07916.4608,W,1,10,2.0,17,M,,M,,*64
06/19/2015	04:10:39.620	$GPGGA,041040,2555.0549,N,07916.4611,W,1,9,1.7,17,M,,M,,*5C
06/19/2015	04:10:40.568	$GPGGA,041041,2555.0530,N,07916.4611,W,1,9,1.7,17,M,,M,,*53
06/19/2015	04:10:41.589	$GPGGA,041042,2555.0509,N,07916.4613,W,1,10,1.7,17,M,,M,,*60
06/19/2015	04:10:42.559	$GPGGA,041043,2555.0487,N,07916.4617,W,1,10,1.7,17,M,,M,,*62
06/19/2015	04:10:43.599	$GPGGA,041044,2555.0465,N,07916.4618,W,1,10,1.9,17,M,,M,,*68
06/19/2015	04:10:44.568	$GPGGA,041045,2555.0447,N,07916.4620,W,1,10,1.7,17,M,,M,,*6C
06/19/2015	04:10:45.548	$GPGGA,041046,2555.0428,N,07916.4621,W,1,10,1.7,17,M,,M,,*67
06/19/2015	04:10:46.568	$GPGGA,041047,2555.0405,N,07916.4624,W,1,10,1.7,17,M,,M,,*6C
06/19/2015	04:10:47.588	$GPGGA,041048,2555.0383,N,07916.4623,W,1,10,1.9,17,M,,M,,*63
06/19/2015	04:10:48.558	$GPGGA,041049,2555.0363,N,07916.4624,W,1,10,1.7,17,M,,M,,*65
06/19/2015	04:10:49.568	$GPGGA,041050,2555.0342,N,07916.4626,W,1,10,1.7,17,M,,M,,*6C
06/19/2015	04:10:50.558	$GPGGA,041051,2555.0320,N,07916.4626,W,1,10,1.9,18,M,,M,,*68
06/19/2015	04:10:51.598	$GPGGA,041052,2555.0298,N,07916.4628,W,1,9,1.9,18,M,,M,,*5F
06/19/2015	04:10:52.548	$GPGGA,041053,2555.0275,N,07916.4627,W,1,9,1.9,18,M,,M,,*52
06/19/2015	04:10:53.528	$GPGGA,041054,2555.0253,N,07916.4626,W,1,9,1.9,18,M,,M,,*50
06/19/2015	04:10:54.548	$GPGGA,041055,2555.0234,N,07916.4628,W,1,9,1.7,18,M,,M,,*50
06/19/2015	04:10:55.568	$GPGGA,041056,2555.0211,N,07916.4628,W,1,10,1.9,18,M,,M,,*62
06/19/2015	04:10:56.538	$GPGGA,041057,2555.0190,N,07916.4627,W,1,10,1.9,18,M,,M,,*66
06/19/2015	04:10:57.558	$GPGGA,041058,2555.0168,N,07916.4628,W,1,9,1.9,18,M,,M,,*59
06/19/2015	04:10:58.520	$GPGGA,041059,2555.0146,N,07916.4627,W,1,9,1.9,18,M,,M,,*5B
06/19/2015	04:10:59.613	$GPGGA,041100,2555.0125,N,07916.4626,W,1,9,1.7,18,M,,M,,*5C
06/19/2015	04:11:00.520	$GPGGA,041101,2555.0103,N,07916.4626,W,1,9,1.9,18,M,,M,,*57
06/19/2015	04:11:01.549	$GPGGA,041102,2555.0080,N,07916.4625,W,1,9,1.9,17,M,,M,,*52
06/19/2015	04:11:02.548	$GPGGA,041103,2555.0060,N,07916.4626,W,1,9,1.9,17,M,,M,,*5E
06/19/2015	04:11:03.568	$GPGGA,041104,2555.0040,N,07916.4626,W,1,9,1.7,17,M,,M,,*55
06/19/2015	04:11:04.528	$GPGGA,041105,2555.0018,N,07916.4626,W,1,9,1.9,17,M,,M,,*57
06/19/2015	04:11:05.538	$GPGGA,041106,2554.9998,N,07916.4628,W,1,9,1.7,17,M,,M,,*5D
06/19/2015	04:11:06.528	$GPGGA,041107,2554.9980,N,07916.4629,W,1,9,1.7,17,M,,M,,*54
06/19/2015	04:11:07.568	$GPGGA,041108,2554.9959,N,07916.4629,W,1,10,1.7,17,M,,M,,*67
06/19/2015	04:11:08.611	$GPGGA,041109,2554.9939,N,07916.4632,W,1,10,1.7,18,M,,M,,*65
06/19/2015	04:11:09.528	$GPGGA,041110,2554.9917,N,07916.4631,W,1,10,1.9,18,M,,M,,*6C
06/19/2015	04:11:10.513	$GPGGA,041111,2554.9897,N,07916.4632,W,1,10,1.7,18,M,,M,,*69
06/19/2015	04:11:11.648	$GPGGA,041112,2554.9875,N,07916.4633,W,1,10,1.7,18,M,,M,,*67
06/19/2015	04:11:12.528	$GPGGA,041113,2554.9854,N,07916.4633,W,1,10,1.7,18,M,,M,,*65
06/19/2015	04:11:13.538	$GPGGA,041114,2554.9834,N,07916.4636,W,1,10,1.7,18,M,,M,,*61
06/19/2015	04:11:14.528	$GPGGA,041115,2554.9814,N,07916.4639,W,1,10,1.7,18,M,,M,,*6D
06/19/2015	04:11:15.598	$GPGGA,041116,2554.9792,N,07916.4638,W,1,10,1.7,18,M,,M,,*6E
06/19/2015	04:11:16.589	$GPGGA,041117,2554.9771,N,07916.4640,W,1,10,1.9,17,M,,M,,*6C
06/19/2015	04:11:17.623	$GPGGA,041118,2554.9749,N,07916.4642,W,1,9,1.9,17,M,,M,,*52
06/19/2015	04:11:18.519	$GPGGA,041119,2554.9728,N,07916.4644,W,1,9,1.7,17,M,,M,,*5C
06/19/2015	04:11:19.558	$GPGGA,041120,2554.9709,N,07916.4646,W,1,10,1.7,17,M,,M,,*6F
06/19/2015	04:11:20.518	$GPGGA,041121,2554.9691,N,07916.4649,W,1,10,1.7,17,M,,M,,*61
06/19/2015	04:11:21.578	$GPGGA,041122,2554.9668,N,07916.4650,W,1,10,1.9,17,M,,M,,*62
06/19/2015	04:11:22.510	$GPGGA,041123,2554.9648,N,07916.4653,W,1,10,1.7,17,M,,M,,*6C
06/19/2015	04:11:23.622	$GPGGA,041124,2554.9628,N,07916.4655,W,1,10,1.7,17,M,,M,,*6B
06/19/2015	04:11:24.518	$GPGGA,041125,2554.9608,N,07916.4657,W,1,10,2.0,17,M,,M,,*6E
06/19/2015	04:11:25.609	$GPGGA,041126,2554.9587,N,07916.4660,W,1,9,2.0,17,M,,M,,*55
06/19/2015	04:11:26.568	$GPGGA,041127,2554.9568,N,07916.4664,W,1,9,1.8,17,M,,M,,*5A
06/19/2015	04:11:27.608	$GPGGA,041128,2554.9547,N,07916.4665,W,1,9,1.8,17,M,,M,,*59
06/19/2015	04:11:28.568	$GPGGA,041129,2554.9525,N,07916.4668,W,1,9,1.9,17,M,,M,,*50
06/19/2015	04:11:29.598	$GPGGA,041130,2554.9505,N,07916.4671,W,1,9,1.9,17,M,,M,,*52
06/19/2015	04:11:30.558	$GPGGA,041131,2554.9486,N,07916.4672,W,1,9,1.7,17,M,,M,,*54
06/19/2015	04:11:31.598	$GPGGA,041132,2554.9465,N,07916.4675,W,1,10,1.7,17,M,,M,,*65
06/19/2015	04:11:32.558	$GPGGA,041133,2554.9444,N,07916.4675,W,1,10,1.7,17,M,,M,,*67
06/19/2015	04:11:33.589	$GPGGA,041134,2554.9424,N,07916.4678,W,1,10,1.7,17,M,,M,,*6B
06/19/2015	04:11:34.549	$GPGGA,041135,2554.9403,N,07916.4679,W,1,10,1.7,17,M,,M,,*6E
06/19/2015	04:11:35.589	$GPGGA,041136,2554.9382,N,07916.4680,W,1,10,1.7,17,M,,M,,*65
06/19/2015	04:11:36.549	$GPGGA,041137,2554.9361,N,07916.4683,W,1,10,1.7,17,M,,M,,*6A
06/19/2015	04:11:37.568	$GPGGA,041138,2554.9341,N,07916.4684,W,1,10,1.7,17,M,,M,,*60
06/19/2015	04:11:38.568	$GPGGA,041139,2554.9319,N,07916.4686,W,1,10,1.7,17,M,,M,,*6E
06/19/2015	04:11:39.588	$GPGGA,041140,2554.9295,N,07916.4686,W,1,9,1.9,17,M,,M,,*53
06/19/2015	04:11:40.538	$GPGGA,041141,2554.9276,N,07916.4689,W,1,9,1.9,17,M,,M,,*50
06/19/2015	04:11:41.568	$GPGGA,041142,2554.9254,N,07916.4688,W,1,10,1.7,17,M,,M,,*64
06/19/2015	04:11:42.538	$GPGGA,041143,2554.9232,N,07916.4689,W,1,10,1.7,17,M,,M,,*64
