Software Version Number: 1	Data File Format Number: 1	Build Version Number: 1	Error Count Since VI Started: 3	Manufacturer: Raytheon	 Model Number: RayMarine 120	 S/N: 	 Cal Date: 	 Wind Direction Offset: 0.00	 Slope (M)1: 0.00	 Offset (B)1: 0.00	 Slope (M)2: 0.00	 Offset (B)2: 0.00	 Slope (M)3: 0.00	 Offset (B)3: 0.00	 Slope (M)4: 0.00	 Offset (B)4: 0.00	 Slope (M)5: 0.00	 Offset (B)5: 0.00	 Slope (M)6: 0.00	 Offset (B)6: 0.00
Computer Date	Computer Time	GGA String
06/22/2015	22:00:00.487	$GPGGA,220001,2420.7056,N,08158.7814,W,1,9,1.7,22,M,,M,,*50
06/22/2015	22:00:01.667	$GPGGA,220002,2420.7055,N,08158.7815,W,1,9,1.5,22,M,,M,,*53
06/22/2015	22:00:02.607	$GPGGA,220003,2420.7056,N,08158.7815,W,1,9,1.5,22,M,,M,,*51
06/22/2015	22:00:03.577	$GPGGA,220004,2420.7055,N,08158.7815,W,1,9,1.5,22,M,,M,,*55
06/22/2015	22:00:04.567	$GPGGA,220005,2420.7056,N,08158.7816,W,1,9,1.5,22,M,,M,,*54
06/22/2015	22:00:05.567	$GPGGA,220006,2420.7054,N,08158.7818,W,1,9,1.5,22,M,,M,,*5B
06/22/2015	22:00:06.597	$GPGGA,220007,2420.7054,N,08158.7819,W,1,9,1.5,22,M,,M,,*5B
06/22/2015	22:00:07.667	$GPGGA,220008,2420.7054,N,08158.7818,W,1,9,1.5,22,M,,M,,*55
06/22/2015	22:00:08.587	$GPGGA,220009,2420.7054,N,08158.7819,W,1,9,1.5,22,M,,M,,*55
06/22/2015	22:00:09.667	$GPGGA,220010,2420.7054,N,08158.7821,W,1,9,1.5,22,M,,M,,*56
06/22/2015	22:00:10.586	$GPGGA,220011,2420.7054,N,08158.7822,W,1,9,1.5,22,M,,M,,*54
06/22/2015	22:00:11.666	$GPGGA,220012,2420.7054,N,08158.7821,W,1,9,1.5,22,M,,M,,*54
06/22/2015	22:00:12.586	$GPGGA,220013,2420.7054,N,08158.7822,W,1,9,1.5,22,M,,M,,*56
06/22/2015	22:00:13.636	$GPGGA,220014,2420.7054,N,08158.7822,W,1,9,1.5,22,M,,M,,*51
06/22/2015	22:00:14.586	$GPGGA,220015,2420.7054,N,08158.7823,W,1,9,1.5,22,M,,M,,*51
06/22/2015	22:00:15.667	$GPGGA,220016,2420.7054,N,08158.7825,W,1,9,1.5,22,M,,M,,*54
06/22/2015	22:00:16.587	$GPGGA,220017,2420.7054,N,08158.7823,W,1,9,1.5,22,M,,M,,*53
06/22/2015	22:00:17.657	$GPGGA,220018,2420.7054,N,08158.7823,W,1,9,1.5,22,M,,M,,*5C
06/22/2015	22:00:18.587	$GPGGA,220019,2420.7054,N,08158.7826,W,1,9,1.5,22,M,,M,,*58
06/22/2015	22:00:19.657	$GPGGA,220020,2420.7054,N,08158.7829,W,1,9,1.5,22,M,,M,,*5D
06/22/2015	22:00:20.527	$GPGGA,220021,2420.7054,N,08158.7825,W,1,9,1.5,23,M,,M,,*51
06/22/2015	22:00:21.647	$GPGGA,220022,2420.7054,N,08158.7825,W,1,8,1.7,22,M,,M,,*50
06/22/2015	22:00:22.557	$GPGGA,220023,2420.7054,N,08158.7829,W,1,8,1.7,22,M,,M,,*5D
06/22/2015	22:00:23.677	$GPGGA,220024,2420.7054,N,08158.7828,W,1,9,1.5,22,M,,M,,*58
06/22/2015	22:00:24.567	$GPGGA,220025,2420.7054,N,08158.7827,W,1,9,1.5,22,M,,M,,*56
06/22/2015	22:00:25.527	$GPGGA,220026,2420.7056,N,08158.7827,W,1,9,1.5,22,M,,M,,*57
06/22/2015	22:00:26.557	$GPGGA,220027,2420.7055,N,08158.7829,W,1,9,1.7,22,M,,M,,*59
06/22/2015	22:00:27.607	$GPGGA,220028,2420.7056,N,08158.7830,W,1,8,1.5,22,M,,M,,*5E
06/22/2015	22:00:28.546	$GPGGA,220029,2420.7055,N,08158.7829,W,1,8,1.5,22,M,,M,,*54
06/22/2015	22:00:29.521	$GPGGA,220030,2420.7054,N,08158.7830,W,1,9,1.5,22,M,,M,,*54
06/22/2015	22:00:30.546	$GPGGA,220031,2420.7054,N,08158.7832,W,1,9,1.5,22,M,,M,,*57
06/22/2015	22:00:31.636	$GPGGA,220032,2420.7054,N,08158.7833,W,1,9,1.5,22,M,,M,,*55
06/22/2015	22:00:32.546	$GPGGA,220033,2420.7054,N,08158.7834,W,1,9,1.5,22,M,,M,,*53
06/22/2015	22:00:33.597	$GPGGA,220034,2420.7054,N,08158.7836,W,1,9,1.5,22,M,,M,,*56
06/22/2015	22:00:34.557	$GPGGA,220035,2420.7054,N,08158.7837,W,1,9,1.5,22,M,,M,,*56
06/22/2015	22:00:35.647	$GPGGA,220036,2420.7052,N,08158.7837,W,1,9,1.5,22,M,,M,,*53
06/22/2015	22:00:36.527	$GPGGA,220037,2420.7053,N,08158.7839,W,1,9,1.5,22,M,,M,,*5D
06/22/2015	22:00:37.587	$GPGGA,220038,2420.7054,N,08158.7840,W,1,9,1.7,22,M,,M,,*59
06/22/2015	22:00:38.497	$GPGGA,220039,2420.7052,N,08158.7840,W,1,9,1.7,22,M,,M,,*5E
06/22/2015	22:00:39.610	$GPGGA,220040,2420.7053,N,08158.7839,W,1,9,1.5,22,M,,M,,*5D
06/22/2015	22:00:41.487	$GPGGA,220041,2420.7052,N,08158.7841,W,1,9,1.5,22,M,,M,,*52
06/22/2015	22:00:41.524	$GPGGA,220042,2420.7053,N,08158.7843,W,1,9,1.5,22,M,,M,,*52
06/22/2015	22:00:42.587	$GPGGA,220043,2420.7052,N,08158.7843,W,1,9,1.5,22,M,,M,,*52
06/22/2015	22:00:43.627	$GPGGA,220044,2420.7053,N,08158.7843,W,1,9,1.5,22,M,,M,,*54
06/22/2015	22:00:44.518	$GPGGA,220045,2420.7051,N,08158.7844,W,1,9,1.5,22,M,,M,,*50
06/22/2015	22:00:45.576	$GPGGA,220046,2420.7052,N,08158.7847,W,1,9,1.5,22,M,,M,,*53
06/22/2015	22:00:46.526	$GPGGA,220047,2420.7051,N,08158.7845,W,1,9,1.5,22,M,,M,,*53
06/22/2015	22:00:47.617	$GPGGA,220048,2420.7052,N,08158.7845,W,1,9,1.5,22,M,,M,,*5F
06/22/2015	22:00:48.520	$GPGGA,220049,2420.7053,N,08158.7847,W,1,9,1.7,22,M,,M,,*5F
06/22/2015	22:00:49.626	$GPGGA,220050,2420.7054,N,08158.7846,W,1,8,1.5,22,M,,M,,*52
06/22/2015	22:00:50.567	$GPGGA,220051,2420.7052,N,08158.7847,W,1,8,1.5,22,M,,M,,*54
06/22/2015	22:00:51.597	$GPGGA,220052,2420.7054,N,08158.7847,W,1,9,1.7,22,M,,M,,*52
06/22/2015	22:00:52.519	$GPGGA,220053,2420.7054,N,08158.7848,W,1,9,1.5,22,M,,M,,*5E
06/22/2015	22:00:53.587	$GPGGA,220054,2420.7054,N,08158.7850,W,1,9,1.5,22,M,,M,,*50
06/22/2015	22:00:54.567	$GPGGA,220055,2420.7054,N,08158.7850,W,1,9,1.7,22,M,,M,,*53
06/22/2015	22:00:55.587	$GPGGA,220056,2420.7056,N,08158.7849,W,1,8,1.7,22,M,,M,,*5B
06/22/2015	22:00:56.567	$GPGGA,220057,2420.7055,N,08158.7850,W,1,8,1.5,22,M,,M,,*53
06/22/2015	22:00:57.577	$GPGGA,220058,2420.7056,N,08158.7851,W,1,9,1.7,22,M,,M,,*5D
06/22/2015	22:00:58.557	$GPGGA,220059,2420.7057,N,08158.7851,W,1,9,1.5,22,M,,M,,*5F
06/22/2015	22:00:59.647	$GPGGA,220100,2420.7056,N,08158.7849,W,1,9,1.7,22,M,,M,,*58
06/22/2015	22:01:00.547	$GPGGA,220101,2420.7057,N,08158.7850,W,1,9,1.7,21,M,,M,,*53
06/22/2015	22:01:01.597	$GPGGA,220102,2420.7057,N,08158.7851,W,1,8,1.8,21,M,,M,,*5F
06/22/2015	22:01:02.556	$GPGGA,220103,2420.7061,N,08158.7852,W,1,8,1.7,21,M,,M,,*57
06/22/2015	22:01:03.626	$GPGGA,220104,2420.7059,N,08158.7851,W,1,8,1.7,21,M,,M,,*58
06/22/2015	22:01:04.556	$GPGGA,220105,2420.7061,N,08158.7851,W,1,8,1.7,21,M,,M,,*52
06/22/2015	22:01:05.566	$GPGGA,220106,2420.7059,N,08158.7852,W,1,8,1.8,21,M,,M,,*56
06/22/2015	22:01:06.546	$GPGGA,220107,2420.7058,N,08158.7851,W,1,8,1.8,21,M,,M,,*55
06/22/2015	22:01:07.636	$GPGGA,220108,2420.7058,N,08158.7852,W,1,7,1.6,21,M,,M,,*58
06/22/2015	22:01:08.537	$GPGGA,220109,2420.7057,N,08158.7854,W,1,7,1.6,21,M,,M,,*50
06/22/2015	22:01:09.567	$GPGGA,220110,2420.7056,N,08158.7855,W,1,8,1.6,20,M,,M,,*56
06/22/2015	22:01:10.537	$GPGGA,220111,2420.7055,N,08158.7855,W,1,8,1.6,20,M,,M,,*54
06/22/2015	22:01:11.577	$GPGGA,220112,2420.7056,N,08158.7858,W,1,8,1.6,20,M,,M,,*59
06/22/2015	22:01:12.537	$GPGGA,220113,2420.7054,N,08158.7858,W,1,8,1.6,20,M,,M,,*5A
06/22/2015	22:01:13.567	$GPGGA,220114,2420.7054,N,08158.7861,W,1,8,1.6,20,M,,M,,*57
06/22/2015	22:01:14.547	$GPGGA,220115,2420.7052,N,08158.7861,W,1,8,1.6,20,M,,M,,*50
06/22/2015	22:01:15.557	$GPGGA,220116,2420.7052,N,08158.7861,W,1,8,1.6,20,M,,M,,*53
06/22/2015	22:01:16.527	$GPGGA,220117,2420.7052,N,08158.7860,W,1,8,1.8,20,M,,M,,*5D
06/22/2015	22:01:17.577	$GPGGA,220118,2420.7053,N,08158.7861,W,1,7,1.6,20,M,,M,,*53
06/22/2015	22:01:18.527	$GPGGA,220119,2420.7053,N,08158.7861,W,1,7,1.6,20,M,,M,,*52
06/22/2015	22:01:19.597	$GPGGA,220120,2420.7050,N,08158.7862,W,1,8,1.6,20,M,,M,,*57
06/22/2015	22:01:20.536	$GPGGA,220121,2420.7050,N,08158.7861,W,1,8,1.6,20,M,,M,,*55
06/22/2015	22:01:21.596	$GPGGA,220122,2420.7050,N,08158.7862,W,1,7,1.8,20,M,,M,,*54
06/22/2015	22:01:22.512	$GPGGA,220123,2420.7052,N,08158.7863,W,1,7,1.8,20,M,,M,,*56
06/22/2015	22:01:23.606	$GPGGA,220124,2420.7049,N,08158.7865,W,1,7,1.6,20,M,,M,,*53
06/22/2015	22:01:24.636	$GPGGA,220125,2420.7048,N,08158.7865,W,1,7,1.6,20,M,,M,,*53
06/22/2015	22:01:25.637	$GPGGA,220126,2420.7047,N,08158.7868,W,1,8,1.6,20,M,,M,,*5D
06/22/2015	22:01:26.517	$GPGGA,220127,2420.7047,N,08158.7869,W,1,8,1.6,20,M,,M,,*5D
06/22/2015	22:01:27.537	$GPGGA,220128,2420.7047,N,08158.7869,W,1,7,1.8,20,M,,M,,*53
06/22/2015	22:01:28.517	$GPGGA,220129,2420.7047,N,08158.7869,W,1,7,1.8,20,M,,M,,*52
06/22/2015	22:01:29.567	$GPGGA,220130,2420.7047,N,08158.7872,W,1,8,1.6,20,M,,M,,*51
06/22/2015	22:01:30.487	$GPGGA,220131,2420.7047,N,08158.7872,W,1,8,1.6,20,M,,M,,*50
06/22/2015	22:01:31.517	$GPGGA,220132,2420.7047,N,08158.7873,W,1,8,1.6,20,M,,M,,*52
06/22/2015	22:01:32.497	$GPGGA,220133,2420.7045,N,08158.7874,W,1,8,1.6,20,M,,M,,*56
06/22/2015	22:01:33.511	$GPGGA,220134,2420.7045,N,08158.7874,W,1,8,1.6,20,M,,M,,*51
06/22/2015	22:01:34.497	$GPGGA,220135,2420.7044,N,08158.7877,W,1,8,1.6,20,M,,M,,*52
06/22/2015	22:01:35.567	$GPGGA,220136,2420.7044,N,08158.7877,W,1,8,1.6,20,M,,M,,*51
06/22/2015	22:01:36.577	$GPGGA,220137,2420.7044,N,08158.7880,W,1,8,1.6,20,M,,M,,*58
06/22/2015	22:01:37.626	$GPGGA,220138,2420.7043,N,08158.7881,W,1,8,1.6,20,M,,M,,*51
06/22/2015	22:01:38.566	$GPGGA,220139,2420.7043,N,08158.7881,W,1,8,1.6,20,M,,M,,*50
06/22/2015	22:01:39.586	$GPGGA,220140,2420.7043,N,08158.7883,W,1,8,1.6,20,M,,M,,*5C
06/22/2015	22:01:40.566	$GPGGA,220141,2420.7043,N,08158.7883,W,1,8,1.6,20,M,,M,,*5D
06/22/2015	22:01:41.476	$GPGGA,220142,2420.7043,N,08158.7883,W,1,7,1.8,20,M,,M,,*5F
06/22/2015	22:01:42.476	$GPGGA,220143,2420.7045,N,08158.7882,W,1,7,1.8,20,M,,M,,*59
06/22/2015	22:01:43.607	$GPGGA,220144,2420.7044,N,08158.7881,W,1,7,1.8,20,M,,M,,*5C
06/22/2015	22:01:44.567	$GPGGA,220145,2420.7045,N,08158.7883,W,1,7,1.6,20,M,,M,,*50
06/22/2015	22:01:45.587	$GPGGA,220146,2420.7044,N,08158.7883,W,1,8,1.6,20,M,,M,,*5D
06/22/2015	22:01:46.567	$GPGGA,220147,2420.7045,N,08158.7881,W,1,8,1.8,20,M,,M,,*51
06/22/2015	22:01:47.597	$GPGGA,220148,2420.7043,N,08158.7883,W,1,7,1.8,20,M,,M,,*55
06/22/2015	22:01:48.557	$GPGGA,220149,2420.7045,N,08158.7884,W,1,7,1.6,20,M,,M,,*5B
06/22/2015	22:01:49.577	$GPGGA,220150,2420.7044,N,08158.7884,W,1,7,1.8,20,M,,M,,*5C
06/22/2015	22:01:50.557	$GPGGA,220151,2420.7045,N,08158.7884,W,1,7,1.8,20,M,,M,,*5C
06/22/2015	22:01:51.577	$GPGGA,220152,2420.7044,N,08158.7886,W,1,7,1.8,20,M,,M,,*5C
06/22/2015	22:01:52.547	$GPGGA,220153,2420.7045,N,08158.7884,W,1,7,1.8,19,M,,M,,*54
06/22/2015	22:01:53.537	$GPGGA,220154,2420.7043,N,08158.7884,W,1,7,1.8,19,M,,M,,*55
06/22/2015	22:01:54.547	$GPGGA,220155,2420.7047,N,08158.7887,W,1,7,1.7,19,M,,M,,*5C
06/22/2015	22:01:55.577	$GPGGA,220156,2420.7047,N,08158.7888,W,1,8,1.7,19,M,,M,,*5F
06/22/2015	22:01:56.546	$GPGGA,220157,2420.7045,N,08158.7887,W,1,8,1.8,19,M,,M,,*5C
06/22/2015	22:01:57.526	$GPGGA,220158,2420.7047,N,08158.7888,W,1,7,1.8,19,M,,M,,*51
06/22/2015	22:01:58.536	$GPGGA,220159,2420.7050,N,08158.7890,W,1,7,1.7,19,M,,M,,*50
06/22/2015	22:01:59.576	$GPGGA,220200,2420.7048,N,08158.7891,W,1,8,1.7,19,M,,M,,*58
06/22/2015	22:02:00.537	$GPGGA,220201,2420.7050,N,08158.7890,W,1,8,1.8,19,M,,M,,*5E
06/22/2015	22:02:01.557	$GPGGA,220202,2420.7048,N,08158.7891,W,1,8,1.7,19,M,,M,,*5A
06/22/2015	22:02:02.537	$GPGGA,220203,2420.7050,N,08158.7894,W,1,8,1.7,19,M,,M,,*57
06/22/2015	22:02:03.557	$GPGGA,220204,2420.7050,N,08158.7894,W,1,8,1.7,19,M,,M,,*50
06/22/2015	22:02:04.537	$GPGGA,220205,2420.7050,N,08158.7893,W,1,8,1.7,19,M,,M,,*56
06/22/2015	22:02:05.557	$GPGGA,220206,2420.7052,N,08158.7894,W,1,8,1.7,19,M,,M,,*50
06/22/2015	22:02:07.597	$GPGGA,220208,2420.7052,N,08158.7897,W,1,8,1.7,19,M,,M,,*5D
06/22/2015	22:02:08.517	$GPGGA,220209,2420.7053,N,08158.7897,W,1,8,1.7,19,M,,M,,*5D
06/22/2015	22:02:09.509	$GPGGA,220210,2420.7052,N,08158.7898,W,1,8,1.7,19,M,,M,,*5B
06/22/2015	22:02:10.509	$GPGGA,220211,2420.7054,N,08158.7901,W,1,8,1.7,19,M,,M,,*5D
06/22/2015	22:02:11.537	$GPGGA,220212,2420.7054,N,08158.7901,W,1,8,1.7,19,M,,M,,*5E
06/22/2015	22:02:12.486	$GPGGA,220213,2420.7054,N,08158.7900,W,1,8,1.7,19,M,,M,,*5E
06/22/2015	22:02:13.486	$GPGGA,220214,2420.7054,N,08158.7902,W,1,8,1.7,19,M,,M,,*5B
06/22/2015	22:02:14.506	$GPGGA,220215,2420.7054,N,08158.7904,W,1,8,1.7,19,M,,M,,*5C
06/22/2015	22:02:15.606	$GPGGA,220216,2420.7054,N,08158.7903,W,1,8,1.7,18,M,,M,,*59
06/22/2015	22:02:16.498	$GPGGA,220217,2420.7054,N,08158.7905,W,1,8,1.7,18,M,,M,,*5E
06/22/2015	22:02:17.509	$GPGGA,220218,2420.7054,N,08158.7906,W,1,8,1.7,18,M,,M,,*52
06/22/2015	22:02:18.502	$GPGGA,220219,2420.7054,N,08158.7906,W,1,8,1.7,18,M,,M,,*53
06/22/2015	22:02:19.508	$GPGGA,220220,2420.7054,N,08158.7908,W,1,8,1.7,18,M,,M,,*57
06/22/2015	22:02:20.599	$GPGGA,220221,2420.7054,N,08158.7908,W,1,8,1.7,18,M,,M,,*56
06/22/2015	22:02:21.506	$GPGGA,220222,2420.7054,N,08158.7909,W,1,8,1.7,18,M,,M,,*54
06/22/2015	22:02:22.476	$GPGGA,220223,2420.7054,N,08158.7909,W,1,8,1.7,18,M,,M,,*55
06/22/2015	22:02:23.486	$GPGGA,220224,2420.7054,N,08158.7910,W,1,8,1.7,18,M,,M,,*5A
06/22/2015	22:02:24.566	$GPGGA,220225,2420.7051,N,08158.7912,W,1,8,1.7,18,M,,M,,*5C
06/22/2015	22:02:25.486	$GPGGA,220226,2420.7050,N,08158.7912,W,1,9,1.5,18,M,,M,,*5D
06/22/2015	22:02:26.566	$GPGGA,220227,2420.7048,N,08158.7915,W,1,9,1.5,18,M,,M,,*52
06/22/2015	22:02:27.576	$GPGGA,220228,2420.7047,N,08158.7916,W,1,9,1.5,18,M,,M,,*51
06/22/2015	22:02:28.567	$GPGGA,220229,2420.7047,N,08158.7917,W,1,9,1.5,18,M,,M,,*51
06/22/2015	22:02:29.567	$GPGGA,220230,2420.7044,N,08158.7917,W,1,9,1.5,18,M,,M,,*5A
06/22/2015	22:02:30.556	$GPGGA,220231,2420.7045,N,08158.7919,W,1,9,1.5,18,M,,M,,*54
06/22/2015	22:02:31.598	$GPGGA,220232,2420.7043,N,08158.7920,W,1,9,1.5,19,M,,M,,*5A
06/22/2015	22:02:32.546	$GPGGA,220233,2420.7043,N,08158.7921,W,1,9,1.5,19,M,,M,,*5A
06/22/2015	22:02:33.586	$GPGGA,220234,2420.7043,N,08158.7921,W,1,9,1.5,19,M,,M,,*5D
06/22/2015	22:02:34.556	$GPGGA,220235,2420.7041,N,08158.7923,W,1,9,1.5,19,M,,M,,*5C
06/22/2015	22:02:35.577	$GPGGA,220236,2420.7040,N,08158.7924,W,1,9,1.5,19,M,,M,,*59
06/22/2015	22:02:36.546	$GPGGA,220237,2420.7042,N,08158.7923,W,1,9,1.5,19,M,,M,,*5D
06/22/2015	22:02:37.556	$GPGGA,220238,2420.7041,N,08158.7921,W,1,8,1.7,19,M,,M,,*50
06/22/2015	22:02:38.546	$GPGGA,220239,2420.7042,N,08158.7923,W,1,8,1.5,19,M,,M,,*52
06/22/2015	22:02:39.886	$GPGGA,220240,2420.7041,N,08158.7924,W,1,9,1.5,19,M,,M,,*59
06/22/2015	22:02:40.546	$GPGGA,220241,2420.7040,N,08158.7923,W,1,9,1.5,19,M,,M,,*5E
06/22/2015	22:02:41.566	$GPGGA,220242,2420.7040,N,08158.7923,W,1,9,1.5,19,M,,M,,*5D
06/22/2015	22:02:42.526	$GPGGA,220243,2420.7040,N,08158.7924,W,1,9,1.5,19,M,,M,,*5B
06/22/2015	22:02:43.566	$GPGGA,220244,2420.7040,N,08158.7924,W,1,9,1.5,19,M,,M,,*5C
06/22/2015	22:02:45.086	$GPGGA,220245,2420.7039,N,08158.7926,W,1,9,1.5,19,M,,M,,*51
06/22/2015	22:02:45.557	$GPGGA,220246,2420.7039,N,08158.7926,W,1,9,1.5,20,M,,M,,*58
06/22/2015	22:02:46.537	$GPGGA,220247,2420.7039,N,08158.7927,W,1,9,1.5,20,M,,M,,*58
06/22/2015	22:02:47.556	$GPGGA,220248,2420.7038,N,08158.7927,W,1,9,1.5,20,M,,M,,*56
06/22/2015	22:02:48.536	$GPGGA,220249,2420.7039,N,08158.7928,W,1,9,1.5,20,M,,M,,*59
06/22/2015	22:02:49.516	$GPGGA,220250,2420.7037,N,08158.7930,W,1,9,1.5,20,M,,M,,*56
06/22/2015	22:02:50.536	$GPGGA,220251,2420.7038,N,08158.7930,W,1,9,1.5,20,M,,M,,*58
06/22/2015	22:02:51.536	$GPGGA,220252,2420.7036,N,08158.7929,W,1,9,1.5,20,M,,M,,*5D
06/22/2015	22:02:52.526	$GPGGA,220253,2420.7036,N,08158.7930,W,1,9,1.5,20,M,,M,,*54
06/22/2015	22:02:53.510	$GPGGA,220254,2420.7036,N,08158.7933,W,1,9,1.5,20,M,,M,,*50
06/22/2015	22:02:54.516	$GPGGA,220255,2420.7036,N,08158.7932,W,1,9,1.5,20,M,,M,,*50
06/22/2015	22:02:55.546	$GPGGA,220256,2420.7034,N,08158.7933,W,1,9,1.5,20,M,,M,,*50
06/22/2015	22:02:56.516	$GPGGA,220257,2420.7035,N,08158.7934,W,1,9,1.5,20,M,,M,,*57
06/22/2015	22:02:57.517	$GPGGA,220258,2420.7034,N,08158.7935,W,1,9,1.5,20,M,,M,,*58
06/22/2015	22:02:58.508	$GPGGA,220259,2420.7033,N,08158.7935,W,1,9,1.5,20,M,,M,,*5E
06/22/2015	22:02:59.610	$GPGGA,220300,2420.7034,N,08158.7935,W,1,9,1.5,20,M,,M,,*54
06/22/2015	22:03:00.512	$GPGGA,220301,2420.7033,N,08158.7937,W,1,9,1.5,20,M,,M,,*50
06/22/2015	22:03:01.486	$GPGGA,220302,2420.7034,N,08158.7937,W,1,9,1.5,21,M,,M,,*55
06/22/2015	22:03:02.608	$GPGGA,220303,2420.7033,N,08158.7938,W,1,9,1.5,21,M,,M,,*5C
06/22/2015	22:03:03.537	$GPGGA,220304,2420.7032,N,08158.7938,W,1,9,1.5,21,M,,M,,*5A
06/22/2015	22:03:04.497	$GPGGA,220305,2420.7032,N,08158.7939,W,1,9,1.5,21,M,,M,,*5A
06/22/2015	22:03:05.508	$GPGGA,220306,2420.7032,N,08158.7939,W,1,9,1.5,21,M,,M,,*59
06/22/2015	22:03:06.576	$GPGGA,220307,2420.7031,N,08158.7941,W,1,9,1.5,21,M,,M,,*54
06/22/2015	22:03:07.486	$GPGGA,220308,2420.7032,N,08158.7941,W,1,9,1.5,21,M,,M,,*58
06/22/2015	22:03:08.496	$GPGGA,220309,2420.7031,N,08158.7942,W,1,9,1.5,21,M,,M,,*59
06/22/2015	22:03:09.576	$GPGGA,220310,2420.7032,N,08158.7941,W,1,9,1.5,21,M,,M,,*51
06/22/2015	22:03:10.476	$GPGGA,220311,2420.7030,N,08158.7942,W,1,9,1.5,21,M,,M,,*51
06/22/2015	22:03:11.496	$GPGGA,220312,2420.7031,N,08158.7944,W,1,9,1.5,21,M,,M,,*55
06/22/2015	22:03:12.576	$GPGGA,220313,2420.7030,N,08158.7945,W,1,9,1.5,21,M,,M,,*54
06/22/2015	22:03:13.576	$GPGGA,220314,2420.7031,N,08158.7945,W,1,9,1.5,21,M,,M,,*52
06/22/2015	22:03:14.566	$GPGGA,220315,2420.7029,N,08158.7945,W,1,9,1.5,21,M,,M,,*5A
06/22/2015	22:03:15.576	$GPGGA,220316,2420.7029,N,08158.7946,W,1,9,1.5,21,M,,M,,*5A
06/22/2015	22:03:16.556	$GPGGA,220317,2420.7029,N,08158.7948,W,1,9,1.5,21,M,,M,,*55
06/22/2015	22:03:17.586	$GPGGA,220318,2420.7031,N,08158.7948,W,1,9,1.5,21,M,,M,,*53
06/22/2015	22:03:18.556	$GPGGA,220319,2420.7029,N,08158.7947,W,1,9,1.5,21,M,,M,,*54
06/22/2015	22:03:19.576	$GPGGA,220320,2420.7029,N,08158.7948,W,1,9,1.5,21,M,,M,,*51
06/22/2015	22:03:20.557	$GPGGA,220321,2420.7029,N,08158.7949,W,1,9,1.5,21,M,,M,,*51
06/22/2015	22:03:21.567	$GPGGA,220322,2420.7029,N,08158.7949,W,1,9,1.5,21,M,,M,,*52
06/22/2015	22:03:22.556	$GPGGA,220323,2420.7029,N,08158.7951,W,1,9,1.5,21,M,,M,,*5A
06/22/2015	22:03:23.566	$GPGGA,220324,2420.7029,N,08158.7952,W,1,9,1.5,21,M,,M,,*5E
06/22/2015	22:03:24.546	$GPGGA,220325,2420.7029,N,08158.7951,W,1,9,1.5,21,M,,M,,*5C
06/22/2015	22:03:25.566	$GPGGA,220326,2420.7027,N,08158.7952,W,1,9,1.5,21,M,,M,,*52
06/22/2015	22:03:26.556	$GPGGA,220327,2420.7028,N,08158.7955,W,1,9,1.5,21,M,,M,,*5B
06/22/2015	22:03:27.576	$GPGGA,220328,2420.7027,N,08158.7955,W,1,9,1.5,21,M,,M,,*5B
06/22/2015	22:03:28.546	$GPGGA,220329,2420.7026,N,08158.7956,W,1,9,1.5,21,M,,M,,*58
06/22/2015	22:03:29.556	$GPGGA,220330,2420.7027,N,08158.7956,W,1,9,1.5,21,M,,M,,*51
06/22/2015	22:03:30.536	$GPGGA,220331,2420.7026,N,08158.7957,W,1,9,1.5,21,M,,M,,*50
06/22/2015	22:03:31.566	$GPGGA,220332,2420.7027,N,08158.7957,W,1,9,1.5,21,M,,M,,*52
06/22/2015	22:03:32.536	$GPGGA,220333,2420.7026,N,08158.7959,W,1,9,1.5,21,M,,M,,*5C
06/22/2015	22:03:33.556	$GPGGA,220334,2420.7025,N,08158.7960,W,1,9,1.5,21,M,,M,,*52
06/22/2015	22:03:34.526	$GPGGA,220335,2420.7025,N,08158.7960,W,1,9,1.5,21,M,,M,,*53
06/22/2015	22:03:35.566	$GPGGA,220336,2420.7025,N,08158.7960,W,1,9,1.5,21,M,,M,,*50
06/22/2015	22:03:36.516	$GPGGA,220337,2420.7025,N,08158.7962,W,1,9,1.5,21,M,,M,,*53
06/22/2015	22:03:37.526	$GPGGA,220338,2420.7025,N,08158.7962,W,1,9,1.5,21,M,,M,,*5C
06/22/2015	22:03:38.527	$GPGGA,220339,2420.7025,N,08158.7962,W,1,9,1.5,21,M,,M,,*5D
06/22/2015	22:03:39.557	$GPGGA,220340,2420.7025,N,08158.7962,W,1,9,1.5,21,M,,M,,*53
06/22/2015	22:03:40.526	$GPGGA,220341,2420.7025,N,08158.7964,W,1,9,1.5,21,M,,M,,*54
06/22/2015	22:03:41.546	$GPGGA,220342,2420.7025,N,08158.7966,W,1,9,1.5,21,M,,M,,*55
06/22/2015	22:03:42.526	$GPGGA,220343,2420.7025,N,08158.7964,W,1,9,1.5,21,M,,M,,*56
06/22/2015	22:03:43.536	$GPGGA,220344,2420.7025,N,08158.7964,W,1,9,1.5,21,M,,M,,*51
06/22/2015	22:03:44.510	$GPGGA,220345,2420.7025,N,08158.7966,W,1,9,1.5,21,M,,M,,*52
06/22/2015	22:03:45.511	$GPGGA,220346,2420.7025,N,08158.7966,W,1,9,1.5,21,M,,M,,*51
06/22/2015	22:03:46.526	$GPGGA,220347,2420.7025,N,08158.7966,W,1,9,1.5,21,M,,M,,*50
06/22/2015	22:03:47.536	$GPGGA,220348,2420.7025,N,08158.7969,W,1,9,1.5,21,M,,M,,*50
06/22/2015	22:03:48.507	$GPGGA,220349,2420.7025,N,08158.7967,W,1,9,1.5,21,M,,M,,*5F
06/22/2015	22:03:49.616	$GPGGA,220350,2420.7023,N,08158.7969,W,1,9,1.5,21,M,,M,,*5F
06/22/2015	22:03:50.516	$GPGGA,220351,2420.7024,N,08158.7970,W,1,9,1.5,21,M,,M,,*51
06/22/2015	22:03:51.536	$GPGGA,220352,2420.7023,N,08158.7969,W,1,9,1.5,21,M,,M,,*5D
06/22/2015	22:03:52.500	$GPGGA,220353,2420.7024,N,08158.7970,W,1,9,1.5,21,M,,M,,*53
06/22/2015	22:03:53.514	$GPGGA,220354,2420.7023,N,08158.7970,W,1,9,1.5,21,M,,M,,*53
06/22/2015	22:03:54.486	$GPGGA,220355,2420.7024,N,08158.7971,W,1,9,1.5,21,M,,M,,*54
06/22/2015	22:03:55.604	$GPGGA,220356,2420.7023,N,08158.7971,W,1,9,1.5,21,M,,M,,*50
06/22/2015	22:03:56.511	$GPGGA,220357,2420.7024,N,08158.7971,W,1,9,1.5,21,M,,M,,*56
06/22/2015	22:03:57.486	$GPGGA,220358,2420.7023,N,08158.7973,W,1,9,1.5,21,M,,M,,*5C
06/22/2015	22:03:58.567	$GPGGA,220359,2420.7024,N,08158.7972,W,1,9,1.5,21,M,,M,,*5B
06/22/2015	22:03:59.626	$GPGGA,220400,2420.7023,N,08158.7973,W,1,9,1.5,21,M,,M,,*56
06/22/2015	22:04:00.576	$GPGGA,220401,2420.7024,N,08158.7974,W,1,9,1.5,21,M,,M,,*57
06/22/2015	22:04:01.603	$GPGGA,220402,2420.7023,N,08158.7977,W,1,9,1.5,21,M,,M,,*50
06/22/2015	22:04:02.566	$GPGGA,220403,2420.7022,N,08158.7976,W,1,9,1.5,21,M,,M,,*51
06/22/2015	22:04:03.566	$GPGGA,220404,2420.7023,N,08158.7977,W,1,9,1.5,21,M,,M,,*56
06/22/2015	22:04:04.567	$GPGGA,220405,2420.7022,N,08158.7978,W,1,9,1.5,21,M,,M,,*59
06/22/2015	22:04:05.566	$GPGGA,220406,2420.7023,N,08158.7980,W,1,9,1.5,21,M,,M,,*5C
06/22/2015	22:04:06.566	$GPGGA,220407,2420.7022,N,08158.7979,W,1,9,1.5,21,M,,M,,*5A
06/22/2015	22:04:07.566	$GPGGA,220408,2420.7023,N,08158.7978,W,1,9,1.5,21,M,,M,,*55
06/22/2015	22:04:08.557	$GPGGA,220409,2420.7022,N,08158.7980,W,1,9,1.5,21,M,,M,,*52
06/22/2015	22:04:09.556	$GPGGA,220410,2420.7024,N,08158.7981,W,1,9,1.5,21,M,,M,,*5D
06/22/2015	22:04:10.556	$GPGGA,220411,2420.7023,N,08158.7980,W,1,9,1.5,21,M,,M,,*5A
06/22/2015	22:04:11.556	$GPGGA,220412,2420.7024,N,08158.7981,W,1,9,1.5,20,M,,M,,*5E
06/22/2015	22:04:12.546	$GPGGA,220413,2420.7023,N,08158.7982,W,1,9,1.5,20,M,,M,,*5B
06/22/2015	22:04:13.537	$GPGGA,220414,2420.7025,N,08158.7982,W,1,9,1.5,20,M,,M,,*5A
06/22/2015	22:04:14.537	$GPGGA,220415,2420.7023,N,08158.7984,W,1,9,1.5,20,M,,M,,*5B
06/22/2015	22:04:15.566	$GPGGA,220416,2420.7024,N,08158.7984,W,1,9,1.5,20,M,,M,,*5F
06/22/2015	22:04:16.546	$GPGGA,220417,2420.7025,N,08158.7984,W,1,9,1.5,20,M,,M,,*5F
06/22/2015	22:04:17.556	$GPGGA,220418,2420.7023,N,08158.7985,W,1,9,1.5,20,M,,M,,*57
06/22/2015	22:04:18.526	$GPGGA,220419,2420.7024,N,08158.7988,W,1,9,1.5,20,M,,M,,*5C
06/22/2015	22:04:19.556	$GPGGA,220420,2420.7023,N,08158.7986,W,1,9,1.5,20,M,,M,,*5F
06/22/2015	22:04:20.946	$GPGGA,220421,2420.7024,N,08158.7988,W,1,9,1.5,20,M,,M,,*57
06/22/2015	22:04:21.556	$GPGGA,220422,2420.7023,N,08158.7988,W,1,9,1.5,20,M,,M,,*53
06/22/2015	22:04:22.516	$GPGGA,220423,2420.7024,N,08158.7989,W,1,9,1.5,20,M,,M,,*54
06/22/2015	22:04:23.556	$GPGGA,220424,2420.7023,N,08158.7988,W,1,9,1.5,20,M,,M,,*55
06/22/2015	22:04:24.516	$GPGGA,220425,2420.7024,N,08158.7991,W,1,9,1.5,20,M,,M,,*5B
06/22/2015	22:04:25.536	$GPGGA,220426,2420.7025,N,08158.7990,W,1,9,1.5,20,M,,M,,*58
06/22/2015	22:04:26.536	$GPGGA,220427,2420.7025,N,08158.7991,W,1,9,1.5,20,M,,M,,*58
06/22/2015	22:04:27.556	$GPGGA,220428,2420.7023,N,08158.7990,W,1,9,1.5,20,M,,M,,*50
06/22/2015	22:04:28.506	$GPGGA,220429,2420.7024,N,08158.7991,W,1,9,1.5,20,M,,M,,*57
06/22/2015	22:04:29.526	$GPGGA,220430,2420.7023,N,08158.7990,W,1,9,1.5,20,M,,M,,*59
06/22/2015	22:04:30.507	$GPGGA,220431,2420.7024,N,08158.7991,W,1,9,1.5,20,M,,M,,*5E
06/22/2015	22:04:31.517	$GPGGA,220432,2420.7023,N,08158.7993,W,1,9,1.5,20,M,,M,,*58
06/22/2015	22:04:32.516	$GPGGA,220433,2420.7024,N,08158.7992,W,1,9,1.5,20,M,,M,,*5F
06/22/2015	22:04:33.616	$GPGGA,220434,2420.7023,N,08158.7991,W,1,9,1.5,20,M,,M,,*5C
06/22/2015	22:04:34.616	$GPGGA,220435,2420.7024,N,08158.7992,W,1,9,1.5,20,M,,M,,*59
06/22/2015	22:04:35.636	$GPGGA,220436,2420.7023,N,08158.7995,W,1,9,1.5,20,M,,M,,*5A
06/22/2015	22:04:36.507	$GPGGA,220437,2420.7024,N,08158.7994,W,1,9,1.5,20,M,,M,,*5D
06/22/2015	22:04:37.506	$GPGGA,220438,2420.7022,N,08158.7992,W,1,9,1.5,20,M,,M,,*52
06/22/2015	22:04:38.497	$GPGGA,220439,2420.7023,N,08158.7993,W,1,9,1.5,20,M,,M,,*53
06/22/2015	22:04:39.516	$GPGGA,220440,2420.7024,N,08158.7996,W,1,9,1.5,20,M,,M,,*5F
06/22/2015	22:04:40.498	$GPGGA,220441,2420.7023,N,08158.7996,W,1,9,1.5,20,M,,M,,*59
06/22/2015	22:04:41.486	$GPGGA,220442,2420.7024,N,08158.7994,W,1,9,1.5,20,M,,M,,*5F
06/22/2015	22:04:42.576	$GPGGA,220443,2420.7023,N,08158.7995,W,1,9,1.5,20,M,,M,,*58
06/22/2015	22:04:43.596	$GPGGA,220444,2420.7024,N,08158.7998,W,1,9,1.5,20,M,,M,,*55
06/22/2015	22:04:44.497	$GPGGA,220445,2420.7023,N,08158.7997,W,1,9,1.5,20,M,,M,,*5C
06/22/2015	22:04:45.606	$GPGGA,220446,2420.7022,N,08158.7998,W,1,9,1.5,20,M,,M,,*51
06/22/2015	22:04:46.586	$GPGGA,220447,2420.7024,N,08158.7999,W,1,9,1.5,20,M,,M,,*57
06/22/2015	22:04:47.486	$GPGGA,220448,2420.7023,N,08158.7999,W,1,9,1.5,20,M,,M,,*5F
06/22/2015	22:04:48.577	$GPGGA,220449,2420.7022,N,08158.7999,W,1,9,1.5,20,M,,M,,*5F
06/22/2015	22:04:49.576	$GPGGA,220450,2420.7024,N,08158.8000,W,1,9,1.5,20,M,,M,,*57
06/22/2015	22:04:50.576	$GPGGA,220451,2420.7023,N,08158.8000,W,1,9,1.5,20,M,,M,,*51
06/22/2015	22:04:51.626	$GPGGA,220452,2420.7024,N,08158.8000,W,1,9,1.5,20,M,,M,,*55
06/22/2015	22:04:52.566	$GPGGA,220453,2420.7023,N,08158.8002,W,1,9,1.5,19,M,,M,,*5B
06/22/2015	22:04:53.586	$GPGGA,220454,2420.7024,N,08158.8002,W,1,9,1.5,19,M,,M,,*5B
06/22/2015	22:04:54.556	$GPGGA,220455,2420.7023,N,08158.8003,W,1,9,1.5,19,M,,M,,*5C
06/22/2015	22:04:55.586	$GPGGA,220456,2420.7025,N,08158.8004,W,1,9,1.5,19,M,,M,,*5E
06/22/2015	22:04:56.556	$GPGGA,220457,2420.7023,N,08158.8004,W,1,9,1.5,19,M,,M,,*59
06/22/2015	22:04:57.566	$GPGGA,220458,2420.7024,N,08158.8006,W,1,9,1.5,19,M,,M,,*53
06/22/2015	22:04:58.546	$GPGGA,220459,2420.7023,N,08158.8006,W,1,9,1.5,19,M,,M,,*55
06/22/2015	22:04:59.597	$GPGGA,220500,2420.7024,N,08158.8006,W,1,9,1.5,19,M,,M,,*5F
06/22/2015	22:05:00.566	$GPGGA,220501,2420.7023,N,08158.8006,W,1,9,1.5,19,M,,M,,*59
06/22/2015	22:05:01.566	$GPGGA,220502,2420.7024,N,08158.8007,W,1,9,1.5,19,M,,M,,*5C
06/22/2015	22:05:02.556	$GPGGA,220503,2420.7025,N,08158.8009,W,1,9,1.5,19,M,,M,,*52
06/22/2015	22:05:03.576	$GPGGA,220504,2420.7025,N,08158.8009,W,1,9,1.5,19,M,,M,,*55
06/22/2015	22:05:04.536	$GPGGA,220505,2420.7025,N,08158.8010,W,1,9,1.5,19,M,,M,,*5C
06/22/2015	22:05:05.600	$GPGGA,220506,2420.7025,N,08158.8010,W,1,9,1.5,19,M,,M,,*5F
06/22/2015	22:05:06.547	$GPGGA,220507,2420.7025,N,08158.8010,W,1,9,1.5,19,M,,M,,*5E
06/22/2015	22:05:07.566	$GPGGA,220508,2420.7025,N,08158.8013,W,1,9,1.5,19,M,,M,,*52
06/22/2015	22:05:08.536	$GPGGA,220509,2420.7025,N,08158.8013,W,1,9,1.5,19,M,,M,,*53
06/22/2015	22:05:09.556	$GPGGA,220510,2420.7025,N,08158.8012,W,1,9,1.5,19,M,,M,,*5A
06/22/2015	22:05:10.537	$GPGGA,220511,2420.7025,N,08158.8013,W,1,9,1.5,19,M,,M,,*5A
06/22/2015	22:05:11.536	$GPGGA,220512,2420.7025,N,08158.8017,W,1,9,1.5,19,M,,M,,*5D
06/22/2015	22:05:12.536	$GPGGA,220513,2420.7025,N,08158.8015,W,1,9,1.5,19,M,,M,,*5E
06/22/2015	22:05:13.546	$GPGGA,220514,2420.7025,N,08158.8014,W,1,9,1.5,19,M,,M,,*58
06/22/2015	22:05:14.526	$GPGGA,220515,2420.7025,N,08158.8017,W,1,9,1.5,19,M,,M,,*5A
06/22/2015	22:05:15.546	$GPGGA,220516,2420.7025,N,08158.8018,W,1,9,1.5,19,M,,M,,*56
06/22/2015	22:05:16.516	$GPGGA,220517,2420.7025,N,08158.8018,W,1,9,1.5,19,M,,M,,*57
06/22/2015	22:05:17.526	$GPGGA,220518,2420.7025,N,08158.8016,W,1,9,1.5,19,M,,M,,*56
06/22/2015	22:05:18.526	$GPGGA,220519,2420.7025,N,08158.8017,W,1,9,1.5,19,M,,M,,*56
06/22/2015	22:05:19.546	$GPGGA,220520,2420.7025,N,08158.8020,W,1,9,1.5,19,M,,M,,*58
06/22/2015	22:05:20.536	$GPGGA,220521,2420.7025,N,08158.8019,W,1,9,1.5,19,M,,M,,*53
06/22/2015	22:05:21.536	$GPGGA,220522,2420.7025,N,08158.8018,W,1,9,1.5,19,M,,M,,*51
06/22/2015	22:05:22.513	$GPGGA,220523,2420.7025,N,08158.8020,W,1,9,1.5,19,M,,M,,*5B
06/22/2015	22:05:23.527	$GPGGA,220524,2420.7025,N,08158.8021,W,1,9,1.5,19,M,,M,,*5D
06/22/2015	22:05:24.505	$GPGGA,220525,2420.7025,N,08158.8021,W,1,9,1.5,19,M,,M,,*5C
06/22/2015	22:05:25.626	$GPGGA,220526,2420.7023,N,08158.8022,W,1,8,1.5,19,M,,M,,*5B
06/22/2015	22:05:26.526	$GPGGA,220527,2420.7024,N,08158.8024,W,1,8,1.5,19,M,,M,,*5B
06/22/2015	22:05:27.536	$GPGGA,220528,2420.7022,N,08158.8023,W,1,9,1.5,19,M,,M,,*54
06/22/2015	22:05:28.516	$GPGGA,220529,2420.7023,N,08158.8024,W,1,9,1.5,19,M,,M,,*53
06/22/2015	22:05:29.612	$GPGGA,220530,2420.7024,N,08158.8027,W,1,9,1.5,19,M,,M,,*5F
06/22/2015	22:05:30.501	$GPGGA,220531,2420.7025,N,08158.8025,W,1,9,1.5,19,M,,M,,*5D
06/22/2015	22:05:31.536	$GPGGA,220532,2420.7025,N,08158.8024,W,1,9,1.7,19,M,,M,,*5D
06/22/2015	22:05:32.509	$GPGGA,220533,2420.7027,N,08158.8025,W,1,9,1.7,19,M,,M,,*5F
06/22/2015	22:05:33.576	$GPGGA,220534,2420.7028,N,08158.8024,W,1,8,1.7,19,M,,M,,*57
06/22/2015	22:05:34.576	$GPGGA,220535,2420.7027,N,08158.8027,W,1,8,1.7,19,M,,M,,*5A
06/22/2015	22:05:35.614	$GPGGA,220536,2420.7029,N,08158.8026,W,1,9,1.7,19,M,,M,,*57
06/22/2015	22:05:36.512	$GPGGA,220537,2420.7029,N,08158.8027,W,1,9,1.8,19,M,,M,,*58
06/22/2015	22:05:37.596	$GPGGA,220538,2420.7031,N,08158.8026,W,1,7,1.7,19,M,,M,,*5E
06/22/2015	22:05:38.566	$GPGGA,220539,2420.7030,N,08158.8027,W,1,7,1.7,19,M,,M,,*5F
06/22/2015	22:05:39.617	$GPGGA,220540,2420.7032,N,08158.8028,W,1,8,1.7,19,M,,M,,*53
06/22/2015	22:05:40.577	$GPGGA,220541,2420.7032,N,08158.8028,W,1,8,1.5,19,M,,M,,*50
06/22/2015	22:05:41.557	$GPGGA,220542,2420.7031,N,08158.8028,W,1,7,1.8,19,M,,M,,*52
06/22/2015	22:05:42.556	$GPGGA,220543,2420.7032,N,08158.8028,W,1,7,1.8,19,M,,M,,*50
06/22/2015	22:05:43.603	$GPGGA,220544,2420.7036,N,08158.8029,W,1,7,1.8,19,M,,M,,*52
06/22/2015	22:05:44.556	$GPGGA,220545,2420.7036,N,08158.8029,W,1,7,1.8,19,M,,M,,*53
06/22/2015	22:05:45.586	$GPGGA,220546,2420.7036,N,08158.8028,W,1,7,1.8,19,M,,M,,*51
06/22/2015	22:05:46.556	$GPGGA,220547,2420.7036,N,08158.8028,W,1,7,1.8,19,M,,M,,*50
06/22/2015	22:05:47.566	$GPGGA,220548,2420.7036,N,08158.8029,W,1,7,1.7,18,M,,M,,*50
06/22/2015	22:05:48.556	$GPGGA,220549,2420.7036,N,08158.8029,W,1,7,1.7,18,M,,M,,*51
06/22/2015	22:05:49.566	$GPGGA,220550,2420.7036,N,08158.8028,W,1,8,1.8,18,M,,M,,*58
06/22/2015	22:05:50.556	$GPGGA,220551,2420.7036,N,08158.8028,W,1,8,1.8,18,M,,M,,*59
06/22/2015	22:05:51.596	$GPGGA,220552,2420.7039,N,08158.8031,W,1,7,1.8,18,M,,M,,*52
06/22/2015	22:05:52.556	$GPGGA,220553,2420.7039,N,08158.8031,W,1,7,1.7,18,M,,M,,*5C
06/22/2015	22:05:53.536	$GPGGA,220554,2420.7040,N,08158.8031,W,1,8,1.7,18,M,,M,,*5A
06/22/2015	22:05:54.816	$GPGGA,220555,2420.7042,N,08158.8031,W,1,8,1.7,18,M,,M,,*59
06/22/2015	22:05:55.546	$GPGGA,220556,2420.7043,N,08158.8032,W,1,8,1.7,18,M,,M,,*58
06/22/2015	22:05:56.536	$GPGGA,220557,2420.7043,N,08158.8035,W,1,8,1.7,18,M,,M,,*5E
06/22/2015	22:05:57.556	$GPGGA,220558,2420.7045,N,08158.8033,W,1,8,1.7,18,M,,M,,*51
06/22/2015	22:05:58.537	$GPGGA,220559,2420.7044,N,08158.8033,W,1,8,1.7,18,M,,M,,*51
06/22/2015	22:05:59.566	$GPGGA,220600,2420.7045,N,08158.8035,W,1,8,1.7,18,M,,M,,*59
06/22/2015	22:06:00.526	$GPGGA,220601,2420.7044,N,08158.8034,W,1,8,1.7,18,M,,M,,*58
06/22/2015	22:06:01.546	$GPGGA,220602,2420.7046,N,08158.8035,W,1,7,1.8,18,M,,M,,*58
06/22/2015	22:06:02.526	$GPGGA,220603,2420.7047,N,08158.8035,W,1,7,1.7,18,M,,M,,*57
06/22/2015	22:06:03.546	$GPGGA,220604,2420.7047,N,08158.8036,W,1,8,1.7,18,M,,M,,*5C
06/22/2015	22:06:04.526	$GPGGA,220605,2420.7045,N,08158.8038,W,1,8,1.7,18,M,,M,,*51
06/22/2015	22:06:05.516	$GPGGA,220606,2420.7047,N,08158.8037,W,1,8,1.7,18,M,,M,,*5F
06/22/2015	22:06:06.507	$GPGGA,220607,2420.7045,N,08158.8038,W,1,8,1.7,18,M,,M,,*53
06/22/2015	22:06:07.516	$GPGGA,220608,2420.7044,N,08158.8038,W,1,8,1.7,18,M,,M,,*5D
06/22/2015	22:06:08.616	$GPGGA,220609,2420.7045,N,08158.8038,W,1,8,1.8,18,M,,M,,*52
06/22/2015	22:06:09.506	$GPGGA,220610,2420.7043,N,08158.8038,W,1,8,1.7,18,M,,M,,*53
06/22/2015	22:06:10.508	$GPGGA,220611,2420.7043,N,08158.8037,W,1,8,1.8,18,M,,M,,*52
06/22/2015	22:06:11.626	$GPGGA,220612,2420.7043,N,08158.8038,W,1,8,1.7,18,M,,M,,*51
06/22/2015	22:06:12.509	$GPGGA,220613,2420.7043,N,08158.8039,W,1,8,1.7,18,M,,M,,*51
06/22/2015	22:06:13.516	$GPGGA,220614,2420.7041,N,08158.8040,W,1,7,1.8,18,M,,M,,*5A
06/22/2015	22:06:14.516	$GPGGA,220615,2420.7040,N,08158.8039,W,1,7,1.8,18,M,,M,,*54
06/22/2015	22:06:15.537	$GPGGA,220616,2420.7040,N,08158.8040,W,1,7,1.8,18,M,,M,,*59
06/22/2015	22:06:16.488	$GPGGA,220617,2420.7040,N,08158.8042,W,1,7,1.7,18,M,,M,,*55
06/22/2015	22:06:17.486	$GPGGA,220618,2420.7039,N,08158.8041,W,1,7,1.8,18,M,,M,,*58
06/22/2015	22:06:18.496	$GPGGA,220619,2420.7039,N,08158.8042,W,1,7,1.7,18,M,,M,,*55
06/22/2015	22:06:19.596	$GPGGA,220620,2420.7039,N,08158.8042,W,1,8,1.7,18,M,,M,,*50
06/22/2015	22:06:20.476	$GPGGA,220621,2420.7038,N,08158.8043,W,1,8,1.7,18,M,,M,,*51
06/22/2015	22:06:21.497	$GPGGA,220622,2420.7039,N,08158.8043,W,1,8,1.7,18,M,,M,,*53
06/22/2015	22:06:22.505	$GPGGA,220623,2420.7037,N,08158.8045,W,1,8,1.7,18,M,,M,,*5A
06/22/2015	22:06:23.587	$GPGGA,220624,2420.7039,N,08158.8046,W,1,8,1.7,18,M,,M,,*50
06/22/2015	22:06:24.566	$GPGGA,220625,2420.7038,N,08158.8045,W,1,8,1.7,18,M,,M,,*53
06/22/2015	22:06:25.566	$GPGGA,220626,2420.7039,N,08158.8046,W,1,8,1.7,18,M,,M,,*52
06/22/2015	22:06:26.476	$GPGGA,220627,2420.7038,N,08158.8047,W,1,8,1.7,18,M,,M,,*53
06/22/2015	22:06:27.606	$GPGGA,220628,2420.7039,N,08158.8049,W,1,8,1.7,18,M,,M,,*53
06/22/2015	22:06:28.566	$GPGGA,220629,2420.7039,N,08158.8049,W,1,8,1.7,18,M,,M,,*52
06/22/2015	22:06:29.566	$GPGGA,220630,2420.7038,N,08158.8049,W,1,8,1.7,18,M,,M,,*5B
06/22/2015	22:06:30.566	$GPGGA,220631,2420.7039,N,08158.8051,W,1,8,1.7,18,M,,M,,*52
06/22/2015	22:06:31.597	$GPGGA,220632,2420.7039,N,08158.8053,W,1,8,1.7,18,M,,M,,*53
06/22/2015	22:06:32.556	$GPGGA,220633,2420.7039,N,08158.8052,W,1,8,1.7,18,M,,M,,*53
06/22/2015	22:06:33.547	$GPGGA,220634,2420.7039,N,08158.8054,W,1,8,1.7,18,M,,M,,*52
06/22/2015	22:06:34.556	$GPGGA,220635,2420.7039,N,08158.8056,W,1,8,1.7,18,M,,M,,*51
06/22/2015	22:06:35.596	$GPGGA,220636,2420.7039,N,08158.8055,W,1,8,1.7,18,M,,M,,*51
06/22/2015	22:06:36.557	$GPGGA,220637,2420.7039,N,08158.8056,W,1,8,1.7,18,M,,M,,*53
06/22/2015	22:06:37.556	$GPGGA,220638,2420.7039,N,08158.8058,W,1,8,1.7,18,M,,M,,*52
06/22/2015	22:06:38.546	$GPGGA,220639,2420.7039,N,08158.8060,W,1,8,1.7,18,M,,M,,*58
06/22/2015	22:06:39.576	$GPGGA,220640,2420.7039,N,08158.8059,W,1,8,1.7,18,M,,M,,*5C
06/22/2015	22:06:40.536	$GPGGA,220641,2420.7039,N,08158.8060,W,1,8,1.7,18,M,,M,,*57
06/22/2015	22:06:41.566	$GPGGA,220642,2420.7038,N,08158.8060,W,1,8,1.7,18,M,,M,,*55
06/22/2015	22:06:42.536	$GPGGA,220643,2420.7039,N,08158.8060,W,1,8,1.7,18,M,,M,,*55
06/22/2015	22:06:43.566	$GPGGA,220644,2420.7038,N,08158.8063,W,1,8,1.7,18,M,,M,,*50
06/22/2015	22:06:44.526	$GPGGA,220645,2420.7039,N,08158.8064,W,1,8,1.7,18,M,,M,,*57
06/22/2015	22:06:45.526	$GPGGA,220646,2420.7038,N,08158.8062,W,1,8,1.7,18,M,,M,,*53
06/22/2015	22:06:46.536	$GPGGA,220647,2420.7037,N,08158.8064,W,1,8,1.7,18,M,,M,,*5B
06/22/2015	22:06:47.566	$GPGGA,220648,2420.7036,N,08158.8064,W,1,7,1.8,18,M,,M,,*55
06/22/2015	22:06:48.536	$GPGGA,220649,2420.7036,N,08158.8064,W,1,7,1.7,18,M,,M,,*5B
06/22/2015	22:06:49.556	$GPGGA,220650,2420.7034,N,08158.8064,W,1,8,1.7,18,M,,M,,*5E
06/22/2015	22:06:50.527	$GPGGA,220651,2420.7035,N,08158.8065,W,1,8,1.7,18,M,,M,,*5F
06/22/2015	22:06:51.557	$GPGGA,220652,2420.7033,N,08158.8067,W,1,8,1.7,18,M,,M,,*58
06/22/2015	22:06:52.516	$GPGGA,220653,2420.7035,N,08158.8067,W,1,8,1.8,18,M,,M,,*50
06/22/2015	22:06:53.546	$GPGGA,220654,2420.7036,N,08158.8069,W,1,8,1.7,18,M,,M,,*55
06/22/2015	22:06:54.506	$GPGGA,220655,2420.7034,N,08158.8071,W,1,8,1.7,18,M,,M,,*5F
06/22/2015	22:06:55.516	$GPGGA,220656,2420.7036,N,08158.8070,W,1,7,1.8,18,M,,M,,*5F
06/22/2015	22:06:56.516	$GPGGA,220657,2420.7036,N,08158.8071,W,1,7,1.7,18,M,,M,,*50
06/22/2015	22:06:57.616	$GPGGA,220658,2420.7036,N,08158.8074,W,1,8,1.7,18,M,,M,,*55
06/22/2015	22:06:58.496	$GPGGA,220659,2420.7034,N,08158.8074,W,1,8,1.7,18,M,,M,,*56
06/22/2015	22:06:59.546	$GPGGA,220700,2420.7033,N,08158.8073,W,1,8,1.7,18,M,,M,,*5B
06/22/2015	22:07:00.616	$GPGGA,220701,2420.7034,N,08158.8074,W,1,8,1.8,18,M,,M,,*55
06/22/2015	22:07:01.516	$GPGGA,220702,2420.7033,N,08158.8075,W,1,8,1.7,18,M,,M,,*5F
06/22/2015	22:07:02.586	$GPGGA,220703,2420.7034,N,08158.8076,W,1,8,1.7,18,M,,M,,*5A
06/22/2015	22:07:03.636	$GPGGA,220704,2420.7033,N,08158.8078,W,1,8,1.7,18,M,,M,,*54
06/22/2015	22:07:04.507	$GPGGA,220705,2420.7035,N,08158.8078,W,1,8,1.7,18,M,,M,,*53
06/22/2015	22:07:05.506	$GPGGA,220706,2420.7033,N,08158.8078,W,1,8,1.7,18,M,,M,,*56
06/22/2015	22:07:06.496	$GPGGA,220707,2420.7035,N,08158.8078,W,1,8,1.7,18,M,,M,,*51
06/22/2015	22:07:07.596	$GPGGA,220708,2420.7033,N,08158.8079,W,1,8,1.7,18,M,,M,,*59
06/22/2015	22:07:08.577	$GPGGA,220709,2420.7031,N,08158.8079,W,1,8,1.8,18,M,,M,,*55
06/22/2015	22:07:09.487	$GPGGA,220710,2420.7030,N,08158.8078,W,1,8,1.7,18,M,,M,,*52
06/22/2015	22:07:10.497	$GPGGA,220711,2420.7031,N,08158.8079,W,1,8,1.7,18,M,,M,,*53
06/22/2015	22:07:11.499	$GPGGA,220712,2420.7030,N,08158.8082,W,1,8,1.7,18,M,,M,,*55
06/22/2015	22:07:12.566	$GPGGA,220713,2420.7031,N,08158.8082,W,1,8,1.7,18,M,,M,,*55
06/22/2015	22:07:13.476	$GPGGA,220714,2420.7030,N,08158.8082,W,1,8,1.7,18,M,,M,,*53
06/22/2015	22:07:14.566	$GPGGA,220715,2420.7031,N,08158.8082,W,1,8,1.7,18,M,,M,,*53
06/22/2015	22:07:15.586	$GPGGA,220716,2420.7030,N,08158.8083,W,1,8,1.7,18,M,,M,,*50
06/22/2015	22:07:16.566	$GPGGA,220717,2420.7032,N,08158.8085,W,1,8,1.7,18,M,,M,,*55
06/22/2015	22:07:17.566	$GPGGA,220718,2420.7031,N,08158.8085,W,1,8,1.7,18,M,,M,,*59
06/22/2015	22:07:18.566	$GPGGA,220719,2420.7032,N,08158.8084,W,1,8,1.7,18,M,,M,,*5A
06/22/2015	22:07:19.576	$GPGGA,220720,2420.7031,N,08158.8085,W,1,8,1.7,18,M,,M,,*52
06/22/2015	22:07:20.626	$GPGGA,220721,2420.7032,N,08158.8087,W,1,8,1.7,18,M,,M,,*52
06/22/2015	22:07:21.556	$GPGGA,220722,2420.7031,N,08158.8087,W,1,7,1.8,18,M,,M,,*52
06/22/2015	22:07:22.556	$GPGGA,220723,2420.7034,N,08158.8089,W,1,7,1.7,18,M,,M,,*57
06/22/2015	22:07:23.576	$GPGGA,220724,2420.7035,N,08158.8092,W,1,8,1.7,18,M,,M,,*54
06/22/2015	22:07:24.546	$GPGGA,220725,2420.7034,N,08158.8092,W,1,8,1.7,18,M,,M,,*54
06/22/2015	22:07:25.537	$GPGGA,220726,2420.7036,N,08158.8093,W,1,8,1.7,18,M,,M,,*54
06/22/2015	22:07:26.547	$GPGGA,220727,2420.7036,N,08158.8096,W,1,8,1.7,18,M,,M,,*50
06/22/2015	22:07:27.576	$GPGGA,220728,2420.7036,N,08158.8095,W,1,8,1.7,18,M,,M,,*5C
06/22/2015	22:07:28.546	$GPGGA,220729,2420.7036,N,08158.8096,W,1,8,1.7,18,M,,M,,*5E
06/22/2015	22:07:29.996	$GPGGA,220730,2420.7036,N,08158.8097,W,1,8,1.7,18,M,,M,,*57
06/22/2015	22:07:30.536	$GPGGA,220731,2420.7038,N,08158.8100,W,1,8,1.7,18,M,,M,,*57
06/22/2015	22:07:31.546	$GPGGA,220732,2420.7036,N,08158.8098,W,1,8,1.7,18,M,,M,,*5A
06/22/2015	22:07:32.536	$GPGGA,220733,2420.7038,N,08158.8100,W,1,8,1.7,18,M,,M,,*55
06/22/2015	22:07:33.526	$GPGGA,220734,2420.7037,N,08158.8101,W,1,8,1.7,18,M,,M,,*5C
06/22/2015	22:07:34.536	$GPGGA,220735,2420.7039,N,08158.8103,W,1,8,1.7,18,M,,M,,*51
06/22/2015	22:07:35.566	$GPGGA,220736,2420.7038,N,08158.8102,W,1,8,1.7,18,M,,M,,*52
06/22/2015	22:07:36.526	$GPGGA,220737,2420.7037,N,08158.8103,W,1,8,1.7,18,M,,M,,*5D
06/22/2015	22:07:37.536	$GPGGA,220738,2420.7038,N,08158.8104,W,1,8,1.7,18,M,,M,,*5A
06/22/2015	22:07:38.526	$GPGGA,220739,2420.7036,N,08158.8104,W,1,8,1.7,18,M,,M,,*55
06/22/2015	22:07:39.566	$GPGGA,220740,2420.7036,N,08158.8105,W,1,7,1.8,18,M,,M,,*5A
06/22/2015	22:07:40.526	$GPGGA,220741,2420.7038,N,08158.8107,W,1,7,1.7,18,M,,M,,*58
06/22/2015	22:07:41.546	$GPGGA,220742,2420.7036,N,08158.8106,W,1,8,1.7,18,M,,M,,*5B
06/22/2015	22:07:42.546	$GPGGA,220743,2420.7036,N,08158.8107,W,1,8,1.8,18,M,,M,,*54
06/22/2015	22:07:43.667	$GPGGA,220744,2420.7036,N,08158.8106,W,1,8,1.7,18,M,,M,,*5D
06/22/2015	22:07:44.508	$GPGGA,220745,2420.7036,N,08158.8107,W,1,8,1.7,18,M,,M,,*5D
06/22/2015	22:07:45.526	$GPGGA,220746,2420.7034,N,08158.8107,W,1,8,1.7,18,M,,M,,*5C
06/22/2015	22:07:46.498	$GPGGA,220747,2420.7036,N,08158.8110,W,1,8,1.8,18,M,,M,,*56
06/22/2015	22:07:47.526	$GPGGA,220748,2420.7036,N,08158.8111,W,1,8,1.7,18,M,,M,,*57
06/22/2015	22:07:48.500	$GPGGA,220749,2420.7036,N,08158.8111,W,1,8,1.7,18,M,,M,,*56
06/22/2015	22:07:49.516	$GPGGA,220750,2420.7038,N,08158.8112,W,1,8,1.7,18,M,,M,,*53
06/22/2015	22:07:50.946	$GPGGA,220751,2420.7037,N,08158.8112,W,1,8,1.7,18,M,,M,,*5D
06/22/2015	22:07:51.512	$GPGGA,220752,2420.7038,N,08158.8114,W,1,8,1.7,18,M,,M,,*57
06/22/2015	22:07:52.666	$GPGGA,220753,2420.7037,N,08158.8115,W,1,8,1.7,18,M,,M,,*58
06/22/2015	22:07:53.616	$GPGGA,220754,2420.7038,N,08158.8114,W,1,8,1.7,18,M,,M,,*51
06/22/2015	22:07:54.507	$GPGGA,220755,2420.7037,N,08158.8115,W,1,8,1.7,18,M,,M,,*5E
06/22/2015	22:07:55.497	$GPGGA,220756,2420.7038,N,08158.8116,W,1,8,1.7,18,M,,M,,*51
06/22/2015	22:07:56.646	$GPGGA,220757,2420.7037,N,08158.8118,W,1,8,1.7,18,M,,M,,*51
06/22/2015	22:07:57.476	$GPGGA,220758,2420.7038,N,08158.8117,W,1,8,1.7,18,M,,M,,*5E
06/22/2015	22:07:58.646	$GPGGA,220759,2420.7037,N,08158.8118,W,1,8,1.7,18,M,,M,,*5F
06/22/2015	22:07:59.656	$GPGGA,220800,2420.7038,N,08158.8118,W,1,8,1.7,18,M,,M,,*53
06/22/2015	22:08:00.487	$GPGGA,220801,2420.7037,N,08158.8119,W,1,8,1.7,18,M,,M,,*5C
06/22/2015	22:08:01.477	$GPGGA,220802,2420.7039,N,08158.8119,W,1,8,1.7,18,M,,M,,*51
06/22/2015	22:08:02.646	$GPGGA,220803,2420.7037,N,08158.8121,W,1,8,1.7,18,M,,M,,*55
06/22/2015	22:08:03.656	$GPGGA,220804,2420.7038,N,08158.8121,W,1,8,1.7,18,M,,M,,*5D
06/22/2015	22:08:04.566	$GPGGA,220805,2420.7036,N,08158.8119,W,1,8,1.7,18,M,,M,,*59
06/22/2015	22:08:05.606	$GPGGA,220806,2420.7036,N,08158.8119,W,1,7,1.8,18,M,,M,,*5A
06/22/2015	22:08:06.636	$GPGGA,220807,2420.7039,N,08158.8121,W,1,7,1.8,18,M,,M,,*5F
06/22/2015	22:08:07.646	$GPGGA,220808,2420.7039,N,08158.8122,W,1,8,1.7,18,M,,M,,*53
06/22/2015	22:08:08.626	$GPGGA,220809,2420.7038,N,08158.8122,W,1,8,1.7,18,M,,M,,*53
06/22/2015	22:08:09.616	$GPGGA,220810,2420.7037,N,08158.8122,W,1,7,1.8,18,M,,M,,*54
06/22/2015	22:08:10.626	$GPGGA,220811,2420.7038,N,08158.8121,W,1,7,1.8,18,M,,M,,*59
06/22/2015	22:08:11.616	$GPGGA,220812,2420.7036,N,08158.8122,W,1,7,1.8,18,M,,M,,*57
06/22/2015	22:08:12.606	$GPGGA,220813,2420.7039,N,08158.8125,W,1,7,1.7,17,M,,M,,*5E
06/22/2015	22:08:13.576	$GPGGA,220814,2420.7037,N,08158.8123,W,1,8,1.7,17,M,,M,,*5E
06/22/2015	22:08:14.589	$GPGGA,220815,2420.7038,N,08158.8123,W,1,8,1.7,17,M,,M,,*50
06/22/2015	22:08:15.626	$GPGGA,220816,2420.7037,N,08158.8125,W,1,8,1.7,17,M,,M,,*5A
06/22/2015	22:08:16.596	$GPGGA,220817,2420.7039,N,08158.8126,W,1,8,1.7,17,M,,M,,*56
06/22/2015	22:08:17.587	$GPGGA,220818,2420.7038,N,08158.8128,W,1,8,1.7,17,M,,M,,*56
06/22/2015	22:08:18.576	$GPGGA,220819,2420.7039,N,08158.8127,W,1,8,1.7,17,M,,M,,*59
06/22/2015	22:08:19.575	$GPGGA,220820,2420.7039,N,08158.8129,W,1,8,1.7,17,M,,M,,*5D
06/22/2015	22:08:20.588	$GPGGA,220821,2420.7040,N,08158.8129,W,1,8,1.7,17,M,,M,,*52
06/22/2015	22:08:21.555	$GPGGA,220822,2420.7040,N,08158.8130,W,1,8,1.7,17,M,,M,,*59
06/22/2015	22:08:22.575	$GPGGA,220823,2420.7040,N,08158.8130,W,1,8,1.7,17,M,,M,,*58
06/22/2015	22:08:23.575	$GPGGA,220824,2420.7040,N,08158.8130,W,1,8,1.7,17,M,,M,,*5F
06/22/2015	22:08:24.565	$GPGGA,220825,2420.7040,N,08158.8132,W,1,8,1.7,17,M,,M,,*5C
06/22/2015	22:08:25.597	$GPGGA,220826,2420.7040,N,08158.8132,W,1,8,1.7,17,M,,M,,*5F
06/22/2015	22:08:26.505	$GPGGA,220827,2420.7040,N,08158.8133,W,1,8,1.7,17,M,,M,,*5F
06/22/2015	22:08:27.515	$GPGGA,220828,2420.7040,N,08158.8132,W,1,8,1.7,17,M,,M,,*51
06/22/2015	22:08:28.576	$GPGGA,220829,2420.7040,N,08158.8133,W,1,8,1.7,17,M,,M,,*51
06/22/2015	22:08:29.502	$GPGGA,220830,2420.7042,N,08158.8134,W,1,8,1.7,17,M,,M,,*5C
06/22/2015	22:08:30.566	$GPGGA,220831,2420.7041,N,08158.8136,W,1,8,1.7,17,M,,M,,*5C
06/22/2015	22:08:31.598	$GPGGA,220832,2420.7040,N,08158.8134,W,1,8,1.7,17,M,,M,,*5C
06/22/2015	22:08:32.498	$GPGGA,220833,2420.7042,N,08158.8136,W,1,8,1.7,17,M,,M,,*5D
06/22/2015	22:08:33.526	$GPGGA,220834,2420.7041,N,08158.8136,W,1,8,1.7,17,M,,M,,*59
06/22/2015	22:08:34.556	$GPGGA,220835,2420.7042,N,08158.8136,W,1,8,1.7,17,M,,M,,*5B
06/22/2015	22:08:35.616	$GPGGA,220836,2420.7040,N,08158.8139,W,1,8,1.7,17,M,,M,,*55
06/22/2015	22:08:36.556	$GPGGA,220837,2420.7040,N,08158.8138,W,1,8,1.7,17,M,,M,,*55
06/22/2015	22:08:37.615	$GPGGA,220838,2420.7040,N,08158.8139,W,1,8,1.7,17,M,,M,,*5B
06/22/2015	22:08:38.605	$GPGGA,220839,2420.7040,N,08158.8140,W,1,8,1.7,17,M,,M,,*54
06/22/2015	22:08:39.555	$GPGGA,220840,2420.7042,N,08158.8140,W,1,8,1.7,17,M,,M,,*58
06/22/2015	22:08:40.475	$GPGGA,220841,2420.7041,N,08158.8141,W,1,8,1.7,17,M,,M,,*5B
06/22/2015	22:08:41.525	$GPGGA,220842,2420.7040,N,08158.8143,W,1,8,1.7,17,M,,M,,*5B
06/22/2015	22:08:42.545	$GPGGA,220843,2420.7040,N,08158.8143,W,1,8,1.7,17,M,,M,,*5A
06/22/2015	22:08:43.485	$GPGGA,220844,2420.7042,N,08158.8144,W,1,8,1.7,17,M,,M,,*58
06/22/2015	22:08:44.575	$GPGGA,220845,2420.7041,N,08158.8145,W,1,8,1.7,17,M,,M,,*5B
06/22/2015	22:08:45.606	$GPGGA,220846,2420.7042,N,08158.8145,W,1,8,1.7,17,M,,M,,*5B
06/22/2015	22:08:46.536	$GPGGA,220847,2420.7041,N,08158.8147,W,1,8,1.7,17,M,,M,,*5B
06/22/2015	22:08:47.576	$GPGGA,220848,2420.7042,N,08158.8146,W,1,8,1.7,17,M,,M,,*56
06/22/2015	22:08:48.566	$GPGGA,220849,2420.7040,N,08158.8147,W,1,8,1.7,17,M,,M,,*54
06/22/2015	22:08:49.586	$GPGGA,220850,2420.7039,N,08158.8150,W,1,8,1.5,17,M,,M,,*56
06/22/2015	22:08:50.556	$GPGGA,220851,2420.7037,N,08158.8152,W,1,8,1.5,17,M,,M,,*5B
06/22/2015	22:08:51.576	$GPGGA,220852,2420.7036,N,08158.8154,W,1,9,1.5,17,M,,M,,*5E
06/22/2015	22:08:52.566	$GPGGA,220853,2420.7036,N,08158.8155,W,1,9,1.5,17,M,,M,,*5E
06/22/2015	22:08:53.546	$GPGGA,220854,2420.7036,N,08158.8158,W,1,9,1.5,17,M,,M,,*54
06/22/2015	22:08:54.575	$GPGGA,220855,2420.7034,N,08158.8158,W,1,9,1.5,17,M,,M,,*57
06/22/2015	22:08:55.615	$GPGGA,220856,2420.7035,N,08158.8159,W,1,9,1.5,17,M,,M,,*54
06/22/2015	22:08:56.575	$GPGGA,220857,2420.7034,N,08158.8161,W,1,9,1.5,18,M,,M,,*50
06/22/2015	22:08:57.575	$GPGGA,220858,2420.7033,N,08158.8162,W,1,9,1.5,18,M,,M,,*5B
06/22/2015	22:08:58.555	$GPGGA,220859,2420.7034,N,08158.8162,W,1,9,1.5,18,M,,M,,*5D
06/22/2015	22:08:59.615	$GPGGA,220900,2420.7032,N,08158.8165,W,1,9,1.5,18,M,,M,,*51
06/22/2015	22:09:00.565	$GPGGA,220901,2420.7032,N,08158.8166,W,1,9,1.5,18,M,,M,,*53
06/22/2015	22:09:01.545	$GPGGA,220902,2420.7032,N,08158.8168,W,1,9,1.5,18,M,,M,,*5E
06/22/2015	22:09:02.545	$GPGGA,220903,2420.7031,N,08158.8167,W,1,9,1.5,19,M,,M,,*52
06/22/2015	22:09:03.576	$GPGGA,220904,2420.7032,N,08158.8169,W,1,9,1.5,19,M,,M,,*58
06/22/2015	22:09:04.546	$GPGGA,220905,2420.7032,N,08158.8170,W,1,9,1.5,19,M,,M,,*51
06/22/2015	22:09:05.556	$GPGGA,220906,2420.7032,N,08158.8172,W,1,9,1.5,19,M,,M,,*50
06/22/2015	22:09:06.536	$GPGGA,220907,2420.7031,N,08158.8171,W,1,9,1.5,19,M,,M,,*51
06/22/2015	22:09:07.566	$GPGGA,220908,2420.7032,N,08158.8172,W,1,9,1.5,20,M,,M,,*54
06/22/2015	22:09:09.002	$GPGGA,220909,2420.7032,N,08158.8173,W,1,9,1.5,20,M,,M,,*54
06/22/2015	22:09:09.556	$GPGGA,220910,2420.7031,N,08158.8175,W,1,9,1.5,20,M,,M,,*59
06/22/2015	22:09:10.526	$GPGGA,220911,2420.7031,N,08158.8175,W,1,9,1.5,20,M,,M,,*58
06/22/2015	22:09:11.536	$GPGGA,220912,2420.7032,N,08158.8176,W,1,9,1.5,20,M,,M,,*5B
06/22/2015	22:09:12.545	$GPGGA,220913,2420.7031,N,08158.8177,W,1,9,1.5,20,M,,M,,*58
06/22/2015	22:09:13.535	$GPGGA,220914,2420.7032,N,08158.8177,W,1,9,1.5,21,M,,M,,*5D
06/22/2015	22:09:14.545	$GPGGA,220915,2420.7031,N,08158.8179,W,1,9,1.5,21,M,,M,,*51
06/22/2015	22:09:15.565	$GPGGA,220916,2420.7032,N,08158.8178,W,1,9,1.5,21,M,,M,,*50
06/22/2015	22:09:16.525	$GPGGA,220917,2420.7032,N,08158.8178,W,1,9,1.5,21,M,,M,,*51
06/22/2015	22:09:17.525	$GPGGA,220918,2420.7031,N,08158.8175,W,1,9,1.5,21,M,,M,,*50
06/22/2015	22:09:18.515	$GPGGA,220919,2420.7029,N,08158.8176,W,1,9,1.8,21,M,,M,,*56
06/22/2015	22:09:19.955	$GPGGA,220920,2420.7029,N,08158.8174,W,1,9,1.5,22,M,,M,,*50
06/22/2015	22:09:20.556	$GPGGA,220921,2420.7027,N,08158.8172,W,1,9,1.5,22,M,,M,,*59
06/22/2015	22:09:21.616	$GPGGA,220922,2420.7029,N,08158.8171,W,1,9,1.5,22,M,,M,,*57
06/22/2015	22:09:22.616	$GPGGA,220923,2420.7029,N,08158.8170,W,1,9,1.7,22,M,,M,,*55
06/22/2015	22:09:23.516	$GPGGA,220924,2420.7031,N,08158.8170,W,1,8,1.7,22,M,,M,,*5A
06/22/2015	22:09:24.536	$GPGGA,220925,2420.7031,N,08158.8170,W,1,8,1.7,22,M,,M,,*5B
06/22/2015	22:09:25.606	$GPGGA,220926,2420.7031,N,08158.8167,W,1,8,1.7,22,M,,M,,*5E
06/22/2015	22:09:26.516	$GPGGA,220927,2420.7031,N,08158.8167,W,1,8,1.7,22,M,,M,,*5F
06/22/2015	22:09:27.596	$GPGGA,220928,2420.7032,N,08158.8168,W,1,8,1.7,22,M,,M,,*5C
06/22/2015	22:09:28.526	$GPGGA,220929,2420.7032,N,08158.8168,W,1,8,1.7,22,M,,M,,*5D
06/22/2015	22:09:29.475	$GPGGA,220930,2420.7034,N,08158.8165,W,1,8,1.7,22,M,,M,,*5E
06/22/2015	22:09:30.575	$GPGGA,220931,2420.7035,N,08158.8166,W,1,8,1.7,22,M,,M,,*5D
06/22/2015	22:09:31.545	$GPGGA,220932,2420.7034,N,08158.8166,W,1,8,1.7,22,M,,M,,*5F
06/22/2015	22:09:33.515	$GPGGA,220934,2420.7036,N,08158.8166,W,1,8,1.7,22,M,,M,,*5B
06/22/2015	22:09:34.565	$GPGGA,220935,2420.7036,N,08158.8166,W,1,8,1.7,22,M,,M,,*5A
06/22/2015	22:09:35.605	$GPGGA,220936,2420.7036,N,08158.8165,W,1,8,1.7,22,M,,M,,*5A
06/22/2015	22:09:36.499	$GPGGA,220937,2420.7036,N,08158.8165,W,1,8,1.7,22,M,,M,,*5B
06/22/2015	22:09:37.555	$GPGGA,220938,2420.7036,N,08158.8168,W,1,8,1.7,22,M,,M,,*59
06/22/2015	22:09:38.556	$GPGGA,220939,2420.7036,N,08158.8167,W,1,8,1.7,22,M,,M,,*57
06/22/2015	22:09:39.606	$GPGGA,220940,2420.7036,N,08158.8166,W,1,8,1.7,22,M,,M,,*58
06/22/2015	22:09:40.556	$GPGGA,220941,2420.7036,N,08158.8166,W,1,8,1.7,22,M,,M,,*59
06/22/2015	22:09:41.576	$GPGGA,220942,2420.7036,N,08158.8168,W,1,8,1.7,22,M,,M,,*54
06/22/2015	22:09:42.546	$GPGGA,220943,2420.7036,N,08158.8168,W,1,8,1.7,22,M,,M,,*55
06/22/2015	22:09:43.598	$GPGGA,220944,2420.7036,N,08158.8168,W,1,8,1.7,22,M,,M,,*52
06/22/2015	22:09:44.556	$GPGGA,220945,2420.7036,N,08158.8168,W,1,8,1.7,21,M,,M,,*50
06/22/2015	22:09:45.546	$GPGGA,220946,2420.7036,N,08158.8169,W,1,8,1.7,21,M,,M,,*52
06/22/2015	22:09:46.566	$GPGGA,220947,2420.7036,N,08158.8170,W,1,8,1.7,21,M,,M,,*5B
06/22/2015	22:09:47.575	$GPGGA,220948,2420.7036,N,08158.8170,W,1,8,1.7,21,M,,M,,*54
06/22/2015	22:09:48.545	$GPGGA,220949,2420.7038,N,08158.8172,W,1,8,1.7,21,M,,M,,*59
06/22/2015	22:09:49.555	$GPGGA,220950,2420.7037,N,08158.8172,W,1,8,1.7,21,M,,M,,*5E
06/22/2015	22:09:50.545	$GPGGA,220951,2420.7038,N,08158.8173,W,1,8,1.7,21,M,,M,,*51
06/22/2015	22:09:51.565	$GPGGA,220952,2420.7037,N,08158.8173,W,1,8,1.7,21,M,,M,,*5D
06/22/2015	22:09:52.535	$GPGGA,220953,2420.7038,N,08158.8173,W,1,8,1.7,21,M,,M,,*53
06/22/2015	22:09:53.545	$GPGGA,220954,2420.7039,N,08158.8176,W,1,8,1.7,21,M,,M,,*50
06/22/2015	22:09:54.535	$GPGGA,220955,2420.7038,N,08158.8177,W,1,8,1.7,21,M,,M,,*51
06/22/2015	22:09:55.576	$GPGGA,220956,2420.7039,N,08158.8176,W,1,8,1.7,21,M,,M,,*52
06/22/2015	22:09:56.546	$GPGGA,220957,2420.7038,N,08158.8177,W,1,8,1.7,21,M,,M,,*53
06/22/2015	22:09:57.516	$GPGGA,220958,2420.7039,N,08158.8180,W,1,8,1.7,21,M,,M,,*55
06/22/2015	22:09:58.526	$GPGGA,220959,2420.7039,N,08158.8180,W,1,8,1.7,21,M,,M,,*54
06/22/2015	22:09:59.576	$GPGGA,221000,2420.7039,N,08158.8180,W,1,8,1.7,20,M,,M,,*51
06/22/2015	22:10:00.526	$GPGGA,221001,2420.7040,N,08158.8181,W,1,8,1.7,20,M,,M,,*5F
06/22/2015	22:10:01.516	$GPGGA,221002,2420.7040,N,08158.8183,W,1,8,1.7,20,M,,M,,*5E
06/22/2015	22:10:02.506	$GPGGA,221003,2420.7040,N,08158.8183,W,1,8,1.7,20,M,,M,,*5F
06/22/2015	22:10:03.516	$GPGGA,221004,2420.7042,N,08158.8186,W,1,7,2.3,20,M,,M,,*57
06/22/2015	22:10:04.515	$GPGGA,221005,2420.7043,N,08158.8185,W,1,7,1.7,20,M,,M,,*53
06/22/2015	22:10:05.525	$GPGGA,221006,2420.7043,N,08158.8186,W,1,8,1.7,20,M,,M,,*5C
06/22/2015	22:10:06.496	$GPGGA,221007,2420.7041,N,08158.8186,W,1,8,1.7,20,M,,M,,*5F
06/22/2015	22:10:07.525	$GPGGA,221008,2420.7042,N,08158.8186,W,1,8,1.7,20,M,,M,,*53
06/22/2015	22:10:08.535	$GPGGA,221009,2420.7041,N,08158.8186,W,1,8,1.7,20,M,,M,,*51
06/22/2015	22:10:09.515	$GPGGA,221010,2420.7042,N,08158.8187,W,1,8,1.7,20,M,,M,,*5B
06/22/2015	22:10:10.495	$GPGGA,221011,2420.7043,N,08158.8188,W,1,8,2.3,20,M,,M,,*53
06/22/2015	22:10:11.495	$GPGGA,221012,2420.7043,N,08158.8190,W,1,8,1.7,20,M,,M,,*5E
06/22/2015	22:10:12.489	$GPGGA,221013,2420.7043,N,08158.8190,W,1,8,1.7,20,M,,M,,*5F
06/22/2015	22:10:13.497	$GPGGA,221014,2420.7043,N,08158.8190,W,1,8,1.7,20,M,,M,,*58
06/22/2015	22:10:14.495	$GPGGA,221015,2420.7043,N,08158.8190,W,1,8,1.7,20,M,,M,,*59
06/22/2015	22:10:15.516	$GPGGA,221016,2420.7043,N,08158.8191,W,1,8,1.7,19,M,,M,,*51
06/22/2015	22:10:16.488	$GPGGA,221017,2420.7043,N,08158.8193,W,1,8,1.7,19,M,,M,,*52
06/22/2015	22:10:17.476	$GPGGA,221018,2420.7043,N,08158.8194,W,1,8,1.7,19,M,,M,,*5A
06/22/2015	22:10:18.600	$GPGGA,221019,2420.7043,N,08158.8192,W,1,8,1.7,19,M,,M,,*5D
06/22/2015	22:10:19.576	$GPGGA,221020,2420.7043,N,08158.8194,W,1,8,1.7,19,M,,M,,*51
06/22/2015	22:10:20.487	$GPGGA,221021,2420.7043,N,08158.8195,W,1,8,1.7,19,M,,M,,*51
06/22/2015	22:10:21.476	$GPGGA,221022,2420.7043,N,08158.8195,W,1,8,1.7,19,M,,M,,*52
06/22/2015	22:10:22.565	$GPGGA,221023,2420.7043,N,08158.8195,W,1,8,1.7,19,M,,M,,*53
06/22/2015	22:10:23.487	$GPGGA,221024,2420.7043,N,08158.8197,W,1,8,1.7,19,M,,M,,*56
06/22/2015	22:10:24.486	$GPGGA,221025,2420.7043,N,08158.8197,W,1,8,1.7,19,M,,M,,*57
06/22/2015	22:10:25.575	$GPGGA,221026,2420.7043,N,08158.8197,W,1,8,1.7,19,M,,M,,*54
06/22/2015	22:10:26.565	$GPGGA,221027,2420.7043,N,08158.8198,W,1,8,1.7,19,M,,M,,*5A
06/22/2015	22:10:27.615	$GPGGA,221028,2420.7043,N,08158.8199,W,1,8,1.7,19,M,,M,,*54
06/22/2015	22:10:28.556	$GPGGA,221029,2420.7043,N,08158.8198,W,1,8,1.7,19,M,,M,,*54
06/22/2015	22:10:29.555	$GPGGA,221030,2420.7043,N,08158.8199,W,1,8,1.7,19,M,,M,,*5D
06/22/2015	22:10:30.556	$GPGGA,221031,2420.7043,N,08158.8201,W,1,8,1.7,20,M,,M,,*54
06/22/2015	22:10:31.557	$GPGGA,221032,2420.7043,N,08158.8201,W,1,8,1.7,20,M,,M,,*57
06/22/2015	22:10:32.556	$GPGGA,221033,2420.7043,N,08158.8201,W,1,8,1.7,20,M,,M,,*56
06/22/2015	22:10:33.566	$GPGGA,221034,2420.7045,N,08158.8202,W,1,8,1.7,20,M,,M,,*54
06/22/2015	22:10:34.546	$GPGGA,221035,2420.7044,N,08158.8204,W,1,8,1.7,20,M,,M,,*52
06/22/2015	22:10:35.576	$GPGGA,221036,2420.7046,N,08158.8204,W,1,8,1.7,20,M,,M,,*53
06/22/2015	22:10:36.546	$GPGGA,221037,2420.7045,N,08158.8204,W,1,8,1.7,20,M,,M,,*51
06/22/2015	22:10:37.556	$GPGGA,221038,2420.7046,N,08158.8205,W,1,8,1.7,20,M,,M,,*5C
06/22/2015	22:10:38.536	$GPGGA,221039,2420.7045,N,08158.8206,W,1,8,1.7,20,M,,M,,*5D
06/22/2015	22:10:39.565	$GPGGA,221040,2420.7046,N,08158.8206,W,1,8,1.7,20,M,,M,,*50
06/22/2015	22:10:40.525	$GPGGA,221041,2420.7044,N,08158.8208,W,1,8,1.8,20,M,,M,,*52
06/22/2015	22:10:41.525	$GPGGA,221042,2420.7045,N,08158.8209,W,1,7,1.8,20,M,,M,,*5E
06/22/2015	22:10:42.535	$GPGGA,221043,2420.7044,N,08158.8209,W,1,7,1.8,20,M,,M,,*5E
06/22/2015	22:10:43.555	$GPGGA,221044,2420.7046,N,08158.8209,W,1,8,1.7,20,M,,M,,*5B
06/22/2015	22:10:44.535	$GPGGA,221045,2420.7045,N,08158.8212,W,1,8,1.7,20,M,,M,,*53
06/22/2015	22:10:45.525	$GPGGA,221046,2420.7044,N,08158.8212,W,1,7,1.8,20,M,,M,,*51
06/22/2015	22:10:46.525	$GPGGA,221047,2420.7045,N,08158.8212,W,1,7,1.8,20,M,,M,,*51
06/22/2015	22:10:47.565	$GPGGA,221048,2420.7044,N,08158.8212,W,1,7,1.8,20,M,,M,,*5F
06/22/2015	22:10:48.526	$GPGGA,221049,2420.7047,N,08158.8215,W,1,7,1.8,20,M,,M,,*5A
06/22/2015	22:10:49.546	$GPGGA,221050,2420.7047,N,08158.8215,W,1,8,1.7,20,M,,M,,*52
06/22/2015	22:10:50.516	$GPGGA,221051,2420.7047,N,08158.8216,W,1,8,1.8,20,M,,M,,*5F
06/22/2015	22:10:51.516	$GPGGA,221052,2420.7047,N,08158.8216,W,1,7,1.8,20,M,,M,,*53
06/22/2015	22:10:52.506	$GPGGA,221053,2420.7045,N,08158.8216,W,1,7,1.8,20,M,,M,,*50
06/22/2015	22:10:53.506	$GPGGA,221054,2420.7046,N,08158.8217,W,1,7,1.8,19,M,,M,,*5F
06/22/2015	22:10:54.497	$GPGGA,221055,2420.7045,N,08158.8219,W,1,7,1.8,19,M,,M,,*53
06/22/2015	22:10:55.546	$GPGGA,221056,2420.7046,N,08158.8218,W,1,7,1.8,19,M,,M,,*52
06/22/2015	22:10:56.498	$GPGGA,221057,2420.7047,N,08158.8219,W,1,7,1.8,19,M,,M,,*53
06/22/2015	22:10:57.625	$GPGGA,221058,2420.7050,N,08158.8222,W,1,8,1.7,19,M,,M,,*52
06/22/2015	22:10:58.499	$GPGGA,221059,2420.7049,N,08158.8221,W,1,8,1.7,19,M,,M,,*58
06/22/2015	22:10:59.545	$GPGGA,221100,2420.7050,N,08158.8223,W,1,7,1.8,19,M,,M,,*5F
06/22/2015	22:11:00.615	$GPGGA,221101,2420.7049,N,08158.8223,W,1,7,1.8,19,M,,M,,*56
06/22/2015	22:11:01.515	$GPGGA,221102,2420.7050,N,08158.8223,W,1,7,1.8,19,M,,M,,*5D
06/22/2015	22:11:02.490	$GPGGA,221103,2420.7050,N,08158.8223,W,1,7,1.7,19,M,,M,,*53
06/22/2015	22:11:03.625	$GPGGA,221104,2420.7050,N,08158.8226,W,1,8,1.7,19,M,,M,,*5E
06/22/2015	22:11:04.498	$GPGGA,221105,2420.7052,N,08158.8226,W,1,8,1.7,19,M,,M,,*5D
06/22/2015	22:11:05.926	$GPGGA,221106,2420.7051,N,08158.8227,W,1,8,1.7,19,M,,M,,*5C
06/22/2015	22:11:06.576	$GPGGA,221107,2420.7053,N,08158.8227,W,1,8,1.7,19,M,,M,,*5F
06/22/2015	22:11:07.616	$GPGGA,221108,2420.7054,N,08158.8230,W,1,8,1.7,19,M,,M,,*51
06/22/2015	22:11:08.500	$GPGGA,221109,2420.7056,N,08158.8230,W,1,8,1.7,19,M,,M,,*52
06/22/2015	22:11:09.596	$GPGGA,221110,2420.7055,N,08158.8231,W,1,8,1.7,19,M,,M,,*58
06/22/2015	22:11:10.487	$GPGGA,221111,2420.7057,N,08158.8233,W,1,8,1.7,19,M,,M,,*59
06/22/2015	22:11:11.606	$GPGGA,221112,2420.7058,N,08158.8233,W,1,8,1.7,19,M,,M,,*55
06/22/2015	22:11:12.476	$GPGGA,221113,2420.7058,N,08158.8234,W,1,8,1.7,19,M,,M,,*53
06/22/2015	22:11:13.466	$GPGGA,221114,2420.7057,N,08158.8234,W,1,8,1.7,19,M,,M,,*5B
06/22/2015	22:11:14.565	$GPGGA,221115,2420.7057,N,08158.8235,W,1,8,1.8,19,M,,M,,*54
06/22/2015	22:11:15.587	$GPGGA,221116,2420.7058,N,08158.8237,W,1,8,1.7,19,M,,M,,*55
06/22/2015	22:11:16.555	$GPGGA,221117,2420.7058,N,08158.8236,W,1,8,1.7,19,M,,M,,*55
06/22/2015	22:11:17.588	$GPGGA,221118,2420.7058,N,08158.8237,W,1,8,1.7,19,M,,M,,*5B
06/22/2015	22:11:18.555	$GPGGA,221119,2420.7058,N,08158.8240,W,1,8,1.7,19,M,,M,,*5A
06/22/2015	22:11:19.599	$GPGGA,221120,2420.7060,N,08158.8239,W,1,8,1.7,19,M,,M,,*55
06/22/2015	22:11:20.545	$GPGGA,221121,2420.7059,N,08158.8240,W,1,8,1.7,19,M,,M,,*50
06/22/2015	22:11:21.555	$GPGGA,221122,2420.7060,N,08158.8241,W,1,8,1.7,19,M,,M,,*58
06/22/2015	22:11:22.545	$GPGGA,221123,2420.7061,N,08158.8242,W,1,8,1.7,19,M,,M,,*5B
06/22/2015	22:11:23.576	$GPGGA,221124,2420.7061,N,08158.8241,W,1,7,2.3,19,M,,M,,*57
06/22/2015	22:11:24.536	$GPGGA,221125,2420.7061,N,08158.8242,W,1,7,1.7,19,M,,M,,*52
06/22/2015	22:11:25.556	$GPGGA,221126,2420.7061,N,08158.8244,W,1,8,1.7,19,M,,M,,*58
06/22/2015	22:11:26.536	$GPGGA,221127,2420.7059,N,08158.8241,W,1,8,2.3,19,M,,M,,*50
06/22/2015	22:11:27.576	$GPGGA,221128,2420.7060,N,08158.8244,W,1,8,1.7,19,M,,M,,*57
06/22/2015	22:11:28.526	$GPGGA,221129,2420.7061,N,08158.8245,W,1,8,1.7,19,M,,M,,*56
06/22/2015	22:11:29.556	$GPGGA,221130,2420.7061,N,08158.8245,W,1,8,1.7,19,M,,M,,*5E
06/22/2015	22:11:30.536	$GPGGA,221131,2420.7061,N,08158.8248,W,1,8,1.7,19,M,,M,,*52
06/22/2015	22:11:31.566	$GPGGA,221132,2420.7061,N,08158.8249,W,1,8,1.7,19,M,,M,,*50
06/22/2015	22:11:32.525	$GPGGA,221133,2420.7061,N,08158.8248,W,1,8,1.7,19,M,,M,,*50
06/22/2015	22:11:33.515	$GPGGA,221134,2420.7061,N,08158.8248,W,1,8,1.7,19,M,,M,,*57
06/22/2015	22:11:34.535	$GPGGA,221135,2420.7063,N,08158.8251,W,1,8,1.7,19,M,,M,,*5C
06/22/2015	22:11:35.565	$GPGGA,221136,2420.7062,N,08158.8251,W,1,8,1.7,19,M,,M,,*5E
06/22/2015	22:11:36.525	$GPGGA,221137,2420.7063,N,08158.8250,W,1,8,1.7,19,M,,M,,*5F
06/22/2015	22:11:37.545	$GPGGA,221138,2420.7062,N,08158.8253,W,1,8,1.7,19,M,,M,,*52
06/22/2015	22:11:38.515	$GPGGA,221139,2420.7061,N,08158.8253,W,1,8,2.3,19,M,,M,,*57
06/22/2015	22:11:39.555	$GPGGA,221140,2420.7059,N,08158.8251,W,1,8,1.7,19,M,,M,,*57
06/22/2015	22:11:40.506	$GPGGA,221141,2420.7061,N,08158.8252,W,1,8,1.7,19,M,,M,,*5E
06/22/2015	22:11:41.656	$GPGGA,221142,2420.7061,N,08158.8255,W,1,8,1.7,19,M,,M,,*5A
06/22/2015	22:11:42.506	$GPGGA,221143,2420.7061,N,08158.8256,W,1,8,1.7,19,M,,M,,*58
06/22/2015	22:11:43.526	$GPGGA,221144,2420.7061,N,08158.8255,W,1,8,1.7,19,M,,M,,*5C
06/22/2015	22:11:44.590	$GPGGA,221145,2420.7063,N,08158.8256,W,1,8,1.7,19,M,,M,,*5C
06/22/2015	22:11:45.516	$GPGGA,221146,2420.7062,N,08158.8259,W,1,8,1.7,19,M,,M,,*51
06/22/2015	22:11:46.926	$GPGGA,221147,2420.7063,N,08158.8260,W,1,8,1.7,19,M,,M,,*5B
06/22/2015	22:11:47.626	$GPGGA,221148,2420.7062,N,08158.8258,W,1,8,1.7,19,M,,M,,*5E
06/22/2015	22:11:48.500	$GPGGA,221149,2420.7063,N,08158.8260,W,1,8,1.7,19,M,,M,,*55
06/22/2015	22:11:49.508	$GPGGA,221150,2420.7062,N,08158.8262,W,1,8,1.7,19,M,,M,,*5E
