Software Version Number: 1	Data File Format Number: 1	Build Version Number: 1	Error Count Since VI Started: 3	Manufacturer: Raytheon	 Model Number: RayMarine 120	 S/N: 	 Cal Date: 	 Wind Direction Offset: 0.00	 Slope (M)1: 0.00	 Offset (B)1: 0.00	 Slope (M)2: 0.00	 Offset (B)2: 0.00	 Slope (M)3: 0.00	 Offset (B)3: 0.00	 Slope (M)4: 0.00	 Offset (B)4: 0.00	 Slope (M)5: 0.00	 Offset (B)5: 0.00	 Slope (M)6: 0.00	 Offset (B)6: 0.00
Computer Date	Computer Time	GGA String
06/25/2015	16:00:00.650	$GPGGA,160001,2534.3599,N,07946.9863,W,1,10,1.3,18,M,,M,,*62
06/25/2015	16:00:01.661	$GPGGA,160002,2534.3611,N,07946.9873,W,1,10,1.3,18,M,,M,,*63
06/25/2015	16:00:02.490	$GPGGA,160003,2534.3624,N,07946.9884,W,1,10,1.3,18,M,,M,,*6C
06/25/2015	16:00:03.600	$GPGGA,160004,2534.3638,N,07946.9893,W,1,10,1.3,18,M,,M,,*60
06/25/2015	16:00:04.579	$GPGGA,160005,2534.3651,N,07946.9904,W,1,10,1.3,18,M,,M,,*61
06/25/2015	16:00:05.639	$GPGGA,160006,2534.3665,N,07946.9915,W,1,11,1.3,18,M,,M,,*64
06/25/2015	16:00:06.639	$GPGGA,160007,2534.3679,N,07946.9926,W,1,11,1.3,18,M,,M,,*68
06/25/2015	16:00:07.650	$GPGGA,160008,2534.3693,N,07946.9936,W,1,11,1.3,18,M,,M,,*62
06/25/2015	16:00:08.640	$GPGGA,160009,2534.3705,N,07946.9947,W,1,11,1.3,18,M,,M,,*6B
06/25/2015	16:00:09.562	$GPGGA,160010,2534.3719,N,07946.9958,W,1,10,1.4,18,M,,M,,*66
06/25/2015	16:00:10.566	$GPGGA,160011,2534.3733,N,07946.9968,W,1,10,1.4,18,M,,M,,*6C
06/25/2015	16:00:11.665	$GPGGA,160012,2534.3747,N,07946.9978,W,1,10,1.4,18,M,,M,,*6D
06/25/2015	16:00:12.630	$GPGGA,160013,2534.3759,N,07946.9989,W,1,10,1.4,18,M,,M,,*6D
06/25/2015	16:00:13.550	$GPGGA,160014,2534.3773,N,07947.0001,W,1,10,1.4,18,M,,M,,*63
06/25/2015	16:00:14.630	$GPGGA,160015,2534.3786,N,07947.0011,W,1,10,1.3,18,M,,M,,*6E
06/25/2015	16:00:15.610	$GPGGA,160016,2534.3799,N,07947.0020,W,1,10,1.4,18,M,,M,,*66
06/25/2015	16:00:16.620	$GPGGA,160017,2534.3813,N,07947.0032,W,1,10,1.4,18,M,,M,,*69
06/25/2015	16:00:17.590	$GPGGA,160018,2534.3826,N,07947.0043,W,1,10,1.4,18,M,,M,,*66
06/25/2015	16:00:18.550	$GPGGA,160019,2534.3839,N,07947.0055,W,1,10,1.3,18,M,,M,,*69
06/25/2015	16:00:19.650	$GPGGA,160020,2534.3853,N,07947.0065,W,1,11,1.4,18,M,,M,,*6A
06/25/2015	16:00:20.600	$GPGGA,160021,2534.3866,N,07947.0074,W,1,11,1.4,18,M,,M,,*6D
06/25/2015	16:00:21.539	$GPGGA,160022,2534.3878,N,07947.0083,W,1,10,1.4,18,M,,M,,*68
06/25/2015	16:00:22.599	$GPGGA,160023,2534.3892,N,07947.0095,W,1,10,1.3,18,M,,M,,*6D
06/25/2015	16:00:23.639	$GPGGA,160024,2534.3904,N,07947.0108,W,1,11,1.3,18,M,,M,,*60
06/25/2015	16:00:24.589	$GPGGA,160025,2534.3918,N,07947.0119,W,1,11,1.3,18,M,,M,,*6C
06/25/2015	16:00:25.530	$GPGGA,160026,2534.3932,N,07947.0127,W,1,11,1.3,18,M,,M,,*6A
06/25/2015	16:00:26.590	$GPGGA,160027,2534.3945,N,07947.0137,W,1,11,1.4,18,M,,M,,*6D
06/25/2015	16:00:27.530	$GPGGA,160028,2534.3958,N,07947.0149,W,1,10,1.4,18,M,,M,,*66
06/25/2015	16:00:28.590	$GPGGA,160029,2534.3971,N,07947.0162,W,1,10,1.3,18,M,,M,,*62
06/25/2015	16:00:29.550	$GPGGA,160030,2534.3985,N,07947.0173,W,1,11,1.3,18,M,,M,,*60
06/25/2015	16:00:30.520	$GPGGA,160031,2534.3997,N,07947.0181,W,1,11,1.3,18,M,,M,,*6F
06/25/2015	16:00:31.620	$GPGGA,160032,2534.4010,N,07947.0192,W,1,10,1.3,18,M,,M,,*6E
06/25/2015	16:00:32.580	$GPGGA,160033,2534.4023,N,07947.0203,W,1,10,1.3,18,M,,M,,*64
06/25/2015	16:00:33.510	$GPGGA,160034,2534.4037,N,07947.0213,W,1,11,1.3,18,M,,M,,*66
06/25/2015	16:00:34.580	$GPGGA,160035,2534.4051,N,07947.0222,W,1,11,1.4,18,M,,M,,*62
06/25/2015	16:00:35.620	$GPGGA,160036,2534.4063,N,07947.0232,W,1,10,1.4,18,M,,M,,*60
06/25/2015	16:00:36.580	$GPGGA,160037,2534.4077,N,07947.0242,W,1,10,1.4,18,M,,M,,*63
06/25/2015	16:00:37.500	$GPGGA,160038,2534.4090,N,07947.0253,W,1,10,1.4,18,M,,M,,*65
06/25/2015	16:00:38.820	$GPGGA,160039,2534.4102,N,07947.0262,W,1,10,1.4,18,M,,M,,*6C
06/25/2015	16:00:39.570	$GPGGA,160040,2534.4116,N,07947.0272,W,1,10,1.4,18,M,,M,,*66
06/25/2015	16:00:40.559	$GPGGA,160041,2534.4130,N,07947.0283,W,1,10,1.3,18,M,,M,,*6A
06/25/2015	16:00:41.539	$GPGGA,160042,2534.4142,N,07947.0293,W,1,11,1.3,18,M,,M,,*6C
06/25/2015	16:00:42.599	$GPGGA,160043,2534.4156,N,07947.0304,W,1,11,1.3,18,M,,M,,*67
06/25/2015	16:00:43.574	$GPGGA,160044,2534.4169,N,07947.0315,W,1,11,1.3,18,M,,M,,*6C
06/25/2015	16:00:44.560	$GPGGA,160045,2534.4182,N,07947.0325,W,1,11,1.5,18,M,,M,,*6D
06/25/2015	16:00:45.640	$GPGGA,160046,2534.4196,N,07947.0336,W,1,10,1.5,18,M,,M,,*68
06/25/2015	16:00:46.560	$GPGGA,160047,2534.4209,N,07947.0348,W,1,10,1.3,18,M,,M,,*63
06/25/2015	16:00:47.590	$GPGGA,160048,2534.4221,N,07947.0361,W,1,11,1.3,18,M,,M,,*6C
06/25/2015	16:00:48.550	$GPGGA,160049,2534.4236,N,07947.0372,W,1,11,1.3,18,M,,M,,*69
06/25/2015	16:00:49.573	$GPGGA,160050,2534.4249,N,07947.0383,W,1,10,1.3,18,M,,M,,*66
06/25/2015	16:00:50.590	$GPGGA,160051,2534.4264,N,07947.0395,W,1,10,1.3,18,M,,M,,*6F
06/25/2015	16:00:51.630	$GPGGA,160052,2534.4278,N,07947.0406,W,1,10,1.3,18,M,,M,,*6C
06/25/2015	16:00:52.576	$GPGGA,160053,2534.4293,N,07947.0416,W,1,10,1.3,18,M,,M,,*69
06/25/2015	16:00:53.610	$GPGGA,160054,2534.4307,N,07947.0426,W,1,11,1.3,18,M,,M,,*60
06/25/2015	16:00:54.562	$GPGGA,160055,2534.4321,N,07947.0437,W,1,11,1.3,18,M,,M,,*65
06/25/2015	16:00:55.610	$GPGGA,160056,2534.4334,N,07947.0448,W,1,10,1.3,18,M,,M,,*6B
06/25/2015	16:00:56.573	$GPGGA,160057,2534.4348,N,07947.0456,W,1,10,1.3,18,M,,M,,*6E
06/25/2015	16:00:57.560	$GPGGA,160058,2534.4362,N,07947.0467,W,1,10,1.3,18,M,,M,,*6B
06/25/2015	16:00:58.589	$GPGGA,160059,2534.4376,N,07947.0477,W,1,10,1.3,18,M,,M,,*6E
06/25/2015	16:00:59.599	$GPGGA,160100,2534.4388,N,07947.0488,W,1,11,1.3,19,M,,M,,*62
06/25/2015	16:01:00.580	$GPGGA,160101,2534.4402,N,07947.0498,W,1,11,1.4,19,M,,M,,*60
06/25/2015	16:01:01.565	$GPGGA,160102,2534.4415,N,07947.0509,W,1,10,1.4,19,M,,M,,*6D
06/25/2015	16:01:02.574	$GPGGA,160103,2534.4428,N,07947.0518,W,1,10,1.4,19,M,,M,,*62
06/25/2015	16:01:03.566	$GPGGA,160104,2534.4441,N,07947.0528,W,1,10,1.4,19,M,,M,,*69
06/25/2015	16:01:04.561	$GPGGA,160105,2534.4453,N,07947.0538,W,1,10,1.4,19,M,,M,,*6A
06/25/2015	16:01:05.550	$GPGGA,160106,2534.4467,N,07947.0549,W,1,10,1.4,19,M,,M,,*68
06/25/2015	16:01:06.562	$GPGGA,160107,2534.4480,N,07947.0557,W,1,10,1.3,19,M,,M,,*68
06/25/2015	16:01:07.566	$GPGGA,160108,2534.4492,N,07947.0567,W,1,11,1.3,19,M,,M,,*66
06/25/2015	16:01:08.563	$GPGGA,160109,2534.4506,N,07947.0578,W,1,11,1.4,19,M,,M,,*62
06/25/2015	16:01:09.580	$GPGGA,160110,2534.4506,N,07947.0578,W,1,10,1.4,19,M,,M,,*6B
06/25/2015	16:01:10.588	$GPGGA,160111,2534.4532,N,07947.0601,W,1,10,1.3,19,M,,M,,*67
06/25/2015	16:01:11.570	$GPGGA,160112,2534.4545,N,07947.0611,W,1,11,1.3,19,M,,M,,*64
06/25/2015	16:01:12.530	$GPGGA,160113,2534.4545,N,07947.0611,W,1,11,1.3,19,M,,M,,*65
06/25/2015	16:01:13.530	$GPGGA,160114,2534.4571,N,07947.0634,W,1,11,1.3,19,M,,M,,*62
06/25/2015	16:01:14.549	$GPGGA,160115,2534.4583,N,07947.0644,W,1,11,1.3,19,M,,M,,*69
06/25/2015	16:01:15.539	$GPGGA,160116,2534.4597,N,07947.0657,W,1,11,1.3,19,M,,M,,*6D
06/25/2015	16:01:16.519	$GPGGA,160117,2534.4597,N,07947.0657,W,1,11,1.3,19,M,,M,,*6C
06/25/2015	16:01:17.619	$GPGGA,160118,2534.4622,N,07947.0679,W,1,10,1.4,19,M,,M,,*64
06/25/2015	16:01:18.509	$GPGGA,160119,2534.4622,N,07947.0679,W,1,10,1.3,19,M,,M,,*62
06/25/2015	16:01:19.559	$GPGGA,160120,2534.4648,N,07947.0701,W,1,11,1.4,19,M,,M,,*6C
06/25/2015	16:01:20.509	$GPGGA,160121,2534.4648,N,07947.0701,W,1,11,1.4,19,M,,M,,*6D
06/25/2015	16:01:21.562	$GPGGA,160122,2534.4673,N,07947.0722,W,1,10,1.5,19,M,,M,,*67
06/25/2015	16:01:22.529	$GPGGA,160123,2534.4687,N,07947.0733,W,1,10,1.7,19,M,,M,,*6F
06/25/2015	16:01:23.549	$GPGGA,160124,2534.4699,N,07947.0744,W,1,8,1.3,19,M,,M,,*5A
06/25/2015	16:01:24.509	$GPGGA,160125,2534.4712,N,07947.0756,W,1,8,1.3,19,M,,M,,*5A
06/25/2015	16:01:25.519	$GPGGA,160126,2534.4712,N,07947.0756,W,1,10,1.3,19,M,,M,,*60
06/25/2015	16:01:26.499	$GPGGA,160127,2534.4724,N,07947.0767,W,1,10,1.3,19,M,,M,,*66
06/25/2015	16:01:27.499	$GPGGA,160128,2534.4749,N,07947.0791,W,1,11,1.3,19,M,,M,,*6A
06/25/2015	16:01:28.500	$GPGGA,160129,2534.4749,N,07947.0791,W,1,11,1.5,19,M,,M,,*6D
06/25/2015	16:01:29.590	$GPGGA,160130,2534.4776,N,07947.0811,W,1,10,1.5,19,M,,M,,*6F
06/25/2015	16:01:30.500	$GPGGA,160131,2534.4776,N,07947.0811,W,1,10,1.3,19,M,,M,,*68
06/25/2015	16:01:31.619	$GPGGA,160132,2534.4803,N,07947.0831,W,1,11,1.3,19,M,,M,,*65
06/25/2015	16:01:32.499	$GPGGA,160133,2534.4817,N,07947.0842,W,1,11,1.5,19,M,,M,,*63
06/25/2015	16:01:33.599	$GPGGA,160134,2534.4831,N,07947.0852,W,1,10,1.5,19,M,,M,,*60
06/25/2015	16:01:34.589	$GPGGA,160135,2534.4843,N,07947.0861,W,1,10,1.3,19,M,,M,,*62
06/25/2015	16:01:35.579	$GPGGA,160136,2534.4857,N,07947.0872,W,1,11,1.3,19,M,,M,,*67
06/25/2015	16:01:36.579	$GPGGA,160137,2534.4871,N,07947.0882,W,1,11,1.4,19,M,,M,,*6A
06/25/2015	16:01:37.599	$GPGGA,160138,2534.4883,N,07947.0892,W,1,10,1.4,19,M,,M,,*68
06/25/2015	16:01:38.579	$GPGGA,160139,2534.4897,N,07947.0901,W,1,10,1.4,19,M,,M,,*67
06/25/2015	16:01:39.609	$GPGGA,160140,2534.4910,N,07947.0912,W,1,10,1.4,19,M,,M,,*65
06/25/2015	16:01:40.569	$GPGGA,160141,2534.4924,N,07947.0922,W,1,10,1.4,19,M,,M,,*60
06/25/2015	16:01:41.560	$GPGGA,160142,2534.4937,N,07947.0933,W,1,10,1.4,19,M,,M,,*61
06/25/2015	16:01:42.559	$GPGGA,160143,2534.4950,N,07947.0943,W,1,10,1.4,19,M,,M,,*66
06/25/2015	16:01:43.599	$GPGGA,160144,2534.4964,N,07947.0955,W,1,10,1.4,19,M,,M,,*61
06/25/2015	16:01:44.550	$GPGGA,160145,2534.4977,N,07947.0966,W,1,10,1.3,19,M,,M,,*65
06/25/2015	16:01:45.600	$GPGGA,160146,2534.4990,N,07947.0976,W,1,11,1.3,19,M,,M,,*6F
06/25/2015	16:01:46.550	$GPGGA,160147,2534.5004,N,07947.0986,W,1,11,1.4,19,M,,M,,*63
06/25/2015	16:01:47.563	$GPGGA,160148,2534.5016,N,07947.0997,W,1,10,1.4,19,M,,M,,*6E
06/25/2015	16:01:48.565	$GPGGA,160149,2534.5031,N,07947.1008,W,1,10,1.4,19,M,,M,,*64
06/25/2015	16:01:49.563	$GPGGA,160150,2534.5044,N,07947.1019,W,1,10,1.4,19,M,,M,,*6E
06/25/2015	16:01:50.539	$GPGGA,160151,2534.5058,N,07947.1030,W,1,10,1.3,19,M,,M,,*6E
06/25/2015	16:01:51.579	$GPGGA,160152,2534.5070,N,07947.1041,W,1,11,1.3,19,M,,M,,*60
06/25/2015	16:01:52.539	$GPGGA,160153,2534.5085,N,07947.1053,W,1,11,1.3,19,M,,M,,*68
06/25/2015	16:01:53.539	$GPGGA,160154,2534.5099,N,07947.1064,W,1,11,1.3,19,M,,M,,*66
06/25/2015	16:01:54.539	$GPGGA,160155,2534.5113,N,07947.1074,W,1,11,1.3,19,M,,M,,*65
06/25/2015	16:01:55.569	$GPGGA,160156,2534.5125,N,07947.1084,W,1,11,1.3,19,M,,M,,*6C
06/25/2015	16:01:56.539	$GPGGA,160157,2534.5139,N,07947.1095,W,1,11,1.4,19,M,,M,,*67
06/25/2015	16:01:57.529	$GPGGA,160158,2534.5153,N,07947.1105,W,1,10,1.4,19,M,,M,,*6D
06/25/2015	16:01:58.529	$GPGGA,160159,2534.5168,N,07947.1116,W,1,10,1.4,19,M,,M,,*66
06/25/2015	16:01:59.569	$GPGGA,160200,2534.5181,N,07947.1127,W,1,11,1.3,19,M,,M,,*6A
06/25/2015	16:02:00.529	$GPGGA,160201,2534.5195,N,07947.1135,W,1,11,1.4,19,M,,M,,*6A
06/25/2015	16:02:01.550	$GPGGA,160202,2534.5208,N,07947.1145,W,1,10,1.4,19,M,,M,,*68
06/25/2015	16:02:02.519	$GPGGA,160203,2534.5222,N,07947.1156,W,1,10,1.4,19,M,,M,,*63
06/25/2015	16:02:03.540	$GPGGA,160204,2534.5236,N,07947.1165,W,1,10,1.4,19,M,,M,,*61
06/25/2015	16:02:04.520	$GPGGA,160205,2534.5250,N,07947.1176,W,1,10,1.4,19,M,,M,,*62
06/25/2015	16:02:05.510	$GPGGA,160206,2534.5262,N,07947.1186,W,1,10,1.4,19,M,,M,,*6F
06/25/2015	16:02:06.509	$GPGGA,160207,2534.5277,N,07947.1196,W,1,10,1.4,19,M,,M,,*6B
06/25/2015	16:02:07.553	$GPGGA,160208,2534.5291,N,07947.1207,W,1,10,1.4,19,M,,M,,*67
06/25/2015	16:02:08.499	$GPGGA,160209,2534.5305,N,07947.1217,W,1,10,1.4,19,M,,M,,*6B
06/25/2015	16:02:09.529	$GPGGA,160210,2534.5320,N,07947.1228,W,1,10,1.4,18,M,,M,,*69
06/25/2015	16:02:10.489	$GPGGA,160211,2534.5334,N,07947.1237,W,1,10,1.4,18,M,,M,,*63
06/25/2015	16:02:11.539	$GPGGA,160212,2534.5348,N,07947.1248,W,1,10,1.4,18,M,,M,,*63
06/25/2015	16:02:12.589	$GPGGA,160213,2534.5363,N,07947.1261,W,1,10,1.3,18,M,,M,,*67
06/25/2015	16:02:13.589	$GPGGA,160214,2534.5377,N,07947.1272,W,1,11,1.3,18,M,,M,,*66
06/25/2015	16:02:14.489	$GPGGA,160215,2534.5391,N,07947.1283,W,1,11,1.4,18,M,,M,,*66
06/25/2015	16:02:15.609	$GPGGA,160216,2534.5405,N,07947.1293,W,1,10,1.4,18,M,,M,,*6F
06/25/2015	16:02:16.499	$GPGGA,160217,2534.5419,N,07947.1304,W,1,10,1.4,18,M,,M,,*6C
06/25/2015	16:02:17.599	$GPGGA,160218,2534.5432,N,07947.1313,W,1,10,1.4,18,M,,M,,*6C
06/25/2015	16:02:18.589	$GPGGA,160219,2534.5448,N,07947.1326,W,1,10,1.3,18,M,,M,,*61
06/25/2015	16:02:19.619	$GPGGA,160220,2534.5461,N,07947.1335,W,1,11,1.3,18,M,,M,,*63
06/25/2015	16:02:20.500	$GPGGA,160221,2534.5475,N,07947.1345,W,1,11,1.4,18,M,,M,,*67
06/25/2015	16:02:21.580	$GPGGA,160222,2534.5490,N,07947.1356,W,1,10,1.4,18,M,,M,,*6C
06/25/2015	16:02:22.490	$GPGGA,160223,2534.5504,N,07947.1366,W,1,10,1.4,18,M,,M,,*62
06/25/2015	16:02:23.590	$GPGGA,160224,2534.5518,N,07947.1376,W,1,10,1.4,18,M,,M,,*69
06/25/2015	16:02:24.479	$GPGGA,160225,2534.5532,N,07947.1387,W,1,10,1.4,18,M,,M,,*6E
06/25/2015	16:02:25.569	$GPGGA,160226,2534.5546,N,07947.1396,W,1,10,1.4,18,M,,M,,*6E
06/25/2015	16:02:26.563	$GPGGA,160227,2534.5560,N,07947.1409,W,1,10,1.4,18,M,,M,,*6A
06/25/2015	16:02:27.599	$GPGGA,160228,2534.5573,N,07947.1420,W,1,11,1.3,18,M,,M,,*6A
06/25/2015	16:02:28.562	$GPGGA,160229,2534.5587,N,07947.1431,W,1,11,1.3,17,M,,M,,*6F
06/25/2015	16:02:29.579	$GPGGA,160230,2534.5602,N,07947.1441,W,1,10,1.4,17,M,,M,,*68
06/25/2015	16:02:30.562	$GPGGA,160231,2534.5616,N,07947.1452,W,1,10,1.4,17,M,,M,,*6E
06/25/2015	16:02:31.579	$GPGGA,160232,2534.5630,N,07947.1465,W,1,11,1.3,17,M,,M,,*6B
06/25/2015	16:02:32.561	$GPGGA,160233,2534.5645,N,07947.1477,W,1,11,1.3,17,M,,M,,*6B
06/25/2015	16:02:33.562	$GPGGA,160234,2534.5659,N,07947.1488,W,1,11,1.3,17,M,,M,,*61
06/25/2015	16:02:34.564	$GPGGA,160235,2534.5673,N,07947.1500,W,1,11,1.3,17,M,,M,,*69
06/25/2015	16:02:35.579	$GPGGA,160236,2534.5688,N,07947.1510,W,1,11,1.3,17,M,,M,,*6F
06/25/2015	16:02:36.550	$GPGGA,160237,2534.5703,N,07947.1521,W,1,11,1.3,17,M,,M,,*6E
06/25/2015	16:02:37.559	$GPGGA,160238,2534.5716,N,07947.1532,W,1,11,1.3,17,M,,M,,*67
06/25/2015	16:02:38.540	$GPGGA,160239,2534.5730,N,07947.1543,W,1,11,1.3,17,M,,M,,*64
06/25/2015	16:02:39.570	$GPGGA,160240,2534.5745,N,07947.1554,W,1,11,1.3,17,M,,M,,*6E
06/25/2015	16:02:40.540	$GPGGA,160241,2534.5759,N,07947.1565,W,1,11,1.3,17,M,,M,,*60
06/25/2015	16:02:41.529	$GPGGA,160242,2534.5773,N,07947.1575,W,1,11,1.3,17,M,,M,,*6A
06/25/2015	16:02:42.539	$GPGGA,160243,2534.5786,N,07947.1586,W,1,11,1.3,17,M,,M,,*6D
06/25/2015	16:02:43.550	$GPGGA,160244,2534.5802,N,07947.1597,W,1,11,1.3,17,M,,M,,*69
06/25/2015	16:02:44.519	$GPGGA,160245,2534.5815,N,07947.1608,W,1,11,1.3,17,M,,M,,*6B
06/25/2015	16:02:45.561	$GPGGA,160246,2534.5829,N,07947.1618,W,1,11,1.3,17,M,,M,,*66
06/25/2015	16:02:46.519	$GPGGA,160247,2534.5844,N,07947.1627,W,1,11,1.3,17,M,,M,,*60
06/25/2015	16:02:47.539	$GPGGA,160248,2534.5858,N,07947.1637,W,1,11,1.3,17,M,,M,,*63
06/25/2015	16:02:48.529	$GPGGA,160249,2534.5871,N,07947.1648,W,1,11,1.3,17,M,,M,,*61
06/25/2015	16:02:49.509	$GPGGA,160250,2534.5886,N,07947.1658,W,1,11,1.3,17,M,,M,,*60
06/25/2015	16:02:50.519	$GPGGA,160251,2534.5900,N,07947.1667,W,1,11,1.3,17,M,,M,,*62
06/25/2015	16:02:51.539	$GPGGA,160252,2534.5912,N,07947.1680,W,1,10,1.4,17,M,,M,,*6D
06/25/2015	16:02:52.520	$GPGGA,160253,2534.5927,N,07947.1688,W,1,10,1.3,17,M,,M,,*65
06/25/2015	16:02:53.539	$GPGGA,160254,2534.5941,N,07947.1698,W,1,10,1.4,17,M,,M,,*64
06/25/2015	16:02:54.519	$GPGGA,160255,2534.5954,N,07947.1707,W,1,10,1.4,17,M,,M,,*66
06/25/2015	16:02:55.620	$GPGGA,160256,2534.5967,N,07947.1717,W,1,10,1.4,17,M,,M,,*64
06/25/2015	16:02:56.620	$GPGGA,160257,2534.5981,N,07947.1727,W,1,10,1.4,17,M,,M,,*6E
06/25/2015	16:02:57.620	$GPGGA,160258,2534.5995,N,07947.1739,W,1,11,1.3,17,M,,M,,*6D
06/25/2015	16:02:58.510	$GPGGA,160259,2534.6010,N,07947.1750,W,1,11,1.3,17,M,,M,,*64
06/25/2015	16:02:59.529	$GPGGA,160300,2534.6024,N,07947.1760,W,1,11,1.3,17,M,,M,,*6D
06/25/2015	16:03:00.509	$GPGGA,160301,2534.6038,N,07947.1771,W,1,11,1.4,17,M,,M,,*66
06/25/2015	16:03:01.599	$GPGGA,160302,2534.6052,N,07947.1783,W,1,11,1.3,17,M,,M,,*63
06/25/2015	16:03:02.499	$GPGGA,160303,2534.6066,N,07947.1793,W,1,11,1.3,17,M,,M,,*64
06/25/2015	16:03:03.629	$GPGGA,160304,2534.6079,N,07947.1804,W,1,11,1.3,17,M,,M,,*6C
06/25/2015	16:03:04.579	$GPGGA,160305,2534.6093,N,07947.1817,W,1,11,1.3,17,M,,M,,*6B
06/25/2015	16:03:05.599	$GPGGA,160306,2534.6107,N,07947.1828,W,1,11,1.3,17,M,,M,,*68
06/25/2015	16:03:06.579	$GPGGA,160307,2534.6121,N,07947.1837,W,1,11,1.3,17,M,,M,,*63
06/25/2015	16:03:07.589	$GPGGA,160308,2534.6135,N,07947.1847,W,1,11,1.3,17,M,,M,,*6E
06/25/2015	16:03:08.579	$GPGGA,160309,2534.6149,N,07947.1858,W,1,11,1.3,17,M,,M,,*6A
06/25/2015	16:03:09.589	$GPGGA,160310,2534.6161,N,07947.1868,W,1,11,1.3,17,M,,M,,*6B
06/25/2015	16:03:10.479	$GPGGA,160311,2534.6176,N,07947.1876,W,1,11,1.4,17,M,,M,,*64
06/25/2015	16:03:11.589	$GPGGA,160312,2534.6190,N,07947.1886,W,1,10,1.4,17,M,,M,,*61
06/25/2015	16:03:12.568	$GPGGA,160313,2534.6204,N,07947.1895,W,1,10,1.4,17,M,,M,,*6C
06/25/2015	16:03:13.590	$GPGGA,160314,2534.6216,N,07947.1907,W,1,10,1.4,17,M,,M,,*62
06/25/2015	16:03:14.565	$GPGGA,160315,2534.6230,N,07947.1916,W,1,10,1.3,17,M,,M,,*60
06/25/2015	16:03:15.590	$GPGGA,160316,2534.6245,N,07947.1926,W,1,11,1.3,17,M,,M,,*63
06/25/2015	16:03:16.566	$GPGGA,160317,2534.6259,N,07947.1936,W,1,11,1.3,17,M,,M,,*6E
06/25/2015	16:03:17.579	$GPGGA,160318,2534.6272,N,07947.1947,W,1,11,1.3,17,M,,M,,*6E
06/25/2015	16:03:18.550	$GPGGA,160319,2534.6284,N,07947.1956,W,1,11,1.3,17,M,,M,,*66
06/25/2015	16:03:19.589	$GPGGA,160320,2534.6299,N,07947.1966,W,1,10,1.4,17,M,,M,,*65
06/25/2015	16:03:20.549	$GPGGA,160321,2534.6313,N,07947.1976,W,1,10,1.4,16,M,,M,,*67
06/25/2015	16:03:21.564	$GPGGA,160322,2534.6328,N,07947.1985,W,1,10,1.4,16,M,,M,,*60
06/25/2015	16:03:22.550	$GPGGA,160323,2534.6342,N,07947.1995,W,1,10,1.4,16,M,,M,,*6C
06/25/2015	16:03:23.579	$GPGGA,160324,2534.6356,N,07947.2006,W,1,10,1.4,16,M,,M,,*6E
06/25/2015	16:03:24.539	$GPGGA,160325,2534.6371,N,07947.2016,W,1,10,1.3,16,M,,M,,*6C
06/25/2015	16:03:25.529	$GPGGA,160326,2534.6385,N,07947.2027,W,1,11,1.3,16,M,,M,,*67
06/25/2015	16:03:26.539	$GPGGA,160327,2534.6399,N,07947.2038,W,1,11,1.3,16,M,,M,,*65
06/25/2015	16:03:27.539	$GPGGA,160328,2534.6414,N,07947.2048,W,1,11,1.3,16,M,,M,,*6F
06/25/2015	16:03:28.549	$GPGGA,160329,2534.6428,N,07947.2059,W,1,11,1.3,16,M,,M,,*61
06/25/2015	16:03:29.529	$GPGGA,160330,2534.6442,N,07947.2070,W,1,11,1.3,16,M,,M,,*6E
06/25/2015	16:03:30.520	$GPGGA,160331,2534.6457,N,07947.2081,W,1,11,1.3,16,M,,M,,*65
06/25/2015	16:03:31.552	$GPGGA,160332,2534.6471,N,07947.2090,W,1,11,1.3,16,M,,M,,*62
06/25/2015	16:03:32.530	$GPGGA,160333,2534.6486,N,07947.2099,W,1,11,1.3,16,M,,M,,*62
06/25/2015	16:03:33.520	$GPGGA,160334,2534.6500,N,07947.2110,W,1,10,1.4,16,M,,M,,*6C
06/25/2015	16:03:34.529	$GPGGA,160335,2534.6515,N,07947.2118,W,1,10,1.4,16,M,,M,,*61
06/25/2015	16:03:35.539	$GPGGA,160336,2534.6529,N,07947.2128,W,1,10,1.4,16,M,,M,,*6E
06/25/2015	16:03:36.529	$GPGGA,160337,2534.6543,N,07947.2139,W,1,10,1.4,16,M,,M,,*63
06/25/2015	16:03:37.509	$GPGGA,160338,2534.6559,N,07947.2147,W,1,10,1.4,16,M,,M,,*6E
06/25/2015	16:03:38.519	$GPGGA,160339,2534.6573,N,07947.2157,W,1,10,1.4,16,M,,M,,*66
06/25/2015	16:03:39.561	$GPGGA,160340,2534.6587,N,07947.2167,W,1,10,1.4,16,M,,M,,*60
06/25/2015	16:03:40.499	$GPGGA,160341,2534.6602,N,07947.2176,W,1,10,1.4,16,M,,M,,*6F
06/25/2015	16:03:41.529	$GPGGA,160342,2534.6617,N,07947.2186,W,1,10,1.4,16,M,,M,,*67
06/25/2015	16:03:42.499	$GPGGA,160343,2534.6631,N,07947.2196,W,1,10,1.4,16,M,,M,,*63
06/25/2015	16:03:43.529	$GPGGA,160344,2534.6646,N,07947.2205,W,1,10,1.4,15,M,,M,,*6E
06/25/2015	16:03:44.609	$GPGGA,160345,2534.6660,N,07947.2215,W,1,10,1.4,15,M,,M,,*6A
06/25/2015	16:03:45.589	$GPGGA,160346,2534.6675,N,07947.2225,W,1,10,1.4,15,M,,M,,*6E
06/25/2015	16:03:46.609	$GPGGA,160347,2534.6691,N,07947.2233,W,1,10,1.4,15,M,,M,,*62
06/25/2015	16:03:47.539	$GPGGA,160348,2534.6706,N,07947.2243,W,1,10,1.4,15,M,,M,,*65
06/25/2015	16:03:48.500	$GPGGA,160349,2534.6721,N,07947.2254,W,1,10,1.4,15,M,,M,,*67
06/25/2015	16:03:49.590	$GPGGA,160350,2534.6736,N,07947.2262,W,1,10,1.4,15,M,,M,,*6C
06/25/2015	16:03:50.990	$GPGGA,160351,2534.6750,N,07947.2272,W,1,10,1.4,15,M,,M,,*6C
06/25/2015	16:03:51.489	$GPGGA,160352,2534.6765,N,07947.2283,W,1,10,1.4,15,M,,M,,*67
06/25/2015	16:03:52.579	$GPGGA,160353,2534.6781,N,07947.2292,W,1,10,1.4,15,M,,M,,*6C
06/25/2015	16:03:53.579	$GPGGA,160354,2534.6797,N,07947.2302,W,1,10,1.4,15,M,,M,,*64
06/25/2015	16:03:54.499	$GPGGA,160355,2534.6812,N,07947.2312,W,1,10,1.4,15,M,,M,,*66
06/25/2015	16:03:55.599	$GPGGA,160356,2534.6826,N,07947.2321,W,1,10,1.4,15,M,,M,,*62
06/25/2015	16:03:56.479	$GPGGA,160357,2534.6841,N,07947.2331,W,1,10,1.4,15,M,,M,,*63
06/25/2015	16:03:57.469	$GPGGA,160358,2534.6857,N,07947.2341,W,1,10,1.4,15,M,,M,,*6C
06/25/2015	16:03:58.579	$GPGGA,160359,2534.6872,N,07947.2350,W,1,10,1.4,15,M,,M,,*6A
06/25/2015	16:03:59.609	$GPGGA,160400,2534.6887,N,07947.2360,W,1,10,1.4,15,M,,M,,*68
06/25/2015	16:04:00.562	$GPGGA,160401,2534.6902,N,07947.2370,W,1,10,1.4,15,M,,M,,*64
06/25/2015	16:04:01.561	$GPGGA,160402,2534.6919,N,07947.2379,W,1,10,1.4,14,M,,M,,*65
06/25/2015	16:04:02.560	$GPGGA,160403,2534.6934,N,07947.2388,W,1,10,1.4,14,M,,M,,*65
06/25/2015	16:04:03.599	$GPGGA,160404,2534.6949,N,07947.2399,W,1,10,1.4,14,M,,M,,*68
06/25/2015	16:04:04.563	$GPGGA,160405,2534.6964,N,07947.2407,W,1,10,1.4,14,M,,M,,*66
06/25/2015	16:04:05.563	$GPGGA,160406,2534.6981,N,07947.2417,W,1,10,1.4,14,M,,M,,*6F
06/25/2015	16:04:06.552	$GPGGA,160407,2534.6996,N,07947.2426,W,1,10,1.4,14,M,,M,,*6A
06/25/2015	16:04:07.600	$GPGGA,160408,2534.7013,N,07947.2436,W,1,10,1.4,14,M,,M,,*61
06/25/2015	16:04:08.551	$GPGGA,160409,2534.7029,N,07947.2446,W,1,10,1.4,14,M,,M,,*6E
06/25/2015	16:04:09.539	$GPGGA,160410,2534.7045,N,07947.2454,W,1,10,1.4,14,M,,M,,*6F
06/25/2015	16:04:10.550	$GPGGA,160411,2534.7060,N,07947.2464,W,1,10,1.4,14,M,,M,,*6A
06/25/2015	16:04:11.579	$GPGGA,160412,2534.7076,N,07947.2473,W,1,10,1.4,14,M,,M,,*68
06/25/2015	16:04:12.539	$GPGGA,160413,2534.7092,N,07947.2482,W,1,10,1.4,14,M,,M,,*6D
06/25/2015	16:04:13.569	$GPGGA,160414,2534.7108,N,07947.2493,W,1,10,1.4,14,M,,M,,*68
06/25/2015	16:04:14.529	$GPGGA,160415,2534.7123,N,07947.2501,W,1,10,1.4,14,M,,M,,*6A
06/25/2015	16:04:15.550	$GPGGA,160416,2534.7140,N,07947.2511,W,1,10,1.4,14,M,,M,,*6D
06/25/2015	16:04:16.539	$GPGGA,160417,2534.7155,N,07947.2520,W,1,10,1.4,14,M,,M,,*6A
06/25/2015	16:04:17.519	$GPGGA,160418,2534.7172,N,07947.2529,W,1,10,1.4,14,M,,M,,*69
06/25/2015	16:04:18.539	$GPGGA,160419,2534.7188,N,07947.2537,W,1,10,1.4,14,M,,M,,*62
06/25/2015	16:04:19.579	$GPGGA,160420,2534.7202,N,07947.2547,W,1,10,1.4,14,M,,M,,*6E
06/25/2015	16:04:20.539	$GPGGA,160421,2534.7219,N,07947.2556,W,1,10,1.4,14,M,,M,,*65
06/25/2015	16:04:21.539	$GPGGA,160422,2534.7235,N,07947.2565,W,1,10,1.4,14,M,,M,,*68
06/25/2015	16:04:22.519	$GPGGA,160423,2534.7252,N,07947.2573,W,1,10,1.4,13,M,,M,,*68
06/25/2015	16:04:23.540	$GPGGA,160424,2534.7267,N,07947.2583,W,1,10,1.4,13,M,,M,,*66
06/25/2015	16:04:24.510	$GPGGA,160425,2534.7282,N,07947.2592,W,1,10,1.4,13,M,,M,,*6C
06/25/2015	16:04:25.510	$GPGGA,160426,2534.7299,N,07947.2601,W,1,10,1.4,13,M,,M,,*6C
06/25/2015	16:04:26.509	$GPGGA,160427,2534.7316,N,07947.2610,W,1,10,1.4,13,M,,M,,*6B
06/25/2015	16:04:27.539	$GPGGA,160428,2534.7332,N,07947.2619,W,1,10,1.4,13,M,,M,,*6B
06/25/2015	16:04:28.499	$GPGGA,160429,2534.7347,N,07947.2628,W,1,10,1.4,13,M,,M,,*6A
06/25/2015	16:04:29.529	$GPGGA,160430,2534.7365,N,07947.2637,W,1,10,1.4,13,M,,M,,*6C
06/25/2015	16:04:30.519	$GPGGA,160431,2534.7381,N,07947.2646,W,1,10,1.4,13,M,,M,,*61
06/25/2015	16:04:31.561	$GPGGA,160432,2534.7397,N,07947.2655,W,1,10,1.4,13,M,,M,,*67
06/25/2015	16:04:32.619	$GPGGA,160433,2534.7414,N,07947.2664,W,1,10,1.4,13,M,,M,,*68
06/25/2015	16:04:33.509	$GPGGA,160434,2534.7430,N,07947.2673,W,1,10,1.4,13,M,,M,,*6F
06/25/2015	16:04:34.489	$GPGGA,160435,2534.7447,N,07947.2682,W,1,10,1.4,13,M,,M,,*60
06/25/2015	16:04:35.519	$GPGGA,160436,2534.7464,N,07947.2691,W,1,10,1.4,13,M,,M,,*60
06/25/2015	16:04:36.489	$GPGGA,160437,2534.7480,N,07947.2700,W,1,10,1.4,13,M,,M,,*62
06/25/2015	16:04:37.619	$GPGGA,160438,2534.7497,N,07947.2710,W,1,10,1.4,13,M,,M,,*6A
06/25/2015	16:04:38.499	$GPGGA,160439,2534.7513,N,07947.2718,W,1,10,1.4,13,M,,M,,*6E
06/25/2015	16:04:39.499	$GPGGA,160440,2534.7530,N,07947.2728,W,1,10,1.4,13,M,,M,,*62
06/25/2015	16:04:40.480	$GPGGA,160441,2534.7545,N,07947.2735,W,1,10,1.5,13,M,,M,,*6C
06/25/2015	16:04:41.480	$GPGGA,160442,2534.7563,N,07947.2746,W,1,9,1.5,13,M,,M,,*57
06/25/2015	16:04:42.480	$GPGGA,160443,2534.7581,N,07947.2754,W,1,9,1.4,13,M,,M,,*58
06/25/2015	16:04:43.619	$GPGGA,160444,2534.7598,N,07947.2764,W,1,10,1.4,13,M,,M,,*6C
06/25/2015	16:04:44.579	$GPGGA,160445,2534.7616,N,07947.2772,W,1,10,1.4,13,M,,M,,*6F
06/25/2015	16:04:45.579	$GPGGA,160446,2534.7632,N,07947.2782,W,1,10,1.4,13,M,,M,,*65
06/25/2015	16:04:46.569	$GPGGA,160447,2534.7650,N,07947.2790,W,1,10,1.4,13,M,,M,,*63
06/25/2015	16:04:47.639	$GPGGA,160448,2534.7668,N,07947.2800,W,1,10,1.4,13,M,,M,,*61
06/25/2015	16:04:48.569	$GPGGA,160449,2534.7685,N,07947.2807,W,1,10,1.4,13,M,,M,,*64
06/25/2015	16:04:49.561	$GPGGA,160450,2534.7703,N,07947.2816,W,1,10,1.4,13,M,,M,,*63
06/25/2015	16:04:50.564	$GPGGA,160451,2534.7719,N,07947.2825,W,1,10,1.4,13,M,,M,,*69
06/25/2015	16:04:51.599	$GPGGA,160452,2534.7737,N,07947.2833,W,1,10,1.4,13,M,,M,,*61
06/25/2015	16:04:52.549	$GPGGA,160453,2534.7755,N,07947.2841,W,1,10,1.4,13,M,,M,,*61
06/25/2015	16:04:53.569	$GPGGA,160454,2534.7772,N,07947.2850,W,1,10,1.4,13,M,,M,,*63
06/25/2015	16:04:54.557	$GPGGA,160455,2534.7790,N,07947.2858,W,1,10,1.4,13,M,,M,,*66
06/25/2015	16:04:55.579	$GPGGA,160456,2534.7807,N,07947.2866,W,1,10,1.6,13,M,,M,,*6B
06/25/2015	16:04:56.549	$GPGGA,160457,2534.7823,N,07947.2876,W,1,10,1.7,13,M,,M,,*6C
06/25/2015	16:04:57.559	$GPGGA,160458,2534.7841,N,07947.2883,W,1,8,1.7,13,M,,M,,*54
06/25/2015	16:04:58.554	$GPGGA,160459,2534.7859,N,07947.2891,W,1,8,1.6,14,M,,M,,*59
06/25/2015	16:04:59.590	$GPGGA,160500,2534.7877,N,07947.2898,W,1,9,1.4,14,M,,M,,*52
06/25/2015	16:05:00.540	$GPGGA,160501,2534.7895,N,07947.2906,W,1,9,1.4,14,M,,M,,*59
06/25/2015	16:05:01.560	$GPGGA,160502,2534.7913,N,07947.2913,W,1,10,1.4,14,M,,M,,*69
06/25/2015	16:05:02.539	$GPGGA,160503,2534.7931,N,07947.2920,W,1,10,1.6,14,M,,M,,*6A
06/25/2015	16:05:03.569	$GPGGA,160504,2534.7948,N,07947.2930,W,1,9,1.4,14,M,,M,,*58
06/25/2015	16:05:04.562	$GPGGA,160505,2534.7967,N,07947.2937,W,1,9,1.4,14,M,,M,,*53
06/25/2015	16:05:05.550	$GPGGA,160506,2534.7985,N,07947.2944,W,1,10,1.4,14,M,,M,,*60
06/25/2015	16:05:06.529	$GPGGA,160507,2534.8003,N,07947.2952,W,1,10,1.6,14,M,,M,,*6C
06/25/2015	16:05:07.551	$GPGGA,160508,2534.8019,N,07947.2959,W,1,9,1.6,15,M,,M,,*5A
06/25/2015	16:05:08.529	$GPGGA,160509,2534.8037,N,07947.2967,W,1,9,1.6,15,M,,M,,*5A
06/25/2015	16:05:09.529	$GPGGA,160510,2534.8055,N,07947.2975,W,1,9,1.6,15,M,,M,,*55
06/25/2015	16:05:10.529	$GPGGA,160511,2534.8073,N,07947.2984,W,1,9,1.6,15,M,,M,,*5E
06/25/2015	16:05:11.529	$GPGGA,160512,2534.8091,N,07947.2992,W,1,9,1.6,15,M,,M,,*56
06/25/2015	16:05:12.509	$GPGGA,160513,2534.8109,N,07947.3000,W,1,9,1.6,15,M,,M,,*54
06/25/2015	16:05:13.529	$GPGGA,160514,2534.8126,N,07947.3007,W,1,9,1.6,15,M,,M,,*59
06/25/2015	16:05:14.499	$GPGGA,160515,2534.8144,N,07947.3017,W,1,9,1.6,15,M,,M,,*5D
06/25/2015	16:05:15.540	$GPGGA,160516,2534.8162,N,07947.3024,W,1,9,1.6,15,M,,M,,*5A
06/25/2015	16:05:16.620	$GPGGA,160517,2534.8180,N,07947.3032,W,1,9,1.6,15,M,,M,,*50
06/25/2015	16:05:17.530	$GPGGA,160518,2534.8196,N,07947.3040,W,1,9,1.6,15,M,,M,,*5D
06/25/2015	16:05:18.510	$GPGGA,160519,2534.8214,N,07947.3047,W,1,9,1.6,15,M,,M,,*52
06/25/2015	16:05:19.529	$GPGGA,160520,2534.8232,N,07947.3056,W,1,9,1.6,15,M,,M,,*5C
06/25/2015	16:05:20.489	$GPGGA,160521,2534.8250,N,07947.3063,W,1,9,1.6,15,M,,M,,*5F
06/25/2015	16:05:21.509	$GPGGA,160522,2534.8268,N,07947.3071,W,1,9,1.6,15,M,,M,,*54
06/25/2015	16:05:22.619	$GPGGA,160523,2534.8286,N,07947.3078,W,1,9,1.4,15,M,,M,,*5E
06/25/2015	16:05:23.560	$GPGGA,160524,2534.8304,N,07947.3086,W,1,10,1.6,15,M,,M,,*69
06/25/2015	16:05:24.499	$GPGGA,160525,2534.8322,N,07947.3094,W,1,10,1.6,15,M,,M,,*6F
06/25/2015	16:05:25.509	$GPGGA,160526,2534.8340,N,07947.3103,W,1,9,1.6,15,M,,M,,*5F
06/25/2015	16:05:26.579	$GPGGA,160527,2534.8358,N,07947.3108,W,1,9,1.6,15,M,,M,,*5C
06/25/2015	16:05:27.549	$GPGGA,160528,2534.8375,N,07947.3118,W,1,10,1.4,15,M,,M,,*67
06/25/2015	16:05:28.569	$GPGGA,160529,2534.8391,N,07947.3125,W,1,10,1.4,15,M,,M,,*62
06/25/2015	16:05:29.569	$GPGGA,160530,2534.8409,N,07947.3132,W,1,10,1.4,16,M,,M,,*69
06/25/2015	16:05:30.499	$GPGGA,160531,2534.8427,N,07947.3140,W,1,10,1.4,16,M,,M,,*61
06/25/2015	16:05:31.619	$GPGGA,160532,2534.8445,N,07947.3147,W,1,10,1.4,16,M,,M,,*61
06/25/2015	16:05:32.569	$GPGGA,160533,2534.8463,N,07947.3155,W,1,10,1.4,16,M,,M,,*67
06/25/2015	16:05:33.600	$GPGGA,160534,2534.8481,N,07947.3162,W,1,10,1.4,16,M,,M,,*68
06/25/2015	16:05:34.570	$GPGGA,160535,2534.8499,N,07947.3169,W,1,10,1.4,16,M,,M,,*6B
06/25/2015	16:05:35.600	$GPGGA,160536,2534.8517,N,07947.3176,W,1,10,1.4,16,M,,M,,*61
06/25/2015	16:05:36.550	$GPGGA,160537,2534.8534,N,07947.3184,W,1,10,1.4,16,M,,M,,*6C
06/25/2015	16:05:37.561	$GPGGA,160538,2534.8553,N,07947.3191,W,1,10,1.4,16,M,,M,,*66
06/25/2015	16:05:38.563	$GPGGA,160539,2534.8571,N,07947.3199,W,1,10,1.4,16,M,,M,,*6F
06/25/2015	16:05:39.569	$GPGGA,160540,2534.8589,N,07947.3206,W,1,10,1.4,16,M,,M,,*63
06/25/2015	16:05:40.567	$GPGGA,160541,2534.8607,N,07947.3213,W,1,10,1.4,16,M,,M,,*63
06/25/2015	16:05:41.539	$GPGGA,160542,2534.8625,N,07947.3220,W,1,10,1.4,16,M,,M,,*60
06/25/2015	16:05:43.609	$GPGGA,160544,2534.8661,N,07947.3235,W,1,10,1.4,16,M,,M,,*62
06/25/2015	16:05:44.549	$GPGGA,160545,2534.8679,N,07947.3242,W,1,10,1.4,16,M,,M,,*6A
06/25/2015	16:05:45.562	$GPGGA,160546,2534.8698,N,07947.3249,W,1,10,1.4,16,M,,M,,*6D
06/25/2015	16:05:46.552	$GPGGA,160547,2534.8716,N,07947.3258,W,1,10,1.4,16,M,,M,,*6B
06/25/2015	16:05:47.579	$GPGGA,160548,2534.8734,N,07947.3264,W,1,10,1.4,16,M,,M,,*6B
06/25/2015	16:05:48.539	$GPGGA,160549,2534.8752,N,07947.3271,W,1,10,1.4,16,M,,M,,*6E
06/25/2015	16:05:49.529	$GPGGA,160550,2534.8770,N,07947.3278,W,1,10,1.4,16,M,,M,,*6F
06/25/2015	16:05:50.540	$GPGGA,160551,2534.8790,N,07947.3287,W,1,10,1.4,16,M,,M,,*60
06/25/2015	16:05:51.570	$GPGGA,160552,2534.8808,N,07947.3295,W,1,10,1.4,16,M,,M,,*6E
06/25/2015	16:05:52.520	$GPGGA,160553,2534.8827,N,07947.3302,W,1,10,1.4,16,M,,M,,*6D
06/25/2015	16:05:53.520	$GPGGA,160554,2534.8845,N,07947.3307,W,1,10,1.4,16,M,,M,,*6B
06/25/2015	16:05:54.529	$GPGGA,160555,2534.8864,N,07947.3314,W,1,10,1.4,16,M,,M,,*6B
06/25/2015	16:05:55.539	$GPGGA,160556,2534.8882,N,07947.3322,W,1,10,1.4,16,M,,M,,*65
06/25/2015	16:05:56.519	$GPGGA,160557,2534.8900,N,07947.3329,W,1,10,1.4,16,M,,M,,*64
06/25/2015	16:05:57.549	$GPGGA,160558,2534.8920,N,07947.3335,W,1,10,1.4,16,M,,M,,*64
06/25/2015	16:05:58.539	$GPGGA,160559,2534.8938,N,07947.3343,W,1,10,1.4,16,M,,M,,*6D
06/25/2015	16:05:59.569	$GPGGA,160600,2534.8957,N,07947.3349,W,1,10,1.4,16,M,,M,,*61
06/25/2015	16:06:00.629	$GPGGA,160601,2534.8975,N,07947.3357,W,1,10,1.4,16,M,,M,,*6F
06/25/2015	16:06:01.529	$GPGGA,160602,2534.8994,N,07947.3364,W,1,10,1.4,16,M,,M,,*63
06/25/2015	16:06:02.499	$GPGGA,160603,2534.9012,N,07947.3371,W,1,10,1.4,16,M,,M,,*60
06/25/2015	16:06:03.550	$GPGGA,160604,2534.9030,N,07947.3378,W,1,9,1.5,16,M,,M,,*57
06/25/2015	16:06:04.499	$GPGGA,160605,2534.9048,N,07947.3385,W,1,9,1.4,16,M,,M,,*5A
06/25/2015	16:06:05.519	$GPGGA,160606,2534.9068,N,07947.3393,W,1,10,1.4,16,M,,M,,*64
06/25/2015	16:06:06.489	$GPGGA,160607,2534.9087,N,07947.3400,W,1,10,1.4,16,M,,M,,*69
06/25/2015	16:06:07.509	$GPGGA,160608,2534.9106,N,07947.3407,W,1,10,1.4,16,M,,M,,*69
06/25/2015	16:06:08.510	$GPGGA,160609,2534.9126,N,07947.3415,W,1,10,1.4,16,M,,M,,*69
06/25/2015	16:06:09.590	$GPGGA,160610,2534.9144,N,07947.3425,W,1,9,1.6,16,M,,M,,*5C
06/25/2015	16:06:10.490	$GPGGA,160611,2534.9163,N,07947.3432,W,1,9,1.4,16,M,,M,,*5C
06/25/2015	16:06:11.489	$GPGGA,160612,2534.9181,N,07947.3440,W,1,10,1.4,16,M,,M,,*6E
06/25/2015	16:06:12.489	$GPGGA,160613,2534.9200,N,07947.3448,W,1,10,1.4,16,M,,M,,*6D
06/25/2015	16:06:13.479	$GPGGA,160614,2534.9218,N,07947.3455,W,1,10,1.4,16,M,,M,,*6F
06/25/2015	16:06:14.479	$GPGGA,160615,2534.9238,N,07947.3462,W,1,10,1.4,16,M,,M,,*68
06/25/2015	16:06:15.589	$GPGGA,160616,2534.9258,N,07947.3470,W,1,9,1.4,16,M,,M,,*56
06/25/2015	16:06:16.579	$GPGGA,160617,2534.9279,N,07947.3479,W,1,9,1.4,17,M,,M,,*5C
06/25/2015	16:06:17.589	$GPGGA,160618,2534.9297,N,07947.3486,W,1,10,1.4,17,M,,M,,*6B
06/25/2015	16:06:18.579	$GPGGA,160619,2534.9315,N,07947.3493,W,1,10,1.4,17,M,,M,,*65
06/25/2015	16:06:19.579	$GPGGA,160620,2534.9334,N,07947.3498,W,1,10,1.4,17,M,,M,,*67
06/25/2015	16:06:20.571	$GPGGA,160621,2534.9355,N,07947.3505,W,1,10,1.4,17,M,,M,,*64
06/25/2015	16:06:21.579	$GPGGA,160622,2534.9375,N,07947.3512,W,1,10,1.4,17,M,,M,,*63
06/25/2015	16:06:22.579	$GPGGA,160623,2534.9394,N,07947.3519,W,1,10,1.4,17,M,,M,,*66
06/25/2015	16:06:23.589	$GPGGA,160624,2534.9413,N,07947.3526,W,1,10,1.4,17,M,,M,,*65
06/25/2015	16:06:24.549	$GPGGA,160625,2534.9434,N,07947.3533,W,1,10,1.4,17,M,,M,,*65
06/25/2015	16:06:25.570	$GPGGA,160626,2534.9452,N,07947.3538,W,1,10,1.4,17,M,,M,,*6D
06/25/2015	16:06:26.560	$GPGGA,160627,2534.9471,N,07947.3546,W,1,10,1.4,17,M,,M,,*64
06/25/2015	16:06:27.561	$GPGGA,160628,2534.9492,N,07947.3552,W,1,10,1.4,18,M,,M,,*6C
06/25/2015	16:06:28.550	$GPGGA,160629,2534.9510,N,07947.3559,W,1,10,1.4,18,M,,M,,*6D
06/25/2015	16:06:29.551	$GPGGA,160630,2534.9531,N,07947.3566,W,1,10,1.4,18,M,,M,,*6A
06/25/2015	16:06:30.554	$GPGGA,160631,2534.9550,N,07947.3573,W,1,10,1.4,18,M,,M,,*68
06/25/2015	16:06:31.579	$GPGGA,160632,2534.9568,N,07947.3580,W,1,10,1.4,18,M,,M,,*6C
06/25/2015	16:06:32.539	$GPGGA,160633,2534.9587,N,07947.3587,W,1,10,1.4,18,M,,M,,*6B
06/25/2015	16:06:33.553	$GPGGA,160634,2534.9607,N,07947.3592,W,1,10,1.4,18,M,,M,,*63
06/25/2015	16:06:34.529	$GPGGA,160635,2534.9625,N,07947.3599,W,1,10,1.4,18,M,,M,,*69
06/25/2015	16:06:35.569	$GPGGA,160636,2534.9644,N,07947.3606,W,1,10,1.4,18,M,,M,,*68
06/25/2015	16:06:36.539	$GPGGA,160637,2534.9662,N,07947.3613,W,1,10,1.4,18,M,,M,,*69
06/25/2015	16:06:37.529	$GPGGA,160638,2534.9682,N,07947.3620,W,1,10,1.4,18,M,,M,,*68
06/25/2015	16:06:38.539	$GPGGA,160639,2534.9701,N,07947.3627,W,1,10,1.4,18,M,,M,,*64
06/25/2015	16:06:39.569	$GPGGA,160640,2534.9719,N,07947.3632,W,1,10,1.4,18,M,,M,,*67
06/25/2015	16:06:40.539	$GPGGA,160641,2534.9737,N,07947.3639,W,1,10,1.4,18,M,,M,,*61
06/25/2015	16:06:41.560	$GPGGA,160642,2534.9756,N,07947.3646,W,1,10,1.4,19,M,,M,,*6C
06/25/2015	16:06:42.509	$GPGGA,160643,2534.9774,N,07947.3652,W,1,10,1.4,19,M,,M,,*68
06/25/2015	16:06:43.566	$GPGGA,160644,2534.9792,N,07947.3660,W,1,10,1.4,19,M,,M,,*66
06/25/2015	16:06:44.530	$GPGGA,160645,2534.9810,N,07947.3667,W,1,10,1.4,19,M,,M,,*65
06/25/2015	16:06:45.556	$GPGGA,160646,2534.9829,N,07947.3672,W,1,10,1.4,19,M,,M,,*68
06/25/2015	16:06:46.529	$GPGGA,160647,2534.9847,N,07947.3681,W,1,10,1.4,19,M,,M,,*6D
06/25/2015	16:06:47.519	$GPGGA,160648,2534.9865,N,07947.3686,W,1,10,1.4,19,M,,M,,*65
06/25/2015	16:06:48.519	$GPGGA,160649,2534.9883,N,07947.3693,W,1,10,1.4,19,M,,M,,*68
06/25/2015	16:06:49.539	$GPGGA,160650,2534.9903,N,07947.3699,W,1,10,1.4,19,M,,M,,*63
06/25/2015	16:06:50.499	$GPGGA,160651,2534.9922,N,07947.3707,W,1,10,1.4,19,M,,M,,*67
06/25/2015	16:06:51.519	$GPGGA,160652,2534.9940,N,07947.3714,W,1,10,1.4,19,M,,M,,*62
06/25/2015	16:06:52.499	$GPGGA,160653,2534.9958,N,07947.3719,W,1,10,1.4,19,M,,M,,*67
06/25/2015	16:06:53.619	$GPGGA,160654,2534.9977,N,07947.3726,W,1,10,1.4,19,M,,M,,*61
06/25/2015	16:06:54.499	$GPGGA,160655,2534.9995,N,07947.3732,W,1,10,1.4,19,M,,M,,*69
06/25/2015	16:06:55.499	$GPGGA,160656,2535.0013,N,07947.3740,W,1,10,1.4,19,M,,M,,*60
06/25/2015	16:06:56.589	$GPGGA,160657,2535.0031,N,07947.3747,W,1,10,1.4,19,M,,M,,*66
06/25/2015	16:06:57.489	$GPGGA,160658,2535.0051,N,07947.3754,W,1,10,1.4,19,M,,M,,*6D
06/25/2015	16:06:58.589	$GPGGA,160659,2535.0069,N,07947.3761,W,1,10,1.4,19,M,,M,,*61
06/25/2015	16:06:59.639	$GPGGA,160700,2535.0088,N,07947.3768,W,1,10,1.4,18,M,,M,,*6B
06/25/2015	16:07:00.580	$GPGGA,160701,2535.0106,N,07947.3775,W,1,10,1.4,18,M,,M,,*61
06/25/2015	16:07:01.610	$GPGGA,160702,2535.0125,N,07947.3782,W,1,10,1.4,18,M,,M,,*6B
06/25/2015	16:07:02.580	$GPGGA,160703,2535.0143,N,07947.3788,W,1,10,1.4,18,M,,M,,*60
06/25/2015	16:07:03.589	$GPGGA,160704,2535.0161,N,07947.3795,W,1,10,1.4,18,M,,M,,*6B
06/25/2015	16:07:04.579	$GPGGA,160705,2535.0179,N,07947.3801,W,1,10,1.4,18,M,,M,,*61
06/25/2015	16:07:05.599	$GPGGA,160706,2535.0197,N,07947.3808,W,1,10,1.4,18,M,,M,,*6B
06/25/2015	16:07:06.567	$GPGGA,160707,2535.0215,N,07947.3815,W,1,10,1.4,18,M,,M,,*6F
06/25/2015	16:07:07.589	$GPGGA,160708,2535.0233,N,07947.3822,W,1,10,1.4,18,M,,M,,*60
06/25/2015	16:07:08.569	$GPGGA,160709,2535.0253,N,07947.3829,W,1,10,1.4,18,M,,M,,*6C
06/25/2015	16:07:09.564	$GPGGA,160710,2535.0271,N,07947.3837,W,1,10,1.4,18,M,,M,,*6B
06/25/2015	16:07:10.563	$GPGGA,160711,2535.0290,N,07947.3844,W,1,10,1.4,18,M,,M,,*61
06/25/2015	16:07:11.569	$GPGGA,160712,2535.0308,N,07947.3851,W,1,10,1.4,18,M,,M,,*66
06/25/2015	16:07:12.549	$GPGGA,160713,2535.0326,N,07947.3856,W,1,10,1.4,18,M,,M,,*6C
06/25/2015	16:07:13.569	$GPGGA,160714,2535.0345,N,07947.3863,W,1,10,1.4,18,M,,M,,*68
06/25/2015	16:07:14.829	$GPGGA,160715,2535.0363,N,07947.3870,W,1,10,1.4,18,M,,M,,*6F
06/25/2015	16:07:15.569	$GPGGA,160716,2535.0381,N,07947.3877,W,1,10,1.4,18,M,,M,,*67
06/25/2015	16:07:16.529	$GPGGA,160717,2535.0399,N,07947.3884,W,1,10,1.4,18,M,,M,,*63
06/25/2015	16:07:17.554	$GPGGA,160718,2535.0417,N,07947.3891,W,1,10,1.4,18,M,,M,,*69
06/25/2015	16:07:18.529	$GPGGA,160719,2535.0435,N,07947.3898,W,1,10,1.4,18,M,,M,,*61
06/25/2015	16:07:19.559	$GPGGA,160720,2535.0453,N,07947.3905,W,1,10,1.4,18,M,,M,,*6E
06/25/2015	16:07:20.529	$GPGGA,160721,2535.0472,N,07947.3912,W,1,10,1.4,17,M,,M,,*65
06/25/2015	16:07:21.548	$GPGGA,160722,2535.0490,N,07947.3918,W,1,10,1.4,17,M,,M,,*60
06/25/2015	16:07:22.528	$GPGGA,160723,2535.0508,N,07947.3925,W,1,10,1.4,17,M,,M,,*6F
06/25/2015	16:07:23.552	$GPGGA,160724,2535.0526,N,07947.3932,W,1,10,1.4,17,M,,M,,*62
06/25/2015	16:07:24.528	$GPGGA,160725,2535.0546,N,07947.3938,W,1,10,1.4,17,M,,M,,*6F
06/25/2015	16:07:25.538	$GPGGA,160726,2535.0564,N,07947.3945,W,1,10,1.4,17,M,,M,,*66
06/25/2015	16:07:26.518	$GPGGA,160727,2535.0583,N,07947.3953,W,1,10,1.4,17,M,,M,,*69
06/25/2015	16:07:27.538	$GPGGA,160728,2535.0601,N,07947.3960,W,1,10,1.4,17,M,,M,,*6F
06/25/2015	16:07:28.509	$GPGGA,160729,2535.0619,N,07947.3967,W,1,10,1.4,17,M,,M,,*60
06/25/2015	16:07:29.509	$GPGGA,160730,2535.0638,N,07947.3974,W,1,10,1.4,17,M,,M,,*69
06/25/2015	16:07:30.519	$GPGGA,160731,2535.0655,N,07947.3981,W,1,10,1.4,17,M,,M,,*69
06/25/2015	16:07:31.552	$GPGGA,160732,2535.0674,N,07947.3988,W,1,10,1.4,17,M,,M,,*60
06/25/2015	16:07:32.999	$GPGGA,160733,2535.0692,N,07947.3993,W,1,10,1.4,17,M,,M,,*63
06/25/2015	16:07:33.529	$GPGGA,160734,2535.0710,N,07947.4000,W,1,10,1.4,17,M,,M,,*6B
06/25/2015	16:07:34.639	$GPGGA,160735,2535.0728,N,07947.4008,W,1,10,1.4,17,M,,M,,*69
06/25/2015	16:07:35.689	$GPGGA,160736,2535.0748,N,07947.4014,W,1,10,1.4,17,M,,M,,*61
06/25/2015	16:07:36.519	$GPGGA,160737,2535.0767,N,07947.4021,W,1,10,1.4,17,M,,M,,*6B
06/25/2015	16:07:37.679	$GPGGA,160738,2535.0785,N,07947.4028,W,1,10,1.4,17,M,,M,,*61
06/25/2015	16:07:38.488	$GPGGA,160739,2535.0804,N,07947.4035,W,1,10,1.4,17,M,,M,,*6A
06/25/2015	16:07:39.545	$GPGGA,160740,2535.0822,N,07947.4042,W,1,10,1.4,17,M,,M,,*60
06/25/2015	16:07:40.498	$GPGGA,160741,2535.0840,N,07947.4048,W,1,10,1.4,16,M,,M,,*6E
06/25/2015	16:07:41.678	$GPGGA,160742,2535.0858,N,07947.4055,W,1,10,1.4,16,M,,M,,*68
06/25/2015	16:07:42.488	$GPGGA,160743,2535.0878,N,07947.4062,W,1,10,1.4,16,M,,M,,*6F
06/25/2015	16:07:43.508	$GPGGA,160744,2535.0896,N,07947.4068,W,1,10,1.4,16,M,,M,,*62
06/25/2015	16:07:44.498	$GPGGA,160745,2535.0915,N,07947.4075,W,1,10,1.4,16,M,,M,,*65
06/25/2015	16:07:45.489	$GPGGA,160746,2535.0934,N,07947.4082,W,1,10,1.4,16,M,,M,,*6D
06/25/2015	16:07:46.489	$GPGGA,160747,2535.0952,N,07947.4090,W,1,10,1.4,16,M,,M,,*6F
06/25/2015	16:07:47.689	$GPGGA,160748,2535.0970,N,07947.4097,W,1,10,1.5,16,M,,M,,*66
06/25/2015	16:07:48.489	$GPGGA,160749,2535.0990,N,07947.4104,W,1,10,1.5,16,M,,M,,*62
06/25/2015	16:07:49.659	$GPGGA,160750,2535.1009,N,07947.4111,W,1,10,1.4,16,M,,M,,*67
06/25/2015	16:07:50.609	$GPGGA,160751,2535.1027,N,07947.4118,W,1,10,1.4,16,M,,M,,*63
06/25/2015	16:07:51.669	$GPGGA,160752,2535.1046,N,07947.4124,W,1,10,1.4,16,M,,M,,*68
06/25/2015	16:07:52.555	$GPGGA,160753,2535.1064,N,07947.4131,W,1,10,1.4,16,M,,M,,*6D
06/25/2015	16:07:53.663	$GPGGA,160754,2535.1082,N,07947.4138,W,1,10,1.4,16,M,,M,,*6B
06/25/2015	16:07:54.579	$GPGGA,160755,2535.1102,N,07947.4145,W,1,10,1.4,16,M,,M,,*69
06/25/2015	16:07:55.669	$GPGGA,160756,2535.1121,N,07947.4152,W,1,10,1.4,16,M,,M,,*6D
06/25/2015	16:07:56.598	$GPGGA,160757,2535.1140,N,07947.4158,W,1,10,1.4,16,M,,M,,*61
06/25/2015	16:07:57.655	$GPGGA,160758,2535.1158,N,07947.4165,W,1,9,1.4,16,M,,M,,*51
06/25/2015	16:07:58.578	$GPGGA,160759,2535.1178,N,07947.4173,W,1,9,1.4,16,M,,M,,*55
06/25/2015	16:07:59.654	$GPGGA,160800,2535.1196,N,07947.4180,W,1,9,1.4,16,M,,M,,*5A
06/25/2015	16:08:00.568	$GPGGA,160801,2535.1216,N,07947.4185,W,1,9,1.4,16,M,,M,,*55
06/25/2015	16:08:01.608	$GPGGA,160802,2535.1234,N,07947.4192,W,1,10,1.4,16,M,,M,,*68
06/25/2015	16:08:02.568	$GPGGA,160803,2535.1254,N,07947.4199,W,1,10,1.4,16,M,,M,,*64
06/25/2015	16:08:04.609	$GPGGA,160805,2535.1292,N,07947.4212,W,1,10,1.4,16,M,,M,,*68
06/25/2015	16:08:05.629	$GPGGA,160806,2535.1310,N,07947.4220,W,1,9,1.4,16,M,,M,,*59
06/25/2015	16:08:06.559	$GPGGA,160807,2535.1330,N,07947.4227,W,1,9,1.4,16,M,,M,,*5D
06/25/2015	16:08:07.658	$GPGGA,160808,2535.1349,N,07947.4234,W,1,10,1.4,16,M,,M,,*66
06/25/2015	16:08:08.559	$GPGGA,160809,2535.1367,N,07947.4239,W,1,10,1.4,16,M,,M,,*66
06/25/2015	16:08:09.869	$GPGGA,160810,2535.1385,N,07947.4246,W,1,10,1.4,16,M,,M,,*6A
06/25/2015	16:08:10.559	$GPGGA,160811,2535.1404,N,07947.4253,W,1,10,1.4,16,M,,M,,*61
06/25/2015	16:08:11.646	$GPGGA,160812,2535.1424,N,07947.4259,W,1,10,1.4,16,M,,M,,*6A
06/25/2015	16:08:12.559	$GPGGA,160813,2535.1442,N,07947.4266,W,1,10,1.4,16,M,,M,,*67
06/25/2015	16:08:13.588	$GPGGA,160814,2535.1460,N,07947.4272,W,1,10,1.4,16,M,,M,,*65
06/25/2015	16:08:14.518	$GPGGA,160815,2535.1479,N,07947.4278,W,1,10,1.4,16,M,,M,,*66
06/25/2015	16:08:15.588	$GPGGA,160816,2535.1497,N,07947.4285,W,1,10,1.4,16,M,,M,,*67
06/25/2015	16:08:16.508	$GPGGA,160817,2535.1516,N,07947.4292,W,1,10,1.4,16,M,,M,,*68
06/25/2015	16:08:17.588	$GPGGA,160818,2535.1534,N,07947.4299,W,1,10,1.4,16,M,,M,,*6C
06/25/2015	16:08:18.498	$GPGGA,160819,2535.1552,N,07947.4304,W,1,10,1.4,16,M,,M,,*68
06/25/2015	16:08:19.518	$GPGGA,160820,2535.1570,N,07947.4311,W,1,10,1.4,16,M,,M,,*66
06/25/2015	16:08:20.629	$GPGGA,160821,2535.1588,N,07947.4317,W,1,10,1.4,16,M,,M,,*66
06/25/2015	16:08:21.619	$GPGGA,160822,2535.1608,N,07947.4324,W,1,10,1.4,16,M,,M,,*6E
06/25/2015	16:08:22.553	$GPGGA,160823,2535.1627,N,07947.4331,W,1,10,1.4,16,M,,M,,*66
06/25/2015	16:08:23.629	$GPGGA,160824,2535.1645,N,07947.4337,W,1,10,1.4,16,M,,M,,*63
06/25/2015	16:08:24.539	$GPGGA,160825,2535.1664,N,07947.4343,W,1,10,1.5,16,M,,M,,*63
06/25/2015	16:08:25.489	$GPGGA,160826,2535.1682,N,07947.4350,W,1,9,1.5,16,M,,M,,*52
06/25/2015	16:08:26.529	$GPGGA,160827,2535.1700,N,07947.4357,W,1,9,1.4,16,M,,M,,*5E
06/25/2015	16:08:27.589	$GPGGA,160828,2535.1721,N,07947.4364,W,1,10,1.6,16,M,,M,,*68
06/25/2015	16:08:28.529	$GPGGA,160829,2535.1739,N,07947.4369,W,1,10,1.6,16,M,,M,,*6D
06/25/2015	16:08:29.589	$GPGGA,160830,2535.1758,N,07947.4376,W,1,9,1.6,16,M,,M,,*54
06/25/2015	16:08:30.519	$GPGGA,160831,2535.1776,N,07947.4382,W,1,9,1.6,16,M,,M,,*52
06/25/2015	16:08:31.608	$GPGGA,160832,2535.1796,N,07947.4389,W,1,9,1.6,16,M,,M,,*54
06/25/2015	16:08:32.868	$GPGGA,160833,2535.1814,N,07947.4395,W,1,9,1.6,16,M,,M,,*5D
06/25/2015	16:08:33.568	$GPGGA,160834,2535.1833,N,07947.4402,W,1,9,1.6,16,M,,M,,*56
06/25/2015	16:08:34.578	$GPGGA,160835,2535.1852,N,07947.4409,W,1,9,1.6,16,M,,M,,*5B
06/25/2015	16:08:35.628	$GPGGA,160836,2535.1870,N,07947.4415,W,1,9,1.6,16,M,,M,,*55
06/25/2015	16:08:36.860	$GPGGA,160837,2535.1890,N,07947.4422,W,1,9,1.6,16,M,,M,,*5E
06/25/2015	16:08:37.558	$GPGGA,160838,2535.1909,N,07947.4429,W,1,9,1.6,16,M,,M,,*5B
06/25/2015	16:08:38.569	$GPGGA,160839,2535.1927,N,07947.4436,W,1,9,1.6,16,M,,M,,*58
06/25/2015	16:08:39.589	$GPGGA,160840,2535.1945,N,07947.4444,W,1,9,1.6,16,M,,M,,*57
06/25/2015	16:08:40.559	$GPGGA,160841,2535.1964,N,07947.4449,W,1,9,1.6,16,M,,M,,*58
06/25/2015	16:08:41.609	$GPGGA,160842,2535.1982,N,07947.4455,W,1,9,1.6,17,M,,M,,*5F
06/25/2015	16:08:42.549	$GPGGA,160843,2535.2000,N,07947.4462,W,1,9,1.6,17,M,,M,,*5A
06/25/2015	16:08:43.599	$GPGGA,160844,2535.2020,N,07947.4469,W,1,9,1.6,17,M,,M,,*54
06/25/2015	16:08:44.549	$GPGGA,160845,2535.2039,N,07947.4476,W,1,9,1.6,17,M,,M,,*53
06/25/2015	16:08:45.559	$GPGGA,160846,2535.2057,N,07947.4483,W,1,9,1.6,17,M,,M,,*52
06/25/2015	16:08:46.539	$GPGGA,160847,2535.2075,N,07947.4491,W,1,9,1.6,17,M,,M,,*50
06/25/2015	16:08:47.589	$GPGGA,160848,2535.2093,N,07947.4498,W,1,9,1.6,17,M,,M,,*5E
06/25/2015	16:08:48.539	$GPGGA,160849,2535.2112,N,07947.4505,W,1,9,1.6,17,M,,M,,*52
06/25/2015	16:08:49.618	$GPGGA,160850,2535.2130,N,07947.4510,W,1,9,1.6,17,M,,M,,*5E
06/25/2015	16:08:50.538	$GPGGA,160851,2535.2148,N,07947.4519,W,1,9,1.6,17,M,,M,,*59
06/25/2015	16:08:51.588	$GPGGA,160852,2535.2166,N,07947.4525,W,1,9,1.6,17,M,,M,,*59
06/25/2015	16:08:52.529	$GPGGA,160853,2535.2186,N,07947.4532,W,1,9,1.6,17,M,,M,,*50
06/25/2015	16:08:53.568	$GPGGA,160854,2535.2204,N,07947.4538,W,1,9,1.6,17,M,,M,,*54
06/25/2015	16:08:54.518	$GPGGA,160855,2535.2222,N,07947.4545,W,1,9,1.6,17,M,,M,,*5B
06/25/2015	16:08:55.569	$GPGGA,160856,2535.2240,N,07947.4552,W,1,9,1.6,17,M,,M,,*5A
06/25/2015	16:08:56.519	$GPGGA,160857,2535.2259,N,07947.4559,W,1,9,1.6,17,M,,M,,*58
06/25/2015	16:08:57.559	$GPGGA,160858,2535.2278,N,07947.4566,W,1,9,1.6,17,M,,M,,*58
06/25/2015	16:08:58.529	$GPGGA,160859,2535.2296,N,07947.4574,W,1,9,1.6,17,M,,M,,*5A
06/25/2015	16:08:59.629	$GPGGA,160900,2535.2314,N,07947.4581,W,1,9,1.6,17,M,,M,,*56
06/25/2015	16:09:00.519	$GPGGA,160901,2535.2332,N,07947.4586,W,1,9,1.6,17,M,,M,,*54
06/25/2015	16:09:01.569	$GPGGA,160902,2535.2350,N,07947.4595,W,1,9,1.6,17,M,,M,,*51
06/25/2015	16:09:02.542	$GPGGA,160903,2535.2368,N,07947.4602,W,1,9,1.6,17,M,,M,,*56
06/25/2015	16:09:03.569	$GPGGA,160904,2535.2368,N,07947.4602,W,1,9,1.6,17,M,,M,,*51
06/25/2015	16:09:04.509	$GPGGA,160905,2535.2406,N,07947.4617,W,1,9,1.6,17,M,,M,,*5B
06/25/2015	16:09:05.609	$GPGGA,160906,2535.2406,N,07947.4617,W,1,9,1.6,17,M,,M,,*58
06/25/2015	16:09:06.518	$GPGGA,160907,2535.2424,N,07947.4624,W,1,9,1.6,17,M,,M,,*59
06/25/2015	16:09:07.546	$GPGGA,160908,2535.2443,N,07947.4631,W,1,9,1.6,17,M,,M,,*53
06/25/2015	16:09:08.498	$GPGGA,160909,2535.2479,N,07947.4644,W,1,9,1.6,17,M,,M,,*59
06/25/2015	16:09:09.508	$GPGGA,160910,2535.2479,N,07947.4644,W,1,9,1.6,17,M,,M,,*51
06/25/2015	16:09:10.508	$GPGGA,160911,2535.2516,N,07947.4657,W,1,9,1.6,17,M,,M,,*5A
06/25/2015	16:09:11.518	$GPGGA,160912,2535.2516,N,07947.4657,W,1,9,1.6,17,M,,M,,*59
06/25/2015	16:09:12.518	$GPGGA,160913,2535.2553,N,07947.4671,W,1,9,1.6,17,M,,M,,*5D
06/25/2015	16:09:13.609	$GPGGA,160914,2535.2571,N,07947.4678,W,1,9,1.6,17,M,,M,,*53
06/25/2015	16:09:14.489	$GPGGA,160915,2535.2589,N,07947.4686,W,1,9,1.6,17,M,,M,,*54
06/25/2015	16:09:15.519	$GPGGA,160916,2535.2589,N,07947.4686,W,1,9,1.6,17,M,,M,,*57
06/25/2015	16:09:16.489	$GPGGA,160917,2535.2627,N,07947.4698,W,1,9,1.6,17,M,,M,,*5E
06/25/2015	16:09:17.479	$GPGGA,160918,2535.2627,N,07947.4698,W,1,9,1.6,17,M,,M,,*51
06/25/2015	16:09:18.489	$GPGGA,160919,2535.2645,N,07947.4705,W,1,9,1.6,17,M,,M,,*51
06/25/2015	16:09:19.509	$GPGGA,160920,2535.2663,N,07947.4714,W,1,9,1.6,17,M,,M,,*5F
06/25/2015	16:09:20.569	$GPGGA,160921,2535.2700,N,07947.4726,W,1,9,1.6,17,M,,M,,*5B
06/25/2015	16:09:21.609	$GPGGA,160922,2535.2718,N,07947.4733,W,1,9,1.6,17,M,,M,,*55
06/25/2015	16:09:22.499	$GPGGA,160923,2535.2718,N,07947.4733,W,1,9,1.6,17,M,,M,,*54
06/25/2015	16:09:23.578	$GPGGA,160924,2535.2755,N,07947.4745,W,1,9,1.6,17,M,,M,,*5B
06/25/2015	16:09:24.568	$GPGGA,160925,2535.2773,N,07947.4752,W,1,9,1.6,16,M,,M,,*59
06/25/2015	16:09:25.578	$GPGGA,160926,2535.2791,N,07947.4759,W,1,9,1.6,16,M,,M,,*5D
06/25/2015	16:09:26.558	$GPGGA,160927,2535.2809,N,07947.4766,W,1,9,1.6,16,M,,M,,*5E
06/25/2015	16:09:27.578	$GPGGA,160928,2535.2829,N,07947.4772,W,1,9,1.6,16,M,,M,,*56
06/25/2015	16:09:28.558	$GPGGA,160929,2535.2848,N,07947.4780,W,1,9,1.6,16,M,,M,,*5D
06/25/2015	16:09:29.568	$GPGGA,160930,2535.2867,N,07947.4785,W,1,8,1.7,16,M,,M,,*5D
06/25/2015	16:09:30.559	$GPGGA,160931,2535.2887,N,07947.4791,W,1,8,1.6,16,M,,M,,*56
06/25/2015	16:09:31.589	$GPGGA,160932,2535.2906,N,07947.4798,W,1,9,1.6,16,M,,M,,*55
06/25/2015	16:09:32.551	$GPGGA,160933,2535.2924,N,07947.4805,W,1,9,1.7,16,M,,M,,*5E
06/25/2015	16:09:33.539	$GPGGA,160934,2535.2942,N,07947.4812,W,1,9,1.6,16,M,,M,,*5E
06/25/2015	16:09:34.540	$GPGGA,160935,2535.2960,N,07947.4819,W,1,9,1.6,16,M,,M,,*54
06/25/2015	16:09:35.579	$GPGGA,160936,2535.2979,N,07947.4824,W,1,9,1.6,16,M,,M,,*51
06/25/2015	16:09:36.539	$GPGGA,160937,2535.2997,N,07947.4830,W,1,9,1.6,16,M,,M,,*55
06/25/2015	16:09:37.529	$GPGGA,160938,2535.3015,N,07947.4838,W,1,9,1.6,16,M,,M,,*50
06/25/2015	16:09:38.541	$GPGGA,160939,2535.3035,N,07947.4845,W,1,9,1.6,16,M,,M,,*59
06/25/2015	16:09:39.569	$GPGGA,160940,2535.3055,N,07947.4850,W,1,9,1.6,16,M,,M,,*55
06/25/2015	16:09:40.529	$GPGGA,160941,2535.3073,N,07947.4856,W,1,9,1.7,16,M,,M,,*57
06/25/2015	16:09:41.552	$GPGGA,160942,2535.3094,N,07947.4863,W,1,9,1.6,16,M,,M,,*5A
06/25/2015	16:09:42.528	$GPGGA,160943,2535.3112,N,07947.4868,W,1,9,1.7,16,M,,M,,*5E
06/25/2015	16:09:43.558	$GPGGA,160944,2535.3130,N,07947.4875,W,1,9,1.6,16,M,,M,,*54
06/25/2015	16:09:44.528	$GPGGA,160945,2535.3151,N,07947.4881,W,1,9,1.7,16,M,,M,,*58
06/25/2015	16:09:45.518	$GPGGA,160946,2535.3167,N,07947.4888,W,1,9,1.6,16,M,,M,,*56
06/25/2015	16:09:46.528	$GPGGA,160947,2535.3187,N,07947.4895,W,1,9,1.6,16,M,,M,,*55
06/25/2015	16:09:47.558	$GPGGA,160948,2535.3206,N,07947.4902,W,1,9,1.6,16,M,,M,,*5F
06/25/2015	16:09:48.529	$GPGGA,160949,2535.3227,N,07947.4908,W,1,9,1.7,16,M,,M,,*56
06/25/2015	16:09:49.509	$GPGGA,160950,2535.3245,N,07947.4917,W,1,9,1.6,17,M,,M,,*54
06/25/2015	16:09:50.509	$GPGGA,160951,2535.3263,N,07947.4922,W,1,9,1.6,17,M,,M,,*57
06/25/2015	16:09:51.540	$GPGGA,160952,2535.3282,N,07947.4929,W,1,9,1.6,17,M,,M,,*50
06/25/2015	16:09:52.499	$GPGGA,160953,2535.3300,N,07947.4936,W,1,9,1.6,17,M,,M,,*54
06/25/2015	16:09:53.499	$GPGGA,160954,2535.3318,N,07947.4943,W,1,9,1.6,17,M,,M,,*58
06/25/2015	16:09:54.519	$GPGGA,160955,2535.3336,N,07947.4950,W,1,9,1.6,17,M,,M,,*57
06/25/2015	16:09:55.542	$GPGGA,160956,2535.3355,N,07947.4957,W,1,9,1.6,17,M,,M,,*56
06/25/2015	16:09:56.510	$GPGGA,160957,2535.3375,N,07947.4964,W,1,9,1.6,17,M,,M,,*55
06/25/2015	16:09:57.519	$GPGGA,160958,2535.3394,N,07947.4971,W,1,9,1.6,17,M,,M,,*51
06/25/2015	16:09:58.488	$GPGGA,160959,2535.3412,N,07947.4976,W,1,9,1.6,17,M,,M,,*5E
06/25/2015	16:09:59.558	$GPGGA,161000,2535.3430,N,07947.4983,W,1,9,1.6,17,M,,M,,*50
06/25/2015	16:10:00.498	$GPGGA,161001,2535.3449,N,07947.4990,W,1,9,1.6,17,M,,M,,*5D
06/25/2015	16:10:01.498	$GPGGA,161002,2535.3469,N,07947.4996,W,1,9,1.6,17,M,,M,,*5A
06/25/2015	16:10:02.598	$GPGGA,161003,2535.3488,N,07947.5004,W,1,9,1.6,17,M,,M,,*57
06/25/2015	16:10:03.598	$GPGGA,161004,2535.3506,N,07947.5011,W,1,9,1.6,17,M,,M,,*53
06/25/2015	16:10:04.498	$GPGGA,161005,2535.3524,N,07947.5018,W,1,9,1.6,17,M,,M,,*5B
06/25/2015	16:10:05.579	$GPGGA,161006,2535.3544,N,07947.5023,W,1,9,1.6,17,M,,M,,*56
06/25/2015	16:10:06.579	$GPGGA,161007,2535.3561,N,07947.5030,W,1,9,1.6,17,M,,M,,*52
06/25/2015	16:10:07.589	$GPGGA,161008,2535.3581,N,07947.5037,W,1,9,1.6,17,M,,M,,*54
06/25/2015	16:10:08.579	$GPGGA,161009,2535.3599,N,07947.5044,W,1,9,1.6,17,M,,M,,*58
06/25/2015	16:10:09.479	$GPGGA,161010,2535.3618,N,07947.5051,W,1,9,1.6,17,M,,M,,*5E
06/25/2015	16:10:10.569	$GPGGA,161011,2535.3636,N,07947.5058,W,1,9,1.6,17,M,,M,,*5A
06/25/2015	16:10:11.589	$GPGGA,161012,2535.3654,N,07947.5065,W,1,9,1.6,17,M,,M,,*53
06/25/2015	16:10:12.569	$GPGGA,161013,2535.3672,N,07947.5072,W,1,9,1.6,17,M,,M,,*50
06/25/2015	16:10:13.589	$GPGGA,161014,2535.3691,N,07947.5079,W,1,9,1.6,17,M,,M,,*51
06/25/2015	16:10:14.559	$GPGGA,161015,2535.3711,N,07947.5084,W,1,9,1.6,17,M,,M,,*5B
06/25/2015	16:10:15.559	$GPGGA,161016,2535.3729,N,07947.5091,W,1,9,1.6,17,M,,M,,*57
06/25/2015	16:10:16.556	$GPGGA,161017,2535.3747,N,07947.5098,W,1,9,1.6,17,M,,M,,*57
06/25/2015	16:10:17.558	$GPGGA,161018,2535.3766,N,07947.5105,W,1,9,1.6,17,M,,M,,*5E
06/25/2015	16:10:18.548	$GPGGA,161019,2535.3784,N,07947.5112,W,1,9,1.6,17,M,,M,,*55
06/25/2015	16:10:19.578	$GPGGA,161020,2535.3803,N,07947.5119,W,1,9,1.6,16,M,,M,,*55
06/25/2015	16:10:20.549	$GPGGA,161021,2535.3823,N,07947.5126,W,1,9,1.6,16,M,,M,,*5A
06/25/2015	16:10:21.558	$GPGGA,161022,2535.3842,N,07947.5133,W,1,9,1.6,16,M,,M,,*5A
06/25/2015	16:10:22.538	$GPGGA,161023,2535.3860,N,07947.5139,W,1,9,1.6,16,M,,M,,*51
06/25/2015	16:10:23.569	$GPGGA,161024,2535.3878,N,07947.5146,W,1,9,1.6,16,M,,M,,*57
06/25/2015	16:10:24.551	$GPGGA,161025,2535.3898,N,07947.5153,W,1,9,1.6,16,M,,M,,*5C
06/25/2015	16:10:25.551	$GPGGA,161026,2535.3915,N,07947.5160,W,1,9,1.6,16,M,,M,,*5B
06/25/2015	16:10:26.529	$GPGGA,161027,2535.3935,N,07947.5167,W,1,9,1.6,16,M,,M,,*5F
06/25/2015	16:10:27.539	$GPGGA,161028,2535.3954,N,07947.5173,W,1,9,1.6,16,M,,M,,*52
06/25/2015	16:10:28.529	$GPGGA,161029,2535.3972,N,07947.5181,W,1,9,1.6,16,M,,M,,*5A
06/25/2015	16:10:29.519	$GPGGA,161030,2535.3990,N,07947.5188,W,1,9,1.6,16,M,,M,,*57
06/25/2015	16:10:30.529	$GPGGA,161031,2535.4010,N,07947.5195,W,1,9,1.6,16,M,,M,,*5C
06/25/2015	16:10:31.569	$GPGGA,161032,2535.4027,N,07947.5202,W,1,9,1.6,16,M,,M,,*56
06/25/2015	16:10:32.529	$GPGGA,161033,2535.4047,N,07947.5210,W,1,9,1.6,16,M,,M,,*52
06/25/2015	16:10:33.562	$GPGGA,161034,2535.4066,N,07947.5215,W,1,9,1.6,16,M,,M,,*53
06/25/2015	16:10:34.509	$GPGGA,161035,2535.4084,N,07947.5222,W,1,9,1.6,16,M,,M,,*5A
06/25/2015	16:10:35.540	$GPGGA,161036,2535.4102,N,07947.5229,W,1,9,1.6,16,M,,M,,*5D
06/25/2015	16:10:36.518	$GPGGA,161037,2535.4120,N,07947.5236,W,1,9,1.6,16,M,,M,,*52
06/25/2015	16:10:37.518	$GPGGA,161038,2535.4138,N,07947.5243,W,1,9,1.6,16,M,,M,,*56
06/25/2015	16:10:38.518	$GPGGA,161039,2535.4157,N,07947.5251,W,1,9,1.6,16,M,,M,,*5D
06/25/2015	16:10:39.528	$GPGGA,161040,2535.4175,N,07947.5257,W,1,9,1.6,16,M,,M,,*55
06/25/2015	16:10:40.519	$GPGGA,161041,2535.4195,N,07947.5264,W,1,9,1.6,16,M,,M,,*5A
06/25/2015	16:10:41.519	$GPGGA,161042,2535.4213,N,07947.5271,W,1,9,1.6,16,M,,M,,*50
06/25/2015	16:10:42.519	$GPGGA,161043,2535.4231,N,07947.5278,W,1,9,1.6,16,M,,M,,*58
06/25/2015	16:10:43.553	$GPGGA,161044,2535.4250,N,07947.5285,W,1,9,1.6,16,M,,M,,*5A
06/25/2015	16:10:44.499	$GPGGA,161045,2535.4268,N,07947.5293,W,1,9,1.6,16,M,,M,,*57
06/25/2015	16:10:45.499	$GPGGA,161046,2535.4286,N,07947.5300,W,1,9,1.6,16,M,,M,,*5F
06/25/2015	16:10:46.489	$GPGGA,161047,2535.4305,N,07947.5307,W,1,9,1.7,16,M,,M,,*52
06/25/2015	16:10:47.519	$GPGGA,161048,2535.4322,N,07947.5314,W,1,9,1.6,16,M,,M,,*5B
06/25/2015	16:10:48.579	$GPGGA,161049,2535.4340,N,07947.5322,W,1,9,1.6,16,M,,M,,*5B
06/25/2015	16:10:49.619	$GPGGA,161050,2535.4358,N,07947.5330,W,1,9,1.6,16,M,,M,,*59
06/25/2015	16:10:50.499	$GPGGA,161051,2535.4376,N,07947.5337,W,1,9,1.6,16,M,,M,,*53
06/25/2015	16:10:51.618	$GPGGA,161052,2535.4394,N,07947.5345,W,1,9,1.6,16,M,,M,,*59
06/25/2015	16:10:52.498	$GPGGA,161053,2535.4412,N,07947.5352,W,1,9,1.6,16,M,,M,,*57
06/25/2015	16:10:53.578	$GPGGA,161054,2535.4431,N,07947.5358,W,1,9,1.6,16,M,,M,,*5B
06/25/2015	16:10:54.488	$GPGGA,161055,2535.4449,N,07947.5366,W,1,9,1.6,16,M,,M,,*58
06/25/2015	16:10:55.578	$GPGGA,161056,2535.4467,N,07947.5373,W,1,9,1.6,16,M,,M,,*53
06/25/2015	16:10:56.478	$GPGGA,161057,2535.4485,N,07947.5379,W,1,9,1.6,16,M,,M,,*54
06/25/2015	16:10:57.578	$GPGGA,161058,2535.4503,N,07947.5387,W,1,9,1.6,16,M,,M,,*55
06/25/2015	16:10:58.569	$GPGGA,161059,2535.4521,N,07947.5394,W,1,9,1.6,16,M,,M,,*56
06/25/2015	16:10:59.599	$GPGGA,161100,2535.4539,N,07947.5401,W,1,8,1.7,16,M,,M,,*59
06/25/2015	16:11:00.561	$GPGGA,161101,2535.4557,N,07947.5408,W,1,8,1.7,15,M,,M,,*5A
06/25/2015	16:11:01.569	$GPGGA,161102,2535.4576,N,07947.5415,W,1,8,1.7,15,M,,M,,*56
06/25/2015	16:11:02.559	$GPGGA,161103,2535.4597,N,07947.5423,W,1,8,1.6,15,M,,M,,*5C
06/25/2015	16:11:03.569	$GPGGA,161104,2535.4615,N,07947.5430,W,1,9,1.6,15,M,,M,,*51
06/25/2015	16:11:04.551	$GPGGA,161105,2535.4635,N,07947.5437,W,1,9,1.6,15,M,,M,,*55
06/25/2015	16:11:05.549	$GPGGA,161106,2535.4652,N,07947.5444,W,1,9,1.6,15,M,,M,,*53
06/25/2015	16:11:06.549	$GPGGA,161107,2535.4672,N,07947.5451,W,1,9,1.6,15,M,,M,,*54
06/25/2015	16:11:07.559	$GPGGA,161108,2535.4690,N,07947.5457,W,1,9,1.6,15,M,,M,,*51
06/25/2015	16:11:08.551	$GPGGA,161109,2535.4709,N,07947.5463,W,1,9,1.6,15,M,,M,,*56
06/25/2015	16:11:09.541	$GPGGA,161110,2535.4727,N,07947.5470,W,1,9,1.6,15,M,,M,,*50
06/25/2015	16:11:10.552	$GPGGA,161111,2535.4745,N,07947.5477,W,1,9,1.6,16,M,,M,,*51
06/25/2015	16:11:11.568	$GPGGA,161112,2535.4764,N,07947.5484,W,1,9,1.6,16,M,,M,,*5D
06/25/2015	16:11:12.538	$GPGGA,161113,2535.4782,N,07947.5491,W,1,9,1.6,16,M,,M,,*50
06/25/2015	16:11:13.549	$GPGGA,161114,2535.4802,N,07947.5499,W,1,9,1.6,16,M,,M,,*58
06/25/2015	16:11:14.528	$GPGGA,161115,2535.4821,N,07947.5506,W,1,9,1.6,16,M,,M,,*5F
06/25/2015	16:11:15.569	$GPGGA,161116,2535.4839,N,07947.5511,W,1,9,1.6,16,M,,M,,*53
06/25/2015	16:11:16.543	$GPGGA,161117,2535.4857,N,07947.5517,W,1,9,1.6,16,M,,M,,*5C
06/25/2015	16:11:17.552	$GPGGA,161118,2535.4875,N,07947.5521,W,1,8,2.2,16,M,,M,,*50
06/25/2015	16:11:18.520	$GPGGA,161119,2535.4893,N,07947.5527,W,1,8,1.6,16,M,,M,,*58
06/25/2015	16:11:19.541	$GPGGA,161120,2535.4911,N,07947.5533,W,1,9,1.6,16,M,,M,,*5D
06/25/2015	16:11:20.519	$GPGGA,161121,2535.4930,N,07947.5539,W,1,9,1.6,16,M,,M,,*55
06/25/2015	16:11:21.559	$GPGGA,161122,2535.4947,N,07947.5545,W,1,8,1.8,16,M,,M,,*52
06/25/2015	16:11:22.529	$GPGGA,161123,2535.4965,N,07947.5549,W,1,8,1.8,16,M,,M,,*5F
06/25/2015	16:11:23.519	$GPGGA,161124,2535.4983,N,07947.5556,W,1,9,1.6,16,M,,M,,*51
06/25/2015	16:11:24.519	$GPGGA,161125,2535.5001,N,07947.5561,W,1,9,1.8,16,M,,M,,*58
06/25/2015	16:11:25.509	$GPGGA,161126,2535.5020,N,07947.5567,W,1,9,1.6,16,M,,M,,*50
06/25/2015	16:11:26.518	$GPGGA,161127,2535.5040,N,07947.5574,W,1,9,1.6,16,M,,M,,*55
06/25/2015	16:11:27.539	$GPGGA,161128,2535.5059,N,07947.5579,W,1,9,1.6,16,M,,M,,*5F
06/25/2015	16:11:28.498	$GPGGA,161129,2535.5078,N,07947.5585,W,1,9,1.6,16,M,,M,,*5E
06/25/2015	16:11:29.498	$GPGGA,161130,2535.5096,N,07947.5590,W,1,9,1.6,16,M,,M,,*52
06/25/2015	16:11:30.508	$GPGGA,161131,2535.5114,N,07947.5596,W,1,9,1.6,16,M,,M,,*5E
06/25/2015	16:11:31.508	$GPGGA,161132,2535.5132,N,07947.5603,W,1,9,1.6,16,M,,M,,*56
06/25/2015	16:11:32.589	$GPGGA,161133,2535.5150,N,07947.5608,W,1,9,1.6,16,M,,M,,*58
06/25/2015	16:11:33.509	$GPGGA,161134,2535.5170,N,07947.5614,W,1,9,1.6,16,M,,M,,*50
06/25/2015	16:11:34.489	$GPGGA,161135,2535.5189,N,07947.5621,W,1,9,1.6,16,M,,M,,*51
06/25/2015	16:11:35.519	$GPGGA,161136,2535.5208,N,07947.5623,W,1,8,1.7,16,M,,M,,*5A
06/25/2015	16:11:36.489	$GPGGA,161137,2535.5226,N,07947.5629,W,1,8,1.6,16,M,,M,,*5C
06/25/2015	16:11:37.580	$GPGGA,161138,2535.5244,N,07947.5633,W,1,9,1.6,16,M,,M,,*5D
06/25/2015	16:11:38.489	$GPGGA,161139,2535.5262,N,07947.5639,W,1,9,1.6,16,M,,M,,*52
06/25/2015	16:11:39.489	$GPGGA,161140,2535.5282,N,07947.5644,W,1,9,1.6,16,M,,M,,*58
06/25/2015	16:11:40.569	$GPGGA,161141,2535.5301,N,07947.5650,W,1,9,1.6,16,M,,M,,*56
06/25/2015	16:11:41.469	$GPGGA,161142,2535.5320,N,07947.5655,W,1,9,1.6,17,M,,M,,*52
06/25/2015	16:11:42.579	$GPGGA,161143,2535.5338,N,07947.5661,W,1,9,1.7,17,M,,M,,*5C
06/25/2015	16:11:43.488	$GPGGA,161144,2535.5358,N,07947.5666,W,1,9,1.6,17,M,,M,,*5B
06/25/2015	16:11:44.568	$GPGGA,161145,2535.5377,N,07947.5673,W,1,9,1.6,17,M,,M,,*53
