Software Version Number: 1	Data File Format Number: 1	Build Version Number: 1	Error Count Since VI Started: 3	Manufacturer: Raytheon	 Model Number: RayMarine 120	 S/N: 	 Cal Date: 	 Wind Direction Offset: 0.00	 Slope (M)1: 0.00	 Offset (B)1: 0.00	 Slope (M)2: 0.00	 Offset (B)2: 0.00	 Slope (M)3: 0.00	 Offset (B)3: 0.00	 Slope (M)4: 0.00	 Offset (B)4: 0.00	 Slope (M)5: 0.00	 Offset (B)5: 0.00	 Slope (M)6: 0.00	 Offset (B)6: 0.00
Computer Date	Computer Time	GGA String
06/25/2015	04:00:00.629	$GPGGA,040001,2530.7986,N,07958.9903,W,1,10,1.6,16,M,,M,,*60
06/25/2015	04:00:01.613	$GPGGA,040002,2530.7979,N,07958.9898,W,1,10,1.6,16,M,,M,,*60
06/25/2015	04:00:02.539	$GPGGA,040003,2530.7970,N,07958.9895,W,1,10,1.6,15,M,,M,,*66
06/25/2015	04:00:03.608	$GPGGA,040004,2530.7963,N,07958.9892,W,1,10,1.6,15,M,,M,,*64
06/25/2015	04:00:04.489	$GPGGA,040005,2530.7957,N,07958.9886,W,1,10,1.6,15,M,,M,,*67
06/25/2015	04:00:05.489	$GPGGA,040006,2530.7948,N,07958.9883,W,1,10,1.6,15,M,,M,,*6F
06/25/2015	04:00:06.499	$GPGGA,040007,2530.7941,N,07958.9880,W,1,10,1.6,15,M,,M,,*64
06/25/2015	04:00:07.499	$GPGGA,040008,2530.7934,N,07958.9876,W,1,10,1.6,15,M,,M,,*60
06/25/2015	04:00:08.539	$GPGGA,040009,2530.7928,N,07958.9872,W,1,10,1.6,15,M,,M,,*68
06/25/2015	04:00:09.580	$GPGGA,040010,2530.7921,N,07958.9869,W,1,10,1.6,15,M,,M,,*63
06/25/2015	04:00:10.489	$GPGGA,040011,2530.7914,N,07958.9866,W,1,10,1.6,15,M,,M,,*6B
06/25/2015	04:00:11.639	$GPGGA,040012,2530.7907,N,07958.9862,W,1,10,1.6,15,M,,M,,*6E
06/25/2015	04:00:12.579	$GPGGA,040013,2530.7900,N,07958.9859,W,1,10,1.6,15,M,,M,,*60
06/25/2015	04:00:13.569	$GPGGA,040014,2530.7892,N,07958.9856,W,1,10,1.6,15,M,,M,,*62
06/25/2015	04:00:14.569	$GPGGA,040015,2530.7885,N,07958.9853,W,1,10,1.6,15,M,,M,,*60
06/25/2015	04:00:15.590	$GPGGA,040016,2530.7878,N,07958.9849,W,1,10,1.6,15,M,,M,,*6A
06/25/2015	04:00:16.523	$GPGGA,040017,2530.7871,N,07958.9846,W,1,10,1.6,15,M,,M,,*6D
06/25/2015	04:00:17.579	$GPGGA,040018,2530.7863,N,07958.9844,W,1,10,1.6,15,M,,M,,*63
06/25/2015	04:00:18.569	$GPGGA,040019,2530.7856,N,07958.9841,W,1,10,1.6,15,M,,M,,*61
06/25/2015	04:00:19.599	$GPGGA,040020,2530.7849,N,07958.9836,W,1,10,1.6,15,M,,M,,*65
06/25/2015	04:00:20.559	$GPGGA,040021,2530.7841,N,07958.9832,W,1,10,1.6,15,M,,M,,*68
06/25/2015	04:00:21.568	$GPGGA,040022,2530.7834,N,07958.9830,W,1,10,1.6,15,M,,M,,*6B
06/25/2015	04:00:22.568	$GPGGA,040023,2530.7827,N,07958.9825,W,1,10,1.6,15,M,,M,,*6C
06/25/2015	04:00:23.579	$GPGGA,040024,2530.7820,N,07958.9821,W,1,10,1.6,15,M,,M,,*68
06/25/2015	04:00:24.559	$GPGGA,040025,2530.7813,N,07958.9818,W,1,10,1.6,15,M,,M,,*63
06/25/2015	04:00:25.599	$GPGGA,040026,2530.7805,N,07958.9815,W,1,10,1.6,15,M,,M,,*6A
06/25/2015	04:00:26.549	$GPGGA,040027,2530.7796,N,07958.9811,W,1,10,1.6,15,M,,M,,*6A
06/25/2015	04:00:27.639	$GPGGA,040028,2530.7791,N,07958.9807,W,1,10,1.6,15,M,,M,,*65
06/25/2015	04:00:28.549	$GPGGA,040029,2530.7782,N,07958.9804,W,1,10,1.6,15,M,,M,,*65
06/25/2015	04:00:29.619	$GPGGA,040030,2530.7775,N,07958.9799,W,1,10,1.6,15,M,,M,,*6E
06/25/2015	04:00:30.549	$GPGGA,040031,2530.7768,N,07958.9796,W,1,10,1.6,15,M,,M,,*6C
06/25/2015	04:00:31.611	$GPGGA,040032,2530.7760,N,07958.9792,W,1,10,1.6,15,M,,M,,*63
06/25/2015	04:00:32.539	$GPGGA,040033,2530.7753,N,07958.9788,W,1,10,1.6,15,M,,M,,*69
06/25/2015	04:00:33.579	$GPGGA,040034,2530.7746,N,07958.9785,W,1,10,1.6,15,M,,M,,*67
06/25/2015	04:00:34.539	$GPGGA,040035,2530.7739,N,07958.9781,W,1,10,1.6,15,M,,M,,*6A
06/25/2015	04:00:35.599	$GPGGA,040036,2530.7731,N,07958.9775,W,1,10,1.6,15,M,,M,,*6A
06/25/2015	04:00:36.529	$GPGGA,040037,2530.7723,N,07958.9773,W,1,10,1.6,15,M,,M,,*6E
06/25/2015	04:00:37.569	$GPGGA,040038,2530.7715,N,07958.9769,W,1,10,1.6,15,M,,M,,*6F
06/25/2015	04:00:38.538	$GPGGA,040039,2530.7708,N,07958.9764,W,1,10,1.6,15,M,,M,,*6F
06/25/2015	04:00:39.598	$GPGGA,040040,2530.7699,N,07958.9760,W,1,10,1.6,15,M,,M,,*6C
06/25/2015	04:00:40.529	$GPGGA,040041,2530.7699,N,07958.9760,W,1,10,1.6,15,M,,M,,*6D
06/25/2015	04:00:41.559	$GPGGA,040042,2530.7691,N,07958.9757,W,1,10,1.6,15,M,,M,,*62
06/25/2015	04:00:42.529	$GPGGA,040043,2530.7676,N,07958.9748,W,1,10,1.6,15,M,,M,,*64
06/25/2015	04:00:43.549	$GPGGA,040044,2530.7676,N,07958.9748,W,1,10,1.6,15,M,,M,,*63
06/25/2015	04:00:44.510	$GPGGA,040045,2530.7661,N,07958.9739,W,1,10,1.6,15,M,,M,,*62
06/25/2015	04:00:45.579	$GPGGA,040046,2530.7651,N,07958.9735,W,1,10,1.6,15,M,,M,,*6E
06/25/2015	04:00:46.525	$GPGGA,040047,2530.7643,N,07958.9732,W,1,10,1.6,15,M,,M,,*6B
06/25/2015	04:00:47.612	$GPGGA,040048,2530.7635,N,07958.9727,W,1,10,1.6,15,M,,M,,*61
06/25/2015	04:00:48.512	$GPGGA,040049,2530.7627,N,07958.9723,W,1,10,1.6,15,M,,M,,*67
06/25/2015	04:00:49.579	$GPGGA,040050,2530.7619,N,07958.9719,W,1,10,1.6,15,M,,M,,*6B
06/25/2015	04:00:50.621	$GPGGA,040051,2530.7611,N,07958.9715,W,1,10,1.6,15,M,,M,,*6E
06/25/2015	04:00:51.639	$GPGGA,040052,2530.7603,N,07958.9711,W,1,10,1.6,15,M,,M,,*6A
06/25/2015	04:00:52.529	$GPGGA,040053,2530.7596,N,07958.9705,W,1,10,1.6,15,M,,M,,*61
06/25/2015	04:00:53.510	$GPGGA,040054,2530.7596,N,07958.9705,W,1,10,1.6,15,M,,M,,*66
06/25/2015	04:00:54.599	$GPGGA,040055,2530.7579,N,07958.9699,W,1,10,1.6,15,M,,M,,*62
06/25/2015	04:00:55.659	$GPGGA,040056,2530.7572,N,07958.9693,W,1,10,1.6,15,M,,M,,*60
06/25/2015	04:00:56.511	$GPGGA,040057,2530.7565,N,07958.9689,W,1,10,1.6,15,M,,M,,*6C
06/25/2015	04:00:57.499	$GPGGA,040058,2530.7565,N,07958.9689,W,1,10,1.6,15,M,,M,,*63
06/25/2015	04:00:58.579	$GPGGA,040059,2530.7550,N,07958.9680,W,1,10,1.6,15,M,,M,,*6D
06/25/2015	04:00:59.659	$GPGGA,040100,2530.7542,N,07958.9676,W,1,10,1.6,15,M,,M,,*6A
06/25/2015	04:01:00.529	$GPGGA,040101,2530.7533,N,07958.9672,W,1,10,1.6,15,M,,M,,*69
06/25/2015	04:01:01.579	$GPGGA,040102,2530.7525,N,07958.9666,W,1,10,1.6,15,M,,M,,*68
06/25/2015	04:01:02.589	$GPGGA,040103,2530.7517,N,07958.9662,W,1,10,1.6,15,M,,M,,*6C
06/25/2015	04:01:03.599	$GPGGA,040104,2530.7509,N,07958.9658,W,1,10,1.6,15,M,,M,,*6D
06/25/2015	04:01:04.569	$GPGGA,040105,2530.7500,N,07958.9652,W,1,10,1.6,15,M,,M,,*6F
06/25/2015	04:01:05.599	$GPGGA,040106,2530.7492,N,07958.9647,W,1,10,1.6,15,M,,M,,*62
06/25/2015	04:01:06.569	$GPGGA,040107,2530.7484,N,07958.9644,W,1,10,1.6,15,M,,M,,*67
06/25/2015	04:01:07.629	$GPGGA,040108,2530.7475,N,07958.9638,W,1,9,1.8,15,M,,M,,*5B
06/25/2015	04:01:08.559	$GPGGA,040109,2530.7466,N,07958.9633,W,1,9,1.8,15,M,,M,,*53
06/25/2015	04:01:09.569	$GPGGA,040110,2530.7459,N,07958.9629,W,1,9,1.8,15,M,,M,,*5C
06/25/2015	04:01:10.559	$GPGGA,040111,2530.7450,N,07958.9624,W,1,9,1.6,15,M,,M,,*57
06/25/2015	04:01:11.589	$GPGGA,040112,2530.7441,N,07958.9619,W,1,9,1.8,15,M,,M,,*54
06/25/2015	04:01:12.559	$GPGGA,040113,2530.7432,N,07958.9615,W,1,9,1.8,15,M,,M,,*5D
06/25/2015	04:01:13.558	$GPGGA,040114,2530.7426,N,07958.9609,W,1,10,1.6,15,M,,M,,*64
06/25/2015	04:01:14.559	$GPGGA,040115,2530.7419,N,07958.9604,W,1,10,1.6,15,M,,M,,*64
06/25/2015	04:01:16.059	$GPGGA,040116,2530.7409,N,07958.9600,W,1,10,1.6,15,M,,M,,*62
06/25/2015	04:01:16.549	$GPGGA,040117,2530.7401,N,07958.9594,W,1,10,1.8,15,M,,M,,*6B
06/25/2015	04:01:17.569	$GPGGA,040118,2530.7393,N,07958.9588,W,1,9,1.8,15,M,,M,,*5D
06/25/2015	04:01:18.539	$GPGGA,040119,2530.7384,N,07958.9585,W,1,9,1.8,15,M,,M,,*57
06/25/2015	04:01:19.579	$GPGGA,040120,2530.7375,N,07958.9579,W,1,9,1.8,15,M,,M,,*50
06/25/2015	04:01:20.539	$GPGGA,040121,2530.7367,N,07958.9574,W,1,9,1.8,15,M,,M,,*5F
06/25/2015	04:01:21.539	$GPGGA,040122,2530.7358,N,07958.9570,W,1,9,1.8,15,M,,M,,*54
06/25/2015	04:01:22.539	$GPGGA,040123,2530.7350,N,07958.9565,W,1,9,1.8,15,M,,M,,*59
06/25/2015	04:01:23.539	$GPGGA,040124,2530.7341,N,07958.9560,W,1,9,1.8,15,M,,M,,*5B
06/25/2015	04:01:24.529	$GPGGA,040125,2530.7332,N,07958.9557,W,1,9,1.8,15,M,,M,,*5A
06/25/2015	04:01:25.560	$GPGGA,040126,2530.7325,N,07958.9552,W,1,9,1.8,15,M,,M,,*5A
06/25/2015	04:01:26.519	$GPGGA,040127,2530.7316,N,07958.9547,W,1,9,1.8,15,M,,M,,*5F
06/25/2015	04:01:27.529	$GPGGA,040128,2530.7307,N,07958.9544,W,1,9,1.8,15,M,,M,,*53
06/25/2015	04:01:28.529	$GPGGA,040129,2530.7299,N,07958.9539,W,1,9,1.8,15,M,,M,,*5E
06/25/2015	04:01:29.520	$GPGGA,040130,2530.7291,N,07958.9535,W,1,9,1.8,14,M,,M,,*53
06/25/2015	04:01:30.512	$GPGGA,040131,2530.7282,N,07958.9531,W,1,9,1.8,14,M,,M,,*54
06/25/2015	04:01:31.569	$GPGGA,040132,2530.7273,N,07958.9527,W,1,9,1.8,14,M,,M,,*5E
06/25/2015	04:01:32.518	$GPGGA,040133,2530.7265,N,07958.9523,W,1,9,1.8,14,M,,M,,*5C
06/25/2015	04:01:33.549	$GPGGA,040134,2530.7257,N,07958.9519,W,1,9,1.8,14,M,,M,,*53
06/25/2015	04:01:34.529	$GPGGA,040135,2530.7249,N,07958.9514,W,1,9,1.8,14,M,,M,,*50
06/25/2015	04:01:35.649	$GPGGA,040136,2530.7239,N,07958.9510,W,1,9,1.8,14,M,,M,,*50
06/25/2015	04:01:36.512	$GPGGA,040137,2530.7231,N,07958.9507,W,1,9,1.8,14,M,,M,,*5F
06/25/2015	04:01:37.639	$GPGGA,040138,2530.7224,N,07958.9502,W,1,9,1.8,14,M,,M,,*51
06/25/2015	04:01:38.530	$GPGGA,040139,2530.7215,N,07958.9497,W,1,9,1.8,14,M,,M,,*5F
06/25/2015	04:01:39.511	$GPGGA,040140,2530.7206,N,07958.9495,W,1,9,1.8,14,M,,M,,*51
06/25/2015	04:01:40.499	$GPGGA,040141,2530.7197,N,07958.9491,W,1,9,1.8,14,M,,M,,*5F
06/25/2015	04:01:41.524	$GPGGA,040142,2530.7189,N,07958.9487,W,1,9,1.8,14,M,,M,,*54
06/25/2015	04:01:42.489	$GPGGA,040143,2530.7181,N,07958.9483,W,1,9,1.8,14,M,,M,,*59
06/25/2015	04:01:43.569	$GPGGA,040144,2530.7171,N,07958.9480,W,1,9,1.8,14,M,,M,,*52
06/25/2015	04:01:44.489	$GPGGA,040145,2530.7163,N,07958.9477,W,1,9,1.8,14,M,,M,,*58
06/25/2015	04:01:45.599	$GPGGA,040146,2530.7155,N,07958.9473,W,1,9,1.8,14,M,,M,,*5A
06/25/2015	04:01:46.479	$GPGGA,040147,2530.7146,N,07958.9469,W,1,9,1.8,14,M,,M,,*52
06/25/2015	04:01:47.517	$GPGGA,040148,2530.7138,N,07958.9467,W,1,9,1.8,14,M,,M,,*5A
06/25/2015	04:01:48.498	$GPGGA,040149,2530.7130,N,07958.9463,W,1,9,1.8,14,M,,M,,*57
06/25/2015	04:01:49.488	$GPGGA,040150,2530.7121,N,07958.9459,W,1,9,1.8,14,M,,M,,*56
06/25/2015	04:01:50.579	$GPGGA,040151,2530.7112,N,07958.9456,W,1,9,1.8,14,M,,M,,*58
06/25/2015	04:01:51.599	$GPGGA,040152,2530.7103,N,07958.9452,W,1,9,1.8,14,M,,M,,*5F
06/25/2015	04:01:52.479	$GPGGA,040153,2530.7095,N,07958.9449,W,1,9,1.8,14,M,,M,,*5A
06/25/2015	04:01:53.569	$GPGGA,040154,2530.7087,N,07958.9444,W,1,9,1.8,14,M,,M,,*53
06/25/2015	04:01:54.579	$GPGGA,040155,2530.7079,N,07958.9441,W,1,9,1.8,14,M,,M,,*56
06/25/2015	04:01:55.613	$GPGGA,040156,2530.7069,N,07958.9437,W,1,9,1.8,14,M,,M,,*55
06/25/2015	04:01:56.579	$GPGGA,040157,2530.7061,N,07958.9432,W,1,9,1.8,14,M,,M,,*59
06/25/2015	04:01:57.559	$GPGGA,040158,2530.7052,N,07958.9428,W,1,9,1.8,14,M,,M,,*5D
06/25/2015	04:01:58.549	$GPGGA,040159,2530.7044,N,07958.9423,W,1,9,1.8,14,M,,M,,*50
06/25/2015	04:01:59.626	$GPGGA,040200,2530.7036,N,07958.9418,W,1,9,1.8,14,M,,M,,*52
06/25/2015	04:02:00.559	$GPGGA,040201,2530.7027,N,07958.9414,W,1,9,1.8,14,M,,M,,*5F
06/25/2015	04:02:01.569	$GPGGA,040202,2530.7019,N,07958.9410,W,1,9,1.8,14,M,,M,,*55
06/25/2015	04:02:02.559	$GPGGA,040203,2530.7012,N,07958.9404,W,1,9,1.8,14,M,,M,,*5A
06/25/2015	04:02:03.589	$GPGGA,040204,2530.7003,N,07958.9400,W,1,9,1.8,14,M,,M,,*59
06/25/2015	04:02:04.549	$GPGGA,040205,2530.6994,N,07958.9397,W,1,9,1.8,14,M,,M,,*57
06/25/2015	04:02:05.539	$GPGGA,040206,2530.6986,N,07958.9392,W,1,9,1.8,14,M,,M,,*52
06/25/2015	04:02:06.548	$GPGGA,040207,2530.6978,N,07958.9386,W,1,9,1.8,14,M,,M,,*57
06/25/2015	04:02:07.598	$GPGGA,040208,2530.6969,N,07958.9382,W,1,9,1.8,14,M,,M,,*5C
06/25/2015	04:02:08.549	$GPGGA,040209,2530.6960,N,07958.9378,W,1,9,1.8,14,M,,M,,*51
06/25/2015	04:02:09.529	$GPGGA,040210,2530.6953,N,07958.9373,W,1,9,1.8,14,M,,M,,*52
06/25/2015	04:02:10.539	$GPGGA,040211,2530.6944,N,07958.9367,W,1,9,1.8,14,M,,M,,*50
06/25/2015	04:02:11.569	$GPGGA,040212,2530.6936,N,07958.9363,W,1,9,1.8,14,M,,M,,*52
06/25/2015	04:02:12.539	$GPGGA,040213,2530.6928,N,07958.9359,W,1,9,1.8,14,M,,M,,*55
06/25/2015	04:02:13.519	$GPGGA,040214,2530.6920,N,07958.9352,W,1,9,1.8,14,M,,M,,*51
06/25/2015	04:02:14.539	$GPGGA,040215,2530.6913,N,07958.9348,W,1,9,1.8,13,M,,M,,*5C
06/25/2015	04:02:15.569	$GPGGA,040216,2530.6903,N,07958.9344,W,1,9,1.8,13,M,,M,,*52
06/25/2015	04:02:16.529	$GPGGA,040217,2530.6895,N,07958.9339,W,1,9,1.8,13,M,,M,,*57
06/25/2015	04:02:17.560	$GPGGA,040218,2530.6888,N,07958.9333,W,1,9,1.8,13,M,,M,,*5E
06/25/2015	04:02:18.519	$GPGGA,040219,2530.6879,N,07958.9328,W,1,9,1.8,13,M,,M,,*5B
06/25/2015	04:02:19.539	$GPGGA,040220,2530.6870,N,07958.9324,W,1,9,1.8,13,M,,M,,*54
06/25/2015	04:02:20.511	$GPGGA,040221,2530.6862,N,07958.9318,W,1,9,1.8,13,M,,M,,*59
06/25/2015	04:02:21.509	$GPGGA,040222,2530.6855,N,07958.9313,W,1,9,1.8,13,M,,M,,*55
06/25/2015	04:02:22.529	$GPGGA,040223,2530.6846,N,07958.9308,W,1,9,1.8,13,M,,M,,*5C
06/25/2015	04:02:23.558	$GPGGA,040224,2530.6837,N,07958.9303,W,1,9,1.8,13,M,,M,,*56
06/25/2015	04:02:24.608	$GPGGA,040225,2530.6828,N,07958.9299,W,1,9,1.8,13,M,,M,,*5B
06/25/2015	04:02:25.539	$GPGGA,040226,2530.6820,N,07958.9293,W,1,9,1.8,13,M,,M,,*5A
06/25/2015	04:02:26.510	$GPGGA,040227,2530.6812,N,07958.9288,W,1,9,1.8,13,M,,M,,*50
06/25/2015	04:02:27.519	$GPGGA,040228,2530.6805,N,07958.9284,W,1,9,1.8,13,M,,M,,*55
06/25/2015	04:02:28.499	$GPGGA,040229,2530.6795,N,07958.9279,W,1,9,1.8,13,M,,M,,*50
06/25/2015	04:02:29.519	$GPGGA,040230,2530.6787,N,07958.9274,W,1,9,1.8,13,M,,M,,*56
06/25/2015	04:02:30.489	$GPGGA,040231,2530.6779,N,07958.9269,W,1,9,1.8,13,M,,M,,*5A
06/25/2015	04:02:31.599	$GPGGA,040232,2530.6772,N,07958.9266,W,1,9,1.8,13,M,,M,,*5D
06/25/2015	04:02:32.499	$GPGGA,040233,2530.6763,N,07958.9260,W,1,9,1.8,13,M,,M,,*5A
06/25/2015	04:02:33.589	$GPGGA,040234,2530.6754,N,07958.9256,W,1,9,1.8,13,M,,M,,*5C
06/25/2015	04:02:34.513	$GPGGA,040235,2530.6745,N,07958.9253,W,1,9,1.8,13,M,,M,,*58
06/25/2015	04:02:35.489	$GPGGA,040236,2530.6737,N,07958.9249,W,1,9,1.8,13,M,,M,,*55
06/25/2015	04:02:36.479	$GPGGA,040237,2530.6729,N,07958.9243,W,1,9,1.8,13,M,,M,,*51
06/25/2015	04:02:37.489	$GPGGA,040238,2530.6721,N,07958.9241,W,1,9,1.8,13,M,,M,,*54
06/25/2015	04:02:38.489	$GPGGA,040239,2530.6713,N,07958.9237,W,1,9,1.8,13,M,,M,,*55
06/25/2015	04:02:39.529	$GPGGA,040240,2530.6705,N,07958.9231,W,1,9,1.8,13,M,,M,,*5A
06/25/2015	04:02:40.570	$GPGGA,040241,2530.6694,N,07958.9230,W,1,9,2.0,13,M,,M,,*58
06/25/2015	04:02:41.568	$GPGGA,040242,2530.6685,N,07958.9226,W,1,9,1.8,13,M,,M,,*57
06/25/2015	04:02:42.568	$GPGGA,040243,2530.6678,N,07958.9220,W,1,9,1.8,13,M,,M,,*52
06/25/2015	04:02:43.599	$GPGGA,040244,2530.6669,N,07958.9218,W,1,9,1.8,13,M,,M,,*5E
06/25/2015	04:02:44.579	$GPGGA,040245,2530.6662,N,07958.9215,W,1,9,1.8,13,M,,M,,*59
06/25/2015	04:02:45.579	$GPGGA,040246,2530.6654,N,07958.9210,W,1,9,1.8,13,M,,M,,*5A
06/25/2015	04:02:46.559	$GPGGA,040247,2530.6646,N,07958.9207,W,1,9,1.8,13,M,,M,,*5E
06/25/2015	04:02:47.611	$GPGGA,040248,2530.6638,N,07958.9203,W,1,9,1.8,13,M,,M,,*5C
06/25/2015	04:02:48.549	$GPGGA,040249,2530.6631,N,07958.9199,W,1,9,1.8,13,M,,M,,*54
06/25/2015	04:02:49.569	$GPGGA,040250,2530.6624,N,07958.9195,W,1,9,1.8,13,M,,M,,*54
06/25/2015	04:02:50.569	$GPGGA,040251,2530.6617,N,07958.9191,W,1,9,1.8,13,M,,M,,*51
06/25/2015	04:02:51.599	$GPGGA,040252,2530.6609,N,07958.9187,W,1,9,1.8,13,M,,M,,*5A
06/25/2015	04:02:52.549	$GPGGA,040253,2530.6601,N,07958.9184,W,1,9,1.8,13,M,,M,,*50
06/25/2015	04:02:53.569	$GPGGA,040254,2530.6595,N,07958.9181,W,1,9,1.8,13,M,,M,,*5C
06/25/2015	04:02:54.579	$GPGGA,040255,2530.6585,N,07958.9176,W,1,9,1.8,13,M,,M,,*54
06/25/2015	04:02:55.579	$GPGGA,040256,2530.6578,N,07958.9173,W,1,9,1.8,13,M,,M,,*50
06/25/2015	04:02:56.539	$GPGGA,040257,2530.6570,N,07958.9170,W,1,9,1.8,13,M,,M,,*5A
06/25/2015	04:02:57.549	$GPGGA,040258,2530.6563,N,07958.9165,W,1,8,2.0,13,M,,M,,*59
06/25/2015	04:02:58.538	$GPGGA,040259,2530.6554,N,07958.9161,W,1,8,1.8,13,M,,M,,*53
06/25/2015	04:02:59.598	$GPGGA,040300,2530.6546,N,07958.9159,W,1,9,1.8,13,M,,M,,*57
06/25/2015	04:03:00.539	$GPGGA,040301,2530.6538,N,07958.9155,W,1,9,1.8,13,M,,M,,*53
06/25/2015	04:03:01.559	$GPGGA,040302,2530.6530,N,07958.9150,W,1,9,1.8,13,M,,M,,*5D
06/25/2015	04:03:02.989	$GPGGA,040303,2530.6523,N,07958.9145,W,1,9,1.8,13,M,,M,,*5A
06/25/2015	04:03:03.569	$GPGGA,040304,2530.6514,N,07958.9143,W,1,9,1.8,13,M,,M,,*5F
06/25/2015	04:03:04.529	$GPGGA,040305,2530.6506,N,07958.9138,W,1,9,1.8,14,M,,M,,*56
06/25/2015	04:03:05.559	$GPGGA,040306,2530.6498,N,07958.9132,W,1,9,1.8,14,M,,M,,*59
06/25/2015	04:03:06.512	$GPGGA,040307,2530.6490,N,07958.9130,W,1,9,1.8,14,M,,M,,*52
06/25/2015	04:03:07.579	$GPGGA,040308,2530.6481,N,07958.9127,W,1,9,1.8,14,M,,M,,*5B
06/25/2015	04:03:08.521	$GPGGA,040309,2530.6473,N,07958.9121,W,1,9,1.8,14,M,,M,,*51
06/25/2015	04:03:09.523	$GPGGA,040310,2530.6465,N,07958.9116,W,1,9,1.8,14,M,,M,,*5A
06/25/2015	04:03:10.509	$GPGGA,040311,2530.6458,N,07958.9113,W,1,9,1.8,14,M,,M,,*50
06/25/2015	04:03:11.549	$GPGGA,040312,2530.6449,N,07958.9108,W,1,9,1.8,14,M,,M,,*59
06/25/2015	04:03:12.500	$GPGGA,040313,2530.6442,N,07958.9103,W,1,9,1.8,14,M,,M,,*58
06/25/2015	04:03:13.519	$GPGGA,040314,2530.6433,N,07958.9099,W,1,9,1.8,14,M,,M,,*5B
06/25/2015	04:03:14.501	$GPGGA,040315,2530.6425,N,07958.9095,W,1,9,1.8,14,M,,M,,*51
06/25/2015	04:03:15.509	$GPGGA,040316,2530.6418,N,07958.9090,W,1,9,1.8,14,M,,M,,*59
06/25/2015	04:03:16.488	$GPGGA,040317,2530.6409,N,07958.9086,W,1,9,1.8,14,M,,M,,*5F
06/25/2015	04:03:17.618	$GPGGA,040318,2530.6400,N,07958.9082,W,1,9,1.8,14,M,,M,,*5D
06/25/2015	04:03:18.498	$GPGGA,040319,2530.6393,N,07958.9077,W,1,9,1.8,14,M,,M,,*5B
06/25/2015	04:03:19.628	$GPGGA,040320,2530.6384,N,07958.9073,W,1,9,1.8,14,M,,M,,*53
06/25/2015	04:03:20.498	$GPGGA,040321,2530.6376,N,07958.9068,W,1,9,1.8,14,M,,M,,*55
06/25/2015	04:03:21.598	$GPGGA,040322,2530.6368,N,07958.9064,W,1,9,1.8,14,M,,M,,*55
06/25/2015	04:03:22.578	$GPGGA,040323,2530.6360,N,07958.9059,W,1,9,1.8,14,M,,M,,*52
06/25/2015	04:03:23.588	$GPGGA,040324,2530.6353,N,07958.9053,W,1,9,1.8,14,M,,M,,*5F
06/25/2015	04:03:24.568	$GPGGA,040325,2530.6343,N,07958.9048,W,1,9,1.8,14,M,,M,,*55
06/25/2015	04:03:25.478	$GPGGA,040326,2530.6335,N,07958.9045,W,1,9,1.8,14,M,,M,,*5A
06/25/2015	04:03:26.578	$GPGGA,040327,2530.6328,N,07958.9039,W,1,9,1.8,14,M,,M,,*5C
06/25/2015	04:03:27.638	$GPGGA,040328,2530.6318,N,07958.9034,W,1,9,1.8,14,M,,M,,*5D
06/25/2015	04:03:28.559	$GPGGA,040329,2530.6310,N,07958.9030,W,1,9,1.8,14,M,,M,,*50
06/25/2015	04:03:29.559	$GPGGA,040330,2530.6302,N,07958.9025,W,1,9,1.8,14,M,,M,,*5F
06/25/2015	04:03:30.569	$GPGGA,040331,2530.6294,N,07958.9021,W,1,9,1.8,14,M,,M,,*54
06/25/2015	04:03:31.599	$GPGGA,040332,2530.6286,N,07958.9016,W,1,9,1.8,14,M,,M,,*50
06/25/2015	04:03:32.559	$GPGGA,040333,2530.6278,N,07958.9011,W,1,9,1.8,14,M,,M,,*57
06/25/2015	04:03:33.558	$GPGGA,040334,2530.6270,N,07958.9007,W,1,9,1.8,14,M,,M,,*5F
06/25/2015	04:03:34.558	$GPGGA,040335,2530.6261,N,07958.9002,W,1,9,1.8,14,M,,M,,*5B
06/25/2015	04:03:35.578	$GPGGA,040336,2530.6253,N,07958.8997,W,1,9,1.8,14,M,,M,,*5D
06/25/2015	04:03:36.548	$GPGGA,040337,2530.6245,N,07958.8993,W,1,9,1.8,14,M,,M,,*5F
06/25/2015	04:03:37.568	$GPGGA,040338,2530.6237,N,07958.8988,W,1,9,1.8,14,M,,M,,*5F
06/25/2015	04:03:38.548	$GPGGA,040339,2530.6230,N,07958.8984,W,1,9,1.8,14,M,,M,,*55
06/25/2015	04:03:39.578	$GPGGA,040340,2530.6221,N,07958.8979,W,1,9,1.8,14,M,,M,,*59
06/25/2015	04:03:40.548	$GPGGA,040341,2530.6213,N,07958.8975,W,1,9,1.8,14,M,,M,,*55
06/25/2015	04:03:41.568	$GPGGA,040342,2530.6205,N,07958.8970,W,1,9,1.8,14,M,,M,,*54
06/25/2015	04:03:42.538	$GPGGA,040343,2530.6196,N,07958.8966,W,1,9,1.8,14,M,,M,,*5B
06/25/2015	04:03:43.568	$GPGGA,040344,2530.6188,N,07958.8962,W,1,9,1.8,14,M,,M,,*57
06/25/2015	04:03:44.538	$GPGGA,040345,2530.6181,N,07958.8957,W,1,9,1.8,14,M,,M,,*59
06/25/2015	04:03:45.559	$GPGGA,040346,2530.6171,N,07958.8953,W,1,9,1.8,14,M,,M,,*51
06/25/2015	04:03:46.539	$GPGGA,040347,2530.6165,N,07958.8949,W,1,9,1.8,14,M,,M,,*5E
06/25/2015	04:03:47.529	$GPGGA,040348,2530.6156,N,07958.8945,W,1,9,1.8,14,M,,M,,*5D
06/25/2015	04:03:48.519	$GPGGA,040349,2530.6147,N,07958.8940,W,1,9,1.8,14,M,,M,,*59
06/25/2015	04:03:49.549	$GPGGA,040350,2530.6140,N,07958.8937,W,1,9,1.8,14,M,,M,,*56
06/25/2015	04:03:50.519	$GPGGA,040351,2530.6130,N,07958.8933,W,1,9,1.8,14,M,,M,,*54
06/25/2015	04:03:51.568	$GPGGA,040352,2530.6122,N,07958.8928,W,1,9,1.8,14,M,,M,,*5E
06/25/2015	04:03:52.528	$GPGGA,040353,2530.6115,N,07958.8925,W,1,9,1.8,14,M,,M,,*56
06/25/2015	04:03:53.511	$GPGGA,040354,2530.6106,N,07958.8920,W,1,9,1.8,14,M,,M,,*56
06/25/2015	04:03:54.518	$GPGGA,040355,2530.6098,N,07958.8916,W,1,9,1.8,14,M,,M,,*54
06/25/2015	04:03:55.528	$GPGGA,040356,2530.6089,N,07958.8913,W,1,9,1.8,14,M,,M,,*52
06/25/2015	04:03:56.511	$GPGGA,040357,2530.6082,N,07958.8908,W,1,9,1.8,14,M,,M,,*52
06/25/2015	04:03:57.510	$GPGGA,040358,2530.6073,N,07958.8903,W,1,9,1.8,14,M,,M,,*58
06/25/2015	04:03:58.498	$GPGGA,040359,2530.6064,N,07958.8900,W,1,9,1.7,14,M,,M,,*53
06/25/2015	04:03:59.568	$GPGGA,040400,2530.6055,N,07958.8896,W,1,9,1.7,14,M,,M,,*54
06/25/2015	04:04:00.511	$GPGGA,040401,2530.6046,N,07958.8892,W,1,9,1.7,14,M,,M,,*53
06/25/2015	04:04:01.618	$GPGGA,040402,2530.6039,N,07958.8889,W,1,9,1.7,14,M,,M,,*52
06/25/2015	04:04:02.588	$GPGGA,040403,2530.6029,N,07958.8886,W,1,9,1.7,14,M,,M,,*5D
06/25/2015	04:04:03.549	$GPGGA,040404,2530.6021,N,07958.8881,W,1,9,1.7,14,M,,M,,*55
06/25/2015	04:04:05.511	$GPGGA,040405,2530.6012,N,07958.8878,W,1,9,1.7,14,M,,M,,*52
06/25/2015	04:04:05.530	$GPGGA,040406,2530.6004,N,07958.8875,W,1,9,1.7,14,M,,M,,*5B
06/25/2015	04:04:06.579	$GPGGA,040407,2530.5995,N,07958.8871,W,1,9,1.7,14,M,,M,,*5C
06/25/2015	04:04:07.539	$GPGGA,040408,2530.5986,N,07958.8867,W,1,9,1.7,14,M,,M,,*56
06/25/2015	04:04:08.512	$GPGGA,040409,2530.5977,N,07958.8864,W,1,9,1.7,14,M,,M,,*5A
06/25/2015	04:04:09.599	$GPGGA,040410,2530.5970,N,07958.8859,W,1,9,1.7,14,M,,M,,*5B
06/25/2015	04:04:10.478	$GPGGA,040411,2530.5959,N,07958.8856,W,1,9,1.7,14,M,,M,,*5E
06/25/2015	04:04:11.598	$GPGGA,040412,2530.5950,N,07958.8853,W,1,9,1.7,14,M,,M,,*51
06/25/2015	04:04:12.489	$GPGGA,040413,2530.5942,N,07958.8848,W,1,9,1.7,14,M,,M,,*59
06/25/2015	04:04:13.578	$GPGGA,040414,2530.5934,N,07958.8845,W,1,9,1.7,14,M,,M,,*52
06/25/2015	04:04:14.568	$GPGGA,040415,2530.5925,N,07958.8842,W,1,9,1.7,14,M,,M,,*54
06/25/2015	04:04:15.609	$GPGGA,040416,2530.5916,N,07958.8838,W,1,9,1.7,14,M,,M,,*5A
06/25/2015	04:04:16.568	$GPGGA,040417,2530.5909,N,07958.8834,W,1,9,1.7,14,M,,M,,*59
06/25/2015	04:04:17.568	$GPGGA,040418,2530.5900,N,07958.8829,W,1,9,1.7,14,M,,M,,*53
06/25/2015	04:04:18.558	$GPGGA,040419,2530.5891,N,07958.8826,W,1,9,1.7,14,M,,M,,*54
06/25/2015	04:04:19.598	$GPGGA,040420,2530.5883,N,07958.8823,W,1,9,1.7,14,M,,M,,*58
06/25/2015	04:04:20.560	$GPGGA,040421,2530.5874,N,07958.8818,W,1,9,1.7,14,M,,M,,*59
06/25/2015	04:04:21.569	$GPGGA,040422,2530.5865,N,07958.8813,W,1,9,1.7,14,M,,M,,*51
06/25/2015	04:04:22.559	$GPGGA,040423,2530.5856,N,07958.8811,W,1,9,1.7,14,M,,M,,*52
06/25/2015	04:04:23.610	$GPGGA,040424,2530.5848,N,07958.8806,W,1,9,1.7,14,M,,M,,*5C
06/25/2015	04:04:24.559	$GPGGA,040425,2530.5840,N,07958.8801,W,1,9,1.7,14,M,,M,,*52
06/25/2015	04:04:25.580	$GPGGA,040426,2530.5833,N,07958.8798,W,1,9,1.7,14,M,,M,,*5A
06/25/2015	04:04:26.548	$GPGGA,040427,2530.5824,N,07958.8794,W,1,9,1.7,14,M,,M,,*51
06/25/2015	04:04:27.578	$GPGGA,040428,2530.5817,N,07958.8788,W,1,9,1.7,14,M,,M,,*53
06/25/2015	04:04:28.548	$GPGGA,040429,2530.5808,N,07958.8785,W,1,9,1.7,14,M,,M,,*51
06/25/2015	04:04:29.558	$GPGGA,040430,2530.5800,N,07958.8781,W,1,9,1.7,14,M,,M,,*55
06/25/2015	04:04:30.558	$GPGGA,040431,2530.5793,N,07958.8776,W,1,9,1.7,14,M,,M,,*59
06/25/2015	04:04:31.578	$GPGGA,040432,2530.5783,N,07958.8772,W,1,9,1.7,14,M,,M,,*5F
06/25/2015	04:04:32.538	$GPGGA,040433,2530.5775,N,07958.8768,W,1,9,1.7,14,M,,M,,*5C
06/25/2015	04:04:33.558	$GPGGA,040434,2530.5768,N,07958.8764,W,1,9,1.7,14,M,,M,,*5B
06/25/2015	04:04:34.528	$GPGGA,040435,2530.5759,N,07958.8759,W,1,9,1.7,14,M,,M,,*56
06/25/2015	04:04:35.568	$GPGGA,040436,2530.5751,N,07958.8755,W,1,9,1.7,14,M,,M,,*51
06/25/2015	04:04:36.518	$GPGGA,040437,2530.5743,N,07958.8752,W,1,9,1.7,14,M,,M,,*54
06/25/2015	04:04:37.518	$GPGGA,040438,2530.5735,N,07958.8746,W,1,9,1.7,14,M,,M,,*5F
06/25/2015	04:04:38.529	$GPGGA,040439,2530.5728,N,07958.8741,W,1,9,1.7,14,M,,M,,*55
06/25/2015	04:04:39.569	$GPGGA,040440,2530.5721,N,07958.8738,W,1,9,1.7,14,M,,M,,*5C
06/25/2015	04:04:40.539	$GPGGA,040441,2530.5712,N,07958.8733,W,1,9,1.7,14,M,,M,,*56
06/25/2015	04:04:41.529	$GPGGA,040442,2530.5704,N,07958.8728,W,1,9,1.7,13,M,,M,,*5F
06/25/2015	04:04:42.539	$GPGGA,040443,2530.5697,N,07958.8723,W,1,9,1.7,13,M,,M,,*5E
06/25/2015	04:04:43.548	$GPGGA,040444,2530.5688,N,07958.8719,W,1,9,1.7,13,M,,M,,*5E
06/25/2015	04:04:45.518	$GPGGA,040446,2530.5674,N,07958.8707,W,1,9,1.7,13,M,,M,,*50
06/25/2015	04:04:46.512	$GPGGA,040447,2530.5664,N,07958.8703,W,1,9,1.7,13,M,,M,,*54
06/25/2015	04:04:47.548	$GPGGA,040448,2530.5656,N,07958.8699,W,1,9,1.7,13,M,,M,,*58
06/25/2015	04:04:48.518	$GPGGA,040449,2530.5648,N,07958.8693,W,1,9,1.7,13,M,,M,,*5C
06/25/2015	04:04:49.538	$GPGGA,040450,2530.5640,N,07958.8688,W,1,9,1.7,13,M,,M,,*56
06/25/2015	04:04:50.513	$GPGGA,040451,2530.5632,N,07958.8683,W,1,9,1.7,13,M,,M,,*59
06/25/2015	04:04:51.608	$GPGGA,040452,2530.5624,N,07958.8678,W,1,9,1.7,13,M,,M,,*59
06/25/2015	04:04:52.518	$GPGGA,040453,2530.5624,N,07958.8678,W,1,9,1.7,13,M,,M,,*58
06/25/2015	04:04:53.600	$GPGGA,040454,2530.5609,N,07958.8668,W,1,9,1.7,13,M,,M,,*51
06/25/2015	04:04:55.841	$GPGGA,040456,2530.5592,N,07958.8659,W,1,9,1.7,13,M,,M,,*50
06/25/2015	04:04:56.515	$GPGGA,040457,2530.5583,N,07958.8654,W,1,9,1.7,13,M,,M,,*5C
06/25/2015	04:04:57.589	$GPGGA,040458,2530.5575,N,07958.8649,W,1,9,1.7,13,M,,M,,*56
06/25/2015	04:04:58.511	$GPGGA,040459,2530.5566,N,07958.8645,W,1,9,1.7,13,M,,M,,*59
06/25/2015	04:04:59.659	$GPGGA,040500,2530.5558,N,07958.8640,W,1,9,1.7,13,M,,M,,*5C
06/25/2015	04:05:00.568	$GPGGA,040501,2530.5551,N,07958.8635,W,1,9,1.7,13,M,,M,,*56
06/25/2015	04:05:01.488	$GPGGA,040502,2530.5542,N,07958.8632,W,1,9,1.7,13,M,,M,,*50
06/25/2015	04:05:02.568	$GPGGA,040503,2530.5533,N,07958.8627,W,1,9,1.7,13,M,,M,,*53
06/25/2015	04:05:03.538	$GPGGA,040504,2530.5526,N,07958.8623,W,1,9,1.7,13,M,,M,,*54
06/25/2015	04:05:04.488	$GPGGA,040505,2530.5517,N,07958.8618,W,1,9,1.7,13,M,,M,,*5F
06/25/2015	04:05:05.558	$GPGGA,040506,2530.5508,N,07958.8614,W,1,9,1.7,13,M,,M,,*5E
06/25/2015	04:05:06.558	$GPGGA,040507,2530.5499,N,07958.8611,W,1,9,1.7,13,M,,M,,*53
06/25/2015	04:05:07.588	$GPGGA,040508,2530.5491,N,07958.8606,W,1,9,1.7,13,M,,M,,*52
06/25/2015	04:05:08.558	$GPGGA,040509,2530.5482,N,07958.8603,W,1,9,1.7,13,M,,M,,*54
06/25/2015	04:05:09.558	$GPGGA,040510,2530.5473,N,07958.8599,W,1,9,1.7,13,M,,M,,*52
06/25/2015	04:05:10.559	$GPGGA,040511,2530.5465,N,07958.8595,W,1,9,1.7,13,M,,M,,*58
06/25/2015	04:05:11.611	$GPGGA,040512,2530.5457,N,07958.8590,W,1,9,1.7,13,M,,M,,*5F
06/25/2015	04:05:12.558	$GPGGA,040513,2530.5448,N,07958.8587,W,1,9,1.7,13,M,,M,,*56
06/25/2015	04:05:13.539	$GPGGA,040514,2530.5439,N,07958.8583,W,1,9,1.7,13,M,,M,,*53
06/25/2015	04:05:14.559	$GPGGA,040515,2530.5432,N,07958.8578,W,1,9,1.7,13,M,,M,,*5D
06/25/2015	04:05:15.579	$GPGGA,040516,2530.5422,N,07958.8575,W,1,9,1.7,13,M,,M,,*52
06/25/2015	04:05:16.539	$GPGGA,040517,2530.5414,N,07958.8572,W,1,9,1.7,13,M,,M,,*51
06/25/2015	04:05:17.559	$GPGGA,040518,2530.5405,N,07958.8568,W,1,9,1.7,13,M,,M,,*55
06/25/2015	04:05:18.548	$GPGGA,040519,2530.5396,N,07958.8563,W,1,9,1.7,13,M,,M,,*52
06/25/2015	04:05:19.538	$GPGGA,040520,2530.5388,N,07958.8561,W,1,9,1.7,13,M,,M,,*55
06/25/2015	04:05:20.538	$GPGGA,040521,2530.5379,N,07958.8557,W,1,9,1.7,13,M,,M,,*5F
06/25/2015	04:05:21.528	$GPGGA,040522,2530.5370,N,07958.8552,W,1,9,1.7,13,M,,M,,*50
06/25/2015	04:05:22.538	$GPGGA,040523,2530.5363,N,07958.8549,W,1,9,1.7,13,M,,M,,*59
06/25/2015	04:05:23.568	$GPGGA,040524,2530.5353,N,07958.8546,W,1,9,1.7,13,M,,M,,*52
06/25/2015	04:05:24.538	$GPGGA,040525,2530.5345,N,07958.8542,W,1,9,2.0,13,M,,M,,*54
06/25/2015	04:05:25.518	$GPGGA,040526,2530.5338,N,07958.8538,W,1,9,1.7,13,M,,M,,*54
06/25/2015	04:05:26.528	$GPGGA,040527,2530.5331,N,07958.8535,W,1,9,1.7,13,M,,M,,*51
06/25/2015	04:05:27.568	$GPGGA,040528,2530.5323,N,07958.8530,W,1,9,1.7,13,M,,M,,*58
06/25/2015	04:05:28.508	$GPGGA,040529,2530.5316,N,07958.8527,W,1,9,1.7,13,M,,M,,*59
06/25/2015	04:05:29.528	$GPGGA,040530,2530.5309,N,07958.8523,W,1,9,1.7,13,M,,M,,*5B
06/25/2015	04:05:30.549	$GPGGA,040531,2530.5299,N,07958.8519,W,1,9,1.7,13,M,,M,,*5B
06/25/2015	04:05:31.529	$GPGGA,040532,2530.5291,N,07958.8515,W,1,9,1.7,13,M,,M,,*5C
06/25/2015	04:05:32.511	$GPGGA,040533,2530.5284,N,07958.8512,W,1,9,1.7,13,M,,M,,*5E
06/25/2015	04:05:33.519	$GPGGA,040534,2530.5274,N,07958.8509,W,1,9,1.7,13,M,,M,,*5C
06/25/2015	04:05:34.529	$GPGGA,040535,2530.5267,N,07958.8505,W,1,9,1.7,13,M,,M,,*53
06/25/2015	04:05:35.528	$GPGGA,040536,2530.5259,N,07958.8501,W,1,9,1.7,13,M,,M,,*59
06/25/2015	04:05:36.511	$GPGGA,040537,2530.5251,N,07958.8498,W,1,9,1.7,14,M,,M,,*56
06/25/2015	04:05:37.609	$GPGGA,040538,2530.5244,N,07958.8494,W,1,9,1.7,14,M,,M,,*51
06/25/2015	04:05:38.510	$GPGGA,040539,2530.5234,N,07958.8490,W,1,9,1.7,14,M,,M,,*53
06/25/2015	04:05:39.538	$GPGGA,040540,2530.5226,N,07958.8485,W,1,9,1.7,14,M,,M,,*5A
06/25/2015	04:05:40.508	$GPGGA,040541,2530.5217,N,07958.8482,W,1,9,1.7,14,M,,M,,*5E
06/25/2015	04:05:41.612	$GPGGA,040542,2530.5209,N,07958.8479,W,1,9,1.7,14,M,,M,,*56
06/25/2015	04:05:42.488	$GPGGA,040543,2530.5201,N,07958.8473,W,1,9,1.7,14,M,,M,,*55
06/25/2015	04:05:43.548	$GPGGA,040544,2530.5192,N,07958.8470,W,1,9,1.7,14,M,,M,,*58
06/25/2015	04:05:44.613	$GPGGA,040545,2530.5184,N,07958.8467,W,1,9,1.7,14,M,,M,,*58
06/25/2015	04:05:45.578	$GPGGA,040546,2530.5176,N,07958.8462,W,1,9,1.7,14,M,,M,,*53
06/25/2015	04:05:46.479	$GPGGA,040547,2530.5168,N,07958.8456,W,1,9,1.7,14,M,,M,,*5A
06/25/2015	04:05:47.518	$GPGGA,040548,2530.5159,N,07958.8453,W,1,9,1.7,14,M,,M,,*52
06/25/2015	04:05:48.579	$GPGGA,040549,2530.5151,N,07958.8448,W,1,9,1.7,14,M,,M,,*51
06/25/2015	04:05:49.589	$GPGGA,040550,2530.5143,N,07958.8443,W,1,9,1.7,14,M,,M,,*51
06/25/2015	04:05:50.579	$GPGGA,040551,2530.5135,N,07958.8438,W,1,9,1.7,14,M,,M,,*5D
06/25/2015	04:05:51.589	$GPGGA,040552,2530.5127,N,07958.8433,W,1,9,1.7,14,M,,M,,*56
06/25/2015	04:05:52.569	$GPGGA,040553,2530.5118,N,07958.8428,W,1,9,1.7,14,M,,M,,*51
06/25/2015	04:05:53.568	$GPGGA,040554,2530.5111,N,07958.8424,W,1,9,1.7,14,M,,M,,*53
06/25/2015	04:05:54.578	$GPGGA,040555,2530.5103,N,07958.8419,W,1,9,1.7,14,M,,M,,*5F
06/25/2015	04:05:55.578	$GPGGA,040556,2530.5094,N,07958.8414,W,1,9,1.7,14,M,,M,,*5E
06/25/2015	04:05:56.568	$GPGGA,040557,2530.5087,N,07958.8409,W,1,9,1.7,14,M,,M,,*51
06/25/2015	04:05:57.589	$GPGGA,040558,2530.5079,N,07958.8405,W,1,9,1.7,14,M,,M,,*53
06/25/2015	04:05:58.558	$GPGGA,040559,2530.5071,N,07958.8400,W,1,9,1.7,14,M,,M,,*5F
06/25/2015	04:05:59.608	$GPGGA,040600,2530.5062,N,07958.8396,W,1,9,1.7,14,M,,M,,*5A
06/25/2015	04:06:00.568	$GPGGA,040601,2530.5054,N,07958.8390,W,1,9,2.0,15,M,,M,,*5D
06/25/2015	04:06:01.548	$GPGGA,040602,2530.5046,N,07958.8385,W,1,9,1.7,15,M,,M,,*5D
06/25/2015	04:06:02.558	$GPGGA,040603,2530.5038,N,07958.8382,W,1,9,1.7,15,M,,M,,*52
06/25/2015	04:06:03.578	$GPGGA,040604,2530.5031,N,07958.8377,W,1,9,1.7,15,M,,M,,*56
06/25/2015	04:06:04.548	$GPGGA,040605,2530.5022,N,07958.8371,W,1,9,1.7,15,M,,M,,*53
06/25/2015	04:06:05.569	$GPGGA,040606,2530.5014,N,07958.8367,W,1,9,1.7,15,M,,M,,*52
06/25/2015	04:06:06.539	$GPGGA,040607,2530.5007,N,07958.8362,W,1,9,1.7,15,M,,M,,*54
06/25/2015	04:06:07.549	$GPGGA,040608,2530.4999,N,07958.8357,W,1,9,1.7,15,M,,M,,*52
06/25/2015	04:06:08.539	$GPGGA,040609,2530.4991,N,07958.8353,W,1,9,1.7,15,M,,M,,*5F
06/25/2015	04:06:09.529	$GPGGA,040610,2530.4984,N,07958.8348,W,1,9,1.7,15,M,,M,,*59
06/25/2015	04:06:10.538	$GPGGA,040611,2530.4975,N,07958.8343,W,1,9,1.7,15,M,,M,,*5D
06/25/2015	04:06:11.568	$GPGGA,040612,2530.4967,N,07958.8339,W,1,9,1.7,15,M,,M,,*50
06/25/2015	04:06:12.528	$GPGGA,040613,2530.4959,N,07958.8334,W,1,9,1.7,15,M,,M,,*51
06/25/2015	04:06:13.518	$GPGGA,040614,2530.4951,N,07958.8330,W,1,9,1.7,15,M,,M,,*5A
06/25/2015	04:06:14.768	$GPGGA,040615,2530.4944,N,07958.8325,W,1,9,1.7,15,M,,M,,*5B
06/25/2015	04:06:15.558	$GPGGA,040616,2530.4934,N,07958.8321,W,1,9,1.7,15,M,,M,,*5B
06/25/2015	04:06:17.538	$GPGGA,040618,2530.4919,N,07958.8312,W,1,9,1.7,15,M,,M,,*5A
06/25/2015	04:06:18.518	$GPGGA,040619,2530.4908,N,07958.8308,W,1,9,1.7,15,M,,M,,*50
06/25/2015	04:06:19.548	$GPGGA,040620,2530.4901,N,07958.8303,W,1,9,1.7,15,M,,M,,*58
06/25/2015	04:06:20.518	$GPGGA,040621,2530.4891,N,07958.8299,W,1,9,1.7,15,M,,M,,*53
06/25/2015	04:06:21.538	$GPGGA,040622,2530.4883,N,07958.8296,W,1,9,1.7,15,M,,M,,*5C
06/25/2015	04:06:22.506	$GPGGA,040623,2530.4874,N,07958.8291,W,1,9,1.7,15,M,,M,,*52
06/25/2015	04:06:23.529	$GPGGA,040624,2530.4867,N,07958.8287,W,1,9,1.7,15,M,,M,,*50
06/25/2015	04:06:24.501	$GPGGA,040625,2530.4858,N,07958.8284,W,1,9,1.7,15,M,,M,,*5E
06/25/2015	04:06:25.489	$GPGGA,040626,2530.4850,N,07958.8280,W,1,9,1.7,15,M,,M,,*51
06/25/2015	04:06:26.502	$GPGGA,040627,2530.4841,N,07958.8276,W,1,9,1.7,15,M,,M,,*59
06/25/2015	04:06:27.519	$GPGGA,040628,2530.4832,N,07958.8272,W,1,9,1.7,15,M,,M,,*56
06/25/2015	04:06:28.501	$GPGGA,040629,2530.4825,N,07958.8268,W,1,9,1.7,15,M,,M,,*5A
06/25/2015	04:06:30.528	$GPGGA,040631,2530.4807,N,07958.8263,W,1,9,1.7,15,M,,M,,*58
06/25/2015	04:06:31.501	$GPGGA,040632,2530.4796,N,07958.8258,W,1,8,2.0,15,M,,M,,*51
06/25/2015	04:06:32.609	$GPGGA,040633,2530.4787,N,07958.8257,W,1,8,1.7,15,M,,M,,*5B
06/25/2015	04:06:33.501	$GPGGA,040634,2530.4779,N,07958.8253,W,1,8,2.0,15,M,,M,,*5D
06/25/2015	04:06:34.479	$GPGGA,040635,2530.4771,N,07958.8248,W,1,8,1.7,15,M,,M,,*5A
06/25/2015	04:06:35.959	$GPGGA,040636,2530.4762,N,07958.8246,W,1,9,1.7,15,M,,M,,*54
06/25/2015	04:06:36.578	$GPGGA,040637,2530.4754,N,07958.8243,W,1,9,1.7,15,M,,M,,*55
06/25/2015	04:06:37.478	$GPGGA,040638,2530.4746,N,07958.8239,W,1,9,1.7,14,M,,M,,*55
06/25/2015	04:06:38.578	$GPGGA,040639,2530.4738,N,07958.8234,W,1,9,1.7,14,M,,M,,*50
06/25/2015	04:06:39.578	$GPGGA,040640,2530.4731,N,07958.8231,W,1,9,1.7,14,M,,M,,*52
06/25/2015	04:06:40.580	$GPGGA,040641,2530.4724,N,07958.8228,W,1,9,1.7,14,M,,M,,*5F
06/25/2015	04:06:41.559	$GPGGA,040642,2530.4715,N,07958.8224,W,1,9,1.7,14,M,,M,,*52
06/25/2015	04:06:42.569	$GPGGA,040643,2530.4707,N,07958.8220,W,1,9,1.7,14,M,,M,,*54
06/25/2015	04:06:43.569	$GPGGA,040644,2530.4699,N,07958.8216,W,1,9,1.7,14,M,,M,,*50
06/25/2015	04:06:44.839	$GPGGA,040645,2530.4691,N,07958.8213,W,1,9,1.7,14,M,,M,,*5C
06/25/2015	04:06:45.568	$GPGGA,040646,2530.4684,N,07958.8208,W,1,9,1.7,14,M,,M,,*51
06/25/2015	04:06:46.569	$GPGGA,040647,2530.4675,N,07958.8204,W,1,9,1.7,14,M,,M,,*52
06/25/2015	04:06:47.609	$GPGGA,040648,2530.4666,N,07958.8200,W,1,9,1.7,14,M,,M,,*5B
06/25/2015	04:06:48.568	$GPGGA,040649,2530.4659,N,07958.8196,W,1,9,1.7,14,M,,M,,*5A
06/25/2015	04:06:49.568	$GPGGA,040650,2530.4650,N,07958.8191,W,1,9,1.7,14,M,,M,,*5C
06/25/2015	04:06:50.548	$GPGGA,040651,2530.4642,N,07958.8187,W,1,9,1.7,14,M,,M,,*59
06/25/2015	04:06:51.569	$GPGGA,040652,2530.4634,N,07958.8183,W,1,9,1.7,14,M,,M,,*5F
06/25/2015	04:06:53.568	$GPGGA,040654,2530.4620,N,07958.8174,W,1,8,2.0,14,M,,M,,*51
06/25/2015	04:06:54.548	$GPGGA,040655,2530.4614,N,07958.8170,W,1,8,1.7,14,M,,M,,*57
06/25/2015	04:06:55.578	$GPGGA,040656,2530.4606,N,07958.8167,W,1,10,1.5,14,M,,M,,*6A
06/25/2015	04:06:56.548	$GPGGA,040657,2530.4598,N,07958.8162,W,1,10,1.5,14,M,,M,,*6A
06/25/2015	04:06:57.558	$GPGGA,040658,2530.4590,N,07958.8156,W,1,9,1.7,14,M,,M,,*50
06/25/2015	04:06:58.539	$GPGGA,040659,2530.4583,N,07958.8154,W,1,9,1.5,14,M,,M,,*53
06/25/2015	04:06:59.639	$GPGGA,040700,2530.4576,N,07958.8149,W,1,10,1.5,14,M,,M,,*60
06/25/2015	04:07:00.549	$GPGGA,040701,2530.4567,N,07958.8144,W,1,10,1.7,15,M,,M,,*6F
06/25/2015	04:07:01.549	$GPGGA,040702,2530.4559,N,07958.8140,W,1,10,1.5,15,M,,M,,*67
06/25/2015	04:07:02.519	$GPGGA,040703,2530.4551,N,07958.8136,W,1,10,1.5,15,M,,M,,*6F
06/25/2015	04:07:03.538	$GPGGA,040704,2530.4544,N,07958.8130,W,1,10,1.5,15,M,,M,,*6A
06/25/2015	04:07:04.529	$GPGGA,040705,2530.4536,N,07958.8128,W,1,10,1.5,15,M,,M,,*67
06/25/2015	04:07:05.518	$GPGGA,040706,2530.4527,N,07958.8124,W,1,10,1.5,15,M,,M,,*68
06/25/2015	04:07:06.538	$GPGGA,040707,2530.4519,N,07958.8118,W,1,10,1.5,15,M,,M,,*6B
06/25/2015	04:07:07.558	$GPGGA,040708,2530.4511,N,07958.8113,W,1,10,1.5,15,M,,M,,*67
06/25/2015	04:07:08.518	$GPGGA,040709,2530.4503,N,07958.8109,W,1,10,1.5,15,M,,M,,*6E
06/25/2015	04:07:09.668	$GPGGA,040710,2530.4494,N,07958.8105,W,1,10,1.5,15,M,,M,,*65
06/25/2015	04:07:10.518	$GPGGA,040711,2530.4487,N,07958.8099,W,1,10,1.5,15,M,,M,,*62
06/25/2015	04:07:11.528	$GPGGA,040712,2530.4478,N,07958.8094,W,1,10,1.5,15,M,,M,,*6C
06/25/2015	04:07:12.508	$GPGGA,040713,2530.4471,N,07958.8091,W,1,10,1.5,15,M,,M,,*61
06/25/2015	04:07:13.608	$GPGGA,040714,2530.4461,N,07958.8086,W,1,10,1.5,16,M,,M,,*62
06/25/2015	04:07:14.498	$GPGGA,040715,2530.4453,N,07958.8080,W,1,10,1.7,16,M,,M,,*66
06/25/2015	04:07:15.519	$GPGGA,040716,2530.4447,N,07958.8077,W,1,10,1.5,16,M,,M,,*6A
06/25/2015	04:07:16.489	$GPGGA,040717,2530.4439,N,07958.8074,W,1,10,1.5,16,M,,M,,*61
06/25/2015	04:07:17.501	$GPGGA,040718,2530.4433,N,07958.8068,W,1,10,1.5,16,M,,M,,*69
06/25/2015	04:07:18.511	$GPGGA,040719,2530.4424,N,07958.8064,W,1,10,1.5,16,M,,M,,*62
06/25/2015	04:07:19.669	$GPGGA,040720,2530.4418,N,07958.8063,W,1,9,1.7,16,M,,M,,*5A
06/25/2015	04:07:20.506	$GPGGA,040721,2530.4409,N,07958.8056,W,1,9,1.5,16,M,,M,,*5F
06/25/2015	04:07:21.658	$GPGGA,040722,2530.4400,N,07958.8051,W,1,10,1.7,16,M,,M,,*68
06/25/2015	04:07:22.488	$GPGGA,040723,2530.4390,N,07958.8047,W,1,10,1.7,16,M,,M,,*60
06/25/2015	04:07:23.504	$GPGGA,040724,2530.4381,N,07958.8042,W,1,9,1.7,17,M,,M,,*5B
06/25/2015	04:07:24.498	$GPGGA,040725,2530.4373,N,07958.8037,W,1,9,1.5,17,M,,M,,*57
06/25/2015	04:07:25.498	$GPGGA,040726,2530.4364,N,07958.8031,W,1,9,1.7,17,M,,M,,*56
06/25/2015	04:07:26.568	$GPGGA,040727,2530.4355,N,07958.8027,W,1,9,1.7,17,M,,M,,*52
06/25/2015	04:07:27.578	$GPGGA,040728,2530.4346,N,07958.8023,W,1,9,1.7,17,M,,M,,*5B
06/25/2015	04:07:28.568	$GPGGA,040729,2530.4337,N,07958.8017,W,1,9,1.7,17,M,,M,,*5B
06/25/2015	04:07:29.613	$GPGGA,040730,2530.4328,N,07958.8013,W,1,9,1.7,17,M,,M,,*59
06/25/2015	04:07:30.568	$GPGGA,040731,2530.4319,N,07958.8008,W,1,9,1.7,17,M,,M,,*50
06/25/2015	04:07:31.638	$GPGGA,040732,2530.4310,N,07958.8005,W,1,9,1.7,17,M,,M,,*57
06/25/2015	04:07:32.628	$GPGGA,040733,2530.4302,N,07958.7999,W,1,9,1.7,17,M,,M,,*56
06/25/2015	04:07:33.629	$GPGGA,040734,2530.4294,N,07958.7996,W,1,9,1.7,17,M,,M,,*50
06/25/2015	04:07:34.559	$GPGGA,040735,2530.4284,N,07958.7992,W,1,9,1.7,17,M,,M,,*54
06/25/2015	04:07:35.629	$GPGGA,040736,2530.4276,N,07958.7988,W,1,9,1.7,17,M,,M,,*51
06/25/2015	04:07:36.629	$GPGGA,040737,2530.4267,N,07958.7983,W,1,9,1.7,17,M,,M,,*5B
06/25/2015	04:07:37.589	$GPGGA,040738,2530.4258,N,07958.7981,W,1,9,1.7,16,M,,M,,*5B
06/25/2015	04:07:38.548	$GPGGA,040739,2530.4249,N,07958.7977,W,1,9,2.0,16,M,,M,,*57
06/25/2015	04:07:39.618	$GPGGA,040740,2530.4241,N,07958.7972,W,1,8,1.7,16,M,,M,,*51
06/25/2015	04:07:40.548	$GPGGA,040741,2530.4233,N,07958.7968,W,1,8,1.7,16,M,,M,,*5E
06/25/2015	04:07:41.538	$GPGGA,040742,2530.4225,N,07958.7965,W,1,9,1.7,16,M,,M,,*56
06/25/2015	04:07:42.612	$GPGGA,040743,2530.4218,N,07958.7962,W,1,9,1.7,16,M,,M,,*5E
06/25/2015	04:07:43.610	$GPGGA,040744,2530.4211,N,07958.7959,W,1,9,1.5,16,M,,M,,*5A
06/25/2015	04:07:44.904	$GPGGA,040745,2530.4202,N,07958.7955,W,1,9,1.5,16,M,,M,,*55
06/25/2015	04:07:45.578	$GPGGA,040746,2530.4193,N,07958.7952,W,1,8,1.8,16,M,,M,,*56
06/25/2015	04:07:46.612	$GPGGA,040747,2530.4184,N,07958.7948,W,1,8,1.7,16,M,,M,,*55
06/25/2015	04:07:47.588	$GPGGA,040748,2530.4178,N,07958.7944,W,1,10,1.5,16,M,,M,,*6E
06/25/2015	04:07:48.598	$GPGGA,040749,2530.4171,N,07958.7940,W,1,10,1.5,16,M,,M,,*62
06/25/2015	04:07:49.612	$GPGGA,040750,2530.4164,N,07958.7938,W,1,10,1.5,16,M,,M,,*61
06/25/2015	04:07:50.611	$GPGGA,040751,2530.4155,N,07958.7934,W,1,10,1.5,16,M,,M,,*6E
06/25/2015	04:07:51.589	$GPGGA,040752,2530.4146,N,07958.7929,W,1,9,1.7,16,M,,M,,*59
06/25/2015	04:07:52.579	$GPGGA,040753,2530.4138,N,07958.7925,W,1,9,1.7,17,M,,M,,*5C
06/25/2015	04:07:53.519	$GPGGA,040754,2530.4129,N,07958.7921,W,1,9,1.7,17,M,,M,,*5F
06/25/2015	04:07:54.579	$GPGGA,040755,2530.4120,N,07958.7918,W,1,9,1.7,17,M,,M,,*5D
06/25/2015	04:07:55.528	$GPGGA,040756,2530.4111,N,07958.7913,W,1,9,1.7,17,M,,M,,*57
06/25/2015	04:07:56.508	$GPGGA,040757,2530.4103,N,07958.7909,W,1,9,1.7,17,M,,M,,*5E
06/25/2015	04:07:57.548	$GPGGA,040758,2530.4095,N,07958.7906,W,1,9,1.7,17,M,,M,,*50
06/25/2015	04:07:58.578	$GPGGA,040759,2530.4086,N,07958.7901,W,1,9,1.7,17,M,,M,,*54
06/25/2015	04:07:59.579	$GPGGA,040800,2530.4078,N,07958.7896,W,1,9,1.7,17,M,,M,,*59
06/25/2015	04:08:00.568	$GPGGA,040801,2530.4070,N,07958.7893,W,1,9,1.7,17,M,,M,,*55
06/25/2015	04:08:01.628	$GPGGA,040802,2530.4061,N,07958.7888,W,1,9,1.7,17,M,,M,,*5C
06/25/2015	04:08:02.628	$GPGGA,040803,2530.4054,N,07958.7883,W,1,9,1.7,17,M,,M,,*50
06/25/2015	04:08:03.568	$GPGGA,040804,2530.4048,N,07958.7882,W,1,9,1.5,17,M,,M,,*59
06/25/2015	04:08:04.488	$GPGGA,040805,2530.4041,N,07958.7877,W,1,9,1.5,17,M,,M,,*5B
06/25/2015	04:08:05.538	$GPGGA,040806,2530.4032,N,07958.7872,W,1,10,1.5,17,M,,M,,*61
06/25/2015	04:08:06.558	$GPGGA,040807,2530.4024,N,07958.7868,W,1,10,1.5,17,M,,M,,*6C
06/25/2015	04:08:07.638	$GPGGA,040808,2530.4016,N,07958.7864,W,1,10,1.5,17,M,,M,,*6E
06/25/2015	04:08:08.609	$GPGGA,040809,2530.4009,N,07958.7859,W,1,10,1.5,17,M,,M,,*6F
06/25/2015	04:08:09.479	$GPGGA,040810,2530.4002,N,07958.7855,W,1,10,1.5,17,M,,M,,*60
06/25/2015	04:08:10.559	$GPGGA,040811,2530.3994,N,07958.7851,W,1,10,1.5,17,M,,M,,*64
06/25/2015	04:08:11.569	$GPGGA,040812,2530.3987,N,07958.7845,W,1,10,1.5,17,M,,M,,*60
06/25/2015	04:08:12.579	$GPGGA,040813,2530.3979,N,07958.7841,W,1,10,1.5,17,M,,M,,*64
06/25/2015	04:08:13.558	$GPGGA,040814,2530.3971,N,07958.7838,W,1,10,1.5,17,M,,M,,*65
06/25/2015	04:08:14.579	$GPGGA,040815,2530.3965,N,07958.7832,W,1,10,1.5,17,M,,M,,*6B
06/25/2015	04:08:15.628	$GPGGA,040816,2530.3955,N,07958.7828,W,1,10,1.5,17,M,,M,,*60
06/25/2015	04:08:16.568	$GPGGA,040817,2530.3948,N,07958.7825,W,1,10,1.5,17,M,,M,,*60
06/25/2015	04:08:17.579	$GPGGA,040818,2530.3940,N,07958.7819,W,1,10,1.5,17,M,,M,,*68
06/25/2015	04:08:18.579	$GPGGA,040819,2530.3931,N,07958.7814,W,1,10,1.5,17,M,,M,,*62
06/25/2015	04:08:19.579	$GPGGA,040820,2530.3923,N,07958.7812,W,1,10,1.5,18,M,,M,,*62
06/25/2015	04:08:20.579	$GPGGA,040821,2530.3915,N,07958.7807,W,1,10,1.5,18,M,,M,,*62
06/25/2015	04:08:21.588	$GPGGA,040822,2530.3907,N,07958.7801,W,1,10,1.5,18,M,,M,,*64
06/25/2015	04:08:22.568	$GPGGA,040823,2530.3900,N,07958.7798,W,1,10,1.5,18,M,,M,,*6D
06/25/2015	04:08:23.616	$GPGGA,040824,2530.3893,N,07958.7794,W,1,10,1.5,18,M,,M,,*6D
06/25/2015	04:08:24.568	$GPGGA,040825,2530.3885,N,07958.7790,W,1,10,1.5,18,M,,M,,*6F
06/25/2015	04:08:25.589	$GPGGA,040826,2530.3877,N,07958.7785,W,1,10,1.7,18,M,,M,,*67
06/25/2015	04:08:26.559	$GPGGA,040827,2530.3868,N,07958.7780,W,1,10,1.7,18,M,,M,,*6D
06/25/2015	04:08:27.569	$GPGGA,040828,2530.3859,N,07958.7776,W,1,9,1.7,18,M,,M,,*51
06/25/2015	04:08:28.569	$GPGGA,040829,2530.3850,N,07958.7771,W,1,9,1.7,18,M,,M,,*5E
06/25/2015	04:08:29.569	$GPGGA,040830,2530.3842,N,07958.7767,W,1,9,1.7,18,M,,M,,*52
06/25/2015	04:08:30.548	$GPGGA,040831,2530.3832,N,07958.7762,W,1,9,1.7,18,M,,M,,*51
06/25/2015	04:08:31.578	$GPGGA,040832,2530.3824,N,07958.7758,W,1,9,1.7,18,M,,M,,*5C
06/25/2015	04:08:32.548	$GPGGA,040833,2530.3815,N,07958.7754,W,1,9,1.7,18,M,,M,,*53
06/25/2015	04:08:33.568	$GPGGA,040834,2530.3806,N,07958.7749,W,1,9,1.7,18,M,,M,,*5A
06/25/2015	04:08:34.548	$GPGGA,040835,2530.3799,N,07958.7745,W,1,9,1.7,18,M,,M,,*5E
06/25/2015	04:08:35.568	$GPGGA,040836,2530.3789,N,07958.7741,W,1,9,1.7,18,M,,M,,*58
06/25/2015	04:08:36.548	$GPGGA,040837,2530.3781,N,07958.7736,W,1,9,1.7,18,M,,M,,*51
06/25/2015	04:08:37.558	$GPGGA,040838,2530.3772,N,07958.7733,W,1,9,1.7,18,M,,M,,*57
06/25/2015	04:08:38.558	$GPGGA,040839,2530.3764,N,07958.7728,W,1,9,1.7,18,M,,M,,*5B
06/25/2015	04:08:39.558	$GPGGA,040840,2530.3755,N,07958.7724,W,1,9,1.7,18,M,,M,,*5B
06/25/2015	04:08:40.549	$GPGGA,040841,2530.3746,N,07958.7722,W,1,9,1.7,18,M,,M,,*5E
06/25/2015	04:08:41.558	$GPGGA,040842,2530.3738,N,07958.7716,W,1,9,1.7,18,M,,M,,*53
06/25/2015	04:08:42.528	$GPGGA,040843,2530.3738,N,07958.7716,W,1,9,1.7,18,M,,M,,*52
06/25/2015	04:08:43.613	$GPGGA,040844,2530.3730,N,07958.7712,W,1,9,1.7,18,M,,M,,*59
06/25/2015	04:08:44.559	$GPGGA,040845,2530.3712,N,07958.7705,W,1,9,1.7,17,M,,M,,*51
06/25/2015	04:08:45.549	$GPGGA,040846,2530.3705,N,07958.7700,W,1,9,1.7,17,M,,M,,*51
06/25/2015	04:08:46.559	$GPGGA,040847,2530.3705,N,07958.7700,W,1,9,1.7,17,M,,M,,*50
06/25/2015	04:08:47.519	$GPGGA,040848,2530.3687,N,07958.7693,W,1,9,1.7,17,M,,M,,*5F
06/25/2015	04:08:48.628	$GPGGA,040849,2530.3680,N,07958.7690,W,1,9,1.7,17,M,,M,,*5A
06/25/2015	04:08:49.528	$GPGGA,040850,2530.3672,N,07958.7685,W,1,8,2.0,17,M,,M,,*5E
06/25/2015	04:08:50.618	$GPGGA,040851,2530.3665,N,07958.7680,W,1,8,1.7,17,M,,M,,*58
06/25/2015	04:08:51.528	$GPGGA,040852,2530.3655,N,07958.7678,W,1,9,1.7,17,M,,M,,*5E
06/25/2015	04:08:52.598	$GPGGA,040853,2530.3647,N,07958.7673,W,1,9,1.7,17,M,,M,,*57
06/25/2015	04:08:53.498	$GPGGA,040854,2530.3637,N,07958.7669,W,1,9,1.7,17,M,,M,,*5C
06/25/2015	04:08:54.599	$GPGGA,040855,2530.3629,N,07958.7667,W,1,9,1.7,17,M,,M,,*5C
06/25/2015	04:08:55.618	$GPGGA,040856,2530.3619,N,07958.7663,W,1,9,1.7,17,M,,M,,*58
06/25/2015	04:08:56.518	$GPGGA,040857,2530.3619,N,07958.7663,W,1,9,1.7,17,M,,M,,*59
06/25/2015	04:08:57.501	$GPGGA,040858,2530.3602,N,07958.7656,W,1,9,1.7,17,M,,M,,*5A
06/25/2015	04:08:58.613	$GPGGA,040859,2530.3593,N,07958.7652,W,1,9,1.7,17,M,,M,,*54
06/25/2015	04:08:59.509	$GPGGA,040900,2530.3586,N,07958.7647,W,1,9,1.7,17,M,,M,,*59
06/25/2015	04:09:00.589	$GPGGA,040901,2530.3576,N,07958.7643,W,1,9,1.7,16,M,,M,,*52
06/25/2015	04:09:01.579	$GPGGA,040902,2530.3568,N,07958.7641,W,1,9,1.7,16,M,,M,,*5C
06/25/2015	04:09:02.589	$GPGGA,040903,2530.3559,N,07958.7636,W,1,9,1.7,16,M,,M,,*5F
06/25/2015	04:09:03.589	$GPGGA,040904,2530.3550,N,07958.7631,W,1,9,1.7,16,M,,M,,*56
06/25/2015	04:09:04.579	$GPGGA,040905,2530.3542,N,07958.7628,W,1,9,1.7,16,M,,M,,*5C
06/25/2015	04:09:05.611	$GPGGA,040906,2530.3532,N,07958.7625,W,1,9,1.7,16,M,,M,,*55
06/25/2015	04:09:06.568	$GPGGA,040907,2530.3524,N,07958.7619,W,1,9,1.7,16,M,,M,,*5C
06/25/2015	04:09:07.578	$GPGGA,040908,2530.3517,N,07958.7615,W,1,9,1.7,16,M,,M,,*5F
06/25/2015	04:09:08.568	$GPGGA,040909,2530.3510,N,07958.7612,W,1,9,2.0,16,M,,M,,*5A
06/25/2015	04:09:09.568	$GPGGA,040910,2530.3503,N,07958.7607,W,1,9,1.7,16,M,,M,,*50
06/25/2015	04:09:10.568	$GPGGA,040911,2530.3494,N,07958.7601,W,1,9,1.7,16,M,,M,,*58
06/25/2015	04:09:11.609	$GPGGA,040912,2530.3486,N,07958.7598,W,1,9,1.7,16,M,,M,,*5B
06/25/2015	04:09:12.558	$GPGGA,040913,2530.3477,N,07958.7594,W,1,9,1.7,16,M,,M,,*58
06/25/2015	04:09:13.548	$GPGGA,040914,2530.3472,N,07958.7590,W,1,9,1.7,16,M,,M,,*5E
06/25/2015	04:09:14.558	$GPGGA,040915,2530.3466,N,07958.7586,W,1,9,1.5,16,M,,M,,*5F
06/25/2015	04:09:15.588	$GPGGA,040916,2530.3459,N,07958.7583,W,1,10,1.5,16,M,,M,,*6D
06/25/2015	04:09:16.558	$GPGGA,040917,2530.3450,N,07958.7577,W,1,10,1.5,16,M,,M,,*6E
06/25/2015	04:09:17.568	$GPGGA,040918,2530.3443,N,07958.7573,W,1,9,1.7,16,M,,M,,*5D
06/25/2015	04:09:18.549	$GPGGA,040919,2530.3436,N,07958.7569,W,1,9,1.5,16,M,,M,,*57
06/25/2015	04:09:19.589	$GPGGA,040920,2530.3427,N,07958.7563,W,1,10,1.5,16,M,,M,,*6F
06/25/2015	04:09:20.549	$GPGGA,040921,2530.3420,N,07958.7558,W,1,10,1.5,16,M,,M,,*61
06/25/2015	04:09:21.539	$GPGGA,040922,2530.3412,N,07958.7555,W,1,10,1.5,16,M,,M,,*6E
06/25/2015	04:09:22.539	$GPGGA,040923,2530.3405,N,07958.7549,W,1,10,1.5,16,M,,M,,*64
06/25/2015	04:09:23.898	$GPGGA,040924,2530.3398,N,07958.7545,W,1,10,1.5,16,M,,M,,*6C
06/25/2015	04:09:24.528	$GPGGA,040925,2530.3391,N,07958.7542,W,1,10,1.5,16,M,,M,,*63
06/25/2015	04:09:25.558	$GPGGA,040926,2530.3383,N,07958.7537,W,1,10,1.5,16,M,,M,,*61
06/25/2015	04:09:26.548	$GPGGA,040927,2530.3374,N,07958.7531,W,1,10,1.5,16,M,,M,,*6E
06/25/2015	04:09:27.568	$GPGGA,040928,2530.3366,N,07958.7527,W,1,9,1.7,16,M,,M,,*5F
06/25/2015	04:09:28.528	$GPGGA,040929,2530.3358,N,07958.7522,W,1,9,1.7,16,M,,M,,*56
06/25/2015	04:09:29.548	$GPGGA,040930,2530.3349,N,07958.7518,W,1,9,1.7,16,M,,M,,*57
06/25/2015	04:09:30.538	$GPGGA,040931,2530.3341,N,07958.7514,W,1,9,1.7,16,M,,M,,*52
06/25/2015	04:09:31.558	$GPGGA,040932,2530.3333,N,07958.7508,W,1,9,1.7,16,M,,M,,*59
06/25/2015	04:09:32.521	$GPGGA,040933,2530.3324,N,07958.7505,W,1,9,1.7,16,M,,M,,*53
06/25/2015	04:09:33.518	$GPGGA,040934,2530.3316,N,07958.7501,W,1,9,1.7,16,M,,M,,*51
06/25/2015	04:09:34.517	$GPGGA,040935,2530.3307,N,07958.7496,W,1,9,1.7,16,M,,M,,*5F
06/25/2015	04:09:35.539	$GPGGA,040936,2530.3299,N,07958.7492,W,1,9,1.7,16,M,,M,,*5E
06/25/2015	04:09:36.522	$GPGGA,040937,2530.3291,N,07958.7489,W,1,9,1.7,16,M,,M,,*5D
06/25/2015	04:09:37.501	$GPGGA,040938,2530.3282,N,07958.7484,W,1,9,1.7,16,M,,M,,*5D
06/25/2015	04:09:38.519	$GPGGA,040939,2530.3275,N,07958.7479,W,1,9,1.7,16,M,,M,,*56
06/25/2015	04:09:39.510	$GPGGA,040940,2530.3268,N,07958.7476,W,1,9,1.7,16,M,,M,,*5B
06/25/2015	04:09:40.618	$GPGGA,040941,2530.3259,N,07958.7472,W,1,9,1.7,16,M,,M,,*5C
06/25/2015	04:09:41.488	$GPGGA,040942,2530.3251,N,07958.7468,W,1,9,1.7,16,M,,M,,*5C
06/25/2015	04:09:42.518	$GPGGA,040943,2530.3243,N,07958.7463,W,1,9,1.7,16,M,,M,,*55
06/25/2015	04:09:43.628	$GPGGA,040944,2530.3235,N,07958.7459,W,1,9,1.7,16,M,,M,,*5A
06/25/2015	04:09:44.511	$GPGGA,040945,2530.3226,N,07958.7457,W,1,9,1.7,16,M,,M,,*57
06/25/2015	04:09:45.512	$GPGGA,040946,2530.3218,N,07958.7452,W,1,9,1.7,16,M,,M,,*5C
06/25/2015	04:09:46.613	$GPGGA,040947,2530.3210,N,07958.7448,W,1,9,1.7,16,M,,M,,*5E
06/25/2015	04:09:47.511	$GPGGA,040948,2530.3201,N,07958.7444,W,1,9,1.7,16,M,,M,,*5D
06/25/2015	04:09:48.588	$GPGGA,040949,2530.3193,N,07958.7440,W,1,9,1.7,16,M,,M,,*50
06/25/2015	04:09:49.518	$GPGGA,040950,2530.3185,N,07958.7437,W,1,9,1.7,16,M,,M,,*5F
06/25/2015	04:09:50.588	$GPGGA,040951,2530.3177,N,07958.7432,W,1,9,1.7,16,M,,M,,*56
06/25/2015	04:09:51.608	$GPGGA,040952,2530.3169,N,07958.7429,W,1,9,1.7,16,M,,M,,*50
06/25/2015	04:09:52.579	$GPGGA,040953,2530.3160,N,07958.7425,W,1,9,1.7,16,M,,M,,*54
06/25/2015	04:09:53.579	$GPGGA,040954,2530.3152,N,07958.7422,W,1,9,1.7,16,M,,M,,*55
06/25/2015	04:09:54.569	$GPGGA,040955,2530.3143,N,07958.7418,W,1,9,1.7,16,M,,M,,*5D
06/25/2015	04:09:55.589	$GPGGA,040956,2530.3134,N,07958.7414,W,1,9,1.7,16,M,,M,,*52
06/25/2015	04:09:56.569	$GPGGA,040957,2530.3127,N,07958.7411,W,1,9,1.7,16,M,,M,,*54
06/25/2015	04:09:57.579	$GPGGA,040958,2530.3118,N,07958.7407,W,1,9,1.7,16,M,,M,,*50
06/25/2015	04:09:58.558	$GPGGA,040959,2530.3109,N,07958.7403,W,1,9,1.7,16,M,,M,,*55
06/25/2015	04:09:59.578	$GPGGA,041000,2530.3102,N,07958.7400,W,1,9,1.7,16,M,,M,,*59
06/25/2015	04:10:00.558	$GPGGA,041001,2530.3092,N,07958.7396,W,1,9,1.7,16,M,,M,,*58
06/25/2015	04:10:01.578	$GPGGA,041002,2530.3084,N,07958.7392,W,1,9,1.7,16,M,,M,,*58
06/25/2015	04:10:02.558	$GPGGA,041003,2530.3075,N,07958.7389,W,1,9,1.7,16,M,,M,,*5D
06/25/2015	04:10:03.599	$GPGGA,041004,2530.3067,N,07958.7385,W,1,9,1.7,16,M,,M,,*55
06/25/2015	04:10:04.558	$GPGGA,041005,2530.3059,N,07958.7381,W,1,9,1.7,16,M,,M,,*5D
06/25/2015	04:10:05.568	$GPGGA,041006,2530.3051,N,07958.7378,W,1,9,1.7,16,M,,M,,*50
06/25/2015	04:10:06.538	$GPGGA,041007,2530.3044,N,07958.7375,W,1,9,1.7,16,M,,M,,*58
06/25/2015	04:10:07.578	$GPGGA,041008,2530.3037,N,07958.7371,W,1,10,1.5,16,M,,M,,*6D
06/25/2015	04:10:08.548	$GPGGA,041009,2530.3028,N,07958.7368,W,1,10,1.5,16,M,,M,,*6A
06/25/2015	04:10:09.538	$GPGGA,041010,2530.3019,N,07958.7365,W,1,9,1.7,16,M,,M,,*57
06/25/2015	04:10:10.549	$GPGGA,041011,2530.3010,N,07958.7361,W,1,9,1.7,16,M,,M,,*5B
06/25/2015	04:10:11.537	$GPGGA,041012,2530.3002,N,07958.7356,W,1,9,1.7,16,M,,M,,*5F
06/25/2015	04:10:12.527	$GPGGA,041013,2530.2994,N,07958.7352,W,1,9,1.7,16,M,,M,,*5D
06/25/2015	04:10:13.557	$GPGGA,041014,2530.2986,N,07958.7350,W,1,9,1.7,16,M,,M,,*5B
06/25/2015	04:10:14.517	$GPGGA,041015,2530.2977,N,07958.7344,W,1,9,1.7,16,M,,M,,*51
06/25/2015	04:10:15.546	$GPGGA,041016,2530.2969,N,07958.7339,W,1,9,1.7,16,M,,M,,*57
06/25/2015	04:10:16.526	$GPGGA,041017,2530.2961,N,07958.7336,W,1,9,2.0,16,M,,M,,*55
06/25/2015	04:10:17.506	$GPGGA,041018,2530.2953,N,07958.7332,W,1,9,1.7,15,M,,M,,*58
06/25/2015	04:10:18.516	$GPGGA,041019,2530.2944,N,07958.7328,W,1,9,1.7,15,M,,M,,*54
06/25/2015	04:10:19.556	$GPGGA,041020,2530.2937,N,07958.7324,W,1,9,1.7,15,M,,M,,*56
06/25/2015	04:10:20.516	$GPGGA,041021,2530.2929,N,07958.7321,W,1,9,1.7,15,M,,M,,*5D
06/25/2015	04:10:21.526	$GPGGA,041022,2530.2921,N,07958.7317,W,1,9,1.7,15,M,,M,,*53
06/25/2015	04:10:22.516	$GPGGA,041023,2530.2917,N,07958.7314,W,1,9,1.7,15,M,,M,,*54
06/25/2015	04:10:23.505	$GPGGA,041024,2530.2910,N,07958.7311,W,1,10,1.5,15,M,,M,,*6B
06/25/2015	04:10:24.598	$GPGGA,041025,2530.2905,N,07958.7308,W,1,10,1.5,15,M,,M,,*66
06/25/2015	04:10:25.496	$GPGGA,041026,2530.2898,N,07958.7304,W,1,10,1.5,15,M,,M,,*6C
06/25/2015	04:10:26.616	$GPGGA,041027,2530.2890,N,07958.7300,W,1,10,1.5,15,M,,M,,*61
06/25/2015	04:10:27.537	$GPGGA,041028,2530.2881,N,07958.7296,W,1,9,1.7,16,M,,M,,*59
06/25/2015	04:10:28.489	$GPGGA,041029,2530.2874,N,07958.7291,W,1,9,1.7,16,M,,M,,*55
06/25/2015	04:10:29.617	$GPGGA,041030,2530.2868,N,07958.7288,W,1,9,1.7,16,M,,M,,*58
06/25/2015	04:10:30.509	$GPGGA,041031,2530.2861,N,07958.7285,W,1,9,1.5,16,M,,M,,*5F
06/25/2015	04:10:31.617	$GPGGA,041032,2530.2852,N,07958.7280,W,1,10,1.5,16,M,,M,,*61
06/25/2015	04:10:32.507	$GPGGA,041033,2530.2846,N,07958.7278,W,1,10,1.7,16,M,,M,,*60
06/25/2015	04:10:33.499	$GPGGA,041034,2530.2840,N,07958.7274,W,1,10,1.5,16,M,,M,,*6F
06/25/2015	04:10:34.488	$GPGGA,041035,2530.2832,N,07958.7268,W,1,10,1.5,16,M,,M,,*66
06/25/2015	04:10:35.596	$GPGGA,041036,2530.2823,N,07958.7264,W,1,10,1.5,16,M,,M,,*69
06/25/2015	04:10:36.576	$GPGGA,041037,2530.2814,N,07958.7260,W,1,10,1.7,16,M,,M,,*6A
06/25/2015	04:10:37.576	$GPGGA,041038,2530.2806,N,07958.7254,W,1,9,1.7,16,M,,M,,*59
06/25/2015	04:10:38.576	$GPGGA,041039,2530.2798,N,07958.7250,W,1,9,1.7,16,M,,M,,*54
06/25/2015	04:10:39.598	$GPGGA,041040,2530.2789,N,07958.7245,W,1,9,1.7,16,M,,M,,*5E
06/25/2015	04:10:40.556	$GPGGA,041041,2530.2780,N,07958.7240,W,1,9,1.7,16,M,,M,,*53
06/25/2015	04:10:41.566	$GPGGA,041042,2530.2773,N,07958.7237,W,1,9,1.7,16,M,,M,,*5C
06/25/2015	04:10:42.566	$GPGGA,041043,2530.2763,N,07958.7233,W,1,9,1.7,16,M,,M,,*58
06/25/2015	04:10:43.576	$GPGGA,041044,2530.2755,N,07958.7228,W,1,9,1.7,16,M,,M,,*50
06/25/2015	04:10:44.556	$GPGGA,041045,2530.2746,N,07958.7224,W,1,9,1.7,16,M,,M,,*5F
06/25/2015	04:10:45.577	$GPGGA,041046,2530.2737,N,07958.7221,W,1,9,1.7,16,M,,M,,*5F
06/25/2015	04:10:46.567	$GPGGA,041047,2530.2729,N,07958.7216,W,1,9,1.7,16,M,,M,,*55
06/25/2015	04:10:47.607	$GPGGA,041048,2530.2721,N,07958.7211,W,1,9,1.7,16,M,,M,,*55
06/25/2015	04:10:48.557	$GPGGA,041049,2530.2712,N,07958.7208,W,1,9,1.7,16,M,,M,,*5C
06/25/2015	04:10:49.567	$GPGGA,041050,2530.2704,N,07958.7204,W,1,9,1.7,16,M,,M,,*5F
06/25/2015	04:10:50.536	$GPGGA,041051,2530.2695,N,07958.7198,W,1,9,1.7,16,M,,M,,*51
06/25/2015	04:10:51.586	$GPGGA,041052,2530.2686,N,07958.7196,W,1,9,1.7,16,M,,M,,*5E
06/25/2015	04:10:52.546	$GPGGA,041053,2530.2679,N,07958.7191,W,1,9,1.7,16,M,,M,,*58
06/25/2015	04:10:53.566	$GPGGA,041054,2530.2670,N,07958.7187,W,1,9,1.7,16,M,,M,,*51
06/25/2015	04:10:54.536	$GPGGA,041055,2530.2661,N,07958.7183,W,1,9,1.7,16,M,,M,,*54
06/25/2015	04:10:55.576	$GPGGA,041056,2530.2654,N,07958.7179,W,1,9,1.7,16,M,,M,,*54
06/25/2015	04:10:56.536	$GPGGA,041057,2530.2645,N,07958.7174,W,1,9,1.7,16,M,,M,,*58
06/25/2015	04:10:57.536	$GPGGA,041058,2530.2637,N,07958.7171,W,1,9,1.7,16,M,,M,,*57
06/25/2015	04:10:58.536	$GPGGA,041059,2530.2628,N,07958.7166,W,1,9,1.7,16,M,,M,,*5E
06/25/2015	04:10:59.566	$GPGGA,041100,2530.2621,N,07958.7162,W,1,9,1.7,16,M,,M,,*5E
06/25/2015	04:11:00.526	$GPGGA,041101,2530.2612,N,07958.7158,W,1,9,1.7,16,M,,M,,*56
06/25/2015	04:11:01.556	$GPGGA,041102,2530.2604,N,07958.7154,W,1,9,1.7,16,M,,M,,*5E
06/25/2015	04:11:02.526	$GPGGA,041103,2530.2596,N,07958.7149,W,1,9,1.7,16,M,,M,,*5B
06/25/2015	04:11:03.527	$GPGGA,041104,2530.2589,N,07958.7146,W,1,9,1.7,16,M,,M,,*5D
06/25/2015	04:11:04.507	$GPGGA,041105,2530.2579,N,07958.7142,W,1,9,1.7,16,M,,M,,*57
06/25/2015	04:11:05.527	$GPGGA,041106,2530.2570,N,07958.7138,W,1,9,1.7,16,M,,M,,*50
06/25/2015	04:11:06.517	$GPGGA,041107,2530.2562,N,07958.7133,W,1,9,1.7,16,M,,M,,*59
06/25/2015	04:11:07.527	$GPGGA,041108,2530.2553,N,07958.7129,W,1,9,1.7,16,M,,M,,*5F
06/25/2015	04:11:08.526	$GPGGA,041109,2530.2545,N,07958.7125,W,1,9,1.7,16,M,,M,,*55
06/25/2015	04:11:10.536	$GPGGA,041111,2530.2529,N,07958.7116,W,1,9,1.7,15,M,,M,,*55
06/25/2015	04:11:11.666	$GPGGA,041112,2530.2521,N,07958.7112,W,1,9,1.7,15,M,,M,,*5A
06/25/2015	04:11:12.526	$GPGGA,041113,2530.2513,N,07958.7107,W,1,9,1.7,15,M,,M,,*5E
06/25/2015	04:11:13.607	$GPGGA,041114,2530.2503,N,07958.7102,W,1,9,1.7,15,M,,M,,*5D
06/25/2015	04:11:14.500	$GPGGA,041115,2530.2495,N,07958.7098,W,1,9,1.7,15,M,,M,,*50
06/25/2015	04:11:15.526	$GPGGA,041116,2530.2486,N,07958.7094,W,1,9,1.7,15,M,,M,,*5D
06/25/2015	04:11:16.506	$GPGGA,041117,2530.2477,N,07958.7090,W,1,9,1.7,15,M,,M,,*56
06/25/2015	04:11:17.489	$GPGGA,041118,2530.2469,N,07958.7086,W,1,9,1.7,15,M,,M,,*51
06/25/2015	04:11:18.606	$GPGGA,041119,2530.2462,N,07958.7081,W,1,9,1.7,15,M,,M,,*5C
06/25/2015	04:11:19.586	$GPGGA,041120,2530.2452,N,07958.7077,W,1,9,1.7,15,M,,M,,*5C
06/25/2015	04:11:20.490	$GPGGA,041121,2530.2445,N,07958.7073,W,1,9,1.7,15,M,,M,,*5F
06/25/2015	04:11:21.599	$GPGGA,041122,2530.2437,N,07958.7070,W,1,9,1.7,15,M,,M,,*5A
06/25/2015	04:11:22.602	$GPGGA,041123,2530.2430,N,07958.7066,W,1,9,1.5,15,M,,M,,*59
06/25/2015	04:11:23.617	$GPGGA,041124,2530.2423,N,07958.7063,W,1,9,1.7,15,M,,M,,*5B
06/25/2015	04:11:24.577	$GPGGA,041125,2530.2415,N,07958.7059,W,1,9,1.5,15,M,,M,,*54
06/25/2015	04:11:25.599	$GPGGA,041126,2530.2405,N,07958.7055,W,1,9,1.7,15,M,,M,,*58
06/25/2015	04:11:26.576	$GPGGA,041127,2530.2397,N,07958.7051,W,1,9,1.7,15,M,,M,,*51
06/25/2015	04:11:27.591	$GPGGA,041128,2530.2388,N,07958.7048,W,1,9,1.7,15,M,,M,,*58
06/25/2015	04:11:28.576	$GPGGA,041129,2530.2380,N,07958.7043,W,1,9,1.7,15,M,,M,,*5A
06/25/2015	04:11:29.566	$GPGGA,041130,2530.2372,N,07958.7040,W,1,9,1.7,15,M,,M,,*5C
06/25/2015	04:11:30.566	$GPGGA,041131,2530.2365,N,07958.7036,W,1,9,1.5,15,M,,M,,*58
06/25/2015	04:11:31.616	$GPGGA,041132,2530.2355,N,07958.7031,W,1,9,1.7,15,M,,M,,*5D
06/25/2015	04:11:32.556	$GPGGA,041133,2530.2346,N,07958.7026,W,1,9,1.7,15,M,,M,,*58
06/25/2015	04:11:33.576	$GPGGA,041134,2530.2338,N,07958.7023,W,1,9,1.7,15,M,,M,,*53
06/25/2015	04:11:34.556	$GPGGA,041135,2530.2329,N,07958.7020,W,1,9,1.7,15,M,,M,,*51
06/25/2015	04:11:35.566	$GPGGA,041136,2530.2322,N,07958.7015,W,1,8,2.0,15,M,,M,,*5A
06/25/2015	04:11:36.546	$GPGGA,041137,2530.2314,N,07958.7013,W,1,8,1.7,15,M,,M,,*5C
06/25/2015	04:11:37.556	$GPGGA,041138,2530.2308,N,07958.7016,W,1,9,1.7,15,M,,M,,*5A
06/25/2015	04:11:38.547	$GPGGA,041139,2530.2300,N,07958.7010,W,1,9,1.7,15,M,,M,,*55
06/25/2015	04:11:39.577	$GPGGA,041140,2530.2293,N,07958.7008,W,1,9,1.7,15,M,,M,,*59
06/25/2015	04:11:40.547	$GPGGA,041141,2530.2285,N,07958.7006,W,1,9,1.7,15,M,,M,,*51
06/25/2015	04:11:41.537	$GPGGA,041142,2530.2276,N,07958.6999,W,1,8,2.0,15,M,,M,,*55
06/25/2015	04:11:42.547	$GPGGA,041143,2530.2268,N,07958.6994,W,1,8,1.7,15,M,,M,,*52
06/25/2015	04:11:43.566	$GPGGA,041144,2530.2260,N,07958.6991,W,1,9,1.7,15,M,,M,,*59
06/25/2015	04:11:44.536	$GPGGA,041145,2530.2251,N,07958.6986,W,1,9,1.7,15,M,,M,,*5C
06/25/2015	04:11:45.556	$GPGGA,041146,2530.2244,N,07958.6981,W,1,9,1.7,15,M,,M,,*5C
06/25/2015	04:11:47.586	$GPGGA,041148,2530.2227,N,07958.6973,W,1,9,1.7,15,M,,M,,*5A
06/25/2015	04:11:48.536	$GPGGA,041149,2530.2220,N,07958.6969,W,1,9,1.7,15,M,,M,,*57
06/25/2015	04:11:49.516	$GPGGA,041150,2530.2211,N,07958.6965,W,1,9,1.7,15,M,,M,,*51
06/25/2015	04:11:50.526	$GPGGA,041151,2530.2203,N,07958.6960,W,1,9,1.7,15,M,,M,,*56
06/25/2015	04:11:51.526	$GPGGA,041152,2530.2195,N,07958.6957,W,1,9,1.7,15,M,,M,,*5D
06/25/2015	04:11:52.526	$GPGGA,041153,2530.2188,N,07958.6952,W,1,9,1.7,15,M,,M,,*55
