Software Version Number: 1	Data File Format Number: 1	Build Version Number: 1	Error Count Since VI Started: 1	Manufacturer: Raytheon	 Model Number: RayMarine 120	 S/N: 	 Cal Date: 	 Wind Direction Offset: 0.00	 Slope (M)1: 0.00	 Offset (B)1: 0.00	 Slope (M)2: 0.00	 Offset (B)2: 0.00	 Slope (M)3: 0.00	 Offset (B)3: 0.00	 Slope (M)4: 0.00	 Offset (B)4: 0.00	 Slope (M)5: 0.00	 Offset (B)5: 0.00	 Slope (M)6: 0.00	 Offset (B)6: 0.00
Computer Date	Computer Time	GGA String
06/15/2015	23:00:00.637	$GPGGA,230001,2426.6151,N,08058.9422,W,1,7,2.0,14,M,,M,,*59
06/15/2015	23:00:01.507	$GPGGA,230002,2426.6147,N,08058.9419,W,1,8,1.7,14,M,,M,,*5E
06/15/2015	23:00:02.477	$GPGGA,230003,2426.6141,N,08058.9414,W,1,8,1.7,14,M,,M,,*54
06/15/2015	23:00:03.677	$GPGGA,230004,2426.6136,N,08058.9410,W,1,8,1.7,14,M,,M,,*57
06/15/2015	23:00:04.506	$GPGGA,230005,2426.6130,N,08058.9406,W,1,8,1.7,14,M,,M,,*57
06/15/2015	23:00:05.506	$GPGGA,230006,2426.6125,N,08058.9403,W,1,8,1.7,14,M,,M,,*55
06/15/2015	23:00:06.504	$GPGGA,230007,2426.6120,N,08058.9398,W,1,8,1.7,14,M,,M,,*54
06/15/2015	23:00:07.476	$GPGGA,230008,2426.6115,N,08058.9394,W,1,8,1.7,14,M,,M,,*51
06/15/2015	23:00:08.566	$GPGGA,230009,2426.6111,N,08058.9391,W,1,8,1.7,14,M,,M,,*51
06/15/2015	23:00:09.666	$GPGGA,230010,2426.6105,N,08058.9387,W,1,8,1.7,14,M,,M,,*5B
06/15/2015	23:00:10.566	$GPGGA,230011,2426.6100,N,08058.9382,W,1,8,1.7,14,M,,M,,*5A
06/15/2015	23:00:11.676	$GPGGA,230012,2426.6093,N,08058.9378,W,1,8,1.7,15,M,,M,,*56
06/15/2015	23:00:12.598	$GPGGA,230013,2426.6087,N,08058.9375,W,1,8,1.7,15,M,,M,,*5F
06/15/2015	23:00:13.666	$GPGGA,230014,2426.6082,N,08058.9370,W,1,8,1.7,15,M,,M,,*58
06/15/2015	23:00:14.556	$GPGGA,230015,2426.6076,N,08058.9365,W,1,8,1.7,15,M,,M,,*56
06/15/2015	23:00:15.656	$GPGGA,230016,2426.6070,N,08058.9361,W,1,8,1.7,15,M,,M,,*57
06/15/2015	23:00:16.607	$GPGGA,230017,2426.6064,N,08058.9356,W,1,8,1.7,15,M,,M,,*57
06/15/2015	23:00:17.547	$GPGGA,230018,2426.6057,N,08058.9352,W,1,8,1.7,15,M,,M,,*5C
06/15/2015	23:00:18.557	$GPGGA,230019,2426.6051,N,08058.9347,W,1,8,1.7,15,M,,M,,*5F
06/15/2015	23:00:19.657	$GPGGA,230020,2426.6044,N,08058.9341,W,1,8,2.0,15,M,,M,,*53
06/15/2015	23:00:20.607	$GPGGA,230021,2426.6041,N,08058.9339,W,1,8,1.7,15,M,,M,,*5C
06/15/2015	23:00:21.657	$GPGGA,230022,2426.6035,N,08058.9334,W,1,8,1.7,15,M,,M,,*51
06/15/2015	23:00:22.566	$GPGGA,230023,2426.6028,N,08058.9327,W,1,8,1.7,15,M,,M,,*5E
06/15/2015	23:00:23.656	$GPGGA,230024,2426.6021,N,08058.9324,W,1,8,1.7,15,M,,M,,*53
06/15/2015	23:00:24.536	$GPGGA,230025,2426.6014,N,08058.9320,W,1,8,1.7,15,M,,M,,*50
06/15/2015	23:00:25.597	$GPGGA,230026,2426.6007,N,08058.9314,W,1,7,2.0,15,M,,M,,*5D
06/15/2015	23:00:26.576	$GPGGA,230027,2426.6003,N,08058.9310,W,1,7,1.7,15,M,,M,,*58
06/15/2015	23:00:27.656	$GPGGA,230028,2426.5996,N,08058.9306,W,1,8,1.7,15,M,,M,,*59
06/15/2015	23:00:28.536	$GPGGA,230029,2426.5992,N,08058.9301,W,1,8,1.7,15,M,,M,,*5B
06/15/2015	23:00:29.588	$GPGGA,230030,2426.5983,N,08058.9296,W,1,8,1.7,15,M,,M,,*5C
06/15/2015	23:00:30.556	$GPGGA,230031,2426.5976,N,08058.9292,W,1,8,2.0,15,M,,M,,*57
06/15/2015	23:00:31.636	$GPGGA,230032,2426.5972,N,08058.9287,W,1,7,1.7,15,M,,M,,*5F
06/15/2015	23:00:32.526	$GPGGA,230033,2426.5967,N,08058.9283,W,1,7,1.7,15,M,,M,,*5E
06/15/2015	23:00:33.636	$GPGGA,230034,2426.5963,N,08058.9281,W,1,8,1.7,15,M,,M,,*50
06/15/2015	23:00:34.517	$GPGGA,230035,2426.5956,N,08058.9276,W,1,8,1.7,15,M,,M,,*5F
06/15/2015	23:00:35.637	$GPGGA,230036,2426.5952,N,08058.9270,W,1,8,1.7,15,M,,M,,*5E
06/15/2015	23:00:36.517	$GPGGA,230037,2426.5945,N,08058.9265,W,1,8,1.7,15,M,,M,,*5D
06/15/2015	23:00:37.607	$GPGGA,230038,2426.5939,N,08058.9263,W,1,7,1.7,16,M,,M,,*53
06/15/2015	23:00:38.507	$GPGGA,230039,2426.5932,N,08058.9258,W,1,7,1.7,16,M,,M,,*51
06/15/2015	23:00:39.606	$GPGGA,230040,2426.5927,N,08058.9253,W,1,8,1.7,16,M,,M,,*5F
06/15/2015	23:00:40.506	$GPGGA,230041,2426.5920,N,08058.9247,W,1,8,1.7,16,M,,M,,*5C
06/15/2015	23:00:41.626	$GPGGA,230042,2426.5914,N,08058.9243,W,1,8,1.7,16,M,,M,,*5C
06/15/2015	23:00:42.546	$GPGGA,230043,2426.5909,N,08058.9239,W,1,8,1.7,16,M,,M,,*5C
06/15/2015	23:00:43.588	$GPGGA,230044,2426.5902,N,08058.9235,W,1,8,1.7,15,M,,M,,*5F
06/15/2015	23:00:44.496	$GPGGA,230045,2426.5896,N,08058.9230,W,1,8,1.7,15,M,,M,,*57
06/15/2015	23:00:45.506	$GPGGA,230046,2426.5891,N,08058.9225,W,1,8,1.7,15,M,,M,,*57
06/15/2015	23:00:46.616	$GPGGA,230047,2426.5885,N,08058.9222,W,1,8,1.7,15,M,,M,,*54
06/15/2015	23:00:47.598	$GPGGA,230048,2426.5877,N,08058.9218,W,1,8,2.0,15,M,,M,,*5B
06/15/2015	23:00:48.501	$GPGGA,230049,2426.5871,N,08058.9213,W,1,8,2.0,15,M,,M,,*57
06/15/2015	23:00:49.616	$GPGGA,230050,2426.5866,N,08058.9208,W,1,8,1.7,15,M,,M,,*57
06/15/2015	23:00:50.516	$GPGGA,230051,2426.5862,N,08058.9207,W,1,8,1.7,15,M,,M,,*5D
06/15/2015	23:00:51.627	$GPGGA,230052,2426.5854,N,08058.9202,W,1,8,2.0,15,M,,M,,*5A
06/15/2015	23:00:52.577	$GPGGA,230053,2426.5846,N,08058.9196,W,1,8,1.7,15,M,,M,,*52
06/15/2015	23:00:53.617	$GPGGA,230054,2426.5840,N,08058.9192,W,1,8,1.7,15,M,,M,,*57
06/15/2015	23:00:54.597	$GPGGA,230055,2426.5833,N,08058.9188,W,1,8,1.7,15,M,,M,,*59
06/15/2015	23:00:55.577	$GPGGA,230056,2426.5827,N,08058.9184,W,1,8,1.7,15,M,,M,,*53
06/15/2015	23:00:56.527	$GPGGA,230057,2426.5820,N,08058.9179,W,1,8,2.0,15,M,,M,,*53
06/15/2015	23:00:57.556	$GPGGA,230058,2426.5816,N,08058.9177,W,1,7,1.7,15,M,,M,,*5C
06/15/2015	23:00:58.566	$GPGGA,230059,2426.5811,N,08058.9173,W,1,7,1.7,15,M,,M,,*5E
06/15/2015	23:00:59.636	$GPGGA,230100,2426.5806,N,08058.9168,W,1,8,1.7,15,M,,M,,*50
06/15/2015	23:01:00.556	$GPGGA,230101,2426.5801,N,08058.9164,W,1,8,1.7,15,M,,M,,*5A
06/15/2015	23:01:02.036	$GPGGA,230102,2426.5795,N,08058.9160,W,1,8,1.7,15,M,,M,,*5F
06/15/2015	23:01:02.557	$GPGGA,230103,2426.5788,N,08058.9156,W,1,8,1.7,15,M,,M,,*57
06/15/2015	23:01:03.606	$GPGGA,230104,2426.5782,N,08058.9151,W,1,8,1.7,15,M,,M,,*5D
06/15/2015	23:01:04.556	$GPGGA,230105,2426.5776,N,08058.9147,W,1,8,1.7,15,M,,M,,*50
06/15/2015	23:01:05.576	$GPGGA,230106,2426.5769,N,08058.9143,W,1,8,1.7,15,M,,M,,*59
06/15/2015	23:01:06.556	$GPGGA,230107,2426.5764,N,08058.9139,W,1,8,1.7,15,M,,M,,*58
06/15/2015	23:01:07.586	$GPGGA,230108,2426.5764,N,08058.9139,W,1,8,1.7,15,M,,M,,*57
06/15/2015	23:01:08.546	$GPGGA,230109,2426.5750,N,08058.9129,W,1,8,1.7,15,M,,M,,*50
06/15/2015	23:01:09.567	$GPGGA,230110,2426.5744,N,08058.9125,W,1,8,1.7,15,M,,M,,*51
06/15/2015	23:01:10.547	$GPGGA,230111,2426.5737,N,08058.9121,W,1,8,1.7,15,M,,M,,*50
06/15/2015	23:01:11.587	$GPGGA,230112,2426.5730,N,08058.9115,W,1,8,2.0,15,M,,M,,*57
06/15/2015	23:01:12.537	$GPGGA,230113,2426.5724,N,08058.9111,W,1,8,1.7,15,M,,M,,*53
06/15/2015	23:01:13.567	$GPGGA,230114,2426.5717,N,08058.9106,W,1,8,1.7,15,M,,M,,*52
06/15/2015	23:01:14.536	$GPGGA,230115,2426.5717,N,08058.9106,W,1,8,1.7,15,M,,M,,*53
06/15/2015	23:01:15.596	$GPGGA,230116,2426.5704,N,08058.9096,W,1,8,1.7,15,M,,M,,*5A
06/15/2015	23:01:16.536	$GPGGA,230117,2426.5699,N,08058.9091,W,1,8,1.7,15,M,,M,,*59
06/15/2015	23:01:17.616	$GPGGA,230118,2426.5699,N,08058.9091,W,1,8,1.7,15,M,,M,,*56
06/15/2015	23:01:18.526	$GPGGA,230119,2426.5687,N,08058.9083,W,1,8,1.7,15,M,,M,,*5B
06/15/2015	23:01:19.566	$GPGGA,230120,2426.5681,N,08058.9077,W,1,8,1.7,15,M,,M,,*5C
06/15/2015	23:01:20.526	$GPGGA,230121,2426.5675,N,08058.9072,W,1,8,1.7,15,M,,M,,*53
06/15/2015	23:01:21.616	$GPGGA,230122,2426.5669,N,08058.9068,W,1,8,1.7,15,M,,M,,*56
06/15/2015	23:01:22.526	$GPGGA,230123,2426.5669,N,08058.9068,W,1,8,1.7,15,M,,M,,*57
06/15/2015	23:01:23.536	$GPGGA,230124,2426.5657,N,08058.9059,W,1,8,1.7,15,M,,M,,*5F
06/15/2015	23:01:24.526	$GPGGA,230125,2426.5650,N,08058.9053,W,1,8,1.7,15,M,,M,,*53
06/15/2015	23:01:25.516	$GPGGA,230126,2426.5650,N,08058.9053,W,1,8,1.7,15,M,,M,,*50
06/15/2015	23:01:26.557	$GPGGA,230127,2426.5639,N,08058.9044,W,1,8,1.7,15,M,,M,,*58
06/15/2015	23:01:27.527	$GPGGA,230128,2426.5639,N,08058.9044,W,1,8,1.7,15,M,,M,,*57
06/15/2015	23:01:28.517	$GPGGA,230129,2426.5634,N,08058.9038,W,1,8,1.7,15,M,,M,,*50
06/15/2015	23:01:29.637	$GPGGA,230130,2426.5627,N,08058.9033,W,1,8,1.7,15,M,,M,,*51
06/15/2015	23:01:30.597	$GPGGA,230131,2426.5614,N,08058.9024,W,1,8,1.7,15,M,,M,,*56
06/15/2015	23:01:31.647	$GPGGA,230132,2426.5614,N,08058.9024,W,1,8,1.7,15,M,,M,,*55
06/15/2015	23:01:32.498	$GPGGA,230133,2426.5602,N,08058.9012,W,1,8,1.7,15,M,,M,,*56
06/15/2015	23:01:33.487	$GPGGA,230134,2426.5602,N,08058.9012,W,1,8,1.7,15,M,,M,,*51
06/15/2015	23:01:34.606	$GPGGA,230135,2426.5589,N,08058.9004,W,1,8,1.7,15,M,,M,,*57
06/15/2015	23:01:35.526	$GPGGA,230136,2426.5589,N,08058.9004,W,1,8,1.7,15,M,,M,,*54
06/15/2015	23:01:36.526	$GPGGA,230137,2426.5583,N,08058.8997,W,1,8,1.7,15,M,,M,,*5D
06/15/2015	23:01:37.486	$GPGGA,230138,2426.5577,N,08058.8992,W,1,8,1.7,15,M,,M,,*5C
06/15/2015	23:01:38.476	$GPGGA,230139,2426.5564,N,08058.8981,W,1,8,1.7,15,M,,M,,*5D
06/15/2015	23:01:39.506	$GPGGA,230140,2426.5564,N,08058.8981,W,1,8,1.7,15,M,,M,,*53
06/15/2015	23:01:40.589	$GPGGA,230141,2426.5551,N,08058.8970,W,1,8,1.7,15,M,,M,,*5A
06/15/2015	23:01:41.606	$GPGGA,230142,2426.5545,N,08058.8966,W,1,8,1.7,15,M,,M,,*5B
06/15/2015	23:01:42.486	$GPGGA,230143,2426.5540,N,08058.8959,W,1,8,1.7,15,M,,M,,*53
06/15/2015	23:01:43.576	$GPGGA,230144,2426.5533,N,08058.8952,W,1,8,1.7,15,M,,M,,*5B
06/15/2015	23:01:44.477	$GPGGA,230145,2426.5527,N,08058.8947,W,1,8,1.7,15,M,,M,,*5B
06/15/2015	23:01:45.607	$GPGGA,230146,2426.5520,N,08058.8942,W,1,8,1.7,15,M,,M,,*5A
06/15/2015	23:01:46.567	$GPGGA,230147,2426.5515,N,08058.8936,W,1,8,1.7,15,M,,M,,*5E
06/15/2015	23:01:47.607	$GPGGA,230148,2426.5508,N,08058.8930,W,1,8,1.7,15,M,,M,,*5B
06/15/2015	23:01:48.567	$GPGGA,230149,2426.5502,N,08058.8924,W,1,8,1.7,15,M,,M,,*55
06/15/2015	23:01:49.556	$GPGGA,230150,2426.5497,N,08058.8918,W,1,8,1.7,15,M,,M,,*5F
06/15/2015	23:01:50.556	$GPGGA,230151,2426.5490,N,08058.8913,W,1,8,1.7,15,M,,M,,*52
06/15/2015	23:01:51.596	$GPGGA,230152,2426.5490,N,08058.8913,W,1,8,1.7,15,M,,M,,*51
06/15/2015	23:01:52.556	$GPGGA,230153,2426.5479,N,08058.8900,W,1,8,1.7,15,M,,M,,*55
06/15/2015	23:01:53.546	$GPGGA,230154,2426.5471,N,08058.8894,W,1,8,1.7,15,M,,M,,*56
06/15/2015	23:01:54.546	$GPGGA,230155,2426.5465,N,08058.8890,W,1,8,1.7,15,M,,M,,*56
06/15/2015	23:01:55.576	$GPGGA,230156,2426.5459,N,08058.8884,W,1,8,1.7,15,M,,M,,*5F
06/15/2015	23:01:57.606	$GPGGA,230158,2426.5448,N,08058.8872,W,1,7,2.0,15,M,,M,,*53
06/15/2015	23:01:58.536	$GPGGA,230159,2426.5443,N,08058.8867,W,1,7,1.7,15,M,,M,,*59
06/15/2015	23:01:59.587	$GPGGA,230200,2426.5437,N,08058.8862,W,1,8,1.7,15,M,,M,,*5F
06/15/2015	23:02:00.546	$GPGGA,230201,2426.5432,N,08058.8854,W,1,8,1.7,15,M,,M,,*5E
06/15/2015	23:02:01.537	$GPGGA,230202,2426.5425,N,08058.8849,W,1,8,1.7,15,M,,M,,*57
06/15/2015	23:02:02.527	$GPGGA,230203,2426.5421,N,08058.8845,W,1,8,1.7,15,M,,M,,*5E
06/15/2015	23:02:03.567	$GPGGA,230204,2426.5414,N,08058.8839,W,1,8,1.7,15,M,,M,,*54
06/15/2015	23:02:04.547	$GPGGA,230205,2426.5410,N,08058.8833,W,1,8,1.6,15,M,,M,,*5A
06/15/2015	23:02:05.557	$GPGGA,230206,2426.5404,N,08058.8826,W,1,8,1.6,15,M,,M,,*58
06/15/2015	23:02:06.537	$GPGGA,230207,2426.5398,N,08058.8823,W,1,8,1.6,16,M,,M,,*5D
06/15/2015	23:02:07.566	$GPGGA,230208,2426.5392,N,08058.8818,W,1,8,1.6,16,M,,M,,*50
06/15/2015	23:02:09.576	$GPGGA,230209,2426.5386,N,08058.8809,W,1,8,2.0,16,M,,M,,*51
06/15/2015	23:02:09.606	$GPGGA,230210,2426.5380,N,08058.8803,W,1,8,1.6,16,M,,M,,*50
06/15/2015	23:02:10.506	$GPGGA,230211,2426.5374,N,08058.8799,W,1,8,1.7,16,M,,M,,*57
06/15/2015	23:02:11.566	$GPGGA,230212,2426.5367,N,08058.8793,W,1,8,1.7,16,M,,M,,*5C
06/15/2015	23:02:12.626	$GPGGA,230213,2426.5361,N,08058.8785,W,1,8,1.7,16,M,,M,,*5C
06/15/2015	23:02:13.516	$GPGGA,230214,2426.5356,N,08058.8780,W,1,8,1.7,16,M,,M,,*5A
06/15/2015	23:02:14.626	$GPGGA,230215,2426.5350,N,08058.8775,W,1,8,2.0,15,M,,M,,*50
06/15/2015	23:02:15.636	$GPGGA,230216,2426.5345,N,08058.8768,W,1,8,1.7,15,M,,M,,*5F
06/15/2015	23:02:16.616	$GPGGA,230217,2426.5338,N,08058.8763,W,1,8,1.6,15,M,,M,,*5E
06/15/2015	23:02:17.516	$GPGGA,230218,2426.5332,N,08058.8757,W,1,8,1.6,15,M,,M,,*5C
06/15/2015	23:02:18.498	$GPGGA,230219,2426.5327,N,08058.8750,W,1,8,1.6,15,M,,M,,*5E
06/15/2015	23:02:19.527	$GPGGA,230220,2426.5321,N,08058.8744,W,1,8,1.6,15,M,,M,,*57
06/15/2015	23:02:20.492	$GPGGA,230221,2426.5314,N,08058.8739,W,1,8,2.0,15,M,,M,,*5F
06/15/2015	23:02:21.607	$GPGGA,230222,2426.5309,N,08058.8732,W,1,7,2.0,15,M,,M,,*54
06/15/2015	23:02:22.609	$GPGGA,230223,2426.5305,N,08058.8724,W,1,7,1.6,15,M,,M,,*5B
06/15/2015	23:02:23.607	$GPGGA,230224,2426.5298,N,08058.8720,W,1,8,1.6,15,M,,M,,*52
06/15/2015	23:02:24.500	$GPGGA,230225,2426.5291,N,08058.8716,W,1,8,2.7,15,M,,M,,*5D
06/15/2015	23:02:25.506	$GPGGA,230226,2426.5285,N,08058.8710,W,1,8,1.6,15,M,,M,,*5F
06/15/2015	23:02:26.516	$GPGGA,230227,2426.5280,N,08058.8703,W,1,8,1.6,15,M,,M,,*59
06/15/2015	23:02:27.616	$GPGGA,230228,2426.5273,N,08058.8700,W,1,8,1.6,15,M,,M,,*59
06/15/2015	23:02:28.601	$GPGGA,230229,2426.5266,N,08058.8696,W,1,8,2.0,15,M,,M,,*57
06/15/2015	23:02:29.567	$GPGGA,230230,2426.5262,N,08058.8689,W,1,8,1.6,15,M,,M,,*50
06/15/2015	23:02:30.576	$GPGGA,230231,2426.5255,N,08058.8683,W,1,8,2.0,15,M,,M,,*5A
06/15/2015	23:02:31.616	$GPGGA,230232,2426.5249,N,08058.8680,W,1,8,1.6,16,M,,M,,*51
06/15/2015	23:02:32.566	$GPGGA,230233,2426.5242,N,08058.8674,W,1,8,1.6,16,M,,M,,*50
06/15/2015	23:02:33.566	$GPGGA,230234,2426.5237,N,08058.8668,W,1,7,2.0,16,M,,M,,*52
06/15/2015	23:02:34.566	$GPGGA,230235,2426.5230,N,08058.8662,W,1,7,1.6,16,M,,M,,*5B
06/15/2015	23:02:35.597	$GPGGA,230236,2426.5224,N,08058.8657,W,1,8,1.6,16,M,,M,,*54
06/15/2015	23:02:36.557	$GPGGA,230237,2426.5219,N,08058.8649,W,1,8,1.6,16,M,,M,,*54
06/15/2015	23:02:37.547	$GPGGA,230238,2426.5212,N,08058.8643,W,1,8,1.6,16,M,,M,,*5A
06/15/2015	23:02:38.557	$GPGGA,230239,2426.5206,N,08058.8638,W,1,8,1.6,16,M,,M,,*52
06/15/2015	23:02:39.597	$GPGGA,230240,2426.5201,N,08058.8632,W,1,8,1.6,16,M,,M,,*51
06/15/2015	23:02:40.557	$GPGGA,230241,2426.5195,N,08058.8625,W,1,8,1.6,16,M,,M,,*58
06/15/2015	23:02:41.557	$GPGGA,230242,2426.5190,N,08058.8619,W,1,8,1.6,16,M,,M,,*51
06/15/2015	23:02:42.546	$GPGGA,230243,2426.5184,N,08058.8614,W,1,8,1.6,16,M,,M,,*58
06/15/2015	23:02:43.566	$GPGGA,230244,2426.5179,N,08058.8608,W,1,8,1.6,16,M,,M,,*50
06/15/2015	23:02:44.546	$GPGGA,230245,2426.5174,N,08058.8600,W,1,8,1.6,16,M,,M,,*54
06/15/2015	23:02:45.546	$GPGGA,230246,2426.5168,N,08058.8595,W,1,8,1.6,16,M,,M,,*55
06/15/2015	23:02:46.566	$GPGGA,230247,2426.5162,N,08058.8590,W,1,8,1.6,16,M,,M,,*5B
06/15/2015	23:02:47.546	$GPGGA,230248,2426.5156,N,08058.8582,W,1,8,1.6,16,M,,M,,*50
06/15/2015	23:02:48.537	$GPGGA,230249,2426.5151,N,08058.8575,W,1,8,2.0,16,M,,M,,*5B
06/15/2015	23:02:49.536	$GPGGA,230250,2426.5146,N,08058.8570,W,1,7,2.0,16,M,,M,,*5F
06/15/2015	23:02:50.536	$GPGGA,230251,2426.5140,N,08058.8565,W,1,7,1.6,16,M,,M,,*59
06/15/2015	23:02:51.596	$GPGGA,230252,2426.5136,N,08058.8557,W,1,8,1.6,16,M,,M,,*55
06/15/2015	23:02:52.526	$GPGGA,230253,2426.5132,N,08058.8551,W,1,8,1.6,16,M,,M,,*56
06/15/2015	23:02:53.526	$GPGGA,230254,2426.5126,N,08058.8546,W,1,8,1.6,16,M,,M,,*52
06/15/2015	23:02:54.527	$GPGGA,230255,2426.5121,N,08058.8540,W,1,8,1.6,16,M,,M,,*52
06/15/2015	23:02:55.527	$GPGGA,230256,2426.5116,N,08058.8533,W,1,8,1.6,16,M,,M,,*51
06/15/2015	23:02:56.577	$GPGGA,230257,2426.5110,N,08058.8527,W,1,8,1.6,16,M,,M,,*53
06/15/2015	23:02:57.547	$GPGGA,230258,2426.5103,N,08058.8521,W,1,8,1.6,17,M,,M,,*59
06/15/2015	23:02:58.503	$GPGGA,230259,2426.5098,N,08058.8516,W,1,8,2.0,17,M,,M,,*5A
06/15/2015	23:02:59.536	$GPGGA,230300,2426.5093,N,08058.8509,W,1,8,1.6,17,M,,M,,*57
06/15/2015	23:03:00.516	$GPGGA,230301,2426.5087,N,08058.8503,W,1,8,1.6,17,M,,M,,*59
06/15/2015	23:03:01.546	$GPGGA,230302,2426.5082,N,08058.8498,W,1,8,1.6,17,M,,M,,*5C
06/15/2015	23:03:02.505	$GPGGA,230303,2426.5076,N,08058.8492,W,1,8,1.6,17,M,,M,,*5C
06/15/2015	23:03:03.526	$GPGGA,230304,2426.5070,N,08058.8485,W,1,8,1.6,17,M,,M,,*5B
06/15/2015	23:03:04.496	$GPGGA,230305,2426.5067,N,08058.8480,W,1,8,1.6,17,M,,M,,*59
06/15/2015	23:03:05.489	$GPGGA,230306,2426.5060,N,08058.8476,W,1,8,1.6,17,M,,M,,*54
06/15/2015	23:03:06.490	$GPGGA,230307,2426.5054,N,08058.8470,W,1,8,1.6,17,M,,M,,*54
06/15/2015	23:03:07.492	$GPGGA,230308,2426.5049,N,08058.8462,W,1,8,1.6,17,M,,M,,*54
06/15/2015	23:03:08.596	$GPGGA,230309,2426.5044,N,08058.8456,W,1,8,1.6,17,M,,M,,*5F
06/15/2015	23:03:09.496	$GPGGA,230310,2426.5038,N,08058.8453,W,1,8,1.6,17,M,,M,,*59
06/15/2015	23:03:10.491	$GPGGA,230311,2426.5032,N,08058.8447,W,1,8,1.6,17,M,,M,,*57
06/15/2015	23:03:11.506	$GPGGA,230312,2426.5027,N,08058.8439,W,1,8,1.6,17,M,,M,,*59
06/15/2015	23:03:12.481	$GPGGA,230313,2426.5022,N,08058.8432,W,1,8,1.6,17,M,,M,,*56
06/15/2015	23:03:13.582	$GPGGA,230314,2426.5016,N,08058.8429,W,1,8,1.6,17,M,,M,,*5C
06/15/2015	23:03:14.479	$GPGGA,230315,2426.5011,N,08058.8423,W,1,8,1.6,17,M,,M,,*50
06/15/2015	23:03:15.616	$GPGGA,230316,2426.5006,N,08058.8415,W,1,8,1.6,17,M,,M,,*50
06/15/2015	23:03:16.566	$GPGGA,230317,2426.5002,N,08058.8410,W,1,8,1.6,17,M,,M,,*50
06/15/2015	23:03:17.465	$GPGGA,230318,2426.4996,N,08058.8406,W,1,8,1.6,17,M,,M,,*5D
06/15/2015	23:03:18.565	$GPGGA,230319,2426.4991,N,08058.8399,W,1,8,1.6,17,M,,M,,*5A
06/15/2015	23:03:19.585	$GPGGA,230320,2426.4984,N,08058.8393,W,1,8,1.6,17,M,,M,,*5E
06/15/2015	23:03:20.545	$GPGGA,230321,2426.4980,N,08058.8388,W,1,8,1.6,17,M,,M,,*51
06/15/2015	23:03:21.575	$GPGGA,230322,2426.4974,N,08058.8382,W,1,8,1.6,17,M,,M,,*53
06/15/2015	23:03:22.546	$GPGGA,230323,2426.4968,N,08058.8377,W,1,8,1.6,17,M,,M,,*55
06/15/2015	23:03:23.566	$GPGGA,230324,2426.4963,N,08058.8373,W,1,8,1.6,17,M,,M,,*5D
06/15/2015	23:03:24.536	$GPGGA,230325,2426.4958,N,08058.8366,W,1,8,1.6,17,M,,M,,*50
06/15/2015	23:03:25.566	$GPGGA,230326,2426.4952,N,08058.8360,W,1,8,1.6,17,M,,M,,*5F
06/15/2015	23:03:26.546	$GPGGA,230327,2426.4948,N,08058.8356,W,1,8,1.6,17,M,,M,,*50
06/15/2015	23:03:27.576	$GPGGA,230328,2426.4941,N,08058.8351,W,1,8,1.6,17,M,,M,,*51
06/15/2015	23:03:28.536	$GPGGA,230329,2426.4937,N,08058.8345,W,1,8,1.6,17,M,,M,,*54
06/15/2015	23:03:29.566	$GPGGA,230330,2426.4930,N,08058.8339,W,1,8,1.6,17,M,,M,,*50
06/15/2015	23:03:30.536	$GPGGA,230331,2426.4926,N,08058.8333,W,1,8,1.6,17,M,,M,,*5C
06/15/2015	23:03:31.556	$GPGGA,230332,2426.4919,N,08058.8326,W,1,8,1.6,17,M,,M,,*57
06/15/2015	23:03:32.546	$GPGGA,230333,2426.4913,N,08058.8323,W,1,8,1.6,17,M,,M,,*59
06/15/2015	23:03:33.546	$GPGGA,230334,2426.4908,N,08058.8317,W,1,8,1.6,17,M,,M,,*53
06/15/2015	23:03:34.515	$GPGGA,230335,2426.4903,N,08058.8310,W,1,8,1.6,17,M,,M,,*5E
06/15/2015	23:03:35.525	$GPGGA,230336,2426.4898,N,08058.8304,W,1,8,1.6,17,M,,M,,*5B
06/15/2015	23:03:36.525	$GPGGA,230337,2426.4892,N,08058.8300,W,1,8,1.6,17,M,,M,,*54
06/15/2015	23:03:37.505	$GPGGA,230338,2426.4886,N,08058.8294,W,1,8,1.6,17,M,,M,,*52
06/15/2015	23:03:38.525	$GPGGA,230339,2426.4883,N,08058.8288,W,1,8,1.6,17,M,,M,,*5B
06/15/2015	23:03:39.527	$GPGGA,230340,2426.4876,N,08058.8282,W,1,8,1.6,16,M,,M,,*54
06/15/2015	23:03:40.516	$GPGGA,230341,2426.4869,N,08058.8278,W,1,8,1.6,16,M,,M,,*5E
06/15/2015	23:03:41.506	$GPGGA,230342,2426.4865,N,08058.8271,W,1,8,1.6,16,M,,M,,*58
06/15/2015	23:03:42.516	$GPGGA,230343,2426.4859,N,08058.8264,W,1,8,1.6,16,M,,M,,*52
06/15/2015	23:03:43.536	$GPGGA,230344,2426.4852,N,08058.8259,W,1,8,1.6,16,M,,M,,*50
06/15/2015	23:03:44.496	$GPGGA,230345,2426.4846,N,08058.8255,W,1,8,1.6,16,M,,M,,*58
06/15/2015	23:03:45.506	$GPGGA,230346,2426.4840,N,08058.8248,W,1,8,1.6,16,M,,M,,*51
06/15/2015	23:03:46.516	$GPGGA,230347,2426.4836,N,08058.8240,W,1,8,1.6,16,M,,M,,*59
06/15/2015	23:03:47.516	$GPGGA,230348,2426.4829,N,08058.8236,W,1,8,1.6,16,M,,M,,*59
06/15/2015	23:03:48.496	$GPGGA,230349,2426.4822,N,08058.8232,W,1,8,1.6,16,M,,M,,*57
06/15/2015	23:03:49.496	$GPGGA,230350,2426.4816,N,08058.8224,W,1,7,2.0,16,M,,M,,*55
06/15/2015	23:03:50.506	$GPGGA,230351,2426.4811,N,08058.8218,W,1,7,1.6,16,M,,M,,*59
06/15/2015	23:03:51.526	$GPGGA,230352,2426.4807,N,08058.8213,W,1,8,1.6,16,M,,M,,*59
06/15/2015	23:03:52.486	$GPGGA,230353,2426.4800,N,08058.8208,W,1,8,1.6,16,M,,M,,*55
06/15/2015	23:03:53.605	$GPGGA,230354,2426.4794,N,08058.8202,W,1,8,1.6,16,M,,M,,*5A
06/15/2015	23:03:54.495	$GPGGA,230355,2426.4789,N,08058.8195,W,1,8,1.6,16,M,,M,,*5A
06/15/2015	23:03:55.625	$GPGGA,230356,2426.4783,N,08058.8189,W,1,8,1.6,16,M,,M,,*5E
06/15/2015	23:03:56.488	$GPGGA,230357,2426.4778,N,08058.8184,W,1,8,1.6,16,M,,M,,*56
06/15/2015	23:03:57.476	$GPGGA,230358,2426.4772,N,08058.8179,W,1,8,1.6,16,M,,M,,*51
06/15/2015	23:03:58.491	$GPGGA,230359,2426.4767,N,08058.8172,W,1,8,1.6,15,M,,M,,*5C
06/15/2015	23:03:59.636	$GPGGA,230400,2426.4760,N,08058.8166,W,1,8,1.6,15,M,,M,,*55
06/15/2015	23:04:00.488	$GPGGA,230401,2426.4754,N,08058.8161,W,1,8,1.6,15,M,,M,,*54
06/15/2015	23:04:01.577	$GPGGA,230402,2426.4749,N,08058.8155,W,1,8,1.6,15,M,,M,,*5C
06/15/2015	23:04:02.588	$GPGGA,230403,2426.4742,N,08058.8149,W,1,8,1.6,15,M,,M,,*5B
06/15/2015	23:04:03.606	$GPGGA,230404,2426.4735,N,08058.8141,W,1,7,2.0,15,M,,M,,*5E
06/15/2015	23:04:04.566	$GPGGA,230405,2426.4729,N,08058.8137,W,1,7,1.6,15,M,,M,,*56
06/15/2015	23:04:05.566	$GPGGA,230406,2426.4722,N,08058.8132,W,1,8,1.6,15,M,,M,,*54
06/15/2015	23:04:06.556	$GPGGA,230407,2426.4717,N,08058.8124,W,1,8,1.6,15,M,,M,,*54
06/15/2015	23:04:07.578	$GPGGA,230408,2426.4711,N,08058.8117,W,1,8,1.6,15,M,,M,,*5D
06/15/2015	23:04:08.556	$GPGGA,230409,2426.4706,N,08058.8113,W,1,8,1.6,15,M,,M,,*5E
06/15/2015	23:04:09.565	$GPGGA,230410,2426.4699,N,08058.8107,W,1,8,1.6,15,M,,M,,*54
06/15/2015	23:04:10.546	$GPGGA,230411,2426.4693,N,08058.8100,W,1,8,2.0,15,M,,M,,*5D
06/15/2015	23:04:11.575	$GPGGA,230412,2426.4688,N,08058.8094,W,1,7,2.0,15,M,,M,,*57
06/15/2015	23:04:12.535	$GPGGA,230413,2426.4681,N,08058.8088,W,1,7,2.0,15,M,,M,,*52
06/15/2015	23:04:13.555	$GPGGA,230414,2426.4674,N,08058.8082,W,1,7,2.0,15,M,,M,,*55
06/15/2015	23:04:14.546	$GPGGA,230415,2426.4670,N,08058.8075,W,1,7,2.0,15,M,,M,,*58
06/15/2015	23:04:15.556	$GPGGA,230416,2426.4664,N,08058.8068,W,1,8,1.6,15,M,,M,,*58
06/15/2015	23:04:16.546	$GPGGA,230417,2426.4657,N,08058.8064,W,1,8,1.6,15,M,,M,,*55
06/15/2015	23:04:17.546	$GPGGA,230418,2426.4652,N,08058.8058,W,1,8,1.6,14,M,,M,,*51
06/15/2015	23:04:18.536	$GPGGA,230419,2426.4648,N,08058.8050,W,1,8,2.0,14,M,,M,,*56
06/15/2015	23:04:19.566	$GPGGA,230420,2426.4641,N,08058.8042,W,1,7,1.7,14,M,,M,,*5D
06/15/2015	23:04:20.526	$GPGGA,230421,2426.4637,N,08058.8037,W,1,7,1.6,14,M,,M,,*5E
06/15/2015	23:04:21.516	$GPGGA,230422,2426.4630,N,08058.8031,W,1,8,1.6,14,M,,M,,*53
06/15/2015	23:04:22.526	$GPGGA,230423,2426.4626,N,08058.8021,W,1,8,2.0,14,M,,M,,*51
06/15/2015	23:04:23.546	$GPGGA,230424,2426.4619,N,08058.8015,W,1,8,1.6,14,M,,M,,*58
06/15/2015	23:04:24.526	$GPGGA,230425,2426.4613,N,08058.8012,W,1,8,1.6,14,M,,M,,*54
06/15/2015	23:04:25.546	$GPGGA,230426,2426.4608,N,08058.8005,W,1,8,1.6,14,M,,M,,*5B
06/15/2015	23:04:26.526	$GPGGA,230427,2426.4602,N,08058.7996,W,1,8,1.6,14,M,,M,,*5C
06/15/2015	23:04:27.555	$GPGGA,230428,2426.4596,N,08058.7991,W,1,8,1.6,14,M,,M,,*5A
06/15/2015	23:04:28.535	$GPGGA,230429,2426.4590,N,08058.7987,W,1,8,1.6,14,M,,M,,*5A
06/15/2015	23:04:29.502	$GPGGA,230430,2426.4583,N,08058.7981,W,1,7,2.0,14,M,,M,,*5C
06/15/2015	23:04:30.505	$GPGGA,230431,2426.4579,N,08058.7973,W,1,7,2.0,14,M,,M,,*55
06/15/2015	23:04:31.515	$GPGGA,230432,2426.4574,N,08058.7968,W,1,8,1.6,14,M,,M,,*5B
06/15/2015	23:04:32.616	$GPGGA,230433,2426.4569,N,08058.7964,W,1,8,1.6,14,M,,M,,*5A
06/15/2015	23:04:33.506	$GPGGA,230434,2426.4563,N,08058.7959,W,1,8,1.6,14,M,,M,,*59
06/15/2015	23:04:34.491	$GPGGA,230435,2426.4558,N,08058.7951,W,1,8,1.6,14,M,,M,,*58
06/15/2015	23:04:35.516	$GPGGA,230436,2426.4554,N,08058.7944,W,1,8,1.6,14,M,,M,,*53
06/15/2015	23:04:36.506	$GPGGA,230437,2426.4548,N,08058.7940,W,1,8,1.6,14,M,,M,,*5B
06/15/2015	23:04:37.496	$GPGGA,230438,2426.4543,N,08058.7934,W,1,8,1.6,14,M,,M,,*5C
06/15/2015	23:04:38.497	$GPGGA,230439,2426.4536,N,08058.7927,W,1,8,1.6,14,M,,M,,*5D
06/15/2015	23:04:39.496	$GPGGA,230440,2426.4531,N,08058.7920,W,1,8,1.6,14,M,,M,,*53
06/15/2015	23:04:40.494	$GPGGA,230441,2426.4526,N,08058.7914,W,1,8,1.6,14,M,,M,,*53
06/15/2015	23:04:41.506	$GPGGA,230442,2426.4520,N,08058.7909,W,1,8,1.6,14,M,,M,,*5A
06/15/2015	23:04:42.477	$GPGGA,230443,2426.4515,N,08058.7903,W,1,8,1.6,14,M,,M,,*57
06/15/2015	23:04:43.487	$GPGGA,230444,2426.4510,N,08058.7896,W,1,8,1.6,14,M,,M,,*58
06/15/2015	23:04:44.578	$GPGGA,230445,2426.4505,N,08058.7889,W,1,8,1.6,14,M,,M,,*53
06/15/2015	23:04:46.518	$GPGGA,230447,2426.4493,N,08058.7879,W,1,8,1.6,14,M,,M,,*50
06/15/2015	23:04:47.591	$GPGGA,230448,2426.4489,N,08058.7872,W,1,8,1.6,14,M,,M,,*5F
06/15/2015	23:04:48.477	$GPGGA,230449,2426.4483,N,08058.7866,W,1,8,1.6,14,M,,M,,*51
06/15/2015	23:04:49.578	$GPGGA,230450,2426.4478,N,08058.7861,W,1,8,1.6,14,M,,M,,*5A
06/15/2015	23:04:50.566	$GPGGA,230451,2426.4471,N,08058.7854,W,1,8,1.6,14,M,,M,,*54
06/15/2015	23:04:51.591	$GPGGA,230452,2426.4465,N,08058.7848,W,1,8,1.6,14,M,,M,,*5F
06/15/2015	23:04:52.556	$GPGGA,230453,2426.4460,N,08058.7843,W,1,8,1.6,14,M,,M,,*50
06/15/2015	23:04:53.576	$GPGGA,230454,2426.4454,N,08058.7837,W,1,8,1.6,14,M,,M,,*53
06/15/2015	23:04:54.546	$GPGGA,230455,2426.4449,N,08058.7832,W,1,8,1.6,14,M,,M,,*5B
06/15/2015	23:04:55.606	$GPGGA,230456,2426.4442,N,08058.7825,W,1,8,1.6,14,M,,M,,*55
06/15/2015	23:04:56.546	$GPGGA,230457,2426.4437,N,08058.7820,W,1,8,1.6,14,M,,M,,*53
06/15/2015	23:04:57.566	$GPGGA,230458,2426.4431,N,08058.7814,W,1,8,1.6,14,M,,M,,*5D
06/15/2015	23:04:58.556	$GPGGA,230459,2426.4424,N,08058.7809,W,1,8,2.1,14,M,,M,,*50
06/15/2015	23:04:59.578	$GPGGA,230500,2426.4417,N,08058.7806,W,1,7,1.6,14,M,,M,,*59
06/15/2015	23:05:00.546	$GPGGA,230501,2426.4411,N,08058.7802,W,1,7,1.6,14,M,,M,,*5A
06/15/2015	23:05:01.565	$GPGGA,230502,2426.4406,N,08058.7796,W,1,8,1.6,14,M,,M,,*52
06/15/2015	23:05:02.525	$GPGGA,230503,2426.4398,N,08058.7792,W,1,8,1.6,14,M,,M,,*57
06/15/2015	23:05:03.615	$GPGGA,230504,2426.4393,N,08058.7785,W,1,8,1.6,14,M,,M,,*5D
06/15/2015	23:05:04.535	$GPGGA,230505,2426.4386,N,08058.7780,W,1,8,1.6,15,M,,M,,*5C
06/15/2015	23:05:05.565	$GPGGA,230506,2426.4380,N,08058.7775,W,1,8,1.6,15,M,,M,,*53
06/15/2015	23:05:06.536	$GPGGA,230507,2426.4375,N,08058.7769,W,1,8,1.6,15,M,,M,,*55
06/15/2015	23:05:07.557	$GPGGA,230508,2426.4368,N,08058.7764,W,1,8,1.6,15,M,,M,,*5B
06/15/2015	23:05:08.526	$GPGGA,230509,2426.4363,N,08058.7758,W,1,8,1.6,15,M,,M,,*5E
06/15/2015	23:05:09.546	$GPGGA,230510,2426.4357,N,08058.7752,W,1,8,1.6,15,M,,M,,*5B
06/15/2015	23:05:10.526	$GPGGA,230511,2426.4350,N,08058.7748,W,1,8,1.6,15,M,,M,,*56
06/15/2015	23:05:11.587	$GPGGA,230512,2426.4345,N,08058.7741,W,1,8,1.6,15,M,,M,,*58
06/15/2015	23:05:12.526	$GPGGA,230513,2426.4339,N,08058.7737,W,1,8,1.6,15,M,,M,,*53
06/15/2015	23:05:13.506	$GPGGA,230514,2426.4333,N,08058.7732,W,1,8,1.6,15,M,,M,,*5B
06/15/2015	23:05:14.526	$GPGGA,230515,2426.4327,N,08058.7725,W,1,8,1.6,15,M,,M,,*59
06/15/2015	23:05:15.536	$GPGGA,230516,2426.4320,N,08058.7720,W,1,8,1.6,15,M,,M,,*58
06/15/2015	23:05:16.506	$GPGGA,230517,2426.4314,N,08058.7715,W,1,8,1.6,15,M,,M,,*58
06/15/2015	23:05:17.536	$GPGGA,230518,2426.4309,N,08058.7709,W,1,8,1.6,15,M,,M,,*56
06/15/2015	23:05:18.516	$GPGGA,230519,2426.4303,N,08058.7703,W,1,8,1.6,15,M,,M,,*57
06/15/2015	23:05:19.565	$GPGGA,230520,2426.4297,N,08058.7698,W,1,8,1.6,15,M,,M,,*52
06/15/2015	23:05:20.495	$GPGGA,230521,2426.4290,N,08058.7692,W,1,8,1.6,15,M,,M,,*5E
06/15/2015	23:05:21.495	$GPGGA,230522,2426.4285,N,08058.7687,W,1,8,1.6,15,M,,M,,*5D
06/15/2015	23:05:22.585	$GPGGA,230523,2426.4279,N,08058.7682,W,1,8,1.6,15,M,,M,,*5A
06/15/2015	23:05:23.492	$GPGGA,230524,2426.4272,N,08058.7675,W,1,8,1.6,15,M,,M,,*5E
06/15/2015	23:05:24.488	$GPGGA,230525,2426.4266,N,08058.7670,W,1,8,1.6,15,M,,M,,*5F
06/15/2015	23:05:25.606	$GPGGA,230526,2426.4260,N,08058.7665,W,1,8,1.6,15,M,,M,,*5E
06/15/2015	23:05:26.516	$GPGGA,230527,2426.4254,N,08058.7659,W,1,8,1.6,15,M,,M,,*57
06/15/2015	23:05:27.526	$GPGGA,230528,2426.4249,N,08058.7653,W,1,8,1.6,15,M,,M,,*5E
06/15/2015	23:05:28.506	$GPGGA,230529,2426.4243,N,08058.7647,W,1,8,1.6,15,M,,M,,*50
06/15/2015	23:05:29.586	$GPGGA,230530,2426.4236,N,08058.7642,W,1,8,1.6,15,M,,M,,*5F
06/15/2015	23:05:30.566	$GPGGA,230531,2426.4231,N,08058.7637,W,1,8,1.6,15,M,,M,,*5B
06/15/2015	23:05:31.606	$GPGGA,230532,2426.4225,N,08058.7632,W,1,8,1.6,15,M,,M,,*58
06/15/2015	23:05:32.496	$GPGGA,230533,2426.4219,N,08058.7625,W,1,8,1.6,15,M,,M,,*50
06/15/2015	23:05:33.566	$GPGGA,230534,2426.4213,N,08058.7619,W,1,8,1.6,15,M,,M,,*52
06/15/2015	23:05:34.566	$GPGGA,230535,2426.4208,N,08058.7615,W,1,8,1.6,15,M,,M,,*55
06/15/2015	23:05:35.616	$GPGGA,230536,2426.4202,N,08058.7610,W,1,8,1.6,15,M,,M,,*59
06/15/2015	23:05:36.565	$GPGGA,230537,2426.4196,N,08058.7603,W,1,8,1.6,15,M,,M,,*54
06/15/2015	23:05:37.578	$GPGGA,230538,2426.4190,N,08058.7597,W,1,8,1.6,15,M,,M,,*53
06/15/2015	23:05:38.575	$GPGGA,230539,2426.4184,N,08058.7592,W,1,8,1.6,15,M,,M,,*52
06/15/2015	23:05:39.585	$GPGGA,230540,2426.4178,N,08058.7587,W,1,8,1.6,15,M,,M,,*5B
06/15/2015	23:05:40.545	$GPGGA,230541,2426.4173,N,08058.7580,W,1,8,1.6,15,M,,M,,*56
06/15/2015	23:05:41.566	$GPGGA,230542,2426.4167,N,08058.7574,W,1,8,1.6,15,M,,M,,*5B
06/15/2015	23:05:42.556	$GPGGA,230543,2426.4161,N,08058.7570,W,1,8,1.6,15,M,,M,,*58
06/15/2015	23:05:43.566	$GPGGA,230544,2426.4155,N,08058.7564,W,1,8,2.0,15,M,,M,,*58
06/15/2015	23:05:45.596	$GPGGA,230546,2426.4146,N,08058.7551,W,1,8,1.6,15,M,,M,,*5B
06/15/2015	23:05:46.546	$GPGGA,230547,2426.4139,N,08058.7546,W,1,8,1.6,16,M,,M,,*57
06/15/2015	23:05:47.566	$GPGGA,230548,2426.4133,N,08058.7540,W,1,8,1.6,16,M,,M,,*54
06/15/2015	23:05:48.536	$GPGGA,230549,2426.4128,N,08058.7533,W,1,8,1.6,16,M,,M,,*5B
06/15/2015	23:05:49.536	$GPGGA,230550,2426.4122,N,08058.7528,W,1,8,1.6,16,M,,M,,*53
06/15/2015	23:05:50.536	$GPGGA,230551,2426.4117,N,08058.7522,W,1,8,1.6,16,M,,M,,*5E
06/15/2015	23:05:51.566	$GPGGA,230552,2426.4111,N,08058.7516,W,1,8,1.6,16,M,,M,,*5C
06/15/2015	23:05:52.526	$GPGGA,230553,2426.4106,N,08058.7510,W,1,8,1.6,16,M,,M,,*5D
06/15/2015	23:05:53.526	$GPGGA,230554,2426.4099,N,08058.7505,W,1,8,1.6,16,M,,M,,*59
06/15/2015	23:05:54.525	$GPGGA,230555,2426.4093,N,08058.7498,W,1,8,2.0,16,M,,M,,*52
06/15/2015	23:05:55.555	$GPGGA,230556,2426.4088,N,08058.7490,W,1,8,1.6,16,M,,M,,*56
06/15/2015	23:05:56.535	$GPGGA,230557,2426.4082,N,08058.7485,W,1,8,1.6,16,M,,M,,*59
06/15/2015	23:05:57.546	$GPGGA,230558,2426.4077,N,08058.7480,W,1,8,1.6,16,M,,M,,*59
06/15/2015	23:05:58.515	$GPGGA,230559,2426.4071,N,08058.7473,W,1,8,1.6,16,M,,M,,*52
06/15/2015	23:05:59.536	$GPGGA,230600,2426.4066,N,08058.7466,W,1,8,1.6,16,M,,M,,*5F
06/15/2015	23:06:00.506	$GPGGA,230601,2426.4061,N,08058.7460,W,1,8,1.6,16,M,,M,,*5F
06/15/2015	23:06:01.506	$GPGGA,230602,2426.4056,N,08058.7455,W,1,8,1.6,16,M,,M,,*5E
06/15/2015	23:06:02.626	$GPGGA,230603,2426.4050,N,08058.7449,W,1,8,1.6,16,M,,M,,*54
06/15/2015	23:06:03.556	$GPGGA,230604,2426.4045,N,08058.7442,W,1,8,1.6,16,M,,M,,*5C
06/15/2015	23:06:04.506	$GPGGA,230605,2426.4041,N,08058.7436,W,1,8,1.6,16,M,,M,,*5A
06/15/2015	23:06:05.506	$GPGGA,230606,2426.4034,N,08058.7430,W,1,7,2.0,16,M,,M,,*57
06/15/2015	23:06:06.616	$GPGGA,230607,2426.4028,N,08058.7424,W,1,7,2.0,16,M,,M,,*5E
06/15/2015	23:06:07.516	$GPGGA,230608,2426.4024,N,08058.7417,W,1,7,2.0,16,M,,M,,*5D
06/15/2015	23:06:08.496	$GPGGA,230609,2426.4019,N,08058.7411,W,1,7,1.6,16,M,,M,,*51
06/15/2015	23:06:09.506	$GPGGA,230610,2426.4014,N,08058.7405,W,1,8,1.6,16,M,,M,,*5E
06/15/2015	23:06:10.496	$GPGGA,230611,2426.4008,N,08058.7400,W,1,8,1.6,16,M,,M,,*57
06/15/2015	23:06:11.495	$GPGGA,230612,2426.4005,N,08058.7394,W,1,7,2.0,16,M,,M,,*59
06/15/2015	23:06:12.579	$GPGGA,230613,2426.4001,N,08058.7386,W,1,7,1.6,16,M,,M,,*5A
06/15/2015	23:06:13.505	$GPGGA,230614,2426.3994,N,08058.7381,W,1,8,1.6,16,M,,M,,*57
06/15/2015	23:06:14.480	$GPGGA,230615,2426.3987,N,08058.7375,W,1,8,1.6,16,M,,M,,*5F
06/15/2015	23:06:15.487	$GPGGA,230616,2426.3983,N,08058.7368,W,1,7,2.0,16,M,,M,,*5E
06/15/2015	23:06:16.596	$GPGGA,230617,2426.3977,N,08058.7361,W,1,7,2.0,16,M,,M,,*5D
06/15/2015	23:06:17.476	$GPGGA,230618,2426.3971,N,08058.7355,W,1,8,1.6,16,M,,M,,*59
06/15/2015	23:06:18.576	$GPGGA,230619,2426.3965,N,08058.7348,W,1,8,1.6,16,M,,M,,*51
06/15/2015	23:06:19.590	$GPGGA,230620,2426.3959,N,08058.7342,W,1,8,1.6,16,M,,M,,*5E
06/15/2015	23:06:20.482	$GPGGA,230621,2426.3954,N,08058.7336,W,1,8,1.6,16,M,,M,,*51
06/15/2015	23:06:21.586	$GPGGA,230622,2426.3949,N,08058.7328,W,1,8,1.6,16,M,,M,,*51
06/15/2015	23:06:22.566	$GPGGA,230623,2426.3943,N,08058.7322,W,1,8,1.6,16,M,,M,,*50
06/15/2015	23:06:24.596	$GPGGA,230625,2426.3931,N,08058.7310,W,1,8,1.6,16,M,,M,,*52
06/15/2015	23:06:25.577	$GPGGA,230626,2426.3926,N,08058.7304,W,1,8,1.6,16,M,,M,,*52
06/15/2015	23:06:26.566	$GPGGA,230627,2426.3920,N,08058.7297,W,1,8,1.6,16,M,,M,,*5E
06/15/2015	23:06:27.586	$GPGGA,230628,2426.3914,N,08058.7291,W,1,8,1.6,16,M,,M,,*50
06/15/2015	23:06:28.566	$GPGGA,230629,2426.3908,N,08058.7285,W,1,8,1.6,16,M,,M,,*59
06/15/2015	23:06:29.565	$GPGGA,230630,2426.3902,N,08058.7280,W,1,8,1.6,16,M,,M,,*5E
06/15/2015	23:06:30.555	$GPGGA,230631,2426.3895,N,08058.7273,W,1,8,1.6,15,M,,M,,*5F
06/15/2015	23:06:31.576	$GPGGA,230632,2426.3890,N,08058.7265,W,1,8,1.6,15,M,,M,,*5E
06/15/2015	23:06:32.545	$GPGGA,230633,2426.3884,N,08058.7259,W,1,8,1.6,15,M,,M,,*55
06/15/2015	23:06:33.555	$GPGGA,230634,2426.3878,N,08058.7254,W,1,8,1.6,15,M,,M,,*5C
06/15/2015	23:06:34.546	$GPGGA,230635,2426.3873,N,08058.7248,W,1,8,1.6,15,M,,M,,*5B
06/15/2015	23:06:35.566	$GPGGA,230636,2426.3867,N,08058.7241,W,1,8,1.6,15,M,,M,,*54
06/15/2015	23:06:36.526	$GPGGA,230637,2426.3861,N,08058.7234,W,1,8,1.6,15,M,,M,,*51
06/15/2015	23:06:37.556	$GPGGA,230638,2426.3855,N,08058.7228,W,1,8,1.6,15,M,,M,,*54
06/15/2015	23:06:38.536	$GPGGA,230639,2426.3849,N,08058.7223,W,1,8,1.6,15,M,,M,,*53
06/15/2015	23:06:39.556	$GPGGA,230640,2426.3843,N,08058.7217,W,1,8,1.6,14,M,,M,,*51
06/15/2015	23:06:40.526	$GPGGA,230641,2426.3839,N,08058.7209,W,1,8,1.6,14,M,,M,,*52
06/15/2015	23:06:41.516	$GPGGA,230642,2426.3832,N,08058.7203,W,1,7,2.0,14,M,,M,,*5A
06/15/2015	23:06:42.536	$GPGGA,230643,2426.3828,N,08058.7198,W,1,7,2.0,14,M,,M,,*51
06/15/2015	23:06:43.526	$GPGGA,230644,2426.3821,N,08058.7192,W,1,8,1.6,14,M,,M,,*5F
06/15/2015	23:06:44.526	$GPGGA,230645,2426.3817,N,08058.7185,W,1,8,1.6,14,M,,M,,*5D
06/15/2015	23:06:45.516	$GPGGA,230646,2426.3812,N,08058.7180,W,1,8,1.6,14,M,,M,,*5E
06/15/2015	23:06:46.505	$GPGGA,230647,2426.3807,N,08058.7175,W,1,8,1.6,14,M,,M,,*51
06/15/2015	23:06:47.555	$GPGGA,230648,2426.3802,N,08058.7168,W,1,8,1.6,14,M,,M,,*57
06/15/2015	23:06:48.525	$GPGGA,230649,2426.3797,N,08058.7162,W,1,8,1.6,14,M,,M,,*5F
06/15/2015	23:06:49.505	$GPGGA,230650,2426.3792,N,08058.7158,W,1,8,1.6,14,M,,M,,*5B
06/15/2015	23:06:50.855	$GPGGA,230651,2426.3788,N,08058.7152,W,1,8,1.6,14,M,,M,,*5B
06/15/2015	23:06:51.536	$GPGGA,230652,2426.3782,N,08058.7146,W,1,8,1.6,14,M,,M,,*57
06/15/2015	23:06:52.506	$GPGGA,230653,2426.3777,N,08058.7139,W,1,8,1.6,14,M,,M,,*54
06/15/2015	23:06:53.616	$GPGGA,230654,2426.3772,N,08058.7133,W,1,8,1.6,14,M,,M,,*5C
06/15/2015	23:06:54.616	$GPGGA,230655,2426.3766,N,08058.7128,W,1,8,1.6,14,M,,M,,*52
06/15/2015	23:06:55.526	$GPGGA,230656,2426.3759,N,08058.7123,W,1,8,1.6,14,M,,M,,*56
06/15/2015	23:06:56.506	$GPGGA,230657,2426.3754,N,08058.7115,W,1,8,2.0,14,M,,M,,*5A
06/15/2015	23:06:57.506	$GPGGA,230658,2426.3749,N,08058.7107,W,1,8,1.6,14,M,,M,,*5F
06/15/2015	23:06:58.506	$GPGGA,230659,2426.3743,N,08058.7103,W,1,8,1.6,14,M,,M,,*50
06/15/2015	23:06:59.546	$GPGGA,230700,2426.3737,N,08058.7098,W,1,8,1.6,14,M,,M,,*5D
06/15/2015	23:07:00.576	$GPGGA,230701,2426.3734,N,08058.7091,W,1,8,1.6,14,M,,M,,*56
06/15/2015	23:07:01.576	$GPGGA,230702,2426.3727,N,08058.7084,W,1,8,1.6,14,M,,M,,*53
06/15/2015	23:07:02.483	$GPGGA,230703,2426.3723,N,08058.7078,W,1,8,1.6,14,M,,M,,*55
06/15/2015	23:07:03.596	$GPGGA,230704,2426.3716,N,08058.7072,W,1,8,1.6,14,M,,M,,*5E
06/15/2015	23:07:04.565	$GPGGA,230705,2426.3712,N,08058.7067,W,1,8,1.6,14,M,,M,,*5F
06/15/2015	23:07:05.605	$GPGGA,230706,2426.3706,N,08058.7061,W,1,8,1.6,14,M,,M,,*5F
06/15/2015	23:07:06.575	$GPGGA,230707,2426.3701,N,08058.7054,W,1,8,1.6,14,M,,M,,*5F
06/15/2015	23:07:07.575	$GPGGA,230708,2426.3696,N,08058.7047,W,1,8,1.6,14,M,,M,,*5D
06/15/2015	23:07:08.555	$GPGGA,230709,2426.3689,N,08058.7041,W,1,8,1.6,14,M,,M,,*54
06/15/2015	23:07:09.596	$GPGGA,230710,2426.3683,N,08058.7037,W,1,8,1.6,14,M,,M,,*57
06/15/2015	23:07:10.556	$GPGGA,230711,2426.3680,N,08058.7029,W,1,8,1.6,14,M,,M,,*5A
06/15/2015	23:07:11.596	$GPGGA,230712,2426.3673,N,08058.7021,W,1,8,1.6,14,M,,M,,*5D
06/15/2015	23:07:12.566	$GPGGA,230713,2426.3667,N,08058.7016,W,1,8,1.6,14,M,,M,,*5D
06/15/2015	23:07:13.576	$GPGGA,230714,2426.3661,N,08058.7011,W,1,8,1.6,14,M,,M,,*5B
06/15/2015	23:07:14.546	$GPGGA,230715,2426.3655,N,08058.7004,W,1,8,1.6,14,M,,M,,*59
06/15/2015	23:07:15.566	$GPGGA,230716,2426.3651,N,08058.6996,W,1,8,1.6,14,M,,M,,*5D
06/15/2015	23:07:16.556	$GPGGA,230717,2426.3644,N,08058.6991,W,1,8,1.6,14,M,,M,,*5F
06/15/2015	23:07:17.566	$GPGGA,230718,2426.3640,N,08058.6987,W,1,8,1.6,15,M,,M,,*52
06/15/2015	23:07:18.546	$GPGGA,230719,2426.3633,N,08058.6980,W,1,8,1.6,15,M,,M,,*50
06/15/2015	23:07:19.566	$GPGGA,230720,2426.3629,N,08058.6972,W,1,8,1.6,15,M,,M,,*5C
06/15/2015	23:07:20.546	$GPGGA,230721,2426.3623,N,08058.6965,W,1,8,1.7,15,M,,M,,*50
06/15/2015	23:07:21.535	$GPGGA,230722,2426.3617,N,08058.6962,W,1,8,1.6,15,M,,M,,*52
06/15/2015	23:07:22.545	$GPGGA,230723,2426.3611,N,08058.6956,W,1,8,1.6,15,M,,M,,*52
06/15/2015	23:07:23.576	$GPGGA,230724,2426.3606,N,08058.6947,W,1,8,1.6,15,M,,M,,*53
06/15/2015	23:07:24.535	$GPGGA,230725,2426.3600,N,08058.6942,W,1,8,1.6,15,M,,M,,*51
06/15/2015	23:07:25.545	$GPGGA,230726,2426.3595,N,08058.6937,W,1,8,1.6,15,M,,M,,*5F
06/15/2015	23:07:26.536	$GPGGA,230727,2426.3589,N,08058.6931,W,1,8,1.6,15,M,,M,,*55
06/15/2015	23:07:27.536	$GPGGA,230728,2426.3584,N,08058.6924,W,1,8,1.6,15,M,,M,,*53
06/15/2015	23:07:28.516	$GPGGA,230729,2426.3579,N,08058.6918,W,1,8,1.6,15,M,,M,,*5F
06/15/2015	23:07:29.516	$GPGGA,230730,2426.3572,N,08058.6915,W,1,8,1.6,15,M,,M,,*51
06/15/2015	23:07:30.526	$GPGGA,230731,2426.3568,N,08058.6909,W,1,8,1.6,15,M,,M,,*56
06/15/2015	23:07:31.546	$GPGGA,230732,2426.3561,N,08058.6902,W,1,8,1.6,15,M,,M,,*57
06/15/2015	23:07:32.566	$GPGGA,230733,2426.3555,N,08058.6897,W,1,8,1.6,15,M,,M,,*5C
06/15/2015	23:07:33.527	$GPGGA,230734,2426.3550,N,08058.6893,W,1,8,1.6,15,M,,M,,*5A
06/15/2015	23:07:34.506	$GPGGA,230735,2426.3543,N,08058.6887,W,1,8,1.6,15,M,,M,,*5C
06/15/2015	23:07:35.546	$GPGGA,230736,2426.3539,N,08058.6880,W,1,8,1.6,15,M,,M,,*55
06/15/2015	23:07:36.666	$GPGGA,230737,2426.3532,N,08058.6876,W,1,8,1.6,15,M,,M,,*56
06/15/2015	23:07:37.546	$GPGGA,230738,2426.3526,N,08058.6871,W,1,8,1.6,15,M,,M,,*5B
06/15/2015	23:07:38.496	$GPGGA,230739,2426.3522,N,08058.6865,W,1,8,1.6,15,M,,M,,*5B
06/15/2015	23:07:39.505	$GPGGA,230740,2426.3517,N,08058.6859,W,1,8,1.6,15,M,,M,,*5C
06/15/2015	23:07:40.665	$GPGGA,230741,2426.3510,N,08058.6854,W,1,8,1.6,15,M,,M,,*57
06/15/2015	23:07:41.495	$GPGGA,230742,2426.3504,N,08058.6849,W,1,8,1.6,15,M,,M,,*5D
06/15/2015	23:07:42.665	$GPGGA,230743,2426.3499,N,08058.6842,W,1,8,1.6,15,M,,M,,*52
06/15/2015	23:07:43.505	$GPGGA,230744,2426.3493,N,08058.6837,W,1,8,1.6,15,M,,M,,*5D
06/15/2015	23:07:44.656	$GPGGA,230745,2426.3488,N,08058.6832,W,1,8,1.6,15,M,,M,,*53
06/15/2015	23:07:45.488	$GPGGA,230746,2426.3483,N,08058.6826,W,1,8,1.6,15,M,,M,,*5E
06/15/2015	23:07:46.656	$GPGGA,230747,2426.3477,N,08058.6819,W,1,8,1.6,15,M,,M,,*58
06/15/2015	23:07:47.506	$GPGGA,230748,2426.3471,N,08058.6815,W,1,8,1.6,15,M,,M,,*5D
06/15/2015	23:07:48.576	$GPGGA,230749,2426.3466,N,08058.6809,W,1,8,1.6,15,M,,M,,*57
06/15/2015	23:07:49.489	$GPGGA,230750,2426.3460,N,08058.6802,W,1,8,1.6,15,M,,M,,*52
06/15/2015	23:07:50.577	$GPGGA,230751,2426.3454,N,08058.6797,W,1,8,1.6,15,M,,M,,*57
06/15/2015	23:07:51.491	$GPGGA,230752,2426.3449,N,08058.6793,W,1,8,1.6,15,M,,M,,*5C
06/15/2015	23:07:52.636	$GPGGA,230753,2426.3443,N,08058.6786,W,1,8,1.6,15,M,,M,,*53
06/15/2015	23:07:53.626	$GPGGA,230754,2426.3438,N,08058.6780,W,1,8,1.6,15,M,,M,,*5E
06/15/2015	23:07:54.636	$GPGGA,230755,2426.3431,N,08058.6775,W,1,8,1.6,15,M,,M,,*5C
06/15/2015	23:07:55.666	$GPGGA,230756,2426.3427,N,08058.6770,W,1,8,1.6,15,M,,M,,*5D
06/15/2015	23:07:56.565	$GPGGA,230757,2426.3420,N,08058.6765,W,1,8,1.6,15,M,,M,,*5F
06/15/2015	23:07:57.615	$GPGGA,230758,2426.3414,N,08058.6757,W,1,8,1.6,15,M,,M,,*56
06/15/2015	23:07:58.625	$GPGGA,230759,2426.3409,N,08058.6751,W,1,8,1.6,15,M,,M,,*5D
06/15/2015	23:07:59.635	$GPGGA,230800,2426.3403,N,08058.6746,W,1,8,1.6,15,M,,M,,*52
06/15/2015	23:08:00.605	$GPGGA,230801,2426.3398,N,08058.6741,W,1,8,1.6,15,M,,M,,*51
06/15/2015	23:08:01.596	$GPGGA,230802,2426.3391,N,08058.6735,W,1,8,1.6,15,M,,M,,*58
06/15/2015	23:08:02.636	$GPGGA,230803,2426.3384,N,08058.6728,W,1,8,1.6,15,M,,M,,*51
06/15/2015	23:08:03.636	$GPGGA,230804,2426.3380,N,08058.6723,W,1,7,1.6,15,M,,M,,*56
06/15/2015	23:08:04.546	$GPGGA,230805,2426.3373,N,08058.6718,W,1,7,1.6,15,M,,M,,*53
06/15/2015	23:08:05.606	$GPGGA,230806,2426.3369,N,08058.6712,W,1,8,1.6,15,M,,M,,*5E
06/15/2015	23:08:06.606	$GPGGA,230807,2426.3363,N,08058.6706,W,1,8,1.6,15,M,,M,,*50
06/15/2015	23:08:07.596	$GPGGA,230808,2426.3359,N,08058.6701,W,1,8,1.6,15,M,,M,,*51
06/15/2015	23:08:08.586	$GPGGA,230809,2426.3354,N,08058.6695,W,1,8,1.6,15,M,,M,,*51
06/15/2015	23:08:09.606	$GPGGA,230810,2426.3349,N,08058.6690,W,1,8,1.6,15,M,,M,,*50
06/15/2015	23:08:10.526	$GPGGA,230811,2426.3344,N,08058.6685,W,1,8,1.6,15,M,,M,,*58
06/15/2015	23:08:11.536	$GPGGA,230812,2426.3340,N,08058.6679,W,1,8,1.6,15,M,,M,,*5C
06/15/2015	23:08:12.526	$GPGGA,230813,2426.3334,N,08058.6673,W,1,8,1.6,15,M,,M,,*54
06/15/2015	23:08:13.566	$GPGGA,230814,2426.3329,N,08058.6668,W,1,8,1.6,15,M,,M,,*55
06/15/2015	23:08:14.585	$GPGGA,230815,2426.3322,N,08058.6662,W,1,8,1.6,15,M,,M,,*55
06/15/2015	23:08:15.595	$GPGGA,230816,2426.3317,N,08058.6657,W,1,8,1.6,15,M,,M,,*56
06/15/2015	23:08:16.580	$GPGGA,230817,2426.3311,N,08058.6651,W,1,8,1.6,15,M,,M,,*57
06/15/2015	23:08:17.515	$GPGGA,230818,2426.3306,N,08058.6645,W,1,8,1.6,15,M,,M,,*5B
06/15/2015	23:08:18.576	$GPGGA,230819,2426.3300,N,08058.6639,W,1,8,1.6,16,M,,M,,*54
06/15/2015	23:08:19.606	$GPGGA,230820,2426.3295,N,08058.6633,W,1,8,1.6,16,M,,M,,*59
06/15/2015	23:08:20.566	$GPGGA,230821,2426.3289,N,08058.6628,W,1,8,1.6,16,M,,M,,*5F
06/15/2015	23:08:21.556	$GPGGA,230822,2426.3283,N,08058.6621,W,1,8,1.6,16,M,,M,,*5F
06/15/2015	23:08:22.626	$GPGGA,230823,2426.3277,N,08058.6615,W,1,8,1.6,16,M,,M,,*52
06/15/2015	23:08:23.577	$GPGGA,230824,2426.3272,N,08058.6609,W,1,8,1.6,16,M,,M,,*5D
06/15/2015	23:08:24.582	$GPGGA,230825,2426.3266,N,08058.6603,W,1,8,1.6,16,M,,M,,*53
06/15/2015	23:08:25.536	$GPGGA,230826,2426.3259,N,08058.6597,W,1,8,2.0,16,M,,M,,*57
06/15/2015	23:08:26.556	$GPGGA,230827,2426.3254,N,08058.6591,W,1,8,1.6,16,M,,M,,*58
06/15/2015	23:08:27.506	$GPGGA,230828,2426.3250,N,08058.6585,W,1,8,1.6,16,M,,M,,*56
06/15/2015	23:08:28.616	$GPGGA,230829,2426.3242,N,08058.6580,W,1,8,1.6,16,M,,M,,*51
06/15/2015	23:08:29.556	$GPGGA,230830,2426.3236,N,08058.6574,W,1,8,1.6,16,M,,M,,*51
06/15/2015	23:08:30.486	$GPGGA,230831,2426.3232,N,08058.6567,W,1,8,1.6,16,M,,M,,*56
06/15/2015	23:08:31.635	$GPGGA,230832,2426.3225,N,08058.6560,W,1,8,1.6,16,M,,M,,*54
06/15/2015	23:08:32.595	$GPGGA,230833,2426.3218,N,08058.6555,W,1,8,1.6,16,M,,M,,*5D
06/15/2015	23:08:33.605	$GPGGA,230834,2426.3214,N,08058.6551,W,1,8,1.6,16,M,,M,,*52
06/15/2015	23:08:34.475	$GPGGA,230835,2426.3207,N,08058.6542,W,1,8,1.6,16,M,,M,,*53
06/15/2015	23:08:35.555	$GPGGA,230836,2426.3203,N,08058.6534,W,1,8,1.6,16,M,,M,,*55
06/15/2015	23:08:36.546	$GPGGA,230837,2426.3196,N,08058.6531,W,1,8,1.6,16,M,,M,,*5E
06/15/2015	23:08:37.536	$GPGGA,230838,2426.3190,N,08058.6527,W,1,8,1.6,16,M,,M,,*50
06/15/2015	23:08:38.566	$GPGGA,230839,2426.3185,N,08058.6519,W,1,8,1.6,16,M,,M,,*58
06/15/2015	23:08:39.596	$GPGGA,230840,2426.3181,N,08058.6511,W,1,8,1.6,16,M,,M,,*5A
06/15/2015	23:08:40.566	$GPGGA,230841,2426.3174,N,08058.6506,W,1,8,1.6,16,M,,M,,*57
06/15/2015	23:08:41.566	$GPGGA,230842,2426.3169,N,08058.6501,W,1,8,1.6,16,M,,M,,*5F
06/15/2015	23:08:42.581	$GPGGA,230843,2426.3164,N,08058.6494,W,1,8,1.6,16,M,,M,,*5E
06/15/2015	23:08:43.566	$GPGGA,230844,2426.3157,N,08058.6487,W,1,8,2.0,16,M,,M,,*5E
06/15/2015	23:08:44.584	$GPGGA,230845,2426.3152,N,08058.6480,W,1,8,2.0,16,M,,M,,*5D
06/15/2015	23:08:45.581	$GPGGA,230846,2426.3146,N,08058.6473,W,1,7,1.6,16,M,,M,,*5D
06/15/2015	23:08:46.566	$GPGGA,230847,2426.3141,N,08058.6469,W,1,7,1.6,16,M,,M,,*50
06/15/2015	23:08:47.606	$GPGGA,230848,2426.3135,N,08058.6462,W,1,8,2.0,16,M,,M,,*5D
06/15/2015	23:08:48.546	$GPGGA,230849,2426.3134,N,08058.6456,W,1,8,1.6,16,M,,M,,*5F
06/15/2015	23:08:49.555	$GPGGA,230850,2426.3127,N,08058.6450,W,1,8,1.6,16,M,,M,,*53
06/15/2015	23:08:50.565	$GPGGA,230851,2426.3121,N,08058.6444,W,1,8,1.6,16,M,,M,,*51
06/15/2015	23:08:51.605	$GPGGA,230852,2426.3116,N,08058.6439,W,1,8,1.6,16,M,,M,,*5C
06/15/2015	23:08:52.555	$GPGGA,230853,2426.3111,N,08058.6431,W,1,8,1.6,16,M,,M,,*52
06/15/2015	23:08:53.578	$GPGGA,230854,2426.3105,N,08058.6425,W,1,8,1.6,16,M,,M,,*55
06/15/2015	23:08:54.557	$GPGGA,230855,2426.3102,N,08058.6421,W,1,8,1.6,16,M,,M,,*57
06/15/2015	23:08:55.577	$GPGGA,230856,2426.3096,N,08058.6414,W,1,8,1.6,16,M,,M,,*5E
06/15/2015	23:08:56.576	$GPGGA,230857,2426.3089,N,08058.6407,W,1,8,2.0,16,M,,M,,*56
06/15/2015	23:08:57.556	$GPGGA,230858,2426.3085,N,08058.6402,W,1,7,1.6,16,M,,M,,*5A
06/15/2015	23:08:58.576	$GPGGA,230859,2426.3081,N,08058.6397,W,1,7,1.6,16,M,,M,,*54
06/15/2015	23:08:59.556	$GPGGA,230900,2426.3076,N,08058.6391,W,1,8,1.6,16,M,,M,,*58
06/15/2015	23:09:00.556	$GPGGA,230901,2426.3071,N,08058.6385,W,1,8,1.6,16,M,,M,,*5B
06/15/2015	23:09:01.566	$GPGGA,230902,2426.3065,N,08058.6379,W,1,8,1.6,16,M,,M,,*5E
06/15/2015	23:09:02.536	$GPGGA,230903,2426.3065,N,08058.6379,W,1,8,1.6,16,M,,M,,*5F
06/15/2015	23:09:03.566	$GPGGA,230904,2426.3055,N,08058.6368,W,1,8,1.6,16,M,,M,,*5B
06/15/2015	23:09:04.578	$GPGGA,230905,2426.3051,N,08058.6362,W,1,8,1.6,16,M,,M,,*54
06/15/2015	23:09:05.516	$GPGGA,230906,2426.3045,N,08058.6357,W,1,8,1.6,16,M,,M,,*54
06/15/2015	23:09:06.575	$GPGGA,230907,2426.3040,N,08058.6352,W,1,8,1.6,17,M,,M,,*54
06/15/2015	23:09:07.565	$GPGGA,230908,2426.3035,N,08058.6345,W,1,8,1.6,17,M,,M,,*5F
06/15/2015	23:09:08.525	$GPGGA,230909,2426.3035,N,08058.6345,W,1,8,1.6,17,M,,M,,*5E
06/15/2015	23:09:09.535	$GPGGA,230910,2426.3030,N,08058.6339,W,1,8,1.6,17,M,,M,,*58
06/15/2015	23:09:10.515	$GPGGA,230911,2426.3024,N,08058.6333,W,1,8,1.6,17,M,,M,,*56
06/15/2015	23:09:11.546	$GPGGA,230912,2426.3013,N,08058.6323,W,1,8,1.6,17,M,,M,,*50
06/15/2015	23:09:12.616	$GPGGA,230913,2426.3008,N,08058.6315,W,1,8,1.6,17,M,,M,,*5E
06/15/2015	23:09:13.506	$GPGGA,230914,2426.3004,N,08058.6310,W,1,8,1.6,17,M,,M,,*50
06/15/2015	23:09:14.586	$GPGGA,230915,2426.2998,N,08058.6304,W,1,8,1.6,17,M,,M,,*59
06/15/2015	23:09:15.546	$GPGGA,230916,2426.2992,N,08058.6298,W,1,8,1.6,17,M,,M,,*54
06/15/2015	23:09:16.606	$GPGGA,230917,2426.2987,N,08058.6293,W,1,8,1.6,17,M,,M,,*5A
06/15/2015	23:09:17.496	$GPGGA,230918,2426.2982,N,08058.6288,W,1,8,1.6,17,M,,M,,*5A
06/15/2015	23:09:18.599	$GPGGA,230919,2426.2977,N,08058.6280,W,1,8,1.6,17,M,,M,,*59
06/15/2015	23:09:19.491	$GPGGA,230920,2426.2971,N,08058.6274,W,1,8,1.6,17,M,,M,,*5E
06/15/2015	23:09:20.587	$GPGGA,230921,2426.2966,N,08058.6270,W,1,8,1.6,17,M,,M,,*5D
06/15/2015	23:09:21.577	$GPGGA,230922,2426.2961,N,08058.6265,W,1,8,1.6,17,M,,M,,*5D
06/15/2015	23:09:22.596	$GPGGA,230923,2426.2955,N,08058.6258,W,1,8,1.6,17,M,,M,,*55
06/15/2015	23:09:23.498	$GPGGA,230924,2426.2950,N,08058.6251,W,1,8,1.6,17,M,,M,,*5E
06/15/2015	23:09:24.601	$GPGGA,230925,2426.2943,N,08058.6247,W,1,8,1.6,17,M,,M,,*5A
06/15/2015	23:09:25.595	$GPGGA,230926,2426.2937,N,08058.6242,W,1,8,1.6,16,M,,M,,*5E
06/15/2015	23:09:26.565	$GPGGA,230927,2426.2932,N,08058.6237,W,1,8,1.6,16,M,,M,,*58
06/15/2015	23:09:27.587	$GPGGA,230928,2426.2926,N,08058.6231,W,1,8,1.6,16,M,,M,,*54
06/15/2015	23:09:28.565	$GPGGA,230929,2426.2921,N,08058.6224,W,1,8,1.6,16,M,,M,,*56
06/15/2015	23:09:29.596	$GPGGA,230930,2426.2914,N,08058.6220,W,1,8,1.6,16,M,,M,,*5C
06/15/2015	23:09:30.556	$GPGGA,230931,2426.2910,N,08058.6216,W,1,8,1.6,16,M,,M,,*5C
06/15/2015	23:09:31.566	$GPGGA,230932,2426.2903,N,08058.6208,W,1,8,1.6,16,M,,M,,*52
06/15/2015	23:09:32.566	$GPGGA,230933,2426.2897,N,08058.6202,W,1,8,1.6,16,M,,M,,*55
06/15/2015	23:09:33.576	$GPGGA,230934,2426.2892,N,08058.6198,W,1,8,1.6,16,M,,M,,*57
06/15/2015	23:09:34.557	$GPGGA,230935,2426.2886,N,08058.6192,W,1,8,1.6,16,M,,M,,*59
06/15/2015	23:09:35.577	$GPGGA,230936,2426.2881,N,08058.6185,W,1,8,1.6,16,M,,M,,*5B
06/15/2015	23:09:36.556	$GPGGA,230937,2426.2874,N,08058.6181,W,1,8,1.6,16,M,,M,,*54
06/15/2015	23:09:37.566	$GPGGA,230938,2426.2869,N,08058.6174,W,1,8,1.6,16,M,,M,,*5D
06/15/2015	23:09:38.546	$GPGGA,230939,2426.2864,N,08058.6167,W,1,8,1.6,16,M,,M,,*53
06/15/2015	23:09:39.578	$GPGGA,230940,2426.2857,N,08058.6162,W,1,8,1.6,16,M,,M,,*58
06/15/2015	23:09:40.536	$GPGGA,230941,2426.2852,N,08058.6157,W,1,8,1.6,16,M,,M,,*5A
06/15/2015	23:09:41.566	$GPGGA,230942,2426.2846,N,08058.6150,W,1,8,1.6,15,M,,M,,*58
06/15/2015	23:09:42.545	$GPGGA,230943,2426.2841,N,08058.6143,W,1,8,1.6,15,M,,M,,*5C
06/15/2015	23:09:43.577	$GPGGA,230944,2426.2836,N,08058.6138,W,1,8,1.6,15,M,,M,,*57
06/15/2015	23:09:44.535	$GPGGA,230945,2426.2829,N,08058.6132,W,1,8,1.6,15,M,,M,,*52
06/15/2015	23:09:45.535	$GPGGA,230946,2426.2824,N,08058.6126,W,1,8,1.6,15,M,,M,,*59
06/15/2015	23:09:46.536	$GPGGA,230947,2426.2820,N,08058.6119,W,1,8,1.6,15,M,,M,,*50
06/15/2015	23:09:47.578	$GPGGA,230948,2426.2813,N,08058.6114,W,1,8,1.6,15,M,,M,,*52
06/15/2015	23:09:48.526	$GPGGA,230949,2426.2807,N,08058.6107,W,1,8,1.6,15,M,,M,,*54
06/15/2015	23:09:49.546	$GPGGA,230950,2426.2803,N,08058.6100,W,1,8,1.6,15,M,,M,,*5F
06/15/2015	23:09:50.526	$GPGGA,230951,2426.2798,N,08058.6095,W,1,8,1.6,15,M,,M,,*5E
06/15/2015	23:09:51.526	$GPGGA,230952,2426.2791,N,08058.6090,W,1,8,1.6,15,M,,M,,*51
06/15/2015	23:09:52.516	$GPGGA,230953,2426.2786,N,08058.6082,W,1,8,1.6,15,M,,M,,*55
06/15/2015	23:09:53.506	$GPGGA,230954,2426.2781,N,08058.6074,W,1,8,1.6,15,M,,M,,*5C
06/15/2015	23:09:54.626	$GPGGA,230955,2426.2775,N,08058.6069,W,1,8,1.6,15,M,,M,,*5A
06/15/2015	23:09:55.636	$GPGGA,230956,2426.2770,N,08058.6065,W,1,8,1.6,15,M,,M,,*50
06/15/2015	23:09:56.506	$GPGGA,230957,2426.2766,N,08058.6056,W,1,8,1.6,15,M,,M,,*56
06/15/2015	23:09:57.526	$GPGGA,230958,2426.2759,N,08058.6049,W,1,8,1.6,15,M,,M,,*5B
06/15/2015	23:09:58.506	$GPGGA,230959,2426.2755,N,08058.6043,W,1,8,1.6,15,M,,M,,*5C
06/15/2015	23:09:59.635	$GPGGA,231000,2426.2749,N,08058.6038,W,1,8,1.6,15,M,,M,,*59
06/15/2015	23:10:00.515	$GPGGA,231001,2426.2744,N,08058.6031,W,1,8,1.6,15,M,,M,,*5C
06/15/2015	23:10:01.515	$GPGGA,231002,2426.2738,N,08058.6025,W,1,8,1.6,14,M,,M,,*50
06/15/2015	23:10:02.495	$GPGGA,231003,2426.2733,N,08058.6018,W,1,8,1.6,14,M,,M,,*54
06/15/2015	23:10:03.535	$GPGGA,231004,2426.2729,N,08058.6012,W,1,8,1.6,14,M,,M,,*52
06/15/2015	23:10:04.814	$GPGGA,231005,2426.2724,N,08058.6006,W,1,8,1.6,14,M,,M,,*5B
06/15/2015	23:10:05.475	$GPGGA,231006,2426.2719,N,08058.6000,W,1,8,1.6,14,M,,M,,*50
06/15/2015	23:10:06.581	$GPGGA,231007,2426.2715,N,08058.5994,W,1,8,1.6,14,M,,M,,*5A
06/15/2015	23:10:07.577	$GPGGA,231008,2426.2710,N,08058.5987,W,1,8,1.6,14,M,,M,,*52
06/15/2015	23:10:08.584	$GPGGA,231009,2426.2705,N,08058.5980,W,1,8,1.6,14,M,,M,,*50
06/15/2015	23:10:09.594	$GPGGA,231010,2426.2699,N,08058.5975,W,1,8,1.6,14,M,,M,,*56
06/15/2015	23:10:10.570	$GPGGA,231011,2426.2695,N,08058.5969,W,1,8,1.6,14,M,,M,,*56
06/15/2015	23:10:11.582	$GPGGA,231012,2426.2691,N,08058.5961,W,1,8,1.6,14,M,,M,,*59
06/15/2015	23:10:12.568	$GPGGA,231013,2426.2686,N,08058.5955,W,1,8,1.6,14,M,,M,,*59
06/15/2015	23:10:13.554	$GPGGA,231014,2426.2681,N,08058.5950,W,1,8,1.6,14,M,,M,,*5C
06/15/2015	23:10:14.554	$GPGGA,231015,2426.2676,N,08058.5943,W,1,8,1.6,14,M,,M,,*57
06/15/2015	23:10:15.574	$GPGGA,231016,2426.2672,N,08058.5935,W,1,8,1.6,14,M,,M,,*51
06/15/2015	23:10:16.543	$GPGGA,231017,2426.2668,N,08058.5930,W,1,8,1.6,14,M,,M,,*5E
06/15/2015	23:10:17.543	$GPGGA,231018,2426.2662,N,08058.5923,W,1,8,1.6,14,M,,M,,*59
06/15/2015	23:10:18.553	$GPGGA,231019,2426.2657,N,08058.5916,W,1,8,1.6,14,M,,M,,*58
06/15/2015	23:10:19.564	$GPGGA,231020,2426.2652,N,08058.5910,W,1,8,1.6,14,M,,M,,*51
06/15/2015	23:10:20.543	$GPGGA,231021,2426.2647,N,08058.5902,W,1,8,1.6,14,M,,M,,*57
06/15/2015	23:10:21.553	$GPGGA,231022,2426.2643,N,08058.5895,W,1,8,1.6,14,M,,M,,*5F
06/15/2015	23:10:22.544	$GPGGA,231023,2426.2637,N,08058.5889,W,1,8,1.6,14,M,,M,,*50
06/15/2015	23:10:23.564	$GPGGA,231024,2426.2632,N,08058.5882,W,1,8,1.6,14,M,,M,,*59
06/15/2015	23:10:24.868	$GPGGA,231025,2426.2627,N,08058.5875,W,1,8,1.6,14,M,,M,,*54
06/15/2015	23:10:25.544	$GPGGA,231026,2426.2622,N,08058.5868,W,1,8,1.6,14,M,,M,,*5E
06/15/2015	23:10:26.534	$GPGGA,231027,2426.2617,N,08058.5861,W,1,8,1.6,14,M,,M,,*50
06/15/2015	23:10:27.564	$GPGGA,231028,2426.2612,N,08058.5853,W,1,8,1.6,14,M,,M,,*5B
06/15/2015	23:10:28.524	$GPGGA,231029,2426.2607,N,08058.5847,W,1,8,1.6,14,M,,M,,*5B
06/15/2015	23:10:29.554	$GPGGA,231030,2426.2603,N,08058.5840,W,1,8,1.6,14,M,,M,,*50
06/15/2015	23:10:30.514	$GPGGA,231031,2426.2597,N,08058.5833,W,1,8,1.6,14,M,,M,,*5B
06/15/2015	23:10:31.534	$GPGGA,231032,2426.2592,N,08058.5825,W,1,8,1.6,14,M,,M,,*5A
06/15/2015	23:10:32.524	$GPGGA,231033,2426.2587,N,08058.5818,W,1,8,1.6,14,M,,M,,*51
06/15/2015	23:10:33.554	$GPGGA,231034,2426.2581,N,08058.5812,W,1,8,1.6,14,M,,M,,*5A
06/15/2015	23:10:34.513	$GPGGA,231035,2426.2576,N,08058.5805,W,1,8,1.6,14,M,,M,,*55
06/15/2015	23:10:35.513	$GPGGA,231036,2426.2572,N,08058.5797,W,1,8,1.6,14,M,,M,,*56
06/15/2015	23:10:36.523	$GPGGA,231037,2426.2567,N,08058.5790,W,1,8,1.6,14,M,,M,,*54
06/15/2015	23:10:37.503	$GPGGA,231038,2426.2561,N,08058.5784,W,1,8,1.6,14,M,,M,,*58
06/15/2015	23:10:38.513	$GPGGA,231039,2426.2556,N,08058.5777,W,1,8,1.6,14,M,,M,,*51
06/15/2015	23:10:39.544	$GPGGA,231040,2426.2550,N,08058.5769,W,1,7,2.1,14,M,,M,,*5D
06/15/2015	23:10:40.504	$GPGGA,231041,2426.2544,N,08058.5763,W,1,7,2.1,14,M,,M,,*53
06/15/2015	23:10:41.504	$GPGGA,231042,2426.2539,N,08058.5755,W,1,8,1.6,14,M,,M,,*54
06/15/2015	23:10:42.504	$GPGGA,231043,2426.2533,N,08058.5747,W,1,8,1.6,14,M,,M,,*5C
06/15/2015	23:10:43.524	$GPGGA,231044,2426.2527,N,08058.5741,W,1,8,1.6,14,M,,M,,*58
06/15/2015	23:10:44.504	$GPGGA,231045,2426.2522,N,08058.5735,W,1,8,1.6,13,M,,M,,*58
06/15/2015	23:10:45.484	$GPGGA,231046,2426.2517,N,08058.5727,W,1,8,1.6,13,M,,M,,*5E
06/15/2015	23:10:46.614	$GPGGA,231047,2426.2513,N,08058.5719,W,1,8,1.6,13,M,,M,,*56
06/15/2015	23:10:47.614	$GPGGA,231048,2426.2507,N,08058.5714,W,1,8,1.6,14,M,,M,,*56
06/15/2015	23:10:48.494	$GPGGA,231049,2426.2502,N,08058.5707,W,1,8,1.6,14,M,,M,,*50
06/15/2015	23:10:49.484	$GPGGA,231050,2426.2497,N,08058.5699,W,1,8,1.6,14,M,,M,,*53
06/15/2015	23:10:50.574	$GPGGA,231051,2426.2492,N,08058.5693,W,1,8,1.6,14,M,,M,,*5D
06/15/2015	23:10:51.593	$GPGGA,231052,2426.2487,N,08058.5687,W,1,8,1.6,14,M,,M,,*5F
06/15/2015	23:10:52.593	$GPGGA,231053,2426.2484,N,08058.5679,W,1,8,1.6,14,M,,M,,*5C
06/15/2015	23:10:53.483	$GPGGA,231054,2426.2478,N,08058.5673,W,1,8,1.6,14,M,,M,,*52
06/15/2015	23:10:54.566	$GPGGA,231055,2426.2473,N,08058.5668,W,1,8,1.6,14,M,,M,,*52
06/15/2015	23:10:55.583	$GPGGA,231056,2426.2467,N,08058.5661,W,1,8,1.6,14,M,,M,,*5D
06/15/2015	23:10:56.564	$GPGGA,231057,2426.2462,N,08058.5654,W,1,8,1.6,14,M,,M,,*5F
06/15/2015	23:10:57.554	$GPGGA,231058,2426.2457,N,08058.5648,W,1,8,1.6,14,M,,M,,*5B
06/15/2015	23:10:58.565	$GPGGA,231059,2426.2453,N,08058.5641,W,1,8,1.6,14,M,,M,,*57
06/15/2015	23:10:59.575	$GPGGA,231100,2426.2448,N,08058.5635,W,1,8,1.6,14,M,,M,,*53
06/15/2015	23:11:00.574	$GPGGA,231101,2426.2441,N,08058.5629,W,1,8,1.6,14,M,,M,,*56
06/15/2015	23:11:02.584	$GPGGA,231103,2426.2430,N,08058.5614,W,1,7,2.1,14,M,,M,,*57
06/15/2015	23:11:03.584	$GPGGA,231104,2426.2426,N,08058.5608,W,1,8,1.6,14,M,,M,,*51
06/15/2015	23:11:04.544	$GPGGA,231105,2426.2419,N,08058.5602,W,1,8,1.6,14,M,,M,,*56
06/15/2015	23:11:05.565	$GPGGA,231106,2426.2415,N,08058.5596,W,1,8,1.6,14,M,,M,,*57
06/15/2015	23:11:06.544	$GPGGA,231107,2426.2410,N,08058.5589,W,1,8,1.6,14,M,,M,,*5D
06/15/2015	23:11:07.564	$GPGGA,231108,2426.2406,N,08058.5582,W,1,8,1.6,15,M,,M,,*5F
06/15/2015	23:11:08.544	$GPGGA,231109,2426.2401,N,08058.5577,W,1,8,1.6,15,M,,M,,*53
06/15/2015	23:11:09.563	$GPGGA,231110,2426.2397,N,08058.5572,W,1,8,1.6,15,M,,M,,*56
06/15/2015	23:11:10.533	$GPGGA,231111,2426.2391,N,08058.5565,W,1,8,1.6,15,M,,M,,*57
06/15/2015	23:11:11.565	$GPGGA,231112,2426.2386,N,08058.5557,W,1,8,1.6,15,M,,M,,*53
06/15/2015	23:11:12.543	$GPGGA,231113,2426.2380,N,08058.5552,W,1,8,1.6,15,M,,M,,*51
06/15/2015	23:11:13.553	$GPGGA,231114,2426.2375,N,08058.5547,W,1,8,1.6,15,M,,M,,*58
06/15/2015	23:11:14.534	$GPGGA,231115,2426.2370,N,08058.5539,W,1,8,1.6,15,M,,M,,*55
06/15/2015	23:11:15.554	$GPGGA,231116,2426.2365,N,08058.5533,W,1,8,1.6,15,M,,M,,*58
06/15/2015	23:11:16.534	$GPGGA,231117,2426.2359,N,08058.5528,W,1,8,1.6,16,M,,M,,*5F
06/15/2015	23:11:17.545	$GPGGA,231118,2426.2354,N,08058.5520,W,1,8,1.6,16,M,,M,,*55
06/15/2015	23:11:18.514	$GPGGA,231119,2426.2350,N,08058.5513,W,1,8,1.6,16,M,,M,,*50
06/15/2015	23:11:19.524	$GPGGA,231120,2426.2343,N,08058.5509,W,1,8,1.6,16,M,,M,,*53
06/15/2015	23:11:20.524	$GPGGA,231121,2426.2336,N,08058.5502,W,1,8,1.6,16,M,,M,,*5B
06/15/2015	23:11:21.544	$GPGGA,231122,2426.2333,N,08058.5494,W,1,7,2.1,16,M,,M,,*58
06/15/2015	23:11:22.514	$GPGGA,231123,2426.2329,N,08058.5489,W,1,7,1.6,16,M,,M,,*5A
06/15/2015	23:11:23.554	$GPGGA,231124,2426.2323,N,08058.5484,W,1,8,1.6,16,M,,M,,*55
06/15/2015	23:11:24.504	$GPGGA,231125,2426.2318,N,08058.5477,W,1,8,1.6,16,M,,M,,*50
06/15/2015	23:11:25.504	$GPGGA,231126,2426.2314,N,08058.5470,W,1,8,1.6,16,M,,M,,*58
06/15/2015	23:11:26.523	$GPGGA,231127,2426.2308,N,08058.5463,W,1,8,1.6,16,M,,M,,*56
06/15/2015	23:11:27.633	$GPGGA,231128,2426.2303,N,08058.5458,W,1,8,1.6,17,M,,M,,*5B
06/15/2015	23:11:28.503	$GPGGA,231129,2426.2297,N,08058.5452,W,1,8,1.6,17,M,,M,,*5C
06/15/2015	23:11:29.523	$GPGGA,231130,2426.2292,N,08058.5445,W,1,8,1.6,17,M,,M,,*57
06/15/2015	23:11:30.503	$GPGGA,231131,2426.2287,N,08058.5437,W,1,8,1.6,17,M,,M,,*57
06/15/2015	23:11:31.524	$GPGGA,231132,2426.2281,N,08058.5432,W,1,8,1.6,17,M,,M,,*57
06/15/2015	23:11:32.486	$GPGGA,231133,2426.2275,N,08058.5427,W,1,8,1.6,17,M,,M,,*59
06/15/2015	23:11:33.504	$GPGGA,231134,2426.2271,N,08058.5420,W,1,8,1.6,17,M,,M,,*5D
06/15/2015	23:11:34.577	$GPGGA,231135,2426.2265,N,08058.5412,W,1,8,1.6,17,M,,M,,*58
06/15/2015	23:11:35.514	$GPGGA,231136,2426.2260,N,08058.5406,W,1,8,1.6,17,M,,M,,*5B
06/15/2015	23:11:36.484	$GPGGA,231137,2426.2254,N,08058.5401,W,1,8,1.6,17,M,,M,,*5A
06/15/2015	23:11:37.483	$GPGGA,231138,2426.2249,N,08058.5395,W,1,8,1.6,17,M,,M,,*53
06/15/2015	23:11:38.576	$GPGGA,231139,2426.2242,N,08058.5387,W,1,8,1.6,17,M,,M,,*5A
06/15/2015	23:11:39.604	$GPGGA,231140,2426.2238,N,08058.5381,W,1,8,1.6,17,M,,M,,*5F
06/15/2015	23:11:40.494	$GPGGA,231141,2426.2233,N,08058.5376,W,1,8,1.6,17,M,,M,,*5D
06/15/2015	23:11:41.568	$GPGGA,231142,2426.2227,N,08058.5369,W,1,8,1.6,17,M,,M,,*55
06/15/2015	23:11:42.567	$GPGGA,231143,2426.2221,N,08058.5363,W,1,8,1.6,17,M,,M,,*58
06/15/2015	23:11:43.604	$GPGGA,231144,2426.2217,N,08058.5357,W,1,8,1.6,17,M,,M,,*5D
06/15/2015	23:11:44.568	$GPGGA,231145,2426.2213,N,08058.5350,W,1,8,1.6,17,M,,M,,*5F
06/15/2015	23:11:45.593	$GPGGA,231146,2426.2206,N,08058.5344,W,1,8,1.6,17,M,,M,,*5D
06/15/2015	23:11:46.563	$GPGGA,231147,2426.2200,N,08058.5338,W,1,8,1.6,17,M,,M,,*51
06/15/2015	23:11:47.668	$GPGGA,231148,2426.2196,N,08058.5333,W,1,8,1.6,17,M,,M,,*59
06/15/2015	23:11:48.553	$GPGGA,231149,2426.2191,N,08058.5326,W,1,8,1.6,17,M,,M,,*5B
06/15/2015	23:11:49.575	$GPGGA,231150,2426.2186,N,08058.5320,W,1,8,1.6,17,M,,M,,*53
06/15/2015	23:11:50.554	$GPGGA,231151,2426.2180,N,08058.5315,W,1,8,1.6,17,M,,M,,*52
06/15/2015	23:11:51.566	$GPGGA,231152,2426.2175,N,08058.5309,W,1,8,1.6,17,M,,M,,*56
06/15/2015	23:11:52.554	$GPGGA,231153,2426.2170,N,08058.5303,W,1,8,1.6,17,M,,M,,*58
