Software Version Number: 1	Data File Format Number: 1	Build Version Number: 1	Error Count Since VI Started: 3	Manufacturer: Raytheon	 Model Number: RayMarine 120	 S/N: 	 Cal Date: 	 Wind Direction Offset: 0.00	 Slope (M)1: 0.00	 Offset (B)1: 0.00	 Slope (M)2: 0.00	 Offset (B)2: 0.00	 Slope (M)3: 0.00	 Offset (B)3: 0.00	 Slope (M)4: 0.00	 Offset (B)4: 0.00	 Slope (M)5: 0.00	 Offset (B)5: 0.00	 Slope (M)6: 0.00	 Offset (B)6: 0.00
Computer Date	Computer Time	GGA String
06/26/2015	11:00:00.587	$GPGGA,110001,2538.1489,N,08003.2309,W,1,10,1.8,11,M,,M,,*62
06/26/2015	11:00:01.611	$GPGGA,110002,2538.1493,N,08003.2335,W,1,10,1.8,11,M,,M,,*65
06/26/2015	11:00:02.585	$GPGGA,110003,2538.1497,N,08003.2361,W,1,10,1.8,11,M,,M,,*61
06/26/2015	11:00:03.641	$GPGGA,110004,2538.1500,N,08003.2388,W,1,10,1.8,11,M,,M,,*6E
06/26/2015	11:00:04.584	$GPGGA,110005,2538.1504,N,08003.2413,W,1,10,1.8,11,M,,M,,*6E
06/26/2015	11:00:05.601	$GPGGA,110006,2538.1507,N,08003.2440,W,1,9,1.8,11,M,,M,,*50
06/26/2015	11:00:06.584	$GPGGA,110007,2538.1510,N,08003.2465,W,1,9,1.8,11,M,,M,,*50
06/26/2015	11:00:07.621	$GPGGA,110008,2538.1514,N,08003.2490,W,1,10,1.8,11,M,,M,,*69
06/26/2015	11:00:08.561	$GPGGA,110009,2538.1516,N,08003.2516,W,1,10,1.8,11,M,,M,,*65
06/26/2015	11:00:09.581	$GPGGA,110010,2538.1519,N,08003.2541,W,1,9,1.8,11,M,,M,,*58
06/26/2015	11:00:10.572	$GPGGA,110011,2538.1523,N,08003.2568,W,1,9,1.8,11,M,,M,,*5B
06/26/2015	11:00:11.601	$GPGGA,110012,2538.1526,N,08003.2592,W,1,10,1.8,11,M,,M,,*60
06/26/2015	11:00:12.561	$GPGGA,110013,2538.1529,N,08003.2617,W,1,10,1.8,11,M,,M,,*60
06/26/2015	11:00:13.573	$GPGGA,110014,2538.1532,N,08003.2642,W,1,10,1.8,11,M,,M,,*6D
06/26/2015	11:00:14.561	$GPGGA,110015,2538.1534,N,08003.2666,W,1,10,1.8,11,M,,M,,*6C
06/26/2015	11:00:15.573	$GPGGA,110016,2538.1537,N,08003.2691,W,1,10,1.8,11,M,,M,,*64
06/26/2015	11:00:16.560	$GPGGA,110017,2538.1541,N,08003.2717,W,1,10,1.8,11,M,,M,,*6B
06/26/2015	11:00:17.540	$GPGGA,110018,2538.1543,N,08003.2742,W,1,10,1.8,11,M,,M,,*66
06/26/2015	11:00:18.561	$GPGGA,110019,2538.1545,N,08003.2767,W,1,10,1.8,11,M,,M,,*66
06/26/2015	11:00:19.561	$GPGGA,110020,2538.1548,N,08003.2790,W,1,10,1.8,11,M,,M,,*69
06/26/2015	11:00:20.551	$GPGGA,110021,2538.1551,N,08003.2815,W,1,10,1.8,11,M,,M,,*62
06/26/2015	11:00:21.541	$GPGGA,110022,2538.1554,N,08003.2840,W,1,10,1.8,11,M,,M,,*64
06/26/2015	11:00:22.551	$GPGGA,110023,2538.1555,N,08003.2865,W,1,10,1.8,11,M,,M,,*63
06/26/2015	11:00:23.541	$GPGGA,110024,2538.1558,N,08003.2888,W,1,10,1.8,11,M,,M,,*6A
06/26/2015	11:00:24.551	$GPGGA,110025,2538.1561,N,08003.2912,W,1,10,1.8,11,M,,M,,*63
06/26/2015	11:00:25.586	$GPGGA,110026,2538.1563,N,08003.2935,W,1,10,1.8,11,M,,M,,*67
06/26/2015	11:00:26.541	$GPGGA,110027,2538.1565,N,08003.2959,W,1,10,1.8,11,M,,M,,*6A
06/26/2015	11:00:27.572	$GPGGA,110028,2538.1568,N,08003.2981,W,1,10,1.8,11,M,,M,,*6D
06/26/2015	11:00:28.541	$GPGGA,110029,2538.1570,N,08003.3004,W,1,10,1.8,11,M,,M,,*60
06/26/2015	11:00:29.521	$GPGGA,110030,2538.1573,N,08003.3027,W,1,10,1.8,11,M,,M,,*6A
06/26/2015	11:00:30.641	$GPGGA,110031,2538.1574,N,08003.3050,W,1,10,1.8,11,M,,M,,*6C
06/26/2015	11:00:31.681	$GPGGA,110032,2538.1577,N,08003.3074,W,1,10,1.8,11,M,,M,,*6A
06/26/2015	11:00:32.520	$GPGGA,110033,2538.1580,N,08003.3097,W,1,10,1.8,11,M,,M,,*6E
06/26/2015	11:00:33.540	$GPGGA,110034,2538.1581,N,08003.3121,W,1,10,1.8,11,M,,M,,*64
06/26/2015	11:00:34.510	$GPGGA,110035,2538.1584,N,08003.3144,W,1,10,1.8,11,M,,M,,*63
06/26/2015	11:00:35.651	$GPGGA,110036,2538.1587,N,08003.3168,W,1,10,1.8,11,M,,M,,*6D
06/26/2015	11:00:36.521	$GPGGA,110037,2538.1588,N,08003.3191,W,1,10,1.8,11,M,,M,,*65
06/26/2015	11:00:37.621	$GPGGA,110038,2538.1591,N,08003.3215,W,1,10,1.8,11,M,,M,,*6D
06/26/2015	11:00:38.511	$GPGGA,110039,2538.1595,N,08003.3240,W,1,10,1.8,11,M,,M,,*68
06/26/2015	11:00:39.511	$GPGGA,110040,2538.1597,N,08003.3264,W,1,10,1.8,11,M,,M,,*62
06/26/2015	11:00:40.621	$GPGGA,110041,2538.1599,N,08003.3289,W,1,10,1.8,11,M,,M,,*6E
06/26/2015	11:00:41.621	$GPGGA,110042,2538.1602,N,08003.3314,W,1,10,1.8,11,M,,M,,*69
06/26/2015	11:00:42.511	$GPGGA,110043,2538.1605,N,08003.3340,W,1,10,1.8,11,M,,M,,*6E
06/26/2015	11:00:43.621	$GPGGA,110044,2538.1608,N,08003.3363,W,1,9,1.8,11,M,,M,,*5D
06/26/2015	11:00:44.511	$GPGGA,110045,2538.1610,N,08003.3387,W,1,9,1.8,11,M,,M,,*5F
06/26/2015	11:00:45.511	$GPGGA,110046,2538.1613,N,08003.3414,W,1,10,1.8,11,M,,M,,*6A
06/26/2015	11:00:46.501	$GPGGA,110047,2538.1617,N,08003.3439,W,1,10,1.8,11,M,,M,,*60
06/26/2015	11:00:47.641	$GPGGA,110048,2538.1620,N,08003.3465,W,1,10,1.8,11,M,,M,,*62
06/26/2015	11:00:48.582	$GPGGA,110049,2538.1624,N,08003.3490,W,1,10,1.8,11,M,,M,,*6D
06/26/2015	11:00:49.621	$GPGGA,110050,2538.1628,N,08003.3515,W,1,10,1.8,11,M,,M,,*65
06/26/2015	11:00:50.580	$GPGGA,110051,2538.1631,N,08003.3541,W,1,10,1.8,11,M,,M,,*6D
06/26/2015	11:00:51.650	$GPGGA,110052,2538.1635,N,08003.3567,W,1,10,1.8,11,M,,M,,*6E
06/26/2015	11:00:52.580	$GPGGA,110053,2538.1638,N,08003.3592,W,1,10,1.8,11,M,,M,,*68
06/26/2015	11:00:53.591	$GPGGA,110054,2538.1642,N,08003.3618,W,1,10,1.8,11,M,,M,,*63
06/26/2015	11:00:54.581	$GPGGA,110055,2538.1646,N,08003.3645,W,1,10,1.8,11,M,,M,,*6E
06/26/2015	11:00:55.621	$GPGGA,110056,2538.1649,N,08003.3671,W,1,10,1.8,11,M,,M,,*65
06/26/2015	11:00:56.583	$GPGGA,110057,2538.1653,N,08003.3696,W,1,10,1.8,11,M,,M,,*66
06/26/2015	11:00:57.572	$GPGGA,110058,2538.1656,N,08003.3722,W,1,10,1.8,11,M,,M,,*62
06/26/2015	11:00:58.583	$GPGGA,110059,2538.1660,N,08003.3748,W,1,10,1.8,11,M,,M,,*6A
06/26/2015	11:00:59.601	$GPGGA,110100,2538.1664,N,08003.3775,W,1,10,1.8,11,M,,M,,*6D
06/26/2015	11:01:00.571	$GPGGA,110101,2538.1667,N,08003.3801,W,1,10,1.8,11,M,,M,,*63
06/26/2015	11:01:01.582	$GPGGA,110102,2538.1670,N,08003.3827,W,1,10,1.8,11,M,,M,,*62
06/26/2015	11:01:02.561	$GPGGA,110103,2538.1673,N,08003.3855,W,1,10,1.8,11,M,,M,,*65
06/26/2015	11:01:03.591	$GPGGA,110104,2538.1675,N,08003.3880,W,1,9,1.8,11,M,,M,,*54
06/26/2015	11:01:04.561	$GPGGA,110105,2538.1678,N,08003.3906,W,1,9,1.8,10,M,,M,,*56
06/26/2015	11:01:05.551	$GPGGA,110106,2538.1682,N,08003.3931,W,1,9,1.8,10,M,,M,,*54
06/26/2015	11:01:06.551	$GPGGA,110107,2538.1685,N,08003.3957,W,1,9,1.8,10,M,,M,,*52
06/26/2015	11:01:07.582	$GPGGA,110108,2538.1689,N,08003.3983,W,1,9,1.8,10,M,,M,,*58
06/26/2015	11:01:08.550	$GPGGA,110109,2538.1691,N,08003.4007,W,1,9,1.8,10,M,,M,,*52
06/26/2015	11:01:09.560	$GPGGA,110110,2538.1693,N,08003.4030,W,1,10,1.8,10,M,,M,,*64
06/26/2015	11:01:11.609	$GPGGA,110112,2538.1699,N,08003.4080,W,1,10,1.8,10,M,,M,,*67
06/26/2015	11:01:12.529	$GPGGA,110113,2538.1702,N,08003.4105,W,1,10,1.8,10,M,,M,,*69
06/26/2015	11:01:13.559	$GPGGA,110114,2538.1703,N,08003.4130,W,1,10,1.8,10,M,,M,,*69
06/26/2015	11:01:14.529	$GPGGA,110115,2538.1707,N,08003.4158,W,1,10,1.8,10,M,,M,,*62
06/26/2015	11:01:15.569	$GPGGA,110116,2538.1711,N,08003.4184,W,1,9,1.8,10,M,,M,,*5F
06/26/2015	11:01:16.519	$GPGGA,110117,2538.1713,N,08003.4209,W,1,9,1.8,10,M,,M,,*5A
06/26/2015	11:01:17.529	$GPGGA,110118,2538.1716,N,08003.4235,W,1,9,1.8,10,M,,M,,*5F
06/26/2015	11:01:18.509	$GPGGA,110119,2538.1718,N,08003.4259,W,1,9,1.8,10,M,,M,,*5A
06/26/2015	11:01:19.549	$GPGGA,110120,2538.1721,N,08003.4283,W,1,10,1.8,10,M,,M,,*65
06/26/2015	11:01:20.529	$GPGGA,110121,2538.1724,N,08003.4308,W,1,10,1.8,10,M,,M,,*63
06/26/2015	11:01:21.519	$GPGGA,110122,2538.1727,N,08003.4335,W,1,10,1.8,10,M,,M,,*6D
06/26/2015	11:01:22.509	$GPGGA,110123,2538.1729,N,08003.4360,W,1,10,1.8,10,M,,M,,*62
06/26/2015	11:01:23.573	$GPGGA,110124,2538.1732,N,08003.4384,W,1,10,1.8,10,M,,M,,*65
06/26/2015	11:01:24.519	$GPGGA,110125,2538.1735,N,08003.4409,W,1,10,1.8,10,M,,M,,*61
06/26/2015	11:01:25.598	$GPGGA,110126,2538.1738,N,08003.4434,W,1,10,1.8,10,M,,M,,*61
06/26/2015	11:01:26.598	$GPGGA,110127,2538.1740,N,08003.4459,W,1,10,1.8,10,M,,M,,*64
06/26/2015	11:01:27.628	$GPGGA,110128,2538.1743,N,08003.4485,W,1,10,1.8,10,M,,M,,*69
06/26/2015	11:01:28.509	$GPGGA,110129,2538.1746,N,08003.4512,W,1,10,1.8,10,M,,M,,*62
06/26/2015	11:01:29.519	$GPGGA,110130,2538.1749,N,08003.4537,W,1,10,1.8,10,M,,M,,*62
06/26/2015	11:01:30.499	$GPGGA,110131,2538.1751,N,08003.4563,W,1,10,1.8,10,M,,M,,*6B
06/26/2015	11:01:31.599	$GPGGA,110132,2538.1754,N,08003.4588,W,1,10,1.8,9,M,,M,,*50
06/26/2015	11:01:32.499	$GPGGA,110133,2538.1757,N,08003.4614,W,1,10,1.8,9,M,,M,,*54
06/26/2015	11:01:33.579	$GPGGA,110134,2538.1760,N,08003.4639,W,1,10,1.8,9,M,,M,,*58
06/26/2015	11:01:34.569	$GPGGA,110135,2538.1763,N,08003.4665,W,1,10,1.8,9,M,,M,,*53
06/26/2015	11:01:35.579	$GPGGA,110136,2538.1765,N,08003.4691,W,1,10,1.8,9,M,,M,,*5D
06/26/2015	11:01:36.572	$GPGGA,110137,2538.1768,N,08003.4715,W,1,10,1.8,9,M,,M,,*5C
06/26/2015	11:01:37.569	$GPGGA,110138,2538.1771,N,08003.4737,W,1,10,1.8,9,M,,M,,*5B
06/26/2015	11:01:38.570	$GPGGA,110139,2538.1774,N,08003.4759,W,1,10,1.8,9,M,,M,,*57
06/26/2015	11:01:39.609	$GPGGA,110140,2538.1776,N,08003.4780,W,1,10,1.8,9,M,,M,,*5F
06/26/2015	11:01:40.559	$GPGGA,110141,2538.1781,N,08003.4801,W,1,10,1.8,9,M,,M,,*50
06/26/2015	11:01:41.549	$GPGGA,110142,2538.1783,N,08003.4823,W,1,10,1.8,9,M,,M,,*51
06/26/2015	11:01:42.559	$GPGGA,110143,2538.1787,N,08003.4842,W,1,10,1.8,9,M,,M,,*53
06/26/2015	11:01:43.598	$GPGGA,110144,2538.1792,N,08003.4861,W,1,10,1.8,9,M,,M,,*51
06/26/2015	11:01:44.558	$GPGGA,110145,2538.1796,N,08003.4881,W,1,10,1.8,9,M,,M,,*5A
06/26/2015	11:01:45.578	$GPGGA,110146,2538.1800,N,08003.4900,W,1,10,1.8,9,M,,M,,*51
06/26/2015	11:01:46.560	$GPGGA,110147,2538.1804,N,08003.4921,W,1,10,1.8,9,M,,M,,*57
06/26/2015	11:01:47.579	$GPGGA,110148,2538.1808,N,08003.4942,W,1,10,1.8,9,M,,M,,*51
06/26/2015	11:01:48.549	$GPGGA,110149,2538.1814,N,08003.4964,W,1,10,1.8,9,M,,M,,*59
06/26/2015	11:01:49.560	$GPGGA,110150,2538.1819,N,08003.4986,W,1,10,1.8,9,M,,M,,*50
06/26/2015	11:01:50.549	$GPGGA,110151,2538.1823,N,08003.5007,W,1,10,1.8,9,M,,M,,*59
06/26/2015	11:01:51.572	$GPGGA,110152,2538.1828,N,08003.5030,W,1,10,1.8,9,M,,M,,*55
06/26/2015	11:01:52.549	$GPGGA,110153,2538.1833,N,08003.5052,W,1,10,1.8,9,M,,M,,*5A
06/26/2015	11:01:53.529	$GPGGA,110154,2538.1837,N,08003.5073,W,1,10,1.8,9,M,,M,,*5A
06/26/2015	11:01:54.539	$GPGGA,110155,2538.1840,N,08003.5094,W,1,10,1.8,9,M,,M,,*52
06/26/2015	11:01:55.539	$GPGGA,110156,2538.1844,N,08003.5116,W,1,10,1.8,9,M,,M,,*5E
06/26/2015	11:01:56.539	$GPGGA,110157,2538.1848,N,08003.5135,W,1,10,1.8,9,M,,M,,*52
06/26/2015	11:01:57.539	$GPGGA,110158,2538.1852,N,08003.5155,W,1,10,1.8,9,M,,M,,*50
06/26/2015	11:01:58.539	$GPGGA,110159,2538.1855,N,08003.5173,W,1,10,1.8,9,M,,M,,*52
06/26/2015	11:01:59.559	$GPGGA,110200,2538.1859,N,08003.5192,W,1,10,1.8,9,M,,M,,*5E
06/26/2015	11:02:00.518	$GPGGA,110201,2538.1862,N,08003.5211,W,1,10,1.8,9,M,,M,,*5F
06/26/2015	11:02:01.518	$GPGGA,110202,2538.1866,N,08003.5231,W,1,10,1.8,9,M,,M,,*5A
06/26/2015	11:02:03.559	$GPGGA,110204,2538.1875,N,08003.5267,W,1,10,1.8,9,M,,M,,*5D
06/26/2015	11:02:04.509	$GPGGA,110205,2538.1880,N,08003.5286,W,1,10,1.8,9,M,,M,,*59
06/26/2015	11:02:05.519	$GPGGA,110206,2538.1884,N,08003.5304,W,1,10,1.8,9,M,,M,,*55
06/26/2015	11:02:06.529	$GPGGA,110207,2538.1888,N,08003.5323,W,1,10,1.8,9,M,,M,,*5D
06/26/2015	11:02:07.529	$GPGGA,110208,2538.1893,N,08003.5341,W,1,10,1.8,9,M,,M,,*5C
06/26/2015	11:02:08.509	$GPGGA,110209,2538.1897,N,08003.5361,W,1,10,1.8,9,M,,M,,*5B
06/26/2015	11:02:09.639	$GPGGA,110210,2538.1902,N,08003.5379,W,1,10,1.8,9,M,,M,,*57
06/26/2015	11:02:10.519	$GPGGA,110211,2538.1906,N,08003.5397,W,1,10,1.8,9,M,,M,,*52
06/26/2015	11:02:11.639	$GPGGA,110212,2538.1911,N,08003.5415,W,1,10,1.8,9,M,,M,,*5A
06/26/2015	11:02:12.509	$GPGGA,110213,2538.1915,N,08003.5434,W,1,10,1.8,9,M,,M,,*5C
06/26/2015	11:02:13.499	$GPGGA,110214,2538.1920,N,08003.5452,W,1,10,1.8,9,M,,M,,*5D
06/26/2015	11:02:14.489	$GPGGA,110215,2538.1924,N,08003.5471,W,1,10,1.8,9,M,,M,,*59
06/26/2015	11:02:15.519	$GPGGA,110216,2538.1928,N,08003.5491,W,1,10,1.8,9,M,,M,,*58
06/26/2015	11:02:16.489	$GPGGA,110217,2538.1934,N,08003.5509,W,1,10,1.8,9,M,,M,,*54
06/26/2015	11:02:17.588	$GPGGA,110218,2538.1938,N,08003.5527,W,1,10,1.8,9,M,,M,,*5B
06/26/2015	11:02:18.498	$GPGGA,110219,2538.1944,N,08003.5546,W,1,10,1.8,9,M,,M,,*56
06/26/2015	11:02:19.598	$GPGGA,110220,2538.1949,N,08003.5564,W,1,10,1.8,9,M,,M,,*51
06/26/2015	11:02:20.488	$GPGGA,110221,2538.1953,N,08003.5582,W,1,10,1.8,9,M,,M,,*53
06/26/2015	11:02:21.589	$GPGGA,110222,2538.1959,N,08003.5598,W,1,10,1.8,9,M,,M,,*51
06/26/2015	11:02:22.578	$GPGGA,110223,2538.1964,N,08003.5615,W,1,10,1.8,9,M,,M,,*58
06/26/2015	11:02:23.609	$GPGGA,110224,2538.1970,N,08003.5632,W,1,10,1.8,9,M,,M,,*5F
06/26/2015	11:02:24.582	$GPGGA,110225,2538.1975,N,08003.5647,W,1,10,1.8,9,M,,M,,*59
06/26/2015	11:02:25.589	$GPGGA,110226,2538.1982,N,08003.5662,W,1,10,1.8,9,M,,M,,*55
06/26/2015	11:02:26.577	$GPGGA,110227,2538.1988,N,08003.5677,W,1,10,1.8,9,M,,M,,*5A
06/26/2015	11:02:27.581	$GPGGA,110228,2538.1995,N,08003.5691,W,1,10,1.8,9,M,,M,,*51
06/26/2015	11:02:28.577	$GPGGA,110229,2538.2000,N,08003.5705,W,1,10,1.8,9,M,,M,,*5A
06/26/2015	11:02:29.580	$GPGGA,110230,2538.2007,N,08003.5719,W,1,10,1.8,9,M,,M,,*58
06/26/2015	11:02:30.564	$GPGGA,110231,2538.2014,N,08003.5733,W,1,10,1.8,9,M,,M,,*53
06/26/2015	11:02:31.599	$GPGGA,110232,2538.2020,N,08003.5745,W,1,10,1.8,9,M,,M,,*56
06/26/2015	11:02:32.570	$GPGGA,110233,2538.2025,N,08003.5758,W,1,10,2.0,9,M,,M,,*55
06/26/2015	11:02:33.579	$GPGGA,110234,2538.2032,N,08003.5770,W,1,10,1.8,10,M,,M,,*6D
06/26/2015	11:02:34.559	$GPGGA,110235,2538.2039,N,08003.5781,W,1,10,1.8,10,M,,M,,*69
06/26/2015	11:02:35.598	$GPGGA,110236,2538.2045,N,08003.5793,W,1,10,1.8,10,M,,M,,*62
06/26/2015	11:02:36.574	$GPGGA,110237,2538.2053,N,08003.5806,W,1,10,1.8,10,M,,M,,*67
06/26/2015	11:02:37.548	$GPGGA,110238,2538.2060,N,08003.5816,W,1,10,1.8,10,M,,M,,*69
06/26/2015	11:02:38.539	$GPGGA,110239,2538.2067,N,08003.5827,W,1,10,1.8,10,M,,M,,*6D
06/26/2015	11:02:39.550	$GPGGA,110240,2538.2074,N,08003.5838,W,1,10,1.8,10,M,,M,,*6F
06/26/2015	11:02:40.539	$GPGGA,110241,2538.2082,N,08003.5849,W,1,10,1.8,10,M,,M,,*61
06/26/2015	11:02:41.560	$GPGGA,110242,2538.2089,N,08003.5860,W,1,10,1.8,10,M,,M,,*62
06/26/2015	11:02:42.549	$GPGGA,110243,2538.2097,N,08003.5871,W,1,10,1.8,10,M,,M,,*6C
06/26/2015	11:02:43.579	$GPGGA,110244,2538.2104,N,08003.5882,W,1,10,1.8,10,M,,M,,*6C
06/26/2015	11:02:44.549	$GPGGA,110245,2538.2112,N,08003.5892,W,1,10,1.8,10,M,,M,,*6B
06/26/2015	11:02:45.539	$GPGGA,110246,2538.2119,N,08003.5900,W,1,10,1.8,10,M,,M,,*69
06/26/2015	11:02:46.539	$GPGGA,110247,2538.2128,N,08003.5910,W,1,10,1.8,11,M,,M,,*6A
06/26/2015	11:02:47.539	$GPGGA,110248,2538.2136,N,08003.5919,W,1,10,1.8,11,M,,M,,*63
06/26/2015	11:02:48.539	$GPGGA,110249,2538.2144,N,08003.5929,W,1,10,1.8,11,M,,M,,*64
06/26/2015	11:02:49.529	$GPGGA,110250,2538.2151,N,08003.5939,W,1,10,1.8,11,M,,M,,*69
06/26/2015	11:02:50.529	$GPGGA,110251,2538.2159,N,08003.5948,W,1,10,1.8,11,M,,M,,*66
06/26/2015	11:02:51.561	$GPGGA,110252,2538.2166,N,08003.5957,W,1,10,1.8,11,M,,M,,*67
06/26/2015	11:02:52.528	$GPGGA,110253,2538.2175,N,08003.5966,W,1,10,1.8,11,M,,M,,*66
06/26/2015	11:02:53.518	$GPGGA,110254,2538.2183,N,08003.5975,W,1,10,1.8,11,M,,M,,*6A
06/26/2015	11:02:54.518	$GPGGA,110255,2538.2191,N,08003.5984,W,1,10,1.8,11,M,,M,,*66
06/26/2015	11:02:55.518	$GPGGA,110256,2538.2198,N,08003.5991,W,1,10,1.8,11,M,,M,,*68
06/26/2015	11:02:56.509	$GPGGA,110257,2538.2206,N,08003.6001,W,1,10,1.8,11,M,,M,,*6E
06/26/2015	11:02:57.519	$GPGGA,110258,2538.2215,N,08003.6009,W,1,10,1.8,11,M,,M,,*6B
06/26/2015	11:02:58.499	$GPGGA,110259,2538.2223,N,08003.6017,W,1,10,1.8,11,M,,M,,*60
06/26/2015	11:02:59.539	$GPGGA,110300,2538.2231,N,08003.6026,W,1,10,1.8,11,M,,M,,*6C
06/26/2015	11:03:00.499	$GPGGA,110301,2538.2238,N,08003.6033,W,1,10,1.8,11,M,,M,,*60
06/26/2015	11:03:01.499	$GPGGA,110302,2538.2247,N,08003.6041,W,1,10,1.8,11,M,,M,,*6E
06/26/2015	11:03:02.619	$GPGGA,110303,2538.2255,N,08003.6048,W,1,10,1.8,11,M,,M,,*65
06/26/2015	11:03:03.510	$GPGGA,110304,2538.2263,N,08003.6056,W,1,10,1.8,11,M,,M,,*68
06/26/2015	11:03:04.589	$GPGGA,110305,2538.2271,N,08003.6064,W,1,10,1.8,11,M,,M,,*6B
06/26/2015	11:03:05.609	$GPGGA,110306,2538.2278,N,08003.6071,W,1,10,1.8,11,M,,M,,*65
06/26/2015	11:03:06.499	$GPGGA,110307,2538.2287,N,08003.6080,W,1,10,1.8,11,M,,M,,*6A
06/26/2015	11:03:07.599	$GPGGA,110308,2538.2295,N,08003.6087,W,1,10,1.8,12,M,,M,,*62
06/26/2015	11:03:08.589	$GPGGA,110309,2538.2303,N,08003.6092,W,1,10,1.8,12,M,,M,,*69
06/26/2015	11:03:09.619	$GPGGA,110310,2538.2310,N,08003.6099,W,1,10,1.8,12,M,,M,,*68
06/26/2015	11:03:10.588	$GPGGA,110311,2538.2320,N,08003.6106,W,1,10,1.8,12,M,,M,,*6D
06/26/2015	11:03:11.598	$GPGGA,110312,2538.2328,N,08003.6113,W,1,10,1.8,12,M,,M,,*62
06/26/2015	11:03:12.578	$GPGGA,110313,2538.2336,N,08003.6120,W,1,10,1.8,12,M,,M,,*6C
06/26/2015	11:03:13.579	$GPGGA,110314,2538.2343,N,08003.6125,W,1,10,1.8,12,M,,M,,*6C
06/26/2015	11:03:14.579	$GPGGA,110315,2538.2352,N,08003.6132,W,1,10,1.8,12,M,,M,,*6B
06/26/2015	11:03:15.589	$GPGGA,110316,2538.2360,N,08003.6139,W,1,10,1.8,12,M,,M,,*62
06/26/2015	11:03:16.579	$GPGGA,110317,2538.2368,N,08003.6145,W,1,10,1.8,12,M,,M,,*60
06/26/2015	11:03:17.589	$GPGGA,110318,2538.2375,N,08003.6152,W,1,10,1.8,12,M,,M,,*65
06/26/2015	11:03:18.579	$GPGGA,110319,2538.2385,N,08003.6158,W,1,10,1.8,12,M,,M,,*61
06/26/2015	11:03:19.589	$GPGGA,110320,2538.2393,N,08003.6165,W,1,10,1.8,12,M,,M,,*62
06/26/2015	11:03:20.569	$GPGGA,110321,2538.2401,N,08003.6171,W,1,10,1.8,12,M,,M,,*6A
06/26/2015	11:03:21.579	$GPGGA,110322,2538.2408,N,08003.6178,W,1,10,1.8,12,M,,M,,*69
06/26/2015	11:03:22.560	$GPGGA,110323,2538.2417,N,08003.6183,W,1,10,1.8,12,M,,M,,*62
06/26/2015	11:03:23.589	$GPGGA,110324,2538.2425,N,08003.6189,W,1,10,1.8,12,M,,M,,*6E
06/26/2015	11:03:24.571	$GPGGA,110325,2538.2433,N,08003.6196,W,1,10,1.8,12,M,,M,,*66
06/26/2015	11:03:25.539	$GPGGA,110326,2538.2441,N,08003.6200,W,1,10,1.8,12,M,,M,,*6C
06/26/2015	11:03:26.563	$GPGGA,110327,2538.2450,N,08003.6207,W,1,10,1.8,12,M,,M,,*6A
06/26/2015	11:03:27.588	$GPGGA,110328,2538.2458,N,08003.6212,W,1,10,1.8,12,M,,M,,*69
06/26/2015	11:03:28.558	$GPGGA,110329,2538.2466,N,08003.6218,W,1,10,1.8,12,M,,M,,*6F
06/26/2015	11:03:29.538	$GPGGA,110330,2538.2473,N,08003.6223,W,1,10,1.8,12,M,,M,,*6B
06/26/2015	11:03:30.549	$GPGGA,110331,2538.2482,N,08003.6229,W,1,10,1.8,12,M,,M,,*6E
06/26/2015	11:03:31.569	$GPGGA,110332,2538.2490,N,08003.6235,W,1,9,1.9,12,M,,M,,*5A
06/26/2015	11:03:32.549	$GPGGA,110333,2538.2498,N,08003.6240,W,1,9,1.8,12,M,,M,,*50
06/26/2015	11:03:33.529	$GPGGA,110334,2538.2505,N,08003.6246,W,1,10,1.8,12,M,,M,,*6C
06/26/2015	11:03:34.539	$GPGGA,110335,2538.2513,N,08003.6250,W,1,10,1.8,12,M,,M,,*6D
06/26/2015	11:03:35.539	$GPGGA,110336,2538.2522,N,08003.6255,W,1,10,1.8,12,M,,M,,*69
06/26/2015	11:03:36.529	$GPGGA,110337,2538.2530,N,08003.6261,W,1,10,1.8,12,M,,M,,*6C
06/26/2015	11:03:37.539	$GPGGA,110338,2538.2538,N,08003.6266,W,1,10,1.8,12,M,,M,,*6C
06/26/2015	11:03:38.539	$GPGGA,110339,2538.2547,N,08003.6272,W,1,10,1.8,12,M,,M,,*60
06/26/2015	11:03:39.529	$GPGGA,110340,2538.2555,N,08003.6276,W,1,10,1.8,11,M,,M,,*6A
06/26/2015	11:03:40.529	$GPGGA,110341,2538.2563,N,08003.6283,W,1,10,1.9,11,M,,M,,*65
06/26/2015	11:03:41.549	$GPGGA,110342,2538.2571,N,08003.6287,W,1,10,1.8,11,M,,M,,*60
06/26/2015	11:03:42.529	$GPGGA,110343,2538.2580,N,08003.6293,W,1,10,1.8,11,M,,M,,*6A
06/26/2015	11:03:43.539	$GPGGA,110344,2538.2589,N,08003.6297,W,1,10,1.8,11,M,,M,,*60
06/26/2015	11:03:44.509	$GPGGA,110345,2538.2596,N,08003.6302,W,1,10,1.8,11,M,,M,,*62
06/26/2015	11:03:46.538	$GPGGA,110347,2538.2614,N,08003.6311,W,1,10,1.8,11,M,,M,,*6B
06/26/2015	11:03:47.559	$GPGGA,110348,2538.2621,N,08003.6318,W,1,10,1.8,11,M,,M,,*6B
06/26/2015	11:03:48.519	$GPGGA,110349,2538.2631,N,08003.6322,W,1,10,1.8,11,M,,M,,*62
06/26/2015	11:03:49.664	$GPGGA,110350,2538.2638,N,08003.6326,W,1,10,1.8,11,M,,M,,*67
06/26/2015	11:03:50.519	$GPGGA,110351,2538.2646,N,08003.6331,W,1,10,1.8,11,M,,M,,*69
06/26/2015	11:03:51.529	$GPGGA,110352,2538.2654,N,08003.6335,W,1,10,1.8,11,M,,M,,*6D
06/26/2015	11:03:52.489	$GPGGA,110353,2538.2663,N,08003.6340,W,1,10,1.8,11,M,,M,,*6A
06/26/2015	11:03:53.619	$GPGGA,110354,2538.2671,N,08003.6344,W,1,10,1.8,11,M,,M,,*6A
06/26/2015	11:03:54.509	$GPGGA,110355,2538.2679,N,08003.6349,W,1,10,1.8,11,M,,M,,*6E
06/26/2015	11:03:55.689	$GPGGA,110356,2538.2688,N,08003.6355,W,1,10,1.8,11,M,,M,,*6E
06/26/2015	11:03:56.509	$GPGGA,110357,2538.2696,N,08003.6358,W,1,10,1.8,11,M,,M,,*6D
06/26/2015	11:03:57.661	$GPGGA,110358,2538.2704,N,08003.6362,W,1,10,1.8,11,M,,M,,*61
06/26/2015	11:03:58.639	$GPGGA,110359,2538.2712,N,08003.6366,W,1,10,1.8,11,M,,M,,*63
06/26/2015	11:03:59.689	$GPGGA,110400,2538.2721,N,08003.6371,W,1,10,1.8,11,M,,M,,*6E
06/26/2015	11:04:00.579	$GPGGA,110401,2538.2729,N,08003.6376,W,1,10,1.8,11,M,,M,,*60
06/26/2015	11:04:01.609	$GPGGA,110402,2538.2737,N,08003.6380,W,1,10,1.8,11,M,,M,,*65
06/26/2015	11:04:02.648	$GPGGA,110403,2538.2744,N,08003.6384,W,1,10,1.8,11,M,,M,,*64
06/26/2015	11:04:03.674	$GPGGA,110404,2538.2753,N,08003.6388,W,1,10,1.8,11,M,,M,,*69
06/26/2015	11:04:04.570	$GPGGA,110405,2538.2761,N,08003.6392,W,1,10,1.8,11,M,,M,,*62
06/26/2015	11:04:05.620	$GPGGA,110406,2538.2769,N,08003.6396,W,1,10,1.8,11,M,,M,,*6D
06/26/2015	11:04:06.570	$GPGGA,110407,2538.2776,N,08003.6400,W,1,10,1.8,11,M,,M,,*6A
06/26/2015	11:04:07.619	$GPGGA,110408,2538.2784,N,08003.6405,W,1,10,1.8,11,M,,M,,*6D
06/26/2015	11:04:08.619	$GPGGA,110409,2538.2793,N,08003.6409,W,1,10,1.8,11,M,,M,,*66
06/26/2015	11:04:09.609	$GPGGA,110410,2538.2801,N,08003.6413,W,1,10,1.8,11,M,,M,,*61
06/26/2015	11:04:10.639	$GPGGA,110411,2538.2809,N,08003.6416,W,1,10,1.8,11,M,,M,,*6D
06/26/2015	11:04:11.560	$GPGGA,110412,2538.2816,N,08003.6420,W,1,10,1.8,11,M,,M,,*65
06/26/2015	11:04:12.619	$GPGGA,110413,2538.2824,N,08003.6424,W,1,10,1.8,11,M,,M,,*61
06/26/2015	11:04:13.549	$GPGGA,110414,2538.2833,N,08003.6428,W,1,10,1.8,11,M,,M,,*6C
06/26/2015	11:04:14.609	$GPGGA,110415,2538.2841,N,08003.6434,W,1,10,1.8,11,M,,M,,*65
06/26/2015	11:04:15.609	$GPGGA,110416,2538.2849,N,08003.6436,W,1,10,1.8,11,M,,M,,*6C
06/26/2015	11:04:16.609	$GPGGA,110417,2538.2856,N,08003.6441,W,1,10,1.8,11,M,,M,,*63
06/26/2015	11:04:17.539	$GPGGA,110418,2538.2865,N,08003.6445,W,1,10,1.8,11,M,,M,,*68
06/26/2015	11:04:18.539	$GPGGA,110419,2538.2873,N,08003.6449,W,1,10,1.8,11,M,,M,,*62
06/26/2015	11:04:19.589	$GPGGA,110420,2538.2881,N,08003.6452,W,1,10,1.8,11,M,,M,,*6F
06/26/2015	11:04:20.608	$GPGGA,110421,2538.2888,N,08003.6456,W,1,10,1.8,11,M,,M,,*63
06/26/2015	11:04:21.528	$GPGGA,110422,2538.2896,N,08003.6460,W,1,10,1.8,11,M,,M,,*6A
06/26/2015	11:04:22.598	$GPGGA,110423,2538.2905,N,08003.6464,W,1,10,1.8,11,M,,M,,*64
06/26/2015	11:04:23.589	$GPGGA,110424,2538.2914,N,08003.6468,W,1,10,1.8,11,M,,M,,*6F
06/26/2015	11:04:24.599	$GPGGA,110425,2538.2921,N,08003.6472,W,1,10,1.8,11,M,,M,,*63
06/26/2015	11:04:25.519	$GPGGA,110426,2538.2928,N,08003.6477,W,1,10,1.8,11,M,,M,,*6C
06/26/2015	11:04:26.599	$GPGGA,110427,2538.2938,N,08003.6481,W,1,10,1.8,11,M,,M,,*65
06/26/2015	11:04:27.589	$GPGGA,110428,2538.2946,N,08003.6483,W,1,10,1.8,11,M,,M,,*61
06/26/2015	11:04:32.091	$GPGGA,110432,2538.2978,N,08003.6499,W,1,10,1.8,11,M,,M,,*6C
06/26/2015	11:04:32.589	$GPGGA,110433,2538.2986,N,08003.6503,W,1,10,1.8,11,M,,M,,*6E
06/26/2015	11:04:33.509	$GPGGA,110434,2538.2993,N,08003.6506,W,1,10,1.8,11,M,,M,,*68
06/26/2015	11:04:34.629	$GPGGA,110435,2538.3001,N,08003.6510,W,1,10,1.8,11,M,,M,,*6D
06/26/2015	11:04:35.639	$GPGGA,110436,2538.3010,N,08003.6512,W,1,10,1.8,11,M,,M,,*6C
06/26/2015	11:04:36.569	$GPGGA,110437,2538.3018,N,08003.6517,W,1,10,1.8,11,M,,M,,*60
06/26/2015	11:04:37.618	$GPGGA,110438,2538.3026,N,08003.6519,W,1,10,1.8,11,M,,M,,*6C
06/26/2015	11:04:38.558	$GPGGA,110439,2538.3033,N,08003.6522,W,1,10,1.8,11,M,,M,,*61
06/26/2015	11:04:39.508	$GPGGA,110440,2538.3042,N,08003.6526,W,1,10,1.8,11,M,,M,,*6D
06/26/2015	11:04:40.561	$GPGGA,110441,2538.3050,N,08003.6529,W,1,10,1.8,11,M,,M,,*60
06/26/2015	11:04:41.599	$GPGGA,110442,2538.3058,N,08003.6533,W,1,10,1.8,11,M,,M,,*60
06/26/2015	11:04:42.599	$GPGGA,110443,2538.3065,N,08003.6536,W,1,10,1.8,11,M,,M,,*6A
06/26/2015	11:04:43.609	$GPGGA,110444,2538.3073,N,08003.6539,W,1,10,1.8,11,M,,M,,*65
06/26/2015	11:04:44.561	$GPGGA,110445,2538.3082,N,08003.6543,W,1,10,1.8,11,M,,M,,*67
06/26/2015	11:04:45.563	$GPGGA,110446,2538.3090,N,08003.6546,W,1,10,1.8,11,M,,M,,*62
06/26/2015	11:04:46.599	$GPGGA,110447,2538.3098,N,08003.6550,W,1,10,1.8,11,M,,M,,*6C
06/26/2015	11:04:47.599	$GPGGA,110448,2538.3105,N,08003.6553,W,1,10,1.8,11,M,,M,,*65
06/26/2015	11:04:48.589	$GPGGA,110449,2538.3113,N,08003.6555,W,1,10,1.8,11,M,,M,,*65
06/26/2015	11:04:49.599	$GPGGA,110450,2538.3123,N,08003.6559,W,1,10,1.8,11,M,,M,,*62
06/26/2015	11:04:50.579	$GPGGA,110451,2538.3130,N,08003.6562,W,1,10,1.8,11,M,,M,,*69
06/26/2015	11:04:51.579	$GPGGA,110452,2538.3138,N,08003.6565,W,1,10,1.8,11,M,,M,,*65
06/26/2015	11:04:52.577	$GPGGA,110453,2538.3147,N,08003.6568,W,1,10,1.8,11,M,,M,,*61
06/26/2015	11:04:53.589	$GPGGA,110454,2538.3155,N,08003.6572,W,1,10,1.8,11,M,,M,,*6E
06/26/2015	11:04:54.563	$GPGGA,110455,2538.3163,N,08003.6575,W,1,10,1.8,11,M,,M,,*6D
06/26/2015	11:04:55.598	$GPGGA,110456,2538.3170,N,08003.6579,W,1,10,1.8,11,M,,M,,*60
06/26/2015	11:04:56.578	$GPGGA,110457,2538.3178,N,08003.6582,W,1,10,1.8,11,M,,M,,*6D
06/26/2015	11:04:57.573	$GPGGA,110458,2538.3187,N,08003.6584,W,1,10,1.8,11,M,,M,,*64
06/26/2015	11:04:58.589	$GPGGA,110459,2538.3195,N,08003.6587,W,1,10,1.8,11,M,,M,,*65
06/26/2015	11:04:59.609	$GPGGA,110500,2538.3203,N,08003.6590,W,1,10,1.8,11,M,,M,,*62
06/26/2015	11:05:00.599	$GPGGA,110501,2538.3210,N,08003.6593,W,1,10,1.8,11,M,,M,,*62
06/26/2015	11:05:01.579	$GPGGA,110502,2538.3220,N,08003.6597,W,1,10,1.8,11,M,,M,,*66
06/26/2015	11:05:02.575	$GPGGA,110503,2538.3227,N,08003.6600,W,1,10,1.8,11,M,,M,,*6D
06/26/2015	11:05:03.599	$GPGGA,110504,2538.3235,N,08003.6601,W,1,10,1.8,11,M,,M,,*68
06/26/2015	11:05:04.560	$GPGGA,110505,2538.3243,N,08003.6604,W,1,10,1.8,11,M,,M,,*6D
06/26/2015	11:05:05.589	$GPGGA,110506,2538.3252,N,08003.6608,W,1,10,1.8,11,M,,M,,*62
06/26/2015	11:05:06.576	$GPGGA,110507,2538.3259,N,08003.6611,W,1,10,1.8,11,M,,M,,*60
06/26/2015	11:05:07.579	$GPGGA,110508,2538.3268,N,08003.6613,W,1,10,1.8,11,M,,M,,*6F
06/26/2015	11:05:08.589	$GPGGA,110509,2538.3275,N,08003.6616,W,1,10,1.8,11,M,,M,,*67
06/26/2015	11:05:09.609	$GPGGA,110510,2538.3282,N,08003.6619,W,1,10,1.8,11,M,,M,,*68
06/26/2015	11:05:10.580	$GPGGA,110511,2538.3282,N,08003.6619,W,1,10,1.8,11,M,,M,,*69
06/26/2015	11:05:11.576	$GPGGA,110512,2538.3300,N,08003.6626,W,1,10,1.8,11,M,,M,,*6D
06/26/2015	11:05:12.528	$GPGGA,110513,2538.3300,N,08003.6626,W,1,10,1.8,11,M,,M,,*6C
06/26/2015	11:05:13.538	$GPGGA,110514,2538.3315,N,08003.6630,W,1,10,1.8,11,M,,M,,*68
06/26/2015	11:05:14.560	$GPGGA,110515,2538.3315,N,08003.6630,W,1,10,1.8,11,M,,M,,*69
06/26/2015	11:05:15.540	$GPGGA,110516,2538.3331,N,08003.6637,W,1,10,1.8,11,M,,M,,*6B
06/26/2015	11:05:16.574	$GPGGA,110517,2538.3339,N,08003.6638,W,1,10,1.8,11,M,,M,,*6D
06/26/2015	11:05:17.539	$GPGGA,110518,2538.3347,N,08003.6641,W,1,10,1.8,11,M,,M,,*65
06/26/2015	11:05:18.519	$GPGGA,110519,2538.3347,N,08003.6641,W,1,10,1.8,11,M,,M,,*64
06/26/2015	11:05:19.539	$GPGGA,110520,2538.3362,N,08003.6647,W,1,10,1.8,11,M,,M,,*6F
06/26/2015	11:05:20.519	$GPGGA,110521,2538.3362,N,08003.6647,W,1,10,1.8,11,M,,M,,*6E
06/26/2015	11:05:21.519	$GPGGA,110522,2538.3379,N,08003.6652,W,1,10,1.8,11,M,,M,,*63
06/26/2015	11:05:22.549	$GPGGA,110523,2538.3379,N,08003.6652,W,1,10,1.8,11,M,,M,,*62
06/26/2015	11:05:23.549	$GPGGA,110524,2538.3394,N,08003.6658,W,1,10,1.8,11,M,,M,,*6C
06/26/2015	11:05:24.519	$GPGGA,110525,2538.3394,N,08003.6658,W,1,10,1.8,11,M,,M,,*6D
06/26/2015	11:05:25.519	$GPGGA,110526,2538.3411,N,08003.6662,W,1,10,1.8,11,M,,M,,*6D
06/26/2015	11:05:26.619	$GPGGA,110527,2538.3419,N,08003.6665,W,1,10,2.0,11,M,,M,,*68
06/26/2015	11:05:27.609	$GPGGA,110528,2538.3427,N,08003.6667,W,1,10,1.8,11,M,,M,,*63
06/26/2015	11:05:28.519	$GPGGA,110529,2538.3434,N,08003.6669,W,1,10,1.8,11,M,,M,,*6E
06/26/2015	11:05:29.608	$GPGGA,110530,2538.3441,N,08003.6671,W,1,10,1.8,11,M,,M,,*6D
06/26/2015	11:05:30.508	$GPGGA,110531,2538.3441,N,08003.6671,W,1,10,1.8,12,M,,M,,*6F
06/26/2015	11:05:31.618	$GPGGA,110532,2538.3458,N,08003.6676,W,1,9,2.0,12,M,,M,,*50
06/26/2015	11:05:32.598	$GPGGA,110533,2538.3466,N,08003.6680,W,1,9,1.8,12,M,,M,,*5E
06/26/2015	11:05:33.489	$GPGGA,110534,2538.3473,N,08003.6681,W,1,10,1.8,12,M,,M,,*64
06/26/2015	11:05:34.599	$GPGGA,110535,2538.3481,N,08003.6684,W,1,10,1.7,12,M,,M,,*62
06/26/2015	11:05:35.610	$GPGGA,110536,2538.3488,N,08003.6687,W,1,9,2.0,12,M,,M,,*57
06/26/2015	11:05:36.576	$GPGGA,110537,2538.3495,N,08003.6688,W,1,9,1.7,12,M,,M,,*51
06/26/2015	11:05:37.489	$GPGGA,110538,2538.3495,N,08003.6688,W,1,10,1.7,12,M,,M,,*66
06/26/2015	11:05:38.578	$GPGGA,110539,2538.3512,N,08003.6692,W,1,10,2.1,12,M,,M,,*67
06/26/2015	11:05:39.609	$GPGGA,110540,2538.3520,N,08003.6694,W,1,10,1.7,12,M,,M,,*6B
06/26/2015	11:05:40.579	$GPGGA,110541,2538.3527,N,08003.6696,W,1,10,1.8,12,M,,M,,*60
06/26/2015	11:05:41.589	$GPGGA,110542,2538.3535,N,08003.6699,W,1,10,1.8,12,M,,M,,*6F
06/26/2015	11:05:42.570	$GPGGA,110543,2538.3542,N,08003.6702,W,1,10,1.8,13,M,,M,,*6C
06/26/2015	11:05:43.579	$GPGGA,110544,2538.3549,N,08003.6703,W,1,9,1.8,13,M,,M,,*59
06/26/2015	11:05:44.579	$GPGGA,110545,2538.3557,N,08003.6706,W,1,9,1.8,13,M,,M,,*52
06/26/2015	11:05:45.579	$GPGGA,110546,2538.3566,N,08003.6709,W,1,10,1.8,13,M,,M,,*64
06/26/2015	11:05:46.569	$GPGGA,110547,2538.3573,N,08003.6710,W,1,10,1.8,13,M,,M,,*69
06/26/2015	11:05:47.598	$GPGGA,110548,2538.3581,N,08003.6712,W,1,9,1.8,13,M,,M,,*51
06/26/2015	11:05:50.839	$GPGGA,110551,2538.3604,N,08003.6720,W,1,9,1.8,14,M,,M,,*51
06/26/2015	11:05:51.589	$GPGGA,110552,2538.3611,N,08003.6723,W,1,9,1.8,14,M,,M,,*55
06/26/2015	11:05:52.562	$GPGGA,110553,2538.3620,N,08003.6725,W,1,9,1.8,14,M,,M,,*50
06/26/2015	11:05:53.539	$GPGGA,110554,2538.3628,N,08003.6728,W,1,9,1.8,14,M,,M,,*52
06/26/2015	11:05:54.549	$GPGGA,110555,2538.3636,N,08003.6730,W,1,9,1.7,14,M,,M,,*5A
06/26/2015	11:05:55.570	$GPGGA,110556,2538.3643,N,08003.6734,W,1,9,1.8,14,M,,M,,*50
06/26/2015	11:05:56.539	$GPGGA,110557,2538.3654,N,08003.6734,W,1,9,1.8,14,M,,M,,*57
06/26/2015	11:05:57.560	$GPGGA,110558,2538.3661,N,08003.6738,W,1,10,1.7,14,M,,M,,*65
06/26/2015	11:05:58.539	$GPGGA,110559,2538.3669,N,08003.6739,W,1,10,1.8,14,M,,M,,*62
06/26/2015	11:05:59.619	$GPGGA,110600,2538.3676,N,08003.6742,W,1,9,1.8,14,M,,M,,*57
06/26/2015	11:06:00.529	$GPGGA,110601,2538.3685,N,08003.6745,W,1,9,1.8,14,M,,M,,*5D
06/26/2015	11:06:01.560	$GPGGA,110602,2538.3693,N,08003.6746,W,1,9,1.8,14,M,,M,,*5A
06/26/2015	11:06:02.539	$GPGGA,110603,2538.3701,N,08003.6749,W,1,9,1.7,15,M,,M,,*50
06/26/2015	11:06:03.569	$GPGGA,110604,2538.3708,N,08003.6752,W,1,9,1.8,15,M,,M,,*5B
06/26/2015	11:06:04.519	$GPGGA,110605,2538.3716,N,08003.6754,W,1,9,1.8,15,M,,M,,*53
06/26/2015	11:06:05.538	$GPGGA,110606,2538.3725,N,08003.6757,W,1,10,1.7,15,M,,M,,*64
06/26/2015	11:06:06.518	$GPGGA,110607,2538.3733,N,08003.6759,W,1,10,1.7,15,M,,M,,*6C
06/26/2015	11:06:07.648	$GPGGA,110608,2538.3741,N,08003.6761,W,1,10,1.7,15,M,,M,,*6D
06/26/2015	11:06:08.519	$GPGGA,110609,2538.3750,N,08003.6764,W,1,10,1.7,15,M,,M,,*69
06/26/2015	11:06:09.519	$GPGGA,110610,2538.3756,N,08003.6767,W,1,10,1.7,15,M,,M,,*64
06/26/2015	11:06:10.519	$GPGGA,110611,2538.3765,N,08003.6770,W,1,10,1.8,15,M,,M,,*6C
06/26/2015	11:06:11.519	$GPGGA,110612,2538.3773,N,08003.6771,W,1,10,1.7,15,M,,M,,*66
06/26/2015	11:06:12.529	$GPGGA,110613,2538.3781,N,08003.6774,W,1,10,1.7,15,M,,M,,*6F
06/26/2015	11:06:13.519	$GPGGA,110614,2538.3788,N,08003.6777,W,1,10,1.7,15,M,,M,,*62
06/26/2015	11:06:14.619	$GPGGA,110615,2538.3797,N,08003.6778,W,1,10,1.8,15,M,,M,,*6D
06/26/2015	11:06:15.610	$GPGGA,110616,2538.3803,N,08003.6781,W,1,9,1.8,15,M,,M,,*52
06/26/2015	11:06:16.509	$GPGGA,110617,2538.3810,N,08003.6783,W,1,9,1.7,15,M,,M,,*5C
06/26/2015	11:06:17.599	$GPGGA,110618,2538.3817,N,08003.6786,W,1,10,1.7,15,M,,M,,*69
06/26/2015	11:06:18.599	$GPGGA,110619,2538.3826,N,08003.6788,W,1,10,1.7,15,M,,M,,*64
06/26/2015	11:06:19.899	$GPGGA,110620,2538.3833,N,08003.6790,W,1,10,1.7,15,M,,M,,*63
06/26/2015	11:06:20.599	$GPGGA,110621,2538.3841,N,08003.6793,W,1,10,1.7,14,M,,M,,*65
06/26/2015	11:06:21.589	$GPGGA,110622,2538.3849,N,08003.6796,W,1,10,1.7,14,M,,M,,*6B
06/26/2015	11:06:22.588	$GPGGA,110623,2538.3857,N,08003.6797,W,1,10,1.7,14,M,,M,,*64
06/26/2015	11:06:23.618	$GPGGA,110624,2538.3864,N,08003.6799,W,1,10,1.7,14,M,,M,,*6D
06/26/2015	11:06:25.640	$GPGGA,110626,2538.3881,N,08003.6806,W,1,10,1.7,14,M,,M,,*6D
06/26/2015	11:06:26.579	$GPGGA,110627,2538.3888,N,08003.6807,W,1,10,1.7,14,M,,M,,*64
06/26/2015	11:06:27.609	$GPGGA,110628,2538.3896,N,08003.6810,W,1,10,1.7,14,M,,M,,*62
06/26/2015	11:06:28.579	$GPGGA,110629,2538.3904,N,08003.6811,W,1,10,1.7,14,M,,M,,*68
06/26/2015	11:06:29.599	$GPGGA,110630,2538.3911,N,08003.6814,W,1,10,1.7,14,M,,M,,*61
06/26/2015	11:06:30.570	$GPGGA,110631,2538.3920,N,08003.6817,W,1,10,1.7,14,M,,M,,*61
06/26/2015	11:06:31.599	$GPGGA,110632,2538.3927,N,08003.6818,W,1,10,1.7,14,M,,M,,*6A
06/26/2015	11:06:32.573	$GPGGA,110633,2538.3935,N,08003.6821,W,1,10,1.7,14,M,,M,,*62
06/26/2015	11:06:33.579	$GPGGA,110634,2538.3943,N,08003.6824,W,1,10,1.7,14,M,,M,,*61
06/26/2015	11:06:34.559	$GPGGA,110635,2538.3951,N,08003.6825,W,1,10,1.7,14,M,,M,,*62
06/26/2015	11:06:35.599	$GPGGA,110636,2538.3958,N,08003.6828,W,1,10,1.7,14,M,,M,,*65
06/26/2015	11:06:36.579	$GPGGA,110637,2538.3967,N,08003.6831,W,1,10,1.7,14,M,,M,,*60
06/26/2015	11:06:37.549	$GPGGA,110638,2538.3975,N,08003.6832,W,1,10,1.7,14,M,,M,,*6F
06/26/2015	11:06:38.559	$GPGGA,110639,2538.3982,N,08003.6833,W,1,10,1.7,14,M,,M,,*67
06/26/2015	11:06:39.578	$GPGGA,110640,2538.3990,N,08003.6836,W,1,10,1.7,14,M,,M,,*6F
06/26/2015	11:06:40.558	$GPGGA,110641,2538.3998,N,08003.6839,W,1,10,1.7,14,M,,M,,*69
06/26/2015	11:06:41.548	$GPGGA,110642,2538.4005,N,08003.6842,W,1,10,1.7,14,M,,M,,*6C
06/26/2015	11:06:42.548	$GPGGA,110643,2538.4014,N,08003.6843,W,1,10,1.7,14,M,,M,,*6C
06/26/2015	11:06:43.571	$GPGGA,110644,2538.4022,N,08003.6846,W,1,10,1.7,14,M,,M,,*6B
06/26/2015	11:06:44.549	$GPGGA,110645,2538.4029,N,08003.6847,W,1,10,1.7,14,M,,M,,*60
06/26/2015	11:06:45.574	$GPGGA,110646,2538.4037,N,08003.6850,W,1,10,1.7,14,M,,M,,*6A
06/26/2015	11:06:46.539	$GPGGA,110647,2538.4044,N,08003.6853,W,1,10,1.7,14,M,,M,,*6C
06/26/2015	11:06:47.570	$GPGGA,110648,2538.4052,N,08003.6854,W,1,10,1.7,14,M,,M,,*63
06/26/2015	11:06:48.539	$GPGGA,110649,2538.4059,N,08003.6857,W,1,10,1.7,14,M,,M,,*6A
06/26/2015	11:06:49.539	$GPGGA,110650,2538.4068,N,08003.6858,W,1,10,1.7,14,M,,M,,*6F
06/26/2015	11:06:50.529	$GPGGA,110651,2538.4076,N,08003.6861,W,1,10,1.7,14,M,,M,,*6B
06/26/2015	11:06:51.549	$GPGGA,110652,2538.4083,N,08003.6862,W,1,10,1.7,14,M,,M,,*61
06/26/2015	11:06:52.539	$GPGGA,110653,2538.4091,N,08003.6864,W,1,10,1.8,14,M,,M,,*6A
06/26/2015	11:06:53.549	$GPGGA,110654,2538.4099,N,08003.6868,W,1,9,1.8,14,M,,M,,*51
06/26/2015	11:06:54.529	$GPGGA,110655,2538.4106,N,08003.6869,W,1,9,1.7,14,M,,M,,*59
06/26/2015	11:06:55.529	$GPGGA,110656,2538.4115,N,08003.6871,W,1,10,1.7,14,M,,M,,*69
06/26/2015	11:06:56.529	$GPGGA,110657,2538.4123,N,08003.6872,W,1,10,1.7,14,M,,M,,*6E
06/26/2015	11:06:57.508	$GPGGA,110658,2538.4130,N,08003.6875,W,1,9,1.8,14,M,,M,,*53
06/26/2015	11:06:58.628	$GPGGA,110659,2538.4138,N,08003.6875,W,1,9,1.7,14,M,,M,,*55
06/26/2015	11:06:59.668	$GPGGA,110700,2538.4146,N,08003.6876,W,1,10,1.7,14,M,,M,,*6A
06/26/2015	11:07:00.519	$GPGGA,110701,2538.4153,N,08003.6879,W,1,10,1.7,14,M,,M,,*60
06/26/2015	11:07:01.599	$GPGGA,110702,2538.4162,N,08003.6880,W,1,9,1.8,14,M,,M,,*50
06/26/2015	11:07:02.509	$GPGGA,110703,2538.4169,N,08003.6882,W,1,9,1.7,14,M,,M,,*57
06/26/2015	11:07:03.530	$GPGGA,110704,2538.4177,N,08003.6884,W,1,10,1.7,14,M,,M,,*61
06/26/2015	11:07:04.519	$GPGGA,110705,2538.4185,N,08003.6886,W,1,10,1.7,14,M,,M,,*6F
06/26/2015	11:07:05.599	$GPGGA,110706,2538.4192,N,08003.6887,W,1,10,1.7,14,M,,M,,*6B
06/26/2015	11:07:06.599	$GPGGA,110707,2538.4200,N,08003.6889,W,1,10,1.7,14,M,,M,,*6C
06/26/2015	11:07:07.910	$GPGGA,110708,2538.4207,N,08003.6891,W,1,10,1.7,14,M,,M,,*6D
06/26/2015	11:07:08.599	$GPGGA,110709,2538.4216,N,08003.6893,W,1,10,1.7,14,M,,M,,*6E
06/26/2015	11:07:09.629	$GPGGA,110710,2538.4224,N,08003.6898,W,1,9,1.9,14,M,,M,,*5A
06/26/2015	11:07:10.579	$GPGGA,110711,2538.4232,N,08003.6900,W,1,9,1.7,14,M,,M,,*52
06/26/2015	11:07:11.619	$GPGGA,110712,2538.4240,N,08003.6901,W,1,9,1.9,14,M,,M,,*5B
06/26/2015	11:07:12.569	$GPGGA,110713,2538.4247,N,08003.6904,W,1,9,1.9,14,M,,M,,*58
06/26/2015	11:07:14.093	$GPGGA,110714,2538.4256,N,08003.6907,W,1,10,1.7,14,M,,M,,*6A
06/26/2015	11:07:14.579	$GPGGA,110715,2538.4264,N,08003.6909,W,1,10,1.7,14,M,,M,,*64
06/26/2015	11:07:15.588	$GPGGA,110716,2538.4271,N,08003.6911,W,1,10,1.7,14,M,,M,,*6A
06/26/2015	11:07:16.568	$GPGGA,110717,2538.4279,N,08003.6915,W,1,10,1.7,14,M,,M,,*67
06/26/2015	11:07:17.588	$GPGGA,110718,2538.4286,N,08003.6918,W,1,10,1.7,14,M,,M,,*65
06/26/2015	11:07:18.558	$GPGGA,110719,2538.4294,N,08003.6919,W,1,10,1.7,14,M,,M,,*66
06/26/2015	11:07:19.588	$GPGGA,110720,2538.4301,N,08003.6922,W,1,10,1.7,15,M,,M,,*68
06/26/2015	11:07:20.567	$GPGGA,110721,2538.4311,N,08003.6925,W,1,10,1.7,15,M,,M,,*6F
06/26/2015	11:07:21.568	$GPGGA,110722,2538.4318,N,08003.6926,W,1,10,1.7,15,M,,M,,*66
06/26/2015	11:07:22.564	$GPGGA,110723,2538.4326,N,08003.6929,W,1,10,1.7,15,M,,M,,*65
06/26/2015	11:07:23.588	$GPGGA,110724,2538.4333,N,08003.6931,W,1,10,1.7,15,M,,M,,*6F
06/26/2015	11:07:24.548	$GPGGA,110725,2538.4341,N,08003.6934,W,1,10,1.7,15,M,,M,,*6E
06/26/2015	11:07:25.564	$GPGGA,110726,2538.4348,N,08003.6936,W,1,9,1.8,15,M,,M,,*51
06/26/2015	11:07:26.549	$GPGGA,110727,2538.4357,N,08003.6940,W,1,9,1.8,15,M,,M,,*5F
06/26/2015	11:07:27.549	$GPGGA,110728,2538.4365,N,08003.6940,W,1,10,1.7,15,M,,M,,*66
06/26/2015	11:07:28.552	$GPGGA,110729,2538.4373,N,08003.6943,W,1,10,1.8,15,M,,M,,*6C
06/26/2015	11:07:29.555	$GPGGA,110730,2538.4380,N,08003.6944,W,1,9,1.8,16,M,,M,,*54
06/26/2015	11:07:30.539	$GPGGA,110731,2538.4387,N,08003.6947,W,1,9,2.1,16,M,,M,,*5B
06/26/2015	11:07:31.553	$GPGGA,110732,2538.4395,N,08003.6947,W,1,9,2.0,16,M,,M,,*5A
06/26/2015	11:07:32.548	$GPGGA,110733,2538.4402,N,08003.6949,W,1,9,1.7,16,M,,M,,*58
06/26/2015	11:07:33.528	$GPGGA,110734,2538.4412,N,08003.6951,W,1,10,1.7,16,M,,M,,*6F
06/26/2015	11:07:34.552	$GPGGA,110735,2538.4420,N,08003.6952,W,1,10,1.7,16,M,,M,,*6C
06/26/2015	11:07:35.553	$GPGGA,110736,2538.4427,N,08003.6954,W,1,10,1.7,16,M,,M,,*6E
06/26/2015	11:07:36.528	$GPGGA,110737,2538.4435,N,08003.6955,W,1,10,1.7,17,M,,M,,*6C
06/26/2015	11:07:37.553	$GPGGA,110738,2538.4444,N,08003.6958,W,1,10,1.7,17,M,,M,,*68
06/26/2015	11:07:38.638	$GPGGA,110739,2538.4451,N,08003.6958,W,1,10,1.7,17,M,,M,,*6D
06/26/2015	11:07:39.572	$GPGGA,110740,2538.4459,N,08003.6960,W,1,10,1.7,17,M,,M,,*60
06/26/2015	11:07:40.528	$GPGGA,110741,2538.4467,N,08003.6962,W,1,10,1.7,17,M,,M,,*6E
06/26/2015	11:07:41.508	$GPGGA,110742,2538.4473,N,08003.6963,W,1,10,1.7,17,M,,M,,*69
06/26/2015	11:07:42.528	$GPGGA,110743,2538.4481,N,08003.6965,W,1,10,1.7,17,M,,M,,*63
06/26/2015	11:07:43.548	$GPGGA,110744,2538.4488,N,08003.6967,W,1,10,1.7,18,M,,M,,*60
06/26/2015	11:07:44.518	$GPGGA,110745,2538.4496,N,08003.6969,W,1,10,1.7,18,M,,M,,*60
06/26/2015	11:07:45.508	$GPGGA,110746,2538.4503,N,08003.6970,W,1,10,1.7,18,M,,M,,*66
06/26/2015	11:07:46.519	$GPGGA,110747,2538.4510,N,08003.6973,W,1,10,1.7,18,M,,M,,*66
06/26/2015	11:07:47.639	$GPGGA,110748,2538.4517,N,08003.6973,W,1,10,1.7,18,M,,M,,*6E
06/26/2015	11:07:48.509	$GPGGA,110749,2538.4525,N,08003.6976,W,1,10,1.7,18,M,,M,,*6B
06/26/2015	11:07:49.598	$GPGGA,110750,2538.4532,N,08003.6977,W,1,10,1.7,18,M,,M,,*64
06/26/2015	11:07:50.608	$GPGGA,110751,2538.4539,N,08003.6978,W,1,10,1.7,18,M,,M,,*61
06/26/2015	11:07:51.508	$GPGGA,110752,2538.4547,N,08003.6980,W,1,10,1.7,18,M,,M,,*6C
06/26/2015	11:07:52.488	$GPGGA,110753,2538.4554,N,08003.6983,W,1,10,1.9,18,M,,M,,*62
06/26/2015	11:07:53.588	$GPGGA,110754,2538.4561,N,08003.6984,W,1,10,1.7,18,M,,M,,*6A
06/26/2015	11:07:54.498	$GPGGA,110755,2538.4568,N,08003.6987,W,1,10,1.7,18,M,,M,,*61
06/26/2015	11:07:55.598	$GPGGA,110756,2538.4576,N,08003.6987,W,1,10,1.7,18,M,,M,,*6D
06/26/2015	11:07:56.498	$GPGGA,110757,2538.4583,N,08003.6990,W,1,10,1.9,18,M,,M,,*6E
06/26/2015	11:07:57.588	$GPGGA,110758,2538.4593,N,08003.6991,W,1,9,1.9,18,M,,M,,*59
06/26/2015	11:07:58.578	$GPGGA,110759,2538.4601,N,08003.6992,W,1,9,1.7,18,M,,M,,*5D
06/26/2015	11:07:59.608	$GPGGA,110800,2538.4608,N,08003.6994,W,1,10,1.7,18,M,,M,,*69
06/26/2015	11:08:00.578	$GPGGA,110801,2538.4615,N,08003.6995,W,1,10,1.9,18,M,,M,,*6B
06/26/2015	11:08:01.578	$GPGGA,110802,2538.4622,N,08003.6996,W,1,9,1.9,18,M,,M,,*57
06/26/2015	11:08:02.578	$GPGGA,110803,2538.4630,N,08003.6998,W,1,9,1.7,18,M,,M,,*55
06/26/2015	11:08:03.599	$GPGGA,110804,2538.4637,N,08003.6998,W,1,9,1.9,18,M,,M,,*5B
06/26/2015	11:08:04.559	$GPGGA,110805,2538.4646,N,08003.7001,W,1,9,1.9,18,M,,M,,*54
06/26/2015	11:08:05.589	$GPGGA,110806,2538.4655,N,08003.7001,W,1,10,1.7,18,M,,M,,*63
06/26/2015	11:08:06.561	$GPGGA,110807,2538.4662,N,08003.7002,W,1,10,1.7,18,M,,M,,*65
06/26/2015	11:08:07.598	$GPGGA,110808,2538.4670,N,08003.7003,W,1,9,1.9,18,M,,M,,*5E
06/26/2015	11:08:08.560	$GPGGA,110809,2538.4680,N,08003.7005,W,1,9,1.7,18,M,,M,,*58
06/26/2015	11:08:09.578	$GPGGA,110810,2538.4688,N,08003.7006,W,1,10,1.7,18,M,,M,,*63
06/26/2015	11:08:10.828	$GPGGA,110811,2538.4695,N,08003.7008,W,1,10,1.7,18,M,,M,,*60
06/26/2015	11:08:11.588	$GPGGA,110812,2538.4702,N,08003.7009,W,1,10,1.7,18,M,,M,,*6D
06/26/2015	11:08:12.561	$GPGGA,110813,2538.4711,N,08003.7012,W,1,10,1.9,18,M,,M,,*6A
06/26/2015	11:08:13.549	$GPGGA,110814,2538.4719,N,08003.7013,W,1,10,1.7,18,M,,M,,*6A
06/26/2015	11:08:14.538	$GPGGA,110815,2538.4726,N,08003.7014,W,1,10,1.7,17,M,,M,,*6F
06/26/2015	11:08:15.578	$GPGGA,110816,2538.4734,N,08003.7016,W,1,10,1.7,17,M,,M,,*6D
06/26/2015	11:08:16.538	$GPGGA,110817,2538.4741,N,08003.7019,W,1,10,1.7,17,M,,M,,*61
06/26/2015	11:08:17.568	$GPGGA,110818,2538.4749,N,08003.7020,W,1,10,1.7,17,M,,M,,*6C
06/26/2015	11:08:18.538	$GPGGA,110819,2538.4756,N,08003.7021,W,1,10,1.7,17,M,,M,,*62
06/26/2015	11:08:19.578	$GPGGA,110820,2538.4763,N,08003.7023,W,1,10,1.7,17,M,,M,,*6C
06/26/2015	11:08:20.538	$GPGGA,110821,2538.4771,N,08003.7023,W,1,10,1.7,17,M,,M,,*6E
06/26/2015	11:08:21.529	$GPGGA,110822,2538.4778,N,08003.7025,W,1,10,1.7,16,M,,M,,*63
06/26/2015	11:08:22.539	$GPGGA,110823,2538.4785,N,08003.7027,W,1,10,1.7,16,M,,M,,*62
06/26/2015	11:08:23.559	$GPGGA,110824,2538.4794,N,08003.7028,W,1,10,1.7,16,M,,M,,*6A
06/26/2015	11:08:24.528	$GPGGA,110825,2538.4802,N,08003.7030,W,1,10,1.7,16,M,,M,,*62
06/26/2015	11:08:25.554	$GPGGA,110826,2538.4809,N,08003.7031,W,1,10,1.7,16,M,,M,,*6B
06/26/2015	11:08:27.528	$GPGGA,110828,2538.4824,N,08003.7034,W,1,10,1.7,16,M,,M,,*6F
06/26/2015	11:08:28.538	$GPGGA,110829,2538.4831,N,08003.7037,W,1,10,1.7,15,M,,M,,*6A
06/26/2015	11:08:29.528	$GPGGA,110830,2538.4838,N,08003.7038,W,1,10,1.7,15,M,,M,,*64
06/26/2015	11:08:30.608	$GPGGA,110831,2538.4845,N,08003.7038,W,1,10,1.7,15,M,,M,,*6F
06/26/2015	11:08:31.649	$GPGGA,110832,2538.4853,N,08003.7041,W,1,10,1.7,15,M,,M,,*65
06/26/2015	11:08:32.528	$GPGGA,110833,2538.4860,N,08003.7041,W,1,10,1.7,15,M,,M,,*64
06/26/2015	11:08:33.498	$GPGGA,110834,2538.4867,N,08003.7042,W,1,10,1.7,15,M,,M,,*67
06/26/2015	11:08:34.508	$GPGGA,110835,2538.4874,N,08003.7045,W,1,10,1.7,15,M,,M,,*63
06/26/2015	11:08:35.528	$GPGGA,110836,2538.4881,N,08003.7046,W,1,10,1.7,15,M,,M,,*69
06/26/2015	11:08:36.508	$GPGGA,110837,2538.4889,N,08003.7048,W,1,10,1.7,14,M,,M,,*6F
06/26/2015	11:08:37.618	$GPGGA,110838,2538.4896,N,08003.7048,W,1,10,1.7,14,M,,M,,*6E
06/26/2015	11:08:38.509	$GPGGA,110839,2538.4903,N,08003.7052,W,1,10,1.7,14,M,,M,,*69
06/26/2015	11:08:39.499	$GPGGA,110840,2538.4910,N,08003.7052,W,1,10,1.7,14,M,,M,,*65
06/26/2015	11:08:40.829	$GPGGA,110841,2538.4917,N,08003.7053,W,1,10,1.7,14,M,,M,,*62
06/26/2015	11:08:41.599	$GPGGA,110842,2538.4924,N,08003.7056,W,1,10,1.7,14,M,,M,,*64
06/26/2015	11:08:42.498	$GPGGA,110843,2538.4932,N,08003.7056,W,1,10,1.7,14,M,,M,,*62
06/26/2015	11:08:43.638	$GPGGA,110844,2538.4939,N,08003.7059,W,1,10,1.7,13,M,,M,,*66
06/26/2015	11:08:44.498	$GPGGA,110845,2538.4946,N,08003.7059,W,1,10,1.7,13,M,,M,,*6F
06/26/2015	11:08:45.608	$GPGGA,110846,2538.4953,N,08003.7060,W,1,10,1.7,13,M,,M,,*62
06/26/2015	11:08:46.588	$GPGGA,110847,2538.4959,N,08003.7063,W,1,10,1.7,13,M,,M,,*6A
06/26/2015	11:08:47.618	$GPGGA,110848,2538.4966,N,08003.7063,W,1,10,1.7,13,M,,M,,*69
06/26/2015	11:08:48.578	$GPGGA,110849,2538.4973,N,08003.7066,W,1,10,1.7,13,M,,M,,*69
06/26/2015	11:08:49.598	$GPGGA,110850,2538.4980,N,08003.7066,W,1,10,1.7,13,M,,M,,*6D
06/26/2015	11:08:50.568	$GPGGA,110851,2538.4987,N,08003.7067,W,1,10,1.7,13,M,,M,,*6A
06/26/2015	11:08:51.618	$GPGGA,110852,2538.4994,N,08003.7070,W,1,10,1.7,12,M,,M,,*6C
06/26/2015	11:08:52.578	$GPGGA,110853,2538.5002,N,08003.7070,W,1,10,1.7,12,M,,M,,*6A
06/26/2015	11:08:53.588	$GPGGA,110854,2538.5009,N,08003.7071,W,1,10,1.7,12,M,,M,,*67
06/26/2015	11:08:54.558	$GPGGA,110855,2538.5016,N,08003.7072,W,1,10,1.7,12,M,,M,,*6B
06/26/2015	11:08:55.609	$GPGGA,110856,2538.5023,N,08003.7074,W,1,10,1.7,12,M,,M,,*68
06/26/2015	11:08:56.569	$GPGGA,110857,2538.5030,N,08003.7074,W,1,10,1.7,12,M,,M,,*6B
06/26/2015	11:08:57.569	$GPGGA,110858,2538.5037,N,08003.7077,W,1,10,1.7,12,M,,M,,*60
06/26/2015	11:08:58.559	$GPGGA,110859,2538.5044,N,08003.7078,W,1,10,1.7,12,M,,M,,*6A
06/26/2015	11:08:59.908	$GPGGA,110900,2538.5051,N,08003.7078,W,1,10,1.7,12,M,,M,,*63
06/26/2015	11:09:00.558	$GPGGA,110901,2538.5058,N,08003.7081,W,1,10,1.7,12,M,,M,,*6D
06/26/2015	11:09:01.578	$GPGGA,110902,2538.5065,N,08003.7081,W,1,10,1.7,11,M,,M,,*63
06/26/2015	11:09:02.548	$GPGGA,110903,2538.5071,N,08003.7084,W,1,10,1.7,11,M,,M,,*62
06/26/2015	11:09:03.598	$GPGGA,110904,2538.5078,N,08003.7085,W,1,10,1.7,11,M,,M,,*6D
06/26/2015	11:09:04.549	$GPGGA,110905,2538.5085,N,08003.7085,W,1,10,1.7,11,M,,M,,*6E
06/26/2015	11:09:05.568	$GPGGA,110906,2538.5092,N,08003.7088,W,1,10,1.7,11,M,,M,,*66
06/26/2015	11:09:06.551	$GPGGA,110907,2538.5099,N,08003.7088,W,1,10,1.7,11,M,,M,,*6C
06/26/2015	11:09:07.618	$GPGGA,110908,2538.5107,N,08003.7089,W,1,10,1.7,11,M,,M,,*64
06/26/2015	11:09:08.558	$GPGGA,110909,2538.5114,N,08003.7090,W,1,10,1.7,11,M,,M,,*6F
06/26/2015	11:09:09.568	$GPGGA,110910,2538.5121,N,08003.7092,W,1,10,1.7,11,M,,M,,*63
06/26/2015	11:09:10.528	$GPGGA,110911,2538.5128,N,08003.7093,W,1,10,1.7,11,M,,M,,*6A
06/26/2015	11:09:11.549	$GPGGA,110912,2538.5135,N,08003.7095,W,1,10,1.7,11,M,,M,,*63
06/26/2015	11:09:12.538	$GPGGA,110913,2538.5142,N,08003.7096,W,1,10,1.7,11,M,,M,,*61
06/26/2015	11:09:13.554	$GPGGA,110914,2538.5149,N,08003.7097,W,1,10,1.7,11,M,,M,,*6C
06/26/2015	11:09:14.529	$GPGGA,110915,2538.5157,N,08003.7099,W,1,10,1.7,11,M,,M,,*6C
06/26/2015	11:09:15.549	$GPGGA,110916,2538.5163,N,08003.7100,W,1,10,1.7,11,M,,M,,*69
06/26/2015	11:09:16.529	$GPGGA,110917,2538.5168,N,08003.7102,W,1,10,1.9,11,M,,M,,*6F
06/26/2015	11:09:17.538	$GPGGA,110918,2538.5177,N,08003.7103,W,1,9,1.9,11,M,,M,,*57
06/26/2015	11:09:18.518	$GPGGA,110919,2538.5183,N,08003.7106,W,1,9,1.7,11,M,,M,,*56
06/26/2015	11:09:19.568	$GPGGA,110920,2538.5190,N,08003.7106,W,1,10,1.7,11,M,,M,,*66
06/26/2015	11:09:20.538	$GPGGA,110921,2538.5197,N,08003.7107,W,1,10,1.9,11,M,,M,,*6F
06/26/2015	11:09:21.538	$GPGGA,110922,2538.5204,N,08003.7110,W,1,9,1.9,10,M,,M,,*5A
06/26/2015	11:09:22.528	$GPGGA,110923,2538.5212,N,08003.7109,W,1,9,1.7,10,M,,M,,*5A
06/26/2015	11:09:23.568	$GPGGA,110924,2538.5221,N,08003.7111,W,1,10,1.9,10,M,,M,,*62
06/26/2015	11:09:24.528	$GPGGA,110925,2538.5228,N,08003.7113,W,1,10,1.9,10,M,,M,,*68
06/26/2015	11:09:25.528	$GPGGA,110926,2538.5236,N,08003.7114,W,1,9,1.9,10,M,,M,,*5B
06/26/2015	11:09:26.588	$GPGGA,110927,2538.5243,N,08003.7117,W,1,9,1.9,10,M,,M,,*5B
06/26/2015	11:09:27.538	$GPGGA,110928,2538.5251,N,08003.7117,W,1,10,1.9,10,M,,M,,*6F
06/26/2015	11:09:28.508	$GPGGA,110929,2538.5257,N,08003.7118,W,1,10,1.9,10,M,,M,,*67
06/26/2015	11:09:29.598	$GPGGA,110930,2538.5265,N,08003.7120,W,1,9,1.9,10,M,,M,,*5D
06/26/2015	11:09:30.508	$GPGGA,110931,2538.5273,N,08003.7121,W,1,9,1.9,10,M,,M,,*5A
06/26/2015	11:09:31.539	$GPGGA,110932,2538.5279,N,08003.7122,W,1,9,1.9,10,M,,M,,*50
06/26/2015	11:09:32.509	$GPGGA,110933,2538.5286,N,08003.7122,W,1,9,1.9,10,M,,M,,*51
06/26/2015	11:09:33.579	$GPGGA,110934,2538.5294,N,08003.7126,W,1,9,1.7,10,M,,M,,*5F
06/26/2015	11:09:34.578	$GPGGA,110935,2538.5301,N,08003.7126,W,1,9,1.7,10,M,,M,,*53
06/26/2015	11:09:35.619	$GPGGA,110936,2538.5308,N,08003.7128,W,1,9,1.9,10,M,,M,,*59
06/26/2015	11:09:36.568	$GPGGA,110937,2538.5315,N,08003.7128,W,1,9,1.9,10,M,,M,,*54
06/26/2015	11:09:37.568	$GPGGA,110938,2538.5322,N,08003.7129,W,1,9,1.9,10,M,,M,,*5E
06/26/2015	11:09:38.598	$GPGGA,110939,2538.5327,N,08003.7131,W,1,9,1.9,10,M,,M,,*53
06/26/2015	11:09:39.589	$GPGGA,110940,2538.5334,N,08003.7132,W,1,9,1.9,10,M,,M,,*5C
06/26/2015	11:09:41.019	$GPGGA,110941,2538.5341,N,08003.7132,W,1,9,1.9,10,M,,M,,*5F
06/26/2015	11:09:41.588	$GPGGA,110942,2538.5348,N,08003.7133,W,1,9,1.9,10,M,,M,,*54
06/26/2015	11:09:42.564	$GPGGA,110943,2538.5355,N,08003.7133,W,1,9,1.9,10,M,,M,,*59
06/26/2015	11:09:43.598	$GPGGA,110944,2538.5363,N,08003.7135,W,1,9,1.9,10,M,,M,,*5D
06/26/2015	11:09:44.564	$GPGGA,110945,2538.5370,N,08003.7137,W,1,9,1.9,10,M,,M,,*5C
06/26/2015	11:09:45.550	$GPGGA,110946,2538.5377,N,08003.7139,W,1,10,1.7,10,M,,M,,*60
06/26/2015	11:09:46.561	$GPGGA,110947,2538.5385,N,08003.7140,W,1,10,1.7,10,M,,M,,*62
06/26/2015	11:09:47.598	$GPGGA,110948,2538.5392,N,08003.7143,W,1,10,1.7,10,M,,M,,*68
06/26/2015	11:09:48.551	$GPGGA,110949,2538.5399,N,08003.7144,W,1,10,1.7,10,M,,M,,*65
06/26/2015	11:09:49.569	$GPGGA,110950,2538.5406,N,08003.7146,W,1,10,1.7,10,M,,M,,*6E
06/26/2015	11:09:50.569	$GPGGA,110951,2538.5414,N,08003.7149,W,1,10,1.9,10,M,,M,,*6D
06/26/2015	11:09:51.579	$GPGGA,110952,2538.5421,N,08003.7148,W,1,10,1.7,10,M,,M,,*67
06/26/2015	11:09:52.552	$GPGGA,110953,2538.5427,N,08003.7150,W,1,10,1.9,10,M,,M,,*67
06/26/2015	11:09:53.560	$GPGGA,110954,2538.5435,N,08003.7151,W,1,10,1.7,10,M,,M,,*6C
06/26/2015	11:09:54.538	$GPGGA,110955,2538.5442,N,08003.7153,W,1,10,1.7,10,M,,M,,*6F
06/26/2015	11:09:55.578	$GPGGA,110956,2538.5449,N,08003.7155,W,1,9,1.9,10,M,,M,,*57
06/26/2015	11:09:56.538	$GPGGA,110957,2538.5454,N,08003.7157,W,1,9,1.9,10,M,,M,,*58
06/26/2015	11:09:57.538	$GPGGA,110958,2538.5461,N,08003.7158,W,1,10,1.7,10,M,,M,,*68
06/26/2015	11:09:58.538	$GPGGA,110959,2538.5470,N,08003.7160,W,1,10,1.7,10,M,,M,,*62
06/26/2015	11:09:59.560	$GPGGA,111000,2538.5477,N,08003.7161,W,1,9,1.9,10,M,,M,,*56
06/26/2015	11:10:00.518	$GPGGA,111001,2538.5484,N,08003.7162,W,1,9,1.7,11,M,,M,,*57
06/26/2015	11:10:01.538	$GPGGA,111002,2538.5490,N,08003.7164,W,1,9,1.9,11,M,,M,,*59
06/26/2015	11:10:02.528	$GPGGA,111003,2538.5497,N,08003.7165,W,1,9,1.7,11,M,,M,,*50
06/26/2015	11:10:03.568	$GPGGA,111004,2538.5506,N,08003.7167,W,1,10,1.7,11,M,,M,,*64
06/26/2015	11:10:04.518	$GPGGA,111005,2538.5511,N,08003.7168,W,1,10,1.7,11,M,,M,,*6C
06/26/2015	11:10:05.529	$GPGGA,111006,2538.5518,N,08003.7167,W,1,10,1.7,11,M,,M,,*69
06/26/2015	11:10:06.509	$GPGGA,111007,2538.5526,N,08003.7168,W,1,10,1.7,11,M,,M,,*6A
06/26/2015	11:10:07.529	$GPGGA,111008,2538.5533,N,08003.7169,W,1,9,1.9,11,M,,M,,*56
06/26/2015	11:10:08.519	$GPGGA,111009,2538.5540,N,08003.7171,W,1,9,1.7,12,M,,M,,*57
06/26/2015	11:10:09.528	$GPGGA,111010,2538.5547,N,08003.7170,W,1,10,1.7,12,M,,M,,*61
06/26/2015	11:10:10.498	$GPGGA,111011,2538.5555,N,08003.7171,W,1,10,1.7,12,M,,M,,*62
06/26/2015	11:10:11.651	$GPGGA,111012,2538.5562,N,08003.7172,W,1,10,1.7,12,M,,M,,*66
06/26/2015	11:10:12.528	$GPGGA,111013,2538.5569,N,08003.7172,W,1,10,1.7,12,M,,M,,*6C
06/26/2015	11:10:13.598	$GPGGA,111014,2538.5576,N,08003.7175,W,1,9,1.9,12,M,,M,,*54
06/26/2015	11:10:14.508	$GPGGA,111015,2538.5583,N,08003.7174,W,1,9,1.7,12,M,,M,,*50
06/26/2015	11:10:15.508	$GPGGA,111016,2538.5591,N,08003.7175,W,1,9,1.9,12,M,,M,,*5F
06/26/2015	11:10:16.588	$GPGGA,111017,2538.5598,N,08003.7175,W,1,9,1.7,12,M,,M,,*59
06/26/2015	11:10:17.629	$GPGGA,111018,2538.5605,N,08003.7178,W,1,10,1.7,12,M,,M,,*64
06/26/2015	11:10:18.598	$GPGGA,111019,2538.5612,N,08003.7177,W,1,10,1.7,12,M,,M,,*6C
06/26/2015	11:10:19.608	$GPGGA,111020,2538.5619,N,08003.7178,W,1,10,1.7,12,M,,M,,*62
06/26/2015	11:10:20.598	$GPGGA,111021,2538.5627,N,08003.7178,W,1,10,1.7,12,M,,M,,*6E
06/26/2015	11:10:21.608	$GPGGA,111022,2538.5634,N,08003.7179,W,1,10,1.7,12,M,,M,,*6E
06/26/2015	11:10:22.588	$GPGGA,111023,2538.5640,N,08003.7179,W,1,10,1.7,12,M,,M,,*6C
06/26/2015	11:10:23.599	$GPGGA,111024,2538.5647,N,08003.7180,W,1,10,1.7,12,M,,M,,*6A
06/26/2015	11:10:24.589	$GPGGA,111025,2538.5654,N,08003.7182,W,1,10,1.7,12,M,,M,,*6B
06/26/2015	11:10:25.579	$GPGGA,111026,2538.5659,N,08003.7182,W,1,9,1.9,12,M,,M,,*53
06/26/2015	11:10:26.579	$GPGGA,111027,2538.5667,N,08003.7182,W,1,9,1.9,12,M,,M,,*5F
06/26/2015	11:10:27.598	$GPGGA,111028,2538.5674,N,08003.7182,W,1,10,1.7,12,M,,M,,*64
06/26/2015	11:10:28.568	$GPGGA,111029,2538.5681,N,08003.7183,W,1,10,1.7,12,M,,M,,*6E
06/26/2015	11:10:29.588	$GPGGA,111030,2538.5688,N,08003.7184,W,1,9,1.9,12,M,,M,,*5E
06/26/2015	11:10:30.568	$GPGGA,111031,2538.5695,N,08003.7186,W,1,9,1.9,12,M,,M,,*51
06/26/2015	11:10:31.598	$GPGGA,111032,2538.5703,N,08003.7185,W,1,9,1.9,12,M,,M,,*5F
06/26/2015	11:10:32.563	$GPGGA,111033,2538.5710,N,08003.7186,W,1,9,1.7,12,M,,M,,*51
06/26/2015	11:10:33.578	$GPGGA,111034,2538.5717,N,08003.7187,W,1,10,1.7,12,M,,M,,*68
06/26/2015	11:10:34.552	$GPGGA,111035,2538.5724,N,08003.7189,W,1,10,1.7,11,M,,M,,*64
06/26/2015	11:10:35.588	$GPGGA,111036,2538.5732,N,08003.7188,W,1,10,1.7,11,M,,M,,*61
06/26/2015	11:10:36.562	$GPGGA,111037,2538.5739,N,08003.7189,W,1,10,1.7,11,M,,M,,*6A
06/26/2015	11:10:37.549	$GPGGA,111038,2538.5746,N,08003.7190,W,1,10,1.7,11,M,,M,,*65
06/26/2015	11:10:38.556	$GPGGA,111039,2538.5753,N,08003.7191,W,1,10,1.9,11,M,,M,,*6F
06/26/2015	11:10:39.578	$GPGGA,111040,2538.5760,N,08003.7191,W,1,10,1.7,11,M,,M,,*6F
06/26/2015	11:10:40.550	$GPGGA,111041,2538.5768,N,08003.7193,W,1,10,1.7,11,M,,M,,*64
06/26/2015	11:10:41.539	$GPGGA,111042,2538.5775,N,08003.7193,W,1,10,1.7,11,M,,M,,*6B
06/26/2015	11:10:42.551	$GPGGA,111043,2538.5782,N,08003.7194,W,1,10,1.9,11,M,,M,,*6B
06/26/2015	11:10:43.550	$GPGGA,111044,2538.5789,N,08003.7194,W,1,9,1.9,11,M,,M,,*5F
06/26/2015	11:10:44.551	$GPGGA,111045,2538.5799,N,08003.7197,W,1,9,1.7,11,M,,M,,*52
06/26/2015	11:10:45.528	$GPGGA,111046,2538.5806,N,08003.7196,W,1,10,1.7,11,M,,M,,*61
06/26/2015	11:10:46.538	$GPGGA,111047,2538.5811,N,08003.7197,W,1,10,1.7,10,M,,M,,*66
06/26/2015	11:10:47.578	$GPGGA,111048,2538.5818,N,08003.7198,W,1,10,1.7,10,M,,M,,*6F
06/26/2015	11:10:48.538	$GPGGA,111049,2538.5825,N,08003.7200,W,1,10,1.7,10,M,,M,,*62
06/26/2015	11:10:49.538	$GPGGA,111050,2538.5832,N,08003.7200,W,1,9,1.9,10,M,,M,,*5A
06/26/2015	11:10:50.518	$GPGGA,111051,2538.5840,N,08003.7201,W,1,9,1.7,10,M,,M,,*51
06/26/2015	11:10:51.550	$GPGGA,111052,2538.5847,N,08003.7202,W,1,10,1.7,10,M,,M,,*6E
06/26/2015	11:10:52.518	$GPGGA,111053,2538.5853,N,08003.7204,W,1,10,1.9,10,M,,M,,*62
06/26/2015	11:10:53.518	$GPGGA,111054,2538.5861,N,08003.7204,W,1,10,1.7,10,M,,M,,*6A
06/26/2015	11:10:54.508	$GPGGA,111055,2538.5868,N,08003.7207,W,1,10,1.7,10,M,,M,,*61
06/26/2015	11:10:55.638	$GPGGA,111056,2538.5875,N,08003.7206,W,1,9,1.9,10,M,,M,,*59
06/26/2015	11:10:56.508	$GPGGA,111057,2538.5880,N,08003.7207,W,1,9,1.7,10,M,,M,,*5D
06/26/2015	11:10:57.518	$GPGGA,111058,2538.5887,N,08003.7208,W,1,10,1.7,10,M,,M,,*62
06/26/2015	11:10:58.509	$GPGGA,111059,2538.5894,N,08003.7209,W,1,10,1.7,10,M,,M,,*60
06/26/2015	11:10:59.569	$GPGGA,111100,2538.5901,N,08003.7209,W,1,10,1.7,10,M,,M,,*60
06/26/2015	11:11:00.619	$GPGGA,111101,2538.5908,N,08003.7211,W,1,10,1.7,10,M,,M,,*61
06/26/2015	11:11:01.599	$GPGGA,111102,2538.5915,N,08003.7211,W,1,10,1.7,10,M,,M,,*6E
06/26/2015	11:11:02.498	$GPGGA,111103,2538.5923,N,08003.7212,W,1,10,1.7,10,M,,M,,*69
06/26/2015	11:11:03.608	$GPGGA,111104,2538.5930,N,08003.7212,W,1,10,1.7,10,M,,M,,*6C
06/26/2015	11:11:04.598	$GPGGA,111105,2538.5936,N,08003.7212,W,1,10,1.7,10,M,,M,,*6B
06/26/2015	11:11:05.618	$GPGGA,111106,2538.5943,N,08003.7214,W,1,10,1.7,10,M,,M,,*6C
06/26/2015	11:11:06.598	$GPGGA,111107,2538.5951,N,08003.7215,W,1,10,1.7,10,M,,M,,*6F
06/26/2015	11:11:07.628	$GPGGA,111108,2538.5956,N,08003.7214,W,1,10,1.7,9,M,,M,,*5E
06/26/2015	11:11:08.588	$GPGGA,111109,2538.5963,N,08003.7215,W,1,10,1.7,9,M,,M,,*58
06/26/2015	11:11:09.608	$GPGGA,111110,2538.5972,N,08003.7215,W,1,10,1.7,9,M,,M,,*50
06/26/2015	11:11:10.588	$GPGGA,111111,2538.5979,N,08003.7216,W,1,10,1.8,9,M,,M,,*56
06/26/2015	11:11:11.618	$GPGGA,111112,2538.5985,N,08003.7216,W,1,10,1.7,9,M,,M,,*59
06/26/2015	11:11:12.578	$GPGGA,111113,2538.5992,N,08003.7218,W,1,10,1.7,9,M,,M,,*50
06/26/2015	11:11:13.568	$GPGGA,111114,2538.6001,N,08003.7218,W,1,10,1.7,9,M,,M,,*57
06/26/2015	11:11:14.578	$GPGGA,111115,2538.6008,N,08003.7218,W,1,10,1.7,9,M,,M,,*5F
06/26/2015	11:11:15.589	$GPGGA,111116,2538.6013,N,08003.7219,W,1,10,1.7,9,M,,M,,*57
06/26/2015	11:11:16.639	$GPGGA,111117,2538.6021,N,08003.7220,W,1,10,1.7,9,M,,M,,*5D
06/26/2015	11:11:17.589	$GPGGA,111118,2538.6028,N,08003.7220,W,1,10,1.7,9,M,,M,,*5B
06/26/2015	11:11:18.562	$GPGGA,111119,2538.6035,N,08003.7222,W,1,10,1.7,9,M,,M,,*54
06/26/2015	11:11:19.588	$GPGGA,111120,2538.6042,N,08003.7223,W,1,9,1.9,9,M,,M,,*69
06/26/2015	11:11:20.561	$GPGGA,111121,2538.6049,N,08003.7223,W,1,9,1.7,9,M,,M,,*6D
06/26/2015	11:11:21.578	$GPGGA,111122,2538.6056,N,08003.7225,W,1,9,1.8,9,M,,M,,*69
06/26/2015	11:11:22.558	$GPGGA,111123,2538.6061,N,08003.7225,W,1,9,1.7,9,M,,M,,*63
06/26/2015	11:11:23.558	$GPGGA,111124,2538.6068,N,08003.7226,W,1,10,1.7,9,M,,M,,*56
06/26/2015	11:11:24.558	$GPGGA,111125,2538.6075,N,08003.7227,W,1,10,1.9,9,M,,M,,*54
06/26/2015	11:11:25.538	$GPGGA,111126,2538.6084,N,08003.7229,W,1,10,1.7,9,M,,M,,*59
06/26/2015	11:11:26.558	$GPGGA,111127,2538.6091,N,08003.7229,W,1,10,1.7,9,M,,M,,*5C
06/26/2015	11:11:27.578	$GPGGA,111128,2538.6099,N,08003.7232,W,1,10,1.7,9,M,,M,,*51
06/26/2015	11:11:28.548	$GPGGA,111129,2538.6106,N,08003.7233,W,1,10,1.7,9,M,,M,,*56
06/26/2015	11:11:29.538	$GPGGA,111130,2538.6113,N,08003.7231,W,1,9,1.9,9,M,,M,,*6E
06/26/2015	11:11:31.588	$GPGGA,111131,2538.6120,N,08003.7233,W,1,9,1.7,9,M,,M,,*63
06/26/2015	11:11:31.618	$GPGGA,111132,2538.6126,N,08003.7233,W,1,10,1.7,10,M,,M,,*66
06/26/2015	11:11:32.538	$GPGGA,111133,2538.6135,N,08003.7234,W,1,10,1.7,10,M,,M,,*62
06/26/2015	11:11:33.539	$GPGGA,111134,2538.6140,N,08003.7236,W,1,10,1.7,10,M,,M,,*65
06/26/2015	11:11:34.551	$GPGGA,111135,2538.6149,N,08003.7235,W,1,10,1.9,10,M,,M,,*60
06/26/2015	11:11:35.569	$GPGGA,111136,2538.6154,N,08003.7237,W,1,9,1.9,10,M,,M,,*55
06/26/2015	11:11:36.539	$GPGGA,111137,2538.6161,N,08003.7238,W,1,9,1.5,10,M,,M,,*51
06/26/2015	11:11:37.528	$GPGGA,111138,2538.6168,N,08003.7240,W,1,10,1.5,10,M,,M,,*60
06/26/2015	11:11:38.518	$GPGGA,111139,2538.6175,N,08003.7240,W,1,10,1.5,10,M,,M,,*6D
06/26/2015	11:11:39.578	$GPGGA,111140,2538.6182,N,08003.7241,W,1,10,1.5,10,M,,M,,*6A
06/26/2015	11:11:40.518	$GPGGA,111141,2538.6187,N,08003.7243,W,1,10,1.5,10,M,,M,,*6C
06/26/2015	11:11:41.528	$GPGGA,111142,2538.6194,N,08003.7243,W,1,9,1.7,10,M,,M,,*57
06/26/2015	11:11:42.518	$GPGGA,111143,2538.6201,N,08003.7243,W,1,9,1.7,10,M,,M,,*59
06/26/2015	11:11:43.548	$GPGGA,111144,2538.6208,N,08003.7243,W,1,9,1.7,10,M,,M,,*57
06/26/2015	11:11:44.628	$GPGGA,111145,2538.6216,N,08003.7245,W,1,9,1.7,11,M,,M,,*5E
06/26/2015	11:11:45.528	$GPGGA,111146,2538.6223,N,08003.7247,W,1,9,1.7,11,M,,M,,*59
06/26/2015	11:11:46.498	$GPGGA,111147,2538.6229,N,08003.7245,W,1,9,1.7,11,M,,M,,*50
06/26/2015	11:11:47.618	$GPGGA,111148,2538.6237,N,08003.7247,W,1,11,1.5,11,M,,M,,*69
06/26/2015	11:11:48.608	$GPGGA,111149,2538.6244,N,08003.7248,W,1,11,1.7,11,M,,M,,*61
06/26/2015	11:11:49.498	$GPGGA,111150,2538.6251,N,08003.7248,W,1,11,1.5,11,M,,M,,*6F
06/26/2015	11:11:50.499	$GPGGA,111151,2538.6256,N,08003.7248,W,1,11,1.7,11,M,,M,,*6B
06/26/2015	11:11:51.699	$GPGGA,111152,2538.6265,N,08003.7249,W,1,10,1.5,12,M,,M,,*69
