Software Version Number: 1	Data File Format Number: 1	Build Version Number: 1	Error Count Since VI Started: 2	Manufacturer: Raytheon	 Model Number: RayMarine 120	 S/N: 	 Cal Date: 	 Wind Direction Offset: 0.00	 Slope (M)1: 0.00	 Offset (B)1: 0.00	 Slope (M)2: 0.00	 Offset (B)2: 0.00	 Slope (M)3: 0.00	 Offset (B)3: 0.00	 Slope (M)4: 0.00	 Offset (B)4: 0.00	 Slope (M)5: 0.00	 Offset (B)5: 0.00	 Slope (M)6: 0.00	 Offset (B)6: 0.00
Computer Date	Computer Time	GGA String
06/21/2015	03:00:00.578	$GPGGA,030001,2444.8239,N,08044.2064,W,1,9,1.9,18,M,,M,,*54
06/21/2015	03:00:01.509	$GPGGA,030002,2444.8228,N,08044.2085,W,1,9,1.9,18,M,,M,,*58
06/21/2015	03:00:02.569	$GPGGA,030003,2444.8217,N,08044.2106,W,1,9,1.9,18,M,,M,,*5F
06/21/2015	03:00:03.589	$GPGGA,030004,2444.8208,N,08044.2129,W,1,9,1.8,18,M,,M,,*5A
06/21/2015	03:00:04.509	$GPGGA,030005,2444.8197,N,08044.2153,W,1,9,1.8,18,M,,M,,*53
06/21/2015	03:00:05.500	$GPGGA,030006,2444.8186,N,08044.2176,W,1,9,2.1,18,M,,M,,*5D
06/21/2015	03:00:06.499	$GPGGA,030007,2444.8175,N,08044.2197,W,1,9,1.8,18,M,,M,,*55
06/21/2015	03:00:07.569	$GPGGA,030008,2444.8164,N,08044.2219,W,1,9,1.8,18,M,,M,,*5F
06/21/2015	03:00:08.599	$GPGGA,030009,2444.8154,N,08044.2240,W,1,9,1.8,18,M,,M,,*51
06/21/2015	03:00:09.639	$GPGGA,030010,2444.8145,N,08044.2261,W,1,10,1.8,18,M,,M,,*62
06/21/2015	03:00:10.565	$GPGGA,030011,2444.8134,N,08044.2280,W,1,10,1.8,18,M,,M,,*6A
06/21/2015	03:00:11.579	$GPGGA,030012,2444.8122,N,08044.2301,W,1,10,1.8,18,M,,M,,*66
06/21/2015	03:00:12.560	$GPGGA,030013,2444.8111,N,08044.2321,W,1,10,1.8,18,M,,M,,*65
06/21/2015	03:00:13.529	$GPGGA,030014,2444.8100,N,08044.2342,W,1,10,1.8,18,M,,M,,*67
06/21/2015	03:00:14.599	$GPGGA,030015,2444.8089,N,08044.2363,W,1,10,1.8,18,M,,M,,*65
06/21/2015	03:00:15.638	$GPGGA,030016,2444.8078,N,08044.2384,W,1,10,1.8,18,M,,M,,*61
06/21/2015	03:00:16.588	$GPGGA,030017,2444.8066,N,08044.2406,W,1,10,1.8,18,M,,M,,*62
06/21/2015	03:00:17.578	$GPGGA,030018,2444.8055,N,08044.2428,W,1,10,1.8,18,M,,M,,*61
06/21/2015	03:00:18.588	$GPGGA,030019,2444.8044,N,08044.2447,W,1,10,1.8,18,M,,M,,*69
06/21/2015	03:00:19.619	$GPGGA,030020,2444.8033,N,08044.2468,W,1,10,1.8,18,M,,M,,*6E
06/21/2015	03:00:20.579	$GPGGA,030021,2444.8022,N,08044.2489,W,1,10,1.8,18,M,,M,,*60
06/21/2015	03:00:21.610	$GPGGA,030022,2444.8010,N,08044.2509,W,1,10,1.8,18,M,,M,,*6B
06/21/2015	03:00:22.569	$GPGGA,030023,2444.7999,N,08044.2530,W,1,10,1.8,18,M,,M,,*67
06/21/2015	03:00:23.589	$GPGGA,030024,2444.7987,N,08044.2551,W,1,10,1.8,18,M,,M,,*68
06/21/2015	03:00:24.579	$GPGGA,030025,2444.7976,N,08044.2572,W,1,10,1.8,18,M,,M,,*66
06/21/2015	03:00:26.104	$GPGGA,030026,2444.7965,N,08044.2594,W,1,10,1.8,18,M,,M,,*6F
06/21/2015	03:00:26.570	$GPGGA,030027,2444.7954,N,08044.2615,W,1,10,1.8,18,M,,M,,*66
06/21/2015	03:00:27.599	$GPGGA,030028,2444.7943,N,08044.2634,W,1,10,1.8,18,M,,M,,*6C
06/21/2015	03:00:28.568	$GPGGA,030029,2444.7932,N,08044.2655,W,1,10,1.8,18,M,,M,,*6C
06/21/2015	03:00:29.579	$GPGGA,030030,2444.7921,N,08044.2677,W,1,10,1.8,18,M,,M,,*66
06/21/2015	03:00:30.579	$GPGGA,030031,2444.7910,N,08044.2696,W,1,10,1.8,18,M,,M,,*6A
06/21/2015	03:00:31.629	$GPGGA,030032,2444.7898,N,08044.2717,W,1,10,1.8,18,M,,M,,*60
06/21/2015	03:00:32.569	$GPGGA,030033,2444.7888,N,08044.2738,W,1,10,1.8,18,M,,M,,*6D
06/21/2015	03:00:33.558	$GPGGA,030034,2444.7878,N,08044.2760,W,1,10,1.8,18,M,,M,,*68
06/21/2015	03:00:34.558	$GPGGA,030035,2444.7867,N,08044.2780,W,1,10,1.9,18,M,,M,,*68
06/21/2015	03:00:35.588	$GPGGA,030036,2444.7857,N,08044.2800,W,1,9,1.9,18,M,,M,,*57
06/21/2015	03:00:36.565	$GPGGA,030037,2444.7847,N,08044.2822,W,1,9,1.9,18,M,,M,,*57
06/21/2015	03:00:37.569	$GPGGA,030038,2444.7838,N,08044.2843,W,1,9,1.9,18,M,,M,,*57
06/21/2015	03:00:38.553	$GPGGA,030039,2444.7827,N,08044.2865,W,1,9,1.8,18,M,,M,,*5D
06/21/2015	03:00:39.579	$GPGGA,030040,2444.7816,N,08044.2887,W,1,10,1.8,18,M,,M,,*65
06/21/2015	03:00:40.589	$GPGGA,030041,2444.7816,N,08044.2887,W,1,10,1.8,18,M,,M,,*64
06/21/2015	03:00:41.569	$GPGGA,030042,2444.7796,N,08044.2927,W,1,10,1.8,18,M,,M,,*6B
06/21/2015	03:00:42.539	$GPGGA,030043,2444.7796,N,08044.2927,W,1,10,1.8,18,M,,M,,*6A
06/21/2015	03:00:43.579	$GPGGA,030044,2444.7776,N,08044.2967,W,1,10,1.9,18,M,,M,,*66
06/21/2015	03:00:44.829	$GPGGA,030045,2444.7776,N,08044.2967,W,1,10,1.9,18,M,,M,,*67
06/21/2015	03:00:45.539	$GPGGA,030046,2444.7755,N,08044.3009,W,1,9,1.9,18,M,,M,,*5D
06/21/2015	03:00:46.569	$GPGGA,030047,2444.7745,N,08044.3031,W,1,9,1.9,18,M,,M,,*56
06/21/2015	03:00:47.599	$GPGGA,030048,2444.7735,N,08044.3054,W,1,9,1.8,18,M,,M,,*5C
06/21/2015	03:00:48.552	$GPGGA,030049,2444.7726,N,08044.3076,W,1,9,1.8,18,M,,M,,*5F
06/21/2015	03:00:49.529	$GPGGA,030050,2444.7715,N,08044.3097,W,1,10,1.8,18,M,,M,,*60
06/21/2015	03:00:50.528	$GPGGA,030051,2444.7715,N,08044.3097,W,1,10,1.8,18,M,,M,,*61
06/21/2015	03:00:51.538	$GPGGA,030052,2444.7693,N,08044.3140,W,1,10,1.8,18,M,,M,,*66
06/21/2015	03:00:52.568	$GPGGA,030053,2444.7682,N,08044.3161,W,1,10,1.8,18,M,,M,,*64
06/21/2015	03:00:53.518	$GPGGA,030054,2444.7672,N,08044.3183,W,1,10,1.8,18,M,,M,,*60
06/21/2015	03:00:54.520	$GPGGA,030055,2444.7672,N,08044.3183,W,1,10,1.8,18,M,,M,,*61
06/21/2015	03:00:55.539	$GPGGA,030056,2444.7650,N,08044.3226,W,1,10,1.8,18,M,,M,,*6E
06/21/2015	03:00:56.599	$GPGGA,030057,2444.7639,N,08044.3245,W,1,10,1.8,18,M,,M,,*65
06/21/2015	03:00:57.529	$GPGGA,030058,2444.7628,N,08044.3266,W,1,10,1.8,18,M,,M,,*6B
06/21/2015	03:00:58.550	$GPGGA,030059,2444.7628,N,08044.3266,W,1,10,1.8,18,M,,M,,*6A
06/21/2015	03:00:59.639	$GPGGA,030100,2444.7607,N,08044.3307,W,1,10,1.8,18,M,,M,,*6C
06/21/2015	03:01:00.529	$GPGGA,030101,2444.7607,N,08044.3307,W,1,10,1.8,18,M,,M,,*6D
06/21/2015	03:01:01.599	$GPGGA,030102,2444.7585,N,08044.3350,W,1,10,1.8,18,M,,M,,*65
06/21/2015	03:01:02.556	$GPGGA,030103,2444.7585,N,08044.3350,W,1,10,1.8,18,M,,M,,*64
06/21/2015	03:01:03.599	$GPGGA,030104,2444.7563,N,08044.3392,W,1,10,1.8,18,M,,M,,*65
06/21/2015	03:01:04.599	$GPGGA,030105,2444.7552,N,08044.3414,W,1,10,1.8,18,M,,M,,*6F
06/21/2015	03:01:05.599	$GPGGA,030106,2444.7542,N,08044.3434,W,1,10,1.8,18,M,,M,,*6F
06/21/2015	03:01:06.589	$GPGGA,030107,2444.7532,N,08044.3455,W,1,10,1.8,18,M,,M,,*6E
06/21/2015	03:01:07.599	$GPGGA,030108,2444.7522,N,08044.3475,W,1,10,1.8,18,M,,M,,*62
06/21/2015	03:01:08.598	$GPGGA,030109,2444.7513,N,08044.3495,W,1,10,1.8,18,M,,M,,*6F
06/21/2015	03:01:09.588	$GPGGA,030110,2444.7502,N,08044.3517,W,1,10,1.8,18,M,,M,,*6C
06/21/2015	03:01:10.578	$GPGGA,030111,2444.7491,N,08044.3538,W,1,10,1.8,18,M,,M,,*6B
06/21/2015	03:01:11.589	$GPGGA,030112,2444.7480,N,08044.3560,W,1,10,1.8,18,M,,M,,*65
06/21/2015	03:01:12.579	$GPGGA,030113,2444.7470,N,08044.3581,W,1,10,1.8,18,M,,M,,*64
06/21/2015	03:01:13.579	$GPGGA,030114,2444.7459,N,08044.3602,W,1,10,1.8,18,M,,M,,*60
06/21/2015	03:01:14.569	$GPGGA,030115,2444.7450,N,08044.3624,W,1,10,1.9,18,M,,M,,*6D
06/21/2015	03:01:15.609	$GPGGA,030116,2444.7439,N,08044.3646,W,1,9,1.9,18,M,,M,,*5D
06/21/2015	03:01:16.569	$GPGGA,030117,2444.7428,N,08044.3668,W,1,9,1.8,18,M,,M,,*51
06/21/2015	03:01:17.569	$GPGGA,030118,2444.7419,N,08044.3690,W,1,10,1.8,18,M,,M,,*63
06/21/2015	03:01:18.569	$GPGGA,030119,2444.7408,N,08044.3712,W,1,10,1.8,18,M,,M,,*69
06/21/2015	03:01:19.599	$GPGGA,030120,2444.7397,N,08044.3733,W,1,10,1.8,18,M,,M,,*61
06/21/2015	03:01:20.579	$GPGGA,030121,2444.7387,N,08044.3754,W,1,10,1.8,18,M,,M,,*60
06/21/2015	03:01:21.579	$GPGGA,030122,2444.7376,N,08044.3775,W,1,10,1.8,18,M,,M,,*6E
06/21/2015	03:01:22.579	$GPGGA,030123,2444.7365,N,08044.3797,W,1,10,1.8,18,M,,M,,*61
06/21/2015	03:01:23.569	$GPGGA,030124,2444.7354,N,08044.3819,W,1,10,1.8,18,M,,M,,*6D
06/21/2015	03:01:24.558	$GPGGA,030125,2444.7343,N,08044.3840,W,1,10,1.8,18,M,,M,,*66
06/21/2015	03:01:25.568	$GPGGA,030126,2444.7333,N,08044.3862,W,1,10,1.8,18,M,,M,,*62
06/21/2015	03:01:26.549	$GPGGA,030127,2444.7322,N,08044.3881,W,1,10,2.1,18,M,,M,,*64
06/21/2015	03:01:27.578	$GPGGA,030128,2444.7311,N,08044.3902,W,1,9,2.1,18,M,,M,,*59
06/21/2015	03:01:28.538	$GPGGA,030129,2444.7300,N,08044.3923,W,1,9,1.8,18,M,,M,,*51
06/21/2015	03:01:29.549	$GPGGA,030130,2444.7291,N,08044.3941,W,1,9,2.1,18,M,,M,,*5E
06/21/2015	03:01:30.549	$GPGGA,030131,2444.7278,N,08044.3963,W,1,9,3.5,18,M,,M,,*5D
06/21/2015	03:01:31.551	$GPGGA,030132,2444.7267,N,08044.3985,W,1,9,1.9,18,M,,M,,*56
06/21/2015	03:01:32.529	$GPGGA,030133,2444.7255,N,08044.4006,W,1,9,1.8,18,M,,M,,*52
06/21/2015	03:01:33.539	$GPGGA,030134,2444.7243,N,08044.4026,W,1,10,1.8,18,M,,M,,*68
06/21/2015	03:01:34.539	$GPGGA,030135,2444.7232,N,08044.4047,W,1,10,1.8,19,M,,M,,*69
06/21/2015	03:01:35.552	$GPGGA,030136,2444.7221,N,08044.4068,W,1,10,1.8,19,M,,M,,*65
06/21/2015	03:01:36.529	$GPGGA,030137,2444.7209,N,08044.4090,W,1,10,2.1,19,M,,M,,*63
06/21/2015	03:01:37.529	$GPGGA,030138,2444.7198,N,08044.4109,W,1,10,1.8,19,M,,M,,*6C
06/21/2015	03:01:38.539	$GPGGA,030139,2444.7186,N,08044.4130,W,1,10,2.1,19,M,,M,,*62
06/21/2015	03:01:39.556	$GPGGA,030140,2444.7174,N,08044.4151,W,1,10,1.8,19,M,,M,,*6C
06/21/2015	03:01:40.529	$GPGGA,030141,2444.7162,N,08044.4173,W,1,10,1.8,19,M,,M,,*6A
06/21/2015	03:01:41.551	$GPGGA,030142,2444.7151,N,08044.4192,W,1,10,1.8,19,M,,M,,*66
06/21/2015	03:01:42.529	$GPGGA,030143,2444.7141,N,08044.4213,W,1,10,1.8,19,M,,M,,*6C
06/21/2015	03:01:43.618	$GPGGA,030144,2444.7128,N,08044.4234,W,1,10,1.8,19,M,,M,,*61
06/21/2015	03:01:44.529	$GPGGA,030145,2444.7117,N,08044.4253,W,1,10,1.8,19,M,,M,,*6D
06/21/2015	03:01:46.564	$GPGGA,030147,2444.7095,N,08044.4296,W,1,10,1.8,19,M,,M,,*6D
06/21/2015	03:01:47.519	$GPGGA,030148,2444.7084,N,08044.4317,W,1,10,1.8,20,M,,M,,*60
06/21/2015	03:01:48.600	$GPGGA,030149,2444.7073,N,08044.4337,W,1,10,1.8,20,M,,M,,*6B
06/21/2015	03:01:49.599	$GPGGA,030150,2444.7063,N,08044.4358,W,1,10,1.8,20,M,,M,,*6B
06/21/2015	03:01:50.519	$GPGGA,030151,2444.7052,N,08044.4379,W,1,10,1.8,20,M,,M,,*6B
06/21/2015	03:01:51.519	$GPGGA,030152,2444.7041,N,08044.4400,W,1,10,1.8,20,M,,M,,*63
06/21/2015	03:01:52.589	$GPGGA,030153,2444.7030,N,08044.4420,W,1,10,1.8,20,M,,M,,*66
06/21/2015	03:01:53.499	$GPGGA,030154,2444.7019,N,08044.4440,W,1,10,1.8,20,M,,M,,*6C
06/21/2015	03:01:54.599	$GPGGA,030155,2444.7008,N,08044.4460,W,1,10,1.8,20,M,,M,,*6F
06/21/2015	03:01:55.599	$GPGGA,030156,2444.6998,N,08044.4480,W,1,10,1.8,20,M,,M,,*63
06/21/2015	03:01:56.589	$GPGGA,030157,2444.6987,N,08044.4501,W,1,10,1.9,20,M,,M,,*65
06/21/2015	03:01:57.609	$GPGGA,030158,2444.6978,N,08044.4521,W,1,9,1.9,20,M,,M,,*50
06/21/2015	03:01:58.589	$GPGGA,030159,2444.6965,N,08044.4541,W,1,9,1.8,19,M,,M,,*50
06/21/2015	03:01:59.639	$GPGGA,030200,2444.6955,N,08044.4563,W,1,10,1.8,19,M,,M,,*64
06/21/2015	03:02:00.588	$GPGGA,030201,2444.6945,N,08044.4585,W,1,10,1.8,19,M,,M,,*6C
06/21/2015	03:02:01.588	$GPGGA,030202,2444.6935,N,08044.4606,W,1,9,1.9,19,M,,M,,*59
06/21/2015	03:02:02.578	$GPGGA,030203,2444.6924,N,08044.4626,W,1,9,1.9,19,M,,M,,*5A
06/21/2015	03:02:03.589	$GPGGA,030204,2444.6913,N,08044.4647,W,1,10,1.8,19,M,,M,,*67
06/21/2015	03:02:04.579	$GPGGA,030205,2444.6902,N,08044.4668,W,1,10,1.8,19,M,,M,,*6B
06/21/2015	03:02:05.569	$GPGGA,030206,2444.6892,N,08044.4690,W,1,9,1.9,19,M,,M,,*5E
06/21/2015	03:02:06.569	$GPGGA,030207,2444.6880,N,08044.4714,W,1,9,1.8,19,M,,M,,*50
06/21/2015	03:02:07.609	$GPGGA,030208,2444.6871,N,08044.4736,W,1,10,1.8,19,M,,M,,*69
06/21/2015	03:02:08.579	$GPGGA,030209,2444.6861,N,08044.4756,W,1,10,1.8,19,M,,M,,*6F
06/21/2015	03:02:09.579	$GPGGA,030210,2444.6852,N,08044.4777,W,1,9,1.9,19,M,,M,,*5D
06/21/2015	03:02:10.563	$GPGGA,030211,2444.6842,N,08044.4799,W,1,9,1.9,19,M,,M,,*5D
06/21/2015	03:02:11.609	$GPGGA,030212,2444.6833,N,08044.4820,W,1,9,1.9,19,M,,M,,*55
06/21/2015	03:02:12.569	$GPGGA,030213,2444.6824,N,08044.4841,W,1,9,1.9,19,M,,M,,*55
06/21/2015	03:02:13.579	$GPGGA,030214,2444.6815,N,08044.4863,W,1,9,1.9,19,M,,M,,*50
06/21/2015	03:02:14.550	$GPGGA,030215,2444.6806,N,08044.4884,W,1,9,1.9,19,M,,M,,*5A
06/21/2015	03:02:15.599	$GPGGA,030216,2444.6796,N,08044.4906,W,1,9,1.9,19,M,,M,,*54
06/21/2015	03:02:16.552	$GPGGA,030217,2444.6786,N,08044.4926,W,1,9,2.0,19,M,,M,,*5C
06/21/2015	03:02:17.539	$GPGGA,030218,2444.6777,N,08044.4947,W,1,10,1.8,19,M,,M,,*69
06/21/2015	03:02:18.559	$GPGGA,030219,2444.6767,N,08044.4968,W,1,10,1.8,19,M,,M,,*64
06/21/2015	03:02:19.560	$GPGGA,030220,2444.6758,N,08044.4990,W,1,10,1.8,19,M,,M,,*65
06/21/2015	03:02:20.538	$GPGGA,030221,2444.6747,N,08044.5011,W,1,10,1.8,19,M,,M,,*6B
06/21/2015	03:02:21.559	$GPGGA,030222,2444.6737,N,08044.5033,W,1,10,1.8,19,M,,M,,*6F
06/21/2015	03:02:22.552	$GPGGA,030223,2444.6727,N,08044.5052,W,1,10,1.8,19,M,,M,,*68
06/21/2015	03:02:23.569	$GPGGA,030224,2444.6718,N,08044.5072,W,1,10,1.8,19,M,,M,,*61
06/21/2015	03:02:24.530	$GPGGA,030225,2444.6708,N,08044.5092,W,1,10,1.8,19,M,,M,,*6F
06/21/2015	03:02:25.550	$GPGGA,030226,2444.6698,N,08044.5112,W,1,10,1.8,19,M,,M,,*6D
06/21/2015	03:02:26.539	$GPGGA,030227,2444.6687,N,08044.5133,W,1,10,1.9,19,M,,M,,*60
06/21/2015	03:02:27.569	$GPGGA,030228,2444.6678,N,08044.5153,W,1,10,1.8,19,M,,M,,*68
06/21/2015	03:02:28.639	$GPGGA,030229,2444.6666,N,08044.5173,W,1,10,1.8,19,M,,M,,*64
06/21/2015	03:02:29.551	$GPGGA,030230,2444.6656,N,08044.5195,W,1,10,1.8,19,M,,M,,*67
06/21/2015	03:02:30.519	$GPGGA,030231,2444.6646,N,08044.5217,W,1,10,1.8,19,M,,M,,*6E
06/21/2015	03:02:31.550	$GPGGA,030232,2444.6635,N,08044.5236,W,1,10,1.8,19,M,,M,,*6A
06/21/2015	03:02:32.509	$GPGGA,030233,2444.6624,N,08044.5257,W,1,10,1.8,19,M,,M,,*6C
06/21/2015	03:02:33.650	$GPGGA,030234,2444.6613,N,08044.5278,W,1,10,1.8,19,M,,M,,*62
06/21/2015	03:02:34.609	$GPGGA,030235,2444.6602,N,08044.5297,W,1,10,1.8,19,M,,M,,*62
06/21/2015	03:02:35.618	$GPGGA,030236,2444.6591,N,08044.5318,W,1,10,1.8,19,M,,M,,*6E
06/21/2015	03:02:36.528	$GPGGA,030237,2444.6581,N,08044.5340,W,1,10,1.8,19,M,,M,,*63
06/21/2015	03:02:37.618	$GPGGA,030238,2444.6568,N,08044.5361,W,1,10,1.8,19,M,,M,,*68
06/21/2015	03:02:38.518	$GPGGA,030239,2444.6557,N,08044.5381,W,1,10,1.8,19,M,,M,,*6B
06/21/2015	03:02:39.609	$GPGGA,030240,2444.6545,N,08044.5402,W,1,10,1.8,19,M,,M,,*6A
06/21/2015	03:02:40.519	$GPGGA,030241,2444.6534,N,08044.5423,W,1,10,1.8,19,M,,M,,*6E
06/21/2015	03:02:41.639	$GPGGA,030242,2444.6523,N,08044.5444,W,1,10,1.8,19,M,,M,,*6A
06/21/2015	03:02:42.519	$GPGGA,030243,2444.6512,N,08044.5463,W,1,10,1.9,19,M,,M,,*6D
06/21/2015	03:02:43.650	$GPGGA,030244,2444.6502,N,08044.5484,W,1,9,2.1,19,M,,M,,*51
06/21/2015	03:02:44.589	$GPGGA,030245,2444.6491,N,08044.5504,W,1,9,1.8,19,M,,M,,*58
06/21/2015	03:02:45.499	$GPGGA,030246,2444.6481,N,08044.5524,W,1,10,1.8,18,M,,M,,*61
06/21/2015	03:02:46.489	$GPGGA,030247,2444.6470,N,08044.5546,W,1,10,1.8,18,M,,M,,*6A
06/21/2015	03:02:47.939	$GPGGA,030248,2444.6460,N,08044.5567,W,1,9,1.9,18,M,,M,,*5E
06/21/2015	03:02:48.589	$GPGGA,030249,2444.6448,N,08044.5587,W,1,9,1.9,18,M,,M,,*5B
06/21/2015	03:02:49.489	$GPGGA,030250,2444.6438,N,08044.5610,W,1,9,1.9,18,M,,M,,*59
06/21/2015	03:02:50.579	$GPGGA,030251,2444.6426,N,08044.5632,W,1,9,1.9,18,M,,M,,*57
06/21/2015	03:02:51.619	$GPGGA,030252,2444.6415,N,08044.5654,W,1,10,1.8,18,M,,M,,*6D
06/21/2015	03:02:52.589	$GPGGA,030253,2444.6404,N,08044.5675,W,1,10,1.8,18,M,,M,,*6F
06/21/2015	03:02:53.568	$GPGGA,030254,2444.6393,N,08044.5697,W,1,10,1.8,18,M,,M,,*6D
06/21/2015	03:02:54.578	$GPGGA,030255,2444.6382,N,08044.5717,W,1,10,1.8,18,M,,M,,*65
06/21/2015	03:02:55.588	$GPGGA,030256,2444.6371,N,08044.5738,W,1,9,2.1,18,M,,M,,*55
06/21/2015	03:02:56.570	$GPGGA,030257,2444.6360,N,08044.5760,W,1,9,2.1,19,M,,M,,*58
06/21/2015	03:02:57.563	$GPGGA,030258,2444.6349,N,08044.5781,W,1,10,1.8,19,M,,M,,*61
06/21/2015	03:02:58.579	$GPGGA,030259,2444.6339,N,08044.5803,W,1,10,1.8,19,M,,M,,*62
06/21/2015	03:02:59.619	$GPGGA,030300,2444.6328,N,08044.5825,W,1,9,1.9,19,M,,M,,*52
06/21/2015	03:03:00.563	$GPGGA,030301,2444.6317,N,08044.5847,W,1,9,1.8,19,M,,M,,*5A
06/21/2015	03:03:01.589	$GPGGA,030302,2444.6307,N,08044.5870,W,1,10,1.8,19,M,,M,,*64
06/21/2015	03:03:02.567	$GPGGA,030303,2444.6296,N,08044.5890,W,1,10,1.8,20,M,,M,,*68
06/21/2015	03:03:03.589	$GPGGA,030304,2444.6285,N,08044.5910,W,1,9,1.9,20,M,,M,,*5D
06/21/2015	03:03:04.564	$GPGGA,030305,2444.6275,N,08044.5932,W,1,9,1.8,20,M,,M,,*52
06/21/2015	03:03:05.579	$GPGGA,030306,2444.6265,N,08044.5951,W,1,10,1.8,20,M,,M,,*6D
06/21/2015	03:03:06.563	$GPGGA,030307,2444.6255,N,08044.5972,W,1,10,1.8,20,M,,M,,*6E
06/21/2015	03:03:07.569	$GPGGA,030308,2444.6245,N,08044.5994,W,1,10,1.8,20,M,,M,,*68
06/21/2015	03:03:08.548	$GPGGA,030309,2444.6235,N,08044.6015,W,1,10,1.8,20,M,,M,,*6D
06/21/2015	03:03:09.559	$GPGGA,030310,2444.6225,N,08044.6037,W,1,9,1.8,21,M,,M,,*5D
06/21/2015	03:03:10.528	$GPGGA,030311,2444.6214,N,08044.6056,W,1,9,1.9,21,M,,M,,*58
06/21/2015	03:03:11.578	$GPGGA,030312,2444.6205,N,08044.6077,W,1,10,1.8,21,M,,M,,*61
06/21/2015	03:03:12.551	$GPGGA,030313,2444.6194,N,08044.6098,W,1,10,1.8,21,M,,M,,*6A
06/21/2015	03:03:13.538	$GPGGA,030314,2444.6184,N,08044.6117,W,1,10,1.8,21,M,,M,,*6A
06/21/2015	03:03:14.528	$GPGGA,030315,2444.6176,N,08044.6138,W,1,10,1.8,21,M,,M,,*6B
06/21/2015	03:03:15.528	$GPGGA,030316,2444.6165,N,08044.6158,W,1,10,1.8,21,M,,M,,*6C
06/21/2015	03:03:16.528	$GPGGA,030317,2444.6155,N,08044.6178,W,1,10,1.8,21,M,,M,,*6C
06/21/2015	03:03:17.551	$GPGGA,030318,2444.6147,N,08044.6199,W,1,9,2.1,21,M,,M,,*5D
06/21/2015	03:03:18.528	$GPGGA,030319,2444.6135,N,08044.6221,W,1,9,1.8,21,M,,M,,*53
06/21/2015	03:03:19.653	$GPGGA,030320,2444.6123,N,08044.6240,W,1,9,1.9,21,M,,M,,*58
06/21/2015	03:03:20.528	$GPGGA,030321,2444.6113,N,08044.6259,W,1,9,1.8,21,M,,M,,*53
06/21/2015	03:03:21.508	$GPGGA,030322,2444.6104,N,08044.6279,W,1,10,1.8,21,M,,M,,*6C
06/21/2015	03:03:22.528	$GPGGA,030323,2444.6093,N,08044.6301,W,1,10,2.1,21,M,,M,,*66
06/21/2015	03:03:23.642	$GPGGA,030324,2444.6082,N,08044.6322,W,1,10,1.8,21,M,,M,,*6A
06/21/2015	03:03:24.519	$GPGGA,030325,2444.6071,N,08044.6341,W,1,10,1.8,21,M,,M,,*62
06/21/2015	03:03:25.629	$GPGGA,030326,2444.6060,N,08044.6362,W,1,9,1.9,21,M,,M,,*59
06/21/2015	03:03:26.509	$GPGGA,030327,2444.6050,N,08044.6381,W,1,9,1.8,21,M,,M,,*57
06/21/2015	03:03:27.519	$GPGGA,030328,2444.6039,N,08044.6402,W,1,10,1.8,21,M,,M,,*63
06/21/2015	03:03:28.498	$GPGGA,030329,2444.6030,N,08044.6420,W,1,10,2.1,20,M,,M,,*60
06/21/2015	03:03:29.488	$GPGGA,030330,2444.6017,N,08044.6441,W,1,9,1.9,20,M,,M,,*59
06/21/2015	03:03:30.498	$GPGGA,030331,2444.6005,N,08044.6463,W,1,9,1.8,20,M,,M,,*5A
06/21/2015	03:03:31.649	$GPGGA,030332,2444.5992,N,08044.6485,W,1,10,1.8,20,M,,M,,*6D
06/21/2015	03:03:32.498	$GPGGA,030333,2444.5981,N,08044.6507,W,1,10,1.8,20,M,,M,,*65
06/21/2015	03:03:33.608	$GPGGA,030334,2444.5968,N,08044.6529,W,1,10,1.8,20,M,,M,,*69
06/21/2015	03:03:34.588	$GPGGA,030335,2444.5956,N,08044.6550,W,1,10,1.8,20,M,,M,,*6B
06/21/2015	03:03:35.608	$GPGGA,030336,2444.5945,N,08044.6572,W,1,10,1.8,21,M,,M,,*6B
06/21/2015	03:03:36.588	$GPGGA,030337,2444.5934,N,08044.6593,W,1,10,1.8,21,M,,M,,*63
06/21/2015	03:03:37.578	$GPGGA,030338,2444.5923,N,08044.6613,W,1,10,1.8,21,M,,M,,*61
06/21/2015	03:03:40.108	$GPGGA,030340,2444.5900,N,08044.6655,W,1,10,1.8,21,M,,M,,*6D
06/21/2015	03:03:40.578	$GPGGA,030341,2444.5888,N,08044.6676,W,1,10,1.8,21,M,,M,,*6C
06/21/2015	03:03:41.579	$GPGGA,030342,2444.5878,N,08044.6696,W,1,10,1.8,21,M,,M,,*6E
06/21/2015	03:03:42.579	$GPGGA,030343,2444.5867,N,08044.6719,W,1,10,1.8,21,M,,M,,*67
06/21/2015	03:03:43.609	$GPGGA,030344,2444.5856,N,08044.6741,W,1,10,1.8,21,M,,M,,*6F
06/21/2015	03:03:44.579	$GPGGA,030345,2444.5845,N,08044.6763,W,1,10,1.8,22,M,,M,,*6F
06/21/2015	03:03:45.558	$GPGGA,030346,2444.5834,N,08044.6783,W,1,10,1.8,22,M,,M,,*64
06/21/2015	03:03:46.568	$GPGGA,030347,2444.5824,N,08044.6804,W,1,10,1.8,22,M,,M,,*64
06/21/2015	03:03:47.598	$GPGGA,030348,2444.5815,N,08044.6825,W,1,9,2.1,22,M,,M,,*58
06/21/2015	03:03:48.558	$GPGGA,030349,2444.5804,N,08044.6846,W,1,9,1.8,22,M,,M,,*56
06/21/2015	03:03:49.558	$GPGGA,030350,2444.5793,N,08044.6865,W,1,10,1.8,22,M,,M,,*66
06/21/2015	03:03:50.558	$GPGGA,030351,2444.5783,N,08044.6886,W,1,10,1.9,22,M,,M,,*6A
06/21/2015	03:03:51.588	$GPGGA,030352,2444.5773,N,08044.6907,W,1,9,1.9,22,M,,M,,*56
06/21/2015	03:03:52.549	$GPGGA,030353,2444.5764,N,08044.6927,W,1,9,1.8,22,M,,M,,*52
06/21/2015	03:03:53.568	$GPGGA,030354,2444.5753,N,08044.6948,W,1,10,1.8,22,M,,M,,*60
06/21/2015	03:03:54.549	$GPGGA,030355,2444.5742,N,08044.6969,W,1,10,1.8,22,M,,M,,*62
06/21/2015	03:03:55.588	$GPGGA,030356,2444.5732,N,08044.6991,W,1,9,1.9,22,M,,M,,*58
06/21/2015	03:03:56.550	$GPGGA,030357,2444.5721,N,08044.7010,W,1,9,1.8,22,M,,M,,*5B
06/21/2015	03:03:57.542	$GPGGA,030358,2444.5711,N,08044.7031,W,1,10,1.8,22,M,,M,,*6C
06/21/2015	03:03:58.539	$GPGGA,030359,2444.5700,N,08044.7052,W,1,10,1.9,22,M,,M,,*69
06/21/2015	03:03:59.559	$GPGGA,030400,2444.5690,N,08044.7072,W,1,9,1.9,22,M,,M,,*50
06/21/2015	03:04:00.551	$GPGGA,030401,2444.5679,N,08044.7093,W,1,9,1.7,22,M,,M,,*57
06/21/2015	03:04:01.529	$GPGGA,030402,2444.5669,N,08044.7114,W,1,9,1.9,21,M,,M,,*56
06/21/2015	03:04:02.542	$GPGGA,030403,2444.5658,N,08044.7135,W,1,9,1.9,21,M,,M,,*56
06/21/2015	03:04:03.668	$GPGGA,030404,2444.5648,N,08044.7157,W,1,10,1.7,21,M,,M,,*62
06/21/2015	03:04:04.550	$GPGGA,030405,2444.5638,N,08044.7176,W,1,10,1.7,21,M,,M,,*67
06/21/2015	03:04:05.518	$GPGGA,030406,2444.5627,N,08044.7198,W,1,10,1.7,21,M,,M,,*6A
06/21/2015	03:04:06.518	$GPGGA,030407,2444.5616,N,08044.7219,W,1,10,1.7,21,M,,M,,*63
06/21/2015	03:04:07.542	$GPGGA,030408,2444.5606,N,08044.7241,W,1,10,1.7,21,M,,M,,*60
06/21/2015	03:04:08.618	$GPGGA,030409,2444.5595,N,08044.7262,W,1,10,1.7,21,M,,M,,*69
06/21/2015	03:04:09.518	$GPGGA,030410,2444.5585,N,08044.7284,W,1,10,1.7,21,M,,M,,*68
06/21/2015	03:04:10.518	$GPGGA,030411,2444.5574,N,08044.7305,W,1,10,1.7,21,M,,M,,*6F
06/21/2015	03:04:11.568	$GPGGA,030412,2444.5563,N,08044.7326,W,1,9,2.1,21,M,,M,,*56
06/21/2015	03:04:12.518	$GPGGA,030413,2444.5553,N,08044.7346,W,1,9,1.9,21,M,,M,,*59
06/21/2015	03:04:13.628	$GPGGA,030414,2444.5544,N,08044.7367,W,1,8,1.9,21,M,,M,,*5A
06/21/2015	03:04:14.528	$GPGGA,030415,2444.5531,N,08044.7388,W,1,8,1.9,21,M,,M,,*58
06/21/2015	03:04:15.678	$GPGGA,030416,2444.5522,N,08044.7407,W,1,8,1.7,21,M,,M,,*57
06/21/2015	03:04:16.549	$GPGGA,030417,2444.5512,N,08044.7428,W,1,8,1.7,21,M,,M,,*58
06/21/2015	03:04:17.630	$GPGGA,030418,2444.5502,N,08044.7450,W,1,9,1.7,21,M,,M,,*58
06/21/2015	03:04:18.619	$GPGGA,030419,2444.5492,N,08044.7471,W,1,9,1.9,21,M,,M,,*5C
06/21/2015	03:04:19.619	$GPGGA,030420,2444.5482,N,08044.7493,W,1,9,1.7,21,M,,M,,*55
06/21/2015	03:04:20.608	$GPGGA,030421,2444.5472,N,08044.7514,W,1,9,2.0,21,M,,M,,*51
06/21/2015	03:04:21.608	$GPGGA,030422,2444.5462,N,08044.7536,W,1,8,2.0,21,M,,M,,*52
06/21/2015	03:04:22.598	$GPGGA,030423,2444.5451,N,08044.7558,W,1,8,2.0,21,M,,M,,*5B
06/21/2015	03:04:23.498	$GPGGA,030424,2444.5441,N,08044.7577,W,1,8,2.0,21,M,,M,,*50
06/21/2015	03:04:24.588	$GPGGA,030425,2444.5432,N,08044.7599,W,1,8,1.7,21,M,,M,,*51
06/21/2015	03:04:25.608	$GPGGA,030426,2444.5422,N,08044.7620,W,1,10,1.9,22,M,,M,,*66
06/21/2015	03:04:26.498	$GPGGA,030427,2444.5412,N,08044.7641,W,1,10,1.9,22,M,,M,,*63
06/21/2015	03:04:27.646	$GPGGA,030428,2444.5401,N,08044.7662,W,1,9,1.7,22,M,,M,,*59
06/21/2015	03:04:28.588	$GPGGA,030429,2444.5390,N,08044.7684,W,1,9,1.7,22,M,,M,,*5F
06/21/2015	03:04:29.588	$GPGGA,030430,2444.5380,N,08044.7704,W,1,10,1.7,22,M,,M,,*67
06/21/2015	03:04:30.588	$GPGGA,030431,2444.5369,N,08044.7727,W,1,10,1.7,22,M,,M,,*60
06/21/2015	03:04:31.628	$GPGGA,030432,2444.5358,N,08044.7747,W,1,10,1.7,22,M,,M,,*67
06/21/2015	03:04:32.568	$GPGGA,030433,2444.5347,N,08044.7768,W,1,10,1.7,22,M,,M,,*65
06/21/2015	03:04:33.588	$GPGGA,030434,2444.5336,N,08044.7789,W,1,10,1.7,22,M,,M,,*6B
06/21/2015	03:04:34.559	$GPGGA,030435,2444.5325,N,08044.7811,W,1,10,1.7,22,M,,M,,*66
06/21/2015	03:04:35.609	$GPGGA,030436,2444.5313,N,08044.7830,W,1,10,1.7,22,M,,M,,*63
06/21/2015	03:04:36.569	$GPGGA,030437,2444.5303,N,08044.7851,W,1,10,1.7,22,M,,M,,*64
06/21/2015	03:04:37.598	$GPGGA,030438,2444.5292,N,08044.7872,W,1,10,1.7,22,M,,M,,*63
06/21/2015	03:04:38.558	$GPGGA,030439,2444.5281,N,08044.7894,W,1,10,1.7,22,M,,M,,*68
06/21/2015	03:04:39.628	$GPGGA,030440,2444.5270,N,08044.7913,W,1,10,1.7,22,M,,M,,*66
06/21/2015	03:04:40.568	$GPGGA,030441,2444.5259,N,08044.7934,W,1,10,1.7,22,M,,M,,*69
06/21/2015	03:04:41.554	$GPGGA,030442,2444.5247,N,08044.7955,W,1,10,1.9,22,M,,M,,*6C
06/21/2015	03:04:42.558	$GPGGA,030443,2444.5237,N,08044.7973,W,1,10,3.6,22,M,,M,,*63
06/21/2015	03:04:43.588	$GPGGA,030444,2444.5224,N,08044.7995,W,1,8,1.9,22,M,,M,,*5A
06/21/2015	03:04:44.558	$GPGGA,030445,2444.5213,N,08044.8016,W,1,8,1.7,22,M,,M,,*5C
06/21/2015	03:04:45.569	$GPGGA,030446,2444.5202,N,08044.8036,W,1,10,1.7,22,M,,M,,*64
06/21/2015	03:04:46.558	$GPGGA,030447,2444.5191,N,08044.8058,W,1,10,1.7,22,M,,M,,*64
06/21/2015	03:04:47.568	$GPGGA,030448,2444.5180,N,08044.8079,W,1,10,1.7,22,M,,M,,*68
06/21/2015	03:04:48.548	$GPGGA,030449,2444.5170,N,08044.8100,W,1,10,1.7,22,M,,M,,*69
06/21/2015	03:04:49.568	$GPGGA,030450,2444.5158,N,08044.8121,W,1,10,1.7,22,M,,M,,*68
06/21/2015	03:04:50.558	$GPGGA,030451,2444.5148,N,08044.8143,W,1,10,1.7,22,M,,M,,*6C
06/21/2015	03:04:51.579	$GPGGA,030452,2444.5137,N,08044.8163,W,1,10,1.7,22,M,,M,,*65
06/21/2015	03:04:52.569	$GPGGA,030453,2444.5125,N,08044.8184,W,1,10,1.7,22,M,,M,,*6E
06/21/2015	03:04:53.529	$GPGGA,030454,2444.5114,N,08044.8205,W,1,10,1.7,22,M,,M,,*61
06/21/2015	03:04:54.542	$GPGGA,030455,2444.5104,N,08044.8226,W,1,10,1.9,22,M,,M,,*6E
06/21/2015	03:04:55.568	$GPGGA,030456,2444.5093,N,08044.8246,W,1,9,1.7,22,M,,M,,*52
06/21/2015	03:04:56.618	$GPGGA,030457,2444.5082,N,08044.8267,W,1,9,1.7,22,M,,M,,*50
06/21/2015	03:04:57.548	$GPGGA,030458,2444.5072,N,08044.8289,W,1,10,1.7,22,M,,M,,*68
06/21/2015	03:04:58.528	$GPGGA,030459,2444.5061,N,08044.8310,W,1,10,1.8,22,M,,M,,*65
06/21/2015	03:04:59.650	$GPGGA,030500,2444.5051,N,08044.8332,W,1,9,1.8,21,M,,M,,*50
06/21/2015	03:05:00.540	$GPGGA,030501,2444.5042,N,08044.8352,W,1,9,1.7,21,M,,M,,*5A
06/21/2015	03:05:01.528	$GPGGA,030502,2444.5031,N,08044.8374,W,1,10,1.9,21,M,,M,,*6F
06/21/2015	03:05:02.539	$GPGGA,030503,2444.5022,N,08044.8396,W,1,10,1.7,21,M,,M,,*6E
06/21/2015	03:05:03.628	$GPGGA,030504,2444.5011,N,08044.8417,W,1,10,2.0,21,M,,M,,*63
06/21/2015	03:05:04.562	$GPGGA,030505,2444.5002,N,08044.8436,W,1,10,1.7,21,M,,M,,*67
06/21/2015	03:05:05.608	$GPGGA,030506,2444.4992,N,08044.8458,W,1,10,1.7,21,M,,M,,*6D
06/21/2015	03:05:06.518	$GPGGA,030507,2444.4992,N,08044.8458,W,1,10,1.7,21,M,,M,,*6C
06/21/2015	03:05:07.528	$GPGGA,030508,2444.4971,N,08044.8501,W,1,10,1.7,21,M,,M,,*63
06/21/2015	03:05:08.518	$GPGGA,030509,2444.4962,N,08044.8522,W,1,10,1.7,21,M,,M,,*61
06/21/2015	03:05:09.629	$GPGGA,030510,2444.4950,N,08044.8544,W,1,10,1.7,21,M,,M,,*68
06/21/2015	03:05:10.509	$GPGGA,030511,2444.4939,N,08044.8563,W,1,10,1.7,21,M,,M,,*63
06/21/2015	03:05:11.639	$GPGGA,030512,2444.4930,N,08044.8584,W,1,10,1.7,21,M,,M,,*60
06/21/2015	03:05:12.598	$GPGGA,030513,2444.4919,N,08044.8606,W,1,10,1.7,21,M,,M,,*63
06/21/2015	03:05:13.609	$GPGGA,030514,2444.4908,N,08044.8627,W,1,10,1.7,21,M,,M,,*67
06/21/2015	03:05:14.598	$GPGGA,030515,2444.4897,N,08044.8647,W,1,10,1.7,21,M,,M,,*67
06/21/2015	03:05:15.598	$GPGGA,030516,2444.4885,N,08044.8668,W,1,10,1.7,21,M,,M,,*6A
06/21/2015	03:05:16.608	$GPGGA,030517,2444.4875,N,08044.8689,W,1,10,1.7,21,M,,M,,*6B
06/21/2015	03:05:17.608	$GPGGA,030518,2444.4865,N,08044.8710,W,1,10,1.7,21,M,,M,,*64
06/21/2015	03:05:18.578	$GPGGA,030519,2444.4854,N,08044.8730,W,1,10,1.7,21,M,,M,,*65
06/21/2015	03:05:19.628	$GPGGA,030520,2444.4843,N,08044.8751,W,1,10,1.7,21,M,,M,,*6E
06/21/2015	03:05:20.588	$GPGGA,030521,2444.4832,N,08044.8772,W,1,10,1.7,21,M,,M,,*68
06/21/2015	03:05:21.568	$GPGGA,030522,2444.4821,N,08044.8793,W,1,10,1.7,21,M,,M,,*66
06/21/2015	03:05:22.568	$GPGGA,030523,2444.4810,N,08044.8815,W,1,10,1.7,21,M,,M,,*64
06/21/2015	03:05:23.578	$GPGGA,030524,2444.4799,N,08044.8835,W,1,10,1.7,21,M,,M,,*6F
06/21/2015	03:05:24.568	$GPGGA,030525,2444.4789,N,08044.8855,W,1,10,1.9,21,M,,M,,*67
06/21/2015	03:05:25.578	$GPGGA,030526,2444.4778,N,08044.8876,W,1,9,1.9,21,M,,M,,*53
06/21/2015	03:05:26.569	$GPGGA,030527,2444.4768,N,08044.8896,W,1,9,1.8,21,M,,M,,*5C
06/21/2015	03:05:27.609	$GPGGA,030528,2444.4757,N,08044.8916,W,1,8,2.0,21,M,,M,,*5C
06/21/2015	03:05:28.569	$GPGGA,030529,2444.4747,N,08044.8936,W,1,8,1.9,21,M,,M,,*54
06/21/2015	03:05:29.553	$GPGGA,030530,2444.4738,N,08044.8956,W,1,9,1.9,21,M,,M,,*53
06/21/2015	03:05:30.558	$GPGGA,030531,2444.4727,N,08044.8978,W,1,9,1.9,21,M,,M,,*50
06/21/2015	03:05:31.588	$GPGGA,030532,2444.4717,N,08044.8999,W,1,9,1.9,21,M,,M,,*5F
06/21/2015	03:05:32.559	$GPGGA,030533,2444.4706,N,08044.9021,W,1,9,1.7,21,M,,M,,*5B
06/21/2015	03:05:33.852	$GPGGA,030534,2444.4695,N,08044.9042,W,1,10,1.7,21,M,,M,,*6A
06/21/2015	03:05:34.550	$GPGGA,030535,2444.4685,N,08044.9062,W,1,10,1.7,21,M,,M,,*68
06/21/2015	03:05:35.554	$GPGGA,030536,2444.4674,N,08044.9082,W,1,9,1.9,21,M,,M,,*5D
06/21/2015	03:05:36.551	$GPGGA,030537,2444.4663,N,08044.9102,W,1,9,1.7,21,M,,M,,*5D
06/21/2015	03:05:37.544	$GPGGA,030538,2444.4653,N,08044.9124,W,1,10,1.7,20,M,,M,,*6C
06/21/2015	03:05:38.551	$GPGGA,030539,2444.4642,N,08044.9145,W,1,10,1.7,20,M,,M,,*6A
06/21/2015	03:05:39.588	$GPGGA,030540,2444.4631,N,08044.9166,W,1,10,1.7,20,M,,M,,*61
06/21/2015	03:05:40.541	$GPGGA,030541,2444.4620,N,08044.9187,W,1,10,1.7,20,M,,M,,*6F
06/21/2015	03:05:41.542	$GPGGA,030542,2444.4610,N,08044.9209,W,1,10,1.7,20,M,,M,,*6A
06/21/2015	03:05:42.543	$GPGGA,030543,2444.4601,N,08044.9227,W,1,10,2.1,20,M,,M,,*62
06/21/2015	03:05:43.542	$GPGGA,030544,2444.4590,N,08044.9248,W,1,8,3.6,20,M,,M,,*58
06/21/2015	03:05:44.529	$GPGGA,030545,2444.4580,N,08044.9268,W,1,8,1.9,20,M,,M,,*57
06/21/2015	03:05:45.559	$GPGGA,030546,2444.4569,N,08044.9289,W,1,9,1.9,20,M,,M,,*5D
06/21/2015	03:05:46.529	$GPGGA,030547,2444.4558,N,08044.9310,W,1,9,1.9,20,M,,M,,*5F
06/21/2015	03:05:47.568	$GPGGA,030548,2444.4547,N,08044.9332,W,1,10,1.7,20,M,,M,,*68
06/21/2015	03:05:48.518	$GPGGA,030549,2444.4537,N,08044.9354,W,1,10,1.8,20,M,,M,,*61
06/21/2015	03:05:49.528	$GPGGA,030550,2444.4526,N,08044.9375,W,1,9,1.9,20,M,,M,,*53
06/21/2015	03:05:50.509	$GPGGA,030551,2444.4515,N,08044.9397,W,1,9,3.6,20,M,,M,,*53
06/21/2015	03:05:51.528	$GPGGA,030552,2444.4504,N,08044.9419,W,1,9,2.1,20,M,,M,,*57
06/21/2015	03:05:52.508	$GPGGA,030553,2444.4494,N,08044.9440,W,1,9,1.7,20,M,,M,,*57
06/21/2015	03:05:53.628	$GPGGA,030554,2444.4483,N,08044.9460,W,1,9,1.9,20,M,,M,,*5A
06/21/2015	03:05:54.599	$GPGGA,030555,2444.4472,N,08044.9483,W,1,9,1.7,20,M,,M,,*56
06/21/2015	03:05:55.618	$GPGGA,030556,2444.4461,N,08044.9505,W,1,10,1.7,20,M,,M,,*60
06/21/2015	03:05:56.518	$GPGGA,030557,2444.4450,N,08044.9527,W,1,10,1.7,20,M,,M,,*63
06/21/2015	03:05:57.518	$GPGGA,030558,2444.4438,N,08044.9548,W,1,10,1.7,20,M,,M,,*6B
06/21/2015	03:05:58.608	$GPGGA,030559,2444.4427,N,08044.9568,W,1,10,1.9,20,M,,M,,*68
06/21/2015	03:05:59.652	$GPGGA,030600,2444.4417,N,08044.9589,W,1,10,1.7,20,M,,M,,*65
06/21/2015	03:06:00.598	$GPGGA,030601,2444.4406,N,08044.9610,W,1,10,1.7,20,M,,M,,*67
06/21/2015	03:06:01.641	$GPGGA,030602,2444.4395,N,08044.9629,W,1,10,1.7,20,M,,M,,*63
06/21/2015	03:06:02.609	$GPGGA,030603,2444.4384,N,08044.9650,W,1,10,1.7,20,M,,M,,*6C
06/21/2015	03:06:03.599	$GPGGA,030604,2444.4373,N,08044.9671,W,1,9,2.1,20,M,,M,,*5D
06/21/2015	03:06:04.499	$GPGGA,030605,2444.4362,N,08044.9691,W,1,9,1.7,20,M,,M,,*57
06/21/2015	03:06:05.498	$GPGGA,030606,2444.4352,N,08044.9714,W,1,9,1.8,20,M,,M,,*54
06/21/2015	03:06:06.589	$GPGGA,030607,2444.4341,N,08044.9736,W,1,9,2.0,20,M,,M,,*5C
06/21/2015	03:06:07.588	$GPGGA,030608,2444.4330,N,08044.9756,W,1,9,1.8,20,M,,M,,*58
06/21/2015	03:06:08.588	$GPGGA,030609,2444.4319,N,08044.9777,W,1,9,1.9,21,M,,M,,*51
06/21/2015	03:06:10.588	$GPGGA,030611,2444.4298,N,08044.9821,W,1,10,1.7,21,M,,M,,*6A
06/21/2015	03:06:11.588	$GPGGA,030612,2444.4286,N,08044.9841,W,1,10,1.7,21,M,,M,,*60
06/21/2015	03:06:12.568	$GPGGA,030613,2444.4276,N,08044.9863,W,1,10,1.7,21,M,,M,,*6E
06/21/2015	03:06:13.599	$GPGGA,030614,2444.4265,N,08044.9884,W,1,10,1.7,21,M,,M,,*62
06/21/2015	03:06:14.578	$GPGGA,030615,2444.4254,N,08044.9904,W,1,10,2.1,21,M,,M,,*6D
06/21/2015	03:06:15.578	$GPGGA,030616,2444.4244,N,08044.9924,W,1,9,2.1,21,M,,M,,*55
06/21/2015	03:06:16.568	$GPGGA,030617,2444.4234,N,08044.9944,W,1,9,1.7,21,M,,M,,*50
06/21/2015	03:06:17.568	$GPGGA,030618,2444.4225,N,08044.9965,W,1,10,1.7,22,M,,M,,*67
06/21/2015	03:06:18.558	$GPGGA,030619,2444.4213,N,08044.9986,W,1,10,1.7,22,M,,M,,*6E
06/21/2015	03:06:19.579	$GPGGA,030620,2444.4203,N,08045.0007,W,1,9,1.8,22,M,,M,,*5A
06/21/2015	03:06:20.559	$GPGGA,030621,2444.4193,N,08045.0029,W,1,9,1.7,22,M,,M,,*52
06/21/2015	03:06:21.579	$GPGGA,030622,2444.4183,N,08045.0048,W,1,10,1.7,22,M,,M,,*6F
06/21/2015	03:06:22.558	$GPGGA,030623,2444.4172,N,08045.0069,W,1,10,1.7,22,M,,M,,*63
06/21/2015	03:06:23.588	$GPGGA,030624,2444.4161,N,08045.0092,W,1,8,1.9,22,M,,M,,*55
06/21/2015	03:06:24.558	$GPGGA,030625,2444.4150,N,08045.0113,W,1,8,1.8,22,M,,M,,*5F
06/21/2015	03:06:25.547	$GPGGA,030626,2444.4138,N,08045.0134,W,1,10,1.7,22,M,,M,,*61
06/21/2015	03:06:26.539	$GPGGA,030627,2444.4128,N,08045.0155,W,1,10,1.7,22,M,,M,,*66
06/21/2015	03:06:27.578	$GPGGA,030628,2444.4117,N,08045.0177,W,1,10,1.7,22,M,,M,,*65
06/21/2015	03:06:28.550	$GPGGA,030629,2444.4106,N,08045.0197,W,1,10,1.7,22,M,,M,,*6A
06/21/2015	03:06:29.552	$GPGGA,030630,2444.4095,N,08045.0217,W,1,10,1.7,22,M,,M,,*62
06/21/2015	03:06:30.550	$GPGGA,030631,2444.4085,N,08045.0238,W,1,10,1.7,22,M,,M,,*6F
06/21/2015	03:06:31.568	$GPGGA,030632,2444.4075,N,08045.0258,W,1,10,1.7,22,M,,M,,*65
06/21/2015	03:06:32.554	$GPGGA,030633,2444.4064,N,08045.0278,W,1,10,1.7,22,M,,M,,*66
06/21/2015	03:06:33.568	$GPGGA,030634,2444.4053,N,08045.0300,W,1,10,1.7,22,M,,M,,*6B
06/21/2015	03:06:34.528	$GPGGA,030635,2444.4042,N,08045.0322,W,1,10,1.8,22,M,,M,,*65
06/21/2015	03:06:35.558	$GPGGA,030636,2444.4032,N,08045.0341,W,1,9,1.8,22,M,,M,,*5C
06/21/2015	03:06:36.529	$GPGGA,030637,2444.4023,N,08045.0362,W,1,9,1.7,22,M,,M,,*53
06/21/2015	03:06:37.519	$GPGGA,030638,2444.4012,N,08045.0383,W,1,8,1.9,22,M,,M,,*5E
06/21/2015	03:06:38.529	$GPGGA,030639,2444.4001,N,08045.0404,W,1,8,1.9,22,M,,M,,*55
06/21/2015	03:06:39.559	$GPGGA,030640,2444.3990,N,08045.0424,W,1,8,1.9,22,M,,M,,*5F
06/21/2015	03:06:40.641	$GPGGA,030641,2444.3981,N,08045.0444,W,1,8,1.9,22,M,,M,,*58
06/21/2015	03:06:41.618	$GPGGA,030642,2444.3972,N,08045.0464,W,1,9,1.9,22,M,,M,,*54
06/21/2015	03:06:42.509	$GPGGA,030643,2444.3960,N,08045.0486,W,1,9,1.9,22,M,,M,,*5A
06/21/2015	03:06:43.628	$GPGGA,030644,2444.3949,N,08045.0509,W,1,7,2.1,22,M,,M,,*55
06/21/2015	03:06:45.062	$GPGGA,030645,2444.3940,N,08045.0531,W,1,7,1.8,22,M,,M,,*5C
06/21/2015	03:06:45.539	$GPGGA,030646,2444.3929,N,08045.0553,W,1,9,1.8,22,M,,M,,*5A
06/21/2015	03:06:46.508	$GPGGA,030647,2444.3919,N,08045.0571,W,1,9,1.9,22,M,,M,,*59
06/21/2015	03:06:47.628	$GPGGA,030648,2444.3909,N,08045.0592,W,1,10,1.7,22,M,,M,,*6C
06/21/2015	03:06:48.608	$GPGGA,030649,2444.3900,N,08045.0612,W,1,10,1.7,22,M,,M,,*6F
06/21/2015	03:06:49.508	$GPGGA,030650,2444.3889,N,08045.0633,W,1,10,1.7,22,M,,M,,*64
06/21/2015	03:06:50.508	$GPGGA,030651,2444.3878,N,08045.0654,W,1,10,1.8,22,M,,M,,*65
06/21/2015	03:06:51.618	$GPGGA,030652,2444.3868,N,08045.0676,W,1,9,1.8,22,M,,M,,*5F
06/21/2015	03:06:52.498	$GPGGA,030653,2444.3858,N,08045.0698,W,1,9,1.9,21,M,,M,,*5F
06/21/2015	03:06:53.643	$GPGGA,030654,2444.3848,N,08045.0719,W,1,9,1.8,21,M,,M,,*50
06/21/2015	03:06:54.599	$GPGGA,030655,2444.3839,N,08045.0741,W,1,9,1.7,21,M,,M,,*55
06/21/2015	03:06:55.599	$GPGGA,030656,2444.3828,N,08045.0762,W,1,10,1.7,21,M,,M,,*6F
06/21/2015	03:06:56.499	$GPGGA,030657,2444.3819,N,08045.0784,W,1,10,1.8,21,M,,M,,*6B
06/21/2015	03:06:57.628	$GPGGA,030658,2444.3810,N,08045.0805,W,1,9,1.8,21,M,,M,,*53
06/21/2015	03:06:58.588	$GPGGA,030659,2444.3799,N,08045.0824,W,1,9,1.7,21,M,,M,,*50
06/21/2015	03:06:59.598	$GPGGA,030700,2444.3789,N,08045.0845,W,1,10,1.7,21,M,,M,,*63
06/21/2015	03:07:00.578	$GPGGA,030701,2444.3779,N,08045.0867,W,1,10,1.7,21,M,,M,,*6D
06/21/2015	03:07:01.588	$GPGGA,030702,2444.3768,N,08045.0887,W,1,9,1.9,21,M,,M,,*56
06/21/2015	03:07:02.578	$GPGGA,030703,2444.3757,N,08045.0907,W,1,9,1.9,21,M,,M,,*52
06/21/2015	03:07:03.598	$GPGGA,030704,2444.3746,N,08045.0928,W,1,10,1.7,21,M,,M,,*6E
06/21/2015	03:07:04.578	$GPGGA,030705,2444.3736,N,08045.0950,W,1,10,1.7,21,M,,M,,*67
06/21/2015	03:07:05.598	$GPGGA,030706,2444.3725,N,08045.0969,W,1,10,1.7,21,M,,M,,*6C
06/21/2015	03:07:06.578	$GPGGA,030707,2444.3714,N,08045.0990,W,1,10,1.9,21,M,,M,,*67
06/21/2015	03:07:07.588	$GPGGA,030708,2444.3705,N,08045.1011,W,1,9,1.9,22,M,,M,,*52
06/21/2015	03:07:08.568	$GPGGA,030709,2444.3694,N,08045.1031,W,1,9,1.7,22,M,,M,,*56
06/21/2015	03:07:09.568	$GPGGA,030710,2444.3682,N,08045.1052,W,1,10,1.7,22,M,,M,,*64
06/21/2015	03:07:10.558	$GPGGA,030711,2444.3671,N,08045.1074,W,1,10,1.7,22,M,,M,,*6D
06/21/2015	03:07:11.589	$GPGGA,030712,2444.3660,N,08045.1096,W,1,9,1.8,22,M,,M,,*55
06/21/2015	03:07:12.550	$GPGGA,030713,2444.3648,N,08045.1118,W,1,9,2.1,22,M,,M,,*53
06/21/2015	03:07:13.589	$GPGGA,030714,2444.3638,N,08045.1138,W,1,10,1.7,22,M,,M,,*6C
06/21/2015	03:07:14.559	$GPGGA,030715,2444.3629,N,08045.1160,W,1,10,1.9,22,M,,M,,*6E
06/21/2015	03:07:15.578	$GPGGA,030716,2444.3616,N,08045.1181,W,1,9,1.8,22,M,,M,,*57
06/21/2015	03:07:16.551	$GPGGA,030717,2444.3606,N,08045.1200,W,1,9,1.9,23,M,,M,,*5D
06/21/2015	03:07:17.558	$GPGGA,030718,2444.3596,N,08045.1221,W,1,9,2.1,23,M,,M,,*50
06/21/2015	03:07:18.558	$GPGGA,030719,2444.3586,N,08045.1240,W,1,9,1.7,23,M,,M,,*52
06/21/2015	03:07:19.578	$GPGGA,030720,2444.3575,N,08045.1261,W,1,10,1.7,23,M,,M,,*6F
06/21/2015	03:07:20.548	$GPGGA,030721,2444.3565,N,08045.1280,W,1,10,1.7,23,M,,M,,*60
06/21/2015	03:07:21.568	$GPGGA,030722,2444.3554,N,08045.1301,W,1,10,1.7,23,M,,M,,*69
06/21/2015	03:07:22.548	$GPGGA,030723,2444.3544,N,08045.1322,W,1,10,1.7,23,M,,M,,*68
06/21/2015	03:07:23.578	$GPGGA,030724,2444.3533,N,08045.1342,W,1,10,1.7,23,M,,M,,*69
06/21/2015	03:07:24.528	$GPGGA,030725,2444.3523,N,08045.1363,W,1,10,1.9,23,M,,M,,*64
06/21/2015	03:07:25.540	$GPGGA,030726,2444.3513,N,08045.1387,W,1,9,1.9,23,M,,M,,*56
06/21/2015	03:07:26.528	$GPGGA,030727,2444.3503,N,08045.1409,W,1,9,1.8,23,M,,M,,*56
06/21/2015	03:07:27.540	$GPGGA,030728,2444.3492,N,08045.1431,W,1,9,1.8,23,M,,M,,*5B
06/21/2015	03:07:28.528	$GPGGA,030729,2444.3481,N,08045.1452,W,1,9,1.8,23,M,,M,,*5D
06/21/2015	03:07:29.709	$GPGGA,030730,2444.3471,N,08045.1472,W,1,8,2.1,23,M,,M,,*53
06/21/2015	03:07:30.519	$GPGGA,030731,2444.3460,N,08045.1493,W,1,8,2.1,23,M,,M,,*5D
06/21/2015	03:07:31.529	$GPGGA,030732,2444.3450,N,08045.1514,W,1,10,1.7,23,M,,M,,*6F
06/21/2015	03:07:32.518	$GPGGA,030733,2444.3439,N,08045.1535,W,1,10,1.7,23,M,,M,,*62
06/21/2015	03:07:33.698	$GPGGA,030734,2444.3428,N,08045.1555,W,1,10,1.7,23,M,,M,,*63
06/21/2015	03:07:34.518	$GPGGA,030735,2444.3416,N,08045.1577,W,1,10,1.7,23,M,,M,,*6F
06/21/2015	03:07:35.528	$GPGGA,030736,2444.3405,N,08045.1598,W,1,9,1.8,23,M,,M,,*58
06/21/2015	03:07:36.598	$GPGGA,030737,2444.3393,N,08045.1619,W,1,9,2.1,23,M,,M,,*51
06/21/2015	03:07:37.498	$GPGGA,030738,2444.3383,N,08045.1640,W,1,9,1.8,23,M,,M,,*59
06/21/2015	03:07:38.647	$GPGGA,030739,2444.3372,N,08045.1662,W,1,9,1.8,23,M,,M,,*56
06/21/2015	03:07:39.708	$GPGGA,030740,2444.3362,N,08045.1680,W,1,9,1.7,23,M,,M,,*5A
06/21/2015	03:07:40.643	$GPGGA,030741,2444.3352,N,08045.1701,W,1,9,1.7,23,M,,M,,*50
06/21/2015	03:07:41.688	$GPGGA,030742,2444.3341,N,08045.1721,W,1,9,1.7,23,M,,M,,*53
06/21/2015	03:07:42.641	$GPGGA,030743,2444.3330,N,08045.1742,W,1,9,1.7,23,M,,M,,*51
06/21/2015	03:07:43.508	$GPGGA,030744,2444.3319,N,08045.1763,W,1,9,2.1,23,M,,M,,*5B
06/21/2015	03:07:44.498	$GPGGA,030745,2444.3307,N,08045.1785,W,1,9,2.1,23,M,,M,,*5D
06/21/2015	03:07:45.688	$GPGGA,030746,2444.3295,N,08045.1807,W,1,9,1.8,23,M,,M,,*5B
06/21/2015	03:07:46.589	$GPGGA,030747,2444.3284,N,08045.1828,W,1,9,1.8,23,M,,M,,*57
06/21/2015	03:07:47.689	$GPGGA,030748,2444.3277,N,08045.1847,W,1,9,1.8,23,M,,M,,*5D
06/21/2015	03:07:48.609	$GPGGA,030749,2444.3268,N,08045.1868,W,1,9,1.9,23,M,,M,,*5E
06/21/2015	03:07:49.579	$GPGGA,030750,2444.3257,N,08045.1887,W,1,9,1.9,24,M,,M,,*5C
06/21/2015	03:07:50.578	$GPGGA,030751,2444.3246,N,08045.1908,W,1,9,1.9,24,M,,M,,*5B
06/21/2015	03:07:51.678	$GPGGA,030752,2444.3239,N,08045.1930,W,1,7,2.1,24,M,,M,,*5E
06/21/2015	03:07:52.598	$GPGGA,030753,2444.3229,N,08045.1952,W,1,7,2.1,24,M,,M,,*5A
06/21/2015	03:07:53.568	$GPGGA,030754,2444.3218,N,08045.1974,W,1,9,1.8,24,M,,M,,*5F
06/21/2015	03:07:54.568	$GPGGA,030755,2444.3210,N,08045.1996,W,1,9,1.8,24,M,,M,,*5A
06/21/2015	03:07:55.688	$GPGGA,030756,2444.3199,N,08045.2019,W,1,10,1.7,24,M,,M,,*61
06/21/2015	03:07:56.568	$GPGGA,030757,2444.3190,N,08045.2039,W,1,10,2.1,24,M,,M,,*6E
06/21/2015	03:07:57.668	$GPGGA,030758,2444.3179,N,08045.2059,W,1,9,1.8,24,M,,M,,*52
06/21/2015	03:07:58.558	$GPGGA,030759,2444.3167,N,08045.2081,W,1,9,2.1,24,M,,M,,*53
06/21/2015	03:07:59.688	$GPGGA,030800,2444.3157,N,08045.2103,W,1,9,1.8,24,M,,M,,*52
06/21/2015	03:08:00.578	$GPGGA,030801,2444.3147,N,08045.2122,W,1,9,2.1,24,M,,M,,*5B
06/21/2015	03:08:01.618	$GPGGA,030802,2444.3136,N,08045.2143,W,1,8,2.1,24,M,,M,,*58
06/21/2015	03:08:02.578	$GPGGA,030803,2444.3124,N,08045.2164,W,1,8,1.8,24,M,,M,,*55
06/21/2015	03:08:03.669	$GPGGA,030804,2444.3114,N,08045.2186,W,1,9,1.7,24,M,,M,,*53
06/21/2015	03:08:04.553	$GPGGA,030805,2444.3102,N,08045.2207,W,1,9,1.7,24,M,,M,,*5F
06/21/2015	03:08:05.659	$GPGGA,030806,2444.3091,N,08045.2229,W,1,9,1.9,24,M,,M,,*55
06/21/2015	03:08:06.569	$GPGGA,030807,2444.3081,N,08045.2251,W,1,9,1.9,24,M,,M,,*5A
06/21/2015	03:08:07.649	$GPGGA,030808,2444.3069,N,08045.2270,W,1,10,3.8,24,M,,M,,*6B
06/21/2015	03:08:08.568	$GPGGA,030809,2444.3058,N,08045.2291,W,1,10,3.8,24,M,,M,,*67
06/21/2015	03:08:09.649	$GPGGA,030810,2444.3048,N,08045.2312,W,1,10,1.9,24,M,,M,,*67
06/21/2015	03:08:10.568	$GPGGA,030811,2444.3038,N,08045.2330,W,1,10,1.9,24,M,,M,,*61
06/21/2015	03:08:11.668	$GPGGA,030812,2444.3027,N,08045.2352,W,1,9,1.9,24,M,,M,,*50
06/21/2015	03:08:12.568	$GPGGA,030813,2444.3017,N,08045.2373,W,1,9,1.7,24,M,,M,,*5F
06/21/2015	03:08:14.598	$GPGGA,030815,2444.2997,N,08045.2413,W,1,10,1.7,24,M,,M,,*60
06/21/2015	03:08:15.628	$GPGGA,030816,2444.2984,N,08045.2433,W,1,9,1.9,24,M,,M,,*55
06/21/2015	03:08:16.639	$GPGGA,030817,2444.2973,N,08045.2454,W,1,9,1.7,24,M,,M,,*53
06/21/2015	03:08:17.640	$GPGGA,030818,2444.2962,N,08045.2475,W,1,10,1.7,24,M,,M,,*67
06/21/2015	03:08:18.528	$GPGGA,030819,2444.2951,N,08045.2496,W,1,10,1.8,24,M,,M,,*64
06/21/2015	03:08:19.618	$GPGGA,030820,2444.2940,N,08045.2518,W,1,9,2.1,24,M,,M,,*5B
06/21/2015	03:08:20.558	$GPGGA,030821,2444.2929,N,08045.2540,W,1,9,1.8,24,M,,M,,*52
06/21/2015	03:08:21.629	$GPGGA,030822,2444.2918,N,08045.2561,W,1,9,1.8,24,M,,M,,*50
06/21/2015	03:08:22.609	$GPGGA,030823,2444.2905,N,08045.2583,W,1,9,1.8,24,M,,M,,*51
06/21/2015	03:08:23.656	$GPGGA,030824,2444.2894,N,08045.2605,W,1,9,1.8,24,M,,M,,*52
06/21/2015	03:08:24.549	$GPGGA,030825,2444.2885,N,08045.2624,W,1,9,1.7,24,M,,M,,*5F
06/21/2015	03:08:25.648	$GPGGA,030826,2444.2872,N,08045.2645,W,1,10,1.8,24,M,,M,,*64
06/21/2015	03:08:26.628	$GPGGA,030827,2444.2860,N,08045.2666,W,1,10,1.9,24,M,,M,,*66
06/21/2015	03:08:27.608	$GPGGA,030828,2444.2849,N,08045.2688,W,1,8,1.8,24,M,,M,,*5A
06/21/2015	03:08:28.498	$GPGGA,030829,2444.2835,N,08045.2709,W,1,8,1.8,24,M,,M,,*58
06/21/2015	03:08:29.643	$GPGGA,030830,2444.2827,N,08045.2731,W,1,8,1.9,24,M,,M,,*59
06/21/2015	03:08:30.541	$GPGGA,030831,2444.2816,N,08045.2753,W,1,8,1.9,24,M,,M,,*5E
06/21/2015	03:08:31.658	$GPGGA,030832,2444.2807,N,08045.2774,W,1,8,1.9,24,M,,M,,*58
06/21/2015	03:08:32.588	$GPGGA,030833,2444.2795,N,08045.2794,W,1,8,2.1,24,M,,M,,*58
06/21/2015	03:08:33.488	$GPGGA,030834,2444.2785,N,08045.2815,W,1,7,2.1,24,M,,M,,*57
06/21/2015	03:08:34.588	$GPGGA,030835,2444.2776,N,08045.2837,W,1,7,1.7,24,M,,M,,*5F
06/21/2015	03:08:35.658	$GPGGA,030836,2444.2768,N,08045.2858,W,1,10,1.8,24,M,,M,,*63
06/21/2015	03:08:36.588	$GPGGA,030837,2444.2760,N,08045.2879,W,1,10,1.7,24,M,,M,,*66
06/21/2015	03:08:37.608	$GPGGA,030838,2444.2748,N,08045.2901,W,1,10,2.2,24,M,,M,,*6B
06/21/2015	03:08:38.518	$GPGGA,030839,2444.2737,N,08045.2921,W,1,10,1.9,24,M,,M,,*68
06/21/2015	03:08:39.649	$GPGGA,030840,2444.2726,N,08045.2942,W,1,8,1.8,24,M,,M,,*5B
06/21/2015	03:08:40.579	$GPGGA,030841,2444.2716,N,08045.2962,W,1,8,1.8,24,M,,M,,*5B
06/21/2015	03:08:41.642	$GPGGA,030842,2444.2708,N,08045.2984,W,1,9,1.8,24,M,,M,,*5E
06/21/2015	03:08:42.578	$GPGGA,030843,2444.2698,N,08045.3006,W,1,9,1.8,24,M,,M,,*55
06/21/2015	03:08:43.598	$GPGGA,030844,2444.2688,N,08045.3027,W,1,9,1.7,24,M,,M,,*5F
06/21/2015	03:08:44.628	$GPGGA,030845,2444.2677,N,08045.3049,W,1,9,1.9,24,M,,M,,*58
06/21/2015	03:08:45.638	$GPGGA,030846,2444.2665,N,08045.3069,W,1,8,1.9,24,M,,M,,*5B
06/21/2015	03:08:46.578	$GPGGA,030847,2444.2654,N,08045.3089,W,1,8,2.1,24,M,,M,,*5D
06/21/2015	03:08:47.608	$GPGGA,030848,2444.2648,N,08045.3111,W,1,7,1.7,24,M,,M,,*55
06/21/2015	03:08:48.558	$GPGGA,030849,2444.2637,N,08045.3130,W,1,7,1.9,24,M,,M,,*51
06/21/2015	03:08:49.588	$GPGGA,030850,2444.2629,N,08045.3151,W,1,8,1.8,24,M,,M,,*5F
06/21/2015	03:08:50.558	$GPGGA,030851,2444.2621,N,08045.3172,W,1,8,1.7,24,M,,M,,*58
06/21/2015	03:08:51.608	$GPGGA,030852,2444.2612,N,08045.3193,W,1,10,1.8,24,M,,M,,*62
06/21/2015	03:08:52.568	$GPGGA,030853,2444.2604,N,08045.3212,W,1,10,1.7,24,M,,M,,*61
06/21/2015	03:08:53.608	$GPGGA,030854,2444.2594,N,08045.3233,W,1,10,1.9,24,M,,M,,*61
06/21/2015	03:08:54.558	$GPGGA,030855,2444.2585,N,08045.3253,W,1,10,1.7,24,M,,M,,*68
06/21/2015	03:08:55.641	$GPGGA,030856,2444.2575,N,08045.3273,W,1,10,2.1,24,M,,M,,*63
06/21/2015	03:08:56.553	$GPGGA,030857,2444.2564,N,08045.3293,W,1,10,1.8,24,M,,M,,*66
06/21/2015	03:08:57.589	$GPGGA,030858,2444.2553,N,08045.3314,W,1,9,1.7,25,M,,M,,*55
06/21/2015	03:08:58.549	$GPGGA,030859,2444.2543,N,08045.3334,W,1,9,1.8,25,M,,M,,*58
06/21/2015	03:08:59.589	$GPGGA,030900,2444.2532,N,08045.3354,W,1,9,1.9,25,M,,M,,*54
06/21/2015	03:09:00.549	$GPGGA,030901,2444.2521,N,08045.3375,W,1,9,1.8,25,M,,M,,*55
06/21/2015	03:09:01.548	$GPGGA,030902,2444.2521,N,08045.3375,W,1,9,1.8,25,M,,M,,*56
06/21/2015	03:09:02.568	$GPGGA,030903,2444.2499,N,08045.3415,W,1,9,1.7,25,M,,M,,*5B
06/21/2015	03:09:03.608	$GPGGA,030904,2444.2488,N,08045.3436,W,1,10,1.8,25,M,,M,,*6A
06/21/2015	03:09:04.540	$GPGGA,030905,2444.2477,N,08045.3457,W,1,10,1.8,25,M,,M,,*6C
06/21/2015	03:09:05.578	$GPGGA,030906,2444.2466,N,08045.3476,W,1,9,1.8,25,M,,M,,*54
06/21/2015	03:09:06.553	$GPGGA,030907,2444.2455,N,08045.3498,W,1,9,1.8,25,M,,M,,*55
06/21/2015	03:09:07.598	$GPGGA,030908,2444.2455,N,08045.3498,W,1,10,1.7,25,M,,M,,*6D
06/21/2015	03:09:08.530	$GPGGA,030909,2444.2432,N,08045.3540,W,1,10,1.7,25,M,,M,,*69
06/21/2015	03:09:09.549	$GPGGA,030910,2444.2432,N,08045.3540,W,1,10,1.7,25,M,,M,,*61
06/21/2015	03:09:10.518	$GPGGA,030911,2444.2410,N,08045.3582,W,1,10,1.7,25,M,,M,,*6E
06/21/2015	03:09:11.548	$GPGGA,030912,2444.2410,N,08045.3582,W,1,8,2.1,25,M,,M,,*51
06/21/2015	03:09:12.530	$GPGGA,030913,2444.2386,N,08045.3624,W,1,8,1.8,25,M,,M,,*5D
06/21/2015	03:09:13.578	$GPGGA,030914,2444.2374,N,08045.3645,W,1,9,1.8,25,M,,M,,*51
06/21/2015	03:09:14.498	$GPGGA,030915,2444.2367,N,08045.3665,W,1,9,1.8,25,M,,M,,*50
06/21/2015	03:09:15.538	$GPGGA,030916,2444.2355,N,08045.3686,W,1,9,1.8,25,M,,M,,*5F
06/21/2015	03:09:16.518	$GPGGA,030917,2444.2355,N,08045.3686,W,1,9,1.7,25,M,,M,,*51
06/21/2015	03:09:17.639	$GPGGA,030918,2444.2345,N,08045.3707,W,1,9,1.8,25,M,,M,,*58
06/21/2015	03:09:18.517	$GPGGA,030919,2444.2322,N,08045.3750,W,1,9,1.8,26,M,,M,,*59
06/21/2015	03:09:19.631	$GPGGA,030920,2444.2311,N,08045.3772,W,1,9,1.8,26,M,,M,,*53
06/21/2015	03:09:20.497	$GPGGA,030921,2444.2300,N,08045.3793,W,1,9,1.8,26,M,,M,,*5D
06/21/2015	03:09:21.517	$GPGGA,030922,2444.2300,N,08045.3793,W,1,9,1.8,26,M,,M,,*5E
06/21/2015	03:09:22.487	$GPGGA,030923,2444.2279,N,08045.3833,W,1,9,1.9,26,M,,M,,*54
06/21/2015	03:09:23.507	$GPGGA,030924,2444.2279,N,08045.3833,W,1,8,2.1,26,M,,M,,*59
06/21/2015	03:09:24.578	$GPGGA,030925,2444.2260,N,08045.3873,W,1,8,1.8,26,M,,M,,*5E
06/21/2015	03:09:25.498	$GPGGA,030926,2444.2260,N,08045.3873,W,1,9,1.8,26,M,,M,,*5C
06/21/2015	03:09:26.488	$GPGGA,030927,2444.2240,N,08045.3913,W,1,9,1.7,26,M,,M,,*57
06/21/2015	03:09:27.598	$GPGGA,030928,2444.2231,N,08045.3934,W,1,10,1.7,26,M,,M,,*63
06/21/2015	03:09:28.488	$GPGGA,030929,2444.2220,N,08045.3956,W,1,10,2.1,26,M,,M,,*63
06/21/2015	03:09:29.618	$GPGGA,030930,2444.2209,N,08045.3975,W,1,8,2.1,26,M,,M,,*58
06/21/2015	03:09:30.568	$GPGGA,030931,2444.2202,N,08045.3997,W,1,8,1.7,26,M,,M,,*5B
06/21/2015	03:09:31.588	$GPGGA,030932,2444.2195,N,08045.4017,W,1,9,2.1,26,M,,M,,*57
06/21/2015	03:09:32.568	$GPGGA,030933,2444.2184,N,08045.4037,W,1,9,1.7,26,M,,M,,*51
06/21/2015	03:09:33.588	$GPGGA,030934,2444.2174,N,08045.4057,W,1,10,1.7,26,M,,M,,*67
06/21/2015	03:09:34.578	$GPGGA,030935,2444.2166,N,08045.4079,W,1,10,1.7,26,M,,M,,*69
06/21/2015	03:09:35.567	$GPGGA,030936,2444.2155,N,08045.4098,W,1,10,1.7,26,M,,M,,*65
06/21/2015	03:09:36.557	$GPGGA,030937,2444.2143,N,08045.4118,W,1,10,1.9,26,M,,M,,*64
06/21/2015	03:09:37.577	$GPGGA,030938,2444.2132,N,08045.4140,W,1,8,1.9,26,M,,M,,*59
06/21/2015	03:09:38.557	$GPGGA,030939,2444.2122,N,08045.4162,W,1,8,1.9,26,M,,M,,*59
06/21/2015	03:09:39.577	$GPGGA,030940,2444.2112,N,08045.4183,W,1,8,1.9,26,M,,M,,*5B
06/21/2015	03:09:40.557	$GPGGA,030941,2444.2099,N,08045.4202,W,1,8,1.7,26,M,,M,,*5C
06/21/2015	03:09:41.568	$GPGGA,030942,2444.2087,N,08045.4224,W,1,9,1.7,26,M,,M,,*55
06/21/2015	03:09:42.558	$GPGGA,030943,2444.2076,N,08045.4248,W,1,9,1.9,26,M,,M,,*5E
06/21/2015	03:09:43.578	$GPGGA,030944,2444.2063,N,08045.4268,W,1,9,1.7,26,M,,M,,*51
06/21/2015	03:09:44.540	$GPGGA,030945,2444.2051,N,08045.4290,W,1,9,2.1,26,M,,M,,*53
06/21/2015	03:09:45.568	$GPGGA,030946,2444.2040,N,08045.4311,W,1,9,1.7,26,M,,M,,*5D
06/21/2015	03:09:46.541	$GPGGA,030947,2444.2032,N,08045.4332,W,1,9,1.9,26,M,,M,,*56
06/21/2015	03:09:47.541	$GPGGA,030948,2444.2021,N,08045.4353,W,1,8,2.1,26,M,,M,,*56
06/21/2015	03:09:48.540	$GPGGA,030949,2444.2014,N,08045.4372,W,1,8,1.9,26,M,,M,,*59
06/21/2015	03:09:49.533	$GPGGA,030950,2444.2002,N,08045.4393,W,1,8,2.1,25,M,,M,,*51
06/21/2015	03:09:50.540	$GPGGA,030951,2444.1991,N,08045.4413,W,1,8,1.9,25,M,,M,,*54
06/21/2015	03:09:51.568	$GPGGA,030952,2444.1982,N,08045.4433,W,1,7,2.1,25,M,,M,,*53
06/21/2015	03:09:52.527	$GPGGA,030953,2444.1969,N,08045.4456,W,1,7,1.7,25,M,,M,,*51
06/21/2015	03:09:53.528	$GPGGA,030954,2444.1960,N,08045.4478,W,1,9,2.1,25,M,,M,,*58
06/21/2015	03:09:54.534	$GPGGA,030955,2444.1950,N,08045.4499,W,1,9,1.8,25,M,,M,,*5F
06/21/2015	03:09:55.547	$GPGGA,030956,2444.1942,N,08045.4520,W,1,9,1.8,25,M,,M,,*5C
06/21/2015	03:09:56.531	$GPGGA,030957,2444.1933,N,08045.4541,W,1,9,1.9,25,M,,M,,*5D
06/21/2015	03:09:57.532	$GPGGA,030958,2444.1922,N,08045.4563,W,1,9,2.1,25,M,,M,,*59
06/21/2015	03:09:58.517	$GPGGA,030959,2444.1913,N,08045.4585,W,1,9,1.7,25,M,,M,,*57
06/21/2015	03:09:59.578	$GPGGA,031000,2444.1902,N,08045.4606,W,1,10,1.7,25,M,,M,,*63
06/21/2015	03:10:01.578	$GPGGA,031002,2444.1882,N,08045.4646,W,1,10,1.7,25,M,,M,,*6C
06/21/2015	03:10:02.518	$GPGGA,031003,2444.1872,N,08045.4665,W,1,10,1.7,25,M,,M,,*63
06/21/2015	03:10:03.648	$GPGGA,031004,2444.1861,N,08045.4684,W,1,9,1.8,25,M,,M,,*5E
06/21/2015	03:10:04.508	$GPGGA,031005,2444.1852,N,08045.4705,W,1,9,1.7,25,M,,M,,*58
06/21/2015	03:10:05.518	$GPGGA,031006,2444.1841,N,08045.4725,W,1,9,1.8,25,M,,M,,*54
06/21/2015	03:10:06.618	$GPGGA,031007,2444.1830,N,08045.4745,W,1,9,2.1,25,M,,M,,*5F
06/21/2015	03:10:07.532	$GPGGA,031008,2444.1819,N,08045.4766,W,1,8,1.9,25,M,,M,,*50
06/21/2015	03:10:08.608	$GPGGA,031009,2444.1808,N,08045.4787,W,1,8,1.9,25,M,,M,,*5E
06/21/2015	03:10:10.507	$GPGGA,031010,2444.1798,N,08045.4809,W,1,8,1.9,25,M,,M,,*59
06/21/2015	03:10:10.541	$GPGGA,031011,2444.1786,N,08045.4828,W,1,8,1.9,25,M,,M,,*54
06/21/2015	03:10:11.507	$GPGGA,031012,2444.1776,N,08045.4849,W,1,8,1.9,25,M,,M,,*5F
06/21/2015	03:10:12.587	$GPGGA,031013,2444.1766,N,08045.4870,W,1,8,1.7,25,M,,M,,*5B
06/21/2015	03:10:13.507	$GPGGA,031014,2444.1756,N,08045.4889,W,1,9,2.1,25,M,,M,,*5D
06/21/2015	03:10:14.577	$GPGGA,031015,2444.1747,N,08045.4911,W,1,9,1.9,25,M,,M,,*57
06/21/2015	03:10:15.507	$GPGGA,031016,2444.1730,N,08045.4931,W,1,9,2.1,25,M,,M,,*5D
06/21/2015	03:10:16.588	$GPGGA,031017,2444.1721,N,08045.4951,W,1,9,2.1,25,M,,M,,*5A
06/21/2015	03:10:17.608	$GPGGA,031018,2444.1712,N,08045.4972,W,1,10,1.7,25,M,,M,,*69
06/21/2015	03:10:18.568	$GPGGA,031019,2444.1704,N,08045.4993,W,1,10,1.8,25,M,,M,,*6F
06/21/2015	03:10:19.598	$GPGGA,031020,2444.1695,N,08045.5014,W,1,9,1.8,25,M,,M,,*53
06/21/2015	03:10:20.568	$GPGGA,031021,2444.1683,N,08045.5034,W,1,9,1.9,25,M,,M,,*56
06/21/2015	03:10:21.568	$GPGGA,031022,2444.1672,N,08045.5055,W,1,8,1.9,25,M,,M,,*5D
06/21/2015	03:10:22.558	$GPGGA,031023,2444.1662,N,08045.5076,W,1,8,1.9,25,M,,M,,*5C
06/21/2015	03:10:23.598	$GPGGA,031024,2444.1651,N,08045.5097,W,1,9,1.8,25,M,,M,,*54
06/21/2015	03:10:24.578	$GPGGA,031025,2444.1640,N,08045.5115,W,1,9,1.8,25,M,,M,,*5E
06/21/2015	03:10:25.588	$GPGGA,031026,2444.1630,N,08045.5134,W,1,10,1.7,25,M,,M,,*6E
06/21/2015	03:10:26.558	$GPGGA,031027,2444.1621,N,08045.5155,W,1,10,1.8,25,M,,M,,*67
06/21/2015	03:10:27.597	$GPGGA,031028,2444.1613,N,08045.5175,W,1,8,1.9,25,M,,M,,*53
06/21/2015	03:10:28.546	$GPGGA,031029,2444.1601,N,08045.5196,W,1,8,1.7,25,M,,M,,*52
06/21/2015	03:10:29.577	$GPGGA,031030,2444.1591,N,08045.5217,W,1,9,1.8,24,M,,M,,*55
06/21/2015	03:10:30.567	$GPGGA,031031,2444.1581,N,08045.5238,W,1,9,1.8,24,M,,M,,*58
06/21/2015	03:10:31.577	$GPGGA,031032,2444.1570,N,08045.5258,W,1,9,1.8,24,M,,M,,*53
06/21/2015	03:10:32.547	$GPGGA,031033,2444.1560,N,08045.5278,W,1,9,1.7,24,M,,M,,*5E
06/21/2015	03:10:33.567	$GPGGA,031034,2444.1552,N,08045.5300,W,1,10,1.7,24,M,,M,,*6E
06/21/2015	03:10:34.558	$GPGGA,031035,2444.1542,N,08045.5321,W,1,10,1.7,24,M,,M,,*6D
06/21/2015	03:10:35.578	$GPGGA,031036,2444.1534,N,08045.5340,W,1,10,1.7,24,M,,M,,*68
06/21/2015	03:10:36.548	$GPGGA,031037,2444.1523,N,08045.5361,W,1,10,1.8,24,M,,M,,*63
06/21/2015	03:10:37.558	$GPGGA,031038,2444.1512,N,08045.5381,W,1,8,1.9,24,M,,M,,*58
06/21/2015	03:10:38.545	$GPGGA,031039,2444.1502,N,08045.5401,W,1,8,1.9,24,M,,M,,*57
06/21/2015	03:10:39.568	$GPGGA,031040,2444.1492,N,08045.5423,W,1,8,1.9,24,M,,M,,*51
06/21/2015	03:10:40.543	$GPGGA,031041,2444.1483,N,08045.5445,W,1,8,1.9,24,M,,M,,*50
06/21/2015	03:10:41.568	$GPGGA,031042,2444.1472,N,08045.5469,W,1,9,1.8,24,M,,M,,*53
06/21/2015	03:10:42.538	$GPGGA,031043,2444.1462,N,08045.5491,W,1,9,1.7,24,M,,M,,*5B
06/21/2015	03:10:43.578	$GPGGA,031044,2444.1451,N,08045.5510,W,1,9,1.7,24,M,,M,,*54
06/21/2015	03:10:44.532	$GPGGA,031045,2444.1440,N,08045.5531,W,1,9,1.7,24,M,,M,,*56
06/21/2015	03:10:45.517	$GPGGA,031046,2444.1429,N,08045.5550,W,1,9,1.8,24,M,,M,,*52
06/21/2015	03:10:46.527	$GPGGA,031047,2444.1418,N,08045.5571,W,1,9,1.7,24,M,,M,,*5D
06/21/2015	03:10:47.557	$GPGGA,031048,2444.1406,N,08045.5592,W,1,10,1.7,24,M,,M,,*68
06/21/2015	03:10:48.887	$GPGGA,031049,2444.1397,N,08045.5611,W,1,10,1.8,24,M,,M,,*61
06/21/2015	03:10:49.517	$GPGGA,031050,2444.1385,N,08045.5632,W,1,10,1.7,24,M,,M,,*64
06/21/2015	03:10:50.527	$GPGGA,031051,2444.1376,N,08045.5651,W,1,10,1.9,24,M,,M,,*62
06/21/2015	03:10:51.548	$GPGGA,031052,2444.1366,N,08045.5672,W,1,10,1.7,24,M,,M,,*6F
06/21/2015	03:10:52.518	$GPGGA,031053,2444.1355,N,08045.5691,W,1,10,1.7,24,M,,M,,*63
06/21/2015	03:10:53.529	$GPGGA,031054,2444.1346,N,08045.5712,W,1,9,1.8,24,M,,M,,*5B
06/21/2015	03:10:54.508	$GPGGA,031055,2444.1335,N,08045.5731,W,1,9,1.9,24,M,,M,,*5E
06/21/2015	03:10:55.639	$GPGGA,031056,2444.1321,N,08045.5751,W,1,8,1.9,24,M,,M,,*5F
06/21/2015	03:10:56.508	$GPGGA,031057,2444.1310,N,08045.5770,W,1,8,1.8,24,M,,M,,*5E
06/21/2015	03:10:57.618	$GPGGA,031058,2444.1299,N,08045.5791,W,1,10,1.7,24,M,,M,,*68
06/21/2015	03:10:58.598	$GPGGA,031059,2444.1289,N,08045.5810,W,1,10,1.8,24,M,,M,,*61
06/21/2015	03:10:59.538	$GPGGA,031100,2444.1279,N,08045.5831,W,1,10,1.7,24,M,,M,,*6F
06/21/2015	03:11:00.608	$GPGGA,031101,2444.1270,N,08045.5850,W,1,10,1.7,24,M,,M,,*60
06/21/2015	03:11:01.618	$GPGGA,031102,2444.1259,N,08045.5871,W,1,9,1.7,24,M,,M,,*53
06/21/2015	03:11:02.497	$GPGGA,031103,2444.1248,N,08045.5892,W,1,9,1.8,24,M,,M,,*50
06/21/2015	03:11:03.597	$GPGGA,031104,2444.1237,N,08045.5912,W,1,10,1.7,24,M,,M,,*61
06/21/2015	03:11:04.507	$GPGGA,031105,2444.1227,N,08045.5933,W,1,10,1.7,24,M,,M,,*62
06/21/2015	03:11:06.607	$GPGGA,031107,2444.1205,N,08045.5975,W,1,8,3.8,24,M,,M,,*56
06/21/2015	03:11:07.617	$GPGGA,031108,2444.1194,N,08045.5997,W,1,9,1.8,24,M,,M,,*5D
06/21/2015	03:11:08.487	$GPGGA,031109,2444.1182,N,08045.6019,W,1,9,1.9,24,M,,M,,*56
06/21/2015	03:11:09.578	$GPGGA,031110,2444.1170,N,08045.6040,W,1,8,1.9,24,M,,M,,*5E
06/21/2015	03:11:10.578	$GPGGA,031111,2444.1160,N,08045.6060,W,1,8,1.8,24,M,,M,,*5D
06/21/2015	03:11:11.588	$GPGGA,031112,2444.1151,N,08045.6081,W,1,9,1.8,24,M,,M,,*52
06/21/2015	03:11:12.568	$GPGGA,031113,2444.1140,N,08045.6102,W,1,9,1.9,24,M,,M,,*58
06/21/2015	03:11:13.568	$GPGGA,031114,2444.1129,N,08045.6123,W,1,8,1.9,24,M,,M,,*52
06/21/2015	03:11:14.568	$GPGGA,031115,2444.1118,N,08045.6145,W,1,8,3.8,24,M,,M,,*52
06/21/2015	03:11:15.598	$GPGGA,031116,2444.1108,N,08045.6165,W,1,10,1.7,25,M,,M,,*67
06/21/2015	03:11:16.568	$GPGGA,031117,2444.1098,N,08045.6188,W,1,10,1.8,25,M,,M,,*62
06/21/2015	03:11:17.578	$GPGGA,031118,2444.1087,N,08045.6208,W,1,9,1.8,25,M,,M,,*50
06/21/2015	03:11:18.558	$GPGGA,031119,2444.1076,N,08045.6229,W,1,9,1.8,25,M,,M,,*5C
06/21/2015	03:11:19.618	$GPGGA,031120,2444.1066,N,08045.6250,W,1,10,1.7,25,M,,M,,*6E
06/21/2015	03:11:20.557	$GPGGA,031121,2444.1057,N,08045.6272,W,1,10,1.7,25,M,,M,,*6D
06/21/2015	03:11:22.567	$GPGGA,031122,2444.1046,N,08045.6290,W,1,9,1.8,25,M,,M,,*55
06/21/2015	03:11:22.597	$GPGGA,031123,2444.1036,N,08045.6309,W,1,9,3.8,25,M,,M,,*50
06/21/2015	03:11:23.547	$GPGGA,031124,2444.1023,N,08045.6330,W,1,6,4.1,25,M,,M,,*58
06/21/2015	03:11:24.547	$GPGGA,031125,2444.1012,N,08045.6353,W,1,6,2.0,24,M,,M,,*58
06/21/2015	03:11:25.547	$GPGGA,031126,2444.1003,N,08045.6376,W,1,9,2.0,24,M,,M,,*53
06/21/2015	03:11:26.548	$GPGGA,031127,2444.0992,N,08045.6398,W,1,9,2.1,24,M,,M,,*53
06/21/2015	03:11:27.588	$GPGGA,031128,2444.0985,N,08045.6418,W,1,8,2.1,24,M,,M,,*54
06/21/2015	03:11:28.542	$GPGGA,031129,2444.0975,N,08045.6441,W,1,8,2.0,24,M,,M,,*57
06/21/2015	03:11:29.568	$GPGGA,031130,2444.0966,N,08045.6461,W,1,9,2.0,24,M,,M,,*5E
06/21/2015	03:11:30.540	$GPGGA,031131,2444.0956,N,08045.6481,W,1,9,2.0,24,M,,M,,*52
06/21/2015	03:11:31.588	$GPGGA,031132,2444.0945,N,08045.6503,W,1,9,1.7,24,M,,M,,*5C
06/21/2015	03:11:32.528	$GPGGA,031133,2444.0936,N,08045.6524,W,1,9,1.7,24,M,,M,,*5C
06/21/2015	03:11:33.539	$GPGGA,031134,2444.0927,N,08045.6543,W,1,9,2.0,24,M,,M,,*5E
06/21/2015	03:11:34.540	$GPGGA,031135,2444.0917,N,08045.6564,W,1,9,2.0,24,M,,M,,*59
06/21/2015	03:11:35.568	$GPGGA,031136,2444.0909,N,08045.6584,W,1,10,1.7,24,M,,M,,*67
06/21/2015	03:11:36.541	$GPGGA,031137,2444.0899,N,08045.6605,W,1,10,1.7,24,M,,M,,*64
06/21/2015	03:11:37.557	$GPGGA,031138,2444.0889,N,08045.6626,W,1,10,1.7,24,M,,M,,*6B
06/21/2015	03:11:38.537	$GPGGA,031139,2444.0880,N,08045.6648,W,1,10,1.7,24,M,,M,,*6B
06/21/2015	03:11:39.641	$GPGGA,031140,2444.0869,N,08045.6670,W,1,9,2.0,24,M,,M,,*55
06/21/2015	03:11:40.507	$GPGGA,031141,2444.0859,N,08045.6691,W,1,9,2.0,24,M,,M,,*58
06/21/2015	03:11:41.507	$GPGGA,031142,2444.0851,N,08045.6712,W,1,9,2.0,24,M,,M,,*59
06/21/2015	03:11:42.517	$GPGGA,031143,2444.0838,N,08045.6732,W,1,9,1.7,23,M,,M,,*56
06/21/2015	03:11:43.538	$GPGGA,031144,2444.0829,N,08045.6752,W,1,10,1.7,23,M,,M,,*6F
06/21/2015	03:11:44.508	$GPGGA,031145,2444.0820,N,08045.6771,W,1,10,3.8,23,M,,M,,*6B
06/21/2015	03:11:45.528	$GPGGA,031146,2444.0811,N,08045.6790,W,1,8,3.8,23,M,,M,,*5C
06/21/2015	03:11:46.508	$GPGGA,031147,2444.0799,N,08045.6813,W,1,8,3.8,23,M,,M,,*56
06/21/2015	03:11:47.508	$GPGGA,031148,2444.0790,N,08045.6835,W,1,10,1.7,23,M,,M,,*60
06/21/2015	03:11:48.618	$GPGGA,031149,2444.0779,N,08045.6857,W,1,10,1.7,23,M,,M,,*62
06/21/2015	03:11:49.608	$GPGGA,031150,2444.0768,N,08045.6878,W,1,9,1.7,23,M,,M,,*5F
