Software Version Number: 1	Data File Format Number: 1	Build Version Number: 1	Error Count Since VI Started: 1	Manufacturer: Raytheon	 Model Number: RayMarine 120	 S/N: 	 Cal Date: 	 Wind Direction Offset: 0.00	 Slope (M)1: 0.00	 Offset (B)1: 0.00	 Slope (M)2: 0.00	 Offset (B)2: 0.00	 Slope (M)3: 0.00	 Offset (B)3: 0.00	 Slope (M)4: 0.00	 Offset (B)4: 0.00	 Slope (M)5: 0.00	 Offset (B)5: 0.00	 Slope (M)6: 0.00	 Offset (B)6: 0.00
Computer Date	Computer Time	GGA String
06/18/2015	14:00:00.527	$GPGGA,140001,2542.9871,N,07918.4704,W,1,8,2.2,15,M,,M,,*5E
06/18/2015	14:00:01.545	$GPGGA,140002,2542.9869,N,07918.4705,W,1,7,2.2,15,M,,M,,*5A
06/18/2015	14:00:02.535	$GPGGA,140003,2542.9872,N,07918.4708,W,1,7,1.8,14,M,,M,,*54
06/18/2015	14:00:03.565	$GPGGA,140004,2542.9870,N,07918.4708,W,1,9,1.7,14,M,,M,,*50
06/18/2015	14:00:04.527	$GPGGA,140005,2542.9870,N,07918.4708,W,1,9,2.2,14,M,,M,,*57
06/18/2015	14:00:05.517	$GPGGA,140006,2542.9875,N,07918.4715,W,1,9,1.7,14,M,,M,,*5B
06/18/2015	14:00:06.528	$GPGGA,140007,2542.9876,N,07918.4714,W,1,9,1.8,15,M,,M,,*56
06/18/2015	14:00:07.545	$GPGGA,140008,2542.9878,N,07918.4715,W,1,8,1.8,15,M,,M,,*57
06/18/2015	14:00:08.520	$GPGGA,140009,2542.9877,N,07918.4716,W,1,8,1.8,15,M,,M,,*5A
06/18/2015	14:00:09.546	$GPGGA,140010,2542.9878,N,07918.4716,W,1,9,1.7,15,M,,M,,*53
06/18/2015	14:00:10.520	$GPGGA,140011,2542.9877,N,07918.4716,W,1,9,1.8,15,M,,M,,*52
06/18/2015	14:00:11.635	$GPGGA,140012,2542.9875,N,07918.4716,W,1,9,1.7,15,M,,M,,*5C
06/18/2015	14:00:12.516	$GPGGA,140013,2542.9874,N,07918.4718,W,1,9,1.7,15,M,,M,,*52
06/18/2015	14:00:13.496	$GPGGA,140014,2542.9875,N,07918.4716,W,1,9,1.7,16,M,,M,,*59
06/18/2015	14:00:14.495	$GPGGA,140015,2542.9873,N,07918.4716,W,1,9,1.7,16,M,,M,,*5E
06/18/2015	14:00:15.535	$GPGGA,140016,2542.9874,N,07918.4716,W,1,9,1.7,16,M,,M,,*5A
06/18/2015	14:00:16.505	$GPGGA,140017,2542.9873,N,07918.4716,W,1,9,1.8,16,M,,M,,*53
06/18/2015	14:00:17.605	$GPGGA,140018,2542.9870,N,07918.4714,W,1,8,2.0,16,M,,M,,*57
06/18/2015	14:00:18.505	$GPGGA,140019,2542.9869,N,07918.4715,W,1,8,2.0,16,M,,M,,*5F
06/18/2015	14:00:19.615	$GPGGA,140020,2542.9867,N,07918.4716,W,1,9,1.7,16,M,,M,,*5D
06/18/2015	14:00:20.516	$GPGGA,140021,2542.9868,N,07918.4718,W,1,9,1.7,16,M,,M,,*5D
06/18/2015	14:00:21.575	$GPGGA,140022,2542.9868,N,07918.4718,W,1,7,2.2,16,M,,M,,*56
06/18/2015	14:00:22.575	$GPGGA,140023,2542.9868,N,07918.4719,W,1,7,1.7,16,M,,M,,*50
06/18/2015	14:00:23.618	$GPGGA,140024,2542.9868,N,07918.4719,W,1,9,1.7,17,M,,M,,*58
06/18/2015	14:00:24.575	$GPGGA,140025,2542.9870,N,07918.4719,W,1,9,1.7,17,M,,M,,*50
06/18/2015	14:00:25.605	$GPGGA,140026,2542.9869,N,07918.4719,W,1,9,1.7,17,M,,M,,*5B
06/18/2015	14:00:26.486	$GPGGA,140027,2542.9870,N,07918.4720,W,1,9,1.7,17,M,,M,,*58
06/18/2015	14:00:27.586	$GPGGA,140028,2542.9869,N,07918.4720,W,1,9,1.7,17,M,,M,,*5F
06/18/2015	14:00:28.486	$GPGGA,140029,2542.9870,N,07918.4719,W,1,9,1.7,17,M,,M,,*5C
06/18/2015	14:00:30.027	$GPGGA,140030,2542.9868,N,07918.4719,W,1,9,1.7,18,M,,M,,*52
06/18/2015	14:00:30.565	$GPGGA,140031,2542.9868,N,07918.4719,W,1,9,1.7,18,M,,M,,*53
06/18/2015	14:00:31.595	$GPGGA,140032,2542.9867,N,07918.4719,W,1,9,1.7,18,M,,M,,*5F
06/18/2015	14:00:32.555	$GPGGA,140033,2542.9868,N,07918.4719,W,1,9,1.7,18,M,,M,,*51
06/18/2015	14:00:33.555	$GPGGA,140034,2542.9866,N,07918.4719,W,1,9,1.7,18,M,,M,,*58
06/18/2015	14:00:34.565	$GPGGA,140035,2542.9867,N,07918.4718,W,1,9,1.7,18,M,,M,,*59
06/18/2015	14:00:36.585	$GPGGA,140037,2542.9865,N,07918.4719,W,1,9,1.7,18,M,,M,,*58
06/18/2015	14:00:37.565	$GPGGA,140038,2542.9865,N,07918.4719,W,1,9,1.7,18,M,,M,,*57
06/18/2015	14:00:38.545	$GPGGA,140039,2542.9865,N,07918.4720,W,1,9,1.7,19,M,,M,,*5D
06/18/2015	14:00:39.545	$GPGGA,140040,2542.9863,N,07918.4720,W,1,9,1.7,19,M,,M,,*55
06/18/2015	14:00:40.545	$GPGGA,140041,2542.9865,N,07918.4720,W,1,9,1.7,19,M,,M,,*52
06/18/2015	14:00:41.555	$GPGGA,140042,2542.9865,N,07918.4722,W,1,9,1.7,19,M,,M,,*53
06/18/2015	14:00:42.545	$GPGGA,140043,2542.9865,N,07918.4721,W,1,9,1.7,19,M,,M,,*51
06/18/2015	14:00:43.546	$GPGGA,140044,2542.9865,N,07918.4722,W,1,9,1.7,19,M,,M,,*55
06/18/2015	14:00:44.536	$GPGGA,140045,2542.9865,N,07918.4722,W,1,9,1.7,19,M,,M,,*54
06/18/2015	14:00:45.536	$GPGGA,140046,2542.9865,N,07918.4721,W,1,9,1.7,19,M,,M,,*54
06/18/2015	14:00:46.535	$GPGGA,140047,2542.9865,N,07918.4722,W,1,9,2.0,19,M,,M,,*52
06/18/2015	14:00:47.535	$GPGGA,140048,2542.9863,N,07918.4723,W,1,9,1.7,19,M,,M,,*5E
06/18/2015	14:00:48.525	$GPGGA,140049,2542.9862,N,07918.4725,W,1,9,1.7,19,M,,M,,*58
06/18/2015	14:00:49.525	$GPGGA,140050,2542.9864,N,07918.4723,W,1,9,1.7,19,M,,M,,*50
06/18/2015	14:00:50.518	$GPGGA,140051,2542.9863,N,07918.4725,W,1,9,2.0,19,M,,M,,*54
06/18/2015	14:00:51.565	$GPGGA,140052,2542.9864,N,07918.4724,W,1,9,1.7,19,M,,M,,*55
06/18/2015	14:00:52.518	$GPGGA,140053,2542.9863,N,07918.4725,W,1,9,2.2,19,M,,M,,*54
06/18/2015	14:00:53.515	$GPGGA,140054,2542.9867,N,07918.4724,W,1,7,2.2,19,M,,M,,*58
06/18/2015	14:00:54.515	$GPGGA,140055,2542.9868,N,07918.4726,W,1,7,2.1,19,M,,M,,*57
06/18/2015	14:00:55.527	$GPGGA,140056,2542.9867,N,07918.4726,W,1,8,2.0,19,M,,M,,*55
06/18/2015	14:00:56.505	$GPGGA,140057,2542.9868,N,07918.4726,W,1,8,2.0,19,M,,M,,*5B
06/18/2015	14:00:57.535	$GPGGA,140058,2542.9868,N,07918.4726,W,1,8,2.0,19,M,,M,,*54
06/18/2015	14:00:58.517	$GPGGA,140059,2542.9868,N,07918.4727,W,1,8,2.0,19,M,,M,,*54
06/18/2015	14:00:59.545	$GPGGA,140100,2542.9868,N,07918.4727,W,1,8,2.0,19,M,,M,,*59
06/18/2015	14:01:00.495	$GPGGA,140101,2542.9868,N,07918.4726,W,1,8,2.0,19,M,,M,,*59
06/18/2015	14:01:01.516	$GPGGA,140102,2542.9868,N,07918.4725,W,1,6,3.2,19,M,,M,,*54
06/18/2015	14:01:02.516	$GPGGA,140103,2542.9868,N,07918.4724,W,1,6,2.0,19,M,,M,,*57
06/18/2015	14:01:03.536	$GPGGA,140104,2542.9868,N,07918.4725,W,1,8,2.0,19,M,,M,,*5F
06/18/2015	14:01:04.516	$GPGGA,140105,2542.9870,N,07918.4725,W,1,8,2.0,19,M,,M,,*57
06/18/2015	14:01:05.485	$GPGGA,140106,2542.9869,N,07918.4726,W,1,8,2.0,19,M,,M,,*5F
06/18/2015	14:01:06.505	$GPGGA,140107,2542.9868,N,07918.4726,W,1,8,2.0,19,M,,M,,*5F
06/18/2015	14:01:07.635	$GPGGA,140108,2542.9868,N,07918.4727,W,1,9,1.7,19,M,,M,,*54
06/18/2015	14:01:08.516	$GPGGA,140109,2542.9867,N,07918.4727,W,1,9,1.7,19,M,,M,,*5A
06/18/2015	14:01:09.575	$GPGGA,140110,2542.9868,N,07918.4727,W,1,9,1.7,19,M,,M,,*5D
06/18/2015	14:01:10.565	$GPGGA,140111,2542.9866,N,07918.4727,W,1,9,1.7,18,M,,M,,*53
06/18/2015	14:01:11.595	$GPGGA,140112,2542.9865,N,07918.4727,W,1,9,1.7,18,M,,M,,*53
06/18/2015	14:01:12.485	$GPGGA,140113,2542.9865,N,07918.4727,W,1,9,1.7,18,M,,M,,*52
06/18/2015	14:01:13.605	$GPGGA,140114,2542.9865,N,07918.4727,W,1,9,1.7,18,M,,M,,*55
06/18/2015	14:01:14.565	$GPGGA,140115,2542.9865,N,07918.4727,W,1,9,1.7,18,M,,M,,*54
06/18/2015	14:01:15.615	$GPGGA,140116,2542.9863,N,07918.4727,W,1,9,1.7,18,M,,M,,*51
06/18/2015	14:01:16.555	$GPGGA,140117,2542.9862,N,07918.4727,W,1,9,1.7,18,M,,M,,*51
06/18/2015	14:01:17.585	$GPGGA,140118,2542.9861,N,07918.4727,W,1,9,1.7,18,M,,M,,*5D
06/18/2015	14:01:18.566	$GPGGA,140119,2542.9861,N,07918.4726,W,1,9,1.7,18,M,,M,,*5D
06/18/2015	14:01:19.596	$GPGGA,140120,2542.9859,N,07918.4726,W,1,9,1.7,18,M,,M,,*5C
06/18/2015	14:01:20.556	$GPGGA,140121,2542.9858,N,07918.4727,W,1,9,1.7,18,M,,M,,*5D
06/18/2015	14:01:21.575	$GPGGA,140122,2542.9859,N,07918.4727,W,1,9,1.7,18,M,,M,,*5F
06/18/2015	14:01:22.555	$GPGGA,140123,2542.9857,N,07918.4726,W,1,9,1.7,18,M,,M,,*51
06/18/2015	14:01:23.585	$GPGGA,140124,2542.9856,N,07918.4727,W,1,9,1.7,18,M,,M,,*56
06/18/2015	14:01:24.535	$GPGGA,140125,2542.9857,N,07918.4727,W,1,9,1.7,18,M,,M,,*56
06/18/2015	14:01:25.555	$GPGGA,140126,2542.9855,N,07918.4727,W,1,9,1.7,18,M,,M,,*57
06/18/2015	14:01:26.545	$GPGGA,140127,2542.9856,N,07918.4727,W,1,9,1.7,18,M,,M,,*55
06/18/2015	14:01:27.575	$GPGGA,140128,2542.9854,N,07918.4727,W,1,9,1.7,18,M,,M,,*58
06/18/2015	14:01:28.825	$GPGGA,140129,2542.9854,N,07918.4727,W,1,9,1.7,18,M,,M,,*59
06/18/2015	14:01:29.555	$GPGGA,140130,2542.9854,N,07918.4726,W,1,9,1.7,18,M,,M,,*50
06/18/2015	14:01:30.529	$GPGGA,140131,2542.9852,N,07918.4727,W,1,9,1.7,18,M,,M,,*56
06/18/2015	14:01:31.575	$GPGGA,140132,2542.9853,N,07918.4727,W,1,9,1.7,18,M,,M,,*54
06/18/2015	14:01:32.525	$GPGGA,140133,2542.9852,N,07918.4727,W,1,9,1.7,18,M,,M,,*54
06/18/2015	14:01:33.545	$GPGGA,140134,2542.9851,N,07918.4727,W,1,9,1.7,18,M,,M,,*50
06/18/2015	14:01:34.535	$GPGGA,140135,2542.9852,N,07918.4727,W,1,9,1.7,18,M,,M,,*52
06/18/2015	14:01:35.545	$GPGGA,140136,2542.9850,N,07918.4727,W,1,9,1.7,18,M,,M,,*53
06/18/2015	14:01:36.528	$GPGGA,140137,2542.9850,N,07918.4726,W,1,9,1.7,18,M,,M,,*53
06/18/2015	14:01:37.546	$GPGGA,140138,2542.9850,N,07918.4727,W,1,9,1.7,18,M,,M,,*5D
06/18/2015	14:01:38.506	$GPGGA,140139,2542.9850,N,07918.4727,W,1,9,1.7,18,M,,M,,*5C
06/18/2015	14:01:39.545	$GPGGA,140140,2542.9850,N,07918.4726,W,1,9,1.7,18,M,,M,,*53
06/18/2015	14:01:40.518	$GPGGA,140141,2542.9848,N,07918.4727,W,1,9,1.7,18,M,,M,,*5A
06/18/2015	14:01:41.535	$GPGGA,140142,2542.9847,N,07918.4726,W,1,9,1.7,18,M,,M,,*57
06/18/2015	14:01:43.656	$GPGGA,140144,2542.9847,N,07918.4725,W,1,9,1.7,18,M,,M,,*52
06/18/2015	14:01:44.505	$GPGGA,140145,2542.9846,N,07918.4725,W,1,9,1.7,18,M,,M,,*52
06/18/2015	14:01:45.495	$GPGGA,140146,2542.9846,N,07918.4724,W,1,8,2.0,18,M,,M,,*55
06/18/2015	14:01:46.505	$GPGGA,140147,2542.9846,N,07918.4723,W,1,8,2.0,18,M,,M,,*53
06/18/2015	14:01:47.595	$GPGGA,140148,2542.9845,N,07918.4723,W,1,8,2.0,18,M,,M,,*5F
06/18/2015	14:01:48.505	$GPGGA,140149,2542.9844,N,07918.4725,W,1,8,1.7,18,M,,M,,*5D
06/18/2015	14:01:49.515	$GPGGA,140150,2542.9843,N,07918.4723,W,1,9,1.7,18,M,,M,,*55
06/18/2015	14:01:50.585	$GPGGA,140151,2542.9843,N,07918.4723,W,1,9,1.7,18,M,,M,,*54
06/18/2015	14:01:51.516	$GPGGA,140152,2542.9841,N,07918.4723,W,1,9,1.7,18,M,,M,,*55
06/18/2015	14:01:52.515	$GPGGA,140153,2542.9842,N,07918.4723,W,1,9,1.7,18,M,,M,,*57
06/18/2015	14:01:53.496	$GPGGA,140154,2542.9840,N,07918.4723,W,1,9,1.7,18,M,,M,,*52
06/18/2015	14:01:54.576	$GPGGA,140155,2542.9841,N,07918.4723,W,1,9,1.7,18,M,,M,,*52
06/18/2015	14:01:55.586	$GPGGA,140156,2542.9839,N,07918.4723,W,1,9,1.7,18,M,,M,,*5E
06/18/2015	14:01:56.575	$GPGGA,140157,2542.9839,N,07918.4723,W,1,9,1.7,18,M,,M,,*5F
06/18/2015	14:01:57.615	$GPGGA,140158,2542.9838,N,07918.4723,W,1,9,1.7,18,M,,M,,*51
06/18/2015	14:01:58.565	$GPGGA,140159,2542.9839,N,07918.4723,W,1,9,1.7,18,M,,M,,*51
06/18/2015	14:01:59.635	$GPGGA,140200,2542.9838,N,07918.4723,W,1,9,1.7,18,M,,M,,*5F
06/18/2015	14:02:00.475	$GPGGA,140201,2542.9837,N,07918.4723,W,1,9,1.7,18,M,,M,,*51
06/18/2015	14:02:01.595	$GPGGA,140202,2542.9836,N,07918.4723,W,1,8,1.8,18,M,,M,,*5D
06/18/2015	14:02:02.555	$GPGGA,140203,2542.9836,N,07918.4723,W,1,8,1.8,18,M,,M,,*5C
06/18/2015	14:02:03.605	$GPGGA,140204,2542.9836,N,07918.4723,W,1,8,1.8,18,M,,M,,*5B
06/18/2015	14:02:04.575	$GPGGA,140205,2542.9836,N,07918.4723,W,1,8,1.8,18,M,,M,,*5A
06/18/2015	14:02:05.555	$GPGGA,140206,2542.9836,N,07918.4723,W,1,9,1.7,18,M,,M,,*57
06/18/2015	14:02:06.565	$GPGGA,140207,2542.9836,N,07918.4725,W,1,9,1.7,18,M,,M,,*50
06/18/2015	14:02:07.585	$GPGGA,140208,2542.9836,N,07918.4725,W,1,9,1.7,18,M,,M,,*5F
06/18/2015	14:02:08.545	$GPGGA,140209,2542.9836,N,07918.4723,W,1,9,1.7,18,M,,M,,*58
06/18/2015	14:02:09.565	$GPGGA,140210,2542.9836,N,07918.4723,W,1,8,1.8,18,M,,M,,*5E
06/18/2015	14:02:11.596	$GPGGA,140211,2542.9834,N,07918.4723,W,1,8,1.8,18,M,,M,,*5D
06/18/2015	14:02:11.626	$GPGGA,140212,2542.9833,N,07918.4722,W,1,8,1.8,19,M,,M,,*59
06/18/2015	14:02:12.536	$GPGGA,140213,2542.9834,N,07918.4722,W,1,8,1.8,19,M,,M,,*5F
06/18/2015	14:02:13.556	$GPGGA,140214,2542.9832,N,07918.4721,W,1,8,1.8,19,M,,M,,*5D
06/18/2015	14:02:14.535	$GPGGA,140215,2542.9832,N,07918.4722,W,1,8,1.8,19,M,,M,,*5F
06/18/2015	14:02:15.555	$GPGGA,140216,2542.9832,N,07918.4722,W,1,8,1.8,19,M,,M,,*5C
06/18/2015	14:02:16.535	$GPGGA,140217,2542.9832,N,07918.4721,W,1,8,1.7,19,M,,M,,*51
06/18/2015	14:02:17.565	$GPGGA,140218,2542.9834,N,07918.4722,W,1,9,1.7,19,M,,M,,*5A
06/18/2015	14:02:18.535	$GPGGA,140219,2542.9833,N,07918.4722,W,1,9,1.7,19,M,,M,,*5C
06/18/2015	14:02:19.565	$GPGGA,140220,2542.9832,N,07918.4722,W,1,9,1.7,19,M,,M,,*57
06/18/2015	14:02:20.526	$GPGGA,140221,2542.9834,N,07918.4722,W,1,9,1.8,19,M,,M,,*5F
06/18/2015	14:02:21.515	$GPGGA,140222,2542.9833,N,07918.4722,W,1,9,1.7,19,M,,M,,*54
06/18/2015	14:02:22.528	$GPGGA,140223,2542.9834,N,07918.4721,W,1,9,2.0,19,M,,M,,*55
06/18/2015	14:02:23.545	$GPGGA,140224,2542.9833,N,07918.4719,W,1,7,2.3,19,M,,M,,*53
06/18/2015	14:02:24.516	$GPGGA,140225,2542.9834,N,07918.4718,W,1,7,2.3,19,M,,M,,*54
06/18/2015	14:02:25.545	$GPGGA,140226,2542.9832,N,07918.4717,W,1,7,2.3,18,M,,M,,*5F
06/18/2015	14:02:26.517	$GPGGA,140227,2542.9832,N,07918.4716,W,1,7,2.3,18,M,,M,,*5F
06/18/2015	14:02:27.545	$GPGGA,140228,2542.9832,N,07918.4716,W,1,7,2.3,18,M,,M,,*50
06/18/2015	14:02:28.506	$GPGGA,140229,2542.9832,N,07918.4715,W,1,7,2.3,18,M,,M,,*52
06/18/2015	14:02:29.526	$GPGGA,140230,2542.9832,N,07918.4715,W,1,8,2.0,18,M,,M,,*56
06/18/2015	14:02:30.516	$GPGGA,140231,2542.9832,N,07918.4714,W,1,8,2.3,18,M,,M,,*55
06/18/2015	14:02:31.526	$GPGGA,140232,2542.9832,N,07918.4715,W,1,7,2.3,18,M,,M,,*58
06/18/2015	14:02:32.517	$GPGGA,140233,2542.9832,N,07918.4715,W,1,7,2.0,18,M,,M,,*5A
06/18/2015	14:02:33.525	$GPGGA,140234,2542.9832,N,07918.4714,W,1,8,2.0,18,M,,M,,*53
06/18/2015	14:02:34.505	$GPGGA,140235,2542.9832,N,07918.4712,W,1,8,2.3,17,M,,M,,*58
06/18/2015	14:02:35.655	$GPGGA,140236,2542.9832,N,07918.4712,W,1,8,2.0,17,M,,M,,*58
06/18/2015	14:02:36.505	$GPGGA,140237,2542.9832,N,07918.4712,W,1,8,2.0,17,M,,M,,*59
06/18/2015	14:02:37.475	$GPGGA,140238,2542.9832,N,07918.4712,W,1,8,2.0,17,M,,M,,*56
06/18/2015	14:02:38.475	$GPGGA,140239,2542.9832,N,07918.4711,W,1,8,2.0,17,M,,M,,*54
06/18/2015	14:02:39.545	$GPGGA,140240,2542.9832,N,07918.4710,W,1,7,2.3,17,M,,M,,*57
06/18/2015	14:02:40.495	$GPGGA,140241,2542.9832,N,07918.4711,W,1,7,2.3,17,M,,M,,*57
06/18/2015	14:02:41.585	$GPGGA,140242,2542.9830,N,07918.4709,W,1,7,2.3,16,M,,M,,*5E
06/18/2015	14:02:42.495	$GPGGA,140243,2542.9832,N,07918.4709,W,1,7,2.3,16,M,,M,,*5D
06/18/2015	14:02:43.645	$GPGGA,140244,2542.9830,N,07918.4709,W,1,7,2.3,16,M,,M,,*58
06/18/2015	14:02:44.485	$GPGGA,140245,2542.9831,N,07918.4708,W,1,7,2.3,16,M,,M,,*59
06/18/2015	14:02:45.465	$GPGGA,140246,2542.9830,N,07918.4708,W,1,7,2.3,16,M,,M,,*5B
06/18/2015	14:02:46.566	$GPGGA,140247,2542.9831,N,07918.4707,W,1,7,2.3,15,M,,M,,*57
06/18/2015	14:02:47.586	$GPGGA,140248,2542.9830,N,07918.4707,W,1,7,2.3,15,M,,M,,*59
06/18/2015	14:02:48.576	$GPGGA,140249,2542.9829,N,07918.4708,W,1,7,2.3,15,M,,M,,*5F
06/18/2015	14:02:49.595	$GPGGA,140250,2542.9831,N,07918.4706,W,1,7,2.3,15,M,,M,,*50
06/18/2015	14:02:50.555	$GPGGA,140251,2542.9830,N,07918.4707,W,1,7,2.3,15,M,,M,,*51
06/18/2015	14:02:51.635	$GPGGA,140252,2542.9829,N,07918.4706,W,1,7,2.3,14,M,,M,,*5A
06/18/2015	14:02:52.555	$GPGGA,140253,2542.9829,N,07918.4707,W,1,7,2.3,14,M,,M,,*5A
06/18/2015	14:02:53.565	$GPGGA,140254,2542.9831,N,07918.4705,W,1,7,2.3,14,M,,M,,*56
06/18/2015	14:02:54.555	$GPGGA,140255,2542.9829,N,07918.4705,W,1,7,2.3,14,M,,M,,*5E
06/18/2015	14:02:55.576	$GPGGA,140256,2542.9829,N,07918.4705,W,1,7,2.3,14,M,,M,,*5D
06/18/2015	14:02:56.545	$GPGGA,140257,2542.9829,N,07918.4704,W,1,7,2.3,14,M,,M,,*5D
06/18/2015	14:02:57.565	$GPGGA,140258,2542.9829,N,07918.4703,W,1,7,2.3,14,M,,M,,*55
06/18/2015	14:02:58.545	$GPGGA,140259,2542.9829,N,07918.4704,W,1,7,2.3,14,M,,M,,*53
06/18/2015	14:02:59.585	$GPGGA,140300,2542.9831,N,07918.4703,W,1,7,2.3,13,M,,M,,*57
06/18/2015	14:03:00.545	$GPGGA,140301,2542.9830,N,07918.4704,W,1,7,2.3,13,M,,M,,*50
06/18/2015	14:03:01.531	$GPGGA,140302,2542.9829,N,07918.4703,W,1,7,2.3,13,M,,M,,*5C
06/18/2015	14:03:02.525	$GPGGA,140303,2542.9831,N,07918.4702,W,1,7,2.3,13,M,,M,,*55
06/18/2015	14:03:03.596	$GPGGA,140304,2542.9830,N,07918.4702,W,1,7,2.3,13,M,,M,,*53
06/18/2015	14:03:04.537	$GPGGA,140305,2542.9831,N,07918.4704,W,1,7,2.3,13,M,,M,,*55
06/18/2015	14:03:05.536	$GPGGA,140306,2542.9830,N,07918.4702,W,1,7,2.3,13,M,,M,,*51
06/18/2015	14:03:06.535	$GPGGA,140307,2542.9832,N,07918.4704,W,1,7,2.0,13,M,,M,,*57
06/18/2015	14:03:07.575	$GPGGA,140308,2542.9832,N,07918.4707,W,1,8,2.0,13,M,,M,,*54
06/18/2015	14:03:08.525	$GPGGA,140309,2542.9834,N,07918.4708,W,1,8,2.0,13,M,,M,,*5C
06/18/2015	14:03:09.527	$GPGGA,140310,2542.9835,N,07918.4709,W,1,8,2.0,13,M,,M,,*54
06/18/2015	14:03:10.545	$GPGGA,140311,2542.9836,N,07918.4711,W,1,8,2.0,13,M,,M,,*5F
06/18/2015	14:03:11.555	$GPGGA,140312,2542.9836,N,07918.4714,W,1,8,2.0,13,M,,M,,*59
06/18/2015	14:03:12.517	$GPGGA,140313,2542.9838,N,07918.4715,W,1,8,2.0,13,M,,M,,*57
06/18/2015	14:03:14.525	$GPGGA,140314,2542.9839,N,07918.4715,W,1,8,2.0,13,M,,M,,*51
06/18/2015	14:03:14.555	$GPGGA,140315,2542.9838,N,07918.4716,W,1,8,2.0,13,M,,M,,*52
06/18/2015	14:03:15.535	$GPGGA,140316,2542.9839,N,07918.4718,W,1,8,2.0,13,M,,M,,*5E
06/18/2015	14:03:16.525	$GPGGA,140317,2542.9839,N,07918.4716,W,1,8,2.0,14,M,,M,,*56
06/18/2015	14:03:17.535	$GPGGA,140318,2542.9839,N,07918.4716,W,1,8,2.0,14,M,,M,,*59
06/18/2015	14:03:18.505	$GPGGA,140319,2542.9839,N,07918.4718,W,1,8,2.0,14,M,,M,,*56
06/18/2015	14:03:19.529	$GPGGA,140320,2542.9839,N,07918.4716,W,1,8,2.0,14,M,,M,,*52
06/18/2015	14:03:20.515	$GPGGA,140321,2542.9841,N,07918.4716,W,1,8,2.0,14,M,,M,,*5C
06/18/2015	14:03:21.596	$GPGGA,140322,2542.9840,N,07918.4716,W,1,8,2.0,14,M,,M,,*5E
06/18/2015	14:03:22.506	$GPGGA,140323,2542.9841,N,07918.4716,W,1,8,2.0,14,M,,M,,*5E
06/18/2015	14:03:23.625	$GPGGA,140324,2542.9840,N,07918.4715,W,1,8,2.3,14,M,,M,,*58
06/18/2015	14:03:24.595	$GPGGA,140325,2542.9841,N,07918.4713,W,1,8,2.3,14,M,,M,,*5E
06/18/2015	14:03:25.605	$GPGGA,140326,2542.9839,N,07918.4712,W,1,7,2.3,14,M,,M,,*5C
06/18/2015	14:03:26.595	$GPGGA,140327,2542.9839,N,07918.4711,W,1,7,2.3,14,M,,M,,*5E
06/18/2015	14:03:27.535	$GPGGA,140328,2542.9839,N,07918.4710,W,1,7,2.3,14,M,,M,,*50
06/18/2015	14:03:28.585	$GPGGA,140329,2542.9839,N,07918.4709,W,1,7,2.3,14,M,,M,,*59
06/18/2015	14:03:29.565	$GPGGA,140330,2542.9839,N,07918.4708,W,1,7,2.3,14,M,,M,,*50
06/18/2015	14:03:30.585	$GPGGA,140331,2542.9839,N,07918.4708,W,1,7,2.3,14,M,,M,,*51
06/18/2015	14:03:31.535	$GPGGA,140332,2542.9839,N,07918.4707,W,1,7,2.3,14,M,,M,,*5D
06/18/2015	14:03:32.555	$GPGGA,140333,2542.9839,N,07918.4707,W,1,7,2.3,14,M,,M,,*5C
06/18/2015	14:03:33.565	$GPGGA,140334,2542.9839,N,07918.4706,W,1,8,2.3,14,M,,M,,*55
06/18/2015	14:03:34.565	$GPGGA,140335,2542.9841,N,07918.4707,W,1,8,2.3,14,M,,M,,*5A
06/18/2015	14:03:35.585	$GPGGA,140336,2542.9840,N,07918.4706,W,1,7,2.3,14,M,,M,,*56
06/18/2015	14:03:36.565	$GPGGA,140337,2542.9841,N,07918.4707,W,1,7,2.3,13,M,,M,,*50
06/18/2015	14:03:37.545	$GPGGA,140338,2542.9839,N,07918.4705,W,1,7,2.3,13,M,,M,,*52
06/18/2015	14:03:38.556	$GPGGA,140339,2542.9841,N,07918.4705,W,1,7,2.3,13,M,,M,,*5C
06/18/2015	14:03:39.586	$GPGGA,140340,2542.9840,N,07918.4705,W,1,7,2.3,13,M,,M,,*53
06/18/2015	14:03:40.546	$GPGGA,140341,2542.9841,N,07918.4705,W,1,7,2.3,13,M,,M,,*53
06/18/2015	14:03:41.565	$GPGGA,140342,2542.9840,N,07918.4705,W,1,7,2.3,13,M,,M,,*51
06/18/2015	14:03:43.605	$GPGGA,140344,2542.9841,N,07918.4704,W,1,7,2.3,13,M,,M,,*57
06/18/2015	14:03:44.535	$GPGGA,140345,2542.9842,N,07918.4704,W,1,7,2.3,13,M,,M,,*55
06/18/2015	14:03:45.555	$GPGGA,140346,2542.9841,N,07918.4703,W,1,7,2.3,13,M,,M,,*52
06/18/2015	14:03:46.545	$GPGGA,140347,2542.9842,N,07918.4704,W,1,7,2.3,12,M,,M,,*56
06/18/2015	14:03:47.575	$GPGGA,140348,2542.9841,N,07918.4704,W,1,7,2.3,12,M,,M,,*5A
06/18/2015	14:03:48.525	$GPGGA,140349,2542.9843,N,07918.4703,W,1,7,2.3,12,M,,M,,*5E
06/18/2015	14:03:49.555	$GPGGA,140350,2542.9843,N,07918.4704,W,1,7,2.3,12,M,,M,,*51
06/18/2015	14:03:50.535	$GPGGA,140351,2542.9843,N,07918.4703,W,1,7,2.3,12,M,,M,,*57
06/18/2015	14:03:51.995	$GPGGA,140352,2542.9843,N,07918.4704,W,1,7,2.3,12,M,,M,,*53
06/18/2015	14:03:52.565	$GPGGA,140353,2542.9843,N,07918.4703,W,1,7,2.3,12,M,,M,,*55
06/18/2015	14:03:53.517	$GPGGA,140354,2542.9843,N,07918.4704,W,1,7,2.3,12,M,,M,,*55
06/18/2015	14:03:54.535	$GPGGA,140355,2542.9843,N,07918.4703,W,1,7,2.3,12,M,,M,,*53
06/18/2015	14:03:55.526	$GPGGA,140356,2542.9843,N,07918.4704,W,1,7,2.3,12,M,,M,,*57
06/18/2015	14:03:56.526	$GPGGA,140357,2542.9843,N,07918.4704,W,1,7,2.3,11,M,,M,,*55
06/18/2015	14:03:57.516	$GPGGA,140358,2542.9843,N,07918.4704,W,1,7,2.3,11,M,,M,,*5A
06/18/2015	14:03:58.516	$GPGGA,140359,2542.9843,N,07918.4704,W,1,7,2.3,11,M,,M,,*5B
06/18/2015	14:03:59.595	$GPGGA,140400,2542.9843,N,07918.4704,W,1,7,2.3,11,M,,M,,*50
06/18/2015	14:04:00.505	$GPGGA,140401,2542.9845,N,07918.4703,W,1,7,2.3,11,M,,M,,*50
06/18/2015	14:04:01.525	$GPGGA,140402,2542.9844,N,07918.4704,W,1,7,2.3,11,M,,M,,*55
06/18/2015	14:04:02.515	$GPGGA,140403,2542.9845,N,07918.4704,W,1,7,2.3,11,M,,M,,*55
06/18/2015	14:04:03.535	$GPGGA,140404,2542.9844,N,07918.4704,W,1,7,2.3,11,M,,M,,*53
06/18/2015	14:04:04.495	$GPGGA,140405,2542.9846,N,07918.4703,W,1,7,2.3,11,M,,M,,*57
06/18/2015	14:04:05.485	$GPGGA,140406,2542.9844,N,07918.4704,W,1,7,2.3,11,M,,M,,*51
06/18/2015	14:04:06.508	$GPGGA,140407,2542.9845,N,07918.4704,W,1,7,2.3,11,M,,M,,*51
06/18/2015	14:04:07.625	$GPGGA,140408,2542.9846,N,07918.4703,W,1,7,2.3,11,M,,M,,*5A
06/18/2015	14:04:08.495	$GPGGA,140409,2542.9845,N,07918.4704,W,1,7,2.3,11,M,,M,,*5F
06/18/2015	14:04:09.575	$GPGGA,140410,2542.9846,N,07918.4703,W,1,7,2.3,11,M,,M,,*53
06/18/2015	14:04:10.495	$GPGGA,140411,2542.9845,N,07918.4704,W,1,7,2.3,11,M,,M,,*56
06/18/2015	14:04:11.605	$GPGGA,140412,2542.9846,N,07918.4703,W,1,7,2.3,11,M,,M,,*51
06/18/2015	14:04:12.495	$GPGGA,140413,2542.9846,N,07918.4704,W,1,7,2.3,11,M,,M,,*57
06/18/2015	14:04:13.465	$GPGGA,140414,2542.9846,N,07918.4703,W,1,7,2.3,11,M,,M,,*57
06/18/2015	14:04:14.555	$GPGGA,140415,2542.9846,N,07918.4704,W,1,7,2.3,11,M,,M,,*51
06/18/2015	14:04:15.615	$GPGGA,140416,2542.9847,N,07918.4703,W,1,7,2.3,11,M,,M,,*54
06/18/2015	14:04:16.584	$GPGGA,140417,2542.9846,N,07918.4704,W,1,7,2.3,11,M,,M,,*53
06/18/2015	14:04:17.554	$GPGGA,140418,2542.9846,N,07918.4703,W,1,7,2.3,10,M,,M,,*5A
06/18/2015	14:04:18.564	$GPGGA,140419,2542.9846,N,07918.4704,W,1,7,2.3,10,M,,M,,*5C
06/18/2015	14:04:19.574	$GPGGA,140420,2542.9846,N,07918.4703,W,1,7,2.3,10,M,,M,,*51
06/18/2015	14:04:20.544	$GPGGA,140421,2542.9846,N,07918.4704,W,1,7,2.3,10,M,,M,,*57
06/18/2015	14:04:21.584	$GPGGA,140422,2542.9847,N,07918.4703,W,1,7,2.3,10,M,,M,,*52
06/18/2015	14:04:22.554	$GPGGA,140423,2542.9847,N,07918.4704,W,1,7,2.3,10,M,,M,,*54
06/18/2015	14:04:23.595	$GPGGA,140424,2542.9846,N,07918.4703,W,1,7,2.3,10,M,,M,,*55
06/18/2015	14:04:24.545	$GPGGA,140425,2542.9847,N,07918.4702,W,1,7,2.3,10,M,,M,,*54
06/18/2015	14:04:25.565	$GPGGA,140426,2542.9847,N,07918.4702,W,1,7,2.3,10,M,,M,,*57
06/18/2015	14:04:26.535	$GPGGA,140427,2542.9847,N,07918.4702,W,1,7,2.3,10,M,,M,,*56
06/18/2015	14:04:27.555	$GPGGA,140428,2542.9846,N,07918.4704,W,1,7,2.3,10,M,,M,,*5E
06/18/2015	14:04:28.545	$GPGGA,140429,2542.9847,N,07918.4702,W,1,7,2.3,10,M,,M,,*58
06/18/2015	14:04:29.545	$GPGGA,140430,2542.9847,N,07918.4701,W,1,7,2.3,10,M,,M,,*53
06/18/2015	14:04:30.535	$GPGGA,140431,2542.9846,N,07918.4702,W,1,7,2.3,10,M,,M,,*50
06/18/2015	14:04:31.575	$GPGGA,140432,2542.9846,N,07918.4702,W,1,7,2.3,10,M,,M,,*53
06/18/2015	14:04:32.525	$GPGGA,140433,2542.9847,N,07918.4701,W,1,7,2.3,10,M,,M,,*50
06/18/2015	14:04:33.525	$GPGGA,140434,2542.9847,N,07918.4701,W,1,7,2.3,10,M,,M,,*57
06/18/2015	14:04:34.534	$GPGGA,140435,2542.9846,N,07918.4702,W,1,7,2.3,10,M,,M,,*54
06/18/2015	14:04:35.564	$GPGGA,140436,2542.9847,N,07918.4701,W,1,7,2.3,10,M,,M,,*55
06/18/2015	14:04:36.514	$GPGGA,140437,2542.9847,N,07918.4701,W,1,7,2.3,10,M,,M,,*54
06/18/2015	14:04:37.514	$GPGGA,140438,2542.9847,N,07918.4701,W,1,7,2.3,10,M,,M,,*5B
06/18/2015	14:04:38.524	$GPGGA,140439,2542.9847,N,07918.4701,W,1,7,2.3,10,M,,M,,*5A
06/18/2015	14:04:39.554	$GPGGA,140440,2542.9849,N,07918.4702,W,1,8,2.1,10,M,,M,,*54
06/18/2015	14:04:40.514	$GPGGA,140441,2542.9850,N,07918.4702,W,1,8,2.1,10,M,,M,,*5D
06/18/2015	14:04:41.505	$GPGGA,140442,2542.9848,N,07918.4702,W,1,8,2.1,10,M,,M,,*57
06/18/2015	14:04:42.515	$GPGGA,140443,2542.9850,N,07918.4702,W,1,8,2.1,10,M,,M,,*5F
06/18/2015	14:04:43.525	$GPGGA,140444,2542.9850,N,07918.4701,W,1,8,2.1,10,M,,M,,*5B
06/18/2015	14:04:44.495	$GPGGA,140445,2542.9850,N,07918.4701,W,1,8,2.1,10,M,,M,,*5A
06/18/2015	14:04:45.505	$GPGGA,140446,2542.9850,N,07918.4700,W,1,7,2.3,10,M,,M,,*55
06/18/2015	14:04:46.495	$GPGGA,140447,2542.9850,N,07918.4700,W,1,7,2.3,10,M,,M,,*54
06/18/2015	14:04:47.535	$GPGGA,140448,2542.9850,N,07918.4700,W,1,7,2.3,10,M,,M,,*5B
06/18/2015	14:04:48.485	$GPGGA,140449,2542.9848,N,07918.4699,W,1,7,2.3,10,M,,M,,*52
06/18/2015	14:04:49.525	$GPGGA,140450,2542.9850,N,07918.4698,W,1,7,2.3,10,M,,M,,*52
06/18/2015	14:04:50.505	$GPGGA,140451,2542.9850,N,07918.4698,W,1,7,2.3,10,M,,M,,*53
06/18/2015	14:04:51.515	$GPGGA,140452,2542.9850,N,07918.4698,W,1,7,2.3,10,M,,M,,*50
06/18/2015	14:04:52.474	$GPGGA,140453,2542.9850,N,07918.4698,W,1,7,2.3,10,M,,M,,*51
06/18/2015	14:04:53.505	$GPGGA,140454,2542.9850,N,07918.4698,W,1,7,2.3,10,M,,M,,*56
06/18/2015	14:04:54.574	$GPGGA,140455,2542.9850,N,07918.4697,W,1,7,2.3,10,M,,M,,*58
06/18/2015	14:04:55.484	$GPGGA,140456,2542.9850,N,07918.4697,W,1,7,2.3,10,M,,M,,*5B
06/18/2015	14:04:56.584	$GPGGA,140457,2542.9850,N,07918.4697,W,1,7,2.3,10,M,,M,,*5A
06/18/2015	14:04:57.474	$GPGGA,140458,2542.9850,N,07918.4697,W,1,7,2.3,10,M,,M,,*55
06/18/2015	14:04:58.565	$GPGGA,140459,2542.9850,N,07918.4696,W,1,7,2.3,10,M,,M,,*55
06/18/2015	14:04:59.585	$GPGGA,140500,2542.9850,N,07918.4697,W,1,7,2.3,10,M,,M,,*59
06/18/2015	14:05:00.585	$GPGGA,140501,2542.9850,N,07918.4696,W,1,7,2.3,10,M,,M,,*59
06/18/2015	14:05:01.555	$GPGGA,140502,2542.9850,N,07918.4697,W,1,7,2.3,10,M,,M,,*5B
06/18/2015	14:05:02.465	$GPGGA,140503,2542.9852,N,07918.4696,W,1,7,2.3,10,M,,M,,*59
06/18/2015	14:05:03.475	$GPGGA,140504,2542.9853,N,07918.4697,W,1,7,2.3,10,M,,M,,*5E
06/18/2015	14:05:04.545	$GPGGA,140505,2542.9851,N,07918.4696,W,1,7,2.3,10,M,,M,,*5C
06/18/2015	14:05:05.565	$GPGGA,140506,2542.9853,N,07918.4697,W,1,7,2.3,10,M,,M,,*5C
06/18/2015	14:05:06.555	$GPGGA,140507,2542.9852,N,07918.4696,W,1,7,2.3,10,M,,M,,*5D
06/18/2015	14:05:07.595	$GPGGA,140508,2542.9853,N,07918.4697,W,1,7,2.3,10,M,,M,,*52
06/18/2015	14:05:08.544	$GPGGA,140509,2542.9852,N,07918.4696,W,1,7,2.3,10,M,,M,,*53
06/18/2015	14:05:09.554	$GPGGA,140510,2542.9853,N,07918.4695,W,1,7,2.3,10,M,,M,,*59
06/18/2015	14:05:11.605	$GPGGA,140512,2542.9853,N,07918.4697,W,1,7,2.3,10,M,,M,,*59
06/18/2015	14:05:12.534	$GPGGA,140513,2542.9852,N,07918.4696,W,1,7,2.3,10,M,,M,,*58
06/18/2015	14:05:13.554	$GPGGA,140514,2542.9853,N,07918.4697,W,1,7,2.3,10,M,,M,,*5F
06/18/2015	14:05:14.534	$GPGGA,140515,2542.9852,N,07918.4697,W,1,7,2.3,10,M,,M,,*5F
06/18/2015	14:05:15.584	$GPGGA,140516,2542.9851,N,07918.4697,W,1,7,2.3,10,M,,M,,*5F
06/18/2015	14:05:16.535	$GPGGA,140517,2542.9853,N,07918.4697,W,1,7,2.3,10,M,,M,,*5C
06/18/2015	14:05:17.545	$GPGGA,140518,2542.9852,N,07918.4696,W,1,7,2.3,10,M,,M,,*53
06/18/2015	14:05:18.525	$GPGGA,140519,2542.9851,N,07918.4697,W,1,7,2.3,10,M,,M,,*50
06/18/2015	14:05:19.565	$GPGGA,140520,2542.9852,N,07918.4697,W,1,7,2.3,10,M,,M,,*59
06/18/2015	14:05:20.525	$GPGGA,140521,2542.9851,N,07918.4697,W,1,7,2.3,10,M,,M,,*5B
06/18/2015	14:05:21.515	$GPGGA,140522,2542.9852,N,07918.4697,W,1,7,2.3,10,M,,M,,*5B
06/18/2015	14:05:22.515	$GPGGA,140523,2542.9851,N,07918.4698,W,1,7,2.3,10,M,,M,,*56
06/18/2015	14:05:23.555	$GPGGA,140524,2542.9852,N,07918.4697,W,1,7,2.3,10,M,,M,,*5D
06/18/2015	14:05:24.515	$GPGGA,140525,2542.9851,N,07918.4698,W,1,7,2.3,10,M,,M,,*50
06/18/2015	14:05:25.515	$GPGGA,140526,2542.9852,N,07918.4698,W,1,7,2.3,10,M,,M,,*50
06/18/2015	14:05:26.524	$GPGGA,140527,2542.9851,N,07918.4698,W,1,7,2.3,10,M,,M,,*52
06/18/2015	14:05:27.524	$GPGGA,140528,2542.9852,N,07918.4698,W,1,7,2.3,10,M,,M,,*5E
06/18/2015	14:05:28.494	$GPGGA,140529,2542.9851,N,07918.4698,W,1,7,2.3,10,M,,M,,*5C
06/18/2015	14:05:29.508	$GPGGA,140530,2542.9850,N,07918.4698,W,1,7,2.3,10,M,,M,,*55
06/18/2015	14:05:30.515	$GPGGA,140531,2542.9850,N,07918.4698,W,1,7,2.3,10,M,,M,,*54
06/18/2015	14:05:31.534	$GPGGA,140532,2542.9850,N,07918.4698,W,1,7,2.3,10,M,,M,,*57
06/18/2015	14:05:32.594	$GPGGA,140533,2542.9850,N,07918.4700,W,1,7,2.3,10,M,,M,,*56
06/18/2015	14:05:33.525	$GPGGA,140534,2542.9852,N,07918.4701,W,1,8,2.1,10,M,,M,,*5F
06/18/2015	14:05:34.486	$GPGGA,140535,2542.9851,N,07918.4704,W,1,8,2.1,10,M,,M,,*58
06/18/2015	14:05:35.516	$GPGGA,140536,2542.9853,N,07918.4704,W,1,8,2.1,10,M,,M,,*59
06/18/2015	14:05:36.495	$GPGGA,140537,2542.9852,N,07918.4705,W,1,8,2.1,10,M,,M,,*58
06/18/2015	14:05:37.665	$GPGGA,140538,2542.9853,N,07918.4707,W,1,8,2.1,10,M,,M,,*54
06/18/2015	14:05:38.625	$GPGGA,140539,2542.9851,N,07918.4707,W,1,8,2.1,10,M,,M,,*57
06/18/2015	14:05:39.685	$GPGGA,140540,2542.9852,N,07918.4707,W,1,8,2.3,10,M,,M,,*58
06/18/2015	14:05:40.615	$GPGGA,140541,2542.9851,N,07918.4711,W,1,8,2.3,10,M,,M,,*5D
06/18/2015	14:05:41.665	$GPGGA,140542,2542.9852,N,07918.4714,W,1,8,2.1,11,M,,M,,*5B
06/18/2015	14:05:42.495	$GPGGA,140543,2542.9853,N,07918.4715,W,1,8,2.1,11,M,,M,,*5A
06/18/2015	14:05:43.674	$GPGGA,140544,2542.9852,N,07918.4718,W,1,8,2.1,11,M,,M,,*51
06/18/2015	14:05:44.608	$GPGGA,140545,2542.9854,N,07918.4719,W,1,8,2.1,11,M,,M,,*57
06/18/2015	14:05:45.654	$GPGGA,140546,2542.9854,N,07918.4720,W,1,8,2.1,11,M,,M,,*5E
06/18/2015	14:05:46.474	$GPGGA,140547,2542.9854,N,07918.4719,W,1,8,2.1,11,M,,M,,*55
06/18/2015	14:05:47.664	$GPGGA,140548,2542.9852,N,07918.4718,W,1,7,2.3,12,M,,M,,*53
06/18/2015	14:05:48.594	$GPGGA,140549,2542.9853,N,07918.4718,W,1,7,2.3,12,M,,M,,*53
06/18/2015	14:05:49.654	$GPGGA,140550,2542.9854,N,07918.4719,W,1,7,2.1,12,M,,M,,*5F
06/18/2015	14:05:50.584	$GPGGA,140551,2542.9854,N,07918.4720,W,1,7,2.1,12,M,,M,,*54
06/18/2015	14:05:51.565	$GPGGA,140552,2542.9854,N,07918.4722,W,1,8,2.1,12,M,,M,,*5A
06/18/2015	14:05:52.595	$GPGGA,140553,2542.9854,N,07918.4722,W,1,8,2.1,13,M,,M,,*5A
06/18/2015	14:05:53.655	$GPGGA,140554,2542.9856,N,07918.4722,W,1,8,2.1,13,M,,M,,*5F
06/18/2015	14:05:54.545	$GPGGA,140555,2542.9855,N,07918.4723,W,1,8,2.1,13,M,,M,,*5C
06/18/2015	14:05:55.655	$GPGGA,140556,2542.9856,N,07918.4725,W,1,8,2.1,13,M,,M,,*5A
06/18/2015	14:05:58.875	$GPGGA,140559,2542.9856,N,07918.4725,W,1,8,2.1,14,M,,M,,*52
06/18/2015	14:05:59.675	$GPGGA,140600,2542.9855,N,07918.4726,W,1,8,2.1,14,M,,M,,*5D
06/18/2015	14:06:00.565	$GPGGA,140601,2542.9857,N,07918.4725,W,1,8,2.1,14,M,,M,,*5D
06/18/2015	14:06:01.524	$GPGGA,140602,2542.9856,N,07918.4726,W,1,8,2.1,14,M,,M,,*5C
06/18/2015	14:06:02.554	$GPGGA,140603,2542.9857,N,07918.4727,W,1,8,2.1,14,M,,M,,*5D
06/18/2015	14:06:03.654	$GPGGA,140604,2542.9856,N,07918.4727,W,1,8,2.1,14,M,,M,,*5B
06/18/2015	14:06:04.524	$GPGGA,140605,2542.9857,N,07918.4727,W,1,8,2.1,14,M,,M,,*5B
06/18/2015	14:06:05.634	$GPGGA,140606,2542.9855,N,07918.4726,W,1,8,2.1,15,M,,M,,*5A
06/18/2015	14:06:06.514	$GPGGA,140607,2542.9856,N,07918.4727,W,1,8,2.3,15,M,,M,,*5B
06/18/2015	14:06:07.614	$GPGGA,140608,2542.9857,N,07918.4729,W,1,8,2.1,15,M,,M,,*59
06/18/2015	14:06:08.515	$GPGGA,140609,2542.9855,N,07918.4726,W,1,8,2.1,15,M,,M,,*55
06/18/2015	14:06:09.625	$GPGGA,140610,2542.9856,N,07918.4726,W,1,7,2.3,15,M,,M,,*53
06/18/2015	14:06:10.515	$GPGGA,140611,2542.9854,N,07918.4726,W,1,7,2.1,15,M,,M,,*52
06/18/2015	14:06:11.595	$GPGGA,140612,2542.9854,N,07918.4727,W,1,8,2.1,15,M,,M,,*5F
06/18/2015	14:06:12.510	$GPGGA,140613,2542.9854,N,07918.4726,W,1,8,2.1,15,M,,M,,*5F
06/18/2015	14:06:13.615	$GPGGA,140614,2542.9854,N,07918.4727,W,1,7,2.4,15,M,,M,,*53
06/18/2015	14:06:14.495	$GPGGA,140615,2542.9854,N,07918.4729,W,1,7,2.1,15,M,,M,,*59
06/18/2015	14:06:15.585	$GPGGA,140616,2542.9854,N,07918.4730,W,1,8,2.1,15,M,,M,,*5D
06/18/2015	14:06:16.545	$GPGGA,140617,2542.9854,N,07918.4730,W,1,8,2.1,15,M,,M,,*5C
06/18/2015	14:06:17.615	$GPGGA,140618,2542.9854,N,07918.4729,W,1,8,2.1,15,M,,M,,*5B
06/18/2015	14:06:18.534	$GPGGA,140619,2542.9854,N,07918.4729,W,1,8,2.1,15,M,,M,,*5A
06/18/2015	14:06:19.604	$GPGGA,140620,2542.9854,N,07918.4730,W,1,8,2.1,15,M,,M,,*58
06/18/2015	14:06:20.524	$GPGGA,140621,2542.9854,N,07918.4729,W,1,8,2.1,15,M,,M,,*51
06/18/2015	14:06:21.484	$GPGGA,140622,2542.9854,N,07918.4729,W,1,8,2.1,15,M,,M,,*52
06/18/2015	14:06:22.594	$GPGGA,140623,2542.9854,N,07918.4732,W,1,8,2.1,16,M,,M,,*5A
06/18/2015	14:06:23.584	$GPGGA,140624,2542.9854,N,07918.4731,W,1,8,2.1,16,M,,M,,*5E
06/18/2015	14:06:24.514	$GPGGA,140625,2542.9854,N,07918.4730,W,1,8,2.1,16,M,,M,,*5E
06/18/2015	14:06:25.564	$GPGGA,140626,2542.9854,N,07918.4733,W,1,8,2.1,16,M,,M,,*5E
06/18/2015	14:06:26.575	$GPGGA,140627,2542.9852,N,07918.4732,W,1,8,2.1,16,M,,M,,*58
06/18/2015	14:06:27.655	$GPGGA,140628,2542.9853,N,07918.4733,W,1,8,2.1,16,M,,M,,*57
06/18/2015	14:06:28.585	$GPGGA,140629,2542.9852,N,07918.4732,W,1,8,2.1,16,M,,M,,*56
06/18/2015	14:06:29.575	$GPGGA,140630,2542.9851,N,07918.4733,W,1,8,2.1,16,M,,M,,*5C
06/18/2015	14:06:30.495	$GPGGA,140631,2542.9852,N,07918.4733,W,1,8,2.1,16,M,,M,,*5E
06/18/2015	14:06:31.635	$GPGGA,140632,2542.9851,N,07918.4733,W,1,8,2.1,16,M,,M,,*5E
06/18/2015	14:06:32.555	$GPGGA,140633,2542.9852,N,07918.4733,W,1,8,2.1,16,M,,M,,*5C
06/18/2015	14:06:33.625	$GPGGA,140634,2542.9850,N,07918.4734,W,1,8,2.1,16,M,,M,,*5E
06/18/2015	14:06:34.575	$GPGGA,140635,2542.9850,N,07918.4734,W,1,8,2.1,16,M,,M,,*5F
06/18/2015	14:06:35.585	$GPGGA,140636,2542.9850,N,07918.4734,W,1,8,2.1,16,M,,M,,*5C
06/18/2015	14:06:36.554	$GPGGA,140637,2542.9850,N,07918.4736,W,1,8,2.1,16,M,,M,,*5F
06/18/2015	14:06:37.594	$GPGGA,140638,2542.9850,N,07918.4735,W,1,8,2.1,16,M,,M,,*53
06/18/2015	14:06:38.564	$GPGGA,140639,2542.9850,N,07918.4735,W,1,8,2.1,16,M,,M,,*52
06/18/2015	14:06:39.574	$GPGGA,140640,2542.9850,N,07918.4736,W,1,8,2.1,16,M,,M,,*5F
06/18/2015	14:06:40.554	$GPGGA,140641,2542.9848,N,07918.4736,W,1,8,2.1,16,M,,M,,*57
06/18/2015	14:06:41.614	$GPGGA,140642,2542.9849,N,07918.4736,W,1,8,2.1,15,M,,M,,*56
06/18/2015	14:06:42.544	$GPGGA,140643,2542.9848,N,07918.4735,W,1,8,2.1,15,M,,M,,*55
06/18/2015	14:06:43.595	$GPGGA,140644,2542.9847,N,07918.4736,W,1,8,2.1,15,M,,M,,*5E
06/18/2015	14:06:44.545	$GPGGA,140645,2542.9846,N,07918.4736,W,1,8,2.1,15,M,,M,,*5E
06/18/2015	14:06:45.555	$GPGGA,140646,2542.9846,N,07918.4736,W,1,8,2.1,15,M,,M,,*5D
06/18/2015	14:06:46.545	$GPGGA,140647,2542.9846,N,07918.4736,W,1,8,2.1,15,M,,M,,*5C
06/18/2015	14:06:47.575	$GPGGA,140648,2542.9846,N,07918.4736,W,1,8,2.1,15,M,,M,,*53
06/18/2015	14:06:48.535	$GPGGA,140649,2542.9846,N,07918.4737,W,1,8,2.1,15,M,,M,,*53
06/18/2015	14:06:49.615	$GPGGA,140650,2542.9846,N,07918.4737,W,1,8,2.1,15,M,,M,,*5B
06/18/2015	14:06:50.525	$GPGGA,140651,2542.9845,N,07918.4736,W,1,8,2.1,15,M,,M,,*58
06/18/2015	14:06:51.575	$GPGGA,140652,2542.9843,N,07918.4737,W,1,8,2.1,15,M,,M,,*5C
06/18/2015	14:06:52.525	$GPGGA,140653,2542.9843,N,07918.4737,W,1,8,2.1,15,M,,M,,*5D
06/18/2015	14:06:53.554	$GPGGA,140654,2542.9843,N,07918.4736,W,1,8,2.1,15,M,,M,,*5B
06/18/2015	14:06:54.534	$GPGGA,140655,2542.9841,N,07918.4737,W,1,8,2.1,15,M,,M,,*59
06/18/2015	14:06:55.604	$GPGGA,140656,2542.9840,N,07918.4738,W,1,8,2.1,15,M,,M,,*54
06/18/2015	14:06:56.534	$GPGGA,140657,2542.9841,N,07918.4738,W,1,8,2.1,15,M,,M,,*54
06/18/2015	14:06:57.544	$GPGGA,140658,2542.9841,N,07918.4738,W,1,8,2.1,15,M,,M,,*5B
06/18/2015	14:06:58.544	$GPGGA,140659,2542.9839,N,07918.4738,W,1,8,2.1,15,M,,M,,*55
06/18/2015	14:06:59.624	$GPGGA,140700,2542.9838,N,07918.4738,W,1,8,2.1,15,M,,M,,*59
06/18/2015	14:07:00.494	$GPGGA,140701,2542.9837,N,07918.4737,W,1,8,2.1,15,M,,M,,*58
06/18/2015	14:07:01.575	$GPGGA,140702,2542.9836,N,07918.4738,W,1,8,2.1,15,M,,M,,*55
06/18/2015	14:07:02.516	$GPGGA,140703,2542.9836,N,07918.4738,W,1,8,2.1,15,M,,M,,*54
06/18/2015	14:07:03.525	$GPGGA,140704,2542.9836,N,07918.4738,W,1,8,2.1,15,M,,M,,*53
06/18/2015	14:07:04.496	$GPGGA,140705,2542.9836,N,07918.4738,W,1,8,2.1,15,M,,M,,*52
06/18/2015	14:07:05.525	$GPGGA,140706,2542.9836,N,07918.4738,W,1,8,2.1,15,M,,M,,*51
06/18/2015	14:07:06.495	$GPGGA,140707,2542.9833,N,07918.4740,W,1,8,2.1,15,M,,M,,*5A
06/18/2015	14:07:08.095	$GPGGA,140708,2542.9834,N,07918.4738,W,1,8,2.1,15,M,,M,,*5D
06/18/2015	14:07:08.495	$GPGGA,140709,2542.9832,N,07918.4738,W,1,8,2.1,14,M,,M,,*5B
06/18/2015	14:07:09.515	$GPGGA,140710,2542.9832,N,07918.4738,W,1,8,2.1,14,M,,M,,*53
06/18/2015	14:07:10.485	$GPGGA,140711,2542.9830,N,07918.4739,W,1,8,2.1,14,M,,M,,*51
06/18/2015	14:07:11.554	$GPGGA,140712,2542.9830,N,07918.4739,W,1,8,2.1,14,M,,M,,*52
06/18/2015	14:07:12.594	$GPGGA,140713,2542.9829,N,07918.4739,W,1,8,2.1,14,M,,M,,*5B
06/18/2015	14:07:13.594	$GPGGA,140714,2542.9828,N,07918.4740,W,1,8,2.1,14,M,,M,,*53
06/18/2015	14:07:14.494	$GPGGA,140715,2542.9828,N,07918.4739,W,1,8,2.1,14,M,,M,,*5C
06/18/2015	14:07:15.594	$GPGGA,140716,2542.9827,N,07918.4740,W,1,8,2.1,14,M,,M,,*5E
06/18/2015	14:07:16.484	$GPGGA,140717,2542.9826,N,07918.4739,W,1,8,2.1,14,M,,M,,*50
06/18/2015	14:07:17.564	$GPGGA,140718,2542.9825,N,07918.4740,W,1,8,2.1,14,M,,M,,*52
06/18/2015	14:07:18.565	$GPGGA,140719,2542.9825,N,07918.4739,W,1,8,2.1,14,M,,M,,*5D
06/18/2015	14:07:19.605	$GPGGA,140720,2542.9825,N,07918.4740,W,1,8,2.1,14,M,,M,,*59
06/18/2015	14:07:20.555	$GPGGA,140721,2542.9825,N,07918.4739,W,1,8,2.1,14,M,,M,,*56
06/18/2015	14:07:21.595	$GPGGA,140722,2542.9823,N,07918.4740,W,1,8,2.1,14,M,,M,,*5D
06/18/2015	14:07:22.545	$GPGGA,140723,2542.9824,N,07918.4739,W,1,8,2.1,14,M,,M,,*55
06/18/2015	14:07:23.615	$GPGGA,140724,2542.9822,N,07918.4740,W,1,8,2.1,14,M,,M,,*5A
06/18/2015	14:07:24.545	$GPGGA,140725,2542.9821,N,07918.4739,W,1,8,2.1,14,M,,M,,*56
06/18/2015	14:07:25.565	$GPGGA,140726,2542.9820,N,07918.4740,W,1,8,2.1,14,M,,M,,*5A
06/18/2015	14:07:26.545	$GPGGA,140727,2542.9821,N,07918.4740,W,1,8,2.1,14,M,,M,,*5A
06/18/2015	14:07:27.565	$GPGGA,140728,2542.9819,N,07918.4740,W,1,8,2.1,14,M,,M,,*5E
06/18/2015	14:07:28.544	$GPGGA,140729,2542.9818,N,07918.4740,W,1,8,2.1,14,M,,M,,*5E
06/18/2015	14:07:29.534	$GPGGA,140730,2542.9818,N,07918.4740,W,1,8,2.1,13,M,,M,,*51
06/18/2015	14:07:30.544	$GPGGA,140731,2542.9818,N,07918.4740,W,1,8,2.1,13,M,,M,,*50
06/18/2015	14:07:31.564	$GPGGA,140732,2542.9818,N,07918.4740,W,1,8,2.1,13,M,,M,,*53
06/18/2015	14:07:32.554	$GPGGA,140733,2542.9818,N,07918.4740,W,1,8,2.1,13,M,,M,,*52
06/18/2015	14:07:33.524	$GPGGA,140734,2542.9816,N,07918.4740,W,1,8,2.1,13,M,,M,,*5B
06/18/2015	14:07:34.534	$GPGGA,140735,2542.9815,N,07918.4740,W,1,8,2.1,13,M,,M,,*59
06/18/2015	14:07:35.584	$GPGGA,140736,2542.9816,N,07918.4740,W,1,8,2.1,13,M,,M,,*59
06/18/2015	14:07:36.525	$GPGGA,140737,2542.9814,N,07918.4740,W,1,8,2.1,13,M,,M,,*5A
06/18/2015	14:07:37.555	$GPGGA,140738,2542.9814,N,07918.4741,W,1,8,2.1,13,M,,M,,*54
06/18/2015	14:07:38.515	$GPGGA,140739,2542.9814,N,07918.4741,W,1,8,2.1,13,M,,M,,*55
06/18/2015	14:07:39.545	$GPGGA,140740,2542.9814,N,07918.4741,W,1,8,2.1,13,M,,M,,*5B
06/18/2015	14:07:40.515	$GPGGA,140741,2542.9812,N,07918.4741,W,1,8,2.1,13,M,,M,,*5C
06/18/2015	14:07:41.535	$GPGGA,140742,2542.9811,N,07918.4743,W,1,8,2.1,13,M,,M,,*5E
06/18/2015	14:07:42.525	$GPGGA,140743,2542.9811,N,07918.4741,W,1,8,2.1,13,M,,M,,*5D
06/18/2015	14:07:43.565	$GPGGA,140744,2542.9811,N,07918.4741,W,1,8,2.1,13,M,,M,,*5A
06/18/2015	14:07:44.505	$GPGGA,140745,2542.9810,N,07918.4741,W,1,8,2.1,13,M,,M,,*5A
06/18/2015	14:07:45.515	$GPGGA,140746,2542.9809,N,07918.4743,W,1,8,2.1,13,M,,M,,*53
06/18/2015	14:07:46.504	$GPGGA,140747,2542.9810,N,07918.4741,W,1,8,2.1,13,M,,M,,*58
06/18/2015	14:07:47.624	$GPGGA,140748,2542.9809,N,07918.4743,W,1,8,2.1,13,M,,M,,*5D
06/18/2015	14:07:48.524	$GPGGA,140749,2542.9808,N,07918.4742,W,1,8,2.1,13,M,,M,,*5C
06/18/2015	14:07:49.614	$GPGGA,140750,2542.9809,N,07918.4743,W,1,8,2.1,13,M,,M,,*54
06/18/2015	14:07:50.608	$GPGGA,140751,2542.9807,N,07918.4742,W,1,8,2.1,13,M,,M,,*5A
06/18/2015	14:07:51.624	$GPGGA,140752,2542.9807,N,07918.4743,W,1,8,2.1,13,M,,M,,*58
06/18/2015	14:07:52.494	$GPGGA,140753,2542.9807,N,07918.4742,W,1,8,2.1,13,M,,M,,*58
06/18/2015	14:07:53.595	$GPGGA,140754,2542.9805,N,07918.4743,W,1,8,2.1,13,M,,M,,*5C
06/18/2015	14:07:54.495	$GPGGA,140755,2542.9806,N,07918.4741,W,1,8,2.1,13,M,,M,,*5C
06/18/2015	14:07:55.595	$GPGGA,140756,2542.9805,N,07918.4741,W,1,8,2.1,13,M,,M,,*5C
06/18/2015	14:07:56.595	$GPGGA,140757,2542.9804,N,07918.4741,W,1,8,2.1,13,M,,M,,*5C
06/18/2015	14:07:57.615	$GPGGA,140758,2542.9803,N,07918.4741,W,1,8,2.1,13,M,,M,,*54
06/18/2015	14:07:58.575	$GPGGA,140759,2542.9803,N,07918.4740,W,1,8,2.1,13,M,,M,,*54
06/18/2015	14:07:59.635	$GPGGA,140800,2542.9803,N,07918.4740,W,1,8,2.1,13,M,,M,,*57
06/18/2015	14:08:00.565	$GPGGA,140801,2542.9803,N,07918.4741,W,1,8,2.1,13,M,,M,,*57
06/18/2015	14:08:01.575	$GPGGA,140802,2542.9803,N,07918.4740,W,1,8,2.1,13,M,,M,,*55
06/18/2015	14:08:02.475	$GPGGA,140803,2542.9803,N,07918.4740,W,1,8,2.1,13,M,,M,,*54
06/18/2015	14:08:03.574	$GPGGA,140804,2542.9801,N,07918.4740,W,1,8,2.1,13,M,,M,,*51
06/18/2015	14:08:04.564	$GPGGA,140805,2542.9802,N,07918.4740,W,1,8,2.1,13,M,,M,,*53
06/18/2015	14:08:05.554	$GPGGA,140806,2542.9801,N,07918.4739,W,1,8,2.1,13,M,,M,,*5D
06/18/2015	14:08:06.554	$GPGGA,140807,2542.9803,N,07918.4743,W,1,8,2.4,13,M,,M,,*56
06/18/2015	14:08:07.584	$GPGGA,140808,2542.9801,N,07918.4741,W,1,8,2.1,13,M,,M,,*5C
06/18/2015	14:08:08.554	$GPGGA,140809,2542.9803,N,07918.4743,W,1,8,2.4,13,M,,M,,*58
06/18/2015	14:08:09.574	$GPGGA,140810,2542.9801,N,07918.4741,W,1,8,2.1,13,M,,M,,*55
06/18/2015	14:08:10.554	$GPGGA,140811,2542.9803,N,07918.4743,W,1,8,2.4,13,M,,M,,*51
06/18/2015	14:08:11.575	$GPGGA,140812,2542.9803,N,07918.4743,W,1,8,2.1,13,M,,M,,*57
06/18/2015	14:08:12.545	$GPGGA,140813,2542.9801,N,07918.4742,W,1,8,2.4,13,M,,M,,*50
06/18/2015	14:08:13.535	$GPGGA,140814,2542.9800,N,07918.4743,W,1,7,2.4,13,M,,M,,*58
06/18/2015	14:08:14.545	$GPGGA,140815,2542.9799,N,07918.4742,W,1,7,2.4,13,M,,M,,*57
06/18/2015	14:08:15.585	$GPGGA,140816,2542.9798,N,07918.4741,W,1,7,2.4,13,M,,M,,*56
06/18/2015	14:08:16.545	$GPGGA,140817,2542.9799,N,07918.4741,W,1,7,2.1,13,M,,M,,*53
06/18/2015	14:08:17.555	$GPGGA,140818,2542.9799,N,07918.4743,W,1,8,2.1,13,M,,M,,*51
06/18/2015	14:08:18.535	$GPGGA,140819,2542.9799,N,07918.4743,W,1,8,2.1,14,M,,M,,*57
06/18/2015	14:08:19.565	$GPGGA,140820,2542.9798,N,07918.4744,W,1,8,2.1,14,M,,M,,*5B
06/18/2015	14:08:20.535	$GPGGA,140821,2542.9799,N,07918.4744,W,1,8,2.1,14,M,,M,,*5B
06/18/2015	14:08:21.524	$GPGGA,140822,2542.9798,N,07918.4743,W,1,8,2.1,14,M,,M,,*5E
06/18/2015	14:08:22.544	$GPGGA,140823,2542.9799,N,07918.4743,W,1,8,1.9,14,M,,M,,*55
06/18/2015	14:08:23.564	$GPGGA,140824,2542.9799,N,07918.4743,W,1,8,1.8,14,M,,M,,*53
06/18/2015	14:08:24.544	$GPGGA,140825,2542.9798,N,07918.4742,W,1,8,1.8,14,M,,M,,*52
06/18/2015	14:08:25.514	$GPGGA,140826,2542.9799,N,07918.4743,W,1,8,1.8,14,M,,M,,*51
06/18/2015	14:08:26.524	$GPGGA,140827,2542.9799,N,07918.4742,W,1,8,1.8,14,M,,M,,*51
06/18/2015	14:08:27.544	$GPGGA,140828,2542.9799,N,07918.4743,W,1,8,1.8,14,M,,M,,*5F
06/18/2015	14:08:28.525	$GPGGA,140829,2542.9799,N,07918.4741,W,1,8,1.8,14,M,,M,,*5C
06/18/2015	14:08:29.535	$GPGGA,140830,2542.9799,N,07918.4741,W,1,8,1.8,14,M,,M,,*54
06/18/2015	14:08:30.515	$GPGGA,140831,2542.9799,N,07918.4741,W,1,8,1.8,15,M,,M,,*54
06/18/2015	14:08:31.525	$GPGGA,140832,2542.9799,N,07918.4741,W,1,8,1.8,15,M,,M,,*57
06/18/2015	14:08:32.616	$GPGGA,140833,2542.9799,N,07918.4741,W,1,8,1.8,15,M,,M,,*56
06/18/2015	14:08:33.615	$GPGGA,140834,2542.9800,N,07918.4743,W,1,7,1.9,15,M,,M,,*52
06/18/2015	14:08:34.495	$GPGGA,140835,2542.9800,N,07918.4743,W,1,7,1.8,15,M,,M,,*52
06/18/2015	14:08:35.535	$GPGGA,140836,2542.9799,N,07918.4743,W,1,7,1.9,15,M,,M,,*5F
06/18/2015	14:08:36.525	$GPGGA,140837,2542.9799,N,07918.4742,W,1,7,1.8,15,M,,M,,*5E
06/18/2015	14:08:37.935	$GPGGA,140838,2542.9799,N,07918.4743,W,1,8,1.8,15,M,,M,,*5F
06/18/2015	14:08:38.505	$GPGGA,140839,2542.9800,N,07918.4743,W,1,8,1.8,15,M,,M,,*51
06/18/2015	14:08:39.514	$GPGGA,140840,2542.9799,N,07918.4743,W,1,8,1.8,15,M,,M,,*50
06/18/2015	14:08:40.494	$GPGGA,140841,2542.9800,N,07918.4743,W,1,8,1.9,16,M,,M,,*5C
06/18/2015	14:08:41.584	$GPGGA,140842,2542.9799,N,07918.4743,W,1,7,1.9,16,M,,M,,*5F
06/18/2015	14:08:42.494	$GPGGA,140843,2542.9799,N,07918.4743,W,1,7,1.9,16,M,,M,,*5E
06/18/2015	14:08:43.624	$GPGGA,140844,2542.9800,N,07918.4743,W,1,7,1.9,16,M,,M,,*56
06/18/2015	14:08:44.494	$GPGGA,140845,2542.9799,N,07918.4742,W,1,7,1.9,16,M,,M,,*59
06/18/2015	14:08:45.574	$GPGGA,140846,2542.9800,N,07918.4743,W,1,7,1.9,16,M,,M,,*54
06/18/2015	14:08:46.575	$GPGGA,140847,2542.9799,N,07918.4742,W,1,7,1.9,16,M,,M,,*5B
06/18/2015	14:08:47.595	$GPGGA,140848,2542.9800,N,07918.4743,W,1,8,1.9,16,M,,M,,*55
06/18/2015	14:08:48.575	$GPGGA,140849,2542.9800,N,07918.4742,W,1,8,1.9,16,M,,M,,*55
06/18/2015	14:08:49.575	$GPGGA,140850,2542.9800,N,07918.4741,W,1,8,1.9,16,M,,M,,*5E
06/18/2015	14:08:50.565	$GPGGA,140851,2542.9800,N,07918.4743,W,1,8,1.9,16,M,,M,,*5D
06/18/2015	14:08:51.575	$GPGGA,140852,2542.9800,N,07918.4744,W,1,9,1.8,16,M,,M,,*59
06/18/2015	14:08:52.565	$GPGGA,140853,2542.9800,N,07918.4745,W,1,9,1.8,16,M,,M,,*59
06/18/2015	14:08:53.575	$GPGGA,140854,2542.9802,N,07918.4745,W,1,9,1.8,16,M,,M,,*5C
06/18/2015	14:08:54.555	$GPGGA,140855,2542.9801,N,07918.4745,W,1,9,1.8,16,M,,M,,*5E
06/18/2015	14:08:55.609	$GPGGA,140856,2542.9802,N,07918.4745,W,1,8,1.9,16,M,,M,,*5E
06/18/2015	14:08:56.554	$GPGGA,140857,2542.9801,N,07918.4747,W,1,8,1.9,16,M,,M,,*5E
06/18/2015	14:08:57.564	$GPGGA,140858,2542.9802,N,07918.4746,W,1,9,1.8,16,M,,M,,*53
06/18/2015	14:08:58.554	$GPGGA,140859,2542.9801,N,07918.4747,W,1,9,1.8,16,M,,M,,*50
06/18/2015	14:08:59.594	$GPGGA,140900,2542.9802,N,07918.4748,W,1,9,1.8,16,M,,M,,*51
06/18/2015	14:09:00.544	$GPGGA,140901,2542.9801,N,07918.4748,W,1,9,1.8,17,M,,M,,*52
06/18/2015	14:09:01.534	$GPGGA,140902,2542.9803,N,07918.4747,W,1,9,1.8,17,M,,M,,*5C
06/18/2015	14:09:02.544	$GPGGA,140903,2542.9803,N,07918.4748,W,1,9,1.8,17,M,,M,,*52
06/18/2015	14:09:03.555	$GPGGA,140904,2542.9801,N,07918.4749,W,1,9,1.8,17,M,,M,,*56
06/18/2015	14:09:04.535	$GPGGA,140905,2542.9803,N,07918.4749,W,1,9,1.8,17,M,,M,,*55
06/18/2015	14:09:05.555	$GPGGA,140906,2542.9803,N,07918.4749,W,1,9,1.8,17,M,,M,,*56
06/18/2015	14:09:06.535	$GPGGA,140907,2542.9801,N,07918.4751,W,1,9,1.8,17,M,,M,,*5C
06/18/2015	14:09:07.535	$GPGGA,140908,2542.9803,N,07918.4751,W,1,9,1.8,17,M,,M,,*51
06/18/2015	14:09:08.525	$GPGGA,140909,2542.9803,N,07918.4751,W,1,9,1.8,17,M,,M,,*50
06/18/2015	14:09:09.555	$GPGGA,140910,2542.9803,N,07918.4751,W,1,9,1.8,17,M,,M,,*58
06/18/2015	14:09:10.525	$GPGGA,140911,2542.9803,N,07918.4751,W,1,9,1.8,17,M,,M,,*59
06/18/2015	14:09:11.535	$GPGGA,140912,2542.9803,N,07918.4752,W,1,9,1.8,17,M,,M,,*59
06/18/2015	14:09:12.515	$GPGGA,140913,2542.9803,N,07918.4752,W,1,9,1.8,17,M,,M,,*58
06/18/2015	14:09:13.544	$GPGGA,140914,2542.9803,N,07918.4752,W,1,9,1.8,17,M,,M,,*5F
06/18/2015	14:09:14.524	$GPGGA,140915,2542.9803,N,07918.4752,W,1,9,1.8,17,M,,M,,*5E
06/18/2015	14:09:15.554	$GPGGA,140916,2542.9803,N,07918.4752,W,1,9,1.8,17,M,,M,,*5D
06/18/2015	14:09:16.524	$GPGGA,140917,2542.9803,N,07918.4754,W,1,9,1.8,17,M,,M,,*5A
06/18/2015	14:09:17.534	$GPGGA,140918,2542.9803,N,07918.4753,W,1,9,1.8,17,M,,M,,*52
06/18/2015	14:09:18.504	$GPGGA,140919,2542.9803,N,07918.4754,W,1,9,1.8,17,M,,M,,*54
06/18/2015	14:09:19.534	$GPGGA,140920,2542.9803,N,07918.4754,W,1,9,1.8,17,M,,M,,*5E
06/18/2015	14:09:20.494	$GPGGA,140921,2542.9803,N,07918.4754,W,1,9,1.8,17,M,,M,,*5F
06/18/2015	14:09:21.506	$GPGGA,140922,2542.9803,N,07918.4754,W,1,9,1.8,17,M,,M,,*5C
06/18/2015	14:09:22.495	$GPGGA,140923,2542.9803,N,07918.4754,W,1,9,1.8,17,M,,M,,*5D
06/18/2015	14:09:23.505	$GPGGA,140924,2542.9805,N,07918.4754,W,1,9,1.8,17,M,,M,,*5C
06/18/2015	14:09:24.585	$GPGGA,140925,2542.9803,N,07918.4755,W,1,9,1.8,17,M,,M,,*5A
06/18/2015	14:09:25.495	$GPGGA,140926,2542.9805,N,07918.4755,W,1,9,1.8,17,M,,M,,*5F
06/18/2015	14:09:26.485	$GPGGA,140927,2542.9806,N,07918.4754,W,1,9,1.8,17,M,,M,,*5C
06/18/2015	14:09:27.775	$GPGGA,140928,2542.9805,N,07918.4754,W,1,9,1.8,17,M,,M,,*50
06/18/2015	14:09:28.585	$GPGGA,140929,2542.9806,N,07918.4754,W,1,9,1.8,17,M,,M,,*52
06/18/2015	14:09:29.575	$GPGGA,140930,2542.9805,N,07918.4753,W,1,9,1.8,17,M,,M,,*5E
06/18/2015	14:09:30.575	$GPGGA,140931,2542.9806,N,07918.4754,W,1,9,1.8,17,M,,M,,*5B
06/18/2015	14:09:31.624	$GPGGA,140932,2542.9805,N,07918.4753,W,1,9,1.8,17,M,,M,,*5C
06/18/2015	14:09:32.574	$GPGGA,140933,2542.9806,N,07918.4754,W,1,9,1.8,17,M,,M,,*59
06/18/2015	14:09:33.564	$GPGGA,140934,2542.9805,N,07918.4752,W,1,9,1.8,17,M,,M,,*5B
06/18/2015	14:09:34.574	$GPGGA,140935,2542.9806,N,07918.4752,W,1,9,1.8,17,M,,M,,*59
06/18/2015	14:09:35.574	$GPGGA,140936,2542.9805,N,07918.4751,W,1,8,1.9,17,M,,M,,*5A
06/18/2015	14:09:36.574	$GPGGA,140937,2542.9806,N,07918.4748,W,1,8,1.9,17,M,,M,,*50
06/18/2015	14:09:37.574	$GPGGA,140938,2542.9805,N,07918.4748,W,1,9,1.8,16,M,,M,,*5D
06/18/2015	14:09:38.565	$GPGGA,140939,2542.9806,N,07918.4748,W,1,9,1.9,16,M,,M,,*5E
06/18/2015	14:09:39.595	$GPGGA,140940,2542.9805,N,07918.4747,W,1,9,1.8,16,M,,M,,*5D
06/18/2015	14:09:40.565	$GPGGA,140941,2542.9806,N,07918.4746,W,1,9,1.9,16,M,,M,,*5F
06/18/2015	14:09:41.565	$GPGGA,140942,2542.9805,N,07918.4745,W,1,8,1.9,16,M,,M,,*5D
06/18/2015	14:09:42.555	$GPGGA,140943,2542.9806,N,07918.4744,W,1,8,1.8,16,M,,M,,*5F
06/18/2015	14:09:43.585	$GPGGA,140944,2542.9805,N,07918.4745,W,1,9,1.8,16,M,,M,,*5B
06/18/2015	14:09:44.545	$GPGGA,140945,2542.9806,N,07918.4745,W,1,9,1.8,16,M,,M,,*59
06/18/2015	14:09:45.565	$GPGGA,140946,2542.9805,N,07918.4745,W,1,9,1.8,16,M,,M,,*59
06/18/2015	14:09:46.545	$GPGGA,140947,2542.9807,N,07918.4745,W,1,9,1.8,16,M,,M,,*5A
06/18/2015	14:09:47.585	$GPGGA,140948,2542.9807,N,07918.4747,W,1,9,1.8,16,M,,M,,*57
06/18/2015	14:09:48.534	$GPGGA,140949,2542.9807,N,07918.4746,W,1,9,1.8,16,M,,M,,*57
06/18/2015	14:09:49.574	$GPGGA,140950,2542.9807,N,07918.4747,W,1,9,1.8,16,M,,M,,*5E
06/18/2015	14:09:50.544	$GPGGA,140951,2542.9807,N,07918.4746,W,1,9,1.8,16,M,,M,,*5E
06/18/2015	14:09:51.544	$GPGGA,140952,2542.9807,N,07918.4747,W,1,9,1.8,16,M,,M,,*5C
06/18/2015	14:09:53.594	$GPGGA,140954,2542.9807,N,07918.4747,W,1,9,1.8,15,M,,M,,*59
06/18/2015	14:09:54.524	$GPGGA,140955,2542.9807,N,07918.4746,W,1,9,1.8,15,M,,M,,*59
06/18/2015	14:09:55.564	$GPGGA,140956,2542.9807,N,07918.4747,W,1,9,1.8,15,M,,M,,*5B
06/18/2015	14:09:56.515	$GPGGA,140957,2542.9807,N,07918.4745,W,1,9,1.8,15,M,,M,,*58
06/18/2015	14:09:57.515	$GPGGA,140958,2542.9807,N,07918.4745,W,1,9,1.8,15,M,,M,,*57
06/18/2015	14:09:58.525	$GPGGA,140959,2542.9807,N,07918.4744,W,1,9,1.9,15,M,,M,,*56
06/18/2015	14:09:59.535	$GPGGA,141000,2542.9807,N,07918.4744,W,1,9,1.9,15,M,,M,,*52
06/18/2015	14:10:00.515	$GPGGA,141001,2542.9809,N,07918.4744,W,1,9,1.9,15,M,,M,,*5D
06/18/2015	14:10:01.555	$GPGGA,141002,2542.9808,N,07918.4744,W,1,9,1.9,15,M,,M,,*5F
06/18/2015	14:10:02.525	$GPGGA,141003,2542.9809,N,07918.4744,W,1,9,1.9,15,M,,M,,*5F
06/18/2015	14:10:03.535	$GPGGA,141004,2542.9810,N,07918.4743,W,1,9,1.9,15,M,,M,,*57
06/18/2015	14:10:04.505	$GPGGA,141005,2542.9809,N,07918.4743,W,1,9,1.9,15,M,,M,,*5E
06/18/2015	14:10:05.515	$GPGGA,141006,2542.9810,N,07918.4744,W,1,8,2.0,15,M,,M,,*59
06/18/2015	14:10:06.484	$GPGGA,141007,2542.9810,N,07918.4745,W,1,8,1.9,15,M,,M,,*53
06/18/2015	14:10:07.514	$GPGGA,141008,2542.9810,N,07918.4744,W,1,9,1.9,15,M,,M,,*5C
06/18/2015	14:10:08.495	$GPGGA,141009,2542.9810,N,07918.4742,W,1,9,2.0,15,M,,M,,*51
06/18/2015	14:10:09.624	$GPGGA,141010,2542.9810,N,07918.4743,W,1,9,1.9,15,M,,M,,*52
06/18/2015	14:10:10.509	$GPGGA,141011,2542.9811,N,07918.4742,W,1,9,1.9,15,M,,M,,*53
06/18/2015	14:10:11.624	$GPGGA,141012,2542.9813,N,07918.4743,W,1,9,1.9,15,M,,M,,*53
06/18/2015	14:10:12.574	$GPGGA,141013,2542.9812,N,07918.4741,W,1,9,2.0,15,M,,M,,*5B
06/18/2015	14:10:13.497	$GPGGA,141014,2542.9813,N,07918.4741,W,1,8,2.0,15,M,,M,,*5C
06/18/2015	14:10:14.574	$GPGGA,141015,2542.9812,N,07918.4740,W,1,8,2.0,15,M,,M,,*5D
06/18/2015	14:10:15.614	$GPGGA,141016,2542.9813,N,07918.4739,W,1,8,2.0,15,M,,M,,*51
06/18/2015	14:10:16.584	$GPGGA,141017,2542.9812,N,07918.4740,W,1,8,2.0,14,M,,M,,*5E
06/18/2015	14:10:17.574	$GPGGA,141018,2542.9813,N,07918.4737,W,1,8,2.0,14,M,,M,,*50
06/18/2015	14:10:18.474	$GPGGA,141019,2542.9812,N,07918.4737,W,1,8,2.0,14,M,,M,,*50
06/18/2015	14:10:19.614	$GPGGA,141020,2542.9813,N,07918.4736,W,1,8,2.0,14,M,,M,,*5A
06/18/2015	14:10:20.564	$GPGGA,141021,2542.9812,N,07918.4736,W,1,8,2.0,14,M,,M,,*5A
06/18/2015	14:10:21.584	$GPGGA,141022,2542.9813,N,07918.4735,W,1,8,2.0,14,M,,M,,*5B
06/18/2015	14:10:22.544	$GPGGA,141023,2542.9812,N,07918.4736,W,1,8,2.0,14,M,,M,,*58
06/18/2015	14:10:23.584	$GPGGA,141024,2542.9814,N,07918.4734,W,1,8,2.0,14,M,,M,,*5B
06/18/2015	14:10:24.554	$GPGGA,141025,2542.9814,N,07918.4736,W,1,8,1.9,14,M,,M,,*52
06/18/2015	14:10:25.564	$GPGGA,141026,2542.9814,N,07918.4737,W,1,9,1.9,14,M,,M,,*51
06/18/2015	14:10:26.554	$GPGGA,141027,2542.9814,N,07918.4737,W,1,9,1.9,14,M,,M,,*50
06/18/2015	14:10:27.574	$GPGGA,141028,2542.9816,N,07918.4738,W,1,9,1.9,14,M,,M,,*52
06/18/2015	14:10:28.544	$GPGGA,141029,2542.9815,N,07918.4738,W,1,9,2.1,14,M,,M,,*5B
06/18/2015	14:10:29.554	$GPGGA,141030,2542.9817,N,07918.4740,W,1,8,2.1,14,M,,M,,*5F
06/18/2015	14:10:30.544	$GPGGA,141031,2542.9818,N,07918.4739,W,1,8,1.9,14,M,,M,,*54
06/18/2015	14:10:31.574	$GPGGA,141032,2542.9818,N,07918.4740,W,1,9,2.1,14,M,,M,,*53
06/18/2015	14:10:32.534	$GPGGA,141033,2542.9818,N,07918.4740,W,1,9,2.1,14,M,,M,,*52
06/18/2015	14:10:33.564	$GPGGA,141034,2542.9820,N,07918.4739,W,1,8,1.9,14,M,,M,,*5A
06/18/2015	14:10:34.565	$GPGGA,141035,2542.9821,N,07918.4740,W,1,8,1.9,14,M,,M,,*54
06/18/2015	14:10:35.584	$GPGGA,141036,2542.9820,N,07918.4739,W,1,9,1.9,14,M,,M,,*59
06/18/2015	14:10:36.814	$GPGGA,141037,2542.9821,N,07918.4738,W,1,9,1.9,14,M,,M,,*58
06/18/2015	14:10:37.514	$GPGGA,141038,2542.9821,N,07918.4740,W,1,9,1.9,14,M,,M,,*58
06/18/2015	14:10:38.524	$GPGGA,141039,2542.9821,N,07918.4738,W,1,9,1.9,14,M,,M,,*56
06/18/2015	14:10:39.554	$GPGGA,141040,2542.9824,N,07918.4738,W,1,9,1.9,15,M,,M,,*5C
06/18/2015	14:10:40.524	$GPGGA,141041,2542.9823,N,07918.4738,W,1,9,1.9,15,M,,M,,*5A
06/18/2015	14:10:41.534	$GPGGA,141042,2542.9824,N,07918.4737,W,1,9,1.9,15,M,,M,,*51
06/18/2015	14:10:42.524	$GPGGA,141043,2542.9823,N,07918.4737,W,1,9,1.9,15,M,,M,,*57
06/18/2015	14:10:43.595	$GPGGA,141044,2542.9825,N,07918.4737,W,1,9,1.9,15,M,,M,,*56
06/18/2015	14:10:44.554	$GPGGA,141045,2542.9825,N,07918.4737,W,1,9,1.9,15,M,,M,,*57
06/18/2015	14:10:45.614	$GPGGA,141046,2542.9825,N,07918.4737,W,1,9,1.9,15,M,,M,,*54
06/18/2015	14:10:46.534	$GPGGA,141047,2542.9825,N,07918.4737,W,1,9,1.9,15,M,,M,,*55
06/18/2015	14:10:47.575	$GPGGA,141048,2542.9825,N,07918.4736,W,1,9,1.9,15,M,,M,,*5B
06/18/2015	14:10:48.614	$GPGGA,141049,2542.9827,N,07918.4736,W,1,9,1.9,15,M,,M,,*58
06/18/2015	14:10:49.604	$GPGGA,141050,2542.9826,N,07918.4736,W,1,9,1.9,15,M,,M,,*51
06/18/2015	14:10:50.514	$GPGGA,141051,2542.9828,N,07918.4736,W,1,9,1.9,15,M,,M,,*5E
06/18/2015	14:10:51.544	$GPGGA,141052,2542.9828,N,07918.4735,W,1,9,1.9,15,M,,M,,*5E
06/18/2015	14:10:52.584	$GPGGA,141053,2542.9828,N,07918.4734,W,1,9,1.9,16,M,,M,,*5D
06/18/2015	14:10:53.484	$GPGGA,141054,2542.9828,N,07918.4734,W,1,9,1.9,16,M,,M,,*5A
06/18/2015	14:10:54.514	$GPGGA,141055,2542.9829,N,07918.4733,W,1,9,1.9,16,M,,M,,*5D
06/18/2015	14:10:55.544	$GPGGA,141056,2542.9829,N,07918.4732,W,1,9,1.9,16,M,,M,,*5F
06/18/2015	14:10:56.574	$GPGGA,141057,2542.9829,N,07918.4733,W,1,9,1.9,16,M,,M,,*5F
06/18/2015	14:10:57.494	$GPGGA,141058,2542.9829,N,07918.4731,W,1,9,1.9,16,M,,M,,*52
06/18/2015	14:10:58.484	$GPGGA,141059,2542.9829,N,07918.4732,W,1,9,2.0,15,M,,M,,*59
06/18/2015	14:10:59.604	$GPGGA,141100,2542.9829,N,07918.4728,W,1,8,1.9,15,M,,M,,*54
06/18/2015	14:11:00.499	$GPGGA,141101,2542.9831,N,07918.4727,W,1,8,2.0,15,M,,M,,*59
06/18/2015	14:11:01.614	$GPGGA,141102,2542.9830,N,07918.4729,W,1,8,2.0,15,M,,M,,*55
06/18/2015	14:11:02.564	$GPGGA,141103,2542.9831,N,07918.4728,W,1,8,1.9,15,M,,M,,*5E
06/18/2015	14:11:03.604	$GPGGA,141104,2542.9832,N,07918.4729,W,1,9,1.9,15,M,,M,,*5A
06/18/2015	14:11:04.564	$GPGGA,141105,2542.9832,N,07918.4728,W,1,9,1.9,15,M,,M,,*5A
06/18/2015	14:11:05.554	$GPGGA,141106,2542.9832,N,07918.4729,W,1,9,1.9,15,M,,M,,*58
06/18/2015	14:11:06.564	$GPGGA,141107,2542.9832,N,07918.4728,W,1,9,1.9,15,M,,M,,*58
06/18/2015	14:11:07.604	$GPGGA,141108,2542.9834,N,07918.4727,W,1,9,1.9,15,M,,M,,*5E
06/18/2015	14:11:08.554	$GPGGA,141109,2542.9833,N,07918.4727,W,1,9,1.9,15,M,,M,,*58
06/18/2015	14:11:09.574	$GPGGA,141110,2542.9832,N,07918.4727,W,1,9,1.9,15,M,,M,,*51
06/18/2015	14:11:10.554	$GPGGA,141111,2542.9834,N,07918.4726,W,1,9,1.9,15,M,,M,,*57
06/18/2015	14:11:11.574	$GPGGA,141112,2542.9835,N,07918.4725,W,1,9,1.9,15,M,,M,,*56
06/18/2015	14:11:12.544	$GPGGA,141113,2542.9833,N,07918.4725,W,1,9,1.9,15,M,,M,,*51
06/18/2015	14:11:13.564	$GPGGA,141114,2542.9835,N,07918.4724,W,1,9,1.9,15,M,,M,,*51
06/18/2015	14:11:14.534	$GPGGA,141115,2542.9834,N,07918.4723,W,1,9,1.9,15,M,,M,,*56
06/18/2015	14:11:15.564	$GPGGA,141116,2542.9836,N,07918.4723,W,1,9,1.9,15,M,,M,,*57
06/18/2015	14:11:16.534	$GPGGA,141117,2542.9834,N,07918.4722,W,1,9,1.9,15,M,,M,,*55
06/18/2015	14:11:17.554	$GPGGA,141118,2542.9836,N,07918.4721,W,1,9,1.9,15,M,,M,,*5B
06/18/2015	14:11:18.544	$GPGGA,141119,2542.9836,N,07918.4722,W,1,9,1.9,15,M,,M,,*59
06/18/2015	14:11:19.574	$GPGGA,141120,2542.9836,N,07918.4721,W,1,9,1.9,15,M,,M,,*50
06/18/2015	14:11:20.524	$GPGGA,141121,2542.9836,N,07918.4722,W,1,9,1.9,15,M,,M,,*52
06/18/2015	14:11:21.554	$GPGGA,141122,2542.9836,N,07918.4720,W,1,9,1.9,15,M,,M,,*53
06/18/2015	14:11:22.514	$GPGGA,141123,2542.9836,N,07918.4720,W,1,9,1.9,15,M,,M,,*52
06/18/2015	14:11:23.564	$GPGGA,141124,2542.9836,N,07918.4720,W,1,9,1.9,15,M,,M,,*55
06/18/2015	14:11:24.524	$GPGGA,141125,2542.9836,N,07918.4720,W,1,9,1.9,15,M,,M,,*54
06/18/2015	14:11:25.554	$GPGGA,141126,2542.9838,N,07918.4719,W,1,9,1.9,15,M,,M,,*53
06/18/2015	14:11:26.514	$GPGGA,141127,2542.9837,N,07918.4719,W,1,9,1.9,15,M,,M,,*5D
06/18/2015	14:11:27.534	$GPGGA,141128,2542.9838,N,07918.4718,W,1,9,1.9,15,M,,M,,*5C
06/18/2015	14:11:28.504	$GPGGA,141129,2542.9837,N,07918.4718,W,1,9,1.9,15,M,,M,,*52
06/18/2015	14:11:29.524	$GPGGA,141130,2542.9838,N,07918.4718,W,1,9,1.9,15,M,,M,,*55
06/18/2015	14:11:30.514	$GPGGA,141131,2542.9839,N,07918.4717,W,1,9,1.9,15,M,,M,,*5A
06/18/2015	14:11:31.514	$GPGGA,141132,2542.9837,N,07918.4716,W,1,9,1.9,15,M,,M,,*56
06/18/2015	14:11:32.504	$GPGGA,141133,2542.9839,N,07918.4716,W,1,9,2.0,15,M,,M,,*53
06/18/2015	14:11:33.514	$GPGGA,141134,2542.9837,N,07918.4715,W,1,8,2.0,15,M,,M,,*58
06/18/2015	14:11:34.514	$GPGGA,141135,2542.9839,N,07918.4714,W,1,8,2.0,15,M,,M,,*56
06/18/2015	14:11:35.504	$GPGGA,141136,2542.9838,N,07918.4715,W,1,8,2.0,15,M,,M,,*55
06/18/2015	14:11:36.504	$GPGGA,141137,2542.9839,N,07918.4713,W,1,8,2.0,15,M,,M,,*53
06/18/2015	14:11:37.604	$GPGGA,141138,2542.9838,N,07918.4714,W,1,8,2.0,15,M,,M,,*5A
06/18/2015	14:11:38.484	$GPGGA,141139,2542.9839,N,07918.4712,W,1,8,2.0,15,M,,M,,*5C
06/18/2015	14:11:39.596	$GPGGA,141140,2542.9839,N,07918.4712,W,1,8,2.0,15,M,,M,,*52
06/18/2015	14:11:40.494	$GPGGA,141141,2542.9839,N,07918.4711,W,1,8,2.0,15,M,,M,,*50
06/18/2015	14:11:41.624	$GPGGA,141142,2542.9839,N,07918.4711,W,1,8,2.0,15,M,,M,,*53
06/18/2015	14:11:42.484	$GPGGA,141143,2542.9839,N,07918.4715,W,1,8,2.0,15,M,,M,,*56
06/18/2015	14:11:43.614	$GPGGA,141144,2542.9841,N,07918.4714,W,1,9,1.9,15,M,,M,,*54
06/18/2015	14:11:44.584	$GPGGA,141145,2542.9840,N,07918.4715,W,1,9,1.9,15,M,,M,,*55
06/18/2015	14:11:45.584	$GPGGA,141146,2542.9841,N,07918.4715,W,1,9,1.9,15,M,,M,,*57
06/18/2015	14:11:46.484	$GPGGA,141147,2542.9842,N,07918.4715,W,1,9,1.9,15,M,,M,,*55
06/18/2015	14:11:47.614	$GPGGA,141148,2542.9841,N,07918.4714,W,1,9,1.9,15,M,,M,,*58
06/18/2015	14:11:48.564	$GPGGA,141149,2542.9840,N,07918.4715,W,1,9,1.9,15,M,,M,,*59
06/18/2015	14:11:49.554	$GPGGA,141150,2542.9841,N,07918.4714,W,1,9,1.9,15,M,,M,,*51
06/18/2015	14:11:50.564	$GPGGA,141151,2542.9842,N,07918.4713,W,1,9,1.9,15,M,,M,,*54
06/18/2015	14:11:51.614	$GPGGA,141152,2542.9841,N,07918.4714,W,1,9,1.9,15,M,,M,,*53
06/18/2015	14:11:52.564	$GPGGA,141153,2542.9840,N,07918.4715,W,1,9,1.9,15,M,,M,,*52
06/18/2015	14:11:53.594	$GPGGA,141154,2542.9842,N,07918.4714,W,1,9,1.9,15,M,,M,,*56
06/18/2015	14:11:54.564	$GPGGA,141155,2542.9843,N,07918.4713,W,1,9,1.9,15,M,,M,,*51
