Software Version Number: 1	Data File Format Number: 1	Build Version Number: 1	Error Count Since VI Started: 3	Manufacturer: Raytheon	 Model Number: RayMarine 120	 S/N: 	 Cal Date: 	 Wind Direction Offset: 0.00	 Slope (M)1: 0.00	 Offset (B)1: 0.00	 Slope (M)2: 0.00	 Offset (B)2: 0.00	 Slope (M)3: 0.00	 Offset (B)3: 0.00	 Slope (M)4: 0.00	 Offset (B)4: 0.00	 Slope (M)5: 0.00	 Offset (B)5: 0.00	 Slope (M)6: 0.00	 Offset (B)6: 0.00
Computer Date	Computer Time	GGA String
06/23/2015	19:00:00.572	$GPGGA,190001,2543.8837,N,08009.7270,W,1,10,1.6,9,M,,M,,*51
06/23/2015	19:00:01.562	$GPGGA,190002,2543.8838,N,08009.7270,W,1,10,1.6,9,M,,M,,*5D
06/23/2015	19:00:02.522	$GPGGA,190003,2543.8837,N,08009.7270,W,1,10,1.6,9,M,,M,,*53
06/23/2015	19:00:03.605	$GPGGA,190004,2543.8838,N,08009.7270,W,1,10,1.6,9,M,,M,,*5B
06/23/2015	19:00:04.502	$GPGGA,190005,2543.8837,N,08009.7270,W,1,10,1.6,9,M,,M,,*55
06/23/2015	19:00:05.603	$GPGGA,190006,2543.8838,N,08009.7272,W,1,10,1.6,9,M,,M,,*5B
06/23/2015	19:00:06.503	$GPGGA,190007,2543.8837,N,08009.7271,W,1,10,1.6,9,M,,M,,*56
06/23/2015	19:00:07.607	$GPGGA,190008,2543.8836,N,08009.7272,W,1,10,1.6,9,M,,M,,*5B
06/23/2015	19:00:08.504	$GPGGA,190009,2543.8837,N,08009.7271,W,1,10,1.6,9,M,,M,,*58
06/23/2015	19:00:09.622	$GPGGA,190010,2543.8836,N,08009.7272,W,1,10,1.6,9,M,,M,,*52
06/23/2015	19:00:10.494	$GPGGA,190011,2543.8837,N,08009.7271,W,1,10,1.6,9,M,,M,,*51
06/23/2015	19:00:11.612	$GPGGA,190012,2543.8836,N,08009.7272,W,1,10,1.6,9,M,,M,,*50
06/23/2015	19:00:12.552	$GPGGA,190013,2543.8835,N,08009.7271,W,1,10,1.6,9,M,,M,,*51
06/23/2015	19:00:13.595	$GPGGA,190014,2543.8835,N,08009.7272,W,1,10,1.6,9,M,,M,,*55
06/23/2015	19:00:14.552	$GPGGA,190015,2543.8835,N,08009.7271,W,1,10,1.6,9,M,,M,,*57
06/23/2015	19:00:15.632	$GPGGA,190016,2543.8835,N,08009.7272,W,1,10,1.6,9,M,,M,,*57
06/23/2015	19:00:16.552	$GPGGA,190017,2543.8835,N,08009.7271,W,1,10,1.6,9,M,,M,,*55
06/23/2015	19:00:17.512	$GPGGA,190018,2543.8835,N,08009.7272,W,1,10,1.6,9,M,,M,,*59
06/23/2015	19:00:18.552	$GPGGA,190019,2543.8833,N,08009.7271,W,1,10,1.6,9,M,,M,,*5D
06/23/2015	19:00:19.622	$GPGGA,190020,2543.8834,N,08009.7272,W,1,10,1.6,9,M,,M,,*53
06/23/2015	19:00:20.582	$GPGGA,190021,2543.8833,N,08009.7271,W,1,10,1.6,9,M,,M,,*56
06/23/2015	19:00:21.582	$GPGGA,190022,2543.8834,N,08009.7272,W,1,10,1.6,9,M,,M,,*51
06/23/2015	19:00:22.582	$GPGGA,190023,2543.8832,N,08009.7271,W,1,10,1.6,9,M,,M,,*55
06/23/2015	19:00:23.594	$GPGGA,190024,2543.8833,N,08009.7272,W,1,10,1.6,9,M,,M,,*50
06/23/2015	19:00:24.603	$GPGGA,190025,2543.8832,N,08009.7271,W,1,10,1.6,9,M,,M,,*53
06/23/2015	19:00:25.603	$GPGGA,190026,2543.8831,N,08009.7272,W,1,10,1.6,9,M,,M,,*50
06/23/2015	19:00:26.562	$GPGGA,190027,2543.8831,N,08009.7272,W,1,10,1.6,9,M,,M,,*51
06/23/2015	19:00:27.612	$GPGGA,190028,2543.8831,N,08009.7272,W,1,10,1.6,9,M,,M,,*5E
06/23/2015	19:00:28.582	$GPGGA,190029,2543.8831,N,08009.7273,W,1,10,1.6,9,M,,M,,*5E
06/23/2015	19:00:29.582	$GPGGA,190030,2543.8831,N,08009.7273,W,1,10,1.6,9,M,,M,,*56
06/23/2015	19:00:30.552	$GPGGA,190031,2543.8831,N,08009.7273,W,1,10,1.6,9,M,,M,,*57
06/23/2015	19:00:31.632	$GPGGA,190032,2543.8831,N,08009.7274,W,1,10,1.6,9,M,,M,,*53
06/23/2015	19:00:32.562	$GPGGA,190033,2543.8830,N,08009.7274,W,1,10,1.6,9,M,,M,,*53
06/23/2015	19:00:33.882	$GPGGA,190034,2543.8831,N,08009.7274,W,1,10,1.6,9,M,,M,,*55
06/23/2015	19:00:35.032	$GPGGA,190035,2543.8831,N,08009.7274,W,1,10,1.6,9,M,,M,,*54
06/23/2015	19:00:35.622	$GPGGA,190036,2543.8831,N,08009.7274,W,1,10,1.6,9,M,,M,,*57
06/23/2015	19:00:36.603	$GPGGA,190037,2543.8831,N,08009.7274,W,1,10,1.6,9,M,,M,,*56
06/23/2015	19:00:37.582	$GPGGA,190038,2543.8831,N,08009.7274,W,1,10,1.6,9,M,,M,,*59
06/23/2015	19:00:38.542	$GPGGA,190039,2543.8831,N,08009.7274,W,1,10,1.6,9,M,,M,,*58
06/23/2015	19:00:39.572	$GPGGA,190040,2543.8831,N,08009.7274,W,1,10,1.6,9,M,,M,,*56
06/23/2015	19:00:40.543	$GPGGA,190041,2543.8831,N,08009.7274,W,1,10,1.6,9,M,,M,,*57
06/23/2015	19:00:41.572	$GPGGA,190042,2543.8831,N,08009.7274,W,1,10,1.6,9,M,,M,,*54
06/23/2015	19:00:42.562	$GPGGA,190043,2543.8831,N,08009.7274,W,1,10,1.6,9,M,,M,,*55
06/23/2015	19:00:43.542	$GPGGA,190044,2543.8831,N,08009.7276,W,1,10,1.6,9,M,,M,,*50
06/23/2015	19:00:44.552	$GPGGA,190045,2543.8831,N,08009.7276,W,1,10,1.6,9,M,,M,,*51
06/23/2015	19:00:45.542	$GPGGA,190046,2543.8831,N,08009.7274,W,1,10,1.6,9,M,,M,,*50
06/23/2015	19:00:46.532	$GPGGA,190047,2543.8831,N,08009.7274,W,1,10,1.6,9,M,,M,,*51
06/23/2015	19:00:47.572	$GPGGA,190048,2543.8831,N,08009.7274,W,1,10,1.6,9,M,,M,,*5E
06/23/2015	19:00:48.532	$GPGGA,190049,2543.8831,N,08009.7274,W,1,10,1.6,9,M,,M,,*5F
06/23/2015	19:00:49.532	$GPGGA,190050,2543.8831,N,08009.7276,W,1,10,1.6,9,M,,M,,*55
06/23/2015	19:00:50.522	$GPGGA,190051,2543.8831,N,08009.7276,W,1,10,1.6,9,M,,M,,*54
06/23/2015	19:00:51.552	$GPGGA,190052,2543.8831,N,08009.7276,W,1,10,1.6,9,M,,M,,*57
06/23/2015	19:00:52.552	$GPGGA,190053,2543.8831,N,08009.7275,W,1,10,1.6,9,M,,M,,*55
06/23/2015	19:00:53.522	$GPGGA,190054,2543.8831,N,08009.7275,W,1,10,1.6,9,M,,M,,*52
06/23/2015	19:00:54.542	$GPGGA,190055,2543.8831,N,08009.7275,W,1,10,1.6,9,M,,M,,*53
06/23/2015	19:00:55.632	$GPGGA,190056,2543.8831,N,08009.7276,W,1,10,1.6,9,M,,M,,*53
06/23/2015	19:00:56.532	$GPGGA,190057,2543.8831,N,08009.7276,W,1,10,1.6,9,M,,M,,*52
06/23/2015	19:00:57.512	$GPGGA,190058,2543.8833,N,08009.7275,W,1,10,1.6,9,M,,M,,*5C
06/23/2015	19:00:58.493	$GPGGA,190059,2543.8832,N,08009.7276,W,1,10,1.6,9,M,,M,,*5F
06/23/2015	19:00:59.552	$GPGGA,190100,2543.8831,N,08009.7276,W,1,10,1.6,9,M,,M,,*51
06/23/2015	19:01:00.504	$GPGGA,190101,2543.8831,N,08009.7276,W,1,10,1.6,9,M,,M,,*50
06/23/2015	19:01:01.492	$GPGGA,190102,2543.8832,N,08009.7276,W,1,10,1.6,9,M,,M,,*50
06/23/2015	19:01:02.592	$GPGGA,190103,2543.8833,N,08009.7275,W,1,10,1.6,9,M,,M,,*53
06/23/2015	19:01:03.504	$GPGGA,190104,2543.8832,N,08009.7276,W,1,10,1.6,9,M,,M,,*56
06/23/2015	19:01:04.582	$GPGGA,190105,2543.8833,N,08009.7275,W,1,10,1.6,9,M,,M,,*55
06/23/2015	19:01:05.492	$GPGGA,190106,2543.8832,N,08009.7276,W,1,10,1.6,9,M,,M,,*54
06/23/2015	19:01:06.573	$GPGGA,190107,2543.8833,N,08009.7275,W,1,10,1.6,9,M,,M,,*57
06/23/2015	19:01:07.493	$GPGGA,190108,2543.8832,N,08009.7276,W,1,10,1.6,9,M,,M,,*5A
06/23/2015	19:01:08.572	$GPGGA,190109,2543.8833,N,08009.7275,W,1,10,1.6,9,M,,M,,*59
06/23/2015	19:01:09.592	$GPGGA,190110,2543.8832,N,08009.7276,W,1,10,1.6,9,M,,M,,*53
06/23/2015	19:01:10.562	$GPGGA,190111,2543.8833,N,08009.7275,W,1,10,1.6,9,M,,M,,*50
06/23/2015	19:01:11.611	$GPGGA,190112,2543.8832,N,08009.7276,W,1,10,1.6,9,M,,M,,*51
06/23/2015	19:01:12.572	$GPGGA,190113,2543.8833,N,08009.7275,W,1,10,1.6,9,M,,M,,*52
06/23/2015	19:01:13.582	$GPGGA,190114,2543.8832,N,08009.7276,W,1,10,1.6,9,M,,M,,*57
06/23/2015	19:01:14.572	$GPGGA,190115,2543.8833,N,08009.7275,W,1,10,1.6,9,M,,M,,*54
06/23/2015	19:01:15.613	$GPGGA,190116,2543.8832,N,08009.7276,W,1,10,1.6,9,M,,M,,*55
06/23/2015	19:01:16.572	$GPGGA,190117,2543.8833,N,08009.7275,W,1,10,1.5,9,M,,M,,*55
06/23/2015	19:01:17.582	$GPGGA,190118,2543.8832,N,08009.7276,W,1,10,1.5,9,M,,M,,*58
06/23/2015	19:01:18.552	$GPGGA,190119,2543.8833,N,08009.7275,W,1,10,1.5,9,M,,M,,*5B
06/23/2015	19:01:19.594	$GPGGA,190120,2543.8832,N,08009.7276,W,1,10,1.5,9,M,,M,,*53
06/23/2015	19:01:20.552	$GPGGA,190121,2543.8831,N,08009.7275,W,1,10,1.5,9,M,,M,,*52
06/23/2015	19:01:21.562	$GPGGA,190122,2543.8831,N,08009.7276,W,1,10,1.5,9,M,,M,,*52
06/23/2015	19:01:22.562	$GPGGA,190123,2543.8831,N,08009.7275,W,1,10,1.5,9,M,,M,,*50
06/23/2015	19:01:23.582	$GPGGA,190124,2543.8831,N,08009.7276,W,1,10,1.5,9,M,,M,,*54
06/23/2015	19:01:24.552	$GPGGA,190125,2543.8830,N,08009.7275,W,1,10,1.5,9,M,,M,,*57
06/23/2015	19:01:25.572	$GPGGA,190126,2543.8831,N,08009.7276,W,1,10,1.5,9,M,,M,,*56
06/23/2015	19:01:26.542	$GPGGA,190127,2543.8830,N,08009.7275,W,1,10,1.5,9,M,,M,,*55
06/23/2015	19:01:27.572	$GPGGA,190128,2543.8829,N,08009.7276,W,1,10,1.5,9,M,,M,,*51
06/23/2015	19:01:28.542	$GPGGA,190129,2543.8830,N,08009.7275,W,1,10,1.5,9,M,,M,,*5B
06/23/2015	19:01:29.562	$GPGGA,190130,2543.8829,N,08009.7276,W,1,10,1.5,9,M,,M,,*58
06/23/2015	19:01:30.532	$GPGGA,190131,2543.8830,N,08009.7275,W,1,10,1.5,9,M,,M,,*52
06/23/2015	19:01:31.573	$GPGGA,190132,2543.8828,N,08009.7276,W,1,10,1.5,9,M,,M,,*5B
06/23/2015	19:01:32.532	$GPGGA,190133,2543.8828,N,08009.7275,W,1,10,1.5,9,M,,M,,*59
06/23/2015	19:01:33.553	$GPGGA,190134,2543.8828,N,08009.7276,W,1,10,1.5,9,M,,M,,*5D
06/23/2015	19:01:34.542	$GPGGA,190135,2543.8828,N,08009.7276,W,1,10,1.5,9,M,,M,,*5C
06/23/2015	19:01:35.552	$GPGGA,190136,2543.8828,N,08009.7276,W,1,10,1.5,9,M,,M,,*5F
06/23/2015	19:01:36.512	$GPGGA,190137,2543.8828,N,08009.7276,W,1,10,1.5,9,M,,M,,*5E
06/23/2015	19:01:37.542	$GPGGA,190138,2543.8828,N,08009.7276,W,1,10,1.5,9,M,,M,,*51
06/23/2015	19:01:38.512	$GPGGA,190139,2543.8828,N,08009.7276,W,1,10,1.5,9,M,,M,,*50
06/23/2015	19:01:39.532	$GPGGA,190140,2543.8828,N,08009.7276,W,1,10,1.5,9,M,,M,,*5E
06/23/2015	19:01:40.502	$GPGGA,190141,2543.8828,N,08009.7276,W,1,10,1.5,9,M,,M,,*5F
06/23/2015	19:01:41.522	$GPGGA,190142,2543.8828,N,08009.7276,W,1,10,1.5,9,M,,M,,*5C
06/23/2015	19:01:42.512	$GPGGA,190143,2543.8828,N,08009.7275,W,1,10,1.5,9,M,,M,,*5E
06/23/2015	19:01:43.642	$GPGGA,190144,2543.8828,N,08009.7276,W,1,10,1.5,9,M,,M,,*5A
06/23/2015	19:01:44.512	$GPGGA,190145,2543.8828,N,08009.7276,W,1,10,1.5,9,M,,M,,*5B
06/23/2015	19:01:45.502	$GPGGA,190146,2543.8828,N,08009.7276,W,1,10,1.5,9,M,,M,,*58
06/23/2015	19:01:46.512	$GPGGA,190147,2543.8828,N,08009.7276,W,1,10,1.5,9,M,,M,,*59
06/23/2015	19:01:47.522	$GPGGA,190148,2543.8828,N,08009.7276,W,1,10,1.5,9,M,,M,,*56
06/23/2015	19:01:48.502	$GPGGA,190149,2543.8828,N,08009.7276,W,1,10,1.5,9,M,,M,,*57
06/23/2015	19:01:49.494	$GPGGA,190150,2543.8828,N,08009.7276,W,1,10,1.5,9,M,,M,,*5F
06/23/2015	19:01:50.583	$GPGGA,190151,2543.8828,N,08009.7276,W,1,10,1.5,9,M,,M,,*5E
06/23/2015	19:01:51.612	$GPGGA,190152,2543.8828,N,08009.7276,W,1,10,1.5,9,M,,M,,*5D
06/23/2015	19:01:52.612	$GPGGA,190153,2543.8830,N,08009.7276,W,1,10,1.5,9,M,,M,,*55
06/23/2015	19:01:53.612	$GPGGA,190154,2543.8829,N,08009.7276,W,1,10,1.5,9,M,,M,,*5A
06/23/2015	19:01:54.572	$GPGGA,190155,2543.8830,N,08009.7276,W,1,10,1.5,9,M,,M,,*53
06/23/2015	19:01:55.596	$GPGGA,190156,2543.8829,N,08009.7276,W,1,10,1.5,9,M,,M,,*58
06/23/2015	19:01:56.572	$GPGGA,190157,2543.8830,N,08009.7276,W,1,10,1.5,9,M,,M,,*51
06/23/2015	19:01:57.593	$GPGGA,190158,2543.8829,N,08009.7276,W,1,10,1.5,9,M,,M,,*56
06/23/2015	19:01:58.572	$GPGGA,190159,2543.8830,N,08009.7276,W,1,10,1.5,9,M,,M,,*5F
06/23/2015	19:01:59.612	$GPGGA,190200,2543.8831,N,08009.7276,W,1,10,1.5,9,M,,M,,*51
06/23/2015	19:02:00.562	$GPGGA,190201,2543.8830,N,08009.7277,W,1,10,1.5,9,M,,M,,*50
06/23/2015	19:02:01.594	$GPGGA,190202,2543.8831,N,08009.7277,W,1,10,1.5,9,M,,M,,*52
06/23/2015	19:02:02.572	$GPGGA,190203,2543.8830,N,08009.7277,W,1,10,1.5,9,M,,M,,*52
06/23/2015	19:02:03.572	$GPGGA,190204,2543.8831,N,08009.7277,W,1,10,1.5,9,M,,M,,*54
06/23/2015	19:02:04.562	$GPGGA,190205,2543.8831,N,08009.7277,W,1,10,1.5,9,M,,M,,*55
06/23/2015	19:02:05.572	$GPGGA,190206,2543.8831,N,08009.7277,W,1,10,1.5,9,M,,M,,*56
06/23/2015	19:02:06.562	$GPGGA,190207,2543.8833,N,08009.7277,W,1,10,1.5,9,M,,M,,*55
06/23/2015	19:02:07.622	$GPGGA,190208,2543.8832,N,08009.7277,W,1,10,1.5,9,M,,M,,*5B
06/23/2015	19:02:08.553	$GPGGA,190209,2543.8833,N,08009.7277,W,1,10,1.5,9,M,,M,,*5B
06/23/2015	19:02:09.562	$GPGGA,190210,2543.8832,N,08009.7277,W,1,10,1.5,9,M,,M,,*52
06/23/2015	19:02:10.552	$GPGGA,190211,2543.8833,N,08009.7277,W,1,10,1.5,9,M,,M,,*52
06/23/2015	19:02:11.572	$GPGGA,190212,2543.8834,N,08009.7277,W,1,10,1.5,9,M,,M,,*56
06/23/2015	19:02:12.552	$GPGGA,190213,2543.8833,N,08009.7277,W,1,10,1.5,9,M,,M,,*50
06/23/2015	19:02:13.532	$GPGGA,190214,2543.8834,N,08009.7277,W,1,10,1.5,8,M,,M,,*51
06/23/2015	19:02:14.542	$GPGGA,190215,2543.8833,N,08009.7277,W,1,10,1.5,8,M,,M,,*57
06/23/2015	19:02:15.572	$GPGGA,190216,2543.8835,N,08009.7277,W,1,10,1.5,8,M,,M,,*52
06/23/2015	19:02:16.542	$GPGGA,190217,2543.8835,N,08009.7279,W,1,10,1.5,8,M,,M,,*5D
06/23/2015	19:02:17.532	$GPGGA,190218,2543.8835,N,08009.7278,W,1,10,1.5,8,M,,M,,*53
06/23/2015	19:02:18.542	$GPGGA,190219,2543.8835,N,08009.7279,W,1,10,1.5,8,M,,M,,*53
06/23/2015	19:02:19.532	$GPGGA,190220,2543.8835,N,08009.7278,W,1,10,1.5,8,M,,M,,*58
06/23/2015	19:02:20.532	$GPGGA,190221,2543.8835,N,08009.7279,W,1,10,1.5,8,M,,M,,*58
06/23/2015	19:02:21.532	$GPGGA,190222,2543.8835,N,08009.7280,W,1,10,1.5,8,M,,M,,*5D
06/23/2015	19:02:22.512	$GPGGA,190223,2543.8837,N,08009.7278,W,1,10,1.5,8,M,,M,,*59
06/23/2015	19:02:23.532	$GPGGA,190224,2543.8836,N,08009.7280,W,1,10,1.5,8,M,,M,,*58
06/23/2015	19:02:24.532	$GPGGA,190225,2543.8837,N,08009.7279,W,1,10,1.5,8,M,,M,,*5E
06/23/2015	19:02:25.513	$GPGGA,190226,2543.8838,N,08009.7280,W,1,10,1.5,8,M,,M,,*54
06/23/2015	19:02:26.542	$GPGGA,190227,2543.8837,N,08009.7279,W,1,10,1.5,8,M,,M,,*5C
06/23/2015	19:02:27.642	$GPGGA,190228,2543.8839,N,08009.7280,W,1,10,1.5,8,M,,M,,*5B
06/23/2015	19:02:28.512	$GPGGA,190229,2543.8839,N,08009.7279,W,1,10,1.5,8,M,,M,,*5C
06/23/2015	19:02:29.512	$GPGGA,190230,2543.8839,N,08009.7280,W,1,10,1.5,8,M,,M,,*52
06/23/2015	19:02:30.500	$GPGGA,190231,2543.8839,N,08009.7279,W,1,10,1.5,8,M,,M,,*55
06/23/2015	19:02:31.522	$GPGGA,190232,2543.8839,N,08009.7280,W,1,10,1.5,8,M,,M,,*50
06/23/2015	19:02:32.512	$GPGGA,190233,2543.8839,N,08009.7280,W,1,10,1.5,8,M,,M,,*51
06/23/2015	19:02:33.492	$GPGGA,190234,2543.8839,N,08009.7280,W,1,10,1.5,8,M,,M,,*56
06/23/2015	19:02:34.607	$GPGGA,190235,2543.8839,N,08009.7280,W,1,10,1.5,8,M,,M,,*57
06/23/2015	19:02:35.612	$GPGGA,190236,2543.8841,N,08009.7280,W,1,10,1.5,8,M,,M,,*5B
06/23/2015	19:02:36.597	$GPGGA,190237,2543.8840,N,08009.7280,W,1,10,1.5,8,M,,M,,*5B
06/23/2015	19:02:37.615	$GPGGA,190238,2543.8841,N,08009.7281,W,1,10,1.5,8,M,,M,,*54
06/23/2015	19:02:38.610	$GPGGA,190239,2543.8840,N,08009.7281,W,1,10,1.5,8,M,,M,,*54
06/23/2015	19:02:39.596	$GPGGA,190240,2543.8842,N,08009.7281,W,1,10,1.5,8,M,,M,,*58
06/23/2015	19:02:40.582	$GPGGA,190241,2543.8842,N,08009.7281,W,1,10,1.5,8,M,,M,,*59
06/23/2015	19:02:41.608	$GPGGA,190242,2543.8842,N,08009.7281,W,1,10,1.5,8,M,,M,,*5A
06/23/2015	19:02:42.609	$GPGGA,190243,2543.8842,N,08009.7281,W,1,10,1.5,8,M,,M,,*5B
06/23/2015	19:02:43.583	$GPGGA,190244,2543.8842,N,08009.7281,W,1,10,1.5,8,M,,M,,*5C
06/23/2015	19:02:44.572	$GPGGA,190245,2543.8842,N,08009.7281,W,1,10,1.5,8,M,,M,,*5D
06/23/2015	19:02:45.608	$GPGGA,190246,2543.8842,N,08009.7281,W,1,10,1.5,8,M,,M,,*5E
06/23/2015	19:02:46.573	$GPGGA,190247,2543.8842,N,08009.7281,W,1,10,1.5,8,M,,M,,*5F
06/23/2015	19:02:47.622	$GPGGA,190248,2543.8842,N,08009.7281,W,1,10,1.5,8,M,,M,,*50
06/23/2015	19:02:48.572	$GPGGA,190249,2543.8842,N,08009.7281,W,1,10,1.5,8,M,,M,,*51
06/23/2015	19:02:49.553	$GPGGA,190250,2543.8842,N,08009.7281,W,1,10,1.5,9,M,,M,,*58
06/23/2015	19:02:50.552	$GPGGA,190251,2543.8842,N,08009.7281,W,1,10,1.5,9,M,,M,,*59
06/23/2015	19:02:51.582	$GPGGA,190252,2543.8842,N,08009.7283,W,1,10,1.5,9,M,,M,,*58
06/23/2015	19:02:52.572	$GPGGA,190253,2543.8842,N,08009.7282,W,1,10,1.5,9,M,,M,,*58
06/23/2015	19:02:53.572	$GPGGA,190254,2543.8842,N,08009.7283,W,1,10,1.5,9,M,,M,,*5E
06/23/2015	19:02:54.562	$GPGGA,190255,2543.8842,N,08009.7282,W,1,10,1.5,9,M,,M,,*5E
06/23/2015	19:02:55.595	$GPGGA,190256,2543.8842,N,08009.7281,W,1,10,1.5,9,M,,M,,*5E
06/23/2015	19:02:56.542	$GPGGA,190257,2543.8842,N,08009.7283,W,1,10,1.5,9,M,,M,,*5D
06/23/2015	19:02:57.572	$GPGGA,190258,2543.8842,N,08009.7282,W,1,10,1.5,9,M,,M,,*53
06/23/2015	19:02:58.552	$GPGGA,190259,2543.8840,N,08009.7283,W,1,10,1.5,9,M,,M,,*51
06/23/2015	19:02:59.582	$GPGGA,190300,2543.8841,N,08009.7282,W,1,10,1.5,9,M,,M,,*5C
06/23/2015	19:03:00.543	$GPGGA,190301,2543.8840,N,08009.7283,W,1,10,1.5,9,M,,M,,*5D
06/23/2015	19:03:01.552	$GPGGA,190302,2543.8841,N,08009.7282,W,1,10,1.5,9,M,,M,,*5E
06/23/2015	19:03:02.552	$GPGGA,190303,2543.8840,N,08009.7283,W,1,10,1.5,9,M,,M,,*5F
06/23/2015	19:03:03.542	$GPGGA,190304,2543.8841,N,08009.7282,W,1,10,1.5,9,M,,M,,*58
06/23/2015	19:03:04.542	$GPGGA,190305,2543.8840,N,08009.7283,W,1,10,1.5,9,M,,M,,*59
06/23/2015	19:03:05.522	$GPGGA,190306,2543.8841,N,08009.7282,W,1,10,1.5,9,M,,M,,*5A
06/23/2015	19:03:06.542	$GPGGA,190307,2543.8839,N,08009.7283,W,1,10,1.5,9,M,,M,,*55
06/23/2015	19:03:07.582	$GPGGA,190308,2543.8839,N,08009.7281,W,1,10,1.5,9,M,,M,,*58
06/23/2015	19:03:08.522	$GPGGA,190309,2543.8839,N,08009.7281,W,1,10,1.5,9,M,,M,,*59
06/23/2015	19:03:09.522	$GPGGA,190310,2543.8839,N,08009.7281,W,1,10,1.5,9,M,,M,,*51
06/23/2015	19:03:10.532	$GPGGA,190311,2543.8839,N,08009.7281,W,1,10,1.5,9,M,,M,,*50
06/23/2015	19:03:11.552	$GPGGA,190312,2543.8839,N,08009.7281,W,1,10,1.5,9,M,,M,,*53
06/23/2015	19:03:12.512	$GPGGA,190313,2543.8839,N,08009.7281,W,1,10,1.5,9,M,,M,,*52
06/23/2015	19:03:13.522	$GPGGA,190314,2543.8839,N,08009.7281,W,1,10,1.5,9,M,,M,,*55
06/23/2015	19:03:14.522	$GPGGA,190315,2543.8839,N,08009.7281,W,1,10,1.5,9,M,,M,,*54
06/23/2015	19:03:15.542	$GPGGA,190316,2543.8839,N,08009.7280,W,1,10,1.5,8,M,,M,,*57
06/23/2015	19:03:16.502	$GPGGA,190317,2543.8837,N,08009.7280,W,1,10,1.5,8,M,,M,,*58
06/23/2015	19:03:17.612	$GPGGA,190318,2543.8838,N,08009.7281,W,1,10,1.5,8,M,,M,,*59
06/23/2015	19:03:18.612	$GPGGA,190319,2543.8836,N,08009.7280,W,1,10,1.5,8,M,,M,,*57
06/23/2015	19:03:19.611	$GPGGA,190320,2543.8837,N,08009.7280,W,1,10,1.5,8,M,,M,,*5C
06/23/2015	19:03:20.501	$GPGGA,190321,2543.8836,N,08009.7281,W,1,10,1.5,8,M,,M,,*5D
06/23/2015	19:03:21.491	$GPGGA,190322,2543.8837,N,08009.7280,W,1,10,1.5,8,M,,M,,*5E
06/23/2015	19:03:22.602	$GPGGA,190323,2543.8836,N,08009.7280,W,1,10,1.5,8,M,,M,,*5E
06/23/2015	19:03:23.501	$GPGGA,190324,2543.8837,N,08009.7280,W,1,10,1.5,8,M,,M,,*58
06/23/2015	19:03:24.571	$GPGGA,190325,2543.8836,N,08009.7280,W,1,10,1.5,8,M,,M,,*58
06/23/2015	19:03:25.601	$GPGGA,190326,2543.8837,N,08009.7280,W,1,10,1.5,8,M,,M,,*5A
06/23/2015	19:03:26.494	$GPGGA,190327,2543.8836,N,08009.7279,W,1,10,1.5,8,M,,M,,*5C
06/23/2015	19:03:27.593	$GPGGA,190328,2543.8837,N,08009.7280,W,1,10,1.5,8,M,,M,,*54
06/23/2015	19:03:28.482	$GPGGA,190329,2543.8836,N,08009.7279,W,1,10,1.5,8,M,,M,,*52
06/23/2015	19:03:29.582	$GPGGA,190330,2543.8837,N,08009.7280,W,1,10,1.5,8,M,,M,,*5D
06/23/2015	19:03:30.572	$GPGGA,190331,2543.8836,N,08009.7279,W,1,10,1.5,8,M,,M,,*5B
06/23/2015	19:03:31.597	$GPGGA,190332,2543.8837,N,08009.7278,W,1,10,1.5,8,M,,M,,*58
06/23/2015	19:03:32.572	$GPGGA,190333,2543.8836,N,08009.7279,W,1,10,1.5,8,M,,M,,*59
06/23/2015	19:03:33.572	$GPGGA,190334,2543.8837,N,08009.7278,W,1,10,1.5,8,M,,M,,*5E
06/23/2015	19:03:34.562	$GPGGA,190335,2543.8835,N,08009.7279,W,1,10,1.5,8,M,,M,,*5C
06/23/2015	19:03:35.622	$GPGGA,190336,2543.8835,N,08009.7277,W,1,10,1.5,8,M,,M,,*51
06/23/2015	19:03:36.551	$GPGGA,190337,2543.8835,N,08009.7277,W,1,10,1.5,8,M,,M,,*50
06/23/2015	19:03:37.601	$GPGGA,190338,2543.8835,N,08009.7277,W,1,10,1.5,8,M,,M,,*5F
06/23/2015	19:03:38.541	$GPGGA,190339,2543.8835,N,08009.7276,W,1,10,1.5,8,M,,M,,*5F
06/23/2015	19:03:39.582	$GPGGA,190340,2543.8835,N,08009.7276,W,1,10,1.5,8,M,,M,,*51
06/23/2015	19:03:40.541	$GPGGA,190341,2543.8835,N,08009.7276,W,1,10,1.5,7,M,,M,,*5F
06/23/2015	19:03:41.571	$GPGGA,190342,2543.8835,N,08009.7276,W,1,10,1.5,7,M,,M,,*5C
06/23/2015	19:03:42.551	$GPGGA,190343,2543.8835,N,08009.7276,W,1,10,1.5,7,M,,M,,*5D
06/23/2015	19:03:43.551	$GPGGA,190344,2543.8835,N,08009.7276,W,1,10,1.5,7,M,,M,,*5A
06/23/2015	19:03:44.541	$GPGGA,190345,2543.8835,N,08009.7275,W,1,10,1.5,7,M,,M,,*58
06/23/2015	19:03:45.552	$GPGGA,190346,2543.8835,N,08009.7276,W,1,10,1.5,7,M,,M,,*58
06/23/2015	19:03:46.542	$GPGGA,190347,2543.8835,N,08009.7275,W,1,10,1.5,7,M,,M,,*5A
06/23/2015	19:03:47.607	$GPGGA,190348,2543.8835,N,08009.7276,W,1,10,1.5,7,M,,M,,*56
06/23/2015	19:03:48.532	$GPGGA,190349,2543.8835,N,08009.7276,W,1,10,1.5,7,M,,M,,*57
06/23/2015	19:03:49.552	$GPGGA,190350,2543.8835,N,08009.7276,W,1,10,1.5,7,M,,M,,*5F
06/23/2015	19:03:50.532	$GPGGA,190351,2543.8835,N,08009.7276,W,1,10,1.5,7,M,,M,,*5E
06/23/2015	19:03:51.572	$GPGGA,190352,2543.8835,N,08009.7276,W,1,10,1.5,7,M,,M,,*5D
06/23/2015	19:03:52.532	$GPGGA,190353,2543.8835,N,08009.7276,W,1,10,1.5,7,M,,M,,*5C
06/23/2015	19:03:53.512	$GPGGA,190354,2543.8835,N,08009.7276,W,1,10,1.5,7,M,,M,,*5B
06/23/2015	19:03:54.511	$GPGGA,190355,2543.8835,N,08009.7276,W,1,10,1.5,7,M,,M,,*5A
06/23/2015	19:03:55.531	$GPGGA,190356,2543.8835,N,08009.7276,W,1,10,1.5,7,M,,M,,*59
06/23/2015	19:03:56.531	$GPGGA,190357,2543.8835,N,08009.7276,W,1,10,1.5,7,M,,M,,*58
06/23/2015	19:03:57.511	$GPGGA,190358,2543.8835,N,08009.7276,W,1,10,1.5,7,M,,M,,*57
06/23/2015	19:03:58.521	$GPGGA,190359,2543.8835,N,08009.7276,W,1,10,1.5,7,M,,M,,*56
06/23/2015	19:03:59.571	$GPGGA,190400,2543.8835,N,08009.7276,W,1,10,1.5,7,M,,M,,*5D
06/23/2015	19:04:00.501	$GPGGA,190401,2543.8837,N,08009.7276,W,1,10,1.5,7,M,,M,,*5E
06/23/2015	19:04:01.621	$GPGGA,190402,2543.8835,N,08009.7276,W,1,10,1.5,7,M,,M,,*5F
06/23/2015	19:04:02.521	$GPGGA,190403,2543.8835,N,08009.7276,W,1,10,1.5,7,M,,M,,*5E
06/23/2015	19:04:03.662	$GPGGA,190404,2543.8835,N,08009.7276,W,1,10,1.5,7,M,,M,,*59
06/23/2015	19:04:04.495	$GPGGA,190405,2543.8835,N,08009.7277,W,1,10,1.5,7,M,,M,,*59
06/23/2015	19:04:05.632	$GPGGA,190406,2543.8835,N,08009.7276,W,1,10,1.5,7,M,,M,,*5B
06/23/2015	19:04:06.602	$GPGGA,190407,2543.8835,N,08009.7276,W,1,10,1.5,7,M,,M,,*5A
06/23/2015	19:04:07.522	$GPGGA,190408,2543.8835,N,08009.7276,W,1,10,1.5,7,M,,M,,*55
06/23/2015	19:04:08.496	$GPGGA,190409,2543.8833,N,08009.7276,W,1,10,1.5,7,M,,M,,*52
06/23/2015	19:04:09.602	$GPGGA,190410,2543.8834,N,08009.7276,W,1,10,1.5,7,M,,M,,*5D
06/23/2015	19:04:10.502	$GPGGA,190411,2543.8833,N,08009.7276,W,1,10,1.5,7,M,,M,,*5B
06/23/2015	19:04:11.611	$GPGGA,190412,2543.8832,N,08009.7276,W,1,10,1.5,7,M,,M,,*59
06/23/2015	19:04:12.581	$GPGGA,190413,2543.8833,N,08009.7276,W,1,10,1.5,7,M,,M,,*59
06/23/2015	19:04:13.571	$GPGGA,190414,2543.8832,N,08009.7276,W,1,10,1.5,7,M,,M,,*5F
06/23/2015	19:04:14.571	$GPGGA,190415,2543.8833,N,08009.7276,W,1,10,1.5,7,M,,M,,*5F
06/23/2015	19:04:15.491	$GPGGA,190416,2543.8832,N,08009.7276,W,1,10,1.5,7,M,,M,,*5D
06/23/2015	19:04:16.571	$GPGGA,190417,2543.8833,N,08009.7276,W,1,10,1.5,7,M,,M,,*5D
06/23/2015	19:04:17.591	$GPGGA,190418,2543.8832,N,08009.7276,W,1,10,1.5,7,M,,M,,*53
06/23/2015	19:04:18.571	$GPGGA,190419,2543.8833,N,08009.7276,W,1,10,1.5,7,M,,M,,*53
06/23/2015	19:04:19.592	$GPGGA,190420,2543.8832,N,08009.7276,W,1,10,1.5,7,M,,M,,*58
06/23/2015	19:04:20.562	$GPGGA,190421,2543.8831,N,08009.7276,W,1,10,1.5,7,M,,M,,*5A
06/23/2015	19:04:21.572	$GPGGA,190422,2543.8831,N,08009.7276,W,1,10,1.5,7,M,,M,,*59
06/23/2015	19:04:22.572	$GPGGA,190423,2543.8831,N,08009.7275,W,1,10,1.5,7,M,,M,,*5B
06/23/2015	19:04:23.612	$GPGGA,190424,2543.8831,N,08009.7276,W,1,10,1.5,7,M,,M,,*5F
06/23/2015	19:04:24.562	$GPGGA,190425,2543.8830,N,08009.7275,W,1,10,1.5,7,M,,M,,*5C
06/23/2015	19:04:25.562	$GPGGA,190426,2543.8831,N,08009.7276,W,1,10,1.5,7,M,,M,,*5D
06/23/2015	19:04:26.552	$GPGGA,190427,2543.8830,N,08009.7275,W,1,10,1.5,7,M,,M,,*5E
06/23/2015	19:04:27.642	$GPGGA,190428,2543.8831,N,08009.7274,W,1,10,1.5,7,M,,M,,*51
06/23/2015	19:04:28.552	$GPGGA,190429,2543.8830,N,08009.7274,W,1,10,1.5,7,M,,M,,*51
06/23/2015	19:04:29.592	$GPGGA,190430,2543.8829,N,08009.7274,W,1,10,1.5,6,M,,M,,*50
06/23/2015	19:04:30.551	$GPGGA,190431,2543.8830,N,08009.7273,W,1,10,1.5,6,M,,M,,*5E
06/23/2015	19:04:31.571	$GPGGA,190432,2543.8829,N,08009.7274,W,1,10,1.5,6,M,,M,,*52
06/23/2015	19:04:32.562	$GPGGA,190433,2543.8830,N,08009.7274,W,1,10,1.5,6,M,,M,,*5B
06/23/2015	19:04:33.571	$GPGGA,190434,2543.8829,N,08009.7273,W,1,10,1.5,6,M,,M,,*53
06/23/2015	19:04:34.531	$GPGGA,190435,2543.8830,N,08009.7273,W,1,10,1.5,6,M,,M,,*5A
06/23/2015	19:04:35.551	$GPGGA,190436,2543.8828,N,08009.7273,W,1,10,1.5,6,M,,M,,*50
06/23/2015	19:04:36.531	$GPGGA,190437,2543.8828,N,08009.7273,W,1,10,1.5,6,M,,M,,*51
06/23/2015	19:04:37.571	$GPGGA,190438,2543.8828,N,08009.7273,W,1,10,1.5,6,M,,M,,*5E
06/23/2015	19:04:38.522	$GPGGA,190439,2543.8828,N,08009.7273,W,1,10,1.5,6,M,,M,,*5F
06/23/2015	19:04:39.582	$GPGGA,190440,2543.8828,N,08009.7273,W,1,10,1.5,6,M,,M,,*51
06/23/2015	19:04:40.542	$GPGGA,190441,2543.8828,N,08009.7273,W,1,10,1.5,6,M,,M,,*50
06/23/2015	19:04:41.532	$GPGGA,190442,2543.8828,N,08009.7273,W,1,10,1.5,6,M,,M,,*53
06/23/2015	19:04:42.532	$GPGGA,190443,2543.8828,N,08009.7273,W,1,10,1.5,6,M,,M,,*52
06/23/2015	19:04:43.552	$GPGGA,190444,2543.8828,N,08009.7273,W,1,10,1.5,6,M,,M,,*55
06/23/2015	19:04:44.522	$GPGGA,190445,2543.8828,N,08009.7273,W,1,10,1.5,6,M,,M,,*54
06/23/2015	19:04:45.912	$GPGGA,190446,2543.8828,N,08009.7273,W,1,10,1.5,6,M,,M,,*57
06/23/2015	19:04:46.511	$GPGGA,190447,2543.8830,N,08009.7273,W,1,10,1.5,6,M,,M,,*5F
06/23/2015	19:04:47.631	$GPGGA,190448,2543.8829,N,08009.7273,W,1,10,1.5,6,M,,M,,*58
06/23/2015	19:04:48.601	$GPGGA,190449,2543.8830,N,08009.7272,W,1,10,1.5,6,M,,M,,*50
06/23/2015	19:04:49.496	$GPGGA,190450,2543.8831,N,08009.7272,W,1,10,1.5,6,M,,M,,*59
06/23/2015	19:04:50.521	$GPGGA,190451,2543.8830,N,08009.7272,W,1,10,1.5,6,M,,M,,*59
06/23/2015	19:04:51.631	$GPGGA,190452,2543.8831,N,08009.7272,W,1,10,1.5,6,M,,M,,*5B
06/23/2015	19:04:52.541	$GPGGA,190453,2543.8830,N,08009.7272,W,1,10,1.5,6,M,,M,,*5B
06/23/2015	19:04:53.531	$GPGGA,190454,2543.8831,N,08009.7271,W,1,10,1.5,6,M,,M,,*5E
06/23/2015	19:04:54.504	$GPGGA,190455,2543.8831,N,08009.7272,W,1,10,1.5,6,M,,M,,*5C
06/23/2015	19:04:55.912	$GPGGA,190456,2543.8833,N,08009.7271,W,1,10,1.5,6,M,,M,,*5E
06/23/2015	19:04:56.502	$GPGGA,190457,2543.8832,N,08009.7272,W,1,10,1.5,6,M,,M,,*5D
06/23/2015	19:04:57.582	$GPGGA,190458,2543.8833,N,08009.7272,W,1,10,1.5,6,M,,M,,*53
06/23/2015	19:04:58.590	$GPGGA,190459,2543.8834,N,08009.7271,W,1,10,1.5,6,M,,M,,*56
06/23/2015	19:04:59.632	$GPGGA,190500,2543.8833,N,08009.7272,W,1,10,1.5,6,M,,M,,*5F
06/23/2015	19:05:00.502	$GPGGA,190501,2543.8835,N,08009.7271,W,1,10,1.5,6,M,,M,,*5B
06/23/2015	19:05:01.593	$GPGGA,190502,2543.8835,N,08009.7272,W,1,10,1.5,6,M,,M,,*5B
06/23/2015	19:05:02.572	$GPGGA,190503,2543.8835,N,08009.7271,W,1,10,1.5,6,M,,M,,*59
06/23/2015	19:05:03.583	$GPGGA,190504,2543.8837,N,08009.7272,W,1,10,1.5,6,M,,M,,*5F
06/23/2015	19:05:04.571	$GPGGA,190505,2543.8836,N,08009.7271,W,1,10,1.5,6,M,,M,,*5C
06/23/2015	19:05:05.604	$GPGGA,190506,2543.8838,N,08009.7272,W,1,10,1.5,6,M,,M,,*52
06/23/2015	19:05:06.571	$GPGGA,190507,2543.8837,N,08009.7271,W,1,10,1.5,6,M,,M,,*5F
06/23/2015	19:05:07.611	$GPGGA,190508,2543.8839,N,08009.7270,W,1,10,1.5,6,M,,M,,*5F
06/23/2015	19:05:08.561	$GPGGA,190509,2543.8839,N,08009.7270,W,1,10,1.5,6,M,,M,,*5E
06/23/2015	19:05:09.587	$GPGGA,190510,2543.8839,N,08009.7272,W,1,10,1.5,6,M,,M,,*54
06/23/2015	19:05:10.821	$GPGGA,190511,2543.8839,N,08009.7271,W,1,10,1.5,6,M,,M,,*56
06/23/2015	19:05:11.583	$GPGGA,190512,2543.8839,N,08009.7272,W,1,10,1.5,6,M,,M,,*56
06/23/2015	19:05:12.561	$GPGGA,190513,2543.8841,N,08009.7271,W,1,10,1.5,6,M,,M,,*5B
06/23/2015	19:05:13.552	$GPGGA,190514,2543.8840,N,08009.7272,W,1,10,1.5,6,M,,M,,*5E
06/23/2015	19:05:14.552	$GPGGA,190515,2543.8842,N,08009.7271,W,1,10,1.5,6,M,,M,,*5E
06/23/2015	19:05:15.552	$GPGGA,190516,2543.8842,N,08009.7270,W,1,10,1.5,6,M,,M,,*5C
06/23/2015	19:05:16.542	$GPGGA,190517,2543.8842,N,08009.7270,W,1,10,1.5,6,M,,M,,*5D
06/23/2015	19:05:17.552	$GPGGA,190518,2543.8842,N,08009.7270,W,1,10,1.5,6,M,,M,,*52
06/23/2015	19:05:18.542	$GPGGA,190519,2543.8842,N,08009.7270,W,1,10,1.5,6,M,,M,,*53
06/23/2015	19:05:19.572	$GPGGA,190520,2543.8842,N,08009.7270,W,1,10,1.5,6,M,,M,,*59
06/23/2015	19:05:20.542	$GPGGA,190521,2543.8842,N,08009.7270,W,1,10,1.5,6,M,,M,,*58
06/23/2015	19:05:21.541	$GPGGA,190522,2543.8842,N,08009.7270,W,1,10,1.5,6,M,,M,,*5B
06/23/2015	19:05:22.541	$GPGGA,190523,2543.8842,N,08009.7270,W,1,10,1.5,6,M,,M,,*5A
06/23/2015	19:05:23.571	$GPGGA,190524,2543.8842,N,08009.7270,W,1,10,1.5,6,M,,M,,*5D
06/23/2015	19:05:24.541	$GPGGA,190525,2543.8844,N,08009.7270,W,1,10,1.5,6,M,,M,,*5A
06/23/2015	19:05:25.551	$GPGGA,190526,2543.8843,N,08009.7270,W,1,10,1.5,6,M,,M,,*5E
06/23/2015	19:05:26.531	$GPGGA,190527,2543.8844,N,08009.7270,W,1,10,1.5,6,M,,M,,*58
06/23/2015	19:05:27.551	$GPGGA,190528,2543.8843,N,08009.7270,W,1,10,1.5,6,M,,M,,*50
06/23/2015	19:05:28.531	$GPGGA,190529,2543.8844,N,08009.7270,W,1,10,1.5,6,M,,M,,*56
06/23/2015	19:05:29.551	$GPGGA,190530,2543.8843,N,08009.7270,W,1,10,1.5,6,M,,M,,*59
06/23/2015	19:05:30.512	$GPGGA,190531,2543.8844,N,08009.7270,W,1,10,1.5,6,M,,M,,*5F
06/23/2015	19:05:31.532	$GPGGA,190532,2543.8843,N,08009.7269,W,1,10,1.5,6,M,,M,,*53
06/23/2015	19:05:32.522	$GPGGA,190533,2543.8844,N,08009.7269,W,1,10,1.5,6,M,,M,,*55
06/23/2015	19:05:33.622	$GPGGA,190534,2543.8843,N,08009.7269,W,1,10,1.5,6,M,,M,,*55
06/23/2015	19:05:34.622	$GPGGA,190535,2543.8845,N,08009.7270,W,1,10,1.5,6,M,,M,,*5A
06/23/2015	19:05:35.532	$GPGGA,190536,2543.8843,N,08009.7269,W,1,10,1.5,6,M,,M,,*57
06/23/2015	19:05:36.512	$GPGGA,190537,2543.8844,N,08009.7269,W,1,10,1.5,6,M,,M,,*51
06/23/2015	19:05:37.622	$GPGGA,190538,2543.8845,N,08009.7269,W,1,10,1.5,6,M,,M,,*5F
06/23/2015	19:05:38.502	$GPGGA,190539,2543.8844,N,08009.7269,W,1,10,1.5,6,M,,M,,*5F
06/23/2015	19:05:39.621	$GPGGA,190540,2543.8843,N,08009.7269,W,1,10,1.5,6,M,,M,,*56
06/23/2015	19:05:40.501	$GPGGA,190541,2543.8844,N,08009.7269,W,1,10,1.5,6,M,,M,,*50
06/23/2015	19:05:41.493	$GPGGA,190542,2543.8843,N,08009.7269,W,1,10,1.5,6,M,,M,,*54
06/23/2015	19:05:42.592	$GPGGA,190543,2543.8844,N,08009.7268,W,1,10,1.5,6,M,,M,,*53
06/23/2015	19:05:43.641	$GPGGA,190544,2543.8843,N,08009.7269,W,1,10,1.5,6,M,,M,,*52
06/23/2015	19:05:44.489	$GPGGA,190545,2543.8844,N,08009.7268,W,1,10,1.5,6,M,,M,,*55
06/23/2015	19:05:45.481	$GPGGA,190546,2543.8843,N,08009.7269,W,1,10,1.5,6,M,,M,,*50
06/23/2015	19:05:46.596	$GPGGA,190547,2543.8845,N,08009.7268,W,1,10,1.5,6,M,,M,,*56
06/23/2015	19:05:47.594	$GPGGA,190548,2543.8844,N,08009.7269,W,1,10,1.5,6,M,,M,,*59
06/23/2015	19:05:48.493	$GPGGA,190549,2543.8845,N,08009.7268,W,1,10,1.5,6,M,,M,,*58
06/23/2015	19:05:49.483	$GPGGA,190550,2543.8846,N,08009.7269,W,1,10,1.5,6,M,,M,,*52
06/23/2015	19:05:50.572	$GPGGA,190551,2543.8846,N,08009.7268,W,1,10,1.5,6,M,,M,,*52
06/23/2015	19:05:51.585	$GPGGA,190552,2543.8846,N,08009.7269,W,1,10,1.5,6,M,,M,,*50
06/23/2015	19:05:52.562	$GPGGA,190553,2543.8844,N,08009.7268,W,1,10,1.5,6,M,,M,,*52
06/23/2015	19:05:53.582	$GPGGA,190554,2543.8845,N,08009.7269,W,1,10,1.5,6,M,,M,,*55
06/23/2015	19:05:54.562	$GPGGA,190555,2543.8844,N,08009.7267,W,1,10,1.5,6,M,,M,,*5B
06/23/2015	19:05:55.602	$GPGGA,190556,2543.8845,N,08009.7267,W,1,10,1.5,6,M,,M,,*59
06/23/2015	19:05:56.561	$GPGGA,190557,2543.8843,N,08009.7267,W,1,10,1.5,6,M,,M,,*5E
06/23/2015	19:05:57.571	$GPGGA,190558,2543.8844,N,08009.7267,W,1,10,1.5,6,M,,M,,*56
06/23/2015	19:05:58.561	$GPGGA,190559,2543.8843,N,08009.7267,W,1,10,1.5,6,M,,M,,*50
06/23/2015	19:05:59.582	$GPGGA,190600,2543.8844,N,08009.7267,W,1,10,1.5,6,M,,M,,*58
06/23/2015	19:06:00.561	$GPGGA,190601,2543.8843,N,08009.7267,W,1,10,1.5,6,M,,M,,*5E
06/23/2015	19:06:01.571	$GPGGA,190602,2543.8844,N,08009.7266,W,1,10,1.5,6,M,,M,,*5B
06/23/2015	19:06:02.551	$GPGGA,190603,2543.8843,N,08009.7266,W,1,10,1.5,6,M,,M,,*5D
06/23/2015	19:06:03.571	$GPGGA,190604,2543.8844,N,08009.7266,W,1,10,1.5,6,M,,M,,*5D
06/23/2015	19:06:04.551	$GPGGA,190605,2543.8843,N,08009.7266,W,1,10,1.5,6,M,,M,,*5B
06/23/2015	19:06:05.532	$GPGGA,190606,2543.8844,N,08009.7265,W,1,10,1.5,6,M,,M,,*5C
06/23/2015	19:06:06.552	$GPGGA,190607,2543.8843,N,08009.7265,W,1,10,1.5,6,M,,M,,*5A
06/23/2015	19:06:07.593	$GPGGA,190608,2543.8844,N,08009.7265,W,1,10,1.5,6,M,,M,,*52
06/23/2015	19:06:08.542	$GPGGA,190609,2543.8843,N,08009.7265,W,1,10,1.5,6,M,,M,,*54
06/23/2015	19:06:09.562	$GPGGA,190610,2543.8842,N,08009.7265,W,1,10,1.5,6,M,,M,,*5D
06/23/2015	19:06:10.542	$GPGGA,190611,2543.8842,N,08009.7265,W,1,10,1.5,6,M,,M,,*5C
06/23/2015	19:06:11.572	$GPGGA,190612,2543.8842,N,08009.7265,W,1,10,1.5,6,M,,M,,*5F
06/23/2015	19:06:12.532	$GPGGA,190613,2543.8842,N,08009.7265,W,1,10,1.5,6,M,,M,,*5E
06/23/2015	19:06:13.561	$GPGGA,190614,2543.8842,N,08009.7265,W,1,10,1.5,6,M,,M,,*59
06/23/2015	19:06:14.531	$GPGGA,190615,2543.8842,N,08009.7265,W,1,10,1.5,6,M,,M,,*58
06/23/2015	19:06:15.531	$GPGGA,190616,2543.8842,N,08009.7265,W,1,10,1.5,6,M,,M,,*5B
06/23/2015	19:06:16.531	$GPGGA,190617,2543.8842,N,08009.7265,W,1,10,1.5,6,M,,M,,*5A
06/23/2015	19:06:17.641	$GPGGA,190618,2543.8842,N,08009.7265,W,1,10,1.5,6,M,,M,,*55
06/23/2015	19:06:18.531	$GPGGA,190619,2543.8842,N,08009.7265,W,1,10,1.5,6,M,,M,,*54
06/23/2015	19:06:19.631	$GPGGA,190620,2543.8842,N,08009.7265,W,1,10,1.5,6,M,,M,,*5E
06/23/2015	19:06:20.531	$GPGGA,190621,2543.8842,N,08009.7265,W,1,10,1.5,6,M,,M,,*5F
06/23/2015	19:06:21.541	$GPGGA,190622,2543.8842,N,08009.7264,W,1,10,1.5,6,M,,M,,*5D
06/23/2015	19:06:22.541	$GPGGA,190623,2543.8840,N,08009.7265,W,1,10,1.5,6,M,,M,,*5F
06/23/2015	19:06:23.622	$GPGGA,190624,2543.8841,N,08009.7264,W,1,10,1.5,6,M,,M,,*58
06/23/2015	19:06:24.502	$GPGGA,190625,2543.8840,N,08009.7265,W,1,10,1.5,6,M,,M,,*59
06/23/2015	19:06:25.622	$GPGGA,190626,2543.8839,N,08009.7264,W,1,10,1.5,6,M,,M,,*55
06/23/2015	19:06:26.502	$GPGGA,190627,2543.8839,N,08009.7265,W,1,10,1.5,6,M,,M,,*55
06/23/2015	19:06:27.512	$GPGGA,190628,2543.8839,N,08009.7264,W,1,10,1.5,6,M,,M,,*5B
06/23/2015	19:06:28.492	$GPGGA,190629,2543.8839,N,08009.7265,W,1,10,1.5,6,M,,M,,*5B
06/23/2015	19:06:29.512	$GPGGA,190630,2543.8839,N,08009.7263,W,1,10,1.5,6,M,,M,,*55
06/23/2015	19:06:30.597	$GPGGA,190631,2543.8839,N,08009.7263,W,1,10,1.5,5,M,,M,,*57
06/23/2015	19:06:31.631	$GPGGA,190632,2543.8839,N,08009.7263,W,1,10,1.5,5,M,,M,,*54
06/23/2015	19:06:32.511	$GPGGA,190633,2543.8839,N,08009.7263,W,1,10,1.5,5,M,,M,,*55
06/23/2015	19:06:33.611	$GPGGA,190634,2543.8839,N,08009.7263,W,1,10,1.5,5,M,,M,,*52
06/23/2015	19:06:34.581	$GPGGA,190635,2543.8839,N,08009.7263,W,1,10,1.5,5,M,,M,,*53
06/23/2015	19:06:35.594	$GPGGA,190636,2543.8839,N,08009.7263,W,1,10,1.5,5,M,,M,,*50
06/23/2015	19:06:36.591	$GPGGA,190637,2543.8839,N,08009.7262,W,1,10,1.5,5,M,,M,,*50
06/23/2015	19:06:37.585	$GPGGA,190638,2543.8839,N,08009.7262,W,1,10,1.5,5,M,,M,,*5F
06/23/2015	19:06:38.586	$GPGGA,190639,2543.8839,N,08009.7262,W,1,10,1.5,5,M,,M,,*5E
06/23/2015	19:06:39.586	$GPGGA,190640,2543.8839,N,08009.7261,W,1,10,1.5,5,M,,M,,*53
06/23/2015	19:06:40.572	$GPGGA,190641,2543.8839,N,08009.7262,W,1,10,1.5,5,M,,M,,*51
06/23/2015	19:06:41.572	$GPGGA,190642,2543.8839,N,08009.7261,W,1,10,1.5,5,M,,M,,*51
06/23/2015	19:06:42.572	$GPGGA,190643,2543.8839,N,08009.7262,W,1,10,1.5,5,M,,M,,*53
06/23/2015	19:06:43.602	$GPGGA,190644,2543.8839,N,08009.7261,W,1,10,1.5,5,M,,M,,*57
06/23/2015	19:06:44.562	$GPGGA,190645,2543.8839,N,08009.7262,W,1,10,1.5,5,M,,M,,*55
06/23/2015	19:06:45.585	$GPGGA,190646,2543.8839,N,08009.7261,W,1,10,1.5,5,M,,M,,*55
06/23/2015	19:06:46.562	$GPGGA,190647,2543.8839,N,08009.7262,W,1,10,1.5,5,M,,M,,*57
06/23/2015	19:06:47.585	$GPGGA,190648,2543.8839,N,08009.7261,W,1,10,1.5,5,M,,M,,*5B
06/23/2015	19:06:48.561	$GPGGA,190649,2543.8839,N,08009.7260,W,1,10,1.5,5,M,,M,,*5B
06/23/2015	19:06:49.571	$GPGGA,190650,2543.8839,N,08009.7261,W,1,10,1.5,5,M,,M,,*52
06/23/2015	19:06:50.551	$GPGGA,190651,2543.8839,N,08009.7260,W,1,10,1.5,5,M,,M,,*52
06/23/2015	19:06:51.585	$GPGGA,190652,2543.8839,N,08009.7261,W,1,10,1.5,5,M,,M,,*50
06/23/2015	19:06:52.541	$GPGGA,190653,2543.8839,N,08009.7260,W,1,10,1.5,5,M,,M,,*50
06/23/2015	19:06:53.542	$GPGGA,190654,2543.8839,N,08009.7261,W,1,10,1.5,5,M,,M,,*56
06/23/2015	19:06:54.561	$GPGGA,190655,2543.8839,N,08009.7260,W,1,10,1.5,5,M,,M,,*56
06/23/2015	19:06:55.551	$GPGGA,190656,2543.8839,N,08009.7262,W,1,10,1.5,5,M,,M,,*57
06/23/2015	19:06:56.531	$GPGGA,190657,2543.8841,N,08009.7260,W,1,10,1.5,5,M,,M,,*5B
06/23/2015	19:06:57.531	$GPGGA,190658,2543.8840,N,08009.7262,W,1,10,1.5,5,M,,M,,*57
06/23/2015	19:06:58.542	$GPGGA,190659,2543.8841,N,08009.7261,W,1,10,1.5,5,M,,M,,*54
06/23/2015	19:06:59.682	$GPGGA,190700,2543.8840,N,08009.7262,W,1,10,1.5,5,M,,M,,*5B
06/23/2015	19:07:00.532	$GPGGA,190701,2543.8842,N,08009.7261,W,1,10,1.5,5,M,,M,,*5B
06/23/2015	19:07:01.562	$GPGGA,190702,2543.8840,N,08009.7260,W,1,10,1.5,5,M,,M,,*5B
06/23/2015	19:07:02.542	$GPGGA,190703,2543.8841,N,08009.7262,W,1,10,1.5,5,M,,M,,*59
06/23/2015	19:07:03.542	$GPGGA,190704,2543.8842,N,08009.7261,W,1,10,1.5,5,M,,M,,*5E
06/23/2015	19:07:04.512	$GPGGA,190705,2543.8842,N,08009.7262,W,1,10,1.5,5,M,,M,,*5C
06/23/2015	19:07:05.532	$GPGGA,190706,2543.8842,N,08009.7261,W,1,10,1.5,5,M,,M,,*5C
06/23/2015	19:07:06.651	$GPGGA,190707,2543.8842,N,08009.7262,W,1,10,1.5,5,M,,M,,*5E
06/23/2015	19:07:07.711	$GPGGA,190708,2543.8842,N,08009.7261,W,1,10,1.5,5,M,,M,,*52
06/23/2015	19:07:08.531	$GPGGA,190709,2543.8842,N,08009.7262,W,1,10,1.5,5,M,,M,,*50
06/23/2015	19:07:09.541	$GPGGA,190710,2543.8842,N,08009.7260,W,1,10,1.5,5,M,,M,,*5A
06/23/2015	19:07:10.501	$GPGGA,190711,2543.8842,N,08009.7261,W,1,10,1.5,5,M,,M,,*5A
06/23/2015	19:07:11.551	$GPGGA,190712,2543.8842,N,08009.7260,W,1,10,1.5,5,M,,M,,*58
06/23/2015	19:07:12.531	$GPGGA,190713,2543.8842,N,08009.7261,W,1,10,1.5,5,M,,M,,*58
06/23/2015	19:07:13.681	$GPGGA,190714,2543.8842,N,08009.7260,W,1,10,1.5,5,M,,M,,*5E
06/23/2015	19:07:14.595	$GPGGA,190715,2543.8842,N,08009.7259,W,1,10,1.5,5,M,,M,,*55
06/23/2015	19:07:15.502	$GPGGA,190716,2543.8844,N,08009.7259,W,1,10,1.5,5,M,,M,,*50
06/23/2015	19:07:16.502	$GPGGA,190717,2543.8843,N,08009.7259,W,1,10,1.5,5,M,,M,,*56
06/23/2015	19:07:17.492	$GPGGA,190718,2543.8844,N,08009.7259,W,1,10,1.5,5,M,,M,,*5E
06/23/2015	19:07:18.585	$GPGGA,190719,2543.8842,N,08009.7259,W,1,10,1.5,5,M,,M,,*59
06/23/2015	19:07:19.722	$GPGGA,190720,2543.8842,N,08009.7259,W,1,10,1.5,5,M,,M,,*53
06/23/2015	19:07:20.552	$GPGGA,190721,2543.8842,N,08009.7261,W,1,10,1.5,5,M,,M,,*59
06/23/2015	19:07:21.687	$GPGGA,190722,2543.8842,N,08009.7259,W,1,10,1.5,5,M,,M,,*51
06/23/2015	19:07:22.502	$GPGGA,190723,2543.8842,N,08009.7259,W,1,10,1.5,5,M,,M,,*50
06/23/2015	19:07:23.698	$GPGGA,190724,2543.8842,N,08009.7261,W,1,10,1.5,5,M,,M,,*5C
06/23/2015	19:07:24.601	$GPGGA,190725,2543.8840,N,08009.7260,W,1,10,1.5,5,M,,M,,*5E
06/23/2015	19:07:25.661	$GPGGA,190726,2543.8841,N,08009.7259,W,1,10,1.5,5,M,,M,,*56
06/23/2015	19:07:26.601	$GPGGA,190727,2543.8840,N,08009.7261,W,1,10,1.5,5,M,,M,,*5D
06/23/2015	19:07:27.671	$GPGGA,190728,2543.8841,N,08009.7260,W,1,10,1.5,5,M,,M,,*52
06/23/2015	19:07:28.571	$GPGGA,190729,2543.8840,N,08009.7261,W,1,10,1.5,5,M,,M,,*53
06/23/2015	19:07:29.661	$GPGGA,190730,2543.8841,N,08009.7260,W,1,10,1.5,5,M,,M,,*5B
06/23/2015	19:07:30.591	$GPGGA,190731,2543.8839,N,08009.7261,W,1,10,1.5,5,M,,M,,*54
06/23/2015	19:07:31.685	$GPGGA,190732,2543.8839,N,08009.7260,W,1,10,1.5,5,M,,M,,*56
06/23/2015	19:07:32.593	$GPGGA,190733,2543.8839,N,08009.7261,W,1,10,1.5,5,M,,M,,*56
06/23/2015	19:07:33.662	$GPGGA,190734,2543.8839,N,08009.7260,W,1,10,1.5,5,M,,M,,*50
06/23/2015	19:07:34.586	$GPGGA,190735,2543.8839,N,08009.7261,W,1,10,1.5,5,M,,M,,*50
06/23/2015	19:07:35.562	$GPGGA,190736,2543.8841,N,08009.7260,W,1,10,1.5,5,M,,M,,*5D
06/23/2015	19:07:36.542	$GPGGA,190737,2543.8839,N,08009.7261,W,1,10,1.5,5,M,,M,,*52
06/23/2015	19:07:37.622	$GPGGA,190738,2543.8842,N,08009.7262,W,1,9,1.5,5,M,,M,,*6A
06/23/2015	19:07:38.572	$GPGGA,190739,2543.8840,N,08009.7261,W,1,9,2.2,5,M,,M,,*6E
06/23/2015	19:07:39.662	$GPGGA,190740,2543.8844,N,08009.7262,W,1,9,2.2,5,M,,M,,*67
06/23/2015	19:07:40.572	$GPGGA,190741,2543.8842,N,08009.7262,W,1,9,1.5,5,M,,M,,*64
06/23/2015	19:07:41.641	$GPGGA,190742,2543.8840,N,08009.7262,W,1,9,2.2,5,M,,M,,*61
06/23/2015	19:07:42.583	$GPGGA,190743,2543.8839,N,08009.7262,W,1,9,2.2,5,M,,M,,*6E
06/23/2015	19:07:43.671	$GPGGA,190744,2543.8839,N,08009.7262,W,1,9,2.2,5,M,,M,,*69
06/23/2015	19:07:44.561	$GPGGA,190745,2543.8837,N,08009.7262,W,1,9,2.2,5,M,,M,,*66
06/23/2015	19:07:45.631	$GPGGA,190746,2543.8836,N,08009.7262,W,1,9,2.2,5,M,,M,,*64
06/23/2015	19:07:46.551	$GPGGA,190747,2543.8835,N,08009.7262,W,1,9,2.2,5,M,,M,,*66
06/23/2015	19:07:47.641	$GPGGA,190748,2543.8835,N,08009.7262,W,1,9,2.2,5,M,,M,,*69
06/23/2015	19:07:48.551	$GPGGA,190749,2543.8835,N,08009.7262,W,1,9,2.2,5,M,,M,,*68
06/23/2015	19:07:49.641	$GPGGA,190750,2543.8835,N,08009.7262,W,1,9,2.2,5,M,,M,,*60
06/23/2015	19:07:50.552	$GPGGA,190751,2543.8835,N,08009.7262,W,1,9,2.2,5,M,,M,,*61
06/23/2015	19:07:51.622	$GPGGA,190752,2543.8835,N,08009.7262,W,1,9,2.2,5,M,,M,,*62
06/23/2015	19:07:52.542	$GPGGA,190753,2543.8835,N,08009.7262,W,1,9,2.2,5,M,,M,,*63
06/23/2015	19:07:53.622	$GPGGA,190754,2543.8835,N,08009.7262,W,1,9,2.2,4,M,,M,,*65
06/23/2015	19:07:54.552	$GPGGA,190755,2543.8835,N,08009.7262,W,1,9,2.2,4,M,,M,,*64
06/23/2015	19:07:55.652	$GPGGA,190756,2543.8835,N,08009.7262,W,1,9,2.2,4,M,,M,,*67
06/23/2015	19:07:56.542	$GPGGA,190757,2543.8835,N,08009.7262,W,1,9,2.2,4,M,,M,,*66
06/23/2015	19:07:57.622	$GPGGA,190758,2543.8833,N,08009.7262,W,1,9,2.2,4,M,,M,,*6F
06/23/2015	19:07:58.621	$GPGGA,190759,2543.8834,N,08009.7262,W,1,9,2.2,4,M,,M,,*69
06/23/2015	19:08:00.051	$GPGGA,190800,2543.8833,N,08009.7261,W,1,9,2.2,4,M,,M,,*6E
06/23/2015	19:08:00.593	$GPGGA,190801,2543.8835,N,08009.7262,W,1,9,2.2,4,M,,M,,*6A
06/23/2015	19:08:01.621	$GPGGA,190802,2543.8835,N,08009.7261,W,1,9,2.2,4,M,,M,,*6A
06/23/2015	19:08:02.541	$GPGGA,190803,2543.8835,N,08009.7262,W,1,9,2.2,4,M,,M,,*68
06/23/2015	19:08:03.585	$GPGGA,190804,2543.8835,N,08009.7261,W,1,9,2.2,4,M,,M,,*6C
06/23/2015	19:08:04.511	$GPGGA,190805,2543.8835,N,08009.7262,W,1,9,2.2,4,M,,M,,*6E
06/23/2015	19:08:05.571	$GPGGA,190806,2543.8835,N,08009.7261,W,1,9,2.2,4,M,,M,,*6E
06/23/2015	19:08:06.603	$GPGGA,190807,2543.8835,N,08009.7260,W,1,9,2.2,4,M,,M,,*6E
06/23/2015	19:08:07.599	$GPGGA,190808,2543.8835,N,08009.7261,W,1,9,2.2,4,M,,M,,*60
06/23/2015	19:08:08.586	$GPGGA,190809,2543.8835,N,08009.7262,W,1,9,2.2,4,M,,M,,*62
06/23/2015	19:08:09.572	$GPGGA,190810,2543.8835,N,08009.7261,W,1,9,2.2,4,M,,M,,*69
06/23/2015	19:08:11.652	$GPGGA,190812,2543.8835,N,08009.7261,W,1,9,2.2,3,M,,M,,*6C
06/23/2015	19:08:12.892	$GPGGA,190813,2543.8835,N,08009.7262,W,1,9,2.2,3,M,,M,,*6E
06/23/2015	19:08:13.632	$GPGGA,190814,2543.8835,N,08009.7261,W,1,9,2.2,3,M,,M,,*6A
06/23/2015	19:08:14.572	$GPGGA,190815,2543.8835,N,08009.7262,W,1,9,2.2,3,M,,M,,*68
06/23/2015	19:08:15.622	$GPGGA,190816,2543.8835,N,08009.7261,W,1,9,2.2,3,M,,M,,*68
06/23/2015	19:08:16.571	$GPGGA,190817,2543.8835,N,08009.7262,W,1,9,2.2,3,M,,M,,*6A
06/23/2015	19:08:17.631	$GPGGA,190818,2543.8835,N,08009.7261,W,1,9,2.2,3,M,,M,,*66
06/23/2015	19:08:18.552	$GPGGA,190819,2543.8835,N,08009.7262,W,1,9,2.2,3,M,,M,,*64
06/23/2015	19:08:19.596	$GPGGA,190820,2543.8835,N,08009.7261,W,1,9,2.2,3,M,,M,,*6D
06/23/2015	19:08:20.561	$GPGGA,190821,2543.8835,N,08009.7262,W,1,9,2.2,3,M,,M,,*6F
06/23/2015	19:08:21.561	$GPGGA,190822,2543.8835,N,08009.7261,W,1,9,2.2,3,M,,M,,*6F
06/23/2015	19:08:22.562	$GPGGA,190823,2543.8835,N,08009.7262,W,1,9,2.2,3,M,,M,,*6D
06/23/2015	19:08:23.641	$GPGGA,190824,2543.8835,N,08009.7261,W,1,9,2.2,3,M,,M,,*69
06/23/2015	19:08:24.541	$GPGGA,190825,2543.8837,N,08009.7262,W,1,9,2.2,3,M,,M,,*69
06/23/2015	19:08:25.572	$GPGGA,190826,2543.8836,N,08009.7261,W,1,9,2.2,3,M,,M,,*68
06/23/2015	19:08:26.812	$GPGGA,190827,2543.8837,N,08009.7262,W,1,9,2.2,3,M,,M,,*6B
06/23/2015	19:08:27.595	$GPGGA,190828,2543.8836,N,08009.7262,W,1,9,2.2,3,M,,M,,*65
06/23/2015	19:08:28.542	$GPGGA,190829,2543.8835,N,08009.7262,W,1,9,2.2,3,M,,M,,*67
06/23/2015	19:08:29.572	$GPGGA,190830,2543.8835,N,08009.7262,W,1,9,2.2,3,M,,M,,*6F
06/23/2015	19:08:30.532	$GPGGA,190831,2543.8835,N,08009.7262,W,1,9,2.2,3,M,,M,,*6E
06/23/2015	19:08:31.572	$GPGGA,190832,2543.8835,N,08009.7262,W,1,9,2.2,3,M,,M,,*6D
06/23/2015	19:08:32.562	$GPGGA,190833,2543.8837,N,08009.7262,W,1,9,2.2,3,M,,M,,*6E
06/23/2015	19:08:33.561	$GPGGA,190834,2543.8837,N,08009.7262,W,1,9,2.2,3,M,,M,,*69
06/23/2015	19:08:34.541	$GPGGA,190835,2543.8845,N,08009.7265,W,1,9,1.5,3,M,,M,,*6E
06/23/2015	19:08:38.261	$GPGGA,190838,2543.8849,N,08009.7265,W,1,10,1.5,4,M,,M,,*50
06/23/2015	19:08:38.541	$GPGGA,190839,2543.8852,N,08009.7265,W,1,10,1.5,4,M,,M,,*5B
06/23/2015	19:08:39.597	$GPGGA,190840,2543.8850,N,08009.7264,W,1,10,2.2,4,M,,M,,*52
06/23/2015	19:08:40.521	$GPGGA,190841,2543.8850,N,08009.7265,W,1,10,2.2,4,M,,M,,*52
06/23/2015	19:08:41.551	$GPGGA,190842,2543.8846,N,08009.7263,W,1,10,1.5,4,M,,M,,*54
06/23/2015	19:08:42.541	$GPGGA,190843,2543.8846,N,08009.7263,W,1,10,1.5,4,M,,M,,*55
06/23/2015	19:08:43.652	$GPGGA,190844,2543.8846,N,08009.7263,W,1,10,1.5,5,M,,M,,*53
06/23/2015	19:08:44.642	$GPGGA,190845,2543.8843,N,08009.7263,W,1,10,1.5,5,M,,M,,*57
06/23/2015	19:08:45.612	$GPGGA,190846,2543.8844,N,08009.7263,W,1,10,1.5,5,M,,M,,*53
06/23/2015	19:08:46.512	$GPGGA,190847,2543.8845,N,08009.7263,W,1,10,1.5,5,M,,M,,*53
06/23/2015	19:08:47.532	$GPGGA,190848,2543.8845,N,08009.7263,W,1,10,1.5,5,M,,M,,*5C
06/23/2015	19:08:48.597	$GPGGA,190849,2543.8846,N,08009.7263,W,1,10,1.5,5,M,,M,,*5E
06/23/2015	19:08:49.512	$GPGGA,190850,2543.8846,N,08009.7263,W,1,10,1.5,5,M,,M,,*56
06/23/2015	19:08:50.502	$GPGGA,190851,2543.8849,N,08009.7263,W,1,10,1.5,5,M,,M,,*58
06/23/2015	19:08:51.651	$GPGGA,190852,2543.8848,N,08009.7265,W,1,10,1.5,5,M,,M,,*5C
06/23/2015	19:08:52.541	$GPGGA,190853,2543.8848,N,08009.7265,W,1,10,1.5,5,M,,M,,*5D
06/23/2015	19:08:53.631	$GPGGA,190854,2543.8848,N,08009.7265,W,1,10,1.5,5,M,,M,,*5A
06/23/2015	19:08:54.583	$GPGGA,190855,2543.8849,N,08009.7264,W,1,10,1.5,5,M,,M,,*5B
06/23/2015	19:08:55.511	$GPGGA,190856,2543.8849,N,08009.7264,W,1,10,1.5,5,M,,M,,*58
06/23/2015	19:08:56.592	$GPGGA,190857,2543.8848,N,08009.7264,W,1,10,1.5,5,M,,M,,*58
06/23/2015	19:08:57.611	$GPGGA,190858,2543.8849,N,08009.7265,W,1,10,1.5,5,M,,M,,*57
06/23/2015	19:08:58.591	$GPGGA,190859,2543.8848,N,08009.7264,W,1,10,1.5,5,M,,M,,*56
06/23/2015	19:08:59.641	$GPGGA,190900,2543.8849,N,08009.7265,W,1,10,1.5,6,M,,M,,*58
06/23/2015	19:09:00.582	$GPGGA,190901,2543.8847,N,08009.7264,W,1,10,1.5,6,M,,M,,*56
06/23/2015	19:09:01.596	$GPGGA,190902,2543.8848,N,08009.7265,W,1,10,1.5,6,M,,M,,*5B
06/23/2015	19:09:02.572	$GPGGA,190903,2543.8847,N,08009.7264,W,1,10,1.5,6,M,,M,,*54
06/23/2015	19:09:03.622	$GPGGA,190904,2543.8848,N,08009.7265,W,1,10,1.5,6,M,,M,,*5D
06/23/2015	19:09:04.562	$GPGGA,190905,2543.8847,N,08009.7264,W,1,10,1.5,6,M,,M,,*52
06/23/2015	19:09:05.594	$GPGGA,190906,2543.8849,N,08009.7265,W,1,10,1.5,6,M,,M,,*5E
06/23/2015	19:09:06.572	$GPGGA,190907,2543.8848,N,08009.7264,W,1,10,1.5,6,M,,M,,*5F
06/23/2015	19:09:07.598	$GPGGA,190908,2543.8849,N,08009.7265,W,1,10,1.5,6,M,,M,,*50
06/23/2015	19:09:08.561	$GPGGA,190909,2543.8848,N,08009.7264,W,1,10,1.5,6,M,,M,,*51
06/23/2015	19:09:09.581	$GPGGA,190910,2543.8849,N,08009.7263,W,1,10,1.5,6,M,,M,,*5F
06/23/2015	19:09:10.561	$GPGGA,190911,2543.8849,N,08009.7263,W,1,10,1.5,6,M,,M,,*5E
06/23/2015	19:09:11.586	$GPGGA,190912,2543.8850,N,08009.7265,W,1,10,1.5,6,M,,M,,*53
06/23/2015	19:09:12.551	$GPGGA,190913,2543.8850,N,08009.7263,W,1,10,1.5,6,M,,M,,*54
06/23/2015	19:09:13.541	$GPGGA,190914,2543.8850,N,08009.7263,W,1,10,1.5,6,M,,M,,*53
06/23/2015	19:09:14.541	$GPGGA,190915,2543.8850,N,08009.7263,W,1,10,1.5,6,M,,M,,*52
06/23/2015	19:09:15.541	$GPGGA,190916,2543.8850,N,08009.7263,W,1,10,1.5,6,M,,M,,*51
06/23/2015	19:09:16.541	$GPGGA,190917,2543.8852,N,08009.7263,W,1,10,1.5,6,M,,M,,*52
06/23/2015	19:09:17.541	$GPGGA,190918,2543.8851,N,08009.7263,W,1,10,1.5,6,M,,M,,*5E
06/23/2015	19:09:18.531	$GPGGA,190919,2543.8852,N,08009.7263,W,1,10,1.5,6,M,,M,,*5C
06/23/2015	19:09:19.571	$GPGGA,190920,2543.8851,N,08009.7263,W,1,10,1.5,6,M,,M,,*55
06/23/2015	19:09:20.521	$GPGGA,190921,2543.8853,N,08009.7263,W,1,10,1.5,7,M,,M,,*57
06/23/2015	19:09:21.551	$GPGGA,190922,2543.8853,N,08009.7263,W,1,10,1.5,7,M,,M,,*54
06/23/2015	19:09:22.511	$GPGGA,190923,2543.8853,N,08009.7263,W,1,10,1.5,7,M,,M,,*55
06/23/2015	19:09:23.561	$GPGGA,190924,2543.8853,N,08009.7263,W,1,10,1.5,7,M,,M,,*52
06/23/2015	19:09:24.511	$GPGGA,190925,2543.8853,N,08009.7263,W,1,10,1.5,7,M,,M,,*53
06/23/2015	19:09:25.521	$GPGGA,190926,2543.8853,N,08009.7263,W,1,10,1.5,7,M,,M,,*50
06/23/2015	19:09:26.510	$GPGGA,190927,2543.8853,N,08009.7263,W,1,10,1.5,7,M,,M,,*51
06/23/2015	19:09:27.530	$GPGGA,190928,2543.8853,N,08009.7263,W,1,10,1.5,7,M,,M,,*5E
06/23/2015	19:09:28.511	$GPGGA,190929,2543.8853,N,08009.7263,W,1,10,1.5,7,M,,M,,*5F
06/23/2015	19:09:29.521	$GPGGA,190930,2543.8853,N,08009.7263,W,1,10,1.5,7,M,,M,,*57
06/23/2015	19:09:30.501	$GPGGA,190931,2543.8853,N,08009.7263,W,1,10,1.5,7,M,,M,,*56
06/23/2015	19:09:31.521	$GPGGA,190932,2543.8853,N,08009.7263,W,1,10,1.5,7,M,,M,,*55
06/23/2015	19:09:32.501	$GPGGA,190933,2543.8853,N,08009.7263,W,1,10,1.5,7,M,,M,,*54
06/23/2015	19:09:33.621	$GPGGA,190934,2543.8853,N,08009.7263,W,1,10,1.5,8,M,,M,,*5C
06/23/2015	19:09:34.511	$GPGGA,190935,2543.8853,N,08009.7263,W,1,10,1.5,8,M,,M,,*5D
06/23/2015	19:09:35.531	$GPGGA,190936,2543.8855,N,08009.7263,W,1,10,1.5,8,M,,M,,*58
06/23/2015	19:09:36.491	$GPGGA,190937,2543.8854,N,08009.7265,W,1,10,1.5,8,M,,M,,*5E
06/23/2015	19:09:37.621	$GPGGA,190938,2543.8855,N,08009.7264,W,1,10,1.5,8,M,,M,,*51
06/23/2015	19:09:38.501	$GPGGA,190939,2543.8856,N,08009.7265,W,1,10,1.5,8,M,,M,,*52
06/23/2015	19:09:39.501	$GPGGA,190940,2543.8853,N,08009.7263,W,1,10,1.5,8,M,,M,,*5F
06/23/2015	19:09:40.579	$GPGGA,190941,2543.8851,N,08009.7263,W,1,10,2.2,8,M,,M,,*58
06/23/2015	19:09:41.572	$GPGGA,190942,2543.8849,N,08009.7263,W,1,9,2.2,8,M,,M,,*6A
06/23/2015	19:09:42.591	$GPGGA,190943,2543.8848,N,08009.7263,W,1,9,2.2,8,M,,M,,*6A
06/23/2015	19:09:43.620	$GPGGA,190944,2543.8846,N,08009.7263,W,1,9,2.2,8,M,,M,,*63
06/23/2015	19:09:44.570	$GPGGA,190945,2543.8844,N,08009.7263,W,1,9,1.5,8,M,,M,,*64
06/23/2015	19:09:45.585	$GPGGA,190946,2543.8843,N,08009.7263,W,1,9,2.2,8,M,,M,,*64
06/23/2015	19:09:46.484	$GPGGA,190947,2543.8842,N,08009.7263,W,1,9,2.2,8,M,,M,,*64
06/23/2015	19:09:47.578	$GPGGA,190948,2543.8842,N,08009.7263,W,1,9,2.2,8,M,,M,,*6B
06/23/2015	19:09:48.574	$GPGGA,190949,2543.8842,N,08009.7263,W,1,9,2.2,8,M,,M,,*6A
06/23/2015	19:09:49.571	$GPGGA,190950,2543.8840,N,08009.7263,W,1,9,2.2,8,M,,M,,*60
06/23/2015	19:09:50.561	$GPGGA,190951,2543.8841,N,08009.7263,W,1,9,2.2,8,M,,M,,*60
06/23/2015	19:09:51.589	$GPGGA,190952,2543.8839,N,08009.7263,W,1,9,2.2,8,M,,M,,*6C
06/23/2015	19:09:52.561	$GPGGA,190953,2543.8839,N,08009.7263,W,1,9,2.2,7,M,,M,,*62
06/23/2015	19:09:53.551	$GPGGA,190954,2543.8839,N,08009.7263,W,1,9,2.2,7,M,,M,,*65
06/23/2015	19:09:54.551	$GPGGA,190955,2543.8837,N,08009.7263,W,1,9,2.2,7,M,,M,,*6A
06/23/2015	19:09:55.588	$GPGGA,190956,2543.8836,N,08009.7263,W,1,9,2.2,7,M,,M,,*68
06/23/2015	19:09:56.551	$GPGGA,190957,2543.8837,N,08009.7263,W,1,9,2.2,7,M,,M,,*68
06/23/2015	19:09:57.551	$GPGGA,190958,2543.8835,N,08009.7263,W,1,9,2.2,7,M,,M,,*65
06/23/2015	19:09:58.541	$GPGGA,190959,2543.8835,N,08009.7263,W,1,9,2.2,7,M,,M,,*64
06/23/2015	19:09:59.593	$GPGGA,191000,2543.8835,N,08009.7263,W,1,9,2.2,7,M,,M,,*60
06/23/2015	19:10:00.541	$GPGGA,191001,2543.8835,N,08009.7263,W,1,9,2.2,7,M,,M,,*61
06/23/2015	19:10:01.550	$GPGGA,191002,2543.8835,N,08009.7263,W,1,9,2.2,7,M,,M,,*62
06/23/2015	19:10:02.530	$GPGGA,191003,2543.8833,N,08009.7263,W,1,9,2.2,7,M,,M,,*65
06/23/2015	19:10:03.541	$GPGGA,191004,2543.8834,N,08009.7263,W,1,9,2.2,7,M,,M,,*65
06/23/2015	19:10:04.541	$GPGGA,191005,2543.8833,N,08009.7263,W,1,9,2.2,7,M,,M,,*63
06/23/2015	19:10:05.541	$GPGGA,191006,2543.8834,N,08009.7263,W,1,9,2.2,6,M,,M,,*66
06/23/2015	19:10:06.531	$GPGGA,191007,2543.8833,N,08009.7263,W,1,9,2.2,6,M,,M,,*60
06/23/2015	19:10:07.561	$GPGGA,191008,2543.8834,N,08009.7263,W,1,9,2.2,6,M,,M,,*68
06/23/2015	19:10:08.531	$GPGGA,191009,2543.8833,N,08009.7263,W,1,9,2.2,6,M,,M,,*6E
06/23/2015	19:10:09.531	$GPGGA,191010,2543.8834,N,08009.7263,W,1,9,2.2,6,M,,M,,*61
06/23/2015	19:10:10.511	$GPGGA,191011,2543.8833,N,08009.7263,W,1,9,2.2,6,M,,M,,*67
06/23/2015	19:10:11.561	$GPGGA,191012,2543.8834,N,08009.7265,W,1,9,2.2,6,M,,M,,*65
06/23/2015	19:10:12.521	$GPGGA,191013,2543.8833,N,08009.7264,W,1,9,2.2,6,M,,M,,*62
06/23/2015	19:10:13.511	$GPGGA,191014,2543.8834,N,08009.7265,W,1,9,2.2,6,M,,M,,*63
06/23/2015	19:10:14.511	$GPGGA,191015,2543.8833,N,08009.7264,W,1,9,2.2,6,M,,M,,*64
06/23/2015	19:10:15.551	$GPGGA,191016,2543.8834,N,08009.7265,W,1,9,2.2,6,M,,M,,*61
06/23/2015	19:10:16.501	$GPGGA,191017,2543.8833,N,08009.7264,W,1,9,2.2,6,M,,M,,*66
06/23/2015	19:10:17.511	$GPGGA,191018,2543.8834,N,08009.7265,W,1,9,2.2,6,M,,M,,*6F
06/23/2015	19:10:18.510	$GPGGA,191019,2543.8833,N,08009.7265,W,1,9,2.2,6,M,,M,,*69
06/23/2015	19:10:19.640	$GPGGA,191020,2543.8834,N,08009.7265,W,1,9,2.2,6,M,,M,,*64
06/23/2015	19:10:20.521	$GPGGA,191021,2543.8833,N,08009.7265,W,1,9,2.2,6,M,,M,,*62
06/23/2015	19:10:21.511	$GPGGA,191022,2543.8834,N,08009.7265,W,1,9,2.2,6,M,,M,,*66
06/23/2015	19:10:22.591	$GPGGA,191023,2543.8833,N,08009.7265,W,1,9,2.2,6,M,,M,,*60
06/23/2015	19:10:23.601	$GPGGA,191024,2543.8834,N,08009.7265,W,1,9,2.2,6,M,,M,,*60
06/23/2015	19:10:24.484	$GPGGA,191025,2543.8833,N,08009.7265,W,1,9,2.2,6,M,,M,,*66
06/23/2015	19:10:25.501	$GPGGA,191026,2543.8835,N,08009.7266,W,1,9,2.2,6,M,,M,,*60
06/23/2015	19:10:26.482	$GPGGA,191027,2543.8835,N,08009.7266,W,1,9,2.2,6,M,,M,,*61
06/23/2015	19:10:27.631	$GPGGA,191028,2543.8835,N,08009.7266,W,1,9,2.2,6,M,,M,,*6E
06/23/2015	19:10:28.491	$GPGGA,191029,2543.8838,N,08009.7267,W,1,9,2.2,6,M,,M,,*63
06/23/2015	19:10:29.591	$GPGGA,191030,2543.8841,N,08009.7269,W,1,10,1.5,6,M,,M,,*57
06/23/2015	19:10:30.484	$GPGGA,191031,2543.8844,N,08009.7269,W,1,10,1.5,6,M,,M,,*53
06/23/2015	19:10:31.486	$GPGGA,191032,2543.8846,N,08009.7269,W,1,10,1.5,6,M,,M,,*52
06/23/2015	19:10:32.573	$GPGGA,191033,2543.8849,N,08009.7270,W,1,10,1.5,6,M,,M,,*54
06/23/2015	19:10:33.591	$GPGGA,191034,2543.8852,N,08009.7270,W,1,10,1.5,6,M,,M,,*59
06/23/2015	19:10:34.575	$GPGGA,191035,2543.8853,N,08009.7272,W,1,10,1.5,6,M,,M,,*5B
06/23/2015	19:10:35.601	$GPGGA,191036,2543.8855,N,08009.7271,W,1,10,1.5,7,M,,M,,*5C
06/23/2015	19:10:36.560	$GPGGA,191037,2543.8857,N,08009.7272,W,1,10,1.5,7,M,,M,,*5C
06/23/2015	19:10:37.550	$GPGGA,191038,2543.8857,N,08009.7272,W,1,10,1.5,7,M,,M,,*53
06/23/2015	19:10:38.561	$GPGGA,191039,2543.8857,N,08009.7272,W,1,10,1.5,7,M,,M,,*52
06/23/2015	19:10:39.591	$GPGGA,191040,2543.8859,N,08009.7272,W,1,10,1.5,7,M,,M,,*52
06/23/2015	19:10:40.551	$GPGGA,191041,2543.8860,N,08009.7272,W,1,10,1.5,8,M,,M,,*56
06/23/2015	19:10:41.561	$GPGGA,191042,2543.8859,N,08009.7272,W,1,10,1.5,8,M,,M,,*5F
06/23/2015	19:10:42.551	$GPGGA,191043,2543.8860,N,08009.7272,W,1,10,1.5,8,M,,M,,*54
06/23/2015	19:10:43.588	$GPGGA,191044,2543.8859,N,08009.7272,W,1,10,1.5,8,M,,M,,*59
06/23/2015	19:10:44.551	$GPGGA,191045,2543.8860,N,08009.7272,W,1,10,1.5,8,M,,M,,*52
06/23/2015	19:10:45.561	$GPGGA,191046,2543.8859,N,08009.7272,W,1,10,1.5,8,M,,M,,*5B
06/23/2015	19:10:46.551	$GPGGA,191047,2543.8858,N,08009.7272,W,1,10,1.5,9,M,,M,,*5A
06/23/2015	19:10:47.574	$GPGGA,191048,2543.8859,N,08009.7272,W,1,10,1.5,9,M,,M,,*54
06/23/2015	19:10:48.531	$GPGGA,191049,2543.8858,N,08009.7271,W,1,10,1.5,9,M,,M,,*57
06/23/2015	19:10:49.561	$GPGGA,191050,2543.8859,N,08009.7272,W,1,10,1.5,9,M,,M,,*5D
06/23/2015	19:10:50.541	$GPGGA,191051,2543.8858,N,08009.7271,W,1,10,1.5,9,M,,M,,*5E
06/23/2015	19:10:51.561	$GPGGA,191052,2543.8859,N,08009.7272,W,1,10,1.5,9,M,,M,,*5F
06/23/2015	19:10:52.531	$GPGGA,191053,2543.8858,N,08009.7271,W,1,10,1.5,9,M,,M,,*5C
06/23/2015	19:10:53.540	$GPGGA,191054,2543.8859,N,08009.7272,W,1,10,1.5,9,M,,M,,*59
06/23/2015	19:10:54.530	$GPGGA,191055,2543.8858,N,08009.7271,W,1,10,1.5,9,M,,M,,*5A
06/23/2015	19:10:55.561	$GPGGA,191056,2543.8859,N,08009.7272,W,1,10,1.5,9,M,,M,,*5B
06/23/2015	19:10:56.521	$GPGGA,191057,2543.8857,N,08009.7271,W,1,10,1.5,9,M,,M,,*57
06/23/2015	19:10:57.521	$GPGGA,191058,2543.8857,N,08009.7272,W,1,10,1.5,10,M,,M,,*63
06/23/2015	19:10:58.531	$GPGGA,191059,2543.8857,N,08009.7271,W,1,10,1.5,10,M,,M,,*61
06/23/2015	19:10:59.576	$GPGGA,191100,2543.8857,N,08009.7272,W,1,10,1.5,10,M,,M,,*6F
06/23/2015	19:11:00.511	$GPGGA,191101,2543.8857,N,08009.7271,W,1,10,1.5,10,M,,M,,*6D
06/23/2015	19:11:01.521	$GPGGA,191102,2543.8857,N,08009.7272,W,1,10,1.5,10,M,,M,,*6D
06/23/2015	19:11:02.511	$GPGGA,191103,2543.8857,N,08009.7271,W,1,10,1.5,10,M,,M,,*6F
06/23/2015	19:11:03.641	$GPGGA,191104,2543.8857,N,08009.7272,W,1,10,1.5,10,M,,M,,*6B
06/23/2015	19:11:04.621	$GPGGA,191105,2543.8857,N,08009.7271,W,1,10,1.5,10,M,,M,,*69
06/23/2015	19:11:05.501	$GPGGA,191106,2543.8857,N,08009.7272,W,1,10,1.5,10,M,,M,,*69
06/23/2015	19:11:06.521	$GPGGA,191107,2543.8855,N,08009.7272,W,1,10,1.5,10,M,,M,,*6A
06/23/2015	19:11:07.631	$GPGGA,191108,2543.8856,N,08009.7272,W,1,10,1.5,10,M,,M,,*66
06/23/2015	19:11:08.511	$GPGGA,191109,2543.8855,N,08009.7272,W,1,10,1.5,10,M,,M,,*64
06/23/2015	19:11:09.601	$GPGGA,191110,2543.8854,N,08009.7272,W,1,10,1.5,10,M,,M,,*6D
06/23/2015	19:11:10.491	$GPGGA,191111,2543.8855,N,08009.7273,W,1,10,1.5,10,M,,M,,*6C
06/23/2015	19:11:11.500	$GPGGA,191112,2543.8853,N,08009.7273,W,1,10,1.5,10,M,,M,,*69
06/23/2015	19:11:12.587	$GPGGA,191113,2543.8853,N,08009.7273,W,1,10,1.5,10,M,,M,,*68
06/23/2015	19:11:13.511	$GPGGA,191114,2543.8853,N,08009.7273,W,1,10,1.5,10,M,,M,,*6F
06/23/2015	19:11:14.598	$GPGGA,191115,2543.8853,N,08009.7273,W,1,10,1.5,10,M,,M,,*6E
06/23/2015	19:11:15.941	$GPGGA,191116,2543.8853,N,08009.7273,W,1,10,1.5,10,M,,M,,*6D
06/23/2015	19:11:16.491	$GPGGA,191117,2543.8853,N,08009.7273,W,1,10,1.5,10,M,,M,,*6C
06/23/2015	19:11:17.911	$GPGGA,191118,2543.8853,N,08009.7273,W,1,10,1.5,10,M,,M,,*63
06/23/2015	19:11:18.491	$GPGGA,191119,2543.8851,N,08009.7273,W,1,10,1.5,10,M,,M,,*60
06/23/2015	19:11:19.592	$GPGGA,191120,2543.8852,N,08009.7273,W,1,10,1.5,10,M,,M,,*69
06/23/2015	19:11:20.573	$GPGGA,191121,2543.8851,N,08009.7273,W,1,10,1.5,10,M,,M,,*6B
06/23/2015	19:11:21.561	$GPGGA,191122,2543.8852,N,08009.7273,W,1,10,1.5,10,M,,M,,*6B
06/23/2015	19:11:22.575	$GPGGA,191123,2543.8851,N,08009.7273,W,1,10,1.5,10,M,,M,,*69
06/23/2015	19:11:23.601	$GPGGA,191124,2543.8852,N,08009.7273,W,1,10,1.5,10,M,,M,,*6D
06/23/2015	19:11:24.573	$GPGGA,191125,2543.8851,N,08009.7273,W,1,10,1.5,10,M,,M,,*6F
06/23/2015	19:11:25.561	$GPGGA,191126,2543.8852,N,08009.7273,W,1,10,1.5,10,M,,M,,*6F
06/23/2015	19:11:26.571	$GPGGA,191127,2543.8851,N,08009.7273,W,1,10,1.5,10,M,,M,,*6D
06/23/2015	19:11:27.586	$GPGGA,191128,2543.8852,N,08009.7273,W,1,10,1.5,10,M,,M,,*61
06/23/2015	19:11:28.550	$GPGGA,191129,2543.8850,N,08009.7273,W,1,10,1.5,10,M,,M,,*62
06/23/2015	19:11:29.577	$GPGGA,191130,2543.8850,N,08009.7273,W,1,10,1.5,10,M,,M,,*6A
06/23/2015	19:11:30.561	$GPGGA,191131,2543.8850,N,08009.7273,W,1,10,1.5,10,M,,M,,*6B
06/23/2015	19:11:31.561	$GPGGA,191132,2543.8850,N,08009.7273,W,1,10,1.5,10,M,,M,,*68
06/23/2015	19:11:32.552	$GPGGA,191133,2543.8850,N,08009.7273,W,1,10,1.5,10,M,,M,,*69
06/23/2015	19:11:33.574	$GPGGA,191134,2543.8850,N,08009.7273,W,1,10,1.5,10,M,,M,,*6E
06/23/2015	19:11:34.541	$GPGGA,191135,2543.8850,N,08009.7273,W,1,10,1.5,10,M,,M,,*6F
06/23/2015	19:11:35.551	$GPGGA,191136,2543.8850,N,08009.7273,W,1,10,1.5,10,M,,M,,*6C
06/23/2015	19:11:36.541	$GPGGA,191137,2543.8850,N,08009.7274,W,1,10,1.5,10,M,,M,,*6A
06/23/2015	19:11:37.551	$GPGGA,191138,2543.8850,N,08009.7274,W,1,10,1.5,10,M,,M,,*65
06/23/2015	19:11:38.531	$GPGGA,191139,2543.8850,N,08009.7274,W,1,10,1.5,10,M,,M,,*64
06/23/2015	19:11:39.583	$GPGGA,191140,2543.8850,N,08009.7274,W,1,10,1.5,10,M,,M,,*6A
06/23/2015	19:11:40.521	$GPGGA,191141,2543.8850,N,08009.7274,W,1,10,1.5,10,M,,M,,*6B
06/23/2015	19:11:41.541	$GPGGA,191142,2543.8850,N,08009.7274,W,1,10,1.5,10,M,,M,,*68
06/23/2015	19:11:42.541	$GPGGA,191143,2543.8849,N,08009.7274,W,1,10,1.5,10,M,,M,,*61
06/23/2015	19:11:43.573	$GPGGA,191144,2543.8849,N,08009.7274,W,1,10,1.5,10,M,,M,,*66
06/23/2015	19:11:44.521	$GPGGA,191145,2543.8850,N,08009.7274,W,1,10,1.5,10,M,,M,,*6F
06/23/2015	19:11:45.521	$GPGGA,191146,2543.8850,N,08009.7274,W,1,10,1.5,10,M,,M,,*6C
06/23/2015	19:11:46.530	$GPGGA,191147,2543.8850,N,08009.7276,W,1,10,1.5,10,M,,M,,*6F
06/23/2015	19:11:47.584	$GPGGA,191148,2543.8850,N,08009.7275,W,1,10,1.5,10,M,,M,,*63
06/23/2015	19:11:48.611	$GPGGA,191149,2543.8850,N,08009.7276,W,1,10,1.5,10,M,,M,,*61
06/23/2015	19:11:49.521	$GPGGA,191150,2543.8850,N,08009.7275,W,1,10,1.5,10,M,,M,,*6A
06/23/2015	19:11:50.521	$GPGGA,191151,2543.8850,N,08009.7276,W,1,10,1.5,10,M,,M,,*68
06/23/2015	19:11:51.541	$GPGGA,191152,2543.8849,N,08009.7275,W,1,10,1.5,10,M,,M,,*60
