Software Version Number: 1	Data File Format Number: 1	Build Version Number: 1	Error Count Since VI Started: 1	Manufacturer: Raytheon	 Model Number: RayMarine 120	 S/N: 	 Cal Date: 	 Wind Direction Offset: 0.00	 Slope (M)1: 0.00	 Offset (B)1: 0.00	 Slope (M)2: 0.00	 Offset (B)2: 0.00	 Slope (M)3: 0.00	 Offset (B)3: 0.00	 Slope (M)4: 0.00	 Offset (B)4: 0.00	 Slope (M)5: 0.00	 Offset (B)5: 0.00	 Slope (M)6: 0.00	 Offset (B)6: 0.00
Computer Date	Computer Time	GGA String
06/11/2015	07:00:00.479	$GPGGA,070001,2418.4604,N,08141.3671,W,1,9,1.6,16,M,,M,,*59
06/11/2015	07:00:01.589	$GPGGA,070002,2418.4599,N,08141.3685,W,1,9,1.6,16,M,,M,,*56
06/11/2015	07:00:02.659	$GPGGA,070003,2418.4597,N,08141.3699,W,1,9,1.6,16,M,,M,,*54
06/11/2015	07:00:03.579	$GPGGA,070004,2418.4594,N,08141.3714,W,1,9,1.6,16,M,,M,,*54
06/11/2015	07:00:04.559	$GPGGA,070005,2418.4590,N,08141.3728,W,1,9,1.6,16,M,,M,,*5E
06/11/2015	07:00:05.559	$GPGGA,070006,2418.4585,N,08141.3741,W,1,8,1.9,16,M,,M,,*58
06/11/2015	07:00:06.559	$GPGGA,070007,2418.4583,N,08141.3754,W,1,8,1.6,16,M,,M,,*54
06/11/2015	07:00:07.579	$GPGGA,070008,2418.4580,N,08141.3769,W,1,8,1.9,16,M,,M,,*59
06/11/2015	07:00:08.560	$GPGGA,070009,2418.4576,N,08141.3784,W,1,8,1.6,16,M,,M,,*5D
06/11/2015	07:00:09.542	$GPGGA,070010,2418.4572,N,08141.3800,W,1,9,1.6,16,M,,M,,*53
06/11/2015	07:00:10.550	$GPGGA,070011,2418.4568,N,08141.3815,W,1,9,1.6,16,M,,M,,*5D
06/11/2015	07:00:11.579	$GPGGA,070012,2418.4565,N,08141.3829,W,1,9,1.6,16,M,,M,,*5C
06/11/2015	07:00:12.539	$GPGGA,070013,2418.4562,N,08141.3842,W,1,9,1.6,16,M,,M,,*57
06/11/2015	07:00:13.549	$GPGGA,070014,2418.4557,N,08141.3855,W,1,9,1.6,16,M,,M,,*50
06/11/2015	07:00:14.542	$GPGGA,070015,2418.4554,N,08141.3869,W,1,9,1.6,16,M,,M,,*5D
06/11/2015	07:00:15.559	$GPGGA,070016,2418.4550,N,08141.3884,W,1,9,1.6,16,M,,M,,*59
06/11/2015	07:00:16.542	$GPGGA,070017,2418.4547,N,08141.3898,W,1,9,1.6,16,M,,M,,*53
06/11/2015	07:00:17.552	$GPGGA,070018,2418.4541,N,08141.3913,W,1,9,1.6,16,M,,M,,*58
06/11/2015	07:00:18.540	$GPGGA,070019,2418.4537,N,08141.3927,W,1,9,1.6,16,M,,M,,*5F
06/11/2015	07:00:19.529	$GPGGA,070020,2418.4534,N,08141.3941,W,1,9,1.6,16,M,,M,,*56
06/11/2015	07:00:20.879	$GPGGA,070021,2418.4529,N,08141.3952,W,1,9,1.9,16,M,,M,,*56
06/11/2015	07:00:21.543	$GPGGA,070022,2418.4525,N,08141.3965,W,1,8,1.9,16,M,,M,,*5C
06/11/2015	07:00:22.519	$GPGGA,070023,2418.4521,N,08141.3981,W,1,8,1.9,16,M,,M,,*53
06/11/2015	07:00:23.549	$GPGGA,070024,2418.4518,N,08141.3996,W,1,8,1.8,16,M,,M,,*59
06/11/2015	07:00:24.519	$GPGGA,070025,2418.4514,N,08141.4010,W,1,8,1.6,16,M,,M,,*5A
06/11/2015	07:00:25.520	$GPGGA,070026,2418.4510,N,08141.4024,W,1,9,1.6,16,M,,M,,*5B
06/11/2015	07:00:26.520	$GPGGA,070027,2418.4507,N,08141.4039,W,1,9,1.9,16,M,,M,,*5F
06/11/2015	07:00:27.560	$GPGGA,070028,2418.4503,N,08141.4053,W,1,8,1.8,16,M,,M,,*58
06/11/2015	07:00:28.510	$GPGGA,070029,2418.4500,N,08141.4065,W,1,8,2.1,16,M,,M,,*55
06/11/2015	07:00:29.529	$GPGGA,070030,2418.4498,N,08141.4080,W,1,8,1.9,16,M,,M,,*5D
06/11/2015	07:00:30.499	$GPGGA,070031,2418.4496,N,08141.4094,W,1,8,1.6,16,M,,M,,*58
06/11/2015	07:00:31.509	$GPGGA,070032,2418.4493,N,08141.4108,W,1,9,1.6,16,M,,M,,*5B
06/11/2015	07:00:32.499	$GPGGA,070033,2418.4490,N,08141.4122,W,1,9,1.6,16,M,,M,,*51
06/11/2015	07:00:33.499	$GPGGA,070034,2418.4486,N,08141.4137,W,1,8,1.9,16,M,,M,,*5B
06/11/2015	07:00:34.489	$GPGGA,070035,2418.4483,N,08141.4154,W,1,8,1.6,16,M,,M,,*55
06/11/2015	07:00:35.499	$GPGGA,070036,2418.4482,N,08141.4167,W,1,9,1.6,16,M,,M,,*56
06/11/2015	07:00:36.499	$GPGGA,070037,2418.4478,N,08141.4183,W,1,9,1.5,16,M,,M,,*5B
06/11/2015	07:00:37.479	$GPGGA,070038,2418.4474,N,08141.4196,W,1,10,1.5,16,M,,M,,*64
06/11/2015	07:00:38.499	$GPGGA,070039,2418.4472,N,08141.4212,W,1,10,1.5,16,M,,M,,*6C
06/11/2015	07:00:39.629	$GPGGA,070040,2418.4471,N,08141.4227,W,1,10,1.5,16,M,,M,,*67
06/11/2015	07:00:40.479	$GPGGA,070041,2418.4468,N,08141.4239,W,1,10,1.5,17,M,,M,,*60
06/11/2015	07:00:41.610	$GPGGA,070042,2418.4467,N,08141.4252,W,1,9,1.6,17,M,,M,,*5A
06/11/2015	07:00:42.489	$GPGGA,070043,2418.4465,N,08141.4267,W,1,9,1.5,17,M,,M,,*5C
06/11/2015	07:00:43.630	$GPGGA,070044,2418.4462,N,08141.4281,W,1,10,1.5,17,M,,M,,*6C
06/11/2015	07:00:44.580	$GPGGA,070045,2418.4460,N,08141.4296,W,1,10,1.5,17,M,,M,,*69
06/11/2015	07:00:45.590	$GPGGA,070046,2418.4456,N,08141.4310,W,1,10,1.5,17,M,,M,,*60
06/11/2015	07:00:46.489	$GPGGA,070047,2418.4454,N,08141.4324,W,1,10,1.5,17,M,,M,,*64
06/11/2015	07:00:47.619	$GPGGA,070048,2418.4451,N,08141.4339,W,1,10,1.5,17,M,,M,,*62
06/11/2015	07:00:48.579	$GPGGA,070049,2418.4449,N,08141.4351,W,1,10,1.5,17,M,,M,,*64
06/11/2015	07:00:49.569	$GPGGA,070050,2418.4445,N,08141.4365,W,1,10,1.5,17,M,,M,,*67
06/11/2015	07:00:50.569	$GPGGA,070051,2418.4442,N,08141.4379,W,1,10,1.6,18,M,,M,,*60
06/11/2015	07:00:51.599	$GPGGA,070052,2418.4438,N,08141.4394,W,1,9,1.6,18,M,,M,,*55
06/11/2015	07:00:52.553	$GPGGA,070053,2418.4435,N,08141.4409,W,1,9,1.5,18,M,,M,,*59
06/11/2015	07:00:53.549	$GPGGA,070054,2418.4431,N,08141.4423,W,1,10,1.5,18,M,,M,,*6A
06/11/2015	07:00:54.559	$GPGGA,070055,2418.4427,N,08141.4437,W,1,10,1.5,18,M,,M,,*69
06/11/2015	07:00:55.589	$GPGGA,070056,2418.4424,N,08141.4449,W,1,9,1.8,18,M,,M,,*55
06/11/2015	07:00:56.553	$GPGGA,070057,2418.4421,N,08141.4462,W,1,9,1.8,18,M,,M,,*58
06/11/2015	07:00:57.579	$GPGGA,070058,2418.4418,N,08141.4474,W,1,10,1.5,18,M,,M,,*6F
06/11/2015	07:00:58.547	$GPGGA,070059,2418.4415,N,08141.4490,W,1,10,1.5,18,M,,M,,*69
06/11/2015	07:00:59.569	$GPGGA,070100,2418.4413,N,08141.4503,W,1,10,1.5,18,M,,M,,*69
06/11/2015	07:01:00.543	$GPGGA,070101,2418.4408,N,08141.4517,W,1,10,1.5,18,M,,M,,*67
06/11/2015	07:01:01.548	$GPGGA,070102,2418.4404,N,08141.4531,W,1,9,1.8,18,M,,M,,*59
06/11/2015	07:01:02.542	$GPGGA,070103,2418.4402,N,08141.4548,W,1,9,1.8,18,M,,M,,*50
06/11/2015	07:01:03.570	$GPGGA,070104,2418.4398,N,08141.4563,W,1,10,1.5,18,M,,M,,*6F
06/11/2015	07:01:04.541	$GPGGA,070105,2418.4395,N,08141.4577,W,1,10,1.5,18,M,,M,,*66
06/11/2015	07:01:05.529	$GPGGA,070106,2418.4391,N,08141.4592,W,1,10,1.5,18,M,,M,,*6A
06/11/2015	07:01:06.547	$GPGGA,070107,2418.4388,N,08141.4606,W,1,10,1.5,18,M,,M,,*6D
06/11/2015	07:01:07.543	$GPGGA,070108,2418.4384,N,08141.4621,W,1,10,1.5,18,M,,M,,*6B
06/11/2015	07:01:08.529	$GPGGA,070109,2418.4381,N,08141.4635,W,1,10,1.5,18,M,,M,,*6A
06/11/2015	07:01:09.562	$GPGGA,070110,2418.4377,N,08141.4650,W,1,10,1.5,18,M,,M,,*68
06/11/2015	07:01:10.529	$GPGGA,070111,2418.4373,N,08141.4664,W,1,10,1.5,18,M,,M,,*6A
06/11/2015	07:01:11.569	$GPGGA,070112,2418.4370,N,08141.4679,W,1,10,1.5,18,M,,M,,*66
06/11/2015	07:01:12.529	$GPGGA,070113,2418.4366,N,08141.4693,W,1,10,1.5,18,M,,M,,*64
06/11/2015	07:01:13.543	$GPGGA,070114,2418.4362,N,08141.4707,W,1,10,1.5,18,M,,M,,*6B
06/11/2015	07:01:14.679	$GPGGA,070115,2418.4359,N,08141.4719,W,1,10,1.5,18,M,,M,,*6D
06/11/2015	07:01:15.560	$GPGGA,070116,2418.4355,N,08141.4734,W,1,10,1.5,18,M,,M,,*6D
06/11/2015	07:01:16.519	$GPGGA,070117,2418.4352,N,08141.4749,W,1,10,1.5,18,M,,M,,*61
06/11/2015	07:01:17.499	$GPGGA,070118,2418.4348,N,08141.4765,W,1,10,1.5,18,M,,M,,*6B
06/11/2015	07:01:18.520	$GPGGA,070119,2418.4343,N,08141.4779,W,1,10,1.5,18,M,,M,,*6C
06/11/2015	07:01:19.560	$GPGGA,070120,2418.4339,N,08141.4792,W,1,10,1.5,18,M,,M,,*6E
06/11/2015	07:01:20.520	$GPGGA,070121,2418.4335,N,08141.4806,W,1,10,1.8,18,M,,M,,*6C
06/11/2015	07:01:21.509	$GPGGA,070122,2418.4333,N,08141.4819,W,1,10,1.5,18,M,,M,,*6A
06/11/2015	07:01:22.489	$GPGGA,070123,2418.4328,N,08141.4831,W,1,10,1.8,18,M,,M,,*66
06/11/2015	07:01:23.540	$GPGGA,070124,2418.4324,N,08141.4845,W,1,10,1.5,18,M,,M,,*63
06/11/2015	07:01:24.509	$GPGGA,070125,2418.4321,N,08141.4859,W,1,10,1.5,18,M,,M,,*6A
06/11/2015	07:01:25.609	$GPGGA,070126,2418.4317,N,08141.4874,W,1,10,1.5,18,M,,M,,*63
06/11/2015	07:01:26.659	$GPGGA,070127,2418.4312,N,08141.4888,W,1,10,1.5,18,M,,M,,*64
06/11/2015	07:01:27.519	$GPGGA,070128,2418.4309,N,08141.4902,W,1,10,1.5,18,M,,M,,*62
06/11/2015	07:01:28.658	$GPGGA,070129,2418.4305,N,08141.4915,W,1,10,1.5,17,M,,M,,*66
06/11/2015	07:01:29.489	$GPGGA,070130,2418.4301,N,08141.4928,W,1,10,1.5,17,M,,M,,*64
06/11/2015	07:01:30.652	$GPGGA,070131,2418.4297,N,08141.4942,W,1,10,1.5,17,M,,M,,*67
06/11/2015	07:01:31.589	$GPGGA,070132,2418.4294,N,08141.4957,W,1,10,1.5,17,M,,M,,*63
06/11/2015	07:01:32.649	$GPGGA,070133,2418.4291,N,08141.4971,W,1,10,1.5,17,M,,M,,*63
06/11/2015	07:01:33.569	$GPGGA,070134,2418.4287,N,08141.4985,W,1,10,1.5,17,M,,M,,*68
06/11/2015	07:01:34.651	$GPGGA,070135,2418.4284,N,08141.4997,W,1,10,1.5,17,M,,M,,*69
06/11/2015	07:01:35.610	$GPGGA,070136,2418.4281,N,08141.5011,W,1,10,1.5,17,M,,M,,*69
06/11/2015	07:01:36.560	$GPGGA,070137,2418.4278,N,08141.5023,W,1,10,1.5,17,M,,M,,*6F
06/11/2015	07:01:37.658	$GPGGA,070138,2418.4273,N,08141.5037,W,1,10,1.5,17,M,,M,,*6E
06/11/2015	07:01:38.643	$GPGGA,070139,2418.4269,N,08141.5051,W,1,10,1.5,17,M,,M,,*64
06/11/2015	07:01:39.642	$GPGGA,070140,2418.4266,N,08141.5065,W,1,10,1.5,17,M,,M,,*62
06/11/2015	07:01:40.554	$GPGGA,070141,2418.4262,N,08141.5079,W,1,10,1.5,17,M,,M,,*6A
06/11/2015	07:01:41.609	$GPGGA,070142,2418.4258,N,08141.5094,W,1,10,1.5,17,M,,M,,*63
06/11/2015	07:01:42.551	$GPGGA,070143,2418.4255,N,08141.5106,W,1,10,1.5,17,M,,M,,*65
06/11/2015	07:01:43.655	$GPGGA,070144,2418.4250,N,08141.5121,W,1,9,1.5,17,M,,M,,*5A
06/11/2015	07:01:44.609	$GPGGA,070145,2418.4247,N,08141.5135,W,1,9,1.5,17,M,,M,,*58
06/11/2015	07:01:45.620	$GPGGA,070146,2418.4243,N,08141.5150,W,1,10,1.5,17,M,,M,,*64
06/11/2015	07:01:46.619	$GPGGA,070147,2418.4238,N,08141.5166,W,1,10,1.5,17,M,,M,,*6C
06/11/2015	07:01:47.619	$GPGGA,070148,2418.4236,N,08141.5178,W,1,10,1.5,17,M,,M,,*62
06/11/2015	07:01:48.599	$GPGGA,070149,2418.4232,N,08141.5192,W,1,10,1.8,17,M,,M,,*6E
06/11/2015	07:01:49.599	$GPGGA,070150,2418.4229,N,08141.5206,W,1,10,1.5,17,M,,M,,*6F
06/11/2015	07:01:50.529	$GPGGA,070151,2418.4225,N,08141.5220,W,1,10,1.5,17,M,,M,,*66
06/11/2015	07:01:51.609	$GPGGA,070152,2418.4221,N,08141.5235,W,1,10,1.5,17,M,,M,,*65
06/11/2015	07:01:52.529	$GPGGA,070153,2418.4218,N,08141.5249,W,1,10,1.5,17,M,,M,,*65
06/11/2015	07:01:53.610	$GPGGA,070154,2418.4213,N,08141.5264,W,1,10,1.5,17,M,,M,,*66
06/11/2015	07:01:54.590	$GPGGA,070155,2418.4209,N,08141.5276,W,1,10,1.5,17,M,,M,,*6F
06/11/2015	07:01:55.590	$GPGGA,070156,2418.4208,N,08141.5289,W,1,9,1.8,17,M,,M,,*58
06/11/2015	07:01:56.589	$GPGGA,070157,2418.4205,N,08141.5304,W,1,9,1.8,17,M,,M,,*50
06/11/2015	07:01:57.559	$GPGGA,070158,2418.4201,N,08141.5319,W,1,10,1.5,17,M,,M,,*62
06/11/2015	07:01:58.519	$GPGGA,070159,2418.4196,N,08141.5334,W,1,10,1.5,17,M,,M,,*61
06/11/2015	07:01:59.589	$GPGGA,070200,2418.4193,N,08141.5350,W,1,10,1.5,17,M,,M,,*69
06/11/2015	07:02:00.519	$GPGGA,070201,2418.4190,N,08141.5362,W,1,10,1.5,17,M,,M,,*6A
06/11/2015	07:02:01.509	$GPGGA,070202,2418.4187,N,08141.5376,W,1,9,1.8,18,M,,M,,*50
06/11/2015	07:02:02.569	$GPGGA,070203,2418.4184,N,08141.5387,W,1,9,1.8,18,M,,M,,*5C
06/11/2015	07:02:03.599	$GPGGA,070204,2418.4182,N,08141.5401,W,1,10,1.5,18,M,,M,,*61
06/11/2015	07:02:04.569	$GPGGA,070205,2418.4179,N,08141.5412,W,1,10,1.5,18,M,,M,,*66
06/11/2015	07:02:05.548	$GPGGA,070206,2418.4175,N,08141.5426,W,1,10,1.5,18,M,,M,,*6E
06/11/2015	07:02:06.499	$GPGGA,070207,2418.4172,N,08141.5439,W,1,10,1.5,18,M,,M,,*66
06/11/2015	07:02:07.509	$GPGGA,070208,2418.4169,N,08141.5455,W,1,10,1.5,18,M,,M,,*69
06/11/2015	07:02:08.499	$GPGGA,070209,2418.4166,N,08141.5467,W,1,10,1.5,18,M,,M,,*66
06/11/2015	07:02:09.489	$GPGGA,070210,2418.4162,N,08141.5481,W,1,10,1.5,18,M,,M,,*62
06/11/2015	07:02:10.560	$GPGGA,070211,2418.4161,N,08141.5495,W,1,10,1.5,18,M,,M,,*65
06/11/2015	07:02:11.610	$GPGGA,070212,2418.4158,N,08141.5509,W,1,10,1.5,18,M,,M,,*68
06/11/2015	07:02:12.560	$GPGGA,070213,2418.4154,N,08141.5522,W,1,10,1.5,18,M,,M,,*6C
06/11/2015	07:02:13.490	$GPGGA,070214,2418.4153,N,08141.5535,W,1,10,1.5,18,M,,M,,*6A
06/11/2015	07:02:14.559	$GPGGA,070215,2418.4149,N,08141.5549,W,1,10,1.5,18,M,,M,,*6B
06/11/2015	07:02:15.599	$GPGGA,070216,2418.4146,N,08141.5564,W,1,10,1.5,18,M,,M,,*68
06/11/2015	07:02:16.579	$GPGGA,070217,2418.4143,N,08141.5579,W,1,10,1.5,18,M,,M,,*60
06/11/2015	07:02:17.479	$GPGGA,070218,2418.4140,N,08141.5593,W,1,10,1.5,18,M,,M,,*68
06/11/2015	07:02:18.579	$GPGGA,070219,2418.4137,N,08141.5607,W,1,10,1.8,18,M,,M,,*6A
06/11/2015	07:02:19.619	$GPGGA,070220,2418.4135,N,08141.5621,W,1,9,1.8,18,M,,M,,*5E
06/11/2015	07:02:20.580	$GPGGA,070221,2418.4131,N,08141.5633,W,1,9,1.5,18,M,,M,,*55
06/11/2015	07:02:21.599	$GPGGA,070222,2418.4129,N,08141.5647,W,1,10,1.5,18,M,,M,,*64
06/11/2015	07:02:22.569	$GPGGA,070223,2418.4125,N,08141.5661,W,1,10,1.5,18,M,,M,,*6D
06/11/2015	07:02:23.579	$GPGGA,070224,2418.4121,N,08141.5677,W,1,10,1.5,18,M,,M,,*69
06/11/2015	07:02:24.589	$GPGGA,070225,2418.4118,N,08141.5694,W,1,10,1.5,18,M,,M,,*6F
06/11/2015	07:02:25.569	$GPGGA,070226,2418.4115,N,08141.5708,W,1,10,1.8,18,M,,M,,*68
06/11/2015	07:02:26.559	$GPGGA,070227,2418.4111,N,08141.5720,W,1,10,1.8,18,M,,M,,*67
06/11/2015	07:02:27.579	$GPGGA,070228,2418.4107,N,08141.5733,W,1,9,1.5,18,M,,M,,*58
06/11/2015	07:02:28.580	$GPGGA,070229,2418.4106,N,08141.5746,W,1,9,1.5,18,M,,M,,*5A
06/11/2015	07:02:29.600	$GPGGA,070230,2418.4101,N,08141.5762,W,1,10,1.5,18,M,,M,,*6B
06/11/2015	07:02:30.553	$GPGGA,070231,2418.4097,N,08141.5774,W,1,10,1.8,18,M,,M,,*6E
06/11/2015	07:02:31.609	$GPGGA,070232,2418.4093,N,08141.5788,W,1,9,1.8,18,M,,M,,*52
06/11/2015	07:02:32.569	$GPGGA,070233,2418.4089,N,08141.5803,W,1,9,1.5,18,M,,M,,*59
06/11/2015	07:02:33.569	$GPGGA,070234,2418.4086,N,08141.5818,W,1,10,1.8,18,M,,M,,*6E
06/11/2015	07:02:34.569	$GPGGA,070235,2418.4083,N,08141.5834,W,1,10,1.5,18,M,,M,,*69
06/11/2015	07:02:35.609	$GPGGA,070236,2418.4078,N,08141.5849,W,1,10,1.5,18,M,,M,,*64
06/11/2015	07:02:36.553	$GPGGA,070237,2418.4074,N,08141.5863,W,1,10,1.5,18,M,,M,,*61
06/11/2015	07:02:37.550	$GPGGA,070238,2418.4071,N,08141.5878,W,1,10,1.5,18,M,,M,,*61
06/11/2015	07:02:38.550	$GPGGA,070239,2418.4068,N,08141.5890,W,1,10,1.5,18,M,,M,,*6E
06/11/2015	07:02:39.589	$GPGGA,070240,2418.4063,N,08141.5904,W,1,10,1.5,18,M,,M,,*67
06/11/2015	07:02:40.569	$GPGGA,070241,2418.4059,N,08141.5918,W,1,10,1.5,18,M,,M,,*62
06/11/2015	07:02:41.569	$GPGGA,070242,2418.4056,N,08141.5932,W,1,10,1.5,18,M,,M,,*66
06/11/2015	07:02:42.549	$GPGGA,070243,2418.4052,N,08141.5947,W,1,10,1.5,18,M,,M,,*61
06/11/2015	07:02:43.569	$GPGGA,070244,2418.4048,N,08141.5961,W,1,10,1.5,18,M,,M,,*69
06/11/2015	07:02:44.579	$GPGGA,070245,2418.4044,N,08141.5975,W,1,10,1.5,18,M,,M,,*61
06/11/2015	07:02:45.560	$GPGGA,070246,2418.4041,N,08141.5987,W,1,10,1.5,18,M,,M,,*6A
06/11/2015	07:02:46.540	$GPGGA,070247,2418.4035,N,08141.6001,W,1,10,1.5,18,M,,M,,*6C
06/11/2015	07:02:47.570	$GPGGA,070248,2418.4032,N,08141.6015,W,1,10,1.5,18,M,,M,,*61
06/11/2015	07:02:48.540	$GPGGA,070249,2418.4028,N,08141.6030,W,1,10,1.5,18,M,,M,,*6C
06/11/2015	07:02:49.529	$GPGGA,070250,2418.4028,N,08141.6030,W,1,10,1.5,18,M,,M,,*64
06/11/2015	07:02:50.529	$GPGGA,070251,2418.4023,N,08141.6044,W,1,10,1.5,18,M,,M,,*6D
06/11/2015	07:02:51.540	$GPGGA,070252,2418.4016,N,08141.6071,W,1,10,1.5,18,M,,M,,*6E
06/11/2015	07:02:52.519	$GPGGA,070253,2418.4016,N,08141.6071,W,1,10,1.5,18,M,,M,,*6F
06/11/2015	07:02:53.619	$GPGGA,070254,2418.4007,N,08141.6098,W,1,10,1.5,18,M,,M,,*6F
06/11/2015	07:02:54.559	$GPGGA,070255,2418.4007,N,08141.6098,W,1,10,1.5,18,M,,M,,*6E
06/11/2015	07:02:55.551	$GPGGA,070256,2418.4001,N,08141.6127,W,1,10,1.5,18,M,,M,,*6E
06/11/2015	07:02:56.519	$GPGGA,070257,2418.4001,N,08141.6127,W,1,10,1.5,18,M,,M,,*6F
06/11/2015	07:02:57.556	$GPGGA,070258,2418.3991,N,08141.6153,W,1,10,1.5,18,M,,M,,*64
06/11/2015	07:02:58.550	$GPGGA,070259,2418.3991,N,08141.6153,W,1,10,1.5,18,M,,M,,*65
06/11/2015	07:02:59.669	$GPGGA,070300,2418.3985,N,08141.6181,W,1,10,1.5,18,M,,M,,*62
06/11/2015	07:03:00.609	$GPGGA,070301,2418.3980,N,08141.6194,W,1,10,1.5,18,M,,M,,*62
06/11/2015	07:03:01.589	$GPGGA,070302,2418.3976,N,08141.6208,W,1,10,1.5,18,M,,M,,*6E
06/11/2015	07:03:02.609	$GPGGA,070303,2418.3972,N,08141.6222,W,1,10,1.5,18,M,,M,,*63
06/11/2015	07:03:03.630	$GPGGA,070304,2418.3969,N,08141.6236,W,1,10,1.5,18,M,,M,,*6B
06/11/2015	07:03:04.580	$GPGGA,070305,2418.3965,N,08141.6250,W,1,10,1.5,18,M,,M,,*66
06/11/2015	07:03:05.480	$GPGGA,070306,2418.3962,N,08141.6262,W,1,10,1.5,18,M,,M,,*63
06/11/2015	07:03:06.579	$GPGGA,070307,2418.3959,N,08141.6275,W,1,10,1.5,18,M,,M,,*6C
06/11/2015	07:03:07.619	$GPGGA,070308,2418.3954,N,08141.6288,W,1,10,1.5,18,M,,M,,*6C
06/11/2015	07:03:08.569	$GPGGA,070309,2418.3951,N,08141.6302,W,1,10,1.5,18,M,,M,,*6B
06/11/2015	07:03:09.609	$GPGGA,070310,2418.3947,N,08141.6316,W,1,10,1.5,18,M,,M,,*61
06/11/2015	07:03:10.569	$GPGGA,070311,2418.3943,N,08141.6330,W,1,10,1.5,18,M,,M,,*60
06/11/2015	07:03:11.589	$GPGGA,070312,2418.3940,N,08141.6344,W,1,10,1.5,18,M,,M,,*63
06/11/2015	07:03:12.569	$GPGGA,070313,2418.3937,N,08141.6358,W,1,10,1.5,18,M,,M,,*6F
06/11/2015	07:03:13.579	$GPGGA,070314,2418.3933,N,08141.6371,W,1,10,1.5,18,M,,M,,*67
06/11/2015	07:03:14.569	$GPGGA,070315,2418.3929,N,08141.6385,W,1,10,1.5,18,M,,M,,*66
06/11/2015	07:03:15.589	$GPGGA,070316,2418.3925,N,08141.6399,W,1,10,1.5,18,M,,M,,*64
06/11/2015	07:03:16.569	$GPGGA,070317,2418.3922,N,08141.6413,W,1,10,1.5,18,M,,M,,*67
06/11/2015	07:03:17.549	$GPGGA,070318,2418.3918,N,08141.6427,W,1,10,1.5,18,M,,M,,*66
06/11/2015	07:03:18.559	$GPGGA,070319,2418.3915,N,08141.6441,W,1,10,1.5,18,M,,M,,*6A
06/11/2015	07:03:19.589	$GPGGA,070320,2418.3911,N,08141.6454,W,1,10,1.5,18,M,,M,,*60
06/11/2015	07:03:20.560	$GPGGA,070321,2418.3907,N,08141.6470,W,1,10,1.5,18,M,,M,,*60
06/11/2015	07:03:21.570	$GPGGA,070322,2418.3904,N,08141.6483,W,1,10,1.5,18,M,,M,,*6C
06/11/2015	07:03:22.560	$GPGGA,070323,2418.3900,N,08141.6497,W,1,10,1.5,18,M,,M,,*6C
06/11/2015	07:03:23.560	$GPGGA,070324,2418.3897,N,08141.6512,W,1,10,1.5,18,M,,M,,*68
06/11/2015	07:03:24.550	$GPGGA,070325,2418.3893,N,08141.6526,W,1,10,1.5,18,M,,M,,*6A
06/11/2015	07:03:25.569	$GPGGA,070326,2418.3890,N,08141.6539,W,1,10,1.5,18,M,,M,,*64
06/11/2015	07:03:26.542	$GPGGA,070327,2418.3887,N,08141.6553,W,1,10,1.5,18,M,,M,,*6F
06/11/2015	07:03:27.579	$GPGGA,070328,2418.3885,N,08141.6568,W,1,10,1.5,18,M,,M,,*6A
06/11/2015	07:03:28.553	$GPGGA,070329,2418.3882,N,08141.6582,W,1,10,1.8,17,M,,M,,*6A
06/11/2015	07:03:29.540	$GPGGA,070330,2418.3877,N,08141.6597,W,1,10,1.5,17,M,,M,,*61
06/11/2015	07:03:30.779	$GPGGA,070331,2418.3875,N,08141.6611,W,1,10,1.5,17,M,,M,,*6F
06/11/2015	07:03:31.579	$GPGGA,070332,2418.3871,N,08141.6626,W,1,10,1.5,17,M,,M,,*6C
06/11/2015	07:03:32.519	$GPGGA,070333,2418.3868,N,08141.6640,W,1,10,1.5,17,M,,M,,*65
06/11/2015	07:03:33.559	$GPGGA,070334,2418.3866,N,08141.6654,W,1,10,1.5,17,M,,M,,*69
06/11/2015	07:03:34.529	$GPGGA,070335,2418.3864,N,08141.6666,W,1,10,1.5,17,M,,M,,*6B
06/11/2015	07:03:35.529	$GPGGA,070336,2418.3860,N,08141.6683,W,1,9,1.8,17,M,,M,,*52
06/11/2015	07:03:36.629	$GPGGA,070337,2418.3857,N,08141.6698,W,1,9,1.5,17,M,,M,,*50
06/11/2015	07:03:37.629	$GPGGA,070338,2418.3853,N,08141.6713,W,1,10,1.5,17,M,,M,,*61
06/11/2015	07:03:38.520	$GPGGA,070339,2418.3850,N,08141.6728,W,1,10,1.5,17,M,,M,,*6B
06/11/2015	07:03:39.552	$GPGGA,070340,2418.3847,N,08141.6741,W,1,10,1.5,17,M,,M,,*6C
06/11/2015	07:03:40.520	$GPGGA,070341,2418.3844,N,08141.6757,W,1,10,1.8,17,M,,M,,*64
06/11/2015	07:03:41.619	$GPGGA,070342,2418.3842,N,08141.6771,W,1,10,1.5,17,M,,M,,*68
06/11/2015	07:03:42.529	$GPGGA,070343,2418.3839,N,08141.6785,W,1,10,1.5,17,M,,M,,*6E
06/11/2015	07:03:43.609	$GPGGA,070344,2418.3835,N,08141.6801,W,1,10,1.5,17,M,,M,,*66
06/11/2015	07:03:44.519	$GPGGA,070345,2418.3831,N,08141.6817,W,1,10,1.5,17,M,,M,,*64
06/11/2015	07:03:45.499	$GPGGA,070346,2418.3828,N,08141.6832,W,1,10,1.5,17,M,,M,,*68
06/11/2015	07:03:46.619	$GPGGA,070347,2418.3824,N,08141.6846,W,1,10,1.5,18,M,,M,,*69
06/11/2015	07:03:47.519	$GPGGA,070348,2418.3820,N,08141.6861,W,1,10,1.5,18,M,,M,,*67
06/11/2015	07:03:48.509	$GPGGA,070349,2418.3818,N,08141.6873,W,1,10,1.5,18,M,,M,,*6E
06/11/2015	07:03:49.629	$GPGGA,070350,2418.3814,N,08141.6886,W,1,9,1.8,18,M,,M,,*55
06/11/2015	07:03:50.589	$GPGGA,070351,2418.3810,N,08141.6900,W,1,9,1.5,18,M,,M,,*52
06/11/2015	07:03:51.629	$GPGGA,070352,2418.3806,N,08141.6915,W,1,10,1.5,18,M,,M,,*6A
06/11/2015	07:03:52.589	$GPGGA,070353,2418.3802,N,08141.6931,W,1,10,1.5,18,M,,M,,*69
06/11/2015	07:03:53.599	$GPGGA,070354,2418.3800,N,08141.6947,W,1,10,1.5,18,M,,M,,*6D
06/11/2015	07:03:54.479	$GPGGA,070355,2418.3795,N,08141.6962,W,1,10,1.5,18,M,,M,,*68
06/11/2015	07:03:55.980	$GPGGA,070356,2418.3793,N,08141.6973,W,1,9,1.6,18,M,,M,,*56
06/11/2015	07:03:56.570	$GPGGA,070357,2418.3792,N,08141.6987,W,1,9,1.8,18,M,,M,,*53
06/11/2015	07:03:57.480	$GPGGA,070358,2418.3788,N,08141.6999,W,1,10,1.5,18,M,,M,,*6D
06/11/2015	07:03:58.579	$GPGGA,070359,2418.3783,N,08141.7013,W,1,10,1.5,18,M,,M,,*6D
06/11/2015	07:03:59.629	$GPGGA,070400,2418.3781,N,08141.7027,W,1,10,1.5,18,M,,M,,*63
06/11/2015	07:04:00.569	$GPGGA,070401,2418.3777,N,08141.7043,W,1,10,1.5,18,M,,M,,*69
06/11/2015	07:04:01.589	$GPGGA,070402,2418.3774,N,08141.7059,W,1,10,1.5,18,M,,M,,*62
06/11/2015	07:04:02.559	$GPGGA,070403,2418.3770,N,08141.7072,W,1,10,1.5,18,M,,M,,*6E
06/11/2015	07:04:03.589	$GPGGA,070404,2418.3766,N,08141.7085,W,1,10,1.5,18,M,,M,,*66
06/11/2015	07:04:04.559	$GPGGA,070405,2418.3763,N,08141.7099,W,1,10,1.5,19,M,,M,,*6E
06/11/2015	07:04:05.589	$GPGGA,070406,2418.3759,N,08141.7113,W,1,10,1.5,19,M,,M,,*67
06/11/2015	07:04:06.559	$GPGGA,070407,2418.3754,N,08141.7126,W,1,10,1.5,19,M,,M,,*6D
06/11/2015	07:04:07.589	$GPGGA,070408,2418.3750,N,08141.7142,W,1,10,1.5,19,M,,M,,*64
06/11/2015	07:04:08.559	$GPGGA,070409,2418.3746,N,08141.7155,W,1,10,1.5,19,M,,M,,*64
06/11/2015	07:04:09.549	$GPGGA,070410,2418.3741,N,08141.7169,W,1,10,1.5,19,M,,M,,*64
06/11/2015	07:04:10.552	$GPGGA,070411,2418.3737,N,08141.7183,W,1,10,1.5,19,M,,M,,*60
06/11/2015	07:04:11.589	$GPGGA,070412,2418.3734,N,08141.7197,W,1,10,1.5,19,M,,M,,*65
06/11/2015	07:04:12.557	$GPGGA,070413,2418.3730,N,08141.7211,W,1,10,1.5,19,M,,M,,*6D
06/11/2015	07:04:13.542	$GPGGA,070414,2418.3724,N,08141.7225,W,1,10,1.5,19,M,,M,,*68
06/11/2015	07:04:14.553	$GPGGA,070415,2418.3720,N,08141.7237,W,1,10,1.5,19,M,,M,,*6E
06/11/2015	07:04:15.570	$GPGGA,070416,2418.3716,N,08141.7252,W,1,10,1.5,19,M,,M,,*6B
06/11/2015	07:04:16.549	$GPGGA,070417,2418.3712,N,08141.7266,W,1,10,1.5,19,M,,M,,*69
06/11/2015	07:04:17.542	$GPGGA,070418,2418.3708,N,08141.7280,W,1,10,1.5,19,M,,M,,*65
06/11/2015	07:04:18.559	$GPGGA,070419,2418.3705,N,08141.7294,W,1,10,1.5,19,M,,M,,*6C
06/11/2015	07:04:19.579	$GPGGA,070420,2418.3700,N,08141.7308,W,1,10,1.5,19,M,,M,,*67
06/11/2015	07:04:20.519	$GPGGA,070421,2418.3695,N,08141.7320,W,1,10,1.5,19,M,,M,,*61
06/11/2015	07:04:21.559	$GPGGA,070422,2418.3691,N,08141.7334,W,1,10,1.5,19,M,,M,,*63
06/11/2015	07:04:22.542	$GPGGA,070423,2418.3687,N,08141.7348,W,1,10,1.5,19,M,,M,,*6E
06/11/2015	07:04:23.859	$GPGGA,070424,2418.3684,N,08141.7361,W,1,10,1.5,19,M,,M,,*61
06/11/2015	07:04:24.529	$GPGGA,070425,2418.3680,N,08141.7375,W,1,10,1.5,19,M,,M,,*61
06/11/2015	07:04:25.509	$GPGGA,070426,2418.3676,N,08141.7391,W,1,10,1.5,19,M,,M,,*61
06/11/2015	07:04:26.529	$GPGGA,070427,2418.3671,N,08141.7403,W,1,10,1.5,19,M,,M,,*6B
06/11/2015	07:04:27.519	$GPGGA,070428,2418.3666,N,08141.7418,W,1,10,1.5,19,M,,M,,*68
06/11/2015	07:04:28.519	$GPGGA,070429,2418.3663,N,08141.7431,W,1,10,1.5,19,M,,M,,*67
06/11/2015	07:04:29.529	$GPGGA,070430,2418.3659,N,08141.7444,W,1,10,1.5,19,M,,M,,*64
06/11/2015	07:04:30.510	$GPGGA,070431,2418.3654,N,08141.7458,W,1,10,1.5,19,M,,M,,*65
06/11/2015	07:04:31.643	$GPGGA,070432,2418.3651,N,08141.7473,W,1,10,1.5,19,M,,M,,*6A
06/11/2015	07:04:32.520	$GPGGA,070433,2418.3648,N,08141.7487,W,1,10,1.5,19,M,,M,,*68
06/11/2015	07:04:33.609	$GPGGA,070434,2418.3643,N,08141.7503,W,1,10,1.5,19,M,,M,,*69
06/11/2015	07:04:34.499	$GPGGA,070435,2418.3640,N,08141.7516,W,1,10,1.5,19,M,,M,,*6F
06/11/2015	07:04:35.509	$GPGGA,070436,2418.3636,N,08141.7529,W,1,10,1.5,19,M,,M,,*61
06/11/2015	07:04:36.499	$GPGGA,070437,2418.3633,N,08141.7543,W,1,10,1.5,19,M,,M,,*69
06/11/2015	07:04:37.499	$GPGGA,070438,2418.3629,N,08141.7554,W,1,9,1.8,19,M,,M,,*5E
06/11/2015	07:04:38.609	$GPGGA,070439,2418.3625,N,08141.7569,W,1,9,1.8,19,M,,M,,*5D
06/11/2015	07:04:39.499	$GPGGA,070440,2418.3622,N,08141.7584,W,1,10,1.5,19,M,,M,,*62
06/11/2015	07:04:40.499	$GPGGA,070441,2418.3617,N,08141.7598,W,1,10,1.5,19,M,,M,,*68
06/11/2015	07:04:41.589	$GPGGA,070442,2418.3613,N,08141.7612,W,1,10,1.5,19,M,,M,,*6E
06/11/2015	07:04:42.589	$GPGGA,070443,2418.3611,N,08141.7626,W,1,10,1.5,19,M,,M,,*6A
06/11/2015	07:04:43.609	$GPGGA,070444,2418.3606,N,08141.7638,W,1,10,1.5,19,M,,M,,*64
06/11/2015	07:04:44.569	$GPGGA,070445,2418.3604,N,08141.7652,W,1,10,1.5,19,M,,M,,*6B
06/11/2015	07:04:45.569	$GPGGA,070446,2418.3600,N,08141.7666,W,1,10,1.5,18,M,,M,,*6A
06/11/2015	07:04:46.579	$GPGGA,070447,2418.3596,N,08141.7681,W,1,10,1.5,18,M,,M,,*6E
06/11/2015	07:04:47.599	$GPGGA,070448,2418.3593,N,08141.7695,W,1,10,1.5,18,M,,M,,*61
06/11/2015	07:04:48.580	$GPGGA,070449,2418.3589,N,08141.7710,W,1,10,1.5,18,M,,M,,*67
06/11/2015	07:04:49.580	$GPGGA,070450,2418.3586,N,08141.7725,W,1,10,1.5,18,M,,M,,*66
06/11/2015	07:04:50.570	$GPGGA,070451,2418.3582,N,08141.7738,W,1,10,1.5,18,M,,M,,*6F
06/11/2015	07:04:51.609	$GPGGA,070452,2418.3579,N,08141.7751,W,1,10,1.5,18,M,,M,,*67
06/11/2015	07:04:52.569	$GPGGA,070453,2418.3576,N,08141.7765,W,1,10,1.5,18,M,,M,,*6E
06/11/2015	07:04:53.579	$GPGGA,070454,2418.3573,N,08141.7779,W,1,10,1.5,18,M,,M,,*61
06/11/2015	07:04:54.559	$GPGGA,070455,2418.3570,N,08141.7794,W,1,10,1.5,18,M,,M,,*60
06/11/2015	07:04:55.589	$GPGGA,070456,2418.3568,N,08141.7809,W,1,10,1.5,18,M,,M,,*61
06/11/2015	07:04:56.552	$GPGGA,070457,2418.3564,N,08141.7825,W,1,10,1.5,18,M,,M,,*62
06/11/2015	07:04:57.545	$GPGGA,070458,2418.3560,N,08141.7839,W,1,10,1.5,18,M,,M,,*64
06/11/2015	07:04:58.540	$GPGGA,070459,2418.3558,N,08141.7852,W,1,10,1.5,18,M,,M,,*63
06/11/2015	07:04:59.610	$GPGGA,070500,2418.3557,N,08141.7866,W,1,10,1.5,18,M,,M,,*66
06/11/2015	07:05:00.529	$GPGGA,070501,2418.3553,N,08141.7879,W,1,10,1.5,18,M,,M,,*6D
06/11/2015	07:05:01.529	$GPGGA,070502,2418.3548,N,08141.7894,W,1,10,1.5,18,M,,M,,*67
06/11/2015	07:05:02.531	$GPGGA,070503,2418.3546,N,08141.7908,W,1,10,1.5,18,M,,M,,*6C
06/11/2015	07:05:03.549	$GPGGA,070504,2418.3543,N,08141.7923,W,1,10,1.5,18,M,,M,,*67
06/11/2015	07:05:04.531	$GPGGA,070505,2418.3539,N,08141.7937,W,1,10,1.5,18,M,,M,,*6E
06/11/2015	07:05:05.549	$GPGGA,070506,2418.3536,N,08141.7949,W,1,10,1.5,18,M,,M,,*6B
06/11/2015	07:05:06.529	$GPGGA,070507,2418.3533,N,08141.7964,W,1,10,1.7,18,M,,M,,*62
06/11/2015	07:05:07.559	$GPGGA,070508,2418.3530,N,08141.7980,W,1,10,1.5,18,M,,M,,*66
06/11/2015	07:05:08.518	$GPGGA,070509,2418.3528,N,08141.7993,W,1,10,1.5,18,M,,M,,*6C
06/11/2015	07:05:09.518	$GPGGA,070510,2418.3525,N,08141.8009,W,1,10,1.5,18,M,,M,,*6C
06/11/2015	07:05:10.508	$GPGGA,070511,2418.3521,N,08141.8024,W,1,10,1.5,18,M,,M,,*66
06/11/2015	07:05:11.538	$GPGGA,070512,2418.3517,N,08141.8038,W,1,10,1.5,18,M,,M,,*6D
06/11/2015	07:05:12.508	$GPGGA,070513,2418.3514,N,08141.8053,W,1,10,1.5,18,M,,M,,*62
06/11/2015	07:05:13.618	$GPGGA,070514,2418.3511,N,08141.8067,W,1,10,1.5,18,M,,M,,*67
06/11/2015	07:05:14.508	$GPGGA,070515,2418.3508,N,08141.8082,W,1,10,1.5,18,M,,M,,*65
06/11/2015	07:05:15.539	$GPGGA,070516,2418.3504,N,08141.8094,W,1,10,1.5,18,M,,M,,*6D
06/11/2015	07:05:16.519	$GPGGA,070517,2418.3501,N,08141.8108,W,1,10,1.5,18,M,,M,,*6D
06/11/2015	07:05:17.519	$GPGGA,070518,2418.3499,N,08141.8122,W,1,10,1.5,18,M,,M,,*6A
06/11/2015	07:05:18.499	$GPGGA,070519,2418.3494,N,08141.8136,W,1,10,1.5,19,M,,M,,*62
06/11/2015	07:05:19.499	$GPGGA,070520,2418.3490,N,08141.8150,W,1,10,1.5,19,M,,M,,*6C
06/11/2015	07:05:20.499	$GPGGA,070521,2418.3486,N,08141.8165,W,1,10,1.5,19,M,,M,,*6C
06/11/2015	07:05:21.509	$GPGGA,070522,2418.3483,N,08141.8177,W,1,10,1.5,19,M,,M,,*69
06/11/2015	07:05:22.579	$GPGGA,070523,2418.3479,N,08141.8191,W,1,10,1.5,19,M,,M,,*65
06/11/2015	07:05:23.639	$GPGGA,070524,2418.3475,N,08141.8205,W,1,9,1.6,19,M,,M,,*5B
06/11/2015	07:05:24.599	$GPGGA,070525,2418.3472,N,08141.8219,W,1,9,1.5,19,M,,M,,*53
06/11/2015	07:05:25.479	$GPGGA,070526,2418.3468,N,08141.8233,W,1,10,1.5,19,M,,M,,*6B
06/11/2015	07:05:26.498	$GPGGA,070527,2418.3465,N,08141.8246,W,1,10,1.5,19,M,,M,,*65
06/11/2015	07:05:27.508	$GPGGA,070528,2418.3460,N,08141.8260,W,1,10,1.5,19,M,,M,,*6B
06/11/2015	07:05:28.468	$GPGGA,070529,2418.3457,N,08141.8274,W,1,10,1.6,19,M,,M,,*68
06/11/2015	07:05:29.618	$GPGGA,070530,2418.3454,N,08141.8288,W,1,10,1.5,19,M,,M,,*63
06/11/2015	07:05:30.578	$GPGGA,070531,2418.3450,N,08141.8302,W,1,10,1.5,19,M,,M,,*65
06/11/2015	07:05:31.488	$GPGGA,070532,2418.3446,N,08141.8316,W,1,10,1.5,19,M,,M,,*64
06/11/2015	07:05:32.558	$GPGGA,070533,2418.3443,N,08141.8328,W,1,10,1.5,19,M,,M,,*6D
06/11/2015	07:05:34.042	$GPGGA,070534,2418.3439,N,08141.8342,W,1,10,1.5,19,M,,M,,*6B
06/11/2015	07:05:34.569	$GPGGA,070535,2418.3436,N,08141.8356,W,1,10,1.5,19,M,,M,,*60
06/11/2015	07:05:35.589	$GPGGA,070536,2418.3431,N,08141.8370,W,1,10,1.5,19,M,,M,,*60
06/11/2015	07:05:36.559	$GPGGA,070537,2418.3427,N,08141.8382,W,1,10,1.6,19,M,,M,,*68
06/11/2015	07:05:37.569	$GPGGA,070538,2418.3424,N,08141.8396,W,1,10,1.5,19,M,,M,,*62
06/11/2015	07:05:38.559	$GPGGA,070539,2418.3421,N,08141.8408,W,1,10,1.5,19,M,,M,,*66
06/11/2015	07:05:39.609	$GPGGA,070540,2418.3417,N,08141.8421,W,1,10,1.5,19,M,,M,,*66
06/11/2015	07:05:40.543	$GPGGA,070541,2418.3412,N,08141.8436,W,1,10,1.5,19,M,,M,,*64
06/11/2015	07:05:41.552	$GPGGA,070542,2418.3409,N,08141.8450,W,1,9,1.6,19,M,,M,,*56
06/11/2015	07:05:42.549	$GPGGA,070543,2418.3405,N,08141.8464,W,1,9,1.5,19,M,,M,,*5F
06/11/2015	07:05:43.568	$GPGGA,070544,2418.3400,N,08141.8476,W,1,10,1.5,19,M,,M,,*66
06/11/2015	07:05:44.548	$GPGGA,070545,2418.3396,N,08141.8490,W,1,10,1.5,19,M,,M,,*67
06/11/2015	07:05:45.568	$GPGGA,070546,2418.3392,N,08141.8504,W,1,10,1.5,19,M,,M,,*6C
06/11/2015	07:05:46.548	$GPGGA,070547,2418.3388,N,08141.8516,W,1,10,1.5,19,M,,M,,*65
06/11/2015	07:05:47.578	$GPGGA,070548,2418.3384,N,08141.8530,W,1,9,1.6,19,M,,M,,*59
06/11/2015	07:05:48.545	$GPGGA,070549,2418.3382,N,08141.8541,W,1,9,1.5,19,M,,M,,*5B
06/11/2015	07:05:49.548	$GPGGA,070550,2418.3380,N,08141.8555,W,1,10,1.5,19,M,,M,,*6C
06/11/2015	07:05:50.534	$GPGGA,070551,2418.3376,N,08141.8569,W,1,10,1.5,19,M,,M,,*6B
06/11/2015	07:05:51.569	$GPGGA,070552,2418.3370,N,08141.8580,W,1,10,1.5,19,M,,M,,*69
06/11/2015	07:05:52.533	$GPGGA,070553,2418.3367,N,08141.8594,W,1,10,1.5,19,M,,M,,*6B
06/11/2015	07:05:53.519	$GPGGA,070554,2418.3364,N,08141.8606,W,1,10,1.5,19,M,,M,,*67
06/11/2015	07:05:54.530	$GPGGA,070555,2418.3359,N,08141.8618,W,1,10,1.5,19,M,,M,,*67
06/11/2015	07:05:55.529	$GPGGA,070556,2418.3355,N,08141.8632,W,1,10,1.5,19,M,,M,,*60
06/11/2015	07:05:56.509	$GPGGA,070557,2418.3351,N,08141.8646,W,1,10,1.5,19,M,,M,,*66
06/11/2015	07:05:57.519	$GPGGA,070558,2418.3346,N,08141.8661,W,1,10,1.5,19,M,,M,,*6A
06/11/2015	07:05:58.530	$GPGGA,070559,2418.3342,N,08141.8675,W,1,10,1.5,19,M,,M,,*6A
06/11/2015	07:05:59.569	$GPGGA,070600,2418.3338,N,08141.8689,W,1,10,1.5,19,M,,M,,*6B
06/11/2015	07:06:01.670	$GPGGA,070602,2418.3331,N,08141.8715,W,1,9,1.5,19,M,,M,,*5C
06/11/2015	07:06:02.498	$GPGGA,070603,2418.3329,N,08141.8728,W,1,9,1.5,19,M,,M,,*5A
06/11/2015	07:06:03.538	$GPGGA,070604,2418.3326,N,08141.8740,W,1,10,1.5,19,M,,M,,*64
06/11/2015	07:06:04.518	$GPGGA,070605,2418.3323,N,08141.8754,W,1,10,1.5,19,M,,M,,*65
06/11/2015	07:06:05.508	$GPGGA,070606,2418.3320,N,08141.8769,W,1,10,1.5,19,M,,M,,*6B
06/11/2015	07:06:06.488	$GPGGA,070607,2418.3316,N,08141.8783,W,1,10,1.5,19,M,,M,,*6B
06/11/2015	07:06:07.518	$GPGGA,070608,2418.3313,N,08141.8797,W,1,10,1.5,19,M,,M,,*64
06/11/2015	07:06:08.489	$GPGGA,070609,2418.3309,N,08141.8809,W,1,10,1.5,19,M,,M,,*66
06/11/2015	07:06:09.489	$GPGGA,070610,2418.3305,N,08141.8822,W,1,10,1.5,20,M,,M,,*61
06/11/2015	07:06:10.619	$GPGGA,070611,2418.3302,N,08141.8835,W,1,10,1.5,20,M,,M,,*61
06/11/2015	07:06:11.543	$GPGGA,070612,2418.3298,N,08141.8851,W,1,10,1.5,20,M,,M,,*62
06/11/2015	07:06:12.499	$GPGGA,070613,2418.3294,N,08141.8865,W,1,10,1.6,20,M,,M,,*6B
06/11/2015	07:06:13.619	$GPGGA,070614,2418.3291,N,08141.8878,W,1,10,1.5,20,M,,M,,*66
06/11/2015	07:06:14.589	$GPGGA,070615,2418.3288,N,08141.8892,W,1,10,1.5,20,M,,M,,*6B
06/11/2015	07:06:15.649	$GPGGA,070616,2418.3286,N,08141.8905,W,1,10,1.5,20,M,,M,,*69
06/11/2015	07:06:16.569	$GPGGA,070617,2418.3282,N,08141.8920,W,1,10,1.5,20,M,,M,,*6B
06/11/2015	07:06:17.609	$GPGGA,070618,2418.3279,N,08141.8932,W,1,10,1.5,20,M,,M,,*63
06/11/2015	07:06:18.568	$GPGGA,070619,2418.3276,N,08141.8947,W,1,10,1.5,20,M,,M,,*6F
06/11/2015	07:06:19.608	$GPGGA,070620,2418.3273,N,08141.8961,W,1,10,1.5,20,M,,M,,*64
06/11/2015	07:06:20.578	$GPGGA,070621,2418.3269,N,08141.8975,W,1,10,1.5,20,M,,M,,*6B
06/11/2015	07:06:22.598	$GPGGA,070623,2418.3264,N,08141.9004,W,1,10,1.5,20,M,,M,,*6A
06/11/2015	07:06:23.598	$GPGGA,070624,2418.3260,N,08141.9017,W,1,10,1.5,20,M,,M,,*6B
06/11/2015	07:06:24.568	$GPGGA,070625,2418.3257,N,08141.9032,W,1,10,1.5,20,M,,M,,*69
06/11/2015	07:06:25.579	$GPGGA,070626,2418.3254,N,08141.9046,W,1,10,1.5,20,M,,M,,*6A
06/11/2015	07:06:26.559	$GPGGA,070627,2418.3250,N,08141.9059,W,1,10,1.5,20,M,,M,,*61
06/11/2015	07:06:27.589	$GPGGA,070628,2418.3247,N,08141.9073,W,1,10,1.5,20,M,,M,,*60
06/11/2015	07:06:28.559	$GPGGA,070629,2418.3244,N,08141.9087,W,1,10,1.5,19,M,,M,,*63
06/11/2015	07:06:29.541	$GPGGA,070630,2418.3241,N,08141.9102,W,1,10,1.5,19,M,,M,,*62
06/11/2015	07:06:30.549	$GPGGA,070631,2418.3239,N,08141.9116,W,1,10,1.5,19,M,,M,,*69
06/11/2015	07:06:31.589	$GPGGA,070632,2418.3234,N,08141.9129,W,1,10,1.5,19,M,,M,,*6B
06/11/2015	07:06:32.559	$GPGGA,070633,2418.3232,N,08141.9142,W,1,10,1.5,19,M,,M,,*61
06/11/2015	07:06:33.569	$GPGGA,070634,2418.3229,N,08141.9155,W,1,10,1.5,19,M,,M,,*6A
06/11/2015	07:06:34.549	$GPGGA,070635,2418.3225,N,08141.9169,W,1,10,1.5,19,M,,M,,*68
06/11/2015	07:06:35.569	$GPGGA,070636,2418.3222,N,08141.9184,W,1,10,1.5,19,M,,M,,*6F
06/11/2015	07:06:36.542	$GPGGA,070637,2418.3219,N,08141.9198,W,1,10,1.5,19,M,,M,,*6B
06/11/2015	07:06:37.531	$GPGGA,070638,2418.3217,N,08141.9212,W,1,10,1.5,19,M,,M,,*6B
06/11/2015	07:06:38.534	$GPGGA,070639,2418.3214,N,08141.9227,W,1,10,1.5,19,M,,M,,*6F
06/11/2015	07:06:39.539	$GPGGA,070640,2418.3210,N,08141.9239,W,1,10,1.5,19,M,,M,,*6A
06/11/2015	07:06:40.528	$GPGGA,070641,2418.3206,N,08141.9252,W,1,10,1.5,19,M,,M,,*61
06/11/2015	07:06:41.518	$GPGGA,070642,2418.3203,N,08141.9267,W,1,10,1.5,19,M,,M,,*61
06/11/2015	07:06:42.541	$GPGGA,070643,2418.3199,N,08141.9279,W,1,10,1.5,19,M,,M,,*6F
06/11/2015	07:06:43.539	$GPGGA,070644,2418.3195,N,08141.9295,W,1,10,1.5,19,M,,M,,*66
06/11/2015	07:06:44.520	$GPGGA,070645,2418.3192,N,08141.9310,W,1,10,1.5,19,M,,M,,*6C
06/11/2015	07:06:45.559	$GPGGA,070646,2418.3190,N,08141.9324,W,1,10,1.5,19,M,,M,,*6A
06/11/2015	07:06:46.519	$GPGGA,070647,2418.3187,N,08141.9336,W,1,10,1.5,19,M,,M,,*6E
06/11/2015	07:06:47.600	$GPGGA,070648,2418.3182,N,08141.9348,W,1,10,1.7,19,M,,M,,*6F
06/11/2015	07:06:48.529	$GPGGA,070649,2418.3181,N,08141.9362,W,1,10,1.5,19,M,,M,,*67
06/11/2015	07:06:49.619	$GPGGA,070650,2418.3177,N,08141.9378,W,1,10,1.5,19,M,,M,,*6D
06/11/2015	07:06:50.599	$GPGGA,070651,2418.3172,N,08141.9393,W,1,10,1.5,19,M,,M,,*6C
06/11/2015	07:06:51.549	$GPGGA,070652,2418.3169,N,08141.9408,W,1,10,1.5,19,M,,M,,*60
06/11/2015	07:06:52.519	$GPGGA,070653,2418.3167,N,08141.9422,W,1,10,1.5,19,M,,M,,*67
06/11/2015	07:06:53.531	$GPGGA,070654,2418.3163,N,08141.9436,W,1,10,1.5,19,M,,M,,*61
06/11/2015	07:06:54.498	$GPGGA,070655,2418.3158,N,08141.9447,W,1,10,1.5,19,M,,M,,*6E
06/11/2015	07:06:55.558	$GPGGA,070656,2418.3156,N,08141.9462,W,1,10,1.5,19,M,,M,,*64
06/11/2015	07:06:56.588	$GPGGA,070657,2418.3152,N,08141.9474,W,1,10,1.5,19,M,,M,,*66
06/11/2015	07:06:57.588	$GPGGA,070658,2418.3148,N,08141.9487,W,1,10,1.5,19,M,,M,,*6E
06/11/2015	07:06:58.588	$GPGGA,070659,2418.3145,N,08141.9502,W,1,10,1.5,19,M,,M,,*6E
06/11/2015	07:06:59.989	$GPGGA,070700,2418.3141,N,08141.9516,W,1,10,1.5,19,M,,M,,*62
06/11/2015	07:07:00.579	$GPGGA,070701,2418.3138,N,08141.9530,W,1,10,1.5,19,M,,M,,*69
06/11/2015	07:07:01.489	$GPGGA,070702,2418.3134,N,08141.9542,W,1,10,1.5,19,M,,M,,*63
06/11/2015	07:07:02.579	$GPGGA,070703,2418.3131,N,08141.9556,W,1,10,1.5,19,M,,M,,*62
06/11/2015	07:07:03.589	$GPGGA,070704,2418.3127,N,08141.9568,W,1,10,1.5,19,M,,M,,*6F
06/11/2015	07:07:04.579	$GPGGA,070705,2418.3124,N,08141.9581,W,1,10,1.5,19,M,,M,,*6A
06/11/2015	07:07:05.489	$GPGGA,070706,2418.3120,N,08141.9596,W,1,10,1.6,19,M,,M,,*68
06/11/2015	07:07:06.489	$GPGGA,070707,2418.3116,N,08141.9610,W,1,10,1.5,19,M,,M,,*62
06/11/2015	07:07:07.619	$GPGGA,070708,2418.3112,N,08141.9624,W,1,10,1.5,19,M,,M,,*6E
06/11/2015	07:07:08.569	$GPGGA,070709,2418.3109,N,08141.9637,W,1,10,1.5,19,M,,M,,*67
06/11/2015	07:07:09.569	$GPGGA,070710,2418.3105,N,08141.9650,W,1,10,1.5,19,M,,M,,*62
06/11/2015	07:07:10.569	$GPGGA,070711,2418.3102,N,08141.9664,W,1,10,1.5,19,M,,M,,*63
06/11/2015	07:07:11.578	$GPGGA,070712,2418.3098,N,08141.9676,W,1,10,1.5,19,M,,M,,*61
06/11/2015	07:07:12.568	$GPGGA,070713,2418.3094,N,08141.9690,W,1,10,1.5,19,M,,M,,*64
06/11/2015	07:07:13.578	$GPGGA,070714,2418.3091,N,08141.9704,W,1,10,1.5,19,M,,M,,*6A
06/11/2015	07:07:14.558	$GPGGA,070715,2418.3087,N,08141.9718,W,1,10,1.5,19,M,,M,,*61
06/11/2015	07:07:15.608	$GPGGA,070716,2418.3083,N,08141.9732,W,1,10,1.5,19,M,,M,,*6E
06/11/2015	07:07:16.558	$GPGGA,070717,2418.3080,N,08141.9744,W,1,10,1.5,19,M,,M,,*6D
06/11/2015	07:07:17.538	$GPGGA,070718,2418.3076,N,08141.9758,W,1,10,1.5,19,M,,M,,*66
06/11/2015	07:07:18.559	$GPGGA,070719,2418.3073,N,08141.9772,W,1,10,1.5,19,M,,M,,*6A
06/11/2015	07:07:19.579	$GPGGA,070720,2418.3069,N,08141.9785,W,1,10,1.5,19,M,,M,,*63
06/11/2015	07:07:20.540	$GPGGA,070721,2418.3065,N,08141.9799,W,1,10,1.5,19,M,,M,,*63
06/11/2015	07:07:21.569	$GPGGA,070722,2418.3062,N,08141.9813,W,1,10,1.5,19,M,,M,,*6A
06/11/2015	07:07:22.543	$GPGGA,070723,2418.3060,N,08141.9827,W,1,10,1.5,19,M,,M,,*6E
06/11/2015	07:07:23.579	$GPGGA,070724,2418.3056,N,08141.9841,W,1,10,1.5,19,M,,M,,*6C
06/11/2015	07:07:24.543	$GPGGA,070725,2418.3053,N,08141.9853,W,1,10,1.5,19,M,,M,,*6B
06/11/2015	07:07:25.559	$GPGGA,070726,2418.3049,N,08141.9867,W,1,10,1.5,19,M,,M,,*64
06/11/2015	07:07:26.535	$GPGGA,070727,2418.3046,N,08141.9879,W,1,10,1.5,19,M,,M,,*65
06/11/2015	07:07:27.546	$GPGGA,070728,2418.3044,N,08141.9895,W,1,10,1.5,19,M,,M,,*6A
06/11/2015	07:07:28.535	$GPGGA,070729,2418.3040,N,08141.9908,W,1,10,1.5,19,M,,M,,*6A
06/11/2015	07:07:29.544	$GPGGA,070730,2418.3036,N,08141.9922,W,1,10,1.5,19,M,,M,,*6B
06/11/2015	07:07:30.519	$GPGGA,070731,2418.3033,N,08141.9936,W,1,10,1.5,19,M,,M,,*6A
06/11/2015	07:07:31.532	$GPGGA,070732,2418.3029,N,08141.9949,W,1,10,1.5,19,M,,M,,*6A
06/11/2015	07:07:32.608	$GPGGA,070733,2418.3026,N,08141.9962,W,1,10,1.5,19,M,,M,,*6D
06/11/2015	07:07:33.508	$GPGGA,070734,2418.3022,N,08141.9975,W,1,10,1.5,19,M,,M,,*68
06/11/2015	07:07:34.539	$GPGGA,070735,2418.3019,N,08141.9990,W,1,10,1.5,19,M,,M,,*6A
06/11/2015	07:07:35.549	$GPGGA,070736,2418.3015,N,08142.0005,W,1,10,1.5,19,M,,M,,*6A
06/11/2015	07:07:36.499	$GPGGA,070737,2418.3012,N,08142.0019,W,1,10,1.5,19,M,,M,,*61
06/11/2015	07:07:37.648	$GPGGA,070738,2418.3009,N,08142.0033,W,1,10,1.5,19,M,,M,,*6C
06/11/2015	07:07:38.633	$GPGGA,070739,2418.3006,N,08142.0045,W,1,10,1.5,19,M,,M,,*63
06/11/2015	07:07:39.630	$GPGGA,070740,2418.3004,N,08142.0058,W,1,10,1.5,19,M,,M,,*63
06/11/2015	07:07:40.509	$GPGGA,070741,2418.2998,N,08142.0072,W,1,10,1.5,19,M,,M,,*67
06/11/2015	07:07:41.619	$GPGGA,070742,2418.2995,N,08142.0085,W,1,9,1.6,19,M,,M,,*5A
06/11/2015	07:07:42.599	$GPGGA,070743,2418.2992,N,08142.0101,W,1,9,1.5,19,M,,M,,*52
06/11/2015	07:07:43.643	$GPGGA,070744,2418.2990,N,08142.0115,W,1,10,1.5,19,M,,M,,*6A
06/11/2015	07:07:44.509	$GPGGA,070745,2418.2986,N,08142.0128,W,1,10,1.5,19,M,,M,,*62
06/11/2015	07:07:45.499	$GPGGA,070746,2418.2983,N,08142.0141,W,1,10,1.5,19,M,,M,,*6B
06/11/2015	07:07:46.488	$GPGGA,070747,2418.2980,N,08142.0155,W,1,10,1.5,19,M,,M,,*6C
06/11/2015	07:07:47.608	$GPGGA,070748,2418.2975,N,08142.0167,W,1,10,1.5,19,M,,M,,*68
06/11/2015	07:07:48.488	$GPGGA,070749,2418.2973,N,08142.0182,W,1,10,1.6,19,M,,M,,*67
06/11/2015	07:07:49.578	$GPGGA,070750,2418.2969,N,08142.0196,W,1,10,1.5,19,M,,M,,*62
06/11/2015	07:07:50.647	$GPGGA,070751,2418.2965,N,08142.0211,W,1,10,1.5,19,M,,M,,*63
06/11/2015	07:07:51.498	$GPGGA,070752,2418.2961,N,08142.0225,W,1,10,1.5,19,M,,M,,*63
06/11/2015	07:07:52.568	$GPGGA,070753,2418.2958,N,08142.0238,W,1,10,1.5,19,M,,M,,*64
06/11/2015	07:07:53.599	$GPGGA,070754,2418.2957,N,08142.0250,W,1,10,1.5,19,M,,M,,*62
06/11/2015	07:07:54.579	$GPGGA,070755,2418.2952,N,08142.0264,W,1,10,1.5,19,M,,M,,*61
06/11/2015	07:07:55.599	$GPGGA,070756,2418.2948,N,08142.0278,W,1,9,1.6,19,M,,M,,*5F
06/11/2015	07:07:56.569	$GPGGA,070757,2418.2944,N,08142.0293,W,1,9,1.5,19,M,,M,,*54
06/11/2015	07:07:57.569	$GPGGA,070758,2418.2941,N,08142.0307,W,1,10,1.5,19,M,,M,,*6A
06/11/2015	07:07:58.559	$GPGGA,070759,2418.2939,N,08142.0319,W,1,10,1.5,19,M,,M,,*6B
06/11/2015	07:07:59.579	$GPGGA,070800,2418.2935,N,08142.0332,W,1,10,1.5,19,M,,M,,*6D
06/11/2015	07:08:00.549	$GPGGA,070801,2418.2932,N,08142.0344,W,1,10,1.5,19,M,,M,,*6A
06/11/2015	07:08:01.569	$GPGGA,070802,2418.2929,N,08142.0358,W,1,10,1.5,19,M,,M,,*6E
06/11/2015	07:08:02.559	$GPGGA,070803,2418.2925,N,08142.0369,W,1,10,1.5,19,M,,M,,*61
06/11/2015	07:08:03.578	$GPGGA,070804,2418.2922,N,08142.0383,W,1,10,1.5,19,M,,M,,*65
06/11/2015	07:08:04.558	$GPGGA,070805,2418.2921,N,08142.0397,W,1,10,1.5,19,M,,M,,*62
06/11/2015	07:08:05.578	$GPGGA,070806,2418.2916,N,08142.0410,W,1,10,1.5,19,M,,M,,*6D
06/11/2015	07:08:06.558	$GPGGA,070807,2418.2912,N,08142.0424,W,1,10,1.5,19,M,,M,,*6F
06/11/2015	07:08:07.578	$GPGGA,070808,2418.2910,N,08142.0437,W,1,10,1.5,19,M,,M,,*60
06/11/2015	07:08:08.548	$GPGGA,070809,2418.2908,N,08142.0451,W,1,10,1.5,19,M,,M,,*68
06/11/2015	07:08:09.548	$GPGGA,070810,2418.2904,N,08142.0462,W,1,10,1.5,19,M,,M,,*6C
06/11/2015	07:08:10.539	$GPGGA,070811,2418.2900,N,08142.0477,W,1,10,1.5,19,M,,M,,*6D
06/11/2015	07:08:11.579	$GPGGA,070812,2418.2898,N,08142.0491,W,1,10,1.5,19,M,,M,,*66
06/11/2015	07:08:12.549	$GPGGA,070813,2418.2894,N,08142.0504,W,1,10,1.5,19,M,,M,,*66
06/11/2015	07:08:13.579	$GPGGA,070814,2418.2889,N,08142.0518,W,1,10,1.5,19,M,,M,,*60
06/11/2015	07:08:14.529	$GPGGA,070815,2418.2886,N,08142.0532,W,1,10,1.5,19,M,,M,,*66
06/11/2015	07:08:15.549	$GPGGA,070816,2418.2883,N,08142.0546,W,1,10,1.5,19,M,,M,,*63
06/11/2015	07:08:16.530	$GPGGA,070817,2418.2880,N,08142.0558,W,1,10,1.5,19,M,,M,,*6E
06/11/2015	07:08:17.640	$GPGGA,070818,2418.2876,N,08142.0572,W,1,10,1.5,19,M,,M,,*60
06/11/2015	07:08:18.531	$GPGGA,070819,2418.2872,N,08142.0586,W,1,10,1.5,19,M,,M,,*6E
06/11/2015	07:08:19.569	$GPGGA,070820,2418.2868,N,08142.0600,W,1,10,1.5,19,M,,M,,*62
06/11/2015	07:08:20.519	$GPGGA,070821,2418.2863,N,08142.0614,W,1,10,1.5,19,M,,M,,*6D
06/11/2015	07:08:21.542	$GPGGA,070822,2418.2860,N,08142.0628,W,1,9,1.6,19,M,,M,,*59
06/11/2015	07:08:22.518	$GPGGA,070823,2418.2856,N,08142.0641,W,1,9,1.5,19,M,,M,,*51
06/11/2015	07:08:23.543	$GPGGA,070824,2418.2853,N,08142.0654,W,1,10,1.5,19,M,,M,,*6F
06/11/2015	07:08:24.528	$GPGGA,070825,2418.2850,N,08142.0668,W,1,10,1.5,19,M,,M,,*62
06/11/2015	07:08:25.518	$GPGGA,070826,2418.2845,N,08142.0680,W,1,10,1.5,19,M,,M,,*63
06/11/2015	07:08:26.518	$GPGGA,070827,2418.2840,N,08142.0695,W,1,10,1.5,19,M,,M,,*63
06/11/2015	07:08:27.548	$GPGGA,070828,2418.2839,N,08142.0708,W,1,9,1.6,19,M,,M,,*5C
06/11/2015	07:08:28.499	$GPGGA,070829,2418.2834,N,08142.0723,W,1,9,1.5,19,M,,M,,*5A
06/11/2015	07:08:29.510	$GPGGA,070830,2418.2831,N,08142.0735,W,1,9,1.6,19,M,,M,,*53
06/11/2015	07:08:30.589	$GPGGA,070831,2418.2827,N,08142.0749,W,1,9,1.5,19,M,,M,,*5D
06/11/2015	07:08:31.609	$GPGGA,070832,2418.2824,N,08142.0764,W,1,10,1.5,19,M,,M,,*6A
06/11/2015	07:08:32.599	$GPGGA,070833,2418.2820,N,08142.0780,W,1,10,1.5,19,M,,M,,*65
06/11/2015	07:08:33.589	$GPGGA,070834,2418.2816,N,08142.0792,W,1,10,1.5,19,M,,M,,*64
06/11/2015	07:08:34.499	$GPGGA,070835,2418.2811,N,08142.0807,W,1,10,1.5,19,M,,M,,*61
06/11/2015	07:08:35.509	$GPGGA,070836,2418.2809,N,08142.0820,W,1,9,1.6,19,M,,M,,*55
06/11/2015	07:08:36.589	$GPGGA,070837,2418.2805,N,08142.0834,W,1,9,1.5,19,M,,M,,*5E
06/11/2015	07:08:37.589	$GPGGA,070838,2418.2800,N,08142.0849,W,1,10,1.5,19,M,,M,,*66
06/11/2015	07:08:38.578	$GPGGA,070839,2418.2796,N,08142.0863,W,1,10,1.5,19,M,,M,,*6F
06/11/2015	07:08:39.488	$GPGGA,070840,2418.2792,N,08142.0878,W,1,10,1.5,19,M,,M,,*6F
06/11/2015	07:08:40.568	$GPGGA,070841,2418.2788,N,08142.0892,W,1,10,1.6,19,M,,M,,*62
06/11/2015	07:08:44.208	$GPGGA,070844,2418.2777,N,08142.0932,W,1,9,1.6,19,M,,M,,*54
06/11/2015	07:08:44.558	$GPGGA,070845,2418.2773,N,08142.0944,W,1,9,1.5,19,M,,M,,*53
06/11/2015	07:08:45.949	$GPGGA,070846,2418.2768,N,08142.0959,W,1,10,1.5,19,M,,M,,*6E
06/11/2015	07:08:46.559	$GPGGA,070847,2418.2763,N,08142.0973,W,1,10,1.5,19,M,,M,,*6C
06/11/2015	07:08:47.589	$GPGGA,070848,2418.2759,N,08142.0987,W,1,10,1.5,19,M,,M,,*61
06/11/2015	07:08:48.569	$GPGGA,070849,2418.2756,N,08142.1001,W,1,10,1.5,19,M,,M,,*69
06/11/2015	07:08:49.549	$GPGGA,070850,2418.2752,N,08142.1015,W,1,10,1.5,19,M,,M,,*60
06/11/2015	07:08:50.850	$GPGGA,070851,2418.2747,N,08142.1029,W,1,10,1.5,19,M,,M,,*6A
06/11/2015	07:08:51.569	$GPGGA,070852,2418.2744,N,08142.1042,W,1,9,1.6,19,M,,M,,*5C
06/11/2015	07:08:52.559	$GPGGA,070853,2418.2738,N,08142.1056,W,1,9,1.6,19,M,,M,,*53
06/11/2015	07:08:53.569	$GPGGA,070854,2418.2734,N,08142.1069,W,1,9,1.6,19,M,,M,,*54
06/11/2015	07:08:54.549	$GPGGA,070855,2418.2730,N,08142.1084,W,1,9,1.5,19,M,,M,,*51
06/11/2015	07:08:55.569	$GPGGA,070856,2418.2726,N,08142.1099,W,1,9,1.6,19,M,,M,,*5A
06/11/2015	07:08:57.018	$GPGGA,070857,2418.2721,N,08142.1114,W,1,9,1.6,19,M,,M,,*58
06/11/2015	07:08:57.568	$GPGGA,070858,2418.2717,N,08142.1127,W,1,9,1.6,19,M,,M,,*52
06/11/2015	07:08:58.544	$GPGGA,070859,2418.2715,N,08142.1141,W,1,9,1.5,19,M,,M,,*52
06/11/2015	07:08:59.688	$GPGGA,070900,2418.2710,N,08142.1152,W,1,10,1.5,19,M,,M,,*60
06/11/2015	07:09:00.548	$GPGGA,070901,2418.2708,N,08142.1167,W,1,10,1.5,19,M,,M,,*6E
06/11/2015	07:09:01.541	$GPGGA,070902,2418.2705,N,08142.1181,W,1,10,1.5,19,M,,M,,*68
06/11/2015	07:09:02.538	$GPGGA,070903,2418.2701,N,08142.1194,W,1,10,1.5,19,M,,M,,*69
06/11/2015	07:09:03.579	$GPGGA,070904,2418.2698,N,08142.1208,W,1,10,1.5,19,M,,M,,*69
06/11/2015	07:09:04.549	$GPGGA,070905,2418.2694,N,08142.1222,W,1,10,1.5,19,M,,M,,*6C
06/11/2015	07:09:05.699	$GPGGA,070906,2418.2691,N,08142.1236,W,1,10,1.5,19,M,,M,,*6F
06/11/2015	07:09:06.519	$GPGGA,070907,2418.2687,N,08142.1250,W,1,10,1.5,19,M,,M,,*69
06/11/2015	07:09:07.709	$GPGGA,070908,2418.2684,N,08142.1264,W,1,10,1.5,19,M,,M,,*62
06/11/2015	07:09:08.535	$GPGGA,070909,2418.2681,N,08142.1276,W,1,10,1.5,19,M,,M,,*65
06/11/2015	07:09:09.559	$GPGGA,070910,2418.2677,N,08142.1291,W,1,10,1.5,19,M,,M,,*6D
06/11/2015	07:09:10.531	$GPGGA,070911,2418.2674,N,08142.1304,W,1,10,1.5,19,M,,M,,*62
06/11/2015	07:09:11.619	$GPGGA,070912,2418.2670,N,08142.1319,W,1,10,1.5,19,M,,M,,*69
06/11/2015	07:09:12.509	$GPGGA,070913,2418.2666,N,08142.1333,W,1,10,1.5,19,M,,M,,*67
06/11/2015	07:09:13.698	$GPGGA,070914,2418.2662,N,08142.1347,W,1,10,1.5,19,M,,M,,*67
06/11/2015	07:09:14.508	$GPGGA,070915,2418.2659,N,08142.1360,W,1,10,1.5,19,M,,M,,*6B
06/11/2015	07:09:15.698	$GPGGA,070916,2418.2655,N,08142.1374,W,1,10,1.5,19,M,,M,,*61
06/11/2015	07:09:16.530	$GPGGA,070917,2418.2651,N,08142.1388,W,1,10,1.5,19,M,,M,,*67
06/11/2015	07:09:17.688	$GPGGA,070918,2418.2648,N,08142.1402,W,1,10,1.5,19,M,,M,,*65
06/11/2015	07:09:18.598	$GPGGA,070919,2418.2645,N,08142.1417,W,1,10,1.5,19,M,,M,,*6D
06/11/2015	07:09:19.698	$GPGGA,070920,2418.2641,N,08142.1431,W,1,10,1.5,19,M,,M,,*67
06/11/2015	07:09:20.651	$GPGGA,070921,2418.2639,N,08142.1445,W,1,10,1.5,19,M,,M,,*6A
06/11/2015	07:09:21.679	$GPGGA,070922,2418.2634,N,08142.1457,W,1,10,1.5,18,M,,M,,*66
06/11/2015	07:09:22.509	$GPGGA,070923,2418.2630,N,08142.1472,W,1,10,1.5,18,M,,M,,*64
06/11/2015	07:09:23.699	$GPGGA,070924,2418.2627,N,08142.1486,W,1,10,1.5,18,M,,M,,*6E
06/11/2015	07:09:24.609	$GPGGA,070925,2418.2623,N,08142.1500,W,1,10,1.5,18,M,,M,,*64
06/11/2015	07:09:25.679	$GPGGA,070926,2418.2621,N,08142.1515,W,1,10,1.5,18,M,,M,,*61
06/11/2015	07:09:26.609	$GPGGA,070927,2418.2617,N,08142.1529,W,1,10,1.5,18,M,,M,,*6A
06/11/2015	07:09:27.689	$GPGGA,070928,2418.2614,N,08142.1543,W,1,10,1.5,18,M,,M,,*6A
06/11/2015	07:09:28.499	$GPGGA,070929,2418.2610,N,08142.1557,W,1,10,1.5,18,M,,M,,*6A
06/11/2015	07:09:29.569	$GPGGA,070930,2418.2607,N,08142.1572,W,1,10,1.5,18,M,,M,,*63
06/11/2015	07:09:30.609	$GPGGA,070931,2418.2603,N,08142.1586,W,1,10,1.5,18,M,,M,,*6D
06/11/2015	07:09:31.668	$GPGGA,070932,2418.2600,N,08142.1598,W,1,10,1.5,18,M,,M,,*62
06/11/2015	07:09:32.568	$GPGGA,070933,2418.2597,N,08142.1612,W,1,10,1.5,18,M,,M,,*6F
06/11/2015	07:09:33.668	$GPGGA,070934,2418.2594,N,08142.1626,W,1,10,1.5,18,M,,M,,*6C
06/11/2015	07:09:34.558	$GPGGA,070935,2418.2590,N,08142.1641,W,1,10,1.5,18,M,,M,,*68
06/11/2015	07:09:35.568	$GPGGA,070936,2418.2587,N,08142.1655,W,1,10,1.5,18,M,,M,,*68
06/11/2015	07:09:36.609	$GPGGA,070937,2418.2582,N,08142.1669,W,1,10,1.5,18,M,,M,,*63
06/11/2015	07:09:37.558	$GPGGA,070938,2418.2579,N,08142.1684,W,1,10,1.5,18,M,,M,,*6B
06/11/2015	07:09:38.589	$GPGGA,070939,2418.2575,N,08142.1696,W,1,10,1.5,18,M,,M,,*65
06/11/2015	07:09:39.669	$GPGGA,070940,2418.2571,N,08142.1710,W,1,10,1.5,18,M,,M,,*60
06/11/2015	07:09:40.579	$GPGGA,070941,2418.2568,N,08142.1723,W,1,10,1.5,18,M,,M,,*69
06/11/2015	07:09:41.629	$GPGGA,070942,2418.2563,N,08142.1738,W,1,10,1.6,18,M,,M,,*68
06/11/2015	07:09:42.549	$GPGGA,070943,2418.2560,N,08142.1752,W,1,10,1.6,18,M,,M,,*66
06/11/2015	07:09:43.669	$GPGGA,070944,2418.2556,N,08142.1767,W,1,9,1.6,18,M,,M,,*5A
06/11/2015	07:09:44.569	$GPGGA,070945,2418.2552,N,08142.1781,W,1,9,1.6,18,M,,M,,*57
06/11/2015	07:09:45.533	$GPGGA,070946,2418.2549,N,08142.1793,W,1,10,1.5,18,M,,M,,*66
06/11/2015	07:09:46.569	$GPGGA,070947,2418.2545,N,08142.1807,W,1,10,1.5,18,M,,M,,*69
06/11/2015	07:09:47.659	$GPGGA,070948,2418.2542,N,08142.1821,W,1,10,1.5,18,M,,M,,*65
06/11/2015	07:09:48.558	$GPGGA,070949,2418.2538,N,08142.1835,W,1,10,1.6,18,M,,M,,*6F
06/11/2015	07:09:49.638	$GPGGA,070950,2418.2534,N,08142.1848,W,1,9,1.6,18,M,,M,,*59
06/11/2015	07:09:50.533	$GPGGA,070951,2418.2529,N,08142.1862,W,1,9,1.6,18,M,,M,,*5C
06/11/2015	07:09:51.608	$GPGGA,070952,2418.2525,N,08142.1878,W,1,9,1.5,17,M,,M,,*54
06/11/2015	07:09:52.568	$GPGGA,070953,2418.2522,N,08142.1893,W,1,9,1.5,17,M,,M,,*57
06/11/2015	07:09:53.518	$GPGGA,070954,2418.2518,N,08142.1907,W,1,10,1.5,17,M,,M,,*6D
06/11/2015	07:09:54.548	$GPGGA,070955,2418.2514,N,08142.1920,W,1,10,1.5,17,M,,M,,*65
06/11/2015	07:09:55.649	$GPGGA,070956,2418.2511,N,08142.1933,W,1,10,1.5,17,M,,M,,*61
06/11/2015	07:09:56.559	$GPGGA,070957,2418.2509,N,08142.1947,W,1,10,1.5,17,M,,M,,*6A
06/11/2015	07:09:57.589	$GPGGA,070958,2418.2506,N,08142.1959,W,1,10,1.5,17,M,,M,,*65
06/11/2015	07:09:58.559	$GPGGA,070959,2418.2503,N,08142.1973,W,1,10,1.5,17,M,,M,,*69
06/11/2015	07:09:59.659	$GPGGA,071000,2418.2499,N,08142.1987,W,1,10,1.5,17,M,,M,,*64
06/11/2015	07:10:00.509	$GPGGA,071001,2418.2495,N,08142.2001,W,1,10,1.5,17,M,,M,,*6D
06/11/2015	07:10:01.629	$GPGGA,071002,2418.2492,N,08142.2016,W,1,9,1.5,17,M,,M,,*57
06/11/2015	07:10:02.549	$GPGGA,071003,2418.2489,N,08142.2028,W,1,9,1.5,17,M,,M,,*51
06/11/2015	07:10:03.629	$GPGGA,071004,2418.2486,N,08142.2041,W,1,10,1.5,17,M,,M,,*6E
06/11/2015	07:10:04.537	$GPGGA,071005,2418.2482,N,08142.2052,W,1,10,1.5,17,M,,M,,*69
06/11/2015	07:10:05.579	$GPGGA,071006,2418.2480,N,08142.2066,W,1,10,1.5,17,M,,M,,*6F
06/11/2015	07:10:06.598	$GPGGA,071007,2418.2477,N,08142.2079,W,1,10,1.5,16,M,,M,,*69
06/11/2015	07:10:07.598	$GPGGA,071008,2418.2473,N,08142.2093,W,1,10,1.5,16,M,,M,,*66
06/11/2015	07:10:08.548	$GPGGA,071009,2418.2470,N,08142.2108,W,1,10,1.5,16,M,,M,,*67
06/11/2015	07:10:09.568	$GPGGA,071010,2418.2466,N,08142.2124,W,1,10,1.5,16,M,,M,,*66
06/11/2015	07:10:10.588	$GPGGA,071011,2418.2464,N,08142.2135,W,1,10,1.5,16,M,,M,,*65
06/11/2015	07:10:11.919	$GPGGA,071012,2418.2460,N,08142.2149,W,1,10,1.5,16,M,,M,,*69
06/11/2015	07:10:12.529	$GPGGA,071013,2418.2457,N,08142.2160,W,1,10,1.5,16,M,,M,,*67
06/11/2015	07:10:13.599	$GPGGA,071014,2418.2455,N,08142.2175,W,1,10,1.5,16,M,,M,,*66
06/11/2015	07:10:14.589	$GPGGA,071015,2418.2451,N,08142.2189,W,1,10,1.5,16,M,,M,,*60
06/11/2015	07:10:15.609	$GPGGA,071016,2418.2448,N,08142.2204,W,1,10,1.5,16,M,,M,,*6D
06/11/2015	07:10:16.534	$GPGGA,071017,2418.2444,N,08142.2218,W,1,10,1.5,16,M,,M,,*6D
06/11/2015	07:10:17.599	$GPGGA,071018,2418.2441,N,08142.2233,W,1,10,1.5,16,M,,M,,*6E
06/11/2015	07:10:18.569	$GPGGA,071019,2418.2437,N,08142.2245,W,1,10,1.5,16,M,,M,,*6F
06/11/2015	07:10:19.629	$GPGGA,071020,2418.2433,N,08142.2259,W,1,10,1.6,16,M,,M,,*6F
06/11/2015	07:10:20.569	$GPGGA,071021,2418.2430,N,08142.2272,W,1,10,1.5,16,M,,M,,*67
06/11/2015	07:10:21.599	$GPGGA,071022,2418.2428,N,08142.2285,W,1,10,1.5,16,M,,M,,*65
06/11/2015	07:10:22.559	$GPGGA,071023,2418.2426,N,08142.2298,W,1,10,1.5,16,M,,M,,*66
06/11/2015	07:10:23.637	$GPGGA,071024,2418.2421,N,08142.2312,W,1,10,1.5,16,M,,M,,*65
06/11/2015	07:10:24.555	$GPGGA,071025,2418.2419,N,08142.2327,W,1,10,1.5,16,M,,M,,*69
06/11/2015	07:10:25.588	$GPGGA,071026,2418.2416,N,08142.2341,W,1,10,1.5,16,M,,M,,*65
06/11/2015	07:10:26.559	$GPGGA,071027,2418.2412,N,08142.2355,W,1,10,1.5,16,M,,M,,*65
06/11/2015	07:10:27.598	$GPGGA,071028,2418.2408,N,08142.2367,W,1,10,1.5,16,M,,M,,*60
06/11/2015	07:10:28.558	$GPGGA,071029,2418.2406,N,08142.2381,W,1,10,1.5,16,M,,M,,*67
06/11/2015	07:10:29.588	$GPGGA,071030,2418.2402,N,08142.2395,W,1,10,1.5,16,M,,M,,*6E
06/11/2015	07:10:30.559	$GPGGA,071031,2418.2398,N,08142.2408,W,1,10,1.5,16,M,,M,,*68
06/11/2015	07:10:31.646	$GPGGA,071032,2418.2395,N,08142.2422,W,1,10,1.5,16,M,,M,,*6E
06/11/2015	07:10:33.053	$GPGGA,071033,2418.2391,N,08142.2438,W,1,10,1.6,16,M,,M,,*63
06/11/2015	07:10:33.632	$GPGGA,071034,2418.2386,N,08142.2451,W,1,9,1.5,16,M,,M,,*56
06/11/2015	07:10:34.549	$GPGGA,071035,2418.2383,N,08142.2465,W,1,9,1.5,16,M,,M,,*55
06/11/2015	07:10:35.599	$GPGGA,071036,2418.2381,N,08142.2479,W,1,10,1.5,16,M,,M,,*61
06/11/2015	07:10:36.543	$GPGGA,071037,2418.2377,N,08142.2491,W,1,10,1.5,16,M,,M,,*6F
06/11/2015	07:10:37.579	$GPGGA,071038,2418.2377,N,08142.2491,W,1,10,1.5,16,M,,M,,*60
06/11/2015	07:10:38.532	$GPGGA,071039,2418.2369,N,08142.2520,W,1,10,1.6,16,M,,M,,*66
06/11/2015	07:10:39.579	$GPGGA,071040,2418.2365,N,08142.2536,W,1,9,1.6,16,M,,M,,*5B
06/11/2015	07:10:40.536	$GPGGA,071041,2418.2361,N,08142.2550,W,1,9,1.5,16,M,,M,,*5D
06/11/2015	07:10:41.608	$GPGGA,071042,2418.2357,N,08142.2563,W,1,10,1.6,16,M,,M,,*60
06/11/2015	07:10:42.533	$GPGGA,071043,2418.2354,N,08142.2577,W,1,10,1.6,16,M,,M,,*67
06/11/2015	07:10:43.588	$GPGGA,071044,2418.2350,N,08142.2591,W,1,9,1.5,16,M,,M,,*57
06/11/2015	07:10:44.531	$GPGGA,071045,2418.2345,N,08142.2605,W,1,9,1.5,16,M,,M,,*5C
06/11/2015	07:10:45.568	$GPGGA,071046,2418.2343,N,08142.2619,W,1,10,1.5,16,M,,M,,*6C
06/11/2015	07:10:46.631	$GPGGA,071047,2418.2338,N,08142.2634,W,1,10,1.5,16,M,,M,,*6E
06/11/2015	07:10:47.618	$GPGGA,071048,2418.2338,N,08142.2634,W,1,9,1.6,16,M,,M,,*5A
06/11/2015	07:10:48.509	$GPGGA,071049,2418.2330,N,08142.2662,W,1,9,1.6,16,M,,M,,*50
06/11/2015	07:10:49.649	$GPGGA,071050,2418.2328,N,08142.2674,W,1,9,1.6,16,M,,M,,*56
06/11/2015	07:10:50.609	$GPGGA,071051,2418.2326,N,08142.2688,W,1,9,1.6,16,M,,M,,*5A
06/11/2015	07:10:51.533	$GPGGA,071052,2418.2326,N,08142.2688,W,1,10,1.5,15,M,,M,,*61
06/11/2015	07:10:52.499	$GPGGA,071053,2418.2318,N,08142.2714,W,1,10,1.5,15,M,,M,,*69
06/11/2015	07:10:53.519	$GPGGA,071054,2418.2318,N,08142.2714,W,1,10,1.5,15,M,,M,,*6E
06/11/2015	07:10:54.520	$GPGGA,071055,2418.2311,N,08142.2742,W,1,10,1.6,15,M,,M,,*66
06/11/2015	07:10:55.529	$GPGGA,071056,2418.2311,N,08142.2742,W,1,9,1.6,15,M,,M,,*5D
06/11/2015	07:10:56.499	$GPGGA,071057,2418.2307,N,08142.2757,W,1,9,1.6,15,M,,M,,*5F
06/11/2015	07:10:57.619	$GPGGA,071058,2418.2299,N,08142.2782,W,1,9,1.6,15,M,,M,,*5E
06/11/2015	07:10:58.578	$GPGGA,071059,2418.2296,N,08142.2794,W,1,9,1.5,15,M,,M,,*54
06/11/2015	07:10:59.519	$GPGGA,071100,2418.2292,N,08142.2807,W,1,10,1.5,15,M,,M,,*60
06/11/2015	07:11:00.488	$GPGGA,071101,2418.2289,N,08142.2822,W,1,10,1.6,15,M,,M,,*6F
06/11/2015	07:11:01.578	$GPGGA,071102,2418.2285,N,08142.2836,W,1,10,1.5,15,M,,M,,*66
06/11/2015	07:11:02.578	$GPGGA,071103,2418.2283,N,08142.2848,W,1,10,1.6,15,M,,M,,*6B
06/11/2015	07:11:03.588	$GPGGA,071104,2418.2281,N,08142.2861,W,1,10,1.5,15,M,,M,,*66
06/11/2015	07:11:04.478	$GPGGA,071105,2418.2278,N,08142.2874,W,1,10,1.5,15,M,,M,,*65
06/11/2015	07:11:05.598	$GPGGA,071106,2418.2276,N,08142.2887,W,1,9,1.6,15,M,,M,,*5F
06/11/2015	07:11:06.568	$GPGGA,071107,2418.2272,N,08142.2898,W,1,9,1.5,15,M,,M,,*57
06/11/2015	07:11:07.568	$GPGGA,071108,2418.2269,N,08142.2912,W,1,10,1.5,15,M,,M,,*69
06/11/2015	07:11:08.558	$GPGGA,071109,2418.2265,N,08142.2926,W,1,10,1.5,15,M,,M,,*63
06/11/2015	07:11:09.558	$GPGGA,071110,2418.2261,N,08142.2941,W,1,9,1.6,16,M,,M,,*56
06/11/2015	07:11:10.548	$GPGGA,071111,2418.2256,N,08142.2956,W,1,9,1.6,16,M,,M,,*55
06/11/2015	07:11:11.588	$GPGGA,071112,2418.2251,N,08142.2970,W,1,10,1.5,16,M,,M,,*6E
06/11/2015	07:11:12.548	$GPGGA,071113,2418.2247,N,08142.2984,W,1,10,1.5,16,M,,M,,*63
06/11/2015	07:11:13.538	$GPGGA,071114,2418.2244,N,08142.2995,W,1,9,1.7,16,M,,M,,*5D
06/11/2015	07:11:14.538	$GPGGA,071115,2418.2240,N,08142.3009,W,1,9,1.5,16,M,,M,,*57
06/11/2015	07:11:15.569	$GPGGA,071116,2418.2236,N,08142.3021,W,1,10,1.5,16,M,,M,,*67
06/11/2015	07:11:16.548	$GPGGA,071117,2418.2233,N,08142.3035,W,1,10,1.5,16,M,,M,,*66
06/11/2015	07:11:17.558	$GPGGA,071118,2418.2229,N,08142.3049,W,1,10,1.5,16,M,,M,,*69
06/11/2015	07:11:18.538	$GPGGA,071119,2418.2226,N,08142.3063,W,1,10,1.6,16,M,,M,,*6C
06/11/2015	07:11:19.548	$GPGGA,071120,2418.2224,N,08142.3076,W,1,9,1.6,16,M,,M,,*58
06/11/2015	07:11:20.548	$GPGGA,071121,2418.2221,N,08142.3089,W,1,9,1.6,16,M,,M,,*5C
06/11/2015	07:11:21.558	$GPGGA,071122,2418.2217,N,08142.3100,W,1,10,1.5,16,M,,M,,*61
06/11/2015	07:11:22.538	$GPGGA,071123,2418.2213,N,08142.3114,W,1,10,1.5,16,M,,M,,*61
06/11/2015	07:11:23.534	$GPGGA,071124,2418.2211,N,08142.3126,W,1,10,1.5,16,M,,M,,*65
06/11/2015	07:11:24.528	$GPGGA,071125,2418.2207,N,08142.3140,W,1,10,1.5,16,M,,M,,*63
06/11/2015	07:11:25.519	$GPGGA,071126,2418.2204,N,08142.3154,W,1,9,1.6,16,M,,M,,*5D
06/11/2015	07:11:26.519	$GPGGA,071127,2418.2200,N,08142.3168,W,1,9,1.5,16,M,,M,,*54
06/11/2015	07:11:27.538	$GPGGA,071128,2418.2197,N,08142.3181,W,1,10,1.5,16,M,,M,,*69
06/11/2015	07:11:28.508	$GPGGA,071129,2418.2195,N,08142.3194,W,1,10,1.5,16,M,,M,,*6E
06/11/2015	07:11:29.878	$GPGGA,071130,2418.2191,N,08142.3208,W,1,10,1.5,16,M,,M,,*64
06/11/2015	07:11:30.533	$GPGGA,071131,2418.2188,N,08142.3223,W,1,10,1.5,16,M,,M,,*64
06/11/2015	07:11:31.548	$GPGGA,071132,2418.2184,N,08142.3237,W,1,10,1.5,16,M,,M,,*6E
06/11/2015	07:11:32.520	$GPGGA,071133,2418.2181,N,08142.3249,W,1,10,1.6,16,M,,M,,*60
06/11/2015	07:11:33.628	$GPGGA,071134,2418.2179,N,08142.3262,W,1,10,1.5,16,M,,M,,*6A
06/11/2015	07:11:34.525	$GPGGA,071135,2418.2175,N,08142.3275,W,1,10,1.5,16,M,,M,,*61
06/11/2015	07:11:35.558	$GPGGA,071136,2418.2173,N,08142.3289,W,1,10,1.5,16,M,,M,,*67
06/11/2015	07:11:36.508	$GPGGA,071137,2418.2168,N,08142.3303,W,1,10,1.5,16,M,,M,,*6F
06/11/2015	07:11:37.524	$GPGGA,071138,2418.2166,N,08142.3317,W,1,10,1.5,16,M,,M,,*6B
06/11/2015	07:11:38.488	$GPGGA,071139,2418.2161,N,08142.3331,W,1,10,1.5,16,M,,M,,*69
06/11/2015	07:11:39.608	$GPGGA,071140,2418.2159,N,08142.3345,W,1,10,1.5,17,M,,M,,*6E
06/11/2015	07:11:40.498	$GPGGA,071141,2418.2155,N,08142.3358,W,1,10,1.5,17,M,,M,,*6F
06/11/2015	07:11:41.608	$GPGGA,071142,2418.2151,N,08142.3371,W,1,9,1.6,17,M,,M,,*58
06/11/2015	07:11:42.498	$GPGGA,071143,2418.2148,N,08142.3385,W,1,9,1.5,17,M,,M,,*59
06/11/2015	07:11:43.522	$GPGGA,071144,2418.2142,N,08142.3400,W,1,10,1.5,17,M,,M,,*66
06/11/2015	07:11:44.598	$GPGGA,071145,2418.2137,N,08142.3417,W,1,10,1.6,17,M,,M,,*60
