Software Version Number: 1	Data File Format Number: 1	Build Version Number: 1	Error Count Since VI Started: 1	Manufacturer: Raytheon	 Model Number: RayMarine 120	 S/N: 	 Cal Date: 	 Wind Direction Offset: 0.00	 Slope (M)1: 0.00	 Offset (B)1: 0.00	 Slope (M)2: 0.00	 Offset (B)2: 0.00	 Slope (M)3: 0.00	 Offset (B)3: 0.00	 Slope (M)4: 0.00	 Offset (B)4: 0.00	 Slope (M)5: 0.00	 Offset (B)5: 0.00	 Slope (M)6: 0.00	 Offset (B)6: 0.00
Computer Date	Computer Time	GGA String
06/14/2015	06:00:00.568	$GPGGA,060001,2431.1003,N,08058.2825,W,1,9,2.0,18,M,,M,,*5B
06/14/2015	06:00:01.598	$GPGGA,060002,2431.1013,N,08058.2814,W,1,9,2.0,18,M,,M,,*5B
06/14/2015	06:00:02.578	$GPGGA,060003,2431.1024,N,08058.2802,W,1,9,2.0,18,M,,M,,*59
06/14/2015	06:00:03.898	$GPGGA,060004,2431.1031,N,08058.2786,W,1,9,2.0,18,M,,M,,*59
06/14/2015	06:00:04.558	$GPGGA,060005,2431.1037,N,08058.2771,W,1,9,2.0,18,M,,M,,*56
06/14/2015	06:00:05.548	$GPGGA,060006,2431.1046,N,08058.2759,W,1,9,2.0,18,M,,M,,*59
06/14/2015	06:00:06.558	$GPGGA,060007,2431.1056,N,08058.2747,W,1,9,2.0,18,M,,M,,*56
06/14/2015	06:00:07.598	$GPGGA,060008,2431.1063,N,08058.2731,W,1,9,2.0,18,M,,M,,*5E
06/14/2015	06:00:08.540	$GPGGA,060009,2431.1070,N,08058.2717,W,1,9,2.0,18,M,,M,,*59
06/14/2015	06:00:09.558	$GPGGA,060010,2431.1078,N,08058.2705,W,1,9,2.0,18,M,,M,,*5A
06/14/2015	06:00:10.548	$GPGGA,060011,2431.1088,N,08058.2690,W,1,9,2.0,18,M,,M,,*59
06/14/2015	06:00:11.558	$GPGGA,060012,2431.1095,N,08058.2676,W,1,9,2.0,18,M,,M,,*5E
06/14/2015	06:00:12.548	$GPGGA,060013,2431.1103,N,08058.2662,W,1,9,2.0,18,M,,M,,*54
06/14/2015	06:00:13.557	$GPGGA,060014,2431.1111,N,08058.2648,W,1,9,2.0,18,M,,M,,*58
06/14/2015	06:00:15.578	$GPGGA,060016,2431.1128,N,08058.2621,W,1,9,2.0,18,M,,M,,*5F
06/14/2015	06:00:16.538	$GPGGA,060017,2431.1133,N,08058.2606,W,1,9,2.0,18,M,,M,,*51
06/14/2015	06:00:17.529	$GPGGA,060018,2431.1142,N,08058.2595,W,1,9,2.0,18,M,,M,,*51
06/14/2015	06:00:18.542	$GPGGA,060019,2431.1151,N,08058.2580,W,1,9,2.0,18,M,,M,,*56
06/14/2015	06:00:19.558	$GPGGA,060020,2431.1158,N,08058.2566,W,1,9,2.0,18,M,,M,,*5D
06/14/2015	06:00:20.545	$GPGGA,060021,2431.1165,N,08058.2551,W,1,9,2.0,18,M,,M,,*56
06/14/2015	06:00:21.531	$GPGGA,060022,2431.1174,N,08058.2537,W,1,9,2.0,18,M,,M,,*55
06/14/2015	06:00:22.518	$GPGGA,060023,2431.1182,N,08058.2524,W,1,9,2.0,17,M,,M,,*50
06/14/2015	06:00:23.519	$GPGGA,060024,2431.1189,N,08058.2508,W,1,9,2.0,17,M,,M,,*52
06/14/2015	06:00:24.628	$GPGGA,060025,2431.1197,N,08058.2494,W,1,9,2.0,17,M,,M,,*58
06/14/2015	06:00:25.508	$GPGGA,060026,2431.1204,N,08058.2478,W,1,9,2.0,17,M,,M,,*50
06/14/2015	06:00:26.632	$GPGGA,060027,2431.1209,N,08058.2464,W,1,9,2.0,17,M,,M,,*51
06/14/2015	06:00:27.531	$GPGGA,060028,2431.1221,N,08058.2451,W,1,9,2.0,17,M,,M,,*52
06/14/2015	06:00:28.598	$GPGGA,060029,2431.1229,N,08058.2435,W,1,9,2.0,17,M,,M,,*59
06/14/2015	06:00:29.498	$GPGGA,060030,2431.1234,N,08058.2419,W,1,9,2.0,17,M,,M,,*53
06/14/2015	06:00:30.597	$GPGGA,060031,2431.1241,N,08058.2403,W,1,9,2.0,17,M,,M,,*5B
06/14/2015	06:00:31.630	$GPGGA,060032,2431.1252,N,08058.2388,W,1,8,2.1,17,M,,M,,*5E
06/14/2015	06:00:32.507	$GPGGA,060033,2431.1259,N,08058.2375,W,1,8,2.0,17,M,,M,,*57
06/14/2015	06:00:33.497	$GPGGA,060034,2431.1266,N,08058.2359,W,1,9,2.0,17,M,,M,,*53
06/14/2015	06:00:34.608	$GPGGA,060035,2431.1273,N,08058.2343,W,1,9,2.0,17,M,,M,,*5D
06/14/2015	06:00:35.536	$GPGGA,060036,2431.1281,N,08058.2328,W,1,9,2.0,17,M,,M,,*5E
06/14/2015	06:00:36.488	$GPGGA,060037,2431.1291,N,08058.2313,W,1,9,2.1,17,M,,M,,*57
06/14/2015	06:00:37.498	$GPGGA,060038,2431.1298,N,08058.2297,W,1,9,2.0,17,M,,M,,*5D
06/14/2015	06:00:38.588	$GPGGA,060039,2431.1306,N,08058.2283,W,1,9,2.0,17,M,,M,,*5F
06/14/2015	06:00:39.588	$GPGGA,060040,2431.1313,N,08058.2267,W,1,9,2.0,17,M,,M,,*5F
06/14/2015	06:00:44.648	$GPGGA,060045,2431.1350,N,08058.2193,W,1,9,2.0,17,M,,M,,*55
06/14/2015	06:00:45.588	$GPGGA,060046,2431.1357,N,08058.2177,W,1,8,2.2,17,M,,M,,*58
06/14/2015	06:00:46.558	$GPGGA,060047,2431.1364,N,08058.2161,W,1,8,2.0,17,M,,M,,*5C
06/14/2015	06:00:47.588	$GPGGA,060048,2431.1371,N,08058.2147,W,1,9,2.0,17,M,,M,,*52
06/14/2015	06:00:48.567	$GPGGA,060049,2431.1380,N,08058.2133,W,1,9,2.0,17,M,,M,,*5E
06/14/2015	06:00:49.567	$GPGGA,060050,2431.1385,N,08058.2118,W,1,9,2.0,17,M,,M,,*5A
06/14/2015	06:00:50.567	$GPGGA,060051,2431.1393,N,08058.2101,W,1,9,2.0,17,M,,M,,*54
06/14/2015	06:00:51.588	$GPGGA,060052,2431.1400,N,08058.2087,W,1,9,2.0,17,M,,M,,*55
06/14/2015	06:00:52.558	$GPGGA,060053,2431.1407,N,08058.2073,W,1,9,2.0,17,M,,M,,*58
06/14/2015	06:00:53.568	$GPGGA,060054,2431.1415,N,08058.2058,W,1,9,2.0,17,M,,M,,*55
06/14/2015	06:00:54.558	$GPGGA,060055,2431.1422,N,08058.2042,W,1,9,2.0,17,M,,M,,*5B
06/14/2015	06:00:55.588	$GPGGA,060056,2431.1428,N,08058.2025,W,1,9,2.0,17,M,,M,,*53
06/14/2015	06:00:56.558	$GPGGA,060057,2431.1438,N,08058.2013,W,1,9,2.0,17,M,,M,,*56
06/14/2015	06:00:57.536	$GPGGA,060058,2431.1447,N,08058.1999,W,1,9,2.0,17,M,,M,,*59
06/14/2015	06:00:58.545	$GPGGA,060059,2431.1451,N,08058.1981,W,1,9,2.0,17,M,,M,,*56
06/14/2015	06:00:59.643	$GPGGA,060100,2431.1458,N,08058.1967,W,1,9,2.0,17,M,,M,,*5A
06/14/2015	06:01:00.542	$GPGGA,060101,2431.1469,N,08058.1955,W,1,9,2.0,17,M,,M,,*58
06/14/2015	06:01:02.019	$GPGGA,060102,2431.1478,N,08058.1940,W,1,9,2.0,17,M,,M,,*5F
06/14/2015	06:01:02.548	$GPGGA,060103,2431.1483,N,08058.1924,W,1,9,2.0,17,M,,M,,*58
06/14/2015	06:01:03.539	$GPGGA,060104,2431.1492,N,08058.1909,W,1,9,2.0,17,M,,M,,*50
06/14/2015	06:01:04.533	$GPGGA,060105,2431.1501,N,08058.1897,W,1,9,2.0,17,M,,M,,*5C
06/14/2015	06:01:05.532	$GPGGA,060106,2431.1510,N,08058.1882,W,1,9,2.0,17,M,,M,,*5B
06/14/2015	06:01:06.541	$GPGGA,060107,2431.1519,N,08058.1866,W,1,9,2.2,17,M,,M,,*5B
06/14/2015	06:01:08.080	$GPGGA,060108,2431.1526,N,08058.1851,W,1,9,2.0,17,M,,M,,*5E
06/14/2015	06:01:08.517	$GPGGA,060109,2431.1536,N,08058.1837,W,1,9,2.0,17,M,,M,,*5E
06/14/2015	06:01:09.518	$GPGGA,060110,2431.1544,N,08058.1822,W,1,9,2.0,17,M,,M,,*57
06/14/2015	06:01:10.518	$GPGGA,060111,2431.1551,N,08058.1809,W,1,9,2.0,17,M,,M,,*5B
06/14/2015	06:01:11.540	$GPGGA,060112,2431.1559,N,08058.1793,W,1,9,2.0,17,M,,M,,*5C
06/14/2015	06:01:12.532	$GPGGA,060113,2431.1569,N,08058.1778,W,1,9,2.0,17,M,,M,,*5B
06/14/2015	06:01:13.518	$GPGGA,060114,2431.1574,N,08058.1765,W,1,9,2.0,17,M,,M,,*5C
06/14/2015	06:01:14.518	$GPGGA,060115,2431.1584,N,08058.1751,W,1,9,2.0,17,M,,M,,*55
06/14/2015	06:01:15.518	$GPGGA,060116,2431.1594,N,08058.1736,W,1,9,2.0,17,M,,M,,*56
06/14/2015	06:01:16.498	$GPGGA,060117,2431.1601,N,08058.1723,W,1,9,2.0,17,M,,M,,*5C
06/14/2015	06:01:17.498	$GPGGA,060118,2431.1608,N,08058.1709,W,1,9,2.0,17,M,,M,,*52
06/14/2015	06:01:18.598	$GPGGA,060119,2431.1617,N,08058.1694,W,1,9,2.0,17,M,,M,,*58
06/14/2015	06:01:19.508	$GPGGA,060120,2431.1624,N,08058.1680,W,1,9,2.0,17,M,,M,,*57
06/14/2015	06:01:20.588	$GPGGA,060121,2431.1633,N,08058.1667,W,1,9,2.0,17,M,,M,,*59
06/14/2015	06:01:21.618	$GPGGA,060122,2431.1639,N,08058.1652,W,1,9,2.0,17,M,,M,,*56
06/14/2015	06:01:22.508	$GPGGA,060123,2431.1648,N,08058.1637,W,1,9,2.0,17,M,,M,,*52
06/14/2015	06:01:23.507	$GPGGA,060124,2431.1656,N,08058.1622,W,1,9,2.0,17,M,,M,,*5E
06/14/2015	06:01:24.657	$GPGGA,060125,2431.1664,N,08058.1612,W,1,9,2.0,17,M,,M,,*5D
06/14/2015	06:01:25.497	$GPGGA,060126,2431.1673,N,08058.1598,W,1,9,2.0,17,M,,M,,*59
06/14/2015	06:01:26.579	$GPGGA,060127,2431.1678,N,08058.1581,W,1,9,2.0,17,M,,M,,*5B
06/14/2015	06:01:27.629	$GPGGA,060128,2431.1686,N,08058.1570,W,1,9,2.0,17,M,,M,,*5B
06/14/2015	06:01:28.598	$GPGGA,060129,2431.1698,N,08058.1558,W,1,9,2.2,17,M,,M,,*5D
06/14/2015	06:01:29.488	$GPGGA,060130,2431.1704,N,08058.1542,W,1,8,2.2,17,M,,M,,*5B
06/14/2015	06:01:30.578	$GPGGA,060131,2431.1711,N,08058.1529,W,1,8,2.0,17,M,,M,,*51
06/14/2015	06:01:31.645	$GPGGA,060132,2431.1722,N,08058.1516,W,1,9,2.0,17,M,,M,,*5F
06/14/2015	06:01:32.578	$GPGGA,060133,2431.1734,N,08058.1504,W,1,9,2.0,17,M,,M,,*5A
06/14/2015	06:01:33.588	$GPGGA,060134,2431.1740,N,08058.1491,W,1,9,2.0,17,M,,M,,*53
06/14/2015	06:01:34.568	$GPGGA,060135,2431.1746,N,08058.1476,W,1,9,2.0,17,M,,M,,*5D
06/14/2015	06:01:35.598	$GPGGA,060136,2431.1754,N,08058.1462,W,1,9,2.0,16,M,,M,,*59
06/14/2015	06:01:36.558	$GPGGA,060137,2431.1765,N,08058.1451,W,1,9,2.0,16,M,,M,,*5A
06/14/2015	06:01:37.578	$GPGGA,060138,2431.1772,N,08058.1436,W,1,9,2.0,16,M,,M,,*52
06/14/2015	06:01:38.568	$GPGGA,060139,2431.1778,N,08058.1422,W,1,9,2.0,16,M,,M,,*5C
06/14/2015	06:01:39.618	$GPGGA,060140,2431.1786,N,08058.1407,W,1,9,2.0,16,M,,M,,*54
06/14/2015	06:01:40.567	$GPGGA,060141,2431.1796,N,08058.1394,W,1,9,2.0,16,M,,M,,*59
06/14/2015	06:01:41.577	$GPGGA,060142,2431.1801,N,08058.1380,W,1,9,2.0,17,M,,M,,*5F
06/14/2015	06:01:42.557	$GPGGA,060143,2431.1808,N,08058.1364,W,1,9,2.0,17,M,,M,,*5D
06/14/2015	06:01:43.587	$GPGGA,060144,2431.1816,N,08058.1349,W,1,9,2.0,17,M,,M,,*5A
06/14/2015	06:01:44.540	$GPGGA,060145,2431.1825,N,08058.1336,W,1,9,2.0,17,M,,M,,*53
06/14/2015	06:01:45.568	$GPGGA,060146,2431.1832,N,08058.1323,W,1,9,2.0,17,M,,M,,*52
06/14/2015	06:01:46.558	$GPGGA,060147,2431.1839,N,08058.1307,W,1,9,2.0,17,M,,M,,*5E
06/14/2015	06:01:47.588	$GPGGA,060148,2431.1846,N,08058.1292,W,1,9,2.0,17,M,,M,,*54
06/14/2015	06:01:48.548	$GPGGA,060149,2431.1852,N,08058.1279,W,1,9,2.0,17,M,,M,,*55
06/14/2015	06:01:49.568	$GPGGA,060150,2431.1861,N,08058.1263,W,1,9,2.0,17,M,,M,,*56
06/14/2015	06:01:50.539	$GPGGA,060151,2431.1866,N,08058.1249,W,1,9,2.0,17,M,,M,,*58
06/14/2015	06:01:51.558	$GPGGA,060152,2431.1875,N,08058.1234,W,1,9,2.0,17,M,,M,,*53
06/14/2015	06:01:52.541	$GPGGA,060153,2431.1883,N,08058.1218,W,1,9,2.0,17,M,,M,,*55
06/14/2015	06:01:53.538	$GPGGA,060154,2431.1888,N,08058.1204,W,1,9,2.1,17,M,,M,,*55
06/14/2015	06:01:54.541	$GPGGA,060155,2431.1897,N,08058.1190,W,1,9,2.0,17,M,,M,,*55
06/14/2015	06:01:55.568	$GPGGA,060156,2431.1902,N,08058.1174,W,1,9,2.0,17,M,,M,,*51
06/14/2015	06:01:56.538	$GPGGA,060157,2431.1909,N,08058.1157,W,1,9,2.0,17,M,,M,,*5A
06/14/2015	06:01:57.518	$GPGGA,060158,2431.1919,N,08058.1145,W,1,9,2.0,17,M,,M,,*57
06/14/2015	06:01:58.530	$GPGGA,060159,2431.1926,N,08058.1130,W,1,9,2.0,17,M,,M,,*58
06/14/2015	06:01:59.647	$GPGGA,060200,2431.1931,N,08058.1112,W,1,9,2.0,17,M,,M,,*51
06/14/2015	06:02:00.529	$GPGGA,060201,2431.1938,N,08058.1097,W,1,9,2.0,17,M,,M,,*55
06/14/2015	06:02:01.542	$GPGGA,060202,2431.1948,N,08058.1084,W,1,9,2.0,17,M,,M,,*53
06/14/2015	06:02:02.608	$GPGGA,060203,2431.1956,N,08058.1070,W,1,9,2.0,17,M,,M,,*56
06/14/2015	06:02:03.646	$GPGGA,060204,2431.1960,N,08058.1053,W,1,9,2.0,17,M,,M,,*55
06/14/2015	06:02:04.532	$GPGGA,060205,2431.1969,N,08058.1037,W,1,9,2.0,17,M,,M,,*5F
06/14/2015	06:02:05.518	$GPGGA,060206,2431.1978,N,08058.1024,W,1,9,2.0,17,M,,M,,*5E
06/14/2015	06:02:06.599	$GPGGA,060207,2431.1987,N,08058.1010,W,1,9,2.0,17,M,,M,,*58
06/14/2015	06:02:07.638	$GPGGA,060208,2431.1992,N,08058.0994,W,1,9,2.0,18,M,,M,,*58
06/14/2015	06:02:08.508	$GPGGA,060209,2431.2000,N,08058.0979,W,1,9,2.0,18,M,,M,,*5B
06/14/2015	06:02:09.508	$GPGGA,060210,2431.2010,N,08058.0965,W,1,9,2.0,18,M,,M,,*5F
06/14/2015	06:02:10.608	$GPGGA,060211,2431.2018,N,08058.0950,W,1,9,2.0,18,M,,M,,*50
06/14/2015	06:02:11.518	$GPGGA,060212,2431.2025,N,08058.0933,W,1,9,2.0,18,M,,M,,*58
06/14/2015	06:02:12.598	$GPGGA,060213,2431.2032,N,08058.0918,W,1,9,2.0,18,M,,M,,*56
06/14/2015	06:02:13.598	$GPGGA,060214,2431.2042,N,08058.0905,W,1,9,2.0,18,M,,M,,*5A
06/14/2015	06:02:14.498	$GPGGA,060215,2431.2049,N,08058.0889,W,1,9,2.0,18,M,,M,,*55
06/14/2015	06:02:15.567	$GPGGA,060216,2431.2056,N,08058.0872,W,1,9,2.0,18,M,,M,,*5C
06/14/2015	06:02:16.577	$GPGGA,060217,2431.2064,N,08058.0857,W,1,9,2.0,18,M,,M,,*5B
06/14/2015	06:02:17.617	$GPGGA,060218,2431.2072,N,08058.0843,W,1,9,2.0,18,M,,M,,*56
06/14/2015	06:02:18.567	$GPGGA,060219,2431.2081,N,08058.0827,W,1,9,2.0,18,M,,M,,*59
06/14/2015	06:02:19.598	$GPGGA,060220,2431.2086,N,08058.0812,W,1,9,2.0,18,M,,M,,*52
06/14/2015	06:02:20.588	$GPGGA,060221,2431.2094,N,08058.0795,W,1,9,2.0,18,M,,M,,*50
06/14/2015	06:02:21.568	$GPGGA,060222,2431.2104,N,08058.0781,W,1,9,2.0,18,M,,M,,*5E
06/14/2015	06:02:22.568	$GPGGA,060223,2431.2112,N,08058.0768,W,1,9,2.0,18,M,,M,,*5F
06/14/2015	06:02:23.598	$GPGGA,060224,2431.2121,N,08058.0751,W,1,9,2.0,18,M,,M,,*52
06/14/2015	06:02:24.568	$GPGGA,060225,2431.2129,N,08058.0736,W,1,9,2.0,18,M,,M,,*5A
06/14/2015	06:02:25.578	$GPGGA,060226,2431.2137,N,08058.0723,W,1,9,2.0,18,M,,M,,*52
06/14/2015	06:02:26.568	$GPGGA,060227,2431.2147,N,08058.0708,W,1,9,2.0,18,M,,M,,*5D
06/14/2015	06:02:27.588	$GPGGA,060228,2431.2155,N,08058.0694,W,1,9,2.0,19,M,,M,,*54
06/14/2015	06:02:28.558	$GPGGA,060229,2431.2162,N,08058.0681,W,1,9,2.0,19,M,,M,,*55
06/14/2015	06:02:29.548	$GPGGA,060230,2431.2173,N,08058.0665,W,1,9,2.0,19,M,,M,,*57
06/14/2015	06:02:30.558	$GPGGA,060231,2431.2180,N,08058.0650,W,1,9,2.0,19,M,,M,,*5C
06/14/2015	06:02:31.578	$GPGGA,060232,2431.2190,N,08058.0636,W,1,9,2.0,19,M,,M,,*5E
06/14/2015	06:02:32.548	$GPGGA,060233,2431.2198,N,08058.0624,W,1,9,2.0,19,M,,M,,*54
06/14/2015	06:02:33.546	$GPGGA,060234,2431.2208,N,08058.0609,W,1,9,2.0,19,M,,M,,*56
06/14/2015	06:02:34.547	$GPGGA,060235,2431.2216,N,08058.0592,W,1,9,2.0,19,M,,M,,*59
06/14/2015	06:02:35.577	$GPGGA,060236,2431.2223,N,08058.0580,W,1,9,2.0,19,M,,M,,*5F
06/14/2015	06:02:36.548	$GPGGA,060237,2431.2234,N,08058.0568,W,1,9,2.0,19,M,,M,,*5E
06/14/2015	06:02:37.568	$GPGGA,060238,2431.2242,N,08058.0553,W,1,9,2.0,19,M,,M,,*58
06/14/2015	06:02:38.532	$GPGGA,060239,2431.2249,N,08058.0538,W,1,9,2.0,19,M,,M,,*5F
06/14/2015	06:02:39.548	$GPGGA,060240,2431.2256,N,08058.0524,W,1,9,2.0,19,M,,M,,*52
06/14/2015	06:02:40.532	$GPGGA,060241,2431.2267,N,08058.0511,W,1,9,2.0,19,M,,M,,*57
06/14/2015	06:02:41.518	$GPGGA,060242,2431.2274,N,08058.0496,W,1,9,2.0,19,M,,M,,*58
06/14/2015	06:02:42.528	$GPGGA,060243,2431.2281,N,08058.0481,W,1,9,2.0,19,M,,M,,*55
06/14/2015	06:02:43.538	$GPGGA,060244,2431.2291,N,08058.0467,W,1,9,2.0,19,M,,M,,*5B
06/14/2015	06:02:44.530	$GPGGA,060245,2431.2299,N,08058.0454,W,1,9,2.0,19,M,,M,,*52
06/14/2015	06:02:45.540	$GPGGA,060246,2431.2305,N,08058.0437,W,1,9,2.0,19,M,,M,,*50
06/14/2015	06:02:46.518	$GPGGA,060247,2431.2313,N,08058.0422,W,1,9,2.0,19,M,,M,,*52
06/14/2015	06:02:47.546	$GPGGA,060248,2431.2323,N,08058.0410,W,1,9,2.0,19,M,,M,,*5F
06/14/2015	06:02:48.518	$GPGGA,060249,2431.2329,N,08058.0395,W,1,9,2.0,19,M,,M,,*5E
06/14/2015	06:02:49.518	$GPGGA,060250,2431.2336,N,08058.0378,W,1,9,2.0,19,M,,M,,*5B
06/14/2015	06:02:50.517	$GPGGA,060251,2431.2345,N,08058.0365,W,1,9,2.0,19,M,,M,,*52
06/14/2015	06:02:51.641	$GPGGA,060252,2431.2353,N,08058.0351,W,1,9,2.0,19,M,,M,,*51
06/14/2015	06:02:52.507	$GPGGA,060253,2431.2360,N,08058.0334,W,1,9,2.0,19,M,,M,,*53
06/14/2015	06:02:53.517	$GPGGA,060254,2431.2368,N,08058.0320,W,1,9,2.0,19,M,,M,,*59
06/14/2015	06:02:54.518	$GPGGA,060255,2431.2375,N,08058.0309,W,1,9,2.0,19,M,,M,,*5F
06/14/2015	06:02:55.529	$GPGGA,060256,2431.2383,N,08058.0293,W,1,9,2.0,19,M,,M,,*57
06/14/2015	06:02:56.518	$GPGGA,060257,2431.2392,N,08058.0277,W,1,9,2.0,19,M,,M,,*5C
06/14/2015	06:02:57.630	$GPGGA,060258,2431.2397,N,08058.0266,W,1,9,2.0,19,M,,M,,*56
06/14/2015	06:02:58.508	$GPGGA,060259,2431.2406,N,08058.0253,W,1,9,2.0,19,M,,M,,*5E
06/14/2015	06:02:59.632	$GPGGA,060300,2431.2414,N,08058.0237,W,1,9,2.0,19,M,,M,,*52
06/14/2015	06:03:00.598	$GPGGA,060301,2431.2419,N,08058.0224,W,1,9,2.0,19,M,,M,,*5C
06/14/2015	06:03:01.650	$GPGGA,060302,2431.2426,N,08058.0210,W,1,9,2.0,19,M,,M,,*54
06/14/2015	06:03:02.578	$GPGGA,060303,2431.2436,N,08058.0195,W,1,9,2.0,19,M,,M,,*5A
06/14/2015	06:03:03.598	$GPGGA,060304,2431.2443,N,08058.0183,W,1,9,2.0,19,M,,M,,*58
06/14/2015	06:03:04.578	$GPGGA,060305,2431.2448,N,08058.0168,W,1,9,2.0,19,M,,M,,*57
06/14/2015	06:03:05.588	$GPGGA,060306,2431.2455,N,08058.0152,W,1,9,2.0,19,M,,M,,*51
06/14/2015	06:03:06.558	$GPGGA,060307,2431.2462,N,08058.0138,W,1,9,2.0,19,M,,M,,*58
06/14/2015	06:03:07.588	$GPGGA,060308,2431.2472,N,08058.0125,W,1,9,2.0,19,M,,M,,*5A
06/14/2015	06:03:08.567	$GPGGA,060309,2431.2479,N,08058.0110,W,1,9,2.0,19,M,,M,,*56
06/14/2015	06:03:09.547	$GPGGA,060310,2431.2484,N,08058.0092,W,1,9,2.0,19,M,,M,,*57
06/14/2015	06:03:10.567	$GPGGA,060311,2431.2491,N,08058.0079,W,1,9,2.0,19,M,,M,,*57
06/14/2015	06:03:11.587	$GPGGA,060312,2431.2500,N,08058.0068,W,1,8,2.1,18,M,,M,,*5C
06/14/2015	06:03:12.557	$GPGGA,060313,2431.2508,N,08058.0052,W,1,8,2.0,18,M,,M,,*5D
06/14/2015	06:03:13.577	$GPGGA,060314,2431.2513,N,08058.0036,W,1,9,2.0,18,M,,M,,*53
06/14/2015	06:03:14.557	$GPGGA,060315,2431.2520,N,08058.0023,W,1,9,2.0,18,M,,M,,*56
06/14/2015	06:03:15.597	$GPGGA,060316,2431.2529,N,08058.0010,W,1,9,2.0,18,M,,M,,*5C
06/14/2015	06:03:16.557	$GPGGA,060317,2431.2537,N,08057.9995,W,1,9,2.0,18,M,,M,,*50
06/14/2015	06:03:17.537	$GPGGA,060318,2431.2542,N,08057.9980,W,1,9,2.0,18,M,,M,,*59
06/14/2015	06:03:18.547	$GPGGA,060319,2431.2548,N,08057.9966,W,1,9,2.0,18,M,,M,,*5A
06/14/2015	06:03:19.577	$GPGGA,060320,2431.2556,N,08057.9955,W,1,9,2.0,18,M,,M,,*5F
06/14/2015	06:03:20.547	$GPGGA,060321,2431.2563,N,08057.9940,W,1,9,2.0,18,M,,M,,*5C
06/14/2015	06:03:21.526	$GPGGA,060322,2431.2569,N,08057.9923,W,1,9,2.0,18,M,,M,,*50
06/14/2015	06:03:22.538	$GPGGA,060323,2431.2574,N,08057.9912,W,1,9,2.0,18,M,,M,,*5F
06/14/2015	06:03:23.548	$GPGGA,060324,2431.2583,N,08057.9899,W,1,9,2.0,18,M,,M,,*52
06/14/2015	06:03:24.532	$GPGGA,060325,2431.2592,N,08057.9883,W,1,9,2.0,18,M,,M,,*58
06/14/2015	06:03:25.537	$GPGGA,060326,2431.2596,N,08057.9869,W,1,9,2.0,18,M,,M,,*5B
06/14/2015	06:03:26.531	$GPGGA,060327,2431.2603,N,08057.9855,W,1,9,2.0,18,M,,M,,*5A
06/14/2015	06:03:27.533	$GPGGA,060328,2431.2612,N,08057.9841,W,1,9,2.0,18,M,,M,,*50
06/14/2015	06:03:28.537	$GPGGA,060329,2431.2618,N,08057.9829,W,1,9,2.0,18,M,,M,,*55
06/14/2015	06:03:29.547	$GPGGA,060330,2431.2627,N,08057.9814,W,1,9,2.0,18,M,,M,,*5F
06/14/2015	06:03:30.523	$GPGGA,060331,2431.2634,N,08057.9799,W,1,9,2.0,18,M,,M,,*56
06/14/2015	06:03:31.537	$GPGGA,060332,2431.2639,N,08057.9785,W,1,9,2.0,18,M,,M,,*55
06/14/2015	06:03:32.523	$GPGGA,060333,2431.2648,N,08057.9772,W,1,9,2.0,18,M,,M,,*5A
06/14/2015	06:03:33.527	$GPGGA,060334,2431.2657,N,08057.9758,W,1,9,2.0,18,M,,M,,*5B
06/14/2015	06:03:34.524	$GPGGA,060335,2431.2663,N,08057.9742,W,1,9,2.0,18,M,,M,,*56
06/14/2015	06:03:35.547	$GPGGA,060336,2431.2670,N,08057.9728,W,1,9,2.0,18,M,,M,,*5B
06/14/2015	06:03:36.628	$GPGGA,060337,2431.2679,N,08057.9715,W,1,9,2.0,18,M,,M,,*5D
06/14/2015	06:03:37.597	$GPGGA,060338,2431.2686,N,08057.9701,W,1,9,2.0,18,M,,M,,*57
06/14/2015	06:03:38.522	$GPGGA,060339,2431.2693,N,08057.9686,W,1,9,2.2,18,M,,M,,*5E
06/14/2015	06:03:39.624	$GPGGA,060340,2431.2701,N,08057.9669,W,1,9,2.0,18,M,,M,,*59
06/14/2015	06:03:40.508	$GPGGA,060341,2431.2710,N,08057.9655,W,1,9,2.0,18,M,,M,,*57
06/14/2015	06:03:41.588	$GPGGA,060342,2431.2719,N,08057.9643,W,1,9,2.0,18,M,,M,,*5A
06/14/2015	06:03:42.498	$GPGGA,060343,2431.2726,N,08057.9625,W,1,9,2.0,18,M,,M,,*57
06/14/2015	06:03:43.597	$GPGGA,060344,2431.2733,N,08057.9609,W,1,9,2.0,18,M,,M,,*5A
06/14/2015	06:03:44.497	$GPGGA,060345,2431.2742,N,08057.9597,W,1,9,2.0,18,M,,M,,*59
06/14/2015	06:03:45.507	$GPGGA,060346,2431.2751,N,08057.9582,W,1,8,2.2,18,M,,M,,*5F
06/14/2015	06:03:46.497	$GPGGA,060347,2431.2760,N,08057.9567,W,1,8,2.0,18,M,,M,,*55
06/14/2015	06:03:47.507	$GPGGA,060348,2431.2766,N,08057.9552,W,1,9,2.0,18,M,,M,,*5B
06/14/2015	06:03:48.577	$GPGGA,060349,2431.2776,N,08057.9537,W,1,9,2.0,18,M,,M,,*58
06/14/2015	06:03:49.577	$GPGGA,060350,2431.2786,N,08057.9523,W,1,9,2.0,18,M,,M,,*5A
06/14/2015	06:03:50.577	$GPGGA,060351,2431.2793,N,08057.9510,W,1,9,2.0,18,M,,M,,*5F
06/14/2015	06:03:51.577	$GPGGA,060352,2431.2802,N,08057.9495,W,1,9,2.0,18,M,,M,,*57
06/14/2015	06:03:52.567	$GPGGA,060353,2431.2809,N,08057.9480,W,1,9,2.0,18,M,,M,,*59
06/14/2015	06:03:53.597	$GPGGA,060354,2431.2816,N,08057.9465,W,1,9,2.0,18,M,,M,,*5B
06/14/2015	06:03:54.567	$GPGGA,060355,2431.2826,N,08057.9452,W,1,9,2.0,18,M,,M,,*5D
06/14/2015	06:03:55.577	$GPGGA,060356,2431.2831,N,08057.9439,W,1,8,2.2,18,M,,M,,*56
06/14/2015	06:03:56.577	$GPGGA,060357,2431.2840,N,08057.9424,W,1,8,2.0,18,M,,M,,*5F
06/14/2015	06:03:57.568	$GPGGA,060358,2431.2848,N,08057.9410,W,1,9,2.0,18,M,,M,,*5E
06/14/2015	06:03:58.548	$GPGGA,060359,2431.2855,N,08057.9396,W,1,9,2.0,18,M,,M,,*5A
06/14/2015	06:03:59.598	$GPGGA,060400,2431.2863,N,08057.9381,W,1,9,2.0,18,M,,M,,*52
06/14/2015	06:04:00.547	$GPGGA,060401,2431.2872,N,08057.9367,W,1,9,2.0,18,M,,M,,*5B
06/14/2015	06:04:01.577	$GPGGA,060402,2431.2880,N,08057.9353,W,1,9,2.0,18,M,,M,,*52
06/14/2015	06:04:02.547	$GPGGA,060403,2431.2887,N,08057.9337,W,1,9,2.0,18,M,,M,,*56
06/14/2015	06:04:03.577	$GPGGA,060404,2431.2895,N,08057.9323,W,1,9,2.0,18,M,,M,,*57
06/14/2015	06:04:04.547	$GPGGA,060405,2431.2903,N,08057.9309,W,1,9,2.0,18,M,,M,,*50
06/14/2015	06:04:05.567	$GPGGA,060406,2431.2910,N,08057.9293,W,1,9,2.0,18,M,,M,,*53
06/14/2015	06:04:06.547	$GPGGA,060407,2431.2919,N,08057.9277,W,1,9,2.0,18,M,,M,,*51
06/14/2015	06:04:07.577	$GPGGA,060408,2431.2925,N,08057.9263,W,1,9,2.0,18,M,,M,,*54
06/14/2015	06:04:08.537	$GPGGA,060409,2431.2934,N,08057.9250,W,1,9,2.0,19,M,,M,,*54
06/14/2015	06:04:09.567	$GPGGA,060410,2431.2943,N,08057.9235,W,1,9,2.0,19,M,,M,,*5F
06/14/2015	06:04:10.537	$GPGGA,060411,2431.2950,N,08057.9219,W,1,9,2.0,19,M,,M,,*52
06/14/2015	06:04:11.567	$GPGGA,060412,2431.2956,N,08057.9204,W,1,9,2.0,19,M,,M,,*5B
06/14/2015	06:04:12.957	$GPGGA,060413,2431.2964,N,08057.9191,W,1,9,2.0,19,M,,M,,*54
06/14/2015	06:04:13.537	$GPGGA,060414,2431.2975,N,08057.9177,W,1,9,2.0,19,M,,M,,*5B
06/14/2015	06:04:14.528	$GPGGA,060415,2431.2982,N,08057.9160,W,1,9,2.2,19,M,,M,,*56
06/14/2015	06:04:15.528	$GPGGA,060416,2431.2989,N,08057.9142,W,1,9,2.0,19,M,,M,,*5C
06/14/2015	06:04:16.538	$GPGGA,060417,2431.2999,N,08057.9129,W,1,9,2.1,19,M,,M,,*50
06/14/2015	06:04:17.547	$GPGGA,060418,2431.3007,N,08057.9117,W,1,9,2.0,19,M,,M,,*5C
06/14/2015	06:04:18.520	$GPGGA,060419,2431.3015,N,08057.9101,W,1,9,2.0,19,M,,M,,*59
06/14/2015	06:04:19.530	$GPGGA,060420,2431.3022,N,08057.9084,W,1,8,2.2,19,M,,M,,*58
06/14/2015	06:04:20.527	$GPGGA,060421,2431.3032,N,08057.9072,W,1,8,2.0,19,M,,M,,*53
06/14/2015	06:04:21.537	$GPGGA,060422,2431.3040,N,08057.9061,W,1,9,2.0,19,M,,M,,*56
06/14/2015	06:04:22.520	$GPGGA,060423,2431.3050,N,08057.9045,W,1,9,2.0,19,M,,M,,*50
06/14/2015	06:04:23.527	$GPGGA,060424,2431.3057,N,08057.9032,W,1,9,2.0,19,M,,M,,*50
06/14/2015	06:04:24.507	$GPGGA,060425,2431.3065,N,08057.9020,W,1,9,2.0,19,M,,M,,*53
06/14/2015	06:04:25.657	$GPGGA,060426,2431.3073,N,08057.9004,W,1,9,2.0,19,M,,M,,*51
06/14/2015	06:04:26.667	$GPGGA,060427,2431.3080,N,08057.8990,W,1,9,2.0,19,M,,M,,*59
06/14/2015	06:04:27.528	$GPGGA,060428,2431.3087,N,08057.8977,W,1,9,2.0,19,M,,M,,*58
06/14/2015	06:04:28.508	$GPGGA,060429,2431.3094,N,08057.8964,W,1,9,2.2,19,M,,M,,*5B
06/14/2015	06:04:29.507	$GPGGA,060430,2431.3102,N,08057.8950,W,1,9,2.0,19,M,,M,,*58
06/14/2015	06:04:30.487	$GPGGA,060431,2431.3109,N,08057.8934,W,1,9,2.0,19,M,,M,,*50
06/14/2015	06:04:31.658	$GPGGA,060432,2431.3116,N,08057.8920,W,1,9,2.0,19,M,,M,,*58
06/14/2015	06:04:32.508	$GPGGA,060433,2431.3125,N,08057.8909,W,1,9,2.0,19,M,,M,,*52
06/14/2015	06:04:33.621	$GPGGA,060434,2431.3133,N,08057.8895,W,1,9,2.0,19,M,,M,,*56
06/14/2015	06:04:34.488	$GPGGA,060435,2431.3138,N,08057.8878,W,1,9,2.0,19,M,,M,,*5F
06/14/2015	06:04:35.587	$GPGGA,060436,2431.3147,N,08057.8864,W,1,9,2.0,19,M,,M,,*59
06/14/2015	06:04:36.577	$GPGGA,060437,2431.3155,N,08057.8851,W,1,9,2.0,19,M,,M,,*5D
06/14/2015	06:04:37.639	$GPGGA,060438,2431.3163,N,08057.8837,W,1,9,2.0,19,M,,M,,*57
06/14/2015	06:04:38.577	$GPGGA,060439,2431.3169,N,08057.8822,W,1,9,2.0,19,M,,M,,*58
06/14/2015	06:04:39.637	$GPGGA,060440,2431.3177,N,08057.8810,W,1,9,2.0,19,M,,M,,*58
06/14/2015	06:04:40.567	$GPGGA,060441,2431.3185,N,08057.8794,W,1,9,2.2,19,M,,M,,*55
06/14/2015	06:04:41.607	$GPGGA,060442,2431.3191,N,08057.8779,W,1,9,2.0,19,M,,M,,*52
06/14/2015	06:04:42.637	$GPGGA,060443,2431.3199,N,08057.8767,W,1,9,2.0,19,M,,M,,*54
06/14/2015	06:04:43.657	$GPGGA,060444,2431.3208,N,08057.8753,W,1,9,2.0,19,M,,M,,*5F
06/14/2015	06:04:44.557	$GPGGA,060445,2431.3213,N,08057.8738,W,1,9,2.0,19,M,,M,,*59
06/14/2015	06:04:45.597	$GPGGA,060446,2431.3217,N,08057.8725,W,1,9,2.0,19,M,,M,,*52
06/14/2015	06:04:46.630	$GPGGA,060447,2431.3225,N,08057.8711,W,1,9,2.2,20,M,,M,,*5D
06/14/2015	06:04:47.622	$GPGGA,060448,2431.3234,N,08057.8698,W,1,8,2.0,20,M,,M,,*51
06/14/2015	06:04:48.632	$GPGGA,060449,2431.3241,N,08057.8687,W,1,8,2.0,20,M,,M,,*5C
06/14/2015	06:04:49.622	$GPGGA,060450,2431.3246,N,08057.8671,W,1,9,2.0,20,M,,M,,*5B
06/14/2015	06:04:50.629	$GPGGA,060451,2431.3255,N,08057.8656,W,1,9,2.0,20,M,,M,,*5D
06/14/2015	06:04:51.608	$GPGGA,060452,2431.3264,N,08057.8646,W,1,9,2.0,20,M,,M,,*5D
06/14/2015	06:04:52.607	$GPGGA,060453,2431.3273,N,08057.8632,W,1,9,2.0,20,M,,M,,*59
06/14/2015	06:04:53.607	$GPGGA,060454,2431.3278,N,08057.8617,W,1,9,2.0,20,M,,M,,*52
06/14/2015	06:04:54.607	$GPGGA,060455,2431.3285,N,08057.8605,W,1,9,2.0,20,M,,M,,*52
06/14/2015	06:04:55.597	$GPGGA,060456,2431.3295,N,08057.8592,W,1,9,2.0,20,M,,M,,*5D
06/14/2015	06:04:56.607	$GPGGA,060457,2431.3303,N,08057.8577,W,1,9,2.0,20,M,,M,,*59
06/14/2015	06:04:57.587	$GPGGA,060458,2431.3308,N,08057.8564,W,1,9,2.0,20,M,,M,,*5F
06/14/2015	06:04:58.587	$GPGGA,060459,2431.3317,N,08057.8551,W,1,9,2.0,20,M,,M,,*56
06/14/2015	06:04:59.630	$GPGGA,060500,2431.3326,N,08057.8537,W,1,9,2.0,20,M,,M,,*59
06/14/2015	06:05:00.588	$GPGGA,060501,2431.3333,N,08057.8522,W,1,9,2.0,20,M,,M,,*58
06/14/2015	06:05:01.547	$GPGGA,060502,2431.3340,N,08057.8509,W,1,9,2.1,20,M,,M,,*57
06/14/2015	06:05:02.587	$GPGGA,060503,2431.3349,N,08057.8495,W,1,9,2.1,20,M,,M,,*5B
06/14/2015	06:05:03.607	$GPGGA,060504,2431.3357,N,08057.8480,W,1,9,2.0,20,M,,M,,*56
06/14/2015	06:05:04.519	$GPGGA,060505,2431.3365,N,08057.8466,W,1,9,2.0,20,M,,M,,*5E
06/14/2015	06:05:05.567	$GPGGA,060506,2431.3372,N,08057.8451,W,1,9,2.0,20,M,,M,,*5F
06/14/2015	06:05:06.588	$GPGGA,060507,2431.3380,N,08057.8437,W,1,9,2.0,20,M,,M,,*53
06/14/2015	06:05:07.608	$GPGGA,060508,2431.3389,N,08057.8423,W,1,9,2.0,20,M,,M,,*50
06/14/2015	06:05:08.508	$GPGGA,060509,2431.3397,N,08057.8408,W,1,9,2.0,20,M,,M,,*57
06/14/2015	06:05:09.548	$GPGGA,060510,2431.3405,N,08057.8394,W,1,9,2.0,20,M,,M,,*51
06/14/2015	06:05:10.629	$GPGGA,060511,2431.3412,N,08057.8380,W,1,9,2.0,20,M,,M,,*53
06/14/2015	06:05:11.567	$GPGGA,060512,2431.3419,N,08057.8364,W,1,9,2.0,20,M,,M,,*51
06/14/2015	06:05:12.567	$GPGGA,060513,2431.3429,N,08057.8351,W,1,9,2.0,20,M,,M,,*55
06/14/2015	06:05:13.497	$GPGGA,060514,2431.3438,N,08057.8336,W,1,8,2.2,20,M,,M,,*50
06/14/2015	06:05:14.567	$GPGGA,060515,2431.3444,N,08057.8320,W,1,8,2.0,20,M,,M,,*5F
06/14/2015	06:05:15.577	$GPGGA,060516,2431.3452,N,08057.8307,W,1,9,2.0,20,M,,M,,*5F
06/14/2015	06:05:16.620	$GPGGA,060517,2431.3459,N,08057.8293,W,1,9,2.0,20,M,,M,,*59
06/14/2015	06:05:17.520	$GPGGA,060518,2431.3467,N,08057.8278,W,1,9,2.0,20,M,,M,,*5E
06/14/2015	06:05:18.587	$GPGGA,060519,2431.3474,N,08057.8263,W,1,9,2.0,20,M,,M,,*57
06/14/2015	06:05:19.628	$GPGGA,060520,2431.3481,N,08057.8249,W,1,9,2.0,20,M,,M,,*5F
06/14/2015	06:05:20.587	$GPGGA,060521,2431.3491,N,08057.8234,W,1,9,2.0,20,M,,M,,*55
06/14/2015	06:05:21.597	$GPGGA,060522,2431.3498,N,08057.8218,W,1,9,2.0,20,M,,M,,*51
06/14/2015	06:05:22.547	$GPGGA,060523,2431.3503,N,08057.8205,W,1,9,2.0,20,M,,M,,*5F
06/14/2015	06:05:23.597	$GPGGA,060524,2431.3513,N,08057.8191,W,1,9,2.0,20,M,,M,,*57
06/14/2015	06:05:24.588	$GPGGA,060525,2431.3521,N,08057.8174,W,1,9,2.0,20,M,,M,,*5C
06/14/2015	06:05:25.568	$GPGGA,060526,2431.3528,N,08057.8159,W,1,9,2.0,20,M,,M,,*59
06/14/2015	06:05:26.588	$GPGGA,060527,2431.3535,N,08057.8145,W,1,9,2.0,20,M,,M,,*59
06/14/2015	06:05:27.587	$GPGGA,060528,2431.3544,N,08057.8130,W,1,9,2.0,20,M,,M,,*52
06/14/2015	06:05:28.587	$GPGGA,060529,2431.3552,N,08057.8115,W,1,9,2.0,20,M,,M,,*53
06/14/2015	06:05:29.607	$GPGGA,060530,2431.3560,N,08057.8101,W,1,9,2.0,20,M,,M,,*5F
06/14/2015	06:05:30.587	$GPGGA,060531,2431.3568,N,08057.8084,W,1,9,2.0,20,M,,M,,*5A
06/14/2015	06:05:31.597	$GPGGA,060532,2431.3574,N,08057.8069,W,1,9,2.0,20,M,,M,,*57
06/14/2015	06:05:32.557	$GPGGA,060533,2431.3582,N,08057.8055,W,1,9,2.0,20,M,,M,,*50
06/14/2015	06:05:33.567	$GPGGA,060534,2431.3592,N,08057.8040,W,1,9,2.0,20,M,,M,,*52
06/14/2015	06:05:34.567	$GPGGA,060535,2431.3596,N,08057.8023,W,1,9,2.0,20,M,,M,,*52
06/14/2015	06:05:35.618	$GPGGA,060536,2431.3604,N,08057.8008,W,1,9,2.0,20,M,,M,,*50
06/14/2015	06:05:36.567	$GPGGA,060537,2431.3614,N,08057.7994,W,1,9,2.0,20,M,,M,,*53
06/14/2015	06:05:37.557	$GPGGA,060538,2431.3622,N,08057.7979,W,1,9,2.0,21,M,,M,,*5B
06/14/2015	06:05:38.567	$GPGGA,060539,2431.3628,N,08057.7963,W,1,9,2.0,21,M,,M,,*5B
06/14/2015	06:05:39.577	$GPGGA,060540,2431.3635,N,08057.7946,W,1,9,2.0,21,M,,M,,*5E
06/14/2015	06:05:40.567	$GPGGA,060541,2431.3643,N,08057.7932,W,1,9,2.0,21,M,,M,,*5D
06/14/2015	06:05:41.548	$GPGGA,060542,2431.3653,N,08057.7916,W,1,9,2.0,21,M,,M,,*59
06/14/2015	06:05:42.568	$GPGGA,060543,2431.3653,N,08057.7916,W,1,9,2.0,21,M,,M,,*58
06/14/2015	06:05:43.588	$GPGGA,060544,2431.3667,N,08057.7884,W,1,9,2.0,21,M,,M,,*52
06/14/2015	06:05:44.578	$GPGGA,060545,2431.3674,N,08057.7870,W,1,9,2.0,21,M,,M,,*5A
06/14/2015	06:05:45.537	$GPGGA,060546,2431.3683,N,08057.7852,W,1,9,2.0,21,M,,M,,*51
06/14/2015	06:05:46.557	$GPGGA,060547,2431.3690,N,08057.7838,W,1,9,2.0,21,M,,M,,*5E
06/14/2015	06:05:47.587	$GPGGA,060548,2431.3694,N,08057.7825,W,1,9,2.0,21,M,,M,,*59
06/14/2015	06:05:48.557	$GPGGA,060549,2431.3703,N,08057.7808,W,1,9,2.0,21,M,,M,,*58
06/14/2015	06:05:49.537	$GPGGA,060550,2431.3712,N,08057.7794,W,1,9,2.0,21,M,,M,,*5A
06/14/2015	06:05:50.567	$GPGGA,060551,2431.3712,N,08057.7794,W,1,9,2.0,21,M,,M,,*5B
06/14/2015	06:05:51.577	$GPGGA,060552,2431.3723,N,08057.7763,W,1,9,2.2,21,M,,M,,*50
06/14/2015	06:05:52.547	$GPGGA,060553,2431.3732,N,08057.7749,W,1,9,2.0,21,M,,M,,*5B
06/14/2015	06:05:53.522	$GPGGA,060554,2431.3741,N,08057.7736,W,1,9,2.0,21,M,,M,,*50
06/14/2015	06:05:54.532	$GPGGA,060555,2431.3741,N,08057.7736,W,1,9,2.0,21,M,,M,,*51
06/14/2015	06:05:55.567	$GPGGA,060556,2431.3754,N,08057.7704,W,1,8,2.0,21,M,,M,,*56
06/14/2015	06:05:56.632	$GPGGA,060557,2431.3763,N,08057.7689,W,1,8,2.0,21,M,,M,,*57
06/14/2015	06:05:57.607	$GPGGA,060558,2431.3772,N,08057.7674,W,1,9,2.0,21,M,,M,,*5B
06/14/2015	06:05:58.523	$GPGGA,060559,2431.3772,N,08057.7674,W,1,9,2.0,21,M,,M,,*5A
06/14/2015	06:05:59.538	$GPGGA,060600,2431.3786,N,08057.7644,W,1,9,2.0,21,M,,M,,*5D
06/14/2015	06:06:00.548	$GPGGA,060601,2431.3794,N,08057.7629,W,1,9,2.0,21,M,,M,,*54
06/14/2015	06:06:01.498	$GPGGA,060602,2431.3801,N,08057.7615,W,1,9,2.0,21,M,,M,,*5B
06/14/2015	06:06:02.587	$GPGGA,060603,2431.3810,N,08057.7601,W,1,9,2.0,21,M,,M,,*5F
06/14/2015	06:06:03.530	$GPGGA,060604,2431.3817,N,08057.7585,W,1,9,2.0,21,M,,M,,*50
06/14/2015	06:06:04.597	$GPGGA,060605,2431.3824,N,08057.7570,W,1,9,2.0,21,M,,M,,*5B
06/14/2015	06:06:05.497	$GPGGA,060606,2431.3833,N,08057.7556,W,1,9,2.0,21,M,,M,,*5A
06/14/2015	06:06:06.497	$GPGGA,060607,2431.3833,N,08057.7556,W,1,9,2.0,21,M,,M,,*5B
06/14/2015	06:06:07.617	$GPGGA,060608,2431.3846,N,08057.7526,W,1,9,2.0,21,M,,M,,*51
06/14/2015	06:06:08.577	$GPGGA,060609,2431.3855,N,08057.7512,W,1,9,2.0,21,M,,M,,*55
06/14/2015	06:06:09.597	$GPGGA,060610,2431.3864,N,08057.7498,W,1,9,2.0,21,M,,M,,*5C
06/14/2015	06:06:10.587	$GPGGA,060611,2431.3871,N,08057.7482,W,1,9,2.0,21,M,,M,,*52
06/14/2015	06:06:11.598	$GPGGA,060612,2431.3878,N,08057.7468,W,1,9,2.0,21,M,,M,,*5C
06/14/2015	06:06:12.587	$GPGGA,060613,2431.3886,N,08057.7454,W,1,9,2.0,21,M,,M,,*53
06/14/2015	06:06:13.587	$GPGGA,060614,2431.3896,N,08057.7438,W,1,9,2.0,21,M,,M,,*5F
06/14/2015	06:06:14.577	$GPGGA,060615,2431.3904,N,08057.7424,W,1,9,2.0,21,M,,M,,*59
06/14/2015	06:06:15.587	$GPGGA,060616,2431.3913,N,08057.7410,W,1,9,2.0,21,M,,M,,*5B
06/14/2015	06:06:16.578	$GPGGA,060617,2431.3921,N,08057.7394,W,1,9,2.0,21,M,,M,,*50
06/14/2015	06:06:17.558	$GPGGA,060618,2431.3929,N,08057.7380,W,1,9,2.0,21,M,,M,,*52
06/14/2015	06:06:18.558	$GPGGA,060619,2431.3939,N,08057.7367,W,1,9,2.0,21,M,,M,,*5B
06/14/2015	06:06:19.628	$GPGGA,060620,2431.3947,N,08057.7352,W,1,9,2.0,21,M,,M,,*5E
06/14/2015	06:06:20.567	$GPGGA,060621,2431.3954,N,08057.7337,W,1,9,2.0,21,M,,M,,*5E
06/14/2015	06:06:21.577	$GPGGA,060622,2431.3964,N,08057.7323,W,1,9,2.0,21,M,,M,,*5B
06/14/2015	06:06:22.567	$GPGGA,060623,2431.3972,N,08057.7308,W,1,9,2.0,21,M,,M,,*54
06/14/2015	06:06:23.587	$GPGGA,060624,2431.3980,N,08057.7294,W,1,9,2.0,21,M,,M,,*5A
06/14/2015	06:06:24.567	$GPGGA,060625,2431.3990,N,08057.7280,W,1,9,2.0,21,M,,M,,*5F
06/14/2015	06:06:25.567	$GPGGA,060626,2431.3998,N,08057.7265,W,1,9,2.0,21,M,,M,,*5F
06/14/2015	06:06:26.557	$GPGGA,060627,2431.4005,N,08057.7249,W,1,9,2.0,21,M,,M,,*5A
06/14/2015	06:06:27.577	$GPGGA,060628,2431.4016,N,08057.7235,W,1,9,2.0,21,M,,M,,*5C
06/14/2015	06:06:28.557	$GPGGA,060629,2431.4026,N,08057.7221,W,1,9,2.0,21,M,,M,,*5B
06/14/2015	06:06:29.567	$GPGGA,060630,2431.4033,N,08057.7207,W,1,9,2.0,21,M,,M,,*53
06/14/2015	06:06:30.547	$GPGGA,060631,2431.4041,N,08057.7189,W,1,9,2.0,21,M,,M,,*52
06/14/2015	06:06:31.567	$GPGGA,060632,2431.4051,N,08057.7174,W,1,9,2.0,21,M,,M,,*52
06/14/2015	06:06:32.547	$GPGGA,060633,2431.4061,N,08057.7162,W,1,9,2.0,21,M,,M,,*57
06/14/2015	06:06:33.567	$GPGGA,060634,2431.4070,N,08057.7148,W,1,9,2.0,21,M,,M,,*58
06/14/2015	06:06:34.548	$GPGGA,060635,2431.4077,N,08057.7131,W,1,9,2.0,21,M,,M,,*50
06/14/2015	06:06:35.568	$GPGGA,060636,2431.4086,N,08057.7116,W,1,9,2.0,21,M,,M,,*58
06/14/2015	06:06:36.535	$GPGGA,060637,2431.4095,N,08057.7103,W,1,9,2.0,21,M,,M,,*5F
06/14/2015	06:06:37.536	$GPGGA,060638,2431.4105,N,08057.7089,W,1,9,2.0,21,M,,M,,*5B
06/14/2015	06:06:38.534	$GPGGA,060639,2431.4112,N,08057.7073,W,1,9,2.2,21,M,,M,,*5B
06/14/2015	06:06:39.567	$GPGGA,060640,2431.4120,N,08057.7058,W,1,9,2.0,21,M,,M,,*5F
06/14/2015	06:06:40.522	$GPGGA,060641,2431.4128,N,08057.7045,W,1,9,2.0,21,M,,M,,*5A
06/14/2015	06:06:41.539	$GPGGA,060642,2431.4138,N,08057.7031,W,1,9,2.0,21,M,,M,,*5B
06/14/2015	06:06:42.525	$GPGGA,060643,2431.4146,N,08057.7015,W,1,9,2.2,21,M,,M,,*57
06/14/2015	06:06:43.536	$GPGGA,060644,2431.4152,N,08057.7001,W,1,7,2.8,21,M,,M,,*54
06/14/2015	06:06:44.517	$GPGGA,060645,2431.4160,N,08057.6986,W,1,7,2.0,21,M,,M,,*5B
06/14/2015	06:06:45.517	$GPGGA,060646,2431.4169,N,08057.6972,W,1,9,2.0,21,M,,M,,*54
06/14/2015	06:06:46.520	$GPGGA,060647,2431.4177,N,08057.6959,W,1,9,2.0,21,M,,M,,*53
06/14/2015	06:06:47.531	$GPGGA,060648,2431.4185,N,08057.6944,W,1,9,2.0,21,M,,M,,*5D
06/14/2015	06:06:48.507	$GPGGA,060649,2431.4193,N,08057.6928,W,1,9,2.0,21,M,,M,,*51
06/14/2015	06:06:49.497	$GPGGA,060650,2431.4200,N,08057.6915,W,1,9,2.0,21,M,,M,,*5E
06/14/2015	06:06:50.519	$GPGGA,060651,2431.4211,N,08057.6900,W,1,9,2.0,21,M,,M,,*5B
06/14/2015	06:06:51.538	$GPGGA,060652,2431.4218,N,08057.6886,W,1,8,2.2,21,M,,M,,*5D
06/14/2015	06:06:52.519	$GPGGA,060653,2431.4225,N,08057.6870,W,1,8,2.0,21,M,,M,,*59
06/14/2015	06:06:53.588	$GPGGA,060654,2431.4232,N,08057.6854,W,1,9,2.0,21,M,,M,,*5F
06/14/2015	06:06:54.508	$GPGGA,060655,2431.4242,N,08057.6842,W,1,9,2.0,21,M,,M,,*5E
06/14/2015	06:06:55.507	$GPGGA,060656,2431.4249,N,08057.6828,W,1,9,2.0,21,M,,M,,*5A
06/14/2015	06:06:56.587	$GPGGA,060657,2431.4256,N,08057.6811,W,1,9,2.0,21,M,,M,,*5F
06/14/2015	06:06:57.608	$GPGGA,060658,2431.4261,N,08057.6796,W,1,9,2.0,21,M,,M,,*54
06/14/2015	06:06:58.587	$GPGGA,060659,2431.4268,N,08057.6782,W,1,9,2.0,21,M,,M,,*59
06/14/2015	06:06:59.607	$GPGGA,060700,2431.4278,N,08057.6768,W,1,9,2.0,21,M,,M,,*51
06/14/2015	06:07:00.577	$GPGGA,060701,2431.4285,N,08057.6753,W,1,9,2.0,21,M,,M,,*5A
06/14/2015	06:07:01.597	$GPGGA,060702,2431.4290,N,08057.6736,W,1,9,2.0,21,M,,M,,*5E
06/14/2015	06:07:02.567	$GPGGA,060703,2431.4297,N,08057.6723,W,1,9,2.1,21,M,,M,,*5D
06/14/2015	06:07:03.597	$GPGGA,060704,2431.4305,N,08057.6709,W,1,9,2.0,22,M,,M,,*5A
06/14/2015	06:07:04.567	$GPGGA,060705,2431.4314,N,08057.6693,W,1,9,2.0,22,M,,M,,*59
06/14/2015	06:07:05.577	$GPGGA,060706,2431.4318,N,08057.6679,W,1,8,2.2,22,M,,M,,*51
06/14/2015	06:07:06.577	$GPGGA,060707,2431.4323,N,08057.6663,W,1,8,2.0,22,M,,M,,*51
06/14/2015	06:07:07.607	$GPGGA,060708,2431.4332,N,08057.6648,W,1,9,2.0,22,M,,M,,*56
06/14/2015	06:07:08.557	$GPGGA,060709,2431.4341,N,08057.6633,W,1,9,2.0,22,M,,M,,*5F
06/14/2015	06:07:09.578	$GPGGA,060710,2431.4347,N,08057.6615,W,1,8,2.2,22,M,,M,,*56
06/14/2015	06:07:10.548	$GPGGA,060711,2431.4354,N,08057.6599,W,1,8,2.0,22,M,,M,,*50
06/14/2015	06:07:11.558	$GPGGA,060712,2431.4362,N,08057.6586,W,1,8,2.2,22,M,,M,,*5A
06/14/2015	06:07:12.567	$GPGGA,060713,2431.4370,N,08057.6569,W,1,8,2.0,22,M,,M,,*5B
06/14/2015	06:07:13.577	$GPGGA,060714,2431.4375,N,08057.6554,W,1,9,2.0,22,M,,M,,*56
06/14/2015	06:07:14.547	$GPGGA,060715,2431.4383,N,08057.6541,W,1,9,2.0,22,M,,M,,*5A
06/14/2015	06:07:15.587	$GPGGA,060716,2431.4391,N,08057.6524,W,1,9,2.0,22,M,,M,,*59
06/14/2015	06:07:16.557	$GPGGA,060717,2431.4398,N,08057.6509,W,1,9,2.0,23,M,,M,,*5F
06/14/2015	06:07:17.567	$GPGGA,060718,2431.4405,N,08057.6494,W,1,9,2.0,23,M,,M,,*56
06/14/2015	06:07:18.537	$GPGGA,060719,2431.4413,N,08057.6478,W,1,9,2.2,23,M,,M,,*50
06/14/2015	06:07:19.547	$GPGGA,060720,2431.4420,N,08057.6464,W,1,9,2.0,23,M,,M,,*55
06/14/2015	06:07:20.537	$GPGGA,060721,2431.4427,N,08057.6449,W,1,9,2.0,23,M,,M,,*5C
06/14/2015	06:07:21.527	$GPGGA,060722,2431.4435,N,08057.6433,W,1,9,2.0,23,M,,M,,*51
06/14/2015	06:07:22.537	$GPGGA,060723,2431.4444,N,08057.6417,W,1,9,2.0,23,M,,M,,*50
06/14/2015	06:07:23.537	$GPGGA,060724,2431.4452,N,08057.6401,W,1,9,2.0,23,M,,M,,*57
06/14/2015	06:07:24.529	$GPGGA,060725,2431.4460,N,08057.6388,W,1,9,2.2,23,M,,M,,*53
06/14/2015	06:07:25.537	$GPGGA,060726,2431.4467,N,08057.6371,W,1,9,2.0,23,M,,M,,*53
06/14/2015	06:07:26.530	$GPGGA,060727,2431.4474,N,08057.6355,W,1,9,2.0,23,M,,M,,*56
06/14/2015	06:07:27.538	$GPGGA,060728,2431.4485,N,08057.6340,W,1,9,2.0,23,M,,M,,*53
06/14/2015	06:07:28.638	$GPGGA,060729,2431.4493,N,08057.6325,W,1,9,2.0,23,M,,M,,*56
06/14/2015	06:07:29.631	$GPGGA,060730,2431.4500,N,08057.6310,W,1,9,2.0,23,M,,M,,*53
06/14/2015	06:07:30.537	$GPGGA,060731,2431.4510,N,08057.6293,W,1,9,2.0,23,M,,M,,*59
06/14/2015	06:07:31.557	$GPGGA,060732,2431.4520,N,08057.6278,W,1,9,2.0,23,M,,M,,*5C
06/14/2015	06:07:32.518	$GPGGA,060733,2431.4528,N,08057.6265,W,1,9,2.0,23,M,,M,,*59
06/14/2015	06:07:33.522	$GPGGA,060734,2431.4536,N,08057.6248,W,1,9,2.0,23,M,,M,,*5E
06/14/2015	06:07:34.520	$GPGGA,060735,2431.4546,N,08057.6233,W,1,9,2.0,23,M,,M,,*54
06/14/2015	06:07:35.634	$GPGGA,060736,2431.4554,N,08057.6219,W,1,9,2.0,23,M,,M,,*5C
06/14/2015	06:07:36.521	$GPGGA,060737,2431.4564,N,08057.6203,W,1,9,2.0,23,M,,M,,*55
06/14/2015	06:07:37.767	$GPGGA,060738,2431.4572,N,08057.6188,W,1,9,2.0,23,M,,M,,*5D
06/14/2015	06:07:38.597	$GPGGA,060739,2431.4581,N,08057.6175,W,1,9,2.0,23,M,,M,,*52
06/14/2015	06:07:39.627	$GPGGA,060740,2431.4589,N,08057.6159,W,1,9,2.0,23,M,,M,,*5A
06/14/2015	06:07:40.507	$GPGGA,060741,2431.4597,N,08057.6144,W,1,9,2.0,23,M,,M,,*58
06/14/2015	06:07:41.597	$GPGGA,060742,2431.4607,N,08057.6131,W,1,9,2.0,23,M,,M,,*53
06/14/2015	06:07:42.507	$GPGGA,060743,2431.4615,N,08057.6114,W,1,9,2.0,23,M,,M,,*56
06/14/2015	06:07:43.507	$GPGGA,060744,2431.4623,N,08057.6099,W,1,9,2.0,23,M,,M,,*50
06/14/2015	06:07:44.588	$GPGGA,060745,2431.4633,N,08057.6086,W,1,9,2.0,22,M,,M,,*5F
06/14/2015	06:07:45.608	$GPGGA,060746,2431.4641,N,08057.6069,W,1,9,2.0,22,M,,M,,*58
06/14/2015	06:07:46.578	$GPGGA,060747,2431.4650,N,08057.6054,W,1,9,2.0,22,M,,M,,*57
06/14/2015	06:07:47.587	$GPGGA,060748,2431.4658,N,08057.6042,W,1,9,2.0,22,M,,M,,*57
06/14/2015	06:07:48.567	$GPGGA,060749,2431.4666,N,08057.6027,W,1,9,2.0,22,M,,M,,*58
06/14/2015	06:07:49.587	$GPGGA,060750,2431.4675,N,08057.6009,W,1,9,2.0,22,M,,M,,*5E
06/14/2015	06:07:50.567	$GPGGA,060751,2431.4683,N,08057.5997,W,1,9,2.0,22,M,,M,,*5B
06/14/2015	06:07:51.637	$GPGGA,060752,2431.4691,N,08057.5985,W,1,9,2.0,22,M,,M,,*58
06/14/2015	06:07:52.567	$GPGGA,060753,2431.4699,N,08057.5968,W,1,9,2.0,22,M,,M,,*52
06/14/2015	06:07:53.577	$GPGGA,060754,2431.4706,N,08057.5954,W,1,9,2.0,22,M,,M,,*5D
06/14/2015	06:07:54.847	$GPGGA,060755,2431.4715,N,08057.5941,W,1,9,2.0,22,M,,M,,*5A
06/14/2015	06:07:55.597	$GPGGA,060756,2431.4724,N,08057.5927,W,1,9,2.0,22,M,,M,,*5B
06/14/2015	06:07:56.557	$GPGGA,060757,2431.4731,N,08057.5911,W,1,9,2.0,22,M,,M,,*5B
06/14/2015	06:07:57.577	$GPGGA,060758,2431.4738,N,08057.5896,W,1,7,2.8,22,M,,M,,*55
06/14/2015	06:07:58.567	$GPGGA,060759,2431.4745,N,08057.5880,W,1,7,2.0,21,M,,M,,*52
06/14/2015	06:07:59.597	$GPGGA,060800,2431.4753,N,08057.5866,W,1,9,2.0,21,M,,M,,*50
06/14/2015	06:08:00.547	$GPGGA,060801,2431.4760,N,08057.5851,W,1,9,2.0,21,M,,M,,*55
06/14/2015	06:08:01.578	$GPGGA,060802,2431.4769,N,08057.5837,W,1,8,2.2,21,M,,M,,*5C
06/14/2015	06:08:02.558	$GPGGA,060803,2431.4776,N,08057.5823,W,1,8,2.0,21,M,,M,,*54
06/14/2015	06:08:03.598	$GPGGA,060804,2431.4784,N,08057.5807,W,1,9,2.0,21,M,,M,,*59
06/14/2015	06:08:04.548	$GPGGA,060805,2431.4792,N,08057.5793,W,1,9,2.0,21,M,,M,,*5D
06/14/2015	06:08:05.577	$GPGGA,060806,2431.4800,N,08057.5778,W,1,9,2.0,21,M,,M,,*5F
06/14/2015	06:08:06.547	$GPGGA,060807,2431.4807,N,08057.5761,W,1,9,2.2,20,M,,M,,*52
06/14/2015	06:08:07.577	$GPGGA,060808,2431.4814,N,08057.5746,W,1,9,2.0,20,M,,M,,*58
06/14/2015	06:08:08.547	$GPGGA,060809,2431.4824,N,08057.5731,W,1,9,2.0,20,M,,M,,*5A
06/14/2015	06:08:09.577	$GPGGA,060810,2431.4831,N,08057.5718,W,1,9,2.0,20,M,,M,,*5D
06/14/2015	06:08:10.531	$GPGGA,060811,2431.4836,N,08057.5704,W,1,9,2.0,20,M,,M,,*56
06/14/2015	06:08:11.547	$GPGGA,060812,2431.4843,N,08057.5687,W,1,9,2.0,20,M,,M,,*5D
06/14/2015	06:08:12.538	$GPGGA,060813,2431.4852,N,08057.5673,W,1,9,2.0,20,M,,M,,*57
06/14/2015	06:08:13.547	$GPGGA,060814,2431.4861,N,08057.5657,W,1,8,2.2,20,M,,M,,*55
06/14/2015	06:08:14.537	$GPGGA,060815,2431.4868,N,08057.5643,W,1,8,2.0,20,M,,M,,*5A
06/14/2015	06:08:15.577	$GPGGA,060816,2431.4875,N,08057.5628,W,1,9,2.0,20,M,,M,,*59
06/14/2015	06:08:16.527	$GPGGA,060817,2431.4882,N,08057.5611,W,1,9,2.0,19,M,,M,,*50
06/14/2015	06:08:17.537	$GPGGA,060818,2431.4890,N,08057.5599,W,1,9,2.0,19,M,,M,,*5F
06/14/2015	06:08:18.520	$GPGGA,060819,2431.4897,N,08057.5585,W,1,9,2.0,19,M,,M,,*54
06/14/2015	06:08:19.528	$GPGGA,060820,2431.4904,N,08057.5568,W,1,9,2.0,19,M,,M,,*56
06/14/2015	06:08:20.629	$GPGGA,060821,2431.4911,N,08057.5555,W,1,9,2.0,19,M,,M,,*5D
06/14/2015	06:08:21.638	$GPGGA,060822,2431.4919,N,08057.5540,W,1,9,2.0,19,M,,M,,*52
06/14/2015	06:08:22.523	$GPGGA,060823,2431.4925,N,08057.5526,W,1,9,2.0,19,M,,M,,*5C
06/14/2015	06:08:23.639	$GPGGA,060824,2431.4933,N,08057.5514,W,1,9,2.0,19,M,,M,,*5D
06/14/2015	06:08:24.528	$GPGGA,060825,2431.4939,N,08057.5497,W,1,9,2.0,19,M,,M,,*5C
06/14/2015	06:08:25.497	$GPGGA,060826,2431.4946,N,08057.5482,W,1,9,2.0,19,M,,M,,*53
06/14/2015	06:08:26.597	$GPGGA,060827,2431.4954,N,08057.5469,W,1,9,2.0,19,M,,M,,*54
06/14/2015	06:08:27.647	$GPGGA,060828,2431.4961,N,08057.5454,W,1,9,2.0,19,M,,M,,*53
06/14/2015	06:08:28.507	$GPGGA,060829,2431.4966,N,08057.5440,W,1,9,2.0,19,M,,M,,*50
06/14/2015	06:08:29.632	$GPGGA,060830,2431.4975,N,08057.5424,W,1,9,2.0,19,M,,M,,*58
06/14/2015	06:08:30.507	$GPGGA,060831,2431.4982,N,08057.5411,W,1,9,2.2,19,M,,M,,*55
06/14/2015	06:08:31.597	$GPGGA,060832,2431.4987,N,08057.5397,W,1,9,2.0,19,M,,M,,*58
06/14/2015	06:08:32.497	$GPGGA,060833,2431.4994,N,08057.5382,W,1,9,2.0,19,M,,M,,*5F
06/14/2015	06:08:33.623	$GPGGA,060834,2431.5001,N,08057.5368,W,1,9,2.0,20,M,,M,,*52
06/14/2015	06:08:34.577	$GPGGA,060835,2431.5009,N,08057.5354,W,1,9,2.0,20,M,,M,,*54
06/14/2015	06:08:35.597	$GPGGA,060836,2431.5016,N,08057.5338,W,1,9,2.0,20,M,,M,,*53
06/14/2015	06:08:36.578	$GPGGA,060837,2431.5023,N,08057.5323,W,1,9,2.0,20,M,,M,,*5E
06/14/2015	06:08:37.621	$GPGGA,060838,2431.5031,N,08057.5307,W,1,9,2.0,20,M,,M,,*54
06/14/2015	06:08:38.578	$GPGGA,060839,2431.5041,N,08057.5293,W,1,9,2.0,20,M,,M,,*5E
06/14/2015	06:08:39.608	$GPGGA,060840,2431.5049,N,08057.5277,W,1,8,2.2,20,M,,M,,*51
06/14/2015	06:08:40.587	$GPGGA,060841,2431.5056,N,08057.5258,W,1,8,2.2,20,M,,M,,*53
06/14/2015	06:08:41.567	$GPGGA,060842,2431.5066,N,08057.5244,W,1,9,2.0,20,M,,M,,*5D
06/14/2015	06:08:42.567	$GPGGA,060843,2431.5074,N,08057.5231,W,1,9,2.0,21,M,,M,,*5C
06/14/2015	06:08:43.598	$GPGGA,060844,2431.5083,N,08057.5214,W,1,8,2.2,21,M,,M,,*57
06/14/2015	06:08:44.557	$GPGGA,060845,2431.5092,N,08057.5199,W,1,8,2.0,21,M,,M,,*52
06/14/2015	06:08:45.577	$GPGGA,060846,2431.5100,N,08057.5185,W,1,9,2.0,21,M,,M,,*57
06/14/2015	06:08:46.557	$GPGGA,060847,2431.5109,N,08057.5170,W,1,9,2.0,21,M,,M,,*55
06/14/2015	06:08:47.597	$GPGGA,060848,2431.5117,N,08057.5154,W,1,9,2.0,21,M,,M,,*53
06/14/2015	06:08:48.547	$GPGGA,060849,2431.5127,N,08057.5140,W,1,9,2.0,21,M,,M,,*54
06/14/2015	06:08:49.557	$GPGGA,060850,2431.5135,N,08057.5125,W,1,9,2.0,21,M,,M,,*5C
06/14/2015	06:08:50.557	$GPGGA,060851,2431.5143,N,08057.5110,W,1,9,2.0,20,M,,M,,*5B
06/14/2015	06:08:51.547	$GPGGA,060852,2431.5154,N,08057.5094,W,1,9,2.0,20,M,,M,,*53
06/14/2015	06:08:52.547	$GPGGA,060853,2431.5161,N,08057.5079,W,1,9,2.0,20,M,,M,,*57
06/14/2015	06:08:53.537	$GPGGA,060854,2431.5171,N,08057.5066,W,1,9,2.0,20,M,,M,,*5F
06/14/2015	06:08:54.538	$GPGGA,060855,2431.5181,N,08057.5052,W,1,9,2.0,20,M,,M,,*56
06/14/2015	06:08:55.578	$GPGGA,060856,2431.5188,N,08057.5035,W,1,9,2.0,20,M,,M,,*5D
06/14/2015	06:08:56.538	$GPGGA,060857,2431.5197,N,08057.5022,W,1,9,2.0,20,M,,M,,*54
06/14/2015	06:08:57.531	$GPGGA,060858,2431.5207,N,08057.5008,W,1,9,2.0,20,M,,M,,*59
06/14/2015	06:08:58.537	$GPGGA,060859,2431.5215,N,08057.4993,W,1,9,2.0,20,M,,M,,*51
06/14/2015	06:08:59.567	$GPGGA,060900,2431.5222,N,08057.4979,W,1,9,2.0,20,M,,M,,*5C
06/14/2015	06:09:00.537	$GPGGA,060901,2431.5232,N,08057.4964,W,1,9,2.0,20,M,,M,,*50
06/14/2015	06:09:01.567	$GPGGA,060902,2431.5240,N,08057.4948,W,1,9,2.0,20,M,,M,,*58
06/14/2015	06:09:02.534	$GPGGA,060903,2431.5250,N,08057.4935,W,1,9,2.0,20,M,,M,,*52
06/14/2015	06:09:03.667	$GPGGA,060904,2431.5258,N,08057.4921,W,1,9,2.0,20,M,,M,,*58
06/14/2015	06:09:04.523	$GPGGA,060905,2431.5266,N,08057.4904,W,1,9,2.0,20,M,,M,,*53
06/14/2015	06:09:05.637	$GPGGA,060906,2431.5275,N,08057.4889,W,1,9,2.2,20,M,,M,,*54
06/14/2015	06:09:06.526	$GPGGA,060907,2431.5284,N,08057.4876,W,1,9,2.2,20,M,,M,,*5B
06/14/2015	06:09:07.827	$GPGGA,060908,2431.5293,N,08057.4861,W,1,9,2.0,20,M,,M,,*56
06/14/2015	06:09:08.497	$GPGGA,060909,2431.5298,N,08057.4846,W,1,9,2.0,20,M,,M,,*59
06/14/2015	06:09:09.497	$GPGGA,060910,2431.5307,N,08057.4830,W,1,9,2.0,20,M,,M,,*57
06/14/2015	06:09:10.512	$GPGGA,060911,2431.5316,N,08057.4817,W,1,9,2.0,20,M,,M,,*53
06/14/2015	06:09:11.527	$GPGGA,060912,2431.5323,N,08057.4803,W,1,9,2.0,20,M,,M,,*53
06/14/2015	06:09:12.487	$GPGGA,060913,2431.5331,N,08057.4786,W,1,9,2.0,20,M,,M,,*53
06/14/2015	06:09:13.615	$GPGGA,060914,2431.5338,N,08057.4771,W,1,9,2.0,20,M,,M,,*55
06/14/2015	06:09:14.597	$GPGGA,060915,2431.5348,N,08057.4758,W,1,9,2.2,20,M,,M,,*5A
06/14/2015	06:09:15.496	$GPGGA,060916,2431.5356,N,08057.4742,W,1,8,2.2,20,M,,M,,*5C
06/14/2015	06:09:16.576	$GPGGA,060917,2431.5365,N,08057.4725,W,1,8,2.0,20,M,,M,,*5E
06/14/2015	06:09:17.607	$GPGGA,060918,2431.5372,N,08057.4710,W,1,9,2.0,20,M,,M,,*50
06/14/2015	06:09:18.586	$GPGGA,060919,2431.5378,N,08057.4696,W,1,9,2.0,20,M,,M,,*54
06/14/2015	06:09:19.636	$GPGGA,060920,2431.5388,N,08057.4681,W,1,9,2.0,20,M,,M,,*57
06/14/2015	06:09:20.576	$GPGGA,060921,2431.5396,N,08057.4666,W,1,9,2.2,20,M,,M,,*52
06/14/2015	06:09:21.476	$GPGGA,060922,2431.5405,N,08057.4650,W,1,8,2.2,20,M,,M,,*58
06/14/2015	06:09:22.567	$GPGGA,060923,2431.5412,N,08057.4634,W,1,8,2.0,20,M,,M,,*5F
06/14/2015	06:09:23.630	$GPGGA,060924,2431.5421,N,08057.4621,W,1,9,2.0,20,M,,M,,*5D
06/14/2015	06:09:24.637	$GPGGA,060925,2431.5430,N,08057.4605,W,1,9,2.0,20,M,,M,,*5A
06/14/2015	06:09:25.597	$GPGGA,060926,2431.5436,N,08057.4588,W,1,9,2.0,20,M,,M,,*59
06/14/2015	06:09:26.567	$GPGGA,060927,2431.5445,N,08057.4572,W,1,9,2.0,20,M,,M,,*59
06/14/2015	06:09:27.587	$GPGGA,060928,2431.5453,N,08057.4559,W,1,9,2.0,20,M,,M,,*58
06/14/2015	06:09:28.557	$GPGGA,060929,2431.5461,N,08057.4544,W,1,9,2.3,20,M,,M,,*57
06/14/2015	06:09:29.577	$GPGGA,060930,2431.5470,N,08057.4527,W,1,8,2.0,20,M,,M,,*58
06/14/2015	06:09:30.557	$GPGGA,060931,2431.5478,N,08057.4512,W,1,8,2.0,19,M,,M,,*5D
06/14/2015	06:09:31.617	$GPGGA,060932,2431.5485,N,08057.4499,W,1,9,2.0,19,M,,M,,*5F
06/14/2015	06:09:32.556	$GPGGA,060933,2431.5493,N,08057.4483,W,1,9,2.0,19,M,,M,,*52
06/14/2015	06:09:33.566	$GPGGA,060934,2431.5500,N,08057.4467,W,1,9,2.2,19,M,,M,,*56
06/14/2015	06:09:34.556	$GPGGA,060935,2431.5507,N,08057.4453,W,1,9,2.0,19,M,,M,,*55
06/14/2015	06:09:35.624	$GPGGA,060936,2431.5511,N,08057.4438,W,1,9,2.0,19,M,,M,,*5C
06/14/2015	06:09:36.536	$GPGGA,060937,2431.5518,N,08057.4426,W,1,9,2.0,19,M,,M,,*5B
06/14/2015	06:09:37.586	$GPGGA,060938,2431.5526,N,08057.4411,W,1,9,2.0,19,M,,M,,*5D
06/14/2015	06:09:38.546	$GPGGA,060939,2431.5533,N,08057.4396,W,1,9,2.0,19,M,,M,,*50
06/14/2015	06:09:39.587	$GPGGA,060940,2431.5540,N,08057.4382,W,1,9,2.0,19,M,,M,,*5F
06/14/2015	06:09:40.547	$GPGGA,060941,2431.5547,N,08057.4369,W,1,9,2.0,19,M,,M,,*5C
06/14/2015	06:09:41.527	$GPGGA,060942,2431.5555,N,08057.4352,W,1,9,2.0,19,M,,M,,*54
06/14/2015	06:09:42.537	$GPGGA,060943,2431.5562,N,08057.4338,W,1,9,2.0,19,M,,M,,*5D
06/14/2015	06:09:43.567	$GPGGA,060944,2431.5569,N,08057.4327,W,1,9,2.0,19,M,,M,,*5F
06/14/2015	06:09:44.537	$GPGGA,060945,2431.5578,N,08057.4309,W,1,9,2.2,19,M,,M,,*50
06/14/2015	06:09:45.567	$GPGGA,060946,2431.5584,N,08057.4294,W,1,8,2.0,19,M,,M,,*56
06/14/2015	06:09:46.527	$GPGGA,060947,2431.5591,N,08057.4282,W,1,8,2.0,19,M,,M,,*54
06/14/2015	06:09:47.547	$GPGGA,060948,2431.5600,N,08057.4267,W,1,9,2.2,19,M,,M,,*58
06/14/2015	06:09:48.527	$GPGGA,060949,2431.5608,N,08057.4252,W,1,9,2.2,19,M,,M,,*57
06/14/2015	06:09:49.547	$GPGGA,060950,2431.5615,N,08057.4239,W,1,8,2.0,19,M,,M,,*5D
06/14/2015	06:09:51.086	$GPGGA,060951,2431.5623,N,08057.4223,W,1,8,2.0,19,M,,M,,*52
06/14/2015	06:09:51.636	$GPGGA,060952,2431.5630,N,08057.4209,W,1,9,2.0,19,M,,M,,*5A
06/14/2015	06:09:52.536	$GPGGA,060953,2431.5637,N,08057.4198,W,1,9,2.0,19,M,,M,,*57
06/14/2015	06:09:53.536	$GPGGA,060954,2431.5645,N,08057.4182,W,1,9,2.2,19,M,,M,,*5C
06/14/2015	06:09:54.536	$GPGGA,060955,2431.5652,N,08057.4166,W,1,9,2.0,19,M,,M,,*53
06/14/2015	06:09:55.536	$GPGGA,060956,2431.5659,N,08057.4155,W,1,9,2.0,19,M,,M,,*5B
06/14/2015	06:09:56.511	$GPGGA,060957,2431.5667,N,08057.4145,W,1,9,2.0,19,M,,M,,*56
06/14/2015	06:09:57.527	$GPGGA,060958,2431.5674,N,08057.4129,W,1,9,2.0,19,M,,M,,*51
06/14/2015	06:09:58.517	$GPGGA,060959,2431.5680,N,08057.4114,W,1,9,2.0,20,M,,M,,*5F
06/14/2015	06:09:59.667	$GPGGA,061000,2431.5688,N,08057.4104,W,1,9,2.0,20,M,,M,,*52
06/14/2015	06:10:00.607	$GPGGA,061001,2431.5698,N,08057.4091,W,1,9,2.2,20,M,,M,,*5D
06/14/2015	06:10:01.597	$GPGGA,061002,2431.5703,N,08057.4075,W,1,8,2.0,20,M,,M,,*54
06/14/2015	06:10:02.518	$GPGGA,061003,2431.5710,N,08057.4062,W,1,8,2.0,20,M,,M,,*51
06/14/2015	06:10:03.597	$GPGGA,061004,2431.5719,N,08057.4049,W,1,9,2.0,20,M,,M,,*57
06/14/2015	06:10:04.517	$GPGGA,061005,2431.5727,N,08057.4036,W,1,9,2.0,20,M,,M,,*53
06/14/2015	06:10:05.621	$GPGGA,061006,2431.5735,N,08057.4023,W,1,9,2.0,20,M,,M,,*57
06/14/2015	06:10:06.577	$GPGGA,061007,2431.5742,N,08057.4009,W,1,9,2.0,20,M,,M,,*5E
06/14/2015	06:10:07.616	$GPGGA,061008,2431.5749,N,08057.3994,W,1,9,2.0,20,M,,M,,*50
06/14/2015	06:10:08.566	$GPGGA,061009,2431.5757,N,08057.3981,W,1,9,2.0,20,M,,M,,*5A
06/14/2015	06:10:09.596	$GPGGA,061010,2431.5766,N,08057.3968,W,1,9,2.0,20,M,,M,,*57
06/14/2015	06:10:10.566	$GPGGA,061011,2431.5773,N,08057.3953,W,1,9,2.0,20,M,,M,,*5A
06/14/2015	06:10:11.598	$GPGGA,061012,2431.5782,N,08057.3937,W,1,9,2.0,21,M,,M,,*54
06/14/2015	06:10:12.566	$GPGGA,061013,2431.5790,N,08057.3923,W,1,9,2.2,21,M,,M,,*51
06/14/2015	06:10:13.577	$GPGGA,061014,2431.5799,N,08057.3910,W,1,8,2.0,21,M,,M,,*5C
06/14/2015	06:10:14.557	$GPGGA,061015,2431.5807,N,08057.3895,W,1,8,2.0,21,M,,M,,*59
06/14/2015	06:10:15.611	$GPGGA,061016,2431.5817,N,08057.3879,W,1,9,2.0,21,M,,M,,*58
06/14/2015	06:10:16.557	$GPGGA,061017,2431.5824,N,08057.3865,W,1,9,2.0,21,M,,M,,*54
06/14/2015	06:10:17.577	$GPGGA,061018,2431.5831,N,08057.3853,W,1,9,2.0,21,M,,M,,*5A
06/14/2015	06:10:18.547	$GPGGA,061019,2431.5840,N,08057.3838,W,1,9,2.0,21,M,,M,,*50
06/14/2015	06:10:19.557	$GPGGA,061020,2431.5847,N,08057.3823,W,1,9,2.0,21,M,,M,,*57
06/14/2015	06:10:20.557	$GPGGA,061021,2431.5854,N,08057.3811,W,1,9,2.0,21,M,,M,,*55
06/14/2015	06:10:21.547	$GPGGA,061022,2431.5862,N,08057.3797,W,1,9,2.0,21,M,,M,,*52
06/14/2015	06:10:22.557	$GPGGA,061023,2431.5871,N,08057.3783,W,1,9,2.0,21,M,,M,,*54
06/14/2015	06:10:23.577	$GPGGA,061024,2431.5878,N,08057.3769,W,1,9,2.0,21,M,,M,,*5E
06/14/2015	06:10:24.547	$GPGGA,061025,2431.5886,N,08057.3754,W,1,9,2.0,21,M,,M,,*50
06/14/2015	06:10:25.536	$GPGGA,061026,2431.5894,N,08057.3741,W,1,9,2.0,21,M,,M,,*54
06/14/2015	06:10:26.546	$GPGGA,061027,2431.5901,N,08057.3727,W,1,9,2.0,21,M,,M,,*58
06/14/2015	06:10:27.556	$GPGGA,061028,2431.5909,N,08057.3711,W,1,9,2.0,21,M,,M,,*5A
06/14/2015	06:10:28.526	$GPGGA,061029,2431.5916,N,08057.3695,W,1,9,2.0,21,M,,M,,*58
06/14/2015	06:10:29.566	$GPGGA,061030,2431.5923,N,08057.3684,W,1,9,2.0,21,M,,M,,*56
06/14/2015	06:10:30.526	$GPGGA,061031,2431.5932,N,08057.3670,W,1,9,2.0,21,M,,M,,*5C
06/14/2015	06:10:31.556	$GPGGA,061032,2431.5938,N,08057.3652,W,1,9,2.0,21,M,,M,,*55
06/14/2015	06:10:32.519	$GPGGA,061033,2431.5945,N,08057.3641,W,1,9,2.0,21,M,,M,,*5C
06/14/2015	06:10:33.557	$GPGGA,061034,2431.5954,N,08057.3629,W,1,9,2.0,21,M,,M,,*55
06/14/2015	06:10:34.527	$GPGGA,061035,2431.5963,N,08057.3613,W,1,9,2.0,21,M,,M,,*59
06/14/2015	06:10:35.537	$GPGGA,061036,2431.5969,N,08057.3601,W,1,9,2.0,21,M,,M,,*53
06/14/2015	06:10:36.513	$GPGGA,061037,2431.5976,N,08057.3587,W,1,9,2.0,21,M,,M,,*51
06/14/2015	06:10:37.520	$GPGGA,061038,2431.5983,N,08057.3572,W,1,9,2.0,21,M,,M,,*5E
06/14/2015	06:10:38.527	$GPGGA,061039,2431.5990,N,08057.3560,W,1,9,2.2,21,M,,M,,*5C
06/14/2015	06:10:39.527	$GPGGA,061040,2431.5998,N,08057.3545,W,1,9,2.0,21,M,,M,,*5F
06/14/2015	06:10:40.519	$GPGGA,061041,2431.6003,N,08057.3530,W,1,9,2.9,21,M,,M,,*5D
06/14/2015	06:10:41.537	$GPGGA,061042,2431.6010,N,08057.3517,W,1,9,2.0,21,M,,M,,*50
06/14/2015	06:10:42.506	$GPGGA,061043,2431.6021,N,08057.3504,W,1,9,2.0,21,M,,M,,*51
06/14/2015	06:10:43.517	$GPGGA,061044,2431.6027,N,08057.3489,W,1,8,2.2,21,M,,M,,*57
06/14/2015	06:10:44.511	$GPGGA,061045,2431.6032,N,08057.3475,W,1,8,2.2,21,M,,M,,*51
06/14/2015	06:10:45.496	$GPGGA,061046,2431.6041,N,08057.3461,W,1,9,2.0,21,M,,M,,*50
06/14/2015	06:10:46.586	$GPGGA,061047,2431.6049,N,08057.3446,W,1,9,2.0,21,M,,M,,*5C
06/14/2015	06:10:47.621	$GPGGA,061048,2431.6057,N,08057.3432,W,1,9,2.0,21,M,,M,,*5F
06/14/2015	06:10:48.496	$GPGGA,061049,2431.6064,N,08057.3416,W,1,9,2.2,21,M,,M,,*5A
06/14/2015	06:10:49.521	$GPGGA,061050,2431.6071,N,08057.3402,W,1,8,2.2,21,M,,M,,*52
06/14/2015	06:10:50.487	$GPGGA,061051,2431.6079,N,08057.3389,W,1,8,2.0,21,M,,M,,*5D
06/14/2015	06:10:51.619	$GPGGA,061052,2431.6088,N,08057.3373,W,1,8,2.2,21,M,,M,,*57
06/14/2015	06:10:52.497	$GPGGA,061053,2431.6093,N,08057.3358,W,1,8,2.2,21,M,,M,,*55
06/14/2015	06:10:53.487	$GPGGA,061054,2431.6103,N,08057.3344,W,1,9,2.0,21,M,,M,,*54
06/14/2015	06:10:54.577	$GPGGA,061055,2431.6111,N,08057.3330,W,1,9,2.2,21,M,,M,,*57
06/14/2015	06:10:55.587	$GPGGA,061056,2431.6117,N,08057.3315,W,1,9,2.0,21,M,,M,,*57
06/14/2015	06:10:56.587	$GPGGA,061057,2431.6125,N,08057.3299,W,1,9,2.0,21,M,,M,,*52
06/14/2015	06:10:57.567	$GPGGA,061058,2431.6133,N,08057.3287,W,1,8,2.2,21,M,,M,,*56
06/14/2015	06:10:58.567	$GPGGA,061059,2431.6142,N,08057.3270,W,1,8,2.0,21,M,,M,,*5B
06/14/2015	06:10:59.618	$GPGGA,061100,2431.6149,N,08057.3254,W,1,9,2.0,21,M,,M,,*5A
06/14/2015	06:11:00.556	$GPGGA,061101,2431.6157,N,08057.3241,W,1,9,2.0,21,M,,M,,*50
06/14/2015	06:11:01.586	$GPGGA,061102,2431.6165,N,08057.3227,W,1,9,2.0,21,M,,M,,*52
06/14/2015	06:11:02.566	$GPGGA,061103,2431.6174,N,08057.3210,W,1,9,2.0,21,M,,M,,*57
06/14/2015	06:11:03.596	$GPGGA,061104,2431.6180,N,08057.3196,W,1,9,2.0,21,M,,M,,*56
06/14/2015	06:11:04.566	$GPGGA,061105,2431.6190,N,08057.3182,W,1,9,2.0,21,M,,M,,*53
06/14/2015	06:11:05.577	$GPGGA,061106,2431.6197,N,08057.3166,W,1,9,2.0,21,M,,M,,*5D
06/14/2015	06:11:06.557	$GPGGA,061107,2431.6204,N,08057.3151,W,1,9,2.0,21,M,,M,,*51
06/14/2015	06:11:07.587	$GPGGA,061108,2431.6214,N,08057.3136,W,1,9,2.0,21,M,,M,,*5E
06/14/2015	06:11:08.557	$GPGGA,061109,2431.6222,N,08057.3120,W,1,9,2.0,21,M,,M,,*5D
06/14/2015	06:11:09.567	$GPGGA,061110,2431.6229,N,08057.3105,W,1,8,2.2,21,M,,M,,*5A
06/14/2015	06:11:10.557	$GPGGA,061111,2431.6237,N,08057.3090,W,1,8,2.0,21,M,,M,,*5B
06/14/2015	06:11:11.577	$GPGGA,061112,2431.6245,N,08057.3074,W,1,9,2.0,21,M,,M,,*56
06/14/2015	06:11:12.547	$GPGGA,061113,2431.6254,N,08057.3060,W,1,9,2.0,21,M,,M,,*52
06/14/2015	06:11:13.567	$GPGGA,061114,2431.6263,N,08057.3044,W,1,9,2.0,21,M,,M,,*57
06/14/2015	06:11:14.547	$GPGGA,061115,2431.6270,N,08057.3029,W,1,9,2.0,21,M,,M,,*5F
06/14/2015	06:11:15.537	$GPGGA,061116,2431.6277,N,08057.3013,W,1,9,2.0,21,M,,M,,*52
06/14/2015	06:11:16.537	$GPGGA,061117,2431.6287,N,08057.2999,W,1,9,2.0,21,M,,M,,*56
06/14/2015	06:11:17.526	$GPGGA,061118,2431.6295,N,08057.2983,W,1,9,2.0,22,M,,M,,*52
06/14/2015	06:11:18.536	$GPGGA,061119,2431.6301,N,08057.2968,W,1,9,2.0,22,M,,M,,*5A
06/14/2015	06:11:19.556	$GPGGA,061120,2431.6310,N,08057.2953,W,1,9,2.0,22,M,,M,,*58
06/14/2015	06:11:20.536	$GPGGA,061121,2431.6321,N,08057.2939,W,1,9,2.0,22,M,,M,,*57
06/14/2015	06:11:21.518	$GPGGA,061122,2431.6328,N,08057.2923,W,1,9,2.0,22,M,,M,,*56
06/14/2015	06:11:22.536	$GPGGA,061123,2431.6335,N,08057.2905,W,1,9,2.0,22,M,,M,,*5F
06/14/2015	06:11:23.566	$GPGGA,061124,2431.6346,N,08057.2891,W,1,9,2.0,22,M,,M,,*50
06/14/2015	06:11:24.522	$GPGGA,061125,2431.6356,N,08057.2882,W,1,9,2.2,22,M,,M,,*50
06/14/2015	06:11:25.547	$GPGGA,061126,2431.6364,N,08057.2865,W,1,9,2.0,22,M,,M,,*59
06/14/2015	06:11:26.519	$GPGGA,061127,2431.6368,N,08057.2848,W,1,9,2.0,22,M,,M,,*5B
06/14/2015	06:11:27.537	$GPGGA,061128,2431.6377,N,08057.2836,W,1,9,2.0,22,M,,M,,*53
06/14/2015	06:11:28.510	$GPGGA,061129,2431.6388,N,08057.2823,W,1,9,2.0,22,M,,M,,*56
06/14/2015	06:11:29.498	$GPGGA,061130,2431.6393,N,08057.2809,W,1,8,2.2,22,M,,M,,*5F
06/14/2015	06:11:30.517	$GPGGA,061131,2431.6400,N,08057.2794,W,1,8,2.0,23,M,,M,,*5B
06/14/2015	06:11:31.627	$GPGGA,061132,2431.6410,N,08057.2779,W,1,9,2.0,23,M,,M,,*5B
06/14/2015	06:11:32.520	$GPGGA,061133,2431.6418,N,08057.2765,W,1,9,2.9,23,M,,M,,*56
06/14/2015	06:11:33.527	$GPGGA,061134,2431.6425,N,08057.2751,W,1,8,2.2,22,M,,M,,*53
06/14/2015	06:11:34.511	$GPGGA,061135,2431.6433,N,08057.2737,W,1,8,2.0,22,M,,M,,*57
06/14/2015	06:11:35.606	$GPGGA,061136,2431.6442,N,08057.2722,W,1,8,2.2,22,M,,M,,*54
06/14/2015	06:11:36.519	$GPGGA,061137,2431.6449,N,08057.2709,W,1,8,2.0,22,M,,M,,*55
06/14/2015	06:11:37.511	$GPGGA,061138,2431.6456,N,08057.2697,W,1,9,2.0,22,M,,M,,*53
06/14/2015	06:11:38.486	$GPGGA,061139,2431.6464,N,08057.2681,W,1,9,2.0,22,M,,M,,*54
06/14/2015	06:11:39.629	$GPGGA,061140,2431.6471,N,08057.2665,W,1,8,2.2,22,M,,M,,*57
06/14/2015	06:11:40.606	$GPGGA,061141,2431.6478,N,08057.2653,W,1,8,2.0,22,M,,M,,*58
06/14/2015	06:11:41.577	$GPGGA,061142,2431.6487,N,08057.2639,W,1,8,2.2,22,M,,M,,*55
06/14/2015	06:11:42.587	$GPGGA,061143,2431.6494,N,08057.2623,W,1,8,2.0,22,M,,M,,*5F
06/14/2015	06:11:43.628	$GPGGA,061144,2431.6500,N,08057.2609,W,1,9,2.0,22,M,,M,,*5D
06/14/2015	06:11:44.577	$GPGGA,061145,2431.6508,N,08057.2594,W,1,9,2.0,22,M,,M,,*53
06/14/2015	06:11:45.568	$GPGGA,061146,2431.6516,N,08057.2581,W,1,9,2.0,22,M,,M,,*5B
06/14/2015	06:11:46.577	$GPGGA,061147,2431.6523,N,08057.2567,W,1,9,2.2,22,M,,M,,*56
06/14/2015	06:11:47.577	$GPGGA,061148,2431.6530,N,08057.2551,W,1,9,2.0,22,M,,M,,*5C
06/14/2015	06:11:48.567	$GPGGA,061149,2431.6537,N,08057.2537,W,1,9,2.2,22,M,,M,,*58
06/14/2015	06:11:49.567	$GPGGA,061150,2431.6544,N,08057.2524,W,1,9,2.0,22,M,,M,,*54
06/14/2015	06:11:50.567	$GPGGA,061151,2431.6552,N,08057.2508,W,1,9,2.0,22,M,,M,,*5C
06/14/2015	06:11:51.597	$GPGGA,061152,2431.6559,N,08057.2493,W,1,8,2.2,22,M,,M,,*54
06/14/2015	06:11:52.576	$GPGGA,061153,2431.6569,N,08057.2480,W,1,8,2.2,22,M,,M,,*54
