Software Version Number: 1	Data File Format Number: 1	Build Version Number: 1	Error Count Since VI Started: 1	Manufacturer: Raytheon	 Model Number: RayMarine 120	 S/N: 	 Cal Date: 	 Wind Direction Offset: 0.00	 Slope (M)1: 0.00	 Offset (B)1: 0.00	 Slope (M)2: 0.00	 Offset (B)2: 0.00	 Slope (M)3: 0.00	 Offset (B)3: 0.00	 Slope (M)4: 0.00	 Offset (B)4: 0.00	 Slope (M)5: 0.00	 Offset (B)5: 0.00	 Slope (M)6: 0.00	 Offset (B)6: 0.00
Computer Date	Computer Time	GGA String
06/12/2015	12:00:00.539	$GPGGA,120001,2429.2039,N,08118.9741,W,1,8,2.7,23,M,,M,,*50
06/12/2015	12:00:01.549	$GPGGA,120002,2429.2043,N,08118.9724,W,1,7,2.4,23,M,,M,,*51
06/12/2015	12:00:02.528	$GPGGA,120003,2429.2047,N,08118.9707,W,1,7,2.1,23,M,,M,,*50
06/12/2015	12:00:03.570	$GPGGA,120004,2429.2050,N,08118.9688,W,1,8,2.1,23,M,,M,,*58
06/12/2015	12:00:04.528	$GPGGA,120005,2429.2052,N,08118.9671,W,1,8,2.1,23,M,,M,,*5D
06/12/2015	12:00:05.558	$GPGGA,120006,2429.2056,N,08118.9654,W,1,7,2.5,23,M,,M,,*56
06/12/2015	12:00:06.528	$GPGGA,120007,2429.2058,N,08118.9635,W,1,7,2.1,23,M,,M,,*5A
06/12/2015	12:00:07.528	$GPGGA,120008,2429.2061,N,08118.9618,W,1,9,2.1,23,M,,M,,*5E
06/12/2015	12:00:08.518	$GPGGA,120009,2429.2063,N,08118.9601,W,1,9,2.1,23,M,,M,,*55
06/12/2015	12:00:09.508	$GPGGA,120010,2429.2067,N,08118.9579,W,1,9,2.1,23,M,,M,,*55
06/12/2015	12:00:10.628	$GPGGA,120011,2429.2070,N,08118.9560,W,1,9,2.3,22,M,,M,,*59
06/12/2015	12:00:11.538	$GPGGA,120012,2429.2072,N,08118.9543,W,1,8,2.3,22,M,,M,,*58
06/12/2015	12:00:12.508	$GPGGA,120013,2429.2078,N,08118.9524,W,1,8,2.3,22,M,,M,,*52
06/12/2015	12:00:13.518	$GPGGA,120014,2429.2081,N,08118.9507,W,1,9,2.1,22,M,,M,,*51
06/12/2015	12:00:14.498	$GPGGA,120015,2429.2083,N,08118.9493,W,1,9,2.1,22,M,,M,,*5E
06/12/2015	12:00:15.528	$GPGGA,120016,2429.2086,N,08118.9475,W,1,8,2.3,22,M,,M,,*53
06/12/2015	12:00:16.489	$GPGGA,120017,2429.2090,N,08118.9458,W,1,8,2.1,22,M,,M,,*58
06/12/2015	12:00:17.509	$GPGGA,120018,2429.2094,N,08118.9442,W,1,9,2.1,22,M,,M,,*59
06/12/2015	12:00:18.599	$GPGGA,120019,2429.2097,N,08118.9426,W,1,9,2.1,22,M,,M,,*59
06/12/2015	12:00:19.529	$GPGGA,120020,2429.2101,N,08118.9409,W,1,9,2.1,22,M,,M,,*50
06/12/2015	12:00:20.498	$GPGGA,120021,2429.2104,N,08118.9391,W,1,9,2.1,22,M,,M,,*52
06/12/2015	12:00:21.598	$GPGGA,120022,2429.2108,N,08118.9374,W,1,9,2.1,22,M,,M,,*56
06/12/2015	12:00:22.498	$GPGGA,120023,2429.2114,N,08118.9357,W,1,9,2.1,22,M,,M,,*5B
06/12/2015	12:00:23.598	$GPGGA,120024,2429.2117,N,08118.9340,W,1,9,2.1,22,M,,M,,*59
06/12/2015	12:00:24.885	$GPGGA,120025,2429.2121,N,08118.9324,W,1,9,2.1,22,M,,M,,*5F
06/12/2015	12:00:25.588	$GPGGA,120026,2429.2126,N,08118.9306,W,1,9,2.1,22,M,,M,,*5B
06/12/2015	12:00:26.583	$GPGGA,120027,2429.2130,N,08118.9289,W,1,9,2.1,22,M,,M,,*5B
06/12/2015	12:00:27.658	$GPGGA,120028,2429.2133,N,08118.9273,W,1,9,2.1,22,M,,M,,*52
06/12/2015	12:00:28.578	$GPGGA,120029,2429.2137,N,08118.9255,W,1,9,2.1,22,M,,M,,*53
06/12/2015	12:00:29.582	$GPGGA,120030,2429.2141,N,08118.9238,W,1,9,2.1,22,M,,M,,*51
06/12/2015	12:00:30.572	$GPGGA,120031,2429.2144,N,08118.9222,W,1,9,2.1,22,M,,M,,*5E
06/12/2015	12:00:31.598	$GPGGA,120032,2429.2148,N,08118.9205,W,1,9,2.3,22,M,,M,,*56
06/12/2015	12:00:32.568	$GPGGA,120033,2429.2154,N,08118.9186,W,1,9,2.1,22,M,,M,,*50
06/12/2015	12:00:33.584	$GPGGA,120034,2429.2157,N,08118.9170,W,1,9,2.1,22,M,,M,,*5D
06/12/2015	12:00:34.571	$GPGGA,120035,2429.2159,N,08118.9152,W,1,9,2.1,22,M,,M,,*52
06/12/2015	12:00:35.599	$GPGGA,120036,2429.2164,N,08118.9135,W,1,9,2.1,22,M,,M,,*5E
06/12/2015	12:00:36.549	$GPGGA,120037,2429.2168,N,08118.9117,W,1,9,2.1,22,M,,M,,*53
06/12/2015	12:00:37.568	$GPGGA,120038,2429.2173,N,08118.9100,W,1,9,2.1,22,M,,M,,*50
06/12/2015	12:00:38.558	$GPGGA,120039,2429.2179,N,08118.9083,W,1,9,2.3,22,M,,M,,*53
06/12/2015	12:00:39.583	$GPGGA,120040,2429.2182,N,08118.9066,W,1,8,2.1,22,M,,M,,*51
06/12/2015	12:00:40.548	$GPGGA,120041,2429.2184,N,08118.9048,W,1,8,2.3,22,M,,M,,*58
06/12/2015	12:00:41.558	$GPGGA,120042,2429.2190,N,08118.9032,W,1,8,2.1,22,M,,M,,*51
06/12/2015	12:00:42.548	$GPGGA,120043,2429.2195,N,08118.9016,W,1,8,2.1,22,M,,M,,*53
06/12/2015	12:00:43.549	$GPGGA,120044,2429.2199,N,08118.8998,W,1,9,2.1,22,M,,M,,*57
06/12/2015	12:00:44.539	$GPGGA,120045,2429.2202,N,08118.8980,W,1,9,2.1,22,M,,M,,*5E
06/12/2015	12:00:45.572	$GPGGA,120046,2429.2206,N,08118.8964,W,1,9,2.1,22,M,,M,,*53
06/12/2015	12:00:46.538	$GPGGA,120047,2429.2211,N,08118.8947,W,1,9,2.1,22,M,,M,,*55
06/12/2015	12:00:47.579	$GPGGA,120048,2429.2215,N,08118.8929,W,1,9,2.1,22,M,,M,,*56
06/12/2015	12:00:48.528	$GPGGA,120049,2429.2219,N,08118.8912,W,1,9,2.1,22,M,,M,,*53
06/12/2015	12:00:49.558	$GPGGA,120050,2429.2223,N,08118.8896,W,1,9,2.1,22,M,,M,,*5F
06/12/2015	12:00:50.538	$GPGGA,120051,2429.2226,N,08118.8878,W,1,9,2.1,22,M,,M,,*5B
06/12/2015	12:00:51.574	$GPGGA,120052,2429.2229,N,08118.8861,W,1,9,2.1,22,M,,M,,*5F
06/12/2015	12:00:52.529	$GPGGA,120053,2429.2234,N,08118.8846,W,1,9,2.3,22,M,,M,,*55
06/12/2015	12:00:53.529	$GPGGA,120054,2429.2235,N,08118.8825,W,1,8,2.1,22,M,,M,,*55
06/12/2015	12:00:54.529	$GPGGA,120055,2429.2240,N,08118.8807,W,1,8,2.1,22,M,,M,,*56
06/12/2015	12:00:55.548	$GPGGA,120056,2429.2244,N,08118.8794,W,1,9,2.1,22,M,,M,,*55
06/12/2015	12:00:56.518	$GPGGA,120057,2429.2248,N,08118.8777,W,1,9,2.1,22,M,,M,,*55
06/12/2015	12:00:57.518	$GPGGA,120058,2429.2253,N,08118.8761,W,1,9,2.1,22,M,,M,,*57
06/12/2015	12:00:58.518	$GPGGA,120059,2429.2258,N,08118.8746,W,1,9,2.3,22,M,,M,,*5A
06/12/2015	12:00:59.578	$GPGGA,120100,2429.2260,N,08118.8729,W,1,8,2.1,22,M,,M,,*56
06/12/2015	12:01:00.598	$GPGGA,120101,2429.2264,N,08118.8713,W,1,8,2.1,22,M,,M,,*5A
06/12/2015	12:01:01.528	$GPGGA,120102,2429.2270,N,08118.8699,W,1,9,2.1,22,M,,M,,*5E
06/12/2015	12:01:02.588	$GPGGA,120103,2429.2273,N,08118.8682,W,1,9,2.1,22,M,,M,,*56
06/12/2015	12:01:03.558	$GPGGA,120104,2429.2277,N,08118.8665,W,1,9,2.1,22,M,,M,,*5C
06/12/2015	12:01:04.528	$GPGGA,120105,2429.2284,N,08118.8649,W,1,9,2.1,22,M,,M,,*5F
06/12/2015	12:01:05.618	$GPGGA,120106,2429.2285,N,08118.8631,W,1,9,2.1,22,M,,M,,*52
06/12/2015	12:01:06.518	$GPGGA,120107,2429.2288,N,08118.8616,W,1,9,2.3,22,M,,M,,*59
06/12/2015	12:01:07.628	$GPGGA,120108,2429.2292,N,08118.8599,W,1,8,2.3,22,M,,M,,*58
06/12/2015	12:01:08.519	$GPGGA,120109,2429.2296,N,08118.8580,W,1,8,2.1,22,M,,M,,*57
06/12/2015	12:01:09.582	$GPGGA,120110,2429.2298,N,08118.8562,W,1,8,2.6,22,M,,M,,*5A
06/12/2015	12:01:10.499	$GPGGA,120111,2429.2299,N,08118.8538,W,1,8,2.0,22,M,,M,,*53
06/12/2015	12:01:11.599	$GPGGA,120112,2429.2303,N,08118.8521,W,1,9,2.1,22,M,,M,,*5A
06/12/2015	12:01:12.498	$GPGGA,120113,2429.2305,N,08118.8502,W,1,9,2.6,22,M,,M,,*5B
06/12/2015	12:01:13.608	$GPGGA,120114,2429.2307,N,08118.8485,W,1,7,2.3,22,M,,M,,*5B
06/12/2015	12:01:14.568	$GPGGA,120115,2429.2311,N,08118.8470,W,1,7,2.3,22,M,,M,,*57
06/12/2015	12:01:15.581	$GPGGA,120116,2429.2313,N,08118.8456,W,1,9,2.0,22,M,,M,,*5F
06/12/2015	12:01:16.571	$GPGGA,120117,2429.2314,N,08118.8439,W,1,9,2.0,22,M,,M,,*50
06/12/2015	12:01:17.588	$GPGGA,120118,2429.2320,N,08118.8423,W,1,9,2.0,22,M,,M,,*53
06/12/2015	12:01:18.558	$GPGGA,120119,2429.2319,N,08118.8409,W,1,9,2.3,22,M,,M,,*53
06/12/2015	12:01:19.588	$GPGGA,120120,2429.2320,N,08118.8392,W,1,8,2.3,22,M,,M,,*57
06/12/2015	12:01:20.558	$GPGGA,120121,2429.2324,N,08118.8376,W,1,8,2.3,22,M,,M,,*58
06/12/2015	12:01:21.578	$GPGGA,120122,2429.2328,N,08118.8360,W,1,8,2.3,22,M,,M,,*50
06/12/2015	12:01:22.578	$GPGGA,120123,2429.2332,N,08118.8343,W,1,8,2.0,22,M,,M,,*58
06/12/2015	12:01:23.598	$GPGGA,120124,2429.2334,N,08118.8327,W,1,7,2.4,22,M,,M,,*50
06/12/2015	12:01:24.558	$GPGGA,120125,2429.2338,N,08118.8308,W,1,7,2.7,22,M,,M,,*53
06/12/2015	12:01:25.571	$GPGGA,120126,2429.2342,N,08118.8294,W,1,9,2.0,22,M,,M,,*50
06/12/2015	12:01:26.559	$GPGGA,120127,2429.2346,N,08118.8279,W,1,9,2.0,22,M,,M,,*56
06/12/2015	12:01:27.580	$GPGGA,120128,2429.2347,N,08118.8258,W,1,8,2.2,22,M,,M,,*58
06/12/2015	12:01:28.559	$GPGGA,120129,2429.2349,N,08118.8245,W,1,8,2.1,22,M,,M,,*58
06/12/2015	12:01:29.559	$GPGGA,120130,2429.2352,N,08118.8230,W,1,8,2.3,22,M,,M,,*5A
06/12/2015	12:01:30.548	$GPGGA,120131,2429.2356,N,08118.8213,W,1,8,2.0,22,M,,M,,*5D
06/12/2015	12:01:31.572	$GPGGA,120132,2429.2359,N,08118.8197,W,1,9,2.0,22,M,,M,,*5F
06/12/2015	12:01:32.539	$GPGGA,120133,2429.2361,N,08118.8181,W,1,9,2.0,22,M,,M,,*52
06/12/2015	12:01:33.529	$GPGGA,120134,2429.2364,N,08118.8165,W,1,7,2.4,22,M,,M,,*50
06/12/2015	12:01:34.538	$GPGGA,120135,2429.2368,N,08118.8150,W,1,7,2.6,22,M,,M,,*59
06/12/2015	12:01:35.574	$GPGGA,120136,2429.2370,N,08118.8131,W,1,9,2.0,22,M,,M,,*5C
06/12/2015	12:01:36.528	$GPGGA,120137,2429.2371,N,08118.8112,W,1,9,2.0,22,M,,M,,*5D
06/12/2015	12:01:37.559	$GPGGA,120138,2429.2372,N,08118.8095,W,1,9,2.0,22,M,,M,,*5F
06/12/2015	12:01:38.528	$GPGGA,120139,2429.2374,N,08118.8080,W,1,9,2.0,22,M,,M,,*5C
06/12/2015	12:01:39.575	$GPGGA,120140,2429.2378,N,08118.8063,W,1,8,2.3,22,M,,M,,*51
06/12/2015	12:01:40.528	$GPGGA,120141,2429.2381,N,08118.8046,W,1,8,2.0,22,M,,M,,*52
06/12/2015	12:01:41.528	$GPGGA,120142,2429.2383,N,08118.8029,W,1,9,2.0,22,M,,M,,*5B
06/12/2015	12:01:42.518	$GPGGA,120143,2429.2386,N,08118.8012,W,1,9,2.0,22,M,,M,,*57
06/12/2015	12:01:43.539	$GPGGA,120144,2429.2389,N,08118.7996,W,1,9,2.0,23,M,,M,,*54
06/12/2015	12:01:44.499	$GPGGA,120145,2429.2393,N,08118.7978,W,1,9,2.0,23,M,,M,,*5E
06/12/2015	12:01:45.499	$GPGGA,120146,2429.2397,N,08118.7960,W,1,9,2.0,23,M,,M,,*50
06/12/2015	12:01:46.519	$GPGGA,120147,2429.2401,N,08118.7943,W,1,9,2.0,23,M,,M,,*58
06/12/2015	12:01:47.638	$GPGGA,120148,2429.2404,N,08118.7926,W,1,9,2.0,23,M,,M,,*51
06/12/2015	12:01:48.508	$GPGGA,120149,2429.2408,N,08118.7909,W,1,9,2.0,23,M,,M,,*51
06/12/2015	12:01:49.588	$GPGGA,120150,2429.2412,N,08118.7893,W,1,9,2.0,23,M,,M,,*50
06/12/2015	12:01:50.498	$GPGGA,120151,2429.2415,N,08118.7875,W,1,9,2.3,23,M,,M,,*5D
06/12/2015	12:01:51.518	$GPGGA,120152,2429.2419,N,08118.7859,W,1,8,2.1,23,M,,M,,*5F
06/12/2015	12:01:52.588	$GPGGA,120153,2429.2425,N,08118.7846,W,1,8,2.0,23,M,,M,,*5E
06/12/2015	12:01:53.489	$GPGGA,120154,2429.2429,N,08118.7829,W,1,8,2.1,24,M,,M,,*5A
06/12/2015	12:01:54.583	$GPGGA,120155,2429.2433,N,08118.7809,W,1,8,2.3,24,M,,M,,*50
06/12/2015	12:01:55.598	$GPGGA,120156,2429.2437,N,08118.7793,W,1,9,2.0,24,M,,M,,*59
06/12/2015	12:01:56.498	$GPGGA,120157,2429.2443,N,08118.7778,W,1,9,2.0,24,M,,M,,*5E
06/12/2015	12:01:57.490	$GPGGA,120158,2429.2448,N,08118.7760,W,1,8,2.3,24,M,,M,,*51
06/12/2015	12:01:58.585	$GPGGA,120159,2429.2451,N,08118.7743,W,1,8,2.2,24,M,,M,,*58
06/12/2015	12:01:59.638	$GPGGA,120200,2429.2453,N,08118.7728,W,1,9,2.0,24,M,,M,,*5B
06/12/2015	12:02:00.570	$GPGGA,120201,2429.2458,N,08118.7713,W,1,9,2.1,24,M,,M,,*58
06/12/2015	12:02:01.582	$GPGGA,120202,2429.2462,N,08118.7698,W,1,9,2.0,24,M,,M,,*51
06/12/2015	12:02:02.570	$GPGGA,120203,2429.2466,N,08118.7681,W,1,9,2.2,24,M,,M,,*5E
06/12/2015	12:02:03.582	$GPGGA,120204,2429.2466,N,08118.7664,W,1,9,2.0,24,M,,M,,*50
06/12/2015	12:02:04.573	$GPGGA,120205,2429.2471,N,08118.7649,W,1,9,2.3,24,M,,M,,*5B
06/12/2015	12:02:05.581	$GPGGA,120206,2429.2475,N,08118.7632,W,1,9,2.0,24,M,,M,,*53
06/12/2015	12:02:06.558	$GPGGA,120207,2429.2477,N,08118.7614,W,1,9,2.0,24,M,,M,,*54
06/12/2015	12:02:07.608	$GPGGA,120208,2429.2480,N,08118.7598,W,1,9,2.0,24,M,,M,,*54
06/12/2015	12:02:08.558	$GPGGA,120209,2429.2484,N,08118.7581,W,1,9,2.0,24,M,,M,,*59
06/12/2015	12:02:09.573	$GPGGA,120210,2429.2488,N,08118.7564,W,1,8,2.3,24,M,,M,,*54
06/12/2015	12:02:10.548	$GPGGA,120211,2429.2493,N,08118.7548,W,1,8,2.0,24,M,,M,,*52
06/12/2015	12:02:11.585	$GPGGA,120212,2429.2495,N,08118.7530,W,1,9,2.0,24,M,,M,,*59
06/12/2015	12:02:12.538	$GPGGA,120213,2429.2500,N,08118.7513,W,1,9,2.0,24,M,,M,,*54
06/12/2015	12:02:13.570	$GPGGA,120214,2429.2505,N,08118.7496,W,1,9,2.0,24,M,,M,,*5A
06/12/2015	12:02:14.548	$GPGGA,120215,2429.2509,N,08118.7478,W,1,9,2.0,24,M,,M,,*57
06/12/2015	12:02:15.569	$GPGGA,120216,2429.2513,N,08118.7460,W,1,9,2.0,24,M,,M,,*56
06/12/2015	12:02:16.548	$GPGGA,120217,2429.2516,N,08118.7445,W,1,9,2.0,24,M,,M,,*55
06/12/2015	12:02:17.568	$GPGGA,120218,2429.2520,N,08118.7426,W,1,9,2.0,24,M,,M,,*5A
06/12/2015	12:02:18.549	$GPGGA,120219,2429.2527,N,08118.7408,W,1,9,2.0,24,M,,M,,*50
06/12/2015	12:02:19.575	$GPGGA,120220,2429.2530,N,08118.7393,W,1,9,2.0,24,M,,M,,*59
06/12/2015	12:02:20.539	$GPGGA,120221,2429.2533,N,08118.7374,W,1,9,2.0,23,M,,M,,*55
06/12/2015	12:02:21.529	$GPGGA,120222,2429.2538,N,08118.7357,W,1,9,2.0,23,M,,M,,*5C
06/12/2015	12:02:22.528	$GPGGA,120223,2429.2544,N,08118.7342,W,1,9,2.0,23,M,,M,,*52
06/12/2015	12:02:23.528	$GPGGA,120224,2429.2545,N,08118.7322,W,1,8,2.2,23,M,,M,,*51
06/12/2015	12:02:24.518	$GPGGA,120225,2429.2551,N,08118.7306,W,1,8,2.3,23,M,,M,,*52
06/12/2015	12:02:25.528	$GPGGA,120226,2429.2559,N,08118.7290,W,1,9,2.0,23,M,,M,,*55
06/12/2015	12:02:26.518	$GPGGA,120227,2429.2560,N,08118.7270,W,1,9,2.2,23,M,,M,,*52
06/12/2015	12:02:27.538	$GPGGA,120228,2429.2560,N,08118.7253,W,1,9,2.0,23,M,,M,,*5E
06/12/2015	12:02:28.508	$GPGGA,120229,2429.2567,N,08118.7238,W,1,9,2.0,23,M,,M,,*55
06/12/2015	12:02:29.528	$GPGGA,120230,2429.2574,N,08118.7220,W,1,8,2.3,23,M,,M,,*54
06/12/2015	12:02:31.571	$GPGGA,120232,2429.2580,N,08118.7185,W,1,8,2.3,22,M,,M,,*50
06/12/2015	12:02:32.498	$GPGGA,120233,2429.2585,N,08118.7173,W,1,8,2.4,22,M,,M,,*5A
06/12/2015	12:02:33.498	$GPGGA,120234,2429.2589,N,08118.7156,W,1,8,2.2,22,M,,M,,*50
06/12/2015	12:02:34.508	$GPGGA,120235,2429.2589,N,08118.7137,W,1,8,2.2,22,M,,M,,*56
06/12/2015	12:02:35.529	$GPGGA,120236,2429.2594,N,08118.7123,W,1,8,2.1,22,M,,M,,*5F
06/12/2015	12:02:36.629	$GPGGA,120237,2429.2596,N,08118.7108,W,1,8,2.0,22,M,,M,,*54
06/12/2015	12:02:37.487	$GPGGA,120238,2429.2600,N,08118.7091,W,1,9,2.0,22,M,,M,,*57
06/12/2015	12:02:38.509	$GPGGA,120239,2429.2603,N,08118.7075,W,1,9,2.0,22,M,,M,,*5F
06/12/2015	12:02:39.599	$GPGGA,120240,2429.2607,N,08118.7059,W,1,7,2.3,22,M,,M,,*56
06/12/2015	12:02:40.498	$GPGGA,120241,2429.2610,N,08118.7040,W,1,7,2.0,22,M,,M,,*5A
06/12/2015	12:02:41.582	$GPGGA,120242,2429.2614,N,08118.7023,W,1,9,2.0,22,M,,M,,*56
06/12/2015	12:02:42.598	$GPGGA,120243,2429.2617,N,08118.7009,W,1,9,2.0,22,M,,M,,*5C
06/12/2015	12:02:43.598	$GPGGA,120244,2429.2618,N,08118.6993,W,1,9,2.0,22,M,,M,,*5F
06/12/2015	12:02:44.578	$GPGGA,120245,2429.2621,N,08118.6975,W,1,9,2.0,22,M,,M,,*5C
06/12/2015	12:02:45.588	$GPGGA,120246,2429.2627,N,08118.6961,W,1,8,2.1,22,M,,M,,*5C
06/12/2015	12:02:46.579	$GPGGA,120247,2429.2631,N,08118.6947,W,1,8,2.0,22,M,,M,,*5F
06/12/2015	12:02:47.628	$GPGGA,120248,2429.2632,N,08118.6931,W,1,9,2.0,22,M,,M,,*53
06/12/2015	12:02:48.568	$GPGGA,120249,2429.2638,N,08118.6915,W,1,9,2.0,22,M,,M,,*5E
06/12/2015	12:02:49.568	$GPGGA,120250,2429.2641,N,08118.6904,W,1,7,2.6,22,M,,M,,*50
06/12/2015	12:02:50.568	$GPGGA,120251,2429.2642,N,08118.6883,W,1,7,2.4,22,M,,M,,*5E
06/12/2015	12:02:51.598	$GPGGA,120252,2429.2645,N,08118.6863,W,1,8,2.1,22,M,,M,,*5E
06/12/2015	12:02:52.569	$GPGGA,120253,2429.2650,N,08118.6848,W,1,8,2.2,23,M,,M,,*50
06/12/2015	12:02:53.580	$GPGGA,120254,2429.2652,N,08118.6832,W,1,8,2.1,23,M,,M,,*5B
06/12/2015	12:02:54.559	$GPGGA,120255,2429.2654,N,08118.6818,W,1,8,2.0,23,M,,M,,*55
06/12/2015	12:02:55.599	$GPGGA,120256,2429.2661,N,08118.6804,W,1,9,2.0,23,M,,M,,*5C
06/12/2015	12:02:56.549	$GPGGA,120257,2429.2664,N,08118.6788,W,1,9,2.2,23,M,,M,,*51
06/12/2015	12:02:57.558	$GPGGA,120258,2429.2664,N,08118.6773,W,1,8,2.2,23,M,,M,,*5B
06/12/2015	12:02:58.558	$GPGGA,120259,2429.2668,N,08118.6757,W,1,8,2.1,22,M,,M,,*52
06/12/2015	12:02:59.589	$GPGGA,120300,2429.2675,N,08118.6740,W,1,8,2.2,22,M,,M,,*56
06/12/2015	12:03:00.548	$GPGGA,120301,2429.2674,N,08118.6723,W,1,8,2.2,22,M,,M,,*53
06/12/2015	12:03:01.578	$GPGGA,120302,2429.2677,N,08118.6707,W,1,9,2.0,22,M,,M,,*56
06/12/2015	12:03:02.538	$GPGGA,120303,2429.2682,N,08118.6689,W,1,9,2.0,22,M,,M,,*5A
06/12/2015	12:03:03.548	$GPGGA,120304,2429.2685,N,08118.6671,W,1,9,2.0,22,M,,M,,*5D
06/12/2015	12:03:04.548	$GPGGA,120305,2429.2686,N,08118.6655,W,1,9,2.0,22,M,,M,,*59
06/12/2015	12:03:05.548	$GPGGA,120306,2429.2689,N,08118.6639,W,1,9,2.0,22,M,,M,,*5F
06/12/2015	12:03:06.538	$GPGGA,120307,2429.2693,N,08118.6620,W,1,9,2.0,22,M,,M,,*5D
06/12/2015	12:03:07.569	$GPGGA,120308,2429.2696,N,08118.6601,W,1,8,2.3,22,M,,M,,*56
06/12/2015	12:03:08.548	$GPGGA,120309,2429.2697,N,08118.6586,W,1,8,2.3,22,M,,M,,*5A
06/12/2015	12:03:09.518	$GPGGA,120310,2429.2701,N,08118.6568,W,1,9,2.0,22,M,,M,,*5E
06/12/2015	12:03:10.539	$GPGGA,120311,2429.2706,N,08118.6549,W,1,9,2.2,22,M,,M,,*59
06/12/2015	12:03:11.583	$GPGGA,120312,2429.2704,N,08118.6538,W,1,7,2.4,22,M,,M,,*56
06/12/2015	12:03:12.529	$GPGGA,120313,2429.2706,N,08118.6522,W,1,7,2.0,22,M,,M,,*5A
06/12/2015	12:03:13.539	$GPGGA,120314,2429.2707,N,08118.6503,W,1,8,2.2,22,M,,M,,*52
06/12/2015	12:03:14.529	$GPGGA,120315,2429.2711,N,08118.6488,W,1,8,2.0,22,M,,M,,*54
06/12/2015	12:03:15.518	$GPGGA,120316,2429.2714,N,08118.6470,W,1,7,2.4,22,M,,M,,*5E
06/12/2015	12:03:16.528	$GPGGA,120317,2429.2715,N,08118.6451,W,1,7,2.0,22,M,,M,,*59
06/12/2015	12:03:17.508	$GPGGA,120318,2429.2718,N,08118.6434,W,1,9,2.0,22,M,,M,,*56
06/12/2015	12:03:18.508	$GPGGA,120319,2429.2724,N,08118.6414,W,1,9,2.0,22,M,,M,,*5A
06/12/2015	12:03:19.538	$GPGGA,120320,2429.2726,N,08118.6396,W,1,8,2.3,22,M,,M,,*5D
06/12/2015	12:03:20.669	$GPGGA,120321,2429.2729,N,08118.6378,W,1,8,2.0,22,M,,M,,*50
06/12/2015	12:03:21.670	$GPGGA,120322,2429.2733,N,08118.6360,W,1,9,2.0,23,M,,M,,*51
06/12/2015	12:03:22.498	$GPGGA,120323,2429.2739,N,08118.6343,W,1,9,2.0,23,M,,M,,*5B
06/12/2015	12:03:23.608	$GPGGA,120324,2429.2740,N,08118.6326,W,1,8,2.1,23,M,,M,,*51
06/12/2015	12:03:24.658	$GPGGA,120325,2429.2744,N,08118.6307,W,1,8,2.0,23,M,,M,,*56
06/12/2015	12:03:25.648	$GPGGA,120326,2429.2751,N,08118.6290,W,1,9,2.0,23,M,,M,,*5F
06/12/2015	12:03:26.508	$GPGGA,120327,2429.2755,N,08118.6271,W,1,9,2.0,23,M,,M,,*55
06/12/2015	12:03:27.608	$GPGGA,120328,2429.2758,N,08118.6253,W,1,9,2.0,23,M,,M,,*57
06/12/2015	12:03:28.589	$GPGGA,120329,2429.2765,N,08118.6239,W,1,9,2.0,23,M,,M,,*54
06/12/2015	12:03:29.609	$GPGGA,120330,2429.2769,N,08118.6223,W,1,8,2.0,23,M,,M,,*5A
06/12/2015	12:03:30.659	$GPGGA,120331,2429.2773,N,08118.6206,W,1,8,2.0,23,M,,M,,*57
06/12/2015	12:03:31.679	$GPGGA,120332,2429.2777,N,08118.6190,W,1,9,2.0,23,M,,M,,*5D
06/12/2015	12:03:32.579	$GPGGA,120333,2429.2784,N,08118.6175,W,1,9,2.0,23,M,,M,,*5B
06/12/2015	12:03:33.628	$GPGGA,120334,2429.2787,N,08118.6158,W,1,9,2.0,23,M,,M,,*50
06/12/2015	12:03:34.649	$GPGGA,120335,2429.2793,N,08118.6141,W,1,9,2.0,23,M,,M,,*5C
06/12/2015	12:03:35.628	$GPGGA,120336,2429.2800,N,08118.6124,W,1,9,2.0,23,M,,M,,*59
06/12/2015	12:03:36.658	$GPGGA,120337,2429.2802,N,08118.6107,W,1,9,2.0,23,M,,M,,*5B
06/12/2015	12:03:37.618	$GPGGA,120338,2429.2807,N,08118.6091,W,1,9,2.0,23,M,,M,,*5F
06/12/2015	12:03:38.638	$GPGGA,120339,2429.2813,N,08118.6075,W,1,9,2.2,24,M,,M,,*54
06/12/2015	12:03:39.618	$GPGGA,120340,2429.2819,N,08118.6057,W,1,8,2.2,24,M,,M,,*51
06/12/2015	12:03:40.618	$GPGGA,120341,2429.2822,N,08118.6040,W,1,8,2.0,24,M,,M,,*5C
06/12/2015	12:03:41.598	$GPGGA,120342,2429.2826,N,08118.6023,W,1,9,2.0,24,M,,M,,*5F
06/12/2015	12:03:42.558	$GPGGA,120343,2429.2831,N,08118.6008,W,1,9,2.0,24,M,,M,,*51
06/12/2015	12:03:43.648	$GPGGA,120344,2429.2836,N,08118.5992,W,1,9,2.0,24,M,,M,,*58
06/12/2015	12:03:44.549	$GPGGA,120345,2429.2838,N,08118.5973,W,1,9,2.0,24,M,,M,,*58
06/12/2015	12:03:45.629	$GPGGA,120346,2429.2844,N,08118.5956,W,1,9,2.0,24,M,,M,,*57
06/12/2015	12:03:46.629	$GPGGA,120347,2429.2849,N,08118.5940,W,1,9,2.0,24,M,,M,,*5C
06/12/2015	12:03:47.629	$GPGGA,120348,2429.2852,N,08118.5922,W,1,9,2.0,23,M,,M,,*5A
06/12/2015	12:03:48.619	$GPGGA,120349,2429.2858,N,08118.5904,W,1,9,2.0,23,M,,M,,*55
06/12/2015	12:03:49.618	$GPGGA,120350,2429.2863,N,08118.5888,W,1,9,2.0,23,M,,M,,*50
06/12/2015	12:03:50.548	$GPGGA,120351,2429.2866,N,08118.5870,W,1,9,2.0,23,M,,M,,*53
06/12/2015	12:03:51.658	$GPGGA,120352,2429.2870,N,08118.5854,W,1,9,2.0,23,M,,M,,*51
06/12/2015	12:03:52.598	$GPGGA,120353,2429.2874,N,08118.5837,W,1,9,2.0,23,M,,M,,*51
06/12/2015	12:03:53.528	$GPGGA,120354,2429.2878,N,08118.5818,W,1,9,2.0,23,M,,M,,*57
06/12/2015	12:03:54.598	$GPGGA,120355,2429.2881,N,08118.5802,W,1,9,2.0,23,M,,M,,*5B
06/12/2015	12:03:56.048	$GPGGA,120356,2429.2885,N,08118.5786,W,1,9,2.0,23,M,,M,,*5F
06/12/2015	12:03:56.598	$GPGGA,120357,2429.2889,N,08118.5768,W,1,9,2.0,23,M,,M,,*52
06/12/2015	12:03:57.578	$GPGGA,120358,2429.2894,N,08118.5750,W,1,8,2.2,23,M,,M,,*59
06/12/2015	12:03:58.528	$GPGGA,120359,2429.2896,N,08118.5730,W,1,8,2.7,23,M,,M,,*59
06/12/2015	12:03:59.588	$GPGGA,120400,2429.2901,N,08118.5714,W,1,9,2.0,23,M,,M,,*5D
06/12/2015	12:04:00.598	$GPGGA,120401,2429.2903,N,08118.5696,W,1,9,2.0,23,M,,M,,*55
06/12/2015	12:04:01.538	$GPGGA,120402,2429.2906,N,08118.5679,W,1,6,2.4,23,M,,M,,*59
06/12/2015	12:04:02.508	$GPGGA,120403,2429.2910,N,08118.5658,W,1,6,2.4,23,M,,M,,*5C
06/12/2015	12:04:03.599	$GPGGA,120404,2429.2914,N,08118.5641,W,1,9,2.0,23,M,,M,,*5C
06/12/2015	12:04:04.509	$GPGGA,120405,2429.2914,N,08118.5623,W,1,9,2.0,23,M,,M,,*59
06/12/2015	12:04:05.539	$GPGGA,120406,2429.2917,N,08118.5604,W,1,9,2.0,23,M,,M,,*5C
06/12/2015	12:04:06.569	$GPGGA,120407,2429.2921,N,08118.5588,W,1,9,2.1,23,M,,M,,*5E
06/12/2015	12:04:07.568	$GPGGA,120408,2429.2923,N,08118.5572,W,1,8,2.0,23,M,,M,,*56
06/12/2015	12:04:08.574	$GPGGA,120409,2429.2925,N,08118.5554,W,1,8,2.0,23,M,,M,,*55
06/12/2015	12:04:09.548	$GPGGA,120410,2429.2930,N,08118.5534,W,1,9,2.4,23,M,,M,,*5A
06/12/2015	12:04:10.588	$GPGGA,120411,2429.2931,N,08118.5519,W,1,9,2.2,23,M,,M,,*53
06/12/2015	12:04:11.579	$GPGGA,120412,2429.2934,N,08118.5502,W,1,8,2.0,23,M,,M,,*5C
06/12/2015	12:04:12.598	$GPGGA,120413,2429.2938,N,08118.5484,W,1,8,2.0,23,M,,M,,*5E
06/12/2015	12:04:13.489	$GPGGA,120414,2429.2941,N,08118.5468,W,1,9,2.0,23,M,,M,,*54
06/12/2015	12:04:14.568	$GPGGA,120415,2429.2940,N,08118.5452,W,1,9,2.0,23,M,,M,,*5D
06/12/2015	12:04:15.639	$GPGGA,120416,2429.2943,N,08118.5436,W,1,9,2.0,23,M,,M,,*5F
06/12/2015	12:04:16.569	$GPGGA,120417,2429.2948,N,08118.5419,W,1,9,2.0,23,M,,M,,*58
06/12/2015	12:04:17.588	$GPGGA,120418,2429.2949,N,08118.5402,W,1,9,2.0,23,M,,M,,*5C
06/12/2015	12:04:18.598	$GPGGA,120419,2429.2950,N,08118.5385,W,1,9,2.0,22,M,,M,,*5C
06/12/2015	12:04:19.598	$GPGGA,120420,2429.2953,N,08118.5369,W,1,9,2.0,22,M,,M,,*57
06/12/2015	12:04:20.589	$GPGGA,120421,2429.2957,N,08118.5350,W,1,9,2.0,22,M,,M,,*58
06/12/2015	12:04:21.571	$GPGGA,120422,2429.2959,N,08118.5333,W,1,9,2.0,22,M,,M,,*50
06/12/2015	12:04:22.576	$GPGGA,120423,2429.2960,N,08118.5316,W,1,9,2.0,22,M,,M,,*5C
06/12/2015	12:04:23.619	$GPGGA,120424,2429.2964,N,08118.5296,W,1,9,2.3,22,M,,M,,*55
06/12/2015	12:04:24.598	$GPGGA,120425,2429.2968,N,08118.5278,W,1,9,2.3,22,M,,M,,*58
06/12/2015	12:04:25.584	$GPGGA,120426,2429.2970,N,08118.5262,W,1,8,2.0,22,M,,M,,*5B
06/12/2015	12:04:26.608	$GPGGA,120427,2429.2971,N,08118.5243,W,1,8,2.0,22,M,,M,,*58
06/12/2015	12:04:27.598	$GPGGA,120428,2429.2975,N,08118.5224,W,1,9,2.7,22,M,,M,,*54
06/12/2015	12:04:28.558	$GPGGA,120429,2429.2979,N,08118.5205,W,1,9,2.0,22,M,,M,,*5D
06/12/2015	12:04:29.577	$GPGGA,120430,2429.2981,N,08118.5188,W,1,9,2.0,22,M,,M,,*54
06/12/2015	12:04:30.558	$GPGGA,120431,2429.2982,N,08118.5168,W,1,9,2.0,22,M,,M,,*58
06/12/2015	12:04:31.598	$GPGGA,120432,2429.2986,N,08118.5152,W,1,9,2.0,22,M,,M,,*56
06/12/2015	12:04:32.569	$GPGGA,120433,2429.2990,N,08118.5138,W,1,9,2.0,21,M,,M,,*5F
06/12/2015	12:04:33.581	$GPGGA,120434,2429.2992,N,08118.5120,W,1,9,2.0,21,M,,M,,*53
06/12/2015	12:04:34.588	$GPGGA,120435,2429.2991,N,08118.5103,W,1,9,2.2,21,M,,M,,*52
06/12/2015	12:04:35.587	$GPGGA,120436,2429.2993,N,08118.5087,W,1,8,2.3,21,M,,M,,*5E
06/12/2015	12:04:36.577	$GPGGA,120437,2429.2997,N,08118.5071,W,1,8,2.0,21,M,,M,,*51
06/12/2015	12:04:37.589	$GPGGA,120438,2429.3003,N,08118.5052,W,1,9,2.2,21,M,,M,,*59
06/12/2015	12:04:38.587	$GPGGA,120439,2429.3003,N,08118.5052,W,1,9,2.2,21,M,,M,,*58
06/12/2015	12:04:39.585	$GPGGA,120440,2429.3010,N,08118.5020,W,1,8,2.0,21,M,,M,,*52
06/12/2015	12:04:40.549	$GPGGA,120441,2429.3014,N,08118.5004,W,1,8,2.0,21,M,,M,,*51
06/12/2015	12:04:41.529	$GPGGA,120442,2429.3015,N,08118.4984,W,1,8,2.0,21,M,,M,,*53
06/12/2015	12:04:42.558	$GPGGA,120443,2429.3019,N,08118.4968,W,1,8,2.0,21,M,,M,,*5C
06/12/2015	12:04:43.548	$GPGGA,120444,2429.3025,N,08118.4951,W,1,9,2.0,21,M,,M,,*5F
06/12/2015	12:04:44.548	$GPGGA,120445,2429.3028,N,08118.4935,W,1,9,2.0,21,M,,M,,*51
06/12/2015	12:04:45.518	$GPGGA,120446,2429.3029,N,08118.4919,W,1,9,2.0,21,M,,M,,*5D
06/12/2015	12:04:46.558	$GPGGA,120447,2429.3036,N,08118.4904,W,1,9,2.0,20,M,,M,,*5F
06/12/2015	12:04:47.538	$GPGGA,120448,2429.3042,N,08118.4887,W,1,9,2.0,20,M,,M,,*59
06/12/2015	12:04:48.569	$GPGGA,120449,2429.3044,N,08118.4868,W,1,9,1.7,20,M,,M,,*5B
06/12/2015	12:04:49.518	$GPGGA,120450,2429.3047,N,08118.4851,W,1,10,1.7,20,M,,M,,*62
06/12/2015	12:04:50.628	$GPGGA,120451,2429.3053,N,08118.4833,W,1,10,1.7,20,M,,M,,*62
06/12/2015	12:04:51.658	$GPGGA,120452,2429.3055,N,08118.4815,W,1,10,1.7,20,M,,M,,*63
06/12/2015	12:04:52.580	$GPGGA,120453,2429.3058,N,08118.4797,W,1,10,2.0,20,M,,M,,*6E
06/12/2015	12:04:53.528	$GPGGA,120454,2429.3064,N,08118.4779,W,1,9,2.0,20,M,,M,,*5E
06/12/2015	12:04:54.618	$GPGGA,120455,2429.3068,N,08118.4761,W,1,9,1.7,20,M,,M,,*5E
06/12/2015	12:04:55.619	$GPGGA,120456,2429.3071,N,08118.4742,W,1,10,1.7,20,M,,M,,*6C
06/12/2015	12:04:56.619	$GPGGA,120457,2429.3073,N,08118.4726,W,1,10,1.7,20,M,,M,,*6D
06/12/2015	12:04:57.629	$GPGGA,120458,2429.3080,N,08118.4708,W,1,10,1.7,20,M,,M,,*62
06/12/2015	12:04:58.599	$GPGGA,120459,2429.3086,N,08118.4691,W,1,10,2.0,20,M,,M,,*60
06/12/2015	12:04:59.518	$GPGGA,120500,2429.3091,N,08118.4675,W,1,10,1.7,20,M,,M,,*65
06/12/2015	12:05:00.588	$GPGGA,120501,2429.3094,N,08118.4657,W,1,10,1.7,19,M,,M,,*6B
06/12/2015	12:05:01.608	$GPGGA,120502,2429.3098,N,08118.4640,W,1,9,2.0,19,M,,M,,*5E
06/12/2015	12:05:02.580	$GPGGA,120503,2429.3105,N,08118.4624,W,1,9,2.0,19,M,,M,,*58
06/12/2015	12:05:03.608	$GPGGA,120504,2429.3109,N,08118.4606,W,1,10,1.7,19,M,,M,,*6F
06/12/2015	12:05:04.598	$GPGGA,120505,2429.3113,N,08118.4588,W,1,10,1.7,19,M,,M,,*60
06/12/2015	12:05:05.608	$GPGGA,120506,2429.3118,N,08118.4572,W,1,10,1.7,19,M,,M,,*6D
06/12/2015	12:05:06.582	$GPGGA,120507,2429.3123,N,08118.4556,W,1,10,1.7,19,M,,M,,*62
06/12/2015	12:05:07.628	$GPGGA,120508,2429.3127,N,08118.4538,W,1,10,1.7,19,M,,M,,*61
06/12/2015	12:05:08.588	$GPGGA,120509,2429.3134,N,08118.4521,W,1,10,1.7,19,M,,M,,*6A
06/12/2015	12:05:09.588	$GPGGA,120510,2429.3137,N,08118.4504,W,1,10,1.7,19,M,,M,,*66
06/12/2015	12:05:10.580	$GPGGA,120511,2429.3140,N,08118.4487,W,1,10,1.7,19,M,,M,,*6D
06/12/2015	12:05:11.588	$GPGGA,120512,2429.3145,N,08118.4469,W,1,10,1.7,19,M,,M,,*6B
06/12/2015	12:05:12.569	$GPGGA,120513,2429.3151,N,08118.4453,W,1,10,2.0,19,M,,M,,*62
06/12/2015	12:05:13.584	$GPGGA,120514,2429.3154,N,08118.4435,W,1,10,1.7,19,M,,M,,*64
06/12/2015	12:05:14.559	$GPGGA,120515,2429.3156,N,08118.4419,W,1,10,1.7,19,M,,M,,*69
06/12/2015	12:05:15.589	$GPGGA,120516,2429.3161,N,08118.4403,W,1,9,1.8,19,M,,M,,*52
06/12/2015	12:05:16.559	$GPGGA,120517,2429.3163,N,08118.4384,W,1,9,2.3,19,M,,M,,*51
06/12/2015	12:05:17.578	$GPGGA,120518,2429.3167,N,08118.4366,W,1,9,1.8,19,M,,M,,*5E
06/12/2015	12:05:18.548	$GPGGA,120519,2429.3170,N,08118.4348,W,1,9,2.0,19,M,,M,,*5E
06/12/2015	12:05:20.048	$GPGGA,120520,2429.3174,N,08118.4331,W,1,9,2.0,19,M,,M,,*5E
06/12/2015	12:05:20.558	$GPGGA,120521,2429.3177,N,08118.4312,W,1,9,2.0,19,M,,M,,*5D
06/12/2015	12:05:21.548	$GPGGA,120522,2429.3178,N,08118.4295,W,1,10,1.7,19,M,,M,,*63
06/12/2015	12:05:22.558	$GPGGA,120523,2429.3183,N,08118.4277,W,1,10,1.7,19,M,,M,,*6A
06/12/2015	12:05:23.568	$GPGGA,120524,2429.3188,N,08118.4260,W,1,10,1.7,19,M,,M,,*60
06/12/2015	12:05:24.548	$GPGGA,120525,2429.3191,N,08118.4241,W,1,10,1.7,19,M,,M,,*6A
06/12/2015	12:05:25.528	$GPGGA,120526,2429.3192,N,08118.4223,W,1,9,2.0,19,M,,M,,*52
06/12/2015	12:05:26.538	$GPGGA,120527,2429.3196,N,08118.4208,W,1,9,2.0,19,M,,M,,*5E
06/12/2015	12:05:27.581	$GPGGA,120528,2429.3201,N,08118.4189,W,1,10,1.7,19,M,,M,,*6A
06/12/2015	12:05:28.528	$GPGGA,120529,2429.3202,N,08118.4171,W,1,10,1.7,19,M,,M,,*6F
06/12/2015	12:05:29.548	$GPGGA,120530,2429.3205,N,08118.4156,W,1,10,1.7,19,M,,M,,*65
06/12/2015	12:05:30.529	$GPGGA,120531,2429.3209,N,08118.4139,W,1,10,1.7,19,M,,M,,*61
06/12/2015	12:05:31.569	$GPGGA,120532,2429.3212,N,08118.4121,W,1,10,1.7,19,M,,M,,*61
06/12/2015	12:05:32.519	$GPGGA,120533,2429.3211,N,08118.4105,W,1,10,1.7,19,M,,M,,*65
06/12/2015	12:05:33.519	$GPGGA,120534,2429.3214,N,08118.4088,W,1,10,1.7,19,M,,M,,*63
06/12/2015	12:05:34.638	$GPGGA,120535,2429.3219,N,08118.4071,W,1,10,1.7,19,M,,M,,*69
06/12/2015	12:05:35.548	$GPGGA,120536,2429.3221,N,08118.4053,W,1,10,1.7,19,M,,M,,*61
06/12/2015	12:05:36.508	$GPGGA,120537,2429.3223,N,08118.4035,W,1,10,1.7,19,M,,M,,*62
06/12/2015	12:05:37.518	$GPGGA,120538,2429.3225,N,08118.4019,W,1,10,1.7,19,M,,M,,*65
06/12/2015	12:05:38.508	$GPGGA,120539,2429.3225,N,08118.4006,W,1,10,1.9,19,M,,M,,*64
06/12/2015	12:05:39.528	$GPGGA,120540,2429.3228,N,08118.3990,W,1,8,2.1,19,M,,M,,*54
06/12/2015	12:05:40.508	$GPGGA,120541,2429.3231,N,08118.3972,W,1,8,1.7,19,M,,M,,*54
06/12/2015	12:05:41.618	$GPGGA,120542,2429.3232,N,08118.3956,W,1,10,1.7,19,M,,M,,*6B
06/12/2015	12:05:42.518	$GPGGA,120543,2429.3235,N,08118.3941,W,1,10,1.7,19,M,,M,,*6B
06/12/2015	12:05:43.608	$GPGGA,120544,2429.3237,N,08118.3922,W,1,9,1.8,19,M,,M,,*5C
06/12/2015	12:05:44.508	$GPGGA,120545,2429.3239,N,08118.3905,W,1,9,1.7,19,M,,M,,*59
06/12/2015	12:05:45.628	$GPGGA,120546,2429.3242,N,08118.3888,W,1,8,2.0,19,M,,M,,*57
06/12/2015	12:05:46.598	$GPGGA,120547,2429.3245,N,08118.3869,W,1,8,1.7,19,M,,M,,*5A
06/12/2015	12:05:47.638	$GPGGA,120548,2429.3246,N,08118.3848,W,1,10,1.7,19,M,,M,,*6C
06/12/2015	12:05:48.609	$GPGGA,120549,2429.3250,N,08118.3830,W,1,10,1.7,19,M,,M,,*65
06/12/2015	12:05:49.599	$GPGGA,120550,2429.3253,N,08118.3811,W,1,10,1.7,19,M,,M,,*6D
06/12/2015	12:05:50.589	$GPGGA,120551,2429.3257,N,08118.3791,W,1,10,1.7,19,M,,M,,*6F
06/12/2015	12:05:51.599	$GPGGA,120552,2429.3257,N,08118.3775,W,1,9,2.0,19,M,,M,,*5A
06/12/2015	12:05:52.578	$GPGGA,120553,2429.3260,N,08118.3757,W,1,9,1.7,19,M,,M,,*5B
06/12/2015	12:05:53.608	$GPGGA,120554,2429.3264,N,08118.3739,W,1,10,1.7,19,M,,M,,*68
06/12/2015	12:05:54.571	$GPGGA,120555,2429.3268,N,08118.3721,W,1,10,1.7,19,M,,M,,*6C
06/12/2015	12:05:55.608	$GPGGA,120556,2429.3268,N,08118.3702,W,1,10,1.7,19,M,,M,,*6E
06/12/2015	12:05:56.588	$GPGGA,120557,2429.3273,N,08118.3683,W,1,10,2.0,19,M,,M,,*69
06/12/2015	12:05:57.598	$GPGGA,120558,2429.3277,N,08118.3665,W,1,9,2.0,19,M,,M,,*52
06/12/2015	12:05:58.572	$GPGGA,120559,2429.3279,N,08118.3645,W,1,9,1.7,19,M,,M,,*5B
06/12/2015	12:05:59.608	$GPGGA,120600,2429.3284,N,08118.3627,W,1,10,1.7,19,M,,M,,*6A
06/12/2015	12:06:00.578	$GPGGA,120601,2429.3288,N,08118.3610,W,1,10,1.8,19,M,,M,,*6C
06/12/2015	12:06:01.558	$GPGGA,120602,2429.3290,N,08118.3592,W,1,8,2.3,19,M,,M,,*5E
06/12/2015	12:06:02.558	$GPGGA,120603,2429.3296,N,08118.3574,W,1,8,1.7,19,M,,M,,*56
06/12/2015	12:06:03.608	$GPGGA,120604,2429.3302,N,08118.3558,W,1,10,1.7,19,M,,M,,*6A
06/12/2015	12:06:04.558	$GPGGA,120605,2429.3306,N,08118.3539,W,1,10,2.0,19,M,,M,,*6C
06/12/2015	12:06:05.589	$GPGGA,120606,2429.3310,N,08118.3518,W,1,9,1.8,19,M,,M,,*58
06/12/2015	12:06:06.559	$GPGGA,120607,2429.3315,N,08118.3499,W,1,9,1.7,19,M,,M,,*5B
06/12/2015	12:06:07.579	$GPGGA,120608,2429.3322,N,08118.3480,W,1,10,1.7,19,M,,M,,*60
06/12/2015	12:06:08.549	$GPGGA,120609,2429.3325,N,08118.3461,W,1,10,1.7,19,M,,M,,*69
06/12/2015	12:06:09.548	$GPGGA,120610,2429.3329,N,08118.3442,W,1,10,1.7,19,M,,M,,*6C
06/12/2015	12:06:10.558	$GPGGA,120611,2429.3336,N,08118.3424,W,1,10,1.7,19,M,,M,,*63
06/12/2015	12:06:11.568	$GPGGA,120612,2429.3340,N,08118.3406,W,1,10,1.7,19,M,,M,,*61
06/12/2015	12:06:12.538	$GPGGA,120613,2429.3344,N,08118.3386,W,1,10,1.7,19,M,,M,,*6B
06/12/2015	12:06:13.569	$GPGGA,120614,2429.3350,N,08118.3368,W,1,10,1.7,19,M,,M,,*69
06/12/2015	12:06:14.658	$GPGGA,120615,2429.3354,N,08118.3350,W,1,10,1.7,19,M,,M,,*67
06/12/2015	12:06:15.548	$GPGGA,120616,2429.3358,N,08118.3332,W,1,10,1.7,19,M,,M,,*6C
06/12/2015	12:06:16.538	$GPGGA,120617,2429.3364,N,08118.3314,W,1,10,1.7,19,M,,M,,*66
06/12/2015	12:06:17.638	$GPGGA,120618,2429.3369,N,08118.3296,W,1,10,1.7,19,M,,M,,*6F
06/12/2015	12:06:18.528	$GPGGA,120619,2429.3372,N,08118.3277,W,1,10,1.7,19,M,,M,,*6B
06/12/2015	12:06:19.548	$GPGGA,120620,2429.3376,N,08118.3259,W,1,10,1.7,19,M,,M,,*69
06/12/2015	12:06:20.518	$GPGGA,120621,2429.3383,N,08118.3241,W,1,10,1.7,19,M,,M,,*6B
06/12/2015	12:06:21.538	$GPGGA,120622,2429.3389,N,08118.3221,W,1,10,1.7,19,M,,M,,*64
06/12/2015	12:06:22.518	$GPGGA,120623,2429.3391,N,08118.3203,W,1,10,1.7,19,M,,M,,*6C
06/12/2015	12:06:23.529	$GPGGA,120624,2429.3396,N,08118.3184,W,1,10,1.7,19,M,,M,,*60
06/12/2015	12:06:24.519	$GPGGA,120625,2429.3401,N,08118.3167,W,1,10,1.7,19,M,,M,,*65
06/12/2015	12:06:25.529	$GPGGA,120626,2429.3404,N,08118.3147,W,1,8,2.3,19,M,,M,,*5F
06/12/2015	12:06:26.509	$GPGGA,120627,2429.3409,N,08118.3129,W,1,8,1.7,19,M,,M,,*5C
06/12/2015	12:06:27.508	$GPGGA,120628,2429.3415,N,08118.3112,W,1,10,1.7,19,M,,M,,*6F
06/12/2015	12:06:28.508	$GPGGA,120629,2429.3416,N,08118.3093,W,1,10,1.7,19,M,,M,,*65
06/12/2015	12:06:29.598	$GPGGA,120630,2429.3422,N,08118.3077,W,1,10,1.7,19,M,,M,,*60
06/12/2015	12:06:30.518	$GPGGA,120631,2429.3427,N,08118.3061,W,1,10,2.3,19,M,,M,,*64
06/12/2015	12:06:31.648	$GPGGA,120632,2429.3432,N,08118.3042,W,1,10,1.7,19,M,,M,,*65
06/12/2015	12:06:32.588	$GPGGA,120633,2429.3433,N,08118.3022,W,1,10,1.7,19,M,,M,,*63
06/12/2015	12:06:33.608	$GPGGA,120634,2429.3438,N,08118.3005,W,1,9,1.8,19,M,,M,,*5D
06/12/2015	12:06:34.498	$GPGGA,120635,2429.3445,N,08118.2989,W,1,9,2.3,19,M,,M,,*52
06/12/2015	12:06:35.598	$GPGGA,120636,2429.3445,N,08118.2975,W,1,9,2.0,19,M,,M,,*51
06/12/2015	12:06:36.579	$GPGGA,120637,2429.3447,N,08118.2958,W,1,9,2.3,20,M,,M,,*54
06/12/2015	12:06:37.598	$GPGGA,120638,2429.3449,N,08118.2941,W,1,8,2.3,20,M,,M,,*5C
06/12/2015	12:06:38.578	$GPGGA,120639,2429.3452,N,08118.2923,W,1,8,1.7,20,M,,M,,*54
06/12/2015	12:06:39.618	$GPGGA,120640,2429.3454,N,08118.2906,W,1,9,2.0,20,M,,M,,*5E
06/12/2015	12:06:40.579	$GPGGA,120641,2429.3459,N,08118.2890,W,1,9,1.7,20,M,,M,,*58
06/12/2015	12:06:41.609	$GPGGA,120642,2429.3463,N,08118.2871,W,1,10,1.7,20,M,,M,,*65
06/12/2015	12:06:42.589	$GPGGA,120643,2429.3463,N,08118.2855,W,1,10,1.8,20,M,,M,,*6D
06/12/2015	12:06:43.619	$GPGGA,120644,2429.3466,N,08118.2839,W,1,10,1.7,21,M,,M,,*6B
06/12/2015	12:06:44.569	$GPGGA,120645,2429.3472,N,08118.2820,W,1,10,1.7,21,M,,M,,*67
06/12/2015	12:06:45.588	$GPGGA,120646,2429.3476,N,08118.2804,W,1,8,2.0,21,M,,M,,*5B
06/12/2015	12:06:46.558	$GPGGA,120647,2429.3479,N,08118.2788,W,1,8,1.7,21,M,,M,,*5A
06/12/2015	12:06:47.598	$GPGGA,120648,2429.3481,N,08118.2770,W,1,10,1.7,21,M,,M,,*6C
06/12/2015	12:06:48.568	$GPGGA,120649,2429.3484,N,08118.2754,W,1,10,1.8,22,M,,M,,*62
06/12/2015	12:06:49.558	$GPGGA,120650,2429.3488,N,08118.2738,W,1,10,1.7,22,M,,M,,*63
06/12/2015	12:06:50.569	$GPGGA,120651,2429.3491,N,08118.2721,W,1,10,1.7,22,M,,M,,*62
06/12/2015	12:06:51.598	$GPGGA,120652,2429.3492,N,08118.2704,W,1,9,1.8,22,M,,M,,*52
06/12/2015	12:06:52.558	$GPGGA,120653,2429.3495,N,08118.2688,W,1,9,1.8,22,M,,M,,*51
06/12/2015	12:06:53.548	$GPGGA,120654,2429.3499,N,08118.2670,W,1,10,1.7,22,M,,M,,*6A
06/12/2015	12:06:54.548	$GPGGA,120655,2429.3503,N,08118.2653,W,1,10,1.7,22,M,,M,,*68
06/12/2015	12:06:55.598	$GPGGA,120656,2429.3503,N,08118.2635,W,1,10,1.7,22,M,,M,,*6B
06/12/2015	12:06:56.538	$GPGGA,120657,2429.3506,N,08118.2617,W,1,10,1.7,22,M,,M,,*6F
06/12/2015	12:06:59.469	$GPGGA,120659,2429.3513,N,08118.2585,W,1,10,1.8,22,M,,M,,*62
06/12/2015	12:06:59.587	$GPGGA,120700,2429.3516,N,08118.2567,W,1,10,1.7,22,M,,M,,*69
06/12/2015	12:07:00.517	$GPGGA,120701,2429.3517,N,08118.2549,W,1,10,1.7,22,M,,M,,*65
06/12/2015	12:07:01.547	$GPGGA,120702,2429.3520,N,08118.2532,W,1,10,1.7,22,M,,M,,*6E
06/12/2015	12:07:02.536	$GPGGA,120703,2429.3524,N,08118.2515,W,1,10,1.7,22,M,,M,,*6E
06/12/2015	12:07:03.546	$GPGGA,120704,2429.3527,N,08118.2497,W,1,10,1.7,22,M,,M,,*61
06/12/2015	12:07:04.506	$GPGGA,120705,2429.3528,N,08118.2478,W,1,10,1.7,22,M,,M,,*6E
06/12/2015	12:07:05.506	$GPGGA,120706,2429.3531,N,08118.2461,W,1,9,1.8,22,M,,M,,*5A
06/12/2015	12:07:06.606	$GPGGA,120707,2429.3537,N,08118.2441,W,1,9,1.8,22,M,,M,,*5F
06/12/2015	12:07:07.562	$GPGGA,120708,2429.3539,N,08118.2422,W,1,10,1.7,22,M,,M,,*6C
06/12/2015	12:07:08.516	$GPGGA,120709,2429.3539,N,08118.2402,W,1,10,1.7,22,M,,M,,*6F
06/12/2015	12:07:09.596	$GPGGA,120710,2429.3545,N,08118.2383,W,1,10,1.7,22,M,,M,,*62
06/12/2015	12:07:10.596	$GPGGA,120711,2429.3550,N,08118.2365,W,1,10,2.0,22,M,,M,,*6B
06/12/2015	12:07:11.526	$GPGGA,120712,2429.3555,N,08118.2346,W,1,10,1.7,22,M,,M,,*68
06/12/2015	12:07:12.516	$GPGGA,120713,2429.3557,N,08118.2327,W,1,10,1.7,21,M,,M,,*6F
06/12/2015	12:07:13.586	$GPGGA,120714,2429.3560,N,08118.2311,W,1,8,2.3,21,M,,M,,*57
06/12/2015	12:07:14.586	$GPGGA,120715,2429.3564,N,08118.2293,W,1,8,1.7,21,M,,M,,*5E
06/12/2015	12:07:15.496	$GPGGA,120716,2429.3568,N,08118.2275,W,1,10,1.7,21,M,,M,,*60
06/12/2015	12:07:16.584	$GPGGA,120717,2429.3571,N,08118.2257,W,1,10,1.7,21,M,,M,,*69
06/12/2015	12:07:17.497	$GPGGA,120718,2429.3573,N,08118.2237,W,1,9,2.0,21,M,,M,,*5E
06/12/2015	12:07:18.497	$GPGGA,120719,2429.3575,N,08118.2221,W,1,9,1.8,21,M,,M,,*55
06/12/2015	12:07:19.636	$GPGGA,120720,2429.3581,N,08118.2205,W,1,8,2.3,21,M,,M,,*5B
06/12/2015	12:07:20.576	$GPGGA,120721,2429.3585,N,08118.2186,W,1,8,2.3,21,M,,M,,*56
06/12/2015	12:07:22.094	$GPGGA,120722,2429.3588,N,08118.2168,W,1,9,2.0,21,M,,M,,*5A
06/12/2015	12:07:22.586	$GPGGA,120723,2429.3591,N,08118.2149,W,1,9,2.0,21,M,,M,,*50
06/12/2015	12:07:23.596	$GPGGA,120724,2429.3596,N,08118.2131,W,1,10,1.7,21,M,,M,,*63
06/12/2015	12:07:24.586	$GPGGA,120725,2429.3600,N,08118.2110,W,1,10,1.7,21,M,,M,,*6D
06/12/2015	12:07:25.586	$GPGGA,120726,2429.3602,N,08118.2089,W,1,9,2.0,21,M,,M,,*51
06/12/2015	12:07:26.586	$GPGGA,120727,2429.3606,N,08118.2070,W,1,9,1.7,21,M,,M,,*56
06/12/2015	12:07:27.586	$GPGGA,120728,2429.3613,N,08118.2054,W,1,9,1.8,21,M,,M,,*54
06/12/2015	12:07:28.558	$GPGGA,120729,2429.3618,N,08118.2034,W,1,9,1.7,21,M,,M,,*57
06/12/2015	12:07:29.570	$GPGGA,120730,2429.3620,N,08118.2015,W,1,9,2.0,21,M,,M,,*53
06/12/2015	12:07:30.560	$GPGGA,120731,2429.3622,N,08118.2002,W,1,9,2.0,21,M,,M,,*56
06/12/2015	12:07:31.636	$GPGGA,120732,2429.3625,N,08118.1985,W,1,10,1.7,21,M,,M,,*6B
06/12/2015	12:07:32.572	$GPGGA,120733,2429.3631,N,08118.1968,W,1,10,1.7,21,M,,M,,*6C
06/12/2015	12:07:33.570	$GPGGA,120734,2429.3636,N,08118.1954,W,1,9,1.8,21,M,,M,,*54
06/12/2015	12:07:34.557	$GPGGA,120735,2429.3639,N,08118.1934,W,1,9,2.3,21,M,,M,,*54
06/12/2015	12:07:35.597	$GPGGA,120736,2429.3643,N,08118.1919,W,1,10,1.7,21,M,,M,,*6A
06/12/2015	12:07:36.547	$GPGGA,120737,2429.3647,N,08118.1902,W,1,10,1.7,21,M,,M,,*65
06/12/2015	12:07:37.536	$GPGGA,120738,2429.3653,N,08118.1885,W,1,9,2.0,21,M,,M,,*5D
06/12/2015	12:07:38.546	$GPGGA,120739,2429.3658,N,08118.1867,W,1,9,1.8,21,M,,M,,*50
06/12/2015	12:07:39.547	$GPGGA,120740,2429.3661,N,08118.1845,W,1,10,1.7,21,M,,M,,*63
06/12/2015	12:07:40.546	$GPGGA,120741,2429.3665,N,08118.1829,W,1,10,1.7,21,M,,M,,*6C
06/12/2015	12:07:41.546	$GPGGA,120742,2429.3669,N,08118.1812,W,1,9,1.8,21,M,,M,,*5C
06/12/2015	12:07:42.536	$GPGGA,120743,2429.3672,N,08118.1793,W,1,9,2.3,21,M,,M,,*59
06/12/2015	12:07:43.566	$GPGGA,120744,2429.3678,N,08118.1776,W,1,9,1.8,21,M,,M,,*57
06/12/2015	12:07:44.536	$GPGGA,120745,2429.3683,N,08118.1758,W,1,9,1.8,21,M,,M,,*5E
06/12/2015	12:07:45.526	$GPGGA,120746,2429.3683,N,08118.1738,W,1,10,1.7,21,M,,M,,*6C
06/12/2015	12:07:46.546	$GPGGA,120747,2429.3687,N,08118.1721,W,1,10,1.8,21,M,,M,,*6E
06/12/2015	12:07:47.557	$GPGGA,120748,2429.3690,N,08118.1702,W,1,9,1.8,21,M,,M,,*5E
06/12/2015	12:07:48.516	$GPGGA,120749,2429.3694,N,08118.1685,W,1,9,1.8,21,M,,M,,*55
06/12/2015	12:07:49.526	$GPGGA,120750,2429.3698,N,08118.1668,W,1,9,1.8,22,M,,M,,*51
06/12/2015	12:07:50.516	$GPGGA,120751,2429.3705,N,08118.1652,W,1,9,1.7,22,M,,M,,*53
06/12/2015	12:07:51.537	$GPGGA,120752,2429.3708,N,08118.1638,W,1,9,2.0,22,M,,M,,*55
06/12/2015	12:07:52.527	$GPGGA,120753,2429.3712,N,08118.1621,W,1,9,1.7,22,M,,M,,*53
06/12/2015	12:07:53.537	$GPGGA,120754,2429.3719,N,08118.1604,W,1,10,1.7,22,M,,M,,*60
06/12/2015	12:07:54.526	$GPGGA,120755,2429.3723,N,08118.1586,W,1,10,2.0,22,M,,M,,*65
06/12/2015	12:07:55.526	$GPGGA,120756,2429.3726,N,08118.1568,W,1,10,1.7,22,M,,M,,*67
06/12/2015	12:07:56.536	$GPGGA,120757,2429.3730,N,08118.1552,W,1,10,2.3,22,M,,M,,*6F
06/12/2015	12:07:57.596	$GPGGA,120758,2429.3737,N,08118.1534,W,1,9,2.0,21,M,,M,,*5F
06/12/2015	12:07:58.516	$GPGGA,120759,2429.3738,N,08118.1514,W,1,9,2.0,21,M,,M,,*53
06/12/2015	12:08:00.636	$GPGGA,120801,2429.3745,N,08118.1478,W,1,9,1.7,21,M,,M,,*54
06/12/2015	12:08:01.616	$GPGGA,120802,2429.3748,N,08118.1459,W,1,10,1.8,21,M,,M,,*6E
06/12/2015	12:08:02.506	$GPGGA,120803,2429.3751,N,08118.1442,W,1,10,1.8,21,M,,M,,*6D
06/12/2015	12:08:03.606	$GPGGA,120804,2429.3754,N,08118.1424,W,1,10,1.7,21,M,,M,,*60
06/12/2015	12:08:04.496	$GPGGA,120805,2429.3756,N,08118.1404,W,1,10,1.7,21,M,,M,,*61
06/12/2015	12:08:05.596	$GPGGA,120806,2429.3759,N,08118.1387,W,1,10,2.0,21,M,,M,,*65
06/12/2015	12:08:06.496	$GPGGA,120807,2429.3762,N,08118.1371,W,1,10,2.0,21,M,,M,,*65
06/12/2015	12:08:07.596	$GPGGA,120808,2429.3763,N,08118.1355,W,1,9,1.7,21,M,,M,,*51
06/12/2015	12:08:08.577	$GPGGA,120809,2429.3769,N,08118.1338,W,1,9,1.7,21,M,,M,,*51
06/12/2015	12:08:09.617	$GPGGA,120810,2429.3770,N,08118.1322,W,1,10,1.7,21,M,,M,,*62
06/12/2015	12:08:10.577	$GPGGA,120811,2429.3772,N,08118.1305,W,1,10,1.7,21,M,,M,,*64
06/12/2015	12:08:11.647	$GPGGA,120812,2429.3773,N,08118.1291,W,1,10,1.7,21,M,,M,,*6A
06/12/2015	12:08:12.586	$GPGGA,120813,2429.3777,N,08118.1275,W,1,10,1.7,21,M,,M,,*65
06/12/2015	12:08:13.606	$GPGGA,120814,2429.3781,N,08118.1256,W,1,10,2.0,21,M,,M,,*6E
06/12/2015	12:08:14.576	$GPGGA,120815,2429.3784,N,08118.1240,W,1,10,1.7,21,M,,M,,*69
06/12/2015	12:08:15.616	$GPGGA,120816,2429.3786,N,08118.1224,W,1,10,1.7,21,M,,M,,*6A
06/12/2015	12:08:16.566	$GPGGA,120817,2429.3788,N,08118.1207,W,1,10,1.7,21,M,,M,,*64
06/12/2015	12:08:17.576	$GPGGA,120818,2429.3792,N,08118.1189,W,1,10,1.7,21,M,,M,,*65
06/12/2015	12:08:18.570	$GPGGA,120819,2429.3794,N,08118.1174,W,1,10,1.8,21,M,,M,,*6F
06/12/2015	12:08:19.596	$GPGGA,120820,2429.3795,N,08118.1159,W,1,9,1.7,21,M,,M,,*5C
06/12/2015	12:08:20.558	$GPGGA,120821,2429.3798,N,08118.1139,W,1,9,1.7,21,M,,M,,*56
06/12/2015	12:08:21.586	$GPGGA,120822,2429.3802,N,08118.1121,W,1,10,1.7,21,M,,M,,*68
06/12/2015	12:08:22.556	$GPGGA,120823,2429.3806,N,08118.1103,W,1,10,1.7,21,M,,M,,*6D
06/12/2015	12:08:23.626	$GPGGA,120824,2429.3808,N,08118.1084,W,1,10,1.7,21,M,,M,,*6A
06/12/2015	12:08:24.567	$GPGGA,120825,2429.3810,N,08118.1066,W,1,10,1.7,21,M,,M,,*6E
06/12/2015	12:08:25.558	$GPGGA,120826,2429.3815,N,08118.1048,W,1,10,1.7,21,M,,M,,*64
06/12/2015	12:08:26.558	$GPGGA,120827,2429.3820,N,08118.1030,W,1,10,1.7,21,M,,M,,*6C
06/12/2015	12:08:27.547	$GPGGA,120828,2429.3823,N,08118.1011,W,1,10,2.0,21,M,,M,,*67
06/12/2015	12:08:28.537	$GPGGA,120829,2429.3824,N,08118.0994,W,1,10,2.0,22,M,,M,,*67
06/12/2015	12:08:29.566	$GPGGA,120830,2429.3828,N,08118.0976,W,1,9,2.0,22,M,,M,,*57
06/12/2015	12:08:30.526	$GPGGA,120831,2429.3833,N,08118.0958,W,1,9,1.7,22,M,,M,,*54
06/12/2015	12:08:31.616	$GPGGA,120832,2429.3835,N,08118.0941,W,1,10,1.7,22,M,,M,,*61
06/12/2015	12:08:32.526	$GPGGA,120833,2429.3839,N,08118.0925,W,1,10,2.3,22,M,,M,,*69
06/12/2015	12:08:33.526	$GPGGA,120834,2429.3841,N,08118.0905,W,1,8,1.7,22,M,,M,,*5D
06/12/2015	12:08:34.526	$GPGGA,120835,2429.3845,N,08118.0888,W,1,8,1.7,22,M,,M,,*5C
06/12/2015	12:08:35.576	$GPGGA,120836,2429.3848,N,08118.0871,W,1,10,1.7,22,M,,M,,*6D
06/12/2015	12:08:36.526	$GPGGA,120837,2429.3850,N,08118.0853,W,1,10,1.7,22,M,,M,,*65
06/12/2015	12:08:37.546	$GPGGA,120838,2429.3855,N,08118.0835,W,1,10,1.7,22,M,,M,,*6F
06/12/2015	12:08:38.516	$GPGGA,120839,2429.3859,N,08118.0816,W,1,10,1.7,22,M,,M,,*63
06/12/2015	12:08:39.556	$GPGGA,120840,2429.3860,N,08118.0798,W,1,10,1.7,22,M,,M,,*6E
06/12/2015	12:08:40.626	$GPGGA,120841,2429.3864,N,08118.0780,W,1,10,1.7,22,M,,M,,*62
06/12/2015	12:08:41.506	$GPGGA,120842,2429.3868,N,08118.0762,W,1,10,2.0,22,M,,M,,*65
06/12/2015	12:08:42.516	$GPGGA,120843,2429.3874,N,08118.0744,W,1,10,2.4,22,M,,M,,*69
06/12/2015	12:08:43.537	$GPGGA,120844,2429.3877,N,08118.0728,W,1,7,2.0,22,M,,M,,*55
06/12/2015	12:08:44.497	$GPGGA,120845,2429.3881,N,08118.0710,W,1,7,2.3,22,M,,M,,*55
06/12/2015	12:08:45.517	$GPGGA,120846,2429.3885,N,08118.0692,W,1,8,2.3,22,M,,M,,*56
06/12/2015	12:08:46.597	$GPGGA,120847,2429.3889,N,08118.0676,W,1,8,2.3,22,M,,M,,*51
06/12/2015	12:08:47.617	$GPGGA,120848,2429.3893,N,08118.0657,W,1,9,1.7,23,M,,M,,*51
06/12/2015	12:08:48.506	$GPGGA,120849,2429.3896,N,08118.0638,W,1,9,2.0,23,M,,M,,*58
06/12/2015	12:08:49.526	$GPGGA,120850,2429.3900,N,08118.0621,W,1,9,2.0,23,M,,M,,*56
06/12/2015	12:08:50.506	$GPGGA,120851,2429.3904,N,08118.0603,W,1,9,1.7,23,M,,M,,*57
06/12/2015	12:08:51.606	$GPGGA,120852,2429.3907,N,08118.0585,W,1,10,1.7,23,M,,M,,*62
06/12/2015	12:08:52.586	$GPGGA,120853,2429.3911,N,08118.0570,W,1,10,1.7,23,M,,M,,*6E
06/12/2015	12:08:53.586	$GPGGA,120854,2429.3915,N,08118.0552,W,1,10,1.7,23,M,,M,,*6D
06/12/2015	12:08:54.576	$GPGGA,120855,2429.3920,N,08118.0534,W,1,10,1.7,23,M,,M,,*6A
06/12/2015	12:08:55.586	$GPGGA,120856,2429.3922,N,08118.0518,W,1,10,1.7,23,M,,M,,*65
06/12/2015	12:08:56.576	$GPGGA,120857,2429.3925,N,08118.0500,W,1,10,1.7,23,M,,M,,*6A
06/12/2015	12:08:57.607	$GPGGA,120858,2429.3928,N,08118.0482,W,1,10,1.7,23,M,,M,,*63
06/12/2015	12:08:58.576	$GPGGA,120859,2429.3932,N,08118.0466,W,1,10,1.7,23,M,,M,,*63
06/12/2015	12:08:59.616	$GPGGA,120900,2429.3935,N,08118.0448,W,1,10,1.7,23,M,,M,,*65
06/12/2015	12:09:00.577	$GPGGA,120901,2429.3936,N,08118.0430,W,1,10,1.7,23,M,,M,,*68
06/12/2015	12:09:01.587	$GPGGA,120902,2429.3940,N,08118.0413,W,1,10,1.7,23,M,,M,,*6B
06/12/2015	12:09:02.567	$GPGGA,120903,2429.3943,N,08118.0395,W,1,10,1.7,23,M,,M,,*60
06/12/2015	12:09:03.587	$GPGGA,120904,2429.3947,N,08118.0377,W,1,9,1.7,24,M,,M,,*50
06/12/2015	12:09:04.576	$GPGGA,120905,2429.3950,N,08118.0358,W,1,9,1.7,24,M,,M,,*5A
06/12/2015	12:09:05.576	$GPGGA,120906,2429.3954,N,08118.0342,W,1,9,2.0,24,M,,M,,*52
06/12/2015	12:09:06.546	$GPGGA,120907,2429.3958,N,08118.0325,W,1,9,1.7,24,M,,M,,*5A
06/12/2015	12:09:07.586	$GPGGA,120908,2429.3962,N,08118.0308,W,1,10,1.7,24,M,,M,,*6B
06/12/2015	12:09:08.556	$GPGGA,120909,2429.3965,N,08118.0289,W,1,10,1.7,23,M,,M,,*62
06/12/2015	12:09:09.566	$GPGGA,120910,2429.3968,N,08118.0272,W,1,9,2.0,23,M,,M,,*5F
06/12/2015	12:09:10.559	$GPGGA,120911,2429.3972,N,08118.0255,W,1,9,1.7,23,M,,M,,*54
06/12/2015	12:09:11.559	$GPGGA,120912,2429.3976,N,08118.0237,W,1,10,1.7,23,M,,M,,*6F
06/12/2015	12:09:12.546	$GPGGA,120913,2429.3978,N,08118.0220,W,1,10,1.7,23,M,,M,,*66
06/12/2015	12:09:13.536	$GPGGA,120914,2429.3980,N,08118.0200,W,1,10,1.7,23,M,,M,,*64
06/12/2015	12:09:14.546	$GPGGA,120915,2429.3985,N,08118.0183,W,1,10,1.7,23,M,,M,,*68
06/12/2015	12:09:15.536	$GPGGA,120916,2429.3987,N,08118.0164,W,1,10,1.7,23,M,,M,,*60
06/12/2015	12:09:16.546	$GPGGA,120917,2429.3990,N,08118.0145,W,1,10,1.7,23,M,,M,,*64
06/12/2015	12:09:17.536	$GPGGA,120918,2429.3994,N,08118.0128,W,1,9,2.0,23,M,,M,,*58
06/12/2015	12:09:18.537	$GPGGA,120919,2429.4000,N,08118.0110,W,1,9,1.7,23,M,,M,,*55
06/12/2015	12:09:19.547	$GPGGA,120920,2429.4001,N,08118.0091,W,1,10,1.7,23,M,,M,,*6E
06/12/2015	12:09:20.827	$GPGGA,120921,2429.4005,N,08118.0075,W,1,10,2.3,23,M,,M,,*66
06/12/2015	12:09:21.537	$GPGGA,120922,2429.4011,N,08118.0059,W,1,8,2.3,23,M,,M,,*57
06/12/2015	12:09:22.646	$GPGGA,120923,2429.4014,N,08118.0040,W,1,8,2.0,23,M,,M,,*58
06/12/2015	12:09:23.572	$GPGGA,120924,2429.4016,N,08118.0023,W,1,9,2.0,23,M,,M,,*59
06/12/2015	12:09:24.516	$GPGGA,120925,2429.4022,N,08118.0006,W,1,9,2.0,23,M,,M,,*58
06/12/2015	12:09:25.626	$GPGGA,120926,2429.4025,N,08117.9986,W,1,9,2.0,23,M,,M,,*5B
06/12/2015	12:09:26.536	$GPGGA,120927,2429.4026,N,08117.9968,W,1,9,2.0,23,M,,M,,*59
06/12/2015	12:09:27.646	$GPGGA,120928,2429.4032,N,08117.9951,W,1,9,2.0,23,M,,M,,*59
06/12/2015	12:09:28.516	$GPGGA,120929,2429.4036,N,08117.9932,W,1,9,1.7,23,M,,M,,*5D
06/12/2015	12:09:29.516	$GPGGA,120930,2429.4037,N,08117.9913,W,1,9,2.0,23,M,,M,,*53
06/12/2015	12:09:30.596	$GPGGA,120931,2429.4041,N,08117.9895,W,1,9,1.8,23,M,,M,,*57
06/12/2015	12:09:31.606	$GPGGA,120932,2429.4044,N,08117.9880,W,1,10,1.7,23,M,,M,,*62
06/12/2015	12:09:32.606	$GPGGA,120933,2429.4048,N,08117.9862,W,1,10,1.7,23,M,,M,,*63
06/12/2015	12:09:33.596	$GPGGA,120934,2429.4052,N,08117.9844,W,1,10,1.7,23,M,,M,,*6B
06/12/2015	12:09:34.596	$GPGGA,120935,2429.4057,N,08117.9827,W,1,10,1.7,23,M,,M,,*6A
06/12/2015	12:09:35.607	$GPGGA,120936,2429.4059,N,08117.9810,W,1,10,1.7,23,M,,M,,*63
06/12/2015	12:09:36.597	$GPGGA,120937,2429.4062,N,08117.9792,W,1,10,2.0,23,M,,M,,*6B
06/12/2015	12:09:37.617	$GPGGA,120938,2429.4068,N,08117.9777,W,1,9,2.0,23,M,,M,,*5D
06/12/2015	12:09:38.587	$GPGGA,120939,2429.4073,N,08117.9760,W,1,9,1.8,23,M,,M,,*5B
06/12/2015	12:09:39.606	$GPGGA,120940,2429.4077,N,08117.9741,W,1,10,1.7,23,M,,M,,*65
06/12/2015	12:09:40.586	$GPGGA,120941,2429.4079,N,08117.9723,W,1,10,1.7,23,M,,M,,*6E
06/12/2015	12:09:41.576	$GPGGA,120942,2429.4084,N,08117.9706,W,1,10,1.7,23,M,,M,,*68
06/12/2015	12:09:42.586	$GPGGA,120943,2429.4090,N,08117.9689,W,1,10,1.7,23,M,,M,,*6A
06/12/2015	12:09:43.596	$GPGGA,120944,2429.4092,N,08117.9672,W,1,10,1.7,23,M,,M,,*6B
06/12/2015	12:09:44.576	$GPGGA,120945,2429.4095,N,08117.9652,W,1,10,1.8,23,M,,M,,*60
06/12/2015	12:09:45.586	$GPGGA,120946,2429.4099,N,08117.9635,W,1,10,1.7,23,M,,M,,*61
06/12/2015	12:09:46.578	$GPGGA,120947,2429.4102,N,08117.9619,W,1,10,1.7,23,M,,M,,*6D
06/12/2015	12:09:47.596	$GPGGA,120948,2429.4106,N,08117.9604,W,1,9,1.8,23,M,,M,,*5D
06/12/2015	12:09:48.576	$GPGGA,120949,2429.4110,N,08117.9587,W,1,9,1.7,23,M,,M,,*5C
06/12/2015	12:09:49.586	$GPGGA,120950,2429.4112,N,08117.9569,W,1,10,1.7,23,M,,M,,*6E
06/12/2015	12:09:50.570	$GPGGA,120951,2429.4116,N,08117.9555,W,1,10,1.7,22,M,,M,,*65
06/12/2015	12:09:51.606	$GPGGA,120952,2429.4122,N,08117.9539,W,1,10,1.7,22,M,,M,,*6B
06/12/2015	12:09:52.568	$GPGGA,120953,2429.4124,N,08117.9520,W,1,10,1.7,22,M,,M,,*64
06/12/2015	12:09:53.547	$GPGGA,120954,2429.4126,N,08117.9503,W,1,10,1.7,22,M,,M,,*60
06/12/2015	12:09:54.563	$GPGGA,120955,2429.4130,N,08117.9488,W,1,10,1.8,22,M,,M,,*6B
06/12/2015	12:09:55.577	$GPGGA,120956,2429.4135,N,08117.9469,W,1,9,1.8,22,M,,M,,*5A
06/12/2015	12:09:56.572	$GPGGA,120957,2429.4137,N,08117.9452,W,1,9,1.7,22,M,,M,,*5E
06/12/2015	12:09:57.546	$GPGGA,120958,2429.4138,N,08117.9434,W,1,10,1.7,22,M,,M,,*66
06/12/2015	12:09:58.558	$GPGGA,120959,2429.4142,N,08117.9416,W,1,10,1.7,22,M,,M,,*6A
06/12/2015	12:09:59.596	$GPGGA,121000,2429.4145,N,08117.9401,W,1,10,1.7,22,M,,M,,*6F
06/12/2015	12:10:00.546	$GPGGA,121001,2429.4146,N,08117.9384,W,1,10,1.7,22,M,,M,,*67
06/12/2015	12:10:01.536	$GPGGA,121002,2429.4149,N,08117.9365,W,1,10,1.7,21,M,,M,,*67
06/12/2015	12:10:02.526	$GPGGA,121003,2429.4155,N,08117.9350,W,1,10,1.8,21,M,,M,,*62
06/12/2015	12:10:03.576	$GPGGA,121004,2429.4156,N,08117.9335,W,1,10,1.7,21,M,,M,,*6A
06/12/2015	12:10:04.526	$GPGGA,121005,2429.4159,N,08117.9317,W,1,10,1.7,21,M,,M,,*64
06/12/2015	12:10:05.526	$GPGGA,121006,2429.4162,N,08117.9301,W,1,10,1.7,21,M,,M,,*68
06/12/2015	12:10:06.546	$GPGGA,121007,2429.4164,N,08117.9286,W,1,10,1.7,21,M,,M,,*61
06/12/2015	12:10:07.546	$GPGGA,121008,2429.4167,N,08117.9268,W,1,10,1.7,21,M,,M,,*6D
06/12/2015	12:10:08.516	$GPGGA,121009,2429.4171,N,08117.9253,W,1,10,1.7,21,M,,M,,*63
06/12/2015	12:10:09.561	$GPGGA,121010,2429.4173,N,08117.9236,W,1,10,1.7,21,M,,M,,*6A
06/12/2015	12:10:10.517	$GPGGA,121011,2429.4175,N,08117.9218,W,1,10,1.7,21,M,,M,,*61
06/12/2015	12:10:11.527	$GPGGA,121012,2429.4178,N,08117.9202,W,1,10,1.7,20,M,,M,,*65
06/12/2015	12:10:12.507	$GPGGA,121013,2429.4181,N,08117.9184,W,1,10,1.7,20,M,,M,,*6F
06/12/2015	12:10:13.507	$GPGGA,121014,2429.4184,N,08117.9167,W,1,9,1.8,20,M,,M,,*57
06/12/2015	12:10:14.516	$GPGGA,121015,2429.4185,N,08117.9148,W,1,9,1.8,20,M,,M,,*5A
06/12/2015	12:10:15.616	$GPGGA,121016,2429.4189,N,08117.9131,W,1,10,1.7,20,M,,M,,*6C
06/12/2015	12:10:16.516	$GPGGA,121017,2429.4193,N,08117.9115,W,1,10,1.7,20,M,,M,,*60
06/12/2015	12:10:17.526	$GPGGA,121018,2429.4193,N,08117.9096,W,1,10,1.7,20,M,,M,,*65
06/12/2015	12:10:18.596	$GPGGA,121019,2429.4196,N,08117.9079,W,1,10,1.8,20,M,,M,,*6F
06/12/2015	12:10:19.606	$GPGGA,121020,2429.4202,N,08117.9058,W,1,10,1.7,20,M,,M,,*67
06/12/2015	12:10:20.616	$GPGGA,121021,2429.4204,N,08117.9041,W,1,10,2.0,20,M,,M,,*6C
06/12/2015	12:10:21.626	$GPGGA,121022,2429.4206,N,08117.9022,W,1,9,1.8,20,M,,M,,*5B
06/12/2015	12:10:22.496	$GPGGA,121023,2429.4209,N,08117.9003,W,1,9,1.7,20,M,,M,,*59
06/12/2015	12:10:23.616	$GPGGA,121024,2429.4214,N,08117.8986,W,1,10,1.7,19,M,,M,,*65
06/12/2015	12:10:24.606	$GPGGA,121025,2429.4217,N,08117.8968,W,1,10,1.7,19,M,,M,,*67
06/12/2015	12:10:25.576	$GPGGA,121026,2429.4218,N,08117.8949,W,1,10,1.7,19,M,,M,,*68
06/12/2015	12:10:26.586	$GPGGA,121027,2429.4222,N,08117.8934,W,1,10,1.8,19,M,,M,,*65
06/12/2015	12:10:27.636	$GPGGA,121028,2429.4229,N,08117.8918,W,1,10,1.7,19,M,,M,,*60
06/12/2015	12:10:28.577	$GPGGA,121029,2429.4231,N,08117.8900,W,1,10,1.7,19,M,,M,,*61
06/12/2015	12:10:29.607	$GPGGA,121030,2429.4234,N,08117.8883,W,1,10,1.7,19,M,,M,,*66
06/12/2015	12:10:30.577	$GPGGA,121031,2429.4236,N,08117.8864,W,1,10,2.3,19,M,,M,,*6B
06/12/2015	12:10:31.617	$GPGGA,121032,2429.4242,N,08117.8845,W,1,9,2.0,19,M,,M,,*53
06/12/2015	12:10:32.567	$GPGGA,121033,2429.4246,N,08117.8828,W,1,9,1.7,19,M,,M,,*59
06/12/2015	12:10:33.596	$GPGGA,121034,2429.4249,N,08117.8810,W,1,10,1.7,19,M,,M,,*62
06/12/2015	12:10:34.576	$GPGGA,121035,2429.4251,N,08117.8794,W,1,10,1.7,19,M,,M,,*69
06/12/2015	12:10:35.586	$GPGGA,121036,2429.4256,N,08117.8779,W,1,8,2.3,19,M,,M,,*50
06/12/2015	12:10:36.567	$GPGGA,121037,2429.4260,N,08117.8761,W,1,8,2.3,19,M,,M,,*5D
06/12/2015	12:10:37.576	$GPGGA,121038,2429.4264,N,08117.8742,W,1,10,1.7,19,M,,M,,*69
06/12/2015	12:10:38.566	$GPGGA,121039,2429.4268,N,08117.8727,W,1,10,2.0,19,M,,M,,*63
06/12/2015	12:10:39.586	$GPGGA,121040,2429.4271,N,08117.8709,W,1,8,2.3,19,M,,M,,*53
06/12/2015	12:10:40.546	$GPGGA,121041,2429.4275,N,08117.8692,W,1,8,1.7,19,M,,M,,*52
06/12/2015	12:10:41.576	$GPGGA,121042,2429.4281,N,08117.8675,W,1,9,1.8,19,M,,M,,*5D
06/12/2015	12:10:42.546	$GPGGA,121043,2429.4283,N,08117.8659,W,1,9,2.0,19,M,,M,,*5B
06/12/2015	12:10:43.576	$GPGGA,121044,2429.4286,N,08117.8634,W,1,9,1.8,19,M,,M,,*59
06/12/2015	12:10:44.546	$GPGGA,121045,2429.4292,N,08117.8617,W,1,9,1.7,19,M,,M,,*53
06/12/2015	12:10:45.547	$GPGGA,121046,2429.4296,N,08117.8601,W,1,9,1.8,19,M,,M,,*5C
06/12/2015	12:10:46.559	$GPGGA,121047,2429.4300,N,08117.8583,W,1,9,1.9,19,M,,M,,*5B
06/12/2015	12:10:47.567	$GPGGA,121048,2429.4305,N,08117.8566,W,1,10,1.7,19,M,,M,,*6C
06/12/2015	12:10:48.560	$GPGGA,121049,2429.4308,N,08117.8548,W,1,10,1.9,19,M,,M,,*62
06/12/2015	12:10:49.558	$GPGGA,121050,2429.4311,N,08117.8529,W,1,10,1.7,19,M,,M,,*6B
06/12/2015	12:10:50.536	$GPGGA,121051,2429.4315,N,08117.8512,W,1,10,1.7,19,M,,M,,*66
06/12/2015	12:10:51.956	$GPGGA,121052,2429.4321,N,08117.8497,W,1,9,1.9,19,M,,M,,*58
06/12/2015	12:10:52.536	$GPGGA,121053,2429.4325,N,08117.8480,W,1,9,1.7,19,M,,M,,*55
06/12/2015	12:10:53.526	$GPGGA,121054,2429.4328,N,08117.8460,W,1,9,1.8,19,M,,M,,*5E
06/12/2015	12:10:54.659	$GPGGA,121055,2429.4332,N,08117.8444,W,1,9,1.9,19,M,,M,,*53
06/12/2015	12:10:55.716	$GPGGA,121056,2429.4337,N,08117.8428,W,1,10,1.9,19,M,,M,,*67
06/12/2015	12:10:56.546	$GPGGA,121057,2429.4341,N,08117.8410,W,1,10,1.9,19,M,,M,,*6C
06/12/2015	12:10:57.506	$GPGGA,121058,2429.4344,N,08117.8393,W,1,9,1.9,19,M,,M,,*52
06/12/2015	12:10:58.646	$GPGGA,121059,2429.4346,N,08117.8378,W,1,9,2.6,19,M,,M,,*58
06/12/2015	12:10:59.576	$GPGGA,121100,2429.4351,N,08117.8361,W,1,10,1.7,19,M,,M,,*61
06/12/2015	12:11:00.616	$GPGGA,121101,2429.4355,N,08117.8343,W,1,10,1.7,19,M,,M,,*64
06/12/2015	12:11:01.506	$GPGGA,121102,2429.4357,N,08117.8325,W,1,10,1.7,19,M,,M,,*65
06/12/2015	12:11:02.516	$GPGGA,121103,2429.4359,N,08117.8309,W,1,10,1.7,19,M,,M,,*64
06/12/2015	12:11:03.697	$GPGGA,121104,2429.4362,N,08117.8293,W,1,10,1.7,19,M,,M,,*69
06/12/2015	12:11:04.527	$GPGGA,121105,2429.4366,N,08117.8275,W,1,10,1.7,19,M,,M,,*64
06/12/2015	12:11:05.707	$GPGGA,121106,2429.4369,N,08117.8258,W,1,10,1.8,19,M,,M,,*68
06/12/2015	12:11:06.527	$GPGGA,121107,2429.4373,N,08117.8243,W,1,10,1.8,19,M,,M,,*68
06/12/2015	12:11:07.706	$GPGGA,121108,2429.4375,N,08117.8227,W,1,10,1.7,19,M,,M,,*6C
06/12/2015	12:11:08.516	$GPGGA,121109,2429.4377,N,08117.8210,W,1,10,1.7,19,M,,M,,*6B
06/12/2015	12:11:09.686	$GPGGA,121110,2429.4381,N,08117.8192,W,1,9,1.7,19,M,,M,,*5B
06/12/2015	12:11:10.586	$GPGGA,121111,2429.4386,N,08117.8173,W,1,9,1.7,19,M,,M,,*52
06/12/2015	12:11:11.706	$GPGGA,121112,2429.4388,N,08117.8156,W,1,10,1.7,19,M,,M,,*60
06/12/2015	12:11:12.586	$GPGGA,121113,2429.4390,N,08117.8138,W,1,10,1.7,19,M,,M,,*60
06/12/2015	12:11:13.676	$GPGGA,121114,2429.4393,N,08117.8120,W,1,10,1.7,20,M,,M,,*67
06/12/2015	12:11:14.606	$GPGGA,121115,2429.4395,N,08117.8104,W,1,10,1.7,20,M,,M,,*66
06/12/2015	12:11:15.676	$GPGGA,121116,2429.4397,N,08117.8087,W,1,10,1.7,20,M,,M,,*6D
06/12/2015	12:11:16.606	$GPGGA,121117,2429.4398,N,08117.8069,W,1,10,1.7,20,M,,M,,*63
06/12/2015	12:11:17.676	$GPGGA,121118,2429.4402,N,08117.8050,W,1,10,1.8,20,M,,M,,*6D
06/12/2015	12:11:18.596	$GPGGA,121119,2429.4406,N,08117.8033,W,1,10,1.8,20,M,,M,,*6D
06/12/2015	12:11:19.663	$GPGGA,121120,2429.4408,N,08117.8016,W,1,10,1.7,20,M,,M,,*61
06/12/2015	12:11:20.587	$GPGGA,121121,2429.4411,N,08117.7997,W,1,10,1.7,20,M,,M,,*67
06/12/2015	12:11:21.657	$GPGGA,121122,2429.4413,N,08117.7981,W,1,10,1.8,20,M,,M,,*6E
06/12/2015	12:11:22.597	$GPGGA,121123,2429.4415,N,08117.7963,W,1,10,1.8,20,M,,M,,*65
06/12/2015	12:11:23.677	$GPGGA,121124,2429.4417,N,08117.7945,W,1,10,1.5,20,M,,M,,*69
06/12/2015	12:11:24.586	$GPGGA,121125,2429.4422,N,08117.7928,W,1,10,1.5,20,M,,M,,*65
06/12/2015	12:11:25.567	$GPGGA,121126,2429.4426,N,08117.7909,W,1,11,1.5,20,M,,M,,*60
06/12/2015	12:11:26.558	$GPGGA,121127,2429.4427,N,08117.7891,W,1,11,1.5,20,M,,M,,*60
06/12/2015	12:11:27.668	$GPGGA,121128,2429.4431,N,08117.7875,W,1,11,1.5,20,M,,M,,*62
06/12/2015	12:11:28.546	$GPGGA,121129,2429.4434,N,08117.7857,W,1,11,1.5,20,M,,M,,*66
06/12/2015	12:11:29.616	$GPGGA,121130,2429.4438,N,08117.7839,W,1,11,1.5,20,M,,M,,*6A
06/12/2015	12:11:30.546	$GPGGA,121131,2429.4441,N,08117.7823,W,1,11,1.5,20,M,,M,,*6E
06/12/2015	12:11:31.646	$GPGGA,121132,2429.4442,N,08117.7805,W,1,11,1.5,20,M,,M,,*6A
06/12/2015	12:11:32.568	$GPGGA,121133,2429.4445,N,08117.7788,W,1,11,1.5,20,M,,M,,*66
06/12/2015	12:11:33.636	$GPGGA,121134,2429.4449,N,08117.7774,W,1,11,1.5,20,M,,M,,*6E
06/12/2015	12:11:34.536	$GPGGA,121135,2429.4452,N,08117.7756,W,1,11,1.5,20,M,,M,,*65
06/12/2015	12:11:35.656	$GPGGA,121136,2429.4451,N,08117.7740,W,1,11,1.5,20,M,,M,,*62
06/12/2015	12:11:36.586	$GPGGA,121137,2429.4456,N,08117.7724,W,1,11,1.5,20,M,,M,,*66
06/12/2015	12:11:37.526	$GPGGA,121138,2429.4460,N,08117.7707,W,1,11,1.5,20,M,,M,,*6D
06/12/2015	12:11:38.647	$GPGGA,121139,2429.4460,N,08117.7692,W,1,11,1.5,20,M,,M,,*61
06/12/2015	12:11:39.658	$GPGGA,121140,2429.4464,N,08117.7675,W,1,11,1.5,20,M,,M,,*62
06/12/2015	12:11:40.558	$GPGGA,121141,2429.4467,N,08117.7658,W,1,11,1.5,20,M,,M,,*6F
06/12/2015	12:11:41.626	$GPGGA,121142,2429.4471,N,08117.7644,W,1,10,1.5,20,M,,M,,*67
06/12/2015	12:11:42.556	$GPGGA,121143,2429.4474,N,08117.7626,W,1,10,1.5,20,M,,M,,*67
06/12/2015	12:11:43.626	$GPGGA,121144,2429.4477,N,08117.7609,W,1,11,1.5,20,M,,M,,*6F
06/12/2015	12:11:44.546	$GPGGA,121145,2429.4482,N,08117.7594,W,1,11,1.5,20,M,,M,,*63
06/12/2015	12:11:45.506	$GPGGA,121146,2429.4487,N,08117.7577,W,1,11,1.5,20,M,,M,,*68
06/12/2015	12:11:46.572	$GPGGA,121147,2429.4489,N,08117.7559,W,1,11,1.5,20,M,,M,,*6B
06/12/2015	12:11:47.672	$GPGGA,121148,2429.4493,N,08117.7545,W,1,10,1.5,19,M,,M,,*69
