Software Version Number: 1	Data File Format Number: 1	Build Version Number: 1	Error Count Since VI Started: 3	Manufacturer: Raytheon	 Model Number: RayMarine 120	 S/N: 	 Cal Date: 	 Wind Direction Offset: 0.00	 Slope (M)1: 0.00	 Offset (B)1: 0.00	 Slope (M)2: 0.00	 Offset (B)2: 0.00	 Slope (M)3: 0.00	 Offset (B)3: 0.00	 Slope (M)4: 0.00	 Offset (B)4: 0.00	 Slope (M)5: 0.00	 Offset (B)5: 0.00	 Slope (M)6: 0.00	 Offset (B)6: 0.00
Computer Date	Computer Time	GGA String
06/26/2015	16:00:00.857	$GPGGA,160001,2552.9543,N,08001.9821,W,1,10,1.4,16,M,,M,,*65
06/26/2015	16:00:01.550	$GPGGA,160002,2552.9556,N,08001.9815,W,1,10,1.4,16,M,,M,,*65
06/26/2015	16:00:02.517	$GPGGA,160003,2552.9568,N,08001.9808,W,1,10,1.4,16,M,,M,,*65
06/26/2015	16:00:03.588	$GPGGA,160004,2552.9582,N,08001.9802,W,1,10,1.4,16,M,,M,,*6C
06/26/2015	16:00:04.578	$GPGGA,160005,2552.9594,N,08001.9795,W,1,10,1.4,16,M,,M,,*6B
06/26/2015	16:00:05.557	$GPGGA,160006,2552.9608,N,08001.9788,W,1,9,1.4,16,M,,M,,*5A
06/26/2015	16:00:06.577	$GPGGA,160007,2552.9621,N,08001.9781,W,1,9,1.4,16,M,,M,,*59
06/26/2015	16:00:07.647	$GPGGA,160008,2552.9635,N,08001.9774,W,1,10,1.4,16,M,,M,,*61
06/26/2015	16:00:08.587	$GPGGA,160009,2552.9647,N,08001.9766,W,1,10,1.7,16,M,,M,,*65
06/26/2015	16:00:09.637	$GPGGA,160010,2552.9659,N,08001.9758,W,1,8,1.4,16,M,,M,,*55
06/26/2015	16:00:10.567	$GPGGA,160011,2552.9673,N,08001.9751,W,1,8,1.4,16,M,,M,,*55
06/26/2015	16:00:11.587	$GPGGA,160012,2552.9688,N,08001.9744,W,1,10,1.4,16,M,,M,,*6F
06/26/2015	16:00:12.557	$GPGGA,160013,2552.9698,N,08001.9738,W,1,10,1.4,16,M,,M,,*64
06/26/2015	16:00:13.537	$GPGGA,160014,2552.9713,N,08001.9730,W,1,10,1.4,16,M,,M,,*69
06/26/2015	16:00:15.561	$GPGGA,160016,2552.9737,N,08001.9716,W,1,10,1.4,16,M,,M,,*69
06/26/2015	16:00:16.553	$GPGGA,160017,2552.9749,N,08001.9709,W,1,10,1.4,16,M,,M,,*6F
06/26/2015	16:00:17.517	$GPGGA,160018,2552.9763,N,08001.9701,W,1,9,1.4,16,M,,M,,*58
06/26/2015	16:00:18.477	$GPGGA,160019,2552.9776,N,08001.9693,W,1,9,1.4,16,M,,M,,*57
06/26/2015	16:00:19.607	$GPGGA,160020,2552.9789,N,08001.9686,W,1,9,1.4,16,M,,M,,*59
06/26/2015	16:00:20.549	$GPGGA,160021,2552.9802,N,08001.9678,W,1,9,1.4,16,M,,M,,*55
06/26/2015	16:00:21.608	$GPGGA,160022,2552.9814,N,08001.9670,W,1,9,1.6,16,M,,M,,*5B
06/26/2015	16:00:22.587	$GPGGA,160023,2552.9827,N,08001.9663,W,1,9,1.6,16,M,,M,,*58
06/26/2015	16:00:23.577	$GPGGA,160024,2552.9839,N,08001.9655,W,1,8,1.4,16,M,,M,,*56
06/26/2015	16:00:24.556	$GPGGA,160025,2552.9852,N,08001.9648,W,1,8,1.6,16,M,,M,,*54
06/26/2015	16:00:25.567	$GPGGA,160026,2552.9865,N,08001.9639,W,1,8,1.4,16,M,,M,,*57
06/26/2015	16:00:26.567	$GPGGA,160027,2552.9879,N,08001.9631,W,1,8,1.4,16,M,,M,,*53
06/26/2015	16:00:27.607	$GPGGA,160028,2552.9892,N,08001.9624,W,1,9,1.6,16,M,,M,,*5E
06/26/2015	16:00:28.587	$GPGGA,160029,2552.9906,N,08001.9616,W,1,9,1.6,16,M,,M,,*52
06/26/2015	16:00:29.577	$GPGGA,160030,2552.9918,N,08001.9609,W,1,9,1.6,16,M,,M,,*5B
06/26/2015	16:00:30.567	$GPGGA,160031,2552.9933,N,08001.9599,W,1,9,1.7,17,M,,M,,*59
06/26/2015	16:00:31.597	$GPGGA,160032,2552.9946,N,08001.9592,W,1,8,1.4,17,M,,M,,*51
06/26/2015	16:00:32.552	$GPGGA,160033,2552.9959,N,08001.9584,W,1,8,1.4,17,M,,M,,*59
06/26/2015	16:00:33.577	$GPGGA,160034,2552.9972,N,08001.9577,W,1,10,1.4,17,M,,M,,*62
06/26/2015	16:00:34.567	$GPGGA,160035,2552.9984,N,08001.9571,W,1,10,1.4,17,M,,M,,*6C
06/26/2015	16:00:35.627	$GPGGA,160036,2552.9998,N,08001.9564,W,1,10,1.4,17,M,,M,,*66
06/26/2015	16:00:36.567	$GPGGA,160037,2553.0012,N,08001.9557,W,1,10,1.4,17,M,,M,,*64
06/26/2015	16:00:37.577	$GPGGA,160038,2553.0024,N,08001.9550,W,1,10,1.4,17,M,,M,,*69
06/26/2015	16:00:38.578	$GPGGA,160039,2553.0038,N,08001.9543,W,1,10,1.4,17,M,,M,,*67
06/26/2015	16:00:39.558	$GPGGA,160040,2553.0051,N,08001.9536,W,1,10,1.4,17,M,,M,,*64
06/26/2015	16:00:40.867	$GPGGA,160041,2553.0065,N,08001.9529,W,1,10,1.4,17,M,,M,,*6C
06/26/2015	16:00:41.551	$GPGGA,160042,2553.0077,N,08001.9522,W,1,9,1.4,17,M,,M,,*5F
06/26/2015	16:00:42.567	$GPGGA,160043,2553.0077,N,08001.9522,W,1,9,1.4,17,M,,M,,*5E
06/26/2015	16:00:43.557	$GPGGA,160044,2553.0103,N,08001.9509,W,1,10,1.4,17,M,,M,,*6A
06/26/2015	16:00:44.552	$GPGGA,160045,2553.0117,N,08001.9501,W,1,10,1.6,17,M,,M,,*64
06/26/2015	16:00:45.527	$GPGGA,160046,2553.0131,N,08001.9493,W,1,9,1.6,17,M,,M,,*51
06/26/2015	16:00:46.567	$GPGGA,160047,2553.0146,N,08001.9485,W,1,9,2.0,17,M,,M,,*52
06/26/2015	16:00:47.557	$GPGGA,160048,2553.0146,N,08001.9485,W,1,8,2.0,17,M,,M,,*5C
06/26/2015	16:00:48.577	$GPGGA,160049,2553.0172,N,08001.9472,W,1,8,1.6,17,M,,M,,*57
06/26/2015	16:00:49.567	$GPGGA,160050,2553.0185,N,08001.9465,W,1,9,1.6,17,M,,M,,*50
06/26/2015	16:00:50.567	$GPGGA,160051,2553.0185,N,08001.9465,W,1,9,1.7,17,M,,M,,*50
06/26/2015	16:00:51.557	$GPGGA,160052,2553.0212,N,08001.9456,W,1,9,1.6,17,M,,M,,*5F
06/26/2015	16:00:52.527	$GPGGA,160053,2553.0212,N,08001.9456,W,1,9,1.4,17,M,,M,,*5C
06/26/2015	16:00:53.643	$GPGGA,160054,2553.0243,N,08001.9443,W,1,10,1.4,17,M,,M,,*63
06/26/2015	16:00:54.517	$GPGGA,160055,2553.0243,N,08001.9443,W,1,10,1.4,17,M,,M,,*62
06/26/2015	16:00:55.527	$GPGGA,160056,2553.0271,N,08001.9429,W,1,10,1.4,17,M,,M,,*6C
06/26/2015	16:00:56.618	$GPGGA,160057,2553.0284,N,08001.9421,W,1,10,1.4,17,M,,M,,*6F
06/26/2015	16:00:57.517	$GPGGA,160058,2553.0298,N,08001.9415,W,1,10,1.4,17,M,,M,,*6A
06/26/2015	16:00:58.557	$GPGGA,160059,2553.0312,N,08001.9407,W,1,10,1.4,17,M,,M,,*6B
06/26/2015	16:00:59.657	$GPGGA,160100,2553.0324,N,08001.9399,W,1,10,1.4,17,M,,M,,*63
06/26/2015	16:01:00.567	$GPGGA,160101,2553.0338,N,08001.9393,W,1,10,1.4,17,M,,M,,*65
06/26/2015	16:01:01.587	$GPGGA,160102,2553.0352,N,08001.9386,W,1,10,1.4,17,M,,M,,*6E
06/26/2015	16:01:02.607	$GPGGA,160103,2553.0366,N,08001.9378,W,1,10,1.4,17,M,,M,,*69
06/26/2015	16:01:03.507	$GPGGA,160104,2553.0378,N,08001.9372,W,1,10,1.4,17,M,,M,,*6B
06/26/2015	16:01:05.617	$GPGGA,160106,2553.0407,N,08001.9358,W,1,10,1.4,17,M,,M,,*6E
06/26/2015	16:01:06.597	$GPGGA,160107,2553.0421,N,08001.9351,W,1,10,1.6,17,M,,M,,*60
06/26/2015	16:01:07.498	$GPGGA,160108,2553.0435,N,08001.9344,W,1,10,1.4,17,M,,M,,*6C
06/26/2015	16:01:08.587	$GPGGA,160109,2553.0450,N,08001.9337,W,1,10,1.6,18,M,,M,,*67
06/26/2015	16:01:09.617	$GPGGA,160110,2553.0464,N,08001.9329,W,1,9,1.6,18,M,,M,,*5F
06/26/2015	16:01:10.577	$GPGGA,160111,2553.0479,N,08001.9321,W,1,9,1.4,18,M,,M,,*58
06/26/2015	16:01:11.649	$GPGGA,160112,2553.0493,N,08001.9315,W,1,10,1.4,18,M,,M,,*60
06/26/2015	16:01:12.587	$GPGGA,160113,2553.0508,N,08001.9308,W,1,10,1.4,18,M,,M,,*6E
06/26/2015	16:01:13.588	$GPGGA,160114,2553.0522,N,08001.9301,W,1,10,1.4,18,M,,M,,*68
06/26/2015	16:01:14.578	$GPGGA,160115,2553.0536,N,08001.9295,W,1,10,1.4,18,M,,M,,*60
06/26/2015	16:01:15.597	$GPGGA,160116,2553.0550,N,08001.9288,W,1,10,1.4,18,M,,M,,*6F
06/26/2015	16:01:16.577	$GPGGA,160117,2553.0565,N,08001.9283,W,1,10,1.4,18,M,,M,,*63
06/26/2015	16:01:17.577	$GPGGA,160118,2553.0579,N,08001.9277,W,1,10,1.4,18,M,,M,,*6A
06/26/2015	16:01:18.557	$GPGGA,160119,2553.0591,N,08001.9270,W,1,10,1.4,18,M,,M,,*6A
06/26/2015	16:01:19.587	$GPGGA,160120,2553.0607,N,08001.9264,W,1,10,1.4,18,M,,M,,*69
06/26/2015	16:01:20.558	$GPGGA,160121,2553.0622,N,08001.9258,W,1,10,1.4,18,M,,M,,*60
06/26/2015	16:01:21.546	$GPGGA,160122,2553.0636,N,08001.9251,W,1,10,1.4,18,M,,M,,*6F
06/26/2015	16:01:22.561	$GPGGA,160123,2553.0649,N,08001.9245,W,1,10,1.4,18,M,,M,,*63
06/26/2015	16:01:23.587	$GPGGA,160124,2553.0666,N,08001.9239,W,1,10,1.4,18,M,,M,,*62
06/26/2015	16:01:24.550	$GPGGA,160125,2553.0681,N,08001.9232,W,1,10,1.6,18,M,,M,,*63
06/26/2015	16:01:25.567	$GPGGA,160126,2553.0695,N,08001.9226,W,1,9,1.6,18,M,,M,,*58
06/26/2015	16:01:26.548	$GPGGA,160127,2553.0710,N,08001.9219,W,1,9,1.6,18,M,,M,,*59
06/26/2015	16:01:27.577	$GPGGA,160128,2553.0724,N,08001.9212,W,1,9,1.6,18,M,,M,,*5A
06/26/2015	16:01:28.527	$GPGGA,160129,2553.0739,N,08001.9206,W,1,9,1.6,18,M,,M,,*52
06/26/2015	16:01:29.557	$GPGGA,160130,2553.0756,N,08001.9198,W,1,9,1.6,18,M,,M,,*57
06/26/2015	16:01:30.541	$GPGGA,160131,2553.0771,N,08001.9192,W,1,9,1.5,18,M,,M,,*5A
06/26/2015	16:01:31.552	$GPGGA,160132,2553.0788,N,08001.9185,W,1,10,1.4,18,M,,M,,*60
06/26/2015	16:01:32.527	$GPGGA,160133,2553.0804,N,08001.9179,W,1,10,1.4,18,M,,M,,*69
06/26/2015	16:01:33.557	$GPGGA,160134,2553.0818,N,08001.9173,W,1,10,1.4,18,M,,M,,*69
06/26/2015	16:01:34.537	$GPGGA,160135,2553.0833,N,08001.9167,W,1,10,1.4,18,M,,M,,*64
06/26/2015	16:01:35.527	$GPGGA,160136,2553.0849,N,08001.9163,W,1,10,1.4,17,M,,M,,*61
06/26/2015	16:01:36.517	$GPGGA,160137,2553.0864,N,08001.9157,W,1,10,1.4,17,M,,M,,*68
06/26/2015	16:01:37.517	$GPGGA,160138,2553.0878,N,08001.9152,W,1,9,1.6,17,M,,M,,*55
06/26/2015	16:01:38.507	$GPGGA,160139,2553.0893,N,08001.9146,W,1,9,1.6,17,M,,M,,*54
06/26/2015	16:01:39.627	$GPGGA,160140,2553.0908,N,08001.9140,W,1,9,1.6,17,M,,M,,*5F
06/26/2015	16:01:40.527	$GPGGA,160141,2553.0923,N,08001.9135,W,1,9,1.6,17,M,,M,,*55
06/26/2015	16:01:41.507	$GPGGA,160142,2553.0938,N,08001.9128,W,1,9,1.6,17,M,,M,,*50
06/26/2015	16:01:43.668	$GPGGA,160144,2553.0967,N,08001.9117,W,1,9,1.6,17,M,,M,,*50
06/26/2015	16:01:44.517	$GPGGA,160145,2553.0983,N,08001.9111,W,1,9,1.6,17,M,,M,,*5D
06/26/2015	16:01:46.547	$GPGGA,160147,2553.1013,N,08001.9099,W,1,9,1.6,17,M,,M,,*5F
06/26/2015	16:01:47.640	$GPGGA,160148,2553.1028,N,08001.9093,W,1,9,1.6,17,M,,M,,*52
06/26/2015	16:01:48.608	$GPGGA,160149,2553.1042,N,08001.9088,W,1,9,1.6,17,M,,M,,*55
06/26/2015	16:01:49.618	$GPGGA,160150,2553.1057,N,08001.9081,W,1,9,1.6,17,M,,M,,*50
06/26/2015	16:01:50.507	$GPGGA,160151,2553.1074,N,08001.9076,W,1,9,1.6,17,M,,M,,*58
06/26/2015	16:01:51.637	$GPGGA,160152,2553.1089,N,08001.9070,W,1,9,1.6,17,M,,M,,*5F
06/26/2015	16:01:52.587	$GPGGA,160153,2553.1103,N,08001.9064,W,1,9,1.6,17,M,,M,,*58
06/26/2015	16:01:53.587	$GPGGA,160154,2553.1120,N,08001.9058,W,1,9,1.6,17,M,,M,,*51
06/26/2015	16:01:54.577	$GPGGA,160155,2553.1136,N,08001.9053,W,1,9,1.6,17,M,,M,,*5C
06/26/2015	16:01:55.617	$GPGGA,160156,2553.1150,N,08001.9048,W,1,8,1.6,17,M,,M,,*54
06/26/2015	16:01:56.577	$GPGGA,160157,2553.1165,N,08001.9043,W,1,8,1.4,17,M,,M,,*5A
06/26/2015	16:01:57.577	$GPGGA,160158,2553.1183,N,08001.9039,W,1,10,1.4,17,M,,M,,*69
06/26/2015	16:01:58.577	$GPGGA,160159,2553.1198,N,08001.9034,W,1,10,1.4,17,M,,M,,*6F
06/26/2015	16:01:59.617	$GPGGA,160200,2553.1214,N,08001.9028,W,1,10,1.4,17,M,,M,,*6A
06/26/2015	16:02:00.577	$GPGGA,160201,2553.1230,N,08001.9024,W,1,10,1.4,17,M,,M,,*61
06/26/2015	16:02:01.567	$GPGGA,160202,2553.1245,N,08001.9018,W,1,10,1.4,17,M,,M,,*6F
06/26/2015	16:02:02.567	$GPGGA,160203,2553.1261,N,08001.9012,W,1,10,1.4,17,M,,M,,*62
06/26/2015	16:02:03.597	$GPGGA,160204,2553.1277,N,08001.9007,W,1,10,1.4,17,M,,M,,*66
06/26/2015	16:02:04.567	$GPGGA,160205,2553.1294,N,08001.9002,W,1,10,1.4,17,M,,M,,*6F
06/26/2015	16:02:05.568	$GPGGA,160206,2553.1309,N,08001.8996,W,1,10,1.4,17,M,,M,,*6C
06/26/2015	16:02:06.558	$GPGGA,160207,2553.1324,N,08001.8991,W,1,10,1.4,17,M,,M,,*65
06/26/2015	16:02:07.587	$GPGGA,160208,2553.1341,N,08001.8986,W,1,10,1.4,17,M,,M,,*6F
06/26/2015	16:02:08.557	$GPGGA,160209,2553.1356,N,08001.8980,W,1,10,1.4,17,M,,M,,*6E
06/26/2015	16:02:09.577	$GPGGA,160210,2553.1371,N,08001.8974,W,1,10,1.4,17,M,,M,,*68
06/26/2015	16:02:10.551	$GPGGA,160211,2553.1389,N,08001.8969,W,1,10,1.4,17,M,,M,,*62
06/26/2015	16:02:11.587	$GPGGA,160212,2553.1404,N,08001.8963,W,1,10,1.4,17,M,,M,,*69
06/26/2015	16:02:12.553	$GPGGA,160213,2553.1420,N,08001.8957,W,1,10,1.4,17,M,,M,,*69
06/26/2015	16:02:13.567	$GPGGA,160214,2553.1436,N,08001.8951,W,1,10,1.4,17,M,,M,,*6F
06/26/2015	16:02:14.550	$GPGGA,160215,2553.1453,N,08001.8946,W,1,10,1.4,17,M,,M,,*6B
06/26/2015	16:02:15.539	$GPGGA,160216,2553.1469,N,08001.8939,W,1,9,1.6,17,M,,M,,*53
06/26/2015	16:02:16.548	$GPGGA,160217,2553.1485,N,08001.8933,W,1,9,1.6,17,M,,M,,*5A
06/26/2015	16:02:17.527	$GPGGA,160218,2553.1501,N,08001.8929,W,1,9,1.6,17,M,,M,,*53
06/26/2015	16:02:18.537	$GPGGA,160219,2553.1518,N,08001.8923,W,1,9,1.6,17,M,,M,,*50
06/26/2015	16:02:19.538	$GPGGA,160220,2553.1533,N,08001.8917,W,1,9,1.6,17,M,,M,,*54
06/26/2015	16:02:20.527	$GPGGA,160221,2553.1548,N,08001.8912,W,1,9,1.4,17,M,,M,,*5E
06/26/2015	16:02:21.527	$GPGGA,160222,2553.1565,N,08001.8908,W,1,10,1.4,17,M,,M,,*61
06/26/2015	16:02:22.642	$GPGGA,160223,2553.1581,N,08001.8902,W,1,10,1.4,17,M,,M,,*60
06/26/2015	16:02:23.651	$GPGGA,160224,2553.1595,N,08001.8897,W,1,10,1.4,17,M,,M,,*6F
06/26/2015	16:02:24.538	$GPGGA,160225,2553.1613,N,08001.8892,W,1,10,1.4,17,M,,M,,*66
06/26/2015	16:02:25.548	$GPGGA,160226,2553.1630,N,08001.8887,W,1,10,1.4,17,M,,M,,*60
06/26/2015	16:02:26.517	$GPGGA,160227,2553.1645,N,08001.8882,W,1,10,1.6,17,M,,M,,*64
06/26/2015	16:02:27.527	$GPGGA,160228,2553.1660,N,08001.8877,W,1,10,1.4,17,M,,M,,*64
06/26/2015	16:02:28.517	$GPGGA,160229,2553.1678,N,08001.8872,W,1,10,1.4,17,M,,M,,*69
06/26/2015	16:02:29.518	$GPGGA,160230,2553.1693,N,08001.8867,W,1,9,1.6,17,M,,M,,*5A
06/26/2015	16:02:30.517	$GPGGA,160231,2553.1710,N,08001.8860,W,1,9,1.4,17,M,,M,,*54
06/26/2015	16:02:31.507	$GPGGA,160232,2553.1727,N,08001.8856,W,1,9,1.6,17,M,,M,,*54
06/26/2015	16:02:32.587	$GPGGA,160233,2553.1743,N,08001.8852,W,1,9,1.4,17,M,,M,,*51
06/26/2015	16:02:33.487	$GPGGA,160234,2553.1758,N,08001.8847,W,1,10,1.4,17,M,,M,,*60
06/26/2015	16:02:34.597	$GPGGA,160235,2553.1775,N,08001.8842,W,1,10,1.4,17,M,,M,,*6B
06/26/2015	16:02:35.637	$GPGGA,160236,2553.1790,N,08001.8838,W,1,10,1.4,17,M,,M,,*6E
06/26/2015	16:02:36.597	$GPGGA,160237,2553.1808,N,08001.8832,W,1,10,1.6,17,M,,M,,*69
06/26/2015	16:02:37.577	$GPGGA,160238,2553.1825,N,08001.8826,W,1,9,1.6,17,M,,M,,*54
06/26/2015	16:02:38.587	$GPGGA,160239,2553.1841,N,08001.8820,W,1,9,1.4,17,M,,M,,*53
06/26/2015	16:02:39.587	$GPGGA,160240,2553.1858,N,08001.8815,W,1,10,1.4,17,M,,M,,*6B
06/26/2015	16:02:40.588	$GPGGA,160241,2553.1875,N,08001.8811,W,1,10,1.4,17,M,,M,,*61
06/26/2015	16:02:41.578	$GPGGA,160242,2553.1891,N,08001.8807,W,1,10,1.4,17,M,,M,,*6F
06/26/2015	16:02:42.577	$GPGGA,160243,2553.1908,N,08001.8801,W,1,10,1.4,17,M,,M,,*69
06/26/2015	16:02:43.617	$GPGGA,160244,2553.1924,N,08001.8797,W,1,10,1.4,17,M,,M,,*60
06/26/2015	16:02:44.577	$GPGGA,160245,2553.1940,N,08001.8793,W,1,10,1.4,17,M,,M,,*67
06/26/2015	16:02:45.587	$GPGGA,160246,2553.1956,N,08001.8788,W,1,10,1.4,17,M,,M,,*69
06/26/2015	16:02:46.587	$GPGGA,160247,2553.1973,N,08001.8783,W,1,10,1.4,17,M,,M,,*64
06/26/2015	16:02:47.587	$GPGGA,160248,2553.1989,N,08001.8779,W,1,10,1.4,17,M,,M,,*6B
06/26/2015	16:02:48.567	$GPGGA,160249,2553.2007,N,08001.8775,W,1,10,1.4,17,M,,M,,*6A
06/26/2015	16:02:49.577	$GPGGA,160250,2553.2023,N,08001.8770,W,1,10,1.4,17,M,,M,,*61
06/26/2015	16:02:50.558	$GPGGA,160251,2553.2039,N,08001.8766,W,1,10,1.6,17,M,,M,,*6E
06/26/2015	16:02:51.567	$GPGGA,160252,2553.2056,N,08001.8762,W,1,9,1.6,17,M,,M,,*58
06/26/2015	16:02:52.551	$GPGGA,160253,2553.2072,N,08001.8759,W,1,9,1.6,17,M,,M,,*57
06/26/2015	16:02:53.577	$GPGGA,160254,2553.2090,N,08001.8753,W,1,10,1.4,17,M,,M,,*6C
06/26/2015	16:02:54.557	$GPGGA,160255,2553.2105,N,08001.8748,W,1,10,1.4,17,M,,M,,*6A
06/26/2015	16:02:55.587	$GPGGA,160256,2553.2123,N,08001.8743,W,1,10,1.4,17,M,,M,,*66
06/26/2015	16:02:56.556	$GPGGA,160257,2553.2141,N,08001.8738,W,1,10,1.4,17,M,,M,,*6F
06/26/2015	16:02:57.538	$GPGGA,160258,2553.2158,N,08001.8732,W,1,10,1.4,17,M,,M,,*62
06/26/2015	16:02:58.551	$GPGGA,160259,2553.2175,N,08001.8727,W,1,10,1.4,17,M,,M,,*68
06/26/2015	16:02:59.618	$GPGGA,160300,2553.2191,N,08001.8724,W,1,9,1.6,17,M,,M,,*56
06/26/2015	16:03:00.538	$GPGGA,160301,2553.2206,N,08001.8720,W,1,9,1.6,17,M,,M,,*5E
06/26/2015	16:03:01.538	$GPGGA,160302,2553.2224,N,08001.8715,W,1,10,1.4,17,M,,M,,*61
06/26/2015	16:03:02.527	$GPGGA,160303,2553.2240,N,08001.8712,W,1,10,1.6,17,M,,M,,*67
06/26/2015	16:03:03.537	$GPGGA,160304,2553.2256,N,08001.8708,W,1,9,1.6,17,M,,M,,*54
06/26/2015	16:03:04.527	$GPGGA,160305,2553.2273,N,08001.8705,W,1,9,1.6,17,M,,M,,*5F
06/26/2015	16:03:05.517	$GPGGA,160306,2553.2289,N,08001.8701,W,1,9,1.6,17,M,,M,,*5D
06/26/2015	16:03:06.539	$GPGGA,160307,2553.2307,N,08001.8697,W,1,9,1.8,17,M,,M,,*5B
06/26/2015	16:03:08.557	$GPGGA,160309,2553.2341,N,08001.8689,W,1,8,1.8,17,M,,M,,*59
06/26/2015	16:03:09.547	$GPGGA,160310,2553.2357,N,08001.8684,W,1,8,1.8,17,M,,M,,*5B
06/26/2015	16:03:10.527	$GPGGA,160311,2553.2375,N,08001.8680,W,1,8,1.4,17,M,,M,,*52
06/26/2015	16:03:11.537	$GPGGA,160312,2553.2392,N,08001.8677,W,1,10,1.4,17,M,,M,,*69
06/26/2015	16:03:12.527	$GPGGA,160313,2553.2408,N,08001.8671,W,1,10,1.4,16,M,,M,,*6B
06/26/2015	16:03:13.517	$GPGGA,160314,2553.2426,N,08001.8666,W,1,10,1.4,16,M,,M,,*66
06/26/2015	16:03:14.627	$GPGGA,160315,2553.2444,N,08001.8662,W,1,10,1.4,16,M,,M,,*67
06/26/2015	16:03:15.538	$GPGGA,160316,2553.2461,N,08001.8658,W,1,10,1.4,17,M,,M,,*6B
06/26/2015	16:03:16.518	$GPGGA,160317,2553.2477,N,08001.8653,W,1,10,1.4,17,M,,M,,*66
06/26/2015	16:03:17.517	$GPGGA,160318,2553.2495,N,08001.8651,W,1,10,1.4,17,M,,M,,*67
06/26/2015	16:03:18.517	$GPGGA,160319,2553.2513,N,08001.8648,W,1,10,1.6,17,M,,M,,*63
06/26/2015	16:03:19.507	$GPGGA,160320,2553.2529,N,08001.8645,W,1,10,1.4,17,M,,M,,*6F
06/26/2015	16:03:20.617	$GPGGA,160321,2553.2545,N,08001.8642,W,1,10,1.6,17,M,,M,,*61
06/26/2015	16:03:21.588	$GPGGA,160322,2553.2563,N,08001.8640,W,1,9,1.6,17,M,,M,,*5C
06/26/2015	16:03:22.497	$GPGGA,160323,2553.2578,N,08001.8637,W,1,9,1.6,17,M,,M,,*57
06/26/2015	16:03:23.507	$GPGGA,160324,2553.2596,N,08001.8633,W,1,9,1.6,17,M,,M,,*54
06/26/2015	16:03:24.577	$GPGGA,160325,2553.2613,N,08001.8630,W,1,9,1.6,17,M,,M,,*58
06/26/2015	16:03:25.607	$GPGGA,160326,2553.2630,N,08001.8627,W,1,9,1.6,16,M,,M,,*5D
06/26/2015	16:03:26.577	$GPGGA,160327,2553.2646,N,08001.8624,W,1,9,1.6,16,M,,M,,*5E
06/26/2015	16:03:27.597	$GPGGA,160328,2553.2663,N,08001.8621,W,1,9,1.6,16,M,,M,,*53
06/26/2015	16:03:28.577	$GPGGA,160329,2553.2679,N,08001.8618,W,1,9,1.6,16,M,,M,,*53
06/26/2015	16:03:29.617	$GPGGA,160330,2553.2697,N,08001.8615,W,1,9,1.6,16,M,,M,,*56
06/26/2015	16:03:30.577	$GPGGA,160331,2553.2714,N,08001.8612,W,1,9,1.6,16,M,,M,,*5A
06/26/2015	16:03:31.587	$GPGGA,160332,2553.2732,N,08001.8609,W,1,9,1.6,16,M,,M,,*57
06/26/2015	16:03:32.577	$GPGGA,160333,2553.2748,N,08001.8607,W,1,9,1.6,16,M,,M,,*55
06/26/2015	16:03:33.558	$GPGGA,160334,2553.2766,N,08001.8603,W,1,9,1.6,16,M,,M,,*5A
06/26/2015	16:03:34.568	$GPGGA,160335,2553.2783,N,08001.8601,W,1,9,1.6,16,M,,M,,*52
06/26/2015	16:03:35.607	$GPGGA,160336,2553.2800,N,08001.8599,W,1,9,1.6,16,M,,M,,*57
06/26/2015	16:03:36.567	$GPGGA,160337,2553.2816,N,08001.8596,W,1,9,1.6,16,M,,M,,*5E
06/26/2015	16:03:37.548	$GPGGA,160338,2553.2834,N,08001.8593,W,1,9,1.6,16,M,,M,,*54
06/26/2015	16:03:38.557	$GPGGA,160339,2553.2852,N,08001.8590,W,1,9,1.6,15,M,,M,,*55
06/26/2015	16:03:39.750	$GPGGA,160340,2553.2869,N,08001.8587,W,1,9,1.6,15,M,,M,,*55
06/26/2015	16:03:40.549	$GPGGA,160341,2553.2885,N,08001.8584,W,1,9,1.8,15,M,,M,,*5B
06/26/2015	16:03:41.567	$GPGGA,160342,2553.2903,N,08001.8582,W,1,8,1.8,15,M,,M,,*50
06/26/2015	16:03:42.557	$GPGGA,160343,2553.2920,N,08001.8579,W,1,8,1.6,15,M,,M,,*5A
06/26/2015	16:03:43.587	$GPGGA,160344,2553.2934,N,08001.8581,W,1,8,1.8,15,M,,M,,*51
06/26/2015	16:03:44.550	$GPGGA,160345,2553.2950,N,08001.8580,W,1,8,1.6,15,M,,M,,*5D
06/26/2015	16:03:45.557	$GPGGA,160346,2553.2968,N,08001.8578,W,1,9,1.6,15,M,,M,,*53
06/26/2015	16:03:46.539	$GPGGA,160347,2553.2984,N,08001.8576,W,1,9,1.6,15,M,,M,,*5E
06/26/2015	16:03:47.567	$GPGGA,160348,2553.3000,N,08001.8573,W,1,9,1.6,15,M,,M,,*50
06/26/2015	16:03:48.537	$GPGGA,160349,2553.3018,N,08001.8571,W,1,9,1.6,15,M,,M,,*5A
06/26/2015	16:03:49.557	$GPGGA,160350,2553.3036,N,08001.8569,W,1,9,1.6,15,M,,M,,*57
06/26/2015	16:03:50.539	$GPGGA,160351,2553.3053,N,08001.8565,W,1,9,1.6,15,M,,M,,*59
06/26/2015	16:03:51.552	$GPGGA,160352,2553.3069,N,08001.8563,W,1,9,1.6,15,M,,M,,*55
06/26/2015	16:03:52.517	$GPGGA,160353,2553.3089,N,08001.8561,W,1,9,1.6,15,M,,M,,*58
06/26/2015	16:03:53.567	$GPGGA,160354,2553.3105,N,08001.8558,W,1,9,1.6,15,M,,M,,*50
06/26/2015	16:03:54.529	$GPGGA,160355,2553.3123,N,08001.8555,W,1,9,1.6,15,M,,M,,*58
06/26/2015	16:03:55.553	$GPGGA,160356,2553.3141,N,08001.8553,W,1,9,1.6,15,M,,M,,*59
06/26/2015	16:03:56.527	$GPGGA,160357,2553.3158,N,08001.8551,W,1,9,1.6,15,M,,M,,*52
06/26/2015	16:03:57.507	$GPGGA,160358,2553.3176,N,08001.8547,W,1,9,1.6,15,M,,M,,*56
06/26/2015	16:03:58.627	$GPGGA,160359,2553.3192,N,08001.8544,W,1,9,1.6,15,M,,M,,*5E
06/26/2015	16:03:59.677	$GPGGA,160400,2553.3210,N,08001.8542,W,1,9,1.6,15,M,,M,,*5A
06/26/2015	16:04:00.497	$GPGGA,160401,2553.3228,N,08001.8541,W,1,9,1.6,15,M,,M,,*53
06/26/2015	16:04:01.507	$GPGGA,160402,2553.3245,N,08001.8538,W,1,9,1.6,15,M,,M,,*55
06/26/2015	16:04:02.497	$GPGGA,160403,2553.3261,N,08001.8535,W,1,9,1.6,15,M,,M,,*5F
06/26/2015	16:04:03.677	$GPGGA,160404,2553.3279,N,08001.8533,W,1,9,1.6,15,M,,M,,*57
06/26/2015	16:04:04.517	$GPGGA,160405,2553.3297,N,08001.8531,W,1,9,1.6,15,M,,M,,*54
06/26/2015	16:04:05.597	$GPGGA,160406,2553.3315,N,08001.8528,W,1,9,1.6,15,M,,M,,*54
06/26/2015	16:04:06.597	$GPGGA,160407,2553.3333,N,08001.8526,W,1,9,1.6,15,M,,M,,*5F
06/26/2015	16:04:07.642	$GPGGA,160408,2553.3350,N,08001.8525,W,1,9,1.6,15,M,,M,,*56
06/26/2015	16:04:08.588	$GPGGA,160409,2553.3368,N,08001.8523,W,1,9,1.6,15,M,,M,,*5A
06/26/2015	16:04:09.618	$GPGGA,160410,2553.3386,N,08001.8521,W,1,9,1.6,15,M,,M,,*50
06/26/2015	16:04:10.587	$GPGGA,160411,2553.3404,N,08001.8519,W,1,9,1.6,15,M,,M,,*57
06/26/2015	16:04:11.618	$GPGGA,160412,2553.3422,N,08001.8517,W,1,9,1.6,15,M,,M,,*5E
06/26/2015	16:04:12.577	$GPGGA,160413,2553.3438,N,08001.8514,W,1,9,1.6,15,M,,M,,*57
06/26/2015	16:04:13.597	$GPGGA,160414,2553.3456,N,08001.8513,W,1,9,1.8,15,M,,M,,*51
06/26/2015	16:04:14.577	$GPGGA,160415,2553.3474,N,08001.8510,W,1,9,1.8,15,M,,M,,*53
06/26/2015	16:04:15.637	$GPGGA,160416,2553.3492,N,08001.8508,W,1,8,1.8,15,M,,M,,*50
06/26/2015	16:04:16.597	$GPGGA,160417,2553.3510,N,08001.8508,W,1,8,1.6,15,M,,M,,*54
06/26/2015	16:04:17.587	$GPGGA,160418,2553.3527,N,08001.8507,W,1,9,1.6,15,M,,M,,*51
06/26/2015	16:04:18.567	$GPGGA,160419,2553.3542,N,08001.8505,W,1,9,1.6,15,M,,M,,*51
06/26/2015	16:04:19.627	$GPGGA,160420,2553.3560,N,08001.8504,W,1,9,1.6,15,M,,M,,*5A
06/26/2015	16:04:20.577	$GPGGA,160421,2553.3578,N,08001.8504,W,1,9,1.6,15,M,,M,,*52
06/26/2015	16:04:21.551	$GPGGA,160422,2553.3596,N,08001.8502,W,1,9,1.6,15,M,,M,,*57
06/26/2015	16:04:22.567	$GPGGA,160423,2553.3613,N,08001.8500,W,1,9,1.6,15,M,,M,,*5A
06/26/2015	16:04:23.597	$GPGGA,160424,2553.3629,N,08001.8499,W,1,9,1.6,15,M,,M,,*55
06/26/2015	16:04:24.550	$GPGGA,160425,2553.3647,N,08001.8498,W,1,9,1.6,15,M,,M,,*5D
06/26/2015	16:04:25.578	$GPGGA,160426,2553.3665,N,08001.8497,W,1,9,1.6,15,M,,M,,*51
06/26/2015	16:04:26.557	$GPGGA,160427,2553.3683,N,08001.8496,W,1,9,1.6,15,M,,M,,*59
06/26/2015	16:04:27.587	$GPGGA,160428,2553.3700,N,08001.8494,W,1,9,1.6,15,M,,M,,*5E
06/26/2015	16:04:28.555	$GPGGA,160429,2553.3718,N,08001.8493,W,1,9,1.6,15,M,,M,,*51
06/26/2015	16:04:29.546	$GPGGA,160430,2553.3734,N,08001.8492,W,1,9,1.6,15,M,,M,,*56
06/26/2015	16:04:30.557	$GPGGA,160431,2553.3752,N,08001.8491,W,1,9,1.6,15,M,,M,,*54
06/26/2015	16:04:31.552	$GPGGA,160432,2553.3770,N,08001.8490,W,1,9,1.6,15,M,,M,,*56
06/26/2015	16:04:32.552	$GPGGA,160433,2553.3787,N,08001.8488,W,1,9,1.6,15,M,,M,,*56
06/26/2015	16:04:33.539	$GPGGA,160434,2553.3805,N,08001.8487,W,1,9,1.6,15,M,,M,,*5B
06/26/2015	16:04:34.540	$GPGGA,160435,2553.3821,N,08001.8486,W,1,9,2.1,15,M,,M,,*59
06/26/2015	16:04:35.577	$GPGGA,160436,2553.3839,N,08001.8484,W,1,8,2.1,15,M,,M,,*50
06/26/2015	16:04:36.527	$GPGGA,160437,2553.3856,N,08001.8480,W,1,8,1.6,15,M,,M,,*58
06/26/2015	16:04:37.527	$GPGGA,160438,2553.3873,N,08001.8478,W,1,9,1.6,15,M,,M,,*56
06/26/2015	16:04:38.539	$GPGGA,160439,2553.3889,N,08001.8475,W,1,9,1.6,15,M,,M,,*5F
06/26/2015	16:04:39.567	$GPGGA,160440,2553.3906,N,08001.8472,W,1,9,1.6,16,M,,M,,*53
06/26/2015	16:04:40.527	$GPGGA,160441,2553.3922,N,08001.8469,W,1,9,1.6,16,M,,M,,*5E
06/26/2015	16:04:41.553	$GPGGA,160442,2553.3940,N,08001.8466,W,1,9,1.6,16,M,,M,,*56
06/26/2015	16:04:42.539	$GPGGA,160443,2553.3957,N,08001.8463,W,1,9,1.6,16,M,,M,,*54
06/26/2015	16:04:43.558	$GPGGA,160444,2553.3974,N,08001.8461,W,1,9,1.6,16,M,,M,,*50
06/26/2015	16:04:44.528	$GPGGA,160445,2553.3990,N,08001.8459,W,1,9,1.6,16,M,,M,,*50
06/26/2015	16:04:45.527	$GPGGA,160446,2553.4008,N,08001.8457,W,1,9,1.6,16,M,,M,,*52
06/26/2015	16:04:46.507	$GPGGA,160447,2553.4026,N,08001.8456,W,1,9,2.1,16,M,,M,,*5A
06/26/2015	16:04:47.566	$GPGGA,160448,2553.4044,N,08001.8455,W,1,8,1.6,16,M,,M,,*57
06/26/2015	16:04:48.507	$GPGGA,160449,2553.4062,N,08001.8453,W,1,8,1.6,17,M,,M,,*55
06/26/2015	16:04:49.527	$GPGGA,160450,2553.4079,N,08001.8451,W,1,9,1.6,17,M,,M,,*54
06/26/2015	16:04:50.527	$GPGGA,160451,2553.4097,N,08001.8450,W,1,9,1.6,17,M,,M,,*54
06/26/2015	16:04:51.627	$GPGGA,160452,2553.4113,N,08001.8449,W,1,9,1.6,17,M,,M,,*52
06/26/2015	16:04:52.527	$GPGGA,160453,2553.4131,N,08001.8448,W,1,9,1.6,17,M,,M,,*52
06/26/2015	16:04:53.507	$GPGGA,160454,2553.4149,N,08001.8447,W,1,9,1.6,17,M,,M,,*55
06/26/2015	16:04:54.597	$GPGGA,160455,2553.4167,N,08001.8446,W,1,9,1.6,17,M,,M,,*59
06/26/2015	16:04:55.607	$GPGGA,160456,2553.4185,N,08001.8445,W,1,9,1.6,17,M,,M,,*55
06/26/2015	16:04:56.597	$GPGGA,160457,2553.4203,N,08001.8444,W,1,9,1.6,17,M,,M,,*58
06/26/2015	16:04:57.577	$GPGGA,160458,2553.4221,N,08001.8443,W,1,9,1.6,17,M,,M,,*50
06/26/2015	16:04:58.577	$GPGGA,160459,2553.4239,N,08001.8443,W,1,9,1.6,17,M,,M,,*58
06/26/2015	16:04:59.617	$GPGGA,160500,2553.4257,N,08001.8442,W,1,9,1.6,17,M,,M,,*5C
06/26/2015	16:05:00.998	$GPGGA,160501,2553.4275,N,08001.8443,W,1,9,1.6,17,M,,M,,*5C
06/26/2015	16:05:01.578	$GPGGA,160502,2553.4294,N,08001.8441,W,1,8,1.6,18,M,,M,,*5C
06/26/2015	16:05:02.577	$GPGGA,160503,2553.4314,N,08001.8441,W,1,8,1.6,18,M,,M,,*54
06/26/2015	16:05:03.577	$GPGGA,160504,2553.4333,N,08001.8441,W,1,9,1.6,18,M,,M,,*57
06/26/2015	16:05:04.567	$GPGGA,160505,2553.4352,N,08001.8441,W,1,9,1.6,18,M,,M,,*51
06/26/2015	16:05:05.587	$GPGGA,160506,2553.4370,N,08001.8440,W,1,9,1.6,18,M,,M,,*53
06/26/2015	16:05:06.567	$GPGGA,160507,2553.4388,N,08001.8439,W,1,9,1.6,18,M,,M,,*5B
06/26/2015	16:05:07.587	$GPGGA,160508,2553.4406,N,08001.8439,W,1,9,1.6,18,M,,M,,*55
06/26/2015	16:05:08.558	$GPGGA,160509,2553.4424,N,08001.8439,W,1,9,1.6,18,M,,M,,*54
06/26/2015	16:05:09.577	$GPGGA,160510,2553.4442,N,08001.8438,W,1,9,1.6,18,M,,M,,*5D
06/26/2015	16:05:10.555	$GPGGA,160511,2553.4460,N,08001.8437,W,1,9,1.6,18,M,,M,,*53
06/26/2015	16:05:11.587	$GPGGA,160512,2553.4478,N,08001.8437,W,1,9,1.6,18,M,,M,,*59
06/26/2015	16:05:12.550	$GPGGA,160513,2553.4496,N,08001.8437,W,1,9,1.6,18,M,,M,,*58
06/26/2015	16:05:13.567	$GPGGA,160514,2553.4514,N,08001.8435,W,1,9,1.6,18,M,,M,,*56
06/26/2015	16:05:14.553	$GPGGA,160515,2553.4532,N,08001.8434,W,1,9,1.6,18,M,,M,,*52
06/26/2015	16:05:15.557	$GPGGA,160516,2553.4550,N,08001.8436,W,1,9,1.6,18,M,,M,,*57
06/26/2015	16:05:16.552	$GPGGA,160517,2553.4567,N,08001.8434,W,1,9,1.6,18,M,,M,,*50
06/26/2015	16:05:17.539	$GPGGA,160518,2553.4585,N,08001.8432,W,1,9,1.6,18,M,,M,,*55
06/26/2015	16:05:18.548	$GPGGA,160519,2553.4601,N,08001.8432,W,1,9,1.6,18,M,,M,,*5B
06/26/2015	16:05:19.553	$GPGGA,160520,2553.4619,N,08001.8432,W,1,9,1.6,18,M,,M,,*58
06/26/2015	16:05:20.537	$GPGGA,160521,2553.4637,N,08001.8431,W,1,9,1.6,18,M,,M,,*56
06/26/2015	16:05:21.527	$GPGGA,160522,2553.4655,N,08001.8429,W,1,9,1.6,18,M,,M,,*58
06/26/2015	16:05:22.537	$GPGGA,160523,2553.4672,N,08001.8429,W,1,9,1.6,18,M,,M,,*5C
06/26/2015	16:05:23.567	$GPGGA,160524,2553.4690,N,08001.8430,W,1,9,1.6,18,M,,M,,*5F
06/26/2015	16:05:24.527	$GPGGA,160525,2553.4708,N,08001.8429,W,1,9,2.1,18,M,,M,,*52
06/26/2015	16:05:25.551	$GPGGA,160526,2553.4726,N,08001.8428,W,1,9,1.6,18,M,,M,,*58
06/26/2015	16:05:26.528	$GPGGA,160527,2553.4742,N,08001.8427,W,1,9,1.6,18,M,,M,,*54
06/26/2015	16:05:27.560	$GPGGA,160528,2553.4760,N,08001.8426,W,1,9,1.6,18,M,,M,,*5A
06/26/2015	16:05:28.517	$GPGGA,160529,2553.4777,N,08001.8424,W,1,9,1.6,18,M,,M,,*5F
06/26/2015	16:05:29.527	$GPGGA,160530,2553.4794,N,08001.8423,W,1,9,1.6,18,M,,M,,*5D
06/26/2015	16:05:30.527	$GPGGA,160531,2553.4810,N,08001.8425,W,1,9,1.6,18,M,,M,,*59
06/26/2015	16:05:31.527	$GPGGA,160532,2553.4828,N,08001.8422,W,1,9,1.6,18,M,,M,,*56
06/26/2015	16:05:32.518	$GPGGA,160533,2553.4845,N,08001.8418,W,1,9,1.6,18,M,,M,,*55
06/26/2015	16:05:33.527	$GPGGA,160534,2553.4861,N,08001.8418,W,1,9,1.6,18,M,,M,,*54
06/26/2015	16:05:34.517	$GPGGA,160535,2553.4879,N,08001.8418,W,1,9,1.6,18,M,,M,,*5C
06/26/2015	16:05:35.528	$GPGGA,160536,2553.4896,N,08001.8415,W,1,9,1.6,18,M,,M,,*53
06/26/2015	16:05:36.598	$GPGGA,160537,2553.4912,N,08001.8414,W,1,9,1.6,18,M,,M,,*5E
06/26/2015	16:05:37.507	$GPGGA,160538,2553.4930,N,08001.8414,W,1,9,1.6,18,M,,M,,*51
06/26/2015	16:05:38.587	$GPGGA,160539,2553.4948,N,08001.8414,W,1,9,1.6,18,M,,M,,*5F
06/26/2015	16:05:39.517	$GPGGA,160540,2553.4965,N,08001.8411,W,1,9,1.6,18,M,,M,,*5B
06/26/2015	16:05:40.497	$GPGGA,160541,2553.4982,N,08001.8410,W,1,9,1.6,18,M,,M,,*52
06/26/2015	16:05:41.497	$GPGGA,160542,2553.5000,N,08001.8410,W,1,9,1.6,18,M,,M,,*53
06/26/2015	16:05:42.577	$GPGGA,160543,2553.5016,N,08001.8409,W,1,9,1.6,18,M,,M,,*5D
06/26/2015	16:05:43.607	$GPGGA,160544,2553.5034,N,08001.8406,W,1,9,1.6,18,M,,M,,*55
06/26/2015	16:05:44.587	$GPGGA,160545,2553.5051,N,08001.8407,W,1,9,1.6,18,M,,M,,*56
06/26/2015	16:05:45.587	$GPGGA,160546,2553.5067,N,08001.8406,W,1,9,1.6,18,M,,M,,*51
06/26/2015	16:05:46.567	$GPGGA,160547,2553.5085,N,08001.8405,W,1,9,1.6,18,M,,M,,*5F
06/26/2015	16:05:47.607	$GPGGA,160548,2553.5102,N,08001.8403,W,1,9,1.6,18,M,,M,,*58
06/26/2015	16:05:48.577	$GPGGA,160549,2553.5118,N,08001.8402,W,1,9,1.6,18,M,,M,,*53
06/26/2015	16:05:49.567	$GPGGA,160550,2553.5138,N,08001.8404,W,1,9,1.6,18,M,,M,,*5F
06/26/2015	16:05:50.567	$GPGGA,160551,2553.5154,N,08001.8403,W,1,9,2.1,18,M,,M,,*57
06/26/2015	16:05:51.587	$GPGGA,160552,2553.5172,N,08001.8402,W,1,9,1.6,18,M,,M,,*55
06/26/2015	16:05:52.557	$GPGGA,160553,2553.5190,N,08001.8403,W,1,9,1.6,18,M,,M,,*59
06/26/2015	16:05:53.568	$GPGGA,160554,2553.5207,N,08001.8401,W,1,9,1.6,18,M,,M,,*51
06/26/2015	16:05:54.567	$GPGGA,160555,2553.5225,N,08001.8400,W,1,9,1.6,18,M,,M,,*51
06/26/2015	16:05:55.597	$GPGGA,160556,2553.5242,N,08001.8399,W,1,9,1.6,18,M,,M,,*54
06/26/2015	16:05:56.567	$GPGGA,160557,2553.5258,N,08001.8398,W,1,9,1.6,18,M,,M,,*5F
06/26/2015	16:05:57.577	$GPGGA,160558,2553.5276,N,08001.8397,W,1,9,1.6,18,M,,M,,*53
06/26/2015	16:05:58.557	$GPGGA,160559,2553.5294,N,08001.8396,W,1,9,1.6,18,M,,M,,*5F
06/26/2015	16:05:59.597	$GPGGA,160600,2553.5312,N,08001.8394,W,1,8,1.8,18,M,,M,,*52
06/26/2015	16:06:00.547	$GPGGA,160601,2553.5329,N,08001.8393,W,1,8,1.8,18,M,,M,,*5C
06/26/2015	16:06:01.577	$GPGGA,160602,2553.5345,N,08001.8392,W,1,8,1.8,18,M,,M,,*54
06/26/2015	16:06:02.550	$GPGGA,160603,2553.5363,N,08001.8389,W,1,8,1.6,18,M,,M,,*55
06/26/2015	16:06:03.587	$GPGGA,160604,2553.5380,N,08001.8388,W,1,9,1.6,18,M,,M,,*5F
06/26/2015	16:06:04.537	$GPGGA,160605,2553.5398,N,08001.8389,W,1,9,1.6,18,M,,M,,*56
06/26/2015	16:06:05.547	$GPGGA,160606,2553.5414,N,08001.8387,W,1,9,1.6,18,M,,M,,*58
06/26/2015	16:06:06.537	$GPGGA,160607,2553.5432,N,08001.8384,W,1,9,1.6,18,M,,M,,*5E
06/26/2015	16:06:07.577	$GPGGA,160608,2553.5449,N,08001.8382,W,1,9,1.6,18,M,,M,,*5B
06/26/2015	16:06:08.539	$GPGGA,160609,2553.5467,N,08001.8382,W,1,9,1.6,18,M,,M,,*56
06/26/2015	16:06:09.527	$GPGGA,160610,2553.5484,N,08001.8380,W,1,9,1.6,17,M,,M,,*5E
06/26/2015	16:06:10.518	$GPGGA,160611,2553.5500,N,08001.8378,W,1,9,1.6,17,M,,M,,*55
06/26/2015	16:06:11.556	$GPGGA,160612,2553.5518,N,08001.8376,W,1,9,1.6,17,M,,M,,*51
06/26/2015	16:06:12.605	$GPGGA,160613,2553.5535,N,08001.8376,W,1,9,1.6,17,M,,M,,*5F
06/26/2015	16:06:13.627	$GPGGA,160614,2553.5553,N,08001.8375,W,1,9,1.6,17,M,,M,,*5B
06/26/2015	16:06:14.515	$GPGGA,160615,2553.5569,N,08001.8372,W,1,9,1.6,17,M,,M,,*54
06/26/2015	16:06:15.615	$GPGGA,160616,2553.5586,N,08001.8370,W,1,9,1.6,17,M,,M,,*54
06/26/2015	16:06:16.495	$GPGGA,160617,2553.5604,N,08001.8371,W,1,9,1.6,17,M,,M,,*5D
06/26/2015	16:06:17.505	$GPGGA,160618,2553.5620,N,08001.8368,W,1,9,1.6,17,M,,M,,*5C
06/26/2015	16:06:18.496	$GPGGA,160619,2553.5638,N,08001.8365,W,1,9,1.6,17,M,,M,,*59
06/26/2015	16:06:19.596	$GPGGA,160620,2553.5655,N,08001.8363,W,1,9,1.6,17,M,,M,,*5E
06/26/2015	16:06:21.515	$GPGGA,160622,2553.5688,N,08001.8360,W,1,9,1.6,17,M,,M,,*5F
06/26/2015	16:06:22.505	$GPGGA,160623,2553.5706,N,08001.8358,W,1,9,1.6,17,M,,M,,*52
06/26/2015	16:06:23.630	$GPGGA,160624,2553.5724,N,08001.8357,W,1,9,1.6,17,M,,M,,*5A
06/26/2015	16:06:24.505	$GPGGA,160625,2553.5741,N,08001.8355,W,1,9,1.6,17,M,,M,,*5A
06/26/2015	16:06:25.485	$GPGGA,160626,2553.5757,N,08001.8352,W,1,9,1.6,17,M,,M,,*59
06/26/2015	16:06:26.575	$GPGGA,160627,2553.5775,N,08001.8351,W,1,9,1.6,17,M,,M,,*5B
06/26/2015	16:06:27.595	$GPGGA,160628,2553.5792,N,08001.8352,W,1,9,1.6,17,M,,M,,*5E
06/26/2015	16:06:29.073	$GPGGA,160629,2553.5808,N,08001.8348,W,1,9,1.6,17,M,,M,,*58
06/26/2015	16:06:30.315	$GPGGA,160630,2553.5825,N,08001.8345,W,1,9,1.6,17,M,,M,,*52
06/26/2015	16:06:30.565	$GPGGA,160631,2553.5842,N,08001.8345,W,1,9,1.6,17,M,,M,,*52
06/26/2015	16:06:31.615	$GPGGA,160632,2553.5860,N,08001.8343,W,1,9,1.6,17,M,,M,,*57
06/26/2015	16:06:32.575	$GPGGA,160633,2553.5876,N,08001.8341,W,1,9,1.6,16,M,,M,,*52
06/26/2015	16:06:33.575	$GPGGA,160634,2553.5893,N,08001.8339,W,1,9,1.6,16,M,,M,,*51
06/26/2015	16:06:34.565	$GPGGA,160635,2553.5909,N,08001.8337,W,1,9,1.6,16,M,,M,,*5C
06/26/2015	16:06:35.605	$GPGGA,160636,2553.5927,N,08001.8336,W,1,9,1.6,16,M,,M,,*52
06/26/2015	16:06:36.565	$GPGGA,160637,2553.5944,N,08001.8335,W,1,9,1.6,16,M,,M,,*55
06/26/2015	16:06:37.575	$GPGGA,160638,2553.5961,N,08001.8333,W,1,9,1.6,16,M,,M,,*5B
06/26/2015	16:06:38.555	$GPGGA,160639,2553.5977,N,08001.8330,W,1,9,1.6,16,M,,M,,*5E
06/26/2015	16:06:39.585	$GPGGA,160640,2553.5994,N,08001.8329,W,1,9,1.6,16,M,,M,,*55
06/26/2015	16:06:40.541	$GPGGA,160641,2553.6012,N,08001.8327,W,1,9,1.6,16,M,,M,,*5E
06/26/2015	16:06:41.565	$GPGGA,160642,2553.6028,N,08001.8325,W,1,9,1.6,16,M,,M,,*56
06/26/2015	16:06:42.547	$GPGGA,160643,2553.6045,N,08001.8323,W,1,9,1.6,16,M,,M,,*5A
06/26/2015	16:06:43.585	$GPGGA,160644,2553.6061,N,08001.8321,W,1,9,1.6,16,M,,M,,*59
06/26/2015	16:06:44.545	$GPGGA,160645,2553.6079,N,08001.8321,W,1,9,1.6,16,M,,M,,*51
06/26/2015	16:06:45.565	$GPGGA,160646,2553.6096,N,08001.8319,W,1,9,1.6,16,M,,M,,*58
06/26/2015	16:06:46.966	$GPGGA,160647,2553.6114,N,08001.8317,W,1,9,2.2,16,M,,M,,*5B
06/26/2015	16:06:47.551	$GPGGA,160648,2553.6131,N,08001.8317,W,1,9,1.6,16,M,,M,,*54
06/26/2015	16:06:48.540	$GPGGA,160649,2553.6147,N,08001.8315,W,1,9,1.6,16,M,,M,,*56
06/26/2015	16:06:49.546	$GPGGA,160650,2553.6165,N,08001.8313,W,1,9,1.6,16,M,,M,,*58
06/26/2015	16:06:50.532	$GPGGA,160651,2553.6180,N,08001.8307,W,1,9,2.2,16,M,,M,,*50
06/26/2015	16:06:51.542	$GPGGA,160652,2553.6197,N,08001.8306,W,1,9,1.6,16,M,,M,,*53
06/26/2015	16:06:52.515	$GPGGA,160653,2553.6212,N,08001.8302,W,1,9,2.2,16,M,,M,,*5F
06/26/2015	16:06:53.515	$GPGGA,160654,2553.6227,N,08001.8295,W,1,9,1.6,16,M,,M,,*56
06/26/2015	16:06:54.515	$GPGGA,160655,2553.6245,N,08001.8294,W,1,9,1.6,16,M,,M,,*52
06/26/2015	16:06:55.565	$GPGGA,160656,2553.6262,N,08001.8293,W,1,8,2.2,16,M,,M,,*55
06/26/2015	16:06:56.645	$GPGGA,160657,2553.6277,N,08001.8292,W,1,8,2.4,16,M,,M,,*57
06/26/2015	16:06:57.541	$GPGGA,160658,2553.6294,N,08001.8289,W,1,8,2.2,16,M,,M,,*59
06/26/2015	16:06:58.505	$GPGGA,160659,2553.6309,N,08001.8285,W,1,8,1.8,16,M,,M,,*58
06/26/2015	16:06:59.555	$GPGGA,160700,2553.6326,N,08001.8279,W,1,8,1.8,16,M,,M,,*5B
06/26/2015	16:07:00.515	$GPGGA,160701,2553.6342,N,08001.8280,W,1,8,1.6,16,M,,M,,*50
06/26/2015	16:07:01.529	$GPGGA,160702,2553.6359,N,08001.8279,W,1,8,2.2,16,M,,M,,*58
06/26/2015	16:07:02.505	$GPGGA,160703,2553.6375,N,08001.8277,W,1,8,2.2,16,M,,M,,*59
06/26/2015	16:07:03.696	$GPGGA,160704,2553.6391,N,08001.8272,W,1,8,1.6,16,M,,M,,*56
06/26/2015	16:07:04.637	$GPGGA,160705,2553.6406,N,08001.8268,W,1,8,1.6,16,M,,M,,*55
06/26/2015	16:07:05.585	$GPGGA,160706,2553.6422,N,08001.8265,W,1,9,1.6,16,M,,M,,*5C
06/26/2015	16:07:06.495	$GPGGA,160707,2553.6438,N,08001.8261,W,1,9,1.6,16,M,,M,,*52
06/26/2015	16:07:07.495	$GPGGA,160708,2553.6454,N,08001.8259,W,1,9,1.6,16,M,,M,,*5C
06/26/2015	16:07:08.485	$GPGGA,160709,2553.6471,N,08001.8256,W,1,9,1.6,17,M,,M,,*54
06/26/2015	16:07:09.495	$GPGGA,160710,2553.6487,N,08001.8251,W,1,9,1.6,17,M,,M,,*52
06/26/2015	16:07:10.475	$GPGGA,160711,2553.6505,N,08001.8250,W,1,9,1.6,17,M,,M,,*59
06/26/2015	16:07:11.525	$GPGGA,160712,2553.6521,N,08001.8247,W,1,9,1.6,17,M,,M,,*5A
06/26/2015	16:07:12.485	$GPGGA,160713,2553.6537,N,08001.8243,W,1,9,1.6,17,M,,M,,*58
06/26/2015	16:07:13.685	$GPGGA,160714,2553.6554,N,08001.8241,W,1,9,1.6,17,M,,M,,*58
06/26/2015	16:07:14.595	$GPGGA,160715,2553.6572,N,08001.8240,W,1,9,1.6,17,M,,M,,*5C
06/26/2015	16:07:15.675	$GPGGA,160716,2553.6588,N,08001.8238,W,1,9,1.6,18,M,,M,,*5A
06/26/2015	16:07:16.565	$GPGGA,160717,2553.6605,N,08001.8234,W,1,9,1.6,18,M,,M,,*51
06/26/2015	16:07:17.675	$GPGGA,160718,2553.6623,N,08001.8232,W,1,9,1.6,18,M,,M,,*5C
06/26/2015	16:07:18.555	$GPGGA,160719,2553.6641,N,08001.8233,W,1,9,1.6,18,M,,M,,*58
06/26/2015	16:07:19.665	$GPGGA,160720,2553.6656,N,08001.8227,W,1,8,1.6,18,M,,M,,*50
06/26/2015	16:07:20.555	$GPGGA,160721,2553.6673,N,08001.8223,W,1,8,1.6,18,M,,M,,*52
06/26/2015	16:07:21.666	$GPGGA,160722,2553.6689,N,08001.8221,W,1,9,1.6,18,M,,M,,*57
06/26/2015	16:07:22.565	$GPGGA,160723,2553.6706,N,08001.8216,W,1,9,1.6,18,M,,M,,*54
06/26/2015	16:07:23.665	$GPGGA,160724,2553.6722,N,08001.8212,W,1,9,1.6,18,M,,M,,*51
06/26/2015	16:07:24.575	$GPGGA,160725,2553.6739,N,08001.8209,W,1,9,1.6,18,M,,M,,*50
06/26/2015	16:07:25.539	$GPGGA,160726,2553.6756,N,08001.8205,W,1,9,1.6,18,M,,M,,*56
06/26/2015	16:07:26.575	$GPGGA,160727,2553.6772,N,08001.8202,W,1,9,1.6,18,M,,M,,*56
06/26/2015	16:07:27.665	$GPGGA,160728,2553.6789,N,08001.8199,W,1,9,1.6,18,M,,M,,*5C
06/26/2015	16:07:28.565	$GPGGA,160729,2553.6805,N,08001.8196,W,1,9,1.6,18,M,,M,,*59
06/26/2015	16:07:29.605	$GPGGA,160730,2553.6823,N,08001.8194,W,1,9,1.6,18,M,,M,,*57
06/26/2015	16:07:30.565	$GPGGA,160731,2553.6841,N,08001.8191,W,1,9,1.6,18,M,,M,,*57
06/26/2015	16:07:31.665	$GPGGA,160732,2553.6858,N,08001.8189,W,1,9,1.6,18,M,,M,,*55
06/26/2015	16:07:32.555	$GPGGA,160733,2553.6875,N,08001.8187,W,1,9,1.6,18,M,,M,,*55
06/26/2015	16:07:33.641	$GPGGA,160734,2553.6891,N,08001.8184,W,1,9,1.6,18,M,,M,,*5B
06/26/2015	16:07:34.530	$GPGGA,160735,2553.6909,N,08001.8182,W,1,9,1.6,18,M,,M,,*5C
06/26/2015	16:07:35.555	$GPGGA,160736,2553.6926,N,08001.8181,W,1,9,1.6,18,M,,M,,*51
06/26/2015	16:07:36.565	$GPGGA,160737,2553.6942,N,08001.8178,W,1,9,1.6,18,M,,M,,*54
06/26/2015	16:07:37.515	$GPGGA,160738,2553.6960,N,08001.8175,W,1,9,1.6,18,M,,M,,*56
06/26/2015	16:07:38.546	$GPGGA,160739,2553.6977,N,08001.8173,W,1,9,1.6,18,M,,M,,*57
06/26/2015	16:07:39.648	$GPGGA,160740,2553.6995,N,08001.8170,W,1,9,1.6,18,M,,M,,*56
06/26/2015	16:07:40.575	$GPGGA,160741,2553.7010,N,08001.8167,W,1,9,1.6,18,M,,M,,*54
06/26/2015	16:07:41.506	$GPGGA,160742,2553.7028,N,08001.8164,W,1,9,1.6,18,M,,M,,*5F
06/26/2015	16:07:42.628	$GPGGA,160743,2553.7045,N,08001.8161,W,1,9,1.6,18,M,,M,,*50
06/26/2015	16:07:43.645	$GPGGA,160744,2553.7061,N,08001.8158,W,1,9,1.6,18,M,,M,,*5B
06/26/2015	16:07:44.555	$GPGGA,160745,2553.7078,N,08001.8155,W,1,9,1.6,18,M,,M,,*5F
06/26/2015	16:07:45.606	$GPGGA,160746,2553.7094,N,08001.8151,W,1,9,1.6,18,M,,M,,*5A
06/26/2015	16:07:46.495	$GPGGA,160747,2553.7112,N,08001.8149,W,1,9,1.6,18,M,,M,,*5D
06/26/2015	16:07:47.595	$GPGGA,160748,2553.7129,N,08001.8147,W,1,9,1.6,18,M,,M,,*54
06/26/2015	16:07:48.544	$GPGGA,160749,2553.7146,N,08001.8143,W,1,9,1.6,18,M,,M,,*58
06/26/2015	16:07:49.655	$GPGGA,160750,2553.7162,N,08001.8140,W,1,9,1.6,18,M,,M,,*55
06/26/2015	16:07:50.615	$GPGGA,160751,2553.7179,N,08001.8137,W,1,9,1.6,18,M,,M,,*5E
06/26/2015	16:07:51.505	$GPGGA,160752,2553.7195,N,08001.8134,W,1,9,1.6,18,M,,M,,*5C
06/26/2015	16:07:52.541	$GPGGA,160753,2553.7213,N,08001.8130,W,1,9,1.6,18,M,,M,,*54
06/26/2015	16:07:53.585	$GPGGA,160754,2553.7229,N,08001.8127,W,1,9,1.6,18,M,,M,,*5C
06/26/2015	16:07:54.485	$GPGGA,160755,2553.7245,N,08001.8124,W,1,9,1.6,18,M,,M,,*54
06/26/2015	16:07:55.646	$GPGGA,160756,2553.7263,N,08001.8120,W,1,9,1.6,18,M,,M,,*57
06/26/2015	16:07:56.537	$GPGGA,160757,2553.7280,N,08001.8117,W,1,9,1.6,17,M,,M,,*50
06/26/2015	16:07:57.586	$GPGGA,160758,2553.7296,N,08001.8114,W,1,9,1.6,17,M,,M,,*5B
06/26/2015	16:07:58.526	$GPGGA,160759,2553.7313,N,08001.8111,W,1,9,1.6,17,M,,M,,*53
06/26/2015	16:07:59.675	$GPGGA,160800,2553.7329,N,08001.8108,W,1,9,1.6,17,M,,M,,*51
06/26/2015	16:08:00.575	$GPGGA,160801,2553.7346,N,08001.8105,W,1,9,1.6,17,M,,M,,*54
06/26/2015	16:08:01.575	$GPGGA,160802,2553.7364,N,08001.8101,W,1,9,1.6,17,M,,M,,*53
06/26/2015	16:08:02.565	$GPGGA,160803,2553.7381,N,08001.8098,W,1,9,1.6,17,M,,M,,*58
06/26/2015	16:08:03.595	$GPGGA,160804,2553.7397,N,08001.8094,W,1,9,1.6,17,M,,M,,*54
06/26/2015	16:08:04.575	$GPGGA,160805,2553.7414,N,08001.8090,W,1,9,1.8,17,M,,M,,*53
06/26/2015	16:08:05.565	$GPGGA,160806,2553.7432,N,08001.8086,W,1,8,1.6,17,M,,M,,*5C
06/26/2015	16:08:06.565	$GPGGA,160807,2553.7448,N,08001.8083,W,1,8,1.6,17,M,,M,,*55
06/26/2015	16:08:07.605	$GPGGA,160808,2553.7464,N,08001.8079,W,1,9,1.8,17,M,,M,,*5E
06/26/2015	16:08:08.555	$GPGGA,160809,2553.7480,N,08001.8076,W,1,9,1.8,17,M,,M,,*5A
06/26/2015	16:08:09.575	$GPGGA,160810,2553.7498,N,08001.8074,W,1,8,1.6,16,M,,M,,*57
06/26/2015	16:08:10.565	$GPGGA,160811,2553.7498,N,08001.8074,W,1,8,1.6,16,M,,M,,*56
06/26/2015	16:08:11.585	$GPGGA,160812,2553.7529,N,08001.8067,W,1,8,1.6,16,M,,M,,*5C
06/26/2015	16:08:12.545	$GPGGA,160813,2553.7547,N,08001.8065,W,1,8,1.8,16,M,,M,,*59
06/26/2015	16:08:13.586	$GPGGA,160814,2553.7563,N,08001.8062,W,1,8,1.6,16,M,,M,,*51
06/26/2015	16:08:14.555	$GPGGA,160815,2553.7578,N,08001.8058,W,1,8,1.6,16,M,,M,,*53
06/26/2015	16:08:15.638	$GPGGA,160816,2553.7595,N,08001.8055,W,1,9,1.6,16,M,,M,,*5F
06/26/2015	16:08:16.555	$GPGGA,160817,2553.7612,N,08001.8053,W,1,9,1.6,16,M,,M,,*54
06/26/2015	16:08:17.626	$GPGGA,160818,2553.7627,N,08001.8049,W,1,9,1.6,16,M,,M,,*56
06/26/2015	16:08:18.535	$GPGGA,160819,2553.7627,N,08001.8049,W,1,9,1.6,16,M,,M,,*57
06/26/2015	16:08:19.585	$GPGGA,160820,2553.7660,N,08001.8043,W,1,9,1.6,16,M,,M,,*54
06/26/2015	16:08:20.535	$GPGGA,160821,2553.7677,N,08001.8039,W,1,9,1.8,16,M,,M,,*50
06/26/2015	16:08:21.575	$GPGGA,160822,2553.7692,N,08001.8037,W,1,8,1.6,16,M,,M,,*59
06/26/2015	16:08:22.537	$GPGGA,160823,2553.7708,N,08001.8034,W,1,8,1.6,16,M,,M,,*59
06/26/2015	16:08:23.575	$GPGGA,160824,2553.7724,N,08001.8032,W,1,9,1.6,16,M,,M,,*57
06/26/2015	16:08:24.555	$GPGGA,160825,2553.7740,N,08001.8028,W,1,9,1.6,16,M,,M,,*5F
06/26/2015	16:08:25.555	$GPGGA,160826,2553.7740,N,08001.8028,W,1,9,1.6,16,M,,M,,*5C
06/26/2015	16:08:26.526	$GPGGA,160827,2553.7773,N,08001.8020,W,1,9,1.6,16,M,,M,,*55
06/26/2015	16:08:27.655	$GPGGA,160828,2553.7791,N,08001.8016,W,1,9,1.6,16,M,,M,,*53
06/26/2015	16:08:29.585	$GPGGA,160829,2553.7807,N,08001.8012,W,1,9,1.6,16,M,,M,,*56
06/26/2015	16:08:29.615	$GPGGA,160830,2553.7823,N,08001.8008,W,1,9,1.6,16,M,,M,,*53
06/26/2015	16:08:30.527	$GPGGA,160831,2553.7841,N,08001.8004,W,1,9,1.6,16,M,,M,,*5A
06/26/2015	16:08:31.676	$GPGGA,160832,2553.7856,N,08001.8000,W,1,9,1.6,16,M,,M,,*5B
06/26/2015	16:08:32.535	$GPGGA,160833,2553.7873,N,08001.7995,W,1,9,1.6,16,M,,M,,*57
06/26/2015	16:08:33.635	$GPGGA,160834,2553.7889,N,08001.7992,W,1,9,1.6,16,M,,M,,*52
06/26/2015	16:08:34.515	$GPGGA,160835,2553.7906,N,08001.7989,W,1,9,1.6,16,M,,M,,*5F
06/26/2015	16:08:35.526	$GPGGA,160836,2553.7906,N,08001.7989,W,1,9,1.6,16,M,,M,,*5C
06/26/2015	16:08:36.495	$GPGGA,160837,2553.7939,N,08001.7981,W,1,9,1.8,15,M,,M,,*54
06/26/2015	16:08:37.615	$GPGGA,160838,2553.7954,N,08001.7978,W,1,8,1.8,15,M,,M,,*57
06/26/2015	16:08:38.515	$GPGGA,160839,2553.7971,N,08001.7975,W,1,8,1.6,15,M,,M,,*52
06/26/2015	16:08:39.535	$GPGGA,160840,2553.7988,N,08001.7971,W,1,9,1.6,15,M,,M,,*5F
06/26/2015	16:08:40.505	$GPGGA,160841,2553.7988,N,08001.7971,W,1,9,1.6,15,M,,M,,*5E
06/26/2015	16:08:41.627	$GPGGA,160842,2553.8019,N,08001.7964,W,1,9,1.6,15,M,,M,,*57
06/26/2015	16:08:42.585	$GPGGA,160843,2553.8036,N,08001.7960,W,1,9,1.6,15,M,,M,,*5F
06/26/2015	16:08:43.605	$GPGGA,160844,2553.8053,N,08001.7958,W,1,9,1.6,15,M,,M,,*50
06/26/2015	16:08:44.575	$GPGGA,160845,2553.8069,N,08001.7955,W,1,9,1.6,15,M,,M,,*55
06/26/2015	16:08:45.585	$GPGGA,160846,2553.8083,N,08001.7951,W,1,9,1.6,15,M,,M,,*56
06/26/2015	16:08:46.585	$GPGGA,160847,2553.8100,N,08001.7949,W,1,9,1.6,15,M,,M,,*54
06/26/2015	16:08:47.585	$GPGGA,160848,2553.8116,N,08001.7945,W,1,9,1.6,15,M,,M,,*50
06/26/2015	16:08:48.576	$GPGGA,160849,2553.8133,N,08001.7941,W,1,9,1.8,15,M,,M,,*5C
06/26/2015	16:08:49.565	$GPGGA,160850,2553.8148,N,08001.7936,W,1,9,1.6,15,M,,M,,*56
06/26/2015	16:08:50.595	$GPGGA,160851,2553.8166,N,08001.7934,W,1,9,1.6,15,M,,M,,*59
06/26/2015	16:08:51.595	$GPGGA,160852,2553.8183,N,08001.7930,W,1,9,1.6,15,M,,M,,*55
06/26/2015	16:08:52.555	$GPGGA,160853,2553.8199,N,08001.7925,W,1,9,1.6,15,M,,M,,*5B
06/26/2015	16:08:53.585	$GPGGA,160854,2553.8216,N,08001.7921,W,1,9,1.6,15,M,,M,,*5C
06/26/2015	16:08:54.565	$GPGGA,160855,2553.8232,N,08001.7917,W,1,9,1.6,15,M,,M,,*5E
06/26/2015	16:08:55.595	$GPGGA,160856,2553.8249,N,08001.7914,W,1,9,1.6,15,M,,M,,*52
06/26/2015	16:08:56.565	$GPGGA,160857,2553.8264,N,08001.7909,W,1,9,1.6,15,M,,M,,*50
06/26/2015	16:08:57.575	$GPGGA,160858,2553.8282,N,08001.7905,W,1,9,1.6,15,M,,M,,*5B
06/26/2015	16:08:58.545	$GPGGA,160859,2553.8297,N,08001.7901,W,1,9,1.6,15,M,,M,,*5A
06/26/2015	16:08:59.595	$GPGGA,160900,2553.8315,N,08001.7897,W,1,9,1.6,15,M,,M,,*52
06/26/2015	16:09:00.537	$GPGGA,160901,2553.8331,N,08001.7893,W,1,9,1.6,15,M,,M,,*51
06/26/2015	16:09:01.565	$GPGGA,160902,2553.8347,N,08001.7889,W,1,9,1.6,15,M,,M,,*58
06/26/2015	16:09:02.539	$GPGGA,160903,2553.8362,N,08001.7887,W,1,9,1.8,15,M,,M,,*5E
06/26/2015	16:09:03.575	$GPGGA,160904,2553.8380,N,08001.7881,W,1,9,1.6,15,M,,M,,*5D
06/26/2015	16:09:04.545	$GPGGA,160905,2553.8396,N,08001.7877,W,1,9,1.6,15,M,,M,,*52
06/26/2015	16:09:05.566	$GPGGA,160906,2553.8412,N,08001.7874,W,1,9,1.6,15,M,,M,,*59
06/26/2015	16:09:06.539	$GPGGA,160907,2553.8429,N,08001.7870,W,1,9,1.6,15,M,,M,,*54
06/26/2015	16:09:07.575	$GPGGA,160908,2553.8445,N,08001.7865,W,1,8,1.8,15,M,,M,,*5A
06/26/2015	16:09:08.529	$GPGGA,160909,2553.8462,N,08001.7860,W,1,8,1.6,15,M,,M,,*55
06/26/2015	16:09:09.565	$GPGGA,160910,2553.8479,N,08001.7857,W,1,9,1.6,15,M,,M,,*52
06/26/2015	16:09:10.525	$GPGGA,160911,2553.8495,N,08001.7852,W,1,9,1.6,15,M,,M,,*54
06/26/2015	16:09:11.565	$GPGGA,160912,2553.8512,N,08001.7848,W,1,9,1.6,15,M,,M,,*52
06/26/2015	16:09:12.515	$GPGGA,160913,2553.8528,N,08001.7843,W,1,9,1.6,15,M,,M,,*51
06/26/2015	16:09:13.645	$GPGGA,160914,2553.8546,N,08001.7839,W,1,9,1.6,15,M,,M,,*53
06/26/2015	16:09:14.540	$GPGGA,160915,2553.8561,N,08001.7835,W,1,9,1.6,15,M,,M,,*5B
06/26/2015	16:09:15.655	$GPGGA,160916,2553.8578,N,08001.7831,W,1,9,1.6,15,M,,M,,*54
06/26/2015	16:09:16.527	$GPGGA,160917,2553.8596,N,08001.7827,W,1,9,1.6,15,M,,M,,*52
06/26/2015	16:09:17.505	$GPGGA,160918,2553.8611,N,08001.7823,W,1,9,1.6,15,M,,M,,*55
06/26/2015	16:09:18.632	$GPGGA,160919,2553.8628,N,08001.7819,W,1,9,1.6,15,M,,M,,*57
06/26/2015	16:09:19.515	$GPGGA,160920,2553.8644,N,08001.7815,W,1,9,1.6,14,M,,M,,*5A
06/26/2015	16:09:20.628	$GPGGA,160921,2553.8661,N,08001.7811,W,1,9,1.8,14,M,,M,,*56
06/26/2015	16:09:21.515	$GPGGA,160922,2553.8678,N,08001.7807,W,1,9,1.6,14,M,,M,,*54
06/26/2015	16:09:22.585	$GPGGA,160923,2553.8694,N,08001.7802,W,1,9,1.8,14,M,,M,,*5C
06/26/2015	16:09:23.629	$GPGGA,160924,2553.8711,N,08001.7799,W,1,8,1.8,14,M,,M,,*5B
06/26/2015	16:09:24.615	$GPGGA,160925,2553.8727,N,08001.7794,W,1,8,1.6,14,M,,M,,*5C
06/26/2015	16:09:25.515	$GPGGA,160926,2553.8744,N,08001.7791,W,1,8,1.8,14,M,,M,,*51
06/26/2015	16:09:26.595	$GPGGA,160927,2553.8759,N,08001.7786,W,1,8,1.6,14,M,,M,,*54
06/26/2015	16:09:27.595	$GPGGA,160928,2553.8777,N,08001.7783,W,1,9,1.6,14,M,,M,,*53
06/26/2015	16:09:28.595	$GPGGA,160929,2553.8795,N,08001.7780,W,1,9,1.6,14,M,,M,,*5D
06/26/2015	16:09:29.615	$GPGGA,160930,2553.8810,N,08001.7775,W,1,9,1.6,14,M,,M,,*5D
06/26/2015	16:09:30.575	$GPGGA,160931,2553.8827,N,08001.7770,W,1,9,1.6,14,M,,M,,*5D
06/26/2015	16:09:31.645	$GPGGA,160932,2553.8845,N,08001.7768,W,1,9,1.6,14,M,,M,,*53
06/26/2015	16:09:32.575	$GPGGA,160933,2553.8860,N,08001.7764,W,1,9,1.6,14,M,,M,,*59
06/26/2015	16:09:33.575	$GPGGA,160934,2553.8877,N,08001.7758,W,1,9,1.6,14,M,,M,,*57
06/26/2015	16:09:34.575	$GPGGA,160935,2553.8893,N,08001.7754,W,1,9,1.6,14,M,,M,,*50
06/26/2015	16:09:35.605	$GPGGA,160936,2553.8911,N,08001.7752,W,1,9,1.6,14,M,,M,,*5E
06/26/2015	16:09:36.565	$GPGGA,160937,2553.8927,N,08001.7747,W,1,9,1.6,14,M,,M,,*5E
06/26/2015	16:09:37.585	$GPGGA,160938,2553.8943,N,08001.7743,W,1,9,1.6,14,M,,M,,*57
06/26/2015	16:09:38.575	$GPGGA,160939,2553.8958,N,08001.7739,W,1,9,1.6,14,M,,M,,*51
06/26/2015	16:09:39.595	$GPGGA,160940,2553.8976,N,08001.7735,W,1,9,1.6,14,M,,M,,*5F
06/26/2015	16:09:40.556	$GPGGA,160941,2553.8993,N,08001.7731,W,1,9,1.6,14,M,,M,,*51
06/26/2015	16:09:41.548	$GPGGA,160942,2553.9008,N,08001.7728,W,1,9,1.6,14,M,,M,,*50
06/26/2015	16:09:42.565	$GPGGA,160943,2553.9026,N,08001.7723,W,1,9,1.6,14,M,,M,,*56
06/26/2015	16:09:43.595	$GPGGA,160944,2553.9041,N,08001.7719,W,1,9,1.6,14,M,,M,,*59
06/26/2015	16:09:44.565	$GPGGA,160945,2553.9059,N,08001.7716,W,1,9,1.6,14,M,,M,,*5E
06/26/2015	16:09:45.575	$GPGGA,160946,2553.9076,N,08001.7712,W,1,9,1.6,14,M,,M,,*54
06/26/2015	16:09:46.540	$GPGGA,160947,2553.9091,N,08001.7706,W,1,9,1.6,14,M,,M,,*59
06/26/2015	16:09:47.549	$GPGGA,160948,2553.9108,N,08001.7702,W,1,9,1.6,14,M,,M,,*53
06/26/2015	16:09:48.546	$GPGGA,160949,2553.9126,N,08001.7700,W,1,9,1.6,14,M,,M,,*5C
06/26/2015	16:09:49.565	$GPGGA,160950,2553.9142,N,08001.7696,W,1,9,1.6,14,M,,M,,*58
06/26/2015	16:09:50.532	$GPGGA,160951,2553.9157,N,08001.7690,W,1,9,1.6,14,M,,M,,*5B
06/26/2015	16:09:51.565	$GPGGA,160952,2553.9174,N,08001.7687,W,1,9,1.6,14,M,,M,,*5F
06/26/2015	16:09:52.545	$GPGGA,160953,2553.9192,N,08001.7684,W,1,9,1.6,14,M,,M,,*55
06/26/2015	16:09:53.555	$GPGGA,160954,2553.9207,N,08001.7679,W,1,9,1.6,14,M,,M,,*5F
06/26/2015	16:09:54.546	$GPGGA,160955,2553.9224,N,08001.7675,W,1,9,1.6,14,M,,M,,*53
06/26/2015	16:09:55.530	$GPGGA,160956,2553.9240,N,08001.7672,W,1,9,1.6,14,M,,M,,*55
06/26/2015	16:09:56.542	$GPGGA,160957,2553.9258,N,08001.7668,W,1,9,1.6,14,M,,M,,*56
06/26/2015	16:09:57.635	$GPGGA,160958,2553.9274,N,08001.7663,W,1,9,1.6,14,M,,M,,*5C
06/26/2015	16:09:58.516	$GPGGA,160959,2553.9290,N,08001.7659,W,1,9,1.6,14,M,,M,,*5E
06/26/2015	16:09:59.565	$GPGGA,161000,2553.9307,N,08001.7656,W,1,9,1.6,14,M,,M,,*5A
06/26/2015	16:10:00.605	$GPGGA,161001,2553.9323,N,08001.7650,W,1,9,1.6,14,M,,M,,*5B
06/26/2015	16:10:01.551	$GPGGA,161002,2553.9340,N,08001.7647,W,1,8,1.8,14,M,,M,,*54
06/26/2015	16:10:02.515	$GPGGA,161003,2553.9355,N,08001.7645,W,1,8,1.6,13,M,,M,,*5A
06/26/2015	16:10:03.529	$GPGGA,161004,2553.9370,N,08001.7642,W,1,9,1.6,13,M,,M,,*5C
06/26/2015	16:10:04.527	$GPGGA,161005,2553.9388,N,08001.7637,W,1,9,1.6,13,M,,M,,*58
06/26/2015	16:10:05.605	$GPGGA,161006,2553.9405,N,08001.7634,W,1,8,1.8,13,M,,M,,*55
06/26/2015	16:10:06.595	$GPGGA,161007,2553.9422,N,08001.7630,W,1,8,1.6,13,M,,M,,*5B
06/26/2015	16:10:07.505	$GPGGA,161008,2553.9438,N,08001.7625,W,1,9,1.6,13,M,,M,,*5A
06/26/2015	16:10:08.595	$GPGGA,161009,2553.9453,N,08001.7622,W,1,9,1.6,13,M,,M,,*51
06/26/2015	16:10:09.485	$GPGGA,161010,2553.9471,N,08001.7619,W,1,9,1.6,13,M,,M,,*51
06/26/2015	16:10:10.515	$GPGGA,161011,2553.9488,N,08001.7615,W,1,9,1.6,13,M,,M,,*5A
06/26/2015	16:10:11.532	$GPGGA,161012,2553.9503,N,08001.7610,W,1,9,1.6,13,M,,M,,*5E
06/26/2015	16:10:12.585	$GPGGA,161013,2553.9521,N,08001.7608,W,1,9,1.6,13,M,,M,,*56
06/26/2015	16:10:13.605	$GPGGA,161014,2553.9539,N,08001.7604,W,1,9,1.6,13,M,,M,,*54
06/26/2015	16:10:14.495	$GPGGA,161015,2553.9554,N,08001.7599,W,1,9,1.8,13,M,,M,,*57
06/26/2015	16:10:15.606	$GPGGA,161016,2553.9571,N,08001.7595,W,1,9,1.6,13,M,,M,,*51
06/26/2015	16:10:16.576	$GPGGA,161017,2553.9589,N,08001.7592,W,1,9,1.6,13,M,,M,,*50
06/26/2015	16:10:17.565	$GPGGA,161018,2553.9604,N,08001.7588,W,1,9,1.6,13,M,,M,,*52
06/26/2015	16:10:18.565	$GPGGA,161019,2553.9622,N,08001.7582,W,1,9,1.6,13,M,,M,,*5D
06/26/2015	16:10:19.615	$GPGGA,161020,2553.9639,N,08001.7579,W,1,9,1.6,13,M,,M,,*59
06/26/2015	16:10:20.575	$GPGGA,161021,2553.9655,N,08001.7576,W,1,9,1.6,13,M,,M,,*5D
06/26/2015	16:10:21.575	$GPGGA,161022,2553.9672,N,08001.7571,W,1,9,1.6,13,M,,M,,*5C
06/26/2015	16:10:22.565	$GPGGA,161023,2553.9688,N,08001.7567,W,1,9,1.6,13,M,,M,,*5F
06/26/2015	16:10:23.595	$GPGGA,161024,2553.9706,N,08001.7563,W,1,9,1.6,13,M,,M,,*5B
06/26/2015	16:10:24.555	$GPGGA,161025,2553.9723,N,08001.7559,W,1,9,1.6,13,M,,M,,*54
06/26/2015	16:10:25.575	$GPGGA,161026,2553.9738,N,08001.7555,W,1,9,1.6,13,M,,M,,*51
06/26/2015	16:10:26.565	$GPGGA,161027,2553.9756,N,08001.7551,W,1,9,1.6,13,M,,M,,*5C
06/26/2015	16:10:27.595	$GPGGA,161028,2553.9773,N,08001.7547,W,1,9,1.6,13,M,,M,,*53
06/26/2015	16:10:28.555	$GPGGA,161029,2553.9789,N,08001.7544,W,1,9,1.7,13,M,,M,,*55
06/26/2015	16:10:29.575	$GPGGA,161030,2553.9806,N,08001.7540,W,1,9,1.7,13,M,,M,,*51
06/26/2015	16:10:30.555	$GPGGA,161031,2553.9823,N,08001.7536,W,1,9,1.7,13,M,,M,,*56
06/26/2015	16:10:31.595	$GPGGA,161032,2553.9839,N,08001.7531,W,1,9,1.7,13,M,,M,,*59
06/26/2015	16:10:32.555	$GPGGA,161033,2553.9856,N,08001.7528,W,1,9,1.7,13,M,,M,,*59
06/26/2015	16:10:33.576	$GPGGA,161034,2553.9872,N,08001.7524,W,1,9,1.7,13,M,,M,,*54
06/26/2015	16:10:34.535	$GPGGA,161035,2553.9890,N,08001.7520,W,1,9,1.7,13,M,,M,,*5D
06/26/2015	16:10:35.555	$GPGGA,161036,2553.9907,N,08001.7517,W,1,9,1.7,13,M,,M,,*55
06/26/2015	16:10:36.545	$GPGGA,161037,2553.9924,N,08001.7514,W,1,9,1.7,13,M,,M,,*56
06/26/2015	16:10:37.565	$GPGGA,161038,2553.9940,N,08001.7510,W,1,9,1.7,13,M,,M,,*5F
06/26/2015	16:10:38.545	$GPGGA,161039,2553.9957,N,08001.7506,W,1,9,1.7,13,M,,M,,*5F
06/26/2015	16:10:39.545	$GPGGA,161040,2553.9975,N,08001.7502,W,1,9,1.7,13,M,,M,,*55
06/26/2015	16:10:40.545	$GPGGA,161041,2553.9991,N,08001.7499,W,1,9,1.7,13,M,,M,,*5D
06/26/2015	16:10:41.555	$GPGGA,161042,2554.0008,N,08001.7496,W,1,9,1.7,13,M,,M,,*56
06/26/2015	16:10:42.525	$GPGGA,161043,2554.0024,N,08001.7491,W,1,9,1.7,13,M,,M,,*5E
06/26/2015	16:10:43.555	$GPGGA,161044,2554.0041,N,08001.7486,W,1,9,1.7,13,M,,M,,*5C
06/26/2015	16:10:44.525	$GPGGA,161045,2554.0058,N,08001.7483,W,1,9,1.7,13,M,,M,,*50
06/26/2015	16:10:45.526	$GPGGA,161046,2554.0074,N,08001.7481,W,1,9,1.7,13,M,,M,,*5F
06/26/2015	16:10:46.515	$GPGGA,161047,2554.0091,N,08001.7474,W,1,9,2.2,13,M,,M,,*59
06/26/2015	16:10:47.555	$GPGGA,161048,2554.0107,N,08001.7469,W,1,9,1.7,13,M,,M,,*52
06/26/2015	16:10:48.605	$GPGGA,161049,2554.0124,N,08001.7466,W,1,9,1.7,13,M,,M,,*5D
06/26/2015	16:10:49.629	$GPGGA,161050,2554.0139,N,08001.7462,W,1,9,1.7,13,M,,M,,*5D
06/26/2015	16:10:50.516	$GPGGA,161051,2554.0157,N,08001.7458,W,1,9,1.7,13,M,,M,,*5D
06/26/2015	16:10:51.666	$GPGGA,161052,2554.0174,N,08001.7455,W,1,9,1.7,13,M,,M,,*52
06/26/2015	16:10:52.515	$GPGGA,161053,2554.0190,N,08001.7451,W,1,9,1.7,13,M,,M,,*5D
06/26/2015	16:10:53.495	$GPGGA,161054,2554.0207,N,08001.7447,W,1,9,1.7,13,M,,M,,*50
06/26/2015	16:10:54.495	$GPGGA,161055,2554.0222,N,08001.7443,W,1,9,1.7,13,M,,M,,*52
06/26/2015	16:10:55.641	$GPGGA,161056,2554.0240,N,08001.7439,W,1,9,1.7,13,M,,M,,*58
06/26/2015	16:10:56.505	$GPGGA,161057,2554.0257,N,08001.7436,W,1,9,1.7,13,M,,M,,*50
06/26/2015	16:10:57.585	$GPGGA,161058,2554.0273,N,08001.7431,W,1,8,2.2,13,M,,M,,*59
06/26/2015	16:10:58.585	$GPGGA,161059,2554.0290,N,08001.7428,W,1,8,1.7,13,M,,M,,*5B
06/26/2015	16:10:59.555	$GPGGA,161100,2554.0307,N,08001.7425,W,1,9,1.7,13,M,,M,,*55
06/26/2015	16:11:00.585	$GPGGA,161101,2554.0323,N,08001.7421,W,1,9,2.2,13,M,,M,,*50
06/26/2015	16:11:01.585	$GPGGA,161102,2554.0340,N,08001.7417,W,1,9,1.7,14,M,,M,,*52
06/26/2015	16:11:02.575	$GPGGA,161103,2554.0356,N,08001.7413,W,1,9,1.7,14,M,,M,,*50
06/26/2015	16:11:03.615	$GPGGA,161104,2554.0374,N,08001.7410,W,1,9,1.7,14,M,,M,,*54
06/26/2015	16:11:04.575	$GPGGA,161105,2554.0389,N,08001.7406,W,1,9,1.7,14,M,,M,,*50
06/26/2015	16:11:05.595	$GPGGA,161106,2554.0406,N,08001.7402,W,1,9,1.7,14,M,,M,,*57
06/26/2015	16:11:06.585	$GPGGA,161107,2554.0424,N,08001.7398,W,1,9,1.7,14,M,,M,,*52
06/26/2015	16:11:07.635	$GPGGA,161108,2554.0439,N,08001.7394,W,1,9,1.7,14,M,,M,,*5D
06/26/2015	16:11:08.566	$GPGGA,161109,2554.0457,N,08001.7390,W,1,9,1.7,14,M,,M,,*50
06/26/2015	16:11:09.585	$GPGGA,161110,2554.0472,N,08001.7385,W,1,9,1.7,14,M,,M,,*5B
06/26/2015	16:11:10.555	$GPGGA,161111,2554.0489,N,08001.7379,W,1,9,1.7,14,M,,M,,*5D
06/26/2015	16:11:11.595	$GPGGA,161112,2554.0506,N,08001.7376,W,1,9,1.7,14,M,,M,,*57
06/26/2015	16:11:12.555	$GPGGA,161113,2554.0522,N,08001.7374,W,1,9,1.7,14,M,,M,,*52
06/26/2015	16:11:13.565	$GPGGA,161114,2554.0539,N,08001.7368,W,1,8,2.2,14,M,,M,,*55
06/26/2015	16:11:14.555	$GPGGA,161115,2554.0555,N,08001.7365,W,1,8,1.7,14,M,,M,,*55
06/26/2015	16:11:15.585	$GPGGA,161116,2554.0573,N,08001.7362,W,1,9,1.7,14,M,,M,,*54
06/26/2015	16:11:16.555	$GPGGA,161117,2554.0591,N,08001.7358,W,1,9,1.7,14,M,,M,,*50
06/26/2015	16:11:17.575	$GPGGA,161118,2554.0607,N,08001.7354,W,1,9,1.7,14,M,,M,,*5F
06/26/2015	16:11:18.545	$GPGGA,161119,2554.0625,N,08001.7352,W,1,9,1.7,14,M,,M,,*58
06/26/2015	16:11:19.575	$GPGGA,161120,2554.0641,N,08001.7349,W,1,9,1.7,14,M,,M,,*5A
06/26/2015	16:11:20.555	$GPGGA,161121,2554.0658,N,08001.7344,W,1,9,2.2,14,M,,M,,*58
06/26/2015	16:11:21.535	$GPGGA,161122,2554.0674,N,08001.7341,W,1,9,1.7,14,M,,M,,*56
06/26/2015	16:11:22.537	$GPGGA,161123,2554.0692,N,08001.7338,W,1,9,1.7,14,M,,M,,*51
06/26/2015	16:11:23.585	$GPGGA,161124,2554.0709,N,08001.7334,W,1,9,1.7,14,M,,M,,*59
06/26/2015	16:11:24.531	$GPGGA,161125,2554.0724,N,08001.7329,W,1,9,1.7,14,M,,M,,*5B
06/26/2015	16:11:25.526	$GPGGA,161126,2554.0742,N,08001.7326,W,1,9,1.7,14,M,,M,,*57
06/26/2015	16:11:26.526	$GPGGA,161127,2554.0759,N,08001.7322,W,1,9,1.7,14,M,,M,,*58
06/26/2015	16:11:27.575	$GPGGA,161128,2554.0775,N,08001.7319,W,1,9,1.7,14,M,,M,,*51
06/26/2015	16:11:28.535	$GPGGA,161129,2554.0790,N,08001.7312,W,1,9,2.2,14,M,,M,,*56
06/26/2015	16:11:29.645	$GPGGA,161130,2554.0807,N,08001.7308,W,1,9,1.7,14,M,,M,,*52
06/26/2015	16:11:30.515	$GPGGA,161131,2554.0825,N,08001.7306,W,1,9,1.7,14,M,,M,,*5D
06/26/2015	16:11:31.536	$GPGGA,161132,2554.0842,N,08001.7303,W,1,8,2.2,14,M,,M,,*5D
06/26/2015	16:11:32.515	$GPGGA,161133,2554.0858,N,08001.7296,W,1,8,1.7,14,M,,M,,*5C
06/26/2015	16:11:33.506	$GPGGA,161134,2554.0873,N,08001.7291,W,1,9,1.7,14,M,,M,,*54
06/26/2015	16:11:34.528	$GPGGA,161135,2554.0891,N,08001.7290,W,1,9,1.7,14,M,,M,,*58
06/26/2015	16:11:35.535	$GPGGA,161136,2554.0909,N,08001.7288,W,1,8,2.2,14,M,,M,,*55
06/26/2015	16:11:36.495	$GPGGA,161137,2554.0926,N,08001.7284,W,1,8,1.7,14,M,,M,,*53
06/26/2015	16:11:37.605	$GPGGA,161138,2554.0943,N,08001.7280,W,1,9,1.7,14,M,,M,,*5A
06/26/2015	16:11:38.515	$GPGGA,161139,2554.0959,N,08001.7278,W,1,9,1.7,14,M,,M,,*57
06/26/2015	16:11:39.515	$GPGGA,161140,2554.0977,N,08001.7275,W,1,9,1.7,14,M,,M,,*58
06/26/2015	16:11:40.515	$GPGGA,161141,2554.0994,N,08001.7270,W,1,9,2.2,14,M,,M,,*57
06/26/2015	16:11:41.495	$GPGGA,161142,2554.1010,N,08001.7266,W,1,9,1.7,14,M,,M,,*51
06/26/2015	16:11:42.595	$GPGGA,161143,2554.1027,N,08001.7264,W,1,9,1.7,14,M,,M,,*56
06/26/2015	16:11:43.506	$GPGGA,161144,2554.1045,N,08001.7261,W,1,9,1.7,14,M,,M,,*50
06/26/2015	16:11:44.595	$GPGGA,161145,2554.1060,N,08001.7257,W,1,9,1.7,14,M,,M,,*53
06/26/2015	16:11:45.605	$GPGGA,161146,2554.1078,N,08001.7255,W,1,9,1.7,14,M,,M,,*5B
06/26/2015	16:11:46.495	$GPGGA,161147,2554.1095,N,08001.7252,W,1,9,1.7,14,M,,M,,*5E
06/26/2015	16:11:47.627	$GPGGA,161148,2554.1113,N,08001.7250,W,1,9,2.2,14,M,,M,,*5A
06/26/2015	16:11:48.585	$GPGGA,161149,2554.1128,N,08001.7243,W,1,9,1.7,14,M,,M,,*57
06/26/2015	16:11:49.606	$GPGGA,161150,2554.1144,N,08001.7241,W,1,9,1.7,14,M,,M,,*57
06/26/2015	16:11:50.575	$GPGGA,161151,2554.1162,N,08001.7239,W,1,9,2.2,14,M,,M,,*5B
06/26/2015	16:11:51.615	$GPGGA,161152,2554.1180,N,08001.7235,W,1,8,1.7,14,M,,M,,*5F
06/26/2015	16:11:52.565	$GPGGA,161153,2554.1194,N,08001.7230,W,1,8,1.7,14,M,,M,,*5E
