Software Version Number: 1	Data File Format Number: 1	Build Version Number: 1	Error Count Since VI Started: 1	Manufacturer: Raytheon	 Model Number: RayMarine 120	 S/N: 	 Cal Date: 	 Wind Direction Offset: 0.00	 Slope (M)1: 0.00	 Offset (B)1: 0.00	 Slope (M)2: 0.00	 Offset (B)2: 0.00	 Slope (M)3: 0.00	 Offset (B)3: 0.00	 Slope (M)4: 0.00	 Offset (B)4: 0.00	 Slope (M)5: 0.00	 Offset (B)5: 0.00	 Slope (M)6: 0.00	 Offset (B)6: 0.00
Computer Date	Computer Time	GGA String
06/14/2015	19:00:00.548	$GPGGA,190001,2433.0224,N,08056.8425,W,1,10,1.4,22,M,,M,,*6F
06/14/2015	19:00:01.548	$GPGGA,190002,2433.0224,N,08056.8425,W,1,11,1.4,22,M,,M,,*6D
06/14/2015	19:00:02.538	$GPGGA,190003,2433.0219,N,08056.8436,W,1,11,1.4,22,M,,M,,*60
06/14/2015	19:00:03.608	$GPGGA,190004,2433.0215,N,08056.8439,W,1,11,1.4,22,M,,M,,*64
06/14/2015	19:00:04.538	$GPGGA,190005,2433.0212,N,08056.8444,W,1,11,1.4,22,M,,M,,*68
06/14/2015	19:00:05.548	$GPGGA,190006,2433.0212,N,08056.8444,W,1,11,1.4,22,M,,M,,*6B
06/14/2015	19:00:06.539	$GPGGA,190007,2433.0205,N,08056.8455,W,1,11,1.4,22,M,,M,,*6C
06/14/2015	19:00:07.650	$GPGGA,190008,2433.0201,N,08056.8459,W,1,10,1.4,22,M,,M,,*6A
06/14/2015	19:00:08.610	$GPGGA,190009,2433.0199,N,08056.8465,W,1,10,1.4,22,M,,M,,*66
06/14/2015	19:00:09.639	$GPGGA,190010,2433.0198,N,08056.8468,W,1,11,1.4,22,M,,M,,*63
06/14/2015	19:00:10.529	$GPGGA,190011,2433.0194,N,08056.8470,W,1,11,1.9,22,M,,M,,*6A
06/14/2015	19:00:11.649	$GPGGA,190012,2433.0192,N,08056.8473,W,1,11,1.4,22,M,,M,,*61
06/14/2015	19:00:12.509	$GPGGA,190013,2433.0191,N,08056.8479,W,1,11,1.4,22,M,,M,,*69
06/14/2015	19:00:13.609	$GPGGA,190014,2433.0186,N,08056.8484,W,1,9,2.0,22,M,,M,,*54
06/14/2015	19:00:14.519	$GPGGA,190015,2433.0180,N,08056.8490,W,1,9,1.4,22,M,,M,,*51
06/14/2015	19:00:15.518	$GPGGA,190016,2433.0180,N,08056.8490,W,1,10,1.4,23,M,,M,,*6B
06/14/2015	19:00:16.598	$GPGGA,190017,2433.0173,N,08056.8502,W,1,10,1.4,23,M,,M,,*6C
06/14/2015	19:00:17.588	$GPGGA,190018,2433.0169,N,08056.8505,W,1,10,1.4,23,M,,M,,*6F
06/14/2015	19:00:18.598	$GPGGA,190019,2433.0165,N,08056.8511,W,1,10,1.4,23,M,,M,,*67
06/14/2015	19:00:19.508	$GPGGA,190020,2433.0165,N,08056.8511,W,1,11,1.4,23,M,,M,,*6C
06/14/2015	19:00:20.508	$GPGGA,190021,2433.0161,N,08056.8520,W,1,11,1.4,23,M,,M,,*6B
06/14/2015	19:00:21.598	$GPGGA,190022,2433.0156,N,08056.8523,W,1,9,2.0,23,M,,M,,*51
06/14/2015	19:00:22.588	$GPGGA,190023,2433.0154,N,08056.8527,W,1,9,1.4,23,M,,M,,*51
06/14/2015	19:00:23.598	$GPGGA,190024,2433.0151,N,08056.8533,W,1,11,1.4,23,M,,M,,*6F
06/14/2015	19:00:24.589	$GPGGA,190025,2433.0148,N,08056.8537,W,1,11,1.4,23,M,,M,,*62
06/14/2015	19:00:25.589	$GPGGA,190026,2433.0145,N,08056.8540,W,1,10,1.4,23,M,,M,,*6D
06/14/2015	19:00:26.579	$GPGGA,190027,2433.0141,N,08056.8545,W,1,10,1.9,23,M,,M,,*60
06/14/2015	19:00:27.599	$GPGGA,190028,2433.0139,N,08056.8548,W,1,11,1.4,23,M,,M,,*61
06/14/2015	19:00:28.569	$GPGGA,190029,2433.0137,N,08056.8549,W,1,11,2.0,23,M,,M,,*68
06/14/2015	19:00:29.609	$GPGGA,190030,2433.0133,N,08056.8555,W,1,10,1.4,23,M,,M,,*6F
06/14/2015	19:00:30.579	$GPGGA,190031,2433.0132,N,08056.8559,W,1,10,1.4,23,M,,M,,*63
06/14/2015	19:00:31.619	$GPGGA,190032,2433.0129,N,08056.8562,W,1,11,1.4,23,M,,M,,*63
06/14/2015	19:00:32.559	$GPGGA,190033,2433.0125,N,08056.8569,W,1,11,1.4,23,M,,M,,*65
06/14/2015	19:00:33.588	$GPGGA,190034,2433.0121,N,08056.8574,W,1,10,1.4,23,M,,M,,*6B
06/14/2015	19:00:34.568	$GPGGA,190035,2433.0118,N,08056.8578,W,1,10,1.4,23,M,,M,,*6C
06/14/2015	19:00:35.598	$GPGGA,190036,2433.0115,N,08056.8584,W,1,11,1.4,23,M,,M,,*60
06/14/2015	19:00:36.578	$GPGGA,190037,2433.0114,N,08056.8587,W,1,11,1.4,23,M,,M,,*63
06/14/2015	19:00:37.549	$GPGGA,190038,2433.0111,N,08056.8591,W,1,10,1.9,23,M,,M,,*62
06/14/2015	19:00:38.559	$GPGGA,190039,2433.0108,N,08056.8595,W,1,10,1.4,23,M,,M,,*62
06/14/2015	19:00:39.578	$GPGGA,190040,2433.0107,N,08056.8600,W,1,11,1.4,23,M,,M,,*6D
06/14/2015	19:00:40.562	$GPGGA,190041,2433.0103,N,08056.8605,W,1,11,1.4,23,M,,M,,*6D
06/14/2015	19:00:41.609	$GPGGA,190042,2433.0099,N,08056.8609,W,1,11,1.4,23,M,,M,,*60
06/14/2015	19:00:42.562	$GPGGA,190043,2433.0096,N,08056.8613,W,1,11,1.4,23,M,,M,,*65
06/14/2015	19:00:43.679	$GPGGA,190044,2433.0093,N,08056.8618,W,1,11,1.4,23,M,,M,,*6C
06/14/2015	19:00:44.554	$GPGGA,190045,2433.0090,N,08056.8624,W,1,11,1.4,22,M,,M,,*60
06/14/2015	19:00:45.569	$GPGGA,190046,2433.0086,N,08056.8628,W,1,11,1.4,22,M,,M,,*68
06/14/2015	19:00:46.556	$GPGGA,190047,2433.0082,N,08056.8632,W,1,11,1.4,22,M,,M,,*66
06/14/2015	19:00:47.539	$GPGGA,190048,2433.0079,N,08056.8638,W,1,11,1.4,22,M,,M,,*67
06/14/2015	19:00:48.529	$GPGGA,190049,2433.0076,N,08056.8643,W,1,11,1.4,22,M,,M,,*65
06/14/2015	19:00:49.552	$GPGGA,190050,2433.0072,N,08056.8647,W,1,11,1.4,22,M,,M,,*6D
06/14/2015	19:00:50.538	$GPGGA,190051,2433.0067,N,08056.8652,W,1,11,1.4,22,M,,M,,*6C
06/14/2015	19:00:51.658	$GPGGA,190052,2433.0065,N,08056.8656,W,1,11,1.4,23,M,,M,,*68
06/14/2015	19:00:52.550	$GPGGA,190053,2433.0063,N,08056.8661,W,1,11,1.4,23,M,,M,,*6B
06/14/2015	19:00:53.638	$GPGGA,190054,2433.0058,N,08056.8667,W,1,11,1.4,23,M,,M,,*62
06/14/2015	19:00:54.528	$GPGGA,190055,2433.0053,N,08056.8671,W,1,11,1.4,23,M,,M,,*6F
06/14/2015	19:00:55.528	$GPGGA,190056,2433.0050,N,08056.8678,W,1,10,1.4,23,M,,M,,*67
06/14/2015	19:00:56.528	$GPGGA,190057,2433.0047,N,08056.8685,W,1,10,1.4,23,M,,M,,*62
06/14/2015	19:00:57.528	$GPGGA,190058,2433.0042,N,08056.8689,W,1,11,1.4,23,M,,M,,*65
06/14/2015	19:00:58.598	$GPGGA,190059,2433.0039,N,08056.8694,W,1,11,1.4,23,M,,M,,*64
06/14/2015	19:00:59.562	$GPGGA,190100,2433.0038,N,08056.8700,W,1,11,1.4,23,M,,M,,*64
06/14/2015	19:01:00.509	$GPGGA,190101,2433.0035,N,08056.8703,W,1,11,1.4,23,M,,M,,*6B
06/14/2015	19:01:01.599	$GPGGA,190102,2433.0031,N,08056.8707,W,1,10,1.9,23,M,,M,,*64
06/14/2015	19:01:02.619	$GPGGA,190103,2433.0028,N,08056.8710,W,1,10,1.4,23,M,,M,,*66
06/14/2015	19:01:03.639	$GPGGA,190104,2433.0023,N,08056.8719,W,1,10,1.4,23,M,,M,,*63
06/14/2015	19:01:04.589	$GPGGA,190105,2433.0022,N,08056.8721,W,1,10,1.4,23,M,,M,,*68
06/14/2015	19:01:05.619	$GPGGA,190106,2433.0020,N,08056.8721,W,1,10,1.9,23,M,,M,,*64
06/14/2015	19:01:06.589	$GPGGA,190107,2433.0015,N,08056.8723,W,1,10,1.4,23,M,,M,,*6C
06/14/2015	19:01:07.648	$GPGGA,190108,2433.0014,N,08056.8728,W,1,11,1.4,23,M,,M,,*68
06/14/2015	19:01:08.578	$GPGGA,190109,2433.0011,N,08056.8733,W,1,11,1.9,23,M,,M,,*6B
06/14/2015	19:01:09.619	$GPGGA,190110,2433.0009,N,08056.8735,W,1,11,1.4,23,M,,M,,*61
06/14/2015	19:01:10.588	$GPGGA,190111,2433.0006,N,08056.8736,W,1,11,1.9,23,M,,M,,*61
06/14/2015	19:01:11.618	$GPGGA,190112,2433.0004,N,08056.8743,W,1,10,1.9,23,M,,M,,*63
06/14/2015	19:01:12.578	$GPGGA,190113,2432.9999,N,08056.8748,W,1,10,1.4,23,M,,M,,*61
06/14/2015	19:01:13.608	$GPGGA,190114,2432.9995,N,08056.8753,W,1,11,1.4,23,M,,M,,*61
06/14/2015	19:01:14.578	$GPGGA,190115,2432.9991,N,08056.8757,W,1,11,1.4,23,M,,M,,*60
06/14/2015	19:01:15.608	$GPGGA,190116,2432.9987,N,08056.8764,W,1,10,1.4,23,M,,M,,*65
06/14/2015	19:01:16.569	$GPGGA,190117,2432.9984,N,08056.8769,W,1,10,1.9,23,M,,M,,*67
06/14/2015	19:01:17.589	$GPGGA,190118,2432.9980,N,08056.8775,W,1,11,1.4,23,M,,M,,*6D
06/14/2015	19:01:18.569	$GPGGA,190119,2432.9977,N,08056.8779,W,1,11,1.4,23,M,,M,,*68
06/14/2015	19:01:19.599	$GPGGA,190120,2432.9975,N,08056.8782,W,1,9,2.0,23,M,,M,,*5A
06/14/2015	19:01:20.570	$GPGGA,190121,2432.9973,N,08056.8786,W,1,9,1.9,23,M,,M,,*53
06/14/2015	19:01:21.570	$GPGGA,190122,2432.9969,N,08056.8790,W,1,9,2.0,23,M,,M,,*56
06/14/2015	19:01:22.557	$GPGGA,190123,2432.9966,N,08056.8794,W,1,9,1.4,23,M,,M,,*5B
06/14/2015	19:01:23.589	$GPGGA,190124,2432.9964,N,08056.8797,W,1,11,1.4,23,M,,M,,*64
06/14/2015	19:01:24.551	$GPGGA,190125,2432.9963,N,08056.8802,W,1,11,1.4,23,M,,M,,*61
06/14/2015	19:01:25.588	$GPGGA,190126,2432.9962,N,08056.8804,W,1,10,1.4,22,M,,M,,*65
06/14/2015	19:01:26.550	$GPGGA,190127,2432.9956,N,08056.8808,W,1,10,1.4,22,M,,M,,*6F
06/14/2015	19:01:27.588	$GPGGA,190128,2432.9952,N,08056.8815,W,1,10,1.9,22,M,,M,,*65
06/14/2015	19:01:28.554	$GPGGA,190129,2432.9946,N,08056.8826,W,1,10,1.4,22,M,,M,,*6C
06/14/2015	19:01:29.550	$GPGGA,190130,2432.9939,N,08056.8833,W,1,10,1.4,22,M,,M,,*68
06/14/2015	19:01:30.559	$GPGGA,190131,2432.9935,N,08056.8837,W,1,10,1.4,22,M,,M,,*61
06/14/2015	19:01:31.578	$GPGGA,190132,2432.9933,N,08056.8844,W,1,10,1.9,22,M,,M,,*6D
06/14/2015	19:01:32.538	$GPGGA,190133,2432.9931,N,08056.8848,W,1,10,1.4,22,M,,M,,*6F
06/14/2015	19:01:33.538	$GPGGA,190134,2432.9926,N,08056.8855,W,1,10,1.9,22,M,,M,,*6F
06/14/2015	19:01:34.551	$GPGGA,190135,2432.9921,N,08056.8860,W,1,10,1.4,22,M,,M,,*62
06/14/2015	19:01:35.569	$GPGGA,190136,2432.9919,N,08056.8866,W,1,11,1.4,22,M,,M,,*6D
06/14/2015	19:01:36.652	$GPGGA,190137,2432.9915,N,08056.8870,W,1,11,1.4,22,M,,M,,*67
06/14/2015	19:01:37.553	$GPGGA,190138,2432.9911,N,08056.8876,W,1,11,1.4,22,M,,M,,*6A
06/14/2015	19:01:38.529	$GPGGA,190139,2432.9908,N,08056.8881,W,1,11,1.4,22,M,,M,,*6B
06/14/2015	19:01:39.539	$GPGGA,190140,2432.9905,N,08056.8887,W,1,11,1.4,22,M,,M,,*6E
06/14/2015	19:01:40.529	$GPGGA,190141,2432.9901,N,08056.8891,W,1,11,1.4,22,M,,M,,*6C
06/14/2015	19:01:41.519	$GPGGA,190142,2432.9898,N,08056.8896,W,1,10,1.4,22,M,,M,,*68
06/14/2015	19:01:42.628	$GPGGA,190143,2432.9897,N,08056.8900,W,1,10,1.4,22,M,,M,,*68
06/14/2015	19:01:43.567	$GPGGA,190144,2432.9893,N,08056.8903,W,1,11,1.4,22,M,,M,,*69
06/14/2015	19:01:44.518	$GPGGA,190145,2432.9890,N,08056.8907,W,1,11,1.4,22,M,,M,,*6F
06/14/2015	19:01:45.608	$GPGGA,190146,2432.9886,N,08056.8913,W,1,11,1.4,22,M,,M,,*6E
06/14/2015	19:01:46.518	$GPGGA,190147,2432.9883,N,08056.8917,W,1,11,1.4,22,M,,M,,*6E
06/14/2015	19:01:47.648	$GPGGA,190148,2432.9879,N,08056.8923,W,1,10,1.4,22,M,,M,,*62
06/14/2015	19:01:48.608	$GPGGA,190149,2432.9877,N,08056.8927,W,1,10,1.4,22,M,,M,,*69
06/14/2015	19:01:49.629	$GPGGA,190150,2432.9874,N,08056.8931,W,1,11,1.4,22,M,,M,,*64
06/14/2015	19:01:50.598	$GPGGA,190151,2432.9870,N,08056.8934,W,1,11,1.4,22,M,,M,,*64
06/14/2015	19:01:51.629	$GPGGA,190152,2432.9867,N,08056.8939,W,1,11,1.4,22,M,,M,,*6C
06/14/2015	19:01:52.589	$GPGGA,190153,2432.9865,N,08056.8942,W,1,11,1.4,22,M,,M,,*63
06/14/2015	19:01:53.499	$GPGGA,190154,2432.9861,N,08056.8947,W,1,11,1.4,22,M,,M,,*65
06/14/2015	19:01:54.579	$GPGGA,190155,2432.9858,N,08056.8954,W,1,11,1.4,22,M,,M,,*6C
06/14/2015	19:01:55.599	$GPGGA,190156,2432.9856,N,08056.8956,W,1,10,1.4,22,M,,M,,*62
06/14/2015	19:01:56.579	$GPGGA,190157,2432.9852,N,08056.8957,W,1,10,1.4,22,M,,M,,*66
06/14/2015	19:01:57.589	$GPGGA,190158,2432.9851,N,08056.8961,W,1,11,1.4,23,M,,M,,*6F
06/14/2015	19:01:58.579	$GPGGA,190159,2432.9850,N,08056.8968,W,1,11,1.4,23,M,,M,,*66
06/14/2015	19:01:59.649	$GPGGA,190200,2432.9844,N,08056.8972,W,1,11,1.4,23,M,,M,,*67
06/14/2015	19:02:00.578	$GPGGA,190201,2432.9841,N,08056.8975,W,1,11,1.4,23,M,,M,,*64
06/14/2015	19:02:01.588	$GPGGA,190202,2432.9840,N,08056.8981,W,1,11,1.4,23,M,,M,,*6D
06/14/2015	19:02:02.578	$GPGGA,190203,2432.9839,N,08056.8983,W,1,11,1.9,23,M,,M,,*6D
06/14/2015	19:02:03.598	$GPGGA,190204,2432.9836,N,08056.8985,W,1,10,1.4,22,M,,M,,*6E
06/14/2015	19:02:04.560	$GPGGA,190205,2432.9833,N,08056.8989,W,1,10,1.4,22,M,,M,,*66
06/14/2015	19:02:05.588	$GPGGA,190206,2432.9832,N,08056.8995,W,1,9,1.9,22,M,,M,,*5C
06/14/2015	19:02:06.568	$GPGGA,190207,2432.9828,N,08056.8999,W,1,9,1.9,22,M,,M,,*5A
06/14/2015	19:02:07.874	$GPGGA,190208,2432.9826,N,08056.9004,W,1,11,1.4,22,M,,M,,*63
06/14/2015	19:02:08.560	$GPGGA,190209,2432.9823,N,08056.9008,W,1,11,1.4,22,M,,M,,*6B
06/14/2015	19:02:09.561	$GPGGA,190210,2432.9818,N,08056.9014,W,1,9,1.9,22,M,,M,,*52
06/14/2015	19:02:10.562	$GPGGA,190211,2432.9815,N,08056.9019,W,1,9,1.4,22,M,,M,,*5E
06/14/2015	19:02:11.579	$GPGGA,190212,2432.9812,N,08056.9025,W,1,10,1.9,22,M,,M,,*60
06/14/2015	19:02:12.552	$GPGGA,190213,2432.9807,N,08056.9033,W,1,10,1.9,22,M,,M,,*62
06/14/2015	19:02:13.579	$GPGGA,190214,2432.9803,N,08056.9036,W,1,10,1.4,22,M,,M,,*69
06/14/2015	19:02:14.559	$GPGGA,190215,2432.9797,N,08056.9042,W,1,10,1.9,23,M,,M,,*65
06/14/2015	19:02:15.579	$GPGGA,190216,2432.9794,N,08056.9048,W,1,11,1.4,23,M,,M,,*63
06/14/2015	19:02:16.553	$GPGGA,190217,2432.9792,N,08056.9051,W,1,11,1.4,23,M,,M,,*6C
06/14/2015	19:02:17.528	$GPGGA,190218,2432.9789,N,08056.9054,W,1,11,1.4,23,M,,M,,*6C
06/14/2015	19:02:18.528	$GPGGA,190219,2432.9785,N,08056.9058,W,1,11,1.4,23,M,,M,,*6D
06/14/2015	19:02:19.549	$GPGGA,190220,2432.9782,N,08056.9064,W,1,11,1.4,23,M,,M,,*6F
06/14/2015	19:02:20.538	$GPGGA,190221,2432.9781,N,08056.9069,W,1,11,1.9,23,M,,M,,*6D
06/14/2015	19:02:21.538	$GPGGA,190222,2432.9776,N,08056.9073,W,1,9,1.9,23,M,,M,,*54
06/14/2015	19:02:22.528	$GPGGA,190223,2432.9772,N,08056.9079,W,1,9,1.4,23,M,,M,,*56
06/14/2015	19:02:23.578	$GPGGA,190224,2432.9769,N,08056.9084,W,1,10,1.4,23,M,,M,,*61
06/14/2015	19:02:24.529	$GPGGA,190225,2432.9767,N,08056.9089,W,1,10,1.4,23,M,,M,,*63
06/14/2015	19:02:25.554	$GPGGA,190226,2432.9761,N,08056.9094,W,1,9,1.9,23,M,,M,,*5F
06/14/2015	19:02:26.530	$GPGGA,190227,2432.9760,N,08056.9098,W,1,9,1.4,23,M,,M,,*5E
06/14/2015	19:02:27.550	$GPGGA,190228,2432.9754,N,08056.9102,W,1,11,1.4,23,M,,M,,*6D
06/14/2015	19:02:28.529	$GPGGA,190229,2432.9749,N,08056.9109,W,1,11,1.4,23,M,,M,,*6B
06/14/2015	19:02:29.639	$GPGGA,190230,2432.9749,N,08056.9115,W,1,9,1.5,23,M,,M,,*56
06/14/2015	19:02:30.529	$GPGGA,190231,2432.9745,N,08056.9119,W,1,9,1.4,24,M,,M,,*51
06/14/2015	19:02:31.519	$GPGGA,190232,2432.9742,N,08056.9122,W,1,11,1.4,24,M,,M,,*64
06/14/2015	19:02:32.599	$GPGGA,190233,2432.9739,N,08056.9127,W,1,11,1.4,24,M,,M,,*6C
06/14/2015	19:02:33.499	$GPGGA,190234,2432.9736,N,08056.9133,W,1,10,1.4,24,M,,M,,*60
06/14/2015	19:02:34.499	$GPGGA,190235,2432.9732,N,08056.9138,W,1,10,1.4,24,M,,M,,*6E
06/14/2015	19:02:35.652	$GPGGA,190236,2432.9728,N,08056.9144,W,1,10,1.4,24,M,,M,,*6D
06/14/2015	19:02:36.598	$GPGGA,190237,2432.9725,N,08056.9147,W,1,10,1.4,24,M,,M,,*62
06/14/2015	19:02:37.618	$GPGGA,190238,2432.9724,N,08056.9151,W,1,11,1.4,24,M,,M,,*6A
06/14/2015	19:02:38.598	$GPGGA,190239,2432.9721,N,08056.9152,W,1,11,1.4,24,M,,M,,*6D
06/14/2015	19:02:39.618	$GPGGA,190240,2432.9718,N,08056.9155,W,1,10,1.9,24,M,,M,,*62
06/14/2015	19:02:40.588	$GPGGA,190241,2432.9717,N,08056.9159,W,1,10,1.9,24,M,,M,,*60
06/14/2015	19:02:41.638	$GPGGA,190242,2432.9715,N,08056.9165,W,1,11,1.4,24,M,,M,,*62
06/14/2015	19:02:42.588	$GPGGA,190243,2432.9711,N,08056.9167,W,1,11,1.4,24,M,,M,,*65
06/14/2015	19:02:43.598	$GPGGA,190244,2432.9709,N,08056.9169,W,1,11,1.4,24,M,,M,,*65
06/14/2015	19:02:44.589	$GPGGA,190245,2432.9706,N,08056.9176,W,1,11,1.9,24,M,,M,,*68
06/14/2015	19:02:45.579	$GPGGA,190246,2432.9704,N,08056.9180,W,1,11,1.4,24,M,,M,,*6D
06/14/2015	19:02:46.579	$GPGGA,190247,2432.9700,N,08056.9184,W,1,11,1.4,24,M,,M,,*6C
06/14/2015	19:02:47.609	$GPGGA,190248,2432.9697,N,08056.9188,W,1,11,1.4,24,M,,M,,*60
06/14/2015	19:02:48.579	$GPGGA,190249,2432.9695,N,08056.9194,W,1,11,1.4,24,M,,M,,*6E
06/14/2015	19:02:49.589	$GPGGA,190250,2432.9691,N,08056.9198,W,1,11,1.4,24,M,,M,,*6E
06/14/2015	19:02:50.579	$GPGGA,190251,2432.9689,N,08056.9202,W,1,11,1.4,24,M,,M,,*66
06/14/2015	19:02:51.589	$GPGGA,190252,2432.9688,N,08056.9205,W,1,11,1.4,24,M,,M,,*63
06/14/2015	19:02:52.568	$GPGGA,190253,2432.9684,N,08056.9212,W,1,11,1.9,24,M,,M,,*65
06/14/2015	19:02:53.588	$GPGGA,190254,2432.9677,N,08056.9219,W,1,11,1.4,24,M,,M,,*68
06/14/2015	19:02:54.558	$GPGGA,190255,2432.9673,N,08056.9224,W,1,11,1.4,24,M,,M,,*63
06/14/2015	19:02:55.598	$GPGGA,190256,2432.9669,N,08056.9232,W,1,11,1.4,24,M,,M,,*6C
06/14/2015	19:02:56.568	$GPGGA,190257,2432.9663,N,08056.9238,W,1,11,1.4,25,M,,M,,*6C
06/14/2015	19:02:57.548	$GPGGA,190258,2432.9660,N,08056.9241,W,1,11,1.4,25,M,,M,,*6E
06/14/2015	19:02:58.558	$GPGGA,190259,2432.9659,N,08056.9248,W,1,11,1.4,25,M,,M,,*6C
06/14/2015	19:02:59.598	$GPGGA,190300,2432.9655,N,08056.9252,W,1,11,1.4,25,M,,M,,*66
06/14/2015	19:03:00.548	$GPGGA,190301,2432.9651,N,08056.9256,W,1,11,1.4,25,M,,M,,*67
06/14/2015	19:03:01.579	$GPGGA,190302,2432.9648,N,08056.9261,W,1,11,1.4,25,M,,M,,*68
06/14/2015	19:03:02.539	$GPGGA,190303,2432.9645,N,08056.9267,W,1,11,1.4,25,M,,M,,*62
06/14/2015	19:03:03.549	$GPGGA,190304,2432.9643,N,08056.9270,W,1,10,1.4,25,M,,M,,*64
06/14/2015	19:03:04.563	$GPGGA,190305,2432.9641,N,08056.9274,W,1,10,1.4,26,M,,M,,*60
06/14/2015	19:03:05.569	$GPGGA,190306,2432.9637,N,08056.9277,W,1,11,1.4,26,M,,M,,*60
06/14/2015	19:03:06.529	$GPGGA,190307,2432.9633,N,08056.9285,W,1,11,1.4,26,M,,M,,*68
06/14/2015	19:03:07.562	$GPGGA,190308,2432.9630,N,08056.9289,W,1,10,1.4,26,M,,M,,*69
06/14/2015	19:03:08.549	$GPGGA,190309,2432.9626,N,08056.9293,W,1,10,1.4,26,M,,M,,*64
06/14/2015	19:03:09.519	$GPGGA,190310,2432.9623,N,08056.9297,W,1,11,1.4,26,M,,M,,*6C
06/14/2015	19:03:10.538	$GPGGA,190311,2432.9621,N,08056.9303,W,1,11,1.4,26,M,,M,,*63
06/14/2015	19:03:11.588	$GPGGA,190312,2432.9619,N,08056.9307,W,1,10,1.4,26,M,,M,,*6E
06/14/2015	19:03:12.638	$GPGGA,190313,2432.9613,N,08056.9314,W,1,10,1.4,26,M,,M,,*67
06/14/2015	19:03:13.649	$GPGGA,190314,2432.9610,N,08056.9317,W,1,11,1.4,26,M,,M,,*61
06/14/2015	19:03:14.518	$GPGGA,190315,2432.9608,N,08056.9318,W,1,11,1.4,26,M,,M,,*66
06/14/2015	19:03:15.648	$GPGGA,190316,2432.9608,N,08056.9324,W,1,10,1.4,26,M,,M,,*6B
06/14/2015	19:03:16.528	$GPGGA,190317,2432.9604,N,08056.9328,W,1,10,1.4,26,M,,M,,*6A
06/14/2015	19:03:17.618	$GPGGA,190318,2432.9601,N,08056.9331,W,1,9,1.4,26,M,,M,,*50
06/14/2015	19:03:18.608	$GPGGA,190319,2432.9599,N,08056.9333,W,1,9,1.4,26,M,,M,,*51
06/14/2015	19:03:19.672	$GPGGA,190320,2432.9597,N,08056.9337,W,1,11,1.4,26,M,,M,,*68
06/14/2015	19:03:20.619	$GPGGA,190321,2432.9594,N,08056.9342,W,1,11,1.4,26,M,,M,,*68
06/14/2015	19:03:21.629	$GPGGA,190322,2432.9590,N,08056.9344,W,1,11,1.3,26,M,,M,,*6E
06/14/2015	19:03:22.599	$GPGGA,190323,2432.9586,N,08056.9350,W,1,11,1.3,26,M,,M,,*6D
06/14/2015	19:03:23.629	$GPGGA,190324,2432.9584,N,08056.9354,W,1,11,1.3,26,M,,M,,*6C
06/14/2015	19:03:24.589	$GPGGA,190325,2432.9581,N,08056.9358,W,1,11,1.4,26,M,,M,,*63
06/14/2015	19:03:25.629	$GPGGA,190326,2432.9579,N,08056.9361,W,1,10,1.3,26,M,,M,,*6B
06/14/2015	19:03:26.599	$GPGGA,190327,2432.9576,N,08056.9368,W,1,10,1.3,26,M,,M,,*6C
06/14/2015	19:03:27.651	$GPGGA,190328,2432.9573,N,08056.9372,W,1,11,1.3,26,M,,M,,*6C
06/14/2015	19:03:28.598	$GPGGA,190329,2432.9568,N,08056.9379,W,1,11,1.4,26,M,,M,,*6B
06/14/2015	19:03:29.608	$GPGGA,190330,2432.9566,N,08056.9382,W,1,10,1.9,26,M,,M,,*65
06/14/2015	19:03:30.588	$GPGGA,190331,2432.9563,N,08056.9386,W,1,10,1.3,25,M,,M,,*6C
06/14/2015	19:03:31.628	$GPGGA,190332,2432.9561,N,08056.9389,W,1,11,1.9,25,M,,M,,*69
06/14/2015	19:03:32.588	$GPGGA,190333,2432.9556,N,08056.9395,W,1,11,1.3,25,M,,M,,*6B
06/14/2015	19:03:33.598	$GPGGA,190334,2432.9551,N,08056.9401,W,1,11,1.3,25,M,,M,,*61
06/14/2015	19:03:34.578	$GPGGA,190335,2432.9544,N,08056.9408,W,1,11,1.4,25,M,,M,,*6A
06/14/2015	19:03:35.928	$GPGGA,190336,2432.9540,N,08056.9415,W,1,10,1.3,25,M,,M,,*67
06/14/2015	19:03:36.579	$GPGGA,190337,2432.9537,N,08056.9422,W,1,10,1.3,25,M,,M,,*62
06/14/2015	19:03:37.609	$GPGGA,190338,2432.9533,N,08056.9426,W,1,11,1.3,25,M,,M,,*6C
06/14/2015	19:03:38.569	$GPGGA,190339,2432.9530,N,08056.9430,W,1,11,1.3,25,M,,M,,*69
06/14/2015	19:03:39.599	$GPGGA,190340,2432.9527,N,08056.9436,W,1,11,1.4,25,M,,M,,*60
06/14/2015	19:03:40.564	$GPGGA,190341,2432.9522,N,08056.9440,W,1,11,1.4,25,M,,M,,*65
06/14/2015	19:03:41.589	$GPGGA,190342,2432.9518,N,08056.9447,W,1,10,1.4,25,M,,M,,*69
06/14/2015	19:03:42.566	$GPGGA,190343,2432.9515,N,08056.9451,W,1,10,1.3,25,M,,M,,*65
06/14/2015	19:03:43.562	$GPGGA,190344,2432.9512,N,08056.9454,W,1,11,1.3,25,M,,M,,*61
06/14/2015	19:03:44.563	$GPGGA,190345,2432.9509,N,08056.9456,W,1,11,1.9,25,M,,M,,*62
06/14/2015	19:03:45.568	$GPGGA,190346,2432.9507,N,08056.9462,W,1,10,1.5,25,M,,M,,*65
06/14/2015	19:03:46.563	$GPGGA,190347,2432.9504,N,08056.9465,W,1,10,1.4,25,M,,M,,*61
06/14/2015	19:03:47.578	$GPGGA,190348,2432.9501,N,08056.9469,W,1,10,1.4,25,M,,M,,*67
06/14/2015	19:03:48.554	$GPGGA,190349,2432.9496,N,08056.9476,W,1,10,1.4,25,M,,M,,*67
06/14/2015	19:03:49.556	$GPGGA,190350,2432.9491,N,08056.9480,W,1,10,1.3,25,M,,M,,*66
06/14/2015	19:03:50.558	$GPGGA,190351,2432.9489,N,08056.9484,W,1,10,1.3,25,M,,M,,*6A
06/14/2015	19:03:51.608	$GPGGA,190352,2432.9486,N,08056.9488,W,1,11,1.4,25,M,,M,,*6C
06/14/2015	19:03:52.551	$GPGGA,190353,2432.9482,N,08056.9494,W,1,11,1.4,25,M,,M,,*64
06/14/2015	19:03:53.651	$GPGGA,190354,2432.9478,N,08056.9498,W,1,10,1.3,25,M,,M,,*6C
06/14/2015	19:03:54.561	$GPGGA,190355,2432.9476,N,08056.9503,W,1,10,1.9,25,M,,M,,*6A
06/14/2015	19:03:55.653	$GPGGA,190356,2432.9471,N,08056.9512,W,1,10,1.3,25,M,,M,,*64
06/14/2015	19:03:56.562	$GPGGA,190357,2432.9467,N,08056.9516,W,1,10,1.9,25,M,,M,,*6C
06/14/2015	19:03:57.559	$GPGGA,190358,2432.9462,N,08056.9520,W,1,9,1.3,25,M,,M,,*51
06/14/2015	19:03:58.519	$GPGGA,190359,2432.9460,N,08056.9524,W,1,9,1.5,24,M,,M,,*51
06/14/2015	19:03:59.599	$GPGGA,190400,2432.9460,N,08056.9525,W,1,9,1.3,24,M,,M,,*5D
06/14/2015	19:04:00.539	$GPGGA,190401,2432.9457,N,08056.9525,W,1,9,1.3,24,M,,M,,*58
06/14/2015	19:04:01.529	$GPGGA,190402,2432.9455,N,08056.9528,W,1,11,1.9,24,M,,M,,*67
06/14/2015	19:04:02.628	$GPGGA,190403,2432.9453,N,08056.9534,W,1,11,1.9,24,M,,M,,*6D
06/14/2015	19:04:03.549	$GPGGA,190404,2432.9449,N,08056.9539,W,1,9,1.4,24,M,,M,,*58
06/14/2015	19:04:04.518	$GPGGA,190405,2432.9444,N,08056.9542,W,1,9,1.3,24,M,,M,,*5F
06/14/2015	19:04:05.618	$GPGGA,190406,2432.9442,N,08056.9545,W,1,11,1.4,24,M,,M,,*63
06/14/2015	19:04:06.598	$GPGGA,190407,2432.9442,N,08056.9548,W,1,11,1.3,24,M,,M,,*68
06/14/2015	19:04:07.550	$GPGGA,190408,2432.9437,N,08056.9552,W,1,11,1.4,24,M,,M,,*69
06/14/2015	19:04:08.588	$GPGGA,190409,2432.9432,N,08056.9556,W,1,11,1.3,24,M,,M,,*6E
06/14/2015	19:04:09.508	$GPGGA,190410,2432.9427,N,08056.9560,W,1,11,1.3,24,M,,M,,*67
06/14/2015	19:04:10.588	$GPGGA,190411,2432.9424,N,08056.9570,W,1,11,1.4,24,M,,M,,*63
06/14/2015	19:04:11.618	$GPGGA,190412,2432.9420,N,08056.9574,W,1,10,1.4,24,M,,M,,*61
06/14/2015	19:04:12.578	$GPGGA,190413,2432.9415,N,08056.9577,W,1,10,1.3,24,M,,M,,*62
06/14/2015	19:04:13.588	$GPGGA,190414,2432.9413,N,08056.9582,W,1,11,1.4,24,M,,M,,*6F
06/14/2015	19:04:14.588	$GPGGA,190415,2432.9409,N,08056.9589,W,1,11,1.4,24,M,,M,,*6E
06/14/2015	19:04:15.608	$GPGGA,190416,2432.9402,N,08056.9595,W,1,10,1.4,24,M,,M,,*6A
06/14/2015	19:04:16.568	$GPGGA,190417,2432.9398,N,08056.9599,W,1,10,1.3,24,M,,M,,*64
06/14/2015	19:04:17.588	$GPGGA,190418,2432.9395,N,08056.9606,W,1,11,1.3,24,M,,M,,*62
06/14/2015	19:04:18.578	$GPGGA,190419,2432.9391,N,08056.9611,W,1,11,1.3,24,M,,M,,*61
06/14/2015	19:04:19.577	$GPGGA,190420,2432.9388,N,08056.9615,W,1,11,1.4,24,M,,M,,*60
06/14/2015	19:04:20.577	$GPGGA,190421,2432.9385,N,08056.9618,W,1,11,1.4,24,M,,M,,*61
06/14/2015	19:04:22.598	$GPGGA,190423,2432.9378,N,08056.9628,W,1,10,1.4,24,M,,M,,*63
06/14/2015	19:04:23.608	$GPGGA,190424,2432.9374,N,08056.9633,W,1,11,1.3,24,M,,M,,*64
06/14/2015	19:04:24.568	$GPGGA,190425,2432.9371,N,08056.9639,W,1,11,1.3,24,M,,M,,*6A
06/14/2015	19:04:25.578	$GPGGA,190426,2432.9370,N,08056.9642,W,1,11,1.3,24,M,,M,,*64
06/14/2015	19:04:26.550	$GPGGA,190427,2432.9366,N,08056.9646,W,1,11,1.9,24,M,,M,,*6C
06/14/2015	19:04:27.568	$GPGGA,190428,2432.9363,N,08056.9650,W,1,10,1.4,24,M,,M,,*6D
06/14/2015	19:04:28.552	$GPGGA,190429,2432.9360,N,08056.9657,W,1,10,1.3,24,M,,M,,*6F
06/14/2015	19:04:29.551	$GPGGA,190430,2432.9357,N,08056.9660,W,1,10,1.4,24,M,,M,,*60
06/14/2015	19:04:30.551	$GPGGA,190431,2432.9353,N,08056.9665,W,1,10,1.3,24,M,,M,,*67
06/14/2015	19:04:31.568	$GPGGA,190432,2432.9350,N,08056.9671,W,1,11,1.3,24,M,,M,,*63
06/14/2015	19:04:32.528	$GPGGA,190433,2432.9348,N,08056.9675,W,1,11,1.4,24,M,,M,,*68
06/14/2015	19:04:33.548	$GPGGA,190434,2432.9344,N,08056.9679,W,1,10,1.4,24,M,,M,,*6E
06/14/2015	19:04:34.545	$GPGGA,190435,2432.9342,N,08056.9683,W,1,10,1.3,24,M,,M,,*6B
06/14/2015	19:04:35.542	$GPGGA,190436,2432.9339,N,08056.9689,W,1,11,1.3,24,M,,M,,*6F
06/14/2015	19:04:36.548	$GPGGA,190437,2432.9334,N,08056.9697,W,1,11,1.4,24,M,,M,,*6B
06/14/2015	19:04:37.517	$GPGGA,190438,2432.9330,N,08056.9701,W,1,11,1.3,24,M,,M,,*69
06/14/2015	19:04:38.537	$GPGGA,190439,2432.9326,N,08056.9705,W,1,11,1.3,24,M,,M,,*6B
06/14/2015	19:04:39.541	$GPGGA,190440,2432.9325,N,08056.9711,W,1,10,1.4,24,M,,M,,*65
06/14/2015	19:04:40.518	$GPGGA,190441,2432.9323,N,08056.9715,W,1,10,1.4,24,M,,M,,*66
06/14/2015	19:04:41.528	$GPGGA,190442,2432.9319,N,08056.9718,W,1,10,1.4,24,M,,M,,*61
06/14/2015	19:04:42.528	$GPGGA,190443,2432.9319,N,08056.9722,W,1,10,1.4,24,M,,M,,*69
06/14/2015	19:04:43.547	$GPGGA,190444,2432.9317,N,08056.9723,W,1,10,1.8,24,M,,M,,*6D
06/14/2015	19:04:44.528	$GPGGA,190445,2432.9313,N,08056.9727,W,1,10,1.3,24,M,,M,,*67
06/14/2015	19:04:45.655	$GPGGA,190446,2432.9310,N,08056.9734,W,1,11,1.3,24,M,,M,,*64
06/14/2015	19:04:46.508	$GPGGA,190447,2432.9306,N,08056.9740,W,1,11,1.3,24,M,,M,,*61
06/14/2015	19:04:47.542	$GPGGA,190448,2432.9301,N,08056.9745,W,1,11,1.3,24,M,,M,,*6C
06/14/2015	19:04:48.519	$GPGGA,190449,2432.9297,N,08056.9749,W,1,11,1.4,23,M,,M,,*6F
06/14/2015	19:04:49.598	$GPGGA,190450,2432.9294,N,08056.9755,W,1,11,1.3,23,M,,M,,*6E
06/14/2015	19:04:50.508	$GPGGA,190451,2432.9292,N,08056.9761,W,1,11,1.4,23,M,,M,,*69
06/14/2015	19:04:51.642	$GPGGA,190452,2432.9288,N,08056.9765,W,1,11,1.3,23,M,,M,,*62
06/14/2015	19:04:52.508	$GPGGA,190453,2432.9284,N,08056.9767,W,1,11,1.4,23,M,,M,,*6A
06/14/2015	19:04:53.488	$GPGGA,190454,2432.9283,N,08056.9770,W,1,11,1.3,23,M,,M,,*6B
06/14/2015	19:04:54.508	$GPGGA,190455,2432.9276,N,08056.9777,W,1,11,1.8,23,M,,M,,*6C
06/14/2015	19:04:55.607	$GPGGA,190456,2432.9273,N,08056.9783,W,1,10,1.4,23,M,,M,,*6C
06/14/2015	19:04:56.598	$GPGGA,190457,2432.9269,N,08056.9788,W,1,10,1.4,23,M,,M,,*6D
06/14/2015	19:04:57.598	$GPGGA,190458,2432.9265,N,08056.9791,W,1,11,1.3,23,M,,M,,*60
06/14/2015	19:04:58.588	$GPGGA,190459,2432.9265,N,08056.9795,W,1,11,1.3,23,M,,M,,*65
06/14/2015	19:04:59.608	$GPGGA,190500,2432.9260,N,08056.9801,W,1,11,1.3,23,M,,M,,*6F
06/14/2015	19:05:00.588	$GPGGA,190501,2432.9256,N,08056.9802,W,1,11,1.4,23,M,,M,,*6F
06/14/2015	19:05:01.568	$GPGGA,190502,2432.9254,N,08056.9809,W,1,11,1.3,23,M,,M,,*62
06/14/2015	19:05:02.578	$GPGGA,190503,2432.9250,N,08056.9816,W,1,11,1.4,23,M,,M,,*6E
06/14/2015	19:05:03.608	$GPGGA,190504,2432.9245,N,08056.9817,W,1,10,1.4,23,M,,M,,*6D
06/14/2015	19:05:04.568	$GPGGA,190505,2432.9242,N,08056.9820,W,1,10,1.3,23,M,,M,,*68
06/14/2015	19:05:05.568	$GPGGA,190506,2432.9243,N,08056.9826,W,1,10,1.4,23,M,,M,,*6B
06/14/2015	19:05:06.568	$GPGGA,190507,2432.9238,N,08056.9830,W,1,10,1.9,23,M,,M,,*6C
06/14/2015	19:05:07.598	$GPGGA,190508,2432.9232,N,08056.9832,W,1,11,1.3,23,M,,M,,*60
06/14/2015	19:05:08.558	$GPGGA,190509,2432.9231,N,08056.9835,W,1,11,1.3,23,M,,M,,*65
06/14/2015	19:05:09.578	$GPGGA,190510,2432.9229,N,08056.9841,W,1,9,1.9,23,M,,M,,*54
06/14/2015	19:05:10.568	$GPGGA,190511,2432.9225,N,08056.9842,W,1,9,1.8,23,M,,M,,*5B
06/14/2015	19:05:11.588	$GPGGA,190512,2432.9220,N,08056.9845,W,1,11,1.3,23,M,,M,,*68
06/14/2015	19:05:12.557	$GPGGA,190513,2432.9219,N,08056.9850,W,1,11,1.4,23,M,,M,,*60
06/14/2015	19:05:13.567	$GPGGA,190514,2432.9216,N,08056.9853,W,1,10,1.4,23,M,,M,,*6A
06/14/2015	19:05:14.558	$GPGGA,190515,2432.9211,N,08056.9856,W,1,10,1.3,23,M,,M,,*6E
06/14/2015	19:05:15.558	$GPGGA,190516,2432.9208,N,08056.9863,W,1,10,1.4,23,M,,M,,*64
06/14/2015	19:05:16.539	$GPGGA,190517,2432.9207,N,08056.9866,W,1,10,1.4,23,M,,M,,*6F
06/14/2015	19:05:17.558	$GPGGA,190518,2432.9203,N,08056.9870,W,1,11,1.3,23,M,,M,,*65
06/14/2015	19:05:18.538	$GPGGA,190519,2432.9202,N,08056.9874,W,1,11,1.3,23,M,,M,,*61
06/14/2015	19:05:19.548	$GPGGA,190520,2432.9200,N,08056.9878,W,1,11,1.3,23,M,,M,,*65
06/14/2015	19:05:20.558	$GPGGA,190521,2432.9194,N,08056.9884,W,1,11,1.4,23,M,,M,,*6E
06/14/2015	19:05:21.539	$GPGGA,190522,2432.9190,N,08056.9889,W,1,11,1.3,23,M,,M,,*63
06/14/2015	19:05:22.528	$GPGGA,190523,2432.9186,N,08056.9895,W,1,11,1.4,24,M,,M,,*68
06/14/2015	19:05:23.638	$GPGGA,190524,2432.9182,N,08056.9899,W,1,11,1.3,24,M,,M,,*60
06/14/2015	19:05:24.518	$GPGGA,190525,2432.9182,N,08056.9902,W,1,11,1.3,24,M,,M,,*62
06/14/2015	19:05:25.548	$GPGGA,190526,2432.9178,N,08056.9906,W,1,10,1.8,24,M,,M,,*6A
06/14/2015	19:05:26.528	$GPGGA,190527,2432.9174,N,08056.9910,W,1,10,1.3,24,M,,M,,*6B
06/14/2015	19:05:27.578	$GPGGA,190528,2432.9171,N,08056.9917,W,1,10,1.4,24,M,,M,,*61
06/14/2015	19:05:28.528	$GPGGA,190529,2432.9167,N,08056.9921,W,1,10,1.3,24,M,,M,,*65
06/14/2015	19:05:29.540	$GPGGA,190530,2432.9164,N,08056.9925,W,1,10,1.8,24,M,,M,,*61
06/14/2015	19:05:30.507	$GPGGA,190531,2432.9161,N,08056.9931,W,1,10,1.3,24,M,,M,,*6B
06/14/2015	19:05:31.545	$GPGGA,190532,2432.9160,N,08056.9935,W,1,10,1.4,24,M,,M,,*6A
06/14/2015	19:05:32.528	$GPGGA,190533,2432.9157,N,08056.9936,W,1,10,1.4,24,M,,M,,*6C
06/14/2015	19:05:33.518	$GPGGA,190534,2432.9155,N,08056.9939,W,1,9,1.9,24,M,,M,,*53
06/14/2015	19:05:34.498	$GPGGA,190535,2432.9153,N,08056.9944,W,1,9,1.9,24,M,,M,,*5E
06/14/2015	19:05:35.638	$GPGGA,190536,2432.9153,N,08056.9949,W,1,8,2.0,24,M,,M,,*5B
06/14/2015	19:05:36.508	$GPGGA,190537,2432.9150,N,08056.9949,W,1,8,1.9,24,M,,M,,*53
06/14/2015	19:05:37.498	$GPGGA,190538,2432.9149,N,08056.9949,W,1,9,1.9,24,M,,M,,*55
06/14/2015	19:05:38.588	$GPGGA,190539,2432.9147,N,08056.9954,W,1,9,1.8,24,M,,M,,*57
06/14/2015	19:05:39.528	$GPGGA,190540,2432.9146,N,08056.9957,W,1,9,1.9,23,M,,M,,*5D
06/14/2015	19:05:40.488	$GPGGA,190541,2432.9142,N,08056.9960,W,1,9,1.9,23,M,,M,,*5C
06/14/2015	19:05:41.608	$GPGGA,190542,2432.9140,N,08056.9965,W,1,9,1.9,23,M,,M,,*58
06/14/2015	19:05:42.498	$GPGGA,190543,2432.9138,N,08056.9971,W,1,9,1.9,23,M,,M,,*53
06/14/2015	19:05:43.598	$GPGGA,190544,2432.9135,N,08056.9973,W,1,9,1.9,23,M,,M,,*5B
06/14/2015	19:05:44.578	$GPGGA,190545,2432.9131,N,08056.9975,W,1,9,1.8,23,M,,M,,*59
06/14/2015	19:05:45.618	$GPGGA,190546,2432.9129,N,08056.9982,W,1,10,1.8,23,M,,M,,*63
06/14/2015	19:05:46.578	$GPGGA,190547,2432.9128,N,08056.9986,W,1,10,1.9,23,M,,M,,*66
06/14/2015	19:05:47.587	$GPGGA,190548,2432.9124,N,08056.9989,W,1,9,1.9,23,M,,M,,*52
06/14/2015	19:05:48.567	$GPGGA,190549,2432.9117,N,08056.9996,W,1,9,1.9,22,M,,M,,*5C
06/14/2015	19:05:49.588	$GPGGA,190550,2432.9115,N,08057.0003,W,1,9,1.9,22,M,,M,,*5B
06/14/2015	19:05:50.568	$GPGGA,190551,2432.9113,N,08057.0008,W,1,9,1.9,22,M,,M,,*57
06/14/2015	19:05:51.598	$GPGGA,190552,2432.9109,N,08057.0014,W,1,10,1.8,22,M,,M,,*6B
06/14/2015	19:05:52.568	$GPGGA,190553,2432.9106,N,08057.0018,W,1,10,1.8,22,M,,M,,*69
06/14/2015	19:05:53.578	$GPGGA,190554,2432.9102,N,08057.0020,W,1,9,1.9,22,M,,M,,*58
06/14/2015	19:05:54.558	$GPGGA,190555,2432.9100,N,08057.0023,W,1,9,1.8,22,M,,M,,*59
06/14/2015	19:05:55.598	$GPGGA,190556,2432.9097,N,08057.0029,W,1,10,1.8,22,M,,M,,*67
06/14/2015	19:05:56.558	$GPGGA,190557,2432.9095,N,08057.0033,W,1,10,1.8,22,M,,M,,*6F
06/14/2015	19:05:57.578	$GPGGA,190558,2432.9090,N,08057.0036,W,1,10,1.8,21,M,,M,,*63
06/14/2015	19:05:58.568	$GPGGA,190559,2432.9088,N,08057.0041,W,1,10,1.8,21,M,,M,,*6B
06/14/2015	19:05:59.598	$GPGGA,190600,2432.9084,N,08057.0047,W,1,10,1.8,21,M,,M,,*6E
06/14/2015	19:06:00.558	$GPGGA,190601,2432.9081,N,08057.0054,W,1,10,1.9,21,M,,M,,*69
06/14/2015	19:06:01.568	$GPGGA,190602,2432.9078,N,08057.0058,W,1,9,1.9,21,M,,M,,*58
06/14/2015	19:06:02.558	$GPGGA,190603,2432.9077,N,08057.0061,W,1,9,1.8,21,M,,M,,*5D
06/14/2015	19:06:03.578	$GPGGA,190604,2432.9072,N,08057.0065,W,1,10,1.8,21,M,,M,,*63
06/14/2015	19:06:04.557	$GPGGA,190605,2432.9070,N,08057.0070,W,1,10,1.8,21,M,,M,,*64
06/14/2015	19:06:05.557	$GPGGA,190606,2432.9066,N,08057.0076,W,1,9,1.9,21,M,,M,,*5F
06/14/2015	19:06:06.528	$GPGGA,190607,2432.9063,N,08057.0080,W,1,9,1.9,21,M,,M,,*52
06/14/2015	19:06:07.588	$GPGGA,190608,2432.9060,N,08057.0085,W,1,10,1.8,21,M,,M,,*62
06/14/2015	19:06:08.539	$GPGGA,190609,2432.9057,N,08057.0088,W,1,10,1.8,21,M,,M,,*6A
06/14/2015	19:06:09.528	$GPGGA,190610,2432.9055,N,08057.0094,W,1,10,1.8,21,M,,M,,*6D
06/14/2015	19:06:10.548	$GPGGA,190611,2432.9053,N,08057.0098,W,1,10,1.8,21,M,,M,,*66
06/14/2015	19:06:11.545	$GPGGA,190612,2432.9048,N,08057.0103,W,1,9,1.9,21,M,,M,,*55
06/14/2015	19:06:12.518	$GPGGA,190613,2432.9045,N,08057.0106,W,1,9,1.8,20,M,,M,,*5C
06/14/2015	19:06:13.558	$GPGGA,190614,2432.9042,N,08057.0113,W,1,10,1.8,20,M,,M,,*60
06/14/2015	19:06:14.518	$GPGGA,190615,2432.9039,N,08057.0119,W,1,10,1.9,20,M,,M,,*66
06/14/2015	19:06:15.543	$GPGGA,190616,2432.9035,N,08057.0124,W,1,9,1.9,20,M,,M,,*5F
06/14/2015	19:06:16.508	$GPGGA,190617,2432.9031,N,08057.0128,W,1,9,1.9,20,M,,M,,*56
06/14/2015	19:06:17.528	$GPGGA,190618,2432.9030,N,08057.0133,W,1,10,1.8,20,M,,M,,*6B
06/14/2015	19:06:18.518	$GPGGA,190619,2432.9026,N,08057.0138,W,1,10,1.8,20,M,,M,,*66
06/14/2015	19:06:19.541	$GPGGA,190620,2432.9021,N,08057.0144,W,1,10,1.8,20,M,,M,,*60
06/14/2015	19:06:20.498	$GPGGA,190621,2432.9018,N,08057.0145,W,1,10,1.9,20,M,,M,,*6B
06/14/2015	19:06:21.498	$GPGGA,190622,2432.9016,N,08057.0150,W,1,10,1.8,20,M,,M,,*63
06/14/2015	19:06:22.527	$GPGGA,190623,2432.9013,N,08057.0156,W,1,10,1.8,20,M,,M,,*61
06/14/2015	19:06:23.678	$GPGGA,190624,2432.9009,N,08057.0159,W,1,10,1.8,20,M,,M,,*62
06/14/2015	19:06:24.508	$GPGGA,190625,2432.9005,N,08057.0163,W,1,10,1.8,20,M,,M,,*66
06/14/2015	19:06:25.668	$GPGGA,190626,2432.9003,N,08057.0167,W,1,10,1.8,20,M,,M,,*67
06/14/2015	19:06:26.498	$GPGGA,190627,2432.9001,N,08057.0173,W,1,10,1.8,20,M,,M,,*61
06/14/2015	19:06:27.518	$GPGGA,190628,2432.8996,N,08057.0177,W,1,10,1.8,20,M,,M,,*6C
06/14/2015	19:06:28.668	$GPGGA,190629,2432.8994,N,08057.0181,W,1,10,1.8,20,M,,M,,*66
06/14/2015	19:06:29.588	$GPGGA,190630,2432.8990,N,08057.0186,W,1,10,1.8,20,M,,M,,*6D
06/14/2015	19:06:30.588	$GPGGA,190631,2432.8987,N,08057.0191,W,1,10,1.9,20,M,,M,,*6D
06/14/2015	19:06:31.658	$GPGGA,190632,2432.8984,N,08057.0195,W,1,10,1.8,20,M,,M,,*68
06/14/2015	19:06:32.653	$GPGGA,190633,2432.8981,N,08057.0199,W,1,10,1.8,20,M,,M,,*60
06/14/2015	19:06:33.658	$GPGGA,190634,2432.8978,N,08057.0203,W,1,10,1.8,20,M,,M,,*61
06/14/2015	19:06:34.658	$GPGGA,190635,2432.8974,N,08057.0210,W,1,10,1.8,20,M,,M,,*6E
06/14/2015	19:06:35.588	$GPGGA,190636,2432.8971,N,08057.0214,W,1,10,1.8,20,M,,M,,*6C
06/14/2015	19:06:36.653	$GPGGA,190637,2432.8969,N,08057.0218,W,1,10,1.8,20,M,,M,,*68
06/14/2015	19:06:37.628	$GPGGA,190638,2432.8965,N,08057.0221,W,1,10,1.8,20,M,,M,,*61
06/14/2015	19:06:38.641	$GPGGA,190639,2432.8961,N,08057.0228,W,1,10,1.8,20,M,,M,,*6D
06/14/2015	19:06:39.642	$GPGGA,190640,2432.8958,N,08057.0233,W,1,10,1.8,20,M,,M,,*63
06/14/2015	19:06:40.655	$GPGGA,190641,2432.8956,N,08057.0235,W,1,10,1.8,20,M,,M,,*6A
06/14/2015	19:06:41.618	$GPGGA,190642,2432.8951,N,08057.0242,W,1,9,1.8,20,M,,M,,*56
06/14/2015	19:06:42.555	$GPGGA,190643,2432.8947,N,08057.0247,W,1,9,1.8,20,M,,M,,*55
06/14/2015	19:06:43.644	$GPGGA,190644,2432.8943,N,08057.0253,W,1,10,1.8,20,M,,M,,*6B
06/14/2015	19:06:44.628	$GPGGA,190645,2432.8940,N,08057.0257,W,1,10,1.8,20,M,,M,,*6D
06/14/2015	19:06:45.598	$GPGGA,190646,2432.8936,N,08057.0261,W,1,10,1.8,20,M,,M,,*6A
06/14/2015	19:06:46.548	$GPGGA,190647,2432.8933,N,08057.0267,W,1,10,1.8,20,M,,M,,*68
06/14/2015	19:06:47.558	$GPGGA,190648,2432.8930,N,08057.0274,W,1,10,1.8,20,M,,M,,*66
06/14/2015	19:06:48.608	$GPGGA,190649,2432.8925,N,08057.0278,W,1,10,1.8,20,M,,M,,*6F
06/14/2015	19:06:49.538	$GPGGA,190650,2432.8920,N,08057.0283,W,1,10,1.8,20,M,,M,,*66
06/14/2015	19:06:50.598	$GPGGA,190651,2432.8918,N,08057.0287,W,1,10,1.8,20,M,,M,,*68
06/14/2015	19:06:51.651	$GPGGA,190652,2432.8915,N,08057.0292,W,1,10,1.8,20,M,,M,,*62
06/14/2015	19:06:52.598	$GPGGA,190653,2432.8912,N,08057.0296,W,1,10,1.8,20,M,,M,,*60
06/14/2015	19:06:53.528	$GPGGA,190654,2432.8908,N,08057.0301,W,1,10,1.8,20,M,,M,,*63
06/14/2015	19:06:54.598	$GPGGA,190655,2432.8904,N,08057.0307,W,1,10,1.8,20,M,,M,,*68
06/14/2015	19:06:55.598	$GPGGA,190656,2432.8900,N,08057.0312,W,1,10,1.8,20,M,,M,,*6B
06/14/2015	19:06:56.588	$GPGGA,190657,2432.8898,N,08057.0318,W,1,10,1.8,20,M,,M,,*60
06/14/2015	19:06:57.607	$GPGGA,190658,2432.8895,N,08057.0322,W,1,10,1.8,20,M,,M,,*6B
06/14/2015	19:06:58.517	$GPGGA,190659,2432.8891,N,08057.0326,W,1,10,1.8,20,M,,M,,*6A
06/14/2015	19:06:59.628	$GPGGA,190700,2432.8889,N,08057.0332,W,1,10,1.8,20,M,,M,,*6B
06/14/2015	19:07:00.578	$GPGGA,190701,2432.8886,N,08057.0336,W,1,10,1.8,20,M,,M,,*61
06/14/2015	19:07:01.558	$GPGGA,190702,2432.8883,N,08057.0339,W,1,10,1.8,20,M,,M,,*68
06/14/2015	19:07:02.588	$GPGGA,190703,2432.8882,N,08057.0343,W,1,10,1.8,20,M,,M,,*65
06/14/2015	19:07:03.588	$GPGGA,190704,2432.8878,N,08057.0350,W,1,10,1.8,20,M,,M,,*65
06/14/2015	19:07:04.618	$GPGGA,190705,2432.8875,N,08057.0354,W,1,10,1.8,21,M,,M,,*6C
06/14/2015	19:07:05.618	$GPGGA,190706,2432.8871,N,08057.0358,W,1,10,1.8,21,M,,M,,*67
06/14/2015	19:07:06.568	$GPGGA,190707,2432.8869,N,08057.0362,W,1,10,1.8,21,M,,M,,*66
06/14/2015	19:07:07.618	$GPGGA,190708,2432.8866,N,08057.0366,W,1,10,1.8,21,M,,M,,*62
06/14/2015	19:07:08.498	$GPGGA,190709,2432.8862,N,08057.0372,W,1,10,1.8,21,M,,M,,*62
06/14/2015	19:07:09.546	$GPGGA,190710,2432.8859,N,08057.0379,W,1,9,1.8,21,M,,M,,*51
06/14/2015	19:07:10.556	$GPGGA,190711,2432.8854,N,08057.0383,W,1,9,1.8,21,M,,M,,*58
06/14/2015	19:07:11.508	$GPGGA,190712,2432.8853,N,08057.0388,W,1,10,1.8,21,M,,M,,*6F
06/14/2015	19:07:12.559	$GPGGA,190713,2432.8849,N,08057.0392,W,1,10,1.8,21,M,,M,,*6E
06/14/2015	19:07:13.598	$GPGGA,190714,2432.8846,N,08057.0397,W,1,10,1.8,21,M,,M,,*63
06/14/2015	19:07:14.587	$GPGGA,190715,2432.8844,N,08057.0401,W,1,10,1.8,21,M,,M,,*68
06/14/2015	19:07:15.597	$GPGGA,190716,2432.8842,N,08057.0405,W,1,10,1.8,21,M,,M,,*69
06/14/2015	19:07:16.554	$GPGGA,190717,2432.8837,N,08057.0409,W,1,10,1.8,21,M,,M,,*66
06/14/2015	19:07:17.589	$GPGGA,190718,2432.8833,N,08057.0413,W,1,10,1.8,21,M,,M,,*66
06/14/2015	19:07:18.588	$GPGGA,190719,2432.8831,N,08057.0420,W,1,10,1.8,20,M,,M,,*64
06/14/2015	19:07:19.588	$GPGGA,190720,2432.8829,N,08057.0423,W,1,9,1.8,20,M,,M,,*5C
06/14/2015	19:07:20.568	$GPGGA,190721,2432.8825,N,08057.0426,W,1,9,1.8,20,M,,M,,*54
06/14/2015	19:07:21.608	$GPGGA,190722,2432.8822,N,08057.0428,W,1,10,1.8,20,M,,M,,*66
06/14/2015	19:07:22.568	$GPGGA,190723,2432.8818,N,08057.0434,W,1,10,1.8,20,M,,M,,*63
06/14/2015	19:07:23.608	$GPGGA,190724,2432.8815,N,08057.0438,W,1,10,1.8,20,M,,M,,*65
06/14/2015	19:07:24.578	$GPGGA,190725,2432.8812,N,08057.0444,W,1,10,1.8,20,M,,M,,*68
06/14/2015	19:07:25.568	$GPGGA,190726,2432.8808,N,08057.0448,W,1,10,1.8,20,M,,M,,*6C
06/14/2015	19:07:26.578	$GPGGA,190727,2432.8806,N,08057.0453,W,1,10,1.8,20,M,,M,,*69
06/14/2015	19:07:27.578	$GPGGA,190728,2432.8802,N,08057.0459,W,1,10,1.8,20,M,,M,,*68
06/14/2015	19:07:28.588	$GPGGA,190729,2432.8799,N,08057.0464,W,1,10,1.8,20,M,,M,,*6A
06/14/2015	19:07:29.578	$GPGGA,190730,2432.8794,N,08057.0466,W,1,9,1.8,20,M,,M,,*55
06/14/2015	19:07:30.588	$GPGGA,190731,2432.8790,N,08057.0470,W,1,9,1.8,20,M,,M,,*57
06/14/2015	19:07:31.588	$GPGGA,190732,2432.8789,N,08057.0477,W,1,10,1.8,20,M,,M,,*63
06/14/2015	19:07:32.577	$GPGGA,190733,2432.8785,N,08057.0480,W,1,10,1.8,20,M,,M,,*66
06/14/2015	19:07:33.587	$GPGGA,190734,2432.8781,N,08057.0484,W,1,10,1.8,20,M,,M,,*61
06/14/2015	19:07:34.558	$GPGGA,190735,2432.8779,N,08057.0491,W,1,10,1.8,20,M,,M,,*63
06/14/2015	19:07:35.598	$GPGGA,190736,2432.8775,N,08057.0496,W,1,10,1.8,20,M,,M,,*6B
06/14/2015	19:07:36.551	$GPGGA,190737,2432.8771,N,08057.0500,W,1,10,1.8,20,M,,M,,*60
06/14/2015	19:07:37.541	$GPGGA,190738,2432.8767,N,08057.0506,W,1,9,1.8,20,M,,M,,*56
06/14/2015	19:07:38.550	$GPGGA,190739,2432.8767,N,08057.0506,W,1,9,1.8,20,M,,M,,*57
06/14/2015	19:07:40.087	$GPGGA,190740,2432.8763,N,08057.0517,W,1,10,1.8,20,M,,M,,*65
06/14/2015	19:07:40.568	$GPGGA,190741,2432.8759,N,08057.0520,W,1,10,1.8,20,M,,M,,*69
06/14/2015	19:07:41.568	$GPGGA,190742,2432.8755,N,08057.0524,W,1,10,1.8,20,M,,M,,*62
06/14/2015	19:07:42.558	$GPGGA,190743,2432.8752,N,08057.0531,W,1,10,1.8,20,M,,M,,*60
06/14/2015	19:07:43.568	$GPGGA,190744,2432.8750,N,08057.0535,W,1,10,1.8,20,M,,M,,*61
06/14/2015	19:07:44.578	$GPGGA,190745,2432.8750,N,08057.0535,W,1,10,1.8,20,M,,M,,*60
06/14/2015	19:07:45.568	$GPGGA,190746,2432.8745,N,08057.0540,W,1,10,1.8,20,M,,M,,*65
06/14/2015	19:07:46.528	$GPGGA,190747,2432.8745,N,08057.0540,W,1,10,1.8,20,M,,M,,*64
06/14/2015	19:07:47.548	$GPGGA,190748,2432.8741,N,08057.0549,W,1,9,1.8,20,M,,M,,*5E
06/14/2015	19:07:48.640	$GPGGA,190749,2432.8737,N,08057.0553,W,1,9,1.8,20,M,,M,,*55
06/14/2015	19:07:49.538	$GPGGA,190750,2432.8735,N,08057.0557,W,1,10,1.8,20,M,,M,,*63
06/14/2015	19:07:50.527	$GPGGA,190751,2432.8732,N,08057.0563,W,1,10,1.8,20,M,,M,,*62
06/14/2015	19:07:51.538	$GPGGA,190752,2432.8730,N,08057.0567,W,1,10,1.8,20,M,,M,,*67
06/14/2015	19:07:52.538	$GPGGA,190753,2432.8730,N,08057.0567,W,1,10,1.8,20,M,,M,,*66
06/14/2015	19:07:53.628	$GPGGA,190754,2432.8723,N,08057.0575,W,1,9,1.8,20,M,,M,,*58
06/14/2015	19:07:54.528	$GPGGA,190755,2432.8723,N,08057.0575,W,1,9,1.8,20,M,,M,,*59
06/14/2015	19:07:55.658	$GPGGA,190756,2432.8717,N,08057.0585,W,1,10,1.8,20,M,,M,,*6A
06/14/2015	19:07:56.598	$GPGGA,190757,2432.8714,N,08057.0589,W,1,10,1.8,20,M,,M,,*64
06/14/2015	19:07:57.518	$GPGGA,190758,2432.8712,N,08057.0593,W,1,10,1.8,20,M,,M,,*66
06/14/2015	19:07:58.608	$GPGGA,190759,2432.8709,N,08057.0597,W,1,10,1.8,20,M,,M,,*69
06/14/2015	19:07:59.540	$GPGGA,190800,2432.8706,N,08057.0601,W,1,10,1.8,20,M,,M,,*69
06/14/2015	19:08:00.658	$GPGGA,190801,2432.8703,N,08057.0605,W,1,10,1.8,20,M,,M,,*69
06/14/2015	19:08:01.498	$GPGGA,190802,2432.8700,N,08057.0611,W,1,10,1.8,20,M,,M,,*6C
06/14/2015	19:08:02.598	$GPGGA,190803,2432.8698,N,08057.0614,W,1,10,1.8,20,M,,M,,*68
06/14/2015	19:08:03.598	$GPGGA,190804,2432.8695,N,08057.0618,W,1,10,1.8,20,M,,M,,*6E
06/14/2015	19:08:04.588	$GPGGA,190805,2432.8692,N,08057.0622,W,1,10,1.8,20,M,,M,,*61
06/14/2015	19:08:05.578	$GPGGA,190806,2432.8689,N,08057.0628,W,1,9,1.8,20,M,,M,,*5A
06/14/2015	19:08:06.578	$GPGGA,190807,2432.8685,N,08057.0632,W,1,9,1.8,20,M,,M,,*5C
06/14/2015	19:08:07.617	$GPGGA,190808,2432.8683,N,08057.0637,W,1,9,1.8,20,M,,M,,*50
06/14/2015	19:08:08.567	$GPGGA,190809,2432.8680,N,08057.0643,W,1,9,1.8,20,M,,M,,*51
06/14/2015	19:08:09.609	$GPGGA,190810,2432.8677,N,08057.0647,W,1,10,1.8,20,M,,M,,*6D
06/14/2015	19:08:10.578	$GPGGA,190811,2432.8673,N,08057.0650,W,1,10,1.8,20,M,,M,,*6E
06/14/2015	19:08:11.588	$GPGGA,190812,2432.8670,N,08057.0654,W,1,10,1.8,20,M,,M,,*6A
06/14/2015	19:08:12.578	$GPGGA,190813,2432.8669,N,08057.0661,W,1,10,1.8,20,M,,M,,*65
06/14/2015	19:08:13.598	$GPGGA,190814,2432.8666,N,08057.0663,W,1,9,1.8,20,M,,M,,*57
06/14/2015	19:08:14.578	$GPGGA,190815,2432.8662,N,08057.0666,W,1,9,1.8,20,M,,M,,*57
06/14/2015	19:08:15.598	$GPGGA,190816,2432.8659,N,08057.0672,W,1,10,1.8,20,M,,M,,*61
06/14/2015	19:08:16.568	$GPGGA,190817,2432.8658,N,08057.0677,W,1,10,1.8,20,M,,M,,*64
06/14/2015	19:08:17.549	$GPGGA,190818,2432.8654,N,08057.0681,W,1,10,1.8,20,M,,M,,*6E
06/14/2015	19:08:18.568	$GPGGA,190819,2432.8651,N,08057.0686,W,1,10,1.8,20,M,,M,,*6D
06/14/2015	19:08:19.578	$GPGGA,190820,2432.8647,N,08057.0691,W,1,9,1.8,20,M,,M,,*5E
06/14/2015	19:08:20.549	$GPGGA,190821,2432.8645,N,08057.0697,W,1,9,1.8,20,M,,M,,*5B
06/14/2015	19:08:21.578	$GPGGA,190822,2432.8643,N,08057.0702,W,1,10,1.8,20,M,,M,,*6B
06/14/2015	19:08:22.549	$GPGGA,190823,2432.8638,N,08057.0705,W,1,10,1.8,20,M,,M,,*61
06/14/2015	19:08:23.568	$GPGGA,190824,2432.8635,N,08057.0709,W,1,10,1.8,20,M,,M,,*67
06/14/2015	19:08:24.550	$GPGGA,190825,2432.8633,N,08057.0716,W,1,10,1.8,20,M,,M,,*6E
06/14/2015	19:08:25.567	$GPGGA,190826,2432.8631,N,08057.0720,W,1,10,1.8,20,M,,M,,*6A
06/14/2015	19:08:26.538	$GPGGA,190827,2432.8627,N,08057.0723,W,1,10,1.8,20,M,,M,,*6F
06/14/2015	19:08:27.558	$GPGGA,190828,2432.8623,N,08057.0728,W,1,10,1.8,20,M,,M,,*6F
06/14/2015	19:08:28.538	$GPGGA,190829,2432.8620,N,08057.0734,W,1,10,1.8,20,M,,M,,*60
06/14/2015	19:08:29.545	$GPGGA,190830,2432.8617,N,08057.0741,W,1,9,1.8,20,M,,M,,*56
06/14/2015	19:08:30.528	$GPGGA,190831,2432.8615,N,08057.0741,W,1,9,1.8,20,M,,M,,*55
06/14/2015	19:08:31.540	$GPGGA,190832,2432.8611,N,08057.0748,W,1,10,1.8,20,M,,M,,*63
06/14/2015	19:08:32.640	$GPGGA,190833,2432.8609,N,08057.0753,W,1,10,1.8,20,M,,M,,*61
06/14/2015	19:08:33.548	$GPGGA,190834,2432.8605,N,08057.0758,W,1,10,1.8,20,M,,M,,*61
06/14/2015	19:08:34.528	$GPGGA,190835,2432.8601,N,08057.0762,W,1,10,1.8,20,M,,M,,*6D
06/14/2015	19:08:35.650	$GPGGA,190836,2432.8600,N,08057.0770,W,1,10,1.8,20,M,,M,,*6C
06/14/2015	19:08:36.518	$GPGGA,190837,2432.8595,N,08057.0773,W,1,10,1.8,20,M,,M,,*61
06/14/2015	19:08:37.528	$GPGGA,190838,2432.8591,N,08057.0775,W,1,9,1.8,20,M,,M,,*54
06/14/2015	19:08:38.608	$GPGGA,190839,2432.8588,N,08057.0780,W,1,9,1.8,20,M,,M,,*57
06/14/2015	19:08:39.558	$GPGGA,190840,2432.8587,N,08057.0787,W,1,10,1.8,20,M,,M,,*69
06/14/2015	19:08:40.518	$GPGGA,190841,2432.8583,N,08057.0791,W,1,10,1.8,20,M,,M,,*6B
06/14/2015	19:08:41.608	$GPGGA,190842,2432.8579,N,08057.0793,W,1,10,1.8,20,M,,M,,*6F
06/14/2015	19:08:42.597	$GPGGA,190843,2432.8577,N,08057.0800,W,1,10,1.8,20,M,,M,,*65
06/14/2015	19:08:43.652	$GPGGA,190844,2432.8573,N,08057.0806,W,1,9,1.8,20,M,,M,,*58
06/14/2015	19:08:44.598	$GPGGA,190845,2432.8571,N,08057.0807,W,1,9,1.8,20,M,,M,,*5A
06/14/2015	19:08:45.598	$GPGGA,190846,2432.8569,N,08057.0811,W,1,10,1.8,20,M,,M,,*6F
06/14/2015	19:08:46.518	$GPGGA,190847,2432.8566,N,08057.0816,W,1,10,1.8,20,M,,M,,*66
06/14/2015	19:08:47.598	$GPGGA,190848,2432.8564,N,08057.0820,W,1,10,1.8,20,M,,M,,*6E
06/14/2015	19:08:48.588	$GPGGA,190849,2432.8560,N,08057.0827,W,1,10,1.8,20,M,,M,,*6C
06/14/2015	19:08:49.618	$GPGGA,190850,2432.8558,N,08057.0831,W,1,9,1.8,20,M,,M,,*50
06/14/2015	19:08:50.588	$GPGGA,190851,2432.8553,N,08057.0835,W,1,9,1.8,20,M,,M,,*5E
06/14/2015	19:08:51.588	$GPGGA,190852,2432.8550,N,08057.0842,W,1,9,1.8,20,M,,M,,*5E
06/14/2015	19:08:52.588	$GPGGA,190853,2432.8549,N,08057.0847,W,1,9,1.8,20,M,,M,,*52
06/14/2015	19:08:53.598	$GPGGA,190854,2432.8546,N,08057.0850,W,1,10,1.8,20,M,,M,,*64
06/14/2015	19:08:54.578	$GPGGA,190855,2432.8542,N,08057.0856,W,1,10,1.8,20,M,,M,,*67
06/14/2015	19:08:55.608	$GPGGA,190856,2432.8541,N,08057.0860,W,1,9,1.8,20,M,,M,,*5A
06/14/2015	19:08:56.588	$GPGGA,190857,2432.8539,N,08057.0863,W,1,9,1.8,20,M,,M,,*57
06/14/2015	19:08:57.588	$GPGGA,190858,2432.8535,N,08057.0865,W,1,10,1.8,20,M,,M,,*6A
06/14/2015	19:08:58.578	$GPGGA,190859,2432.8532,N,08057.0871,W,1,10,1.8,20,M,,M,,*69
06/14/2015	19:08:59.617	$GPGGA,190900,2432.8530,N,08057.0878,W,1,9,1.8,20,M,,M,,*57
06/14/2015	19:09:00.817	$GPGGA,190901,2432.8528,N,08057.0881,W,1,9,1.8,20,M,,M,,*59
06/14/2015	19:09:01.588	$GPGGA,190902,2432.8524,N,08057.0885,W,1,10,1.8,20,M,,M,,*6A
06/14/2015	19:09:02.558	$GPGGA,190903,2432.8522,N,08057.0887,W,1,10,1.8,20,M,,M,,*6F
06/14/2015	19:09:03.598	$GPGGA,190904,2432.8521,N,08057.0893,W,1,10,1.8,20,M,,M,,*6E
06/14/2015	19:09:04.551	$GPGGA,190905,2432.8517,N,08057.0901,W,1,10,1.8,20,M,,M,,*60
06/14/2015	19:09:05.578	$GPGGA,190906,2432.8511,N,08057.0905,W,1,10,1.8,20,M,,M,,*61
06/14/2015	19:09:06.568	$GPGGA,190907,2432.8508,N,08057.0911,W,1,10,1.8,20,M,,M,,*6D
06/14/2015	19:09:07.588	$GPGGA,190908,2432.8506,N,08057.0918,W,1,9,1.8,20,M,,M,,*5D
06/14/2015	19:09:08.558	$GPGGA,190909,2432.8503,N,08057.0921,W,1,9,1.8,20,M,,M,,*53
06/14/2015	19:09:09.568	$GPGGA,190910,2432.8499,N,08057.0925,W,1,10,1.8,20,M,,M,,*65
06/14/2015	19:09:10.552	$GPGGA,190911,2432.8499,N,08057.0929,W,1,10,1.8,20,M,,M,,*68
06/14/2015	19:09:11.550	$GPGGA,190912,2432.8495,N,08057.0936,W,1,10,1.8,20,M,,M,,*69
06/14/2015	19:09:12.558	$GPGGA,190913,2432.8490,N,08057.0936,W,1,10,1.8,20,M,,M,,*6D
06/14/2015	19:09:13.545	$GPGGA,190914,2432.8488,N,08057.0940,W,1,9,1.8,20,M,,M,,*5A
06/14/2015	19:09:14.548	$GPGGA,190915,2432.8488,N,08057.0947,W,1,9,1.8,20,M,,M,,*5C
06/14/2015	19:09:15.568	$GPGGA,190916,2432.8484,N,08057.0951,W,1,9,1.8,20,M,,M,,*54
06/14/2015	19:09:16.528	$GPGGA,190917,2432.8478,N,08057.0954,W,1,9,1.9,20,M,,M,,*52
06/14/2015	19:09:17.647	$GPGGA,190918,2432.8474,N,08057.0961,W,1,10,1.8,20,M,,M,,*6E
06/14/2015	19:09:18.517	$GPGGA,190919,2432.8474,N,08057.0966,W,1,10,1.8,20,M,,M,,*68
06/14/2015	19:09:20.518	$GPGGA,190920,2432.8470,N,08057.0972,W,1,10,1.8,20,M,,M,,*63
06/14/2015	19:09:20.555	$GPGGA,190921,2432.8465,N,08057.0972,W,1,10,1.8,20,M,,M,,*66
06/14/2015	19:09:21.528	$GPGGA,190922,2432.8463,N,08057.0979,W,1,10,1.8,20,M,,M,,*68
06/14/2015	19:09:22.528	$GPGGA,190923,2432.8460,N,08057.0986,W,1,10,1.8,20,M,,M,,*6A
06/14/2015	19:09:23.544	$GPGGA,190924,2432.8457,N,08057.0987,W,1,9,1.8,20,M,,M,,*50
06/14/2015	19:09:24.645	$GPGGA,190925,2432.8453,N,08057.0991,W,1,9,1.8,20,M,,M,,*52
06/14/2015	19:09:25.608	$GPGGA,190926,2432.8450,N,08057.0997,W,1,10,1.8,20,M,,M,,*6C
06/14/2015	19:09:26.528	$GPGGA,190927,2432.8448,N,08057.1002,W,1,10,1.8,20,M,,M,,*60
06/14/2015	19:09:27.642	$GPGGA,190928,2432.8445,N,08057.1006,W,1,10,1.8,20,M,,M,,*66
06/14/2015	19:09:28.518	$GPGGA,190929,2432.8442,N,08057.1011,W,1,10,1.8,20,M,,M,,*66
06/14/2015	19:09:29.518	$GPGGA,190930,2432.8439,N,08057.1015,W,1,10,1.8,20,M,,M,,*66
06/14/2015	19:09:30.598	$GPGGA,190931,2432.8436,N,08057.1020,W,1,10,1.8,20,M,,M,,*6E
06/14/2015	19:09:31.528	$GPGGA,190932,2432.8434,N,08057.1024,W,1,10,1.8,20,M,,M,,*6B
06/14/2015	19:09:34.088	$GPGGA,190934,2432.8427,N,08057.1033,W,1,10,1.8,20,M,,M,,*69
06/14/2015	19:09:34.507	$GPGGA,190935,2432.8424,N,08057.1038,W,1,10,1.8,20,M,,M,,*60
06/14/2015	19:09:35.597	$GPGGA,190936,2432.8423,N,08057.1044,W,1,10,1.8,20,M,,M,,*6F
06/14/2015	19:09:36.588	$GPGGA,190937,2432.8418,N,08057.1049,W,1,10,1.8,20,M,,M,,*6B
06/14/2015	19:09:37.588	$GPGGA,190938,2432.8416,N,08057.1051,W,1,8,1.9,20,M,,M,,*5B
06/14/2015	19:09:38.588	$GPGGA,190939,2432.8413,N,08057.1055,W,1,8,1.8,20,M,,M,,*5A
06/14/2015	19:09:39.598	$GPGGA,190940,2432.8411,N,08057.1060,W,1,10,1.8,20,M,,M,,*69
06/14/2015	19:09:40.588	$GPGGA,190941,2432.8407,N,08057.1064,W,1,10,1.8,20,M,,M,,*6B
06/14/2015	19:09:41.578	$GPGGA,190942,2432.8403,N,08057.1070,W,1,10,1.8,20,M,,M,,*69
06/14/2015	19:09:42.568	$GPGGA,190943,2432.8400,N,08057.1076,W,1,10,1.8,21,M,,M,,*6C
06/14/2015	19:09:43.608	$GPGGA,190944,2432.8398,N,08057.1078,W,1,9,1.8,21,M,,M,,*5B
06/14/2015	19:09:44.568	$GPGGA,190945,2432.8395,N,08057.1084,W,1,9,1.8,21,M,,M,,*54
06/14/2015	19:09:45.588	$GPGGA,190946,2432.8393,N,08057.1088,W,1,9,1.8,21,M,,M,,*5D
06/14/2015	19:09:46.568	$GPGGA,190947,2432.8389,N,08057.1092,W,1,9,1.8,21,M,,M,,*5C
06/14/2015	19:09:47.598	$GPGGA,190948,2432.8385,N,08057.1098,W,1,10,1.8,21,M,,M,,*6D
06/14/2015	19:09:48.568	$GPGGA,190949,2432.8383,N,08057.1102,W,1,10,1.8,21,M,,M,,*68
06/14/2015	19:09:49.578	$GPGGA,190950,2432.8381,N,08057.1107,W,1,10,1.8,21,M,,M,,*67
06/14/2015	19:09:50.568	$GPGGA,190951,2432.8378,N,08057.1113,W,1,10,1.8,21,M,,M,,*65
06/14/2015	19:09:51.588	$GPGGA,190952,2432.8374,N,08057.1117,W,1,10,1.8,21,M,,M,,*6E
06/14/2015	19:09:52.567	$GPGGA,190953,2432.8372,N,08057.1123,W,1,10,1.8,21,M,,M,,*6E
06/14/2015	19:09:53.547	$GPGGA,190954,2432.8369,N,08057.1127,W,1,9,1.8,21,M,,M,,*5F
06/14/2015	19:09:54.550	$GPGGA,190955,2432.8366,N,08057.1131,W,1,9,1.8,21,M,,M,,*56
06/14/2015	19:09:55.588	$GPGGA,190956,2432.8363,N,08057.1138,W,1,9,1.8,21,M,,M,,*59
06/14/2015	19:09:56.541	$GPGGA,190957,2432.8360,N,08057.1143,W,1,9,1.8,21,M,,M,,*57
06/14/2015	19:09:57.542	$GPGGA,190958,2432.8355,N,08057.1147,W,1,10,1.8,21,M,,M,,*62
06/14/2015	19:09:58.563	$GPGGA,190959,2432.8354,N,08057.1152,W,1,10,1.8,21,M,,M,,*66
06/14/2015	19:09:59.558	$GPGGA,191000,2432.8353,N,08057.1157,W,1,10,1.8,21,M,,M,,*60
06/14/2015	19:10:00.550	$GPGGA,191001,2432.8349,N,08057.1161,W,1,10,1.8,21,M,,M,,*6F
06/14/2015	19:10:01.543	$GPGGA,191002,2432.8346,N,08057.1167,W,1,10,1.8,21,M,,M,,*65
06/14/2015	19:10:02.551	$GPGGA,191003,2432.8344,N,08057.1174,W,1,10,1.8,21,M,,M,,*64
06/14/2015	19:10:03.658	$GPGGA,191004,2432.8340,N,08057.1178,W,1,10,1.8,21,M,,M,,*6B
06/14/2015	19:10:04.536	$GPGGA,191005,2432.8335,N,08057.1182,W,1,10,1.8,21,M,,M,,*6D
06/14/2015	19:10:05.508	$GPGGA,191006,2432.8334,N,08057.1189,W,1,9,1.8,21,M,,M,,*5C
06/14/2015	19:10:06.518	$GPGGA,191007,2432.8331,N,08057.1194,W,1,9,1.8,21,M,,M,,*54
06/14/2015	19:10:07.558	$GPGGA,191008,2432.8327,N,08057.1199,W,1,10,1.8,21,M,,M,,*69
06/14/2015	19:10:08.633	$GPGGA,191009,2432.8323,N,08057.1203,W,1,10,1.8,21,M,,M,,*6C
06/14/2015	19:10:09.644	$GPGGA,191010,2432.8322,N,08057.1210,W,1,10,1.8,21,M,,M,,*67
06/14/2015	19:10:10.517	$GPGGA,191011,2432.8318,N,08057.1215,W,1,10,1.8,21,M,,M,,*6A
06/14/2015	19:10:11.547	$GPGGA,191012,2432.8315,N,08057.1221,W,1,10,1.8,21,M,,M,,*63
06/14/2015	19:10:12.597	$GPGGA,191013,2432.8311,N,08057.1225,W,1,10,1.8,21,M,,M,,*62
06/14/2015	19:10:13.497	$GPGGA,191014,2432.8308,N,08057.1229,W,1,9,1.8,21,M,,M,,*59
06/14/2015	19:10:14.587	$GPGGA,191015,2432.8306,N,08057.1235,W,1,9,1.8,21,M,,M,,*5B
06/14/2015	19:10:15.507	$GPGGA,191016,2432.8302,N,08057.1237,W,1,10,1.8,21,M,,M,,*66
06/14/2015	19:10:16.507	$GPGGA,191017,2432.8298,N,08057.1243,W,1,10,1.8,21,M,,M,,*66
06/14/2015	19:10:17.607	$GPGGA,191018,2432.8295,N,08057.1250,W,1,9,1.8,21,M,,M,,*5E
06/14/2015	19:10:18.497	$GPGGA,191019,2432.8291,N,08057.1255,W,1,9,1.8,21,M,,M,,*5E
06/14/2015	19:10:19.507	$GPGGA,191020,2432.8287,N,08057.1261,W,1,9,1.8,21,M,,M,,*54
06/14/2015	19:10:21.487	$GPGGA,191021,2432.8283,N,08057.1264,W,1,9,1.8,21,M,,M,,*54
06/14/2015	19:10:21.517	$GPGGA,191022,2432.8280,N,08057.1269,W,1,10,1.8,21,M,,M,,*61
06/14/2015	19:10:22.578	$GPGGA,191023,2432.8277,N,08057.1275,W,1,10,1.7,21,M,,M,,*6A
06/14/2015	19:10:23.638	$GPGGA,191024,2432.8273,N,08057.1280,W,1,10,1.7,21,M,,M,,*63
06/14/2015	19:10:24.578	$GPGGA,191025,2432.8270,N,08057.1286,W,1,10,1.7,21,M,,M,,*67
06/14/2015	19:10:25.608	$GPGGA,191026,2432.8266,N,08057.1290,W,1,10,1.7,21,M,,M,,*64
06/14/2015	19:10:26.568	$GPGGA,191027,2432.8262,N,08057.1295,W,1,10,1.7,21,M,,M,,*64
06/14/2015	19:10:27.577	$GPGGA,191028,2432.8260,N,08057.1301,W,1,10,1.7,21,M,,M,,*65
06/14/2015	19:10:28.557	$GPGGA,191029,2432.8257,N,08057.1305,W,1,10,1.7,21,M,,M,,*64
06/14/2015	19:10:29.587	$GPGGA,191030,2432.8253,N,08057.1309,W,1,10,1.7,21,M,,M,,*64
06/14/2015	19:10:30.557	$GPGGA,191031,2432.8250,N,08057.1315,W,1,10,1.7,21,M,,M,,*6B
06/14/2015	19:10:31.577	$GPGGA,191032,2432.8247,N,08057.1320,W,1,10,1.7,21,M,,M,,*68
06/14/2015	19:10:32.567	$GPGGA,191033,2432.8243,N,08057.1324,W,1,10,1.7,21,M,,M,,*69
06/14/2015	19:10:33.567	$GPGGA,191034,2432.8239,N,08057.1329,W,1,10,1.7,21,M,,M,,*6E
06/14/2015	19:10:34.557	$GPGGA,191035,2432.8236,N,08057.1333,W,1,10,1.7,21,M,,M,,*6B
06/14/2015	19:10:35.587	$GPGGA,191036,2432.8234,N,08057.1337,W,1,10,1.7,21,M,,M,,*6E
06/14/2015	19:10:36.557	$GPGGA,191037,2432.8229,N,08057.1341,W,1,10,1.7,21,M,,M,,*62
06/14/2015	19:10:37.547	$GPGGA,191038,2432.8226,N,08057.1347,W,1,10,1.7,21,M,,M,,*64
06/14/2015	19:10:38.547	$GPGGA,191039,2432.8223,N,08057.1352,W,1,10,1.7,21,M,,M,,*64
06/14/2015	19:10:39.588	$GPGGA,191040,2432.8221,N,08057.1356,W,1,10,1.7,21,M,,M,,*6C
06/14/2015	19:10:40.548	$GPGGA,191041,2432.8217,N,08057.1360,W,1,10,1.7,21,M,,M,,*6D
06/14/2015	19:10:41.528	$GPGGA,191042,2432.8214,N,08057.1366,W,1,9,1.8,21,M,,M,,*5C
06/14/2015	19:10:42.531	$GPGGA,191043,2432.8211,N,08057.1370,W,1,9,1.7,21,M,,M,,*50
06/14/2015	19:10:43.541	$GPGGA,191044,2432.8208,N,08057.1373,W,1,10,1.7,21,M,,M,,*64
06/14/2015	19:10:44.547	$GPGGA,191045,2432.8205,N,08057.1378,W,1,10,1.7,20,M,,M,,*62
06/14/2015	19:10:45.567	$GPGGA,191046,2432.8201,N,08057.1384,W,1,9,1.8,20,M,,M,,*51
06/14/2015	19:10:46.517	$GPGGA,191047,2432.8197,N,08057.1388,W,1,9,1.7,20,M,,M,,*5F
06/14/2015	19:10:47.577	$GPGGA,191048,2432.8194,N,08057.1392,W,1,10,1.7,20,M,,M,,*60
06/14/2015	19:10:48.545	$GPGGA,191049,2432.8192,N,08057.1398,W,1,10,1.7,20,M,,M,,*6D
06/14/2015	19:10:49.577	$GPGGA,191050,2432.8187,N,08057.1402,W,1,10,1.7,20,M,,M,,*65
06/14/2015	19:10:50.517	$GPGGA,191051,2432.8185,N,08057.1405,W,1,10,1.7,20,M,,M,,*61
06/14/2015	19:10:51.543	$GPGGA,191052,2432.8181,N,08057.1410,W,1,10,1.7,20,M,,M,,*62
06/14/2015	19:10:52.517	$GPGGA,191053,2432.8178,N,08057.1414,W,1,10,1.7,20,M,,M,,*61
06/14/2015	19:10:53.507	$GPGGA,191054,2432.8174,N,08057.1418,W,1,10,1.7,20,M,,M,,*66
06/14/2015	19:10:54.517	$GPGGA,191055,2432.8170,N,08057.1423,W,1,10,1.7,20,M,,M,,*6B
06/14/2015	19:10:55.567	$GPGGA,191056,2432.8167,N,08057.1428,W,1,10,1.7,20,M,,M,,*65
06/14/2015	19:10:56.629	$GPGGA,191057,2432.8164,N,08057.1434,W,1,10,1.7,20,M,,M,,*6A
06/14/2015	19:10:57.608	$GPGGA,191058,2432.8161,N,08057.1436,W,1,10,1.7,20,M,,M,,*62
06/14/2015	19:10:58.498	$GPGGA,191059,2432.8158,N,08057.1441,W,1,10,1.7,20,M,,M,,*69
06/14/2015	19:10:59.648	$GPGGA,191100,2432.8156,N,08057.1446,W,1,9,1.7,20,M,,M,,*55
06/14/2015	19:11:00.498	$GPGGA,191101,2432.8152,N,08057.1452,W,1,9,1.7,20,M,,M,,*55
06/14/2015	19:11:01.608	$GPGGA,191102,2432.8147,N,08057.1456,W,1,10,1.7,20,M,,M,,*6E
06/14/2015	19:11:02.587	$GPGGA,191103,2432.8145,N,08057.1463,W,1,10,1.8,20,M,,M,,*64
06/14/2015	19:11:03.607	$GPGGA,191104,2432.8142,N,08057.1467,W,1,9,1.8,20,M,,M,,*58
06/14/2015	19:11:04.597	$GPGGA,191105,2432.8138,N,08057.1474,W,1,9,1.7,20,M,,M,,*59
06/14/2015	19:11:05.487	$GPGGA,191106,2432.8134,N,08057.1479,W,1,10,1.7,20,M,,M,,*63
06/14/2015	19:11:06.497	$GPGGA,191107,2432.8130,N,08057.1485,W,1,10,1.8,20,M,,M,,*6A
06/14/2015	19:11:07.497	$GPGGA,191108,2432.8127,N,08057.1490,W,1,9,1.8,20,M,,M,,*5F
06/14/2015	19:11:08.587	$GPGGA,191109,2432.8123,N,08057.1496,W,1,9,1.7,21,M,,M,,*52
06/14/2015	19:11:09.577	$GPGGA,191110,2432.8121,N,08057.1499,W,1,10,1.7,21,M,,M,,*6F
06/14/2015	19:11:10.577	$GPGGA,191111,2432.8120,N,08057.1503,W,1,10,1.7,21,M,,M,,*6D
06/14/2015	19:11:11.607	$GPGGA,191112,2432.8116,N,08057.1507,W,1,10,1.7,21,M,,M,,*6F
06/14/2015	19:11:12.577	$GPGGA,191113,2432.8113,N,08057.1511,W,1,10,1.7,21,M,,M,,*6C
06/14/2015	19:11:13.587	$GPGGA,191114,2432.8112,N,08057.1517,W,1,10,1.7,21,M,,M,,*6C
06/14/2015	19:11:14.578	$GPGGA,191115,2432.8109,N,08057.1522,W,1,10,1.7,21,M,,M,,*61
06/14/2015	19:11:15.618	$GPGGA,191116,2432.8105,N,08057.1525,W,1,10,1.7,21,M,,M,,*69
06/14/2015	19:11:16.568	$GPGGA,191117,2432.8103,N,08057.1532,W,1,10,1.7,21,M,,M,,*68
06/14/2015	19:11:17.578	$GPGGA,191118,2432.8102,N,08057.1537,W,1,10,1.7,21,M,,M,,*63
06/14/2015	19:11:18.558	$GPGGA,191119,2432.8100,N,08057.1540,W,1,10,1.7,21,M,,M,,*60
06/14/2015	19:11:19.597	$GPGGA,191120,2432.8098,N,08057.1543,W,1,10,1.7,21,M,,M,,*69
06/14/2015	19:11:20.547	$GPGGA,191121,2432.8094,N,08057.1548,W,1,10,1.7,21,M,,M,,*6F
06/14/2015	19:11:21.557	$GPGGA,191122,2432.8091,N,08057.1554,W,1,10,1.7,21,M,,M,,*64
06/14/2015	19:11:22.557	$GPGGA,191123,2432.8089,N,08057.1559,W,1,10,1.7,21,M,,M,,*61
06/14/2015	19:11:23.597	$GPGGA,191124,2432.8087,N,08057.1564,W,1,10,1.7,21,M,,M,,*66
06/14/2015	19:11:24.557	$GPGGA,191125,2432.8084,N,08057.1568,W,1,10,1.7,21,M,,M,,*68
06/14/2015	19:11:25.540	$GPGGA,191126,2432.8081,N,08057.1572,W,1,10,1.7,21,M,,M,,*65
06/14/2015	19:11:26.557	$GPGGA,191127,2432.8080,N,08057.1577,W,1,10,1.7,21,M,,M,,*60
06/14/2015	19:11:27.617	$GPGGA,191128,2432.8077,N,08057.1582,W,1,10,1.7,21,M,,M,,*6D
06/14/2015	19:11:28.549	$GPGGA,191129,2432.8073,N,08057.1587,W,1,10,1.7,21,M,,M,,*6D
06/14/2015	19:11:29.527	$GPGGA,191130,2432.8071,N,08057.1593,W,1,10,1.7,21,M,,M,,*62
06/14/2015	19:11:30.537	$GPGGA,191131,2432.8067,N,08057.1600,W,1,10,1.7,21,M,,M,,*6D
06/14/2015	19:11:31.547	$GPGGA,191132,2432.8065,N,08057.1604,W,1,10,1.7,21,M,,M,,*68
06/14/2015	19:11:32.538	$GPGGA,191133,2432.8062,N,08057.1608,W,1,10,1.7,21,M,,M,,*62
06/14/2015	19:11:33.568	$GPGGA,191134,2432.8059,N,08057.1613,W,1,10,1.7,21,M,,M,,*67
06/14/2015	19:11:34.548	$GPGGA,191135,2432.8056,N,08057.1618,W,1,10,1.7,21,M,,M,,*62
06/14/2015	19:11:35.648	$GPGGA,191136,2432.8053,N,08057.1622,W,1,10,1.7,21,M,,M,,*6D
06/14/2015	19:11:36.543	$GPGGA,191137,2432.8049,N,08057.1626,W,1,10,1.7,21,M,,M,,*63
06/14/2015	19:11:37.547	$GPGGA,191138,2432.8047,N,08057.1633,W,1,10,1.7,21,M,,M,,*66
06/14/2015	19:11:38.528	$GPGGA,191139,2432.8044,N,08057.1637,W,1,10,1.7,21,M,,M,,*60
06/14/2015	19:11:39.528	$GPGGA,191140,2432.8040,N,08057.1640,W,1,10,1.7,21,M,,M,,*6A
06/14/2015	19:11:40.517	$GPGGA,191141,2432.8037,N,08057.1645,W,1,10,1.7,21,M,,M,,*6E
06/14/2015	19:11:41.507	$GPGGA,191142,2432.8035,N,08057.1651,W,1,10,1.7,21,M,,M,,*6A
06/14/2015	19:11:42.607	$GPGGA,191143,2432.8030,N,08057.1655,W,1,10,1.7,21,M,,M,,*6A
