Software Version Number: 1	Data File Format Number: 1	Build Version Number: 1	Error Count Since VI Started: 1	Manufacturer: Raytheon	 Model Number: RayMarine 120	 S/N: 	 Cal Date: 	 Wind Direction Offset: 0.00	 Slope (M)1: 0.00	 Offset (B)1: 0.00	 Slope (M)2: 0.00	 Offset (B)2: 0.00	 Slope (M)3: 0.00	 Offset (B)3: 0.00	 Slope (M)4: 0.00	 Offset (B)4: 0.00	 Slope (M)5: 0.00	 Offset (B)5: 0.00	 Slope (M)6: 0.00	 Offset (B)6: 0.00
Computer Date	Computer Time	GGA String
06/16/2015	16:00:00.520	$GPGGA,160001,2417.2264,N,08104.3923,W,1,10,1.3,24,M,,M,,*67
06/16/2015	16:00:01.630	$GPGGA,160002,2417.2277,N,08104.3916,W,1,10,1.6,24,M,,M,,*65
06/16/2015	16:00:02.510	$GPGGA,160003,2417.2289,N,08104.3908,W,1,10,1.6,24,M,,M,,*6A
06/16/2015	16:00:03.620	$GPGGA,160004,2417.2300,N,08104.3894,W,1,10,1.6,24,M,,M,,*69
06/16/2015	16:00:04.491	$GPGGA,160005,2417.2316,N,08104.3885,W,1,10,1.4,24,M,,M,,*6D
06/16/2015	16:00:05.484	$GPGGA,160006,2417.2329,N,08104.3878,W,1,10,1.4,24,M,,M,,*60
06/16/2015	16:00:06.490	$GPGGA,160007,2417.2343,N,08104.3869,W,1,10,2.0,24,M,,M,,*6A
06/16/2015	16:00:07.610	$GPGGA,160008,2417.2354,N,08104.3857,W,1,9,1.7,24,M,,M,,*52
06/16/2015	16:00:08.582	$GPGGA,160009,2417.2368,N,08104.3847,W,1,9,1.6,24,M,,M,,*5C
06/16/2015	16:00:09.570	$GPGGA,160010,2417.2381,N,08104.3837,W,1,10,1.4,24,M,,M,,*6E
06/16/2015	16:00:10.490	$GPGGA,160011,2417.2394,N,08104.3829,W,1,10,1.4,24,M,,M,,*64
06/16/2015	16:00:11.600	$GPGGA,160012,2417.2406,N,08104.3815,W,1,8,2.0,24,M,,M,,*5A
06/16/2015	16:00:12.479	$GPGGA,160013,2417.2418,N,08104.3804,W,1,8,1.4,24,M,,M,,*53
06/16/2015	16:00:13.469	$GPGGA,160014,2417.2430,N,08104.3795,W,1,9,1.6,24,M,,M,,*5A
06/16/2015	16:00:14.559	$GPGGA,160015,2417.2444,N,08104.3786,W,1,9,1.6,24,M,,M,,*5A
06/16/2015	16:00:15.580	$GPGGA,160016,2417.2458,N,08104.3774,W,1,10,1.4,24,M,,M,,*63
06/16/2015	16:00:16.569	$GPGGA,160017,2417.2472,N,08104.3768,W,1,10,1.7,24,M,,M,,*64
06/16/2015	16:00:17.559	$GPGGA,160018,2417.2484,N,08104.3759,W,1,9,1.6,24,M,,M,,*59
06/16/2015	16:00:18.559	$GPGGA,160019,2417.2498,N,08104.3751,W,1,9,1.6,24,M,,M,,*5D
06/16/2015	16:00:19.580	$GPGGA,160020,2417.2513,N,08104.3745,W,1,11,1.3,24,M,,M,,*6C
06/16/2015	16:00:20.559	$GPGGA,160021,2417.2526,N,08104.3738,W,1,11,1.3,24,M,,M,,*61
06/16/2015	16:00:21.569	$GPGGA,160022,2417.2537,N,08104.3725,W,1,8,2.0,24,M,,M,,*56
06/16/2015	16:00:22.550	$GPGGA,160023,2417.2551,N,08104.3718,W,1,8,1.6,24,M,,M,,*5C
06/16/2015	16:00:23.570	$GPGGA,160024,2417.2563,N,08104.3712,W,1,9,1.6,24,M,,M,,*51
06/16/2015	16:00:24.560	$GPGGA,160025,2417.2578,N,08104.3704,W,1,9,1.4,24,M,,M,,*5F
06/16/2015	16:00:25.560	$GPGGA,160026,2417.2591,N,08104.3695,W,1,11,1.3,24,M,,M,,*6C
06/16/2015	16:00:26.550	$GPGGA,160027,2417.2602,N,08104.3684,W,1,11,2.0,24,M,,M,,*64
06/16/2015	16:00:27.560	$GPGGA,160028,2417.2614,N,08104.3673,W,1,9,1.6,24,M,,M,,*58
06/16/2015	16:00:28.540	$GPGGA,160029,2417.2628,N,08104.3662,W,1,9,1.6,24,M,,M,,*56
06/16/2015	16:00:29.530	$GPGGA,160030,2417.2641,N,08104.3654,W,1,9,1.6,24,M,,M,,*54
06/16/2015	16:00:30.529	$GPGGA,160031,2417.2654,N,08104.3646,W,1,9,1.4,24,M,,M,,*50
06/16/2015	16:00:31.570	$GPGGA,160032,2417.2667,N,08104.3637,W,1,10,1.4,24,M,,M,,*6D
06/16/2015	16:00:32.539	$GPGGA,160033,2417.2679,N,08104.3629,W,1,10,1.6,24,M,,M,,*6E
06/16/2015	16:00:33.549	$GPGGA,160034,2417.2690,N,08104.3616,W,1,8,2.0,24,M,,M,,*5E
06/16/2015	16:00:34.519	$GPGGA,160035,2417.2704,N,08104.3608,W,1,8,1.4,24,M,,M,,*5B
06/16/2015	16:00:35.559	$GPGGA,160036,2417.2718,N,08104.3601,W,1,10,1.4,24,M,,M,,*65
06/16/2015	16:00:36.529	$GPGGA,160037,2417.2728,N,08104.3587,W,1,10,1.4,24,M,,M,,*6A
06/16/2015	16:00:37.519	$GPGGA,160038,2417.2742,N,08104.3577,W,1,8,1.7,24,M,,M,,*5C
06/16/2015	16:00:38.529	$GPGGA,160039,2417.2755,N,08104.3569,W,1,8,1.6,24,M,,M,,*55
06/16/2015	16:00:39.570	$GPGGA,160040,2417.2766,N,08104.3558,W,1,10,1.6,24,M,,M,,*60
06/16/2015	16:00:40.510	$GPGGA,160041,2417.2780,N,08104.3548,W,1,10,1.6,25,M,,M,,*69
06/16/2015	16:00:41.540	$GPGGA,160042,2417.2794,N,08104.3542,W,1,10,1.4,25,M,,M,,*67
06/16/2015	16:00:42.620	$GPGGA,160043,2417.2808,N,08104.3535,W,1,10,1.6,25,M,,M,,*6E
06/16/2015	16:00:43.650	$GPGGA,160044,2417.2824,N,08104.3531,W,1,10,1.4,25,M,,M,,*61
06/16/2015	16:00:44.550	$GPGGA,160045,2417.2837,N,08104.3522,W,1,10,1.3,25,M,,M,,*67
06/16/2015	16:00:45.630	$GPGGA,160046,2417.2849,N,08104.3515,W,1,10,1.4,25,M,,M,,*6E
06/16/2015	16:00:46.600	$GPGGA,160047,2417.2862,N,08104.3505,W,1,10,1.3,25,M,,M,,*60
06/16/2015	16:00:47.639	$GPGGA,160048,2417.2874,N,08104.3496,W,1,11,1.3,25,M,,M,,*62
06/16/2015	16:00:48.509	$GPGGA,160049,2417.2888,N,08104.3488,W,1,11,1.6,25,M,,M,,*6A
06/16/2015	16:00:49.619	$GPGGA,160050,2417.2902,N,08104.3482,W,1,11,1.3,25,M,,M,,*6E
06/16/2015	16:00:50.493	$GPGGA,160051,2417.2916,N,08104.3474,W,1,11,1.3,25,M,,M,,*63
06/16/2015	16:00:51.629	$GPGGA,160052,2417.2925,N,08104.3461,W,1,10,1.6,25,M,,M,,*60
06/16/2015	16:00:52.591	$GPGGA,160053,2417.2939,N,08104.3453,W,1,10,1.3,25,M,,M,,*68
06/16/2015	16:00:53.509	$GPGGA,160054,2417.2953,N,08104.3447,W,1,11,1.3,25,M,,M,,*67
06/16/2015	16:00:54.492	$GPGGA,160055,2417.2964,N,08104.3439,W,1,11,2.0,25,M,,M,,*6B
06/16/2015	16:00:55.593	$GPGGA,160056,2417.2975,N,08104.3430,W,1,11,1.3,25,M,,M,,*61
06/16/2015	16:00:56.582	$GPGGA,160057,2417.2988,N,08104.3423,W,1,11,1.3,25,M,,M,,*60
06/16/2015	16:00:57.493	$GPGGA,160058,2417.3000,N,08104.3414,W,1,10,1.4,25,M,,M,,*65
06/16/2015	16:00:58.485	$GPGGA,160059,2417.3011,N,08104.3401,W,1,10,1.6,25,M,,M,,*62
06/16/2015	16:00:59.620	$GPGGA,160100,2417.3024,N,08104.3390,W,1,9,1.6,25,M,,M,,*5E
06/16/2015	16:01:00.570	$GPGGA,160101,2417.3036,N,08104.3381,W,1,9,2.0,25,M,,M,,*59
06/16/2015	16:01:01.570	$GPGGA,160102,2417.3050,N,08104.3374,W,1,9,1.4,24,M,,M,,*56
06/16/2015	16:01:02.570	$GPGGA,160103,2417.3062,N,08104.3364,W,1,9,1.4,24,M,,M,,*57
06/16/2015	16:01:03.570	$GPGGA,160104,2417.3075,N,08104.3354,W,1,9,1.6,24,M,,M,,*57
06/16/2015	16:01:04.550	$GPGGA,160105,2417.3087,N,08104.3347,W,1,9,1.6,24,M,,M,,*59
06/16/2015	16:01:05.581	$GPGGA,160106,2417.3101,N,08104.3338,W,1,9,1.7,24,M,,M,,*5C
06/16/2015	16:01:06.559	$GPGGA,160107,2417.3113,N,08104.3328,W,1,9,1.4,24,M,,M,,*5C
06/16/2015	16:01:07.582	$GPGGA,160108,2417.3127,N,08104.3320,W,1,10,1.4,24,M,,M,,*64
06/16/2015	16:01:08.559	$GPGGA,160109,2417.3140,N,08104.3315,W,1,10,2.0,24,M,,M,,*65
06/16/2015	16:01:09.549	$GPGGA,160110,2417.3152,N,08104.3305,W,1,11,1.3,24,M,,M,,*6E
06/16/2015	16:01:10.549	$GPGGA,160111,2417.3166,N,08104.3296,W,1,11,2.0,24,M,,M,,*63
06/16/2015	16:01:11.549	$GPGGA,160112,2417.3178,N,08104.3287,W,1,9,1.4,24,M,,M,,*51
06/16/2015	16:01:12.539	$GPGGA,160113,2417.3192,N,08104.3282,W,1,9,1.3,24,M,,M,,*56
06/16/2015	16:01:13.569	$GPGGA,160114,2417.3206,N,08104.3271,W,1,10,1.4,24,M,,M,,*6C
06/16/2015	16:01:14.541	$GPGGA,160115,2417.3217,N,08104.3261,W,1,10,1.4,24,M,,M,,*6C
06/16/2015	16:01:15.570	$GPGGA,160116,2417.3231,N,08104.3251,W,1,10,1.4,24,M,,M,,*68
06/16/2015	16:01:16.540	$GPGGA,160117,2417.3245,N,08104.3242,W,1,10,1.6,24,M,,M,,*6A
06/16/2015	16:01:17.570	$GPGGA,160118,2417.3257,N,08104.3231,W,1,11,1.3,24,M,,M,,*66
06/16/2015	16:01:18.530	$GPGGA,160119,2417.3268,N,08104.3221,W,1,11,1.4,24,M,,M,,*6D
06/16/2015	16:01:19.550	$GPGGA,160120,2417.3281,N,08104.3212,W,1,11,1.3,24,M,,M,,*67
06/16/2015	16:01:20.520	$GPGGA,160121,2417.3292,N,08104.3204,W,1,11,1.4,24,M,,M,,*64
06/16/2015	16:01:21.560	$GPGGA,160122,2417.3304,N,08104.3193,W,1,11,1.3,24,M,,M,,*63
06/16/2015	16:01:22.519	$GPGGA,160123,2417.3315,N,08104.3181,W,1,11,2.0,24,M,,M,,*61
06/16/2015	16:01:23.529	$GPGGA,160124,2417.3329,N,08104.3174,W,1,10,1.4,24,M,,M,,*65
06/16/2015	16:01:24.519	$GPGGA,160125,2417.3340,N,08104.3169,W,1,10,1.4,24,M,,M,,*67
06/16/2015	16:01:25.529	$GPGGA,160126,2417.3354,N,08104.3158,W,1,11,1.3,24,M,,M,,*65
06/16/2015	16:01:26.649	$GPGGA,160127,2417.3365,N,08104.3145,W,1,11,1.3,24,M,,M,,*6A
06/16/2015	16:01:27.703	$GPGGA,160128,2417.3378,N,08104.3134,W,1,10,1.6,24,M,,M,,*6B
06/16/2015	16:01:28.531	$GPGGA,160129,2417.3390,N,08104.3125,W,1,10,1.6,24,M,,M,,*6C
06/16/2015	16:01:29.699	$GPGGA,160130,2417.3402,N,08104.3112,W,1,11,1.6,24,M,,M,,*6D
06/16/2015	16:01:30.509	$GPGGA,160131,2417.3416,N,08104.3103,W,1,11,1.6,24,M,,M,,*69
06/16/2015	16:01:31.540	$GPGGA,160132,2417.3427,N,08104.3096,W,1,10,1.4,24,M,,M,,*66
06/16/2015	16:01:32.510	$GPGGA,160133,2417.3441,N,08104.3085,W,1,10,1.6,24,M,,M,,*67
06/16/2015	16:01:33.710	$GPGGA,160134,2417.3454,N,08104.3073,W,1,11,1.3,24,M,,M,,*69
06/16/2015	16:01:34.630	$GPGGA,160135,2417.3466,N,08104.3065,W,1,11,1.3,24,M,,M,,*6E
06/16/2015	16:01:35.700	$GPGGA,160136,2417.3477,N,08104.3055,W,1,8,1.3,24,M,,M,,*56
06/16/2015	16:01:36.520	$GPGGA,160137,2417.3490,N,08104.3046,W,1,8,1.3,24,M,,M,,*5C
06/16/2015	16:01:37.520	$GPGGA,160138,2417.3501,N,08104.3033,W,1,11,1.3,24,M,,M,,*60
06/16/2015	16:01:39.550	$GPGGA,160140,2417.3524,N,08104.3012,W,1,10,1.4,24,M,,M,,*6D
06/16/2015	16:01:40.581	$GPGGA,160141,2417.3537,N,08104.3002,W,1,10,1.6,24,M,,M,,*6D
06/16/2015	16:01:41.669	$GPGGA,160142,2417.3549,N,08104.2990,W,1,11,1.4,24,M,,M,,*67
06/16/2015	16:01:42.499	$GPGGA,160143,2417.3560,N,08104.2980,W,1,11,1.4,24,M,,M,,*6C
06/16/2015	16:01:43.700	$GPGGA,160144,2417.3573,N,08104.2971,W,1,10,1.4,24,M,,M,,*66
06/16/2015	16:01:44.500	$GPGGA,160145,2417.3586,N,08104.2964,W,1,10,1.6,24,M,,M,,*6B
06/16/2015	16:01:45.669	$GPGGA,160146,2417.3600,N,08104.2956,W,1,9,1.6,24,M,,M,,*5C
06/16/2015	16:01:46.569	$GPGGA,160147,2417.3614,N,08104.2949,W,1,9,1.6,24,M,,M,,*56
06/16/2015	16:01:47.580	$GPGGA,160148,2417.3625,N,08104.2940,W,1,10,1.4,24,M,,M,,*68
06/16/2015	16:01:48.569	$GPGGA,160149,2417.3636,N,08104.2927,W,1,10,1.6,24,M,,M,,*68
06/16/2015	16:01:49.670	$GPGGA,160150,2417.3651,N,08104.2920,W,1,9,2.0,24,M,,M,,*5B
06/16/2015	16:01:50.560	$GPGGA,160151,2417.3665,N,08104.2914,W,1,9,2.0,24,M,,M,,*5A
06/16/2015	16:01:51.680	$GPGGA,160152,2417.3679,N,08104.2907,W,1,10,2.0,24,M,,M,,*6E
06/16/2015	16:01:52.595	$GPGGA,160153,2417.3690,N,08104.2895,W,1,10,2.0,24,M,,M,,*62
06/16/2015	16:01:53.560	$GPGGA,160154,2417.3704,N,08104.2887,W,1,10,1.3,24,M,,M,,*6A
06/16/2015	16:01:54.580	$GPGGA,160155,2417.3716,N,08104.2879,W,1,10,1.6,24,M,,M,,*6C
06/16/2015	16:01:55.660	$GPGGA,160156,2417.3729,N,08104.2868,W,1,9,1.3,24,M,,M,,*5E
06/16/2015	16:01:56.580	$GPGGA,160157,2417.3743,N,08104.2862,W,1,9,1.3,24,M,,M,,*59
06/16/2015	16:01:57.639	$GPGGA,160158,2417.3756,N,08104.2854,W,1,9,1.3,24,M,,M,,*57
06/16/2015	16:01:58.569	$GPGGA,160159,2417.3770,N,08104.2843,W,1,9,1.3,24,M,,M,,*54
06/16/2015	16:01:59.669	$GPGGA,160200,2417.3781,N,08104.2833,W,1,9,1.6,24,M,,M,,*57
06/16/2015	16:02:00.569	$GPGGA,160201,2417.3795,N,08104.2824,W,1,9,1.6,24,M,,M,,*55
06/16/2015	16:02:01.599	$GPGGA,160202,2417.3808,N,08104.2814,W,1,11,1.3,24,M,,M,,*62
06/16/2015	16:02:02.569	$GPGGA,160203,2417.3819,N,08104.2803,W,1,11,1.6,24,M,,M,,*60
06/16/2015	16:02:03.649	$GPGGA,160204,2417.3833,N,08104.2798,W,1,9,1.3,24,M,,M,,*5E
06/16/2015	16:02:04.529	$GPGGA,160205,2417.3846,N,08104.2793,W,1,9,1.3,24,M,,M,,*56
06/16/2015	16:02:05.519	$GPGGA,160206,2417.3859,N,08104.2782,W,1,8,2.0,24,M,,M,,*5A
06/16/2015	16:02:06.570	$GPGGA,160207,2417.3870,N,08104.2769,W,1,8,1.6,24,M,,M,,*50
06/16/2015	16:02:07.660	$GPGGA,160208,2417.3882,N,08104.2761,W,1,10,1.6,24,M,,M,,*63
06/16/2015	16:02:08.550	$GPGGA,160209,2417.3895,N,08104.2754,W,1,10,1.6,24,M,,M,,*62
06/16/2015	16:02:09.630	$GPGGA,160210,2417.3907,N,08104.2744,W,1,10,1.3,24,M,,M,,*64
06/16/2015	16:02:10.560	$GPGGA,160211,2417.3922,N,08104.2738,W,1,10,1.3,24,M,,M,,*69
06/16/2015	16:02:11.600	$GPGGA,160212,2417.3936,N,08104.2733,W,1,10,1.3,24,M,,M,,*64
06/16/2015	16:02:12.560	$GPGGA,160213,2417.3949,N,08104.2724,W,1,10,1.3,24,M,,M,,*6B
06/16/2015	16:02:13.510	$GPGGA,160214,2417.3960,N,08104.2711,W,1,10,1.3,24,M,,M,,*61
06/16/2015	16:02:14.630	$GPGGA,160215,2417.3972,N,08104.2707,W,1,10,1.4,23,M,,M,,*64
06/16/2015	16:02:15.660	$GPGGA,160216,2417.3983,N,08104.2698,W,1,10,1.6,23,M,,M,,*6C
06/16/2015	16:02:16.549	$GPGGA,160217,2417.3996,N,08104.2688,W,1,10,1.3,23,M,,M,,*6D
06/16/2015	16:02:17.589	$GPGGA,160218,2417.4008,N,08104.2677,W,1,11,1.6,23,M,,M,,*6F
06/16/2015	16:02:18.549	$GPGGA,160219,2417.4021,N,08104.2670,W,1,11,1.4,23,M,,M,,*60
06/16/2015	16:02:19.639	$GPGGA,160220,2417.4034,N,08104.2662,W,1,9,1.6,23,M,,M,,*56
06/16/2015	16:02:20.529	$GPGGA,160221,2417.4044,N,08104.2651,W,1,9,1.4,23,M,,M,,*52
06/16/2015	16:02:21.589	$GPGGA,160222,2417.4057,N,08104.2642,W,1,9,1.6,23,M,,M,,*53
06/16/2015	16:02:22.529	$GPGGA,160223,2417.4070,N,08104.2635,W,1,9,2.0,23,M,,M,,*52
06/16/2015	16:02:23.609	$GPGGA,160224,2417.4084,N,08104.2627,W,1,8,1.3,23,M,,M,,*5C
06/16/2015	16:02:24.530	$GPGGA,160225,2417.4097,N,08104.2619,W,1,8,1.4,23,M,,M,,*55
06/16/2015	16:02:25.600	$GPGGA,160226,2417.4109,N,08104.2609,W,1,9,1.6,23,M,,M,,*52
06/16/2015	16:02:26.510	$GPGGA,160227,2417.4120,N,08104.2601,W,1,9,1.6,23,M,,M,,*50
06/16/2015	16:02:27.660	$GPGGA,160228,2417.4133,N,08104.2590,W,1,10,1.3,23,M,,M,,*6B
06/16/2015	16:02:28.595	$GPGGA,160229,2417.4146,N,08104.2583,W,1,10,1.3,23,M,,M,,*6A
06/16/2015	16:02:29.600	$GPGGA,160230,2417.4160,N,08104.2577,W,1,10,1.6,23,M,,M,,*68
06/16/2015	16:02:30.583	$GPGGA,160231,2417.4171,N,08104.2566,W,1,10,1.6,23,M,,M,,*69
06/16/2015	16:02:31.600	$GPGGA,160232,2417.4184,N,08104.2556,W,1,9,1.3,23,M,,M,,*5E
06/16/2015	16:02:32.569	$GPGGA,160233,2417.4196,N,08104.2547,W,1,9,1.3,23,M,,M,,*5C
06/16/2015	16:02:33.909	$GPGGA,160234,2417.4209,N,08104.2538,W,1,10,1.6,23,M,,M,,*6B
06/16/2015	16:02:34.569	$GPGGA,160235,2417.4221,N,08104.2529,W,1,10,2.3,23,M,,M,,*66
06/16/2015	16:02:35.609	$GPGGA,160236,2417.4235,N,08104.2522,W,1,7,1.6,23,M,,M,,*5B
06/16/2015	16:02:36.559	$GPGGA,160237,2417.4249,N,08104.2515,W,1,7,1.3,23,M,,M,,*50
06/16/2015	16:02:37.589	$GPGGA,160238,2417.4261,N,08104.2506,W,1,10,1.3,23,M,,M,,*61
06/16/2015	16:02:38.559	$GPGGA,160239,2417.4274,N,08104.2502,W,1,10,2.0,23,M,,M,,*60
06/16/2015	16:02:39.589	$GPGGA,160240,2417.4286,N,08104.2491,W,1,8,1.6,23,M,,M,,*54
06/16/2015	16:02:40.559	$GPGGA,160241,2417.4297,N,08104.2483,W,1,8,1.3,23,M,,M,,*53
06/16/2015	16:02:41.580	$GPGGA,160242,2417.4312,N,08104.2473,W,1,10,1.3,23,M,,M,,*6A
06/16/2015	16:02:42.550	$GPGGA,160243,2417.4326,N,08104.2466,W,1,10,2.0,23,M,,M,,*68
06/16/2015	16:02:43.591	$GPGGA,160244,2417.4337,N,08104.2460,W,1,8,1.6,23,M,,M,,*55
06/16/2015	16:02:44.560	$GPGGA,160245,2417.4351,N,08104.2454,W,1,8,1.3,23,M,,M,,*56
06/16/2015	16:02:45.570	$GPGGA,160246,2417.4365,N,08104.2446,W,1,10,1.3,23,M,,M,,*68
06/16/2015	16:02:46.540	$GPGGA,160247,2417.4377,N,08104.2437,W,1,10,1.4,23,M,,M,,*6B
06/16/2015	16:02:47.595	$GPGGA,160248,2417.4388,N,08104.2430,W,1,9,1.3,23,M,,M,,*5C
06/16/2015	16:02:48.540	$GPGGA,160249,2417.4402,N,08104.2421,W,1,9,1.3,23,M,,M,,*58
06/16/2015	16:02:49.570	$GPGGA,160250,2417.4413,N,08104.2408,W,1,11,1.3,23,M,,M,,*62
06/16/2015	16:02:50.559	$GPGGA,160251,2417.4424,N,08104.2400,W,1,11,1.4,23,M,,M,,*68
06/16/2015	16:02:51.559	$GPGGA,160252,2417.4424,N,08104.2400,W,1,9,1.4,23,M,,M,,*52
06/16/2015	16:02:52.539	$GPGGA,160253,2417.4451,N,08104.2385,W,1,9,1.6,23,M,,M,,*59
06/16/2015	16:02:53.609	$GPGGA,160254,2417.4462,N,08104.2375,W,1,9,1.3,23,M,,M,,*54
06/16/2015	16:02:54.529	$GPGGA,160255,2417.4475,N,08104.2368,W,1,9,1.3,23,M,,M,,*5F
06/16/2015	16:02:55.592	$GPGGA,160256,2417.4489,N,08104.2361,W,1,10,1.3,23,M,,M,,*6E
06/16/2015	16:02:56.529	$GPGGA,160257,2417.4500,N,08104.2352,W,1,10,1.3,23,M,,M,,*6F
06/16/2015	16:02:57.591	$GPGGA,160258,2417.4514,N,08104.2343,W,1,10,1.3,22,M,,M,,*64
06/16/2015	16:02:58.530	$GPGGA,160259,2417.4527,N,08104.2336,W,1,10,1.3,22,M,,M,,*67
06/16/2015	16:02:59.600	$GPGGA,160300,2417.4539,N,08104.2329,W,1,9,1.7,22,M,,M,,*57
06/16/2015	16:03:00.520	$GPGGA,160301,2417.4550,N,08104.2319,W,1,9,1.7,22,M,,M,,*5A
06/16/2015	16:03:01.550	$GPGGA,160302,2417.4550,N,08104.2319,W,1,11,1.3,22,M,,M,,*64
06/16/2015	16:03:02.510	$GPGGA,160303,2417.4575,N,08104.2300,W,1,11,1.3,22,M,,M,,*6A
06/16/2015	16:03:03.582	$GPGGA,160304,2417.4587,N,08104.2292,W,1,11,1.6,22,M,,M,,*6F
06/16/2015	16:03:04.520	$GPGGA,160305,2417.4587,N,08104.2292,W,1,11,1.6,22,M,,M,,*6E
06/16/2015	16:03:05.510	$GPGGA,160306,2417.4601,N,08104.2283,W,1,11,1.3,22,M,,M,,*65
06/16/2015	16:03:06.520	$GPGGA,160307,2417.4612,N,08104.2274,W,1,11,1.4,22,M,,M,,*69
06/16/2015	16:03:07.529	$GPGGA,160308,2417.4625,N,08104.2265,W,1,10,1.3,22,M,,M,,*64
06/16/2015	16:03:08.509	$GPGGA,160309,2417.4648,N,08104.2247,W,1,10,1.3,22,M,,M,,*6E
06/16/2015	16:03:09.619	$GPGGA,160310,2417.4661,N,08104.2236,W,1,11,1.3,22,M,,M,,*6A
06/16/2015	16:03:10.509	$GPGGA,160311,2417.4673,N,08104.2227,W,1,11,1.3,22,M,,M,,*68
06/16/2015	16:03:11.609	$GPGGA,160312,2417.4684,N,08104.2218,W,1,10,1.3,22,M,,M,,*6E
06/16/2015	16:03:12.499	$GPGGA,160313,2417.4697,N,08104.2208,W,1,10,1.6,22,M,,M,,*69
06/16/2015	16:03:13.599	$GPGGA,160314,2417.4711,N,08104.2200,W,1,10,1.3,22,M,,M,,*6C
06/16/2015	16:03:14.493	$GPGGA,160315,2417.4723,N,08104.2191,W,1,10,1.3,22,M,,M,,*67
06/16/2015	16:03:15.609	$GPGGA,160316,2417.4734,N,08104.2180,W,1,9,1.6,22,M,,M,,*5F
06/16/2015	16:03:16.489	$GPGGA,160317,2417.4745,N,08104.2170,W,1,9,1.3,22,M,,M,,*52
06/16/2015	16:03:17.582	$GPGGA,160318,2417.4760,N,08104.2165,W,1,9,1.6,22,M,,M,,*5B
06/16/2015	16:03:18.486	$GPGGA,160319,2417.4773,N,08104.2157,W,1,9,1.3,22,M,,M,,*5C
06/16/2015	16:03:19.590	$GPGGA,160320,2417.4785,N,08104.2143,W,1,8,2.0,22,M,,M,,*5B
06/16/2015	16:03:20.570	$GPGGA,160321,2417.4796,N,08104.2134,W,1,8,1.3,22,M,,M,,*58
06/16/2015	16:03:21.560	$GPGGA,160322,2417.4810,N,08104.2125,W,1,9,1.6,22,M,,M,,*5E
06/16/2015	16:03:22.560	$GPGGA,160323,2417.4823,N,08104.2115,W,1,9,1.3,22,M,,M,,*59
06/16/2015	16:03:23.620	$GPGGA,160324,2417.4835,N,08104.2107,W,1,10,1.3,22,M,,M,,*62
06/16/2015	16:03:24.570	$GPGGA,160325,2417.4847,N,08104.2101,W,1,10,1.4,22,M,,M,,*67
06/16/2015	16:03:25.580	$GPGGA,160326,2417.4861,N,08104.2093,W,1,10,1.3,22,M,,M,,*6D
06/16/2015	16:03:26.549	$GPGGA,160327,2417.4874,N,08104.2084,W,1,10,1.3,22,M,,M,,*6E
06/16/2015	16:03:27.599	$GPGGA,160328,2417.4888,N,08104.2077,W,1,9,1.4,22,M,,M,,*51
06/16/2015	16:03:28.549	$GPGGA,160329,2417.4897,N,08104.2065,W,1,9,1.4,22,M,,M,,*5D
06/16/2015	16:03:29.569	$GPGGA,160330,2417.4911,N,08104.2056,W,1,9,1.6,22,M,,M,,*58
06/16/2015	16:03:30.539	$GPGGA,160331,2417.4922,N,08104.2046,W,1,9,1.3,22,M,,M,,*5D
06/16/2015	16:03:31.582	$GPGGA,160332,2417.4935,N,08104.2034,W,1,10,1.3,22,M,,M,,*65
06/16/2015	16:03:32.549	$GPGGA,160333,2417.4947,N,08104.2024,W,1,10,1.3,22,M,,M,,*60
06/16/2015	16:03:33.559	$GPGGA,160334,2417.4959,N,08104.2018,W,1,10,1.6,22,M,,M,,*62
06/16/2015	16:03:34.550	$GPGGA,160335,2417.4972,N,08104.2008,W,1,10,2.0,22,M,,M,,*6E
06/16/2015	16:03:35.581	$GPGGA,160336,2417.4984,N,08104.1997,W,1,9,1.6,22,M,,M,,*55
06/16/2015	16:03:36.540	$GPGGA,160337,2417.4995,N,08104.1983,W,1,9,1.6,22,M,,M,,*51
06/16/2015	16:03:37.530	$GPGGA,160338,2417.5009,N,08104.1975,W,1,10,1.6,22,M,,M,,*62
06/16/2015	16:03:38.540	$GPGGA,160339,2417.5020,N,08104.1969,W,1,10,1.6,22,M,,M,,*65
06/16/2015	16:03:39.540	$GPGGA,160340,2417.5034,N,08104.1961,W,1,10,1.6,22,M,,M,,*66
06/16/2015	16:03:40.530	$GPGGA,160341,2417.5047,N,08104.1951,W,1,10,2.0,22,M,,M,,*65
06/16/2015	16:03:41.530	$GPGGA,160342,2417.5060,N,08104.1944,W,1,10,1.3,22,M,,M,,*67
06/16/2015	16:03:42.519	$GPGGA,160343,2417.5073,N,08104.1934,W,1,10,1.4,22,M,,M,,*64
06/16/2015	16:03:43.539	$GPGGA,160344,2417.5084,N,08104.1920,W,1,9,1.6,22,M,,M,,*54
06/16/2015	16:03:44.529	$GPGGA,160345,2417.5096,N,08104.1910,W,1,9,1.3,22,M,,M,,*50
06/16/2015	16:03:45.539	$GPGGA,160346,2417.5109,N,08104.1903,W,1,11,1.3,22,M,,M,,*6F
06/16/2015	16:03:46.529	$GPGGA,160347,2417.5121,N,08104.1894,W,1,11,1.3,22,M,,M,,*6B
06/16/2015	16:03:47.549	$GPGGA,160348,2417.5134,N,08104.1884,W,1,10,1.3,22,M,,M,,*60
06/16/2015	16:03:48.519	$GPGGA,160349,2417.5146,N,08104.1876,W,1,10,1.3,22,M,,M,,*69
06/16/2015	16:03:49.529	$GPGGA,160350,2417.5161,N,08104.1870,W,1,9,1.4,22,M,,M,,*5D
06/16/2015	16:03:50.499	$GPGGA,160351,2417.5174,N,08104.1861,W,1,9,2.0,22,M,,M,,*5F
06/16/2015	16:03:51.540	$GPGGA,160352,2417.5186,N,08104.1850,W,1,10,1.3,22,M,,M,,*6B
06/16/2015	16:03:52.504	$GPGGA,160353,2417.5197,N,08104.1838,W,1,10,1.6,22,M,,M,,*61
06/16/2015	16:03:53.520	$GPGGA,160354,2417.5210,N,08104.1828,W,1,10,1.6,22,M,,M,,*6B
06/16/2015	16:03:54.500	$GPGGA,160355,2417.5222,N,08104.1821,W,1,10,1.3,22,M,,M,,*67
06/16/2015	16:03:55.530	$GPGGA,160356,2417.5235,N,08104.1812,W,1,10,1.6,22,M,,M,,*67
06/16/2015	16:03:56.500	$GPGGA,160357,2417.5247,N,08104.1802,W,1,10,1.3,22,M,,M,,*67
06/16/2015	16:03:57.520	$GPGGA,160358,2417.5258,N,08104.1790,W,1,10,1.6,22,M,,M,,*67
06/16/2015	16:03:58.491	$GPGGA,160359,2417.5275,N,08104.1789,W,1,10,1.6,22,M,,M,,*61
06/16/2015	16:03:59.550	$GPGGA,160400,2417.5287,N,08104.1779,W,1,9,1.4,22,M,,M,,*52
06/16/2015	16:04:00.581	$GPGGA,160401,2417.5298,N,08104.1766,W,1,9,1.6,22,M,,M,,*51
06/16/2015	16:04:01.519	$GPGGA,160402,2417.5313,N,08104.1761,W,1,10,1.6,22,M,,M,,*6F
06/16/2015	16:04:02.492	$GPGGA,160403,2417.5324,N,08104.1751,W,1,10,1.4,22,M,,M,,*6B
06/16/2015	16:04:03.619	$GPGGA,160404,2417.5338,N,08104.1744,W,1,10,1.3,22,M,,M,,*62
06/16/2015	16:04:04.581	$GPGGA,160405,2417.5349,N,08104.1737,W,1,10,2.0,22,M,,M,,*61
06/16/2015	16:04:05.595	$GPGGA,160406,2417.5360,N,08104.1726,W,1,11,1.3,22,M,,M,,*68
06/16/2015	16:04:06.569	$GPGGA,160407,2417.5374,N,08104.1714,W,1,11,1.3,22,M,,M,,*6D
06/16/2015	16:04:07.596	$GPGGA,160408,2417.5388,N,08104.1705,W,1,9,1.4,22,M,,M,,*5F
06/16/2015	16:04:08.569	$GPGGA,160409,2417.5402,N,08104.1697,W,1,9,1.3,22,M,,M,,*56
06/16/2015	16:04:09.582	$GPGGA,160410,2417.5414,N,08104.1692,W,1,10,1.3,22,M,,M,,*64
06/16/2015	16:04:10.570	$GPGGA,160411,2417.5428,N,08104.1681,W,1,10,1.3,22,M,,M,,*68
06/16/2015	16:04:11.570	$GPGGA,160412,2417.5441,N,08104.1670,W,1,10,1.3,22,M,,M,,*6A
06/16/2015	16:04:12.570	$GPGGA,160413,2417.5454,N,08104.1665,W,1,10,1.3,22,M,,M,,*6B
06/16/2015	16:04:13.570	$GPGGA,160414,2417.5468,N,08104.1659,W,1,9,1.4,22,M,,M,,*53
06/16/2015	16:04:14.560	$GPGGA,160415,2417.5481,N,08104.1648,W,1,9,1.3,22,M,,M,,*52
06/16/2015	16:04:15.582	$GPGGA,160416,2417.5490,N,08104.1637,W,1,9,1.7,22,M,,M,,*5D
06/16/2015	16:04:16.550	$GPGGA,160417,2417.5503,N,08104.1628,W,1,9,1.3,22,M,,M,,*5D
06/16/2015	16:04:17.580	$GPGGA,160418,2417.5515,N,08104.1619,W,1,9,1.6,22,M,,M,,*52
06/16/2015	16:04:18.539	$GPGGA,160419,2417.5526,N,08104.1607,W,1,9,1.3,22,M,,M,,*59
06/16/2015	16:04:19.569	$GPGGA,160420,2417.5536,N,08104.1594,W,1,11,1.3,22,M,,M,,*62
06/16/2015	16:04:20.549	$GPGGA,160421,2417.5550,N,08104.1586,W,1,11,1.6,22,M,,M,,*65
06/16/2015	16:04:21.539	$GPGGA,160422,2417.5562,N,08104.1579,W,1,9,1.7,22,M,,M,,*5F
06/16/2015	16:04:22.539	$GPGGA,160423,2417.5575,N,08104.1567,W,1,9,1.3,22,M,,M,,*53
06/16/2015	16:04:23.580	$GPGGA,160424,2417.5589,N,08104.1557,W,1,9,1.7,22,M,,M,,*50
06/16/2015	16:04:24.539	$GPGGA,160425,2417.5601,N,08104.1548,W,1,9,1.3,22,M,,M,,*58
06/16/2015	16:04:25.569	$GPGGA,160426,2417.5612,N,08104.1539,W,1,10,1.6,22,M,,M,,*62
06/16/2015	16:04:26.540	$GPGGA,160427,2417.5626,N,08104.1531,W,1,10,1.6,23,M,,M,,*6D
06/16/2015	16:04:27.570	$GPGGA,160428,2417.5638,N,08104.1521,W,1,10,1.3,23,M,,M,,*69
06/16/2015	16:04:28.620	$GPGGA,160429,2417.5649,N,08104.1512,W,1,10,1.3,23,M,,M,,*6E
06/16/2015	16:04:29.520	$GPGGA,160430,2417.5661,N,08104.1501,W,1,11,1.3,23,M,,M,,*6F
06/16/2015	16:04:30.530	$GPGGA,160431,2417.5673,N,08104.1490,W,1,11,1.6,23,M,,M,,*61
06/16/2015	16:04:31.550	$GPGGA,160432,2417.5684,N,08104.1483,W,1,10,1.3,23,M,,M,,*6C
06/16/2015	16:04:32.510	$GPGGA,160433,2417.5696,N,08104.1476,W,1,10,1.3,23,M,,M,,*64
06/16/2015	16:04:33.530	$GPGGA,160434,2417.5710,N,08104.1466,W,1,10,1.3,23,M,,M,,*6D
06/16/2015	16:04:34.510	$GPGGA,160435,2417.5721,N,08104.1455,W,1,10,1.3,23,M,,M,,*6E
06/16/2015	16:04:35.539	$GPGGA,160436,2417.5735,N,08104.1447,W,1,11,1.3,23,M,,M,,*6A
06/16/2015	16:04:36.599	$GPGGA,160437,2417.5748,N,08104.1442,W,1,11,1.4,23,M,,M,,*63
06/16/2015	16:04:37.599	$GPGGA,160438,2417.5761,N,08104.1433,W,1,10,1.3,23,M,,M,,*67
06/16/2015	16:04:38.599	$GPGGA,160439,2417.5774,N,08104.1422,W,1,10,1.3,23,M,,M,,*62
06/16/2015	16:04:39.549	$GPGGA,160440,2417.5785,N,08104.1413,W,1,10,1.5,23,M,,M,,*66
06/16/2015	16:04:40.509	$GPGGA,160441,2417.5797,N,08104.1405,W,1,10,1.5,23,M,,M,,*63
06/16/2015	16:04:41.499	$GPGGA,160442,2417.5810,N,08104.1396,W,1,8,2.0,23,M,,M,,*52
06/16/2015	16:04:42.589	$GPGGA,160443,2417.5821,N,08104.1382,W,1,8,1.5,23,M,,M,,*52
06/16/2015	16:04:43.619	$GPGGA,160444,2417.5833,N,08104.1375,W,1,9,1.7,23,M,,M,,*5D
06/16/2015	16:04:44.493	$GPGGA,160445,2417.5844,N,08104.1364,W,1,9,1.3,23,M,,M,,*58
06/16/2015	16:04:45.590	$GPGGA,160446,2417.5857,N,08104.1355,W,1,10,1.5,23,M,,M,,*65
06/16/2015	16:04:46.580	$GPGGA,160447,2417.5869,N,08104.1346,W,1,10,1.4,23,M,,M,,*6A
06/16/2015	16:04:47.630	$GPGGA,160448,2417.5882,N,08104.1336,W,1,9,1.4,23,M,,M,,*5F
06/16/2015	16:04:48.581	$GPGGA,160449,2417.5893,N,08104.1325,W,1,9,1.5,23,M,,M,,*5D
06/16/2015	16:04:49.600	$GPGGA,160450,2417.5907,N,08104.1315,W,1,10,1.3,24,M,,M,,*63
06/16/2015	16:04:50.590	$GPGGA,160451,2417.5919,N,08104.1308,W,1,10,1.3,24,M,,M,,*61
06/16/2015	16:04:51.600	$GPGGA,160452,2417.5932,N,08104.1298,W,1,11,1.3,24,M,,M,,*62
06/16/2015	16:04:52.579	$GPGGA,160453,2417.5944,N,08104.1288,W,1,11,1.3,24,M,,M,,*63
06/16/2015	16:04:53.589	$GPGGA,160454,2417.5956,N,08104.1280,W,1,10,1.3,24,M,,M,,*6E
06/16/2015	16:04:54.580	$GPGGA,160455,2417.5969,N,08104.1272,W,1,10,1.3,24,M,,M,,*6E
06/16/2015	16:04:55.619	$GPGGA,160456,2417.5981,N,08104.1263,W,1,10,1.3,24,M,,M,,*6B
06/16/2015	16:04:56.559	$GPGGA,160457,2417.5994,N,08104.1257,W,1,10,1.5,24,M,,M,,*6F
06/16/2015	16:04:57.582	$GPGGA,160458,2417.6008,N,08104.1250,W,1,10,1.4,24,M,,M,,*69
06/16/2015	16:04:58.559	$GPGGA,160459,2417.6021,N,08104.1241,W,1,10,1.3,24,M,,M,,*64
06/16/2015	16:04:59.599	$GPGGA,160500,2417.6034,N,08104.1236,W,1,11,1.3,24,M,,M,,*6C
06/16/2015	16:05:00.849	$GPGGA,160501,2417.6046,N,08104.1230,W,1,11,1.3,24,M,,M,,*6E
06/16/2015	16:05:01.550	$GPGGA,160502,2417.6059,N,08104.1221,W,1,11,1.3,24,M,,M,,*63
06/16/2015	16:05:02.560	$GPGGA,160503,2417.6071,N,08104.1210,W,1,11,1.4,24,M,,M,,*6D
06/16/2015	16:05:03.610	$GPGGA,160504,2417.6082,N,08104.1202,W,1,11,1.3,23,M,,M,,*65
06/16/2015	16:05:04.550	$GPGGA,160505,2417.6096,N,08104.1197,W,1,11,1.3,23,M,,M,,*6E
06/16/2015	16:05:05.540	$GPGGA,160506,2417.6107,N,08104.1187,W,1,11,1.3,23,M,,M,,*65
06/16/2015	16:05:06.550	$GPGGA,160507,2417.6118,N,08104.1175,W,1,11,1.4,23,M,,M,,*60
06/16/2015	16:05:07.583	$GPGGA,160508,2417.6129,N,08104.1164,W,1,10,1.5,23,M,,M,,*6D
06/16/2015	16:05:08.530	$GPGGA,160509,2417.6142,N,08104.1157,W,1,10,1.3,23,M,,M,,*67
06/16/2015	16:05:09.569	$GPGGA,160510,2417.6154,N,08104.1147,W,1,10,1.5,23,M,,M,,*6F
06/16/2015	16:05:10.529	$GPGGA,160511,2417.6165,N,08104.1138,W,1,10,1.5,23,M,,M,,*64
06/16/2015	16:05:11.569	$GPGGA,160512,2417.6176,N,08104.1127,W,1,10,1.5,23,M,,M,,*6B
06/16/2015	16:05:12.529	$GPGGA,160513,2417.6187,N,08104.1118,W,1,10,1.3,23,M,,M,,*6E
06/16/2015	16:05:13.559	$GPGGA,160514,2417.6198,N,08104.1108,W,1,10,1.5,23,M,,M,,*60
06/16/2015	16:05:14.519	$GPGGA,160515,2417.6211,N,08104.1100,W,1,10,1.5,23,M,,M,,*6B
06/16/2015	16:05:15.649	$GPGGA,160516,2417.6223,N,08104.1092,W,1,11,1.3,23,M,,M,,*64
06/16/2015	16:05:16.529	$GPGGA,160517,2417.6234,N,08104.1080,W,1,11,1.3,23,M,,M,,*60
06/16/2015	16:05:17.539	$GPGGA,160518,2417.6245,N,08104.1072,W,1,11,1.3,23,M,,M,,*64
06/16/2015	16:05:18.529	$GPGGA,160519,2417.6259,N,08104.1064,W,1,11,1.5,23,M,,M,,*69
06/16/2015	16:05:19.550	$GPGGA,160520,2417.6270,N,08104.1054,W,1,10,1.5,23,M,,M,,*6A
06/16/2015	16:05:20.520	$GPGGA,160521,2417.6281,N,08104.1043,W,1,10,1.5,23,M,,M,,*63
06/16/2015	16:05:21.530	$GPGGA,160522,2417.6294,N,08104.1034,W,1,10,1.5,23,M,,M,,*64
06/16/2015	16:05:22.610	$GPGGA,160523,2417.6306,N,08104.1027,W,1,10,1.5,23,M,,M,,*6D
06/16/2015	16:05:23.550	$GPGGA,160524,2417.6319,N,08104.1016,W,1,10,1.5,23,M,,M,,*66
06/16/2015	16:05:24.620	$GPGGA,160525,2417.6330,N,08104.1006,W,1,10,1.5,23,M,,M,,*6D
06/16/2015	16:05:25.530	$GPGGA,160526,2417.6342,N,08104.0999,W,1,10,1.5,23,M,,M,,*65
06/16/2015	16:05:26.520	$GPGGA,160527,2417.6356,N,08104.0992,W,1,10,1.5,23,M,,M,,*6A
06/16/2015	16:05:27.919	$GPGGA,160528,2417.6367,N,08104.0982,W,1,9,1.7,23,M,,M,,*5C
06/16/2015	16:05:28.509	$GPGGA,160529,2417.6380,N,08104.0973,W,1,9,1.5,23,M,,M,,*58
06/16/2015	16:05:29.504	$GPGGA,160530,2417.6393,N,08104.0965,W,1,10,1.5,23,M,,M,,*6D
06/16/2015	16:05:30.500	$GPGGA,160531,2417.6404,N,08104.0955,W,1,10,1.5,23,M,,M,,*66
06/16/2015	16:05:31.502	$GPGGA,160532,2417.6417,N,08104.0945,W,1,9,1.6,23,M,,M,,*5D
06/16/2015	16:05:32.497	$GPGGA,160533,2417.6429,N,08104.0937,W,1,9,1.3,23,M,,M,,*51
06/16/2015	16:05:33.579	$GPGGA,160534,2417.6440,N,08104.0928,W,1,10,1.5,22,M,,M,,*68
06/16/2015	16:05:34.579	$GPGGA,160535,2417.6453,N,08104.0918,W,1,10,1.3,22,M,,M,,*6E
06/16/2015	16:05:35.982	$GPGGA,160536,2417.6467,N,08104.0908,W,1,9,1.4,22,M,,M,,*54
06/16/2015	16:05:36.571	$GPGGA,160537,2417.6479,N,08104.0897,W,1,9,2.0,22,M,,M,,*5A
06/16/2015	16:05:37.600	$GPGGA,160538,2417.6490,N,08104.0887,W,1,9,1.6,22,M,,M,,*56
06/16/2015	16:05:38.583	$GPGGA,160539,2417.6503,N,08104.0878,W,1,9,1.3,22,M,,M,,*59
06/16/2015	16:05:39.630	$GPGGA,160540,2417.6515,N,08104.0868,W,1,10,1.3,23,M,,M,,*68
06/16/2015	16:05:40.580	$GPGGA,160541,2417.6526,N,08104.0856,W,1,10,1.3,23,M,,M,,*64
06/16/2015	16:05:41.590	$GPGGA,160542,2417.6537,N,08104.0846,W,1,9,1.6,23,M,,M,,*5B
06/16/2015	16:05:42.560	$GPGGA,160543,2417.6552,N,08104.0838,W,1,9,1.7,23,M,,M,,*51
06/16/2015	16:05:43.591	$GPGGA,160544,2417.6563,N,08104.0825,W,1,9,1.6,23,M,,M,,*59
06/16/2015	16:05:44.559	$GPGGA,160545,2417.6576,N,08104.0815,W,1,9,1.5,23,M,,M,,*5C
06/16/2015	16:05:45.579	$GPGGA,160546,2417.6588,N,08104.0808,W,1,9,1.7,23,M,,M,,*50
06/16/2015	16:05:46.559	$GPGGA,160547,2417.6602,N,08104.0799,W,1,9,1.3,23,M,,M,,*53
06/16/2015	16:05:47.591	$GPGGA,160548,2417.6613,N,08104.0791,W,1,9,1.6,23,M,,M,,*51
06/16/2015	16:05:48.559	$GPGGA,160549,2417.6624,N,08104.0779,W,1,9,1.3,23,M,,M,,*57
06/16/2015	16:05:49.539	$GPGGA,160550,2417.6638,N,08104.0768,W,1,11,1.3,23,M,,M,,*6B
06/16/2015	16:05:50.549	$GPGGA,160551,2417.6652,N,08104.0759,W,1,11,1.3,23,M,,M,,*64
06/16/2015	16:05:51.559	$GPGGA,160552,2417.6664,N,08104.0750,W,1,11,1.3,23,M,,M,,*6B
06/16/2015	16:05:52.539	$GPGGA,160553,2417.6675,N,08104.0739,W,1,11,1.3,23,M,,M,,*65
06/16/2015	16:05:53.570	$GPGGA,160554,2417.6689,N,08104.0731,W,1,10,1.5,23,M,,M,,*6E
06/16/2015	16:05:54.530	$GPGGA,160555,2417.6700,N,08104.0723,W,1,10,1.3,23,M,,M,,*6A
06/16/2015	16:05:55.550	$GPGGA,160556,2417.6713,N,08104.0715,W,1,11,1.3,23,M,,M,,*6F
06/16/2015	16:05:56.550	$GPGGA,160557,2417.6725,N,08104.0705,W,1,11,1.3,23,M,,M,,*6A
06/16/2015	16:05:57.550	$GPGGA,160558,2417.6736,N,08104.0697,W,1,10,1.5,23,M,,M,,*6A
06/16/2015	16:05:58.530	$GPGGA,160559,2417.6747,N,08104.0690,W,1,10,1.5,23,M,,M,,*6A
06/16/2015	16:05:59.580	$GPGGA,160600,2417.6761,N,08104.0680,W,1,10,1.5,23,M,,M,,*60
06/16/2015	16:06:00.520	$GPGGA,160601,2417.6772,N,08104.0670,W,1,10,1.5,23,M,,M,,*6C
06/16/2015	16:06:01.550	$GPGGA,160602,2417.6783,N,08104.0661,W,1,10,1.5,23,M,,M,,*61
06/16/2015	16:06:02.519	$GPGGA,160603,2417.6794,N,08104.0652,W,1,10,1.5,23,M,,M,,*66
06/16/2015	16:06:03.549	$GPGGA,160604,2417.6807,N,08104.0641,W,1,10,1.5,23,M,,M,,*66
06/16/2015	16:06:04.509	$GPGGA,160605,2417.6819,N,08104.0634,W,1,10,1.3,23,M,,M,,*6C
06/16/2015	16:06:05.619	$GPGGA,160606,2417.6833,N,08104.0629,W,1,9,1.5,23,M,,M,,*55
06/16/2015	16:06:06.619	$GPGGA,160607,2417.6848,N,08104.0623,W,1,9,1.5,23,M,,M,,*52
06/16/2015	16:06:07.669	$GPGGA,160608,2417.6861,N,08104.0616,W,1,10,1.5,23,M,,M,,*68
06/16/2015	16:06:08.599	$GPGGA,160609,2417.6873,N,08104.0608,W,1,10,1.3,23,M,,M,,*63
06/16/2015	16:06:09.509	$GPGGA,160610,2417.6887,N,08104.0601,W,1,11,1.3,23,M,,M,,*68
06/16/2015	16:06:10.588	$GPGGA,160611,2417.6898,N,08104.0593,W,1,11,1.5,23,M,,M,,*69
06/16/2015	16:06:11.979	$GPGGA,160612,2417.6911,N,08104.0587,W,1,10,1.3,23,M,,M,,*68
06/16/2015	16:06:12.619	$GPGGA,160613,2417.6924,N,08104.0578,W,1,10,1.5,23,M,,M,,*69
06/16/2015	16:06:13.599	$GPGGA,160614,2417.6935,N,08104.0567,W,1,10,1.3,23,M,,M,,*66
06/16/2015	16:06:14.499	$GPGGA,160615,2417.6946,N,08104.0558,W,1,10,1.3,23,M,,M,,*6F
06/16/2015	16:06:15.639	$GPGGA,160616,2417.6959,N,08104.0552,W,1,11,1.3,23,M,,M,,*69
06/16/2015	16:06:16.649	$GPGGA,160617,2417.6971,N,08104.0542,W,1,11,1.3,23,M,,M,,*63
06/16/2015	16:06:17.619	$GPGGA,160618,2417.6982,N,08104.0531,W,1,11,1.3,22,M,,M,,*65
06/16/2015	16:06:18.586	$GPGGA,160619,2417.6995,N,08104.0522,W,1,11,1.5,22,M,,M,,*66
06/16/2015	16:06:19.658	$GPGGA,160620,2417.7007,N,08104.0516,W,1,10,1.3,22,M,,M,,*6F
06/16/2015	16:06:20.586	$GPGGA,160621,2417.7020,N,08104.0507,W,1,10,1.3,22,M,,M,,*6B
06/16/2015	16:06:21.589	$GPGGA,160622,2417.7031,N,08104.0495,W,1,11,1.5,22,M,,M,,*65
06/16/2015	16:06:22.588	$GPGGA,160623,2417.7043,N,08104.0488,W,1,11,1.7,22,M,,M,,*6F
06/16/2015	16:06:23.609	$GPGGA,160624,2417.7054,N,08104.0480,W,1,9,1.5,22,M,,M,,*5D
06/16/2015	16:06:24.574	$GPGGA,160625,2417.7067,N,08104.0469,W,1,9,1.3,22,M,,M,,*5D
06/16/2015	16:06:25.586	$GPGGA,160626,2417.7079,N,08104.0460,W,1,11,1.3,22,M,,M,,*61
06/16/2015	16:06:26.559	$GPGGA,160627,2417.7090,N,08104.0452,W,1,11,1.3,22,M,,M,,*66
06/16/2015	16:06:27.587	$GPGGA,160628,2417.7103,N,08104.0444,W,1,11,1.3,22,M,,M,,*65
06/16/2015	16:06:28.559	$GPGGA,160629,2417.7115,N,08104.0435,W,1,11,1.3,22,M,,M,,*65
06/16/2015	16:06:29.585	$GPGGA,160630,2417.7126,N,08104.0427,W,1,11,1.3,22,M,,M,,*6E
06/16/2015	16:06:30.559	$GPGGA,160631,2417.7140,N,08104.0417,W,1,11,1.3,22,M,,M,,*6C
06/16/2015	16:06:31.594	$GPGGA,160632,2417.7150,N,08104.0410,W,1,10,1.3,22,M,,M,,*68
06/16/2015	16:06:32.559	$GPGGA,160633,2417.7162,N,08104.0403,W,1,10,1.3,22,M,,M,,*6A
06/16/2015	16:06:33.549	$GPGGA,160634,2417.7175,N,08104.0393,W,1,10,1.3,22,M,,M,,*65
06/16/2015	16:06:34.549	$GPGGA,160635,2417.7188,N,08104.0382,W,1,10,1.3,22,M,,M,,*66
06/16/2015	16:06:35.619	$GPGGA,160636,2417.7198,N,08104.0374,W,1,11,1.5,21,M,,M,,*69
06/16/2015	16:06:36.549	$GPGGA,160637,2417.7212,N,08104.0364,W,1,11,1.3,21,M,,M,,*6E
06/16/2015	16:06:37.538	$GPGGA,160638,2417.7224,N,08104.0355,W,1,10,1.3,21,M,,M,,*67
06/16/2015	16:06:38.548	$GPGGA,160639,2417.7235,N,08104.0345,W,1,10,1.3,21,M,,M,,*67
06/16/2015	16:06:39.571	$GPGGA,160640,2417.7249,N,08104.0336,W,1,11,1.3,21,M,,M,,*67
06/16/2015	16:06:40.539	$GPGGA,160641,2417.7262,N,08104.0328,W,1,11,1.7,21,M,,M,,*64
06/16/2015	16:06:41.539	$GPGGA,160642,2417.7274,N,08104.0319,W,1,9,1.3,22,M,,M,,*5C
06/16/2015	16:06:42.539	$GPGGA,160643,2417.7285,N,08104.0309,W,1,9,1.5,22,M,,M,,*54
06/16/2015	16:06:43.559	$GPGGA,160644,2417.7298,N,08104.0300,W,1,10,1.7,22,M,,M,,*6C
06/16/2015	16:06:44.519	$GPGGA,160645,2417.7310,N,08104.0291,W,1,10,1.6,22,M,,M,,*64
06/16/2015	16:06:45.549	$GPGGA,160646,2417.7324,N,08104.0284,W,1,9,1.3,22,M,,M,,*59
06/16/2015	16:06:46.529	$GPGGA,160647,2417.7338,N,08104.0276,W,1,9,1.3,22,M,,M,,*58
06/16/2015	16:06:47.559	$GPGGA,160648,2417.7350,N,08104.0265,W,1,11,1.3,22,M,,M,,*62
06/16/2015	16:06:48.539	$GPGGA,160649,2417.7361,N,08104.0256,W,1,11,1.5,22,M,,M,,*67
06/16/2015	16:06:49.540	$GPGGA,160650,2417.7375,N,08104.0249,W,1,11,1.3,22,M,,M,,*62
06/16/2015	16:06:50.529	$GPGGA,160651,2417.7389,N,08104.0239,W,1,11,1.3,22,M,,M,,*67
06/16/2015	16:06:51.649	$GPGGA,160652,2417.7389,N,08104.0239,W,1,12,1.3,22,M,,M,,*67
06/16/2015	16:06:52.629	$GPGGA,160653,2417.7414,N,08104.0221,W,1,12,1.3,22,M,,M,,*6C
06/16/2015	16:06:53.629	$GPGGA,160654,2417.7428,N,08104.0215,W,1,11,1.3,22,M,,M,,*60
06/16/2015	16:06:54.538	$GPGGA,160655,2417.7440,N,08104.0206,W,1,11,1.3,22,M,,M,,*6D
06/16/2015	16:06:55.648	$GPGGA,160656,2417.7453,N,08104.0196,W,1,12,1.3,22,M,,M,,*65
06/16/2015	16:06:56.528	$GPGGA,160657,2417.7466,N,08104.0188,W,1,12,1.3,22,M,,M,,*6D
06/16/2015	16:06:57.619	$GPGGA,160658,2417.7479,N,08104.0179,W,1,11,1.3,22,M,,M,,*61
06/16/2015	16:06:58.519	$GPGGA,160659,2417.7491,N,08104.0171,W,1,11,1.3,22,M,,M,,*6E
06/16/2015	16:06:59.559	$GPGGA,160700,2417.7504,N,08104.0164,W,1,11,1.3,22,M,,M,,*6A
06/16/2015	16:07:00.589	$GPGGA,160701,2417.7516,N,08104.0156,W,1,11,1.3,22,M,,M,,*69
06/16/2015	16:07:01.499	$GPGGA,160702,2417.7527,N,08104.0146,W,1,12,1.3,22,M,,M,,*6A
06/16/2015	16:07:02.499	$GPGGA,160703,2417.7541,N,08104.0137,W,1,12,1.3,21,M,,M,,*6E
06/16/2015	16:07:03.629	$GPGGA,160704,2417.7552,N,08104.0131,W,1,11,1.4,21,M,,M,,*69
06/16/2015	16:07:04.589	$GPGGA,160705,2417.7566,N,08104.0121,W,1,11,1.4,21,M,,M,,*6E
06/16/2015	16:07:05.589	$GPGGA,160706,2417.7578,N,08104.0110,W,1,12,1.3,21,M,,M,,*64
06/16/2015	16:07:06.569	$GPGGA,160707,2417.7592,N,08104.0102,W,1,12,1.3,21,M,,M,,*62
06/16/2015	16:07:07.579	$GPGGA,160708,2417.7605,N,08104.0095,W,1,12,1.3,21,M,,M,,*6F
06/16/2015	16:07:08.579	$GPGGA,160709,2417.7618,N,08104.0085,W,1,12,1.3,21,M,,M,,*63
06/16/2015	16:07:09.572	$GPGGA,160710,2417.7631,N,08104.0076,W,1,12,1.3,21,M,,M,,*6C
06/16/2015	16:07:10.559	$GPGGA,160711,2417.7643,N,08104.0067,W,1,12,1.3,21,M,,M,,*68
06/16/2015	16:07:11.580	$GPGGA,160712,2417.7656,N,08104.0056,W,1,11,1.3,21,M,,M,,*6E
06/16/2015	16:07:12.568	$GPGGA,160713,2417.7668,N,08104.0046,W,1,11,1.3,21,M,,M,,*63
06/16/2015	16:07:13.569	$GPGGA,160714,2417.7682,N,08104.0037,W,1,12,1.3,21,M,,M,,*65
06/16/2015	16:07:14.569	$GPGGA,160715,2417.7695,N,08104.0028,W,1,12,1.3,21,M,,M,,*6C
06/16/2015	16:07:16.599	$GPGGA,160717,2417.7719,N,08104.0009,W,1,12,1.3,21,M,,M,,*68
06/16/2015	16:07:17.549	$GPGGA,160718,2417.7732,N,08104.0001,W,1,11,1.5,21,M,,M,,*63
06/16/2015	16:07:18.559	$GPGGA,160719,2417.7744,N,08103.9991,W,1,11,1.3,22,M,,M,,*68
06/16/2015	16:07:19.589	$GPGGA,160720,2417.7757,N,08103.9983,W,1,11,1.3,22,M,,M,,*63
06/16/2015	16:07:20.559	$GPGGA,160721,2417.7768,N,08103.9975,W,1,11,1.3,22,M,,M,,*67
06/16/2015	16:07:21.539	$GPGGA,160722,2417.7779,N,08103.9966,W,1,11,1.3,22,M,,M,,*66
06/16/2015	16:07:22.559	$GPGGA,160723,2417.7793,N,08103.9960,W,1,11,1.6,22,M,,M,,*60
06/16/2015	16:07:23.570	$GPGGA,160724,2417.7804,N,08103.9951,W,1,11,1.3,22,M,,M,,*61
06/16/2015	16:07:24.539	$GPGGA,160725,2417.7816,N,08103.9943,W,1,11,1.3,22,M,,M,,*60
06/16/2015	16:07:25.529	$GPGGA,160726,2417.7827,N,08103.9932,W,1,12,1.3,22,M,,M,,*64
06/16/2015	16:07:26.539	$GPGGA,160727,2417.7838,N,08103.9921,W,1,12,1.3,22,M,,M,,*69
06/16/2015	16:07:27.569	$GPGGA,160728,2417.7851,N,08103.9913,W,1,11,1.5,22,M,,M,,*6D
06/16/2015	16:07:28.539	$GPGGA,160729,2417.7863,N,08103.9903,W,1,11,1.5,22,M,,M,,*6C
06/16/2015	16:07:29.558	$GPGGA,160730,2417.7874,N,08103.9890,W,1,12,1.3,22,M,,M,,*6C
06/16/2015	16:07:30.518	$GPGGA,160731,2417.7885,N,08103.9878,W,1,12,1.3,22,M,,M,,*65
06/16/2015	16:07:31.572	$GPGGA,160732,2417.7896,N,08103.9869,W,1,12,1.3,22,M,,M,,*64
06/16/2015	16:07:32.529	$GPGGA,160733,2417.7909,N,08103.9860,W,1,12,1.3,22,M,,M,,*6B
06/16/2015	16:07:33.559	$GPGGA,160734,2417.7921,N,08103.9848,W,1,12,1.3,22,M,,M,,*6C
06/16/2015	16:07:34.509	$GPGGA,160735,2417.7934,N,08103.9834,W,1,12,1.7,22,M,,M,,*66
06/16/2015	16:07:35.539	$GPGGA,160736,2417.7946,N,08103.9824,W,1,11,1.5,22,M,,M,,*60
06/16/2015	16:07:36.519	$GPGGA,160737,2417.7960,N,08103.9815,W,1,11,1.5,22,M,,M,,*67
06/16/2015	16:07:37.519	$GPGGA,160738,2417.7971,N,08103.9803,W,1,12,1.3,22,M,,M,,*6A
06/16/2015	16:07:38.499	$GPGGA,160739,2417.7984,N,08103.9792,W,1,12,1.3,22,M,,M,,*66
06/16/2015	16:07:39.530	$GPGGA,160740,2417.7997,N,08103.9784,W,1,12,1.3,22,M,,M,,*6D
06/16/2015	16:07:40.509	$GPGGA,160741,2417.8011,N,08103.9776,W,1,12,1.5,22,M,,M,,*6F
06/16/2015	16:07:41.629	$GPGGA,160742,2417.8022,N,08103.9765,W,1,12,1.3,22,M,,M,,*68
06/16/2015	16:07:42.509	$GPGGA,160743,2417.8036,N,08103.9756,W,1,12,1.5,22,M,,M,,*6A
06/16/2015	16:07:43.629	$GPGGA,160744,2417.8049,N,08103.9747,W,1,12,1.3,22,M,,M,,*63
06/16/2015	16:07:44.589	$GPGGA,160745,2417.8062,N,08103.9738,W,1,12,1.3,22,M,,M,,*63
06/16/2015	16:07:45.619	$GPGGA,160746,2417.8076,N,08103.9729,W,1,12,1.3,23,M,,M,,*64
06/16/2015	16:07:46.599	$GPGGA,160747,2417.8089,N,08103.9721,W,1,12,1.3,23,M,,M,,*6D
06/16/2015	16:07:47.508	$GPGGA,160748,2417.8102,N,08103.9712,W,1,12,1.3,23,M,,M,,*60
06/16/2015	16:07:48.489	$GPGGA,160749,2417.8115,N,08103.9703,W,1,12,1.3,23,M,,M,,*67
06/16/2015	16:07:49.582	$GPGGA,160750,2417.8127,N,08103.9693,W,1,10,1.6,23,M,,M,,*61
06/16/2015	16:07:50.589	$GPGGA,160751,2417.8140,N,08103.9684,W,1,10,1.5,23,M,,M,,*64
06/16/2015	16:07:51.599	$GPGGA,160752,2417.8152,N,08103.9675,W,1,11,1.5,23,M,,M,,*6B
06/16/2015	16:07:52.581	$GPGGA,160753,2417.8165,N,08103.9664,W,1,11,1.3,23,M,,M,,*68
06/16/2015	16:07:53.589	$GPGGA,160754,2417.8177,N,08103.9655,W,1,12,1.3,23,M,,M,,*6D
06/16/2015	16:07:54.581	$GPGGA,160755,2417.8191,N,08103.9647,W,1,12,1.5,23,M,,M,,*61
06/16/2015	16:07:55.619	$GPGGA,160756,2417.8205,N,08103.9637,W,1,10,1.6,23,M,,M,,*6A
06/16/2015	16:07:56.576	$GPGGA,160757,2417.8217,N,08103.9627,W,1,10,1.3,23,M,,M,,*6C
06/16/2015	16:07:57.589	$GPGGA,160758,2417.8232,N,08103.9620,W,1,12,1.3,23,M,,M,,*61
06/16/2015	16:07:58.571	$GPGGA,160759,2417.8246,N,08103.9613,W,1,12,1.3,23,M,,M,,*63
06/16/2015	16:07:59.599	$GPGGA,160800,2417.8257,N,08103.9603,W,1,11,1.3,23,M,,M,,*62
06/16/2015	16:08:00.571	$GPGGA,160801,2417.8270,N,08103.9593,W,1,11,1.3,23,M,,M,,*6C
06/16/2015	16:08:01.574	$GPGGA,160802,2417.8284,N,08103.9584,W,1,12,1.3,23,M,,M,,*61
06/16/2015	16:08:02.559	$GPGGA,160803,2417.8297,N,08103.9577,W,1,12,1.3,23,M,,M,,*6E
06/16/2015	16:08:03.589	$GPGGA,160804,2417.8310,N,08103.9567,W,1,12,1.3,23,M,,M,,*66
06/16/2015	16:08:04.548	$GPGGA,160805,2417.8322,N,08103.9556,W,1,12,1.3,23,M,,M,,*64
06/16/2015	16:08:05.575	$GPGGA,160806,2417.8336,N,08103.9547,W,1,12,1.3,22,M,,M,,*63
06/16/2015	16:08:06.559	$GPGGA,160807,2417.8350,N,08103.9540,W,1,12,1.3,22,M,,M,,*65
06/16/2015	16:08:07.549	$GPGGA,160808,2417.8362,N,08103.9531,W,1,11,1.3,22,M,,M,,*6E
06/16/2015	16:08:08.549	$GPGGA,160809,2417.8375,N,08103.9521,W,1,11,1.3,22,M,,M,,*68
06/16/2015	16:08:09.539	$GPGGA,160810,2417.8387,N,08103.9512,W,1,12,1.3,22,M,,M,,*6E
06/16/2015	16:08:10.549	$GPGGA,160811,2417.8400,N,08103.9503,W,1,12,1.3,22,M,,M,,*67
06/16/2015	16:08:11.539	$GPGGA,160812,2417.8412,N,08103.9491,W,1,11,1.5,22,M,,M,,*68
06/16/2015	16:08:12.549	$GPGGA,160813,2417.8426,N,08103.9483,W,1,11,1.5,22,M,,M,,*6D
06/16/2015	16:08:13.559	$GPGGA,160814,2417.8438,N,08103.9474,W,1,12,1.3,22,M,,M,,*68
06/16/2015	16:08:14.529	$GPGGA,160815,2417.8452,N,08103.9463,W,1,12,1.3,22,M,,M,,*63
06/16/2015	16:08:15.549	$GPGGA,160816,2417.8465,N,08103.9454,W,1,12,1.3,22,M,,M,,*60
06/16/2015	16:08:16.529	$GPGGA,160817,2417.8477,N,08103.9446,W,1,12,1.3,22,M,,M,,*61
06/16/2015	16:08:17.529	$GPGGA,160818,2417.8491,N,08103.9436,W,1,12,1.3,22,M,,M,,*61
06/16/2015	16:08:18.529	$GPGGA,160819,2417.8503,N,08103.9425,W,1,12,1.3,22,M,,M,,*68
06/16/2015	16:08:19.539	$GPGGA,160820,2417.8516,N,08103.9416,W,1,11,1.3,22,M,,M,,*65
06/16/2015	16:08:20.639	$GPGGA,160821,2417.8528,N,08103.9407,W,1,11,1.3,22,M,,M,,*69
06/16/2015	16:08:21.549	$GPGGA,160822,2417.8541,N,08103.9397,W,1,12,1.3,22,M,,M,,*68
06/16/2015	16:08:22.528	$GPGGA,160823,2417.8553,N,08103.9387,W,1,12,1.3,22,M,,M,,*6B
06/16/2015	16:08:23.649	$GPGGA,160824,2417.8567,N,08103.9378,W,1,11,1.3,22,M,,M,,*68
06/16/2015	16:08:24.529	$GPGGA,160825,2417.8579,N,08103.9370,W,1,11,1.3,22,M,,M,,*6E
06/16/2015	16:08:25.629	$GPGGA,160826,2417.8593,N,08103.9359,W,1,12,1.3,22,M,,M,,*61
06/16/2015	16:08:26.609	$GPGGA,160827,2417.8606,N,08103.9348,W,1,12,1.3,22,M,,M,,*6F
06/16/2015	16:08:27.509	$GPGGA,160828,2417.8618,N,08103.9340,W,1,12,1.3,22,M,,M,,*67
06/16/2015	16:08:28.609	$GPGGA,160829,2417.8632,N,08103.9331,W,1,12,1.3,22,M,,M,,*68
06/16/2015	16:08:29.639	$GPGGA,160830,2417.8644,N,08103.9323,W,1,12,1.3,22,M,,M,,*62
06/16/2015	16:08:30.509	$GPGGA,160831,2417.8658,N,08103.9313,W,1,12,1.3,22,M,,M,,*6D
06/16/2015	16:08:31.599	$GPGGA,160832,2417.8671,N,08103.9303,W,1,12,1.3,22,M,,M,,*64
06/16/2015	16:08:32.509	$GPGGA,160833,2417.8683,N,08103.9296,W,1,12,1.3,22,M,,M,,*65
06/16/2015	16:08:33.619	$GPGGA,160834,2417.8697,N,08103.9288,W,1,11,1.3,22,M,,M,,*6B
06/16/2015	16:08:34.589	$GPGGA,160835,2417.8709,N,08103.9278,W,1,11,1.3,22,M,,M,,*63
06/16/2015	16:08:35.629	$GPGGA,160836,2417.8722,N,08103.9268,W,1,12,1.3,22,M,,M,,*6B
06/16/2015	16:08:36.919	$GPGGA,160837,2417.8734,N,08103.9260,W,1,12,1.3,22,M,,M,,*65
06/16/2015	16:08:37.609	$GPGGA,160838,2417.8748,N,08103.9252,W,1,12,1.3,22,M,,M,,*60
06/16/2015	16:08:38.570	$GPGGA,160839,2417.8761,N,08103.9241,W,1,12,1.3,22,M,,M,,*68
06/16/2015	16:08:39.608	$GPGGA,160840,2417.8772,N,08103.9230,W,1,12,1.3,22,M,,M,,*62
06/16/2015	16:08:40.568	$GPGGA,160841,2417.8784,N,08103.9223,W,1,12,1.3,22,M,,M,,*68
06/16/2015	16:08:41.585	$GPGGA,160842,2417.8797,N,08103.9214,W,1,12,1.3,22,M,,M,,*6D
06/16/2015	16:08:42.570	$GPGGA,160843,2417.8810,N,08103.9202,W,1,12,1.3,22,M,,M,,*6B
06/16/2015	16:08:43.609	$GPGGA,160844,2417.8821,N,08103.9194,W,1,12,1.3,22,M,,M,,*62
06/16/2015	16:08:44.574	$GPGGA,160845,2417.8834,N,08103.9187,W,1,12,1.3,22,M,,M,,*65
06/16/2015	16:08:45.581	$GPGGA,160846,2417.8846,N,08103.9176,W,1,12,1.3,22,M,,M,,*6D
06/16/2015	16:08:46.573	$GPGGA,160847,2417.8857,N,08103.9165,W,1,12,1.5,22,M,,M,,*68
06/16/2015	16:08:47.599	$GPGGA,160848,2417.8867,N,08103.9157,W,1,12,1.3,22,M,,M,,*63
06/16/2015	16:08:48.569	$GPGGA,160849,2417.8881,N,08103.9147,W,1,12,1.3,22,M,,M,,*6B
06/16/2015	16:08:49.559	$GPGGA,160850,2417.8892,N,08103.9136,W,1,11,1.3,22,M,,M,,*64
06/16/2015	16:08:50.559	$GPGGA,160851,2417.8903,N,08103.9128,W,1,11,1.3,22,M,,M,,*63
06/16/2015	16:08:51.583	$GPGGA,160852,2417.8914,N,08103.9119,W,1,12,1.3,22,M,,M,,*67
06/16/2015	16:08:52.549	$GPGGA,160853,2417.8927,N,08103.9108,W,1,12,1.3,22,M,,M,,*66
06/16/2015	16:08:53.569	$GPGGA,160854,2417.8939,N,08103.9097,W,1,12,1.3,22,M,,M,,*69
06/16/2015	16:08:54.549	$GPGGA,160855,2417.8951,N,08103.9089,W,1,12,1.3,22,M,,M,,*69
06/16/2015	16:08:55.572	$GPGGA,160856,2417.8964,N,08103.9081,W,1,12,1.3,22,M,,M,,*64
06/16/2015	16:08:56.559	$GPGGA,160857,2417.8976,N,08103.9070,W,1,12,1.3,22,M,,M,,*68
06/16/2015	16:08:57.581	$GPGGA,160858,2417.8989,N,08103.9060,W,1,12,1.3,22,M,,M,,*66
06/16/2015	16:08:58.528	$GPGGA,160859,2417.9001,N,08103.9053,W,1,12,1.3,22,M,,M,,*6F
06/16/2015	16:08:59.549	$GPGGA,160900,2417.9014,N,08103.9044,W,1,12,1.3,22,M,,M,,*60
06/16/2015	16:09:00.529	$GPGGA,160901,2417.9026,N,08103.9034,W,1,12,1.3,23,M,,M,,*66
06/16/2015	16:09:01.529	$GPGGA,160902,2417.9040,N,08103.9025,W,1,12,1.3,23,M,,M,,*65
06/16/2015	16:09:02.692	$GPGGA,160903,2417.9051,N,08103.9017,W,1,12,1.3,23,M,,M,,*65
06/16/2015	16:09:03.549	$GPGGA,160904,2417.9063,N,08103.9008,W,1,12,1.3,23,M,,M,,*6D
06/16/2015	16:09:04.539	$GPGGA,160905,2417.9076,N,08103.8998,W,1,12,1.3,23,M,,M,,*69
06/16/2015	16:09:05.519	$GPGGA,160906,2417.9088,N,08103.8989,W,1,12,1.3,23,M,,M,,*6B
06/16/2015	16:09:06.693	$GPGGA,160907,2417.9101,N,08103.8981,W,1,12,1.5,23,M,,M,,*64
06/16/2015	16:09:07.690	$GPGGA,160908,2417.9113,N,08103.8971,W,1,12,1.3,23,M,,M,,*61
06/16/2015	16:09:08.519	$GPGGA,160909,2417.9124,N,08103.8963,W,1,12,1.3,23,M,,M,,*67
06/16/2015	16:09:09.519	$GPGGA,160910,2417.9138,N,08103.8955,W,1,12,1.3,23,M,,M,,*67
06/16/2015	16:09:10.609	$GPGGA,160911,2417.9151,N,08103.8944,W,1,12,1.3,23,M,,M,,*69
06/16/2015	16:09:11.519	$GPGGA,160912,2417.9163,N,08103.8936,W,1,12,1.3,23,M,,M,,*6E
06/16/2015	16:09:12.609	$GPGGA,160913,2417.9175,N,08103.8928,W,1,12,1.3,23,M,,M,,*67
06/16/2015	16:09:13.499	$GPGGA,160914,2417.9189,N,08103.8918,W,1,12,1.3,23,M,,M,,*60
06/16/2015	16:09:14.598	$GPGGA,160915,2417.9202,N,08103.8909,W,1,12,1.3,23,M,,M,,*61
06/16/2015	16:09:15.508	$GPGGA,160916,2417.9214,N,08103.8899,W,1,12,1.3,22,M,,M,,*6C
06/16/2015	16:09:16.589	$GPGGA,160917,2417.9227,N,08103.8890,W,1,12,1.3,22,M,,M,,*64
06/16/2015	16:09:17.639	$GPGGA,160918,2417.9239,N,08103.8881,W,1,11,1.3,22,M,,M,,*67
06/16/2015	16:09:18.684	$GPGGA,160919,2417.9251,N,08103.8871,W,1,11,1.3,22,M,,M,,*67
06/16/2015	16:09:19.519	$GPGGA,160920,2417.9265,N,08103.8862,W,1,11,1.3,22,M,,M,,*68
06/16/2015	16:09:20.676	$GPGGA,160921,2417.9278,N,08103.8854,W,1,11,1.3,22,M,,M,,*60
06/16/2015	16:09:21.589	$GPGGA,160922,2417.9290,N,08103.8844,W,1,11,1.3,22,M,,M,,*64
06/16/2015	16:09:22.660	$GPGGA,160923,2417.9303,N,08103.8835,W,1,11,1.3,22,M,,M,,*68
06/16/2015	16:09:23.675	$GPGGA,160924,2417.9315,N,08103.8825,W,1,11,1.3,22,M,,M,,*69
06/16/2015	16:09:24.629	$GPGGA,160925,2417.9329,N,08103.8815,W,1,11,1.3,22,M,,M,,*64
06/16/2015	16:09:25.629	$GPGGA,160926,2417.9341,N,08103.8806,W,1,11,1.3,22,M,,M,,*6B
06/16/2015	16:09:26.577	$GPGGA,160927,2417.9355,N,08103.8798,W,1,11,1.3,22,M,,M,,*67
06/16/2015	16:09:27.649	$GPGGA,160928,2417.9368,N,08103.8788,W,1,11,1.3,22,M,,M,,*67
06/16/2015	16:09:28.572	$GPGGA,160929,2417.9380,N,08103.8777,W,1,11,1.3,22,M,,M,,*60
06/16/2015	16:09:29.609	$GPGGA,160930,2417.9394,N,08103.8769,W,1,11,1.3,22,M,,M,,*62
06/16/2015	16:09:30.619	$GPGGA,160931,2417.9406,N,08103.8761,W,1,11,1.3,22,M,,M,,*67
06/16/2015	16:09:31.629	$GPGGA,160932,2417.9419,N,08103.8748,W,1,11,1.3,22,M,,M,,*61
06/16/2015	16:09:32.618	$GPGGA,160933,2417.9431,N,08103.8737,W,1,11,1.3,22,M,,M,,*62
06/16/2015	16:09:33.608	$GPGGA,160934,2417.9445,N,08103.8730,W,1,11,1.3,22,M,,M,,*61
06/16/2015	16:09:34.639	$GPGGA,160935,2417.9458,N,08103.8721,W,1,11,1.3,22,M,,M,,*6C
06/16/2015	16:09:35.559	$GPGGA,160936,2417.9470,N,08103.8709,W,1,11,1.3,22,M,,M,,*6F
06/16/2015	16:09:36.619	$GPGGA,160937,2417.9482,N,08103.8699,W,1,11,1.3,22,M,,M,,*6B
06/16/2015	16:09:37.549	$GPGGA,160938,2417.9495,N,08103.8690,W,1,11,1.3,22,M,,M,,*6B
06/16/2015	16:09:38.609	$GPGGA,160939,2417.9507,N,08103.8679,W,1,11,1.3,22,M,,M,,*67
06/16/2015	16:09:39.549	$GPGGA,160940,2417.9520,N,08103.8671,W,1,11,1.3,21,M,,M,,*67
06/16/2015	16:09:40.549	$GPGGA,160941,2417.9532,N,08103.8662,W,1,11,1.3,21,M,,M,,*67
06/16/2015	16:09:41.539	$GPGGA,160942,2417.9546,N,08103.8651,W,1,11,1.3,21,M,,M,,*67
06/16/2015	16:09:42.609	$GPGGA,160943,2417.9557,N,08103.8641,W,1,11,1.3,21,M,,M,,*67
06/16/2015	16:09:43.619	$GPGGA,160944,2417.9571,N,08103.8635,W,1,11,1.3,21,M,,M,,*67
06/16/2015	16:09:44.539	$GPGGA,160945,2417.9583,N,08103.8627,W,1,11,1.3,21,M,,M,,*68
06/16/2015	16:09:45.549	$GPGGA,160946,2417.9596,N,08103.8615,W,1,11,1.3,21,M,,M,,*6E
06/16/2015	16:09:46.599	$GPGGA,160947,2417.9608,N,08103.8606,W,1,11,1.3,21,M,,M,,*69
06/16/2015	16:09:47.539	$GPGGA,160948,2417.9621,N,08103.8599,W,1,10,1.3,21,M,,M,,*69
06/16/2015	16:09:48.589	$GPGGA,160949,2417.9633,N,08103.8588,W,1,10,1.3,21,M,,M,,*6B
06/16/2015	16:09:49.558	$GPGGA,160950,2417.9644,N,08103.8579,W,1,11,1.3,21,M,,M,,*6C
06/16/2015	16:09:50.518	$GPGGA,160951,2417.9657,N,08103.8571,W,1,11,1.3,21,M,,M,,*67
06/16/2015	16:09:51.599	$GPGGA,160952,2417.9669,N,08103.8560,W,1,11,1.6,21,M,,M,,*6C
06/16/2015	16:09:52.519	$GPGGA,160953,2417.9682,N,08103.8549,W,1,11,1.6,21,M,,M,,*63
06/16/2015	16:09:53.559	$GPGGA,160954,2417.9693,N,08103.8541,W,1,11,1.3,21,M,,M,,*69
06/16/2015	16:09:54.580	$GPGGA,160955,2417.9706,N,08103.8533,W,1,11,1.3,21,M,,M,,*60
06/16/2015	16:09:55.579	$GPGGA,160956,2417.9719,N,08103.8523,W,1,11,1.3,21,M,,M,,*6C
06/16/2015	16:09:56.579	$GPGGA,160957,2417.9731,N,08103.8512,W,1,11,1.3,21,M,,M,,*65
06/16/2015	16:09:57.539	$GPGGA,160958,2417.9742,N,08103.8503,W,1,11,1.3,21,M,,M,,*6E
06/16/2015	16:09:58.499	$GPGGA,160959,2417.9756,N,08103.8496,W,1,11,1.3,21,M,,M,,*67
06/16/2015	16:09:59.589	$GPGGA,161000,2417.9769,N,08103.8487,W,1,11,1.3,21,M,,M,,*6F
06/16/2015	16:10:00.619	$GPGGA,161001,2417.9781,N,08103.8476,W,1,11,1.3,21,M,,M,,*66
06/16/2015	16:10:01.629	$GPGGA,161002,2417.9792,N,08103.8467,W,1,11,1.6,21,M,,M,,*62
06/16/2015	16:10:02.499	$GPGGA,161003,2417.9805,N,08103.8462,W,1,11,1.6,21,M,,M,,*67
06/16/2015	16:10:03.609	$GPGGA,161004,2417.9818,N,08103.8453,W,1,11,1.3,21,M,,M,,*6B
06/16/2015	16:10:04.570	$GPGGA,161005,2417.9831,N,08103.8442,W,1,11,1.3,21,M,,M,,*61
06/16/2015	16:10:05.589	$GPGGA,161006,2417.9843,N,08103.8433,W,1,11,1.3,21,M,,M,,*61
06/16/2015	16:10:06.559	$GPGGA,161007,2417.9856,N,08103.8427,W,1,11,1.3,20,M,,M,,*60
06/16/2015	16:10:07.608	$GPGGA,161008,2417.9868,N,08103.8419,W,1,11,1.3,20,M,,M,,*6F
06/16/2015	16:10:08.558	$GPGGA,161009,2417.9879,N,08103.8408,W,1,11,1.3,20,M,,M,,*6E
06/16/2015	16:10:09.589	$GPGGA,161010,2417.9892,N,08103.8398,W,1,11,1.3,20,M,,M,,*6D
06/16/2015	16:10:10.579	$GPGGA,161011,2417.9904,N,08103.8391,W,1,11,1.3,20,M,,M,,*6B
06/16/2015	16:10:11.629	$GPGGA,161012,2417.9917,N,08103.8383,W,1,11,1.3,20,M,,M,,*69
06/16/2015	16:10:12.579	$GPGGA,161013,2417.9928,N,08103.8373,W,1,11,1.3,20,M,,M,,*6B
06/16/2015	16:10:13.589	$GPGGA,161014,2417.9940,N,08103.8362,W,1,11,1.4,20,M,,M,,*65
06/16/2015	16:10:14.589	$GPGGA,161015,2417.9954,N,08103.8354,W,1,11,1.3,20,M,,M,,*63
06/16/2015	16:10:15.589	$GPGGA,161016,2417.9966,N,08103.8347,W,1,11,1.3,20,M,,M,,*63
06/16/2015	16:10:16.589	$GPGGA,161017,2417.9979,N,08103.8337,W,1,11,1.3,20,M,,M,,*6B
06/16/2015	16:10:17.609	$GPGGA,161018,2417.9991,N,08103.8326,W,1,11,1.6,20,M,,M,,*67
06/16/2015	16:10:18.579	$GPGGA,161019,2418.0002,N,08103.8316,W,1,11,1.6,20,M,,M,,*60
06/16/2015	16:10:19.599	$GPGGA,161020,2418.0013,N,08103.8307,W,1,10,1.3,20,M,,M,,*6E
06/16/2015	16:10:20.569	$GPGGA,161021,2418.0023,N,08103.8294,W,1,10,1.3,20,M,,M,,*67
06/16/2015	16:10:21.579	$GPGGA,161022,2418.0036,N,08103.8284,W,1,11,1.3,20,M,,M,,*60
06/16/2015	16:10:22.571	$GPGGA,161023,2418.0048,N,08103.8275,W,1,11,1.3,20,M,,M,,*66
06/16/2015	16:10:23.609	$GPGGA,161024,2418.0060,N,08103.8267,W,1,11,1.3,20,M,,M,,*68
06/16/2015	16:10:24.568	$GPGGA,161025,2418.0060,N,08103.8267,W,1,11,1.3,20,M,,M,,*69
06/16/2015	16:10:25.571	$GPGGA,161026,2418.0085,N,08103.8246,W,1,11,1.6,20,M,,M,,*67
06/16/2015	16:10:26.559	$GPGGA,161027,2418.0098,N,08103.8238,W,1,11,1.3,20,M,,M,,*66
06/16/2015	16:10:27.579	$GPGGA,161028,2418.0110,N,08103.8228,W,1,11,1.3,20,M,,M,,*69
06/16/2015	16:10:28.579	$GPGGA,161029,2418.0123,N,08103.8218,W,1,11,1.3,20,M,,M,,*6B
06/16/2015	16:10:29.539	$GPGGA,161030,2418.0135,N,08103.8208,W,1,11,1.6,20,M,,M,,*60
06/16/2015	16:10:30.559	$GPGGA,161031,2418.0135,N,08103.8208,W,1,11,1.6,20,M,,M,,*61
06/16/2015	16:10:31.571	$GPGGA,161032,2418.0161,N,08103.8190,W,1,11,1.3,20,M,,M,,*64
06/16/2015	16:10:32.539	$GPGGA,161033,2418.0161,N,08103.8190,W,1,11,1.3,20,M,,M,,*65
06/16/2015	16:10:33.569	$GPGGA,161034,2418.0186,N,08103.8169,W,1,10,1.3,20,M,,M,,*6C
06/16/2015	16:10:34.549	$GPGGA,161035,2418.0186,N,08103.8169,W,1,10,1.3,20,M,,M,,*6D
06/16/2015	16:10:35.579	$GPGGA,161036,2418.0211,N,08103.8151,W,1,11,1.3,20,M,,M,,*69
06/16/2015	16:10:36.559	$GPGGA,161037,2418.0225,N,08103.8141,W,1,11,1.3,20,M,,M,,*6E
06/16/2015	16:10:37.549	$GPGGA,161038,2418.0237,N,08103.8132,W,1,11,1.3,20,M,,M,,*66
06/16/2015	16:10:38.619	$GPGGA,161039,2418.0251,N,08103.8124,W,1,11,1.3,20,M,,M,,*60
06/16/2015	16:10:39.549	$GPGGA,161040,2418.0265,N,08103.8115,W,1,11,1.3,20,M,,M,,*6B
06/16/2015	16:10:40.571	$GPGGA,161041,2418.0277,N,08103.8106,W,1,11,1.3,20,M,,M,,*6B
06/16/2015	16:10:41.519	$GPGGA,161042,2418.0291,N,08103.8097,W,1,11,1.3,20,M,,M,,*69
06/16/2015	16:10:42.618	$GPGGA,161043,2418.0304,N,08103.8087,W,1,11,1.3,20,M,,M,,*64
06/16/2015	16:10:43.638	$GPGGA,161044,2418.0318,N,08103.8079,W,1,11,1.3,20,M,,M,,*6F
06/16/2015	16:10:44.529	$GPGGA,161045,2418.0318,N,08103.8079,W,1,11,1.3,20,M,,M,,*6E
06/16/2015	16:10:45.629	$GPGGA,161046,2418.0342,N,08103.8058,W,1,10,1.4,20,M,,M,,*67
06/16/2015	16:10:46.519	$GPGGA,161047,2418.0342,N,08103.8058,W,1,10,1.6,20,M,,M,,*64
06/16/2015	16:10:47.619	$GPGGA,161048,2418.0369,N,08103.8043,W,1,11,1.3,20,M,,M,,*6C
06/16/2015	16:10:48.519	$GPGGA,161049,2418.0381,N,08103.8031,W,1,11,1.3,20,M,,M,,*6E
06/16/2015	16:10:49.619	$GPGGA,161050,2418.0394,N,08103.8022,W,1,11,1.3,20,M,,M,,*60
06/16/2015	16:10:50.519	$GPGGA,161051,2418.0394,N,08103.8022,W,1,11,1.3,20,M,,M,,*61
06/16/2015	16:10:51.629	$GPGGA,161052,2418.0421,N,08103.8005,W,1,11,1.3,20,M,,M,,*6E
06/16/2015	16:10:52.589	$GPGGA,161053,2418.0432,N,08103.7994,W,1,11,1.3,20,M,,M,,*63
06/16/2015	16:10:53.501	$GPGGA,161054,2418.0443,N,08103.7984,W,1,11,1.3,20,M,,M,,*63
06/16/2015	16:10:54.609	$GPGGA,161055,2418.0457,N,08103.7976,W,1,11,1.3,20,M,,M,,*6A
06/16/2015	16:10:55.619	$GPGGA,161056,2418.0470,N,08103.7967,W,1,10,1.3,20,M,,M,,*6D
06/16/2015	16:10:56.582	$GPGGA,161057,2418.0482,N,08103.7956,W,1,10,1.3,20,M,,M,,*63
06/16/2015	16:10:57.599	$GPGGA,161058,2418.0495,N,08103.7947,W,1,11,1.3,20,M,,M,,*6B
06/16/2015	16:10:58.599	$GPGGA,161059,2418.0506,N,08103.7937,W,1,11,1.3,20,M,,M,,*66
06/16/2015	16:10:59.618	$GPGGA,161100,2418.0518,N,08103.7927,W,1,11,1.3,20,M,,M,,*65
06/16/2015	16:11:00.587	$GPGGA,161101,2418.0531,N,08103.7918,W,1,11,1.3,20,M,,M,,*63
06/16/2015	16:11:01.599	$GPGGA,161102,2418.0543,N,08103.7909,W,1,11,1.3,20,M,,M,,*65
06/16/2015	16:11:02.570	$GPGGA,161103,2418.0555,N,08103.7898,W,1,11,1.3,20,M,,M,,*6A
06/16/2015	16:11:03.599	$GPGGA,161104,2418.0569,N,08103.7888,W,1,11,1.3,20,M,,M,,*63
06/16/2015	16:11:04.590	$GPGGA,161105,2418.0580,N,08103.7879,W,1,11,1.3,20,M,,M,,*6B
06/16/2015	16:11:05.559	$GPGGA,161106,2418.0594,N,08103.7869,W,1,11,1.3,20,M,,M,,*6C
06/16/2015	16:11:06.559	$GPGGA,161107,2418.0607,N,08103.7859,W,1,11,1.3,20,M,,M,,*67
06/16/2015	16:11:07.573	$GPGGA,161108,2418.0619,N,08103.7850,W,1,11,1.3,20,M,,M,,*6E
06/16/2015	16:11:08.570	$GPGGA,161109,2418.0631,N,08103.7840,W,1,11,1.3,20,M,,M,,*64
06/16/2015	16:11:09.583	$GPGGA,161110,2418.0644,N,08103.7831,W,1,11,1.3,20,M,,M,,*68
06/16/2015	16:11:10.609	$GPGGA,161111,2418.0656,N,08103.7822,W,1,11,1.3,20,M,,M,,*68
06/16/2015	16:11:11.585	$GPGGA,161112,2418.0669,N,08103.7811,W,1,11,1.3,20,M,,M,,*67
06/16/2015	16:11:12.549	$GPGGA,161113,2418.0681,N,08103.7803,W,1,11,1.3,20,M,,M,,*63
06/16/2015	16:11:13.584	$GPGGA,161114,2418.0694,N,08103.7796,W,1,11,1.3,20,M,,M,,*63
06/16/2015	16:11:14.549	$GPGGA,161115,2418.0706,N,08103.7786,W,1,11,1.3,20,M,,M,,*69
06/16/2015	16:11:15.583	$GPGGA,161116,2418.0719,N,08103.7775,W,1,11,1.3,20,M,,M,,*68
06/16/2015	16:11:16.549	$GPGGA,161117,2418.0731,N,08103.7768,W,1,11,1.3,20,M,,M,,*6F
06/16/2015	16:11:17.574	$GPGGA,161118,2418.0743,N,08103.7760,W,1,11,1.3,20,M,,M,,*6D
06/16/2015	16:11:18.548	$GPGGA,161119,2418.0757,N,08103.7750,W,1,11,1.3,20,M,,M,,*6A
06/16/2015	16:11:19.549	$GPGGA,161120,2418.0768,N,08103.7740,W,1,11,1.3,20,M,,M,,*6D
06/16/2015	16:11:20.549	$GPGGA,161121,2418.0784,N,08103.7733,W,1,11,1.4,20,M,,M,,*6D
06/16/2015	16:11:21.539	$GPGGA,161122,2418.0797,N,08103.7726,W,1,11,1.3,20,M,,M,,*6F
06/16/2015	16:11:22.530	$GPGGA,161123,2418.0808,N,08103.7716,W,1,11,1.3,20,M,,M,,*64
06/16/2015	16:11:23.549	$GPGGA,161124,2418.0822,N,08103.7707,W,1,11,1.3,20,M,,M,,*6B
06/16/2015	16:11:24.519	$GPGGA,161125,2418.0836,N,08103.7699,W,1,11,1.3,20,M,,M,,*69
06/16/2015	16:11:25.530	$GPGGA,161126,2418.0849,N,08103.7690,W,1,11,1.3,20,M,,M,,*6B
06/16/2015	16:11:26.519	$GPGGA,161127,2418.0862,N,08103.7682,W,1,11,1.3,20,M,,M,,*60
06/16/2015	16:11:27.549	$GPGGA,161128,2418.0875,N,08103.7673,W,1,11,1.3,20,M,,M,,*67
06/16/2015	16:11:28.529	$GPGGA,161129,2418.0887,N,08103.7662,W,1,11,1.3,20,M,,M,,*6B
06/16/2015	16:11:29.629	$GPGGA,161130,2418.0900,N,08103.7654,W,1,11,1.3,20,M,,M,,*68
06/16/2015	16:11:30.529	$GPGGA,161131,2418.0912,N,08103.7647,W,1,11,1.3,20,M,,M,,*68
06/16/2015	16:11:31.549	$GPGGA,161132,2418.0926,N,08103.7635,W,1,11,1.3,20,M,,M,,*69
06/16/2015	16:11:32.619	$GPGGA,161133,2418.0938,N,08103.7626,W,1,11,1.3,20,M,,M,,*65
06/16/2015	16:11:33.599	$GPGGA,161134,2418.0951,N,08103.7619,W,1,11,1.3,20,M,,M,,*61
06/16/2015	16:11:34.508	$GPGGA,161135,2418.0963,N,08103.7610,W,1,11,1.3,20,M,,M,,*68
06/16/2015	16:11:35.508	$GPGGA,161136,2418.0976,N,08103.7599,W,1,11,1.3,20,M,,M,,*6D
06/16/2015	16:11:36.519	$GPGGA,161137,2418.0988,N,08103.7591,W,1,11,1.3,20,M,,M,,*65
06/16/2015	16:11:37.599	$GPGGA,161138,2418.1002,N,08103.7583,W,1,11,1.3,20,M,,M,,*63
06/16/2015	16:11:38.519	$GPGGA,161139,2418.1014,N,08103.7574,W,1,11,1.3,20,M,,M,,*6D
06/16/2015	16:11:39.599	$GPGGA,161140,2418.1027,N,08103.7564,W,1,11,1.3,20,M,,M,,*62
06/16/2015	16:11:40.589	$GPGGA,161141,2418.1041,N,08103.7556,W,1,11,1.3,20,M,,M,,*62
06/16/2015	16:11:41.619	$GPGGA,161142,2418.1053,N,08103.7548,W,1,11,1.3,20,M,,M,,*6D
06/16/2015	16:11:42.589	$GPGGA,161143,2418.1066,N,08103.7539,W,1,11,1.3,20,M,,M,,*6C
