Software Version Number: 1	Data File Format Number: 1	Build Version Number: 1	Error Count Since VI Started: 3	Manufacturer: Raytheon	 Model Number: RayMarine 120	 S/N: 	 Cal Date: 	 Wind Direction Offset: 0.00	 Slope (M)1: 0.00	 Offset (B)1: 0.00	 Slope (M)2: 0.00	 Offset (B)2: 0.00	 Slope (M)3: 0.00	 Offset (B)3: 0.00	 Slope (M)4: 0.00	 Offset (B)4: 0.00	 Slope (M)5: 0.00	 Offset (B)5: 0.00	 Slope (M)6: 0.00	 Offset (B)6: 0.00
Computer Date	Computer Time	GGA String
06/26/2015	21:00:00.538	$GPGGA,210001,2613.9796,N,07956.1304,W,1,8,2.2,18,M,,M,,*5F
06/26/2015	21:00:01.538	$GPGGA,210002,2613.9798,N,07956.1315,W,1,9,2.2,18,M,,M,,*53
06/26/2015	21:00:02.548	$GPGGA,210003,2613.9802,N,07956.1326,W,1,9,2.2,18,M,,M,,*5E
06/26/2015	21:00:03.548	$GPGGA,210004,2613.9806,N,07956.1337,W,1,9,2.2,18,M,,M,,*5D
06/26/2015	21:00:04.538	$GPGGA,210005,2613.9809,N,07956.1348,W,1,9,2.2,18,M,,M,,*5B
06/26/2015	21:00:05.541	$GPGGA,210006,2613.9813,N,07956.1362,W,1,9,2.2,18,M,,M,,*5B
06/26/2015	21:00:06.522	$GPGGA,210007,2613.9814,N,07956.1374,W,1,9,2.2,18,M,,M,,*5A
06/26/2015	21:00:07.539	$GPGGA,210008,2613.9818,N,07956.1387,W,1,8,2.4,18,M,,M,,*52
06/26/2015	21:00:08.519	$GPGGA,210009,2613.9820,N,07956.1399,W,1,8,2.4,18,M,,M,,*57
06/26/2015	21:00:09.549	$GPGGA,210010,2613.9823,N,07956.1413,W,1,8,2.4,18,M,,M,,*59
06/26/2015	21:00:10.529	$GPGGA,210011,2613.9825,N,07956.1425,W,1,8,2.4,18,M,,M,,*5B
06/26/2015	21:00:11.539	$GPGGA,210012,2613.9832,N,07956.1436,W,1,8,2.4,18,M,,M,,*5C
06/26/2015	21:00:12.527	$GPGGA,210013,2613.9834,N,07956.1449,W,1,8,2.2,18,M,,M,,*55
06/26/2015	21:00:14.208	$GPGGA,210014,2613.9836,N,07956.1463,W,1,8,2.4,18,M,,M,,*5E
06/26/2015	21:00:14.609	$GPGGA,210015,2613.9838,N,07956.1475,W,1,8,2.4,18,M,,M,,*56
06/26/2015	21:00:15.558	$GPGGA,210016,2613.9839,N,07956.1488,W,1,8,2.4,18,M,,M,,*56
06/26/2015	21:00:16.508	$GPGGA,210017,2613.9841,N,07956.1500,W,1,8,2.4,18,M,,M,,*59
06/26/2015	21:00:17.628	$GPGGA,210018,2613.9843,N,07956.1514,W,1,8,2.4,18,M,,M,,*51
06/26/2015	21:00:18.508	$GPGGA,210019,2613.9846,N,07956.1526,W,1,8,2.2,18,M,,M,,*52
06/26/2015	21:00:19.621	$GPGGA,210020,2613.9849,N,07956.1539,W,1,9,2.2,18,M,,M,,*58
06/26/2015	21:00:20.598	$GPGGA,210021,2613.9850,N,07956.1551,W,1,9,2.2,18,M,,M,,*5F
06/26/2015	21:00:21.489	$GPGGA,210022,2613.9852,N,07956.1564,W,1,9,2.2,18,M,,M,,*58
06/26/2015	21:00:22.608	$GPGGA,210023,2613.9853,N,07956.1576,W,1,9,2.2,18,M,,M,,*5B
06/26/2015	21:00:23.622	$GPGGA,210024,2613.9854,N,07956.1589,W,1,9,2.2,17,M,,M,,*54
06/26/2015	21:00:24.589	$GPGGA,210025,2613.9857,N,07956.1600,W,1,9,2.2,17,M,,M,,*54
06/26/2015	21:00:25.589	$GPGGA,210026,2613.9859,N,07956.1613,W,1,9,2.2,17,M,,M,,*5B
06/26/2015	21:00:26.589	$GPGGA,210027,2613.9861,N,07956.1626,W,1,9,2.2,17,M,,M,,*57
06/26/2015	21:00:27.599	$GPGGA,210028,2613.9863,N,07956.1640,W,1,9,2.2,17,M,,M,,*5A
06/26/2015	21:00:28.489	$GPGGA,210029,2613.9864,N,07956.1651,W,1,9,2.2,17,M,,M,,*5C
06/26/2015	21:00:29.579	$GPGGA,210030,2613.9867,N,07956.1665,W,1,9,2.2,17,M,,M,,*50
06/26/2015	21:00:30.578	$GPGGA,210031,2613.9868,N,07956.1677,W,1,9,2.2,17,M,,M,,*5D
06/26/2015	21:00:31.608	$GPGGA,210032,2613.9867,N,07956.1688,W,1,9,2.2,17,M,,M,,*51
06/26/2015	21:00:32.578	$GPGGA,210033,2613.9870,N,07956.1701,W,1,9,2.2,17,M,,M,,*56
06/26/2015	21:00:33.568	$GPGGA,210034,2613.9872,N,07956.1713,W,1,8,2.4,16,M,,M,,*56
06/26/2015	21:00:34.578	$GPGGA,210035,2613.9874,N,07956.1727,W,1,8,2.2,16,M,,M,,*50
06/26/2015	21:00:35.598	$GPGGA,210036,2613.9875,N,07956.1738,W,1,9,2.2,16,M,,M,,*5D
06/26/2015	21:00:36.558	$GPGGA,210037,2613.9875,N,07956.1749,W,1,9,2.3,16,M,,M,,*5B
06/26/2015	21:00:37.568	$GPGGA,210038,2613.9876,N,07956.1763,W,1,9,2.2,16,M,,M,,*5E
06/26/2015	21:00:38.568	$GPGGA,210039,2613.9878,N,07956.1774,W,1,9,2.4,16,M,,M,,*51
06/26/2015	21:00:39.608	$GPGGA,210040,2613.9879,N,07956.1788,W,1,8,2.4,16,M,,M,,*5C
06/26/2015	21:00:40.559	$GPGGA,210041,2613.9879,N,07956.1799,W,1,8,2.4,15,M,,M,,*5E
06/26/2015	21:00:41.599	$GPGGA,210042,2613.9879,N,07956.1813,W,1,8,2.4,15,M,,M,,*50
06/26/2015	21:00:42.569	$GPGGA,210043,2613.9879,N,07956.1824,W,1,8,2.2,15,M,,M,,*53
06/26/2015	21:00:43.579	$GPGGA,210044,2613.9879,N,07956.1835,W,1,9,2.2,15,M,,M,,*55
06/26/2015	21:00:44.539	$GPGGA,210045,2613.9881,N,07956.1847,W,1,9,2.2,15,M,,M,,*56
06/26/2015	21:00:45.569	$GPGGA,210046,2613.9880,N,07956.1861,W,1,8,2.4,15,M,,M,,*57
06/26/2015	21:00:46.549	$GPGGA,210047,2613.9881,N,07956.1872,W,1,8,2.3,15,M,,M,,*52
06/26/2015	21:00:47.868	$GPGGA,210048,2613.9882,N,07956.1886,W,1,9,2.2,15,M,,M,,*55
06/26/2015	21:00:48.548	$GPGGA,210049,2613.9881,N,07956.1897,W,1,9,2.2,15,M,,M,,*57
06/26/2015	21:00:49.538	$GPGGA,210050,2613.9883,N,07956.1909,W,1,9,2.2,15,M,,M,,*5B
06/26/2015	21:00:50.538	$GPGGA,210051,2613.9883,N,07956.1922,W,1,9,2.2,15,M,,M,,*53
06/26/2015	21:00:51.568	$GPGGA,210052,2613.9883,N,07956.1936,W,1,9,2.2,15,M,,M,,*55
06/26/2015	21:00:52.528	$GPGGA,210053,2613.9883,N,07956.1948,W,1,9,2.2,15,M,,M,,*5D
06/26/2015	21:00:53.531	$GPGGA,210054,2613.9883,N,07956.1960,W,1,8,2.2,15,M,,M,,*51
06/26/2015	21:00:54.538	$GPGGA,210055,2613.9883,N,07956.1973,W,1,8,2.2,15,M,,M,,*52
06/26/2015	21:00:55.558	$GPGGA,210056,2613.9886,N,07956.1987,W,1,9,2.2,15,M,,M,,*5E
06/26/2015	21:00:56.534	$GPGGA,210057,2613.9888,N,07956.2001,W,1,9,2.2,15,M,,M,,*55
06/26/2015	21:00:57.519	$GPGGA,210058,2613.9889,N,07956.2012,W,1,8,2.3,15,M,,M,,*59
06/26/2015	21:00:58.509	$GPGGA,210059,2613.9890,N,07956.2025,W,1,8,2.2,15,M,,M,,*55
06/26/2015	21:00:59.559	$GPGGA,210100,2613.9892,N,07956.2038,W,1,9,2.2,15,M,,M,,*57
06/26/2015	21:01:00.534	$GPGGA,210101,2613.9893,N,07956.2052,W,1,9,2.2,15,M,,M,,*5B
06/26/2015	21:01:01.522	$GPGGA,210102,2613.9893,N,07956.2064,W,1,9,2.2,15,M,,M,,*5D
06/26/2015	21:01:02.519	$GPGGA,210103,2613.9894,N,07956.2078,W,1,9,2.2,15,M,,M,,*56
06/26/2015	21:01:03.535	$GPGGA,210104,2613.9896,N,07956.2090,W,1,9,2.2,15,M,,M,,*55
06/26/2015	21:01:04.509	$GPGGA,210105,2613.9897,N,07956.2104,W,1,9,2.4,15,M,,M,,*5F
06/26/2015	21:01:05.498	$GPGGA,210106,2613.9897,N,07956.2117,W,1,8,2.4,15,M,,M,,*5F
06/26/2015	21:01:06.598	$GPGGA,210107,2613.9900,N,07956.2131,W,1,8,2.4,15,M,,M,,*55
06/26/2015	21:01:07.508	$GPGGA,210108,2613.9901,N,07956.2143,W,1,8,2.4,15,M,,M,,*5E
06/26/2015	21:01:08.588	$GPGGA,210109,2613.9903,N,07956.2157,W,1,8,2.4,15,M,,M,,*58
06/26/2015	21:01:09.639	$GPGGA,210110,2613.9904,N,07956.2171,W,1,8,2.4,15,M,,M,,*53
06/26/2015	21:01:10.508	$GPGGA,210111,2613.9906,N,07956.2184,W,1,8,2.4,15,M,,M,,*5A
06/26/2015	21:01:11.588	$GPGGA,210112,2613.9908,N,07956.2197,W,1,8,2.4,15,M,,M,,*55
06/26/2015	21:01:12.498	$GPGGA,210113,2613.9910,N,07956.2211,W,1,8,2.4,15,M,,M,,*50
06/26/2015	21:01:13.638	$GPGGA,210114,2613.9911,N,07956.2225,W,1,8,2.4,15,M,,M,,*51
06/26/2015	21:01:14.658	$GPGGA,210115,2613.9914,N,07956.2237,W,1,8,2.2,15,M,,M,,*50
06/26/2015	21:01:15.659	$GPGGA,210116,2613.9917,N,07956.2251,W,1,9,2.2,15,M,,M,,*51
06/26/2015	21:01:16.647	$GPGGA,210117,2613.9919,N,07956.2265,W,1,9,2.2,15,M,,M,,*59
06/26/2015	21:01:17.922	$GPGGA,210118,2613.9921,N,07956.2279,W,1,8,2.4,15,M,,M,,*57
06/26/2015	21:01:18.620	$GPGGA,210119,2613.9922,N,07956.2291,W,1,8,2.4,15,M,,M,,*53
06/26/2015	21:01:19.659	$GPGGA,210120,2613.9925,N,07956.2305,W,1,8,2.3,15,M,,M,,*55
06/26/2015	21:01:20.643	$GPGGA,210121,2613.9926,N,07956.2319,W,1,8,2.2,15,M,,M,,*5B
06/26/2015	21:01:21.619	$GPGGA,210122,2613.9930,N,07956.2331,W,1,9,2.2,15,M,,M,,*54
06/26/2015	21:01:22.558	$GPGGA,210123,2613.9930,N,07956.2345,W,1,9,2.2,15,M,,M,,*56
06/26/2015	21:01:23.658	$GPGGA,210124,2613.9933,N,07956.2359,W,1,9,2.2,15,M,,M,,*5F
06/26/2015	21:01:24.558	$GPGGA,210125,2613.9937,N,07956.2374,W,1,9,2.2,15,M,,M,,*55
06/26/2015	21:01:25.648	$GPGGA,210126,2613.9939,N,07956.2388,W,1,9,2.2,15,M,,M,,*5B
06/26/2015	21:01:27.598	$GPGGA,210128,2613.9944,N,07956.2415,W,1,9,2.2,16,M,,M,,*5F
06/26/2015	21:01:28.608	$GPGGA,210129,2613.9947,N,07956.2429,W,1,9,2.2,16,M,,M,,*52
06/26/2015	21:01:29.588	$GPGGA,210130,2613.9950,N,07956.2443,W,1,9,2.2,16,M,,M,,*50
06/26/2015	21:01:30.634	$GPGGA,210131,2613.9951,N,07956.2457,W,1,9,2.2,16,M,,M,,*55
06/26/2015	21:01:31.608	$GPGGA,210132,2613.9955,N,07956.2471,W,1,9,2.2,16,M,,M,,*56
06/26/2015	21:01:32.599	$GPGGA,210133,2613.9958,N,07956.2486,W,1,9,2.2,16,M,,M,,*52
06/26/2015	21:01:33.533	$GPGGA,210134,2613.9961,N,07956.2500,W,1,9,2.2,16,M,,M,,*50
06/26/2015	21:01:34.599	$GPGGA,210135,2613.9964,N,07956.2514,W,1,9,2.1,16,M,,M,,*52
06/26/2015	21:01:36.859	$GPGGA,210136,2613.9966,N,07956.2529,W,1,9,2.1,16,M,,M,,*5D
06/26/2015	21:01:36.889	$GPGGA,210137,2613.9969,N,07956.2543,W,1,9,2.1,16,M,,M,,*5F
06/26/2015	21:01:37.579	$GPGGA,210138,2613.9973,N,07956.2556,W,1,9,2.1,16,M,,M,,*5F
06/26/2015	21:01:38.529	$GPGGA,210139,2613.9976,N,07956.2570,W,1,9,2.1,16,M,,M,,*5F
06/26/2015	21:01:39.589	$GPGGA,210140,2613.9977,N,07956.2585,W,1,9,2.1,16,M,,M,,*5A
06/26/2015	21:01:40.522	$GPGGA,210141,2613.9982,N,07956.2599,W,1,9,2.1,16,M,,M,,*5C
06/26/2015	21:01:41.538	$GPGGA,210142,2613.9984,N,07956.2613,W,1,9,2.1,16,M,,M,,*58
06/26/2015	21:01:42.533	$GPGGA,210143,2613.9987,N,07956.2628,W,1,9,2.1,16,M,,M,,*52
06/26/2015	21:01:43.578	$GPGGA,210144,2613.9988,N,07956.2642,W,1,9,2.1,16,M,,M,,*56
06/26/2015	21:01:44.638	$GPGGA,210145,2613.9991,N,07956.2657,W,1,9,2.1,16,M,,M,,*5B
06/26/2015	21:01:45.538	$GPGGA,210146,2613.9994,N,07956.2671,W,1,9,2.1,16,M,,M,,*59
06/26/2015	21:01:46.578	$GPGGA,210147,2613.9997,N,07956.2686,W,1,9,2.1,16,M,,M,,*53
06/26/2015	21:01:47.588	$GPGGA,210148,2613.9998,N,07956.2702,W,1,9,2.1,16,M,,M,,*5E
06/26/2015	21:01:48.508	$GPGGA,210149,2614.0002,N,07956.2715,W,1,9,2.1,16,M,,M,,*5D
06/26/2015	21:01:49.531	$GPGGA,210150,2614.0004,N,07956.2729,W,1,9,2.1,16,M,,M,,*5C
06/26/2015	21:01:50.559	$GPGGA,210151,2614.0006,N,07956.2743,W,1,9,2.1,16,M,,M,,*53
06/26/2015	21:01:51.579	$GPGGA,210152,2614.0009,N,07956.2757,W,1,9,2.1,16,M,,M,,*5A
06/26/2015	21:01:52.559	$GPGGA,210153,2614.0012,N,07956.2771,W,1,9,2.3,16,M,,M,,*57
06/26/2015	21:01:53.549	$GPGGA,210154,2614.0013,N,07956.2785,W,1,8,2.4,16,M,,M,,*5C
06/26/2015	21:01:54.629	$GPGGA,210155,2614.0013,N,07956.2800,W,1,8,2.4,16,M,,M,,*5F
06/26/2015	21:01:55.569	$GPGGA,210156,2614.0016,N,07956.2814,W,1,8,2.4,16,M,,M,,*5C
06/26/2015	21:01:56.559	$GPGGA,210157,2614.0016,N,07956.2827,W,1,8,2.4,16,M,,M,,*5D
06/26/2015	21:01:57.598	$GPGGA,210158,2614.0018,N,07956.2840,W,1,8,2.4,16,M,,M,,*5D
06/26/2015	21:01:58.558	$GPGGA,210159,2614.0022,N,07956.2854,W,1,8,2.1,16,M,,M,,*55
06/26/2015	21:01:59.638	$GPGGA,210200,2614.0023,N,07956.2869,W,1,9,2.1,16,M,,M,,*54
06/26/2015	21:02:00.598	$GPGGA,210201,2614.0024,N,07956.2883,W,1,9,2.4,16,M,,M,,*53
06/26/2015	21:02:01.578	$GPGGA,210202,2614.0027,N,07956.2897,W,1,8,2.5,16,M,,M,,*56
06/26/2015	21:02:02.878	$GPGGA,210203,2614.0029,N,07956.2910,W,1,8,2.4,16,M,,M,,*56
06/26/2015	21:02:03.638	$GPGGA,210204,2614.0030,N,07956.2924,W,1,8,2.4,16,M,,M,,*5E
06/26/2015	21:02:04.618	$GPGGA,210205,2614.0031,N,07956.2938,W,1,8,2.4,16,M,,M,,*53
06/26/2015	21:02:05.578	$GPGGA,210206,2614.0031,N,07956.2952,W,1,8,2.4,17,M,,M,,*5D
06/26/2015	21:02:06.588	$GPGGA,210207,2614.0034,N,07956.2966,W,1,8,2.4,17,M,,M,,*5E
06/26/2015	21:02:07.579	$GPGGA,210208,2614.0034,N,07956.2980,W,1,8,2.4,17,M,,M,,*59
06/26/2015	21:02:08.579	$GPGGA,210209,2614.0036,N,07956.2993,W,1,8,2.4,17,M,,M,,*58
06/26/2015	21:02:09.579	$GPGGA,210210,2614.0038,N,07956.3006,W,1,8,1.9,17,M,,M,,*54
06/26/2015	21:02:10.559	$GPGGA,210211,2614.0041,N,07956.3018,W,1,8,1.9,17,M,,M,,*54
06/26/2015	21:02:11.609	$GPGGA,210212,2614.0045,N,07956.3031,W,1,8,1.9,17,M,,M,,*58
06/26/2015	21:02:12.559	$GPGGA,210213,2614.0048,N,07956.3045,W,1,8,1.9,17,M,,M,,*57
06/26/2015	21:02:13.579	$GPGGA,210214,2614.0052,N,07956.3056,W,1,8,1.9,18,M,,M,,*56
06/26/2015	21:02:14.579	$GPGGA,210215,2614.0053,N,07956.3068,W,1,8,1.9,18,M,,M,,*5B
06/26/2015	21:02:15.578	$GPGGA,210216,2614.0056,N,07956.3082,W,1,8,1.9,18,M,,M,,*59
06/26/2015	21:02:16.578	$GPGGA,210217,2614.0056,N,07956.3094,W,1,8,1.9,18,M,,M,,*5F
06/26/2015	21:02:17.578	$GPGGA,210218,2614.0058,N,07956.3105,W,1,9,1.9,19,M,,M,,*57
06/26/2015	21:02:18.578	$GPGGA,210219,2614.0058,N,07956.3105,W,1,9,1.9,19,M,,M,,*56
06/26/2015	21:02:19.598	$GPGGA,210220,2614.0060,N,07956.3132,W,1,9,1.9,19,M,,M,,*53
06/26/2015	21:02:20.559	$GPGGA,210221,2614.0060,N,07956.3143,W,1,9,1.9,19,M,,M,,*54
06/26/2015	21:02:21.608	$GPGGA,210222,2614.0062,N,07956.3157,W,1,9,1.9,19,M,,M,,*50
06/26/2015	21:02:22.578	$GPGGA,210223,2614.0066,N,07956.3169,W,1,9,1.9,20,M,,M,,*52
06/26/2015	21:02:23.578	$GPGGA,210224,2614.0067,N,07956.3183,W,1,9,1.9,20,M,,M,,*50
06/26/2015	21:02:24.678	$GPGGA,210225,2614.0070,N,07956.3195,W,1,9,1.9,20,M,,M,,*50
06/26/2015	21:02:25.579	$GPGGA,210226,2614.0070,N,07956.3208,W,1,8,1.9,20,M,,M,,*55
06/26/2015	21:02:26.559	$GPGGA,210227,2614.0070,N,07956.3208,W,1,8,1.9,20,M,,M,,*54
06/26/2015	21:02:27.549	$GPGGA,210228,2614.0074,N,07956.3234,W,1,8,1.9,20,M,,M,,*50
06/26/2015	21:02:28.533	$GPGGA,210229,2614.0074,N,07956.3234,W,1,8,1.9,21,M,,M,,*50
06/26/2015	21:02:29.539	$GPGGA,210230,2614.0078,N,07956.3262,W,1,8,1.9,21,M,,M,,*57
06/26/2015	21:02:30.559	$GPGGA,210231,2614.0080,N,07956.3274,W,1,8,1.9,21,M,,M,,*56
06/26/2015	21:02:31.549	$GPGGA,210232,2614.0081,N,07956.3288,W,1,8,1.9,21,M,,M,,*57
06/26/2015	21:02:32.520	$GPGGA,210233,2614.0081,N,07956.3288,W,1,8,1.9,21,M,,M,,*56
06/26/2015	21:02:33.521	$GPGGA,210234,2614.0085,N,07956.3313,W,1,8,1.9,22,M,,M,,*55
06/26/2015	21:02:34.608	$GPGGA,210235,2614.0087,N,07956.3327,W,1,8,1.9,22,M,,M,,*51
06/26/2015	21:02:35.538	$GPGGA,210236,2614.0089,N,07956.3340,W,1,8,1.9,22,M,,M,,*5D
06/26/2015	21:02:36.598	$GPGGA,210237,2614.0092,N,07956.3354,W,1,8,1.9,22,M,,M,,*53
06/26/2015	21:02:37.525	$GPGGA,210238,2614.0094,N,07956.3367,W,1,8,1.9,22,M,,M,,*5A
06/26/2015	21:02:38.622	$GPGGA,210239,2614.0096,N,07956.3381,W,1,8,1.9,22,M,,M,,*51
06/26/2015	21:02:39.520	$GPGGA,210240,2614.0099,N,07956.3394,W,1,8,1.9,22,M,,M,,*54
06/26/2015	21:02:40.598	$GPGGA,210241,2614.0102,N,07956.3408,W,1,8,2.0,22,M,,M,,*5E
06/26/2015	21:02:41.488	$GPGGA,210242,2614.0103,N,07956.3422,W,1,8,1.9,22,M,,M,,*5E
06/26/2015	21:02:42.598	$GPGGA,210243,2614.0105,N,07956.3436,W,1,8,2.1,23,M,,M,,*56
06/26/2015	21:02:43.624	$GPGGA,210244,2614.0107,N,07956.3448,W,1,8,2.0,23,M,,M,,*5B
06/26/2015	21:02:44.589	$GPGGA,210245,2614.0109,N,07956.3461,W,1,8,1.9,23,M,,M,,*55
06/26/2015	21:02:45.579	$GPGGA,210246,2614.0110,N,07956.3475,W,1,8,1.9,23,M,,M,,*5B
06/26/2015	21:02:46.589	$GPGGA,210247,2614.0110,N,07956.3488,W,1,8,1.9,23,M,,M,,*58
06/26/2015	21:02:47.659	$GPGGA,210248,2614.0113,N,07956.3502,W,1,10,1.9,23,M,,M,,*6E
06/26/2015	21:02:48.579	$GPGGA,210249,2614.0116,N,07956.3517,W,1,10,1.9,23,M,,M,,*6E
06/26/2015	21:02:49.599	$GPGGA,210250,2614.0117,N,07956.3531,W,1,9,2.0,23,M,,M,,*51
06/26/2015	21:02:50.568	$GPGGA,210251,2614.0120,N,07956.3545,W,1,9,1.9,23,M,,M,,*5D
06/26/2015	21:02:51.598	$GPGGA,210252,2614.0121,N,07956.3559,W,1,10,1.9,23,M,,M,,*6A
06/26/2015	21:02:52.579	$GPGGA,210253,2614.0121,N,07956.3576,W,1,10,2.0,23,M,,M,,*6C
06/26/2015	21:02:53.578	$GPGGA,210254,2614.0125,N,07956.3589,W,1,9,2.0,23,M,,M,,*57
06/26/2015	21:02:54.568	$GPGGA,210255,2614.0128,N,07956.3603,W,1,9,1.9,23,M,,M,,*50
06/26/2015	21:02:55.608	$GPGGA,210256,2614.0130,N,07956.3617,W,1,10,1.9,23,M,,M,,*67
06/26/2015	21:02:56.568	$GPGGA,210257,2614.0132,N,07956.3632,W,1,10,1.9,23,M,,M,,*63
06/26/2015	21:02:57.578	$GPGGA,210258,2614.0135,N,07956.3646,W,1,10,1.9,23,M,,M,,*68
06/26/2015	21:02:58.568	$GPGGA,210259,2614.0138,N,07956.3661,W,1,10,1.9,24,M,,M,,*66
06/26/2015	21:02:59.619	$GPGGA,210300,2614.0139,N,07956.3675,W,1,10,1.9,24,M,,M,,*6F
06/26/2015	21:03:00.569	$GPGGA,210301,2614.0142,N,07956.3689,W,1,10,1.9,24,M,,M,,*61
06/26/2015	21:03:01.549	$GPGGA,210302,2614.0145,N,07956.3703,W,1,10,1.9,24,M,,M,,*66
06/26/2015	21:03:02.559	$GPGGA,210303,2614.0146,N,07956.3718,W,1,10,1.9,24,M,,M,,*6E
06/26/2015	21:03:03.579	$GPGGA,210304,2614.0149,N,07956.3732,W,1,10,1.9,24,M,,M,,*6E
06/26/2015	21:03:04.549	$GPGGA,210305,2614.0150,N,07956.3746,W,1,10,1.9,24,M,,M,,*64
06/26/2015	21:03:05.579	$GPGGA,210306,2614.0154,N,07956.3761,W,1,10,1.9,24,M,,M,,*66
06/26/2015	21:03:06.549	$GPGGA,210307,2614.0156,N,07956.3775,W,1,10,1.9,24,M,,M,,*60
06/26/2015	21:03:07.558	$GPGGA,210308,2614.0157,N,07956.3790,W,1,10,1.9,24,M,,M,,*65
06/26/2015	21:03:08.538	$GPGGA,210309,2614.0161,N,07956.3804,W,1,10,1.9,24,M,,M,,*63
06/26/2015	21:03:09.558	$GPGGA,210310,2614.0164,N,07956.3819,W,1,10,1.9,24,M,,M,,*62
06/26/2015	21:03:10.528	$GPGGA,210311,2614.0165,N,07956.3833,W,1,10,1.9,24,M,,M,,*6A
06/26/2015	21:03:11.568	$GPGGA,210312,2614.0168,N,07956.3847,W,1,10,1.9,23,M,,M,,*60
06/26/2015	21:03:12.538	$GPGGA,210313,2614.0171,N,07956.3860,W,1,10,1.9,23,M,,M,,*6C
06/26/2015	21:03:14.548	$GPGGA,210315,2614.0177,N,07956.3889,W,1,10,1.9,23,M,,M,,*6B
06/26/2015	21:03:15.519	$GPGGA,210316,2614.0179,N,07956.3903,W,1,10,1.9,23,M,,M,,*65
06/26/2015	21:03:16.528	$GPGGA,210317,2614.0182,N,07956.3917,W,1,10,1.9,23,M,,M,,*65
06/26/2015	21:03:17.498	$GPGGA,210318,2614.0185,N,07956.3932,W,1,10,1.9,23,M,,M,,*6A
06/26/2015	21:03:18.498	$GPGGA,210319,2614.0186,N,07956.3946,W,1,10,1.9,23,M,,M,,*6B
06/26/2015	21:03:19.528	$GPGGA,210320,2614.0189,N,07956.3960,W,1,10,1.9,23,M,,M,,*6A
06/26/2015	21:03:20.588	$GPGGA,210321,2614.0192,N,07956.3974,W,1,10,2.0,23,M,,M,,*6E
06/26/2015	21:03:21.628	$GPGGA,210322,2614.0195,N,07956.3988,W,1,9,2.0,23,M,,M,,*51
06/26/2015	21:03:22.608	$GPGGA,210323,2614.0197,N,07956.4000,W,1,9,2.1,23,M,,M,,*5D
06/26/2015	21:03:23.618	$GPGGA,210324,2614.0199,N,07956.4015,W,1,10,1.9,23,M,,M,,*63
06/26/2015	21:03:24.508	$GPGGA,210325,2614.0201,N,07956.4029,W,1,10,1.9,23,M,,M,,*6F
06/26/2015	21:03:25.608	$GPGGA,210326,2614.0204,N,07956.4043,W,1,9,1.9,23,M,,M,,*5D
06/26/2015	21:03:26.611	$GPGGA,210327,2614.0204,N,07956.4057,W,1,9,2.0,23,M,,M,,*53
06/26/2015	21:03:27.587	$GPGGA,210328,2614.0204,N,07956.4071,W,1,9,2.0,23,M,,M,,*58
06/26/2015	21:03:28.498	$GPGGA,210329,2614.0207,N,07956.4084,W,1,9,2.1,23,M,,M,,*51
06/26/2015	21:03:29.498	$GPGGA,210330,2614.0210,N,07956.4100,W,1,8,2.1,23,M,,M,,*53
06/26/2015	21:03:30.578	$GPGGA,210331,2614.0211,N,07956.4112,W,1,8,2.1,23,M,,M,,*50
06/26/2015	21:03:31.578	$GPGGA,210332,2614.0215,N,07956.4126,W,1,9,1.9,23,M,,M,,*5A
06/26/2015	21:03:32.568	$GPGGA,210333,2614.0217,N,07956.4140,W,1,9,1.9,23,M,,M,,*59
06/26/2015	21:03:33.568	$GPGGA,210334,2614.0219,N,07956.4155,W,1,9,1.9,23,M,,M,,*54
06/26/2015	21:03:34.578	$GPGGA,210335,2614.0222,N,07956.4167,W,1,9,2.0,23,M,,M,,*56
06/26/2015	21:03:35.625	$GPGGA,210336,2614.0224,N,07956.4181,W,1,8,2.0,23,M,,M,,*5A
06/26/2015	21:03:36.568	$GPGGA,210337,2614.0226,N,07956.4196,W,1,8,2.1,23,M,,M,,*5E
06/26/2015	21:03:37.588	$GPGGA,210338,2614.0228,N,07956.4210,W,1,9,1.9,23,M,,M,,*58
06/26/2015	21:03:38.548	$GPGGA,210339,2614.0229,N,07956.4224,W,1,9,2.1,22,M,,M,,*55
06/26/2015	21:03:39.614	$GPGGA,210340,2614.0232,N,07956.4238,W,1,9,1.9,22,M,,M,,*57
06/26/2015	21:03:40.558	$GPGGA,210341,2614.0233,N,07956.4252,W,1,9,2.1,22,M,,M,,*50
06/26/2015	21:03:41.568	$GPGGA,210342,2614.0235,N,07956.4267,W,1,9,1.9,22,M,,M,,*58
06/26/2015	21:03:42.547	$GPGGA,210343,2614.0236,N,07956.4279,W,1,9,1.9,22,M,,M,,*55
06/26/2015	21:03:43.577	$GPGGA,210344,2614.0240,N,07956.4293,W,1,9,1.9,22,M,,M,,*57
06/26/2015	21:03:44.557	$GPGGA,210345,2614.0243,N,07956.4308,W,1,9,1.9,22,M,,M,,*56
06/26/2015	21:03:45.537	$GPGGA,210346,2614.0246,N,07956.4321,W,1,8,2.1,22,M,,M,,*51
06/26/2015	21:03:46.548	$GPGGA,210347,2614.0247,N,07956.4335,W,1,8,1.9,22,M,,M,,*5F
06/26/2015	21:03:47.558	$GPGGA,210348,2614.0248,N,07956.4350,W,1,8,2.1,22,M,,M,,*57
06/26/2015	21:03:48.538	$GPGGA,210349,2614.0251,N,07956.4364,W,1,8,1.9,22,M,,M,,*52
06/26/2015	21:03:49.538	$GPGGA,210350,2614.0254,N,07956.4379,W,1,10,1.9,22,M,,M,,*6A
06/26/2015	21:03:50.538	$GPGGA,210351,2614.0255,N,07956.4390,W,1,10,1.9,22,M,,M,,*6D
06/26/2015	21:03:51.578	$GPGGA,210352,2614.0258,N,07956.4404,W,1,10,1.9,22,M,,M,,*69
06/26/2015	21:03:52.538	$GPGGA,210353,2614.0262,N,07956.4419,W,1,10,1.9,22,M,,M,,*6D
06/26/2015	21:03:53.518	$GPGGA,210354,2614.0264,N,07956.4433,W,1,9,2.0,22,M,,M,,*56
06/26/2015	21:03:54.538	$GPGGA,210355,2614.0266,N,07956.4447,W,1,9,1.9,22,M,,M,,*5C
06/26/2015	21:03:55.548	$GPGGA,210356,2614.0269,N,07956.4460,W,1,8,2.1,21,M,,M,,*5C
06/26/2015	21:03:56.538	$GPGGA,210357,2614.0271,N,07956.4474,W,1,8,1.9,21,M,,M,,*5A
06/26/2015	21:03:57.558	$GPGGA,210358,2614.0273,N,07956.4488,W,1,10,1.9,21,M,,M,,*6D
06/26/2015	21:03:58.528	$GPGGA,210359,2614.0273,N,07956.4501,W,1,10,1.9,21,M,,M,,*6C
06/26/2015	21:03:59.558	$GPGGA,210400,2614.0276,N,07956.4513,W,1,9,1.9,21,M,,M,,*59
06/26/2015	21:04:00.508	$GPGGA,210401,2614.0277,N,07956.4527,W,1,9,2.1,21,M,,M,,*55
06/26/2015	21:04:01.512	$GPGGA,210402,2614.0280,N,07956.4541,W,1,8,2.1,21,M,,M,,*5F
06/26/2015	21:04:02.521	$GPGGA,210403,2614.0280,N,07956.4555,W,1,8,1.9,21,M,,M,,*50
06/26/2015	21:04:03.528	$GPGGA,210404,2614.0282,N,07956.4567,W,1,9,1.9,21,M,,M,,*55
06/26/2015	21:04:04.621	$GPGGA,210405,2614.0284,N,07956.4581,W,1,9,1.9,21,M,,M,,*5A
06/26/2015	21:04:05.498	$GPGGA,210406,2614.0286,N,07956.4595,W,1,9,2.0,21,M,,M,,*54
06/26/2015	21:04:06.508	$GPGGA,210407,2614.0289,N,07956.4608,W,1,9,2.1,20,M,,M,,*5D
06/26/2015	21:04:07.611	$GPGGA,210408,2614.0291,N,07956.4621,W,1,9,1.9,20,M,,M,,*5B
06/26/2015	21:04:08.511	$GPGGA,210409,2614.0293,N,07956.4635,W,1,9,1.9,20,M,,M,,*5D
06/26/2015	21:04:09.498	$GPGGA,210410,2614.0294,N,07956.4650,W,1,8,2.1,20,M,,M,,*5B
06/26/2015	21:04:10.498	$GPGGA,210411,2614.0297,N,07956.4664,W,1,8,1.9,20,M,,M,,*55
06/26/2015	21:04:11.498	$GPGGA,210412,2614.0298,N,07956.4676,W,1,8,2.1,20,M,,M,,*51
06/26/2015	21:04:12.508	$GPGGA,210413,2614.0301,N,07956.4690,W,1,8,2.1,20,M,,M,,*59
06/26/2015	21:04:13.588	$GPGGA,210414,2614.0302,N,07956.4704,W,1,8,2.1,20,M,,M,,*51
06/26/2015	21:04:14.498	$GPGGA,210415,2614.0307,N,07956.4718,W,1,8,2.1,19,M,,M,,*52
06/26/2015	21:04:15.588	$GPGGA,210416,2614.0306,N,07956.4732,W,1,9,2.0,19,M,,M,,*58
06/26/2015	21:04:16.578	$GPGGA,210417,2614.0308,N,07956.4745,W,1,9,1.9,19,M,,M,,*5D
06/26/2015	21:04:17.567	$GPGGA,210418,2614.0309,N,07956.4761,W,1,9,1.9,19,M,,M,,*55
06/26/2015	21:04:18.577	$GPGGA,210419,2614.0312,N,07956.4776,W,1,9,1.9,19,M,,M,,*58
06/26/2015	21:04:19.617	$GPGGA,210420,2614.0313,N,07956.4790,W,1,10,1.9,19,M,,M,,*63
06/26/2015	21:04:20.577	$GPGGA,210421,2614.0316,N,07956.4803,W,1,10,2.1,19,M,,M,,*69
06/26/2015	21:04:21.588	$GPGGA,210422,2614.0319,N,07956.4817,W,1,9,2.0,19,M,,M,,*59
06/26/2015	21:04:22.558	$GPGGA,210423,2614.0320,N,07956.4831,W,1,9,1.9,19,M,,M,,*5C
06/26/2015	21:04:23.598	$GPGGA,210424,2614.0320,N,07956.4846,W,1,9,2.0,19,M,,M,,*51
06/26/2015	21:04:24.568	$GPGGA,210425,2614.0323,N,07956.4859,W,1,9,1.9,19,M,,M,,*57
06/26/2015	21:04:25.578	$GPGGA,210426,2614.0326,N,07956.4874,W,1,10,1.9,19,M,,M,,*66
06/26/2015	21:04:26.558	$GPGGA,210427,2614.0327,N,07956.4888,W,1,10,1.9,19,M,,M,,*65
06/26/2015	21:04:27.588	$GPGGA,210428,2614.0329,N,07956.4902,W,1,10,1.9,19,M,,M,,*67
06/26/2015	21:04:28.568	$GPGGA,210429,2614.0331,N,07956.4917,W,1,10,1.9,19,M,,M,,*6B
06/26/2015	21:04:29.578	$GPGGA,210430,2614.0333,N,07956.4931,W,1,10,1.9,19,M,,M,,*65
06/26/2015	21:04:30.558	$GPGGA,210431,2614.0334,N,07956.4946,W,1,10,1.9,19,M,,M,,*63
06/26/2015	21:04:31.578	$GPGGA,210432,2614.0336,N,07956.4960,W,1,10,1.9,19,M,,M,,*66
06/26/2015	21:04:32.548	$GPGGA,210433,2614.0338,N,07956.4975,W,1,10,1.9,19,M,,M,,*6D
06/26/2015	21:04:33.578	$GPGGA,210434,2614.0340,N,07956.4989,W,1,10,1.9,19,M,,M,,*66
06/26/2015	21:04:34.548	$GPGGA,210435,2614.0341,N,07956.5003,W,1,10,2.0,19,M,,M,,*66
06/26/2015	21:04:35.577	$GPGGA,210436,2614.0344,N,07956.5016,W,1,10,1.9,19,M,,M,,*6E
06/26/2015	21:04:36.547	$GPGGA,210437,2614.0347,N,07956.5030,W,1,10,1.9,19,M,,M,,*68
06/26/2015	21:04:37.537	$GPGGA,210438,2614.0349,N,07956.5044,W,1,10,1.9,19,M,,M,,*6A
06/26/2015	21:04:38.528	$GPGGA,210439,2614.0352,N,07956.5059,W,1,10,1.9,19,M,,M,,*6D
06/26/2015	21:04:39.578	$GPGGA,210440,2614.0355,N,07956.5073,W,1,10,1.9,19,M,,M,,*6C
06/26/2015	21:04:40.538	$GPGGA,210441,2614.0356,N,07956.5087,W,1,10,1.9,19,M,,M,,*65
06/26/2015	21:04:41.548	$GPGGA,210442,2614.0358,N,07956.5102,W,1,10,1.9,19,M,,M,,*64
06/26/2015	21:04:42.527	$GPGGA,210443,2614.0360,N,07956.5116,W,1,10,1.9,19,M,,M,,*6B
06/26/2015	21:04:43.528	$GPGGA,210444,2614.0363,N,07956.5131,W,1,10,1.9,19,M,,M,,*6A
06/26/2015	21:04:44.621	$GPGGA,210445,2614.0365,N,07956.5145,W,1,10,1.9,19,M,,M,,*6E
06/26/2015	21:04:45.548	$GPGGA,210446,2614.0367,N,07956.5159,W,1,10,1.9,19,M,,M,,*62
06/26/2015	21:04:46.528	$GPGGA,210447,2614.0370,N,07956.5174,W,1,10,1.9,19,M,,M,,*6A
06/26/2015	21:04:47.538	$GPGGA,210448,2614.0374,N,07956.5188,W,1,10,1.9,19,M,,M,,*62
06/26/2015	21:04:48.525	$GPGGA,210449,2614.0376,N,07956.5202,W,1,10,1.9,20,M,,M,,*6A
06/26/2015	21:04:49.518	$GPGGA,210450,2614.0378,N,07956.5217,W,1,10,1.9,20,M,,M,,*68
06/26/2015	21:04:50.498	$GPGGA,210451,2614.0381,N,07956.5231,W,1,10,1.9,20,M,,M,,*6B
06/26/2015	21:04:51.518	$GPGGA,210452,2614.0384,N,07956.5246,W,1,9,2.0,20,M,,M,,*5F
06/26/2015	21:04:52.497	$GPGGA,210453,2614.0385,N,07956.5260,W,1,9,2.0,20,M,,M,,*5B
06/26/2015	21:04:53.517	$GPGGA,210454,2614.0388,N,07956.5275,W,1,10,1.9,20,M,,M,,*67
06/26/2015	21:04:54.612	$GPGGA,210455,2614.0391,N,07956.5287,W,1,10,1.9,20,M,,M,,*63
06/26/2015	21:04:55.627	$GPGGA,210456,2614.0394,N,07956.5301,W,1,8,2.1,20,M,,M,,*58
06/26/2015	21:04:56.498	$GPGGA,210457,2614.0396,N,07956.5316,W,1,8,1.9,20,M,,M,,*56
06/26/2015	21:04:57.489	$GPGGA,210458,2614.0399,N,07956.5330,W,1,9,1.9,20,M,,M,,*53
06/26/2015	21:04:58.598	$GPGGA,210459,2614.0401,N,07956.5343,W,1,9,2.0,20,M,,M,,*5A
06/26/2015	21:04:59.625	$GPGGA,210500,2614.0405,N,07956.5358,W,1,8,2.0,20,M,,M,,*58
06/26/2015	21:05:00.578	$GPGGA,210501,2614.0406,N,07956.5372,W,1,8,2.1,20,M,,M,,*53
06/26/2015	21:05:01.588	$GPGGA,210502,2614.0407,N,07956.5386,W,1,9,1.9,20,M,,M,,*50
06/26/2015	21:05:02.488	$GPGGA,210503,2614.0410,N,07956.5398,W,1,9,1.9,20,M,,M,,*58
06/26/2015	21:05:03.588	$GPGGA,210504,2614.0412,N,07956.5412,W,1,8,2.1,20,M,,M,,*52
06/26/2015	21:05:04.568	$GPGGA,210505,2614.0414,N,07956.5426,W,1,8,1.9,20,M,,M,,*59
06/26/2015	21:05:05.588	$GPGGA,210506,2614.0416,N,07956.5441,W,1,9,1.9,19,M,,M,,*52
06/26/2015	21:05:06.568	$GPGGA,210507,2614.0415,N,07956.5452,W,1,9,2.0,19,M,,M,,*58
06/26/2015	21:05:07.588	$GPGGA,210508,2614.0417,N,07956.5466,W,1,8,2.1,19,M,,M,,*52
06/26/2015	21:05:08.568	$GPGGA,210509,2614.0420,N,07956.5480,W,1,8,2.0,20,M,,M,,*54
06/26/2015	21:05:09.619	$GPGGA,210510,2614.0421,N,07956.5495,W,1,8,2.0,20,M,,M,,*59
06/26/2015	21:05:10.557	$GPGGA,210511,2614.0424,N,07956.5507,W,1,8,2.0,20,M,,M,,*57
06/26/2015	21:05:11.620	$GPGGA,210512,2614.0427,N,07956.5521,W,1,8,2.0,20,M,,M,,*53
06/26/2015	21:05:12.567	$GPGGA,210513,2614.0428,N,07956.5535,W,1,8,2.1,20,M,,M,,*59
06/26/2015	21:05:13.548	$GPGGA,210514,2614.0432,N,07956.5547,W,1,9,1.9,20,M,,M,,*5A
06/26/2015	21:05:14.558	$GPGGA,210515,2614.0434,N,07956.5560,W,1,9,1.9,20,M,,M,,*58
06/26/2015	21:05:15.619	$GPGGA,210516,2614.0435,N,07956.5574,W,1,9,1.9,20,M,,M,,*5F
06/26/2015	21:05:16.548	$GPGGA,210517,2614.0439,N,07956.5587,W,1,9,2.0,20,M,,M,,*54
06/26/2015	21:05:17.568	$GPGGA,210518,2614.0439,N,07956.5600,W,1,10,1.9,20,M,,M,,*65
06/26/2015	21:05:18.548	$GPGGA,210519,2614.0441,N,07956.5614,W,1,10,2.0,20,M,,M,,*64
06/26/2015	21:05:19.588	$GPGGA,210520,2614.0443,N,07956.5626,W,1,8,2.0,20,M,,M,,*54
06/26/2015	21:05:20.538	$GPGGA,210521,2614.0443,N,07956.5640,W,1,8,2.0,20,M,,M,,*55
06/26/2015	21:05:21.568	$GPGGA,210522,2614.0446,N,07956.5654,W,1,8,2.0,20,M,,M,,*56
06/26/2015	21:05:22.528	$GPGGA,210523,2614.0448,N,07956.5668,W,1,8,2.1,20,M,,M,,*57
06/26/2015	21:05:23.578	$GPGGA,210524,2614.0450,N,07956.5680,W,1,9,2.0,20,M,,M,,*5F
06/26/2015	21:05:24.528	$GPGGA,210525,2614.0452,N,07956.5694,W,1,9,2.0,20,M,,M,,*59
06/26/2015	21:05:25.558	$GPGGA,210526,2614.0453,N,07956.5706,W,1,9,1.9,20,M,,M,,*5B
06/26/2015	21:05:26.518	$GPGGA,210527,2614.0456,N,07956.5720,W,1,9,1.9,20,M,,M,,*5B
06/26/2015	21:05:27.577	$GPGGA,210528,2614.0457,N,07956.5734,W,1,8,2.0,20,M,,M,,*5B
06/26/2015	21:05:28.520	$GPGGA,210529,2614.0460,N,07956.5748,W,1,8,1.9,20,M,,M,,*5F
06/26/2015	21:05:29.537	$GPGGA,210530,2614.0463,N,07956.5760,W,1,8,2.1,20,M,,M,,*55
06/26/2015	21:05:30.519	$GPGGA,210531,2614.0464,N,07956.5774,W,1,8,2.0,20,M,,M,,*57
06/26/2015	21:05:31.538	$GPGGA,210532,2614.0463,N,07956.5788,W,1,10,1.9,20,M,,M,,*63
06/26/2015	21:05:32.512	$GPGGA,210533,2614.0466,N,07956.5800,W,1,10,1.9,20,M,,M,,*68
06/26/2015	21:05:34.058	$GPGGA,210534,2614.0468,N,07956.5814,W,1,9,1.9,20,M,,M,,*5C
06/26/2015	21:05:34.610	$GPGGA,210535,2614.0468,N,07956.5828,W,1,9,1.9,20,M,,M,,*52
06/26/2015	21:05:35.668	$GPGGA,210536,2614.0471,N,07956.5842,W,1,9,1.9,20,M,,M,,*55
06/26/2015	21:05:36.510	$GPGGA,210537,2614.0474,N,07956.5856,W,1,9,1.9,20,M,,M,,*54
06/26/2015	21:05:37.628	$GPGGA,210538,2614.0477,N,07956.5870,W,1,7,2.0,20,M,,M,,*58
06/26/2015	21:05:38.498	$GPGGA,210539,2614.0479,N,07956.5885,W,1,7,2.0,20,M,,M,,*5D
06/26/2015	21:05:39.648	$GPGGA,210540,2614.0482,N,07956.5900,W,1,10,2.0,20,M,,M,,*6D
06/26/2015	21:05:40.522	$GPGGA,210541,2614.0485,N,07956.5914,W,1,10,2.0,20,M,,M,,*6E
06/26/2015	21:05:41.638	$GPGGA,210542,2614.0488,N,07956.5928,W,1,9,2.0,20,M,,M,,*57
06/26/2015	21:05:42.508	$GPGGA,210543,2614.0492,N,07956.5943,W,1,9,2.0,20,M,,M,,*50
06/26/2015	21:05:43.524	$GPGGA,210544,2614.0496,N,07956.5957,W,1,9,2.0,20,M,,M,,*56
06/26/2015	21:05:44.597	$GPGGA,210545,2614.0499,N,07956.5972,W,1,9,2.0,20,M,,M,,*5F
06/26/2015	21:05:45.487	$GPGGA,210546,2614.0500,N,07956.5984,W,1,9,2.0,20,M,,M,,*54
06/26/2015	21:05:46.497	$GPGGA,210547,2614.0501,N,07956.5999,W,1,9,1.9,20,M,,M,,*52
06/26/2015	21:05:47.622	$GPGGA,210548,2614.0504,N,07956.6013,W,1,10,1.9,20,M,,M,,*68
06/26/2015	21:05:48.578	$GPGGA,210549,2614.0507,N,07956.6027,W,1,10,1.9,20,M,,M,,*6D
06/26/2015	21:05:49.568	$GPGGA,210550,2614.0508,N,07956.6041,W,1,10,1.9,20,M,,M,,*6A
06/26/2015	21:05:50.578	$GPGGA,210551,2614.0510,N,07956.6055,W,1,10,1.9,20,M,,M,,*67
06/26/2015	21:05:51.598	$GPGGA,210552,2614.0514,N,07956.6069,W,1,10,1.9,20,M,,M,,*6F
06/26/2015	21:05:52.578	$GPGGA,210553,2614.0515,N,07956.6084,W,1,10,1.9,20,M,,M,,*6C
06/26/2015	21:05:53.568	$GPGGA,210554,2614.0517,N,07956.6096,W,1,10,1.9,20,M,,M,,*6A
06/26/2015	21:05:54.578	$GPGGA,210555,2614.0519,N,07956.6110,W,1,10,1.9,20,M,,M,,*6A
06/26/2015	21:05:55.608	$GPGGA,210556,2614.0522,N,07956.6124,W,1,10,1.9,20,M,,M,,*66
06/26/2015	21:05:56.568	$GPGGA,210557,2614.0525,N,07956.6138,W,1,10,1.9,20,M,,M,,*6D
06/26/2015	21:05:57.578	$GPGGA,210558,2614.0526,N,07956.6152,W,1,10,1.9,20,M,,M,,*6D
06/26/2015	21:05:58.568	$GPGGA,210559,2614.0529,N,07956.6167,W,1,10,1.9,20,M,,M,,*65
06/26/2015	21:05:59.658	$GPGGA,210600,2614.0533,N,07956.6181,W,1,10,1.9,20,M,,M,,*69
06/26/2015	21:06:00.558	$GPGGA,210601,2614.0535,N,07956.6193,W,1,10,1.9,20,M,,M,,*6D
06/26/2015	21:06:01.588	$GPGGA,210602,2614.0536,N,07956.6207,W,1,10,1.9,20,M,,M,,*63
06/26/2015	21:06:02.547	$GPGGA,210603,2614.0540,N,07956.6221,W,1,10,1.9,20,M,,M,,*67
06/26/2015	21:06:03.587	$GPGGA,210604,2614.0543,N,07956.6235,W,1,10,1.9,20,M,,M,,*66
06/26/2015	21:06:04.557	$GPGGA,210605,2614.0544,N,07956.6248,W,1,10,1.9,20,M,,M,,*6A
06/26/2015	21:06:05.567	$GPGGA,210606,2614.0547,N,07956.6261,W,1,10,1.9,20,M,,M,,*61
06/26/2015	21:06:06.538	$GPGGA,210607,2614.0551,N,07956.6275,W,1,10,1.9,20,M,,M,,*62
06/26/2015	21:06:07.588	$GPGGA,210608,2614.0553,N,07956.6288,W,1,10,1.9,20,M,,M,,*6D
06/26/2015	21:06:08.548	$GPGGA,210609,2614.0555,N,07956.6302,W,1,10,1.9,20,M,,M,,*69
06/26/2015	21:06:09.558	$GPGGA,210610,2614.0558,N,07956.6316,W,1,10,1.9,20,M,,M,,*69
06/26/2015	21:06:10.548	$GPGGA,210611,2614.0561,N,07956.6329,W,1,10,1.9,20,M,,M,,*6E
06/26/2015	21:06:11.578	$GPGGA,210612,2614.0564,N,07956.6344,W,1,10,2.0,20,M,,M,,*69
06/26/2015	21:06:12.548	$GPGGA,210613,2614.0566,N,07956.6356,W,1,10,2.0,20,M,,M,,*69
06/26/2015	21:06:13.558	$GPGGA,210614,2614.0569,N,07956.6369,W,1,9,1.9,20,M,,M,,*5F
06/26/2015	21:06:14.548	$GPGGA,210615,2614.0571,N,07956.6384,W,1,9,1.9,20,M,,M,,*54
06/26/2015	21:06:15.568	$GPGGA,210616,2614.0573,N,07956.6398,W,1,10,1.9,20,M,,M,,*60
06/26/2015	21:06:16.648	$GPGGA,210617,2614.0576,N,07956.6410,W,1,10,1.9,20,M,,M,,*63
06/26/2015	21:06:17.548	$GPGGA,210618,2614.0578,N,07956.6424,W,1,9,2.0,20,M,,M,,*57
06/26/2015	21:06:18.528	$GPGGA,210619,2614.0580,N,07956.6438,W,1,9,2.0,20,M,,M,,*5C
06/26/2015	21:06:19.518	$GPGGA,210620,2614.0583,N,07956.6452,W,1,9,2.0,20,M,,M,,*59
06/26/2015	21:06:20.537	$GPGGA,210621,2614.0586,N,07956.6464,W,1,9,1.9,20,M,,M,,*52
06/26/2015	21:06:21.520	$GPGGA,210622,2614.0587,N,07956.6478,W,1,10,1.9,20,M,,M,,*65
06/26/2015	21:06:22.609	$GPGGA,210623,2614.0591,N,07956.6492,W,1,10,1.9,20,M,,M,,*67
06/26/2015	21:06:23.558	$GPGGA,210624,2614.0594,N,07956.6506,W,1,9,1.9,20,M,,M,,*51
06/26/2015	21:06:24.631	$GPGGA,210625,2614.0596,N,07956.6519,W,1,9,1.9,20,M,,M,,*5C
06/26/2015	21:06:25.611	$GPGGA,210626,2614.0598,N,07956.6532,W,1,9,1.9,20,M,,M,,*58
06/26/2015	21:06:26.622	$GPGGA,210627,2614.0600,N,07956.6546,W,1,9,1.9,20,M,,M,,*58
06/26/2015	21:06:27.558	$GPGGA,210628,2614.0602,N,07956.6559,W,1,9,1.9,20,M,,M,,*5B
06/26/2015	21:06:28.588	$GPGGA,210629,2614.0605,N,07956.6573,W,1,9,1.9,20,M,,M,,*55
06/26/2015	21:06:29.628	$GPGGA,210630,2614.0605,N,07956.6586,W,1,9,1.9,20,M,,M,,*57
06/26/2015	21:06:30.598	$GPGGA,210631,2614.0608,N,07956.6600,W,1,9,1.9,20,M,,M,,*56
06/26/2015	21:06:31.598	$GPGGA,210632,2614.0609,N,07956.6612,W,1,9,1.9,20,M,,M,,*57
06/26/2015	21:06:32.588	$GPGGA,210633,2614.0612,N,07956.6626,W,1,9,1.9,20,M,,M,,*5B
06/26/2015	21:06:33.588	$GPGGA,210634,2614.0612,N,07956.6640,W,1,9,1.9,20,M,,M,,*5C
06/26/2015	21:06:34.588	$GPGGA,210635,2614.0613,N,07956.6652,W,1,9,1.9,20,M,,M,,*5F
06/26/2015	21:06:35.618	$GPGGA,210636,2614.0616,N,07956.6665,W,1,9,2.0,20,M,,M,,*57
06/26/2015	21:06:36.578	$GPGGA,210637,2614.0620,N,07956.6680,W,1,9,2.0,20,M,,M,,*58
06/26/2015	21:06:37.607	$GPGGA,210638,2614.0623,N,07956.6694,W,1,10,1.9,21,M,,M,,*62
06/26/2015	21:06:38.577	$GPGGA,210639,2614.0625,N,07956.6707,W,1,10,1.9,21,M,,M,,*6E
06/26/2015	21:06:39.607	$GPGGA,210640,2614.0627,N,07956.6720,W,1,9,2.0,21,M,,M,,*55
06/26/2015	21:06:40.588	$GPGGA,210641,2614.0629,N,07956.6734,W,1,9,1.9,21,M,,M,,*55
06/26/2015	21:06:41.578	$GPGGA,210642,2614.0631,N,07956.6746,W,1,9,1.9,21,M,,M,,*5A
06/26/2015	21:06:42.558	$GPGGA,210643,2614.0633,N,07956.6759,W,1,9,1.9,21,M,,M,,*57
06/26/2015	21:06:43.588	$GPGGA,210644,2614.0634,N,07956.6774,W,1,8,2.0,21,M,,M,,*53
06/26/2015	21:06:44.548	$GPGGA,210645,2614.0636,N,07956.6786,W,1,8,2.0,21,M,,M,,*5D
06/26/2015	21:06:45.598	$GPGGA,210646,2614.0638,N,07956.6800,W,1,8,2.0,21,M,,M,,*51
06/26/2015	21:06:46.568	$GPGGA,210647,2614.0640,N,07956.6814,W,1,8,2.0,21,M,,M,,*5A
06/26/2015	21:06:47.588	$GPGGA,210648,2614.0643,N,07956.6826,W,1,9,1.9,21,M,,M,,*5C
06/26/2015	21:06:48.548	$GPGGA,210649,2614.0645,N,07956.6839,W,1,9,1.9,21,M,,M,,*55
06/26/2015	21:06:49.558	$GPGGA,210650,2614.0648,N,07956.6853,W,1,9,1.9,21,M,,M,,*5C
06/26/2015	21:06:50.548	$GPGGA,210651,2614.0649,N,07956.6866,W,1,9,1.9,21,M,,M,,*5A
06/26/2015	21:06:51.578	$GPGGA,210652,2614.0651,N,07956.6879,W,1,9,1.9,21,M,,M,,*5E
06/26/2015	21:06:52.538	$GPGGA,210653,2614.0649,N,07956.6891,W,1,9,2.0,21,M,,M,,*5A
06/26/2015	21:06:53.548	$GPGGA,210654,2614.0654,N,07956.6904,W,1,9,2.0,21,M,,M,,*5C
06/26/2015	21:06:54.537	$GPGGA,210655,2614.0655,N,07956.6918,W,1,9,1.9,21,M,,M,,*5B
06/26/2015	21:06:55.567	$GPGGA,210656,2614.0654,N,07956.6930,W,1,10,1.9,21,M,,M,,*6B
06/26/2015	21:06:56.547	$GPGGA,210657,2614.0656,N,07956.6943,W,1,10,2.0,21,M,,M,,*66
06/26/2015	21:06:57.547	$GPGGA,210658,2614.0659,N,07956.6956,W,1,8,2.0,21,M,,M,,*5B
06/26/2015	21:06:58.528	$GPGGA,210659,2614.0659,N,07956.6969,W,1,8,1.9,21,M,,M,,*5C
06/26/2015	21:06:59.558	$GPGGA,210700,2614.0661,N,07956.6983,W,1,9,1.9,21,M,,M,,*5F
06/26/2015	21:07:00.548	$GPGGA,210701,2614.0663,N,07956.6995,W,1,9,1.9,21,M,,M,,*5B
06/26/2015	21:07:01.528	$GPGGA,210702,2614.0667,N,07956.7009,W,1,8,2.0,21,M,,M,,*5A
06/26/2015	21:07:02.528	$GPGGA,210703,2614.0669,N,07956.7021,W,1,8,1.9,21,M,,M,,*55
06/26/2015	21:07:03.548	$GPGGA,210704,2614.0670,N,07956.7035,W,1,8,2.0,21,M,,M,,*55
06/26/2015	21:07:04.519	$GPGGA,210705,2614.0672,N,07956.7048,W,1,8,1.9,21,M,,M,,*56
06/26/2015	21:07:05.668	$GPGGA,210706,2614.0674,N,07956.7061,W,1,10,1.9,21,M,,M,,*61
06/26/2015	21:07:06.609	$GPGGA,210707,2614.0676,N,07956.7075,W,1,10,1.9,21,M,,M,,*67
06/26/2015	21:07:07.538	$GPGGA,210708,2614.0677,N,07956.7089,W,1,10,1.9,21,M,,M,,*6A
06/26/2015	21:07:08.511	$GPGGA,210709,2614.0680,N,07956.7103,W,1,10,1.9,21,M,,M,,*60
06/26/2015	21:07:09.528	$GPGGA,210710,2614.0683,N,07956.7117,W,1,10,1.9,21,M,,M,,*6E
06/26/2015	21:07:10.498	$GPGGA,210711,2614.0685,N,07956.7132,W,1,10,1.9,21,M,,M,,*6E
06/26/2015	21:07:11.648	$GPGGA,210712,2614.0688,N,07956.7146,W,1,10,1.9,21,M,,M,,*63
06/26/2015	21:07:12.517	$GPGGA,210713,2614.0690,N,07956.7160,W,1,10,1.9,21,M,,M,,*6F
06/26/2015	21:07:13.597	$GPGGA,210714,2614.0692,N,07956.7172,W,1,10,1.9,20,M,,M,,*68
06/26/2015	21:07:14.597	$GPGGA,210715,2614.0695,N,07956.7186,W,1,10,1.9,20,M,,M,,*65
06/26/2015	21:07:15.608	$GPGGA,210716,2614.0695,N,07956.7200,W,1,9,2.0,20,M,,M,,*59
06/26/2015	21:07:16.588	$GPGGA,210717,2614.0698,N,07956.7214,W,1,9,1.9,20,M,,M,,*5A
06/26/2015	21:07:17.621	$GPGGA,210718,2614.0701,N,07956.7227,W,1,10,1.9,20,M,,M,,*6C
06/26/2015	21:07:18.578	$GPGGA,210719,2614.0703,N,07956.7241,W,1,10,1.9,20,M,,M,,*6F
06/26/2015	21:07:19.618	$GPGGA,210720,2614.0705,N,07956.7255,W,1,10,1.9,20,M,,M,,*66
06/26/2015	21:07:20.588	$GPGGA,210721,2614.0708,N,07956.7269,W,1,10,1.9,20,M,,M,,*65
06/26/2015	21:07:21.578	$GPGGA,210722,2614.0710,N,07956.7283,W,1,10,1.9,20,M,,M,,*6B
06/26/2015	21:07:22.578	$GPGGA,210723,2614.0713,N,07956.7296,W,1,10,1.9,20,M,,M,,*6D
06/26/2015	21:07:23.598	$GPGGA,210724,2614.0714,N,07956.7310,W,1,10,1.9,20,M,,M,,*62
06/26/2015	21:07:24.588	$GPGGA,210725,2614.0719,N,07956.7326,W,1,10,1.9,20,M,,M,,*6B
06/26/2015	21:07:25.588	$GPGGA,210726,2614.0721,N,07956.7338,W,1,10,1.9,20,M,,M,,*6C
06/26/2015	21:07:26.578	$GPGGA,210727,2614.0723,N,07956.7352,W,1,10,1.9,20,M,,M,,*63
06/26/2015	21:07:27.918	$GPGGA,210728,2614.0725,N,07956.7366,W,1,10,1.9,20,M,,M,,*6D
06/26/2015	21:07:28.558	$GPGGA,210729,2614.0728,N,07956.7381,W,1,10,1.9,20,M,,M,,*68
06/26/2015	21:07:29.577	$GPGGA,210730,2614.0732,N,07956.7393,W,1,10,1.9,20,M,,M,,*68
06/26/2015	21:07:30.557	$GPGGA,210731,2614.0734,N,07956.7407,W,1,10,1.9,20,M,,M,,*65
06/26/2015	21:07:31.587	$GPGGA,210732,2614.0738,N,07956.7422,W,1,10,1.9,20,M,,M,,*6D
06/26/2015	21:07:32.557	$GPGGA,210733,2614.0741,N,07956.7435,W,1,10,1.9,20,M,,M,,*64
06/26/2015	21:07:33.548	$GPGGA,210734,2614.0742,N,07956.7449,W,1,10,1.9,20,M,,M,,*6B
06/26/2015	21:07:34.558	$GPGGA,210735,2614.0746,N,07956.7462,W,1,10,1.9,20,M,,M,,*67
06/26/2015	21:07:35.578	$GPGGA,210736,2614.0749,N,07956.7476,W,1,10,1.9,20,M,,M,,*6E
06/26/2015	21:07:36.558	$GPGGA,210737,2614.0753,N,07956.7490,W,1,10,1.9,20,M,,M,,*6C
06/26/2015	21:07:37.548	$GPGGA,210738,2614.0755,N,07956.7504,W,1,10,1.9,20,M,,M,,*69
06/26/2015	21:07:38.538	$GPGGA,210739,2614.0757,N,07956.7518,W,1,10,1.9,20,M,,M,,*67
06/26/2015	21:07:39.568	$GPGGA,210740,2614.0760,N,07956.7533,W,1,10,1.9,20,M,,M,,*64
06/26/2015	21:07:40.538	$GPGGA,210741,2614.0764,N,07956.7547,W,1,10,1.9,20,M,,M,,*62
06/26/2015	21:07:41.528	$GPGGA,210742,2614.0767,N,07956.7561,W,1,10,1.9,20,M,,M,,*66
06/26/2015	21:07:42.529	$GPGGA,210743,2614.0768,N,07956.7573,W,1,10,1.9,20,M,,M,,*6B
06/26/2015	21:07:43.568	$GPGGA,210744,2614.0771,N,07956.7587,W,1,10,1.9,20,M,,M,,*6F
06/26/2015	21:07:44.548	$GPGGA,210745,2614.0775,N,07956.7601,W,1,10,1.9,20,M,,M,,*67
06/26/2015	21:07:45.948	$GPGGA,210746,2614.0777,N,07956.7615,W,1,10,1.9,20,M,,M,,*63
06/26/2015	21:07:46.522	$GPGGA,210747,2614.0779,N,07956.7628,W,1,10,1.9,20,M,,M,,*62
06/26/2015	21:07:47.537	$GPGGA,210748,2614.0782,N,07956.7641,W,1,10,1.9,20,M,,M,,*66
06/26/2015	21:07:48.508	$GPGGA,210749,2614.0785,N,07956.7655,W,1,10,1.9,20,M,,M,,*65
06/26/2015	21:07:49.524	$GPGGA,210750,2614.0786,N,07956.7668,W,1,9,1.9,20,M,,M,,*58
06/26/2015	21:07:50.528	$GPGGA,210751,2614.0789,N,07956.7681,W,1,9,1.9,20,M,,M,,*51
06/26/2015	21:07:51.528	$GPGGA,210752,2614.0793,N,07956.7695,W,1,10,1.9,20,M,,M,,*64
06/26/2015	21:07:52.518	$GPGGA,210753,2614.0795,N,07956.7707,W,1,10,2.0,20,M,,M,,*63
06/26/2015	21:07:53.518	$GPGGA,210754,2614.0797,N,07956.7720,W,1,8,2.0,20,M,,M,,*5A
06/26/2015	21:07:54.499	$GPGGA,210755,2614.0799,N,07956.7733,W,1,8,1.9,20,M,,M,,*5D
06/26/2015	21:07:55.523	$GPGGA,210756,2614.0802,N,07956.7747,W,1,9,1.9,20,M,,M,,*51
06/26/2015	21:07:56.598	$GPGGA,210757,2614.0804,N,07956.7760,W,1,9,1.9,20,M,,M,,*53
06/26/2015	21:07:57.638	$GPGGA,210758,2614.0804,N,07956.7774,W,1,9,1.9,20,M,,M,,*59
06/26/2015	21:07:58.520	$GPGGA,210759,2614.0806,N,07956.7787,W,1,9,1.9,20,M,,M,,*56
06/26/2015	21:07:59.632	$GPGGA,210800,2614.0807,N,07956.7801,W,1,8,2.0,19,M,,M,,*54
06/26/2015	21:08:00.588	$GPGGA,210801,2614.0810,N,07956.7814,W,1,8,1.9,19,M,,M,,*5D
06/26/2015	21:08:01.588	$GPGGA,210802,2614.0811,N,07956.7826,W,1,10,1.9,19,M,,M,,*67
06/26/2015	21:08:02.588	$GPGGA,210803,2614.0813,N,07956.7840,W,1,10,1.9,19,M,,M,,*64
06/26/2015	21:08:03.598	$GPGGA,210804,2614.0815,N,07956.7851,W,1,9,1.9,19,M,,M,,*5D
06/26/2015	21:08:04.578	$GPGGA,210805,2614.0818,N,07956.7865,W,1,9,1.9,19,M,,M,,*56
06/26/2015	21:08:05.487	$GPGGA,210806,2614.0821,N,07956.7877,W,1,9,2.0,19,M,,M,,*56
06/26/2015	21:08:06.577	$GPGGA,210807,2614.0824,N,07956.7891,W,1,9,1.9,19,M,,M,,*50
06/26/2015	21:08:07.597	$GPGGA,210808,2614.0825,N,07956.7904,W,1,9,2.0,19,M,,M,,*59
06/26/2015	21:08:08.588	$GPGGA,210809,2614.0826,N,07956.7916,W,1,9,1.9,19,M,,M,,*52
06/26/2015	21:08:09.588	$GPGGA,210810,2614.0829,N,07956.7930,W,1,9,1.9,19,M,,M,,*51
06/26/2015	21:08:10.568	$GPGGA,210811,2614.0831,N,07956.7942,W,1,9,1.9,19,M,,M,,*5C
06/26/2015	21:08:11.598	$GPGGA,210812,2614.0832,N,07956.7955,W,1,9,1.9,19,M,,M,,*5A
06/26/2015	21:08:13.046	$GPGGA,210813,2614.0835,N,07956.7969,W,1,9,1.9,19,M,,M,,*53
06/26/2015	21:08:13.558	$GPGGA,210814,2614.0837,N,07956.7981,W,1,10,1.9,19,M,,M,,*68
06/26/2015	21:08:14.568	$GPGGA,210815,2614.0840,N,07956.7995,W,1,10,1.9,19,M,,M,,*6C
06/26/2015	21:08:15.598	$GPGGA,210816,2614.0843,N,07956.8007,W,1,10,1.9,19,M,,M,,*61
06/26/2015	21:08:16.568	$GPGGA,210817,2614.0844,N,07956.8020,W,1,10,1.9,19,M,,M,,*62
06/26/2015	21:08:17.588	$GPGGA,210818,2614.0847,N,07956.8033,W,1,9,1.9,19,M,,M,,*54
06/26/2015	21:08:18.548	$GPGGA,210819,2614.0847,N,07956.8046,W,1,9,1.9,19,M,,M,,*57
06/26/2015	21:08:19.598	$GPGGA,210820,2614.0849,N,07956.8060,W,1,10,1.9,19,M,,M,,*6F
06/26/2015	21:08:20.548	$GPGGA,210821,2614.0851,N,07956.8072,W,1,10,2.0,19,M,,M,,*6E
06/26/2015	21:08:21.578	$GPGGA,210822,2614.0853,N,07956.8085,W,1,9,1.9,19,M,,M,,*55
06/26/2015	21:08:22.557	$GPGGA,210823,2614.0855,N,07956.8100,W,1,9,1.9,19,M,,M,,*5E
06/26/2015	21:08:23.577	$GPGGA,210824,2614.0857,N,07956.8112,W,1,9,1.9,19,M,,M,,*58
06/26/2015	21:08:25.039	$GPGGA,210825,2614.0858,N,07956.8125,W,1,9,2.0,19,M,,M,,*58
06/26/2015	21:08:25.528	$GPGGA,210826,2614.0862,N,07956.8139,W,1,9,1.9,19,M,,M,,*55
06/26/2015	21:08:26.548	$GPGGA,210827,2614.0864,N,07956.8152,W,1,9,1.9,19,M,,M,,*5F
06/26/2015	21:08:27.548	$GPGGA,210828,2614.0865,N,07956.8165,W,1,8,2.0,19,M,,M,,*5E
06/26/2015	21:08:28.538	$GPGGA,210829,2614.0868,N,07956.8179,W,1,8,1.9,19,M,,M,,*55
06/26/2015	21:08:29.528	$GPGGA,210830,2614.0869,N,07956.8193,W,1,9,1.9,19,M,,M,,*59
06/26/2015	21:08:30.538	$GPGGA,210831,2614.0871,N,07956.8205,W,1,9,1.9,19,M,,M,,*5D
06/26/2015	21:08:31.548	$GPGGA,210832,2614.0872,N,07956.8217,W,1,9,1.9,20,M,,M,,*54
06/26/2015	21:08:32.528	$GPGGA,210833,2614.0876,N,07956.8228,W,1,9,2.0,20,M,,M,,*57
06/26/2015	21:08:33.538	$GPGGA,210834,2614.0880,N,07956.8244,W,1,9,1.9,20,M,,M,,*59
06/26/2015	21:08:34.528	$GPGGA,210835,2614.0883,N,07956.8256,W,1,9,1.9,20,M,,M,,*58
06/26/2015	21:08:35.720	$GPGGA,210836,2614.0885,N,07956.8270,W,1,10,2.0,20,M,,M,,*6B
06/26/2015	21:08:36.548	$GPGGA,210837,2614.0887,N,07956.8284,W,1,10,2.0,20,M,,M,,*63
06/26/2015	21:08:37.538	$GPGGA,210838,2614.0890,N,07956.8296,W,1,10,1.9,20,M,,M,,*63
06/26/2015	21:08:38.512	$GPGGA,210839,2614.0891,N,07956.8310,W,1,10,1.9,20,M,,M,,*6C
06/26/2015	21:08:39.547	$GPGGA,210840,2614.0894,N,07956.8324,W,1,10,1.9,20,M,,M,,*60
06/26/2015	21:08:40.517	$GPGGA,210841,2614.0896,N,07956.8338,W,1,10,1.9,20,M,,M,,*6E
06/26/2015	21:08:41.697	$GPGGA,210842,2614.0898,N,07956.8352,W,1,10,1.9,20,M,,M,,*6F
06/26/2015	21:08:42.657	$GPGGA,210843,2614.0901,N,07956.8365,W,1,10,1.9,19,M,,M,,*61
06/26/2015	21:08:43.608	$GPGGA,210844,2614.0902,N,07956.8379,W,1,10,1.9,19,M,,M,,*68
06/26/2015	21:08:44.628	$GPGGA,210845,2614.0905,N,07956.8392,W,1,10,1.9,19,M,,M,,*6B
06/26/2015	21:08:45.688	$GPGGA,210846,2614.0908,N,07956.8407,W,1,10,1.9,19,M,,M,,*6E
06/26/2015	21:08:46.518	$GPGGA,210847,2614.0909,N,07956.8421,W,1,10,1.9,19,M,,M,,*6A
06/26/2015	21:08:47.698	$GPGGA,210848,2614.0912,N,07956.8434,W,1,10,1.9,19,M,,M,,*6B
06/26/2015	21:08:48.588	$GPGGA,210849,2614.0916,N,07956.8448,W,1,10,1.9,19,M,,M,,*65
06/26/2015	21:08:49.678	$GPGGA,210850,2614.0918,N,07956.8462,W,1,10,1.9,19,M,,M,,*6B
06/26/2015	21:08:54.623	$GPGGA,210855,2614.0930,N,07956.8533,W,1,9,1.9,19,M,,M,,*59
06/26/2015	21:08:55.698	$GPGGA,210856,2614.0932,N,07956.8545,W,1,10,1.9,19,M,,M,,*61
06/26/2015	21:08:56.614	$GPGGA,210857,2614.0934,N,07956.8559,W,1,10,1.9,19,M,,M,,*6B
06/26/2015	21:08:57.567	$GPGGA,210858,2614.0938,N,07956.8574,W,1,10,1.9,19,M,,M,,*67
06/26/2015	21:08:58.617	$GPGGA,210859,2614.0940,N,07956.8587,W,1,10,1.9,19,M,,M,,*65
06/26/2015	21:08:59.708	$GPGGA,210900,2614.0941,N,07956.8602,W,1,10,1.9,19,M,,M,,*67
06/26/2015	21:09:00.598	$GPGGA,210901,2614.0945,N,07956.8616,W,1,10,1.9,19,M,,M,,*67
06/26/2015	21:09:01.678	$GPGGA,210902,2614.0947,N,07956.8629,W,1,10,1.9,19,M,,M,,*6A
06/26/2015	21:09:02.588	$GPGGA,210903,2614.0948,N,07956.8642,W,1,10,1.9,19,M,,M,,*69
06/26/2015	21:09:03.678	$GPGGA,210904,2614.0951,N,07956.8656,W,1,10,1.9,19,M,,M,,*63
06/26/2015	21:09:04.558	$GPGGA,210905,2614.0954,N,07956.8671,W,1,10,1.9,19,M,,M,,*62
06/26/2015	21:09:05.648	$GPGGA,210906,2614.0956,N,07956.8683,W,1,10,1.9,19,M,,M,,*6E
06/26/2015	21:09:06.548	$GPGGA,210907,2614.0958,N,07956.8697,W,1,10,1.9,19,M,,M,,*64
06/26/2015	21:09:07.678	$GPGGA,210908,2614.0961,N,07956.8711,W,1,10,1.9,19,M,,M,,*6E
06/26/2015	21:09:08.548	$GPGGA,210909,2614.0963,N,07956.8725,W,1,10,1.9,19,M,,M,,*6A
06/26/2015	21:09:09.538	$GPGGA,210910,2614.0966,N,07956.8739,W,1,10,1.9,19,M,,M,,*6A
06/26/2015	21:09:10.568	$GPGGA,210911,2614.0969,N,07956.8751,W,1,10,1.9,19,M,,M,,*6A
06/26/2015	21:09:11.648	$GPGGA,210912,2614.0970,N,07956.8765,W,1,9,1.9,19,M,,M,,*5E
06/26/2015	21:09:12.518	$GPGGA,210913,2614.0973,N,07956.8779,W,1,9,1.9,19,M,,M,,*51
06/26/2015	21:09:13.638	$GPGGA,210914,2614.0976,N,07956.8793,W,1,9,1.9,19,M,,M,,*57
06/26/2015	21:09:14.869	$GPGGA,210915,2614.0979,N,07956.8806,W,1,9,1.9,19,M,,M,,*5A
06/26/2015	21:09:15.657	$GPGGA,210916,2614.0981,N,07956.8819,W,1,10,1.9,19,M,,M,,*68
06/26/2015	21:09:16.527	$GPGGA,210917,2614.0983,N,07956.8833,W,1,10,1.9,19,M,,M,,*63
06/26/2015	21:09:17.617	$GPGGA,210918,2614.0985,N,07956.8847,W,1,10,1.9,19,M,,M,,*69
06/26/2015	21:09:18.637	$GPGGA,210919,2614.0988,N,07956.8859,W,1,10,1.9,19,M,,M,,*6A
06/26/2015	21:09:19.627	$GPGGA,210920,2614.0990,N,07956.8873,W,1,10,1.9,19,M,,M,,*61
06/26/2015	21:09:20.547	$GPGGA,210921,2614.0992,N,07956.8887,W,1,10,2.0,19,M,,M,,*63
06/26/2015	21:09:21.637	$GPGGA,210922,2614.0995,N,07956.8902,W,1,8,1.9,19,M,,M,,*58
06/26/2015	21:09:22.547	$GPGGA,210923,2614.0999,N,07956.8916,W,1,8,1.9,19,M,,M,,*50
06/26/2015	21:09:23.627	$GPGGA,210924,2614.1001,N,07956.8930,W,1,10,1.9,19,M,,M,,*63
06/26/2015	21:09:24.567	$GPGGA,210925,2614.1003,N,07956.8942,W,1,10,2.0,19,M,,M,,*6F
06/26/2015	21:09:25.577	$GPGGA,210926,2614.1006,N,07956.8956,W,1,8,1.9,19,M,,M,,*5F
06/26/2015	21:09:26.600	$GPGGA,210927,2614.1008,N,07956.8970,W,1,8,2.0,19,M,,M,,*5E
06/26/2015	21:09:27.677	$GPGGA,210928,2614.1010,N,07956.8985,W,1,9,1.9,19,M,,M,,*59
06/26/2015	21:09:28.588	$GPGGA,210929,2614.1013,N,07956.8999,W,1,9,1.9,20,M,,M,,*5C
06/26/2015	21:09:29.618	$GPGGA,210930,2614.1016,N,07956.9014,W,1,10,1.9,20,M,,M,,*64
06/26/2015	21:09:30.588	$GPGGA,210931,2614.1017,N,07956.9026,W,1,10,1.9,20,M,,M,,*65
06/26/2015	21:09:31.668	$GPGGA,210932,2614.1019,N,07956.9039,W,1,10,1.9,20,M,,M,,*66
06/26/2015	21:09:32.587	$GPGGA,210933,2614.1021,N,07956.9053,W,1,10,1.9,20,M,,M,,*60
06/26/2015	21:09:33.637	$GPGGA,210934,2614.1021,N,07956.9068,W,1,10,1.9,20,M,,M,,*6F
06/26/2015	21:09:34.587	$GPGGA,210935,2614.1024,N,07956.9082,W,1,10,1.9,20,M,,M,,*6F
06/26/2015	21:09:35.667	$GPGGA,210936,2614.1027,N,07956.9094,W,1,10,2.0,20,M,,M,,*62
06/26/2015	21:09:36.587	$GPGGA,210937,2614.1028,N,07956.9109,W,1,10,1.9,20,M,,M,,*63
06/26/2015	21:09:37.647	$GPGGA,210938,2614.1030,N,07956.9123,W,1,10,1.9,20,M,,M,,*6D
06/26/2015	21:09:38.577	$GPGGA,210939,2614.1031,N,07956.9137,W,1,10,2.1,20,M,,M,,*63
06/26/2015	21:09:39.597	$GPGGA,210940,2614.1032,N,07956.9149,W,1,8,1.9,20,M,,M,,*55
06/26/2015	21:09:40.567	$GPGGA,210941,2614.1035,N,07956.9163,W,1,8,2.0,20,M,,M,,*51
06/26/2015	21:09:41.614	$GPGGA,210942,2614.1039,N,07956.9177,W,1,9,2.0,20,M,,M,,*5A
06/26/2015	21:09:42.567	$GPGGA,210943,2614.1039,N,07956.9191,W,1,9,1.9,20,M,,M,,*59
06/26/2015	21:09:43.627	$GPGGA,210944,2614.1042,N,07956.9205,W,1,9,1.9,20,M,,M,,*5C
06/26/2015	21:09:44.557	$GPGGA,210945,2614.1042,N,07956.9217,W,1,9,1.9,20,M,,M,,*5E
06/26/2015	21:09:45.613	$GPGGA,210946,2614.1045,N,07956.9231,W,1,10,1.9,20,M,,M,,*66
06/26/2015	21:09:46.558	$GPGGA,210947,2614.1046,N,07956.9245,W,1,10,1.9,20,M,,M,,*67
06/26/2015	21:09:47.604	$GPGGA,210948,2614.1049,N,07956.9259,W,1,9,1.9,20,M,,M,,*52
06/26/2015	21:09:48.548	$GPGGA,210949,2614.1049,N,07956.9271,W,1,9,1.9,20,M,,M,,*59
06/26/2015	21:09:49.587	$GPGGA,210950,2614.1050,N,07956.9285,W,1,9,1.9,20,M,,M,,*52
06/26/2015	21:09:50.567	$GPGGA,210951,2614.1053,N,07956.9299,W,1,9,1.9,20,M,,M,,*5D
06/26/2015	21:09:51.627	$GPGGA,210952,2614.1057,N,07956.9311,W,1,10,1.9,20,M,,M,,*63
06/26/2015	21:09:52.547	$GPGGA,210953,2614.1057,N,07956.9324,W,1,10,2.0,20,M,,M,,*6E
06/26/2015	21:09:53.627	$GPGGA,210954,2614.1057,N,07956.9339,W,1,8,1.9,20,M,,M,,*56
06/26/2015	21:09:54.537	$GPGGA,210955,2614.1060,N,07956.9353,W,1,8,2.0,20,M,,M,,*55
06/26/2015	21:09:55.637	$GPGGA,210956,2614.1061,N,07956.9366,W,1,8,1.9,20,M,,M,,*5B
06/26/2015	21:09:56.547	$GPGGA,210957,2614.1064,N,07956.9379,W,1,8,1.9,20,M,,M,,*51
06/26/2015	21:09:57.577	$GPGGA,210958,2614.1067,N,07956.9393,W,1,9,1.9,20,M,,M,,*58
06/26/2015	21:09:58.547	$GPGGA,210959,2614.1068,N,07956.9408,W,1,9,1.9,20,M,,M,,*53
06/26/2015	21:09:59.647	$GPGGA,211000,2614.1070,N,07956.9420,W,1,9,1.9,20,M,,M,,*54
06/26/2015	21:10:00.547	$GPGGA,211001,2614.1069,N,07956.9434,W,1,9,1.9,20,M,,M,,*58
06/26/2015	21:10:01.567	$GPGGA,211002,2614.1069,N,07956.9434,W,1,10,1.9,20,M,,M,,*63
06/26/2015	21:10:02.547	$GPGGA,211003,2614.1075,N,07956.9462,W,1,10,2.0,20,M,,M,,*66
06/26/2015	21:10:03.601	$GPGGA,211004,2614.1077,N,07956.9476,W,1,9,1.9,20,M,,M,,*54
06/26/2015	21:10:04.516	$GPGGA,211005,2614.1077,N,07956.9476,W,1,9,1.9,20,M,,M,,*55
06/26/2015	21:10:05.538	$GPGGA,211006,2614.1078,N,07956.9490,W,1,10,1.9,20,M,,M,,*69
06/26/2015	21:10:06.518	$GPGGA,211007,2614.1082,N,07956.9516,W,1,10,1.9,20,M,,M,,*62
06/26/2015	21:10:07.577	$GPGGA,211008,2614.1082,N,07956.9516,W,1,10,1.9,20,M,,M,,*6D
06/26/2015	21:10:08.627	$GPGGA,211009,2614.1086,N,07956.9545,W,1,10,2.0,20,M,,M,,*64
06/26/2015	21:10:09.637	$GPGGA,211010,2614.1089,N,07956.9557,W,1,10,1.9,20,M,,M,,*6A
06/26/2015	21:10:10.537	$GPGGA,211011,2614.1089,N,07956.9557,W,1,10,1.9,20,M,,M,,*6B
06/26/2015	21:10:11.657	$GPGGA,211012,2614.1095,N,07956.9585,W,1,10,1.9,20,M,,M,,*6A
06/26/2015	21:10:12.517	$GPGGA,211013,2614.1097,N,07956.9599,W,1,10,1.9,20,M,,M,,*64
06/26/2015	21:10:13.618	$GPGGA,211014,2614.1100,N,07956.9613,W,1,10,1.9,20,M,,M,,*6D
06/26/2015	21:10:14.587	$GPGGA,211015,2614.1103,N,07956.9628,W,1,10,1.9,20,M,,M,,*67
06/26/2015	21:10:15.637	$GPGGA,211016,2614.1104,N,07956.9642,W,1,10,1.9,20,M,,M,,*6F
06/26/2015	21:10:16.598	$GPGGA,211017,2614.1107,N,07956.9655,W,1,10,1.9,20,M,,M,,*6B
06/26/2015	21:10:17.608	$GPGGA,211018,2614.1111,N,07956.9668,W,1,10,1.9,20,M,,M,,*6D
06/26/2015	21:10:18.599	$GPGGA,211019,2614.1114,N,07956.9683,W,1,10,1.9,20,M,,M,,*6C
06/26/2015	21:10:19.637	$GPGGA,211020,2614.1117,N,07956.9697,W,1,10,1.9,20,M,,M,,*60
06/26/2015	21:10:20.587	$GPGGA,211021,2614.1121,N,07956.9711,W,1,10,1.9,20,M,,M,,*6B
06/26/2015	21:10:21.602	$GPGGA,211022,2614.1124,N,07956.9726,W,1,10,1.9,20,M,,M,,*69
06/26/2015	21:10:22.578	$GPGGA,211023,2614.1125,N,07956.9740,W,1,10,1.9,20,M,,M,,*69
06/26/2015	21:10:23.621	$GPGGA,211024,2614.1129,N,07956.9754,W,1,10,1.9,20,M,,M,,*67
06/26/2015	21:10:24.578	$GPGGA,211025,2614.1132,N,07956.9769,W,1,10,1.9,20,M,,M,,*62
06/26/2015	21:10:25.601	$GPGGA,211026,2614.1133,N,07956.9783,W,1,10,1.9,20,M,,M,,*64
06/26/2015	21:10:26.567	$GPGGA,211027,2614.1136,N,07956.9798,W,1,10,1.9,20,M,,M,,*6A
06/26/2015	21:10:27.598	$GPGGA,211028,2614.1139,N,07956.9812,W,1,10,1.9,20,M,,M,,*67
06/26/2015	21:10:28.557	$GPGGA,211029,2614.1142,N,07956.9826,W,1,10,1.9,20,M,,M,,*6D
06/26/2015	21:10:29.587	$GPGGA,211030,2614.1144,N,07956.9839,W,1,10,1.9,20,M,,M,,*6D
06/26/2015	21:10:30.567	$GPGGA,211031,2614.1147,N,07956.9852,W,1,10,1.9,20,M,,M,,*62
06/26/2015	21:10:31.587	$GPGGA,211032,2614.1150,N,07956.9866,W,1,10,1.9,20,M,,M,,*60
06/26/2015	21:10:32.547	$GPGGA,211033,2614.1151,N,07956.9881,W,1,10,1.9,20,M,,M,,*69
06/26/2015	21:10:33.567	$GPGGA,211034,2614.1154,N,07956.9893,W,1,10,1.9,20,M,,M,,*68
06/26/2015	21:10:34.557	$GPGGA,211035,2614.1158,N,07956.9907,W,1,10,1.9,20,M,,M,,*69
06/26/2015	21:10:35.587	$GPGGA,211036,2614.1160,N,07956.9921,W,1,10,1.9,20,M,,M,,*65
06/26/2015	21:10:36.547	$GPGGA,211037,2614.1162,N,07956.9933,W,1,10,1.9,20,M,,M,,*65
06/26/2015	21:10:37.567	$GPGGA,211038,2614.1165,N,07956.9949,W,1,10,1.9,20,M,,M,,*60
06/26/2015	21:10:38.538	$GPGGA,211039,2614.1167,N,07956.9961,W,1,10,1.9,20,M,,M,,*69
06/26/2015	21:10:39.578	$GPGGA,211040,2614.1169,N,07956.9975,W,1,10,1.9,20,M,,M,,*6C
06/26/2015	21:10:40.548	$GPGGA,211041,2614.1172,N,07956.9989,W,1,10,1.9,20,M,,M,,*64
06/26/2015	21:10:41.568	$GPGGA,211042,2614.1174,N,07957.0001,W,1,9,1.9,20,M,,M,,*58
06/26/2015	21:10:42.537	$GPGGA,211043,2614.1176,N,07957.0014,W,1,9,1.9,20,M,,M,,*5F
06/26/2015	21:10:43.537	$GPGGA,211044,2614.1178,N,07957.0029,W,1,10,1.9,20,M,,M,,*60
06/26/2015	21:10:44.537	$GPGGA,211045,2614.1180,N,07957.0041,W,1,10,1.9,20,M,,M,,*68
06/26/2015	21:10:45.517	$GPGGA,211046,2614.1182,N,07957.0055,W,1,10,1.9,20,M,,M,,*6C
06/26/2015	21:10:46.537	$GPGGA,211047,2614.1185,N,07957.0069,W,1,10,1.9,20,M,,M,,*65
06/26/2015	21:10:47.557	$GPGGA,211048,2614.1187,N,07957.0083,W,1,10,1.9,20,M,,M,,*6C
06/26/2015	21:10:48.517	$GPGGA,211049,2614.1190,N,07957.0098,W,1,10,2.0,20,M,,M,,*6B
06/26/2015	21:10:49.547	$GPGGA,211050,2614.1194,N,07957.0112,W,1,10,1.9,20,M,,M,,*6E
06/26/2015	21:10:50.517	$GPGGA,211051,2614.1198,N,07957.0126,W,1,10,1.9,20,M,,M,,*64
06/26/2015	21:10:51.547	$GPGGA,211052,2614.1200,N,07957.0139,W,1,10,1.9,20,M,,M,,*6B
06/26/2015	21:10:52.517	$GPGGA,211053,2614.1203,N,07957.0153,W,1,10,1.9,20,M,,M,,*65
06/26/2015	21:10:53.617	$GPGGA,211054,2614.1205,N,07957.0167,W,1,10,1.9,20,M,,M,,*63
06/26/2015	21:10:54.509	$GPGGA,211055,2614.1208,N,07957.0181,W,1,10,1.9,20,M,,M,,*67
06/26/2015	21:10:55.557	$GPGGA,211056,2614.1209,N,07957.0195,W,1,10,1.9,20,M,,M,,*60
06/26/2015	21:10:56.600	$GPGGA,211057,2614.1212,N,07957.0209,W,1,10,1.9,20,M,,M,,*6D
06/26/2015	21:10:57.638	$GPGGA,211058,2614.1214,N,07957.0224,W,1,10,1.9,20,M,,M,,*6B
06/26/2015	21:10:58.518	$GPGGA,211059,2614.1216,N,07957.0236,W,1,10,1.9,20,M,,M,,*6B
06/26/2015	21:10:59.677	$GPGGA,211100,2614.1218,N,07957.0249,W,1,10,1.9,20,M,,M,,*60
06/26/2015	21:11:00.587	$GPGGA,211101,2614.1219,N,07957.0264,W,1,10,1.9,20,M,,M,,*6F
06/26/2015	21:11:01.599	$GPGGA,211102,2614.1222,N,07957.0276,W,1,10,1.9,20,M,,M,,*67
06/26/2015	21:11:02.587	$GPGGA,211103,2614.1223,N,07957.0289,W,1,10,1.9,20,M,,M,,*67
06/26/2015	21:11:03.597	$GPGGA,211104,2614.1226,N,07957.0303,W,1,10,1.9,20,M,,M,,*66
06/26/2015	21:11:04.497	$GPGGA,211105,2614.1227,N,07957.0318,W,1,10,1.9,20,M,,M,,*6C
06/26/2015	21:11:05.599	$GPGGA,211106,2614.1230,N,07957.0332,W,1,10,1.9,20,M,,M,,*61
06/26/2015	21:11:06.577	$GPGGA,211107,2614.1230,N,07957.0344,W,1,10,1.9,20,M,,M,,*61
06/26/2015	21:11:07.597	$GPGGA,211108,2614.1233,N,07957.0358,W,1,10,1.9,20,M,,M,,*60
06/26/2015	21:11:08.587	$GPGGA,211109,2614.1234,N,07957.0372,W,1,10,1.9,20,M,,M,,*6E
06/26/2015	21:11:09.587	$GPGGA,211110,2614.1236,N,07957.0383,W,1,10,1.9,20,M,,M,,*6A
06/26/2015	21:11:10.567	$GPGGA,211111,2614.1237,N,07957.0397,W,1,10,1.5,20,M,,M,,*63
06/26/2015	21:11:11.610	$GPGGA,211112,2614.1238,N,07957.0409,W,1,10,1.5,20,M,,M,,*6F
06/26/2015	21:11:12.577	$GPGGA,211113,2614.1241,N,07957.0421,W,1,10,1.5,20,M,,M,,*6A
06/26/2015	21:11:13.558	$GPGGA,211114,2614.1243,N,07957.0434,W,1,10,1.5,20,M,,M,,*6B
06/26/2015	21:11:14.568	$GPGGA,211115,2614.1244,N,07957.0448,W,1,10,1.5,20,M,,M,,*66
06/26/2015	21:11:15.588	$GPGGA,211116,2614.1245,N,07957.0459,W,1,10,1.5,20,M,,M,,*64
06/26/2015	21:11:16.568	$GPGGA,211117,2614.1248,N,07957.0473,W,1,10,1.5,20,M,,M,,*60
06/26/2015	21:11:17.577	$GPGGA,211118,2614.1250,N,07957.0486,W,1,10,1.5,20,M,,M,,*6C
06/26/2015	21:11:18.557	$GPGGA,211119,2614.1251,N,07957.0499,W,1,10,1.6,20,M,,M,,*61
06/26/2015	21:11:19.567	$GPGGA,211120,2614.1252,N,07957.0513,W,1,10,1.5,20,M,,M,,*68
06/26/2015	21:11:20.557	$GPGGA,211121,2614.1254,N,07957.0527,W,1,10,1.5,20,M,,M,,*68
06/26/2015	21:11:21.557	$GPGGA,211122,2614.1255,N,07957.0539,W,1,10,1.5,21,M,,M,,*64
06/26/2015	21:11:22.558	$GPGGA,211123,2614.1258,N,07957.0554,W,1,10,1.5,21,M,,M,,*63
06/26/2015	21:11:23.587	$GPGGA,211124,2614.1259,N,07957.0568,W,1,10,1.9,21,M,,M,,*66
06/26/2015	21:11:24.547	$GPGGA,211125,2614.1262,N,07957.0583,W,1,10,1.9,21,M,,M,,*6A
06/26/2015	21:11:25.537	$GPGGA,211126,2614.1265,N,07957.0598,W,1,8,2.0,21,M,,M,,*57
06/26/2015	21:11:26.567	$GPGGA,211127,2614.1266,N,07957.0612,W,1,8,1.9,21,M,,M,,*5E
06/26/2015	21:11:27.577	$GPGGA,211128,2614.1268,N,07957.0628,W,1,10,1.9,21,M,,M,,*6F
06/26/2015	21:11:28.547	$GPGGA,211129,2614.1270,N,07957.0641,W,1,10,1.9,21,M,,M,,*68
06/26/2015	21:11:29.567	$GPGGA,211130,2614.1273,N,07957.0655,W,1,9,1.9,21,M,,M,,*5E
06/26/2015	21:11:30.537	$GPGGA,211131,2614.1276,N,07957.0670,W,1,9,1.9,21,M,,M,,*5D
06/26/2015	21:11:31.608	$GPGGA,211132,2614.1277,N,07957.0684,W,1,10,1.9,21,M,,M,,*6C
06/26/2015	21:11:32.518	$GPGGA,211133,2614.1280,N,07957.0698,W,1,10,1.9,21,M,,M,,*68
06/26/2015	21:11:33.648	$GPGGA,211134,2614.1283,N,07957.0712,W,1,10,1.9,20,M,,M,,*6E
06/26/2015	21:11:34.517	$GPGGA,211135,2614.1286,N,07957.0726,W,1,10,1.9,20,M,,M,,*6D
06/26/2015	21:11:35.557	$GPGGA,211136,2614.1288,N,07957.0740,W,1,10,1.9,20,M,,M,,*60
06/26/2015	21:11:36.537	$GPGGA,211137,2614.1290,N,07957.0753,W,1,10,1.9,20,M,,M,,*6A
06/26/2015	21:11:37.517	$GPGGA,211138,2614.1294,N,07957.0769,W,1,10,1.9,20,M,,M,,*68
06/26/2015	21:11:38.627	$GPGGA,211139,2614.1297,N,07957.0782,W,1,10,1.9,20,M,,M,,*6F
06/26/2015	21:11:39.527	$GPGGA,211140,2614.1298,N,07957.0795,W,1,10,1.5,20,M,,M,,*64
06/26/2015	21:11:40.517	$GPGGA,211141,2614.1299,N,07957.0807,W,1,10,1.5,20,M,,M,,*60
06/26/2015	21:11:41.527	$GPGGA,211142,2614.1303,N,07957.0820,W,1,10,1.5,20,M,,M,,*64
06/26/2015	21:11:42.517	$GPGGA,211143,2614.1306,N,07957.0834,W,1,10,1.5,20,M,,M,,*65
06/26/2015	21:11:44.537	$GPGGA,211145,2614.1309,N,07957.0858,W,1,10,1.5,20,M,,M,,*66
06/26/2015	21:11:45.600	$GPGGA,211146,2614.1313,N,07957.0871,W,1,10,1.5,21,M,,M,,*64
06/26/2015	21:11:46.637	$GPGGA,211147,2614.1315,N,07957.0885,W,1,10,1.5,21,M,,M,,*68
06/26/2015	21:11:47.617	$GPGGA,211148,2614.1317,N,07957.0899,W,1,11,1.5,21,M,,M,,*69
06/26/2015	21:11:48.588	$GPGGA,211149,2614.1320,N,07957.0912,W,1,11,1.5,21,M,,M,,*6E
06/26/2015	21:11:49.598	$GPGGA,211150,2614.1323,N,07957.0926,W,1,11,1.5,21,M,,M,,*62
06/26/2015	21:11:50.588	$GPGGA,211151,2614.1324,N,07957.0939,W,1,11,1.5,21,M,,M,,*6A
