Software Version Number: 1	Data File Format Number: 1	Build Version Number: 1	Error Count Since VI Started: 1	Manufacturer: Raytheon	 Model Number: RayMarine 120	 S/N: 	 Cal Date: 	 Wind Direction Offset: 0.00	 Slope (M)1: 0.00	 Offset (B)1: 0.00	 Slope (M)2: 0.00	 Offset (B)2: 0.00	 Slope (M)3: 0.00	 Offset (B)3: 0.00	 Slope (M)4: 0.00	 Offset (B)4: 0.00	 Slope (M)5: 0.00	 Offset (B)5: 0.00	 Slope (M)6: 0.00	 Offset (B)6: 0.00
Computer Date	Computer Time	GGA String
06/19/2015	11:00:00.547	$GPGGA,110001,2513.2204,N,07918.2640,W,1,9,1.8,11,M,,M,,*57
06/19/2015	11:00:01.537	$GPGGA,110002,2513.2208,N,07918.2629,W,1,9,1.8,11,M,,M,,*57
06/19/2015	11:00:02.527	$GPGGA,110003,2513.2209,N,07918.2619,W,1,9,1.8,11,M,,M,,*54
06/19/2015	11:00:03.567	$GPGGA,110004,2513.2213,N,07918.2608,W,1,9,1.8,11,M,,M,,*58
06/19/2015	11:00:04.627	$GPGGA,110005,2513.2217,N,07918.2598,W,1,9,1.8,11,M,,M,,*57
06/19/2015	11:00:05.527	$GPGGA,110006,2513.2220,N,07918.2588,W,1,9,1.8,11,M,,M,,*51
06/19/2015	11:00:06.507	$GPGGA,110007,2513.2223,N,07918.2577,W,1,9,1.8,11,M,,M,,*53
06/19/2015	11:00:07.517	$GPGGA,110008,2513.2227,N,07918.2567,W,1,9,1.8,11,M,,M,,*59
06/19/2015	11:00:08.496	$GPGGA,110009,2513.2231,N,07918.2557,W,1,9,1.8,11,M,,M,,*5C
06/19/2015	11:00:09.599	$GPGGA,110010,2513.2234,N,07918.2547,W,1,9,1.8,11,M,,M,,*50
06/19/2015	11:00:10.606	$GPGGA,110011,2513.2237,N,07918.2538,W,1,9,1.8,11,M,,M,,*5A
06/19/2015	11:00:11.536	$GPGGA,110012,2513.2240,N,07918.2528,W,1,9,1.8,11,M,,M,,*58
06/19/2015	11:00:12.508	$GPGGA,110013,2513.2242,N,07918.2518,W,1,9,1.8,11,M,,M,,*58
06/19/2015	11:00:13.616	$GPGGA,110014,2513.2245,N,07918.2508,W,1,8,1.8,11,M,,M,,*58
06/19/2015	11:00:14.576	$GPGGA,110015,2513.2249,N,07918.2499,W,1,8,1.9,11,M,,M,,*5D
06/19/2015	11:00:15.516	$GPGGA,110016,2513.2252,N,07918.2489,W,1,8,1.9,11,M,,M,,*55
06/19/2015	11:00:16.488	$GPGGA,110017,2513.2255,N,07918.2480,W,1,8,1.8,11,M,,M,,*5B
06/19/2015	11:00:17.476	$GPGGA,110018,2513.2258,N,07918.2470,W,1,9,1.8,11,M,,M,,*57
06/19/2015	11:00:18.491	$GPGGA,110019,2513.2260,N,07918.2460,W,1,9,1.8,11,M,,M,,*5C
06/19/2015	11:00:19.646	$GPGGA,110020,2513.2263,N,07918.2450,W,1,9,1.8,12,M,,M,,*55
06/19/2015	11:00:20.567	$GPGGA,110021,2513.2266,N,07918.2441,W,1,9,1.8,12,M,,M,,*51
06/19/2015	11:00:21.598	$GPGGA,110022,2513.2270,N,07918.2431,W,1,9,1.8,12,M,,M,,*52
06/19/2015	11:00:22.566	$GPGGA,110023,2513.2271,N,07918.2422,W,1,9,1.8,12,M,,M,,*50
06/19/2015	11:00:23.589	$GPGGA,110024,2513.2274,N,07918.2412,W,1,9,1.8,12,M,,M,,*51
06/19/2015	11:00:24.557	$GPGGA,110025,2513.2278,N,07918.2403,W,1,9,1.8,12,M,,M,,*5C
06/19/2015	11:00:25.601	$GPGGA,110026,2513.2281,N,07918.2393,W,1,9,1.8,12,M,,M,,*57
06/19/2015	11:00:26.576	$GPGGA,110027,2513.2282,N,07918.2383,W,1,9,1.8,12,M,,M,,*54
06/19/2015	11:00:27.606	$GPGGA,110028,2513.2285,N,07918.2373,W,1,9,1.8,12,M,,M,,*53
06/19/2015	11:00:28.546	$GPGGA,110029,2513.2289,N,07918.2364,W,1,9,1.8,12,M,,M,,*58
06/19/2015	11:00:29.546	$GPGGA,110030,2513.2292,N,07918.2354,W,1,9,1.8,12,M,,M,,*59
06/19/2015	11:00:30.556	$GPGGA,110031,2513.2295,N,07918.2345,W,1,9,1.8,12,M,,M,,*5F
06/19/2015	11:00:31.616	$GPGGA,110032,2513.2296,N,07918.2336,W,1,9,1.8,12,M,,M,,*5B
06/19/2015	11:00:32.546	$GPGGA,110033,2513.2299,N,07918.2327,W,1,9,1.8,12,M,,M,,*55
06/19/2015	11:00:33.576	$GPGGA,110034,2513.2302,N,07918.2318,W,1,9,1.8,12,M,,M,,*5D
06/19/2015	11:00:34.546	$GPGGA,110035,2513.2305,N,07918.2308,W,1,9,1.8,12,M,,M,,*5A
06/19/2015	11:00:35.566	$GPGGA,110036,2513.2307,N,07918.2299,W,1,9,1.8,12,M,,M,,*52
06/19/2015	11:00:36.556	$GPGGA,110037,2513.2310,N,07918.2290,W,1,9,1.8,12,M,,M,,*5C
06/19/2015	11:00:37.566	$GPGGA,110038,2513.2311,N,07918.2281,W,1,9,1.8,12,M,,M,,*52
06/19/2015	11:00:38.526	$GPGGA,110039,2513.2314,N,07918.2272,W,1,9,1.9,12,M,,M,,*5B
06/19/2015	11:00:39.566	$GPGGA,110040,2513.2318,N,07918.2263,W,1,8,1.8,12,M,,M,,*59
06/19/2015	11:00:40.526	$GPGGA,110041,2513.2321,N,07918.2254,W,1,8,1.8,12,M,,M,,*56
06/19/2015	11:00:41.567	$GPGGA,110042,2513.2323,N,07918.2245,W,1,9,1.8,12,M,,M,,*56
06/19/2015	11:00:42.577	$GPGGA,110043,2513.2325,N,07918.2235,W,1,9,1.8,12,M,,M,,*56
06/19/2015	11:00:43.566	$GPGGA,110044,2513.2329,N,07918.2226,W,1,9,1.8,12,M,,M,,*5F
06/19/2015	11:00:44.526	$GPGGA,110045,2513.2332,N,07918.2216,W,1,9,1.8,12,M,,M,,*57
06/19/2015	11:00:45.516	$GPGGA,110046,2513.2335,N,07918.2207,W,1,9,1.8,12,M,,M,,*53
06/19/2015	11:00:46.536	$GPGGA,110047,2513.2338,N,07918.2197,W,1,9,1.8,12,M,,M,,*55
06/19/2015	11:00:47.604	$GPGGA,110048,2513.2341,N,07918.2188,W,1,9,1.8,12,M,,M,,*5A
06/19/2015	11:00:48.526	$GPGGA,110049,2513.2343,N,07918.2179,W,1,9,1.9,12,M,,M,,*56
06/19/2015	11:00:49.536	$GPGGA,110050,2513.2346,N,07918.2170,W,1,8,1.9,12,M,,M,,*53
06/19/2015	11:00:50.506	$GPGGA,110051,2513.2350,N,07918.2162,W,1,8,1.9,12,M,,M,,*56
06/19/2015	11:00:51.610	$GPGGA,110052,2513.2352,N,07918.2153,W,1,8,1.8,12,M,,M,,*54
06/19/2015	11:00:52.516	$GPGGA,110053,2513.2354,N,07918.2144,W,1,8,1.8,12,M,,M,,*55
06/19/2015	11:00:53.526	$GPGGA,110054,2513.2359,N,07918.2135,W,1,9,1.8,12,M,,M,,*58
06/19/2015	11:00:54.516	$GPGGA,110055,2513.2361,N,07918.2125,W,1,9,1.8,12,M,,M,,*53
06/19/2015	11:00:55.546	$GPGGA,110056,2513.2364,N,07918.2116,W,1,9,1.8,12,M,,M,,*55
06/19/2015	11:00:56.607	$GPGGA,110057,2513.2368,N,07918.2107,W,1,9,1.8,12,M,,M,,*58
06/19/2015	11:00:57.526	$GPGGA,110058,2513.2372,N,07918.2097,W,1,9,1.8,12,M,,M,,*54
06/19/2015	11:00:58.516	$GPGGA,110059,2513.2374,N,07918.2088,W,1,9,1.8,12,M,,M,,*5D
06/19/2015	11:00:59.637	$GPGGA,110100,2513.2376,N,07918.2079,W,1,9,1.8,12,M,,M,,*5C
06/19/2015	11:01:00.516	$GPGGA,110101,2513.2381,N,07918.2070,W,1,9,1.8,12,M,,M,,*5C
06/19/2015	11:01:01.546	$GPGGA,110102,2513.2383,N,07918.2060,W,1,9,1.8,12,M,,M,,*5C
06/19/2015	11:01:02.598	$GPGGA,110103,2513.2386,N,07918.2051,W,1,9,1.8,12,M,,M,,*5A
06/19/2015	11:01:03.601	$GPGGA,110104,2513.2390,N,07918.2042,W,1,9,1.8,12,M,,M,,*58
06/19/2015	11:01:04.588	$GPGGA,110105,2513.2393,N,07918.2033,W,1,9,1.8,12,M,,M,,*5C
06/19/2015	11:01:05.596	$GPGGA,110106,2513.2396,N,07918.2023,W,1,9,1.8,12,M,,M,,*5B
06/19/2015	11:01:06.576	$GPGGA,110107,2513.2399,N,07918.2014,W,1,9,1.8,12,M,,M,,*51
06/19/2015	11:01:07.506	$GPGGA,110108,2513.2404,N,07918.2004,W,1,9,1.8,12,M,,M,,*5C
06/19/2015	11:01:08.566	$GPGGA,110109,2513.2406,N,07918.1996,W,1,9,1.8,12,M,,M,,*5E
06/19/2015	11:01:09.486	$GPGGA,110110,2513.2408,N,07918.1987,W,1,9,1.8,12,M,,M,,*58
06/19/2015	11:01:10.567	$GPGGA,110111,2513.2411,N,07918.1977,W,1,9,1.8,13,M,,M,,*5F
06/19/2015	11:01:11.603	$GPGGA,110112,2513.2415,N,07918.1969,W,1,9,1.8,13,M,,M,,*57
06/19/2015	11:01:12.556	$GPGGA,110113,2513.2419,N,07918.1960,W,1,9,1.8,13,M,,M,,*53
06/19/2015	11:01:13.556	$GPGGA,110114,2513.2422,N,07918.1951,W,1,9,1.8,13,M,,M,,*5E
06/19/2015	11:01:14.566	$GPGGA,110115,2513.2425,N,07918.1943,W,1,9,1.8,13,M,,M,,*5B
06/19/2015	11:01:15.566	$GPGGA,110116,2513.2428,N,07918.1934,W,1,9,1.8,13,M,,M,,*55
06/19/2015	11:01:16.557	$GPGGA,110117,2513.2430,N,07918.1925,W,1,9,1.8,13,M,,M,,*5D
06/19/2015	11:01:17.567	$GPGGA,110118,2513.2435,N,07918.1917,W,1,9,1.8,13,M,,M,,*56
06/19/2015	11:01:18.546	$GPGGA,110119,2513.2437,N,07918.1908,W,1,9,1.8,13,M,,M,,*5B
06/19/2015	11:01:19.576	$GPGGA,110120,2513.2440,N,07918.1900,W,1,9,1.8,13,M,,M,,*59
06/19/2015	11:01:20.556	$GPGGA,110121,2513.2444,N,07918.1891,W,1,9,1.9,13,M,,M,,*54
06/19/2015	11:01:21.556	$GPGGA,110122,2513.2447,N,07918.1883,W,1,8,1.9,13,M,,M,,*56
06/19/2015	11:01:22.546	$GPGGA,110123,2513.2448,N,07918.1874,W,1,8,1.9,13,M,,M,,*50
06/19/2015	11:01:23.576	$GPGGA,110124,2513.2451,N,07918.1865,W,1,9,1.8,13,M,,M,,*5F
06/19/2015	11:01:24.536	$GPGGA,110125,2513.2455,N,07918.1856,W,1,9,1.8,13,M,,M,,*5A
06/19/2015	11:01:25.526	$GPGGA,110126,2513.2458,N,07918.1847,W,1,9,1.8,13,M,,M,,*54
06/19/2015	11:01:26.546	$GPGGA,110127,2513.2462,N,07918.1837,W,1,9,1.8,13,M,,M,,*5B
06/19/2015	11:01:27.536	$GPGGA,110128,2513.2464,N,07918.1828,W,1,9,1.8,13,M,,M,,*5C
06/19/2015	11:01:28.536	$GPGGA,110129,2513.2468,N,07918.1819,W,1,9,1.8,13,M,,M,,*53
06/19/2015	11:01:29.556	$GPGGA,110130,2513.2471,N,07918.1810,W,1,9,1.8,13,M,,M,,*5A
06/19/2015	11:01:30.816	$GPGGA,110131,2513.2473,N,07918.1801,W,1,9,1.8,13,M,,M,,*59
06/19/2015	11:01:31.576	$GPGGA,110132,2513.2476,N,07918.1792,W,1,9,1.8,13,M,,M,,*5A
06/19/2015	11:01:32.526	$GPGGA,110133,2513.2479,N,07918.1783,W,1,9,1.8,13,M,,M,,*54
06/19/2015	11:01:33.506	$GPGGA,110134,2513.2482,N,07918.1774,W,1,9,1.8,13,M,,M,,*5F
06/19/2015	11:01:34.527	$GPGGA,110135,2513.2484,N,07918.1765,W,1,9,1.8,13,M,,M,,*58
06/19/2015	11:01:35.556	$GPGGA,110136,2513.2487,N,07918.1756,W,1,9,1.8,13,M,,M,,*58
06/19/2015	11:01:36.536	$GPGGA,110137,2513.2491,N,07918.1747,W,1,9,1.8,13,M,,M,,*5E
06/19/2015	11:01:37.526	$GPGGA,110138,2513.2493,N,07918.1738,W,1,9,1.8,13,M,,M,,*5B
06/19/2015	11:01:38.502	$GPGGA,110139,2513.2495,N,07918.1730,W,1,9,1.8,13,M,,M,,*54
06/19/2015	11:01:39.546	$GPGGA,110140,2513.2498,N,07918.1721,W,1,9,1.8,13,M,,M,,*57
06/19/2015	11:01:40.516	$GPGGA,110141,2513.2502,N,07918.1712,W,1,9,1.8,13,M,,M,,*54
06/19/2015	11:01:41.536	$GPGGA,110142,2513.2504,N,07918.1703,W,1,9,1.8,13,M,,M,,*51
06/19/2015	11:01:42.611	$GPGGA,110143,2513.2506,N,07918.1694,W,1,9,1.8,13,M,,M,,*5D
06/19/2015	11:01:43.546	$GPGGA,110144,2513.2509,N,07918.1685,W,1,9,1.8,13,M,,M,,*55
06/19/2015	11:01:44.496	$GPGGA,110145,2513.2513,N,07918.1676,W,1,9,1.8,13,M,,M,,*53
06/19/2015	11:01:45.490	$GPGGA,110146,2513.2513,N,07918.1667,W,1,9,1.8,13,M,,M,,*50
06/19/2015	11:01:46.590	$GPGGA,110147,2513.2516,N,07918.1658,W,1,9,1.8,13,M,,M,,*58
06/19/2015	11:01:47.496	$GPGGA,110148,2513.2520,N,07918.1649,W,1,9,1.8,13,M,,M,,*52
06/19/2015	11:01:48.492	$GPGGA,110149,2513.2523,N,07918.1640,W,1,9,1.8,13,M,,M,,*59
06/19/2015	11:01:49.602	$GPGGA,110150,2513.2526,N,07918.1630,W,1,9,1.8,13,M,,M,,*53
06/19/2015	11:01:50.496	$GPGGA,110151,2513.2529,N,07918.1621,W,1,9,1.8,13,M,,M,,*5D
06/19/2015	11:01:51.596	$GPGGA,110152,2513.2531,N,07918.1611,W,1,9,1.8,13,M,,M,,*54
06/19/2015	11:01:52.497	$GPGGA,110153,2513.2534,N,07918.1601,W,1,9,1.8,13,M,,M,,*51
06/19/2015	11:01:53.586	$GPGGA,110154,2513.2538,N,07918.1592,W,1,9,1.8,13,M,,M,,*53
06/19/2015	11:01:54.488	$GPGGA,110155,2513.2541,N,07918.1582,W,1,9,1.8,13,M,,M,,*5D
06/19/2015	11:01:55.600	$GPGGA,110156,2513.2544,N,07918.1573,W,1,9,1.8,13,M,,M,,*55
06/19/2015	11:01:56.490	$GPGGA,110157,2513.2547,N,07918.1564,W,1,9,1.9,13,M,,M,,*50
06/19/2015	11:01:57.566	$GPGGA,110158,2513.2549,N,07918.1554,W,1,9,1.8,13,M,,M,,*53
06/19/2015	11:01:58.566	$GPGGA,110159,2513.2552,N,07918.1544,W,1,9,1.8,13,M,,M,,*59
06/19/2015	11:01:59.616	$GPGGA,110200,2513.2556,N,07918.1533,W,1,9,1.8,13,M,,M,,*52
06/19/2015	11:02:00.556	$GPGGA,110201,2513.2559,N,07918.1523,W,1,9,1.8,13,M,,M,,*5D
06/19/2015	11:02:01.576	$GPGGA,110202,2513.2562,N,07918.1514,W,1,9,1.8,13,M,,M,,*52
06/19/2015	11:02:02.566	$GPGGA,110203,2513.2563,N,07918.1504,W,1,9,1.8,13,M,,M,,*53
06/19/2015	11:02:03.576	$GPGGA,110204,2513.2567,N,07918.1494,W,1,9,1.8,13,M,,M,,*58
06/19/2015	11:02:04.566	$GPGGA,110205,2513.2570,N,07918.1484,W,1,9,1.8,13,M,,M,,*5E
06/19/2015	11:02:05.566	$GPGGA,110206,2513.2574,N,07918.1474,W,1,9,1.8,13,M,,M,,*56
06/19/2015	11:02:06.546	$GPGGA,110207,2513.2577,N,07918.1464,W,1,9,1.8,13,M,,M,,*55
06/19/2015	11:02:07.576	$GPGGA,110208,2513.2580,N,07918.1455,W,1,9,1.8,13,M,,M,,*50
06/19/2015	11:02:08.547	$GPGGA,110209,2513.2581,N,07918.1445,W,1,9,1.8,13,M,,M,,*51
06/19/2015	11:02:09.557	$GPGGA,110210,2513.2585,N,07918.1434,W,1,8,1.9,13,M,,M,,*5B
06/19/2015	11:02:10.536	$GPGGA,110211,2513.2588,N,07918.1424,W,1,8,1.8,13,M,,M,,*57
06/19/2015	11:02:11.576	$GPGGA,110212,2513.2592,N,07918.1413,W,1,9,1.8,13,M,,M,,*5A
06/19/2015	11:02:12.536	$GPGGA,110213,2513.2595,N,07918.1403,W,1,9,1.8,13,M,,M,,*5D
06/19/2015	11:02:13.536	$GPGGA,110214,2513.2596,N,07918.1392,W,1,9,1.8,13,M,,M,,*56
06/19/2015	11:02:14.526	$GPGGA,110215,2513.2599,N,07918.1382,W,1,9,1.8,13,M,,M,,*59
06/19/2015	11:02:15.556	$GPGGA,110216,2513.2603,N,07918.1373,W,1,9,1.8,13,M,,M,,*54
06/19/2015	11:02:16.536	$GPGGA,110217,2513.2606,N,07918.1363,W,1,9,1.8,13,M,,M,,*51
06/19/2015	11:02:17.516	$GPGGA,110218,2513.2609,N,07918.1353,W,1,9,1.8,13,M,,M,,*52
06/19/2015	11:02:18.527	$GPGGA,110219,2513.2612,N,07918.1343,W,1,9,1.8,13,M,,M,,*58
06/19/2015	11:02:19.556	$GPGGA,110220,2513.2614,N,07918.1332,W,1,9,1.8,13,M,,M,,*52
06/19/2015	11:02:20.516	$GPGGA,110221,2513.2617,N,07918.1322,W,1,9,1.8,13,M,,M,,*51
06/19/2015	11:02:21.536	$GPGGA,110222,2513.2621,N,07918.1312,W,1,9,1.8,13,M,,M,,*54
06/19/2015	11:02:22.506	$GPGGA,110223,2513.2624,N,07918.1301,W,1,9,1.8,13,M,,M,,*52
06/19/2015	11:02:23.556	$GPGGA,110224,2513.2625,N,07918.1291,W,1,9,1.8,13,M,,M,,*5C
06/19/2015	11:02:24.526	$GPGGA,110225,2513.2628,N,07918.1281,W,1,9,1.8,13,M,,M,,*51
06/19/2015	11:02:25.496	$GPGGA,110226,2513.2632,N,07918.1271,W,1,9,1.8,13,M,,M,,*56
06/19/2015	11:02:26.527	$GPGGA,110227,2513.2635,N,07918.1261,W,1,9,1.8,13,M,,M,,*51
06/19/2015	11:02:28.003	$GPGGA,110228,2513.2638,N,07918.1250,W,1,9,1.8,13,M,,M,,*51
06/19/2015	11:02:28.516	$GPGGA,110229,2513.2641,N,07918.1240,W,1,9,1.8,13,M,,M,,*5F
06/19/2015	11:02:29.546	$GPGGA,110230,2513.2643,N,07918.1230,W,1,9,1.8,13,M,,M,,*52
06/19/2015	11:02:30.496	$GPGGA,110231,2513.2646,N,07918.1219,W,1,9,1.8,13,M,,M,,*5D
06/19/2015	11:02:31.566	$GPGGA,110232,2513.2649,N,07918.1209,W,1,9,1.8,13,M,,M,,*50
06/19/2015	11:02:32.596	$GPGGA,110233,2513.2653,N,07918.1199,W,1,9,1.8,13,M,,M,,*50
06/19/2015	11:02:33.506	$GPGGA,110234,2513.2656,N,07918.1188,W,1,9,1.8,13,M,,M,,*52
06/19/2015	11:02:34.516	$GPGGA,110235,2513.2659,N,07918.1178,W,1,9,1.8,13,M,,M,,*53
06/19/2015	11:02:35.616	$GPGGA,110236,2513.2661,N,07918.1168,W,1,9,1.8,13,M,,M,,*5A
06/19/2015	11:02:36.516	$GPGGA,110237,2513.2664,N,07918.1157,W,1,9,1.8,13,M,,M,,*52
06/19/2015	11:02:37.616	$GPGGA,110238,2513.2668,N,07918.1147,W,1,9,1.8,13,M,,M,,*50
06/19/2015	11:02:38.496	$GPGGA,110239,2513.2668,N,07918.1137,W,1,9,1.8,13,M,,M,,*56
06/19/2015	11:02:39.488	$GPGGA,110240,2513.2671,N,07918.1127,W,1,9,1.8,13,M,,M,,*51
06/19/2015	11:02:40.576	$GPGGA,110241,2513.2675,N,07918.1117,W,1,9,1.8,13,M,,M,,*57
06/19/2015	11:02:41.506	$GPGGA,110242,2513.2678,N,07918.1107,W,1,9,1.8,13,M,,M,,*58
06/19/2015	11:02:42.486	$GPGGA,110243,2513.2679,N,07918.1097,W,1,9,1.8,13,M,,M,,*50
06/19/2015	11:02:43.603	$GPGGA,110244,2513.2683,N,07918.1086,W,1,9,1.8,13,M,,M,,*52
06/19/2015	11:02:44.477	$GPGGA,110245,2513.2686,N,07918.1076,W,1,9,1.8,13,M,,M,,*59
06/19/2015	11:02:45.566	$GPGGA,110246,2513.2688,N,07918.1066,W,1,9,1.8,13,M,,M,,*55
06/19/2015	11:02:46.566	$GPGGA,110247,2513.2690,N,07918.1056,W,1,9,1.8,13,M,,M,,*5E
06/19/2015	11:02:47.616	$GPGGA,110248,2513.2693,N,07918.1046,W,1,9,1.8,13,M,,M,,*53
06/19/2015	11:02:48.556	$GPGGA,110249,2513.2697,N,07918.1036,W,1,9,1.8,13,M,,M,,*51
06/19/2015	11:02:49.556	$GPGGA,110250,2513.2699,N,07918.1026,W,1,9,1.8,13,M,,M,,*56
06/19/2015	11:02:50.556	$GPGGA,110251,2513.2701,N,07918.1016,W,1,9,1.8,13,M,,M,,*54
06/19/2015	11:02:51.592	$GPGGA,110252,2513.2704,N,07918.1005,W,1,9,1.8,13,M,,M,,*50
06/19/2015	11:02:52.546	$GPGGA,110253,2513.2707,N,07918.0995,W,1,9,1.8,13,M,,M,,*53
06/19/2015	11:02:53.576	$GPGGA,110254,2513.2708,N,07918.0985,W,1,9,1.8,13,M,,M,,*5A
06/19/2015	11:02:54.546	$GPGGA,110255,2513.2711,N,07918.0976,W,1,9,1.9,13,M,,M,,*5E
06/19/2015	11:02:55.590	$GPGGA,110256,2513.2714,N,07918.0965,W,1,6,2.8,13,M,,M,,*57
06/19/2015	11:02:56.546	$GPGGA,110257,2513.2715,N,07918.0954,W,1,6,1.9,13,M,,M,,*57
06/19/2015	11:02:57.556	$GPGGA,110258,2513.2719,N,07918.0943,W,1,8,1.9,13,M,,M,,*5C
06/19/2015	11:02:58.536	$GPGGA,110259,2513.2722,N,07918.0933,W,1,8,1.9,13,M,,M,,*52
06/19/2015	11:02:59.576	$GPGGA,110300,2513.2724,N,07918.0922,W,1,8,1.9,13,M,,M,,*59
06/19/2015	11:03:00.546	$GPGGA,110301,2513.2726,N,07918.0912,W,1,8,1.9,13,M,,M,,*59
06/19/2015	11:03:01.557	$GPGGA,110302,2513.2729,N,07918.0902,W,1,8,1.9,13,M,,M,,*54
06/19/2015	11:03:02.527	$GPGGA,110303,2513.2730,N,07918.0891,W,1,8,1.9,13,M,,M,,*56
06/19/2015	11:03:03.546	$GPGGA,110304,2513.2733,N,07918.0881,W,1,8,1.9,13,M,,M,,*53
06/19/2015	11:03:04.536	$GPGGA,110305,2513.2735,N,07918.0871,W,1,8,1.9,13,M,,M,,*5B
06/19/2015	11:03:05.526	$GPGGA,110306,2513.2737,N,07918.0861,W,1,8,1.9,13,M,,M,,*5B
06/19/2015	11:03:06.546	$GPGGA,110307,2513.2739,N,07918.0850,W,1,8,1.9,13,M,,M,,*56
06/19/2015	11:03:07.556	$GPGGA,110308,2513.2740,N,07918.0841,W,1,8,1.9,13,M,,M,,*57
06/19/2015	11:03:08.516	$GPGGA,110309,2513.2743,N,07918.0830,W,1,8,1.7,13,M,,M,,*5D
06/19/2015	11:03:09.536	$GPGGA,110310,2513.2744,N,07918.0820,W,1,9,1.7,13,M,,M,,*52
06/19/2015	11:03:10.536	$GPGGA,110311,2513.2746,N,07918.0810,W,1,9,1.7,13,M,,M,,*52
06/19/2015	11:03:11.546	$GPGGA,110312,2513.2747,N,07918.0799,W,1,9,1.7,13,M,,M,,*5E
06/19/2015	11:03:12.516	$GPGGA,110313,2513.2750,N,07918.0789,W,1,9,1.7,13,M,,M,,*58
06/19/2015	11:03:13.526	$GPGGA,110314,2513.2751,N,07918.0779,W,1,9,1.7,13,M,,M,,*51
06/19/2015	11:03:14.516	$GPGGA,110315,2513.2754,N,07918.0769,W,1,9,1.7,14,M,,M,,*53
06/19/2015	11:03:15.516	$GPGGA,110316,2513.2755,N,07918.0759,W,1,9,1.7,14,M,,M,,*52
06/19/2015	11:03:16.506	$GPGGA,110317,2513.2755,N,07918.0750,W,1,9,1.8,14,M,,M,,*55
06/19/2015	11:03:17.636	$GPGGA,110318,2513.2758,N,07918.0740,W,1,8,1.8,14,M,,M,,*57
06/19/2015	11:03:18.499	$GPGGA,110319,2513.2761,N,07918.0729,W,1,8,1.8,14,M,,M,,*53
06/19/2015	11:03:19.527	$GPGGA,110320,2513.2762,N,07918.0720,W,1,9,1.7,14,M,,M,,*5D
06/19/2015	11:03:20.496	$GPGGA,110321,2513.2762,N,07918.0710,W,1,9,1.9,14,M,,M,,*51
06/19/2015	11:03:21.646	$GPGGA,110322,2513.2765,N,07918.0701,W,1,9,1.9,14,M,,M,,*55
06/19/2015	11:03:22.499	$GPGGA,110323,2513.2766,N,07918.0692,W,1,9,1.9,14,M,,M,,*5C
06/19/2015	11:03:23.506	$GPGGA,110324,2513.2768,N,07918.0682,W,1,8,1.9,14,M,,M,,*55
06/19/2015	11:03:24.492	$GPGGA,110325,2513.2769,N,07918.0671,W,1,8,1.7,14,M,,M,,*57
06/19/2015	11:03:26.546	$GPGGA,110327,2513.2772,N,07918.0651,W,1,9,1.7,14,M,,M,,*5C
06/19/2015	11:03:27.506	$GPGGA,110328,2513.2773,N,07918.0640,W,1,9,1.7,14,M,,M,,*52
06/19/2015	11:03:28.576	$GPGGA,110329,2513.2776,N,07918.0629,W,1,9,1.7,14,M,,M,,*59
06/19/2015	11:03:29.626	$GPGGA,110330,2513.2777,N,07918.0619,W,1,9,1.7,15,M,,M,,*52
06/19/2015	11:03:30.646	$GPGGA,110331,2513.2779,N,07918.0608,W,1,9,1.7,15,M,,M,,*5D
06/19/2015	11:03:31.646	$GPGGA,110332,2513.2780,N,07918.0598,W,1,9,1.7,15,M,,M,,*52
06/19/2015	11:03:32.646	$GPGGA,110333,2513.2782,N,07918.0587,W,1,9,1.7,15,M,,M,,*5F
06/19/2015	11:03:33.587	$GPGGA,110334,2513.2784,N,07918.0577,W,1,9,1.7,15,M,,M,,*51
06/19/2015	11:03:34.476	$GPGGA,110335,2513.2784,N,07918.0567,W,1,9,1.7,15,M,,M,,*51
06/19/2015	11:03:35.656	$GPGGA,110336,2513.2784,N,07918.0557,W,1,8,1.7,15,M,,M,,*50
06/19/2015	11:03:36.637	$GPGGA,110337,2513.2787,N,07918.0546,W,1,8,1.7,15,M,,M,,*52
06/19/2015	11:03:37.636	$GPGGA,110338,2513.2787,N,07918.0535,W,1,9,1.7,15,M,,M,,*58
06/19/2015	11:03:38.636	$GPGGA,110339,2513.2787,N,07918.0526,W,1,9,1.7,15,M,,M,,*5B
06/19/2015	11:03:39.656	$GPGGA,110340,2513.2790,N,07918.0516,W,1,9,1.7,16,M,,M,,*53
06/19/2015	11:03:40.556	$GPGGA,110341,2513.2791,N,07918.0506,W,1,9,1.7,16,M,,M,,*52
06/19/2015	11:03:41.612	$GPGGA,110342,2513.2791,N,07918.0496,W,1,9,1.7,16,M,,M,,*59
06/19/2015	11:03:42.616	$GPGGA,110343,2513.2791,N,07918.0487,W,1,9,1.7,16,M,,M,,*58
06/19/2015	11:03:43.609	$GPGGA,110344,2513.2794,N,07918.0477,W,1,9,1.7,16,M,,M,,*55
06/19/2015	11:03:44.546	$GPGGA,110345,2513.2793,N,07918.0467,W,1,9,1.7,16,M,,M,,*52
06/19/2015	11:03:45.588	$GPGGA,110346,2513.2794,N,07918.0457,W,1,9,1.7,16,M,,M,,*55
06/19/2015	11:03:46.603	$GPGGA,110347,2513.2795,N,07918.0447,W,1,9,1.7,16,M,,M,,*54
06/19/2015	11:03:47.626	$GPGGA,110348,2513.2795,N,07918.0437,W,1,9,1.7,16,M,,M,,*5C
06/19/2015	11:03:48.609	$GPGGA,110349,2513.2797,N,07918.0427,W,1,9,1.7,16,M,,M,,*5E
06/19/2015	11:03:49.526	$GPGGA,110350,2513.2796,N,07918.0418,W,1,9,1.7,16,M,,M,,*5B
06/19/2015	11:03:50.604	$GPGGA,110351,2513.2798,N,07918.0406,W,1,9,1.7,16,M,,M,,*5B
06/19/2015	11:03:51.626	$GPGGA,110352,2513.2798,N,07918.0396,W,1,9,1.7,16,M,,M,,*56
06/19/2015	11:03:52.599	$GPGGA,110353,2513.2798,N,07918.0388,W,1,9,1.7,16,M,,M,,*58
06/19/2015	11:03:53.547	$GPGGA,110354,2513.2800,N,07918.0379,W,1,9,1.7,16,M,,M,,*5F
06/19/2015	11:03:54.594	$GPGGA,110355,2513.2799,N,07918.0368,W,1,9,1.7,16,M,,M,,*51
06/19/2015	11:03:55.576	$GPGGA,110356,2513.2801,N,07918.0358,W,1,9,1.7,16,M,,M,,*5F
06/19/2015	11:03:56.516	$GPGGA,110357,2513.2802,N,07918.0347,W,1,9,1.7,16,M,,M,,*53
06/19/2015	11:03:57.566	$GPGGA,110358,2513.2802,N,07918.0337,W,1,9,1.7,16,M,,M,,*5B
06/19/2015	11:03:58.591	$GPGGA,110359,2513.2802,N,07918.0326,W,1,9,1.7,16,M,,M,,*5A
06/19/2015	11:03:59.576	$GPGGA,110400,2513.2804,N,07918.0315,W,1,9,1.7,17,M,,M,,*56
06/19/2015	11:04:00.576	$GPGGA,110401,2513.2803,N,07918.0305,W,1,9,1.7,17,M,,M,,*51
06/19/2015	11:04:01.598	$GPGGA,110402,2513.2804,N,07918.0295,W,1,9,1.7,17,M,,M,,*5D
06/19/2015	11:04:02.506	$GPGGA,110403,2513.2805,N,07918.0285,W,1,9,1.7,17,M,,M,,*5C
06/19/2015	11:04:03.576	$GPGGA,110404,2513.2805,N,07918.0275,W,1,8,2.1,17,M,,M,,*50
06/19/2015	11:04:04.626	$GPGGA,110405,2513.2805,N,07918.0265,W,1,8,1.7,17,M,,M,,*55
06/19/2015	11:04:05.496	$GPGGA,110406,2513.2807,N,07918.0254,W,1,9,1.7,17,M,,M,,*57
06/19/2015	11:04:06.616	$GPGGA,110407,2513.2808,N,07918.0244,W,1,9,1.7,17,M,,M,,*58
06/19/2015	11:04:07.605	$GPGGA,110408,2513.2809,N,07918.0234,W,1,9,1.7,17,M,,M,,*51
06/19/2015	11:04:08.576	$GPGGA,110409,2513.2809,N,07918.0225,W,1,9,1.7,17,M,,M,,*50
06/19/2015	11:04:09.556	$GPGGA,110410,2513.2809,N,07918.0215,W,1,9,1.7,17,M,,M,,*5B
06/19/2015	11:04:10.566	$GPGGA,110411,2513.2812,N,07918.0205,W,1,9,1.7,17,M,,M,,*51
06/19/2015	11:04:11.607	$GPGGA,110412,2513.2813,N,07918.0195,W,1,9,1.7,17,M,,M,,*59
06/19/2015	11:04:12.557	$GPGGA,110413,2513.2813,N,07918.0185,W,1,9,1.7,17,M,,M,,*59
06/19/2015	11:04:13.602	$GPGGA,110414,2513.2815,N,07918.0175,W,1,9,1.7,17,M,,M,,*57
06/19/2015	11:04:14.546	$GPGGA,110415,2513.2816,N,07918.0165,W,1,9,1.7,18,M,,M,,*5B
06/19/2015	11:04:15.588	$GPGGA,110416,2513.2816,N,07918.0155,W,1,9,1.7,18,M,,M,,*5B
06/19/2015	11:04:16.556	$GPGGA,110417,2513.2818,N,07918.0145,W,1,9,1.7,18,M,,M,,*55
06/19/2015	11:04:17.586	$GPGGA,110418,2513.2820,N,07918.0134,W,1,9,1.7,18,M,,M,,*57
06/19/2015	11:04:18.588	$GPGGA,110419,2513.2820,N,07918.0124,W,1,9,1.7,18,M,,M,,*57
06/19/2015	11:04:19.626	$GPGGA,110420,2513.2822,N,07918.0113,W,1,9,1.7,18,M,,M,,*5B
06/19/2015	11:04:20.566	$GPGGA,110421,2513.2823,N,07918.0103,W,1,9,1.7,18,M,,M,,*5A
06/19/2015	11:04:21.600	$GPGGA,110422,2513.2824,N,07918.0092,W,1,9,1.7,18,M,,M,,*57
06/19/2015	11:04:22.566	$GPGGA,110423,2513.2827,N,07918.0081,W,1,9,1.7,18,M,,M,,*57
06/19/2015	11:04:23.616	$GPGGA,110424,2513.2827,N,07918.0070,W,1,9,1.7,18,M,,M,,*5E
06/19/2015	11:04:24.556	$GPGGA,110425,2513.2830,N,07918.0060,W,1,9,1.7,18,M,,M,,*58
06/19/2015	11:04:25.566	$GPGGA,110426,2513.2831,N,07918.0050,W,1,9,1.9,17,M,,M,,*58
06/19/2015	11:04:26.588	$GPGGA,110427,2513.2834,N,07918.0040,W,1,9,1.7,17,M,,M,,*53
06/19/2015	11:04:27.587	$GPGGA,110428,2513.2834,N,07918.0028,W,1,9,1.7,17,M,,M,,*52
06/19/2015	11:04:28.588	$GPGGA,110429,2513.2837,N,07918.0016,W,1,9,1.8,17,M,,M,,*52
06/19/2015	11:04:29.577	$GPGGA,110430,2513.2838,N,07918.0005,W,1,8,1.8,17,M,,M,,*56
06/19/2015	11:04:30.556	$GPGGA,110431,2513.2838,N,07918.0005,W,1,8,1.8,17,M,,M,,*57
06/19/2015	11:04:31.616	$GPGGA,110432,2513.2842,N,07917.9983,W,1,9,1.8,17,M,,M,,*59
06/19/2015	11:04:32.546	$GPGGA,110433,2513.2845,N,07917.9973,W,1,9,1.8,17,M,,M,,*50
06/19/2015	11:04:33.566	$GPGGA,110434,2513.2848,N,07917.9961,W,1,8,1.7,17,M,,M,,*57
06/19/2015	11:04:34.576	$GPGGA,110435,2513.2849,N,07917.9951,W,1,8,1.7,17,M,,M,,*54
06/19/2015	11:04:35.576	$GPGGA,110436,2513.2852,N,07917.9941,W,1,9,1.7,17,M,,M,,*5D
06/19/2015	11:04:36.556	$GPGGA,110437,2513.2852,N,07917.9931,W,1,9,1.8,17,M,,M,,*54
06/19/2015	11:04:37.556	$GPGGA,110438,2513.2856,N,07917.9920,W,1,8,1.8,17,M,,M,,*5E
06/19/2015	11:04:38.576	$GPGGA,110439,2513.2859,N,07917.9909,W,1,8,1.7,17,M,,M,,*54
06/19/2015	11:04:39.566	$GPGGA,110440,2513.2862,N,07917.9898,W,1,9,1.7,17,M,,M,,*5A
06/19/2015	11:04:40.536	$GPGGA,110441,2513.2863,N,07917.9887,W,1,9,1.7,17,M,,M,,*54
06/19/2015	11:04:41.576	$GPGGA,110442,2513.2866,N,07917.9877,W,1,9,1.8,17,M,,M,,*52
06/19/2015	11:04:42.546	$GPGGA,110443,2513.2867,N,07917.9867,W,1,9,1.8,17,M,,M,,*53
06/19/2015	11:04:43.576	$GPGGA,110444,2513.2867,N,07917.9867,W,1,8,1.8,17,M,,M,,*55
06/19/2015	11:04:44.536	$GPGGA,110445,2513.2870,N,07917.9848,W,1,8,1.8,17,M,,M,,*5F
06/19/2015	11:04:45.536	$GPGGA,110446,2513.2873,N,07917.9838,W,1,8,1.8,17,M,,M,,*58
06/19/2015	11:04:46.547	$GPGGA,110447,2513.2874,N,07917.9829,W,1,8,1.8,17,M,,M,,*5E
06/19/2015	11:04:47.566	$GPGGA,110448,2513.2877,N,07917.9819,W,1,8,1.8,17,M,,M,,*51
06/19/2015	11:04:48.516	$GPGGA,110449,2513.2877,N,07917.9819,W,1,8,1.8,17,M,,M,,*50
06/19/2015	11:04:49.546	$GPGGA,110450,2513.2880,N,07917.9798,W,1,8,1.7,17,M,,M,,*59
06/19/2015	11:04:50.556	$GPGGA,110451,2513.2880,N,07917.9798,W,1,8,1.7,17,M,,M,,*58
06/19/2015	11:04:51.556	$GPGGA,110452,2513.2885,N,07917.9777,W,1,9,1.7,17,M,,M,,*5E
06/19/2015	11:04:52.546	$GPGGA,110453,2513.2885,N,07917.9767,W,1,9,1.7,17,M,,M,,*5E
06/19/2015	11:04:53.516	$GPGGA,110454,2513.2888,N,07917.9756,W,1,9,1.7,17,M,,M,,*56
06/19/2015	11:04:54.516	$GPGGA,110455,2513.2888,N,07917.9756,W,1,9,1.7,17,M,,M,,*57
06/19/2015	11:04:55.626	$GPGGA,110456,2513.2891,N,07917.9736,W,1,8,1.9,17,M,,M,,*55
06/19/2015	11:04:56.546	$GPGGA,110457,2513.2891,N,07917.9736,W,1,8,1.9,17,M,,M,,*54
06/19/2015	11:04:57.626	$GPGGA,110458,2513.2896,N,07917.9715,W,1,9,1.7,17,M,,M,,*52
06/19/2015	11:04:58.593	$GPGGA,110459,2513.2896,N,07917.9705,W,1,9,1.7,17,M,,M,,*52
06/19/2015	11:04:59.556	$GPGGA,110500,2513.2899,N,07917.9695,W,1,9,1.7,17,M,,M,,*58
06/19/2015	11:05:00.536	$GPGGA,110501,2513.2899,N,07917.9695,W,1,9,1.7,17,M,,M,,*59
06/19/2015	11:05:01.616	$GPGGA,110502,2513.2902,N,07917.9674,W,1,9,1.7,17,M,,M,,*56
06/19/2015	11:05:02.588	$GPGGA,110503,2513.2905,N,07917.9663,W,1,9,1.7,17,M,,M,,*56
06/19/2015	11:05:03.601	$GPGGA,110504,2513.2906,N,07917.9652,W,1,9,1.7,16,M,,M,,*51
06/19/2015	11:05:04.577	$GPGGA,110505,2513.2906,N,07917.9641,W,1,9,1.7,16,M,,M,,*52
06/19/2015	11:05:05.592	$GPGGA,110506,2513.2909,N,07917.9630,W,1,9,1.7,16,M,,M,,*58
06/19/2015	11:05:06.566	$GPGGA,110507,2513.2910,N,07917.9619,W,1,9,1.7,16,M,,M,,*5A
06/19/2015	11:05:07.603	$GPGGA,110508,2513.2910,N,07917.9608,W,1,9,1.7,16,M,,M,,*55
06/19/2015	11:05:08.566	$GPGGA,110509,2513.2913,N,07917.9596,W,1,9,1.7,16,M,,M,,*53
06/19/2015	11:05:09.590	$GPGGA,110510,2513.2914,N,07917.9585,W,1,9,1.7,16,M,,M,,*5E
06/19/2015	11:05:10.566	$GPGGA,110511,2513.2914,N,07917.9574,W,1,9,1.7,16,M,,M,,*51
06/19/2015	11:05:11.616	$GPGGA,110512,2513.2916,N,07917.9563,W,1,9,1.7,16,M,,M,,*56
06/19/2015	11:05:12.576	$GPGGA,110513,2513.2917,N,07917.9551,W,1,9,1.7,16,M,,M,,*57
06/19/2015	11:05:13.587	$GPGGA,110514,2513.2917,N,07917.9551,W,1,9,1.7,16,M,,M,,*50
06/19/2015	11:05:14.556	$GPGGA,110515,2513.2920,N,07917.9528,W,1,9,1.7,16,M,,M,,*5B
06/19/2015	11:05:15.603	$GPGGA,110516,2513.2921,N,07917.9517,W,1,9,1.7,16,M,,M,,*55
06/19/2015	11:05:16.556	$GPGGA,110517,2513.2921,N,07917.9517,W,1,9,1.7,16,M,,M,,*54
06/19/2015	11:05:17.576	$GPGGA,110518,2513.2924,N,07917.9494,W,1,9,1.7,16,M,,M,,*54
06/19/2015	11:05:18.546	$GPGGA,110519,2513.2923,N,07917.9482,W,1,9,1.7,16,M,,M,,*55
06/19/2015	11:05:19.576	$GPGGA,110520,2513.2924,N,07917.9470,W,1,9,1.7,16,M,,M,,*55
06/19/2015	11:05:20.556	$GPGGA,110521,2513.2925,N,07917.9458,W,1,9,1.7,16,M,,M,,*5F
06/19/2015	11:05:21.537	$GPGGA,110522,2513.2927,N,07917.9446,W,1,9,1.7,16,M,,M,,*51
06/19/2015	11:05:22.556	$GPGGA,110523,2513.2926,N,07917.9434,W,1,9,1.7,16,M,,M,,*54
06/19/2015	11:05:23.576	$GPGGA,110524,2513.2928,N,07917.9423,W,1,9,1.7,16,M,,M,,*5B
06/19/2015	11:05:24.546	$GPGGA,110525,2513.2928,N,07917.9411,W,1,9,1.7,15,M,,M,,*58
06/19/2015	11:05:25.526	$GPGGA,110526,2513.2928,N,07917.9399,W,1,8,1.9,15,M,,M,,*53
06/19/2015	11:05:26.546	$GPGGA,110527,2513.2930,N,07917.9387,W,1,8,1.7,15,M,,M,,*5A
06/19/2015	11:05:27.566	$GPGGA,110528,2513.2931,N,07917.9375,W,1,9,1.7,15,M,,M,,*58
06/19/2015	11:05:28.536	$GPGGA,110529,2513.2930,N,07917.9363,W,1,9,1.7,15,M,,M,,*5F
06/19/2015	11:05:29.526	$GPGGA,110530,2513.2932,N,07917.9351,W,1,9,1.7,15,M,,M,,*54
06/19/2015	11:05:30.536	$GPGGA,110531,2513.2932,N,07917.9338,W,1,9,1.7,15,M,,M,,*5A
06/19/2015	11:05:31.556	$GPGGA,110532,2513.2932,N,07917.9326,W,1,9,1.7,15,M,,M,,*56
06/19/2015	11:05:32.536	$GPGGA,110533,2513.2932,N,07917.9313,W,1,9,1.7,15,M,,M,,*51
06/19/2015	11:05:33.516	$GPGGA,110534,2513.2934,N,07917.9301,W,1,9,1.7,15,M,,M,,*53
06/19/2015	11:05:34.526	$GPGGA,110535,2513.2935,N,07917.9288,W,1,9,1.7,15,M,,M,,*53
06/19/2015	11:05:35.536	$GPGGA,110536,2513.2934,N,07917.9276,W,1,9,1.7,15,M,,M,,*50
06/19/2015	11:05:36.526	$GPGGA,110537,2513.2935,N,07917.9263,W,1,9,1.7,15,M,,M,,*54
06/19/2015	11:05:37.526	$GPGGA,110538,2513.2936,N,07917.9249,W,1,9,1.7,15,M,,M,,*50
06/19/2015	11:05:38.527	$GPGGA,110539,2513.2938,N,07917.9236,W,1,9,1.7,15,M,,M,,*57
06/19/2015	11:05:39.517	$GPGGA,110540,2513.2936,N,07917.9224,W,1,9,1.7,15,M,,M,,*54
06/19/2015	11:05:40.501	$GPGGA,110541,2513.2939,N,07917.9211,W,1,9,1.7,15,M,,M,,*5C
06/19/2015	11:05:41.526	$GPGGA,110542,2513.2939,N,07917.9198,W,1,9,1.7,15,M,,M,,*5D
06/19/2015	11:05:42.516	$GPGGA,110543,2513.2939,N,07917.9185,W,1,9,1.7,15,M,,M,,*50
06/19/2015	11:05:43.606	$GPGGA,110544,2513.2939,N,07917.9172,W,1,9,1.7,15,M,,M,,*5F
06/19/2015	11:05:44.496	$GPGGA,110545,2513.2941,N,07917.9158,W,1,9,1.7,15,M,,M,,*59
06/19/2015	11:05:45.516	$GPGGA,110546,2513.2940,N,07917.9145,W,1,9,1.7,15,M,,M,,*57
06/19/2015	11:05:46.506	$GPGGA,110547,2513.2942,N,07917.9131,W,1,9,1.7,15,M,,M,,*57
06/19/2015	11:05:47.598	$GPGGA,110548,2513.2943,N,07917.9118,W,1,9,1.7,15,M,,M,,*52
06/19/2015	11:05:48.506	$GPGGA,110549,2513.2943,N,07917.9104,W,1,9,1.7,15,M,,M,,*5E
06/19/2015	11:05:49.506	$GPGGA,110550,2513.2943,N,07917.9090,W,1,9,1.7,15,M,,M,,*5A
06/19/2015	11:05:50.497	$GPGGA,110551,2513.2945,N,07917.9077,W,1,9,1.7,15,M,,M,,*54
06/19/2015	11:05:51.616	$GPGGA,110552,2513.2946,N,07917.9063,W,1,9,1.7,15,M,,M,,*51
06/19/2015	11:05:52.576	$GPGGA,110553,2513.2946,N,07917.9049,W,1,9,1.7,15,M,,M,,*58
06/19/2015	11:05:53.616	$GPGGA,110554,2513.2948,N,07917.9036,W,1,9,1.7,15,M,,M,,*59
06/19/2015	11:05:54.566	$GPGGA,110555,2513.2949,N,07917.9022,W,1,9,1.7,15,M,,M,,*5C
06/19/2015	11:05:55.596	$GPGGA,110556,2513.2950,N,07917.9008,W,1,9,1.7,15,M,,M,,*5F
06/19/2015	11:05:56.567	$GPGGA,110557,2513.2950,N,07917.8994,W,1,9,1.7,15,M,,M,,*53
06/19/2015	11:05:57.566	$GPGGA,110558,2513.2952,N,07917.8980,W,1,9,1.7,15,M,,M,,*5B
06/19/2015	11:05:58.567	$GPGGA,110559,2513.2953,N,07917.8966,W,1,9,1.7,15,M,,M,,*53
06/19/2015	11:05:59.599	$GPGGA,110600,2513.2953,N,07917.8952,W,1,9,1.7,15,M,,M,,*5B
06/19/2015	11:06:00.566	$GPGGA,110601,2513.2954,N,07917.8938,W,1,9,1.7,15,M,,M,,*51
06/19/2015	11:06:01.576	$GPGGA,110602,2513.2957,N,07917.8924,W,1,9,1.7,15,M,,M,,*5C
06/19/2015	11:06:02.566	$GPGGA,110603,2513.2957,N,07917.8910,W,1,9,1.7,15,M,,M,,*5A
06/19/2015	11:06:03.587	$GPGGA,110604,2513.2957,N,07917.8897,W,1,9,1.7,15,M,,M,,*53
06/19/2015	11:06:04.546	$GPGGA,110605,2513.2960,N,07917.8882,W,1,9,1.7,15,M,,M,,*52
06/19/2015	11:06:05.546	$GPGGA,110606,2513.2961,N,07917.8868,W,1,9,1.7,15,M,,M,,*54
06/19/2015	11:06:06.546	$GPGGA,110607,2513.2961,N,07917.8854,W,1,9,1.7,15,M,,M,,*5A
06/19/2015	11:06:07.566	$GPGGA,110608,2513.2963,N,07917.8840,W,1,9,1.7,15,M,,M,,*52
06/19/2015	11:06:08.556	$GPGGA,110609,2513.2964,N,07917.8826,W,1,9,1.7,15,M,,M,,*54
06/19/2015	11:06:09.556	$GPGGA,110610,2513.2964,N,07917.8812,W,1,9,1.7,15,M,,M,,*5B
06/19/2015	11:06:10.526	$GPGGA,110611,2513.2966,N,07917.8798,W,1,9,1.7,15,M,,M,,*55
06/19/2015	11:06:11.566	$GPGGA,110612,2513.2967,N,07917.8783,W,1,9,1.7,15,M,,M,,*5D
06/19/2015	11:06:12.536	$GPGGA,110613,2513.2968,N,07917.8769,W,1,9,1.7,15,M,,M,,*57
06/19/2015	11:06:13.556	$GPGGA,110614,2513.2968,N,07917.8755,W,1,9,1.7,15,M,,M,,*5F
06/19/2015	11:06:14.526	$GPGGA,110615,2513.2971,N,07917.8741,W,1,9,1.7,15,M,,M,,*53
06/19/2015	11:06:15.555	$GPGGA,110616,2513.2970,N,07917.8727,W,1,9,1.7,15,M,,M,,*51
06/19/2015	11:06:16.515	$GPGGA,110617,2513.2971,N,07917.8713,W,1,9,1.7,15,M,,M,,*56
06/19/2015	11:06:17.545	$GPGGA,110618,2513.2974,N,07917.8699,W,1,9,1.7,15,M,,M,,*5F
06/19/2015	11:06:18.525	$GPGGA,110619,2513.2975,N,07917.8685,W,1,9,1.7,15,M,,M,,*52
06/19/2015	11:06:19.515	$GPGGA,110620,2513.2975,N,07917.8671,W,1,9,1.7,15,M,,M,,*53
06/19/2015	11:06:20.515	$GPGGA,110621,2513.2977,N,07917.8657,W,1,9,1.7,15,M,,M,,*54
06/19/2015	11:06:21.555	$GPGGA,110622,2513.2978,N,07917.8643,W,1,9,1.7,15,M,,M,,*5D
06/19/2015	11:06:22.505	$GPGGA,110623,2513.2977,N,07917.8629,W,1,9,1.7,15,M,,M,,*5F
06/19/2015	11:06:23.515	$GPGGA,110624,2513.2979,N,07917.8615,W,1,9,1.7,15,M,,M,,*59
06/19/2015	11:06:24.516	$GPGGA,110625,2513.2979,N,07917.8602,W,1,9,1.7,15,M,,M,,*5E
06/19/2015	11:06:25.506	$GPGGA,110626,2513.2981,N,07917.8587,W,1,9,1.7,14,M,,M,,*55
06/19/2015	11:06:26.496	$GPGGA,110627,2513.2982,N,07917.8573,W,1,9,1.7,14,M,,M,,*5C
06/19/2015	11:06:27.516	$GPGGA,110628,2513.2981,N,07917.8560,W,1,9,1.7,14,M,,M,,*52
06/19/2015	11:06:28.496	$GPGGA,110629,2513.2982,N,07917.8546,W,1,9,1.7,14,M,,M,,*54
06/19/2015	11:06:29.496	$GPGGA,110630,2513.2984,N,07917.8531,W,1,9,1.7,14,M,,M,,*5A
06/19/2015	11:06:30.506	$GPGGA,110631,2513.2983,N,07917.8517,W,1,9,1.7,14,M,,M,,*58
06/19/2015	11:06:31.526	$GPGGA,110632,2513.2984,N,07917.8503,W,1,9,1.7,14,M,,M,,*59
06/19/2015	11:06:32.495	$GPGGA,110633,2513.2985,N,07917.8489,W,1,9,1.7,14,M,,M,,*5A
06/19/2015	11:06:33.587	$GPGGA,110634,2513.2986,N,07917.8475,W,1,9,1.7,14,M,,M,,*5D
06/19/2015	11:06:34.495	$GPGGA,110635,2513.2986,N,07917.8461,W,1,9,1.7,14,M,,M,,*59
06/19/2015	11:06:35.595	$GPGGA,110636,2513.2986,N,07917.8447,W,1,9,1.7,14,M,,M,,*5E
06/19/2015	11:06:36.495	$GPGGA,110637,2513.2986,N,07917.8433,W,1,9,1.7,14,M,,M,,*5C
06/19/2015	11:06:37.587	$GPGGA,110638,2513.2988,N,07917.8419,W,1,9,1.7,14,M,,M,,*55
06/19/2015	11:06:38.485	$GPGGA,110639,2513.2987,N,07917.8405,W,1,9,1.7,14,M,,M,,*56
06/19/2015	11:06:39.595	$GPGGA,110640,2513.2988,N,07917.8391,W,1,9,1.7,14,M,,M,,*5D
06/19/2015	11:06:40.580	$GPGGA,110641,2513.2990,N,07917.8376,W,1,9,1.7,14,M,,M,,*5C
06/19/2015	11:06:41.606	$GPGGA,110642,2513.2990,N,07917.8363,W,1,8,1.7,14,M,,M,,*5A
06/19/2015	11:06:42.556	$GPGGA,110643,2513.2990,N,07917.8349,W,1,8,1.7,14,M,,M,,*53
06/19/2015	11:06:43.596	$GPGGA,110644,2513.2990,N,07917.8335,W,1,9,1.7,14,M,,M,,*5E
06/19/2015	11:06:44.556	$GPGGA,110645,2513.2990,N,07917.8321,W,1,9,1.7,14,M,,M,,*5A
06/19/2015	11:06:45.578	$GPGGA,110646,2513.2992,N,07917.8307,W,1,9,1.7,14,M,,M,,*5F
06/19/2015	11:06:46.566	$GPGGA,110647,2513.2991,N,07917.8294,W,1,9,1.7,14,M,,M,,*56
06/19/2015	11:06:47.591	$GPGGA,110648,2513.2992,N,07917.8280,W,1,9,1.7,14,M,,M,,*5F
06/19/2015	11:06:48.546	$GPGGA,110649,2513.2991,N,07917.8267,W,1,9,1.7,14,M,,M,,*54
06/19/2015	11:06:49.582	$GPGGA,110650,2513.2992,N,07917.8253,W,1,9,1.7,14,M,,M,,*58
06/19/2015	11:06:50.545	$GPGGA,110651,2513.2993,N,07917.8240,W,1,9,1.7,14,M,,M,,*5A
06/19/2015	11:06:51.579	$GPGGA,110652,2513.2992,N,07917.8226,W,1,9,1.7,14,M,,M,,*58
06/19/2015	11:06:52.545	$GPGGA,110653,2513.2991,N,07917.8213,W,1,9,1.7,14,M,,M,,*5C
06/19/2015	11:06:53.535	$GPGGA,110654,2513.2993,N,07917.8199,W,1,9,1.7,14,M,,M,,*58
06/19/2015	11:06:54.545	$GPGGA,110655,2513.2991,N,07917.8186,W,1,9,1.7,14,M,,M,,*55
06/19/2015	11:06:55.565	$GPGGA,110656,2513.2993,N,07917.8172,W,1,9,1.7,14,M,,M,,*5F
06/19/2015	11:06:56.535	$GPGGA,110657,2513.2992,N,07917.8158,W,1,9,1.7,14,M,,M,,*57
06/19/2015	11:06:57.555	$GPGGA,110658,2513.2991,N,07917.8144,W,1,9,1.7,14,M,,M,,*56
06/19/2015	11:06:58.535	$GPGGA,110659,2513.2993,N,07917.8129,W,1,9,1.7,14,M,,M,,*5E
06/19/2015	11:06:59.576	$GPGGA,110700,2513.2992,N,07917.8115,W,1,8,1.7,14,M,,M,,*5C
06/19/2015	11:07:00.536	$GPGGA,110701,2513.2993,N,07917.8102,W,1,8,1.7,14,M,,M,,*5A
06/19/2015	11:07:01.546	$GPGGA,110702,2513.2992,N,07917.8087,W,1,9,1.7,14,M,,M,,*55
06/19/2015	11:07:02.526	$GPGGA,110703,2513.2993,N,07917.8074,W,1,9,1.7,14,M,,M,,*59
06/19/2015	11:07:03.546	$GPGGA,110704,2513.2992,N,07917.8060,W,1,9,1.7,14,M,,M,,*5A
06/19/2015	11:07:04.536	$GPGGA,110705,2513.2993,N,07917.8046,W,1,9,1.7,14,M,,M,,*5E
06/19/2015	11:07:05.516	$GPGGA,110706,2513.2993,N,07917.8032,W,1,9,1.7,14,M,,M,,*5E
06/19/2015	11:07:06.526	$GPGGA,110707,2513.2993,N,07917.8018,W,1,9,1.7,14,M,,M,,*57
06/19/2015	11:07:07.545	$GPGGA,110708,2513.2993,N,07917.8004,W,1,9,1.7,14,M,,M,,*55
06/19/2015	11:07:08.525	$GPGGA,110709,2513.2993,N,07917.7990,W,1,9,1.7,14,M,,M,,*5F
06/19/2015	11:07:09.505	$GPGGA,110710,2513.2993,N,07917.7976,W,1,9,1.7,14,M,,M,,*5F
06/19/2015	11:07:10.525	$GPGGA,110711,2513.2995,N,07917.7961,W,1,9,1.7,14,M,,M,,*5E
06/19/2015	11:07:11.545	$GPGGA,110712,2513.2996,N,07917.7947,W,1,9,1.7,14,M,,M,,*5A
06/19/2015	11:07:12.515	$GPGGA,110713,2513.2994,N,07917.7933,W,1,9,1.7,14,M,,M,,*5A
06/19/2015	11:07:13.615	$GPGGA,110714,2513.2996,N,07917.7919,W,1,9,1.7,14,M,,M,,*57
06/19/2015	11:07:14.491	$GPGGA,110715,2513.2997,N,07917.7905,W,1,9,1.7,14,M,,M,,*5A
06/19/2015	11:07:15.515	$GPGGA,110716,2513.2997,N,07917.7892,W,1,8,2.0,14,M,,M,,*53
06/19/2015	11:07:16.616	$GPGGA,110717,2513.2995,N,07917.7879,W,1,8,1.7,14,M,,M,,*51
06/19/2015	11:07:17.616	$GPGGA,110718,2513.2997,N,07917.7865,W,1,9,1.7,14,M,,M,,*50
06/19/2015	11:07:18.506	$GPGGA,110719,2513.2997,N,07917.7851,W,1,9,1.7,14,M,,M,,*56
06/19/2015	11:07:19.516	$GPGGA,110720,2513.2997,N,07917.7838,W,1,9,1.7,14,M,,M,,*53
06/19/2015	11:07:20.493	$GPGGA,110721,2513.2997,N,07917.7824,W,1,9,1.7,14,M,,M,,*5F
06/19/2015	11:07:21.584	$GPGGA,110722,2513.2997,N,07917.7810,W,1,9,1.7,14,M,,M,,*5B
06/19/2015	11:07:22.585	$GPGGA,110723,2513.2997,N,07917.7796,W,1,9,1.7,14,M,,M,,*5B
06/19/2015	11:07:23.591	$GPGGA,110724,2513.2999,N,07917.7782,W,1,9,1.7,14,M,,M,,*57
06/19/2015	11:07:24.580	$GPGGA,110725,2513.2997,N,07917.7768,W,1,9,1.7,14,M,,M,,*5C
06/19/2015	11:07:25.485	$GPGGA,110726,2513.2999,N,07917.7754,W,1,9,1.7,14,M,,M,,*5E
06/19/2015	11:07:26.565	$GPGGA,110727,2513.3000,N,07917.7740,W,1,9,1.7,14,M,,M,,*52
06/19/2015	11:07:27.605	$GPGGA,110728,2513.2999,N,07917.7725,W,1,9,1.7,14,M,,M,,*56
06/19/2015	11:07:28.565	$GPGGA,110729,2513.3000,N,07917.7711,W,1,9,1.7,14,M,,M,,*58
06/19/2015	11:07:29.605	$GPGGA,110730,2513.3000,N,07917.7697,W,1,9,1.7,14,M,,M,,*5F
06/19/2015	11:07:30.565	$GPGGA,110731,2513.3001,N,07917.7683,W,1,9,1.7,14,M,,M,,*5A
06/19/2015	11:07:32.855	$GPGGA,110733,2513.3002,N,07917.7654,W,1,9,1.7,14,M,,M,,*51
06/19/2015	11:07:33.600	$GPGGA,110734,2513.3004,N,07917.7640,W,1,9,1.7,14,M,,M,,*55
06/19/2015	11:07:34.566	$GPGGA,110735,2513.3004,N,07917.7626,W,1,9,1.7,14,M,,M,,*54
06/19/2015	11:07:35.576	$GPGGA,110736,2513.3006,N,07917.7610,W,1,9,1.7,14,M,,M,,*50
06/19/2015	11:07:36.566	$GPGGA,110737,2513.3007,N,07917.7596,W,1,9,1.7,14,M,,M,,*5D
06/19/2015	11:07:37.566	$GPGGA,110738,2513.3006,N,07917.7582,W,1,9,1.7,14,M,,M,,*56
06/19/2015	11:07:38.556	$GPGGA,110739,2513.3008,N,07917.7568,W,1,9,1.7,14,M,,M,,*5D
06/19/2015	11:07:39.577	$GPGGA,110740,2513.3010,N,07917.7553,W,1,9,1.7,14,M,,M,,*52
06/19/2015	11:07:40.546	$GPGGA,110741,2513.3011,N,07917.7538,W,1,9,1.7,14,M,,M,,*5F
06/19/2015	11:07:41.536	$GPGGA,110742,2513.3010,N,07917.7524,W,1,9,1.7,14,M,,M,,*50
06/19/2015	11:07:42.545	$GPGGA,110743,2513.3011,N,07917.7510,W,1,9,1.7,14,M,,M,,*57
06/19/2015	11:07:43.578	$GPGGA,110744,2513.3014,N,07917.7496,W,1,9,1.7,14,M,,M,,*5A
06/19/2015	11:07:44.535	$GPGGA,110745,2513.3013,N,07917.7482,W,1,9,1.7,14,M,,M,,*59
06/19/2015	11:07:45.555	$GPGGA,110746,2513.3015,N,07917.7468,W,1,9,1.7,14,M,,M,,*58
06/19/2015	11:07:46.535	$GPGGA,110747,2513.3015,N,07917.7454,W,1,9,1.7,14,M,,M,,*56
06/19/2015	11:07:47.576	$GPGGA,110748,2513.3017,N,07917.7439,W,1,9,1.7,14,M,,M,,*50
06/19/2015	11:07:48.525	$GPGGA,110749,2513.3018,N,07917.7425,W,1,9,1.7,14,M,,M,,*53
06/19/2015	11:07:49.525	$GPGGA,110750,2513.3018,N,07917.7411,W,1,9,1.7,14,M,,M,,*5C
06/19/2015	11:07:50.525	$GPGGA,110751,2513.3019,N,07917.7396,W,1,9,1.7,14,M,,M,,*54
06/19/2015	11:07:51.856	$GPGGA,110752,2513.3021,N,07917.7382,W,1,9,1.7,14,M,,M,,*59
06/19/2015	11:07:52.526	$GPGGA,110753,2513.3022,N,07917.7368,W,1,9,1.7,14,M,,M,,*5F
06/19/2015	11:07:53.506	$GPGGA,110754,2513.3024,N,07917.7354,W,1,9,1.7,14,M,,M,,*51
06/19/2015	11:07:54.536	$GPGGA,110755,2513.3025,N,07917.7340,W,1,9,1.7,14,M,,M,,*54
06/19/2015	11:07:55.516	$GPGGA,110756,2513.3026,N,07917.7326,W,1,9,1.7,14,M,,M,,*54
06/19/2015	11:07:56.526	$GPGGA,110757,2513.3026,N,07917.7312,W,1,9,1.7,14,M,,M,,*52
06/19/2015	11:07:57.506	$GPGGA,110758,2513.3028,N,07917.7297,W,1,9,1.7,14,M,,M,,*5F
06/19/2015	11:07:58.516	$GPGGA,110759,2513.3029,N,07917.7283,W,1,9,1.7,14,M,,M,,*5A
06/19/2015	11:07:59.566	$GPGGA,110800,2513.3028,N,07917.7268,W,1,9,1.7,14,M,,M,,*5D
06/19/2015	11:08:00.515	$GPGGA,110801,2513.3029,N,07917.7254,W,1,9,1.7,14,M,,M,,*52
06/19/2015	11:08:01.515	$GPGGA,110802,2513.3031,N,07917.7240,W,1,9,1.7,14,M,,M,,*5D
06/19/2015	11:08:02.515	$GPGGA,110803,2513.3032,N,07917.7226,W,1,9,1.7,14,M,,M,,*5F
06/19/2015	11:08:03.635	$GPGGA,110804,2513.3031,N,07917.7211,W,1,9,1.7,13,M,,M,,*58
06/19/2015	11:08:04.515	$GPGGA,110805,2513.3033,N,07917.7198,W,1,9,1.7,13,M,,M,,*59
06/19/2015	11:08:05.505	$GPGGA,110806,2513.3033,N,07917.7183,W,1,9,1.7,13,M,,M,,*50
06/19/2015	11:08:06.589	$GPGGA,110807,2513.3035,N,07917.7169,W,1,9,1.7,13,M,,M,,*53
06/19/2015	11:08:07.545	$GPGGA,110808,2513.3036,N,07917.7155,W,1,9,1.7,13,M,,M,,*50
06/19/2015	11:08:08.580	$GPGGA,110809,2513.3035,N,07917.7141,W,1,9,1.7,13,M,,M,,*57
06/19/2015	11:08:09.585	$GPGGA,110810,2513.3036,N,07917.7127,W,1,9,1.7,13,M,,M,,*5C
06/19/2015	11:08:10.593	$GPGGA,110811,2513.3036,N,07917.7113,W,1,9,1.7,13,M,,M,,*5A
06/19/2015	11:08:11.606	$GPGGA,110812,2513.3037,N,07917.7099,W,1,9,1.7,13,M,,M,,*5B
06/19/2015	11:08:12.486	$GPGGA,110813,2513.3037,N,07917.7085,W,1,9,1.7,13,M,,M,,*57
06/19/2015	11:08:13.592	$GPGGA,110814,2513.3036,N,07917.7071,W,1,9,1.7,13,M,,M,,*5A
06/19/2015	11:08:14.582	$GPGGA,110815,2513.3039,N,07917.7057,W,1,9,1.7,13,M,,M,,*50
06/19/2015	11:08:15.916	$GPGGA,110816,2513.3038,N,07917.7043,W,1,9,1.7,13,M,,M,,*57
06/19/2015	11:08:16.579	$GPGGA,110817,2513.3039,N,07917.7029,W,1,9,1.7,13,M,,M,,*5B
06/19/2015	11:08:17.595	$GPGGA,110818,2513.3038,N,07917.7016,W,1,9,1.7,13,M,,M,,*59
06/19/2015	11:08:18.565	$GPGGA,110819,2513.3040,N,07917.7001,W,1,9,1.7,13,M,,M,,*51
06/19/2015	11:08:19.478	$GPGGA,110820,2513.3040,N,07917.6988,W,1,9,1.7,13,M,,M,,*52
06/19/2015	11:08:20.565	$GPGGA,110821,2513.3040,N,07917.6974,W,1,9,1.8,13,M,,M,,*5F
06/19/2015	11:08:21.595	$GPGGA,110822,2513.3040,N,07917.6960,W,1,8,1.7,13,M,,M,,*57
06/19/2015	11:08:22.555	$GPGGA,110823,2513.3040,N,07917.6946,W,1,8,1.7,13,M,,M,,*52
06/19/2015	11:08:23.590	$GPGGA,110824,2513.3042,N,07917.6931,W,1,9,1.7,13,M,,M,,*56
06/19/2015	11:08:24.555	$GPGGA,110825,2513.3040,N,07917.6917,W,1,9,1.7,13,M,,M,,*51
06/19/2015	11:08:25.565	$GPGGA,110826,2513.3040,N,07917.6903,W,1,9,1.7,13,M,,M,,*57
06/19/2015	11:08:26.556	$GPGGA,110827,2513.3042,N,07917.6888,W,1,9,1.7,13,M,,M,,*56
06/19/2015	11:08:27.583	$GPGGA,110828,2513.3041,N,07917.6874,W,1,9,1.7,13,M,,M,,*59
06/19/2015	11:08:28.546	$GPGGA,110829,2513.3042,N,07917.6860,W,1,9,1.7,13,M,,M,,*5E
06/19/2015	11:08:29.556	$GPGGA,110830,2513.3041,N,07917.6845,W,1,9,1.7,13,M,,M,,*52
06/19/2015	11:08:30.556	$GPGGA,110831,2513.3042,N,07917.6830,W,1,9,1.7,13,M,,M,,*52
06/19/2015	11:08:31.586	$GPGGA,110832,2513.3043,N,07917.6816,W,1,9,1.7,13,M,,M,,*54
06/19/2015	11:08:32.546	$GPGGA,110833,2513.3041,N,07917.6802,W,1,9,1.7,13,M,,M,,*52
06/19/2015	11:08:33.536	$GPGGA,110834,2513.3043,N,07917.6787,W,1,9,1.7,13,M,,M,,*55
06/19/2015	11:08:34.536	$GPGGA,110835,2513.3044,N,07917.6773,W,1,9,1.7,13,M,,M,,*58
06/19/2015	11:08:35.605	$GPGGA,110836,2513.3042,N,07917.6759,W,1,9,1.7,13,M,,M,,*55
06/19/2015	11:08:36.535	$GPGGA,110837,2513.3043,N,07917.6744,W,1,9,1.7,13,M,,M,,*59
06/19/2015	11:08:37.565	$GPGGA,110838,2513.3044,N,07917.6730,W,1,9,1.7,13,M,,M,,*52
06/19/2015	11:08:38.515	$GPGGA,110839,2513.3044,N,07917.6716,W,1,9,1.7,13,M,,M,,*57
06/19/2015	11:08:39.604	$GPGGA,110840,2513.3044,N,07917.6702,W,1,9,1.7,13,M,,M,,*5C
06/19/2015	11:08:40.525	$GPGGA,110841,2513.3046,N,07917.6687,W,1,9,1.7,13,M,,M,,*53
06/19/2015	11:08:41.545	$GPGGA,110842,2513.3045,N,07917.6673,W,1,9,1.7,13,M,,M,,*58
06/19/2015	11:08:42.525	$GPGGA,110843,2513.3047,N,07917.6659,W,1,9,1.7,13,M,,M,,*53
06/19/2015	11:08:43.566	$GPGGA,110844,2513.3047,N,07917.6645,W,1,9,1.7,13,M,,M,,*59
06/19/2015	11:08:44.526	$GPGGA,110845,2513.3047,N,07917.6631,W,1,9,1.7,12,M,,M,,*5A
06/19/2015	11:08:45.546	$GPGGA,110846,2513.3049,N,07917.6617,W,1,9,1.7,12,M,,M,,*53
06/19/2015	11:08:46.626	$GPGGA,110847,2513.3050,N,07917.6603,W,1,9,1.7,12,M,,M,,*5F
06/19/2015	11:08:47.536	$GPGGA,110848,2513.3049,N,07917.6589,W,1,9,1.7,12,M,,M,,*59
06/19/2015	11:08:48.506	$GPGGA,110849,2513.3051,N,07917.6574,W,1,9,1.7,12,M,,M,,*53
06/19/2015	11:08:49.496	$GPGGA,110850,2513.3053,N,07917.6560,W,1,9,1.7,12,M,,M,,*5C
06/19/2015	11:08:50.626	$GPGGA,110851,2513.3052,N,07917.6546,W,1,9,1.7,12,M,,M,,*58
06/19/2015	11:08:51.606	$GPGGA,110852,2513.3054,N,07917.6532,W,1,9,1.7,12,M,,M,,*5E
06/19/2015	11:08:52.585	$GPGGA,110853,2513.3055,N,07917.6518,W,1,9,1.7,12,M,,M,,*56
06/19/2015	11:08:53.483	$GPGGA,110854,2513.3055,N,07917.6503,W,1,9,1.7,12,M,,M,,*5B
06/19/2015	11:08:54.495	$GPGGA,110855,2513.3057,N,07917.6489,W,1,9,1.7,12,M,,M,,*5B
06/19/2015	11:08:55.545	$GPGGA,110856,2513.3058,N,07917.6474,W,1,9,1.7,12,M,,M,,*55
06/19/2015	11:08:56.495	$GPGGA,110857,2513.3060,N,07917.6460,W,1,9,1.7,12,M,,M,,*5A
06/19/2015	11:08:57.589	$GPGGA,110858,2513.3059,N,07917.6446,W,1,9,1.7,12,M,,M,,*5B
06/19/2015	11:08:58.485	$GPGGA,110859,2513.3061,N,07917.6432,W,1,9,1.7,12,M,,M,,*52
06/19/2015	11:08:59.565	$GPGGA,110900,2513.3062,N,07917.6417,W,1,9,1.7,12,M,,M,,*5B
06/19/2015	11:09:00.505	$GPGGA,110901,2513.3064,N,07917.6403,W,1,9,1.7,12,M,,M,,*59
06/19/2015	11:09:01.606	$GPGGA,110902,2513.3065,N,07917.6389,W,1,9,1.7,12,M,,M,,*5E
06/19/2015	11:09:02.585	$GPGGA,110903,2513.3065,N,07917.6375,W,1,9,1.7,12,M,,M,,*5C
06/19/2015	11:09:03.580	$GPGGA,110904,2513.3066,N,07917.6360,W,1,9,1.7,12,M,,M,,*5C
06/19/2015	11:09:04.578	$GPGGA,110905,2513.3068,N,07917.6346,W,1,9,1.7,12,M,,M,,*57
06/19/2015	11:09:05.579	$GPGGA,110906,2513.3069,N,07917.6332,W,1,9,1.7,12,M,,M,,*56
06/19/2015	11:09:06.590	$GPGGA,110907,2513.3071,N,07917.6318,W,1,9,1.7,12,M,,M,,*56
06/19/2015	11:09:07.616	$GPGGA,110908,2513.3072,N,07917.6303,W,1,9,1.7,12,M,,M,,*50
06/19/2015	11:09:08.556	$GPGGA,110909,2513.3073,N,07917.6289,W,1,9,1.7,12,M,,M,,*53
06/19/2015	11:09:09.566	$GPGGA,110910,2513.3073,N,07917.6274,W,1,9,1.7,12,M,,M,,*59
06/19/2015	11:09:10.555	$GPGGA,110911,2513.3075,N,07917.6260,W,1,9,1.7,12,M,,M,,*5B
06/19/2015	11:09:11.565	$GPGGA,110912,2513.3076,N,07917.6245,W,1,9,1.7,12,M,,M,,*5C
06/19/2015	11:09:12.555	$GPGGA,110913,2513.3076,N,07917.6231,W,1,9,1.7,12,M,,M,,*5E
06/19/2015	11:09:13.565	$GPGGA,110914,2513.3078,N,07917.6216,W,1,9,1.7,12,M,,M,,*52
06/19/2015	11:09:14.545	$GPGGA,110915,2513.3079,N,07917.6202,W,1,9,1.7,12,M,,M,,*57
06/19/2015	11:09:15.590	$GPGGA,110916,2513.3080,N,07917.6187,W,1,9,1.7,12,M,,M,,*5C
06/19/2015	11:09:16.535	$GPGGA,110917,2513.3080,N,07917.6174,W,1,9,1.7,12,M,,M,,*51
06/19/2015	11:09:17.555	$GPGGA,110918,2513.3082,N,07917.6159,W,1,9,1.7,12,M,,M,,*53
06/19/2015	11:09:18.536	$GPGGA,110919,2513.3083,N,07917.6145,W,1,9,1.7,12,M,,M,,*5E
06/19/2015	11:09:19.546	$GPGGA,110920,2513.3084,N,07917.6130,W,1,9,1.7,12,M,,M,,*51
06/19/2015	11:09:20.536	$GPGGA,110921,2513.3084,N,07917.6117,W,1,9,1.7,12,M,,M,,*55
06/19/2015	11:09:21.536	$GPGGA,110922,2513.3084,N,07917.6104,W,1,8,2.0,12,M,,M,,*51
06/19/2015	11:09:22.536	$GPGGA,110923,2513.3084,N,07917.6091,W,1,8,1.7,12,M,,M,,*59
06/19/2015	11:09:23.536	$GPGGA,110924,2513.3084,N,07917.6078,W,1,9,1.7,12,M,,M,,*58
06/19/2015	11:09:24.536	$GPGGA,110925,2513.3083,N,07917.6064,W,1,9,1.7,12,M,,M,,*53
06/19/2015	11:09:25.526	$GPGGA,110926,2513.3084,N,07917.6051,W,1,9,1.7,12,M,,M,,*51
06/19/2015	11:09:26.526	$GPGGA,110927,2513.3086,N,07917.6037,W,1,9,1.7,12,M,,M,,*52
06/19/2015	11:09:27.525	$GPGGA,110928,2513.3085,N,07917.6023,W,1,9,1.7,12,M,,M,,*5B
06/19/2015	11:09:28.515	$GPGGA,110929,2513.3084,N,07917.6009,W,1,9,1.7,12,M,,M,,*53
06/19/2015	11:09:29.516	$GPGGA,110930,2513.3086,N,07917.5995,W,1,9,1.7,12,M,,M,,*56
06/19/2015	11:09:30.515	$GPGGA,110931,2513.3085,N,07917.5982,W,1,9,1.7,12,M,,M,,*52
06/19/2015	11:09:31.535	$GPGGA,110932,2513.3086,N,07917.5968,W,1,9,1.7,12,M,,M,,*56
06/19/2015	11:09:32.505	$GPGGA,110933,2513.3085,N,07917.5954,W,1,9,1.7,12,M,,M,,*5B
06/19/2015	11:09:33.525	$GPGGA,110934,2513.3086,N,07917.5940,W,1,9,1.7,12,M,,M,,*5A
06/19/2015	11:09:34.505	$GPGGA,110935,2513.3087,N,07917.5926,W,1,9,1.7,12,M,,M,,*5A
06/19/2015	11:09:35.525	$GPGGA,110936,2513.3087,N,07917.5912,W,1,9,1.7,12,M,,M,,*5E
06/19/2015	11:09:36.506	$GPGGA,110937,2513.3087,N,07917.5898,W,1,9,1.7,12,M,,M,,*5C
06/19/2015	11:09:37.596	$GPGGA,110938,2513.3087,N,07917.5884,W,1,9,1.7,12,M,,M,,*5E
06/19/2015	11:09:38.596	$GPGGA,110939,2513.3087,N,07917.5870,W,1,9,1.7,12,M,,M,,*54
06/19/2015	11:09:39.516	$GPGGA,110940,2513.3087,N,07917.5856,W,1,9,1.7,12,M,,M,,*5E
06/19/2015	11:09:40.491	$GPGGA,110941,2513.3087,N,07917.5842,W,1,9,1.7,12,M,,M,,*5A
06/19/2015	11:09:41.586	$GPGGA,110942,2513.3087,N,07917.5827,W,1,9,1.7,12,M,,M,,*5A
06/19/2015	11:09:42.496	$GPGGA,110943,2513.3089,N,07917.5814,W,1,9,1.7,12,M,,M,,*55
06/19/2015	11:09:43.516	$GPGGA,110944,2513.3087,N,07917.5799,W,1,9,1.7,12,M,,M,,*56
06/19/2015	11:09:44.581	$GPGGA,110945,2513.3087,N,07917.5785,W,1,9,1.7,12,M,,M,,*5A
06/19/2015	11:09:45.625	$GPGGA,110946,2513.3087,N,07917.5771,W,1,9,1.7,12,M,,M,,*52
06/19/2015	11:09:46.595	$GPGGA,110947,2513.3089,N,07917.5757,W,1,9,1.7,12,M,,M,,*59
06/19/2015	11:09:47.595	$GPGGA,110948,2513.3088,N,07917.5743,W,1,9,1.7,12,M,,M,,*52
06/19/2015	11:09:48.576	$GPGGA,110949,2513.3089,N,07917.5729,W,1,9,1.7,12,M,,M,,*5E
06/19/2015	11:09:49.591	$GPGGA,110950,2513.3090,N,07917.5715,W,1,9,1.7,12,M,,M,,*51
06/19/2015	11:09:50.584	$GPGGA,110951,2513.3089,N,07917.5701,W,1,9,1.7,12,M,,M,,*5D
06/19/2015	11:09:51.615	$GPGGA,110952,2513.3090,N,07917.5687,W,1,9,1.7,12,M,,M,,*59
06/19/2015	11:09:52.578	$GPGGA,110953,2513.3089,N,07917.5672,W,1,9,1.7,12,M,,M,,*5A
06/19/2015	11:09:53.556	$GPGGA,110954,2513.3091,N,07917.5658,W,1,9,1.7,12,M,,M,,*5C
06/19/2015	11:09:54.586	$GPGGA,110955,2513.3091,N,07917.5644,W,1,9,1.7,12,M,,M,,*50
06/19/2015	11:09:55.566	$GPGGA,110956,2513.3089,N,07917.5629,W,1,9,1.7,12,M,,M,,*51
06/19/2015	11:09:56.566	$GPGGA,110957,2513.3091,N,07917.5615,W,1,9,1.7,12,M,,M,,*56
06/19/2015	11:09:57.590	$GPGGA,110958,2513.3091,N,07917.5600,W,1,9,1.7,12,M,,M,,*5D
06/19/2015	11:09:58.566	$GPGGA,110959,2513.3091,N,07917.5586,W,1,9,1.7,12,M,,M,,*51
06/19/2015	11:09:59.636	$GPGGA,111000,2513.3093,N,07917.5572,W,1,9,1.7,12,M,,M,,*5C
06/19/2015	11:10:00.556	$GPGGA,111001,2513.3092,N,07917.5558,W,1,9,1.7,12,M,,M,,*54
06/19/2015	11:10:01.556	$GPGGA,111002,2513.3094,N,07917.5544,W,1,9,1.7,12,M,,M,,*5C
06/19/2015	11:10:02.555	$GPGGA,111003,2513.3093,N,07917.5530,W,1,9,1.7,12,M,,M,,*59
06/19/2015	11:10:03.584	$GPGGA,111004,2513.3094,N,07917.5516,W,1,9,1.7,12,M,,M,,*5D
06/19/2015	11:10:04.555	$GPGGA,111005,2513.3096,N,07917.5502,W,1,9,1.7,12,M,,M,,*5B
06/19/2015	11:10:05.535	$GPGGA,111006,2513.3097,N,07917.5489,W,1,9,1.7,12,M,,M,,*5B
06/19/2015	11:10:06.545	$GPGGA,111007,2513.3096,N,07917.5475,W,1,9,1.7,12,M,,M,,*58
06/19/2015	11:10:07.583	$GPGGA,111008,2513.3098,N,07917.5462,W,1,9,1.7,12,M,,M,,*5F
06/19/2015	11:10:08.555	$GPGGA,111009,2513.3098,N,07917.5449,W,1,9,1.7,12,M,,M,,*57
06/19/2015	11:10:09.555	$GPGGA,111010,2513.3101,N,07917.5436,W,1,9,1.7,12,M,,M,,*56
06/19/2015	11:10:10.535	$GPGGA,111011,2513.3102,N,07917.5423,W,1,9,1.7,12,M,,M,,*50
06/19/2015	11:10:11.566	$GPGGA,111012,2513.3102,N,07917.5411,W,1,9,1.7,12,M,,M,,*52
06/19/2015	11:10:12.526	$GPGGA,111013,2513.3105,N,07917.5398,W,1,9,1.7,12,M,,M,,*52
06/19/2015	11:10:13.556	$GPGGA,111014,2513.3105,N,07917.5386,W,1,9,1.7,12,M,,M,,*5A
06/19/2015	11:10:14.526	$GPGGA,111015,2513.3105,N,07917.5373,W,1,9,1.7,12,M,,M,,*51
06/19/2015	11:10:15.546	$GPGGA,111016,2513.3108,N,07917.5361,W,1,9,1.7,12,M,,M,,*5C
06/19/2015	11:10:16.526	$GPGGA,111017,2513.3109,N,07917.5349,W,1,9,1.7,12,M,,M,,*56
06/19/2015	11:10:17.546	$GPGGA,111018,2513.3109,N,07917.5337,W,1,9,1.7,12,M,,M,,*50
06/19/2015	11:10:18.526	$GPGGA,111019,2513.3109,N,07917.5326,W,1,9,1.7,12,M,,M,,*51
06/19/2015	11:10:19.546	$GPGGA,111020,2513.3112,N,07917.5314,W,1,9,1.7,12,M,,M,,*50
06/19/2015	11:10:20.505	$GPGGA,111021,2513.3113,N,07917.5302,W,1,9,1.7,12,M,,M,,*57
06/19/2015	11:10:21.515	$GPGGA,111022,2513.3115,N,07917.5291,W,1,9,1.7,12,M,,M,,*59
06/19/2015	11:10:22.625	$GPGGA,111023,2513.3116,N,07917.5279,W,1,9,1.7,12,M,,M,,*5D
06/19/2015	11:10:24.536	$GPGGA,111025,2513.3119,N,07917.5257,W,1,9,1.7,12,M,,M,,*58
06/19/2015	11:10:25.495	$GPGGA,111026,2513.3120,N,07917.5246,W,1,9,1.7,12,M,,M,,*51
06/19/2015	11:10:26.515	$GPGGA,111027,2513.3122,N,07917.5235,W,1,9,1.7,12,M,,M,,*56
06/19/2015	11:10:27.515	$GPGGA,111028,2513.3123,N,07917.5224,W,1,9,1.7,12,M,,M,,*58
06/19/2015	11:10:28.487	$GPGGA,111029,2513.3125,N,07917.5213,W,1,9,1.7,12,M,,M,,*5B
06/19/2015	11:10:29.616	$GPGGA,111030,2513.3127,N,07917.5202,W,1,9,1.7,12,M,,M,,*51
06/19/2015	11:10:30.506	$GPGGA,111031,2513.3127,N,07917.5191,W,1,9,1.7,12,M,,M,,*59
06/19/2015	11:10:31.636	$GPGGA,111032,2513.3127,N,07917.5180,W,1,9,1.7,12,M,,M,,*5A
06/19/2015	11:10:32.496	$GPGGA,111033,2513.3130,N,07917.5169,W,1,9,1.7,12,M,,M,,*5A
06/19/2015	11:10:33.606	$GPGGA,111034,2513.3131,N,07917.5158,W,1,9,1.7,12,M,,M,,*5E
06/19/2015	11:10:34.496	$GPGGA,111035,2513.3134,N,07917.5148,W,1,9,1.7,12,M,,M,,*5B
06/19/2015	11:10:35.588	$GPGGA,111036,2513.3134,N,07917.5138,W,1,9,1.7,12,M,,M,,*5F
06/19/2015	11:10:36.576	$GPGGA,111037,2513.3134,N,07917.5127,W,1,9,1.8,12,M,,M,,*5F
06/19/2015	11:10:37.615	$GPGGA,111038,2513.3136,N,07917.5118,W,1,9,1.7,12,M,,M,,*51
06/19/2015	11:10:38.579	$GPGGA,111039,2513.3135,N,07917.5108,W,1,9,1.7,12,M,,M,,*52
06/19/2015	11:10:39.615	$GPGGA,111040,2513.3138,N,07917.5098,W,1,9,1.7,12,M,,M,,*59
06/19/2015	11:10:40.585	$GPGGA,111041,2513.3138,N,07917.5088,W,1,9,1.7,12,M,,M,,*59
06/19/2015	11:10:41.605	$GPGGA,111042,2513.3138,N,07917.5078,W,1,9,1.7,12,M,,M,,*55
06/19/2015	11:10:42.565	$GPGGA,111043,2513.3141,N,07917.5068,W,1,9,1.7,12,M,,M,,*5B
06/19/2015	11:10:43.592	$GPGGA,111044,2513.3141,N,07917.5059,W,1,9,1.7,12,M,,M,,*5E
06/19/2015	11:10:44.565	$GPGGA,111045,2513.3143,N,07917.5049,W,1,9,1.7,12,M,,M,,*5C
06/19/2015	11:10:45.555	$GPGGA,111046,2513.3144,N,07917.5040,W,1,9,1.7,12,M,,M,,*51
06/19/2015	11:10:46.557	$GPGGA,111047,2513.3145,N,07917.5030,W,1,9,1.7,12,M,,M,,*56
06/19/2015	11:10:47.588	$GPGGA,111048,2513.3147,N,07917.5021,W,1,9,1.7,12,M,,M,,*5B
06/19/2015	11:10:48.547	$GPGGA,111049,2513.3148,N,07917.5012,W,1,9,1.7,12,M,,M,,*55
06/19/2015	11:10:49.577	$GPGGA,111050,2513.3148,N,07917.5002,W,1,9,1.7,12,M,,M,,*5C
06/19/2015	11:10:50.546	$GPGGA,111051,2513.3151,N,07917.4993,W,1,9,1.7,12,M,,M,,*55
06/19/2015	11:10:51.581	$GPGGA,111052,2513.3152,N,07917.4984,W,1,9,1.7,12,M,,M,,*53
06/19/2015	11:10:52.546	$GPGGA,111053,2513.3154,N,07917.4975,W,1,9,1.7,12,M,,M,,*5A
06/19/2015	11:10:53.536	$GPGGA,111054,2513.3155,N,07917.4966,W,1,9,1.7,12,M,,M,,*5E
06/19/2015	11:10:54.546	$GPGGA,111055,2513.3156,N,07917.4957,W,1,9,1.7,12,M,,M,,*5E
06/19/2015	11:10:55.575	$GPGGA,111056,2513.3159,N,07917.4948,W,1,9,1.7,12,M,,M,,*5C
06/19/2015	11:10:56.525	$GPGGA,111057,2513.3159,N,07917.4939,W,1,9,1.7,11,M,,M,,*58
06/19/2015	11:10:57.525	$GPGGA,111058,2513.3161,N,07917.4929,W,1,9,1.7,11,M,,M,,*5D
06/19/2015	11:10:58.535	$GPGGA,111059,2513.3163,N,07917.4920,W,1,9,1.7,11,M,,M,,*57
06/19/2015	11:10:59.545	$GPGGA,111100,2513.3163,N,07917.4912,W,1,9,1.7,11,M,,M,,*5B
06/19/2015	11:11:00.535	$GPGGA,111101,2513.3165,N,07917.4903,W,1,9,1.7,11,M,,M,,*5C
06/19/2015	11:11:01.515	$GPGGA,111102,2513.3167,N,07917.4894,W,1,9,1.7,11,M,,M,,*52
06/19/2015	11:11:02.525	$GPGGA,111103,2513.3169,N,07917.4886,W,1,9,1.7,11,M,,M,,*5E
06/19/2015	11:11:03.536	$GPGGA,111104,2513.3170,N,07917.4877,W,1,9,1.7,11,M,,M,,*5F
06/19/2015	11:11:04.526	$GPGGA,111105,2513.3170,N,07917.4869,W,1,9,1.7,11,M,,M,,*51
06/19/2015	11:11:05.516	$GPGGA,111106,2513.3173,N,07917.4860,W,1,8,1.8,11,M,,M,,*56
06/19/2015	11:11:06.506	$GPGGA,111107,2513.3174,N,07917.4851,W,1,8,1.7,11,M,,M,,*5D
06/19/2015	11:11:07.556	$GPGGA,111108,2513.3176,N,07917.4843,W,1,9,1.7,11,M,,M,,*52
06/19/2015	11:11:08.526	$GPGGA,111109,2513.3177,N,07917.4835,W,1,9,1.7,11,M,,M,,*53
06/19/2015	11:11:09.526	$GPGGA,111110,2513.3178,N,07917.4826,W,1,9,1.7,11,M,,M,,*56
06/19/2015	11:11:10.516	$GPGGA,111111,2513.3181,N,07917.4817,W,1,9,1.7,11,M,,M,,*53
06/19/2015	11:11:11.696	$GPGGA,111112,2513.3181,N,07917.4808,W,1,9,1.7,11,M,,M,,*5E
06/19/2015	11:11:12.645	$GPGGA,111113,2513.3181,N,07917.4800,W,1,9,1.7,11,M,,M,,*57
06/19/2015	11:11:13.685	$GPGGA,111114,2513.3184,N,07917.4791,W,1,9,1.7,11,M,,M,,*52
06/19/2015	11:11:14.495	$GPGGA,111115,2513.3185,N,07917.4783,W,1,9,1.7,11,M,,M,,*51
06/19/2015	11:11:15.535	$GPGGA,111116,2513.3187,N,07917.4774,W,1,9,1.7,11,M,,M,,*58
06/19/2015	11:11:16.505	$GPGGA,111117,2513.3188,N,07917.4766,W,1,9,1.7,11,M,,M,,*55
06/19/2015	11:11:17.495	$GPGGA,111118,2513.3190,N,07917.4757,W,1,9,1.7,11,M,,M,,*51
06/19/2015	11:11:18.487	$GPGGA,111119,2513.3189,N,07917.4749,W,1,9,1.7,11,M,,M,,*57
06/19/2015	11:11:19.595	$GPGGA,111120,2513.3192,N,07917.4741,W,1,9,1.7,11,M,,M,,*5F
06/19/2015	11:11:20.495	$GPGGA,111121,2513.3192,N,07917.4733,W,1,9,1.7,11,M,,M,,*5B
06/19/2015	11:11:21.487	$GPGGA,111122,2513.3194,N,07917.4725,W,1,9,1.7,11,M,,M,,*59
06/19/2015	11:11:22.616	$GPGGA,111123,2513.3195,N,07917.4716,W,1,9,1.7,10,M,,M,,*58
06/19/2015	11:11:23.678	$GPGGA,111124,2513.3195,N,07917.4708,W,1,9,1.7,10,M,,M,,*50
06/19/2015	11:11:24.496	$GPGGA,111125,2513.3196,N,07917.4700,W,1,9,1.7,10,M,,M,,*5A
06/19/2015	11:11:26.580	$GPGGA,111127,2513.3201,N,07917.4683,W,1,9,1.7,10,M,,M,,*5F
06/19/2015	11:11:27.686	$GPGGA,111128,2513.3202,N,07917.4675,W,1,9,1.7,10,M,,M,,*5A
06/19/2015	11:11:29.566	$GPGGA,111129,2513.3203,N,07917.4666,W,1,9,1.7,10,M,,M,,*58
06/19/2015	11:11:29.596	$GPGGA,111130,2513.3206,N,07917.4658,W,1,9,1.7,10,M,,M,,*58
06/19/2015	11:11:30.605	$GPGGA,111131,2513.3206,N,07917.4650,W,1,9,1.7,10,M,,M,,*51
06/19/2015	11:11:31.675	$GPGGA,111132,2513.3208,N,07917.4641,W,1,9,1.7,10,M,,M,,*5C
06/19/2015	11:11:32.615	$GPGGA,111133,2513.3210,N,07917.4633,W,1,9,1.7,11,M,,M,,*50
06/19/2015	11:11:33.665	$GPGGA,111134,2513.3212,N,07917.4625,W,1,9,1.7,11,M,,M,,*52
06/19/2015	11:11:34.585	$GPGGA,111135,2513.3213,N,07917.4616,W,1,9,1.7,11,M,,M,,*52
06/19/2015	11:11:35.685	$GPGGA,111136,2513.3214,N,07917.4608,W,1,9,1.7,11,M,,M,,*59
06/19/2015	11:11:36.577	$GPGGA,111137,2513.3217,N,07917.4599,W,1,9,1.7,11,M,,M,,*50
06/19/2015	11:11:37.645	$GPGGA,111138,2513.3217,N,07917.4591,W,1,9,1.7,11,M,,M,,*57
06/19/2015	11:11:38.580	$GPGGA,111139,2513.3220,N,07917.4582,W,1,9,1.7,11,M,,M,,*50
06/19/2015	11:11:39.666	$GPGGA,111140,2513.3221,N,07917.4574,W,1,9,2.0,11,M,,M,,*52
06/19/2015	11:11:40.536	$GPGGA,111141,2513.3221,N,07917.4566,W,1,9,2.0,11,M,,M,,*50
06/19/2015	11:11:41.646	$GPGGA,111142,2513.3224,N,07917.4558,W,1,9,1.7,11,M,,M,,*5F
06/19/2015	11:11:42.566	$GPGGA,111143,2513.3227,N,07917.4549,W,1,9,1.7,11,M,,M,,*5D
06/19/2015	11:11:43.666	$GPGGA,111144,2513.3226,N,07917.4542,W,1,9,1.7,11,M,,M,,*50
06/19/2015	11:11:44.536	$GPGGA,111145,2513.3228,N,07917.4533,W,1,9,1.7,11,M,,M,,*59
06/19/2015	11:11:45.526	$GPGGA,111146,2513.3231,N,07917.4525,W,1,9,1.7,11,M,,M,,*55
06/19/2015	11:11:46.566	$GPGGA,111147,2513.3232,N,07917.4518,W,1,9,1.7,11,M,,M,,*59
06/19/2015	11:11:47.535	$GPGGA,111148,2513.3232,N,07917.4509,W,1,9,1.7,11,M,,M,,*56
06/19/2015	11:11:48.525	$GPGGA,111149,2513.3235,N,07917.4502,W,1,9,1.7,11,M,,M,,*5B
06/19/2015	11:11:49.635	$GPGGA,111150,2513.3237,N,07917.4494,W,1,9,1.7,12,M,,M,,*5C
06/19/2015	11:11:50.526	$GPGGA,111151,2513.3238,N,07917.4486,W,1,9,1.7,12,M,,M,,*51
06/19/2015	11:11:51.645	$GPGGA,111152,2513.3239,N,07917.4478,W,1,9,1.7,12,M,,M,,*52
