Software Version Number: 1	Data File Format Number: 1	Build Version Number: 1	Error Count Since VI Started: 3	Manufacturer: Raytheon	 Model Number: RayMarine 120	 S/N: 	 Cal Date: 	 Wind Direction Offset: 0.00	 Slope (M)1: 0.00	 Offset (B)1: 0.00	 Slope (M)2: 0.00	 Offset (B)2: 0.00	 Slope (M)3: 0.00	 Offset (B)3: 0.00	 Slope (M)4: 0.00	 Offset (B)4: 0.00	 Slope (M)5: 0.00	 Offset (B)5: 0.00	 Slope (M)6: 0.00	 Offset (B)6: 0.00
Computer Date	Computer Time	GGA String
06/23/2015	06:00:00.565	$GPGGA,060001,2434.2605,N,08058.7638,W,1,9,1.7,23,M,,M,,*56
06/23/2015	06:00:01.553	$GPGGA,060002,2434.2616,N,08058.7613,W,1,9,1.7,23,M,,M,,*5E
06/23/2015	06:00:02.553	$GPGGA,060003,2434.2625,N,08058.7586,W,1,9,1.7,23,M,,M,,*50
06/23/2015	06:00:03.603	$GPGGA,060004,2434.2635,N,08058.7560,W,1,9,1.7,23,M,,M,,*5E
06/23/2015	06:00:04.543	$GPGGA,060005,2434.2646,N,08058.7533,W,1,9,1.7,23,M,,M,,*5D
06/23/2015	06:00:05.572	$GPGGA,060006,2434.2657,N,08058.7508,W,1,9,1.7,23,M,,M,,*56
06/23/2015	06:00:06.543	$GPGGA,060007,2434.2668,N,08058.7480,W,1,9,1.7,23,M,,M,,*5A
06/23/2015	06:00:07.575	$GPGGA,060008,2434.2677,N,08058.7454,W,1,9,1.7,23,M,,M,,*52
06/23/2015	06:00:08.553	$GPGGA,060009,2434.2688,N,08058.7428,W,1,9,1.7,23,M,,M,,*58
06/23/2015	06:00:09.569	$GPGGA,060010,2434.2697,N,08058.7401,W,1,9,1.7,23,M,,M,,*55
06/23/2015	06:00:10.533	$GPGGA,060011,2434.2707,N,08058.7376,W,1,9,1.7,23,M,,M,,*5B
06/23/2015	06:00:11.553	$GPGGA,060012,2434.2717,N,08058.7348,W,1,9,1.7,23,M,,M,,*54
06/23/2015	06:00:12.533	$GPGGA,060013,2434.2726,N,08058.7322,W,1,9,1.7,23,M,,M,,*5B
06/23/2015	06:00:13.566	$GPGGA,060014,2434.2736,N,08058.7297,W,1,9,1.7,23,M,,M,,*52
06/23/2015	06:00:14.533	$GPGGA,060015,2434.2746,N,08058.7270,W,1,9,1.7,23,M,,M,,*5D
06/23/2015	06:00:15.565	$GPGGA,060016,2434.2755,N,08058.7243,W,1,9,1.7,23,M,,M,,*5C
06/23/2015	06:00:16.523	$GPGGA,060017,2434.2765,N,08058.7217,W,1,9,2.1,23,M,,M,,*5A
06/23/2015	06:00:17.513	$GPGGA,060018,2434.2775,N,08058.7192,W,1,9,1.7,23,M,,M,,*5F
06/23/2015	06:00:18.543	$GPGGA,060019,2434.2783,N,08058.7164,W,1,9,1.7,23,M,,M,,*5E
06/23/2015	06:00:19.563	$GPGGA,060020,2434.2793,N,08058.7137,W,1,9,1.7,23,M,,M,,*53
06/23/2015	06:00:20.523	$GPGGA,060021,2434.2802,N,08058.7110,W,1,9,1.7,23,M,,M,,*50
06/23/2015	06:00:21.513	$GPGGA,060022,2434.2812,N,08058.7083,W,1,8,2.1,23,M,,M,,*5D
06/23/2015	06:00:22.522	$GPGGA,060023,2434.2820,N,08058.7059,W,1,8,1.7,23,M,,M,,*5F
06/23/2015	06:00:23.553	$GPGGA,060024,2434.2831,N,08058.7033,W,1,9,1.7,23,M,,M,,*55
06/23/2015	06:00:24.523	$GPGGA,060025,2434.2841,N,08058.7007,W,1,9,1.7,23,M,,M,,*54
06/23/2015	06:00:25.623	$GPGGA,060026,2434.2849,N,08058.6981,W,1,9,1.7,23,M,,M,,*59
06/23/2015	06:00:26.513	$GPGGA,060027,2434.2859,N,08058.6954,W,1,9,1.7,23,M,,M,,*51
06/23/2015	06:00:27.533	$GPGGA,060028,2434.2870,N,08058.6927,W,1,9,1.7,23,M,,M,,*51
06/23/2015	06:00:28.593	$GPGGA,060029,2434.2878,N,08058.6900,W,1,9,1.7,23,M,,M,,*5D
06/23/2015	06:00:29.513	$GPGGA,060030,2434.2889,N,08058.6874,W,1,9,1.7,23,M,,M,,*59
06/23/2015	06:00:30.493	$GPGGA,060031,2434.2899,N,08058.6847,W,1,9,1.7,23,M,,M,,*59
06/23/2015	06:00:31.513	$GPGGA,060032,2434.2909,N,08058.6821,W,1,9,1.7,22,M,,M,,*53
06/23/2015	06:00:32.484	$GPGGA,060033,2434.2920,N,08058.6794,W,1,9,1.7,22,M,,M,,*58
06/23/2015	06:00:33.483	$GPGGA,060034,2434.2931,N,08058.6769,W,1,9,1.7,22,M,,M,,*5D
06/23/2015	06:00:34.583	$GPGGA,060035,2434.2939,N,08058.6742,W,1,9,1.7,22,M,,M,,*5D
06/23/2015	06:00:35.623	$GPGGA,060036,2434.2950,N,08058.6715,W,1,9,1.7,22,M,,M,,*53
06/23/2015	06:00:36.503	$GPGGA,060037,2434.2961,N,08058.6692,W,1,9,1.7,22,M,,M,,*5E
06/23/2015	06:00:37.613	$GPGGA,060038,2434.2971,N,08058.6664,W,1,9,1.7,22,M,,M,,*59
06/23/2015	06:00:38.493	$GPGGA,060039,2434.2982,N,08058.6639,W,1,9,1.7,22,M,,M,,*5C
06/23/2015	06:00:39.622	$GPGGA,060040,2434.2993,N,08058.6614,W,1,9,1.7,22,M,,M,,*5D
06/23/2015	06:00:41.603	$GPGGA,060042,2434.3014,N,08058.6564,W,1,9,1.7,22,M,,M,,*5C
06/23/2015	06:00:42.583	$GPGGA,060043,2434.3024,N,08058.6538,W,1,9,2.2,22,M,,M,,*51
06/23/2015	06:00:43.613	$GPGGA,060044,2434.3035,N,08058.6512,W,1,8,2.2,22,M,,M,,*5F
06/23/2015	06:00:44.566	$GPGGA,060045,2434.3047,N,08058.6487,W,1,8,2.2,22,M,,M,,*56
06/23/2015	06:00:45.603	$GPGGA,060046,2434.3057,N,08058.6462,W,1,9,1.7,22,M,,M,,*58
06/23/2015	06:00:46.553	$GPGGA,060047,2434.3068,N,08058.6436,W,1,9,2.2,22,M,,M,,*52
06/23/2015	06:00:47.583	$GPGGA,060048,2434.3079,N,08058.6411,W,1,8,2.2,22,M,,M,,*59
06/23/2015	06:00:48.563	$GPGGA,060049,2434.3090,N,08058.6385,W,1,8,1.7,22,M,,M,,*53
06/23/2015	06:00:49.573	$GPGGA,060050,2434.3100,N,08058.6359,W,1,9,1.7,22,M,,M,,*53
06/23/2015	06:00:50.564	$GPGGA,060051,2434.3112,N,08058.6333,W,1,9,2.2,22,M,,M,,*5B
06/23/2015	06:00:51.593	$GPGGA,060052,2434.3123,N,08058.6304,W,1,9,1.7,22,M,,M,,*58
06/23/2015	06:00:52.553	$GPGGA,060053,2434.3134,N,08058.6277,W,1,9,1.7,22,M,,M,,*5A
06/23/2015	06:00:53.564	$GPGGA,060054,2434.3145,N,08058.6250,W,1,9,1.7,22,M,,M,,*5E
06/23/2015	06:00:54.553	$GPGGA,060055,2434.3158,N,08058.6225,W,1,9,1.7,22,M,,M,,*51
06/23/2015	06:00:55.603	$GPGGA,060056,2434.3167,N,08058.6197,W,1,9,1.7,22,M,,M,,*54
06/23/2015	06:00:56.533	$GPGGA,060057,2434.3177,N,08058.6169,W,1,9,1.7,22,M,,M,,*55
06/23/2015	06:00:57.552	$GPGGA,060058,2434.3190,N,08058.6145,W,1,9,1.7,22,M,,M,,*5D
06/23/2015	06:00:58.543	$GPGGA,060059,2434.3202,N,08058.6117,W,1,9,1.7,22,M,,M,,*53
06/23/2015	06:00:59.583	$GPGGA,060100,2434.3210,N,08058.6089,W,1,9,1.7,22,M,,M,,*5B
06/23/2015	06:01:00.534	$GPGGA,060101,2434.3221,N,08058.6064,W,1,9,1.5,22,M,,M,,*59
06/23/2015	06:01:01.566	$GPGGA,060102,2434.3232,N,08058.6037,W,1,10,1.5,23,M,,M,,*67
06/23/2015	06:01:02.523	$GPGGA,060103,2434.3241,N,08058.6011,W,1,10,1.5,23,M,,M,,*66
06/23/2015	06:01:03.563	$GPGGA,060104,2434.3250,N,08058.5986,W,1,10,1.5,23,M,,M,,*65
06/23/2015	06:01:04.533	$GPGGA,060105,2434.3261,N,08058.5959,W,1,10,1.5,23,M,,M,,*64
06/23/2015	06:01:05.533	$GPGGA,060106,2434.3271,N,08058.5933,W,1,10,1.5,23,M,,M,,*6A
06/23/2015	06:01:06.513	$GPGGA,060107,2434.3281,N,08058.5908,W,1,10,1.5,23,M,,M,,*6C
06/23/2015	06:01:07.553	$GPGGA,060108,2434.3290,N,08058.5881,W,1,10,1.5,24,M,,M,,*64
06/23/2015	06:01:08.533	$GPGGA,060109,2434.3300,N,08058.5855,W,1,10,1.5,24,M,,M,,*64
06/23/2015	06:01:09.543	$GPGGA,060110,2434.3311,N,08058.5829,W,1,10,1.5,24,M,,M,,*67
06/23/2015	06:01:10.513	$GPGGA,060111,2434.3321,N,08058.5802,W,1,10,1.5,24,M,,M,,*6C
06/23/2015	06:01:11.543	$GPGGA,060112,2434.3329,N,08058.5776,W,1,10,1.5,24,M,,M,,*6B
06/23/2015	06:01:12.513	$GPGGA,060113,2434.3339,N,08058.5748,W,1,10,1.5,24,M,,M,,*66
06/23/2015	06:01:13.523	$GPGGA,060114,2434.3350,N,08058.5723,W,1,9,1.8,24,M,,M,,*56
06/23/2015	06:01:14.502	$GPGGA,060115,2434.3358,N,08058.5698,W,1,9,1.5,25,M,,M,,*52
06/23/2015	06:01:15.679	$GPGGA,060116,2434.3368,N,08058.5673,W,1,10,1.5,25,M,,M,,*6F
06/23/2015	06:01:16.503	$GPGGA,060117,2434.3378,N,08058.5646,W,1,10,1.5,25,M,,M,,*69
06/23/2015	06:01:17.653	$GPGGA,060118,2434.3387,N,08058.5622,W,1,10,1.5,25,M,,M,,*64
06/23/2015	06:01:18.493	$GPGGA,060119,2434.3398,N,08058.5595,W,1,10,1.5,25,M,,M,,*64
06/23/2015	06:01:19.683	$GPGGA,060120,2434.3407,N,08058.5569,W,1,10,1.5,25,M,,M,,*6C
06/23/2015	06:01:20.513	$GPGGA,060121,2434.3418,N,08058.5544,W,1,10,1.5,26,M,,M,,*6F
06/23/2015	06:01:21.643	$GPGGA,060122,2434.3427,N,08058.5517,W,1,10,1.5,26,M,,M,,*66
06/23/2015	06:01:22.503	$GPGGA,060123,2434.3437,N,08058.5490,W,1,10,1.5,26,M,,M,,*68
06/23/2015	06:01:23.676	$GPGGA,060124,2434.3448,N,08058.5466,W,1,10,1.7,26,M,,M,,*6C
06/23/2015	06:01:24.593	$GPGGA,060125,2434.3459,N,08058.5439,W,1,10,1.7,26,M,,M,,*67
06/23/2015	06:01:25.493	$GPGGA,060126,2434.3466,N,08058.5411,W,1,10,1.5,26,M,,M,,*60
06/23/2015	06:01:26.577	$GPGGA,060127,2434.3477,N,08058.5384,W,1,10,1.5,26,M,,M,,*6A
06/23/2015	06:01:27.653	$GPGGA,060128,2434.3488,N,08058.5357,W,1,10,1.5,27,M,,M,,*6A
06/23/2015	06:01:28.483	$GPGGA,060129,2434.3497,N,08058.5332,W,1,10,1.5,27,M,,M,,*66
06/23/2015	06:01:29.577	$GPGGA,060130,2434.3506,N,08058.5304,W,1,10,1.5,27,M,,M,,*62
06/23/2015	06:01:30.563	$GPGGA,060131,2434.3516,N,08058.5278,W,1,10,1.5,27,M,,M,,*68
06/23/2015	06:01:31.663	$GPGGA,060132,2434.3527,N,08058.5252,W,1,10,1.5,27,M,,M,,*61
06/23/2015	06:01:32.576	$GPGGA,060133,2434.3537,N,08058.5224,W,1,10,1.5,27,M,,M,,*60
06/23/2015	06:01:33.603	$GPGGA,060134,2434.3546,N,08058.5196,W,1,10,1.8,27,M,,M,,*66
06/23/2015	06:01:34.633	$GPGGA,060135,2434.3556,N,08058.5171,W,1,10,1.8,27,M,,M,,*6F
06/23/2015	06:01:35.613	$GPGGA,060136,2434.3566,N,08058.5144,W,1,10,1.5,27,M,,M,,*64
06/23/2015	06:01:36.633	$GPGGA,060137,2434.3575,N,08058.5120,W,1,10,1.5,27,M,,M,,*65
06/23/2015	06:01:37.553	$GPGGA,060138,2434.3585,N,08058.5093,W,1,10,1.5,27,M,,M,,*6C
06/23/2015	06:01:38.623	$GPGGA,060139,2434.3593,N,08058.5067,W,1,10,1.5,28,M,,M,,*6E
06/23/2015	06:01:39.603	$GPGGA,060140,2434.3604,N,08058.5043,W,1,10,1.5,28,M,,M,,*6B
06/23/2015	06:01:40.633	$GPGGA,060141,2434.3613,N,08058.5015,W,1,10,1.5,28,M,,M,,*6F
06/23/2015	06:01:41.613	$GPGGA,060142,2434.3622,N,08058.4991,W,1,10,1.5,28,M,,M,,*6A
06/23/2015	06:01:42.623	$GPGGA,060143,2434.3632,N,08058.4966,W,1,10,1.5,28,M,,M,,*62
06/23/2015	06:01:43.633	$GPGGA,060144,2434.3642,N,08058.4938,W,1,10,1.5,28,M,,M,,*69
06/23/2015	06:01:44.613	$GPGGA,060145,2434.3651,N,08058.4914,W,1,10,1.5,28,M,,M,,*64
06/23/2015	06:01:45.613	$GPGGA,060146,2434.3661,N,08058.4888,W,1,10,1.5,28,M,,M,,*60
06/23/2015	06:01:46.593	$GPGGA,060147,2434.3672,N,08058.4862,W,1,10,1.5,28,M,,M,,*67
06/23/2015	06:01:47.593	$GPGGA,060148,2434.3683,N,08058.4836,W,1,10,1.5,28,M,,M,,*67
06/23/2015	06:01:48.583	$GPGGA,060149,2434.3694,N,08058.4811,W,1,10,1.6,28,M,,M,,*66
06/23/2015	06:01:49.532	$GPGGA,060150,2434.3705,N,08058.4785,W,1,9,1.6,28,M,,M,,*5D
06/23/2015	06:01:50.533	$GPGGA,060151,2434.3716,N,08058.4757,W,1,9,1.6,28,M,,M,,*51
06/23/2015	06:01:51.613	$GPGGA,060152,2434.3727,N,08058.4731,W,1,10,1.5,28,M,,M,,*6B
06/23/2015	06:01:52.573	$GPGGA,060153,2434.3738,N,08058.4705,W,1,10,1.6,28,M,,M,,*60
06/23/2015	06:01:53.582	$GPGGA,060154,2434.3748,N,08058.4679,W,1,9,1.6,28,M,,M,,*52
06/23/2015	06:01:54.577	$GPGGA,060155,2434.3759,N,08058.4653,W,1,9,1.5,28,M,,M,,*58
06/23/2015	06:01:55.603	$GPGGA,060156,2434.3770,N,08058.4627,W,1,10,1.5,28,M,,M,,*6B
06/23/2015	06:01:56.573	$GPGGA,060157,2434.3780,N,08058.4602,W,1,10,1.5,28,M,,M,,*62
06/23/2015	06:01:57.553	$GPGGA,060158,2434.3791,N,08058.4575,W,1,10,1.5,28,M,,M,,*6E
06/23/2015	06:01:58.503	$GPGGA,060159,2434.3802,N,08058.4550,W,1,10,1.5,28,M,,M,,*6D
06/23/2015	06:01:59.613	$GPGGA,060200,2434.3810,N,08058.4526,W,1,10,1.5,28,M,,M,,*60
06/23/2015	06:02:00.563	$GPGGA,060201,2434.3821,N,08058.4499,W,1,10,1.5,28,M,,M,,*66
06/23/2015	06:02:01.543	$GPGGA,060202,2434.3833,N,08058.4475,W,1,10,1.5,28,M,,M,,*64
06/23/2015	06:02:02.503	$GPGGA,060203,2434.3842,N,08058.4449,W,1,10,1.5,28,M,,M,,*6C
06/23/2015	06:02:03.574	$GPGGA,060204,2434.3853,N,08058.4423,W,1,10,1.5,28,M,,M,,*67
06/23/2015	06:02:04.564	$GPGGA,060205,2434.3864,N,08058.4398,W,1,10,1.5,28,M,,M,,*65
06/23/2015	06:02:05.493	$GPGGA,060206,2434.3875,N,08058.4371,W,1,10,1.5,28,M,,M,,*61
06/23/2015	06:02:06.563	$GPGGA,060207,2434.3885,N,08058.4346,W,1,10,1.5,28,M,,M,,*6B
06/23/2015	06:02:07.572	$GPGGA,060208,2434.3895,N,08058.4319,W,1,10,1.5,27,M,,M,,*60
06/23/2015	06:02:08.593	$GPGGA,060209,2434.3907,N,08058.4294,W,1,10,1.7,27,M,,M,,*6D
06/23/2015	06:02:09.483	$GPGGA,060210,2434.3918,N,08058.4269,W,1,9,1.7,27,M,,M,,*51
06/23/2015	06:02:10.593	$GPGGA,060211,2434.3927,N,08058.4242,W,1,9,1.5,27,M,,M,,*57
06/23/2015	06:02:11.623	$GPGGA,060212,2434.3938,N,08058.4217,W,1,10,1.7,27,M,,M,,*60
06/23/2015	06:02:12.553	$GPGGA,060213,2434.3949,N,08058.4190,W,1,10,1.5,27,M,,M,,*69
06/23/2015	06:02:13.593	$GPGGA,060214,2434.3958,N,08058.4164,W,1,10,1.5,27,M,,M,,*65
06/23/2015	06:02:14.583	$GPGGA,060215,2434.3971,N,08058.4140,W,1,10,1.7,27,M,,M,,*6B
06/23/2015	06:02:15.613	$GPGGA,060216,2434.3980,N,08058.4113,W,1,9,1.5,27,M,,M,,*5A
06/23/2015	06:02:16.543	$GPGGA,060217,2434.3989,N,08058.4086,W,1,9,1.5,27,M,,M,,*5F
06/23/2015	06:02:17.603	$GPGGA,060218,2434.4000,N,08058.4059,W,1,10,1.5,27,M,,M,,*65
06/23/2015	06:02:18.576	$GPGGA,060219,2434.4010,N,08058.4032,W,1,10,1.5,27,M,,M,,*68
06/23/2015	06:02:19.603	$GPGGA,060220,2434.4019,N,08058.4007,W,1,10,1.5,27,M,,M,,*6D
06/23/2015	06:02:20.563	$GPGGA,060221,2434.4030,N,08058.3980,W,1,10,1.5,27,M,,M,,*66
06/23/2015	06:02:21.593	$GPGGA,060222,2434.4040,N,08058.3955,W,1,10,1.5,27,M,,M,,*6A
06/23/2015	06:02:22.578	$GPGGA,060223,2434.4050,N,08058.3929,W,1,10,1.5,27,M,,M,,*61
06/23/2015	06:02:23.613	$GPGGA,060224,2434.4059,N,08058.3902,W,1,10,1.5,27,M,,M,,*66
06/23/2015	06:02:24.576	$GPGGA,060225,2434.4070,N,08058.3879,W,1,10,1.7,27,M,,M,,*63
06/23/2015	06:02:25.583	$GPGGA,060226,2434.4080,N,08058.3853,W,1,9,1.5,27,M,,M,,*5D
06/23/2015	06:02:26.579	$GPGGA,060227,2434.4088,N,08058.3824,W,1,9,1.5,27,M,,M,,*54
06/23/2015	06:02:27.578	$GPGGA,060228,2434.4099,N,08058.3800,W,1,10,2.1,27,M,,M,,*62
06/23/2015	06:02:28.564	$GPGGA,060229,2434.4109,N,08058.3777,W,1,10,1.7,27,M,,M,,*61
06/23/2015	06:02:29.553	$GPGGA,060230,2434.4119,N,08058.3751,W,1,9,1.5,27,M,,M,,*56
06/23/2015	06:02:30.564	$GPGGA,060231,2434.4128,N,08058.3727,W,1,9,1.5,27,M,,M,,*54
06/23/2015	06:02:31.593	$GPGGA,060232,2434.4139,N,08058.3702,W,1,10,1.7,26,M,,M,,*6B
06/23/2015	06:02:32.553	$GPGGA,060233,2434.4148,N,08058.3673,W,1,10,1.5,26,M,,M,,*69
06/23/2015	06:02:33.543	$GPGGA,060234,2434.4156,N,08058.3648,W,1,10,1.5,26,M,,M,,*69
06/23/2015	06:02:34.553	$GPGGA,060235,2434.4167,N,08058.3623,W,1,10,1.7,26,M,,M,,*65
06/23/2015	06:02:35.569	$GPGGA,060236,2434.4177,N,08058.3597,W,1,9,1.5,26,M,,M,,*51
06/23/2015	06:02:36.533	$GPGGA,060237,2434.4177,N,08058.3597,W,1,9,1.5,26,M,,M,,*50
06/23/2015	06:02:37.543	$GPGGA,060238,2434.4198,N,08058.3544,W,1,9,1.8,26,M,,M,,*5D
06/23/2015	06:02:38.553	$GPGGA,060239,2434.4207,N,08058.3517,W,1,9,1.8,26,M,,M,,*5F
06/23/2015	06:02:39.566	$GPGGA,060240,2434.4218,N,08058.3490,W,1,9,1.8,26,M,,M,,*51
06/23/2015	06:02:40.543	$GPGGA,060241,2434.4227,N,08058.3462,W,1,9,1.8,26,M,,M,,*51
06/23/2015	06:02:41.553	$GPGGA,060242,2434.4236,N,08058.3437,W,1,9,1.5,26,M,,M,,*5F
06/23/2015	06:02:42.532	$GPGGA,060243,2434.4236,N,08058.3437,W,1,9,1.5,26,M,,M,,*5E
06/23/2015	06:02:43.570	$GPGGA,060244,2434.4254,N,08058.3384,W,1,9,1.5,25,M,,M,,*51
06/23/2015	06:02:44.613	$GPGGA,060245,2434.4264,N,08058.3358,W,1,9,1.5,25,M,,M,,*52
06/23/2015	06:02:45.544	$GPGGA,060246,2434.4274,N,08058.3334,W,1,10,1.5,26,M,,M,,*61
06/23/2015	06:02:46.523	$GPGGA,060247,2434.4274,N,08058.3334,W,1,10,1.5,26,M,,M,,*60
06/23/2015	06:02:47.633	$GPGGA,060248,2434.4293,N,08058.3283,W,1,10,1.5,26,M,,M,,*6B
06/23/2015	06:02:48.569	$GPGGA,060249,2434.4303,N,08058.3259,W,1,10,1.5,26,M,,M,,*65
06/23/2015	06:02:49.513	$GPGGA,060250,2434.4312,N,08058.3231,W,1,10,1.5,26,M,,M,,*63
06/23/2015	06:02:50.603	$GPGGA,060251,2434.4323,N,08058.3205,W,1,10,1.5,26,M,,M,,*67
06/23/2015	06:02:51.523	$GPGGA,060252,2434.4333,N,08058.3180,W,1,10,1.5,26,M,,M,,*6B
06/23/2015	06:02:52.503	$GPGGA,060253,2434.4333,N,08058.3180,W,1,10,1.5,26,M,,M,,*6A
06/23/2015	06:02:53.613	$GPGGA,060254,2434.4352,N,08058.3128,W,1,10,1.5,26,M,,M,,*68
06/23/2015	06:02:54.593	$GPGGA,060255,2434.4363,N,08058.3102,W,1,10,1.5,26,M,,M,,*63
06/23/2015	06:02:55.633	$GPGGA,060256,2434.4373,N,08058.3075,W,1,10,1.5,26,M,,M,,*60
06/23/2015	06:02:56.513	$GPGGA,060257,2434.4384,N,08058.3050,W,1,10,1.5,26,M,,M,,*6E
06/23/2015	06:02:57.493	$GPGGA,060258,2434.4395,N,08058.3024,W,1,10,1.5,26,M,,M,,*62
06/23/2015	06:02:58.603	$GPGGA,060259,2434.4406,N,08058.2998,W,1,10,1.5,26,M,,M,,*61
06/23/2015	06:02:59.632	$GPGGA,060300,2434.4417,N,08058.2974,W,1,8,2.2,26,M,,M,,*53
06/23/2015	06:03:00.593	$GPGGA,060301,2434.4430,N,08058.2950,W,1,8,2.2,26,M,,M,,*51
06/23/2015	06:03:02.613	$GPGGA,060303,2434.4451,N,08058.2897,W,1,9,1.7,26,M,,M,,*59
06/23/2015	06:03:03.613	$GPGGA,060304,2434.4464,N,08058.2871,W,1,10,1.5,26,M,,M,,*6A
06/23/2015	06:03:04.575	$GPGGA,060305,2434.4475,N,08058.2844,W,1,10,1.5,26,M,,M,,*6D
06/23/2015	06:03:05.573	$GPGGA,060306,2434.4485,N,08058.2818,W,1,10,1.5,26,M,,M,,*68
06/23/2015	06:03:06.575	$GPGGA,060307,2434.4499,N,08058.2791,W,1,10,1.5,26,M,,M,,*6A
06/23/2015	06:03:07.593	$GPGGA,060308,2434.4511,N,08058.2764,W,1,10,1.5,26,M,,M,,*6E
06/23/2015	06:03:08.564	$GPGGA,060309,2434.4521,N,08058.2742,W,1,10,1.7,26,M,,M,,*6A
06/23/2015	06:03:09.593	$GPGGA,060310,2434.4532,N,08058.2713,W,1,9,1.6,26,M,,M,,*5D
06/23/2015	06:03:10.568	$GPGGA,060311,2434.4543,N,08058.2690,W,1,9,1.7,26,M,,M,,*51
06/23/2015	06:03:11.583	$GPGGA,060312,2434.4554,N,08058.2666,W,1,9,1.6,26,M,,M,,*5C
06/23/2015	06:03:12.543	$GPGGA,060313,2434.4565,N,08058.2640,W,1,9,1.5,26,M,,M,,*58
06/23/2015	06:03:13.565	$GPGGA,060314,2434.4576,N,08058.2615,W,1,10,1.5,26,M,,M,,*65
06/23/2015	06:03:14.559	$GPGGA,060315,2434.4586,N,08058.2590,W,1,10,1.5,26,M,,M,,*65
06/23/2015	06:03:15.573	$GPGGA,060316,2434.4597,N,08058.2563,W,1,10,1.5,26,M,,M,,*6A
06/23/2015	06:03:16.543	$GPGGA,060317,2434.4608,N,08058.2536,W,1,10,1.5,26,M,,M,,*6E
06/23/2015	06:03:17.542	$GPGGA,060318,2434.4619,N,08058.2510,W,1,10,1.5,26,M,,M,,*65
06/23/2015	06:03:18.542	$GPGGA,060319,2434.4630,N,08058.2484,W,1,10,1.5,26,M,,M,,*63
06/23/2015	06:03:19.562	$GPGGA,060320,2434.4641,N,08058.2457,W,1,10,1.5,26,M,,M,,*61
06/23/2015	06:03:20.532	$GPGGA,060321,2434.4651,N,08058.2430,W,1,10,1.5,26,M,,M,,*60
06/23/2015	06:03:21.532	$GPGGA,060322,2434.4662,N,08058.2403,W,1,10,1.5,26,M,,M,,*63
06/23/2015	06:03:22.522	$GPGGA,060323,2434.4673,N,08058.2377,W,1,10,1.5,26,M,,M,,*66
06/23/2015	06:03:23.532	$GPGGA,060324,2434.4683,N,08058.2349,W,1,10,1.5,26,M,,M,,*63
06/23/2015	06:03:24.532	$GPGGA,060325,2434.4693,N,08058.2324,W,1,10,1.5,26,M,,M,,*68
06/23/2015	06:03:25.552	$GPGGA,060326,2434.4702,N,08058.2298,W,1,9,1.6,26,M,,M,,*5F
06/23/2015	06:03:26.512	$GPGGA,060327,2434.4712,N,08058.2269,W,1,9,1.6,26,M,,M,,*51
06/23/2015	06:03:27.532	$GPGGA,060328,2434.4723,N,08058.2244,W,1,10,1.5,26,M,,M,,*68
06/23/2015	06:03:28.513	$GPGGA,060329,2434.4734,N,08058.2217,W,1,10,1.5,26,M,,M,,*69
06/23/2015	06:03:29.523	$GPGGA,060330,2434.4742,N,08058.2190,W,1,10,1.5,26,M,,M,,*6C
06/23/2015	06:03:30.533	$GPGGA,060331,2434.4753,N,08058.2163,W,1,10,1.5,26,M,,M,,*61
06/23/2015	06:03:31.543	$GPGGA,060332,2434.4763,N,08058.2137,W,1,10,1.5,26,M,,M,,*60
06/23/2015	06:03:32.623	$GPGGA,060333,2434.4774,N,08058.2110,W,1,10,1.5,26,M,,M,,*62
06/23/2015	06:03:33.833	$GPGGA,060334,2434.4784,N,08058.2083,W,1,10,1.5,26,M,,M,,*61
06/23/2015	06:03:34.502	$GPGGA,060335,2434.4792,N,08058.2058,W,1,10,1.5,26,M,,M,,*61
06/23/2015	06:03:35.522	$GPGGA,060336,2434.4803,N,08058.2030,W,1,10,1.5,26,M,,M,,*6B
06/23/2015	06:03:36.512	$GPGGA,060337,2434.4813,N,08058.2006,W,1,10,1.5,26,M,,M,,*6E
06/23/2015	06:03:37.492	$GPGGA,060338,2434.4824,N,08058.1979,W,1,9,1.7,26,M,,M,,*5D
06/23/2015	06:03:38.502	$GPGGA,060339,2434.4834,N,08058.1952,W,1,9,1.5,26,M,,M,,*56
06/23/2015	06:03:39.502	$GPGGA,060340,2434.4843,N,08058.1925,W,1,10,1.5,26,M,,M,,*60
06/23/2015	06:03:40.482	$GPGGA,060341,2434.4852,N,08058.1897,W,1,10,1.5,26,M,,M,,*69
06/23/2015	06:03:41.492	$GPGGA,060342,2434.4864,N,08058.1871,W,1,10,1.5,26,M,,M,,*67
06/23/2015	06:03:42.582	$GPGGA,060343,2434.4874,N,08058.1846,W,1,10,1.5,26,M,,M,,*63
06/23/2015	06:03:43.492	$GPGGA,060344,2434.4882,N,08058.1818,W,1,10,1.5,26,M,,M,,*66
06/23/2015	06:03:44.582	$GPGGA,060345,2434.4893,N,08058.1793,W,1,10,1.5,26,M,,M,,*6B
06/23/2015	06:03:45.482	$GPGGA,060346,2434.4906,N,08058.1769,W,1,10,1.5,26,M,,M,,*60
06/23/2015	06:03:46.583	$GPGGA,060347,2434.4914,N,08058.1741,W,1,10,1.5,26,M,,M,,*68
06/23/2015	06:03:47.503	$GPGGA,060348,2434.4924,N,08058.1716,W,1,10,1.5,26,M,,M,,*66
06/23/2015	06:03:48.483	$GPGGA,060349,2434.4937,N,08058.1692,W,1,10,1.5,26,M,,M,,*68
06/23/2015	06:03:49.473	$GPGGA,060350,2434.4946,N,08058.1665,W,1,10,1.5,26,M,,M,,*6E
06/23/2015	06:03:50.573	$GPGGA,060351,2434.4955,N,08058.1638,W,1,10,1.5,26,M,,M,,*65
06/23/2015	06:03:51.602	$GPGGA,060352,2434.4968,N,08058.1614,W,1,10,1.5,26,M,,M,,*66
06/23/2015	06:03:52.565	$GPGGA,060353,2434.4979,N,08058.1589,W,1,10,1.5,26,M,,M,,*60
06/23/2015	06:03:53.582	$GPGGA,060354,2434.4987,N,08058.1562,W,1,10,1.5,26,M,,M,,*63
06/23/2015	06:03:54.572	$GPGGA,060355,2434.4998,N,08058.1536,W,1,10,1.5,26,M,,M,,*6D
06/23/2015	06:03:55.602	$GPGGA,060356,2434.5009,N,08058.1511,W,1,10,1.5,26,M,,M,,*6B
06/23/2015	06:03:56.554	$GPGGA,060357,2434.5020,N,08058.1485,W,1,10,1.5,26,M,,M,,*6D
06/23/2015	06:03:57.562	$GPGGA,060358,2434.5030,N,08058.1460,W,1,10,1.5,26,M,,M,,*68
06/23/2015	06:03:58.558	$GPGGA,060359,2434.5041,N,08058.1434,W,1,10,1.5,26,M,,M,,*6E
06/23/2015	06:03:59.612	$GPGGA,060400,2434.5052,N,08058.1408,W,1,10,1.5,26,M,,M,,*68
06/23/2015	06:04:00.559	$GPGGA,060401,2434.5063,N,08058.1383,W,1,10,1.5,26,M,,M,,*6F
06/23/2015	06:04:01.565	$GPGGA,060402,2434.5071,N,08058.1356,W,1,10,1.5,26,M,,M,,*67
06/23/2015	06:04:02.553	$GPGGA,060403,2434.5085,N,08058.1330,W,1,10,1.6,26,M,,M,,*6E
06/23/2015	06:04:03.583	$GPGGA,060404,2434.5095,N,08058.1306,W,1,10,1.5,26,M,,M,,*6E
06/23/2015	06:04:04.543	$GPGGA,060405,2434.5103,N,08058.1280,W,1,10,1.5,25,M,,M,,*6D
06/23/2015	06:04:05.567	$GPGGA,060406,2434.5114,N,08058.1253,W,1,10,1.5,25,M,,M,,*66
06/23/2015	06:04:06.564	$GPGGA,060407,2434.5125,N,08058.1228,W,1,10,1.5,25,M,,M,,*69
06/23/2015	06:04:07.583	$GPGGA,060408,2434.5136,N,08058.1202,W,1,10,1.5,25,M,,M,,*6C
06/23/2015	06:04:08.523	$GPGGA,060409,2434.5146,N,08058.1176,W,1,10,1.5,25,M,,M,,*6A
06/23/2015	06:04:09.562	$GPGGA,060410,2434.5156,N,08058.1149,W,1,10,1.5,25,M,,M,,*6F
06/23/2015	06:04:10.532	$GPGGA,060411,2434.5167,N,08058.1124,W,1,10,1.5,25,M,,M,,*67
06/23/2015	06:04:11.612	$GPGGA,060412,2434.5178,N,08058.1098,W,1,10,1.5,25,M,,M,,*6C
06/23/2015	06:04:12.532	$GPGGA,060413,2434.5186,N,08058.1071,W,1,10,1.5,25,M,,M,,*6B
06/23/2015	06:04:13.542	$GPGGA,060414,2434.5197,N,08058.1045,W,1,10,1.5,25,M,,M,,*6B
06/23/2015	06:04:14.512	$GPGGA,060415,2434.5208,N,08058.1020,W,1,10,1.5,25,M,,M,,*6C
06/23/2015	06:04:15.522	$GPGGA,060416,2434.5218,N,08058.0994,W,1,10,1.5,25,M,,M,,*69
06/23/2015	06:04:16.512	$GPGGA,060417,2434.5229,N,08058.0967,W,1,10,1.7,25,M,,M,,*64
06/23/2015	06:04:17.512	$GPGGA,060418,2434.5239,N,08058.0943,W,1,10,1.5,25,M,,M,,*6E
06/23/2015	06:04:18.502	$GPGGA,060419,2434.5248,N,08058.0915,W,1,10,1.5,24,M,,M,,*6B
06/23/2015	06:04:19.542	$GPGGA,060420,2434.5258,N,08058.0888,W,1,10,1.5,24,M,,M,,*65
06/23/2015	06:04:20.513	$GPGGA,060421,2434.5269,N,08058.0864,W,1,10,1.5,24,M,,M,,*64
06/23/2015	06:04:21.513	$GPGGA,060422,2434.5279,N,08058.0836,W,1,10,1.5,24,M,,M,,*61
06/23/2015	06:04:22.593	$GPGGA,060423,2434.5287,N,08058.0809,W,1,10,1.5,24,M,,M,,*6D
06/23/2015	06:04:23.523	$GPGGA,060424,2434.5298,N,08058.0786,W,1,10,1.5,24,M,,M,,*6C
06/23/2015	06:04:24.503	$GPGGA,060425,2434.5308,N,08058.0759,W,1,10,1.5,24,M,,M,,*67
06/23/2015	06:04:25.493	$GPGGA,060426,2434.5316,N,08058.0735,W,1,10,1.5,24,M,,M,,*61
06/23/2015	06:04:26.633	$GPGGA,060427,2434.5327,N,08058.0711,W,1,10,1.5,24,M,,M,,*64
06/23/2015	06:04:27.522	$GPGGA,060428,2434.5338,N,08058.0684,W,1,10,1.5,24,M,,M,,*68
06/23/2015	06:04:28.502	$GPGGA,060429,2434.5348,N,08058.0660,W,1,10,1.5,24,M,,M,,*64
06/23/2015	06:04:29.482	$GPGGA,060430,2434.5358,N,08058.0635,W,1,10,1.5,24,M,,M,,*6D
06/23/2015	06:04:30.602	$GPGGA,060431,2434.5367,N,08058.0608,W,1,10,1.5,24,M,,M,,*6E
06/23/2015	06:04:31.622	$GPGGA,060432,2434.5378,N,08058.0583,W,1,10,1.5,24,M,,M,,*63
06/23/2015	06:04:32.492	$GPGGA,060433,2434.5388,N,08058.0559,W,1,10,1.5,24,M,,M,,*6A
06/23/2015	06:04:33.622	$GPGGA,060434,2434.5399,N,08058.0532,W,1,10,1.5,24,M,,M,,*60
06/23/2015	06:04:34.482	$GPGGA,060435,2434.5407,N,08058.0507,W,1,10,1.5,24,M,,M,,*67
06/23/2015	06:04:35.622	$GPGGA,060436,2434.5419,N,08058.0482,W,1,10,1.5,24,M,,M,,*67
06/23/2015	06:04:36.582	$GPGGA,060437,2434.5430,N,08058.0456,W,1,10,1.5,24,M,,M,,*64
06/23/2015	06:04:37.572	$GPGGA,060438,2434.5439,N,08058.0430,W,1,10,1.5,24,M,,M,,*62
06/23/2015	06:04:38.573	$GPGGA,060439,2434.5449,N,08058.0404,W,1,10,1.5,24,M,,M,,*63
06/23/2015	06:04:39.583	$GPGGA,060440,2434.5460,N,08058.0378,W,1,10,1.5,23,M,,M,,*6D
06/23/2015	06:04:40.573	$GPGGA,060441,2434.5470,N,08058.0351,W,1,10,1.5,23,M,,M,,*66
06/23/2015	06:04:41.583	$GPGGA,060442,2434.5479,N,08058.0326,W,1,10,1.5,23,M,,M,,*6C
06/23/2015	06:04:42.823	$GPGGA,060443,2434.5490,N,08058.0299,W,1,10,1.5,23,M,,M,,*6F
06/23/2015	06:04:43.583	$GPGGA,060444,2434.5500,N,08058.0273,W,1,10,1.5,23,M,,M,,*64
06/23/2015	06:04:44.574	$GPGGA,060445,2434.5510,N,08058.0248,W,1,10,1.5,23,M,,M,,*6C
06/23/2015	06:04:45.567	$GPGGA,060446,2434.5521,N,08058.0221,W,1,10,1.5,23,M,,M,,*62
06/23/2015	06:04:46.552	$GPGGA,060447,2434.5529,N,08058.0196,W,1,10,1.5,23,M,,M,,*64
06/23/2015	06:04:47.592	$GPGGA,060448,2434.5540,N,08058.0169,W,1,10,1.5,23,M,,M,,*64
06/23/2015	06:04:48.568	$GPGGA,060449,2434.5550,N,08058.0143,W,1,10,1.5,23,M,,M,,*6C
06/23/2015	06:04:49.570	$GPGGA,060450,2434.5561,N,08058.0117,W,1,10,1.5,23,M,,M,,*67
06/23/2015	06:04:50.542	$GPGGA,060451,2434.5571,N,08058.0090,W,1,10,1.5,23,M,,M,,*69
06/23/2015	06:04:51.572	$GPGGA,060452,2434.5580,N,08058.0064,W,1,10,1.5,23,M,,M,,*6F
06/23/2015	06:04:52.542	$GPGGA,060453,2434.5591,N,08058.0038,W,1,10,1.5,23,M,,M,,*67
06/23/2015	06:04:53.553	$GPGGA,060454,2434.5602,N,08058.0011,W,1,10,1.5,23,M,,M,,*62
06/23/2015	06:04:54.542	$GPGGA,060455,2434.5611,N,08057.9984,W,1,10,1.5,23,M,,M,,*62
06/23/2015	06:04:55.543	$GPGGA,060456,2434.5622,N,08057.9958,W,1,10,1.5,23,M,,M,,*60
06/23/2015	06:04:56.534	$GPGGA,060457,2434.5634,N,08057.9932,W,1,10,1.5,23,M,,M,,*6A
06/23/2015	06:04:57.523	$GPGGA,060458,2434.5644,N,08057.9905,W,1,10,1.5,23,M,,M,,*66
06/23/2015	06:04:58.533	$GPGGA,060459,2434.5654,N,08057.9879,W,1,10,1.5,23,M,,M,,*6C
06/23/2015	06:04:59.563	$GPGGA,060500,2434.5665,N,08057.9853,W,1,10,1.5,23,M,,M,,*6B
06/23/2015	06:05:00.513	$GPGGA,060501,2434.5677,N,08057.9826,W,1,10,1.6,23,M,,M,,*68
06/23/2015	06:05:01.552	$GPGGA,060502,2434.5687,N,08057.9800,W,1,10,1.5,23,M,,M,,*63
06/23/2015	06:05:02.512	$GPGGA,060503,2434.5699,N,08057.9772,W,1,10,1.5,23,M,,M,,*67
06/23/2015	06:05:03.555	$GPGGA,060504,2434.5709,N,08057.9746,W,1,10,1.5,23,M,,M,,*6F
06/23/2015	06:05:04.512	$GPGGA,060505,2434.5720,N,08057.9720,W,1,10,1.5,23,M,,M,,*65
06/23/2015	06:05:05.522	$GPGGA,060506,2434.5731,N,08057.9693,W,1,10,1.5,23,M,,M,,*6F
06/23/2015	06:05:06.502	$GPGGA,060507,2434.5742,N,08057.9666,W,1,10,1.6,23,M,,M,,*63
06/23/2015	06:05:07.532	$GPGGA,060508,2434.5755,N,08057.9639,W,1,10,1.5,23,M,,M,,*63
06/23/2015	06:05:08.502	$GPGGA,060509,2434.5766,N,08057.9614,W,1,10,1.5,23,M,,M,,*6D
06/23/2015	06:05:09.522	$GPGGA,060510,2434.5777,N,08057.9588,W,1,10,1.5,23,M,,M,,*63
06/23/2015	06:05:10.512	$GPGGA,060511,2434.5788,N,08057.9564,W,1,10,2.1,23,M,,M,,*67
06/23/2015	06:05:12.622	$GPGGA,060513,2434.5808,N,08057.9512,W,1,8,1.5,23,M,,M,,*5D
06/23/2015	06:05:13.513	$GPGGA,060514,2434.5820,N,08057.9489,W,1,9,1.7,23,M,,M,,*50
06/23/2015	06:05:14.493	$GPGGA,060515,2434.5829,N,08057.9464,W,1,9,1.7,23,M,,M,,*5B
06/23/2015	06:05:15.513	$GPGGA,060516,2434.5840,N,08057.9439,W,1,8,2.1,23,M,,M,,*5B
06/23/2015	06:05:16.493	$GPGGA,060517,2434.5851,N,08057.9411,W,1,8,2.1,22,M,,M,,*51
06/23/2015	06:05:17.593	$GPGGA,060518,2434.5862,N,08057.9385,W,1,9,1.6,22,M,,M,,*51
06/23/2015	06:05:18.493	$GPGGA,060519,2434.5872,N,08057.9360,W,1,9,2.1,22,M,,M,,*5E
06/23/2015	06:05:19.512	$GPGGA,060520,2434.5883,N,08057.9336,W,1,8,2.1,22,M,,M,,*58
06/23/2015	06:05:20.482	$GPGGA,060521,2434.5894,N,08057.9311,W,1,8,2.1,22,M,,M,,*5A
06/23/2015	06:05:21.482	$GPGGA,060522,2434.5905,N,08057.9285,W,1,8,2.1,22,M,,M,,*5C
06/23/2015	06:05:22.572	$GPGGA,060523,2434.5918,N,08057.9260,W,1,8,2.1,22,M,,M,,*5A
06/23/2015	06:05:23.592	$GPGGA,060524,2434.5929,N,08057.9232,W,1,9,1.7,21,M,,M,,*5F
06/23/2015	06:05:24.572	$GPGGA,060525,2434.5938,N,08057.9205,W,1,9,1.7,21,M,,M,,*5A
06/23/2015	06:05:25.572	$GPGGA,060526,2434.5949,N,08057.9179,W,1,10,1.5,21,M,,M,,*6D
06/23/2015	06:05:26.572	$GPGGA,060527,2434.5959,N,08057.9152,W,1,10,1.5,21,M,,M,,*64
06/23/2015	06:05:27.572	$GPGGA,060528,2434.5970,N,08057.9125,W,1,10,1.5,21,M,,M,,*60
06/23/2015	06:05:28.562	$GPGGA,060529,2434.5980,N,08057.9099,W,1,10,1.5,21,M,,M,,*68
06/23/2015	06:05:30.032	$GPGGA,060530,2434.5990,N,08057.9072,W,1,10,1.5,21,M,,M,,*64
06/23/2015	06:05:31.613	$GPGGA,060532,2434.6010,N,08057.9020,W,1,10,1.5,21,M,,M,,*63
06/23/2015	06:05:32.555	$GPGGA,060533,2434.6021,N,08057.8993,W,1,10,1.7,21,M,,M,,*62
06/23/2015	06:05:33.563	$GPGGA,060534,2434.6031,N,08057.8967,W,1,10,1.5,21,M,,M,,*6D
06/23/2015	06:05:34.556	$GPGGA,060535,2434.6042,N,08057.8941,W,1,10,1.5,21,M,,M,,*6C
06/23/2015	06:05:35.556	$GPGGA,060536,2434.6053,N,08057.8914,W,1,10,1.5,21,M,,M,,*6F
06/23/2015	06:05:36.556	$GPGGA,060537,2434.6063,N,08057.8888,W,1,10,1.5,21,M,,M,,*69
06/23/2015	06:05:37.542	$GPGGA,060538,2434.6073,N,08057.8862,W,1,10,1.5,21,M,,M,,*63
06/23/2015	06:05:38.552	$GPGGA,060539,2434.6084,N,08057.8835,W,1,10,1.5,21,M,,M,,*68
06/23/2015	06:05:39.582	$GPGGA,060540,2434.6093,N,08057.8809,W,1,10,1.5,21,M,,M,,*6F
06/23/2015	06:05:40.542	$GPGGA,060541,2434.6103,N,08057.8783,W,1,10,1.5,21,M,,M,,*6B
06/23/2015	06:05:41.532	$GPGGA,060542,2434.6114,N,08057.8755,W,1,9,1.7,21,M,,M,,*5F
06/23/2015	06:05:42.532	$GPGGA,060543,2434.6122,N,08057.8730,W,1,9,1.5,21,M,,M,,*5A
06/23/2015	06:05:43.572	$GPGGA,060544,2434.6133,N,08057.8702,W,1,10,1.5,21,M,,M,,*64
06/23/2015	06:05:44.532	$GPGGA,060545,2434.6143,N,08057.8676,W,1,10,1.5,21,M,,M,,*60
06/23/2015	06:05:45.522	$GPGGA,060546,2434.6151,N,08057.8651,W,1,10,1.5,21,M,,M,,*65
06/23/2015	06:05:46.533	$GPGGA,060547,2434.6164,N,08057.8623,W,1,10,1.5,21,M,,M,,*67
06/23/2015	06:05:47.572	$GPGGA,060548,2434.6172,N,08057.8599,W,1,10,1.5,21,M,,M,,*6D
06/23/2015	06:05:48.533	$GPGGA,060549,2434.6180,N,08057.8572,W,1,10,1.5,21,M,,M,,*64
06/23/2015	06:05:49.523	$GPGGA,060550,2434.6190,N,08057.8545,W,1,10,1.5,21,M,,M,,*69
06/23/2015	06:05:50.533	$GPGGA,060551,2434.6201,N,08057.8520,W,1,10,1.5,21,M,,M,,*60
06/23/2015	06:05:51.563	$GPGGA,060552,2434.6209,N,08057.8494,W,1,10,1.5,21,M,,M,,*65
06/23/2015	06:05:52.513	$GPGGA,060553,2434.6219,N,08057.8467,W,1,10,1.5,21,M,,M,,*69
06/23/2015	06:05:53.633	$GPGGA,060554,2434.6230,N,08057.8441,W,1,10,1.5,21,M,,M,,*61
06/23/2015	06:05:54.502	$GPGGA,060555,2434.6240,N,08057.8414,W,1,10,1.5,21,M,,M,,*67
06/23/2015	06:05:55.522	$GPGGA,060556,2434.6248,N,08057.8388,W,1,10,1.5,21,M,,M,,*6E
06/23/2015	06:05:56.512	$GPGGA,060557,2434.6259,N,08057.8362,W,1,10,1.5,21,M,,M,,*6B
06/23/2015	06:05:57.512	$GPGGA,060558,2434.6270,N,08057.8336,W,1,10,1.5,21,M,,M,,*6E
06/23/2015	06:05:58.502	$GPGGA,060559,2434.6279,N,08057.8310,W,1,10,1.5,21,M,,M,,*62
06/23/2015	06:05:59.664	$GPGGA,060600,2434.6290,N,08057.8283,W,1,10,1.5,21,M,,M,,*61
06/23/2015	06:06:00.512	$GPGGA,060601,2434.6301,N,08057.8257,W,1,10,1.5,21,M,,M,,*60
06/23/2015	06:06:01.612	$GPGGA,060602,2434.6310,N,08057.8231,W,1,9,2.1,21,M,,M,,*5C
06/23/2015	06:06:02.502	$GPGGA,060603,2434.6320,N,08057.8207,W,1,9,2.1,21,M,,M,,*5B
06/23/2015	06:06:03.513	$GPGGA,060604,2434.6331,N,08057.8179,W,1,8,2.1,21,M,,M,,*57
06/23/2015	06:06:04.492	$GPGGA,060605,2434.6342,N,08057.8154,W,1,8,1.5,21,M,,M,,*5A
06/23/2015	06:06:05.603	$GPGGA,060606,2434.6353,N,08057.8128,W,1,8,2.1,21,M,,M,,*55
06/23/2015	06:06:06.493	$GPGGA,060607,2434.6364,N,08057.8103,W,1,8,2.1,21,M,,M,,*59
06/23/2015	06:06:07.513	$GPGGA,060608,2434.6375,N,08057.8077,W,1,9,1.6,21,M,,M,,*51
06/23/2015	06:06:08.493	$GPGGA,060609,2434.6385,N,08057.8049,W,1,9,1.6,21,M,,M,,*52
06/23/2015	06:06:09.603	$GPGGA,060610,2434.6396,N,08057.8022,W,1,9,1.5,21,M,,M,,*56
06/23/2015	06:06:10.573	$GPGGA,060611,2434.6409,N,08057.7995,W,1,9,1.6,21,M,,M,,*5F
06/23/2015	06:06:11.492	$GPGGA,060612,2434.6420,N,08057.7969,W,1,9,1.6,21,M,,M,,*54
06/23/2015	06:06:12.572	$GPGGA,060613,2434.6429,N,08057.7941,W,1,9,1.5,21,M,,M,,*55
06/23/2015	06:06:13.592	$GPGGA,060614,2434.6442,N,08057.7915,W,1,10,1.5,21,M,,M,,*66
06/23/2015	06:06:14.572	$GPGGA,060615,2434.6454,N,08057.7889,W,1,10,1.5,21,M,,M,,*64
06/23/2015	06:06:15.622	$GPGGA,060616,2434.6465,N,08057.7862,W,1,10,1.6,21,M,,M,,*63
06/23/2015	06:06:16.572	$GPGGA,060617,2434.6476,N,08057.7838,W,1,10,1.6,21,M,,M,,*6F
06/23/2015	06:06:17.572	$GPGGA,060618,2434.6487,N,08057.7813,W,1,9,1.6,21,M,,M,,*5F
06/23/2015	06:06:18.564	$GPGGA,060619,2434.6498,N,08057.7787,W,1,9,1.6,21,M,,M,,*52
06/23/2015	06:06:19.892	$GPGGA,060620,2434.6508,N,08057.7764,W,1,9,1.5,21,M,,M,,*5E
06/23/2015	06:06:20.561	$GPGGA,060621,2434.6522,N,08057.7738,W,1,9,1.6,21,M,,M,,*5D
06/23/2015	06:06:21.882	$GPGGA,060622,2434.6533,N,08057.7711,W,1,9,1.6,21,M,,M,,*55
06/23/2015	06:06:22.564	$GPGGA,060623,2434.6543,N,08057.7686,W,1,9,1.6,21,M,,M,,*5C
06/23/2015	06:06:23.574	$GPGGA,060624,2434.6555,N,08057.7660,W,1,9,1.5,22,M,,M,,*54
06/23/2015	06:06:24.554	$GPGGA,060625,2434.6568,N,08057.7634,W,1,9,1.6,22,M,,M,,*59
06/23/2015	06:06:25.533	$GPGGA,060626,2434.6577,N,08057.7609,W,1,9,1.6,22,M,,M,,*5A
06/23/2015	06:06:26.543	$GPGGA,060627,2434.6588,N,08057.7584,W,1,9,1.5,22,M,,M,,*5E
06/23/2015	06:06:27.573	$GPGGA,060628,2434.6599,N,08057.7559,W,1,10,1.5,22,M,,M,,*69
06/23/2015	06:06:28.543	$GPGGA,060629,2434.6609,N,08057.7536,W,1,10,2.1,22,M,,M,,*6C
06/23/2015	06:06:29.522	$GPGGA,060630,2434.6623,N,08057.7507,W,1,8,1.7,22,M,,M,,*52
06/23/2015	06:06:30.542	$GPGGA,060631,2434.6635,N,08057.7483,W,1,8,1.7,22,M,,M,,*59
06/23/2015	06:06:31.575	$GPGGA,060632,2434.6645,N,08057.7457,W,1,9,1.5,22,M,,M,,*57
06/23/2015	06:06:32.522	$GPGGA,060633,2434.6656,N,08057.7432,W,1,9,1.5,22,M,,M,,*57
06/23/2015	06:06:33.561	$GPGGA,060634,2434.6666,N,08057.7404,W,1,10,1.5,22,M,,M,,*6E
06/23/2015	06:06:34.542	$GPGGA,060635,2434.6677,N,08057.7379,W,1,10,1.5,22,M,,M,,*62
06/23/2015	06:06:35.602	$GPGGA,060636,2434.6688,N,08057.7353,W,1,10,1.5,22,M,,M,,*69
06/23/2015	06:06:36.522	$GPGGA,060637,2434.6696,N,08057.7325,W,1,10,1.5,22,M,,M,,*66
06/23/2015	06:06:37.532	$GPGGA,060638,2434.6707,N,08057.7301,W,1,10,1.5,22,M,,M,,*66
06/23/2015	06:06:38.522	$GPGGA,060639,2434.6718,N,08057.7276,W,1,10,1.7,22,M,,M,,*6A
06/23/2015	06:06:39.602	$GPGGA,060640,2434.6728,N,08057.7250,W,1,9,1.5,22,M,,M,,*59
06/23/2015	06:06:40.533	$GPGGA,060641,2434.6738,N,08057.7225,W,1,9,1.5,22,M,,M,,*5B
06/23/2015	06:06:41.533	$GPGGA,060642,2434.6738,N,08057.7225,W,1,10,1.5,22,M,,M,,*60
06/23/2015	06:06:42.513	$GPGGA,060643,2434.6758,N,08057.7175,W,1,10,1.5,22,M,,M,,*61
06/23/2015	06:06:43.560	$GPGGA,060644,2434.6768,N,08057.7148,W,1,10,1.5,22,M,,M,,*6B
06/23/2015	06:06:44.533	$GPGGA,060645,2434.6778,N,08057.7124,W,1,10,1.5,22,M,,M,,*61
06/23/2015	06:06:45.523	$GPGGA,060646,2434.6786,N,08057.7098,W,1,10,1.5,22,M,,M,,*65
06/23/2015	06:06:46.512	$GPGGA,060647,2434.6797,N,08057.7072,W,1,10,1.5,22,M,,M,,*60
06/23/2015	06:06:47.532	$GPGGA,060648,2434.6807,N,08057.7049,W,1,10,1.5,22,M,,M,,*61
06/23/2015	06:06:48.512	$GPGGA,060649,2434.6807,N,08057.7049,W,1,10,1.5,22,M,,M,,*60
06/23/2015	06:06:49.612	$GPGGA,060650,2434.6823,N,08057.6997,W,1,10,1.5,22,M,,M,,*65
06/23/2015	06:06:50.522	$GPGGA,060651,2434.6833,N,08057.6973,W,1,10,1.5,22,M,,M,,*6F
06/23/2015	06:06:51.602	$GPGGA,060652,2434.6844,N,08057.6946,W,1,10,1.5,22,M,,M,,*6A
06/23/2015	06:06:52.502	$GPGGA,060653,2434.6851,N,08057.6920,W,1,10,1.5,22,M,,M,,*6F
06/23/2015	06:06:53.512	$GPGGA,060654,2434.6862,N,08057.6896,W,1,10,1.5,22,M,,M,,*64
06/23/2015	06:06:54.592	$GPGGA,060655,2434.6872,N,08057.6870,W,1,10,1.5,22,M,,M,,*6C
06/23/2015	06:06:55.592	$GPGGA,060656,2434.6880,N,08057.6844,W,1,10,1.5,22,M,,M,,*65
06/23/2015	06:06:56.582	$GPGGA,060657,2434.6890,N,08057.6819,W,1,10,1.5,22,M,,M,,*6D
06/23/2015	06:06:57.572	$GPGGA,060658,2434.6899,N,08057.6793,W,1,10,1.7,22,M,,M,,*64
06/23/2015	06:06:58.573	$GPGGA,060659,2434.6909,N,08057.6768,W,1,10,1.7,22,M,,M,,*69
06/23/2015	06:06:59.613	$GPGGA,060700,2434.6920,N,08057.6743,W,1,10,1.5,22,M,,M,,*64
06/23/2015	06:07:00.573	$GPGGA,060701,2434.6930,N,08057.6716,W,1,10,1.5,22,M,,M,,*64
06/23/2015	06:07:01.573	$GPGGA,060702,2434.6938,N,08057.6689,W,1,10,1.5,22,M,,M,,*68
06/23/2015	06:07:02.571	$GPGGA,060703,2434.6949,N,08057.6663,W,1,10,1.5,22,M,,M,,*6B
06/23/2015	06:07:03.603	$GPGGA,060704,2434.6959,N,08057.6636,W,1,10,1.5,22,M,,M,,*6D
06/23/2015	06:07:04.572	$GPGGA,060705,2434.6970,N,08057.6611,W,1,10,1.5,22,M,,M,,*62
06/23/2015	06:07:05.572	$GPGGA,060706,2434.6980,N,08057.6586,W,1,9,1.7,22,M,,M,,*59
06/23/2015	06:07:06.567	$GPGGA,060707,2434.6991,N,08057.6559,W,1,9,1.5,22,M,,M,,*58
06/23/2015	06:07:07.582	$GPGGA,060708,2434.7000,N,08057.6534,W,1,9,1.7,22,M,,M,,*5E
06/23/2015	06:07:08.552	$GPGGA,060709,2434.7013,N,08057.6508,W,1,9,1.6,22,M,,M,,*53
06/23/2015	06:07:09.569	$GPGGA,060710,2434.7025,N,08057.6478,W,1,9,1.6,22,M,,M,,*58
06/23/2015	06:07:10.553	$GPGGA,060711,2434.7035,N,08057.6452,W,1,9,1.5,22,M,,M,,*53
06/23/2015	06:07:11.582	$GPGGA,060712,2434.7047,N,08057.6428,W,1,9,1.7,22,M,,M,,*5A
06/23/2015	06:07:12.556	$GPGGA,060713,2434.7057,N,08057.6402,W,1,9,1.5,22,M,,M,,*50
06/23/2015	06:07:13.532	$GPGGA,060714,2434.7068,N,08057.6377,W,1,9,1.6,22,M,,M,,*5D
06/23/2015	06:07:14.542	$GPGGA,060715,2434.7079,N,08057.6352,W,1,9,1.6,22,M,,M,,*5B
06/23/2015	06:07:15.573	$GPGGA,060716,2434.7090,N,08057.6324,W,1,10,1.5,22,M,,M,,*65
06/23/2015	06:07:16.555	$GPGGA,060717,2434.7101,N,08057.6298,W,1,10,1.8,22,M,,M,,*66
06/23/2015	06:07:17.533	$GPGGA,060718,2434.7112,N,08057.6275,W,1,9,1.8,22,M,,M,,*50
06/23/2015	06:07:18.533	$GPGGA,060719,2434.7122,N,08057.6248,W,1,9,1.5,22,M,,M,,*51
06/23/2015	06:07:19.573	$GPGGA,060720,2434.7133,N,08057.6223,W,1,9,1.8,22,M,,M,,*5B
06/23/2015	06:07:20.533	$GPGGA,060721,2434.7146,N,08057.6199,W,1,9,1.6,22,M,,M,,*54
06/23/2015	06:07:21.563	$GPGGA,060722,2434.7157,N,08057.6173,W,1,10,1.5,22,M,,M,,*68
06/23/2015	06:07:22.522	$GPGGA,060723,2434.7166,N,08057.6148,W,1,10,1.6,22,M,,M,,*60
06/23/2015	06:07:23.565	$GPGGA,060724,2434.7177,N,08057.6123,W,1,9,1.6,22,M,,M,,*52
06/23/2015	06:07:24.532	$GPGGA,060725,2434.7190,N,08057.6097,W,1,9,1.5,22,M,,M,,*57
06/23/2015	06:07:25.552	$GPGGA,060726,2434.7201,N,08057.6072,W,1,10,1.5,22,M,,M,,*6C
06/23/2015	06:07:26.512	$GPGGA,060727,2434.7212,N,08057.6046,W,1,10,2.1,22,M,,M,,*6F
06/23/2015	06:07:27.542	$GPGGA,060728,2434.7223,N,08057.6020,W,1,10,1.5,22,M,,M,,*65
06/23/2015	06:07:28.542	$GPGGA,060729,2434.7234,N,08057.5994,W,1,10,1.5,22,M,,M,,*67
06/23/2015	06:07:29.512	$GPGGA,060730,2434.7244,N,08057.5968,W,1,10,1.5,22,M,,M,,*6B
06/23/2015	06:07:30.962	$GPGGA,060731,2434.7255,N,08057.5943,W,1,10,1.5,22,M,,M,,*63
06/23/2015	06:07:31.542	$GPGGA,060732,2434.7266,N,08057.5917,W,1,9,1.6,23,M,,M,,*5B
06/23/2015	06:07:32.502	$GPGGA,060733,2434.7277,N,08057.5891,W,1,9,1.5,23,M,,M,,*56
06/23/2015	06:07:33.513	$GPGGA,060734,2434.7285,N,08057.5867,W,1,9,1.7,23,M,,M,,*57
06/23/2015	06:07:34.593	$GPGGA,060735,2434.7298,N,08057.5840,W,1,9,2.1,23,M,,M,,*5A
06/23/2015	06:07:35.633	$GPGGA,060736,2434.7310,N,08057.5812,W,1,10,1.5,23,M,,M,,*60
06/23/2015	06:07:36.513	$GPGGA,060737,2434.7318,N,08057.5786,W,1,10,1.5,23,M,,M,,*6B
06/23/2015	06:07:37.623	$GPGGA,060738,2434.7329,N,08057.5758,W,1,10,1.5,23,M,,M,,*65
06/23/2015	06:07:38.513	$GPGGA,060739,2434.7341,N,08057.5732,W,1,10,1.5,23,M,,M,,*66
06/23/2015	06:07:39.502	$GPGGA,060740,2434.7350,N,08057.5706,W,1,10,1.5,23,M,,M,,*6F
06/23/2015	06:07:40.582	$GPGGA,060741,2434.7361,N,08057.5678,W,1,10,1.5,23,M,,M,,*64
06/23/2015	06:07:41.612	$GPGGA,060742,2434.7371,N,08057.5652,W,1,10,1.5,23,M,,M,,*6E
06/23/2015	06:07:42.582	$GPGGA,060743,2434.7381,N,08057.5625,W,1,10,1.5,23,M,,M,,*60
06/23/2015	06:07:43.612	$GPGGA,060744,2434.7390,N,08057.5599,W,1,10,1.5,23,M,,M,,*63
06/23/2015	06:07:44.572	$GPGGA,060745,2434.7401,N,08057.5573,W,1,10,1.7,23,M,,M,,*6B
06/23/2015	06:07:45.612	$GPGGA,060746,2434.7411,N,08057.5547,W,1,10,1.5,23,M,,M,,*6C
06/23/2015	06:07:46.572	$GPGGA,060747,2434.7422,N,08057.5520,W,1,10,1.5,24,M,,M,,*6B
06/23/2015	06:07:47.612	$GPGGA,060748,2434.7433,N,08057.5494,W,1,10,1.5,24,M,,M,,*6A
06/23/2015	06:07:48.572	$GPGGA,060749,2434.7441,N,08057.5468,W,1,10,1.5,24,M,,M,,*6D
06/23/2015	06:07:49.562	$GPGGA,060750,2434.7451,N,08057.5441,W,1,10,1.5,24,M,,M,,*6F
06/23/2015	06:07:50.573	$GPGGA,060751,2434.7462,N,08057.5415,W,1,10,1.5,24,M,,M,,*6F
06/23/2015	06:07:51.593	$GPGGA,060752,2434.7472,N,08057.5389,W,1,10,1.5,24,M,,M,,*6F
06/23/2015	06:07:52.564	$GPGGA,060753,2434.7482,N,08057.5362,W,1,10,1.5,24,M,,M,,*64
06/23/2015	06:07:53.573	$GPGGA,060754,2434.7493,N,08057.5336,W,1,10,1.5,24,M,,M,,*62
06/23/2015	06:07:54.563	$GPGGA,060755,2434.7502,N,08057.5310,W,1,10,1.5,24,M,,M,,*6E
06/23/2015	06:07:55.603	$GPGGA,060756,2434.7512,N,08057.5282,W,1,10,1.5,24,M,,M,,*66
06/23/2015	06:07:56.558	$GPGGA,060757,2434.7523,N,08057.5257,W,1,10,1.5,24,M,,M,,*6D
06/23/2015	06:07:57.572	$GPGGA,060758,2434.7534,N,08057.5231,W,1,10,1.5,24,M,,M,,*64
06/23/2015	06:07:58.554	$GPGGA,060759,2434.7542,N,08057.5203,W,1,10,1.5,24,M,,M,,*65
06/23/2015	06:07:59.572	$GPGGA,060800,2434.7553,N,08057.5178,W,1,10,1.5,24,M,,M,,*69
06/23/2015	06:08:00.555	$GPGGA,060801,2434.7565,N,08057.5152,W,1,10,1.5,24,M,,M,,*65
06/23/2015	06:08:01.532	$GPGGA,060802,2434.7574,N,08057.5125,W,1,10,1.5,24,M,,M,,*66
06/23/2015	06:08:02.556	$GPGGA,060803,2434.7585,N,08057.5101,W,1,10,1.7,24,M,,M,,*6D
06/23/2015	06:08:03.572	$GPGGA,060804,2434.7596,N,08057.5075,W,1,9,1.7,24,M,,M,,*52
06/23/2015	06:08:04.542	$GPGGA,060805,2434.7606,N,08057.5049,W,1,9,1.6,24,M,,M,,*57
06/23/2015	06:08:05.572	$GPGGA,060806,2434.7616,N,08057.5020,W,1,9,1.6,24,M,,M,,*5A
06/23/2015	06:08:06.522	$GPGGA,060807,2434.7628,N,08057.4994,W,1,9,1.5,24,M,,M,,*52
06/23/2015	06:08:07.542	$GPGGA,060808,2434.7639,N,08057.4969,W,1,10,1.5,24,M,,M,,*67
06/23/2015	06:08:08.543	$GPGGA,060809,2434.7650,N,08057.4942,W,1,10,1.5,23,M,,M,,*67
06/23/2015	06:08:09.559	$GPGGA,060810,2434.7659,N,08057.4915,W,1,10,1.5,23,M,,M,,*64
06/23/2015	06:08:11.595	$GPGGA,060812,2434.7682,N,08057.4863,W,1,10,1.5,23,M,,M,,*60
06/23/2015	06:08:12.523	$GPGGA,060813,2434.7690,N,08057.4837,W,1,10,1.6,23,M,,M,,*60
06/23/2015	06:08:13.543	$GPGGA,060814,2434.7703,N,08057.4812,W,1,10,1.5,23,M,,M,,*68
06/23/2015	06:08:14.512	$GPGGA,060815,2434.7714,N,08057.4785,W,1,10,1.5,23,M,,M,,*6E
06/23/2015	06:08:15.554	$GPGGA,060816,2434.7725,N,08057.4759,W,1,9,1.6,23,M,,M,,*55
06/23/2015	06:08:16.512	$GPGGA,060817,2434.7737,N,08057.4733,W,1,9,1.5,23,M,,M,,*58
06/23/2015	06:08:17.633	$GPGGA,060818,2434.7747,N,08057.4705,W,1,10,1.5,23,M,,M,,*6D
06/23/2015	06:08:18.512	$GPGGA,060819,2434.7758,N,08057.4681,W,1,10,1.8,23,M,,M,,*62
06/23/2015	06:08:20.632	$GPGGA,060821,2434.7782,N,08057.4630,W,1,10,1.5,23,M,,M,,*69
06/23/2015	06:08:21.502	$GPGGA,060822,2434.7791,N,08057.4603,W,1,10,1.5,23,M,,M,,*68
06/23/2015	06:08:22.512	$GPGGA,060823,2434.7802,N,08057.4580,W,1,10,1.5,24,M,,M,,*63
06/23/2015	06:08:23.522	$GPGGA,060824,2434.7815,N,08057.4554,W,1,9,1.6,24,M,,M,,*50
06/23/2015	06:08:24.502	$GPGGA,060825,2434.7823,N,08057.4528,W,1,9,1.6,24,M,,M,,*5F
06/23/2015	06:08:25.623	$GPGGA,060826,2434.7834,N,08057.4502,W,1,9,1.6,24,M,,M,,*52
06/23/2015	06:08:26.583	$GPGGA,060827,2434.7847,N,08057.4477,W,1,9,1.5,24,M,,M,,*57
06/23/2015	06:08:27.503	$GPGGA,060828,2434.7858,N,08057.4452,W,1,10,1.5,24,M,,M,,*69
06/23/2015	06:08:28.483	$GPGGA,060829,2434.7867,N,08057.4425,W,1,10,1.6,24,M,,M,,*67
06/23/2015	06:08:29.583	$GPGGA,060830,2434.7878,N,08057.4402,W,1,9,1.6,24,M,,M,,*5C
06/23/2015	06:08:31.532	$GPGGA,060832,2434.7901,N,08057.4348,W,1,10,1.5,24,M,,M,,*63
06/23/2015	06:08:32.582	$GPGGA,060833,2434.7910,N,08057.4325,W,1,10,1.7,24,M,,M,,*6B
06/23/2015	06:08:33.592	$GPGGA,060834,2434.7921,N,08057.4299,W,1,9,1.7,24,M,,M,,*50
06/23/2015	06:08:34.575	$GPGGA,060835,2434.7932,N,08057.4273,W,1,9,1.5,24,M,,M,,*55
06/23/2015	06:08:35.592	$GPGGA,060836,2434.7942,N,08057.4247,W,1,10,1.5,24,M,,M,,*6E
06/23/2015	06:08:36.572	$GPGGA,060837,2434.7952,N,08057.4220,W,1,10,1.5,24,M,,M,,*6F
06/23/2015	06:08:37.582	$GPGGA,060838,2434.7961,N,08057.4194,W,1,10,1.5,24,M,,M,,*6C
06/23/2015	06:08:38.564	$GPGGA,060839,2434.7972,N,08057.4168,W,1,10,1.5,24,M,,M,,*6C
06/23/2015	06:08:39.592	$GPGGA,060840,2434.7982,N,08057.4141,W,1,10,1.5,24,M,,M,,*66
06/23/2015	06:08:41.022	$GPGGA,060841,2434.7992,N,08057.4114,W,1,10,1.5,24,M,,M,,*66
06/23/2015	06:08:41.582	$GPGGA,060842,2434.8001,N,08057.4087,W,1,10,1.5,24,M,,M,,*62
06/23/2015	06:08:42.557	$GPGGA,060843,2434.8011,N,08057.4060,W,1,10,1.5,24,M,,M,,*6B
06/23/2015	06:08:43.593	$GPGGA,060844,2434.8022,N,08057.4032,W,1,10,1.5,24,M,,M,,*6B
06/23/2015	06:08:44.557	$GPGGA,060845,2434.8031,N,08057.4006,W,1,10,1.5,24,M,,M,,*6F
06/23/2015	06:08:45.833	$GPGGA,060846,2434.8040,N,08057.3979,W,1,10,1.5,24,M,,M,,*6C
06/23/2015	06:08:46.558	$GPGGA,060847,2434.8051,N,08057.3952,W,1,10,1.5,24,M,,M,,*64
06/23/2015	06:08:47.583	$GPGGA,060848,2434.8061,N,08057.3925,W,1,10,1.5,24,M,,M,,*68
06/23/2015	06:08:48.543	$GPGGA,060849,2434.8071,N,08057.3898,W,1,10,1.5,24,M,,M,,*6F
06/23/2015	06:08:49.552	$GPGGA,060850,2434.8082,N,08057.3871,W,1,10,1.5,24,M,,M,,*6C
06/23/2015	06:08:50.556	$GPGGA,060851,2434.8091,N,08057.3844,W,1,10,1.5,24,M,,M,,*69
06/23/2015	06:08:51.552	$GPGGA,060852,2434.8101,N,08057.3818,W,1,10,1.5,24,M,,M,,*6B
06/23/2015	06:08:52.564	$GPGGA,060853,2434.8112,N,08057.3791,W,1,10,1.5,24,M,,M,,*66
06/23/2015	06:08:53.564	$GPGGA,060854,2434.8123,N,08057.3764,W,1,10,1.5,24,M,,M,,*69
06/23/2015	06:08:54.553	$GPGGA,060855,2434.8133,N,08057.3737,W,1,10,1.5,24,M,,M,,*6F
06/23/2015	06:08:55.562	$GPGGA,060856,2434.8143,N,08057.3710,W,1,10,1.5,24,M,,M,,*6E
06/23/2015	06:08:56.542	$GPGGA,060857,2434.8154,N,08057.3685,W,1,10,1.7,24,M,,M,,*66
06/23/2015	06:08:57.592	$GPGGA,060858,2434.8165,N,08057.3658,W,1,10,1.5,24,M,,M,,*69
06/23/2015	06:08:58.532	$GPGGA,060859,2434.8174,N,08057.3630,W,1,10,1.5,24,M,,M,,*66
06/23/2015	06:08:59.564	$GPGGA,060900,2434.8185,N,08057.3605,W,1,10,1.5,24,M,,M,,*63
06/23/2015	06:09:00.543	$GPGGA,060901,2434.8196,N,08057.3578,W,1,10,1.5,24,M,,M,,*69
06/23/2015	06:09:01.533	$GPGGA,060902,2434.8206,N,08057.3551,W,1,10,1.5,24,M,,M,,*6B
06/23/2015	06:09:02.513	$GPGGA,060903,2434.8217,N,08057.3526,W,1,10,1.5,24,M,,M,,*6A
06/23/2015	06:09:03.554	$GPGGA,060904,2434.8228,N,08057.3499,W,1,9,1.6,24,M,,M,,*5F
06/23/2015	06:09:04.513	$GPGGA,060905,2434.8239,N,08057.3472,W,1,9,1.8,24,M,,M,,*55
06/23/2015	06:09:05.703	$GPGGA,060906,2434.8252,N,08057.3445,W,1,10,1.5,24,M,,M,,*6A
06/23/2015	06:09:06.522	$GPGGA,060907,2434.8264,N,08057.3417,W,1,10,1.5,24,M,,M,,*69
06/23/2015	06:09:07.632	$GPGGA,060908,2434.8275,N,08057.3391,W,1,10,1.5,24,M,,M,,*6F
06/23/2015	06:09:08.502	$GPGGA,060909,2434.8286,N,08057.3364,W,1,10,1.7,24,M,,M,,*6A
06/23/2015	06:09:09.502	$GPGGA,060910,2434.8297,N,08057.3337,W,1,10,1.5,24,M,,M,,*66
06/23/2015	06:09:10.512	$GPGGA,060911,2434.8307,N,08057.3309,W,1,10,1.5,24,M,,M,,*62
06/23/2015	06:09:11.492	$GPGGA,060912,2434.8318,N,08057.3284,W,1,10,1.5,24,M,,M,,*6B
06/23/2015	06:09:12.502	$GPGGA,060913,2434.8329,N,08057.3258,W,1,10,1.5,24,M,,M,,*69
06/23/2015	06:09:13.582	$GPGGA,060914,2434.8340,N,08057.3231,W,1,10,1.5,24,M,,M,,*6E
06/23/2015	06:09:14.622	$GPGGA,060915,2434.8351,N,08057.3206,W,1,10,1.5,24,M,,M,,*6B
06/23/2015	06:09:15.682	$GPGGA,060916,2434.8362,N,08057.3181,W,1,10,1.5,24,M,,M,,*64
06/23/2015	06:09:16.612	$GPGGA,060917,2434.8372,N,08057.3155,W,1,10,1.5,24,M,,M,,*6D
06/23/2015	06:09:17.482	$GPGGA,060918,2434.8385,N,08057.3129,W,1,10,1.5,24,M,,M,,*61
06/23/2015	06:09:18.622	$GPGGA,060919,2434.8394,N,08057.3104,W,1,10,1.5,24,M,,M,,*6F
06/23/2015	06:09:19.572	$GPGGA,060920,2434.8405,N,08057.3078,W,1,10,1.5,24,M,,M,,*60
06/23/2015	06:09:20.562	$GPGGA,060921,2434.8418,N,08057.3053,W,1,10,1.5,24,M,,M,,*64
06/23/2015	06:09:21.562	$GPGGA,060922,2434.8429,N,08057.3028,W,1,10,1.5,24,M,,M,,*69
06/23/2015	06:09:22.562	$GPGGA,060923,2434.8440,N,08057.3002,W,1,10,1.5,24,M,,M,,*6F
06/23/2015	06:09:23.662	$GPGGA,060924,2434.8451,N,08057.2976,W,1,10,1.5,24,M,,M,,*63
06/23/2015	06:09:24.581	$GPGGA,060925,2434.8463,N,08057.2952,W,1,10,1.5,24,M,,M,,*65
06/23/2015	06:09:25.661	$GPGGA,060926,2434.8474,N,08057.2926,W,1,10,1.5,24,M,,M,,*63
06/23/2015	06:09:26.561	$GPGGA,060927,2434.8483,N,08057.2899,W,1,10,1.5,24,M,,M,,*6F
06/23/2015	06:09:27.701	$GPGGA,060928,2434.8495,N,08057.2875,W,1,10,1.5,24,M,,M,,*65
06/23/2015	06:09:28.582	$GPGGA,060929,2434.8506,N,08057.2848,W,1,10,1.5,24,M,,M,,*61
06/23/2015	06:09:29.612	$GPGGA,060930,2434.8517,N,08057.2823,W,1,10,1.5,24,M,,M,,*64
06/23/2015	06:09:30.572	$GPGGA,060931,2434.8527,N,08057.2797,W,1,10,1.5,24,M,,M,,*66
06/23/2015	06:09:31.682	$GPGGA,060932,2434.8539,N,08057.2771,W,1,9,1.7,24,M,,M,,*58
06/23/2015	06:09:32.562	$GPGGA,060933,2434.8549,N,08057.2746,W,1,9,1.5,24,M,,M,,*58
06/23/2015	06:09:33.632	$GPGGA,060934,2434.8557,N,08057.2719,W,1,10,1.5,24,M,,M,,*62
06/23/2015	06:09:34.532	$GPGGA,060935,2434.8568,N,08057.2692,W,1,10,1.5,24,M,,M,,*6D
06/23/2015	06:09:35.672	$GPGGA,060936,2434.8578,N,08057.2666,W,1,10,1.5,24,M,,M,,*64
06/23/2015	06:09:36.572	$GPGGA,060937,2434.8588,N,08057.2639,W,1,10,1.5,24,M,,M,,*60
06/23/2015	06:09:37.532	$GPGGA,060938,2434.8599,N,08057.2613,W,1,10,1.5,24,M,,M,,*67
06/23/2015	06:09:38.522	$GPGGA,060939,2434.8609,N,08057.2586,W,1,10,1.5,24,M,,M,,*63
06/23/2015	06:09:39.649	$GPGGA,060940,2434.8617,N,08057.2559,W,1,10,1.5,24,M,,M,,*60
06/23/2015	06:09:40.522	$GPGGA,060941,2434.8626,N,08057.2533,W,1,10,1.5,24,M,,M,,*6F
06/23/2015	06:09:41.621	$GPGGA,060942,2434.8638,N,08057.2505,W,1,10,1.5,24,M,,M,,*66
06/23/2015	06:09:42.551	$GPGGA,060943,2434.8646,N,08057.2480,W,1,10,1.5,24,M,,M,,*62
06/23/2015	06:09:43.641	$GPGGA,060944,2434.8656,N,08057.2453,W,1,10,1.5,24,M,,M,,*6A
06/23/2015	06:09:44.511	$GPGGA,060945,2434.8667,N,08057.2426,W,1,10,1.5,24,M,,M,,*6B
06/23/2015	06:09:45.592	$GPGGA,060946,2434.8676,N,08057.2401,W,1,10,1.6,24,M,,M,,*6E
06/23/2015	06:09:46.544	$GPGGA,060947,2434.8687,N,08057.2373,W,1,10,1.6,24,M,,M,,*63
06/23/2015	06:09:47.643	$GPGGA,060948,2434.8698,N,08057.2349,W,1,10,1.5,24,M,,M,,*68
06/23/2015	06:09:48.552	$GPGGA,060949,2434.8707,N,08057.2324,W,1,10,1.5,24,M,,M,,*65
06/23/2015	06:09:49.612	$GPGGA,060950,2434.8718,N,08057.2298,W,1,10,1.7,24,M,,M,,*67
06/23/2015	06:09:50.502	$GPGGA,060951,2434.8727,N,08057.2272,W,1,10,1.7,24,M,,M,,*6E
06/23/2015	06:09:51.592	$GPGGA,060952,2434.8738,N,08057.2248,W,1,9,1.5,24,M,,M,,*50
06/23/2015	06:09:52.544	$GPGGA,060953,2434.8748,N,08057.2222,W,1,9,1.6,24,M,,M,,*59
06/23/2015	06:09:53.612	$GPGGA,060954,2434.8758,N,08057.2198,W,1,9,1.6,24,M,,M,,*5D
06/23/2015	06:09:54.492	$GPGGA,060955,2434.8770,N,08057.2173,W,1,9,1.6,24,M,,M,,*53
06/23/2015	06:09:55.602	$GPGGA,060956,2434.8780,N,08057.2146,W,1,10,1.6,24,M,,M,,*61
06/23/2015	06:09:56.492	$GPGGA,060957,2434.8791,N,08057.2119,W,1,10,1.6,24,M,,M,,*6A
06/23/2015	06:09:57.602	$GPGGA,060958,2434.8802,N,08057.2093,W,1,10,1.5,24,M,,M,,*60
06/23/2015	06:09:58.532	$GPGGA,060959,2434.8813,N,08057.2067,W,1,10,1.6,24,M,,M,,*69
06/23/2015	06:09:59.611	$GPGGA,061000,2434.8823,N,08057.2041,W,1,9,1.5,24,M,,M,,*51
06/23/2015	06:10:00.531	$GPGGA,061001,2434.8835,N,08057.2014,W,1,9,1.5,24,M,,M,,*57
06/23/2015	06:10:01.581	$GPGGA,061002,2434.8846,N,08057.1988,W,1,10,1.5,23,M,,M,,*60
06/23/2015	06:10:02.571	$GPGGA,061003,2434.8857,N,08057.1961,W,1,10,1.5,23,M,,M,,*66
06/23/2015	06:10:03.643	$GPGGA,061004,2434.8868,N,08057.1934,W,1,10,1.5,23,M,,M,,*6D
06/23/2015	06:10:04.572	$GPGGA,061005,2434.8880,N,08057.1907,W,1,10,1.8,23,M,,M,,*67
06/23/2015	06:10:05.592	$GPGGA,061006,2434.8889,N,08057.1881,W,1,9,1.8,23,M,,M,,*5A
06/23/2015	06:10:06.502	$GPGGA,061007,2434.8900,N,08057.1854,W,1,9,1.8,23,M,,M,,*53
06/23/2015	06:10:07.622	$GPGGA,061008,2434.8911,N,08057.1828,W,1,9,2.0,23,M,,M,,*5C
06/23/2015	06:10:08.522	$GPGGA,061009,2434.8922,N,08057.1802,W,1,9,1.8,23,M,,M,,*5E
06/23/2015	06:10:09.592	$GPGGA,061010,2434.8933,N,08057.1775,W,1,9,1.8,23,M,,M,,*59
06/23/2015	06:10:10.562	$GPGGA,061011,2434.8946,N,08057.1749,W,1,9,1.8,23,M,,M,,*55
06/23/2015	06:10:11.612	$GPGGA,061012,2434.8957,N,08057.1722,W,1,9,1.8,23,M,,M,,*5B
06/23/2015	06:10:12.552	$GPGGA,061013,2434.8968,N,08057.1695,W,1,9,1.5,23,M,,M,,*56
06/23/2015	06:10:13.622	$GPGGA,061014,2434.8979,N,08057.1669,W,1,10,1.8,23,M,,M,,*67
06/23/2015	06:10:14.544	$GPGGA,061015,2434.8990,N,08057.1646,W,1,10,1.8,23,M,,M,,*6C
06/23/2015	06:10:15.602	$GPGGA,061016,2434.9001,N,08057.1618,W,1,10,1.8,23,M,,M,,*64
06/23/2015	06:10:16.551	$GPGGA,061017,2434.9012,N,08057.1593,W,1,10,1.5,23,M,,M,,*6A
06/23/2015	06:10:17.591	$GPGGA,061018,2434.9026,N,08057.1565,W,1,10,1.5,23,M,,M,,*6B
06/23/2015	06:10:18.553	$GPGGA,061019,2434.9036,N,08057.1539,W,1,10,1.5,23,M,,M,,*62
06/23/2015	06:10:19.601	$GPGGA,061020,2434.9047,N,08057.1514,W,1,10,1.5,23,M,,M,,*61
06/23/2015	06:10:20.545	$GPGGA,061021,2434.9059,N,08057.1488,W,1,10,1.5,23,M,,M,,*6B
06/23/2015	06:10:21.572	$GPGGA,061022,2434.9070,N,08057.1462,W,1,10,1.5,23,M,,M,,*67
06/23/2015	06:10:22.532	$GPGGA,061023,2434.9080,N,08057.1435,W,1,10,1.5,23,M,,M,,*6B
06/23/2015	06:10:23.582	$GPGGA,061024,2434.9090,N,08057.1411,W,1,10,1.5,23,M,,M,,*6B
06/23/2015	06:10:24.549	$GPGGA,061025,2434.9102,N,08057.1384,W,1,10,1.7,23,M,,M,,*69
06/23/2015	06:10:25.582	$GPGGA,061026,2434.9109,N,08057.1361,W,1,9,2.1,23,M,,M,,*57
06/23/2015	06:10:26.532	$GPGGA,061027,2434.9120,N,08057.1338,W,1,9,2.1,23,M,,M,,*51
06/23/2015	06:10:27.582	$GPGGA,061028,2434.9131,N,08057.1313,W,1,10,1.5,23,M,,M,,*68
06/23/2015	06:10:28.533	$GPGGA,061029,2434.9141,N,08057.1289,W,1,10,1.5,23,M,,M,,*6C
06/23/2015	06:10:29.572	$GPGGA,061030,2434.9151,N,08057.1263,W,1,10,1.5,23,M,,M,,*61
06/23/2015	06:10:30.632	$GPGGA,061031,2434.9160,N,08057.1238,W,1,10,1.5,23,M,,M,,*6C
06/23/2015	06:10:31.602	$GPGGA,061032,2434.9171,N,08057.1213,W,1,10,1.5,22,M,,M,,*67
06/23/2015	06:10:32.532	$GPGGA,061033,2434.9180,N,08057.1186,W,1,10,1.5,22,M,,M,,*67
06/23/2015	06:10:33.532	$GPGGA,061034,2434.9180,N,08057.1186,W,1,10,1.5,22,M,,M,,*60
06/23/2015	06:10:34.521	$GPGGA,061035,2434.9199,N,08057.1134,W,1,10,1.5,22,M,,M,,*60
06/23/2015	06:10:35.546	$GPGGA,061036,2434.9199,N,08057.1134,W,1,10,1.5,22,M,,M,,*63
06/23/2015	06:10:36.631	$GPGGA,061037,2434.9218,N,08057.1082,W,1,10,1.5,22,M,,M,,*64
06/23/2015	06:10:37.531	$GPGGA,061038,2434.9228,N,08057.1055,W,1,10,1.5,22,M,,M,,*62
06/23/2015	06:10:38.602	$GPGGA,061039,2434.9239,N,08057.1030,W,1,10,1.5,22,M,,M,,*60
06/23/2015	06:10:39.532	$GPGGA,061040,2434.9239,N,08057.1030,W,1,10,1.5,22,M,,M,,*6E
06/23/2015	06:10:40.492	$GPGGA,061041,2434.9258,N,08057.0977,W,1,10,1.5,22,M,,M,,*63
06/23/2015	06:10:41.512	$GPGGA,061042,2434.9258,N,08057.0977,W,1,9,1.6,22,M,,M,,*5B
06/23/2015	06:10:42.512	$GPGGA,061043,2434.9279,N,08057.0924,W,1,9,1.5,22,M,,M,,*5C
06/23/2015	06:10:44.002	$GPGGA,061044,2434.9279,N,08057.0924,W,1,10,1.5,22,M,,M,,*63
06/23/2015	06:10:44.592	$GPGGA,061045,2434.9301,N,08057.0869,W,1,10,1.5,22,M,,M,,*64
06/23/2015	06:10:45.512	$GPGGA,061046,2434.9301,N,08057.0869,W,1,10,1.5,22,M,,M,,*67
06/23/2015	06:10:46.502	$GPGGA,061047,2434.9312,N,08057.0843,W,1,10,1.5,22,M,,M,,*6C
06/23/2015	06:10:47.602	$GPGGA,061048,2434.9333,N,08057.0790,W,1,10,1.5,22,M,,M,,*61
06/23/2015	06:10:48.482	$GPGGA,061049,2434.9343,N,08057.0764,W,1,10,1.5,22,M,,M,,*6C
06/23/2015	06:10:49.582	$GPGGA,061050,2434.9352,N,08057.0738,W,1,10,1.5,22,M,,M,,*6D
06/23/2015	06:10:50.582	$GPGGA,061051,2434.9362,N,08057.0711,W,1,10,1.5,22,M,,M,,*64
06/23/2015	06:10:51.591	$GPGGA,061052,2434.9373,N,08057.0685,W,1,10,1.5,22,M,,M,,*6B
06/23/2015	06:10:52.571	$GPGGA,061053,2434.9384,N,08057.0658,W,1,10,1.5,22,M,,M,,*62
06/23/2015	06:10:53.591	$GPGGA,061054,2434.9394,N,08057.0632,W,1,10,1.5,22,M,,M,,*68
06/23/2015	06:10:54.571	$GPGGA,061055,2434.9405,N,08057.0606,W,1,10,1.5,22,M,,M,,*61
06/23/2015	06:10:55.602	$GPGGA,061056,2434.9416,N,08057.0580,W,1,10,1.5,22,M,,M,,*6D
06/23/2015	06:10:56.562	$GPGGA,061057,2434.9426,N,08057.0554,W,1,10,1.5,22,M,,M,,*66
06/23/2015	06:10:57.592	$GPGGA,061058,2434.9437,N,08057.0527,W,1,10,1.5,22,M,,M,,*6D
06/23/2015	06:10:58.562	$GPGGA,061059,2434.9448,N,08057.0503,W,1,10,1.5,22,M,,M,,*62
06/23/2015	06:10:59.622	$GPGGA,061100,2434.9458,N,08057.0474,W,1,10,1.5,22,M,,M,,*6F
06/23/2015	06:11:00.556	$GPGGA,061101,2434.9467,N,08057.0445,W,1,10,1.8,22,M,,M,,*6D
06/23/2015	06:11:01.592	$GPGGA,061102,2434.9478,N,08057.0420,W,1,10,1.5,22,M,,M,,*6E
06/23/2015	06:11:02.552	$GPGGA,061103,2434.9489,N,08057.0392,W,1,10,1.5,22,M,,M,,*6F
06/23/2015	06:11:03.602	$GPGGA,061104,2434.9500,N,08057.0365,W,1,10,1.5,22,M,,M,,*60
06/23/2015	06:11:04.545	$GPGGA,061105,2434.9510,N,08057.0339,W,1,10,1.8,22,M,,M,,*64
06/23/2015	06:11:05.572	$GPGGA,061106,2434.9521,N,08057.0314,W,1,10,1.5,22,M,,M,,*67
06/23/2015	06:11:06.545	$GPGGA,061107,2434.9532,N,08057.0288,W,1,10,1.5,22,M,,M,,*60
06/23/2015	06:11:07.572	$GPGGA,061108,2434.9543,N,08057.0264,W,1,10,1.5,22,M,,M,,*6B
06/23/2015	06:11:08.557	$GPGGA,061109,2434.9554,N,08057.0239,W,1,10,1.6,22,M,,M,,*67
06/23/2015	06:11:09.545	$GPGGA,061110,2434.9563,N,08057.0215,W,1,9,1.6,22,M,,M,,*5D
06/23/2015	06:11:10.531	$GPGGA,061111,2434.9576,N,08057.0188,W,1,9,1.5,22,M,,M,,*5C
06/23/2015	06:11:11.581	$GPGGA,061112,2434.9586,N,08057.0164,W,1,10,1.5,22,M,,M,,*6A
06/23/2015	06:11:12.531	$GPGGA,061113,2434.9599,N,08057.0135,W,1,10,1.6,22,M,,M,,*62
06/23/2015	06:11:13.562	$GPGGA,061114,2434.9608,N,08057.0111,W,1,10,1.5,22,M,,M,,*6B
06/23/2015	06:11:14.532	$GPGGA,061115,2434.9619,N,08057.0088,W,1,10,1.5,22,M,,M,,*6B
06/23/2015	06:11:15.562	$GPGGA,061116,2434.9630,N,08057.0061,W,1,10,1.5,22,M,,M,,*64
06/23/2015	06:11:16.532	$GPGGA,061117,2434.9641,N,08057.0035,W,1,10,1.5,22,M,,M,,*62
06/23/2015	06:11:17.512	$GPGGA,061118,2434.9651,N,08057.0013,W,1,9,1.8,22,M,,M,,*5D
06/23/2015	06:11:18.532	$GPGGA,061119,2434.9662,N,08056.9984,W,1,9,1.5,22,M,,M,,*5E
06/23/2015	06:11:19.562	$GPGGA,061120,2434.9673,N,08056.9959,W,1,10,1.5,22,M,,M,,*6C
06/23/2015	06:11:20.522	$GPGGA,061121,2434.9684,N,08056.9935,W,1,10,1.5,21,M,,M,,*6C
06/23/2015	06:11:21.522	$GPGGA,061122,2434.9695,N,08056.9908,W,1,10,1.5,21,M,,M,,*61
06/23/2015	06:11:22.512	$GPGGA,061123,2434.9705,N,08056.9884,W,1,10,1.5,21,M,,M,,*6D
06/23/2015	06:11:23.658	$GPGGA,061124,2434.9716,N,08056.9860,W,1,10,1.5,21,M,,M,,*62
06/23/2015	06:11:24.522	$GPGGA,061125,2434.9727,N,08056.9834,W,1,10,1.5,21,M,,M,,*60
06/23/2015	06:11:25.522	$GPGGA,061126,2434.9737,N,08056.9810,W,1,10,1.5,21,M,,M,,*64
06/23/2015	06:11:26.511	$GPGGA,061127,2434.9748,N,08056.9785,W,1,10,1.5,21,M,,M,,*6E
06/23/2015	06:11:27.631	$GPGGA,061128,2434.9759,N,08056.9760,W,1,10,1.5,21,M,,M,,*6A
06/23/2015	06:11:28.531	$GPGGA,061129,2434.9770,N,08056.9734,W,1,10,1.6,21,M,,M,,*62
06/23/2015	06:11:29.611	$GPGGA,061130,2434.9781,N,08056.9709,W,1,10,1.5,21,M,,M,,*69
06/23/2015	06:11:30.622	$GPGGA,061131,2434.9792,N,08056.9683,W,1,10,1.5,20,M,,M,,*68
06/23/2015	06:11:31.612	$GPGGA,061132,2434.9803,N,08056.9659,W,1,10,1.5,20,M,,M,,*6B
06/23/2015	06:11:32.502	$GPGGA,061133,2434.9813,N,08056.9633,W,1,10,1.5,20,M,,M,,*67
06/23/2015	06:11:33.592	$GPGGA,061134,2434.9823,N,08056.9607,W,1,9,1.5,20,M,,M,,*5C
06/23/2015	06:11:34.482	$GPGGA,061135,2434.9832,N,08056.9582,W,1,9,1.5,20,M,,M,,*53
06/23/2015	06:11:35.502	$GPGGA,061136,2434.9843,N,08056.9558,W,1,10,1.5,20,M,,M,,*69
06/23/2015	06:11:36.492	$GPGGA,061137,2434.9853,N,08056.9531,W,1,10,1.5,20,M,,M,,*66
06/23/2015	06:11:37.582	$GPGGA,061138,2434.9863,N,08056.9507,W,1,9,1.7,20,M,,M,,*55
06/23/2015	06:11:38.482	$GPGGA,061139,2434.9874,N,08056.9481,W,1,9,1.5,20,M,,M,,*5F
06/23/2015	06:11:39.592	$GPGGA,061140,2434.9882,N,08056.9455,W,1,10,1.5,20,M,,M,,*69
06/23/2015	06:11:40.582	$GPGGA,061141,2434.9892,N,08056.9430,W,1,10,1.6,20,M,,M,,*69
06/23/2015	06:11:41.582	$GPGGA,061142,2434.9901,N,08056.9404,W,1,9,1.5,20,M,,M,,*5D
06/23/2015	06:11:42.572	$GPGGA,061143,2434.9910,N,08056.9379,W,1,9,1.5,20,M,,M,,*51
06/23/2015	06:11:43.602	$GPGGA,061144,2434.9918,N,08056.9354,W,1,10,1.5,20,M,,M,,*69
06/23/2015	06:11:44.561	$GPGGA,061145,2434.9928,N,08056.9326,W,1,10,1.5,20,M,,M,,*6E
06/23/2015	06:11:45.581	$GPGGA,061146,2434.9937,N,08056.9301,W,1,10,1.5,20,M,,M,,*66
06/23/2015	06:11:46.561	$GPGGA,061147,2434.9946,N,08056.9275,W,1,10,1.5,20,M,,M,,*63
06/23/2015	06:11:47.591	$GPGGA,061148,2434.9957,N,08056.9248,W,1,9,1.5,20,M,,M,,*5A
06/23/2015	06:11:48.564	$GPGGA,061149,2434.9966,N,08056.9223,W,1,9,1.5,20,M,,M,,*54
