Software Version Number: 1	Data File Format Number: 1	Build Version Number: 1	Error Count Since VI Started: 1	Manufacturer: Raytheon	 Model Number: RayMarine 120	 S/N: 	 Cal Date: 	 Wind Direction Offset: 0.00	 Slope (M)1: 0.00	 Offset (B)1: 0.00	 Slope (M)2: 0.00	 Offset (B)2: 0.00	 Slope (M)3: 0.00	 Offset (B)3: 0.00	 Slope (M)4: 0.00	 Offset (B)4: 0.00	 Slope (M)5: 0.00	 Offset (B)5: 0.00	 Slope (M)6: 0.00	 Offset (B)6: 0.00
Computer Date	Computer Time	GGA String
06/16/2015	14:00:00.522	$GPGGA,140001,2416.4566,N,08110.5405,W,1,8,1.9,12,M,,M,,*5B
06/16/2015	14:00:01.582	$GPGGA,140002,2416.4556,N,08110.5386,W,1,8,1.9,12,M,,M,,*57
06/16/2015	14:00:02.522	$GPGGA,140003,2416.4547,N,08110.5365,W,1,8,1.9,12,M,,M,,*5B
06/16/2015	14:00:03.592	$GPGGA,140004,2416.4538,N,08110.5346,W,1,8,1.9,12,M,,M,,*55
06/16/2015	14:00:04.807	$GPGGA,140005,2416.4538,N,08110.5346,W,1,8,1.9,12,M,,M,,*54
06/16/2015	14:00:05.572	$GPGGA,140006,2416.4519,N,08110.5307,W,1,8,1.9,12,M,,M,,*51
06/16/2015	14:00:06.518	$GPGGA,140007,2416.4519,N,08110.5307,W,1,8,1.9,12,M,,M,,*50
06/16/2015	14:00:07.522	$GPGGA,140008,2416.4510,N,08110.5286,W,1,8,1.9,12,M,,M,,*5E
06/16/2015	14:00:08.503	$GPGGA,140009,2416.4490,N,08110.5248,W,1,8,1.9,11,M,,M,,*57
06/16/2015	14:00:09.511	$GPGGA,140010,2416.4480,N,08110.5228,W,1,8,1.9,11,M,,M,,*58
06/16/2015	14:00:10.521	$GPGGA,140011,2416.4473,N,08110.5209,W,1,8,1.9,11,M,,M,,*56
06/16/2015	14:00:11.521	$GPGGA,140012,2416.4473,N,08110.5209,W,1,8,1.9,11,M,,M,,*55
06/16/2015	14:00:12.481	$GPGGA,140013,2416.4453,N,08110.5169,W,1,8,1.9,11,M,,M,,*53
06/16/2015	14:00:13.551	$GPGGA,140014,2416.4444,N,08110.5153,W,1,8,1.9,11,M,,M,,*5B
06/16/2015	14:00:14.521	$GPGGA,140015,2416.4435,N,08110.5132,W,1,8,1.9,11,M,,M,,*5B
06/16/2015	14:00:15.502	$GPGGA,140016,2416.4435,N,08110.5132,W,1,8,1.9,11,M,,M,,*58
06/16/2015	14:00:16.571	$GPGGA,140017,2416.4417,N,08110.5094,W,1,8,1.9,11,M,,M,,*54
06/16/2015	14:00:17.621	$GPGGA,140018,2416.4417,N,08110.5094,W,1,8,1.9,11,M,,M,,*5B
06/16/2015	14:00:18.507	$GPGGA,140019,2416.4397,N,08110.5056,W,1,8,1.9,11,M,,M,,*5B
06/16/2015	14:00:19.511	$GPGGA,140020,2416.4390,N,08110.5037,W,1,8,1.9,11,M,,M,,*51
06/16/2015	14:00:20.481	$GPGGA,140021,2416.4378,N,08110.5020,W,1,8,1.9,11,M,,M,,*50
06/16/2015	14:00:21.561	$GPGGA,140022,2416.4370,N,08110.5002,W,1,8,1.9,11,M,,M,,*5B
06/16/2015	14:00:22.552	$GPGGA,140023,2416.4362,N,08110.4982,W,1,8,1.9,11,M,,M,,*59
06/16/2015	14:00:23.602	$GPGGA,140024,2416.4355,N,08110.4963,W,1,8,1.9,11,M,,M,,*55
06/16/2015	14:00:24.562	$GPGGA,140025,2416.4343,N,08110.4945,W,1,8,1.9,11,M,,M,,*57
06/16/2015	14:00:25.582	$GPGGA,140026,2416.4334,N,08110.4925,W,1,8,1.9,11,M,,M,,*52
06/16/2015	14:00:26.562	$GPGGA,140027,2416.4325,N,08110.4906,W,1,8,1.9,11,M,,M,,*52
06/16/2015	14:00:27.571	$GPGGA,140028,2416.4317,N,08110.4887,W,1,8,1.9,11,M,,M,,*54
06/16/2015	14:00:28.561	$GPGGA,140029,2416.4307,N,08110.4866,W,1,8,1.9,11,M,,M,,*5B
06/16/2015	14:00:29.581	$GPGGA,140030,2416.4299,N,08110.4848,W,1,8,1.9,11,M,,M,,*59
06/16/2015	14:00:30.551	$GPGGA,140031,2416.4290,N,08110.4829,W,1,8,1.9,11,M,,M,,*56
06/16/2015	14:00:31.581	$GPGGA,140032,2416.4280,N,08110.4809,W,1,8,1.9,11,M,,M,,*56
06/16/2015	14:00:32.531	$GPGGA,140033,2416.4272,N,08110.4790,W,1,8,1.9,11,M,,M,,*55
06/16/2015	14:00:33.551	$GPGGA,140034,2416.4263,N,08110.4770,W,1,8,1.9,11,M,,M,,*5C
06/16/2015	14:00:34.541	$GPGGA,140035,2416.4254,N,08110.4751,W,1,8,1.9,11,M,,M,,*5A
06/16/2015	14:00:35.571	$GPGGA,140036,2416.4243,N,08110.4732,W,1,8,1.9,11,M,,M,,*5A
06/16/2015	14:00:36.531	$GPGGA,140037,2416.4234,N,08110.4712,W,1,8,1.9,11,M,,M,,*59
06/16/2015	14:00:37.521	$GPGGA,140038,2416.4226,N,08110.4692,W,1,8,1.9,11,M,,M,,*5C
06/16/2015	14:00:38.541	$GPGGA,140039,2416.4216,N,08110.4672,W,1,8,1.9,11,M,,M,,*50
06/16/2015	14:00:39.562	$GPGGA,140040,2416.4207,N,08110.4653,W,1,8,1.9,11,M,,M,,*5D
06/16/2015	14:00:40.532	$GPGGA,140041,2416.4197,N,08110.4632,W,1,8,1.9,11,M,,M,,*51
06/16/2015	14:00:41.522	$GPGGA,140042,2416.4189,N,08110.4612,W,1,8,1.9,11,M,,M,,*5F
06/16/2015	14:00:42.522	$GPGGA,140043,2416.4179,N,08110.4594,W,1,8,1.9,11,M,,M,,*5C
06/16/2015	14:00:43.552	$GPGGA,140044,2416.4168,N,08110.4573,W,1,8,1.9,11,M,,M,,*52
06/16/2015	14:00:44.521	$GPGGA,140045,2416.4160,N,08110.4553,W,1,8,1.9,11,M,,M,,*59
06/16/2015	14:00:45.511	$GPGGA,140046,2416.4151,N,08110.4535,W,1,8,1.9,11,M,,M,,*58
06/16/2015	14:00:46.521	$GPGGA,140047,2416.4142,N,08110.4514,W,1,8,1.9,11,M,,M,,*58
06/16/2015	14:00:47.521	$GPGGA,140048,2416.4132,N,08110.4495,W,1,8,1.9,11,M,,M,,*58
06/16/2015	14:00:48.511	$GPGGA,140049,2416.4124,N,08110.4475,W,1,8,1.9,11,M,,M,,*50
06/16/2015	14:00:49.541	$GPGGA,140050,2416.4113,N,08110.4456,W,1,8,1.9,11,M,,M,,*5D
06/16/2015	14:00:50.521	$GPGGA,140051,2416.4104,N,08110.4436,W,1,8,1.9,11,M,,M,,*5C
06/16/2015	14:00:51.541	$GPGGA,140052,2416.4096,N,08110.4416,W,1,8,1.9,11,M,,M,,*57
06/16/2015	14:00:52.502	$GPGGA,140053,2416.4085,N,08110.4396,W,1,8,1.9,11,M,,M,,*5B
06/16/2015	14:00:53.505	$GPGGA,140054,2416.4077,N,08110.4377,W,1,8,1.9,11,M,,M,,*5E
06/16/2015	14:00:54.607	$GPGGA,140055,2416.4067,N,08110.4357,W,1,8,1.9,11,M,,M,,*5C
06/16/2015	14:00:55.521	$GPGGA,140056,2416.4057,N,08110.4337,W,1,8,1.9,11,M,,M,,*5A
06/16/2015	14:00:56.481	$GPGGA,140057,2416.4048,N,08110.4316,W,1,8,1.9,11,M,,M,,*56
06/16/2015	14:00:57.512	$GPGGA,140058,2416.4041,N,08110.4297,W,1,8,1.9,11,M,,M,,*58
06/16/2015	14:00:58.482	$GPGGA,140059,2416.4030,N,08110.4277,W,1,8,1.9,11,M,,M,,*51
06/16/2015	14:00:59.512	$GPGGA,140100,2416.4019,N,08110.4257,W,1,8,1.9,11,M,,M,,*55
06/16/2015	14:01:00.499	$GPGGA,140101,2416.4012,N,08110.4237,W,1,8,1.9,11,M,,M,,*59
06/16/2015	14:01:01.582	$GPGGA,140102,2416.4002,N,08110.4217,W,1,8,1.9,11,M,,M,,*59
06/16/2015	14:01:02.481	$GPGGA,140103,2416.3990,N,08110.4199,W,1,8,1.9,11,M,,M,,*58
06/16/2015	14:01:03.607	$GPGGA,140104,2416.3983,N,08110.4180,W,1,8,1.9,11,M,,M,,*55
06/16/2015	14:01:04.491	$GPGGA,140105,2416.3974,N,08110.4158,W,1,8,1.9,11,M,,M,,*59
06/16/2015	14:01:05.481	$GPGGA,140106,2416.3963,N,08110.4139,W,1,8,1.9,11,M,,M,,*5B
06/16/2015	14:01:06.561	$GPGGA,140107,2416.3954,N,08110.4120,W,1,8,1.9,11,M,,M,,*56
06/16/2015	14:01:07.495	$GPGGA,140108,2416.3947,N,08110.4101,W,1,7,2.1,11,M,,M,,*5C
06/16/2015	14:01:08.561	$GPGGA,140109,2416.3937,N,08110.4081,W,1,7,1.9,11,M,,M,,*58
06/16/2015	14:01:09.561	$GPGGA,140110,2416.3929,N,08110.4064,W,1,8,1.9,11,M,,M,,*5B
06/16/2015	14:01:10.551	$GPGGA,140111,2416.3919,N,08110.4046,W,1,8,1.9,11,M,,M,,*59
06/16/2015	14:01:11.571	$GPGGA,140112,2416.3911,N,08110.4026,W,1,8,1.9,11,M,,M,,*54
06/16/2015	14:01:12.561	$GPGGA,140113,2416.3902,N,08110.4007,W,1,8,1.9,11,M,,M,,*54
06/16/2015	14:01:13.551	$GPGGA,140114,2416.3893,N,08110.3989,W,1,8,1.9,11,M,,M,,*52
06/16/2015	14:01:14.552	$GPGGA,140115,2416.3884,N,08110.3970,W,1,8,1.9,11,M,,M,,*53
06/16/2015	14:01:15.562	$GPGGA,140116,2416.3875,N,08110.3951,W,1,8,1.9,11,M,,M,,*5D
06/16/2015	14:01:16.552	$GPGGA,140117,2416.3867,N,08110.3931,W,1,8,1.9,11,M,,M,,*59
06/16/2015	14:01:17.562	$GPGGA,140118,2416.3858,N,08110.3912,W,1,8,1.9,11,M,,M,,*5B
06/16/2015	14:01:18.542	$GPGGA,140119,2416.3847,N,08110.3894,W,1,8,1.9,11,M,,M,,*5B
06/16/2015	14:01:19.561	$GPGGA,140120,2416.3839,N,08110.3876,W,1,8,1.9,11,M,,M,,*54
06/16/2015	14:01:20.541	$GPGGA,140121,2416.3831,N,08110.3854,W,1,8,1.9,11,M,,M,,*5D
06/16/2015	14:01:21.551	$GPGGA,140122,2416.3821,N,08110.3836,W,1,8,1.9,11,M,,M,,*5B
06/16/2015	14:01:22.541	$GPGGA,140123,2416.3810,N,08110.3819,W,1,8,1.9,12,M,,M,,*56
06/16/2015	14:01:23.561	$GPGGA,140124,2416.3800,N,08110.3799,W,1,8,1.9,12,M,,M,,*57
06/16/2015	14:01:24.531	$GPGGA,140125,2416.3794,N,08110.3778,W,1,8,1.9,12,M,,M,,*5B
06/16/2015	14:01:25.541	$GPGGA,140126,2416.3783,N,08110.3758,W,1,8,1.9,12,M,,M,,*5C
06/16/2015	14:01:26.531	$GPGGA,140127,2416.3771,N,08110.3741,W,1,8,1.9,12,M,,M,,*58
06/16/2015	14:01:27.561	$GPGGA,140128,2416.3764,N,08110.3722,W,1,8,1.9,12,M,,M,,*56
06/16/2015	14:01:28.511	$GPGGA,140129,2416.3757,N,08110.3701,W,1,8,1.9,12,M,,M,,*56
06/16/2015	14:01:29.511	$GPGGA,140130,2416.3746,N,08110.3682,W,1,8,1.9,12,M,,M,,*54
06/16/2015	14:01:30.511	$GPGGA,140131,2416.3737,N,08110.3664,W,1,8,1.9,12,M,,M,,*5B
06/16/2015	14:01:31.542	$GPGGA,140132,2416.3730,N,08110.3644,W,1,8,1.9,12,M,,M,,*5D
06/16/2015	14:01:32.522	$GPGGA,140133,2416.3721,N,08110.3624,W,1,8,1.9,12,M,,M,,*5A
06/16/2015	14:01:33.542	$GPGGA,140134,2416.3712,N,08110.3606,W,1,8,1.9,12,M,,M,,*5D
06/16/2015	14:01:34.502	$GPGGA,140135,2416.3703,N,08110.3586,W,1,8,1.9,12,M,,M,,*57
06/16/2015	14:01:35.522	$GPGGA,140136,2416.3696,N,08110.3566,W,1,8,1.9,12,M,,M,,*57
06/16/2015	14:01:36.512	$GPGGA,140137,2416.3687,N,08110.3546,W,1,8,1.9,12,M,,M,,*54
06/16/2015	14:01:37.531	$GPGGA,140138,2416.3676,N,08110.3528,W,1,8,1.9,12,M,,M,,*5D
06/16/2015	14:01:38.494	$GPGGA,140139,2416.3669,N,08110.3510,W,1,8,1.9,12,M,,M,,*59
06/16/2015	14:01:39.521	$GPGGA,140140,2416.3661,N,08110.3488,W,1,8,1.9,12,M,,M,,*5F
06/16/2015	14:01:40.611	$GPGGA,140141,2416.3651,N,08110.3470,W,1,8,1.9,12,M,,M,,*5A
06/16/2015	14:01:41.511	$GPGGA,140142,2416.3642,N,08110.3453,W,1,8,1.9,12,M,,M,,*5A
06/16/2015	14:01:42.501	$GPGGA,140143,2416.3634,N,08110.3432,W,1,8,1.9,12,M,,M,,*5D
06/16/2015	14:01:43.521	$GPGGA,140144,2416.3626,N,08110.3412,W,1,8,1.9,12,M,,M,,*5B
06/16/2015	14:01:44.601	$GPGGA,140145,2416.3616,N,08110.3396,W,1,8,1.9,12,M,,M,,*52
06/16/2015	14:01:45.601	$GPGGA,140146,2416.3607,N,08110.3377,W,1,8,1.9,12,M,,M,,*5E
06/16/2015	14:01:46.492	$GPGGA,140147,2416.3600,N,08110.3356,W,1,8,1.9,12,M,,M,,*5B
06/16/2015	14:01:47.602	$GPGGA,140148,2416.3590,N,08110.3338,W,1,8,1.9,12,M,,M,,*56
06/16/2015	14:01:48.481	$GPGGA,140149,2416.3582,N,08110.3321,W,1,8,1.9,12,M,,M,,*5C
06/16/2015	14:01:49.493	$GPGGA,140150,2416.3572,N,08110.3301,W,1,8,1.9,12,M,,M,,*59
06/16/2015	14:01:50.472	$GPGGA,140151,2416.3564,N,08110.3280,W,1,8,1.9,12,M,,M,,*57
06/16/2015	14:01:51.612	$GPGGA,140152,2416.3555,N,08110.3262,W,1,8,1.9,12,M,,M,,*5A
06/16/2015	14:01:52.592	$GPGGA,140153,2416.3546,N,08110.3243,W,1,8,1.9,12,M,,M,,*5A
06/16/2015	14:01:53.562	$GPGGA,140154,2416.3536,N,08110.3223,W,1,7,2.1,12,M,,M,,*58
06/16/2015	14:01:54.471	$GPGGA,140155,2416.3528,N,08110.3204,W,1,7,1.9,12,M,,M,,*58
06/16/2015	14:01:55.595	$GPGGA,140156,2416.3521,N,08110.3187,W,1,8,1.9,12,M,,M,,*55
06/16/2015	14:01:56.571	$GPGGA,140157,2416.3511,N,08110.3169,W,1,8,1.9,12,M,,M,,*57
06/16/2015	14:01:57.581	$GPGGA,140158,2416.3501,N,08110.3148,W,1,8,1.9,12,M,,M,,*5A
06/16/2015	14:01:58.561	$GPGGA,140159,2416.3493,N,08110.3129,W,1,8,1.9,12,M,,M,,*56
06/16/2015	14:01:59.611	$GPGGA,140200,2416.3485,N,08110.3111,W,1,8,1.9,12,M,,M,,*55
06/16/2015	14:02:00.561	$GPGGA,140201,2416.3475,N,08110.3092,W,1,8,1.9,12,M,,M,,*51
06/16/2015	14:02:01.541	$GPGGA,140202,2416.3466,N,08110.3072,W,1,8,1.9,12,M,,M,,*5E
06/16/2015	14:02:02.551	$GPGGA,140203,2416.3458,N,08110.3055,W,1,8,1.9,12,M,,M,,*57
06/16/2015	14:02:03.591	$GPGGA,140204,2416.3449,N,08110.3037,W,1,8,1.9,12,M,,M,,*54
06/16/2015	14:02:04.551	$GPGGA,140205,2416.3441,N,08110.3018,W,1,8,1.9,12,M,,M,,*50
06/16/2015	14:02:05.561	$GPGGA,140206,2416.3432,N,08110.3000,W,1,8,1.9,12,M,,M,,*5E
06/16/2015	14:02:06.542	$GPGGA,140207,2416.3424,N,08110.2981,W,1,8,1.9,12,M,,M,,*59
06/16/2015	14:02:07.552	$GPGGA,140208,2416.3416,N,08110.2963,W,1,8,1.9,12,M,,M,,*5B
06/16/2015	14:02:08.532	$GPGGA,140209,2416.3405,N,08110.2944,W,1,8,1.9,12,M,,M,,*5D
06/16/2015	14:02:09.562	$GPGGA,140210,2416.3398,N,08110.2924,W,1,8,1.9,12,M,,M,,*50
06/16/2015	14:02:10.532	$GPGGA,140211,2416.3391,N,08110.2905,W,1,8,1.9,12,M,,M,,*5B
06/16/2015	14:02:11.572	$GPGGA,140212,2416.3380,N,08110.2886,W,1,8,1.9,12,M,,M,,*52
06/16/2015	14:02:12.521	$GPGGA,140213,2416.3371,N,08110.2868,W,1,8,1.9,12,M,,M,,*5D
06/16/2015	14:02:13.551	$GPGGA,140214,2416.3363,N,08110.2848,W,1,8,1.9,12,M,,M,,*5B
06/16/2015	14:02:14.521	$GPGGA,140215,2416.3354,N,08110.2828,W,1,8,1.9,12,M,,M,,*58
06/16/2015	14:02:15.531	$GPGGA,140216,2416.3344,N,08110.2810,W,1,8,1.9,12,M,,M,,*51
06/16/2015	14:02:16.521	$GPGGA,140217,2416.3335,N,08110.2792,W,1,8,1.9,12,M,,M,,*53
06/16/2015	14:02:17.551	$GPGGA,140218,2416.3326,N,08110.2771,W,1,8,1.9,12,M,,M,,*53
06/16/2015	14:02:18.521	$GPGGA,140219,2416.3319,N,08110.2753,W,1,8,1.9,12,M,,M,,*5E
06/16/2015	14:02:19.571	$GPGGA,140220,2416.3311,N,08110.2735,W,1,8,1.9,12,M,,M,,*5C
06/16/2015	14:02:20.511	$GPGGA,140221,2416.3300,N,08110.2715,W,1,8,2.1,12,M,,M,,*54
06/16/2015	14:02:21.531	$GPGGA,140222,2416.3293,N,08110.2697,W,1,8,1.9,12,M,,M,,*5C
06/16/2015	14:02:22.504	$GPGGA,140223,2416.3284,N,08110.2680,W,1,8,1.9,12,M,,M,,*5D
06/16/2015	14:02:23.511	$GPGGA,140224,2416.3275,N,08110.2660,W,1,7,2.1,12,M,,M,,*5E
06/16/2015	14:02:24.507	$GPGGA,140225,2416.3266,N,08110.2641,W,1,7,1.9,12,M,,M,,*55
06/16/2015	14:02:25.502	$GPGGA,140226,2416.3258,N,08110.2625,W,1,8,1.9,12,M,,M,,*56
06/16/2015	14:02:26.496	$GPGGA,140227,2416.3250,N,08110.2607,W,1,8,2.1,12,M,,M,,*54
06/16/2015	14:02:27.504	$GPGGA,140228,2416.3241,N,08110.2587,W,1,7,2.1,12,M,,M,,*5F
06/16/2015	14:02:28.607	$GPGGA,140229,2416.3233,N,08110.2571,W,1,7,1.9,12,M,,M,,*59
06/16/2015	14:02:29.601	$GPGGA,140230,2416.3224,N,08110.2555,W,1,8,1.9,12,M,,M,,*5E
06/16/2015	14:02:30.508	$GPGGA,140231,2416.3217,N,08110.2538,W,1,8,2.1,12,M,,M,,*5F
06/16/2015	14:02:31.492	$GPGGA,140232,2416.3210,N,08110.2520,W,1,8,1.9,12,M,,M,,*59
06/16/2015	14:02:32.471	$GPGGA,140233,2416.3203,N,08110.2504,W,1,8,1.9,12,M,,M,,*5C
06/16/2015	14:02:33.471	$GPGGA,140234,2416.3193,N,08110.2486,W,1,8,1.9,12,M,,M,,*5A
06/16/2015	14:02:34.604	$GPGGA,140235,2416.3185,N,08110.2467,W,1,8,1.9,12,M,,M,,*53
06/16/2015	14:02:35.504	$GPGGA,140236,2416.3179,N,08110.2449,W,1,8,1.9,12,M,,M,,*5F
06/16/2015	14:02:36.498	$GPGGA,140237,2416.3169,N,08110.2430,W,1,8,1.9,12,M,,M,,*51
06/16/2015	14:02:37.481	$GPGGA,140238,2416.3161,N,08110.2414,W,1,8,1.9,12,M,,M,,*50
06/16/2015	14:02:38.481	$GPGGA,140239,2416.3152,N,08110.2395,W,1,8,1.9,12,M,,M,,*5F
06/16/2015	14:02:39.571	$GPGGA,140240,2416.3145,N,08110.2375,W,1,7,2.1,12,M,,M,,*5D
06/16/2015	14:02:40.571	$GPGGA,140241,2416.3136,N,08110.2357,W,1,7,1.9,12,M,,M,,*53
06/16/2015	14:02:41.462	$GPGGA,140242,2416.3127,N,08110.2341,W,1,8,1.9,12,M,,M,,*58
06/16/2015	14:02:42.562	$GPGGA,140243,2416.3120,N,08110.2323,W,1,8,1.9,12,M,,M,,*5A
06/16/2015	14:02:43.602	$GPGGA,140244,2416.3111,N,08110.2305,W,1,8,1.9,12,M,,M,,*5B
06/16/2015	14:02:44.572	$GPGGA,140245,2416.3102,N,08110.2287,W,1,8,1.9,12,M,,M,,*53
06/16/2015	14:02:45.572	$GPGGA,140246,2416.3094,N,08110.2268,W,1,8,1.9,12,M,,M,,*5F
06/16/2015	14:02:46.552	$GPGGA,140247,2416.3085,N,08110.2250,W,1,8,1.9,12,M,,M,,*55
06/16/2015	14:02:47.571	$GPGGA,140248,2416.3076,N,08110.2232,W,1,8,1.9,12,M,,M,,*52
06/16/2015	14:02:48.561	$GPGGA,140249,2416.3069,N,08110.2212,W,1,8,1.9,12,M,,M,,*5F
06/16/2015	14:02:49.551	$GPGGA,140250,2416.3059,N,08110.2193,W,1,8,1.9,12,M,,M,,*5E
06/16/2015	14:02:50.551	$GPGGA,140251,2416.3049,N,08110.2175,W,1,8,1.9,12,M,,M,,*56
06/16/2015	14:02:51.571	$GPGGA,140252,2416.3040,N,08110.2156,W,1,8,1.9,12,M,,M,,*5D
06/16/2015	14:02:52.541	$GPGGA,140253,2416.3033,N,08110.2137,W,1,8,1.9,12,M,,M,,*5F
06/16/2015	14:02:53.561	$GPGGA,140254,2416.3023,N,08110.2117,W,1,8,1.9,12,M,,M,,*5B
06/16/2015	14:02:54.531	$GPGGA,140255,2416.3013,N,08110.2098,W,1,8,1.9,12,M,,M,,*5F
06/16/2015	14:02:55.571	$GPGGA,140256,2416.3005,N,08110.2079,W,1,8,1.9,12,M,,M,,*54
06/16/2015	14:02:56.531	$GPGGA,140257,2416.2995,N,08110.2060,W,1,8,1.9,12,M,,M,,*5C
06/16/2015	14:02:57.521	$GPGGA,140258,2416.2986,N,08110.2040,W,1,8,1.9,12,M,,M,,*53
06/16/2015	14:02:58.531	$GPGGA,140259,2416.2979,N,08110.2021,W,1,8,1.9,12,M,,M,,*55
06/16/2015	14:02:59.582	$GPGGA,140300,2416.2968,N,08110.2001,W,1,8,1.9,12,M,,M,,*5A
06/16/2015	14:03:00.532	$GPGGA,140301,2416.2958,N,08110.1982,W,1,8,1.9,12,M,,M,,*59
06/16/2015	14:03:01.519	$GPGGA,140302,2416.2950,N,08110.1963,W,1,8,1.9,13,M,,M,,*5C
06/16/2015	14:03:02.522	$GPGGA,140303,2416.2939,N,08110.1943,W,1,8,1.9,13,M,,M,,*50
06/16/2015	14:03:03.562	$GPGGA,140304,2416.2930,N,08110.1923,W,1,8,1.9,13,M,,M,,*58
06/16/2015	14:03:04.521	$GPGGA,140305,2416.2921,N,08110.1903,W,1,8,1.9,13,M,,M,,*5B
06/16/2015	14:03:05.507	$GPGGA,140306,2416.2911,N,08110.1884,W,1,7,2.1,13,M,,M,,*51
06/16/2015	14:03:06.521	$GPGGA,140307,2416.2903,N,08110.1862,W,1,7,1.9,13,M,,M,,*50
06/16/2015	14:03:07.521	$GPGGA,140308,2416.2894,N,08110.1842,W,1,8,1.9,13,M,,M,,*5D
06/16/2015	14:03:08.504	$GPGGA,140309,2416.2882,N,08110.1824,W,1,8,1.9,13,M,,M,,*5B
06/16/2015	14:03:09.505	$GPGGA,140310,2416.2871,N,08110.1802,W,1,7,2.1,13,M,,M,,*5F
06/16/2015	14:03:10.621	$GPGGA,140311,2416.2864,N,08110.1782,W,1,7,1.9,12,M,,M,,*57
06/16/2015	14:03:11.651	$GPGGA,140312,2416.2856,N,08110.1763,W,1,8,1.9,12,M,,M,,*55
06/16/2015	14:03:12.494	$GPGGA,140313,2416.2845,N,08110.1744,W,1,8,1.9,12,M,,M,,*53
06/16/2015	14:03:13.491	$GPGGA,140314,2416.2836,N,08110.1725,W,1,8,1.9,12,M,,M,,*57
06/16/2015	14:03:14.506	$GPGGA,140315,2416.2828,N,08110.1705,W,1,8,1.9,12,M,,M,,*5B
06/16/2015	14:03:15.605	$GPGGA,140316,2416.2820,N,08110.1685,W,1,8,1.9,12,M,,M,,*59
06/16/2015	14:03:16.482	$GPGGA,140317,2416.2809,N,08110.1665,W,1,8,1.9,12,M,,M,,*5D
06/16/2015	14:03:17.482	$GPGGA,140318,2416.2800,N,08110.1646,W,1,8,1.9,12,M,,M,,*5A
06/16/2015	14:03:18.482	$GPGGA,140319,2416.2792,N,08110.1627,W,1,8,1.9,12,M,,M,,*58
06/16/2015	14:03:19.542	$GPGGA,140320,2416.2782,N,08110.1605,W,1,7,2.1,12,M,,M,,*57
06/16/2015	14:03:20.572	$GPGGA,140321,2416.2773,N,08110.1585,W,1,7,2.1,12,M,,M,,*53
06/16/2015	14:03:21.621	$GPGGA,140322,2416.2766,N,08110.1567,W,1,7,2.1,12,M,,M,,*58
06/16/2015	14:03:22.509	$GPGGA,140323,2416.2755,N,08110.1547,W,1,7,2.1,12,M,,M,,*5B
06/16/2015	14:03:23.497	$GPGGA,140324,2416.2747,N,08110.1528,W,1,8,2.0,12,M,,M,,*58
06/16/2015	14:03:24.497	$GPGGA,140325,2416.2739,N,08110.1512,W,1,8,2.0,12,M,,M,,*59
06/16/2015	14:03:25.571	$GPGGA,140326,2416.2730,N,08110.1494,W,1,8,2.0,12,M,,M,,*5C
06/16/2015	14:03:26.481	$GPGGA,140327,2416.2723,N,08110.1475,W,1,8,2.0,12,M,,M,,*50
06/16/2015	14:03:27.621	$GPGGA,140328,2416.2715,N,08110.1457,W,1,8,2.0,12,M,,M,,*5A
06/16/2015	14:03:28.571	$GPGGA,140329,2416.2706,N,08110.1440,W,1,8,2.0,12,M,,M,,*5F
06/16/2015	14:03:29.551	$GPGGA,140330,2416.2698,N,08110.1421,W,1,8,2.0,12,M,,M,,*56
06/16/2015	14:03:30.551	$GPGGA,140331,2416.2688,N,08110.1402,W,1,8,2.0,12,M,,M,,*57
06/16/2015	14:03:31.581	$GPGGA,140332,2416.2679,N,08110.1384,W,1,8,2.1,12,M,,M,,*52
06/16/2015	14:03:32.561	$GPGGA,140333,2416.2672,N,08110.1364,W,1,8,2.1,12,M,,M,,*56
06/16/2015	14:03:33.561	$GPGGA,140334,2416.2663,N,08110.1344,W,1,7,2.0,12,M,,M,,*5D
06/16/2015	14:03:34.553	$GPGGA,140335,2416.2654,N,08110.1327,W,1,7,2.0,12,M,,M,,*5D
06/16/2015	14:03:35.596	$GPGGA,140336,2416.2644,N,08110.1309,W,1,8,2.1,12,M,,M,,*5D
06/16/2015	14:03:36.552	$GPGGA,140337,2416.2637,N,08110.1291,W,1,8,2.0,12,M,,M,,*59
06/16/2015	14:03:37.562	$GPGGA,140338,2416.2628,N,08110.1271,W,1,8,2.0,12,M,,M,,*56
06/16/2015	14:03:38.532	$GPGGA,140339,2416.2618,N,08110.1254,W,1,8,2.0,12,M,,M,,*53
06/16/2015	14:03:39.571	$GPGGA,140340,2416.2609,N,08110.1235,W,1,8,2.1,12,M,,M,,*5B
06/16/2015	14:03:40.541	$GPGGA,140341,2416.2601,N,08110.1215,W,1,8,2.0,12,M,,M,,*51
06/16/2015	14:03:41.551	$GPGGA,140342,2416.2593,N,08110.1196,W,1,8,2.0,12,M,,M,,*52
06/16/2015	14:03:42.541	$GPGGA,140343,2416.2583,N,08110.1179,W,1,8,2.0,12,M,,M,,*53
06/16/2015	14:03:43.561	$GPGGA,140344,2416.2574,N,08110.1161,W,1,8,2.0,12,M,,M,,*55
06/16/2015	14:03:44.551	$GPGGA,140345,2416.2565,N,08110.1140,W,1,8,2.0,12,M,,M,,*57
06/16/2015	14:03:45.561	$GPGGA,140346,2416.2557,N,08110.1122,W,1,8,2.0,12,M,,M,,*51
06/16/2015	14:03:46.531	$GPGGA,140347,2416.2549,N,08110.1104,W,1,8,2.0,12,M,,M,,*5B
06/16/2015	14:03:47.561	$GPGGA,140348,2416.2538,N,08110.1084,W,1,8,2.0,12,M,,M,,*5B
06/16/2015	14:03:48.511	$GPGGA,140349,2416.2531,N,08110.1065,W,1,8,2.0,12,M,,M,,*5C
06/16/2015	14:03:49.511	$GPGGA,140350,2416.2523,N,08110.1047,W,1,8,2.0,12,M,,M,,*57
06/16/2015	14:03:51.001	$GPGGA,140351,2416.2513,N,08110.1027,W,1,8,2.0,12,M,,M,,*53
06/16/2015	14:03:51.572	$GPGGA,140352,2416.2505,N,08110.1009,W,1,8,2.0,12,M,,M,,*5B
06/16/2015	14:03:52.522	$GPGGA,140353,2416.2496,N,08110.0990,W,1,8,2.0,12,M,,M,,*59
06/16/2015	14:03:53.522	$GPGGA,140354,2416.2487,N,08110.0970,W,1,8,2.0,12,M,,M,,*50
06/16/2015	14:03:54.512	$GPGGA,140355,2416.2478,N,08110.0951,W,1,8,2.0,12,M,,M,,*52
06/16/2015	14:03:55.542	$GPGGA,140356,2416.2470,N,08110.0932,W,1,8,2.0,12,M,,M,,*5C
06/16/2015	14:03:56.542	$GPGGA,140357,2416.2462,N,08110.0913,W,1,8,2.0,12,M,,M,,*5D
06/16/2015	14:03:57.611	$GPGGA,140358,2416.2451,N,08110.0892,W,1,8,2.0,12,M,,M,,*5A
06/16/2015	14:03:58.521	$GPGGA,140359,2416.2444,N,08110.0873,W,1,8,2.0,12,M,,M,,*50
06/16/2015	14:03:59.601	$GPGGA,140400,2416.2433,N,08110.0855,W,1,8,2.1,12,M,,M,,*5E
06/16/2015	14:04:00.611	$GPGGA,140401,2416.2423,N,08110.0833,W,1,8,2.0,12,M,,M,,*5F
06/16/2015	14:04:01.521	$GPGGA,140402,2416.2415,N,08110.0812,W,1,8,2.0,12,M,,M,,*5A
06/16/2015	14:04:02.521	$GPGGA,140403,2416.2406,N,08110.0795,W,1,8,2.0,12,M,,M,,*59
06/16/2015	14:04:03.611	$GPGGA,140404,2416.2395,N,08110.0775,W,1,8,2.1,12,M,,M,,*5C
06/16/2015	14:04:04.499	$GPGGA,140405,2416.2387,N,08110.0755,W,1,8,2.0,12,M,,M,,*5D
06/16/2015	14:04:05.491	$GPGGA,140406,2416.2380,N,08110.0737,W,1,8,2.0,12,M,,M,,*5D
06/16/2015	14:04:06.591	$GPGGA,140407,2416.2372,N,08110.0720,W,1,8,2.0,12,M,,M,,*57
06/16/2015	14:04:07.611	$GPGGA,140408,2416.2361,N,08110.0701,W,1,8,2.0,12,M,,M,,*59
06/16/2015	14:04:08.505	$GPGGA,140409,2416.2354,N,08110.0682,W,1,8,2.0,12,M,,M,,*54
06/16/2015	14:04:09.594	$GPGGA,140410,2416.2348,N,08110.0662,W,1,8,2.0,12,M,,M,,*5F
06/16/2015	14:04:10.496	$GPGGA,140411,2416.2338,N,08110.0643,W,1,8,2.0,12,M,,M,,*5A
06/16/2015	14:04:11.572	$GPGGA,140412,2416.2328,N,08110.0626,W,1,8,2.0,13,M,,M,,*5A
06/16/2015	14:04:12.572	$GPGGA,140413,2416.2320,N,08110.0606,W,1,8,2.0,13,M,,M,,*51
06/16/2015	14:04:13.572	$GPGGA,140414,2416.2314,N,08110.0585,W,1,8,2.0,13,M,,M,,*59
06/16/2015	14:04:14.561	$GPGGA,140415,2416.2303,N,08110.0568,W,1,8,2.0,13,M,,M,,*5D
06/16/2015	14:04:15.611	$GPGGA,140416,2416.2292,N,08110.0549,W,1,8,2.0,13,M,,M,,*54
06/16/2015	14:04:16.561	$GPGGA,140417,2416.2285,N,08110.0528,W,1,8,2.0,13,M,,M,,*54
06/16/2015	14:04:17.571	$GPGGA,140418,2416.2278,N,08110.0507,W,1,8,2.0,13,M,,M,,*54
06/16/2015	14:04:18.571	$GPGGA,140419,2416.2267,N,08110.0491,W,1,8,2.0,13,M,,M,,*55
06/16/2015	14:04:19.604	$GPGGA,140420,2416.2257,N,08110.0472,W,1,7,2.2,13,M,,M,,*5C
06/16/2015	14:04:20.561	$GPGGA,140421,2416.2247,N,08110.0450,W,1,7,2.2,13,M,,M,,*5C
06/16/2015	14:04:21.551	$GPGGA,140422,2416.2242,N,08110.0434,W,1,8,2.0,13,M,,M,,*55
06/16/2015	14:04:22.552	$GPGGA,140423,2416.2232,N,08110.0419,W,1,8,2.0,13,M,,M,,*5C
06/16/2015	14:04:23.551	$GPGGA,140424,2416.2224,N,08110.0400,W,1,8,2.0,13,M,,M,,*54
06/16/2015	14:04:24.541	$GPGGA,140425,2416.2216,N,08110.0382,W,1,8,2.0,13,M,,M,,*59
06/16/2015	14:04:25.561	$GPGGA,140426,2416.2208,N,08110.0365,W,1,8,2.0,13,M,,M,,*5C
06/16/2015	14:04:26.532	$GPGGA,140427,2416.2199,N,08110.0346,W,1,8,2.2,13,M,,M,,*55
06/16/2015	14:04:27.572	$GPGGA,140428,2416.2199,N,08110.0346,W,1,7,2.2,13,M,,M,,*55
06/16/2015	14:04:28.542	$GPGGA,140429,2416.2180,N,08110.0308,W,1,7,2.0,13,M,,M,,*54
06/16/2015	14:04:29.522	$GPGGA,140430,2416.2174,N,08110.0291,W,1,8,2.0,13,M,,M,,*59
06/16/2015	14:04:30.522	$GPGGA,140431,2416.2164,N,08110.0273,W,1,8,2.0,13,M,,M,,*55
06/16/2015	14:04:31.571	$GPGGA,140432,2416.2155,N,08110.0255,W,1,8,2.0,13,M,,M,,*50
06/16/2015	14:04:32.531	$GPGGA,140433,2416.2149,N,08110.0238,W,1,8,2.0,13,M,,M,,*57
06/16/2015	14:04:33.561	$GPGGA,140434,2416.2141,N,08110.0219,W,1,8,2.0,12,M,,M,,*5A
06/16/2015	14:04:34.531	$GPGGA,140435,2416.2130,N,08110.0201,W,1,8,2.2,12,M,,M,,*56
06/16/2015	14:04:35.531	$GPGGA,140436,2416.2123,N,08110.0182,W,1,8,2.0,12,M,,M,,*5D
06/16/2015	14:04:36.531	$GPGGA,140437,2416.2115,N,08110.0164,W,1,8,2.0,12,M,,M,,*51
06/16/2015	14:04:37.511	$GPGGA,140438,2416.2106,N,08110.0146,W,1,8,2.0,12,M,,M,,*5C
06/16/2015	14:04:38.531	$GPGGA,140439,2416.2098,N,08110.0128,W,1,8,2.0,12,M,,M,,*53
06/16/2015	14:04:39.541	$GPGGA,140440,2416.2090,N,08110.0110,W,1,8,2.0,12,M,,M,,*5E
06/16/2015	14:04:40.983	$GPGGA,140441,2416.2081,N,08110.0092,W,1,8,2.0,12,M,,M,,*54
06/16/2015	14:04:41.499	$GPGGA,140442,2416.2073,N,08110.0071,W,1,8,2.0,12,M,,M,,*57
06/16/2015	14:04:42.611	$GPGGA,140443,2416.2065,N,08110.0053,W,1,8,2.0,12,M,,M,,*51
06/16/2015	14:04:43.531	$GPGGA,140444,2416.2055,N,08110.0036,W,1,8,2.0,12,M,,M,,*56
06/16/2015	14:04:44.493	$GPGGA,140445,2416.2047,N,08110.0016,W,1,8,2.0,12,M,,M,,*56
06/16/2015	14:04:45.803	$GPGGA,140446,2416.2039,N,08109.9996,W,1,8,2.0,12,M,,M,,*5C
06/16/2015	14:04:46.502	$GPGGA,140447,2416.2029,N,08109.9978,W,1,8,2.0,12,M,,M,,*5C
06/16/2015	14:04:47.622	$GPGGA,140448,2416.2021,N,08109.9959,W,1,7,2.2,12,M,,M,,*55
06/16/2015	14:04:48.495	$GPGGA,140449,2416.2014,N,08109.9940,W,1,7,2.0,12,M,,M,,*58
06/16/2015	14:04:49.602	$GPGGA,140450,2416.2005,N,08109.9920,W,1,8,2.0,12,M,,M,,*59
06/16/2015	14:04:50.513	$GPGGA,140451,2416.1996,N,08109.9903,W,1,8,2.0,12,M,,M,,*59
06/16/2015	14:04:51.601	$GPGGA,140452,2416.1985,N,08109.9884,W,1,8,2.0,12,M,,M,,*56
06/16/2015	14:04:52.494	$GPGGA,140453,2416.1976,N,08109.9863,W,1,8,2.2,12,M,,M,,*50
06/16/2015	14:04:53.571	$GPGGA,140454,2416.1971,N,08109.9846,W,1,8,2.0,12,M,,M,,*55
06/16/2015	14:04:54.591	$GPGGA,140455,2416.1960,N,08109.9827,W,1,8,2.0,12,M,,M,,*53
06/16/2015	14:04:55.601	$GPGGA,140456,2416.1951,N,08109.9809,W,1,8,2.0,12,M,,M,,*5E
06/16/2015	14:04:56.481	$GPGGA,140457,2416.1944,N,08109.9792,W,1,8,2.0,12,M,,M,,*56
06/16/2015	14:04:57.571	$GPGGA,140458,2416.1935,N,08109.9772,W,1,8,2.0,12,M,,M,,*51
06/16/2015	14:04:58.471	$GPGGA,140459,2416.1926,N,08109.9754,W,1,8,2.0,12,M,,M,,*56
06/16/2015	14:04:59.496	$GPGGA,140500,2416.1917,N,08109.9736,W,1,8,2.0,12,M,,M,,*5D
06/16/2015	14:05:00.471	$GPGGA,140501,2416.1907,N,08109.9716,W,1,8,2.2,12,M,,M,,*5D
06/16/2015	14:05:01.562	$GPGGA,140502,2416.1898,N,08109.9697,W,1,8,2.0,12,M,,M,,*53
06/16/2015	14:05:02.562	$GPGGA,140503,2416.1890,N,08109.9679,W,1,8,2.0,12,M,,M,,*5A
06/16/2015	14:05:03.582	$GPGGA,140504,2416.1882,N,08109.9661,W,1,8,2.0,12,M,,M,,*57
06/16/2015	14:05:04.562	$GPGGA,140505,2416.1872,N,08109.9643,W,1,8,2.0,12,M,,M,,*59
06/16/2015	14:05:05.572	$GPGGA,140506,2416.1864,N,08109.9625,W,1,8,2.0,12,M,,M,,*5D
06/16/2015	14:05:06.551	$GPGGA,140507,2416.1857,N,08109.9606,W,1,8,2.0,12,M,,M,,*5D
06/16/2015	14:05:07.581	$GPGGA,140508,2416.1848,N,08109.9588,W,1,8,2.0,12,M,,M,,*59
06/16/2015	14:05:08.551	$GPGGA,140509,2416.1837,N,08109.9571,W,1,8,2.0,11,M,,M,,*55
06/16/2015	14:05:09.561	$GPGGA,140510,2416.1830,N,08109.9551,W,1,8,2.0,11,M,,M,,*58
06/16/2015	14:05:10.551	$GPGGA,140511,2416.1820,N,08109.9531,W,1,8,2.2,11,M,,M,,*5C
06/16/2015	14:05:11.571	$GPGGA,140512,2416.1810,N,08109.9513,W,1,8,2.0,11,M,,M,,*5E
06/16/2015	14:05:12.541	$GPGGA,140513,2416.1802,N,08109.9496,W,1,8,2.0,11,M,,M,,*50
06/16/2015	14:05:13.561	$GPGGA,140514,2416.1794,N,08109.9477,W,1,8,2.0,11,M,,M,,*58
06/16/2015	14:05:14.541	$GPGGA,140515,2416.1785,N,08109.9457,W,1,8,2.0,11,M,,M,,*5B
06/16/2015	14:05:15.541	$GPGGA,140516,2416.1776,N,08109.9440,W,1,8,2.0,11,M,,M,,*52
06/16/2015	14:05:16.541	$GPGGA,140517,2416.1767,N,08109.9423,W,1,8,2.0,11,M,,M,,*56
06/16/2015	14:05:17.561	$GPGGA,140518,2416.1758,N,08109.9403,W,1,8,2.0,11,M,,M,,*57
06/16/2015	14:05:18.531	$GPGGA,140519,2416.1750,N,08109.9385,W,1,8,2.0,11,M,,M,,*57
06/16/2015	14:05:20.522	$GPGGA,140520,2416.1741,N,08109.9367,W,1,8,2.0,11,M,,M,,*51
06/16/2015	14:05:20.552	$GPGGA,140521,2416.1733,N,08109.9347,W,1,8,2.0,11,M,,M,,*57
06/16/2015	14:05:21.562	$GPGGA,140522,2416.1725,N,08109.9328,W,1,8,2.0,11,M,,M,,*5A
06/16/2015	14:05:22.512	$GPGGA,140523,2416.1714,N,08109.9309,W,1,8,2.0,11,M,,M,,*5A
06/16/2015	14:05:23.522	$GPGGA,140524,2416.1705,N,08109.9289,W,1,8,2.0,11,M,,M,,*54
06/16/2015	14:05:24.521	$GPGGA,140525,2416.1696,N,08109.9269,W,1,8,2.0,11,M,,M,,*50
06/16/2015	14:05:25.521	$GPGGA,140526,2416.1687,N,08109.9249,W,1,8,2.0,11,M,,M,,*51
06/16/2015	14:05:26.511	$GPGGA,140527,2416.1678,N,08109.9230,W,1,8,2.0,11,M,,M,,*5E
06/16/2015	14:05:27.551	$GPGGA,140528,2416.1669,N,08109.9210,W,1,8,2.0,11,M,,M,,*53
06/16/2015	14:05:28.504	$GPGGA,140529,2416.1660,N,08109.9190,W,1,8,2.0,11,M,,M,,*50
06/16/2015	14:05:29.510	$GPGGA,140530,2416.1649,N,08109.9171,W,1,8,2.0,11,M,,M,,*5C
06/16/2015	14:05:30.516	$GPGGA,140531,2416.1640,N,08109.9150,W,1,8,2.0,11,M,,M,,*57
06/16/2015	14:05:31.531	$GPGGA,140532,2416.1632,N,08109.9130,W,1,8,2.0,11,M,,M,,*57
06/16/2015	14:05:32.505	$GPGGA,140533,2416.1620,N,08109.9111,W,1,8,2.0,11,M,,M,,*56
06/16/2015	14:05:33.510	$GPGGA,140534,2416.1613,N,08109.9090,W,1,8,2.0,11,M,,M,,*59
06/16/2015	14:05:34.481	$GPGGA,140535,2416.1604,N,08109.9069,W,1,8,2.0,11,M,,M,,*58
06/16/2015	14:05:35.512	$GPGGA,140536,2416.1595,N,08109.9050,W,1,8,2.0,11,M,,M,,*5A
06/16/2015	14:05:36.512	$GPGGA,140537,2416.1583,N,08109.9031,W,1,8,2.0,12,M,,M,,*58
06/16/2015	14:05:37.482	$GPGGA,140538,2416.1575,N,08109.9009,W,1,8,2.0,12,M,,M,,*55
06/16/2015	14:05:38.605	$GPGGA,140539,2416.1567,N,08109.8989,W,1,8,2.0,12,M,,M,,*57
06/16/2015	14:05:39.508	$GPGGA,140540,2416.1556,N,08109.8969,W,1,8,2.0,12,M,,M,,*55
06/16/2015	14:05:40.482	$GPGGA,140541,2416.1546,N,08109.8949,W,1,8,2.0,12,M,,M,,*57
06/16/2015	14:05:41.611	$GPGGA,140542,2416.1537,N,08109.8929,W,1,8,2.0,12,M,,M,,*54
06/16/2015	14:05:42.581	$GPGGA,140543,2416.1530,N,08109.8909,W,1,8,2.0,12,M,,M,,*50
06/16/2015	14:05:43.621	$GPGGA,140544,2416.1519,N,08109.8889,W,1,8,2.0,12,M,,M,,*55
06/16/2015	14:05:44.581	$GPGGA,140545,2416.1509,N,08109.8870,W,1,8,2.0,12,M,,M,,*53
06/16/2015	14:05:45.581	$GPGGA,140546,2416.1501,N,08109.8851,W,1,8,2.0,12,M,,M,,*5B
06/16/2015	14:05:46.571	$GPGGA,140547,2416.1491,N,08109.8830,W,1,8,2.2,12,M,,M,,*57
06/16/2015	14:05:47.581	$GPGGA,140548,2416.1481,N,08109.8811,W,1,8,2.0,12,M,,M,,*58
06/16/2015	14:05:48.561	$GPGGA,140549,2416.1473,N,08109.8794,W,1,8,2.0,12,M,,M,,*56
06/16/2015	14:05:49.581	$GPGGA,140550,2416.1463,N,08109.8775,W,1,7,2.2,12,M,,M,,*5D
06/16/2015	14:05:50.561	$GPGGA,140551,2416.1454,N,08109.8755,W,1,7,2.2,12,M,,M,,*5A
06/16/2015	14:05:51.593	$GPGGA,140552,2416.1447,N,08109.8737,W,1,8,2.0,12,M,,M,,*52
06/16/2015	14:05:52.551	$GPGGA,140553,2416.1437,N,08109.8719,W,1,8,2.0,12,M,,M,,*58
06/16/2015	14:05:53.552	$GPGGA,140554,2416.1427,N,08109.8700,W,1,7,2.2,12,M,,M,,*5B
06/16/2015	14:05:54.552	$GPGGA,140555,2416.1420,N,08109.8679,W,1,7,2.0,12,M,,M,,*50
06/16/2015	14:05:55.595	$GPGGA,140556,2416.1411,N,08109.8660,W,1,8,2.0,12,M,,M,,*56
06/16/2015	14:05:56.542	$GPGGA,140557,2416.1402,N,08109.8643,W,1,8,2.0,12,M,,M,,*54
06/16/2015	14:05:57.572	$GPGGA,140558,2416.1393,N,08109.8625,W,1,8,2.0,12,M,,M,,*54
06/16/2015	14:05:58.532	$GPGGA,140559,2416.1384,N,08109.8604,W,1,8,2.0,12,M,,M,,*50
06/16/2015	14:05:59.599	$GPGGA,140600,2416.1376,N,08109.8585,W,1,8,2.0,12,M,,M,,*58
06/16/2015	14:06:00.531	$GPGGA,140601,2416.1366,N,08109.8569,W,1,8,2.0,12,M,,M,,*5A
06/16/2015	14:06:01.551	$GPGGA,140602,2416.1357,N,08109.8548,W,1,8,2.0,12,M,,M,,*58
06/16/2015	14:06:02.531	$GPGGA,140603,2416.1348,N,08109.8528,W,1,8,2.2,12,M,,M,,*53
06/16/2015	14:06:03.541	$GPGGA,140604,2416.1339,N,08109.8511,W,1,8,2.0,12,M,,M,,*5A
06/16/2015	14:06:04.521	$GPGGA,140605,2416.1328,N,08109.8492,W,1,8,2.0,12,M,,M,,*51
06/16/2015	14:06:05.511	$GPGGA,140606,2416.1320,N,08109.8473,W,1,7,2.2,12,M,,M,,*58
06/16/2015	14:06:06.521	$GPGGA,140607,2416.1312,N,08109.8453,W,1,7,2.0,12,M,,M,,*58
06/16/2015	14:06:07.561	$GPGGA,140608,2416.1303,N,08109.8436,W,1,8,2.0,12,M,,M,,*5B
06/16/2015	14:06:08.501	$GPGGA,140609,2416.1292,N,08109.8419,W,1,8,2.0,12,M,,M,,*5E
06/16/2015	14:06:09.501	$GPGGA,140610,2416.1284,N,08109.8400,W,1,8,2.0,12,M,,M,,*59
06/16/2015	14:06:10.511	$GPGGA,140611,2416.1277,N,08109.8380,W,1,8,2.0,12,M,,M,,*5B
06/16/2015	14:06:11.541	$GPGGA,140612,2416.1266,N,08109.8363,W,1,8,2.0,12,M,,M,,*55
06/16/2015	14:06:12.511	$GPGGA,140613,2416.1255,N,08109.8344,W,1,8,2.0,12,M,,M,,*51
06/16/2015	14:06:13.501	$GPGGA,140614,2416.1248,N,08109.8324,W,1,7,2.2,12,M,,M,,*51
06/16/2015	14:06:14.501	$GPGGA,140615,2416.1241,N,08109.8304,W,1,7,2.0,12,M,,M,,*59
06/16/2015	14:06:15.541	$GPGGA,140616,2416.1230,N,08109.8287,W,1,8,2.0,12,M,,M,,*59
06/16/2015	14:06:16.650	$GPGGA,140617,2416.1219,N,08109.8268,W,1,8,2.0,12,M,,M,,*52
06/16/2015	14:06:17.620	$GPGGA,140618,2416.1212,N,08109.8246,W,1,8,2.0,12,M,,M,,*5A
06/16/2015	14:06:18.493	$GPGGA,140619,2416.1202,N,08109.8227,W,1,8,2.0,12,M,,M,,*5D
06/16/2015	14:06:19.520	$GPGGA,140620,2416.1192,N,08109.8210,W,1,8,2.0,12,M,,M,,*59
06/16/2015	14:06:20.499	$GPGGA,140621,2416.1182,N,08109.8190,W,1,8,2.0,13,M,,M,,*53
06/16/2015	14:06:21.501	$GPGGA,140622,2416.1174,N,08109.8170,W,1,8,2.0,13,M,,M,,*57
06/16/2015	14:06:22.493	$GPGGA,140623,2416.1165,N,08109.8150,W,1,8,2.0,13,M,,M,,*54
06/16/2015	14:06:23.501	$GPGGA,140624,2416.1156,N,08109.8132,W,1,8,2.0,13,M,,M,,*57
06/16/2015	14:06:24.471	$GPGGA,140625,2416.1147,N,08109.8113,W,1,8,2.0,13,M,,M,,*55
06/16/2015	14:06:25.491	$GPGGA,140626,2416.1137,N,08109.8093,W,1,8,2.0,13,M,,M,,*58
06/16/2015	14:06:26.571	$GPGGA,140627,2416.1129,N,08109.8073,W,1,8,2.0,13,M,,M,,*58
06/16/2015	14:06:27.641	$GPGGA,140628,2416.1119,N,08109.8054,W,1,8,2.0,13,M,,M,,*51
06/16/2015	14:06:28.631	$GPGGA,140629,2416.1109,N,08109.8035,W,1,8,2.0,13,M,,M,,*56
06/16/2015	14:06:29.583	$GPGGA,140630,2416.1101,N,08109.8013,W,1,8,2.0,13,M,,M,,*52
06/16/2015	14:06:30.631	$GPGGA,140631,2416.1093,N,08109.7993,W,1,8,2.0,13,M,,M,,*57
06/16/2015	14:06:31.641	$GPGGA,140632,2416.1083,N,08109.7974,W,1,8,2.0,13,M,,M,,*5C
06/16/2015	14:06:32.631	$GPGGA,140633,2416.1072,N,08109.7954,W,1,8,2.0,13,M,,M,,*51
06/16/2015	14:06:33.591	$GPGGA,140634,2416.1064,N,08109.7934,W,1,8,2.0,14,M,,M,,*50
06/16/2015	14:06:34.550	$GPGGA,140635,2416.1057,N,08109.7914,W,1,8,2.0,14,M,,M,,*53
06/16/2015	14:06:35.650	$GPGGA,140636,2416.1046,N,08109.7894,W,1,8,2.0,14,M,,M,,*59
06/16/2015	14:06:36.620	$GPGGA,140637,2416.1035,N,08109.7874,W,1,8,2.0,14,M,,M,,*52
06/16/2015	14:06:37.583	$GPGGA,140638,2416.1026,N,08109.7855,W,1,8,2.0,14,M,,M,,*5C
06/16/2015	14:06:38.594	$GPGGA,140639,2416.1018,N,08109.7834,W,1,8,2.0,14,M,,M,,*57
06/16/2015	14:06:39.631	$GPGGA,140640,2416.1010,N,08109.7813,W,1,8,2.0,14,M,,M,,*54
06/16/2015	14:06:40.611	$GPGGA,140641,2416.0999,N,08109.7795,W,1,8,2.0,14,M,,M,,*5D
06/16/2015	14:06:41.584	$GPGGA,140642,2416.0989,N,08109.7775,W,1,8,2.0,14,M,,M,,*51
06/16/2015	14:06:42.531	$GPGGA,140643,2416.0981,N,08109.7753,W,1,8,2.0,14,M,,M,,*5C
06/16/2015	14:06:43.581	$GPGGA,140644,2416.0971,N,08109.7731,W,1,7,2.2,14,M,,M,,*5D
06/16/2015	14:06:44.601	$GPGGA,140645,2416.0960,N,08109.7712,W,1,7,2.0,14,M,,M,,*5F
06/16/2015	14:06:45.571	$GPGGA,140646,2416.0953,N,08109.7694,W,1,8,2.0,14,M,,M,,*5C
06/16/2015	14:06:46.591	$GPGGA,140647,2416.0945,N,08109.7673,W,1,8,2.0,14,M,,M,,*53
06/16/2015	14:06:47.585	$GPGGA,140648,2416.0934,N,08109.7653,W,1,8,2.0,14,M,,M,,*58
06/16/2015	14:06:48.521	$GPGGA,140649,2416.0927,N,08109.7635,W,1,8,2.0,14,M,,M,,*5B
06/16/2015	14:06:49.571	$GPGGA,140650,2416.0917,N,08109.7613,W,1,8,2.0,14,M,,M,,*54
06/16/2015	14:06:50.511	$GPGGA,140651,2416.0909,N,08109.7595,W,1,8,2.0,14,M,,M,,*57
06/16/2015	14:06:51.570	$GPGGA,140652,2416.0899,N,08109.7578,W,1,8,2.0,14,M,,M,,*5F
06/16/2015	14:06:52.570	$GPGGA,140653,2416.0891,N,08109.7557,W,1,8,2.0,14,M,,M,,*5B
06/16/2015	14:06:53.560	$GPGGA,140654,2416.0883,N,08109.7536,W,1,8,2.0,14,M,,M,,*58
06/16/2015	14:06:54.500	$GPGGA,140655,2416.0873,N,08109.7520,W,1,8,2.0,14,M,,M,,*51
06/16/2015	14:06:55.560	$GPGGA,140656,2416.0864,N,08109.7501,W,1,8,2.0,14,M,,M,,*57
06/16/2015	14:06:56.585	$GPGGA,140657,2416.0856,N,08109.7479,W,1,8,2.0,14,M,,M,,*59
06/16/2015	14:06:57.551	$GPGGA,140658,2416.0847,N,08109.7459,W,1,8,2.0,14,M,,M,,*54
06/16/2015	14:06:58.521	$GPGGA,140659,2416.0840,N,08109.7443,W,1,8,2.0,14,M,,M,,*59
06/16/2015	14:06:59.571	$GPGGA,140700,2416.0829,N,08109.7423,W,1,8,2.0,14,M,,M,,*5D
06/16/2015	14:07:00.551	$GPGGA,140701,2416.0822,N,08109.7402,W,1,8,2.0,14,M,,M,,*54
06/16/2015	14:07:01.495	$GPGGA,140702,2416.0812,N,08109.7385,W,1,8,2.0,14,M,,M,,*5C
06/16/2015	14:07:02.495	$GPGGA,140703,2416.0802,N,08109.7367,W,1,8,2.0,14,M,,M,,*50
06/16/2015	14:07:03.561	$GPGGA,140704,2416.0794,N,08109.7346,W,1,8,2.0,14,M,,M,,*54
06/16/2015	14:07:04.541	$GPGGA,140705,2416.0787,N,08109.7327,W,1,8,2.0,14,M,,M,,*50
06/16/2015	14:07:05.511	$GPGGA,140706,2416.0777,N,08109.7309,W,1,8,2.0,14,M,,M,,*50
06/16/2015	14:07:06.551	$GPGGA,140707,2416.0768,N,08109.7290,W,1,8,2.0,14,M,,M,,*5E
06/16/2015	14:07:07.561	$GPGGA,140708,2416.0761,N,08109.7270,W,1,8,2.0,14,M,,M,,*56
06/16/2015	14:07:08.531	$GPGGA,140709,2416.0753,N,08109.7249,W,1,8,2.0,14,M,,M,,*5C
06/16/2015	14:07:09.500	$GPGGA,140710,2416.0743,N,08109.7232,W,1,8,2.0,14,M,,M,,*59
06/16/2015	14:07:10.580	$GPGGA,140711,2416.0734,N,08109.7215,W,1,8,2.0,13,M,,M,,*5A
06/16/2015	14:07:11.610	$GPGGA,140712,2416.0728,N,08109.7192,W,1,8,2.0,13,M,,M,,*58
06/16/2015	14:07:12.540	$GPGGA,140713,2416.0721,N,08109.7175,W,1,8,2.0,13,M,,M,,*59
06/16/2015	14:07:13.581	$GPGGA,140714,2416.0710,N,08109.7157,W,1,8,2.0,13,M,,M,,*5C
06/16/2015	14:07:15.541	$GPGGA,140715,2416.0701,N,08109.7137,W,1,8,2.0,13,M,,M,,*5B
06/16/2015	14:07:15.571	$GPGGA,140716,2416.0694,N,08109.7118,W,1,8,2.0,13,M,,M,,*58
06/16/2015	14:07:16.561	$GPGGA,140717,2416.0685,N,08109.7100,W,1,8,2.0,13,M,,M,,*50
06/16/2015	14:07:17.571	$GPGGA,140718,2416.0675,N,08109.7082,W,1,8,2.0,13,M,,M,,*5B
06/16/2015	14:07:18.552	$GPGGA,140719,2416.0667,N,08109.7062,W,1,8,2.0,13,M,,M,,*57
06/16/2015	14:07:19.561	$GPGGA,140720,2416.0659,N,08109.7043,W,1,8,2.0,13,M,,M,,*53
06/16/2015	14:07:20.561	$GPGGA,140721,2416.0650,N,08109.7025,W,1,8,2.0,13,M,,M,,*5B
06/16/2015	14:07:21.584	$GPGGA,140722,2416.0641,N,08109.7006,W,1,8,2.0,13,M,,M,,*59
06/16/2015	14:07:22.571	$GPGGA,140723,2416.0632,N,08109.6987,W,1,8,2.0,13,M,,M,,*5D
06/16/2015	14:07:23.561	$GPGGA,140724,2416.0624,N,08109.6968,W,1,8,2.0,13,M,,M,,*5C
06/16/2015	14:07:24.551	$GPGGA,140725,2416.0616,N,08109.6948,W,1,8,2.0,13,M,,M,,*5E
06/16/2015	14:07:25.582	$GPGGA,140726,2416.0606,N,08109.6929,W,1,8,2.0,13,M,,M,,*5B
06/16/2015	14:07:26.550	$GPGGA,140727,2416.0598,N,08109.6910,W,1,8,2.0,13,M,,M,,*54
06/16/2015	14:07:27.901	$GPGGA,140728,2416.0591,N,08109.6891,W,1,8,2.0,13,M,,M,,*5A
06/16/2015	14:07:28.570	$GPGGA,140729,2416.0581,N,08109.6870,W,1,8,2.0,13,M,,M,,*55
06/16/2015	14:07:29.560	$GPGGA,140730,2416.0571,N,08109.6852,W,1,8,2.0,13,M,,M,,*52
06/16/2015	14:07:30.550	$GPGGA,140731,2416.0562,N,08109.6834,W,1,8,2.0,13,M,,M,,*51
06/16/2015	14:07:31.571	$GPGGA,140732,2416.0555,N,08109.6813,W,1,8,2.0,13,M,,M,,*53
06/16/2015	14:07:32.551	$GPGGA,140733,2416.0545,N,08109.6792,W,1,8,2.0,13,M,,M,,*55
06/16/2015	14:07:33.541	$GPGGA,140734,2416.0536,N,08109.6775,W,1,8,2.0,13,M,,M,,*5F
06/16/2015	14:07:34.541	$GPGGA,140735,2416.0528,N,08109.6757,W,1,8,2.0,13,M,,M,,*51
06/16/2015	14:07:35.601	$GPGGA,140736,2416.0519,N,08109.6735,W,1,8,2.0,13,M,,M,,*54
06/16/2015	14:07:36.551	$GPGGA,140737,2416.0512,N,08109.6716,W,1,8,2.0,13,M,,M,,*5F
06/16/2015	14:07:37.541	$GPGGA,140738,2416.0504,N,08109.6700,W,1,8,2.0,13,M,,M,,*50
06/16/2015	14:07:38.561	$GPGGA,140739,2416.0494,N,08109.6680,W,1,8,2.0,13,M,,M,,*50
06/16/2015	14:07:39.541	$GPGGA,140740,2416.0487,N,08109.6661,W,1,8,2.0,13,M,,M,,*53
06/16/2015	14:07:40.521	$GPGGA,140741,2416.0487,N,08109.6661,W,1,8,2.0,13,M,,M,,*52
06/16/2015	14:07:41.541	$GPGGA,140742,2416.0470,N,08109.6624,W,1,8,2.0,13,M,,M,,*58
06/16/2015	14:07:42.521	$GPGGA,140743,2416.0470,N,08109.6624,W,1,8,2.0,13,M,,M,,*59
06/16/2015	14:07:43.551	$GPGGA,140744,2416.0453,N,08109.6587,W,1,8,2.0,13,M,,M,,*55
06/16/2015	14:07:44.550	$GPGGA,140745,2416.0445,N,08109.6568,W,1,8,2.0,13,M,,M,,*52
06/16/2015	14:07:45.530	$GPGGA,140746,2416.0445,N,08109.6568,W,1,8,2.0,13,M,,M,,*51
06/16/2015	14:07:46.520	$GPGGA,140747,2416.0436,N,08109.6550,W,1,8,2.0,13,M,,M,,*5F
06/16/2015	14:07:47.520	$GPGGA,140748,2416.0418,N,08109.6512,W,1,8,2.0,13,M,,M,,*5A
06/16/2015	14:07:48.540	$GPGGA,140749,2416.0411,N,08109.6492,W,1,8,2.0,13,M,,M,,*5B
06/16/2015	14:07:49.531	$GPGGA,140750,2416.0401,N,08109.6473,W,1,8,2.0,13,M,,M,,*5D
06/16/2015	14:07:50.601	$GPGGA,140751,2416.0392,N,08109.6455,W,1,8,2.0,13,M,,M,,*55
06/16/2015	14:07:51.521	$GPGGA,140752,2416.0383,N,08109.6435,W,1,8,2.0,13,M,,M,,*50
06/16/2015	14:07:52.495	$GPGGA,140753,2416.0375,N,08109.6414,W,1,8,2.2,13,M,,M,,*59
06/16/2015	14:07:53.501	$GPGGA,140754,2416.0367,N,08109.6397,W,1,8,2.0,13,M,,M,,*53
06/16/2015	14:07:54.491	$GPGGA,140755,2416.0367,N,08109.6397,W,1,8,2.0,13,M,,M,,*52
06/16/2015	14:07:55.592	$GPGGA,140756,2416.0349,N,08109.6362,W,1,8,2.0,13,M,,M,,*57
06/16/2015	14:07:56.501	$GPGGA,140757,2416.0349,N,08109.6362,W,1,8,2.0,13,M,,M,,*56
06/16/2015	14:07:57.611	$GPGGA,140758,2416.0333,N,08109.6326,W,1,8,2.0,13,M,,M,,*54
06/16/2015	14:07:58.511	$GPGGA,140759,2416.0333,N,08109.6326,W,1,8,2.0,13,M,,M,,*55
06/16/2015	14:07:59.501	$GPGGA,140800,2416.0316,N,08109.6289,W,1,8,2.0,13,M,,M,,*55
06/16/2015	14:08:00.491	$GPGGA,140801,2416.0316,N,08109.6289,W,1,8,2.0,13,M,,M,,*54
06/16/2015	14:08:01.470	$GPGGA,140802,2416.0298,N,08109.6252,W,1,8,2.0,13,M,,M,,*56
06/16/2015	14:08:02.560	$GPGGA,140803,2416.0288,N,08109.6234,W,1,8,2.2,13,M,,M,,*54
06/16/2015	14:08:03.560	$GPGGA,140804,2416.0280,N,08109.6213,W,1,8,2.0,13,M,,M,,*5C
06/16/2015	14:08:04.560	$GPGGA,140805,2416.0273,N,08109.6196,W,1,8,2.0,13,M,,M,,*5F
06/16/2015	14:08:05.550	$GPGGA,140806,2416.0262,N,08109.6178,W,1,8,2.0,13,M,,M,,*5C
06/16/2015	14:08:06.551	$GPGGA,140807,2416.0253,N,08109.6158,W,1,8,2.2,14,M,,M,,*58
06/16/2015	14:08:07.571	$GPGGA,140808,2416.0248,N,08109.6142,W,1,8,2.0,14,M,,M,,*54
06/16/2015	14:08:08.561	$GPGGA,140809,2416.0239,N,08109.6124,W,1,8,2.0,14,M,,M,,*53
06/16/2015	14:08:09.551	$GPGGA,140810,2416.0230,N,08109.6105,W,1,8,2.0,14,M,,M,,*51
06/16/2015	14:08:10.551	$GPGGA,140811,2416.0223,N,08109.6089,W,1,8,2.0,14,M,,M,,*57
06/16/2015	14:08:11.593	$GPGGA,140812,2416.0215,N,08109.6072,W,1,8,2.0,14,M,,M,,*55
06/16/2015	14:08:12.551	$GPGGA,140813,2416.0208,N,08109.6052,W,1,8,2.0,14,M,,M,,*5A
06/16/2015	14:08:13.561	$GPGGA,140814,2416.0201,N,08109.6034,W,1,8,2.0,14,M,,M,,*54
06/16/2015	14:08:14.551	$GPGGA,140815,2416.0190,N,08109.6017,W,1,8,2.0,14,M,,M,,*5F
06/16/2015	14:08:15.571	$GPGGA,140816,2416.0181,N,08109.5998,W,1,8,2.0,14,M,,M,,*51
06/16/2015	14:08:16.541	$GPGGA,140817,2416.0174,N,08109.5978,W,1,8,2.0,14,M,,M,,*54
06/16/2015	14:08:17.551	$GPGGA,140818,2416.0166,N,08109.5960,W,1,8,2.0,14,M,,M,,*51
06/16/2015	14:08:18.531	$GPGGA,140819,2416.0155,N,08109.5940,W,1,8,2.0,14,M,,M,,*52
06/16/2015	14:08:19.540	$GPGGA,140820,2416.0145,N,08109.5920,W,1,7,2.2,14,M,,M,,*52
06/16/2015	14:08:20.530	$GPGGA,140821,2416.0139,N,08109.5899,W,1,7,2.2,14,M,,M,,*5B
06/16/2015	14:08:21.540	$GPGGA,140822,2416.0128,N,08109.5879,W,1,7,2.2,14,M,,M,,*56
06/16/2015	14:08:22.520	$GPGGA,140823,2416.0118,N,08109.5861,W,1,7,2.0,14,M,,M,,*5F
06/16/2015	14:08:23.520	$GPGGA,140824,2416.0110,N,08109.5844,W,1,8,2.0,14,M,,M,,*58
06/16/2015	14:08:24.521	$GPGGA,140825,2416.0103,N,08109.5824,W,1,8,2.0,14,M,,M,,*5D
06/16/2015	14:08:25.551	$GPGGA,140826,2416.0094,N,08109.5805,W,1,8,2.0,14,M,,M,,*52
06/16/2015	14:08:27.551	$GPGGA,140828,2416.0075,N,08109.5769,W,1,8,2.0,14,M,,M,,*56
06/16/2015	14:08:28.501	$GPGGA,140829,2416.0068,N,08109.5749,W,1,8,2.0,14,M,,M,,*59
06/16/2015	14:08:29.531	$GPGGA,140830,2416.0060,N,08109.5730,W,1,8,2.0,14,M,,M,,*57
06/16/2015	14:08:30.501	$GPGGA,140831,2416.0049,N,08109.5713,W,1,8,2.0,14,M,,M,,*5C
06/16/2015	14:08:31.521	$GPGGA,140832,2416.0042,N,08109.5694,W,1,8,2.0,14,M,,M,,*5A
06/16/2015	14:08:32.497	$GPGGA,140833,2416.0032,N,08109.5674,W,1,8,2.0,14,M,,M,,*52
06/16/2015	14:08:33.501	$GPGGA,140834,2416.0022,N,08109.5657,W,1,8,2.0,14,M,,M,,*55
06/16/2015	14:08:34.511	$GPGGA,140835,2416.0014,N,08109.5639,W,1,8,2.0,14,M,,M,,*59
06/16/2015	14:08:35.531	$GPGGA,140836,2416.0005,N,08109.5619,W,1,8,2.0,14,M,,M,,*58
06/16/2015	14:08:36.500	$GPGGA,140837,2415.9995,N,08109.5602,W,1,8,2.0,14,M,,M,,*59
06/16/2015	14:08:37.620	$GPGGA,140838,2415.9986,N,08109.5582,W,1,8,2.0,14,M,,M,,*5F
06/16/2015	14:08:38.510	$GPGGA,140839,2415.9978,N,08109.5563,W,1,8,2.0,14,M,,M,,*50
06/16/2015	14:08:39.510	$GPGGA,140840,2415.9969,N,08109.5544,W,1,8,2.0,14,M,,M,,*5B
06/16/2015	14:08:40.495	$GPGGA,140841,2415.9959,N,08109.5525,W,1,8,2.0,14,M,,M,,*5E
06/16/2015	14:08:41.499	$GPGGA,140842,2415.9950,N,08109.5506,W,1,8,2.0,14,M,,M,,*55
06/16/2015	14:08:42.494	$GPGGA,140843,2415.9942,N,08109.5485,W,1,8,2.0,14,M,,M,,*5D
06/16/2015	14:08:43.511	$GPGGA,140844,2415.9932,N,08109.5467,W,1,8,2.0,14,M,,M,,*51
06/16/2015	14:08:44.571	$GPGGA,140845,2415.9923,N,08109.5449,W,1,8,2.0,15,M,,M,,*5D
06/16/2015	14:08:45.571	$GPGGA,140846,2415.9915,N,08109.5428,W,1,8,2.0,15,M,,M,,*5C
06/16/2015	14:08:46.494	$GPGGA,140847,2415.9905,N,08109.5409,W,1,8,2.0,15,M,,M,,*5F
06/16/2015	14:08:47.501	$GPGGA,140848,2415.9897,N,08109.5390,W,1,8,2.0,15,M,,M,,*5D
06/16/2015	14:08:48.561	$GPGGA,140849,2415.9888,N,08109.5369,W,1,8,2.0,15,M,,M,,*54
06/16/2015	14:08:49.589	$GPGGA,140850,2415.9879,N,08109.5351,W,1,8,2.0,15,M,,M,,*59
06/16/2015	14:08:50.551	$GPGGA,140851,2415.9868,N,08109.5331,W,1,8,2.0,15,M,,M,,*5E
06/16/2015	14:08:51.571	$GPGGA,140852,2415.9859,N,08109.5311,W,1,8,2.0,15,M,,M,,*5D
06/16/2015	14:08:52.551	$GPGGA,140853,2415.9850,N,08109.5291,W,1,8,2.0,15,M,,M,,*5C
06/16/2015	14:08:53.561	$GPGGA,140854,2415.9840,N,08109.5270,W,1,8,2.0,15,M,,M,,*55
06/16/2015	14:08:54.560	$GPGGA,140855,2415.9832,N,08109.5251,W,1,8,2.0,15,M,,M,,*52
06/16/2015	14:08:55.600	$GPGGA,140856,2415.9821,N,08109.5232,W,1,8,2.0,15,M,,M,,*56
06/16/2015	14:08:56.540	$GPGGA,140857,2415.9812,N,08109.5211,W,1,8,2.0,15,M,,M,,*56
06/16/2015	14:08:57.540	$GPGGA,140858,2415.9803,N,08109.5190,W,1,8,2.0,15,M,,M,,*53
06/16/2015	14:08:58.550	$GPGGA,140859,2415.9792,N,08109.5172,W,1,8,2.0,15,M,,M,,*59
06/16/2015	14:08:59.601	$GPGGA,140900,2415.9785,N,08109.5151,W,1,8,2.0,15,M,,M,,*53
06/16/2015	14:09:00.541	$GPGGA,140901,2415.9775,N,08109.5129,W,1,8,2.0,15,M,,M,,*52
06/16/2015	14:09:01.551	$GPGGA,140902,2415.9765,N,08109.5111,W,1,8,2.0,15,M,,M,,*5B
06/16/2015	14:09:02.531	$GPGGA,140903,2415.9755,N,08109.5092,W,1,8,2.0,15,M,,M,,*53
06/16/2015	14:09:03.561	$GPGGA,140904,2415.9746,N,08109.5069,W,1,8,2.0,15,M,,M,,*52
06/16/2015	14:09:04.531	$GPGGA,140905,2415.9738,N,08109.5047,W,1,8,2.0,15,M,,M,,*56
06/16/2015	14:09:05.521	$GPGGA,140906,2415.9728,N,08109.5029,W,1,7,2.2,15,M,,M,,*51
06/16/2015	14:09:06.531	$GPGGA,140907,2415.9720,N,08109.5009,W,1,7,2.0,15,M,,M,,*58
06/16/2015	14:09:07.551	$GPGGA,140908,2415.9713,N,08109.4988,W,1,8,2.0,15,M,,M,,*59
06/16/2015	14:09:08.521	$GPGGA,140909,2415.9703,N,08109.4966,W,1,8,2.0,15,M,,M,,*59
06/16/2015	14:09:09.551	$GPGGA,140910,2415.9692,N,08109.4946,W,1,7,2.2,15,M,,M,,*57
06/16/2015	14:09:10.521	$GPGGA,140911,2415.9682,N,08109.4926,W,1,7,2.2,15,M,,M,,*51
06/16/2015	14:09:11.560	$GPGGA,140912,2415.9674,N,08109.4904,W,1,8,2.0,15,M,,M,,*56
06/16/2015	14:09:12.520	$GPGGA,140913,2415.9666,N,08109.4882,W,1,8,2.2,15,M,,M,,*59
06/16/2015	14:09:13.540	$GPGGA,140914,2415.9655,N,08109.4863,W,1,7,2.2,15,M,,M,,*5E
06/16/2015	14:09:14.520	$GPGGA,140915,2415.9648,N,08109.4846,W,1,7,2.0,15,M,,M,,*56
06/16/2015	14:09:15.530	$GPGGA,140916,2415.9639,N,08109.4825,W,1,8,2.0,15,M,,M,,*59
06/16/2015	14:09:16.501	$GPGGA,140917,2415.9630,N,08109.4805,W,1,8,2.0,15,M,,M,,*53
06/16/2015	14:09:17.501	$GPGGA,140918,2415.9621,N,08109.4788,W,1,8,2.0,15,M,,M,,*56
06/16/2015	14:09:18.621	$GPGGA,140919,2415.9612,N,08109.4770,W,1,8,2.0,15,M,,M,,*50
06/16/2015	14:09:19.621	$GPGGA,140920,2415.9604,N,08109.4749,W,1,8,2.0,15,M,,M,,*57
06/16/2015	14:09:20.621	$GPGGA,140921,2415.9596,N,08109.4731,W,1,8,2.0,15,M,,M,,*51
06/16/2015	14:09:21.501	$GPGGA,140922,2415.9585,N,08109.4715,W,1,8,2.0,15,M,,M,,*56
06/16/2015	14:09:22.501	$GPGGA,140923,2415.9576,N,08109.4696,W,1,8,2.1,15,M,,M,,*50
06/16/2015	14:09:23.621	$GPGGA,140924,2415.9567,N,08109.4676,W,1,8,2.0,15,M,,M,,*58
06/16/2015	14:09:24.482	$GPGGA,140925,2415.9557,N,08109.4659,W,1,8,2.0,15,M,,M,,*57
06/16/2015	14:09:25.488	$GPGGA,140926,2415.9547,N,08109.4641,W,1,8,2.0,15,M,,M,,*5C
06/16/2015	14:09:26.501	$GPGGA,140927,2415.9538,N,08109.4621,W,1,8,2.0,15,M,,M,,*53
06/16/2015	14:09:27.492	$GPGGA,140928,2415.9529,N,08109.4602,W,1,8,2.0,15,M,,M,,*5D
06/16/2015	14:09:28.571	$GPGGA,140929,2415.9519,N,08109.4586,W,1,8,2.0,15,M,,M,,*50
06/16/2015	14:09:29.600	$GPGGA,140930,2415.9508,N,08109.4566,W,1,8,2.0,15,M,,M,,*56
06/16/2015	14:09:30.486	$GPGGA,140931,2415.9500,N,08109.4546,W,1,8,2.2,15,M,,M,,*5F
06/16/2015	14:09:31.588	$GPGGA,140932,2415.9491,N,08109.4527,W,1,8,2.0,15,M,,M,,*50
06/16/2015	14:09:32.480	$GPGGA,140933,2415.9479,N,08109.4509,W,1,8,2.0,15,M,,M,,*5B
06/16/2015	14:09:33.591	$GPGGA,140934,2415.9469,N,08109.4490,W,1,8,2.0,15,M,,M,,*5C
06/16/2015	14:09:34.571	$GPGGA,140935,2415.9462,N,08109.4470,W,1,8,2.3,15,M,,M,,*5B
06/16/2015	14:09:35.571	$GPGGA,140936,2415.9453,N,08109.4450,W,1,8,2.0,14,M,,M,,*5A
06/16/2015	14:09:36.571	$GPGGA,140937,2415.9442,N,08109.4433,W,1,8,2.0,14,M,,M,,*5E
06/16/2015	14:09:37.551	$GPGGA,140938,2415.9433,N,08109.4415,W,1,8,2.0,14,M,,M,,*53
06/16/2015	14:09:38.561	$GPGGA,140939,2415.9426,N,08109.4395,W,1,8,2.0,14,M,,M,,*59
06/16/2015	14:09:39.601	$GPGGA,140940,2415.9417,N,08109.4375,W,1,8,2.0,15,M,,M,,*5A
06/16/2015	14:09:40.551	$GPGGA,140941,2415.9407,N,08109.4357,W,1,8,2.0,15,M,,M,,*5A
06/16/2015	14:09:41.591	$GPGGA,140942,2415.9398,N,08109.4337,W,1,8,2.0,15,M,,M,,*5E
06/16/2015	14:09:42.551	$GPGGA,140943,2415.9389,N,08109.4319,W,1,8,2.0,15,M,,M,,*53
06/16/2015	14:09:43.581	$GPGGA,140944,2415.9380,N,08109.4298,W,1,8,2.0,15,M,,M,,*55
06/16/2015	14:09:44.551	$GPGGA,140945,2415.9371,N,08109.4277,W,1,8,2.0,15,M,,M,,*5B
06/16/2015	14:09:45.541	$GPGGA,140946,2415.9362,N,08109.4259,W,1,8,2.0,15,M,,M,,*56
06/16/2015	14:09:46.550	$GPGGA,140947,2415.9352,N,08109.4239,W,1,8,2.0,15,M,,M,,*52
06/16/2015	14:09:47.570	$GPGGA,140948,2415.9343,N,08109.4217,W,1,8,2.0,15,M,,M,,*51
06/16/2015	14:09:48.540	$GPGGA,140949,2415.9334,N,08109.4196,W,1,8,2.0,15,M,,M,,*5A
06/16/2015	14:09:49.560	$GPGGA,140950,2415.9325,N,08109.4180,W,1,7,2.3,15,M,,M,,*59
06/16/2015	14:09:50.540	$GPGGA,140951,2415.9317,N,08109.4161,W,1,7,2.0,15,M,,M,,*55
06/16/2015	14:09:51.571	$GPGGA,140952,2415.9309,N,08109.4140,W,1,8,2.0,15,M,,M,,*55
06/16/2015	14:09:52.531	$GPGGA,140953,2415.9299,N,08109.4121,W,1,8,2.0,15,M,,M,,*5B
06/16/2015	14:09:53.551	$GPGGA,140954,2415.9291,N,08109.4102,W,1,8,2.0,15,M,,M,,*55
06/16/2015	14:09:54.531	$GPGGA,140955,2415.9283,N,08109.4082,W,1,8,2.0,15,M,,M,,*5E
06/16/2015	14:09:55.551	$GPGGA,140956,2415.9273,N,08109.4062,W,1,8,2.0,15,M,,M,,*5C
06/16/2015	14:09:56.521	$GPGGA,140957,2415.9266,N,08109.4040,W,1,8,2.0,15,M,,M,,*59
06/16/2015	14:09:57.551	$GPGGA,140958,2415.9255,N,08109.4018,W,1,7,2.3,15,M,,M,,*57
06/16/2015	14:09:58.531	$GPGGA,140959,2415.9245,N,08109.3997,W,1,7,2.3,15,M,,M,,*5E
06/16/2015	14:09:59.561	$GPGGA,141000,2415.9237,N,08109.3977,W,1,8,2.0,15,M,,M,,*5D
06/16/2015	14:10:00.521	$GPGGA,141001,2415.9229,N,08109.3955,W,1,8,2.0,15,M,,M,,*53
06/16/2015	14:10:01.511	$GPGGA,141002,2415.9218,N,08109.3936,W,1,8,2.0,15,M,,M,,*57
06/16/2015	14:10:02.504	$GPGGA,141003,2415.9209,N,08109.3918,W,1,8,2.0,15,M,,M,,*5A
06/16/2015	14:10:03.531	$GPGGA,141004,2415.9201,N,08109.3898,W,1,8,2.0,15,M,,M,,*5C
06/16/2015	14:10:04.500	$GPGGA,141005,2415.9193,N,08109.3877,W,1,8,2.0,15,M,,M,,*54
06/16/2015	14:10:05.510	$GPGGA,141006,2415.9183,N,08109.3858,W,1,8,2.0,15,M,,M,,*5B
06/16/2015	14:10:06.610	$GPGGA,141007,2415.9173,N,08109.3840,W,1,8,2.0,15,M,,M,,*5C
06/16/2015	14:10:07.600	$GPGGA,141008,2415.9165,N,08109.3821,W,1,8,2.0,15,M,,M,,*53
06/16/2015	14:10:08.585	$GPGGA,141009,2415.9156,N,08109.3800,W,1,8,2.0,15,M,,M,,*51
06/16/2015	14:10:09.621	$GPGGA,141010,2415.9147,N,08109.3779,W,1,8,2.0,15,M,,M,,*58
06/16/2015	14:10:10.501	$GPGGA,141011,2415.9138,N,08109.3762,W,1,8,2.0,15,M,,M,,*5B
06/16/2015	14:10:11.601	$GPGGA,141012,2415.9129,N,08109.3743,W,1,8,2.0,15,M,,M,,*5B
06/16/2015	14:10:12.501	$GPGGA,141013,2415.9119,N,08109.3722,W,1,8,2.0,15,M,,M,,*5E
06/16/2015	14:10:13.593	$GPGGA,141014,2415.9111,N,08109.3701,W,1,8,2.0,15,M,,M,,*50
06/16/2015	14:10:14.494	$GPGGA,141015,2415.9102,N,08109.3683,W,1,8,2.3,15,M,,M,,*5B
06/16/2015	14:10:15.594	$GPGGA,141016,2415.9091,N,08109.3665,W,1,8,2.0,15,M,,M,,*58
06/16/2015	14:10:16.571	$GPGGA,141017,2415.9084,N,08109.3643,W,1,8,2.0,14,M,,M,,*58
06/16/2015	14:10:17.571	$GPGGA,141018,2415.9077,N,08109.3621,W,1,8,2.0,14,M,,M,,*5F
06/16/2015	14:10:18.484	$GPGGA,141019,2415.9066,N,08109.3604,W,1,8,2.3,14,M,,M,,*5A
06/16/2015	14:10:19.583	$GPGGA,141020,2415.9055,N,08109.3584,W,1,8,2.0,14,M,,M,,*58
06/16/2015	14:10:20.561	$GPGGA,141021,2415.9049,N,08109.3563,W,1,8,2.0,14,M,,M,,*5D
06/16/2015	14:10:21.590	$GPGGA,141022,2415.9042,N,08109.3543,W,1,8,2.0,14,M,,M,,*57
06/16/2015	14:10:22.560	$GPGGA,141023,2415.9031,N,08109.3525,W,1,8,2.0,14,M,,M,,*52
06/16/2015	14:10:23.580	$GPGGA,141024,2415.9023,N,08109.3506,W,1,8,2.0,14,M,,M,,*57
06/16/2015	14:10:24.597	$GPGGA,141025,2415.9016,N,08109.3487,W,1,8,2.0,14,M,,M,,*58
06/16/2015	14:10:25.550	$GPGGA,141026,2415.9007,N,08109.3465,W,1,8,2.0,14,M,,M,,*57
06/16/2015	14:10:26.561	$GPGGA,141027,2415.8998,N,08109.3448,W,1,8,2.3,14,M,,M,,*54
06/16/2015	14:10:27.571	$GPGGA,141028,2415.8989,N,08109.3428,W,1,8,2.0,14,M,,M,,*5E
06/16/2015	14:10:28.551	$GPGGA,141029,2415.8983,N,08109.3409,W,1,8,2.0,14,M,,M,,*56
06/16/2015	14:10:29.551	$GPGGA,141030,2415.8973,N,08109.3389,W,1,8,2.0,14,M,,M,,*5E
06/16/2015	14:10:30.551	$GPGGA,141031,2415.8963,N,08109.3370,W,1,8,2.0,14,M,,M,,*58
06/16/2015	14:10:31.571	$GPGGA,141032,2415.8954,N,08109.3350,W,1,8,2.0,14,M,,M,,*5D
06/16/2015	14:10:33.052	$GPGGA,141033,2415.8947,N,08109.3330,W,1,8,2.0,14,M,,M,,*58
06/16/2015	14:10:33.561	$GPGGA,141034,2415.8938,N,08109.3310,W,1,8,2.0,14,M,,M,,*55
06/16/2015	14:10:34.541	$GPGGA,141035,2415.8929,N,08109.3290,W,1,8,2.0,14,M,,M,,*5D
06/16/2015	14:10:35.571	$GPGGA,141036,2415.8919,N,08109.3272,W,1,8,2.0,14,M,,M,,*51
06/16/2015	14:10:36.541	$GPGGA,141037,2415.8911,N,08109.3251,W,1,8,2.0,14,M,,M,,*59
06/16/2015	14:10:37.561	$GPGGA,141038,2415.8904,N,08109.3229,W,1,8,2.0,14,M,,M,,*5D
06/16/2015	14:10:38.521	$GPGGA,141039,2415.8893,N,08109.3211,W,1,8,2.0,14,M,,M,,*58
06/16/2015	14:10:39.560	$GPGGA,141040,2415.8884,N,08109.3192,W,1,8,2.0,14,M,,M,,*58
06/16/2015	14:10:40.530	$GPGGA,141041,2415.8875,N,08109.3170,W,1,8,2.0,14,M,,M,,*5B
06/16/2015	14:10:41.520	$GPGGA,141042,2415.8867,N,08109.3149,W,1,8,2.0,14,M,,M,,*51
06/16/2015	14:10:42.520	$GPGGA,141043,2415.8857,N,08109.3132,W,1,8,2.3,14,M,,M,,*5C
06/16/2015	14:10:43.560	$GPGGA,141044,2415.8847,N,08109.3111,W,1,8,2.0,14,M,,M,,*58
06/16/2015	14:10:44.511	$GPGGA,141045,2415.8840,N,08109.3089,W,1,8,2.0,14,M,,M,,*5E
06/16/2015	14:10:45.511	$GPGGA,141046,2415.8832,N,08109.3070,W,1,7,2.3,14,M,,M,,*52
06/16/2015	14:10:46.521	$GPGGA,141047,2415.8820,N,08109.3049,W,1,7,2.0,13,M,,M,,*5E
06/16/2015	14:10:47.561	$GPGGA,141048,2415.8813,N,08109.3028,W,1,8,2.0,13,M,,M,,*59
06/16/2015	14:10:48.541	$GPGGA,141049,2415.8806,N,08109.3010,W,1,8,2.0,13,M,,M,,*57
06/16/2015	14:10:49.551	$GPGGA,141050,2415.8795,N,08109.2989,W,1,8,2.0,13,M,,M,,*52
06/16/2015	14:10:50.511	$GPGGA,141051,2415.8788,N,08109.2971,W,1,8,2.3,13,M,,M,,*5B
06/16/2015	14:10:51.551	$GPGGA,141052,2415.8779,N,08109.2949,W,1,8,2.0,13,M,,M,,*5E
06/16/2015	14:10:52.511	$GPGGA,141053,2415.8770,N,08109.2927,W,1,8,2.3,13,M,,M,,*5D
06/16/2015	14:10:53.501	$GPGGA,141054,2415.8760,N,08109.2910,W,1,8,2.0,13,M,,M,,*5C
06/16/2015	14:10:54.496	$GPGGA,141055,2415.8752,N,08109.2890,W,1,8,2.0,13,M,,M,,*55
06/16/2015	14:10:55.511	$GPGGA,141056,2415.8743,N,08109.2869,W,1,8,2.0,13,M,,M,,*50
06/16/2015	14:10:56.493	$GPGGA,141057,2415.8734,N,08109.2850,W,1,8,2.3,13,M,,M,,*58
06/16/2015	14:10:57.497	$GPGGA,141058,2415.8724,N,08109.2832,W,1,8,2.0,13,M,,M,,*51
06/16/2015	14:10:58.481	$GPGGA,141059,2415.8716,N,08109.2813,W,1,8,2.0,13,M,,M,,*52
06/16/2015	14:10:59.630	$GPGGA,141100,2415.8707,N,08109.2793,W,1,8,2.0,13,M,,M,,*58
06/16/2015	14:11:00.495	$GPGGA,141101,2415.8698,N,08109.2774,W,1,8,2.0,13,M,,M,,*57
06/16/2015	14:11:01.482	$GPGGA,141102,2415.8688,N,08109.2756,W,1,8,2.0,13,M,,M,,*55
06/16/2015	14:11:02.488	$GPGGA,141103,2415.8680,N,08109.2737,W,1,8,2.0,12,M,,M,,*5A
06/16/2015	14:11:03.590	$GPGGA,141104,2415.8670,N,08109.2717,W,1,8,2.0,12,M,,M,,*50
06/16/2015	14:11:04.584	$GPGGA,141105,2415.8662,N,08109.2700,W,1,8,2.0,13,M,,M,,*55
06/16/2015	14:11:05.601	$GPGGA,141106,2415.8653,N,08109.2679,W,1,8,2.0,13,M,,M,,*5B
06/16/2015	14:11:06.571	$GPGGA,141107,2415.8642,N,08109.2661,W,1,8,2.0,13,M,,M,,*53
06/16/2015	14:11:07.594	$GPGGA,141108,2415.8633,N,08109.2642,W,1,8,2.0,13,M,,M,,*5B
06/16/2015	14:11:08.571	$GPGGA,141109,2415.8626,N,08109.2622,W,1,8,2.0,13,M,,M,,*58
06/16/2015	14:11:09.571	$GPGGA,141110,2415.8616,N,08109.2603,W,1,8,2.0,13,M,,M,,*50
06/16/2015	14:11:10.571	$GPGGA,141111,2415.8605,N,08109.2584,W,1,8,2.0,13,M,,M,,*5F
06/16/2015	14:11:11.594	$GPGGA,141112,2415.8598,N,08109.2566,W,1,8,2.0,13,M,,M,,*57
06/16/2015	14:11:12.561	$GPGGA,141113,2415.8589,N,08109.2544,W,1,8,2.0,13,M,,M,,*56
06/16/2015	14:11:13.571	$GPGGA,141114,2415.8579,N,08109.2527,W,1,8,2.0,13,M,,M,,*5B
06/16/2015	14:11:14.550	$GPGGA,141115,2415.8570,N,08109.2509,W,1,8,2.0,13,M,,M,,*5F
06/16/2015	14:11:15.581	$GPGGA,141116,2415.8560,N,08109.2487,W,1,8,2.0,13,M,,M,,*5A
06/16/2015	14:11:16.550	$GPGGA,141117,2415.8553,N,08109.2469,W,1,8,2.0,13,M,,M,,*5B
06/16/2015	14:11:17.550	$GPGGA,141118,2415.8543,N,08109.2451,W,1,8,2.0,13,M,,M,,*5E
06/16/2015	14:11:18.550	$GPGGA,141119,2415.8535,N,08109.2431,W,1,8,2.0,13,M,,M,,*58
06/16/2015	14:11:19.598	$GPGGA,141120,2415.8526,N,08109.2412,W,1,8,2.0,13,M,,M,,*51
06/16/2015	14:11:20.541	$GPGGA,141121,2415.8517,N,08109.2393,W,1,8,2.0,13,M,,M,,*5C
06/16/2015	14:11:21.551	$GPGGA,141122,2415.8510,N,08109.2373,W,1,8,1.7,13,M,,M,,*52
06/16/2015	14:11:22.531	$GPGGA,141123,2415.8500,N,08109.2353,W,1,8,1.7,13,M,,M,,*50
06/16/2015	14:11:23.607	$GPGGA,141124,2415.8492,N,08109.2332,W,1,8,1.7,13,M,,M,,*5A
06/16/2015	14:11:25.001	$GPGGA,141125,2415.8485,N,08109.2312,W,1,8,1.7,13,M,,M,,*5F
06/16/2015	14:11:25.561	$GPGGA,141126,2415.8475,N,08109.2292,W,1,8,1.7,14,M,,M,,*5D
06/16/2015	14:11:26.521	$GPGGA,141127,2415.8466,N,08109.2272,W,1,8,1.7,14,M,,M,,*50
06/16/2015	14:11:27.892	$GPGGA,141128,2415.8459,N,08109.2250,W,1,8,1.8,14,M,,M,,*5C
06/16/2015	14:11:28.531	$GPGGA,141129,2415.8450,N,08109.2231,W,1,8,1.7,14,M,,M,,*5C
06/16/2015	14:11:29.521	$GPGGA,141130,2415.8439,N,08109.2213,W,1,8,1.7,14,M,,M,,*5B
06/16/2015	14:11:30.521	$GPGGA,141131,2415.8432,N,08109.2194,W,1,8,1.7,14,M,,M,,*5D
06/16/2015	14:11:31.560	$GPGGA,141132,2415.8424,N,08109.2171,W,1,8,1.8,14,M,,M,,*5D
06/16/2015	14:11:32.530	$GPGGA,141133,2415.8414,N,08109.2152,W,1,8,1.7,15,M,,M,,*50
06/16/2015	14:11:33.540	$GPGGA,141134,2415.8405,N,08109.2136,W,1,8,1.7,15,M,,M,,*55
06/16/2015	14:11:34.504	$GPGGA,141135,2415.8396,N,08109.2116,W,1,8,1.7,15,M,,M,,*5B
06/16/2015	14:11:35.550	$GPGGA,141136,2415.8388,N,08109.2093,W,1,8,1.7,15,M,,M,,*5B
06/16/2015	14:11:36.531	$GPGGA,141137,2415.8380,N,08109.2078,W,1,8,1.7,15,M,,M,,*57
06/16/2015	14:11:37.611	$GPGGA,141138,2415.8370,N,08109.2060,W,1,8,1.7,15,M,,M,,*5E
06/16/2015	14:11:38.511	$GPGGA,141139,2415.8362,N,08109.2039,W,1,8,1.7,16,M,,M,,*53
06/16/2015	14:11:39.531	$GPGGA,141140,2415.8355,N,08109.2021,W,1,8,1.8,16,M,,M,,*5F
06/16/2015	14:11:40.511	$GPGGA,141141,2415.8347,N,08109.2002,W,1,8,1.8,16,M,,M,,*5C
06/16/2015	14:11:41.511	$GPGGA,141142,2415.8336,N,08109.1982,W,1,8,1.8,16,M,,M,,*5B
06/16/2015	14:11:42.610	$GPGGA,141143,2415.8329,N,08109.1966,W,1,8,1.8,16,M,,M,,*5E
06/16/2015	14:11:43.551	$GPGGA,141144,2415.8322,N,08109.1948,W,1,8,1.8,16,M,,M,,*5E
06/16/2015	14:11:44.601	$GPGGA,141145,2415.8315,N,08109.1927,W,1,8,1.8,16,M,,M,,*52
06/16/2015	14:11:45.511	$GPGGA,141146,2415.8305,N,08109.1908,W,1,8,1.8,17,M,,M,,*5C
06/16/2015	14:11:46.571	$GPGGA,141147,2415.8297,N,08109.1893,W,1,8,1.8,17,M,,M,,*54
06/16/2015	14:11:47.541	$GPGGA,141148,2415.8289,N,08109.1874,W,1,9,1.8,17,M,,M,,*5C
06/16/2015	14:11:48.571	$GPGGA,141149,2415.8280,N,08109.1854,W,1,9,1.8,17,M,,M,,*56
