Software Version Number: 1	Data File Format Number: 1	Build Version Number: 1	Error Count Since VI Started: 1	Manufacturer: Raytheon	 Model Number: RayMarine 120	 S/N: 	 Cal Date: 	 Wind Direction Offset: 0.00	 Slope (M)1: 0.00	 Offset (B)1: 0.00	 Slope (M)2: 0.00	 Offset (B)2: 0.00	 Slope (M)3: 0.00	 Offset (B)3: 0.00	 Slope (M)4: 0.00	 Offset (B)4: 0.00	 Slope (M)5: 0.00	 Offset (B)5: 0.00	 Slope (M)6: 0.00	 Offset (B)6: 0.00
Computer Date	Computer Time	GGA String
06/13/2015	16:00:00.517	$GPGGA,160001,2419.5832,N,08102.7433,W,1,10,1.4,19,M,,M,,*60
06/13/2015	16:00:01.626	$GPGGA,160002,2419.5839,N,08102.7435,W,1,10,1.4,19,M,,M,,*6E
06/13/2015	16:00:02.524	$GPGGA,160003,2419.5844,N,08102.7436,W,1,10,1.4,19,M,,M,,*66
06/13/2015	16:00:03.650	$GPGGA,160004,2419.5851,N,08102.7438,W,1,10,1.4,19,M,,M,,*6B
06/13/2015	16:00:04.650	$GPGGA,160005,2419.5858,N,08102.7439,W,1,10,1.4,19,M,,M,,*62
06/13/2015	16:00:05.600	$GPGGA,160006,2419.5862,N,08102.7438,W,1,9,1.7,19,M,,M,,*52
06/13/2015	16:00:06.833	$GPGGA,160007,2419.5867,N,08102.7439,W,1,9,1.4,19,M,,M,,*54
06/13/2015	16:00:07.651	$GPGGA,160008,2419.5872,N,08102.7440,W,1,10,1.4,19,M,,M,,*69
06/13/2015	16:00:08.591	$GPGGA,160009,2419.5879,N,08102.7442,W,1,10,1.4,19,M,,M,,*61
06/13/2015	16:00:09.630	$GPGGA,160010,2419.5885,N,08102.7441,W,1,10,1.4,19,M,,M,,*69
06/13/2015	16:00:10.600	$GPGGA,160011,2419.5891,N,08102.7444,W,1,10,1.4,19,M,,M,,*68
06/13/2015	16:00:11.624	$GPGGA,160012,2419.5896,N,08102.7446,W,1,10,1.4,19,M,,M,,*6E
06/13/2015	16:00:12.580	$GPGGA,160013,2419.5900,N,08102.7445,W,1,10,1.4,19,M,,M,,*62
06/13/2015	16:00:13.591	$GPGGA,160014,2419.5905,N,08102.7446,W,1,10,1.4,19,M,,M,,*63
06/13/2015	16:00:14.600	$GPGGA,160015,2419.5911,N,08102.7446,W,1,10,1.4,19,M,,M,,*67
06/13/2015	16:00:15.622	$GPGGA,160016,2419.5918,N,08102.7446,W,1,10,1.4,19,M,,M,,*6D
06/13/2015	16:00:16.580	$GPGGA,160017,2419.5923,N,08102.7449,W,1,10,1.4,19,M,,M,,*6B
06/13/2015	16:00:17.590	$GPGGA,160018,2419.5927,N,08102.7451,W,1,10,1.4,19,M,,M,,*69
06/13/2015	16:00:18.570	$GPGGA,160019,2419.5934,N,08102.7453,W,1,10,1.4,19,M,,M,,*68
06/13/2015	16:00:19.590	$GPGGA,160020,2419.5938,N,08102.7452,W,1,9,1.7,19,M,,M,,*54
06/13/2015	16:00:20.570	$GPGGA,160021,2419.5944,N,08102.7457,W,1,9,1.4,19,M,,M,,*58
06/13/2015	16:00:21.590	$GPGGA,160022,2419.5949,N,08102.7457,W,1,10,1.4,19,M,,M,,*6E
06/13/2015	16:00:22.570	$GPGGA,160023,2419.5956,N,08102.7458,W,1,10,1.4,19,M,,M,,*6E
06/13/2015	16:00:23.600	$GPGGA,160024,2419.5963,N,08102.7462,W,1,10,1.4,19,M,,M,,*66
06/13/2015	16:00:24.561	$GPGGA,160025,2419.5966,N,08102.7467,W,1,10,1.7,19,M,,M,,*64
06/13/2015	16:00:25.581	$GPGGA,160026,2419.5972,N,08102.7466,W,1,10,1.4,19,M,,M,,*60
06/13/2015	16:00:26.561	$GPGGA,160027,2419.5977,N,08102.7465,W,1,10,1.4,19,M,,M,,*67
06/13/2015	16:00:27.600	$GPGGA,160028,2419.5983,N,08102.7469,W,1,10,1.4,19,M,,M,,*6F
06/13/2015	16:00:28.550	$GPGGA,160029,2419.5988,N,08102.7471,W,1,10,1.4,19,M,,M,,*6C
06/13/2015	16:00:29.580	$GPGGA,160030,2419.5995,N,08102.7472,W,1,10,1.4,19,M,,M,,*6B
06/13/2015	16:00:30.550	$GPGGA,160031,2419.5999,N,08102.7475,W,1,10,1.4,19,M,,M,,*61
06/13/2015	16:00:31.590	$GPGGA,160032,2419.6003,N,08102.7476,W,1,10,1.4,19,M,,M,,*68
06/13/2015	16:00:32.550	$GPGGA,160033,2419.6008,N,08102.7478,W,1,10,1.4,19,M,,M,,*6C
06/13/2015	16:00:33.560	$GPGGA,160034,2419.6013,N,08102.7478,W,1,10,1.4,18,M,,M,,*60
06/13/2015	16:00:34.540	$GPGGA,160035,2419.6019,N,08102.7479,W,1,10,1.4,18,M,,M,,*6A
06/13/2015	16:00:35.560	$GPGGA,160036,2419.6024,N,08102.7482,W,1,10,1.4,18,M,,M,,*63
06/13/2015	16:00:36.650	$GPGGA,160037,2419.6028,N,08102.7486,W,1,10,1.4,18,M,,M,,*6A
06/13/2015	16:00:37.530	$GPGGA,160038,2419.6032,N,08102.7486,W,1,10,1.4,18,M,,M,,*6E
06/13/2015	16:00:38.530	$GPGGA,160039,2419.6037,N,08102.7487,W,1,10,1.7,18,M,,M,,*68
06/13/2015	16:00:39.700	$GPGGA,160040,2419.6039,N,08102.7489,W,1,10,1.4,18,M,,M,,*65
06/13/2015	16:00:40.550	$GPGGA,160041,2419.6044,N,08102.7489,W,1,10,1.4,18,M,,M,,*6E
06/13/2015	16:00:41.571	$GPGGA,160042,2419.6049,N,08102.7489,W,1,10,1.4,18,M,,M,,*60
06/13/2015	16:00:42.531	$GPGGA,160043,2419.6053,N,08102.7493,W,1,10,1.4,18,M,,M,,*61
06/13/2015	16:00:43.571	$GPGGA,160044,2419.6057,N,08102.7496,W,1,10,1.4,18,M,,M,,*67
06/13/2015	16:00:44.512	$GPGGA,160045,2419.6061,N,08102.7495,W,1,10,1.7,18,M,,M,,*63
06/13/2015	16:00:47.049	$GPGGA,160047,2419.6068,N,08102.7496,W,1,10,1.4,18,M,,M,,*68
06/13/2015	16:00:47.540	$GPGGA,160048,2419.6071,N,08102.7497,W,1,10,1.4,18,M,,M,,*6E
06/13/2015	16:00:48.624	$GPGGA,160049,2419.6078,N,08102.7500,W,1,10,1.4,18,M,,M,,*69
06/13/2015	16:00:49.513	$GPGGA,160050,2419.6082,N,08102.7501,W,1,10,1.4,18,M,,M,,*65
06/13/2015	16:00:50.620	$GPGGA,160051,2419.6086,N,08102.7504,W,1,10,1.4,19,M,,M,,*64
06/13/2015	16:00:51.510	$GPGGA,160052,2419.6089,N,08102.7507,W,1,10,1.4,19,M,,M,,*6B
06/13/2015	16:00:52.630	$GPGGA,160053,2419.6096,N,08102.7508,W,1,10,1.7,19,M,,M,,*68
06/13/2015	16:00:53.524	$GPGGA,160054,2419.6100,N,08102.7507,W,1,9,1.7,19,M,,M,,*56
06/13/2015	16:00:54.500	$GPGGA,160055,2419.6103,N,08102.7511,W,1,9,1.4,19,M,,M,,*50
06/13/2015	16:00:55.650	$GPGGA,160056,2419.6107,N,08102.7514,W,1,10,1.4,19,M,,M,,*6A
06/13/2015	16:00:56.600	$GPGGA,160057,2419.6111,N,08102.7516,W,1,10,1.4,19,M,,M,,*6E
06/13/2015	16:00:57.600	$GPGGA,160058,2419.6117,N,08102.7518,W,1,10,1.4,19,M,,M,,*69
06/13/2015	16:00:58.590	$GPGGA,160059,2419.6121,N,08102.7522,W,1,10,1.4,19,M,,M,,*64
06/13/2015	16:00:59.561	$GPGGA,160100,2419.6125,N,08102.7525,W,1,10,1.4,19,M,,M,,*6A
06/13/2015	16:01:01.311	$GPGGA,160101,2419.6129,N,08102.7525,W,1,10,1.4,19,M,,M,,*67
06/13/2015	16:01:01.601	$GPGGA,160102,2419.6132,N,08102.7527,W,1,10,1.4,19,M,,M,,*6C
06/13/2015	16:01:02.590	$GPGGA,160103,2419.6135,N,08102.7530,W,1,10,1.6,19,M,,M,,*6E
06/13/2015	16:01:03.650	$GPGGA,160104,2419.6139,N,08102.7533,W,1,9,1.4,19,M,,M,,*5C
06/13/2015	16:01:04.613	$GPGGA,160105,2419.6143,N,08102.7536,W,1,9,1.4,19,M,,M,,*55
06/13/2015	16:01:05.600	$GPGGA,160106,2419.6147,N,08102.7537,W,1,10,1.4,19,M,,M,,*6B
06/13/2015	16:01:06.570	$GPGGA,160107,2419.6149,N,08102.7540,W,1,10,1.4,19,M,,M,,*64
06/13/2015	16:01:07.613	$GPGGA,160108,2419.6154,N,08102.7540,W,1,10,1.4,19,M,,M,,*67
06/13/2015	16:01:08.580	$GPGGA,160109,2419.6158,N,08102.7541,W,1,10,1.4,19,M,,M,,*6B
06/13/2015	16:01:09.570	$GPGGA,160110,2419.6161,N,08102.7545,W,1,10,1.4,19,M,,M,,*6D
06/13/2015	16:01:10.570	$GPGGA,160111,2419.6164,N,08102.7548,W,1,10,1.4,19,M,,M,,*64
06/13/2015	16:01:11.590	$GPGGA,160112,2419.6167,N,08102.7551,W,1,10,1.4,19,M,,M,,*6C
06/13/2015	16:01:12.620	$GPGGA,160113,2419.6172,N,08102.7551,W,1,10,1.4,19,M,,M,,*69
06/13/2015	16:01:13.580	$GPGGA,160114,2419.6176,N,08102.7552,W,1,10,1.4,19,M,,M,,*69
06/13/2015	16:01:14.560	$GPGGA,160115,2419.6179,N,08102.7556,W,1,10,1.4,19,M,,M,,*63
06/13/2015	16:01:15.590	$GPGGA,160116,2419.6182,N,08102.7559,W,1,10,1.4,19,M,,M,,*6B
06/13/2015	16:01:16.561	$GPGGA,160117,2419.6186,N,08102.7562,W,1,10,1.4,19,M,,M,,*66
06/13/2015	16:01:17.551	$GPGGA,160118,2419.6190,N,08102.7565,W,1,10,1.4,19,M,,M,,*69
06/13/2015	16:01:18.561	$GPGGA,160119,2419.6193,N,08102.7566,W,1,10,1.4,19,M,,M,,*68
06/13/2015	16:01:19.600	$GPGGA,160120,2419.6196,N,08102.7569,W,1,10,1.4,19,M,,M,,*68
06/13/2015	16:01:20.550	$GPGGA,160121,2419.6198,N,08102.7572,W,1,10,1.4,20,M,,M,,*67
06/13/2015	16:01:21.580	$GPGGA,160122,2419.6201,N,08102.7574,W,1,10,1.4,20,M,,M,,*61
06/13/2015	16:01:22.550	$GPGGA,160123,2419.6207,N,08102.7576,W,1,10,1.4,20,M,,M,,*64
06/13/2015	16:01:23.570	$GPGGA,160124,2419.6211,N,08102.7580,W,1,10,1.4,20,M,,M,,*6D
06/13/2015	16:01:24.540	$GPGGA,160125,2419.6212,N,08102.7583,W,1,10,1.4,20,M,,M,,*6C
06/13/2015	16:01:25.530	$GPGGA,160126,2419.6216,N,08102.7585,W,1,10,1.4,20,M,,M,,*6D
06/13/2015	16:01:26.550	$GPGGA,160127,2419.6221,N,08102.7587,W,1,10,1.4,19,M,,M,,*60
06/13/2015	16:01:27.613	$GPGGA,160128,2419.6225,N,08102.7588,W,1,10,1.4,19,M,,M,,*64
06/13/2015	16:01:28.550	$GPGGA,160129,2419.6227,N,08102.7592,W,1,10,1.4,19,M,,M,,*6C
06/13/2015	16:01:29.550	$GPGGA,160130,2419.6233,N,08102.7597,W,1,10,1.4,19,M,,M,,*64
06/13/2015	16:01:30.540	$GPGGA,160131,2419.6237,N,08102.7599,W,1,10,1.4,19,M,,M,,*6F
06/13/2015	16:01:31.612	$GPGGA,160132,2419.6241,N,08102.7605,W,1,10,1.4,19,M,,M,,*6B
06/13/2015	16:01:32.520	$GPGGA,160133,2419.6245,N,08102.7608,W,1,10,1.4,19,M,,M,,*63
06/13/2015	16:01:33.540	$GPGGA,160134,2419.6251,N,08102.7610,W,1,10,1.4,19,M,,M,,*68
06/13/2015	16:01:34.541	$GPGGA,160135,2419.6255,N,08102.7613,W,1,10,1.6,19,M,,M,,*6C
06/13/2015	16:01:35.561	$GPGGA,160136,2419.6259,N,08102.7617,W,1,9,1.6,19,M,,M,,*5F
06/13/2015	16:01:36.611	$GPGGA,160137,2419.6263,N,08102.7623,W,1,9,1.6,19,M,,M,,*50
06/13/2015	16:01:38.540	$GPGGA,160139,2419.6274,N,08102.7631,W,1,9,1.4,19,M,,M,,*59
06/13/2015	16:01:39.560	$GPGGA,160140,2419.6281,N,08102.7635,W,1,10,1.4,19,M,,M,,*61
06/13/2015	16:01:40.530	$GPGGA,160141,2419.6287,N,08102.7638,W,1,10,1.7,19,M,,M,,*68
06/13/2015	16:01:41.530	$GPGGA,160142,2419.6292,N,08102.7645,W,1,9,1.7,19,M,,M,,*5D
06/13/2015	16:01:42.600	$GPGGA,160143,2419.6297,N,08102.7649,W,1,9,1.7,19,M,,M,,*55
06/13/2015	16:01:43.620	$GPGGA,160144,2419.6303,N,08102.7655,W,1,10,1.4,19,M,,M,,*68
06/13/2015	16:01:44.530	$GPGGA,160145,2419.6310,N,08102.7659,W,1,10,1.7,19,M,,M,,*64
06/13/2015	16:01:46.022	$GPGGA,160146,2419.6315,N,08102.7666,W,1,9,1.7,19,M,,M,,*56
06/13/2015	16:01:46.511	$GPGGA,160147,2419.6320,N,08102.7670,W,1,9,1.7,19,M,,M,,*56
06/13/2015	16:01:47.590	$GPGGA,160148,2419.6328,N,08102.7674,W,1,9,1.4,19,M,,M,,*56
06/13/2015	16:01:48.500	$GPGGA,160149,2419.6334,N,08102.7678,W,1,9,1.7,19,M,,M,,*55
06/13/2015	16:01:49.620	$GPGGA,160150,2419.6339,N,08102.7682,W,1,9,1.7,19,M,,M,,*55
06/13/2015	16:01:50.580	$GPGGA,160151,2419.6345,N,08102.7688,W,1,9,1.7,19,M,,M,,*55
06/13/2015	16:01:51.918	$GPGGA,160152,2419.6349,N,08102.7689,W,1,9,1.4,19,M,,M,,*58
06/13/2015	16:01:52.571	$GPGGA,160153,2419.6353,N,08102.7693,W,1,9,1.6,19,M,,M,,*5B
06/13/2015	16:01:53.581	$GPGGA,160154,2419.6359,N,08102.7697,W,1,9,1.6,19,M,,M,,*52
06/13/2015	16:01:54.590	$GPGGA,160155,2419.6366,N,08102.7703,W,1,9,1.6,19,M,,M,,*53
06/13/2015	16:01:55.580	$GPGGA,160156,2419.6374,N,08102.7709,W,1,9,1.4,19,M,,M,,*5B
06/13/2015	16:01:56.570	$GPGGA,160157,2419.6382,N,08102.7713,W,1,9,1.4,19,M,,M,,*58
06/13/2015	16:01:57.560	$GPGGA,160158,2419.6389,N,08102.7720,W,1,10,1.7,19,M,,M,,*67
06/13/2015	16:01:58.560	$GPGGA,160159,2419.6393,N,08102.7725,W,1,10,1.7,19,M,,M,,*68
06/13/2015	16:01:59.650	$GPGGA,160200,2419.6400,N,08102.7731,W,1,9,1.7,19,M,,M,,*57
06/13/2015	16:02:00.550	$GPGGA,160201,2419.6407,N,08102.7735,W,1,9,1.7,19,M,,M,,*55
06/13/2015	16:02:01.580	$GPGGA,160202,2419.6411,N,08102.7739,W,1,9,1.7,19,M,,M,,*5D
06/13/2015	16:02:02.550	$GPGGA,160203,2419.6417,N,08102.7746,W,1,9,1.4,19,M,,M,,*51
06/13/2015	16:02:03.600	$GPGGA,160204,2419.6424,N,08102.7750,W,1,10,1.4,19,M,,M,,*69
06/13/2015	16:02:04.550	$GPGGA,160205,2419.6431,N,08102.7756,W,1,10,1.4,19,M,,M,,*6A
06/13/2015	16:02:05.580	$GPGGA,160206,2419.6436,N,08102.7761,W,1,9,1.6,18,M,,M,,*51
06/13/2015	16:02:06.550	$GPGGA,160207,2419.6440,N,08102.7767,W,1,9,1.4,18,M,,M,,*55
06/13/2015	16:02:07.560	$GPGGA,160208,2419.6449,N,08102.7772,W,1,10,1.4,18,M,,M,,*6F
06/13/2015	16:02:08.550	$GPGGA,160209,2419.6454,N,08102.7778,W,1,10,1.4,18,M,,M,,*68
06/13/2015	16:02:09.531	$GPGGA,160210,2419.6461,N,08102.7783,W,1,10,1.4,18,M,,M,,*62
06/13/2015	16:02:10.551	$GPGGA,160211,2419.6469,N,08102.7789,W,1,10,1.4,18,M,,M,,*61
06/13/2015	16:02:11.661	$GPGGA,160212,2419.6476,N,08102.7794,W,1,10,1.4,18,M,,M,,*60
06/13/2015	16:02:12.540	$GPGGA,160213,2419.6483,N,08102.7800,W,1,10,1.4,18,M,,M,,*69
06/13/2015	16:02:13.640	$GPGGA,160214,2419.6489,N,08102.7807,W,1,10,1.4,18,M,,M,,*63
06/13/2015	16:02:14.540	$GPGGA,160215,2419.6494,N,08102.7812,W,1,10,1.4,18,M,,M,,*6A
06/13/2015	16:02:15.560	$GPGGA,160216,2419.6503,N,08102.7818,W,1,10,1.4,18,M,,M,,*6C
06/13/2015	16:02:16.640	$GPGGA,160217,2419.6508,N,08102.7823,W,1,10,1.4,18,M,,M,,*6E
06/13/2015	16:02:17.650	$GPGGA,160218,2419.6516,N,08102.7829,W,1,10,1.4,18,M,,M,,*64
06/13/2015	16:02:18.527	$GPGGA,160219,2419.6523,N,08102.7834,W,1,10,1.4,18,M,,M,,*6F
06/13/2015	16:02:19.590	$GPGGA,160220,2419.6529,N,08102.7841,W,1,10,1.4,18,M,,M,,*6D
06/13/2015	16:02:20.630	$GPGGA,160221,2419.6534,N,08102.7847,W,1,10,1.4,18,M,,M,,*66
06/13/2015	16:02:21.513	$GPGGA,160222,2419.6541,N,08102.7854,W,1,10,1.4,18,M,,M,,*65
06/13/2015	16:02:22.528	$GPGGA,160223,2419.6548,N,08102.7859,W,1,10,1.4,18,M,,M,,*60
06/13/2015	16:02:23.622	$GPGGA,160224,2419.6554,N,08102.7865,W,1,10,1.4,18,M,,M,,*65
06/13/2015	16:02:24.620	$GPGGA,160225,2419.6559,N,08102.7872,W,1,10,1.4,18,M,,M,,*6F
06/13/2015	16:02:25.622	$GPGGA,160226,2419.6566,N,08102.7879,W,1,10,1.4,18,M,,M,,*6B
06/13/2015	16:02:26.613	$GPGGA,160227,2419.6573,N,08102.7884,W,1,10,1.4,18,M,,M,,*6C
06/13/2015	16:02:27.614	$GPGGA,160228,2419.6579,N,08102.7890,W,1,10,1.4,18,M,,M,,*6C
06/13/2015	16:02:28.522	$GPGGA,160229,2419.6584,N,08102.7897,W,1,10,1.4,18,M,,M,,*68
06/13/2015	16:02:29.640	$GPGGA,160230,2419.6590,N,08102.7902,W,1,10,1.4,18,M,,M,,*68
06/13/2015	16:02:30.600	$GPGGA,160231,2419.6595,N,08102.7908,W,1,10,1.4,18,M,,M,,*66
06/13/2015	16:02:31.630	$GPGGA,160232,2419.6604,N,08102.7915,W,1,10,1.4,18,M,,M,,*62
06/13/2015	16:02:32.610	$GPGGA,160233,2419.6609,N,08102.7923,W,1,10,1.4,18,M,,M,,*6B
06/13/2015	16:02:33.515	$GPGGA,160234,2419.6615,N,08102.7930,W,1,10,1.4,18,M,,M,,*63
06/13/2015	16:02:34.590	$GPGGA,160235,2419.6622,N,08102.7934,W,1,10,1.7,18,M,,M,,*61
06/13/2015	16:02:35.623	$GPGGA,160236,2419.6628,N,08102.7938,W,1,10,1.4,18,M,,M,,*67
06/13/2015	16:02:36.580	$GPGGA,160237,2419.6631,N,08102.7945,W,1,10,1.4,18,M,,M,,*64
06/13/2015	16:02:37.480	$GPGGA,160238,2419.6637,N,08102.7952,W,1,10,1.4,18,M,,M,,*6B
06/13/2015	16:02:38.590	$GPGGA,160239,2419.6644,N,08102.7957,W,1,10,1.5,18,M,,M,,*6A
06/13/2015	16:02:39.630	$GPGGA,160240,2419.6652,N,08102.7962,W,1,10,1.4,18,M,,M,,*64
06/13/2015	16:02:40.580	$GPGGA,160241,2419.6657,N,08102.7970,W,1,10,1.4,18,M,,M,,*63
06/13/2015	16:02:41.580	$GPGGA,160242,2419.6663,N,08102.7974,W,1,10,1.4,18,M,,M,,*63
06/13/2015	16:02:42.580	$GPGGA,160243,2419.6669,N,08102.7978,W,1,10,1.4,18,M,,M,,*64
06/13/2015	16:02:43.580	$GPGGA,160244,2419.6674,N,08102.7982,W,1,10,1.4,18,M,,M,,*6A
06/13/2015	16:02:44.581	$GPGGA,160245,2419.6680,N,08102.7988,W,1,10,1.5,18,M,,M,,*6B
06/13/2015	16:02:45.561	$GPGGA,160246,2419.6685,N,08102.7995,W,1,10,1.4,18,M,,M,,*60
06/13/2015	16:02:46.561	$GPGGA,160247,2419.6693,N,08102.8000,W,1,10,1.4,18,M,,M,,*6C
06/13/2015	16:02:47.590	$GPGGA,160248,2419.6699,N,08102.8006,W,1,10,1.4,18,M,,M,,*6F
06/13/2015	16:02:48.570	$GPGGA,160249,2419.6703,N,08102.8013,W,1,10,1.4,18,M,,M,,*68
06/13/2015	16:02:49.600	$GPGGA,160250,2419.6710,N,08102.8017,W,1,10,1.4,18,M,,M,,*66
06/13/2015	16:02:50.560	$GPGGA,160251,2419.6716,N,08102.8021,W,1,10,1.4,18,M,,M,,*64
06/13/2015	16:02:51.600	$GPGGA,160252,2419.6718,N,08102.8028,W,1,10,1.4,18,M,,M,,*60
06/13/2015	16:02:52.560	$GPGGA,160253,2419.6725,N,08102.8035,W,1,10,1.4,18,M,,M,,*63
06/13/2015	16:02:53.540	$GPGGA,160254,2419.6732,N,08102.8039,W,1,10,1.4,18,M,,M,,*6E
06/13/2015	16:02:54.560	$GPGGA,160255,2419.6736,N,08102.8045,W,1,10,1.4,19,M,,M,,*61
06/13/2015	16:02:55.590	$GPGGA,160256,2419.6742,N,08102.8050,W,1,10,1.4,19,M,,M,,*65
06/13/2015	16:02:56.550	$GPGGA,160257,2419.6747,N,08102.8056,W,1,10,1.4,19,M,,M,,*67
06/13/2015	16:02:57.540	$GPGGA,160258,2419.6754,N,08102.8060,W,1,10,1.4,19,M,,M,,*6F
06/13/2015	16:02:58.550	$GPGGA,160259,2419.6758,N,08102.8067,W,1,10,1.4,19,M,,M,,*65
06/13/2015	16:02:59.670	$GPGGA,160300,2419.6765,N,08102.8072,W,1,10,1.4,19,M,,M,,*62
06/13/2015	16:03:00.543	$GPGGA,160301,2419.6769,N,08102.8078,W,1,10,1.4,19,M,,M,,*65
06/13/2015	16:03:01.551	$GPGGA,160302,2419.6776,N,08102.8085,W,1,10,1.4,19,M,,M,,*6A
06/13/2015	16:03:02.531	$GPGGA,160303,2419.6782,N,08102.8089,W,1,10,1.4,19,M,,M,,*6C
06/13/2015	16:03:03.651	$GPGGA,160304,2419.6787,N,08102.8093,W,1,10,1.4,19,M,,M,,*65
06/13/2015	16:03:04.550	$GPGGA,160305,2419.6792,N,08102.8098,W,1,10,1.4,19,M,,M,,*6B
06/13/2015	16:03:05.630	$GPGGA,160306,2419.6797,N,08102.8104,W,1,10,1.4,19,M,,M,,*69
06/13/2015	16:03:06.515	$GPGGA,160307,2419.6804,N,08102.8111,W,1,10,1.4,19,M,,M,,*69
06/13/2015	16:03:07.630	$GPGGA,160308,2419.6810,N,08102.8116,W,1,10,1.4,19,M,,M,,*64
06/13/2015	16:03:08.520	$GPGGA,160309,2419.6815,N,08102.8122,W,1,10,1.4,19,M,,M,,*67
06/13/2015	16:03:09.650	$GPGGA,160310,2419.6821,N,08102.8128,W,1,10,1.4,19,M,,M,,*62
06/13/2015	16:03:10.622	$GPGGA,160311,2419.6826,N,08102.8132,W,1,10,1.4,19,M,,M,,*6F
06/13/2015	16:03:11.624	$GPGGA,160312,2419.6832,N,08102.8136,W,1,10,1.4,19,M,,M,,*6D
06/13/2015	16:03:12.600	$GPGGA,160313,2419.6837,N,08102.8143,W,1,10,1.4,19,M,,M,,*6B
06/13/2015	16:03:13.630	$GPGGA,160314,2419.6843,N,08102.8148,W,1,10,1.4,19,M,,M,,*64
06/13/2015	16:03:14.515	$GPGGA,160315,2419.6848,N,08102.8154,W,1,10,1.4,19,M,,M,,*63
06/13/2015	16:03:15.650	$GPGGA,160316,2419.6854,N,08102.8161,W,1,10,1.4,19,M,,M,,*6B
06/13/2015	16:03:16.510	$GPGGA,160317,2419.6859,N,08102.8165,W,1,10,1.4,19,M,,M,,*63
06/13/2015	16:03:17.622	$GPGGA,160318,2419.6866,N,08102.8170,W,1,10,1.4,19,M,,M,,*64
06/13/2015	16:03:18.590	$GPGGA,160319,2419.6870,N,08102.8175,W,1,10,1.4,19,M,,M,,*67
06/13/2015	16:03:19.651	$GPGGA,160320,2419.6876,N,08102.8179,W,1,10,1.4,19,M,,M,,*67
06/13/2015	16:03:20.591	$GPGGA,160321,2419.6880,N,08102.8186,W,1,10,1.4,19,M,,M,,*6F
06/13/2015	16:03:21.581	$GPGGA,160322,2419.6887,N,08102.8190,W,1,10,1.4,19,M,,M,,*6C
06/13/2015	16:03:22.590	$GPGGA,160323,2419.6893,N,08102.8195,W,1,10,1.4,19,M,,M,,*6D
06/13/2015	16:03:23.610	$GPGGA,160324,2419.6898,N,08102.8201,W,1,10,1.4,19,M,,M,,*6F
06/13/2015	16:03:24.590	$GPGGA,160325,2419.6904,N,08102.8205,W,1,10,1.4,19,M,,M,,*6E
06/13/2015	16:03:25.602	$GPGGA,160326,2419.6909,N,08102.8210,W,1,10,1.4,19,M,,M,,*64
06/13/2015	16:03:26.580	$GPGGA,160327,2419.6913,N,08102.8216,W,1,10,1.4,19,M,,M,,*68
06/13/2015	16:03:27.600	$GPGGA,160328,2419.6917,N,08102.8220,W,1,10,1.4,19,M,,M,,*66
06/13/2015	16:03:28.570	$GPGGA,160329,2419.6924,N,08102.8226,W,1,10,1.4,18,M,,M,,*60
06/13/2015	16:03:29.600	$GPGGA,160330,2419.6931,N,08102.8230,W,1,10,1.4,18,M,,M,,*6B
06/13/2015	16:03:30.580	$GPGGA,160331,2419.6935,N,08102.8235,W,1,10,1.4,18,M,,M,,*6B
06/13/2015	16:03:31.615	$GPGGA,160332,2419.6941,N,08102.8241,W,1,10,1.4,18,M,,M,,*68
06/13/2015	16:03:32.560	$GPGGA,160333,2419.6945,N,08102.8246,W,1,10,1.4,18,M,,M,,*6A
06/13/2015	16:03:33.590	$GPGGA,160334,2419.6951,N,08102.8251,W,1,10,1.4,18,M,,M,,*6E
06/13/2015	16:03:34.571	$GPGGA,160335,2419.6956,N,08102.8255,W,1,10,1.4,18,M,,M,,*6C
06/13/2015	16:03:35.560	$GPGGA,160336,2419.6960,N,08102.8262,W,1,10,1.4,18,M,,M,,*6E
06/13/2015	16:03:36.571	$GPGGA,160337,2419.6966,N,08102.8267,W,1,10,1.4,18,M,,M,,*6C
06/13/2015	16:03:37.561	$GPGGA,160338,2419.6971,N,08102.8271,W,1,10,1.4,18,M,,M,,*62
06/13/2015	16:03:38.571	$GPGGA,160339,2419.6978,N,08102.8277,W,1,10,1.4,18,M,,M,,*6C
06/13/2015	16:03:39.600	$GPGGA,160340,2419.6982,N,08102.8281,W,1,10,1.4,18,M,,M,,*6E
06/13/2015	16:03:40.550	$GPGGA,160341,2419.6988,N,08102.8288,W,1,10,1.4,18,M,,M,,*6C
06/13/2015	16:03:41.540	$GPGGA,160342,2419.6992,N,08102.8293,W,1,10,1.4,18,M,,M,,*6E
06/13/2015	16:03:42.540	$GPGGA,160343,2419.6998,N,08102.8296,W,1,10,1.4,18,M,,M,,*60
06/13/2015	16:03:43.560	$GPGGA,160344,2419.7005,N,08102.8302,W,1,10,1.4,18,M,,M,,*67
06/13/2015	16:03:44.530	$GPGGA,160345,2419.7010,N,08102.8306,W,1,10,1.4,18,M,,M,,*66
06/13/2015	16:03:45.711	$GPGGA,160346,2419.7016,N,08102.8310,W,1,10,1.4,18,M,,M,,*64
06/13/2015	16:03:46.530	$GPGGA,160347,2419.7021,N,08102.8316,W,1,10,1.4,18,M,,M,,*67
06/13/2015	16:03:47.550	$GPGGA,160348,2419.7028,N,08102.8320,W,1,9,1.6,18,M,,M,,*5E
06/13/2015	16:03:48.520	$GPGGA,160349,2419.7035,N,08102.8324,W,1,9,1.7,18,M,,M,,*56
06/13/2015	16:03:49.540	$GPGGA,160350,2419.7039,N,08102.8328,W,1,9,1.7,18,M,,M,,*5E
06/13/2015	16:03:50.530	$GPGGA,160351,2419.7045,N,08102.8334,W,1,9,1.4,18,M,,M,,*5A
06/13/2015	16:03:51.630	$GPGGA,160352,2419.7050,N,08102.8336,W,1,10,1.4,18,M,,M,,*67
06/13/2015	16:03:52.521	$GPGGA,160353,2419.7057,N,08102.8339,W,1,10,1.4,18,M,,M,,*6E
06/13/2015	16:03:53.711	$GPGGA,160354,2419.7061,N,08102.8345,W,1,10,1.4,18,M,,M,,*67
06/13/2015	16:03:54.551	$GPGGA,160355,2419.7065,N,08102.8349,W,1,10,1.4,18,M,,M,,*6E
06/13/2015	16:03:55.521	$GPGGA,160356,2419.7072,N,08102.8356,W,1,10,1.4,18,M,,M,,*65
06/13/2015	16:03:56.650	$GPGGA,160357,2419.7078,N,08102.8358,W,1,10,1.7,18,M,,M,,*63
06/13/2015	16:03:57.700	$GPGGA,160358,2419.7083,N,08102.8361,W,1,10,1.4,18,M,,M,,*61
06/13/2015	16:03:58.521	$GPGGA,160359,2419.7086,N,08102.8365,W,1,10,1.4,18,M,,M,,*61
06/13/2015	16:03:59.723	$GPGGA,160400,2419.7093,N,08102.8368,W,1,10,1.4,18,M,,M,,*63
06/13/2015	16:04:01.180	$GPGGA,160401,2419.7099,N,08102.8374,W,1,10,1.4,18,M,,M,,*65
06/13/2015	16:04:01.600	$GPGGA,160402,2419.7104,N,08102.8379,W,1,10,1.4,18,M,,M,,*6E
06/13/2015	16:04:02.590	$GPGGA,160403,2419.7111,N,08102.8383,W,1,10,1.4,19,M,,M,,*6F
06/13/2015	16:04:03.700	$GPGGA,160404,2419.7115,N,08102.8389,W,1,8,1.8,19,M,,M,,*53
06/13/2015	16:04:04.620	$GPGGA,160405,2419.7119,N,08102.8393,W,1,8,1.8,19,M,,M,,*55
06/13/2015	16:04:05.670	$GPGGA,160406,2419.7126,N,08102.8397,W,1,9,1.6,19,M,,M,,*51
06/13/2015	16:04:06.630	$GPGGA,160407,2419.7133,N,08102.8400,W,1,9,1.6,19,M,,M,,*5D
06/13/2015	16:04:07.670	$GPGGA,160408,2419.7140,N,08102.8405,W,1,9,1.4,19,M,,M,,*51
06/13/2015	16:04:08.600	$GPGGA,160409,2419.7144,N,08102.8412,W,1,9,1.4,19,M,,M,,*52
06/13/2015	16:04:09.690	$GPGGA,160410,2419.7150,N,08102.8418,W,1,10,1.6,19,M,,M,,*6F
06/13/2015	16:04:10.570	$GPGGA,160411,2419.7155,N,08102.8421,W,1,10,1.6,19,M,,M,,*61
06/13/2015	16:04:11.702	$GPGGA,160412,2419.7159,N,08102.8426,W,1,9,1.4,18,M,,M,,*52
06/13/2015	16:04:12.590	$GPGGA,160413,2419.7164,N,08102.8430,W,1,9,1.4,18,M,,M,,*5A
06/13/2015	16:04:13.560	$GPGGA,160414,2419.7170,N,08102.8433,W,1,10,1.4,18,M,,M,,*63
06/13/2015	16:04:14.600	$GPGGA,160415,2419.7179,N,08102.8439,W,1,10,1.6,18,M,,M,,*63
06/13/2015	16:04:15.669	$GPGGA,160416,2419.7184,N,08102.8443,W,1,10,1.6,18,M,,M,,*6F
06/13/2015	16:04:16.589	$GPGGA,160417,2419.7188,N,08102.8450,W,1,10,1.6,18,M,,M,,*60
06/13/2015	16:04:17.639	$GPGGA,160418,2419.7193,N,08102.8454,W,1,10,1.6,18,M,,M,,*61
06/13/2015	16:04:18.569	$GPGGA,160419,2419.7198,N,08102.8457,W,1,10,1.6,18,M,,M,,*68
06/13/2015	16:04:19.949	$GPGGA,160420,2419.7202,N,08102.8462,W,1,9,1.6,18,M,,M,,*5C
06/13/2015	16:04:21.679	$GPGGA,160422,2419.7216,N,08102.8470,W,1,9,1.4,18,M,,M,,*5A
06/13/2015	16:04:22.540	$GPGGA,160423,2419.7220,N,08102.8476,W,1,9,1.4,18,M,,M,,*58
06/13/2015	16:04:23.680	$GPGGA,160424,2419.7226,N,08102.8482,W,1,10,1.4,18,M,,M,,*6A
06/13/2015	16:04:24.590	$GPGGA,160425,2419.7231,N,08102.8486,W,1,10,1.4,18,M,,M,,*69
06/13/2015	16:04:25.640	$GPGGA,160426,2419.7235,N,08102.8490,W,1,10,1.4,18,M,,M,,*69
06/13/2015	16:04:26.540	$GPGGA,160427,2419.7241,N,08102.8495,W,1,10,1.4,18,M,,M,,*6E
06/13/2015	16:04:27.650	$GPGGA,160428,2419.7248,N,08102.8498,W,1,10,1.4,18,M,,M,,*65
06/13/2015	16:04:28.540	$GPGGA,160429,2419.7253,N,08102.8502,W,1,10,1.4,18,M,,M,,*6C
06/13/2015	16:04:29.640	$GPGGA,160430,2419.7258,N,08102.8508,W,1,10,1.4,18,M,,M,,*65
06/13/2015	16:04:30.520	$GPGGA,160431,2419.7263,N,08102.8515,W,1,10,1.4,18,M,,M,,*60
06/13/2015	16:04:31.619	$GPGGA,160432,2419.7269,N,08102.8519,W,1,10,1.4,18,M,,M,,*65
06/13/2015	16:04:32.639	$GPGGA,160433,2419.7274,N,08102.8522,W,1,10,1.4,18,M,,M,,*60
06/13/2015	16:04:33.629	$GPGGA,160434,2419.7278,N,08102.8526,W,1,10,1.4,18,M,,M,,*6F
06/13/2015	16:04:34.569	$GPGGA,160435,2419.7284,N,08102.8530,W,1,10,1.4,18,M,,M,,*6A
06/13/2015	16:04:35.649	$GPGGA,160436,2419.7289,N,08102.8534,W,1,10,1.4,18,M,,M,,*60
06/13/2015	16:04:36.531	$GPGGA,160437,2419.7295,N,08102.8540,W,1,10,1.4,18,M,,M,,*6F
06/13/2015	16:04:37.512	$GPGGA,160438,2419.7299,N,08102.8544,W,1,10,1.4,18,M,,M,,*68
06/13/2015	16:04:38.549	$GPGGA,160439,2419.7305,N,08102.8549,W,1,10,1.4,18,M,,M,,*60
06/13/2015	16:04:39.670	$GPGGA,160440,2419.7307,N,08102.8555,W,1,10,1.4,18,M,,M,,*61
06/13/2015	16:04:40.560	$GPGGA,160441,2419.7314,N,08102.8559,W,1,10,1.4,18,M,,M,,*6E
06/13/2015	16:04:41.640	$GPGGA,160442,2419.7321,N,08102.8560,W,1,10,1.4,18,M,,M,,*61
06/13/2015	16:04:42.604	$GPGGA,160443,2419.7325,N,08102.8566,W,1,10,1.4,18,M,,M,,*62
06/13/2015	16:04:43.520	$GPGGA,160444,2419.7328,N,08102.8573,W,1,10,1.4,18,M,,M,,*6C
06/13/2015	16:04:44.560	$GPGGA,160445,2419.7336,N,08102.8577,W,1,10,1.4,18,M,,M,,*66
06/13/2015	16:04:45.620	$GPGGA,160446,2419.7342,N,08102.8580,W,1,10,1.4,18,M,,M,,*6E
06/13/2015	16:04:46.530	$GPGGA,160447,2419.7346,N,08102.8585,W,1,10,1.4,18,M,,M,,*6E
06/13/2015	16:04:47.640	$GPGGA,160448,2419.7350,N,08102.8589,W,1,10,1.4,18,M,,M,,*6A
06/13/2015	16:04:48.590	$GPGGA,160449,2419.7356,N,08102.8592,W,1,10,1.6,18,M,,M,,*65
06/13/2015	16:04:49.601	$GPGGA,160450,2419.7363,N,08102.8596,W,1,9,1.4,18,M,,M,,*55
06/13/2015	16:04:50.579	$GPGGA,160451,2419.7368,N,08102.8602,W,1,9,1.4,18,M,,M,,*51
06/13/2015	16:04:51.639	$GPGGA,160452,2419.7374,N,08102.8607,W,1,10,1.4,18,M,,M,,*62
06/13/2015	16:04:52.589	$GPGGA,160453,2419.7379,N,08102.8611,W,1,10,1.4,18,M,,M,,*69
06/13/2015	16:04:53.569	$GPGGA,160454,2419.7386,N,08102.8614,W,1,10,1.7,18,M,,M,,*68
06/13/2015	16:04:54.579	$GPGGA,160455,2419.7392,N,08102.8618,W,1,10,1.7,18,M,,M,,*60
06/13/2015	16:04:55.614	$GPGGA,160456,2419.7396,N,08102.8624,W,1,9,1.4,18,M,,M,,*53
06/13/2015	16:04:56.579	$GPGGA,160457,2419.7401,N,08102.8627,W,1,9,1.4,18,M,,M,,*58
06/13/2015	16:04:57.601	$GPGGA,160458,2419.7408,N,08102.8631,W,1,10,1.4,18,M,,M,,*61
06/13/2015	16:04:58.570	$GPGGA,160459,2419.7412,N,08102.8634,W,1,10,1.4,18,M,,M,,*6E
06/13/2015	16:04:59.700	$GPGGA,160500,2419.7415,N,08102.8639,W,1,10,1.4,18,M,,M,,*69
06/13/2015	16:05:00.570	$GPGGA,160501,2419.7422,N,08102.8642,W,1,10,1.4,18,M,,M,,*60
06/13/2015	16:05:01.590	$GPGGA,160502,2419.7422,N,08102.8642,W,1,10,1.4,18,M,,M,,*63
06/13/2015	16:05:02.560	$GPGGA,160503,2419.7433,N,08102.8649,W,1,10,1.4,18,M,,M,,*69
06/13/2015	16:05:03.630	$GPGGA,160504,2419.7439,N,08102.8652,W,1,10,1.4,19,M,,M,,*6F
06/13/2015	16:05:04.570	$GPGGA,160505,2419.7444,N,08102.8657,W,1,10,1.4,19,M,,M,,*61
06/13/2015	16:05:05.590	$GPGGA,160506,2419.7444,N,08102.8657,W,1,10,1.4,19,M,,M,,*62
06/13/2015	16:05:06.559	$GPGGA,160507,2419.7455,N,08102.8664,W,1,10,1.4,19,M,,M,,*63
06/13/2015	16:05:07.639	$GPGGA,160508,2419.7461,N,08102.8667,W,1,10,1.4,19,M,,M,,*68
06/13/2015	16:05:08.549	$GPGGA,160509,2419.7466,N,08102.8671,W,1,10,1.4,19,M,,M,,*69
06/13/2015	16:05:09.617	$GPGGA,160510,2419.7472,N,08102.8675,W,1,10,1.4,19,M,,M,,*60
06/13/2015	16:05:10.549	$GPGGA,160511,2419.7472,N,08102.8675,W,1,10,1.4,19,M,,M,,*61
06/13/2015	16:05:11.639	$GPGGA,160512,2419.7484,N,08102.8683,W,1,10,1.4,19,M,,M,,*62
06/13/2015	16:05:12.569	$GPGGA,160513,2419.7490,N,08102.8689,W,1,10,1.4,19,M,,M,,*6C
06/13/2015	16:05:13.601	$GPGGA,160514,2419.7497,N,08102.8692,W,1,10,1.4,19,M,,M,,*66
06/13/2015	16:05:14.550	$GPGGA,160515,2419.7504,N,08102.8694,W,1,10,1.4,19,M,,M,,*6A
06/13/2015	16:05:15.601	$GPGGA,160516,2419.7509,N,08102.8699,W,1,10,1.4,19,M,,M,,*69
06/13/2015	16:05:16.540	$GPGGA,160517,2419.7515,N,08102.8704,W,1,10,1.4,19,M,,M,,*60
06/13/2015	16:05:17.600	$GPGGA,160518,2419.7522,N,08102.8710,W,1,10,1.4,19,M,,M,,*6E
06/13/2015	16:05:18.530	$GPGGA,160519,2419.7522,N,08102.8710,W,1,10,1.4,19,M,,M,,*6F
06/13/2015	16:05:19.570	$GPGGA,160520,2419.7529,N,08102.8714,W,1,10,1.4,19,M,,M,,*6A
06/13/2015	16:05:20.550	$GPGGA,160521,2419.7542,N,08102.8725,W,1,10,1.4,19,M,,M,,*64
06/13/2015	16:05:21.614	$GPGGA,160522,2419.7542,N,08102.8725,W,1,10,1.4,19,M,,M,,*67
06/13/2015	16:05:22.540	$GPGGA,160523,2419.7556,N,08102.8730,W,1,10,1.4,19,M,,M,,*67
06/13/2015	16:05:24.719	$GPGGA,160525,2419.7567,N,08102.8741,W,1,10,1.4,19,M,,M,,*65
06/13/2015	16:05:25.525	$GPGGA,160526,2419.7567,N,08102.8741,W,1,10,1.4,19,M,,M,,*66
06/13/2015	16:05:26.519	$GPGGA,160527,2419.7573,N,08102.8747,W,1,10,1.4,19,M,,M,,*64
06/13/2015	16:05:27.549	$GPGGA,160528,2419.7589,N,08102.8755,W,1,10,1.4,19,M,,M,,*6D
06/13/2015	16:05:28.517	$GPGGA,160529,2419.7594,N,08102.8761,W,1,10,1.4,19,M,,M,,*67
06/13/2015	16:05:29.539	$GPGGA,160530,2419.7600,N,08102.8764,W,1,10,1.4,19,M,,M,,*64
06/13/2015	16:05:30.520	$GPGGA,160531,2419.7607,N,08102.8769,W,1,10,1.4,19,M,,M,,*6F
06/13/2015	16:05:31.529	$GPGGA,160532,2419.7607,N,08102.8769,W,1,10,1.4,19,M,,M,,*6C
06/13/2015	16:05:32.590	$GPGGA,160533,2419.7620,N,08102.8780,W,1,10,1.4,19,M,,M,,*6F
06/13/2015	16:05:33.630	$GPGGA,160534,2419.7627,N,08102.8786,W,1,10,1.4,19,M,,M,,*69
06/13/2015	16:05:34.521	$GPGGA,160535,2419.7634,N,08102.8790,W,1,10,1.4,19,M,,M,,*6D
06/13/2015	16:05:35.640	$GPGGA,160536,2419.7641,N,08102.8795,W,1,10,1.4,19,M,,M,,*69
06/13/2015	16:05:36.580	$GPGGA,160537,2419.7648,N,08102.8800,W,1,10,1.4,19,M,,M,,*62
06/13/2015	16:05:37.580	$GPGGA,160538,2419.7654,N,08102.8804,W,1,10,1.4,19,M,,M,,*64
06/13/2015	16:05:38.580	$GPGGA,160539,2419.7660,N,08102.8809,W,1,10,1.4,19,M,,M,,*6F
06/13/2015	16:05:39.616	$GPGGA,160540,2419.7664,N,08102.8815,W,1,9,1.7,19,M,,M,,*53
06/13/2015	16:05:40.580	$GPGGA,160541,2419.7672,N,08102.8822,W,1,9,1.4,19,M,,M,,*52
06/13/2015	16:05:41.615	$GPGGA,160542,2419.7679,N,08102.8826,W,1,10,1.4,19,M,,M,,*66
06/13/2015	16:05:42.579	$GPGGA,160543,2419.7688,N,08102.8831,W,1,10,1.4,19,M,,M,,*6F
06/13/2015	16:05:43.639	$GPGGA,160544,2419.7695,N,08102.8837,W,1,10,1.4,19,M,,M,,*62
06/13/2015	16:05:44.579	$GPGGA,160545,2419.7701,N,08102.8842,W,1,10,1.4,19,M,,M,,*6D
06/13/2015	16:05:45.600	$GPGGA,160546,2419.7707,N,08102.8847,W,1,10,1.4,19,M,,M,,*6D
06/13/2015	16:05:46.569	$GPGGA,160547,2419.7712,N,08102.8851,W,1,10,1.4,19,M,,M,,*6F
06/13/2015	16:05:47.619	$GPGGA,160548,2419.7719,N,08102.8855,W,1,10,1.4,19,M,,M,,*6F
06/13/2015	16:05:48.569	$GPGGA,160549,2419.7726,N,08102.8862,W,1,10,1.4,19,M,,M,,*66
06/13/2015	16:05:49.591	$GPGGA,160550,2419.7733,N,08102.8867,W,1,10,1.4,19,M,,M,,*6F
06/13/2015	16:05:50.570	$GPGGA,160551,2419.7740,N,08102.8873,W,1,10,1.4,19,M,,M,,*6F
06/13/2015	16:05:51.570	$GPGGA,160552,2419.7748,N,08102.8876,W,1,10,1.4,19,M,,M,,*61
06/13/2015	16:05:52.560	$GPGGA,160553,2419.7755,N,08102.8883,W,1,10,1.4,18,M,,M,,*67
06/13/2015	16:05:53.580	$GPGGA,160554,2419.7761,N,08102.8887,W,1,9,1.7,18,M,,M,,*58
06/13/2015	16:05:54.560	$GPGGA,160555,2419.7768,N,08102.8892,W,1,9,1.4,18,M,,M,,*57
06/13/2015	16:05:55.604	$GPGGA,160556,2419.7775,N,08102.8896,W,1,10,1.4,18,M,,M,,*64
06/13/2015	16:05:56.540	$GPGGA,160557,2419.7782,N,08102.8902,W,1,10,1.4,18,M,,M,,*61
06/13/2015	16:05:57.570	$GPGGA,160558,2419.7789,N,08102.8909,W,1,10,1.4,18,M,,M,,*6E
06/13/2015	16:05:58.550	$GPGGA,160559,2419.7795,N,08102.8913,W,1,10,1.4,18,M,,M,,*69
06/13/2015	16:05:59.599	$GPGGA,160600,2419.7802,N,08102.8917,W,1,10,1.4,18,M,,M,,*63
06/13/2015	16:06:00.549	$GPGGA,160601,2419.7809,N,08102.8923,W,1,10,1.4,18,M,,M,,*6E
06/13/2015	16:06:01.559	$GPGGA,160602,2419.7815,N,08102.8927,W,1,10,1.4,18,M,,M,,*64
06/13/2015	16:06:02.549	$GPGGA,160603,2419.7823,N,08102.8931,W,1,10,1.4,18,M,,M,,*67
06/13/2015	16:06:03.549	$GPGGA,160604,2419.7829,N,08102.8936,W,1,10,1.4,18,M,,M,,*6D
06/13/2015	16:06:04.559	$GPGGA,160605,2419.7836,N,08102.8941,W,1,10,1.4,18,M,,M,,*62
06/13/2015	16:06:05.539	$GPGGA,160606,2419.7841,N,08102.8947,W,1,10,1.4,18,M,,M,,*67
06/13/2015	16:06:06.529	$GPGGA,160607,2419.7849,N,08102.8952,W,1,10,1.4,18,M,,M,,*6A
06/13/2015	16:06:07.540	$GPGGA,160608,2419.7856,N,08102.8957,W,1,9,1.7,18,M,,M,,*55
06/13/2015	16:06:08.530	$GPGGA,160609,2419.7860,N,08102.8960,W,1,9,1.7,18,M,,M,,*55
06/13/2015	16:06:09.540	$GPGGA,160610,2419.7866,N,08102.8965,W,1,10,1.4,18,M,,M,,*65
06/13/2015	16:06:10.520	$GPGGA,160611,2419.7872,N,08102.8970,W,1,10,1.4,18,M,,M,,*65
06/13/2015	16:06:11.540	$GPGGA,160612,2419.7880,N,08102.8977,W,1,10,1.4,18,M,,M,,*6C
06/13/2015	16:06:12.530	$GPGGA,160613,2419.7888,N,08102.8981,W,1,10,1.4,18,M,,M,,*6C
06/13/2015	16:06:13.510	$GPGGA,160614,2419.7894,N,08102.8989,W,1,10,1.4,18,M,,M,,*6E
06/13/2015	16:06:14.511	$GPGGA,160615,2419.7899,N,08102.8996,W,1,10,1.7,18,M,,M,,*6F
06/13/2015	16:06:15.510	$GPGGA,160616,2419.7906,N,08102.9000,W,1,9,1.7,18,M,,M,,*54
06/13/2015	16:06:16.619	$GPGGA,160617,2419.7913,N,08102.9003,W,1,9,1.7,18,M,,M,,*52
06/13/2015	16:06:17.500	$GPGGA,160618,2419.7919,N,08102.9008,W,1,10,1.4,18,M,,M,,*67
06/13/2015	16:06:18.599	$GPGGA,160619,2419.7925,N,08102.9014,W,1,10,1.4,18,M,,M,,*64
06/13/2015	16:06:19.639	$GPGGA,160620,2419.7932,N,08102.9018,W,1,10,1.4,18,M,,M,,*64
06/13/2015	16:06:20.589	$GPGGA,160621,2419.7939,N,08102.9026,W,1,10,1.4,18,M,,M,,*63
06/13/2015	16:06:21.609	$GPGGA,160622,2419.7946,N,08102.9032,W,1,9,1.7,18,M,,M,,*56
06/13/2015	16:06:22.499	$GPGGA,160623,2419.7952,N,08102.9035,W,1,9,1.7,18,M,,M,,*55
06/13/2015	16:06:23.602	$GPGGA,160624,2419.7957,N,08102.9039,W,1,10,1.4,18,M,,M,,*60
06/13/2015	16:06:24.602	$GPGGA,160625,2419.7964,N,08102.9046,W,1,10,1.4,18,M,,M,,*69
06/13/2015	16:06:25.611	$GPGGA,160626,2419.7971,N,08102.9051,W,1,10,1.4,18,M,,M,,*68
06/13/2015	16:06:26.590	$GPGGA,160627,2419.7979,N,08102.9057,W,1,10,1.4,18,M,,M,,*67
06/13/2015	16:06:27.590	$GPGGA,160628,2419.7986,N,08102.9062,W,1,10,1.4,18,M,,M,,*6E
06/13/2015	16:06:28.490	$GPGGA,160629,2419.7992,N,08102.9069,W,1,10,1.4,18,M,,M,,*61
06/13/2015	16:06:29.590	$GPGGA,160630,2419.7999,N,08102.9075,W,1,9,1.6,18,M,,M,,*55
06/13/2015	16:06:30.580	$GPGGA,160631,2419.8004,N,08102.9079,W,1,9,1.4,18,M,,M,,*58
06/13/2015	16:06:31.600	$GPGGA,160632,2419.8011,N,08102.9082,W,1,10,1.4,18,M,,M,,*63
06/13/2015	16:06:32.570	$GPGGA,160633,2419.8018,N,08102.9086,W,1,10,1.4,18,M,,M,,*6F
06/13/2015	16:06:33.591	$GPGGA,160634,2419.8025,N,08102.9091,W,1,10,1.4,18,M,,M,,*60
06/13/2015	16:06:34.569	$GPGGA,160635,2419.8031,N,08102.9098,W,1,10,1.4,18,M,,M,,*6D
06/13/2015	16:06:35.602	$GPGGA,160636,2419.8037,N,08102.9104,W,1,10,1.4,18,M,,M,,*6C
06/13/2015	16:06:36.569	$GPGGA,160637,2419.8046,N,08102.9109,W,1,10,1.4,18,M,,M,,*66
06/13/2015	16:06:37.559	$GPGGA,160638,2419.8053,N,08102.9115,W,1,10,1.4,18,M,,M,,*60
06/13/2015	16:06:38.569	$GPGGA,160639,2419.8058,N,08102.9118,W,1,10,1.4,18,M,,M,,*67
06/13/2015	16:06:39.619	$GPGGA,160640,2419.8064,N,08102.9122,W,1,10,1.4,18,M,,M,,*6F
06/13/2015	16:06:40.559	$GPGGA,160641,2419.8071,N,08102.9127,W,1,10,1.4,18,M,,M,,*6F
06/13/2015	16:06:41.550	$GPGGA,160642,2419.8079,N,08102.9133,W,1,10,1.4,18,M,,M,,*61
06/13/2015	16:06:42.550	$GPGGA,160643,2419.8083,N,08102.9140,W,1,10,1.5,18,M,,M,,*60
06/13/2015	16:06:43.590	$GPGGA,160644,2419.8091,N,08102.9145,W,1,10,1.4,18,M,,M,,*60
06/13/2015	16:06:44.540	$GPGGA,160645,2419.8100,N,08102.9149,W,1,10,1.4,18,M,,M,,*64
06/13/2015	16:06:45.550	$GPGGA,160646,2419.8108,N,08102.9154,W,1,10,1.4,18,M,,M,,*63
06/13/2015	16:06:46.540	$GPGGA,160647,2419.8113,N,08102.9158,W,1,10,1.4,18,M,,M,,*64
06/13/2015	16:06:47.570	$GPGGA,160648,2419.8120,N,08102.9162,W,1,10,1.4,18,M,,M,,*62
06/13/2015	16:06:48.530	$GPGGA,160649,2419.8129,N,08102.9166,W,1,10,1.4,18,M,,M,,*6E
06/13/2015	16:06:49.580	$GPGGA,160650,2419.8134,N,08102.9173,W,1,10,1.4,18,M,,M,,*6E
06/13/2015	16:06:50.540	$GPGGA,160651,2419.8141,N,08102.9178,W,1,10,1.4,18,M,,M,,*66
06/13/2015	16:06:51.569	$GPGGA,160652,2419.8151,N,08102.9183,W,1,10,1.4,18,M,,M,,*60
06/13/2015	16:06:52.549	$GPGGA,160653,2419.8158,N,08102.9188,W,1,10,1.4,18,M,,M,,*63
06/13/2015	16:06:53.639	$GPGGA,160654,2419.8165,N,08102.9194,W,1,10,1.4,18,M,,M,,*67
06/13/2015	16:06:54.639	$GPGGA,160655,2419.8172,N,08102.9198,W,1,10,1.4,19,M,,M,,*6D
06/13/2015	16:06:55.569	$GPGGA,160656,2419.8177,N,08102.9201,W,1,10,1.4,19,M,,M,,*68
06/13/2015	16:06:56.524	$GPGGA,160657,2419.8188,N,08102.9205,W,1,10,1.5,19,M,,M,,*6C
06/13/2015	16:06:57.519	$GPGGA,160658,2419.8195,N,08102.9210,W,1,10,1.4,19,M,,M,,*6A
06/13/2015	16:06:58.529	$GPGGA,160659,2419.8203,N,08102.9216,W,1,10,1.4,19,M,,M,,*61
06/13/2015	16:06:59.660	$GPGGA,160700,2419.8210,N,08102.9221,W,1,10,1.4,19,M,,M,,*6A
06/13/2015	16:07:00.540	$GPGGA,160701,2419.8216,N,08102.9227,W,1,10,1.4,19,M,,M,,*6B
06/13/2015	16:07:01.507	$GPGGA,160702,2419.8223,N,08102.9231,W,1,10,1.4,19,M,,M,,*69
06/13/2015	16:07:02.524	$GPGGA,160703,2419.8228,N,08102.9234,W,1,10,1.6,19,M,,M,,*64
06/13/2015	16:07:03.651	$GPGGA,160704,2419.8232,N,08102.9239,W,1,9,1.5,19,M,,M,,*5E
06/13/2015	16:07:04.602	$GPGGA,160705,2419.8237,N,08102.9245,W,1,9,1.4,19,M,,M,,*50
06/13/2015	16:07:05.512	$GPGGA,160706,2419.8242,N,08102.9249,W,1,10,1.4,19,M,,M,,*65
06/13/2015	16:07:06.517	$GPGGA,160707,2419.8250,N,08102.9252,W,1,10,1.4,19,M,,M,,*6D
06/13/2015	16:07:07.640	$GPGGA,160708,2419.8256,N,08102.9257,W,1,9,1.5,19,M,,M,,*58
06/13/2015	16:07:08.604	$GPGGA,160709,2419.8260,N,08102.9263,W,1,9,1.5,19,M,,M,,*5B
06/13/2015	16:07:09.599	$GPGGA,160710,2419.8268,N,08102.9267,W,1,10,1.4,19,M,,M,,*66
06/13/2015	16:07:10.599	$GPGGA,160711,2419.8275,N,08102.9270,W,1,10,1.4,19,M,,M,,*6D
06/13/2015	16:07:11.609	$GPGGA,160712,2419.8282,N,08102.9274,W,1,10,1.4,19,M,,M,,*62
06/13/2015	16:07:12.600	$GPGGA,160713,2419.8289,N,08102.9279,W,1,10,1.4,19,M,,M,,*65
06/13/2015	16:07:13.601	$GPGGA,160714,2419.8296,N,08102.9283,W,1,10,1.4,19,M,,M,,*69
06/13/2015	16:07:14.607	$GPGGA,160715,2419.8302,N,08102.9289,W,1,10,1.4,19,M,,M,,*6E
06/13/2015	16:07:15.589	$GPGGA,160716,2419.8310,N,08102.9295,W,1,10,1.4,19,M,,M,,*63
06/13/2015	16:07:16.590	$GPGGA,160717,2419.8318,N,08102.9299,W,1,10,1.4,19,M,,M,,*66
06/13/2015	16:07:17.613	$GPGGA,160718,2419.8326,N,08102.9303,W,1,10,1.4,19,M,,M,,*66
06/13/2015	16:07:18.580	$GPGGA,160719,2419.8332,N,08102.9310,W,1,10,1.4,19,M,,M,,*60
06/13/2015	16:07:19.620	$GPGGA,160720,2419.8339,N,08102.9314,W,1,10,1.4,19,M,,M,,*65
06/13/2015	16:07:20.590	$GPGGA,160721,2419.8346,N,08102.9317,W,1,10,1.4,19,M,,M,,*6F
06/13/2015	16:07:21.570	$GPGGA,160722,2419.8353,N,08102.9321,W,1,10,1.4,19,M,,M,,*6D
06/13/2015	16:07:22.570	$GPGGA,160723,2419.8360,N,08102.9326,W,1,10,1.4,19,M,,M,,*6B
06/13/2015	16:07:23.570	$GPGGA,160724,2419.8368,N,08102.9332,W,1,10,1.4,19,M,,M,,*61
06/13/2015	16:07:24.560	$GPGGA,160725,2419.8376,N,08102.9336,W,1,10,1.4,19,M,,M,,*6B
06/13/2015	16:07:25.580	$GPGGA,160726,2419.8383,N,08102.9342,W,1,10,1.4,19,M,,M,,*61
06/13/2015	16:07:26.559	$GPGGA,160727,2419.8389,N,08102.9346,W,1,10,1.4,19,M,,M,,*6E
06/13/2015	16:07:28.669	$GPGGA,160729,2419.8404,N,08102.9353,W,1,10,1.4,19,M,,M,,*66
06/13/2015	16:07:29.559	$GPGGA,160730,2419.8411,N,08102.9358,W,1,10,1.4,19,M,,M,,*61
06/13/2015	16:07:30.549	$GPGGA,160731,2419.8418,N,08102.9365,W,1,10,1.4,19,M,,M,,*67
06/13/2015	16:07:31.569	$GPGGA,160732,2419.8426,N,08102.9371,W,1,10,1.4,19,M,,M,,*6C
06/13/2015	16:07:32.569	$GPGGA,160733,2419.8434,N,08102.9378,W,1,10,1.4,19,M,,M,,*67
06/13/2015	16:07:33.529	$GPGGA,160734,2419.8441,N,08102.9383,W,1,9,1.6,19,M,,M,,*5C
06/13/2015	16:07:34.540	$GPGGA,160735,2419.8447,N,08102.9387,W,1,9,1.4,19,M,,M,,*5D
06/13/2015	16:07:35.570	$GPGGA,160736,2419.8454,N,08102.9390,W,1,10,1.4,19,M,,M,,*62
06/13/2015	16:07:36.530	$GPGGA,160737,2419.8461,N,08102.9394,W,1,10,1.4,19,M,,M,,*61
06/13/2015	16:07:37.540	$GPGGA,160738,2419.8469,N,08102.9400,W,1,10,1.4,19,M,,M,,*6C
06/13/2015	16:07:38.550	$GPGGA,160739,2419.8477,N,08102.9407,W,1,10,1.4,19,M,,M,,*65
06/13/2015	16:07:39.590	$GPGGA,160740,2419.8484,N,08102.9412,W,1,10,1.4,19,M,,M,,*63
06/13/2015	16:07:40.520	$GPGGA,160741,2419.8492,N,08102.9418,W,1,10,1.4,19,M,,M,,*6F
06/13/2015	16:07:41.540	$GPGGA,160742,2419.8495,N,08102.9420,W,1,9,1.6,19,M,,M,,*5A
06/13/2015	16:07:42.612	$GPGGA,160743,2419.8502,N,08102.9423,W,1,9,1.4,19,M,,M,,*55
06/13/2015	16:07:43.570	$GPGGA,160744,2419.8509,N,08102.9427,W,1,10,1.4,19,M,,M,,*65
06/13/2015	16:07:44.611	$GPGGA,160745,2419.8516,N,08102.9433,W,1,10,1.4,19,M,,M,,*6F
06/13/2015	16:07:45.549	$GPGGA,160746,2419.8524,N,08102.9438,W,1,10,1.4,19,M,,M,,*66
06/13/2015	16:07:46.529	$GPGGA,160747,2419.8531,N,08102.9445,W,1,10,1.5,19,M,,M,,*68
06/13/2015	16:07:47.629	$GPGGA,160748,2419.8538,N,08102.9451,W,1,10,1.4,19,M,,M,,*6A
06/13/2015	16:07:48.519	$GPGGA,160749,2419.8545,N,08102.9455,W,1,10,1.4,19,M,,M,,*65
06/13/2015	16:07:49.519	$GPGGA,160750,2419.8552,N,08102.9458,W,1,10,1.4,19,M,,M,,*66
06/13/2015	16:07:50.600	$GPGGA,160751,2419.8559,N,08102.9465,W,1,10,1.5,19,M,,M,,*63
06/13/2015	16:07:51.530	$GPGGA,160752,2419.8566,N,08102.9469,W,1,10,1.4,19,M,,M,,*61
06/13/2015	16:07:52.602	$GPGGA,160753,2419.8575,N,08102.9474,W,1,10,1.4,19,M,,M,,*6E
06/13/2015	16:07:53.630	$GPGGA,160754,2419.8582,N,08102.9481,W,1,10,1.4,19,M,,M,,*6B
06/13/2015	16:07:54.603	$GPGGA,160755,2419.8591,N,08102.9488,W,1,10,1.4,19,M,,M,,*61
06/13/2015	16:07:55.650	$GPGGA,160756,2419.8600,N,08102.9494,W,1,10,1.4,19,M,,M,,*64
06/13/2015	16:07:56.604	$GPGGA,160757,2419.8609,N,08102.9498,W,1,10,1.4,19,M,,M,,*60
06/13/2015	16:07:57.606	$GPGGA,160758,2419.8617,N,08102.9503,W,1,10,1.4,19,M,,M,,*63
06/13/2015	16:07:58.590	$GPGGA,160759,2419.8625,N,08102.9510,W,1,10,1.4,19,M,,M,,*61
06/13/2015	16:07:59.650	$GPGGA,160800,2419.8633,N,08102.9516,W,1,10,1.4,19,M,,M,,*63
06/13/2015	16:08:00.590	$GPGGA,160801,2419.8643,N,08102.9523,W,1,10,1.3,19,M,,M,,*64
06/13/2015	16:08:01.579	$GPGGA,160802,2419.8651,N,08102.9528,W,1,11,1.3,19,M,,M,,*6E
06/13/2015	16:08:02.589	$GPGGA,160803,2419.8661,N,08102.9534,W,1,11,1.3,19,M,,M,,*61
06/13/2015	16:08:03.605	$GPGGA,160804,2419.8671,N,08102.9541,W,1,11,1.3,19,M,,M,,*65
06/13/2015	16:08:04.579	$GPGGA,160805,2419.8680,N,08102.9548,W,1,11,1.3,19,M,,M,,*63
06/13/2015	16:08:05.579	$GPGGA,160806,2419.8691,N,08102.9553,W,1,11,1.3,19,M,,M,,*6A
06/13/2015	16:08:06.579	$GPGGA,160807,2419.8701,N,08102.9559,W,1,11,1.4,19,M,,M,,*6E
06/13/2015	16:08:07.601	$GPGGA,160808,2419.8711,N,08102.9566,W,1,10,1.4,19,M,,M,,*6D
06/13/2015	16:08:08.569	$GPGGA,160809,2419.8721,N,08102.9572,W,1,10,1.3,19,M,,M,,*6D
06/13/2015	16:08:09.580	$GPGGA,160810,2419.8730,N,08102.9578,W,1,11,1.3,19,M,,M,,*6E
06/13/2015	16:08:10.570	$GPGGA,160811,2419.8741,N,08102.9585,W,1,11,1.4,19,M,,M,,*6C
06/13/2015	16:08:11.570	$GPGGA,160812,2419.8751,N,08102.9590,W,1,10,1.4,19,M,,M,,*6B
06/13/2015	16:08:12.550	$GPGGA,160813,2419.8761,N,08102.9599,W,1,10,1.3,19,M,,M,,*67
06/13/2015	16:08:13.590	$GPGGA,160814,2419.8770,N,08102.9604,W,1,11,1.3,19,M,,M,,*66
06/13/2015	16:08:14.560	$GPGGA,160815,2419.8781,N,08102.9608,W,1,11,1.3,19,M,,M,,*65
06/13/2015	16:08:15.560	$GPGGA,160816,2419.8792,N,08102.9614,W,1,11,1.3,19,M,,M,,*69
06/13/2015	16:08:16.560	$GPGGA,160817,2419.8799,N,08102.9622,W,1,11,1.3,19,M,,M,,*66
06/13/2015	16:08:17.540	$GPGGA,160818,2419.8810,N,08102.9628,W,1,11,1.3,19,M,,M,,*6D
06/13/2015	16:08:18.560	$GPGGA,160819,2419.8823,N,08102.9635,W,1,11,1.4,19,M,,M,,*67
06/13/2015	16:08:19.602	$GPGGA,160820,2419.8834,N,08102.9642,W,1,10,1.4,19,M,,M,,*6A
06/13/2015	16:08:20.539	$GPGGA,160821,2419.8844,N,08102.9650,W,1,10,1.3,19,M,,M,,*68
06/13/2015	16:08:21.579	$GPGGA,160822,2419.8856,N,08102.9655,W,1,10,1.4,19,M,,M,,*6A
06/13/2015	16:08:22.549	$GPGGA,160823,2419.8866,N,08102.9662,W,1,10,1.3,18,M,,M,,*6A
06/13/2015	16:08:23.569	$GPGGA,160824,2419.8875,N,08102.9669,W,1,11,1.3,18,M,,M,,*65
06/13/2015	16:08:24.549	$GPGGA,160825,2419.8886,N,08102.9675,W,1,11,1.3,18,M,,M,,*65
06/13/2015	16:08:25.579	$GPGGA,160826,2419.8898,N,08102.9682,W,1,11,1.3,18,M,,M,,*61
06/13/2015	16:08:26.540	$GPGGA,160827,2419.8910,N,08102.9689,W,1,11,1.3,18,M,,M,,*6A
06/13/2015	16:08:27.690	$GPGGA,160828,2419.8921,N,08102.9697,W,1,11,1.3,18,M,,M,,*68
06/13/2015	16:08:28.540	$GPGGA,160829,2419.8932,N,08102.9705,W,1,11,1.3,18,M,,M,,*61
06/13/2015	16:08:29.640	$GPGGA,160830,2419.8943,N,08102.9711,W,1,11,1.4,18,M,,M,,*6D
06/13/2015	16:08:30.640	$GPGGA,160831,2419.8954,N,08102.9719,W,1,11,1.3,18,M,,M,,*65
06/13/2015	16:08:31.690	$GPGGA,160832,2419.8962,N,08102.9726,W,1,11,1.3,18,M,,M,,*6F
06/13/2015	16:08:32.530	$GPGGA,160833,2419.8974,N,08102.9733,W,1,11,1.3,18,M,,M,,*6D
06/13/2015	16:08:33.640	$GPGGA,160834,2419.8986,N,08102.9740,W,1,11,1.3,18,M,,M,,*63
06/13/2015	16:08:34.606	$GPGGA,160835,2419.8996,N,08102.9747,W,1,11,1.4,18,M,,M,,*63
06/13/2015	16:08:35.650	$GPGGA,160836,2419.9007,N,08102.9756,W,1,10,1.3,18,M,,M,,*66
06/13/2015	16:08:36.610	$GPGGA,160837,2419.9018,N,08102.9765,W,1,10,1.3,18,M,,M,,*69
06/13/2015	16:08:37.514	$GPGGA,160838,2419.9030,N,08102.9772,W,1,11,1.3,18,M,,M,,*6B
06/13/2015	16:08:38.513	$GPGGA,160839,2419.9041,N,08102.9780,W,1,11,1.3,18,M,,M,,*61
06/13/2015	16:08:39.679	$GPGGA,160840,2419.9050,N,08102.9787,W,1,11,1.3,18,M,,M,,*68
06/13/2015	16:08:40.600	$GPGGA,160841,2419.9061,N,08102.9795,W,1,11,1.3,18,M,,M,,*68
06/13/2015	16:08:41.604	$GPGGA,160842,2419.9073,N,08102.9802,W,1,11,1.3,18,M,,M,,*69
06/13/2015	16:08:42.601	$GPGGA,160843,2419.9084,N,08102.9810,W,1,11,1.3,18,M,,M,,*63
06/13/2015	16:08:43.613	$GPGGA,160844,2419.9095,N,08102.9819,W,1,11,1.3,18,M,,M,,*6D
06/13/2015	16:08:44.605	$GPGGA,160845,2419.9106,N,08102.9827,W,1,11,1.3,18,M,,M,,*6A
06/13/2015	16:08:45.615	$GPGGA,160846,2419.9117,N,08102.9835,W,1,11,1.3,18,M,,M,,*6A
06/13/2015	16:08:46.590	$GPGGA,160847,2419.9128,N,08102.9842,W,1,11,1.3,18,M,,M,,*67
06/13/2015	16:08:47.630	$GPGGA,160848,2419.9138,N,08102.9849,W,1,11,1.3,18,M,,M,,*62
06/13/2015	16:08:48.590	$GPGGA,160849,2419.9149,N,08102.9857,W,1,11,1.3,18,M,,M,,*6A
06/13/2015	16:08:49.630	$GPGGA,160850,2419.9160,N,08102.9864,W,1,11,1.3,18,M,,M,,*69
06/13/2015	16:08:50.580	$GPGGA,160851,2419.9171,N,08102.9873,W,1,11,1.4,18,M,,M,,*69
06/13/2015	16:08:51.630	$GPGGA,160852,2419.9181,N,08102.9879,W,1,10,1.3,18,M,,M,,*69
06/13/2015	16:08:52.580	$GPGGA,160853,2419.9192,N,08102.9888,W,1,10,1.3,18,M,,M,,*64
06/13/2015	16:08:53.580	$GPGGA,160854,2419.9202,N,08102.9897,W,1,11,1.4,18,M,,M,,*61
06/13/2015	16:08:54.579	$GPGGA,160855,2419.9214,N,08102.9904,W,1,11,1.4,18,M,,M,,*6C
06/13/2015	16:08:55.619	$GPGGA,160856,2419.9224,N,08102.9911,W,1,10,1.3,18,M,,M,,*6E
06/13/2015	16:08:56.569	$GPGGA,160857,2419.9232,N,08102.9921,W,1,10,1.3,18,M,,M,,*6B
06/13/2015	16:08:57.589	$GPGGA,160858,2419.9242,N,08102.9929,W,1,11,1.3,18,M,,M,,*6A
06/13/2015	16:08:58.569	$GPGGA,160859,2419.9254,N,08102.9936,W,1,11,1.3,18,M,,M,,*62
06/13/2015	16:08:59.649	$GPGGA,160900,2419.9265,N,08102.9943,W,1,11,1.3,18,M,,M,,*6F
06/13/2015	16:09:00.569	$GPGGA,160901,2419.9276,N,08102.9953,W,1,11,1.3,18,M,,M,,*6D
06/13/2015	16:09:01.560	$GPGGA,160902,2419.9286,N,08102.9962,W,1,11,1.3,18,M,,M,,*63
06/13/2015	16:09:02.820	$GPGGA,160903,2419.9296,N,08102.9971,W,1,11,1.3,18,M,,M,,*61
06/13/2015	16:09:03.630	$GPGGA,160904,2419.9308,N,08102.9975,W,1,11,1.3,18,M,,M,,*64
06/13/2015	16:09:04.560	$GPGGA,160905,2419.9316,N,08102.9983,W,1,11,1.3,18,M,,M,,*63
06/13/2015	16:09:05.580	$GPGGA,160906,2419.9325,N,08102.9991,W,1,11,1.3,18,M,,M,,*63
06/13/2015	16:09:06.570	$GPGGA,160907,2419.9336,N,08103.0000,W,1,11,1.3,18,M,,M,,*69
06/13/2015	16:09:07.610	$GPGGA,160908,2419.9348,N,08103.0008,W,1,11,1.3,18,M,,M,,*67
06/13/2015	16:09:09.071	$GPGGA,160909,2419.9357,N,08103.0018,W,1,11,1.3,18,M,,M,,*69
06/13/2015	16:09:09.580	$GPGGA,160910,2419.9366,N,08103.0026,W,1,11,1.3,18,M,,M,,*6E
06/13/2015	16:09:10.540	$GPGGA,160911,2419.9375,N,08103.0033,W,1,11,1.3,18,M,,M,,*69
06/13/2015	16:09:11.559	$GPGGA,160912,2419.9384,N,08103.0040,W,1,11,1.3,18,M,,M,,*60
06/13/2015	16:09:12.549	$GPGGA,160913,2419.9394,N,08103.0050,W,1,11,1.3,18,M,,M,,*61
06/13/2015	16:09:13.559	$GPGGA,160914,2419.9404,N,08103.0058,W,1,11,1.3,18,M,,M,,*60
06/13/2015	16:09:14.549	$GPGGA,160915,2419.9413,N,08103.0066,W,1,11,1.3,18,M,,M,,*6A
06/13/2015	16:09:15.559	$GPGGA,160916,2419.9422,N,08103.0076,W,1,11,1.4,18,M,,M,,*6D
06/13/2015	16:09:16.549	$GPGGA,160917,2419.9431,N,08103.0084,W,1,11,1.3,18,M,,M,,*64
06/13/2015	16:09:17.629	$GPGGA,160918,2419.9440,N,08103.0094,W,1,11,1.4,18,M,,M,,*6B
06/13/2015	16:09:18.549	$GPGGA,160919,2419.9449,N,08103.0102,W,1,11,1.3,18,M,,M,,*6A
06/13/2015	16:09:19.630	$GPGGA,160920,2419.9458,N,08103.0112,W,1,11,1.3,18,M,,M,,*61
06/13/2015	16:09:20.610	$GPGGA,160921,2419.9466,N,08103.0121,W,1,11,1.3,18,M,,M,,*6D
06/13/2015	16:09:21.530	$GPGGA,160922,2419.9475,N,08103.0130,W,1,11,1.3,18,M,,M,,*6C
06/13/2015	16:09:22.520	$GPGGA,160923,2419.9485,N,08103.0138,W,1,11,1.3,18,M,,M,,*6A
06/13/2015	16:09:23.630	$GPGGA,160924,2419.9493,N,08103.0148,W,1,11,1.3,18,M,,M,,*6D
06/13/2015	16:09:24.540	$GPGGA,160925,2419.9503,N,08103.0159,W,1,11,1.3,18,M,,M,,*64
06/13/2015	16:09:25.610	$GPGGA,160926,2419.9511,N,08103.0167,W,1,11,1.3,18,M,,M,,*69
06/13/2015	16:09:26.610	$GPGGA,160927,2419.9521,N,08103.0177,W,1,11,1.3,18,M,,M,,*6A
06/13/2015	16:09:27.640	$GPGGA,160928,2419.9528,N,08103.0185,W,1,11,1.3,18,M,,M,,*61
06/13/2015	16:09:28.590	$GPGGA,160929,2419.9538,N,08103.0193,W,1,11,1.3,18,M,,M,,*66
06/13/2015	16:09:29.609	$GPGGA,160930,2419.9546,N,08103.0203,W,1,11,1.4,18,M,,M,,*6A
06/13/2015	16:09:30.599	$GPGGA,160931,2419.9554,N,08103.0213,W,1,11,1.3,18,M,,M,,*6E
06/13/2015	16:09:31.619	$GPGGA,160932,2419.9565,N,08103.0224,W,1,11,1.3,18,M,,M,,*6B
06/13/2015	16:09:32.601	$GPGGA,160933,2419.9575,N,08103.0232,W,1,11,1.3,18,M,,M,,*6C
06/13/2015	16:09:33.602	$GPGGA,160934,2419.9582,N,08103.0243,W,1,10,1.3,18,M,,M,,*64
06/13/2015	16:09:34.589	$GPGGA,160935,2419.9590,N,08103.0253,W,1,10,1.3,18,M,,M,,*67
06/13/2015	16:09:35.612	$GPGGA,160936,2419.9600,N,08103.0260,W,1,11,1.3,18,M,,M,,*6F
06/13/2015	16:09:36.590	$GPGGA,160937,2419.9608,N,08103.0269,W,1,11,1.3,18,M,,M,,*6F
06/13/2015	16:09:37.590	$GPGGA,160938,2419.9618,N,08103.0279,W,1,11,1.3,18,M,,M,,*60
06/13/2015	16:09:38.570	$GPGGA,160939,2419.9628,N,08103.0289,W,1,11,1.3,18,M,,M,,*6D
06/13/2015	16:09:39.620	$GPGGA,160940,2419.9636,N,08103.0300,W,1,11,1.3,18,M,,M,,*6C
06/13/2015	16:09:40.580	$GPGGA,160941,2419.9644,N,08103.0309,W,1,11,1.3,18,M,,M,,*61
06/13/2015	16:09:41.560	$GPGGA,160942,2419.9652,N,08103.0318,W,1,11,1.3,18,M,,M,,*65
06/13/2015	16:09:42.570	$GPGGA,160943,2419.9661,N,08103.0326,W,1,11,1.3,18,M,,M,,*69
06/13/2015	16:09:43.600	$GPGGA,160944,2419.9669,N,08103.0336,W,1,11,1.3,18,M,,M,,*67
06/13/2015	16:09:44.570	$GPGGA,160945,2419.9677,N,08103.0345,W,1,11,1.3,18,M,,M,,*6D
06/13/2015	16:09:45.570	$GPGGA,160946,2419.9687,N,08103.0354,W,1,11,1.3,18,M,,M,,*61
06/13/2015	16:09:46.569	$GPGGA,160947,2419.9695,N,08103.0365,W,1,11,1.3,18,M,,M,,*61
06/13/2015	16:09:47.589	$GPGGA,160948,2419.9704,N,08103.0374,W,1,11,1.3,18,M,,M,,*67
06/13/2015	16:09:48.569	$GPGGA,160949,2419.9711,N,08103.0383,W,1,11,1.3,18,M,,M,,*6A
06/13/2015	16:09:49.549	$GPGGA,160950,2419.9720,N,08103.0392,W,1,11,1.3,18,M,,M,,*60
06/13/2015	16:09:50.569	$GPGGA,160951,2419.9727,N,08103.0401,W,1,11,1.3,18,M,,M,,*6B
06/13/2015	16:09:51.549	$GPGGA,160952,2419.9735,N,08103.0412,W,1,11,1.3,18,M,,M,,*69
06/13/2015	16:09:52.559	$GPGGA,160953,2419.9744,N,08103.0419,W,1,11,1.3,18,M,,M,,*65
06/13/2015	16:09:53.569	$GPGGA,160954,2419.9752,N,08103.0430,W,1,11,1.3,18,M,,M,,*6E
06/13/2015	16:09:54.560	$GPGGA,160955,2419.9760,N,08103.0439,W,1,11,1.3,18,M,,M,,*67
06/13/2015	16:09:55.590	$GPGGA,160956,2419.9769,N,08103.0449,W,1,11,1.3,18,M,,M,,*6A
06/13/2015	16:09:56.550	$GPGGA,160957,2419.9777,N,08103.0459,W,1,11,1.3,18,M,,M,,*65
06/13/2015	16:09:57.560	$GPGGA,160958,2419.9785,N,08103.0470,W,1,11,1.3,18,M,,M,,*6C
06/13/2015	16:09:58.530	$GPGGA,160959,2419.9792,N,08103.0478,W,1,11,1.3,18,M,,M,,*63
06/13/2015	16:09:59.570	$GPGGA,161000,2419.9800,N,08103.0486,W,1,10,1.6,18,M,,M,,*66
06/13/2015	16:10:00.534	$GPGGA,161001,2419.9809,N,08103.0495,W,1,10,1.6,18,M,,M,,*6C
06/13/2015	16:10:01.630	$GPGGA,161002,2419.9817,N,08103.0503,W,1,11,1.3,18,M,,M,,*6A
06/13/2015	16:10:02.540	$GPGGA,161003,2419.9825,N,08103.0513,W,1,11,1.4,18,M,,M,,*6C
06/13/2015	16:10:03.630	$GPGGA,161004,2419.9832,N,08103.0524,W,1,10,1.4,18,M,,M,,*68
06/13/2015	16:10:04.509	$GPGGA,161005,2419.9839,N,08103.0533,W,1,10,1.4,18,M,,M,,*64
06/13/2015	16:10:05.649	$GPGGA,161006,2419.9846,N,08103.0543,W,1,11,1.3,18,M,,M,,*6E
06/13/2015	16:10:06.519	$GPGGA,161007,2419.9856,N,08103.0551,W,1,11,1.3,18,M,,M,,*6D
06/13/2015	16:10:07.649	$GPGGA,161008,2419.9865,N,08103.0560,W,1,11,1.3,18,M,,M,,*60
06/13/2015	16:10:08.609	$GPGGA,161009,2419.9872,N,08103.0571,W,1,11,1.3,18,M,,M,,*67
06/13/2015	16:10:09.510	$GPGGA,161010,2419.9879,N,08103.0581,W,1,11,1.3,18,M,,M,,*6B
06/13/2015	16:10:10.596	$GPGGA,161011,2419.9890,N,08103.0590,W,1,11,1.3,18,M,,M,,*6D
06/13/2015	16:10:11.601	$GPGGA,161012,2419.9899,N,08103.0600,W,1,11,1.3,18,M,,M,,*6D
06/13/2015	16:10:12.601	$GPGGA,161013,2419.9904,N,08103.0611,W,1,11,1.3,18,M,,M,,*69
06/13/2015	16:10:13.639	$GPGGA,161014,2419.9914,N,08103.0619,W,1,10,1.4,18,M,,M,,*61
06/13/2015	16:10:14.597	$GPGGA,161015,2419.9922,N,08103.0628,W,1,10,1.4,18,M,,M,,*67
06/13/2015	16:10:15.595	$GPGGA,161016,2419.9932,N,08103.0636,W,1,10,1.4,18,M,,M,,*6A
06/13/2015	16:10:16.597	$GPGGA,161017,2419.9940,N,08103.0645,W,1,10,1.4,18,M,,M,,*6A
06/13/2015	16:10:17.579	$GPGGA,161018,2419.9950,N,08103.0654,W,1,10,1.4,18,M,,M,,*64
06/13/2015	16:10:18.589	$GPGGA,161019,2419.9958,N,08103.0665,W,1,10,1.3,18,M,,M,,*68
06/13/2015	16:10:19.609	$GPGGA,161020,2419.9968,N,08103.0675,W,1,10,1.4,18,M,,M,,*67
06/13/2015	16:10:20.589	$GPGGA,161021,2419.9977,N,08103.0683,W,1,10,1.4,18,M,,M,,*61
06/13/2015	16:10:21.568	$GPGGA,161022,2419.9986,N,08103.0693,W,1,11,1.3,18,M,,M,,*6B
06/13/2015	16:10:22.579	$GPGGA,161023,2419.9995,N,08103.0701,W,1,11,1.3,18,M,,M,,*62
06/13/2015	16:10:23.619	$GPGGA,161024,2420.0005,N,08103.0708,W,1,11,1.3,18,M,,M,,*6F
06/13/2015	16:10:24.569	$GPGGA,161025,2420.0013,N,08103.0719,W,1,11,1.3,18,M,,M,,*69
06/13/2015	16:10:25.579	$GPGGA,161026,2420.0023,N,08103.0727,W,1,11,1.3,18,M,,M,,*64
06/13/2015	16:10:26.579	$GPGGA,161027,2420.0033,N,08103.0737,W,1,11,1.3,18,M,,M,,*65
06/13/2015	16:10:27.569	$GPGGA,161028,2420.0041,N,08103.0746,W,1,11,1.3,18,M,,M,,*69
06/13/2015	16:10:28.569	$GPGGA,161029,2420.0049,N,08103.0755,W,1,11,1.3,18,M,,M,,*62
06/13/2015	16:10:29.559	$GPGGA,161030,2420.0060,N,08103.0762,W,1,10,1.4,18,M,,M,,*63
06/13/2015	16:10:30.991	$GPGGA,161031,2420.0069,N,08103.0771,W,1,10,1.3,18,M,,M,,*6E
06/13/2015	16:10:31.590	$GPGGA,161032,2420.0078,N,08103.0780,W,1,11,1.3,18,M,,M,,*62
06/13/2015	16:10:32.559	$GPGGA,161033,2420.0087,N,08103.0788,W,1,11,1.3,18,M,,M,,*6B
06/13/2015	16:10:33.549	$GPGGA,161034,2420.0096,N,08103.0798,W,1,11,1.3,18,M,,M,,*6D
06/13/2015	16:10:34.549	$GPGGA,161035,2420.0103,N,08103.0807,W,1,11,1.3,18,M,,M,,*68
06/13/2015	16:10:35.592	$GPGGA,161036,2420.0114,N,08103.0816,W,1,10,1.4,18,M,,M,,*6B
06/13/2015	16:10:36.549	$GPGGA,161037,2420.0124,N,08103.0824,W,1,10,1.4,18,M,,M,,*68
06/13/2015	16:10:37.559	$GPGGA,161038,2420.0132,N,08103.0832,W,1,11,1.3,18,M,,M,,*61
06/13/2015	16:10:38.549	$GPGGA,161039,2420.0142,N,08103.0840,W,1,11,1.3,18,M,,M,,*62
06/13/2015	16:10:39.569	$GPGGA,161040,2420.0153,N,08103.0849,W,1,11,1.3,18,M,,M,,*65
06/13/2015	16:10:40.529	$GPGGA,161041,2420.0161,N,08103.0857,W,1,11,1.3,18,M,,M,,*6A
06/13/2015	16:10:41.529	$GPGGA,161042,2420.0171,N,08103.0867,W,1,11,1.3,18,M,,M,,*6B
06/13/2015	16:10:42.529	$GPGGA,161043,2420.0182,N,08103.0874,W,1,11,1.3,18,M,,M,,*64
06/13/2015	16:10:43.549	$GPGGA,161044,2420.0190,N,08103.0883,W,1,11,1.3,18,M,,M,,*68
06/13/2015	16:10:44.539	$GPGGA,161045,2420.0199,N,08103.0892,W,1,11,1.3,18,M,,M,,*60
06/13/2015	16:10:45.639	$GPGGA,161046,2420.0208,N,08103.0900,W,1,11,1.3,18,M,,M,,*62
06/13/2015	16:10:46.529	$GPGGA,161047,2420.0218,N,08103.0908,W,1,11,1.3,18,M,,M,,*6A
06/13/2015	16:10:47.639	$GPGGA,161048,2420.0226,N,08103.0917,W,1,11,1.3,18,M,,M,,*66
06/13/2015	16:10:48.529	$GPGGA,161049,2420.0237,N,08103.0925,W,1,11,1.3,18,M,,M,,*66
06/13/2015	16:10:49.619	$GPGGA,161050,2420.0247,N,08103.0934,W,1,11,1.3,18,M,,M,,*69
06/13/2015	16:10:50.529	$GPGGA,161051,2420.0255,N,08103.0946,W,1,11,1.3,18,M,,M,,*6E
06/13/2015	16:10:51.640	$GPGGA,161052,2420.0265,N,08103.0954,W,1,11,1.3,18,M,,M,,*6D
06/13/2015	16:10:52.519	$GPGGA,161053,2420.0273,N,08103.0962,W,1,11,1.3,18,M,,M,,*6E
06/13/2015	16:10:53.609	$GPGGA,161054,2420.0280,N,08103.0972,W,1,11,1.3,18,M,,M,,*64
06/13/2015	16:10:54.509	$GPGGA,161055,2420.0290,N,08103.0979,W,1,11,1.3,18,M,,M,,*6F
06/13/2015	16:10:55.529	$GPGGA,161056,2420.0300,N,08103.0986,W,1,11,1.3,18,M,,M,,*64
06/13/2015	16:10:56.912	$GPGGA,161057,2420.0309,N,08103.0997,W,1,11,1.3,18,M,,M,,*6C
06/13/2015	16:10:57.609	$GPGGA,161058,2420.0318,N,08103.1009,W,1,10,1.4,18,M,,M,,*6A
06/13/2015	16:10:58.507	$GPGGA,161059,2420.0327,N,08103.1019,W,1,10,1.3,18,M,,M,,*61
06/13/2015	16:10:59.639	$GPGGA,161100,2420.0337,N,08103.1029,W,1,11,1.3,18,M,,M,,*6F
06/13/2015	16:11:00.590	$GPGGA,161101,2420.0342,N,08103.1037,W,1,11,1.4,18,M,,M,,*64
06/13/2015	16:11:01.595	$GPGGA,161102,2420.0351,N,08103.1045,W,1,11,1.3,18,M,,M,,*67
06/13/2015	16:11:02.579	$GPGGA,161103,2420.0359,N,08103.1055,W,1,11,1.3,18,M,,M,,*6F
06/13/2015	16:11:03.501	$GPGGA,161104,2420.0369,N,08103.1066,W,1,9,1.6,18,M,,M,,*57
06/13/2015	16:11:04.579	$GPGGA,161105,2420.0376,N,08103.1074,W,1,9,1.6,18,M,,M,,*5B
06/13/2015	16:11:05.603	$GPGGA,161106,2420.0384,N,08103.1084,W,1,11,1.3,18,M,,M,,*66
06/13/2015	16:11:06.590	$GPGGA,161107,2420.0392,N,08103.1095,W,1,11,1.4,18,M,,M,,*67
06/13/2015	16:11:07.593	$GPGGA,161108,2420.0399,N,08103.1102,W,1,11,1.3,18,M,,M,,*6B
06/13/2015	16:11:08.579	$GPGGA,161109,2420.0407,N,08103.1109,W,1,11,1.3,18,M,,M,,*61
06/13/2015	16:11:09.579	$GPGGA,161110,2420.0414,N,08103.1116,W,1,11,1.3,18,M,,M,,*65
06/13/2015	16:11:10.569	$GPGGA,161111,2420.0421,N,08103.1125,W,1,11,1.3,18,M,,M,,*62
06/13/2015	16:11:11.589	$GPGGA,161112,2420.0428,N,08103.1136,W,1,11,1.3,18,M,,M,,*6A
06/13/2015	16:11:12.569	$GPGGA,161113,2420.0436,N,08103.1145,W,1,11,1.3,18,M,,M,,*60
06/13/2015	16:11:13.559	$GPGGA,161114,2420.0446,N,08103.1152,W,1,11,1.3,18,M,,M,,*66
06/13/2015	16:11:14.569	$GPGGA,161115,2420.0452,N,08103.1163,W,1,11,1.3,18,M,,M,,*60
06/13/2015	16:11:15.579	$GPGGA,161116,2420.0459,N,08103.1171,W,1,11,1.3,18,M,,M,,*6B
06/13/2015	16:11:16.549	$GPGGA,161117,2420.0468,N,08103.1181,W,1,11,1.3,19,M,,M,,*66
06/13/2015	16:11:17.559	$GPGGA,161118,2420.0475,N,08103.1190,W,1,11,1.3,19,M,,M,,*65
06/13/2015	16:11:18.559	$GPGGA,161119,2420.0482,N,08103.1200,W,1,11,1.3,19,M,,M,,*66
06/13/2015	16:11:19.559	$GPGGA,161120,2420.0490,N,08103.1210,W,1,11,1.3,19,M,,M,,*6E
06/13/2015	16:11:20.559	$GPGGA,161121,2420.0497,N,08103.1217,W,1,11,1.3,19,M,,M,,*6F
06/13/2015	16:11:21.549	$GPGGA,161122,2420.0506,N,08103.1226,W,1,11,1.3,19,M,,M,,*67
06/13/2015	16:11:22.539	$GPGGA,161123,2420.0514,N,08103.1236,W,1,11,1.3,19,M,,M,,*64
06/13/2015	16:11:23.579	$GPGGA,161124,2420.0521,N,08103.1246,W,1,11,1.3,19,M,,M,,*62
06/13/2015	16:11:24.539	$GPGGA,161125,2420.0529,N,08103.1257,W,1,11,1.3,19,M,,M,,*6B
06/13/2015	16:11:25.549	$GPGGA,161126,2420.0536,N,08103.1266,W,1,11,1.3,19,M,,M,,*64
06/13/2015	16:11:26.539	$GPGGA,161127,2420.0546,N,08103.1276,W,1,11,1.3,19,M,,M,,*63
06/13/2015	16:11:27.559	$GPGGA,161128,2420.0553,N,08103.1286,W,1,11,1.3,19,M,,M,,*67
06/13/2015	16:11:28.549	$GPGGA,161129,2420.0560,N,08103.1294,W,1,11,1.3,19,M,,M,,*65
06/13/2015	16:11:29.529	$GPGGA,161130,2420.0566,N,08103.1302,W,1,11,1.3,19,M,,M,,*65
06/13/2015	16:11:30.529	$GPGGA,161131,2420.0576,N,08103.1311,W,1,11,1.3,19,M,,M,,*67
06/13/2015	16:11:31.528	$GPGGA,161132,2420.0586,N,08103.1323,W,1,10,1.6,19,M,,M,,*6E
06/13/2015	16:11:32.519	$GPGGA,161133,2420.0593,N,08103.1335,W,1,10,1.3,19,M,,M,,*69
06/13/2015	16:11:33.679	$GPGGA,161134,2420.0600,N,08103.1344,W,1,9,1.3,19,M,,M,,*59
06/13/2015	16:11:34.509	$GPGGA,161135,2420.0609,N,08103.1355,W,1,9,1.3,19,M,,M,,*51
06/13/2015	16:11:35.679	$GPGGA,161136,2420.0619,N,08103.1363,W,1,11,1.6,20,M,,M,,*60
06/13/2015	16:11:36.529	$GPGGA,161137,2420.0627,N,08103.1373,W,1,11,1.6,20,M,,M,,*6D
06/13/2015	16:11:37.679	$GPGGA,161138,2420.0634,N,08103.1381,W,1,11,1.4,19,M,,M,,*65
06/13/2015	16:11:38.519	$GPGGA,161139,2420.0641,N,08103.1391,W,1,11,1.4,19,M,,M,,*67
06/13/2015	16:11:39.679	$GPGGA,161140,2420.0652,N,08103.1402,W,1,9,1.3,19,M,,M,,*58
06/13/2015	16:11:40.609	$GPGGA,161141,2420.0661,N,08103.1413,W,1,9,1.3,19,M,,M,,*59
06/13/2015	16:11:41.679	$GPGGA,161142,2420.0670,N,08103.1424,W,1,11,1.3,19,M,,M,,*67
06/13/2015	16:11:42.599	$GPGGA,161143,2420.0678,N,08103.1434,W,1,11,1.3,19,M,,M,,*6F
06/13/2015	16:11:43.679	$GPGGA,161144,2420.0687,N,08103.1442,W,1,11,1.4,19,M,,M,,*6E
06/13/2015	16:11:44.510	$GPGGA,161145,2420.0695,N,08103.1450,W,1,11,1.4,19,M,,M,,*6F
06/13/2015	16:11:45.489	$GPGGA,161146,2420.0703,N,08103.1460,W,1,11,1.3,19,M,,M,,*66
