Software Version Number: 1	Data File Format Number: 1	Build Version Number: 1	Error Count Since VI Started: 2	Manufacturer: Raytheon	 Model Number: RayMarine 120	 S/N: 	 Cal Date: 	 Wind Direction Offset: 0.00	 Slope (M)1: 0.00	 Offset (B)1: 0.00	 Slope (M)2: 0.00	 Offset (B)2: 0.00	 Slope (M)3: 0.00	 Offset (B)3: 0.00	 Slope (M)4: 0.00	 Offset (B)4: 0.00	 Slope (M)5: 0.00	 Offset (B)5: 0.00	 Slope (M)6: 0.00	 Offset (B)6: 0.00
Computer Date	Computer Time	GGA String
06/20/2015	01:00:00.516	$GPGGA,010001,2514.0848,N,07932.8216,W,1,8,1.8,20,M,,M,,*57
06/20/2015	01:00:01.596	$GPGGA,010002,2514.0838,N,07932.8235,W,1,8,1.8,20,M,,M,,*52
06/20/2015	01:00:02.519	$GPGGA,010003,2514.0829,N,07932.8258,W,1,8,1.8,20,M,,M,,*58
06/20/2015	01:00:03.528	$GPGGA,010004,2514.0818,N,07932.8277,W,1,9,1.5,20,M,,M,,*5C
06/20/2015	01:00:04.597	$GPGGA,010005,2514.0808,N,07932.8298,W,1,9,1.5,20,M,,M,,*5D
06/20/2015	01:00:05.619	$GPGGA,010006,2514.0798,N,07932.8316,W,1,9,1.5,20,M,,M,,*5F
06/20/2015	01:00:06.507	$GPGGA,010007,2514.0789,N,07932.8336,W,1,9,1.5,20,M,,M,,*5C
06/20/2015	01:00:07.597	$GPGGA,010008,2514.0779,N,07932.8357,W,1,9,1.5,20,M,,M,,*5B
06/20/2015	01:00:08.587	$GPGGA,010009,2514.0770,N,07932.8378,W,1,9,1.5,20,M,,M,,*5E
06/20/2015	01:00:09.487	$GPGGA,010010,2514.0760,N,07932.8396,W,1,9,1.5,20,M,,M,,*57
06/20/2015	01:00:10.577	$GPGGA,010011,2514.0750,N,07932.8418,W,1,9,1.5,20,M,,M,,*54
06/20/2015	01:00:11.636	$GPGGA,010012,2514.0741,N,07932.8439,W,1,9,1.5,20,M,,M,,*54
06/20/2015	01:00:12.496	$GPGGA,010013,2514.0732,N,07932.8458,W,1,9,1.5,20,M,,M,,*56
06/20/2015	01:00:13.586	$GPGGA,010014,2514.0722,N,07932.8480,W,1,9,1.5,20,M,,M,,*55
06/20/2015	01:00:14.576	$GPGGA,010015,2514.0712,N,07932.8501,W,1,9,2.0,20,M,,M,,*59
06/20/2015	01:00:15.617	$GPGGA,010016,2514.0705,N,07932.8520,W,1,8,1.5,20,M,,M,,*58
06/20/2015	01:00:16.576	$GPGGA,010017,2514.0697,N,07932.8540,W,1,8,1.5,20,M,,M,,*55
06/20/2015	01:00:17.576	$GPGGA,010018,2514.0689,N,07932.8560,W,1,9,1.5,20,M,,M,,*56
06/20/2015	01:00:18.576	$GPGGA,010019,2514.0678,N,07932.8582,W,1,9,2.0,20,M,,M,,*53
06/20/2015	01:00:19.596	$GPGGA,010020,2514.0671,N,07932.8602,W,1,8,1.5,20,M,,M,,*5C
06/20/2015	01:00:20.566	$GPGGA,010021,2514.0663,N,07932.8624,W,1,8,1.5,20,M,,M,,*5A
06/20/2015	01:00:21.577	$GPGGA,010022,2514.0652,N,07932.8645,W,1,9,1.5,20,M,,M,,*5D
06/20/2015	01:00:22.557	$GPGGA,010023,2514.0642,N,07932.8664,W,1,9,1.5,20,M,,M,,*5E
06/20/2015	01:00:23.587	$GPGGA,010024,2514.0632,N,07932.8686,W,1,9,2.0,20,M,,M,,*54
06/20/2015	01:00:24.557	$GPGGA,010025,2514.0622,N,07932.8707,W,1,9,1.5,20,M,,M,,*5A
06/20/2015	01:00:25.577	$GPGGA,010026,2514.0614,N,07932.8728,W,1,9,1.5,20,M,,M,,*51
06/20/2015	01:00:26.547	$GPGGA,010027,2514.0605,N,07932.8746,W,1,9,1.5,20,M,,M,,*58
06/20/2015	01:00:27.557	$GPGGA,010028,2514.0598,N,07932.8766,W,1,9,1.5,21,M,,M,,*53
06/20/2015	01:00:28.547	$GPGGA,010029,2514.0587,N,07932.8787,W,1,9,1.5,21,M,,M,,*53
06/20/2015	01:00:29.576	$GPGGA,010030,2514.0578,N,07932.8808,W,1,9,1.5,21,M,,M,,*53
06/20/2015	01:00:30.546	$GPGGA,010031,2514.0569,N,07932.8829,W,1,9,1.5,21,M,,M,,*51
06/20/2015	01:00:31.576	$GPGGA,010032,2514.0559,N,07932.8851,W,1,9,2.0,21,M,,M,,*58
06/20/2015	01:00:32.536	$GPGGA,010033,2514.0549,N,07932.8870,W,1,9,1.5,21,M,,M,,*5D
06/20/2015	01:00:33.536	$GPGGA,010034,2514.0540,N,07932.8891,W,1,9,1.5,21,M,,M,,*5C
06/20/2015	01:00:34.546	$GPGGA,010035,2514.0531,N,07932.8913,W,1,9,1.5,21,M,,M,,*50
06/20/2015	01:00:35.576	$GPGGA,010036,2514.0522,N,07932.8932,W,1,9,1.5,21,M,,M,,*52
06/20/2015	01:00:36.536	$GPGGA,010037,2514.0512,N,07932.8953,W,1,9,2.0,21,M,,M,,*51
06/20/2015	01:00:37.526	$GPGGA,010038,2514.0504,N,07932.8974,W,1,8,1.5,21,M,,M,,*5B
06/20/2015	01:00:38.537	$GPGGA,010039,2514.0494,N,07932.8995,W,1,8,2.0,21,M,,M,,*5B
06/20/2015	01:00:39.557	$GPGGA,010040,2514.0483,N,07932.9015,W,1,8,2.0,21,M,,M,,*53
06/20/2015	01:00:40.547	$GPGGA,010041,2514.0473,N,07932.9035,W,1,8,2.0,21,M,,M,,*5F
06/20/2015	01:00:41.547	$GPGGA,010042,2514.0464,N,07932.9057,W,1,8,1.5,21,M,,M,,*58
06/20/2015	01:00:42.527	$GPGGA,010043,2514.0455,N,07932.9076,W,1,8,1.5,21,M,,M,,*58
06/20/2015	01:00:43.557	$GPGGA,010044,2514.0445,N,07932.9097,W,1,9,1.5,21,M,,M,,*50
06/20/2015	01:00:44.627	$GPGGA,010045,2514.0436,N,07932.9116,W,1,9,1.5,21,M,,M,,*5D
06/20/2015	01:00:45.637	$GPGGA,010046,2514.0426,N,07932.9137,W,1,9,1.5,20,M,,M,,*5D
06/20/2015	01:00:46.526	$GPGGA,010047,2514.0415,N,07932.9158,W,1,9,2.0,20,M,,M,,*53
06/20/2015	01:00:47.617	$GPGGA,010048,2514.0407,N,07932.9177,W,1,8,1.5,20,M,,M,,*55
06/20/2015	01:00:48.506	$GPGGA,010049,2514.0400,N,07932.9198,W,1,8,1.5,20,M,,M,,*52
06/20/2015	01:00:49.518	$GPGGA,010050,2514.0392,N,07932.9217,W,1,9,1.5,20,M,,M,,*53
06/20/2015	01:00:50.616	$GPGGA,010051,2514.0382,N,07932.9236,W,1,9,1.5,20,M,,M,,*50
06/20/2015	01:00:51.546	$GPGGA,010052,2514.0374,N,07932.9256,W,1,8,1.8,20,M,,M,,*50
06/20/2015	01:00:52.516	$GPGGA,010053,2514.0364,N,07932.9275,W,1,8,1.8,20,M,,M,,*51
06/20/2015	01:00:53.626	$GPGGA,010054,2514.0354,N,07932.9293,W,1,8,1.8,20,M,,M,,*5D
06/20/2015	01:00:54.513	$GPGGA,010055,2514.0345,N,07932.9314,W,1,8,1.5,20,M,,M,,*5F
06/20/2015	01:00:55.587	$GPGGA,010056,2514.0335,N,07932.9333,W,1,9,1.5,20,M,,M,,*5F
06/20/2015	01:00:56.587	$GPGGA,010057,2514.0325,N,07932.9353,W,1,9,1.5,20,M,,M,,*59
06/20/2015	01:00:57.587	$GPGGA,010058,2514.0316,N,07932.9375,W,1,9,1.5,20,M,,M,,*52
06/20/2015	01:00:59.607	$GPGGA,010100,2514.0296,N,07932.9415,W,1,9,1.5,20,M,,M,,*56
06/20/2015	01:01:00.567	$GPGGA,010101,2514.0285,N,07932.9436,W,1,9,1.5,20,M,,M,,*54
06/20/2015	01:01:01.607	$GPGGA,010102,2514.0274,N,07932.9458,W,1,9,1.5,20,M,,M,,*51
06/20/2015	01:01:02.577	$GPGGA,010103,2514.0264,N,07932.9478,W,1,9,2.0,20,M,,M,,*55
06/20/2015	01:01:03.617	$GPGGA,010104,2514.0255,N,07932.9501,W,1,9,1.5,20,M,,M,,*59
06/20/2015	01:01:04.566	$GPGGA,010105,2514.0242,N,07932.9520,W,1,9,2.0,20,M,,M,,*5B
06/20/2015	01:01:05.577	$GPGGA,010106,2514.0233,N,07932.9541,W,1,8,1.5,20,M,,M,,*5E
06/20/2015	01:01:06.556	$GPGGA,010107,2514.0223,N,07932.9561,W,1,8,1.5,20,M,,M,,*5C
06/20/2015	01:01:07.596	$GPGGA,010108,2514.0213,N,07932.9582,W,1,9,1.5,20,M,,M,,*5C
06/20/2015	01:01:08.546	$GPGGA,010109,2514.0202,N,07932.9603,W,1,9,1.5,20,M,,M,,*57
06/20/2015	01:01:09.546	$GPGGA,010110,2514.0192,N,07932.9622,W,1,8,2.0,20,M,,M,,*51
06/20/2015	01:01:10.546	$GPGGA,010111,2514.0183,N,07932.9644,W,1,8,2.0,20,M,,M,,*50
06/20/2015	01:01:11.576	$GPGGA,010112,2514.0173,N,07932.9664,W,1,8,2.0,20,M,,M,,*5E
06/20/2015	01:01:12.546	$GPGGA,010113,2514.0163,N,07932.9684,W,1,8,1.5,20,M,,M,,*56
06/20/2015	01:01:13.566	$GPGGA,010114,2514.0156,N,07932.9704,W,1,8,2.0,20,M,,M,,*58
06/20/2015	01:01:14.556	$GPGGA,010115,2514.0156,N,07932.9704,W,1,8,1.5,20,M,,M,,*5F
06/20/2015	01:01:15.566	$GPGGA,010116,2514.0135,N,07932.9745,W,1,8,2.0,20,M,,M,,*5A
06/20/2015	01:01:16.536	$GPGGA,010117,2514.0126,N,07932.9766,W,1,8,2.0,20,M,,M,,*58
06/20/2015	01:01:17.556	$GPGGA,010118,2514.0117,N,07932.9787,W,1,8,2.0,20,M,,M,,*5A
06/20/2015	01:01:18.536	$GPGGA,010119,2514.0107,N,07932.9808,W,1,8,2.0,20,M,,M,,*52
06/20/2015	01:01:19.586	$GPGGA,010120,2514.0098,N,07932.9828,W,1,9,1.5,19,M,,M,,*50
06/20/2015	01:01:20.526	$GPGGA,010121,2514.0089,N,07932.9849,W,1,9,1.5,19,M,,M,,*56
06/20/2015	01:01:21.515	$GPGGA,010122,2514.0079,N,07932.9870,W,1,8,2.0,19,M,,M,,*57
06/20/2015	01:01:22.516	$GPGGA,010123,2514.0069,N,07932.9892,W,1,8,2.0,19,M,,M,,*5B
06/20/2015	01:01:23.525	$GPGGA,010124,2514.0060,N,07932.9911,W,1,8,2.0,19,M,,M,,*5F
06/20/2015	01:01:24.509	$GPGGA,010125,2514.0052,N,07932.9931,W,1,8,2.0,19,M,,M,,*5D
06/20/2015	01:01:25.526	$GPGGA,010126,2514.0043,N,07932.9950,W,1,9,1.5,19,M,,M,,*5E
06/20/2015	01:01:26.506	$GPGGA,010127,2514.0035,N,07932.9971,W,1,9,1.8,19,M,,M,,*50
06/20/2015	01:01:27.516	$GPGGA,010128,2514.0025,N,07932.9994,W,1,8,1.8,18,M,,M,,*55
06/20/2015	01:01:28.826	$GPGGA,010129,2514.0017,N,07933.0014,W,1,8,1.5,18,M,,M,,*51
06/20/2015	01:01:29.510	$GPGGA,010130,2514.0009,N,07933.0036,W,1,9,1.5,18,M,,M,,*57
06/20/2015	01:01:30.516	$GPGGA,010131,2514.0000,N,07933.0054,W,1,9,1.5,18,M,,M,,*5B
06/20/2015	01:01:31.556	$GPGGA,010132,2513.9992,N,07933.0074,W,1,8,1.8,18,M,,M,,*5A
06/20/2015	01:01:32.507	$GPGGA,010133,2513.9984,N,07933.0094,W,1,8,1.8,18,M,,M,,*52
06/20/2015	01:01:33.616	$GPGGA,010134,2513.9975,N,07933.0115,W,1,9,1.5,18,M,,M,,*5F
06/20/2015	01:01:34.503	$GPGGA,010135,2513.9966,N,07933.0137,W,1,9,1.5,18,M,,M,,*5C
06/20/2015	01:01:35.617	$GPGGA,010136,2513.9958,N,07933.0157,W,1,8,2.0,18,M,,M,,*53
06/20/2015	01:01:36.508	$GPGGA,010137,2513.9949,N,07933.0177,W,1,8,1.5,18,M,,M,,*56
06/20/2015	01:01:37.510	$GPGGA,010138,2513.9940,N,07933.0197,W,1,9,1.5,18,M,,M,,*5F
06/20/2015	01:01:38.486	$GPGGA,010139,2513.9931,N,07933.0217,W,1,9,1.9,18,M,,M,,*5F
06/20/2015	01:01:39.515	$GPGGA,010140,2513.9922,N,07933.0236,W,1,9,1.5,18,M,,M,,*5C
06/20/2015	01:01:40.575	$GPGGA,010141,2513.9913,N,07933.0258,W,1,9,1.5,18,M,,M,,*57
06/20/2015	01:01:41.586	$GPGGA,010142,2513.9902,N,07933.0278,W,1,9,1.5,18,M,,M,,*56
06/20/2015	01:01:42.576	$GPGGA,010143,2513.9892,N,07933.0298,W,1,9,1.5,19,M,,M,,*50
06/20/2015	01:01:43.596	$GPGGA,010144,2513.9883,N,07933.0318,W,1,9,1.5,19,M,,M,,*5E
06/20/2015	01:01:44.476	$GPGGA,010145,2513.9873,N,07933.0340,W,1,9,1.5,19,M,,M,,*5D
06/20/2015	01:01:45.566	$GPGGA,010146,2513.9862,N,07933.0358,W,1,9,1.5,19,M,,M,,*57
06/20/2015	01:01:46.576	$GPGGA,010147,2513.9852,N,07933.0379,W,1,9,1.5,19,M,,M,,*56
06/20/2015	01:01:47.926	$GPGGA,010148,2513.9844,N,07933.0398,W,1,9,1.5,20,M,,M,,*5B
06/20/2015	01:01:48.556	$GPGGA,010149,2513.9833,N,07933.0419,W,1,9,1.5,20,M,,M,,*54
06/20/2015	01:01:49.586	$GPGGA,010150,2513.9822,N,07933.0438,W,1,9,1.5,20,M,,M,,*5F
06/20/2015	01:01:50.566	$GPGGA,010151,2513.9814,N,07933.0459,W,1,9,1.5,20,M,,M,,*5C
06/20/2015	01:01:51.599	$GPGGA,010152,2513.9803,N,07933.0480,W,1,9,1.5,20,M,,M,,*5D
06/20/2015	01:01:52.556	$GPGGA,010153,2513.9791,N,07933.0499,W,1,9,1.5,20,M,,M,,*50
06/20/2015	01:01:53.546	$GPGGA,010154,2513.9780,N,07933.0520,W,1,8,2.0,20,M,,M,,*53
06/20/2015	01:01:54.566	$GPGGA,010155,2513.9771,N,07933.0540,W,1,8,1.5,20,M,,M,,*5C
06/20/2015	01:01:55.586	$GPGGA,010156,2513.9758,N,07933.0560,W,1,9,1.5,20,M,,M,,*57
06/20/2015	01:01:56.545	$GPGGA,010157,2513.9749,N,07933.0578,W,1,9,1.5,20,M,,M,,*5F
06/20/2015	01:01:57.565	$GPGGA,010158,2513.9740,N,07933.0596,W,1,8,1.8,20,M,,M,,*55
06/20/2015	01:01:58.535	$GPGGA,010159,2513.9731,N,07933.0615,W,1,8,1.8,20,M,,M,,*5A
06/20/2015	01:01:59.600	$GPGGA,010200,2513.9720,N,07933.0634,W,1,8,1.8,20,M,,M,,*56
06/20/2015	01:02:00.546	$GPGGA,010201,2513.9710,N,07933.0652,W,1,8,1.8,20,M,,M,,*54
06/20/2015	01:02:01.536	$GPGGA,010202,2513.9700,N,07933.0672,W,1,8,1.8,20,M,,M,,*54
06/20/2015	01:02:02.536	$GPGGA,010203,2513.9691,N,07933.0691,W,1,8,1.5,20,M,,M,,*5C
06/20/2015	01:02:03.586	$GPGGA,010204,2513.9681,N,07933.0710,W,1,8,1.8,20,M,,M,,*5F
06/20/2015	01:02:04.526	$GPGGA,010205,2513.9671,N,07933.0728,W,1,8,1.5,20,M,,M,,*57
06/20/2015	01:02:05.526	$GPGGA,010206,2513.9661,N,07933.0748,W,1,9,1.5,20,M,,M,,*52
06/20/2015	01:02:06.536	$GPGGA,010207,2513.9651,N,07933.0770,W,1,9,1.5,20,M,,M,,*5B
06/20/2015	01:02:07.546	$GPGGA,010208,2513.9641,N,07933.0791,W,1,9,1.5,20,M,,M,,*5A
06/20/2015	01:02:08.514	$GPGGA,010209,2513.9631,N,07933.0810,W,1,9,1.5,20,M,,M,,*5A
06/20/2015	01:02:09.526	$GPGGA,010210,2513.9621,N,07933.0831,W,1,9,1.5,20,M,,M,,*50
06/20/2015	01:02:10.516	$GPGGA,010211,2513.9612,N,07933.0852,W,1,9,1.5,20,M,,M,,*54
06/20/2015	01:02:11.536	$GPGGA,010212,2513.9602,N,07933.0871,W,1,9,1.5,19,M,,M,,*5D
06/20/2015	01:02:12.526	$GPGGA,010213,2513.9592,N,07933.0892,W,1,9,1.5,19,M,,M,,*5B
06/20/2015	01:02:13.509	$GPGGA,010214,2513.9583,N,07933.0911,W,1,9,1.5,19,M,,M,,*56
06/20/2015	01:02:14.525	$GPGGA,010215,2513.9572,N,07933.0932,W,1,9,1.5,19,M,,M,,*58
06/20/2015	01:02:15.535	$GPGGA,010216,2513.9562,N,07933.0952,W,1,9,1.5,19,M,,M,,*5C
06/20/2015	01:02:16.505	$GPGGA,010217,2513.9552,N,07933.0972,W,1,9,1.5,19,M,,M,,*5C
06/20/2015	01:02:17.516	$GPGGA,010218,2513.9543,N,07933.0993,W,1,9,1.5,19,M,,M,,*5C
06/20/2015	01:02:18.516	$GPGGA,010219,2513.9533,N,07933.1013,W,1,9,2.0,19,M,,M,,*5C
06/20/2015	01:02:19.636	$GPGGA,010220,2513.9525,N,07933.1033,W,1,9,1.5,19,M,,M,,*55
06/20/2015	01:02:20.506	$GPGGA,010221,2513.9518,N,07933.1053,W,1,9,1.5,19,M,,M,,*5C
06/20/2015	01:02:21.505	$GPGGA,010222,2513.9508,N,07933.1073,W,1,9,1.5,19,M,,M,,*5C
06/20/2015	01:02:22.486	$GPGGA,010223,2513.9500,N,07933.1095,W,1,9,1.5,19,M,,M,,*5D
06/20/2015	01:02:23.516	$GPGGA,010224,2513.9491,N,07933.1114,W,1,9,1.5,19,M,,M,,*5B
06/20/2015	01:02:24.496	$GPGGA,010225,2513.9482,N,07933.1135,W,1,9,1.5,19,M,,M,,*5B
06/20/2015	01:02:25.476	$GPGGA,010226,2513.9471,N,07933.1156,W,1,8,2.0,19,M,,M,,*56
06/20/2015	01:02:26.577	$GPGGA,010227,2513.9464,N,07933.1175,W,1,8,1.5,19,M,,M,,*54
06/20/2015	01:02:27.626	$GPGGA,010228,2513.9456,N,07933.1196,W,1,9,1.5,19,M,,M,,*56
06/20/2015	01:02:28.501	$GPGGA,010229,2513.9447,N,07933.1215,W,1,9,1.5,19,M,,M,,*5F
06/20/2015	01:02:29.486	$GPGGA,010230,2513.9439,N,07933.1236,W,1,9,1.5,19,M,,M,,*5F
06/20/2015	01:02:30.566	$GPGGA,010231,2513.9429,N,07933.1257,W,1,9,1.5,19,M,,M,,*58
06/20/2015	01:02:31.485	$GPGGA,010232,2513.9421,N,07933.1277,W,1,8,2.0,20,M,,M,,*5C
06/20/2015	01:02:32.565	$GPGGA,010233,2513.9413,N,07933.1298,W,1,8,1.5,20,M,,M,,*5B
06/20/2015	01:02:33.597	$GPGGA,010234,2513.9404,N,07933.1319,W,1,9,1.5,20,M,,M,,*53
06/20/2015	01:02:34.556	$GPGGA,010235,2513.9395,N,07933.1340,W,1,9,2.0,20,M,,M,,*57
06/20/2015	01:02:35.576	$GPGGA,010236,2513.9385,N,07933.1359,W,1,9,1.5,20,M,,M,,*5B
06/20/2015	01:02:36.566	$GPGGA,010237,2513.9377,N,07933.1380,W,1,9,1.5,20,M,,M,,*53
06/20/2015	01:02:37.586	$GPGGA,010238,2513.9366,N,07933.1400,W,1,9,1.5,20,M,,M,,*53
06/20/2015	01:02:38.556	$GPGGA,010239,2513.9359,N,07933.1420,W,1,9,2.0,20,M,,M,,*5A
06/20/2015	01:02:39.586	$GPGGA,010240,2513.9349,N,07933.1441,W,1,9,1.5,20,M,,M,,*54
06/20/2015	01:02:40.556	$GPGGA,010241,2513.9341,N,07933.1461,W,1,9,2.0,20,M,,M,,*59
06/20/2015	01:02:41.576	$GPGGA,010242,2513.9333,N,07933.1481,W,1,9,1.5,20,M,,M,,*57
06/20/2015	01:02:42.556	$GPGGA,010243,2513.9325,N,07933.1503,W,1,9,1.5,20,M,,M,,*5A
06/20/2015	01:02:43.596	$GPGGA,010244,2513.9316,N,07933.1522,W,1,9,1.5,20,M,,M,,*5E
06/20/2015	01:02:44.546	$GPGGA,010245,2513.9307,N,07933.1542,W,1,9,1.5,20,M,,M,,*59
06/20/2015	01:02:45.546	$GPGGA,010246,2513.9297,N,07933.1561,W,1,8,1.8,20,M,,M,,*5F
06/20/2015	01:02:46.556	$GPGGA,010247,2513.9287,N,07933.1582,W,1,8,2.3,19,M,,M,,*50
06/20/2015	01:02:47.576	$GPGGA,010248,2513.9278,N,07933.1600,W,1,7,2.3,19,M,,M,,*59
06/20/2015	01:02:48.546	$GPGGA,010249,2513.9269,N,07933.1619,W,1,7,1.5,19,M,,M,,*55
06/20/2015	01:02:49.545	$GPGGA,010250,2513.9259,N,07933.1640,W,1,9,1.5,19,M,,M,,*5C
06/20/2015	01:02:50.535	$GPGGA,010251,2513.9249,N,07933.1662,W,1,9,2.0,19,M,,M,,*5A
06/20/2015	01:02:51.566	$GPGGA,010252,2513.9240,N,07933.1684,W,1,8,2.0,19,M,,M,,*59
06/20/2015	01:02:52.536	$GPGGA,010253,2513.9230,N,07933.1703,W,1,8,1.5,19,M,,M,,*57
06/20/2015	01:02:53.566	$GPGGA,010254,2513.9221,N,07933.1725,W,1,9,1.5,19,M,,M,,*55
06/20/2015	01:02:54.536	$GPGGA,010255,2513.9212,N,07933.1746,W,1,9,1.5,18,M,,M,,*50
06/20/2015	01:02:55.566	$GPGGA,010256,2513.9201,N,07933.1767,W,1,9,1.5,18,M,,M,,*52
06/20/2015	01:02:56.510	$GPGGA,010257,2513.9191,N,07933.1788,W,1,9,1.5,18,M,,M,,*58
06/20/2015	01:02:57.519	$GPGGA,010258,2513.9182,N,07933.1808,W,1,9,1.5,18,M,,M,,*52
06/20/2015	01:02:58.512	$GPGGA,010259,2513.9171,N,07933.1828,W,1,9,1.5,18,M,,M,,*5D
06/20/2015	01:02:59.566	$GPGGA,010300,2513.9162,N,07933.1847,W,1,9,1.5,18,M,,M,,*5B
06/20/2015	01:03:00.526	$GPGGA,010301,2513.9151,N,07933.1868,W,1,9,1.5,18,M,,M,,*57
06/20/2015	01:03:01.516	$GPGGA,010302,2513.9142,N,07933.1887,W,1,8,2.0,18,M,,M,,*50
06/20/2015	01:03:02.666	$GPGGA,010303,2513.9132,N,07933.1908,W,1,8,1.5,18,M,,M,,*56
06/20/2015	01:03:03.666	$GPGGA,010304,2513.9124,N,07933.1929,W,1,9,1.5,18,M,,M,,*54
06/20/2015	01:03:04.666	$GPGGA,010305,2513.9115,N,07933.1948,W,1,9,1.5,18,M,,M,,*50
06/20/2015	01:03:05.516	$GPGGA,010306,2513.9106,N,07933.1967,W,1,9,1.5,18,M,,M,,*5C
06/20/2015	01:03:06.511	$GPGGA,010307,2513.9097,N,07933.1987,W,1,9,1.5,18,M,,M,,*5A
06/20/2015	01:03:07.611	$GPGGA,010308,2513.9089,N,07933.2008,W,1,9,1.5,18,M,,M,,*57
06/20/2015	01:03:08.496	$GPGGA,010309,2513.9081,N,07933.2027,W,1,9,1.5,18,M,,M,,*53
06/20/2015	01:03:09.517	$GPGGA,010310,2513.9070,N,07933.2048,W,1,9,1.5,18,M,,M,,*5C
06/20/2015	01:03:10.646	$GPGGA,010311,2513.9060,N,07933.2067,W,1,9,1.5,18,M,,M,,*51
06/20/2015	01:03:11.497	$GPGGA,010312,2513.9052,N,07933.2088,W,1,9,1.5,18,M,,M,,*52
06/20/2015	01:03:12.500	$GPGGA,010313,2513.9041,N,07933.2108,W,1,9,1.5,18,M,,M,,*58
06/20/2015	01:03:13.576	$GPGGA,010314,2513.9031,N,07933.2128,W,1,8,2.0,18,M,,M,,*5D
06/20/2015	01:03:14.586	$GPGGA,010315,2513.9023,N,07933.2149,W,1,8,1.5,18,M,,M,,*5E
06/20/2015	01:03:15.676	$GPGGA,010316,2513.9013,N,07933.2168,W,1,9,1.5,18,M,,M,,*5C
06/20/2015	01:03:16.509	$GPGGA,010317,2513.9005,N,07933.2187,W,1,9,1.5,18,M,,M,,*5B
06/20/2015	01:03:17.600	$GPGGA,010318,2513.8995,N,07933.2207,W,1,9,1.5,18,M,,M,,*5E
06/20/2015	01:03:18.486	$GPGGA,010319,2513.8985,N,07933.2229,W,1,9,1.5,18,M,,M,,*52
06/20/2015	01:03:19.656	$GPGGA,010320,2513.8976,N,07933.2247,W,1,9,1.5,18,M,,M,,*5C
06/20/2015	01:03:20.646	$GPGGA,010321,2513.8966,N,07933.2269,W,1,9,1.5,18,M,,M,,*50
06/20/2015	01:03:21.602	$GPGGA,010322,2513.8956,N,07933.2288,W,1,9,1.6,18,M,,M,,*5C
06/20/2015	01:03:22.636	$GPGGA,010323,2513.8947,N,07933.2308,W,1,9,1.6,18,M,,M,,*54
06/20/2015	01:03:23.615	$GPGGA,010324,2513.8937,N,07933.2327,W,1,9,1.6,18,M,,M,,*59
06/20/2015	01:03:24.555	$GPGGA,010325,2513.8927,N,07933.2348,W,1,9,1.6,18,M,,M,,*50
06/20/2015	01:03:25.585	$GPGGA,010326,2513.8916,N,07933.2368,W,1,9,2.0,18,M,,M,,*56
06/20/2015	01:03:26.626	$GPGGA,010327,2513.8907,N,07933.2388,W,1,9,1.6,18,M,,M,,*5C
06/20/2015	01:03:27.626	$GPGGA,010328,2513.8897,N,07933.2408,W,1,9,1.6,18,M,,M,,*54
06/20/2015	01:03:28.556	$GPGGA,010329,2513.8887,N,07933.2429,W,1,9,1.6,18,M,,M,,*57
06/20/2015	01:03:29.599	$GPGGA,010330,2513.8876,N,07933.2450,W,1,8,2.0,18,M,,M,,*5B
06/20/2015	01:03:30.616	$GPGGA,010331,2513.8866,N,07933.2469,W,1,8,1.9,18,M,,M,,*5B
06/20/2015	01:03:31.609	$GPGGA,010332,2513.8857,N,07933.2490,W,1,8,1.9,18,M,,M,,*5C
06/20/2015	01:03:32.617	$GPGGA,010333,2513.8850,N,07933.2511,W,1,8,1.6,18,M,,M,,*5D
06/20/2015	01:03:33.586	$GPGGA,010334,2513.8839,N,07933.2532,W,1,9,1.6,18,M,,M,,*55
06/20/2015	01:03:34.610	$GPGGA,010335,2513.8829,N,07933.2550,W,1,9,1.8,18,M,,M,,*5F
06/20/2015	01:03:35.599	$GPGGA,010336,2513.8820,N,07933.2569,W,1,8,1.8,18,M,,M,,*5E
06/20/2015	01:03:36.597	$GPGGA,010337,2513.8811,N,07933.2590,W,1,8,1.6,18,M,,M,,*55
06/20/2015	01:03:37.526	$GPGGA,010338,2513.8801,N,07933.2610,W,1,9,1.6,18,M,,M,,*51
06/20/2015	01:03:38.586	$GPGGA,010339,2513.8792,N,07933.2631,W,1,9,1.6,18,M,,M,,*56
06/20/2015	01:03:39.636	$GPGGA,010340,2513.8781,N,07933.2652,W,1,9,1.6,18,M,,M,,*5F
06/20/2015	01:03:40.599	$GPGGA,010341,2513.8771,N,07933.2673,W,1,9,1.6,18,M,,M,,*52
06/20/2015	01:03:41.545	$GPGGA,010342,2513.8761,N,07933.2692,W,1,9,1.6,18,M,,M,,*5F
06/20/2015	01:03:42.585	$GPGGA,010343,2513.8752,N,07933.2713,W,1,9,1.6,19,M,,M,,*57
06/20/2015	01:03:43.611	$GPGGA,010344,2513.8742,N,07933.2733,W,1,9,1.6,19,M,,M,,*53
06/20/2015	01:03:44.566	$GPGGA,010345,2513.8734,N,07933.2753,W,1,9,1.6,19,M,,M,,*55
06/20/2015	01:03:45.546	$GPGGA,010346,2513.8723,N,07933.2774,W,1,9,1.6,19,M,,M,,*55
06/20/2015	01:03:46.586	$GPGGA,010347,2513.8712,N,07933.2793,W,1,9,2.0,19,M,,M,,*5A
06/20/2015	01:03:47.656	$GPGGA,010348,2513.8705,N,07933.2814,W,1,8,1.6,19,M,,M,,*57
06/20/2015	01:03:48.576	$GPGGA,010349,2513.8694,N,07933.2833,W,1,8,1.6,19,M,,M,,*5A
06/20/2015	01:03:49.566	$GPGGA,010350,2513.8685,N,07933.2852,W,1,9,1.6,19,M,,M,,*54
06/20/2015	01:03:50.504	$GPGGA,010351,2513.8676,N,07933.2872,W,1,9,1.6,19,M,,M,,*5B
06/20/2015	01:03:51.566	$GPGGA,010352,2513.8667,N,07933.2892,W,1,8,1.6,19,M,,M,,*57
06/20/2015	01:03:52.626	$GPGGA,010353,2513.8658,N,07933.2912,W,1,8,1.6,20,M,,M,,*59
06/20/2015	01:03:54.556	$GPGGA,010354,2513.8649,N,07933.2933,W,1,9,1.6,20,M,,M,,*5C
06/20/2015	01:03:54.586	$GPGGA,010355,2513.8640,N,07933.2953,W,1,9,1.6,20,M,,M,,*52
06/20/2015	01:03:55.616	$GPGGA,010356,2513.8631,N,07933.2973,W,1,9,1.6,20,M,,M,,*55
06/20/2015	01:03:56.486	$GPGGA,010357,2513.8623,N,07933.2995,W,1,9,1.6,20,M,,M,,*5F
06/20/2015	01:03:57.536	$GPGGA,010358,2513.8615,N,07933.3016,W,1,9,1.6,20,M,,M,,*56
06/20/2015	01:03:58.486	$GPGGA,010359,2513.8606,N,07933.3035,W,1,9,1.6,20,M,,M,,*54
06/20/2015	01:03:59.565	$GPGGA,010400,2513.8598,N,07933.3056,W,1,9,1.6,20,M,,M,,*5E
06/20/2015	01:04:00.605	$GPGGA,010401,2513.8590,N,07933.3078,W,1,9,1.6,20,M,,M,,*5B
06/20/2015	01:04:01.509	$GPGGA,010402,2513.8582,N,07933.3097,W,1,9,1.6,20,M,,M,,*5A
06/20/2015	01:04:02.546	$GPGGA,010403,2513.8573,N,07933.3118,W,1,9,1.6,20,M,,M,,*53
06/20/2015	01:04:03.602	$GPGGA,010404,2513.8564,N,07933.3139,W,1,9,1.6,20,M,,M,,*51
06/20/2015	01:04:04.576	$GPGGA,010405,2513.8555,N,07933.3158,W,1,9,1.6,20,M,,M,,*55
06/20/2015	01:04:05.612	$GPGGA,010406,2513.8546,N,07933.3179,W,1,9,1.6,20,M,,M,,*57
06/20/2015	01:04:06.576	$GPGGA,010407,2513.8537,N,07933.3199,W,1,9,1.6,21,M,,M,,*5F
06/20/2015	01:04:07.576	$GPGGA,010408,2513.8528,N,07933.3219,W,1,9,1.6,21,M,,M,,*55
06/20/2015	01:04:08.566	$GPGGA,010409,2513.8518,N,07933.3241,W,1,9,1.6,21,M,,M,,*5A
06/20/2015	01:04:09.600	$GPGGA,010410,2513.8510,N,07933.3260,W,1,9,1.6,21,M,,M,,*59
06/20/2015	01:04:10.566	$GPGGA,010411,2513.8499,N,07933.3281,W,1,9,1.6,21,M,,M,,*57
06/20/2015	01:04:11.600	$GPGGA,010412,2513.8489,N,07933.3302,W,1,9,1.6,21,M,,M,,*5F
06/20/2015	01:04:12.576	$GPGGA,010413,2513.8481,N,07933.3321,W,1,9,1.6,21,M,,M,,*57
06/20/2015	01:04:13.586	$GPGGA,010414,2513.8470,N,07933.3342,W,1,9,1.6,21,M,,M,,*5B
06/20/2015	01:04:14.566	$GPGGA,010415,2513.8460,N,07933.3360,W,1,9,1.6,21,M,,M,,*5B
06/20/2015	01:04:18.235	$GPGGA,010418,2513.8430,N,07933.3421,W,1,9,1.6,21,M,,M,,*51
06/20/2015	01:04:18.566	$GPGGA,010419,2513.8421,N,07933.3440,W,1,9,1.6,21,M,,M,,*57
06/20/2015	01:04:19.606	$GPGGA,010420,2513.8410,N,07933.3461,W,1,9,1.6,21,M,,M,,*5C
06/20/2015	01:04:20.576	$GPGGA,010421,2513.8400,N,07933.3480,W,1,9,1.6,21,M,,M,,*53
06/20/2015	01:04:21.546	$GPGGA,010422,2513.8391,N,07933.3499,W,1,9,1.6,21,M,,M,,*57
06/20/2015	01:04:22.556	$GPGGA,010423,2513.8380,N,07933.3519,W,1,9,1.6,20,M,,M,,*5E
06/20/2015	01:04:23.586	$GPGGA,010424,2513.8370,N,07933.3540,W,1,9,1.6,20,M,,M,,*5A
06/20/2015	01:04:24.556	$GPGGA,010425,2513.8359,N,07933.3559,W,1,9,1.6,20,M,,M,,*58
06/20/2015	01:04:25.556	$GPGGA,010426,2513.8351,N,07933.3578,W,1,9,1.6,20,M,,M,,*50
06/20/2015	01:04:26.576	$GPGGA,010427,2513.8340,N,07933.3598,W,1,9,1.6,20,M,,M,,*5F
06/20/2015	01:04:27.556	$GPGGA,010428,2513.8329,N,07933.3618,W,1,9,1.6,20,M,,M,,*54
06/20/2015	01:04:28.526	$GPGGA,010429,2513.8329,N,07933.3618,W,1,9,1.6,20,M,,M,,*55
06/20/2015	01:04:29.526	$GPGGA,010430,2513.8309,N,07933.3657,W,1,9,1.6,20,M,,M,,*54
06/20/2015	01:04:30.556	$GPGGA,010431,2513.8299,N,07933.3676,W,1,9,1.6,20,M,,M,,*5E
06/20/2015	01:04:31.566	$GPGGA,010432,2513.8289,N,07933.3696,W,1,9,1.6,20,M,,M,,*52
06/20/2015	01:04:32.546	$GPGGA,010433,2513.8280,N,07933.3715,W,1,9,1.6,20,M,,M,,*50
06/20/2015	01:04:33.625	$GPGGA,010434,2513.8270,N,07933.3736,W,1,9,1.6,20,M,,M,,*59
06/20/2015	01:04:34.555	$GPGGA,010435,2513.8270,N,07933.3736,W,1,9,1.6,20,M,,M,,*58
06/20/2015	01:04:35.545	$GPGGA,010436,2513.8250,N,07933.3776,W,1,9,1.6,20,M,,M,,*5D
06/20/2015	01:04:36.508	$GPGGA,010437,2513.8250,N,07933.3776,W,1,9,1.6,20,M,,M,,*5C
06/20/2015	01:04:37.526	$GPGGA,010438,2513.8230,N,07933.3818,W,1,9,1.6,20,M,,M,,*52
06/20/2015	01:04:38.556	$GPGGA,010439,2513.8221,N,07933.3837,W,1,9,1.6,20,M,,M,,*5E
06/20/2015	01:04:39.536	$GPGGA,010440,2513.8211,N,07933.3858,W,1,9,1.6,20,M,,M,,*5A
06/20/2015	01:04:40.516	$GPGGA,010441,2513.8203,N,07933.3877,W,1,9,1.6,19,M,,M,,*5F
06/20/2015	01:04:41.597	$GPGGA,010442,2513.8193,N,07933.3898,W,1,9,1.6,19,M,,M,,*57
06/20/2015	01:04:42.499	$GPGGA,010443,2513.8193,N,07933.3898,W,1,9,1.6,19,M,,M,,*56
06/20/2015	01:04:43.499	$GPGGA,010444,2513.8175,N,07933.3939,W,1,9,1.6,19,M,,M,,*53
06/20/2015	01:04:44.596	$GPGGA,010445,2513.8165,N,07933.3960,W,1,9,1.6,19,M,,M,,*5F
06/20/2015	01:04:45.501	$GPGGA,010446,2513.8157,N,07933.3981,W,1,9,1.6,19,M,,M,,*52
06/20/2015	01:04:46.586	$GPGGA,010447,2513.8148,N,07933.4001,W,1,9,1.6,19,M,,M,,*5B
06/20/2015	01:04:47.617	$GPGGA,010448,2513.8139,N,07933.4022,W,1,9,1.6,19,M,,M,,*53
06/20/2015	01:04:48.597	$GPGGA,010449,2513.8131,N,07933.4043,W,1,9,1.6,19,M,,M,,*5D
06/20/2015	01:04:49.486	$GPGGA,010450,2513.8123,N,07933.4062,W,1,9,1.6,19,M,,M,,*55
06/20/2015	01:04:50.576	$GPGGA,010451,2513.8114,N,07933.4082,W,1,9,1.6,19,M,,M,,*5E
06/20/2015	01:04:51.501	$GPGGA,010452,2513.8105,N,07933.4102,W,1,9,1.6,19,M,,M,,*54
06/20/2015	01:04:52.585	$GPGGA,010453,2513.8098,N,07933.4123,W,1,9,1.6,19,M,,M,,*53
06/20/2015	01:04:53.576	$GPGGA,010454,2513.8089,N,07933.4144,W,1,9,1.6,19,M,,M,,*55
06/20/2015	01:04:54.567	$GPGGA,010455,2513.8080,N,07933.4163,W,1,9,1.6,19,M,,M,,*58
06/20/2015	01:04:55.608	$GPGGA,010456,2513.8071,N,07933.4184,W,1,9,1.6,19,M,,M,,*5C
06/20/2015	01:04:56.566	$GPGGA,010457,2513.8062,N,07933.4203,W,1,9,1.6,19,M,,M,,*53
06/20/2015	01:04:57.576	$GPGGA,010458,2513.8055,N,07933.4224,W,1,9,1.6,18,M,,M,,*5C
06/20/2015	01:04:58.566	$GPGGA,010459,2513.8046,N,07933.4245,W,1,9,1.6,18,M,,M,,*58
06/20/2015	01:04:59.616	$GPGGA,010500,2513.8037,N,07933.4264,W,1,9,1.6,18,M,,M,,*50
06/20/2015	01:05:00.566	$GPGGA,010501,2513.8029,N,07933.4285,W,1,9,1.6,18,M,,M,,*51
06/20/2015	01:05:01.586	$GPGGA,010502,2513.8020,N,07933.4306,W,1,9,1.6,18,M,,M,,*51
06/20/2015	01:05:02.546	$GPGGA,010503,2513.8010,N,07933.4326,W,1,9,2.0,18,M,,M,,*54
06/20/2015	01:05:03.577	$GPGGA,010504,2513.8001,N,07933.4346,W,1,7,2.3,18,M,,M,,*58
06/20/2015	01:05:04.556	$GPGGA,010505,2513.7992,N,07933.4364,W,1,7,1.6,18,M,,M,,*53
06/20/2015	01:05:05.576	$GPGGA,010506,2513.7984,N,07933.4384,W,1,9,1.6,18,M,,M,,*57
06/20/2015	01:05:06.546	$GPGGA,010507,2513.7976,N,07933.4404,W,1,9,1.6,18,M,,M,,*54
06/20/2015	01:05:07.576	$GPGGA,010508,2513.7968,N,07933.4423,W,1,9,1.6,18,M,,M,,*51
06/20/2015	01:05:08.535	$GPGGA,010509,2513.7958,N,07933.4444,W,1,9,1.6,18,M,,M,,*52
06/20/2015	01:05:09.565	$GPGGA,010510,2513.7950,N,07933.4463,W,1,9,1.6,17,M,,M,,*58
06/20/2015	01:05:10.535	$GPGGA,010511,2513.7939,N,07933.4484,W,1,9,1.6,17,M,,M,,*5F
06/20/2015	01:05:11.576	$GPGGA,010512,2513.7928,N,07933.4505,W,1,8,2.0,17,M,,M,,*50
06/20/2015	01:05:12.546	$GPGGA,010513,2513.7919,N,07933.4524,W,1,8,1.6,17,M,,M,,*55
06/20/2015	01:05:13.526	$GPGGA,010514,2513.7910,N,07933.4545,W,1,9,1.6,17,M,,M,,*5D
06/20/2015	01:05:14.536	$GPGGA,010515,2513.7901,N,07933.4564,W,1,9,1.6,17,M,,M,,*5F
06/20/2015	01:05:15.546	$GPGGA,010516,2513.7892,N,07933.4585,W,1,9,1.6,17,M,,M,,*58
06/20/2015	01:05:16.536	$GPGGA,010517,2513.7882,N,07933.4603,W,1,9,1.6,17,M,,M,,*55
06/20/2015	01:05:17.546	$GPGGA,010518,2513.7872,N,07933.4624,W,1,9,1.6,17,M,,M,,*50
06/20/2015	01:05:18.517	$GPGGA,010519,2513.7863,N,07933.4642,W,1,9,1.6,17,M,,M,,*51
06/20/2015	01:05:19.566	$GPGGA,010520,2513.7853,N,07933.4662,W,1,9,1.6,17,M,,M,,*5A
06/20/2015	01:05:20.810	$GPGGA,010521,2513.7843,N,07933.4683,W,1,9,1.6,17,M,,M,,*55
06/20/2015	01:05:21.616	$GPGGA,010522,2513.7832,N,07933.4704,W,1,9,1.6,17,M,,M,,*5E
06/20/2015	01:05:22.511	$GPGGA,010523,2513.7822,N,07933.4722,W,1,9,1.6,17,M,,M,,*5A
06/20/2015	01:05:23.526	$GPGGA,010524,2513.7813,N,07933.4743,W,1,9,1.6,17,M,,M,,*58
06/20/2015	01:05:24.507	$GPGGA,010525,2513.7802,N,07933.4765,W,1,9,1.6,17,M,,M,,*5D
06/20/2015	01:05:25.616	$GPGGA,010526,2513.7791,N,07933.4785,W,1,8,2.0,17,M,,M,,*51
06/20/2015	01:05:26.523	$GPGGA,010527,2513.7780,N,07933.4805,W,1,8,2.0,17,M,,M,,*57
06/20/2015	01:05:27.525	$GPGGA,010528,2513.7770,N,07933.4827,W,1,8,2.0,17,M,,M,,*57
06/20/2015	01:05:28.502	$GPGGA,010529,2513.7762,N,07933.4846,W,1,8,1.6,17,M,,M,,*57
06/20/2015	01:05:29.505	$GPGGA,010530,2513.7749,N,07933.4866,W,1,9,1.6,17,M,,M,,*55
06/20/2015	01:05:30.586	$GPGGA,010531,2513.7737,N,07933.4888,W,1,9,2.0,17,M,,M,,*58
06/20/2015	01:05:31.607	$GPGGA,010532,2513.7730,N,07933.4906,W,1,9,1.6,17,M,,M,,*5E
06/20/2015	01:05:32.516	$GPGGA,010533,2513.7721,N,07933.4924,W,1,9,1.8,17,M,,M,,*51
06/20/2015	01:05:33.626	$GPGGA,010534,2513.7712,N,07933.4943,W,1,9,1.6,17,M,,M,,*59
06/20/2015	01:05:34.512	$GPGGA,010535,2513.7705,N,07933.4962,W,1,9,1.6,17,M,,M,,*5D
06/20/2015	01:05:35.616	$GPGGA,010536,2513.7697,N,07933.4982,W,1,8,1.8,17,M,,M,,*55
06/20/2015	01:05:36.586	$GPGGA,010537,2513.7686,N,07933.5003,W,1,8,1.6,17,M,,M,,*5B
06/20/2015	01:05:37.576	$GPGGA,010538,2513.7679,N,07933.5022,W,1,8,2.0,17,M,,M,,*52
06/20/2015	01:05:38.586	$GPGGA,010539,2513.7670,N,07933.5043,W,1,8,1.6,17,M,,M,,*58
06/20/2015	01:05:39.607	$GPGGA,010540,2513.7661,N,07933.5065,W,1,9,1.6,17,M,,M,,*53
06/20/2015	01:05:40.576	$GPGGA,010541,2513.7652,N,07933.5085,W,1,9,1.6,17,M,,M,,*5C
06/20/2015	01:05:41.599	$GPGGA,010542,2513.7643,N,07933.5106,W,1,9,1.6,17,M,,M,,*55
06/20/2015	01:05:42.566	$GPGGA,010543,2513.7635,N,07933.5127,W,1,9,1.6,17,M,,M,,*56
06/20/2015	01:05:43.601	$GPGGA,010544,2513.7627,N,07933.5148,W,1,9,1.6,17,M,,M,,*5B
06/20/2015	01:05:44.575	$GPGGA,010545,2513.7618,N,07933.5168,W,1,9,1.6,17,M,,M,,*54
06/20/2015	01:05:45.575	$GPGGA,010546,2513.7609,N,07933.5189,W,1,9,1.6,17,M,,M,,*58
06/20/2015	01:05:46.566	$GPGGA,010547,2513.7600,N,07933.5209,W,1,9,1.6,17,M,,M,,*5B
06/20/2015	01:05:47.586	$GPGGA,010548,2513.7593,N,07933.5229,W,1,9,1.6,17,M,,M,,*5F
06/20/2015	01:05:48.566	$GPGGA,010549,2513.7583,N,07933.5249,W,1,9,1.6,17,M,,M,,*59
06/20/2015	01:05:49.576	$GPGGA,010550,2513.7574,N,07933.5268,W,1,9,1.6,17,M,,M,,*5A
06/20/2015	01:05:50.556	$GPGGA,010551,2513.7565,N,07933.5289,W,1,9,1.6,17,M,,M,,*54
06/20/2015	01:05:51.598	$GPGGA,010552,2513.7557,N,07933.5311,W,1,9,1.6,17,M,,M,,*56
06/20/2015	01:05:52.556	$GPGGA,010553,2513.7549,N,07933.5329,W,1,9,1.6,17,M,,M,,*53
06/20/2015	01:05:53.576	$GPGGA,010554,2513.7538,N,07933.5350,W,1,9,1.6,18,M,,M,,*53
06/20/2015	01:05:54.546	$GPGGA,010555,2513.7531,N,07933.5372,W,1,9,1.6,18,M,,M,,*5B
06/20/2015	01:05:55.576	$GPGGA,010556,2513.7521,N,07933.5391,W,1,9,1.6,18,M,,M,,*54
06/20/2015	01:05:56.536	$GPGGA,010557,2513.7510,N,07933.5412,W,1,9,1.6,18,M,,M,,*5B
06/20/2015	01:05:57.566	$GPGGA,010558,2513.7502,N,07933.5431,W,1,9,1.6,18,M,,M,,*56
06/20/2015	01:05:58.526	$GPGGA,010559,2513.7493,N,07933.5452,W,1,9,1.6,18,M,,M,,*5B
06/20/2015	01:05:59.586	$GPGGA,010600,2513.7482,N,07933.5473,W,1,9,1.6,18,M,,M,,*57
06/20/2015	01:06:00.546	$GPGGA,010601,2513.7470,N,07933.5493,W,1,9,2.0,18,M,,M,,*50
06/20/2015	01:06:01.545	$GPGGA,010602,2513.7463,N,07933.5513,W,1,8,2.0,18,M,,M,,*59
06/20/2015	01:06:02.535	$GPGGA,010603,2513.7453,N,07933.5533,W,1,8,1.6,18,M,,M,,*5C
06/20/2015	01:06:03.566	$GPGGA,010604,2513.7444,N,07933.5553,W,1,9,1.6,17,M,,M,,*55
06/20/2015	01:06:04.516	$GPGGA,010605,2513.7435,N,07933.5574,W,1,9,1.6,17,M,,M,,*57
06/20/2015	01:06:05.526	$GPGGA,010606,2513.7426,N,07933.5592,W,1,9,1.6,17,M,,M,,*5E
06/20/2015	01:06:06.526	$GPGGA,010607,2513.7417,N,07933.5612,W,1,9,1.6,17,M,,M,,*56
06/20/2015	01:06:07.526	$GPGGA,010608,2513.7408,N,07933.5632,W,1,9,1.6,17,M,,M,,*55
06/20/2015	01:06:08.506	$GPGGA,010609,2513.7398,N,07933.5651,W,1,9,1.6,17,M,,M,,*5F
06/20/2015	01:06:09.516	$GPGGA,010610,2513.7390,N,07933.5672,W,1,9,1.6,17,M,,M,,*5E
06/20/2015	01:06:10.626	$GPGGA,010611,2513.7379,N,07933.5691,W,1,9,1.6,17,M,,M,,*55
06/20/2015	01:06:11.636	$GPGGA,010612,2513.7367,N,07933.5712,W,1,9,1.6,17,M,,M,,*53
06/20/2015	01:06:12.509	$GPGGA,010613,2513.7355,N,07933.5733,W,1,9,2.0,17,M,,M,,*55
06/20/2015	01:06:13.616	$GPGGA,010614,2513.7344,N,07933.5753,W,1,8,2.0,17,M,,M,,*55
06/20/2015	01:06:14.506	$GPGGA,010615,2513.7334,N,07933.5773,W,1,8,2.0,17,M,,M,,*51
06/20/2015	01:06:15.526	$GPGGA,010616,2513.7325,N,07933.5795,W,1,9,1.6,17,M,,M,,*5E
06/20/2015	01:06:16.486	$GPGGA,010617,2513.7316,N,07933.5814,W,1,9,1.6,17,M,,M,,*59
06/20/2015	01:06:17.516	$GPGGA,010618,2513.7307,N,07933.5835,W,1,9,1.6,17,M,,M,,*55
06/20/2015	01:06:18.585	$GPGGA,010619,2513.7299,N,07933.5856,W,1,9,1.6,17,M,,M,,*57
06/20/2015	01:06:19.496	$GPGGA,010620,2513.7289,N,07933.5875,W,1,9,1.6,17,M,,M,,*5D
06/20/2015	01:06:20.505	$GPGGA,010621,2513.7278,N,07933.5897,W,1,9,2.0,17,M,,M,,*5B
06/20/2015	01:06:21.609	$GPGGA,010622,2513.7271,N,07933.5917,W,1,8,2.0,17,M,,M,,*59
06/20/2015	01:06:22.498	$GPGGA,010623,2513.7260,N,07933.5937,W,1,8,1.6,17,M,,M,,*5F
06/20/2015	01:06:23.626	$GPGGA,010624,2513.7251,N,07933.5957,W,1,9,1.6,17,M,,M,,*5D
06/20/2015	01:06:24.586	$GPGGA,010625,2513.7242,N,07933.5977,W,1,9,1.6,17,M,,M,,*5C
06/20/2015	01:06:25.586	$GPGGA,010626,2513.7232,N,07933.5997,W,1,9,1.6,17,M,,M,,*56
06/20/2015	01:06:26.576	$GPGGA,010627,2513.7224,N,07933.6017,W,1,9,1.6,16,M,,M,,*53
06/20/2015	01:06:27.596	$GPGGA,010628,2513.7215,N,07933.6037,W,1,9,1.6,16,M,,M,,*5C
06/20/2015	01:06:28.566	$GPGGA,010629,2513.7206,N,07933.6056,W,1,9,1.6,16,M,,M,,*58
06/20/2015	01:06:29.566	$GPGGA,010630,2513.7197,N,07933.6077,W,1,9,1.6,16,M,,M,,*58
06/20/2015	01:06:30.556	$GPGGA,010631,2513.7189,N,07933.6095,W,1,9,1.6,16,M,,M,,*5A
06/20/2015	01:06:31.600	$GPGGA,010632,2513.7180,N,07933.6116,W,1,9,1.6,16,M,,M,,*5A
06/20/2015	01:06:32.556	$GPGGA,010633,2513.7170,N,07933.6136,W,1,9,1.6,16,M,,M,,*56
06/20/2015	01:06:33.566	$GPGGA,010634,2513.7159,N,07933.6157,W,1,8,2.0,16,M,,M,,*59
06/20/2015	01:06:34.566	$GPGGA,010635,2513.7148,N,07933.6179,W,1,8,2.0,16,M,,M,,*54
06/20/2015	01:06:35.599	$GPGGA,010636,2513.7141,N,07933.6199,W,1,8,2.0,16,M,,M,,*50
06/20/2015	01:06:36.555	$GPGGA,010637,2513.7132,N,07933.6219,W,1,8,1.6,16,M,,M,,*5B
06/20/2015	01:06:37.565	$GPGGA,010638,2513.7123,N,07933.6239,W,1,9,1.6,16,M,,M,,*57
06/20/2015	01:06:38.566	$GPGGA,010639,2513.7115,N,07933.6259,W,1,9,1.9,16,M,,M,,*5A
06/20/2015	01:06:39.576	$GPGGA,010640,2513.7104,N,07933.6279,W,1,9,1.6,16,M,,M,,*59
06/20/2015	01:06:40.546	$GPGGA,010641,2513.7092,N,07933.6298,W,1,9,2.0,16,M,,M,,*5C
06/20/2015	01:06:42.026	$GPGGA,010642,2513.7085,N,07933.6318,W,1,7,2.3,15,M,,M,,*5E
06/20/2015	01:06:42.546	$GPGGA,010643,2513.7077,N,07933.6337,W,1,7,1.6,15,M,,M,,*59
06/20/2015	01:06:43.576	$GPGGA,010644,2513.7068,N,07933.6356,W,1,9,1.6,15,M,,M,,*59
06/20/2015	01:06:44.546	$GPGGA,010645,2513.7059,N,07933.6376,W,1,9,1.6,15,M,,M,,*58
06/20/2015	01:06:45.566	$GPGGA,010646,2513.7050,N,07933.6396,W,1,9,1.6,15,M,,M,,*5C
06/20/2015	01:06:46.546	$GPGGA,010647,2513.7040,N,07933.6416,W,1,9,1.6,15,M,,M,,*53
06/20/2015	01:06:47.576	$GPGGA,010648,2513.7030,N,07933.6436,W,1,9,1.6,15,M,,M,,*59
06/20/2015	01:06:48.526	$GPGGA,010649,2513.7021,N,07933.6457,W,1,9,1.6,15,M,,M,,*5F
06/20/2015	01:06:49.556	$GPGGA,010650,2513.7012,N,07933.6478,W,1,9,1.6,15,M,,M,,*5A
06/20/2015	01:06:50.536	$GPGGA,010651,2513.7003,N,07933.6497,W,1,9,1.6,15,M,,M,,*5A
06/20/2015	01:06:51.536	$GPGGA,010652,2513.6993,N,07933.6518,W,1,9,1.6,15,M,,M,,*5E
06/20/2015	01:06:53.555	$GPGGA,010654,2513.6973,N,07933.6558,W,1,8,1.9,15,M,,M,,*5C
06/20/2015	01:06:54.535	$GPGGA,010655,2513.6967,N,07933.6577,W,1,8,2.0,15,M,,M,,*5F
06/20/2015	01:06:55.565	$GPGGA,010656,2513.6960,N,07933.6597,W,1,9,1.6,15,M,,M,,*51
06/20/2015	01:06:56.509	$GPGGA,010657,2513.6950,N,07933.6618,W,1,9,1.6,16,M,,M,,*54
06/20/2015	01:06:57.516	$GPGGA,010658,2513.6937,N,07933.6638,W,1,9,1.6,16,M,,M,,*58
06/20/2015	01:06:58.516	$GPGGA,010659,2513.6926,N,07933.6659,W,1,9,2.0,16,M,,M,,*5B
06/20/2015	01:06:59.656	$GPGGA,010700,2513.6918,N,07933.6678,W,1,8,2.0,16,M,,M,,*59
06/20/2015	01:07:00.516	$GPGGA,010701,2513.6909,N,07933.6698,W,1,8,1.6,16,M,,M,,*53
06/20/2015	01:07:01.626	$GPGGA,010702,2513.6900,N,07933.6717,W,1,9,1.6,16,M,,M,,*5E
06/20/2015	01:07:02.516	$GPGGA,010703,2513.6891,N,07933.6738,W,1,9,1.6,16,M,,M,,*5B
06/20/2015	01:07:03.516	$GPGGA,010704,2513.6882,N,07933.6757,W,1,9,1.6,16,M,,M,,*57
06/20/2015	01:07:04.509	$GPGGA,010705,2513.6872,N,07933.6778,W,1,9,1.6,16,M,,M,,*54
06/20/2015	01:07:05.496	$GPGGA,010706,2513.6862,N,07933.6799,W,1,9,1.6,16,M,,M,,*59
06/20/2015	01:07:06.606	$GPGGA,010707,2513.6852,N,07933.6819,W,1,9,1.6,16,M,,M,,*5C
06/20/2015	01:07:07.588	$GPGGA,010708,2513.6839,N,07933.6840,W,1,8,2.0,16,M,,M,,*56
06/20/2015	01:07:08.502	$GPGGA,010709,2513.6828,N,07933.6861,W,1,8,2.0,16,M,,M,,*54
06/20/2015	01:07:09.487	$GPGGA,010710,2513.6817,N,07933.6882,W,1,8,2.0,16,M,,M,,*5D
06/20/2015	01:07:10.476	$GPGGA,010711,2513.6806,N,07933.6902,W,1,8,2.0,16,M,,M,,*55
06/20/2015	01:07:11.665	$GPGGA,010712,2513.6798,N,07933.6922,W,1,8,2.0,16,M,,M,,*5C
06/20/2015	01:07:12.575	$GPGGA,010713,2513.6790,N,07933.6941,W,1,8,1.6,16,M,,M,,*55
06/20/2015	01:07:13.565	$GPGGA,010714,2513.6778,N,07933.6962,W,1,9,1.6,16,M,,M,,*54
06/20/2015	01:07:14.565	$GPGGA,010715,2513.6767,N,07933.6983,W,1,9,2.0,16,M,,M,,*51
06/20/2015	01:07:15.585	$GPGGA,010716,2513.6759,N,07933.7002,W,1,8,2.0,16,M,,M,,*5F
06/20/2015	01:07:16.565	$GPGGA,010717,2513.6747,N,07933.7024,W,1,8,1.9,15,M,,M,,*5C
06/20/2015	01:07:17.897	$GPGGA,010718,2513.6736,N,07933.7046,W,1,8,2.0,15,M,,M,,*5B
06/20/2015	01:07:18.555	$GPGGA,010719,2513.6726,N,07933.7066,W,1,8,2.0,15,M,,M,,*59
06/20/2015	01:07:19.575	$GPGGA,010720,2513.6718,N,07933.7086,W,1,9,1.6,15,M,,M,,*54
06/20/2015	01:07:20.555	$GPGGA,010721,2513.6709,N,07933.7106,W,1,9,1.6,15,M,,M,,*5C
06/20/2015	01:07:21.575	$GPGGA,010722,2513.6700,N,07933.7125,W,1,9,1.6,15,M,,M,,*57
06/20/2015	01:07:22.545	$GPGGA,010723,2513.6689,N,07933.7146,W,1,9,1.6,15,M,,M,,*53
06/20/2015	01:07:23.575	$GPGGA,010724,2513.6680,N,07933.7165,W,1,8,2.0,15,M,,M,,*58
06/20/2015	01:07:24.546	$GPGGA,010725,2513.6671,N,07933.7186,W,1,8,1.6,15,M,,M,,*5F
06/20/2015	01:07:25.566	$GPGGA,010726,2513.6660,N,07933.7207,W,1,9,1.6,16,M,,M,,*54
06/20/2015	01:07:26.546	$GPGGA,010727,2513.6651,N,07933.7226,W,1,9,1.6,16,M,,M,,*54
06/20/2015	01:07:27.576	$GPGGA,010728,2513.6642,N,07933.7247,W,1,9,1.6,16,M,,M,,*5E
06/20/2015	01:07:28.535	$GPGGA,010729,2513.6632,N,07933.7269,W,1,9,1.6,16,M,,M,,*54
06/20/2015	01:07:29.525	$GPGGA,010730,2513.6624,N,07933.7290,W,1,9,1.6,16,M,,M,,*5D
06/20/2015	01:07:30.535	$GPGGA,010731,2513.6615,N,07933.7310,W,1,9,1.6,16,M,,M,,*57
06/20/2015	01:07:31.575	$GPGGA,010732,2513.6606,N,07933.7331,W,1,9,1.6,16,M,,M,,*55
06/20/2015	01:07:32.515	$GPGGA,010733,2513.6597,N,07933.7352,W,1,9,1.6,16,M,,M,,*5A
06/20/2015	01:07:33.555	$GPGGA,010734,2513.6589,N,07933.7374,W,1,9,1.6,16,M,,M,,*56
06/20/2015	01:07:34.525	$GPGGA,010735,2513.6581,N,07933.7393,W,1,9,1.6,16,M,,M,,*56
06/20/2015	01:07:35.525	$GPGGA,010736,2513.6571,N,07933.7414,W,1,9,1.6,16,M,,M,,*52
06/20/2015	01:07:36.525	$GPGGA,010737,2513.6564,N,07933.7435,W,1,9,1.6,16,M,,M,,*54
06/20/2015	01:07:37.515	$GPGGA,010738,2513.6555,N,07933.7457,W,1,9,1.6,16,M,,M,,*5D
06/20/2015	01:07:38.525	$GPGGA,010739,2513.6545,N,07933.7476,W,1,9,1.6,16,M,,M,,*5E
06/20/2015	01:07:39.566	$GPGGA,010740,2513.6537,N,07933.7496,W,1,9,1.6,16,M,,M,,*5B
06/20/2015	01:07:40.525	$GPGGA,010741,2513.6530,N,07933.7518,W,1,9,1.6,16,M,,M,,*5A
06/20/2015	01:07:41.646	$GPGGA,010742,2513.6519,N,07933.7537,W,1,9,1.6,16,M,,M,,*5F
06/20/2015	01:07:42.516	$GPGGA,010743,2513.6509,N,07933.7558,W,1,9,1.6,16,M,,M,,*56
06/20/2015	01:07:43.526	$GPGGA,010744,2513.6499,N,07933.7579,W,1,8,2.0,16,M,,M,,*5E
06/20/2015	01:07:44.506	$GPGGA,010745,2513.6489,N,07933.7598,W,1,8,2.0,16,M,,M,,*51
06/20/2015	01:07:45.626	$GPGGA,010746,2513.6479,N,07933.7619,W,1,8,2.0,16,M,,M,,*57
06/20/2015	01:07:46.515	$GPGGA,010747,2513.6469,N,07933.7639,W,1,8,2.0,16,M,,M,,*55
06/20/2015	01:07:47.625	$GPGGA,010748,2513.6459,N,07933.7659,W,1,8,2.0,16,M,,M,,*5F
06/20/2015	01:07:48.625	$GPGGA,010749,2513.6449,N,07933.7681,W,1,8,2.0,16,M,,M,,*5A
06/20/2015	01:07:49.615	$GPGGA,010750,2513.6440,N,07933.7700,W,1,8,2.0,15,M,,M,,*50
06/20/2015	01:07:50.485	$GPGGA,010751,2513.6429,N,07933.7720,W,1,8,2.0,15,M,,M,,*5C
06/20/2015	01:07:51.505	$GPGGA,010752,2513.6419,N,07933.7742,W,1,8,2.0,15,M,,M,,*58
06/20/2015	01:07:52.585	$GPGGA,010753,2513.6412,N,07933.7760,W,1,8,1.6,15,M,,M,,*57
06/20/2015	01:07:53.606	$GPGGA,010754,2513.6404,N,07933.7779,W,1,9,1.6,15,M,,M,,*5E
06/20/2015	01:07:54.587	$GPGGA,010755,2513.6396,N,07933.7800,W,1,9,1.6,15,M,,M,,*52
06/20/2015	01:07:55.615	$GPGGA,010756,2513.6389,N,07933.7819,W,1,9,1.6,15,M,,M,,*57
06/20/2015	01:07:56.575	$GPGGA,010757,2513.6380,N,07933.7840,W,1,9,1.6,15,M,,M,,*53
06/20/2015	01:07:57.588	$GPGGA,010758,2513.6368,N,07933.7859,W,1,9,2.0,15,M,,M,,*57
06/20/2015	01:07:58.576	$GPGGA,010759,2513.6360,N,07933.7879,W,1,9,1.6,15,M,,M,,*59
06/20/2015	01:07:59.497	$GPGGA,010800,2513.6350,N,07933.7899,W,1,9,1.6,15,M,,M,,*57
06/20/2015	01:08:00.576	$GPGGA,010801,2513.6339,N,07933.7919,W,1,9,2.0,15,M,,M,,*55
06/20/2015	01:08:01.556	$GPGGA,010802,2513.6328,N,07933.7941,W,1,8,2.0,15,M,,M,,*5A
06/20/2015	01:08:02.566	$GPGGA,010803,2513.6318,N,07933.7960,W,1,8,2.0,15,M,,M,,*5B
06/20/2015	01:08:03.615	$GPGGA,010804,2513.6307,N,07933.7981,W,1,8,2.0,15,M,,M,,*5D
06/20/2015	01:08:04.565	$GPGGA,010805,2513.6299,N,07933.8000,W,1,8,1.6,15,M,,M,,*50
06/20/2015	01:08:05.575	$GPGGA,010806,2513.6292,N,07933.8020,W,1,9,1.6,15,M,,M,,*5B
06/20/2015	01:08:06.565	$GPGGA,010807,2513.6281,N,07933.8042,W,1,9,2.0,15,M,,M,,*59
06/20/2015	01:08:07.586	$GPGGA,010808,2513.6270,N,07933.8061,W,1,8,2.0,15,M,,M,,*58
06/20/2015	01:08:08.565	$GPGGA,010809,2513.6261,N,07933.8082,W,1,8,1.6,15,M,,M,,*51
06/20/2015	01:08:09.988	$GPGGA,010810,2513.6252,N,07933.8103,W,1,9,1.6,15,M,,M,,*50
06/20/2015	01:08:10.545	$GPGGA,010811,2513.6241,N,07933.8122,W,1,9,1.6,15,M,,M,,*50
06/20/2015	01:08:11.605	$GPGGA,010812,2513.6234,N,07933.8143,W,1,9,1.6,15,M,,M,,*56
06/20/2015	01:08:12.545	$GPGGA,010813,2513.6227,N,07933.8161,W,1,9,1.6,15,M,,M,,*55
06/20/2015	01:08:13.566	$GPGGA,010814,2513.6217,N,07933.8180,W,1,9,1.6,15,M,,M,,*5E
06/20/2015	01:08:14.545	$GPGGA,010815,2513.6209,N,07933.8201,W,1,9,1.6,15,M,,M,,*5A
06/20/2015	01:08:15.615	$GPGGA,010816,2513.6200,N,07933.8222,W,1,9,1.6,15,M,,M,,*51
06/20/2015	01:08:16.546	$GPGGA,010817,2513.6191,N,07933.8241,W,1,9,1.6,15,M,,M,,*5E
06/20/2015	01:08:17.566	$GPGGA,010818,2513.6182,N,07933.8262,W,1,9,1.6,15,M,,M,,*52
06/20/2015	01:08:18.536	$GPGGA,010819,2513.6173,N,07933.8280,W,1,9,1.6,15,M,,M,,*51
06/20/2015	01:08:19.576	$GPGGA,010820,2513.6165,N,07933.8302,W,1,9,1.6,15,M,,M,,*57
06/20/2015	01:08:20.526	$GPGGA,010821,2513.6156,N,07933.8321,W,1,9,1.6,15,M,,M,,*57
06/20/2015	01:08:21.525	$GPGGA,010822,2513.6147,N,07933.8342,W,1,9,1.6,15,M,,M,,*51
06/20/2015	01:08:22.525	$GPGGA,010823,2513.6140,N,07933.8361,W,1,9,1.6,15,M,,M,,*56
06/20/2015	01:08:23.555	$GPGGA,010824,2513.6130,N,07933.8382,W,1,9,1.6,15,M,,M,,*5B
06/20/2015	01:08:24.525	$GPGGA,010825,2513.6122,N,07933.8401,W,1,9,1.6,15,M,,M,,*55
06/20/2015	01:08:25.545	$GPGGA,010826,2513.6113,N,07933.8421,W,1,9,1.6,15,M,,M,,*56
06/20/2015	01:08:26.535	$GPGGA,010827,2513.6104,N,07933.8440,W,1,9,1.6,15,M,,M,,*56
06/20/2015	01:08:27.635	$GPGGA,010828,2513.6094,N,07933.8461,W,1,9,1.6,15,M,,M,,*52
06/20/2015	01:08:28.625	$GPGGA,010829,2513.6086,N,07933.8482,W,1,9,1.6,15,M,,M,,*5D
06/20/2015	01:08:29.525	$GPGGA,010830,2513.6076,N,07933.8501,W,1,9,1.6,16,M,,M,,*53
06/20/2015	01:08:30.496	$GPGGA,010831,2513.6068,N,07933.8522,W,1,9,1.6,16,M,,M,,*5C
06/20/2015	01:08:31.595	$GPGGA,010832,2513.6057,N,07933.8541,W,1,9,1.6,16,M,,M,,*56
06/20/2015	01:08:32.499	$GPGGA,010833,2513.6047,N,07933.8562,W,1,9,1.6,16,M,,M,,*57
06/20/2015	01:08:33.505	$GPGGA,010834,2513.6039,N,07933.8582,W,1,9,1.6,16,M,,M,,*57
06/20/2015	01:08:34.606	$GPGGA,010835,2513.6029,N,07933.8603,W,1,9,1.6,16,M,,M,,*5D
06/20/2015	01:08:35.566	$GPGGA,010836,2513.6019,N,07933.8624,W,1,9,1.6,16,M,,M,,*58
06/20/2015	01:08:36.506	$GPGGA,010837,2513.6006,N,07933.8645,W,1,9,2.0,16,M,,M,,*55
06/20/2015	01:08:37.516	$GPGGA,010838,2513.5996,N,07933.8667,W,1,8,2.0,16,M,,M,,*58
06/20/2015	01:08:38.495	$GPGGA,010839,2513.5988,N,07933.8686,W,1,8,1.6,16,M,,M,,*5C
06/20/2015	01:08:39.505	$GPGGA,010840,2513.5978,N,07933.8706,W,1,9,1.6,16,M,,M,,*55
06/20/2015	01:08:40.585	$GPGGA,010841,2513.5970,N,07933.8725,W,1,9,1.6,16,M,,M,,*5D
06/20/2015	01:08:41.575	$GPGGA,010842,2513.5961,N,07933.8744,W,1,9,1.6,16,M,,M,,*59
06/20/2015	01:08:42.499	$GPGGA,010843,2513.5952,N,07933.8764,W,1,9,1.6,16,M,,M,,*5A
06/20/2015	01:08:43.555	$GPGGA,010844,2513.5943,N,07933.8783,W,1,9,1.6,16,M,,M,,*54
06/20/2015	01:08:44.497	$GPGGA,010845,2513.5935,N,07933.8801,W,1,9,1.6,16,M,,M,,*51
06/20/2015	01:08:45.599	$GPGGA,010846,2513.5925,N,07933.8820,W,1,9,1.6,16,M,,M,,*50
06/20/2015	01:08:46.596	$GPGGA,010847,2513.5916,N,07933.8840,W,1,9,1.6,16,M,,M,,*57
06/20/2015	01:08:47.615	$GPGGA,010848,2513.5905,N,07933.8862,W,1,9,1.6,16,M,,M,,*5A
06/20/2015	01:08:48.565	$GPGGA,010849,2513.5892,N,07933.8884,W,1,9,2.0,16,M,,M,,*59
06/20/2015	01:08:49.587	$GPGGA,010850,2513.5881,N,07933.8903,W,1,8,1.6,16,M,,M,,*59
06/20/2015	01:08:50.565	$GPGGA,010851,2513.5869,N,07933.8924,W,1,8,1.6,16,M,,M,,*5B
06/20/2015	01:08:51.589	$GPGGA,010852,2513.5858,N,07933.8945,W,1,8,2.0,16,M,,M,,*58
06/20/2015	01:08:52.566	$GPGGA,010853,2513.5849,N,07933.8967,W,1,8,2.0,16,M,,M,,*59
06/20/2015	01:08:53.546	$GPGGA,010854,2513.5840,N,07933.8986,W,1,9,1.6,16,M,,M,,*5C
06/20/2015	01:08:54.566	$GPGGA,010855,2513.5830,N,07933.9007,W,1,9,1.6,16,M,,M,,*5B
06/20/2015	01:08:55.598	$GPGGA,010856,2513.5820,N,07933.9026,W,1,9,1.6,16,M,,M,,*5A
06/20/2015	01:08:56.565	$GPGGA,010857,2513.5811,N,07933.9047,W,1,9,1.6,15,M,,M,,*5D
06/20/2015	01:08:57.545	$GPGGA,010858,2513.5801,N,07933.9068,W,1,9,1.6,15,M,,M,,*5E
06/20/2015	01:08:58.556	$GPGGA,010859,2513.5793,N,07933.9086,W,1,9,2.0,15,M,,M,,*5E
06/20/2015	01:08:59.600	$GPGGA,010900,2513.5782,N,07933.9108,W,1,9,1.6,15,M,,M,,*51
06/20/2015	01:09:00.545	$GPGGA,010901,2513.5773,N,07933.9129,W,1,9,2.0,15,M,,M,,*58
06/20/2015	01:09:01.565	$GPGGA,010902,2513.5764,N,07933.9149,W,1,8,2.0,15,M,,M,,*5A
06/20/2015	01:09:02.545	$GPGGA,010903,2513.5755,N,07933.9169,W,1,8,1.6,15,M,,M,,*5E
06/20/2015	01:09:03.565	$GPGGA,010904,2513.5746,N,07933.9189,W,1,9,1.6,15,M,,M,,*54
06/20/2015	01:09:04.535	$GPGGA,010905,2513.5739,N,07933.9210,W,1,9,1.6,15,M,,M,,*5E
06/20/2015	01:09:05.525	$GPGGA,010906,2513.5730,N,07933.9230,W,1,9,1.6,15,M,,M,,*56
06/20/2015	01:09:06.535	$GPGGA,010907,2513.5722,N,07933.9249,W,1,9,1.6,15,M,,M,,*5A
06/20/2015	01:09:07.555	$GPGGA,010908,2513.5710,N,07933.9270,W,1,9,1.6,15,M,,M,,*5E
06/20/2015	01:09:08.536	$GPGGA,010909,2513.5703,N,07933.9289,W,1,9,2.0,15,M,,M,,*5E
06/20/2015	01:09:09.556	$GPGGA,010910,2513.5692,N,07933.9310,W,1,9,1.6,15,M,,M,,*5B
06/20/2015	01:09:10.516	$GPGGA,010911,2513.5683,N,07933.9332,W,1,9,2.1,15,M,,M,,*5E
06/20/2015	01:09:11.556	$GPGGA,010912,2513.5674,N,07933.9351,W,1,9,1.6,15,M,,M,,*54
06/20/2015	01:09:12.526	$GPGGA,010913,2513.5665,N,07933.9372,W,1,9,1.6,15,M,,M,,*54
06/20/2015	01:09:13.545	$GPGGA,010914,2513.5656,N,07933.9394,W,1,9,1.6,15,M,,M,,*5B
06/20/2015	01:09:14.525	$GPGGA,010915,2513.5646,N,07933.9415,W,1,9,1.6,14,M,,M,,*54
06/20/2015	01:09:15.535	$GPGGA,010916,2513.5638,N,07933.9436,W,1,9,1.6,14,M,,M,,*5F
06/20/2015	01:09:16.515	$GPGGA,010917,2513.5627,N,07933.9456,W,1,9,1.6,14,M,,M,,*56
06/20/2015	01:09:17.625	$GPGGA,010918,2513.5617,N,07933.9477,W,1,8,2.1,14,M,,M,,*5C
06/20/2015	01:09:18.502	$GPGGA,010919,2513.5605,N,07933.9498,W,1,8,2.1,14,M,,M,,*5F
06/20/2015	01:09:19.515	$GPGGA,010920,2513.5595,N,07933.9519,W,1,8,2.1,14,M,,M,,*57
06/20/2015	01:09:20.488	$GPGGA,010921,2513.5587,N,07933.9539,W,1,8,2.1,14,M,,M,,*57
06/20/2015	01:09:21.505	$GPGGA,010922,2513.5575,N,07933.9559,W,1,8,2.1,14,M,,M,,*5F
06/20/2015	01:09:22.507	$GPGGA,010923,2513.5565,N,07933.9579,W,1,8,2.1,14,M,,M,,*5D
06/20/2015	01:09:23.605	$GPGGA,010924,2513.5555,N,07933.9599,W,1,8,2.1,14,M,,M,,*57
06/20/2015	01:09:24.498	$GPGGA,010925,2513.5544,N,07933.9621,W,1,8,2.1,14,M,,M,,*56
06/20/2015	01:09:25.505	$GPGGA,010926,2513.5535,N,07933.9642,W,1,8,2.1,14,M,,M,,*56
06/20/2015	01:09:26.606	$GPGGA,010927,2513.5526,N,07933.9662,W,1,8,2.1,13,M,,M,,*50
06/20/2015	01:09:27.626	$GPGGA,010928,2513.5515,N,07933.9682,W,1,8,2.1,13,M,,M,,*51
06/20/2015	01:09:28.596	$GPGGA,010929,2513.5505,N,07933.9702,W,1,8,2.1,13,M,,M,,*58
06/20/2015	01:09:29.576	$GPGGA,010930,2513.5499,N,07933.9722,W,1,8,2.1,13,M,,M,,*56
06/20/2015	01:09:30.488	$GPGGA,010931,2513.5488,N,07933.9740,W,1,8,1.6,13,M,,M,,*57
06/20/2015	01:09:31.645	$GPGGA,010932,2513.5481,N,07933.9758,W,1,8,2.1,13,M,,M,,*50
06/20/2015	01:09:32.487	$GPGGA,010933,2513.5475,N,07933.9779,W,1,8,1.6,13,M,,M,,*5D
06/20/2015	01:09:33.565	$GPGGA,010934,2513.5463,N,07933.9798,W,1,9,1.6,13,M,,M,,*53
06/20/2015	01:09:34.565	$GPGGA,010935,2513.5454,N,07933.9816,W,1,9,2.1,13,M,,M,,*5B
06/20/2015	01:09:35.905	$GPGGA,010936,2513.5445,N,07933.9837,W,1,9,1.6,13,M,,M,,*5F
06/20/2015	01:09:36.597	$GPGGA,010937,2513.5434,N,07933.9857,W,1,9,1.6,13,M,,M,,*5E
06/20/2015	01:09:37.585	$GPGGA,010938,2513.5423,N,07933.9877,W,1,8,2.1,13,M,,M,,*50
06/20/2015	01:09:38.555	$GPGGA,010939,2513.5412,N,07933.9899,W,1,8,2.1,13,M,,M,,*53
06/20/2015	01:09:39.597	$GPGGA,010940,2513.5403,N,07933.9918,W,1,8,2.1,13,M,,M,,*55
06/20/2015	01:09:40.555	$GPGGA,010941,2513.5392,N,07933.9939,W,1,8,2.1,13,M,,M,,*58
06/20/2015	01:09:41.586	$GPGGA,010942,2513.5383,N,07933.9958,W,1,8,2.1,13,M,,M,,*5C
06/20/2015	01:09:42.555	$GPGGA,010943,2513.5374,N,07933.9978,W,1,8,2.1,13,M,,M,,*57
06/20/2015	01:09:43.576	$GPGGA,010944,2513.5364,N,07933.9997,W,1,8,2.1,12,M,,M,,*51
06/20/2015	01:09:44.546	$GPGGA,010945,2513.5357,N,07934.0016,W,1,8,1.6,12,M,,M,,*5A
06/20/2015	01:09:45.566	$GPGGA,010946,2513.5350,N,07934.0036,W,1,9,1.6,12,M,,M,,*5D
06/20/2015	01:09:46.536	$GPGGA,010947,2513.5342,N,07934.0056,W,1,9,1.6,12,M,,M,,*59
06/20/2015	01:09:47.576	$GPGGA,010948,2513.5334,N,07934.0076,W,1,9,1.6,12,M,,M,,*55
06/20/2015	01:09:48.555	$GPGGA,010949,2513.5327,N,07934.0095,W,1,9,1.6,12,M,,M,,*5B
06/20/2015	01:09:49.535	$GPGGA,010950,2513.5318,N,07934.0116,W,1,9,1.6,13,M,,M,,*54
06/20/2015	01:09:50.545	$GPGGA,010951,2513.5311,N,07934.0135,W,1,9,1.6,13,M,,M,,*5D
06/20/2015	01:09:51.575	$GPGGA,010952,2513.5303,N,07934.0156,W,1,9,1.6,13,M,,M,,*58
06/20/2015	01:09:52.545	$GPGGA,010953,2513.5295,N,07934.0175,W,1,9,1.6,13,M,,M,,*56
06/20/2015	01:09:53.565	$GPGGA,010954,2513.5288,N,07934.0195,W,1,9,1.6,13,M,,M,,*53
06/20/2015	01:09:54.535	$GPGGA,010955,2513.5280,N,07934.0217,W,1,9,1.6,13,M,,M,,*53
06/20/2015	01:09:55.536	$GPGGA,010956,2513.5270,N,07934.0238,W,1,9,1.6,13,M,,M,,*52
06/20/2015	01:09:56.535	$GPGGA,010957,2513.5262,N,07934.0257,W,1,9,1.6,13,M,,M,,*59
06/20/2015	01:09:57.515	$GPGGA,010958,2513.5252,N,07934.0278,W,1,9,1.6,13,M,,M,,*58
06/20/2015	01:09:58.525	$GPGGA,010959,2513.5241,N,07934.0300,W,1,9,1.6,13,M,,M,,*55
06/20/2015	01:09:59.565	$GPGGA,011000,2513.5229,N,07934.0321,W,1,8,2.1,14,M,,M,,*5E
06/20/2015	01:10:00.515	$GPGGA,011001,2513.5219,N,07934.0341,W,1,8,2.1,14,M,,M,,*5A
06/20/2015	01:10:01.556	$GPGGA,011002,2513.5209,N,07934.0362,W,1,8,2.1,14,M,,M,,*59
06/20/2015	01:10:02.506	$GPGGA,011003,2513.5201,N,07934.0381,W,1,8,2.1,14,M,,M,,*5D
06/20/2015	01:10:03.998	$GPGGA,011004,2513.5192,N,07934.0401,W,1,9,1.6,14,M,,M,,*59
06/20/2015	01:10:04.516	$GPGGA,011005,2513.5186,N,07934.0420,W,1,9,1.6,14,M,,M,,*5E
06/20/2015	01:10:05.526	$GPGGA,011006,2513.5179,N,07934.0439,W,1,9,1.6,14,M,,M,,*55
06/20/2015	01:10:06.598	$GPGGA,011007,2513.5168,N,07934.0459,W,1,9,1.6,14,M,,M,,*52
06/20/2015	01:10:07.545	$GPGGA,011008,2513.5158,N,07934.0477,W,1,9,1.6,14,M,,M,,*52
06/20/2015	01:10:08.515	$GPGGA,011009,2513.5150,N,07934.0498,W,1,9,1.6,14,M,,M,,*5A
06/20/2015	01:10:09.505	$GPGGA,011010,2513.5141,N,07934.0517,W,1,9,1.6,14,M,,M,,*54
06/20/2015	01:10:10.506	$GPGGA,011011,2513.5128,N,07934.0538,W,1,9,1.6,14,M,,M,,*57
06/20/2015	01:10:11.525	$GPGGA,011012,2513.5117,N,07934.0557,W,1,8,2.1,14,M,,M,,*54
06/20/2015	01:10:12.495	$GPGGA,011013,2513.5107,N,07934.0578,W,1,8,2.1,14,M,,M,,*59
06/20/2015	01:10:13.586	$GPGGA,011014,2513.5096,N,07934.0600,W,1,8,2.1,14,M,,M,,*5B
06/20/2015	01:10:14.598	$GPGGA,011015,2513.5085,N,07934.0619,W,1,8,2.1,14,M,,M,,*50
06/20/2015	01:10:15.596	$GPGGA,011016,2513.5075,N,07934.0640,W,1,8,2.1,14,M,,M,,*50
06/20/2015	01:10:16.586	$GPGGA,011017,2513.5064,N,07934.0661,W,1,8,2.1,14,M,,M,,*52
06/20/2015	01:10:17.506	$GPGGA,011018,2513.5053,N,07934.0683,W,1,8,2.1,14,M,,M,,*55
06/20/2015	01:10:18.576	$GPGGA,011019,2513.5043,N,07934.0702,W,1,8,2.1,14,M,,M,,*5D
06/20/2015	01:10:19.616	$GPGGA,011020,2513.5032,N,07934.0723,W,1,8,2.1,13,M,,M,,*55
06/20/2015	01:10:20.576	$GPGGA,011021,2513.5022,N,07934.0744,W,1,8,2.1,13,M,,M,,*54
06/20/2015	01:10:21.576	$GPGGA,011022,2513.5011,N,07934.0763,W,1,8,2.1,13,M,,M,,*52
06/20/2015	01:10:22.566	$GPGGA,011023,2513.5002,N,07934.0784,W,1,8,2.1,13,M,,M,,*58
06/20/2015	01:10:23.585	$GPGGA,011024,2513.4993,N,07934.0803,W,1,8,2.1,13,M,,M,,*5F
06/20/2015	01:10:24.565	$GPGGA,011025,2513.4985,N,07934.0824,W,1,8,1.6,13,M,,M,,*58
06/20/2015	01:10:25.586	$GPGGA,011026,2513.4975,N,07934.0843,W,1,9,1.6,12,M,,M,,*55
06/20/2015	01:10:26.555	$GPGGA,011027,2513.4964,N,07934.0863,W,1,9,2.1,12,M,,M,,*52
06/20/2015	01:10:27.585	$GPGGA,011028,2513.4955,N,07934.0885,W,1,8,2.1,12,M,,M,,*56
06/20/2015	01:10:28.565	$GPGGA,011029,2513.4944,N,07934.0904,W,1,8,2.1,12,M,,M,,*5F
06/20/2015	01:10:29.575	$GPGGA,011030,2513.4933,N,07934.0925,W,1,8,2.1,12,M,,M,,*54
06/20/2015	01:10:30.555	$GPGGA,011031,2513.4930,N,07934.0943,W,1,8,2.1,12,M,,M,,*56
06/20/2015	01:10:31.595	$GPGGA,011032,2513.4921,N,07934.0964,W,1,9,1.6,12,M,,M,,*55
06/20/2015	01:10:32.545	$GPGGA,011033,2513.4913,N,07934.0983,W,1,9,1.6,12,M,,M,,*5C
06/20/2015	01:10:33.545	$GPGGA,011034,2513.4905,N,07934.1002,W,1,9,1.6,12,M,,M,,*5D
06/20/2015	01:10:34.545	$GPGGA,011035,2513.4897,N,07934.1023,W,1,9,1.6,12,M,,M,,*55
06/20/2015	01:10:35.545	$GPGGA,011036,2513.4890,N,07934.1044,W,1,9,1.6,12,M,,M,,*50
06/20/2015	01:10:36.546	$GPGGA,011037,2513.4880,N,07934.1063,W,1,9,1.6,12,M,,M,,*55
06/20/2015	01:10:37.536	$GPGGA,011038,2513.4872,N,07934.1084,W,1,9,1.6,12,M,,M,,*5E
06/20/2015	01:10:38.536	$GPGGA,011039,2513.4862,N,07934.1105,W,1,9,1.6,12,M,,M,,*56
06/20/2015	01:10:39.566	$GPGGA,011040,2513.4854,N,07934.1125,W,1,9,1.6,12,M,,M,,*5F
06/20/2015	01:10:40.536	$GPGGA,011041,2513.4844,N,07934.1146,W,1,9,1.6,12,M,,M,,*5A
06/20/2015	01:10:41.545	$GPGGA,011042,2513.4836,N,07934.1167,W,1,9,1.6,12,M,,M,,*5F
06/20/2015	01:10:42.535	$GPGGA,011043,2513.4826,N,07934.1188,W,1,9,1.6,13,M,,M,,*5F
06/20/2015	01:10:43.565	$GPGGA,011044,2513.4818,N,07934.1208,W,1,9,1.6,13,M,,M,,*5E
06/20/2015	01:10:44.867	$GPGGA,011045,2513.4808,N,07934.1229,W,1,9,1.6,13,M,,M,,*5D
06/20/2015	01:10:45.535	$GPGGA,011046,2513.4799,N,07934.1250,W,1,9,1.6,13,M,,M,,*57
06/20/2015	01:10:46.525	$GPGGA,011047,2513.4790,N,07934.1272,W,1,9,1.6,13,M,,M,,*5F
06/20/2015	01:10:47.535	$GPGGA,011048,2513.4781,N,07934.1293,W,1,9,1.6,13,M,,M,,*5F
06/20/2015	01:10:48.535	$GPGGA,011049,2513.4773,N,07934.1312,W,1,9,1.6,13,M,,M,,*5B
06/20/2015	01:10:49.535	$GPGGA,011050,2513.4764,N,07934.1333,W,1,9,1.6,13,M,,M,,*56
06/20/2015	01:10:50.525	$GPGGA,011051,2513.4755,N,07934.1355,W,1,9,1.6,13,M,,M,,*55
06/20/2015	01:10:51.565	$GPGGA,011052,2513.4746,N,07934.1376,W,1,9,1.6,14,M,,M,,*52
06/20/2015	01:10:52.505	$GPGGA,011053,2513.4738,N,07934.1396,W,1,9,1.6,14,M,,M,,*54
06/20/2015	01:10:53.693	$GPGGA,011054,2513.4728,N,07934.1418,W,1,9,1.6,14,M,,M,,*53
06/20/2015	01:10:54.506	$GPGGA,011055,2513.4720,N,07934.1438,W,1,9,1.6,14,M,,M,,*58
06/20/2015	01:10:55.526	$GPGGA,011056,2513.4710,N,07934.1460,W,1,9,1.6,14,M,,M,,*55
06/20/2015	01:10:56.596	$GPGGA,011057,2513.4700,N,07934.1481,W,1,9,1.6,14,M,,M,,*5A
06/20/2015	01:10:57.690	$GPGGA,011058,2513.4691,N,07934.1501,W,1,9,1.6,14,M,,M,,*55
06/20/2015	01:10:58.907	$GPGGA,011059,2513.4682,N,07934.1521,W,1,9,1.6,14,M,,M,,*54
06/20/2015	01:10:59.705	$GPGGA,011100,2513.4673,N,07934.1543,W,1,9,1.6,14,M,,M,,*53
06/20/2015	01:11:00.505	$GPGGA,011101,2513.4663,N,07934.1562,W,1,9,1.6,14,M,,M,,*50
06/20/2015	01:11:01.689	$GPGGA,011102,2513.4652,N,07934.1584,W,1,9,2.1,14,M,,M,,*5D
06/20/2015	01:11:02.586	$GPGGA,011103,2513.4642,N,07934.1604,W,1,9,2.1,14,M,,M,,*56
06/20/2015	01:11:03.694	$GPGGA,011104,2513.4632,N,07934.1626,W,1,9,2.1,14,M,,M,,*56
06/20/2015	01:11:04.625	$GPGGA,011105,2513.4621,N,07934.1647,W,1,9,2.1,14,M,,M,,*52
06/20/2015	01:11:05.575	$GPGGA,011106,2513.4612,N,07934.1666,W,1,8,2.1,14,M,,M,,*53
06/20/2015	01:11:06.635	$GPGGA,011107,2513.4601,N,07934.1687,W,1,8,1.6,14,M,,M,,*5B
06/20/2015	01:11:07.575	$GPGGA,011108,2513.4592,N,07934.1707,W,1,8,2.1,14,M,,M,,*50
06/20/2015	01:11:08.605	$GPGGA,011109,2513.4581,N,07934.1727,W,1,8,1.6,14,M,,M,,*55
06/20/2015	01:11:09.565	$GPGGA,011110,2513.4572,N,07934.1748,W,1,8,2.1,14,M,,M,,*5C
06/20/2015	01:11:10.587	$GPGGA,011111,2513.4563,N,07934.1767,W,1,8,1.6,14,M,,M,,*54
06/20/2015	01:11:11.697	$GPGGA,011112,2513.4554,N,07934.1786,W,1,9,1.6,14,M,,M,,*5D
06/20/2015	01:11:12.588	$GPGGA,011113,2513.4543,N,07934.1806,W,1,9,1.6,14,M,,M,,*5D
06/20/2015	01:11:13.666	$GPGGA,011114,2513.4532,N,07934.1826,W,1,8,2.1,14,M,,M,,*5B
06/20/2015	01:11:14.587	$GPGGA,011115,2513.4521,N,07934.1846,W,1,8,2.1,14,M,,M,,*5E
06/20/2015	01:11:15.675	$GPGGA,011116,2513.4511,N,07934.1866,W,1,8,2.1,13,M,,M,,*5B
06/20/2015	01:11:16.545	$GPGGA,011117,2513.4500,N,07934.1886,W,1,8,2.1,13,M,,M,,*54
06/20/2015	01:11:17.665	$GPGGA,011118,2513.4491,N,07934.1905,W,1,8,1.6,13,M,,M,,*5C
06/20/2015	01:11:18.585	$GPGGA,011119,2513.4484,N,07934.1923,W,1,8,1.6,13,M,,M,,*5D
06/20/2015	01:11:19.675	$GPGGA,011120,2513.4473,N,07934.1944,W,1,9,1.6,13,M,,M,,*5F
06/20/2015	01:11:20.575	$GPGGA,011121,2513.4464,N,07934.1965,W,1,9,1.6,13,M,,M,,*5B
06/20/2015	01:11:21.545	$GPGGA,011122,2513.4455,N,07934.1984,W,1,9,1.6,13,M,,M,,*55
06/20/2015	01:11:22.565	$GPGGA,011123,2513.4445,N,07934.2005,W,1,9,1.6,13,M,,M,,*56
06/20/2015	01:11:23.656	$GPGGA,011124,2513.4436,N,07934.2024,W,1,9,1.6,13,M,,M,,*56
06/20/2015	01:11:24.535	$GPGGA,011125,2513.4428,N,07934.2045,W,1,9,1.6,13,M,,M,,*5F
06/20/2015	01:11:25.645	$GPGGA,011126,2513.4417,N,07934.2066,W,1,9,2.1,13,M,,M,,*55
06/20/2015	01:11:26.525	$GPGGA,011127,2513.4406,N,07934.2088,W,1,9,2.1,13,M,,M,,*54
06/20/2015	01:11:27.665	$GPGGA,011128,2513.4395,N,07934.2107,W,1,8,2.1,13,M,,M,,*51
06/20/2015	01:11:28.526	$GPGGA,011129,2513.4385,N,07934.2129,W,1,8,1.6,13,M,,M,,*59
06/20/2015	01:11:29.596	$GPGGA,011130,2513.4375,N,07934.2150,W,1,8,2.1,12,M,,M,,*55
06/20/2015	01:11:30.516	$GPGGA,011131,2513.4367,N,07934.2169,W,1,8,2.1,12,M,,M,,*5D
06/20/2015	01:11:31.656	$GPGGA,011132,2513.4360,N,07934.2189,W,1,9,1.6,12,M,,M,,*52
06/20/2015	01:11:32.566	$GPGGA,011133,2513.4355,N,07934.2209,W,1,9,1.6,12,M,,M,,*5E
06/20/2015	01:11:33.585	$GPGGA,011134,2513.4348,N,07934.2229,W,1,9,1.6,12,M,,M,,*57
06/20/2015	01:11:34.555	$GPGGA,011135,2513.4338,N,07934.2248,W,1,9,1.6,13,M,,M,,*57
06/20/2015	01:11:35.645	$GPGGA,011136,2513.4330,N,07934.2267,W,1,9,1.6,13,M,,M,,*51
06/20/2015	01:11:36.515	$GPGGA,011137,2513.4323,N,07934.2288,W,1,9,1.6,13,M,,M,,*53
06/20/2015	01:11:37.503	$GPGGA,011138,2513.4314,N,07934.2309,W,1,9,1.6,13,M,,M,,*50
06/20/2015	01:11:38.625	$GPGGA,011139,2513.4305,N,07934.2327,W,1,9,1.6,13,M,,M,,*5D
06/20/2015	01:11:39.605	$GPGGA,011140,2513.4296,N,07934.2348,W,1,9,1.6,13,M,,M,,*51
06/20/2015	01:11:40.535	$GPGGA,011141,2513.4287,N,07934.2368,W,1,9,1.6,13,M,,M,,*52
06/20/2015	01:11:41.499	$GPGGA,011142,2513.4278,N,07934.2388,W,1,9,1.6,13,M,,M,,*5F
06/20/2015	01:11:42.525	$GPGGA,011143,2513.4268,N,07934.2410,W,1,9,1.6,14,M,,M,,*5E
06/20/2015	01:11:43.605	$GPGGA,011144,2513.4258,N,07934.2431,W,1,9,2.1,14,M,,M,,*5D
06/20/2015	01:11:44.535	$GPGGA,011145,2513.4249,N,07934.2450,W,1,9,1.6,14,M,,M,,*5F
06/20/2015	01:11:45.605	$GPGGA,011146,2513.4241,N,07934.2469,W,1,9,1.6,14,M,,M,,*5E
06/20/2015	01:11:46.546	$GPGGA,011147,2513.4231,N,07934.2490,W,1,9,1.6,14,M,,M,,*5E
06/20/2015	01:11:47.596	$GPGGA,011148,2513.4221,N,07934.2511,W,1,9,2.1,14,M,,M,,*5C
06/20/2015	01:11:48.606	$GPGGA,011149,2513.4211,N,07934.2533,W,1,9,2.1,14,M,,M,,*5E
06/20/2015	01:11:49.586	$GPGGA,011150,2513.4203,N,07934.2551,W,1,8,1.6,14,M,,M,,*54
06/20/2015	01:11:50.526	$GPGGA,011151,2513.4195,N,07934.2572,W,1,8,1.6,14,M,,M,,*58
06/20/2015	01:11:52.099	$GPGGA,011152,2513.4186,N,07934.2591,W,1,9,1.6,14,M,,M,,*55
