Software Version Number: 1	Data File Format Number: 1	Build Version Number: 1	Error Count Since VI Started: 1	Manufacturer: Raytheon	 Model Number: RayMarine 120	 S/N: 	 Cal Date: 	 Wind Direction Offset: 0.00	 Slope (M)1: 0.00	 Offset (B)1: 0.00	 Slope (M)2: 0.00	 Offset (B)2: 0.00	 Slope (M)3: 0.00	 Offset (B)3: 0.00	 Slope (M)4: 0.00	 Offset (B)4: 0.00	 Slope (M)5: 0.00	 Offset (B)5: 0.00	 Slope (M)6: 0.00	 Offset (B)6: 0.00
Computer Date	Computer Time	GGA String
06/14/2015	03:00:00.557	$GPGGA,030001,2431.9839,N,08054.7361,W,1,9,1.8,17,M,,M,,*51
06/14/2015	03:00:01.566	$GPGGA,030002,2431.9832,N,08054.7366,W,1,10,1.8,17,M,,M,,*66
06/14/2015	03:00:02.549	$GPGGA,030003,2431.9825,N,08054.7370,W,1,10,1.8,17,M,,M,,*66
06/14/2015	03:00:03.576	$GPGGA,030004,2431.9819,N,08054.7377,W,1,10,1.8,17,M,,M,,*69
06/14/2015	03:00:04.547	$GPGGA,030005,2431.9814,N,08054.7384,W,1,10,1.8,17,M,,M,,*69
06/14/2015	03:00:05.536	$GPGGA,030006,2431.9808,N,08054.7389,W,1,9,1.8,17,M,,M,,*52
06/14/2015	03:00:06.536	$GPGGA,030007,2431.9803,N,08054.7395,W,1,9,1.8,17,M,,M,,*55
06/14/2015	03:00:07.898	$GPGGA,030008,2431.9796,N,08054.7400,W,1,10,1.8,17,M,,M,,*6A
06/14/2015	03:00:08.535	$GPGGA,030009,2431.9791,N,08054.7407,W,1,10,1.8,17,M,,M,,*6B
06/14/2015	03:00:09.558	$GPGGA,030010,2431.9786,N,08054.7413,W,1,10,1.8,17,M,,M,,*60
06/14/2015	03:00:10.535	$GPGGA,030011,2431.9780,N,08054.7420,W,1,10,1.8,17,M,,M,,*67
06/14/2015	03:00:11.565	$GPGGA,030012,2431.9774,N,08054.7425,W,1,10,1.8,17,M,,M,,*6A
06/14/2015	03:00:12.548	$GPGGA,030013,2431.9769,N,08054.7431,W,1,10,1.8,17,M,,M,,*62
06/14/2015	03:00:13.560	$GPGGA,030014,2431.9761,N,08054.7438,W,1,10,1.8,17,M,,M,,*64
06/14/2015	03:00:14.525	$GPGGA,030015,2431.9754,N,08054.7443,W,1,10,1.8,17,M,,M,,*6F
06/14/2015	03:00:15.535	$GPGGA,030016,2431.9749,N,08054.7449,W,1,9,1.8,17,M,,M,,*52
06/14/2015	03:00:16.526	$GPGGA,030017,2431.9743,N,08054.7457,W,1,9,1.8,17,M,,M,,*56
06/14/2015	03:00:17.536	$GPGGA,030018,2431.9738,N,08054.7461,W,1,10,1.8,17,M,,M,,*68
06/14/2015	03:00:18.506	$GPGGA,030019,2431.9731,N,08054.7467,W,1,10,1.8,17,M,,M,,*66
06/14/2015	03:00:19.526	$GPGGA,030020,2431.9724,N,08054.7473,W,1,10,1.8,17,M,,M,,*6D
06/14/2015	03:00:20.526	$GPGGA,030021,2431.9720,N,08054.7480,W,1,10,1.8,17,M,,M,,*64
06/14/2015	03:00:21.626	$GPGGA,030022,2431.9713,N,08054.7486,W,1,9,2.0,17,M,,M,,*52
06/14/2015	03:00:22.496	$GPGGA,030023,2431.9706,N,08054.7491,W,1,9,2.0,17,M,,M,,*51
06/14/2015	03:00:23.536	$GPGGA,030024,2431.9699,N,08054.7497,W,1,10,1.8,17,M,,M,,*64
06/14/2015	03:00:24.516	$GPGGA,030025,2431.9695,N,08054.7507,W,1,10,1.8,17,M,,M,,*61
06/14/2015	03:00:25.506	$GPGGA,030026,2431.9688,N,08054.7514,W,1,10,1.8,17,M,,M,,*6C
06/14/2015	03:00:26.485	$GPGGA,030027,2431.9681,N,08054.7522,W,1,10,1.8,17,M,,M,,*61
06/14/2015	03:00:27.515	$GPGGA,030028,2431.9673,N,08054.7529,W,1,10,1.8,17,M,,M,,*68
06/14/2015	03:00:28.505	$GPGGA,030029,2431.9666,N,08054.7538,W,1,10,1.8,17,M,,M,,*6D
06/14/2015	03:00:29.505	$GPGGA,030030,2431.9659,N,08054.7548,W,1,10,1.8,17,M,,M,,*6E
06/14/2015	03:00:30.495	$GPGGA,030031,2431.9649,N,08054.7558,W,1,10,1.8,17,M,,M,,*6F
06/14/2015	03:00:31.495	$GPGGA,030032,2431.9641,N,08054.7569,W,1,10,1.8,16,M,,M,,*67
06/14/2015	03:00:32.575	$GPGGA,030033,2431.9631,N,08054.7579,W,1,10,1.8,16,M,,M,,*60
06/14/2015	03:00:33.605	$GPGGA,030034,2431.9621,N,08054.7587,W,1,10,1.8,16,M,,M,,*67
06/14/2015	03:00:34.496	$GPGGA,030035,2431.9612,N,08054.7598,W,1,10,1.8,16,M,,M,,*68
06/14/2015	03:00:35.496	$GPGGA,030036,2431.9603,N,08054.7610,W,1,10,1.8,16,M,,M,,*68
06/14/2015	03:00:36.486	$GPGGA,030037,2431.9594,N,08054.7620,W,1,10,1.8,16,M,,M,,*67
06/14/2015	03:00:37.476	$GPGGA,030038,2431.9580,N,08054.7630,W,1,10,1.8,16,M,,M,,*6C
06/14/2015	03:00:38.576	$GPGGA,030039,2431.9569,N,08054.7642,W,1,10,1.8,16,M,,M,,*6F
06/14/2015	03:00:39.596	$GPGGA,030040,2431.9559,N,08054.7655,W,1,10,1.8,16,M,,M,,*64
06/14/2015	03:00:40.566	$GPGGA,030041,2431.9548,N,08054.7666,W,1,10,1.8,16,M,,M,,*65
06/14/2015	03:00:41.596	$GPGGA,030042,2431.9537,N,08054.7674,W,1,10,1.8,16,M,,M,,*6D
06/14/2015	03:00:42.566	$GPGGA,030043,2431.9526,N,08054.7685,W,1,10,1.8,16,M,,M,,*62
06/14/2015	03:00:43.595	$GPGGA,030044,2431.9515,N,08054.7697,W,1,10,1.8,16,M,,M,,*66
06/14/2015	03:00:44.565	$GPGGA,030045,2431.9503,N,08054.7710,W,1,10,1.8,16,M,,M,,*6E
06/14/2015	03:00:45.575	$GPGGA,030046,2431.9490,N,08054.7722,W,1,10,1.8,16,M,,M,,*67
06/14/2015	03:00:46.565	$GPGGA,030047,2431.9478,N,08054.7735,W,1,10,1.8,16,M,,M,,*66
06/14/2015	03:00:47.585	$GPGGA,030048,2431.9467,N,08054.7747,W,1,10,1.8,16,M,,M,,*62
06/14/2015	03:00:48.567	$GPGGA,030049,2431.9454,N,08054.7760,W,1,10,1.8,16,M,,M,,*66
06/14/2015	03:00:49.565	$GPGGA,030050,2431.9442,N,08054.7771,W,1,10,1.8,16,M,,M,,*69
06/14/2015	03:00:50.546	$GPGGA,030051,2431.9431,N,08054.7783,W,1,10,1.8,16,M,,M,,*61
06/14/2015	03:00:51.586	$GPGGA,030052,2431.9417,N,08054.7796,W,1,10,1.8,16,M,,M,,*62
06/14/2015	03:00:52.546	$GPGGA,030053,2431.9404,N,08054.7811,W,1,10,1.8,16,M,,M,,*61
06/14/2015	03:00:53.561	$GPGGA,030054,2431.9391,N,08054.7825,W,1,9,1.8,16,M,,M,,*52
06/14/2015	03:00:54.551	$GPGGA,030055,2431.9378,N,08054.7837,W,1,9,1.8,16,M,,M,,*57
06/14/2015	03:00:55.616	$GPGGA,030056,2431.9367,N,08054.7850,W,1,10,1.8,16,M,,M,,*63
06/14/2015	03:00:56.548	$GPGGA,030057,2431.9355,N,08054.7865,W,1,10,1.8,16,M,,M,,*65
06/14/2015	03:00:57.526	$GPGGA,030058,2431.9342,N,08054.7879,W,1,10,1.8,16,M,,M,,*61
06/14/2015	03:00:58.536	$GPGGA,030059,2431.9328,N,08054.7891,W,1,10,1.8,16,M,,M,,*6A
06/14/2015	03:00:59.576	$GPGGA,030100,2431.9313,N,08054.7906,W,1,10,1.8,16,M,,M,,*60
06/14/2015	03:01:00.547	$GPGGA,030101,2431.9301,N,08054.7921,W,1,10,1.8,15,M,,M,,*64
06/14/2015	03:01:01.555	$GPGGA,030102,2431.9286,N,08054.7935,W,1,10,1.8,15,M,,M,,*6C
06/14/2015	03:01:02.535	$GPGGA,030103,2431.9272,N,08054.7949,W,1,10,1.8,15,M,,M,,*6D
06/14/2015	03:01:03.565	$GPGGA,030104,2431.9258,N,08054.7962,W,1,10,1.8,15,M,,M,,*6B
06/14/2015	03:01:04.975	$GPGGA,030105,2431.9243,N,08054.7977,W,1,10,1.8,15,M,,M,,*64
06/14/2015	03:01:05.545	$GPGGA,030106,2431.9229,N,08054.7991,W,1,10,1.8,15,M,,M,,*63
06/14/2015	03:01:06.525	$GPGGA,030107,2431.9212,N,08054.8004,W,1,10,1.8,15,M,,M,,*60
06/14/2015	03:01:07.635	$GPGGA,030108,2431.9196,N,08054.8020,W,1,10,1.8,15,M,,M,,*66
06/14/2015	03:01:08.595	$GPGGA,030109,2431.9179,N,08054.8035,W,1,10,1.8,15,M,,M,,*62
06/14/2015	03:01:09.536	$GPGGA,030110,2431.9164,N,08054.8050,W,1,10,1.8,15,M,,M,,*65
06/14/2015	03:01:10.516	$GPGGA,030111,2431.9147,N,08054.8064,W,1,10,1.8,15,M,,M,,*62
06/14/2015	03:01:11.546	$GPGGA,030112,2431.9133,N,08054.8078,W,1,9,1.8,15,M,,M,,*57
06/14/2015	03:01:12.506	$GPGGA,030113,2431.9120,N,08054.8093,W,1,9,1.8,15,M,,M,,*51
06/14/2015	03:01:13.726	$GPGGA,030114,2431.9107,N,08054.8110,W,1,10,1.8,15,M,,M,,*61
06/14/2015	03:01:14.496	$GPGGA,030115,2431.9089,N,08054.8122,W,1,10,1.8,15,M,,M,,*66
06/14/2015	03:01:15.547	$GPGGA,030116,2431.9072,N,08054.8137,W,1,10,1.8,15,M,,M,,*65
06/14/2015	03:01:16.606	$GPGGA,030117,2431.9059,N,08054.8155,W,1,10,1.8,15,M,,M,,*69
06/14/2015	03:01:17.606	$GPGGA,030118,2431.9041,N,08054.8168,W,1,10,1.8,15,M,,M,,*61
06/14/2015	03:01:18.585	$GPGGA,030119,2431.9023,N,08054.8181,W,1,10,1.8,15,M,,M,,*63
06/14/2015	03:01:19.595	$GPGGA,030120,2431.9009,N,08054.8195,W,1,10,1.8,15,M,,M,,*64
06/14/2015	03:01:20.495	$GPGGA,030121,2431.9009,N,08054.8195,W,1,10,1.8,15,M,,M,,*65
06/14/2015	03:01:21.615	$GPGGA,030122,2431.8979,N,08054.8223,W,1,10,1.8,15,M,,M,,*67
06/14/2015	03:01:22.575	$GPGGA,030123,2431.8963,N,08054.8235,W,1,10,1.8,15,M,,M,,*6A
06/14/2015	03:01:23.625	$GPGGA,030124,2431.8947,N,08054.8251,W,1,10,1.8,15,M,,M,,*69
06/14/2015	03:01:24.495	$GPGGA,030125,2431.8926,N,08054.8263,W,1,10,1.8,15,M,,M,,*6E
06/14/2015	03:01:25.595	$GPGGA,030126,2431.8908,N,08054.8277,W,1,10,1.8,15,M,,M,,*64
06/14/2015	03:01:26.576	$GPGGA,030127,2431.8893,N,08054.8291,W,1,10,1.8,15,M,,M,,*6E
06/14/2015	03:01:27.576	$GPGGA,030128,2431.8876,N,08054.8306,W,1,10,1.8,15,M,,M,,*65
06/14/2015	03:01:28.559	$GPGGA,030129,2431.8861,N,08054.8320,W,1,10,1.8,15,M,,M,,*66
06/14/2015	03:01:30.026	$GPGGA,030130,2431.8846,N,08054.8335,W,1,10,1.8,14,M,,M,,*6E
06/14/2015	03:01:30.569	$GPGGA,030131,2431.8828,N,08054.8347,W,1,10,1.8,14,M,,M,,*62
06/14/2015	03:01:31.596	$GPGGA,030132,2431.8812,N,08054.8363,W,1,10,1.8,14,M,,M,,*6E
06/14/2015	03:01:32.566	$GPGGA,030133,2431.8796,N,08054.8379,W,1,10,1.8,14,M,,M,,*67
06/14/2015	03:01:33.586	$GPGGA,030134,2431.8779,N,08054.8393,W,1,10,1.8,14,M,,M,,*65
06/14/2015	03:01:34.561	$GPGGA,030135,2431.8763,N,08054.8408,W,1,10,1.8,14,M,,M,,*6A
06/14/2015	03:01:35.586	$GPGGA,030136,2431.8746,N,08054.8423,W,1,10,1.8,14,M,,M,,*67
06/14/2015	03:01:36.564	$GPGGA,030137,2431.8731,N,08054.8437,W,1,10,1.8,14,M,,M,,*63
06/14/2015	03:01:37.575	$GPGGA,030138,2431.8716,N,08054.8452,W,1,10,1.8,14,M,,M,,*6A
06/14/2015	03:01:38.548	$GPGGA,030139,2431.8700,N,08054.8468,W,1,10,1.8,14,M,,M,,*65
06/14/2015	03:01:39.554	$GPGGA,030140,2431.8682,N,08054.8482,W,1,10,1.8,14,M,,M,,*64
06/14/2015	03:01:40.558	$GPGGA,030141,2431.8665,N,08054.8497,W,1,10,1.8,14,M,,M,,*68
06/14/2015	03:01:41.535	$GPGGA,030142,2431.8651,N,08054.8512,W,1,10,1.8,14,M,,M,,*60
06/14/2015	03:01:42.535	$GPGGA,030143,2431.8635,N,08054.8527,W,1,10,1.8,14,M,,M,,*65
06/14/2015	03:01:43.575	$GPGGA,030144,2431.8617,N,08054.8540,W,1,10,1.8,14,M,,M,,*63
06/14/2015	03:01:44.536	$GPGGA,030145,2431.8604,N,08054.8555,W,1,10,1.8,14,M,,M,,*64
06/14/2015	03:01:45.807	$GPGGA,030146,2431.8589,N,08054.8570,W,1,10,1.8,14,M,,M,,*66
06/14/2015	03:01:46.526	$GPGGA,030147,2431.8572,N,08054.8584,W,1,10,1.8,14,M,,M,,*68
06/14/2015	03:01:47.576	$GPGGA,030148,2431.8554,N,08054.8599,W,1,10,1.8,14,M,,M,,*6F
06/14/2015	03:01:48.536	$GPGGA,030149,2431.8540,N,08054.8616,W,1,10,1.8,14,M,,M,,*6F
06/14/2015	03:01:49.516	$GPGGA,030150,2431.8525,N,08054.8632,W,1,10,1.8,14,M,,M,,*62
06/14/2015	03:01:50.816	$GPGGA,030151,2431.8508,N,08054.8646,W,1,10,1.8,14,M,,M,,*6F
06/14/2015	03:01:51.566	$GPGGA,030152,2431.8492,N,08054.8661,W,1,10,1.8,14,M,,M,,*6B
06/14/2015	03:01:52.526	$GPGGA,030153,2431.8477,N,08054.8678,W,1,10,1.8,14,M,,M,,*69
06/14/2015	03:01:53.525	$GPGGA,030154,2431.8463,N,08054.8692,W,1,10,1.8,14,M,,M,,*6F
06/14/2015	03:01:54.505	$GPGGA,030155,2431.8445,N,08054.8707,W,1,10,1.8,14,M,,M,,*67
06/14/2015	03:01:55.525	$GPGGA,030156,2431.8430,N,08054.8723,W,1,10,1.8,14,M,,M,,*60
06/14/2015	03:01:56.535	$GPGGA,030157,2431.8416,N,08054.8741,W,1,10,1.8,14,M,,M,,*61
06/14/2015	03:01:57.515	$GPGGA,030158,2431.8400,N,08054.8757,W,1,10,1.8,14,M,,M,,*6E
06/14/2015	03:01:58.615	$GPGGA,030159,2431.8384,N,08054.8770,W,1,10,1.8,14,M,,M,,*61
06/14/2015	03:01:59.557	$GPGGA,030200,2431.8369,N,08054.8786,W,1,10,1.8,14,M,,M,,*64
06/14/2015	03:02:00.505	$GPGGA,030201,2431.8355,N,08054.8804,W,1,10,1.8,14,M,,M,,*6F
06/14/2015	03:02:01.626	$GPGGA,030202,2431.8340,N,08054.8820,W,1,10,1.8,14,M,,M,,*6E
06/14/2015	03:02:02.516	$GPGGA,030203,2431.8322,N,08054.8837,W,1,10,1.8,14,M,,M,,*6D
06/14/2015	03:02:03.596	$GPGGA,030204,2431.8306,N,08054.8851,W,1,10,1.8,14,M,,M,,*6C
06/14/2015	03:02:04.506	$GPGGA,030205,2431.8293,N,08054.8869,W,1,10,1.8,14,M,,M,,*6B
06/14/2015	03:02:05.586	$GPGGA,030206,2431.8276,N,08054.8884,W,1,10,1.8,14,M,,M,,*60
06/14/2015	03:02:06.506	$GPGGA,030207,2431.8260,N,08054.8900,W,1,10,1.8,14,M,,M,,*6B
06/14/2015	03:02:07.636	$GPGGA,030208,2431.8246,N,08054.8916,W,1,10,1.8,14,M,,M,,*67
06/14/2015	03:02:08.576	$GPGGA,030209,2431.8230,N,08054.8931,W,1,10,1.8,14,M,,M,,*62
06/14/2015	03:02:09.496	$GPGGA,030210,2431.8215,N,08054.8947,W,1,10,1.8,14,M,,M,,*6C
06/14/2015	03:02:10.576	$GPGGA,030211,2431.8200,N,08054.8965,W,1,10,1.8,14,M,,M,,*69
06/14/2015	03:02:11.606	$GPGGA,030212,2431.8183,N,08054.8981,W,1,10,1.8,14,M,,M,,*68
06/14/2015	03:02:12.585	$GPGGA,030213,2431.8167,N,08054.8996,W,1,10,1.8,14,M,,M,,*65
06/14/2015	03:02:13.595	$GPGGA,030214,2431.8152,N,08054.9012,W,1,10,1.8,14,M,,M,,*60
06/14/2015	03:02:14.565	$GPGGA,030215,2431.8138,N,08054.9028,W,1,10,1.8,14,M,,M,,*64
06/14/2015	03:02:15.585	$GPGGA,030216,2431.8121,N,08054.9043,W,1,10,1.8,14,M,,M,,*62
06/14/2015	03:02:16.557	$GPGGA,030217,2431.8106,N,08054.9058,W,1,10,1.8,14,M,,M,,*6C
06/14/2015	03:02:17.585	$GPGGA,030218,2431.8091,N,08054.9075,W,1,10,1.8,14,M,,M,,*63
06/14/2015	03:02:18.557	$GPGGA,030219,2431.8075,N,08054.9091,W,1,10,1.8,14,M,,M,,*62
06/14/2015	03:02:19.606	$GPGGA,030220,2431.8060,N,08054.9108,W,1,10,1.8,14,M,,M,,*6D
06/14/2015	03:02:20.566	$GPGGA,030221,2431.8044,N,08054.9124,W,1,10,1.8,14,M,,M,,*64
06/14/2015	03:02:21.576	$GPGGA,030222,2431.8029,N,08054.9140,W,1,10,1.8,14,M,,M,,*6E
06/14/2015	03:02:22.561	$GPGGA,030223,2431.8015,N,08054.9156,W,1,10,1.8,14,M,,M,,*67
06/14/2015	03:02:23.586	$GPGGA,030224,2431.7998,N,08054.9173,W,1,10,1.8,14,M,,M,,*64
06/14/2015	03:02:24.551	$GPGGA,030225,2431.7984,N,08054.9189,W,1,10,1.8,14,M,,M,,*6D
06/14/2015	03:02:25.536	$GPGGA,030226,2431.7969,N,08054.9205,W,1,10,1.8,14,M,,M,,*6A
06/14/2015	03:02:26.554	$GPGGA,030227,2431.7954,N,08054.9221,W,1,10,1.8,14,M,,M,,*63
06/14/2015	03:02:27.586	$GPGGA,030228,2431.7939,N,08054.9238,W,1,10,1.8,14,M,,M,,*6F
06/14/2015	03:02:28.535	$GPGGA,030229,2431.7925,N,08054.9254,W,1,10,1.8,14,M,,M,,*69
06/14/2015	03:02:29.565	$GPGGA,030230,2431.7910,N,08054.9271,W,1,10,1.8,14,M,,M,,*60
06/14/2015	03:02:30.550	$GPGGA,030231,2431.7896,N,08054.9288,W,1,10,1.8,15,M,,M,,*69
06/14/2015	03:02:31.535	$GPGGA,030232,2431.7881,N,08054.9306,W,1,10,1.8,15,M,,M,,*6B
06/14/2015	03:02:32.549	$GPGGA,030233,2431.7867,N,08054.9322,W,1,10,1.8,15,M,,M,,*64
06/14/2015	03:02:33.585	$GPGGA,030234,2431.7851,N,08054.9339,W,1,10,1.8,15,M,,M,,*6C
06/14/2015	03:02:34.976	$GPGGA,030235,2431.7838,N,08054.9357,W,1,10,1.8,15,M,,M,,*6A
06/14/2015	03:02:35.558	$GPGGA,030236,2431.7823,N,08054.9375,W,1,10,1.8,15,M,,M,,*63
06/14/2015	03:02:37.516	$GPGGA,030237,2431.7809,N,08054.9391,W,1,10,1.8,15,M,,M,,*60
06/14/2015	03:02:37.564	$GPGGA,030238,2431.7794,N,08054.9408,W,1,10,1.8,15,M,,M,,*63
06/14/2015	03:02:38.516	$GPGGA,030239,2431.7780,N,08054.9423,W,1,10,1.8,15,M,,M,,*6E
06/14/2015	03:02:39.536	$GPGGA,030240,2431.7766,N,08054.9440,W,1,10,1.8,15,M,,M,,*6D
06/14/2015	03:02:40.516	$GPGGA,030241,2431.7752,N,08054.9456,W,1,10,1.8,15,M,,M,,*6C
06/14/2015	03:02:41.506	$GPGGA,030242,2431.7737,N,08054.9473,W,1,10,1.8,15,M,,M,,*6B
06/14/2015	03:02:42.636	$GPGGA,030243,2431.7723,N,08054.9491,W,1,10,1.8,15,M,,M,,*63
06/14/2015	03:02:43.536	$GPGGA,030244,2431.7710,N,08054.9509,W,1,10,1.8,15,M,,M,,*64
06/14/2015	03:02:44.506	$GPGGA,030245,2431.7697,N,08054.9528,W,1,10,2.0,15,M,,M,,*63
06/14/2015	03:02:45.516	$GPGGA,030246,2431.7683,N,08054.9545,W,1,9,1.9,15,M,,M,,*5C
06/14/2015	03:02:46.495	$GPGGA,030247,2431.7670,N,08054.9563,W,1,9,2.0,15,M,,M,,*5F
06/14/2015	03:02:47.525	$GPGGA,030248,2431.7658,N,08054.9581,W,1,9,2.0,15,M,,M,,*56
06/14/2015	03:02:48.615	$GPGGA,030249,2431.7643,N,08054.9599,W,1,9,1.8,15,M,,M,,*5F
06/14/2015	03:02:49.595	$GPGGA,030250,2431.7629,N,08054.9615,W,1,9,2.0,15,M,,M,,*57
06/14/2015	03:02:50.505	$GPGGA,030251,2431.7617,N,08054.9636,W,1,9,1.8,15,M,,M,,*51
06/14/2015	03:02:51.605	$GPGGA,030252,2431.7604,N,08054.9655,W,1,9,2.0,15,M,,M,,*5E
06/14/2015	03:02:52.595	$GPGGA,030253,2431.7592,N,08054.9675,W,1,9,1.8,15,M,,M,,*5A
06/14/2015	03:02:53.585	$GPGGA,030254,2431.7578,N,08054.9696,W,1,10,1.8,16,M,,M,,*6F
06/14/2015	03:02:54.586	$GPGGA,030255,2431.7567,N,08054.9715,W,1,10,1.8,16,M,,M,,*6A
06/14/2015	03:02:55.506	$GPGGA,030256,2431.7552,N,08054.9733,W,1,10,1.8,16,M,,M,,*6B
06/14/2015	03:02:56.576	$GPGGA,030257,2431.7540,N,08054.9751,W,1,10,1.8,16,M,,M,,*6D
06/14/2015	03:02:57.586	$GPGGA,030258,2431.7529,N,08054.9770,W,1,10,1.8,16,M,,M,,*6E
06/14/2015	03:02:58.496	$GPGGA,030259,2431.7514,N,08054.9790,W,1,10,1.8,16,M,,M,,*6F
06/14/2015	03:02:59.616	$GPGGA,030300,2431.7503,N,08054.9809,W,1,9,2.0,16,M,,M,,*58
06/14/2015	03:03:00.576	$GPGGA,030301,2431.7491,N,08054.9827,W,1,9,1.8,17,M,,M,,*55
06/14/2015	03:03:01.566	$GPGGA,030302,2431.7478,N,08054.9848,W,1,10,1.8,17,M,,M,,*60
06/14/2015	03:03:02.586	$GPGGA,030303,2431.7466,N,08054.9866,W,1,10,2.0,17,M,,M,,*69
06/14/2015	03:03:03.605	$GPGGA,030304,2431.7453,N,08054.9884,W,1,10,1.8,17,M,,M,,*6F
06/14/2015	03:03:04.575	$GPGGA,030305,2431.7441,N,08054.9903,W,1,10,1.8,17,M,,M,,*63
06/14/2015	03:03:05.545	$GPGGA,030306,2431.7428,N,08054.9921,W,1,10,1.8,18,M,,M,,*60
06/14/2015	03:03:06.555	$GPGGA,030307,2431.7417,N,08054.9939,W,1,10,1.8,18,M,,M,,*64
06/14/2015	03:03:08.070	$GPGGA,030308,2431.7404,N,08054.9957,W,1,10,1.8,18,M,,M,,*61
06/14/2015	03:03:08.555	$GPGGA,030309,2431.7391,N,08054.9975,W,1,10,1.8,18,M,,M,,*6B
06/14/2015	03:03:09.555	$GPGGA,030310,2431.7379,N,08054.9994,W,1,10,1.8,18,M,,M,,*6A
06/14/2015	03:03:10.555	$GPGGA,030311,2431.7362,N,08055.0014,W,1,10,1.8,19,M,,M,,*69
06/14/2015	03:03:11.545	$GPGGA,030312,2431.7351,N,08055.0032,W,1,9,2.0,19,M,,M,,*5D
06/14/2015	03:03:12.545	$GPGGA,030313,2431.7338,N,08055.0051,W,1,9,1.8,19,M,,M,,*5D
06/14/2015	03:03:13.555	$GPGGA,030314,2431.7323,N,08055.0069,W,1,10,1.8,19,M,,M,,*63
06/14/2015	03:03:14.535	$GPGGA,030315,2431.7310,N,08055.0085,W,1,10,2.0,19,M,,M,,*6B
06/14/2015	03:03:15.565	$GPGGA,030316,2431.7296,N,08055.0101,W,1,9,1.9,19,M,,M,,*58
06/14/2015	03:03:16.536	$GPGGA,030317,2431.7281,N,08055.0120,W,1,9,2.1,19,M,,M,,*57
06/14/2015	03:03:17.545	$GPGGA,030318,2431.7268,N,08055.0139,W,1,9,2.0,20,M,,M,,*5C
06/14/2015	03:03:18.815	$GPGGA,030319,2431.7254,N,08055.0159,W,1,9,2.0,20,M,,M,,*54
06/14/2015	03:03:19.565	$GPGGA,030320,2431.7242,N,08055.0177,W,1,9,2.0,20,M,,M,,*55
06/14/2015	03:03:20.525	$GPGGA,030321,2431.7226,N,08055.0195,W,1,9,1.8,20,M,,M,,*51
06/14/2015	03:03:21.524	$GPGGA,030322,2431.7213,N,08055.0213,W,1,8,2.1,20,M,,M,,*52
06/14/2015	03:03:22.525	$GPGGA,030323,2431.7198,N,08055.0231,W,1,8,2.2,20,M,,M,,*50
06/14/2015	03:03:23.565	$GPGGA,030324,2431.7186,N,08055.0249,W,1,9,1.9,20,M,,M,,*5E
06/14/2015	03:03:24.505	$GPGGA,030325,2431.7173,N,08055.0265,W,1,9,1.8,20,M,,M,,*5A
06/14/2015	03:03:25.525	$GPGGA,030326,2431.7159,N,08055.0283,W,1,10,1.8,20,M,,M,,*61
06/14/2015	03:03:26.505	$GPGGA,030327,2431.7148,N,08055.0300,W,1,10,2.0,20,M,,M,,*61
06/14/2015	03:03:27.552	$GPGGA,030328,2431.7132,N,08055.0315,W,1,10,1.8,20,M,,M,,*6C
06/14/2015	03:03:28.515	$GPGGA,030329,2431.7119,N,08055.0332,W,1,10,2.0,20,M,,M,,*6A
06/14/2015	03:03:29.538	$GPGGA,030330,2431.7106,N,08055.0350,W,1,9,1.9,20,M,,M,,*5A
06/14/2015	03:03:30.515	$GPGGA,030331,2431.7090,N,08055.0368,W,1,9,2.0,20,M,,M,,*54
06/14/2015	03:03:31.685	$GPGGA,030332,2431.7079,N,08055.0388,W,1,9,1.8,20,M,,M,,*55
06/14/2015	03:03:32.505	$GPGGA,030333,2431.7065,N,08055.0409,W,1,9,1.8,20,M,,M,,*57
06/14/2015	03:03:33.675	$GPGGA,030334,2431.7048,N,08055.0430,W,1,10,1.8,20,M,,M,,*6D
06/14/2015	03:03:34.515	$GPGGA,030335,2431.7033,N,08055.0448,W,1,10,1.8,20,M,,M,,*6F
06/14/2015	03:03:35.495	$GPGGA,030336,2431.7020,N,08055.0467,W,1,10,1.8,20,M,,M,,*63
06/14/2015	03:03:36.485	$GPGGA,030337,2431.7007,N,08055.0484,W,1,10,1.8,21,M,,M,,*6B
06/14/2015	03:03:37.665	$GPGGA,030338,2431.6993,N,08055.0499,W,1,9,2.0,21,M,,M,,*5E
06/14/2015	03:03:38.635	$GPGGA,030339,2431.6982,N,08055.0514,W,1,9,1.8,21,M,,M,,*50
06/14/2015	03:03:39.675	$GPGGA,030340,2431.6967,N,08055.0532,W,1,10,2.0,21,M,,M,,*62
06/14/2015	03:03:40.505	$GPGGA,030341,2431.6954,N,08055.0550,W,1,10,2.0,21,M,,M,,*67
06/14/2015	03:03:41.685	$GPGGA,030342,2431.6940,N,08055.0569,W,1,10,1.8,21,M,,M,,*60
06/14/2015	03:03:42.615	$GPGGA,030343,2431.6924,N,08055.0590,W,1,10,1.8,21,M,,M,,*65
06/14/2015	03:03:43.675	$GPGGA,030344,2431.6910,N,08055.0608,W,1,10,1.8,21,M,,M,,*67
06/14/2015	03:03:44.615	$GPGGA,030345,2431.6895,N,08055.0626,W,1,10,1.8,21,M,,M,,*66
06/14/2015	03:03:45.665	$GPGGA,030346,2431.6884,N,08055.0643,W,1,10,1.9,21,M,,M,,*67
06/14/2015	03:03:46.485	$GPGGA,030347,2431.6871,N,08055.0659,W,1,10,1.9,21,M,,M,,*67
06/14/2015	03:03:47.685	$GPGGA,030348,2431.6860,N,08055.0676,W,1,9,2.0,21,M,,M,,*57
06/14/2015	03:03:48.605	$GPGGA,030349,2431.6845,N,08055.0690,W,1,9,2.0,21,M,,M,,*59
06/14/2015	03:03:49.641	$GPGGA,030350,2431.6831,N,08055.0708,W,1,9,2.2,21,M,,M,,*50
06/14/2015	03:03:50.565	$GPGGA,030351,2431.6819,N,08055.0728,W,1,9,2.2,21,M,,M,,*59
06/14/2015	03:03:51.665	$GPGGA,030352,2431.6803,N,08055.0749,W,1,10,2.0,20,M,,M,,*6D
06/14/2015	03:03:52.575	$GPGGA,030353,2431.6790,N,08055.0770,W,1,10,2.0,20,M,,M,,*63
06/14/2015	03:03:53.665	$GPGGA,030354,2431.6776,N,08055.0791,W,1,10,1.8,20,M,,M,,*68
06/14/2015	03:03:54.585	$GPGGA,030355,2431.6765,N,08055.0810,W,1,10,1.8,21,M,,M,,*6C
06/14/2015	03:03:55.648	$GPGGA,030356,2431.6754,N,08055.0827,W,1,10,1.8,21,M,,M,,*69
06/14/2015	03:03:56.584	$GPGGA,030357,2431.6741,N,08055.0843,W,1,10,1.8,21,M,,M,,*6E
06/14/2015	03:03:57.655	$GPGGA,030358,2431.6730,N,08055.0860,W,1,10,1.8,21,M,,M,,*66
06/14/2015	03:03:58.565	$GPGGA,030359,2431.6720,N,08055.0879,W,1,10,1.8,21,M,,M,,*6E
06/14/2015	03:03:59.665	$GPGGA,030400,2431.6705,N,08055.0899,W,1,10,1.8,21,M,,M,,*6C
06/14/2015	03:04:00.538	$GPGGA,030401,2431.6689,N,08055.0918,W,1,10,2.0,21,M,,M,,*6B
06/14/2015	03:04:01.649	$GPGGA,030402,2431.6675,N,08055.0939,W,1,10,1.8,21,M,,M,,*63
06/14/2015	03:04:02.565	$GPGGA,030403,2431.6661,N,08055.0959,W,1,10,1.8,21,M,,M,,*61
06/14/2015	03:04:03.649	$GPGGA,030404,2431.6646,N,08055.0979,W,1,10,1.8,21,M,,M,,*61
06/14/2015	03:04:04.525	$GPGGA,030405,2431.6631,N,08055.0994,W,1,10,2.0,21,M,,M,,*68
06/14/2015	03:04:05.615	$GPGGA,030406,2431.6618,N,08055.1012,W,1,8,1.8,21,M,,M,,*54
06/14/2015	03:04:06.555	$GPGGA,030407,2431.6606,N,08055.1029,W,1,8,1.8,21,M,,M,,*52
06/14/2015	03:04:07.525	$GPGGA,030408,2431.6595,N,08055.1048,W,1,9,2.0,21,M,,M,,*59
06/14/2015	03:04:08.555	$GPGGA,030409,2431.6579,N,08055.1066,W,1,9,1.8,21,M,,M,,*5D
06/14/2015	03:04:09.637	$GPGGA,030410,2431.6564,N,08055.1084,W,1,9,2.0,21,M,,M,,*5E
06/14/2015	03:04:10.515	$GPGGA,030411,2431.6550,N,08055.1103,W,1,9,2.0,21,M,,M,,*56
06/14/2015	03:04:11.605	$GPGGA,030412,2431.6536,N,08055.1124,W,1,10,1.8,21,M,,M,,*63
06/14/2015	03:04:12.505	$GPGGA,030413,2431.6523,N,08055.1142,W,1,10,1.8,21,M,,M,,*66
06/14/2015	03:04:13.584	$GPGGA,030414,2431.6508,N,08055.1160,W,1,10,1.8,21,M,,M,,*68
06/14/2015	03:04:14.625	$GPGGA,030415,2431.6494,N,08055.1176,W,1,10,1.8,21,M,,M,,*6A
06/14/2015	03:04:15.625	$GPGGA,030416,2431.6483,N,08055.1193,W,1,10,1.9,21,M,,M,,*65
06/14/2015	03:04:16.625	$GPGGA,030417,2431.6469,N,08055.1211,W,1,10,2.0,21,M,,M,,*63
06/14/2015	03:04:17.615	$GPGGA,030418,2431.6454,N,08055.1228,W,1,9,2.0,21,M,,M,,*50
06/14/2015	03:04:18.615	$GPGGA,030419,2431.6440,N,08055.1244,W,1,9,2.0,21,M,,M,,*5E
06/14/2015	03:04:19.585	$GPGGA,030420,2431.6426,N,08055.1264,W,1,9,2.0,21,M,,M,,*56
06/14/2015	03:04:20.525	$GPGGA,030421,2431.6411,N,08055.1283,W,1,9,2.0,21,M,,M,,*5A
06/14/2015	03:04:21.605	$GPGGA,030422,2431.6396,N,08055.1301,W,1,9,2.0,21,M,,M,,*5A
06/14/2015	03:04:22.543	$GPGGA,030423,2431.6384,N,08055.1319,W,1,9,1.8,20,M,,M,,*5B
06/14/2015	03:04:23.615	$GPGGA,030424,2431.6371,N,08055.1337,W,1,10,1.8,20,M,,M,,*62
06/14/2015	03:04:24.525	$GPGGA,030425,2431.6357,N,08055.1355,W,1,10,1.8,20,M,,M,,*63
06/14/2015	03:04:25.485	$GPGGA,030426,2431.6346,N,08055.1373,W,1,10,1.8,20,M,,M,,*64
06/14/2015	03:04:26.575	$GPGGA,030427,2431.6332,N,08055.1389,W,1,10,2.2,20,M,,M,,*6A
06/14/2015	03:04:27.625	$GPGGA,030428,2431.6318,N,08055.1406,W,1,8,2.0,20,M,,M,,*56
06/14/2015	03:04:28.505	$GPGGA,030429,2431.6304,N,08055.1424,W,1,8,2.0,20,M,,M,,*5A
06/14/2015	03:04:29.575	$GPGGA,030430,2431.6290,N,08055.1441,W,1,9,2.0,20,M,,M,,*5C
06/14/2015	03:04:30.495	$GPGGA,030431,2431.6275,N,08055.1459,W,1,9,2.2,20,M,,M,,*5D
06/14/2015	03:04:31.575	$GPGGA,030432,2431.6263,N,08055.1478,W,1,8,1.9,20,M,,M,,*53
06/14/2015	03:04:32.575	$GPGGA,030433,2431.6248,N,08055.1497,W,1,8,1.8,20,M,,M,,*5B
06/14/2015	03:04:33.556	$GPGGA,030434,2431.6234,N,08055.1517,W,1,10,1.8,20,M,,M,,*67
06/14/2015	03:04:34.525	$GPGGA,030435,2431.6221,N,08055.1536,W,1,10,1.8,20,M,,M,,*61
06/14/2015	03:04:35.575	$GPGGA,030436,2431.6208,N,08055.1557,W,1,10,2.0,20,M,,M,,*65
06/14/2015	03:04:36.555	$GPGGA,030437,2431.6194,N,08055.1573,W,1,10,2.0,20,M,,M,,*64
06/14/2015	03:04:37.565	$GPGGA,030438,2431.6181,N,08055.1590,W,1,9,2.0,20,M,,M,,*5A
06/14/2015	03:04:38.565	$GPGGA,030439,2431.6169,N,08055.1609,W,1,9,2.0,20,M,,M,,*5E
06/14/2015	03:04:39.585	$GPGGA,030440,2431.6155,N,08055.1629,W,1,9,1.8,20,M,,M,,*56
06/14/2015	03:04:40.556	$GPGGA,030441,2431.6140,N,08055.1649,W,1,9,2.0,20,M,,M,,*5E
06/14/2015	03:04:41.615	$GPGGA,030442,2431.6126,N,08055.1669,W,1,9,1.8,20,M,,M,,*54
06/14/2015	03:04:42.551	$GPGGA,030443,2431.6113,N,08055.1689,W,1,9,1.8,20,M,,M,,*5D
06/14/2015	03:04:43.595	$GPGGA,030444,2431.6100,N,08055.1709,W,1,10,1.8,20,M,,M,,*69
06/14/2015	03:04:44.550	$GPGGA,030445,2431.6088,N,08055.1727,W,1,10,1.8,20,M,,M,,*65
06/14/2015	03:04:45.585	$GPGGA,030446,2431.6076,N,08055.1743,W,1,10,1.8,21,M,,M,,*64
06/14/2015	03:04:46.555	$GPGGA,030447,2431.6066,N,08055.1760,W,1,10,1.8,21,M,,M,,*65
06/14/2015	03:04:47.625	$GPGGA,030448,2431.6066,N,08055.1760,W,1,10,1.8,21,M,,M,,*6A
06/14/2015	03:04:48.549	$GPGGA,030449,2431.6039,N,08055.1796,W,1,10,2.0,21,M,,M,,*63
06/14/2015	03:04:49.538	$GPGGA,030450,2431.6039,N,08055.1796,W,1,9,2.0,21,M,,M,,*53
06/14/2015	03:04:50.537	$GPGGA,030451,2431.6010,N,08055.1832,W,1,9,2.2,21,M,,M,,*5A
06/14/2015	03:04:51.642	$GPGGA,030452,2431.5996,N,08055.1851,W,1,8,1.8,21,M,,M,,*50
06/14/2015	03:04:53.015	$GPGGA,030453,2431.5996,N,08055.1851,W,1,8,1.8,21,M,,M,,*51
06/14/2015	03:04:53.575	$GPGGA,030454,2431.5982,N,08055.1871,W,1,10,1.8,21,M,,M,,*68
06/14/2015	03:04:54.550	$GPGGA,030455,2431.5956,N,08055.1905,W,1,10,1.8,21,M,,M,,*62
06/14/2015	03:04:55.575	$GPGGA,030456,2431.5941,N,08055.1923,W,1,9,2.0,21,M,,M,,*50
06/14/2015	03:04:56.525	$GPGGA,030457,2431.5927,N,08055.1940,W,1,9,2.2,21,M,,M,,*56
06/14/2015	03:04:57.555	$GPGGA,030458,2431.5913,N,08055.1958,W,1,8,2.0,21,M,,M,,*54
06/14/2015	03:04:58.965	$GPGGA,030459,2431.5900,N,08055.1976,W,1,8,2.0,21,M,,M,,*5B
06/14/2015	03:04:59.565	$GPGGA,030500,2431.5900,N,08055.1976,W,1,10,1.8,21,M,,M,,*64
06/14/2015	03:05:00.506	$GPGGA,030501,2431.5871,N,08055.2019,W,1,10,2.0,21,M,,M,,*6A
06/14/2015	03:05:01.525	$GPGGA,030502,2431.5871,N,08055.2019,W,1,10,1.8,21,M,,M,,*62
06/14/2015	03:05:02.525	$GPGGA,030503,2431.5842,N,08055.2056,W,1,10,1.9,21,M,,M,,*69
06/14/2015	03:05:03.536	$GPGGA,030504,2431.5842,N,08055.2056,W,1,9,1.9,21,M,,M,,*56
06/14/2015	03:05:04.505	$GPGGA,030505,2431.5829,N,08055.2074,W,1,9,1.9,22,M,,M,,*59
06/14/2015	03:05:05.524	$GPGGA,030506,2431.5815,N,08055.2092,W,1,8,2.2,22,M,,M,,*54
06/14/2015	03:05:06.494	$GPGGA,030507,2431.5786,N,08055.2125,W,1,8,2.2,21,M,,M,,*5E
06/14/2015	03:05:07.545	$GPGGA,030508,2431.5775,N,08055.2143,W,1,10,1.8,21,M,,M,,*6D
06/14/2015	03:05:08.525	$GPGGA,030509,2431.5761,N,08055.2161,W,1,10,1.8,21,M,,M,,*69
06/14/2015	03:05:09.575	$GPGGA,030510,2431.5747,N,08055.2178,W,1,10,1.8,22,M,,M,,*6E
06/14/2015	03:05:10.585	$GPGGA,030511,2431.5735,N,08055.2197,W,1,10,1.8,22,M,,M,,*6B
06/14/2015	03:05:11.525	$GPGGA,030512,2431.5735,N,08055.2197,W,1,10,1.8,22,M,,M,,*68
06/14/2015	03:05:12.585	$GPGGA,030513,2431.5707,N,08055.2233,W,1,10,1.8,22,M,,M,,*65
06/14/2015	03:05:13.595	$GPGGA,030514,2431.5693,N,08055.2251,W,1,10,1.8,22,M,,M,,*6A
06/14/2015	03:05:14.485	$GPGGA,030515,2431.5681,N,08055.2269,W,1,10,1.8,22,M,,M,,*63
06/14/2015	03:05:15.595	$GPGGA,030516,2431.5667,N,08055.2287,W,1,10,1.8,22,M,,M,,*68
06/14/2015	03:05:16.575	$GPGGA,030517,2431.5652,N,08055.2303,W,1,10,1.8,22,M,,M,,*62
06/14/2015	03:05:17.485	$GPGGA,030518,2431.5652,N,08055.2303,W,1,10,1.8,22,M,,M,,*6D
06/14/2015	03:05:18.565	$GPGGA,030519,2431.5625,N,08055.2337,W,1,10,1.8,22,M,,M,,*6B
06/14/2015	03:05:19.605	$GPGGA,030520,2431.5612,N,08055.2353,W,1,10,1.8,22,M,,M,,*67
06/14/2015	03:05:20.485	$GPGGA,030521,2431.5598,N,08055.2370,W,1,10,1.8,22,M,,M,,*66
06/14/2015	03:05:21.585	$GPGGA,030522,2431.5598,N,08055.2370,W,1,8,2.2,22,M,,M,,*55
06/14/2015	03:05:22.565	$GPGGA,030523,2431.5573,N,08055.2406,W,1,8,1.8,22,M,,M,,*5E
06/14/2015	03:05:23.594	$GPGGA,030524,2431.5557,N,08055.2424,W,1,10,1.8,22,M,,M,,*66
06/14/2015	03:05:24.575	$GPGGA,030525,2431.5542,N,08055.2442,W,1,10,2.0,22,M,,M,,*68
06/14/2015	03:05:25.605	$GPGGA,030526,2431.5527,N,08055.2460,W,1,9,2.0,22,M,,M,,*50
06/14/2015	03:05:26.555	$GPGGA,030527,2431.5512,N,08055.2479,W,1,9,2.0,22,M,,M,,*5F
06/14/2015	03:05:27.585	$GPGGA,030528,2431.5497,N,08055.2496,W,1,9,2.0,22,M,,M,,*5D
06/14/2015	03:05:28.545	$GPGGA,030529,2431.5483,N,08055.2514,W,1,9,2.0,22,M,,M,,*52
06/14/2015	03:05:29.605	$GPGGA,030530,2431.5470,N,08055.2533,W,1,9,1.9,22,M,,M,,*59
06/14/2015	03:05:30.555	$GPGGA,030531,2431.5458,N,08055.2551,W,1,9,2.0,21,M,,M,,*5F
06/14/2015	03:05:31.605	$GPGGA,030532,2431.5446,N,08055.2569,W,1,9,1.9,21,M,,M,,*52
06/14/2015	03:05:32.539	$GPGGA,030533,2431.5433,N,08055.2587,W,1,9,1.8,21,M,,M,,*50
06/14/2015	03:05:33.565	$GPGGA,030534,2431.5422,N,08055.2606,W,1,9,2.0,21,M,,M,,*56
06/14/2015	03:05:34.535	$GPGGA,030535,2431.5412,N,08055.2626,W,1,9,1.8,21,M,,M,,*5D
06/14/2015	03:05:35.585	$GPGGA,030536,2431.5400,N,08055.2648,W,1,10,1.8,21,M,,M,,*6D
06/14/2015	03:05:36.540	$GPGGA,030537,2431.5386,N,08055.2667,W,1,10,1.8,21,M,,M,,*68
06/14/2015	03:05:37.525	$GPGGA,030538,2431.5371,N,08055.2685,W,1,10,1.8,21,M,,M,,*63
06/14/2015	03:05:38.536	$GPGGA,030539,2431.5357,N,08055.2704,W,1,10,2.2,21,M,,M,,*67
06/14/2015	03:05:39.565	$GPGGA,030540,2431.5343,N,08055.2720,W,1,8,2.2,21,M,,M,,*53
06/14/2015	03:05:40.535	$GPGGA,030541,2431.5331,N,08055.2738,W,1,8,2.2,21,M,,M,,*5E
06/14/2015	03:05:41.535	$GPGGA,030542,2431.5322,N,08055.2757,W,1,10,1.8,21,M,,M,,*66
06/14/2015	03:05:42.525	$GPGGA,030543,2431.5310,N,08055.2775,W,1,10,1.8,21,M,,M,,*66
06/14/2015	03:05:43.537	$GPGGA,030544,2431.5298,N,08055.2793,W,1,10,1.8,21,M,,M,,*68
06/14/2015	03:05:44.515	$GPGGA,030545,2431.5284,N,08055.2811,W,1,10,1.8,21,M,,M,,*61
06/14/2015	03:05:45.550	$GPGGA,030546,2431.5268,N,08055.2829,W,1,8,2.2,21,M,,M,,*5B
06/14/2015	03:05:46.525	$GPGGA,030547,2431.5255,N,08055.2848,W,1,8,2.0,21,M,,M,,*51
06/14/2015	03:05:47.555	$GPGGA,030548,2431.5242,N,08055.2868,W,1,9,2.0,21,M,,M,,*5B
06/14/2015	03:05:48.515	$GPGGA,030549,2431.5230,N,08055.2886,W,1,9,1.8,21,M,,M,,*54
06/14/2015	03:05:49.541	$GPGGA,030550,2431.5219,N,08055.2904,W,1,10,1.8,21,M,,M,,*64
06/14/2015	03:05:50.525	$GPGGA,030551,2431.5206,N,08055.2920,W,1,10,1.8,21,M,,M,,*6D
06/14/2015	03:05:51.525	$GPGGA,030552,2431.5192,N,08055.2938,W,1,10,1.8,21,M,,M,,*69
06/14/2015	03:05:52.495	$GPGGA,030553,2431.5179,N,08055.2957,W,1,10,1.8,21,M,,M,,*64
06/14/2015	03:05:53.615	$GPGGA,030554,2431.5163,N,08055.2977,W,1,9,2.0,21,M,,M,,*59
06/14/2015	03:05:54.495	$GPGGA,030555,2431.5150,N,08055.2995,W,1,9,2.0,21,M,,M,,*54
06/14/2015	03:05:55.638	$GPGGA,030556,2431.5135,N,08055.3014,W,1,10,1.8,21,M,,M,,*66
06/14/2015	03:05:56.515	$GPGGA,030557,2431.5121,N,08055.3033,W,1,10,2.0,20,M,,M,,*6D
06/14/2015	03:05:57.595	$GPGGA,030558,2431.5107,N,08055.3053,W,1,9,2.0,20,M,,M,,*58
06/14/2015	03:05:58.494	$GPGGA,030559,2431.5092,N,08055.3072,W,1,9,2.0,20,M,,M,,*57
06/14/2015	03:05:59.655	$GPGGA,030600,2431.5078,N,08055.3090,W,1,9,2.0,20,M,,M,,*50
06/14/2015	03:06:00.495	$GPGGA,030601,2431.5063,N,08055.3110,W,1,9,1.8,20,M,,M,,*59
06/14/2015	03:06:01.505	$GPGGA,030602,2431.5051,N,08055.3129,W,1,10,1.8,20,M,,M,,*69
06/14/2015	03:06:02.485	$GPGGA,030603,2431.5038,N,08055.3145,W,1,10,2.0,20,M,,M,,*66
06/14/2015	03:06:03.625	$GPGGA,030604,2431.5023,N,08055.3161,W,1,9,2.0,20,M,,M,,*55
06/14/2015	03:06:04.575	$GPGGA,030605,2431.5010,N,08055.3179,W,1,9,1.8,20,M,,M,,*56
06/14/2015	03:06:05.485	$GPGGA,030606,2431.4999,N,08055.3198,W,1,10,1.8,20,M,,M,,*6B
06/14/2015	03:06:06.585	$GPGGA,030607,2431.4986,N,08055.3216,W,1,10,1.8,20,M,,M,,*61
06/14/2015	03:06:07.585	$GPGGA,030608,2431.4973,N,08055.3233,W,1,10,1.8,20,M,,M,,*63
06/14/2015	03:06:09.615	$GPGGA,030610,2431.4948,N,08055.3270,W,1,10,1.8,20,M,,M,,*65
06/14/2015	03:06:10.565	$GPGGA,030611,2431.4934,N,08055.3288,W,1,10,1.8,20,M,,M,,*68
06/14/2015	03:06:11.605	$GPGGA,030612,2431.4920,N,08055.3306,W,1,10,1.8,20,M,,M,,*69
06/14/2015	03:06:12.565	$GPGGA,030613,2431.4908,N,08055.3322,W,1,10,1.8,20,M,,M,,*64
06/14/2015	03:06:13.585	$GPGGA,030614,2431.4893,N,08055.3340,W,1,10,1.8,20,M,,M,,*64
06/14/2015	03:06:14.555	$GPGGA,030615,2431.4879,N,08055.3357,W,1,10,1.8,20,M,,M,,*67
06/14/2015	03:06:15.584	$GPGGA,030616,2431.4866,N,08055.3375,W,1,10,1.8,20,M,,M,,*6A
06/14/2015	03:06:16.565	$GPGGA,030617,2431.4852,N,08055.3392,W,1,10,1.8,20,M,,M,,*65
06/14/2015	03:06:17.575	$GPGGA,030618,2431.4838,N,08055.3408,W,1,10,1.8,20,M,,M,,*62
06/14/2015	03:06:18.549	$GPGGA,030619,2431.4825,N,08055.3425,W,1,10,1.8,20,M,,M,,*60
06/14/2015	03:06:19.585	$GPGGA,030620,2431.4810,N,08055.3443,W,1,10,1.8,21,M,,M,,*6D
06/14/2015	03:06:20.547	$GPGGA,030621,2431.4796,N,08055.3462,W,1,10,1.8,21,M,,M,,*6E
06/14/2015	03:06:21.565	$GPGGA,030622,2431.4780,N,08055.3482,W,1,9,1.9,21,M,,M,,*5D
06/14/2015	03:06:22.536	$GPGGA,030623,2431.4765,N,08055.3501,W,1,9,1.8,21,M,,M,,*5C
06/14/2015	03:06:23.575	$GPGGA,030624,2431.4753,N,08055.3522,W,1,10,1.8,21,M,,M,,*67
06/14/2015	03:06:24.537	$GPGGA,030625,2431.4738,N,08055.3538,W,1,10,1.8,21,M,,M,,*60
06/14/2015	03:06:25.548	$GPGGA,030626,2431.4724,N,08055.3555,W,1,10,1.8,21,M,,M,,*65
06/14/2015	03:06:26.545	$GPGGA,030627,2431.4711,N,08055.3570,W,1,10,1.8,21,M,,M,,*65
06/14/2015	03:06:27.575	$GPGGA,030628,2431.4699,N,08055.3587,W,1,10,1.8,21,M,,M,,*63
06/14/2015	03:06:28.548	$GPGGA,030629,2431.4684,N,08055.3603,W,1,10,1.8,21,M,,M,,*61
06/14/2015	03:06:29.555	$GPGGA,030630,2431.4668,N,08055.3623,W,1,10,1.8,21,M,,M,,*69
06/14/2015	03:06:30.515	$GPGGA,030631,2431.4655,N,08055.3642,W,1,10,1.8,21,M,,M,,*61
06/14/2015	03:06:31.555	$GPGGA,030632,2431.4639,N,08055.3661,W,1,10,1.8,22,M,,M,,*6A
06/14/2015	03:06:32.536	$GPGGA,030633,2431.4624,N,08055.3679,W,1,10,1.8,22,M,,M,,*6E
06/14/2015	03:06:33.534	$GPGGA,030634,2431.4612,N,08055.3696,W,1,10,1.8,22,M,,M,,*6D
06/14/2015	03:06:34.515	$GPGGA,030635,2431.4597,N,08055.3714,W,1,10,1.8,22,M,,M,,*69
06/14/2015	03:06:35.537	$GPGGA,030636,2431.4585,N,08055.3729,W,1,9,2.0,22,M,,M,,*54
06/14/2015	03:06:36.505	$GPGGA,030637,2431.4573,N,08055.3747,W,1,9,1.9,22,M,,M,,*5E
06/14/2015	03:06:37.535	$GPGGA,030638,2431.4559,N,08055.3764,W,1,10,1.8,22,M,,M,,*61
06/14/2015	03:06:38.515	$GPGGA,030639,2431.4545,N,08055.3783,W,1,10,1.8,22,M,,M,,*64
06/14/2015	03:06:39.637	$GPGGA,030640,2431.4533,N,08055.3801,W,1,10,1.8,22,M,,M,,*6E
06/14/2015	03:06:40.537	$GPGGA,030641,2431.4518,N,08055.3819,W,1,10,1.8,22,M,,M,,*6F
06/14/2015	03:06:41.495	$GPGGA,030642,2431.4503,N,08055.3837,W,1,9,2.0,22,M,,M,,*59
06/14/2015	03:06:42.495	$GPGGA,030643,2431.4489,N,08055.3855,W,1,9,2.0,22,M,,M,,*5F
06/14/2015	03:06:43.516	$GPGGA,030644,2431.4478,N,08055.3873,W,1,9,2.0,22,M,,M,,*52
06/14/2015	03:06:44.505	$GPGGA,030645,2431.4464,N,08055.3891,W,1,9,1.8,22,M,,M,,*59
06/14/2015	03:06:45.615	$GPGGA,030646,2431.4449,N,08055.3909,W,1,9,2.0,22,M,,M,,*5E
06/14/2015	03:06:46.495	$GPGGA,030647,2431.4435,N,08055.3928,W,1,9,2.0,22,M,,M,,*57
06/14/2015	03:06:47.505	$GPGGA,030648,2431.4421,N,08055.3947,W,1,10,1.8,22,M,,M,,*67
06/14/2015	03:06:48.585	$GPGGA,030649,2431.4407,N,08055.3964,W,1,10,2.0,22,M,,M,,*68
06/14/2015	03:06:49.485	$GPGGA,030650,2431.4393,N,08055.3983,W,1,9,1.9,22,M,,M,,*51
06/14/2015	03:06:50.584	$GPGGA,030651,2431.4381,N,08055.4003,W,1,9,2.0,22,M,,M,,*5F
06/14/2015	03:06:51.495	$GPGGA,030652,2431.4368,N,08055.4021,W,1,10,1.8,22,M,,M,,*68
06/14/2015	03:06:52.475	$GPGGA,030653,2431.4353,N,08055.4040,W,1,10,1.8,22,M,,M,,*66
06/14/2015	03:06:53.605	$GPGGA,030654,2431.4341,N,08055.4061,W,1,9,2.0,22,M,,M,,*52
06/14/2015	03:06:54.585	$GPGGA,030655,2431.4330,N,08055.4079,W,1,9,2.0,22,M,,M,,*5C
06/14/2015	03:06:55.585	$GPGGA,030656,2431.4316,N,08055.4098,W,1,10,1.8,22,M,,M,,*67
06/14/2015	03:06:56.575	$GPGGA,030657,2431.4306,N,08055.4116,W,1,10,2.0,22,M,,M,,*6B
06/14/2015	03:06:57.585	$GPGGA,030658,2431.4294,N,08055.4133,W,1,10,1.8,22,M,,M,,*62
06/14/2015	03:06:58.565	$GPGGA,030659,2431.4279,N,08055.4149,W,1,10,2.0,22,M,,M,,*66
06/14/2015	03:06:59.595	$GPGGA,030700,2431.4270,N,08055.4169,W,1,9,2.0,22,M,,M,,*58
06/14/2015	03:07:00.565	$GPGGA,030701,2431.4258,N,08055.4188,W,1,9,1.8,22,M,,M,,*57
06/14/2015	03:07:01.575	$GPGGA,030702,2431.4243,N,08055.4209,W,1,10,1.8,22,M,,M,,*6C
06/14/2015	03:07:02.565	$GPGGA,030703,2431.4229,N,08055.4230,W,1,10,1.8,22,M,,M,,*6B
06/14/2015	03:07:03.595	$GPGGA,030704,2431.4215,N,08055.4249,W,1,9,2.0,22,M,,M,,*5E
06/14/2015	03:07:04.555	$GPGGA,030705,2431.4204,N,08055.4268,W,1,9,2.2,22,M,,M,,*5E
06/14/2015	03:07:05.575	$GPGGA,030706,2431.4193,N,08055.4286,W,1,10,1.8,22,M,,M,,*61
06/14/2015	03:07:06.551	$GPGGA,030707,2431.4182,N,08055.4306,W,1,10,1.8,22,M,,M,,*69
06/14/2015	03:07:07.605	$GPGGA,030708,2431.4168,N,08055.4324,W,1,10,1.8,22,M,,M,,*62
06/14/2015	03:07:08.549	$GPGGA,030709,2431.4154,N,08055.4342,W,1,10,1.8,22,M,,M,,*6C
06/14/2015	03:07:09.565	$GPGGA,030710,2431.4142,N,08055.4364,W,1,10,1.8,22,M,,M,,*67
06/14/2015	03:07:10.548	$GPGGA,030711,2431.4128,N,08055.4384,W,1,10,1.8,22,M,,M,,*64
06/14/2015	03:07:11.595	$GPGGA,030712,2431.4114,N,08055.4404,W,1,10,1.8,22,M,,M,,*67
06/14/2015	03:07:12.542	$GPGGA,030713,2431.4100,N,08055.4422,W,1,10,1.8,22,M,,M,,*67
06/14/2015	03:07:13.555	$GPGGA,030714,2431.4086,N,08055.4443,W,1,10,1.8,22,M,,M,,*68
06/14/2015	03:07:14.541	$GPGGA,030715,2431.4072,N,08055.4460,W,1,10,2.0,22,M,,M,,*68
06/14/2015	03:07:15.554	$GPGGA,030716,2431.4059,N,08055.4476,W,1,9,2.0,22,M,,M,,*5D
06/14/2015	03:07:16.536	$GPGGA,030717,2431.4045,N,08055.4494,W,1,9,2.2,22,M,,M,,*5F
06/14/2015	03:07:17.575	$GPGGA,030718,2431.4030,N,08055.4512,W,1,10,1.8,22,M,,M,,*6C
06/14/2015	03:07:18.525	$GPGGA,030719,2431.4017,N,08055.4530,W,1,10,1.8,22,M,,M,,*68
06/14/2015	03:07:19.565	$GPGGA,030720,2431.4002,N,08055.4549,W,1,9,2.0,22,M,,M,,*5B
06/14/2015	03:07:20.515	$GPGGA,030721,2431.3987,N,08055.4566,W,1,9,2.0,22,M,,M,,*54
06/14/2015	03:07:21.525	$GPGGA,030722,2431.3973,N,08055.4585,W,1,10,1.8,22,M,,M,,*62
06/14/2015	03:07:22.537	$GPGGA,030723,2431.3961,N,08055.4606,W,1,10,1.8,22,M,,M,,*68
06/14/2015	03:07:23.575	$GPGGA,030724,2431.3947,N,08055.4624,W,1,10,1.8,22,M,,M,,*6B
06/14/2015	03:07:24.515	$GPGGA,030725,2431.3931,N,08055.4639,W,1,10,2.0,22,M,,M,,*6C
06/14/2015	03:07:25.504	$GPGGA,030726,2431.3916,N,08055.4657,W,1,10,1.8,22,M,,M,,*69
06/14/2015	03:07:26.625	$GPGGA,030727,2431.3904,N,08055.4673,W,1,10,1.8,22,M,,M,,*6D
06/14/2015	03:07:27.643	$GPGGA,030728,2431.3893,N,08055.4689,W,1,10,1.8,22,M,,M,,*68
06/14/2015	03:07:28.605	$GPGGA,030729,2431.3878,N,08055.4704,W,1,10,1.8,22,M,,M,,*68
06/14/2015	03:07:29.516	$GPGGA,030730,2431.3866,N,08055.4722,W,1,10,1.8,22,M,,M,,*6B
06/14/2015	03:07:30.515	$GPGGA,030731,2431.3853,N,08055.4738,W,1,10,1.8,22,M,,M,,*67
06/14/2015	03:07:31.641	$GPGGA,030732,2431.3837,N,08055.4755,W,1,10,1.8,22,M,,M,,*6D
06/14/2015	03:07:32.515	$GPGGA,030733,2431.3824,N,08055.4773,W,1,10,1.8,22,M,,M,,*6A
06/14/2015	03:07:33.505	$GPGGA,030734,2431.3810,N,08055.4791,W,1,10,1.8,22,M,,M,,*66
06/14/2015	03:07:34.505	$GPGGA,030735,2431.3794,N,08055.4808,W,1,10,1.8,22,M,,M,,*6B
06/14/2015	03:07:35.605	$GPGGA,030736,2431.3781,N,08055.4824,W,1,10,1.8,22,M,,M,,*62
06/14/2015	03:07:36.505	$GPGGA,030737,2431.3767,N,08055.4842,W,1,10,1.8,22,M,,M,,*6B
06/14/2015	03:07:37.575	$GPGGA,030738,2431.3753,N,08055.4859,W,1,10,1.8,22,M,,M,,*69
06/14/2015	03:07:38.575	$GPGGA,030739,2431.3738,N,08055.4877,W,1,10,1.8,22,M,,M,,*69
06/14/2015	03:07:39.505	$GPGGA,030740,2431.3725,N,08055.4895,W,1,10,1.8,22,M,,M,,*67
06/14/2015	03:07:40.575	$GPGGA,030741,2431.3712,N,08055.4913,W,1,10,1.8,22,M,,M,,*6D
06/14/2015	03:07:41.575	$GPGGA,030742,2431.3696,N,08055.4931,W,1,10,1.8,22,M,,M,,*63
06/14/2015	03:07:42.575	$GPGGA,030743,2431.3683,N,08055.4949,W,1,10,1.8,22,M,,M,,*69
06/14/2015	03:07:43.584	$GPGGA,030744,2431.3669,N,08055.4967,W,1,10,1.8,22,M,,M,,*66
06/14/2015	03:07:44.575	$GPGGA,030745,2431.3655,N,08055.4985,W,1,10,1.8,22,M,,M,,*64
06/14/2015	03:07:45.565	$GPGGA,030746,2431.3640,N,08055.5003,W,1,10,1.8,22,M,,M,,*65
06/14/2015	03:07:46.575	$GPGGA,030747,2431.3627,N,08055.5020,W,1,10,2.0,22,M,,M,,*6F
06/14/2015	03:07:47.595	$GPGGA,030748,2431.3613,N,08055.5037,W,1,10,1.8,22,M,,M,,*6A
06/14/2015	03:07:48.565	$GPGGA,030749,2431.3600,N,08055.5056,W,1,10,1.8,21,M,,M,,*6D
06/14/2015	03:07:49.575	$GPGGA,030750,2431.3587,N,08055.5073,W,1,10,1.8,21,M,,M,,*6E
06/14/2015	03:07:50.565	$GPGGA,030751,2431.3572,N,08055.5090,W,1,10,1.8,21,M,,M,,*68
06/14/2015	03:07:51.585	$GPGGA,030752,2431.3557,N,08055.5108,W,1,10,1.8,21,M,,M,,*6C
06/14/2015	03:07:52.555	$GPGGA,030753,2431.3546,N,08055.5126,W,1,10,2.0,21,M,,M,,*6A
06/14/2015	03:07:53.548	$GPGGA,030754,2431.3530,N,08055.5145,W,1,9,2.0,21,M,,M,,*51
06/14/2015	03:07:55.115	$GPGGA,030755,2431.3515,N,08055.5163,W,1,9,1.8,21,M,,M,,*58
06/14/2015	03:07:55.575	$GPGGA,030756,2431.3500,N,08055.5182,W,1,9,2.0,21,M,,M,,*5B
06/14/2015	03:07:56.551	$GPGGA,030757,2431.3488,N,08055.5202,W,1,9,2.0,21,M,,M,,*50
06/14/2015	03:07:57.565	$GPGGA,030758,2431.3472,N,08055.5220,W,1,9,2.0,21,M,,M,,*5A
06/14/2015	03:07:58.542	$GPGGA,030759,2431.3458,N,08055.5238,W,1,9,2.0,21,M,,M,,*5A
06/14/2015	03:07:59.585	$GPGGA,030800,2431.3447,N,08055.5257,W,1,9,2.0,21,M,,M,,*5E
06/14/2015	03:08:00.537	$GPGGA,030801,2431.3435,N,08055.5276,W,1,9,1.9,21,M,,M,,*53
06/14/2015	03:08:01.565	$GPGGA,030802,2431.3423,N,08055.5296,W,1,10,1.8,21,M,,M,,*60
06/14/2015	03:08:02.541	$GPGGA,030803,2431.3409,N,08055.5314,W,1,10,1.8,21,M,,M,,*62
06/14/2015	03:08:03.575	$GPGGA,030804,2431.3398,N,08055.5334,W,1,9,2.0,21,M,,M,,*5B
06/14/2015	03:08:04.540	$GPGGA,030805,2431.3384,N,08055.5354,W,1,9,1.8,21,M,,M,,*5A
06/14/2015	03:08:05.515	$GPGGA,030806,2431.3370,N,08055.5372,W,1,9,2.0,21,M,,M,,*5D
06/14/2015	03:08:06.525	$GPGGA,030807,2431.3358,N,08055.5390,W,1,9,1.8,21,M,,M,,*51
06/14/2015	03:08:07.535	$GPGGA,030808,2431.3345,N,08055.5408,W,1,10,1.8,21,M,,M,,*6C
06/14/2015	03:08:08.515	$GPGGA,030809,2431.3333,N,08055.5424,W,1,10,2.1,21,M,,M,,*68
06/14/2015	03:08:09.515	$GPGGA,030810,2431.3318,N,08055.5444,W,1,10,1.8,21,M,,M,,*65
06/14/2015	03:08:10.525	$GPGGA,030811,2431.3305,N,08055.5462,W,1,10,2.0,21,M,,M,,*67
06/14/2015	03:08:11.525	$GPGGA,030812,2431.3298,N,08055.5480,W,1,9,2.0,21,M,,M,,*55
06/14/2015	03:08:12.515	$GPGGA,030813,2431.3284,N,08055.5500,W,1,9,1.8,21,M,,M,,*5B
06/14/2015	03:08:13.535	$GPGGA,030814,2431.3271,N,08055.5520,W,1,9,2.0,21,M,,M,,*5F
06/14/2015	03:08:14.515	$GPGGA,030815,2431.3257,N,08055.5538,W,1,9,2.0,21,M,,M,,*53
06/14/2015	03:08:15.525	$GPGGA,030816,2431.3241,N,08055.5556,W,1,10,1.8,21,M,,M,,*6C
06/14/2015	03:08:16.495	$GPGGA,030817,2431.3229,N,08055.5574,W,1,10,1.8,21,M,,M,,*63
06/14/2015	03:08:17.515	$GPGGA,030818,2431.3217,N,08055.5593,W,1,10,1.8,21,M,,M,,*68
06/14/2015	03:08:18.504	$GPGGA,030819,2431.3201,N,08055.5611,W,1,10,2.0,21,M,,M,,*6C
06/14/2015	03:08:19.625	$GPGGA,030820,2431.3187,N,08055.5629,W,1,9,2.0,21,M,,M,,*58
06/14/2015	03:08:20.495	$GPGGA,030821,2431.3174,N,08055.5648,W,1,9,2.0,21,M,,M,,*52
06/14/2015	03:08:21.505	$GPGGA,030822,2431.3159,N,08055.5668,W,1,10,1.8,21,M,,M,,*6F
06/14/2015	03:08:22.605	$GPGGA,030823,2431.3146,N,08055.5688,W,1,10,1.8,21,M,,M,,*6E
06/14/2015	03:08:23.605	$GPGGA,030824,2431.3132,N,08055.5708,W,1,10,1.8,21,M,,M,,*63
06/14/2015	03:08:24.495	$GPGGA,030825,2431.3120,N,08055.5724,W,1,10,1.8,21,M,,M,,*6F
06/14/2015	03:08:25.645	$GPGGA,030826,2431.3105,N,08055.5741,W,1,10,1.8,21,M,,M,,*68
06/14/2015	03:08:26.505	$GPGGA,030827,2431.3093,N,08055.5759,W,1,10,1.8,21,M,,M,,*6E
06/14/2015	03:08:27.505	$GPGGA,030828,2431.3080,N,08055.5777,W,1,10,1.8,21,M,,M,,*6F
06/14/2015	03:08:28.575	$GPGGA,030829,2431.3065,N,08055.5795,W,1,10,1.8,21,M,,M,,*69
06/14/2015	03:08:29.605	$GPGGA,030830,2431.3052,N,08055.5813,W,1,10,1.8,21,M,,M,,*64
06/14/2015	03:08:30.565	$GPGGA,030831,2431.3037,N,08055.5834,W,1,10,2.0,21,M,,M,,*68
06/14/2015	03:08:31.585	$GPGGA,030832,2431.3024,N,08055.5852,W,1,9,1.8,22,M,,M,,*59
06/14/2015	03:08:32.575	$GPGGA,030833,2431.3010,N,08055.5868,W,1,9,1.8,22,M,,M,,*56
06/14/2015	03:08:33.595	$GPGGA,030834,2431.2997,N,08055.5886,W,1,10,1.8,22,M,,M,,*6E
06/14/2015	03:08:34.575	$GPGGA,030835,2431.2983,N,08055.5903,W,1,10,2.0,22,M,,M,,*6D
06/14/2015	03:08:35.604	$GPGGA,030836,2431.2969,N,08055.5921,W,1,9,2.0,22,M,,M,,*52
06/14/2015	03:08:36.565	$GPGGA,030837,2431.2954,N,08055.5937,W,1,9,2.0,22,M,,M,,*5A
06/14/2015	03:08:37.575	$GPGGA,030838,2431.2943,N,08055.5955,W,1,9,1.8,22,M,,M,,*5C
06/14/2015	03:08:38.555	$GPGGA,030839,2431.2932,N,08055.5975,W,1,9,1.8,22,M,,M,,*59
06/14/2015	03:08:39.615	$GPGGA,030840,2431.2916,N,08055.5993,W,1,10,1.8,22,M,,M,,*61
06/14/2015	03:08:40.565	$GPGGA,030841,2431.2901,N,08055.6011,W,1,10,1.8,22,M,,M,,*66
06/14/2015	03:08:41.546	$GPGGA,030842,2431.2888,N,08055.6030,W,1,10,1.8,22,M,,M,,*66
06/14/2015	03:08:42.555	$GPGGA,030843,2431.2874,N,08055.6048,W,1,10,1.8,22,M,,M,,*6B
06/14/2015	03:08:43.625	$GPGGA,030844,2431.2860,N,08055.6066,W,1,10,1.8,22,M,,M,,*65
06/14/2015	03:08:44.555	$GPGGA,030845,2431.2847,N,08055.6084,W,1,10,1.8,22,M,,M,,*6D
06/14/2015	03:08:45.555	$GPGGA,030846,2431.2833,N,08055.6102,W,1,10,1.8,22,M,,M,,*62
06/14/2015	03:08:46.548	$GPGGA,030847,2431.2820,N,08055.6118,W,1,10,1.8,22,M,,M,,*6A
06/14/2015	03:08:47.575	$GPGGA,030848,2431.2807,N,08055.6135,W,1,10,1.8,22,M,,M,,*6F
06/14/2015	03:08:48.565	$GPGGA,030849,2431.2794,N,08055.6153,W,1,10,1.8,22,M,,M,,*6B
06/14/2015	03:08:49.575	$GPGGA,030850,2431.2780,N,08055.6171,W,1,10,1.8,22,M,,M,,*66
06/14/2015	03:08:50.548	$GPGGA,030851,2431.2766,N,08055.6189,W,1,10,1.8,22,M,,M,,*68
06/14/2015	03:08:51.558	$GPGGA,030852,2431.2751,N,08055.6210,W,1,10,2.0,22,M,,M,,*67
06/14/2015	03:08:52.539	$GPGGA,030853,2431.2737,N,08055.6228,W,1,10,1.8,22,M,,M,,*66
06/14/2015	03:08:53.564	$GPGGA,030854,2431.2722,N,08055.6247,W,1,10,1.8,22,M,,M,,*6C
06/14/2015	03:08:54.538	$GPGGA,030855,2431.2710,N,08055.6265,W,1,10,1.8,22,M,,M,,*6C
06/14/2015	03:08:55.605	$GPGGA,030856,2431.2697,N,08055.6283,W,1,10,2.0,22,M,,M,,*62
06/14/2015	03:08:56.515	$GPGGA,030857,2431.2682,N,08055.6301,W,1,10,2.0,22,M,,M,,*6C
06/14/2015	03:08:57.549	$GPGGA,030858,2431.2668,N,08055.6318,W,1,9,1.8,22,M,,M,,*5C
06/14/2015	03:08:58.535	$GPGGA,030859,2431.2655,N,08055.6335,W,1,9,1.8,22,M,,M,,*5C
06/14/2015	03:08:59.565	$GPGGA,030900,2431.2640,N,08055.6352,W,1,10,1.8,22,M,,M,,*6C
06/14/2015	03:09:00.638	$GPGGA,030901,2431.2626,N,08055.6371,W,1,10,1.8,22,M,,M,,*6C
06/14/2015	03:09:01.625	$GPGGA,030902,2431.2612,N,08055.6391,W,1,10,2.0,22,M,,M,,*6D
06/14/2015	03:09:02.515	$GPGGA,030903,2431.2598,N,08055.6410,W,1,10,2.0,22,M,,M,,*63
06/14/2015	03:09:03.547	$GPGGA,030904,2431.2582,N,08055.6427,W,1,9,2.0,22,M,,M,,*53
06/14/2015	03:09:04.505	$GPGGA,030905,2431.2582,N,08055.6427,W,1,9,2.0,22,M,,M,,*52
06/14/2015	03:09:05.615	$GPGGA,030906,2431.2556,N,08055.6464,W,1,10,2.0,21,M,,M,,*64
06/14/2015	03:09:06.585	$GPGGA,030907,2431.2542,N,08055.6481,W,1,10,2.0,21,M,,M,,*6B
06/14/2015	03:09:07.545	$GPGGA,030908,2431.2528,N,08055.6497,W,1,9,1.8,21,M,,M,,*5C
06/14/2015	03:09:08.595	$GPGGA,030909,2431.2517,N,08055.6515,W,1,9,1.8,21,M,,M,,*5A
06/14/2015	03:09:09.585	$GPGGA,030910,2431.2503,N,08055.6533,W,1,10,1.8,21,M,,M,,*6B
06/14/2015	03:09:10.514	$GPGGA,030911,2431.2488,N,08055.6551,W,1,10,1.8,21,M,,M,,*6C
06/14/2015	03:09:11.584	$GPGGA,030912,2431.2474,N,08055.6571,W,1,10,2.1,21,M,,M,,*64
06/14/2015	03:09:12.564	$GPGGA,030913,2431.2460,N,08055.6590,W,1,10,2.1,21,M,,M,,*6F
06/14/2015	03:09:13.584	$GPGGA,030914,2431.2448,N,08055.6609,W,1,9,1.8,21,M,,M,,*53
06/14/2015	03:09:14.574	$GPGGA,030915,2431.2434,N,08055.6627,W,1,9,1.8,21,M,,M,,*55
06/14/2015	03:09:15.594	$GPGGA,030916,2431.2422,N,08055.6645,W,1,10,1.9,21,M,,M,,*6C
06/14/2015	03:09:16.494	$GPGGA,030917,2431.2408,N,08055.6665,W,1,10,2.0,21,M,,M,,*6D
06/14/2015	03:09:17.584	$GPGGA,030918,2431.2394,N,08055.6684,W,1,9,2.0,21,M,,M,,*57
06/14/2015	03:09:18.574	$GPGGA,030919,2431.2380,N,08055.6705,W,1,9,2.0,21,M,,M,,*5B
06/14/2015	03:09:19.564	$GPGGA,030920,2431.2366,N,08055.6724,W,1,9,2.0,21,M,,M,,*5A
06/14/2015	03:09:20.554	$GPGGA,030921,2431.2352,N,08055.6745,W,1,9,2.0,21,M,,M,,*5B
06/14/2015	03:09:21.574	$GPGGA,030922,2431.2338,N,08055.6763,W,1,10,1.8,21,M,,M,,*63
06/14/2015	03:09:22.565	$GPGGA,030923,2431.2325,N,08055.6779,W,1,10,1.8,21,M,,M,,*65
06/14/2015	03:09:23.565	$GPGGA,030924,2431.2314,N,08055.6799,W,1,10,1.8,21,M,,M,,*6E
06/14/2015	03:09:24.555	$GPGGA,030925,2431.2300,N,08055.6815,W,1,10,1.8,21,M,,M,,*61
06/14/2015	03:09:25.565	$GPGGA,030926,2431.2286,N,08055.6835,W,1,10,1.8,21,M,,M,,*6F
06/14/2015	03:09:26.545	$GPGGA,030927,2431.2274,N,08055.6854,W,1,10,1.8,21,M,,M,,*64
06/14/2015	03:09:27.575	$GPGGA,030928,2431.2258,N,08055.6873,W,1,10,1.8,21,M,,M,,*60
06/14/2015	03:09:28.554	$GPGGA,030929,2431.2246,N,08055.6893,W,1,10,2.0,21,M,,M,,*6B
06/14/2015	03:09:29.554	$GPGGA,030930,2431.2234,N,08055.6912,W,1,10,2.0,21,M,,M,,*6E
06/14/2015	03:09:30.534	$GPGGA,030931,2431.2220,N,08055.6929,W,1,10,2.0,21,M,,M,,*62
06/14/2015	03:09:31.544	$GPGGA,030932,2431.2206,N,08055.6945,W,1,9,2.0,21,M,,M,,*57
06/14/2015	03:09:32.534	$GPGGA,030933,2431.2193,N,08055.6965,W,1,9,1.8,21,M,,M,,*50
06/14/2015	03:09:33.564	$GPGGA,030934,2431.2179,N,08055.6983,W,1,10,1.8,21,M,,M,,*63
06/14/2015	03:09:34.532	$GPGGA,030935,2431.2166,N,08055.7001,W,1,10,2.0,21,M,,M,,*65
06/14/2015	03:09:35.554	$GPGGA,030936,2431.2151,N,08055.7021,W,1,10,1.8,21,M,,M,,*6B
06/14/2015	03:09:36.540	$GPGGA,030937,2431.2137,N,08055.7041,W,1,10,1.8,21,M,,M,,*6C
06/14/2015	03:09:37.514	$GPGGA,030938,2431.2124,N,08055.7059,W,1,10,1.8,21,M,,M,,*68
06/14/2015	03:09:38.531	$GPGGA,030939,2431.2112,N,08055.7075,W,1,10,1.8,21,M,,M,,*62
06/14/2015	03:09:39.530	$GPGGA,030940,2431.2099,N,08055.7092,W,1,9,2.0,21,M,,M,,*54
06/14/2015	03:09:40.529	$GPGGA,030941,2431.2090,N,08055.7108,W,1,9,2.0,21,M,,M,,*5E
06/14/2015	03:09:41.515	$GPGGA,030942,2431.2076,N,08055.7126,W,1,10,1.8,22,M,,M,,*69
06/14/2015	03:09:42.505	$GPGGA,030943,2431.2063,N,08055.7144,W,1,10,1.8,22,M,,M,,*68
06/14/2015	03:09:43.538	$GPGGA,030944,2431.2049,N,08055.7164,W,1,10,1.8,22,M,,M,,*65
06/14/2015	03:09:44.505	$GPGGA,030945,2431.2036,N,08055.7182,W,1,10,1.8,22,M,,M,,*64
06/14/2015	03:09:45.545	$GPGGA,030946,2431.2021,N,08055.7201,W,1,10,1.8,22,M,,M,,*69
06/14/2015	03:09:46.494	$GPGGA,030947,2431.2007,N,08055.7218,W,1,10,1.8,22,M,,M,,*64
06/14/2015	03:09:47.504	$GPGGA,030948,2431.1992,N,08055.7236,W,1,9,1.9,22,M,,M,,*58
06/14/2015	03:09:48.614	$GPGGA,030949,2431.1980,N,08055.7254,W,1,9,2.0,22,M,,M,,*54
06/14/2015	03:09:49.604	$GPGGA,030950,2431.1967,N,08055.7270,W,1,10,1.8,22,M,,M,,*60
06/14/2015	03:09:50.514	$GPGGA,030951,2431.1950,N,08055.7287,W,1,10,2.0,22,M,,M,,*66
06/14/2015	03:09:51.514	$GPGGA,030952,2431.1935,N,08055.7305,W,1,10,1.8,23,M,,M,,*67
06/14/2015	03:09:52.484	$GPGGA,030953,2431.1922,N,08055.7326,W,1,10,2.0,23,M,,M,,*6A
06/14/2015	03:09:53.494	$GPGGA,030954,2431.1908,N,08055.7345,W,1,10,1.8,23,M,,M,,*6B
06/14/2015	03:09:54.504	$GPGGA,030955,2431.1892,N,08055.7363,W,1,10,1.8,23,M,,M,,*6C
06/14/2015	03:09:55.514	$GPGGA,030956,2431.1879,N,08055.7382,W,1,9,2.0,23,M,,M,,*56
06/14/2015	03:09:56.484	$GPGGA,030957,2431.1866,N,08055.7400,W,1,9,1.8,23,M,,M,,*5F
06/14/2015	03:09:57.485	$GPGGA,030958,2431.1852,N,08055.7420,W,1,10,1.8,23,M,,M,,*6D
06/14/2015	03:09:58.485	$GPGGA,030959,2431.1837,N,08055.7438,W,1,10,2.0,23,M,,M,,*6D
06/14/2015	03:09:59.595	$GPGGA,031000,2431.1823,N,08055.7454,W,1,9,2.0,23,M,,M,,*5E
06/14/2015	03:10:00.585	$GPGGA,031001,2431.1809,N,08055.7472,W,1,9,2.0,23,M,,M,,*53
06/14/2015	03:10:01.575	$GPGGA,031002,2431.1796,N,08055.7491,W,1,10,1.8,23,M,,M,,*67
06/14/2015	03:10:02.575	$GPGGA,031003,2431.1783,N,08055.7511,W,1,10,1.8,23,M,,M,,*6B
06/14/2015	03:10:03.604	$GPGGA,031004,2431.1769,N,08055.7527,W,1,10,1.8,23,M,,M,,*6D
06/14/2015	03:10:04.564	$GPGGA,031005,2431.1756,N,08055.7545,W,1,10,1.9,23,M,,M,,*65
06/14/2015	03:10:05.564	$GPGGA,031006,2431.1742,N,08055.7562,W,1,10,1.8,23,M,,M,,*67
06/14/2015	03:10:06.564	$GPGGA,031007,2431.1729,N,08055.7580,W,1,10,1.8,23,M,,M,,*67
06/14/2015	03:10:07.564	$GPGGA,031008,2431.1713,N,08055.7598,W,1,10,1.8,23,M,,M,,*68
06/14/2015	03:10:08.554	$GPGGA,031009,2431.1700,N,08055.7617,W,1,10,1.8,23,M,,M,,*6F
06/14/2015	03:10:09.584	$GPGGA,031010,2431.1686,N,08055.7635,W,1,10,1.8,23,M,,M,,*68
06/14/2015	03:10:10.584	$GPGGA,031011,2431.1672,N,08055.7652,W,1,10,1.8,23,M,,M,,*63
06/14/2015	03:10:11.564	$GPGGA,031012,2431.1660,N,08055.7670,W,1,10,1.8,23,M,,M,,*63
06/14/2015	03:10:12.564	$GPGGA,031013,2431.1647,N,08055.7686,W,1,10,1.8,23,M,,M,,*6E
06/14/2015	03:10:13.554	$GPGGA,031014,2431.1633,N,08055.7703,W,1,10,1.8,23,M,,M,,*66
06/14/2015	03:10:14.555	$GPGGA,031015,2431.1619,N,08055.7720,W,1,10,1.8,23,M,,M,,*6E
06/14/2015	03:10:15.585	$GPGGA,031016,2431.1606,N,08055.7738,W,1,10,1.8,23,M,,M,,*6A
06/14/2015	03:10:16.539	$GPGGA,031017,2431.1592,N,08055.7757,W,1,10,1.8,23,M,,M,,*6C
06/14/2015	03:10:17.538	$GPGGA,031018,2431.1578,N,08055.7775,W,1,9,1.9,23,M,,M,,*5E
06/14/2015	03:10:18.540	$GPGGA,031019,2431.1561,N,08055.7793,W,1,9,1.8,23,M,,M,,*5E
06/14/2015	03:10:19.575	$GPGGA,031020,2431.1550,N,08055.7811,W,1,9,2.0,23,M,,M,,*58
06/14/2015	03:10:20.537	$GPGGA,031021,2431.1536,N,08055.7829,W,1,9,1.8,23,M,,M,,*59
06/14/2015	03:10:21.564	$GPGGA,031022,2431.1523,N,08055.7847,W,1,9,2.0,23,M,,M,,*5D
06/14/2015	03:10:22.526	$GPGGA,031023,2431.1509,N,08055.7863,W,1,9,1.8,23,M,,M,,*59
06/14/2015	03:10:23.537	$GPGGA,031024,2431.1495,N,08055.7880,W,1,10,1.8,23,M,,M,,*6F
06/14/2015	03:10:24.544	$GPGGA,031025,2431.1483,N,08055.7898,W,1,10,1.8,23,M,,M,,*60
06/14/2015	03:10:25.526	$GPGGA,031026,2431.1469,N,08055.7916,W,1,10,1.8,23,M,,M,,*60
06/14/2015	03:10:26.534	$GPGGA,031027,2431.1455,N,08055.7935,W,1,10,1.8,23,M,,M,,*6F
06/14/2015	03:10:27.564	$GPGGA,031028,2431.1442,N,08055.7955,W,1,10,1.8,23,M,,M,,*60
06/14/2015	03:10:28.528	$GPGGA,031029,2431.1429,N,08055.7974,W,1,10,1.8,23,M,,M,,*6F
06/14/2015	03:10:29.544	$GPGGA,031030,2431.1414,N,08055.7993,W,1,10,1.8,23,M,,M,,*60
06/14/2015	03:10:30.504	$GPGGA,031031,2431.1401,N,08055.8011,W,1,10,1.8,23,M,,M,,*69
06/14/2015	03:10:31.527	$GPGGA,031032,2431.1389,N,08055.8028,W,1,10,1.8,23,M,,M,,*67
06/14/2015	03:10:32.528	$GPGGA,031033,2431.1375,N,08055.8046,W,1,10,1.8,23,M,,M,,*6D
06/14/2015	03:10:33.545	$GPGGA,031034,2431.1364,N,08055.8064,W,1,9,2.0,23,M,,M,,*59
06/14/2015	03:10:34.515	$GPGGA,031035,2431.1350,N,08055.8082,W,1,9,1.9,23,M,,M,,*5D
06/14/2015	03:10:35.555	$GPGGA,031036,2431.1336,N,08055.8100,W,1,9,1.9,23,M,,M,,*55
06/14/2015	03:10:36.505	$GPGGA,031037,2431.1322,N,08055.8119,W,1,9,1.8,23,M,,M,,*58
06/14/2015	03:10:37.505	$GPGGA,031038,2431.1308,N,08055.8139,W,1,10,1.8,23,M,,M,,*65
06/14/2015	03:10:38.494	$GPGGA,031039,2431.1294,N,08055.8157,W,1,10,1.8,23,M,,M,,*68
06/14/2015	03:10:39.626	$GPGGA,031040,2431.1281,N,08055.8176,W,1,10,1.8,23,M,,M,,*61
06/14/2015	03:10:40.514	$GPGGA,031041,2431.1266,N,08055.8194,W,1,10,1.8,23,M,,M,,*65
06/14/2015	03:10:41.594	$GPGGA,031042,2431.1252,N,08055.8212,W,1,9,2.0,23,M,,M,,*5F
06/14/2015	03:10:42.584	$GPGGA,031043,2431.1239,N,08055.8228,W,1,9,2.0,23,M,,M,,*5A
06/14/2015	03:10:43.954	$GPGGA,031044,2431.1225,N,08055.8246,W,1,10,1.8,23,M,,M,,*6B
06/14/2015	03:10:44.574	$GPGGA,031045,2431.1213,N,08055.8263,W,1,10,1.8,23,M,,M,,*68
06/14/2015	03:10:45.640	$GPGGA,031046,2431.1199,N,08055.8280,W,1,10,1.8,23,M,,M,,*67
06/14/2015	03:10:46.574	$GPGGA,031047,2431.1185,N,08055.8298,W,1,10,1.8,23,M,,M,,*62
06/14/2015	03:10:47.614	$GPGGA,031048,2431.1170,N,08055.8318,W,1,10,1.8,23,M,,M,,*6E
06/14/2015	03:10:48.594	$GPGGA,031049,2431.1156,N,08055.8338,W,1,10,1.8,23,M,,M,,*69
06/14/2015	03:10:49.615	$GPGGA,031050,2431.1141,N,08055.8356,W,1,10,1.8,23,M,,M,,*6F
06/14/2015	03:10:50.575	$GPGGA,031051,2431.1125,N,08055.8374,W,1,10,1.8,23,M,,M,,*6C
06/14/2015	03:10:51.595	$GPGGA,031052,2431.1113,N,08055.8393,W,1,10,1.8,23,M,,M,,*63
06/14/2015	03:10:52.575	$GPGGA,031053,2431.1101,N,08055.8410,W,1,10,2.0,23,M,,M,,*66
06/14/2015	03:10:53.565	$GPGGA,031054,2431.1087,N,08055.8425,W,1,10,1.8,23,M,,M,,*63
06/14/2015	03:10:54.575	$GPGGA,031055,2431.1075,N,08055.8443,W,1,10,1.8,23,M,,M,,*6F
06/14/2015	03:10:55.605	$GPGGA,031056,2431.1062,N,08055.8461,W,1,10,1.8,23,M,,M,,*6A
06/14/2015	03:10:56.554	$GPGGA,031057,2431.1048,N,08055.8480,W,1,10,1.8,23,M,,M,,*6C
06/14/2015	03:10:57.584	$GPGGA,031058,2431.1033,N,08055.8501,W,1,9,2.0,23,M,,M,,*54
06/14/2015	03:10:58.554	$GPGGA,031059,2431.1019,N,08055.8522,W,1,9,2.0,23,M,,M,,*5C
06/14/2015	03:10:59.584	$GPGGA,031100,2431.1005,N,08055.8541,W,1,9,2.0,23,M,,M,,*59
06/14/2015	03:11:00.554	$GPGGA,031101,2431.0990,N,08055.8558,W,1,9,2.0,23,M,,M,,*54
06/14/2015	03:11:01.564	$GPGGA,031102,2431.0978,N,08055.8577,W,1,8,2.1,22,M,,M,,*5D
06/14/2015	03:11:02.544	$GPGGA,031103,2431.0968,N,08055.8595,W,1,8,2.0,22,M,,M,,*50
06/14/2015	03:11:03.564	$GPGGA,031104,2431.0954,N,08055.8613,W,1,10,1.8,22,M,,M,,*67
06/14/2015	03:11:04.544	$GPGGA,031105,2431.0941,N,08055.8629,W,1,10,2.0,22,M,,M,,*60
06/14/2015	03:11:05.534	$GPGGA,031106,2431.0929,N,08055.8647,W,1,10,1.8,22,M,,M,,*6E
06/14/2015	03:11:06.541	$GPGGA,031107,2431.0917,N,08055.8665,W,1,10,1.8,22,M,,M,,*62
06/14/2015	03:11:07.575	$GPGGA,031108,2431.0903,N,08055.8685,W,1,10,1.8,22,M,,M,,*66
06/14/2015	03:11:08.545	$GPGGA,031109,2431.0889,N,08055.8703,W,1,10,1.8,22,M,,M,,*6B
06/14/2015	03:11:09.555	$GPGGA,031110,2431.0876,N,08055.8722,W,1,10,1.8,22,M,,M,,*60
06/14/2015	03:11:10.545	$GPGGA,031111,2431.0862,N,08055.8740,W,1,10,1.8,22,M,,M,,*60
06/14/2015	03:11:11.565	$GPGGA,031112,2431.0847,N,08055.8758,W,1,10,1.8,22,M,,M,,*6D
06/14/2015	03:11:12.529	$GPGGA,031113,2431.0834,N,08055.8776,W,1,10,1.8,22,M,,M,,*64
06/14/2015	03:11:13.554	$GPGGA,031114,2431.0822,N,08055.8793,W,1,9,2.0,22,M,,M,,*5C
06/14/2015	03:11:14.529	$GPGGA,031115,2431.0809,N,08055.8809,W,1,9,1.8,22,M,,M,,*53
06/14/2015	03:11:15.784	$GPGGA,031116,2431.0797,N,08055.8826,W,1,10,1.8,22,M,,M,,*6D
06/14/2015	03:11:16.514	$GPGGA,031117,2431.0786,N,08055.8845,W,1,10,1.8,22,M,,M,,*69
06/14/2015	03:11:17.544	$GPGGA,031118,2431.0771,N,08055.8863,W,1,10,1.8,22,M,,M,,*6A
06/14/2015	03:11:18.514	$GPGGA,031119,2431.0757,N,08055.8881,W,1,10,1.8,22,M,,M,,*63
06/14/2015	03:11:19.544	$GPGGA,031120,2431.0742,N,08055.8902,W,1,10,1.8,22,M,,M,,*67
06/14/2015	03:11:20.504	$GPGGA,031121,2431.0728,N,08055.8921,W,1,10,1.8,22,M,,M,,*6B
06/14/2015	03:11:21.524	$GPGGA,031122,2431.0714,N,08055.8939,W,1,10,1.8,22,M,,M,,*6E
06/14/2015	03:11:22.514	$GPGGA,031123,2431.0699,N,08055.8956,W,1,10,1.8,22,M,,M,,*62
06/14/2015	03:11:23.535	$GPGGA,031124,2431.0686,N,08055.8974,W,1,10,1.8,22,M,,M,,*6B
06/14/2015	03:11:24.515	$GPGGA,031125,2431.0674,N,08055.8992,W,1,10,1.8,22,M,,M,,*6F
06/14/2015	03:11:25.645	$GPGGA,031126,2431.0658,N,08055.9007,W,1,9,1.8,22,M,,M,,*5E
06/14/2015	03:11:26.655	$GPGGA,031127,2431.0645,N,08055.9025,W,1,9,1.8,22,M,,M,,*53
06/14/2015	03:11:27.605	$GPGGA,031128,2431.0631,N,08055.9043,W,1,10,1.8,22,M,,M,,*67
06/14/2015	03:11:28.505	$GPGGA,031129,2431.0616,N,08055.9061,W,1,10,2.0,22,M,,M,,*68
06/14/2015	03:11:29.495	$GPGGA,031130,2431.0600,N,08055.9080,W,1,10,1.8,22,M,,M,,*63
06/14/2015	03:11:31.834	$GPGGA,031131,2431.0585,N,08055.9100,W,1,10,1.8,22,M,,M,,*65
06/14/2015	03:11:31.864	$GPGGA,031132,2431.0571,N,08055.9118,W,1,10,1.8,22,M,,M,,*64
06/14/2015	03:11:32.644	$GPGGA,031133,2431.0557,N,08055.9137,W,1,10,1.8,22,M,,M,,*6C
06/14/2015	03:11:33.574	$GPGGA,031134,2431.0544,N,08055.9154,W,1,10,1.8,22,M,,M,,*6C
06/14/2015	03:11:34.574	$GPGGA,031135,2431.0530,N,08055.9171,W,1,10,1.8,22,M,,M,,*69
06/14/2015	03:11:35.664	$GPGGA,031136,2431.0517,N,08055.9189,W,1,10,1.8,22,M,,M,,*68
06/14/2015	03:11:36.484	$GPGGA,031137,2431.0506,N,08055.9206,W,1,10,1.8,22,M,,M,,*6D
06/14/2015	03:11:37.604	$GPGGA,031138,2431.0493,N,08055.9223,W,1,10,1.8,22,M,,M,,*68
06/14/2015	03:11:38.564	$GPGGA,031139,2431.0479,N,08055.9241,W,1,10,1.8,22,M,,M,,*69
06/14/2015	03:11:39.654	$GPGGA,031140,2431.0465,N,08055.9259,W,1,10,2.0,22,M,,M,,*68
06/14/2015	03:11:40.484	$GPGGA,031141,2431.0451,N,08055.9277,W,1,10,2.0,22,M,,M,,*62
06/14/2015	03:11:41.615	$GPGGA,031142,2431.0435,N,08055.9296,W,1,8,1.8,22,M,,M,,*5E
06/14/2015	03:11:42.637	$GPGGA,031143,2431.0421,N,08055.9314,W,1,8,1.8,22,M,,M,,*51
