Software Version Number: 1	Data File Format Number: 1	Build Version Number: 1	Error Count Since VI Started: 1	Manufacturer: Raytheon	 Model Number: RayMarine 120	 S/N: 	 Cal Date: 	 Wind Direction Offset: 0.00	 Slope (M)1: 0.00	 Offset (B)1: 0.00	 Slope (M)2: 0.00	 Offset (B)2: 0.00	 Slope (M)3: 0.00	 Offset (B)3: 0.00	 Slope (M)4: 0.00	 Offset (B)4: 0.00	 Slope (M)5: 0.00	 Offset (B)5: 0.00	 Slope (M)6: 0.00	 Offset (B)6: 0.00
Computer Date	Computer Time	GGA String
06/14/2015	11:00:00.548	$GPGGA,110001,2437.7861,N,08050.7099,W,1,9,1.6,17,M,,M,,*59
06/14/2015	11:00:01.558	$GPGGA,110002,2437.7859,N,08050.7106,W,1,9,1.6,17,M,,M,,*56
06/14/2015	11:00:02.538	$GPGGA,110003,2437.7856,N,08050.7113,W,1,9,1.6,17,M,,M,,*5C
06/14/2015	11:00:03.577	$GPGGA,110004,2437.7852,N,08050.7120,W,1,9,1.6,17,M,,M,,*5F
06/14/2015	11:00:04.537	$GPGGA,110005,2437.7849,N,08050.7125,W,1,9,1.5,17,M,,M,,*52
06/14/2015	11:00:05.527	$GPGGA,110006,2437.7845,N,08050.7132,W,1,10,1.5,17,M,,M,,*63
06/14/2015	11:00:06.527	$GPGGA,110007,2437.7840,N,08050.7139,W,1,10,1.6,17,M,,M,,*6F
06/14/2015	11:00:07.537	$GPGGA,110008,2437.7838,N,08050.7147,W,1,10,1.5,17,M,,M,,*65
06/14/2015	11:00:08.537	$GPGGA,110009,2437.7834,N,08050.7155,W,1,10,1.5,17,M,,M,,*6B
06/14/2015	11:00:09.548	$GPGGA,110010,2437.7831,N,08050.7160,W,1,10,1.5,17,M,,M,,*60
06/14/2015	11:00:10.518	$GPGGA,110011,2437.7827,N,08050.7167,W,1,10,1.5,17,M,,M,,*61
06/14/2015	11:00:11.558	$GPGGA,110012,2437.7827,N,08050.7173,W,1,10,1.5,17,M,,M,,*67
06/14/2015	11:00:12.518	$GPGGA,110013,2437.7822,N,08050.7180,W,1,10,1.5,17,M,,M,,*6F
06/14/2015	11:00:13.548	$GPGGA,110014,2437.7818,N,08050.7186,W,1,10,1.5,17,M,,M,,*67
06/14/2015	11:00:14.520	$GPGGA,110015,2437.7814,N,08050.7194,W,1,10,1.6,17,M,,M,,*6A
06/14/2015	11:00:15.528	$GPGGA,110016,2437.7813,N,08050.7202,W,1,10,1.5,17,M,,M,,*61
06/14/2015	11:00:16.500	$GPGGA,110017,2437.7809,N,08050.7208,W,1,10,1.6,17,M,,M,,*62
06/14/2015	11:00:17.518	$GPGGA,110018,2437.7804,N,08050.7215,W,1,10,1.5,17,M,,M,,*6F
06/14/2015	11:00:18.504	$GPGGA,110019,2437.7802,N,08050.7220,W,1,10,1.5,17,M,,M,,*6E
06/14/2015	11:00:19.558	$GPGGA,110020,2437.7798,N,08050.7227,W,1,10,1.5,17,M,,M,,*6F
06/14/2015	11:00:20.614	$GPGGA,110021,2437.7794,N,08050.7233,W,1,10,1.5,18,M,,M,,*68
06/14/2015	11:00:21.514	$GPGGA,110022,2437.7793,N,08050.7241,W,1,10,1.5,18,M,,M,,*69
06/14/2015	11:00:22.511	$GPGGA,110023,2437.7789,N,08050.7249,W,1,10,1.5,18,M,,M,,*6B
06/14/2015	11:00:23.537	$GPGGA,110024,2437.7785,N,08050.7255,W,1,10,1.5,18,M,,M,,*6D
06/14/2015	11:00:24.502	$GPGGA,110025,2437.7781,N,08050.7262,W,1,10,1.5,18,M,,M,,*6C
06/14/2015	11:00:25.619	$GPGGA,110026,2437.7780,N,08050.7269,W,1,10,1.5,18,M,,M,,*65
06/14/2015	11:00:26.488	$GPGGA,110027,2437.7778,N,08050.7276,W,1,10,1.5,17,M,,M,,*62
06/14/2015	11:00:27.518	$GPGGA,110028,2437.7774,N,08050.7283,W,1,10,1.5,17,M,,M,,*6B
06/14/2015	11:00:28.578	$GPGGA,110029,2437.7768,N,08050.7288,W,1,10,1.5,17,M,,M,,*6C
06/14/2015	11:00:29.602	$GPGGA,110030,2437.7766,N,08050.7296,W,1,10,1.5,17,M,,M,,*65
06/14/2015	11:00:30.506	$GPGGA,110031,2437.7762,N,08050.7306,W,1,10,1.8,17,M,,M,,*65
06/14/2015	11:00:31.603	$GPGGA,110032,2437.7758,N,08050.7313,W,1,10,1.5,17,M,,M,,*66
06/14/2015	11:00:32.478	$GPGGA,110033,2437.7755,N,08050.7321,W,1,10,1.5,17,M,,M,,*6B
06/14/2015	11:00:33.568	$GPGGA,110034,2437.7751,N,08050.7330,W,1,10,1.5,17,M,,M,,*68
06/14/2015	11:00:34.568	$GPGGA,110035,2437.7747,N,08050.7335,W,1,10,1.5,17,M,,M,,*6B
06/14/2015	11:00:35.588	$GPGGA,110036,2437.7744,N,08050.7342,W,1,10,1.5,17,M,,M,,*6B
06/14/2015	11:00:36.568	$GPGGA,110037,2437.7740,N,08050.7350,W,1,10,1.5,17,M,,M,,*6D
06/14/2015	11:00:37.578	$GPGGA,110038,2437.7737,N,08050.7356,W,1,10,1.5,17,M,,M,,*64
06/14/2015	11:00:38.567	$GPGGA,110039,2437.7734,N,08050.7364,W,1,10,1.5,18,M,,M,,*68
06/14/2015	11:00:39.567	$GPGGA,110040,2437.7731,N,08050.7371,W,1,10,1.5,18,M,,M,,*67
06/14/2015	11:00:40.557	$GPGGA,110041,2437.7728,N,08050.7377,W,1,10,1.6,18,M,,M,,*6B
06/14/2015	11:00:41.577	$GPGGA,110042,2437.7726,N,08050.7384,W,1,9,1.6,18,M,,M,,*52
06/14/2015	11:00:42.557	$GPGGA,110043,2437.7722,N,08050.7391,W,1,9,1.6,18,M,,M,,*53
06/14/2015	11:00:43.577	$GPGGA,110044,2437.7719,N,08050.7397,W,1,10,1.5,18,M,,M,,*61
06/14/2015	11:00:44.558	$GPGGA,110045,2437.7716,N,08050.7404,W,1,10,1.6,17,M,,M,,*6E
06/14/2015	11:00:45.569	$GPGGA,110046,2437.7713,N,08050.7410,W,1,9,1.6,17,M,,M,,*55
06/14/2015	11:00:46.548	$GPGGA,110047,2437.7711,N,08050.7417,W,1,9,1.6,17,M,,M,,*51
06/14/2015	11:00:47.548	$GPGGA,110048,2437.7708,N,08050.7424,W,1,10,1.5,17,M,,M,,*6D
06/14/2015	11:00:48.568	$GPGGA,110049,2437.7705,N,08050.7431,W,1,10,1.6,17,M,,M,,*66
06/14/2015	11:00:49.568	$GPGGA,110050,2437.7702,N,08050.7438,W,1,10,1.5,17,M,,M,,*63
06/14/2015	11:00:50.538	$GPGGA,110051,2437.7701,N,08050.7443,W,1,10,1.5,17,M,,M,,*6D
06/14/2015	11:00:51.548	$GPGGA,110052,2437.7697,N,08050.7449,W,1,9,1.6,17,M,,M,,*51
06/14/2015	11:00:52.538	$GPGGA,110053,2437.7695,N,08050.7457,W,1,9,1.5,17,M,,M,,*5E
06/14/2015	11:00:53.528	$GPGGA,110054,2437.7693,N,08050.7467,W,1,10,1.5,17,M,,M,,*64
06/14/2015	11:00:54.538	$GPGGA,110055,2437.7690,N,08050.7473,W,1,10,1.5,17,M,,M,,*63
06/14/2015	11:00:55.537	$GPGGA,110056,2437.7684,N,08050.7480,W,1,10,1.5,17,M,,M,,*69
06/14/2015	11:00:56.527	$GPGGA,110057,2437.7683,N,08050.7489,W,1,10,1.5,17,M,,M,,*66
06/14/2015	11:00:57.557	$GPGGA,110058,2437.7682,N,08050.7496,W,1,10,1.5,16,M,,M,,*67
06/14/2015	11:00:58.517	$GPGGA,110059,2437.7679,N,08050.7503,W,1,10,1.5,16,M,,M,,*6F
06/14/2015	11:00:59.567	$GPGGA,110100,2437.7673,N,08050.7507,W,1,10,1.5,16,M,,M,,*6C
06/14/2015	11:01:00.527	$GPGGA,110101,2437.7672,N,08050.7516,W,1,10,1.5,16,M,,M,,*6C
06/14/2015	11:01:01.518	$GPGGA,110102,2437.7669,N,08050.7525,W,1,10,1.5,16,M,,M,,*65
06/14/2015	11:01:02.510	$GPGGA,110103,2437.7664,N,08050.7533,W,1,10,1.5,16,M,,M,,*6E
06/14/2015	11:01:03.548	$GPGGA,110104,2437.7661,N,08050.7538,W,1,10,1.5,16,M,,M,,*67
06/14/2015	11:01:04.508	$GPGGA,110105,2437.7661,N,08050.7547,W,1,10,1.5,16,M,,M,,*6E
06/14/2015	11:01:05.528	$GPGGA,110106,2437.7658,N,08050.7554,W,1,10,1.5,16,M,,M,,*65
06/14/2015	11:01:06.508	$GPGGA,110107,2437.7654,N,08050.7561,W,1,10,1.5,16,M,,M,,*6E
06/14/2015	11:01:07.638	$GPGGA,110108,2437.7650,N,08050.7568,W,1,10,1.5,16,M,,M,,*6C
06/14/2015	11:01:08.528	$GPGGA,110109,2437.7648,N,08050.7576,W,1,10,1.5,16,M,,M,,*6B
06/14/2015	11:01:09.610	$GPGGA,110110,2437.7645,N,08050.7584,W,1,10,1.5,16,M,,M,,*63
06/14/2015	11:01:10.508	$GPGGA,110111,2437.7641,N,08050.7590,W,1,10,1.5,16,M,,M,,*63
06/14/2015	11:01:11.609	$GPGGA,110112,2437.7639,N,08050.7598,W,1,10,1.5,15,M,,M,,*64
06/14/2015	11:01:12.508	$GPGGA,110113,2437.7637,N,08050.7605,W,1,10,1.5,15,M,,M,,*6C
06/14/2015	11:01:13.599	$GPGGA,110114,2437.7634,N,08050.7612,W,1,10,1.5,15,M,,M,,*6E
06/14/2015	11:01:14.487	$GPGGA,110115,2437.7630,N,08050.7619,W,1,10,1.5,15,M,,M,,*60
06/14/2015	11:01:15.487	$GPGGA,110116,2437.7627,N,08050.7626,W,1,10,1.5,15,M,,M,,*69
06/14/2015	11:01:16.477	$GPGGA,110117,2437.7625,N,08050.7634,W,1,10,1.5,15,M,,M,,*69
06/14/2015	11:01:17.627	$GPGGA,110118,2437.7622,N,08050.7641,W,1,10,1.5,15,M,,M,,*63
06/14/2015	11:01:18.577	$GPGGA,110119,2437.7619,N,08050.7648,W,1,10,1.5,15,M,,M,,*63
06/14/2015	11:01:19.588	$GPGGA,110120,2437.7616,N,08050.7655,W,1,10,1.5,15,M,,M,,*6A
06/14/2015	11:01:20.488	$GPGGA,110121,2437.7614,N,08050.7663,W,1,10,1.5,15,M,,M,,*6C
06/14/2015	11:01:21.578	$GPGGA,110122,2437.7611,N,08050.7668,W,1,10,1.5,15,M,,M,,*61
06/14/2015	11:01:22.578	$GPGGA,110123,2437.7608,N,08050.7677,W,1,10,1.5,15,M,,M,,*66
06/14/2015	11:01:23.628	$GPGGA,110124,2437.7604,N,08050.7682,W,1,10,1.5,15,M,,M,,*67
06/14/2015	11:01:24.568	$GPGGA,110125,2437.7601,N,08050.7691,W,1,10,1.5,15,M,,M,,*61
06/14/2015	11:01:25.610	$GPGGA,110126,2437.7599,N,08050.7699,W,1,10,1.5,15,M,,M,,*68
06/14/2015	11:01:26.558	$GPGGA,110127,2437.7596,N,08050.7706,W,1,10,1.6,15,M,,M,,*62
06/14/2015	11:01:27.588	$GPGGA,110128,2437.7592,N,08050.7713,W,1,10,1.5,15,M,,M,,*6E
06/14/2015	11:01:28.568	$GPGGA,110129,2437.7589,N,08050.7720,W,1,10,1.5,15,M,,M,,*65
06/14/2015	11:01:30.016	$GPGGA,110130,2437.7586,N,08050.7727,W,1,10,1.5,15,M,,M,,*65
06/14/2015	11:01:30.567	$GPGGA,110131,2437.7583,N,08050.7733,W,1,10,1.5,15,M,,M,,*64
06/14/2015	11:01:31.617	$GPGGA,110132,2437.7579,N,08050.7739,W,1,10,1.5,15,M,,M,,*68
06/14/2015	11:01:32.567	$GPGGA,110133,2437.7576,N,08050.7747,W,1,10,1.5,15,M,,M,,*6F
06/14/2015	11:01:33.567	$GPGGA,110134,2437.7574,N,08050.7756,W,1,10,1.5,15,M,,M,,*6A
06/14/2015	11:01:34.547	$GPGGA,110135,2437.7570,N,08050.7762,W,1,10,1.5,15,M,,M,,*68
06/14/2015	11:01:35.599	$GPGGA,110136,2437.7567,N,08050.7769,W,1,10,1.5,15,M,,M,,*66
06/14/2015	11:01:36.548	$GPGGA,110137,2437.7564,N,08050.7776,W,1,10,1.5,15,M,,M,,*6A
06/14/2015	11:01:37.538	$GPGGA,110138,2437.7561,N,08050.7783,W,1,10,1.5,15,M,,M,,*6A
06/14/2015	11:01:38.538	$GPGGA,110139,2437.7558,N,08050.7790,W,1,10,1.5,15,M,,M,,*63
06/14/2015	11:01:39.578	$GPGGA,110140,2437.7556,N,08050.7796,W,1,9,1.6,15,M,,M,,*5E
06/14/2015	11:01:40.538	$GPGGA,110141,2437.7552,N,08050.7803,W,1,9,1.5,15,M,,M,,*5B
06/14/2015	11:01:41.528	$GPGGA,110142,2437.7549,N,08050.7811,W,1,10,1.5,15,M,,M,,*69
06/14/2015	11:01:42.538	$GPGGA,110143,2437.7544,N,08050.7818,W,1,10,1.5,15,M,,M,,*6C
06/14/2015	11:01:43.578	$GPGGA,110144,2437.7542,N,08050.7825,W,1,10,1.5,15,M,,M,,*63
06/14/2015	11:01:44.528	$GPGGA,110145,2437.7538,N,08050.7832,W,1,10,1.5,15,M,,M,,*69
06/14/2015	11:01:45.518	$GPGGA,110146,2437.7535,N,08050.7839,W,1,9,1.6,15,M,,M,,*57
06/14/2015	11:01:46.528	$GPGGA,110147,2437.7533,N,08050.7845,W,1,9,1.6,15,M,,M,,*5B
06/14/2015	11:01:47.528	$GPGGA,110148,2437.7531,N,08050.7852,W,1,9,1.6,15,M,,M,,*50
06/14/2015	11:01:48.508	$GPGGA,110149,2437.7527,N,08050.7859,W,1,9,1.5,15,M,,M,,*5E
06/14/2015	11:01:49.521	$GPGGA,110150,2437.7524,N,08050.7868,W,1,10,1.5,15,M,,M,,*6F
06/14/2015	11:01:50.515	$GPGGA,110151,2437.7521,N,08050.7876,W,1,10,1.6,15,M,,M,,*67
06/14/2015	11:01:51.547	$GPGGA,110152,2437.7518,N,08050.7883,W,1,9,1.6,15,M,,M,,*5C
06/14/2015	11:01:52.517	$GPGGA,110153,2437.7515,N,08050.7890,W,1,9,1.6,15,M,,M,,*52
06/14/2015	11:01:53.557	$GPGGA,110154,2437.7510,N,08050.7895,W,1,9,1.6,14,M,,M,,*54
06/14/2015	11:01:54.518	$GPGGA,110155,2437.7509,N,08050.7902,W,1,9,1.5,14,M,,M,,*51
06/14/2015	11:01:55.568	$GPGGA,110156,2437.7506,N,08050.7909,W,1,10,1.5,14,M,,M,,*6E
06/14/2015	11:01:56.618	$GPGGA,110157,2437.7502,N,08050.7916,W,1,10,1.6,14,M,,M,,*66
06/14/2015	11:01:57.516	$GPGGA,110158,2437.7499,N,08050.7926,W,1,9,1.6,14,M,,M,,*51
06/14/2015	11:01:58.488	$GPGGA,110159,2437.7496,N,08050.7934,W,1,9,1.6,14,M,,M,,*5C
06/14/2015	11:01:59.528	$GPGGA,110200,2437.7493,N,08050.7941,W,1,9,1.6,14,M,,M,,*54
06/14/2015	11:02:00.598	$GPGGA,110201,2437.7491,N,08050.7948,W,1,9,1.5,14,M,,M,,*5D
06/14/2015	11:02:01.512	$GPGGA,110202,2437.7488,N,08050.7955,W,1,10,1.5,14,M,,M,,*62
06/14/2015	11:02:02.600	$GPGGA,110203,2437.7484,N,08050.7962,W,1,10,1.5,14,M,,M,,*6B
06/14/2015	11:02:03.511	$GPGGA,110204,2437.7482,N,08050.7970,W,1,10,1.5,14,M,,M,,*69
06/14/2015	11:02:04.488	$GPGGA,110205,2437.7478,N,08050.7975,W,1,10,1.6,14,M,,M,,*6B
06/14/2015	11:02:05.487	$GPGGA,110206,2437.7475,N,08050.7982,W,1,10,1.5,14,M,,M,,*6E
06/14/2015	11:02:06.578	$GPGGA,110207,2437.7471,N,08050.7991,W,1,10,1.6,14,M,,M,,*6A
06/14/2015	11:02:07.627	$GPGGA,110208,2437.7469,N,08050.7998,W,1,9,1.5,14,M,,M,,*5E
06/14/2015	11:02:08.577	$GPGGA,110209,2437.7467,N,08050.8004,W,1,9,1.6,14,M,,M,,*51
06/14/2015	11:02:09.567	$GPGGA,110210,2437.7464,N,08050.8010,W,1,9,1.5,14,M,,M,,*5C
06/14/2015	11:02:10.567	$GPGGA,110211,2437.7460,N,08050.8017,W,1,9,1.6,14,M,,M,,*5D
06/14/2015	11:02:11.588	$GPGGA,110212,2437.7455,N,08050.8024,W,1,9,1.5,14,M,,M,,*5B
06/14/2015	11:02:12.568	$GPGGA,110213,2437.7453,N,08050.8032,W,1,9,1.6,14,M,,M,,*58
06/14/2015	11:02:13.568	$GPGGA,110214,2437.7450,N,08050.8039,W,1,9,1.6,14,M,,M,,*57
06/14/2015	11:02:14.558	$GPGGA,110215,2437.7448,N,08050.8047,W,1,9,1.6,14,M,,M,,*56
06/14/2015	11:02:15.588	$GPGGA,110216,2437.7444,N,08050.8053,W,1,9,1.5,14,M,,M,,*5F
06/14/2015	11:02:16.568	$GPGGA,110217,2437.7440,N,08050.8058,W,1,9,1.5,14,M,,M,,*51
06/14/2015	11:02:17.568	$GPGGA,110218,2437.7438,N,08050.8067,W,1,10,1.6,14,M,,M,,*66
06/14/2015	11:02:18.558	$GPGGA,110219,2437.7434,N,08050.8074,W,1,10,1.5,14,M,,M,,*6A
06/14/2015	11:02:19.601	$GPGGA,110220,2437.7430,N,08050.8079,W,1,10,1.5,14,M,,M,,*69
06/14/2015	11:02:20.558	$GPGGA,110221,2437.7427,N,08050.8087,W,1,10,1.5,14,M,,M,,*6F
06/14/2015	11:02:21.568	$GPGGA,110222,2437.7426,N,08050.8094,W,1,10,1.6,13,M,,M,,*6B
06/14/2015	11:02:22.558	$GPGGA,110223,2437.7423,N,08050.8101,W,1,10,1.5,13,M,,M,,*61
06/14/2015	11:02:23.601	$GPGGA,110224,2437.7419,N,08050.8107,W,1,10,1.6,13,M,,M,,*6A
06/14/2015	11:02:24.547	$GPGGA,110225,2437.7415,N,08050.8114,W,1,10,1.5,13,M,,M,,*66
06/14/2015	11:02:25.567	$GPGGA,110226,2437.7411,N,08050.8121,W,1,10,1.5,13,M,,M,,*67
06/14/2015	11:02:26.547	$GPGGA,110227,2437.7409,N,08050.8129,W,1,10,1.5,13,M,,M,,*67
06/14/2015	11:02:27.577	$GPGGA,110228,2437.7406,N,08050.8136,W,1,10,1.6,13,M,,M,,*6A
06/14/2015	11:02:28.537	$GPGGA,110229,2437.7402,N,08050.8143,W,1,10,1.5,13,M,,M,,*6E
06/14/2015	11:02:29.528	$GPGGA,110230,2437.7401,N,08050.8150,W,1,10,1.6,13,M,,M,,*64
06/14/2015	11:02:30.528	$GPGGA,110231,2437.7397,N,08050.8157,W,1,10,1.6,13,M,,M,,*6A
06/14/2015	11:02:31.548	$GPGGA,110232,2437.7392,N,08050.8162,W,1,9,1.5,13,M,,M,,*51
06/14/2015	11:02:32.528	$GPGGA,110233,2437.7390,N,08050.8168,W,1,9,1.6,13,M,,M,,*5B
06/14/2015	11:02:33.569	$GPGGA,110234,2437.7388,N,08050.8176,W,1,9,1.6,13,M,,M,,*5A
06/14/2015	11:02:34.538	$GPGGA,110235,2437.7385,N,08050.8183,W,1,9,1.6,13,M,,M,,*5C
06/14/2015	11:02:35.568	$GPGGA,110236,2437.7383,N,08050.8187,W,1,9,1.5,13,M,,M,,*5E
06/14/2015	11:02:36.538	$GPGGA,110237,2437.7380,N,08050.8194,W,1,9,1.6,13,M,,M,,*5D
06/14/2015	11:02:37.508	$GPGGA,110238,2437.7377,N,08050.8198,W,1,9,1.5,13,M,,M,,*55
06/14/2015	11:02:38.628	$GPGGA,110239,2437.7375,N,08050.8204,W,1,9,1.5,13,M,,M,,*50
06/14/2015	11:02:39.638	$GPGGA,110240,2437.7373,N,08050.8210,W,1,10,1.5,13,M,,M,,*65
06/14/2015	11:02:40.517	$GPGGA,110241,2437.7370,N,08050.8215,W,1,10,1.5,13,M,,M,,*62
06/14/2015	11:02:41.537	$GPGGA,110242,2437.7369,N,08050.8222,W,1,10,1.5,13,M,,M,,*6D
06/14/2015	11:02:42.599	$GPGGA,110243,2437.7367,N,08050.8226,W,1,10,1.5,13,M,,M,,*66
06/14/2015	11:02:43.547	$GPGGA,110244,2437.7365,N,08050.8230,W,1,10,1.5,13,M,,M,,*64
06/14/2015	11:02:44.599	$GPGGA,110245,2437.7362,N,08050.8234,W,1,10,1.5,13,M,,M,,*66
06/14/2015	11:02:45.517	$GPGGA,110246,2437.7363,N,08050.8240,W,1,10,1.5,13,M,,M,,*67
06/14/2015	11:02:46.611	$GPGGA,110247,2437.7361,N,08050.8244,W,1,10,1.5,13,M,,M,,*60
06/14/2015	11:02:47.600	$GPGGA,110248,2437.7358,N,08050.8248,W,1,10,1.5,13,M,,M,,*69
06/14/2015	11:02:48.518	$GPGGA,110249,2437.7357,N,08050.8252,W,1,10,1.5,13,M,,M,,*6C
06/14/2015	11:02:49.588	$GPGGA,110250,2437.7357,N,08050.8256,W,1,10,1.5,13,M,,M,,*60
06/14/2015	11:02:50.508	$GPGGA,110251,2437.7355,N,08050.8260,W,1,10,1.5,13,M,,M,,*66
06/14/2015	11:02:51.618	$GPGGA,110252,2437.7354,N,08050.8263,W,1,10,1.5,13,M,,M,,*67
06/14/2015	11:02:52.578	$GPGGA,110253,2437.7352,N,08050.8270,W,1,10,1.5,13,M,,M,,*62
06/14/2015	11:02:53.505	$GPGGA,110254,2437.7351,N,08050.8273,W,1,10,2.0,13,M,,M,,*63
06/14/2015	11:02:54.588	$GPGGA,110255,2437.7350,N,08050.8275,W,1,10,2.0,13,M,,M,,*65
06/14/2015	11:02:55.598	$GPGGA,110256,2437.7350,N,08050.8280,W,1,9,2.0,13,M,,M,,*54
06/14/2015	11:02:56.588	$GPGGA,110257,2437.7352,N,08050.8285,W,1,9,1.5,13,M,,M,,*54
06/14/2015	11:02:57.600	$GPGGA,110258,2437.7350,N,08050.8288,W,1,10,1.5,13,M,,M,,*6C
06/14/2015	11:02:58.567	$GPGGA,110259,2437.7348,N,08050.8287,W,1,10,1.5,13,M,,M,,*6B
06/14/2015	11:02:59.599	$GPGGA,110300,2437.7347,N,08050.8291,W,1,10,1.5,13,M,,M,,*6E
06/14/2015	11:03:00.867	$GPGGA,110301,2437.7349,N,08050.8298,W,1,10,1.5,13,M,,M,,*68
06/14/2015	11:03:01.577	$GPGGA,110302,2437.7346,N,08050.8299,W,1,10,1.5,13,M,,M,,*65
06/14/2015	11:03:02.567	$GPGGA,110303,2437.7344,N,08050.8300,W,1,10,1.5,13,M,,M,,*67
06/14/2015	11:03:03.567	$GPGGA,110304,2437.7345,N,08050.8305,W,1,10,1.5,13,M,,M,,*64
06/14/2015	11:03:04.546	$GPGGA,110305,2437.7343,N,08050.8310,W,1,10,1.5,13,M,,M,,*67
06/14/2015	11:03:05.566	$GPGGA,110306,2437.7340,N,08050.8313,W,1,10,1.5,13,M,,M,,*64
06/14/2015	11:03:06.536	$GPGGA,110307,2437.7339,N,08050.8316,W,1,10,1.5,14,M,,M,,*69
06/14/2015	11:03:07.546	$GPGGA,110308,2437.7341,N,08050.8320,W,1,10,1.5,14,M,,M,,*6C
06/14/2015	11:03:08.536	$GPGGA,110309,2437.7339,N,08050.8324,W,1,10,1.5,14,M,,M,,*66
06/14/2015	11:03:09.556	$GPGGA,110310,2437.7337,N,08050.8325,W,1,10,1.5,14,M,,M,,*61
06/14/2015	11:03:10.526	$GPGGA,110311,2437.7336,N,08050.8328,W,1,10,1.5,14,M,,M,,*6C
06/14/2015	11:03:11.566	$GPGGA,110312,2437.7339,N,08050.8332,W,1,10,1.5,14,M,,M,,*6B
06/14/2015	11:03:12.536	$GPGGA,110313,2437.7336,N,08050.8336,W,1,10,1.8,14,M,,M,,*6C
06/14/2015	11:03:13.526	$GPGGA,110314,2437.7333,N,08050.8338,W,1,10,1.5,14,M,,M,,*6D
06/14/2015	11:03:14.526	$GPGGA,110315,2437.7334,N,08050.8340,W,1,10,1.5,15,M,,M,,*65
06/14/2015	11:03:15.555	$GPGGA,110316,2437.7336,N,08050.8345,W,1,10,1.5,15,M,,M,,*61
06/14/2015	11:03:16.535	$GPGGA,110317,2437.7333,N,08050.8347,W,1,10,1.5,15,M,,M,,*67
06/14/2015	11:03:17.535	$GPGGA,110318,2437.7332,N,08050.8347,W,1,10,1.5,15,M,,M,,*69
06/14/2015	11:03:18.525	$GPGGA,110319,2437.7332,N,08050.8350,W,1,10,1.5,15,M,,M,,*6E
06/14/2015	11:03:19.545	$GPGGA,110320,2437.7334,N,08050.8354,W,1,10,1.5,15,M,,M,,*66
06/14/2015	11:03:20.525	$GPGGA,110321,2437.7332,N,08050.8356,W,1,10,1.5,15,M,,M,,*63
06/14/2015	11:03:21.525	$GPGGA,110322,2437.7330,N,08050.8358,W,1,10,1.5,16,M,,M,,*6F
06/14/2015	11:03:22.516	$GPGGA,110323,2437.7329,N,08050.8361,W,1,10,1.5,16,M,,M,,*6C
06/14/2015	11:03:23.516	$GPGGA,110324,2437.7329,N,08050.8363,W,1,10,1.5,16,M,,M,,*69
06/14/2015	11:03:24.516	$GPGGA,110325,2437.7329,N,08050.8367,W,1,10,1.5,16,M,,M,,*6C
06/14/2015	11:03:25.506	$GPGGA,110326,2437.7328,N,08050.8368,W,1,10,1.5,16,M,,M,,*61
06/14/2015	11:03:26.616	$GPGGA,110327,2437.7327,N,08050.8371,W,1,10,1.5,16,M,,M,,*67
06/14/2015	11:03:27.626	$GPGGA,110328,2437.7325,N,08050.8374,W,1,10,1.5,16,M,,M,,*6F
06/14/2015	11:03:28.516	$GPGGA,110329,2437.7325,N,08050.8375,W,1,10,1.5,16,M,,M,,*6F
06/14/2015	11:03:29.600	$GPGGA,110330,2437.7323,N,08050.8378,W,1,10,1.5,17,M,,M,,*6D
06/14/2015	11:03:30.496	$GPGGA,110331,2437.7322,N,08050.8382,W,1,10,1.5,17,M,,M,,*68
06/14/2015	11:03:31.516	$GPGGA,110332,2437.7321,N,08050.8383,W,1,10,1.5,17,M,,M,,*69
06/14/2015	11:03:32.487	$GPGGA,110333,2437.7320,N,08050.8385,W,1,10,1.5,17,M,,M,,*6F
06/14/2015	11:03:33.475	$GPGGA,110334,2437.7318,N,08050.8387,W,1,10,1.5,17,M,,M,,*61
06/14/2015	11:03:34.487	$GPGGA,110335,2437.7318,N,08050.8390,W,1,10,1.5,17,M,,M,,*66
06/14/2015	11:03:35.593	$GPGGA,110336,2437.7316,N,08050.8393,W,1,10,1.5,17,M,,M,,*68
06/14/2015	11:03:36.595	$GPGGA,110337,2437.7315,N,08050.8394,W,1,10,1.5,17,M,,M,,*6D
06/14/2015	11:03:37.575	$GPGGA,110338,2437.7316,N,08050.8397,W,1,10,1.5,17,M,,M,,*62
06/14/2015	11:03:38.475	$GPGGA,110339,2437.7317,N,08050.8400,W,1,10,1.5,17,M,,M,,*6B
06/14/2015	11:03:39.497	$GPGGA,110340,2437.7314,N,08050.8403,W,1,9,1.8,17,M,,M,,*50
06/14/2015	11:03:40.476	$GPGGA,110341,2437.7312,N,08050.8403,W,1,9,1.5,17,M,,M,,*5A
06/14/2015	11:03:42.516	$GPGGA,110343,2437.7312,N,08050.8407,W,1,10,1.5,17,M,,M,,*64
06/14/2015	11:03:43.576	$GPGGA,110344,2437.7311,N,08050.8410,W,1,10,1.5,17,M,,M,,*66
06/14/2015	11:03:44.556	$GPGGA,110345,2437.7310,N,08050.8412,W,1,10,1.5,17,M,,M,,*64
06/14/2015	11:03:45.586	$GPGGA,110346,2437.7309,N,08050.8414,W,1,10,1.5,17,M,,M,,*69
06/14/2015	11:03:46.566	$GPGGA,110347,2437.7307,N,08050.8413,W,1,10,1.8,17,M,,M,,*6C
06/14/2015	11:03:47.556	$GPGGA,110348,2437.7307,N,08050.8418,W,1,9,1.8,17,M,,M,,*50
06/14/2015	11:03:48.556	$GPGGA,110349,2437.7305,N,08050.8421,W,1,9,1.5,17,M,,M,,*54
06/14/2015	11:03:49.556	$GPGGA,110350,2437.7304,N,08050.8422,W,1,9,1.8,17,M,,M,,*53
06/14/2015	11:03:50.545	$GPGGA,110351,2437.7303,N,08050.8425,W,1,9,1.5,17,M,,M,,*5F
06/14/2015	11:03:51.593	$GPGGA,110352,2437.7301,N,08050.8426,W,1,10,1.5,17,M,,M,,*65
06/14/2015	11:03:52.545	$GPGGA,110353,2437.7300,N,08050.8429,W,1,10,1.5,17,M,,M,,*6A
06/14/2015	11:03:53.565	$GPGGA,110354,2437.7299,N,08050.8432,W,1,10,1.5,17,M,,M,,*66
06/14/2015	11:03:54.535	$GPGGA,110355,2437.7298,N,08050.8433,W,1,10,1.5,17,M,,M,,*67
06/14/2015	11:03:55.575	$GPGGA,110356,2437.7299,N,08050.8436,W,1,10,1.5,17,M,,M,,*60
06/14/2015	11:03:56.545	$GPGGA,110357,2437.7296,N,08050.8437,W,1,10,1.5,17,M,,M,,*6F
06/14/2015	11:03:57.556	$GPGGA,110358,2437.7296,N,08050.8440,W,1,10,1.5,17,M,,M,,*60
06/14/2015	11:03:58.546	$GPGGA,110359,2437.7294,N,08050.8443,W,1,10,1.5,17,M,,M,,*60
06/14/2015	11:03:59.576	$GPGGA,110400,2437.7293,N,08050.8446,W,1,10,1.5,17,M,,M,,*69
06/14/2015	11:04:00.526	$GPGGA,110401,2437.7291,N,08050.8447,W,1,10,1.5,16,M,,M,,*6A
06/14/2015	11:04:01.526	$GPGGA,110402,2437.7290,N,08050.8450,W,1,10,1.5,16,M,,M,,*6E
06/14/2015	11:04:02.536	$GPGGA,110403,2437.7291,N,08050.8454,W,1,10,1.5,16,M,,M,,*6A
06/14/2015	11:04:03.576	$GPGGA,110404,2437.7287,N,08050.8455,W,1,10,1.5,16,M,,M,,*6B
06/14/2015	11:04:04.526	$GPGGA,110405,2437.7285,N,08050.8457,W,1,10,1.5,16,M,,M,,*6A
06/14/2015	11:04:05.546	$GPGGA,110406,2437.7285,N,08050.8461,W,1,10,1.5,16,M,,M,,*6C
06/14/2015	11:04:06.516	$GPGGA,110407,2437.7283,N,08050.8465,W,1,10,1.5,16,M,,M,,*6F
06/14/2015	11:04:07.565	$GPGGA,110408,2437.7280,N,08050.8468,W,1,10,1.5,16,M,,M,,*6E
06/14/2015	11:04:08.525	$GPGGA,110409,2437.7278,N,08050.8469,W,1,10,1.5,16,M,,M,,*69
06/14/2015	11:04:09.525	$GPGGA,110410,2437.7276,N,08050.8473,W,1,10,1.5,16,M,,M,,*64
06/14/2015	11:04:10.505	$GPGGA,110411,2437.7274,N,08050.8477,W,1,10,1.5,16,M,,M,,*63
06/14/2015	11:04:11.506	$GPGGA,110412,2437.7272,N,08050.8480,W,1,10,1.5,16,M,,M,,*6E
06/14/2015	11:04:12.515	$GPGGA,110413,2437.7269,N,08050.8482,W,1,10,1.8,16,M,,M,,*6A
06/14/2015	11:04:13.535	$GPGGA,110414,2437.7265,N,08050.8483,W,1,10,1.5,16,M,,M,,*6D
06/14/2015	11:04:14.499	$GPGGA,110415,2437.7263,N,08050.8490,W,1,10,1.6,16,M,,M,,*6B
06/14/2015	11:04:15.516	$GPGGA,110416,2437.7260,N,08050.8494,W,1,10,1.5,16,M,,M,,*6C
06/14/2015	11:04:16.506	$GPGGA,110417,2437.7256,N,08050.8497,W,1,10,1.5,16,M,,M,,*6B
06/14/2015	11:04:17.506	$GPGGA,110418,2437.7254,N,08050.8501,W,1,10,1.5,16,M,,M,,*68
06/14/2015	11:04:18.496	$GPGGA,110419,2437.7253,N,08050.8506,W,1,10,1.5,16,M,,M,,*69
06/14/2015	11:04:19.626	$GPGGA,110420,2437.7247,N,08050.8509,W,1,10,1.5,16,M,,M,,*69
06/14/2015	11:04:20.489	$GPGGA,110421,2437.7243,N,08050.8512,W,1,10,1.5,16,M,,M,,*66
06/14/2015	11:04:21.576	$GPGGA,110422,2437.7240,N,08050.8519,W,1,10,1.5,16,M,,M,,*6D
06/14/2015	11:04:22.499	$GPGGA,110423,2437.7238,N,08050.8522,W,1,10,1.5,16,M,,M,,*6B
06/14/2015	11:04:23.516	$GPGGA,110424,2437.7232,N,08050.8524,W,1,10,1.5,16,M,,M,,*60
06/14/2015	11:04:24.491	$GPGGA,110425,2437.7229,N,08050.8530,W,1,10,1.8,16,M,,M,,*63
06/14/2015	11:04:25.586	$GPGGA,110426,2437.7226,N,08050.8533,W,1,10,1.5,16,M,,M,,*61
06/14/2015	11:04:26.586	$GPGGA,110427,2437.7221,N,08050.8535,W,1,10,1.5,16,M,,M,,*61
06/14/2015	11:04:27.605	$GPGGA,110428,2437.7216,N,08050.8541,W,1,10,1.5,16,M,,M,,*69
06/14/2015	11:04:28.575	$GPGGA,110429,2437.7213,N,08050.8546,W,1,10,1.5,16,M,,M,,*6A
06/14/2015	11:04:29.588	$GPGGA,110430,2437.7208,N,08050.8549,W,1,10,1.5,16,M,,M,,*67
06/14/2015	11:04:30.475	$GPGGA,110431,2437.7203,N,08050.8555,W,1,10,1.8,16,M,,M,,*6D
06/14/2015	11:04:31.475	$GPGGA,110432,2437.7200,N,08050.8559,W,1,10,1.5,16,M,,M,,*6C
06/14/2015	11:04:32.566	$GPGGA,110433,2437.7195,N,08050.8563,W,1,10,2.0,16,M,,M,,*6D
06/14/2015	11:04:33.566	$GPGGA,110434,2437.7188,N,08050.8566,W,1,10,1.5,16,M,,M,,*65
06/14/2015	11:04:34.566	$GPGGA,110435,2437.7184,N,08050.8570,W,1,10,1.5,16,M,,M,,*6F
06/14/2015	11:04:35.598	$GPGGA,110436,2437.7181,N,08050.8576,W,1,10,1.5,16,M,,M,,*6F
06/14/2015	11:04:36.566	$GPGGA,110437,2437.7177,N,08050.8580,W,1,10,1.5,16,M,,M,,*6E
06/14/2015	11:04:37.546	$GPGGA,110438,2437.7173,N,08050.8584,W,1,10,1.5,16,M,,M,,*61
06/14/2015	11:04:38.556	$GPGGA,110439,2437.7167,N,08050.8587,W,1,10,1.5,16,M,,M,,*66
06/14/2015	11:04:39.576	$GPGGA,110440,2437.7166,N,08050.8594,W,1,10,1.5,16,M,,M,,*6B
06/14/2015	11:04:40.556	$GPGGA,110441,2437.7161,N,08050.8598,W,1,10,1.5,16,M,,M,,*61
06/14/2015	11:04:41.546	$GPGGA,110442,2437.7156,N,08050.8598,W,1,10,1.5,16,M,,M,,*66
06/14/2015	11:04:42.545	$GPGGA,110443,2437.7151,N,08050.8605,W,1,10,1.8,16,M,,M,,*6A
06/14/2015	11:04:43.575	$GPGGA,110444,2437.7148,N,08050.8610,W,1,10,1.5,16,M,,M,,*6C
06/14/2015	11:04:44.545	$GPGGA,110445,2437.7144,N,08050.8613,W,1,10,1.5,16,M,,M,,*62
06/14/2015	11:04:45.525	$GPGGA,110446,2437.7138,N,08050.8616,W,1,10,1.5,16,M,,M,,*6F
06/14/2015	11:04:46.535	$GPGGA,110447,2437.7135,N,08050.8623,W,1,10,1.5,16,M,,M,,*65
06/14/2015	11:04:47.565	$GPGGA,110448,2437.7132,N,08050.8627,W,1,10,1.5,16,M,,M,,*69
06/14/2015	11:04:48.535	$GPGGA,110449,2437.7127,N,08050.8629,W,1,10,1.5,16,M,,M,,*62
06/14/2015	11:04:49.526	$GPGGA,110450,2437.7124,N,08050.8634,W,1,10,1.5,16,M,,M,,*65
06/14/2015	11:04:50.536	$GPGGA,110451,2437.7121,N,08050.8639,W,1,10,1.5,17,M,,M,,*6D
06/14/2015	11:04:51.556	$GPGGA,110452,2437.7116,N,08050.8643,W,1,10,1.5,17,M,,M,,*67
06/14/2015	11:04:52.526	$GPGGA,110453,2437.7110,N,08050.8646,W,1,10,1.5,17,M,,M,,*65
06/14/2015	11:04:53.546	$GPGGA,110454,2437.7108,N,08050.8652,W,1,10,1.5,17,M,,M,,*6E
06/14/2015	11:04:54.516	$GPGGA,110455,2437.7104,N,08050.8657,W,1,10,1.5,17,M,,M,,*66
06/14/2015	11:04:55.556	$GPGGA,110456,2437.7101,N,08050.8660,W,1,10,1.5,17,M,,M,,*64
06/14/2015	11:04:56.516	$GPGGA,110457,2437.7097,N,08050.8665,W,1,10,1.5,17,M,,M,,*6E
06/14/2015	11:04:57.506	$GPGGA,110458,2437.7092,N,08050.8670,W,1,10,1.5,17,M,,M,,*60
06/14/2015	11:04:58.526	$GPGGA,110459,2437.7087,N,08050.8675,W,1,10,1.5,17,M,,M,,*60
06/14/2015	11:04:59.546	$GPGGA,110500,2437.7083,N,08050.8681,W,1,10,1.5,17,M,,M,,*62
06/14/2015	11:05:00.515	$GPGGA,110501,2437.7079,N,08050.8685,W,1,10,1.5,17,M,,M,,*62
06/14/2015	11:05:01.525	$GPGGA,110502,2437.7076,N,08050.8689,W,1,10,1.5,17,M,,M,,*62
06/14/2015	11:05:02.505	$GPGGA,110503,2437.7072,N,08050.8696,W,1,10,1.8,17,M,,M,,*64
06/14/2015	11:05:03.665	$GPGGA,110504,2437.7070,N,08050.8701,W,1,9,1.8,17,M,,M,,*56
06/14/2015	11:05:04.505	$GPGGA,110505,2437.7066,N,08050.8707,W,1,9,1.8,17,M,,M,,*56
06/14/2015	11:05:05.635	$GPGGA,110506,2437.7062,N,08050.8710,W,1,10,1.5,17,M,,M,,*62
06/14/2015	11:05:06.496	$GPGGA,110507,2437.7061,N,08050.8717,W,1,10,1.5,17,M,,M,,*67
06/14/2015	11:05:07.526	$GPGGA,110508,2437.7059,N,08050.8722,W,1,9,1.8,17,M,,M,,*50
06/14/2015	11:05:08.496	$GPGGA,110509,2437.7054,N,08050.8728,W,1,9,1.8,17,M,,M,,*56
06/14/2015	11:05:09.616	$GPGGA,110510,2437.7051,N,08050.8735,W,1,10,1.5,17,M,,M,,*62
06/14/2015	11:05:10.576	$GPGGA,110511,2437.7048,N,08050.8741,W,1,10,1.5,17,M,,M,,*68
06/14/2015	11:05:11.666	$GPGGA,110512,2437.7045,N,08050.8747,W,1,10,1.5,17,M,,M,,*60
06/14/2015	11:05:12.496	$GPGGA,110513,2437.7041,N,08050.8753,W,1,10,1.5,17,M,,M,,*60
06/14/2015	11:05:13.616	$GPGGA,110514,2437.7037,N,08050.8757,W,1,10,1.5,17,M,,M,,*62
06/14/2015	11:05:14.487	$GPGGA,110515,2437.7034,N,08050.8764,W,1,10,1.5,17,M,,M,,*60
06/14/2015	11:05:15.476	$GPGGA,110516,2437.7031,N,08050.8772,W,1,9,1.6,17,M,,M,,*5A
06/14/2015	11:05:16.489	$GPGGA,110517,2437.7027,N,08050.8777,W,1,9,1.6,17,M,,M,,*59
06/14/2015	11:05:17.625	$GPGGA,110518,2437.7023,N,08050.8783,W,1,9,1.6,17,M,,M,,*59
06/14/2015	11:05:18.565	$GPGGA,110519,2437.7020,N,08050.8790,W,1,9,1.5,17,M,,M,,*5A
06/14/2015	11:05:19.635	$GPGGA,110520,2437.7018,N,08050.8797,W,1,10,1.5,17,M,,M,,*64
06/14/2015	11:05:20.555	$GPGGA,110521,2437.7014,N,08050.8802,W,1,10,1.5,17,M,,M,,*6A
06/14/2015	11:05:21.905	$GPGGA,110522,2437.7010,N,08050.8808,W,1,10,1.5,17,M,,M,,*67
06/14/2015	11:05:22.555	$GPGGA,110523,2437.7007,N,08050.8815,W,1,10,1.5,17,M,,M,,*6C
06/14/2015	11:05:23.655	$GPGGA,110524,2437.7004,N,08050.8819,W,1,10,1.5,17,M,,M,,*64
06/14/2015	11:05:24.546	$GPGGA,110525,2437.7001,N,08050.8826,W,1,10,1.5,17,M,,M,,*6C
06/14/2015	11:05:25.596	$GPGGA,110526,2437.6998,N,08050.8834,W,1,10,1.5,17,M,,M,,*64
06/14/2015	11:05:26.896	$GPGGA,110527,2437.6996,N,08050.8842,W,1,10,1.5,18,M,,M,,*65
06/14/2015	11:05:27.606	$GPGGA,110528,2437.6991,N,08050.8848,W,1,10,1.5,18,M,,M,,*67
06/14/2015	11:05:28.546	$GPGGA,110529,2437.6989,N,08050.8855,W,1,10,1.5,18,M,,M,,*63
06/14/2015	11:05:29.636	$GPGGA,110530,2437.6987,N,08050.8862,W,1,10,1.5,18,M,,M,,*61
06/14/2015	11:05:30.606	$GPGGA,110531,2437.6985,N,08050.8869,W,1,10,1.5,18,M,,M,,*69
06/14/2015	11:05:31.596	$GPGGA,110532,2437.6982,N,08050.8874,W,1,10,1.5,18,M,,M,,*61
06/14/2015	11:05:32.596	$GPGGA,110533,2437.6978,N,08050.8883,W,1,10,1.5,18,M,,M,,*6D
06/14/2015	11:05:33.576	$GPGGA,110534,2437.6974,N,08050.8889,W,1,10,1.5,18,M,,M,,*6C
06/14/2015	11:05:34.588	$GPGGA,110535,2437.6972,N,08050.8898,W,1,10,1.5,18,M,,M,,*6B
06/14/2015	11:05:35.635	$GPGGA,110536,2437.6971,N,08050.8905,W,1,10,1.5,18,M,,M,,*6E
06/14/2015	11:05:36.535	$GPGGA,110537,2437.6967,N,08050.8909,W,1,10,1.5,18,M,,M,,*64
06/14/2015	11:05:37.595	$GPGGA,110538,2437.6964,N,08050.8916,W,1,10,1.5,18,M,,M,,*66
06/14/2015	11:05:38.586	$GPGGA,110539,2437.6962,N,08050.8923,W,1,10,1.5,18,M,,M,,*67
06/14/2015	11:05:39.635	$GPGGA,110540,2437.6960,N,08050.8930,W,1,10,1.5,19,M,,M,,*68
06/14/2015	11:05:40.515	$GPGGA,110541,2437.6955,N,08050.8936,W,1,10,1.5,19,M,,M,,*69
06/14/2015	11:05:41.556	$GPGGA,110542,2437.6953,N,08050.8945,W,1,10,1.5,19,M,,M,,*68
06/14/2015	11:05:42.516	$GPGGA,110543,2437.6951,N,08050.8953,W,1,10,1.5,19,M,,M,,*6C
06/14/2015	11:05:43.576	$GPGGA,110544,2437.6949,N,08050.8959,W,1,10,1.5,19,M,,M,,*68
06/14/2015	11:05:44.576	$GPGGA,110545,2437.6944,N,08050.8965,W,1,10,1.5,19,M,,M,,*6B
06/14/2015	11:05:45.536	$GPGGA,110546,2437.6943,N,08050.8974,W,1,10,1.5,19,M,,M,,*6F
06/14/2015	11:05:46.506	$GPGGA,110547,2437.6942,N,08050.8979,W,1,10,1.5,19,M,,M,,*62
06/14/2015	11:05:47.586	$GPGGA,110548,2437.6937,N,08050.8985,W,1,10,1.5,18,M,,M,,*6D
06/14/2015	11:05:48.556	$GPGGA,110549,2437.6935,N,08050.8992,W,1,10,1.5,18,M,,M,,*68
06/14/2015	11:05:49.536	$GPGGA,110550,2437.6933,N,08050.9001,W,1,10,1.5,18,M,,M,,*64
06/14/2015	11:05:50.566	$GPGGA,110551,2437.6929,N,08050.9008,W,1,10,1.5,18,M,,M,,*67
06/14/2015	11:05:51.616	$GPGGA,110552,2437.6925,N,08050.9015,W,1,10,1.5,18,M,,M,,*64
06/14/2015	11:05:52.566	$GPGGA,110553,2437.6924,N,08050.9024,W,1,10,1.5,18,M,,M,,*66
06/14/2015	11:05:53.535	$GPGGA,110554,2437.6924,N,08050.9030,W,1,10,1.5,18,M,,M,,*64
06/14/2015	11:05:54.555	$GPGGA,110555,2437.6918,N,08050.9036,W,1,10,1.5,18,M,,M,,*6C
06/14/2015	11:05:55.605	$GPGGA,110556,2437.6917,N,08050.9043,W,1,10,1.5,18,M,,M,,*62
06/14/2015	11:05:56.555	$GPGGA,110557,2437.6914,N,08050.9050,W,1,10,1.5,18,M,,M,,*62
06/14/2015	11:05:57.475	$GPGGA,110558,2437.6910,N,08050.9057,W,1,10,1.5,18,M,,M,,*6E
06/14/2015	11:05:58.545	$GPGGA,110559,2437.6907,N,08050.9065,W,1,10,1.5,18,M,,M,,*68
06/14/2015	11:05:59.666	$GPGGA,110600,2437.6906,N,08050.9073,W,1,10,1.5,18,M,,M,,*61
06/14/2015	11:06:00.546	$GPGGA,110601,2437.6903,N,08050.9080,W,1,10,1.5,18,M,,M,,*69
06/14/2015	11:06:01.616	$GPGGA,110602,2437.6900,N,08050.9086,W,1,10,1.6,18,M,,M,,*6C
06/14/2015	11:06:02.576	$GPGGA,110603,2437.6899,N,08050.9093,W,1,10,1.5,18,M,,M,,*6B
06/14/2015	11:06:03.546	$GPGGA,110604,2437.6897,N,08050.9100,W,1,10,1.5,18,M,,M,,*69
06/14/2015	11:06:04.576	$GPGGA,110605,2437.6893,N,08050.9108,W,1,10,1.5,18,M,,M,,*64
06/14/2015	11:06:05.566	$GPGGA,110606,2437.6890,N,08050.9116,W,1,10,1.5,17,M,,M,,*64
06/14/2015	11:06:06.536	$GPGGA,110607,2437.6888,N,08050.9124,W,1,10,1.6,17,M,,M,,*6E
06/14/2015	11:06:07.596	$GPGGA,110608,2437.6888,N,08050.9133,W,1,9,1.5,17,M,,M,,*5C
06/14/2015	11:06:08.556	$GPGGA,110609,2437.6885,N,08050.9140,W,1,9,1.5,17,M,,M,,*54
06/14/2015	11:06:09.556	$GPGGA,110610,2437.6882,N,08050.9147,W,1,10,1.5,17,M,,M,,*64
06/14/2015	11:06:10.565	$GPGGA,110611,2437.6879,N,08050.9152,W,1,10,1.5,17,M,,M,,*65
06/14/2015	11:06:11.575	$GPGGA,110612,2437.6877,N,08050.9160,W,1,10,1.5,17,M,,M,,*69
06/14/2015	11:06:12.565	$GPGGA,110613,2437.6872,N,08050.9166,W,1,10,1.5,17,M,,M,,*6B
06/14/2015	11:06:13.555	$GPGGA,110614,2437.6868,N,08050.9173,W,1,10,1.5,17,M,,M,,*63
06/14/2015	11:06:14.575	$GPGGA,110615,2437.6867,N,08050.9183,W,1,10,1.7,17,M,,M,,*60
06/14/2015	11:06:15.575	$GPGGA,110616,2437.6866,N,08050.9189,W,1,9,1.5,17,M,,M,,*52
06/14/2015	11:06:16.556	$GPGGA,110617,2437.6866,N,08050.9189,W,1,9,1.5,17,M,,M,,*53
06/14/2015	11:06:17.556	$GPGGA,110618,2437.6856,N,08050.9199,W,1,10,1.5,16,M,,M,,*67
06/14/2015	11:06:18.546	$GPGGA,110619,2437.6855,N,08050.9207,W,1,10,1.5,16,M,,M,,*61
06/14/2015	11:06:19.590	$GPGGA,110620,2437.6853,N,08050.9214,W,1,10,1.5,16,M,,M,,*6F
06/14/2015	11:06:20.546	$GPGGA,110621,2437.6848,N,08050.9220,W,1,10,1.5,16,M,,M,,*63
06/14/2015	11:06:21.526	$GPGGA,110622,2437.6848,N,08050.9220,W,1,10,1.5,16,M,,M,,*60
06/14/2015	11:06:22.546	$GPGGA,110623,2437.6843,N,08050.9234,W,1,10,1.5,16,M,,M,,*6F
06/14/2015	11:06:23.566	$GPGGA,110624,2437.6841,N,08050.9241,W,1,10,1.5,16,M,,M,,*68
06/14/2015	11:06:24.526	$GPGGA,110625,2437.6841,N,08050.9241,W,1,10,1.5,16,M,,M,,*69
06/14/2015	11:06:25.536	$GPGGA,110626,2437.6833,N,08050.9253,W,1,10,1.5,16,M,,M,,*6C
06/14/2015	11:06:26.536	$GPGGA,110627,2437.6831,N,08050.9260,W,1,10,1.5,16,M,,M,,*6F
06/14/2015	11:06:27.555	$GPGGA,110628,2437.6827,N,08050.9267,W,1,10,1.5,16,M,,M,,*60
06/14/2015	11:06:28.546	$GPGGA,110629,2437.6824,N,08050.9274,W,1,10,1.5,16,M,,M,,*60
06/14/2015	11:06:29.555	$GPGGA,110630,2437.6823,N,08050.9281,W,1,10,1.5,16,M,,M,,*65
06/14/2015	11:06:30.525	$GPGGA,110631,2437.6823,N,08050.9281,W,1,10,1.5,16,M,,M,,*64
06/14/2015	11:06:31.535	$GPGGA,110632,2437.6814,N,08050.9293,W,1,10,1.5,16,M,,M,,*60
06/14/2015	11:06:32.605	$GPGGA,110633,2437.6812,N,08050.9301,W,1,10,1.5,16,M,,M,,*6D
06/14/2015	11:06:33.635	$GPGGA,110634,2437.6810,N,08050.9308,W,1,10,1.5,16,M,,M,,*61
06/14/2015	11:06:34.546	$GPGGA,110635,2437.6806,N,08050.9314,W,1,10,1.5,16,M,,M,,*6A
06/14/2015	11:06:35.566	$GPGGA,110636,2437.6803,N,08050.9321,W,1,10,1.5,16,M,,M,,*6A
06/14/2015	11:06:36.626	$GPGGA,110637,2437.6801,N,08050.9328,W,1,10,1.5,16,M,,M,,*60
06/14/2015	11:06:37.496	$GPGGA,110638,2437.6798,N,08050.9335,W,1,10,1.5,16,M,,M,,*6C
06/14/2015	11:06:38.546	$GPGGA,110639,2437.6798,N,08050.9335,W,1,10,1.5,16,M,,M,,*6D
06/14/2015	11:06:39.526	$GPGGA,110640,2437.6792,N,08050.9348,W,1,10,1.5,16,M,,M,,*63
06/14/2015	11:06:40.616	$GPGGA,110641,2437.6790,N,08050.9355,W,1,10,1.5,16,M,,M,,*6C
06/14/2015	11:06:41.496	$GPGGA,110642,2437.6785,N,08050.9361,W,1,10,1.5,16,M,,M,,*6C
06/14/2015	11:06:42.606	$GPGGA,110643,2437.6783,N,08050.9368,W,1,10,1.5,16,M,,M,,*62
06/14/2015	11:06:43.908	$GPGGA,110644,2437.6780,N,08050.9375,W,1,10,1.5,16,M,,M,,*6A
06/14/2015	11:06:44.506	$GPGGA,110645,2437.6780,N,08050.9375,W,1,10,1.5,16,M,,M,,*6B
06/14/2015	11:06:45.575	$GPGGA,110646,2437.6773,N,08050.9389,W,1,9,1.8,16,M,,M,,*52
06/14/2015	11:06:46.586	$GPGGA,110647,2437.6770,N,08050.9397,W,1,9,1.5,16,M,,M,,*52
06/14/2015	11:06:47.625	$GPGGA,110648,2437.6766,N,08050.9404,W,1,10,1.5,16,M,,M,,*6F
06/14/2015	11:06:48.602	$GPGGA,110649,2437.6762,N,08050.9411,W,1,10,1.5,16,M,,M,,*6E
06/14/2015	11:06:49.605	$GPGGA,110650,2437.6760,N,08050.9418,W,1,10,1.5,16,M,,M,,*6D
06/14/2015	11:06:50.575	$GPGGA,110651,2437.6758,N,08050.9426,W,1,10,1.5,16,M,,M,,*6A
06/14/2015	11:06:51.616	$GPGGA,110652,2437.6754,N,08050.9431,W,1,10,1.5,16,M,,M,,*63
06/14/2015	11:06:52.566	$GPGGA,110653,2437.6750,N,08050.9437,W,1,10,1.5,16,M,,M,,*60
06/14/2015	11:06:53.586	$GPGGA,110654,2437.6747,N,08050.9444,W,1,10,1.5,16,M,,M,,*65
06/14/2015	11:06:55.646	$GPGGA,110656,2437.6743,N,08050.9460,W,1,10,1.5,16,M,,M,,*65
06/14/2015	11:06:56.566	$GPGGA,110657,2437.6738,N,08050.9466,W,1,10,1.7,16,M,,M,,*6C
06/14/2015	11:06:57.576	$GPGGA,110658,2437.6736,N,08050.9472,W,1,10,1.5,16,M,,M,,*6A
06/14/2015	11:06:58.566	$GPGGA,110659,2437.6733,N,08050.9480,W,1,10,1.5,16,M,,M,,*63
06/14/2015	11:06:59.576	$GPGGA,110700,2437.6731,N,08050.9487,W,1,10,1.5,16,M,,M,,*6B
06/14/2015	11:07:00.566	$GPGGA,110701,2437.6726,N,08050.9492,W,1,10,1.5,16,M,,M,,*68
06/14/2015	11:07:01.546	$GPGGA,110702,2437.6721,N,08050.9499,W,1,10,1.5,16,M,,M,,*67
06/14/2015	11:07:02.565	$GPGGA,110703,2437.6719,N,08050.9508,W,1,10,1.5,16,M,,M,,*64
06/14/2015	11:07:03.576	$GPGGA,110704,2437.6718,N,08050.9516,W,1,10,1.5,16,M,,M,,*6D
06/14/2015	11:07:04.545	$GPGGA,110705,2437.6714,N,08050.9521,W,1,10,1.5,16,M,,M,,*64
06/14/2015	11:07:05.575	$GPGGA,110706,2437.6711,N,08050.9527,W,1,10,1.5,16,M,,M,,*64
06/14/2015	11:07:06.545	$GPGGA,110707,2437.6707,N,08050.9534,W,1,10,1.7,16,M,,M,,*62
06/14/2015	11:07:07.555	$GPGGA,110708,2437.6705,N,08050.9542,W,1,10,1.5,16,M,,M,,*6C
06/14/2015	11:07:08.545	$GPGGA,110709,2437.6702,N,08050.9550,W,1,10,1.5,16,M,,M,,*69
06/14/2015	11:07:09.527	$GPGGA,110710,2437.6696,N,08050.9556,W,1,10,1.5,16,M,,M,,*6B
06/14/2015	11:07:10.546	$GPGGA,110711,2437.6693,N,08050.9564,W,1,10,1.5,16,M,,M,,*6E
06/14/2015	11:07:11.556	$GPGGA,110712,2437.6693,N,08050.9572,W,1,10,1.5,16,M,,M,,*6A
06/14/2015	11:07:12.536	$GPGGA,110713,2437.6689,N,08050.9578,W,1,10,1.5,16,M,,M,,*6A
06/14/2015	11:07:13.516	$GPGGA,110714,2437.6685,N,08050.9585,W,1,10,1.5,16,M,,M,,*63
06/14/2015	11:07:14.537	$GPGGA,110715,2437.6682,N,08050.9592,W,1,10,1.5,16,M,,M,,*63
06/14/2015	11:07:15.546	$GPGGA,110716,2437.6679,N,08050.9600,W,1,10,1.5,16,M,,M,,*6C
06/14/2015	11:07:16.526	$GPGGA,110717,2437.6675,N,08050.9607,W,1,10,1.5,16,M,,M,,*66
06/14/2015	11:07:17.536	$GPGGA,110718,2437.6673,N,08050.9614,W,1,10,1.5,16,M,,M,,*6D
06/14/2015	11:07:18.506	$GPGGA,110719,2437.6671,N,08050.9621,W,1,10,1.5,16,M,,M,,*68
06/14/2015	11:07:19.546	$GPGGA,110720,2437.6667,N,08050.9628,W,1,10,1.5,16,M,,M,,*6C
06/14/2015	11:07:20.515	$GPGGA,110721,2437.6664,N,08050.9635,W,1,10,1.5,16,M,,M,,*62
06/14/2015	11:07:21.535	$GPGGA,110722,2437.6661,N,08050.9642,W,1,10,1.5,16,M,,M,,*64
06/14/2015	11:07:22.625	$GPGGA,110723,2437.6658,N,08050.9649,W,1,10,1.5,16,M,,M,,*64
06/14/2015	11:07:23.546	$GPGGA,110724,2437.6655,N,08050.9657,W,1,10,1.5,16,M,,M,,*61
06/14/2015	11:07:24.515	$GPGGA,110725,2437.6653,N,08050.9662,W,1,10,1.5,16,M,,M,,*60
06/14/2015	11:07:25.615	$GPGGA,110726,2437.6648,N,08050.9669,W,1,10,1.5,16,M,,M,,*62
06/14/2015	11:07:26.500	$GPGGA,110727,2437.6646,N,08050.9675,W,1,10,1.5,16,M,,M,,*60
06/14/2015	11:07:27.526	$GPGGA,110728,2437.6643,N,08050.9683,W,1,10,1.5,16,M,,M,,*63
06/14/2015	11:07:28.506	$GPGGA,110729,2437.6639,N,08050.9689,W,1,10,1.5,16,M,,M,,*65
06/14/2015	11:07:29.597	$GPGGA,110730,2437.6635,N,08050.9697,W,1,10,1.5,16,M,,M,,*6E
06/14/2015	11:07:30.590	$GPGGA,110731,2437.6632,N,08050.9704,W,1,10,1.5,16,M,,M,,*63
06/14/2015	11:07:31.496	$GPGGA,110732,2437.6629,N,08050.9712,W,1,10,1.5,16,M,,M,,*6D
06/14/2015	11:07:32.576	$GPGGA,110733,2437.6626,N,08050.9719,W,1,10,1.5,16,M,,M,,*68
06/14/2015	11:07:33.476	$GPGGA,110734,2437.6624,N,08050.9726,W,1,10,1.5,16,M,,M,,*61
06/14/2015	11:07:34.576	$GPGGA,110735,2437.6620,N,08050.9733,W,1,10,1.5,16,M,,M,,*60
06/14/2015	11:07:35.626	$GPGGA,110736,2437.6617,N,08050.9740,W,1,10,1.5,16,M,,M,,*63
06/14/2015	11:07:36.588	$GPGGA,110737,2437.6614,N,08050.9747,W,1,10,1.5,16,M,,M,,*66
06/14/2015	11:07:37.565	$GPGGA,110738,2437.6610,N,08050.9755,W,1,9,1.6,16,M,,M,,*55
06/14/2015	11:07:38.565	$GPGGA,110739,2437.6608,N,08050.9763,W,1,9,1.5,16,M,,M,,*5B
06/14/2015	11:07:39.585	$GPGGA,110740,2437.6606,N,08050.9770,W,1,10,1.5,16,M,,M,,*61
06/14/2015	11:07:40.565	$GPGGA,110741,2437.6603,N,08050.9777,W,1,10,1.5,16,M,,M,,*62
06/14/2015	11:07:41.589	$GPGGA,110742,2437.6602,N,08050.9785,W,1,10,1.5,16,M,,M,,*6D
06/14/2015	11:07:42.566	$GPGGA,110743,2437.6599,N,08050.9792,W,1,10,1.5,16,M,,M,,*6B
06/14/2015	11:07:43.600	$GPGGA,110744,2437.6595,N,08050.9799,W,1,10,1.5,16,M,,M,,*6B
06/14/2015	11:07:44.556	$GPGGA,110745,2437.6593,N,08050.9809,W,1,10,1.5,16,M,,M,,*6A
06/14/2015	11:07:45.576	$GPGGA,110746,2437.6591,N,08050.9816,W,1,10,1.5,16,M,,M,,*65
06/14/2015	11:07:46.556	$GPGGA,110747,2437.6589,N,08050.9823,W,1,10,1.5,16,M,,M,,*6B
06/14/2015	11:07:47.606	$GPGGA,110748,2437.6588,N,08050.9831,W,1,10,1.5,16,M,,M,,*66
06/14/2015	11:07:48.566	$GPGGA,110749,2437.6585,N,08050.9837,W,1,10,1.5,16,M,,M,,*6C
06/14/2015	11:07:49.576	$GPGGA,110750,2437.6581,N,08050.9845,W,1,10,1.5,16,M,,M,,*65
06/14/2015	11:07:50.546	$GPGGA,110751,2437.6579,N,08050.9852,W,1,10,1.5,16,M,,M,,*65
06/14/2015	11:07:51.576	$GPGGA,110752,2437.6577,N,08050.9860,W,1,10,1.5,16,M,,M,,*69
06/14/2015	11:07:52.546	$GPGGA,110753,2437.6574,N,08050.9867,W,1,10,1.5,16,M,,M,,*6C
06/14/2015	11:07:53.556	$GPGGA,110754,2437.6571,N,08050.9874,W,1,10,1.5,16,M,,M,,*6C
06/14/2015	11:07:54.546	$GPGGA,110755,2437.6570,N,08050.9881,W,1,10,1.5,16,M,,M,,*66
06/14/2015	11:07:55.545	$GPGGA,110756,2437.6566,N,08050.9889,W,1,10,1.5,16,M,,M,,*6A
06/14/2015	11:07:56.545	$GPGGA,110757,2437.6563,N,08050.9897,W,1,10,1.5,16,M,,M,,*61
06/14/2015	11:07:57.535	$GPGGA,110758,2437.6560,N,08050.9904,W,1,10,1.5,16,M,,M,,*66
06/14/2015	11:07:58.535	$GPGGA,110759,2437.6556,N,08050.9911,W,1,10,1.5,16,M,,M,,*66
06/14/2015	11:07:59.575	$GPGGA,110800,2437.6554,N,08050.9918,W,1,10,1.5,16,M,,M,,*6E
06/14/2015	11:08:00.545	$GPGGA,110801,2437.6552,N,08050.9924,W,1,10,1.5,16,M,,M,,*66
06/14/2015	11:08:01.516	$GPGGA,110802,2437.6548,N,08050.9931,W,1,9,1.7,16,M,,M,,*50
06/14/2015	11:08:02.526	$GPGGA,110803,2437.6544,N,08050.9938,W,1,9,1.5,16,M,,M,,*56
06/14/2015	11:08:03.526	$GPGGA,110804,2437.6541,N,08050.9946,W,1,10,1.5,16,M,,M,,*65
06/14/2015	11:08:04.516	$GPGGA,110805,2437.6536,N,08050.9953,W,1,10,1.5,16,M,,M,,*60
06/14/2015	11:08:05.526	$GPGGA,110806,2437.6534,N,08050.9960,W,1,10,1.5,16,M,,M,,*61
06/14/2015	11:08:06.506	$GPGGA,110807,2437.6531,N,08050.9965,W,1,10,1.5,16,M,,M,,*60
06/14/2015	11:08:07.526	$GPGGA,110808,2437.6530,N,08050.9971,W,1,10,1.5,16,M,,M,,*6B
06/14/2015	11:08:08.516	$GPGGA,110809,2437.6527,N,08050.9978,W,1,10,1.5,16,M,,M,,*65
06/14/2015	11:08:09.496	$GPGGA,110810,2437.6523,N,08050.9986,W,1,9,1.9,16,M,,M,,*5C
06/14/2015	11:08:10.516	$GPGGA,110811,2437.6519,N,08050.9993,W,1,9,1.5,16,M,,M,,*5C
06/14/2015	11:08:11.536	$GPGGA,110812,2437.6516,N,08051.0003,W,1,10,1.5,16,M,,M,,*60
06/14/2015	11:08:12.495	$GPGGA,110813,2437.6513,N,08051.0008,W,1,10,1.5,16,M,,M,,*6F
06/14/2015	11:08:13.487	$GPGGA,110814,2437.6512,N,08051.0014,W,1,10,1.5,16,M,,M,,*64
06/14/2015	11:08:14.515	$GPGGA,110815,2437.6512,N,08051.0020,W,1,10,1.7,16,M,,M,,*60
06/14/2015	11:08:15.525	$GPGGA,110816,2437.6509,N,08051.0027,W,1,10,1.5,16,M,,M,,*6C
06/14/2015	11:08:16.586	$GPGGA,110817,2437.6505,N,08051.0034,W,1,10,1.7,16,M,,M,,*61
06/14/2015	11:08:17.595	$GPGGA,110818,2437.6501,N,08051.0043,W,1,10,1.5,16,M,,M,,*68
06/14/2015	11:08:18.587	$GPGGA,110819,2437.6498,N,08051.0051,W,1,10,1.5,16,M,,M,,*6B
06/14/2015	11:08:19.606	$GPGGA,110820,2437.6495,N,08051.0058,W,1,9,1.7,16,M,,M,,*5F
06/14/2015	11:08:20.576	$GPGGA,110821,2437.6496,N,08051.0065,W,1,9,1.7,16,M,,M,,*53
06/14/2015	11:08:21.602	$GPGGA,110822,2437.6494,N,08051.0070,W,1,10,1.5,16,M,,M,,*6C
06/14/2015	11:08:22.486	$GPGGA,110823,2437.6489,N,08051.0076,W,1,10,1.5,16,M,,M,,*67
06/14/2015	11:08:23.626	$GPGGA,110824,2437.6485,N,08051.0083,W,1,10,1.5,16,M,,M,,*66
06/14/2015	11:08:24.576	$GPGGA,110825,2437.6483,N,08051.0092,W,1,10,1.9,16,M,,M,,*6D
06/14/2015	11:08:25.616	$GPGGA,110826,2437.6479,N,08051.0101,W,1,10,1.5,16,M,,M,,*6C
06/14/2015	11:08:26.476	$GPGGA,110827,2437.6476,N,08051.0105,W,1,10,1.7,16,M,,M,,*64
06/14/2015	11:08:27.616	$GPGGA,110828,2437.6473,N,08051.0110,W,1,10,1.5,16,M,,M,,*68
06/14/2015	11:08:28.566	$GPGGA,110829,2437.6471,N,08051.0116,W,1,10,1.5,16,M,,M,,*6D
06/14/2015	11:08:29.588	$GPGGA,110830,2437.6467,N,08051.0119,W,1,10,1.5,16,M,,M,,*6D
06/14/2015	11:08:30.565	$GPGGA,110831,2437.6463,N,08051.0127,W,1,10,1.5,16,M,,M,,*65
06/14/2015	11:08:31.575	$GPGGA,110832,2437.6461,N,08051.0134,W,1,9,1.9,17,M,,M,,*53
06/14/2015	11:08:32.565	$GPGGA,110833,2437.6458,N,08051.0141,W,1,9,1.5,17,M,,M,,*56
06/14/2015	11:08:33.555	$GPGGA,110834,2437.6458,N,08051.0148,W,1,10,1.5,17,M,,M,,*60
06/14/2015	11:08:34.565	$GPGGA,110835,2437.6454,N,08051.0152,W,1,10,1.7,17,M,,M,,*64
06/14/2015	11:08:35.598	$GPGGA,110836,2437.6452,N,08051.0157,W,1,10,1.5,17,M,,M,,*66
06/14/2015	11:08:36.546	$GPGGA,110837,2437.6451,N,08051.0163,W,1,10,1.5,17,M,,M,,*63
06/14/2015	11:08:37.566	$GPGGA,110838,2437.6447,N,08051.0171,W,1,9,1.9,17,M,,M,,*5C
06/14/2015	11:08:38.546	$GPGGA,110839,2437.6443,N,08051.0177,W,1,9,1.5,17,M,,M,,*53
06/14/2015	11:08:39.576	$GPGGA,110840,2437.6440,N,08051.0184,W,1,10,1.5,17,M,,M,,*6A
06/14/2015	11:08:40.546	$GPGGA,110841,2437.6438,N,08051.0191,W,1,10,1.5,17,M,,M,,*60
06/14/2015	11:08:41.536	$GPGGA,110842,2437.6437,N,08051.0197,W,1,10,1.5,17,M,,M,,*6A
06/14/2015	11:08:42.546	$GPGGA,110843,2437.6434,N,08051.0203,W,1,10,1.5,18,M,,M,,*69
06/14/2015	11:08:43.546	$GPGGA,110844,2437.6430,N,08051.0210,W,1,10,1.5,18,M,,M,,*68
06/14/2015	11:08:44.546	$GPGGA,110845,2437.6429,N,08051.0217,W,1,10,1.5,18,M,,M,,*66
06/14/2015	11:08:45.526	$GPGGA,110846,2437.6425,N,08051.0225,W,1,10,1.5,18,M,,M,,*68
06/14/2015	11:08:46.546	$GPGGA,110847,2437.6422,N,08051.0231,W,1,10,1.5,18,M,,M,,*6B
06/14/2015	11:08:47.565	$GPGGA,110848,2437.6419,N,08051.0238,W,1,10,1.5,18,M,,M,,*65
06/14/2015	11:08:48.535	$GPGGA,110849,2437.6416,N,08051.0242,W,1,10,1.5,18,M,,M,,*66
06/14/2015	11:08:49.555	$GPGGA,110850,2437.6413,N,08051.0249,W,1,10,1.5,18,M,,M,,*60
06/14/2015	11:08:50.525	$GPGGA,110851,2437.6411,N,08051.0258,W,1,10,1.5,18,M,,M,,*63
06/14/2015	11:08:51.565	$GPGGA,110852,2437.6405,N,08051.0265,W,1,10,1.5,18,M,,M,,*6B
06/14/2015	11:08:52.525	$GPGGA,110853,2437.6401,N,08051.0274,W,1,10,1.5,18,M,,M,,*6E
06/14/2015	11:08:53.525	$GPGGA,110854,2437.6400,N,08051.0280,W,1,10,1.5,18,M,,M,,*63
06/14/2015	11:08:54.636	$GPGGA,110855,2437.6397,N,08051.0287,W,1,10,1.5,18,M,,M,,*6C
06/14/2015	11:08:55.646	$GPGGA,110856,2437.6393,N,08051.0293,W,1,10,1.5,18,M,,M,,*6E
06/14/2015	11:08:56.505	$GPGGA,110857,2437.6389,N,08051.0300,W,1,10,1.5,18,M,,M,,*6F
06/14/2015	11:08:57.536	$GPGGA,110858,2437.6385,N,08051.0308,W,1,10,1.5,18,M,,M,,*64
06/14/2015	11:08:58.606	$GPGGA,110859,2437.6383,N,08051.0318,W,1,10,1.5,18,M,,M,,*62
06/14/2015	11:08:59.536	$GPGGA,110900,2437.6379,N,08051.0323,W,1,10,1.5,18,M,,M,,*62
06/14/2015	11:09:00.605	$GPGGA,110901,2437.6376,N,08051.0332,W,1,10,1.5,18,M,,M,,*6C
06/14/2015	11:09:01.646	$GPGGA,110902,2437.6375,N,08051.0339,W,1,10,1.5,18,M,,M,,*67
06/14/2015	11:09:02.616	$GPGGA,110903,2437.6371,N,08051.0345,W,1,10,1.5,18,M,,M,,*69
06/14/2015	11:09:03.626	$GPGGA,110904,2437.6366,N,08051.0351,W,1,10,1.5,18,M,,M,,*6D
06/14/2015	11:09:04.506	$GPGGA,110905,2437.6364,N,08051.0358,W,1,10,1.5,18,M,,M,,*67
06/14/2015	11:09:05.579	$GPGGA,110906,2437.6361,N,08051.0368,W,1,10,1.5,18,M,,M,,*62
06/14/2015	11:09:06.495	$GPGGA,110907,2437.6358,N,08051.0374,W,1,10,1.5,18,M,,M,,*64
06/14/2015	11:09:07.605	$GPGGA,110908,2437.6353,N,08051.0381,W,1,10,1.5,17,M,,M,,*65
06/14/2015	11:09:08.485	$GPGGA,110909,2437.6351,N,08051.0388,W,1,10,1.5,17,M,,M,,*6F
06/14/2015	11:09:09.577	$GPGGA,110910,2437.6349,N,08051.0397,W,1,10,1.5,17,M,,M,,*60
06/14/2015	11:09:10.476	$GPGGA,110911,2437.6346,N,08051.0401,W,1,10,1.5,17,M,,M,,*66
06/14/2015	11:09:11.588	$GPGGA,110912,2437.6342,N,08051.0408,W,1,10,1.5,17,M,,M,,*68
06/14/2015	11:09:12.565	$GPGGA,110913,2437.6340,N,08051.0417,W,1,10,1.5,17,M,,M,,*65
06/14/2015	11:09:13.595	$GPGGA,110914,2437.6337,N,08051.0424,W,1,10,1.5,17,M,,M,,*62
06/14/2015	11:09:14.565	$GPGGA,110915,2437.6333,N,08051.0431,W,1,10,1.5,17,M,,M,,*63
06/14/2015	11:09:15.575	$GPGGA,110916,2437.6330,N,08051.0439,W,1,10,1.5,17,M,,M,,*6B
06/14/2015	11:09:18.605	$GPGGA,110917,2437.6328,N,08051.0446,W,1,10,1.5,17,M,,M,,*6B
06/14/2015	11:09:18.665	$GPGGA,110919,2437.6321,N,08051.0460,W,1,10,1.7,17,M,,M,,*6A
06/14/2015	11:09:19.578	$GPGGA,110920,2437.6318,N,08051.0467,W,1,10,1.5,17,M,,M,,*6F
06/14/2015	11:09:20.545	$GPGGA,110921,2437.6314,N,08051.0473,W,1,10,1.5,17,M,,M,,*67
06/14/2015	11:09:21.565	$GPGGA,110922,2437.6312,N,08051.0480,W,1,10,1.5,17,M,,M,,*6E
06/14/2015	11:09:22.555	$GPGGA,110923,2437.6310,N,08051.0488,W,1,10,1.5,17,M,,M,,*65
06/14/2015	11:09:23.576	$GPGGA,110924,2437.6306,N,08051.0495,W,1,10,1.5,17,M,,M,,*69
06/14/2015	11:09:24.545	$GPGGA,110925,2437.6302,N,08051.0502,W,1,10,1.5,17,M,,M,,*63
06/14/2015	11:09:25.545	$GPGGA,110926,2437.6299,N,08051.0510,W,1,10,1.5,17,M,,M,,*60
06/14/2015	11:09:26.545	$GPGGA,110927,2437.6297,N,08051.0517,W,1,10,1.5,17,M,,M,,*68
06/14/2015	11:09:27.565	$GPGGA,110928,2437.6295,N,08051.0524,W,1,9,1.7,17,M,,M,,*5F
06/14/2015	11:09:28.535	$GPGGA,110929,2437.6292,N,08051.0532,W,1,9,1.8,17,M,,M,,*51
06/14/2015	11:09:29.555	$GPGGA,110930,2437.6288,N,08051.0540,W,1,10,1.5,17,M,,M,,*62
06/14/2015	11:09:30.555	$GPGGA,110931,2437.6284,N,08051.0551,W,1,10,1.5,17,M,,M,,*6F
06/14/2015	11:09:31.555	$GPGGA,110932,2437.6281,N,08051.0560,W,1,10,1.5,17,M,,M,,*6B
06/14/2015	11:09:32.535	$GPGGA,110933,2437.6278,N,08051.0568,W,1,10,1.5,17,M,,M,,*64
06/14/2015	11:09:33.515	$GPGGA,110934,2437.6277,N,08051.0576,W,1,10,1.5,17,M,,M,,*63
06/14/2015	11:09:34.515	$GPGGA,110935,2437.6274,N,08051.0582,W,1,10,1.5,17,M,,M,,*6A
06/14/2015	11:09:35.568	$GPGGA,110936,2437.6271,N,08051.0589,W,1,10,1.5,17,M,,M,,*67
06/14/2015	11:09:36.525	$GPGGA,110937,2437.6268,N,08051.0597,W,1,10,1.5,17,M,,M,,*61
06/14/2015	11:09:37.525	$GPGGA,110938,2437.6265,N,08051.0607,W,1,10,1.5,17,M,,M,,*69
06/14/2015	11:09:38.505	$GPGGA,110939,2437.6260,N,08051.0615,W,1,10,1.5,17,M,,M,,*6E
06/14/2015	11:09:39.526	$GPGGA,110940,2437.6256,N,08051.0623,W,1,10,1.5,17,M,,M,,*60
06/14/2015	11:09:40.515	$GPGGA,110941,2437.6256,N,08051.0630,W,1,10,1.5,17,M,,M,,*63
06/14/2015	11:09:41.495	$GPGGA,110942,2437.6254,N,08051.0637,W,1,10,1.5,17,M,,M,,*65
06/14/2015	11:09:42.625	$GPGGA,110943,2437.6250,N,08051.0644,W,1,10,1.5,17,M,,M,,*64
06/14/2015	11:09:43.555	$GPGGA,110944,2437.6245,N,08051.0652,W,1,10,1.5,17,M,,M,,*60
06/14/2015	11:09:44.515	$GPGGA,110945,2437.6242,N,08051.0661,W,1,10,1.5,17,M,,M,,*66
06/14/2015	11:09:45.505	$GPGGA,110946,2437.6239,N,08051.0669,W,1,10,1.5,17,M,,M,,*61
06/14/2015	11:09:46.495	$GPGGA,110947,2437.6235,N,08051.0677,W,1,10,1.5,17,M,,M,,*63
06/14/2015	11:09:47.645	$GPGGA,110948,2437.6234,N,08051.0683,W,1,10,1.5,17,M,,M,,*66
06/14/2015	11:09:48.505	$GPGGA,110949,2437.6231,N,08051.0690,W,1,10,1.5,17,M,,M,,*60
06/14/2015	11:09:49.625	$GPGGA,110950,2437.6227,N,08051.0697,W,1,10,1.9,17,M,,M,,*64
06/14/2015	11:09:50.490	$GPGGA,110951,2437.6221,N,08051.0704,W,1,10,1.9,17,M,,M,,*68
06/14/2015	11:09:51.635	$GPGGA,110952,2437.6218,N,08051.0712,W,1,10,1.5,17,M,,M,,*6A
06/14/2015	11:09:52.495	$GPGGA,110953,2437.6214,N,08051.0719,W,1,10,1.5,17,M,,M,,*6C
06/14/2015	11:09:53.585	$GPGGA,110954,2437.6210,N,08051.0726,W,1,10,1.5,17,M,,M,,*63
06/14/2015	11:09:54.495	$GPGGA,110955,2437.6208,N,08051.0733,W,1,10,1.5,17,M,,M,,*6F
06/14/2015	11:09:55.645	$GPGGA,110956,2437.6205,N,08051.0738,W,1,10,1.5,17,M,,M,,*6A
06/14/2015	11:09:56.485	$GPGGA,110957,2437.6202,N,08051.0742,W,1,10,1.5,17,M,,M,,*61
06/14/2015	11:09:57.595	$GPGGA,110958,2437.6198,N,08051.0751,W,1,8,1.7,17,M,,M,,*57
06/14/2015	11:09:58.583	$GPGGA,110959,2437.6195,N,08051.0760,W,1,8,1.5,17,M,,M,,*5B
06/14/2015	11:09:59.615	$GPGGA,111000,2437.6191,N,08051.0767,W,1,10,1.5,17,M,,M,,*65
06/14/2015	11:10:00.565	$GPGGA,111001,2437.6187,N,08051.0773,W,1,10,1.5,17,M,,M,,*66
06/14/2015	11:10:01.465	$GPGGA,111002,2437.6184,N,08051.0777,W,1,10,1.5,17,M,,M,,*62
06/14/2015	11:10:02.565	$GPGGA,111003,2437.6181,N,08051.0784,W,1,10,1.5,17,M,,M,,*6A
06/14/2015	11:10:03.605	$GPGGA,111004,2437.6178,N,08051.0791,W,1,10,1.5,17,M,,M,,*6F
06/14/2015	11:10:04.555	$GPGGA,111005,2437.6173,N,08051.0795,W,1,10,1.5,17,M,,M,,*61
06/14/2015	11:10:05.575	$GPGGA,111006,2437.6169,N,08051.0802,W,1,10,1.5,17,M,,M,,*68
06/14/2015	11:10:06.555	$GPGGA,111007,2437.6169,N,08051.0810,W,1,10,1.5,17,M,,M,,*6A
06/14/2015	11:10:07.585	$GPGGA,111008,2437.6165,N,08051.0816,W,1,10,2.2,17,M,,M,,*6B
06/14/2015	11:10:08.565	$GPGGA,111009,2437.6161,N,08051.0820,W,1,10,1.8,18,M,,M,,*6D
06/14/2015	11:10:09.565	$GPGGA,111010,2437.6158,N,08051.0824,W,1,9,1.5,18,M,,M,,*5E
06/14/2015	11:10:10.545	$GPGGA,111011,2437.6158,N,08051.0829,W,1,9,1.5,18,M,,M,,*52
06/14/2015	11:10:11.592	$GPGGA,111012,2437.6153,N,08051.0836,W,1,10,1.5,18,M,,M,,*6C
06/14/2015	11:10:12.545	$GPGGA,111013,2437.6149,N,08051.0842,W,1,10,1.5,18,M,,M,,*65
06/14/2015	11:10:13.545	$GPGGA,111014,2437.6145,N,08051.0847,W,1,10,1.5,18,M,,M,,*6B
06/14/2015	11:10:14.546	$GPGGA,111015,2437.6143,N,08051.0853,W,1,10,1.5,18,M,,M,,*69
06/14/2015	11:10:15.565	$GPGGA,111016,2437.6140,N,08051.0860,W,1,10,1.5,18,M,,M,,*69
06/14/2015	11:10:16.535	$GPGGA,111017,2437.6136,N,08051.0864,W,1,10,1.5,18,M,,M,,*6D
06/14/2015	11:10:17.555	$GPGGA,111018,2437.6131,N,08051.0870,W,1,10,1.5,18,M,,M,,*60
06/14/2015	11:10:18.535	$GPGGA,111019,2437.6127,N,08051.0876,W,1,10,1.5,19,M,,M,,*61
06/14/2015	11:10:19.605	$GPGGA,111020,2437.6124,N,08051.0882,W,1,10,1.5,19,M,,M,,*63
06/14/2015	11:10:20.535	$GPGGA,111021,2437.6120,N,08051.0889,W,1,10,1.5,19,M,,M,,*6D
06/14/2015	11:10:21.546	$GPGGA,111022,2437.6115,N,08051.0892,W,1,10,1.6,19,M,,M,,*61
06/14/2015	11:10:23.592	$GPGGA,111024,2437.6107,N,08051.0904,W,1,10,1.6,19,M,,M,,*6A
06/14/2015	11:10:24.545	$GPGGA,111025,2437.6102,N,08051.0910,W,1,10,1.6,19,M,,M,,*6B
06/14/2015	11:10:25.545	$GPGGA,111026,2437.6096,N,08051.0915,W,1,10,1.6,19,M,,M,,*61
06/14/2015	11:10:26.525	$GPGGA,111027,2437.6093,N,08051.0921,W,1,10,1.6,19,M,,M,,*62
06/14/2015	11:10:27.535	$GPGGA,111028,2437.6088,N,08051.0926,W,1,10,1.5,19,M,,M,,*63
06/14/2015	11:10:28.505	$GPGGA,111029,2437.6084,N,08051.0932,W,1,10,1.5,19,M,,M,,*6B
06/14/2015	11:10:29.525	$GPGGA,111030,2437.6078,N,08051.0936,W,1,10,1.5,19,M,,M,,*64
06/14/2015	11:10:30.505	$GPGGA,111031,2437.6075,N,08051.0940,W,1,10,1.9,19,M,,M,,*65
06/14/2015	11:10:31.546	$GPGGA,111032,2437.6069,N,08051.0944,W,1,9,1.5,19,M,,M,,*5B
06/14/2015	11:10:32.515	$GPGGA,111033,2437.6064,N,08051.0948,W,1,9,1.5,19,M,,M,,*5B
06/14/2015	11:10:33.615	$GPGGA,111034,2437.6061,N,08051.0952,W,1,10,1.6,19,M,,M,,*69
06/14/2015	11:10:34.515	$GPGGA,111035,2437.6058,N,08051.0958,W,1,10,1.6,19,M,,M,,*68
06/14/2015	11:10:35.535	$GPGGA,111036,2437.6053,N,08051.0961,W,1,10,1.6,19,M,,M,,*6A
06/14/2015	11:10:36.515	$GPGGA,111037,2437.6046,N,08051.0964,W,1,10,1.9,19,M,,M,,*65
06/14/2015	11:10:37.495	$GPGGA,111038,2437.6042,N,08051.0972,W,1,9,1.6,19,M,,M,,*5E
06/14/2015	11:10:38.525	$GPGGA,111039,2437.6037,N,08051.0977,W,1,9,1.6,19,M,,M,,*58
06/14/2015	11:10:39.597	$GPGGA,111040,2437.6031,N,08051.0982,W,1,10,1.6,19,M,,M,,*62
06/14/2015	11:10:40.505	$GPGGA,111041,2437.6026,N,08051.0988,W,1,10,1.6,19,M,,M,,*6F
06/14/2015	11:10:41.575	$GPGGA,111042,2437.6022,N,08051.0994,W,1,10,1.6,19,M,,M,,*65
06/14/2015	11:10:42.577	$GPGGA,111043,2437.6018,N,08051.0998,W,1,10,1.6,19,M,,M,,*61
06/14/2015	11:10:43.535	$GPGGA,111044,2437.6013,N,08051.1002,W,1,10,1.6,19,M,,M,,*66
06/14/2015	11:10:44.577	$GPGGA,111045,2437.6007,N,08051.1008,W,1,10,1.6,19,M,,M,,*68
06/14/2015	11:10:45.475	$GPGGA,111046,2437.6003,N,08051.1013,W,1,10,1.9,19,M,,M,,*6A
06/14/2015	11:10:46.565	$GPGGA,111047,2437.5997,N,08051.1019,W,1,10,1.9,19,M,,M,,*66
06/14/2015	11:10:47.615	$GPGGA,111048,2437.5992,N,08051.1024,W,1,10,1.6,19,M,,M,,*6D
06/14/2015	11:10:48.565	$GPGGA,111049,2437.5988,N,08051.1030,W,1,10,1.6,19,M,,M,,*62
06/14/2015	11:10:49.566	$GPGGA,111050,2437.5983,N,08051.1034,W,1,10,1.6,19,M,,M,,*65
06/14/2015	11:10:50.586	$GPGGA,111051,2437.5978,N,08051.1040,W,1,10,1.6,19,M,,M,,*63
06/14/2015	11:10:51.595	$GPGGA,111052,2437.5972,N,08051.1044,W,1,10,1.6,19,M,,M,,*6E
06/14/2015	11:10:52.565	$GPGGA,111053,2437.5968,N,08051.1048,W,1,10,1.6,19,M,,M,,*68
06/14/2015	11:10:53.555	$GPGGA,111054,2437.5966,N,08051.1051,W,1,9,1.6,19,M,,M,,*51
06/14/2015	11:10:54.555	$GPGGA,111055,2437.5963,N,08051.1056,W,1,9,1.6,19,M,,M,,*52
06/14/2015	11:10:55.578	$GPGGA,111056,2437.5956,N,08051.1059,W,1,10,1.6,19,M,,M,,*60
06/14/2015	11:10:56.555	$GPGGA,111057,2437.5952,N,08051.1063,W,1,10,1.6,19,M,,M,,*6C
06/14/2015	11:10:57.575	$GPGGA,111058,2437.5949,N,08051.1069,W,1,10,1.6,19,M,,M,,*63
06/14/2015	11:10:58.556	$GPGGA,111059,2437.5945,N,08051.1073,W,1,10,1.9,19,M,,M,,*6A
06/14/2015	11:10:59.575	$GPGGA,111100,2437.5938,N,08051.1080,W,1,9,1.6,19,M,,M,,*56
06/14/2015	11:11:00.545	$GPGGA,111101,2437.5934,N,08051.1084,W,1,9,1.6,19,M,,M,,*5F
06/14/2015	11:11:01.565	$GPGGA,111102,2437.5929,N,08051.1091,W,1,10,1.6,18,M,,M,,*6D
06/14/2015	11:11:02.535	$GPGGA,111103,2437.5925,N,08051.1095,W,1,10,1.6,18,M,,M,,*64
06/14/2015	11:11:03.565	$GPGGA,111104,2437.5919,N,08051.1099,W,1,10,1.6,18,M,,M,,*60
06/14/2015	11:11:04.525	$GPGGA,111105,2437.5914,N,08051.1103,W,1,10,1.6,18,M,,M,,*6E
06/14/2015	11:11:05.525	$GPGGA,111106,2437.5909,N,08051.1109,W,1,10,1.6,18,M,,M,,*6B
06/14/2015	11:11:06.536	$GPGGA,111107,2437.5907,N,08051.1113,W,1,10,1.6,18,M,,M,,*6F
06/14/2015	11:11:07.565	$GPGGA,111108,2437.5902,N,08051.1117,W,1,10,1.6,18,M,,M,,*61
06/14/2015	11:11:08.535	$GPGGA,111109,2437.5898,N,08051.1121,W,1,10,1.6,18,M,,M,,*67
06/14/2015	11:11:09.535	$GPGGA,111110,2437.5893,N,08051.1127,W,1,10,1.6,18,M,,M,,*62
06/14/2015	11:11:10.525	$GPGGA,111111,2437.5888,N,08051.1132,W,1,10,1.6,18,M,,M,,*6D
06/14/2015	11:11:11.555	$GPGGA,111112,2437.5882,N,08051.1135,W,1,10,1.6,18,M,,M,,*63
06/14/2015	11:11:12.525	$GPGGA,111113,2437.5878,N,08051.1142,W,1,10,1.6,18,M,,M,,*67
06/14/2015	11:11:13.505	$GPGGA,111114,2437.5876,N,08051.1149,W,1,10,1.6,18,M,,M,,*65
06/14/2015	11:11:14.625	$GPGGA,111115,2437.5872,N,08051.1152,W,1,10,1.6,18,M,,M,,*6A
06/14/2015	11:11:15.555	$GPGGA,111116,2437.5867,N,08051.1156,W,1,10,1.6,18,M,,M,,*69
06/14/2015	11:11:16.515	$GPGGA,111117,2437.5863,N,08051.1160,W,1,10,1.6,18,M,,M,,*69
06/14/2015	11:11:17.505	$GPGGA,111118,2437.5858,N,08051.1167,W,1,10,1.6,18,M,,M,,*69
06/14/2015	11:11:18.515	$GPGGA,111119,2437.5853,N,08051.1171,W,1,10,1.6,18,M,,M,,*64
06/14/2015	11:11:19.525	$GPGGA,111120,2437.5849,N,08051.1175,W,1,10,1.6,18,M,,M,,*61
06/14/2015	11:11:20.595	$GPGGA,111121,2437.5846,N,08051.1181,W,1,10,1.6,18,M,,M,,*64
06/14/2015	11:11:21.515	$GPGGA,111122,2437.5844,N,08051.1188,W,1,10,1.6,18,M,,M,,*6C
06/14/2015	11:11:22.486	$GPGGA,111123,2437.5840,N,08051.1190,W,1,10,1.6,18,M,,M,,*60
06/14/2015	11:11:23.495	$GPGGA,111124,2437.5835,N,08051.1194,W,1,10,1.6,17,M,,M,,*6E
06/14/2015	11:11:24.606	$GPGGA,111125,2437.5830,N,08051.1199,W,1,10,1.6,17,M,,M,,*67
06/14/2015	11:11:25.576	$GPGGA,111126,2437.5826,N,08051.1204,W,1,10,1.6,17,M,,M,,*64
06/14/2015	11:11:26.605	$GPGGA,111127,2437.5822,N,08051.1210,W,1,10,1.6,17,M,,M,,*64
06/14/2015	11:11:27.615	$GPGGA,111128,2437.5819,N,08051.1215,W,1,10,1.6,17,M,,M,,*66
06/14/2015	11:11:28.495	$GPGGA,111129,2437.5816,N,08051.1219,W,1,10,1.6,17,M,,M,,*64
06/14/2015	11:11:29.589	$GPGGA,111130,2437.5811,N,08051.1223,W,1,10,1.6,17,M,,M,,*62
06/14/2015	11:11:30.595	$GPGGA,111131,2437.5807,N,08051.1228,W,1,10,1.6,17,M,,M,,*6F
06/14/2015	11:11:31.615	$GPGGA,111132,2437.5804,N,08051.1232,W,1,10,1.6,17,M,,M,,*64
06/14/2015	11:11:32.584	$GPGGA,111133,2437.5799,N,08051.1239,W,1,10,1.6,17,M,,M,,*65
06/14/2015	11:11:33.584	$GPGGA,111134,2437.5795,N,08051.1244,W,1,10,1.6,17,M,,M,,*64
06/14/2015	11:11:34.575	$GPGGA,111135,2437.5791,N,08051.1248,W,1,10,1.6,17,M,,M,,*6D
06/14/2015	11:11:35.615	$GPGGA,111136,2437.5788,N,08051.1253,W,1,10,1.6,17,M,,M,,*6C
06/14/2015	11:11:36.555	$GPGGA,111137,2437.5786,N,08051.1258,W,1,10,1.6,17,M,,M,,*68
06/14/2015	11:11:37.595	$GPGGA,111138,2437.5781,N,08051.1264,W,1,9,1.9,17,M,,M,,*58
06/14/2015	11:11:38.555	$GPGGA,111139,2437.5776,N,08051.1270,W,1,9,1.6,17,M,,M,,*5B
06/14/2015	11:11:39.595	$GPGGA,111140,2437.5771,N,08051.1275,W,1,9,1.9,16,M,,M,,*59
06/14/2015	11:11:40.565	$GPGGA,111141,2437.5769,N,08051.1283,W,1,9,1.6,16,M,,M,,*57
06/14/2015	11:11:41.577	$GPGGA,111142,2437.5768,N,08051.1290,W,1,10,1.6,16,M,,M,,*6F
06/14/2015	11:11:42.555	$GPGGA,111143,2437.5764,N,08051.1293,W,1,10,1.6,17,M,,M,,*60
06/14/2015	11:11:43.585	$GPGGA,111144,2437.5762,N,08051.1297,W,1,10,1.6,17,M,,M,,*65
06/14/2015	11:11:44.555	$GPGGA,111145,2437.5760,N,08051.1304,W,1,10,1.6,17,M,,M,,*6D
