Software Version Number: 1	Data File Format Number: 1	Build Version Number: 1	Error Count Since VI Started: 3	Manufacturer: Raytheon	 Model Number: RayMarine 120	 S/N: 	 Cal Date: 	 Wind Direction Offset: 0.00	 Slope (M)1: 0.00	 Offset (B)1: 0.00	 Slope (M)2: 0.00	 Offset (B)2: 0.00	 Slope (M)3: 0.00	 Offset (B)3: 0.00	 Slope (M)4: 0.00	 Offset (B)4: 0.00	 Slope (M)5: 0.00	 Offset (B)5: 0.00	 Slope (M)6: 0.00	 Offset (B)6: 0.00
Computer Date	Computer Time	GGA String
06/24/2015	08:00:00.539	$GPGGA,080001,2510.9507,N,08009.0381,W,1,10,1.5,16,M,,M,,*6D
06/24/2015	08:00:01.569	$GPGGA,080002,2510.9498,N,08009.0381,W,1,10,1.5,16,M,,M,,*69
06/24/2015	08:00:02.529	$GPGGA,080003,2510.9490,N,08009.0383,W,1,10,1.5,16,M,,M,,*62
06/24/2015	08:00:03.579	$GPGGA,080004,2510.9483,N,08009.0386,W,1,10,1.5,16,M,,M,,*62
06/24/2015	08:00:04.529	$GPGGA,080005,2510.9476,N,08009.0388,W,1,10,1.5,16,M,,M,,*67
06/24/2015	08:00:05.539	$GPGGA,080006,2510.9468,N,08009.0387,W,1,10,1.5,16,M,,M,,*64
06/24/2015	08:00:06.529	$GPGGA,080007,2510.9460,N,08009.0390,W,1,10,1.5,16,M,,M,,*6B
06/24/2015	08:00:07.559	$GPGGA,080008,2510.9453,N,08009.0392,W,1,9,1.5,16,M,,M,,*5E
06/24/2015	08:00:08.528	$GPGGA,080009,2510.9445,N,08009.0394,W,1,9,1.5,16,M,,M,,*5E
06/24/2015	08:00:09.548	$GPGGA,080010,2510.9437,N,08009.0394,W,1,10,1.5,16,M,,M,,*6B
06/24/2015	08:00:10.528	$GPGGA,080011,2510.9431,N,08009.0398,W,1,10,1.5,15,M,,M,,*63
06/24/2015	08:00:11.548	$GPGGA,080012,2510.9424,N,08009.0401,W,1,10,1.5,15,M,,M,,*63
06/24/2015	08:00:12.528	$GPGGA,080013,2510.9415,N,08009.0402,W,1,10,1.7,15,M,,M,,*61
06/24/2015	08:00:13.529	$GPGGA,080014,2510.9407,N,08009.0405,W,1,10,1.5,15,M,,M,,*60
06/24/2015	08:00:14.520	$GPGGA,080015,2510.9399,N,08009.0408,W,1,10,1.5,15,M,,M,,*6C
06/24/2015	08:00:15.539	$GPGGA,080016,2510.9391,N,08009.0408,W,1,10,1.5,15,M,,M,,*67
06/24/2015	08:00:16.509	$GPGGA,080017,2510.9384,N,08009.0409,W,1,10,1.5,15,M,,M,,*63
06/24/2015	08:00:17.519	$GPGGA,080018,2510.9377,N,08009.0412,W,1,9,1.5,15,M,,M,,*52
06/24/2015	08:00:18.509	$GPGGA,080019,2510.9370,N,08009.0413,W,1,9,1.5,15,M,,M,,*55
06/24/2015	08:00:19.549	$GPGGA,080020,2510.9361,N,08009.0415,W,1,10,1.5,15,M,,M,,*61
06/24/2015	08:00:20.609	$GPGGA,080021,2510.9353,N,08009.0415,W,1,10,1.5,15,M,,M,,*61
06/24/2015	08:00:21.589	$GPGGA,080022,2510.9346,N,08009.0416,W,1,9,1.5,15,M,,M,,*5D
06/24/2015	08:00:22.589	$GPGGA,080023,2510.9337,N,08009.0419,W,1,9,1.5,15,M,,M,,*55
06/24/2015	08:00:23.599	$GPGGA,080024,2510.9330,N,08009.0420,W,1,9,1.5,15,M,,M,,*5F
06/24/2015	08:00:24.499	$GPGGA,080025,2510.9323,N,08009.0420,W,1,9,1.5,15,M,,M,,*5C
06/24/2015	08:00:25.479	$GPGGA,080026,2510.9314,N,08009.0423,W,1,9,1.5,15,M,,M,,*58
06/24/2015	08:00:26.488	$GPGGA,080027,2510.9306,N,08009.0424,W,1,9,1.5,15,M,,M,,*5D
06/24/2015	08:00:27.508	$GPGGA,080028,2510.9299,N,08009.0424,W,1,10,1.5,15,M,,M,,*6D
06/24/2015	08:00:28.588	$GPGGA,080029,2510.9291,N,08009.0426,W,1,10,1.5,15,M,,M,,*66
06/24/2015	08:00:29.578	$GPGGA,080030,2510.9284,N,08009.0428,W,1,10,1.5,15,M,,M,,*64
06/24/2015	08:00:30.589	$GPGGA,080031,2510.9277,N,08009.0430,W,1,10,1.5,14,M,,M,,*61
06/24/2015	08:00:31.489	$GPGGA,080032,2510.9269,N,08009.0428,W,1,10,1.5,14,M,,M,,*64
06/24/2015	08:00:32.599	$GPGGA,080033,2510.9262,N,08009.0434,W,1,10,1.5,14,M,,M,,*63
06/24/2015	08:00:34.009	$GPGGA,080034,2510.9255,N,08009.0435,W,1,10,1.5,14,M,,M,,*61
06/24/2015	08:00:34.569	$GPGGA,080035,2510.9247,N,08009.0433,W,1,10,1.5,14,M,,M,,*65
06/24/2015	08:00:35.599	$GPGGA,080036,2510.9240,N,08009.0437,W,1,10,1.5,14,M,,M,,*65
06/24/2015	08:00:36.559	$GPGGA,080037,2510.9232,N,08009.0441,W,1,10,1.5,14,M,,M,,*60
06/24/2015	08:00:37.579	$GPGGA,080038,2510.9225,N,08009.0440,W,1,10,1.5,14,M,,M,,*68
06/24/2015	08:00:38.569	$GPGGA,080039,2510.9216,N,08009.0438,W,1,10,1.5,14,M,,M,,*66
06/24/2015	08:00:39.599	$GPGGA,080040,2510.9211,N,08009.0441,W,1,10,1.5,14,M,,M,,*61
06/24/2015	08:00:40.549	$GPGGA,080041,2510.9203,N,08009.0444,W,1,10,1.5,14,M,,M,,*66
06/24/2015	08:00:41.549	$GPGGA,080042,2510.9194,N,08009.0444,W,1,10,1.5,14,M,,M,,*68
06/24/2015	08:00:42.559	$GPGGA,080043,2510.9187,N,08009.0444,W,1,10,1.5,14,M,,M,,*6B
06/24/2015	08:00:43.578	$GPGGA,080044,2510.9179,N,08009.0448,W,1,10,1.5,14,M,,M,,*61
06/24/2015	08:00:44.558	$GPGGA,080045,2510.9172,N,08009.0448,W,1,10,1.5,14,M,,M,,*6B
06/24/2015	08:00:45.568	$GPGGA,080046,2510.9165,N,08009.0449,W,1,10,1.5,14,M,,M,,*6F
06/24/2015	08:00:46.548	$GPGGA,080047,2510.9157,N,08009.0451,W,1,10,1.5,14,M,,M,,*66
06/24/2015	08:00:47.568	$GPGGA,080048,2510.9148,N,08009.0450,W,1,9,1.5,14,M,,M,,*5E
06/24/2015	08:00:48.539	$GPGGA,080049,2510.9142,N,08009.0452,W,1,9,1.5,14,M,,M,,*57
06/24/2015	08:00:49.533	$GPGGA,080050,2510.9135,N,08009.0455,W,1,9,1.5,14,M,,M,,*58
06/24/2015	08:00:50.549	$GPGGA,080051,2510.9126,N,08009.0454,W,1,9,1.5,13,M,,M,,*5D
06/24/2015	08:00:51.579	$GPGGA,080052,2510.9118,N,08009.0455,W,1,10,1.5,13,M,,M,,*6A
06/24/2015	08:00:52.549	$GPGGA,080053,2510.9110,N,08009.0457,W,1,10,1.5,13,M,,M,,*61
06/24/2015	08:00:53.540	$GPGGA,080054,2510.9103,N,08009.0459,W,1,10,1.5,13,M,,M,,*6A
06/24/2015	08:00:54.539	$GPGGA,080055,2510.9096,N,08009.0459,W,1,10,1.5,13,M,,M,,*66
06/24/2015	08:00:55.569	$GPGGA,080056,2510.9088,N,08009.0462,W,1,10,1.5,13,M,,M,,*62
06/24/2015	08:00:56.522	$GPGGA,080057,2510.9081,N,08009.0463,W,1,10,1.5,13,M,,M,,*6B
06/24/2015	08:00:57.549	$GPGGA,080058,2510.9073,N,08009.0466,W,1,9,1.5,13,M,,M,,*54
06/24/2015	08:00:58.509	$GPGGA,080059,2510.9066,N,08009.0469,W,1,9,1.5,13,M,,M,,*5E
06/24/2015	08:00:59.559	$GPGGA,080100,2510.9059,N,08009.0470,W,1,10,1.5,13,M,,M,,*6F
06/24/2015	08:01:00.529	$GPGGA,080101,2510.9052,N,08009.0470,W,1,10,1.5,13,M,,M,,*65
06/24/2015	08:01:01.508	$GPGGA,080102,2510.9043,N,08009.0473,W,1,10,1.5,13,M,,M,,*65
06/24/2015	08:01:02.608	$GPGGA,080103,2510.9035,N,08009.0474,W,1,10,1.5,13,M,,M,,*62
06/24/2015	08:01:03.558	$GPGGA,080104,2510.9027,N,08009.0475,W,1,10,1.5,13,M,,M,,*67
06/24/2015	08:01:04.518	$GPGGA,080105,2510.9019,N,08009.0477,W,1,10,1.5,13,M,,M,,*69
06/24/2015	08:01:05.632	$GPGGA,080106,2510.9012,N,08009.0480,W,1,10,1.5,13,M,,M,,*69
06/24/2015	08:01:06.509	$GPGGA,080107,2510.9003,N,08009.0481,W,1,10,1.5,13,M,,M,,*69
06/24/2015	08:01:07.531	$GPGGA,080108,2510.8996,N,08009.0484,W,1,10,1.5,13,M,,M,,*67
06/24/2015	08:01:08.599	$GPGGA,080109,2510.8987,N,08009.0485,W,1,10,1.5,13,M,,M,,*67
06/24/2015	08:01:09.638	$GPGGA,080110,2510.8979,N,08009.0488,W,1,10,1.5,13,M,,M,,*63
06/24/2015	08:01:10.509	$GPGGA,080111,2510.8973,N,08009.0491,W,1,10,1.5,13,M,,M,,*60
06/24/2015	08:01:11.524	$GPGGA,080112,2510.8965,N,08009.0492,W,1,10,1.5,13,M,,M,,*67
06/24/2015	08:01:12.509	$GPGGA,080113,2510.8958,N,08009.0495,W,1,10,1.5,13,M,,M,,*6F
06/24/2015	08:01:13.589	$GPGGA,080114,2510.8951,N,08009.0499,W,1,10,1.5,13,M,,M,,*6D
06/24/2015	08:01:14.499	$GPGGA,080115,2510.8942,N,08009.0500,W,1,10,1.5,13,M,,M,,*6F
06/24/2015	08:01:15.509	$GPGGA,080116,2510.8934,N,08009.0503,W,1,10,1.5,13,M,,M,,*6E
06/24/2015	08:01:16.509	$GPGGA,080117,2510.8927,N,08009.0506,W,1,10,1.5,13,M,,M,,*68
06/24/2015	08:01:17.589	$GPGGA,080118,2510.8919,N,08009.0509,W,1,10,1.5,13,M,,M,,*65
06/24/2015	08:01:18.578	$GPGGA,080119,2510.8911,N,08009.0511,W,1,10,1.5,13,M,,M,,*65
06/24/2015	08:01:19.620	$GPGGA,080120,2510.8904,N,08009.0516,W,1,10,1.5,13,M,,M,,*6C
06/24/2015	08:01:20.578	$GPGGA,080121,2510.8897,N,08009.0520,W,1,10,1.5,13,M,,M,,*63
06/24/2015	08:01:21.598	$GPGGA,080122,2510.8889,N,08009.0519,W,1,10,1.5,13,M,,M,,*65
06/24/2015	08:01:22.578	$GPGGA,080123,2510.8880,N,08009.0522,W,1,10,1.5,13,M,,M,,*65
06/24/2015	08:01:23.599	$GPGGA,080124,2510.8875,N,08009.0527,W,1,10,1.5,13,M,,M,,*6D
06/24/2015	08:01:24.559	$GPGGA,080125,2510.8865,N,08009.0531,W,1,10,1.5,13,M,,M,,*6A
06/24/2015	08:01:25.589	$GPGGA,080126,2510.8857,N,08009.0529,W,1,10,1.5,13,M,,M,,*61
06/24/2015	08:01:26.559	$GPGGA,080127,2510.8850,N,08009.0533,W,1,10,1.5,13,M,,M,,*6C
06/24/2015	08:01:27.589	$GPGGA,080128,2510.8842,N,08009.0538,W,1,10,1.5,13,M,,M,,*6B
06/24/2015	08:01:28.569	$GPGGA,080129,2510.8835,N,08009.0537,W,1,10,1.5,13,M,,M,,*65
06/24/2015	08:01:29.569	$GPGGA,080130,2510.8828,N,08009.0540,W,1,10,1.5,13,M,,M,,*61
06/24/2015	08:01:30.559	$GPGGA,080131,2510.8819,N,08009.0545,W,1,10,1.5,13,M,,M,,*67
06/24/2015	08:01:31.599	$GPGGA,080132,2510.8811,N,08009.0543,W,1,10,1.5,13,M,,M,,*6A
06/24/2015	08:01:32.559	$GPGGA,080133,2510.8803,N,08009.0546,W,1,10,1.5,13,M,,M,,*6D
06/24/2015	08:01:33.559	$GPGGA,080134,2510.8796,N,08009.0549,W,1,9,1.5,13,M,,M,,*5E
06/24/2015	08:01:34.539	$GPGGA,080135,2510.8788,N,08009.0548,W,1,9,1.5,13,M,,M,,*51
06/24/2015	08:01:35.559	$GPGGA,080136,2510.8781,N,08009.0550,W,1,9,1.5,13,M,,M,,*52
06/24/2015	08:01:36.548	$GPGGA,080137,2510.8774,N,08009.0554,W,1,9,1.5,13,M,,M,,*5D
06/24/2015	08:01:37.568	$GPGGA,080138,2510.8767,N,08009.0557,W,1,10,1.5,13,M,,M,,*6B
06/24/2015	08:01:38.538	$GPGGA,080139,2510.8759,N,08009.0557,W,1,10,1.5,13,M,,M,,*67
06/24/2015	08:01:39.568	$GPGGA,080140,2510.8752,N,08009.0560,W,1,9,1.5,13,M,,M,,*5E
06/24/2015	08:01:40.549	$GPGGA,080141,2510.8745,N,08009.0561,W,1,9,1.5,13,M,,M,,*58
06/24/2015	08:01:41.559	$GPGGA,080142,2510.8737,N,08009.0564,W,1,9,1.5,13,M,,M,,*5B
06/24/2015	08:01:42.539	$GPGGA,080143,2510.8730,N,08009.0567,W,1,9,1.5,13,M,,M,,*5E
06/24/2015	08:01:43.539	$GPGGA,080144,2510.8723,N,08009.0568,W,1,10,1.5,13,M,,M,,*6C
06/24/2015	08:01:44.539	$GPGGA,080145,2510.8716,N,08009.0569,W,1,10,1.5,13,M,,M,,*6A
06/24/2015	08:01:45.532	$GPGGA,080146,2510.8708,N,08009.0572,W,1,9,1.5,13,M,,M,,*54
06/24/2015	08:01:46.533	$GPGGA,080147,2510.8700,N,08009.0574,W,1,9,1.5,13,M,,M,,*5B
06/24/2015	08:01:47.559	$GPGGA,080148,2510.8692,N,08009.0574,W,1,10,1.5,13,M,,M,,*66
06/24/2015	08:01:48.530	$GPGGA,080149,2510.8684,N,08009.0575,W,1,10,1.5,13,M,,M,,*61
06/24/2015	08:01:49.521	$GPGGA,080150,2510.8676,N,08009.0576,W,1,10,1.5,13,M,,M,,*67
06/24/2015	08:01:50.509	$GPGGA,080151,2510.8667,N,08009.0578,W,1,10,1.5,13,M,,M,,*68
06/24/2015	08:01:51.699	$GPGGA,080152,2510.8661,N,08009.0581,W,1,9,1.5,13,M,,M,,*53
06/24/2015	08:01:52.509	$GPGGA,080153,2510.8653,N,08009.0580,W,1,9,1.5,13,M,,M,,*52
06/24/2015	08:01:53.688	$GPGGA,080154,2510.8645,N,08009.0582,W,1,10,1.5,13,M,,M,,*68
06/24/2015	08:01:54.532	$GPGGA,080155,2510.8637,N,08009.0583,W,1,10,1.5,13,M,,M,,*6D
06/24/2015	08:01:55.548	$GPGGA,080156,2510.8630,N,08009.0585,W,1,9,1.5,13,M,,M,,*57
06/24/2015	08:01:56.598	$GPGGA,080157,2510.8622,N,08009.0585,W,1,9,1.5,13,M,,M,,*55
06/24/2015	08:01:57.488	$GPGGA,080158,2510.8615,N,08009.0586,W,1,9,1.5,13,M,,M,,*5D
06/24/2015	08:01:58.630	$GPGGA,080159,2510.8606,N,08009.0589,W,1,9,1.5,13,M,,M,,*51
06/24/2015	08:01:59.535	$GPGGA,080200,2510.8600,N,08009.0592,W,1,9,1.5,13,M,,M,,*52
06/24/2015	08:02:00.589	$GPGGA,080201,2510.8591,N,08009.0592,W,1,9,1.5,13,M,,M,,*58
06/24/2015	08:02:01.509	$GPGGA,080202,2510.8583,N,08009.0592,W,1,10,1.5,13,M,,M,,*60
06/24/2015	08:02:02.489	$GPGGA,080203,2510.8576,N,08009.0597,W,1,10,1.5,13,M,,M,,*6E
06/24/2015	08:02:03.489	$GPGGA,080204,2510.8569,N,08009.0598,W,1,10,1.5,13,M,,M,,*68
06/24/2015	08:02:04.489	$GPGGA,080205,2510.8560,N,08009.0598,W,1,10,1.5,13,M,,M,,*60
06/24/2015	08:02:05.489	$GPGGA,080206,2510.8553,N,08009.0600,W,1,10,1.5,13,M,,M,,*61
06/24/2015	08:02:06.609	$GPGGA,080207,2510.8544,N,08009.0603,W,1,10,1.5,13,M,,M,,*65
06/24/2015	08:02:07.599	$GPGGA,080208,2510.8536,N,08009.0603,W,1,10,1.5,13,M,,M,,*6F
06/24/2015	08:02:08.569	$GPGGA,080209,2510.8528,N,08009.0603,W,1,10,1.5,13,M,,M,,*61
06/24/2015	08:02:09.640	$GPGGA,080210,2510.8521,N,08009.0605,W,1,10,1.5,13,M,,M,,*66
06/24/2015	08:02:10.609	$GPGGA,080211,2510.8513,N,08009.0608,W,1,10,1.5,13,M,,M,,*6B
06/24/2015	08:02:11.688	$GPGGA,080212,2510.8505,N,08009.0607,W,1,10,1.5,13,M,,M,,*60
06/24/2015	08:02:12.598	$GPGGA,080213,2510.8499,N,08009.0610,W,1,10,1.5,13,M,,M,,*63
06/24/2015	08:02:13.668	$GPGGA,080214,2510.8490,N,08009.0611,W,1,10,1.5,13,M,,M,,*6C
06/24/2015	08:02:14.558	$GPGGA,080215,2510.8482,N,08009.0612,W,1,10,1.5,13,M,,M,,*6D
06/24/2015	08:02:15.679	$GPGGA,080216,2510.8474,N,08009.0614,W,1,9,1.5,12,M,,M,,*58
06/24/2015	08:02:16.620	$GPGGA,080217,2510.8466,N,08009.0614,W,1,9,1.5,12,M,,M,,*5A
06/24/2015	08:02:17.559	$GPGGA,080218,2510.8459,N,08009.0615,W,1,9,1.5,12,M,,M,,*58
06/24/2015	08:02:18.579	$GPGGA,080219,2510.8452,N,08009.0616,W,1,9,1.5,12,M,,M,,*51
06/24/2015	08:02:19.679	$GPGGA,080220,2510.8442,N,08009.0618,W,1,10,1.5,12,M,,M,,*6C
06/24/2015	08:02:20.579	$GPGGA,080221,2510.8434,N,08009.0619,W,1,10,1.5,12,M,,M,,*6D
06/24/2015	08:02:21.669	$GPGGA,080222,2510.8427,N,08009.0621,W,1,9,1.5,12,M,,M,,*5F
06/24/2015	08:02:22.579	$GPGGA,080223,2510.8420,N,08009.0623,W,1,9,1.5,12,M,,M,,*5B
06/24/2015	08:02:23.669	$GPGGA,080224,2510.8412,N,08009.0625,W,1,10,1.5,12,M,,M,,*63
06/24/2015	08:02:24.579	$GPGGA,080225,2510.8405,N,08009.0625,W,1,10,1.5,12,M,,M,,*64
06/24/2015	08:02:25.669	$GPGGA,080226,2510.8398,N,08009.0629,W,1,10,1.5,12,M,,M,,*68
06/24/2015	08:02:26.539	$GPGGA,080227,2510.8391,N,08009.0632,W,1,10,1.5,12,M,,M,,*6A
06/24/2015	08:02:27.649	$GPGGA,080228,2510.8382,N,08009.0632,W,1,10,1.5,12,M,,M,,*67
06/24/2015	08:02:28.578	$GPGGA,080229,2510.8374,N,08009.0636,W,1,10,1.5,12,M,,M,,*6B
06/24/2015	08:02:29.638	$GPGGA,080230,2510.8367,N,08009.0639,W,1,10,1.5,12,M,,M,,*6E
06/24/2015	08:02:30.559	$GPGGA,080231,2510.8360,N,08009.0640,W,1,10,1.5,12,M,,M,,*66
06/24/2015	08:02:31.640	$GPGGA,080232,2510.8352,N,08009.0643,W,1,10,1.7,12,M,,M,,*65
06/24/2015	08:02:32.532	$GPGGA,080233,2510.8344,N,08009.0647,W,1,10,1.7,12,M,,M,,*67
06/24/2015	08:02:33.619	$GPGGA,080234,2510.8334,N,08009.0650,W,1,10,1.5,12,M,,M,,*63
06/24/2015	08:02:34.519	$GPGGA,080235,2510.8326,N,08009.0654,W,1,10,1.5,12,M,,M,,*65
06/24/2015	08:02:35.631	$GPGGA,080236,2510.8318,N,08009.0655,W,1,10,1.7,12,M,,M,,*68
06/24/2015	08:02:36.639	$GPGGA,080237,2510.8311,N,08009.0655,W,1,10,1.5,12,M,,M,,*62
06/24/2015	08:02:37.589	$GPGGA,080238,2510.8302,N,08009.0659,W,1,10,1.5,12,M,,M,,*63
06/24/2015	08:02:38.632	$GPGGA,080239,2510.8294,N,08009.0663,W,1,10,1.5,12,M,,M,,*65
06/24/2015	08:02:39.649	$GPGGA,080240,2510.8286,N,08009.0663,W,1,10,1.5,12,M,,M,,*68
06/24/2015	08:02:40.559	$GPGGA,080241,2510.8279,N,08009.0665,W,1,10,1.5,12,M,,M,,*6F
06/24/2015	08:02:41.649	$GPGGA,080242,2510.8269,N,08009.0668,W,1,10,1.5,12,M,,M,,*60
06/24/2015	08:02:42.549	$GPGGA,080243,2510.8262,N,08009.0670,W,1,10,1.5,12,M,,M,,*63
06/24/2015	08:02:43.609	$GPGGA,080244,2510.8255,N,08009.0672,W,1,10,1.5,12,M,,M,,*62
06/24/2015	08:02:44.629	$GPGGA,080245,2510.8247,N,08009.0672,W,1,10,1.5,12,M,,M,,*60
06/24/2015	08:02:45.621	$GPGGA,080246,2510.8239,N,08009.0675,W,1,10,1.5,12,M,,M,,*6D
06/24/2015	08:02:46.548	$GPGGA,080247,2510.8232,N,08009.0677,W,1,10,1.5,12,M,,M,,*65
06/24/2015	08:02:47.618	$GPGGA,080248,2510.8223,N,08009.0679,W,1,10,1.5,12,M,,M,,*64
06/24/2015	08:02:48.538	$GPGGA,080249,2510.8215,N,08009.0678,W,1,10,1.5,12,M,,M,,*61
06/24/2015	08:02:49.588	$GPGGA,080250,2510.8208,N,08009.0681,W,1,10,1.5,12,M,,M,,*63
06/24/2015	08:02:50.589	$GPGGA,080251,2510.8200,N,08009.0684,W,1,10,1.5,13,M,,M,,*6E
06/24/2015	08:02:51.599	$GPGGA,080252,2510.8192,N,08009.0683,W,1,10,1.5,13,M,,M,,*62
06/24/2015	08:02:52.534	$GPGGA,080253,2510.8185,N,08009.0684,W,1,10,1.7,13,M,,M,,*60
06/24/2015	08:02:54.869	$GPGGA,080255,2510.8169,N,08009.0689,W,1,9,1.5,13,M,,M,,*53
06/24/2015	08:02:55.639	$GPGGA,080256,2510.8160,N,08009.0690,W,1,10,1.5,13,M,,M,,*69
06/24/2015	08:02:56.569	$GPGGA,080257,2510.8153,N,08009.0694,W,1,10,1.5,13,M,,M,,*6C
06/24/2015	08:02:57.619	$GPGGA,080258,2510.8145,N,08009.0695,W,1,10,1.5,13,M,,M,,*65
06/24/2015	08:02:58.569	$GPGGA,080259,2510.8138,N,08009.0697,W,1,10,1.5,13,M,,M,,*6C
06/24/2015	08:02:59.632	$GPGGA,080300,2510.8128,N,08009.0698,W,1,10,1.5,13,M,,M,,*6F
06/24/2015	08:03:00.569	$GPGGA,080301,2510.8120,N,08009.0701,W,1,10,1.5,13,M,,M,,*67
06/24/2015	08:03:01.629	$GPGGA,080302,2510.8114,N,08009.0704,W,1,10,1.5,13,M,,M,,*66
06/24/2015	08:03:03.070	$GPGGA,080303,2510.8107,N,08009.0705,W,1,10,1.5,13,M,,M,,*64
06/24/2015	08:03:03.588	$GPGGA,080304,2510.8098,N,08009.0706,W,1,10,1.5,13,M,,M,,*67
06/24/2015	08:03:04.568	$GPGGA,080305,2510.8091,N,08009.0709,W,1,10,1.5,13,M,,M,,*60
06/24/2015	08:03:05.618	$GPGGA,080306,2510.8084,N,08009.0712,W,1,10,1.5,13,M,,M,,*6D
06/24/2015	08:03:06.558	$GPGGA,080307,2510.8076,N,08009.0711,W,1,10,1.7,13,M,,M,,*60
06/24/2015	08:03:07.588	$GPGGA,080308,2510.8069,N,08009.0715,W,1,9,1.5,13,M,,M,,*5F
06/24/2015	08:03:08.569	$GPGGA,080309,2510.8062,N,08009.0717,W,1,9,1.7,13,M,,M,,*55
06/24/2015	08:03:09.579	$GPGGA,080310,2510.8055,N,08009.0719,W,1,9,1.7,13,M,,M,,*57
06/24/2015	08:03:10.559	$GPGGA,080311,2510.8046,N,08009.0720,W,1,9,1.5,13,M,,M,,*5C
06/24/2015	08:03:11.630	$GPGGA,080312,2510.8037,N,08009.0723,W,1,10,1.5,13,M,,M,,*62
06/24/2015	08:03:12.539	$GPGGA,080313,2510.8028,N,08009.0726,W,1,10,1.5,13,M,,M,,*68
06/24/2015	08:03:13.579	$GPGGA,080314,2510.8020,N,08009.0728,W,1,10,1.5,13,M,,M,,*69
06/24/2015	08:03:14.569	$GPGGA,080315,2510.8013,N,08009.0730,W,1,10,1.7,13,M,,M,,*63
06/24/2015	08:03:15.579	$GPGGA,080316,2510.8013,N,08009.0730,W,1,9,1.7,13,M,,M,,*58
06/24/2015	08:03:16.549	$GPGGA,080317,2510.7994,N,08009.0735,W,1,9,1.5,13,M,,M,,*57
06/24/2015	08:03:17.609	$GPGGA,080318,2510.7986,N,08009.0737,W,1,10,1.5,13,M,,M,,*61
06/24/2015	08:03:18.539	$GPGGA,080319,2510.7979,N,08009.0744,W,1,10,1.5,13,M,,M,,*64
06/24/2015	08:03:19.626	$GPGGA,080320,2510.7971,N,08009.0744,W,1,10,1.5,13,M,,M,,*66
06/24/2015	08:03:20.549	$GPGGA,080321,2510.7962,N,08009.0745,W,1,10,1.5,13,M,,M,,*64
06/24/2015	08:03:21.588	$GPGGA,080322,2510.7954,N,08009.0748,W,1,10,1.5,13,M,,M,,*6F
06/24/2015	08:03:22.520	$GPGGA,080323,2510.7947,N,08009.0753,W,1,10,1.5,14,M,,M,,*61
06/24/2015	08:03:23.588	$GPGGA,080324,2510.7937,N,08009.0755,W,1,10,1.5,14,M,,M,,*67
06/24/2015	08:03:24.538	$GPGGA,080325,2510.7937,N,08009.0755,W,1,10,1.5,14,M,,M,,*66
06/24/2015	08:03:25.659	$GPGGA,080326,2510.7922,N,08009.0758,W,1,10,1.5,14,M,,M,,*6C
06/24/2015	08:03:26.532	$GPGGA,080327,2510.7915,N,08009.0760,W,1,10,1.5,14,M,,M,,*62
06/24/2015	08:03:27.599	$GPGGA,080328,2510.7906,N,08009.0762,W,1,10,1.5,14,M,,M,,*6D
06/24/2015	08:03:28.609	$GPGGA,080329,2510.7898,N,08009.0764,W,1,10,1.5,14,M,,M,,*6C
06/24/2015	08:03:29.579	$GPGGA,080330,2510.7892,N,08009.0764,W,1,9,1.5,14,M,,M,,*56
06/24/2015	08:03:30.549	$GPGGA,080331,2510.7885,N,08009.0767,W,1,9,1.5,14,M,,M,,*52
06/24/2015	08:03:31.539	$GPGGA,080332,2510.7885,N,08009.0767,W,1,10,1.5,14,M,,M,,*69
06/24/2015	08:03:32.499	$GPGGA,080333,2510.7868,N,08009.0770,W,1,10,1.5,14,M,,M,,*6D
06/24/2015	08:03:33.524	$GPGGA,080334,2510.7868,N,08009.0770,W,1,9,1.5,14,M,,M,,*52
06/24/2015	08:03:34.521	$GPGGA,080335,2510.7853,N,08009.0773,W,1,9,1.5,14,M,,M,,*58
06/24/2015	08:03:36.509	$GPGGA,080336,2510.7853,N,08009.0773,W,1,9,1.5,14,M,,M,,*5B
06/24/2015	08:03:36.539	$GPGGA,080337,2510.7838,N,08009.0774,W,1,9,1.5,15,M,,M,,*51
06/24/2015	08:03:37.629	$GPGGA,080338,2510.7831,N,08009.0777,W,1,10,1.5,15,M,,M,,*6C
06/24/2015	08:03:38.508	$GPGGA,080339,2510.7823,N,08009.0777,W,1,10,1.5,15,M,,M,,*6E
06/24/2015	08:03:39.523	$GPGGA,080340,2510.7823,N,08009.0777,W,1,10,1.5,15,M,,M,,*60
06/24/2015	08:03:40.488	$GPGGA,080341,2510.7809,N,08009.0780,W,1,10,1.5,15,M,,M,,*61
06/24/2015	08:03:41.588	$GPGGA,080342,2510.7802,N,08009.0782,W,1,9,1.5,15,M,,M,,*53
06/24/2015	08:03:42.488	$GPGGA,080343,2510.7793,N,08009.0782,W,1,9,1.5,15,M,,M,,*55
06/24/2015	08:03:43.599	$GPGGA,080344,2510.7785,N,08009.0784,W,1,10,1.5,15,M,,M,,*6B
06/24/2015	08:03:44.579	$GPGGA,080345,2510.7780,N,08009.0787,W,1,10,1.5,15,M,,M,,*6C
06/24/2015	08:03:45.599	$GPGGA,080346,2510.7771,N,08009.0788,W,1,10,1.5,15,M,,M,,*6E
06/24/2015	08:03:46.569	$GPGGA,080347,2510.7763,N,08009.0788,W,1,10,1.5,15,M,,M,,*6C
06/24/2015	08:03:47.609	$GPGGA,080348,2510.7756,N,08009.0791,W,1,10,1.5,15,M,,M,,*6D
06/24/2015	08:03:48.579	$GPGGA,080349,2510.7749,N,08009.0793,W,1,10,1.5,15,M,,M,,*60
06/24/2015	08:03:49.609	$GPGGA,080350,2510.7742,N,08009.0793,W,1,10,1.5,15,M,,M,,*63
06/24/2015	08:03:50.579	$GPGGA,080351,2510.7734,N,08009.0795,W,1,10,1.5,15,M,,M,,*65
06/24/2015	08:03:51.589	$GPGGA,080352,2510.7727,N,08009.0798,W,1,10,1.5,15,M,,M,,*69
06/24/2015	08:03:52.569	$GPGGA,080353,2510.7720,N,08009.0798,W,1,10,1.5,15,M,,M,,*6F
06/24/2015	08:03:53.559	$GPGGA,080354,2510.7712,N,08009.0800,W,1,10,1.5,15,M,,M,,*67
06/24/2015	08:03:54.569	$GPGGA,080355,2510.7705,N,08009.0805,W,1,10,1.5,15,M,,M,,*65
06/24/2015	08:03:55.579	$GPGGA,080356,2510.7697,N,08009.0806,W,1,10,1.5,15,M,,M,,*6F
06/24/2015	08:03:56.568	$GPGGA,080357,2510.7690,N,08009.0804,W,1,10,1.5,15,M,,M,,*6B
06/24/2015	08:03:57.578	$GPGGA,080358,2510.7683,N,08009.0809,W,1,10,1.5,15,M,,M,,*6B
06/24/2015	08:03:58.958	$GPGGA,080359,2510.7676,N,08009.0813,W,1,10,1.5,15,M,,M,,*6B
06/24/2015	08:03:59.588	$GPGGA,080400,2510.7668,N,08009.0811,W,1,10,1.5,15,M,,M,,*6D
06/24/2015	08:04:00.549	$GPGGA,080401,2510.7662,N,08009.0813,W,1,10,1.5,15,M,,M,,*64
06/24/2015	08:04:01.539	$GPGGA,080402,2510.7655,N,08009.0817,W,1,10,1.5,15,M,,M,,*67
06/24/2015	08:04:02.549	$GPGGA,080403,2510.7647,N,08009.0820,W,1,10,1.5,15,M,,M,,*61
06/24/2015	08:04:03.589	$GPGGA,080404,2510.7639,N,08009.0817,W,1,10,1.5,15,M,,M,,*6B
06/24/2015	08:04:04.539	$GPGGA,080405,2510.7633,N,08009.0822,W,1,10,1.5,15,M,,M,,*66
06/24/2015	08:04:05.569	$GPGGA,080406,2510.7626,N,08009.0827,W,1,10,1.5,15,M,,M,,*64
06/24/2015	08:04:06.529	$GPGGA,080407,2510.7617,N,08009.0824,W,1,10,1.5,15,M,,M,,*64
06/24/2015	08:04:07.549	$GPGGA,080408,2510.7610,N,08009.0827,W,1,10,1.5,15,M,,M,,*6F
06/24/2015	08:04:08.529	$GPGGA,080409,2510.7604,N,08009.0831,W,1,10,1.5,15,M,,M,,*6C
06/24/2015	08:04:09.529	$GPGGA,080410,2510.7596,N,08009.0831,W,1,10,1.5,15,M,,M,,*6C
06/24/2015	08:04:10.539	$GPGGA,080411,2510.7589,N,08009.0830,W,1,10,1.5,15,M,,M,,*62
06/24/2015	08:04:11.529	$GPGGA,080412,2510.7581,N,08009.0832,W,1,10,1.5,15,M,,M,,*6B
06/24/2015	08:04:12.529	$GPGGA,080413,2510.7574,N,08009.0835,W,1,10,1.5,15,M,,M,,*67
06/24/2015	08:04:13.518	$GPGGA,080414,2510.7567,N,08009.0835,W,1,10,1.5,15,M,,M,,*62
06/24/2015	08:04:14.511	$GPGGA,080415,2510.7558,N,08009.0838,W,1,10,1.5,15,M,,M,,*62
06/24/2015	08:04:15.538	$GPGGA,080416,2510.7551,N,08009.0838,W,1,9,1.5,15,M,,M,,*50
06/24/2015	08:04:16.599	$GPGGA,080417,2510.7544,N,08009.0839,W,1,9,1.5,14,M,,M,,*55
06/24/2015	08:04:17.548	$GPGGA,080418,2510.7536,N,08009.0842,W,1,9,1.5,14,M,,M,,*53
06/24/2015	08:04:18.524	$GPGGA,080419,2510.7528,N,08009.0841,W,1,9,1.5,14,M,,M,,*5E
06/24/2015	08:04:19.958	$GPGGA,080420,2510.7521,N,08009.0843,W,1,10,1.5,14,M,,M,,*67
06/24/2015	08:04:20.528	$GPGGA,080421,2510.7513,N,08009.0845,W,1,10,1.5,14,M,,M,,*61
06/24/2015	08:04:21.598	$GPGGA,080422,2510.7506,N,08009.0846,W,1,9,1.5,14,M,,M,,*5D
06/24/2015	08:04:22.498	$GPGGA,080423,2510.7498,N,08009.0849,W,1,9,1.5,14,M,,M,,*55
06/24/2015	08:04:23.598	$GPGGA,080424,2510.7491,N,08009.0850,W,1,9,1.5,14,M,,M,,*53
06/24/2015	08:04:24.498	$GPGGA,080425,2510.7484,N,08009.0852,W,1,9,1.5,14,M,,M,,*54
06/24/2015	08:04:25.588	$GPGGA,080426,2510.7475,N,08009.0853,W,1,10,1.5,14,M,,M,,*60
06/24/2015	08:04:26.498	$GPGGA,080427,2510.7467,N,08009.0854,W,1,10,1.5,14,M,,M,,*65
06/24/2015	08:04:27.598	$GPGGA,080428,2510.7459,N,08009.0857,W,1,10,1.5,14,M,,M,,*64
06/24/2015	08:04:28.489	$GPGGA,080429,2510.7452,N,08009.0858,W,1,10,1.5,14,M,,M,,*61
06/24/2015	08:04:29.579	$GPGGA,080430,2510.7444,N,08009.0858,W,1,10,1.5,14,M,,M,,*6E
06/24/2015	08:04:30.588	$GPGGA,080431,2510.7437,N,08009.0861,W,1,10,1.5,14,M,,M,,*61
06/24/2015	08:04:31.608	$GPGGA,080432,2510.7430,N,08009.0863,W,1,10,1.5,14,M,,M,,*67
06/24/2015	08:04:32.578	$GPGGA,080433,2510.7421,N,08009.0863,W,1,10,1.5,14,M,,M,,*66
06/24/2015	08:04:33.568	$GPGGA,080434,2510.7413,N,08009.0867,W,1,10,1.5,14,M,,M,,*64
06/24/2015	08:04:34.568	$GPGGA,080435,2510.7406,N,08009.0870,W,1,10,1.5,14,M,,M,,*67
06/24/2015	08:04:35.608	$GPGGA,080436,2510.7398,N,08009.0871,W,1,10,1.5,14,M,,M,,*65
06/24/2015	08:04:36.568	$GPGGA,080437,2510.7390,N,08009.0870,W,1,10,1.5,14,M,,M,,*6D
06/24/2015	08:04:37.558	$GPGGA,080438,2510.7383,N,08009.0874,W,1,10,1.5,14,M,,M,,*64
06/24/2015	08:04:38.568	$GPGGA,080439,2510.7374,N,08009.0876,W,1,10,1.5,14,M,,M,,*6F
06/24/2015	08:04:39.578	$GPGGA,080440,2510.7367,N,08009.0878,W,1,10,1.5,13,M,,M,,*6A
06/24/2015	08:04:40.558	$GPGGA,080441,2510.7359,N,08009.0878,W,1,10,1.5,13,M,,M,,*66
06/24/2015	08:04:41.548	$GPGGA,080442,2510.7351,N,08009.0882,W,1,10,1.5,13,M,,M,,*68
06/24/2015	08:04:42.568	$GPGGA,080443,2510.7344,N,08009.0885,W,1,10,1.5,13,M,,M,,*6A
06/24/2015	08:04:43.578	$GPGGA,080444,2510.7336,N,08009.0885,W,1,10,1.5,13,M,,M,,*68
06/24/2015	08:04:44.558	$GPGGA,080445,2510.7327,N,08009.0886,W,1,10,1.5,13,M,,M,,*6A
06/24/2015	08:04:45.569	$GPGGA,080446,2510.7320,N,08009.0890,W,1,10,1.5,13,M,,M,,*69
06/24/2015	08:04:46.549	$GPGGA,080447,2510.7312,N,08009.0892,W,1,10,1.5,13,M,,M,,*6B
06/24/2015	08:04:47.579	$GPGGA,080448,2510.7303,N,08009.0892,W,1,10,1.5,13,M,,M,,*64
06/24/2015	08:04:48.538	$GPGGA,080449,2510.7296,N,08009.0896,W,1,10,1.5,13,M,,M,,*6C
06/24/2015	08:04:49.558	$GPGGA,080450,2510.7289,N,08009.0900,W,1,10,1.5,13,M,,M,,*64
06/24/2015	08:04:50.548	$GPGGA,080451,2510.7281,N,08009.0898,W,1,10,1.5,13,M,,M,,*6D
06/24/2015	08:04:51.558	$GPGGA,080452,2510.7272,N,08009.0900,W,1,9,1.7,13,M,,M,,*58
06/24/2015	08:04:52.848	$GPGGA,080453,2510.7264,N,08009.0905,W,1,9,1.5,13,M,,M,,*59
06/24/2015	08:04:53.528	$GPGGA,080454,2510.7256,N,08009.0907,W,1,10,1.5,13,M,,M,,*65
06/24/2015	08:04:54.538	$GPGGA,080455,2510.7249,N,08009.0907,W,1,10,1.5,13,M,,M,,*6A
06/24/2015	08:04:55.548	$GPGGA,080456,2510.7239,N,08009.0910,W,1,9,1.7,13,M,,M,,*52
06/24/2015	08:04:56.538	$GPGGA,080457,2510.7231,N,08009.0915,W,1,9,1.5,13,M,,M,,*5C
06/24/2015	08:04:57.549	$GPGGA,080458,2510.7224,N,08009.0915,W,1,10,1.5,13,M,,M,,*6F
06/24/2015	08:04:58.538	$GPGGA,080459,2510.7215,N,08009.0918,W,1,10,1.7,13,M,,M,,*63
06/24/2015	08:04:59.538	$GPGGA,080500,2510.7208,N,08009.0921,W,1,10,1.5,13,M,,M,,*6A
06/24/2015	08:05:00.528	$GPGGA,080501,2510.7202,N,08009.0925,W,1,10,1.5,13,M,,M,,*65
06/24/2015	08:05:01.528	$GPGGA,080502,2510.7193,N,08009.0924,W,1,10,1.5,13,M,,M,,*6C
06/24/2015	08:05:02.519	$GPGGA,080503,2510.7185,N,08009.0925,W,1,10,1.7,13,M,,M,,*69
06/24/2015	08:05:03.569	$GPGGA,080504,2510.7178,N,08009.0932,W,1,10,1.5,13,M,,M,,*68
06/24/2015	08:05:04.509	$GPGGA,080505,2510.7170,N,08009.0934,W,1,10,1.5,13,M,,M,,*67
06/24/2015	08:05:05.512	$GPGGA,080506,2510.7161,N,08009.0931,W,1,9,2.1,13,M,,M,,*5E
06/24/2015	08:05:06.508	$GPGGA,080507,2510.7153,N,08009.0936,W,1,9,1.5,13,M,,M,,*5E
06/24/2015	08:05:07.518	$GPGGA,080508,2510.7145,N,08009.0939,W,1,10,1.5,13,M,,M,,*61
06/24/2015	08:05:08.499	$GPGGA,080509,2510.7137,N,08009.0938,W,1,10,1.5,13,M,,M,,*64
06/24/2015	08:05:09.488	$GPGGA,080510,2510.7128,N,08009.0939,W,1,10,1.5,13,M,,M,,*63
06/24/2015	08:05:10.588	$GPGGA,080511,2510.7120,N,08009.0943,W,1,10,1.5,13,M,,M,,*67
06/24/2015	08:05:11.498	$GPGGA,080512,2510.7112,N,08009.0944,W,1,10,1.5,13,M,,M,,*62
06/24/2015	08:05:12.508	$GPGGA,080513,2510.7104,N,08009.0944,W,1,10,1.5,13,M,,M,,*64
06/24/2015	08:05:13.638	$GPGGA,080514,2510.7096,N,08009.0947,W,1,10,1.5,14,M,,M,,*6D
06/24/2015	08:05:14.578	$GPGGA,080515,2510.7088,N,08009.0947,W,1,10,1.5,14,M,,M,,*63
06/24/2015	08:05:15.488	$GPGGA,080516,2510.7080,N,08009.0950,W,1,10,1.5,14,M,,M,,*6E
06/24/2015	08:05:16.488	$GPGGA,080517,2510.7072,N,08009.0950,W,1,10,1.5,14,M,,M,,*62
06/24/2015	08:05:17.588	$GPGGA,080518,2510.7065,N,08009.0951,W,1,10,1.5,14,M,,M,,*6A
06/24/2015	08:05:18.489	$GPGGA,080519,2510.7057,N,08009.0952,W,1,10,1.5,14,M,,M,,*69
06/24/2015	08:05:19.488	$GPGGA,080520,2510.7049,N,08009.0954,W,1,9,1.5,14,M,,M,,*52
06/24/2015	08:05:20.579	$GPGGA,080521,2510.7040,N,08009.0955,W,1,9,1.5,14,M,,M,,*5B
06/24/2015	08:05:21.569	$GPGGA,080522,2510.7032,N,08009.0958,W,1,9,1.5,14,M,,M,,*50
06/24/2015	08:05:22.569	$GPGGA,080523,2510.7025,N,08009.0959,W,1,9,1.5,15,M,,M,,*57
06/24/2015	08:05:23.618	$GPGGA,080524,2510.7018,N,08009.0961,W,1,9,1.5,15,M,,M,,*55
06/24/2015	08:05:24.568	$GPGGA,080525,2510.7009,N,08009.0962,W,1,9,1.5,15,M,,M,,*57
06/24/2015	08:05:25.588	$GPGGA,080526,2510.7001,N,08009.0966,W,1,9,1.5,15,M,,M,,*58
06/24/2015	08:05:26.558	$GPGGA,080527,2510.6994,N,08009.0968,W,1,9,1.5,15,M,,M,,*53
06/24/2015	08:05:27.578	$GPGGA,080528,2510.6986,N,08009.0968,W,1,10,1.5,15,M,,M,,*67
06/24/2015	08:05:28.559	$GPGGA,080529,2510.6978,N,08009.0972,W,1,10,1.5,15,M,,M,,*6C
06/24/2015	08:05:29.578	$GPGGA,080530,2510.6971,N,08009.0975,W,1,10,1.5,15,M,,M,,*6A
06/24/2015	08:05:30.558	$GPGGA,080531,2510.6964,N,08009.0975,W,1,10,1.5,16,M,,M,,*6C
06/24/2015	08:05:31.558	$GPGGA,080532,2510.6955,N,08009.0976,W,1,10,1.5,16,M,,M,,*6E
06/24/2015	08:05:32.549	$GPGGA,080533,2510.6949,N,08009.0979,W,1,10,1.5,16,M,,M,,*6D
06/24/2015	08:05:33.538	$GPGGA,080534,2510.6942,N,08009.0982,W,1,10,1.5,16,M,,M,,*65
06/24/2015	08:05:34.548	$GPGGA,080535,2510.6932,N,08009.0983,W,1,10,1.5,16,M,,M,,*62
06/24/2015	08:05:35.578	$GPGGA,080536,2510.6925,N,08009.0984,W,1,10,1.5,16,M,,M,,*60
06/24/2015	08:05:36.538	$GPGGA,080537,2510.6917,N,08009.0986,W,1,10,1.5,16,M,,M,,*62
06/24/2015	08:05:37.538	$GPGGA,080538,2510.6910,N,08009.0990,W,1,10,1.5,16,M,,M,,*6D
06/24/2015	08:05:38.539	$GPGGA,080539,2510.6902,N,08009.0991,W,1,10,1.5,16,M,,M,,*6E
06/24/2015	08:05:39.589	$GPGGA,080540,2510.6895,N,08009.0991,W,1,10,1.5,16,M,,M,,*6F
06/24/2015	08:05:40.528	$GPGGA,080541,2510.6888,N,08009.0995,W,1,10,1.5,17,M,,M,,*67
06/24/2015	08:05:41.538	$GPGGA,080542,2510.6879,N,08009.0997,W,1,10,1.5,17,M,,M,,*68
06/24/2015	08:05:42.528	$GPGGA,080543,2510.6871,N,08009.0996,W,1,10,1.5,17,M,,M,,*60
06/24/2015	08:05:43.588	$GPGGA,080544,2510.6864,N,08009.0999,W,1,10,1.5,17,M,,M,,*6C
06/24/2015	08:05:44.528	$GPGGA,080545,2510.6856,N,08009.1002,W,1,10,1.5,17,M,,M,,*66
06/24/2015	08:05:45.558	$GPGGA,080546,2510.6848,N,08009.1001,W,1,10,1.5,17,M,,M,,*69
06/24/2015	08:05:46.518	$GPGGA,080547,2510.6841,N,08009.1004,W,1,10,1.5,17,M,,M,,*64
06/24/2015	08:05:47.558	$GPGGA,080548,2510.6834,N,08009.1006,W,1,10,1.5,17,M,,M,,*6B
06/24/2015	08:05:48.508	$GPGGA,080549,2510.6825,N,08009.1008,W,1,10,1.5,17,M,,M,,*64
06/24/2015	08:05:49.538	$GPGGA,080550,2510.6817,N,08009.1008,W,1,10,1.5,17,M,,M,,*6D
06/24/2015	08:05:50.518	$GPGGA,080551,2510.6810,N,08009.1011,W,1,10,1.5,17,M,,M,,*63
06/24/2015	08:05:51.538	$GPGGA,080552,2510.6802,N,08009.1012,W,1,10,1.5,17,M,,M,,*60
06/24/2015	08:05:52.610	$GPGGA,080553,2510.6794,N,08009.1013,W,1,10,1.5,17,M,,M,,*60
06/24/2015	08:05:53.788	$GPGGA,080554,2510.6787,N,08009.1015,W,1,10,1.5,17,M,,M,,*63
06/24/2015	08:05:54.624	$GPGGA,080555,2510.6779,N,08009.1016,W,1,10,1.5,17,M,,M,,*60
06/24/2015	08:05:55.539	$GPGGA,080556,2510.6772,N,08009.1017,W,1,10,1.5,17,M,,M,,*69
06/24/2015	08:05:56.511	$GPGGA,080557,2510.6763,N,08009.1020,W,1,10,1.5,17,M,,M,,*6C
06/24/2015	08:05:57.589	$GPGGA,080558,2510.6756,N,08009.1022,W,1,10,1.5,17,M,,M,,*67
06/24/2015	08:05:58.598	$GPGGA,080559,2510.6748,N,08009.1022,W,1,10,1.5,17,M,,M,,*69
06/24/2015	08:05:59.668	$GPGGA,080600,2510.6740,N,08009.1026,W,1,10,1.5,17,M,,M,,*6A
06/24/2015	08:06:00.622	$GPGGA,080601,2510.6733,N,08009.1029,W,1,10,1.5,17,M,,M,,*60
06/24/2015	08:06:01.588	$GPGGA,080602,2510.6725,N,08009.1028,W,1,10,1.5,17,M,,M,,*65
06/24/2015	08:06:02.588	$GPGGA,080603,2510.6718,N,08009.1031,W,1,10,1.5,17,M,,M,,*62
06/24/2015	08:06:03.628	$GPGGA,080604,2510.6711,N,08009.1033,W,1,10,1.5,17,M,,M,,*6E
06/24/2015	08:06:04.578	$GPGGA,080605,2510.6702,N,08009.1034,W,1,10,1.5,17,M,,M,,*6A
06/24/2015	08:06:05.488	$GPGGA,080606,2510.6695,N,08009.1037,W,1,10,1.5,17,M,,M,,*65
06/24/2015	08:06:06.578	$GPGGA,080607,2510.6689,N,08009.1040,W,1,10,1.5,17,M,,M,,*69
06/24/2015	08:06:07.648	$GPGGA,080608,2510.6679,N,08009.1041,W,1,10,1.5,17,M,,M,,*68
06/24/2015	08:06:08.568	$GPGGA,080609,2510.6672,N,08009.1042,W,1,10,1.5,17,M,,M,,*61
06/24/2015	08:06:09.568	$GPGGA,080610,2510.6665,N,08009.1045,W,1,10,1.5,17,M,,M,,*68
06/24/2015	08:06:10.579	$GPGGA,080611,2510.6657,N,08009.1048,W,1,10,1.5,17,M,,M,,*65
06/24/2015	08:06:11.578	$GPGGA,080612,2510.6649,N,08009.1048,W,1,10,1.5,17,M,,M,,*69
06/24/2015	08:06:12.558	$GPGGA,080613,2510.6640,N,08009.1051,W,1,10,1.7,17,M,,M,,*6B
06/24/2015	08:06:13.569	$GPGGA,080614,2510.6633,N,08009.1055,W,1,10,1.5,17,M,,M,,*6E
06/24/2015	08:06:14.569	$GPGGA,080615,2510.6625,N,08009.1058,W,1,10,1.5,17,M,,M,,*65
06/24/2015	08:06:15.578	$GPGGA,080616,2510.6617,N,08009.1059,W,1,10,1.5,17,M,,M,,*66
06/24/2015	08:06:16.568	$GPGGA,080617,2510.6609,N,08009.1062,W,1,10,1.5,17,M,,M,,*60
06/24/2015	08:06:17.558	$GPGGA,080618,2510.6601,N,08009.1064,W,1,10,1.5,17,M,,M,,*61
06/24/2015	08:06:18.558	$GPGGA,080619,2510.6593,N,08009.1066,W,1,10,1.5,17,M,,M,,*6A
06/24/2015	08:06:19.588	$GPGGA,080620,2510.6585,N,08009.1066,W,1,10,1.5,17,M,,M,,*67
06/24/2015	08:06:20.548	$GPGGA,080621,2510.6578,N,08009.1069,W,1,10,1.5,17,M,,M,,*6B
06/24/2015	08:06:21.578	$GPGGA,080622,2510.6571,N,08009.1073,W,1,10,1.5,17,M,,M,,*6A
06/24/2015	08:06:22.558	$GPGGA,080623,2510.6563,N,08009.1073,W,1,10,1.5,17,M,,M,,*68
06/24/2015	08:06:23.548	$GPGGA,080624,2510.6555,N,08009.1074,W,1,10,1.5,17,M,,M,,*6D
06/24/2015	08:06:24.538	$GPGGA,080625,2510.6548,N,08009.1080,W,1,10,1.5,17,M,,M,,*6B
06/24/2015	08:06:25.568	$GPGGA,080626,2510.6541,N,08009.1081,W,1,10,1.5,17,M,,M,,*60
06/24/2015	08:06:26.538	$GPGGA,080627,2510.6534,N,08009.1082,W,1,10,1.5,17,M,,M,,*60
06/24/2015	08:06:27.568	$GPGGA,080628,2510.6526,N,08009.1087,W,1,10,1.5,17,M,,M,,*69
06/24/2015	08:06:28.538	$GPGGA,080629,2510.6519,N,08009.1089,W,1,10,1.5,17,M,,M,,*6A
06/24/2015	08:06:29.538	$GPGGA,080630,2510.6512,N,08009.1091,W,1,10,1.5,17,M,,M,,*60
06/24/2015	08:06:30.529	$GPGGA,080631,2510.6503,N,08009.1095,W,1,10,1.5,17,M,,M,,*65
06/24/2015	08:06:31.569	$GPGGA,080632,2510.6496,N,08009.1098,W,1,10,1.5,17,M,,M,,*66
06/24/2015	08:06:32.539	$GPGGA,080633,2510.6489,N,08009.1099,W,1,10,1.5,17,M,,M,,*68
06/24/2015	08:06:33.558	$GPGGA,080634,2510.6480,N,08009.1102,W,1,10,1.5,17,M,,M,,*65
06/24/2015	08:06:34.528	$GPGGA,080635,2510.6473,N,08009.1105,W,1,10,1.5,17,M,,M,,*6F
06/24/2015	08:06:35.548	$GPGGA,080636,2510.6466,N,08009.1109,W,1,10,1.5,17,M,,M,,*64
06/24/2015	08:06:36.518	$GPGGA,080637,2510.6458,N,08009.1109,W,1,10,1.5,17,M,,M,,*68
06/24/2015	08:06:37.549	$GPGGA,080638,2510.6451,N,08009.1111,W,1,10,1.5,17,M,,M,,*67
06/24/2015	08:06:38.509	$GPGGA,080639,2510.6444,N,08009.1114,W,1,10,1.7,17,M,,M,,*65
06/24/2015	08:06:39.538	$GPGGA,080640,2510.6437,N,08009.1117,W,1,10,1.5,17,M,,M,,*6E
06/24/2015	08:06:40.518	$GPGGA,080641,2510.6429,N,08009.1120,W,1,10,1.5,17,M,,M,,*64
06/24/2015	08:06:41.528	$GPGGA,080642,2510.6422,N,08009.1120,W,1,10,1.5,17,M,,M,,*6C
06/24/2015	08:06:42.512	$GPGGA,080643,2510.6414,N,08009.1124,W,1,10,1.5,17,M,,M,,*6C
06/24/2015	08:06:43.619	$GPGGA,080644,2510.6406,N,08009.1127,W,1,10,1.5,16,M,,M,,*6A
06/24/2015	08:06:44.518	$GPGGA,080645,2510.6398,N,08009.1126,W,1,10,1.5,16,M,,M,,*6A
06/24/2015	08:06:45.628	$GPGGA,080646,2510.6390,N,08009.1129,W,1,10,1.5,16,M,,M,,*6E
06/24/2015	08:06:46.498	$GPGGA,080647,2510.6383,N,08009.1132,W,1,10,1.5,16,M,,M,,*67
06/24/2015	08:06:47.528	$GPGGA,080648,2510.6375,N,08009.1132,W,1,10,1.5,16,M,,M,,*61
06/24/2015	08:06:48.599	$GPGGA,080649,2510.6368,N,08009.1134,W,1,10,1.5,16,M,,M,,*6A
06/24/2015	08:06:49.489	$GPGGA,080650,2510.6360,N,08009.1136,W,1,10,1.5,16,M,,M,,*68
06/24/2015	08:06:50.588	$GPGGA,080651,2510.6353,N,08009.1138,W,1,10,1.5,16,M,,M,,*67
06/24/2015	08:06:51.629	$GPGGA,080652,2510.6346,N,08009.1139,W,1,10,1.5,16,M,,M,,*61
06/24/2015	08:06:52.498	$GPGGA,080653,2510.6339,N,08009.1142,W,1,10,1.5,16,M,,M,,*64
06/24/2015	08:06:53.608	$GPGGA,080654,2510.6330,N,08009.1142,W,1,9,1.5,16,M,,M,,*52
06/24/2015	08:06:54.488	$GPGGA,080655,2510.6322,N,08009.1145,W,1,9,1.5,16,M,,M,,*57
06/24/2015	08:06:55.609	$GPGGA,080656,2510.6315,N,08009.1146,W,1,10,1.5,16,M,,M,,*6B
06/24/2015	08:06:56.578	$GPGGA,080657,2510.6308,N,08009.1147,W,1,10,1.5,16,M,,M,,*67
06/24/2015	08:06:57.838	$GPGGA,080658,2510.6300,N,08009.1149,W,1,10,1.5,16,M,,M,,*6E
06/24/2015	08:06:58.578	$GPGGA,080659,2510.6292,N,08009.1152,W,1,10,1.5,15,M,,M,,*6C
06/24/2015	08:06:59.622	$GPGGA,080700,2510.6286,N,08009.1153,W,1,10,1.5,15,M,,M,,*65
06/24/2015	08:07:00.568	$GPGGA,080701,2510.6277,N,08009.1156,W,1,10,1.5,15,M,,M,,*6F
06/24/2015	08:07:01.598	$GPGGA,080702,2510.6270,N,08009.1158,W,1,10,1.5,15,M,,M,,*65
06/24/2015	08:07:02.568	$GPGGA,080703,2510.6263,N,08009.1160,W,1,10,1.5,15,M,,M,,*6D
06/24/2015	08:07:03.608	$GPGGA,080704,2510.6254,N,08009.1160,W,1,10,1.5,15,M,,M,,*6E
06/24/2015	08:07:04.568	$GPGGA,080705,2510.6247,N,08009.1163,W,1,10,1.5,15,M,,M,,*6E
06/24/2015	08:07:05.579	$GPGGA,080706,2510.6241,N,08009.1165,W,1,10,1.5,15,M,,M,,*6D
06/24/2015	08:07:06.569	$GPGGA,080707,2510.6232,N,08009.1167,W,1,10,1.5,15,M,,M,,*6A
06/24/2015	08:07:07.589	$GPGGA,080708,2510.6223,N,08009.1168,W,1,10,1.5,15,M,,M,,*6A
06/24/2015	08:07:08.548	$GPGGA,080709,2510.6216,N,08009.1171,W,1,10,1.5,15,M,,M,,*65
06/24/2015	08:07:09.578	$GPGGA,080710,2510.6208,N,08009.1174,W,1,10,1.5,15,M,,M,,*67
06/24/2015	08:07:10.558	$GPGGA,080711,2510.6201,N,08009.1174,W,1,10,1.5,15,M,,M,,*6F
06/24/2015	08:07:11.608	$GPGGA,080712,2510.6194,N,08009.1176,W,1,10,1.5,15,M,,M,,*61
06/24/2015	08:07:12.548	$GPGGA,080713,2510.6185,N,08009.1178,W,1,10,1.5,15,M,,M,,*6E
06/24/2015	08:07:13.558	$GPGGA,080714,2510.6177,N,08009.1179,W,1,10,1.5,15,M,,M,,*65
06/24/2015	08:07:14.548	$GPGGA,080715,2510.6170,N,08009.1181,W,1,10,1.5,15,M,,M,,*64
06/24/2015	08:07:15.588	$GPGGA,080716,2510.6162,N,08009.1182,W,1,10,1.5,15,M,,M,,*67
06/24/2015	08:07:16.538	$GPGGA,080717,2510.6154,N,08009.1183,W,1,10,1.5,15,M,,M,,*62
06/24/2015	08:07:17.538	$GPGGA,080718,2510.6147,N,08009.1185,W,1,10,1.5,15,M,,M,,*69
06/24/2015	08:07:18.548	$GPGGA,080719,2510.6137,N,08009.1186,W,1,10,1.5,15,M,,M,,*6C
06/24/2015	08:07:19.568	$GPGGA,080720,2510.6129,N,08009.1188,W,1,10,1.5,15,M,,M,,*67
06/24/2015	08:07:20.548	$GPGGA,080721,2510.6122,N,08009.1189,W,1,10,1.5,15,M,,M,,*6C
06/24/2015	08:07:21.548	$GPGGA,080722,2510.6113,N,08009.1190,W,1,10,1.5,15,M,,M,,*65
06/24/2015	08:07:22.525	$GPGGA,080723,2510.6105,N,08009.1192,W,1,10,1.5,15,M,,M,,*61
06/24/2015	08:07:23.559	$GPGGA,080724,2510.6097,N,08009.1193,W,1,10,1.5,15,M,,M,,*6D
06/24/2015	08:07:24.529	$GPGGA,080725,2510.6088,N,08009.1196,W,1,10,1.5,15,M,,M,,*67
06/24/2015	08:07:25.528	$GPGGA,080726,2510.6080,N,08009.1196,W,1,10,1.5,15,M,,M,,*6C
06/24/2015	08:07:26.530	$GPGGA,080727,2510.6072,N,08009.1199,W,1,10,1.8,15,M,,M,,*62
06/24/2015	08:07:27.578	$GPGGA,080728,2510.6064,N,08009.1201,W,1,9,2.1,14,M,,M,,*5B
06/24/2015	08:07:28.527	$GPGGA,080729,2510.6057,N,08009.1200,W,1,9,1.5,14,M,,M,,*5C
06/24/2015	08:07:29.628	$GPGGA,080730,2510.6049,N,08009.1200,W,1,10,1.5,14,M,,M,,*63
06/24/2015	08:07:30.526	$GPGGA,080731,2510.6042,N,08009.1203,W,1,10,1.5,14,M,,M,,*6A
06/24/2015	08:07:31.648	$GPGGA,080732,2510.6035,N,08009.1206,W,1,10,1.5,14,M,,M,,*6C
06/24/2015	08:07:32.548	$GPGGA,080733,2510.6028,N,08009.1205,W,1,10,1.5,14,M,,M,,*62
06/24/2015	08:07:33.610	$GPGGA,080734,2510.6021,N,08009.1207,W,1,10,1.4,14,M,,M,,*6F
06/24/2015	08:07:34.598	$GPGGA,080735,2510.6014,N,08009.1210,W,1,10,1.4,14,M,,M,,*6E
06/24/2015	08:07:35.568	$GPGGA,080736,2510.6006,N,08009.1210,W,1,10,1.4,14,M,,M,,*6E
06/24/2015	08:07:36.608	$GPGGA,080737,2510.5999,N,08009.1209,W,1,10,1.4,14,M,,M,,*6B
06/24/2015	08:07:37.521	$GPGGA,080738,2510.5992,N,08009.1211,W,1,10,1.4,15,M,,M,,*67
06/24/2015	08:07:38.611	$GPGGA,080739,2510.5985,N,08009.1215,W,1,10,1.4,15,M,,M,,*64
06/24/2015	08:07:39.629	$GPGGA,080740,2510.5977,N,08009.1215,W,1,10,1.4,15,M,,M,,*67
06/24/2015	08:07:40.589	$GPGGA,080741,2510.5970,N,08009.1215,W,1,10,1.4,15,M,,M,,*61
06/24/2015	08:07:41.609	$GPGGA,080742,2510.5963,N,08009.1219,W,1,10,1.4,15,M,,M,,*6C
06/24/2015	08:07:42.579	$GPGGA,080743,2510.5957,N,08009.1221,W,1,10,1.4,15,M,,M,,*61
06/24/2015	08:07:43.588	$GPGGA,080744,2510.5949,N,08009.1221,W,1,10,1.4,15,M,,M,,*69
06/24/2015	08:07:44.598	$GPGGA,080745,2510.5941,N,08009.1225,W,1,10,1.4,15,M,,M,,*64
06/24/2015	08:07:45.578	$GPGGA,080746,2510.5934,N,08009.1226,W,1,10,1.4,15,M,,M,,*66
06/24/2015	08:07:46.578	$GPGGA,080747,2510.5927,N,08009.1229,W,1,10,1.4,15,M,,M,,*6A
06/24/2015	08:07:47.598	$GPGGA,080748,2510.5919,N,08009.1230,W,1,11,1.4,15,M,,M,,*61
06/24/2015	08:07:50.025	$GPGGA,080750,2510.5905,N,08009.1237,W,1,10,1.7,15,M,,M,,*60
06/24/2015	08:07:50.578	$GPGGA,080751,2510.5895,N,08009.1240,W,1,10,1.4,15,M,,M,,*6A
06/24/2015	08:07:51.588	$GPGGA,080752,2510.5887,N,08009.1240,W,1,11,1.4,15,M,,M,,*6B
06/24/2015	08:07:52.568	$GPGGA,080753,2510.5878,N,08009.1243,W,1,11,1.4,15,M,,M,,*69
06/24/2015	08:07:53.568	$GPGGA,080754,2510.5871,N,08009.1248,W,1,11,1.4,15,M,,M,,*6C
06/24/2015	08:07:54.558	$GPGGA,080755,2510.5862,N,08009.1250,W,1,11,1.5,15,M,,M,,*67
06/24/2015	08:07:57.889	$GPGGA,080758,2510.5838,N,08009.1257,W,1,11,1.4,15,M,,M,,*63
06/24/2015	08:07:58.549	$GPGGA,080759,2510.5830,N,08009.1259,W,1,11,1.4,15,M,,M,,*64
06/24/2015	08:07:59.569	$GPGGA,080800,2510.5822,N,08009.1261,W,1,11,1.4,15,M,,M,,*6F
06/24/2015	08:08:00.548	$GPGGA,080801,2510.5813,N,08009.1262,W,1,11,1.4,15,M,,M,,*6F
06/24/2015	08:08:01.558	$GPGGA,080802,2510.5805,N,08009.1265,W,1,11,1.4,15,M,,M,,*6C
06/24/2015	08:08:02.559	$GPGGA,080803,2510.5797,N,08009.1268,W,1,11,1.4,15,M,,M,,*64
06/24/2015	08:08:03.578	$GPGGA,080804,2510.5788,N,08009.1269,W,1,11,1.4,15,M,,M,,*6C
06/24/2015	08:08:04.558	$GPGGA,080805,2510.5780,N,08009.1272,W,1,11,1.4,15,M,,M,,*6F
06/24/2015	08:08:05.648	$GPGGA,080806,2510.5772,N,08009.1272,W,1,11,1.4,15,M,,M,,*61
06/24/2015	08:08:06.538	$GPGGA,080807,2510.5764,N,08009.1276,W,1,11,1.4,15,M,,M,,*63
06/24/2015	08:08:07.588	$GPGGA,080808,2510.5757,N,08009.1277,W,1,10,1.5,15,M,,M,,*6D
06/24/2015	08:08:08.528	$GPGGA,080809,2510.5748,N,08009.1279,W,1,10,1.4,15,M,,M,,*6D
06/24/2015	08:08:09.538	$GPGGA,080810,2510.5740,N,08009.1283,W,1,11,1.4,15,M,,M,,*69
06/24/2015	08:08:10.528	$GPGGA,080811,2510.5733,N,08009.1284,W,1,11,1.4,15,M,,M,,*6B
06/24/2015	08:08:11.648	$GPGGA,080812,2510.5724,N,08009.1286,W,1,11,1.4,15,M,,M,,*6C
06/24/2015	08:08:12.528	$GPGGA,080813,2510.5717,N,08009.1287,W,1,11,1.4,15,M,,M,,*6C
06/24/2015	08:08:13.638	$GPGGA,080814,2510.5708,N,08009.1293,W,1,11,1.4,15,M,,M,,*60
06/24/2015	08:08:14.508	$GPGGA,080815,2510.5700,N,08009.1294,W,1,11,1.4,15,M,,M,,*6E
06/24/2015	08:08:15.639	$GPGGA,080816,2510.5692,N,08009.1294,W,1,11,1.4,15,M,,M,,*67
06/24/2015	08:08:16.519	$GPGGA,080817,2510.5685,N,08009.1298,W,1,11,1.4,15,M,,M,,*6C
06/24/2015	08:08:17.629	$GPGGA,080818,2510.5678,N,08009.1302,W,1,11,1.4,15,M,,M,,*63
06/24/2015	08:08:18.528	$GPGGA,080819,2510.5669,N,08009.1302,W,1,11,1.4,15,M,,M,,*62
06/24/2015	08:08:19.648	$GPGGA,080820,2510.5663,N,08009.1304,W,1,11,1.4,15,M,,M,,*64
06/24/2015	08:08:20.520	$GPGGA,080821,2510.5656,N,08009.1308,W,1,11,1.4,15,M,,M,,*6F
06/24/2015	08:08:21.628	$GPGGA,080822,2510.5648,N,08009.1308,W,1,11,1.4,15,M,,M,,*63
06/24/2015	08:08:22.511	$GPGGA,080823,2510.5640,N,08009.1311,W,1,11,1.4,15,M,,M,,*62
06/24/2015	08:08:23.628	$GPGGA,080824,2510.5634,N,08009.1311,W,1,11,1.4,15,M,,M,,*66
06/24/2015	08:08:24.620	$GPGGA,080825,2510.5625,N,08009.1313,W,1,11,1.4,15,M,,M,,*65
06/24/2015	08:08:25.598	$GPGGA,080826,2510.5618,N,08009.1316,W,1,11,1.4,15,M,,M,,*6D
06/24/2015	08:08:26.598	$GPGGA,080827,2510.5611,N,08009.1318,W,1,11,1.4,15,M,,M,,*6B
06/24/2015	08:08:27.628	$GPGGA,080828,2510.5603,N,08009.1319,W,1,11,1.4,14,M,,M,,*67
06/24/2015	08:08:28.588	$GPGGA,080829,2510.5595,N,08009.1322,W,1,11,1.4,14,M,,M,,*62
06/24/2015	08:08:29.598	$GPGGA,080830,2510.5587,N,08009.1323,W,1,11,1.4,14,M,,M,,*68
06/24/2015	08:08:30.588	$GPGGA,080831,2510.5580,N,08009.1326,W,1,11,1.4,14,M,,M,,*6B
06/24/2015	08:08:31.588	$GPGGA,080832,2510.5570,N,08009.1327,W,1,11,1.4,14,M,,M,,*66
06/24/2015	08:08:32.588	$GPGGA,080833,2510.5563,N,08009.1329,W,1,11,1.7,14,M,,M,,*68
06/24/2015	08:08:33.599	$GPGGA,080834,2510.5556,N,08009.1331,W,1,11,1.4,14,M,,M,,*63
06/24/2015	08:08:34.569	$GPGGA,080835,2510.5548,N,08009.1333,W,1,11,1.4,14,M,,M,,*6F
06/24/2015	08:08:35.608	$GPGGA,080836,2510.5540,N,08009.1333,W,1,11,1.4,14,M,,M,,*64
06/24/2015	08:08:36.578	$GPGGA,080837,2510.5533,N,08009.1337,W,1,11,1.4,14,M,,M,,*65
06/24/2015	08:08:37.588	$GPGGA,080838,2510.5526,N,08009.1338,W,1,11,1.4,14,M,,M,,*61
06/24/2015	08:08:38.578	$GPGGA,080839,2510.5516,N,08009.1340,W,1,11,1.4,13,M,,M,,*6B
06/24/2015	08:08:39.598	$GPGGA,080840,2510.5508,N,08009.1340,W,1,11,1.4,13,M,,M,,*6A
06/24/2015	08:08:40.568	$GPGGA,080841,2510.5501,N,08009.1344,W,1,11,1.4,13,M,,M,,*66
06/24/2015	08:08:41.568	$GPGGA,080842,2510.5493,N,08009.1345,W,1,11,1.4,13,M,,M,,*6E
06/24/2015	08:08:42.568	$GPGGA,080843,2510.5484,N,08009.1347,W,1,11,1.4,13,M,,M,,*6B
06/24/2015	08:08:43.588	$GPGGA,080844,2510.5476,N,08009.1348,W,1,11,1.4,13,M,,M,,*6E
06/24/2015	08:08:44.558	$GPGGA,080845,2510.5469,N,08009.1349,W,1,11,1.4,13,M,,M,,*60
06/24/2015	08:08:45.568	$GPGGA,080846,2510.5461,N,08009.1352,W,1,11,1.4,13,M,,M,,*61
06/24/2015	08:08:46.568	$GPGGA,080847,2510.5453,N,08009.1352,W,1,11,1.4,13,M,,M,,*61
06/24/2015	08:08:47.568	$GPGGA,080848,2510.5445,N,08009.1352,W,1,11,1.4,12,M,,M,,*68
06/24/2015	08:08:48.548	$GPGGA,080849,2510.5437,N,08009.1356,W,1,11,1.4,12,M,,M,,*68
06/24/2015	08:08:49.548	$GPGGA,080850,2510.5429,N,08009.1358,W,1,11,1.4,12,M,,M,,*61
06/24/2015	08:08:50.539	$GPGGA,080851,2510.5421,N,08009.1359,W,1,11,1.4,12,M,,M,,*69
06/24/2015	08:08:51.559	$GPGGA,080852,2510.5412,N,08009.1362,W,1,11,1.4,12,M,,M,,*62
06/24/2015	08:08:52.549	$GPGGA,080853,2510.5404,N,08009.1366,W,1,11,1.4,12,M,,M,,*60
06/24/2015	08:08:53.548	$GPGGA,080854,2510.5396,N,08009.1366,W,1,11,1.4,12,M,,M,,*6B
06/24/2015	08:08:54.538	$GPGGA,080855,2510.5387,N,08009.1367,W,1,11,1.4,12,M,,M,,*6B
06/24/2015	08:08:55.548	$GPGGA,080856,2510.5380,N,08009.1370,W,1,11,1.4,12,M,,M,,*69
06/24/2015	08:08:56.548	$GPGGA,080857,2510.5372,N,08009.1373,W,1,11,1.4,12,M,,M,,*66
06/24/2015	08:08:57.548	$GPGGA,080858,2510.5363,N,08009.1373,W,1,11,1.4,12,M,,M,,*69
06/24/2015	08:08:58.548	$GPGGA,080859,2510.5356,N,08009.1376,W,1,11,1.4,12,M,,M,,*6B
06/24/2015	08:08:59.558	$GPGGA,080900,2510.5349,N,08009.1380,W,1,11,1.4,12,M,,M,,*61
06/24/2015	08:09:00.519	$GPGGA,080901,2510.5340,N,08009.1381,W,1,11,1.4,12,M,,M,,*68
06/24/2015	08:09:01.548	$GPGGA,080902,2510.5331,N,08009.1381,W,1,11,1.4,12,M,,M,,*6D
06/24/2015	08:09:02.518	$GPGGA,080903,2510.5323,N,08009.1385,W,1,11,1.4,12,M,,M,,*6B
06/24/2015	08:09:03.520	$GPGGA,080904,2510.5316,N,08009.1389,W,1,11,1.4,12,M,,M,,*66
06/24/2015	08:09:04.518	$GPGGA,080905,2510.5309,N,08009.1388,W,1,11,1.4,12,M,,M,,*68
06/24/2015	08:09:05.610	$GPGGA,080906,2510.5299,N,08009.1391,W,1,11,1.4,12,M,,M,,*6B
06/24/2015	08:09:06.619	$GPGGA,080907,2510.5293,N,08009.1395,W,1,11,1.4,12,M,,M,,*64
06/24/2015	08:09:07.558	$GPGGA,080908,2510.5284,N,08009.1396,W,1,11,1.4,11,M,,M,,*6D
06/24/2015	08:09:08.520	$GPGGA,080909,2510.5276,N,08009.1396,W,1,11,1.4,11,M,,M,,*61
06/24/2015	08:09:09.649	$GPGGA,080910,2510.5269,N,08009.1399,W,1,11,1.4,11,M,,M,,*68
06/24/2015	08:09:10.518	$GPGGA,080911,2510.5262,N,08009.1403,W,1,11,1.4,11,M,,M,,*66
06/24/2015	08:09:11.622	$GPGGA,080912,2510.5253,N,08009.1403,W,1,11,1.4,11,M,,M,,*67
06/24/2015	08:09:12.509	$GPGGA,080913,2510.5245,N,08009.1405,W,1,11,1.4,11,M,,M,,*67
06/24/2015	08:09:13.598	$GPGGA,080914,2510.5238,N,08009.1409,W,1,11,1.4,11,M,,M,,*66
06/24/2015	08:09:14.598	$GPGGA,080915,2510.5230,N,08009.1412,W,1,11,1.5,11,M,,M,,*64
06/24/2015	08:09:15.610	$GPGGA,080916,2510.5220,N,08009.1413,W,1,11,1.4,11,M,,M,,*66
06/24/2015	08:09:16.598	$GPGGA,080917,2510.5212,N,08009.1416,W,1,11,1.4,11,M,,M,,*63
06/24/2015	08:09:17.608	$GPGGA,080918,2510.5204,N,08009.1418,W,1,11,1.4,11,M,,M,,*65
06/24/2015	08:09:18.598	$GPGGA,080919,2510.5197,N,08009.1421,W,1,11,1.4,11,M,,M,,*67
06/24/2015	08:09:19.621	$GPGGA,080920,2510.5188,N,08009.1421,W,1,11,1.4,11,M,,M,,*63
06/24/2015	08:09:20.588	$GPGGA,080921,2510.5180,N,08009.1423,W,1,11,1.4,11,M,,M,,*68
06/24/2015	08:09:21.588	$GPGGA,080922,2510.5173,N,08009.1427,W,1,11,1.4,11,M,,M,,*63
06/24/2015	08:09:22.588	$GPGGA,080923,2510.5165,N,08009.1430,W,1,11,1.4,11,M,,M,,*63
06/24/2015	08:09:23.608	$GPGGA,080924,2510.5156,N,08009.1429,W,1,11,1.4,11,M,,M,,*6C
06/24/2015	08:09:24.578	$GPGGA,080925,2510.5150,N,08009.1431,W,1,11,1.4,11,M,,M,,*62
06/24/2015	08:09:25.589	$GPGGA,080926,2510.5143,N,08009.1435,W,1,11,1.4,11,M,,M,,*67
06/24/2015	08:09:27.639	$GPGGA,080928,2510.5125,N,08009.1438,W,1,10,1.5,11,M,,M,,*64
06/24/2015	08:09:28.578	$GPGGA,080929,2510.5117,N,08009.1441,W,1,10,1.4,11,M,,M,,*6B
06/24/2015	08:09:29.588	$GPGGA,080930,2510.5110,N,08009.1445,W,1,11,1.4,11,M,,M,,*61
06/24/2015	08:09:30.558	$GPGGA,080931,2510.5103,N,08009.1443,W,1,11,1.5,11,M,,M,,*65
06/24/2015	08:09:31.610	$GPGGA,080932,2510.5096,N,08009.1445,W,1,11,1.4,11,M,,M,,*6C
06/24/2015	08:09:32.558	$GPGGA,080933,2510.5089,N,08009.1449,W,1,11,1.4,11,M,,M,,*6F
06/24/2015	08:09:33.588	$GPGGA,080934,2510.5081,N,08009.1449,W,1,11,1.4,11,M,,M,,*60
06/24/2015	08:09:34.568	$GPGGA,080935,2510.5074,N,08009.1448,W,1,11,1.4,11,M,,M,,*6A
06/24/2015	08:09:35.588	$GPGGA,080936,2510.5067,N,08009.1452,W,1,11,1.4,11,M,,M,,*60
06/24/2015	08:09:36.558	$GPGGA,080937,2510.5058,N,08009.1454,W,1,11,1.4,11,M,,M,,*6B
06/24/2015	08:09:37.548	$GPGGA,080938,2510.5050,N,08009.1454,W,1,11,1.4,11,M,,M,,*6C
06/24/2015	08:09:38.558	$GPGGA,080939,2510.5042,N,08009.1456,W,1,11,1.4,11,M,,M,,*6C
06/24/2015	08:09:39.568	$GPGGA,080940,2510.5035,N,08009.1459,W,1,11,1.4,11,M,,M,,*6D
06/24/2015	08:09:40.538	$GPGGA,080941,2510.5028,N,08009.1461,W,1,11,1.4,11,M,,M,,*6B
06/24/2015	08:09:41.558	$GPGGA,080942,2510.5020,N,08009.1461,W,1,11,1.4,11,M,,M,,*60
06/24/2015	08:09:42.548	$GPGGA,080943,2510.5013,N,08009.1461,W,1,11,1.4,11,M,,M,,*61
06/24/2015	08:09:43.549	$GPGGA,080944,2510.5004,N,08009.1467,W,1,11,1.4,11,M,,M,,*66
06/24/2015	08:09:44.559	$GPGGA,080945,2510.4996,N,08009.1471,W,1,11,1.5,11,M,,M,,*62
06/24/2015	08:09:45.558	$GPGGA,080946,2510.4987,N,08009.1470,W,1,11,1.4,11,M,,M,,*61
06/24/2015	08:09:46.538	$GPGGA,080947,2510.4978,N,08009.1474,W,1,11,1.4,11,M,,M,,*64
06/24/2015	08:09:47.569	$GPGGA,080948,2510.4971,N,08009.1478,W,1,11,1.4,11,M,,M,,*6E
06/24/2015	08:09:48.519	$GPGGA,080949,2510.4962,N,08009.1478,W,1,11,1.4,11,M,,M,,*6D
06/24/2015	08:09:49.538	$GPGGA,080950,2510.4955,N,08009.1481,W,1,11,1.4,11,M,,M,,*67
06/24/2015	08:09:50.518	$GPGGA,080951,2510.4948,N,08009.1482,W,1,11,1.4,11,M,,M,,*69
06/24/2015	08:09:51.568	$GPGGA,080952,2510.4939,N,08009.1483,W,1,11,1.4,11,M,,M,,*6D
06/24/2015	08:09:52.678	$GPGGA,080953,2510.4932,N,08009.1485,W,1,11,1.4,11,M,,M,,*61
06/24/2015	08:09:53.509	$GPGGA,080954,2510.4926,N,08009.1488,W,1,11,1.4,10,M,,M,,*6F
06/24/2015	08:09:54.611	$GPGGA,080955,2510.4917,N,08009.1488,W,1,11,1.4,10,M,,M,,*6C
06/24/2015	08:09:55.688	$GPGGA,080956,2510.4909,N,08009.1488,W,1,11,1.4,10,M,,M,,*60
06/24/2015	08:09:56.512	$GPGGA,080957,2510.4902,N,08009.1490,W,1,11,1.4,10,M,,M,,*63
06/24/2015	08:09:57.678	$GPGGA,080958,2510.4894,N,08009.1492,W,1,11,1.4,10,M,,M,,*60
06/24/2015	08:09:58.678	$GPGGA,080959,2510.4886,N,08009.1492,W,1,11,1.4,10,M,,M,,*62
06/24/2015	08:09:59.688	$GPGGA,081000,2510.4879,N,08009.1493,W,1,11,1.4,10,M,,M,,*67
06/24/2015	08:10:00.599	$GPGGA,081001,2510.4872,N,08009.1496,W,1,11,1.4,10,M,,M,,*68
06/24/2015	08:10:01.515	$GPGGA,081002,2510.4865,N,08009.1497,W,1,11,1.4,10,M,,M,,*6C
06/24/2015	08:10:02.599	$GPGGA,081003,2510.4856,N,08009.1497,W,1,11,1.4,10,M,,M,,*6D
06/24/2015	08:10:03.698	$GPGGA,081004,2510.4848,N,08009.1499,W,1,11,1.4,10,M,,M,,*6B
06/24/2015	08:10:04.623	$GPGGA,081005,2510.4840,N,08009.1501,W,1,11,1.4,10,M,,M,,*62
06/24/2015	08:10:05.638	$GPGGA,081006,2510.4832,N,08009.1503,W,1,11,1.4,10,M,,M,,*66
06/24/2015	08:10:06.588	$GPGGA,081007,2510.4825,N,08009.1503,W,1,11,1.4,10,M,,M,,*61
06/24/2015	08:10:07.688	$GPGGA,081008,2510.4818,N,08009.1504,W,1,11,1.4,10,M,,M,,*67
06/24/2015	08:10:08.658	$GPGGA,081009,2510.4808,N,08009.1507,W,1,11,1.4,10,M,,M,,*64
06/24/2015	08:10:09.648	$GPGGA,081010,2510.4800,N,08009.1508,W,1,11,1.4,10,M,,M,,*6B
06/24/2015	08:10:10.638	$GPGGA,081011,2510.4793,N,08009.1510,W,1,11,1.4,10,M,,M,,*66
06/24/2015	08:10:11.628	$GPGGA,081012,2510.4785,N,08009.1510,W,1,11,1.4,10,M,,M,,*62
06/24/2015	08:10:12.638	$GPGGA,081013,2510.4778,N,08009.1512,W,1,11,1.4,10,M,,M,,*63
06/24/2015	08:10:13.619	$GPGGA,081014,2510.4769,N,08009.1517,W,1,11,1.4,10,M,,M,,*61
06/24/2015	08:10:14.648	$GPGGA,081015,2510.4760,N,08009.1517,W,1,11,1.4,10,M,,M,,*69
06/24/2015	08:10:15.620	$GPGGA,081016,2510.4753,N,08009.1517,W,1,11,1.4,10,M,,M,,*6A
06/24/2015	08:10:16.558	$GPGGA,081017,2510.4745,N,08009.1519,W,1,11,1.4,10,M,,M,,*62
06/24/2015	08:10:17.605	$GPGGA,081018,2510.4738,N,08009.1524,W,1,11,1.4,10,M,,M,,*69
06/24/2015	08:10:18.628	$GPGGA,081019,2510.4729,N,08009.1523,W,1,11,1.4,10,M,,M,,*6F
06/24/2015	08:10:19.668	$GPGGA,081020,2510.4721,N,08009.1524,W,1,11,1.4,10,M,,M,,*6A
06/24/2015	08:10:20.620	$GPGGA,081021,2510.4714,N,08009.1528,W,1,11,1.4,10,M,,M,,*61
06/24/2015	08:10:21.567	$GPGGA,081022,2510.4706,N,08009.1530,W,1,11,1.4,10,M,,M,,*68
06/24/2015	08:10:22.610	$GPGGA,081023,2510.4698,N,08009.1528,W,1,11,1.4,10,M,,M,,*66
06/24/2015	08:10:23.604	$GPGGA,081024,2510.4691,N,08009.1532,W,1,11,1.4,10,M,,M,,*63
06/24/2015	08:10:24.601	$GPGGA,081025,2510.4682,N,08009.1536,W,1,11,1.4,10,M,,M,,*64
06/24/2015	08:10:25.587	$GPGGA,081026,2510.4674,N,08009.1534,W,1,11,1.4,10,M,,M,,*6C
06/24/2015	08:10:26.537	$GPGGA,081027,2510.4667,N,08009.1536,W,1,11,1.4,10,M,,M,,*6D
06/24/2015	08:10:27.637	$GPGGA,081028,2510.4659,N,08009.1542,W,1,11,1.4,10,M,,M,,*6C
06/24/2015	08:10:28.538	$GPGGA,081029,2510.4650,N,08009.1540,W,1,11,1.4,10,M,,M,,*66
06/24/2015	08:10:29.558	$GPGGA,081030,2510.4643,N,08009.1540,W,1,11,1.4,10,M,,M,,*6C
06/24/2015	08:10:30.528	$GPGGA,081031,2510.4637,N,08009.1546,W,1,11,1.4,10,M,,M,,*68
06/24/2015	08:10:31.601	$GPGGA,081032,2510.4628,N,08009.1545,W,1,11,1.4,10,M,,M,,*66
06/24/2015	08:10:32.518	$GPGGA,081033,2510.4620,N,08009.1546,W,1,11,1.4,10,M,,M,,*6C
06/24/2015	08:10:33.558	$GPGGA,081034,2510.4613,N,08009.1548,W,1,11,1.4,10,M,,M,,*65
06/24/2015	08:10:34.518	$GPGGA,081035,2510.4605,N,08009.1551,W,1,11,1.4,10,M,,M,,*6B
06/24/2015	08:10:35.588	$GPGGA,081036,2510.4597,N,08009.1553,W,1,11,1.4,10,M,,M,,*62
06/24/2015	08:10:36.518	$GPGGA,081037,2510.4590,N,08009.1552,W,1,11,1.4,10,M,,M,,*65
06/24/2015	08:10:37.558	$GPGGA,081038,2510.4581,N,08009.1555,W,1,11,1.4,10,M,,M,,*6D
06/24/2015	08:10:38.567	$GPGGA,081039,2510.4574,N,08009.1558,W,1,11,1.4,10,M,,M,,*6B
06/24/2015	08:10:39.577	$GPGGA,081040,2510.4565,N,08009.1559,W,1,11,1.4,10,M,,M,,*64
06/24/2015	08:10:40.610	$GPGGA,081041,2510.4557,N,08009.1559,W,1,11,1.4,10,M,,M,,*64
06/24/2015	08:10:41.557	$GPGGA,081042,2510.4549,N,08009.1562,W,1,11,1.4,10,M,,M,,*60
06/24/2015	08:10:42.600	$GPGGA,081043,2510.4541,N,08009.1565,W,1,11,1.4,10,M,,M,,*6E
06/24/2015	08:10:43.517	$GPGGA,081044,2510.4532,N,08009.1566,W,1,11,1.4,10,M,,M,,*6E
06/24/2015	08:10:44.567	$GPGGA,081045,2510.4525,N,08009.1568,W,1,11,1.4,10,M,,M,,*67
06/24/2015	08:10:45.548	$GPGGA,081046,2510.4516,N,08009.1569,W,1,11,1.4,10,M,,M,,*65
06/24/2015	08:10:46.608	$GPGGA,081047,2510.4508,N,08009.1573,W,1,11,1.4,10,M,,M,,*60
06/24/2015	08:10:47.499	$GPGGA,081048,2510.4500,N,08009.1575,W,1,11,1.4,10,M,,M,,*61
06/24/2015	08:10:48.600	$GPGGA,081049,2510.4491,N,08009.1574,W,1,11,1.4,10,M,,M,,*68
06/24/2015	08:10:49.558	$GPGGA,081050,2510.4483,N,08009.1576,W,1,11,1.4,10,M,,M,,*61
06/24/2015	08:10:50.588	$GPGGA,081051,2510.4476,N,08009.1582,W,1,11,1.4,10,M,,M,,*61
06/24/2015	08:10:51.568	$GPGGA,081052,2510.4467,N,08009.1581,W,1,11,1.4,10,M,,M,,*61
06/24/2015	08:10:52.558	$GPGGA,081053,2510.4460,N,08009.1582,W,1,11,1.4,10,M,,M,,*64
06/24/2015	08:10:53.611	$GPGGA,081054,2510.4453,N,08009.1586,W,1,11,1.4,10,M,,M,,*67
06/24/2015	08:10:54.578	$GPGGA,081055,2510.4444,N,08009.1587,W,1,11,1.4,10,M,,M,,*61
06/24/2015	08:10:55.600	$GPGGA,081056,2510.4436,N,08009.1587,W,1,11,1.4,10,M,,M,,*67
06/24/2015	08:10:56.867	$GPGGA,081057,2510.4428,N,08009.1590,W,1,11,1.4,10,M,,M,,*6F
06/24/2015	08:10:57.578	$GPGGA,081058,2510.4420,N,08009.1593,W,1,11,1.4,10,M,,M,,*6B
06/24/2015	08:10:58.607	$GPGGA,081059,2510.4411,N,08009.1594,W,1,11,1.4,10,M,,M,,*6F
06/24/2015	08:10:59.607	$GPGGA,081100,2510.4404,N,08009.1595,W,1,11,1.4,10,M,,M,,*67
06/24/2015	08:11:00.567	$GPGGA,081101,2510.4396,N,08009.1600,W,1,11,1.4,10,M,,M,,*65
06/24/2015	08:11:01.568	$GPGGA,081102,2510.4388,N,08009.1601,W,1,11,1.5,10,M,,M,,*69
06/24/2015	08:11:02.577	$GPGGA,081103,2510.4381,N,08009.1600,W,1,11,1.4,10,M,,M,,*61
06/24/2015	08:11:03.598	$GPGGA,081104,2510.4381,N,08009.1600,W,1,11,1.4,10,M,,M,,*66
06/24/2015	08:11:04.588	$GPGGA,081105,2510.4367,N,08009.1604,W,1,11,1.4,10,M,,M,,*6B
06/24/2015	08:11:05.578	$GPGGA,081106,2510.4360,N,08009.1604,W,1,11,1.4,10,M,,M,,*6F
06/24/2015	08:11:06.568	$GPGGA,081107,2510.4352,N,08009.1607,W,1,11,1.4,10,M,,M,,*6C
06/24/2015	08:11:07.608	$GPGGA,081108,2510.4344,N,08009.1609,W,1,11,1.4,10,M,,M,,*6A
06/24/2015	08:11:08.568	$GPGGA,081109,2510.4337,N,08009.1611,W,1,11,1.4,10,M,,M,,*66
06/24/2015	08:11:09.578	$GPGGA,081110,2510.4328,N,08009.1612,W,1,11,1.4,11,M,,M,,*62
06/24/2015	08:11:10.588	$GPGGA,081111,2510.4328,N,08009.1612,W,1,11,1.4,11,M,,M,,*63
06/24/2015	08:11:11.588	$GPGGA,081112,2510.4312,N,08009.1618,W,1,11,1.5,11,M,,M,,*62
06/24/2015	08:11:12.558	$GPGGA,081113,2510.4302,N,08009.1618,W,1,11,1.4,11,M,,M,,*63
06/24/2015	08:11:13.568	$GPGGA,081114,2510.4295,N,08009.1622,W,1,11,1.4,11,M,,M,,*62
06/24/2015	08:11:14.577	$GPGGA,081115,2510.4286,N,08009.1626,W,1,11,1.5,11,M,,M,,*64
06/24/2015	08:11:15.577	$GPGGA,081116,2510.4279,N,08009.1623,W,1,10,1.4,11,M,,M,,*62
06/24/2015	08:11:16.567	$GPGGA,081117,2510.4270,N,08009.1627,W,1,10,1.5,11,M,,M,,*6F
06/24/2015	08:11:17.557	$GPGGA,081118,2510.4263,N,08009.1631,W,1,10,1.4,11,M,,M,,*64
06/24/2015	08:11:18.537	$GPGGA,081119,2510.4263,N,08009.1631,W,1,10,1.4,11,M,,M,,*65
06/24/2015	08:11:19.557	$GPGGA,081120,2510.4247,N,08009.1633,W,1,11,1.4,11,M,,M,,*6A
06/24/2015	08:11:20.568	$GPGGA,081121,2510.4240,N,08009.1637,W,1,11,1.4,11,M,,M,,*68
06/24/2015	08:11:21.528	$GPGGA,081122,2510.4233,N,08009.1638,W,1,11,1.4,11,M,,M,,*60
06/24/2015	08:11:22.549	$GPGGA,081123,2510.4233,N,08009.1638,W,1,11,1.4,11,M,,M,,*61
06/24/2015	08:11:23.558	$GPGGA,081124,2510.4216,N,08009.1640,W,1,11,1.4,11,M,,M,,*6E
06/24/2015	08:11:24.558	$GPGGA,081125,2510.4209,N,08009.1644,W,1,11,1.4,11,M,,M,,*65
06/24/2015	08:11:25.528	$GPGGA,081126,2510.4200,N,08009.1647,W,1,11,1.5,11,M,,M,,*6D
06/24/2015	08:11:26.548	$GPGGA,081127,2510.4200,N,08009.1647,W,1,11,1.5,11,M,,M,,*6C
06/24/2015	08:11:27.548	$GPGGA,081128,2510.4182,N,08009.1651,W,1,11,1.4,11,M,,M,,*6C
06/24/2015	08:11:28.568	$GPGGA,081129,2510.4173,N,08009.1655,W,1,11,1.4,11,M,,M,,*67
06/24/2015	08:11:29.513	$GPGGA,081130,2510.4165,N,08009.1655,W,1,11,1.4,11,M,,M,,*68
06/24/2015	08:11:30.612	$GPGGA,081131,2510.4156,N,08009.1658,W,1,11,1.4,11,M,,M,,*64
06/24/2015	08:11:31.657	$GPGGA,081132,2510.4148,N,08009.1660,W,1,11,1.4,11,M,,M,,*63
06/24/2015	08:11:32.612	$GPGGA,081133,2510.4139,N,08009.1663,W,1,11,1.4,11,M,,M,,*67
06/24/2015	08:11:33.603	$GPGGA,081134,2510.4131,N,08009.1665,W,1,11,1.4,11,M,,M,,*6E
06/24/2015	08:11:34.597	$GPGGA,081135,2510.4124,N,08009.1665,W,1,11,1.4,11,M,,M,,*6B
06/24/2015	08:11:35.517	$GPGGA,081136,2510.4115,N,08009.1667,W,1,11,1.4,11,M,,M,,*68
06/24/2015	08:11:36.527	$GPGGA,081137,2510.4115,N,08009.1667,W,1,11,1.4,11,M,,M,,*69
06/24/2015	08:11:37.622	$GPGGA,081138,2510.4099,N,08009.1673,W,1,11,1.4,11,M,,M,,*66
06/24/2015	08:11:38.598	$GPGGA,081139,2510.4089,N,08009.1672,W,1,11,1.4,11,M,,M,,*67
06/24/2015	08:11:39.601	$GPGGA,081140,2510.4082,N,08009.1676,W,1,11,1.4,11,M,,M,,*66
06/24/2015	08:11:40.601	$GPGGA,081141,2510.4074,N,08009.1677,W,1,11,1.4,11,M,,M,,*6F
06/24/2015	08:11:41.628	$GPGGA,081142,2510.4066,N,08009.1677,W,1,11,1.4,11,M,,M,,*6F
06/24/2015	08:11:42.578	$GPGGA,081143,2510.4057,N,08009.1678,W,1,11,1.4,11,M,,M,,*63
06/24/2015	08:11:43.498	$GPGGA,081144,2510.4050,N,08009.1680,W,1,11,1.4,11,M,,M,,*64
06/24/2015	08:11:44.588	$GPGGA,081145,2510.4041,N,08009.1681,W,1,11,1.4,11,M,,M,,*64
06/24/2015	08:11:45.613	$GPGGA,081146,2510.4034,N,08009.1683,W,1,11,1.4,11,M,,M,,*67
