Software Version Number: 1	Data File Format Number: 1	Build Version Number: 1	Error Count Since VI Started: 3	Manufacturer: Raytheon	 Model Number: RayMarine 120	 S/N: 	 Cal Date: 	 Wind Direction Offset: 0.00	 Slope (M)1: 0.00	 Offset (B)1: 0.00	 Slope (M)2: 0.00	 Offset (B)2: 0.00	 Slope (M)3: 0.00	 Offset (B)3: 0.00	 Slope (M)4: 0.00	 Offset (B)4: 0.00	 Slope (M)5: 0.00	 Offset (B)5: 0.00	 Slope (M)6: 0.00	 Offset (B)6: 0.00
Computer Date	Computer Time	GGA String
06/22/2015	20:00:00.610	$GPGGA,200001,2421.7919,N,08159.7868,W,1,11,1.5,23,M,,M,,*61
06/22/2015	20:00:01.630	$GPGGA,200002,2421.7911,N,08159.7864,W,1,10,1.5,23,M,,M,,*67
06/22/2015	20:00:02.680	$GPGGA,200003,2421.7903,N,08159.7860,W,1,10,1.5,23,M,,M,,*61
06/22/2015	20:00:03.680	$GPGGA,200004,2421.7893,N,08159.7855,W,1,11,1.3,23,M,,M,,*6F
06/22/2015	20:00:04.700	$GPGGA,200005,2421.7885,N,08159.7850,W,1,11,1.3,23,M,,M,,*6C
06/22/2015	20:00:05.623	$GPGGA,200006,2421.7875,N,08159.7846,W,1,11,1.5,23,M,,M,,*61
06/22/2015	20:00:06.680	$GPGGA,200007,2421.7867,N,08159.7841,W,1,11,1.3,23,M,,M,,*62
06/22/2015	20:00:07.639	$GPGGA,200008,2421.7857,N,08159.7836,W,1,11,1.3,23,M,,M,,*6E
06/22/2015	20:00:08.640	$GPGGA,200009,2421.7849,N,08159.7831,W,1,11,1.3,23,M,,M,,*67
06/22/2015	20:00:09.632	$GPGGA,200010,2421.7838,N,08159.7826,W,1,11,1.3,23,M,,M,,*6F
06/22/2015	20:00:10.650	$GPGGA,200011,2421.7829,N,08159.7821,W,1,11,1.3,23,M,,M,,*69
06/22/2015	20:00:11.650	$GPGGA,200012,2421.7820,N,08159.7817,W,1,11,1.3,23,M,,M,,*66
06/22/2015	20:00:12.640	$GPGGA,200013,2421.7810,N,08159.7811,W,1,11,1.3,23,M,,M,,*62
06/22/2015	20:00:13.570	$GPGGA,200014,2421.7802,N,08159.7805,W,1,11,1.3,23,M,,M,,*63
06/22/2015	20:00:14.631	$GPGGA,200015,2421.7791,N,08159.7801,W,1,11,1.3,23,M,,M,,*63
06/22/2015	20:00:15.640	$GPGGA,200016,2421.7782,N,08159.7798,W,1,11,1.3,23,M,,M,,*6D
06/22/2015	20:00:16.650	$GPGGA,200017,2421.7773,N,08159.7792,W,1,11,1.3,23,M,,M,,*68
06/22/2015	20:00:17.570	$GPGGA,200018,2421.7763,N,08159.7786,W,1,11,1.3,23,M,,M,,*63
06/22/2015	20:00:18.631	$GPGGA,200019,2421.7753,N,08159.7782,W,1,11,1.3,23,M,,M,,*65
06/22/2015	20:00:19.650	$GPGGA,200020,2421.7744,N,08159.7779,W,1,11,1.3,23,M,,M,,*6D
06/22/2015	20:00:20.623	$GPGGA,200021,2421.7734,N,08159.7773,W,1,11,1.3,23,M,,M,,*61
06/22/2015	20:00:21.560	$GPGGA,200022,2421.7724,N,08159.7768,W,1,11,1.3,23,M,,M,,*69
06/22/2015	20:00:22.621	$GPGGA,200023,2421.7715,N,08159.7763,W,1,11,1.5,23,M,,M,,*67
06/22/2015	20:00:23.610	$GPGGA,200024,2421.7705,N,08159.7761,W,1,11,1.4,23,M,,M,,*62
06/22/2015	20:00:24.627	$GPGGA,200025,2421.7695,N,08159.7755,W,1,11,1.4,23,M,,M,,*6C
06/22/2015	20:00:25.550	$GPGGA,200026,2421.7686,N,08159.7751,W,1,11,1.4,23,M,,M,,*69
06/22/2015	20:00:26.610	$GPGGA,200027,2421.7675,N,08159.7747,W,1,11,1.4,23,M,,M,,*63
06/22/2015	20:00:27.610	$GPGGA,200028,2421.7665,N,08159.7742,W,1,11,1.4,23,M,,M,,*68
06/22/2015	20:00:28.550	$GPGGA,200029,2421.7656,N,08159.7737,W,1,11,1.4,23,M,,M,,*6B
06/22/2015	20:00:29.580	$GPGGA,200030,2421.7646,N,08159.7733,W,1,11,1.4,24,M,,M,,*61
06/22/2015	20:00:30.540	$GPGGA,200031,2421.7636,N,08159.7728,W,1,11,1.4,24,M,,M,,*6D
06/22/2015	20:00:31.610	$GPGGA,200032,2421.7626,N,08159.7724,W,1,11,1.4,24,M,,M,,*63
06/22/2015	20:00:32.531	$GPGGA,200033,2421.7617,N,08159.7719,W,1,11,1.4,24,M,,M,,*6E
06/22/2015	20:00:33.580	$GPGGA,200034,2421.7608,N,08159.7713,W,1,11,1.4,24,M,,M,,*6D
06/22/2015	20:00:34.531	$GPGGA,200035,2421.7598,N,08159.7709,W,1,11,1.4,24,M,,M,,*6D
06/22/2015	20:00:35.625	$GPGGA,200036,2421.7589,N,08159.7704,W,1,11,1.4,24,M,,M,,*63
06/22/2015	20:00:36.600	$GPGGA,200037,2421.7579,N,08159.7698,W,1,11,1.4,24,M,,M,,*69
06/22/2015	20:00:37.639	$GPGGA,200038,2421.7570,N,08159.7693,W,1,11,1.4,24,M,,M,,*64
06/22/2015	20:00:38.580	$GPGGA,200039,2421.7560,N,08159.7689,W,1,11,1.4,24,M,,M,,*6F
06/22/2015	20:00:39.640	$GPGGA,200040,2421.7550,N,08159.7684,W,1,11,1.4,24,M,,M,,*6F
06/22/2015	20:00:40.590	$GPGGA,200041,2421.7542,N,08159.7678,W,1,11,1.4,24,M,,M,,*6E
06/22/2015	20:00:41.627	$GPGGA,200042,2421.7532,N,08159.7673,W,1,11,1.4,24,M,,M,,*61
06/22/2015	20:00:42.579	$GPGGA,200043,2421.7522,N,08159.7668,W,1,11,1.5,24,M,,M,,*6A
06/22/2015	20:00:43.660	$GPGGA,200044,2421.7513,N,08159.7662,W,1,10,1.5,24,M,,M,,*64
06/22/2015	20:00:44.590	$GPGGA,200045,2421.7504,N,08159.7657,W,1,10,1.4,24,M,,M,,*64
06/22/2015	20:00:45.631	$GPGGA,200046,2421.7495,N,08159.7652,W,1,11,1.7,24,M,,M,,*69
06/22/2015	20:00:46.640	$GPGGA,200047,2421.7485,N,08159.7647,W,1,11,1.7,24,M,,M,,*6D
06/22/2015	20:00:47.580	$GPGGA,200048,2421.7477,N,08159.7641,W,1,9,1.7,24,M,,M,,*50
06/22/2015	20:00:48.570	$GPGGA,200049,2421.7467,N,08159.7636,W,1,9,1.4,24,M,,M,,*53
06/22/2015	20:00:49.634	$GPGGA,200050,2421.7458,N,08159.7631,W,1,11,1.4,24,M,,M,,*69
06/22/2015	20:00:50.600	$GPGGA,200051,2421.7450,N,08159.7627,W,1,11,1.5,24,M,,M,,*66
06/22/2015	20:00:51.640	$GPGGA,200052,2421.7440,N,08159.7621,W,1,10,1.4,24,M,,M,,*62
06/22/2015	20:00:52.600	$GPGGA,200053,2421.7431,N,08159.7615,W,1,10,1.4,24,M,,M,,*62
06/22/2015	20:00:54.621	$GPGGA,200055,2421.7412,N,08159.7604,W,1,11,1.4,24,M,,M,,*64
06/22/2015	20:00:55.640	$GPGGA,200056,2421.7404,N,08159.7598,W,1,11,1.5,24,M,,M,,*67
06/22/2015	20:00:56.610	$GPGGA,200057,2421.7395,N,08159.7592,W,1,11,1.4,24,M,,M,,*62
06/22/2015	20:00:57.600	$GPGGA,200058,2421.7385,N,08159.7587,W,1,11,1.4,24,M,,M,,*68
06/22/2015	20:00:58.600	$GPGGA,200059,2421.7376,N,08159.7581,W,1,11,1.4,24,M,,M,,*63
06/22/2015	20:00:59.669	$GPGGA,200100,2421.7367,N,08159.7576,W,1,11,1.4,23,M,,M,,*61
06/22/2015	20:01:00.600	$GPGGA,200101,2421.7358,N,08159.7570,W,1,11,1.4,23,M,,M,,*6A
06/22/2015	20:01:01.610	$GPGGA,200102,2421.7350,N,08159.7564,W,1,11,1.4,23,M,,M,,*64
06/22/2015	20:01:02.580	$GPGGA,200103,2421.7340,N,08159.7558,W,1,11,1.5,23,M,,M,,*6A
06/22/2015	20:01:03.620	$GPGGA,200104,2421.7332,N,08159.7552,W,1,10,1.4,23,M,,M,,*62
06/22/2015	20:01:04.590	$GPGGA,200105,2421.7321,N,08159.7546,W,1,10,1.4,23,M,,M,,*64
06/22/2015	20:01:05.600	$GPGGA,200106,2421.7312,N,08159.7540,W,1,11,1.4,23,M,,M,,*60
06/22/2015	20:01:06.590	$GPGGA,200107,2421.7303,N,08159.7534,W,1,11,1.4,23,M,,M,,*62
06/22/2015	20:01:07.600	$GPGGA,200108,2421.7294,N,08159.7528,W,1,11,1.5,23,M,,M,,*6E
06/22/2015	20:01:08.580	$GPGGA,200109,2421.7285,N,08159.7522,W,1,11,1.5,23,M,,M,,*65
06/22/2015	20:01:09.570	$GPGGA,200110,2421.7285,N,08159.7522,W,1,10,1.5,23,M,,M,,*6C
06/22/2015	20:01:10.590	$GPGGA,200111,2421.7267,N,08159.7510,W,1,10,1.5,23,M,,M,,*60
06/22/2015	20:01:11.621	$GPGGA,200112,2421.7267,N,08159.7510,W,1,10,1.5,23,M,,M,,*63
06/22/2015	20:01:12.560	$GPGGA,200113,2421.7249,N,08159.7498,W,1,10,1.4,23,M,,M,,*6E
06/22/2015	20:01:13.550	$GPGGA,200114,2421.7238,N,08159.7495,W,1,11,1.4,23,M,,M,,*63
06/22/2015	20:01:14.570	$GPGGA,200115,2421.7238,N,08159.7495,W,1,11,1.4,23,M,,M,,*62
06/22/2015	20:01:15.590	$GPGGA,200116,2421.7221,N,08159.7482,W,1,11,1.4,23,M,,M,,*6F
06/22/2015	20:01:16.560	$GPGGA,200117,2421.7221,N,08159.7482,W,1,11,1.4,23,M,,M,,*6E
06/22/2015	20:01:17.539	$GPGGA,200118,2421.7202,N,08159.7472,W,1,11,1.4,23,M,,M,,*6F
06/22/2015	20:01:18.579	$GPGGA,200119,2421.7202,N,08159.7472,W,1,11,1.4,23,M,,M,,*6E
06/22/2015	20:01:19.570	$GPGGA,200120,2421.7184,N,08159.7459,W,1,11,1.4,23,M,,M,,*60
06/22/2015	20:01:20.569	$GPGGA,200121,2421.7184,N,08159.7459,W,1,11,1.4,23,M,,M,,*61
06/22/2015	20:01:21.629	$GPGGA,200122,2421.7166,N,08159.7447,W,1,11,1.4,23,M,,M,,*61
06/22/2015	20:01:22.579	$GPGGA,200123,2421.7157,N,08159.7440,W,1,11,1.4,23,M,,M,,*65
06/22/2015	20:01:23.579	$GPGGA,200124,2421.7148,N,08159.7435,W,1,11,1.4,23,M,,M,,*6E
06/22/2015	20:01:24.639	$GPGGA,200125,2421.7138,N,08159.7429,W,1,11,1.4,23,M,,M,,*65
06/22/2015	20:01:25.530	$GPGGA,200126,2421.7128,N,08159.7423,W,1,11,1.4,23,M,,M,,*6D
06/22/2015	20:01:26.549	$GPGGA,200127,2421.7128,N,08159.7423,W,1,11,1.4,23,M,,M,,*6C
06/22/2015	20:01:27.539	$GPGGA,200128,2421.7110,N,08159.7410,W,1,11,1.4,23,M,,M,,*68
06/22/2015	20:01:28.560	$GPGGA,200129,2421.7101,N,08159.7405,W,1,11,1.5,23,M,,M,,*6C
06/22/2015	20:01:29.630	$GPGGA,200130,2421.7092,N,08159.7399,W,1,10,1.5,23,M,,M,,*6C
06/22/2015	20:01:30.540	$GPGGA,200131,2421.7092,N,08159.7399,W,1,10,1.7,23,M,,M,,*6F
06/22/2015	20:01:31.940	$GPGGA,200132,2421.7076,N,08159.7386,W,1,10,1.5,23,M,,M,,*6A
06/22/2015	20:01:32.530	$GPGGA,200133,2421.7076,N,08159.7386,W,1,10,1.5,23,M,,M,,*6B
06/22/2015	20:01:33.522	$GPGGA,200134,2421.7057,N,08159.7377,W,1,9,1.7,23,M,,M,,*5B
06/22/2015	20:01:34.599	$GPGGA,200135,2421.7048,N,08159.7372,W,1,9,1.5,23,M,,M,,*53
06/22/2015	20:01:35.932	$GPGGA,200136,2421.7039,N,08159.7366,W,1,11,1.4,23,M,,M,,*6B
06/22/2015	20:01:36.599	$GPGGA,200137,2421.7030,N,08159.7362,W,1,11,1.4,23,M,,M,,*67
06/22/2015	20:01:37.629	$GPGGA,200138,2421.7020,N,08159.7358,W,1,11,1.4,23,M,,M,,*60
06/22/2015	20:01:38.599	$GPGGA,200139,2421.7012,N,08159.7353,W,1,11,1.4,23,M,,M,,*6B
06/22/2015	20:01:39.639	$GPGGA,200140,2421.7003,N,08159.7347,W,1,11,1.4,23,M,,M,,*60
06/22/2015	20:01:40.589	$GPGGA,200141,2421.6994,N,08159.7342,W,1,11,1.4,23,M,,M,,*62
06/22/2015	20:01:41.609	$GPGGA,200142,2421.6985,N,08159.7339,W,1,11,1.4,23,M,,M,,*6D
06/22/2015	20:01:42.589	$GPGGA,200143,2421.6976,N,08159.7333,W,1,11,1.4,23,M,,M,,*6A
06/22/2015	20:01:43.628	$GPGGA,200144,2421.6967,N,08159.7327,W,1,11,1.4,23,M,,M,,*68
06/22/2015	20:01:44.589	$GPGGA,200145,2421.6957,N,08159.7323,W,1,11,1.4,23,M,,M,,*6E
06/22/2015	20:01:45.590	$GPGGA,200146,2421.6949,N,08159.7318,W,1,11,1.4,23,M,,M,,*6A
06/22/2015	20:01:46.590	$GPGGA,200147,2421.6939,N,08159.7314,W,1,11,1.4,23,M,,M,,*60
06/22/2015	20:01:47.621	$GPGGA,200148,2421.6931,N,08159.7309,W,1,11,1.4,23,M,,M,,*6B
06/22/2015	20:01:48.570	$GPGGA,200149,2421.6921,N,08159.7303,W,1,11,1.4,23,M,,M,,*61
06/22/2015	20:01:49.570	$GPGGA,200150,2421.6913,N,08159.7299,W,1,11,1.4,23,M,,M,,*6A
06/22/2015	20:01:50.580	$GPGGA,200151,2421.6902,N,08159.7295,W,1,11,1.4,23,M,,M,,*67
06/22/2015	20:01:51.600	$GPGGA,200152,2421.6893,N,08159.7290,W,1,11,1.4,23,M,,M,,*68
06/22/2015	20:01:52.569	$GPGGA,200153,2421.6884,N,08159.7284,W,1,11,1.4,23,M,,M,,*6A
06/22/2015	20:01:53.559	$GPGGA,200154,2421.6875,N,08159.7279,W,1,11,1.4,23,M,,M,,*61
06/22/2015	20:01:54.559	$GPGGA,200155,2421.6866,N,08159.7275,W,1,11,1.5,23,M,,M,,*6F
06/22/2015	20:01:55.599	$GPGGA,200156,2421.6856,N,08159.7271,W,1,11,1.4,23,M,,M,,*6A
06/22/2015	20:01:56.569	$GPGGA,200157,2421.6848,N,08159.7267,W,1,11,1.4,23,M,,M,,*63
06/22/2015	20:01:57.589	$GPGGA,200158,2421.6837,N,08159.7260,W,1,11,1.4,23,M,,M,,*63
06/22/2015	20:01:58.549	$GPGGA,200159,2421.6828,N,08159.7255,W,1,11,1.4,23,M,,M,,*6A
06/22/2015	20:01:59.589	$GPGGA,200200,2421.6819,N,08159.7251,W,1,10,1.5,23,M,,M,,*63
06/22/2015	20:02:00.569	$GPGGA,200201,2421.6809,N,08159.7246,W,1,10,1.4,23,M,,M,,*64
06/22/2015	20:02:01.549	$GPGGA,200202,2421.6801,N,08159.7240,W,1,11,1.4,23,M,,M,,*68
06/22/2015	20:02:02.549	$GPGGA,200203,2421.6791,N,08159.7235,W,1,11,1.4,23,M,,M,,*6D
06/22/2015	20:02:03.560	$GPGGA,200204,2421.6783,N,08159.7231,W,1,11,1.4,23,M,,M,,*6D
06/22/2015	20:02:04.540	$GPGGA,200205,2421.6773,N,08159.7227,W,1,11,1.4,23,M,,M,,*64
06/22/2015	20:02:05.830	$GPGGA,200206,2421.6765,N,08159.7220,W,1,11,1.4,23,M,,M,,*67
06/22/2015	20:02:06.530	$GPGGA,200207,2421.6754,N,08159.7215,W,1,11,1.4,23,M,,M,,*62
06/22/2015	20:02:07.550	$GPGGA,200208,2421.6745,N,08159.7211,W,1,11,1.4,23,M,,M,,*69
06/22/2015	20:02:08.530	$GPGGA,200209,2421.6736,N,08159.7206,W,1,11,1.4,23,M,,M,,*6A
06/22/2015	20:02:09.549	$GPGGA,200210,2421.6727,N,08159.7200,W,1,11,1.4,22,M,,M,,*65
06/22/2015	20:02:10.519	$GPGGA,200211,2421.6718,N,08159.7195,W,1,11,1.4,22,M,,M,,*67
06/22/2015	20:02:11.669	$GPGGA,200212,2421.6709,N,08159.7191,W,1,11,1.4,22,M,,M,,*60
06/22/2015	20:02:12.529	$GPGGA,200213,2421.6700,N,08159.7186,W,1,11,1.4,22,M,,M,,*6E
06/22/2015	20:02:13.623	$GPGGA,200214,2421.6691,N,08159.7180,W,1,11,1.4,22,M,,M,,*66
06/22/2015	20:02:14.529	$GPGGA,200215,2421.6683,N,08159.7176,W,1,11,1.4,22,M,,M,,*6D
06/22/2015	20:02:15.549	$GPGGA,200216,2421.6673,N,08159.7171,W,1,11,1.4,22,M,,M,,*66
06/22/2015	20:02:16.529	$GPGGA,200217,2421.6664,N,08159.7166,W,1,11,1.5,22,M,,M,,*66
06/22/2015	20:02:17.610	$GPGGA,200218,2421.6656,N,08159.7160,W,1,11,1.4,22,M,,M,,*6F
06/22/2015	20:02:18.609	$GPGGA,200219,2421.6647,N,08159.7156,W,1,11,1.4,22,M,,M,,*6B
06/22/2015	20:02:19.659	$GPGGA,200220,2421.6637,N,08159.7151,W,1,11,1.4,22,M,,M,,*61
06/22/2015	20:02:20.610	$GPGGA,200221,2421.6628,N,08159.7145,W,1,11,1.5,22,M,,M,,*6A
06/22/2015	20:02:21.621	$GPGGA,200222,2421.6619,N,08159.7139,W,1,10,1.5,22,M,,M,,*61
06/22/2015	20:02:22.510	$GPGGA,200223,2421.6610,N,08159.7134,W,1,10,1.4,22,M,,M,,*65
06/22/2015	20:02:23.612	$GPGGA,200224,2421.6601,N,08159.7129,W,1,10,1.4,22,M,,M,,*6E
06/22/2015	20:02:24.490	$GPGGA,200225,2421.6592,N,08159.7124,W,1,10,1.7,22,M,,M,,*68
06/22/2015	20:02:25.600	$GPGGA,200226,2421.6584,N,08159.7118,W,1,9,1.7,22,M,,M,,*5B
06/22/2015	20:02:26.600	$GPGGA,200227,2421.6575,N,08159.7113,W,1,9,1.4,22,M,,M,,*5C
06/22/2015	20:02:27.623	$GPGGA,200228,2421.6566,N,08159.7109,W,1,11,1.4,22,M,,M,,*63
06/22/2015	20:02:28.599	$GPGGA,200229,2421.6557,N,08159.7104,W,1,11,1.4,22,M,,M,,*6D
06/22/2015	20:02:29.609	$GPGGA,200230,2421.6548,N,08159.7099,W,1,11,1.4,22,M,,M,,*6E
06/22/2015	20:02:30.579	$GPGGA,200231,2421.6538,N,08159.7093,W,1,11,1.4,22,M,,M,,*62
06/22/2015	20:02:31.629	$GPGGA,200232,2421.6530,N,08159.7087,W,1,11,1.4,22,M,,M,,*6C
06/22/2015	20:02:32.579	$GPGGA,200233,2421.6520,N,08159.7082,W,1,11,1.4,22,M,,M,,*69
06/22/2015	20:02:33.599	$GPGGA,200234,2421.6509,N,08159.7076,W,1,11,1.4,22,M,,M,,*6E
06/22/2015	20:02:34.569	$GPGGA,200235,2421.6501,N,08159.7070,W,1,11,1.4,22,M,,M,,*61
06/22/2015	20:02:35.612	$GPGGA,200236,2421.6492,N,08159.7064,W,1,11,1.4,22,M,,M,,*6C
06/22/2015	20:02:36.579	$GPGGA,200237,2421.6483,N,08159.7059,W,1,11,1.4,22,M,,M,,*63
06/22/2015	20:02:37.569	$GPGGA,200238,2421.6474,N,08159.7054,W,1,11,1.4,22,M,,M,,*69
06/22/2015	20:02:38.590	$GPGGA,200239,2421.6465,N,08159.7047,W,1,11,1.4,22,M,,M,,*6A
06/22/2015	20:02:39.570	$GPGGA,200240,2421.6458,N,08159.7041,W,1,11,1.4,22,M,,M,,*6C
06/22/2015	20:02:40.560	$GPGGA,200241,2421.6448,N,08159.7035,W,1,11,1.4,22,M,,M,,*6F
06/22/2015	20:02:41.570	$GPGGA,200242,2421.6440,N,08159.7030,W,1,11,1.4,22,M,,M,,*61
06/22/2015	20:02:42.560	$GPGGA,200243,2421.6430,N,08159.7024,W,1,11,1.4,22,M,,M,,*62
06/22/2015	20:02:43.622	$GPGGA,200244,2421.6422,N,08159.7019,W,1,11,1.4,22,M,,M,,*68
06/22/2015	20:02:44.549	$GPGGA,200245,2421.6413,N,08159.7013,W,1,11,1.4,22,M,,M,,*61
06/22/2015	20:02:45.549	$GPGGA,200246,2421.6404,N,08159.7007,W,1,11,1.4,22,M,,M,,*61
06/22/2015	20:02:46.569	$GPGGA,200247,2421.6395,N,08159.7001,W,1,11,1.4,22,M,,M,,*69
06/22/2015	20:02:47.579	$GPGGA,200248,2421.6386,N,08159.6996,W,1,11,1.4,22,M,,M,,*62
06/22/2015	20:02:48.549	$GPGGA,200249,2421.6377,N,08159.6990,W,1,11,1.4,22,M,,M,,*6B
06/22/2015	20:02:49.549	$GPGGA,200250,2421.6369,N,08159.6983,W,1,11,1.4,22,M,,M,,*6E
06/22/2015	20:02:50.549	$GPGGA,200251,2421.6360,N,08159.6977,W,1,11,1.4,22,M,,M,,*6D
06/22/2015	20:02:51.549	$GPGGA,200252,2421.6351,N,08159.6973,W,1,11,1.4,22,M,,M,,*68
06/22/2015	20:02:52.539	$GPGGA,200253,2421.6342,N,08159.6967,W,1,11,1.4,22,M,,M,,*6E
06/22/2015	20:02:53.659	$GPGGA,200254,2421.6333,N,08159.6960,W,1,11,1.4,22,M,,M,,*68
06/22/2015	20:02:54.539	$GPGGA,200255,2421.6324,N,08159.6954,W,1,11,1.4,22,M,,M,,*68
06/22/2015	20:02:55.580	$GPGGA,200256,2421.6315,N,08159.6949,W,1,11,1.4,22,M,,M,,*65
06/22/2015	20:02:56.540	$GPGGA,200257,2421.6307,N,08159.6944,W,1,11,1.4,22,M,,M,,*6A
06/22/2015	20:02:57.550	$GPGGA,200258,2421.6299,N,08159.6938,W,1,11,1.4,22,M,,M,,*68
06/22/2015	20:02:58.971	$GPGGA,200259,2421.6289,N,08159.6931,W,1,11,1.4,22,M,,M,,*61
06/22/2015	20:02:59.660	$GPGGA,200300,2421.6281,N,08159.6926,W,1,11,1.4,22,M,,M,,*62
06/22/2015	20:03:00.530	$GPGGA,200301,2421.6271,N,08159.6921,W,1,11,1.4,22,M,,M,,*6B
06/22/2015	20:03:01.530	$GPGGA,200302,2421.6263,N,08159.6915,W,1,10,1.4,22,M,,M,,*6D
06/22/2015	20:03:02.529	$GPGGA,200303,2421.6253,N,08159.6909,W,1,10,1.4,22,M,,M,,*62
06/22/2015	20:03:03.529	$GPGGA,200304,2421.6245,N,08159.6905,W,1,11,1.4,22,M,,M,,*6F
06/22/2015	20:03:04.529	$GPGGA,200305,2421.6235,N,08159.6899,W,1,11,1.4,22,M,,M,,*6D
06/22/2015	20:03:05.629	$GPGGA,200306,2421.6227,N,08159.6892,W,1,11,1.4,22,M,,M,,*66
06/22/2015	20:03:06.519	$GPGGA,200307,2421.6217,N,08159.6887,W,1,11,1.4,22,M,,M,,*60
06/22/2015	20:03:07.613	$GPGGA,200308,2421.6208,N,08159.6882,W,1,11,1.4,22,M,,M,,*64
06/22/2015	20:03:08.519	$GPGGA,200309,2421.6200,N,08159.6878,W,1,11,1.4,22,M,,M,,*68
06/22/2015	20:03:09.649	$GPGGA,200310,2421.6191,N,08159.6870,W,1,11,1.4,22,M,,M,,*63
06/22/2015	20:03:10.509	$GPGGA,200311,2421.6182,N,08159.6865,W,1,11,1.4,22,M,,M,,*64
06/22/2015	20:03:11.626	$GPGGA,200312,2421.6172,N,08159.6862,W,1,11,1.4,22,M,,M,,*6F
06/22/2015	20:03:12.599	$GPGGA,200313,2421.6165,N,08159.6856,W,1,11,1.4,22,M,,M,,*6F
06/22/2015	20:03:13.617	$GPGGA,200314,2421.6155,N,08159.6850,W,1,11,1.4,21,M,,M,,*6E
06/22/2015	20:03:14.600	$GPGGA,200315,2421.6147,N,08159.6845,W,1,11,1.4,21,M,,M,,*68
06/22/2015	20:03:15.628	$GPGGA,200316,2421.6137,N,08159.6841,W,1,11,1.4,21,M,,M,,*68
06/22/2015	20:03:16.580	$GPGGA,200317,2421.6129,N,08159.6836,W,1,11,1.4,21,M,,M,,*66
06/22/2015	20:03:17.616	$GPGGA,200318,2421.6119,N,08159.6830,W,1,11,1.4,21,M,,M,,*6C
06/22/2015	20:03:18.590	$GPGGA,200319,2421.6109,N,08159.6825,W,1,11,1.4,21,M,,M,,*68
06/22/2015	20:03:20.099	$GPGGA,200320,2421.6100,N,08159.6822,W,1,11,1.4,21,M,,M,,*6C
06/22/2015	20:03:20.589	$GPGGA,200321,2421.6091,N,08159.6817,W,1,11,1.4,21,M,,M,,*62
06/22/2015	20:03:21.589	$GPGGA,200322,2421.6082,N,08159.6811,W,1,11,1.4,21,M,,M,,*65
06/22/2015	20:03:22.579	$GPGGA,200323,2421.6073,N,08159.6806,W,1,11,1.4,21,M,,M,,*6C
06/22/2015	20:03:23.612	$GPGGA,200324,2421.6064,N,08159.6802,W,1,11,1.4,21,M,,M,,*69
06/22/2015	20:03:25.999	$GPGGA,200326,2421.6046,N,08159.6791,W,1,11,1.4,21,M,,M,,*6E
06/22/2015	20:03:26.569	$GPGGA,200327,2421.6035,N,08159.6785,W,1,11,1.4,21,M,,M,,*6E
06/22/2015	20:03:27.599	$GPGGA,200328,2421.6026,N,08159.6782,W,1,11,1.4,21,M,,M,,*64
06/22/2015	20:03:28.569	$GPGGA,200329,2421.6017,N,08159.6777,W,1,11,1.4,21,M,,M,,*6D
06/22/2015	20:03:29.589	$GPGGA,200330,2421.6007,N,08159.6771,W,1,11,1.4,21,M,,M,,*62
06/22/2015	20:03:30.580	$GPGGA,200331,2421.5999,N,08159.6766,W,1,11,1.4,21,M,,M,,*68
06/22/2015	20:03:31.590	$GPGGA,200332,2421.5988,N,08159.6762,W,1,11,1.4,21,M,,M,,*6F
06/22/2015	20:03:32.570	$GPGGA,200333,2421.5981,N,08159.6756,W,1,11,1.4,21,M,,M,,*60
06/22/2015	20:03:33.550	$GPGGA,200334,2421.5971,N,08159.6751,W,1,11,1.4,21,M,,M,,*6F
06/22/2015	20:03:34.560	$GPGGA,200335,2421.5961,N,08159.6747,W,1,11,1.4,21,M,,M,,*68
06/22/2015	20:03:35.560	$GPGGA,200336,2421.5952,N,08159.6741,W,1,11,1.4,21,M,,M,,*6D
06/22/2015	20:03:36.560	$GPGGA,200337,2421.5942,N,08159.6736,W,1,11,1.4,21,M,,M,,*6D
06/22/2015	20:03:37.569	$GPGGA,200338,2421.5934,N,08159.6732,W,1,11,1.4,21,M,,M,,*67
06/22/2015	20:03:38.539	$GPGGA,200339,2421.5924,N,08159.6727,W,1,11,1.4,21,M,,M,,*63
06/22/2015	20:03:39.559	$GPGGA,200340,2421.5916,N,08159.6722,W,1,11,1.4,21,M,,M,,*69
06/22/2015	20:03:40.539	$GPGGA,200341,2421.5906,N,08159.6717,W,1,11,1.4,21,M,,M,,*6F
06/22/2015	20:03:41.549	$GPGGA,200342,2421.5898,N,08159.6713,W,1,11,1.4,21,M,,M,,*6E
06/22/2015	20:03:42.539	$GPGGA,200343,2421.5887,N,08159.6708,W,1,11,1.4,21,M,,M,,*6B
06/22/2015	20:03:43.570	$GPGGA,200344,2421.5878,N,08159.6703,W,1,11,1.4,21,M,,M,,*67
06/22/2015	20:03:44.539	$GPGGA,200345,2421.5869,N,08159.6698,W,1,11,1.4,21,M,,M,,*65
06/22/2015	20:03:45.569	$GPGGA,200346,2421.5859,N,08159.6692,W,1,11,1.4,21,M,,M,,*6F
06/22/2015	20:03:46.521	$GPGGA,200347,2421.5851,N,08159.6687,W,1,11,1.4,21,M,,M,,*62
06/22/2015	20:03:47.559	$GPGGA,200348,2421.5841,N,08159.6682,W,1,11,1.4,21,M,,M,,*69
06/22/2015	20:03:48.520	$GPGGA,200349,2421.5831,N,08159.6677,W,1,11,1.4,21,M,,M,,*65
06/22/2015	20:03:49.530	$GPGGA,200350,2421.5822,N,08159.6672,W,1,11,1.4,21,M,,M,,*6A
06/22/2015	20:03:50.530	$GPGGA,200351,2421.5813,N,08159.6667,W,1,11,1.4,21,M,,M,,*6D
06/22/2015	20:03:51.640	$GPGGA,200352,2421.5804,N,08159.6662,W,1,11,1.4,21,M,,M,,*6D
06/22/2015	20:03:52.520	$GPGGA,200353,2421.5794,N,08159.6657,W,1,11,1.4,21,M,,M,,*6C
06/22/2015	20:03:53.630	$GPGGA,200354,2421.5786,N,08159.6651,W,1,11,1.4,21,M,,M,,*6E
06/22/2015	20:03:54.625	$GPGGA,200355,2421.5776,N,08159.6647,W,1,11,1.4,21,M,,M,,*67
06/22/2015	20:03:55.519	$GPGGA,200356,2421.5768,N,08159.6642,W,1,11,1.4,21,M,,M,,*6E
06/22/2015	20:03:56.599	$GPGGA,200357,2421.5759,N,08159.6636,W,1,11,1.4,21,M,,M,,*6E
06/22/2015	20:03:57.599	$GPGGA,200358,2421.5748,N,08159.6632,W,1,11,1.4,21,M,,M,,*65
06/22/2015	20:03:58.599	$GPGGA,200359,2421.5740,N,08159.6627,W,1,11,1.4,21,M,,M,,*68
06/22/2015	20:03:59.559	$GPGGA,200400,2421.5732,N,08159.6622,W,1,11,1.4,20,M,,M,,*62
06/22/2015	20:04:00.609	$GPGGA,200401,2421.5722,N,08159.6616,W,1,11,1.4,20,M,,M,,*65
06/22/2015	20:04:01.589	$GPGGA,200402,2421.5714,N,08159.6611,W,1,11,1.4,20,M,,M,,*64
06/22/2015	20:04:02.589	$GPGGA,200403,2421.5704,N,08159.6605,W,1,11,1.4,20,M,,M,,*61
06/22/2015	20:04:03.628	$GPGGA,200404,2421.5695,N,08159.6601,W,1,11,1.4,20,M,,M,,*6B
06/22/2015	20:04:04.589	$GPGGA,200405,2421.5686,N,08159.6595,W,1,11,1.4,20,M,,M,,*66
06/22/2015	20:04:06.590	$GPGGA,200406,2421.5678,N,08159.6589,W,1,11,1.4,20,M,,M,,*69
06/22/2015	20:04:06.625	$GPGGA,200407,2421.5669,N,08159.6585,W,1,11,1.4,20,M,,M,,*64
06/22/2015	20:04:07.612	$GPGGA,200408,2421.5660,N,08159.6579,W,1,10,1.4,20,M,,M,,*60
06/22/2015	20:04:08.580	$GPGGA,200409,2421.5652,N,08159.6573,W,1,10,1.4,20,M,,M,,*6A
06/22/2015	20:04:09.580	$GPGGA,200410,2421.5642,N,08159.6568,W,1,11,1.4,20,M,,M,,*68
06/22/2015	20:04:10.580	$GPGGA,200411,2421.5634,N,08159.6563,W,1,11,1.4,20,M,,M,,*63
06/22/2015	20:04:11.609	$GPGGA,200412,2421.5624,N,08159.6556,W,1,10,1.4,20,M,,M,,*66
06/22/2015	20:04:12.579	$GPGGA,200413,2421.5616,N,08159.6552,W,1,10,1.4,20,M,,M,,*62
06/22/2015	20:04:13.579	$GPGGA,200414,2421.5607,N,08159.6547,W,1,11,1.4,20,M,,M,,*60
06/22/2015	20:04:14.579	$GPGGA,200415,2421.5599,N,08159.6541,W,1,11,1.4,20,M,,M,,*63
06/22/2015	20:04:15.589	$GPGGA,200416,2421.5591,N,08159.6536,W,1,11,1.4,20,M,,M,,*68
06/22/2015	20:04:16.569	$GPGGA,200417,2421.5581,N,08159.6531,W,1,11,1.4,20,M,,M,,*6F
06/22/2015	20:04:17.569	$GPGGA,200418,2421.5573,N,08159.6525,W,1,11,1.4,20,M,,M,,*68
06/22/2015	20:04:18.559	$GPGGA,200419,2421.5563,N,08159.6519,W,1,11,1.4,20,M,,M,,*67
06/22/2015	20:04:19.599	$GPGGA,200420,2421.5555,N,08159.6513,W,1,11,1.4,20,M,,M,,*62
06/22/2015	20:04:20.559	$GPGGA,200421,2421.5545,N,08159.6508,W,1,11,1.4,20,M,,M,,*68
06/22/2015	20:04:21.589	$GPGGA,200422,2421.5536,N,08159.6502,W,1,11,1.4,20,M,,M,,*65
06/22/2015	20:04:22.559	$GPGGA,200423,2421.5527,N,08159.6495,W,1,11,1.4,20,M,,M,,*6B
06/22/2015	20:04:23.560	$GPGGA,200424,2421.5518,N,08159.6490,W,1,11,1.4,20,M,,M,,*65
06/22/2015	20:04:24.560	$GPGGA,200425,2421.5510,N,08159.6485,W,1,11,1.4,20,M,,M,,*68
06/22/2015	20:04:25.690	$GPGGA,200426,2421.5501,N,08159.6479,W,1,11,1.4,20,M,,M,,*68
06/22/2015	20:04:26.540	$GPGGA,200427,2421.5492,N,08159.6472,W,1,11,1.4,20,M,,M,,*69
06/22/2015	20:04:27.560	$GPGGA,200428,2421.5483,N,08159.6467,W,1,11,1.4,20,M,,M,,*62
06/22/2015	20:04:28.550	$GPGGA,200429,2421.5475,N,08159.6463,W,1,11,1.4,20,M,,M,,*6E
06/22/2015	20:04:30.044	$GPGGA,200430,2421.5465,N,08159.6456,W,1,11,1.4,20,M,,M,,*61
06/22/2015	20:04:30.539	$GPGGA,200431,2421.5457,N,08159.6450,W,1,11,1.4,20,M,,M,,*67
06/22/2015	20:04:31.559	$GPGGA,200432,2421.5448,N,08159.6445,W,1,11,1.4,20,M,,M,,*6E
06/22/2015	20:04:32.529	$GPGGA,200433,2421.5439,N,08159.6441,W,1,11,1.4,20,M,,M,,*6D
06/22/2015	20:04:33.519	$GPGGA,200434,2421.5430,N,08159.6435,W,1,9,1.7,20,M,,M,,*5A
06/22/2015	20:04:34.623	$GPGGA,200435,2421.5422,N,08159.6430,W,1,9,1.4,20,M,,M,,*5E
06/22/2015	20:04:35.699	$GPGGA,200436,2421.5414,N,08159.6427,W,1,11,1.4,20,M,,M,,*67
06/22/2015	20:04:36.539	$GPGGA,200437,2421.5405,N,08159.6423,W,1,11,1.4,20,M,,M,,*62
06/22/2015	20:04:37.649	$GPGGA,200438,2421.5397,N,08159.6417,W,1,11,1.4,20,M,,M,,*66
06/22/2015	20:04:38.529	$GPGGA,200439,2421.5388,N,08159.6412,W,1,11,1.4,20,M,,M,,*6C
06/22/2015	20:04:39.689	$GPGGA,200440,2421.5379,N,08159.6408,W,1,11,1.4,21,M,,M,,*66
06/22/2015	20:04:40.621	$GPGGA,200441,2421.5370,N,08159.6403,W,1,11,1.5,21,M,,M,,*64
06/22/2015	20:04:41.625	$GPGGA,200442,2421.5363,N,08159.6396,W,1,10,1.4,21,M,,M,,*6E
06/22/2015	20:04:42.622	$GPGGA,200443,2421.5354,N,08159.6391,W,1,10,1.4,21,M,,M,,*6C
06/22/2015	20:04:43.630	$GPGGA,200444,2421.5345,N,08159.6387,W,1,11,1.4,21,M,,M,,*6D
06/22/2015	20:04:44.520	$GPGGA,200445,2421.5336,N,08159.6382,W,1,11,1.4,21,M,,M,,*6D
06/22/2015	20:04:45.630	$GPGGA,200446,2421.5327,N,08159.6376,W,1,11,1.4,21,M,,M,,*65
06/22/2015	20:04:46.609	$GPGGA,200447,2421.5317,N,08159.6371,W,1,11,1.4,21,M,,M,,*60
06/22/2015	20:04:47.649	$GPGGA,200448,2421.5309,N,08159.6366,W,1,11,1.4,21,M,,M,,*66
06/22/2015	20:04:48.499	$GPGGA,200449,2421.5300,N,08159.6361,W,1,11,1.4,21,M,,M,,*69
06/22/2015	20:04:49.629	$GPGGA,200450,2421.5291,N,08159.6355,W,1,11,1.4,21,M,,M,,*6F
06/22/2015	20:04:50.499	$GPGGA,200451,2421.5282,N,08159.6351,W,1,11,1.4,21,M,,M,,*68
06/22/2015	20:04:51.639	$GPGGA,200452,2421.5275,N,08159.6344,W,1,10,1.4,21,M,,M,,*66
06/22/2015	20:04:52.589	$GPGGA,200453,2421.5267,N,08159.6338,W,1,10,1.4,22,M,,M,,*6C
06/22/2015	20:04:53.609	$GPGGA,200454,2421.5259,N,08159.6332,W,1,11,1.4,22,M,,M,,*6D
06/22/2015	20:04:54.599	$GPGGA,200455,2421.5251,N,08159.6327,W,1,11,1.4,22,M,,M,,*60
06/22/2015	20:04:55.639	$GPGGA,200456,2421.5242,N,08159.6321,W,1,11,1.4,22,M,,M,,*67
06/22/2015	20:04:56.579	$GPGGA,200457,2421.5233,N,08159.6315,W,1,11,1.4,22,M,,M,,*67
06/22/2015	20:04:57.589	$GPGGA,200458,2421.5226,N,08159.6310,W,1,11,1.4,22,M,,M,,*69
06/22/2015	20:04:58.590	$GPGGA,200459,2421.5216,N,08159.6305,W,1,11,1.4,22,M,,M,,*6F
06/22/2015	20:04:59.660	$GPGGA,200500,2421.5208,N,08159.6299,W,1,11,1.4,22,M,,M,,*69
06/22/2015	20:05:00.580	$GPGGA,200501,2421.5198,N,08159.6294,W,1,11,1.4,22,M,,M,,*6F
06/22/2015	20:05:01.570	$GPGGA,200502,2421.5190,N,08159.6289,W,1,11,1.4,22,M,,M,,*68
06/22/2015	20:05:02.580	$GPGGA,200503,2421.5181,N,08159.6284,W,1,11,1.4,23,M,,M,,*65
06/22/2015	20:05:03.610	$GPGGA,200504,2421.5173,N,08159.6279,W,1,11,1.4,23,M,,M,,*6D
06/22/2015	20:05:04.569	$GPGGA,200505,2421.5166,N,08159.6274,W,1,11,1.4,23,M,,M,,*65
06/22/2015	20:05:05.559	$GPGGA,200506,2421.5158,N,08159.6269,W,1,11,1.4,23,M,,M,,*67
06/22/2015	20:05:06.569	$GPGGA,200507,2421.5150,N,08159.6264,W,1,11,1.4,23,M,,M,,*63
06/22/2015	20:05:07.610	$GPGGA,200508,2421.5143,N,08159.6261,W,1,11,1.4,23,M,,M,,*6B
06/22/2015	20:05:08.579	$GPGGA,200509,2421.5135,N,08159.6257,W,1,11,1.4,23,M,,M,,*6E
06/22/2015	20:05:09.589	$GPGGA,200510,2421.5127,N,08159.6252,W,1,11,1.4,23,M,,M,,*60
06/22/2015	20:05:10.559	$GPGGA,200511,2421.5121,N,08159.6247,W,1,11,1.4,23,M,,M,,*63
06/22/2015	20:05:11.579	$GPGGA,200512,2421.5114,N,08159.6244,W,1,11,1.4,23,M,,M,,*65
06/22/2015	20:05:12.559	$GPGGA,200513,2421.5107,N,08159.6240,W,1,11,1.4,23,M,,M,,*62
06/22/2015	20:05:13.589	$GPGGA,200514,2421.5100,N,08159.6236,W,1,11,1.5,23,M,,M,,*62
06/22/2015	20:05:14.559	$GPGGA,200515,2421.5093,N,08159.6231,W,1,11,1.4,23,M,,M,,*6E
06/22/2015	20:05:15.580	$GPGGA,200516,2421.5086,N,08159.6228,W,1,11,1.4,23,M,,M,,*61
06/22/2015	20:05:16.570	$GPGGA,200517,2421.5080,N,08159.6225,W,1,11,1.4,23,M,,M,,*6B
06/22/2015	20:05:17.550	$GPGGA,200518,2421.5074,N,08159.6221,W,1,11,1.4,23,M,,M,,*6B
06/22/2015	20:05:18.530	$GPGGA,200519,2421.5067,N,08159.6217,W,1,11,1.5,23,M,,M,,*6C
06/22/2015	20:05:19.570	$GPGGA,200520,2421.5060,N,08159.6215,W,1,10,1.4,23,M,,M,,*63
06/22/2015	20:05:20.660	$GPGGA,200521,2421.5054,N,08159.6213,W,1,10,1.4,23,M,,M,,*63
06/22/2015	20:05:21.649	$GPGGA,200522,2421.5049,N,08159.6210,W,1,11,1.4,23,M,,M,,*6E
06/22/2015	20:05:22.559	$GPGGA,200523,2421.5042,N,08159.6206,W,1,11,1.4,23,M,,M,,*63
06/22/2015	20:05:23.659	$GPGGA,200524,2421.5036,N,08159.6201,W,1,11,1.5,23,M,,M,,*61
06/22/2015	20:05:24.539	$GPGGA,200525,2421.5029,N,08159.6200,W,1,11,1.4,24,M,,M,,*69
06/22/2015	20:05:25.649	$GPGGA,200526,2421.5024,N,08159.6197,W,1,11,1.4,24,M,,M,,*6A
06/22/2015	20:05:26.549	$GPGGA,200527,2421.5018,N,08159.6194,W,1,11,1.4,24,M,,M,,*67
06/22/2015	20:05:27.659	$GPGGA,200528,2421.5013,N,08159.6191,W,1,11,1.4,24,M,,M,,*66
06/22/2015	20:05:28.549	$GPGGA,200529,2421.5006,N,08159.6188,W,1,11,1.4,24,M,,M,,*6B
06/22/2015	20:05:29.529	$GPGGA,200530,2421.5002,N,08159.6185,W,1,11,1.4,24,M,,M,,*6A
06/22/2015	20:05:30.609	$GPGGA,200531,2421.4995,N,08159.6181,W,1,11,1.4,24,M,,M,,*69
06/22/2015	20:05:31.549	$GPGGA,200532,2421.4991,N,08159.6178,W,1,11,1.4,24,M,,M,,*68
06/22/2015	20:05:32.529	$GPGGA,200533,2421.4984,N,08159.6175,W,1,11,1.4,24,M,,M,,*60
06/22/2015	20:05:33.612	$GPGGA,200534,2421.4980,N,08159.6171,W,1,11,1.5,24,M,,M,,*66
06/22/2015	20:05:34.611	$GPGGA,200535,2421.4974,N,08159.6169,W,1,11,1.5,24,M,,M,,*65
06/22/2015	20:05:35.614	$GPGGA,200536,2421.4968,N,08159.6167,W,1,11,1.5,24,M,,M,,*65
06/22/2015	20:05:36.611	$GPGGA,200537,2421.4964,N,08159.6162,W,1,11,1.5,24,M,,M,,*6D
06/22/2015	20:05:37.611	$GPGGA,200538,2421.4958,N,08159.6159,W,1,10,1.5,24,M,,M,,*64
06/22/2015	20:05:38.590	$GPGGA,200539,2421.4953,N,08159.6158,W,1,10,1.4,24,M,,M,,*6E
06/22/2015	20:05:39.629	$GPGGA,200540,2421.4949,N,08159.6154,W,1,10,1.5,24,M,,M,,*66
06/22/2015	20:05:40.599	$GPGGA,200541,2421.4944,N,08159.6150,W,1,10,1.5,24,M,,M,,*6E
06/22/2015	20:05:41.599	$GPGGA,200542,2421.4939,N,08159.6147,W,1,10,1.5,24,M,,M,,*61
06/22/2015	20:05:42.589	$GPGGA,200543,2421.4934,N,08159.6145,W,1,10,1.5,24,M,,M,,*6F
06/22/2015	20:05:43.624	$GPGGA,200544,2421.4930,N,08159.6142,W,1,10,1.5,24,M,,M,,*6B
06/22/2015	20:05:44.589	$GPGGA,200545,2421.4926,N,08159.6139,W,1,10,1.5,24,M,,M,,*61
06/22/2015	20:05:45.579	$GPGGA,200546,2421.4920,N,08159.6136,W,1,11,1.4,24,M,,M,,*6B
06/22/2015	20:05:46.589	$GPGGA,200547,2421.4916,N,08159.6133,W,1,11,1.5,23,M,,M,,*6C
06/22/2015	20:05:47.611	$GPGGA,200548,2421.4911,N,08159.6131,W,1,10,1.5,23,M,,M,,*67
06/22/2015	20:05:48.579	$GPGGA,200549,2421.4906,N,08159.6128,W,1,10,1.5,23,M,,M,,*68
06/22/2015	20:05:49.589	$GPGGA,200550,2421.4902,N,08159.6124,W,1,10,1.5,23,M,,M,,*68
06/22/2015	20:05:50.570	$GPGGA,200551,2421.4898,N,08159.6123,W,1,10,1.5,23,M,,M,,*6C
06/22/2015	20:05:51.612	$GPGGA,200552,2421.4893,N,08159.6121,W,1,11,1.4,23,M,,M,,*66
06/22/2015	20:05:52.560	$GPGGA,200553,2421.4890,N,08159.6118,W,1,11,1.5,23,M,,M,,*6F
06/22/2015	20:05:53.600	$GPGGA,200554,2421.4885,N,08159.6117,W,1,10,1.5,23,M,,M,,*62
06/22/2015	20:05:54.570	$GPGGA,200555,2421.4881,N,08159.6113,W,1,10,1.4,23,M,,M,,*62
06/22/2015	20:05:55.600	$GPGGA,200556,2421.4877,N,08159.6111,W,1,10,1.5,23,M,,M,,*6B
06/22/2015	20:05:56.569	$GPGGA,200557,2421.4873,N,08159.6108,W,1,10,1.5,23,M,,M,,*66
06/22/2015	20:05:57.559	$GPGGA,200558,2421.4869,N,08159.6105,W,1,10,1.5,23,M,,M,,*6F
06/22/2015	20:05:58.559	$GPGGA,200559,2421.4865,N,08159.6101,W,1,10,1.5,23,M,,M,,*66
06/22/2015	20:05:59.621	$GPGGA,200600,2421.4861,N,08159.6099,W,1,10,1.5,23,M,,M,,*6D
06/22/2015	20:06:00.559	$GPGGA,200601,2421.4857,N,08159.6097,W,1,10,1.5,22,M,,M,,*66
06/22/2015	20:06:01.559	$GPGGA,200602,2421.4854,N,08159.6094,W,1,10,1.5,22,M,,M,,*65
06/22/2015	20:06:02.539	$GPGGA,200603,2421.4850,N,08159.6093,W,1,10,1.5,22,M,,M,,*67
06/22/2015	20:06:03.579	$GPGGA,200604,2421.4845,N,08159.6091,W,1,11,1.4,22,M,,M,,*66
06/22/2015	20:06:04.639	$GPGGA,200605,2421.4843,N,08159.6089,W,1,11,1.7,22,M,,M,,*6B
06/22/2015	20:06:05.549	$GPGGA,200606,2421.4839,N,08159.6086,W,1,11,1.4,22,M,,M,,*69
06/22/2015	20:06:06.549	$GPGGA,200607,2421.4836,N,08159.6085,W,1,11,1.5,22,M,,M,,*65
06/22/2015	20:06:07.659	$GPGGA,200608,2421.4832,N,08159.6083,W,1,10,1.5,22,M,,M,,*69
06/22/2015	20:06:08.530	$GPGGA,200609,2421.4828,N,08159.6080,W,1,10,1.4,22,M,,M,,*61
06/22/2015	20:06:09.550	$GPGGA,200610,2421.4825,N,08159.6079,W,1,10,1.4,22,M,,M,,*62
06/22/2015	20:06:10.540	$GPGGA,200611,2421.4822,N,08159.6077,W,1,10,1.5,22,M,,M,,*6B
06/22/2015	20:06:11.560	$GPGGA,200612,2421.4819,N,08159.6076,W,1,10,1.5,22,M,,M,,*61
06/22/2015	20:06:13.580	$GPGGA,200614,2421.4811,N,08159.6071,W,1,11,1.4,22,M,,M,,*68
06/22/2015	20:06:14.539	$GPGGA,200615,2421.4808,N,08159.6069,W,1,11,1.5,22,M,,M,,*69
06/22/2015	20:06:15.659	$GPGGA,200616,2421.4805,N,08159.6066,W,1,10,1.5,22,M,,M,,*69
06/22/2015	20:06:16.539	$GPGGA,200617,2421.4803,N,08159.6066,W,1,10,1.4,22,M,,M,,*6F
06/22/2015	20:06:17.614	$GPGGA,200618,2421.4799,N,08159.6065,W,1,11,1.4,22,M,,M,,*6E
06/22/2015	20:06:18.515	$GPGGA,200619,2421.4796,N,08159.6062,W,1,11,1.5,22,M,,M,,*66
06/22/2015	20:06:19.659	$GPGGA,200620,2421.4793,N,08159.6060,W,1,10,1.5,22,M,,M,,*6A
06/22/2015	20:06:20.539	$GPGGA,200621,2421.4790,N,08159.6059,W,1,10,1.4,22,M,,M,,*63
06/22/2015	20:06:21.639	$GPGGA,200622,2421.4786,N,08159.6059,W,1,11,1.4,22,M,,M,,*66
06/22/2015	20:06:22.611	$GPGGA,200623,2421.4783,N,08159.6057,W,1,11,1.4,22,M,,M,,*6C
06/22/2015	20:06:23.639	$GPGGA,200624,2421.4781,N,08159.6056,W,1,11,1.4,22,M,,M,,*68
06/22/2015	20:06:24.599	$GPGGA,200625,2421.4778,N,08159.6054,W,1,11,1.4,22,M,,M,,*6D
06/22/2015	20:06:25.624	$GPGGA,200626,2421.4775,N,08159.6051,W,1,11,1.4,22,M,,M,,*66
06/22/2015	20:06:26.590	$GPGGA,200627,2421.4772,N,08159.6049,W,1,11,1.4,22,M,,M,,*69
06/22/2015	20:06:27.630	$GPGGA,200628,2421.4768,N,08159.6048,W,1,11,1.4,23,M,,M,,*6D
06/22/2015	20:06:28.600	$GPGGA,200629,2421.4765,N,08159.6047,W,1,11,1.4,23,M,,M,,*6E
06/22/2015	20:06:29.613	$GPGGA,200630,2421.4763,N,08159.6043,W,1,11,1.4,23,M,,M,,*64
06/22/2015	20:06:30.600	$GPGGA,200631,2421.4760,N,08159.6040,W,1,11,1.4,23,M,,M,,*65
06/22/2015	20:06:31.625	$GPGGA,200632,2421.4757,N,08159.6040,W,1,11,1.4,23,M,,M,,*62
06/22/2015	20:06:32.632	$GPGGA,200633,2421.4754,N,08159.6038,W,1,11,1.4,23,M,,M,,*6F
06/22/2015	20:06:33.599	$GPGGA,200634,2421.4753,N,08159.6035,W,1,11,1.4,23,M,,M,,*62
06/22/2015	20:06:34.589	$GPGGA,200635,2421.4749,N,08159.6032,W,1,11,1.4,23,M,,M,,*6F
06/22/2015	20:06:35.620	$GPGGA,200636,2421.4746,N,08159.6031,W,1,11,1.4,23,M,,M,,*60
06/22/2015	20:06:36.579	$GPGGA,200637,2421.4744,N,08159.6028,W,1,11,1.4,23,M,,M,,*6B
06/22/2015	20:06:37.610	$GPGGA,200638,2421.4742,N,08159.6026,W,1,11,1.4,23,M,,M,,*6C
06/22/2015	20:06:38.579	$GPGGA,200639,2421.4739,N,08159.6024,W,1,11,1.4,24,M,,M,,*64
06/22/2015	20:06:39.623	$GPGGA,200640,2421.4736,N,08159.6022,W,1,11,1.4,24,M,,M,,*63
06/22/2015	20:06:40.569	$GPGGA,200641,2421.4733,N,08159.6020,W,1,11,1.4,24,M,,M,,*65
06/22/2015	20:06:41.589	$GPGGA,200642,2421.4731,N,08159.6018,W,1,11,1.4,24,M,,M,,*6F
06/22/2015	20:06:42.569	$GPGGA,200643,2421.4728,N,08159.6016,W,1,11,1.4,24,M,,M,,*68
06/22/2015	20:06:43.570	$GPGGA,200644,2421.4726,N,08159.6014,W,1,11,1.4,24,M,,M,,*63
06/22/2015	20:06:44.570	$GPGGA,200645,2421.4724,N,08159.6012,W,1,11,1.4,24,M,,M,,*66
06/22/2015	20:06:45.600	$GPGGA,200646,2421.4720,N,08159.6010,W,1,11,1.4,24,M,,M,,*63
06/22/2015	20:06:46.570	$GPGGA,200647,2421.4718,N,08159.6008,W,1,11,1.4,24,M,,M,,*60
06/22/2015	20:06:47.560	$GPGGA,200648,2421.4715,N,08159.6006,W,1,11,1.4,24,M,,M,,*6C
06/22/2015	20:06:48.560	$GPGGA,200649,2421.4713,N,08159.6004,W,1,11,1.4,24,M,,M,,*69
06/22/2015	20:06:49.569	$GPGGA,200650,2421.4710,N,08159.6001,W,1,11,1.4,24,M,,M,,*67
06/22/2015	20:06:50.639	$GPGGA,200651,2421.4707,N,08159.5999,W,1,11,1.4,24,M,,M,,*6B
06/22/2015	20:06:53.549	$GPGGA,200652,2421.4706,N,08159.5997,W,1,11,1.4,24,M,,M,,*67
06/22/2015	20:06:53.659	$GPGGA,200654,2421.4700,N,08159.5993,W,1,11,1.4,24,M,,M,,*63
06/22/2015	20:06:54.539	$GPGGA,200655,2421.4698,N,08159.5991,W,1,11,1.4,24,M,,M,,*60
06/22/2015	20:06:55.569	$GPGGA,200656,2421.4696,N,08159.5989,W,1,11,1.4,24,M,,M,,*64
06/22/2015	20:06:56.949	$GPGGA,200657,2421.4693,N,08159.5987,W,1,11,1.4,24,M,,M,,*6E
06/22/2015	20:06:57.539	$GPGGA,200658,2421.4691,N,08159.5985,W,1,11,1.4,24,M,,M,,*61
06/22/2015	20:06:58.539	$GPGGA,200659,2421.4688,N,08159.5982,W,1,11,1.4,24,M,,M,,*6F
06/22/2015	20:06:59.689	$GPGGA,200700,2421.4686,N,08159.5981,W,1,11,1.4,24,M,,M,,*6F
06/22/2015	20:07:00.527	$GPGGA,200701,2421.4684,N,08159.5979,W,1,11,1.4,24,M,,M,,*6B
06/22/2015	20:07:01.550	$GPGGA,200702,2421.4681,N,08159.5976,W,1,10,1.5,24,M,,M,,*62
06/22/2015	20:07:02.521	$GPGGA,200703,2421.4679,N,08159.5974,W,1,10,1.5,24,M,,M,,*66
06/22/2015	20:07:03.670	$GPGGA,200704,2421.4677,N,08159.5973,W,1,11,1.4,24,M,,M,,*68
06/22/2015	20:07:04.540	$GPGGA,200705,2421.4675,N,08159.5972,W,1,11,1.4,24,M,,M,,*6A
06/22/2015	20:07:05.630	$GPGGA,200706,2421.4673,N,08159.5971,W,1,11,1.4,24,M,,M,,*6C
06/22/2015	20:07:06.609	$GPGGA,200707,2421.4670,N,08159.5968,W,1,11,1.4,23,M,,M,,*61
06/22/2015	20:07:07.619	$GPGGA,200708,2421.4668,N,08159.5966,W,1,11,1.4,23,M,,M,,*69
06/22/2015	20:07:08.619	$GPGGA,200709,2421.4666,N,08159.5965,W,1,11,1.4,23,M,,M,,*65
06/22/2015	20:07:09.649	$GPGGA,200710,2421.4664,N,08159.5963,W,1,11,1.4,23,M,,M,,*69
06/22/2015	20:07:10.599	$GPGGA,200711,2421.4662,N,08159.5961,W,1,11,1.4,23,M,,M,,*6C
06/22/2015	20:07:11.629	$GPGGA,200712,2421.4660,N,08159.5959,W,1,11,1.4,23,M,,M,,*66
06/22/2015	20:07:12.589	$GPGGA,200713,2421.4659,N,08159.5958,W,1,11,1.4,23,M,,M,,*6C
06/22/2015	20:07:13.619	$GPGGA,200714,2421.4656,N,08159.5956,W,1,11,1.4,23,M,,M,,*6A
06/22/2015	20:07:14.599	$GPGGA,200715,2421.4655,N,08159.5954,W,1,11,1.4,23,M,,M,,*6A
06/22/2015	20:07:15.609	$GPGGA,200716,2421.4652,N,08159.5951,W,1,10,1.5,23,M,,M,,*6B
06/22/2015	20:07:16.589	$GPGGA,200717,2421.4650,N,08159.5949,W,1,10,1.5,23,M,,M,,*61
06/22/2015	20:07:17.599	$GPGGA,200718,2421.4648,N,08159.5947,W,1,10,1.5,23,M,,M,,*69
06/22/2015	20:07:18.589	$GPGGA,200719,2421.4648,N,08159.5944,W,1,10,1.5,23,M,,M,,*6B
06/22/2015	20:07:19.612	$GPGGA,200720,2421.4645,N,08159.5944,W,1,10,1.5,23,M,,M,,*6C
06/22/2015	20:07:20.569	$GPGGA,200721,2421.4642,N,08159.5943,W,1,10,1.4,23,M,,M,,*6C
06/22/2015	20:07:21.600	$GPGGA,200722,2421.4641,N,08159.5941,W,1,10,1.5,23,M,,M,,*6F
06/22/2015	20:07:22.569	$GPGGA,200723,2421.4639,N,08159.5939,W,1,10,1.5,22,M,,M,,*6F
06/22/2015	20:07:23.610	$GPGGA,200724,2421.4637,N,08159.5937,W,1,11,1.4,22,M,,M,,*68
06/22/2015	20:07:24.578	$GPGGA,200725,2421.4635,N,08159.5936,W,1,11,1.4,22,M,,M,,*6A
06/22/2015	20:07:25.579	$GPGGA,200726,2421.4634,N,08159.5935,W,1,11,1.4,22,M,,M,,*6B
06/22/2015	20:07:26.558	$GPGGA,200727,2421.4632,N,08159.5933,W,1,11,1.4,22,M,,M,,*6A
06/22/2015	20:07:27.588	$GPGGA,200728,2421.4630,N,08159.5931,W,1,11,1.4,22,M,,M,,*65
06/22/2015	20:07:28.569	$GPGGA,200729,2421.4628,N,08159.5930,W,1,11,1.4,22,M,,M,,*6C
06/22/2015	20:07:29.589	$GPGGA,200730,2421.4627,N,08159.5929,W,1,11,1.4,22,M,,M,,*63
06/22/2015	20:07:30.549	$GPGGA,200731,2421.4626,N,08159.5927,W,1,11,1.4,22,M,,M,,*6D
06/22/2015	20:07:31.569	$GPGGA,200732,2421.4623,N,08159.5926,W,1,11,1.4,22,M,,M,,*6A
06/22/2015	20:07:32.569	$GPGGA,200733,2421.4622,N,08159.5925,W,1,11,1.4,22,M,,M,,*69
06/22/2015	20:07:33.559	$GPGGA,200734,2421.4620,N,08159.5924,W,1,11,1.4,22,M,,M,,*6D
06/22/2015	20:07:34.539	$GPGGA,200735,2421.4619,N,08159.5922,W,1,11,1.4,22,M,,M,,*60
06/22/2015	20:07:35.559	$GPGGA,200736,2421.4617,N,08159.5922,W,1,11,1.4,22,M,,M,,*6D
06/22/2015	20:07:36.539	$GPGGA,200737,2421.4615,N,08159.5920,W,1,11,1.4,21,M,,M,,*6F
06/22/2015	20:07:37.579	$GPGGA,200738,2421.4613,N,08159.5919,W,1,11,1.4,21,M,,M,,*6C
06/22/2015	20:07:38.539	$GPGGA,200739,2421.4612,N,08159.5918,W,1,11,1.4,21,M,,M,,*6D
06/22/2015	20:07:39.549	$GPGGA,200740,2421.4610,N,08159.5917,W,1,11,1.4,21,M,,M,,*6E
06/22/2015	20:07:40.529	$GPGGA,200741,2421.4608,N,08159.5915,W,1,11,1.4,21,M,,M,,*64
06/22/2015	20:07:41.548	$GPGGA,200742,2421.4608,N,08159.5913,W,1,11,1.4,21,M,,M,,*61
06/22/2015	20:07:42.528	$GPGGA,200743,2421.4605,N,08159.5912,W,1,11,1.4,21,M,,M,,*6C
06/22/2015	20:07:43.528	$GPGGA,200744,2421.4604,N,08159.5912,W,1,11,1.4,21,M,,M,,*6A
06/22/2015	20:07:44.519	$GPGGA,200745,2421.4602,N,08159.5911,W,1,11,1.4,21,M,,M,,*6E
06/22/2015	20:07:45.619	$GPGGA,200746,2421.4601,N,08159.5909,W,1,11,1.4,21,M,,M,,*67
06/22/2015	20:07:46.519	$GPGGA,200747,2421.4599,N,08159.5908,W,1,11,1.4,21,M,,M,,*65
06/22/2015	20:07:47.529	$GPGGA,200748,2421.4597,N,08159.5908,W,1,11,1.4,21,M,,M,,*64
06/22/2015	20:07:48.649	$GPGGA,200749,2421.4599,N,08159.5908,W,1,11,1.4,21,M,,M,,*6B
06/22/2015	20:07:49.512	$GPGGA,200750,2421.4596,N,08159.5907,W,1,11,1.4,21,M,,M,,*63
06/22/2015	20:07:50.639	$GPGGA,200751,2421.4595,N,08159.5908,W,1,11,1.4,21,M,,M,,*6E
06/22/2015	20:07:51.710	$GPGGA,200752,2421.4594,N,08159.5907,W,1,11,1.4,21,M,,M,,*63
06/22/2015	20:07:52.539	$GPGGA,200753,2421.4594,N,08159.5907,W,1,11,1.4,21,M,,M,,*62
06/22/2015	20:07:53.601	$GPGGA,200754,2421.4592,N,08159.5906,W,1,11,1.4,21,M,,M,,*62
06/22/2015	20:07:54.639	$GPGGA,200755,2421.4591,N,08159.5907,W,1,11,1.4,21,M,,M,,*61
06/22/2015	20:07:55.703	$GPGGA,200756,2421.4590,N,08159.5904,W,1,11,1.4,21,M,,M,,*60
06/22/2015	20:07:56.529	$GPGGA,200757,2421.4587,N,08159.5903,W,1,11,1.4,21,M,,M,,*60
06/22/2015	20:07:57.499	$GPGGA,200758,2421.4586,N,08159.5903,W,1,10,1.4,21,M,,M,,*6F
06/22/2015	20:07:58.589	$GPGGA,200759,2421.4584,N,08159.5902,W,1,10,1.4,21,M,,M,,*6D
06/22/2015	20:08:00.568	$GPGGA,200800,2421.4583,N,08159.5901,W,1,11,1.4,21,M,,M,,*6B
06/22/2015	20:08:00.618	$GPGGA,200801,2421.4581,N,08159.5899,W,1,11,1.4,21,M,,M,,*68
06/22/2015	20:08:01.948	$GPGGA,200802,2421.4579,N,08159.5898,W,1,11,1.4,21,M,,M,,*6D
06/22/2015	20:08:02.638	$GPGGA,200803,2421.4579,N,08159.5899,W,1,11,1.4,21,M,,M,,*6D
06/22/2015	20:08:03.711	$GPGGA,200804,2421.4577,N,08159.5897,W,1,11,1.4,21,M,,M,,*6A
06/22/2015	20:08:04.579	$GPGGA,200805,2421.4576,N,08159.5896,W,1,11,1.4,21,M,,M,,*6B
06/22/2015	20:08:05.589	$GPGGA,200806,2421.4576,N,08159.5895,W,1,11,1.4,21,M,,M,,*6B
06/22/2015	20:08:06.620	$GPGGA,200807,2421.4573,N,08159.5894,W,1,11,1.4,21,M,,M,,*6E
06/22/2015	20:08:07.701	$GPGGA,200808,2421.4572,N,08159.5894,W,1,11,1.4,21,M,,M,,*60
06/22/2015	20:08:08.606	$GPGGA,200809,2421.4570,N,08159.5892,W,1,11,1.4,21,M,,M,,*65
06/22/2015	20:08:09.579	$GPGGA,200810,2421.4569,N,08159.5891,W,1,11,1.4,21,M,,M,,*66
06/22/2015	20:08:10.619	$GPGGA,200811,2421.4567,N,08159.5890,W,1,11,1.4,21,M,,M,,*68
06/22/2015	20:08:11.701	$GPGGA,200812,2421.4566,N,08159.5890,W,1,11,1.4,21,M,,M,,*6A
06/22/2015	20:08:12.569	$GPGGA,200813,2421.4565,N,08159.5888,W,1,11,1.4,21,M,,M,,*61
06/22/2015	20:08:13.669	$GPGGA,200814,2421.4562,N,08159.5887,W,1,11,1.4,21,M,,M,,*6E
06/22/2015	20:08:14.605	$GPGGA,200815,2421.4561,N,08159.5886,W,1,11,1.4,21,M,,M,,*6D
06/22/2015	20:08:15.689	$GPGGA,200816,2421.4561,N,08159.5886,W,1,11,1.4,21,M,,M,,*6E
06/22/2015	20:08:16.588	$GPGGA,200817,2421.4558,N,08159.5885,W,1,11,1.4,21,M,,M,,*66
06/22/2015	20:08:17.558	$GPGGA,200818,2421.4557,N,08159.5884,W,1,11,1.4,21,M,,M,,*67
06/22/2015	20:08:18.578	$GPGGA,200819,2421.4556,N,08159.5885,W,1,11,1.4,21,M,,M,,*66
06/22/2015	20:08:19.648	$GPGGA,200820,2421.4555,N,08159.5883,W,1,11,1.4,21,M,,M,,*69
06/22/2015	20:08:20.579	$GPGGA,200821,2421.4554,N,08159.5882,W,1,11,1.4,21,M,,M,,*68
06/22/2015	20:08:21.679	$GPGGA,200822,2421.4554,N,08159.5882,W,1,11,1.4,21,M,,M,,*6B
06/22/2015	20:08:22.549	$GPGGA,200823,2421.4552,N,08159.5881,W,1,11,1.5,21,M,,M,,*6E
06/22/2015	20:08:23.669	$GPGGA,200824,2421.4551,N,08159.5882,W,1,11,1.4,21,M,,M,,*68
06/22/2015	20:08:24.539	$GPGGA,200825,2421.4550,N,08159.5880,W,1,11,1.4,21,M,,M,,*6A
06/22/2015	20:08:25.539	$GPGGA,200826,2421.4549,N,08159.5879,W,1,11,1.4,21,M,,M,,*67
06/22/2015	20:08:26.569	$GPGGA,200827,2421.4548,N,08159.5879,W,1,11,1.4,21,M,,M,,*67
06/22/2015	20:08:27.669	$GPGGA,200828,2421.4547,N,08159.5878,W,1,10,1.4,21,M,,M,,*67
06/22/2015	20:08:28.579	$GPGGA,200829,2421.4547,N,08159.5878,W,1,10,1.5,21,M,,M,,*67
06/22/2015	20:08:29.529	$GPGGA,200830,2421.4545,N,08159.5877,W,1,10,1.5,21,M,,M,,*62
06/22/2015	20:08:30.529	$GPGGA,200831,2421.4544,N,08159.5876,W,1,10,1.4,21,M,,M,,*62
06/22/2015	20:08:31.629	$GPGGA,200832,2421.4543,N,08159.5876,W,1,11,1.4,21,M,,M,,*67
06/22/2015	20:08:32.629	$GPGGA,200833,2421.4541,N,08159.5875,W,1,11,1.4,21,M,,M,,*67
06/22/2015	20:08:33.659	$GPGGA,200834,2421.4540,N,08159.5874,W,1,11,1.4,21,M,,M,,*60
06/22/2015	20:08:34.568	$GPGGA,200835,2421.4538,N,08159.5875,W,1,11,1.4,21,M,,M,,*6F
06/22/2015	20:08:35.648	$GPGGA,200836,2421.4537,N,08159.5874,W,1,11,1.4,21,M,,M,,*62
06/22/2015	20:08:36.568	$GPGGA,200837,2421.4538,N,08159.5873,W,1,11,1.4,20,M,,M,,*6A
06/22/2015	20:08:37.614	$GPGGA,200838,2421.4536,N,08159.5874,W,1,11,1.4,20,M,,M,,*6C
06/22/2015	20:08:38.549	$GPGGA,200839,2421.4536,N,08159.5872,W,1,11,1.5,20,M,,M,,*6A
06/22/2015	20:08:39.639	$GPGGA,200840,2421.4534,N,08159.5871,W,1,10,1.5,20,M,,M,,*64
06/22/2015	20:08:40.549	$GPGGA,200841,2421.4533,N,08159.5871,W,1,10,1.4,20,M,,M,,*63
06/22/2015	20:08:41.659	$GPGGA,200842,2421.4531,N,08159.5872,W,1,11,1.4,20,M,,M,,*60
06/22/2015	20:08:42.611	$GPGGA,200843,2421.4532,N,08159.5872,W,1,11,1.4,20,M,,M,,*62
06/22/2015	20:08:43.929	$GPGGA,200844,2421.4530,N,08159.5872,W,1,11,1.4,20,M,,M,,*67
06/22/2015	20:08:44.610	$GPGGA,200845,2421.4529,N,08159.5874,W,1,11,1.4,20,M,,M,,*68
06/22/2015	20:08:45.615	$GPGGA,200846,2421.4527,N,08159.5873,W,1,11,1.4,20,M,,M,,*62
06/22/2015	20:08:46.599	$GPGGA,200847,2421.4528,N,08159.5872,W,1,11,1.4,20,M,,M,,*6D
06/22/2015	20:08:47.649	$GPGGA,200848,2421.4526,N,08159.5872,W,1,11,1.4,20,M,,M,,*6C
06/22/2015	20:08:48.589	$GPGGA,200849,2421.4525,N,08159.5874,W,1,11,1.4,21,M,,M,,*69
06/22/2015	20:08:49.669	$GPGGA,200850,2421.4525,N,08159.5874,W,1,11,1.4,21,M,,M,,*61
06/22/2015	20:08:50.589	$GPGGA,200851,2421.4523,N,08159.5871,W,1,11,1.4,21,M,,M,,*63
06/22/2015	20:08:51.609	$GPGGA,200852,2421.4522,N,08159.5870,W,1,11,1.5,21,M,,M,,*61
06/22/2015	20:08:52.588	$GPGGA,200853,2421.4521,N,08159.5871,W,1,11,1.5,21,M,,M,,*62
06/22/2015	20:08:53.648	$GPGGA,200854,2421.4519,N,08159.5870,W,1,10,1.4,21,M,,M,,*6F
06/22/2015	20:08:54.578	$GPGGA,200855,2421.4518,N,08159.5869,W,1,10,1.4,21,M,,M,,*67
06/22/2015	20:08:55.629	$GPGGA,200856,2421.4518,N,08159.5868,W,1,11,1.4,21,M,,M,,*64
06/22/2015	20:08:56.579	$GPGGA,200857,2421.4516,N,08159.5866,W,1,11,1.7,21,M,,M,,*66
06/22/2015	20:08:57.579	$GPGGA,200858,2421.4514,N,08159.5867,W,1,9,1.4,21,M,,M,,*50
06/22/2015	20:08:58.569	$GPGGA,200859,2421.4511,N,08159.5866,W,1,9,1.4,21,M,,M,,*55
06/22/2015	20:08:59.669	$GPGGA,200900,2421.4509,N,08159.5864,W,1,10,1.4,21,M,,M,,*6B
06/22/2015	20:09:00.579	$GPGGA,200901,2421.4507,N,08159.5863,W,1,10,1.4,21,M,,M,,*63
06/22/2015	20:09:01.601	$GPGGA,200902,2421.4504,N,08159.5863,W,1,10,1.4,21,M,,M,,*63
06/22/2015	20:09:02.580	$GPGGA,200903,2421.4502,N,08159.5862,W,1,10,1.4,21,M,,M,,*65
06/22/2015	20:09:03.639	$GPGGA,200904,2421.4500,N,08159.5861,W,1,11,1.4,21,M,,M,,*62
06/22/2015	20:09:04.912	$GPGGA,200905,2421.4496,N,08159.5860,W,1,11,1.4,21,M,,M,,*6C
06/22/2015	20:09:05.589	$GPGGA,200906,2421.4496,N,08159.5860,W,1,11,1.4,21,M,,M,,*6F
06/22/2015	20:09:06.559	$GPGGA,200907,2421.4489,N,08159.5858,W,1,11,1.4,21,M,,M,,*6B
06/22/2015	20:09:07.619	$GPGGA,200908,2421.4485,N,08159.5856,W,1,11,1.4,21,M,,M,,*66
06/22/2015	20:09:08.549	$GPGGA,200909,2421.4480,N,08159.5855,W,1,11,1.4,21,M,,M,,*61
06/22/2015	20:09:09.638	$GPGGA,200910,2421.4480,N,08159.5855,W,1,11,1.4,21,M,,M,,*69
06/22/2015	20:09:10.548	$GPGGA,200911,2421.4476,N,08159.5853,W,1,11,1.4,21,M,,M,,*67
06/22/2015	20:09:11.603	$GPGGA,200912,2421.4467,N,08159.5849,W,1,11,1.4,21,M,,M,,*6F
06/22/2015	20:09:12.558	$GPGGA,200913,2421.4461,N,08159.5847,W,1,11,1.4,21,M,,M,,*66
06/22/2015	20:09:13.614	$GPGGA,200914,2421.4457,N,08159.5845,W,1,11,1.4,21,M,,M,,*66
06/22/2015	20:09:14.659	$GPGGA,200915,2421.4453,N,08159.5842,W,1,11,1.4,21,M,,M,,*64
06/22/2015	20:09:16.569	$GPGGA,200917,2421.4442,N,08159.5837,W,1,11,1.4,21,M,,M,,*64
06/22/2015	20:09:17.569	$GPGGA,200918,2421.4442,N,08159.5837,W,1,11,1.4,21,M,,M,,*6B
06/22/2015	20:09:18.549	$GPGGA,200919,2421.4428,N,08159.5831,W,1,11,1.5,21,M,,M,,*61
06/22/2015	20:09:19.619	$GPGGA,200920,2421.4422,N,08159.5827,W,1,10,1.4,21,M,,M,,*66
06/22/2015	20:09:20.882	$GPGGA,200921,2421.4415,N,08159.5823,W,1,10,1.4,21,M,,M,,*67
06/22/2015	20:09:21.669	$GPGGA,200922,2421.4409,N,08159.5820,W,1,11,1.4,21,M,,M,,*6B
06/22/2015	20:09:22.539	$GPGGA,200923,2421.4402,N,08159.5815,W,1,11,1.4,21,M,,M,,*67
06/22/2015	20:09:23.659	$GPGGA,200924,2421.4395,N,08159.5812,W,1,11,1.4,21,M,,M,,*6E
06/22/2015	20:09:24.613	$GPGGA,200925,2421.4388,N,08159.5809,W,1,11,1.4,21,M,,M,,*69
06/22/2015	20:09:25.529	$GPGGA,200926,2421.4388,N,08159.5809,W,1,11,1.4,22,M,,M,,*69
06/22/2015	20:09:26.508	$GPGGA,200927,2421.4373,N,08159.5801,W,1,11,1.4,22,M,,M,,*64
06/22/2015	20:09:27.638	$GPGGA,200928,2421.4366,N,08159.5798,W,1,11,1.4,22,M,,M,,*60
06/22/2015	20:09:28.528	$GPGGA,200929,2421.4359,N,08159.5796,W,1,11,1.5,22,M,,M,,*62
06/22/2015	20:09:29.518	$GPGGA,200930,2421.4359,N,08159.5796,W,1,11,1.4,22,M,,M,,*6B
06/22/2015	20:09:30.602	$GPGGA,200931,2421.4343,N,08159.5789,W,1,11,1.4,22,M,,M,,*6F
06/22/2015	20:09:31.529	$GPGGA,200932,2421.4343,N,08159.5789,W,1,11,1.4,22,M,,M,,*6C
06/22/2015	20:09:32.600	$GPGGA,200933,2421.4327,N,08159.5783,W,1,11,1.4,22,M,,M,,*65
06/22/2015	20:09:33.629	$GPGGA,200934,2421.4320,N,08159.5779,W,1,11,1.4,22,M,,M,,*60
06/22/2015	20:09:34.599	$GPGGA,200935,2421.4313,N,08159.5775,W,1,11,1.4,22,M,,M,,*6D
06/22/2015	20:09:35.649	$GPGGA,200936,2421.4305,N,08159.5773,W,1,11,1.4,23,M,,M,,*6E
06/22/2015	20:09:36.600	$GPGGA,200937,2421.4296,N,08159.5770,W,1,11,1.4,23,M,,M,,*67
06/22/2015	20:09:37.589	$GPGGA,200938,2421.4290,N,08159.5766,W,1,11,1.4,23,M,,M,,*69
06/22/2015	20:09:38.602	$GPGGA,200939,2421.4281,N,08159.5763,W,1,11,1.4,23,M,,M,,*6D
06/22/2015	20:09:39.629	$GPGGA,200940,2421.4272,N,08159.5760,W,1,11,1.4,23,M,,M,,*6C
06/22/2015	20:09:40.579	$GPGGA,200941,2421.4265,N,08159.5756,W,1,11,1.4,23,M,,M,,*6E
06/22/2015	20:09:41.619	$GPGGA,200942,2421.4256,N,08159.5751,W,1,11,1.4,23,M,,M,,*6A
06/22/2015	20:09:42.579	$GPGGA,200943,2421.4247,N,08159.5750,W,1,11,1.4,23,M,,M,,*6A
06/22/2015	20:09:43.629	$GPGGA,200944,2421.4240,N,08159.5747,W,1,11,1.4,23,M,,M,,*6C
06/22/2015	20:09:44.588	$GPGGA,200945,2421.4232,N,08159.5742,W,1,11,1.4,23,M,,M,,*6D
06/22/2015	20:09:45.598	$GPGGA,200946,2421.4225,N,08159.5739,W,1,11,1.4,23,M,,M,,*64
06/22/2015	20:09:46.578	$GPGGA,200947,2421.4218,N,08159.5738,W,1,11,1.4,23,M,,M,,*6A
06/22/2015	20:09:47.608	$GPGGA,200948,2421.4209,N,08159.5734,W,1,11,1.4,23,M,,M,,*69
06/22/2015	20:09:48.569	$GPGGA,200949,2421.4202,N,08159.5730,W,1,11,1.4,23,M,,M,,*67
06/22/2015	20:09:49.589	$GPGGA,200950,2421.4195,N,08159.5728,W,1,11,1.4,23,M,,M,,*6B
06/22/2015	20:09:50.579	$GPGGA,200951,2421.4189,N,08159.5726,W,1,11,1.4,23,M,,M,,*69
06/22/2015	20:09:51.609	$GPGGA,200952,2421.4182,N,08159.5722,W,1,11,1.4,23,M,,M,,*65
06/22/2015	20:09:52.559	$GPGGA,200953,2421.4175,N,08159.5720,W,1,11,1.4,23,M,,M,,*6E
06/22/2015	20:09:53.559	$GPGGA,200954,2421.4169,N,08159.5718,W,1,11,1.4,23,M,,M,,*6F
06/22/2015	20:09:54.559	$GPGGA,200955,2421.4164,N,08159.5715,W,1,11,1.4,23,M,,M,,*6E
06/22/2015	20:09:55.569	$GPGGA,200956,2421.4157,N,08159.5712,W,1,11,1.4,23,M,,M,,*6A
06/22/2015	20:09:56.559	$GPGGA,200957,2421.4151,N,08159.5709,W,1,11,1.4,23,M,,M,,*67
06/22/2015	20:09:57.549	$GPGGA,200958,2421.4146,N,08159.5708,W,1,11,1.4,23,M,,M,,*6F
06/22/2015	20:09:58.559	$GPGGA,200959,2421.4139,N,08159.5705,W,1,11,1.4,23,M,,M,,*6B
06/22/2015	20:09:59.589	$GPGGA,201000,2421.4133,N,08159.5702,W,1,11,1.4,23,M,,M,,*62
06/22/2015	20:10:00.549	$GPGGA,201001,2421.4128,N,08159.5700,W,1,11,1.4,23,M,,M,,*6B
06/22/2015	20:10:01.568	$GPGGA,201002,2421.4121,N,08159.5697,W,1,11,1.4,23,M,,M,,*6E
06/22/2015	20:10:02.658	$GPGGA,201003,2421.4115,N,08159.5693,W,1,11,1.7,23,M,,M,,*6F
06/22/2015	20:10:03.548	$GPGGA,201004,2421.4109,N,08159.5690,W,1,11,1.4,23,M,,M,,*65
06/22/2015	20:10:04.528	$GPGGA,201005,2421.4103,N,08159.5687,W,1,11,1.4,23,M,,M,,*68
06/22/2015	20:10:05.549	$GPGGA,201006,2421.4099,N,08159.5684,W,1,11,1.4,23,M,,M,,*6A
06/22/2015	20:10:06.539	$GPGGA,201007,2421.4092,N,08159.5682,W,1,11,1.4,23,M,,M,,*66
06/22/2015	20:10:07.539	$GPGGA,201008,2421.4088,N,08159.5680,W,1,11,1.4,23,M,,M,,*60
06/22/2015	20:10:08.529	$GPGGA,201009,2421.4082,N,08159.5678,W,1,11,1.4,23,M,,M,,*6C
06/22/2015	20:10:09.639	$GPGGA,201010,2421.4077,N,08159.5674,W,1,11,1.4,23,M,,M,,*62
06/22/2015	20:10:10.549	$GPGGA,201011,2421.4072,N,08159.5673,W,1,11,1.4,23,M,,M,,*61
06/22/2015	20:10:11.559	$GPGGA,201012,2421.4066,N,08159.5671,W,1,11,1.4,23,M,,M,,*65
06/22/2015	20:10:12.639	$GPGGA,201013,2421.4063,N,08159.5668,W,1,11,1.4,23,M,,M,,*69
06/22/2015	20:10:13.530	$GPGGA,201014,2421.4057,N,08159.5666,W,1,11,1.4,23,M,,M,,*67
06/22/2015	20:10:14.609	$GPGGA,201015,2421.4052,N,08159.5664,W,1,11,1.4,23,M,,M,,*61
06/22/2015	20:10:15.649	$GPGGA,201016,2421.4048,N,08159.5662,W,1,11,1.4,23,M,,M,,*6F
06/22/2015	20:10:16.619	$GPGGA,201017,2421.4042,N,08159.5660,W,1,11,1.4,23,M,,M,,*66
06/22/2015	20:10:17.619	$GPGGA,201018,2421.4037,N,08159.5658,W,1,11,1.4,23,M,,M,,*60
06/22/2015	20:10:18.619	$GPGGA,201019,2421.4032,N,08159.5657,W,1,11,1.4,23,M,,M,,*6B
06/22/2015	20:10:19.528	$GPGGA,201020,2421.4028,N,08159.5654,W,1,11,1.4,23,M,,M,,*69
06/22/2015	20:10:20.609	$GPGGA,201021,2421.4023,N,08159.5652,W,1,11,1.4,23,M,,M,,*65
06/22/2015	20:10:21.618	$GPGGA,201022,2421.4019,N,08159.5650,W,1,11,1.4,23,M,,M,,*6D
06/22/2015	20:10:22.618	$GPGGA,201023,2421.4016,N,08159.5648,W,1,11,1.4,23,M,,M,,*6A
06/22/2015	20:10:23.629	$GPGGA,201024,2421.4010,N,08159.5646,W,1,11,1.4,22,M,,M,,*64
06/22/2015	20:10:24.589	$GPGGA,201025,2421.4006,N,08159.5643,W,1,11,1.4,22,M,,M,,*67
06/22/2015	20:10:25.614	$GPGGA,201026,2421.4001,N,08159.5641,W,1,11,1.4,22,M,,M,,*61
06/22/2015	20:10:26.609	$GPGGA,201027,2421.3997,N,08159.5640,W,1,11,1.4,22,M,,M,,*60
06/22/2015	20:10:27.619	$GPGGA,201028,2421.3992,N,08159.5638,W,1,11,1.4,22,M,,M,,*65
06/22/2015	20:10:28.589	$GPGGA,201029,2421.3988,N,08159.5635,W,1,11,1.4,22,M,,M,,*62
06/22/2015	20:10:29.609	$GPGGA,201030,2421.3984,N,08159.5634,W,1,11,1.4,22,M,,M,,*67
06/22/2015	20:10:30.600	$GPGGA,201031,2421.3980,N,08159.5633,W,1,11,1.4,22,M,,M,,*65
06/22/2015	20:10:31.609	$GPGGA,201032,2421.3976,N,08159.5631,W,1,11,1.4,22,M,,M,,*6D
06/22/2015	20:10:32.569	$GPGGA,201033,2421.3972,N,08159.5627,W,1,11,1.4,22,M,,M,,*6F
06/22/2015	20:10:33.569	$GPGGA,201034,2421.3969,N,08159.5626,W,1,11,1.4,22,M,,M,,*63
06/22/2015	20:10:34.589	$GPGGA,201035,2421.3965,N,08159.5625,W,1,11,1.4,22,M,,M,,*6D
06/22/2015	20:10:35.609	$GPGGA,201036,2421.3960,N,08159.5623,W,1,11,1.4,22,M,,M,,*6D
06/22/2015	20:10:36.578	$GPGGA,201037,2421.3956,N,08159.5620,W,1,11,1.4,22,M,,M,,*6A
06/22/2015	20:10:37.578	$GPGGA,201038,2421.3954,N,08159.5619,W,1,11,1.4,22,M,,M,,*6D
06/22/2015	20:10:38.558	$GPGGA,201039,2421.3949,N,08159.5617,W,1,11,1.4,22,M,,M,,*6E
06/22/2015	20:10:39.598	$GPGGA,201040,2421.3945,N,08159.5615,W,1,11,1.4,22,M,,M,,*6E
06/22/2015	20:10:40.559	$GPGGA,201041,2421.3941,N,08159.5613,W,1,11,1.4,22,M,,M,,*6D
06/22/2015	20:10:41.589	$GPGGA,201042,2421.3937,N,08159.5611,W,1,11,1.4,22,M,,M,,*6D
06/22/2015	20:10:42.559	$GPGGA,201043,2421.3934,N,08159.5610,W,1,11,1.4,22,M,,M,,*6E
06/22/2015	20:10:43.569	$GPGGA,201044,2421.3930,N,08159.5607,W,1,11,1.4,22,M,,M,,*6B
06/22/2015	20:10:44.559	$GPGGA,201045,2421.3926,N,08159.5605,W,1,11,1.4,22,M,,M,,*6F
06/22/2015	20:10:45.559	$GPGGA,201046,2421.3922,N,08159.5604,W,1,11,1.4,22,M,,M,,*69
06/22/2015	20:10:46.549	$GPGGA,201047,2421.3919,N,08159.5601,W,1,11,1.4,22,M,,M,,*65
06/22/2015	20:10:47.599	$GPGGA,201048,2421.3915,N,08159.5600,W,1,11,1.4,22,M,,M,,*67
06/22/2015	20:10:48.559	$GPGGA,201049,2421.3912,N,08159.5599,W,1,11,1.4,22,M,,M,,*62
06/22/2015	20:10:49.549	$GPGGA,201050,2421.3908,N,08159.5596,W,1,11,1.4,22,M,,M,,*6E
06/22/2015	20:10:50.549	$GPGGA,201051,2421.3904,N,08159.5594,W,1,11,1.4,22,M,,M,,*61
06/22/2015	20:10:51.569	$GPGGA,201052,2421.3901,N,08159.5593,W,1,11,1.4,22,M,,M,,*60
06/22/2015	20:10:52.529	$GPGGA,201053,2421.3898,N,08159.5591,W,1,11,1.4,22,M,,M,,*62
06/22/2015	20:10:53.549	$GPGGA,201054,2421.3894,N,08159.5589,W,1,11,1.4,22,M,,M,,*60
06/22/2015	20:10:54.528	$GPGGA,201055,2421.3891,N,08159.5587,W,1,11,1.4,22,M,,M,,*6A
06/22/2015	20:10:55.558	$GPGGA,201056,2421.3887,N,08159.5586,W,1,11,1.4,22,M,,M,,*6F
06/22/2015	20:10:56.538	$GPGGA,201057,2421.3884,N,08159.5584,W,1,11,1.4,21,M,,M,,*6C
06/22/2015	20:10:57.528	$GPGGA,201058,2421.3882,N,08159.5581,W,1,11,1.4,21,M,,M,,*60
06/22/2015	20:10:58.539	$GPGGA,201059,2421.3877,N,08159.5580,W,1,11,1.4,21,M,,M,,*6A
06/22/2015	20:10:59.689	$GPGGA,201100,2421.3875,N,08159.5579,W,1,11,1.4,21,M,,M,,*63
06/22/2015	20:11:00.619	$GPGGA,201101,2421.3871,N,08159.5577,W,1,11,1.4,21,M,,M,,*68
06/22/2015	20:11:01.519	$GPGGA,201102,2421.3868,N,08159.5574,W,1,11,1.4,21,M,,M,,*60
06/22/2015	20:11:02.529	$GPGGA,201103,2421.3864,N,08159.5573,W,1,11,1.4,21,M,,M,,*6A
06/22/2015	20:11:03.629	$GPGGA,201104,2421.3861,N,08159.5572,W,1,11,1.4,21,M,,M,,*69
06/22/2015	20:11:04.619	$GPGGA,201105,2421.3857,N,08159.5570,W,1,11,1.4,21,M,,M,,*6F
06/22/2015	20:11:05.649	$GPGGA,201106,2421.3855,N,08159.5568,W,1,11,1.4,21,M,,M,,*67
06/22/2015	20:11:06.517	$GPGGA,201107,2421.3851,N,08159.5566,W,1,11,1.4,21,M,,M,,*6C
06/22/2015	20:11:07.649	$GPGGA,201108,2421.3848,N,08159.5565,W,1,11,1.4,21,M,,M,,*68
06/22/2015	20:11:08.612	$GPGGA,201109,2421.3846,N,08159.5564,W,1,11,1.4,21,M,,M,,*66
06/22/2015	20:11:09.613	$GPGGA,201110,2421.3842,N,08159.5561,W,1,11,1.4,21,M,,M,,*6F
06/22/2015	20:11:10.610	$GPGGA,201111,2421.3839,N,08159.5559,W,1,11,1.4,21,M,,M,,*69
06/22/2015	20:11:11.613	$GPGGA,201112,2421.3835,N,08159.5558,W,1,11,1.4,21,M,,M,,*67
06/22/2015	20:11:12.602	$GPGGA,201113,2421.3833,N,08159.5556,W,1,11,1.4,21,M,,M,,*6E
06/22/2015	20:11:13.612	$GPGGA,201114,2421.3830,N,08159.5554,W,1,11,1.4,21,M,,M,,*68
06/22/2015	20:11:14.598	$GPGGA,201115,2421.3828,N,08159.5553,W,1,11,1.4,21,M,,M,,*67
06/22/2015	20:11:15.614	$GPGGA,201116,2421.3824,N,08159.5552,W,1,11,1.4,21,M,,M,,*69
06/22/2015	20:11:16.589	$GPGGA,201117,2421.3821,N,08159.5549,W,1,11,1.4,21,M,,M,,*67
06/22/2015	20:11:17.618	$GPGGA,201118,2421.3818,N,08159.5548,W,1,11,1.4,21,M,,M,,*63
06/22/2015	20:11:18.589	$GPGGA,201119,2421.3815,N,08159.5549,W,1,11,1.4,21,M,,M,,*6E
06/22/2015	20:11:19.611	$GPGGA,201120,2421.3812,N,08159.5546,W,1,11,1.4,21,M,,M,,*6C
06/22/2015	20:11:20.579	$GPGGA,201121,2421.3810,N,08159.5543,W,1,11,1.4,21,M,,M,,*6A
06/22/2015	20:11:21.600	$GPGGA,201122,2421.3807,N,08159.5542,W,1,10,1.5,21,M,,M,,*6E
06/22/2015	20:11:22.589	$GPGGA,201123,2421.3804,N,08159.5542,W,1,10,1.5,21,M,,M,,*6C
06/22/2015	20:11:23.620	$GPGGA,201124,2421.3802,N,08159.5540,W,1,11,1.4,21,M,,M,,*6F
06/22/2015	20:11:24.579	$GPGGA,201125,2421.3799,N,08159.5538,W,1,11,1.4,21,M,,M,,*6C
06/22/2015	20:11:25.569	$GPGGA,201126,2421.3796,N,08159.5537,W,1,10,1.5,21,M,,M,,*6F
06/22/2015	20:11:26.569	$GPGGA,201127,2421.3794,N,08159.5536,W,1,10,1.5,21,M,,M,,*6D
06/22/2015	20:11:27.602	$GPGGA,201128,2421.3792,N,08159.5535,W,1,10,1.5,21,M,,M,,*67
06/22/2015	20:11:28.569	$GPGGA,201129,2421.3789,N,08159.5533,W,1,10,1.5,21,M,,M,,*6A
06/22/2015	20:11:29.578	$GPGGA,201130,2421.3786,N,08159.5531,W,1,10,1.5,21,M,,M,,*6F
06/22/2015	20:11:30.548	$GPGGA,201131,2421.3783,N,08159.5530,W,1,10,1.5,21,M,,M,,*6A
06/22/2015	20:11:31.588	$GPGGA,201132,2421.3781,N,08159.5529,W,1,10,1.5,21,M,,M,,*63
06/22/2015	20:11:32.558	$GPGGA,201133,2421.3777,N,08159.5528,W,1,10,1.5,21,M,,M,,*6A
06/22/2015	20:11:33.549	$GPGGA,201134,2421.3775,N,08159.5525,W,1,10,1.5,21,M,,M,,*62
06/22/2015	20:11:34.559	$GPGGA,201135,2421.3774,N,08159.5527,W,1,10,1.5,21,M,,M,,*60
06/22/2015	20:11:35.569	$GPGGA,201136,2421.3771,N,08159.5525,W,1,11,1.4,21,M,,M,,*64
06/22/2015	20:11:36.559	$GPGGA,201137,2421.3770,N,08159.5525,W,1,11,1.5,21,M,,M,,*65
06/22/2015	20:11:37.549	$GPGGA,201138,2421.3770,N,08159.5524,W,1,11,1.4,21,M,,M,,*6A
06/22/2015	20:11:38.549	$GPGGA,201139,2421.3766,N,08159.5523,W,1,11,1.4,21,M,,M,,*6B
06/22/2015	20:11:39.580	$GPGGA,201140,2421.3763,N,08159.5521,W,1,10,1.5,21,M,,M,,*62
06/22/2015	20:11:40.539	$GPGGA,201141,2421.3761,N,08159.5518,W,1,10,1.6,21,M,,M,,*68
06/22/2015	20:11:41.569	$GPGGA,201142,2421.3759,N,08159.5518,W,1,10,1.6,21,M,,M,,*60
06/22/2015	20:11:42.529	$GPGGA,201143,2421.3757,N,08159.5518,W,1,10,1.6,21,M,,M,,*6F
06/22/2015	20:11:43.549	$GPGGA,201144,2421.3754,N,08159.5517,W,1,10,1.6,21,M,,M,,*64
06/22/2015	20:11:44.549	$GPGGA,201145,2421.3752,N,08159.5515,W,1,10,1.4,21,M,,M,,*63
