Software Version Number: 1	Data File Format Number: 1	Build Version Number: 1	Error Count Since VI Started: 1	Manufacturer: Raytheon	 Model Number: RayMarine 120	 S/N: 	 Cal Date: 	 Wind Direction Offset: 0.00	 Slope (M)1: 0.00	 Offset (B)1: 0.00	 Slope (M)2: 0.00	 Offset (B)2: 0.00	 Slope (M)3: 0.00	 Offset (B)3: 0.00	 Slope (M)4: 0.00	 Offset (B)4: 0.00	 Slope (M)5: 0.00	 Offset (B)5: 0.00	 Slope (M)6: 0.00	 Offset (B)6: 0.00
Computer Date	Computer Time	GGA String
06/12/2015	13:00:00.535	$GPGGA,130001,2430.0528,N,08115.7952,W,1,10,1.3,19,M,,M,,*66
06/12/2015	13:00:01.535	$GPGGA,130002,2430.0527,N,08115.7956,W,1,11,1.3,19,M,,M,,*6F
06/12/2015	13:00:02.545	$GPGGA,130003,2430.0526,N,08115.7959,W,1,11,1.3,19,M,,M,,*60
06/12/2015	13:00:03.555	$GPGGA,130004,2430.0526,N,08115.7962,W,1,10,1.4,19,M,,M,,*69
06/12/2015	13:00:04.524	$GPGGA,130005,2430.0528,N,08115.7963,W,1,10,1.4,19,M,,M,,*67
06/12/2015	13:00:05.544	$GPGGA,130006,2430.0527,N,08115.7967,W,1,9,1.4,19,M,,M,,*57
06/12/2015	13:00:06.524	$GPGGA,130007,2430.0528,N,08115.7970,W,1,9,1.3,19,M,,M,,*58
06/12/2015	13:00:07.644	$GPGGA,130008,2430.0526,N,08115.7971,W,1,11,1.3,19,M,,M,,*61
06/12/2015	13:00:08.634	$GPGGA,130009,2430.0528,N,08115.7973,W,1,11,1.3,19,M,,M,,*6C
06/12/2015	13:00:09.504	$GPGGA,130010,2430.0529,N,08115.7975,W,1,11,1.3,19,M,,M,,*63
06/12/2015	13:00:10.514	$GPGGA,130011,2430.0528,N,08115.7974,W,1,11,1.4,19,M,,M,,*65
06/12/2015	13:00:11.514	$GPGGA,130012,2430.0529,N,08115.7977,W,1,11,1.3,19,M,,M,,*63
06/12/2015	13:00:12.514	$GPGGA,130013,2430.0529,N,08115.7980,W,1,11,1.4,19,M,,M,,*6D
06/12/2015	13:00:13.494	$GPGGA,130014,2430.0529,N,08115.7979,W,1,11,1.3,19,M,,M,,*6B
06/12/2015	13:00:14.614	$GPGGA,130015,2430.0529,N,08115.7980,W,1,11,1.3,19,M,,M,,*6C
06/12/2015	13:00:15.625	$GPGGA,130016,2430.0532,N,08115.7981,W,1,10,1.3,19,M,,M,,*65
06/12/2015	13:00:16.605	$GPGGA,130017,2430.0533,N,08115.7982,W,1,10,1.3,19,M,,M,,*66
06/12/2015	13:00:17.585	$GPGGA,130018,2430.0533,N,08115.7982,W,1,11,1.3,19,M,,M,,*68
06/12/2015	13:00:18.495	$GPGGA,130019,2430.0535,N,08115.7982,W,1,11,1.3,19,M,,M,,*6F
06/12/2015	13:00:19.625	$GPGGA,130020,2430.0536,N,08115.7984,W,1,10,1.5,19,M,,M,,*67
06/12/2015	13:00:20.495	$GPGGA,130021,2430.0536,N,08115.7984,W,1,10,1.3,19,M,,M,,*60
06/12/2015	13:00:21.485	$GPGGA,130022,2430.0537,N,08115.7984,W,1,10,1.5,19,M,,M,,*64
06/12/2015	13:00:22.504	$GPGGA,130023,2430.0539,N,08115.7988,W,1,10,1.6,19,M,,M,,*64
06/12/2015	13:00:23.584	$GPGGA,130024,2430.0540,N,08115.7987,W,1,9,1.6,19,M,,M,,*5A
06/12/2015	13:00:24.484	$GPGGA,130025,2430.0540,N,08115.7988,W,1,9,1.5,19,M,,M,,*57
06/12/2015	13:00:25.484	$GPGGA,130026,2430.0540,N,08115.7989,W,1,10,1.5,19,M,,M,,*6D
06/12/2015	13:00:26.587	$GPGGA,130027,2430.0540,N,08115.7993,W,1,10,1.5,19,M,,M,,*67
06/12/2015	13:00:27.494	$GPGGA,130028,2430.0540,N,08115.7996,W,1,10,1.4,19,M,,M,,*6C
06/12/2015	13:00:28.567	$GPGGA,130029,2430.0538,N,08115.8000,W,1,10,1.5,19,M,,M,,*6A
06/12/2015	13:00:29.571	$GPGGA,130030,2430.0537,N,08115.8004,W,1,8,1.6,19,M,,M,,*53
06/12/2015	13:00:30.570	$GPGGA,130031,2430.0540,N,08115.8007,W,1,8,1.4,19,M,,M,,*53
06/12/2015	13:00:31.594	$GPGGA,130032,2430.0542,N,08115.8011,W,1,11,1.3,19,M,,M,,*6A
06/12/2015	13:00:32.574	$GPGGA,130033,2430.0543,N,08115.8016,W,1,11,1.3,19,M,,M,,*6D
06/12/2015	13:00:33.555	$GPGGA,130034,2430.0541,N,08115.8020,W,1,11,1.3,19,M,,M,,*6D
06/12/2015	13:00:34.555	$GPGGA,130035,2430.0542,N,08115.8024,W,1,11,1.3,19,M,,M,,*6B
06/12/2015	13:00:35.595	$GPGGA,130036,2430.0544,N,08115.8029,W,1,10,1.4,19,M,,M,,*65
06/12/2015	13:00:36.555	$GPGGA,130037,2430.0544,N,08115.8035,W,1,10,1.4,19,M,,M,,*69
06/12/2015	13:00:37.555	$GPGGA,130038,2430.0542,N,08115.8038,W,1,10,1.4,19,M,,M,,*6D
06/12/2015	13:00:38.555	$GPGGA,130039,2430.0544,N,08115.8042,W,1,10,1.3,19,M,,M,,*60
06/12/2015	13:00:39.584	$GPGGA,130040,2430.0544,N,08115.8047,W,1,11,1.3,19,M,,M,,*6A
06/12/2015	13:00:40.544	$GPGGA,130041,2430.0544,N,08115.8053,W,1,11,1.4,19,M,,M,,*69
06/12/2015	13:00:41.578	$GPGGA,130042,2430.0542,N,08115.8056,W,1,10,1.4,19,M,,M,,*68
06/12/2015	13:00:42.544	$GPGGA,130043,2430.0544,N,08115.8060,W,1,10,1.3,19,M,,M,,*6D
06/12/2015	13:00:43.554	$GPGGA,130044,2430.0544,N,08115.8064,W,1,11,1.3,19,M,,M,,*6F
06/12/2015	13:00:44.544	$GPGGA,130045,2430.0544,N,08115.8068,W,1,11,1.3,19,M,,M,,*62
06/12/2015	13:00:45.567	$GPGGA,130046,2430.0544,N,08115.8071,W,1,10,1.4,19,M,,M,,*6F
06/12/2015	13:00:46.534	$GPGGA,130047,2430.0544,N,08115.8074,W,1,10,1.3,19,M,,M,,*6C
06/12/2015	13:00:47.567	$GPGGA,130048,2430.0546,N,08115.8079,W,1,11,1.3,19,M,,M,,*6D
06/12/2015	13:00:48.514	$GPGGA,130049,2430.0545,N,08115.8082,W,1,11,1.3,19,M,,M,,*6B
06/12/2015	13:00:49.634	$GPGGA,130050,2430.0546,N,08115.8085,W,1,11,1.3,19,M,,M,,*67
06/12/2015	13:00:51.055	$GPGGA,130051,2430.0545,N,08115.8090,W,1,11,1.3,19,M,,M,,*61
06/12/2015	13:00:51.535	$GPGGA,130052,2430.0546,N,08115.8094,W,1,11,1.3,19,M,,M,,*65
06/12/2015	13:00:52.515	$GPGGA,130053,2430.0545,N,08115.8097,W,1,11,1.3,19,M,,M,,*64
06/12/2015	13:00:53.505	$GPGGA,130054,2430.0544,N,08115.8101,W,1,11,1.3,19,M,,M,,*6C
06/12/2015	13:00:54.605	$GPGGA,130055,2430.0544,N,08115.8105,W,1,11,1.3,19,M,,M,,*69
06/12/2015	13:00:55.545	$GPGGA,130056,2430.0546,N,08115.8111,W,1,11,1.3,19,M,,M,,*6D
06/12/2015	13:00:56.514	$GPGGA,130057,2430.0545,N,08115.8114,W,1,11,1.3,19,M,,M,,*6A
06/12/2015	13:00:57.504	$GPGGA,130058,2430.0544,N,08115.8118,W,1,11,1.3,19,M,,M,,*68
06/12/2015	13:00:58.624	$GPGGA,130059,2430.0546,N,08115.8123,W,1,11,1.3,19,M,,M,,*63
06/12/2015	13:00:59.554	$GPGGA,130100,2430.0547,N,08115.8128,W,1,11,1.3,19,M,,M,,*64
06/12/2015	13:01:00.494	$GPGGA,130101,2430.0546,N,08115.8132,W,1,11,1.3,19,M,,M,,*6F
06/12/2015	13:01:01.614	$GPGGA,130102,2430.0547,N,08115.8136,W,1,11,1.3,19,M,,M,,*69
06/12/2015	13:01:02.514	$GPGGA,130103,2430.0547,N,08115.8140,W,1,11,1.3,19,M,,M,,*69
06/12/2015	13:01:03.604	$GPGGA,130104,2430.0547,N,08115.8144,W,1,11,1.3,19,M,,M,,*6A
06/12/2015	13:01:04.494	$GPGGA,130105,2430.0546,N,08115.8148,W,1,11,1.3,19,M,,M,,*66
06/12/2015	13:01:05.584	$GPGGA,130106,2430.0547,N,08115.8154,W,1,11,1.3,19,M,,M,,*69
06/12/2015	13:01:06.494	$GPGGA,130107,2430.0549,N,08115.8157,W,1,11,1.3,19,M,,M,,*65
06/12/2015	13:01:07.624	$GPGGA,130108,2430.0547,N,08115.8161,W,1,10,1.4,19,M,,M,,*67
06/12/2015	13:01:08.575	$GPGGA,130109,2430.0547,N,08115.8165,W,1,10,1.3,19,M,,M,,*65
06/12/2015	13:01:09.579	$GPGGA,130110,2430.0549,N,08115.8168,W,1,11,1.3,19,M,,M,,*6F
06/12/2015	13:01:10.577	$GPGGA,130111,2430.0547,N,08115.8172,W,1,11,1.3,19,M,,M,,*6B
06/12/2015	13:01:11.585	$GPGGA,130112,2430.0547,N,08115.8176,W,1,11,1.3,19,M,,M,,*6C
06/12/2015	13:01:12.573	$GPGGA,130113,2430.0550,N,08115.8180,W,1,11,1.3,19,M,,M,,*62
06/12/2015	13:01:13.595	$GPGGA,130114,2430.0548,N,08115.8184,W,1,11,1.3,19,M,,M,,*68
06/12/2015	13:01:14.574	$GPGGA,130115,2430.0547,N,08115.8188,W,1,11,1.3,19,M,,M,,*6A
06/12/2015	13:01:15.594	$GPGGA,130116,2430.0549,N,08115.8190,W,1,9,1.8,19,M,,M,,*5C
06/12/2015	13:01:16.568	$GPGGA,130117,2430.0550,N,08115.8191,W,1,9,1.4,19,M,,M,,*58
06/12/2015	13:01:17.554	$GPGGA,130118,2430.0547,N,08115.8193,W,1,10,1.4,19,M,,M,,*6B
06/12/2015	13:01:18.554	$GPGGA,130119,2430.0547,N,08115.8197,W,1,10,1.3,19,M,,M,,*69
06/12/2015	13:01:19.594	$GPGGA,130120,2430.0550,N,08115.8198,W,1,11,1.3,19,M,,M,,*6B
06/12/2015	13:01:20.570	$GPGGA,130121,2430.0549,N,08115.8202,W,1,11,1.3,19,M,,M,,*62
06/12/2015	13:01:21.554	$GPGGA,130122,2430.0550,N,08115.8204,W,1,9,1.8,19,M,,M,,*5D
06/12/2015	13:01:22.554	$GPGGA,130123,2430.0549,N,08115.8208,W,1,9,1.4,19,M,,M,,*54
06/12/2015	13:01:23.594	$GPGGA,130124,2430.0551,N,08115.8207,W,1,10,1.4,19,M,,M,,*6D
06/12/2015	13:01:24.544	$GPGGA,130125,2430.0549,N,08115.8210,W,1,10,1.3,19,M,,M,,*64
06/12/2015	13:01:25.588	$GPGGA,130126,2430.0550,N,08115.8213,W,1,11,1.3,19,M,,M,,*6D
06/12/2015	13:01:26.555	$GPGGA,130127,2430.0551,N,08115.8215,W,1,11,1.3,19,M,,M,,*6B
06/12/2015	13:01:27.585	$GPGGA,130128,2430.0551,N,08115.8216,W,1,11,1.3,19,M,,M,,*67
06/12/2015	13:01:28.535	$GPGGA,130129,2430.0551,N,08115.8217,W,1,11,1.3,19,M,,M,,*67
06/12/2015	13:01:29.571	$GPGGA,130130,2430.0551,N,08115.8220,W,1,10,1.4,19,M,,M,,*6D
06/12/2015	13:01:30.525	$GPGGA,130131,2430.0551,N,08115.8223,W,1,10,1.3,20,M,,M,,*62
06/12/2015	13:01:31.566	$GPGGA,130132,2430.0551,N,08115.8226,W,1,10,1.4,20,M,,M,,*63
06/12/2015	13:01:32.534	$GPGGA,130133,2430.0551,N,08115.8230,W,1,10,1.3,20,M,,M,,*62
06/12/2015	13:01:33.554	$GPGGA,130134,2430.0553,N,08115.8231,W,1,10,1.4,20,M,,M,,*61
06/12/2015	13:01:34.524	$GPGGA,130135,2430.0554,N,08115.8234,W,1,10,1.4,20,M,,M,,*62
06/12/2015	13:01:35.524	$GPGGA,130136,2430.0553,N,08115.8237,W,1,11,1.3,20,M,,M,,*63
06/12/2015	13:01:36.634	$GPGGA,130137,2430.0552,N,08115.8240,W,1,11,1.3,20,M,,M,,*63
06/12/2015	13:01:37.514	$GPGGA,130138,2430.0551,N,08115.8242,W,1,11,1.3,20,M,,M,,*6D
06/12/2015	13:01:38.524	$GPGGA,130139,2430.0554,N,08115.8248,W,1,11,1.4,20,M,,M,,*64
06/12/2015	13:01:39.524	$GPGGA,130140,2430.0555,N,08115.8251,W,1,10,1.3,20,M,,M,,*65
06/12/2015	13:01:40.524	$GPGGA,130141,2430.0555,N,08115.8253,W,1,10,1.4,21,M,,M,,*60
06/12/2015	13:01:41.524	$GPGGA,130142,2430.0558,N,08115.8259,W,1,9,1.5,21,M,,M,,*5D
06/12/2015	13:01:42.624	$GPGGA,130143,2430.0558,N,08115.8264,W,1,9,1.3,21,M,,M,,*54
06/12/2015	13:01:43.635	$GPGGA,130144,2430.0557,N,08115.8269,W,1,10,1.3,21,M,,M,,*69
06/12/2015	13:01:44.515	$GPGGA,130145,2430.0558,N,08115.8273,W,1,10,1.3,21,M,,M,,*6C
06/12/2015	13:01:45.625	$GPGGA,130146,2430.0558,N,08115.8277,W,1,10,1.3,21,M,,M,,*6B
06/12/2015	13:01:46.495	$GPGGA,130147,2430.0560,N,08115.8281,W,1,10,1.3,21,M,,M,,*68
06/12/2015	13:01:47.635	$GPGGA,130148,2430.0559,N,08115.8287,W,1,10,1.3,21,M,,M,,*6B
06/12/2015	13:01:48.515	$GPGGA,130149,2430.0561,N,08115.8292,W,1,10,1.3,21,M,,M,,*65
06/12/2015	13:01:49.624	$GPGGA,130150,2430.0559,N,08115.8298,W,1,11,1.3,21,M,,M,,*6D
06/12/2015	13:01:50.614	$GPGGA,130151,2430.0560,N,08115.8303,W,1,11,1.3,21,M,,M,,*65
06/12/2015	13:01:51.534	$GPGGA,130152,2430.0559,N,08115.8310,W,1,11,1.3,21,M,,M,,*6E
06/12/2015	13:01:52.494	$GPGGA,130153,2430.0565,N,08115.8313,W,1,11,1.3,21,M,,M,,*63
06/12/2015	13:01:53.594	$GPGGA,130154,2430.0562,N,08115.8318,W,1,9,1.4,21,M,,M,,*56
06/12/2015	13:01:54.579	$GPGGA,130155,2430.0562,N,08115.8324,W,1,9,1.3,21,M,,M,,*5F
06/12/2015	13:01:55.934	$GPGGA,130156,2430.0560,N,08115.8329,W,1,11,1.3,21,M,,M,,*6A
06/12/2015	13:01:56.494	$GPGGA,130157,2430.0559,N,08115.8336,W,1,11,1.3,21,M,,M,,*6F
06/12/2015	13:01:57.484	$GPGGA,130158,2430.0557,N,08115.8343,W,1,10,1.4,21,M,,M,,*6A
06/12/2015	13:01:58.577	$GPGGA,130159,2430.0558,N,08115.8350,W,1,10,1.8,21,M,,M,,*6A
06/12/2015	13:01:59.644	$GPGGA,130200,2430.0557,N,08115.8356,W,1,9,1.4,21,M,,M,,*58
06/12/2015	13:02:00.579	$GPGGA,130201,2430.0556,N,08115.8363,W,1,9,1.4,21,M,,M,,*5E
06/12/2015	13:02:01.595	$GPGGA,130202,2430.0555,N,08115.8368,W,1,10,1.4,21,M,,M,,*6D
06/12/2015	13:02:02.578	$GPGGA,130203,2430.0555,N,08115.8374,W,1,10,1.8,21,M,,M,,*6D
06/12/2015	13:02:03.605	$GPGGA,130204,2430.0555,N,08115.8382,W,1,9,1.8,21,M,,M,,*5B
06/12/2015	13:02:04.555	$GPGGA,130205,2430.0555,N,08115.8389,W,1,9,1.4,20,M,,M,,*5C
06/12/2015	13:02:05.576	$GPGGA,130206,2430.0553,N,08115.8392,W,1,10,1.4,20,M,,M,,*6B
06/12/2015	13:02:06.565	$GPGGA,130207,2430.0555,N,08115.8397,W,1,10,1.4,20,M,,M,,*69
06/12/2015	13:02:07.584	$GPGGA,130208,2430.0555,N,08115.8404,W,1,10,1.8,20,M,,M,,*67
06/12/2015	13:02:08.554	$GPGGA,130209,2430.0555,N,08115.8410,W,1,10,1.4,20,M,,M,,*6F
06/12/2015	13:02:09.544	$GPGGA,130210,2430.0553,N,08115.8414,W,1,10,1.4,20,M,,M,,*65
06/12/2015	13:02:10.555	$GPGGA,130211,2430.0555,N,08115.8418,W,1,10,1.4,20,M,,M,,*6E
06/12/2015	13:02:11.584	$GPGGA,130212,2430.0555,N,08115.8423,W,1,10,1.4,20,M,,M,,*65
06/12/2015	13:02:12.544	$GPGGA,130213,2430.0555,N,08115.8428,W,1,10,1.4,20,M,,M,,*6F
06/12/2015	13:02:13.554	$GPGGA,130214,2430.0553,N,08115.8432,W,1,10,1.4,20,M,,M,,*65
06/12/2015	13:02:14.544	$GPGGA,130215,2430.0554,N,08115.8436,W,1,10,1.4,20,M,,M,,*67
06/12/2015	13:02:15.624	$GPGGA,130216,2430.0553,N,08115.8441,W,1,10,1.8,20,M,,M,,*6F
06/12/2015	13:02:16.544	$GPGGA,130217,2430.0554,N,08115.8447,W,1,10,1.4,20,M,,M,,*63
06/12/2015	13:02:17.524	$GPGGA,130218,2430.0552,N,08115.8450,W,1,10,1.5,20,M,,M,,*6D
06/12/2015	13:02:18.535	$GPGGA,130219,2430.0554,N,08115.8454,W,1,10,1.4,20,M,,M,,*6F
06/12/2015	13:02:19.567	$GPGGA,130220,2430.0553,N,08115.8458,W,1,10,1.4,20,M,,M,,*6E
06/12/2015	13:02:20.535	$GPGGA,130221,2430.0552,N,08115.8461,W,1,10,1.4,20,M,,M,,*64
06/12/2015	13:02:21.566	$GPGGA,130222,2430.0553,N,08115.8465,W,1,10,1.4,19,M,,M,,*68
06/12/2015	13:02:22.535	$GPGGA,130223,2430.0552,N,08115.8470,W,1,10,1.4,19,M,,M,,*6C
06/12/2015	13:02:23.565	$GPGGA,130224,2430.0553,N,08115.8475,W,1,10,1.3,19,M,,M,,*68
06/12/2015	13:02:24.534	$GPGGA,130225,2430.0552,N,08115.8477,W,1,10,1.3,19,M,,M,,*6A
06/12/2015	13:02:25.514	$GPGGA,130226,2430.0553,N,08115.8480,W,1,11,1.3,19,M,,M,,*61
06/12/2015	13:02:26.514	$GPGGA,130227,2430.0551,N,08115.8483,W,1,11,1.3,19,M,,M,,*61
06/12/2015	13:02:27.654	$GPGGA,130228,2430.0551,N,08115.8487,W,1,11,1.3,19,M,,M,,*6A
06/12/2015	13:02:28.544	$GPGGA,130229,2430.0551,N,08115.8488,W,1,11,1.4,19,M,,M,,*63
06/12/2015	13:02:29.624	$GPGGA,130230,2430.0551,N,08115.8493,W,1,10,1.4,19,M,,M,,*60
06/12/2015	13:02:30.514	$GPGGA,130231,2430.0551,N,08115.8497,W,1,10,1.3,19,M,,M,,*62
06/12/2015	13:02:31.574	$GPGGA,130232,2430.0553,N,08115.8501,W,1,11,1.4,19,M,,M,,*6B
06/12/2015	13:02:32.504	$GPGGA,130233,2430.0551,N,08115.8502,W,1,11,1.4,20,M,,M,,*61
06/12/2015	13:02:33.624	$GPGGA,130234,2430.0549,N,08115.8505,W,1,10,1.4,20,M,,M,,*69
06/12/2015	13:02:34.524	$GPGGA,130235,2430.0551,N,08115.8508,W,1,10,1.3,20,M,,M,,*6B
06/12/2015	13:02:35.635	$GPGGA,130236,2430.0551,N,08115.8512,W,1,11,1.3,20,M,,M,,*62
06/12/2015	13:02:36.525	$GPGGA,130237,2430.0548,N,08115.8515,W,1,11,1.4,20,M,,M,,*6B
06/12/2015	13:02:37.615	$GPGGA,130238,2430.0547,N,08115.8517,W,1,10,1.4,20,M,,M,,*68
06/12/2015	13:02:38.605	$GPGGA,130239,2430.0550,N,08115.8523,W,1,10,1.4,20,M,,M,,*68
06/12/2015	13:02:39.615	$GPGGA,130240,2430.0549,N,08115.8527,W,1,10,1.3,20,M,,M,,*6D
06/12/2015	13:02:40.585	$GPGGA,130241,2430.0547,N,08115.8530,W,1,10,1.3,20,M,,M,,*64
06/12/2015	13:02:41.614	$GPGGA,130242,2430.0545,N,08115.8533,W,1,11,1.3,20,M,,M,,*67
06/12/2015	13:02:42.594	$GPGGA,130243,2430.0545,N,08115.8533,W,1,11,1.3,20,M,,M,,*66
06/12/2015	13:02:43.594	$GPGGA,130244,2430.0545,N,08115.8544,W,1,11,1.3,20,M,,M,,*61
06/12/2015	13:02:44.584	$GPGGA,130245,2430.0544,N,08115.8548,W,1,11,1.3,20,M,,M,,*6D
06/12/2015	13:02:45.576	$GPGGA,130246,2430.0544,N,08115.8551,W,1,11,1.3,20,M,,M,,*66
06/12/2015	13:02:46.585	$GPGGA,130247,2430.0544,N,08115.8555,W,1,11,1.3,20,M,,M,,*63
06/12/2015	13:02:47.614	$GPGGA,130248,2430.0544,N,08115.8559,W,1,10,1.3,20,M,,M,,*61
06/12/2015	13:02:48.574	$GPGGA,130249,2430.0544,N,08115.8560,W,1,10,1.3,20,M,,M,,*6A
06/12/2015	13:02:49.577	$GPGGA,130250,2430.0546,N,08115.8563,W,1,9,1.4,20,M,,M,,*5C
06/12/2015	13:02:50.571	$GPGGA,130251,2430.0544,N,08115.8564,W,1,9,1.4,20,M,,M,,*58
06/12/2015	13:02:51.577	$GPGGA,130252,2430.0547,N,08115.8566,W,1,10,1.5,20,M,,M,,*63
06/12/2015	13:02:52.554	$GPGGA,130253,2430.0547,N,08115.8567,W,1,10,1.5,20,M,,M,,*63
06/12/2015	13:02:53.571	$GPGGA,130254,2430.0549,N,08115.8569,W,1,10,1.4,20,M,,M,,*65
06/12/2015	13:02:54.555	$GPGGA,130255,2430.0550,N,08115.8570,W,1,10,1.4,20,M,,M,,*64
06/12/2015	13:02:55.555	$GPGGA,130256,2430.0551,N,08115.8573,W,1,10,1.4,20,M,,M,,*65
06/12/2015	13:02:56.555	$GPGGA,130257,2430.0551,N,08115.8576,W,1,10,1.3,20,M,,M,,*66
06/12/2015	13:02:57.567	$GPGGA,130258,2430.0551,N,08115.8578,W,1,10,1.4,20,M,,M,,*60
06/12/2015	13:02:58.545	$GPGGA,130259,2430.0551,N,08115.8582,W,1,10,1.4,20,M,,M,,*64
06/12/2015	13:02:59.584	$GPGGA,130300,2430.0551,N,08115.8587,W,1,9,1.4,20,M,,M,,*54
06/12/2015	13:03:00.544	$GPGGA,130301,2430.0551,N,08115.8587,W,1,9,1.4,21,M,,M,,*54
06/12/2015	13:03:01.580	$GPGGA,130302,2430.0551,N,08115.8591,W,1,11,1.3,21,M,,M,,*6E
06/12/2015	13:03:02.545	$GPGGA,130303,2430.0551,N,08115.8594,W,1,11,1.3,21,M,,M,,*6A
06/12/2015	13:03:03.544	$GPGGA,130304,2430.0551,N,08115.8596,W,1,11,1.3,21,M,,M,,*6F
06/12/2015	13:03:04.524	$GPGGA,130305,2430.0551,N,08115.8598,W,1,11,1.3,21,M,,M,,*60
06/12/2015	13:03:05.525	$GPGGA,130306,2430.0549,N,08115.8600,W,1,10,1.4,21,M,,M,,*6E
06/12/2015	13:03:06.534	$GPGGA,130307,2430.0548,N,08115.8603,W,1,10,1.5,21,M,,M,,*6C
06/12/2015	13:03:07.544	$GPGGA,130308,2430.0547,N,08115.8605,W,1,10,1.4,21,M,,M,,*6B
06/12/2015	13:03:08.534	$GPGGA,130309,2430.0546,N,08115.8607,W,1,10,1.4,21,M,,M,,*69
06/12/2015	13:03:09.554	$GPGGA,130310,2430.0545,N,08115.8611,W,1,11,1.3,21,M,,M,,*63
06/12/2015	13:03:10.615	$GPGGA,130311,2430.0544,N,08115.8616,W,1,11,1.4,21,M,,M,,*63
06/12/2015	13:03:11.546	$GPGGA,130312,2430.0544,N,08115.8618,W,1,11,1.3,21,M,,M,,*69
06/12/2015	13:03:12.535	$GPGGA,130313,2430.0541,N,08115.8620,W,1,11,1.4,20,M,,M,,*60
06/12/2015	13:03:13.515	$GPGGA,130314,2430.0540,N,08115.8624,W,1,11,1.3,20,M,,M,,*65
06/12/2015	13:03:14.515	$GPGGA,130315,2430.0540,N,08115.8628,W,1,11,1.3,20,M,,M,,*68
06/12/2015	13:03:15.845	$GPGGA,130316,2430.0538,N,08115.8629,W,1,11,1.3,20,M,,M,,*65
06/12/2015	13:03:16.514	$GPGGA,130317,2430.0536,N,08115.8631,W,1,11,1.4,20,M,,M,,*64
06/12/2015	13:03:17.524	$GPGGA,130318,2430.0536,N,08115.8634,W,1,10,1.4,20,M,,M,,*6F
06/12/2015	13:03:19.685	$GPGGA,130320,2430.0534,N,08115.8639,W,1,10,1.4,20,M,,M,,*6B
06/12/2015	13:03:20.514	$GPGGA,130321,2430.0533,N,08115.8642,W,1,10,1.4,20,M,,M,,*61
06/12/2015	13:03:21.624	$GPGGA,130322,2430.0533,N,08115.8646,W,1,10,1.4,20,M,,M,,*66
06/12/2015	13:03:22.504	$GPGGA,130323,2430.0530,N,08115.8649,W,1,10,1.4,19,M,,M,,*61
06/12/2015	13:03:23.494	$GPGGA,130324,2430.0529,N,08115.8653,W,1,10,1.4,19,M,,M,,*65
06/12/2015	13:03:24.504	$GPGGA,130325,2430.0529,N,08115.8660,W,1,10,1.4,19,M,,M,,*64
06/12/2015	13:03:25.624	$GPGGA,130326,2430.0527,N,08115.8664,W,1,10,1.4,19,M,,M,,*6D
06/12/2015	13:03:26.478	$GPGGA,130327,2430.0524,N,08115.8667,W,1,10,1.4,19,M,,M,,*6C
06/12/2015	13:03:27.594	$GPGGA,130328,2430.0522,N,08115.8671,W,1,10,1.4,19,M,,M,,*62
06/12/2015	13:03:28.585	$GPGGA,130329,2430.0522,N,08115.8674,W,1,10,1.4,19,M,,M,,*66
06/12/2015	13:03:29.578	$GPGGA,130330,2430.0520,N,08115.8678,W,1,11,1.3,19,M,,M,,*66
06/12/2015	13:03:30.567	$GPGGA,130331,2430.0517,N,08115.8681,W,1,11,1.4,19,M,,M,,*62
06/12/2015	13:03:31.615	$GPGGA,130332,2430.0516,N,08115.8685,W,1,10,1.4,19,M,,M,,*65
06/12/2015	13:03:32.570	$GPGGA,130333,2430.0517,N,08115.8689,W,1,10,1.4,19,M,,M,,*69
06/12/2015	13:03:33.473	$GPGGA,130334,2430.0515,N,08115.8692,W,1,10,1.4,20,M,,M,,*6C
06/12/2015	13:03:34.571	$GPGGA,130335,2430.0515,N,08115.8693,W,1,10,1.8,20,M,,M,,*60
06/12/2015	13:03:35.574	$GPGGA,130336,2430.0515,N,08115.8696,W,1,10,1.4,20,M,,M,,*6A
06/12/2015	13:03:36.576	$GPGGA,130337,2430.0513,N,08115.8699,W,1,10,1.4,20,M,,M,,*62
06/12/2015	13:03:37.585	$GPGGA,130338,2430.0512,N,08115.8703,W,1,10,1.4,20,M,,M,,*6E
06/12/2015	13:03:38.566	$GPGGA,130339,2430.0510,N,08115.8704,W,1,10,1.4,20,M,,M,,*6A
06/12/2015	13:03:39.566	$GPGGA,130340,2430.0508,N,08115.8707,W,1,9,1.5,20,M,,M,,*57
06/12/2015	13:03:40.568	$GPGGA,130341,2430.0508,N,08115.8712,W,1,9,1.4,20,M,,M,,*53
06/12/2015	13:03:41.554	$GPGGA,130342,2430.0506,N,08115.8715,W,1,10,1.4,20,M,,M,,*61
06/12/2015	13:03:42.571	$GPGGA,130343,2430.0504,N,08115.8719,W,1,10,1.3,21,M,,M,,*68
06/12/2015	13:03:43.554	$GPGGA,130344,2430.0501,N,08115.8722,W,1,11,1.3,21,M,,M,,*63
06/12/2015	13:03:44.554	$GPGGA,130345,2430.0499,N,08115.8728,W,1,11,1.3,21,M,,M,,*68
06/12/2015	13:03:45.535	$GPGGA,130346,2430.0497,N,08115.8732,W,1,11,1.3,21,M,,M,,*6E
06/12/2015	13:03:46.545	$GPGGA,130347,2430.0495,N,08115.8737,W,1,11,1.3,21,M,,M,,*68
06/12/2015	13:03:47.555	$GPGGA,130348,2430.0494,N,08115.8741,W,1,10,1.4,22,M,,M,,*62
06/12/2015	13:03:48.545	$GPGGA,130349,2430.0492,N,08115.8746,W,1,10,1.3,22,M,,M,,*65
06/12/2015	13:03:49.535	$GPGGA,130350,2430.0490,N,08115.8750,W,1,11,1.3,22,M,,M,,*69
06/12/2015	13:03:50.545	$GPGGA,130351,2430.0488,N,08115.8754,W,1,11,1.3,22,M,,M,,*65
06/12/2015	13:03:51.568	$GPGGA,130352,2430.0487,N,08115.8761,W,1,11,1.3,22,M,,M,,*6F
06/12/2015	13:03:52.524	$GPGGA,130353,2430.0486,N,08115.8764,W,1,11,1.4,22,M,,M,,*6D
06/12/2015	13:03:53.544	$GPGGA,130354,2430.0482,N,08115.8768,W,1,10,1.4,22,M,,M,,*63
06/12/2015	13:03:54.524	$GPGGA,130355,2430.0482,N,08115.8773,W,1,10,1.3,22,M,,M,,*6F
06/12/2015	13:03:55.534	$GPGGA,130356,2430.0481,N,08115.8776,W,1,10,1.4,23,M,,M,,*6C
06/12/2015	13:03:56.534	$GPGGA,130357,2430.0479,N,08115.8779,W,1,10,1.4,23,M,,M,,*65
06/12/2015	13:03:57.614	$GPGGA,130358,2430.0479,N,08115.8786,W,1,11,1.3,23,M,,M,,*6C
06/12/2015	13:03:58.514	$GPGGA,130359,2430.0477,N,08115.8790,W,1,11,1.3,23,M,,M,,*64
06/12/2015	13:04:00.534	$GPGGA,130401,2430.0473,N,08115.8801,W,1,11,1.3,23,M,,M,,*6D
06/12/2015	13:04:01.625	$GPGGA,130402,2430.0472,N,08115.8805,W,1,9,1.5,23,M,,M,,*54
06/12/2015	13:04:02.524	$GPGGA,130403,2430.0472,N,08115.8809,W,1,9,1.3,23,M,,M,,*5F
06/12/2015	13:04:03.645	$GPGGA,130404,2430.0471,N,08115.8812,W,1,10,1.4,23,M,,M,,*6E
06/12/2015	13:04:04.525	$GPGGA,130405,2430.0470,N,08115.8819,W,1,10,1.3,23,M,,M,,*62
06/12/2015	13:04:05.535	$GPGGA,130406,2430.0469,N,08115.8823,W,1,11,1.3,23,M,,M,,*61
06/12/2015	13:04:06.505	$GPGGA,130407,2430.0470,N,08115.8826,W,1,11,1.5,23,M,,M,,*6B
06/12/2015	13:04:07.505	$GPGGA,130408,2430.0468,N,08115.8830,W,1,10,1.4,23,M,,M,,*6A
06/12/2015	13:04:08.495	$GPGGA,130409,2430.0468,N,08115.8834,W,1,10,1.4,23,M,,M,,*6F
06/12/2015	13:04:09.494	$GPGGA,130410,2430.0468,N,08115.8837,W,1,10,1.4,23,M,,M,,*64
06/12/2015	13:04:10.589	$GPGGA,130411,2430.0466,N,08115.8840,W,1,10,1.4,22,M,,M,,*6A
06/12/2015	13:04:11.614	$GPGGA,130412,2430.0465,N,08115.8845,W,1,9,1.5,22,M,,M,,*56
06/12/2015	13:04:12.594	$GPGGA,130413,2430.0466,N,08115.8851,W,1,9,1.3,22,M,,M,,*57
06/12/2015	13:04:13.624	$GPGGA,130414,2430.0463,N,08115.8855,W,1,11,1.3,22,M,,M,,*68
06/12/2015	13:04:14.494	$GPGGA,130415,2430.0461,N,08115.8858,W,1,11,1.3,22,M,,M,,*66
06/12/2015	13:04:15.594	$GPGGA,130416,2430.0461,N,08115.8862,W,1,11,1.3,22,M,,M,,*6C
06/12/2015	13:04:16.580	$GPGGA,130417,2430.0461,N,08115.8866,W,1,11,1.3,22,M,,M,,*69
06/12/2015	13:04:17.475	$GPGGA,130418,2430.0458,N,08115.8869,W,1,11,1.3,22,M,,M,,*63
06/12/2015	13:04:18.834	$GPGGA,130419,2430.0457,N,08115.8873,W,1,11,1.4,22,M,,M,,*61
06/12/2015	13:04:19.594	$GPGGA,130420,2430.0457,N,08115.8876,W,1,10,1.4,22,M,,M,,*6F
06/12/2015	13:04:20.885	$GPGGA,130421,2430.0457,N,08115.8880,W,1,10,1.4,22,M,,M,,*67
06/12/2015	13:04:21.605	$GPGGA,130422,2430.0454,N,08115.8883,W,1,11,1.3,22,M,,M,,*62
06/12/2015	13:04:22.577	$GPGGA,130423,2430.0453,N,08115.8885,W,1,11,1.4,22,M,,M,,*65
06/12/2015	13:04:23.595	$GPGGA,130424,2430.0453,N,08115.8891,W,1,10,1.4,22,M,,M,,*66
06/12/2015	13:04:24.571	$GPGGA,130425,2430.0451,N,08115.8898,W,1,10,1.3,22,M,,M,,*6B
06/12/2015	13:04:25.555	$GPGGA,130426,2430.0450,N,08115.8900,W,1,10,1.4,22,M,,M,,*6E
06/12/2015	13:04:26.568	$GPGGA,130427,2430.0450,N,08115.8903,W,1,10,1.3,22,M,,M,,*6B
06/12/2015	13:04:27.584	$GPGGA,130428,2430.0450,N,08115.8906,W,1,10,1.4,22,M,,M,,*66
06/12/2015	13:04:28.544	$GPGGA,130429,2430.0448,N,08115.8912,W,1,10,1.4,22,M,,M,,*6B
06/12/2015	13:04:29.566	$GPGGA,130430,2430.0446,N,08115.8916,W,1,11,1.3,22,M,,M,,*6F
06/12/2015	13:04:30.554	$GPGGA,130431,2430.0445,N,08115.8920,W,1,11,1.3,22,M,,M,,*68
06/12/2015	13:04:31.554	$GPGGA,130432,2430.0444,N,08115.8923,W,1,11,1.3,22,M,,M,,*69
06/12/2015	13:04:32.554	$GPGGA,130433,2430.0445,N,08115.8927,W,1,11,1.3,22,M,,M,,*6D
06/12/2015	13:04:33.544	$GPGGA,130434,2430.0443,N,08115.8930,W,1,10,1.4,22,M,,M,,*6C
06/12/2015	13:04:34.554	$GPGGA,130435,2430.0441,N,08115.8932,W,1,10,1.3,22,M,,M,,*6A
06/12/2015	13:04:35.577	$GPGGA,130436,2430.0440,N,08115.8938,W,1,11,1.3,22,M,,M,,*63
06/12/2015	13:04:36.544	$GPGGA,130437,2430.0441,N,08115.8942,W,1,11,1.4,22,M,,M,,*69
06/12/2015	13:04:37.524	$GPGGA,130438,2430.0439,N,08115.8945,W,1,11,1.3,22,M,,M,,*69
06/12/2015	13:04:38.535	$GPGGA,130439,2430.0436,N,08115.8947,W,1,11,1.4,22,M,,M,,*62
06/12/2015	13:04:39.535	$GPGGA,130440,2430.0436,N,08115.8952,W,1,8,1.9,22,M,,M,,*5D
06/12/2015	13:04:40.535	$GPGGA,130441,2430.0436,N,08115.8956,W,1,8,1.4,21,M,,M,,*56
06/12/2015	13:04:41.567	$GPGGA,130442,2430.0434,N,08115.8959,W,1,10,1.4,21,M,,M,,*61
06/12/2015	13:04:42.535	$GPGGA,130443,2430.0432,N,08115.8963,W,1,10,1.3,21,M,,M,,*68
06/12/2015	13:04:43.564	$GPGGA,130444,2430.0430,N,08115.8964,W,1,10,1.4,21,M,,M,,*6D
06/12/2015	13:04:44.534	$GPGGA,130445,2430.0432,N,08115.8968,W,1,10,1.4,21,M,,M,,*62
06/12/2015	13:04:45.514	$GPGGA,130446,2430.0432,N,08115.8971,W,1,10,1.4,21,M,,M,,*69
06/12/2015	13:04:46.504	$GPGGA,130447,2430.0434,N,08115.8972,W,1,10,1.5,21,M,,M,,*6C
06/12/2015	13:04:47.544	$GPGGA,130448,2430.0435,N,08115.8975,W,1,10,1.3,21,M,,M,,*63
06/12/2015	13:04:48.504	$GPGGA,130449,2430.0434,N,08115.8979,W,1,10,1.4,21,M,,M,,*68
06/12/2015	13:04:49.594	$GPGGA,130450,2430.0435,N,08115.8982,W,1,9,1.4,21,M,,M,,*5D
06/12/2015	13:04:50.504	$GPGGA,130451,2430.0434,N,08115.8985,W,1,9,1.4,21,M,,M,,*5A
06/12/2015	13:04:51.679	$GPGGA,130452,2430.0435,N,08115.8988,W,1,10,1.4,21,M,,M,,*6D
06/12/2015	13:04:52.514	$GPGGA,130453,2430.0433,N,08115.8989,W,1,10,1.4,21,M,,M,,*6B
06/12/2015	13:04:53.634	$GPGGA,130454,2430.0432,N,08115.8993,W,1,10,1.4,21,M,,M,,*66
06/12/2015	13:04:54.504	$GPGGA,130455,2430.0432,N,08115.8996,W,1,10,1.4,21,M,,M,,*62
06/12/2015	13:04:55.605	$GPGGA,130456,2430.0430,N,08115.8999,W,1,7,1.9,21,M,,M,,*57
06/12/2015	13:04:56.672	$GPGGA,130457,2430.0428,N,08115.9003,W,1,7,1.3,21,M,,M,,*5E
06/12/2015	13:04:57.615	$GPGGA,130458,2430.0428,N,08115.9007,W,1,11,1.3,21,M,,M,,*62
06/12/2015	13:04:58.505	$GPGGA,130459,2430.0426,N,08115.9010,W,1,11,1.3,21,M,,M,,*6B
06/12/2015	13:04:59.685	$GPGGA,130500,2430.0424,N,08115.9012,W,1,10,1.3,21,M,,M,,*67
06/12/2015	13:05:00.585	$GPGGA,130501,2430.0421,N,08115.9015,W,1,10,1.3,21,M,,M,,*64
06/12/2015	13:05:01.584	$GPGGA,130502,2430.0421,N,08115.9017,W,1,11,1.3,21,M,,M,,*64
06/12/2015	13:05:02.654	$GPGGA,130503,2430.0421,N,08115.9019,W,1,11,1.4,21,M,,M,,*6C
06/12/2015	13:05:03.674	$GPGGA,130504,2430.0421,N,08115.9025,W,1,11,1.3,21,M,,M,,*63
06/12/2015	13:05:04.576	$GPGGA,130505,2430.0418,N,08115.9026,W,1,11,1.3,21,M,,M,,*6B
06/12/2015	13:05:05.645	$GPGGA,130506,2430.0417,N,08115.9029,W,1,11,1.3,21,M,,M,,*68
06/12/2015	13:05:06.645	$GPGGA,130507,2430.0416,N,08115.9033,W,1,11,1.3,21,M,,M,,*63
06/12/2015	13:05:07.668	$GPGGA,130508,2430.0417,N,08115.9035,W,1,11,1.4,21,M,,M,,*6C
06/12/2015	13:05:08.624	$GPGGA,130509,2430.0414,N,08115.9037,W,1,11,1.4,21,M,,M,,*6C
06/12/2015	13:05:09.568	$GPGGA,130510,2430.0411,N,08115.9039,W,1,11,1.3,21,M,,M,,*68
06/12/2015	13:05:10.624	$GPGGA,130511,2430.0410,N,08115.9044,W,1,11,1.3,21,M,,M,,*62
06/12/2015	13:05:11.644	$GPGGA,130512,2430.0410,N,08115.9048,W,1,11,1.3,21,M,,M,,*6D
06/12/2015	13:05:12.614	$GPGGA,130513,2430.0406,N,08115.9050,W,1,11,1.3,21,M,,M,,*62
06/12/2015	13:05:13.595	$GPGGA,130514,2430.0404,N,08115.9053,W,1,11,1.3,21,M,,M,,*64
06/12/2015	13:05:14.615	$GPGGA,130515,2430.0403,N,08115.9057,W,1,11,1.4,21,M,,M,,*61
06/12/2015	13:05:15.677	$GPGGA,130516,2430.0400,N,08115.9061,W,1,11,1.3,21,M,,M,,*63
06/12/2015	13:05:16.615	$GPGGA,130517,2430.0397,N,08115.9065,W,1,11,1.3,21,M,,M,,*6F
06/12/2015	13:05:17.595	$GPGGA,130518,2430.0394,N,08115.9069,W,1,11,1.3,22,M,,M,,*6C
06/12/2015	13:05:18.604	$GPGGA,130519,2430.0392,N,08115.9073,W,1,11,1.3,22,M,,M,,*60
06/12/2015	13:05:19.614	$GPGGA,130520,2430.0389,N,08115.9079,W,1,10,1.3,22,M,,M,,*6B
06/12/2015	13:05:20.604	$GPGGA,130521,2430.0386,N,08115.9082,W,1,10,1.3,22,M,,M,,*61
06/12/2015	13:05:21.554	$GPGGA,130522,2430.0385,N,08115.9087,W,1,11,1.3,22,M,,M,,*65
06/12/2015	13:05:22.594	$GPGGA,130523,2430.0381,N,08115.9093,W,1,11,1.3,22,M,,M,,*65
06/12/2015	13:05:23.624	$GPGGA,130524,2430.0378,N,08115.9097,W,1,11,1.3,22,M,,M,,*60
06/12/2015	13:05:24.535	$GPGGA,130525,2430.0376,N,08115.9102,W,1,11,1.3,22,M,,M,,*62
06/12/2015	13:05:25.584	$GPGGA,130526,2430.0374,N,08115.9108,W,1,11,1.3,22,M,,M,,*69
06/12/2015	13:05:26.524	$GPGGA,130527,2430.0370,N,08115.9112,W,1,11,1.4,22,M,,M,,*60
06/12/2015	13:05:27.654	$GPGGA,130528,2430.0367,N,08115.9118,W,1,11,1.4,22,M,,M,,*63
06/12/2015	13:05:28.644	$GPGGA,130529,2430.0367,N,08115.9122,W,1,11,1.3,22,M,,M,,*6C
06/12/2015	13:05:29.570	$GPGGA,130530,2430.0364,N,08115.9126,W,1,11,1.4,22,M,,M,,*64
06/12/2015	13:05:30.515	$GPGGA,130531,2430.0361,N,08115.9133,W,1,11,1.4,22,M,,M,,*64
06/12/2015	13:05:31.595	$GPGGA,130532,2430.0357,N,08115.9137,W,1,11,1.3,22,M,,M,,*61
06/12/2015	13:05:32.578	$GPGGA,130533,2430.0354,N,08115.9144,W,1,11,1.3,22,M,,M,,*67
06/12/2015	13:05:33.605	$GPGGA,130534,2430.0353,N,08115.9151,W,1,11,1.3,22,M,,M,,*63
06/12/2015	13:05:34.635	$GPGGA,130535,2430.0350,N,08115.9155,W,1,11,1.3,22,M,,M,,*65
06/12/2015	13:05:35.635	$GPGGA,130536,2430.0349,N,08115.9162,W,1,11,1.3,22,M,,M,,*6A
06/12/2015	13:05:36.573	$GPGGA,130537,2430.0349,N,08115.9167,W,1,11,1.3,22,M,,M,,*6E
06/12/2015	13:05:37.624	$GPGGA,130538,2430.0345,N,08115.9173,W,1,11,1.3,22,M,,M,,*68
06/12/2015	13:05:38.984	$GPGGA,130539,2430.0342,N,08115.9178,W,1,11,1.3,22,M,,M,,*65
06/12/2015	13:05:39.614	$GPGGA,130540,2430.0341,N,08115.9185,W,1,11,1.3,22,M,,M,,*6A
06/12/2015	13:05:40.573	$GPGGA,130541,2430.0340,N,08115.9191,W,1,11,1.4,22,M,,M,,*68
06/12/2015	13:05:41.494	$GPGGA,130542,2430.0338,N,08115.9198,W,1,10,1.4,22,M,,M,,*6C
06/12/2015	13:05:42.568	$GPGGA,130543,2430.0335,N,08115.9203,W,1,10,1.3,22,M,,M,,*66
06/12/2015	13:05:43.604	$GPGGA,130544,2430.0336,N,08115.9212,W,1,10,1.4,22,M,,M,,*65
06/12/2015	13:05:44.594	$GPGGA,130545,2430.0334,N,08115.9219,W,1,10,1.8,22,M,,M,,*61
06/12/2015	13:05:45.484	$GPGGA,130546,2430.0331,N,08115.9223,W,1,9,1.8,22,M,,M,,*56
06/12/2015	13:05:46.544	$GPGGA,130547,2430.0331,N,08115.9230,W,1,9,1.8,22,M,,M,,*55
06/12/2015	13:05:47.614	$GPGGA,130548,2430.0331,N,08115.9238,W,1,9,1.8,22,M,,M,,*52
06/12/2015	13:05:48.595	$GPGGA,130549,2430.0329,N,08115.9242,W,1,9,1.4,22,M,,M,,*5B
06/12/2015	13:05:49.577	$GPGGA,130550,2430.0328,N,08115.9249,W,1,10,1.8,22,M,,M,,*6D
06/12/2015	13:05:50.605	$GPGGA,130551,2430.0330,N,08115.9256,W,1,10,1.3,22,M,,M,,*60
06/12/2015	13:05:52.077	$GPGGA,130552,2430.0331,N,08115.9263,W,1,11,1.3,22,M,,M,,*65
06/12/2015	13:05:52.585	$GPGGA,130553,2430.0329,N,08115.9268,W,1,11,1.3,22,M,,M,,*66
06/12/2015	13:05:53.594	$GPGGA,130554,2430.0330,N,08115.9274,W,1,11,1.3,22,M,,M,,*64
06/12/2015	13:05:54.578	$GPGGA,130555,2430.0329,N,08115.9281,W,1,11,1.3,22,M,,M,,*67
06/12/2015	13:05:55.604	$GPGGA,130556,2430.0331,N,08115.9288,W,1,11,1.3,22,M,,M,,*64
06/12/2015	13:05:56.578	$GPGGA,130557,2430.0331,N,08115.9296,W,1,11,1.3,22,M,,M,,*6A
06/12/2015	13:05:57.579	$GPGGA,130558,2430.0331,N,08115.9303,W,1,11,1.4,22,M,,M,,*6F
06/12/2015	13:05:58.567	$GPGGA,130559,2430.0333,N,08115.9308,W,1,11,1.4,22,M,,M,,*67
06/12/2015	13:05:59.605	$GPGGA,130600,2430.0334,N,08115.9315,W,1,10,1.4,22,M,,M,,*62
06/12/2015	13:06:00.576	$GPGGA,130601,2430.0334,N,08115.9324,W,1,10,1.3,22,M,,M,,*66
06/12/2015	13:06:01.581	$GPGGA,130602,2430.0337,N,08115.9329,W,1,11,1.4,22,M,,M,,*6D
06/12/2015	13:06:02.554	$GPGGA,130603,2430.0338,N,08115.9336,W,1,11,1.4,22,M,,M,,*6D
06/12/2015	13:06:03.584	$GPGGA,130604,2430.0340,N,08115.9342,W,1,10,1.4,22,M,,M,,*67
06/12/2015	13:06:04.614	$GPGGA,130605,2430.0341,N,08115.9350,W,1,10,1.3,22,M,,M,,*63
06/12/2015	13:06:05.577	$GPGGA,130606,2430.0345,N,08115.9355,W,1,11,1.3,22,M,,M,,*60
06/12/2015	13:06:06.545	$GPGGA,130607,2430.0345,N,08115.9355,W,1,11,1.3,22,M,,M,,*61
06/12/2015	13:06:07.587	$GPGGA,130608,2430.0349,N,08115.9368,W,1,11,1.3,22,M,,M,,*6C
06/12/2015	13:06:08.571	$GPGGA,130609,2430.0351,N,08115.9373,W,1,11,1.3,22,M,,M,,*6E
06/12/2015	13:06:09.565	$GPGGA,130610,2430.0354,N,08115.9379,W,1,11,1.3,21,M,,M,,*6A
06/12/2015	13:06:10.545	$GPGGA,130611,2430.0354,N,08115.9379,W,1,11,1.3,21,M,,M,,*6B
06/12/2015	13:06:11.570	$GPGGA,130612,2430.0359,N,08115.9390,W,1,10,1.4,21,M,,M,,*64
06/12/2015	13:06:12.976	$GPGGA,130613,2430.0359,N,08115.9390,W,1,10,1.3,21,M,,M,,*62
06/12/2015	13:06:13.554	$GPGGA,130614,2430.0366,N,08115.9402,W,1,11,1.3,21,M,,M,,*64
06/12/2015	13:06:14.544	$GPGGA,130615,2430.0366,N,08115.9402,W,1,11,1.3,21,M,,M,,*65
06/12/2015	13:06:15.684	$GPGGA,130616,2430.0372,N,08115.9412,W,1,11,1.3,21,M,,M,,*62
06/12/2015	13:06:16.614	$GPGGA,130617,2430.0374,N,08115.9418,W,1,11,1.3,21,M,,M,,*6F
06/12/2015	13:06:17.545	$GPGGA,130618,2430.0380,N,08115.9422,W,1,11,1.3,21,M,,M,,*62
06/12/2015	13:06:18.534	$GPGGA,130619,2430.0380,N,08115.9422,W,1,11,1.3,21,M,,M,,*63
06/12/2015	13:06:19.554	$GPGGA,130620,2430.0388,N,08115.9430,W,1,11,1.3,21,M,,M,,*62
06/12/2015	13:06:20.524	$GPGGA,130621,2430.0388,N,08115.9430,W,1,11,1.3,21,M,,M,,*63
06/12/2015	13:06:21.514	$GPGGA,130622,2430.0391,N,08115.9436,W,1,11,1.3,21,M,,M,,*6E
06/12/2015	13:06:22.514	$GPGGA,130623,2430.0396,N,08115.9438,W,1,11,1.3,21,M,,M,,*66
06/12/2015	13:06:23.535	$GPGGA,130624,2430.0403,N,08115.9444,W,1,10,1.3,21,M,,M,,*60
06/12/2015	13:06:24.525	$GPGGA,130625,2430.0406,N,08115.9448,W,1,10,1.3,21,M,,M,,*68
06/12/2015	13:06:25.505	$GPGGA,130626,2430.0410,N,08115.9449,W,1,10,1.3,21,M,,M,,*6D
06/12/2015	13:06:26.605	$GPGGA,130627,2430.0414,N,08115.9449,W,1,10,1.3,21,M,,M,,*68
06/12/2015	13:06:27.645	$GPGGA,130628,2430.0417,N,08115.9454,W,1,10,1.4,20,M,,M,,*6E
06/12/2015	13:06:28.594	$GPGGA,130629,2430.0420,N,08115.9455,W,1,10,1.3,20,M,,M,,*6D
06/12/2015	13:06:29.625	$GPGGA,130630,2430.0424,N,08115.9455,W,1,11,1.3,20,M,,M,,*60
06/12/2015	13:06:30.614	$GPGGA,130631,2430.0428,N,08115.9455,W,1,11,1.3,20,M,,M,,*6D
06/12/2015	13:06:31.624	$GPGGA,130632,2430.0432,N,08115.9458,W,1,11,1.3,20,M,,M,,*68
06/12/2015	13:06:32.584	$GPGGA,130633,2430.0438,N,08115.9462,W,1,11,1.3,20,M,,M,,*6A
06/12/2015	13:06:33.614	$GPGGA,130634,2430.0443,N,08115.9460,W,1,11,1.3,20,M,,M,,*63
06/12/2015	13:06:34.594	$GPGGA,130635,2430.0446,N,08115.9462,W,1,11,1.3,20,M,,M,,*65
06/12/2015	13:06:35.614	$GPGGA,130636,2430.0450,N,08115.9465,W,1,11,1.3,20,M,,M,,*66
06/12/2015	13:06:36.579	$GPGGA,130637,2430.0454,N,08115.9465,W,1,11,1.3,20,M,,M,,*63
06/12/2015	13:06:37.594	$GPGGA,130638,2430.0459,N,08115.9463,W,1,11,1.3,20,M,,M,,*67
06/12/2015	13:06:38.578	$GPGGA,130639,2430.0464,N,08115.9462,W,1,11,1.3,20,M,,M,,*69
06/12/2015	13:06:39.584	$GPGGA,130640,2430.0468,N,08115.9465,W,1,11,1.3,20,M,,M,,*6C
06/12/2015	13:06:40.576	$GPGGA,130641,2430.0471,N,08115.9466,W,1,11,1.3,20,M,,M,,*66
06/12/2015	13:06:41.568	$GPGGA,130642,2430.0475,N,08115.9465,W,1,10,1.4,20,M,,M,,*64
06/12/2015	13:06:42.585	$GPGGA,130643,2430.0479,N,08115.9464,W,1,10,1.4,20,M,,M,,*68
06/12/2015	13:06:43.595	$GPGGA,130644,2430.0484,N,08115.9466,W,1,10,1.4,20,M,,M,,*6F
06/12/2015	13:06:44.570	$GPGGA,130645,2430.0488,N,08115.9466,W,1,10,1.3,20,M,,M,,*65
06/12/2015	13:06:45.585	$GPGGA,130646,2430.0492,N,08115.9464,W,1,11,1.3,20,M,,M,,*6E
06/12/2015	13:06:46.569	$GPGGA,130647,2430.0497,N,08115.9465,W,1,11,1.3,20,M,,M,,*6B
06/12/2015	13:06:47.568	$GPGGA,130648,2430.0500,N,08115.9464,W,1,11,1.3,20,M,,M,,*6A
06/12/2015	13:06:48.568	$GPGGA,130649,2430.0504,N,08115.9465,W,1,11,1.3,20,M,,M,,*6E
06/12/2015	13:06:49.544	$GPGGA,130650,2430.0507,N,08115.9461,W,1,10,1.4,20,M,,M,,*67
06/12/2015	13:06:50.568	$GPGGA,130651,2430.0511,N,08115.9460,W,1,10,1.4,20,M,,M,,*60
06/12/2015	13:06:51.554	$GPGGA,130652,2430.0515,N,08115.9462,W,1,10,1.4,20,M,,M,,*65
06/12/2015	13:06:52.554	$GPGGA,130653,2430.0518,N,08115.9460,W,1,10,1.3,20,M,,M,,*6C
06/12/2015	13:06:53.534	$GPGGA,130654,2430.0522,N,08115.9458,W,1,10,1.4,20,M,,M,,*6E
06/12/2015	13:06:54.554	$GPGGA,130655,2430.0526,N,08115.9456,W,1,10,1.4,20,M,,M,,*65
06/12/2015	13:06:55.572	$GPGGA,130656,2430.0529,N,08115.9453,W,1,10,1.4,20,M,,M,,*6C
06/12/2015	13:06:56.534	$GPGGA,130657,2430.0535,N,08115.9454,W,1,10,1.4,20,M,,M,,*67
06/12/2015	13:06:57.570	$GPGGA,130658,2430.0537,N,08115.9451,W,1,11,1.3,20,M,,M,,*69
06/12/2015	13:06:58.513	$GPGGA,130659,2430.0540,N,08115.9448,W,1,11,1.4,20,M,,M,,*67
06/12/2015	13:06:59.673	$GPGGA,130700,2430.0546,N,08115.9445,W,1,11,1.3,21,M,,M,,*67
06/12/2015	13:07:00.523	$GPGGA,130701,2430.0551,N,08115.9443,W,1,11,1.3,21,M,,M,,*66
06/12/2015	13:07:01.623	$GPGGA,130702,2430.0555,N,08115.9438,W,1,10,1.4,21,M,,M,,*6B
06/12/2015	13:07:02.513	$GPGGA,130703,2430.0558,N,08115.9435,W,1,10,1.3,21,M,,M,,*6D
06/12/2015	13:07:03.542	$GPGGA,130704,2430.0562,N,08115.9432,W,1,10,1.4,21,M,,M,,*63
06/12/2015	13:07:04.502	$GPGGA,130705,2430.0568,N,08115.9430,W,1,10,1.4,21,M,,M,,*6A
06/12/2015	13:07:05.542	$GPGGA,130706,2430.0572,N,08115.9427,W,1,11,1.3,21,M,,M,,*62
06/12/2015	13:07:06.512	$GPGGA,130707,2430.0575,N,08115.9423,W,1,11,1.4,21,M,,M,,*67
06/12/2015	13:07:07.522	$GPGGA,130708,2430.0578,N,08115.9421,W,1,10,1.4,21,M,,M,,*66
06/12/2015	13:07:08.502	$GPGGA,130709,2430.0583,N,08115.9422,W,1,10,1.4,21,M,,M,,*60
06/12/2015	13:07:09.522	$GPGGA,130710,2430.0587,N,08115.9417,W,1,9,1.8,21,M,,M,,*5E
06/12/2015	13:07:10.492	$GPGGA,130711,2430.0590,N,08115.9413,W,1,9,1.8,21,M,,M,,*5D
06/12/2015	13:07:11.622	$GPGGA,130712,2430.0594,N,08115.9411,W,1,9,1.8,22,M,,M,,*5B
06/12/2015	13:07:12.602	$GPGGA,130713,2430.0600,N,08115.9408,W,1,9,1.8,22,M,,M,,*5C
06/12/2015	13:07:13.602	$GPGGA,130714,2430.0604,N,08115.9402,W,1,9,1.5,22,M,,M,,*58
06/12/2015	13:07:14.502	$GPGGA,130715,2430.0608,N,08115.9399,W,1,9,1.9,22,M,,M,,*5C
06/12/2015	13:07:15.492	$GPGGA,130716,2430.0612,N,08115.9394,W,1,8,2.0,22,M,,M,,*52
06/12/2015	13:07:16.493	$GPGGA,130717,2430.0618,N,08115.9389,W,1,8,1.5,22,M,,M,,*53
06/12/2015	13:07:17.613	$GPGGA,130718,2430.0622,N,08115.9382,W,1,11,1.3,22,M,,M,,*60
06/12/2015	13:07:18.573	$GPGGA,130719,2430.0626,N,08115.9376,W,1,11,1.3,22,M,,M,,*6E
06/12/2015	13:07:19.593	$GPGGA,130720,2430.0630,N,08115.9372,W,1,10,1.4,22,M,,M,,*61
06/12/2015	13:07:20.493	$GPGGA,130721,2430.0634,N,08115.9365,W,1,10,1.4,22,M,,M,,*62
06/12/2015	13:07:21.592	$GPGGA,130722,2430.0638,N,08115.9359,W,1,10,1.4,22,M,,M,,*62
06/12/2015	13:07:22.572	$GPGGA,130723,2430.0641,N,08115.9355,W,1,10,1.3,22,M,,M,,*66
06/12/2015	13:07:23.582	$GPGGA,130724,2430.0645,N,08115.9350,W,1,11,1.3,23,M,,M,,*60
06/12/2015	13:07:24.572	$GPGGA,130725,2430.0648,N,08115.9347,W,1,11,1.4,23,M,,M,,*6D
06/12/2015	13:07:25.562	$GPGGA,130726,2430.0651,N,08115.9341,W,1,10,1.4,23,M,,M,,*61
06/12/2015	13:07:26.564	$GPGGA,130727,2430.0652,N,08115.9338,W,1,10,1.4,23,M,,M,,*6D
06/12/2015	13:07:27.582	$GPGGA,130728,2430.0656,N,08115.9335,W,1,11,1.3,23,M,,M,,*6D
06/12/2015	13:07:28.556	$GPGGA,130729,2430.0659,N,08115.9332,W,1,11,1.4,23,M,,M,,*63
06/12/2015	13:07:29.582	$GPGGA,130730,2430.0661,N,08115.9328,W,1,10,1.4,23,M,,M,,*6A
06/12/2015	13:07:30.542	$GPGGA,130731,2430.0662,N,08115.9326,W,1,10,1.4,23,M,,M,,*66
06/12/2015	13:07:31.565	$GPGGA,130732,2430.0665,N,08115.9323,W,1,11,1.3,23,M,,M,,*61
06/12/2015	13:07:32.542	$GPGGA,130733,2430.0667,N,08115.9320,W,1,11,1.3,24,M,,M,,*66
06/12/2015	13:07:33.573	$GPGGA,130734,2430.0670,N,08115.9317,W,1,11,1.3,24,M,,M,,*63
06/12/2015	13:07:34.556	$GPGGA,130735,2430.0670,N,08115.9313,W,1,11,1.3,24,M,,M,,*66
06/12/2015	13:07:35.573	$GPGGA,130736,2430.0673,N,08115.9310,W,1,11,1.3,24,M,,M,,*65
06/12/2015	13:07:36.543	$GPGGA,130737,2430.0676,N,08115.9307,W,1,11,1.4,24,M,,M,,*60
06/12/2015	13:07:37.533	$GPGGA,130738,2430.0677,N,08115.9304,W,1,10,1.4,24,M,,M,,*6C
06/12/2015	13:07:38.542	$GPGGA,130739,2430.0680,N,08115.9301,W,1,10,1.4,24,M,,M,,*60
06/12/2015	13:07:39.572	$GPGGA,130740,2430.0681,N,08115.9298,W,1,10,1.4,24,M,,M,,*6E
06/12/2015	13:07:40.532	$GPGGA,130741,2430.0683,N,08115.9296,W,1,10,1.8,24,M,,M,,*6F
06/12/2015	13:07:41.554	$GPGGA,130742,2430.0685,N,08115.9294,W,1,10,1.4,24,M,,M,,*64
06/12/2015	13:07:42.532	$GPGGA,130743,2430.0687,N,08115.9291,W,1,10,1.4,24,M,,M,,*62
06/12/2015	13:07:43.542	$GPGGA,130744,2430.0690,N,08115.9286,W,1,9,1.5,24,M,,M,,*5C
06/12/2015	13:07:44.522	$GPGGA,130745,2430.0691,N,08115.9282,W,1,9,1.4,24,M,,M,,*59
06/12/2015	13:07:45.532	$GPGGA,130746,2430.0692,N,08115.9278,W,1,9,1.5,24,M,,M,,*5D
06/12/2015	13:07:46.512	$GPGGA,130747,2430.0695,N,08115.9274,W,1,9,1.4,24,M,,M,,*56
06/12/2015	13:07:47.552	$GPGGA,130748,2430.0698,N,08115.9272,W,1,10,1.4,24,M,,M,,*6A
06/12/2015	13:07:48.513	$GPGGA,130749,2430.0699,N,08115.9269,W,1,10,1.4,24,M,,M,,*60
06/12/2015	13:07:49.502	$GPGGA,130750,2430.0699,N,08115.9266,W,1,9,1.5,24,M,,M,,*5E
06/12/2015	13:07:50.502	$GPGGA,130751,2430.0701,N,08115.9261,W,1,9,1.9,24,M,,M,,*54
06/12/2015	13:07:51.523	$GPGGA,130752,2430.0705,N,08115.9259,W,1,9,1.5,24,M,,M,,*54
06/12/2015	13:07:52.493	$GPGGA,130753,2430.0708,N,08115.9256,W,1,9,1.4,24,M,,M,,*56
06/12/2015	13:07:53.613	$GPGGA,130754,2430.0707,N,08115.9251,W,1,10,1.4,24,M,,M,,*61
06/12/2015	13:07:54.503	$GPGGA,130755,2430.0709,N,08115.9245,W,1,10,1.5,24,M,,M,,*6A
06/12/2015	13:07:55.513	$GPGGA,130756,2430.0713,N,08115.9238,W,1,11,1.3,24,M,,M,,*6F
06/12/2015	13:07:56.502	$GPGGA,130757,2430.0717,N,08115.9233,W,1,11,1.5,24,M,,M,,*67
06/12/2015	13:07:57.622	$GPGGA,130758,2430.0717,N,08115.9225,W,1,10,1.4,24,M,,M,,*6F
06/12/2015	13:07:58.502	$GPGGA,130759,2430.0721,N,08115.9218,W,1,10,1.4,24,M,,M,,*65
06/12/2015	13:07:59.662	$GPGGA,130800,2430.0723,N,08115.9212,W,1,10,1.4,24,M,,M,,*6E
06/12/2015	13:08:00.612	$GPGGA,130801,2430.0724,N,08115.9201,W,1,10,1.4,24,M,,M,,*6A
06/12/2015	13:08:01.612	$GPGGA,130802,2430.0728,N,08115.9192,W,1,9,1.5,24,M,,M,,*55
06/12/2015	13:08:02.492	$GPGGA,130803,2430.0731,N,08115.9186,W,1,9,1.4,24,M,,M,,*58
06/12/2015	13:08:03.612	$GPGGA,130804,2430.0732,N,08115.9179,W,1,9,1.8,24,M,,M,,*50
06/12/2015	13:08:04.572	$GPGGA,130805,2430.0734,N,08115.9171,W,1,9,1.3,24,M,,M,,*54
06/12/2015	13:08:05.622	$GPGGA,130806,2430.0738,N,08115.9163,W,1,11,1.3,24,M,,M,,*61
06/12/2015	13:08:06.572	$GPGGA,130807,2430.0741,N,08115.9153,W,1,11,1.5,24,M,,M,,*6B
06/12/2015	13:08:07.592	$GPGGA,130808,2430.0742,N,08115.9144,W,1,11,1.3,24,M,,M,,*67
06/12/2015	13:08:08.473	$GPGGA,130809,2430.0746,N,08115.9135,W,1,11,1.5,24,M,,M,,*62
06/12/2015	13:08:09.574	$GPGGA,130810,2430.0750,N,08115.9125,W,1,9,1.5,24,M,,M,,*55
06/12/2015	13:08:10.573	$GPGGA,130811,2430.0753,N,08115.9115,W,1,9,1.3,24,M,,M,,*52
06/12/2015	13:08:11.573	$GPGGA,130812,2430.0755,N,08115.9103,W,1,10,1.4,23,M,,M,,*68
06/12/2015	13:08:12.569	$GPGGA,130813,2430.0759,N,08115.9092,W,1,10,1.3,23,M,,M,,*6B
06/12/2015	13:08:13.582	$GPGGA,130814,2430.0764,N,08115.9081,W,1,11,1.3,23,M,,M,,*61
06/12/2015	13:08:14.555	$GPGGA,130815,2430.0766,N,08115.9072,W,1,11,1.3,23,M,,M,,*6E
06/12/2015	13:08:15.612	$GPGGA,130816,2430.0768,N,08115.9060,W,1,9,1.5,23,M,,M,,*5F
06/12/2015	13:08:16.542	$GPGGA,130817,2430.0771,N,08115.9048,W,1,9,1.5,23,M,,M,,*5C
06/12/2015	13:08:17.572	$GPGGA,130818,2430.0775,N,08115.9040,W,1,11,1.3,23,M,,M,,*60
06/12/2015	13:08:18.556	$GPGGA,130819,2430.0778,N,08115.9029,W,1,11,1.4,23,M,,M,,*64
06/12/2015	13:08:19.582	$GPGGA,130820,2430.0779,N,08115.9016,W,1,11,1.3,23,M,,M,,*64
06/12/2015	13:08:20.562	$GPGGA,130821,2430.0782,N,08115.9005,W,1,11,1.4,23,M,,M,,*64
06/12/2015	13:08:22.832	$GPGGA,130823,2430.0790,N,08115.8987,W,1,11,1.3,23,M,,M,,*60
06/12/2015	13:08:23.567	$GPGGA,130824,2430.0793,N,08115.8975,W,1,11,1.3,23,M,,M,,*69
06/12/2015	13:08:24.542	$GPGGA,130825,2430.0796,N,08115.8964,W,1,11,1.4,23,M,,M,,*6A
06/12/2015	13:08:25.532	$GPGGA,130826,2430.0800,N,08115.8955,W,1,10,1.4,23,M,,M,,*6A
06/12/2015	13:08:26.523	$GPGGA,130827,2430.0804,N,08115.8945,W,1,10,1.3,23,M,,M,,*69
06/12/2015	13:08:27.569	$GPGGA,130828,2430.0807,N,08115.8934,W,1,11,1.3,23,M,,M,,*62
06/12/2015	13:08:28.533	$GPGGA,130829,2430.0810,N,08115.8922,W,1,11,1.3,23,M,,M,,*62
06/12/2015	13:08:29.533	$GPGGA,130830,2430.0814,N,08115.8911,W,1,10,1.4,23,M,,M,,*68
06/12/2015	13:08:30.523	$GPGGA,130831,2430.0817,N,08115.8901,W,1,10,1.4,23,M,,M,,*6B
06/12/2015	13:08:32.522	$GPGGA,130832,2430.0822,N,08115.8891,W,1,11,1.3,23,M,,M,,*60
06/12/2015	13:08:32.569	$GPGGA,130833,2430.0826,N,08115.8879,W,1,11,1.3,23,M,,M,,*63
06/12/2015	13:08:33.532	$GPGGA,130834,2430.0828,N,08115.8866,W,1,9,1.5,23,M,,M,,*5B
06/12/2015	13:08:34.502	$GPGGA,130835,2430.0831,N,08115.8854,W,1,9,1.4,23,M,,M,,*52
06/12/2015	13:08:35.532	$GPGGA,130836,2430.0836,N,08115.8843,W,1,11,1.3,23,M,,M,,*6E
06/12/2015	13:08:36.523	$GPGGA,130837,2430.0839,N,08115.8831,W,1,11,1.3,23,M,,M,,*65
06/12/2015	13:08:37.532	$GPGGA,130838,2430.0842,N,08115.8819,W,1,10,1.4,23,M,,M,,*6A
06/12/2015	13:08:38.502	$GPGGA,130839,2430.0846,N,08115.8808,W,1,10,1.5,23,M,,M,,*6E
06/12/2015	13:08:39.522	$GPGGA,130840,2430.0851,N,08115.8795,W,1,10,1.4,23,M,,M,,*6C
06/12/2015	13:08:40.512	$GPGGA,130841,2430.0855,N,08115.8781,W,1,10,1.4,23,M,,M,,*6C
06/12/2015	13:08:41.492	$GPGGA,130842,2430.0858,N,08115.8769,W,1,11,1.3,23,M,,M,,*62
06/12/2015	13:08:42.502	$GPGGA,130843,2430.0864,N,08115.8755,W,1,11,1.4,23,M,,M,,*64
06/12/2015	13:08:43.593	$GPGGA,130844,2430.0868,N,08115.8743,W,1,9,1.5,23,M,,M,,*50
06/12/2015	13:08:44.493	$GPGGA,130845,2430.0871,N,08115.8730,W,1,9,1.4,23,M,,M,,*5C
06/12/2015	13:08:45.593	$GPGGA,130846,2430.0876,N,08115.8716,W,1,10,1.4,23,M,,M,,*64
06/12/2015	13:08:46.503	$GPGGA,130847,2430.0880,N,08115.8706,W,1,10,1.3,23,M,,M,,*6A
06/12/2015	13:08:47.493	$GPGGA,130848,2430.0883,N,08115.8696,W,1,10,1.4,23,M,,M,,*69
06/12/2015	13:08:48.482	$GPGGA,130849,2430.0887,N,08115.8679,W,1,10,1.8,22,M,,M,,*60
06/12/2015	13:08:49.582	$GPGGA,130850,2430.0891,N,08115.8666,W,1,10,1.4,22,M,,M,,*6D
06/12/2015	13:08:50.492	$GPGGA,130851,2430.0894,N,08115.8659,W,1,10,1.3,22,M,,M,,*62
06/12/2015	13:08:51.592	$GPGGA,130852,2430.0894,N,08115.8647,W,1,10,1.4,22,M,,M,,*69
06/12/2015	13:08:52.482	$GPGGA,130853,2430.0898,N,08115.8634,W,1,10,1.4,22,M,,M,,*60
06/12/2015	13:08:53.602	$GPGGA,130854,2430.0902,N,08115.8624,W,1,10,1.4,22,M,,M,,*64
06/12/2015	13:08:54.564	$GPGGA,130855,2430.0905,N,08115.8612,W,1,10,1.4,22,M,,M,,*67
06/12/2015	13:08:55.492	$GPGGA,130856,2430.0909,N,08115.8600,W,1,10,1.4,22,M,,M,,*6B
06/12/2015	13:08:56.562	$GPGGA,130857,2430.0911,N,08115.8590,W,1,10,1.5,22,M,,M,,*68
06/12/2015	13:08:57.572	$GPGGA,130858,2430.0915,N,08115.8577,W,1,9,1.8,22,M,,M,,*5F
06/12/2015	13:08:58.572	$GPGGA,130859,2430.0918,N,08115.8565,W,1,9,1.4,22,M,,M,,*5C
06/12/2015	13:08:59.592	$GPGGA,130900,2430.0919,N,08115.8554,W,1,9,1.8,22,M,,M,,*5E
06/12/2015	13:09:00.573	$GPGGA,130901,2430.0925,N,08115.8541,W,1,9,1.8,22,M,,M,,*54
06/12/2015	13:09:01.573	$GPGGA,130902,2430.0927,N,08115.8530,W,1,10,1.4,22,M,,M,,*67
06/12/2015	13:09:02.565	$GPGGA,130903,2430.0929,N,08115.8516,W,1,10,1.4,22,M,,M,,*6C
06/12/2015	13:09:03.573	$GPGGA,130904,2430.0930,N,08115.8505,W,1,10,1.4,22,M,,M,,*61
06/12/2015	13:09:04.556	$GPGGA,130905,2430.0934,N,08115.8495,W,1,10,1.8,21,M,,M,,*63
06/12/2015	13:09:05.593	$GPGGA,130906,2430.0938,N,08115.8482,W,1,10,1.4,21,M,,M,,*66
06/12/2015	13:09:06.562	$GPGGA,130907,2430.0940,N,08115.8470,W,1,10,1.4,21,M,,M,,*65
06/12/2015	13:09:07.602	$GPGGA,130908,2430.0941,N,08115.8458,W,1,10,1.4,21,M,,M,,*61
06/12/2015	13:09:08.553	$GPGGA,130909,2430.0945,N,08115.8446,W,1,10,1.8,21,M,,M,,*67
06/12/2015	13:09:09.532	$GPGGA,130910,2430.0948,N,08115.8436,W,1,10,1.4,21,M,,M,,*69
06/12/2015	13:09:10.560	$GPGGA,130911,2430.0952,N,08115.8423,W,1,10,1.4,21,M,,M,,*67
06/12/2015	13:09:11.542	$GPGGA,130912,2430.0955,N,08115.8410,W,1,10,1.4,21,M,,M,,*63
06/12/2015	13:09:12.542	$GPGGA,130913,2430.0958,N,08115.8398,W,1,10,1.8,21,M,,M,,*64
06/12/2015	13:09:13.523	$GPGGA,130914,2430.0961,N,08115.8387,W,1,10,1.4,21,M,,M,,*6B
06/12/2015	13:09:14.533	$GPGGA,130915,2430.0963,N,08115.8374,W,1,10,1.4,21,M,,M,,*64
06/12/2015	13:09:15.612	$GPGGA,130916,2430.0966,N,08115.8362,W,1,10,1.4,21,M,,M,,*65
06/12/2015	13:09:16.532	$GPGGA,130917,2430.0969,N,08115.8349,W,1,10,1.8,21,M,,M,,*6E
06/12/2015	13:09:17.512	$GPGGA,130918,2430.0970,N,08115.8336,W,1,9,1.8,21,M,,M,,*59
06/12/2015	13:09:18.533	$GPGGA,130919,2430.0973,N,08115.8326,W,1,9,1.4,21,M,,M,,*56
06/12/2015	13:09:19.567	$GPGGA,130920,2430.0977,N,08115.8313,W,1,9,1.8,21,M,,M,,*52
06/12/2015	13:09:20.513	$GPGGA,130921,2430.0980,N,08115.8300,W,1,9,1.8,21,M,,M,,*59
06/12/2015	13:09:21.533	$GPGGA,130922,2430.0981,N,08115.8288,W,1,9,1.8,21,M,,M,,*5A
06/12/2015	13:09:22.503	$GPGGA,130923,2430.0984,N,08115.8274,W,1,9,1.8,21,M,,M,,*5D
06/12/2015	13:09:23.668	$GPGGA,130924,2430.0988,N,08115.8261,W,1,9,1.4,21,M,,M,,*5E
06/12/2015	13:09:24.502	$GPGGA,130925,2430.0992,N,08115.8248,W,1,9,1.4,21,M,,M,,*5F
06/12/2015	13:09:25.502	$GPGGA,130926,2430.0997,N,08115.8232,W,1,9,1.8,20,M,,M,,*59
06/12/2015	13:09:26.502	$GPGGA,130927,2430.0998,N,08115.8222,W,1,9,1.4,20,M,,M,,*5A
06/12/2015	13:09:27.522	$GPGGA,130928,2430.1002,N,08115.8208,W,1,9,1.5,20,M,,M,,*57
06/12/2015	13:09:28.492	$GPGGA,130929,2430.1003,N,08115.8196,W,1,9,1.3,20,M,,M,,*55
06/12/2015	13:09:29.492	$GPGGA,130930,2430.1006,N,08115.8182,W,1,9,1.5,20,M,,M,,*5B
06/12/2015	13:09:30.592	$GPGGA,130931,2430.1012,N,08115.8170,W,1,9,1.4,20,M,,M,,*53
06/12/2015	13:09:31.522	$GPGGA,130932,2430.1016,N,08115.8158,W,1,10,1.4,20,M,,M,,*66
06/12/2015	13:09:32.592	$GPGGA,130933,2430.1019,N,08115.8143,W,1,10,1.4,20,M,,M,,*62
06/12/2015	13:09:33.973	$GPGGA,130934,2430.1021,N,08115.8130,W,1,10,1.4,20,M,,M,,*6A
06/12/2015	13:09:34.592	$GPGGA,130935,2430.1024,N,08115.8116,W,1,10,1.3,20,M,,M,,*6D
06/12/2015	13:09:35.643	$GPGGA,130936,2430.1028,N,08115.8103,W,1,11,1.5,20,M,,M,,*61
06/12/2015	13:09:36.503	$GPGGA,130937,2430.1032,N,08115.8092,W,1,11,1.5,20,M,,M,,*62
06/12/2015	13:09:37.593	$GPGGA,130938,2430.1035,N,08115.8081,W,1,9,1.4,20,M,,M,,*50
06/12/2015	13:09:38.583	$GPGGA,130939,2430.1037,N,08115.8067,W,1,9,1.3,20,M,,M,,*5C
06/12/2015	13:09:39.623	$GPGGA,130940,2430.1042,N,08115.8053,W,1,11,1.4,20,M,,M,,*69
06/12/2015	13:09:40.583	$GPGGA,130941,2430.1046,N,08115.8039,W,1,11,1.3,20,M,,M,,*67
06/12/2015	13:09:41.572	$GPGGA,130942,2430.1049,N,08115.8026,W,1,11,1.4,20,M,,M,,*62
06/12/2015	13:09:42.572	$GPGGA,130943,2430.1053,N,08115.8012,W,1,11,1.5,20,M,,M,,*6E
06/12/2015	13:09:43.602	$GPGGA,130944,2430.1057,N,08115.7998,W,1,9,1.4,20,M,,M,,*51
06/12/2015	13:09:44.563	$GPGGA,130945,2430.1061,N,08115.7983,W,1,9,1.3,20,M,,M,,*58
06/12/2015	13:09:45.592	$GPGGA,130946,2430.1067,N,08115.7970,W,1,11,1.4,20,M,,M,,*6F
06/12/2015	13:09:46.572	$GPGGA,130947,2430.1071,N,08115.7957,W,1,11,1.4,20,M,,M,,*6C
06/12/2015	13:09:47.592	$GPGGA,130948,2430.1074,N,08115.7944,W,1,10,1.5,20,M,,M,,*64
06/12/2015	13:09:48.562	$GPGGA,130949,2430.1078,N,08115.7928,W,1,10,1.5,20,M,,M,,*63
06/12/2015	13:09:49.572	$GPGGA,130950,2430.1084,N,08115.7916,W,1,9,1.4,20,M,,M,,*5C
06/12/2015	13:09:50.553	$GPGGA,130951,2430.1089,N,08115.7905,W,1,9,1.3,20,M,,M,,*55
06/12/2015	13:09:51.582	$GPGGA,130952,2430.1093,N,08115.7889,W,1,11,1.3,20,M,,M,,*61
06/12/2015	13:09:52.552	$GPGGA,130953,2430.1096,N,08115.7876,W,1,11,1.3,21,M,,M,,*64
06/12/2015	13:09:53.553	$GPGGA,130954,2430.1100,N,08115.7867,W,1,11,1.8,21,M,,M,,*66
06/12/2015	13:09:54.555	$GPGGA,130955,2430.1104,N,08115.7856,W,1,11,1.4,21,M,,M,,*6D
06/12/2015	13:09:55.603	$GPGGA,130956,2430.1109,N,08115.7845,W,1,10,1.3,21,M,,M,,*67
06/12/2015	13:09:56.543	$GPGGA,130957,2430.1113,N,08115.7834,W,1,10,1.4,21,M,,M,,*6C
06/12/2015	13:09:57.533	$GPGGA,130958,2430.1115,N,08115.7820,W,1,10,1.4,21,M,,M,,*60
06/12/2015	13:09:58.542	$GPGGA,130959,2430.1121,N,08115.7810,W,1,10,1.5,21,M,,M,,*64
06/12/2015	13:09:59.563	$GPGGA,131000,2430.1126,N,08115.7800,W,1,9,1.4,21,M,,M,,*5F
06/12/2015	13:10:00.542	$GPGGA,131001,2430.1129,N,08115.7787,W,1,9,1.3,21,M,,M,,*56
06/12/2015	13:10:01.522	$GPGGA,131002,2430.1133,N,08115.7775,W,1,11,1.4,21,M,,M,,*6D
06/12/2015	13:10:02.532	$GPGGA,131003,2430.1138,N,08115.7764,W,1,11,1.4,21,M,,M,,*67
06/12/2015	13:10:03.532	$GPGGA,131004,2430.1142,N,08115.7753,W,1,10,1.5,21,M,,M,,*69
06/12/2015	13:10:04.532	$GPGGA,131005,2430.1143,N,08115.7740,W,1,10,1.5,20,M,,M,,*6A
06/12/2015	13:10:05.542	$GPGGA,131006,2430.1147,N,08115.7727,W,1,9,1.4,20,M,,M,,*55
06/12/2015	13:10:06.542	$GPGGA,131007,2430.1153,N,08115.7714,W,1,9,1.4,20,M,,M,,*51
06/12/2015	13:10:07.653	$GPGGA,131008,2430.1154,N,08115.7701,W,1,10,1.4,20,M,,M,,*65
06/12/2015	13:10:08.523	$GPGGA,131009,2430.1157,N,08115.7689,W,1,10,1.3,20,M,,M,,*61
06/12/2015	13:10:09.542	$GPGGA,131010,2430.1161,N,08115.7678,W,1,11,1.3,20,M,,M,,*63
06/12/2015	13:10:10.543	$GPGGA,131011,2430.1169,N,08115.7665,W,1,11,1.4,20,M,,M,,*61
06/12/2015	13:10:11.633	$GPGGA,131012,2430.1171,N,08115.7653,W,1,10,1.4,20,M,,M,,*6F
06/12/2015	13:10:12.613	$GPGGA,131013,2430.1174,N,08115.7639,W,1,10,1.4,20,M,,M,,*67
06/12/2015	13:10:13.623	$GPGGA,131014,2430.1178,N,08115.7625,W,1,11,1.3,20,M,,M,,*67
06/12/2015	13:10:14.533	$GPGGA,131015,2430.1183,N,08115.7614,W,1,11,1.4,20,M,,M,,*67
06/12/2015	13:10:15.643	$GPGGA,131016,2430.1187,N,08115.7602,W,1,10,1.5,20,M,,M,,*67
06/12/2015	13:10:16.592	$GPGGA,131017,2430.1190,N,08115.7586,W,1,10,1.3,20,M,,M,,*69
06/12/2015	13:10:17.602	$GPGGA,131018,2430.1194,N,08115.7572,W,1,11,1.3,20,M,,M,,*68
06/12/2015	13:10:18.522	$GPGGA,131019,2430.1198,N,08115.7564,W,1,11,1.4,20,M,,M,,*65
06/12/2015	13:10:19.542	$GPGGA,131020,2430.1203,N,08115.7553,W,1,10,1.8,20,M,,M,,*67
06/12/2015	13:10:20.592	$GPGGA,131021,2430.1207,N,08115.7536,W,1,10,1.8,20,M,,M,,*61
06/12/2015	13:10:21.582	$GPGGA,131022,2430.1209,N,08115.7522,W,1,11,1.3,20,M,,M,,*63
06/12/2015	13:10:22.582	$GPGGA,131023,2430.1216,N,08115.7512,W,1,11,1.3,20,M,,M,,*6F
06/12/2015	13:10:23.592	$GPGGA,131024,2430.1221,N,08115.7502,W,1,11,1.3,20,M,,M,,*6D
06/12/2015	13:10:24.502	$GPGGA,131025,2430.1222,N,08115.7491,W,1,11,1.8,20,M,,M,,*6F
06/12/2015	13:10:25.602	$GPGGA,131026,2430.1226,N,08115.7476,W,1,9,1.4,20,M,,M,,*54
06/12/2015	13:10:26.569	$GPGGA,131027,2430.1229,N,08115.7467,W,1,9,1.4,20,M,,M,,*5A
06/12/2015	13:10:27.612	$GPGGA,131028,2430.1232,N,08115.7457,W,1,9,1.8,20,M,,M,,*50
06/12/2015	13:10:28.573	$GPGGA,131029,2430.1234,N,08115.7448,W,1,9,1.4,20,M,,M,,*55
06/12/2015	13:10:29.555	$GPGGA,131030,2430.1237,N,08115.7436,W,1,9,1.8,20,M,,M,,*5B
06/12/2015	13:10:30.565	$GPGGA,131031,2430.1241,N,08115.7424,W,1,9,1.8,20,M,,M,,*58
06/12/2015	13:10:31.583	$GPGGA,131032,2430.1244,N,08115.7415,W,1,10,1.4,20,M,,M,,*68
06/12/2015	13:10:32.566	$GPGGA,131033,2430.1247,N,08115.7404,W,1,10,1.4,20,M,,M,,*6A
06/12/2015	13:10:33.552	$GPGGA,131034,2430.1251,N,08115.7391,W,1,10,1.4,19,M,,M,,*6B
06/12/2015	13:10:34.569	$GPGGA,131035,2430.1254,N,08115.7380,W,1,10,1.4,19,M,,M,,*6F
06/12/2015	13:10:35.642	$GPGGA,131036,2430.1255,N,08115.7367,W,1,10,1.4,19,M,,M,,*64
06/12/2015	13:10:36.565	$GPGGA,131037,2430.1259,N,08115.7355,W,1,10,1.4,19,M,,M,,*68
06/12/2015	13:10:37.542	$GPGGA,131038,2430.1263,N,08115.7344,W,1,10,1.4,19,M,,M,,*6E
06/12/2015	13:10:38.553	$GPGGA,131039,2430.1268,N,08115.7331,W,1,10,1.3,19,M,,M,,*61
06/12/2015	13:10:39.592	$GPGGA,131040,2430.1270,N,08115.7317,W,1,10,1.4,19,M,,M,,*65
06/12/2015	13:10:40.555	$GPGGA,131041,2430.1270,N,08115.7307,W,1,10,1.4,19,M,,M,,*65
06/12/2015	13:10:41.556	$GPGGA,131042,2430.1277,N,08115.7297,W,1,10,1.4,19,M,,M,,*69
06/12/2015	13:10:42.532	$GPGGA,131043,2430.1280,N,08115.7284,W,1,10,1.3,19,M,,M,,*65
06/12/2015	13:10:43.561	$GPGGA,131044,2430.1281,N,08115.7272,W,1,10,1.4,19,M,,M,,*6D
06/12/2015	13:10:44.542	$GPGGA,131045,2430.1284,N,08115.7260,W,1,10,1.4,19,M,,M,,*6A
06/12/2015	13:10:45.563	$GPGGA,131046,2430.1290,N,08115.7249,W,1,10,1.4,19,M,,M,,*67
06/12/2015	13:10:46.523	$GPGGA,131047,2430.1292,N,08115.7236,W,1,10,1.4,19,M,,M,,*6C
06/12/2015	13:10:47.555	$GPGGA,131048,2430.1295,N,08115.7225,W,1,10,1.4,19,M,,M,,*66
06/12/2015	13:10:48.523	$GPGGA,131049,2430.1298,N,08115.7212,W,1,10,1.4,19,M,,M,,*6E
06/12/2015	13:10:49.573	$GPGGA,131050,2430.1299,N,08115.7200,W,1,10,1.4,18,M,,M,,*65
06/12/2015	13:10:50.533	$GPGGA,131051,2430.1305,N,08115.7186,W,1,10,1.8,18,M,,M,,*61
06/12/2015	13:10:51.522	$GPGGA,131052,2430.1308,N,08115.7175,W,1,10,1.4,18,M,,M,,*6F
06/12/2015	13:10:52.542	$GPGGA,131053,2430.1310,N,08115.7159,W,1,10,1.4,18,M,,M,,*69
06/12/2015	13:10:53.555	$GPGGA,131054,2430.1313,N,08115.7145,W,1,10,1.4,18,M,,M,,*60
06/12/2015	13:10:54.522	$GPGGA,131055,2430.1319,N,08115.7133,W,1,10,1.4,18,M,,M,,*6A
06/12/2015	13:10:55.572	$GPGGA,131056,2430.1323,N,08115.7119,W,1,10,1.4,18,M,,M,,*68
06/12/2015	13:10:56.513	$GPGGA,131057,2430.1324,N,08115.7107,W,1,10,1.4,19,M,,M,,*60
06/12/2015	13:10:57.555	$GPGGA,131058,2430.1326,N,08115.7097,W,1,9,1.8,19,M,,M,,*51
06/12/2015	13:10:58.492	$GPGGA,131059,2430.1330,N,08115.7087,W,1,9,1.8,19,M,,M,,*56
06/12/2015	13:10:59.665	$GPGGA,131100,2430.1334,N,08115.7075,W,1,9,1.8,19,M,,M,,*52
06/12/2015	13:11:00.612	$GPGGA,131101,2430.1335,N,08115.7064,W,1,9,1.4,19,M,,M,,*5E
06/12/2015	13:11:01.492	$GPGGA,131102,2430.1337,N,08115.7053,W,1,9,1.5,19,M,,M,,*5A
06/12/2015	13:11:02.592	$GPGGA,131103,2430.1341,N,08115.7040,W,1,9,1.9,19,M,,M,,*54
06/12/2015	13:11:03.613	$GPGGA,131104,2430.1345,N,08115.7026,W,1,9,1.5,19,M,,M,,*5B
06/12/2015	13:11:04.493	$GPGGA,131105,2430.1349,N,08115.7014,W,1,9,1.4,19,M,,M,,*56
06/12/2015	13:11:05.593	$GPGGA,131106,2430.1352,N,08115.7000,W,1,10,1.4,19,M,,M,,*62
06/12/2015	13:11:06.503	$GPGGA,131107,2430.1355,N,08115.6985,W,1,10,1.4,19,M,,M,,*61
06/12/2015	13:11:07.603	$GPGGA,131108,2430.1357,N,08115.6974,W,1,10,1.4,19,M,,M,,*62
06/12/2015	13:11:08.582	$GPGGA,131109,2430.1363,N,08115.6963,W,1,10,1.9,19,M,,M,,*6F
06/12/2015	13:11:09.482	$GPGGA,131110,2430.1366,N,08115.6951,W,1,10,1.4,19,M,,M,,*6E
06/12/2015	13:11:10.582	$GPGGA,131111,2430.1368,N,08115.6936,W,1,10,1.8,19,M,,M,,*6C
06/12/2015	13:11:11.583	$GPGGA,131112,2430.1373,N,08115.6923,W,1,11,1.3,19,M,,M,,*6B
06/12/2015	13:11:12.482	$GPGGA,131113,2430.1378,N,08115.6911,W,1,11,1.4,19,M,,M,,*67
06/12/2015	13:11:13.572	$GPGGA,131114,2430.1382,N,08115.6899,W,1,10,1.4,19,M,,M,,*65
06/12/2015	13:11:14.582	$GPGGA,131115,2430.1382,N,08115.6887,W,1,10,1.5,19,M,,M,,*6A
06/12/2015	13:11:15.632	$GPGGA,131116,2430.1386,N,08115.6875,W,1,11,1.3,19,M,,M,,*67
06/12/2015	13:11:16.572	$GPGGA,131117,2430.1389,N,08115.6862,W,1,11,1.3,20,M,,M,,*65
06/12/2015	13:11:17.582	$GPGGA,131118,2430.1392,N,08115.6850,W,1,11,1.3,20,M,,M,,*61
06/12/2015	13:11:18.565	$GPGGA,131119,2430.1396,N,08115.6838,W,1,11,1.3,20,M,,M,,*6A
06/12/2015	13:11:19.592	$GPGGA,131120,2430.1400,N,08115.6826,W,1,11,1.3,20,M,,M,,*67
06/12/2015	13:11:20.564	$GPGGA,131121,2430.1402,N,08115.6812,W,1,11,1.3,20,M,,M,,*63
06/12/2015	13:11:21.560	$GPGGA,131122,2430.1404,N,08115.6800,W,1,11,1.3,20,M,,M,,*65
06/12/2015	13:11:22.554	$GPGGA,131123,2430.1410,N,08115.6788,W,1,11,1.4,20,M,,M,,*69
06/12/2015	13:11:23.593	$GPGGA,131124,2430.1415,N,08115.6776,W,1,10,1.4,21,M,,M,,*6A
06/12/2015	13:11:24.567	$GPGGA,131125,2430.1420,N,08115.6763,W,1,10,1.3,21,M,,M,,*6E
06/12/2015	13:11:25.583	$GPGGA,131126,2430.1422,N,08115.6749,W,1,11,1.3,21,M,,M,,*66
06/12/2015	13:11:26.565	$GPGGA,131127,2430.1428,N,08115.6736,W,1,11,1.3,21,M,,M,,*65
06/12/2015	13:11:27.564	$GPGGA,131128,2430.1433,N,08115.6723,W,1,11,1.3,21,M,,M,,*64
06/12/2015	13:11:28.542	$GPGGA,131129,2430.1436,N,08115.6710,W,1,11,1.3,21,M,,M,,*60
06/12/2015	13:11:29.560	$GPGGA,131130,2430.1439,N,08115.6697,W,1,11,1.3,21,M,,M,,*69
06/12/2015	13:11:31.592	$GPGGA,131132,2430.1449,N,08115.6671,W,1,11,1.3,21,M,,M,,*64
06/12/2015	13:11:32.542	$GPGGA,131133,2430.1453,N,08115.6657,W,1,11,1.3,21,M,,M,,*6A
06/12/2015	13:11:33.532	$GPGGA,131134,2430.1456,N,08115.6645,W,1,10,1.4,21,M,,M,,*6D
06/12/2015	13:11:34.542	$GPGGA,131135,2430.1460,N,08115.6631,W,1,10,1.4,21,M,,M,,*6A
06/12/2015	13:11:35.653	$GPGGA,131136,2430.1462,N,08115.6617,W,1,10,1.4,21,M,,M,,*6F
06/12/2015	13:11:36.532	$GPGGA,131137,2430.1468,N,08115.6608,W,1,10,1.3,22,M,,M,,*6E
06/12/2015	13:11:37.532	$GPGGA,131138,2430.1472,N,08115.6596,W,1,9,1.5,22,M,,M,,*50
06/12/2015	13:11:38.513	$GPGGA,131139,2430.1476,N,08115.6581,W,1,9,1.4,22,M,,M,,*52
06/12/2015	13:11:39.657	$GPGGA,131140,2430.1480,N,08115.6568,W,1,10,1.4,22,M,,M,,*6A
06/12/2015	13:11:40.523	$GPGGA,131141,2430.1486,N,08115.6558,W,1,10,1.3,22,M,,M,,*69
06/12/2015	13:11:41.623	$GPGGA,131142,2430.1489,N,08115.6546,W,1,9,1.8,22,M,,M,,*59
06/12/2015	13:11:42.503	$GPGGA,131143,2430.1493,N,08115.6533,W,1,9,1.4,22,M,,M,,*5D
06/12/2015	13:11:43.653	$GPGGA,131144,2430.1497,N,08115.6518,W,1,10,1.4,21,M,,M,,*6C
06/12/2015	13:11:44.622	$GPGGA,131145,2430.1501,N,08115.6508,W,1,10,1.3,21,M,,M,,*65
