Software Version Number: 1	Data File Format Number: 1	Build Version Number: 1	Error Count Since VI Started: 3	Manufacturer: Raytheon	 Model Number: RayMarine 120	 S/N: 	 Cal Date: 	 Wind Direction Offset: 0.00	 Slope (M)1: 0.00	 Offset (B)1: 0.00	 Slope (M)2: 0.00	 Offset (B)2: 0.00	 Slope (M)3: 0.00	 Offset (B)3: 0.00	 Slope (M)4: 0.00	 Offset (B)4: 0.00	 Slope (M)5: 0.00	 Offset (B)5: 0.00	 Slope (M)6: 0.00	 Offset (B)6: 0.00
Computer Date	Computer Time	GGA String
06/24/2015	03:00:00.577	$GPGGA,030001,2526.5533,N,08005.6806,W,1,9,1.8,18,M,,M,,*5D
06/24/2015	03:00:01.606	$GPGGA,030002,2526.5526,N,08005.6810,W,1,9,1.8,18,M,,M,,*5D
06/24/2015	03:00:02.586	$GPGGA,030003,2526.5515,N,08005.6811,W,1,9,1.8,17,M,,M,,*52
06/24/2015	03:00:03.616	$GPGGA,030004,2526.5508,N,08005.6814,W,1,9,1.8,17,M,,M,,*5C
06/24/2015	03:00:04.586	$GPGGA,030005,2526.5499,N,08005.6819,W,1,9,1.8,17,M,,M,,*59
06/24/2015	03:00:05.586	$GPGGA,030006,2526.5490,N,08005.6819,W,1,9,1.8,17,M,,M,,*53
06/24/2015	03:00:06.576	$GPGGA,030007,2526.5481,N,08005.6822,W,1,9,3.9,17,M,,M,,*59
06/24/2015	03:00:07.606	$GPGGA,030008,2526.5472,N,08005.6828,W,1,9,1.8,17,M,,M,,*53
06/24/2015	03:00:08.559	$GPGGA,030009,2526.5463,N,08005.6831,W,1,9,1.8,17,M,,M,,*5A
06/24/2015	03:00:09.606	$GPGGA,030010,2526.5453,N,08005.6832,W,1,9,1.8,17,M,,M,,*52
06/24/2015	03:00:10.567	$GPGGA,030011,2526.5444,N,08005.6837,W,1,9,1.8,17,M,,M,,*50
06/24/2015	03:00:11.576	$GPGGA,030012,2526.5435,N,08005.6842,W,1,9,1.8,17,M,,M,,*57
06/24/2015	03:00:12.559	$GPGGA,030013,2526.5426,N,08005.6843,W,1,9,1.8,17,M,,M,,*55
06/24/2015	03:00:13.550	$GPGGA,030014,2526.5416,N,08005.6846,W,1,9,1.8,17,M,,M,,*54
06/24/2015	03:00:14.547	$GPGGA,030015,2526.5407,N,08005.6850,W,1,9,1.8,17,M,,M,,*52
06/24/2015	03:00:15.586	$GPGGA,030016,2526.5397,N,08005.6853,W,1,9,1.8,17,M,,M,,*5C
06/24/2015	03:00:16.536	$GPGGA,030017,2526.5388,N,08005.6855,W,1,9,1.8,17,M,,M,,*55
06/24/2015	03:00:17.566	$GPGGA,030018,2526.5378,N,08005.6858,W,1,9,1.8,17,M,,M,,*58
06/24/2015	03:00:18.535	$GPGGA,030019,2526.5369,N,08005.6861,W,1,9,1.8,18,M,,M,,*5C
06/24/2015	03:00:19.565	$GPGGA,030020,2526.5360,N,08005.6864,W,1,9,1.8,18,M,,M,,*5A
06/24/2015	03:00:20.535	$GPGGA,030021,2526.5351,N,08005.6866,W,1,9,1.8,18,M,,M,,*5B
06/24/2015	03:00:21.525	$GPGGA,030022,2526.5342,N,08005.6868,W,1,9,1.8,18,M,,M,,*54
06/24/2015	03:00:22.535	$GPGGA,030023,2526.5333,N,08005.6871,W,1,9,1.8,18,M,,M,,*5B
06/24/2015	03:00:23.525	$GPGGA,030024,2526.5324,N,08005.6873,W,1,9,1.8,18,M,,M,,*58
06/24/2015	03:00:24.515	$GPGGA,030025,2526.5316,N,08005.6875,W,1,9,1.8,18,M,,M,,*5E
06/24/2015	03:00:25.525	$GPGGA,030026,2526.5306,N,08005.6878,W,1,9,1.8,18,M,,M,,*51
06/24/2015	03:00:26.505	$GPGGA,030027,2526.5298,N,08005.6879,W,1,9,1.8,18,M,,M,,*57
06/24/2015	03:00:27.555	$GPGGA,030028,2526.5288,N,08005.6880,W,1,9,1.8,18,M,,M,,*5F
06/24/2015	03:00:28.506	$GPGGA,030029,2526.5280,N,08005.6882,W,1,9,1.8,19,M,,M,,*55
06/24/2015	03:00:29.526	$GPGGA,030030,2526.5270,N,08005.6884,W,1,9,1.8,19,M,,M,,*54
06/24/2015	03:00:30.516	$GPGGA,030031,2526.5262,N,08005.6886,W,1,9,1.8,19,M,,M,,*54
06/24/2015	03:00:31.550	$GPGGA,030032,2526.5253,N,08005.6889,W,1,9,1.8,19,M,,M,,*5A
06/24/2015	03:00:32.506	$GPGGA,030033,2526.5244,N,08005.6889,W,1,9,1.8,19,M,,M,,*5D
06/24/2015	03:00:33.626	$GPGGA,030034,2526.5235,N,08005.6891,W,1,9,1.8,19,M,,M,,*55
06/24/2015	03:00:34.506	$GPGGA,030035,2526.5226,N,08005.6893,W,1,9,1.8,19,M,,M,,*54
06/24/2015	03:00:35.626	$GPGGA,030036,2526.5217,N,08005.6895,W,1,9,1.8,19,M,,M,,*53
06/24/2015	03:00:36.595	$GPGGA,030037,2526.5208,N,08005.6897,W,1,9,1.8,19,M,,M,,*5E
06/24/2015	03:00:37.505	$GPGGA,030038,2526.5199,N,08005.6898,W,1,9,1.8,19,M,,M,,*55
06/24/2015	03:00:38.485	$GPGGA,030039,2526.5190,N,08005.6900,W,1,9,1.8,19,M,,M,,*5D
06/24/2015	03:00:39.535	$GPGGA,030040,2526.5181,N,08005.6902,W,1,9,1.8,19,M,,M,,*51
06/24/2015	03:00:40.485	$GPGGA,030041,2526.5172,N,08005.6904,W,1,9,1.8,19,M,,M,,*5A
06/24/2015	03:00:41.506	$GPGGA,030042,2526.5163,N,08005.6904,W,1,9,1.8,19,M,,M,,*59
06/24/2015	03:00:42.495	$GPGGA,030043,2526.5154,N,08005.6907,W,1,9,1.8,19,M,,M,,*5F
06/24/2015	03:00:43.605	$GPGGA,030044,2526.5145,N,08005.6908,W,1,9,1.8,19,M,,M,,*57
06/24/2015	03:00:44.475	$GPGGA,030045,2526.5136,N,08005.6909,W,1,9,1.8,19,M,,M,,*53
06/24/2015	03:00:45.596	$GPGGA,030046,2526.5127,N,08005.6911,W,1,9,1.8,19,M,,M,,*59
06/24/2015	03:00:46.570	$GPGGA,030047,2526.5118,N,08005.6913,W,1,9,1.8,19,M,,M,,*56
06/24/2015	03:00:47.586	$GPGGA,030048,2526.5110,N,08005.6915,W,1,9,1.8,19,M,,M,,*57
06/24/2015	03:00:48.476	$GPGGA,030049,2526.5100,N,08005.6916,W,1,9,1.8,19,M,,M,,*54
06/24/2015	03:00:49.576	$GPGGA,030050,2526.5092,N,08005.6918,W,1,9,1.8,19,M,,M,,*58
06/24/2015	03:00:50.576	$GPGGA,030051,2526.5083,N,08005.6920,W,1,9,1.8,19,M,,M,,*52
06/24/2015	03:00:51.576	$GPGGA,030052,2526.5074,N,08005.6922,W,1,9,1.8,18,M,,M,,*5A
06/24/2015	03:00:52.566	$GPGGA,030053,2526.5065,N,08005.6923,W,1,9,1.8,18,M,,M,,*5A
06/24/2015	03:00:53.585	$GPGGA,030054,2526.5057,N,08005.6926,W,1,9,1.8,18,M,,M,,*59
06/24/2015	03:00:54.562	$GPGGA,030055,2526.5049,N,08005.6926,W,1,9,1.8,18,M,,M,,*57
06/24/2015	03:00:55.585	$GPGGA,030056,2526.5039,N,08005.6927,W,1,9,1.8,18,M,,M,,*52
06/24/2015	03:00:56.560	$GPGGA,030057,2526.5031,N,08005.6930,W,1,9,1.8,18,M,,M,,*5D
06/24/2015	03:00:57.575	$GPGGA,030058,2526.5022,N,08005.6933,W,1,9,1.8,18,M,,M,,*53
06/24/2015	03:00:58.562	$GPGGA,030059,2526.5013,N,08005.6933,W,1,9,1.8,18,M,,M,,*50
06/24/2015	03:00:59.595	$GPGGA,030100,2526.5003,N,08005.6934,W,1,9,1.8,18,M,,M,,*5B
06/24/2015	03:01:00.562	$GPGGA,030101,2526.4995,N,08005.6937,W,1,9,1.8,18,M,,M,,*5E
06/24/2015	03:01:01.548	$GPGGA,030102,2526.4986,N,08005.6940,W,1,9,1.8,18,M,,M,,*5F
06/24/2015	03:01:02.545	$GPGGA,030103,2526.4977,N,08005.6939,W,1,9,1.8,18,M,,M,,*5E
06/24/2015	03:01:03.586	$GPGGA,030104,2526.4968,N,08005.6943,W,1,9,1.8,18,M,,M,,*5A
06/24/2015	03:01:04.549	$GPGGA,030105,2526.4959,N,08005.6945,W,1,9,1.8,18,M,,M,,*5F
06/24/2015	03:01:05.562	$GPGGA,030106,2526.4949,N,08005.6947,W,1,9,1.8,18,M,,M,,*5F
06/24/2015	03:01:06.526	$GPGGA,030107,2526.4941,N,08005.6947,W,1,9,1.8,18,M,,M,,*56
06/24/2015	03:01:07.566	$GPGGA,030108,2526.4932,N,08005.6951,W,1,9,1.8,18,M,,M,,*5A
06/24/2015	03:01:08.526	$GPGGA,030109,2526.4923,N,08005.6952,W,1,9,1.8,18,M,,M,,*58
06/24/2015	03:01:09.557	$GPGGA,030110,2526.4915,N,08005.6954,W,1,9,1.8,18,M,,M,,*53
06/24/2015	03:01:10.526	$GPGGA,030111,2526.4905,N,08005.6956,W,1,9,1.8,18,M,,M,,*51
06/24/2015	03:01:11.558	$GPGGA,030112,2526.4895,N,08005.6958,W,1,9,1.8,18,M,,M,,*54
06/24/2015	03:01:12.515	$GPGGA,030113,2526.4886,N,08005.6959,W,1,9,1.8,18,M,,M,,*56
06/24/2015	03:01:13.847	$GPGGA,030114,2526.4877,N,08005.6962,W,1,9,1.8,18,M,,M,,*57
06/24/2015	03:01:14.535	$GPGGA,030115,2526.4868,N,08005.6965,W,1,9,1.8,18,M,,M,,*5F
06/24/2015	03:01:15.555	$GPGGA,030116,2526.4859,N,08005.6966,W,1,9,1.8,18,M,,M,,*5D
06/24/2015	03:01:16.505	$GPGGA,030117,2526.4850,N,08005.6967,W,1,9,1.8,18,M,,M,,*54
06/24/2015	03:01:17.547	$GPGGA,030118,2526.4841,N,08005.6969,W,1,9,1.8,18,M,,M,,*55
06/24/2015	03:01:18.515	$GPGGA,030119,2526.4833,N,08005.6973,W,1,9,1.8,18,M,,M,,*5A
06/24/2015	03:01:19.555	$GPGGA,030120,2526.4825,N,08005.6974,W,1,9,1.8,18,M,,M,,*50
06/24/2015	03:01:20.516	$GPGGA,030121,2526.4814,N,08005.6974,W,1,9,1.8,18,M,,M,,*53
06/24/2015	03:01:21.549	$GPGGA,030122,2526.4807,N,08005.6980,W,1,9,1.8,18,M,,M,,*59
06/24/2015	03:01:22.516	$GPGGA,030123,2526.4798,N,08005.6983,W,1,9,1.8,18,M,,M,,*52
06/24/2015	03:01:23.548	$GPGGA,030124,2526.4789,N,08005.6982,W,1,9,1.8,18,M,,M,,*54
06/24/2015	03:01:24.516	$GPGGA,030125,2526.4779,N,08005.6984,W,1,9,1.8,18,M,,M,,*5C
06/24/2015	03:01:25.506	$GPGGA,030126,2526.4772,N,08005.6991,W,1,9,1.8,18,M,,M,,*50
06/24/2015	03:01:26.496	$GPGGA,030127,2526.4764,N,08005.6994,W,1,9,1.8,18,M,,M,,*53
06/24/2015	03:01:27.659	$GPGGA,030128,2526.4754,N,08005.6993,W,1,9,1.8,18,M,,M,,*58
06/24/2015	03:01:28.595	$GPGGA,030129,2526.4746,N,08005.6998,W,1,9,1.8,18,M,,M,,*51
06/24/2015	03:01:29.485	$GPGGA,030130,2526.4739,N,08005.7002,W,1,9,1.8,18,M,,M,,*5A
06/24/2015	03:01:30.605	$GPGGA,030131,2526.4731,N,08005.7003,W,1,9,1.8,18,M,,M,,*52
06/24/2015	03:01:31.615	$GPGGA,030132,2526.4722,N,08005.7006,W,1,9,1.8,18,M,,M,,*56
06/24/2015	03:01:32.575	$GPGGA,030133,2526.4714,N,08005.7010,W,1,9,1.8,18,M,,M,,*55
06/24/2015	03:01:33.585	$GPGGA,030134,2526.4706,N,08005.7013,W,1,9,1.8,18,M,,M,,*52
06/24/2015	03:01:34.575	$GPGGA,030135,2526.4697,N,08005.7014,W,1,9,1.8,18,M,,M,,*5D
06/24/2015	03:01:35.585	$GPGGA,030136,2526.4689,N,08005.7017,W,1,9,1.8,17,M,,M,,*5D
06/24/2015	03:01:36.485	$GPGGA,030137,2526.4681,N,08005.7021,W,1,9,1.8,17,M,,M,,*51
06/24/2015	03:01:38.036	$GPGGA,030138,2526.4673,N,08005.7024,W,1,9,1.8,17,M,,M,,*56
06/24/2015	03:01:38.476	$GPGGA,030139,2526.4662,N,08005.7024,W,1,9,1.8,17,M,,M,,*57
06/24/2015	03:01:39.576	$GPGGA,030140,2526.4655,N,08005.7027,W,1,9,1.8,17,M,,M,,*5E
06/24/2015	03:01:40.566	$GPGGA,030141,2526.4648,N,08005.7034,W,1,9,1.8,17,M,,M,,*51
06/24/2015	03:01:41.562	$GPGGA,030142,2526.4638,N,08005.7034,W,1,9,1.8,17,M,,M,,*55
06/24/2015	03:01:42.566	$GPGGA,030143,2526.4630,N,08005.7034,W,1,9,1.8,17,M,,M,,*5C
06/24/2015	03:01:43.566	$GPGGA,030144,2526.4622,N,08005.7039,W,1,8,3.9,17,M,,M,,*57
06/24/2015	03:01:44.566	$GPGGA,030145,2526.4613,N,08005.7043,W,1,8,1.8,17,M,,M,,*5A
06/24/2015	03:01:45.586	$GPGGA,030146,2526.4605,N,08005.7042,W,1,9,1.8,17,M,,M,,*5E
06/24/2015	03:01:46.562	$GPGGA,030147,2526.4598,N,08005.7045,W,1,9,3.9,17,M,,M,,*5C
06/24/2015	03:01:47.595	$GPGGA,030148,2526.4590,N,08005.7049,W,1,8,3.9,17,M,,M,,*56
06/24/2015	03:01:48.559	$GPGGA,030149,2526.4580,N,08005.7052,W,1,8,1.8,17,M,,M,,*5F
06/24/2015	03:01:49.547	$GPGGA,030150,2526.4572,N,08005.7053,W,1,9,1.8,17,M,,M,,*5A
06/24/2015	03:01:50.545	$GPGGA,030151,2526.4563,N,08005.7057,W,1,9,1.8,17,M,,M,,*5F
06/24/2015	03:01:51.585	$GPGGA,030152,2526.4554,N,08005.7060,W,1,9,1.8,17,M,,M,,*5C
06/24/2015	03:01:52.561	$GPGGA,030153,2526.4544,N,08005.7061,W,1,9,1.8,17,M,,M,,*5D
06/24/2015	03:01:53.535	$GPGGA,030154,2526.4536,N,08005.7064,W,1,9,1.8,17,M,,M,,*5A
06/24/2015	03:01:54.548	$GPGGA,030155,2526.4529,N,08005.7068,W,1,9,1.8,17,M,,M,,*59
06/24/2015	03:01:55.566	$GPGGA,030156,2526.4518,N,08005.7070,W,1,9,1.8,17,M,,M,,*51
06/24/2015	03:01:56.526	$GPGGA,030157,2526.4509,N,08005.7070,W,1,9,1.8,17,M,,M,,*50
06/24/2015	03:01:57.563	$GPGGA,030158,2526.4500,N,08005.7074,W,1,9,1.8,17,M,,M,,*52
06/24/2015	03:01:58.526	$GPGGA,030159,2526.4491,N,08005.7077,W,1,9,1.8,17,M,,M,,*59
06/24/2015	03:01:59.566	$GPGGA,030200,2526.4482,N,08005.7078,W,1,9,1.8,17,M,,M,,*5B
06/24/2015	03:02:00.516	$GPGGA,030201,2526.4473,N,08005.7079,W,1,9,1.8,17,M,,M,,*55
06/24/2015	03:02:01.526	$GPGGA,030202,2526.4464,N,08005.7082,W,1,9,1.8,17,M,,M,,*54
06/24/2015	03:02:02.526	$GPGGA,030203,2526.4455,N,08005.7085,W,1,9,1.8,17,M,,M,,*50
06/24/2015	03:02:03.545	$GPGGA,030204,2526.4446,N,08005.7085,W,1,9,1.8,17,M,,M,,*55
06/24/2015	03:02:04.525	$GPGGA,030205,2526.4437,N,08005.7086,W,1,9,1.8,17,M,,M,,*51
06/24/2015	03:02:05.525	$GPGGA,030206,2526.4427,N,08005.7089,W,1,9,1.8,17,M,,M,,*5C
06/24/2015	03:02:06.505	$GPGGA,030207,2526.4418,N,08005.7092,W,1,9,1.8,18,M,,M,,*54
06/24/2015	03:02:07.546	$GPGGA,030208,2526.4409,N,08005.7091,W,1,9,1.8,18,M,,M,,*58
06/24/2015	03:02:08.505	$GPGGA,030209,2526.4399,N,08005.7093,W,1,9,1.8,18,M,,M,,*55
06/24/2015	03:02:09.547	$GPGGA,030210,2526.4390,N,08005.7095,W,1,9,1.8,18,M,,M,,*52
06/24/2015	03:02:10.505	$GPGGA,030211,2526.4381,N,08005.7096,W,1,9,1.8,18,M,,M,,*50
06/24/2015	03:02:11.525	$GPGGA,030212,2526.4371,N,08005.7097,W,1,9,1.8,18,M,,M,,*5D
06/24/2015	03:02:12.595	$GPGGA,030213,2526.4362,N,08005.7099,W,1,9,1.8,18,M,,M,,*50
06/24/2015	03:02:13.516	$GPGGA,030214,2526.4353,N,08005.7100,W,1,9,1.8,18,M,,M,,*54
06/24/2015	03:02:14.506	$GPGGA,030215,2526.4344,N,08005.7103,W,1,9,1.8,18,M,,M,,*50
06/24/2015	03:02:15.626	$GPGGA,030216,2526.4334,N,08005.7103,W,1,9,1.8,18,M,,M,,*54
06/24/2015	03:02:16.496	$GPGGA,030217,2526.4325,N,08005.7104,W,1,9,1.8,18,M,,M,,*52
06/24/2015	03:02:17.586	$GPGGA,030218,2526.4316,N,08005.7106,W,1,9,1.8,18,M,,M,,*5F
06/24/2015	03:02:18.586	$GPGGA,030219,2526.4307,N,08005.7107,W,1,9,1.8,18,M,,M,,*5F
06/24/2015	03:02:19.516	$GPGGA,030220,2526.4297,N,08005.7108,W,1,9,1.8,19,M,,M,,*53
06/24/2015	03:02:20.486	$GPGGA,030221,2526.4288,N,08005.7110,W,1,9,1.8,19,M,,M,,*55
06/24/2015	03:02:21.935	$GPGGA,030222,2526.4278,N,08005.7111,W,1,9,1.8,19,M,,M,,*58
06/24/2015	03:02:22.575	$GPGGA,030223,2526.4269,N,08005.7113,W,1,9,1.8,19,M,,M,,*5B
06/24/2015	03:02:23.505	$GPGGA,030224,2526.4260,N,08005.7114,W,1,9,1.8,19,M,,M,,*52
06/24/2015	03:02:24.575	$GPGGA,030225,2526.4251,N,08005.7115,W,1,9,1.8,19,M,,M,,*50
06/24/2015	03:02:25.475	$GPGGA,030226,2526.4241,N,08005.7117,W,1,9,1.8,19,M,,M,,*50
06/24/2015	03:02:26.575	$GPGGA,030227,2526.4232,N,08005.7120,W,1,9,1.8,19,M,,M,,*51
06/24/2015	03:02:27.605	$GPGGA,030228,2526.4223,N,08005.7121,W,1,9,1.8,19,M,,M,,*5F
06/24/2015	03:02:28.560	$GPGGA,030229,2526.4214,N,08005.7121,W,1,9,1.8,19,M,,M,,*5A
06/24/2015	03:02:29.571	$GPGGA,030230,2526.4205,N,08005.7124,W,1,9,1.8,19,M,,M,,*57
06/24/2015	03:02:30.562	$GPGGA,030231,2526.4196,N,08005.7128,W,1,9,1.8,19,M,,M,,*53
06/24/2015	03:02:31.566	$GPGGA,030232,2526.4187,N,08005.7129,W,1,9,1.8,19,M,,M,,*51
06/24/2015	03:02:32.576	$GPGGA,030233,2526.4178,N,08005.7131,W,1,9,1.8,19,M,,M,,*59
06/24/2015	03:02:33.586	$GPGGA,030234,2526.4169,N,08005.7133,W,1,9,1.8,19,M,,M,,*5C
06/24/2015	03:02:34.564	$GPGGA,030235,2526.4160,N,08005.7136,W,1,9,1.8,19,M,,M,,*51
06/24/2015	03:02:35.886	$GPGGA,030236,2526.4153,N,08005.7137,W,1,9,1.8,19,M,,M,,*53
06/24/2015	03:02:36.559	$GPGGA,030237,2526.4143,N,08005.7139,W,1,9,1.8,19,M,,M,,*5D
06/24/2015	03:02:37.565	$GPGGA,030238,2526.4135,N,08005.7142,W,1,9,1.8,19,M,,M,,*5F
06/24/2015	03:02:38.549	$GPGGA,030239,2526.4125,N,08005.7146,W,1,9,1.8,18,M,,M,,*5A
06/24/2015	03:02:39.615	$GPGGA,030240,2526.4117,N,08005.7146,W,1,9,1.8,18,M,,M,,*55
06/24/2015	03:02:40.536	$GPGGA,030241,2526.4107,N,08005.7147,W,1,9,1.8,18,M,,M,,*54
06/24/2015	03:02:41.565	$GPGGA,030242,2526.4099,N,08005.7151,W,1,9,1.8,18,M,,M,,*56
06/24/2015	03:02:42.535	$GPGGA,030243,2526.4090,N,08005.7155,W,1,9,1.8,18,M,,M,,*5A
06/24/2015	03:02:43.566	$GPGGA,030244,2526.4081,N,08005.7157,W,1,9,1.8,18,M,,M,,*5F
06/24/2015	03:02:44.535	$GPGGA,030245,2526.4072,N,08005.7158,W,1,9,1.8,18,M,,M,,*5D
06/24/2015	03:02:45.555	$GPGGA,030246,2526.4063,N,08005.7161,W,1,9,1.8,18,M,,M,,*54
06/24/2015	03:02:46.535	$GPGGA,030247,2526.4054,N,08005.7167,W,1,9,1.8,18,M,,M,,*57
06/24/2015	03:02:47.535	$GPGGA,030248,2526.4045,N,08005.7166,W,1,9,1.8,18,M,,M,,*59
06/24/2015	03:02:48.536	$GPGGA,030249,2526.4036,N,08005.7168,W,1,9,1.8,18,M,,M,,*52
06/24/2015	03:02:49.526	$GPGGA,030250,2526.4027,N,08005.7173,W,1,9,1.8,18,M,,M,,*50
06/24/2015	03:02:50.536	$GPGGA,030251,2526.4018,N,08005.7176,W,1,9,1.8,18,M,,M,,*58
06/24/2015	03:02:51.526	$GPGGA,030252,2526.4009,N,08005.7176,W,1,9,1.8,18,M,,M,,*5B
06/24/2015	03:02:52.526	$GPGGA,030253,2526.4001,N,08005.7179,W,1,9,1.8,18,M,,M,,*5D
06/24/2015	03:02:53.546	$GPGGA,030254,2526.3992,N,08005.7184,W,1,9,1.8,18,M,,M,,*5C
06/24/2015	03:02:54.506	$GPGGA,030255,2526.3983,N,08005.7186,W,1,9,1.8,17,M,,M,,*50
06/24/2015	03:02:55.526	$GPGGA,030256,2526.3973,N,08005.7186,W,1,9,1.8,17,M,,M,,*5C
06/24/2015	03:02:56.525	$GPGGA,030257,2526.3965,N,08005.7190,W,1,9,1.8,17,M,,M,,*5D
06/24/2015	03:02:57.635	$GPGGA,030258,2526.3956,N,08005.7194,W,1,9,1.8,17,M,,M,,*56
06/24/2015	03:02:58.525	$GPGGA,030259,2526.3947,N,08005.7196,W,1,9,1.8,17,M,,M,,*55
06/24/2015	03:02:59.535	$GPGGA,030300,2526.3937,N,08005.7197,W,1,9,1.8,17,M,,M,,*5E
06/24/2015	03:03:00.505	$GPGGA,030301,2526.3929,N,08005.7201,W,1,9,1.8,17,M,,M,,*5C
06/24/2015	03:03:01.635	$GPGGA,030302,2526.3919,N,08005.7204,W,1,9,1.8,17,M,,M,,*59
06/24/2015	03:03:02.515	$GPGGA,030303,2526.3911,N,08005.7205,W,1,9,1.8,17,M,,M,,*51
06/24/2015	03:03:03.525	$GPGGA,030304,2526.3901,N,08005.7207,W,1,9,1.8,17,M,,M,,*55
06/24/2015	03:03:04.485	$GPGGA,030305,2526.3893,N,08005.7211,W,1,9,1.8,17,M,,M,,*59
06/24/2015	03:03:05.486	$GPGGA,030306,2526.3883,N,08005.7212,W,1,9,1.8,17,M,,M,,*58
06/24/2015	03:03:06.486	$GPGGA,030307,2526.3875,N,08005.7214,W,1,9,1.8,17,M,,M,,*56
06/24/2015	03:03:07.636	$GPGGA,030308,2526.3866,N,08005.7218,W,1,9,1.8,17,M,,M,,*57
06/24/2015	03:03:08.606	$GPGGA,030309,2526.3857,N,08005.7219,W,1,9,1.8,17,M,,M,,*55
06/24/2015	03:03:09.506	$GPGGA,030310,2526.3847,N,08005.7220,W,1,9,1.8,17,M,,M,,*56
06/24/2015	03:03:11.538	$GPGGA,030312,2526.3829,N,08005.7226,W,1,9,1.8,17,M,,M,,*5A
06/24/2015	03:03:12.576	$GPGGA,030313,2526.3819,N,08005.7227,W,1,9,1.8,17,M,,M,,*59
06/24/2015	03:03:13.595	$GPGGA,030314,2526.3810,N,08005.7229,W,1,9,1.8,17,M,,M,,*59
06/24/2015	03:03:14.565	$GPGGA,030315,2526.3802,N,08005.7233,W,1,9,1.8,17,M,,M,,*50
06/24/2015	03:03:15.595	$GPGGA,030316,2526.3792,N,08005.7236,W,1,9,1.8,17,M,,M,,*50
06/24/2015	03:03:16.575	$GPGGA,030317,2526.3783,N,08005.7237,W,1,9,1.8,17,M,,M,,*50
06/24/2015	03:03:17.595	$GPGGA,030318,2526.3775,N,08005.7240,W,1,9,1.8,17,M,,M,,*56
06/24/2015	03:03:18.565	$GPGGA,030319,2526.3766,N,08005.7243,W,1,9,1.8,16,M,,M,,*57
06/24/2015	03:03:19.615	$GPGGA,030320,2526.3756,N,08005.7245,W,1,9,1.8,16,M,,M,,*58
06/24/2015	03:03:20.565	$GPGGA,030321,2526.3748,N,08005.7247,W,1,9,1.8,16,M,,M,,*54
06/24/2015	03:03:21.555	$GPGGA,030322,2526.3738,N,08005.7247,W,1,9,1.8,16,M,,M,,*50
06/24/2015	03:03:22.565	$GPGGA,030323,2526.3730,N,08005.7251,W,1,9,1.8,16,M,,M,,*5E
06/24/2015	03:03:23.596	$GPGGA,030324,2526.3720,N,08005.7254,W,1,9,1.8,16,M,,M,,*5D
06/24/2015	03:03:24.556	$GPGGA,030325,2526.3712,N,08005.7255,W,1,9,1.8,16,M,,M,,*5C
06/24/2015	03:03:25.576	$GPGGA,030326,2526.3701,N,08005.7258,W,1,9,1.8,16,M,,M,,*50
06/24/2015	03:03:26.546	$GPGGA,030327,2526.3694,N,08005.7261,W,1,9,1.8,16,M,,M,,*56
06/24/2015	03:03:27.596	$GPGGA,030328,2526.3684,N,08005.7262,W,1,9,1.8,16,M,,M,,*5B
06/24/2015	03:03:28.546	$GPGGA,030329,2526.3674,N,08005.7263,W,1,9,1.8,16,M,,M,,*54
06/24/2015	03:03:29.536	$GPGGA,030330,2526.3665,N,08005.7266,W,1,9,1.8,16,M,,M,,*59
06/24/2015	03:03:30.549	$GPGGA,030331,2526.3656,N,08005.7269,W,1,9,1.8,16,M,,M,,*57
06/24/2015	03:03:31.575	$GPGGA,030332,2526.3647,N,08005.7270,W,1,9,1.8,16,M,,M,,*5C
06/24/2015	03:03:32.545	$GPGGA,030333,2526.3637,N,08005.7272,W,1,9,1.8,16,M,,M,,*58
06/24/2015	03:03:33.555	$GPGGA,030334,2526.3629,N,08005.7274,W,1,9,1.8,16,M,,M,,*56
06/24/2015	03:03:34.535	$GPGGA,030335,2526.3619,N,08005.7276,W,1,9,1.8,16,M,,M,,*56
06/24/2015	03:03:35.595	$GPGGA,030336,2526.3611,N,08005.7277,W,1,9,1.8,16,M,,M,,*5C
06/24/2015	03:03:36.535	$GPGGA,030337,2526.3600,N,08005.7280,W,1,9,1.8,16,M,,M,,*55
06/24/2015	03:03:37.525	$GPGGA,030338,2526.3591,N,08005.7283,W,1,9,1.8,16,M,,M,,*52
06/24/2015	03:03:38.535	$GPGGA,030339,2526.3582,N,08005.7283,W,1,9,1.8,16,M,,M,,*51
06/24/2015	03:03:39.565	$GPGGA,030340,2526.3572,N,08005.7284,W,1,9,1.8,16,M,,M,,*57
06/24/2015	03:03:40.526	$GPGGA,030341,2526.3562,N,08005.7287,W,1,9,1.8,16,M,,M,,*54
06/24/2015	03:03:41.558	$GPGGA,030342,2526.3553,N,08005.7290,W,1,9,1.8,16,M,,M,,*53
06/24/2015	03:03:42.536	$GPGGA,030343,2526.3543,N,08005.7290,W,1,9,1.8,16,M,,M,,*53
06/24/2015	03:03:43.536	$GPGGA,030344,2526.3535,N,08005.7292,W,1,9,1.8,16,M,,M,,*57
06/24/2015	03:03:44.506	$GPGGA,030345,2526.3526,N,08005.7295,W,1,9,1.8,16,M,,M,,*53
06/24/2015	03:03:45.516	$GPGGA,030346,2526.3517,N,08005.7298,W,1,9,1.8,16,M,,M,,*5F
06/24/2015	03:03:46.516	$GPGGA,030347,2526.3506,N,08005.7296,W,1,9,1.8,16,M,,M,,*50
06/24/2015	03:03:47.536	$GPGGA,030348,2526.3497,N,08005.7299,W,1,9,1.8,16,M,,M,,*59
06/24/2015	03:03:48.525	$GPGGA,030349,2526.3488,N,08005.7303,W,1,9,1.8,16,M,,M,,*54
06/24/2015	03:03:49.495	$GPGGA,030350,2526.3479,N,08005.7305,W,1,9,1.8,16,M,,M,,*54
06/24/2015	03:03:50.615	$GPGGA,030351,2526.3470,N,08005.7304,W,1,9,1.8,16,M,,M,,*5D
06/24/2015	03:03:51.605	$GPGGA,030352,2526.3460,N,08005.7306,W,1,9,1.8,16,M,,M,,*5D
06/24/2015	03:03:52.615	$GPGGA,030353,2526.3452,N,08005.7310,W,1,9,1.8,16,M,,M,,*5A
06/24/2015	03:03:53.495	$GPGGA,030354,2526.3442,N,08005.7312,W,1,9,1.8,16,M,,M,,*5E
06/24/2015	03:03:54.525	$GPGGA,030355,2526.3434,N,08005.7312,W,1,9,1.8,16,M,,M,,*5E
06/24/2015	03:03:55.565	$GPGGA,030356,2526.3424,N,08005.7314,W,1,9,1.8,16,M,,M,,*5A
06/24/2015	03:03:56.575	$GPGGA,030357,2526.3416,N,08005.7317,W,1,9,1.8,16,M,,M,,*59
06/24/2015	03:03:57.495	$GPGGA,030358,2526.3405,N,08005.7319,W,1,9,1.8,16,M,,M,,*5A
06/24/2015	03:03:58.576	$GPGGA,030359,2526.3396,N,08005.7319,W,1,9,1.8,16,M,,M,,*56
06/24/2015	03:03:59.562	$GPGGA,030400,2526.3387,N,08005.7321,W,1,9,1.8,16,M,,M,,*56
06/24/2015	03:04:00.506	$GPGGA,030401,2526.3380,N,08005.7323,W,1,9,1.8,16,M,,M,,*52
06/24/2015	03:04:01.568	$GPGGA,030402,2526.3370,N,08005.7326,W,1,9,1.8,16,M,,M,,*5B
06/24/2015	03:04:02.576	$GPGGA,030403,2526.3362,N,08005.7327,W,1,9,1.8,16,M,,M,,*58
06/24/2015	03:04:03.536	$GPGGA,030404,2526.3352,N,08005.7328,W,1,9,1.8,16,M,,M,,*53
06/24/2015	03:04:04.566	$GPGGA,030405,2526.3344,N,08005.7331,W,1,9,1.8,16,M,,M,,*5D
06/24/2015	03:04:05.606	$GPGGA,030406,2526.3333,N,08005.7334,W,1,9,1.8,16,M,,M,,*5B
06/24/2015	03:04:06.565	$GPGGA,030407,2526.3324,N,08005.7335,W,1,9,1.8,16,M,,M,,*5D
06/24/2015	03:04:07.615	$GPGGA,030408,2526.3315,N,08005.7337,W,1,9,1.8,16,M,,M,,*52
06/24/2015	03:04:08.560	$GPGGA,030409,2526.3306,N,08005.7341,W,1,9,1.8,16,M,,M,,*50
06/24/2015	03:04:09.575	$GPGGA,030410,2526.3297,N,08005.7342,W,1,9,1.8,16,M,,M,,*52
06/24/2015	03:04:10.565	$GPGGA,030411,2526.3288,N,08005.7344,W,1,9,1.8,16,M,,M,,*5B
06/24/2015	03:04:11.605	$GPGGA,030412,2526.3279,N,08005.7348,W,1,9,1.8,16,M,,M,,*5A
06/24/2015	03:04:12.555	$GPGGA,030413,2526.3270,N,08005.7350,W,1,9,1.8,16,M,,M,,*5B
06/24/2015	03:04:13.560	$GPGGA,030414,2526.3260,N,08005.7350,W,1,9,1.8,16,M,,M,,*5D
06/24/2015	03:04:14.564	$GPGGA,030415,2526.3252,N,08005.7353,W,1,9,1.8,16,M,,M,,*5E
06/24/2015	03:04:15.596	$GPGGA,030416,2526.3243,N,08005.7359,W,1,9,1.8,16,M,,M,,*57
06/24/2015	03:04:16.566	$GPGGA,030417,2526.3234,N,08005.7359,W,1,9,1.8,16,M,,M,,*56
06/24/2015	03:04:17.569	$GPGGA,030418,2526.3224,N,08005.7361,W,1,9,1.8,16,M,,M,,*53
06/24/2015	03:04:18.536	$GPGGA,030419,2526.3217,N,08005.7366,W,1,9,1.8,16,M,,M,,*55
06/24/2015	03:04:19.576	$GPGGA,030420,2526.3207,N,08005.7370,W,1,9,1.8,16,M,,M,,*59
06/24/2015	03:04:20.559	$GPGGA,030421,2526.3199,N,08005.7370,W,1,9,1.8,16,M,,M,,*5C
06/24/2015	03:04:21.536	$GPGGA,030422,2526.3189,N,08005.7373,W,1,9,1.8,16,M,,M,,*5D
06/24/2015	03:04:22.536	$GPGGA,030423,2526.3181,N,08005.7377,W,1,9,1.8,16,M,,M,,*50
06/24/2015	03:04:23.535	$GPGGA,030424,2526.3171,N,08005.7379,W,1,9,1.8,16,M,,M,,*56
06/24/2015	03:04:24.550	$GPGGA,030425,2526.3163,N,08005.7381,W,1,9,1.8,16,M,,M,,*53
06/24/2015	03:04:25.551	$GPGGA,030426,2526.3153,N,08005.7384,W,1,9,1.8,16,M,,M,,*56
06/24/2015	03:04:26.535	$GPGGA,030427,2526.3145,N,08005.7386,W,1,9,1.8,16,M,,M,,*52
06/24/2015	03:04:27.563	$GPGGA,030428,2526.3135,N,08005.7388,W,1,9,1.8,16,M,,M,,*54
06/24/2015	03:04:28.525	$GPGGA,030429,2526.3127,N,08005.7391,W,1,9,1.8,16,M,,M,,*5E
06/24/2015	03:04:29.556	$GPGGA,030430,2526.3117,N,08005.7393,W,1,9,1.8,16,M,,M,,*57
06/24/2015	03:04:30.515	$GPGGA,030431,2526.3109,N,08005.7396,W,1,9,1.8,16,M,,M,,*5C
06/24/2015	03:04:31.535	$GPGGA,030432,2526.3099,N,08005.7399,W,1,9,1.8,16,M,,M,,*58
06/24/2015	03:04:32.515	$GPGGA,030433,2526.3091,N,08005.7402,W,1,9,1.8,16,M,,M,,*54
06/24/2015	03:04:33.526	$GPGGA,030434,2526.3081,N,08005.7406,W,1,9,1.8,16,M,,M,,*56
06/24/2015	03:04:34.516	$GPGGA,030435,2526.3073,N,08005.7407,W,1,9,1.8,16,M,,M,,*5B
06/24/2015	03:04:35.536	$GPGGA,030436,2526.3062,N,08005.7410,W,1,9,1.8,16,M,,M,,*5E
06/24/2015	03:04:36.526	$GPGGA,030437,2526.3053,N,08005.7413,W,1,9,1.8,16,M,,M,,*5E
06/24/2015	03:04:37.516	$GPGGA,030438,2526.3044,N,08005.7417,W,1,9,1.8,16,M,,M,,*53
06/24/2015	03:04:38.516	$GPGGA,030439,2526.3035,N,08005.7418,W,1,9,1.8,16,M,,M,,*5B
06/24/2015	03:04:39.626	$GPGGA,030440,2526.3026,N,08005.7420,W,1,9,1.8,16,M,,M,,*5C
06/24/2015	03:04:40.615	$GPGGA,030441,2526.3017,N,08005.7424,W,1,9,1.8,16,M,,M,,*5B
06/24/2015	03:04:41.595	$GPGGA,030442,2526.3008,N,08005.7426,W,1,9,1.8,16,M,,M,,*54
06/24/2015	03:04:42.495	$GPGGA,030443,2526.2999,N,08005.7428,W,1,9,1.8,16,M,,M,,*5B
06/24/2015	03:04:43.615	$GPGGA,030444,2526.2990,N,08005.7431,W,1,9,1.8,16,M,,M,,*5D
06/24/2015	03:04:44.505	$GPGGA,030445,2526.2981,N,08005.7432,W,1,9,1.8,16,M,,M,,*5F
06/24/2015	03:04:45.505	$GPGGA,030446,2526.2972,N,08005.7435,W,1,9,1.8,16,M,,M,,*57
06/24/2015	03:04:46.485	$GPGGA,030447,2526.2963,N,08005.7439,W,1,9,1.8,16,M,,M,,*5A
06/24/2015	03:04:47.615	$GPGGA,030448,2526.2954,N,08005.7437,W,1,9,1.8,16,M,,M,,*5F
06/24/2015	03:04:48.495	$GPGGA,030449,2526.2945,N,08005.7439,W,1,9,3.8,16,M,,M,,*52
06/24/2015	03:04:49.575	$GPGGA,030450,2526.2936,N,08005.7443,W,1,9,1.8,16,M,,M,,*51
06/24/2015	03:04:50.486	$GPGGA,030451,2526.2925,N,08005.7447,W,1,9,1.8,16,M,,M,,*56
06/24/2015	03:04:51.586	$GPGGA,030452,2526.2915,N,08005.7449,W,1,9,1.8,16,M,,M,,*58
06/24/2015	03:04:53.616	$GPGGA,030454,2526.2896,N,08005.7456,W,1,9,1.8,16,M,,M,,*5A
06/24/2015	03:04:54.576	$GPGGA,030455,2526.2886,N,08005.7457,W,1,9,1.8,16,M,,M,,*5B
06/24/2015	03:04:55.616	$GPGGA,030456,2526.2878,N,08005.7458,W,1,9,1.8,16,M,,M,,*56
06/24/2015	03:04:56.566	$GPGGA,030457,2526.2867,N,08005.7460,W,1,9,1.8,17,M,,M,,*53
06/24/2015	03:04:57.586	$GPGGA,030458,2526.2857,N,08005.7462,W,1,9,1.8,17,M,,M,,*5D
06/24/2015	03:04:58.569	$GPGGA,030459,2526.2849,N,08005.7465,W,1,9,1.8,17,M,,M,,*54
06/24/2015	03:04:59.595	$GPGGA,030500,2526.2838,N,08005.7464,W,1,9,1.8,17,M,,M,,*5E
06/24/2015	03:05:00.564	$GPGGA,030501,2526.2829,N,08005.7467,W,1,9,1.8,17,M,,M,,*5C
06/24/2015	03:05:01.575	$GPGGA,030502,2526.2820,N,08005.7471,W,1,9,1.8,17,M,,M,,*51
06/24/2015	03:05:02.565	$GPGGA,030503,2526.2810,N,08005.7471,W,1,9,1.8,18,M,,M,,*5C
06/24/2015	03:05:03.585	$GPGGA,030504,2526.2802,N,08005.7472,W,1,9,1.8,18,M,,M,,*5B
06/24/2015	03:05:04.545	$GPGGA,030505,2526.2791,N,08005.7475,W,1,9,1.8,18,M,,M,,*58
06/24/2015	03:05:05.548	$GPGGA,030506,2526.2784,N,08005.7478,W,1,9,1.8,18,M,,M,,*52
06/24/2015	03:05:06.546	$GPGGA,030507,2526.2773,N,08005.7478,W,1,9,1.8,18,M,,M,,*5B
06/24/2015	03:05:07.565	$GPGGA,030508,2526.2763,N,08005.7479,W,1,9,1.8,18,M,,M,,*54
06/24/2015	03:05:08.536	$GPGGA,030509,2526.2755,N,08005.7482,W,1,9,1.8,18,M,,M,,*54
06/24/2015	03:05:09.556	$GPGGA,030510,2526.2745,N,08005.7486,W,1,9,1.8,18,M,,M,,*59
06/24/2015	03:05:10.552	$GPGGA,030511,2526.2735,N,08005.7485,W,1,9,1.8,19,M,,M,,*5D
06/24/2015	03:05:11.576	$GPGGA,030512,2526.2726,N,08005.7487,W,1,9,1.8,19,M,,M,,*5E
06/24/2015	03:05:12.536	$GPGGA,030513,2526.2717,N,08005.7490,W,1,9,1.8,19,M,,M,,*5B
06/24/2015	03:05:13.546	$GPGGA,030514,2526.2708,N,08005.7491,W,1,9,1.8,19,M,,M,,*53
06/24/2015	03:05:14.526	$GPGGA,030515,2526.2698,N,08005.7493,W,1,9,1.8,19,M,,M,,*58
06/24/2015	03:05:15.545	$GPGGA,030516,2526.2690,N,08005.7496,W,1,9,1.8,19,M,,M,,*56
06/24/2015	03:05:16.525	$GPGGA,030517,2526.2680,N,08005.7497,W,1,9,1.8,19,M,,M,,*57
06/24/2015	03:05:17.548	$GPGGA,030518,2526.2672,N,08005.7500,W,1,9,1.8,19,M,,M,,*5A
06/24/2015	03:05:18.525	$GPGGA,030519,2526.2661,N,08005.7501,W,1,9,1.8,19,M,,M,,*58
06/24/2015	03:05:19.545	$GPGGA,030520,2526.2652,N,08005.7504,W,1,9,1.8,19,M,,M,,*57
06/24/2015	03:05:20.515	$GPGGA,030521,2526.2643,N,08005.7505,W,1,9,1.8,19,M,,M,,*57
06/24/2015	03:05:21.535	$GPGGA,030522,2526.2635,N,08005.7507,W,1,9,1.8,20,M,,M,,*5D
06/24/2015	03:05:22.505	$GPGGA,030523,2526.2625,N,08005.7509,W,1,9,1.8,20,M,,M,,*53
06/24/2015	03:05:23.535	$GPGGA,030524,2526.2615,N,08005.7511,W,1,9,1.8,20,M,,M,,*5E
06/24/2015	03:05:24.505	$GPGGA,030525,2526.2607,N,08005.7514,W,1,9,1.8,20,M,,M,,*59
06/24/2015	03:05:25.526	$GPGGA,030526,2526.2597,N,08005.7516,W,1,9,1.8,20,M,,M,,*52
06/24/2015	03:05:26.516	$GPGGA,030527,2526.2589,N,08005.7518,W,1,9,1.8,20,M,,M,,*52
06/24/2015	03:05:27.636	$GPGGA,030528,2526.2579,N,08005.7520,W,1,9,1.8,20,M,,M,,*59
06/24/2015	03:05:28.616	$GPGGA,030529,2526.2570,N,08005.7522,W,1,9,1.8,20,M,,M,,*53
06/24/2015	03:05:29.596	$GPGGA,030530,2526.2561,N,08005.7525,W,1,9,1.8,20,M,,M,,*5C
06/24/2015	03:05:30.496	$GPGGA,030531,2526.2551,N,08005.7527,W,1,9,1.8,19,M,,M,,*56
06/24/2015	03:05:31.536	$GPGGA,030532,2526.2542,N,08005.7529,W,1,9,1.8,19,M,,M,,*59
06/24/2015	03:05:32.606	$GPGGA,030533,2526.2532,N,08005.7533,W,1,9,1.8,19,M,,M,,*54
06/24/2015	03:05:33.615	$GPGGA,030534,2526.2523,N,08005.7534,W,1,9,1.8,19,M,,M,,*54
06/24/2015	03:05:34.605	$GPGGA,030535,2526.2513,N,08005.7537,W,1,9,1.8,19,M,,M,,*55
06/24/2015	03:05:35.515	$GPGGA,030536,2526.2504,N,08005.7540,W,1,9,1.8,19,M,,M,,*50
06/24/2015	03:05:36.585	$GPGGA,030537,2526.2495,N,08005.7541,W,1,9,1.8,19,M,,M,,*59
06/24/2015	03:05:37.585	$GPGGA,030538,2526.2485,N,08005.7545,W,1,9,1.8,19,M,,M,,*53
06/24/2015	03:05:38.485	$GPGGA,030539,2526.2477,N,08005.7548,W,1,9,1.8,19,M,,M,,*52
06/24/2015	03:05:39.495	$GPGGA,030540,2526.2467,N,08005.7550,W,1,9,1.8,19,M,,M,,*54
06/24/2015	03:05:40.575	$GPGGA,030541,2526.2457,N,08005.7552,W,1,9,1.8,19,M,,M,,*54
06/24/2015	03:05:41.565	$GPGGA,030542,2526.2448,N,08005.7558,W,1,9,1.8,19,M,,M,,*53
06/24/2015	03:05:42.565	$GPGGA,030543,2526.2439,N,08005.7559,W,1,9,1.8,19,M,,M,,*55
06/24/2015	03:05:43.616	$GPGGA,030544,2526.2428,N,08005.7561,W,1,9,1.8,19,M,,M,,*59
06/24/2015	03:05:44.576	$GPGGA,030545,2526.2420,N,08005.7565,W,1,9,1.8,19,M,,M,,*54
06/24/2015	03:05:45.586	$GPGGA,030546,2526.2410,N,08005.7568,W,1,9,1.8,19,M,,M,,*59
06/24/2015	03:05:46.560	$GPGGA,030547,2526.2401,N,08005.7569,W,1,9,1.8,19,M,,M,,*59
06/24/2015	03:05:47.616	$GPGGA,030548,2526.2392,N,08005.7572,W,1,9,1.8,19,M,,M,,*51
06/24/2015	03:05:48.558	$GPGGA,030549,2526.2383,N,08005.7576,W,1,9,1.8,19,M,,M,,*54
06/24/2015	03:05:49.576	$GPGGA,030550,2526.2373,N,08005.7579,W,1,9,1.8,19,M,,M,,*5C
06/24/2015	03:05:50.560	$GPGGA,030551,2526.2365,N,08005.7581,W,1,9,1.8,18,M,,M,,*5C
06/24/2015	03:05:51.595	$GPGGA,030552,2526.2355,N,08005.7584,W,1,9,1.8,18,M,,M,,*59
06/24/2015	03:05:52.566	$GPGGA,030553,2526.2346,N,08005.7587,W,1,9,1.8,18,M,,M,,*59
06/24/2015	03:05:53.545	$GPGGA,030554,2526.2338,N,08005.7590,W,1,9,1.8,18,M,,M,,*51
06/24/2015	03:05:54.553	$GPGGA,030555,2526.2329,N,08005.7592,W,1,9,1.8,18,M,,M,,*52
06/24/2015	03:05:55.585	$GPGGA,030556,2526.2319,N,08005.7594,W,1,9,1.8,18,M,,M,,*54
06/24/2015	03:05:56.560	$GPGGA,030557,2526.2310,N,08005.7598,W,1,9,1.8,18,M,,M,,*50
06/24/2015	03:05:57.556	$GPGGA,030558,2526.2301,N,08005.7601,W,1,9,1.8,18,M,,M,,*5C
06/24/2015	03:05:58.547	$GPGGA,030559,2526.2292,N,08005.7602,W,1,9,1.8,18,M,,M,,*55
06/24/2015	03:05:59.575	$GPGGA,030600,2526.2283,N,08005.7605,W,1,9,1.8,18,M,,M,,*5D
06/24/2015	03:06:00.536	$GPGGA,030601,2526.2275,N,08005.7608,W,1,9,1.8,18,M,,M,,*58
06/24/2015	03:06:01.526	$GPGGA,030602,2526.2265,N,08005.7610,W,1,9,1.8,18,M,,M,,*53
06/24/2015	03:06:02.536	$GPGGA,030603,2526.2256,N,08005.7612,W,1,9,1.8,18,M,,M,,*50
06/24/2015	03:06:03.566	$GPGGA,030604,2526.2247,N,08005.7616,W,1,9,1.8,18,M,,M,,*53
06/24/2015	03:06:04.536	$GPGGA,030605,2526.2239,N,08005.7619,W,1,9,1.8,18,M,,M,,*54
06/24/2015	03:06:05.556	$GPGGA,030606,2526.2229,N,08005.7619,W,1,9,1.8,18,M,,M,,*56
06/24/2015	03:06:06.536	$GPGGA,030607,2526.2221,N,08005.7621,W,1,9,1.8,18,M,,M,,*54
06/24/2015	03:06:07.566	$GPGGA,030608,2526.2213,N,08005.7624,W,1,9,1.8,17,M,,M,,*50
06/24/2015	03:06:08.525	$GPGGA,030609,2526.2203,N,08005.7626,W,1,9,1.8,17,M,,M,,*52
06/24/2015	03:06:09.545	$GPGGA,030610,2526.2195,N,08005.7628,W,1,9,1.8,17,M,,M,,*58
06/24/2015	03:06:10.505	$GPGGA,030611,2526.2184,N,08005.7630,W,1,9,1.8,17,M,,M,,*50
06/24/2015	03:06:11.505	$GPGGA,030612,2526.2175,N,08005.7633,W,1,9,1.8,17,M,,M,,*5E
06/24/2015	03:06:12.665	$GPGGA,030613,2526.2166,N,08005.7635,W,1,9,1.8,17,M,,M,,*5B
06/24/2015	03:06:13.955	$GPGGA,030614,2526.2157,N,08005.7637,W,1,9,1.8,17,M,,M,,*5C
06/24/2015	03:06:14.675	$GPGGA,030615,2526.2148,N,08005.7638,W,1,9,1.8,17,M,,M,,*5C
06/24/2015	03:06:15.675	$GPGGA,030616,2526.2139,N,08005.7641,W,1,9,1.7,17,M,,M,,*58
06/24/2015	03:06:16.485	$GPGGA,030617,2526.2130,N,08005.7642,W,1,9,1.7,17,M,,M,,*53
06/24/2015	03:06:17.495	$GPGGA,030618,2526.2120,N,08005.7642,W,1,9,1.7,17,M,,M,,*5D
06/24/2015	03:06:18.585	$GPGGA,030619,2526.2112,N,08005.7645,W,1,9,1.7,17,M,,M,,*5A
06/24/2015	03:06:19.639	$GPGGA,030620,2526.2101,N,08005.7648,W,1,9,1.7,17,M,,M,,*5F
06/24/2015	03:06:20.495	$GPGGA,030621,2526.2091,N,08005.7648,W,1,9,1.7,17,M,,M,,*56
06/24/2015	03:06:21.575	$GPGGA,030622,2526.2083,N,08005.7649,W,1,9,1.7,17,M,,M,,*57
06/24/2015	03:06:22.575	$GPGGA,030623,2526.2073,N,08005.7652,W,1,9,1.7,17,M,,M,,*53
06/24/2015	03:06:23.505	$GPGGA,030624,2526.2065,N,08005.7653,W,1,9,1.7,17,M,,M,,*52
06/24/2015	03:06:24.475	$GPGGA,030625,2526.2054,N,08005.7655,W,1,9,1.7,17,M,,M,,*57
06/24/2015	03:06:25.484	$GPGGA,030626,2526.2045,N,08005.7656,W,1,9,1.7,17,M,,M,,*57
06/24/2015	03:06:26.638	$GPGGA,030627,2526.2036,N,08005.7657,W,1,9,1.7,17,M,,M,,*53
06/24/2015	03:06:27.584	$GPGGA,030628,2526.2026,N,08005.7659,W,1,9,1.7,17,M,,M,,*53
06/24/2015	03:06:28.565	$GPGGA,030629,2526.2018,N,08005.7660,W,1,9,1.7,17,M,,M,,*55
06/24/2015	03:06:29.605	$GPGGA,030630,2526.2007,N,08005.7663,W,1,9,1.7,17,M,,M,,*50
06/24/2015	03:06:30.635	$GPGGA,030631,2526.1998,N,08005.7664,W,1,9,1.7,17,M,,M,,*5A
06/24/2015	03:06:31.637	$GPGGA,030632,2526.1989,N,08005.7666,W,1,9,1.7,16,M,,M,,*5A
06/24/2015	03:06:32.625	$GPGGA,030633,2526.1982,N,08005.7667,W,1,9,1.7,16,M,,M,,*51
06/24/2015	03:06:33.605	$GPGGA,030634,2526.1971,N,08005.7668,W,1,9,1.7,16,M,,M,,*55
06/24/2015	03:06:34.625	$GPGGA,030635,2526.1962,N,08005.7671,W,1,9,1.7,16,M,,M,,*5E
06/24/2015	03:06:35.615	$GPGGA,030636,2526.1953,N,08005.7673,W,1,9,1.7,16,M,,M,,*5D
06/24/2015	03:06:36.615	$GPGGA,030637,2526.1943,N,08005.7675,W,1,9,1.7,16,M,,M,,*5B
06/24/2015	03:06:37.585	$GPGGA,030638,2526.1935,N,08005.7677,W,1,9,1.7,16,M,,M,,*57
06/24/2015	03:06:38.539	$GPGGA,030639,2526.1926,N,08005.7680,W,1,9,1.7,16,M,,M,,*5C
06/24/2015	03:06:39.625	$GPGGA,030640,2526.1917,N,08005.7681,W,1,9,1.7,16,M,,M,,*51
06/24/2015	03:06:40.615	$GPGGA,030641,2526.1908,N,08005.7684,W,1,9,1.7,16,M,,M,,*5B
06/24/2015	03:06:41.535	$GPGGA,030642,2526.1899,N,08005.7686,W,1,9,1.7,16,M,,M,,*53
06/24/2015	03:06:42.595	$GPGGA,030643,2526.1889,N,08005.7688,W,1,9,1.7,16,M,,M,,*5D
06/24/2015	03:06:43.594	$GPGGA,030644,2526.1880,N,08005.7689,W,1,9,1.7,16,M,,M,,*52
06/24/2015	03:06:44.594	$GPGGA,030645,2526.1872,N,08005.7693,W,1,9,1.7,16,M,,M,,*55
06/24/2015	03:06:45.575	$GPGGA,030646,2526.1862,N,08005.7695,W,1,9,1.7,16,M,,M,,*51
06/24/2015	03:06:46.595	$GPGGA,030647,2526.1853,N,08005.7696,W,1,9,1.7,16,M,,M,,*51
06/24/2015	03:06:47.595	$GPGGA,030648,2526.1844,N,08005.7700,W,1,9,1.7,16,M,,M,,*56
06/24/2015	03:06:48.585	$GPGGA,030649,2526.1834,N,08005.7703,W,1,9,1.7,16,M,,M,,*53
06/24/2015	03:06:49.575	$GPGGA,030650,2526.1825,N,08005.7703,W,1,9,1.7,16,M,,M,,*5B
06/24/2015	03:06:50.515	$GPGGA,030651,2526.1815,N,08005.7706,W,1,9,1.7,16,M,,M,,*5C
06/24/2015	03:06:51.615	$GPGGA,030652,2526.1807,N,08005.7710,W,1,9,1.7,16,M,,M,,*5B
06/24/2015	03:06:52.575	$GPGGA,030653,2526.1797,N,08005.7713,W,1,9,1.7,16,M,,M,,*5F
06/24/2015	03:06:53.565	$GPGGA,030654,2526.1788,N,08005.7713,W,1,9,1.7,16,M,,M,,*56
06/24/2015	03:06:54.575	$GPGGA,030655,2526.1778,N,08005.7717,W,1,9,1.7,16,M,,M,,*5C
06/24/2015	03:06:55.606	$GPGGA,030656,2526.1769,N,08005.7720,W,1,9,1.7,16,M,,M,,*5B
06/24/2015	03:06:56.515	$GPGGA,030657,2526.1760,N,08005.7721,W,1,9,1.7,16,M,,M,,*52
06/24/2015	03:06:57.556	$GPGGA,030658,2526.1750,N,08005.7724,W,1,9,1.7,16,M,,M,,*5B
06/24/2015	03:06:58.505	$GPGGA,030659,2526.1741,N,08005.7727,W,1,9,1.7,16,M,,M,,*59
06/24/2015	03:06:59.585	$GPGGA,030700,2526.1731,N,08005.7729,W,1,9,1.7,16,M,,M,,*5D
06/24/2015	03:07:00.564	$GPGGA,030701,2526.1723,N,08005.7731,W,1,9,1.7,16,M,,M,,*56
06/24/2015	03:07:01.494	$GPGGA,030702,2526.1713,N,08005.7735,W,1,9,1.7,16,M,,M,,*52
06/24/2015	03:07:02.558	$GPGGA,030703,2526.1704,N,08005.7738,W,1,9,1.7,16,M,,M,,*58
06/24/2015	03:07:03.575	$GPGGA,030704,2526.1694,N,08005.7739,W,1,9,1.7,16,M,,M,,*56
06/24/2015	03:07:04.559	$GPGGA,030705,2526.1685,N,08005.7742,W,1,9,1.7,16,M,,M,,*5B
06/24/2015	03:07:05.595	$GPGGA,030706,2526.1676,N,08005.7745,W,1,9,1.7,16,M,,M,,*53
06/24/2015	03:07:06.605	$GPGGA,030707,2526.1667,N,08005.7749,W,1,9,1.7,16,M,,M,,*5E
06/24/2015	03:07:07.615	$GPGGA,030708,2526.1657,N,08005.7750,W,1,9,1.7,16,M,,M,,*5A
06/24/2015	03:07:08.585	$GPGGA,030709,2526.1648,N,08005.7753,W,1,9,1.7,16,M,,M,,*56
06/24/2015	03:07:09.625	$GPGGA,030710,2526.1639,N,08005.7757,W,1,9,1.7,16,M,,M,,*5C
06/24/2015	03:07:10.555	$GPGGA,030711,2526.1630,N,08005.7760,W,1,9,1.7,16,M,,M,,*50
06/24/2015	03:07:11.595	$GPGGA,030712,2526.1620,N,08005.7762,W,1,9,1.7,16,M,,M,,*50
06/24/2015	03:07:12.551	$GPGGA,030713,2526.1611,N,08005.7764,W,1,9,1.7,16,M,,M,,*55
06/24/2015	03:07:13.605	$GPGGA,030714,2526.1602,N,08005.7768,W,1,9,1.7,16,M,,M,,*5C
06/24/2015	03:07:14.543	$GPGGA,030715,2526.1593,N,08005.7771,W,1,9,1.7,16,M,,M,,*5E
06/24/2015	03:07:15.605	$GPGGA,030716,2526.1583,N,08005.7771,W,1,9,1.7,16,M,,M,,*5C
06/24/2015	03:07:16.535	$GPGGA,030717,2526.1574,N,08005.7775,W,1,9,1.7,16,M,,M,,*51
06/24/2015	03:07:17.605	$GPGGA,030718,2526.1566,N,08005.7778,W,1,9,1.7,16,M,,M,,*50
06/24/2015	03:07:18.564	$GPGGA,030719,2526.1556,N,08005.7780,W,1,9,1.7,16,M,,M,,*55
06/24/2015	03:07:19.584	$GPGGA,030720,2526.1546,N,08005.7782,W,1,9,1.7,16,M,,M,,*5C
06/24/2015	03:07:20.565	$GPGGA,030721,2526.1536,N,08005.7785,W,1,9,1.7,16,M,,M,,*5D
06/24/2015	03:07:21.585	$GPGGA,030722,2526.1530,N,08005.7787,W,1,9,3.8,15,M,,M,,*54
06/24/2015	03:07:22.575	$GPGGA,030723,2526.1520,N,08005.7787,W,1,9,1.7,15,M,,M,,*59
06/24/2015	03:07:23.565	$GPGGA,030724,2526.1510,N,08005.7789,W,1,9,1.7,15,M,,M,,*53
06/24/2015	03:07:24.558	$GPGGA,030725,2526.1501,N,08005.7793,W,1,9,1.7,15,M,,M,,*59
06/24/2015	03:07:25.565	$GPGGA,030726,2526.1491,N,08005.7796,W,1,9,1.7,15,M,,M,,*57
06/24/2015	03:07:26.585	$GPGGA,030727,2526.1483,N,08005.7796,W,1,9,1.7,15,M,,M,,*55
06/24/2015	03:07:27.575	$GPGGA,030728,2526.1472,N,08005.7798,W,1,9,1.7,15,M,,M,,*5A
06/24/2015	03:07:28.552	$GPGGA,030729,2526.1462,N,08005.7800,W,1,9,1.7,15,M,,M,,*54
06/24/2015	03:07:29.551	$GPGGA,030730,2526.1452,N,08005.7803,W,1,9,1.7,15,M,,M,,*5C
06/24/2015	03:07:30.551	$GPGGA,030731,2526.1452,N,08005.7803,W,1,9,1.7,15,M,,M,,*5D
06/24/2015	03:07:31.605	$GPGGA,030732,2526.1433,N,08005.7808,W,1,9,1.7,15,M,,M,,*52
06/24/2015	03:07:32.545	$GPGGA,030733,2526.1423,N,08005.7811,W,1,9,1.7,15,M,,M,,*5A
06/24/2015	03:07:33.542	$GPGGA,030734,2526.1414,N,08005.7814,W,1,9,1.7,15,M,,M,,*5C
06/24/2015	03:07:34.550	$GPGGA,030735,2526.1404,N,08005.7816,W,1,9,1.7,16,M,,M,,*5D
06/24/2015	03:07:35.564	$GPGGA,030736,2526.1395,N,08005.7818,W,1,9,1.7,16,M,,M,,*5F
06/24/2015	03:07:36.539	$GPGGA,030737,2526.1385,N,08005.7821,W,1,9,1.7,16,M,,M,,*55
06/24/2015	03:07:37.524	$GPGGA,030738,2526.1376,N,08005.7822,W,1,9,1.7,16,M,,M,,*55
06/24/2015	03:07:38.540	$GPGGA,030739,2526.1366,N,08005.7825,W,1,9,1.7,16,M,,M,,*52
06/24/2015	03:07:39.545	$GPGGA,030740,2526.1357,N,08005.7826,W,1,9,1.7,16,M,,M,,*5D
06/24/2015	03:07:40.525	$GPGGA,030741,2526.1357,N,08005.7826,W,1,9,1.7,16,M,,M,,*5C
06/24/2015	03:07:41.515	$GPGGA,030742,2526.1337,N,08005.7830,W,1,9,1.7,16,M,,M,,*5E
06/24/2015	03:07:42.545	$GPGGA,030743,2526.1328,N,08005.7833,W,1,9,1.7,16,M,,M,,*52
06/24/2015	03:07:43.525	$GPGGA,030744,2526.1318,N,08005.7836,W,1,9,1.7,16,M,,M,,*53
06/24/2015	03:07:44.539	$GPGGA,030745,2526.1310,N,08005.7837,W,1,9,1.7,17,M,,M,,*5A
06/24/2015	03:07:45.525	$GPGGA,030746,2526.1299,N,08005.7840,W,1,9,1.7,17,M,,M,,*59
06/24/2015	03:07:46.554	$GPGGA,030747,2526.1290,N,08005.7843,W,1,9,1.7,17,M,,M,,*52
06/24/2015	03:07:47.565	$GPGGA,030748,2526.1281,N,08005.7843,W,1,9,1.7,17,M,,M,,*5D
06/24/2015	03:07:48.525	$GPGGA,030749,2526.1281,N,08005.7843,W,1,9,1.7,17,M,,M,,*5C
06/24/2015	03:07:49.515	$GPGGA,030750,2526.1261,N,08005.7848,W,1,9,1.7,17,M,,M,,*51
06/24/2015	03:07:50.543	$GPGGA,030751,2526.1252,N,08005.7850,W,1,9,1.7,17,M,,M,,*59
06/24/2015	03:07:51.555	$GPGGA,030752,2526.1242,N,08005.7850,W,1,9,1.7,17,M,,M,,*5B
06/24/2015	03:07:52.515	$GPGGA,030753,2526.1242,N,08005.7850,W,1,9,1.7,17,M,,M,,*5A
06/24/2015	03:07:53.604	$GPGGA,030754,2526.1223,N,08005.7855,W,1,9,1.7,17,M,,M,,*5F
06/24/2015	03:07:54.539	$GPGGA,030755,2526.1213,N,08005.7858,W,1,9,1.7,18,M,,M,,*5F
06/24/2015	03:07:55.505	$GPGGA,030756,2526.1203,N,08005.7858,W,1,9,1.7,18,M,,M,,*5D
06/24/2015	03:07:56.605	$GPGGA,030757,2526.1194,N,08005.7858,W,1,9,1.7,18,M,,M,,*51
06/24/2015	03:07:57.595	$GPGGA,030758,2526.1183,N,08005.7863,W,1,8,3.7,18,M,,M,,*53
06/24/2015	03:07:58.505	$GPGGA,030759,2526.1174,N,08005.7865,W,1,8,1.7,18,M,,M,,*5E
06/24/2015	03:07:59.645	$GPGGA,030800,2526.1165,N,08005.7868,W,1,9,1.7,18,M,,M,,*51
06/24/2015	03:08:00.605	$GPGGA,030801,2526.1155,N,08005.7869,W,1,9,1.7,18,M,,M,,*52
06/24/2015	03:08:01.575	$GPGGA,030802,2526.1147,N,08005.7872,W,1,9,1.7,18,M,,M,,*58
06/24/2015	03:08:02.595	$GPGGA,030803,2526.1137,N,08005.7873,W,1,9,1.7,18,M,,M,,*5F
06/24/2015	03:08:03.595	$GPGGA,030804,2526.1127,N,08005.7876,W,1,9,1.7,18,M,,M,,*5C
06/24/2015	03:08:04.525	$GPGGA,030805,2526.1127,N,08005.7876,W,1,9,1.7,18,M,,M,,*5D
06/24/2015	03:08:05.565	$GPGGA,030806,2526.1109,N,08005.7880,W,1,9,1.7,18,M,,M,,*5B
06/24/2015	03:08:06.575	$GPGGA,030807,2526.1100,N,08005.7883,W,1,9,1.7,18,M,,M,,*50
06/24/2015	03:08:07.615	$GPGGA,030808,2526.1090,N,08005.7886,W,1,9,1.7,18,M,,M,,*52
06/24/2015	03:08:08.565	$GPGGA,030809,2526.1080,N,08005.7887,W,1,9,1.7,18,M,,M,,*53
06/24/2015	03:08:09.555	$GPGGA,030810,2526.1071,N,08005.7890,W,1,9,1.7,19,M,,M,,*52
06/24/2015	03:08:10.574	$GPGGA,030811,2526.1062,N,08005.7894,W,1,9,1.7,19,M,,M,,*55
06/24/2015	03:08:11.604	$GPGGA,030812,2526.1053,N,08005.7897,W,1,9,1.7,19,M,,M,,*57
06/24/2015	03:08:12.544	$GPGGA,030813,2526.1042,N,08005.7898,W,1,9,1.7,19,M,,M,,*59
06/24/2015	03:08:13.565	$GPGGA,030814,2526.1035,N,08005.7902,W,1,9,1.7,19,M,,M,,*5C
06/24/2015	03:08:14.555	$GPGGA,030815,2526.1024,N,08005.7905,W,1,9,1.7,19,M,,M,,*5A
06/24/2015	03:08:15.575	$GPGGA,030816,2526.1014,N,08005.7908,W,1,9,1.7,19,M,,M,,*57
06/24/2015	03:08:16.555	$GPGGA,030817,2526.1005,N,08005.7910,W,1,9,1.7,19,M,,M,,*5F
06/24/2015	03:08:17.555	$GPGGA,030818,2526.0996,N,08005.7913,W,1,9,1.7,19,M,,M,,*51
06/24/2015	03:08:18.535	$GPGGA,030819,2526.0988,N,08005.7915,W,1,9,1.7,19,M,,M,,*59
06/24/2015	03:08:19.585	$GPGGA,030820,2526.0978,N,08005.7919,W,1,9,1.7,19,M,,M,,*50
06/24/2015	03:08:20.549	$GPGGA,030821,2526.0968,N,08005.7921,W,1,9,1.7,19,M,,M,,*5B
06/24/2015	03:08:21.545	$GPGGA,030822,2526.0958,N,08005.7923,W,1,9,1.7,19,M,,M,,*59
06/24/2015	03:08:22.536	$GPGGA,030823,2526.0950,N,08005.7927,W,1,9,1.7,19,M,,M,,*54
06/24/2015	03:08:23.575	$GPGGA,030824,2526.0941,N,08005.7930,W,1,9,1.7,19,M,,M,,*55
06/24/2015	03:08:24.535	$GPGGA,030825,2526.0931,N,08005.7933,W,1,9,1.7,19,M,,M,,*50
06/24/2015	03:08:25.565	$GPGGA,030826,2526.0923,N,08005.7934,W,1,9,1.7,19,M,,M,,*57
06/24/2015	03:08:26.536	$GPGGA,030827,2526.0914,N,08005.7938,W,1,9,1.7,19,M,,M,,*5E
06/24/2015	03:08:27.525	$GPGGA,030828,2526.0905,N,08005.7941,W,1,9,1.7,20,M,,M,,*55
06/24/2015	03:08:28.535	$GPGGA,030829,2526.0895,N,08005.7944,W,1,9,1.7,20,M,,M,,*59
06/24/2015	03:08:29.514	$GPGGA,030830,2526.0887,N,08005.7946,W,1,9,1.7,20,M,,M,,*50
06/24/2015	03:08:30.525	$GPGGA,030831,2526.0877,N,08005.7949,W,1,9,1.7,20,M,,M,,*51
06/24/2015	03:08:31.535	$GPGGA,030832,2526.0869,N,08005.7952,W,1,9,1.7,20,M,,M,,*57
06/24/2015	03:08:32.505	$GPGGA,030833,2526.0858,N,08005.7955,W,1,9,1.7,20,M,,M,,*53
06/24/2015	03:08:33.548	$GPGGA,030834,2526.0849,N,08005.7957,W,1,9,1.7,20,M,,M,,*56
06/24/2015	03:08:34.505	$GPGGA,030835,2526.0840,N,08005.7959,W,1,9,1.7,20,M,,M,,*50
06/24/2015	03:08:35.655	$GPGGA,030836,2526.0831,N,08005.7962,W,1,9,1.7,20,M,,M,,*5D
06/24/2015	03:08:36.516	$GPGGA,030837,2526.0822,N,08005.7966,W,1,9,1.7,20,M,,M,,*5A
06/24/2015	03:08:37.615	$GPGGA,030838,2526.0813,N,08005.7967,W,1,9,1.7,20,M,,M,,*56
06/24/2015	03:08:38.505	$GPGGA,030839,2526.0804,N,08005.7970,W,1,9,1.7,20,M,,M,,*57
06/24/2015	03:08:39.505	$GPGGA,030840,2526.0797,N,08005.7973,W,1,9,1.7,20,M,,M,,*5F
06/24/2015	03:08:40.495	$GPGGA,030841,2526.0787,N,08005.7975,W,1,9,1.7,20,M,,M,,*59
06/24/2015	03:08:41.505	$GPGGA,030842,2526.0779,N,08005.7977,W,1,9,1.7,20,M,,M,,*59
06/24/2015	03:08:42.605	$GPGGA,030843,2526.0769,N,08005.7980,W,1,9,1.7,20,M,,M,,*51
06/24/2015	03:08:43.615	$GPGGA,030844,2526.0762,N,08005.7981,W,1,9,1.7,20,M,,M,,*5C
06/24/2015	03:08:44.585	$GPGGA,030845,2526.0751,N,08005.7985,W,1,9,3.7,20,M,,M,,*5B
06/24/2015	03:08:45.584	$GPGGA,030846,2526.0742,N,08005.7985,W,1,9,1.7,20,M,,M,,*58
06/24/2015	03:08:46.584	$GPGGA,030847,2526.0735,N,08005.7988,W,1,9,1.7,20,M,,M,,*54
06/24/2015	03:08:47.505	$GPGGA,030848,2526.0728,N,08005.7989,W,1,8,3.7,20,M,,M,,*55
06/24/2015	03:08:48.575	$GPGGA,030849,2526.0717,N,08005.7992,W,1,8,3.7,19,M,,M,,*58
06/24/2015	03:08:49.485	$GPGGA,030850,2526.0706,N,08005.7995,W,1,9,1.7,19,M,,M,,*54
06/24/2015	03:08:50.485	$GPGGA,030851,2526.0696,N,08005.7999,W,1,9,1.7,19,M,,M,,*51
06/24/2015	03:08:51.615	$GPGGA,030852,2526.0687,N,08005.8002,W,1,9,1.7,19,M,,M,,*56
06/24/2015	03:08:52.575	$GPGGA,030853,2526.0677,N,08005.8003,W,1,9,1.7,19,M,,M,,*59
06/24/2015	03:08:53.565	$GPGGA,030854,2526.0668,N,08005.8007,W,1,9,1.7,19,M,,M,,*54
06/24/2015	03:08:54.575	$GPGGA,030855,2526.0659,N,08005.8010,W,1,9,1.7,19,M,,M,,*51
06/24/2015	03:08:55.585	$GPGGA,030856,2526.0649,N,08005.8010,W,1,9,1.7,19,M,,M,,*53
06/24/2015	03:08:56.565	$GPGGA,030857,2526.0639,N,08005.8013,W,1,9,1.7,19,M,,M,,*56
06/24/2015	03:08:57.585	$GPGGA,030858,2526.0630,N,08005.8016,W,1,9,1.7,19,M,,M,,*55
06/24/2015	03:08:58.565	$GPGGA,030859,2526.0621,N,08005.8018,W,1,9,1.7,19,M,,M,,*5A
06/24/2015	03:08:59.585	$GPGGA,030900,2526.0612,N,08005.8017,W,1,9,1.7,19,M,,M,,*58
06/24/2015	03:09:00.575	$GPGGA,030901,2526.0602,N,08005.8020,W,1,9,1.7,19,M,,M,,*5C
06/24/2015	03:09:01.575	$GPGGA,030902,2526.0593,N,08005.8024,W,1,9,1.7,19,M,,M,,*50
06/24/2015	03:09:02.555	$GPGGA,030903,2526.0584,N,08005.8024,W,1,9,1.7,19,M,,M,,*57
06/24/2015	03:09:03.584	$GPGGA,030904,2526.0575,N,08005.8024,W,1,9,1.7,19,M,,M,,*5E
06/24/2015	03:09:04.557	$GPGGA,030905,2526.0566,N,08005.8027,W,1,9,1.7,19,M,,M,,*5E
06/24/2015	03:09:05.565	$GPGGA,030906,2526.0557,N,08005.8031,W,1,9,1.7,19,M,,M,,*58
06/24/2015	03:09:06.549	$GPGGA,030907,2526.0547,N,08005.8030,W,1,9,1.7,19,M,,M,,*59
06/24/2015	03:09:07.585	$GPGGA,030908,2526.0540,N,08005.8032,W,1,9,1.7,19,M,,M,,*53
06/24/2015	03:09:08.547	$GPGGA,030909,2526.0530,N,08005.8035,W,1,9,1.7,19,M,,M,,*52
06/24/2015	03:09:09.525	$GPGGA,030910,2526.0520,N,08005.8036,W,1,9,1.7,19,M,,M,,*58
06/24/2015	03:09:10.540	$GPGGA,030911,2526.0511,N,08005.8038,W,1,9,1.7,19,M,,M,,*55
06/24/2015	03:09:11.615	$GPGGA,030912,2526.0502,N,08005.8039,W,1,9,1.7,19,M,,M,,*55
06/24/2015	03:09:12.543	$GPGGA,030913,2526.0492,N,08005.8040,W,1,9,1.7,19,M,,M,,*52
06/24/2015	03:09:13.549	$GPGGA,030914,2526.0483,N,08005.8042,W,1,9,1.7,19,M,,M,,*57
06/24/2015	03:09:14.515	$GPGGA,030915,2526.0475,N,08005.8045,W,1,9,1.7,19,M,,M,,*58
06/24/2015	03:09:15.555	$GPGGA,030916,2526.0465,N,08005.8046,W,1,9,1.7,19,M,,M,,*59
06/24/2015	03:09:16.515	$GPGGA,030917,2526.0457,N,08005.8047,W,1,9,1.7,19,M,,M,,*58
06/24/2015	03:09:17.555	$GPGGA,030918,2526.0446,N,08005.8049,W,1,9,1.7,19,M,,M,,*59
06/24/2015	03:09:18.525	$GPGGA,030919,2526.0437,N,08005.8053,W,1,9,1.7,19,M,,M,,*55
06/24/2015	03:09:19.550	$GPGGA,030920,2526.0428,N,08005.8053,W,1,9,1.7,19,M,,M,,*51
06/24/2015	03:09:20.514	$GPGGA,030921,2526.0418,N,08005.8054,W,1,9,1.7,19,M,,M,,*54
06/24/2015	03:09:21.515	$GPGGA,030922,2526.0410,N,08005.8056,W,1,9,1.7,19,M,,M,,*5D
06/24/2015	03:09:22.504	$GPGGA,030923,2526.0400,N,08005.8060,W,1,9,1.7,19,M,,M,,*58
06/24/2015	03:09:23.538	$GPGGA,030924,2526.0392,N,08005.8061,W,1,9,1.7,19,M,,M,,*52
06/24/2015	03:09:24.505	$GPGGA,030925,2526.0383,N,08005.8061,W,1,9,1.7,19,M,,M,,*53
06/24/2015	03:09:25.515	$GPGGA,030926,2526.0374,N,08005.8064,W,1,8,3.7,19,M,,M,,*5E
06/24/2015	03:09:26.505	$GPGGA,030927,2526.0364,N,08005.8068,W,1,8,1.7,19,M,,M,,*50
06/24/2015	03:09:27.525	$GPGGA,030928,2526.0356,N,08005.8071,W,1,9,1.7,18,M,,M,,*56
06/24/2015	03:09:28.505	$GPGGA,030929,2526.0345,N,08005.8072,W,1,9,1.7,18,M,,M,,*56
06/24/2015	03:09:29.615	$GPGGA,030930,2526.0335,N,08005.8076,W,1,9,1.7,18,M,,M,,*5D
06/24/2015	03:09:30.485	$GPGGA,030931,2526.0327,N,08005.8081,W,1,9,1.7,18,M,,M,,*57
06/24/2015	03:09:31.505	$GPGGA,030932,2526.0316,N,08005.8082,W,1,9,1.7,18,M,,M,,*55
06/24/2015	03:09:32.605	$GPGGA,030933,2526.0307,N,08005.8085,W,1,9,1.7,18,M,,M,,*53
06/24/2015	03:09:33.625	$GPGGA,030934,2526.0298,N,08005.8089,W,1,9,1.7,18,M,,M,,*5F
06/24/2015	03:09:34.615	$GPGGA,030935,2526.0289,N,08005.8092,W,1,9,1.7,18,M,,M,,*54
06/24/2015	03:09:35.615	$GPGGA,030936,2526.0280,N,08005.8093,W,1,9,1.7,18,M,,M,,*5F
06/24/2015	03:09:36.495	$GPGGA,030937,2526.0271,N,08005.8098,W,1,9,1.7,18,M,,M,,*5B
06/24/2015	03:09:37.595	$GPGGA,030938,2526.0262,N,08005.8103,W,1,9,1.7,18,M,,M,,*55
06/24/2015	03:09:38.574	$GPGGA,030939,2526.0252,N,08005.8104,W,1,9,1.7,18,M,,M,,*50
06/24/2015	03:09:39.624	$GPGGA,030940,2526.0244,N,08005.8107,W,1,9,1.7,18,M,,M,,*5A
06/24/2015	03:09:40.575	$GPGGA,030941,2526.0234,N,08005.8112,W,1,9,1.7,18,M,,M,,*58
06/24/2015	03:09:41.595	$GPGGA,030942,2526.0226,N,08005.8116,W,1,9,1.7,19,M,,M,,*5D
06/24/2015	03:09:42.565	$GPGGA,030943,2526.0216,N,08005.8118,W,1,9,1.7,19,M,,M,,*51
06/24/2015	03:09:43.615	$GPGGA,030944,2526.0208,N,08005.8121,W,1,9,1.7,19,M,,M,,*53
06/24/2015	03:09:44.565	$GPGGA,030945,2526.0198,N,08005.8126,W,1,9,1.7,19,M,,M,,*5F
06/24/2015	03:09:45.595	$GPGGA,030946,2526.0190,N,08005.8129,W,1,9,1.7,19,M,,M,,*5B
06/24/2015	03:09:46.555	$GPGGA,030947,2526.0179,N,08005.8129,W,1,9,1.7,19,M,,M,,*5D
06/24/2015	03:09:47.565	$GPGGA,030948,2526.0170,N,08005.8133,W,1,9,1.7,19,M,,M,,*50
06/24/2015	03:09:48.565	$GPGGA,030949,2526.0161,N,08005.8139,W,1,9,1.7,19,M,,M,,*5B
06/24/2015	03:09:49.585	$GPGGA,030950,2526.0152,N,08005.8139,W,1,9,1.7,19,M,,M,,*53
06/24/2015	03:09:50.555	$GPGGA,030951,2526.0143,N,08005.8141,W,1,9,1.7,19,M,,M,,*5D
06/24/2015	03:09:51.555	$GPGGA,030952,2526.0133,N,08005.8145,W,1,9,1.7,19,M,,M,,*5D
06/24/2015	03:09:52.546	$GPGGA,030953,2526.0125,N,08005.8147,W,1,9,1.7,19,M,,M,,*59
06/24/2015	03:09:53.565	$GPGGA,030954,2526.0115,N,08005.8150,W,1,9,1.7,19,M,,M,,*5B
06/24/2015	03:09:55.005	$GPGGA,030955,2526.0105,N,08005.8151,W,1,9,1.7,19,M,,M,,*5A
06/24/2015	03:09:55.584	$GPGGA,030956,2526.0096,N,08005.8155,W,1,9,1.7,19,M,,M,,*56
06/24/2015	03:09:56.534	$GPGGA,030957,2526.0087,N,08005.8158,W,1,9,1.7,19,M,,M,,*5A
06/24/2015	03:09:57.564	$GPGGA,030958,2526.0078,N,08005.8158,W,1,9,1.7,19,M,,M,,*55
06/24/2015	03:09:58.538	$GPGGA,030959,2526.0069,N,08005.8162,W,1,9,1.7,19,M,,M,,*5D
06/24/2015	03:09:59.575	$GPGGA,031000,2526.0061,N,08005.8162,W,1,9,1.7,19,M,,M,,*51
06/24/2015	03:10:00.552	$GPGGA,031001,2526.0052,N,08005.8163,W,1,9,3.6,19,M,,M,,*52
06/24/2015	03:10:01.555	$GPGGA,031002,2526.0043,N,08005.8166,W,1,9,1.7,19,M,,M,,*57
06/24/2015	03:10:02.525	$GPGGA,031003,2526.0033,N,08005.8169,W,1,9,1.7,19,M,,M,,*5E
06/24/2015	03:10:03.555	$GPGGA,031004,2526.0022,N,08005.8172,W,1,9,1.7,19,M,,M,,*53
06/24/2015	03:10:04.538	$GPGGA,031005,2526.0013,N,08005.8173,W,1,9,1.7,19,M,,M,,*51
06/24/2015	03:10:05.555	$GPGGA,031006,2526.0004,N,08005.8177,W,1,9,1.7,18,M,,M,,*51
06/24/2015	03:10:06.525	$GPGGA,031007,2525.9995,N,08005.8179,W,1,9,1.7,18,M,,M,,*55
06/24/2015	03:10:07.535	$GPGGA,031008,2525.9985,N,08005.8180,W,1,9,1.7,18,M,,M,,*5D
06/24/2015	03:10:08.525	$GPGGA,031009,2525.9977,N,08005.8183,W,1,9,1.7,18,M,,M,,*52
06/24/2015	03:10:09.505	$GPGGA,031010,2525.9966,N,08005.8186,W,1,9,1.7,18,M,,M,,*5F
06/24/2015	03:10:10.515	$GPGGA,031011,2525.9957,N,08005.8186,W,1,9,1.7,18,M,,M,,*5C
06/24/2015	03:10:11.555	$GPGGA,031012,2525.9948,N,08005.8190,W,1,9,1.7,18,M,,M,,*56
06/24/2015	03:10:12.515	$GPGGA,031013,2525.9938,N,08005.8191,W,1,9,1.7,18,M,,M,,*51
06/24/2015	03:10:13.514	$GPGGA,031014,2525.9930,N,08005.8191,W,1,9,1.7,18,M,,M,,*5E
06/24/2015	03:10:14.514	$GPGGA,031015,2525.9920,N,08005.8194,W,1,9,1.7,18,M,,M,,*5B
06/24/2015	03:10:15.638	$GPGGA,031016,2525.9911,N,08005.8197,W,1,9,1.7,18,M,,M,,*59
06/24/2015	03:10:16.515	$GPGGA,031017,2525.9901,N,08005.8196,W,1,9,1.7,18,M,,M,,*58
06/24/2015	03:10:17.615	$GPGGA,031018,2525.9892,N,08005.8197,W,1,9,1.7,18,M,,M,,*5D
06/24/2015	03:10:19.865	$GPGGA,031020,2525.9873,N,08005.8201,W,1,9,1.7,18,M,,M,,*55
06/24/2015	03:10:20.506	$GPGGA,031021,2525.9865,N,08005.8201,W,1,9,1.7,18,M,,M,,*53
06/24/2015	03:10:21.585	$GPGGA,031022,2525.9855,N,08005.8204,W,1,9,1.7,18,M,,M,,*56
06/24/2015	03:10:22.485	$GPGGA,031023,2525.9845,N,08005.8206,W,1,9,1.7,18,M,,M,,*54
06/24/2015	03:10:23.495	$GPGGA,031024,2525.9834,N,08005.8206,W,1,9,1.7,18,M,,M,,*55
06/24/2015	03:10:24.575	$GPGGA,031025,2525.9825,N,08005.8208,W,1,9,1.7,18,M,,M,,*5A
06/24/2015	03:10:25.485	$GPGGA,031026,2525.9818,N,08005.8212,W,1,9,1.7,18,M,,M,,*5C
06/24/2015	03:10:26.585	$GPGGA,031027,2525.9807,N,08005.8212,W,1,9,1.7,18,M,,M,,*53
06/24/2015	03:10:27.595	$GPGGA,031028,2525.9797,N,08005.8213,W,1,9,1.7,18,M,,M,,*5B
06/24/2015	03:10:28.495	$GPGGA,031029,2525.9789,N,08005.8217,W,1,9,1.7,18,M,,M,,*51
06/24/2015	03:10:29.575	$GPGGA,031030,2525.9781,N,08005.8219,W,1,9,1.7,18,M,,M,,*5F
06/24/2015	03:10:30.584	$GPGGA,031031,2525.9772,N,08005.8216,W,1,9,3.6,18,M,,M,,*5E
06/24/2015	03:10:31.604	$GPGGA,031032,2525.9764,N,08005.8219,W,1,8,3.6,17,M,,M,,*5B
06/24/2015	03:10:32.574	$GPGGA,031033,2525.9754,N,08005.8223,W,1,8,1.7,17,M,,M,,*53
06/24/2015	03:10:34.081	$GPGGA,031034,2525.9745,N,08005.8226,W,1,9,1.7,17,M,,M,,*50
06/24/2015	03:10:34.565	$GPGGA,031035,2525.9738,N,08005.8224,W,1,9,1.7,17,M,,M,,*59
06/24/2015	03:10:35.595	$GPGGA,031036,2525.9729,N,08005.8227,W,1,8,3.6,17,M,,M,,*5B
06/24/2015	03:10:36.565	$GPGGA,031037,2525.9721,N,08005.8228,W,1,8,3.6,17,M,,M,,*5D
06/24/2015	03:10:37.565	$GPGGA,031038,2525.9713,N,08005.8228,W,1,8,3.6,16,M,,M,,*52
06/24/2015	03:10:38.555	$GPGGA,031039,2525.9702,N,08005.8230,W,1,8,3.6,16,M,,M,,*5A
06/24/2015	03:10:39.565	$GPGGA,031040,2525.9692,N,08005.8235,W,1,9,1.7,16,M,,M,,*5B
06/24/2015	03:10:41.605	$GPGGA,031042,2525.9674,N,08005.8237,W,1,8,3.6,16,M,,M,,*51
06/24/2015	03:10:42.548	$GPGGA,031043,2525.9664,N,08005.8241,W,1,8,1.7,15,M,,M,,*50
06/24/2015	03:10:43.595	$GPGGA,031044,2525.9655,N,08005.8244,W,1,9,1.7,15,M,,M,,*51
06/24/2015	03:10:44.555	$GPGGA,031045,2525.9648,N,08005.8246,W,1,9,1.7,15,M,,M,,*5E
06/24/2015	03:10:45.537	$GPGGA,031046,2525.9637,N,08005.8248,W,1,9,1.7,15,M,,M,,*5B
06/24/2015	03:10:46.550	$GPGGA,031047,2525.9628,N,08005.8251,W,1,9,1.7,15,M,,M,,*5C
06/24/2015	03:10:47.575	$GPGGA,031048,2525.9619,N,08005.8255,W,1,9,1.7,15,M,,M,,*55
06/24/2015	03:10:48.534	$GPGGA,031049,2525.9609,N,08005.8258,W,1,9,1.7,15,M,,M,,*58
06/24/2015	03:10:49.524	$GPGGA,031050,2525.9599,N,08005.8259,W,1,9,1.7,15,M,,M,,*5B
06/24/2015	03:10:50.536	$GPGGA,031051,2525.9591,N,08005.8264,W,1,9,1.7,15,M,,M,,*5C
06/24/2015	03:10:51.905	$GPGGA,031052,2525.9583,N,08005.8267,W,1,9,1.7,15,M,,M,,*5F
06/24/2015	03:10:52.539	$GPGGA,031053,2525.9572,N,08005.8270,W,1,9,1.7,15,M,,M,,*56
06/24/2015	03:10:53.535	$GPGGA,031054,2525.9565,N,08005.8270,W,1,9,1.7,15,M,,M,,*57
06/24/2015	03:10:54.536	$GPGGA,031055,2525.9555,N,08005.8274,W,1,9,3.6,15,M,,M,,*52
06/24/2015	03:10:55.555	$GPGGA,031056,2525.9545,N,08005.8278,W,1,9,1.7,15,M,,M,,*5F
06/24/2015	03:10:56.515	$GPGGA,031057,2525.9536,N,08005.8280,W,1,9,1.7,15,M,,M,,*5D
06/24/2015	03:10:57.525	$GPGGA,031058,2525.9526,N,08005.8284,W,1,9,1.7,15,M,,M,,*57
06/24/2015	03:10:58.525	$GPGGA,031059,2525.9518,N,08005.8287,W,1,9,1.7,15,M,,M,,*58
06/24/2015	03:10:59.575	$GPGGA,031100,2525.9508,N,08005.8289,W,1,9,1.7,15,M,,M,,*5A
06/24/2015	03:11:00.515	$GPGGA,031101,2525.9500,N,08005.8292,W,1,9,1.7,15,M,,M,,*59
06/24/2015	03:11:01.525	$GPGGA,031102,2525.9490,N,08005.8295,W,1,9,1.7,15,M,,M,,*55
06/24/2015	03:11:02.505	$GPGGA,031103,2525.9482,N,08005.8298,W,1,9,1.7,15,M,,M,,*5A
06/24/2015	03:11:03.665	$GPGGA,031104,2525.9472,N,08005.8302,W,1,9,1.7,15,M,,M,,*50
06/24/2015	03:11:04.505	$GPGGA,031105,2525.9462,N,08005.8303,W,1,9,1.7,15,M,,M,,*51
06/24/2015	03:11:05.549	$GPGGA,031106,2525.9454,N,08005.8306,W,1,9,1.7,15,M,,M,,*52
06/24/2015	03:11:06.514	$GPGGA,031107,2525.9444,N,08005.8311,W,1,9,3.6,15,M,,M,,*57
06/24/2015	03:11:07.654	$GPGGA,031108,2525.9433,N,08005.8316,W,1,9,1.7,15,M,,M,,*5C
06/24/2015	03:11:08.845	$GPGGA,031109,2525.9425,N,08005.8314,W,1,9,1.7,15,M,,M,,*58
06/24/2015	03:11:09.485	$GPGGA,031110,2525.9417,N,08005.8318,W,1,8,3.6,15,M,,M,,*5F
06/24/2015	03:11:10.605	$GPGGA,031111,2525.9408,N,08005.8320,W,1,8,3.6,15,M,,M,,*5B
06/24/2015	03:11:11.605	$GPGGA,031112,2525.9400,N,08005.8320,W,1,8,3.6,15,M,,M,,*50
06/24/2015	03:11:12.485	$GPGGA,031113,2525.9391,N,08005.8321,W,1,8,3.6,15,M,,M,,*5F
06/24/2015	03:11:13.485	$GPGGA,031114,2525.9384,N,08005.8324,W,1,9,1.7,15,M,,M,,*5B
06/24/2015	03:11:14.585	$GPGGA,031115,2525.9374,N,08005.8327,W,1,9,3.6,15,M,,M,,*55
06/24/2015	03:11:15.605	$GPGGA,031116,2525.9364,N,08005.8326,W,1,8,1.7,15,M,,M,,*54
06/24/2015	03:11:16.485	$GPGGA,031117,2525.9356,N,08005.8329,W,1,8,1.7,15,M,,M,,*5B
06/24/2015	03:11:17.605	$GPGGA,031118,2525.9348,N,08005.8332,W,1,8,3.6,15,M,,M,,*52
06/24/2015	03:11:18.565	$GPGGA,031119,2525.9337,N,08005.8334,W,1,8,1.7,15,M,,M,,*5E
06/24/2015	03:11:19.645	$GPGGA,031120,2525.9327,N,08005.8335,W,1,9,1.7,15,M,,M,,*55
06/24/2015	03:11:20.575	$GPGGA,031121,2525.9319,N,08005.8340,W,1,9,1.7,15,M,,M,,*5B
06/24/2015	03:11:21.595	$GPGGA,031122,2525.9307,N,08005.8342,W,1,9,1.7,14,M,,M,,*54
06/24/2015	03:11:22.565	$GPGGA,031123,2525.9298,N,08005.8342,W,1,9,1.7,14,M,,M,,*52
06/24/2015	03:11:23.584	$GPGGA,031124,2525.9290,N,08005.8346,W,1,9,1.7,14,M,,M,,*59
06/24/2015	03:11:25.607	$GPGGA,031126,2525.9269,N,08005.8350,W,1,9,1.7,14,M,,M,,*5A
06/24/2015	03:11:26.565	$GPGGA,031127,2525.9260,N,08005.8352,W,1,9,1.7,14,M,,M,,*50
06/24/2015	03:11:27.585	$GPGGA,031128,2525.9250,N,08005.8354,W,1,9,1.7,14,M,,M,,*5A
06/24/2015	03:11:28.556	$GPGGA,031129,2525.9240,N,08005.8356,W,1,9,1.7,14,M,,M,,*58
06/24/2015	03:11:29.575	$GPGGA,031130,2525.9230,N,08005.8357,W,1,9,1.7,14,M,,M,,*56
06/24/2015	03:11:30.555	$GPGGA,031131,2525.9220,N,08005.8360,W,1,9,1.7,15,M,,M,,*53
06/24/2015	03:11:31.585	$GPGGA,031132,2525.9211,N,08005.8363,W,1,9,1.7,15,M,,M,,*51
06/24/2015	03:11:32.550	$GPGGA,031133,2525.9202,N,08005.8365,W,1,9,1.7,15,M,,M,,*54
06/24/2015	03:11:33.552	$GPGGA,031134,2525.9193,N,08005.8365,W,1,9,1.7,15,M,,M,,*58
06/24/2015	03:11:34.552	$GPGGA,031135,2525.9182,N,08005.8367,W,1,9,1.7,15,M,,M,,*5B
06/24/2015	03:11:35.615	$GPGGA,031136,2525.9173,N,08005.8371,W,1,9,1.7,15,M,,M,,*51
06/24/2015	03:11:36.537	$GPGGA,031137,2525.9164,N,08005.8372,W,1,9,1.7,15,M,,M,,*55
06/24/2015	03:11:37.552	$GPGGA,031138,2525.9153,N,08005.8374,W,1,9,1.7,15,M,,M,,*58
06/24/2015	03:11:38.540	$GPGGA,031139,2525.9143,N,08005.8376,W,1,9,1.7,15,M,,M,,*5A
06/24/2015	03:11:39.575	$GPGGA,031140,2525.9135,N,08005.8379,W,1,9,1.7,15,M,,M,,*5A
06/24/2015	03:11:40.537	$GPGGA,031141,2525.9124,N,08005.8382,W,1,9,1.7,15,M,,M,,*5F
06/24/2015	03:11:41.554	$GPGGA,031142,2525.9114,N,08005.8382,W,1,9,1.7,16,M,,M,,*5C
06/24/2015	03:11:42.544	$GPGGA,031143,2525.9104,N,08005.8385,W,1,9,1.7,16,M,,M,,*5B
06/24/2015	03:11:43.555	$GPGGA,031144,2525.9095,N,08005.8389,W,1,9,1.7,16,M,,M,,*59
06/24/2015	03:11:44.552	$GPGGA,031145,2525.9086,N,08005.8389,W,1,9,1.7,16,M,,M,,*5A
06/24/2015	03:11:45.537	$GPGGA,031146,2525.9078,N,08005.8389,W,1,9,3.5,16,M,,M,,*58
06/24/2015	03:11:46.549	$GPGGA,031147,2525.9068,N,08005.8393,W,1,9,1.7,16,M,,M,,*53
06/24/2015	03:11:47.640	$GPGGA,031148,2525.9059,N,08005.8394,W,1,9,1.7,16,M,,M,,*59
06/24/2015	03:11:48.525	$GPGGA,031149,2525.9048,N,08005.8396,W,1,9,1.7,16,M,,M,,*5A
06/24/2015	03:11:49.525	$GPGGA,031150,2525.9041,N,08005.8400,W,1,9,1.7,16,M,,M,,*53
06/24/2015	03:11:50.626	$GPGGA,031151,2525.9031,N,08005.8403,W,1,9,1.7,16,M,,M,,*56
06/24/2015	03:11:51.555	$GPGGA,031152,2525.9021,N,08005.8403,W,1,9,1.7,16,M,,M,,*54
06/24/2015	03:11:52.525	$GPGGA,031153,2525.9012,N,08005.8407,W,1,9,1.7,17,M,,M,,*50
