Software Version Number: 1	Data File Format Number: 1	Build Version Number: 1	Error Count Since VI Started: 1	Manufacturer: Raytheon	 Model Number: RayMarine 120	 S/N: 	 Cal Date: 	 Wind Direction Offset: 0.00	 Slope (M)1: 0.00	 Offset (B)1: 0.00	 Slope (M)2: 0.00	 Offset (B)2: 0.00	 Slope (M)3: 0.00	 Offset (B)3: 0.00	 Slope (M)4: 0.00	 Offset (B)4: 0.00	 Slope (M)5: 0.00	 Offset (B)5: 0.00	 Slope (M)6: 0.00	 Offset (B)6: 0.00
Computer Date	Computer Time	GGA String
06/14/2015	14:00:00.603	$GPGGA,140001,2430.8759,N,08100.2077,W,1,9,1.6,13,M,,M,,*55
06/14/2015	14:00:01.495	$GPGGA,140002,2430.8759,N,08100.2081,W,1,9,1.6,13,M,,M,,*5F
06/14/2015	14:00:02.492	$GPGGA,140003,2430.8761,N,08100.2085,W,1,9,1.6,13,M,,M,,*51
06/14/2015	14:00:03.601	$GPGGA,140004,2430.8762,N,08100.2088,W,1,9,1.6,13,M,,M,,*58
06/14/2015	14:00:04.581	$GPGGA,140005,2430.8763,N,08100.2092,W,1,9,1.6,13,M,,M,,*53
06/14/2015	14:00:05.611	$GPGGA,140006,2430.8763,N,08100.2095,W,1,9,1.6,13,M,,M,,*57
06/14/2015	14:00:07.021	$GPGGA,140007,2430.8765,N,08100.2097,W,1,9,1.6,13,M,,M,,*52
06/14/2015	14:00:07.592	$GPGGA,140008,2430.8766,N,08100.2102,W,1,9,1.6,13,M,,M,,*53
06/14/2015	14:00:08.570	$GPGGA,140009,2430.8766,N,08100.2106,W,1,9,1.6,13,M,,M,,*56
06/14/2015	14:00:09.571	$GPGGA,140010,2430.8768,N,08100.2110,W,1,9,1.6,13,M,,M,,*57
06/14/2015	14:00:10.582	$GPGGA,140011,2430.8767,N,08100.2111,W,1,9,1.7,13,M,,M,,*59
06/14/2015	14:00:11.621	$GPGGA,140012,2430.8769,N,08100.2113,W,1,9,1.6,12,M,,M,,*56
06/14/2015	14:00:12.561	$GPGGA,140013,2430.8770,N,08100.2115,W,1,9,1.6,12,M,,M,,*59
06/14/2015	14:00:13.581	$GPGGA,140014,2430.8770,N,08100.2120,W,1,9,1.6,12,M,,M,,*58
06/14/2015	14:00:14.561	$GPGGA,140015,2430.8772,N,08100.2124,W,1,9,1.6,12,M,,M,,*5F
06/14/2015	14:00:15.611	$GPGGA,140016,2430.8774,N,08100.2128,W,1,9,1.6,12,M,,M,,*56
06/14/2015	14:00:16.561	$GPGGA,140017,2430.8776,N,08100.2131,W,1,9,1.6,12,M,,M,,*5D
06/14/2015	14:00:17.571	$GPGGA,140018,2430.8775,N,08100.2133,W,1,8,1.7,12,M,,M,,*53
06/14/2015	14:00:18.551	$GPGGA,140019,2430.8777,N,08100.2136,W,1,8,1.6,12,M,,M,,*54
06/14/2015	14:00:19.601	$GPGGA,140020,2430.8777,N,08100.2139,W,1,9,1.6,12,M,,M,,*50
06/14/2015	14:00:20.551	$GPGGA,140021,2430.8780,N,08100.2142,W,1,9,1.6,12,M,,M,,*55
06/14/2015	14:00:21.561	$GPGGA,140022,2430.8781,N,08100.2146,W,1,9,1.6,12,M,,M,,*53
06/14/2015	14:00:22.551	$GPGGA,140023,2430.8781,N,08100.2150,W,1,9,1.6,12,M,,M,,*55
06/14/2015	14:00:23.551	$GPGGA,140024,2430.8783,N,08100.2151,W,1,9,1.6,12,M,,M,,*51
06/14/2015	14:00:24.541	$GPGGA,140025,2430.8784,N,08100.2154,W,1,9,1.6,12,M,,M,,*52
06/14/2015	14:00:25.560	$GPGGA,140026,2430.8784,N,08100.2157,W,1,9,1.6,12,M,,M,,*52
06/14/2015	14:00:26.541	$GPGGA,140027,2430.8787,N,08100.2160,W,1,9,1.6,12,M,,M,,*54
06/14/2015	14:00:27.541	$GPGGA,140028,2430.8788,N,08100.2162,W,1,9,1.6,12,M,,M,,*56
06/14/2015	14:00:28.531	$GPGGA,140029,2430.8788,N,08100.2164,W,1,9,1.6,12,M,,M,,*51
06/14/2015	14:00:29.531	$GPGGA,140030,2430.8788,N,08100.2167,W,1,8,1.7,12,M,,M,,*5A
06/14/2015	14:00:30.521	$GPGGA,140031,2430.8790,N,08100.2168,W,1,8,1.6,12,M,,M,,*5C
06/14/2015	14:00:31.541	$GPGGA,140032,2430.8792,N,08100.2169,W,1,9,1.6,12,M,,M,,*5D
06/14/2015	14:00:32.521	$GPGGA,140033,2430.8792,N,08100.2172,W,1,9,1.6,12,M,,M,,*56
06/14/2015	14:00:33.552	$GPGGA,140034,2430.8792,N,08100.2175,W,1,9,1.6,12,M,,M,,*56
06/14/2015	14:00:34.521	$GPGGA,140035,2430.8794,N,08100.2176,W,1,9,1.6,12,M,,M,,*52
06/14/2015	14:00:35.561	$GPGGA,140036,2430.8795,N,08100.2178,W,1,9,1.6,12,M,,M,,*5E
06/14/2015	14:00:36.521	$GPGGA,140037,2430.8797,N,08100.2182,W,1,9,1.6,12,M,,M,,*58
06/14/2015	14:00:37.531	$GPGGA,140038,2430.8798,N,08100.2184,W,1,9,1.6,12,M,,M,,*5E
06/14/2015	14:00:38.501	$GPGGA,140039,2430.8799,N,08100.2189,W,1,9,1.6,12,M,,M,,*53
06/14/2015	14:00:39.531	$GPGGA,140040,2430.8802,N,08100.2190,W,1,9,1.6,12,M,,M,,*58
06/14/2015	14:00:40.501	$GPGGA,140041,2430.8801,N,08100.2191,W,1,9,1.6,12,M,,M,,*5B
06/14/2015	14:00:41.521	$GPGGA,140042,2430.8802,N,08100.2194,W,1,9,1.6,12,M,,M,,*5E
06/14/2015	14:00:42.510	$GPGGA,140043,2430.8802,N,08100.2197,W,1,9,1.6,12,M,,M,,*5C
06/14/2015	14:00:43.510	$GPGGA,140044,2430.8806,N,08100.2200,W,1,9,1.6,12,M,,M,,*52
06/14/2015	14:00:45.651	$GPGGA,140046,2430.8806,N,08100.2204,W,1,9,1.6,12,M,,M,,*54
06/14/2015	14:00:46.501	$GPGGA,140047,2430.8808,N,08100.2207,W,1,9,1.6,13,M,,M,,*59
06/14/2015	14:00:47.631	$GPGGA,140048,2430.8810,N,08100.2211,W,1,9,1.6,13,M,,M,,*58
06/14/2015	14:00:48.591	$GPGGA,140049,2430.8812,N,08100.2212,W,1,9,1.6,13,M,,M,,*58
06/14/2015	14:00:49.581	$GPGGA,140050,2430.8811,N,08100.2214,W,1,9,1.6,13,M,,M,,*55
06/14/2015	14:00:50.491	$GPGGA,140051,2430.8813,N,08100.2215,W,1,9,1.6,13,M,,M,,*57
06/14/2015	14:00:51.501	$GPGGA,140052,2430.8816,N,08100.2218,W,1,9,1.6,13,M,,M,,*5C
06/14/2015	14:00:52.581	$GPGGA,140053,2430.8815,N,08100.2222,W,1,9,1.6,13,M,,M,,*57
06/14/2015	14:00:53.871	$GPGGA,140054,2430.8816,N,08100.2225,W,1,9,1.6,13,M,,M,,*54
06/14/2015	14:00:54.571	$GPGGA,140055,2430.8817,N,08100.2226,W,1,9,1.6,13,M,,M,,*57
06/14/2015	14:00:55.611	$GPGGA,140056,2430.8820,N,08100.2229,W,1,8,1.7,13,M,,M,,*5F
06/14/2015	14:00:56.571	$GPGGA,140057,2430.8821,N,08100.2230,W,1,8,1.6,13,M,,M,,*56
06/14/2015	14:00:57.571	$GPGGA,140058,2430.8821,N,08100.2232,W,1,9,1.6,13,M,,M,,*5A
06/14/2015	14:00:58.571	$GPGGA,140059,2430.8824,N,08100.2234,W,1,9,1.6,13,M,,M,,*58
06/14/2015	14:00:59.601	$GPGGA,140100,2430.8826,N,08100.2237,W,1,9,1.6,13,M,,M,,*54
06/14/2015	14:01:00.570	$GPGGA,140101,2430.8825,N,08100.2240,W,1,9,1.6,13,M,,M,,*56
06/14/2015	14:01:01.584	$GPGGA,140102,2430.8827,N,08100.2243,W,1,9,1.6,13,M,,M,,*54
06/14/2015	14:01:02.583	$GPGGA,140103,2430.8830,N,08100.2244,W,1,9,1.6,13,M,,M,,*54
06/14/2015	14:01:03.594	$GPGGA,140104,2430.8831,N,08100.2247,W,1,9,1.6,13,M,,M,,*51
06/14/2015	14:01:04.561	$GPGGA,140105,2430.8831,N,08100.2248,W,1,9,1.6,13,M,,M,,*5F
06/14/2015	14:01:05.571	$GPGGA,140106,2430.8833,N,08100.2251,W,1,9,1.6,13,M,,M,,*56
06/14/2015	14:01:06.551	$GPGGA,140107,2430.8835,N,08100.2254,W,1,9,1.6,13,M,,M,,*54
06/14/2015	14:01:07.593	$GPGGA,140108,2430.8835,N,08100.2256,W,1,9,1.6,13,M,,M,,*59
06/14/2015	14:01:08.551	$GPGGA,140109,2430.8837,N,08100.2258,W,1,9,1.6,13,M,,M,,*54
06/14/2015	14:01:09.571	$GPGGA,140110,2430.8839,N,08100.2259,W,1,9,1.6,13,M,,M,,*53
06/14/2015	14:01:10.531	$GPGGA,140111,2430.8839,N,08100.2262,W,1,9,1.6,13,M,,M,,*5A
06/14/2015	14:01:11.581	$GPGGA,140112,2430.8841,N,08100.2263,W,1,9,1.6,13,M,,M,,*57
06/14/2015	14:01:12.541	$GPGGA,140113,2430.8842,N,08100.2266,W,1,9,1.6,13,M,,M,,*50
06/14/2015	14:01:13.531	$GPGGA,140114,2430.8842,N,08100.2267,W,1,9,1.6,13,M,,M,,*56
06/14/2015	14:01:14.941	$GPGGA,140115,2430.8844,N,08100.2270,W,1,9,1.6,14,M,,M,,*50
06/14/2015	14:01:15.541	$GPGGA,140116,2430.8846,N,08100.2273,W,1,9,1.6,14,M,,M,,*52
06/14/2015	14:01:16.541	$GPGGA,140117,2430.8846,N,08100.2276,W,1,9,1.6,14,M,,M,,*56
06/14/2015	14:01:17.520	$GPGGA,140118,2430.8846,N,08100.2276,W,1,9,1.6,14,M,,M,,*59
06/14/2015	14:01:18.530	$GPGGA,140119,2430.8849,N,08100.2279,W,1,9,1.6,14,M,,M,,*58
06/14/2015	14:01:19.571	$GPGGA,140120,2430.8850,N,08100.2281,W,1,9,1.6,14,M,,M,,*5D
06/14/2015	14:01:20.531	$GPGGA,140121,2430.8850,N,08100.2283,W,1,9,1.6,14,M,,M,,*5E
06/14/2015	14:01:21.561	$GPGGA,140122,2430.8850,N,08100.2285,W,1,9,1.6,14,M,,M,,*5B
06/14/2015	14:01:22.521	$GPGGA,140123,2430.8853,N,08100.2287,W,1,9,1.6,14,M,,M,,*5B
06/14/2015	14:01:23.531	$GPGGA,140124,2430.8855,N,08100.2290,W,1,9,1.6,14,M,,M,,*5C
06/14/2015	14:01:24.531	$GPGGA,140125,2430.8856,N,08100.2290,W,1,9,1.7,14,M,,M,,*5F
06/14/2015	14:01:25.501	$GPGGA,140126,2430.8857,N,08100.2291,W,1,9,1.6,14,M,,M,,*5D
06/14/2015	14:01:26.521	$GPGGA,140127,2430.8859,N,08100.2292,W,1,9,1.6,14,M,,M,,*51
06/14/2015	14:01:27.531	$GPGGA,140128,2430.8858,N,08100.2295,W,1,9,1.6,14,M,,M,,*58
06/14/2015	14:01:28.511	$GPGGA,140129,2430.8860,N,08100.2296,W,1,9,1.6,14,M,,M,,*51
06/14/2015	14:01:29.611	$GPGGA,140130,2430.8860,N,08100.2298,W,1,9,1.6,14,M,,M,,*57
06/14/2015	14:01:30.501	$GPGGA,140131,2430.8863,N,08100.2298,W,1,9,1.6,14,M,,M,,*55
06/14/2015	14:01:31.641	$GPGGA,140132,2430.8864,N,08100.2299,W,1,9,1.6,14,M,,M,,*50
06/14/2015	14:01:32.521	$GPGGA,140133,2430.8864,N,08100.2301,W,1,9,1.6,14,M,,M,,*51
06/14/2015	14:01:33.501	$GPGGA,140134,2430.8864,N,08100.2303,W,1,9,1.6,14,M,,M,,*54
06/14/2015	14:01:34.501	$GPGGA,140135,2430.8866,N,08100.2306,W,1,9,1.6,14,M,,M,,*52
06/14/2015	14:01:35.620	$GPGGA,140136,2430.8865,N,08100.2308,W,1,9,1.6,14,M,,M,,*5C
06/14/2015	14:01:36.501	$GPGGA,140137,2430.8867,N,08100.2309,W,1,9,1.6,14,M,,M,,*5E
06/14/2015	14:01:37.483	$GPGGA,140138,2430.8870,N,08100.2310,W,1,9,1.6,14,M,,M,,*5F
06/14/2015	14:01:38.598	$GPGGA,140139,2430.8869,N,08100.2312,W,1,9,1.6,14,M,,M,,*54
06/14/2015	14:01:39.611	$GPGGA,140140,2430.8868,N,08100.2314,W,1,9,1.6,14,M,,M,,*5D
06/14/2015	14:01:40.593	$GPGGA,140141,2430.8870,N,08100.2317,W,1,9,1.6,14,M,,M,,*56
06/14/2015	14:01:41.592	$GPGGA,140142,2430.8873,N,08100.2320,W,1,9,1.6,14,M,,M,,*52
06/14/2015	14:01:42.571	$GPGGA,140143,2430.8871,N,08100.2323,W,1,9,1.6,14,M,,M,,*52
06/14/2015	14:01:43.601	$GPGGA,140144,2430.8869,N,08100.2324,W,1,9,1.6,14,M,,M,,*5B
06/14/2015	14:01:44.571	$GPGGA,140145,2430.8871,N,08100.2327,W,1,9,1.6,14,M,,M,,*50
06/14/2015	14:01:45.596	$GPGGA,140146,2430.8873,N,08100.2328,W,1,9,1.6,14,M,,M,,*5E
06/14/2015	14:01:46.561	$GPGGA,140147,2430.8872,N,08100.2331,W,1,9,1.6,14,M,,M,,*56
06/14/2015	14:01:47.594	$GPGGA,140148,2430.8873,N,08100.2335,W,1,9,1.6,14,M,,M,,*5C
06/14/2015	14:01:48.551	$GPGGA,140149,2430.8872,N,08100.2337,W,1,9,1.6,14,M,,M,,*5E
06/14/2015	14:01:49.571	$GPGGA,140150,2430.8873,N,08100.2339,W,1,9,1.6,14,M,,M,,*59
06/14/2015	14:01:50.561	$GPGGA,140151,2430.8874,N,08100.2341,W,1,9,1.6,14,M,,M,,*50
06/14/2015	14:01:51.582	$GPGGA,140152,2430.8872,N,08100.2345,W,1,9,1.6,14,M,,M,,*51
06/14/2015	14:01:52.560	$GPGGA,140153,2430.8873,N,08100.2348,W,1,9,1.6,14,M,,M,,*5C
06/14/2015	14:01:53.550	$GPGGA,140154,2430.8875,N,08100.2349,W,1,9,1.6,14,M,,M,,*5C
06/14/2015	14:01:54.541	$GPGGA,140155,2430.8875,N,08100.2352,W,1,9,1.6,14,M,,M,,*57
06/14/2015	14:01:55.611	$GPGGA,140156,2430.8872,N,08100.2355,W,1,9,1.6,14,M,,M,,*54
06/14/2015	14:01:56.541	$GPGGA,140157,2430.8875,N,08100.2356,W,1,9,1.6,14,M,,M,,*51
06/14/2015	14:01:57.541	$GPGGA,140158,2430.8875,N,08100.2359,W,1,9,1.6,14,M,,M,,*51
06/14/2015	14:01:58.541	$GPGGA,140159,2430.8875,N,08100.2360,W,1,9,1.6,14,M,,M,,*5A
06/14/2015	14:01:59.621	$GPGGA,140200,2430.8875,N,08100.2363,W,1,9,1.8,14,M,,M,,*58
06/14/2015	14:02:00.551	$GPGGA,140201,2430.8877,N,08100.2366,W,1,9,1.6,14,M,,M,,*50
06/14/2015	14:02:01.561	$GPGGA,140202,2430.8876,N,08100.2367,W,1,9,1.6,14,M,,M,,*53
06/14/2015	14:02:02.551	$GPGGA,140203,2430.8875,N,08100.2370,W,1,9,1.6,14,M,,M,,*57
06/14/2015	14:02:03.571	$GPGGA,140204,2430.8877,N,08100.2374,W,1,9,1.6,14,M,,M,,*56
06/14/2015	14:02:04.541	$GPGGA,140205,2430.8876,N,08100.2377,W,1,9,1.6,14,M,,M,,*55
06/14/2015	14:02:05.551	$GPGGA,140206,2430.8875,N,08100.2378,W,1,9,1.6,14,M,,M,,*5A
06/14/2015	14:02:06.511	$GPGGA,140207,2430.8877,N,08100.2382,W,1,9,1.6,14,M,,M,,*5C
06/14/2015	14:02:07.551	$GPGGA,140208,2430.8876,N,08100.2386,W,1,9,1.6,14,M,,M,,*56
06/14/2015	14:02:08.531	$GPGGA,140209,2430.8875,N,08100.2389,W,1,9,1.6,14,M,,M,,*5B
06/14/2015	14:02:09.531	$GPGGA,140210,2430.8875,N,08100.2392,W,1,9,1.7,14,M,,M,,*58
06/14/2015	14:02:10.510	$GPGGA,140211,2430.8875,N,08100.2395,W,1,9,1.7,14,M,,M,,*5E
06/14/2015	14:02:11.550	$GPGGA,140212,2430.8877,N,08100.2399,W,1,9,1.7,14,M,,M,,*53
06/14/2015	14:02:12.620	$GPGGA,140213,2430.8875,N,08100.2404,W,1,9,1.7,14,M,,M,,*53
06/14/2015	14:02:13.600	$GPGGA,140214,2430.8875,N,08100.2406,W,1,9,1.7,14,M,,M,,*56
06/14/2015	14:02:14.520	$GPGGA,140215,2430.8877,N,08100.2408,W,1,9,1.7,14,M,,M,,*5B
06/14/2015	14:02:15.530	$GPGGA,140216,2430.8876,N,08100.2411,W,1,9,1.8,14,M,,M,,*5E
06/14/2015	14:02:16.500	$GPGGA,140217,2430.8878,N,08100.2413,W,1,9,1.8,14,M,,M,,*53
06/14/2015	14:02:17.589	$GPGGA,140218,2430.8878,N,08100.2417,W,1,8,1.7,14,M,,M,,*56
06/14/2015	14:02:18.510	$GPGGA,140219,2430.8878,N,08100.2421,W,1,8,1.7,15,M,,M,,*53
06/14/2015	14:02:19.593	$GPGGA,140220,2430.8877,N,08100.2425,W,1,9,1.7,15,M,,M,,*53
06/14/2015	14:02:20.593	$GPGGA,140221,2430.8878,N,08100.2428,W,1,9,1.7,15,M,,M,,*50
06/14/2015	14:02:21.520	$GPGGA,140222,2430.8880,N,08100.2429,W,1,9,1.7,15,M,,M,,*55
06/14/2015	14:02:22.577	$GPGGA,140223,2430.8878,N,08100.2431,W,1,9,1.7,15,M,,M,,*5A
06/14/2015	14:02:23.541	$GPGGA,140224,2430.8878,N,08100.2435,W,1,9,1.7,15,M,,M,,*59
06/14/2015	14:02:24.574	$GPGGA,140225,2430.8880,N,08100.2439,W,1,9,1.7,15,M,,M,,*53
06/14/2015	14:02:25.585	$GPGGA,140226,2430.8879,N,08100.2442,W,1,9,1.7,15,M,,M,,*5A
06/14/2015	14:02:26.561	$GPGGA,140227,2430.8880,N,08100.2443,W,1,9,1.7,15,M,,M,,*5C
06/14/2015	14:02:27.610	$GPGGA,140228,2430.8881,N,08100.2446,W,1,9,1.7,15,M,,M,,*57
06/14/2015	14:02:28.574	$GPGGA,140229,2430.8880,N,08100.2449,W,1,9,1.7,15,M,,M,,*58
06/14/2015	14:02:29.560	$GPGGA,140230,2430.8881,N,08100.2453,W,1,9,1.7,15,M,,M,,*5A
06/14/2015	14:02:30.560	$GPGGA,140231,2430.8880,N,08100.2456,W,1,9,1.7,15,M,,M,,*5F
06/14/2015	14:02:31.590	$GPGGA,140232,2430.8882,N,08100.2457,W,1,9,1.7,15,M,,M,,*5F
06/14/2015	14:02:32.550	$GPGGA,140233,2430.8882,N,08100.2460,W,1,9,1.7,15,M,,M,,*5A
06/14/2015	14:02:33.584	$GPGGA,140234,2430.8882,N,08100.2462,W,1,9,1.7,15,M,,M,,*5F
06/14/2015	14:02:34.550	$GPGGA,140235,2430.8882,N,08100.2467,W,1,9,1.7,15,M,,M,,*5B
06/14/2015	14:02:35.583	$GPGGA,140236,2430.8882,N,08100.2471,W,1,9,1.7,15,M,,M,,*5F
06/14/2015	14:02:36.550	$GPGGA,140237,2430.8882,N,08100.2475,W,1,9,1.7,15,M,,M,,*5A
06/14/2015	14:02:37.570	$GPGGA,140238,2430.8882,N,08100.2478,W,1,9,1.7,15,M,,M,,*58
06/14/2015	14:02:38.550	$GPGGA,140239,2430.8884,N,08100.2480,W,1,9,1.7,15,M,,M,,*58
06/14/2015	14:02:39.583	$GPGGA,140240,2430.8883,N,08100.2485,W,1,9,1.7,15,M,,M,,*54
06/14/2015	14:02:40.541	$GPGGA,140241,2430.8884,N,08100.2487,W,1,9,1.7,15,M,,M,,*50
06/14/2015	14:02:41.561	$GPGGA,140242,2430.8883,N,08100.2491,W,1,9,1.7,15,M,,M,,*53
06/14/2015	14:02:42.541	$GPGGA,140243,2430.8885,N,08100.2494,W,1,9,1.7,15,M,,M,,*51
06/14/2015	14:02:44.001	$GPGGA,140244,2430.8884,N,08100.2498,W,1,8,1.9,15,M,,M,,*54
06/14/2015	14:02:44.541	$GPGGA,140245,2430.8885,N,08100.2500,W,1,8,1.7,15,M,,M,,*5A
06/14/2015	14:02:46.000	$GPGGA,140246,2430.8886,N,08100.2503,W,1,9,1.7,14,M,,M,,*59
06/14/2015	14:02:46.540	$GPGGA,140247,2430.8885,N,08100.2504,W,1,9,1.9,14,M,,M,,*52
06/14/2015	14:02:47.550	$GPGGA,140248,2430.8886,N,08100.2508,W,1,9,1.7,14,M,,M,,*5C
06/14/2015	14:02:48.540	$GPGGA,140249,2430.8886,N,08100.2512,W,1,9,1.7,14,M,,M,,*56
06/14/2015	14:02:49.551	$GPGGA,140250,2430.8886,N,08100.2516,W,1,9,1.7,14,M,,M,,*5A
06/14/2015	14:02:50.520	$GPGGA,140251,2430.8886,N,08100.2519,W,1,9,1.7,14,M,,M,,*54
06/14/2015	14:02:51.560	$GPGGA,140252,2430.8889,N,08100.2522,W,1,9,1.7,14,M,,M,,*50
06/14/2015	14:02:52.530	$GPGGA,140253,2430.8889,N,08100.2525,W,1,9,1.7,14,M,,M,,*56
06/14/2015	14:02:53.510	$GPGGA,140254,2430.8889,N,08100.2527,W,1,9,1.7,14,M,,M,,*53
06/14/2015	14:02:54.510	$GPGGA,140255,2430.8889,N,08100.2530,W,1,9,1.7,14,M,,M,,*54
06/14/2015	14:02:55.530	$GPGGA,140256,2430.8889,N,08100.2533,W,1,9,1.7,14,M,,M,,*54
06/14/2015	14:02:56.520	$GPGGA,140257,2430.8889,N,08100.2536,W,1,9,1.7,14,M,,M,,*50
06/14/2015	14:02:57.501	$GPGGA,140258,2430.8891,N,08100.2540,W,1,9,1.7,14,M,,M,,*57
06/14/2015	14:02:58.491	$GPGGA,140259,2430.8890,N,08100.2543,W,1,9,1.7,14,M,,M,,*54
06/14/2015	14:02:59.541	$GPGGA,140300,2430.8889,N,08100.2545,W,1,9,1.7,14,M,,M,,*57
06/14/2015	14:03:00.501	$GPGGA,140301,2430.8889,N,08100.2548,W,1,9,1.7,14,M,,M,,*5B
06/14/2015	14:03:01.491	$GPGGA,140302,2430.8889,N,08100.2551,W,1,9,1.7,14,M,,M,,*50
06/14/2015	14:03:02.500	$GPGGA,140303,2430.8891,N,08100.2555,W,1,9,1.7,14,M,,M,,*5C
06/14/2015	14:03:03.630	$GPGGA,140304,2430.8890,N,08100.2558,W,1,9,1.7,14,M,,M,,*57
06/14/2015	14:03:04.490	$GPGGA,140305,2430.8891,N,08100.2561,W,1,9,1.7,14,M,,M,,*5D
06/14/2015	14:03:05.590	$GPGGA,140306,2430.8890,N,08100.2565,W,1,9,1.7,14,M,,M,,*5B
06/14/2015	14:03:06.490	$GPGGA,140307,2430.8891,N,08100.2569,W,1,9,1.7,14,M,,M,,*57
06/14/2015	14:03:07.620	$GPGGA,140308,2430.8889,N,08100.2572,W,1,9,1.7,14,M,,M,,*5B
06/14/2015	14:03:08.500	$GPGGA,140309,2430.8889,N,08100.2574,W,1,9,1.7,14,M,,M,,*5C
06/14/2015	14:03:09.486	$GPGGA,140310,2430.8891,N,08100.2576,W,1,9,1.7,14,M,,M,,*5F
06/14/2015	14:03:10.572	$GPGGA,140311,2430.8892,N,08100.2580,W,1,9,1.7,14,M,,M,,*54
06/14/2015	14:03:11.620	$GPGGA,140312,2430.8889,N,08100.2585,W,1,9,1.7,14,M,,M,,*58
06/14/2015	14:03:12.561	$GPGGA,140313,2430.8889,N,08100.2588,W,1,9,1.7,14,M,,M,,*54
06/14/2015	14:03:13.600	$GPGGA,140314,2430.8887,N,08100.2592,W,1,9,1.7,14,M,,M,,*56
06/14/2015	14:03:14.561	$GPGGA,140315,2430.8889,N,08100.2597,W,1,9,1.7,14,M,,M,,*5C
06/14/2015	14:03:15.601	$GPGGA,140316,2430.8889,N,08100.2601,W,1,9,1.7,14,M,,M,,*53
06/14/2015	14:03:16.571	$GPGGA,140317,2430.8887,N,08100.2603,W,1,9,1.7,14,M,,M,,*5E
06/14/2015	14:03:17.572	$GPGGA,140318,2430.8886,N,08100.2608,W,1,9,1.7,14,M,,M,,*5B
06/14/2015	14:03:18.561	$GPGGA,140319,2430.8888,N,08100.2613,W,1,9,1.7,14,M,,M,,*5E
06/14/2015	14:03:19.585	$GPGGA,140320,2430.8886,N,08100.2619,W,1,9,1.7,14,M,,M,,*50
06/14/2015	14:03:20.560	$GPGGA,140321,2430.8885,N,08100.2623,W,1,9,1.7,14,M,,M,,*5B
06/14/2015	14:03:21.550	$GPGGA,140322,2430.8885,N,08100.2627,W,1,9,1.7,14,M,,M,,*5C
06/14/2015	14:03:22.560	$GPGGA,140323,2430.8885,N,08100.2631,W,1,9,1.7,14,M,,M,,*5A
06/14/2015	14:03:23.583	$GPGGA,140324,2430.8885,N,08100.2634,W,1,9,1.7,14,M,,M,,*58
06/14/2015	14:03:24.540	$GPGGA,140325,2430.8885,N,08100.2639,W,1,9,1.7,14,M,,M,,*54
06/14/2015	14:03:25.561	$GPGGA,140326,2430.8884,N,08100.2645,W,1,9,1.7,14,M,,M,,*5D
06/14/2015	14:03:26.540	$GPGGA,140327,2430.8885,N,08100.2650,W,1,9,1.7,14,M,,M,,*59
06/14/2015	14:03:27.550	$GPGGA,140328,2430.8884,N,08100.2655,W,1,9,1.7,14,M,,M,,*52
06/14/2015	14:03:28.540	$GPGGA,140329,2430.8885,N,08100.2659,W,1,9,1.7,14,M,,M,,*5E
06/14/2015	14:03:29.530	$GPGGA,140330,2430.8884,N,08100.2663,W,1,9,1.7,14,M,,M,,*5E
06/14/2015	14:03:30.540	$GPGGA,140331,2430.8885,N,08100.2667,W,1,9,1.7,14,M,,M,,*5A
06/14/2015	14:03:31.561	$GPGGA,140332,2430.8884,N,08100.2673,W,1,9,1.7,14,M,,M,,*5D
06/14/2015	14:03:32.531	$GPGGA,140333,2430.8883,N,08100.2677,W,1,9,1.7,14,M,,M,,*5F
06/14/2015	14:03:33.531	$GPGGA,140334,2430.8885,N,08100.2682,W,1,9,1.7,14,M,,M,,*54
06/14/2015	14:03:34.541	$GPGGA,140335,2430.8885,N,08100.2686,W,1,9,1.7,14,M,,M,,*51
06/14/2015	14:03:35.531	$GPGGA,140336,2430.8885,N,08100.2689,W,1,9,1.7,14,M,,M,,*5D
06/14/2015	14:03:36.521	$GPGGA,140337,2430.8884,N,08100.2692,W,1,9,1.7,14,M,,M,,*57
06/14/2015	14:03:37.530	$GPGGA,140338,2430.8885,N,08100.2697,W,1,9,1.7,14,M,,M,,*5C
06/14/2015	14:03:38.510	$GPGGA,140339,2430.8886,N,08100.2702,W,1,9,1.7,14,M,,M,,*53
06/14/2015	14:03:39.540	$GPGGA,140340,2430.8885,N,08100.2706,W,1,9,1.7,14,M,,M,,*5A
06/14/2015	14:03:40.530	$GPGGA,140341,2430.8885,N,08100.2710,W,1,9,1.7,14,M,,M,,*5C
06/14/2015	14:03:41.620	$GPGGA,140342,2430.8886,N,08100.2715,W,1,9,1.7,14,M,,M,,*59
06/14/2015	14:03:42.500	$GPGGA,140343,2430.8888,N,08100.2720,W,1,9,1.7,14,M,,M,,*50
06/14/2015	14:03:43.550	$GPGGA,140344,2430.8886,N,08100.2724,W,1,9,1.7,14,M,,M,,*5D
06/14/2015	14:03:44.510	$GPGGA,140345,2430.8888,N,08100.2728,W,1,9,1.7,14,M,,M,,*5E
06/14/2015	14:03:45.520	$GPGGA,140346,2430.8889,N,08100.2731,W,1,8,1.7,14,M,,M,,*55
06/14/2015	14:03:46.490	$GPGGA,140347,2430.8889,N,08100.2735,W,1,8,1.7,14,M,,M,,*50
06/14/2015	14:03:47.520	$GPGGA,140348,2430.8889,N,08100.2740,W,1,9,1.7,14,M,,M,,*5C
06/14/2015	14:03:48.500	$GPGGA,140349,2430.8891,N,08100.2746,W,1,9,1.7,14,M,,M,,*52
06/14/2015	14:03:49.511	$GPGGA,140350,2430.8892,N,08100.2749,W,1,9,1.7,14,M,,M,,*56
06/14/2015	14:03:50.491	$GPGGA,140351,2430.8889,N,08100.2753,W,1,9,1.7,14,M,,M,,*56
06/14/2015	14:03:51.631	$GPGGA,140352,2430.8891,N,08100.2757,W,1,9,1.7,14,M,,M,,*58
06/14/2015	14:03:52.501	$GPGGA,140353,2430.8890,N,08100.2762,W,1,9,1.7,14,M,,M,,*5E
06/14/2015	14:03:53.582	$GPGGA,140354,2430.8892,N,08100.2767,W,1,9,1.7,14,M,,M,,*5E
06/14/2015	14:03:54.580	$GPGGA,140355,2430.8893,N,08100.2771,W,1,9,1.7,14,M,,M,,*59
06/14/2015	14:03:55.500	$GPGGA,140356,2430.8893,N,08100.2775,W,1,9,1.7,14,M,,M,,*5E
06/14/2015	14:03:56.580	$GPGGA,140357,2430.8893,N,08100.2780,W,1,9,1.7,14,M,,M,,*55
06/14/2015	14:03:57.600	$GPGGA,140358,2430.8893,N,08100.2785,W,1,9,1.7,14,M,,M,,*5F
06/14/2015	14:03:58.572	$GPGGA,140359,2430.8893,N,08100.2787,W,1,9,1.7,14,M,,M,,*5C
06/14/2015	14:03:59.620	$GPGGA,140400,2430.8893,N,08100.2792,W,1,9,1.7,14,M,,M,,*53
06/14/2015	14:04:00.560	$GPGGA,140401,2430.8893,N,08100.2796,W,1,9,1.7,14,M,,M,,*56
06/14/2015	14:04:01.583	$GPGGA,140402,2430.8893,N,08100.2800,W,1,9,1.7,14,M,,M,,*55
06/14/2015	14:04:02.560	$GPGGA,140403,2430.8895,N,08100.2804,W,1,9,1.7,14,M,,M,,*56
06/14/2015	14:04:03.590	$GPGGA,140404,2430.8894,N,08100.2808,W,1,9,1.7,14,M,,M,,*5C
06/14/2015	14:04:04.550	$GPGGA,140405,2430.8895,N,08100.2812,W,1,9,1.7,14,M,,M,,*57
06/14/2015	14:04:05.580	$GPGGA,140406,2430.8894,N,08100.2816,W,1,9,1.7,14,M,,M,,*51
06/14/2015	14:04:06.561	$GPGGA,140407,2430.8895,N,08100.2821,W,1,9,1.7,14,M,,M,,*55
06/14/2015	14:04:07.591	$GPGGA,140408,2430.8896,N,08100.2825,W,1,9,1.7,14,M,,M,,*5D
06/14/2015	14:04:08.551	$GPGGA,140409,2430.8895,N,08100.2830,W,1,9,1.7,14,M,,M,,*5B
06/14/2015	14:04:09.571	$GPGGA,140410,2430.8896,N,08100.2836,W,1,9,1.7,14,M,,M,,*56
06/14/2015	14:04:10.541	$GPGGA,140411,2430.8896,N,08100.2840,W,1,9,1.7,14,M,,M,,*56
06/14/2015	14:04:11.581	$GPGGA,140412,2430.8898,N,08100.2841,W,1,9,1.7,14,M,,M,,*5A
06/14/2015	14:04:12.540	$GPGGA,140413,2430.8896,N,08100.2844,W,1,9,1.7,14,M,,M,,*50
06/14/2015	14:04:13.582	$GPGGA,140414,2430.8896,N,08100.2850,W,1,9,1.7,14,M,,M,,*52
06/14/2015	14:04:14.550	$GPGGA,140415,2430.8898,N,08100.2855,W,1,9,1.7,14,M,,M,,*58
06/14/2015	14:04:15.571	$GPGGA,140416,2430.8897,N,08100.2859,W,1,9,1.7,14,M,,M,,*58
06/14/2015	14:04:16.530	$GPGGA,140417,2430.8899,N,08100.2863,W,1,9,1.7,14,M,,M,,*5E
06/14/2015	14:04:17.530	$GPGGA,140418,2430.8900,N,08100.2868,W,1,9,1.7,14,M,,M,,*5B
06/14/2015	14:04:18.520	$GPGGA,140419,2430.8900,N,08100.2870,W,1,9,1.7,14,M,,M,,*53
06/14/2015	14:04:19.540	$GPGGA,140420,2430.8900,N,08100.2874,W,1,9,1.7,14,M,,M,,*5D
06/14/2015	14:04:20.530	$GPGGA,140421,2430.8900,N,08100.2879,W,1,9,1.7,14,M,,M,,*51
06/14/2015	14:04:21.520	$GPGGA,140422,2430.8902,N,08100.2884,W,1,9,1.7,14,M,,M,,*52
06/14/2015	14:04:23.770	$GPGGA,140424,2430.8904,N,08100.2894,W,1,9,1.7,14,M,,M,,*53
06/14/2015	14:04:24.511	$GPGGA,140425,2430.8904,N,08100.2897,W,1,9,1.7,14,M,,M,,*51
06/14/2015	14:04:25.521	$GPGGA,140426,2430.8907,N,08100.2901,W,1,9,1.7,14,M,,M,,*5F
06/14/2015	14:04:26.511	$GPGGA,140427,2430.8906,N,08100.2904,W,1,9,1.7,14,M,,M,,*5A
06/14/2015	14:04:27.521	$GPGGA,140428,2430.8907,N,08100.2909,W,1,9,1.7,14,M,,M,,*59
06/14/2015	14:04:28.641	$GPGGA,140429,2430.8907,N,08100.2915,W,1,9,1.7,14,M,,M,,*55
06/14/2015	14:04:29.501	$GPGGA,140430,2430.8907,N,08100.2919,W,1,9,1.7,14,M,,M,,*51
06/14/2015	14:04:30.520	$GPGGA,140431,2430.8910,N,08100.2923,W,1,9,1.7,14,M,,M,,*5F
06/14/2015	14:04:31.530	$GPGGA,140432,2430.8911,N,08100.2926,W,1,9,1.7,14,M,,M,,*58
06/14/2015	14:04:32.490	$GPGGA,140433,2430.8913,N,08100.2928,W,1,9,1.7,14,M,,M,,*55
06/14/2015	14:04:33.683	$GPGGA,140434,2430.8911,N,08100.2933,W,1,9,1.7,14,M,,M,,*5A
06/14/2015	14:04:34.510	$GPGGA,140435,2430.8913,N,08100.2937,W,1,9,1.7,14,M,,M,,*5D
06/14/2015	14:04:35.710	$GPGGA,140436,2430.8914,N,08100.2941,W,1,9,1.7,14,M,,M,,*58
06/14/2015	14:04:36.631	$GPGGA,140437,2430.8915,N,08100.2945,W,1,9,1.7,14,M,,M,,*5C
06/14/2015	14:04:37.484	$GPGGA,140438,2430.8915,N,08100.2948,W,1,9,1.7,14,M,,M,,*5E
06/14/2015	14:04:38.490	$GPGGA,140439,2430.8917,N,08100.2951,W,1,9,1.7,14,M,,M,,*55
06/14/2015	14:04:39.690	$GPGGA,140440,2430.8918,N,08100.2953,W,1,9,1.7,14,M,,M,,*56
06/14/2015	14:04:40.585	$GPGGA,140441,2430.8918,N,08100.2956,W,1,9,1.7,14,M,,M,,*52
06/14/2015	14:04:41.661	$GPGGA,140442,2430.8920,N,08100.2962,W,1,9,1.7,14,M,,M,,*5D
06/14/2015	14:04:42.576	$GPGGA,140443,2430.8921,N,08100.2966,W,1,9,1.7,14,M,,M,,*59
06/14/2015	14:04:43.686	$GPGGA,140444,2430.8919,N,08100.2970,W,1,9,1.7,14,M,,M,,*52
06/14/2015	14:04:44.573	$GPGGA,140445,2430.8922,N,08100.2971,W,1,9,1.7,14,M,,M,,*5A
06/14/2015	14:04:45.584	$GPGGA,140446,2430.8922,N,08100.2973,W,1,9,1.7,14,M,,M,,*5B
06/14/2015	14:04:46.601	$GPGGA,140447,2430.8924,N,08100.2977,W,1,9,1.7,14,M,,M,,*58
06/14/2015	14:04:47.710	$GPGGA,140448,2430.8923,N,08100.2980,W,1,9,1.7,14,M,,M,,*58
06/14/2015	14:04:48.590	$GPGGA,140449,2430.8924,N,08100.2984,W,1,9,1.7,14,M,,M,,*5A
06/14/2015	14:04:49.674	$GPGGA,140450,2430.8927,N,08100.2986,W,1,9,1.7,14,M,,M,,*53
06/14/2015	14:04:50.587	$GPGGA,140451,2430.8928,N,08100.2989,W,1,9,1.7,14,M,,M,,*52
06/14/2015	14:04:51.670	$GPGGA,140452,2430.8927,N,08100.2991,W,1,9,1.7,14,M,,M,,*57
06/14/2015	14:04:52.587	$GPGGA,140453,2430.8929,N,08100.2993,W,1,9,1.7,14,M,,M,,*5A
06/14/2015	14:04:53.660	$GPGGA,140454,2430.8932,N,08100.2996,W,1,9,1.7,14,M,,M,,*52
06/14/2015	14:04:54.577	$GPGGA,140455,2430.8931,N,08100.2999,W,1,9,1.7,14,M,,M,,*5F
06/14/2015	14:04:55.650	$GPGGA,140456,2430.8930,N,08100.3002,W,1,9,1.7,14,M,,M,,*57
06/14/2015	14:04:56.583	$GPGGA,140457,2430.8932,N,08100.3006,W,1,9,1.7,14,M,,M,,*50
06/14/2015	14:04:57.540	$GPGGA,140458,2430.8935,N,08100.3009,W,1,9,1.7,14,M,,M,,*57
06/14/2015	14:04:58.577	$GPGGA,140459,2430.8936,N,08100.3010,W,1,9,1.7,14,M,,M,,*5D
06/14/2015	14:04:59.651	$GPGGA,140500,2430.8936,N,08100.3013,W,1,9,1.7,14,M,,M,,*53
06/14/2015	14:05:00.576	$GPGGA,140501,2430.8936,N,08100.3017,W,1,9,1.7,14,M,,M,,*56
06/14/2015	14:05:01.531	$GPGGA,140502,2430.8936,N,08100.3020,W,1,9,1.7,14,M,,M,,*51
06/14/2015	14:05:02.561	$GPGGA,140503,2430.8938,N,08100.3022,W,1,9,1.7,14,M,,M,,*5C
06/14/2015	14:05:03.661	$GPGGA,140504,2430.8937,N,08100.3025,W,1,9,1.7,14,M,,M,,*53
06/14/2015	14:05:04.530	$GPGGA,140505,2430.8936,N,08100.3028,W,1,9,1.7,14,M,,M,,*5E
06/14/2015	14:05:05.640	$GPGGA,140506,2430.8936,N,08100.3031,W,1,9,1.7,14,M,,M,,*55
06/14/2015	14:05:06.560	$GPGGA,140507,2430.8938,N,08100.3035,W,1,9,1.7,14,M,,M,,*5E
06/14/2015	14:05:07.910	$GPGGA,140508,2430.8937,N,08100.3038,W,1,9,1.7,14,M,,M,,*53
06/14/2015	14:05:08.582	$GPGGA,140509,2430.8938,N,08100.3042,W,1,9,1.7,14,M,,M,,*50
06/14/2015	14:05:09.588	$GPGGA,140510,2430.8937,N,08100.3045,W,1,9,1.7,14,M,,M,,*50
06/14/2015	14:05:10.550	$GPGGA,140511,2430.8939,N,08100.3047,W,1,9,1.7,14,M,,M,,*5D
06/14/2015	14:05:11.672	$GPGGA,140512,2430.8938,N,08100.3049,W,1,9,1.7,14,M,,M,,*51
06/14/2015	14:05:12.630	$GPGGA,140513,2430.8939,N,08100.3053,W,1,9,1.7,14,M,,M,,*5A
06/14/2015	14:05:13.510	$GPGGA,140514,2430.8938,N,08100.3057,W,1,9,1.7,14,M,,M,,*58
06/14/2015	14:05:14.620	$GPGGA,140515,2430.8939,N,08100.3061,W,1,9,1.7,14,M,,M,,*5D
06/14/2015	14:05:15.650	$GPGGA,140516,2430.8940,N,08100.3064,W,1,9,1.7,14,M,,M,,*55
06/14/2015	14:05:16.501	$GPGGA,140517,2430.8940,N,08100.3067,W,1,9,1.7,14,M,,M,,*57
06/14/2015	14:05:17.621	$GPGGA,140518,2430.8940,N,08100.3071,W,1,9,1.7,14,M,,M,,*5F
06/14/2015	14:05:18.541	$GPGGA,140519,2430.8940,N,08100.3075,W,1,9,1.7,14,M,,M,,*5A
06/14/2015	14:05:19.591	$GPGGA,140520,2430.8940,N,08100.3079,W,1,9,1.7,14,M,,M,,*5C
06/14/2015	14:05:20.591	$GPGGA,140521,2430.8940,N,08100.3083,W,1,9,1.7,14,M,,M,,*58
06/14/2015	14:05:21.577	$GPGGA,140522,2430.8940,N,08100.3087,W,1,9,1.7,14,M,,M,,*5F
06/14/2015	14:05:22.610	$GPGGA,140523,2430.8940,N,08100.3092,W,1,9,1.7,14,M,,M,,*5A
06/14/2015	14:05:23.500	$GPGGA,140524,2430.8940,N,08100.3094,W,1,9,1.7,14,M,,M,,*5B
06/14/2015	14:05:24.590	$GPGGA,140525,2430.8940,N,08100.3098,W,1,9,1.7,14,M,,M,,*56
06/14/2015	14:05:25.610	$GPGGA,140526,2430.8940,N,08100.3103,W,1,9,1.7,14,M,,M,,*56
06/14/2015	14:05:26.530	$GPGGA,140527,2430.8940,N,08100.3107,W,1,9,1.7,14,M,,M,,*53
06/14/2015	14:05:27.600	$GPGGA,140528,2430.8940,N,08100.3111,W,1,8,1.7,14,M,,M,,*5A
06/14/2015	14:05:28.580	$GPGGA,140529,2430.8942,N,08100.3114,W,1,8,1.7,14,M,,M,,*5C
06/14/2015	14:05:29.580	$GPGGA,140530,2430.8943,N,08100.3118,W,1,9,1.7,14,M,,M,,*58
06/14/2015	14:05:30.581	$GPGGA,140531,2430.8943,N,08100.3122,W,1,9,1.7,14,M,,M,,*50
06/14/2015	14:05:31.630	$GPGGA,140532,2430.8943,N,08100.3126,W,1,9,1.7,14,M,,M,,*57
06/14/2015	14:05:32.574	$GPGGA,140533,2430.8945,N,08100.3130,W,1,9,1.7,14,M,,M,,*57
06/14/2015	14:05:33.574	$GPGGA,140534,2430.8946,N,08100.3134,W,1,9,1.7,14,M,,M,,*57
06/14/2015	14:05:34.571	$GPGGA,140535,2430.8947,N,08100.3139,W,1,9,1.7,14,M,,M,,*5A
06/14/2015	14:05:35.611	$GPGGA,140536,2430.8947,N,08100.3143,W,1,9,1.7,14,M,,M,,*54
06/14/2015	14:05:36.581	$GPGGA,140537,2430.8949,N,08100.3147,W,1,9,1.7,14,M,,M,,*5F
06/14/2015	14:05:37.573	$GPGGA,140538,2430.8951,N,08100.3150,W,1,9,1.7,14,M,,M,,*5F
06/14/2015	14:05:38.561	$GPGGA,140539,2430.8951,N,08100.3154,W,1,9,1.7,14,M,,M,,*5A
06/14/2015	14:05:39.631	$GPGGA,140540,2430.8951,N,08100.3159,W,1,9,1.7,14,M,,M,,*59
06/14/2015	14:05:40.560	$GPGGA,140541,2430.8953,N,08100.3163,W,1,9,1.7,14,M,,M,,*53
06/14/2015	14:05:41.550	$GPGGA,140542,2430.8953,N,08100.3163,W,1,9,1.7,14,M,,M,,*50
06/14/2015	14:05:42.550	$GPGGA,140543,2430.8954,N,08100.3170,W,1,9,1.7,14,M,,M,,*54
06/14/2015	14:05:43.600	$GPGGA,140544,2430.8954,N,08100.3175,W,1,9,1.7,14,M,,M,,*56
06/14/2015	14:05:44.540	$GPGGA,140545,2430.8957,N,08100.3179,W,1,9,1.7,14,M,,M,,*58
06/14/2015	14:05:45.560	$GPGGA,140546,2430.8958,N,08100.3183,W,1,9,1.7,14,M,,M,,*51
06/14/2015	14:05:46.560	$GPGGA,140547,2430.8958,N,08100.3186,W,1,9,1.7,14,M,,M,,*55
06/14/2015	14:05:47.590	$GPGGA,140548,2430.8958,N,08100.3190,W,1,9,1.7,14,M,,M,,*5D
06/14/2015	14:05:48.582	$GPGGA,140549,2430.8961,N,08100.3193,W,1,9,1.7,14,M,,M,,*55
06/14/2015	14:05:49.590	$GPGGA,140550,2430.8960,N,08100.3197,W,1,9,1.7,14,M,,M,,*58
06/14/2015	14:05:50.550	$GPGGA,140551,2430.8961,N,08100.3201,W,1,9,1.7,14,M,,M,,*54
06/14/2015	14:05:51.631	$GPGGA,140552,2430.8962,N,08100.3205,W,1,9,1.7,14,M,,M,,*50
06/14/2015	14:05:52.541	$GPGGA,140553,2430.8965,N,08100.3208,W,1,9,1.7,14,M,,M,,*5B
06/14/2015	14:05:53.601	$GPGGA,140554,2430.8965,N,08100.3212,W,1,9,1.7,14,M,,M,,*57
06/14/2015	14:05:54.531	$GPGGA,140555,2430.8967,N,08100.3215,W,1,9,1.7,14,M,,M,,*53
06/14/2015	14:05:55.601	$GPGGA,140556,2430.8969,N,08100.3217,W,1,9,1.7,14,M,,M,,*5C
06/14/2015	14:05:56.551	$GPGGA,140557,2430.8969,N,08100.3217,W,1,9,1.7,14,M,,M,,*5D
06/14/2015	14:05:57.550	$GPGGA,140558,2430.8969,N,08100.3222,W,1,9,1.7,14,M,,M,,*54
06/14/2015	14:05:58.530	$GPGGA,140559,2430.8971,N,08100.3230,W,1,9,1.7,14,M,,M,,*5F
06/14/2015	14:05:59.572	$GPGGA,140600,2430.8971,N,08100.3230,W,1,9,1.7,14,M,,M,,*50
06/14/2015	14:06:00.530	$GPGGA,140601,2430.8974,N,08100.3237,W,1,9,1.7,14,M,,M,,*53
06/14/2015	14:06:01.572	$GPGGA,140602,2430.8976,N,08100.3238,W,1,8,1.7,14,M,,M,,*5C
06/14/2015	14:06:02.620	$GPGGA,140603,2430.8976,N,08100.3241,W,1,8,1.7,14,M,,M,,*53
06/14/2015	14:06:03.530	$GPGGA,140604,2430.8976,N,08100.3241,W,1,9,1.7,14,M,,M,,*55
06/14/2015	14:06:04.520	$GPGGA,140605,2430.8979,N,08100.3249,W,1,9,1.7,14,M,,M,,*53
06/14/2015	14:06:05.520	$GPGGA,140606,2430.8979,N,08100.3253,W,1,9,1.7,14,M,,M,,*5B
06/14/2015	14:06:06.510	$GPGGA,140607,2430.8983,N,08100.3255,W,1,9,1.7,14,M,,M,,*59
06/14/2015	14:06:07.651	$GPGGA,140608,2430.8983,N,08100.3258,W,1,9,1.7,14,M,,M,,*5B
06/14/2015	14:06:08.641	$GPGGA,140609,2430.8985,N,08100.3260,W,1,9,1.7,14,M,,M,,*57
06/14/2015	14:06:09.511	$GPGGA,140610,2430.8985,N,08100.3260,W,1,9,1.7,14,M,,M,,*5F
06/14/2015	14:06:10.501	$GPGGA,140611,2430.8987,N,08100.3269,W,1,9,1.7,14,M,,M,,*55
06/14/2015	14:06:11.531	$GPGGA,140612,2430.8987,N,08100.3273,W,1,9,1.7,14,M,,M,,*5D
06/14/2015	14:06:12.501	$GPGGA,140613,2430.8990,N,08100.3275,W,1,9,1.7,14,M,,M,,*5C
06/14/2015	14:06:13.621	$GPGGA,140614,2430.8993,N,08100.3278,W,1,9,1.7,14,M,,M,,*55
06/14/2015	14:06:14.583	$GPGGA,140615,2430.8992,N,08100.3280,W,1,9,1.7,14,M,,M,,*52
06/14/2015	14:06:15.610	$GPGGA,140616,2430.8994,N,08100.3284,W,1,9,1.7,14,M,,M,,*53
06/14/2015	14:06:16.573	$GPGGA,140617,2430.8994,N,08100.3287,W,1,9,1.7,15,M,,M,,*50
06/14/2015	14:06:17.590	$GPGGA,140618,2430.8997,N,08100.3291,W,1,9,1.7,15,M,,M,,*5B
06/14/2015	14:06:18.583	$GPGGA,140619,2430.8996,N,08100.3293,W,1,9,1.7,15,M,,M,,*59
06/14/2015	14:06:19.590	$GPGGA,140620,2430.8997,N,08100.3296,W,1,9,1.7,15,M,,M,,*57
06/14/2015	14:06:20.584	$GPGGA,140621,2430.9000,N,08100.3299,W,1,9,1.7,15,M,,M,,*5F
06/14/2015	14:06:21.572	$GPGGA,140622,2430.9001,N,08100.3302,W,1,9,1.7,15,M,,M,,*5E
06/14/2015	14:06:22.576	$GPGGA,140623,2430.9001,N,08100.3305,W,1,9,1.7,15,M,,M,,*58
06/14/2015	14:06:23.570	$GPGGA,140624,2430.9001,N,08100.3307,W,1,9,1.7,15,M,,M,,*5D
06/14/2015	14:06:24.571	$GPGGA,140625,2430.9003,N,08100.3310,W,1,9,1.7,15,M,,M,,*58
06/14/2015	14:06:25.572	$GPGGA,140626,2430.9004,N,08100.3314,W,1,9,1.7,15,M,,M,,*58
06/14/2015	14:06:26.561	$GPGGA,140627,2430.9005,N,08100.3316,W,1,9,1.7,15,M,,M,,*5A
06/14/2015	14:06:27.591	$GPGGA,140628,2430.9005,N,08100.3320,W,1,8,1.7,15,M,,M,,*51
06/14/2015	14:06:28.561	$GPGGA,140629,2430.9005,N,08100.3322,W,1,8,1.7,15,M,,M,,*52
06/14/2015	14:06:29.580	$GPGGA,140630,2430.9005,N,08100.3324,W,1,9,1.7,15,M,,M,,*5D
06/14/2015	14:06:30.541	$GPGGA,140631,2430.9007,N,08100.3327,W,1,9,1.7,15,M,,M,,*5D
06/14/2015	14:06:31.586	$GPGGA,140632,2430.9008,N,08100.3331,W,1,9,1.7,15,M,,M,,*56
06/14/2015	14:06:32.550	$GPGGA,140633,2430.9007,N,08100.3335,W,1,9,1.7,15,M,,M,,*5C
06/14/2015	14:06:33.576	$GPGGA,140634,2430.9008,N,08100.3336,W,1,9,1.7,15,M,,M,,*57
06/14/2015	14:06:34.540	$GPGGA,140635,2430.9010,N,08100.3339,W,1,9,1.7,16,M,,M,,*53
06/14/2015	14:06:35.581	$GPGGA,140636,2430.9011,N,08100.3342,W,1,9,1.7,16,M,,M,,*5D
06/14/2015	14:06:36.550	$GPGGA,140637,2430.9010,N,08100.3343,W,1,9,1.7,16,M,,M,,*5C
06/14/2015	14:06:37.570	$GPGGA,140638,2430.9009,N,08100.3346,W,1,9,1.7,16,M,,M,,*5E
06/14/2015	14:06:38.540	$GPGGA,140639,2430.9012,N,08100.3349,W,1,9,1.7,16,M,,M,,*5A
06/14/2015	14:06:39.584	$GPGGA,140640,2430.9012,N,08100.3353,W,1,9,1.7,16,M,,M,,*5F
06/14/2015	14:06:40.530	$GPGGA,140641,2430.9012,N,08100.3354,W,1,9,1.7,16,M,,M,,*59
06/14/2015	14:06:41.520	$GPGGA,140642,2430.9012,N,08100.3356,W,1,9,1.7,16,M,,M,,*58
06/14/2015	14:06:42.530	$GPGGA,140643,2430.9014,N,08100.3358,W,1,9,1.7,16,M,,M,,*51
06/14/2015	14:06:43.573	$GPGGA,140644,2430.9013,N,08100.3360,W,1,9,1.7,16,M,,M,,*5A
06/14/2015	14:06:44.541	$GPGGA,140645,2430.9014,N,08100.3363,W,1,9,1.7,16,M,,M,,*5F
06/14/2015	14:06:45.631	$GPGGA,140646,2430.9015,N,08100.3367,W,1,9,1.7,16,M,,M,,*59
06/14/2015	14:06:46.631	$GPGGA,140647,2430.9014,N,08100.3371,W,1,9,1.7,16,M,,M,,*5E
06/14/2015	14:06:47.531	$GPGGA,140648,2430.9016,N,08100.3372,W,1,9,1.7,16,M,,M,,*50
06/14/2015	14:06:48.521	$GPGGA,140649,2430.9016,N,08100.3374,W,1,9,1.7,16,M,,M,,*57
06/14/2015	14:06:49.640	$GPGGA,140650,2430.9016,N,08100.3375,W,1,8,1.9,15,M,,M,,*52
06/14/2015	14:06:50.520	$GPGGA,140651,2430.9016,N,08100.3378,W,1,8,1.7,15,M,,M,,*50
06/14/2015	14:06:51.630	$GPGGA,140652,2430.9016,N,08100.3382,W,1,9,1.7,15,M,,M,,*57
06/14/2015	14:06:52.620	$GPGGA,140653,2430.9016,N,08100.3385,W,1,9,1.7,15,M,,M,,*51
06/14/2015	14:06:53.630	$GPGGA,140654,2430.9016,N,08100.3387,W,1,9,1.7,15,M,,M,,*54
06/14/2015	14:06:54.590	$GPGGA,140655,2430.9018,N,08100.3389,W,1,9,1.9,15,M,,M,,*5B
06/14/2015	14:06:55.640	$GPGGA,140656,2430.9017,N,08100.3392,W,1,8,1.9,15,M,,M,,*5C
06/14/2015	14:06:56.510	$GPGGA,140657,2430.9018,N,08100.3393,W,1,8,1.7,15,M,,M,,*5D
06/14/2015	14:06:57.590	$GPGGA,140658,2430.9016,N,08100.3396,W,1,9,1.7,15,M,,M,,*58
06/14/2015	14:06:58.500	$GPGGA,140659,2430.9016,N,08100.3400,W,1,9,1.7,15,M,,M,,*51
06/14/2015	14:06:59.600	$GPGGA,140700,2430.9016,N,08100.3403,W,1,9,1.7,15,M,,M,,*5F
06/14/2015	14:07:00.590	$GPGGA,140701,2430.9014,N,08100.3404,W,1,9,1.7,16,M,,M,,*58
06/14/2015	14:07:01.501	$GPGGA,140702,2430.9015,N,08100.3407,W,1,9,1.7,16,M,,M,,*59
06/14/2015	14:07:02.591	$GPGGA,140703,2430.9014,N,08100.3407,W,1,9,1.7,16,M,,M,,*59
06/14/2015	14:07:03.601	$GPGGA,140704,2430.9015,N,08100.3410,W,1,9,1.7,16,M,,M,,*59
06/14/2015	14:07:04.582	$GPGGA,140705,2430.9014,N,08100.3412,W,1,9,1.7,16,M,,M,,*5B
06/14/2015	14:07:05.591	$GPGGA,140706,2430.9013,N,08100.3414,W,1,9,1.7,16,M,,M,,*59
06/14/2015	14:07:06.581	$GPGGA,140707,2430.9014,N,08100.3417,W,1,9,1.7,16,M,,M,,*5C
06/14/2015	14:07:07.610	$GPGGA,140708,2430.9013,N,08100.3418,W,1,9,1.7,16,M,,M,,*5B
06/14/2015	14:07:08.574	$GPGGA,140709,2430.9014,N,08100.3421,W,1,9,1.7,16,M,,M,,*57
06/14/2015	14:07:09.582	$GPGGA,140710,2430.9012,N,08100.3422,W,1,9,1.7,16,M,,M,,*5A
06/14/2015	14:07:10.571	$GPGGA,140711,2430.9012,N,08100.3425,W,1,9,1.7,16,M,,M,,*5C
06/14/2015	14:07:11.590	$GPGGA,140712,2430.9012,N,08100.3426,W,1,9,1.7,16,M,,M,,*5C
06/14/2015	14:07:12.570	$GPGGA,140713,2430.9009,N,08100.3428,W,1,9,1.7,16,M,,M,,*59
06/14/2015	14:07:13.550	$GPGGA,140714,2430.9008,N,08100.3432,W,1,9,1.7,16,M,,M,,*54
06/14/2015	14:07:14.560	$GPGGA,140715,2430.9008,N,08100.3436,W,1,9,1.7,17,M,,M,,*50
06/14/2015	14:07:15.590	$GPGGA,140716,2430.9005,N,08100.3437,W,1,9,1.7,17,M,,M,,*5F
06/14/2015	14:07:16.560	$GPGGA,140717,2430.9005,N,08100.3439,W,1,9,1.7,17,M,,M,,*50
06/14/2015	14:07:17.573	$GPGGA,140718,2430.9003,N,08100.3443,W,1,9,1.7,17,M,,M,,*54
06/14/2015	14:07:18.560	$GPGGA,140719,2430.9001,N,08100.3447,W,1,9,1.7,17,M,,M,,*53
06/14/2015	14:07:19.582	$GPGGA,140720,2430.8998,N,08100.3448,W,1,9,1.7,17,M,,M,,*5E
06/14/2015	14:07:20.551	$GPGGA,140721,2430.8996,N,08100.3454,W,1,9,1.7,17,M,,M,,*5C
06/14/2015	14:07:21.571	$GPGGA,140722,2430.8994,N,08100.3455,W,1,9,1.7,17,M,,M,,*5C
06/14/2015	14:07:22.531	$GPGGA,140723,2430.8991,N,08100.3457,W,1,9,1.7,17,M,,M,,*5A
06/14/2015	14:07:23.541	$GPGGA,140724,2430.8992,N,08100.3461,W,1,9,1.7,17,M,,M,,*5B
06/14/2015	14:07:24.540	$GPGGA,140725,2430.8988,N,08100.3466,W,1,9,1.9,17,M,,M,,*58
06/14/2015	14:07:25.560	$GPGGA,140726,2430.8984,N,08100.3469,W,1,9,1.7,17,M,,M,,*56
06/14/2015	14:07:26.530	$GPGGA,140727,2430.8980,N,08100.3473,W,1,9,1.7,17,M,,M,,*58
06/14/2015	14:07:27.560	$GPGGA,140728,2430.8979,N,08100.3477,W,1,9,1.7,17,M,,M,,*55
06/14/2015	14:07:28.540	$GPGGA,140729,2430.8977,N,08100.3482,W,1,9,1.7,17,M,,M,,*50
06/14/2015	14:07:29.540	$GPGGA,140730,2430.8974,N,08100.3486,W,1,8,1.9,17,M,,M,,*50
06/14/2015	14:07:30.540	$GPGGA,140731,2430.8972,N,08100.3490,W,1,8,1.7,17,M,,M,,*5E
06/14/2015	14:07:31.560	$GPGGA,140732,2430.8969,N,08100.3494,W,1,9,1.7,17,M,,M,,*52
06/14/2015	14:07:32.520	$GPGGA,140733,2430.8965,N,08100.3497,W,1,9,1.7,17,M,,M,,*5C
06/14/2015	14:07:33.530	$GPGGA,140734,2430.8963,N,08100.3501,W,1,9,1.7,17,M,,M,,*53
06/14/2015	14:07:34.520	$GPGGA,140735,2430.8962,N,08100.3506,W,1,9,1.7,17,M,,M,,*54
06/14/2015	14:07:35.530	$GPGGA,140736,2430.8958,N,08100.3511,W,1,9,1.7,17,M,,M,,*58
06/14/2015	14:07:36.601	$GPGGA,140737,2430.8954,N,08100.3513,W,1,9,1.7,17,M,,M,,*57
06/14/2015	14:07:37.631	$GPGGA,140738,2430.8954,N,08100.3519,W,1,9,1.7,18,M,,M,,*5D
06/14/2015	14:07:38.531	$GPGGA,140739,2430.8951,N,08100.3522,W,1,9,1.7,18,M,,M,,*51
06/14/2015	14:07:39.611	$GPGGA,140740,2430.8947,N,08100.3526,W,1,9,1.7,18,M,,M,,*5C
06/14/2015	14:07:40.511	$GPGGA,140741,2430.8945,N,08100.3530,W,1,9,1.7,18,M,,M,,*58
06/14/2015	14:07:41.511	$GPGGA,140742,2430.8942,N,08100.3537,W,1,8,1.9,18,M,,M,,*54
06/14/2015	14:07:42.510	$GPGGA,140743,2430.8940,N,08100.3542,W,1,8,1.9,18,M,,M,,*55
06/14/2015	14:07:43.520	$GPGGA,140744,2430.8938,N,08100.3548,W,1,9,1.7,18,M,,M,,*58
06/14/2015	14:07:44.582	$GPGGA,140745,2430.8934,N,08100.3553,W,1,9,1.9,17,M,,M,,*5E
06/14/2015	14:07:45.500	$GPGGA,140746,2430.8933,N,08100.3560,W,1,8,1.9,17,M,,M,,*5B
06/14/2015	14:07:46.590	$GPGGA,140747,2430.8931,N,08100.3567,W,1,8,1.7,17,M,,M,,*51
06/14/2015	14:07:47.600	$GPGGA,140748,2430.8926,N,08100.3574,W,1,9,1.7,17,M,,M,,*5B
06/14/2015	14:07:48.590	$GPGGA,140749,2430.8923,N,08100.3581,W,1,9,1.7,17,M,,M,,*55
06/14/2015	14:07:49.610	$GPGGA,140750,2430.8922,N,08100.3591,W,1,9,1.7,17,M,,M,,*5D
06/14/2015	14:07:50.585	$GPGGA,140751,2430.8920,N,08100.3599,W,1,9,1.7,17,M,,M,,*56
06/14/2015	14:07:51.600	$GPGGA,140752,2430.8918,N,08100.3609,W,1,9,1.7,17,M,,M,,*54
06/14/2015	14:07:52.585	$GPGGA,140753,2430.8916,N,08100.3617,W,1,9,1.7,17,M,,M,,*54
06/14/2015	14:07:53.577	$GPGGA,140754,2430.8915,N,08100.3627,W,1,9,1.7,17,M,,M,,*53
06/14/2015	14:07:54.579	$GPGGA,140755,2430.8912,N,08100.3636,W,1,9,1.7,17,M,,M,,*55
06/14/2015	14:07:55.586	$GPGGA,140756,2430.8911,N,08100.3645,W,1,9,1.7,17,M,,M,,*51
06/14/2015	14:07:56.572	$GPGGA,140757,2430.8911,N,08100.3656,W,1,9,1.7,17,M,,M,,*52
06/14/2015	14:07:57.561	$GPGGA,140758,2430.8913,N,08100.3667,W,1,9,1.7,17,M,,M,,*5D
06/14/2015	14:07:58.561	$GPGGA,140759,2430.8912,N,08100.3678,W,1,9,1.9,17,M,,M,,*5D
06/14/2015	14:07:59.600	$GPGGA,140800,2430.8914,N,08100.3688,W,1,8,1.9,17,M,,M,,*56
06/14/2015	14:08:00.550	$GPGGA,140801,2430.8915,N,08100.3696,W,1,8,1.9,17,M,,M,,*59
06/14/2015	14:08:01.574	$GPGGA,140802,2430.8918,N,08100.3704,W,1,8,1.9,17,M,,M,,*5D
06/14/2015	14:08:02.560	$GPGGA,140803,2430.8918,N,08100.3714,W,1,8,1.9,17,M,,M,,*5D
06/14/2015	14:08:03.582	$GPGGA,140804,2430.8921,N,08100.3725,W,1,8,1.9,17,M,,M,,*52
06/14/2015	14:08:04.540	$GPGGA,140805,2430.8925,N,08100.3736,W,1,8,1.9,17,M,,M,,*55
06/14/2015	14:08:05.560	$GPGGA,140806,2430.8929,N,08100.3747,W,1,8,1.9,17,M,,M,,*5C
06/14/2015	14:08:06.540	$GPGGA,140807,2430.8932,N,08100.3759,W,1,8,2.1,17,M,,M,,*53
06/14/2015	14:08:07.570	$GPGGA,140808,2430.8936,N,08100.3770,W,1,8,1.9,17,M,,M,,*58
06/14/2015	14:08:08.540	$GPGGA,140809,2430.8940,N,08100.3779,W,1,8,1.9,17,M,,M,,*51
06/14/2015	14:08:09.560	$GPGGA,140810,2430.8945,N,08100.3790,W,1,8,1.9,17,M,,M,,*5B
06/14/2015	14:08:10.520	$GPGGA,140811,2430.8951,N,08100.3801,W,1,8,1.9,17,M,,M,,*58
06/14/2015	14:08:11.570	$GPGGA,140812,2430.8957,N,08100.3812,W,1,8,1.9,16,M,,M,,*5E
06/14/2015	14:08:12.861	$GPGGA,140813,2430.8962,N,08100.3826,W,1,8,1.9,16,M,,M,,*5E
06/14/2015	14:08:13.530	$GPGGA,140814,2430.8969,N,08100.3837,W,1,8,1.9,16,M,,M,,*52
06/14/2015	14:08:14.510	$GPGGA,140815,2430.8976,N,08100.3848,W,1,8,1.9,16,M,,M,,*55
06/14/2015	14:08:15.520	$GPGGA,140816,2430.8983,N,08100.3856,W,1,8,1.9,16,M,,M,,*53
06/14/2015	14:08:16.520	$GPGGA,140817,2430.8990,N,08100.3866,W,1,8,1.9,16,M,,M,,*53
06/14/2015	14:08:17.529	$GPGGA,140818,2430.8997,N,08100.3874,W,1,8,1.9,16,M,,M,,*58
06/14/2015	14:08:18.629	$GPGGA,140819,2430.9004,N,08100.3884,W,1,8,1.9,16,M,,M,,*54
06/14/2015	14:08:19.629	$GPGGA,140820,2430.9014,N,08100.3894,W,1,8,1.9,16,M,,M,,*5E
06/14/2015	14:08:20.619	$GPGGA,140821,2430.9023,N,08100.3903,W,1,8,1.9,16,M,,M,,*54
06/14/2015	14:08:21.529	$GPGGA,140822,2430.9030,N,08100.3913,W,1,8,1.9,16,M,,M,,*54
06/14/2015	14:08:22.500	$GPGGA,140823,2430.9040,N,08100.3921,W,1,8,2.0,16,M,,M,,*59
06/14/2015	14:08:23.630	$GPGGA,140824,2430.9048,N,08100.3925,W,1,7,2.0,16,M,,M,,*5D
06/14/2015	14:08:24.490	$GPGGA,140825,2430.9057,N,08100.3931,W,1,7,1.9,16,M,,M,,*5D
06/14/2015	14:08:25.510	$GPGGA,140826,2430.9066,N,08100.3935,W,1,8,1.9,16,M,,M,,*57
06/14/2015	14:08:26.500	$GPGGA,140827,2430.9077,N,08100.3941,W,1,8,1.9,16,M,,M,,*55
06/14/2015	14:08:27.520	$GPGGA,140828,2430.9090,N,08100.3949,W,1,8,1.9,16,M,,M,,*5B
06/14/2015	14:08:28.490	$GPGGA,140829,2430.9101,N,08100.3956,W,1,8,1.9,16,M,,M,,*5D
06/14/2015	14:08:29.510	$GPGGA,140830,2430.9113,N,08100.3960,W,1,8,1.9,16,M,,M,,*53
06/14/2015	14:08:30.500	$GPGGA,140831,2430.9122,N,08100.3967,W,1,8,1.9,16,M,,M,,*57
06/14/2015	14:08:31.610	$GPGGA,140832,2430.9131,N,08100.3970,W,1,8,1.9,16,M,,M,,*50
06/14/2015	14:08:32.590	$GPGGA,140833,2430.9144,N,08100.3970,W,1,8,1.9,16,M,,M,,*53
06/14/2015	14:08:33.583	$GPGGA,140834,2430.9156,N,08100.3975,W,1,8,1.9,16,M,,M,,*52
06/14/2015	14:08:34.570	$GPGGA,140835,2430.9167,N,08100.3981,W,1,8,1.9,16,M,,M,,*5A
06/14/2015	14:08:35.589	$GPGGA,140836,2430.9180,N,08100.3985,W,1,8,1.9,16,M,,M,,*54
06/14/2015	14:08:36.479	$GPGGA,140837,2430.9193,N,08100.3988,W,1,8,1.9,16,M,,M,,*5A
06/14/2015	14:08:37.570	$GPGGA,140838,2430.9203,N,08100.3988,W,1,8,1.9,16,M,,M,,*5F
06/14/2015	14:08:38.563	$GPGGA,140839,2430.9216,N,08100.3989,W,1,8,1.9,16,M,,M,,*5B
06/14/2015	14:08:39.610	$GPGGA,140840,2430.9228,N,08100.3992,W,1,8,1.9,16,M,,M,,*52
06/14/2015	14:08:40.575	$GPGGA,140841,2430.9240,N,08100.3991,W,1,8,1.9,16,M,,M,,*5E
06/14/2015	14:08:41.560	$GPGGA,140842,2430.9251,N,08100.3992,W,1,8,1.9,16,M,,M,,*5E
06/14/2015	14:08:42.561	$GPGGA,140843,2430.9264,N,08100.3991,W,1,8,1.9,16,M,,M,,*5A
06/14/2015	14:08:43.575	$GPGGA,140844,2430.9275,N,08100.3989,W,1,8,1.9,16,M,,M,,*54
06/14/2015	14:08:44.560	$GPGGA,140845,2430.9287,N,08100.3988,W,1,8,2.1,16,M,,M,,*52
06/14/2015	14:08:45.540	$GPGGA,140846,2430.9300,N,08100.3988,W,1,8,1.9,16,M,,M,,*54
06/14/2015	14:08:46.560	$GPGGA,140847,2430.9312,N,08100.3985,W,1,8,1.9,16,M,,M,,*5B
06/14/2015	14:08:47.550	$GPGGA,140848,2430.9323,N,08100.3986,W,1,8,1.9,16,M,,M,,*55
06/14/2015	14:08:48.550	$GPGGA,140849,2430.9337,N,08100.3985,W,1,8,1.9,16,M,,M,,*52
06/14/2015	14:08:50.590	$GPGGA,140851,2430.9359,N,08100.3973,W,1,8,1.9,17,M,,M,,*5B
06/14/2015	14:08:51.600	$GPGGA,140852,2430.9373,N,08100.3974,W,1,8,1.9,17,M,,M,,*57
06/14/2015	14:08:52.529	$GPGGA,140853,2430.9384,N,08100.3969,W,1,8,1.9,17,M,,M,,*52
06/14/2015	14:08:53.529	$GPGGA,140854,2430.9395,N,08100.3964,W,1,8,1.9,17,M,,M,,*58
06/14/2015	14:08:54.539	$GPGGA,140855,2430.9406,N,08100.3958,W,1,8,1.9,17,M,,M,,*5B
06/14/2015	14:08:55.570	$GPGGA,140856,2430.9417,N,08100.3951,W,1,8,1.9,17,M,,M,,*51
06/14/2015	14:08:56.529	$GPGGA,140857,2430.9427,N,08100.3945,W,1,8,1.9,17,M,,M,,*56
06/14/2015	14:08:57.563	$GPGGA,140858,2430.9440,N,08100.3941,W,1,8,1.9,17,M,,M,,*5C
06/14/2015	14:08:58.520	$GPGGA,140859,2430.9451,N,08100.3933,W,1,8,1.9,17,M,,M,,*58
06/14/2015	14:08:59.572	$GPGGA,140900,2430.9460,N,08100.3924,W,1,8,1.9,17,M,,M,,*51
06/14/2015	14:09:00.510	$GPGGA,140901,2430.9471,N,08100.3918,W,1,8,1.9,17,M,,M,,*5F
06/14/2015	14:09:01.510	$GPGGA,140902,2430.9482,N,08100.3912,W,1,8,1.9,17,M,,M,,*5A
06/14/2015	14:09:02.530	$GPGGA,140903,2430.9491,N,08100.3902,W,1,8,1.9,17,M,,M,,*58
06/14/2015	14:09:03.562	$GPGGA,140904,2430.9500,N,08100.3893,W,1,8,1.9,17,M,,M,,*5F
06/14/2015	14:09:04.520	$GPGGA,140905,2430.9510,N,08100.3886,W,1,8,1.9,17,M,,M,,*5B
06/14/2015	14:09:05.640	$GPGGA,140906,2430.9518,N,08100.3877,W,1,8,1.9,17,M,,M,,*5E
06/14/2015	14:09:06.530	$GPGGA,140907,2430.9527,N,08100.3865,W,1,8,1.9,17,M,,M,,*50
06/14/2015	14:09:07.563	$GPGGA,140908,2430.9536,N,08100.3855,W,1,8,1.9,17,M,,M,,*5C
06/14/2015	14:09:08.520	$GPGGA,140909,2430.9545,N,08100.3848,W,1,8,1.9,17,M,,M,,*55
06/14/2015	14:09:09.599	$GPGGA,140910,2430.9553,N,08100.3837,W,1,8,1.9,17,M,,M,,*52
06/14/2015	14:09:10.519	$GPGGA,140911,2430.9558,N,08100.3826,W,1,8,1.9,17,M,,M,,*58
06/14/2015	14:09:11.529	$GPGGA,140912,2430.9567,N,08100.3818,W,1,8,1.9,17,M,,M,,*5A
06/14/2015	14:09:12.509	$GPGGA,140913,2430.9574,N,08100.3810,W,1,8,1.9,17,M,,M,,*51
06/14/2015	14:09:13.609	$GPGGA,140914,2430.9579,N,08100.3801,W,1,8,1.9,17,M,,M,,*5B
06/14/2015	14:09:14.610	$GPGGA,140915,2430.9586,N,08100.3792,W,1,8,1.9,17,M,,M,,*5F
06/14/2015	14:09:15.640	$GPGGA,140916,2430.9593,N,08100.3783,W,1,8,1.9,17,M,,M,,*58
06/14/2015	14:09:16.591	$GPGGA,140917,2430.9599,N,08100.3775,W,1,8,2.1,17,M,,M,,*51
06/14/2015	14:09:17.480	$GPGGA,140918,2430.9604,N,08100.3768,W,1,7,2.1,17,M,,M,,*5A
06/14/2015	14:09:18.480	$GPGGA,140919,2430.9610,N,08100.3761,W,1,7,1.9,17,M,,M,,*5C
06/14/2015	14:09:19.640	$GPGGA,140920,2430.9614,N,08100.3752,W,1,8,1.9,17,M,,M,,*5D
06/14/2015	14:09:20.490	$GPGGA,140921,2430.9618,N,08100.3743,W,1,8,1.9,17,M,,M,,*50
06/14/2015	14:09:21.480	$GPGGA,140922,2430.9622,N,08100.3737,W,1,8,1.9,17,M,,M,,*59
06/14/2015	14:09:22.577	$GPGGA,140923,2430.9629,N,08100.3730,W,1,8,1.9,17,M,,M,,*54
06/14/2015	14:09:23.620	$GPGGA,140924,2430.9633,N,08100.3722,W,1,8,1.9,17,M,,M,,*5B
06/14/2015	14:09:24.572	$GPGGA,140925,2430.9637,N,08100.3716,W,1,8,1.9,17,M,,M,,*59
06/14/2015	14:09:25.580	$GPGGA,140926,2430.9643,N,08100.3707,W,1,8,1.9,17,M,,M,,*59
06/14/2015	14:09:26.572	$GPGGA,140927,2430.9647,N,08100.3701,W,1,8,1.9,17,M,,M,,*5A
06/14/2015	14:09:27.609	$GPGGA,140928,2430.9651,N,08100.3694,W,1,8,1.9,17,M,,M,,*5F
06/14/2015	14:09:28.566	$GPGGA,140929,2430.9657,N,08100.3686,W,1,8,1.9,16,M,,M,,*5A
06/14/2015	14:09:29.589	$GPGGA,140930,2430.9662,N,08100.3680,W,1,8,1.9,16,M,,M,,*52
06/14/2015	14:09:30.562	$GPGGA,140931,2430.9666,N,08100.3673,W,1,8,1.9,16,M,,M,,*5B
06/14/2015	14:09:31.610	$GPGGA,140932,2430.9670,N,08100.3665,W,1,8,1.9,16,M,,M,,*58
06/14/2015	14:09:32.562	$GPGGA,140933,2430.9675,N,08100.3658,W,1,8,1.9,16,M,,M,,*52
06/14/2015	14:09:33.570	$GPGGA,140934,2430.9680,N,08100.3651,W,1,8,1.9,16,M,,M,,*56
06/14/2015	14:09:34.550	$GPGGA,140935,2430.9686,N,08100.3645,W,1,8,1.9,16,M,,M,,*54
06/14/2015	14:09:35.580	$GPGGA,140936,2430.9691,N,08100.3637,W,1,8,1.9,16,M,,M,,*54
06/14/2015	14:09:36.550	$GPGGA,140937,2430.9695,N,08100.3629,W,1,8,1.9,16,M,,M,,*5E
06/14/2015	14:09:37.571	$GPGGA,140938,2430.9698,N,08100.3622,W,1,8,1.9,16,M,,M,,*57
06/14/2015	14:09:38.540	$GPGGA,140939,2430.9704,N,08100.3615,W,1,8,1.9,16,M,,M,,*56
06/14/2015	14:09:39.610	$GPGGA,140940,2430.9709,N,08100.3607,W,1,8,1.9,16,M,,M,,*56
06/14/2015	14:09:40.540	$GPGGA,140941,2430.9715,N,08100.3600,W,1,8,1.9,16,M,,M,,*5D
06/14/2015	14:09:41.561	$GPGGA,140942,2430.9717,N,08100.3591,W,1,8,1.9,16,M,,M,,*57
06/14/2015	14:09:42.530	$GPGGA,140943,2430.9722,N,08100.3584,W,1,8,1.9,16,M,,M,,*54
06/14/2015	14:09:43.570	$GPGGA,140944,2430.9727,N,08100.3579,W,1,8,1.9,16,M,,M,,*54
06/14/2015	14:09:44.539	$GPGGA,140945,2430.9733,N,08100.3569,W,1,8,1.9,16,M,,M,,*51
06/14/2015	14:09:45.519	$GPGGA,140946,2430.9734,N,08100.3558,W,1,8,2.5,16,M,,M,,*58
06/14/2015	14:09:46.529	$GPGGA,140947,2430.9741,N,08100.3552,W,1,8,1.9,16,M,,M,,*5E
06/14/2015	14:09:47.578	$GPGGA,140948,2430.9747,N,08100.3546,W,1,8,1.9,16,M,,M,,*52
06/14/2015	14:09:48.519	$GPGGA,140949,2430.9751,N,08100.3535,W,1,8,1.9,16,M,,M,,*50
06/14/2015	14:09:49.550	$GPGGA,140950,2430.9755,N,08100.3525,W,1,8,1.9,16,M,,M,,*5D
06/14/2015	14:09:50.510	$GPGGA,140951,2430.9760,N,08100.3518,W,1,8,1.9,16,M,,M,,*54
06/14/2015	14:09:51.562	$GPGGA,140952,2430.9767,N,08100.3510,W,1,8,1.9,16,M,,M,,*58
06/14/2015	14:09:52.530	$GPGGA,140953,2430.9771,N,08100.3501,W,1,8,1.9,16,M,,M,,*5E
06/14/2015	14:09:53.941	$GPGGA,140954,2430.9778,N,08100.3492,W,1,8,1.9,16,M,,M,,*5B
06/14/2015	14:09:54.520	$GPGGA,140955,2430.9785,N,08100.3481,W,1,8,1.9,16,M,,M,,*5A
06/14/2015	14:09:55.530	$GPGGA,140956,2430.9789,N,08100.3473,W,1,8,1.9,16,M,,M,,*58
06/14/2015	14:09:56.600	$GPGGA,140957,2430.9799,N,08100.3465,W,1,8,1.9,16,M,,M,,*5F
06/14/2015	14:09:57.520	$GPGGA,140958,2430.9805,N,08100.3455,W,1,8,1.9,16,M,,M,,*59
06/14/2015	14:09:58.520	$GPGGA,140959,2430.9810,N,08100.3443,W,1,8,1.9,16,M,,M,,*5B
06/14/2015	14:09:59.561	$GPGGA,141000,2430.9818,N,08100.3434,W,1,8,1.9,16,M,,M,,*57
06/14/2015	14:10:00.490	$GPGGA,141001,2430.9825,N,08100.3424,W,1,8,1.9,16,M,,M,,*59
06/14/2015	14:10:01.620	$GPGGA,141002,2430.9832,N,08100.3411,W,1,8,1.9,16,M,,M,,*5A
06/14/2015	14:10:02.509	$GPGGA,141003,2430.9839,N,08100.3401,W,1,8,1.9,16,M,,M,,*51
06/14/2015	14:10:03.589	$GPGGA,141004,2430.9846,N,08100.3392,W,1,8,1.9,16,M,,M,,*53
06/14/2015	14:10:04.589	$GPGGA,141005,2430.9856,N,08100.3379,W,1,8,1.9,16,M,,M,,*56
06/14/2015	14:10:05.499	$GPGGA,141006,2430.9861,N,08100.3366,W,1,8,1.9,16,M,,M,,*5F
06/14/2015	14:10:06.580	$GPGGA,141007,2430.9868,N,08100.3357,W,1,8,1.9,16,M,,M,,*55
06/14/2015	14:10:07.510	$GPGGA,141008,2430.9879,N,08100.3347,W,1,8,1.9,17,M,,M,,*5A
06/14/2015	14:10:08.490	$GPGGA,141009,2430.9889,N,08100.3334,W,1,8,1.9,17,M,,M,,*50
06/14/2015	14:10:09.600	$GPGGA,141010,2430.9894,N,08100.3320,W,1,8,1.9,17,M,,M,,*51
06/14/2015	14:10:10.570	$GPGGA,141011,2430.9904,N,08100.3310,W,1,8,1.9,17,M,,M,,*5B
06/14/2015	14:10:11.590	$GPGGA,141012,2430.9915,N,08100.3299,W,1,8,1.9,17,M,,M,,*58
06/14/2015	14:10:13.040	$GPGGA,141013,2430.9922,N,08100.3287,W,1,8,1.9,17,M,,M,,*52
06/14/2015	14:10:13.580	$GPGGA,141014,2430.9930,N,08100.3273,W,1,8,1.9,17,M,,M,,*5D
06/14/2015	14:10:14.561	$GPGGA,141015,2430.9940,N,08100.3261,W,1,8,1.9,17,M,,M,,*58
06/14/2015	14:10:15.580	$GPGGA,141016,2430.9951,N,08100.3248,W,1,8,1.9,17,M,,M,,*50
06/14/2015	14:10:16.550	$GPGGA,141017,2430.9958,N,08100.3235,W,1,8,1.9,17,M,,M,,*52
06/14/2015	14:10:17.580	$GPGGA,141018,2430.9966,N,08100.3222,W,1,8,1.9,17,M,,M,,*56
06/14/2015	14:10:18.573	$GPGGA,141019,2430.9977,N,08100.3208,W,1,8,1.9,17,M,,M,,*5F
06/14/2015	14:10:19.573	$GPGGA,141020,2430.9987,N,08100.3197,W,1,8,1.9,17,M,,M,,*5F
06/14/2015	14:10:20.549	$GPGGA,141021,2430.9995,N,08100.3184,W,1,8,1.9,17,M,,M,,*5F
06/14/2015	14:10:21.573	$GPGGA,141022,2431.0005,N,08100.3169,W,1,8,1.9,17,M,,M,,*57
06/14/2015	14:10:22.539	$GPGGA,141023,2431.0016,N,08100.3157,W,1,8,1.9,16,M,,M,,*58
06/14/2015	14:10:23.570	$GPGGA,141024,2431.0026,N,08100.3144,W,1,8,1.9,16,M,,M,,*5E
06/14/2015	14:10:24.540	$GPGGA,141025,2431.0034,N,08100.3129,W,1,8,1.9,16,M,,M,,*57
06/14/2015	14:10:25.530	$GPGGA,141026,2431.0045,N,08100.3118,W,1,8,1.9,16,M,,M,,*50
06/14/2015	14:10:26.540	$GPGGA,141027,2431.0055,N,08100.3104,W,1,8,1.9,16,M,,M,,*5D
06/14/2015	14:10:27.573	$GPGGA,141028,2431.0065,N,08100.3090,W,1,8,1.9,16,M,,M,,*5D
06/14/2015	14:10:28.540	$GPGGA,141029,2431.0074,N,08100.3077,W,1,8,1.9,16,M,,M,,*55
06/14/2015	14:10:29.540	$GPGGA,141030,2431.0085,N,08100.3062,W,1,8,1.9,16,M,,M,,*57
06/14/2015	14:10:30.540	$GPGGA,141031,2431.0095,N,08100.3047,W,1,8,1.9,16,M,,M,,*50
06/14/2015	14:10:31.562	$GPGGA,141032,2431.0105,N,08100.3036,W,1,8,1.9,16,M,,M,,*5D
06/14/2015	14:10:32.530	$GPGGA,141033,2431.0114,N,08100.3024,W,1,8,2.1,16,M,,M,,*54
06/14/2015	14:10:33.520	$GPGGA,141034,2431.0123,N,08100.3009,W,1,8,1.9,16,M,,M,,*53
06/14/2015	14:10:34.540	$GPGGA,141035,2431.0130,N,08100.2996,W,1,8,1.9,16,M,,M,,*5E
06/14/2015	14:10:35.562	$GPGGA,141036,2431.0139,N,08100.2986,W,1,8,1.9,16,M,,M,,*55
06/14/2015	14:10:36.530	$GPGGA,141037,2431.0149,N,08100.2973,W,1,8,1.9,16,M,,M,,*59
06/14/2015	14:10:37.549	$GPGGA,141038,2431.0157,N,08100.2959,W,1,8,1.9,16,M,,M,,*51
06/14/2015	14:10:38.509	$GPGGA,141039,2431.0165,N,08100.2945,W,1,8,1.9,16,M,,M,,*5C
06/14/2015	14:10:39.539	$GPGGA,141040,2431.0175,N,08100.2931,W,1,8,1.9,16,M,,M,,*50
06/14/2015	14:10:40.499	$GPGGA,141041,2431.0185,N,08100.2917,W,1,8,1.9,16,M,,M,,*5A
06/14/2015	14:10:41.510	$GPGGA,141042,2431.0196,N,08100.2903,W,1,8,1.9,16,M,,M,,*5E
06/14/2015	14:10:42.500	$GPGGA,141043,2431.0207,N,08100.2888,W,1,8,1.9,16,M,,M,,*56
06/14/2015	14:10:43.530	$GPGGA,141044,2431.0215,N,08100.2875,W,1,8,1.9,16,M,,M,,*50
06/14/2015	14:10:44.510	$GPGGA,141045,2431.0226,N,08100.2860,W,1,8,1.9,16,M,,M,,*55
06/14/2015	14:10:45.510	$GPGGA,141046,2431.0237,N,08100.2844,W,1,8,1.9,16,M,,M,,*50
06/14/2015	14:10:46.590	$GPGGA,141047,2431.0248,N,08100.2832,W,1,8,1.9,16,M,,M,,*58
06/14/2015	14:10:47.520	$GPGGA,141048,2431.0260,N,08100.2819,W,1,8,1.9,16,M,,M,,*54
06/14/2015	14:10:48.600	$GPGGA,141049,2431.0269,N,08100.2802,W,1,8,1.9,16,M,,M,,*56
06/14/2015	14:10:49.610	$GPGGA,141050,2431.0280,N,08100.2787,W,1,8,1.9,16,M,,M,,*5B
06/14/2015	14:10:50.500	$GPGGA,141051,2431.0293,N,08100.2775,W,1,8,1.9,16,M,,M,,*55
06/14/2015	14:10:51.590	$GPGGA,141052,2431.0302,N,08100.2762,W,1,8,1.9,16,M,,M,,*59
06/14/2015	14:10:52.490	$GPGGA,141053,2431.0313,N,08100.2745,W,1,8,1.9,16,M,,M,,*5D
06/14/2015	14:10:53.580	$GPGGA,141054,2431.0324,N,08100.2729,W,1,8,1.9,16,M,,M,,*54
06/14/2015	14:10:54.580	$GPGGA,141055,2431.0337,N,08100.2720,W,1,8,1.9,16,M,,M,,*5E
06/14/2015	14:10:55.589	$GPGGA,141056,2431.0349,N,08100.2708,W,1,8,1.9,16,M,,M,,*5E
06/14/2015	14:10:56.573	$GPGGA,141057,2431.0359,N,08100.2690,W,1,8,1.9,16,M,,M,,*5E
06/14/2015	14:10:57.599	$GPGGA,141058,2431.0367,N,08100.2678,W,1,8,1.9,16,M,,M,,*5A
06/14/2015	14:10:58.574	$GPGGA,141059,2431.0381,N,08100.2670,W,1,8,1.9,16,M,,M,,*5B
06/14/2015	14:10:59.575	$GPGGA,141100,2431.0394,N,08100.2656,W,1,8,1.9,16,M,,M,,*56
06/14/2015	14:11:00.567	$GPGGA,141101,2431.0403,N,08100.2642,W,1,8,1.9,15,M,,M,,*58
06/14/2015	14:11:01.563	$GPGGA,141102,2431.0414,N,08100.2629,W,1,8,1.9,15,M,,M,,*50
06/14/2015	14:11:02.560	$GPGGA,141103,2431.0425,N,08100.2618,W,1,8,1.9,15,M,,M,,*51
06/14/2015	14:11:03.590	$GPGGA,141104,2431.0435,N,08100.2606,W,1,8,1.9,15,M,,M,,*58
06/14/2015	14:11:04.564	$GPGGA,141105,2431.0445,N,08100.2592,W,1,8,1.9,15,M,,M,,*50
06/14/2015	14:11:05.550	$GPGGA,141106,2431.0457,N,08100.2579,W,1,8,1.9,15,M,,M,,*55
06/14/2015	14:11:06.566	$GPGGA,141107,2431.0468,N,08100.2567,W,1,8,1.9,15,M,,M,,*57
06/14/2015	14:11:07.580	$GPGGA,141108,2431.0477,N,08100.2552,W,1,8,1.9,15,M,,M,,*50
06/14/2015	14:11:08.540	$GPGGA,141109,2431.0488,N,08100.2539,W,1,8,1.9,15,M,,M,,*5C
06/14/2015	14:11:09.575	$GPGGA,141110,2431.0500,N,08100.2527,W,1,8,1.9,15,M,,M,,*5A
06/14/2015	14:11:10.550	$GPGGA,141111,2431.0508,N,08100.2513,W,1,8,1.9,15,M,,M,,*54
06/14/2015	14:11:11.573	$GPGGA,141112,2431.0518,N,08100.2498,W,1,8,1.9,15,M,,M,,*54
06/14/2015	14:11:12.539	$GPGGA,141113,2431.0529,N,08100.2487,W,1,8,1.9,15,M,,M,,*59
06/14/2015	14:11:13.549	$GPGGA,141114,2431.0540,N,08100.2474,W,1,8,1.9,15,M,,M,,*5D
06/14/2015	14:11:14.540	$GPGGA,141115,2431.0550,N,08100.2459,W,1,8,1.9,15,M,,M,,*52
06/14/2015	14:11:15.539	$GPGGA,141116,2431.0561,N,08100.2446,W,1,8,1.9,15,M,,M,,*5D
06/14/2015	14:11:16.540	$GPGGA,141117,2431.0571,N,08100.2433,W,1,8,1.9,15,M,,M,,*5F
06/14/2015	14:11:17.564	$GPGGA,141118,2431.0580,N,08100.2419,W,1,8,1.9,15,M,,M,,*56
06/14/2015	14:11:18.540	$GPGGA,141119,2431.0591,N,08100.2404,W,1,8,1.9,15,M,,M,,*5B
06/14/2015	14:11:19.560	$GPGGA,141120,2431.0601,N,08100.2391,W,1,8,1.9,15,M,,M,,*50
06/14/2015	14:11:20.530	$GPGGA,141121,2431.0611,N,08100.2378,W,1,8,1.9,15,M,,M,,*57
06/14/2015	14:11:21.530	$GPGGA,141122,2431.0620,N,08100.2362,W,1,8,1.9,15,M,,M,,*5D
06/14/2015	14:11:22.530	$GPGGA,141123,2431.0630,N,08100.2348,W,1,8,1.9,15,M,,M,,*55
06/14/2015	14:11:23.650	$GPGGA,141124,2431.0640,N,08100.2335,W,1,8,1.9,15,M,,M,,*5F
06/14/2015	14:11:24.510	$GPGGA,141125,2431.0648,N,08100.2319,W,1,8,1.9,14,M,,M,,*59
06/14/2015	14:11:25.520	$GPGGA,141126,2431.0656,N,08100.2305,W,1,8,1.9,14,M,,M,,*58
06/14/2015	14:11:26.520	$GPGGA,141127,2431.0667,N,08100.2291,W,1,8,1.9,14,M,,M,,*57
06/14/2015	14:11:27.550	$GPGGA,141128,2431.0677,N,08100.2275,W,1,8,1.9,14,M,,M,,*53
06/14/2015	14:11:28.630	$GPGGA,141129,2431.0685,N,08100.2259,W,1,8,1.9,14,M,,M,,*51
06/14/2015	14:11:29.519	$GPGGA,141130,2431.0694,N,08100.2244,W,1,8,1.9,14,M,,M,,*55
06/14/2015	14:11:30.509	$GPGGA,141131,2431.0703,N,08100.2229,W,1,8,1.9,14,M,,M,,*50
06/14/2015	14:11:31.639	$GPGGA,141132,2431.0713,N,08100.2213,W,1,8,1.9,14,M,,M,,*5B
06/14/2015	14:11:32.509	$GPGGA,141133,2431.0721,N,08100.2197,W,1,8,1.9,14,M,,M,,*54
06/14/2015	14:11:33.489	$GPGGA,141134,2431.0730,N,08100.2182,W,1,8,1.9,14,M,,M,,*57
06/14/2015	14:11:34.500	$GPGGA,141135,2431.0739,N,08100.2166,W,1,8,2.0,14,M,,M,,*5F
06/14/2015	14:11:35.521	$GPGGA,141136,2431.0748,N,08100.2150,W,1,8,2.0,14,M,,M,,*5F
06/14/2015	14:11:36.510	$GPGGA,141137,2431.0756,N,08100.2135,W,1,8,2.0,14,M,,M,,*52
06/14/2015	14:11:37.490	$GPGGA,141138,2431.0766,N,08100.2119,W,1,8,2.0,14,M,,M,,*50
06/14/2015	14:11:38.490	$GPGGA,141139,2431.0773,N,08100.2103,W,1,8,2.0,14,M,,M,,*5E
06/14/2015	14:11:39.630	$GPGGA,141140,2431.0781,N,08100.2086,W,1,8,2.0,14,M,,M,,*51
06/14/2015	14:11:40.573	$GPGGA,141141,2431.0789,N,08100.2071,W,1,8,2.0,14,M,,M,,*50
06/14/2015	14:11:41.580	$GPGGA,141142,2431.0800,N,08100.2056,W,1,8,2.0,14,M,,M,,*58
06/14/2015	14:11:42.574	$GPGGA,141143,2431.0807,N,08100.2039,W,1,8,2.0,14,M,,M,,*57
06/14/2015	14:11:43.590	$GPGGA,141144,2431.0813,N,08100.2021,W,1,8,2.0,14,M,,M,,*5C
06/14/2015	14:11:44.580	$GPGGA,141145,2431.0822,N,08100.2006,W,1,8,2.0,13,M,,M,,*5D
06/14/2015	14:11:45.565	$GPGGA,141146,2431.0832,N,08100.1991,W,1,8,2.0,13,M,,M,,*5B
06/14/2015	14:11:46.571	$GPGGA,141147,2431.0839,N,08100.1974,W,1,8,2.0,13,M,,M,,*5A
06/14/2015	14:11:47.619	$GPGGA,141148,2431.0844,N,08100.1957,W,1,8,2.0,13,M,,M,,*5E
06/14/2015	14:11:48.569	$GPGGA,141149,2431.0854,N,08100.1943,W,1,8,2.0,13,M,,M,,*5B
06/14/2015	14:11:49.574	$GPGGA,141150,2431.0864,N,08100.1927,W,1,8,2.0,13,M,,M,,*52
06/14/2015	14:11:50.562	$GPGGA,141151,2431.0869,N,08100.1908,W,1,8,2.0,13,M,,M,,*53
