Software Version Number: 1	Data File Format Number: 1	Build Version Number: 1	Error Count Since VI Started: 3	Manufacturer: Raytheon	 Model Number: RayMarine 120	 S/N: 	 Cal Date: 	 Wind Direction Offset: 0.00	 Slope (M)1: 0.00	 Offset (B)1: 0.00	 Slope (M)2: 0.00	 Offset (B)2: 0.00	 Slope (M)3: 0.00	 Offset (B)3: 0.00	 Slope (M)4: 0.00	 Offset (B)4: 0.00	 Slope (M)5: 0.00	 Offset (B)5: 0.00	 Slope (M)6: 0.00	 Offset (B)6: 0.00
Computer Date	Computer Time	GGA String
06/23/2015	22:00:00.520	$GPGGA,220001,2543.0241,N,08010.3217,W,1,7,2.0,17,M,,M,,*5B
06/23/2015	22:00:01.530	$GPGGA,220002,2543.0229,N,08010.3235,W,1,7,1.9,17,M,,M,,*5C
06/23/2015	22:00:02.497	$GPGGA,220003,2543.0217,N,08010.3252,W,1,7,1.6,17,M,,M,,*5E
06/23/2015	22:00:03.520	$GPGGA,220004,2543.0204,N,08010.3270,W,1,8,1.6,18,M,,M,,*5B
06/23/2015	22:00:04.520	$GPGGA,220005,2543.0192,N,08010.3288,W,1,8,1.6,18,M,,M,,*51
06/23/2015	22:00:05.530	$GPGGA,220006,2543.0179,N,08010.3306,W,1,8,1.6,18,M,,M,,*50
06/23/2015	22:00:06.610	$GPGGA,220007,2543.0168,N,08010.3325,W,1,8,1.6,18,M,,M,,*50
06/23/2015	22:00:07.610	$GPGGA,220008,2543.0155,N,08010.3343,W,1,8,1.6,18,M,,M,,*51
06/23/2015	22:00:08.511	$GPGGA,220009,2543.0143,N,08010.3363,W,1,8,1.6,18,M,,M,,*55
06/23/2015	22:00:09.641	$GPGGA,220010,2543.0132,N,08010.3381,W,1,8,1.6,18,M,,M,,*57
06/23/2015	22:00:10.501	$GPGGA,220011,2543.0119,N,08010.3399,W,1,8,1.6,18,M,,M,,*56
06/23/2015	22:00:11.530	$GPGGA,220012,2543.0108,N,08010.3418,W,1,8,1.6,18,M,,M,,*5B
06/23/2015	22:00:12.582	$GPGGA,220013,2543.0096,N,08010.3436,W,1,8,1.6,18,M,,M,,*50
06/23/2015	22:00:13.580	$GPGGA,220014,2543.0085,N,08010.3454,W,1,8,1.6,18,M,,M,,*51
06/23/2015	22:00:14.596	$GPGGA,220015,2543.0072,N,08010.3472,W,1,8,1.6,18,M,,M,,*5C
06/23/2015	22:00:15.494	$GPGGA,220016,2543.0060,N,08010.3490,W,1,8,1.6,18,M,,M,,*50
06/23/2015	22:00:16.493	$GPGGA,220017,2543.0049,N,08010.3509,W,1,8,1.6,18,M,,M,,*5B
06/23/2015	22:00:17.610	$GPGGA,220018,2543.0038,N,08010.3527,W,1,8,1.6,18,M,,M,,*5E
06/23/2015	22:00:18.493	$GPGGA,220019,2543.0025,N,08010.3545,W,1,8,1.6,18,M,,M,,*57
06/23/2015	22:00:19.593	$GPGGA,220020,2543.0013,N,08010.3563,W,1,8,1.6,18,M,,M,,*5C
06/23/2015	22:00:20.997	$GPGGA,220021,2543.0002,N,08010.3582,W,1,8,1.6,18,M,,M,,*52
06/23/2015	22:00:21.581	$GPGGA,220022,2542.9991,N,08010.3600,W,1,8,1.6,18,M,,M,,*53
06/23/2015	22:00:22.560	$GPGGA,220023,2542.9978,N,08010.3618,W,1,8,1.6,18,M,,M,,*5C
06/23/2015	22:00:23.582	$GPGGA,220024,2542.9966,N,08010.3636,W,1,8,1.6,18,M,,M,,*58
06/23/2015	22:00:24.560	$GPGGA,220025,2542.9955,N,08010.3656,W,1,8,1.6,18,M,,M,,*5F
06/23/2015	22:00:25.571	$GPGGA,220026,2542.9944,N,08010.3674,W,1,8,1.6,18,M,,M,,*5C
06/23/2015	22:00:26.561	$GPGGA,220027,2542.9931,N,08010.3692,W,1,8,1.6,18,M,,M,,*57
06/23/2015	22:00:27.571	$GPGGA,220028,2542.9919,N,08010.3710,W,1,8,1.6,18,M,,M,,*59
06/23/2015	22:00:28.560	$GPGGA,220029,2542.9908,N,08010.3729,W,1,8,1.6,18,M,,M,,*52
06/23/2015	22:00:29.570	$GPGGA,220030,2542.9895,N,08010.3747,W,1,8,1.6,18,M,,M,,*57
06/23/2015	22:00:30.550	$GPGGA,220031,2542.9883,N,08010.3766,W,1,8,1.6,18,M,,M,,*52
06/23/2015	22:00:31.560	$GPGGA,220032,2542.9872,N,08010.3786,W,1,8,1.6,18,M,,M,,*51
06/23/2015	22:00:32.530	$GPGGA,220033,2542.9859,N,08010.3804,W,1,8,1.6,18,M,,M,,*5C
06/23/2015	22:00:33.560	$GPGGA,220034,2542.9847,N,08010.3823,W,1,8,1.6,18,M,,M,,*51
06/23/2015	22:00:34.540	$GPGGA,220035,2542.9836,N,08010.3841,W,1,8,1.6,18,M,,M,,*52
06/23/2015	22:00:35.570	$GPGGA,220036,2542.9822,N,08010.3859,W,1,8,1.6,18,M,,M,,*5D
06/23/2015	22:00:36.530	$GPGGA,220037,2542.9809,N,08010.3877,W,1,8,1.6,18,M,,M,,*59
06/23/2015	22:00:37.530	$GPGGA,220038,2542.9797,N,08010.3895,W,1,7,1.7,18,M,,M,,*5C
06/23/2015	22:00:38.550	$GPGGA,220039,2542.9786,N,08010.3913,W,1,7,1.6,18,M,,M,,*53
06/23/2015	22:00:39.560	$GPGGA,220040,2542.9773,N,08010.3932,W,1,8,1.6,18,M,,M,,*5B
06/23/2015	22:00:40.530	$GPGGA,220041,2542.9761,N,08010.3949,W,1,8,1.6,18,M,,M,,*55
06/23/2015	22:00:41.550	$GPGGA,220042,2542.9749,N,08010.3968,W,1,8,1.6,18,M,,M,,*5F
06/23/2015	22:00:42.520	$GPGGA,220043,2542.9735,N,08010.3985,W,1,8,1.6,18,M,,M,,*56
06/23/2015	22:00:43.561	$GPGGA,220044,2542.9724,N,08010.4003,W,1,8,1.6,18,M,,M,,*51
06/23/2015	22:00:44.531	$GPGGA,220045,2542.9711,N,08010.4021,W,1,8,1.6,18,M,,M,,*56
06/23/2015	22:00:45.541	$GPGGA,220046,2542.9699,N,08010.4039,W,1,8,1.6,18,M,,M,,*5D
06/23/2015	22:00:46.510	$GPGGA,220047,2542.9688,N,08010.4057,W,1,8,1.6,18,M,,M,,*54
06/23/2015	22:00:47.550	$GPGGA,220048,2542.9674,N,08010.4075,W,1,8,1.6,18,M,,M,,*58
06/23/2015	22:00:48.530	$GPGGA,220049,2542.9662,N,08010.4094,W,1,8,1.6,18,M,,M,,*51
06/23/2015	22:00:49.540	$GPGGA,220050,2542.9651,N,08010.4112,W,1,7,1.9,18,M,,M,,*56
06/23/2015	22:00:50.510	$GPGGA,220051,2542.9638,N,08010.4129,W,1,7,1.6,18,M,,M,,*5F
06/23/2015	22:00:51.510	$GPGGA,220052,2542.9626,N,08010.4147,W,1,8,1.6,18,M,,M,,*54
06/23/2015	22:00:52.610	$GPGGA,220053,2542.9612,N,08010.4163,W,1,8,1.6,18,M,,M,,*54
06/23/2015	22:00:53.510	$GPGGA,220054,2542.9601,N,08010.4181,W,1,8,1.6,18,M,,M,,*5D
06/23/2015	22:00:54.510	$GPGGA,220055,2542.9587,N,08010.4198,W,1,8,1.6,18,M,,M,,*59
06/23/2015	22:00:55.600	$GPGGA,220056,2542.9576,N,08010.4216,W,1,8,1.6,18,M,,M,,*51
06/23/2015	22:00:56.493	$GPGGA,220057,2542.9563,N,08010.4234,W,1,8,1.6,18,M,,M,,*54
06/23/2015	22:00:57.490	$GPGGA,220058,2542.9551,N,08010.4252,W,1,8,1.6,18,M,,M,,*5A
06/23/2015	22:00:58.500	$GPGGA,220059,2542.9540,N,08010.4270,W,1,8,1.7,18,M,,M,,*5A
06/23/2015	22:00:59.550	$GPGGA,220100,2542.9530,N,08010.4289,W,1,8,1.6,18,M,,M,,*57
06/23/2015	22:01:00.501	$GPGGA,220101,2542.9519,N,08010.4310,W,1,8,1.9,18,M,,M,,*53
06/23/2015	22:01:01.490	$GPGGA,220102,2542.9507,N,08010.4328,W,1,7,1.9,18,M,,M,,*5B
06/23/2015	22:01:02.571	$GPGGA,220103,2542.9496,N,08010.4347,W,1,7,1.9,18,M,,M,,*5A
06/23/2015	22:01:03.620	$GPGGA,220104,2542.9485,N,08010.4366,W,1,7,2.0,18,M,,M,,*56
06/23/2015	22:01:04.483	$GPGGA,220105,2542.9474,N,08010.4386,W,1,7,2.0,18,M,,M,,*57
06/23/2015	22:01:05.581	$GPGGA,220106,2542.9465,N,08010.4405,W,1,7,1.9,18,M,,M,,*52
06/23/2015	22:01:06.590	$GPGGA,220107,2542.9454,N,08010.4425,W,1,7,2.0,18,M,,M,,*59
06/23/2015	22:01:07.620	$GPGGA,220108,2542.9442,N,08010.4444,W,1,6,1.9,18,M,,M,,*5D
06/23/2015	22:01:08.491	$GPGGA,220109,2542.9431,N,08010.4462,W,1,6,1.9,18,M,,M,,*5C
06/23/2015	22:01:09.585	$GPGGA,220110,2542.9418,N,08010.4481,W,1,6,1.9,18,M,,M,,*52
06/23/2015	22:01:10.570	$GPGGA,220111,2542.9407,N,08010.4501,W,1,6,1.9,18,M,,M,,*54
06/23/2015	22:01:11.620	$GPGGA,220112,2542.9397,N,08010.4520,W,1,7,1.9,18,M,,M,,*5B
06/23/2015	22:01:12.560	$GPGGA,220113,2542.9386,N,08010.4541,W,1,7,1.9,18,M,,M,,*5D
06/23/2015	22:01:13.581	$GPGGA,220114,2542.9375,N,08010.4560,W,1,7,1.9,18,M,,M,,*55
06/23/2015	22:01:14.550	$GPGGA,220115,2542.9363,N,08010.4579,W,1,7,1.9,17,M,,M,,*54
06/23/2015	22:01:15.598	$GPGGA,220116,2542.9352,N,08010.4599,W,1,7,1.9,17,M,,M,,*5B
06/23/2015	22:01:16.550	$GPGGA,220117,2542.9341,N,08010.4618,W,1,7,1.6,17,M,,M,,*5D
06/23/2015	22:01:17.570	$GPGGA,220118,2542.9330,N,08010.4637,W,1,8,1.6,17,M,,M,,*56
06/23/2015	22:01:18.551	$GPGGA,220119,2542.9319,N,08010.4657,W,1,8,1.6,17,M,,M,,*5A
06/23/2015	22:01:19.584	$GPGGA,220120,2542.9307,N,08010.4675,W,1,8,1.6,17,M,,M,,*5F
06/23/2015	22:01:20.541	$GPGGA,220121,2542.9296,N,08010.4694,W,1,8,1.6,17,M,,M,,*58
06/23/2015	22:01:21.550	$GPGGA,220122,2542.9284,N,08010.4714,W,1,8,1.6,17,M,,M,,*51
06/23/2015	22:01:22.540	$GPGGA,220123,2542.9273,N,08010.4732,W,1,8,1.6,17,M,,M,,*5C
06/23/2015	22:01:23.570	$GPGGA,220124,2542.9262,N,08010.4751,W,1,8,1.6,17,M,,M,,*5E
06/23/2015	22:01:24.530	$GPGGA,220125,2542.9251,N,08010.4769,W,1,8,1.6,17,M,,M,,*54
06/23/2015	22:01:25.550	$GPGGA,220126,2542.9240,N,08010.4787,W,1,8,2.1,17,M,,M,,*53
06/23/2015	22:01:26.530	$GPGGA,220127,2542.9229,N,08010.4809,W,1,8,1.6,17,M,,M,,*50
06/23/2015	22:01:27.530	$GPGGA,220128,2542.9218,N,08010.4827,W,1,8,1.6,17,M,,M,,*51
06/23/2015	22:01:28.530	$GPGGA,220129,2542.9207,N,08010.4846,W,1,8,1.6,17,M,,M,,*59
06/23/2015	22:01:29.550	$GPGGA,220130,2542.9196,N,08010.4866,W,1,8,1.6,17,M,,M,,*58
06/23/2015	22:01:30.540	$GPGGA,220131,2542.9185,N,08010.4885,W,1,8,1.6,18,M,,M,,*59
06/23/2015	22:01:31.550	$GPGGA,220132,2542.9175,N,08010.4906,W,1,8,1.6,18,M,,M,,*5F
06/23/2015	22:01:32.530	$GPGGA,220133,2542.9164,N,08010.4925,W,1,8,1.6,18,M,,M,,*5F
06/23/2015	22:01:33.540	$GPGGA,220134,2542.9164,N,08010.4925,W,1,8,1.6,18,M,,M,,*58
06/23/2015	22:01:34.530	$GPGGA,220135,2542.9142,N,08010.4964,W,1,8,1.6,18,M,,M,,*58
06/23/2015	22:01:35.551	$GPGGA,220136,2542.9131,N,08010.4983,W,1,8,1.7,18,M,,M,,*57
06/23/2015	22:01:36.621	$GPGGA,220137,2542.9119,N,08010.5003,W,1,8,1.6,18,M,,M,,*5D
06/23/2015	22:01:37.541	$GPGGA,220138,2542.9108,N,08010.5022,W,1,8,1.7,18,M,,M,,*50
06/23/2015	22:01:38.510	$GPGGA,220139,2542.9099,N,08010.5043,W,1,8,1.6,18,M,,M,,*5E
06/23/2015	22:01:39.560	$GPGGA,220140,2542.9088,N,08010.5061,W,1,8,1.6,18,M,,M,,*50
06/23/2015	22:01:40.510	$GPGGA,220141,2542.9077,N,08010.5081,W,1,8,1.6,18,M,,M,,*5F
06/23/2015	22:01:41.530	$GPGGA,220142,2542.9066,N,08010.5101,W,1,8,1.6,18,M,,M,,*55
06/23/2015	22:01:42.510	$GPGGA,220143,2542.9054,N,08010.5119,W,1,8,1.9,18,M,,M,,*53
06/23/2015	22:01:43.500	$GPGGA,220144,2542.9042,N,08010.5138,W,1,7,1.9,18,M,,M,,*5F
06/23/2015	22:01:44.510	$GPGGA,220145,2542.9031,N,08010.5159,W,1,7,1.9,18,M,,M,,*5D
06/23/2015	22:01:45.510	$GPGGA,220146,2542.9018,N,08010.5174,W,1,7,1.6,18,M,,M,,*55
06/23/2015	22:01:46.520	$GPGGA,220147,2542.9007,N,08010.5193,W,1,7,1.9,18,M,,M,,*5C
06/23/2015	22:01:47.620	$GPGGA,220148,2542.8994,N,08010.5213,W,1,7,1.9,18,M,,M,,*5A
06/23/2015	22:01:48.590	$GPGGA,220149,2542.8983,N,08010.5231,W,1,7,1.6,18,M,,M,,*52
06/23/2015	22:01:49.581	$GPGGA,220150,2542.8969,N,08010.5249,W,1,8,1.6,18,M,,M,,*5E
06/23/2015	22:01:50.570	$GPGGA,220151,2542.8958,N,08010.5267,W,1,8,1.6,18,M,,M,,*51
06/23/2015	22:01:51.600	$GPGGA,220152,2542.8945,N,08010.5285,W,1,8,1.6,18,M,,M,,*52
06/23/2015	22:01:52.494	$GPGGA,220153,2542.8932,N,08010.5303,W,1,8,1.6,18,M,,M,,*5C
06/23/2015	22:01:53.506	$GPGGA,220154,2542.8920,N,08010.5322,W,1,8,1.6,18,M,,M,,*5B
06/23/2015	22:01:54.571	$GPGGA,220155,2542.8908,N,08010.5340,W,1,8,1.6,18,M,,M,,*54
06/23/2015	22:01:55.601	$GPGGA,220156,2542.8896,N,08010.5358,W,1,8,1.6,18,M,,M,,*58
06/23/2015	22:01:56.560	$GPGGA,220157,2542.8883,N,08010.5376,W,1,8,1.6,18,M,,M,,*51
06/23/2015	22:01:57.583	$GPGGA,220158,2542.8871,N,08010.5395,W,1,8,1.6,18,M,,M,,*5E
06/23/2015	22:01:58.570	$GPGGA,220159,2542.8860,N,08010.5415,W,1,8,1.6,18,M,,M,,*50
06/23/2015	22:01:59.600	$GPGGA,220200,2542.8860,N,08010.5415,W,1,7,1.9,18,M,,M,,*5F
06/23/2015	22:02:00.560	$GPGGA,220201,2542.8836,N,08010.5451,W,1,7,1.6,18,M,,M,,*52
06/23/2015	22:02:01.581	$GPGGA,220202,2542.8836,N,08010.5451,W,1,8,1.6,18,M,,M,,*5E
06/23/2015	22:02:02.550	$GPGGA,220203,2542.8813,N,08010.5488,W,1,8,1.6,18,M,,M,,*5C
06/23/2015	22:02:03.580	$GPGGA,220204,2542.8802,N,08010.5506,W,1,7,2.1,18,M,,M,,*57
06/23/2015	22:02:04.540	$GPGGA,220205,2542.8792,N,08010.5525,W,1,7,2.1,18,M,,M,,*51
06/23/2015	22:02:05.970	$GPGGA,220206,2542.8781,N,08010.5545,W,1,7,2.1,18,M,,M,,*56
06/23/2015	22:02:06.540	$GPGGA,220207,2542.8770,N,08010.5564,W,1,7,2.1,18,M,,M,,*5A
06/23/2015	22:02:07.570	$GPGGA,220208,2542.8757,N,08010.5582,W,1,7,2.1,18,M,,M,,*58
06/23/2015	22:02:08.540	$GPGGA,220209,2542.8746,N,08010.5601,W,1,7,2.1,18,M,,M,,*51
06/23/2015	22:02:09.560	$GPGGA,220210,2542.8735,N,08010.5621,W,1,7,2.1,18,M,,M,,*5F
06/23/2015	22:02:10.541	$GPGGA,220211,2542.8723,N,08010.5641,W,1,7,2.1,18,M,,M,,*5F
06/23/2015	22:02:11.560	$GPGGA,220212,2542.8712,N,08010.5661,W,1,8,1.6,18,M,,M,,*57
06/23/2015	22:02:12.520	$GPGGA,220213,2542.8699,N,08010.5681,W,1,8,1.6,17,M,,M,,*55
06/23/2015	22:02:13.539	$GPGGA,220214,2542.8688,N,08010.5699,W,1,8,1.6,17,M,,M,,*5B
06/23/2015	22:02:14.519	$GPGGA,220215,2542.8676,N,08010.5719,W,1,8,1.6,17,M,,M,,*52
06/23/2015	22:02:15.550	$GPGGA,220216,2542.8665,N,08010.5737,W,1,8,1.6,17,M,,M,,*5F
06/23/2015	22:02:16.519	$GPGGA,220217,2542.8653,N,08010.5756,W,1,8,1.6,17,M,,M,,*5C
06/23/2015	22:02:17.499	$GPGGA,220218,2542.8642,N,08010.5775,W,1,8,1.6,17,M,,M,,*52
06/23/2015	22:02:18.519	$GPGGA,220219,2542.8631,N,08010.5795,W,1,8,2.1,17,M,,M,,*5D
06/23/2015	22:02:19.529	$GPGGA,220220,2542.8620,N,08010.5813,W,1,7,2.1,17,M,,M,,*59
06/23/2015	22:02:20.509	$GPGGA,220221,2542.8609,N,08010.5832,W,1,7,2.1,17,M,,M,,*50
06/23/2015	22:02:21.490	$GPGGA,220222,2542.8598,N,08010.5853,W,1,7,2.1,17,M,,M,,*5F
06/23/2015	22:02:22.489	$GPGGA,220223,2542.8587,N,08010.5874,W,1,7,1.6,17,M,,M,,*51
06/23/2015	22:02:23.499	$GPGGA,220224,2542.8575,N,08010.5894,W,1,8,1.6,17,M,,M,,*5A
06/23/2015	22:02:24.509	$GPGGA,220225,2542.8564,N,08010.5914,W,1,8,1.6,17,M,,M,,*52
06/23/2015	22:02:25.499	$GPGGA,220226,2542.8553,N,08010.5934,W,1,8,1.6,17,M,,M,,*57
06/23/2015	22:02:26.482	$GPGGA,220227,2542.8542,N,08010.5954,W,1,8,1.6,17,M,,M,,*50
06/23/2015	22:02:27.499	$GPGGA,220228,2542.8532,N,08010.5975,W,1,8,1.6,17,M,,M,,*5B
06/23/2015	22:02:28.490	$GPGGA,220229,2542.8521,N,08010.5995,W,1,8,1.6,17,M,,M,,*56
06/23/2015	22:02:29.610	$GPGGA,220230,2542.8511,N,08010.6015,W,1,8,1.6,17,M,,M,,*5F
06/23/2015	22:02:30.500	$GPGGA,220231,2542.8500,N,08010.6035,W,1,8,1.6,17,M,,M,,*5C
06/23/2015	22:02:31.609	$GPGGA,220232,2542.8490,N,08010.6055,W,1,8,1.6,17,M,,M,,*51
06/23/2015	22:02:32.490	$GPGGA,220233,2542.8481,N,08010.6076,W,1,8,2.1,17,M,,M,,*55
06/23/2015	22:02:33.490	$GPGGA,220234,2542.8470,N,08010.6095,W,1,7,2.1,17,M,,M,,*5E
06/23/2015	22:02:34.559	$GPGGA,220235,2542.8460,N,08010.6116,W,1,7,2.1,17,M,,M,,*54
06/23/2015	22:02:35.499	$GPGGA,220236,2542.8452,N,08010.6135,W,1,7,2.1,17,M,,M,,*57
06/23/2015	22:02:36.459	$GPGGA,220237,2542.8441,N,08010.6156,W,1,7,2.1,17,M,,M,,*51
06/23/2015	22:02:37.469	$GPGGA,220238,2542.8430,N,08010.6176,W,1,8,1.6,17,M,,M,,*51
06/23/2015	22:02:38.569	$GPGGA,220239,2542.8420,N,08010.6196,W,1,8,1.6,17,M,,M,,*5F
06/23/2015	22:02:39.599	$GPGGA,220240,2542.8410,N,08010.6215,W,1,8,1.6,17,M,,M,,*5A
06/23/2015	22:02:40.559	$GPGGA,220241,2542.8399,N,08010.6236,W,1,8,1.6,17,M,,M,,*5C
06/23/2015	22:02:41.579	$GPGGA,220242,2542.8389,N,08010.6254,W,1,8,1.6,17,M,,M,,*5A
06/23/2015	22:02:42.559	$GPGGA,220243,2542.8378,N,08010.6275,W,1,8,1.6,17,M,,M,,*56
06/23/2015	22:02:43.559	$GPGGA,220244,2542.8369,N,08010.6294,W,1,8,1.6,17,M,,M,,*5E
06/23/2015	22:02:44.559	$GPGGA,220245,2542.8358,N,08010.6315,W,1,8,1.6,17,M,,M,,*55
06/23/2015	22:02:45.572	$GPGGA,220246,2542.8347,N,08010.6334,W,1,8,1.6,16,M,,M,,*5A
06/23/2015	22:02:46.550	$GPGGA,220247,2542.8336,N,08010.6353,W,1,8,1.6,16,M,,M,,*5C
06/23/2015	22:02:47.590	$GPGGA,220248,2542.8326,N,08010.6373,W,1,8,1.6,16,M,,M,,*50
06/23/2015	22:02:48.549	$GPGGA,220249,2542.8315,N,08010.6394,W,1,8,1.6,16,M,,M,,*58
06/23/2015	22:02:49.529	$GPGGA,220250,2542.8304,N,08010.6413,W,1,8,1.6,16,M,,M,,*58
06/23/2015	22:02:50.549	$GPGGA,220251,2542.8293,N,08010.6434,W,1,8,1.6,16,M,,M,,*53
06/23/2015	22:02:51.582	$GPGGA,220252,2542.8280,N,08010.6453,W,1,8,1.6,16,M,,M,,*53
06/23/2015	22:02:52.539	$GPGGA,220253,2542.8269,N,08010.6472,W,1,8,1.6,16,M,,M,,*56
06/23/2015	22:02:53.559	$GPGGA,220254,2542.8258,N,08010.6493,W,1,8,1.6,16,M,,M,,*5C
06/23/2015	22:02:54.519	$GPGGA,220255,2542.8247,N,08010.6512,W,1,8,1.6,16,M,,M,,*5B
06/23/2015	22:02:55.572	$GPGGA,220256,2542.8236,N,08010.6532,W,1,8,1.6,16,M,,M,,*5C
06/23/2015	22:02:56.529	$GPGGA,220257,2542.8225,N,08010.6553,W,1,8,1.6,16,M,,M,,*58
06/23/2015	22:02:57.549	$GPGGA,220258,2542.8214,N,08010.6572,W,1,8,1.6,15,M,,M,,*55
06/23/2015	22:02:58.519	$GPGGA,220259,2542.8203,N,08010.6591,W,1,8,1.6,15,M,,M,,*5F
06/23/2015	22:02:59.591	$GPGGA,220300,2542.8192,N,08010.6611,W,1,8,1.6,15,M,,M,,*52
06/23/2015	22:03:00.519	$GPGGA,220301,2542.8181,N,08010.6631,W,1,8,1.6,15,M,,M,,*53
06/23/2015	22:03:01.529	$GPGGA,220302,2542.8171,N,08010.6651,W,1,8,1.6,15,M,,M,,*59
06/23/2015	22:03:02.509	$GPGGA,220303,2542.8160,N,08010.6671,W,1,8,1.6,15,M,,M,,*5A
06/23/2015	22:03:03.530	$GPGGA,220304,2542.8149,N,08010.6691,W,1,8,1.6,15,M,,M,,*58
06/23/2015	22:03:04.520	$GPGGA,220305,2542.8138,N,08010.6712,W,1,8,1.6,15,M,,M,,*55
06/23/2015	22:03:05.530	$GPGGA,220306,2542.8128,N,08010.6731,W,1,8,1.6,15,M,,M,,*56
06/23/2015	22:03:06.939	$GPGGA,220307,2542.8117,N,08010.6752,W,1,8,1.6,15,M,,M,,*5E
06/23/2015	22:03:07.539	$GPGGA,220308,2542.8107,N,08010.6771,W,1,8,1.6,15,M,,M,,*51
06/23/2015	22:03:08.509	$GPGGA,220309,2542.8096,N,08010.6792,W,1,8,1.6,15,M,,M,,*54
06/23/2015	22:03:09.529	$GPGGA,220310,2542.8085,N,08010.6811,W,1,8,1.6,15,M,,M,,*5A
06/23/2015	22:03:10.499	$GPGGA,220311,2542.8074,N,08010.6832,W,1,8,1.6,15,M,,M,,*54
06/23/2015	22:03:11.619	$GPGGA,220312,2542.8064,N,08010.6851,W,1,8,1.6,14,M,,M,,*52
06/23/2015	22:03:12.509	$GPGGA,220313,2542.8053,N,08010.6872,W,1,8,1.6,14,M,,M,,*56
06/23/2015	22:03:14.051	$GPGGA,220314,2542.8042,N,08010.6893,W,1,8,1.6,14,M,,M,,*5E
06/23/2015	22:03:14.499	$GPGGA,220315,2542.8033,N,08010.6913,W,1,8,1.6,14,M,,M,,*50
06/23/2015	22:03:15.519	$GPGGA,220316,2542.8022,N,08010.6933,W,1,8,1.6,14,M,,M,,*51
06/23/2015	22:03:16.479	$GPGGA,220317,2542.8011,N,08010.6954,W,1,8,1.6,14,M,,M,,*51
06/23/2015	22:03:17.499	$GPGGA,220318,2542.8001,N,08010.6973,W,1,8,1.6,14,M,,M,,*5A
06/23/2015	22:03:18.479	$GPGGA,220319,2542.7991,N,08010.6994,W,1,8,1.6,14,M,,M,,*5D
06/23/2015	22:03:19.489	$GPGGA,220320,2542.7981,N,08010.7013,W,1,8,1.6,14,M,,M,,*51
06/23/2015	22:03:20.571	$GPGGA,220321,2542.7971,N,08010.7034,W,1,8,1.6,14,M,,M,,*5A
06/23/2015	22:03:21.490	$GPGGA,220322,2542.7962,N,08010.7055,W,1,7,1.9,14,M,,M,,*5C
06/23/2015	22:03:22.484	$GPGGA,220323,2542.7953,N,08010.7074,W,1,7,2.7,14,M,,M,,*51
06/23/2015	22:03:23.589	$GPGGA,220324,2542.7945,N,08010.7095,W,1,7,2.1,14,M,,M,,*58
06/23/2015	22:03:24.479	$GPGGA,220325,2542.7934,N,08010.7114,W,1,7,2.1,14,M,,M,,*57
06/23/2015	22:03:25.559	$GPGGA,220326,2542.7924,N,08010.7135,W,1,7,2.1,14,M,,M,,*56
06/23/2015	22:03:26.579	$GPGGA,220327,2542.7914,N,08010.7155,W,1,7,2.1,14,M,,M,,*52
06/23/2015	22:03:27.570	$GPGGA,220328,2542.7905,N,08010.7175,W,1,7,2.1,13,M,,M,,*58
06/23/2015	22:03:28.559	$GPGGA,220329,2542.7896,N,08010.7196,W,1,7,1.6,13,M,,M,,*5B
06/23/2015	22:03:29.559	$GPGGA,220330,2542.7885,N,08010.7216,W,1,8,1.6,13,M,,M,,*55
06/23/2015	22:03:30.569	$GPGGA,220331,2542.7875,N,08010.7237,W,1,8,1.9,13,M,,M,,*57
06/23/2015	22:03:31.559	$GPGGA,220332,2542.7864,N,08010.7258,W,1,8,1.6,13,M,,M,,*52
06/23/2015	22:03:32.549	$GPGGA,220333,2542.7854,N,08010.7279,W,1,8,1.6,13,M,,M,,*53
06/23/2015	22:03:33.579	$GPGGA,220334,2542.7845,N,08010.7299,W,1,7,1.9,13,M,,M,,*5A
06/23/2015	22:03:34.539	$GPGGA,220335,2542.7834,N,08010.7320,W,1,7,1.9,13,M,,M,,*5E
06/23/2015	22:03:35.579	$GPGGA,220336,2542.7825,N,08010.7341,W,1,7,1.9,13,M,,M,,*5A
06/23/2015	22:03:36.549	$GPGGA,220337,2542.7816,N,08010.7361,W,1,7,2.7,13,M,,M,,*54
06/23/2015	22:03:37.559	$GPGGA,220338,2542.7807,N,08010.7381,W,1,6,2.7,13,M,,M,,*54
06/23/2015	22:03:38.540	$GPGGA,220339,2542.7798,N,08010.7402,W,1,6,2.7,13,M,,M,,*50
06/23/2015	22:03:39.572	$GPGGA,220340,2542.7789,N,08010.7422,W,1,6,2.7,13,M,,M,,*5C
06/23/2015	22:03:40.540	$GPGGA,220341,2542.7780,N,08010.7443,W,1,6,2.7,13,M,,M,,*53
06/23/2015	22:03:41.529	$GPGGA,220342,2542.7770,N,08010.7464,W,1,6,2.7,13,M,,M,,*5A
06/23/2015	22:03:42.539	$GPGGA,220343,2542.7760,N,08010.7483,W,1,6,2.1,13,M,,M,,*55
06/23/2015	22:03:43.890	$GPGGA,220344,2542.7748,N,08010.7504,W,1,7,2.1,13,M,,M,,*57
06/23/2015	22:03:44.519	$GPGGA,220345,2542.7738,N,08010.7523,W,1,7,2.1,13,M,,M,,*54
06/23/2015	22:03:45.549	$GPGGA,220346,2542.7727,N,08010.7543,W,1,7,2.1,13,M,,M,,*5F
06/23/2015	22:03:46.519	$GPGGA,220347,2542.7717,N,08010.7563,W,1,7,2.1,13,M,,M,,*5F
06/23/2015	22:03:47.559	$GPGGA,220348,2542.7708,N,08010.7583,W,1,7,2.1,13,M,,M,,*50
06/23/2015	22:03:48.529	$GPGGA,220349,2542.7697,N,08010.7603,W,1,7,2.1,13,M,,M,,*5D
06/23/2015	22:03:49.509	$GPGGA,220350,2542.7687,N,08010.7624,W,1,7,2.1,13,M,,M,,*51
06/23/2015	22:03:50.519	$GPGGA,220351,2542.7679,N,08010.7645,W,1,7,2.1,14,M,,M,,*51
06/23/2015	22:03:51.549	$GPGGA,220352,2542.7668,N,08010.7664,W,1,7,2.1,14,M,,M,,*51
06/23/2015	22:03:52.509	$GPGGA,220353,2542.7658,N,08010.7684,W,1,7,2.1,14,M,,M,,*5D
06/23/2015	22:03:53.539	$GPGGA,220354,2542.7650,N,08010.7704,W,1,7,2.1,14,M,,M,,*5B
06/23/2015	22:03:54.509	$GPGGA,220355,2542.7640,N,08010.7725,W,1,7,2.1,14,M,,M,,*58
06/23/2015	22:03:55.540	$GPGGA,220356,2542.7630,N,08010.7746,W,1,7,2.1,14,M,,M,,*59
06/23/2015	22:03:56.520	$GPGGA,220357,2542.7621,N,08010.7765,W,1,7,2.1,14,M,,M,,*59
06/23/2015	22:03:57.500	$GPGGA,220358,2542.7612,N,08010.7786,W,1,7,2.1,14,M,,M,,*5B
06/23/2015	22:03:58.489	$GPGGA,220359,2542.7603,N,08010.7807,W,1,7,2.1,14,M,,M,,*5C
06/23/2015	22:03:59.509	$GPGGA,220400,2542.7596,N,08010.7827,W,1,7,2.1,14,M,,M,,*5A
06/23/2015	22:04:00.499	$GPGGA,220401,2542.7586,N,08010.7847,W,1,7,2.1,15,M,,M,,*5D
06/23/2015	22:04:01.529	$GPGGA,220402,2542.7578,N,08010.7868,W,1,7,2.1,15,M,,M,,*52
06/23/2015	22:04:02.509	$GPGGA,220403,2542.7568,N,08010.7888,W,1,7,2.1,15,M,,M,,*5C
06/23/2015	22:04:03.529	$GPGGA,220404,2542.7560,N,08010.7909,W,1,7,2.1,15,M,,M,,*5B
06/23/2015	22:04:04.489	$GPGGA,220405,2542.7551,N,08010.7930,W,1,7,2.1,15,M,,M,,*52
06/23/2015	22:04:05.570	$GPGGA,220406,2542.7543,N,08010.7952,W,1,7,2.1,15,M,,M,,*56
06/23/2015	22:04:06.469	$GPGGA,220407,2542.7533,N,08010.7971,W,1,7,2.0,15,M,,M,,*50
06/23/2015	22:04:07.485	$GPGGA,220408,2542.7527,N,08010.7992,W,1,7,2.1,15,M,,M,,*56
06/23/2015	22:04:08.489	$GPGGA,220409,2542.7517,N,08010.8013,W,1,7,2.1,15,M,,M,,*5B
06/23/2015	22:04:09.589	$GPGGA,220410,2542.7509,N,08010.8035,W,1,7,1.7,15,M,,M,,*5D
06/23/2015	22:04:10.481	$GPGGA,220411,2542.7500,N,08010.8057,W,1,7,1.7,15,M,,M,,*51
06/23/2015	22:04:11.485	$GPGGA,220412,2542.7492,N,08010.8078,W,1,7,1.7,15,M,,M,,*55
06/23/2015	22:04:12.480	$GPGGA,220413,2542.7484,N,08010.8100,W,1,7,1.7,15,M,,M,,*5D
06/23/2015	22:04:13.583	$GPGGA,220414,2542.7477,N,08010.8121,W,1,7,1.7,16,M,,M,,*56
06/23/2015	22:04:14.560	$GPGGA,220415,2542.7468,N,08010.8143,W,1,7,1.7,16,M,,M,,*5D
06/23/2015	22:04:15.649	$GPGGA,220416,2542.7460,N,08010.8165,W,1,7,1.7,16,M,,M,,*52
06/23/2015	22:04:16.559	$GPGGA,220417,2542.7452,N,08010.8186,W,1,7,1.7,16,M,,M,,*5F
06/23/2015	22:04:17.549	$GPGGA,220418,2542.7445,N,08010.8205,W,1,7,1.7,16,M,,M,,*5E
06/23/2015	22:04:18.629	$GPGGA,220419,2542.7437,N,08010.8227,W,1,7,1.7,16,M,,M,,*5A
06/23/2015	22:04:19.649	$GPGGA,220420,2542.7432,N,08010.8249,W,1,7,1.7,16,M,,M,,*5D
06/23/2015	22:04:20.629	$GPGGA,220421,2542.7426,N,08010.8270,W,1,7,1.6,16,M,,M,,*52
06/23/2015	22:04:21.589	$GPGGA,220422,2542.7420,N,08010.8292,W,1,8,1.6,16,M,,M,,*54
06/23/2015	22:04:22.629	$GPGGA,220423,2542.7415,N,08010.8313,W,1,8,1.6,16,M,,M,,*5B
06/23/2015	22:04:23.609	$GPGGA,220424,2542.7408,N,08010.8335,W,1,8,1.6,16,M,,M,,*54
06/23/2015	22:04:24.609	$GPGGA,220425,2542.7401,N,08010.8356,W,1,8,1.7,16,M,,M,,*58
06/23/2015	22:04:25.589	$GPGGA,220426,2542.7393,N,08010.8378,W,1,7,1.7,16,M,,M,,*54
06/23/2015	22:04:26.609	$GPGGA,220427,2542.7386,N,08010.8397,W,1,7,1.7,16,M,,M,,*50
06/23/2015	22:04:27.539	$GPGGA,220428,2542.7381,N,08010.8419,W,1,7,1.7,16,M,,M,,*59
06/23/2015	22:04:28.599	$GPGGA,220429,2542.7376,N,08010.8440,W,1,7,1.6,16,M,,M,,*5D
06/23/2015	22:04:29.570	$GPGGA,220430,2542.7372,N,08010.8462,W,1,8,1.9,17,M,,M,,*50
06/23/2015	22:04:30.600	$GPGGA,220431,2542.7366,N,08010.8484,W,1,8,1.9,17,M,,M,,*5C
06/23/2015	22:04:31.570	$GPGGA,220432,2542.7361,N,08010.8505,W,1,7,1.9,17,M,,M,,*5F
06/23/2015	22:04:32.580	$GPGGA,220433,2542.7356,N,08010.8526,W,1,7,1.6,17,M,,M,,*54
06/23/2015	22:04:33.872	$GPGGA,220434,2542.7351,N,08010.8546,W,1,8,1.6,17,M,,M,,*5D
06/23/2015	22:04:34.589	$GPGGA,220435,2542.7346,N,08010.8567,W,1,8,1.6,17,M,,M,,*59
06/23/2015	22:04:35.574	$GPGGA,220436,2542.7341,N,08010.8587,W,1,8,1.6,17,M,,M,,*53
06/23/2015	22:04:36.509	$GPGGA,220437,2542.7336,N,08010.8606,W,1,8,1.6,17,M,,M,,*58
06/23/2015	22:04:37.549	$GPGGA,220438,2542.7332,N,08010.8627,W,1,8,1.6,17,M,,M,,*50
06/23/2015	22:04:38.509	$GPGGA,220439,2542.7325,N,08010.8647,W,1,8,1.6,17,M,,M,,*51
06/23/2015	22:04:39.570	$GPGGA,220440,2542.7319,N,08010.8670,W,1,8,1.7,17,M,,M,,*55
06/23/2015	22:04:40.572	$GPGGA,220441,2542.7314,N,08010.8688,W,1,8,1.7,17,M,,M,,*5E
06/23/2015	22:04:41.549	$GPGGA,220442,2542.7307,N,08010.8710,W,1,8,1.8,17,M,,M,,*50
06/23/2015	22:04:42.560	$GPGGA,220443,2542.7300,N,08010.8732,W,1,8,1.7,17,M,,M,,*59
06/23/2015	22:04:43.589	$GPGGA,220444,2542.7294,N,08010.8754,W,1,7,1.7,17,M,,M,,*5D
06/23/2015	22:04:44.491	$GPGGA,220445,2542.7289,N,08010.8775,W,1,7,1.7,17,M,,M,,*53
06/23/2015	22:04:45.519	$GPGGA,220446,2542.7283,N,08010.8794,W,1,7,1.6,17,M,,M,,*54
06/23/2015	22:04:46.489	$GPGGA,220447,2542.7278,N,08010.8818,W,1,7,1.6,17,M,,M,,*5A
06/23/2015	22:04:47.489	$GPGGA,220448,2542.7274,N,08010.8840,W,1,7,1.7,17,M,,M,,*55
06/23/2015	22:04:48.550	$GPGGA,220449,2542.7269,N,08010.8862,W,1,7,1.7,17,M,,M,,*58
06/23/2015	22:04:49.620	$GPGGA,220450,2542.7264,N,08010.8885,W,1,7,1.7,17,M,,M,,*54
06/23/2015	22:04:50.540	$GPGGA,220451,2542.7260,N,08010.8907,W,1,7,1.7,17,M,,M,,*5A
06/23/2015	22:04:51.559	$GPGGA,220452,2542.7255,N,08010.8931,W,1,7,1.7,17,M,,M,,*5A
06/23/2015	22:04:52.549	$GPGGA,220453,2542.7250,N,08010.8952,W,1,7,1.6,17,M,,M,,*5A
06/23/2015	22:04:53.585	$GPGGA,220454,2542.7246,N,08010.8974,W,1,8,1.6,17,M,,M,,*51
06/23/2015	22:04:54.539	$GPGGA,220455,2542.7242,N,08010.8996,W,1,8,1.6,17,M,,M,,*58
06/23/2015	22:04:55.486	$GPGGA,220456,2542.7238,N,08010.9017,W,1,8,1.6,17,M,,M,,*57
06/23/2015	22:04:56.571	$GPGGA,220457,2542.7233,N,08010.9040,W,1,8,1.6,17,M,,M,,*5F
06/23/2015	22:04:57.569	$GPGGA,220458,2542.7229,N,08010.9062,W,1,8,1.6,17,M,,M,,*5B
06/23/2015	22:04:58.539	$GPGGA,220459,2542.7225,N,08010.9086,W,1,8,1.6,17,M,,M,,*5C
06/23/2015	22:04:59.599	$GPGGA,220500,2542.7221,N,08010.9108,W,1,8,1.6,17,M,,M,,*52
06/23/2015	22:05:00.589	$GPGGA,220501,2542.7217,N,08010.9130,W,1,8,1.6,17,M,,M,,*5D
06/23/2015	22:05:01.587	$GPGGA,220502,2542.7213,N,08010.9152,W,1,8,1.6,17,M,,M,,*5E
06/23/2015	22:05:02.559	$GPGGA,220503,2542.7209,N,08010.9176,W,1,8,1.6,17,M,,M,,*52
06/23/2015	22:05:03.559	$GPGGA,220504,2542.7206,N,08010.9198,W,1,8,1.6,17,M,,M,,*5A
06/23/2015	22:05:04.549	$GPGGA,220505,2542.7202,N,08010.9220,W,1,8,1.6,17,M,,M,,*5F
06/23/2015	22:05:05.571	$GPGGA,220506,2542.7198,N,08010.9243,W,1,8,1.6,17,M,,M,,*59
06/23/2015	22:05:06.570	$GPGGA,220507,2542.7195,N,08010.9267,W,1,8,1.6,16,M,,M,,*52
06/23/2015	22:05:07.590	$GPGGA,220508,2542.7191,N,08010.9289,W,1,8,1.6,16,M,,M,,*59
06/23/2015	22:05:08.559	$GPGGA,220509,2542.7188,N,08010.9313,W,1,8,1.6,16,M,,M,,*52
06/23/2015	22:05:09.559	$GPGGA,220510,2542.7186,N,08010.9336,W,1,8,1.6,16,M,,M,,*53
06/23/2015	22:05:10.549	$GPGGA,220511,2542.7184,N,08010.9360,W,1,8,1.6,16,M,,M,,*53
06/23/2015	22:05:11.569	$GPGGA,220512,2542.7180,N,08010.9382,W,1,8,1.6,16,M,,M,,*58
06/23/2015	22:05:12.581	$GPGGA,220513,2542.7178,N,08010.9404,W,1,8,1.6,16,M,,M,,*57
06/23/2015	22:05:13.559	$GPGGA,220514,2542.7177,N,08010.9427,W,1,8,1.6,16,M,,M,,*5E
06/23/2015	22:05:14.559	$GPGGA,220515,2542.7175,N,08010.9449,W,1,8,1.6,16,M,,M,,*55
06/23/2015	22:05:15.583	$GPGGA,220516,2542.7174,N,08010.9472,W,1,8,1.6,16,M,,M,,*5F
06/23/2015	22:05:16.549	$GPGGA,220517,2542.7173,N,08010.9494,W,1,8,1.6,16,M,,M,,*51
06/23/2015	22:05:17.549	$GPGGA,220518,2542.7173,N,08010.9516,W,1,8,1.6,16,M,,M,,*55
06/23/2015	22:05:18.539	$GPGGA,220519,2542.7175,N,08010.9538,W,1,8,1.6,16,M,,M,,*5E
06/23/2015	22:05:19.559	$GPGGA,220520,2542.7176,N,08010.9559,W,1,8,1.7,16,M,,M,,*51
06/23/2015	22:05:20.559	$GPGGA,220521,2542.7176,N,08010.9559,W,1,8,1.7,16,M,,M,,*50
06/23/2015	22:05:21.549	$GPGGA,220522,2542.7182,N,08010.9602,W,1,8,1.6,16,M,,M,,*54
06/23/2015	22:05:22.519	$GPGGA,220523,2542.7182,N,08010.9602,W,1,8,1.6,16,M,,M,,*55
06/23/2015	22:05:23.560	$GPGGA,220524,2542.7190,N,08010.9644,W,1,8,1.6,16,M,,M,,*53
06/23/2015	22:05:24.570	$GPGGA,220525,2542.7194,N,08010.9665,W,1,8,1.6,16,M,,M,,*55
06/23/2015	22:05:25.539	$GPGGA,220526,2542.7198,N,08010.9686,W,1,8,1.6,16,M,,M,,*57
06/23/2015	22:05:26.539	$GPGGA,220527,2542.7205,N,08010.9705,W,1,8,1.6,16,M,,M,,*5B
06/23/2015	22:05:27.529	$GPGGA,220528,2542.7211,N,08010.9725,W,1,8,1.6,16,M,,M,,*53
06/23/2015	22:05:28.530	$GPGGA,220529,2542.7211,N,08010.9725,W,1,8,1.6,16,M,,M,,*52
06/23/2015	22:05:29.509	$GPGGA,220530,2542.7226,N,08010.9765,W,1,8,1.6,16,M,,M,,*5A
06/23/2015	22:05:30.549	$GPGGA,220531,2542.7234,N,08010.9783,W,1,8,1.6,15,M,,M,,*53
06/23/2015	22:05:31.529	$GPGGA,220532,2542.7242,N,08010.9802,W,1,8,1.6,15,M,,M,,*57
06/23/2015	22:05:32.509	$GPGGA,220533,2542.7242,N,08010.9802,W,1,8,1.6,15,M,,M,,*56
06/23/2015	22:05:33.629	$GPGGA,220534,2542.7260,N,08010.9837,W,1,7,1.9,15,M,,M,,*57
06/23/2015	22:05:34.559	$GPGGA,220535,2542.7260,N,08010.9837,W,1,7,1.6,15,M,,M,,*59
06/23/2015	22:05:35.549	$GPGGA,220536,2542.7281,N,08010.9871,W,1,8,1.6,15,M,,M,,*58
06/23/2015	22:05:36.539	$GPGGA,220537,2542.7292,N,08010.9889,W,1,8,1.9,15,M,,M,,*53
06/23/2015	22:05:37.609	$GPGGA,220538,2542.7303,N,08010.9906,W,1,7,1.9,15,M,,M,,*5C
06/23/2015	22:05:38.509	$GPGGA,220539,2542.7303,N,08010.9906,W,1,7,1.9,15,M,,M,,*5D
06/23/2015	22:05:39.609	$GPGGA,220540,2542.7328,N,08010.9939,W,1,7,1.9,15,M,,M,,*56
06/23/2015	22:05:40.500	$GPGGA,220541,2542.7328,N,08010.9939,W,1,7,1.9,15,M,,M,,*57
06/23/2015	22:05:41.500	$GPGGA,220542,2542.7354,N,08010.9967,W,1,8,1.6,15,M,,M,,*54
06/23/2015	22:05:42.490	$GPGGA,220543,2542.7354,N,08010.9967,W,1,8,1.7,15,M,,M,,*54
06/23/2015	22:05:43.599	$GPGGA,220544,2542.7383,N,08010.9996,W,1,8,1.6,15,M,,M,,*56
06/23/2015	22:05:44.489	$GPGGA,220545,2542.7383,N,08010.9996,W,1,8,1.9,15,M,,M,,*58
06/23/2015	22:05:45.489	$GPGGA,220546,2542.7417,N,08011.0025,W,1,7,1.7,15,M,,M,,*59
06/23/2015	22:05:46.573	$GPGGA,220547,2542.7432,N,08011.0040,W,1,7,2.6,15,M,,M,,*5E
06/23/2015	22:05:47.580	$GPGGA,220548,2542.7450,N,08011.0051,W,1,8,1.6,15,M,,M,,*59
06/23/2015	22:05:48.519	$GPGGA,220549,2542.7450,N,08011.0051,W,1,8,1.9,15,M,,M,,*57
06/23/2015	22:05:49.589	$GPGGA,220550,2542.7486,N,08011.0076,W,1,7,1.9,15,M,,M,,*5E
06/23/2015	22:05:50.570	$GPGGA,220551,2542.7504,N,08011.0087,W,1,7,1.6,15,M,,M,,*55
06/23/2015	22:05:51.589	$GPGGA,220552,2542.7523,N,08011.0098,W,1,8,1.6,15,M,,M,,*52
06/23/2015	22:05:52.549	$GPGGA,220553,2542.7544,N,08011.0109,W,1,8,2.0,15,M,,M,,*5E
06/23/2015	22:05:53.569	$GPGGA,220554,2542.7565,N,08011.0121,W,1,7,1.9,15,M,,M,,*55
06/23/2015	22:05:54.539	$GPGGA,220555,2542.7584,N,08011.0133,W,1,7,1.9,15,M,,M,,*58
06/23/2015	22:05:55.579	$GPGGA,220556,2542.7603,N,08011.0144,W,1,7,1.7,15,M,,M,,*59
06/23/2015	22:05:56.609	$GPGGA,220557,2542.7625,N,08011.0155,W,1,7,2.0,15,M,,M,,*58
06/23/2015	22:05:57.559	$GPGGA,220558,2542.7646,N,08011.0166,W,1,8,1.6,15,M,,M,,*58
06/23/2015	22:05:58.550	$GPGGA,220559,2542.7667,N,08011.0175,W,1,8,1.6,15,M,,M,,*58
06/23/2015	22:05:59.590	$GPGGA,220600,2542.7688,N,08011.0185,W,1,7,1.7,15,M,,M,,*57
06/23/2015	22:06:00.539	$GPGGA,220601,2542.7708,N,08011.0195,W,1,7,1.6,15,M,,M,,*5F
06/23/2015	22:06:01.550	$GPGGA,220602,2542.7728,N,08011.0203,W,1,8,1.6,15,M,,M,,*5D
06/23/2015	22:06:02.539	$GPGGA,220603,2542.7750,N,08011.0213,W,1,8,1.9,15,M,,M,,*5D
06/23/2015	22:06:03.559	$GPGGA,220604,2542.7771,N,08011.0220,W,1,7,1.9,15,M,,M,,*56
06/23/2015	22:06:04.529	$GPGGA,220605,2542.7791,N,08011.0228,W,1,7,1.6,15,M,,M,,*5E
06/23/2015	22:06:05.519	$GPGGA,220606,2542.7813,N,08011.0236,W,1,8,1.6,15,M,,M,,*58
06/23/2015	22:06:06.519	$GPGGA,220607,2542.7834,N,08011.0245,W,1,8,1.6,15,M,,M,,*58
06/23/2015	22:06:07.559	$GPGGA,220608,2542.7856,N,08011.0251,W,1,7,1.9,15,M,,M,,*56
06/23/2015	22:06:08.519	$GPGGA,220609,2542.7878,N,08011.0260,W,1,7,1.9,15,M,,M,,*59
06/23/2015	22:06:09.549	$GPGGA,220610,2542.7901,N,08011.0267,W,1,8,1.6,15,M,,M,,*59
06/23/2015	22:06:10.509	$GPGGA,220611,2542.7921,N,08011.0271,W,1,8,1.6,15,M,,M,,*5D
06/23/2015	22:06:11.529	$GPGGA,220612,2542.7943,N,08011.0276,W,1,8,1.6,15,M,,M,,*5D
06/23/2015	22:06:12.509	$GPGGA,220613,2542.7964,N,08011.0282,W,1,8,1.6,15,M,,M,,*52
06/23/2015	22:06:13.549	$GPGGA,220614,2542.7986,N,08011.0286,W,1,8,1.6,15,M,,M,,*5D
06/23/2015	22:06:14.499	$GPGGA,220615,2542.8008,N,08011.0290,W,1,8,1.6,15,M,,M,,*5B
06/23/2015	22:06:15.530	$GPGGA,220616,2542.8029,N,08011.0294,W,1,8,1.6,15,M,,M,,*5F
06/23/2015	22:06:16.500	$GPGGA,220617,2542.8051,N,08011.0300,W,1,8,1.6,15,M,,M,,*5D
06/23/2015	22:06:17.500	$GPGGA,220618,2542.8075,N,08011.0303,W,1,8,1.6,15,M,,M,,*57
06/23/2015	22:06:18.509	$GPGGA,220619,2542.8098,N,08011.0307,W,1,8,2.0,15,M,,M,,*54
06/23/2015	22:06:19.609	$GPGGA,220620,2542.8120,N,08011.0308,W,1,8,1.6,15,M,,M,,*56
06/23/2015	22:06:20.499	$GPGGA,220621,2542.8143,N,08011.0311,W,1,8,1.6,15,M,,M,,*5A
06/23/2015	22:06:21.499	$GPGGA,220622,2542.8167,N,08011.0314,W,1,8,1.6,15,M,,M,,*5A
06/23/2015	22:06:22.509	$GPGGA,220623,2542.8190,N,08011.0316,W,1,8,2.1,14,M,,M,,*54
06/23/2015	22:06:23.509	$GPGGA,220624,2542.8213,N,08011.0319,W,1,8,1.6,14,M,,M,,*50
06/23/2015	22:06:24.479	$GPGGA,220625,2542.8237,N,08011.0322,W,1,8,1.6,15,M,,M,,*5E
06/23/2015	22:06:25.499	$GPGGA,220626,2542.8260,N,08011.0322,W,1,8,1.6,15,M,,M,,*5F
06/23/2015	22:06:26.579	$GPGGA,220627,2542.8285,N,08011.0325,W,1,8,1.6,15,M,,M,,*52
06/23/2015	22:06:27.482	$GPGGA,220628,2542.8308,N,08011.0326,W,1,8,1.6,15,M,,M,,*5A
06/23/2015	22:06:28.480	$GPGGA,220629,2542.8332,N,08011.0327,W,1,8,1.6,15,M,,M,,*53
06/23/2015	22:06:29.569	$GPGGA,220630,2542.8354,N,08011.0330,W,1,8,1.6,15,M,,M,,*5D
06/23/2015	22:06:30.569	$GPGGA,220631,2542.8378,N,08011.0332,W,1,8,1.6,15,M,,M,,*50
06/23/2015	22:06:31.589	$GPGGA,220632,2542.8401,N,08011.0334,W,1,8,1.6,15,M,,M,,*5C
06/23/2015	22:06:32.489	$GPGGA,220633,2542.8423,N,08011.0336,W,1,8,1.6,15,M,,M,,*5F
06/23/2015	22:06:33.590	$GPGGA,220634,2542.8447,N,08011.0339,W,1,8,1.6,15,M,,M,,*55
06/23/2015	22:06:34.970	$GPGGA,220635,2542.8470,N,08011.0340,W,1,8,1.6,15,M,,M,,*5E
06/23/2015	22:06:35.579	$GPGGA,220636,2542.8492,N,08011.0341,W,1,8,1.6,15,M,,M,,*50
06/23/2015	22:06:36.559	$GPGGA,220637,2542.8514,N,08011.0343,W,1,8,1.6,15,M,,M,,*5C
06/23/2015	22:06:37.589	$GPGGA,220638,2542.8537,N,08011.0345,W,1,8,1.6,15,M,,M,,*54
06/23/2015	22:06:38.559	$GPGGA,220639,2542.8560,N,08011.0347,W,1,8,1.6,15,M,,M,,*55
06/23/2015	22:06:39.569	$GPGGA,220640,2542.8582,N,08011.0347,W,1,8,1.6,15,M,,M,,*57
06/23/2015	22:06:40.559	$GPGGA,220641,2542.8604,N,08011.0350,W,1,8,1.6,15,M,,M,,*5D
06/23/2015	22:06:41.572	$GPGGA,220642,2542.8626,N,08011.0349,W,1,8,1.6,15,M,,M,,*56
06/23/2015	22:06:42.559	$GPGGA,220643,2542.8650,N,08011.0350,W,1,8,1.6,15,M,,M,,*5E
06/23/2015	22:06:43.549	$GPGGA,220644,2542.8672,N,08011.0352,W,1,8,1.6,15,M,,M,,*5B
06/23/2015	22:06:44.549	$GPGGA,220645,2542.8694,N,08011.0354,W,1,8,1.6,15,M,,M,,*54
06/23/2015	22:06:45.559	$GPGGA,220646,2542.8718,N,08011.0353,W,1,8,1.6,15,M,,M,,*55
06/23/2015	22:06:46.529	$GPGGA,220647,2542.8741,N,08011.0354,W,1,8,1.6,15,M,,M,,*5F
06/23/2015	22:06:47.572	$GPGGA,220648,2542.8763,N,08011.0357,W,1,8,1.6,15,M,,M,,*53
06/23/2015	22:06:48.539	$GPGGA,220649,2542.8787,N,08011.0358,W,1,8,1.6,15,M,,M,,*57
06/23/2015	22:06:49.549	$GPGGA,220650,2542.8809,N,08011.0358,W,1,8,1.6,15,M,,M,,*56
06/23/2015	22:06:50.540	$GPGGA,220651,2542.8833,N,08011.0361,W,1,8,1.6,15,M,,M,,*54
06/23/2015	22:06:51.575	$GPGGA,220652,2542.8855,N,08011.0361,W,1,8,1.6,15,M,,M,,*57
06/23/2015	22:06:52.530	$GPGGA,220653,2542.8878,N,08011.0362,W,1,8,1.6,15,M,,M,,*5A
06/23/2015	22:06:53.519	$GPGGA,220654,2542.8900,N,08011.0365,W,1,8,1.6,15,M,,M,,*54
06/23/2015	22:06:54.539	$GPGGA,220655,2542.8924,N,08011.0366,W,1,8,1.6,15,M,,M,,*50
06/23/2015	22:06:55.539	$GPGGA,220656,2542.8946,N,08011.0368,W,1,8,1.6,15,M,,M,,*59
06/23/2015	22:06:56.509	$GPGGA,220657,2542.8969,N,08011.0370,W,1,8,1.6,15,M,,M,,*5C
06/23/2015	22:06:57.539	$GPGGA,220658,2542.8990,N,08011.0372,W,1,8,1.6,15,M,,M,,*57
06/23/2015	22:06:58.519	$GPGGA,220659,2542.9012,N,08011.0373,W,1,8,1.6,15,M,,M,,*55
06/23/2015	22:06:59.539	$GPGGA,220700,2542.9036,N,08011.0376,W,1,8,1.6,15,M,,M,,*5B
06/23/2015	22:07:00.509	$GPGGA,220701,2542.9058,N,08011.0379,W,1,8,1.6,15,M,,M,,*5D
06/23/2015	22:07:01.539	$GPGGA,220702,2542.9081,N,08011.0381,W,1,8,1.6,15,M,,M,,*5D
06/23/2015	22:07:02.499	$GPGGA,220703,2542.9102,N,08011.0383,W,1,8,1.6,15,M,,M,,*54
06/23/2015	22:07:03.519	$GPGGA,220704,2542.9126,N,08011.0386,W,1,8,1.6,15,M,,M,,*50
06/23/2015	22:07:04.489	$GPGGA,220705,2542.9148,N,08011.0387,W,1,8,1.6,15,M,,M,,*58
06/23/2015	22:07:05.509	$GPGGA,220706,2542.9170,N,08011.0390,W,1,8,1.6,15,M,,M,,*56
06/23/2015	22:07:06.509	$GPGGA,220707,2542.9193,N,08011.0391,W,1,8,1.6,15,M,,M,,*5B
06/23/2015	22:07:07.499	$GPGGA,220708,2542.9214,N,08011.0394,W,1,8,1.6,15,M,,M,,*5D
06/23/2015	22:07:08.489	$GPGGA,220709,2542.9238,N,08011.0395,W,1,8,1.6,15,M,,M,,*53
06/23/2015	22:07:09.620	$GPGGA,220710,2542.9261,N,08011.0397,W,1,8,1.6,15,M,,M,,*55
06/23/2015	22:07:10.499	$GPGGA,220711,2542.9283,N,08011.0399,W,1,8,1.6,15,M,,M,,*56
06/23/2015	22:07:11.491	$GPGGA,220712,2542.9305,N,08011.0401,W,1,8,1.6,15,M,,M,,*5C
06/23/2015	22:07:12.605	$GPGGA,220713,2542.9328,N,08011.0404,W,1,8,1.6,15,M,,M,,*57
06/23/2015	22:07:13.484	$GPGGA,220714,2542.9351,N,08011.0405,W,1,8,1.6,15,M,,M,,*5F
06/23/2015	22:07:14.482	$GPGGA,220715,2542.9373,N,08011.0408,W,1,8,1.6,15,M,,M,,*53
06/23/2015	22:07:15.589	$GPGGA,220716,2542.9395,N,08011.0409,W,1,8,1.6,15,M,,M,,*59
06/23/2015	22:07:16.486	$GPGGA,220717,2542.9417,N,08011.0412,W,1,8,1.6,15,M,,M,,*5F
06/23/2015	22:07:17.609	$GPGGA,220718,2542.9441,N,08011.0413,W,1,8,1.6,15,M,,M,,*52
06/23/2015	22:07:18.572	$GPGGA,220719,2542.9464,N,08011.0415,W,1,8,1.6,15,M,,M,,*52
06/23/2015	22:07:20.059	$GPGGA,220720,2542.9485,N,08011.0416,W,1,8,1.6,15,M,,M,,*54
06/23/2015	22:07:20.569	$GPGGA,220721,2542.9509,N,08011.0419,W,1,8,1.6,15,M,,M,,*5F
06/23/2015	22:07:21.589	$GPGGA,220722,2542.9532,N,08011.0420,W,1,8,1.6,15,M,,M,,*5E
06/23/2015	22:07:22.559	$GPGGA,220723,2542.9554,N,08011.0421,W,1,8,1.6,15,M,,M,,*5E
06/23/2015	22:07:23.586	$GPGGA,220724,2542.9576,N,08011.0423,W,1,8,1.6,15,M,,M,,*5B
06/23/2015	22:07:24.559	$GPGGA,220725,2542.9599,N,08011.0424,W,1,8,1.6,15,M,,M,,*5C
06/23/2015	22:07:25.550	$GPGGA,220726,2542.9622,N,08011.0426,W,1,8,1.6,15,M,,M,,*5E
06/23/2015	22:07:26.560	$GPGGA,220727,2542.9644,N,08011.0427,W,1,8,1.6,15,M,,M,,*5E
06/23/2015	22:07:27.587	$GPGGA,220728,2542.9666,N,08011.0430,W,1,8,1.6,15,M,,M,,*57
06/23/2015	22:07:28.549	$GPGGA,220729,2542.9688,N,08011.0430,W,1,8,1.6,15,M,,M,,*56
06/23/2015	22:07:29.559	$GPGGA,220730,2542.9712,N,08011.0433,W,1,8,1.6,15,M,,M,,*5F
06/23/2015	22:07:30.559	$GPGGA,220731,2542.9734,N,08011.0434,W,1,8,1.6,15,M,,M,,*5D
06/23/2015	22:07:31.573	$GPGGA,220732,2542.9756,N,08011.0434,W,1,8,1.6,15,M,,M,,*5A
06/23/2015	22:07:32.549	$GPGGA,220733,2542.9778,N,08011.0437,W,1,8,1.6,15,M,,M,,*54
06/23/2015	22:07:33.559	$GPGGA,220734,2542.9802,N,08011.0437,W,1,8,1.6,15,M,,M,,*51
06/23/2015	22:07:34.549	$GPGGA,220735,2542.9824,N,08011.0438,W,1,8,1.6,14,M,,M,,*5A
06/23/2015	22:07:35.539	$GPGGA,220736,2542.9846,N,08011.0439,W,1,8,1.6,14,M,,M,,*5C
06/23/2015	22:07:36.539	$GPGGA,220737,2542.9868,N,08011.0441,W,1,8,1.6,14,M,,M,,*5E
06/23/2015	22:07:37.559	$GPGGA,220738,2542.9892,N,08011.0441,W,1,8,1.6,14,M,,M,,*54
06/23/2015	22:07:38.529	$GPGGA,220739,2542.9915,N,08011.0442,W,1,8,1.6,14,M,,M,,*58
06/23/2015	22:07:39.559	$GPGGA,220740,2542.9937,N,08011.0444,W,1,8,1.6,14,M,,M,,*50
06/23/2015	22:07:40.519	$GPGGA,220741,2542.9959,N,08011.0444,W,1,8,1.6,14,M,,M,,*59
06/23/2015	22:07:41.539	$GPGGA,220742,2542.9983,N,08011.0445,W,1,8,1.6,14,M,,M,,*5C
06/23/2015	22:07:42.539	$GPGGA,220743,2543.0005,N,08011.0445,W,1,8,1.6,14,M,,M,,*52
06/23/2015	22:07:43.530	$GPGGA,220744,2543.0027,N,08011.0446,W,1,8,1.6,14,M,,M,,*56
06/23/2015	22:07:44.510	$GPGGA,220745,2543.0051,N,08011.0448,W,1,8,1.6,14,M,,M,,*58
06/23/2015	22:07:45.519	$GPGGA,220746,2543.0074,N,08011.0448,W,1,8,1.6,14,M,,M,,*5C
06/23/2015	22:07:46.519	$GPGGA,220747,2543.0096,N,08011.0448,W,1,8,1.6,14,M,,M,,*51
06/23/2015	22:07:47.539	$GPGGA,220748,2543.0118,N,08011.0449,W,1,8,1.6,14,M,,M,,*58
06/23/2015	22:07:48.519	$GPGGA,220749,2543.0142,N,08011.0449,W,1,8,1.6,14,M,,M,,*56
06/23/2015	22:07:49.519	$GPGGA,220750,2543.0164,N,08011.0451,W,1,8,1.6,14,M,,M,,*53
06/23/2015	22:07:50.509	$GPGGA,220751,2543.0188,N,08011.0450,W,1,8,1.6,14,M,,M,,*51
06/23/2015	22:07:51.539	$GPGGA,220752,2543.0211,N,08011.0451,W,1,8,1.6,14,M,,M,,*50
06/23/2015	22:07:52.499	$GPGGA,220753,2543.0233,N,08011.0450,W,1,8,1.6,14,M,,M,,*50
06/23/2015	22:07:53.509	$GPGGA,220754,2543.0255,N,08011.0452,W,1,8,1.6,14,M,,M,,*55
06/23/2015	22:07:54.489	$GPGGA,220755,2543.0279,N,08011.0451,W,1,8,1.6,14,M,,M,,*59
06/23/2015	22:07:55.539	$GPGGA,220756,2543.0302,N,08011.0452,W,1,8,1.6,14,M,,M,,*54
06/23/2015	22:07:56.489	$GPGGA,220757,2543.0323,N,08011.0451,W,1,8,1.6,14,M,,M,,*55
06/23/2015	22:07:57.479	$GPGGA,220758,2543.0347,N,08011.0452,W,1,8,1.6,13,M,,M,,*5C
06/23/2015	22:07:58.579	$GPGGA,220759,2543.0369,N,08011.0451,W,1,8,1.6,13,M,,M,,*52
06/23/2015	22:07:59.599	$GPGGA,220800,2543.0392,N,08011.0452,W,1,8,1.6,13,M,,M,,*56
06/23/2015	22:08:00.580	$GPGGA,220801,2543.0414,N,08011.0451,W,1,8,1.6,13,M,,M,,*5D
06/23/2015	22:08:01.500	$GPGGA,220802,2543.0436,N,08011.0450,W,1,8,1.6,13,M,,M,,*5F
06/23/2015	22:08:02.570	$GPGGA,220803,2543.0459,N,08011.0451,W,1,8,1.7,13,M,,M,,*57
06/23/2015	22:08:03.579	$GPGGA,220804,2543.0482,N,08011.0450,W,1,7,1.7,13,M,,M,,*58
06/23/2015	22:08:04.486	$GPGGA,220805,2543.0504,N,08011.0449,W,1,7,1.6,13,M,,M,,*5F
06/23/2015	22:08:05.609	$GPGGA,220806,2543.0526,N,08011.0449,W,1,7,1.7,13,M,,M,,*5D
06/23/2015	22:08:06.589	$GPGGA,220807,2543.0549,N,08011.0449,W,1,7,1.7,13,M,,M,,*55
06/23/2015	22:08:07.599	$GPGGA,220808,2543.0571,N,08011.0449,W,1,7,1.7,13,M,,M,,*51
06/23/2015	22:08:08.559	$GPGGA,220809,2543.0594,N,08011.0448,W,1,7,1.7,13,M,,M,,*5A
06/23/2015	22:08:09.599	$GPGGA,220810,2543.0616,N,08011.0448,W,1,7,1.7,13,M,,M,,*5B
06/23/2015	22:08:10.569	$GPGGA,220811,2543.0638,N,08011.0448,W,1,7,1.7,13,M,,M,,*56
06/23/2015	22:08:11.589	$GPGGA,220812,2543.0661,N,08011.0448,W,1,7,1.7,13,M,,M,,*59
06/23/2015	22:08:12.539	$GPGGA,220813,2543.0684,N,08011.0448,W,1,7,1.7,13,M,,M,,*53
06/23/2015	22:08:13.549	$GPGGA,220814,2543.0706,N,08011.0447,W,1,7,1.7,13,M,,M,,*50
06/23/2015	22:08:14.549	$GPGGA,220815,2543.0728,N,08011.0448,W,1,7,1.7,13,M,,M,,*52
06/23/2015	22:08:15.569	$GPGGA,220816,2543.0750,N,08011.0447,W,1,7,1.7,13,M,,M,,*51
06/23/2015	22:08:17.029	$GPGGA,220817,2543.0774,N,08011.0446,W,1,7,1.7,13,M,,M,,*57
06/23/2015	22:08:17.549	$GPGGA,220818,2543.0796,N,08011.0445,W,1,7,1.7,13,M,,M,,*57
06/23/2015	22:08:18.539	$GPGGA,220819,2543.0818,N,08011.0445,W,1,7,1.7,13,M,,M,,*5F
06/23/2015	22:08:19.559	$GPGGA,220820,2543.0840,N,08011.0445,W,1,7,1.7,13,M,,M,,*58
06/23/2015	22:08:20.528	$GPGGA,220821,2543.0864,N,08011.0445,W,1,7,1.7,13,M,,M,,*5F
06/23/2015	22:08:21.548	$GPGGA,220822,2543.0886,N,08011.0445,W,1,7,1.7,13,M,,M,,*50
06/23/2015	22:08:22.528	$GPGGA,220823,2543.0909,N,08011.0445,W,1,7,1.7,13,M,,M,,*57
06/23/2015	22:08:23.838	$GPGGA,220824,2543.0932,N,08011.0446,W,1,7,1.7,13,M,,M,,*5B
06/23/2015	22:08:24.528	$GPGGA,220825,2543.0955,N,08011.0446,W,1,7,1.6,13,M,,M,,*5A
06/23/2015	22:08:25.538	$GPGGA,220826,2543.0979,N,08011.0446,W,1,8,1.6,13,M,,M,,*58
06/23/2015	22:08:26.508	$GPGGA,220827,2543.1002,N,08011.0448,W,1,8,1.6,13,M,,M,,*53
06/23/2015	22:08:27.528	$GPGGA,220828,2543.1024,N,08011.0447,W,1,8,1.6,13,M,,M,,*57
06/23/2015	22:08:28.529	$GPGGA,220829,2543.1048,N,08011.0448,W,1,8,1.6,13,M,,M,,*53
06/23/2015	22:08:29.509	$GPGGA,220830,2543.1071,N,08011.0447,W,1,8,1.6,13,M,,M,,*5E
06/23/2015	22:08:30.519	$GPGGA,220831,2543.1093,N,08011.0448,W,1,8,1.6,13,M,,M,,*5C
06/23/2015	22:08:31.529	$GPGGA,220832,2543.1117,N,08011.0447,W,1,7,2.1,13,M,,M,,*56
06/23/2015	22:08:32.519	$GPGGA,220833,2543.1140,N,08011.0448,W,1,7,1.6,13,M,,M,,*5E
06/23/2015	22:08:33.529	$GPGGA,220834,2543.1161,N,08011.0447,W,1,8,1.6,13,M,,M,,*5A
06/23/2015	22:08:34.499	$GPGGA,220835,2543.1185,N,08011.0448,W,1,8,1.6,13,M,,M,,*5E
06/23/2015	22:08:35.509	$GPGGA,220836,2543.1208,N,08011.0447,W,1,8,1.6,13,M,,M,,*54
06/23/2015	22:08:36.489	$GPGGA,220837,2543.1230,N,08011.0448,W,1,8,1.6,13,M,,M,,*51
06/23/2015	22:08:37.499	$GPGGA,220838,2543.1252,N,08011.0447,W,1,8,1.6,13,M,,M,,*55
06/23/2015	22:08:38.498	$GPGGA,220839,2543.1276,N,08011.0448,W,1,8,1.6,13,M,,M,,*5D
06/23/2015	22:08:39.498	$GPGGA,220840,2543.1298,N,08011.0447,W,1,8,1.6,13,M,,M,,*5C
06/23/2015	22:08:40.478	$GPGGA,220841,2543.1320,N,08011.0448,W,1,8,1.6,13,M,,M,,*50
06/23/2015	22:08:41.508	$GPGGA,220842,2543.1342,N,08011.0448,W,1,8,1.6,13,M,,M,,*57
06/23/2015	22:08:42.488	$GPGGA,220843,2543.1366,N,08011.0448,W,1,8,1.6,13,M,,M,,*50
06/23/2015	22:08:43.488	$GPGGA,220844,2543.1388,N,08011.0449,W,1,8,1.6,13,M,,M,,*56
06/23/2015	22:08:44.578	$GPGGA,220845,2543.1411,N,08011.0449,W,1,8,1.6,13,M,,M,,*50
06/23/2015	22:08:45.609	$GPGGA,220846,2543.1432,N,08011.0451,W,1,8,1.6,13,M,,M,,*5B
06/23/2015	22:08:46.476	$GPGGA,220847,2543.1456,N,08011.0452,W,1,8,1.6,13,M,,M,,*5B
06/23/2015	22:08:47.479	$GPGGA,220848,2543.1478,N,08011.0452,W,1,8,1.6,13,M,,M,,*58
06/23/2015	22:08:48.579	$GPGGA,220849,2543.1501,N,08011.0453,W,1,8,1.6,13,M,,M,,*57
06/23/2015	22:08:49.599	$GPGGA,220850,2543.1523,N,08011.0453,W,1,8,1.6,13,M,,M,,*5F
06/23/2015	22:08:50.475	$GPGGA,220851,2543.1545,N,08011.0455,W,1,8,1.6,13,M,,M,,*58
06/23/2015	22:08:51.629	$GPGGA,220852,2543.1569,N,08011.0454,W,1,8,1.6,13,M,,M,,*54
06/23/2015	22:08:52.569	$GPGGA,220853,2543.1591,N,08011.0455,W,1,8,1.6,13,M,,M,,*53
06/23/2015	22:08:53.560	$GPGGA,220854,2543.1615,N,08011.0456,W,1,8,1.6,13,M,,M,,*58
06/23/2015	22:08:54.569	$GPGGA,220855,2543.1637,N,08011.0456,W,1,8,1.6,13,M,,M,,*59
06/23/2015	22:08:55.588	$GPGGA,220856,2543.1660,N,08011.0457,W,1,8,1.6,13,M,,M,,*59
06/23/2015	22:08:56.558	$GPGGA,220857,2543.1682,N,08011.0459,W,1,8,1.6,13,M,,M,,*5A
06/23/2015	22:08:57.568	$GPGGA,220858,2543.1704,N,08011.0458,W,1,8,1.6,13,M,,M,,*5B
06/23/2015	22:08:58.538	$GPGGA,220859,2543.1727,N,08011.0459,W,1,8,1.6,13,M,,M,,*5A
06/23/2015	22:08:59.618	$GPGGA,220900,2543.1750,N,08011.0459,W,1,8,1.6,13,M,,M,,*57
06/23/2015	22:09:00.548	$GPGGA,220901,2543.1772,N,08011.0459,W,1,8,1.6,13,M,,M,,*56
06/23/2015	22:09:01.578	$GPGGA,220902,2543.1794,N,08011.0459,W,1,8,1.7,13,M,,M,,*5C
06/23/2015	22:09:02.548	$GPGGA,220903,2543.1815,N,08011.0459,W,1,8,1.7,13,M,,M,,*5B
06/23/2015	22:09:03.629	$GPGGA,220904,2543.1837,N,08011.0459,W,1,7,1.6,13,M,,M,,*52
06/23/2015	22:09:04.539	$GPGGA,220905,2543.1859,N,08011.0459,W,1,7,1.7,13,M,,M,,*5A
06/23/2015	22:09:05.559	$GPGGA,220906,2543.1881,N,08011.0459,W,1,7,1.7,13,M,,M,,*5C
06/23/2015	22:09:06.539	$GPGGA,220907,2543.1904,N,08011.0459,W,1,7,1.7,13,M,,M,,*51
06/23/2015	22:09:07.589	$GPGGA,220908,2543.1926,N,08011.0459,W,1,7,1.7,13,M,,M,,*5E
06/23/2015	22:09:08.529	$GPGGA,220909,2543.1948,N,08011.0458,W,1,7,1.7,13,M,,M,,*56
06/23/2015	22:09:09.539	$GPGGA,220910,2543.1971,N,08011.0459,W,1,7,1.7,13,M,,M,,*55
06/23/2015	22:09:10.539	$GPGGA,220911,2543.1992,N,08011.0458,W,1,7,1.7,13,M,,M,,*58
06/23/2015	22:09:11.559	$GPGGA,220912,2543.2014,N,08011.0459,W,1,7,1.7,13,M,,M,,*5E
06/23/2015	22:09:12.529	$GPGGA,220913,2543.2036,N,08011.0457,W,1,7,1.7,13,M,,M,,*51
06/23/2015	22:09:13.548	$GPGGA,220914,2543.2060,N,08011.0456,W,1,7,1.7,13,M,,M,,*54
06/23/2015	22:09:14.528	$GPGGA,220915,2543.2082,N,08011.0456,W,1,7,1.7,13,M,,M,,*59
06/23/2015	22:09:15.558	$GPGGA,220916,2543.2105,N,08011.0455,W,1,7,1.6,13,M,,M,,*56
06/23/2015	22:09:16.508	$GPGGA,220917,2543.2129,N,08011.0455,W,1,7,1.6,13,M,,M,,*59
06/23/2015	22:09:17.528	$GPGGA,220918,2543.2152,N,08011.0454,W,1,8,1.6,13,M,,M,,*54
06/23/2015	22:09:18.508	$GPGGA,220919,2543.2175,N,08011.0455,W,1,8,1.6,13,M,,M,,*51
06/23/2015	22:09:19.538	$GPGGA,220920,2543.2198,N,08011.0453,W,1,8,1.6,13,M,,M,,*5E
06/23/2015	22:09:20.529	$GPGGA,220921,2543.2222,N,08011.0452,W,1,8,1.6,13,M,,M,,*5C
06/23/2015	22:09:21.549	$GPGGA,220922,2543.2244,N,08011.0451,W,1,8,1.6,13,M,,M,,*5C
06/23/2015	22:09:22.509	$GPGGA,220923,2543.2267,N,08011.0452,W,1,8,1.6,13,M,,M,,*5F
06/23/2015	22:09:23.549	$GPGGA,220924,2543.2289,N,08011.0450,W,1,8,1.6,13,M,,M,,*5A
06/23/2015	22:09:24.489	$GPGGA,220925,2543.2311,N,08011.0449,W,1,8,1.6,13,M,,M,,*53
06/23/2015	22:09:25.489	$GPGGA,220926,2543.2335,N,08011.0448,W,1,8,1.6,13,M,,M,,*57
06/23/2015	22:09:26.499	$GPGGA,220927,2543.2357,N,08011.0447,W,1,8,1.6,13,M,,M,,*5D
06/23/2015	22:09:27.499	$GPGGA,220928,2543.2379,N,08011.0446,W,1,8,1.6,13,M,,M,,*5F
06/23/2015	22:09:28.509	$GPGGA,220929,2543.2401,N,08011.0445,W,1,8,1.7,13,M,,M,,*54
06/23/2015	22:09:29.509	$GPGGA,220930,2543.2422,N,08011.0445,W,1,7,1.7,13,M,,M,,*52
06/23/2015	22:09:30.580	$GPGGA,220931,2543.2444,N,08011.0444,W,1,7,1.7,13,M,,M,,*52
06/23/2015	22:09:31.538	$GPGGA,220932,2543.2466,N,08011.0443,W,1,7,1.7,13,M,,M,,*56
06/23/2015	22:09:32.588	$GPGGA,220933,2543.2488,N,08011.0444,W,1,7,1.7,13,M,,M,,*50
06/23/2015	22:09:33.479	$GPGGA,220934,2543.2509,N,08011.0442,W,1,7,1.7,13,M,,M,,*59
06/23/2015	22:09:34.573	$GPGGA,220935,2543.2531,N,08011.0442,W,1,7,1.7,13,M,,M,,*53
06/23/2015	22:09:35.598	$GPGGA,220936,2543.2555,N,08011.0441,W,1,7,1.7,13,M,,M,,*51
06/23/2015	22:09:36.498	$GPGGA,220937,2543.2577,N,08011.0441,W,1,7,1.7,13,M,,M,,*50
06/23/2015	22:09:37.488	$GPGGA,220938,2543.2599,N,08011.0441,W,1,7,1.7,13,M,,M,,*5F
06/23/2015	22:09:38.564	$GPGGA,220939,2543.2621,N,08011.0441,W,1,7,1.7,13,M,,M,,*5E
06/23/2015	22:09:39.609	$GPGGA,220940,2543.2646,N,08011.0442,W,1,7,1.7,13,M,,M,,*52
06/23/2015	22:09:40.564	$GPGGA,220941,2543.2668,N,08011.0442,W,1,7,1.6,13,M,,M,,*5E
06/23/2015	22:09:41.576	$GPGGA,220942,2543.2690,N,08011.0442,W,1,8,1.6,13,M,,M,,*55
06/23/2015	22:09:42.549	$GPGGA,220943,2543.2712,N,08011.0442,W,1,8,1.6,13,M,,M,,*5F
06/23/2015	22:09:43.564	$GPGGA,220944,2543.2735,N,08011.0442,W,1,8,1.6,13,M,,M,,*5D
06/23/2015	22:09:44.569	$GPGGA,220945,2543.2757,N,08011.0442,W,1,8,1.6,13,M,,M,,*58
06/23/2015	22:09:45.539	$GPGGA,220946,2543.2779,N,08011.0444,W,1,8,1.6,13,M,,M,,*51
06/23/2015	22:09:46.549	$GPGGA,220947,2543.2801,N,08011.0443,W,1,8,1.6,13,M,,M,,*57
06/23/2015	22:09:47.574	$GPGGA,220948,2543.2823,N,08011.0444,W,1,8,1.6,13,M,,M,,*5F
06/23/2015	22:09:48.548	$GPGGA,220949,2543.2845,N,08011.0444,W,1,8,1.6,13,M,,M,,*5E
06/23/2015	22:09:49.538	$GPGGA,220950,2543.2867,N,08011.0445,W,1,7,1.7,13,M,,M,,*59
06/23/2015	22:09:50.539	$GPGGA,220951,2543.2888,N,08011.0446,W,1,7,1.7,13,M,,M,,*5A
06/23/2015	22:09:51.572	$GPGGA,220952,2543.2910,N,08011.0448,W,1,7,1.7,13,M,,M,,*57
06/23/2015	22:09:52.538	$GPGGA,220953,2543.2934,N,08011.0448,W,1,7,1.7,13,M,,M,,*50
06/23/2015	22:09:53.548	$GPGGA,220954,2543.2956,N,08011.0449,W,1,7,1.7,13,M,,M,,*52
06/23/2015	22:09:54.528	$GPGGA,220955,2543.2978,N,08011.0449,W,1,7,1.7,13,M,,M,,*5F
06/23/2015	22:09:55.569	$GPGGA,220956,2543.3000,N,08011.0451,W,1,7,1.7,13,M,,M,,*52
06/23/2015	22:09:56.529	$GPGGA,220957,2543.3022,N,08011.0452,W,1,7,1.7,13,M,,M,,*50
06/23/2015	22:09:57.519	$GPGGA,220958,2543.3044,N,08011.0452,W,1,7,1.7,12,M,,M,,*5E
06/23/2015	22:09:58.529	$GPGGA,220959,2543.3066,N,08011.0453,W,1,7,1.7,12,M,,M,,*5E
06/23/2015	22:09:59.569	$GPGGA,221000,2543.3089,N,08011.0455,W,1,7,1.7,12,M,,M,,*5D
06/23/2015	22:10:00.509	$GPGGA,221001,2543.3111,N,08011.0455,W,1,7,1.7,12,M,,M,,*5C
06/23/2015	22:10:01.529	$GPGGA,221002,2543.3133,N,08011.0455,W,1,7,1.7,12,M,,M,,*5F
06/23/2015	22:10:02.519	$GPGGA,221003,2543.3155,N,08011.0456,W,1,7,1.7,12,M,,M,,*5D
06/23/2015	22:10:03.519	$GPGGA,221004,2543.3177,N,08011.0456,W,1,7,1.7,12,M,,M,,*5A
06/23/2015	22:10:04.509	$GPGGA,221005,2543.3199,N,08011.0457,W,1,7,1.6,12,M,,M,,*5B
06/23/2015	22:10:05.528	$GPGGA,221006,2543.3223,N,08011.0459,W,1,7,1.7,12,M,,M,,*55
06/23/2015	22:10:06.518	$GPGGA,221007,2543.3245,N,08011.0458,W,1,7,1.6,12,M,,M,,*54
06/23/2015	22:10:07.548	$GPGGA,221008,2543.3266,N,08011.0459,W,1,7,1.7,12,M,,M,,*5A
06/23/2015	22:10:08.498	$GPGGA,221009,2543.3289,N,08011.0458,W,1,7,1.6,12,M,,M,,*5A
06/23/2015	22:10:09.488	$GPGGA,221010,2543.3311,N,08011.0459,W,1,8,1.6,12,M,,M,,*5C
06/23/2015	22:10:10.548	$GPGGA,221011,2543.3333,N,08011.0458,W,1,8,1.6,12,M,,M,,*5C
06/23/2015	22:10:11.528	$GPGGA,221012,2543.3355,N,08011.0459,W,1,8,1.6,12,M,,M,,*5E
06/23/2015	22:10:12.498	$GPGGA,221013,2543.3379,N,08011.0459,W,1,8,1.7,12,M,,M,,*50
06/23/2015	22:10:13.509	$GPGGA,221014,2543.3401,N,08011.0459,W,1,7,1.7,12,M,,M,,*50
06/23/2015	22:10:15.539	$GPGGA,221016,2543.3445,N,08011.0458,W,1,7,1.7,12,M,,M,,*53
06/23/2015	22:10:16.479	$GPGGA,221017,2543.3467,N,08011.0459,W,1,7,1.7,12,M,,M,,*53
06/23/2015	22:10:17.489	$GPGGA,221018,2543.3490,N,08011.0458,W,1,7,1.7,12,M,,M,,*55
06/23/2015	22:10:18.479	$GPGGA,221019,2543.3513,N,08011.0459,W,1,7,1.7,12,M,,M,,*5F
06/23/2015	22:10:19.499	$GPGGA,221020,2543.3535,N,08011.0457,W,1,7,1.7,12,M,,M,,*5F
06/23/2015	22:10:20.571	$GPGGA,221021,2543.3559,N,08011.0457,W,1,7,1.7,12,M,,M,,*54
06/23/2015	22:10:21.599	$GPGGA,221022,2543.3582,N,08011.0457,W,1,8,1.6,12,M,,M,,*5F
06/23/2015	22:10:22.570	$GPGGA,221023,2543.3604,N,08011.0456,W,1,8,1.6,12,M,,M,,*52
06/23/2015	22:10:23.618	$GPGGA,221024,2543.3628,N,08011.0455,W,1,7,2.1,12,M,,M,,*53
06/23/2015	22:10:24.478	$GPGGA,221025,2543.3650,N,08011.0454,W,1,7,2.1,12,M,,M,,*5C
06/23/2015	22:10:25.588	$GPGGA,221026,2543.3672,N,08011.0455,W,1,8,1.6,12,M,,M,,*55
06/23/2015	22:10:26.478	$GPGGA,221027,2543.3694,N,08011.0454,W,1,8,1.6,12,M,,M,,*5D
06/23/2015	22:10:27.468	$GPGGA,221028,2543.3716,N,08011.0455,W,1,7,1.7,12,M,,M,,*56
06/23/2015	22:10:28.559	$GPGGA,221029,2543.3737,N,08011.0453,W,1,7,1.7,12,M,,M,,*52
06/23/2015	22:10:29.578	$GPGGA,221030,2543.3759,N,08011.0453,W,1,7,1.7,12,M,,M,,*52
06/23/2015	22:10:30.549	$GPGGA,221031,2543.3781,N,08011.0453,W,1,7,1.7,12,M,,M,,*56
06/23/2015	22:10:31.589	$GPGGA,221032,2543.3803,N,08011.0452,W,1,7,1.7,12,M,,M,,*51
06/23/2015	22:10:32.539	$GPGGA,221033,2543.3826,N,08011.0452,W,1,7,1.7,12,M,,M,,*57
06/23/2015	22:10:33.573	$GPGGA,221034,2543.3848,N,08011.0452,W,1,7,1.7,12,M,,M,,*58
06/23/2015	22:10:34.549	$GPGGA,221035,2543.3870,N,08011.0451,W,1,7,1.7,12,M,,M,,*51
06/23/2015	22:10:35.559	$GPGGA,221036,2543.3893,N,08011.0452,W,1,7,1.7,12,M,,M,,*5C
06/23/2015	22:10:36.539	$GPGGA,221037,2543.3915,N,08011.0451,W,1,7,1.7,12,M,,M,,*51
06/23/2015	22:10:37.549	$GPGGA,221038,2543.3940,N,08011.0452,W,1,8,1.6,12,M,,M,,*53
06/23/2015	22:10:38.549	$GPGGA,221039,2543.3964,N,08011.0452,W,1,8,1.6,12,M,,M,,*54
06/23/2015	22:10:39.570	$GPGGA,221040,2543.3987,N,08011.0451,W,1,8,1.6,12,M,,M,,*54
06/23/2015	22:10:40.538	$GPGGA,221041,2543.4011,N,08011.0452,W,1,8,1.6,12,M,,M,,*57
06/23/2015	22:10:41.548	$GPGGA,221042,2543.4033,N,08011.0451,W,1,8,1.6,13,M,,M,,*56
06/23/2015	22:10:42.528	$GPGGA,221043,2543.4054,N,08011.0450,W,1,8,1.6,13,M,,M,,*57
06/23/2015	22:10:43.548	$GPGGA,221044,2543.4076,N,08011.0451,W,1,7,1.7,13,M,,M,,*5F
06/23/2015	22:10:44.528	$GPGGA,221045,2543.4097,N,08011.0450,W,1,7,1.7,13,M,,M,,*50
06/23/2015	22:10:45.518	$GPGGA,221046,2543.4119,N,08011.0449,W,1,7,1.7,13,M,,M,,*5C
06/23/2015	22:10:46.528	$GPGGA,221047,2543.4141,N,08011.0449,W,1,7,1.7,13,M,,M,,*50
06/23/2015	22:10:47.538	$GPGGA,221048,2543.4166,N,08011.0451,W,1,7,1.7,13,M,,M,,*53
06/23/2015	22:10:48.529	$GPGGA,221049,2543.4189,N,08011.0452,W,1,7,1.6,13,M,,M,,*51
06/23/2015	22:10:49.549	$GPGGA,221050,2543.4211,N,08011.0451,W,1,8,1.6,13,M,,M,,*57
06/23/2015	22:10:50.509	$GPGGA,221051,2543.4235,N,08011.0452,W,1,8,1.6,13,M,,M,,*53
06/23/2015	22:10:51.559	$GPGGA,221052,2543.4258,N,08011.0451,W,1,8,1.6,14,M,,M,,*5F
06/23/2015	22:10:52.499	$GPGGA,221053,2543.4279,N,08011.0452,W,1,8,1.6,14,M,,M,,*5E
06/23/2015	22:10:53.519	$GPGGA,221054,2543.4303,N,08011.0453,W,1,8,1.6,14,M,,M,,*54
06/23/2015	22:10:54.509	$GPGGA,221055,2543.4323,N,08011.0453,W,1,8,1.6,14,M,,M,,*57
06/23/2015	22:10:55.519	$GPGGA,221056,2543.4347,N,08011.0455,W,1,8,1.6,14,M,,M,,*50
06/23/2015	22:10:56.489	$GPGGA,221057,2543.4368,N,08011.0454,W,1,8,1.6,14,M,,M,,*5D
06/23/2015	22:10:57.539	$GPGGA,221058,2543.4390,N,08011.0455,W,1,8,1.6,14,M,,M,,*54
06/23/2015	22:10:58.498	$GPGGA,221059,2543.4412,N,08011.0455,W,1,8,1.7,14,M,,M,,*59
06/23/2015	22:10:59.508	$GPGGA,221100,2543.4434,N,08011.0455,W,1,7,1.7,14,M,,M,,*5F
06/23/2015	22:11:00.499	$GPGGA,221101,2543.4455,N,08011.0456,W,1,7,1.7,14,M,,M,,*5A
06/23/2015	22:11:01.518	$GPGGA,221102,2543.4477,N,08011.0456,W,1,7,1.7,14,M,,M,,*59
06/23/2015	22:11:02.488	$GPGGA,221103,2543.4499,N,08011.0457,W,1,7,1.7,14,M,,M,,*59
06/23/2015	22:11:03.628	$GPGGA,221104,2543.4521,N,08011.0459,W,1,7,1.7,14,M,,M,,*52
06/23/2015	22:11:04.498	$GPGGA,221105,2543.4543,N,08011.0458,W,1,7,1.7,14,M,,M,,*56
06/23/2015	22:11:05.589	$GPGGA,221106,2543.4565,N,08011.0459,W,1,7,1.7,14,M,,M,,*50
06/23/2015	22:11:06.589	$GPGGA,221107,2543.4586,N,08011.0460,W,1,7,1.7,14,M,,M,,*56
06/23/2015	22:11:07.499	$GPGGA,221108,2543.4612,N,08011.0462,W,1,7,1.7,14,M,,M,,*55
06/23/2015	22:11:08.470	$GPGGA,221109,2543.4635,N,08011.0463,W,1,7,1.6,14,M,,M,,*51
06/23/2015	22:11:09.489	$GPGGA,221110,2543.4658,N,08011.0464,W,1,8,1.6,14,M,,M,,*5A
06/23/2015	22:11:10.559	$GPGGA,221111,2543.4680,N,08011.0464,W,1,8,1.6,14,M,,M,,*5E
06/23/2015	22:11:11.619	$GPGGA,221112,2543.4702,N,08011.0466,W,1,8,1.6,14,M,,M,,*54
06/23/2015	22:11:12.560	$GPGGA,221113,2543.4724,N,08011.0466,W,1,8,1.6,14,M,,M,,*51
06/23/2015	22:11:13.561	$GPGGA,221114,2543.4748,N,08011.0466,W,1,8,1.6,14,M,,M,,*5C
06/23/2015	22:11:14.561	$GPGGA,221115,2543.4771,N,08011.0467,W,1,8,1.6,14,M,,M,,*56
06/23/2015	22:11:15.578	$GPGGA,221116,2543.4792,N,08011.0467,W,1,8,1.6,14,M,,M,,*58
06/23/2015	22:11:16.558	$GPGGA,221117,2543.4816,N,08011.0469,W,1,8,1.6,14,M,,M,,*54
06/23/2015	22:11:17.578	$GPGGA,221118,2543.4839,N,08011.0468,W,1,8,1.6,14,M,,M,,*57
06/23/2015	22:11:18.548	$GPGGA,221119,2543.4861,N,08011.0469,W,1,8,1.6,14,M,,M,,*5A
06/23/2015	22:11:19.578	$GPGGA,221120,2543.4883,N,08011.0468,W,1,8,1.6,14,M,,M,,*5D
06/23/2015	22:11:20.562	$GPGGA,221121,2543.4904,N,08011.0470,W,1,8,1.7,14,M,,M,,*5A
06/23/2015	22:11:21.578	$GPGGA,221122,2543.4928,N,08011.0467,W,1,7,1.7,14,M,,M,,*5E
06/23/2015	22:11:22.548	$GPGGA,221123,2543.4950,N,08011.0466,W,1,7,2.3,14,M,,M,,*56
06/23/2015	22:11:23.571	$GPGGA,221124,2543.4972,N,08011.0465,W,1,6,2.3,14,M,,M,,*53
06/23/2015	22:11:24.529	$GPGGA,221125,2543.4995,N,08011.0463,W,1,6,2.3,14,M,,M,,*5D
06/23/2015	22:11:25.549	$GPGGA,221126,2543.5016,N,08011.0462,W,1,6,2.3,14,M,,M,,*5C
06/23/2015	22:11:26.539	$GPGGA,221127,2543.5040,N,08011.0461,W,1,6,2.3,14,M,,M,,*5D
06/23/2015	22:11:27.560	$GPGGA,221128,2543.5062,N,08011.0460,W,1,6,2.3,14,M,,M,,*53
06/23/2015	22:11:28.539	$GPGGA,221129,2543.5085,N,08011.0459,W,1,6,2.3,14,M,,M,,*51
06/23/2015	22:11:29.539	$GPGGA,221130,2543.5110,N,08011.0460,W,1,6,2.3,14,M,,M,,*5E
06/23/2015	22:11:30.529	$GPGGA,221131,2543.5135,N,08011.0462,W,1,6,2.1,13,M,,M,,*5F
06/23/2015	22:11:31.570	$GPGGA,221132,2543.5157,N,08011.0460,W,1,7,2.1,13,M,,M,,*5B
06/23/2015	22:11:32.519	$GPGGA,221133,2543.5181,N,08011.0460,W,1,7,2.1,13,M,,M,,*51
06/23/2015	22:11:33.518	$GPGGA,221134,2543.5204,N,08011.0459,W,1,7,2.1,13,M,,M,,*52
06/23/2015	22:11:34.938	$GPGGA,221135,2543.5226,N,08011.0459,W,1,7,2.1,13,M,,M,,*53
06/23/2015	22:11:35.518	$GPGGA,221136,2543.5250,N,08011.0458,W,1,7,2.1,13,M,,M,,*50
06/23/2015	22:11:36.518	$GPGGA,221137,2543.5272,N,08011.0457,W,1,7,2.1,13,M,,M,,*5E
06/23/2015	22:11:37.538	$GPGGA,221138,2543.5294,N,08011.0456,W,1,7,2.1,13,M,,M,,*58
06/23/2015	22:11:38.518	$GPGGA,221139,2543.5318,N,08011.0455,W,1,7,2.1,13,M,,M,,*5F
06/23/2015	22:11:39.518	$GPGGA,221140,2543.5340,N,08011.0454,W,1,7,2.1,13,M,,M,,*5D
06/23/2015	22:11:40.519	$GPGGA,221141,2543.5363,N,08011.0453,W,1,7,2.1,13,M,,M,,*5A
06/23/2015	22:11:41.539	$GPGGA,221142,2543.5385,N,08011.0452,W,1,7,2.1,13,M,,M,,*50
06/23/2015	22:11:42.519	$GPGGA,221143,2543.5406,N,08011.0450,W,1,7,2.1,13,M,,M,,*5F
06/23/2015	22:11:43.529	$GPGGA,221144,2543.5428,N,08011.0451,W,1,6,2.3,13,M,,M,,*56
06/23/2015	22:11:44.489	$GPGGA,221145,2543.5449,N,08011.0448,W,1,6,2.1,13,M,,M,,*5A
06/23/2015	22:11:45.499	$GPGGA,221146,2543.5470,N,08011.0446,W,1,7,2.1,13,M,,M,,*5C
06/23/2015	22:11:46.499	$GPGGA,221147,2543.5492,N,08011.0444,W,1,7,2.1,13,M,,M,,*53
06/23/2015	22:11:47.679	$GPGGA,221148,2543.5513,N,08011.0443,W,1,7,2.1,12,M,,M,,*52
06/23/2015	22:11:48.499	$GPGGA,221149,2543.5535,N,08011.0442,W,1,7,2.1,12,M,,M,,*56
