Software Version Number: 1	Data File Format Number: 1	Build Version Number: 1	Error Count Since VI Started: 1	Manufacturer: Raytheon	 Model Number: RayMarine 120	 S/N: 	 Cal Date: 	 Wind Direction Offset: 0.00	 Slope (M)1: 0.00	 Offset (B)1: 0.00	 Slope (M)2: 0.00	 Offset (B)2: 0.00	 Slope (M)3: 0.00	 Offset (B)3: 0.00	 Slope (M)4: 0.00	 Offset (B)4: 0.00	 Slope (M)5: 0.00	 Offset (B)5: 0.00	 Slope (M)6: 0.00	 Offset (B)6: 0.00
Computer Date	Computer Time	GGA String
06/12/2015	20:00:00.578	$GPGGA,200001,2415.1331,N,08107.8423,W,1,10,1.3,20,M,,M,,*63
06/12/2015	20:00:01.578	$GPGGA,200002,2415.1320,N,08107.8409,W,1,11,1.3,20,M,,M,,*69
06/12/2015	20:00:02.568	$GPGGA,200003,2415.1310,N,08107.8401,W,1,11,1.3,20,M,,M,,*63
06/12/2015	20:00:03.608	$GPGGA,200004,2415.1299,N,08107.8393,W,1,10,1.4,20,M,,M,,*6E
06/12/2015	20:00:04.568	$GPGGA,200005,2415.1288,N,08107.8383,W,1,10,1.4,20,M,,M,,*6E
06/12/2015	20:00:05.558	$GPGGA,200006,2415.1279,N,08107.8373,W,1,11,1.3,20,M,,M,,*6A
06/12/2015	20:00:06.558	$GPGGA,200007,2415.1273,N,08107.8365,W,1,11,1.4,20,M,,M,,*61
06/12/2015	20:00:07.598	$GPGGA,200008,2415.1261,N,08107.8356,W,1,11,1.3,20,M,,M,,*6A
06/12/2015	20:00:08.569	$GPGGA,200009,2415.1252,N,08107.8348,W,1,11,1.5,20,M,,M,,*62
06/12/2015	20:00:09.549	$GPGGA,200010,2415.1242,N,08107.8340,W,1,11,1.3,20,M,,M,,*65
06/12/2015	20:00:10.559	$GPGGA,200011,2415.1231,N,08107.8330,W,1,11,1.3,20,M,,M,,*67
06/12/2015	20:00:11.569	$GPGGA,200012,2415.1218,N,08107.8319,W,1,11,1.3,20,M,,M,,*64
06/12/2015	20:00:12.559	$GPGGA,200013,2415.1208,N,08107.8307,W,1,11,1.5,20,M,,M,,*6D
06/12/2015	20:00:13.579	$GPGGA,200014,2415.1198,N,08107.8300,W,1,10,1.4,20,M,,M,,*67
06/12/2015	20:00:14.548	$GPGGA,200015,2415.1184,N,08107.8291,W,1,10,1.3,20,M,,M,,*65
06/12/2015	20:00:15.568	$GPGGA,200016,2415.1176,N,08107.8278,W,1,11,1.3,20,M,,M,,*6D
06/12/2015	20:00:16.544	$GPGGA,200017,2415.1163,N,08107.8266,W,1,11,1.3,20,M,,M,,*67
06/12/2015	20:00:17.548	$GPGGA,200018,2415.1152,N,08107.8258,W,1,10,1.4,20,M,,M,,*61
06/12/2015	20:00:18.538	$GPGGA,200019,2415.1142,N,08107.8247,W,1,10,1.3,20,M,,M,,*68
06/12/2015	20:00:19.548	$GPGGA,200020,2415.1131,N,08107.8234,W,1,11,1.3,20,M,,M,,*63
06/12/2015	20:00:20.548	$GPGGA,200021,2415.1119,N,08107.8225,W,1,11,1.3,20,M,,M,,*68
06/12/2015	20:00:21.534	$GPGGA,200022,2415.1108,N,08107.8213,W,1,11,1.3,20,M,,M,,*6E
06/12/2015	20:00:22.548	$GPGGA,200023,2415.1100,N,08107.8200,W,1,11,1.3,20,M,,M,,*65
06/12/2015	20:00:23.558	$GPGGA,200024,2415.1086,N,08107.8188,W,1,10,1.4,20,M,,M,,*68
06/12/2015	20:00:24.518	$GPGGA,200025,2415.1075,N,08107.8178,W,1,10,1.3,20,M,,M,,*6D
06/12/2015	20:00:25.530	$GPGGA,200026,2415.1064,N,08107.8168,W,1,11,1.3,20,M,,M,,*6E
06/12/2015	20:00:26.619	$GPGGA,200027,2415.1054,N,08107.8155,W,1,11,1.3,20,M,,M,,*62
06/12/2015	20:00:27.530	$GPGGA,200028,2415.1042,N,08107.8143,W,1,11,1.3,20,M,,M,,*6D
06/12/2015	20:00:28.545	$GPGGA,200029,2415.1029,N,08107.8132,W,1,11,1.3,20,M,,M,,*67
06/12/2015	20:00:29.509	$GPGGA,200030,2415.1019,N,08107.8123,W,1,11,1.3,20,M,,M,,*6C
06/12/2015	20:00:30.632	$GPGGA,200031,2415.1008,N,08107.8111,W,1,11,1.3,20,M,,M,,*6C
06/12/2015	20:00:31.647	$GPGGA,200032,2415.0997,N,08107.8098,W,1,11,1.3,20,M,,M,,*61
06/12/2015	20:00:32.618	$GPGGA,200033,2415.0986,N,08107.8087,W,1,11,1.3,20,M,,M,,*6E
06/12/2015	20:00:33.618	$GPGGA,200034,2415.0975,N,08107.8079,W,1,11,1.3,20,M,,M,,*64
06/12/2015	20:00:34.518	$GPGGA,200035,2415.0965,N,08107.8066,W,1,11,1.3,20,M,,M,,*6A
06/12/2015	20:00:35.618	$GPGGA,200036,2415.0954,N,08107.8053,W,1,11,1.3,20,M,,M,,*6D
06/12/2015	20:00:36.598	$GPGGA,200037,2415.0945,N,08107.8044,W,1,11,1.3,20,M,,M,,*6A
06/12/2015	20:00:37.631	$GPGGA,200038,2415.0934,N,08107.8034,W,1,11,1.3,20,M,,M,,*64
06/12/2015	20:00:38.598	$GPGGA,200039,2415.0924,N,08107.8021,W,1,11,1.3,20,M,,M,,*60
06/12/2015	20:00:39.598	$GPGGA,200040,2415.0913,N,08107.8010,W,1,11,1.3,20,M,,M,,*68
06/12/2015	20:00:40.588	$GPGGA,200041,2415.0903,N,08107.7998,W,1,11,1.3,20,M,,M,,*6E
06/12/2015	20:00:41.608	$GPGGA,200042,2415.0893,N,08107.7987,W,1,11,1.3,20,M,,M,,*6B
06/12/2015	20:00:42.588	$GPGGA,200043,2415.0883,N,08107.7978,W,1,11,1.3,20,M,,M,,*6B
06/12/2015	20:00:43.619	$GPGGA,200044,2415.0871,N,08107.7965,W,1,11,1.3,20,M,,M,,*6D
06/12/2015	20:00:44.579	$GPGGA,200045,2415.0862,N,08107.7953,W,1,11,1.3,20,M,,M,,*6B
06/12/2015	20:00:45.589	$GPGGA,200046,2415.0854,N,08107.7945,W,1,11,1.3,19,M,,M,,*60
06/12/2015	20:00:46.589	$GPGGA,200047,2415.0841,N,08107.7934,W,1,11,1.3,19,M,,M,,*63
06/12/2015	20:00:47.619	$GPGGA,200048,2415.0831,N,08107.7921,W,1,10,1.4,19,M,,M,,*69
06/12/2015	20:00:48.579	$GPGGA,200049,2415.0823,N,08107.7910,W,1,10,1.4,19,M,,M,,*69
06/12/2015	20:00:49.588	$GPGGA,200050,2415.0812,N,08107.7900,W,1,11,1.3,19,M,,M,,*64
06/12/2015	20:00:50.568	$GPGGA,200051,2415.0800,N,08107.7888,W,1,11,1.3,19,M,,M,,*67
06/12/2015	20:00:51.618	$GPGGA,200052,2415.0791,N,08107.7880,W,1,11,1.3,19,M,,M,,*6B
06/12/2015	20:00:52.568	$GPGGA,200053,2415.0783,N,08107.7872,W,1,11,1.3,19,M,,M,,*64
06/12/2015	20:00:53.588	$GPGGA,200054,2415.0772,N,08107.7860,W,1,11,1.3,19,M,,M,,*6E
06/12/2015	20:00:54.558	$GPGGA,200055,2415.0762,N,08107.7849,W,1,11,1.3,19,M,,M,,*65
06/12/2015	20:00:55.598	$GPGGA,200056,2415.0751,N,08107.7842,W,1,10,1.4,19,M,,M,,*6B
06/12/2015	20:00:56.548	$GPGGA,200057,2415.0741,N,08107.7832,W,1,10,1.4,19,M,,M,,*6C
06/12/2015	20:00:57.568	$GPGGA,200058,2415.0732,N,08107.7820,W,1,11,1.3,19,M,,M,,*62
06/12/2015	20:00:58.558	$GPGGA,200059,2415.0722,N,08107.7811,W,1,11,1.4,19,M,,M,,*67
06/12/2015	20:00:59.558	$GPGGA,200100,2415.0710,N,08107.7804,W,1,11,1.3,19,M,,M,,*68
06/12/2015	20:01:00.558	$GPGGA,200101,2415.0703,N,08107.7792,W,1,11,1.4,19,M,,M,,*6C
06/12/2015	20:01:01.539	$GPGGA,200102,2415.0693,N,08107.7781,W,1,11,1.3,19,M,,M,,*62
06/12/2015	20:01:02.559	$GPGGA,200103,2415.0682,N,08107.7775,W,1,11,1.3,19,M,,M,,*68
06/12/2015	20:01:03.569	$GPGGA,200104,2415.0670,N,08107.7764,W,1,11,1.3,18,M,,M,,*63
06/12/2015	20:01:04.549	$GPGGA,200105,2415.0663,N,08107.7751,W,1,11,1.4,18,M,,M,,*61
06/12/2015	20:01:05.530	$GPGGA,200106,2415.0653,N,08107.7742,W,1,11,1.3,18,M,,M,,*64
06/12/2015	20:01:06.659	$GPGGA,200107,2415.0642,N,08107.7732,W,1,11,1.3,18,M,,M,,*62
06/12/2015	20:01:07.578	$GPGGA,200108,2415.0631,N,08107.7721,W,1,11,1.3,18,M,,M,,*6B
06/12/2015	20:01:08.529	$GPGGA,200109,2415.0620,N,08107.7710,W,1,11,1.3,18,M,,M,,*68
06/12/2015	20:01:09.547	$GPGGA,200110,2415.0611,N,08107.7699,W,1,11,1.3,18,M,,M,,*62
06/12/2015	20:01:10.528	$GPGGA,200111,2415.0602,N,08107.7687,W,1,11,1.3,18,M,,M,,*6E
06/12/2015	20:01:11.558	$GPGGA,200112,2415.0589,N,08107.7677,W,1,11,1.3,18,M,,M,,*62
06/12/2015	20:01:12.518	$GPGGA,200113,2415.0580,N,08107.7667,W,1,11,1.3,18,M,,M,,*6B
06/12/2015	20:01:13.518	$GPGGA,200114,2415.0570,N,08107.7656,W,1,11,1.3,18,M,,M,,*61
06/12/2015	20:01:14.640	$GPGGA,200115,2415.0559,N,08107.7645,W,1,11,1.3,18,M,,M,,*69
06/12/2015	20:01:15.639	$GPGGA,200116,2415.0548,N,08107.7634,W,1,11,1.3,18,M,,M,,*6C
06/12/2015	20:01:16.630	$GPGGA,200117,2415.0540,N,08107.7622,W,1,11,1.3,18,M,,M,,*62
06/12/2015	20:01:17.645	$GPGGA,200118,2415.0528,N,08107.7611,W,1,11,1.3,18,M,,M,,*63
06/12/2015	20:01:18.519	$GPGGA,200119,2415.0517,N,08107.7601,W,1,11,1.3,18,M,,M,,*6F
06/12/2015	20:01:19.619	$GPGGA,200120,2415.0508,N,08107.7590,W,1,11,1.3,18,M,,M,,*60
06/12/2015	20:01:20.519	$GPGGA,200121,2415.0497,N,08107.7577,W,1,11,1.3,18,M,,M,,*6F
06/12/2015	20:01:21.643	$GPGGA,200122,2415.0487,N,08107.7566,W,1,11,1.3,18,M,,M,,*6D
06/12/2015	20:01:22.609	$GPGGA,200123,2415.0475,N,08107.7556,W,1,11,1.3,18,M,,M,,*62
06/12/2015	20:01:23.629	$GPGGA,200124,2415.0464,N,08107.7544,W,1,11,1.3,18,M,,M,,*66
06/12/2015	20:01:24.598	$GPGGA,200125,2415.0455,N,08107.7532,W,1,11,1.3,18,M,,M,,*64
06/12/2015	20:01:25.618	$GPGGA,200126,2415.0444,N,08107.7523,W,1,11,1.3,18,M,,M,,*67
06/12/2015	20:01:26.598	$GPGGA,200127,2415.0432,N,08107.7511,W,1,11,1.3,18,M,,M,,*66
06/12/2015	20:01:27.618	$GPGGA,200128,2415.0423,N,08107.7500,W,1,11,1.3,18,M,,M,,*69
06/12/2015	20:01:28.588	$GPGGA,200129,2415.0412,N,08107.7490,W,1,11,1.3,18,M,,M,,*62
06/12/2015	20:01:29.608	$GPGGA,200130,2415.0401,N,08107.7478,W,1,11,1.3,18,M,,M,,*6E
06/12/2015	20:01:30.488	$GPGGA,200131,2415.0392,N,08107.7466,W,1,11,1.3,18,M,,M,,*6D
06/12/2015	20:01:31.630	$GPGGA,200132,2415.0381,N,08107.7454,W,1,10,1.5,18,M,,M,,*6A
06/12/2015	20:01:32.578	$GPGGA,200133,2415.0371,N,08107.7443,W,1,10,1.3,18,M,,M,,*64
06/12/2015	20:01:33.608	$GPGGA,200134,2415.0360,N,08107.7433,W,1,11,1.3,18,M,,M,,*65
06/12/2015	20:01:34.578	$GPGGA,200135,2415.0349,N,08107.7421,W,1,11,1.5,18,M,,M,,*6A
06/12/2015	20:01:35.599	$GPGGA,200136,2415.0338,N,08107.7411,W,1,11,1.3,18,M,,M,,*6A
06/12/2015	20:01:36.579	$GPGGA,200137,2415.0325,N,08107.7400,W,1,11,1.3,18,M,,M,,*67
06/12/2015	20:01:37.589	$GPGGA,200138,2415.0314,N,08107.7389,W,1,10,1.4,18,M,,M,,*6A
06/12/2015	20:01:38.569	$GPGGA,200139,2415.0304,N,08107.7379,W,1,10,1.5,18,M,,M,,*64
06/12/2015	20:01:39.579	$GPGGA,200140,2415.0291,N,08107.7368,W,1,11,1.3,18,M,,M,,*60
06/12/2015	20:01:40.569	$GPGGA,200141,2415.0278,N,08107.7357,W,1,11,1.4,18,M,,M,,*6D
06/12/2015	20:01:41.579	$GPGGA,200142,2415.0270,N,08107.7347,W,1,11,1.3,18,M,,M,,*60
06/12/2015	20:01:42.558	$GPGGA,200143,2415.0260,N,08107.7337,W,1,11,1.3,18,M,,M,,*67
06/12/2015	20:01:43.598	$GPGGA,200144,2415.0248,N,08107.7327,W,1,11,1.3,18,M,,M,,*6B
06/12/2015	20:01:44.558	$GPGGA,200145,2415.0237,N,08107.7316,W,1,11,1.3,18,M,,M,,*60
06/12/2015	20:01:45.558	$GPGGA,200146,2415.0226,N,08107.7304,W,1,10,1.4,18,M,,M,,*66
06/12/2015	20:01:46.558	$GPGGA,200147,2415.0217,N,08107.7293,W,1,10,1.4,18,M,,M,,*6A
06/12/2015	20:01:47.578	$GPGGA,200148,2415.0208,N,08107.7285,W,1,11,1.3,18,M,,M,,*6A
06/12/2015	20:01:48.568	$GPGGA,200149,2415.0197,N,08107.7273,W,1,11,1.4,18,M,,M,,*60
06/12/2015	20:01:49.568	$GPGGA,200150,2415.0187,N,08107.7263,W,1,11,1.3,18,M,,M,,*6F
06/12/2015	20:01:50.538	$GPGGA,200151,2415.0176,N,08107.7255,W,1,11,2.1,18,M,,M,,*64
06/12/2015	20:01:51.578	$GPGGA,200152,2415.0163,N,08107.7246,W,1,10,1.5,18,M,,M,,*67
06/12/2015	20:01:52.541	$GPGGA,200153,2415.0154,N,08107.7235,W,1,10,1.3,18,M,,M,,*60
06/12/2015	20:01:53.542	$GPGGA,200154,2415.0147,N,08107.7226,W,1,11,1.3,18,M,,M,,*66
06/12/2015	20:01:54.549	$GPGGA,200155,2415.0135,N,08107.7215,W,1,11,1.3,19,M,,M,,*63
06/12/2015	20:01:55.549	$GPGGA,200156,2415.0125,N,08107.7205,W,1,11,1.3,19,M,,M,,*60
06/12/2015	20:01:56.531	$GPGGA,200157,2415.0116,N,08107.7197,W,1,11,1.3,19,M,,M,,*69
06/12/2015	20:01:57.539	$GPGGA,200158,2415.0107,N,08107.7188,W,1,11,1.3,19,M,,M,,*68
06/12/2015	20:01:58.539	$GPGGA,200159,2415.0096,N,08107.7177,W,1,11,1.3,19,M,,M,,*60
06/12/2015	20:01:59.548	$GPGGA,200200,2415.0085,N,08107.7167,W,1,10,1.5,19,M,,M,,*6B
06/12/2015	20:02:00.530	$GPGGA,200201,2415.0072,N,08107.7158,W,1,10,1.4,19,M,,M,,*6F
06/12/2015	20:02:01.639	$GPGGA,200202,2415.0062,N,08107.7151,W,1,10,1.4,19,M,,M,,*64
06/12/2015	20:02:02.545	$GPGGA,200203,2415.0052,N,08107.7141,W,1,10,1.3,19,M,,M,,*60
06/12/2015	20:02:03.558	$GPGGA,200204,2415.0042,N,08107.7130,W,1,11,1.3,19,M,,M,,*61
06/12/2015	20:02:04.609	$GPGGA,200205,2415.0033,N,08107.7120,W,1,11,1.3,19,M,,M,,*67
06/12/2015	20:02:05.632	$GPGGA,200206,2415.0020,N,08107.7111,W,1,11,1.3,19,M,,M,,*64
06/12/2015	20:02:06.518	$GPGGA,200207,2415.0009,N,08107.7101,W,1,11,1.4,19,M,,M,,*68
06/12/2015	20:02:07.648	$GPGGA,200208,2415.0000,N,08107.7091,W,1,11,1.3,19,M,,M,,*61
06/12/2015	20:02:08.608	$GPGGA,200209,2414.9991,N,08107.7079,W,1,11,1.3,19,M,,M,,*6F
06/12/2015	20:02:09.598	$GPGGA,200210,2414.9978,N,08107.7069,W,1,11,1.3,19,M,,M,,*61
06/12/2015	20:02:10.509	$GPGGA,200211,2414.9967,N,08107.7060,W,1,11,1.3,19,M,,M,,*67
06/12/2015	20:02:11.634	$GPGGA,200212,2414.9957,N,08107.7049,W,1,11,1.3,19,M,,M,,*6C
06/12/2015	20:02:12.599	$GPGGA,200213,2414.9948,N,08107.7037,W,1,11,1.3,19,M,,M,,*6A
06/12/2015	20:02:13.589	$GPGGA,200214,2414.9937,N,08107.7028,W,1,11,1.3,19,M,,M,,*6B
06/12/2015	20:02:14.589	$GPGGA,200215,2414.9926,N,08107.7018,W,1,11,1.3,19,M,,M,,*69
06/12/2015	20:02:15.599	$GPGGA,200216,2414.9915,N,08107.7006,W,1,11,1.3,19,M,,M,,*65
06/12/2015	20:02:16.589	$GPGGA,200217,2414.9905,N,08107.6993,W,1,11,1.3,19,M,,M,,*61
06/12/2015	20:02:17.608	$GPGGA,200218,2414.9895,N,08107.6984,W,1,11,1.3,19,M,,M,,*60
06/12/2015	20:02:18.578	$GPGGA,200219,2414.9884,N,08107.6974,W,1,11,1.3,19,M,,M,,*6E
06/12/2015	20:02:19.588	$GPGGA,200220,2414.9874,N,08107.6961,W,1,11,1.3,19,M,,M,,*6F
06/12/2015	20:02:20.578	$GPGGA,200221,2414.9862,N,08107.6950,W,1,11,1.3,20,M,,M,,*61
06/12/2015	20:02:21.598	$GPGGA,200222,2414.9852,N,08107.6941,W,1,11,1.3,20,M,,M,,*61
06/12/2015	20:02:22.578	$GPGGA,200223,2414.9844,N,08107.6930,W,1,11,1.3,20,M,,M,,*61
06/12/2015	20:02:23.618	$GPGGA,200224,2414.9833,N,08107.6917,W,1,11,1.3,20,M,,M,,*63
06/12/2015	20:02:24.578	$GPGGA,200225,2414.9823,N,08107.6907,W,1,11,1.3,20,M,,M,,*62
06/12/2015	20:02:25.558	$GPGGA,200226,2414.9812,N,08107.6899,W,1,11,1.3,20,M,,M,,*65
06/12/2015	20:02:26.568	$GPGGA,200227,2414.9803,N,08107.6886,W,1,11,1.3,20,M,,M,,*6A
06/12/2015	20:02:27.568	$GPGGA,200228,2414.9796,N,08107.6873,W,1,11,1.3,20,M,,M,,*6C
06/12/2015	20:02:28.559	$GPGGA,200229,2414.9783,N,08107.6864,W,1,11,1.4,20,M,,M,,*68
06/12/2015	20:02:29.579	$GPGGA,200230,2414.9772,N,08107.6853,W,1,11,1.3,19,M,,M,,*67
06/12/2015	20:02:30.559	$GPGGA,200231,2414.9761,N,08107.6839,W,1,11,1.4,19,M,,M,,*6F
06/12/2015	20:02:31.559	$GPGGA,200232,2414.9751,N,08107.6829,W,1,10,1.4,19,M,,M,,*6F
06/12/2015	20:02:32.545	$GPGGA,200233,2414.9742,N,08107.6819,W,1,10,1.3,19,M,,M,,*68
06/12/2015	20:02:33.849	$GPGGA,200234,2414.9731,N,08107.6807,W,1,11,1.3,19,M,,M,,*65
06/12/2015	20:02:34.545	$GPGGA,200235,2414.9721,N,08107.6796,W,1,11,1.3,19,M,,M,,*62
06/12/2015	20:02:35.568	$GPGGA,200236,2414.9711,N,08107.6786,W,1,11,1.3,19,M,,M,,*63
06/12/2015	20:02:36.543	$GPGGA,200237,2414.9700,N,08107.6774,W,1,11,1.3,19,M,,M,,*6F
06/12/2015	20:02:37.578	$GPGGA,200238,2414.9691,N,08107.6761,W,1,11,1.3,19,M,,M,,*6D
06/12/2015	20:02:38.546	$GPGGA,200239,2414.9681,N,08107.6751,W,1,11,1.3,19,M,,M,,*6E
06/12/2015	20:02:39.548	$GPGGA,200240,2414.9668,N,08107.6741,W,1,11,1.3,19,M,,M,,*66
06/12/2015	20:02:40.548	$GPGGA,200241,2414.9657,N,08107.6729,W,1,11,1.3,19,M,,M,,*65
06/12/2015	20:02:41.532	$GPGGA,200242,2414.9649,N,08107.6717,W,1,11,1.3,19,M,,M,,*64
06/12/2015	20:02:42.545	$GPGGA,200243,2414.9637,N,08107.6707,W,1,11,1.3,19,M,,M,,*6D
06/12/2015	20:02:43.530	$GPGGA,200244,2414.9626,N,08107.6696,W,1,11,1.3,19,M,,M,,*63
06/12/2015	20:02:44.618	$GPGGA,200245,2414.9615,N,08107.6683,W,1,11,1.3,19,M,,M,,*66
06/12/2015	20:02:45.544	$GPGGA,200246,2414.9606,N,08107.6672,W,1,11,1.3,19,M,,M,,*69
06/12/2015	20:02:46.619	$GPGGA,200247,2414.9594,N,08107.6662,W,1,11,1.3,19,M,,M,,*61
06/12/2015	20:02:47.679	$GPGGA,200248,2414.9583,N,08107.6649,W,1,11,1.4,19,M,,M,,*66
06/12/2015	20:02:48.519	$GPGGA,200249,2414.9572,N,08107.6637,W,1,11,1.4,19,M,,M,,*60
06/12/2015	20:02:49.659	$GPGGA,200250,2414.9561,N,08107.6627,W,1,11,1.3,19,M,,M,,*6C
06/12/2015	20:02:50.619	$GPGGA,200251,2414.9550,N,08107.6615,W,1,11,1.3,19,M,,M,,*6E
06/12/2015	20:02:51.668	$GPGGA,200252,2414.9538,N,08107.6603,W,1,11,1.6,19,M,,M,,*61
06/12/2015	20:02:52.598	$GPGGA,200253,2414.9529,N,08107.6591,W,1,11,1.3,19,M,,M,,*6D
06/12/2015	20:02:53.530	$GPGGA,200254,2414.9519,N,08107.6583,W,1,11,1.3,19,M,,M,,*6A
06/12/2015	20:02:54.598	$GPGGA,200255,2414.9509,N,08107.6575,W,1,11,1.3,19,M,,M,,*63
06/12/2015	20:02:55.518	$GPGGA,200256,2414.9500,N,08107.6564,W,1,11,1.3,19,M,,M,,*69
06/12/2015	20:02:56.508	$GPGGA,200257,2414.9490,N,08107.6553,W,1,11,1.3,19,M,,M,,*64
06/12/2015	20:02:57.599	$GPGGA,200258,2414.9480,N,08107.6546,W,1,9,1.3,19,M,,M,,*57
06/12/2015	20:02:58.598	$GPGGA,200259,2414.9471,N,08107.6536,W,1,9,1.4,19,M,,M,,*58
06/12/2015	20:02:59.518	$GPGGA,200300,2414.9460,N,08107.6525,W,1,10,1.4,19,M,,M,,*6F
06/12/2015	20:03:00.508	$GPGGA,200301,2414.9450,N,08107.6515,W,1,10,1.3,19,M,,M,,*69
06/12/2015	20:03:01.578	$GPGGA,200302,2414.9438,N,08107.6504,W,1,8,1.3,19,M,,M,,*5D
06/12/2015	20:03:02.588	$GPGGA,200303,2414.9428,N,08107.6495,W,1,8,1.4,19,M,,M,,*53
06/12/2015	20:03:03.629	$GPGGA,200304,2414.9418,N,08107.6485,W,1,10,1.4,19,M,,M,,*6F
06/12/2015	20:03:04.589	$GPGGA,200305,2414.9406,N,08107.6474,W,1,10,1.4,19,M,,M,,*6F
06/12/2015	20:03:05.599	$GPGGA,200306,2414.9395,N,08107.6465,W,1,10,1.4,19,M,,M,,*61
06/12/2015	20:03:06.579	$GPGGA,200307,2414.9388,N,08107.6457,W,1,10,1.3,19,M,,M,,*6A
06/12/2015	20:03:07.609	$GPGGA,200308,2414.9377,N,08107.6446,W,1,11,1.3,19,M,,M,,*64
06/12/2015	20:03:08.579	$GPGGA,200309,2414.9367,N,08107.6437,W,1,11,1.4,19,M,,M,,*65
06/12/2015	20:03:09.608	$GPGGA,200310,2414.9357,N,08107.6429,W,1,10,1.3,19,M,,M,,*67
06/12/2015	20:03:10.578	$GPGGA,200311,2414.9348,N,08107.6418,W,1,10,1.3,19,M,,M,,*6A
06/12/2015	20:03:11.640	$GPGGA,200312,2414.9337,N,08107.6406,W,1,11,1.3,19,M,,M,,*6F
06/12/2015	20:03:12.568	$GPGGA,200313,2414.9324,N,08107.6397,W,1,11,1.4,19,M,,M,,*64
06/12/2015	20:03:13.589	$GPGGA,200314,2414.9312,N,08107.6387,W,1,10,1.3,19,M,,M,,*61
06/12/2015	20:03:14.558	$GPGGA,200315,2414.9301,N,08107.6374,W,1,10,1.4,19,M,,M,,*69
06/12/2015	20:03:15.588	$GPGGA,200316,2414.9290,N,08107.6363,W,1,10,1.4,19,M,,M,,*65
06/12/2015	20:03:16.548	$GPGGA,200317,2414.9279,N,08107.6356,W,1,10,1.3,19,M,,M,,*62
06/12/2015	20:03:17.578	$GPGGA,200318,2414.9268,N,08107.6346,W,1,11,1.4,19,M,,M,,*6A
06/12/2015	20:03:18.558	$GPGGA,200319,2414.9258,N,08107.6334,W,1,11,1.3,19,M,,M,,*6A
06/12/2015	20:03:19.588	$GPGGA,200320,2414.9247,N,08107.6326,W,1,11,1.4,19,M,,M,,*6A
06/12/2015	20:03:20.549	$GPGGA,200321,2414.9237,N,08107.6318,W,1,11,1.3,19,M,,M,,*66
06/12/2015	20:03:21.549	$GPGGA,200322,2414.9226,N,08107.6307,W,1,11,1.4,19,M,,M,,*6C
06/12/2015	20:03:22.549	$GPGGA,200323,2414.9215,N,08107.6297,W,1,11,1.4,19,M,,M,,*65
06/12/2015	20:03:23.579	$GPGGA,200324,2414.9204,N,08107.6289,W,1,10,1.4,19,M,,M,,*6C
06/12/2015	20:03:24.549	$GPGGA,200325,2414.9193,N,08107.6277,W,1,10,1.3,19,M,,M,,*66
06/12/2015	20:03:25.569	$GPGGA,200326,2414.9182,N,08107.6266,W,1,11,1.3,19,M,,M,,*64
06/12/2015	20:03:26.542	$GPGGA,200327,2414.9171,N,08107.6260,W,1,11,1.3,19,M,,M,,*6F
06/12/2015	20:03:27.598	$GPGGA,200328,2414.9160,N,08107.6251,W,1,11,1.3,19,M,,M,,*62
06/12/2015	20:03:28.545	$GPGGA,200329,2414.9149,N,08107.6238,W,1,11,1.4,19,M,,M,,*60
06/12/2015	20:03:29.541	$GPGGA,200330,2414.9139,N,08107.6225,W,1,10,1.3,19,M,,M,,*65
06/12/2015	20:03:30.558	$GPGGA,200331,2414.9129,N,08107.6219,W,1,10,1.3,19,M,,M,,*6A
06/12/2015	20:03:31.578	$GPGGA,200332,2414.9118,N,08107.6211,W,1,11,1.3,19,M,,M,,*62
06/12/2015	20:03:32.640	$GPGGA,200333,2414.9108,N,08107.6199,W,1,11,1.3,19,M,,M,,*61
06/12/2015	20:03:33.630	$GPGGA,200334,2414.9101,N,08107.6186,W,1,11,1.3,19,M,,M,,*61
06/12/2015	20:03:34.547	$GPGGA,200335,2414.9091,N,08107.6179,W,1,11,1.3,19,M,,M,,*68
06/12/2015	20:03:35.578	$GPGGA,200336,2414.9081,N,08107.6172,W,1,11,1.3,19,M,,M,,*61
06/12/2015	20:03:36.544	$GPGGA,200337,2414.9072,N,08107.6160,W,1,11,1.3,19,M,,M,,*6F
06/12/2015	20:03:37.628	$GPGGA,200338,2414.9066,N,08107.6149,W,1,11,1.3,19,M,,M,,*6E
06/12/2015	20:03:38.599	$GPGGA,200339,2414.9056,N,08107.6142,W,1,11,1.3,19,M,,M,,*67
06/12/2015	20:03:39.659	$GPGGA,200340,2414.9046,N,08107.6132,W,1,11,1.3,19,M,,M,,*6F
06/12/2015	20:03:40.599	$GPGGA,200341,2414.9038,N,08107.6120,W,1,11,1.4,19,M,,M,,*63
06/12/2015	20:03:41.629	$GPGGA,200342,2414.9030,N,08107.6110,W,1,10,1.4,19,M,,M,,*6A
06/12/2015	20:03:42.599	$GPGGA,200343,2414.9020,N,08107.6100,W,1,10,1.3,19,M,,M,,*6C
06/12/2015	20:03:43.619	$GPGGA,200344,2414.9012,N,08107.6089,W,1,11,1.3,19,M,,M,,*6B
06/12/2015	20:03:44.608	$GPGGA,200345,2414.9003,N,08107.6078,W,1,11,1.3,19,M,,M,,*64
06/12/2015	20:03:45.498	$GPGGA,200346,2414.8994,N,08107.6066,W,1,11,1.4,19,M,,M,,*69
06/12/2015	20:03:46.588	$GPGGA,200347,2414.8984,N,08107.6054,W,1,11,1.3,19,M,,M,,*6F
06/12/2015	20:03:47.618	$GPGGA,200348,2414.8976,N,08107.6044,W,1,11,1.3,19,M,,M,,*6C
06/12/2015	20:03:48.588	$GPGGA,200349,2414.8965,N,08107.6032,W,1,11,1.3,19,M,,M,,*6E
06/12/2015	20:03:49.598	$GPGGA,200350,2414.8955,N,08107.6020,W,1,11,1.3,19,M,,M,,*66
06/12/2015	20:03:50.578	$GPGGA,200351,2414.8947,N,08107.6010,W,1,11,1.3,19,M,,M,,*67
06/12/2015	20:03:51.642	$GPGGA,200352,2414.8936,N,08107.5998,W,1,11,1.3,19,M,,M,,*68
06/12/2015	20:03:52.588	$GPGGA,200353,2414.8926,N,08107.5985,W,1,11,1.3,19,M,,M,,*64
06/12/2015	20:03:53.598	$GPGGA,200354,2414.8916,N,08107.5975,W,1,11,1.3,19,M,,M,,*6F
06/12/2015	20:03:54.578	$GPGGA,200355,2414.8906,N,08107.5963,W,1,11,1.3,19,M,,M,,*68
06/12/2015	20:03:55.619	$GPGGA,200356,2414.8897,N,08107.5950,W,1,11,1.3,19,M,,M,,*62
06/12/2015	20:03:56.569	$GPGGA,200357,2414.8887,N,08107.5938,W,1,11,1.3,19,M,,M,,*6C
06/12/2015	20:03:57.559	$GPGGA,200358,2414.8876,N,08107.5928,W,1,11,1.3,19,M,,M,,*6C
06/12/2015	20:03:58.559	$GPGGA,200359,2414.8865,N,08107.5915,W,1,11,1.3,19,M,,M,,*61
06/12/2015	20:03:59.599	$GPGGA,200400,2414.8857,N,08107.5902,W,1,11,1.3,19,M,,M,,*6D
06/12/2015	20:04:00.569	$GPGGA,200401,2414.8846,N,08107.5892,W,1,11,1.4,19,M,,M,,*63
06/12/2015	20:04:01.858	$GPGGA,200402,2414.8835,N,08107.5881,W,1,11,1.3,19,M,,M,,*61
06/12/2015	20:04:02.568	$GPGGA,200403,2414.8824,N,08107.5867,W,1,11,1.3,19,M,,M,,*68
06/12/2015	20:04:03.598	$GPGGA,200404,2414.8810,N,08107.5857,W,1,9,1.8,19,M,,M,,*59
06/12/2015	20:04:04.558	$GPGGA,200405,2414.8799,N,08107.5849,W,1,9,1.3,19,M,,M,,*52
06/12/2015	20:04:05.548	$GPGGA,200406,2414.8788,N,08107.5837,W,1,11,1.3,19,M,,M,,*61
06/12/2015	20:04:06.558	$GPGGA,200407,2414.8774,N,08107.5826,W,1,11,1.3,19,M,,M,,*63
06/12/2015	20:04:07.588	$GPGGA,200408,2414.8763,N,08107.5817,W,1,10,1.4,19,M,,M,,*6E
06/12/2015	20:04:08.558	$GPGGA,200409,2414.8752,N,08107.5805,W,1,10,1.3,19,M,,M,,*69
06/12/2015	20:04:09.543	$GPGGA,200410,2414.8742,N,08107.5793,W,1,11,1.3,19,M,,M,,*61
06/12/2015	20:04:10.548	$GPGGA,200411,2414.8730,N,08107.5786,W,1,11,1.5,19,M,,M,,*67
06/12/2015	20:04:11.588	$GPGGA,200412,2414.8718,N,08107.5775,W,1,10,1.4,19,M,,M,,*62
06/12/2015	20:04:12.548	$GPGGA,200413,2414.8709,N,08107.5760,W,1,10,1.3,19,M,,M,,*60
06/12/2015	20:04:13.539	$GPGGA,200414,2414.8699,N,08107.5750,W,1,9,1.8,19,M,,M,,*5F
06/12/2015	20:04:14.529	$GPGGA,200415,2414.8685,N,08107.5741,W,1,9,1.3,19,M,,M,,*58
06/12/2015	20:04:15.569	$GPGGA,200416,2414.8676,N,08107.5732,W,1,11,1.3,19,M,,M,,*6A
06/12/2015	20:04:16.539	$GPGGA,200417,2414.8667,N,08107.5719,W,1,11,1.3,19,M,,M,,*62
06/12/2015	20:04:17.539	$GPGGA,200418,2414.8654,N,08107.5707,W,1,11,1.3,19,M,,M,,*62
06/12/2015	20:04:18.519	$GPGGA,200419,2414.8644,N,08107.5699,W,1,11,1.4,19,M,,M,,*63
06/12/2015	20:04:19.558	$GPGGA,200420,2414.8636,N,08107.5689,W,1,11,1.3,19,M,,M,,*6A
06/12/2015	20:04:20.518	$GPGGA,200421,2414.8624,N,08107.5677,W,1,11,1.3,19,M,,M,,*69
06/12/2015	20:04:21.648	$GPGGA,200422,2414.8613,N,08107.5665,W,1,11,1.3,19,M,,M,,*6D
06/12/2015	20:04:22.528	$GPGGA,200423,2414.8604,N,08107.5656,W,1,11,1.3,19,M,,M,,*6A
06/12/2015	20:04:23.539	$GPGGA,200424,2414.8593,N,08107.5645,W,1,11,1.3,19,M,,M,,*62
06/12/2015	20:04:24.630	$GPGGA,200425,2414.8578,N,08107.5636,W,1,11,1.5,19,M,,M,,*64
06/12/2015	20:04:25.618	$GPGGA,200426,2414.8569,N,08107.5627,W,1,11,1.3,19,M,,M,,*61
06/12/2015	20:04:26.508	$GPGGA,200427,2414.8560,N,08107.5617,W,1,11,1.3,19,M,,M,,*6A
06/12/2015	20:04:27.518	$GPGGA,200428,2414.8548,N,08107.5605,W,1,11,1.3,20,M,,M,,*66
06/12/2015	20:04:28.518	$GPGGA,200429,2414.8536,N,08107.5594,W,1,11,1.3,20,M,,M,,*65
06/12/2015	20:04:29.588	$GPGGA,200430,2414.8526,N,08107.5587,W,1,11,1.3,20,M,,M,,*6E
06/12/2015	20:04:30.599	$GPGGA,200431,2414.8514,N,08107.5576,W,1,11,1.3,20,M,,M,,*60
06/12/2015	20:04:31.609	$GPGGA,200432,2414.8504,N,08107.5564,W,1,10,1.4,20,M,,M,,*67
06/12/2015	20:04:32.599	$GPGGA,200433,2414.8494,N,08107.5555,W,1,10,1.5,20,M,,M,,*6D
06/12/2015	20:04:33.609	$GPGGA,200434,2414.8482,N,08107.5547,W,1,11,1.3,20,M,,M,,*69
06/12/2015	20:04:34.599	$GPGGA,200435,2414.8471,N,08107.5535,W,1,11,1.3,20,M,,M,,*61
06/12/2015	20:04:35.629	$GPGGA,200436,2414.8460,N,08107.5525,W,1,11,1.3,20,M,,M,,*63
06/12/2015	20:04:36.588	$GPGGA,200437,2414.8450,N,08107.5516,W,1,11,1.4,20,M,,M,,*66
06/12/2015	20:04:37.598	$GPGGA,200438,2414.8439,N,08107.5505,W,1,11,1.3,20,M,,M,,*63
06/12/2015	20:04:38.588	$GPGGA,200439,2414.8427,N,08107.5493,W,1,11,1.4,20,M,,M,,*64
06/12/2015	20:04:39.588	$GPGGA,200440,2414.8416,N,08107.5484,W,1,10,1.4,20,M,,M,,*6F
06/12/2015	20:04:40.588	$GPGGA,200441,2414.8407,N,08107.5473,W,1,10,1.3,20,M,,M,,*61
06/12/2015	20:04:41.568	$GPGGA,200442,2414.8394,N,08107.5460,W,1,11,1.3,20,M,,M,,*6C
06/12/2015	20:04:42.578	$GPGGA,200443,2414.8382,N,08107.5449,W,1,11,1.4,20,M,,M,,*66
06/12/2015	20:04:43.608	$GPGGA,200444,2414.8372,N,08107.5441,W,1,10,1.4,20,M,,M,,*67
06/12/2015	20:04:44.578	$GPGGA,200445,2414.8362,N,08107.5430,W,1,10,1.3,20,M,,M,,*66
06/12/2015	20:04:45.568	$GPGGA,200446,2414.8351,N,08107.5417,W,1,11,1.3,20,M,,M,,*61
06/12/2015	20:04:46.568	$GPGGA,200447,2414.8338,N,08107.5405,W,1,11,1.6,20,M,,M,,*69
06/12/2015	20:04:47.588	$GPGGA,200448,2414.8326,N,08107.5396,W,1,11,1.3,20,M,,M,,*61
06/12/2015	20:04:48.559	$GPGGA,200449,2414.8316,N,08107.5388,W,1,11,1.4,20,M,,M,,*6B
06/12/2015	20:04:49.579	$GPGGA,200450,2414.8305,N,08107.5375,W,1,11,1.3,20,M,,M,,*64
06/12/2015	20:04:50.569	$GPGGA,200451,2414.8297,N,08107.5362,W,1,11,1.4,20,M,,M,,*6E
06/12/2015	20:04:51.559	$GPGGA,200452,2414.8286,N,08107.5353,W,1,11,1.3,20,M,,M,,*68
06/12/2015	20:04:52.549	$GPGGA,200453,2414.8272,N,08107.5341,W,1,11,1.4,20,M,,M,,*66
06/12/2015	20:04:53.541	$GPGGA,200454,2414.8262,N,08107.5330,W,1,10,1.4,21,M,,M,,*66
06/12/2015	20:04:54.548	$GPGGA,200455,2414.8251,N,08107.5319,W,1,10,1.4,21,M,,M,,*6C
06/12/2015	20:04:55.568	$GPGGA,200456,2414.8241,N,08107.5309,W,1,10,1.4,21,M,,M,,*6F
06/12/2015	20:04:56.539	$GPGGA,200457,2414.8233,N,08107.5299,W,1,10,1.3,21,M,,M,,*64
06/12/2015	20:04:57.541	$GPGGA,200458,2414.8223,N,08107.5289,W,1,11,1.3,21,M,,M,,*6A
06/12/2015	20:04:58.538	$GPGGA,200459,2414.8212,N,08107.5278,W,1,11,1.3,21,M,,M,,*67
06/12/2015	20:04:59.588	$GPGGA,200500,2414.8203,N,08107.5266,W,1,11,1.3,20,M,,M,,*64
06/12/2015	20:05:00.529	$GPGGA,200501,2414.8194,N,08107.5255,W,1,11,1.3,20,M,,M,,*68
06/12/2015	20:05:01.538	$GPGGA,200502,2414.8185,N,08107.5245,W,1,11,1.3,20,M,,M,,*6A
06/12/2015	20:05:02.548	$GPGGA,200503,2414.8174,N,08107.5234,W,1,11,1.3,20,M,,M,,*63
06/12/2015	20:05:03.638	$GPGGA,200504,2414.8164,N,08107.5223,W,1,11,1.3,20,M,,M,,*63
06/12/2015	20:05:04.524	$GPGGA,200505,2414.8154,N,08107.5211,W,1,11,1.3,20,M,,M,,*60
06/12/2015	20:05:05.538	$GPGGA,200506,2414.8145,N,08107.5200,W,1,11,1.3,20,M,,M,,*63
06/12/2015	20:05:06.521	$GPGGA,200507,2414.8134,N,08107.5188,W,1,11,1.3,20,M,,M,,*67
06/12/2015	20:05:07.638	$GPGGA,200508,2414.8124,N,08107.5177,W,1,11,1.3,20,M,,M,,*69
06/12/2015	20:05:08.522	$GPGGA,200509,2414.8114,N,08107.5166,W,1,11,1.3,20,M,,M,,*6B
06/12/2015	20:05:09.608	$GPGGA,200510,2414.8102,N,08107.5152,W,1,11,1.3,20,M,,M,,*63
06/12/2015	20:05:10.508	$GPGGA,200511,2414.8092,N,08107.5141,W,1,11,1.3,20,M,,M,,*68
06/12/2015	20:05:11.637	$GPGGA,200512,2414.8083,N,08107.5131,W,1,11,1.3,20,M,,M,,*6C
06/12/2015	20:05:12.533	$GPGGA,200513,2414.8073,N,08107.5120,W,1,11,1.3,20,M,,M,,*62
06/12/2015	20:05:13.617	$GPGGA,200514,2414.8059,N,08107.5109,W,1,10,1.5,20,M,,M,,*61
06/12/2015	20:05:14.607	$GPGGA,200515,2414.8051,N,08107.5097,W,1,10,1.3,20,M,,M,,*68
06/12/2015	20:05:15.637	$GPGGA,200516,2414.8041,N,08107.5087,W,1,11,1.3,20,M,,M,,*6A
06/12/2015	20:05:16.598	$GPGGA,200517,2414.8029,N,08107.5077,W,1,11,1.3,20,M,,M,,*6A
06/12/2015	20:05:17.598	$GPGGA,200518,2414.8020,N,08107.5067,W,1,11,1.3,20,M,,M,,*6D
06/12/2015	20:05:18.498	$GPGGA,200519,2414.8010,N,08107.5053,W,1,11,1.3,20,M,,M,,*68
06/12/2015	20:05:19.619	$GPGGA,200520,2414.8000,N,08107.5045,W,1,10,1.4,20,M,,M,,*62
06/12/2015	20:05:20.588	$GPGGA,200521,2414.7991,N,08107.5036,W,1,10,1.4,20,M,,M,,*69
06/12/2015	20:05:21.608	$GPGGA,200522,2414.7981,N,08107.5024,W,1,11,1.3,20,M,,M,,*6E
06/12/2015	20:05:22.588	$GPGGA,200523,2414.7969,N,08107.5012,W,1,11,1.4,20,M,,M,,*6B
06/12/2015	20:05:23.608	$GPGGA,200524,2414.7958,N,08107.4999,W,1,11,1.3,20,M,,M,,*62
06/12/2015	20:05:24.568	$GPGGA,200525,2414.7948,N,08107.4989,W,1,11,1.3,20,M,,M,,*63
06/12/2015	20:05:25.568	$GPGGA,200526,2414.7937,N,08107.4983,W,1,11,1.3,20,M,,M,,*62
06/12/2015	20:05:26.588	$GPGGA,200527,2414.7928,N,08107.4971,W,1,11,1.3,20,M,,M,,*60
06/12/2015	20:05:27.588	$GPGGA,200528,2414.7919,N,08107.4957,W,1,11,1.3,20,M,,M,,*69
06/12/2015	20:05:28.568	$GPGGA,200529,2414.7910,N,08107.4950,W,1,11,1.6,20,M,,M,,*63
06/12/2015	20:05:29.567	$GPGGA,200530,2414.7899,N,08107.4943,W,1,11,1.3,20,M,,M,,*6C
06/12/2015	20:05:30.557	$GPGGA,200531,2414.7890,N,08107.4932,W,1,11,1.4,20,M,,M,,*65
06/12/2015	20:05:31.598	$GPGGA,200532,2414.7882,N,08107.4922,W,1,11,1.3,20,M,,M,,*63
06/12/2015	20:05:32.547	$GPGGA,200533,2414.7870,N,08107.4909,W,1,11,1.3,20,M,,M,,*66
06/12/2015	20:05:33.548	$GPGGA,200534,2414.7859,N,08107.4901,W,1,11,1.3,20,M,,M,,*62
06/12/2015	20:05:34.558	$GPGGA,200535,2414.7849,N,08107.4892,W,1,11,1.3,20,M,,M,,*69
06/12/2015	20:05:35.578	$GPGGA,200536,2414.7838,N,08107.4879,W,1,10,1.4,20,M,,M,,*6F
06/12/2015	20:05:36.548	$GPGGA,200537,2414.7831,N,08107.4870,W,1,10,1.3,20,M,,M,,*69
06/12/2015	20:05:37.578	$GPGGA,200538,2414.7818,N,08107.4861,W,1,11,1.3,20,M,,M,,*6C
06/12/2015	20:05:38.535	$GPGGA,200539,2414.7807,N,08107.4851,W,1,11,1.4,20,M,,M,,*67
06/12/2015	20:05:39.558	$GPGGA,200540,2414.7799,N,08107.4842,W,1,11,1.3,20,M,,M,,*64
06/12/2015	20:05:40.537	$GPGGA,200541,2414.7789,N,08107.4833,W,1,11,1.3,20,M,,M,,*62
06/12/2015	20:05:41.568	$GPGGA,200542,2414.7780,N,08107.4822,W,1,11,1.3,20,M,,M,,*68
06/12/2015	20:05:42.538	$GPGGA,200543,2414.7769,N,08107.4811,W,1,11,1.3,20,M,,M,,*6E
06/12/2015	20:05:43.568	$GPGGA,200544,2414.7759,N,08107.4802,W,1,10,1.4,20,M,,M,,*6E
06/12/2015	20:05:44.539	$GPGGA,200545,2414.7747,N,08107.4791,W,1,10,1.3,20,M,,M,,*62
06/12/2015	20:05:45.539	$GPGGA,200546,2414.7737,N,08107.4778,W,1,10,1.4,20,M,,M,,*66
06/12/2015	20:05:46.539	$GPGGA,200547,2414.7727,N,08107.4767,W,1,10,1.4,20,M,,M,,*68
06/12/2015	20:05:47.538	$GPGGA,200548,2414.7715,N,08107.4757,W,1,11,1.3,20,M,,M,,*63
06/12/2015	20:05:48.520	$GPGGA,200549,2414.7704,N,08107.4745,W,1,11,1.4,20,M,,M,,*66
06/12/2015	20:05:49.538	$GPGGA,200550,2414.7695,N,08107.4733,W,1,10,1.4,20,M,,M,,*67
06/12/2015	20:05:50.517	$GPGGA,200551,2414.7686,N,08107.4721,W,1,10,1.3,20,M,,M,,*60
06/12/2015	20:05:51.722	$GPGGA,200552,2414.7672,N,08107.4711,W,1,10,1.3,20,M,,M,,*6B
06/12/2015	20:05:52.558	$GPGGA,200553,2414.7661,N,08107.4699,W,1,10,1.3,20,M,,M,,*69
06/12/2015	20:05:53.519	$GPGGA,200554,2414.7650,N,08107.4685,W,1,11,1.3,20,M,,M,,*60
06/12/2015	20:05:54.520	$GPGGA,200555,2414.7641,N,08107.4674,W,1,11,1.3,20,M,,M,,*6F
06/12/2015	20:05:55.531	$GPGGA,200556,2414.7628,N,08107.4665,W,1,10,1.3,20,M,,M,,*62
06/12/2015	20:05:56.598	$GPGGA,200557,2414.7618,N,08107.4653,W,1,10,1.4,20,M,,M,,*62
06/12/2015	20:05:57.708	$GPGGA,200558,2414.7608,N,08107.4641,W,1,10,1.3,20,M,,M,,*68
06/12/2015	20:05:58.523	$GPGGA,200559,2414.7597,N,08107.4631,W,1,10,1.3,20,M,,M,,*6B
06/12/2015	20:05:59.708	$GPGGA,200600,2414.7587,N,08107.4621,W,1,11,1.3,20,M,,M,,*65
06/12/2015	20:06:00.636	$GPGGA,200601,2414.7578,N,08107.4607,W,1,11,1.3,20,M,,M,,*60
06/12/2015	20:06:01.688	$GPGGA,200602,2414.7567,N,08107.4597,W,1,11,1.3,20,M,,M,,*67
06/12/2015	20:06:02.618	$GPGGA,200603,2414.7558,N,08107.4590,W,1,11,1.3,20,M,,M,,*6D
06/12/2015	20:06:03.688	$GPGGA,200604,2414.7546,N,08107.4577,W,1,11,1.4,20,M,,M,,*6B
06/12/2015	20:06:04.618	$GPGGA,200605,2414.7538,N,08107.4562,W,1,11,1.4,20,M,,M,,*67
06/12/2015	20:06:05.667	$GPGGA,200606,2414.7529,N,08107.4552,W,1,11,1.3,20,M,,M,,*60
06/12/2015	20:06:06.597	$GPGGA,200607,2414.7516,N,08107.4542,W,1,11,1.3,19,M,,M,,*66
06/12/2015	20:06:07.697	$GPGGA,200608,2414.7506,N,08107.4531,W,1,11,1.3,19,M,,M,,*6C
06/12/2015	20:06:08.578	$GPGGA,200609,2414.7497,N,08107.4518,W,1,11,1.3,19,M,,M,,*6F
06/12/2015	20:06:09.678	$GPGGA,200610,2414.7486,N,08107.4506,W,1,9,1.6,19,M,,M,,*54
06/12/2015	20:06:10.568	$GPGGA,200611,2414.7477,N,08107.4495,W,1,9,1.3,19,M,,M,,*55
06/12/2015	20:06:11.688	$GPGGA,200612,2414.7466,N,08107.4483,W,1,10,1.3,19,M,,M,,*69
06/12/2015	20:06:12.598	$GPGGA,200613,2414.7455,N,08107.4471,W,1,10,1.3,19,M,,M,,*65
06/12/2015	20:06:13.628	$GPGGA,200614,2414.7445,N,08107.4461,W,1,11,1.3,19,M,,M,,*63
06/12/2015	20:06:14.568	$GPGGA,200615,2414.7435,N,08107.4450,W,1,11,1.3,19,M,,M,,*67
06/12/2015	20:06:15.678	$GPGGA,200616,2414.7426,N,08107.4438,W,1,11,1.3,19,M,,M,,*68
06/12/2015	20:06:16.588	$GPGGA,200617,2414.7415,N,08107.4425,W,1,11,1.6,19,M,,M,,*60
06/12/2015	20:06:17.618	$GPGGA,200618,2414.7403,N,08107.4415,W,1,9,1.6,19,M,,M,,*52
06/12/2015	20:06:18.578	$GPGGA,200619,2414.7394,N,08107.4404,W,1,9,1.6,19,M,,M,,*5A
06/12/2015	20:06:19.658	$GPGGA,200620,2414.7383,N,08107.4391,W,1,9,1.6,19,M,,M,,*5D
06/12/2015	20:06:20.588	$GPGGA,200621,2414.7373,N,08107.4380,W,1,9,1.3,19,M,,M,,*56
06/12/2015	20:06:21.627	$GPGGA,200622,2414.7362,N,08107.4372,W,1,11,1.3,19,M,,M,,*61
06/12/2015	20:06:22.577	$GPGGA,200623,2414.7350,N,08107.4359,W,1,11,1.3,19,M,,M,,*68
06/12/2015	20:06:23.557	$GPGGA,200624,2414.7337,N,08107.4344,W,1,10,1.4,19,M,,M,,*64
06/12/2015	20:06:24.577	$GPGGA,200625,2414.7327,N,08107.4335,W,1,10,2.2,19,M,,M,,*67
06/12/2015	20:06:25.598	$GPGGA,200626,2414.7318,N,08107.4326,W,1,10,1.4,19,M,,M,,*6F
06/12/2015	20:06:26.538	$GPGGA,200627,2414.7308,N,08107.4313,W,1,10,1.6,19,M,,M,,*6B
06/12/2015	20:06:27.638	$GPGGA,200628,2414.7297,N,08107.4303,W,1,11,1.3,19,M,,M,,*66
06/12/2015	20:06:28.648	$GPGGA,200629,2414.7286,N,08107.4294,W,1,11,1.3,19,M,,M,,*68
06/12/2015	20:06:29.528	$GPGGA,200630,2414.7278,N,08107.4282,W,1,11,1.3,19,M,,M,,*66
06/12/2015	20:06:30.530	$GPGGA,200631,2414.7267,N,08107.4270,W,1,11,1.3,19,M,,M,,*64
06/12/2015	20:06:31.678	$GPGGA,200632,2414.7253,N,08107.4260,W,1,10,1.3,20,M,,M,,*6A
06/12/2015	20:06:32.568	$GPGGA,200633,2414.7243,N,08107.4250,W,1,10,1.3,20,M,,M,,*69
06/12/2015	20:06:33.638	$GPGGA,200634,2414.7233,N,08107.4236,W,1,11,1.4,20,M,,M,,*6F
06/12/2015	20:06:34.568	$GPGGA,200635,2414.7221,N,08107.4225,W,1,11,1.8,20,M,,M,,*63
06/12/2015	20:06:35.638	$GPGGA,200636,2414.7209,N,08107.4217,W,1,9,1.4,20,M,,M,,*5E
06/12/2015	20:06:36.521	$GPGGA,200637,2414.7199,N,08107.4207,W,1,9,1.4,20,M,,M,,*54
06/12/2015	20:06:37.628	$GPGGA,200638,2414.7186,N,08107.4193,W,1,10,1.3,20,M,,M,,*64
06/12/2015	20:06:38.558	$GPGGA,200639,2414.7175,N,08107.4182,W,1,10,1.4,21,M,,M,,*6F
06/12/2015	20:06:39.627	$GPGGA,200640,2414.7164,N,08107.4174,W,1,10,1.3,21,M,,M,,*6F
06/12/2015	20:06:40.907	$GPGGA,200641,2414.7155,N,08107.4163,W,1,10,1.3,21,M,,M,,*6A
06/12/2015	20:06:41.619	$GPGGA,200642,2414.7143,N,08107.4152,W,1,11,1.3,21,M,,M,,*6D
06/12/2015	20:06:42.607	$GPGGA,200643,2414.7132,N,08107.4144,W,1,11,1.3,21,M,,M,,*6D
06/12/2015	20:06:43.598	$GPGGA,200644,2414.7119,N,08107.4134,W,1,11,1.4,21,M,,M,,*63
06/12/2015	20:06:44.598	$GPGGA,200645,2414.7109,N,08107.4120,W,1,11,1.4,21,M,,M,,*66
06/12/2015	20:06:45.498	$GPGGA,200646,2414.7096,N,08107.4112,W,1,10,1.4,21,M,,M,,*62
06/12/2015	20:06:46.548	$GPGGA,200647,2414.7081,N,08107.4103,W,1,10,1.4,21,M,,M,,*65
06/12/2015	20:06:47.648	$GPGGA,200648,2414.7072,N,08107.4092,W,1,10,1.4,21,M,,M,,*6F
06/12/2015	20:06:48.588	$GPGGA,200649,2414.7061,N,08107.4079,W,1,10,2.7,21,M,,M,,*69
06/12/2015	20:06:49.588	$GPGGA,200650,2414.7047,N,08107.4070,W,1,8,1.4,21,M,,M,,*55
06/12/2015	20:06:50.588	$GPGGA,200651,2414.7037,N,08107.4060,W,1,8,1.4,21,M,,M,,*52
06/12/2015	20:06:51.598	$GPGGA,200652,2414.7029,N,08107.4049,W,1,10,1.4,21,M,,M,,*6C
06/12/2015	20:06:52.535	$GPGGA,200653,2414.7018,N,08107.4038,W,1,10,1.4,21,M,,M,,*69
06/12/2015	20:06:53.608	$GPGGA,200654,2414.7008,N,08107.4029,W,1,10,1.3,21,M,,M,,*68
06/12/2015	20:06:54.588	$GPGGA,200655,2414.7000,N,08107.4018,W,1,10,1.3,21,M,,M,,*63
06/12/2015	20:06:55.658	$GPGGA,200656,2414.6990,N,08107.4009,W,1,11,1.3,21,M,,M,,*60
06/12/2015	20:06:56.577	$GPGGA,200657,2414.6978,N,08107.3998,W,1,11,1.3,21,M,,M,,*61
06/12/2015	20:06:57.607	$GPGGA,200658,2414.6969,N,08107.3987,W,1,11,1.3,21,M,,M,,*60
06/12/2015	20:06:58.587	$GPGGA,200659,2414.6958,N,08107.3977,W,1,11,1.6,21,M,,M,,*69
06/12/2015	20:06:59.607	$GPGGA,200700,2414.6946,N,08107.3966,W,1,9,1.3,21,M,,M,,*57
06/12/2015	20:07:00.578	$GPGGA,200701,2414.6935,N,08107.3955,W,1,9,1.3,21,M,,M,,*52
06/12/2015	20:07:01.608	$GPGGA,200702,2414.6924,N,08107.3943,W,1,11,1.3,21,M,,M,,*6F
06/12/2015	20:07:02.578	$GPGGA,200703,2414.6913,N,08107.3933,W,1,11,1.3,21,M,,M,,*6D
06/12/2015	20:07:03.633	$GPGGA,200704,2414.6902,N,08107.3921,W,1,11,1.3,21,M,,M,,*69
06/12/2015	20:07:04.558	$GPGGA,200705,2414.6889,N,08107.3909,W,1,11,1.3,21,M,,M,,*60
06/12/2015	20:07:05.598	$GPGGA,200706,2414.6877,N,08107.3899,W,1,11,1.3,21,M,,M,,*6A
06/12/2015	20:07:06.558	$GPGGA,200707,2414.6867,N,08107.3888,W,1,11,1.3,21,M,,M,,*6A
06/12/2015	20:07:07.648	$GPGGA,200708,2414.6856,N,08107.3876,W,1,11,1.3,21,M,,M,,*66
06/12/2015	20:07:08.558	$GPGGA,200709,2414.6856,N,08107.3876,W,1,11,1.3,21,M,,M,,*67
06/12/2015	20:07:09.598	$GPGGA,200710,2414.6831,N,08107.3854,W,1,10,1.3,21,M,,M,,*6F
06/12/2015	20:07:10.548	$GPGGA,200711,2414.6821,N,08107.3841,W,1,10,1.4,21,M,,M,,*6C
06/12/2015	20:07:11.598	$GPGGA,200712,2414.6821,N,08107.3841,W,1,10,1.4,21,M,,M,,*6F
06/12/2015	20:07:12.548	$GPGGA,200713,2414.6797,N,08107.3820,W,1,10,1.3,21,M,,M,,*6C
06/12/2015	20:07:13.588	$GPGGA,200714,2414.6786,N,08107.3808,W,1,11,1.3,21,M,,M,,*60
06/12/2015	20:07:14.557	$GPGGA,200715,2414.6776,N,08107.3794,W,1,11,1.3,21,M,,M,,*64
06/12/2015	20:07:15.618	$GPGGA,200716,2414.6765,N,08107.3782,W,1,11,1.4,21,M,,M,,*65
06/12/2015	20:07:16.647	$GPGGA,200717,2414.6754,N,08107.3772,W,1,11,1.4,21,M,,M,,*69
06/12/2015	20:07:17.567	$GPGGA,200718,2414.6742,N,08107.3761,W,1,11,1.3,21,M,,M,,*64
06/12/2015	20:07:18.558	$GPGGA,200719,2414.6733,N,08107.3748,W,1,11,1.3,21,M,,M,,*68
06/12/2015	20:07:19.558	$GPGGA,200720,2414.6733,N,08107.3748,W,1,11,1.3,21,M,,M,,*62
06/12/2015	20:07:20.519	$GPGGA,200721,2414.6712,N,08107.3725,W,1,11,1.3,21,M,,M,,*6B
06/12/2015	20:07:21.528	$GPGGA,200722,2414.6712,N,08107.3725,W,1,10,1.3,21,M,,M,,*69
06/12/2015	20:07:22.621	$GPGGA,200723,2414.6690,N,08107.3703,W,1,10,1.3,21,M,,M,,*67
06/12/2015	20:07:23.548	$GPGGA,200724,2414.6690,N,08107.3703,W,1,11,1.3,21,M,,M,,*61
06/12/2015	20:07:24.608	$GPGGA,200725,2414.6671,N,08107.3677,W,1,11,1.3,21,M,,M,,*6D
06/12/2015	20:07:25.538	$GPGGA,200726,2414.6671,N,08107.3677,W,1,11,1.3,21,M,,M,,*6E
06/12/2015	20:07:26.538	$GPGGA,200727,2414.6650,N,08107.3655,W,1,11,1.4,21,M,,M,,*6B
06/12/2015	20:07:27.528	$GPGGA,200728,2414.6650,N,08107.3655,W,1,10,1.4,21,M,,M,,*65
06/12/2015	20:07:28.530	$GPGGA,200729,2414.6628,N,08107.3630,W,1,10,1.3,21,M,,M,,*6F
06/12/2015	20:07:29.520	$GPGGA,200730,2414.6628,N,08107.3630,W,1,11,1.3,21,M,,M,,*66
06/12/2015	20:07:30.519	$GPGGA,200731,2414.6606,N,08107.3606,W,1,11,1.3,21,M,,M,,*6E
06/12/2015	20:07:31.632	$GPGGA,200732,2414.6595,N,08107.3595,W,1,11,1.3,21,M,,M,,*6D
06/12/2015	20:07:32.597	$GPGGA,200733,2414.6584,N,08107.3583,W,1,11,1.3,21,M,,M,,*6B
06/12/2015	20:07:33.637	$GPGGA,200734,2414.6574,N,08107.3572,W,1,11,1.3,21,M,,M,,*6D
06/12/2015	20:07:34.587	$GPGGA,200735,2414.6566,N,08107.3562,W,1,11,1.3,21,M,,M,,*6E
06/12/2015	20:07:35.619	$GPGGA,200736,2414.6552,N,08107.3549,W,1,11,1.3,21,M,,M,,*63
06/12/2015	20:07:36.498	$GPGGA,200737,2414.6541,N,08107.3538,W,1,11,1.6,21,M,,M,,*63
06/12/2015	20:07:37.618	$GPGGA,200738,2414.6528,N,08107.3528,W,1,11,1.3,21,M,,M,,*67
06/12/2015	20:07:38.578	$GPGGA,200739,2414.6516,N,08107.3513,W,1,11,1.4,21,M,,M,,*64
06/12/2015	20:07:39.608	$GPGGA,200740,2414.6505,N,08107.3501,W,1,11,1.3,21,M,,M,,*6C
06/12/2015	20:07:40.588	$GPGGA,200741,2414.6494,N,08107.3492,W,1,11,1.3,21,M,,M,,*6F
06/12/2015	20:07:41.578	$GPGGA,200742,2414.6483,N,08107.3481,W,1,11,1.3,20,M,,M,,*69
06/12/2015	20:07:42.588	$GPGGA,200743,2414.6476,N,08107.3470,W,1,11,1.3,20,M,,M,,*6C
06/12/2015	20:07:43.624	$GPGGA,200744,2414.6463,N,08107.3460,W,1,10,1.4,20,M,,M,,*68
06/12/2015	20:07:44.578	$GPGGA,200745,2414.6451,N,08107.3450,W,1,10,1.3,20,M,,M,,*6C
06/12/2015	20:07:45.908	$GPGGA,200746,2414.6443,N,08107.3438,W,1,10,1.4,20,M,,M,,*65
06/12/2015	20:07:46.568	$GPGGA,200747,2414.6431,N,08107.3427,W,1,10,1.4,20,M,,M,,*6F
06/12/2015	20:07:47.608	$GPGGA,200748,2414.6422,N,08107.3419,W,1,10,1.4,20,M,,M,,*6F
06/12/2015	20:07:48.558	$GPGGA,200749,2414.6412,N,08107.3408,W,1,10,1.3,20,M,,M,,*6A
06/12/2015	20:07:49.587	$GPGGA,200750,2414.6401,N,08107.3397,W,1,11,1.3,20,M,,M,,*60
06/12/2015	20:07:50.567	$GPGGA,200751,2414.6389,N,08107.3387,W,1,11,1.3,20,M,,M,,*67
06/12/2015	20:07:51.597	$GPGGA,200752,2414.6378,N,08107.3375,W,1,11,1.3,20,M,,M,,*67
06/12/2015	20:07:52.557	$GPGGA,200753,2414.6371,N,08107.3366,W,1,11,1.3,20,M,,M,,*6D
06/12/2015	20:07:53.578	$GPGGA,200754,2414.6358,N,08107.3356,W,1,10,1.4,20,M,,M,,*64
06/12/2015	20:07:54.548	$GPGGA,200755,2414.6347,N,08107.3345,W,1,10,1.4,20,M,,M,,*69
06/12/2015	20:07:55.588	$GPGGA,200756,2414.6336,N,08107.3332,W,1,11,1.3,20,M,,M,,*6A
06/12/2015	20:07:56.548	$GPGGA,200757,2414.6326,N,08107.3322,W,1,11,1.3,20,M,,M,,*6B
06/12/2015	20:07:57.558	$GPGGA,200758,2414.6315,N,08107.3312,W,1,11,1.3,20,M,,M,,*67
06/12/2015	20:07:58.558	$GPGGA,200759,2414.6304,N,08107.3301,W,1,11,1.3,20,M,,M,,*64
06/12/2015	20:07:59.588	$GPGGA,200800,2414.6294,N,08107.3289,W,1,11,1.3,20,M,,M,,*6E
06/12/2015	20:08:00.548	$GPGGA,200801,2414.6283,N,08107.3277,W,1,11,1.3,20,M,,M,,*68
06/12/2015	20:08:01.558	$GPGGA,200802,2414.6273,N,08107.3268,W,1,11,1.3,20,M,,M,,*6A
06/12/2015	20:08:02.548	$GPGGA,200803,2414.6263,N,08107.3258,W,1,11,1.3,20,M,,M,,*69
06/12/2015	20:08:03.658	$GPGGA,200804,2414.6252,N,08107.3247,W,1,11,1.3,20,M,,M,,*62
06/12/2015	20:08:04.548	$GPGGA,200805,2414.6242,N,08107.3236,W,1,11,1.3,20,M,,M,,*64
06/12/2015	20:08:05.558	$GPGGA,200806,2414.6231,N,08107.3226,W,1,11,1.3,20,M,,M,,*62
06/12/2015	20:08:06.537	$GPGGA,200807,2414.6221,N,08107.3215,W,1,11,1.4,20,M,,M,,*65
06/12/2015	20:08:07.657	$GPGGA,200808,2414.6212,N,08107.3206,W,1,11,1.3,20,M,,M,,*6F
06/12/2015	20:08:08.528	$GPGGA,200809,2414.6199,N,08107.3194,W,1,11,1.3,20,M,,M,,*66
06/12/2015	20:08:09.520	$GPGGA,200810,2414.6189,N,08107.3183,W,1,11,1.3,20,M,,M,,*69
06/12/2015	20:08:10.535	$GPGGA,200811,2414.6180,N,08107.3174,W,1,11,1.3,20,M,,M,,*69
06/12/2015	20:08:11.648	$GPGGA,200812,2414.6167,N,08107.3162,W,1,11,1.3,20,M,,M,,*64
06/12/2015	20:08:12.534	$GPGGA,200813,2414.6158,N,08107.3151,W,1,11,1.3,20,M,,M,,*69
06/12/2015	20:08:13.622	$GPGGA,200814,2414.6147,N,08107.3142,W,1,11,1.3,20,M,,M,,*62
06/12/2015	20:08:14.524	$GPGGA,200815,2414.6136,N,08107.3130,W,1,11,1.3,20,M,,M,,*60
06/12/2015	20:08:15.538	$GPGGA,200816,2414.6125,N,08107.3117,W,1,11,1.3,20,M,,M,,*64
06/12/2015	20:08:16.598	$GPGGA,200817,2414.6115,N,08107.3108,W,1,11,1.4,20,M,,M,,*6F
06/12/2015	20:08:17.540	$GPGGA,200818,2414.6104,N,08107.3096,W,1,11,1.3,20,M,,M,,*61
06/12/2015	20:08:18.499	$GPGGA,200819,2414.6093,N,08107.3083,W,1,11,1.4,20,M,,M,,*6C
06/12/2015	20:08:19.526	$GPGGA,200820,2414.6080,N,08107.3070,W,1,10,1.4,20,M,,M,,*69
06/12/2015	20:08:20.588	$GPGGA,200821,2414.6069,N,08107.3058,W,1,10,1.3,20,M,,M,,*62
06/12/2015	20:08:21.622	$GPGGA,200822,2414.6057,N,08107.3047,W,1,9,1.6,20,M,,M,,*5F
06/12/2015	20:08:22.588	$GPGGA,200823,2414.6047,N,08107.3035,W,1,9,1.3,20,M,,M,,*5F
06/12/2015	20:08:23.598	$GPGGA,200824,2414.6035,N,08107.3023,W,1,11,1.3,20,M,,M,,*63
06/12/2015	20:08:24.587	$GPGGA,200825,2414.6025,N,08107.3010,W,1,11,1.3,20,M,,M,,*63
06/12/2015	20:08:25.497	$GPGGA,200826,2414.6011,N,08107.2998,W,1,10,1.4,20,M,,M,,*69
06/12/2015	20:08:26.588	$GPGGA,200827,2414.5999,N,08107.2985,W,1,10,1.4,20,M,,M,,*6E
06/12/2015	20:08:27.497	$GPGGA,200828,2414.5988,N,08107.2971,W,1,11,1.3,20,M,,M,,*6C
06/12/2015	20:08:28.588	$GPGGA,200829,2414.5977,N,08107.2961,W,1,11,1.6,20,M,,M,,*69
06/12/2015	20:08:29.588	$GPGGA,200830,2414.5967,N,08107.2953,W,1,11,1.3,20,M,,M,,*64
06/12/2015	20:08:30.578	$GPGGA,200831,2414.5957,N,08107.2942,W,1,11,1.4,20,M,,M,,*61
06/12/2015	20:08:31.627	$GPGGA,200832,2414.5945,N,08107.2925,W,1,10,1.4,20,M,,M,,*61
06/12/2015	20:08:32.578	$GPGGA,200833,2414.5934,N,08107.2914,W,1,10,1.3,20,M,,M,,*63
06/12/2015	20:08:33.588	$GPGGA,200834,2414.5923,N,08107.2906,W,1,10,1.4,20,M,,M,,*66
06/12/2015	20:08:34.568	$GPGGA,200835,2414.5912,N,08107.2896,W,1,10,1.3,20,M,,M,,*6A
06/12/2015	20:08:35.608	$GPGGA,200836,2414.5901,N,08107.2883,W,1,11,1.3,20,M,,M,,*6E
06/12/2015	20:08:36.568	$GPGGA,200837,2414.5891,N,08107.2870,W,1,11,1.3,20,M,,M,,*6B
06/12/2015	20:08:37.568	$GPGGA,200838,2414.5880,N,08107.2859,W,1,11,1.3,20,M,,M,,*6F
06/12/2015	20:08:38.558	$GPGGA,200839,2414.5869,N,08107.2850,W,1,11,1.3,20,M,,M,,*60
06/12/2015	20:08:39.578	$GPGGA,200840,2414.5856,N,08107.2838,W,1,11,1.3,20,M,,M,,*6C
06/12/2015	20:08:40.558	$GPGGA,200841,2414.5846,N,08107.2826,W,1,11,1.3,20,M,,M,,*63
06/12/2015	20:08:41.547	$GPGGA,200842,2414.5835,N,08107.2813,W,1,10,1.4,20,M,,M,,*64
06/12/2015	20:08:42.557	$GPGGA,200843,2414.5823,N,08107.2803,W,1,10,1.4,20,M,,M,,*63
06/12/2015	20:08:43.587	$GPGGA,200844,2414.5812,N,08107.2794,W,1,10,1.4,19,M,,M,,*6D
06/12/2015	20:08:44.557	$GPGGA,200845,2414.5804,N,08107.2782,W,1,10,1.6,19,M,,M,,*6E
06/12/2015	20:08:45.578	$GPGGA,200846,2414.5794,N,08107.2770,W,1,11,1.3,19,M,,M,,*62
06/12/2015	20:08:46.548	$GPGGA,200847,2414.5781,N,08107.2759,W,1,11,1.4,19,M,,M,,*6B
06/12/2015	20:08:47.558	$GPGGA,200848,2414.5771,N,08107.2750,W,1,10,1.4,19,M,,M,,*63
06/12/2015	20:08:48.548	$GPGGA,200849,2414.5760,N,08107.2736,W,1,10,1.3,19,M,,M,,*65
06/12/2015	20:08:49.568	$GPGGA,200850,2414.5748,N,08107.2725,W,1,9,1.8,19,M,,M,,*56
06/12/2015	20:08:50.538	$GPGGA,200851,2414.5736,N,08107.2719,W,1,9,1.3,19,M,,M,,*5A
06/12/2015	20:08:51.536	$GPGGA,200852,2414.5723,N,08107.2708,W,1,10,1.4,19,M,,M,,*62
06/12/2015	20:08:53.938	$GPGGA,200854,2414.5703,N,08107.2687,W,1,11,1.3,19,M,,M,,*66
06/12/2015	20:08:54.638	$GPGGA,200855,2414.5689,N,08107.2680,W,1,11,1.3,19,M,,M,,*63
06/12/2015	20:08:55.548	$GPGGA,200856,2414.5678,N,08107.2670,W,1,10,1.4,19,M,,M,,*67
06/12/2015	20:08:56.528	$GPGGA,200857,2414.5667,N,08107.2656,W,1,10,1.4,19,M,,M,,*6C
06/12/2015	20:08:57.631	$GPGGA,200858,2414.5656,N,08107.2646,W,1,11,1.3,19,M,,M,,*66
06/12/2015	20:08:58.618	$GPGGA,200859,2414.5646,N,08107.2639,W,1,11,1.4,19,M,,M,,*69
06/12/2015	20:08:59.577	$GPGGA,200900,2414.5635,N,08107.2630,W,1,11,1.3,19,M,,M,,*6E
06/12/2015	20:09:00.517	$GPGGA,200901,2414.5627,N,08107.2619,W,1,11,1.3,19,M,,M,,*67
06/12/2015	20:09:01.627	$GPGGA,200902,2414.5614,N,08107.2606,W,1,11,1.3,19,M,,M,,*6A
06/12/2015	20:09:02.517	$GPGGA,200903,2414.5602,N,08107.2594,W,1,11,1.4,19,M,,M,,*63
06/12/2015	20:09:03.508	$GPGGA,200904,2414.5592,N,08107.2583,W,1,10,1.4,19,M,,M,,*69
06/12/2015	20:09:04.608	$GPGGA,200905,2414.5582,N,08107.2573,W,1,10,1.4,19,M,,M,,*66
06/12/2015	20:09:06.088	$GPGGA,200906,2414.5570,N,08107.2560,W,1,11,1.3,20,M,,M,,*66
06/12/2015	20:09:06.498	$GPGGA,200907,2414.5560,N,08107.2547,W,1,11,1.3,20,M,,M,,*63
06/12/2015	20:09:07.638	$GPGGA,200908,2414.5548,N,08107.2535,W,1,9,1.6,20,M,,M,,*5F
06/12/2015	20:09:08.588	$GPGGA,200909,2414.5536,N,08107.2523,W,1,9,1.3,20,M,,M,,*55
06/12/2015	20:09:09.498	$GPGGA,200910,2414.5527,N,08107.2512,W,1,11,1.3,20,M,,M,,*66
06/12/2015	20:09:10.498	$GPGGA,200911,2414.5517,N,08107.2499,W,1,11,1.3,20,M,,M,,*66
06/12/2015	20:09:11.628	$GPGGA,200912,2414.5505,N,08107.2486,W,1,10,1.4,20,M,,M,,*6E
06/12/2015	20:09:12.588	$GPGGA,200913,2414.5497,N,08107.2477,W,1,10,1.3,20,M,,M,,*6C
06/12/2015	20:09:14.632	$GPGGA,200915,2414.5473,N,08107.2453,W,1,11,1.4,20,M,,M,,*60
06/12/2015	20:09:15.598	$GPGGA,200916,2414.5462,N,08107.2440,W,1,10,1.4,20,M,,M,,*60
06/12/2015	20:09:16.597	$GPGGA,200917,2414.5453,N,08107.2428,W,1,10,2.2,20,M,,M,,*68
06/12/2015	20:09:17.597	$GPGGA,200918,2414.5447,N,08107.2422,W,1,9,1.6,20,M,,M,,*57
06/12/2015	20:09:18.567	$GPGGA,200919,2414.5439,N,08107.2409,W,1,9,1.3,20,M,,M,,*53
06/12/2015	20:09:19.607	$GPGGA,200920,2414.5428,N,08107.2398,W,1,11,1.3,20,M,,M,,*6F
06/12/2015	20:09:20.568	$GPGGA,200921,2414.5416,N,08107.2385,W,1,11,1.3,20,M,,M,,*6F
06/12/2015	20:09:21.558	$GPGGA,200922,2414.5404,N,08107.2371,W,1,11,1.3,20,M,,M,,*64
06/12/2015	20:09:22.569	$GPGGA,200923,2414.5394,N,08107.2360,W,1,11,1.3,20,M,,M,,*6B
06/12/2015	20:09:23.598	$GPGGA,200924,2414.5383,N,08107.2350,W,1,11,1.3,21,M,,M,,*68
06/12/2015	20:09:24.558	$GPGGA,200925,2414.5371,N,08107.2337,W,1,11,1.4,21,M,,M,,*62
06/12/2015	20:09:25.548	$GPGGA,200926,2414.5363,N,08107.2325,W,1,10,1.4,21,M,,M,,*60
06/12/2015	20:09:26.568	$GPGGA,200927,2414.5352,N,08107.2317,W,1,10,1.4,21,M,,M,,*62
06/12/2015	20:09:27.588	$GPGGA,200928,2414.5341,N,08107.2306,W,1,11,1.3,21,M,,M,,*69
06/12/2015	20:09:28.558	$GPGGA,200929,2414.5331,N,08107.2294,W,1,11,1.4,21,M,,M,,*62
06/12/2015	20:09:29.548	$GPGGA,200930,2414.5320,N,08107.2283,W,1,10,1.4,21,M,,M,,*6D
06/12/2015	20:09:30.558	$GPGGA,200931,2414.5309,N,08107.2272,W,1,10,1.4,21,M,,M,,*69
06/12/2015	20:09:32.548	$GPGGA,200932,2414.5300,N,08107.2261,W,1,11,1.3,21,M,,M,,*67
06/12/2015	20:09:32.578	$GPGGA,200933,2414.5287,N,08107.2251,W,1,11,1.4,21,M,,M,,*6C
06/12/2015	20:09:33.558	$GPGGA,200934,2414.5275,N,08107.2240,W,1,10,1.4,21,M,,M,,*67
06/12/2015	20:09:34.547	$GPGGA,200935,2414.5266,N,08107.2227,W,1,10,1.4,21,M,,M,,*65
06/12/2015	20:09:35.547	$GPGGA,200936,2414.5255,N,08107.2217,W,1,10,1.4,21,M,,M,,*65
06/12/2015	20:09:36.547	$GPGGA,200937,2414.5242,N,08107.2209,W,1,10,1.4,21,M,,M,,*6D
06/12/2015	20:09:37.537	$GPGGA,200938,2414.5231,N,08107.2198,W,1,11,1.3,21,M,,M,,*6B
06/12/2015	20:09:38.531	$GPGGA,200939,2414.5223,N,08107.2185,W,1,11,1.3,21,M,,M,,*65
06/12/2015	20:09:39.558	$GPGGA,200940,2414.5210,N,08107.2174,W,1,11,1.3,21,M,,M,,*65
06/12/2015	20:09:40.638	$GPGGA,200941,2414.5198,N,08107.2166,W,1,11,1.3,21,M,,M,,*64
06/12/2015	20:09:41.629	$GPGGA,200942,2414.5187,N,08107.2155,W,1,11,1.3,21,M,,M,,*69
06/12/2015	20:09:42.518	$GPGGA,200943,2414.5176,N,08107.2141,W,1,11,1.4,22,M,,M,,*67
06/12/2015	20:09:43.548	$GPGGA,200944,2414.5165,N,08107.2130,W,1,10,1.4,22,M,,M,,*65
06/12/2015	20:09:44.608	$GPGGA,200945,2414.5152,N,08107.2120,W,1,10,1.3,22,M,,M,,*66
06/12/2015	20:09:45.648	$GPGGA,200946,2414.5140,N,08107.2109,W,1,10,1.4,22,M,,M,,*6A
06/12/2015	20:09:46.533	$GPGGA,200947,2414.5129,N,08107.2096,W,1,10,1.3,22,M,,M,,*64
06/12/2015	20:09:47.558	$GPGGA,200948,2414.5117,N,08107.2086,W,1,10,1.4,22,M,,M,,*60
06/12/2015	20:09:48.598	$GPGGA,200949,2414.5107,N,08107.2076,W,1,10,1.4,22,M,,M,,*6F
06/12/2015	20:09:49.608	$GPGGA,200950,2414.5096,N,08107.2065,W,1,10,1.4,21,M,,M,,*6F
06/12/2015	20:09:50.608	$GPGGA,200951,2414.5083,N,08107.2055,W,1,10,1.5,21,M,,M,,*68
06/12/2015	20:09:51.621	$GPGGA,200952,2414.5074,N,08107.2046,W,1,11,1.3,21,M,,M,,*66
06/12/2015	20:09:52.507	$GPGGA,200953,2414.5062,N,08107.2034,W,1,11,1.3,21,M,,M,,*65
06/12/2015	20:09:53.618	$GPGGA,200954,2414.5051,N,08107.2022,W,1,10,1.4,22,M,,M,,*60
06/12/2015	20:09:54.597	$GPGGA,200955,2414.5042,N,08107.2012,W,1,10,1.4,22,M,,M,,*60
06/12/2015	20:09:55.618	$GPGGA,200956,2414.5031,N,08107.2001,W,1,11,1.3,22,M,,M,,*63
06/12/2015	20:09:56.588	$GPGGA,200957,2414.5020,N,08107.1993,W,1,11,1.3,21,M,,M,,*60
06/12/2015	20:09:57.588	$GPGGA,200958,2414.5007,N,08107.1982,W,1,11,1.3,21,M,,M,,*6A
06/12/2015	20:09:58.578	$GPGGA,200959,2414.4996,N,08107.1968,W,1,11,1.4,21,M,,M,,*68
06/12/2015	20:09:59.648	$GPGGA,201000,2414.4985,N,08107.1958,W,1,11,1.3,21,M,,M,,*6A
06/12/2015	20:10:00.578	$GPGGA,201001,2414.4973,N,08107.1952,W,1,11,1.5,21,M,,M,,*6E
06/12/2015	20:10:01.598	$GPGGA,201002,2414.4962,N,08107.1939,W,1,10,1.4,21,M,,M,,*60
06/12/2015	20:10:02.578	$GPGGA,201003,2414.4952,N,08107.1926,W,1,10,1.3,21,M,,M,,*6B
06/12/2015	20:10:03.629	$GPGGA,201004,2414.4941,N,08107.1917,W,1,11,1.3,21,M,,M,,*6D
06/12/2015	20:10:04.568	$GPGGA,201005,2414.4931,N,08107.1908,W,1,11,1.3,21,M,,M,,*65
06/12/2015	20:10:05.588	$GPGGA,201006,2414.4921,N,08107.1896,W,1,11,1.3,21,M,,M,,*61
06/12/2015	20:10:06.578	$GPGGA,201007,2414.4910,N,08107.1885,W,1,11,1.3,21,M,,M,,*60
06/12/2015	20:10:07.598	$GPGGA,201008,2414.4901,N,08107.1875,W,1,11,1.3,21,M,,M,,*60
06/12/2015	20:10:08.578	$GPGGA,201009,2414.4888,N,08107.1863,W,1,11,1.4,21,M,,M,,*61
06/12/2015	20:10:09.587	$GPGGA,201010,2414.4877,N,08107.1853,W,1,10,1.4,21,M,,M,,*6B
06/12/2015	20:10:10.567	$GPGGA,201011,2414.4865,N,08107.1840,W,1,10,1.4,21,M,,M,,*6B
06/12/2015	20:10:11.597	$GPGGA,201012,2414.4854,N,08107.1828,W,1,11,1.3,21,M,,M,,*62
06/12/2015	20:10:12.557	$GPGGA,201013,2414.4843,N,08107.1817,W,1,11,1.3,21,M,,M,,*69
06/12/2015	20:10:13.598	$GPGGA,201014,2414.4830,N,08107.1806,W,1,11,1.3,21,M,,M,,*6A
06/12/2015	20:10:14.548	$GPGGA,201015,2414.4818,N,08107.1795,W,1,11,1.3,21,M,,M,,*64
06/12/2015	20:10:15.588	$GPGGA,201016,2414.4807,N,08107.1782,W,1,11,1.3,21,M,,M,,*6F
06/12/2015	20:10:16.538	$GPGGA,201017,2414.4796,N,08107.1769,W,1,11,1.4,21,M,,M,,*6B
06/12/2015	20:10:17.588	$GPGGA,201018,2414.4782,N,08107.1759,W,1,11,1.3,21,M,,M,,*65
06/12/2015	20:10:18.548	$GPGGA,201019,2414.4771,N,08107.1746,W,1,11,1.4,21,M,,M,,*61
06/12/2015	20:10:19.548	$GPGGA,201020,2414.4760,N,08107.1731,W,1,10,1.4,21,M,,M,,*6A
06/12/2015	20:10:20.658	$GPGGA,201021,2414.4749,N,08107.1722,W,1,10,1.3,21,M,,M,,*65
06/12/2015	20:10:21.538	$GPGGA,201022,2414.4739,N,08107.1713,W,1,11,1.3,21,M,,M,,*62
06/12/2015	20:10:22.538	$GPGGA,201023,2414.4727,N,08107.1701,W,1,11,1.4,21,M,,M,,*68
06/12/2015	20:10:23.548	$GPGGA,201024,2414.4720,N,08107.1691,W,1,10,1.4,21,M,,M,,*61
06/12/2015	20:10:24.528	$GPGGA,201025,2414.4708,N,08107.1679,W,1,10,1.4,21,M,,M,,*6C
06/12/2015	20:10:25.548	$GPGGA,201026,2414.4698,N,08107.1669,W,1,11,1.3,21,M,,M,,*60
06/12/2015	20:10:26.624	$GPGGA,201027,2414.4686,N,08107.1656,W,1,11,1.3,21,M,,M,,*62
06/12/2015	20:10:27.587	$GPGGA,201028,2414.4675,N,08107.1646,W,1,11,1.3,21,M,,M,,*60
06/12/2015	20:10:28.537	$GPGGA,201029,2414.4666,N,08107.1639,W,1,11,1.3,21,M,,M,,*6B
06/12/2015	20:10:29.629	$GPGGA,201030,2414.4656,N,08107.1627,W,1,11,1.3,21,M,,M,,*6F
06/12/2015	20:10:30.538	$GPGGA,201031,2414.4645,N,08107.1615,W,1,11,1.3,21,M,,M,,*6D
06/12/2015	20:10:31.688	$GPGGA,201032,2414.4633,N,08107.1606,W,1,11,1.3,21,M,,M,,*6D
06/12/2015	20:10:32.627	$GPGGA,201033,2414.4623,N,08107.1597,W,1,11,1.3,21,M,,M,,*66
06/12/2015	20:10:33.658	$GPGGA,201034,2414.4612,N,08107.1585,W,1,11,1.3,21,M,,M,,*60
06/12/2015	20:10:34.530	$GPGGA,201035,2414.4601,N,08107.1574,W,1,11,1.3,21,M,,M,,*6D
06/12/2015	20:10:35.508	$GPGGA,201036,2414.4590,N,08107.1564,W,1,11,1.3,21,M,,M,,*64
06/12/2015	20:10:36.518	$GPGGA,201037,2414.4579,N,08107.1553,W,1,11,1.6,21,M,,M,,*63
06/12/2015	20:10:37.625	$GPGGA,201038,2414.4567,N,08107.1542,W,1,11,1.3,21,M,,M,,*66
06/12/2015	20:10:38.608	$GPGGA,201039,2414.4556,N,08107.1532,W,1,11,1.3,21,M,,M,,*62
06/12/2015	20:10:39.638	$GPGGA,201040,2414.4547,N,08107.1520,W,1,11,1.6,21,M,,M,,*6A
06/12/2015	20:10:40.518	$GPGGA,201041,2414.4534,N,08107.1508,W,1,11,1.6,21,M,,M,,*65
06/12/2015	20:10:41.588	$GPGGA,201042,2414.4525,N,08107.1499,W,1,9,1.3,21,M,,M,,*53
06/12/2015	20:10:42.588	$GPGGA,201043,2414.4516,N,08107.1487,W,1,9,1.3,21,M,,M,,*5D
06/12/2015	20:10:43.638	$GPGGA,201044,2414.4507,N,08107.1474,W,1,11,1.4,21,M,,M,,*68
06/12/2015	20:10:44.597	$GPGGA,201045,2414.4494,N,08107.1465,W,1,11,1.6,21,M,,M,,*60
06/12/2015	20:10:45.607	$GPGGA,201046,2414.4483,N,08107.1454,W,1,9,1.3,21,M,,M,,*5B
06/12/2015	20:10:46.587	$GPGGA,201047,2414.4475,N,08107.1444,W,1,9,1.4,21,M,,M,,*55
06/12/2015	20:10:47.607	$GPGGA,201048,2414.4465,N,08107.1433,W,1,10,1.4,21,M,,M,,*63
06/12/2015	20:10:48.588	$GPGGA,201049,2414.4453,N,08107.1420,W,1,10,1.3,21,M,,M,,*62
06/12/2015	20:10:49.619	$GPGGA,201050,2414.4442,N,08107.1410,W,1,11,1.4,21,M,,M,,*6F
06/12/2015	20:10:50.578	$GPGGA,201051,2414.4432,N,08107.1401,W,1,11,1.3,21,M,,M,,*6E
06/12/2015	20:10:51.628	$GPGGA,201052,2414.4422,N,08107.1388,W,1,11,1.4,21,M,,M,,*6D
06/12/2015	20:10:52.568	$GPGGA,201053,2414.4409,N,08107.1375,W,1,11,1.3,21,M,,M,,*60
06/12/2015	20:10:53.619	$GPGGA,201054,2414.4398,N,08107.1364,W,1,11,1.3,21,M,,M,,*68
06/12/2015	20:10:54.578	$GPGGA,201055,2414.4388,N,08107.1353,W,1,11,1.3,21,M,,M,,*6C
06/12/2015	20:10:55.620	$GPGGA,201056,2414.4377,N,08107.1342,W,1,11,1.4,21,M,,M,,*68
06/12/2015	20:10:56.568	$GPGGA,201057,2414.4366,N,08107.1329,W,1,11,1.3,21,M,,M,,*63
06/12/2015	20:10:57.588	$GPGGA,201058,2414.4355,N,08107.1318,W,1,11,1.6,21,M,,M,,*6B
06/12/2015	20:10:58.548	$GPGGA,201059,2414.4343,N,08107.1307,W,1,11,1.4,21,M,,M,,*61
06/12/2015	20:10:59.588	$GPGGA,201100,2414.4332,N,08107.1297,W,1,10,1.3,21,M,,M,,*64
06/12/2015	20:11:00.558	$GPGGA,201101,2414.4323,N,08107.1285,W,1,10,1.4,21,M,,M,,*61
06/12/2015	20:11:01.547	$GPGGA,201102,2414.4312,N,08107.1272,W,1,10,1.3,21,M,,M,,*6F
06/12/2015	20:11:02.547	$GPGGA,201103,2414.4301,N,08107.1264,W,1,10,1.3,21,M,,M,,*6B
06/12/2015	20:11:03.577	$GPGGA,201104,2414.4290,N,08107.1253,W,1,11,1.3,21,M,,M,,*60
06/12/2015	20:11:04.537	$GPGGA,201105,2414.4281,N,08107.1240,W,1,11,1.3,21,M,,M,,*63
06/12/2015	20:11:05.578	$GPGGA,201106,2414.4270,N,08107.1230,W,1,11,1.3,21,M,,M,,*69
06/12/2015	20:11:06.547	$GPGGA,201107,2414.4258,N,08107.1220,W,1,11,1.3,21,M,,M,,*63
06/12/2015	20:11:07.567	$GPGGA,201108,2414.4249,N,08107.1210,W,1,11,1.3,21,M,,M,,*6F
06/12/2015	20:11:08.527	$GPGGA,201109,2414.4238,N,08107.1198,W,1,11,1.4,21,M,,M,,*6C
06/12/2015	20:11:09.637	$GPGGA,201110,2414.4227,N,08107.1186,W,1,10,1.3,21,M,,M,,*63
06/12/2015	20:11:10.547	$GPGGA,201111,2414.4216,N,08107.1178,W,1,10,1.3,21,M,,M,,*61
06/12/2015	20:11:11.637	$GPGGA,201112,2414.4205,N,08107.1166,W,1,11,1.3,21,M,,M,,*6E
06/12/2015	20:11:12.537	$GPGGA,201113,2414.4205,N,08107.1166,W,1,11,1.3,21,M,,M,,*6F
06/12/2015	20:11:13.614	$GPGGA,201114,2414.4184,N,08107.1143,W,1,11,1.3,21,M,,M,,*65
06/12/2015	20:11:14.611	$GPGGA,201115,2414.4173,N,08107.1132,W,1,11,1.3,21,M,,M,,*6A
06/12/2015	20:11:15.637	$GPGGA,201116,2414.4166,N,08107.1121,W,1,11,1.3,21,M,,M,,*6F
06/12/2015	20:11:16.538	$GPGGA,201117,2414.4155,N,08107.1110,W,1,11,1.3,21,M,,M,,*6C
06/12/2015	20:11:17.610	$GPGGA,201118,2414.4142,N,08107.1100,W,1,11,1.3,21,M,,M,,*64
06/12/2015	20:11:18.523	$GPGGA,201119,2414.4133,N,08107.1087,W,1,11,1.4,20,M,,M,,*6B
06/12/2015	20:11:19.547	$GPGGA,201120,2414.4124,N,08107.1076,W,1,10,1.6,20,M,,M,,*6A
06/12/2015	20:11:20.597	$GPGGA,201121,2414.4114,N,08107.1068,W,1,10,1.6,20,M,,M,,*67
06/12/2015	20:11:21.597	$GPGGA,201122,2414.4102,N,08107.1055,W,1,11,1.3,20,M,,M,,*69
06/12/2015	20:11:22.497	$GPGGA,201123,2414.4092,N,08107.1043,W,1,11,1.4,20,M,,M,,*60
06/12/2015	20:11:23.607	$GPGGA,201124,2414.4081,N,08107.1031,W,1,10,1.4,20,M,,M,,*61
06/12/2015	20:11:24.587	$GPGGA,201125,2414.4070,N,08107.1021,W,1,10,1.3,20,M,,M,,*68
06/12/2015	20:11:25.609	$GPGGA,201126,2414.4061,N,08107.1010,W,1,11,1.3,20,M,,M,,*68
06/12/2015	20:11:26.587	$GPGGA,201127,2414.4054,N,08107.0998,W,1,11,1.4,20,M,,M,,*60
06/12/2015	20:11:27.610	$GPGGA,201128,2414.4045,N,08107.0987,W,1,10,1.3,20,M,,M,,*67
06/12/2015	20:11:28.587	$GPGGA,201129,2414.4036,N,08107.0978,W,1,10,1.3,20,M,,M,,*62
06/12/2015	20:11:29.607	$GPGGA,201130,2414.4036,N,08107.0978,W,1,11,1.3,20,M,,M,,*6B
06/12/2015	20:11:30.577	$GPGGA,201131,2414.4013,N,08107.0954,W,1,11,1.3,21,M,,M,,*62
06/12/2015	20:11:31.608	$GPGGA,201132,2414.4002,N,08107.0943,W,1,11,1.3,21,M,,M,,*67
06/12/2015	20:11:32.577	$GPGGA,201133,2414.3990,N,08107.0930,W,1,11,1.3,21,M,,M,,*67
06/12/2015	20:11:33.598	$GPGGA,201134,2414.3979,N,08107.0920,W,1,11,1.3,21,M,,M,,*66
06/12/2015	20:11:34.568	$GPGGA,201135,2414.3967,N,08107.0910,W,1,11,1.4,21,M,,M,,*6C
06/12/2015	20:11:35.598	$GPGGA,201136,2414.3955,N,08107.0896,W,1,10,1.4,21,M,,M,,*60
06/12/2015	20:11:36.567	$GPGGA,201137,2414.3944,N,08107.0883,W,1,10,1.3,21,M,,M,,*62
06/12/2015	20:11:37.587	$GPGGA,201138,2414.3932,N,08107.0875,W,1,11,1.4,21,M,,M,,*63
06/12/2015	20:11:38.557	$GPGGA,201139,2414.3920,N,08107.0862,W,1,11,1.4,21,M,,M,,*67
06/12/2015	20:11:39.597	$GPGGA,201140,2414.3908,N,08107.0846,W,1,10,1.4,21,M,,M,,*64
06/12/2015	20:11:40.557	$GPGGA,201141,2414.3896,N,08107.0836,W,1,10,1.3,21,M,,M,,*63
06/12/2015	20:11:41.577	$GPGGA,201142,2414.3884,N,08107.0826,W,1,11,1.3,20,M,,M,,*62
