Software Version Number: 1	Data File Format Number: 1	Build Version Number: 1	Error Count Since VI Started: 1	Manufacturer: Raytheon	 Model Number: RayMarine 120	 S/N: 	 Cal Date: 	 Wind Direction Offset: 0.00	 Slope (M)1: 0.00	 Offset (B)1: 0.00	 Slope (M)2: 0.00	 Offset (B)2: 0.00	 Slope (M)3: 0.00	 Offset (B)3: 0.00	 Slope (M)4: 0.00	 Offset (B)4: 0.00	 Slope (M)5: 0.00	 Offset (B)5: 0.00	 Slope (M)6: 0.00	 Offset (B)6: 0.00
Computer Date	Computer Time	GGA String
06/15/2015	19:00:00.565	$GPGGA,190001,2423.8664,N,08053.3620,W,1,11,1.3,17,M,,M,,*6F
06/15/2015	19:00:01.575	$GPGGA,190002,2423.8672,N,08053.3632,W,1,11,1.3,17,M,,M,,*68
06/15/2015	19:00:02.565	$GPGGA,190003,2423.8682,N,08053.3645,W,1,11,1.3,17,M,,M,,*66
06/15/2015	19:00:03.625	$GPGGA,190004,2423.8690,N,08053.3658,W,1,11,1.3,18,M,,M,,*61
06/15/2015	19:00:04.565	$GPGGA,190005,2423.8698,N,08053.3672,W,1,11,1.3,18,M,,M,,*60
06/15/2015	19:00:05.575	$GPGGA,190006,2423.8708,N,08053.3686,W,1,11,1.3,18,M,,M,,*60
06/15/2015	19:00:06.556	$GPGGA,190007,2423.8718,N,08053.3701,W,1,11,1.3,18,M,,M,,*6E
06/15/2015	19:00:07.586	$GPGGA,190008,2423.8726,N,08053.3715,W,1,11,1.3,18,M,,M,,*69
06/15/2015	19:00:08.566	$GPGGA,190009,2423.8734,N,08053.3729,W,1,11,1.3,18,M,,M,,*64
06/15/2015	19:00:09.586	$GPGGA,190010,2423.8744,N,08053.3743,W,1,11,1.3,18,M,,M,,*67
06/15/2015	19:00:10.546	$GPGGA,190011,2423.8752,N,08053.3757,W,1,11,1.3,18,M,,M,,*64
06/15/2015	19:00:11.556	$GPGGA,190012,2423.8759,N,08053.3769,W,1,11,1.3,18,M,,M,,*61
06/15/2015	19:00:12.556	$GPGGA,190013,2423.8769,N,08053.3783,W,1,11,1.3,18,M,,M,,*67
06/15/2015	19:00:13.546	$GPGGA,190014,2423.8777,N,08053.3797,W,1,11,1.3,18,M,,M,,*6A
06/15/2015	19:00:14.546	$GPGGA,190015,2423.8787,N,08053.3812,W,1,11,1.3,18,M,,M,,*66
06/15/2015	19:00:15.576	$GPGGA,190016,2423.8795,N,08053.3827,W,1,11,1.3,18,M,,M,,*60
06/15/2015	19:00:16.545	$GPGGA,190017,2423.8802,N,08053.3841,W,1,11,1.3,18,M,,M,,*60
06/15/2015	19:00:17.535	$GPGGA,190018,2423.8812,N,08053.3855,W,1,11,1.3,18,M,,M,,*6B
06/15/2015	19:00:18.545	$GPGGA,190019,2423.8820,N,08053.3867,W,1,11,1.3,18,M,,M,,*6A
06/15/2015	19:00:19.545	$GPGGA,190020,2423.8828,N,08053.3881,W,1,11,1.3,18,M,,M,,*60
06/15/2015	19:00:20.627	$GPGGA,190021,2423.8835,N,08053.3895,W,1,11,1.3,18,M,,M,,*68
06/15/2015	19:00:21.535	$GPGGA,190022,2423.8844,N,08053.3909,W,1,11,1.3,18,M,,M,,*69
06/15/2015	19:00:22.535	$GPGGA,190023,2423.8853,N,08053.3923,W,1,11,1.3,18,M,,M,,*66
06/15/2015	19:00:23.575	$GPGGA,190024,2423.8860,N,08053.3936,W,1,11,1.3,18,M,,M,,*65
06/15/2015	19:00:24.536	$GPGGA,190025,2423.8867,N,08053.3952,W,1,11,1.3,18,M,,M,,*61
06/15/2015	19:00:25.936	$GPGGA,190026,2423.8875,N,08053.3964,W,1,11,1.3,19,M,,M,,*65
06/15/2015	19:00:26.526	$GPGGA,190027,2423.8885,N,08053.3978,W,1,11,1.3,19,M,,M,,*66
06/15/2015	19:00:27.656	$GPGGA,190028,2423.8892,N,08053.3992,W,1,11,1.3,19,M,,M,,*6B
06/15/2015	19:00:28.619	$GPGGA,190029,2423.8900,N,08053.4006,W,1,11,1.3,19,M,,M,,*63
06/15/2015	19:00:29.636	$GPGGA,190030,2423.8907,N,08053.4019,W,1,11,1.3,19,M,,M,,*62
06/15/2015	19:00:30.608	$GPGGA,190031,2423.8917,N,08053.4033,W,1,11,1.3,19,M,,M,,*6A
06/15/2015	19:00:31.626	$GPGGA,190032,2423.8924,N,08053.4046,W,1,11,1.3,19,M,,M,,*6B
06/15/2015	19:00:32.608	$GPGGA,190033,2423.8932,N,08053.4061,W,1,11,1.3,19,M,,M,,*68
06/15/2015	19:00:33.509	$GPGGA,190034,2423.8940,N,08053.4075,W,1,11,1.3,19,M,,M,,*6F
06/15/2015	19:00:34.606	$GPGGA,190035,2423.8947,N,08053.4089,W,1,11,1.3,19,M,,M,,*6A
06/15/2015	19:00:35.635	$GPGGA,190036,2423.8956,N,08053.4102,W,1,11,1.3,19,M,,M,,*6B
06/15/2015	19:00:37.086	$GPGGA,190037,2423.8964,N,08053.4116,W,1,11,1.3,19,M,,M,,*6E
06/15/2015	19:00:37.615	$GPGGA,190038,2423.8972,N,08053.4130,W,1,11,1.3,19,M,,M,,*62
06/15/2015	19:00:38.595	$GPGGA,190039,2423.8979,N,08053.4144,W,1,11,1.3,19,M,,M,,*6B
06/15/2015	19:00:39.615	$GPGGA,190040,2423.8987,N,08053.4158,W,1,11,1.3,19,M,,M,,*69
06/15/2015	19:00:40.595	$GPGGA,190041,2423.8994,N,08053.4171,W,1,11,1.3,19,M,,M,,*61
06/15/2015	19:00:41.596	$GPGGA,190042,2423.9004,N,08053.4184,W,1,11,1.3,19,M,,M,,*69
06/15/2015	19:00:42.586	$GPGGA,190043,2423.9012,N,08053.4198,W,1,11,1.3,19,M,,M,,*62
06/15/2015	19:00:43.636	$GPGGA,190044,2423.9019,N,08053.4213,W,1,11,1.3,19,M,,M,,*6E
06/15/2015	19:00:44.576	$GPGGA,190045,2423.9027,N,08053.4227,W,1,11,1.3,19,M,,M,,*65
06/15/2015	19:00:45.596	$GPGGA,190046,2423.9037,N,08053.4241,W,1,11,1.3,19,M,,M,,*67
06/15/2015	19:00:46.586	$GPGGA,190047,2423.9044,N,08053.4256,W,1,11,1.3,19,M,,M,,*64
06/15/2015	19:00:47.636	$GPGGA,190048,2423.9052,N,08053.4270,W,1,11,1.3,19,M,,M,,*68
06/15/2015	19:00:48.566	$GPGGA,190049,2423.9062,N,08053.4283,W,1,11,1.3,19,M,,M,,*66
06/15/2015	19:00:49.566	$GPGGA,190050,2423.9070,N,08053.4297,W,1,11,1.3,19,M,,M,,*68
06/15/2015	19:00:50.566	$GPGGA,190051,2423.9077,N,08053.4310,W,1,11,1.3,19,M,,M,,*60
06/15/2015	19:00:51.635	$GPGGA,190052,2423.9088,N,08053.4324,W,1,11,1.3,19,M,,M,,*64
06/15/2015	19:00:52.565	$GPGGA,190053,2423.9095,N,08053.4339,W,1,11,1.3,19,M,,M,,*65
06/15/2015	19:00:53.585	$GPGGA,190054,2423.9102,N,08053.4353,W,1,11,1.3,19,M,,M,,*61
06/15/2015	19:00:54.555	$GPGGA,190055,2423.9112,N,08053.4365,W,1,11,1.3,19,M,,M,,*64
06/15/2015	19:00:55.585	$GPGGA,190056,2423.9120,N,08053.4379,W,1,11,1.3,19,M,,M,,*6B
06/15/2015	19:00:56.565	$GPGGA,190057,2423.9128,N,08053.4394,W,1,11,1.3,19,M,,M,,*61
06/15/2015	19:00:58.035	$GPGGA,190058,2423.9135,N,08053.4408,W,1,11,1.3,19,M,,M,,*60
06/15/2015	19:00:58.555	$GPGGA,190059,2423.9145,N,08053.4420,W,1,11,1.3,19,M,,M,,*6C
06/15/2015	19:00:59.608	$GPGGA,190100,2423.9153,N,08053.4433,W,1,11,1.3,19,M,,M,,*64
06/15/2015	19:01:00.546	$GPGGA,190101,2423.9160,N,08053.4447,W,1,11,1.3,19,M,,M,,*66
06/15/2015	19:01:01.556	$GPGGA,190102,2423.9170,N,08053.4462,W,1,11,1.3,19,M,,M,,*63
06/15/2015	19:01:02.546	$GPGGA,190103,2423.9178,N,08053.4476,W,1,11,1.3,19,M,,M,,*6F
06/15/2015	19:01:03.607	$GPGGA,190104,2423.9185,N,08053.4490,W,1,11,1.3,19,M,,M,,*62
06/15/2015	19:01:04.656	$GPGGA,190105,2423.9195,N,08053.4503,W,1,11,1.3,19,M,,M,,*69
06/15/2015	19:01:05.646	$GPGGA,190106,2423.9203,N,08053.4516,W,1,11,1.3,19,M,,M,,*62
06/15/2015	19:01:06.546	$GPGGA,190107,2423.9211,N,08053.4530,W,1,11,1.3,18,M,,M,,*65
06/15/2015	19:01:07.646	$GPGGA,190108,2423.9218,N,08053.4542,W,1,11,1.3,18,M,,M,,*66
06/15/2015	19:01:08.555	$GPGGA,190109,2423.9228,N,08053.4556,W,1,11,1.3,18,M,,M,,*61
06/15/2015	19:01:09.523	$GPGGA,190110,2423.9236,N,08053.4568,W,1,11,1.3,18,M,,M,,*6B
06/15/2015	19:01:10.615	$GPGGA,190111,2423.9245,N,08053.4584,W,1,11,1.3,18,M,,M,,*6C
06/15/2015	19:01:11.625	$GPGGA,190112,2423.9253,N,08053.4597,W,1,11,1.3,18,M,,M,,*6A
06/15/2015	19:01:12.635	$GPGGA,190113,2423.9261,N,08053.4610,W,1,11,1.3,18,M,,M,,*66
06/15/2015	19:01:13.519	$GPGGA,190114,2423.9271,N,08053.4624,W,1,11,1.3,18,M,,M,,*67
06/15/2015	19:01:14.608	$GPGGA,190115,2423.9279,N,08053.4637,W,1,11,1.3,18,M,,M,,*6C
06/15/2015	19:01:15.635	$GPGGA,190116,2423.9286,N,08053.4651,W,1,11,1.8,18,M,,M,,*64
06/15/2015	19:01:16.526	$GPGGA,190117,2423.9296,N,08053.4664,W,1,11,1.8,18,M,,M,,*62
06/15/2015	19:01:17.546	$GPGGA,190118,2423.9305,N,08053.4678,W,1,10,1.8,18,M,,M,,*6A
06/15/2015	19:01:18.521	$GPGGA,190119,2423.9312,N,08053.4691,W,1,10,1.8,18,M,,M,,*6A
06/15/2015	19:01:19.566	$GPGGA,190120,2423.9322,N,08053.4704,W,1,10,1.8,18,M,,M,,*6E
06/15/2015	19:01:20.616	$GPGGA,190121,2423.9332,N,08053.4718,W,1,10,1.8,18,M,,M,,*63
06/15/2015	19:01:21.586	$GPGGA,190122,2423.9340,N,08053.4733,W,1,10,1.8,18,M,,M,,*6C
06/15/2015	19:01:22.521	$GPGGA,190123,2423.9347,N,08053.4747,W,1,10,1.8,18,M,,M,,*69
06/15/2015	19:01:23.608	$GPGGA,190124,2423.9355,N,08053.4759,W,1,10,1.8,18,M,,M,,*62
06/15/2015	19:01:24.516	$GPGGA,190125,2423.9363,N,08053.4772,W,1,10,1.8,18,M,,M,,*6F
06/15/2015	19:01:25.606	$GPGGA,190126,2423.9372,N,08053.4785,W,1,10,1.8,18,M,,M,,*64
06/15/2015	19:01:26.585	$GPGGA,190127,2423.9381,N,08053.4798,W,1,10,1.8,18,M,,M,,*65
06/15/2015	19:01:27.625	$GPGGA,190128,2423.9391,N,08053.4812,W,1,10,1.8,18,M,,M,,*66
06/15/2015	19:01:28.506	$GPGGA,190129,2423.9398,N,08053.4827,W,1,10,1.8,18,M,,M,,*68
06/15/2015	19:01:29.575	$GPGGA,190130,2423.9406,N,08053.4841,W,1,10,1.8,18,M,,M,,*60
06/15/2015	19:01:30.585	$GPGGA,190131,2423.9413,N,08053.4853,W,1,10,1.8,18,M,,M,,*66
06/15/2015	19:01:31.595	$GPGGA,190132,2423.9424,N,08053.4866,W,1,10,1.8,18,M,,M,,*67
06/15/2015	19:01:32.575	$GPGGA,190133,2423.9433,N,08053.4879,W,1,10,1.8,18,M,,M,,*6E
06/15/2015	19:01:33.576	$GPGGA,190134,2423.9441,N,08053.4893,W,1,10,1.8,18,M,,M,,*68
06/15/2015	19:01:34.566	$GPGGA,190135,2423.9449,N,08053.4907,W,1,10,1.8,18,M,,M,,*6D
06/15/2015	19:01:35.596	$GPGGA,190136,2423.9458,N,08053.4921,W,1,10,1.8,18,M,,M,,*6A
06/15/2015	19:01:36.556	$GPGGA,190137,2423.9466,N,08053.4935,W,1,10,1.8,18,M,,M,,*63
06/15/2015	19:01:37.586	$GPGGA,190138,2423.9474,N,08053.4949,W,1,10,1.8,18,M,,M,,*64
06/15/2015	19:01:38.556	$GPGGA,190139,2423.9482,N,08053.4962,W,1,10,1.8,18,M,,M,,*65
06/15/2015	19:01:39.596	$GPGGA,190140,2423.9489,N,08053.4975,W,1,10,1.8,18,M,,M,,*66
06/15/2015	19:01:40.556	$GPGGA,190141,2423.9499,N,08053.4989,W,1,10,1.8,18,M,,M,,*65
06/15/2015	19:01:41.576	$GPGGA,190142,2423.9507,N,08053.5001,W,1,10,1.8,18,M,,M,,*68
06/15/2015	19:01:42.546	$GPGGA,190143,2423.9514,N,08053.5016,W,1,10,1.8,18,M,,M,,*6D
06/15/2015	19:01:43.595	$GPGGA,190144,2423.9523,N,08053.5030,W,1,10,1.8,18,M,,M,,*6A
06/15/2015	19:01:44.555	$GPGGA,190145,2423.9532,N,08053.5043,W,1,10,1.8,18,M,,M,,*6F
06/15/2015	19:01:45.565	$GPGGA,190146,2423.9539,N,08053.5056,W,1,10,1.8,18,M,,M,,*63
06/15/2015	19:01:47.865	$GPGGA,190148,2423.9556,N,08053.5083,W,1,10,1.8,18,M,,M,,*6C
06/15/2015	19:01:48.555	$GPGGA,190149,2423.9565,N,08053.5097,W,1,10,1.8,18,M,,M,,*68
06/15/2015	19:01:49.555	$GPGGA,190150,2423.9572,N,08053.5110,W,1,10,1.8,18,M,,M,,*68
06/15/2015	19:01:50.545	$GPGGA,190151,2423.9579,N,08053.5124,W,1,10,1.8,17,M,,M,,*6A
06/15/2015	19:01:51.566	$GPGGA,190152,2423.9587,N,08053.5137,W,1,10,1.8,17,M,,M,,*6A
06/15/2015	19:01:52.536	$GPGGA,190153,2423.9597,N,08053.5152,W,1,10,1.8,17,M,,M,,*69
06/15/2015	19:01:53.527	$GPGGA,190154,2423.9604,N,08053.5166,W,1,10,1.8,17,M,,M,,*60
06/15/2015	19:01:54.524	$GPGGA,190155,2423.9612,N,08053.5180,W,1,10,1.8,17,M,,M,,*6E
06/15/2015	19:01:55.546	$GPGGA,190156,2423.9621,N,08053.5193,W,1,10,1.8,17,M,,M,,*6F
06/15/2015	19:01:56.516	$GPGGA,190157,2423.9629,N,08053.5207,W,1,10,1.8,17,M,,M,,*68
06/15/2015	19:01:57.536	$GPGGA,190158,2423.9637,N,08053.5220,W,1,10,1.8,17,M,,M,,*6D
06/15/2015	19:01:58.636	$GPGGA,190159,2423.9646,N,08053.5232,W,1,10,1.8,17,M,,M,,*69
06/15/2015	19:01:59.556	$GPGGA,190200,2423.9654,N,08053.5246,W,1,10,1.8,17,M,,M,,*66
06/15/2015	19:02:00.516	$GPGGA,190201,2423.9662,N,08053.5260,W,1,10,1.8,17,M,,M,,*66
06/15/2015	19:02:01.515	$GPGGA,190202,2423.9670,N,08053.5275,W,1,10,1.8,17,M,,M,,*62
06/15/2015	19:02:02.525	$GPGGA,190203,2423.9680,N,08053.5289,W,1,10,1.8,17,M,,M,,*6F
06/15/2015	19:02:03.645	$GPGGA,190204,2423.9688,N,08053.5303,W,1,10,1.8,17,M,,M,,*63
06/15/2015	19:02:04.595	$GPGGA,190205,2423.9695,N,08053.5318,W,1,10,1.8,17,M,,M,,*64
06/15/2015	19:02:05.595	$GPGGA,190206,2423.9705,N,08053.5330,W,1,10,1.8,17,M,,M,,*65
06/15/2015	19:02:06.515	$GPGGA,190207,2423.9713,N,08053.5343,W,1,10,1.8,17,M,,M,,*67
06/15/2015	19:02:07.525	$GPGGA,190208,2423.9720,N,08053.5358,W,1,10,1.8,17,M,,M,,*62
06/15/2015	19:02:08.495	$GPGGA,190209,2423.9727,N,08053.5372,W,1,10,1.8,17,M,,M,,*6C
06/15/2015	19:02:09.596	$GPGGA,190210,2423.9738,N,08053.5386,W,1,10,1.8,17,M,,M,,*61
06/15/2015	19:02:10.886	$GPGGA,190211,2423.9747,N,08053.5401,W,1,10,1.8,17,M,,M,,*60
06/15/2015	19:02:11.596	$GPGGA,190212,2423.9753,N,08053.5415,W,1,10,1.8,17,M,,M,,*63
06/15/2015	19:02:12.496	$GPGGA,190213,2423.9762,N,08053.5428,W,1,10,1.8,17,M,,M,,*6E
06/15/2015	19:02:13.596	$GPGGA,190214,2423.9770,N,08053.5441,W,1,10,1.8,17,M,,M,,*65
06/15/2015	19:02:14.486	$GPGGA,190215,2423.9777,N,08053.5455,W,1,10,1.8,17,M,,M,,*66
06/15/2015	19:02:15.586	$GPGGA,190216,2423.9785,N,08053.5467,W,1,10,1.8,17,M,,M,,*69
06/15/2015	19:02:16.576	$GPGGA,190217,2423.9792,N,08053.5481,W,1,10,1.8,17,M,,M,,*66
06/15/2015	19:02:17.607	$GPGGA,190218,2423.9800,N,08053.5495,W,1,10,1.8,17,M,,M,,*68
06/15/2015	19:02:18.575	$GPGGA,190219,2423.9809,N,08053.5509,W,1,10,1.8,17,M,,M,,*64
06/15/2015	19:02:19.605	$GPGGA,190220,2423.9818,N,08053.5524,W,1,10,1.8,17,M,,M,,*61
06/15/2015	19:02:20.575	$GPGGA,190221,2423.9825,N,08053.5538,W,1,10,1.8,17,M,,M,,*63
06/15/2015	19:02:21.605	$GPGGA,190222,2423.9832,N,08053.5553,W,1,10,1.8,17,M,,M,,*6B
06/15/2015	19:02:22.586	$GPGGA,190223,2423.9839,N,08053.5564,W,1,10,1.8,17,M,,M,,*65
06/15/2015	19:02:23.595	$GPGGA,190224,2423.9847,N,08053.5576,W,1,10,1.8,17,M,,M,,*68
06/15/2015	19:02:24.566	$GPGGA,190225,2423.9857,N,08053.5590,W,1,10,1.8,17,M,,M,,*60
06/15/2015	19:02:25.585	$GPGGA,190226,2423.9865,N,08053.5604,W,1,10,1.8,17,M,,M,,*6C
06/15/2015	19:02:26.556	$GPGGA,190227,2423.9874,N,08053.5618,W,1,10,1.8,17,M,,M,,*60
06/15/2015	19:02:27.596	$GPGGA,190228,2423.9881,N,08053.5632,W,1,10,1.8,17,M,,M,,*6D
06/15/2015	19:02:28.546	$GPGGA,190229,2423.9889,N,08053.5644,W,1,10,1.8,17,M,,M,,*65
06/15/2015	19:02:29.556	$GPGGA,190230,2423.9897,N,08053.5658,W,1,10,1.8,17,M,,M,,*6F
06/15/2015	19:02:30.556	$GPGGA,190231,2423.9908,N,08053.5669,W,1,10,1.8,17,M,,M,,*6B
06/15/2015	19:02:31.576	$GPGGA,190232,2423.9915,N,08053.5683,W,1,10,1.8,17,M,,M,,*60
06/15/2015	19:02:32.546	$GPGGA,190233,2423.9922,N,08053.5697,W,1,10,1.8,17,M,,M,,*60
06/15/2015	19:02:33.576	$GPGGA,190234,2423.9932,N,08053.5710,W,1,10,1.8,17,M,,M,,*68
06/15/2015	19:02:34.546	$GPGGA,190235,2423.9940,N,08053.5723,W,1,10,1.8,17,M,,M,,*6C
06/15/2015	19:02:35.586	$GPGGA,190236,2423.9948,N,08053.5737,W,1,10,1.8,17,M,,M,,*62
06/15/2015	19:02:36.545	$GPGGA,190237,2423.9957,N,08053.5749,W,1,10,1.8,17,M,,M,,*64
06/15/2015	19:02:37.555	$GPGGA,190238,2423.9966,N,08053.5762,W,1,10,1.8,17,M,,M,,*60
06/15/2015	19:02:38.555	$GPGGA,190239,2423.9976,N,08053.5777,W,1,10,1.8,17,M,,M,,*64
06/15/2015	19:02:39.555	$GPGGA,190240,2423.9983,N,08053.5791,W,1,10,1.8,17,M,,M,,*68
06/15/2015	19:02:40.526	$GPGGA,190241,2423.9991,N,08053.5803,W,1,10,1.8,17,M,,M,,*6E
06/15/2015	19:02:41.555	$GPGGA,190242,2424.0001,N,08053.5816,W,1,10,1.8,17,M,,M,,*67
06/15/2015	19:02:42.522	$GPGGA,190243,2424.0009,N,08053.5831,W,1,10,1.8,17,M,,M,,*6B
06/15/2015	19:02:43.535	$GPGGA,190244,2424.0016,N,08053.5845,W,1,10,1.8,17,M,,M,,*61
06/15/2015	19:02:44.536	$GPGGA,190245,2424.0026,N,08053.5858,W,1,10,1.8,17,M,,M,,*6F
06/15/2015	19:02:45.546	$GPGGA,190246,2424.0034,N,08053.5872,W,1,10,1.8,17,M,,M,,*67
06/15/2015	19:02:46.526	$GPGGA,190247,2424.0042,N,08053.5886,W,1,10,1.8,17,M,,M,,*6C
06/15/2015	19:02:47.625	$GPGGA,190248,2424.0051,N,08053.5900,W,1,10,1.8,17,M,,M,,*6E
06/15/2015	19:02:48.514	$GPGGA,190249,2424.0060,N,08053.5914,W,1,10,1.8,17,M,,M,,*68
06/15/2015	19:02:49.622	$GPGGA,190250,2424.0067,N,08053.5928,W,1,10,1.8,17,M,,M,,*68
06/15/2015	19:02:50.507	$GPGGA,190251,2424.0077,N,08053.5941,W,1,10,1.8,17,M,,M,,*67
06/15/2015	19:02:51.636	$GPGGA,190252,2424.0085,N,08053.5954,W,1,10,1.8,17,M,,M,,*6D
06/15/2015	19:02:52.622	$GPGGA,190253,2424.0094,N,08053.5968,W,1,10,1.8,17,M,,M,,*63
06/15/2015	19:02:53.618	$GPGGA,190254,2424.0102,N,08053.5983,W,1,10,1.8,17,M,,M,,*6F
06/15/2015	19:02:54.595	$GPGGA,190255,2424.0110,N,08053.5997,W,1,10,1.8,17,M,,M,,*68
06/15/2015	19:02:55.495	$GPGGA,190256,2424.0118,N,08053.6011,W,1,10,1.8,17,M,,M,,*67
06/15/2015	19:02:56.495	$GPGGA,190257,2424.0128,N,08053.6024,W,1,10,1.8,17,M,,M,,*63
06/15/2015	19:02:57.606	$GPGGA,190258,2424.0135,N,08053.6038,W,1,10,1.8,17,M,,M,,*6D
06/15/2015	19:02:58.505	$GPGGA,190259,2424.0143,N,08053.6052,W,1,10,1.8,17,M,,M,,*61
06/15/2015	19:02:59.609	$GPGGA,190300,2424.0150,N,08053.6066,W,1,10,1.8,17,M,,M,,*69
06/15/2015	19:03:00.585	$GPGGA,190301,2424.0160,N,08053.6078,W,1,10,1.8,17,M,,M,,*64
06/15/2015	19:03:01.596	$GPGGA,190302,2424.0168,N,08053.6092,W,1,10,1.8,17,M,,M,,*6B
06/15/2015	19:03:02.586	$GPGGA,190303,2424.0175,N,08053.6106,W,1,10,1.8,17,M,,M,,*6A
06/15/2015	19:03:03.606	$GPGGA,190304,2424.0183,N,08053.6120,W,1,10,1.8,17,M,,M,,*60
06/15/2015	19:03:04.566	$GPGGA,190305,2424.0190,N,08053.6135,W,1,10,1.8,17,M,,M,,*67
06/15/2015	19:03:05.576	$GPGGA,190306,2424.0200,N,08053.6149,W,1,10,1.8,17,M,,M,,*65
06/15/2015	19:03:06.586	$GPGGA,190307,2424.0210,N,08053.6161,W,1,10,1.8,17,M,,M,,*6F
06/15/2015	19:03:07.596	$GPGGA,190308,2424.0219,N,08053.6175,W,1,10,1.8,17,M,,M,,*6C
06/15/2015	19:03:08.566	$GPGGA,190309,2424.0226,N,08053.6189,W,1,10,1.8,17,M,,M,,*62
06/15/2015	19:03:09.586	$GPGGA,190310,2424.0233,N,08053.6203,W,1,10,1.8,17,M,,M,,*6F
06/15/2015	19:03:10.556	$GPGGA,190311,2424.0244,N,08053.6215,W,1,10,1.8,17,M,,M,,*69
06/15/2015	19:03:11.595	$GPGGA,190312,2424.0251,N,08053.6229,W,1,10,1.8,17,M,,M,,*61
06/15/2015	19:03:12.565	$GPGGA,190313,2424.0258,N,08053.6243,W,1,10,1.8,17,M,,M,,*65
06/15/2015	19:03:13.575	$GPGGA,190314,2424.0268,N,08053.6257,W,1,10,1.8,17,M,,M,,*64
06/15/2015	19:03:14.555	$GPGGA,190315,2424.0277,N,08053.6270,W,1,10,1.8,17,M,,M,,*6E
06/15/2015	19:03:15.585	$GPGGA,190316,2424.0286,N,08053.6284,W,1,10,1.8,17,M,,M,,*68
06/15/2015	19:03:16.555	$GPGGA,190317,2424.0294,N,08053.6298,W,1,10,1.8,17,M,,M,,*67
06/15/2015	19:03:17.545	$GPGGA,190318,2424.0302,N,08053.6311,W,1,10,1.8,17,M,,M,,*66
06/15/2015	19:03:18.555	$GPGGA,190319,2424.0311,N,08053.6324,W,1,10,1.8,17,M,,M,,*63
06/15/2015	19:03:19.576	$GPGGA,190320,2424.0319,N,08053.6337,W,1,10,1.8,17,M,,M,,*63
06/15/2015	19:03:20.556	$GPGGA,190321,2424.0327,N,08053.6351,W,1,10,1.8,17,M,,M,,*6F
06/15/2015	19:03:21.536	$GPGGA,190322,2424.0337,N,08053.6366,W,1,10,1.8,17,M,,M,,*69
06/15/2015	19:03:22.536	$GPGGA,190323,2424.0345,N,08053.6380,W,1,10,1.8,17,M,,M,,*65
06/15/2015	19:03:23.546	$GPGGA,190324,2424.0354,N,08053.6392,W,1,10,1.8,17,M,,M,,*61
06/15/2015	19:03:24.546	$GPGGA,190325,2424.0362,N,08053.6405,W,1,10,1.8,17,M,,M,,*6C
06/15/2015	19:03:25.526	$GPGGA,190326,2424.0370,N,08053.6417,W,1,10,1.8,17,M,,M,,*6F
06/15/2015	19:03:26.536	$GPGGA,190327,2424.0378,N,08053.6431,W,1,10,1.8,17,M,,M,,*62
06/15/2015	19:03:27.536	$GPGGA,190328,2424.0388,N,08053.6443,W,1,10,1.8,17,M,,M,,*67
06/15/2015	19:03:28.535	$GPGGA,190329,2424.0396,N,08053.6456,W,1,10,1.8,17,M,,M,,*6D
06/15/2015	19:03:29.555	$GPGGA,190330,2424.0403,N,08053.6471,W,1,10,1.8,17,M,,M,,*6B
06/15/2015	19:03:30.535	$GPGGA,190331,2424.0412,N,08053.6485,W,1,10,1.8,17,M,,M,,*61
06/15/2015	19:03:31.535	$GPGGA,190332,2424.0421,N,08053.6499,W,1,10,1.8,17,M,,M,,*6F
06/15/2015	19:03:32.525	$GPGGA,190333,2424.0428,N,08053.6510,W,1,10,1.8,17,M,,M,,*67
06/15/2015	19:03:33.525	$GPGGA,190334,2424.0436,N,08053.6524,W,1,10,1.8,16,M,,M,,*69
06/15/2015	19:03:34.525	$GPGGA,190335,2424.0443,N,08053.6535,W,1,10,1.8,16,M,,M,,*6A
06/15/2015	19:03:35.555	$GPGGA,190336,2424.0453,N,08053.6547,W,1,10,1.8,16,M,,M,,*6D
06/15/2015	19:03:36.526	$GPGGA,190337,2424.0463,N,08053.6561,W,1,10,1.8,16,M,,M,,*6B
06/15/2015	19:03:37.656	$GPGGA,190338,2424.0471,N,08053.6575,W,1,10,1.8,16,M,,M,,*62
06/15/2015	19:03:38.506	$GPGGA,190339,2424.0479,N,08053.6590,W,1,10,1.8,16,M,,M,,*60
06/15/2015	19:03:39.526	$GPGGA,190340,2424.0486,N,08053.6604,W,1,10,1.8,16,M,,M,,*60
06/15/2015	19:03:40.596	$GPGGA,190341,2424.0495,N,08053.6616,W,1,10,1.8,16,M,,M,,*60
06/15/2015	19:03:41.618	$GPGGA,190342,2424.0503,N,08053.6629,W,1,10,1.8,16,M,,M,,*61
06/15/2015	19:03:42.586	$GPGGA,190343,2424.0511,N,08053.6641,W,1,10,1.8,16,M,,M,,*6D
06/15/2015	19:03:43.596	$GPGGA,190344,2424.0519,N,08053.6655,W,1,10,1.8,16,M,,M,,*67
06/15/2015	19:03:44.496	$GPGGA,190345,2424.0528,N,08053.6669,W,1,10,1.8,16,M,,M,,*6B
06/15/2015	19:03:45.605	$GPGGA,190346,2424.0536,N,08053.6683,W,1,10,1.8,16,M,,M,,*63
06/15/2015	19:03:46.495	$GPGGA,190347,2424.0544,N,08053.6696,W,1,10,1.8,16,M,,M,,*63
06/15/2015	19:03:47.645	$GPGGA,190348,2424.0553,N,08053.6710,W,1,10,1.8,16,M,,M,,*65
06/15/2015	19:03:49.173	$GPGGA,190349,2424.0562,N,08053.6724,W,1,10,1.8,16,M,,M,,*61
06/15/2015	19:03:49.625	$GPGGA,190350,2424.0569,N,08053.6738,W,1,10,1.8,16,M,,M,,*6F
06/15/2015	19:03:50.575	$GPGGA,190351,2424.0576,N,08053.6752,W,1,10,1.8,16,M,,M,,*6C
06/15/2015	19:03:51.655	$GPGGA,190352,2424.0586,N,08053.6764,W,1,10,1.8,16,M,,M,,*65
06/15/2015	19:03:52.565	$GPGGA,190353,2424.0594,N,08053.6777,W,1,10,1.8,16,M,,M,,*65
06/15/2015	19:03:53.595	$GPGGA,190354,2424.0602,N,08053.6792,W,1,10,1.8,16,M,,M,,*65
06/15/2015	19:03:54.646	$GPGGA,190355,2424.0609,N,08053.6806,W,1,10,1.8,16,M,,M,,*6D
06/15/2015	19:03:55.656	$GPGGA,190356,2424.0618,N,08053.6818,W,1,10,1.8,16,M,,M,,*61
06/15/2015	19:03:56.566	$GPGGA,190357,2424.0626,N,08053.6832,W,1,10,1.8,16,M,,M,,*65
06/15/2015	19:03:57.607	$GPGGA,190358,2424.0634,N,08053.6846,W,1,10,1.8,16,M,,M,,*6A
06/15/2015	19:03:58.556	$GPGGA,190359,2424.0641,N,08053.6860,W,1,10,1.8,16,M,,M,,*6D
06/15/2015	19:03:59.646	$GPGGA,190400,2424.0648,N,08053.6872,W,1,10,1.8,16,M,,M,,*6C
06/15/2015	19:04:00.626	$GPGGA,190401,2424.0656,N,08053.6886,W,1,10,1.8,16,M,,M,,*69
06/15/2015	19:04:01.596	$GPGGA,190402,2424.0663,N,08053.6898,W,1,10,1.8,16,M,,M,,*63
06/15/2015	19:04:02.606	$GPGGA,190403,2424.0670,N,08053.6912,W,1,10,1.8,16,M,,M,,*63
06/15/2015	19:04:03.606	$GPGGA,190404,2424.0677,N,08053.6926,W,1,10,1.8,16,M,,M,,*64
06/15/2015	19:04:04.595	$GPGGA,190405,2424.0685,N,08053.6940,W,1,10,1.8,16,M,,M,,*68
06/15/2015	19:04:05.595	$GPGGA,190406,2424.0694,N,08053.6952,W,1,10,1.8,16,M,,M,,*68
06/15/2015	19:04:06.595	$GPGGA,190407,2424.0701,N,08053.6965,W,1,10,1.8,16,M,,M,,*60
06/15/2015	19:04:07.605	$GPGGA,190408,2424.0709,N,08053.6978,W,1,10,1.8,16,M,,M,,*6B
06/15/2015	19:04:08.595	$GPGGA,190409,2424.0716,N,08053.6992,W,1,10,1.8,16,M,,M,,*60
06/15/2015	19:04:09.535	$GPGGA,190410,2424.0724,N,08053.7006,W,1,10,1.8,16,M,,M,,*6C
06/15/2015	19:04:10.525	$GPGGA,190411,2424.0732,N,08053.7020,W,1,10,1.8,16,M,,M,,*6E
06/15/2015	19:04:11.596	$GPGGA,190412,2424.0741,N,08053.7034,W,1,10,1.8,16,M,,M,,*6C
06/15/2015	19:04:12.526	$GPGGA,190413,2424.0748,N,08053.7046,W,1,10,1.8,16,M,,M,,*61
06/15/2015	19:04:13.526	$GPGGA,190414,2424.0756,N,08053.7059,W,1,10,1.8,16,M,,M,,*67
06/15/2015	19:04:14.516	$GPGGA,190415,2424.0764,N,08053.7072,W,1,10,1.8,16,M,,M,,*6E
06/15/2015	19:04:15.576	$GPGGA,190416,2424.0773,N,08053.7086,W,1,10,1.8,16,M,,M,,*60
06/15/2015	19:04:16.518	$GPGGA,190417,2424.0781,N,08053.7099,W,1,10,1.8,16,M,,M,,*62
06/15/2015	19:04:17.566	$GPGGA,190418,2424.0789,N,08053.7113,W,1,10,1.8,16,M,,M,,*66
06/15/2015	19:04:18.636	$GPGGA,190419,2424.0797,N,08053.7125,W,1,10,1.8,16,M,,M,,*6D
06/15/2015	19:04:19.646	$GPGGA,190420,2424.0804,N,08053.7139,W,1,10,1.8,16,M,,M,,*6F
06/15/2015	19:04:20.565	$GPGGA,190421,2424.0814,N,08053.7151,W,1,10,1.8,16,M,,M,,*61
06/15/2015	19:04:21.635	$GPGGA,190422,2424.0822,N,08053.7164,W,1,10,1.8,16,M,,M,,*61
06/15/2015	19:04:22.565	$GPGGA,190423,2424.0829,N,08053.7178,W,1,10,1.8,16,M,,M,,*66
06/15/2015	19:04:23.625	$GPGGA,190424,2424.0837,N,08053.7190,W,1,10,1.8,16,M,,M,,*68
06/15/2015	19:04:24.565	$GPGGA,190425,2424.0847,N,08053.7204,W,1,10,1.8,16,M,,M,,*60
06/15/2015	19:04:25.605	$GPGGA,190426,2424.0855,N,08053.7216,W,1,10,1.8,16,M,,M,,*63
06/15/2015	19:04:26.565	$GPGGA,190427,2424.0864,N,08053.7229,W,1,10,1.8,16,M,,M,,*6C
06/15/2015	19:04:27.617	$GPGGA,190428,2424.0872,N,08053.7243,W,1,10,1.8,16,M,,M,,*68
06/15/2015	19:04:28.595	$GPGGA,190429,2424.0880,N,08053.7255,W,1,10,1.8,16,M,,M,,*63
06/15/2015	19:04:29.636	$GPGGA,190430,2424.0887,N,08053.7269,W,1,10,1.8,16,M,,M,,*63
06/15/2015	19:04:30.596	$GPGGA,190431,2424.0898,N,08053.7280,W,1,10,1.8,16,M,,M,,*6B
06/15/2015	19:04:31.616	$GPGGA,190432,2424.0905,N,08053.7294,W,1,10,1.8,16,M,,M,,*68
06/15/2015	19:04:32.586	$GPGGA,190433,2424.0914,N,08053.7308,W,1,10,1.8,16,M,,M,,*6D
06/15/2015	19:04:33.620	$GPGGA,190434,2424.0923,N,08053.7321,W,1,10,1.8,16,M,,M,,*65
06/15/2015	19:04:34.586	$GPGGA,190435,2424.0933,N,08053.7334,W,1,10,1.8,16,M,,M,,*61
06/15/2015	19:04:35.626	$GPGGA,190436,2424.0941,N,08053.7348,W,1,10,1.8,16,M,,M,,*6C
06/15/2015	19:04:36.576	$GPGGA,190437,2424.0948,N,08053.7360,W,1,10,1.8,16,M,,M,,*6E
06/15/2015	19:04:37.609	$GPGGA,190438,2424.0958,N,08053.7373,W,1,10,1.8,16,M,,M,,*62
06/15/2015	19:04:38.585	$GPGGA,190439,2424.0966,N,08053.7385,W,1,10,1.8,16,M,,M,,*67
06/15/2015	19:04:39.595	$GPGGA,190440,2424.0974,N,08053.7399,W,1,10,1.8,16,M,,M,,*67
06/15/2015	19:04:40.595	$GPGGA,190441,2424.0983,N,08053.7413,W,1,10,1.8,16,M,,M,,*6B
06/15/2015	19:04:41.575	$GPGGA,190442,2424.0992,N,08053.7426,W,1,10,1.8,16,M,,M,,*6E
06/15/2015	19:04:42.585	$GPGGA,190443,2424.1002,N,08053.7440,W,1,10,1.8,16,M,,M,,*6E
06/15/2015	19:04:43.575	$GPGGA,190444,2424.1010,N,08053.7454,W,1,10,1.8,16,M,,M,,*6F
06/15/2015	19:04:44.565	$GPGGA,190445,2424.1017,N,08053.7467,W,1,10,1.8,16,M,,M,,*69
06/15/2015	19:04:45.555	$GPGGA,190446,2424.1026,N,08053.7480,W,1,10,1.8,16,M,,M,,*61
06/15/2015	19:04:46.586	$GPGGA,190447,2424.1035,N,08053.7493,W,1,10,1.8,16,M,,M,,*60
06/15/2015	19:04:47.586	$GPGGA,190448,2424.1042,N,08053.7507,W,1,10,1.8,16,M,,M,,*63
06/15/2015	19:04:49.610	$GPGGA,190450,2424.1059,N,08053.7536,W,1,10,1.8,16,M,,M,,*62
06/15/2015	19:04:50.556	$GPGGA,190451,2424.1068,N,08053.7550,W,1,10,1.8,16,M,,M,,*61
06/15/2015	19:04:51.607	$GPGGA,190452,2424.1075,N,08053.7563,W,1,10,1.8,16,M,,M,,*6E
06/15/2015	19:04:52.556	$GPGGA,190453,2424.1084,N,08053.7577,W,1,10,1.8,16,M,,M,,*64
06/15/2015	19:04:53.556	$GPGGA,190454,2424.1092,N,08053.7591,W,1,10,1.8,16,M,,M,,*6C
06/15/2015	19:04:54.556	$GPGGA,190455,2424.1099,N,08053.7605,W,1,10,1.8,16,M,,M,,*68
06/15/2015	19:04:55.885	$GPGGA,190456,2424.1106,N,08053.7617,W,1,10,1.8,16,M,,M,,*6F
06/15/2015	19:04:56.585	$GPGGA,190457,2424.1115,N,08053.7630,W,1,10,1.8,16,M,,M,,*69
06/15/2015	19:04:57.565	$GPGGA,190458,2424.1124,N,08053.7645,W,1,10,1.8,16,M,,M,,*66
06/15/2015	19:04:58.585	$GPGGA,190459,2424.1132,N,08053.7659,W,1,10,1.8,16,M,,M,,*6D
06/15/2015	19:04:59.565	$GPGGA,190500,2424.1138,N,08053.7673,W,1,10,1.8,16,M,,M,,*62
06/15/2015	19:05:00.545	$GPGGA,190501,2424.1138,N,08053.7673,W,1,10,1.8,16,M,,M,,*63
06/15/2015	19:05:01.545	$GPGGA,190502,2424.1154,N,08053.7696,W,1,10,1.8,16,M,,M,,*61
06/15/2015	19:05:02.555	$GPGGA,190503,2424.1162,N,08053.7709,W,1,10,1.8,16,M,,M,,*62
06/15/2015	19:05:03.586	$GPGGA,190504,2424.1162,N,08053.7709,W,1,10,1.8,16,M,,M,,*65
06/15/2015	19:05:04.514	$GPGGA,190505,2424.1169,N,08053.7721,W,1,10,1.8,16,M,,M,,*65
06/15/2015	19:05:05.534	$GPGGA,190506,2424.1187,N,08053.7749,W,1,10,1.8,16,M,,M,,*68
06/15/2015	19:05:06.524	$GPGGA,190507,2424.1187,N,08053.7749,W,1,10,1.8,16,M,,M,,*69
06/15/2015	19:05:07.634	$GPGGA,190508,2424.1201,N,08053.7775,W,1,10,1.8,16,M,,M,,*64
06/15/2015	19:05:08.514	$GPGGA,190509,2424.1201,N,08053.7775,W,1,10,1.8,16,M,,M,,*65
06/15/2015	19:05:09.509	$GPGGA,190510,2424.1219,N,08053.7798,W,1,10,1.8,16,M,,M,,*67
06/15/2015	19:05:10.584	$GPGGA,190511,2424.1227,N,08053.7811,W,1,10,1.8,16,M,,M,,*65
06/15/2015	19:05:11.500	$GPGGA,190512,2424.1234,N,08053.7825,W,1,10,1.8,16,M,,M,,*63
06/15/2015	19:05:12.598	$GPGGA,190513,2424.1245,N,08053.7837,W,1,10,1.8,16,M,,M,,*67
06/15/2015	19:05:13.613	$GPGGA,190514,2424.1254,N,08053.7851,W,1,10,1.8,16,M,,M,,*60
06/15/2015	19:05:14.513	$GPGGA,190515,2424.1254,N,08053.7851,W,1,10,1.8,16,M,,M,,*61
06/15/2015	19:05:15.623	$GPGGA,190516,2424.1269,N,08053.7877,W,1,10,1.8,16,M,,M,,*68
06/15/2015	19:05:16.504	$GPGGA,190517,2424.1269,N,08053.7877,W,1,10,1.8,16,M,,M,,*69
06/15/2015	19:05:17.583	$GPGGA,190518,2424.1288,N,08053.7902,W,1,10,1.8,16,M,,M,,*6A
06/15/2015	19:05:18.583	$GPGGA,190519,2424.1295,N,08053.7916,W,1,10,1.8,16,M,,M,,*62
06/15/2015	19:05:19.607	$GPGGA,190520,2424.1303,N,08053.7930,W,1,10,1.8,16,M,,M,,*62
06/15/2015	19:05:20.573	$GPGGA,190521,2424.1313,N,08053.7944,W,1,10,1.8,16,M,,M,,*61
06/15/2015	19:05:21.563	$GPGGA,190522,2424.1321,N,08053.7957,W,1,10,1.8,16,M,,M,,*61
06/15/2015	19:05:22.584	$GPGGA,190523,2424.1328,N,08053.7971,W,1,10,1.8,16,M,,M,,*6D
06/15/2015	19:05:23.584	$GPGGA,190524,2424.1338,N,08053.7984,W,1,10,1.8,16,M,,M,,*61
06/15/2015	19:05:24.574	$GPGGA,190525,2424.1348,N,08053.7996,W,1,10,1.8,17,M,,M,,*65
06/15/2015	19:05:25.574	$GPGGA,190526,2424.1355,N,08053.8009,W,1,10,1.8,17,M,,M,,*6A
06/15/2015	19:05:26.554	$GPGGA,190527,2424.1362,N,08053.8024,W,1,10,1.8,17,M,,M,,*60
06/15/2015	19:05:27.584	$GPGGA,190528,2424.1371,N,08053.8036,W,1,10,1.8,17,M,,M,,*6E
06/15/2015	19:05:28.564	$GPGGA,190529,2424.1380,N,08053.8051,W,1,10,1.8,17,M,,M,,*60
06/15/2015	19:05:29.554	$GPGGA,190530,2424.1388,N,08053.8065,W,1,10,1.8,17,M,,M,,*67
06/15/2015	19:05:30.563	$GPGGA,190531,2424.1395,N,08053.8079,W,1,10,1.8,17,M,,M,,*67
06/15/2015	19:05:31.583	$GPGGA,190532,2424.1403,N,08053.8092,W,1,10,1.8,17,M,,M,,*69
06/15/2015	19:05:32.553	$GPGGA,190533,2424.1411,N,08053.8104,W,1,10,1.8,17,M,,M,,*65
06/15/2015	19:05:33.563	$GPGGA,190534,2424.1420,N,08053.8118,W,1,10,1.8,17,M,,M,,*6D
06/15/2015	19:05:34.553	$GPGGA,190535,2424.1427,N,08053.8132,W,1,10,1.8,17,M,,M,,*63
06/15/2015	19:05:35.573	$GPGGA,190536,2424.1435,N,08053.8145,W,1,10,1.8,17,M,,M,,*63
06/15/2015	19:05:36.543	$GPGGA,190537,2424.1443,N,08053.8159,W,1,10,1.8,17,M,,M,,*6E
06/15/2015	19:05:37.563	$GPGGA,190538,2424.1451,N,08053.8175,W,1,10,1.8,17,M,,M,,*6C
06/15/2015	19:05:38.533	$GPGGA,190539,2424.1460,N,08053.8188,W,1,10,1.8,17,M,,M,,*6D
06/15/2015	19:05:39.544	$GPGGA,190540,2424.1467,N,08053.8201,W,1,10,1.8,17,M,,M,,*66
06/15/2015	19:05:40.544	$GPGGA,190541,2424.1475,N,08053.8215,W,1,10,1.8,17,M,,M,,*61
06/15/2015	19:05:41.524	$GPGGA,190542,2424.1482,N,08053.8227,W,1,10,1.8,17,M,,M,,*6B
06/15/2015	19:05:42.524	$GPGGA,190543,2424.1490,N,08053.8241,W,1,10,1.8,17,M,,M,,*69
06/15/2015	19:05:43.564	$GPGGA,190544,2424.1497,N,08053.8255,W,1,10,1.8,17,M,,M,,*6C
06/15/2015	19:05:44.514	$GPGGA,190545,2424.1505,N,08053.8270,W,1,10,1.8,17,M,,M,,*60
06/15/2015	19:05:45.524	$GPGGA,190546,2424.1512,N,08053.8284,W,1,10,1.8,17,M,,M,,*6E
06/15/2015	19:05:46.534	$GPGGA,190547,2424.1521,N,08053.8298,W,1,10,1.8,17,M,,M,,*62
06/15/2015	19:05:47.524	$GPGGA,190548,2424.1529,N,08053.8313,W,1,10,1.8,17,M,,M,,*67
06/15/2015	19:05:48.533	$GPGGA,190549,2424.1534,N,08053.8325,W,1,10,1.8,17,M,,M,,*6F
06/15/2015	19:05:49.508	$GPGGA,190550,2424.1543,N,08053.8339,W,1,10,1.8,17,M,,M,,*6A
06/15/2015	19:05:50.623	$GPGGA,190551,2424.1552,N,08053.8353,W,1,10,1.8,17,M,,M,,*67
06/15/2015	19:05:51.553	$GPGGA,190552,2424.1559,N,08053.8367,W,1,10,1.8,17,M,,M,,*68
06/15/2015	19:05:52.523	$GPGGA,190553,2424.1565,N,08053.8381,W,1,10,1.8,17,M,,M,,*6E
06/15/2015	19:05:53.513	$GPGGA,190554,2424.1573,N,08053.8394,W,1,10,1.8,17,M,,M,,*6A
06/15/2015	19:05:54.523	$GPGGA,190555,2424.1581,N,08053.8408,W,1,10,1.8,17,M,,M,,*64
06/15/2015	19:05:55.507	$GPGGA,190556,2424.1588,N,08053.8423,W,1,10,1.8,17,M,,M,,*67
06/15/2015	19:05:56.614	$GPGGA,190557,2424.1595,N,08053.8437,W,1,10,1.8,17,M,,M,,*6F
06/15/2015	19:05:57.514	$GPGGA,190558,2424.1602,N,08053.8451,W,1,10,1.8,17,M,,M,,*6D
06/15/2015	19:05:58.595	$GPGGA,190559,2424.1610,N,08053.8465,W,1,10,1.8,17,M,,M,,*68
06/15/2015	19:05:59.524	$GPGGA,190600,2424.1617,N,08053.8477,W,1,10,1.8,17,M,,M,,*63
06/15/2015	19:06:01.614	$GPGGA,190602,2424.1633,N,08053.8506,W,1,10,1.8,17,M,,M,,*60
06/15/2015	19:06:02.574	$GPGGA,190603,2424.1642,N,08053.8522,W,1,10,1.8,17,M,,M,,*61
06/15/2015	19:06:03.624	$GPGGA,190604,2424.1649,N,08053.8537,W,1,10,1.8,17,M,,M,,*69
06/15/2015	19:06:04.584	$GPGGA,190605,2424.1656,N,08053.8551,W,1,10,1.8,17,M,,M,,*66
06/15/2015	19:06:05.573	$GPGGA,190606,2424.1664,N,08053.8564,W,1,10,1.8,17,M,,M,,*62
06/15/2015	19:06:06.583	$GPGGA,190607,2424.1671,N,08053.8577,W,1,10,1.8,17,M,,M,,*65
06/15/2015	19:06:07.583	$GPGGA,190608,2424.1678,N,08053.8591,W,1,10,1.8,17,M,,M,,*6B
06/15/2015	19:06:08.573	$GPGGA,190609,2424.1686,N,08053.8605,W,1,10,1.8,17,M,,M,,*65
06/15/2015	19:06:09.583	$GPGGA,190610,2424.1695,N,08053.8618,W,1,10,1.8,17,M,,M,,*63
06/15/2015	19:06:10.563	$GPGGA,190611,2424.1703,N,08053.8634,W,1,10,1.8,17,M,,M,,*62
06/15/2015	19:06:11.597	$GPGGA,190612,2424.1711,N,08053.8649,W,1,10,1.8,17,M,,M,,*68
06/15/2015	19:06:12.563	$GPGGA,190613,2424.1721,N,08053.8663,W,1,10,1.8,17,M,,M,,*62
06/15/2015	19:06:13.563	$GPGGA,190614,2424.1728,N,08053.8676,W,1,10,1.8,17,M,,M,,*68
06/15/2015	19:06:14.565	$GPGGA,190615,2424.1735,N,08053.8689,W,1,10,1.8,17,M,,M,,*65
06/15/2015	19:06:15.614	$GPGGA,190616,2424.1743,N,08053.8703,W,1,10,1.8,17,M,,M,,*64
06/15/2015	19:06:16.564	$GPGGA,190617,2424.1751,N,08053.8717,W,1,10,1.7,17,M,,M,,*6C
06/15/2015	19:06:17.544	$GPGGA,190618,2424.1761,N,08053.8730,W,1,10,1.7,17,M,,M,,*65
06/15/2015	19:06:18.554	$GPGGA,190619,2424.1768,N,08053.8746,W,1,10,1.7,17,M,,M,,*6C
06/15/2015	19:06:19.574	$GPGGA,190620,2424.1778,N,08053.8759,W,1,10,1.7,17,M,,M,,*69
06/15/2015	19:06:20.544	$GPGGA,190621,2424.1786,N,08053.8773,W,1,10,1.7,17,M,,M,,*61
06/15/2015	19:06:21.564	$GPGGA,190622,2424.1796,N,08053.8787,W,1,10,1.7,17,M,,M,,*68
06/15/2015	19:06:22.544	$GPGGA,190623,2424.1804,N,08053.8801,W,1,10,1.7,17,M,,M,,*6C
06/15/2015	19:06:23.583	$GPGGA,190624,2424.1812,N,08053.8815,W,1,10,1.7,17,M,,M,,*69
06/15/2015	19:06:24.533	$GPGGA,190625,2424.1821,N,08053.8827,W,1,10,1.7,17,M,,M,,*69
06/15/2015	19:06:25.533	$GPGGA,190626,2424.1829,N,08053.8842,W,1,10,1.7,17,M,,M,,*61
06/15/2015	19:06:26.543	$GPGGA,190627,2424.1837,N,08053.8858,W,1,10,1.7,17,M,,M,,*64
06/15/2015	19:06:27.553	$GPGGA,190628,2424.1847,N,08053.8871,W,1,10,1.7,17,M,,M,,*67
06/15/2015	19:06:28.543	$GPGGA,190629,2424.1855,N,08053.8885,W,1,10,1.7,17,M,,M,,*6E
06/15/2015	19:06:29.553	$GPGGA,190630,2424.1863,N,08053.8899,W,1,10,1.7,17,M,,M,,*6E
06/15/2015	19:06:30.533	$GPGGA,190631,2424.1872,N,08053.8913,W,1,10,1.7,17,M,,M,,*6C
06/15/2015	19:06:31.564	$GPGGA,190632,2424.1881,N,08053.8927,W,1,10,1.7,17,M,,M,,*64
06/15/2015	19:06:32.514	$GPGGA,190633,2424.1891,N,08053.8941,W,1,10,1.7,17,M,,M,,*64
06/15/2015	19:06:33.514	$GPGGA,190634,2424.1898,N,08053.8956,W,1,10,1.7,17,M,,M,,*6C
06/15/2015	19:06:34.634	$GPGGA,190635,2424.1906,N,08053.8970,W,1,10,1.7,17,M,,M,,*6F
06/15/2015	19:06:35.554	$GPGGA,190636,2424.1916,N,08053.8985,W,1,10,1.7,17,M,,M,,*67
06/15/2015	19:06:36.506	$GPGGA,190637,2424.1924,N,08053.8999,W,1,10,1.7,17,M,,M,,*6A
06/15/2015	19:06:37.524	$GPGGA,190638,2424.1933,N,08053.9012,W,1,10,1.7,17,M,,M,,*68
06/15/2015	19:06:38.504	$GPGGA,190639,2424.1942,N,08053.9026,W,1,10,1.7,17,M,,M,,*68
06/15/2015	19:06:39.554	$GPGGA,190640,2424.1949,N,08053.9040,W,1,10,1.7,17,M,,M,,*6D
06/15/2015	19:06:40.623	$GPGGA,190641,2424.1956,N,08053.9055,W,1,10,1.7,17,M,,M,,*66
06/15/2015	19:06:41.496	$GPGGA,190642,2424.1966,N,08053.9071,W,1,10,1.7,17,M,,M,,*60
06/15/2015	19:06:42.823	$GPGGA,190643,2424.1974,N,08053.9084,W,1,10,1.7,17,M,,M,,*68
06/15/2015	19:06:43.523	$GPGGA,190644,2424.1982,N,08053.9098,W,1,10,1.7,17,M,,M,,*6B
06/15/2015	19:06:44.495	$GPGGA,190645,2424.1989,N,08053.9113,W,1,10,1.7,17,M,,M,,*63
06/15/2015	19:06:45.583	$GPGGA,190646,2424.1999,N,08053.9126,W,1,10,1.7,17,M,,M,,*67
06/15/2015	19:06:46.496	$GPGGA,190647,2424.2007,N,08053.9141,W,1,10,1.7,17,M,,M,,*6A
06/15/2015	19:06:47.633	$GPGGA,190648,2424.2017,N,08053.9156,W,1,10,1.7,17,M,,M,,*62
06/15/2015	19:06:48.583	$GPGGA,190649,2424.2024,N,08053.9171,W,1,10,1.7,17,M,,M,,*66
06/15/2015	19:06:49.584	$GPGGA,190650,2424.2032,N,08053.9187,W,1,10,1.7,17,M,,M,,*60
06/15/2015	19:06:50.574	$GPGGA,190651,2424.2042,N,08053.9201,W,1,10,1.7,17,M,,M,,*6B
06/15/2015	19:06:51.624	$GPGGA,190652,2424.2050,N,08053.9216,W,1,10,1.7,17,M,,M,,*6D
06/15/2015	19:06:52.495	$GPGGA,190653,2424.2057,N,08053.9230,W,1,10,1.7,17,M,,M,,*6F
06/15/2015	19:06:53.574	$GPGGA,190654,2424.2067,N,08053.9245,W,1,10,1.7,17,M,,M,,*69
06/15/2015	19:06:55.656	$GPGGA,190656,2424.2083,N,08053.9274,W,1,10,1.7,17,M,,M,,*63
06/15/2015	19:06:56.564	$GPGGA,190657,2424.2090,N,08053.9289,W,1,10,1.7,17,M,,M,,*62
06/15/2015	19:06:59.034	$GPGGA,190659,2424.2108,N,08053.9319,W,1,10,1.7,17,M,,M,,*64
06/15/2015	19:06:59.603	$GPGGA,190700,2424.2115,N,08053.9335,W,1,10,1.7,17,M,,M,,*6B
06/15/2015	19:07:00.553	$GPGGA,190701,2424.2122,N,08053.9350,W,1,10,1.7,17,M,,M,,*6D
06/15/2015	19:07:01.573	$GPGGA,190702,2424.2130,N,08053.9364,W,1,10,1.7,17,M,,M,,*6A
06/15/2015	19:07:02.553	$GPGGA,190703,2424.2139,N,08053.9379,W,1,10,1.7,17,M,,M,,*6E
06/15/2015	19:07:03.583	$GPGGA,190704,2424.2146,N,08053.9393,W,1,10,1.7,17,M,,M,,*65
06/15/2015	19:07:04.573	$GPGGA,190705,2424.2154,N,08053.9409,W,1,10,1.7,17,M,,M,,*63
06/15/2015	19:07:05.543	$GPGGA,190706,2424.2162,N,08053.9423,W,1,10,1.7,17,M,,M,,*6D
06/15/2015	19:07:06.544	$GPGGA,190707,2424.2169,N,08053.9440,W,1,10,1.7,17,M,,M,,*62
06/15/2015	19:07:07.574	$GPGGA,190708,2424.2177,N,08053.9454,W,1,10,1.7,17,M,,M,,*67
06/15/2015	19:07:08.534	$GPGGA,190709,2424.2184,N,08053.9469,W,1,10,1.7,17,M,,M,,*64
06/15/2015	19:07:09.565	$GPGGA,190710,2424.2193,N,08053.9485,W,1,10,1.7,17,M,,M,,*68
06/15/2015	19:07:10.534	$GPGGA,190711,2424.2199,N,08053.9501,W,1,10,1.7,17,M,,M,,*6E
06/15/2015	19:07:11.574	$GPGGA,190712,2424.2208,N,08053.9516,W,1,10,1.7,17,M,,M,,*60
06/15/2015	19:07:12.534	$GPGGA,190713,2424.2215,N,08053.9530,W,1,10,1.7,17,M,,M,,*69
06/15/2015	19:07:13.524	$GPGGA,190714,2424.2222,N,08053.9545,W,1,10,1.7,17,M,,M,,*68
06/15/2015	19:07:14.524	$GPGGA,190715,2424.2230,N,08053.9560,W,1,10,1.7,17,M,,M,,*6D
06/15/2015	19:07:15.563	$GPGGA,190716,2424.2238,N,08053.9577,W,1,10,1.7,17,M,,M,,*60
06/15/2015	19:07:16.533	$GPGGA,190717,2424.2245,N,08053.9592,W,1,10,1.7,17,M,,M,,*60
06/15/2015	19:07:17.533	$GPGGA,190718,2424.2252,N,08053.9607,W,1,10,1.7,17,M,,M,,*66
06/15/2015	19:07:18.513	$GPGGA,190719,2424.2260,N,08053.9622,W,1,10,1.7,17,M,,M,,*61
06/15/2015	19:07:19.563	$GPGGA,190720,2424.2267,N,08053.9636,W,1,10,1.7,17,M,,M,,*69
06/15/2015	19:07:20.633	$GPGGA,190721,2424.2274,N,08053.9651,W,1,10,1.7,17,M,,M,,*6B
06/15/2015	19:07:21.543	$GPGGA,190722,2424.2281,N,08053.9667,W,1,10,1.7,17,M,,M,,*67
06/15/2015	19:07:23.663	$GPGGA,190724,2424.2296,N,08053.9698,W,1,10,1.7,17,M,,M,,*67
06/15/2015	19:07:24.505	$GPGGA,190725,2424.2305,N,08053.9714,W,1,10,1.7,17,M,,M,,*68
06/15/2015	19:07:25.514	$GPGGA,190726,2424.2311,N,08053.9729,W,1,10,1.7,17,M,,M,,*60
06/15/2015	19:07:26.614	$GPGGA,190727,2424.2320,N,08053.9743,W,1,10,1.7,17,M,,M,,*6F
06/15/2015	19:07:27.634	$GPGGA,190728,2424.2328,N,08053.9758,W,1,10,1.7,17,M,,M,,*62
06/15/2015	19:07:28.611	$GPGGA,190729,2424.2335,N,08053.9772,W,1,10,1.7,17,M,,M,,*67
06/15/2015	19:07:29.494	$GPGGA,190730,2424.2343,N,08053.9787,W,1,10,1.7,17,M,,M,,*64
06/15/2015	19:07:30.505	$GPGGA,190731,2424.2350,N,08053.9803,W,1,10,1.7,17,M,,M,,*64
06/15/2015	19:07:31.504	$GPGGA,190732,2424.2359,N,08053.9819,W,1,10,1.7,17,M,,M,,*65
06/15/2015	19:07:32.504	$GPGGA,190733,2424.2367,N,08053.9834,W,1,10,1.7,17,M,,M,,*66
06/15/2015	19:07:33.583	$GPGGA,190734,2424.2374,N,08053.9850,W,1,10,1.7,17,M,,M,,*61
06/15/2015	19:07:34.493	$GPGGA,190735,2424.2382,N,08053.9864,W,1,10,1.7,17,M,,M,,*6E
06/15/2015	19:07:35.597	$GPGGA,190736,2424.2390,N,08053.9879,W,1,10,1.7,17,M,,M,,*62
06/15/2015	19:07:36.493	$GPGGA,190737,2424.2397,N,08053.9895,W,1,10,1.7,17,M,,M,,*66
06/15/2015	19:07:37.573	$GPGGA,190738,2424.2406,N,08053.9910,W,1,10,1.7,17,M,,M,,*6A
06/15/2015	19:07:38.573	$GPGGA,190739,2424.2414,N,08053.9925,W,1,10,1.7,17,M,,M,,*6E
06/15/2015	19:07:39.583	$GPGGA,190740,2424.2422,N,08053.9942,W,1,10,1.7,17,M,,M,,*64
06/15/2015	19:07:40.573	$GPGGA,190741,2424.2430,N,08053.9957,W,1,10,1.7,17,M,,M,,*62
06/15/2015	19:07:41.598	$GPGGA,190742,2424.2437,N,08053.9971,W,1,10,1.7,17,M,,M,,*62
06/15/2015	19:07:42.564	$GPGGA,190743,2424.2446,N,08053.9986,W,1,10,1.7,17,M,,M,,*6D
06/15/2015	19:07:43.584	$GPGGA,190744,2424.2455,N,08054.0001,W,1,10,1.7,17,M,,M,,*60
06/15/2015	19:07:44.564	$GPGGA,190745,2424.2462,N,08054.0016,W,1,10,1.7,17,M,,M,,*63
06/15/2015	19:07:45.585	$GPGGA,190746,2424.2472,N,08054.0032,W,1,10,1.7,17,M,,M,,*67
06/15/2015	19:07:46.554	$GPGGA,190747,2424.2479,N,08054.0047,W,1,10,1.7,17,M,,M,,*6F
06/15/2015	19:07:47.574	$GPGGA,190748,2424.2488,N,08054.0061,W,1,10,1.7,17,M,,M,,*6A
06/15/2015	19:07:48.554	$GPGGA,190749,2424.2497,N,08054.0076,W,1,10,1.7,17,M,,M,,*63
06/15/2015	19:07:49.574	$GPGGA,190750,2424.2505,N,08054.0091,W,1,10,1.7,17,M,,M,,*68
06/15/2015	19:07:50.553	$GPGGA,190751,2424.2513,N,08054.0106,W,1,10,1.7,17,M,,M,,*61
06/15/2015	19:07:51.573	$GPGGA,190752,2424.2522,N,08054.0121,W,1,10,1.7,17,M,,M,,*65
06/15/2015	19:07:52.554	$GPGGA,190753,2424.2530,N,08054.0137,W,1,10,1.7,17,M,,M,,*60
06/15/2015	19:07:53.553	$GPGGA,190754,2424.2538,N,08054.0152,W,1,10,1.7,17,M,,M,,*6C
06/15/2015	19:07:54.553	$GPGGA,190755,2424.2545,N,08054.0167,W,1,10,1.7,17,M,,M,,*61
06/15/2015	19:07:55.574	$GPGGA,190756,2424.2555,N,08054.0182,W,1,10,1.7,17,M,,M,,*68
06/15/2015	19:07:56.543	$GPGGA,190757,2424.2563,N,08054.0197,W,1,10,1.7,17,M,,M,,*68
06/15/2015	19:07:57.573	$GPGGA,190758,2424.2570,N,08054.0213,W,1,10,1.7,17,M,,M,,*6A
06/15/2015	19:07:58.543	$GPGGA,190759,2424.2580,N,08054.0228,W,1,10,1.7,17,M,,M,,*6C
06/15/2015	19:07:59.554	$GPGGA,190800,2424.2588,N,08054.0242,W,1,10,1.7,17,M,,M,,*6B
06/15/2015	19:08:00.524	$GPGGA,190801,2424.2596,N,08054.0257,W,1,10,1.7,17,M,,M,,*61
06/15/2015	19:08:01.534	$GPGGA,190802,2424.2603,N,08054.0272,W,1,10,1.7,17,M,,M,,*6A
06/15/2015	19:08:02.544	$GPGGA,190803,2424.2613,N,08054.0287,W,1,10,1.7,17,M,,M,,*60
06/15/2015	19:08:03.534	$GPGGA,190804,2424.2621,N,08054.0303,W,1,10,1.7,17,M,,M,,*6B
06/15/2015	19:08:04.534	$GPGGA,190805,2424.2628,N,08054.0318,W,1,10,1.7,17,M,,M,,*69
06/15/2015	19:08:05.534	$GPGGA,190806,2424.2636,N,08054.0333,W,1,10,1.7,17,M,,M,,*6C
06/15/2015	19:08:06.510	$GPGGA,190807,2424.2646,N,08054.0348,W,1,10,1.7,17,M,,M,,*66
06/15/2015	19:08:07.674	$GPGGA,190808,2424.2654,N,08054.0363,W,1,10,1.7,17,M,,M,,*63
06/15/2015	19:08:08.513	$GPGGA,190809,2424.2661,N,08054.0377,W,1,10,1.7,17,M,,M,,*61
06/15/2015	19:08:09.633	$GPGGA,190810,2424.2670,N,08054.0394,W,1,10,1.7,17,M,,M,,*64
06/15/2015	19:08:10.513	$GPGGA,190811,2424.2678,N,08054.0408,W,1,10,1.7,17,M,,M,,*6F
06/15/2015	19:08:11.533	$GPGGA,190812,2424.2686,N,08054.0424,W,1,10,1.7,17,M,,M,,*63
06/15/2015	19:08:12.497	$GPGGA,190813,2424.2695,N,08054.0439,W,1,10,1.8,17,M,,M,,*63
06/15/2015	19:08:13.523	$GPGGA,190814,2424.2704,N,08054.0453,W,1,10,1.7,17,M,,M,,*6E
06/15/2015	19:08:14.502	$GPGGA,190815,2424.2711,N,08054.0469,W,1,10,1.7,17,M,,M,,*62
06/15/2015	19:08:15.608	$GPGGA,190816,2424.2719,N,08054.0484,W,1,10,1.7,17,M,,M,,*6A
06/15/2015	19:08:16.502	$GPGGA,190817,2424.2726,N,08054.0499,W,1,10,1.7,17,M,,M,,*6B
06/15/2015	19:08:17.605	$GPGGA,190818,2424.2735,N,08054.0513,W,1,10,1.7,17,M,,M,,*65
06/15/2015	19:08:18.510	$GPGGA,190819,2424.2744,N,08054.0527,W,1,10,1.7,17,M,,M,,*65
06/15/2015	19:08:19.509	$GPGGA,190820,2424.2751,N,08054.0543,W,1,10,1.7,17,M,,M,,*69
06/15/2015	19:08:20.584	$GPGGA,190821,2424.2758,N,08054.0558,W,1,10,1.7,17,M,,M,,*6B
06/15/2015	19:08:21.624	$GPGGA,190822,2424.2766,N,08054.0574,W,1,10,1.7,17,M,,M,,*6B
06/15/2015	19:08:22.574	$GPGGA,190823,2424.2775,N,08054.0589,W,1,10,1.7,17,M,,M,,*6A
06/15/2015	19:08:23.878	$GPGGA,190824,2424.2782,N,08054.0604,W,1,10,1.7,17,M,,M,,*63
06/15/2015	19:08:24.584	$GPGGA,190825,2424.2790,N,08054.0621,W,1,10,1.7,17,M,,M,,*66
06/15/2015	19:08:25.583	$GPGGA,190826,2424.2798,N,08054.0636,W,1,10,1.7,17,M,,M,,*6B
06/15/2015	19:08:26.573	$GPGGA,190827,2424.2805,N,08054.0651,W,1,10,1.7,17,M,,M,,*60
06/15/2015	19:08:27.623	$GPGGA,190828,2424.2813,N,08054.0668,W,1,10,1.8,17,M,,M,,*6D
06/15/2015	19:08:28.573	$GPGGA,190829,2424.2820,N,08054.0684,W,1,10,1.7,17,M,,M,,*61
06/15/2015	19:08:29.583	$GPGGA,190830,2424.2829,N,08054.0699,W,1,10,1.7,17,M,,M,,*6C
06/15/2015	19:08:30.563	$GPGGA,190831,2424.2837,N,08054.0715,W,1,10,1.7,17,M,,M,,*67
06/15/2015	19:08:31.593	$GPGGA,190832,2424.2844,N,08054.0730,W,1,10,1.7,17,M,,M,,*67
06/15/2015	19:08:32.563	$GPGGA,190833,2424.2851,N,08054.0745,W,1,10,1.7,17,M,,M,,*60
06/15/2015	19:08:33.563	$GPGGA,190834,2424.2859,N,08054.0762,W,1,10,1.7,17,M,,M,,*6A
06/15/2015	19:08:34.564	$GPGGA,190835,2424.2867,N,08054.0777,W,1,10,1.7,17,M,,M,,*62
06/15/2015	19:08:35.595	$GPGGA,190836,2424.2874,N,08054.0795,W,1,10,1.7,17,M,,M,,*6F
06/15/2015	19:08:36.554	$GPGGA,190837,2424.2883,N,08054.0810,W,1,10,1.7,17,M,,M,,*64
06/15/2015	19:08:37.564	$GPGGA,190838,2424.2889,N,08054.0825,W,1,10,1.7,17,M,,M,,*67
06/15/2015	19:08:38.554	$GPGGA,190839,2424.2896,N,08054.0842,W,1,10,1.7,17,M,,M,,*69
06/15/2015	19:08:39.574	$GPGGA,190840,2424.2905,N,08054.0856,W,1,10,1.7,17,M,,M,,*69
06/15/2015	19:08:40.554	$GPGGA,190841,2424.2913,N,08054.0871,W,1,10,1.7,17,M,,M,,*6A
06/15/2015	19:08:41.574	$GPGGA,190842,2424.2921,N,08054.0887,W,1,10,1.7,17,M,,M,,*61
06/15/2015	19:08:42.544	$GPGGA,190843,2424.2928,N,08054.0904,W,1,10,1.7,17,M,,M,,*63
06/15/2015	19:08:43.583	$GPGGA,190844,2424.2935,N,08054.0921,W,1,10,1.7,17,M,,M,,*6F
06/15/2015	19:08:44.543	$GPGGA,190845,2424.2943,N,08054.0937,W,1,10,1.7,17,M,,M,,*68
06/15/2015	19:08:45.843	$GPGGA,190846,2424.2952,N,08054.0952,W,1,10,1.7,17,M,,M,,*68
06/15/2015	19:08:46.533	$GPGGA,190847,2424.2959,N,08054.0968,W,1,10,1.8,17,M,,M,,*64
06/15/2015	19:08:47.563	$GPGGA,190848,2424.2967,N,08054.0984,W,1,9,1.7,17,M,,M,,*53
06/15/2015	19:08:48.543	$GPGGA,190849,2424.2975,N,08054.0999,W,1,9,1.7,17,M,,M,,*5D
06/15/2015	19:08:49.563	$GPGGA,190850,2424.2982,N,08054.1015,W,1,10,1.7,17,M,,M,,*69
06/15/2015	19:08:50.523	$GPGGA,190851,2424.2990,N,08054.1030,W,1,10,1.7,17,M,,M,,*6C
06/15/2015	19:08:51.564	$GPGGA,190852,2424.2997,N,08054.1046,W,1,10,1.8,17,M,,M,,*66
06/15/2015	19:08:52.534	$GPGGA,190853,2424.2997,N,08054.1046,W,1,10,1.8,17,M,,M,,*67
06/15/2015	19:08:53.544	$GPGGA,190854,2424.3014,N,08054.1078,W,1,10,1.7,17,M,,M,,*61
06/15/2015	19:08:54.544	$GPGGA,190855,2424.3022,N,08054.1094,W,1,10,1.7,17,M,,M,,*67
06/15/2015	19:08:55.555	$GPGGA,190856,2424.3029,N,08054.1109,W,1,10,1.7,17,M,,M,,*6A
06/15/2015	19:08:56.534	$GPGGA,190857,2424.3039,N,08054.1124,W,1,10,1.7,17,M,,M,,*65
06/15/2015	19:08:57.644	$GPGGA,190858,2424.3047,N,08054.1138,W,1,10,1.7,17,M,,M,,*6E
06/15/2015	19:08:58.624	$GPGGA,190859,2424.3055,N,08054.1154,W,1,10,1.7,17,M,,M,,*66
06/15/2015	19:08:59.574	$GPGGA,190900,2424.3064,N,08054.1170,W,1,10,1.7,17,M,,M,,*6F
06/15/2015	19:09:00.593	$GPGGA,190901,2424.3071,N,08054.1185,W,1,10,1.7,17,M,,M,,*60
06/15/2015	19:09:01.523	$GPGGA,190902,2424.3080,N,08054.1201,W,1,10,1.7,17,M,,M,,*62
06/15/2015	19:09:02.523	$GPGGA,190903,2424.3087,N,08054.1217,W,1,10,1.7,17,M,,M,,*63
06/15/2015	19:09:03.553	$GPGGA,190904,2424.3096,N,08054.1232,W,1,10,1.7,17,M,,M,,*63
06/15/2015	19:09:04.606	$GPGGA,190905,2424.3104,N,08054.1246,W,1,10,1.7,17,M,,M,,*6B
06/15/2015	19:09:05.507	$GPGGA,190906,2424.3112,N,08054.1262,W,1,10,1.7,17,M,,M,,*69
06/15/2015	19:09:06.593	$GPGGA,190907,2424.3120,N,08054.1277,W,1,10,1.7,17,M,,M,,*6D
06/15/2015	19:09:07.613	$GPGGA,190908,2424.3127,N,08054.1293,W,1,10,1.7,17,M,,M,,*6F
06/15/2015	19:09:08.593	$GPGGA,190909,2424.3136,N,08054.1309,W,1,10,1.7,17,M,,M,,*6C
06/15/2015	19:09:09.504	$GPGGA,190910,2424.3144,N,08054.1326,W,1,10,1.7,17,M,,M,,*6C
06/15/2015	19:09:10.574	$GPGGA,190911,2424.3152,N,08054.1341,W,1,10,1.7,17,M,,M,,*6B
06/15/2015	19:09:11.584	$GPGGA,190912,2424.3159,N,08054.1356,W,1,10,1.7,17,M,,M,,*65
06/15/2015	19:09:12.575	$GPGGA,190913,2424.3167,N,08054.1373,W,1,10,1.7,17,M,,M,,*6E
06/15/2015	19:09:13.574	$GPGGA,190914,2424.3174,N,08054.1388,W,1,10,1.7,17,M,,M,,*6F
06/15/2015	19:09:14.574	$GPGGA,190915,2424.3183,N,08054.1403,W,1,10,1.7,17,M,,M,,*62
06/15/2015	19:09:15.604	$GPGGA,190916,2424.3192,N,08054.1420,W,1,10,1.7,17,M,,M,,*60
06/15/2015	19:09:16.574	$GPGGA,190917,2424.3199,N,08054.1434,W,1,10,1.7,17,M,,M,,*6F
06/15/2015	19:09:17.574	$GPGGA,190918,2424.3208,N,08054.1452,W,1,10,1.7,17,M,,M,,*6B
06/15/2015	19:09:18.563	$GPGGA,190919,2424.3214,N,08054.1467,W,1,10,1.7,17,M,,M,,*61
06/15/2015	19:09:19.593	$GPGGA,190920,2424.3223,N,08054.1482,W,1,10,1.7,17,M,,M,,*64
06/15/2015	19:09:20.563	$GPGGA,190921,2424.3231,N,08054.1497,W,1,10,1.7,17,M,,M,,*62
06/15/2015	19:09:21.574	$GPGGA,190922,2424.3239,N,08054.1514,W,1,10,1.7,17,M,,M,,*63
06/15/2015	19:09:22.563	$GPGGA,190923,2424.3246,N,08054.1528,W,1,10,1.7,17,M,,M,,*65
06/15/2015	19:09:23.583	$GPGGA,190924,2424.3253,N,08054.1543,W,1,10,1.7,17,M,,M,,*6B
06/15/2015	19:09:24.543	$GPGGA,190925,2424.3263,N,08054.1559,W,1,10,1.7,17,M,,M,,*62
06/15/2015	19:09:25.574	$GPGGA,190926,2424.3271,N,08054.1575,W,1,10,1.7,17,M,,M,,*6C
06/15/2015	19:09:26.554	$GPGGA,190927,2424.3279,N,08054.1591,W,1,10,1.7,17,M,,M,,*6F
06/15/2015	19:09:27.584	$GPGGA,190928,2424.3286,N,08054.1608,W,1,10,1.7,17,M,,M,,*63
06/15/2015	19:09:28.544	$GPGGA,190929,2424.3295,N,08054.1623,W,1,10,1.7,17,M,,M,,*69
06/15/2015	19:09:29.564	$GPGGA,190930,2424.3303,N,08054.1638,W,1,10,1.7,17,M,,M,,*65
06/15/2015	19:09:30.534	$GPGGA,190931,2424.3311,N,08054.1654,W,1,10,1.7,17,M,,M,,*6D
06/15/2015	19:09:31.554	$GPGGA,190932,2424.3318,N,08054.1669,W,1,10,1.7,17,M,,M,,*69
06/15/2015	19:09:32.524	$GPGGA,190933,2424.3325,N,08054.1684,W,1,10,1.7,17,M,,M,,*65
06/15/2015	19:09:33.554	$GPGGA,190934,2424.3333,N,08054.1699,W,1,10,1.7,17,M,,M,,*69
06/15/2015	19:09:34.534	$GPGGA,190935,2424.3340,N,08054.1716,W,1,10,1.7,17,M,,M,,*6A
06/15/2015	19:09:35.563	$GPGGA,190936,2424.3349,N,08054.1732,W,1,10,1.7,17,M,,M,,*66
06/15/2015	19:09:36.514	$GPGGA,190937,2424.3357,N,08054.1749,W,1,10,1.7,17,M,,M,,*64
06/15/2015	19:09:37.553	$GPGGA,190938,2424.3365,N,08054.1764,W,1,10,1.7,17,M,,M,,*65
06/15/2015	19:09:38.523	$GPGGA,190939,2424.3372,N,08054.1779,W,1,10,1.7,17,M,,M,,*6E
06/15/2015	19:09:39.643	$GPGGA,190940,2424.3380,N,08054.1795,W,1,10,1.7,17,M,,M,,*6F
06/15/2015	19:09:40.510	$GPGGA,190941,2424.3387,N,08054.1810,W,1,10,1.7,17,M,,M,,*6B
06/15/2015	19:09:41.523	$GPGGA,190942,2424.3394,N,08054.1824,W,1,10,1.7,17,M,,M,,*6D
06/15/2015	19:09:42.533	$GPGGA,190943,2424.3401,N,08054.1840,W,1,10,1.7,17,M,,M,,*65
06/15/2015	19:09:43.643	$GPGGA,190944,2424.3409,N,08054.1857,W,1,10,1.7,17,M,,M,,*6C
06/15/2015	19:09:44.514	$GPGGA,190945,2424.3418,N,08054.1872,W,1,10,1.7,17,M,,M,,*6A
06/15/2015	19:09:45.634	$GPGGA,190946,2424.3425,N,08054.1889,W,1,10,1.7,17,M,,M,,*63
06/15/2015	19:09:46.524	$GPGGA,190947,2424.3433,N,08054.1907,W,1,10,1.7,17,M,,M,,*62
06/15/2015	19:09:47.534	$GPGGA,190948,2424.3440,N,08054.1922,W,1,10,1.7,17,M,,M,,*6E
06/15/2015	19:09:48.496	$GPGGA,190949,2424.3447,N,08054.1936,W,1,10,1.7,17,M,,M,,*6D
06/15/2015	19:09:49.504	$GPGGA,190950,2424.3454,N,08054.1951,W,1,10,1.7,17,M,,M,,*66
06/15/2015	19:09:50.506	$GPGGA,190951,2424.3463,N,08054.1966,W,1,10,1.7,17,M,,M,,*67
06/15/2015	19:09:51.607	$GPGGA,190952,2424.3470,N,08054.1983,W,1,10,1.7,17,M,,M,,*6D
06/15/2015	19:09:52.506	$GPGGA,190953,2424.3477,N,08054.2001,W,1,10,1.7,17,M,,M,,*6B
06/15/2015	19:09:53.600	$GPGGA,190954,2424.3485,N,08054.2016,W,1,10,1.7,17,M,,M,,*67
06/15/2015	19:09:54.495	$GPGGA,190955,2424.3492,N,08054.2032,W,1,10,1.7,17,M,,M,,*66
06/15/2015	19:09:55.606	$GPGGA,190956,2424.3501,N,08054.2048,W,1,10,1.7,17,M,,M,,*63
06/15/2015	19:09:56.573	$GPGGA,190957,2424.3509,N,08054.2061,W,1,10,1.7,17,M,,M,,*61
06/15/2015	19:09:57.593	$GPGGA,190958,2424.3516,N,08054.2077,W,1,10,1.7,17,M,,M,,*67
06/15/2015	19:09:58.573	$GPGGA,190959,2424.3523,N,08054.2093,W,1,10,1.7,17,M,,M,,*6A
06/15/2015	19:09:59.593	$GPGGA,191000,2424.3531,N,08054.2110,W,1,10,1.7,17,M,,M,,*67
06/15/2015	19:10:00.595	$GPGGA,191001,2424.3539,N,08054.2126,W,1,10,1.7,17,M,,M,,*6B
06/15/2015	19:10:01.574	$GPGGA,191002,2424.3548,N,08054.2142,W,1,10,1.7,17,M,,M,,*6C
06/15/2015	19:10:02.574	$GPGGA,191003,2424.3555,N,08054.2157,W,1,10,1.7,17,M,,M,,*65
06/15/2015	19:10:03.594	$GPGGA,191004,2424.3561,N,08054.2172,W,1,10,1.7,17,M,,M,,*62
06/15/2015	19:10:04.574	$GPGGA,191005,2424.3570,N,08054.2187,W,1,10,1.7,17,M,,M,,*69
06/15/2015	19:10:05.584	$GPGGA,191006,2424.3578,N,08054.2202,W,1,10,1.7,17,M,,M,,*6C
06/15/2015	19:10:06.564	$GPGGA,191007,2424.3585,N,08054.2218,W,1,10,1.7,17,M,,M,,*64
06/15/2015	19:10:07.605	$GPGGA,191008,2424.3592,N,08054.2233,W,1,10,1.7,17,M,,M,,*64
06/15/2015	19:10:08.564	$GPGGA,191009,2424.3600,N,08054.2249,W,1,10,1.7,17,M,,M,,*60
06/15/2015	19:10:09.574	$GPGGA,191010,2424.3610,N,08054.2265,W,1,10,1.7,17,M,,M,,*67
06/15/2015	19:10:10.554	$GPGGA,191011,2424.3615,N,08054.2280,W,1,10,1.7,17,M,,M,,*68
06/15/2015	19:10:11.563	$GPGGA,191012,2424.3625,N,08054.2296,W,1,10,1.7,17,M,,M,,*6F
06/15/2015	19:10:12.553	$GPGGA,191013,2424.3633,N,08054.2312,W,1,10,1.7,17,M,,M,,*64
06/15/2015	19:10:13.543	$GPGGA,191014,2424.3640,N,08054.2327,W,1,10,1.7,17,M,,M,,*61
06/15/2015	19:10:14.543	$GPGGA,191015,2424.3649,N,08054.2342,W,1,10,1.7,17,M,,M,,*6A
06/15/2015	19:10:15.563	$GPGGA,191016,2424.3657,N,08054.2357,W,1,10,1.7,17,M,,M,,*62
06/15/2015	19:10:16.533	$GPGGA,191017,2424.3664,N,08054.2373,W,1,10,1.7,17,M,,M,,*65
06/15/2015	19:10:17.553	$GPGGA,191018,2424.3672,N,08054.2388,W,1,10,1.7,17,M,,M,,*69
06/15/2015	19:10:18.533	$GPGGA,191019,2424.3680,N,08054.2404,W,1,10,1.7,17,M,,M,,*66
06/15/2015	19:10:19.544	$GPGGA,191020,2424.3687,N,08054.2421,W,1,10,1.7,17,M,,M,,*6C
06/15/2015	19:10:20.544	$GPGGA,191021,2424.3696,N,08054.2436,W,1,10,1.7,17,M,,M,,*6B
06/15/2015	19:10:21.524	$GPGGA,191022,2424.3704,N,08054.2453,W,1,10,1.7,17,M,,M,,*61
06/15/2015	19:10:22.514	$GPGGA,191023,2424.3712,N,08054.2467,W,1,10,1.7,17,M,,M,,*60
06/15/2015	19:10:23.554	$GPGGA,191024,2424.3719,N,08054.2482,W,1,10,1.7,17,M,,M,,*67
06/15/2015	19:10:24.534	$GPGGA,191025,2424.3727,N,08054.2498,W,1,10,1.7,17,M,,M,,*60
06/15/2015	19:10:25.524	$GPGGA,191026,2424.3734,N,08054.2514,W,1,10,1.7,17,M,,M,,*64
06/15/2015	19:10:26.614	$GPGGA,191027,2424.3744,N,08054.2529,W,1,10,1.7,17,M,,M,,*6C
06/15/2015	19:10:27.524	$GPGGA,191028,2424.3752,N,08054.2545,W,1,10,1.7,17,M,,M,,*6E
06/15/2015	19:10:28.505	$GPGGA,191029,2424.3761,N,08054.2561,W,1,10,1.7,17,M,,M,,*69
06/15/2015	19:10:29.533	$GPGGA,191030,2424.3768,N,08054.2577,W,1,10,1.7,17,M,,M,,*6F
06/15/2015	19:10:30.523	$GPGGA,191031,2424.3774,N,08054.2594,W,1,10,1.7,17,M,,M,,*6E
06/15/2015	19:10:31.553	$GPGGA,191032,2424.3783,N,08054.2608,W,1,10,1.7,17,M,,M,,*63
06/15/2015	19:10:32.523	$GPGGA,191033,2424.3792,N,08054.2623,W,1,10,1.7,17,M,,M,,*6B
06/15/2015	19:10:33.493	$GPGGA,191034,2424.3799,N,08054.2638,W,1,10,1.7,17,M,,M,,*6D
06/15/2015	19:10:34.596	$GPGGA,191035,2424.3806,N,08054.2655,W,1,10,1.7,17,M,,M,,*6E
06/15/2015	19:10:35.633	$GPGGA,191036,2424.3815,N,08054.2670,W,1,10,1.7,17,M,,M,,*68
06/15/2015	19:10:36.598	$GPGGA,191037,2424.3823,N,08054.2688,W,1,10,1.7,17,M,,M,,*6B
06/15/2015	19:10:37.503	$GPGGA,191038,2424.3830,N,08054.2703,W,1,10,1.7,17,M,,M,,*64
06/15/2015	19:10:38.504	$GPGGA,191039,2424.3839,N,08054.2718,W,1,10,1.7,17,M,,M,,*66
06/15/2015	19:10:39.514	$GPGGA,191040,2424.3846,N,08054.2735,W,1,10,1.7,17,M,,M,,*6F
06/15/2015	19:10:40.584	$GPGGA,191041,2424.3853,N,08054.2749,W,1,10,1.7,17,M,,M,,*61
06/15/2015	19:10:41.599	$GPGGA,191042,2424.3862,N,08054.2765,W,1,10,1.7,17,M,,M,,*6E
06/15/2015	19:10:42.584	$GPGGA,191043,2424.3870,N,08054.2782,W,1,10,1.7,17,M,,M,,*65
06/15/2015	19:10:43.605	$GPGGA,191044,2424.3878,N,08054.2796,W,1,10,1.7,17,M,,M,,*6F
06/15/2015	19:10:44.584	$GPGGA,191045,2424.3885,N,08054.2812,W,1,10,1.7,17,M,,M,,*6F
06/15/2015	19:10:45.583	$GPGGA,191046,2424.3893,N,08054.2829,W,1,10,1.7,17,M,,M,,*63
06/15/2015	19:10:46.584	$GPGGA,191047,2424.3902,N,08054.2844,W,1,10,1.7,17,M,,M,,*60
06/15/2015	19:10:47.596	$GPGGA,191048,2424.3911,N,08054.2861,W,1,10,1.7,17,M,,M,,*6A
06/15/2015	19:10:48.583	$GPGGA,191049,2424.3918,N,08054.2876,W,1,10,1.7,17,M,,M,,*64
06/15/2015	19:10:49.583	$GPGGA,191050,2424.3925,N,08054.2890,W,1,10,1.7,17,M,,M,,*6A
06/15/2015	19:10:50.563	$GPGGA,191051,2424.3933,N,08054.2905,W,1,10,1.7,17,M,,M,,*61
06/15/2015	19:10:51.583	$GPGGA,191052,2424.3942,N,08054.2919,W,1,10,1.7,17,M,,M,,*69
06/15/2015	19:10:52.563	$GPGGA,191053,2424.3951,N,08054.2934,W,1,10,1.7,17,M,,M,,*65
06/15/2015	19:10:53.564	$GPGGA,191054,2424.3958,N,08054.2951,W,1,10,1.7,17,M,,M,,*68
06/15/2015	19:10:54.564	$GPGGA,191055,2424.3965,N,08054.2966,W,1,10,1.7,17,M,,M,,*63
06/15/2015	19:10:55.584	$GPGGA,191056,2424.3974,N,08054.2981,W,1,10,1.7,17,M,,M,,*69
06/15/2015	19:10:56.564	$GPGGA,191057,2424.3983,N,08054.2996,W,1,10,1.7,17,M,,M,,*66
06/15/2015	19:10:57.574	$GPGGA,191058,2424.3990,N,08054.3010,W,1,10,1.7,17,M,,M,,*6D
06/15/2015	19:10:58.554	$GPGGA,191059,2424.3997,N,08054.3025,W,1,10,1.7,17,M,,M,,*6D
06/15/2015	19:10:59.599	$GPGGA,191100,2424.4007,N,08054.3040,W,1,10,1.7,17,M,,M,,*64
06/15/2015	19:11:00.544	$GPGGA,191101,2424.4015,N,08054.3056,W,1,10,1.7,17,M,,M,,*61
06/15/2015	19:11:01.554	$GPGGA,191102,2424.4022,N,08054.3072,W,1,10,1.7,17,M,,M,,*60
06/15/2015	19:11:02.554	$GPGGA,191103,2424.4029,N,08054.3089,W,1,10,1.7,17,M,,M,,*6E
06/15/2015	19:11:03.543	$GPGGA,191104,2424.4037,N,08054.3103,W,1,10,1.7,17,M,,M,,*65
06/15/2015	19:11:04.543	$GPGGA,191105,2424.4044,N,08054.3118,W,1,10,1.7,17,M,,M,,*6A
06/15/2015	19:11:05.543	$GPGGA,191106,2424.4052,N,08054.3133,W,1,10,1.7,17,M,,M,,*67
06/15/2015	19:11:06.523	$GPGGA,191107,2424.4061,N,08054.3148,W,1,10,1.7,17,M,,M,,*6A
06/15/2015	19:11:07.553	$GPGGA,191108,2424.4069,N,08054.3163,W,1,10,1.7,17,M,,M,,*64
06/15/2015	19:11:08.523	$GPGGA,191109,2424.4077,N,08054.3180,W,1,10,1.7,17,M,,M,,*67
06/15/2015	19:11:09.543	$GPGGA,191110,2424.4084,N,08054.3197,W,1,10,1.7,17,M,,M,,*65
06/15/2015	19:11:10.513	$GPGGA,191111,2424.4094,N,08054.3212,W,1,10,1.7,17,M,,M,,*6B
06/15/2015	19:11:11.554	$GPGGA,191112,2424.4102,N,08054.3228,W,1,10,1.7,17,M,,M,,*6F
06/15/2015	19:11:12.515	$GPGGA,191113,2424.4109,N,08054.3244,W,1,10,1.7,17,M,,M,,*6F
06/15/2015	19:11:13.534	$GPGGA,191114,2424.4117,N,08054.3259,W,1,10,1.7,17,M,,M,,*6B
06/15/2015	19:11:14.510	$GPGGA,191115,2424.4126,N,08054.3274,W,1,10,1.7,17,M,,M,,*67
06/15/2015	19:11:15.534	$GPGGA,191116,2424.4133,N,08054.3289,W,1,10,1.7,17,M,,M,,*62
06/15/2015	19:11:16.504	$GPGGA,191117,2424.4141,N,08054.3306,W,1,10,1.7,17,M,,M,,*60
06/15/2015	19:11:17.514	$GPGGA,191118,2424.4149,N,08054.3321,W,1,10,1.7,17,M,,M,,*62
06/15/2015	19:11:18.598	$GPGGA,191119,2424.4157,N,08054.3338,W,1,10,1.7,17,M,,M,,*64
06/15/2015	19:11:19.714	$GPGGA,191120,2424.4164,N,08054.3354,W,1,10,1.7,17,M,,M,,*64
06/15/2015	19:11:21.523	$GPGGA,191122,2424.4182,N,08054.3385,W,1,10,1.7,17,M,,M,,*62
06/15/2015	19:11:22.496	$GPGGA,191123,2424.4189,N,08054.3400,W,1,10,1.7,17,M,,M,,*62
06/15/2015	19:11:23.708	$GPGGA,191124,2424.4196,N,08054.3417,W,1,10,1.7,17,M,,M,,*6D
06/15/2015	19:11:24.623	$GPGGA,191125,2424.4203,N,08054.3432,W,1,10,1.7,17,M,,M,,*64
06/15/2015	19:11:25.494	$GPGGA,191126,2424.4213,N,08054.3447,W,1,10,1.7,17,M,,M,,*64
06/15/2015	19:11:26.608	$GPGGA,191127,2424.4221,N,08054.3464,W,1,10,1.7,17,M,,M,,*65
06/15/2015	19:11:27.712	$GPGGA,191128,2424.4229,N,08054.3479,W,1,10,1.7,17,M,,M,,*6E
06/15/2015	19:11:28.509	$GPGGA,191129,2424.4236,N,08054.3495,W,1,10,1.7,17,M,,M,,*63
06/15/2015	19:11:29.684	$GPGGA,191130,2424.4243,N,08054.3512,W,1,10,1.7,17,M,,M,,*67
06/15/2015	19:11:30.604	$GPGGA,191131,2424.4251,N,08054.3526,W,1,10,1.7,17,M,,M,,*62
06/15/2015	19:11:31.674	$GPGGA,191132,2424.4260,N,08054.3542,W,1,10,1.7,17,M,,M,,*61
06/15/2015	19:11:32.609	$GPGGA,191133,2424.4268,N,08054.3558,W,1,10,1.7,17,M,,M,,*63
06/15/2015	19:11:33.674	$GPGGA,191134,2424.4276,N,08054.3573,W,1,10,1.7,17,M,,M,,*62
06/15/2015	19:11:34.594	$GPGGA,191135,2424.4283,N,08054.3589,W,1,10,1.7,17,M,,M,,*6C
06/15/2015	19:11:35.684	$GPGGA,191136,2424.4292,N,08054.3605,W,1,10,1.7,17,M,,M,,*68
06/15/2015	19:11:36.564	$GPGGA,191137,2424.4301,N,08054.3620,W,1,10,1.7,17,M,,M,,*65
06/15/2015	19:11:37.673	$GPGGA,191138,2424.4310,N,08054.3635,W,1,10,1.7,17,M,,M,,*6E
06/15/2015	19:11:38.553	$GPGGA,191139,2424.4316,N,08054.3652,W,1,10,1.7,17,M,,M,,*68
06/15/2015	19:11:39.673	$GPGGA,191140,2424.4325,N,08054.3667,W,1,10,1.7,17,M,,M,,*60
06/15/2015	19:11:40.553	$GPGGA,191141,2424.4333,N,08054.3681,W,1,10,1.7,17,M,,M,,*6E
06/15/2015	19:11:41.673	$GPGGA,191142,2424.4341,N,08054.3696,W,1,10,1.7,17,M,,M,,*6E
06/15/2015	19:11:42.583	$GPGGA,191143,2424.4348,N,08054.3710,W,1,10,1.7,17,M,,M,,*69
06/15/2015	19:11:43.653	$GPGGA,191144,2424.4357,N,08054.3726,W,1,10,1.7,17,M,,M,,*65
06/15/2015	19:11:44.553	$GPGGA,191145,2424.4365,N,08054.3743,W,1,10,1.7,17,M,,M,,*66
06/15/2015	19:11:45.663	$GPGGA,191146,2424.4373,N,08054.3758,W,1,10,1.7,17,M,,M,,*68
06/15/2015	19:11:46.584	$GPGGA,191147,2424.4381,N,08054.3773,W,1,10,1.7,17,M,,M,,*6D
