Software Version Number: 1	Data File Format Number: 1	Build Version Number: 1	Error Count Since VI Started: 1	Manufacturer: Raytheon	 Model Number: RayMarine 120	 S/N: 	 Cal Date: 	 Wind Direction Offset: 0.00	 Slope (M)1: 0.00	 Offset (B)1: 0.00	 Slope (M)2: 0.00	 Offset (B)2: 0.00	 Slope (M)3: 0.00	 Offset (B)3: 0.00	 Slope (M)4: 0.00	 Offset (B)4: 0.00	 Slope (M)5: 0.00	 Offset (B)5: 0.00	 Slope (M)6: 0.00	 Offset (B)6: 0.00
Computer Date	Computer Time	GGA String
06/15/2015	21:00:00.578	$GPGGA,210001,2426.2717,N,08057.5648,W,1,11,1.5,18,M,,M,,*6B
06/15/2015	21:00:01.587	$GPGGA,210002,2426.2725,N,08057.5665,W,1,10,2.0,18,M,,M,,*61
06/15/2015	21:00:02.557	$GPGGA,210003,2426.2733,N,08057.5681,W,1,10,2.0,18,M,,M,,*6D
06/15/2015	21:00:03.587	$GPGGA,210004,2426.2742,N,08057.5697,W,1,10,2.0,18,M,,M,,*6B
06/15/2015	21:00:04.567	$GPGGA,210005,2426.2751,N,08057.5710,W,1,10,2.0,18,M,,M,,*66
06/15/2015	21:00:05.577	$GPGGA,210006,2426.2758,N,08057.5726,W,1,10,2.0,18,M,,M,,*69
06/15/2015	21:00:06.557	$GPGGA,210007,2426.2766,N,08057.5740,W,1,10,2.0,18,M,,M,,*65
06/15/2015	21:00:07.601	$GPGGA,210008,2426.2776,N,08057.5753,W,1,10,2.0,18,M,,M,,*69
06/15/2015	21:00:08.537	$GPGGA,210009,2426.2784,N,08057.5769,W,1,10,1.5,18,M,,M,,*6A
06/15/2015	21:00:09.547	$GPGGA,210010,2426.2791,N,08057.5784,W,1,10,2.0,18,M,,M,,*63
06/15/2015	21:00:10.537	$GPGGA,210011,2426.2800,N,08057.5795,W,1,10,2.0,18,M,,M,,*65
06/15/2015	21:00:11.577	$GPGGA,210012,2426.2808,N,08057.5807,W,1,11,1.5,18,M,,M,,*6D
06/15/2015	21:00:12.537	$GPGGA,210013,2426.2816,N,08057.5822,W,1,11,1.5,18,M,,M,,*64
06/15/2015	21:00:13.567	$GPGGA,210014,2426.2823,N,08057.5831,W,1,10,2.0,18,M,,M,,*60
06/15/2015	21:00:14.547	$GPGGA,210015,2426.2831,N,08057.5845,W,1,10,1.5,18,M,,M,,*67
06/15/2015	21:00:15.547	$GPGGA,210016,2426.2838,N,08057.5858,W,1,11,1.5,18,M,,M,,*60
06/15/2015	21:00:16.548	$GPGGA,210017,2426.2847,N,08057.5871,W,1,11,1.5,18,M,,M,,*62
06/15/2015	21:00:17.568	$GPGGA,210018,2426.2856,N,08057.5886,W,1,11,1.5,18,M,,M,,*65
06/15/2015	21:00:18.538	$GPGGA,210019,2426.2863,N,08057.5900,W,1,11,1.5,18,M,,M,,*6D
06/15/2015	21:00:19.657	$GPGGA,210020,2426.2872,N,08057.5914,W,1,11,1.5,19,M,,M,,*63
06/15/2015	21:00:20.537	$GPGGA,210021,2426.2880,N,08057.5926,W,1,11,1.5,19,M,,M,,*6E
06/15/2015	21:00:21.627	$GPGGA,210022,2426.2888,N,08057.5940,W,1,11,1.5,19,M,,M,,*65
06/15/2015	21:00:22.637	$GPGGA,210023,2426.2899,N,08057.5957,W,1,11,1.5,19,M,,M,,*62
06/15/2015	21:00:23.627	$GPGGA,210024,2426.2906,N,08057.5969,W,1,10,2.0,19,M,,M,,*68
06/15/2015	21:00:24.517	$GPGGA,210025,2426.2914,N,08057.5983,W,1,10,1.5,19,M,,M,,*68
06/15/2015	21:00:25.617	$GPGGA,210026,2426.2924,N,08057.5997,W,1,11,1.5,19,M,,M,,*6C
06/15/2015	21:00:26.515	$GPGGA,210027,2426.2932,N,08057.6009,W,1,11,1.5,19,M,,M,,*67
06/15/2015	21:00:27.647	$GPGGA,210028,2426.2939,N,08057.6023,W,1,11,1.5,19,M,,M,,*6B
06/15/2015	21:00:28.627	$GPGGA,210029,2426.2949,N,08057.6040,W,1,11,1.5,19,M,,M,,*68
06/15/2015	21:00:29.599	$GPGGA,210030,2426.2959,N,08057.6055,W,1,10,2.0,19,M,,M,,*62
06/15/2015	21:00:30.517	$GPGGA,210031,2426.2967,N,08057.6069,W,1,10,2.0,19,M,,M,,*61
06/15/2015	21:00:31.517	$GPGGA,210032,2426.2975,N,08057.6082,W,1,11,1.5,19,M,,M,,*63
06/15/2015	21:00:32.499	$GPGGA,210033,2426.2984,N,08057.6095,W,1,11,1.5,19,M,,M,,*6A
06/15/2015	21:00:33.617	$GPGGA,210034,2426.2992,N,08057.6107,W,1,11,1.5,19,M,,M,,*60
06/15/2015	21:00:34.588	$GPGGA,210035,2426.3000,N,08057.6121,W,1,11,1.5,19,M,,M,,*66
06/15/2015	21:00:35.618	$GPGGA,210036,2426.3008,N,08057.6134,W,1,11,1.5,19,M,,M,,*69
06/15/2015	21:00:36.587	$GPGGA,210037,2426.3018,N,08057.6149,W,1,11,1.5,19,M,,M,,*63
06/15/2015	21:00:37.599	$GPGGA,210038,2426.3026,N,08057.6165,W,1,11,1.5,19,M,,M,,*6F
06/15/2015	21:00:38.587	$GPGGA,210039,2426.3033,N,08057.6178,W,1,11,2.0,19,M,,M,,*60
06/15/2015	21:00:39.607	$GPGGA,210040,2426.3043,N,08057.6192,W,1,11,1.5,20,M,,M,,*61
06/15/2015	21:00:40.577	$GPGGA,210041,2426.3051,N,08057.6207,W,1,11,1.5,20,M,,M,,*6C
06/15/2015	21:00:41.587	$GPGGA,210042,2426.3060,N,08057.6221,W,1,11,1.5,20,M,,M,,*69
06/15/2015	21:00:42.567	$GPGGA,210043,2426.3069,N,08057.6237,W,1,11,2.0,20,M,,M,,*60
06/15/2015	21:00:43.600	$GPGGA,210044,2426.3076,N,08057.6250,W,1,10,2.0,20,M,,M,,*69
06/15/2015	21:00:44.577	$GPGGA,210045,2426.3084,N,08057.6264,W,1,10,1.5,20,M,,M,,*64
06/15/2015	21:00:45.567	$GPGGA,210046,2426.3094,N,08057.6277,W,1,11,1.5,20,M,,M,,*65
06/15/2015	21:00:46.567	$GPGGA,210047,2426.3102,N,08057.6291,W,1,11,1.5,20,M,,M,,*62
06/15/2015	21:00:47.597	$GPGGA,210048,2426.3111,N,08057.6308,W,1,11,1.5,20,M,,M,,*6E
06/15/2015	21:00:48.567	$GPGGA,210049,2426.3120,N,08057.6324,W,1,11,2.0,20,M,,M,,*65
06/15/2015	21:00:49.577	$GPGGA,210050,2426.3127,N,08057.6340,W,1,10,2.0,20,M,,M,,*69
06/15/2015	21:00:50.567	$GPGGA,210051,2426.3138,N,08057.6355,W,1,10,2.0,20,M,,M,,*62
06/15/2015	21:00:51.588	$GPGGA,210052,2426.3147,N,08057.6369,W,1,10,2.0,20,M,,M,,*66
06/15/2015	21:00:52.558	$GPGGA,210053,2426.3154,N,08057.6384,W,1,10,2.0,20,M,,M,,*66
06/15/2015	21:00:53.568	$GPGGA,210054,2426.3163,N,08057.6400,W,1,10,2.0,20,M,,M,,*6E
06/15/2015	21:00:54.547	$GPGGA,210055,2426.3173,N,08057.6416,W,1,10,2.0,20,M,,M,,*69
06/15/2015	21:00:55.587	$GPGGA,210056,2426.3181,N,08057.6432,W,1,10,2.0,19,M,,M,,*6B
06/15/2015	21:00:56.537	$GPGGA,210057,2426.3188,N,08057.6447,W,1,10,2.0,19,M,,M,,*61
06/15/2015	21:00:57.557	$GPGGA,210058,2426.3198,N,08057.6461,W,1,10,2.0,19,M,,M,,*6B
06/15/2015	21:00:58.547	$GPGGA,210059,2426.3206,N,08057.6475,W,1,10,2.1,19,M,,M,,*6A
06/15/2015	21:00:59.598	$GPGGA,210100,2426.3213,N,08057.6490,W,1,10,2.1,19,M,,M,,*68
06/15/2015	21:01:00.547	$GPGGA,210101,2426.3221,N,08057.6504,W,1,10,2.1,19,M,,M,,*64
06/15/2015	21:01:01.557	$GPGGA,210102,2426.3230,N,08057.6519,W,1,10,2.1,19,M,,M,,*6B
06/15/2015	21:01:02.547	$GPGGA,210103,2426.3239,N,08057.6535,W,1,10,2.1,19,M,,M,,*6D
06/15/2015	21:01:03.547	$GPGGA,210104,2426.3246,N,08057.6550,W,1,10,2.1,19,M,,M,,*61
06/15/2015	21:01:04.537	$GPGGA,210105,2426.3255,N,08057.6566,W,1,10,2.1,18,M,,M,,*66
06/15/2015	21:01:05.547	$GPGGA,210106,2426.3263,N,08057.6580,W,1,11,1.5,18,M,,M,,*6E
06/15/2015	21:01:06.527	$GPGGA,210107,2426.3271,N,08057.6594,W,1,11,2.1,18,M,,M,,*6E
06/15/2015	21:01:07.537	$GPGGA,210108,2426.3279,N,08057.6608,W,1,10,2.1,18,M,,M,,*6E
06/15/2015	21:01:08.537	$GPGGA,210109,2426.3286,N,08057.6623,W,1,10,2.1,18,M,,M,,*66
06/15/2015	21:01:09.618	$GPGGA,210110,2426.3295,N,08057.6637,W,1,10,2.1,18,M,,M,,*69
06/15/2015	21:01:10.521	$GPGGA,210111,2426.3304,N,08057.6651,W,1,10,2.1,18,M,,M,,*61
06/15/2015	21:01:11.637	$GPGGA,210112,2426.3311,N,08057.6666,W,1,9,2.2,17,M,,M,,*56
06/15/2015	21:01:12.517	$GPGGA,210113,2426.3318,N,08057.6681,W,1,9,2.1,17,M,,M,,*54
06/15/2015	21:01:13.600	$GPGGA,210114,2426.3326,N,08057.6696,W,1,10,2.1,17,M,,M,,*60
06/15/2015	21:01:14.501	$GPGGA,210115,2426.3336,N,08057.6712,W,1,10,2.1,17,M,,M,,*6D
06/15/2015	21:01:15.614	$GPGGA,210116,2426.3343,N,08057.6725,W,1,10,2.1,17,M,,M,,*68
06/15/2015	21:01:16.518	$GPGGA,210117,2426.3351,N,08057.6741,W,1,10,2.1,17,M,,M,,*68
06/15/2015	21:01:17.613	$GPGGA,210118,2426.3358,N,08057.6752,W,1,10,2.1,17,M,,M,,*6C
06/15/2015	21:01:18.517	$GPGGA,210119,2426.3365,N,08057.6763,W,1,10,1.6,17,M,,M,,*65
06/15/2015	21:01:19.603	$GPGGA,210120,2426.3372,N,08057.6777,W,1,11,1.5,17,M,,M,,*6E
06/15/2015	21:01:20.487	$GPGGA,210121,2426.3380,N,08057.6788,W,1,11,1.5,17,M,,M,,*62
06/15/2015	21:01:21.487	$GPGGA,210122,2426.3387,N,08057.6804,W,1,11,1.5,17,M,,M,,*6D
06/15/2015	21:01:22.500	$GPGGA,210123,2426.3396,N,08057.6821,W,1,11,2.1,17,M,,M,,*6C
06/15/2015	21:01:23.599	$GPGGA,210124,2426.3404,N,08057.6835,W,1,10,2.1,17,M,,M,,*63
06/15/2015	21:01:24.514	$GPGGA,210125,2426.3412,N,08057.6850,W,1,10,2.1,18,M,,M,,*69
06/15/2015	21:01:25.577	$GPGGA,210126,2426.3420,N,08057.6864,W,1,9,2.2,18,M,,M,,*57
06/15/2015	21:01:26.488	$GPGGA,210127,2426.3429,N,08057.6879,W,1,9,2.1,18,M,,M,,*50
06/15/2015	21:01:27.912	$GPGGA,210128,2426.3436,N,08057.6893,W,1,11,1.5,18,M,,M,,*6B
06/15/2015	21:01:28.578	$GPGGA,210129,2426.3445,N,08057.6909,W,1,11,1.5,18,M,,M,,*6C
06/15/2015	21:01:29.567	$GPGGA,210130,2426.3454,N,08057.6925,W,1,10,2.1,18,M,,M,,*6C
06/15/2015	21:01:30.867	$GPGGA,210131,2426.3462,N,08057.6940,W,1,10,2.1,18,M,,M,,*6B
06/15/2015	21:01:31.587	$GPGGA,210132,2426.3469,N,08057.6955,W,1,10,2.1,18,M,,M,,*67
06/15/2015	21:01:32.567	$GPGGA,210133,2426.3477,N,08057.6969,W,1,10,2.1,18,M,,M,,*66
06/15/2015	21:01:33.577	$GPGGA,210134,2426.3485,N,08057.6980,W,1,10,2.1,18,M,,M,,*6B
06/15/2015	21:01:34.557	$GPGGA,210135,2426.3492,N,08057.6994,W,1,10,1.5,18,M,,M,,*6E
06/15/2015	21:01:35.603	$GPGGA,210136,2426.3499,N,08057.7006,W,1,11,1.5,18,M,,M,,*64
06/15/2015	21:01:36.557	$GPGGA,210137,2426.3508,N,08057.7020,W,1,11,1.5,18,M,,M,,*68
06/15/2015	21:01:37.567	$GPGGA,210138,2426.3516,N,08057.7034,W,1,11,1.5,19,M,,M,,*6C
06/15/2015	21:01:38.557	$GPGGA,210139,2426.3524,N,08057.7048,W,1,11,1.5,19,M,,M,,*67
06/15/2015	21:01:39.567	$GPGGA,210140,2426.3534,N,08057.7063,W,1,11,1.5,19,M,,M,,*61
06/15/2015	21:01:40.557	$GPGGA,210141,2426.3542,N,08057.7077,W,1,11,1.5,19,M,,M,,*64
06/15/2015	21:01:41.567	$GPGGA,210142,2426.3549,N,08057.7089,W,1,11,1.5,19,M,,M,,*6D
06/15/2015	21:01:42.537	$GPGGA,210143,2426.3557,N,08057.7103,W,1,11,1.5,19,M,,M,,*60
06/15/2015	21:01:43.557	$GPGGA,210144,2426.3567,N,08057.7115,W,1,11,1.5,19,M,,M,,*63
06/15/2015	21:01:44.548	$GPGGA,210145,2426.3575,N,08057.7128,W,1,11,1.5,19,M,,M,,*6F
06/15/2015	21:01:49.057	$GPGGA,210149,2426.3607,N,08057.7186,W,1,11,2.1,20,M,,M,,*6C
06/15/2015	21:01:49.517	$GPGGA,210150,2426.3615,N,08057.7200,W,1,11,1.5,20,M,,M,,*6D
06/15/2015	21:01:50.537	$GPGGA,210151,2426.3624,N,08057.7215,W,1,11,1.5,20,M,,M,,*6A
06/15/2015	21:01:51.567	$GPGGA,210152,2426.3633,N,08057.7229,W,1,10,2.1,20,M,,M,,*66
06/15/2015	21:01:52.527	$GPGGA,210153,2426.3640,N,08057.7243,W,1,10,2.1,20,M,,M,,*6F
06/15/2015	21:01:53.537	$GPGGA,210154,2426.3647,N,08057.7258,W,1,11,1.5,20,M,,M,,*63
06/15/2015	21:01:54.511	$GPGGA,210155,2426.3658,N,08057.7273,W,1,11,1.5,21,M,,M,,*64
06/15/2015	21:01:55.527	$GPGGA,210156,2426.3665,N,08057.7284,W,1,10,2.1,21,M,,M,,*67
06/15/2015	21:01:56.627	$GPGGA,210157,2426.3672,N,08057.7298,W,1,10,1.5,21,M,,M,,*6A
06/15/2015	21:01:57.508	$GPGGA,210158,2426.3680,N,08057.7314,W,1,11,1.5,21,M,,M,,*6C
06/15/2015	21:01:58.507	$GPGGA,210159,2426.3689,N,08057.7327,W,1,11,2.1,21,M,,M,,*63
06/15/2015	21:01:59.577	$GPGGA,210200,2426.3697,N,08057.7341,W,1,11,1.5,21,M,,M,,*64
06/15/2015	21:02:00.500	$GPGGA,210201,2426.3705,N,08057.7353,W,1,11,1.5,21,M,,M,,*6C
06/15/2015	21:02:01.518	$GPGGA,210202,2426.3714,N,08057.7368,W,1,11,1.5,21,M,,M,,*67
06/15/2015	21:02:02.598	$GPGGA,210203,2426.3723,N,08057.7384,W,1,11,1.5,21,M,,M,,*60
06/15/2015	21:02:03.548	$GPGGA,210204,2426.3730,N,08057.7399,W,1,11,1.5,21,M,,M,,*69
06/15/2015	21:02:04.507	$GPGGA,210205,2426.3738,N,08057.7413,W,1,11,1.5,21,M,,M,,*65
06/15/2015	21:02:05.517	$GPGGA,210206,2426.3748,N,08057.7426,W,1,11,1.5,21,M,,M,,*67
06/15/2015	21:02:06.587	$GPGGA,210207,2426.3756,N,08057.7439,W,1,11,1.5,21,M,,M,,*67
06/15/2015	21:02:07.602	$GPGGA,210208,2426.3763,N,08057.7454,W,1,11,1.5,21,M,,M,,*65
06/15/2015	21:02:08.597	$GPGGA,210209,2426.3773,N,08057.7468,W,1,11,1.5,21,M,,M,,*6A
06/15/2015	21:02:09.587	$GPGGA,210210,2426.3781,N,08057.7483,W,1,11,1.5,21,M,,M,,*6A
06/15/2015	21:02:10.487	$GPGGA,210211,2426.3790,N,08057.7498,W,1,11,1.5,21,M,,M,,*61
06/15/2015	21:02:11.600	$GPGGA,210212,2426.3798,N,08057.7512,W,1,11,1.5,21,M,,M,,*69
06/15/2015	21:02:12.501	$GPGGA,210213,2426.3808,N,08057.7529,W,1,11,1.5,21,M,,M,,*66
06/15/2015	21:02:13.587	$GPGGA,210214,2426.3816,N,08057.7544,W,1,10,2.1,21,M,,M,,*63
06/15/2015	21:02:14.487	$GPGGA,210215,2426.3824,N,08057.7559,W,1,10,2.1,21,M,,M,,*6F
06/15/2015	21:02:15.577	$GPGGA,210216,2426.3833,N,08057.7576,W,1,10,2.1,21,M,,M,,*67
06/15/2015	21:02:16.568	$GPGGA,210217,2426.3841,N,08057.7591,W,1,10,2.1,21,M,,M,,*6A
06/15/2015	21:02:17.577	$GPGGA,210218,2426.3849,N,08057.7608,W,1,10,2.1,21,M,,M,,*6E
06/15/2015	21:02:18.577	$GPGGA,210219,2426.3857,N,08057.7624,W,1,10,2.1,21,M,,M,,*6E
06/15/2015	21:02:19.588	$GPGGA,210220,2426.3867,N,08057.7639,W,1,10,2.1,21,M,,M,,*6B
06/15/2015	21:02:20.558	$GPGGA,210221,2426.3875,N,08057.7655,W,1,10,2.1,21,M,,M,,*63
06/15/2015	21:02:21.567	$GPGGA,210222,2426.3882,N,08057.7670,W,1,10,2.1,21,M,,M,,*6F
06/15/2015	21:02:22.567	$GPGGA,210223,2426.3891,N,08057.7684,W,1,10,2.1,20,M,,M,,*66
06/15/2015	21:02:23.617	$GPGGA,210224,2426.3900,N,08057.7699,W,1,10,2.1,20,M,,M,,*64
06/15/2015	21:02:24.557	$GPGGA,210225,2426.3907,N,08057.7714,W,1,10,2.1,20,M,,M,,*66
06/15/2015	21:02:25.547	$GPGGA,210226,2426.3914,N,08057.7731,W,1,10,2.1,20,M,,M,,*60
06/15/2015	21:02:26.547	$GPGGA,210227,2426.3922,N,08057.7746,W,1,10,2.1,20,M,,M,,*64
06/15/2015	21:02:27.587	$GPGGA,210228,2426.3931,N,08057.7760,W,1,10,2.1,20,M,,M,,*6D
06/15/2015	21:02:28.547	$GPGGA,210229,2426.3939,N,08057.7775,W,1,10,2.1,19,M,,M,,*6A
06/15/2015	21:02:29.537	$GPGGA,210230,2426.3947,N,08057.7789,W,1,10,2.1,19,M,,M,,*68
06/15/2015	21:02:30.547	$GPGGA,210231,2426.3954,N,08057.7804,W,1,10,2.1,19,M,,M,,*61
06/15/2015	21:02:31.577	$GPGGA,210232,2426.3962,N,08057.7819,W,1,10,2.1,19,M,,M,,*6B
06/15/2015	21:02:32.527	$GPGGA,210233,2426.3971,N,08057.7834,W,1,10,2.1,19,M,,M,,*67
06/15/2015	21:02:33.557	$GPGGA,210234,2426.3979,N,08057.7850,W,1,10,2.1,19,M,,M,,*6A
06/15/2015	21:02:34.528	$GPGGA,210235,2426.3987,N,08057.7865,W,1,10,2.1,18,M,,M,,*6D
06/15/2015	21:02:35.577	$GPGGA,210236,2426.3994,N,08057.7880,W,1,10,2.1,18,M,,M,,*67
06/15/2015	21:02:36.528	$GPGGA,210237,2426.4003,N,08057.7894,W,1,10,2.1,18,M,,M,,*63
06/15/2015	21:02:37.548	$GPGGA,210238,2426.4011,N,08057.7909,W,1,10,2.1,18,M,,M,,*6A
06/15/2015	21:02:38.520	$GPGGA,210239,2426.4019,N,08057.7923,W,1,10,2.1,18,M,,M,,*6B
06/15/2015	21:02:39.567	$GPGGA,210240,2426.4026,N,08057.7938,W,1,10,2.1,18,M,,M,,*63
06/15/2015	21:02:40.516	$GPGGA,210241,2426.4034,N,08057.7955,W,1,10,2.1,18,M,,M,,*6A
06/15/2015	21:02:41.537	$GPGGA,210242,2426.4043,N,08057.7970,W,1,10,2.1,17,M,,M,,*61
06/15/2015	21:02:42.517	$GPGGA,210243,2426.4051,N,08057.7984,W,1,10,2.1,17,M,,M,,*68
06/15/2015	21:02:43.537	$GPGGA,210244,2426.4059,N,08057.7999,W,1,10,2.1,17,M,,M,,*6B
06/15/2015	21:02:44.516	$GPGGA,210245,2426.4066,N,08057.8013,W,1,10,2.1,17,M,,M,,*62
06/15/2015	21:02:45.537	$GPGGA,210246,2426.4074,N,08057.8024,W,1,10,2.1,17,M,,M,,*66
06/15/2015	21:02:46.524	$GPGGA,210247,2426.4081,N,08057.8036,W,1,10,1.5,17,M,,M,,*69
06/15/2015	21:02:47.517	$GPGGA,210248,2426.4088,N,08057.8049,W,1,11,1.5,17,M,,M,,*66
06/15/2015	21:02:48.518	$GPGGA,210249,2426.4097,N,08057.8060,W,1,11,1.5,17,M,,M,,*62
06/15/2015	21:02:49.504	$GPGGA,210250,2426.4105,N,08057.8074,W,1,11,1.5,17,M,,M,,*65
06/15/2015	21:02:50.614	$GPGGA,210251,2426.4113,N,08057.8089,W,1,11,2.1,17,M,,M,,*66
06/15/2015	21:02:51.647	$GPGGA,210252,2426.4120,N,08057.8103,W,1,10,1.5,17,M,,M,,*60
06/15/2015	21:02:52.520	$GPGGA,210253,2426.4128,N,08057.8115,W,1,10,1.5,17,M,,M,,*6E
06/15/2015	21:02:53.602	$GPGGA,210254,2426.4138,N,08057.8129,W,1,11,1.5,17,M,,M,,*66
06/15/2015	21:02:54.503	$GPGGA,210255,2426.4146,N,08057.8141,W,1,11,1.5,17,M,,M,,*60
06/15/2015	21:02:56.737	$GPGGA,210257,2426.4160,N,08057.8168,W,1,11,1.5,18,M,,M,,*62
06/15/2015	21:02:57.587	$GPGGA,210258,2426.4170,N,08057.8181,W,1,11,1.5,18,M,,M,,*6B
06/15/2015	21:02:58.587	$GPGGA,210259,2426.4178,N,08057.8195,W,1,11,1.5,18,M,,M,,*67
06/15/2015	21:02:59.627	$GPGGA,210300,2426.4185,N,08057.8209,W,1,11,1.5,18,M,,M,,*6E
06/15/2015	21:03:00.567	$GPGGA,210301,2426.4193,N,08057.8223,W,1,11,1.5,19,M,,M,,*61
06/15/2015	21:03:01.587	$GPGGA,210302,2426.4203,N,08057.8237,W,1,11,1.5,19,M,,M,,*6D
06/15/2015	21:03:02.577	$GPGGA,210303,2426.4211,N,08057.8251,W,1,11,1.5,19,M,,M,,*6F
06/15/2015	21:03:03.607	$GPGGA,210304,2426.4218,N,08057.8266,W,1,11,1.5,19,M,,M,,*65
06/15/2015	21:03:04.567	$GPGGA,210305,2426.4228,N,08057.8280,W,1,11,1.5,19,M,,M,,*6F
06/15/2015	21:03:05.577	$GPGGA,210306,2426.4236,N,08057.8295,W,1,11,1.5,19,M,,M,,*67
06/15/2015	21:03:06.557	$GPGGA,210307,2426.4243,N,08057.8310,W,1,11,1.5,20,M,,M,,*62
06/15/2015	21:03:07.597	$GPGGA,210308,2426.4253,N,08057.8325,W,1,11,1.5,20,M,,M,,*6A
06/15/2015	21:03:08.557	$GPGGA,210309,2426.4261,N,08057.8340,W,1,11,1.5,20,M,,M,,*69
06/15/2015	21:03:09.547	$GPGGA,210310,2426.4269,N,08057.8356,W,1,11,1.5,20,M,,M,,*6E
06/15/2015	21:03:10.557	$GPGGA,210311,2426.4278,N,08057.8370,W,1,11,1.5,20,M,,M,,*6B
06/15/2015	21:03:11.577	$GPGGA,210312,2426.4286,N,08057.8383,W,1,11,1.5,20,M,,M,,*65
06/15/2015	21:03:12.537	$GPGGA,210313,2426.4294,N,08057.8400,W,1,11,2.1,20,M,,M,,*6C
06/15/2015	21:03:13.557	$GPGGA,210314,2426.4305,N,08057.8417,W,1,10,2.1,20,M,,M,,*65
06/15/2015	21:03:14.536	$GPGGA,210315,2426.4312,N,08057.8433,W,1,10,1.5,20,M,,M,,*63
06/15/2015	21:03:15.566	$GPGGA,210316,2426.4322,N,08057.8450,W,1,11,1.5,20,M,,M,,*67
06/15/2015	21:03:16.536	$GPGGA,210317,2426.4330,N,08057.8466,W,1,11,2.1,20,M,,M,,*67
06/15/2015	21:03:17.576	$GPGGA,210318,2426.4339,N,08057.8480,W,1,10,1.5,20,M,,M,,*6F
06/15/2015	21:03:18.526	$GPGGA,210319,2426.4348,N,08057.8494,W,1,10,1.5,20,M,,M,,*6D
06/15/2015	21:03:19.556	$GPGGA,210320,2426.4355,N,08057.8508,W,1,11,1.5,20,M,,M,,*6E
06/15/2015	21:03:20.516	$GPGGA,210321,2426.4362,N,08057.8522,W,1,11,1.5,20,M,,M,,*63
06/15/2015	21:03:21.556	$GPGGA,210322,2426.4370,N,08057.8535,W,1,11,1.5,20,M,,M,,*65
06/15/2015	21:03:22.517	$GPGGA,210323,2426.4380,N,08057.8551,W,1,11,2.1,20,M,,M,,*6E
06/15/2015	21:03:23.557	$GPGGA,210324,2426.4388,N,08057.8567,W,1,10,2.1,20,M,,M,,*65
06/15/2015	21:03:24.537	$GPGGA,210325,2426.4398,N,08057.8584,W,1,10,2.1,20,M,,M,,*68
06/15/2015	21:03:25.517	$GPGGA,210326,2426.4405,N,08057.8598,W,1,10,1.5,19,M,,M,,*68
06/15/2015	21:03:26.507	$GPGGA,210327,2426.4413,N,08057.8611,W,1,10,2.1,19,M,,M,,*6B
06/15/2015	21:03:27.557	$GPGGA,210328,2426.4422,N,08057.8627,W,1,10,2.1,19,M,,M,,*63
06/15/2015	21:03:28.507	$GPGGA,210329,2426.4430,N,08057.8642,W,1,10,2.1,19,M,,M,,*62
06/15/2015	21:03:29.537	$GPGGA,210330,2426.4438,N,08057.8652,W,1,10,1.5,19,M,,M,,*64
06/15/2015	21:03:30.507	$GPGGA,210331,2426.4445,N,08057.8665,W,1,10,1.5,19,M,,M,,*6B
06/15/2015	21:03:31.546	$GPGGA,210332,2426.4453,N,08057.8678,W,1,11,1.5,19,M,,M,,*62
06/15/2015	21:03:32.506	$GPGGA,210333,2426.4463,N,08057.8694,W,1,11,2.1,19,M,,M,,*65
06/15/2015	21:03:33.516	$GPGGA,210334,2426.4471,N,08057.8710,W,1,10,2.1,19,M,,M,,*6D
06/15/2015	21:03:34.507	$GPGGA,210335,2426.4480,N,08057.8725,W,1,10,2.1,19,M,,M,,*64
06/15/2015	21:03:35.546	$GPGGA,210336,2426.4488,N,08057.8739,W,1,10,1.5,19,M,,M,,*65
06/15/2015	21:03:36.506	$GPGGA,210337,2426.4496,N,08057.8751,W,1,10,1.5,19,M,,M,,*65
06/15/2015	21:03:37.516	$GPGGA,210338,2426.4505,N,08057.8764,W,1,11,1.5,19,M,,M,,*66
06/15/2015	21:03:38.495	$GPGGA,210339,2426.4511,N,08057.8776,W,1,11,1.5,19,M,,M,,*61
06/15/2015	21:03:39.547	$GPGGA,210340,2426.4518,N,08057.8790,W,1,11,1.5,19,M,,M,,*6E
06/15/2015	21:03:40.491	$GPGGA,210341,2426.4528,N,08057.8804,W,1,11,1.5,19,M,,M,,*6E
06/15/2015	21:03:41.587	$GPGGA,210342,2426.4538,N,08057.8819,W,1,11,2.1,19,M,,M,,*67
06/15/2015	21:03:42.477	$GPGGA,210343,2426.4546,N,08057.8834,W,1,11,2.1,19,M,,M,,*60
06/15/2015	21:03:43.588	$GPGGA,210344,2426.4554,N,08057.8848,W,1,10,1.5,19,M,,M,,*69
06/15/2015	21:03:44.567	$GPGGA,210345,2426.4561,N,08057.8859,W,1,10,1.5,19,M,,M,,*6E
06/15/2015	21:03:45.598	$GPGGA,210346,2426.4570,N,08057.8873,W,1,11,1.5,19,M,,M,,*64
06/15/2015	21:03:46.557	$GPGGA,210347,2426.4578,N,08057.8887,W,1,11,1.5,19,M,,M,,*66
06/15/2015	21:03:47.577	$GPGGA,210348,2426.4586,N,08057.8902,W,1,11,1.5,19,M,,M,,*64
06/15/2015	21:03:48.567	$GPGGA,210349,2426.4594,N,08057.8917,W,1,11,1.5,19,M,,M,,*62
06/15/2015	21:03:49.566	$GPGGA,210350,2426.4604,N,08057.8931,W,1,11,1.5,19,M,,M,,*64
06/15/2015	21:03:50.556	$GPGGA,210351,2426.4612,N,08057.8945,W,1,11,1.5,19,M,,M,,*61
06/15/2015	21:03:51.596	$GPGGA,210352,2426.4619,N,08057.8961,W,1,11,1.5,19,M,,M,,*6F
06/15/2015	21:03:52.547	$GPGGA,210353,2426.4628,N,08057.8978,W,1,11,2.1,19,M,,M,,*63
06/15/2015	21:03:53.576	$GPGGA,210354,2426.4636,N,08057.8990,W,1,10,2.1,19,M,,M,,*6C
06/15/2015	21:03:54.546	$GPGGA,210355,2426.4644,N,08057.9003,W,1,10,1.5,19,M,,M,,*6D
06/15/2015	21:03:55.556	$GPGGA,210356,2426.4651,N,08057.9017,W,1,11,1.5,19,M,,M,,*6E
06/15/2015	21:03:56.546	$GPGGA,210357,2426.4659,N,08057.9033,W,1,11,1.5,19,M,,M,,*61
06/15/2015	21:03:57.557	$GPGGA,210358,2426.4669,N,08057.9050,W,1,10,2.1,19,M,,M,,*6E
06/15/2015	21:03:58.547	$GPGGA,210359,2426.4677,N,08057.9066,W,1,10,2.1,19,M,,M,,*65
06/15/2015	21:03:59.577	$GPGGA,210400,2426.4684,N,08057.9082,W,1,10,2.1,19,M,,M,,*68
06/15/2015	21:04:00.537	$GPGGA,210401,2426.4691,N,08057.9097,W,1,10,2.1,19,M,,M,,*69
06/15/2015	21:04:01.557	$GPGGA,210402,2426.4701,N,08057.9113,W,1,10,2.7,19,M,,M,,*69
06/15/2015	21:04:02.527	$GPGGA,210403,2426.4709,N,08057.9129,W,1,10,2.7,19,M,,M,,*69
06/15/2015	21:04:03.557	$GPGGA,210404,2426.4716,N,08057.9145,W,1,9,2.7,19,M,,M,,*52
06/15/2015	21:04:04.517	$GPGGA,210405,2426.4724,N,08057.9160,W,1,9,2.1,19,M,,M,,*53
06/15/2015	21:04:05.537	$GPGGA,210406,2426.4734,N,08057.9176,W,1,10,2.1,18,M,,M,,*6F
06/15/2015	21:04:06.526	$GPGGA,210407,2426.4742,N,08057.9189,W,1,10,2.1,18,M,,M,,*6F
06/15/2015	21:04:07.526	$GPGGA,210408,2426.4749,N,08057.9203,W,1,10,2.1,18,M,,M,,*6A
06/15/2015	21:04:08.526	$GPGGA,210409,2426.4758,N,08057.9216,W,1,10,2.1,18,M,,M,,*6F
06/15/2015	21:04:09.516	$GPGGA,210410,2426.4767,N,08057.9230,W,1,10,2.1,18,M,,M,,*6F
06/15/2015	21:04:10.526	$GPGGA,210411,2426.4774,N,08057.9243,W,1,10,2.1,18,M,,M,,*68
06/15/2015	21:04:11.516	$GPGGA,210412,2426.4782,N,08057.9259,W,1,10,2.1,18,M,,M,,*69
06/15/2015	21:04:12.499	$GPGGA,210413,2426.4791,N,08057.9274,W,1,10,2.1,18,M,,M,,*65
06/15/2015	21:04:13.500	$GPGGA,210414,2426.4799,N,08057.9285,W,1,11,1.5,18,M,,M,,*62
06/15/2015	21:04:14.517	$GPGGA,210415,2426.4807,N,08057.9300,W,1,11,1.5,18,M,,M,,*67
06/15/2015	21:04:15.547	$GPGGA,210416,2426.4816,N,08057.9315,W,1,10,2.1,18,M,,M,,*66
06/15/2015	21:04:16.507	$GPGGA,210417,2426.4824,N,08057.9328,W,1,10,2.1,18,M,,M,,*68
06/15/2015	21:04:17.627	$GPGGA,210418,2426.4832,N,08057.9342,W,1,11,1.5,18,M,,M,,*6A
06/15/2015	21:04:18.498	$GPGGA,210419,2426.4839,N,08057.9354,W,1,11,1.5,18,M,,M,,*67
06/15/2015	21:04:19.547	$GPGGA,210420,2426.4849,N,08057.9369,W,1,11,1.5,18,M,,M,,*64
06/15/2015	21:04:20.498	$GPGGA,210421,2426.4857,N,08057.9383,W,1,11,2.1,18,M,,M,,*69
06/15/2015	21:04:21.488	$GPGGA,210422,2426.4865,N,08057.9400,W,1,10,2.1,18,M,,M,,*66
06/15/2015	21:04:22.477	$GPGGA,210423,2426.4872,N,08057.9413,W,1,10,2.1,18,M,,M,,*63
06/15/2015	21:04:23.517	$GPGGA,210424,2426.4883,N,08057.9427,W,1,10,2.1,18,M,,M,,*6D
06/15/2015	21:04:24.500	$GPGGA,210425,2426.4890,N,08057.9443,W,1,10,2.1,18,M,,M,,*6C
06/15/2015	21:04:25.496	$GPGGA,210426,2426.4897,N,08057.9458,W,1,10,2.1,18,M,,M,,*62
06/15/2015	21:04:26.476	$GPGGA,210427,2426.4906,N,08057.9472,W,1,10,2.1,18,M,,M,,*62
06/15/2015	21:04:27.506	$GPGGA,210428,2426.4915,N,08057.9484,W,1,10,2.1,18,M,,M,,*66
06/15/2015	21:04:28.576	$GPGGA,210429,2426.4924,N,08057.9499,W,1,10,2.1,18,M,,M,,*69
06/15/2015	21:04:29.576	$GPGGA,210430,2426.4932,N,08057.9514,W,1,10,2.1,18,M,,M,,*62
06/15/2015	21:04:30.476	$GPGGA,210431,2426.4940,N,08057.9527,W,1,10,2.1,18,M,,M,,*66
06/15/2015	21:04:31.487	$GPGGA,210432,2426.4951,N,08057.9541,W,1,10,2.1,18,M,,M,,*65
06/15/2015	21:04:32.557	$GPGGA,210433,2426.4958,N,08057.9555,W,1,10,2.1,18,M,,M,,*68
06/15/2015	21:04:33.597	$GPGGA,210434,2426.4968,N,08057.9568,W,1,11,1.5,18,M,,M,,*64
06/15/2015	21:04:34.557	$GPGGA,210435,2426.4977,N,08057.9581,W,1,11,1.5,18,M,,M,,*6C
06/15/2015	21:04:35.589	$GPGGA,210436,2426.4987,N,08057.9595,W,1,11,1.5,18,M,,M,,*65
06/15/2015	21:04:36.557	$GPGGA,210437,2426.4995,N,08057.9608,W,1,11,1.5,18,M,,M,,*60
06/15/2015	21:04:37.577	$GPGGA,210438,2426.5005,N,08057.9621,W,1,11,1.5,18,M,,M,,*65
06/15/2015	21:04:38.567	$GPGGA,210439,2426.5015,N,08057.9635,W,1,11,1.5,18,M,,M,,*60
06/15/2015	21:04:39.577	$GPGGA,210440,2426.5023,N,08057.9649,W,1,11,1.5,18,M,,M,,*60
06/15/2015	21:04:40.557	$GPGGA,210441,2426.5034,N,08057.9664,W,1,11,1.5,19,M,,M,,*69
06/15/2015	21:04:41.546	$GPGGA,210442,2426.5044,N,08057.9675,W,1,10,2.1,19,M,,M,,*6B
06/15/2015	21:04:42.536	$GPGGA,210443,2426.5053,N,08057.9689,W,1,10,1.5,19,M,,M,,*68
06/15/2015	21:04:43.576	$GPGGA,210444,2426.5063,N,08057.9702,W,1,11,1.5,19,M,,M,,*6F
06/15/2015	21:04:44.546	$GPGGA,210445,2426.5073,N,08057.9715,W,1,11,1.5,19,M,,M,,*69
06/15/2015	21:04:45.536	$GPGGA,210446,2426.5081,N,08057.9729,W,1,11,1.5,19,M,,M,,*68
06/15/2015	21:04:46.536	$GPGGA,210447,2426.5091,N,08057.9743,W,1,11,1.5,19,M,,M,,*64
06/15/2015	21:04:47.546	$GPGGA,210448,2426.5100,N,08057.9756,W,1,11,1.5,19,M,,M,,*66
06/15/2015	21:04:48.536	$GPGGA,210449,2426.5112,N,08057.9770,W,1,11,1.5,19,M,,M,,*60
06/15/2015	21:04:49.527	$GPGGA,210450,2426.5121,N,08057.9784,W,1,11,1.5,19,M,,M,,*63
06/15/2015	21:04:50.537	$GPGGA,210451,2426.5131,N,08057.9798,W,1,11,1.5,19,M,,M,,*6E
06/15/2015	21:04:51.537	$GPGGA,210452,2426.5139,N,08057.9812,W,1,11,1.5,19,M,,M,,*68
06/15/2015	21:04:52.527	$GPGGA,210453,2426.5150,N,08057.9824,W,1,11,1.5,19,M,,M,,*63
06/15/2015	21:04:53.527	$GPGGA,210454,2426.5160,N,08057.9837,W,1,11,1.5,19,M,,M,,*65
06/15/2015	21:04:54.527	$GPGGA,210455,2426.5168,N,08057.9852,W,1,11,1.5,19,M,,M,,*6F
06/15/2015	21:04:55.557	$GPGGA,210456,2426.5179,N,08057.9866,W,1,11,1.5,19,M,,M,,*6B
06/15/2015	21:04:56.527	$GPGGA,210457,2426.5190,N,08057.9881,W,1,11,1.5,19,M,,M,,*64
06/15/2015	21:04:57.547	$GPGGA,210458,2426.5199,N,08057.9895,W,1,11,1.5,20,M,,M,,*6D
06/15/2015	21:04:58.507	$GPGGA,210459,2426.5208,N,08057.9910,W,1,11,1.5,20,M,,M,,*6B
06/15/2015	21:04:59.526	$GPGGA,210500,2426.5218,N,08057.9922,W,1,11,1.5,20,M,,M,,*66
06/15/2015	21:05:00.503	$GPGGA,210501,2426.5228,N,08057.9936,W,1,11,1.5,20,M,,M,,*61
06/15/2015	21:05:01.516	$GPGGA,210502,2426.5237,N,08057.9950,W,1,11,1.5,20,M,,M,,*6C
06/15/2015	21:05:02.496	$GPGGA,210503,2426.5247,N,08057.9964,W,1,11,1.5,20,M,,M,,*6D
06/15/2015	21:05:03.626	$GPGGA,210504,2426.5255,N,08057.9978,W,1,11,1.5,20,M,,M,,*64
06/15/2015	21:05:04.501	$GPGGA,210505,2426.5266,N,08057.9993,W,1,11,1.5,20,M,,M,,*60
06/15/2015	21:05:05.500	$GPGGA,210506,2426.5276,N,08058.0007,W,1,11,1.5,20,M,,M,,*60
06/15/2015	21:05:06.506	$GPGGA,210507,2426.5284,N,08058.0023,W,1,11,2.1,20,M,,M,,*6D
06/15/2015	21:05:07.599	$GPGGA,210508,2426.5294,N,08058.0040,W,1,10,2.1,20,M,,M,,*67
06/15/2015	21:05:08.494	$GPGGA,210509,2426.5305,N,08058.0054,W,1,10,2.1,20,M,,M,,*6A
06/15/2015	21:05:09.593	$GPGGA,210510,2426.5315,N,08058.0070,W,1,10,2.1,20,M,,M,,*65
06/15/2015	21:05:10.505	$GPGGA,210511,2426.5323,N,08058.0085,W,1,10,2.1,19,M,,M,,*61
06/15/2015	21:05:11.591	$GPGGA,210512,2426.5333,N,08058.0101,W,1,10,2.1,19,M,,M,,*6E
06/15/2015	21:05:12.577	$GPGGA,210513,2426.5341,N,08058.0112,W,1,10,2.1,19,M,,M,,*68
06/15/2015	21:05:13.567	$GPGGA,210514,2426.5349,N,08058.0127,W,1,11,1.5,19,M,,M,,*67
06/15/2015	21:05:14.467	$GPGGA,210515,2426.5359,N,08058.0142,W,1,11,2.1,19,M,,M,,*63
06/15/2015	21:05:15.577	$GPGGA,210516,2426.5367,N,08058.0159,W,1,10,2.1,19,M,,M,,*66
06/15/2015	21:05:16.502	$GPGGA,210517,2426.5378,N,08058.0173,W,1,10,2.1,19,M,,M,,*61
06/15/2015	21:05:17.606	$GPGGA,210518,2426.5387,N,08058.0188,W,1,10,2.1,19,M,,M,,*6A
06/15/2015	21:05:18.566	$GPGGA,210519,2426.5396,N,08058.0203,W,1,10,2.1,19,M,,M,,*6B
06/15/2015	21:05:19.586	$GPGGA,210520,2426.5405,N,08058.0218,W,1,10,2.1,19,M,,M,,*66
06/15/2015	21:05:20.566	$GPGGA,210521,2426.5414,N,08058.0233,W,1,10,2.1,18,M,,M,,*6F
06/15/2015	21:05:21.576	$GPGGA,210522,2426.5423,N,08058.0249,W,1,10,2.1,18,M,,M,,*65
06/15/2015	21:05:22.566	$GPGGA,210523,2426.5432,N,08058.0264,W,1,10,2.1,18,M,,M,,*6B
06/15/2015	21:05:23.596	$GPGGA,210524,2426.5442,N,08058.0278,W,1,10,2.1,18,M,,M,,*66
06/15/2015	21:05:24.548	$GPGGA,210525,2426.5450,N,08058.0293,W,1,10,2.1,18,M,,M,,*61
06/15/2015	21:05:25.547	$GPGGA,210526,2426.5459,N,08058.0307,W,1,10,2.1,18,M,,M,,*67
06/15/2015	21:05:26.547	$GPGGA,210527,2426.5468,N,08058.0322,W,1,10,2.1,18,M,,M,,*63
06/15/2015	21:05:27.577	$GPGGA,210528,2426.5475,N,08058.0337,W,1,10,2.1,18,M,,M,,*64
06/15/2015	21:05:28.537	$GPGGA,210529,2426.5485,N,08058.0352,W,1,10,2.1,17,M,,M,,*66
06/15/2015	21:05:29.567	$GPGGA,210530,2426.5493,N,08058.0362,W,1,10,2.1,17,M,,M,,*6A
06/15/2015	21:05:30.547	$GPGGA,210531,2426.5501,N,08058.0377,W,1,10,1.5,17,M,,M,,*62
06/15/2015	21:05:31.547	$GPGGA,210532,2426.5510,N,08058.0392,W,1,10,2.1,17,M,,M,,*6D
06/15/2015	21:05:32.547	$GPGGA,210533,2426.5518,N,08058.0404,W,1,10,2.1,17,M,,M,,*6C
06/15/2015	21:05:33.536	$GPGGA,210534,2426.5528,N,08058.0419,W,1,11,1.5,17,M,,M,,*62
06/15/2015	21:05:34.536	$GPGGA,210535,2426.5536,N,08058.0434,W,1,11,2.1,17,M,,M,,*64
06/15/2015	21:05:35.556	$GPGGA,210536,2426.5544,N,08058.0449,W,1,10,2.1,17,M,,M,,*69
06/15/2015	21:05:36.536	$GPGGA,210537,2426.5553,N,08058.0459,W,1,10,2.1,17,M,,M,,*6F
06/15/2015	21:05:37.516	$GPGGA,210538,2426.5561,N,08058.0467,W,1,11,1.5,17,M,,M,,*6A
06/15/2015	21:05:38.526	$GPGGA,210539,2426.5569,N,08058.0481,W,1,11,1.5,17,M,,M,,*6B
06/15/2015	21:05:39.536	$GPGGA,210540,2426.5578,N,08058.0498,W,1,10,2.1,17,M,,M,,*6B
06/15/2015	21:05:40.526	$GPGGA,210541,2426.5587,N,08058.0513,W,1,10,2.1,17,M,,M,,*68
06/15/2015	21:05:41.517	$GPGGA,210542,2426.5598,N,08058.0528,W,1,10,2.1,17,M,,M,,*6D
06/15/2015	21:05:42.507	$GPGGA,210543,2426.5607,N,08058.0546,W,1,10,2.1,17,M,,M,,*61
06/15/2015	21:05:43.517	$GPGGA,210544,2426.5616,N,08058.0560,W,1,10,2.1,17,M,,M,,*62
06/15/2015	21:05:44.517	$GPGGA,210545,2426.5626,N,08058.0574,W,1,10,2.1,17,M,,M,,*65
06/15/2015	21:05:45.502	$GPGGA,210546,2426.5634,N,08058.0586,W,1,10,2.1,17,M,,M,,*68
06/15/2015	21:05:46.527	$GPGGA,210547,2426.5643,N,08058.0598,W,1,10,1.5,17,M,,M,,*61
06/15/2015	21:05:47.547	$GPGGA,210548,2426.5652,N,08058.0611,W,1,11,1.5,17,M,,M,,*6D
06/15/2015	21:05:48.667	$GPGGA,210549,2426.5661,N,08058.0625,W,1,11,1.5,17,M,,M,,*6B
06/15/2015	21:05:49.517	$GPGGA,210550,2426.5670,N,08058.0639,W,1,11,1.5,17,M,,M,,*6E
06/15/2015	21:05:50.499	$GPGGA,210551,2426.5678,N,08058.0654,W,1,11,1.5,17,M,,M,,*6C
06/15/2015	21:05:51.507	$GPGGA,210552,2426.5688,N,08058.0666,W,1,11,1.5,17,M,,M,,*61
06/15/2015	21:05:52.656	$GPGGA,210553,2426.5698,N,08058.0679,W,1,11,1.5,17,M,,M,,*6F
06/15/2015	21:05:53.588	$GPGGA,210554,2426.5706,N,08058.0694,W,1,11,1.5,18,M,,M,,*62
06/15/2015	21:05:54.501	$GPGGA,210555,2426.5716,N,08058.0709,W,1,11,2.1,18,M,,M,,*60
06/15/2015	21:05:55.666	$GPGGA,210556,2426.5727,N,08058.0723,W,1,10,1.5,18,M,,M,,*6F
06/15/2015	21:05:56.506	$GPGGA,210557,2426.5735,N,08058.0735,W,1,10,1.5,18,M,,M,,*6A
06/15/2015	21:05:57.606	$GPGGA,210558,2426.5745,N,08058.0751,W,1,11,1.5,18,M,,M,,*61
06/15/2015	21:05:58.487	$GPGGA,210559,2426.5753,N,08058.0764,W,1,11,1.5,18,M,,M,,*61
06/15/2015	21:05:59.667	$GPGGA,210600,2426.5763,N,08058.0777,W,1,11,1.5,18,M,,M,,*6F
06/15/2015	21:06:00.503	$GPGGA,210601,2426.5774,N,08058.0789,W,1,11,1.5,18,M,,M,,*69
06/15/2015	21:06:01.567	$GPGGA,210602,2426.5782,N,08058.0803,W,1,11,1.5,18,M,,M,,*6E
06/15/2015	21:06:02.657	$GPGGA,210603,2426.5789,N,08058.0816,W,1,11,1.5,18,M,,M,,*60
06/15/2015	21:06:03.637	$GPGGA,210604,2426.5800,N,08058.0829,W,1,11,1.5,18,M,,M,,*65
06/15/2015	21:06:04.567	$GPGGA,210605,2426.5811,N,08058.0843,W,1,11,1.5,18,M,,M,,*68
06/15/2015	21:06:05.607	$GPGGA,210606,2426.5818,N,08058.0857,W,1,11,1.5,18,M,,M,,*67
06/15/2015	21:06:06.567	$GPGGA,210607,2426.5829,N,08058.0872,W,1,11,1.5,18,M,,M,,*63
06/15/2015	21:06:07.637	$GPGGA,210608,2426.5839,N,08058.0886,W,1,11,1.5,18,M,,M,,*66
06/15/2015	21:06:08.626	$GPGGA,210609,2426.5847,N,08058.0900,W,1,11,1.5,18,M,,M,,*61
06/15/2015	21:06:09.596	$GPGGA,210610,2426.5857,N,08058.0914,W,1,11,1.5,18,M,,M,,*6D
06/15/2015	21:06:10.626	$GPGGA,210611,2426.5865,N,08058.0928,W,1,11,1.5,18,M,,M,,*62
06/15/2015	21:06:11.636	$GPGGA,210612,2426.5876,N,08058.0940,W,1,11,1.5,18,M,,M,,*6D
06/15/2015	21:06:12.626	$GPGGA,210613,2426.5885,N,08058.0957,W,1,11,2.1,18,M,,M,,*61
06/15/2015	21:06:13.590	$GPGGA,210614,2426.5894,N,08058.0972,W,1,10,2.1,18,M,,M,,*60
06/15/2015	21:06:14.616	$GPGGA,210615,2426.5905,N,08058.0988,W,1,10,2.1,18,M,,M,,*6D
06/15/2015	21:06:15.616	$GPGGA,210616,2426.5914,N,08058.1004,W,1,10,2.1,18,M,,M,,*62
06/15/2015	21:06:16.537	$GPGGA,210617,2426.5923,N,08058.1019,W,1,10,2.1,18,M,,M,,*6B
06/15/2015	21:06:17.588	$GPGGA,210618,2426.5933,N,08058.1034,W,1,10,2.1,18,M,,M,,*6A
06/15/2015	21:06:18.588	$GPGGA,210619,2426.5941,N,08058.1048,W,1,10,2.1,18,M,,M,,*65
06/15/2015	21:06:19.547	$GPGGA,210620,2426.5949,N,08058.1063,W,1,10,2.1,18,M,,M,,*6E
06/15/2015	21:06:20.587	$GPGGA,210621,2426.5959,N,08058.1078,W,1,10,2.1,18,M,,M,,*64
06/15/2015	21:06:21.557	$GPGGA,210622,2426.5969,N,08058.1094,W,1,10,2.1,17,M,,M,,*69
06/15/2015	21:06:22.587	$GPGGA,210623,2426.5977,N,08058.1109,W,1,10,2.1,17,M,,M,,*62
06/15/2015	21:06:23.897	$GPGGA,210624,2426.5987,N,08058.1124,W,1,10,2.1,17,M,,M,,*65
06/15/2015	21:06:24.590	$GPGGA,210625,2426.5995,N,08058.1134,W,1,10,1.5,17,M,,M,,*61
06/15/2015	21:06:25.517	$GPGGA,210626,2426.6003,N,08058.1149,W,1,11,1.5,17,M,,M,,*6C
06/15/2015	21:06:26.516	$GPGGA,210627,2426.6012,N,08058.1164,W,1,11,2.1,17,M,,M,,*65
06/15/2015	21:06:27.601	$GPGGA,210628,2426.6020,N,08058.1175,W,1,10,1.5,17,M,,M,,*6D
06/15/2015	21:06:28.516	$GPGGA,210629,2426.6028,N,08058.1190,W,1,10,1.5,17,M,,M,,*6F
06/15/2015	21:06:29.506	$GPGGA,210630,2426.6038,N,08058.1207,W,1,10,2.1,17,M,,M,,*6C
06/15/2015	21:06:30.587	$GPGGA,210631,2426.6046,N,08058.1222,W,1,10,2.1,17,M,,M,,*63
06/15/2015	21:06:31.599	$GPGGA,210632,2426.6056,N,08058.1236,W,1,10,2.1,17,M,,M,,*64
06/15/2015	21:06:32.506	$GPGGA,210633,2426.6064,N,08058.1253,W,1,10,2.1,17,M,,M,,*67
06/15/2015	21:06:33.536	$GPGGA,210634,2426.6073,N,08058.1266,W,1,10,2.1,16,M,,M,,*61
06/15/2015	21:06:34.557	$GPGGA,210635,2426.6081,N,08058.1279,W,1,10,1.5,16,M,,M,,*64
06/15/2015	21:06:35.507	$GPGGA,210636,2426.6091,N,08058.1293,W,1,11,1.5,16,M,,M,,*63
06/15/2015	21:06:36.567	$GPGGA,210637,2426.6100,N,08058.1308,W,1,11,2.1,16,M,,M,,*6F
06/15/2015	21:06:37.489	$GPGGA,210638,2426.6107,N,08058.1322,W,1,10,2.1,16,M,,M,,*6E
06/15/2015	21:06:38.557	$GPGGA,210639,2426.6115,N,08058.1337,W,1,10,2.1,16,M,,M,,*68
06/15/2015	21:06:39.607	$GPGGA,210640,2426.6125,N,08058.1351,W,1,10,2.1,16,M,,M,,*65
06/15/2015	21:06:40.547	$GPGGA,210641,2426.6133,N,08058.1366,W,1,10,2.1,16,M,,M,,*67
06/15/2015	21:06:41.588	$GPGGA,210642,2426.6143,N,08058.1380,W,1,10,2.1,16,M,,M,,*6B
06/15/2015	21:06:42.537	$GPGGA,210643,2426.6151,N,08058.1395,W,1,10,2.1,16,M,,M,,*6D
06/15/2015	21:06:43.616	$GPGGA,210644,2426.6160,N,08058.1409,W,1,10,2.1,15,M,,M,,*69
06/15/2015	21:06:44.556	$GPGGA,210645,2426.6169,N,08058.1423,W,1,10,2.1,15,M,,M,,*69
06/15/2015	21:06:45.602	$GPGGA,210646,2426.6176,N,08058.1438,W,1,10,2.1,15,M,,M,,*6E
06/15/2015	21:06:46.587	$GPGGA,210647,2426.6186,N,08058.1452,W,1,10,2.1,15,M,,M,,*6C
06/15/2015	21:06:47.587	$GPGGA,210648,2426.6194,N,08058.1465,W,1,10,2.1,15,M,,M,,*64
06/15/2015	21:06:49.636	$GPGGA,210650,2426.6212,N,08058.1496,W,1,10,2.1,15,M,,M,,*6C
06/15/2015	21:06:50.567	$GPGGA,210651,2426.6219,N,08058.1510,W,1,10,2.1,15,M,,M,,*69
06/15/2015	21:06:51.600	$GPGGA,210652,2426.6229,N,08058.1521,W,1,10,1.5,15,M,,M,,*6C
06/15/2015	21:06:52.558	$GPGGA,210653,2426.6237,N,08058.1530,W,1,10,1.5,15,M,,M,,*62
06/15/2015	21:06:53.590	$GPGGA,210654,2426.6245,N,08058.1546,W,1,11,2.1,15,M,,M,,*67
06/15/2015	21:06:54.598	$GPGGA,210655,2426.6252,N,08058.1558,W,1,11,1.5,15,M,,M,,*68
06/15/2015	21:06:55.591	$GPGGA,210656,2426.6261,N,08058.1575,W,1,11,2.1,15,M,,M,,*63
06/15/2015	21:06:56.557	$GPGGA,210657,2426.6270,N,08058.1589,W,1,11,2.1,15,M,,M,,*61
06/15/2015	21:06:57.567	$GPGGA,210658,2426.6279,N,08058.1602,W,1,10,1.5,15,M,,M,,*61
06/15/2015	21:06:58.557	$GPGGA,210659,2426.6287,N,08058.1618,W,1,10,2.1,15,M,,M,,*6D
06/15/2015	21:06:59.596	$GPGGA,210700,2426.6295,N,08058.1631,W,1,10,2.1,15,M,,M,,*68
06/15/2015	21:07:00.557	$GPGGA,210701,2426.6295,N,08058.1631,W,1,10,2.1,15,M,,M,,*69
06/15/2015	21:07:01.566	$GPGGA,210702,2426.6313,N,08058.1658,W,1,10,1.5,15,M,,M,,*6D
06/15/2015	21:07:02.566	$GPGGA,210703,2426.6320,N,08058.1671,W,1,10,1.5,15,M,,M,,*67
06/15/2015	21:07:03.576	$GPGGA,210704,2426.6331,N,08058.1685,W,1,11,1.5,15,M,,M,,*6A
06/15/2015	21:07:04.566	$GPGGA,210705,2426.6339,N,08058.1698,W,1,11,1.5,15,M,,M,,*6F
06/15/2015	21:07:05.546	$GPGGA,210706,2426.6348,N,08058.1710,W,1,11,1.5,15,M,,M,,*6B
06/15/2015	21:07:06.556	$GPGGA,210707,2426.6348,N,08058.1710,W,1,11,1.5,15,M,,M,,*6A
06/15/2015	21:07:07.566	$GPGGA,210708,2426.6364,N,08058.1734,W,1,11,1.5,15,M,,M,,*6D
06/15/2015	21:07:08.536	$GPGGA,210709,2426.6364,N,08058.1734,W,1,11,1.5,15,M,,M,,*6C
06/15/2015	21:07:09.547	$GPGGA,210710,2426.6374,N,08058.1748,W,1,11,1.5,15,M,,M,,*6E
06/15/2015	21:07:10.537	$GPGGA,210711,2426.6382,N,08058.1760,W,1,11,1.5,15,M,,M,,*6C
06/15/2015	21:07:11.567	$GPGGA,210712,2426.6400,N,08058.1786,W,1,11,1.5,15,M,,M,,*6A
06/15/2015	21:07:12.557	$GPGGA,210713,2426.6409,N,08058.1800,W,1,11,1.5,15,M,,M,,*63
06/15/2015	21:07:13.527	$GPGGA,210714,2426.6418,N,08058.1813,W,1,11,1.5,15,M,,M,,*66
06/15/2015	21:07:14.627	$GPGGA,210715,2426.6428,N,08058.1825,W,1,11,1.5,15,M,,M,,*61
06/15/2015	21:07:15.557	$GPGGA,210716,2426.6436,N,08058.1839,W,1,11,1.5,16,M,,M,,*63
06/15/2015	21:07:16.537	$GPGGA,210717,2426.6436,N,08058.1839,W,1,11,1.5,16,M,,M,,*62
06/15/2015	21:07:17.537	$GPGGA,210718,2426.6456,N,08058.1866,W,1,11,1.5,16,M,,M,,*61
06/15/2015	21:07:18.526	$GPGGA,210719,2426.6456,N,08058.1866,W,1,11,1.5,16,M,,M,,*60
06/15/2015	21:07:19.536	$GPGGA,210720,2426.6474,N,08058.1893,W,1,11,1.5,16,M,,M,,*60
06/15/2015	21:07:20.526	$GPGGA,210721,2426.6474,N,08058.1893,W,1,11,1.5,16,M,,M,,*61
06/15/2015	21:07:21.836	$GPGGA,210722,2426.6492,N,08058.1922,W,1,11,1.5,16,M,,M,,*61
06/15/2015	21:07:22.516	$GPGGA,210723,2426.6501,N,08058.1934,W,1,11,1.5,16,M,,M,,*6C
06/15/2015	21:07:23.506	$GPGGA,210724,2426.6511,N,08058.1948,W,1,11,1.5,16,M,,M,,*61
06/15/2015	21:07:24.589	$GPGGA,210725,2426.6519,N,08058.1963,W,1,11,1.5,16,M,,M,,*61
06/15/2015	21:07:25.597	$GPGGA,210726,2426.6527,N,08058.1976,W,1,11,1.5,16,M,,M,,*6B
06/15/2015	21:07:26.597	$GPGGA,210727,2426.6537,N,08058.1990,W,1,11,1.5,17,M,,M,,*62
06/15/2015	21:07:27.489	$GPGGA,210728,2426.6547,N,08058.2003,W,1,11,1.5,17,M,,M,,*6A
06/15/2015	21:07:28.588	$GPGGA,210729,2426.6555,N,08058.2017,W,1,11,1.5,17,M,,M,,*6D
06/15/2015	21:07:29.490	$GPGGA,210730,2426.6565,N,08058.2031,W,1,11,1.5,17,M,,M,,*62
06/15/2015	21:07:30.593	$GPGGA,210731,2426.6573,N,08058.2045,W,1,11,1.5,17,M,,M,,*67
06/15/2015	21:07:31.499	$GPGGA,210732,2426.6583,N,08058.2059,W,1,11,1.5,17,M,,M,,*66
06/15/2015	21:07:32.577	$GPGGA,210733,2426.6591,N,08058.2074,W,1,11,2.1,17,M,,M,,*6C
06/15/2015	21:07:33.607	$GPGGA,210734,2426.6601,N,08058.2090,W,1,10,2.1,17,M,,M,,*6A
06/15/2015	21:07:34.567	$GPGGA,210735,2426.6610,N,08058.2103,W,1,10,2.1,17,M,,M,,*60
06/15/2015	21:07:35.607	$GPGGA,210736,2426.6620,N,08058.2117,W,1,11,1.5,17,M,,M,,*63
06/15/2015	21:07:36.566	$GPGGA,210737,2426.6628,N,08058.2131,W,1,11,1.5,17,M,,M,,*6E
06/15/2015	21:07:37.586	$GPGGA,210738,2426.6637,N,08058.2143,W,1,11,1.5,17,M,,M,,*6A
06/15/2015	21:07:38.566	$GPGGA,210739,2426.6645,N,08058.2155,W,1,11,1.5,17,M,,M,,*69
06/15/2015	21:07:39.566	$GPGGA,210740,2426.6653,N,08058.2169,W,1,11,1.5,17,M,,M,,*6F
06/15/2015	21:07:40.566	$GPGGA,210741,2426.6663,N,08058.2186,W,1,11,2.1,17,M,,M,,*6B
06/15/2015	21:07:41.547	$GPGGA,210742,2426.6671,N,08058.2200,W,1,10,2.1,17,M,,M,,*67
06/15/2015	21:07:42.566	$GPGGA,210743,2426.6682,N,08058.2215,W,1,10,2.1,17,M,,M,,*6E
06/15/2015	21:07:43.586	$GPGGA,210744,2426.6691,N,08058.2230,W,1,10,2.1,17,M,,M,,*6C
06/15/2015	21:07:44.557	$GPGGA,210745,2426.6698,N,08058.2245,W,1,10,1.5,17,M,,M,,*61
06/15/2015	21:07:45.557	$GPGGA,210746,2426.6706,N,08058.2259,W,1,10,2.1,17,M,,M,,*6E
06/15/2015	21:07:46.557	$GPGGA,210747,2426.6714,N,08058.2273,W,1,10,2.1,17,M,,M,,*64
06/15/2015	21:07:47.577	$GPGGA,210748,2426.6724,N,08058.2287,W,1,10,2.1,17,M,,M,,*63
06/15/2015	21:07:48.547	$GPGGA,210749,2426.6732,N,08058.2301,W,1,10,2.1,17,M,,M,,*6A
06/15/2015	21:07:49.547	$GPGGA,210750,2426.6740,N,08058.2316,W,1,10,2.1,17,M,,M,,*61
06/15/2015	21:07:50.547	$GPGGA,210751,2426.6750,N,08058.2330,W,1,10,2.1,17,M,,M,,*65
06/15/2015	21:07:51.567	$GPGGA,210752,2426.6758,N,08058.2345,W,1,9,2.1,17,M,,M,,*54
06/15/2015	21:07:52.537	$GPGGA,210753,2426.6765,N,08058.2359,W,1,9,2.1,16,M,,M,,*57
06/15/2015	21:07:53.526	$GPGGA,210754,2426.6774,N,08058.2371,W,1,10,2.1,16,M,,M,,*62
06/15/2015	21:07:54.556	$GPGGA,210755,2426.6782,N,08058.2384,W,1,10,2.1,16,M,,M,,*60
06/15/2015	21:07:55.556	$GPGGA,210756,2426.6790,N,08058.2399,W,1,10,2.1,16,M,,M,,*6C
06/15/2015	21:07:56.526	$GPGGA,210757,2426.6797,N,08058.2413,W,1,10,2.1,16,M,,M,,*6F
06/15/2015	21:07:57.556	$GPGGA,210758,2426.6805,N,08058.2426,W,1,10,2.1,16,M,,M,,*62
06/15/2015	21:07:58.516	$GPGGA,210759,2426.6815,N,08058.2440,W,1,10,2.1,16,M,,M,,*62
06/15/2015	21:07:59.537	$GPGGA,210800,2426.6823,N,08058.2454,W,1,10,2.1,16,M,,M,,*61
06/15/2015	21:08:00.526	$GPGGA,210801,2426.6832,N,08058.2468,W,1,10,2.1,16,M,,M,,*6F
06/15/2015	21:08:01.547	$GPGGA,210802,2426.6840,N,08058.2482,W,1,10,2.1,16,M,,M,,*6D
06/15/2015	21:08:02.527	$GPGGA,210803,2426.6848,N,08058.2496,W,1,10,2.1,15,M,,M,,*62
06/15/2015	21:08:03.517	$GPGGA,210804,2426.6857,N,08058.2509,W,1,10,2.1,15,M,,M,,*6C
06/15/2015	21:08:04.627	$GPGGA,210805,2426.6865,N,08058.2523,W,1,10,2.1,15,M,,M,,*64
06/15/2015	21:08:05.507	$GPGGA,210806,2426.6873,N,08058.2536,W,1,10,2.1,15,M,,M,,*64
06/15/2015	21:08:06.537	$GPGGA,210807,2426.6880,N,08058.2551,W,1,10,2.1,15,M,,M,,*68
06/15/2015	21:08:07.547	$GPGGA,210808,2426.6890,N,08058.2563,W,1,10,2.1,15,M,,M,,*67
06/15/2015	21:08:08.501	$GPGGA,210809,2426.6898,N,08058.2577,W,1,10,2.1,15,M,,M,,*6B
06/15/2015	21:08:09.507	$GPGGA,210810,2426.6906,N,08058.2591,W,1,10,2.1,15,M,,M,,*6D
06/15/2015	21:08:10.591	$GPGGA,210811,2426.6913,N,08058.2602,W,1,10,2.1,15,M,,M,,*61
06/15/2015	21:08:11.516	$GPGGA,210812,2426.6923,N,08058.2613,W,1,11,1.5,15,M,,M,,*67
06/15/2015	21:08:12.501	$GPGGA,210813,2426.6930,N,08058.2626,W,1,11,1.5,15,M,,M,,*62
06/15/2015	21:08:13.589	$GPGGA,210814,2426.6938,N,08058.2637,W,1,11,1.5,15,M,,M,,*6D
06/15/2015	21:08:14.496	$GPGGA,210815,2426.6946,N,08058.2648,W,1,11,1.5,15,M,,M,,*6D
06/15/2015	21:08:15.488	$GPGGA,210816,2426.6956,N,08058.2659,W,1,11,1.5,15,M,,M,,*6F
06/15/2015	21:08:17.007	$GPGGA,210817,2426.6964,N,08058.2673,W,1,11,1.5,15,M,,M,,*67
06/15/2015	21:08:17.588	$GPGGA,210818,2426.6971,N,08058.2688,W,1,11,1.5,16,M,,M,,*6B
06/15/2015	21:08:18.487	$GPGGA,210819,2426.6981,N,08058.2700,W,1,11,1.5,16,M,,M,,*64
06/15/2015	21:08:19.577	$GPGGA,210820,2426.6989,N,08058.2714,W,1,11,1.5,16,M,,M,,*63
06/15/2015	21:08:20.567	$GPGGA,210821,2426.6996,N,08058.2728,W,1,11,1.5,16,M,,M,,*63
06/15/2015	21:08:21.600	$GPGGA,210822,2426.7005,N,08058.2740,W,1,11,1.5,16,M,,M,,*6C
06/15/2015	21:08:22.567	$GPGGA,210823,2426.7014,N,08058.2753,W,1,11,1.5,16,M,,M,,*6F
06/15/2015	21:08:23.590	$GPGGA,210824,2426.7023,N,08058.2765,W,1,11,1.5,16,M,,M,,*69
06/15/2015	21:08:24.567	$GPGGA,210825,2426.7032,N,08058.2779,W,1,11,1.5,17,M,,M,,*64
06/15/2015	21:08:25.557	$GPGGA,210826,2426.7039,N,08058.2793,W,1,11,1.5,17,M,,M,,*68
06/15/2015	21:08:26.557	$GPGGA,210827,2426.7049,N,08058.2807,W,1,11,1.5,17,M,,M,,*6C
06/15/2015	21:08:27.601	$GPGGA,210828,2426.7057,N,08058.2819,W,1,11,1.5,17,M,,M,,*63
06/15/2015	21:08:28.566	$GPGGA,210829,2426.7065,N,08058.2833,W,1,11,1.5,17,M,,M,,*6B
06/15/2015	21:08:29.566	$GPGGA,210830,2426.7074,N,08058.2847,W,1,11,1.5,17,M,,M,,*60
06/15/2015	21:08:30.556	$GPGGA,210831,2426.7083,N,08058.2858,W,1,11,1.5,17,M,,M,,*67
06/15/2015	21:08:31.557	$GPGGA,210832,2426.7093,N,08058.2872,W,1,11,1.5,18,M,,M,,*62
06/15/2015	21:08:32.556	$GPGGA,210833,2426.7101,N,08058.2887,W,1,11,1.5,18,M,,M,,*63
06/15/2015	21:08:33.536	$GPGGA,210834,2426.7111,N,08058.2899,W,1,11,1.5,18,M,,M,,*6A
06/15/2015	21:08:34.546	$GPGGA,210835,2426.7121,N,08058.2912,W,1,11,1.5,18,M,,M,,*6A
06/15/2015	21:08:35.576	$GPGGA,210836,2426.7128,N,08058.2926,W,1,11,1.5,18,M,,M,,*67
06/15/2015	21:08:36.537	$GPGGA,210837,2426.7137,N,08058.2939,W,1,11,1.5,18,M,,M,,*66
06/15/2015	21:08:37.567	$GPGGA,210838,2426.7147,N,08058.2952,W,1,11,1.5,18,M,,M,,*63
06/15/2015	21:08:38.527	$GPGGA,210839,2426.7155,N,08058.2966,W,1,11,1.5,18,M,,M,,*66
06/15/2015	21:08:39.557	$GPGGA,210840,2426.7164,N,08058.2978,W,1,11,1.5,18,M,,M,,*65
06/15/2015	21:08:40.537	$GPGGA,210841,2426.7173,N,08058.2991,W,1,11,1.5,19,M,,M,,*64
06/15/2015	21:08:41.517	$GPGGA,210842,2426.7183,N,08058.3006,W,1,11,1.5,19,M,,M,,*6E
06/15/2015	21:08:42.537	$GPGGA,210843,2426.7191,N,08058.3018,W,1,11,1.5,19,M,,M,,*63
06/15/2015	21:08:43.557	$GPGGA,210844,2426.7201,N,08058.3032,W,1,11,1.5,19,M,,M,,*66
06/15/2015	21:08:44.527	$GPGGA,210845,2426.7211,N,08058.3045,W,1,11,1.5,19,M,,M,,*66
06/15/2015	21:08:45.547	$GPGGA,210846,2426.7220,N,08058.3058,W,1,11,1.5,19,M,,M,,*6B
06/15/2015	21:08:46.526	$GPGGA,210847,2426.7227,N,08058.3072,W,1,11,1.5,19,M,,M,,*65
06/15/2015	21:08:47.546	$GPGGA,210848,2426.7235,N,08058.3085,W,1,11,1.5,19,M,,M,,*61
06/15/2015	21:08:48.516	$GPGGA,210849,2426.7247,N,08058.3097,W,1,11,1.5,19,M,,M,,*66
06/15/2015	21:08:49.526	$GPGGA,210850,2426.7255,N,08058.3111,W,1,11,1.5,19,M,,M,,*62
06/15/2015	21:08:50.626	$GPGGA,210851,2426.7263,N,08058.3125,W,1,11,1.5,19,M,,M,,*61
06/15/2015	21:08:51.606	$GPGGA,210852,2426.7271,N,08058.3139,W,1,11,1.5,19,M,,M,,*6C
06/15/2015	21:08:52.498	$GPGGA,210853,2426.7281,N,08058.3152,W,1,11,1.5,19,M,,M,,*6F
06/15/2015	21:08:53.606	$GPGGA,210854,2426.7289,N,08058.3165,W,1,11,1.5,19,M,,M,,*64
06/15/2015	21:08:54.507	$GPGGA,210855,2426.7299,N,08058.3179,W,1,11,1.5,19,M,,M,,*69
06/15/2015	21:08:55.617	$GPGGA,210856,2426.7307,N,08058.3193,W,1,11,1.5,19,M,,M,,*68
06/15/2015	21:08:56.507	$GPGGA,210857,2426.7317,N,08058.3206,W,1,11,1.5,19,M,,M,,*67
06/15/2015	21:08:57.627	$GPGGA,210858,2426.7325,N,08058.3220,W,1,11,1.5,19,M,,M,,*6D
06/15/2015	21:08:58.498	$GPGGA,210859,2426.7334,N,08058.3235,W,1,11,1.5,19,M,,M,,*68
06/15/2015	21:08:59.607	$GPGGA,210900,2426.7343,N,08058.3248,W,1,11,1.5,19,M,,M,,*6F
06/15/2015	21:09:00.497	$GPGGA,210901,2426.7353,N,08058.3262,W,1,11,1.5,19,M,,M,,*67
06/15/2015	21:09:01.488	$GPGGA,210902,2426.7361,N,08058.3277,W,1,11,1.5,19,M,,M,,*61
06/15/2015	21:09:02.577	$GPGGA,210903,2426.7370,N,08058.3292,W,1,11,2.1,19,M,,M,,*6C
06/15/2015	21:09:03.606	$GPGGA,210904,2426.7379,N,08058.3306,W,1,10,2.1,19,M,,M,,*6F
06/15/2015	21:09:04.566	$GPGGA,210905,2426.7389,N,08058.3318,W,1,10,2.1,19,M,,M,,*6E
06/15/2015	21:09:05.577	$GPGGA,210906,2426.7397,N,08058.3331,W,1,11,1.5,19,M,,M,,*6F
06/15/2015	21:09:06.566	$GPGGA,210907,2426.7404,N,08058.3345,W,1,11,1.5,19,M,,M,,*60
06/15/2015	21:09:07.586	$GPGGA,210908,2426.7414,N,08058.3357,W,1,11,1.5,19,M,,M,,*6D
06/15/2015	21:09:08.556	$GPGGA,210909,2426.7422,N,08058.3370,W,1,11,1.5,19,M,,M,,*6C
06/15/2015	21:09:09.557	$GPGGA,210910,2426.7430,N,08058.3382,W,1,11,1.5,19,M,,M,,*6A
06/15/2015	21:09:10.556	$GPGGA,210911,2426.7440,N,08058.3396,W,1,11,1.5,19,M,,M,,*69
06/15/2015	21:09:11.590	$GPGGA,210912,2426.7448,N,08058.3412,W,1,10,2.1,19,M,,M,,*6F
06/15/2015	21:09:12.546	$GPGGA,210913,2426.7458,N,08058.3428,W,1,10,2.1,19,M,,M,,*66
06/15/2015	21:09:13.566	$GPGGA,210914,2426.7466,N,08058.3440,W,1,10,2.1,19,M,,M,,*62
06/15/2015	21:09:14.536	$GPGGA,210915,2426.7476,N,08058.3454,W,1,10,1.5,19,M,,M,,*60
06/15/2015	21:09:15.577	$GPGGA,210916,2426.7484,N,08058.3468,W,1,11,1.5,19,M,,M,,*60
06/15/2015	21:09:16.536	$GPGGA,210917,2426.7493,N,08058.3483,W,1,11,2.1,19,M,,M,,*65
06/15/2015	21:09:17.536	$GPGGA,210918,2426.7501,N,08058.3497,W,1,10,2.1,19,M,,M,,*64
06/15/2015	21:09:18.536	$GPGGA,210919,2426.7509,N,08058.3512,W,1,10,2.1,19,M,,M,,*61
06/15/2015	21:09:19.566	$GPGGA,210920,2426.7520,N,08058.3527,W,1,10,2.1,19,M,,M,,*66
06/15/2015	21:09:20.536	$GPGGA,210921,2426.7529,N,08058.3544,W,1,10,2.1,19,M,,M,,*6B
06/15/2015	21:09:21.525	$GPGGA,210922,2426.7538,N,08058.3558,W,1,11,1.5,18,M,,M,,*62
06/15/2015	21:09:22.526	$GPGGA,210923,2426.7547,N,08058.3569,W,1,11,1.5,18,M,,M,,*69
06/15/2015	21:09:23.546	$GPGGA,210924,2426.7555,N,08058.3582,W,1,11,1.5,18,M,,M,,*68
06/15/2015	21:09:24.526	$GPGGA,210925,2426.7563,N,08058.3595,W,1,11,1.5,18,M,,M,,*6A
06/15/2015	21:09:25.536	$GPGGA,210926,2426.7573,N,08058.3610,W,1,10,2.1,18,M,,M,,*60
06/15/2015	21:09:26.526	$GPGGA,210927,2426.7581,N,08058.3624,W,1,10,2.1,18,M,,M,,*6B
06/15/2015	21:09:27.566	$GPGGA,210928,2426.7589,N,08058.3636,W,1,11,1.5,18,M,,M,,*69
06/15/2015	21:09:28.526	$GPGGA,210929,2426.7598,N,08058.3649,W,1,11,1.5,18,M,,M,,*60
06/15/2015	21:09:29.536	$GPGGA,210930,2426.7606,N,08058.3661,W,1,11,1.5,18,M,,M,,*66
06/15/2015	21:09:30.506	$GPGGA,210931,2426.7614,N,08058.3674,W,1,11,1.5,18,M,,M,,*60
06/15/2015	21:09:31.536	$GPGGA,210932,2426.7624,N,08058.3685,W,1,11,1.5,18,M,,M,,*6E
06/15/2015	21:09:32.516	$GPGGA,210933,2426.7632,N,08058.3697,W,1,11,1.5,18,M,,M,,*6B
06/15/2015	21:09:33.516	$GPGGA,210934,2426.7639,N,08058.3710,W,1,11,1.5,18,M,,M,,*69
06/15/2015	21:09:34.496	$GPGGA,210935,2426.7649,N,08058.3722,W,1,11,1.5,18,M,,M,,*6E
06/15/2015	21:09:35.516	$GPGGA,210936,2426.7657,N,08058.3736,W,1,11,1.5,18,M,,M,,*67
06/15/2015	21:09:36.502	$GPGGA,210937,2426.7667,N,08058.3748,W,1,11,1.5,18,M,,M,,*6C
06/15/2015	21:09:37.506	$GPGGA,210938,2426.7675,N,08058.3761,W,1,11,1.5,18,M,,M,,*6B
06/15/2015	21:09:38.495	$GPGGA,210939,2426.7685,N,08058.3775,W,1,11,1.5,18,M,,M,,*60
06/15/2015	21:09:39.596	$GPGGA,210940,2426.7693,N,08058.3787,W,1,11,1.5,18,M,,M,,*64
06/15/2015	21:09:40.497	$GPGGA,210941,2426.7703,N,08058.3801,W,1,11,1.5,18,M,,M,,*6C
06/15/2015	21:09:41.616	$GPGGA,210942,2426.7711,N,08058.3815,W,1,11,1.5,18,M,,M,,*69
06/15/2015	21:09:42.580	$GPGGA,210943,2426.7721,N,08058.3827,W,1,11,1.5,18,M,,M,,*6A
06/15/2015	21:09:43.506	$GPGGA,210944,2426.7729,N,08058.3840,W,1,11,1.5,18,M,,M,,*64
06/15/2015	21:09:44.490	$GPGGA,210945,2426.7739,N,08058.3855,W,1,11,1.5,18,M,,M,,*60
06/15/2015	21:09:45.589	$GPGGA,210946,2426.7747,N,08058.3869,W,1,11,1.5,18,M,,M,,*65
06/15/2015	21:09:46.491	$GPGGA,210947,2426.7758,N,08058.3885,W,1,11,1.5,18,M,,M,,*68
06/15/2015	21:09:47.582	$GPGGA,210948,2426.7766,N,08058.3898,W,1,10,2.1,18,M,,M,,*60
06/15/2015	21:09:48.476	$GPGGA,210949,2426.7776,N,08058.3909,W,1,10,1.5,18,M,,M,,*6E
06/15/2015	21:09:49.578	$GPGGA,210950,2426.7783,N,08058.3920,W,1,11,1.5,18,M,,M,,*66
06/15/2015	21:09:50.566	$GPGGA,210951,2426.7791,N,08058.3934,W,1,11,1.5,18,M,,M,,*61
06/15/2015	21:09:51.480	$GPGGA,210952,2426.7802,N,08058.3949,W,1,11,1.5,18,M,,M,,*6D
06/15/2015	21:09:52.578	$GPGGA,210953,2426.7812,N,08058.3965,W,1,11,2.1,18,M,,M,,*64
06/15/2015	21:09:53.556	$GPGGA,210954,2426.7820,N,08058.3978,W,1,11,1.5,18,M,,M,,*69
06/15/2015	21:09:54.566	$GPGGA,210955,2426.7829,N,08058.3992,W,1,11,1.5,18,M,,M,,*65
06/15/2015	21:09:55.616	$GPGGA,210956,2426.7838,N,08058.4004,W,1,11,1.5,18,M,,M,,*67
06/15/2015	21:09:56.546	$GPGGA,210957,2426.7848,N,08058.4018,W,1,11,1.5,19,M,,M,,*6D
06/15/2015	21:09:57.546	$GPGGA,210958,2426.7858,N,08058.4035,W,1,10,2.1,18,M,,M,,*6B
06/15/2015	21:09:58.556	$GPGGA,210959,2426.7866,N,08058.4046,W,1,10,2.1,18,M,,M,,*63
06/15/2015	21:09:59.592	$GPGGA,211000,2426.7876,N,08058.4058,W,1,11,1.5,18,M,,M,,*6F
06/15/2015	21:10:00.556	$GPGGA,211001,2426.7885,N,08058.4072,W,1,11,1.5,18,M,,M,,*6A
06/15/2015	21:10:01.566	$GPGGA,211002,2426.7894,N,08058.4086,W,1,11,1.5,18,M,,M,,*62
06/15/2015	21:10:02.536	$GPGGA,211003,2426.7903,N,08058.4100,W,1,11,1.5,18,M,,M,,*63
06/15/2015	21:10:03.566	$GPGGA,211004,2426.7913,N,08058.4112,W,1,11,1.5,18,M,,M,,*66
06/15/2015	21:10:04.536	$GPGGA,211005,2426.7921,N,08058.4126,W,1,11,1.5,18,M,,M,,*61
06/15/2015	21:10:05.536	$GPGGA,211006,2426.7931,N,08058.4140,W,1,11,1.5,18,M,,M,,*63
06/15/2015	21:10:06.536	$GPGGA,211007,2426.7939,N,08058.4154,W,1,11,1.5,18,M,,M,,*6F
06/15/2015	21:10:07.577	$GPGGA,211008,2426.7950,N,08058.4166,W,1,11,1.5,18,M,,M,,*6E
06/15/2015	21:10:08.526	$GPGGA,211009,2426.7957,N,08058.4181,W,1,11,1.5,18,M,,M,,*61
06/15/2015	21:10:09.516	$GPGGA,211010,2426.7968,N,08058.4194,W,1,11,1.5,18,M,,M,,*61
06/15/2015	21:10:10.536	$GPGGA,211011,2426.7978,N,08058.4209,W,1,11,1.5,18,M,,M,,*66
06/15/2015	21:10:11.526	$GPGGA,211012,2426.7986,N,08058.4223,W,1,11,1.5,18,M,,M,,*6C
06/15/2015	21:10:12.536	$GPGGA,211013,2426.7995,N,08058.4236,W,1,11,1.5,18,M,,M,,*6B
06/15/2015	21:10:13.545	$GPGGA,211014,2426.8004,N,08058.4249,W,1,11,1.5,18,M,,M,,*6A
06/15/2015	21:10:14.516	$GPGGA,211015,2426.8015,N,08058.4263,W,1,11,1.5,18,M,,M,,*63
06/15/2015	21:10:16.756	$GPGGA,211017,2426.8031,N,08058.4292,W,1,11,1.5,18,M,,M,,*69
06/15/2015	21:10:17.506	$GPGGA,211018,2426.8042,N,08058.4304,W,1,11,1.5,18,M,,M,,*6C
06/15/2015	21:10:18.496	$GPGGA,211019,2426.8051,N,08058.4319,W,1,11,1.5,18,M,,M,,*63
06/15/2015	21:10:19.526	$GPGGA,211020,2426.8060,N,08058.4333,W,1,11,1.5,18,M,,M,,*63
06/15/2015	21:10:20.496	$GPGGA,211021,2426.8068,N,08058.4348,W,1,11,1.5,18,M,,M,,*66
06/15/2015	21:10:21.506	$GPGGA,211022,2426.8076,N,08058.4364,W,1,11,1.5,18,M,,M,,*64
06/15/2015	21:10:22.516	$GPGGA,211023,2426.8087,N,08058.4378,W,1,11,2.1,18,M,,M,,*61
06/15/2015	21:10:23.516	$GPGGA,211024,2426.8094,N,08058.4391,W,1,11,1.5,18,M,,M,,*64
06/15/2015	21:10:24.606	$GPGGA,211025,2426.8102,N,08058.4404,W,1,11,1.5,18,M,,M,,*60
06/15/2015	21:10:25.506	$GPGGA,211026,2426.8112,N,08058.4418,W,1,11,1.5,18,M,,M,,*6F
06/15/2015	21:10:26.489	$GPGGA,211027,2426.8120,N,08058.4431,W,1,11,1.5,18,M,,M,,*64
06/15/2015	21:10:27.516	$GPGGA,211028,2426.8129,N,08058.4445,W,1,11,1.5,18,M,,M,,*61
06/15/2015	21:10:28.479	$GPGGA,211029,2426.8138,N,08058.4458,W,1,11,1.5,18,M,,M,,*6C
06/15/2015	21:10:29.606	$GPGGA,211030,2426.8147,N,08058.4473,W,1,11,1.5,18,M,,M,,*65
06/15/2015	21:10:30.497	$GPGGA,211031,2426.8155,N,08058.4485,W,1,11,1.5,18,M,,M,,*6E
06/15/2015	21:10:31.626	$GPGGA,211032,2426.8163,N,08058.4498,W,1,11,1.5,18,M,,M,,*64
06/15/2015	21:10:32.490	$GPGGA,211033,2426.8172,N,08058.4512,W,1,11,1.5,18,M,,M,,*66
06/15/2015	21:10:33.578	$GPGGA,211034,2426.8180,N,08058.4523,W,1,10,1.5,18,M,,M,,*6F
06/15/2015	21:10:34.579	$GPGGA,211035,2426.8188,N,08058.4537,W,1,10,1.5,18,M,,M,,*63
06/15/2015	21:10:35.596	$GPGGA,211036,2426.8196,N,08058.4548,W,1,11,1.5,18,M,,M,,*66
06/15/2015	21:10:36.566	$GPGGA,211037,2426.8206,N,08058.4561,W,1,11,1.5,18,M,,M,,*66
06/15/2015	21:10:37.576	$GPGGA,211038,2426.8213,N,08058.4572,W,1,11,1.5,18,M,,M,,*6F
06/15/2015	21:10:38.566	$GPGGA,211039,2426.8221,N,08058.4585,W,1,11,1.5,18,M,,M,,*67
06/15/2015	21:10:39.586	$GPGGA,211040,2426.8228,N,08058.4595,W,1,11,1.5,18,M,,M,,*61
06/15/2015	21:10:40.556	$GPGGA,211041,2426.8237,N,08058.4606,W,1,11,1.5,18,M,,M,,*67
06/15/2015	21:10:41.596	$GPGGA,211042,2426.8245,N,08058.4615,W,1,11,1.5,18,M,,M,,*63
06/15/2015	21:10:42.556	$GPGGA,211043,2426.8253,N,08058.4626,W,1,11,1.5,18,M,,M,,*65
06/15/2015	21:10:43.606	$GPGGA,211044,2426.8260,N,08058.4636,W,1,11,1.5,18,M,,M,,*63
06/15/2015	21:10:44.556	$GPGGA,211045,2426.8268,N,08058.4647,W,1,11,1.5,18,M,,M,,*6C
06/15/2015	21:10:45.586	$GPGGA,211046,2426.8275,N,08058.4657,W,1,11,1.5,18,M,,M,,*62
06/15/2015	21:10:46.546	$GPGGA,211047,2426.8284,N,08058.4665,W,1,11,1.5,18,M,,M,,*6C
06/15/2015	21:10:47.576	$GPGGA,211048,2426.8289,N,08058.4675,W,1,11,1.6,18,M,,M,,*6C
06/15/2015	21:10:48.535	$GPGGA,211049,2426.8297,N,08058.4686,W,1,11,1.5,18,M,,M,,*6D
06/15/2015	21:10:49.556	$GPGGA,211050,2426.8304,N,08058.4696,W,1,11,1.5,18,M,,M,,*6F
06/15/2015	21:10:50.546	$GPGGA,211051,2426.8313,N,08058.4704,W,1,11,1.5,18,M,,M,,*62
06/15/2015	21:10:51.586	$GPGGA,211052,2426.8318,N,08058.4712,W,1,11,1.5,18,M,,M,,*6D
06/15/2015	21:10:52.546	$GPGGA,211053,2426.8325,N,08058.4722,W,1,11,1.5,18,M,,M,,*61
06/15/2015	21:10:53.566	$GPGGA,211054,2426.8332,N,08058.4729,W,1,11,1.5,18,M,,M,,*6B
06/15/2015	21:10:54.536	$GPGGA,211055,2426.8339,N,08058.4736,W,1,11,1.5,18,M,,M,,*6F
06/15/2015	21:10:55.546	$GPGGA,211056,2426.8346,N,08058.4745,W,1,11,1.5,19,M,,M,,*61
06/15/2015	21:10:56.526	$GPGGA,211057,2426.8354,N,08058.4754,W,1,11,1.5,19,M,,M,,*63
06/15/2015	21:10:57.546	$GPGGA,211058,2426.8361,N,08058.4762,W,1,11,1.5,19,M,,M,,*6F
06/15/2015	21:10:58.536	$GPGGA,211059,2426.8368,N,08058.4772,W,1,11,1.5,19,M,,M,,*66
06/15/2015	21:10:59.566	$GPGGA,211100,2426.8375,N,08058.4780,W,1,11,1.5,19,M,,M,,*6A
06/15/2015	21:11:00.536	$GPGGA,211101,2426.8383,N,08058.4788,W,1,11,1.5,19,M,,M,,*6A
06/15/2015	21:11:01.526	$GPGGA,211102,2426.8390,N,08058.4798,W,1,11,1.5,19,M,,M,,*6A
06/15/2015	21:11:02.526	$GPGGA,211103,2426.8397,N,08058.4809,W,1,11,2.1,19,M,,M,,*6C
06/15/2015	21:11:03.536	$GPGGA,211104,2426.8405,N,08058.4817,W,1,10,1.5,19,M,,M,,*6E
06/15/2015	21:11:04.516	$GPGGA,211105,2426.8414,N,08058.4827,W,1,10,1.5,19,M,,M,,*6C
06/15/2015	21:11:05.506	$GPGGA,211106,2426.8420,N,08058.4837,W,1,11,1.5,19,M,,M,,*68
06/15/2015	21:11:06.506	$GPGGA,211107,2426.8427,N,08058.4848,W,1,11,1.5,19,M,,M,,*66
06/15/2015	21:11:07.546	$GPGGA,211108,2426.8434,N,08058.4856,W,1,11,1.5,19,M,,M,,*64
06/15/2015	21:11:08.496	$GPGGA,211109,2426.8443,N,08058.4866,W,1,11,1.5,19,M,,M,,*66
06/15/2015	21:11:09.516	$GPGGA,211110,2426.8449,N,08058.4875,W,1,11,1.5,19,M,,M,,*66
06/15/2015	21:11:10.590	$GPGGA,211111,2426.8456,N,08058.4886,W,1,11,1.5,19,M,,M,,*65
06/15/2015	21:11:11.556	$GPGGA,211112,2426.8465,N,08058.4897,W,1,11,1.5,19,M,,M,,*66
06/15/2015	21:11:12.506	$GPGGA,211113,2426.8474,N,08058.4910,W,1,11,1.5,19,M,,M,,*69
06/15/2015	21:11:13.586	$GPGGA,211114,2426.8481,N,08058.4921,W,1,11,1.5,19,M,,M,,*66
06/15/2015	21:11:14.489	$GPGGA,211115,2426.8488,N,08058.4932,W,1,11,1.5,19,M,,M,,*6C
06/15/2015	21:11:15.866	$GPGGA,211116,2426.8497,N,08058.4943,W,1,11,1.5,20,M,,M,,*6D
06/15/2015	21:11:16.583	$GPGGA,211117,2426.8505,N,08058.4954,W,1,11,1.5,20,M,,M,,*60
06/15/2015	21:11:17.582	$GPGGA,211118,2426.8512,N,08058.4965,W,1,11,1.5,20,M,,M,,*6B
06/15/2015	21:11:18.577	$GPGGA,211119,2426.8520,N,08058.4978,W,1,11,1.5,20,M,,M,,*67
06/15/2015	21:11:19.586	$GPGGA,211120,2426.8528,N,08058.4990,W,1,11,1.5,20,M,,M,,*63
06/15/2015	21:11:20.576	$GPGGA,211121,2426.8535,N,08058.5003,W,1,11,1.5,20,M,,M,,*6C
06/15/2015	21:11:21.577	$GPGGA,211122,2426.8544,N,08058.5015,W,1,11,1.5,20,M,,M,,*6E
06/15/2015	21:11:22.566	$GPGGA,211123,2426.8553,N,08058.5027,W,1,11,1.5,20,M,,M,,*68
06/15/2015	21:11:23.585	$GPGGA,211124,2426.8560,N,08058.5043,W,1,11,2.1,20,M,,M,,*6A
06/15/2015	21:11:24.566	$GPGGA,211125,2426.8567,N,08058.5052,W,1,11,1.5,20,M,,M,,*6B
06/15/2015	21:11:25.567	$GPGGA,211126,2426.8575,N,08058.5062,W,1,11,1.5,20,M,,M,,*68
06/15/2015	21:11:26.566	$GPGGA,211127,2426.8584,N,08058.5074,W,1,11,1.5,20,M,,M,,*60
06/15/2015	21:11:27.588	$GPGGA,211128,2426.8592,N,08058.5090,W,1,11,1.5,20,M,,M,,*62
06/15/2015	21:11:28.556	$GPGGA,211129,2426.8600,N,08058.5108,W,1,11,2.1,20,M,,M,,*6C
06/15/2015	21:11:29.577	$GPGGA,211130,2426.8609,N,08058.5119,W,1,10,2.1,20,M,,M,,*6C
06/15/2015	21:11:30.566	$GPGGA,211131,2426.8617,N,08058.5130,W,1,10,1.5,20,M,,M,,*6E
06/15/2015	21:11:31.578	$GPGGA,211132,2426.8624,N,08058.5141,W,1,11,1.5,20,M,,M,,*6A
06/15/2015	21:11:32.556	$GPGGA,211133,2426.8632,N,08058.5155,W,1,11,1.5,20,M,,M,,*69
06/15/2015	21:11:33.556	$GPGGA,211134,2426.8640,N,08058.5170,W,1,10,2.1,20,M,,M,,*6A
06/15/2015	21:11:34.546	$GPGGA,211135,2426.8647,N,08058.5181,W,1,10,2.1,20,M,,M,,*62
06/15/2015	21:11:35.566	$GPGGA,211136,2426.8656,N,08058.5193,W,1,11,1.5,20,M,,M,,*64
06/15/2015	21:11:36.536	$GPGGA,211137,2426.8664,N,08058.5207,W,1,11,1.5,20,M,,M,,*6A
06/15/2015	21:11:37.566	$GPGGA,211138,2426.8672,N,08058.5222,W,1,11,1.5,20,M,,M,,*65
06/15/2015	21:11:38.536	$GPGGA,211139,2426.8680,N,08058.5235,W,1,11,2.1,20,M,,M,,*68
06/15/2015	21:11:39.566	$GPGGA,211140,2426.8687,N,08058.5246,W,1,10,1.6,20,M,,M,,*60
06/15/2015	21:11:40.536	$GPGGA,211141,2426.8696,N,08058.5258,W,1,10,1.5,20,M,,M,,*6D
06/15/2015	21:11:41.536	$GPGGA,211142,2426.8703,N,08058.5271,W,1,11,1.5,20,M,,M,,*69
06/15/2015	21:11:42.526	$GPGGA,211143,2426.8712,N,08058.5283,W,1,11,1.5,20,M,,M,,*65
06/15/2015	21:11:43.536	$GPGGA,211144,2426.8719,N,08058.5296,W,1,11,1.5,20,M,,M,,*6D
06/15/2015	21:11:44.527	$GPGGA,211145,2426.8727,N,08058.5309,W,1,11,1.5,20,M,,M,,*66
06/15/2015	21:11:45.526	$GPGGA,211146,2426.8737,N,08058.5322,W,1,11,1.5,20,M,,M,,*6D
