Software Version Number: 1	Data File Format Number: 1	Build Version Number: 1	Error Count Since VI Started: 1	Manufacturer: Raytheon	 Model Number: RayMarine 120	 S/N: 	 Cal Date: 	 Wind Direction Offset: 0.00	 Slope (M)1: 0.00	 Offset (B)1: 0.00	 Slope (M)2: 0.00	 Offset (B)2: 0.00	 Slope (M)3: 0.00	 Offset (B)3: 0.00	 Slope (M)4: 0.00	 Offset (B)4: 0.00	 Slope (M)5: 0.00	 Offset (B)5: 0.00	 Slope (M)6: 0.00	 Offset (B)6: 0.00
Computer Date	Computer Time	GGA String
06/14/2015	08:00:00.558	$GPGGA,080001,2434.1541,N,08054.5102,W,1,9,1.7,16,M,,M,,*5E
06/14/2015	08:00:01.549	$GPGGA,080002,2434.1551,N,08054.5088,W,1,8,1.5,16,M,,M,,*5C
06/14/2015	08:00:02.559	$GPGGA,080003,2434.1559,N,08054.5071,W,1,8,1.7,16,M,,M,,*51
06/14/2015	08:00:03.589	$GPGGA,080004,2434.1565,N,08054.5055,W,1,8,1.5,16,M,,M,,*5D
06/14/2015	08:00:04.549	$GPGGA,080005,2434.1573,N,08054.5039,W,1,8,1.5,16,M,,M,,*51
06/14/2015	08:00:05.569	$GPGGA,080006,2434.1581,N,08054.5023,W,1,9,1.5,16,M,,M,,*55
06/14/2015	08:00:06.549	$GPGGA,080007,2434.1588,N,08054.5006,W,1,9,1.5,16,M,,M,,*5A
06/14/2015	08:00:07.579	$GPGGA,080008,2434.1592,N,08054.4991,W,1,9,1.5,16,M,,M,,*58
06/14/2015	08:00:08.549	$GPGGA,080009,2434.1602,N,08054.4976,W,1,9,1.5,16,M,,M,,*5A
06/14/2015	08:00:09.539	$GPGGA,080010,2434.1609,N,08054.4961,W,1,9,1.5,16,M,,M,,*5F
06/14/2015	08:00:10.539	$GPGGA,080011,2434.1615,N,08054.4945,W,1,9,1.7,16,M,,M,,*57
06/14/2015	08:00:11.569	$GPGGA,080012,2434.1623,N,08054.4928,W,1,8,1.5,16,M,,M,,*59
06/14/2015	08:00:12.539	$GPGGA,080013,2434.1631,N,08054.4913,W,1,8,1.5,16,M,,M,,*53
06/14/2015	08:00:13.559	$GPGGA,080014,2434.1639,N,08054.4899,W,1,9,1.5,16,M,,M,,*5E
06/14/2015	08:00:14.523	$GPGGA,080015,2434.1646,N,08054.4881,W,1,9,1.5,16,M,,M,,*5E
06/14/2015	08:00:15.559	$GPGGA,080016,2434.1653,N,08054.4865,W,1,9,1.5,16,M,,M,,*53
06/14/2015	08:00:16.530	$GPGGA,080017,2434.1663,N,08054.4851,W,1,9,1.5,16,M,,M,,*56
06/14/2015	08:00:17.548	$GPGGA,080018,2434.1670,N,08054.4836,W,1,9,1.5,16,M,,M,,*5A
06/14/2015	08:00:18.532	$GPGGA,080019,2434.1675,N,08054.4819,W,1,9,1.5,16,M,,M,,*53
06/14/2015	08:00:19.569	$GPGGA,080020,2434.1686,N,08054.4805,W,1,9,1.5,16,M,,M,,*58
06/14/2015	08:00:20.509	$GPGGA,080021,2434.1696,N,08054.4791,W,1,9,1.5,16,M,,M,,*5A
06/14/2015	08:00:21.549	$GPGGA,080022,2434.1703,N,08054.4774,W,1,9,1.5,16,M,,M,,*5F
06/14/2015	08:00:22.519	$GPGGA,080023,2434.1711,N,08054.4758,W,1,9,1.7,16,M,,M,,*51
06/14/2015	08:00:23.539	$GPGGA,080024,2434.1721,N,08054.4745,W,1,8,1.5,16,M,,M,,*5A
06/14/2015	08:00:24.509	$GPGGA,080025,2434.1731,N,08054.4729,W,1,8,1.7,16,M,,M,,*52
06/14/2015	08:00:25.521	$GPGGA,080026,2434.1740,N,08054.4712,W,1,8,1.5,16,M,,M,,*5D
06/14/2015	08:00:26.509	$GPGGA,080027,2434.1747,N,08054.4699,W,1,8,1.5,16,M,,M,,*59
06/14/2015	08:00:27.631	$GPGGA,080028,2434.1754,N,08054.4685,W,1,9,1.5,16,M,,M,,*58
06/14/2015	08:00:28.509	$GPGGA,080029,2434.1761,N,08054.4671,W,1,9,1.5,16,M,,M,,*54
06/14/2015	08:00:29.609	$GPGGA,080030,2434.1769,N,08054.4659,W,1,9,1.6,17,M,,M,,*5C
06/14/2015	08:00:30.519	$GPGGA,080031,2434.1779,N,08054.4644,W,1,9,1.5,17,M,,M,,*53
06/14/2015	08:00:31.529	$GPGGA,080032,2434.1786,N,08054.4629,W,1,9,1.5,17,M,,M,,*5B
06/14/2015	08:00:32.509	$GPGGA,080033,2434.1796,N,08054.4617,W,1,9,1.7,17,M,,M,,*54
06/14/2015	08:00:33.519	$GPGGA,080034,2434.1808,N,08054.4602,W,1,8,1.7,17,M,,M,,*5E
06/14/2015	08:00:34.498	$GPGGA,080035,2434.1816,N,08054.4584,W,1,8,1.7,17,M,,M,,*5D
06/14/2015	08:00:35.608	$GPGGA,080036,2434.1821,N,08054.4571,W,1,8,1.5,17,M,,M,,*52
06/14/2015	08:00:36.519	$GPGGA,080037,2434.1832,N,08054.4559,W,1,8,1.7,17,M,,M,,*59
06/14/2015	08:00:37.499	$GPGGA,080038,2434.1841,N,08054.4544,W,1,8,1.7,17,M,,M,,*5E
06/14/2015	08:00:38.499	$GPGGA,080039,2434.1847,N,08054.4532,W,1,8,1.5,17,M,,M,,*5A
06/14/2015	08:00:39.579	$GPGGA,080040,2434.1852,N,08054.4520,W,1,9,1.5,17,M,,M,,*52
06/14/2015	08:00:40.569	$GPGGA,080041,2434.1859,N,08054.4506,W,1,9,1.5,17,M,,M,,*5C
06/14/2015	08:00:41.589	$GPGGA,080042,2434.1868,N,08054.4494,W,1,9,1.5,17,M,,M,,*57
06/14/2015	08:00:42.569	$GPGGA,080043,2434.1875,N,08054.4482,W,1,9,1.5,17,M,,M,,*5D
06/14/2015	08:00:43.569	$GPGGA,080044,2434.1880,N,08054.4468,W,1,9,1.5,17,M,,M,,*54
06/14/2015	08:00:44.569	$GPGGA,080045,2434.1888,N,08054.4453,W,1,9,1.5,17,M,,M,,*55
06/14/2015	08:00:45.559	$GPGGA,080046,2434.1895,N,08054.4443,W,1,9,1.5,17,M,,M,,*5B
06/14/2015	08:00:46.569	$GPGGA,080047,2434.1902,N,08054.4429,W,1,9,1.5,17,M,,M,,*59
06/14/2015	08:00:47.579	$GPGGA,080048,2434.1909,N,08054.4413,W,1,9,1.5,17,M,,M,,*54
06/14/2015	08:00:48.559	$GPGGA,080049,2434.1916,N,08054.4400,W,1,9,1.5,17,M,,M,,*59
06/14/2015	08:00:49.569	$GPGGA,080050,2434.1924,N,08054.4388,W,1,9,1.5,17,M,,M,,*57
06/14/2015	08:00:50.569	$GPGGA,080051,2434.1930,N,08054.4375,W,1,9,1.5,17,M,,M,,*51
06/14/2015	08:00:51.578	$GPGGA,080052,2434.1937,N,08054.4361,W,1,9,1.5,17,M,,M,,*50
06/14/2015	08:00:52.558	$GPGGA,080053,2434.1945,N,08054.4348,W,1,9,1.4,17,M,,M,,*5E
06/14/2015	08:00:53.548	$GPGGA,080054,2434.1953,N,08054.4334,W,1,8,1.5,17,M,,M,,*55
06/14/2015	08:00:54.551	$GPGGA,080055,2434.1963,N,08054.4319,W,1,8,1.4,17,M,,M,,*59
06/14/2015	08:00:55.579	$GPGGA,080056,2434.1971,N,08054.4305,W,1,9,1.4,17,M,,M,,*55
06/14/2015	08:00:56.549	$GPGGA,080057,2434.1978,N,08054.4291,W,1,9,1.4,17,M,,M,,*51
06/14/2015	08:00:57.559	$GPGGA,080058,2434.1984,N,08054.4276,W,1,9,1.4,17,M,,M,,*54
06/14/2015	08:00:58.539	$GPGGA,080059,2434.1989,N,08054.4262,W,1,9,1.4,17,M,,M,,*5D
06/14/2015	08:00:59.549	$GPGGA,080100,2434.1998,N,08054.4248,W,1,9,1.4,18,M,,M,,*57
06/14/2015	08:01:00.539	$GPGGA,080101,2434.2003,N,08054.4233,W,1,9,1.4,18,M,,M,,*52
06/14/2015	08:01:01.559	$GPGGA,080102,2434.2009,N,08054.4218,W,1,9,1.4,18,M,,M,,*52
06/14/2015	08:01:02.539	$GPGGA,080103,2434.2014,N,08054.4204,W,1,9,1.5,18,M,,M,,*53
06/14/2015	08:01:03.549	$GPGGA,080104,2434.2023,N,08054.4189,W,1,9,1.4,18,M,,M,,*57
06/14/2015	08:01:04.519	$GPGGA,080105,2434.2029,N,08054.4173,W,1,9,1.4,18,M,,M,,*59
06/14/2015	08:01:05.519	$GPGGA,080106,2434.2032,N,08054.4160,W,1,8,1.5,18,M,,M,,*52
06/14/2015	08:01:06.513	$GPGGA,080107,2434.2039,N,08054.4146,W,1,8,1.4,18,M,,M,,*5D
06/14/2015	08:01:07.549	$GPGGA,080108,2434.2045,N,08054.4131,W,1,9,1.4,18,M,,M,,*58
06/14/2015	08:01:08.498	$GPGGA,080109,2434.2052,N,08054.4115,W,1,9,1.4,18,M,,M,,*59
06/14/2015	08:01:09.520	$GPGGA,080110,2434.2057,N,08054.4100,W,1,9,1.4,18,M,,M,,*50
06/14/2015	08:01:10.513	$GPGGA,080111,2434.2063,N,08054.4086,W,1,9,1.4,18,M,,M,,*59
06/14/2015	08:01:11.638	$GPGGA,080112,2434.2070,N,08054.4070,W,1,9,1.4,18,M,,M,,*51
06/14/2015	08:01:12.510	$GPGGA,080113,2434.2076,N,08054.4054,W,1,9,1.4,18,M,,M,,*50
06/14/2015	08:01:13.520	$GPGGA,080114,2434.2082,N,08054.4039,W,1,9,1.4,18,M,,M,,*57
06/14/2015	08:01:14.488	$GPGGA,080115,2434.2086,N,08054.4026,W,1,9,1.4,19,M,,M,,*5D
06/14/2015	08:01:15.638	$GPGGA,080116,2434.2094,N,08054.4009,W,1,9,1.4,19,M,,M,,*50
06/14/2015	08:01:16.598	$GPGGA,080117,2434.2101,N,08054.3994,W,1,9,1.4,19,M,,M,,*56
06/14/2015	08:01:17.598	$GPGGA,080118,2434.2108,N,08054.3979,W,1,9,1.4,19,M,,M,,*53
06/14/2015	08:01:18.488	$GPGGA,080119,2434.2112,N,08054.3964,W,1,9,1.4,19,M,,M,,*55
06/14/2015	08:01:19.588	$GPGGA,080120,2434.2119,N,08054.3950,W,1,9,1.4,19,M,,M,,*53
06/14/2015	08:01:20.478	$GPGGA,080121,2434.2129,N,08054.3934,W,1,9,1.4,19,M,,M,,*53
06/14/2015	08:01:21.588	$GPGGA,080122,2434.2133,N,08054.3920,W,1,8,1.5,19,M,,M,,*5E
06/14/2015	08:01:22.599	$GPGGA,080123,2434.2137,N,08054.3905,W,1,8,1.4,19,M,,M,,*5D
06/14/2015	08:01:23.611	$GPGGA,080124,2434.2146,N,08054.3890,W,1,9,1.4,19,M,,M,,*50
06/14/2015	08:01:24.579	$GPGGA,080125,2434.2154,N,08054.3877,W,1,9,1.4,19,M,,M,,*5B
06/14/2015	08:01:25.599	$GPGGA,080126,2434.2159,N,08054.3862,W,1,9,1.4,19,M,,M,,*51
06/14/2015	08:01:26.558	$GPGGA,080127,2434.2164,N,08054.3846,W,1,9,1.4,19,M,,M,,*58
06/14/2015	08:01:27.578	$GPGGA,080128,2434.2172,N,08054.3832,W,1,8,1.6,19,M,,M,,*50
06/14/2015	08:01:28.568	$GPGGA,080129,2434.2179,N,08054.3816,W,1,8,1.6,19,M,,M,,*5C
06/14/2015	08:01:29.558	$GPGGA,080130,2434.2184,N,08054.3800,W,1,9,1.4,19,M,,M,,*52
06/14/2015	08:01:30.558	$GPGGA,080131,2434.2190,N,08054.3783,W,1,9,1.4,19,M,,M,,*52
06/14/2015	08:01:31.588	$GPGGA,080132,2434.2198,N,08054.3770,W,1,9,1.4,19,M,,M,,*55
06/14/2015	08:01:32.559	$GPGGA,080133,2434.2206,N,08054.3754,W,1,9,1.4,19,M,,M,,*56
06/14/2015	08:01:33.568	$GPGGA,080134,2434.2212,N,08054.3738,W,1,9,1.4,19,M,,M,,*5E
06/14/2015	08:01:34.548	$GPGGA,080135,2434.2219,N,08054.3724,W,1,9,1.4,19,M,,M,,*59
06/14/2015	08:01:35.578	$GPGGA,080136,2434.2229,N,08054.3708,W,1,8,1.5,19,M,,M,,*57
06/14/2015	08:01:36.538	$GPGGA,080137,2434.2234,N,08054.3692,W,1,8,1.5,19,M,,M,,*58
06/14/2015	08:01:37.558	$GPGGA,080138,2434.2241,N,08054.3678,W,1,9,1.5,19,M,,M,,*50
06/14/2015	08:01:38.538	$GPGGA,080139,2434.2249,N,08054.3664,W,1,9,1.4,19,M,,M,,*55
06/14/2015	08:01:39.579	$GPGGA,080140,2434.2256,N,08054.3650,W,1,9,1.5,19,M,,M,,*53
06/14/2015	08:01:40.529	$GPGGA,080141,2434.2259,N,08054.3636,W,1,9,1.4,19,M,,M,,*5C
06/14/2015	08:01:41.539	$GPGGA,080142,2434.2263,N,08054.3624,W,1,10,1.4,19,M,,M,,*6D
06/14/2015	08:01:42.539	$GPGGA,080143,2434.2271,N,08054.3610,W,1,10,1.4,19,M,,M,,*68
06/14/2015	08:01:43.548	$GPGGA,080144,2434.2280,N,08054.3596,W,1,9,1.5,19,M,,M,,*55
06/14/2015	08:01:44.548	$GPGGA,080145,2434.2287,N,08054.3581,W,1,9,1.4,19,M,,M,,*54
06/14/2015	08:01:45.558	$GPGGA,080146,2434.2295,N,08054.3567,W,1,10,1.4,19,M,,M,,*64
06/14/2015	08:01:46.528	$GPGGA,080147,2434.2302,N,08054.3554,W,1,10,1.4,19,M,,M,,*6A
06/14/2015	08:01:47.568	$GPGGA,080148,2434.2310,N,08054.3539,W,1,9,1.5,19,M,,M,,*54
06/14/2015	08:01:48.528	$GPGGA,080149,2434.2320,N,08054.3525,W,1,9,1.5,19,M,,M,,*5B
06/14/2015	08:01:49.518	$GPGGA,080150,2434.2327,N,08054.3512,W,1,9,1.5,19,M,,M,,*50
06/14/2015	08:01:50.508	$GPGGA,080151,2434.2336,N,08054.3497,W,1,9,1.5,19,M,,M,,*5D
06/14/2015	08:01:51.538	$GPGGA,080152,2434.2345,N,08054.3483,W,1,9,1.5,19,M,,M,,*5F
06/14/2015	08:01:52.509	$GPGGA,080153,2434.2352,N,08054.3469,W,1,9,1.4,19,M,,M,,*5D
06/14/2015	08:01:53.538	$GPGGA,080154,2434.2361,N,08054.3456,W,1,10,1.4,19,M,,M,,*6E
06/14/2015	08:01:54.508	$GPGGA,080155,2434.2371,N,08054.3442,W,1,10,1.4,19,M,,M,,*6B
06/14/2015	08:01:55.528	$GPGGA,080156,2434.2376,N,08054.3428,W,1,10,1.4,19,M,,M,,*63
06/14/2015	08:01:56.520	$GPGGA,080157,2434.2385,N,08054.3414,W,1,10,1.4,19,M,,M,,*61
06/14/2015	08:01:57.729	$GPGGA,080158,2434.2393,N,08054.3400,W,1,10,1.4,19,M,,M,,*6C
06/14/2015	08:01:58.519	$GPGGA,080159,2434.2401,N,08054.3386,W,1,10,1.4,19,M,,M,,*68
06/14/2015	08:01:59.539	$GPGGA,080200,2434.2411,N,08054.3373,W,1,10,1.4,19,M,,M,,*6C
06/14/2015	08:02:00.499	$GPGGA,080201,2434.2419,N,08054.3357,W,1,10,1.4,19,M,,M,,*63
06/14/2015	08:02:01.624	$GPGGA,080202,2434.2426,N,08054.3341,W,1,10,1.4,20,M,,M,,*61
06/14/2015	08:02:02.488	$GPGGA,080203,2434.2437,N,08054.3329,W,1,10,1.4,20,M,,M,,*6E
06/14/2015	08:02:03.538	$GPGGA,080204,2434.2447,N,08054.3317,W,1,10,1.4,20,M,,M,,*63
06/14/2015	08:02:04.516	$GPGGA,080205,2434.2455,N,08054.3300,W,1,10,1.4,20,M,,M,,*67
06/14/2015	08:02:05.488	$GPGGA,080206,2434.2462,N,08054.3287,W,1,9,1.5,20,M,,M,,*57
06/14/2015	08:02:06.488	$GPGGA,080207,2434.2473,N,08054.3275,W,1,9,1.4,20,M,,M,,*5A
06/14/2015	08:02:07.488	$GPGGA,080208,2434.2480,N,08054.3261,W,1,9,1.5,20,M,,M,,*5D
06/14/2015	08:02:08.478	$GPGGA,080209,2434.2486,N,08054.3248,W,1,9,1.4,20,M,,M,,*50
06/14/2015	08:02:09.489	$GPGGA,080210,2434.2494,N,08054.3236,W,1,10,1.4,20,M,,M,,*6A
06/14/2015	08:02:10.578	$GPGGA,080211,2434.2502,N,08054.3222,W,1,10,1.4,20,M,,M,,*60
06/14/2015	08:02:11.623	$GPGGA,080212,2434.2509,N,08054.3209,W,1,10,1.4,20,M,,M,,*61
06/14/2015	08:02:13.568	$GPGGA,080214,2434.2523,N,08054.3182,W,1,10,1.4,20,M,,M,,*6F
06/14/2015	08:02:14.589	$GPGGA,080215,2434.2531,N,08054.3167,W,1,10,1.4,20,M,,M,,*66
06/14/2015	08:02:15.609	$GPGGA,080216,2434.2538,N,08054.3154,W,1,10,1.4,20,M,,M,,*6C
06/14/2015	08:02:16.559	$GPGGA,080217,2434.2545,N,08054.3141,W,1,10,1.4,20,M,,M,,*63
06/14/2015	08:02:17.589	$GPGGA,080218,2434.2552,N,08054.3126,W,1,10,1.4,20,M,,M,,*6B
06/14/2015	08:02:18.568	$GPGGA,080219,2434.2560,N,08054.3111,W,1,10,1.4,20,M,,M,,*6F
06/14/2015	08:02:19.612	$GPGGA,080220,2434.2567,N,08054.3100,W,1,9,1.6,20,M,,M,,*58
06/14/2015	08:02:20.548	$GPGGA,080221,2434.2574,N,08054.3087,W,1,9,1.4,20,M,,M,,*57
06/14/2015	08:02:21.548	$GPGGA,080222,2434.2583,N,08054.3071,W,1,10,1.4,20,M,,M,,*6D
06/14/2015	08:02:22.558	$GPGGA,080223,2434.2588,N,08054.3059,W,1,10,1.4,20,M,,M,,*6D
06/14/2015	08:02:23.588	$GPGGA,080224,2434.2595,N,08054.3046,W,1,10,1.4,20,M,,M,,*68
06/14/2015	08:02:24.548	$GPGGA,080225,2434.2602,N,08054.3032,W,1,10,1.4,20,M,,M,,*67
06/14/2015	08:02:25.558	$GPGGA,080226,2434.2607,N,08054.3019,W,1,10,1.4,20,M,,M,,*68
06/14/2015	08:02:26.548	$GPGGA,080227,2434.2613,N,08054.3005,W,1,10,1.5,20,M,,M,,*60
06/14/2015	08:02:27.568	$GPGGA,080228,2434.2617,N,08054.2992,W,1,10,1.4,20,M,,M,,*6C
06/14/2015	08:02:28.548	$GPGGA,080229,2434.2623,N,08054.2979,W,1,10,1.4,20,M,,M,,*6F
06/14/2015	08:02:29.538	$GPGGA,080230,2434.2630,N,08054.2964,W,1,10,1.4,20,M,,M,,*69
06/14/2015	08:02:30.538	$GPGGA,080231,2434.2635,N,08054.2950,W,1,10,1.4,20,M,,M,,*6A
06/14/2015	08:02:31.579	$GPGGA,080232,2434.2641,N,08054.2936,W,1,10,1.4,20,M,,M,,*6A
06/14/2015	08:02:32.539	$GPGGA,080233,2434.2646,N,08054.2922,W,1,10,1.4,20,M,,M,,*69
06/14/2015	08:02:33.539	$GPGGA,080234,2434.2654,N,08054.2906,W,1,10,1.4,20,M,,M,,*6B
06/14/2015	08:02:34.539	$GPGGA,080235,2434.2661,N,08054.2891,W,1,10,1.4,20,M,,M,,*63
06/14/2015	08:02:35.549	$GPGGA,080236,2434.2667,N,08054.2877,W,1,10,1.4,19,M,,M,,*64
06/14/2015	08:02:36.528	$GPGGA,080237,2434.2675,N,08054.2863,W,1,10,1.4,19,M,,M,,*63
06/14/2015	08:02:37.512	$GPGGA,080238,2434.2681,N,08054.2848,W,1,9,1.5,19,M,,M,,*57
06/14/2015	08:02:38.538	$GPGGA,080239,2434.2686,N,08054.2834,W,1,9,1.4,19,M,,M,,*5B
06/14/2015	08:02:39.528	$GPGGA,080240,2434.2695,N,08054.2819,W,1,10,1.4,19,M,,M,,*60
06/14/2015	08:02:40.508	$GPGGA,080241,2434.2701,N,08054.2805,W,1,10,1.4,19,M,,M,,*60
06/14/2015	08:02:41.528	$GPGGA,080242,2434.2706,N,08054.2789,W,1,10,1.4,19,M,,M,,*6F
06/14/2015	08:02:42.508	$GPGGA,080243,2434.2714,N,08054.2774,W,1,10,1.4,19,M,,M,,*6F
06/14/2015	08:02:43.528	$GPGGA,080244,2434.2722,N,08054.2759,W,1,10,1.4,19,M,,M,,*62
06/14/2015	08:02:44.499	$GPGGA,080245,2434.2726,N,08054.2744,W,1,10,1.5,19,M,,M,,*6A
06/14/2015	08:02:45.528	$GPGGA,080246,2434.2732,N,08054.2728,W,1,10,1.4,19,M,,M,,*67
06/14/2015	08:02:46.498	$GPGGA,080247,2434.2740,N,08054.2713,W,1,10,1.4,18,M,,M,,*6A
06/14/2015	08:02:47.528	$GPGGA,080248,2434.2748,N,08054.2697,W,1,10,1.4,18,M,,M,,*60
06/14/2015	08:02:48.498	$GPGGA,080249,2434.2754,N,08054.2681,W,1,10,1.4,18,M,,M,,*6B
06/14/2015	08:02:49.499	$GPGGA,080250,2434.2760,N,08054.2666,W,1,10,1.4,18,M,,M,,*6D
06/14/2015	08:02:50.489	$GPGGA,080251,2434.2769,N,08054.2650,W,1,10,1.4,18,M,,M,,*60
06/14/2015	08:02:51.689	$GPGGA,080252,2434.2776,N,08054.2634,W,1,10,1.4,18,M,,M,,*6F
06/14/2015	08:02:52.509	$GPGGA,080253,2434.2782,N,08054.2618,W,1,10,1.4,18,M,,M,,*6B
06/14/2015	08:02:53.948	$GPGGA,080254,2434.2790,N,08054.2602,W,1,10,1.4,18,M,,M,,*64
06/14/2015	08:02:54.488	$GPGGA,080255,2434.2798,N,08054.2587,W,1,10,1.5,18,M,,M,,*62
06/14/2015	08:02:55.688	$GPGGA,080256,2434.2804,N,08054.2572,W,1,9,1.4,18,M,,M,,*58
06/14/2015	08:02:56.508	$GPGGA,080257,2434.2809,N,08054.2555,W,1,9,1.4,18,M,,M,,*51
06/14/2015	08:02:57.678	$GPGGA,080258,2434.2820,N,08054.2539,W,1,9,1.6,18,M,,M,,*5D
06/14/2015	08:02:58.488	$GPGGA,080259,2434.2827,N,08054.2525,W,1,9,1.6,18,M,,M,,*56
06/14/2015	08:02:59.538	$GPGGA,080300,2434.2834,N,08054.2508,W,1,10,1.4,18,M,,M,,*6C
06/14/2015	08:03:00.620	$GPGGA,080301,2434.2841,N,08054.2491,W,1,10,1.4,18,M,,M,,*6E
06/14/2015	08:03:01.668	$GPGGA,080302,2434.2852,N,08054.2477,W,1,10,1.4,18,M,,M,,*67
06/14/2015	08:03:02.598	$GPGGA,080303,2434.2859,N,08054.2463,W,1,10,1.4,18,M,,M,,*68
06/14/2015	08:03:03.688	$GPGGA,080304,2434.2866,N,08054.2447,W,1,10,1.4,18,M,,M,,*65
06/14/2015	08:03:04.598	$GPGGA,080305,2434.2874,N,08054.2431,W,1,10,1.5,18,M,,M,,*67
06/14/2015	08:03:05.668	$GPGGA,080306,2434.2881,N,08054.2418,W,1,9,1.5,18,M,,M,,*5D
06/14/2015	08:03:06.579	$GPGGA,080307,2434.2888,N,08054.2402,W,1,9,1.5,18,M,,M,,*5E
06/14/2015	08:03:07.669	$GPGGA,080308,2434.2895,N,08054.2388,W,1,10,1.4,18,M,,M,,*61
06/14/2015	08:03:08.560	$GPGGA,080309,2434.2903,N,08054.2373,W,1,10,1.4,18,M,,M,,*6A
06/14/2015	08:03:09.649	$GPGGA,080310,2434.2913,N,08054.2356,W,1,9,1.4,18,M,,M,,*5C
06/14/2015	08:03:10.579	$GPGGA,080311,2434.2919,N,08054.2342,W,1,9,1.4,18,M,,M,,*52
06/14/2015	08:03:11.668	$GPGGA,080312,2434.2928,N,08054.2328,W,1,10,1.4,18,M,,M,,*67
06/14/2015	08:03:12.578	$GPGGA,080313,2434.2935,N,08054.2312,W,1,10,1.4,18,M,,M,,*63
06/14/2015	08:03:13.658	$GPGGA,080314,2434.2941,N,08054.2298,W,1,10,1.4,18,M,,M,,*64
06/14/2015	08:03:14.548	$GPGGA,080315,2434.2950,N,08054.2284,W,1,10,1.4,18,M,,M,,*68
06/14/2015	08:03:15.668	$GPGGA,080316,2434.2959,N,08054.2270,W,1,10,1.4,18,M,,M,,*69
06/14/2015	08:03:16.538	$GPGGA,080317,2434.2964,N,08054.2254,W,1,10,1.4,18,M,,M,,*60
06/14/2015	08:03:17.528	$GPGGA,080318,2434.2972,N,08054.2240,W,1,10,1.4,19,M,,M,,*6C
06/14/2015	08:03:18.558	$GPGGA,080319,2434.2984,N,08054.2225,W,1,10,1.5,19,M,,M,,*66
06/14/2015	08:03:19.648	$GPGGA,080320,2434.2993,N,08054.2209,W,1,9,1.5,19,M,,M,,*5C
06/14/2015	08:03:20.558	$GPGGA,080321,2434.3000,N,08054.2195,W,1,9,1.5,19,M,,M,,*59
06/14/2015	08:03:21.638	$GPGGA,080322,2434.3008,N,08054.2179,W,1,9,1.6,19,M,,M,,*53
06/14/2015	08:03:22.558	$GPGGA,080323,2434.3017,N,08054.2166,W,1,9,1.6,19,M,,M,,*52
06/14/2015	08:03:23.620	$GPGGA,080324,2434.3025,N,08054.2152,W,1,10,1.5,19,M,,M,,*68
06/14/2015	08:03:24.529	$GPGGA,080325,2434.3035,N,08054.2136,W,1,10,1.5,19,M,,M,,*6A
06/14/2015	08:03:25.624	$GPGGA,080326,2434.3044,N,08054.2123,W,1,9,1.5,19,M,,M,,*53
06/14/2015	08:03:26.509	$GPGGA,080327,2434.3050,N,08054.2107,W,1,9,1.5,19,M,,M,,*51
06/14/2015	08:03:27.649	$GPGGA,080328,2434.3055,N,08054.2095,W,1,10,1.4,19,M,,M,,*68
06/14/2015	08:03:28.548	$GPGGA,080329,2434.3066,N,08054.2082,W,1,10,1.4,19,M,,M,,*6F
06/14/2015	08:03:29.511	$GPGGA,080330,2434.3076,N,08054.2067,W,1,9,1.5,19,M,,M,,*54
06/14/2015	08:03:30.628	$GPGGA,080331,2434.3082,N,08054.2052,W,1,9,1.4,19,M,,M,,*59
06/14/2015	08:03:31.522	$GPGGA,080332,2434.3087,N,08054.2040,W,1,10,1.4,19,M,,M,,*64
06/14/2015	08:03:32.622	$GPGGA,080333,2434.3094,N,08054.2030,W,1,10,1.4,19,M,,M,,*60
06/14/2015	08:03:33.620	$GPGGA,080334,2434.3102,N,08054.2017,W,1,10,1.4,19,M,,M,,*6C
06/14/2015	08:03:34.498	$GPGGA,080335,2434.3107,N,08054.2003,W,1,10,1.4,19,M,,M,,*6D
06/14/2015	08:03:35.588	$GPGGA,080336,2434.3112,N,08054.1992,W,1,10,1.5,19,M,,M,,*69
06/14/2015	08:03:36.498	$GPGGA,080337,2434.3120,N,08054.1978,W,1,10,1.5,19,M,,M,,*6D
06/14/2015	08:03:37.598	$GPGGA,080338,2434.3127,N,08054.1966,W,1,9,1.4,19,M,,M,,*53
06/14/2015	08:03:38.518	$GPGGA,080339,2434.3134,N,08054.1953,W,1,9,1.4,19,M,,M,,*56
06/14/2015	08:03:39.598	$GPGGA,080340,2434.3144,N,08054.1938,W,1,10,1.5,19,M,,M,,*6B
06/14/2015	08:03:40.588	$GPGGA,080341,2434.3152,N,08054.1922,W,1,10,1.4,19,M,,M,,*67
06/14/2015	08:03:41.629	$GPGGA,080342,2434.3161,N,08054.1908,W,1,10,1.4,19,M,,M,,*6C
06/14/2015	08:03:42.529	$GPGGA,080343,2434.3170,N,08054.1892,W,1,10,1.6,19,M,,M,,*6D
06/14/2015	08:03:43.579	$GPGGA,080344,2434.3178,N,08054.1880,W,1,9,1.5,19,M,,M,,*5A
06/14/2015	08:03:44.522	$GPGGA,080345,2434.3184,N,08054.1865,W,1,9,1.4,19,M,,M,,*52
06/14/2015	08:03:45.579	$GPGGA,080346,2434.3192,N,08054.1850,W,1,10,1.8,19,M,,M,,*64
06/14/2015	08:03:46.522	$GPGGA,080347,2434.3198,N,08054.1843,W,1,10,1.4,19,M,,M,,*61
06/14/2015	08:03:47.598	$GPGGA,080348,2434.3205,N,08054.1829,W,1,10,1.5,19,M,,M,,*64
06/14/2015	08:03:48.578	$GPGGA,080349,2434.3212,N,08054.1813,W,1,10,1.4,19,M,,M,,*6B
06/14/2015	08:03:49.638	$GPGGA,080350,2434.3217,N,08054.1799,W,1,10,1.6,19,M,,M,,*69
06/14/2015	08:03:50.568	$GPGGA,080351,2434.3224,N,08054.1788,W,1,10,1.4,19,M,,M,,*6A
06/14/2015	08:03:51.588	$GPGGA,080352,2434.3232,N,08054.1775,W,1,10,1.4,19,M,,M,,*6C
06/14/2015	08:03:52.568	$GPGGA,080353,2434.3238,N,08054.1759,W,1,10,1.4,19,M,,M,,*69
06/14/2015	08:03:53.578	$GPGGA,080354,2434.3245,N,08054.1745,W,1,10,1.4,19,M,,M,,*69
06/14/2015	08:03:54.558	$GPGGA,080355,2434.3252,N,08054.1734,W,1,10,1.4,19,M,,M,,*68
06/14/2015	08:03:55.612	$GPGGA,080356,2434.3257,N,08054.1721,W,1,10,1.4,19,M,,M,,*6A
06/14/2015	08:03:56.559	$GPGGA,080357,2434.3264,N,08054.1708,W,1,10,1.4,19,M,,M,,*60
06/14/2015	08:03:57.568	$GPGGA,080358,2434.3271,N,08054.1695,W,1,10,1.5,19,M,,M,,*6F
06/14/2015	08:03:58.558	$GPGGA,080359,2434.3278,N,08054.1682,W,1,10,1.4,19,M,,M,,*60
06/14/2015	08:03:59.610	$GPGGA,080400,2434.3282,N,08054.1668,W,1,10,1.4,19,M,,M,,*6A
06/14/2015	08:04:00.559	$GPGGA,080401,2434.3290,N,08054.1656,W,1,10,1.4,19,M,,M,,*65
06/14/2015	08:04:01.589	$GPGGA,080402,2434.3297,N,08054.1642,W,1,10,1.4,19,M,,M,,*64
06/14/2015	08:04:02.549	$GPGGA,080403,2434.3303,N,08054.1628,W,1,10,1.4,19,M,,M,,*65
06/14/2015	08:04:03.598	$GPGGA,080404,2434.3307,N,08054.1614,W,1,10,1.4,19,M,,M,,*69
06/14/2015	08:04:04.558	$GPGGA,080405,2434.3314,N,08054.1601,W,1,10,1.4,19,M,,M,,*6E
06/14/2015	08:04:05.588	$GPGGA,080406,2434.3320,N,08054.1588,W,1,10,1.4,19,M,,M,,*68
06/14/2015	08:04:06.548	$GPGGA,080407,2434.3326,N,08054.1574,W,1,10,1.4,19,M,,M,,*6C
06/14/2015	08:04:08.039	$GPGGA,080408,2434.3333,N,08054.1558,W,1,10,1.4,19,M,,M,,*69
06/14/2015	08:04:08.548	$GPGGA,080409,2434.3339,N,08054.1546,W,1,10,1.4,19,M,,M,,*6D
06/14/2015	08:04:09.588	$GPGGA,080410,2434.3344,N,08054.1532,W,1,10,1.4,19,M,,M,,*6C
06/14/2015	08:04:10.538	$GPGGA,080411,2434.3351,N,08054.1517,W,1,10,1.4,19,M,,M,,*6E
06/14/2015	08:04:11.610	$GPGGA,080412,2434.3351,N,08054.1517,W,1,10,1.4,19,M,,M,,*6D
06/14/2015	08:04:12.528	$GPGGA,080413,2434.3358,N,08054.1503,W,1,10,1.4,19,M,,M,,*60
06/14/2015	08:04:13.548	$GPGGA,080414,2434.3365,N,08054.1489,W,1,10,1.4,19,M,,M,,*6A
06/14/2015	08:04:14.548	$GPGGA,080415,2434.3372,N,08054.1475,W,1,10,1.4,19,M,,M,,*6E
06/14/2015	08:04:15.622	$GPGGA,080416,2434.3378,N,08054.1461,W,1,10,1.4,19,M,,M,,*62
06/14/2015	08:04:16.535	$GPGGA,080417,2434.3394,N,08054.1432,W,1,10,1.5,19,M,,M,,*66
06/14/2015	08:04:17.579	$GPGGA,080418,2434.3401,N,08054.1417,W,1,9,1.5,19,M,,M,,*5D
06/14/2015	08:04:18.517	$GPGGA,080419,2434.3407,N,08054.1402,W,1,9,1.6,19,M,,M,,*5D
06/14/2015	08:04:19.549	$GPGGA,080420,2434.3407,N,08054.1402,W,1,9,1.6,19,M,,M,,*57
06/14/2015	08:04:20.499	$GPGGA,080421,2434.3423,N,08054.1375,W,1,9,1.4,19,M,,M,,*55
06/14/2015	08:04:21.512	$GPGGA,080422,2434.3423,N,08054.1375,W,1,10,1.4,19,M,,M,,*6E
06/14/2015	08:04:22.498	$GPGGA,080423,2434.3434,N,08054.1346,W,1,10,1.5,18,M,,M,,*69
06/14/2015	08:04:23.578	$GPGGA,080424,2434.3441,N,08054.1332,W,1,9,1.5,18,M,,M,,*57
06/14/2015	08:04:24.609	$GPGGA,080425,2434.3448,N,08054.1317,W,1,9,1.5,18,M,,M,,*58
06/14/2015	08:04:25.622	$GPGGA,080426,2434.3456,N,08054.1302,W,1,9,1.5,18,M,,M,,*50
06/14/2015	08:04:26.523	$GPGGA,080427,2434.3461,N,08054.1289,W,1,9,1.5,18,M,,M,,*57
06/14/2015	08:04:27.622	$GPGGA,080428,2434.3467,N,08054.1275,W,1,9,1.5,18,M,,M,,*5D
06/14/2015	08:04:28.498	$GPGGA,080429,2434.3474,N,08054.1260,W,1,9,1.5,18,M,,M,,*5A
06/14/2015	08:04:29.624	$GPGGA,080430,2434.3483,N,08054.1246,W,1,8,1.8,18,M,,M,,*52
06/14/2015	08:04:30.498	$GPGGA,080431,2434.3490,N,08054.1231,W,1,8,1.5,18,M,,M,,*5C
06/14/2015	08:04:31.610	$GPGGA,080432,2434.3498,N,08054.1216,W,1,9,1.5,18,M,,M,,*53
06/14/2015	08:04:32.578	$GPGGA,080433,2434.3503,N,08054.1203,W,1,9,1.9,18,M,,M,,*59
06/14/2015	08:04:33.628	$GPGGA,080434,2434.3512,N,08054.1188,W,1,8,1.9,18,M,,M,,*5F
06/14/2015	08:04:34.579	$GPGGA,080435,2434.3521,N,08054.1173,W,1,8,1.5,19,M,,M,,*57
06/14/2015	08:04:35.609	$GPGGA,080436,2434.3530,N,08054.1158,W,1,9,1.5,19,M,,M,,*5C
06/14/2015	08:04:36.569	$GPGGA,080437,2434.3538,N,08054.1142,W,1,9,1.7,19,M,,M,,*5C
06/14/2015	08:04:37.610	$GPGGA,080438,2434.3546,N,08054.1127,W,1,9,1.5,19,M,,M,,*5B
06/14/2015	08:04:38.558	$GPGGA,080439,2434.3555,N,08054.1113,W,1,9,1.5,19,M,,M,,*5F
06/14/2015	08:04:39.598	$GPGGA,080440,2434.3563,N,08054.1099,W,1,9,1.5,19,M,,M,,*57
06/14/2015	08:04:40.558	$GPGGA,080441,2434.3571,N,08054.1083,W,1,9,1.5,19,M,,M,,*5E
06/14/2015	08:04:41.598	$GPGGA,080442,2434.3578,N,08054.1068,W,1,9,1.5,19,M,,M,,*51
06/14/2015	08:04:42.548	$GPGGA,080443,2434.3588,N,08054.1055,W,1,9,1.5,19,M,,M,,*51
06/14/2015	08:04:43.598	$GPGGA,080444,2434.3596,N,08054.1040,W,1,9,1.5,19,M,,M,,*5D
06/14/2015	08:04:44.548	$GPGGA,080445,2434.3603,N,08054.1025,W,1,9,1.5,19,M,,M,,*50
06/14/2015	08:04:45.578	$GPGGA,080446,2434.3613,N,08054.1009,W,1,7,2.0,19,M,,M,,*54
06/14/2015	08:04:46.558	$GPGGA,080447,2434.3622,N,08054.0995,W,1,7,1.7,19,M,,M,,*5E
06/14/2015	08:04:47.610	$GPGGA,080448,2434.3629,N,08054.0983,W,1,9,1.5,20,M,,M,,*5B
06/14/2015	08:04:48.548	$GPGGA,080449,2434.3636,N,08054.0968,W,1,9,1.5,20,M,,M,,*51
06/14/2015	08:04:49.568	$GPGGA,080450,2434.3643,N,08054.0953,W,1,9,1.5,20,M,,M,,*53
06/14/2015	08:04:50.538	$GPGGA,080451,2434.3653,N,08054.0940,W,1,9,1.5,20,M,,M,,*51
06/14/2015	08:04:51.579	$GPGGA,080452,2434.3662,N,08054.0926,W,1,8,1.7,20,M,,M,,*53
06/14/2015	08:04:52.549	$GPGGA,080453,2434.3668,N,08054.0912,W,1,8,1.5,20,M,,M,,*5D
06/14/2015	08:04:53.559	$GPGGA,080454,2434.3675,N,08054.0898,W,1,9,1.5,20,M,,M,,*54
06/14/2015	08:04:54.529	$GPGGA,080455,2434.3678,N,08054.0888,W,1,9,1.7,20,M,,M,,*5B
06/14/2015	08:04:55.548	$GPGGA,080456,2434.3687,N,08054.0873,W,1,9,1.5,20,M,,M,,*5E
06/14/2015	08:04:56.538	$GPGGA,080457,2434.3696,N,08054.0858,W,1,9,1.5,20,M,,M,,*56
06/14/2015	08:04:57.521	$GPGGA,080458,2434.3705,N,08054.0843,W,1,8,1.7,20,M,,M,,*5B
06/14/2015	08:04:58.538	$GPGGA,080459,2434.3716,N,08054.0828,W,1,8,1.5,20,M,,M,,*57
06/14/2015	08:04:59.568	$GPGGA,080500,2434.3725,N,08054.0813,W,1,9,1.5,20,M,,M,,*53
06/14/2015	08:05:00.538	$GPGGA,080501,2434.3733,N,08054.0798,W,1,9,1.5,20,M,,M,,*59
06/14/2015	08:05:01.558	$GPGGA,080502,2434.3738,N,08054.0785,W,1,8,1.7,20,M,,M,,*5E
06/14/2015	08:05:02.528	$GPGGA,080503,2434.3748,N,08054.0770,W,1,8,1.5,20,M,,M,,*50
06/14/2015	08:05:03.578	$GPGGA,080504,2434.3751,N,08054.0758,W,1,7,2.0,20,M,,M,,*5C
06/14/2015	08:05:04.520	$GPGGA,080505,2434.3762,N,08054.0740,W,1,7,1.6,20,M,,M,,*51
06/14/2015	08:05:05.521	$GPGGA,080506,2434.3770,N,08054.0724,W,1,9,1.5,20,M,,M,,*5E
06/14/2015	08:05:06.508	$GPGGA,080507,2434.3779,N,08054.0709,W,1,9,1.5,20,M,,M,,*59
06/14/2015	08:05:07.558	$GPGGA,080508,2434.3788,N,08054.0693,W,1,9,1.5,20,M,,M,,*5A
06/14/2015	08:05:08.520	$GPGGA,080509,2434.3797,N,08054.0678,W,1,9,1.9,20,M,,M,,*5C
06/14/2015	08:05:09.624	$GPGGA,080510,2434.3802,N,08054.0663,W,1,9,1.5,20,M,,M,,*51
06/14/2015	08:05:10.617	$GPGGA,080511,2434.3812,N,08054.0647,W,1,9,1.5,20,M,,M,,*57
06/14/2015	08:05:11.539	$GPGGA,080512,2434.3824,N,08054.0631,W,1,9,1.5,20,M,,M,,*50
06/14/2015	08:05:12.499	$GPGGA,080513,2434.3831,N,08054.0617,W,1,9,1.5,20,M,,M,,*51
06/14/2015	08:05:13.488	$GPGGA,080514,2434.3838,N,08054.0598,W,1,9,1.5,21,M,,M,,*5A
06/14/2015	08:05:14.498	$GPGGA,080515,2434.3846,N,08054.0583,W,1,9,1.5,21,M,,M,,*58
06/14/2015	08:05:15.522	$GPGGA,080516,2434.3857,N,08054.0567,W,1,9,1.5,21,M,,M,,*51
06/14/2015	08:05:16.488	$GPGGA,080517,2434.3867,N,08054.0550,W,1,9,1.7,21,M,,M,,*55
06/14/2015	08:05:17.628	$GPGGA,080518,2434.3871,N,08054.0534,W,1,9,1.5,21,M,,M,,*5D
06/14/2015	08:05:18.498	$GPGGA,080519,2434.3880,N,08054.0518,W,1,9,1.5,21,M,,M,,*5C
06/14/2015	08:05:19.511	$GPGGA,080520,2434.3889,N,08054.0503,W,1,9,1.5,21,M,,M,,*55
06/14/2015	08:05:20.578	$GPGGA,080521,2434.3898,N,08054.0489,W,1,9,1.5,21,M,,M,,*57
06/14/2015	08:05:21.488	$GPGGA,080522,2434.3903,N,08054.0473,W,1,9,1.5,21,M,,M,,*52
06/14/2015	08:05:22.569	$GPGGA,080523,2434.3910,N,08054.0458,W,1,9,1.5,21,M,,M,,*58
06/14/2015	08:05:23.615	$GPGGA,080524,2434.3920,N,08054.0443,W,1,9,1.5,21,M,,M,,*56
06/14/2015	08:05:24.578	$GPGGA,080525,2434.3928,N,08054.0427,W,1,9,1.5,21,M,,M,,*5D
06/14/2015	08:05:25.578	$GPGGA,080526,2434.3932,N,08054.0413,W,1,9,1.5,21,M,,M,,*52
06/14/2015	08:05:26.569	$GPGGA,080527,2434.3940,N,08054.0397,W,1,9,1.5,21,M,,M,,*5D
06/14/2015	08:05:27.579	$GPGGA,080528,2434.3949,N,08054.0381,W,1,9,1.5,21,M,,M,,*5C
06/14/2015	08:05:28.569	$GPGGA,080529,2434.3956,N,08054.0366,W,1,9,1.5,21,M,,M,,*5A
06/14/2015	08:05:29.569	$GPGGA,080530,2434.3962,N,08054.0351,W,1,9,1.5,21,M,,M,,*51
06/14/2015	08:05:30.558	$GPGGA,080531,2434.3971,N,08054.0335,W,1,9,1.5,21,M,,M,,*50
06/14/2015	08:05:31.613	$GPGGA,080532,2434.3979,N,08054.0320,W,1,9,1.5,21,M,,M,,*5F
06/14/2015	08:05:32.558	$GPGGA,080533,2434.3986,N,08054.0304,W,1,9,1.5,21,M,,M,,*58
06/14/2015	08:05:33.578	$GPGGA,080534,2434.3993,N,08054.0287,W,1,9,1.5,21,M,,M,,*51
06/14/2015	08:05:34.558	$GPGGA,080535,2434.3998,N,08054.0273,W,1,9,1.5,21,M,,M,,*50
06/14/2015	08:05:35.588	$GPGGA,080536,2434.4008,N,08054.0257,W,1,9,1.5,21,M,,M,,*52
06/14/2015	08:05:36.548	$GPGGA,080537,2434.4014,N,08054.0240,W,1,9,1.5,21,M,,M,,*58
06/14/2015	08:05:37.568	$GPGGA,080538,2434.4021,N,08054.0225,W,1,9,1.5,21,M,,M,,*52
06/14/2015	08:05:38.558	$GPGGA,080539,2434.4027,N,08054.0211,W,1,9,1.5,21,M,,M,,*52
06/14/2015	08:05:39.578	$GPGGA,080540,2434.4037,N,08054.0194,W,1,9,1.5,21,M,,M,,*53
06/14/2015	08:05:40.548	$GPGGA,080541,2434.4043,N,08054.0178,W,1,9,1.5,21,M,,M,,*53
06/14/2015	08:05:41.548	$GPGGA,080542,2434.4048,N,08054.0163,W,1,9,1.5,21,M,,M,,*51
06/14/2015	08:05:42.538	$GPGGA,080543,2434.4059,N,08054.0148,W,1,9,1.5,21,M,,M,,*59
06/14/2015	08:05:43.568	$GPGGA,080544,2434.4068,N,08054.0133,W,1,9,1.5,21,M,,M,,*50
06/14/2015	08:05:44.529	$GPGGA,080545,2434.4073,N,08054.0117,W,1,9,1.7,21,M,,M,,*5F
06/14/2015	08:05:45.559	$GPGGA,080546,2434.4080,N,08054.0102,W,1,8,1.8,21,M,,M,,*5A
06/14/2015	08:05:46.539	$GPGGA,080547,2434.4087,N,08054.0088,W,1,8,1.5,21,M,,M,,*52
06/14/2015	08:05:47.549	$GPGGA,080548,2434.4095,N,08054.0072,W,1,9,1.5,21,M,,M,,*5A
06/14/2015	08:05:48.528	$GPGGA,080549,2434.4101,N,08054.0056,W,1,9,1.5,21,M,,M,,*51
06/14/2015	08:05:49.558	$GPGGA,080550,2434.4106,N,08054.0042,W,1,8,1.8,21,M,,M,,*57
06/14/2015	08:05:50.528	$GPGGA,080551,2434.4115,N,08054.0027,W,1,8,1.8,21,M,,M,,*57
06/14/2015	08:05:51.548	$GPGGA,080552,2434.4123,N,08054.0012,W,1,9,1.5,21,M,,M,,*5B
06/14/2015	08:05:52.510	$GPGGA,080553,2434.4131,N,08053.9998,W,1,9,1.5,21,M,,M,,*5C
06/14/2015	08:05:53.558	$GPGGA,080554,2434.4138,N,08053.9981,W,1,9,1.5,21,M,,M,,*5A
06/14/2015	08:05:54.628	$GPGGA,080555,2434.4144,N,08053.9966,W,1,9,1.7,21,M,,M,,*5B
06/14/2015	08:05:55.558	$GPGGA,080556,2434.4153,N,08053.9951,W,1,9,1.5,21,M,,M,,*58
06/14/2015	08:05:56.508	$GPGGA,080557,2434.4164,N,08053.9937,W,1,9,1.5,21,M,,M,,*5D
06/14/2015	08:05:57.498	$GPGGA,080558,2434.4170,N,08053.9921,W,1,8,1.7,21,M,,M,,*53
06/14/2015	08:05:58.619	$GPGGA,080559,2434.4175,N,08053.9905,W,1,8,1.5,21,M,,M,,*53
06/14/2015	08:05:59.628	$GPGGA,080600,2434.4182,N,08053.9894,W,1,8,1.8,21,M,,M,,*50
06/14/2015	08:06:00.498	$GPGGA,080601,2434.4192,N,08053.9878,W,1,8,1.5,21,M,,M,,*5F
06/14/2015	08:06:01.610	$GPGGA,080602,2434.4198,N,08053.9860,W,1,8,1.7,21,M,,M,,*5D
06/14/2015	08:06:02.489	$GPGGA,080603,2434.4204,N,08053.9844,W,1,8,1.5,22,M,,M,,*5D
06/14/2015	08:06:03.499	$GPGGA,080604,2434.4214,N,08053.9829,W,1,8,1.7,22,M,,M,,*52
06/14/2015	08:06:04.589	$GPGGA,080605,2434.4218,N,08053.9819,W,1,8,1.5,22,M,,M,,*5E
06/14/2015	08:06:05.578	$GPGGA,080606,2434.4225,N,08053.9806,W,1,9,1.5,22,M,,M,,*5C
06/14/2015	08:06:06.578	$GPGGA,080607,2434.4229,N,08053.9791,W,1,9,1.5,22,M,,M,,*50
06/14/2015	08:06:07.488	$GPGGA,080608,2434.4236,N,08053.9780,W,1,9,1.5,22,M,,M,,*51
06/14/2015	08:06:08.608	$GPGGA,080609,2434.4245,N,08053.9771,W,1,9,1.5,22,M,,M,,*5A
06/14/2015	08:06:09.589	$GPGGA,080610,2434.4251,N,08053.9756,W,1,9,1.5,22,M,,M,,*52
06/14/2015	08:06:10.488	$GPGGA,080611,2434.4261,N,08053.9740,W,1,9,1.5,22,M,,M,,*57
06/14/2015	08:06:11.488	$GPGGA,080612,2434.4269,N,08053.9729,W,1,8,1.7,22,M,,M,,*50
06/14/2015	08:06:12.568	$GPGGA,080613,2434.4279,N,08053.9718,W,1,8,1.5,22,M,,M,,*50
06/14/2015	08:06:13.558	$GPGGA,080614,2434.4286,N,08053.9704,W,1,9,1.5,22,M,,M,,*5B
06/14/2015	08:06:14.558	$GPGGA,080615,2434.4294,N,08053.9693,W,1,9,1.5,22,M,,M,,*56
06/14/2015	08:06:15.588	$GPGGA,080616,2434.4301,N,08053.9680,W,1,9,1.5,22,M,,M,,*5A
06/14/2015	08:06:16.568	$GPGGA,080617,2434.4308,N,08053.9667,W,1,9,1.5,22,M,,M,,*5B
06/14/2015	08:06:17.568	$GPGGA,080618,2434.4316,N,08053.9653,W,1,9,1.5,22,M,,M,,*5C
06/14/2015	08:06:18.558	$GPGGA,080619,2434.4328,N,08053.9639,W,1,9,1.7,22,M,,M,,*5E
06/14/2015	08:06:19.589	$GPGGA,080620,2434.4336,N,08053.9624,W,1,8,1.7,22,M,,M,,*56
06/14/2015	08:06:20.559	$GPGGA,080621,2434.4340,N,08053.9613,W,1,8,1.5,22,M,,M,,*50
06/14/2015	08:06:21.569	$GPGGA,080622,2434.4348,N,08053.9599,W,1,9,1.5,22,M,,M,,*5B
06/14/2015	08:06:22.549	$GPGGA,080623,2434.4359,N,08053.9583,W,1,9,1.7,22,M,,M,,*53
06/14/2015	08:06:23.578	$GPGGA,080624,2434.4369,N,08053.9568,W,1,7,2.1,22,M,,M,,*59
06/14/2015	08:06:25.598	$GPGGA,080626,2434.4384,N,08053.9540,W,1,9,1.5,22,M,,M,,*5B
06/14/2015	08:06:26.538	$GPGGA,080627,2434.4397,N,08053.9523,W,1,9,1.6,22,M,,M,,*5E
06/14/2015	08:06:27.558	$GPGGA,080628,2434.4406,N,08053.9507,W,1,9,1.5,22,M,,M,,*5B
06/14/2015	08:06:28.538	$GPGGA,080629,2434.4413,N,08053.9493,W,1,9,1.5,22,M,,M,,*52
06/14/2015	08:06:29.569	$GPGGA,080630,2434.4423,N,08053.9478,W,1,9,1.5,22,M,,M,,*5C
06/14/2015	08:06:30.538	$GPGGA,080631,2434.4431,N,08053.9463,W,1,9,1.5,22,M,,M,,*54
06/14/2015	08:06:31.568	$GPGGA,080632,2434.4440,N,08053.9448,W,1,9,1.5,22,M,,M,,*58
06/14/2015	08:06:32.538	$GPGGA,080633,2434.4446,N,08053.9433,W,1,9,1.5,22,M,,M,,*53
06/14/2015	08:06:33.558	$GPGGA,080634,2434.4455,N,08053.9418,W,1,8,1.8,22,M,,M,,*53
06/14/2015	08:06:34.538	$GPGGA,080635,2434.4460,N,08053.9401,W,1,8,1.5,22,M,,M,,*51
06/14/2015	08:06:35.568	$GPGGA,080636,2434.4469,N,08053.9386,W,1,9,1.5,22,M,,M,,*52
06/14/2015	08:06:36.529	$GPGGA,080637,2434.4477,N,08053.9371,W,1,9,1.5,22,M,,M,,*54
06/14/2015	08:06:37.519	$GPGGA,080638,2434.4482,N,08053.9355,W,1,9,1.5,22,M,,M,,*57
06/14/2015	08:06:38.539	$GPGGA,080639,2434.4489,N,08053.9341,W,1,9,1.5,22,M,,M,,*58
06/14/2015	08:06:39.559	$GPGGA,080640,2434.4498,N,08053.9325,W,1,9,1.5,22,M,,M,,*54
06/14/2015	08:06:40.511	$GPGGA,080641,2434.4505,N,08053.9309,W,1,9,1.5,22,M,,M,,*5E
06/14/2015	08:06:41.518	$GPGGA,080642,2434.4510,N,08053.9295,W,1,9,1.5,22,M,,M,,*5D
06/14/2015	08:06:42.521	$GPGGA,080643,2434.4518,N,08053.9282,W,1,9,1.5,22,M,,M,,*52
06/14/2015	08:06:43.538	$GPGGA,080644,2434.4525,N,08053.9265,W,1,9,1.5,22,M,,M,,*52
06/14/2015	08:06:44.498	$GPGGA,080645,2434.4532,N,08053.9249,W,1,9,1.5,22,M,,M,,*5B
06/14/2015	08:06:45.511	$GPGGA,080646,2434.4543,N,08053.9233,W,1,8,1.7,22,M,,M,,*50
06/14/2015	08:06:46.598	$GPGGA,080647,2434.4552,N,08053.9219,W,1,8,1.5,22,M,,M,,*5B
06/14/2015	08:06:47.638	$GPGGA,080648,2434.4558,N,08053.9202,W,1,9,1.5,22,M,,M,,*55
06/14/2015	08:06:48.512	$GPGGA,080649,2434.4565,N,08053.9187,W,1,9,1.5,22,M,,M,,*54
06/14/2015	08:06:49.588	$GPGGA,080650,2434.4571,N,08053.9173,W,1,9,1.5,22,M,,M,,*52
06/14/2015	08:06:50.488	$GPGGA,080651,2434.4578,N,08053.9159,W,1,9,1.5,22,M,,M,,*52
06/14/2015	08:06:51.629	$GPGGA,080652,2434.4583,N,08053.9144,W,1,9,1.5,22,M,,M,,*59
06/14/2015	08:06:52.488	$GPGGA,080653,2434.4590,N,08053.9128,W,1,9,1.5,22,M,,M,,*50
06/14/2015	08:06:53.488	$GPGGA,080654,2434.4597,N,08053.9115,W,1,9,1.5,22,M,,M,,*5E
06/14/2015	08:06:54.615	$GPGGA,080655,2434.4603,N,08053.9101,W,1,9,1.5,22,M,,M,,*54
06/14/2015	08:06:55.599	$GPGGA,080656,2434.4608,N,08053.9084,W,1,9,1.5,22,M,,M,,*50
06/14/2015	08:06:56.569	$GPGGA,080657,2434.4615,N,08053.9070,W,1,9,1.5,22,M,,M,,*56
06/14/2015	08:06:57.589	$GPGGA,080658,2434.4622,N,08053.9057,W,1,9,1.5,22,M,,M,,*58
06/14/2015	08:06:58.488	$GPGGA,080659,2434.4626,N,08053.9041,W,1,9,1.5,21,M,,M,,*59
06/14/2015	08:06:59.620	$GPGGA,080700,2434.4633,N,08053.9027,W,1,9,1.5,21,M,,M,,*50
06/14/2015	08:07:00.568	$GPGGA,080701,2434.4640,N,08053.9013,W,1,9,1.5,21,M,,M,,*52
06/14/2015	08:07:01.613	$GPGGA,080702,2434.4647,N,08053.8998,W,1,9,1.5,21,M,,M,,*5D
06/14/2015	08:07:02.578	$GPGGA,080703,2434.4651,N,08053.8983,W,1,9,1.5,21,M,,M,,*51
06/14/2015	08:07:03.588	$GPGGA,080704,2434.4659,N,08053.8969,W,1,9,1.5,21,M,,M,,*5A
06/14/2015	08:07:04.558	$GPGGA,080705,2434.4669,N,08053.8953,W,1,9,1.6,21,M,,M,,*52
06/14/2015	08:07:05.550	$GPGGA,080706,2434.4675,N,08053.8936,W,1,9,1.5,21,M,,M,,*5C
06/14/2015	08:07:06.548	$GPGGA,080707,2434.4683,N,08053.8921,W,1,9,1.5,21,M,,M,,*52
06/14/2015	08:07:07.578	$GPGGA,080708,2434.4694,N,08053.8906,W,1,9,1.5,21,M,,M,,*5E
06/14/2015	08:07:08.548	$GPGGA,080709,2434.4698,N,08053.8890,W,1,9,1.7,21,M,,M,,*5F
06/14/2015	08:07:09.548	$GPGGA,080710,2434.4705,N,08053.8875,W,1,9,1.5,21,M,,M,,*5B
06/14/2015	08:07:10.538	$GPGGA,080711,2434.4713,N,08053.8861,W,1,9,1.5,21,M,,M,,*58
06/14/2015	08:07:11.588	$GPGGA,080712,2434.4723,N,08053.8844,W,1,8,1.7,21,M,,M,,*5C
06/14/2015	08:07:12.548	$GPGGA,080713,2434.4729,N,08053.8830,W,1,8,1.7,21,M,,M,,*54
06/14/2015	08:07:13.558	$GPGGA,080714,2434.4737,N,08053.8817,W,1,8,1.9,21,M,,M,,*57
06/14/2015	08:07:14.528	$GPGGA,080715,2434.4741,N,08053.8803,W,1,8,1.7,21,M,,M,,*5C
06/14/2015	08:07:15.557	$GPGGA,080716,2434.4747,N,08053.8787,W,1,9,1.5,21,M,,M,,*59
06/14/2015	08:07:16.537	$GPGGA,080717,2434.4758,N,08053.8773,W,1,9,2.0,21,M,,M,,*5B
06/14/2015	08:07:17.517	$GPGGA,080718,2434.4760,N,08053.8761,W,1,8,1.7,21,M,,M,,*59
06/14/2015	08:07:18.527	$GPGGA,080719,2434.4767,N,08053.8744,W,1,8,1.5,21,M,,M,,*5A
06/14/2015	08:07:19.567	$GPGGA,080720,2434.4776,N,08053.8729,W,1,8,1.7,21,M,,M,,*59
06/14/2015	08:07:20.517	$GPGGA,080721,2434.4781,N,08053.8715,W,1,8,1.5,21,M,,M,,*5D
06/14/2015	08:07:21.517	$GPGGA,080722,2434.4788,N,08053.8699,W,1,9,1.5,21,M,,M,,*53
06/14/2015	08:07:22.518	$GPGGA,080723,2434.4796,N,08053.8686,W,1,9,1.5,21,M,,M,,*53
06/14/2015	08:07:23.549	$GPGGA,080724,2434.4803,N,08053.8671,W,1,9,1.5,21,M,,M,,*5F
06/14/2015	08:07:24.528	$GPGGA,080725,2434.4809,N,08053.8656,W,1,9,1.5,21,M,,M,,*51
06/14/2015	08:07:25.538	$GPGGA,080726,2434.4814,N,08053.8641,W,1,9,1.5,21,M,,M,,*58
06/14/2015	08:07:26.498	$GPGGA,080727,2434.4825,N,08053.8627,W,1,9,1.5,21,M,,M,,*5B
06/14/2015	08:07:27.548	$GPGGA,080728,2434.4835,N,08053.8611,W,1,8,1.7,21,M,,M,,*53
06/14/2015	08:07:28.514	$GPGGA,080729,2434.4843,N,08053.8595,W,1,8,1.7,21,M,,M,,*5C
06/14/2015	08:07:29.505	$GPGGA,080730,2434.4849,N,08053.8581,W,1,8,1.7,21,M,,M,,*5B
06/14/2015	08:07:30.615	$GPGGA,080731,2434.4860,N,08053.8567,W,1,8,1.7,21,M,,M,,*59
06/14/2015	08:07:31.538	$GPGGA,080732,2434.4864,N,08053.8556,W,1,8,1.7,21,M,,M,,*5C
06/14/2015	08:07:32.511	$GPGGA,080733,2434.4868,N,08053.8541,W,1,8,1.5,21,M,,M,,*55
06/14/2015	08:07:33.617	$GPGGA,080734,2434.4876,N,08053.8525,W,1,9,1.8,21,M,,M,,*53
06/14/2015	08:07:34.519	$GPGGA,080735,2434.4886,N,08053.8512,W,1,9,1.8,21,M,,M,,*59
06/14/2015	08:07:35.657	$GPGGA,080736,2434.4893,N,08053.8495,W,1,9,1.5,21,M,,M,,*5D
06/14/2015	08:07:36.487	$GPGGA,080737,2434.4901,N,08053.8479,W,1,9,1.5,21,M,,M,,*54
06/14/2015	08:07:37.510	$GPGGA,080738,2434.4910,N,08053.8464,W,1,8,1.7,21,M,,M,,*54
06/14/2015	08:07:38.587	$GPGGA,080739,2434.4919,N,08053.8448,W,1,8,1.5,21,M,,M,,*50
06/14/2015	08:07:39.623	$GPGGA,080740,2434.4926,N,08053.8435,W,1,9,1.5,21,M,,M,,*59
06/14/2015	08:07:40.488	$GPGGA,080741,2434.4935,N,08053.8421,W,1,9,1.5,21,M,,M,,*5F
06/14/2015	08:07:41.468	$GPGGA,080742,2434.4944,N,08053.8404,W,1,8,1.7,21,M,,M,,*5E
06/14/2015	08:07:42.603	$GPGGA,080743,2434.4954,N,08053.8388,W,1,8,1.5,21,M,,M,,*5F
06/14/2015	08:07:43.612	$GPGGA,080744,2434.4961,N,08053.8376,W,1,9,1.5,21,M,,M,,*5E
06/14/2015	08:07:44.568	$GPGGA,080745,2434.4969,N,08053.8362,W,1,9,1.5,21,M,,M,,*52
06/14/2015	08:07:45.588	$GPGGA,080746,2434.4977,N,08053.8346,W,1,9,1.5,21,M,,M,,*58
06/14/2015	08:07:46.568	$GPGGA,080747,2434.4984,N,08053.8332,W,1,9,1.5,21,M,,M,,*56
06/14/2015	08:07:47.638	$GPGGA,080748,2434.4991,N,08053.8318,W,1,9,1.5,21,M,,M,,*55
06/14/2015	08:07:48.558	$GPGGA,080749,2434.4998,N,08053.8304,W,1,9,1.5,21,M,,M,,*50
06/14/2015	08:07:49.588	$GPGGA,080750,2434.5006,N,08053.8291,W,1,9,1.7,21,M,,M,,*58
06/14/2015	08:07:50.557	$GPGGA,080751,2434.5011,N,08053.8277,W,1,9,1.5,21,M,,M,,*55
06/14/2015	08:07:51.587	$GPGGA,080752,2434.5018,N,08053.8263,W,1,9,1.5,21,M,,M,,*5A
06/14/2015	08:07:52.558	$GPGGA,080753,2434.5024,N,08053.8252,W,1,9,1.5,21,M,,M,,*56
06/14/2015	08:07:53.567	$GPGGA,080754,2434.5033,N,08053.8237,W,1,9,1.7,21,M,,M,,*56
06/14/2015	08:07:54.557	$GPGGA,080755,2434.5037,N,08053.8222,W,1,9,1.8,21,M,,M,,*58
06/14/2015	08:07:55.577	$GPGGA,080756,2434.5045,N,08053.8210,W,1,8,1.7,21,M,,M,,*51
06/14/2015	08:07:56.567	$GPGGA,080757,2434.5052,N,08053.8198,W,1,8,1.5,21,M,,M,,*57
06/14/2015	08:07:57.568	$GPGGA,080758,2434.5059,N,08053.8186,W,1,9,1.5,21,M,,M,,*5D
06/14/2015	08:07:58.548	$GPGGA,080759,2434.5063,N,08053.8173,W,1,9,1.5,21,M,,M,,*5F
06/14/2015	08:07:59.578	$GPGGA,080800,2434.5070,N,08053.8160,W,1,9,1.8,21,M,,M,,*51
06/14/2015	08:08:00.538	$GPGGA,080801,2434.5080,N,08053.8146,W,1,9,1.7,21,M,,M,,*54
06/14/2015	08:08:01.558	$GPGGA,080802,2434.5089,N,08053.8132,W,1,8,1.7,21,M,,M,,*5C
06/14/2015	08:08:02.538	$GPGGA,080803,2434.5096,N,08053.8118,W,1,8,1.7,21,M,,M,,*5B
06/14/2015	08:08:03.623	$GPGGA,080804,2434.5103,N,08053.8103,W,1,8,1.5,21,M,,M,,*59
06/14/2015	08:08:04.538	$GPGGA,080805,2434.5110,N,08053.8088,W,1,8,1.5,21,M,,M,,*58
06/14/2015	08:08:05.548	$GPGGA,080806,2434.5117,N,08053.8075,W,1,9,1.5,21,M,,M,,*5F
06/14/2015	08:08:06.528	$GPGGA,080807,2434.5125,N,08053.8062,W,1,9,1.5,21,M,,M,,*59
06/14/2015	08:08:07.558	$GPGGA,080808,2434.5132,N,08053.8048,W,1,9,1.5,21,M,,M,,*58
06/14/2015	08:08:08.537	$GPGGA,080809,2434.5139,N,08053.8033,W,1,9,1.5,21,M,,M,,*5E
06/14/2015	08:08:09.547	$GPGGA,080810,2434.5145,N,08053.8021,W,1,9,1.5,21,M,,M,,*5E
06/14/2015	08:08:10.517	$GPGGA,080811,2434.5152,N,08053.8008,W,1,9,1.5,21,M,,M,,*52
06/14/2015	08:08:11.567	$GPGGA,080812,2434.5160,N,08053.7994,W,1,9,1.5,21,M,,M,,*53
06/14/2015	08:08:12.537	$GPGGA,080813,2434.5164,N,08053.7979,W,1,9,1.5,21,M,,M,,*55
06/14/2015	08:08:13.537	$GPGGA,080814,2434.5168,N,08053.7967,W,1,9,1.5,21,M,,M,,*51
06/14/2015	08:08:14.518	$GPGGA,080815,2434.5178,N,08053.7954,W,1,9,1.5,21,M,,M,,*51
06/14/2015	08:08:15.588	$GPGGA,080816,2434.5183,N,08053.7939,W,1,9,1.8,21,M,,M,,*50
06/14/2015	08:08:16.515	$GPGGA,080817,2434.5188,N,08053.7925,W,1,9,1.5,21,M,,M,,*5A
06/14/2015	08:08:17.518	$GPGGA,080818,2434.5193,N,08053.7914,W,1,9,1.5,21,M,,M,,*5D
06/14/2015	08:08:18.529	$GPGGA,080819,2434.5201,N,08053.7899,W,1,9,1.5,21,M,,M,,*50
06/14/2015	08:08:19.528	$GPGGA,080820,2434.5208,N,08053.7885,W,1,9,1.8,21,M,,M,,*53
06/14/2015	08:08:20.498	$GPGGA,080821,2434.5215,N,08053.7871,W,1,9,1.5,21,M,,M,,*58
06/14/2015	08:08:21.528	$GPGGA,080822,2434.5222,N,08053.7856,W,1,9,1.5,21,M,,M,,*5A
06/14/2015	08:08:22.488	$GPGGA,080823,2434.5228,N,08053.7842,W,1,9,1.5,21,M,,M,,*54
06/14/2015	08:08:23.558	$GPGGA,080824,2434.5235,N,08053.7828,W,1,9,1.5,21,M,,M,,*53
06/14/2015	08:08:24.578	$GPGGA,080825,2434.5244,N,08053.7813,W,1,9,1.5,21,M,,M,,*5C
06/14/2015	08:08:25.477	$GPGGA,080826,2434.5248,N,08053.7799,W,1,8,1.5,21,M,,M,,*5F
06/14/2015	08:08:26.499	$GPGGA,080827,2434.5255,N,08053.7784,W,1,8,1.5,21,M,,M,,*5E
06/14/2015	08:08:27.537	$GPGGA,080828,2434.5262,N,08053.7770,W,1,9,1.5,21,M,,M,,*5F
06/14/2015	08:08:28.827	$GPGGA,080829,2434.5269,N,08053.7755,W,1,9,1.5,21,M,,M,,*52
06/14/2015	08:08:29.567	$GPGGA,080830,2434.5275,N,08053.7740,W,1,9,1.5,21,M,,M,,*53
06/14/2015	08:08:30.577	$GPGGA,080831,2434.5282,N,08053.7725,W,1,9,1.5,21,M,,M,,*59
06/14/2015	08:08:31.588	$GPGGA,080832,2434.5289,N,08053.7711,W,1,9,1.5,21,M,,M,,*56
06/14/2015	08:08:32.488	$GPGGA,080833,2434.5294,N,08053.7696,W,1,9,1.5,21,M,,M,,*55
06/14/2015	08:08:33.488	$GPGGA,080834,2434.5301,N,08053.7679,W,1,9,1.5,21,M,,M,,*5E
06/14/2015	08:08:34.588	$GPGGA,080835,2434.5308,N,08053.7667,W,1,9,1.5,21,M,,M,,*59
06/14/2015	08:08:35.578	$GPGGA,080836,2434.5315,N,08053.7652,W,1,9,1.5,21,M,,M,,*50
06/14/2015	08:08:36.568	$GPGGA,080837,2434.5322,N,08053.7634,W,1,9,1.5,21,M,,M,,*55
06/14/2015	08:08:37.558	$GPGGA,080838,2434.5327,N,08053.7621,W,1,9,1.5,21,M,,M,,*5B
06/14/2015	08:08:38.558	$GPGGA,080839,2434.5334,N,08053.7607,W,1,9,1.5,21,M,,M,,*5C
06/14/2015	08:08:39.568	$GPGGA,080840,2434.5341,N,08053.7591,W,1,9,1.5,21,M,,M,,*5C
06/14/2015	08:08:40.558	$GPGGA,080841,2434.5348,N,08053.7577,W,1,9,1.5,21,M,,M,,*5C
06/14/2015	08:08:41.568	$GPGGA,080842,2434.5355,N,08053.7562,W,1,9,1.5,21,M,,M,,*57
06/14/2015	08:08:42.548	$GPGGA,080843,2434.5360,N,08053.7545,W,1,9,1.5,21,M,,M,,*55
06/14/2015	08:08:43.577	$GPGGA,080844,2434.5367,N,08053.7532,W,1,9,1.5,21,M,,M,,*55
06/14/2015	08:08:44.547	$GPGGA,080845,2434.5378,N,08053.7517,W,1,9,1.5,21,M,,M,,*5D
06/14/2015	08:08:45.567	$GPGGA,080846,2434.5385,N,08053.7500,W,1,8,1.7,21,M,,M,,*59
06/14/2015	08:08:46.547	$GPGGA,080847,2434.5392,N,08053.7486,W,1,8,1.7,21,M,,M,,*51
06/14/2015	08:08:47.587	$GPGGA,080848,2434.5402,N,08053.7472,W,1,9,1.5,21,M,,M,,*58
06/14/2015	08:08:48.537	$GPGGA,080849,2434.5407,N,08053.7457,W,1,9,1.7,21,M,,M,,*59
06/14/2015	08:08:49.558	$GPGGA,080850,2434.5413,N,08053.7445,W,1,9,1.5,21,M,,M,,*55
06/14/2015	08:08:50.538	$GPGGA,080851,2434.5423,N,08053.7432,W,1,9,1.5,21,M,,M,,*57
06/14/2015	08:08:51.568	$GPGGA,080852,2434.5430,N,08053.7416,W,1,8,1.7,21,M,,M,,*53
06/14/2015	08:08:52.528	$GPGGA,080853,2434.5438,N,08053.7401,W,1,8,1.5,21,M,,M,,*5E
06/14/2015	08:08:53.558	$GPGGA,080854,2434.5446,N,08053.7390,W,1,9,1.5,21,M,,M,,*5E
06/14/2015	08:08:54.518	$GPGGA,080855,2434.5453,N,08053.7377,W,1,9,1.5,21,M,,M,,*52
06/14/2015	08:08:55.524	$GPGGA,080856,2434.5457,N,08053.7361,W,1,8,1.7,21,M,,M,,*51
06/14/2015	08:08:56.528	$GPGGA,080857,2434.5466,N,08053.7348,W,1,8,1.8,21,M,,M,,*56
06/14/2015	08:08:57.558	$GPGGA,080858,2434.5475,N,08053.7338,W,1,8,1.8,21,M,,M,,*5C
06/14/2015	08:08:58.528	$GPGGA,080859,2434.5479,N,08053.7323,W,1,8,1.5,21,M,,M,,*56
06/14/2015	08:08:59.568	$GPGGA,080900,2434.5486,N,08053.7309,W,1,9,1.5,21,M,,M,,*52
06/14/2015	08:09:00.788	$GPGGA,080901,2434.5496,N,08053.7299,W,1,9,1.7,21,M,,M,,*58
06/14/2015	08:09:01.527	$GPGGA,080902,2434.5506,N,08053.7284,W,1,9,1.5,21,M,,M,,*5D
06/14/2015	08:09:02.510	$GPGGA,080903,2434.5511,N,08053.7270,W,1,9,1.5,21,M,,M,,*51
06/14/2015	08:09:03.517	$GPGGA,080904,2434.5518,N,08053.7259,W,1,8,1.7,20,M,,M,,*56
06/14/2015	08:09:04.508	$GPGGA,080905,2434.5528,N,08053.7247,W,1,8,1.7,20,M,,M,,*5B
06/14/2015	08:09:05.527	$GPGGA,080906,2434.5533,N,08053.7234,W,1,9,1.5,20,M,,M,,*55
06/14/2015	08:09:06.507	$GPGGA,080907,2434.5539,N,08053.7222,W,1,9,1.5,20,M,,M,,*59
06/14/2015	08:09:07.518	$GPGGA,080908,2434.5547,N,08053.7211,W,1,9,1.5,20,M,,M,,*5F
06/14/2015	08:09:08.508	$GPGGA,080909,2434.5555,N,08053.7196,W,1,9,1.5,20,M,,M,,*51
06/14/2015	08:09:09.518	$GPGGA,080910,2434.5562,N,08053.7183,W,1,8,1.7,20,M,,M,,*5A
06/14/2015	08:09:10.488	$GPGGA,080911,2434.5572,N,08053.7169,W,1,8,1.7,20,M,,M,,*5E
06/14/2015	08:09:11.502	$GPGGA,080912,2434.5578,N,08053.7157,W,1,7,2.0,20,M,,M,,*51
06/14/2015	08:09:12.488	$GPGGA,080913,2434.5586,N,08053.7145,W,1,7,1.5,20,M,,M,,*54
06/14/2015	08:09:13.612	$GPGGA,080914,2434.5594,N,08053.7130,W,1,8,1.7,20,M,,M,,*5F
06/14/2015	08:09:14.488	$GPGGA,080915,2434.5602,N,08053.7117,W,1,8,1.7,20,M,,M,,*57
06/14/2015	08:09:15.601	$GPGGA,080916,2434.5607,N,08053.7104,W,1,8,1.7,20,M,,M,,*53
06/14/2015	08:09:16.498	$GPGGA,080917,2434.5616,N,08053.7090,W,1,8,1.5,20,M,,M,,*5C
06/14/2015	08:09:17.488	$GPGGA,080918,2434.5623,N,08053.7076,W,1,8,1.7,20,M,,M,,*5F
06/14/2015	08:09:18.487	$GPGGA,080919,2434.5631,N,08053.7060,W,1,8,1.7,20,M,,M,,*5A
06/14/2015	08:09:19.477	$GPGGA,080920,2434.5638,N,08053.7046,W,1,8,1.7,20,M,,M,,*5D
06/14/2015	08:09:20.567	$GPGGA,080921,2434.5648,N,08053.7031,W,1,8,1.7,20,M,,M,,*5B
06/14/2015	08:09:21.577	$GPGGA,080922,2434.5656,N,08053.7015,W,1,8,1.7,20,M,,M,,*51
06/14/2015	08:09:22.477	$GPGGA,080923,2434.5662,N,08053.7001,W,1,8,1.5,20,M,,M,,*50
06/14/2015	08:09:23.577	$GPGGA,080924,2434.5667,N,08053.6987,W,1,8,1.7,20,M,,M,,*56
06/14/2015	08:09:24.568	$GPGGA,080925,2434.5674,N,08053.6971,W,1,8,1.5,20,M,,M,,*5E
06/14/2015	08:09:25.588	$GPGGA,080926,2434.5683,N,08053.6957,W,1,8,1.7,20,M,,M,,*53
06/14/2015	08:09:26.558	$GPGGA,080927,2434.5688,N,08053.6942,W,1,8,1.7,20,M,,M,,*5D
06/14/2015	08:09:27.579	$GPGGA,080928,2434.5695,N,08053.6925,W,1,9,1.5,20,M,,M,,*5C
06/14/2015	08:09:28.558	$GPGGA,080929,2434.5705,N,08053.6910,W,1,9,1.5,20,M,,M,,*53
06/14/2015	08:09:29.548	$GPGGA,080930,2434.5712,N,08053.6897,W,1,9,1.5,20,M,,M,,*53
06/14/2015	08:09:30.548	$GPGGA,080931,2434.5717,N,08053.6881,W,1,9,1.7,20,M,,M,,*52
06/14/2015	08:09:31.588	$GPGGA,080932,2434.5723,N,08053.6865,W,1,9,1.5,20,M,,M,,*5E
06/14/2015	08:09:32.558	$GPGGA,080933,2434.5730,N,08053.6853,W,1,9,1.5,20,M,,M,,*58
06/14/2015	08:09:33.538	$GPGGA,080934,2434.5738,N,08053.6839,W,1,9,1.5,20,M,,M,,*5B
06/14/2015	08:09:34.558	$GPGGA,080935,2434.5743,N,08053.6823,W,1,9,1.7,20,M,,M,,*5F
06/14/2015	08:09:35.577	$GPGGA,080936,2434.5752,N,08053.6809,W,1,9,1.5,20,M,,M,,*56
06/14/2015	08:09:36.547	$GPGGA,080937,2434.5759,N,08053.6794,W,1,9,1.5,20,M,,M,,*57
06/14/2015	08:09:37.557	$GPGGA,080938,2434.5767,N,08053.6780,W,1,9,1.5,20,M,,M,,*50
06/14/2015	08:09:38.537	$GPGGA,080939,2434.5771,N,08053.6768,W,1,9,2.0,20,M,,M,,*56
06/14/2015	08:09:39.567	$GPGGA,080940,2434.5782,N,08053.6752,W,1,8,1.9,20,M,,M,,*56
06/14/2015	08:09:40.537	$GPGGA,080941,2434.5789,N,08053.6736,W,1,8,1.7,20,M,,M,,*50
06/14/2015	08:09:41.558	$GPGGA,080942,2434.5796,N,08053.6723,W,1,9,1.5,20,M,,M,,*5A
06/14/2015	08:09:42.528	$GPGGA,080943,2434.5804,N,08053.6712,W,1,9,1.5,20,M,,M,,*5D
06/14/2015	08:09:43.558	$GPGGA,080944,2434.5813,N,08053.6694,W,1,9,1.5,20,M,,M,,*53
06/14/2015	08:09:44.528	$GPGGA,080945,2434.5817,N,08053.6679,W,1,9,1.9,20,M,,M,,*59
06/14/2015	08:09:45.528	$GPGGA,080946,2434.5822,N,08053.6668,W,1,9,1.5,20,M,,M,,*50
06/14/2015	08:09:46.528	$GPGGA,080947,2434.5829,N,08053.6653,W,1,9,1.5,20,M,,M,,*52
06/14/2015	08:09:47.558	$GPGGA,080948,2434.5837,N,08053.6637,W,1,9,1.5,20,M,,M,,*50
06/14/2015	08:09:48.508	$GPGGA,080949,2434.5844,N,08053.6624,W,1,9,1.7,20,M,,M,,*55
06/14/2015	08:09:49.506	$GPGGA,080950,2434.5850,N,08053.6608,W,1,8,1.8,20,M,,M,,*58
06/14/2015	08:09:50.502	$GPGGA,080951,2434.5857,N,08053.6594,W,1,8,1.5,20,M,,M,,*55
06/14/2015	08:09:51.528	$GPGGA,080952,2434.5865,N,08053.6580,W,1,9,1.5,21,M,,M,,*52
06/14/2015	08:09:52.518	$GPGGA,080953,2434.5872,N,08053.6564,W,1,9,1.5,21,M,,M,,*5F
06/14/2015	08:09:53.617	$GPGGA,080954,2434.5880,N,08053.6548,W,1,9,1.5,21,M,,M,,*5B
06/14/2015	08:09:54.509	$GPGGA,080955,2434.5887,N,08053.6533,W,1,9,1.7,21,M,,M,,*53
06/14/2015	08:09:55.627	$GPGGA,080956,2434.5894,N,08053.6518,W,1,9,1.5,21,M,,M,,*59
06/14/2015	08:09:56.587	$GPGGA,080957,2434.5905,N,08053.6503,W,1,9,1.5,21,M,,M,,*5B
06/14/2015	08:09:57.517	$GPGGA,080958,2434.5914,N,08053.6486,W,1,8,1.7,21,M,,M,,*5B
06/14/2015	08:09:58.509	$GPGGA,080959,2434.5918,N,08053.6472,W,1,8,1.5,21,M,,M,,*5F
06/14/2015	08:09:59.538	$GPGGA,081000,2434.5923,N,08053.6461,W,1,9,1.5,21,M,,M,,*50
06/14/2015	08:10:00.612	$GPGGA,081001,2434.5930,N,08053.6445,W,1,9,1.5,21,M,,M,,*55
06/14/2015	08:10:01.499	$GPGGA,081002,2434.5938,N,08053.6430,W,1,9,1.5,21,M,,M,,*5C
06/14/2015	08:10:02.599	$GPGGA,081003,2434.5945,N,08053.6418,W,1,9,1.7,21,M,,M,,*5F
06/14/2015	08:10:03.600	$GPGGA,081004,2434.5951,N,08053.6403,W,1,9,1.5,21,M,,M,,*55
06/14/2015	08:10:04.501	$GPGGA,081005,2434.5956,N,08053.6391,W,1,9,1.5,21,M,,M,,*5F
06/14/2015	08:10:06.038	$GPGGA,081006,2434.5966,N,08053.6378,W,1,8,1.8,21,M,,M,,*54
06/14/2015	08:10:06.568	$GPGGA,081007,2434.5970,N,08053.6364,W,1,8,1.7,21,M,,M,,*50
06/14/2015	08:10:07.598	$GPGGA,081008,2434.5974,N,08053.6351,W,1,9,1.5,21,M,,M,,*5E
06/14/2015	08:10:08.588	$GPGGA,081009,2434.5979,N,08053.6338,W,1,9,1.5,21,M,,M,,*5D
06/14/2015	08:10:09.568	$GPGGA,081010,2434.5988,N,08053.6324,W,1,8,1.6,21,M,,M,,*54
06/14/2015	08:10:10.567	$GPGGA,081011,2434.5995,N,08053.6308,W,1,8,2.0,21,M,,M,,*52
06/14/2015	08:10:11.577	$GPGGA,081012,2434.6006,N,08053.6291,W,1,9,1.5,21,M,,M,,*57
06/14/2015	08:10:12.577	$GPGGA,081013,2434.6016,N,08053.6278,W,1,9,1.5,21,M,,M,,*50
06/14/2015	08:10:13.599	$GPGGA,081014,2434.6024,N,08053.6263,W,1,9,1.5,21,M,,M,,*5C
06/14/2015	08:10:14.567	$GPGGA,081015,2434.6034,N,08053.6247,W,1,9,1.7,21,M,,M,,*58
06/14/2015	08:10:15.611	$GPGGA,081016,2434.6041,N,08053.6236,W,1,8,1.7,21,M,,M,,*5E
06/14/2015	08:10:16.558	$GPGGA,081017,2434.6046,N,08053.6221,W,1,8,1.5,21,M,,M,,*5C
06/14/2015	08:10:20.218	$GPGGA,081020,2434.6075,N,08053.6176,W,1,9,1.5,21,M,,M,,*58
06/14/2015	08:10:20.548	$GPGGA,081021,2434.6085,N,08053.6160,W,1,9,1.5,21,M,,M,,*51
06/14/2015	08:10:21.538	$GPGGA,081022,2434.6093,N,08053.6145,W,1,9,1.5,21,M,,M,,*52
06/14/2015	08:10:22.558	$GPGGA,081023,2434.6103,N,08053.6130,W,1,9,1.5,21,M,,M,,*59
06/14/2015	08:10:23.578	$GPGGA,081024,2434.6111,N,08053.6117,W,1,9,1.5,21,M,,M,,*58
06/14/2015	08:10:24.548	$GPGGA,081025,2434.6120,N,08053.6103,W,1,9,1.5,21,M,,M,,*5E
06/14/2015	08:10:25.558	$GPGGA,081026,2434.6129,N,08053.6088,W,1,8,1.7,21,M,,M,,*55
06/14/2015	08:10:26.548	$GPGGA,081027,2434.6133,N,08053.6075,W,1,8,1.7,21,M,,M,,*5D
06/14/2015	08:10:27.568	$GPGGA,081028,2434.6142,N,08053.6061,W,1,9,1.5,21,M,,M,,*52
06/14/2015	08:10:28.537	$GPGGA,081029,2434.6147,N,08053.6049,W,1,9,1.5,21,M,,M,,*5C
06/14/2015	08:10:29.547	$GPGGA,081030,2434.6154,N,08053.6034,W,1,9,1.5,21,M,,M,,*5C
06/14/2015	08:10:30.527	$GPGGA,081031,2434.6161,N,08053.6020,W,1,9,1.5,21,M,,M,,*5E
06/14/2015	08:10:31.527	$GPGGA,081032,2434.6169,N,08053.6008,W,1,9,1.5,21,M,,M,,*5F
06/14/2015	08:10:32.818	$GPGGA,081033,2434.6178,N,08053.5992,W,1,9,1.5,21,M,,M,,*57
06/14/2015	08:10:33.557	$GPGGA,081034,2434.6186,N,08053.5976,W,1,8,1.7,21,M,,M,,*58
06/14/2015	08:10:34.516	$GPGGA,081035,2434.6194,N,08053.5963,W,1,8,1.7,21,M,,M,,*5E
06/14/2015	08:10:35.558	$GPGGA,081036,2434.6201,N,08053.5950,W,1,9,1.5,21,M,,M,,*51
06/14/2015	08:10:36.528	$GPGGA,081037,2434.6207,N,08053.5934,W,1,9,1.5,21,M,,M,,*54
06/14/2015	08:10:37.518	$GPGGA,081038,2434.6215,N,08053.5918,W,1,8,1.8,21,M,,M,,*5A
06/14/2015	08:10:38.668	$GPGGA,081039,2434.6223,N,08053.5904,W,1,8,1.7,22,M,,M,,*5F
06/14/2015	08:10:39.528	$GPGGA,081040,2434.6232,N,08053.5888,W,1,9,1.5,22,M,,M,,*57
06/14/2015	08:10:40.502	$GPGGA,081041,2434.6240,N,08053.5874,W,1,9,1.7,22,M,,M,,*52
06/14/2015	08:10:41.499	$GPGGA,081042,2434.6250,N,08053.5859,W,1,8,1.7,22,M,,M,,*5E
06/14/2015	08:10:42.498	$GPGGA,081043,2434.6256,N,08053.5845,W,1,8,1.7,22,M,,M,,*54
06/14/2015	08:10:43.518	$GPGGA,081044,2434.6263,N,08053.5831,W,1,9,1.5,22,M,,M,,*55
06/14/2015	08:10:44.511	$GPGGA,081045,2434.6272,N,08053.5816,W,1,9,1.7,22,M,,M,,*53
06/14/2015	08:10:45.637	$GPGGA,081046,2434.6283,N,08053.5801,W,1,8,1.7,22,M,,M,,*59
06/14/2015	08:10:46.501	$GPGGA,081047,2434.6288,N,08053.5786,W,1,8,1.7,22,M,,M,,*53
06/14/2015	08:10:47.657	$GPGGA,081048,2434.6294,N,08053.5771,W,1,8,1.5,22,M,,M,,*5B
06/14/2015	08:10:48.497	$GPGGA,081049,2434.6303,N,08053.5755,W,1,8,1.5,22,M,,M,,*53
06/14/2015	08:10:49.477	$GPGGA,081050,2434.6313,N,08053.5743,W,1,8,1.7,22,M,,M,,*5F
06/14/2015	08:10:50.497	$GPGGA,081051,2434.6317,N,08053.5729,W,1,8,1.7,22,M,,M,,*56
06/14/2015	08:10:51.488	$GPGGA,081052,2434.6324,N,08053.5712,W,1,8,1.7,22,M,,M,,*5D
06/14/2015	08:10:52.578	$GPGGA,081053,2434.6334,N,08053.5699,W,1,8,1.5,22,M,,M,,*5D
06/14/2015	08:10:53.613	$GPGGA,081054,2434.6342,N,08053.5686,W,1,9,1.7,22,M,,M,,*56
06/14/2015	08:10:54.578	$GPGGA,081055,2434.6345,N,08053.5674,W,1,9,1.7,22,M,,M,,*5D
06/14/2015	08:10:55.648	$GPGGA,081056,2434.6349,N,08053.5662,W,1,9,1.5,22,M,,M,,*57
06/14/2015	08:10:56.568	$GPGGA,081057,2434.6355,N,08053.5648,W,1,9,1.5,22,M,,M,,*53
06/14/2015	08:10:57.568	$GPGGA,081058,2434.6359,N,08053.5635,W,1,9,1.5,22,M,,M,,*5A
06/14/2015	08:10:58.628	$GPGGA,081059,2434.6364,N,08053.5623,W,1,9,1.8,22,M,,M,,*5F
06/14/2015	08:10:59.658	$GPGGA,081100,2434.6371,N,08053.5609,W,1,8,1.8,22,M,,M,,*5F
06/14/2015	08:11:00.558	$GPGGA,081101,2434.6378,N,08053.5595,W,1,8,1.8,22,M,,M,,*51
06/14/2015	08:11:01.603	$GPGGA,081102,2434.6385,N,08053.5578,W,1,8,1.5,22,M,,M,,*5E
06/14/2015	08:11:02.628	$GPGGA,081103,2434.6389,N,08053.5564,W,1,8,1.9,22,M,,M,,*52
06/14/2015	08:11:03.657	$GPGGA,081104,2434.6393,N,08053.5550,W,1,8,1.9,22,M,,M,,*59
06/14/2015	08:11:04.557	$GPGGA,081105,2434.6402,N,08053.5535,W,1,8,1.6,22,M,,M,,*5B
06/14/2015	08:11:05.602	$GPGGA,081106,2434.6407,N,08053.5520,W,1,9,1.6,22,M,,M,,*58
06/14/2015	08:11:06.617	$GPGGA,081107,2434.6414,N,08053.5507,W,1,9,1.6,22,M,,M,,*5E
06/14/2015	08:11:07.557	$GPGGA,081108,2434.6424,N,08053.5491,W,1,9,1.6,22,M,,M,,*5C
06/14/2015	08:11:08.617	$GPGGA,081109,2434.6432,N,08053.5476,W,1,9,1.6,23,M,,M,,*52
06/14/2015	08:11:09.588	$GPGGA,081110,2434.6438,N,08053.5462,W,1,9,1.6,23,M,,M,,*55
06/14/2015	08:11:10.599	$GPGGA,081111,2434.6445,N,08053.5448,W,1,9,1.6,23,M,,M,,*56
06/14/2015	08:11:11.598	$GPGGA,081112,2434.6454,N,08053.5432,W,1,9,1.6,23,M,,M,,*58
06/14/2015	08:11:12.538	$GPGGA,081113,2434.6460,N,08053.5417,W,1,9,1.6,23,M,,M,,*59
06/14/2015	08:11:13.613	$GPGGA,081114,2434.6467,N,08053.5403,W,1,9,1.8,23,M,,M,,*52
06/14/2015	08:11:14.548	$GPGGA,081115,2434.6474,N,08053.5388,W,1,9,1.8,23,M,,M,,*55
06/14/2015	08:11:15.538	$GPGGA,081116,2434.6479,N,08053.5373,W,1,9,1.6,23,M,,M,,*51
06/14/2015	08:11:16.588	$GPGGA,081117,2434.6487,N,08053.5357,W,1,9,1.6,23,M,,M,,*57
06/14/2015	08:11:17.578	$GPGGA,081118,2434.6497,N,08053.5342,W,1,8,1.7,23,M,,M,,*5D
06/14/2015	08:11:18.588	$GPGGA,081119,2434.6505,N,08053.5328,W,1,8,1.7,23,M,,M,,*5A
06/14/2015	08:11:19.618	$GPGGA,081120,2434.6511,N,08053.5312,W,1,9,1.6,23,M,,M,,*5C
06/14/2015	08:11:20.577	$GPGGA,081121,2434.6515,N,08053.5297,W,1,9,1.6,23,M,,M,,*55
06/14/2015	08:11:21.547	$GPGGA,081122,2434.6519,N,08053.5285,W,1,9,1.6,23,M,,M,,*59
06/14/2015	08:11:22.577	$GPGGA,081123,2434.6529,N,08053.5270,W,1,9,1.6,23,M,,M,,*51
06/14/2015	08:11:23.608	$GPGGA,081124,2434.6537,N,08053.5254,W,1,8,1.7,23,M,,M,,*5F
06/14/2015	08:11:24.508	$GPGGA,081125,2434.6544,N,08053.5238,W,1,8,1.6,23,M,,M,,*51
06/14/2015	08:11:26.610	$GPGGA,081127,2434.6559,N,08053.5208,W,1,9,1.7,23,M,,M,,*5C
06/14/2015	08:11:27.628	$GPGGA,081128,2434.6568,N,08053.5192,W,1,8,1.7,23,M,,M,,*50
06/14/2015	08:11:28.500	$GPGGA,081129,2434.6577,N,08053.5177,W,1,8,1.7,23,M,,M,,*54
06/14/2015	08:11:29.548	$GPGGA,081130,2434.6584,N,08053.5161,W,1,8,1.7,23,M,,M,,*57
06/14/2015	08:11:30.618	$GPGGA,081131,2434.6592,N,08053.5145,W,1,8,1.7,23,M,,M,,*57
06/14/2015	08:11:31.890	$GPGGA,081132,2434.6602,N,08053.5130,W,1,8,1.7,23,M,,M,,*5C
06/14/2015	08:11:32.558	$GPGGA,081133,2434.6608,N,08053.5116,W,1,8,1.6,23,M,,M,,*52
06/14/2015	08:11:33.538	$GPGGA,081134,2434.6616,N,08053.5100,W,1,9,1.7,22,M,,M,,*5C
06/14/2015	08:11:34.598	$GPGGA,081135,2434.6623,N,08053.5084,W,1,9,1.7,22,M,,M,,*56
06/14/2015	08:11:35.558	$GPGGA,081136,2434.6631,N,08053.5070,W,1,8,1.6,22,M,,M,,*5D
06/14/2015	08:11:36.548	$GPGGA,081137,2434.6638,N,08053.5056,W,1,8,1.6,22,M,,M,,*51
06/14/2015	08:11:37.478	$GPGGA,081138,2434.6644,N,08053.5041,W,1,9,1.6,22,M,,M,,*52
06/14/2015	08:11:38.547	$GPGGA,081139,2434.6649,N,08053.5027,W,1,9,1.6,22,M,,M,,*5E
06/14/2015	08:11:39.597	$GPGGA,081140,2434.6655,N,08053.5014,W,1,9,1.6,22,M,,M,,*5D
06/14/2015	08:11:40.547	$GPGGA,081141,2434.6663,N,08053.5001,W,1,9,1.6,22,M,,M,,*5D
06/14/2015	08:11:41.587	$GPGGA,081142,2434.6669,N,08053.4987,W,1,9,1.7,22,M,,M,,*53
06/14/2015	08:11:42.577	$GPGGA,081143,2434.6675,N,08053.4971,W,1,9,2.0,22,M,,M,,*52
06/14/2015	08:11:43.617	$GPGGA,081144,2434.6685,N,08053.4955,W,1,7,1.6,22,M,,M,,*57
06/14/2015	08:11:44.568	$GPGGA,081145,2434.6695,N,08053.4942,W,1,7,1.6,22,M,,M,,*51
06/14/2015	08:11:45.578	$GPGGA,081146,2434.6702,N,08053.4927,W,1,9,1.6,22,M,,M,,*50
06/14/2015	08:11:46.568	$GPGGA,081147,2434.6707,N,08053.4911,W,1,9,1.6,22,M,,M,,*51
06/14/2015	08:11:47.601	$GPGGA,081148,2434.6716,N,08053.4896,W,1,9,1.9,22,M,,M,,*5F
06/14/2015	08:11:48.559	$GPGGA,081149,2434.6724,N,08053.4883,W,1,9,1.6,21,M,,M,,*57
06/14/2015	08:11:49.578	$GPGGA,081150,2434.6731,N,08053.4866,W,1,9,1.6,21,M,,M,,*50
06/14/2015	08:11:50.568	$GPGGA,081151,2434.6740,N,08053.4849,W,1,9,1.7,21,M,,M,,*5B
06/14/2015	08:11:51.602	$GPGGA,081152,2434.6747,N,08053.4837,W,1,8,1.6,21,M,,M,,*56
