Software Version Number: 1	Data File Format Number: 1	Build Version Number: 1	Error Count Since VI Started: 1	Manufacturer: Raytheon	 Model Number: RayMarine 120	 S/N: 	 Cal Date: 	 Wind Direction Offset: 0.00	 Slope (M)1: 0.00	 Offset (B)1: 0.00	 Slope (M)2: 0.00	 Offset (B)2: 0.00	 Slope (M)3: 0.00	 Offset (B)3: 0.00	 Slope (M)4: 0.00	 Offset (B)4: 0.00	 Slope (M)5: 0.00	 Offset (B)5: 0.00	 Slope (M)6: 0.00	 Offset (B)6: 0.00
Computer Date	Computer Time	GGA String
06/13/2015	14:00:00.617	$GPGGA,140001,2418.2569,N,08101.5196,W,1,9,1.6,17,M,,M,,*58
06/13/2015	14:00:01.658	$GPGGA,140002,2418.2581,N,08101.5206,W,1,9,1.6,17,M,,M,,*57
06/13/2015	14:00:02.618	$GPGGA,140003,2418.2591,N,08101.5215,W,1,9,1.6,17,M,,M,,*55
06/13/2015	14:00:03.640	$GPGGA,140004,2418.2599,N,08101.5227,W,1,9,1.6,17,M,,M,,*5B
06/13/2015	14:00:04.529	$GPGGA,140005,2418.2607,N,08101.5233,W,1,9,1.6,17,M,,M,,*5B
06/13/2015	14:00:05.598	$GPGGA,140006,2418.2618,N,08101.5242,W,1,9,1.6,17,M,,M,,*50
06/13/2015	14:00:06.540	$GPGGA,140007,2418.2627,N,08101.5251,W,1,9,1.6,17,M,,M,,*5F
06/13/2015	14:00:07.657	$GPGGA,140008,2418.2635,N,08101.5261,W,1,9,1.6,17,M,,M,,*50
06/13/2015	14:00:08.545	$GPGGA,140009,2418.2648,N,08101.5271,W,1,9,1.6,17,M,,M,,*5A
06/13/2015	14:00:09.630	$GPGGA,140010,2418.2659,N,08101.5279,W,1,9,1.6,17,M,,M,,*5A
06/13/2015	14:00:10.527	$GPGGA,140011,2418.2668,N,08101.5289,W,1,9,1.6,17,M,,M,,*56
06/13/2015	14:00:11.617	$GPGGA,140012,2418.2679,N,08101.5297,W,1,9,1.6,17,M,,M,,*5A
06/13/2015	14:00:12.597	$GPGGA,140013,2418.2689,N,08101.5307,W,1,9,1.6,17,M,,M,,*5C
06/13/2015	14:00:13.477	$GPGGA,140014,2418.2697,N,08101.5318,W,1,9,1.6,17,M,,M,,*5A
06/13/2015	14:00:14.577	$GPGGA,140015,2418.2707,N,08101.5325,W,1,9,1.6,17,M,,M,,*5D
06/13/2015	14:00:15.617	$GPGGA,140016,2418.2718,N,08101.5334,W,1,9,1.6,17,M,,M,,*50
06/13/2015	14:00:16.528	$GPGGA,140017,2418.2726,N,08101.5344,W,1,9,1.6,17,M,,M,,*5B
06/13/2015	14:00:17.567	$GPGGA,140018,2418.2736,N,08101.5354,W,1,9,1.6,17,M,,M,,*54
06/13/2015	14:00:18.577	$GPGGA,140019,2418.2747,N,08101.5361,W,1,9,1.6,17,M,,M,,*55
06/13/2015	14:00:19.578	$GPGGA,140020,2418.2758,N,08101.5372,W,1,9,1.6,17,M,,M,,*53
06/13/2015	14:00:20.558	$GPGGA,140021,2418.2766,N,08101.5380,W,1,9,1.8,17,M,,M,,*5C
06/13/2015	14:00:21.639	$GPGGA,140022,2418.2776,N,08101.5391,W,1,8,1.6,17,M,,M,,*51
06/13/2015	14:00:22.568	$GPGGA,140023,2418.2776,N,08101.5391,W,1,8,1.6,17,M,,M,,*50
06/13/2015	14:00:23.598	$GPGGA,140024,2418.2794,N,08101.5410,W,1,9,1.6,17,M,,M,,*54
06/13/2015	14:00:24.557	$GPGGA,140025,2418.2804,N,08101.5419,W,1,9,1.6,17,M,,M,,*5A
06/13/2015	14:00:25.629	$GPGGA,140026,2418.2813,N,08101.5428,W,1,9,1.6,17,M,,M,,*5D
06/13/2015	14:00:26.557	$GPGGA,140027,2418.2823,N,08101.5438,W,1,9,1.6,17,M,,M,,*5E
06/13/2015	14:00:27.597	$GPGGA,140028,2418.2833,N,08101.5448,W,1,9,1.6,17,M,,M,,*57
06/13/2015	14:00:28.557	$GPGGA,140029,2418.2841,N,08101.5459,W,1,9,1.6,17,M,,M,,*53
06/13/2015	14:00:29.567	$GPGGA,140030,2418.2852,N,08101.5470,W,1,9,1.6,17,M,,M,,*52
06/13/2015	14:00:30.547	$GPGGA,140031,2418.2862,N,08101.5480,W,1,9,1.6,17,M,,M,,*5F
06/13/2015	14:00:31.587	$GPGGA,140032,2418.2870,N,08101.5488,W,1,9,1.6,17,M,,M,,*57
06/13/2015	14:00:32.541	$GPGGA,140033,2418.2880,N,08101.5498,W,1,9,1.6,17,M,,M,,*58
06/13/2015	14:00:33.617	$GPGGA,140034,2418.2889,N,08101.5504,W,1,9,1.6,17,M,,M,,*52
06/13/2015	14:00:34.541	$GPGGA,140035,2418.2901,N,08101.5513,W,1,9,1.6,17,M,,M,,*54
06/13/2015	14:00:35.587	$GPGGA,140036,2418.2909,N,08101.5525,W,1,9,1.6,17,M,,M,,*5A
06/13/2015	14:00:36.558	$GPGGA,140037,2418.2919,N,08101.5538,W,1,9,1.6,17,M,,M,,*56
06/13/2015	14:00:37.642	$GPGGA,140038,2418.2931,N,08101.5546,W,1,9,1.6,17,M,,M,,*5A
06/13/2015	14:00:38.518	$GPGGA,140039,2418.2941,N,08101.5554,W,1,9,1.6,17,M,,M,,*5F
06/13/2015	14:00:39.548	$GPGGA,140040,2418.2941,N,08101.5554,W,1,9,1.6,17,M,,M,,*51
06/13/2015	14:00:40.529	$GPGGA,140041,2418.2959,N,08101.5572,W,1,9,1.6,17,M,,M,,*5D
06/13/2015	14:00:41.567	$GPGGA,140042,2418.2968,N,08101.5581,W,1,9,1.6,17,M,,M,,*50
06/13/2015	14:00:42.532	$GPGGA,140043,2418.2978,N,08101.5590,W,1,9,1.6,17,M,,M,,*50
06/13/2015	14:00:43.548	$GPGGA,140044,2418.2978,N,08101.5590,W,1,9,1.6,17,M,,M,,*57
06/13/2015	14:00:44.517	$GPGGA,140045,2418.3000,N,08101.5610,W,1,9,1.6,17,M,,M,,*5A
06/13/2015	14:00:45.533	$GPGGA,140046,2418.3010,N,08101.5619,W,1,9,1.6,17,M,,M,,*51
06/13/2015	14:00:46.517	$GPGGA,140047,2418.3018,N,08101.5629,W,1,9,1.6,17,M,,M,,*5B
06/13/2015	14:00:47.657	$GPGGA,140048,2418.3029,N,08101.5637,W,1,9,1.6,17,M,,M,,*59
06/13/2015	14:00:48.517	$GPGGA,140049,2418.3040,N,08101.5644,W,1,9,1.6,17,M,,M,,*53
06/13/2015	14:00:49.630	$GPGGA,140050,2418.3051,N,08101.5654,W,1,9,1.6,17,M,,M,,*5A
06/13/2015	14:00:50.543	$GPGGA,140051,2418.3060,N,08101.5663,W,1,9,1.6,17,M,,M,,*5D
06/13/2015	14:00:51.647	$GPGGA,140052,2418.3071,N,08101.5673,W,1,9,1.6,17,M,,M,,*5F
06/13/2015	14:00:52.497	$GPGGA,140053,2418.3080,N,08101.5683,W,1,9,1.6,17,M,,M,,*5F
06/13/2015	14:00:53.507	$GPGGA,140054,2418.3080,N,08101.5683,W,1,9,1.6,17,M,,M,,*58
06/13/2015	14:00:54.498	$GPGGA,140055,2418.3102,N,08101.5701,W,1,9,1.6,17,M,,M,,*59
06/13/2015	14:00:55.568	$GPGGA,140056,2418.3112,N,08101.5710,W,1,9,1.6,17,M,,M,,*5B
06/13/2015	14:00:56.498	$GPGGA,140057,2418.3123,N,08101.5720,W,1,9,1.6,17,M,,M,,*5B
06/13/2015	14:00:57.568	$GPGGA,140058,2418.3133,N,08101.5728,W,1,9,1.6,17,M,,M,,*5D
06/13/2015	14:00:58.578	$GPGGA,140059,2418.3144,N,08101.5738,W,1,9,1.6,17,M,,M,,*5D
06/13/2015	14:00:59.647	$GPGGA,140100,2418.3152,N,08101.5748,W,1,9,1.6,17,M,,M,,*50
06/13/2015	14:01:00.497	$GPGGA,140101,2418.3163,N,08101.5756,W,1,9,1.6,17,M,,M,,*5C
06/13/2015	14:01:01.577	$GPGGA,140102,2418.3174,N,08101.5766,W,1,9,1.6,17,M,,M,,*5A
06/13/2015	14:01:02.577	$GPGGA,140103,2418.3185,N,08101.5775,W,1,9,1.6,17,M,,M,,*57
06/13/2015	14:01:03.617	$GPGGA,140104,2418.3195,N,08101.5784,W,1,9,1.6,17,M,,M,,*5F
06/13/2015	14:01:04.567	$GPGGA,140105,2418.3206,N,08101.5795,W,1,9,1.6,17,M,,M,,*57
06/13/2015	14:01:05.557	$GPGGA,140106,2418.3214,N,08101.5803,W,1,9,1.6,17,M,,M,,*57
06/13/2015	14:01:06.577	$GPGGA,140107,2418.3224,N,08101.5811,W,1,9,1.6,17,M,,M,,*56
06/13/2015	14:01:07.588	$GPGGA,140108,2418.3235,N,08101.5820,W,1,9,1.6,17,M,,M,,*5B
06/13/2015	14:01:08.557	$GPGGA,140109,2418.3246,N,08101.5829,W,1,9,1.6,17,M,,M,,*57
06/13/2015	14:01:09.557	$GPGGA,140110,2418.3255,N,08101.5839,W,1,9,1.6,17,M,,M,,*5C
06/13/2015	14:01:10.557	$GPGGA,140111,2418.3264,N,08101.5849,W,1,9,1.6,17,M,,M,,*58
06/13/2015	14:01:11.621	$GPGGA,140112,2418.3277,N,08101.5857,W,1,9,1.6,17,M,,M,,*56
06/13/2015	14:01:12.567	$GPGGA,140113,2418.3286,N,08101.5867,W,1,9,1.6,17,M,,M,,*5A
06/13/2015	14:01:13.567	$GPGGA,140114,2418.3296,N,08101.5878,W,1,9,1.6,17,M,,M,,*52
06/13/2015	14:01:14.547	$GPGGA,140115,2418.3306,N,08101.5886,W,1,9,1.6,17,M,,M,,*5A
06/13/2015	14:01:15.547	$GPGGA,140116,2418.3317,N,08101.5894,W,1,9,1.6,17,M,,M,,*5A
06/13/2015	14:01:16.546	$GPGGA,140117,2418.3328,N,08101.5904,W,1,9,2.0,17,M,,M,,*5A
06/13/2015	14:01:17.556	$GPGGA,140118,2418.3339,N,08101.5914,W,1,9,1.6,17,M,,M,,*51
06/13/2015	14:01:18.536	$GPGGA,140119,2418.3350,N,08101.5925,W,1,9,1.6,17,M,,M,,*5D
06/13/2015	14:01:19.576	$GPGGA,140120,2418.3361,N,08101.5933,W,1,9,1.6,17,M,,M,,*52
06/13/2015	14:01:20.528	$GPGGA,140121,2418.3369,N,08101.5943,W,1,9,1.6,17,M,,M,,*5C
06/13/2015	14:01:21.520	$GPGGA,140122,2418.3380,N,08101.5954,W,1,9,1.6,17,M,,M,,*5E
06/13/2015	14:01:22.530	$GPGGA,140123,2418.3391,N,08101.5962,W,1,9,1.6,17,M,,M,,*5A
06/13/2015	14:01:23.567	$GPGGA,140124,2418.3401,N,08101.5972,W,1,9,1.6,17,M,,M,,*52
06/13/2015	14:01:24.525	$GPGGA,140125,2418.3411,N,08101.5983,W,1,9,1.6,17,M,,M,,*5C
06/13/2015	14:01:25.517	$GPGGA,140126,2418.3420,N,08101.5991,W,1,9,1.6,17,M,,M,,*5E
06/13/2015	14:01:26.507	$GPGGA,140127,2418.3430,N,08101.6001,W,1,9,1.6,18,M,,M,,*52
06/13/2015	14:01:27.557	$GPGGA,140128,2418.3440,N,08101.6011,W,1,9,1.6,18,M,,M,,*5B
06/13/2015	14:01:28.520	$GPGGA,140129,2418.3448,N,08101.6019,W,1,9,1.6,18,M,,M,,*5A
06/13/2015	14:01:29.507	$GPGGA,140130,2418.3459,N,08101.6030,W,1,9,1.6,18,M,,M,,*59
06/13/2015	14:01:30.521	$GPGGA,140131,2418.3469,N,08101.6040,W,1,9,1.6,18,M,,M,,*5C
06/13/2015	14:01:31.507	$GPGGA,140132,2418.3480,N,08101.6049,W,1,9,1.6,18,M,,M,,*51
06/13/2015	14:01:32.497	$GPGGA,140133,2418.3490,N,08101.6059,W,1,9,1.6,18,M,,M,,*50
06/13/2015	14:01:33.497	$GPGGA,140134,2418.3499,N,08101.6069,W,1,9,1.6,18,M,,M,,*5D
06/13/2015	14:01:34.620	$GPGGA,140135,2418.3508,N,08101.6077,W,1,9,1.6,18,M,,M,,*5A
06/13/2015	14:01:35.619	$GPGGA,140136,2418.3519,N,08101.6087,W,1,9,1.6,18,M,,M,,*56
06/13/2015	14:01:36.506	$GPGGA,140137,2418.3528,N,08101.6098,W,1,9,1.6,18,M,,M,,*5B
06/13/2015	14:01:37.506	$GPGGA,140138,2418.3538,N,08101.6107,W,1,9,1.6,18,M,,M,,*52
06/13/2015	14:01:38.576	$GPGGA,140139,2418.3549,N,08101.6118,W,1,9,1.6,18,M,,M,,*5B
06/13/2015	14:01:39.619	$GPGGA,140140,2418.3560,N,08101.6127,W,1,9,1.6,18,M,,M,,*52
06/13/2015	14:01:40.498	$GPGGA,140141,2418.3568,N,08101.6138,W,1,9,1.6,18,M,,M,,*55
06/13/2015	14:01:41.477	$GPGGA,140142,2418.3578,N,08101.6146,W,1,9,1.6,18,M,,M,,*5E
06/13/2015	14:01:42.477	$GPGGA,140143,2418.3588,N,08101.6154,W,1,9,1.6,18,M,,M,,*53
06/13/2015	14:01:43.497	$GPGGA,140144,2418.3597,N,08101.6163,W,1,9,1.6,18,M,,M,,*5E
06/13/2015	14:01:44.577	$GPGGA,140145,2418.3607,N,08101.6174,W,1,9,1.6,18,M,,M,,*53
06/13/2015	14:01:45.477	$GPGGA,140146,2418.3617,N,08101.6185,W,1,9,1.6,18,M,,M,,*5F
06/13/2015	14:01:46.567	$GPGGA,140147,2418.3629,N,08101.6196,W,1,9,1.6,18,M,,M,,*51
06/13/2015	14:01:47.587	$GPGGA,140148,2418.3640,N,08101.6206,W,1,9,1.6,18,M,,M,,*5B
06/13/2015	14:01:48.577	$GPGGA,140149,2418.3649,N,08101.6214,W,1,9,1.6,18,M,,M,,*50
06/13/2015	14:01:49.597	$GPGGA,140150,2418.3658,N,08101.6223,W,1,9,1.6,18,M,,M,,*5C
06/13/2015	14:01:50.567	$GPGGA,140151,2418.3669,N,08101.6232,W,1,9,1.6,18,M,,M,,*5F
06/13/2015	14:01:52.876	$GPGGA,140153,2418.3687,N,08101.6251,W,1,9,1.6,18,M,,M,,*58
06/13/2015	14:01:53.556	$GPGGA,140154,2418.3698,N,08101.6261,W,1,9,1.6,18,M,,M,,*52
06/13/2015	14:01:54.556	$GPGGA,140155,2418.3708,N,08101.6272,W,1,9,1.6,18,M,,M,,*59
06/13/2015	14:01:55.566	$GPGGA,140156,2418.3719,N,08101.6280,W,1,9,1.6,18,M,,M,,*57
06/13/2015	14:01:56.556	$GPGGA,140157,2418.3730,N,08101.6290,W,1,9,1.6,18,M,,M,,*5C
06/13/2015	14:01:57.567	$GPGGA,140158,2418.3740,N,08101.6300,W,1,9,1.6,18,M,,M,,*5C
06/13/2015	14:01:58.557	$GPGGA,140159,2418.3750,N,08101.6308,W,1,9,1.6,18,M,,M,,*54
06/13/2015	14:01:59.597	$GPGGA,140200,2418.3759,N,08101.6315,W,1,9,1.6,18,M,,M,,*5E
06/13/2015	14:02:00.547	$GPGGA,140201,2418.3769,N,08101.6326,W,1,9,1.6,18,M,,M,,*5C
06/13/2015	14:02:01.577	$GPGGA,140202,2418.3779,N,08101.6335,W,1,9,1.6,18,M,,M,,*5C
06/13/2015	14:02:02.547	$GPGGA,140203,2418.3791,N,08101.6344,W,1,9,1.6,18,M,,M,,*5D
06/13/2015	14:02:03.557	$GPGGA,140204,2418.3802,N,08101.6355,W,1,9,1.6,18,M,,M,,*5F
06/13/2015	14:02:04.537	$GPGGA,140205,2418.3812,N,08101.6366,W,1,9,1.6,18,M,,M,,*5F
06/13/2015	14:02:05.547	$GPGGA,140206,2418.3821,N,08101.6374,W,1,8,1.9,18,M,,M,,*51
06/13/2015	14:02:06.547	$GPGGA,140207,2418.3831,N,08101.6384,W,1,8,1.6,18,M,,M,,*51
06/13/2015	14:02:07.567	$GPGGA,140208,2418.3841,N,08101.6392,W,1,9,1.6,18,M,,M,,*5F
06/13/2015	14:02:08.527	$GPGGA,140209,2418.3849,N,08101.6399,W,1,9,1.6,18,M,,M,,*5D
06/13/2015	14:02:09.556	$GPGGA,140210,2418.3860,N,08101.6406,W,1,9,1.6,18,M,,M,,*5F
06/13/2015	14:02:10.520	$GPGGA,140211,2418.3870,N,08101.6416,W,1,9,1.6,18,M,,M,,*5E
06/13/2015	14:02:11.576	$GPGGA,140212,2418.3880,N,08101.6427,W,1,9,1.6,18,M,,M,,*50
06/13/2015	14:02:12.518	$GPGGA,140213,2418.3891,N,08101.6436,W,1,9,1.6,18,M,,M,,*51
06/13/2015	14:02:13.556	$GPGGA,140214,2418.3902,N,08101.6445,W,1,9,1.6,18,M,,M,,*59
06/13/2015	14:02:14.507	$GPGGA,140215,2418.3911,N,08101.6453,W,1,9,1.6,18,M,,M,,*5D
06/13/2015	14:02:15.519	$GPGGA,140216,2418.3921,N,08101.6463,W,1,9,1.6,18,M,,M,,*5E
06/13/2015	14:02:16.507	$GPGGA,140217,2418.3929,N,08101.6470,W,1,9,1.6,18,M,,M,,*55
06/13/2015	14:02:17.507	$GPGGA,140218,2418.3940,N,08101.6478,W,1,9,1.6,18,M,,M,,*5D
06/13/2015	14:02:18.507	$GPGGA,140219,2418.3950,N,08101.6485,W,1,9,1.6,18,M,,M,,*5F
06/13/2015	14:02:19.530	$GPGGA,140220,2418.3961,N,08101.6495,W,1,9,1.6,18,M,,M,,*56
06/13/2015	14:02:20.507	$GPGGA,140221,2418.3971,N,08101.6506,W,1,9,1.6,18,M,,M,,*5D
06/13/2015	14:02:21.530	$GPGGA,140222,2418.3980,N,08101.6515,W,1,9,1.6,18,M,,M,,*52
06/13/2015	14:02:22.507	$GPGGA,140223,2418.3992,N,08101.6525,W,1,9,1.6,18,M,,M,,*53
06/13/2015	14:02:23.538	$GPGGA,140224,2418.4001,N,08101.6532,W,1,9,1.6,18,M,,M,,*56
06/13/2015	14:02:24.507	$GPGGA,140225,2418.4012,N,08101.6539,W,1,9,1.6,18,M,,M,,*5E
06/13/2015	14:02:25.527	$GPGGA,140226,2418.4019,N,08101.6547,W,1,9,1.6,18,M,,M,,*5F
06/13/2015	14:02:26.487	$GPGGA,140227,2418.4029,N,08101.6557,W,1,9,1.6,18,M,,M,,*5C
06/13/2015	14:02:27.519	$GPGGA,140228,2418.4040,N,08101.6565,W,1,9,1.6,18,M,,M,,*5D
06/13/2015	14:02:28.496	$GPGGA,140229,2418.4051,N,08101.6575,W,1,9,1.6,18,M,,M,,*5D
06/13/2015	14:02:29.486	$GPGGA,140230,2418.4061,N,08101.6586,W,1,9,1.6,18,M,,M,,*5A
06/13/2015	14:02:30.496	$GPGGA,140231,2418.4070,N,08101.6597,W,1,9,1.6,18,M,,M,,*5B
06/13/2015	14:02:31.618	$GPGGA,140232,2418.4081,N,08101.6602,W,1,9,1.6,18,M,,M,,*59
06/13/2015	14:02:32.567	$GPGGA,140233,2418.4092,N,08101.6611,W,1,9,1.6,18,M,,M,,*58
06/13/2015	14:02:33.587	$GPGGA,140234,2418.4101,N,08101.6620,W,1,9,1.6,18,M,,M,,*56
06/13/2015	14:02:34.497	$GPGGA,140235,2418.4109,N,08101.6630,W,1,9,1.6,18,M,,M,,*5E
06/13/2015	14:02:35.577	$GPGGA,140236,2418.4120,N,08101.6640,W,1,9,1.6,18,M,,M,,*51
06/13/2015	14:02:36.477	$GPGGA,140237,2418.4131,N,08101.6649,W,1,9,1.6,18,M,,M,,*59
06/13/2015	14:02:37.607	$GPGGA,140238,2418.4139,N,08101.6660,W,1,9,1.6,18,M,,M,,*55
06/13/2015	14:02:38.567	$GPGGA,140239,2418.4148,N,08101.6671,W,1,9,1.6,18,M,,M,,*52
06/13/2015	14:02:39.567	$GPGGA,140240,2418.4159,N,08101.6678,W,1,9,1.6,18,M,,M,,*55
06/13/2015	14:02:40.567	$GPGGA,140241,2418.4170,N,08101.6687,W,1,9,1.6,18,M,,M,,*5F
06/13/2015	14:02:41.567	$GPGGA,140242,2418.4177,N,08101.6696,W,1,9,1.6,18,M,,M,,*5B
06/13/2015	14:02:42.557	$GPGGA,140243,2418.4185,N,08101.6706,W,1,9,1.6,18,M,,M,,*5F
06/13/2015	14:02:43.567	$GPGGA,140244,2418.4196,N,08101.6714,W,1,9,1.6,18,M,,M,,*59
06/13/2015	14:02:44.546	$GPGGA,140245,2418.4206,N,08101.6725,W,1,9,1.6,18,M,,M,,*50
06/13/2015	14:02:45.566	$GPGGA,140246,2418.4214,N,08101.6736,W,1,9,1.6,18,M,,M,,*52
06/13/2015	14:02:46.546	$GPGGA,140247,2418.4225,N,08101.6745,W,1,9,1.6,18,M,,M,,*55
06/13/2015	14:02:47.566	$GPGGA,140248,2418.4236,N,08101.6754,W,1,9,1.6,18,M,,M,,*58
06/13/2015	14:02:48.546	$GPGGA,140249,2418.4243,N,08101.6763,W,1,9,1.6,18,M,,M,,*5F
06/13/2015	14:02:49.557	$GPGGA,140250,2418.4253,N,08101.6772,W,1,9,1.6,18,M,,M,,*56
06/13/2015	14:02:50.547	$GPGGA,140251,2418.4261,N,08101.6781,W,1,9,1.6,18,M,,M,,*5A
06/13/2015	14:02:51.587	$GPGGA,140252,2418.4272,N,08101.6790,W,1,9,1.6,18,M,,M,,*5B
06/13/2015	14:02:52.530	$GPGGA,140253,2418.4282,N,08101.6800,W,1,9,1.6,18,M,,M,,*53
06/13/2015	14:02:53.557	$GPGGA,140254,2418.4290,N,08101.6810,W,1,9,1.6,18,M,,M,,*56
06/13/2015	14:02:54.531	$GPGGA,140255,2418.4301,N,08101.6821,W,1,9,1.6,18,M,,M,,*5C
06/13/2015	14:02:55.547	$GPGGA,140256,2418.4311,N,08101.6829,W,1,9,1.6,18,M,,M,,*56
06/13/2015	14:02:56.537	$GPGGA,140257,2418.4321,N,08101.6839,W,1,9,1.6,18,M,,M,,*55
06/13/2015	14:02:57.547	$GPGGA,140258,2418.4329,N,08101.6848,W,1,9,1.6,18,M,,M,,*54
06/13/2015	14:02:58.527	$GPGGA,140259,2418.4339,N,08101.6858,W,1,9,1.6,18,M,,M,,*55
06/13/2015	14:02:59.547	$GPGGA,140300,2418.4348,N,08101.6865,W,1,9,1.6,18,M,,M,,*50
06/13/2015	14:03:00.507	$GPGGA,140301,2418.4357,N,08101.6875,W,1,9,1.6,18,M,,M,,*5E
06/13/2015	14:03:01.556	$GPGGA,140302,2418.4366,N,08101.6884,W,1,9,1.6,18,M,,M,,*51
06/13/2015	14:03:02.532	$GPGGA,140303,2418.4377,N,08101.6895,W,1,9,1.6,18,M,,M,,*50
06/13/2015	14:03:03.527	$GPGGA,140304,2418.4387,N,08101.6907,W,1,9,1.6,18,M,,M,,*52
06/13/2015	14:03:04.506	$GPGGA,140305,2418.4397,N,08101.6918,W,1,9,1.6,18,M,,M,,*5C
06/13/2015	14:03:05.506	$GPGGA,140306,2418.4406,N,08101.6927,W,1,9,1.6,18,M,,M,,*5C
06/13/2015	14:03:06.506	$GPGGA,140307,2418.4415,N,08101.6936,W,1,9,1.6,18,M,,M,,*5F
06/13/2015	14:03:07.517	$GPGGA,140308,2418.4424,N,08101.6944,W,1,9,1.6,18,M,,M,,*57
06/13/2015	14:03:08.618	$GPGGA,140309,2418.4434,N,08101.6951,W,1,9,1.6,18,M,,M,,*53
06/13/2015	14:03:09.531	$GPGGA,140310,2418.4442,N,08101.6960,W,1,9,1.6,18,M,,M,,*58
06/13/2015	14:03:10.497	$GPGGA,140311,2418.4452,N,08101.6972,W,1,9,1.6,18,M,,M,,*5B
06/13/2015	14:03:11.624	$GPGGA,140312,2418.4463,N,08101.6981,W,1,9,1.6,18,M,,M,,*56
06/13/2015	14:03:12.487	$GPGGA,140313,2418.4474,N,08101.6992,W,1,9,1.6,18,M,,M,,*53
06/13/2015	14:03:13.507	$GPGGA,140314,2418.4482,N,08101.7003,W,1,9,1.6,18,M,,M,,*5D
06/13/2015	14:03:14.497	$GPGGA,140315,2418.4493,N,08101.7012,W,1,9,1.6,18,M,,M,,*5C
06/13/2015	14:03:15.597	$GPGGA,140316,2418.4503,N,08101.7019,W,1,9,1.6,18,M,,M,,*5C
06/13/2015	14:03:16.507	$GPGGA,140317,2418.4510,N,08101.7027,W,1,9,1.6,18,M,,M,,*52
06/13/2015	14:03:17.587	$GPGGA,140318,2418.4520,N,08101.7035,W,1,9,1.6,18,M,,M,,*5D
06/13/2015	14:03:18.477	$GPGGA,140319,2418.4531,N,08101.7043,W,1,9,1.6,18,M,,M,,*5D
06/13/2015	14:03:19.496	$GPGGA,140320,2418.4542,N,08101.7053,W,1,9,1.6,18,M,,M,,*52
06/13/2015	14:03:20.566	$GPGGA,140321,2418.4550,N,08101.7066,W,1,9,1.6,18,M,,M,,*56
06/13/2015	14:03:21.486	$GPGGA,140322,2418.4561,N,08101.7077,W,1,9,1.6,18,M,,M,,*57
06/13/2015	14:03:22.487	$GPGGA,140323,2418.4575,N,08101.7084,W,1,9,1.6,18,M,,M,,*5F
06/13/2015	14:03:23.576	$GPGGA,140324,2418.4585,N,08101.7092,W,1,9,1.6,18,M,,M,,*50
06/13/2015	14:03:24.567	$GPGGA,140325,2418.4593,N,08101.7103,W,1,9,1.8,18,M,,M,,*51
06/13/2015	14:03:25.467	$GPGGA,140326,2418.4601,N,08101.7110,W,1,9,1.6,18,M,,M,,*56
06/13/2015	14:03:26.577	$GPGGA,140327,2418.4612,N,08101.7118,W,1,9,1.6,18,M,,M,,*5D
06/13/2015	14:03:27.577	$GPGGA,140328,2418.4621,N,08101.7128,W,1,9,1.6,18,M,,M,,*51
06/13/2015	14:03:28.567	$GPGGA,140329,2418.4630,N,08101.7139,W,1,9,1.6,18,M,,M,,*50
06/13/2015	14:03:29.577	$GPGGA,140330,2418.4641,N,08101.7149,W,1,9,1.6,18,M,,M,,*59
06/13/2015	14:03:30.547	$GPGGA,140331,2418.4652,N,08101.7158,W,1,9,1.6,18,M,,M,,*5A
06/13/2015	14:03:31.607	$GPGGA,140332,2418.4665,N,08101.7168,W,1,9,1.6,18,M,,M,,*5E
06/13/2015	14:03:32.557	$GPGGA,140333,2418.4673,N,08101.7176,W,1,9,1.6,18,M,,M,,*57
06/13/2015	14:03:33.567	$GPGGA,140334,2418.4684,N,08101.7184,W,1,9,1.6,18,M,,M,,*55
06/13/2015	14:03:34.547	$GPGGA,140335,2418.4693,N,08101.7191,W,1,9,1.6,18,M,,M,,*56
06/13/2015	14:03:35.597	$GPGGA,140336,2418.4702,N,08101.7200,W,1,9,1.6,18,M,,M,,*57
06/13/2015	14:03:36.556	$GPGGA,140337,2418.4713,N,08101.7208,W,1,9,1.6,18,M,,M,,*5E
06/13/2015	14:03:37.566	$GPGGA,140338,2418.4724,N,08101.7218,W,1,9,1.6,18,M,,M,,*54
06/13/2015	14:03:38.546	$GPGGA,140339,2418.4734,N,08101.7229,W,1,9,1.6,18,M,,M,,*56
06/13/2015	14:03:39.566	$GPGGA,140340,2418.4745,N,08101.7238,W,1,9,1.6,18,M,,M,,*5E
06/13/2015	14:03:40.537	$GPGGA,140341,2418.4756,N,08101.7247,W,1,9,1.6,19,M,,M,,*54
06/13/2015	14:03:41.551	$GPGGA,140342,2418.4764,N,08101.7255,W,1,9,1.6,19,M,,M,,*55
06/13/2015	14:03:42.539	$GPGGA,140343,2418.4774,N,08101.7262,W,1,9,1.6,19,M,,M,,*51
06/13/2015	14:03:43.534	$GPGGA,140344,2418.4785,N,08101.7269,W,1,9,1.6,19,M,,M,,*53
06/13/2015	14:03:45.097	$GPGGA,140345,2418.4794,N,08101.7280,W,1,9,1.6,19,M,,M,,*55
06/13/2015	14:03:45.533	$GPGGA,140346,2418.4803,N,08101.7290,W,1,9,1.6,19,M,,M,,*56
06/13/2015	14:03:46.548	$GPGGA,140347,2418.4814,N,08101.7299,W,1,9,1.6,19,M,,M,,*58
06/13/2015	14:03:47.534	$GPGGA,140348,2418.4825,N,08101.7308,W,1,9,1.6,19,M,,M,,*5C
06/13/2015	14:03:48.521	$GPGGA,140349,2418.4834,N,08101.7319,W,1,9,1.6,19,M,,M,,*5D
06/13/2015	14:03:49.547	$GPGGA,140350,2418.4843,N,08101.7328,W,1,9,1.6,19,M,,M,,*57
06/13/2015	14:03:50.525	$GPGGA,140351,2418.4856,N,08101.7334,W,1,9,1.6,19,M,,M,,*5F
06/13/2015	14:03:51.557	$GPGGA,140352,2418.4864,N,08101.7345,W,1,9,1.6,19,M,,M,,*5B
06/13/2015	14:03:52.527	$GPGGA,140353,2418.4871,N,08101.7355,W,1,9,1.6,19,M,,M,,*5F
06/13/2015	14:03:53.497	$GPGGA,140354,2418.4882,N,08101.7363,W,1,9,1.6,19,M,,M,,*51
06/13/2015	14:03:54.520	$GPGGA,140355,2418.4893,N,08101.7371,W,1,9,1.6,19,M,,M,,*53
06/13/2015	14:03:55.506	$GPGGA,140356,2418.4901,N,08101.7381,W,1,9,1.6,18,M,,M,,*54
06/13/2015	14:03:56.521	$GPGGA,140357,2418.4911,N,08101.7392,W,1,9,1.6,18,M,,M,,*56
06/13/2015	14:03:57.506	$GPGGA,140358,2418.4921,N,08101.7399,W,1,9,1.6,18,M,,M,,*51
06/13/2015	14:03:58.496	$GPGGA,140359,2418.4930,N,08101.7408,W,1,9,1.6,18,M,,M,,*5F
06/13/2015	14:03:59.607	$GPGGA,140400,2418.4939,N,08101.7420,W,1,9,1.6,18,M,,M,,*57
06/13/2015	14:04:00.507	$GPGGA,140401,2418.4948,N,08101.7428,W,1,9,1.6,18,M,,M,,*58
06/13/2015	14:04:01.507	$GPGGA,140402,2418.4959,N,08101.7436,W,1,9,1.6,18,M,,M,,*54
06/13/2015	14:04:02.487	$GPGGA,140403,2418.4969,N,08101.7446,W,1,9,1.6,18,M,,M,,*51
06/13/2015	14:04:03.497	$GPGGA,140404,2418.4979,N,08101.7456,W,1,9,1.6,18,M,,M,,*56
06/13/2015	14:04:04.487	$GPGGA,140405,2418.4987,N,08101.7464,W,1,9,1.6,18,M,,M,,*57
06/13/2015	14:04:05.628	$GPGGA,140406,2418.4998,N,08101.7473,W,1,9,1.6,18,M,,M,,*5C
06/13/2015	14:04:06.577	$GPGGA,140407,2418.5008,N,08101.7482,W,1,9,1.6,18,M,,M,,*52
06/13/2015	14:04:07.477	$GPGGA,140408,2418.5018,N,08101.7493,W,1,9,1.6,18,M,,M,,*5C
06/13/2015	14:04:08.567	$GPGGA,140409,2418.5027,N,08101.7503,W,1,9,1.6,18,M,,M,,*59
06/13/2015	14:04:09.477	$GPGGA,140410,2418.5037,N,08101.7511,W,1,9,1.6,18,M,,M,,*53
06/13/2015	14:04:10.477	$GPGGA,140411,2418.5047,N,08101.7519,W,1,9,1.6,18,M,,M,,*5D
06/13/2015	14:04:11.606	$GPGGA,140412,2418.5056,N,08101.7529,W,1,9,1.6,18,M,,M,,*5D
06/13/2015	14:04:12.576	$GPGGA,140413,2418.5066,N,08101.7537,W,1,9,1.6,18,M,,M,,*50
06/13/2015	14:04:13.576	$GPGGA,140414,2418.5074,N,08101.7548,W,1,9,1.6,18,M,,M,,*5C
06/13/2015	14:04:14.566	$GPGGA,140415,2418.5085,N,08101.7558,W,1,9,1.6,18,M,,M,,*52
06/13/2015	14:04:15.596	$GPGGA,140416,2418.5095,N,08101.7566,W,1,9,1.6,18,M,,M,,*5D
06/13/2015	14:04:16.567	$GPGGA,140417,2418.5103,N,08101.7576,W,1,9,1.6,18,M,,M,,*53
06/13/2015	14:04:17.577	$GPGGA,140418,2418.5112,N,08101.7585,W,1,9,1.6,18,M,,M,,*50
06/13/2015	14:04:18.557	$GPGGA,140419,2418.5123,N,08101.7594,W,1,9,1.6,18,M,,M,,*53
06/13/2015	14:04:20.057	$GPGGA,140420,2418.5134,N,08101.7602,W,1,9,1.6,18,M,,M,,*53
06/13/2015	14:04:20.557	$GPGGA,140421,2418.5143,N,08101.7612,W,1,9,1.6,18,M,,M,,*53
06/13/2015	14:04:21.607	$GPGGA,140422,2418.5152,N,08101.7624,W,1,9,1.6,18,M,,M,,*55
06/13/2015	14:04:22.547	$GPGGA,140423,2418.5161,N,08101.7634,W,1,9,1.6,18,M,,M,,*55
06/13/2015	14:04:23.577	$GPGGA,140424,2418.5172,N,08101.7641,W,1,9,1.6,18,M,,M,,*52
06/13/2015	14:04:24.547	$GPGGA,140425,2418.5179,N,08101.7650,W,1,9,1.6,18,M,,M,,*58
06/13/2015	14:04:25.537	$GPGGA,140426,2418.5188,N,08101.7659,W,1,9,1.6,18,M,,M,,*5C
06/13/2015	14:04:26.547	$GPGGA,140427,2418.5199,N,08101.7667,W,1,9,1.6,18,M,,M,,*50
06/13/2015	14:04:27.587	$GPGGA,140428,2418.5208,N,08101.7677,W,1,9,1.6,18,M,,M,,*55
06/13/2015	14:04:28.536	$GPGGA,140429,2418.5218,N,08101.7689,W,1,9,1.6,18,M,,M,,*54
06/13/2015	14:04:29.531	$GPGGA,140430,2418.5228,N,08101.7699,W,1,9,1.6,18,M,,M,,*5E
06/13/2015	14:04:30.536	$GPGGA,140431,2418.5237,N,08101.7709,W,1,9,1.6,18,M,,M,,*59
06/13/2015	14:04:31.576	$GPGGA,140432,2418.5244,N,08101.7717,W,1,9,1.6,18,M,,M,,*51
06/13/2015	14:04:32.536	$GPGGA,140433,2418.5254,N,08101.7724,W,1,9,1.6,18,M,,M,,*51
06/13/2015	14:04:33.536	$GPGGA,140434,2418.5262,N,08101.7732,W,1,9,1.6,18,M,,M,,*54
06/13/2015	14:04:34.527	$GPGGA,140435,2418.5272,N,08101.7742,W,1,9,1.6,18,M,,M,,*53
06/13/2015	14:04:35.567	$GPGGA,140436,2418.5282,N,08101.7751,W,1,9,1.6,18,M,,M,,*5D
06/13/2015	14:04:36.528	$GPGGA,140437,2418.5291,N,08101.7762,W,1,9,1.6,18,M,,M,,*5E
06/13/2015	14:04:37.547	$GPGGA,140438,2418.5302,N,08101.7774,W,1,9,1.6,18,M,,M,,*5D
06/13/2015	14:04:38.797	$GPGGA,140439,2418.5312,N,08101.7782,W,1,9,1.6,18,M,,M,,*54
06/13/2015	14:04:39.567	$GPGGA,140440,2418.5320,N,08101.7790,W,1,9,1.6,18,M,,M,,*58
06/13/2015	14:04:40.507	$GPGGA,140441,2418.5327,N,08101.7797,W,1,9,1.6,18,M,,M,,*59
06/13/2015	14:04:41.542	$GPGGA,140442,2418.5338,N,08101.7803,W,1,9,1.6,18,M,,M,,*56
06/13/2015	14:04:42.507	$GPGGA,140443,2418.5347,N,08101.7812,W,1,9,1.6,18,M,,M,,*5F
06/13/2015	14:04:43.547	$GPGGA,140444,2418.5355,N,08101.7825,W,1,9,1.6,18,M,,M,,*5F
06/13/2015	14:04:44.617	$GPGGA,140445,2418.5366,N,08101.7836,W,1,9,1.6,18,M,,M,,*5C
06/13/2015	14:04:45.527	$GPGGA,140446,2418.5377,N,08101.7844,W,1,9,1.6,18,M,,M,,*5A
06/13/2015	14:04:46.596	$GPGGA,140447,2418.5385,N,08101.7854,W,1,9,1.6,18,M,,M,,*57
06/13/2015	14:04:47.527	$GPGGA,140448,2418.5392,N,08101.7865,W,1,9,1.6,18,M,,M,,*5C
06/13/2015	14:04:48.523	$GPGGA,140449,2418.5403,N,08101.7872,W,1,9,1.6,18,M,,M,,*54
06/13/2015	14:04:49.586	$GPGGA,140450,2418.5413,N,08101.7879,W,1,9,1.6,18,M,,M,,*56
06/13/2015	14:04:50.506	$GPGGA,140451,2418.5421,N,08101.7887,W,1,9,1.6,18,M,,M,,*57
06/13/2015	14:04:51.617	$GPGGA,140452,2418.5431,N,08101.7897,W,1,9,1.6,18,M,,M,,*54
06/13/2015	14:04:52.587	$GPGGA,140453,2418.5439,N,08101.7908,W,1,9,1.6,18,M,,M,,*5A
06/13/2015	14:04:53.507	$GPGGA,140454,2418.5449,N,08101.7919,W,1,9,1.6,18,M,,M,,*5A
06/13/2015	14:04:54.597	$GPGGA,140455,2418.5461,N,08101.7926,W,1,9,1.6,18,M,,M,,*5D
06/13/2015	14:04:55.607	$GPGGA,140456,2418.5471,N,08101.7935,W,1,9,1.6,18,M,,M,,*5D
06/13/2015	14:04:56.577	$GPGGA,140457,2418.5479,N,08101.7944,W,1,9,1.6,18,M,,M,,*52
06/13/2015	14:04:57.627	$GPGGA,140458,2418.5489,N,08101.7952,W,1,9,1.6,18,M,,M,,*55
06/13/2015	14:04:58.487	$GPGGA,140459,2418.5499,N,08101.7959,W,1,9,1.6,18,M,,M,,*5E
06/13/2015	14:05:00.067	$GPGGA,140500,2418.5508,N,08101.7969,W,1,9,1.6,17,M,,M,,*56
06/13/2015	14:05:00.567	$GPGGA,140501,2418.5518,N,08101.7977,W,1,9,1.6,17,M,,M,,*59
06/13/2015	14:05:01.567	$GPGGA,140502,2418.5529,N,08101.7986,W,1,9,1.6,17,M,,M,,*56
06/13/2015	14:05:02.567	$GPGGA,140503,2418.5539,N,08101.7995,W,1,9,1.6,17,M,,M,,*54
06/13/2015	14:05:03.566	$GPGGA,140504,2418.5549,N,08101.8004,W,1,9,1.6,17,M,,M,,*5A
06/13/2015	14:05:04.556	$GPGGA,140505,2418.5558,N,08101.8013,W,1,9,1.6,17,M,,M,,*5D
06/13/2015	14:05:05.556	$GPGGA,140506,2418.5569,N,08101.8018,W,1,9,1.6,17,M,,M,,*57
06/13/2015	14:05:06.556	$GPGGA,140507,2418.5580,N,08101.8027,W,1,9,1.6,17,M,,M,,*5D
06/13/2015	14:05:07.586	$GPGGA,140508,2418.5589,N,08101.8036,W,1,9,1.6,17,M,,M,,*5B
06/13/2015	14:05:08.556	$GPGGA,140509,2418.5600,N,08101.8046,W,1,9,1.6,17,M,,M,,*5F
06/13/2015	14:05:09.547	$GPGGA,140510,2418.5612,N,08101.8053,W,1,9,1.6,17,M,,M,,*50
06/13/2015	14:05:10.547	$GPGGA,140511,2418.5622,N,08101.8063,W,1,9,1.6,17,M,,M,,*51
06/13/2015	14:05:11.587	$GPGGA,140512,2418.5631,N,08101.8071,W,1,9,1.6,17,M,,M,,*53
06/13/2015	14:05:12.547	$GPGGA,140513,2418.5643,N,08101.8079,W,1,9,1.6,17,M,,M,,*5F
06/13/2015	14:05:13.557	$GPGGA,140514,2418.5654,N,08101.8089,W,1,9,1.6,17,M,,M,,*51
06/13/2015	14:05:14.537	$GPGGA,140515,2418.5663,N,08101.8097,W,1,9,1.6,17,M,,M,,*5B
06/13/2015	14:05:15.567	$GPGGA,140516,2418.5674,N,08101.8105,W,1,9,1.6,17,M,,M,,*54
06/13/2015	14:05:16.537	$GPGGA,140517,2418.5685,N,08101.8114,W,1,9,1.6,17,M,,M,,*5B
06/13/2015	14:05:17.567	$GPGGA,140518,2418.5695,N,08101.8125,W,1,9,1.6,17,M,,M,,*57
06/13/2015	14:05:18.547	$GPGGA,140519,2418.5706,N,08101.8133,W,1,9,1.6,17,M,,M,,*5A
06/13/2015	14:05:19.547	$GPGGA,140520,2418.5717,N,08101.8143,W,1,9,1.6,17,M,,M,,*57
06/13/2015	14:05:20.527	$GPGGA,140521,2418.5727,N,08101.8152,W,1,9,1.6,17,M,,M,,*55
06/13/2015	14:05:21.526	$GPGGA,140522,2418.5737,N,08101.8161,W,1,9,1.6,17,M,,M,,*57
06/13/2015	14:05:22.527	$GPGGA,140523,2418.5748,N,08101.8170,W,1,9,1.6,17,M,,M,,*5E
06/13/2015	14:05:23.556	$GPGGA,140524,2418.5757,N,08101.8179,W,1,9,1.6,17,M,,M,,*5E
06/13/2015	14:05:24.526	$GPGGA,140525,2418.5768,N,08101.8188,W,1,9,1.6,17,M,,M,,*5D
06/13/2015	14:05:25.546	$GPGGA,140526,2418.5778,N,08101.8197,W,1,9,1.6,16,M,,M,,*50
06/13/2015	14:05:26.527	$GPGGA,140527,2418.5788,N,08101.8208,W,1,9,1.6,16,M,,M,,*5B
06/13/2015	14:05:27.547	$GPGGA,140528,2418.5797,N,08101.8217,W,1,9,1.6,16,M,,M,,*54
06/13/2015	14:05:28.628	$GPGGA,140529,2418.5808,N,08101.8226,W,1,9,1.6,16,M,,M,,*5E
06/13/2015	14:05:29.507	$GPGGA,140530,2418.5818,N,08101.8237,W,1,9,1.6,16,M,,M,,*57
06/13/2015	14:05:30.517	$GPGGA,140531,2418.5829,N,08101.8246,W,1,9,1.6,16,M,,M,,*52
06/13/2015	14:05:31.557	$GPGGA,140532,2418.5839,N,08101.8255,W,1,9,1.6,16,M,,M,,*52
06/13/2015	14:05:32.620	$GPGGA,140533,2418.5847,N,08101.8263,W,1,9,1.6,16,M,,M,,*5F
06/13/2015	14:05:33.620	$GPGGA,140534,2418.5858,N,08101.8273,W,1,9,1.6,16,M,,M,,*57
06/13/2015	14:05:34.497	$GPGGA,140535,2418.5868,N,08101.8282,W,1,9,1.6,16,M,,M,,*5B
06/13/2015	14:05:36.527	$GPGGA,140537,2418.5890,N,08101.8305,W,1,9,1.6,16,M,,M,,*50
06/13/2015	14:05:37.507	$GPGGA,140538,2418.5900,N,08101.8316,W,1,9,1.6,16,M,,M,,*55
06/13/2015	14:05:38.586	$GPGGA,140539,2418.5909,N,08101.8325,W,1,9,1.6,16,M,,M,,*5D
06/13/2015	14:05:39.619	$GPGGA,140540,2418.5919,N,08101.8332,W,1,9,1.6,16,M,,M,,*54
06/13/2015	14:05:40.496	$GPGGA,140541,2418.5929,N,08101.8340,W,1,9,1.6,16,M,,M,,*53
06/13/2015	14:05:41.496	$GPGGA,140542,2418.5937,N,08101.8350,W,1,9,1.6,16,M,,M,,*5E
06/13/2015	14:05:42.576	$GPGGA,140543,2418.5947,N,08101.8360,W,1,9,1.6,16,M,,M,,*5B
06/13/2015	14:05:43.497	$GPGGA,140544,2418.5959,N,08101.8371,W,1,9,1.6,16,M,,M,,*53
06/13/2015	14:05:44.477	$GPGGA,140545,2418.5967,N,08101.8381,W,1,9,1.6,16,M,,M,,*50
06/13/2015	14:05:45.477	$GPGGA,140546,2418.5977,N,08101.8392,W,1,9,1.6,16,M,,M,,*50
06/13/2015	14:05:46.487	$GPGGA,140547,2418.5988,N,08101.8400,W,1,9,1.6,16,M,,M,,*5D
06/13/2015	14:05:47.607	$GPGGA,140548,2418.5999,N,08101.8408,W,1,9,1.6,16,M,,M,,*5A
06/13/2015	14:05:48.557	$GPGGA,140549,2418.6006,N,08101.8418,W,1,9,1.6,16,M,,M,,*56
06/13/2015	14:05:49.587	$GPGGA,140550,2418.6017,N,08101.8426,W,1,9,1.6,16,M,,M,,*53
06/13/2015	14:05:50.557	$GPGGA,140551,2418.6028,N,08101.8434,W,1,9,1.6,16,M,,M,,*5D
06/13/2015	14:05:51.577	$GPGGA,140552,2418.6037,N,08101.8444,W,1,9,1.6,16,M,,M,,*57
06/13/2015	14:05:52.557	$GPGGA,140553,2418.6045,N,08101.8455,W,1,9,1.6,16,M,,M,,*53
06/13/2015	14:05:53.577	$GPGGA,140554,2418.6057,N,08101.8465,W,1,9,1.6,16,M,,M,,*54
06/13/2015	14:05:54.547	$GPGGA,140555,2418.6070,N,08101.8472,W,1,9,1.6,16,M,,M,,*56
06/13/2015	14:05:55.567	$GPGGA,140556,2418.6077,N,08101.8483,W,1,9,1.6,16,M,,M,,*5C
06/13/2015	14:05:56.546	$GPGGA,140557,2418.6085,N,08101.8493,W,1,9,1.6,16,M,,M,,*51
06/13/2015	14:05:57.566	$GPGGA,140558,2418.6096,N,08101.8499,W,1,9,1.6,16,M,,M,,*56
06/13/2015	14:05:58.546	$GPGGA,140559,2418.6107,N,08101.8508,W,1,9,1.6,16,M,,M,,*57
06/13/2015	14:05:59.586	$GPGGA,140600,2418.6115,N,08101.8519,W,1,9,1.6,16,M,,M,,*5B
06/13/2015	14:06:00.556	$GPGGA,140601,2418.6125,N,08101.8530,W,1,9,1.6,16,M,,M,,*52
06/13/2015	14:06:01.557	$GPGGA,140602,2418.6136,N,08101.8537,W,1,9,1.6,16,M,,M,,*54
06/13/2015	14:06:02.547	$GPGGA,140603,2418.6147,N,08101.8548,W,1,9,1.6,16,M,,M,,*5B
06/13/2015	14:06:03.547	$GPGGA,140604,2418.6156,N,08101.8558,W,1,9,1.6,16,M,,M,,*5D
06/13/2015	14:06:04.537	$GPGGA,140605,2418.6165,N,08101.8566,W,1,9,1.6,16,M,,M,,*51
06/13/2015	14:06:05.528	$GPGGA,140606,2418.6176,N,08101.8576,W,1,9,1.6,16,M,,M,,*51
06/13/2015	14:06:06.537	$GPGGA,140607,2418.6186,N,08101.8584,W,1,9,1.6,16,M,,M,,*52
06/13/2015	14:06:07.567	$GPGGA,140608,2418.6194,N,08101.8595,W,1,9,1.6,16,M,,M,,*5E
06/13/2015	14:06:08.539	$GPGGA,140609,2418.6205,N,08101.8605,W,1,9,1.6,16,M,,M,,*5E
06/13/2015	14:06:09.547	$GPGGA,140610,2418.6216,N,08101.8613,W,1,9,1.6,16,M,,M,,*53
06/13/2015	14:06:10.525	$GPGGA,140611,2418.6225,N,08101.8624,W,1,9,1.6,16,M,,M,,*56
06/13/2015	14:06:11.529	$GPGGA,140612,2418.6234,N,08101.8631,W,1,9,1.6,16,M,,M,,*51
06/13/2015	14:06:12.519	$GPGGA,140613,2418.6245,N,08101.8639,W,1,9,1.6,16,M,,M,,*5E
06/13/2015	14:06:13.546	$GPGGA,140614,2418.6255,N,08101.8649,W,1,9,1.6,16,M,,M,,*5F
06/13/2015	14:06:14.519	$GPGGA,140615,2418.6266,N,08101.8661,W,1,9,1.6,16,M,,M,,*54
06/13/2015	14:06:15.530	$GPGGA,140616,2418.6277,N,08101.8671,W,1,9,1.6,16,M,,M,,*56
06/13/2015	14:06:16.520	$GPGGA,140617,2418.6288,N,08101.8681,W,1,9,1.6,16,M,,M,,*58
06/13/2015	14:06:18.629	$GPGGA,140619,2418.6306,N,08101.8697,W,1,9,1.6,16,M,,M,,*56
06/13/2015	14:06:19.538	$GPGGA,140620,2418.6315,N,08101.8708,W,1,9,1.6,16,M,,M,,*59
06/13/2015	14:06:20.487	$GPGGA,140621,2418.6326,N,08101.8717,W,1,9,1.6,16,M,,M,,*56
06/13/2015	14:06:21.507	$GPGGA,140622,2418.6338,N,08101.8726,W,1,9,1.6,16,M,,M,,*58
06/13/2015	14:06:22.588	$GPGGA,140623,2418.6348,N,08101.8737,W,1,9,1.7,16,M,,M,,*5F
06/13/2015	14:06:23.497	$GPGGA,140624,2418.6357,N,08101.8747,W,1,9,1.7,16,M,,M,,*51
06/13/2015	14:06:24.587	$GPGGA,140625,2418.6367,N,08101.8757,W,1,9,1.7,16,M,,M,,*52
06/13/2015	14:06:25.507	$GPGGA,140626,2418.6377,N,08101.8765,W,1,9,1.7,16,M,,M,,*51
06/13/2015	14:06:26.577	$GPGGA,140627,2418.6385,N,08101.8775,W,1,9,1.7,16,M,,M,,*5C
06/13/2015	14:06:27.487	$GPGGA,140628,2418.6396,N,08101.8783,W,1,9,1.7,16,M,,M,,*58
06/13/2015	14:06:28.577	$GPGGA,140629,2418.6406,N,08101.8791,W,1,9,1.7,16,M,,M,,*54
06/13/2015	14:06:29.587	$GPGGA,140630,2418.6415,N,08101.8801,W,1,9,1.7,16,M,,M,,*58
06/13/2015	14:06:30.487	$GPGGA,140631,2418.6425,N,08101.8813,W,1,9,1.7,16,M,,M,,*59
06/13/2015	14:06:31.620	$GPGGA,140632,2418.6436,N,08101.8822,W,1,9,1.7,16,M,,M,,*5A
06/13/2015	14:06:32.576	$GPGGA,140633,2418.6447,N,08101.8830,W,1,9,1.7,16,M,,M,,*5E
06/13/2015	14:06:33.596	$GPGGA,140634,2418.6457,N,08101.8841,W,1,9,1.7,16,M,,M,,*5E
06/13/2015	14:06:34.556	$GPGGA,140635,2418.6465,N,08101.8851,W,1,9,1.7,16,M,,M,,*5F
06/13/2015	14:06:35.586	$GPGGA,140636,2418.6476,N,08101.8858,W,1,9,1.7,16,M,,M,,*57
06/13/2015	14:06:36.557	$GPGGA,140637,2418.6487,N,08101.8866,W,1,9,1.7,16,M,,M,,*55
06/13/2015	14:06:37.577	$GPGGA,140638,2418.6494,N,08101.8877,W,1,9,1.7,16,M,,M,,*58
06/13/2015	14:06:38.557	$GPGGA,140639,2418.6505,N,08101.8885,W,1,9,1.7,16,M,,M,,*5D
06/13/2015	14:06:39.597	$GPGGA,140640,2418.6516,N,08101.8894,W,1,9,1.7,16,M,,M,,*51
06/13/2015	14:06:40.557	$GPGGA,140641,2418.6525,N,08101.8905,W,1,9,1.7,16,M,,M,,*59
06/13/2015	14:06:41.577	$GPGGA,140642,2418.6536,N,08101.8913,W,1,9,1.7,16,M,,M,,*5F
06/13/2015	14:06:42.557	$GPGGA,140643,2418.6547,N,08101.8920,W,1,9,1.7,16,M,,M,,*58
06/13/2015	14:06:43.567	$GPGGA,140644,2418.6557,N,08101.8931,W,1,9,1.7,16,M,,M,,*5E
06/13/2015	14:06:44.557	$GPGGA,140645,2418.6566,N,08101.8939,W,1,9,1.7,16,M,,M,,*55
06/13/2015	14:06:45.577	$GPGGA,140646,2418.6577,N,08101.8946,W,1,9,1.7,16,M,,M,,*5E
06/13/2015	14:06:46.547	$GPGGA,140647,2418.6587,N,08101.8956,W,1,9,1.7,16,M,,M,,*51
06/13/2015	14:06:47.577	$GPGGA,140648,2418.6595,N,08101.8965,W,1,9,1.7,16,M,,M,,*5D
06/13/2015	14:06:48.546	$GPGGA,140649,2418.6606,N,08101.8974,W,1,9,1.7,16,M,,M,,*55
06/13/2015	14:06:49.534	$GPGGA,140650,2418.6617,N,08101.8983,W,1,9,1.7,16,M,,M,,*55
06/13/2015	14:06:50.536	$GPGGA,140651,2418.6628,N,08101.8993,W,1,9,1.7,16,M,,M,,*59
06/13/2015	14:06:51.567	$GPGGA,140652,2418.6638,N,08101.9003,W,1,9,1.7,16,M,,M,,*5A
06/13/2015	14:06:52.536	$GPGGA,140653,2418.6648,N,08101.9012,W,1,9,1.7,16,M,,M,,*5C
06/13/2015	14:06:53.556	$GPGGA,140654,2418.6659,N,08101.9021,W,1,9,1.7,16,M,,M,,*5B
06/13/2015	14:06:54.537	$GPGGA,140655,2418.6667,N,08101.9030,W,1,9,1.7,16,M,,M,,*57
06/13/2015	14:06:55.567	$GPGGA,140656,2418.6677,N,08101.9039,W,1,9,1.7,16,M,,M,,*5C
06/13/2015	14:06:56.519	$GPGGA,140657,2418.6688,N,08101.9047,W,1,9,1.7,16,M,,M,,*54
06/13/2015	14:06:57.522	$GPGGA,140658,2418.6696,N,08101.9057,W,1,9,1.7,16,M,,M,,*55
06/13/2015	14:06:58.527	$GPGGA,140659,2418.6706,N,08101.9068,W,1,9,1.7,16,M,,M,,*50
06/13/2015	14:06:59.537	$GPGGA,140700,2418.6717,N,08101.9076,W,1,9,1.7,16,M,,M,,*52
06/13/2015	14:07:00.537	$GPGGA,140701,2418.6727,N,08101.9086,W,1,9,1.7,16,M,,M,,*5F
06/13/2015	14:07:01.537	$GPGGA,140702,2418.6736,N,08101.9094,W,1,9,1.7,16,M,,M,,*5F
06/13/2015	14:07:02.507	$GPGGA,140703,2418.6746,N,08101.9104,W,1,9,1.7,16,M,,M,,*51
06/13/2015	14:07:03.519	$GPGGA,140704,2418.6754,N,08101.9112,W,1,9,1.7,16,M,,M,,*52
06/13/2015	14:07:04.510	$GPGGA,140705,2418.6763,N,08101.9122,W,1,9,1.7,16,M,,M,,*54
06/13/2015	14:07:05.487	$GPGGA,140706,2418.6774,N,08101.9131,W,1,9,1.7,16,M,,M,,*53
06/13/2015	14:07:06.506	$GPGGA,140707,2418.6785,N,08101.9140,W,1,9,1.7,16,M,,M,,*5A
06/13/2015	14:07:07.509	$GPGGA,140708,2418.6794,N,08101.9151,W,1,9,1.7,16,M,,M,,*55
06/13/2015	14:07:08.586	$GPGGA,140709,2418.6803,N,08101.9162,W,1,9,1.7,16,M,,M,,*55
06/13/2015	14:07:09.508	$GPGGA,140710,2418.6815,N,08101.9169,W,1,9,1.7,16,M,,M,,*51
06/13/2015	14:07:10.487	$GPGGA,140711,2418.6825,N,08101.9177,W,1,9,1.7,16,M,,M,,*5C
06/13/2015	14:07:11.521	$GPGGA,140712,2418.6833,N,08101.9187,W,1,9,1.7,16,M,,M,,*57
06/13/2015	14:07:12.487	$GPGGA,140713,2418.6841,N,08101.9196,W,1,9,1.7,16,M,,M,,*53
06/13/2015	14:07:13.486	$GPGGA,140714,2418.6852,N,08101.9205,W,1,9,1.7,16,M,,M,,*5F
06/13/2015	14:07:14.576	$GPGGA,140715,2418.6862,N,08101.9214,W,1,9,1.7,16,M,,M,,*5D
06/13/2015	14:07:15.656	$GPGGA,140716,2418.6873,N,08101.9224,W,1,9,1.7,16,M,,M,,*5D
06/13/2015	14:07:16.576	$GPGGA,140717,2418.6884,N,08101.9234,W,1,9,1.7,16,M,,M,,*55
06/13/2015	14:07:17.616	$GPGGA,140718,2418.6894,N,08101.9245,W,1,9,1.7,16,M,,M,,*5D
06/13/2015	14:07:18.556	$GPGGA,140719,2418.6904,N,08101.9254,W,1,9,1.7,16,M,,M,,*54
06/13/2015	14:07:19.646	$GPGGA,140720,2418.6913,N,08101.9263,W,1,9,1.7,16,M,,M,,*5C
06/13/2015	14:07:20.636	$GPGGA,140721,2418.6924,N,08101.9271,W,1,9,1.7,16,M,,M,,*5A
06/13/2015	14:07:21.596	$GPGGA,140722,2418.6931,N,08101.9281,W,1,9,1.7,16,M,,M,,*52
06/13/2015	14:07:22.627	$GPGGA,140723,2418.6942,N,08101.9290,W,1,9,1.7,16,M,,M,,*57
06/13/2015	14:07:23.556	$GPGGA,140724,2418.6953,N,08101.9299,W,1,9,1.7,16,M,,M,,*59
06/13/2015	14:07:24.546	$GPGGA,140725,2418.6963,N,08101.9311,W,1,9,1.7,16,M,,M,,*5A
06/13/2015	14:07:25.600	$GPGGA,140726,2418.6973,N,08101.9321,W,1,9,1.7,16,M,,M,,*5B
06/13/2015	14:07:26.596	$GPGGA,140727,2418.6984,N,08101.9331,W,1,9,1.7,16,M,,M,,*53
06/13/2015	14:07:27.636	$GPGGA,140728,2418.6993,N,08101.9339,W,1,9,1.7,16,M,,M,,*52
06/13/2015	14:07:28.586	$GPGGA,140729,2418.7002,N,08101.9348,W,1,9,1.7,16,M,,M,,*55
06/13/2015	14:07:29.586	$GPGGA,140730,2418.7011,N,08101.9358,W,1,9,1.7,16,M,,M,,*5E
06/13/2015	14:07:30.596	$GPGGA,140731,2418.7023,N,08101.9368,W,1,9,1.7,16,M,,M,,*5D
06/13/2015	14:07:31.586	$GPGGA,140732,2418.7032,N,08101.9376,W,1,9,1.7,16,M,,M,,*51
06/13/2015	14:07:32.526	$GPGGA,140733,2418.7042,N,08101.9387,W,1,9,1.7,16,M,,M,,*59
06/13/2015	14:07:33.596	$GPGGA,140734,2418.7052,N,08101.9397,W,1,9,1.7,16,M,,M,,*5E
06/13/2015	14:07:34.536	$GPGGA,140735,2418.7063,N,08101.9405,W,1,9,1.7,16,M,,M,,*51
06/13/2015	14:07:35.636	$GPGGA,140736,2418.7074,N,08101.9415,W,1,9,1.7,16,M,,M,,*55
06/13/2015	14:07:36.586	$GPGGA,140737,2418.7083,N,08101.9425,W,1,9,1.7,16,M,,M,,*5F
06/13/2015	14:07:37.556	$GPGGA,140738,2418.7092,N,08101.9434,W,1,9,1.7,16,M,,M,,*50
06/13/2015	14:07:38.596	$GPGGA,140739,2418.7101,N,08101.9443,W,1,9,1.7,16,M,,M,,*5A
06/13/2015	14:07:39.577	$GPGGA,140740,2418.7112,N,08101.9451,W,1,9,1.7,16,M,,M,,*55
06/13/2015	14:07:40.577	$GPGGA,140741,2418.7121,N,08101.9462,W,1,9,1.7,16,M,,M,,*54
06/13/2015	14:07:41.566	$GPGGA,140742,2418.7130,N,08101.9470,W,1,9,1.7,16,M,,M,,*54
06/13/2015	14:07:42.576	$GPGGA,140743,2418.7143,N,08101.9480,W,1,9,1.7,16,M,,M,,*5E
06/13/2015	14:07:43.611	$GPGGA,140744,2418.7152,N,08101.9490,W,1,9,1.7,16,M,,M,,*58
06/13/2015	14:07:44.626	$GPGGA,140745,2418.7162,N,08101.9499,W,1,9,1.7,16,M,,M,,*53
06/13/2015	14:07:45.526	$GPGGA,140746,2418.7172,N,08101.9509,W,1,9,1.9,16,M,,M,,*57
06/13/2015	14:07:46.556	$GPGGA,140747,2418.7180,N,08101.9517,W,1,9,1.9,16,M,,M,,*54
06/13/2015	14:07:47.586	$GPGGA,140748,2418.7190,N,08101.9527,W,1,9,1.7,16,M,,M,,*57
06/13/2015	14:07:48.496	$GPGGA,140749,2418.7199,N,08101.9535,W,1,9,1.7,16,M,,M,,*5C
06/13/2015	14:07:49.536	$GPGGA,140750,2418.7209,N,08101.9548,W,1,8,1.7,16,M,,M,,*55
06/13/2015	14:07:50.496	$GPGGA,140751,2418.7220,N,08101.9559,W,1,8,1.7,16,M,,M,,*5F
06/13/2015	14:07:51.566	$GPGGA,140752,2418.7233,N,08101.9570,W,1,9,1.7,16,M,,M,,*54
06/13/2015	14:07:53.019	$GPGGA,140753,2418.7242,N,08101.9581,W,1,9,1.7,16,M,,M,,*5D
06/13/2015	14:07:53.526	$GPGGA,140754,2418.7253,N,08101.9592,W,1,9,1.7,16,M,,M,,*58
06/13/2015	14:07:54.556	$GPGGA,140755,2418.7262,N,08101.9602,W,1,9,1.7,16,M,,M,,*51
06/13/2015	14:07:55.566	$GPGGA,140756,2418.7273,N,08101.9610,W,1,9,1.7,16,M,,M,,*51
06/13/2015	14:07:56.576	$GPGGA,140757,2418.7282,N,08101.9618,W,1,9,1.7,16,M,,M,,*56
06/13/2015	14:07:57.513	$GPGGA,140758,2418.7292,N,08101.9628,W,1,9,1.7,17,M,,M,,*5A
06/13/2015	14:07:58.546	$GPGGA,140759,2418.7303,N,08101.9639,W,1,9,1.7,17,M,,M,,*52
06/13/2015	14:07:59.626	$GPGGA,140800,2418.7314,N,08101.9649,W,1,9,1.7,17,M,,M,,*50
06/13/2015	14:08:00.596	$GPGGA,140801,2418.7324,N,08101.9660,W,1,9,1.7,17,M,,M,,*59
06/13/2015	14:08:01.607	$GPGGA,140802,2418.7332,N,08101.9671,W,1,9,1.7,17,M,,M,,*5D
06/13/2015	14:08:02.536	$GPGGA,140803,2418.7342,N,08101.9679,W,1,9,1.7,17,M,,M,,*53
06/13/2015	14:08:03.621	$GPGGA,140804,2418.7352,N,08101.9687,W,1,9,1.7,17,M,,M,,*54
06/13/2015	14:08:04.576	$GPGGA,140805,2418.7361,N,08101.9697,W,1,9,1.7,17,M,,M,,*54
06/13/2015	14:08:05.566	$GPGGA,140806,2418.7370,N,08101.9707,W,1,9,1.7,17,M,,M,,*5F
06/13/2015	14:08:06.566	$GPGGA,140807,2418.7379,N,08101.9718,W,1,9,1.7,17,M,,M,,*59
06/13/2015	14:08:07.576	$GPGGA,140808,2418.7390,N,08101.9729,W,1,9,1.7,17,M,,M,,*53
06/13/2015	14:08:08.566	$GPGGA,140809,2418.7401,N,08101.9740,W,1,9,1.7,17,M,,M,,*52
06/13/2015	14:08:09.556	$GPGGA,140810,2418.7408,N,08101.9749,W,1,9,1.7,17,M,,M,,*5A
06/13/2015	14:08:10.566	$GPGGA,140811,2418.7418,N,08101.9759,W,1,9,1.7,18,M,,M,,*54
06/13/2015	14:08:11.576	$GPGGA,140812,2418.7428,N,08101.9767,W,1,9,1.7,18,M,,M,,*59
06/13/2015	14:08:12.576	$GPGGA,140813,2418.7437,N,08101.9776,W,1,9,1.7,18,M,,M,,*56
06/13/2015	14:08:13.566	$GPGGA,140814,2418.7447,N,08101.9785,W,1,9,1.7,18,M,,M,,*5A
06/13/2015	14:08:14.547	$GPGGA,140815,2418.7455,N,08101.9795,W,1,9,1.7,18,M,,M,,*59
06/13/2015	14:08:15.597	$GPGGA,140816,2418.7466,N,08101.9805,W,1,9,1.7,18,M,,M,,*5C
06/13/2015	14:08:16.556	$GPGGA,140817,2418.7476,N,08101.9813,W,1,9,1.7,18,M,,M,,*5B
06/13/2015	14:08:17.546	$GPGGA,140818,2418.7486,N,08101.9823,W,1,9,1.7,18,M,,M,,*58
06/13/2015	14:08:18.546	$GPGGA,140819,2418.7495,N,08101.9831,W,1,9,1.7,18,M,,M,,*58
06/13/2015	14:08:19.566	$GPGGA,140820,2418.7504,N,08101.9841,W,1,9,1.7,18,M,,M,,*5C
06/13/2015	14:08:20.536	$GPGGA,140821,2418.7515,N,08101.9850,W,1,9,1.7,18,M,,M,,*5D
06/13/2015	14:08:21.546	$GPGGA,140822,2418.7526,N,08101.9859,W,1,9,1.7,18,M,,M,,*57
06/13/2015	14:08:22.546	$GPGGA,140823,2418.7534,N,08101.9868,W,1,9,1.7,18,M,,M,,*57
06/13/2015	14:08:23.556	$GPGGA,140824,2418.7542,N,08101.9878,W,1,9,1.7,18,M,,M,,*50
06/13/2015	14:08:24.566	$GPGGA,140825,2418.7553,N,08101.9886,W,1,9,1.7,18,M,,M,,*50
06/13/2015	14:08:25.546	$GPGGA,140826,2418.7563,N,08101.9895,W,1,9,1.7,18,M,,M,,*52
06/13/2015	14:08:26.556	$GPGGA,140827,2418.7573,N,08101.9906,W,1,9,1.7,18,M,,M,,*59
06/13/2015	14:08:27.556	$GPGGA,140828,2418.7583,N,08101.9914,W,1,9,1.7,18,M,,M,,*5A
06/13/2015	14:08:28.566	$GPGGA,140829,2418.7594,N,08101.9922,W,1,9,1.7,18,M,,M,,*58
06/13/2015	14:08:29.536	$GPGGA,140830,2418.7603,N,08101.9931,W,1,9,1.7,18,M,,M,,*5F
06/13/2015	14:08:30.536	$GPGGA,140831,2418.7613,N,08101.9942,W,1,9,1.7,18,M,,M,,*5B
06/13/2015	14:08:31.566	$GPGGA,140832,2418.7621,N,08101.9950,W,1,9,1.7,18,M,,M,,*5A
06/13/2015	14:08:32.527	$GPGGA,140833,2418.7632,N,08101.9958,W,1,9,1.7,18,M,,M,,*51
06/13/2015	14:08:33.546	$GPGGA,140834,2418.7643,N,08101.9967,W,1,9,1.7,18,M,,M,,*5C
06/13/2015	14:08:34.527	$GPGGA,140835,2418.7643,N,08101.9967,W,1,9,1.7,18,M,,M,,*5D
06/13/2015	14:08:35.536	$GPGGA,140836,2418.7661,N,08101.9986,W,1,9,1.7,18,M,,M,,*51
06/13/2015	14:08:36.518	$GPGGA,140837,2418.7661,N,08101.9986,W,1,9,1.7,18,M,,M,,*50
06/13/2015	14:08:37.606	$GPGGA,140838,2418.7683,N,08102.0004,W,1,9,1.7,18,M,,M,,*5A
06/13/2015	14:08:38.508	$GPGGA,140839,2418.7683,N,08102.0004,W,1,9,1.7,18,M,,M,,*5B
06/13/2015	14:08:39.617	$GPGGA,140840,2418.7701,N,08102.0022,W,1,9,1.7,18,M,,M,,*5A
06/13/2015	14:08:40.536	$GPGGA,140841,2418.7701,N,08102.0022,W,1,9,1.7,18,M,,M,,*5B
06/13/2015	14:08:41.507	$GPGGA,140842,2418.7722,N,08102.0038,W,1,9,1.7,18,M,,M,,*52
06/13/2015	14:08:42.521	$GPGGA,140843,2418.7722,N,08102.0038,W,1,9,1.7,18,M,,M,,*53
06/13/2015	14:08:43.508	$GPGGA,140844,2418.7740,N,08102.0058,W,1,9,1.7,18,M,,M,,*56
06/13/2015	14:08:44.576	$GPGGA,140845,2418.7751,N,08102.0069,W,1,9,1.7,18,M,,M,,*55
06/13/2015	14:08:45.586	$GPGGA,140846,2418.7762,N,08102.0076,W,1,9,1.7,18,M,,M,,*58
06/13/2015	14:08:46.586	$GPGGA,140847,2418.7773,N,08102.0085,W,1,9,1.7,18,M,,M,,*55
06/13/2015	14:08:47.622	$GPGGA,140848,2418.7782,N,08102.0095,W,1,9,1.7,18,M,,M,,*55
06/13/2015	14:08:48.566	$GPGGA,140849,2418.7791,N,08102.0105,W,1,9,1.7,18,M,,M,,*5E
06/13/2015	14:08:49.477	$GPGGA,140850,2418.7802,N,08102.0112,W,1,9,1.7,18,M,,M,,*55
06/13/2015	14:08:50.487	$GPGGA,140851,2418.7813,N,08102.0121,W,1,9,1.7,18,M,,M,,*54
06/13/2015	14:08:51.606	$GPGGA,140852,2418.7820,N,08102.0131,W,1,9,1.7,18,M,,M,,*56
06/13/2015	14:08:52.496	$GPGGA,140853,2418.7820,N,08102.0131,W,1,9,1.7,18,M,,M,,*57
06/13/2015	14:08:53.466	$GPGGA,140854,2418.7845,N,08102.0148,W,1,9,1.7,18,M,,M,,*5D
06/13/2015	14:08:54.566	$GPGGA,140855,2418.7854,N,08102.0157,W,1,9,1.7,18,M,,M,,*52
06/13/2015	14:08:55.618	$GPGGA,140856,2418.7860,N,08102.0168,W,1,9,1.7,18,M,,M,,*5A
06/13/2015	14:08:56.566	$GPGGA,140857,2418.7872,N,08102.0177,W,1,9,1.7,18,M,,M,,*56
06/13/2015	14:08:57.546	$GPGGA,140858,2418.7884,N,08102.0182,W,1,9,1.7,18,M,,M,,*5A
06/13/2015	14:08:58.546	$GPGGA,140859,2418.7892,N,08102.0191,W,1,9,1.7,18,M,,M,,*5E
06/13/2015	14:08:59.606	$GPGGA,140900,2418.7901,N,08102.0202,W,1,9,1.7,18,M,,M,,*51
06/13/2015	14:09:00.566	$GPGGA,140901,2418.7913,N,08102.0209,W,1,9,1.7,18,M,,M,,*58
06/13/2015	14:09:01.536	$GPGGA,140902,2418.7924,N,08102.0217,W,1,9,1.7,18,M,,M,,*50
06/13/2015	14:09:02.546	$GPGGA,140903,2418.7932,N,08102.0228,W,1,9,1.7,18,M,,M,,*5A
06/13/2015	14:09:03.586	$GPGGA,140904,2418.7942,N,08102.0236,W,1,9,1.7,18,M,,M,,*55
06/13/2015	14:09:04.556	$GPGGA,140905,2418.7952,N,08102.0243,W,1,9,1.7,18,M,,M,,*57
06/13/2015	14:09:05.566	$GPGGA,140906,2418.7961,N,08102.0253,W,1,9,1.7,18,M,,M,,*55
06/13/2015	14:09:06.536	$GPGGA,140907,2418.7970,N,08102.0262,W,1,9,1.7,18,M,,M,,*56
06/13/2015	14:09:07.567	$GPGGA,140908,2418.7982,N,08102.0269,W,1,9,1.7,18,M,,M,,*5F
06/13/2015	14:09:08.536	$GPGGA,140909,2418.7992,N,08102.0278,W,1,9,1.7,18,M,,M,,*5F
06/13/2015	14:09:09.528	$GPGGA,140910,2418.8000,N,08102.0289,W,1,9,1.7,18,M,,M,,*54
06/13/2015	14:09:10.536	$GPGGA,140911,2418.8010,N,08102.0297,W,1,9,1.7,18,M,,M,,*5B
06/13/2015	14:09:11.556	$GPGGA,140912,2418.8021,N,08102.0307,W,1,9,1.7,17,M,,M,,*5D
06/13/2015	14:09:12.524	$GPGGA,140913,2418.8031,N,08102.0314,W,1,9,1.7,17,M,,M,,*5F
06/13/2015	14:09:13.556	$GPGGA,140914,2418.8040,N,08102.0325,W,1,9,1.7,17,M,,M,,*5C
06/13/2015	14:09:14.526	$GPGGA,140915,2418.8050,N,08102.0332,W,1,9,1.7,17,M,,M,,*5A
06/13/2015	14:09:15.556	$GPGGA,140916,2418.8061,N,08102.0340,W,1,9,1.7,17,M,,M,,*5E
06/13/2015	14:09:16.528	$GPGGA,140917,2418.8069,N,08102.0350,W,1,9,1.7,17,M,,M,,*56
06/13/2015	14:09:17.546	$GPGGA,140918,2418.8079,N,08102.0361,W,1,9,1.7,17,M,,M,,*5A
06/13/2015	14:09:18.536	$GPGGA,140919,2418.8089,N,08102.0368,W,1,9,1.7,17,M,,M,,*5D
06/13/2015	14:09:19.556	$GPGGA,140920,2418.8100,N,08102.0377,W,1,9,1.7,17,M,,M,,*59
06/13/2015	14:09:20.520	$GPGGA,140921,2418.8109,N,08102.0387,W,1,9,1.7,17,M,,M,,*5E
06/13/2015	14:09:21.526	$GPGGA,140922,2418.8119,N,08102.0397,W,1,9,1.7,17,M,,M,,*5D
06/13/2015	14:09:22.496	$GPGGA,140923,2418.8130,N,08102.0405,W,1,9,1.7,17,M,,M,,*5B
06/13/2015	14:09:23.536	$GPGGA,140924,2418.8138,N,08102.0415,W,1,9,1.7,17,M,,M,,*55
06/13/2015	14:09:24.497	$GPGGA,140925,2418.8148,N,08102.0423,W,1,9,1.7,17,M,,M,,*56
06/13/2015	14:09:25.487	$GPGGA,140926,2418.8156,N,08102.0434,W,1,9,1.7,17,M,,M,,*5C
06/13/2015	14:09:26.496	$GPGGA,140927,2418.8167,N,08102.0444,W,1,9,1.7,17,M,,M,,*58
06/13/2015	14:09:27.496	$GPGGA,140928,2418.8177,N,08102.0453,W,1,9,1.7,17,M,,M,,*50
06/13/2015	14:09:28.507	$GPGGA,140929,2418.8188,N,08102.0463,W,1,9,1.7,17,M,,M,,*52
06/13/2015	14:09:29.486	$GPGGA,140930,2418.8198,N,08102.0473,W,1,9,1.7,17,M,,M,,*5A
06/13/2015	14:09:30.511	$GPGGA,140931,2418.8208,N,08102.0482,W,1,9,1.7,17,M,,M,,*5F
06/13/2015	14:09:31.536	$GPGGA,140932,2418.8216,N,08102.0491,W,1,9,1.7,17,M,,M,,*51
06/13/2015	14:09:32.596	$GPGGA,140933,2418.8224,N,08102.0500,W,1,9,1.7,17,M,,M,,*58
06/13/2015	14:09:33.586	$GPGGA,140934,2418.8235,N,08102.0507,W,1,9,1.7,17,M,,M,,*58
06/13/2015	14:09:34.486	$GPGGA,140935,2418.8245,N,08102.0518,W,1,9,1.7,17,M,,M,,*50
06/13/2015	14:09:35.496	$GPGGA,140936,2418.8253,N,08102.0529,W,1,9,1.7,17,M,,M,,*56
06/13/2015	14:09:36.496	$GPGGA,140937,2418.8264,N,08102.0538,W,1,9,1.7,17,M,,M,,*53
06/13/2015	14:09:37.614	$GPGGA,140938,2418.8275,N,08102.0547,W,1,9,1.7,17,M,,M,,*54
06/13/2015	14:09:38.596	$GPGGA,140939,2418.8284,N,08102.0558,W,1,9,1.7,17,M,,M,,*55
06/13/2015	14:09:39.576	$GPGGA,140940,2418.8292,N,08102.0567,W,1,9,1.7,17,M,,M,,*50
06/13/2015	14:09:40.566	$GPGGA,140941,2418.8303,N,08102.0574,W,1,9,1.7,17,M,,M,,*5A
06/13/2015	14:09:41.567	$GPGGA,140942,2418.8311,N,08102.0583,W,1,9,1.7,17,M,,M,,*52
06/13/2015	14:09:42.567	$GPGGA,140943,2418.8320,N,08102.0593,W,1,9,1.7,17,M,,M,,*50
06/13/2015	14:09:44.624	$GPGGA,140945,2418.8342,N,08102.0612,W,1,9,1.7,17,M,,M,,*58
06/13/2015	14:09:45.556	$GPGGA,140946,2418.8353,N,08102.0622,W,1,9,1.7,17,M,,M,,*58
06/13/2015	14:09:46.556	$GPGGA,140947,2418.8362,N,08102.0632,W,1,9,1.7,17,M,,M,,*5A
06/13/2015	14:09:47.610	$GPGGA,140948,2418.8372,N,08102.0641,W,1,9,1.7,17,M,,M,,*50
06/13/2015	14:09:48.556	$GPGGA,140949,2418.8380,N,08102.0650,W,1,9,1.7,17,M,,M,,*5C
06/13/2015	14:09:49.566	$GPGGA,140950,2418.8391,N,08102.0659,W,1,9,1.7,17,M,,M,,*5D
06/13/2015	14:09:50.546	$GPGGA,140951,2418.8401,N,08102.0668,W,1,9,1.7,17,M,,M,,*50
06/13/2015	14:09:51.566	$GPGGA,140952,2418.8411,N,08102.0677,W,1,9,1.7,17,M,,M,,*5C
06/13/2015	14:09:52.536	$GPGGA,140953,2418.8420,N,08102.0687,W,1,9,1.7,17,M,,M,,*50
06/13/2015	14:09:53.526	$GPGGA,140954,2418.8433,N,08102.0697,W,1,9,1.7,17,M,,M,,*54
06/13/2015	14:09:54.546	$GPGGA,140955,2418.8443,N,08102.0708,W,1,9,1.7,17,M,,M,,*55
06/13/2015	14:09:55.566	$GPGGA,140956,2418.8452,N,08102.0717,W,1,9,1.7,17,M,,M,,*58
06/13/2015	14:09:56.546	$GPGGA,140957,2418.8462,N,08102.0726,W,1,9,1.7,17,M,,M,,*58
06/13/2015	14:09:57.526	$GPGGA,140958,2418.8472,N,08102.0733,W,1,9,1.7,17,M,,M,,*52
06/13/2015	14:09:58.526	$GPGGA,140959,2418.8481,N,08102.0742,W,1,9,1.7,17,M,,M,,*59
06/13/2015	14:09:59.568	$GPGGA,141000,2418.8492,N,08102.0751,W,1,9,1.7,17,M,,M,,*5D
06/13/2015	14:10:00.518	$GPGGA,141001,2418.8503,N,08102.0760,W,1,9,1.7,17,M,,M,,*57
06/13/2015	14:10:01.536	$GPGGA,141002,2418.8513,N,08102.0771,W,1,9,1.7,17,M,,M,,*55
06/13/2015	14:10:02.526	$GPGGA,141003,2418.8524,N,08102.0782,W,1,9,1.7,17,M,,M,,*5C
06/13/2015	14:10:03.526	$GPGGA,141004,2418.8532,N,08102.0791,W,1,9,1.7,17,M,,M,,*5E
06/13/2015	14:10:04.519	$GPGGA,141005,2418.8544,N,08102.0799,W,1,9,1.7,17,M,,M,,*56
06/13/2015	14:10:05.546	$GPGGA,141006,2418.8553,N,08102.0806,W,1,9,1.7,17,M,,M,,*5A
06/13/2015	14:10:06.520	$GPGGA,141007,2418.8564,N,08102.0814,W,1,9,1.7,17,M,,M,,*5C
06/13/2015	14:10:07.556	$GPGGA,141008,2418.8573,N,08102.0824,W,1,9,1.7,17,M,,M,,*56
06/13/2015	14:10:08.507	$GPGGA,141009,2418.8582,N,08102.0834,W,1,9,1.7,17,M,,M,,*58
06/13/2015	14:10:09.536	$GPGGA,141010,2418.8593,N,08102.0843,W,1,9,1.7,17,M,,M,,*50
06/13/2015	14:10:10.616	$GPGGA,141011,2418.8604,N,08102.0853,W,1,9,1.7,17,M,,M,,*5D
06/13/2015	14:10:11.546	$GPGGA,141012,2418.8615,N,08102.0863,W,1,9,1.7,17,M,,M,,*5D
06/13/2015	14:10:12.616	$GPGGA,141013,2418.8625,N,08102.0870,W,1,9,1.7,17,M,,M,,*5D
06/13/2015	14:10:13.609	$GPGGA,141014,2418.8636,N,08102.0876,W,1,9,1.7,17,M,,M,,*5E
06/13/2015	14:10:14.496	$GPGGA,141015,2418.8646,N,08102.0883,W,1,9,1.7,17,M,,M,,*52
06/13/2015	14:10:15.518	$GPGGA,141016,2418.8654,N,08102.0892,W,1,9,1.7,17,M,,M,,*52
06/13/2015	14:10:16.496	$GPGGA,141017,2418.8665,N,08102.0903,W,1,9,1.7,17,M,,M,,*58
06/13/2015	14:10:17.487	$GPGGA,141018,2418.8678,N,08102.0911,W,1,9,1.7,17,M,,M,,*58
06/13/2015	14:10:18.613	$GPGGA,141019,2418.8689,N,08102.0921,W,1,9,1.7,17,M,,M,,*54
06/13/2015	14:10:19.986	$GPGGA,141020,2418.8698,N,08102.0930,W,1,9,1.7,17,M,,M,,*5E
06/13/2015	14:10:20.486	$GPGGA,141021,2418.8711,N,08102.0936,W,1,9,1.7,17,M,,M,,*59
06/13/2015	14:10:21.486	$GPGGA,141022,2418.8721,N,08102.0943,W,1,9,1.7,17,M,,M,,*5B
06/13/2015	14:10:22.496	$GPGGA,141023,2418.8729,N,08102.0952,W,1,9,1.7,17,M,,M,,*52
06/13/2015	14:10:23.609	$GPGGA,141024,2418.8740,N,08102.0961,W,1,9,1.7,17,M,,M,,*5A
06/13/2015	14:10:24.566	$GPGGA,141025,2418.8751,N,08102.0968,W,1,9,1.7,17,M,,M,,*52
06/13/2015	14:10:26.618	$GPGGA,141027,2418.8772,N,08102.0983,W,1,8,1.7,17,M,,M,,*55
06/13/2015	14:10:27.607	$GPGGA,141028,2418.8783,N,08102.0990,W,1,9,1.7,17,M,,M,,*57
06/13/2015	14:10:28.566	$GPGGA,141029,2418.8792,N,08102.0997,W,1,9,1.7,17,M,,M,,*51
06/13/2015	14:10:29.586	$GPGGA,141030,2418.8802,N,08102.1004,W,1,9,1.7,17,M,,M,,*5D
06/13/2015	14:10:30.556	$GPGGA,141031,2418.8813,N,08102.1013,W,1,9,1.7,17,M,,M,,*5A
06/13/2015	14:10:31.586	$GPGGA,141032,2418.8824,N,08102.1020,W,1,9,1.7,17,M,,M,,*5D
06/13/2015	14:10:32.546	$GPGGA,141033,2418.8835,N,08102.1029,W,1,9,1.7,17,M,,M,,*55
06/13/2015	14:10:33.566	$GPGGA,141034,2418.8844,N,08102.1038,W,1,9,1.7,17,M,,M,,*54
06/13/2015	14:10:34.557	$GPGGA,141035,2418.8853,N,08102.1045,W,1,9,1.7,17,M,,M,,*59
06/13/2015	14:10:35.577	$GPGGA,141036,2418.8866,N,08102.1052,W,1,9,1.7,17,M,,M,,*5A
06/13/2015	14:10:36.556	$GPGGA,141037,2418.8875,N,08102.1060,W,1,9,1.7,17,M,,M,,*58
06/13/2015	14:10:37.546	$GPGGA,141038,2418.8885,N,08102.1069,W,1,9,1.7,17,M,,M,,*51
06/13/2015	14:10:38.546	$GPGGA,141039,2418.8895,N,08102.1078,W,1,9,1.7,17,M,,M,,*51
06/13/2015	14:10:39.556	$GPGGA,141040,2418.8906,N,08102.1087,W,1,9,1.7,17,M,,M,,*54
06/13/2015	14:10:40.546	$GPGGA,141041,2418.8915,N,08102.1095,W,1,9,1.7,17,M,,M,,*54
06/13/2015	14:10:41.556	$GPGGA,141042,2418.8925,N,08102.1103,W,1,9,1.7,17,M,,M,,*5A
06/13/2015	14:10:42.536	$GPGGA,141043,2418.8936,N,08102.1111,W,1,9,1.7,17,M,,M,,*5A
06/13/2015	14:10:43.566	$GPGGA,141044,2418.8947,N,08102.1120,W,1,9,1.7,17,M,,M,,*59
06/13/2015	14:10:44.536	$GPGGA,141045,2418.8956,N,08102.1129,W,1,9,1.7,17,M,,M,,*51
06/13/2015	14:10:45.556	$GPGGA,141046,2418.8965,N,08102.1138,W,1,9,1.7,17,M,,M,,*52
06/13/2015	14:10:46.536	$GPGGA,141047,2418.8976,N,08102.1145,W,1,9,1.7,17,M,,M,,*5B
06/13/2015	14:10:47.556	$GPGGA,141048,2418.8986,N,08102.1154,W,1,9,1.7,17,M,,M,,*5B
06/13/2015	14:10:48.516	$GPGGA,141049,2418.8994,N,08102.1164,W,1,9,1.7,17,M,,M,,*5A
06/13/2015	14:10:49.556	$GPGGA,141050,2418.9005,N,08102.1172,W,1,9,1.7,17,M,,M,,*55
06/13/2015	14:10:50.516	$GPGGA,141051,2418.9016,N,08102.1181,W,1,9,1.7,17,M,,M,,*5A
06/13/2015	14:10:51.537	$GPGGA,141052,2418.9025,N,08102.1192,W,1,9,1.7,18,M,,M,,*54
06/13/2015	14:10:52.527	$GPGGA,141053,2418.9034,N,08102.1200,W,1,9,1.7,18,M,,M,,*5D
06/13/2015	14:10:53.506	$GPGGA,141054,2418.9044,N,08102.1207,W,1,9,1.7,18,M,,M,,*5A
06/13/2015	14:10:54.526	$GPGGA,141055,2418.9054,N,08102.1217,W,1,9,1.7,18,M,,M,,*5B
06/13/2015	14:10:55.556	$GPGGA,141056,2418.9063,N,08102.1225,W,1,9,1.7,18,M,,M,,*5D
06/13/2015	14:10:56.626	$GPGGA,141057,2418.9073,N,08102.1235,W,1,9,1.7,18,M,,M,,*5C
06/13/2015	14:10:57.996	$GPGGA,141058,2418.9084,N,08102.1243,W,1,9,1.7,18,M,,M,,*5A
06/13/2015	14:10:58.518	$GPGGA,141059,2418.9092,N,08102.1254,W,1,9,1.9,18,M,,M,,*54
06/13/2015	14:10:59.546	$GPGGA,141100,2418.9104,N,08102.1262,W,1,8,1.9,18,M,,M,,*53
06/13/2015	14:11:00.946	$GPGGA,141101,2418.9113,N,08102.1272,W,1,8,1.9,18,M,,M,,*55
06/13/2015	14:11:01.518	$GPGGA,141102,2418.9122,N,08102.1282,W,1,8,1.9,18,M,,M,,*5B
06/13/2015	14:11:02.496	$GPGGA,141103,2418.9133,N,08102.1288,W,1,8,1.9,18,M,,M,,*50
06/13/2015	14:11:03.526	$GPGGA,141104,2418.9142,N,08102.1297,W,1,8,1.9,18,M,,M,,*5F
06/13/2015	14:11:04.486	$GPGGA,141105,2418.9152,N,08102.1308,W,1,8,1.9,18,M,,M,,*58
06/13/2015	14:11:05.608	$GPGGA,141106,2418.9160,N,08102.1318,W,1,8,1.9,18,M,,M,,*5B
06/13/2015	14:11:06.486	$GPGGA,141107,2418.9171,N,08102.1326,W,1,8,1.9,18,M,,M,,*57
06/13/2015	14:11:07.626	$GPGGA,141108,2418.9182,N,08102.1335,W,1,8,1.9,18,M,,M,,*56
06/13/2015	14:11:08.496	$GPGGA,141109,2418.9192,N,08102.1345,W,1,8,1.9,18,M,,M,,*51
06/13/2015	14:11:09.511	$GPGGA,141110,2418.9200,N,08102.1355,W,1,8,1.9,18,M,,M,,*50
06/13/2015	14:11:10.477	$GPGGA,141111,2418.9213,N,08102.1362,W,1,8,1.9,18,M,,M,,*57
06/13/2015	14:11:11.496	$GPGGA,141112,2418.9222,N,08102.1370,W,1,8,1.9,18,M,,M,,*55
06/13/2015	14:11:12.586	$GPGGA,141113,2418.9232,N,08102.1384,W,1,8,2.1,18,M,,M,,*55
06/13/2015	14:11:13.576	$GPGGA,141114,2418.9243,N,08102.1394,W,1,8,1.9,18,M,,M,,*5E
06/13/2015	14:11:14.566	$GPGGA,141115,2418.9253,N,08102.1403,W,1,8,1.9,18,M,,M,,*57
06/13/2015	14:11:15.614	$GPGGA,141116,2418.9264,N,08102.1414,W,1,8,1.9,18,M,,M,,*56
06/13/2015	14:11:16.566	$GPGGA,141117,2418.9274,N,08102.1427,W,1,8,1.9,18,M,,M,,*56
06/13/2015	14:11:17.596	$GPGGA,141118,2418.9285,N,08102.1435,W,1,8,1.9,18,M,,M,,*54
06/13/2015	14:11:18.556	$GPGGA,141119,2418.9294,N,08102.1443,W,1,8,1.9,18,M,,M,,*54
06/13/2015	14:11:19.576	$GPGGA,141120,2418.9305,N,08102.1452,W,1,8,1.9,18,M,,M,,*57
06/13/2015	14:11:20.556	$GPGGA,141121,2418.9314,N,08102.1461,W,1,8,1.9,18,M,,M,,*56
06/13/2015	14:11:21.608	$GPGGA,141122,2418.9323,N,08102.1472,W,1,8,1.9,18,M,,M,,*53
06/13/2015	14:11:22.556	$GPGGA,141123,2418.9334,N,08102.1482,W,1,8,1.9,18,M,,M,,*5B
06/13/2015	14:11:23.608	$GPGGA,141124,2418.9346,N,08102.1492,W,1,8,1.9,18,M,,M,,*58
06/13/2015	14:11:24.556	$GPGGA,141125,2418.9355,N,08102.1503,W,1,8,1.9,18,M,,M,,*52
06/13/2015	14:11:25.566	$GPGGA,141126,2418.9365,N,08102.1512,W,1,8,1.9,18,M,,M,,*52
06/13/2015	14:11:27.057	$GPGGA,141127,2418.9376,N,08102.1519,W,1,8,1.9,18,M,,M,,*5A
06/13/2015	14:11:27.547	$GPGGA,141128,2418.9386,N,08102.1528,W,1,8,1.9,18,M,,M,,*58
06/13/2015	14:11:28.546	$GPGGA,141129,2418.9395,N,08102.1536,W,1,8,1.9,18,M,,M,,*54
06/13/2015	14:11:29.566	$GPGGA,141130,2418.9405,N,08102.1546,W,1,8,1.9,18,M,,M,,*55
06/13/2015	14:11:30.536	$GPGGA,141131,2418.9415,N,08102.1554,W,1,8,1.9,18,M,,M,,*56
06/13/2015	14:11:31.586	$GPGGA,141132,2418.9424,N,08102.1564,W,1,8,1.9,18,M,,M,,*54
06/13/2015	14:11:32.536	$GPGGA,141133,2418.9435,N,08102.1573,W,1,8,1.9,18,M,,M,,*53
06/13/2015	14:11:33.546	$GPGGA,141134,2418.9448,N,08102.1582,W,1,8,1.9,19,M,,M,,*51
06/13/2015	14:11:34.520	$GPGGA,141135,2418.9458,N,08102.1590,W,1,8,1.9,19,M,,M,,*52
06/13/2015	14:11:35.566	$GPGGA,141136,2418.9467,N,08102.1600,W,1,8,1.9,19,M,,M,,*57
06/13/2015	14:11:36.518	$GPGGA,141137,2418.9477,N,08102.1608,W,1,8,1.9,19,M,,M,,*5F
06/13/2015	14:11:37.556	$GPGGA,141138,2418.9487,N,08102.1615,W,1,8,1.9,19,M,,M,,*53
06/13/2015	14:11:38.526	$GPGGA,141139,2418.9496,N,08102.1623,W,1,8,1.9,19,M,,M,,*57
06/13/2015	14:11:39.536	$GPGGA,141140,2418.9507,N,08102.1633,W,1,8,1.9,19,M,,M,,*51
06/13/2015	14:11:40.508	$GPGGA,141141,2418.9518,N,08102.1641,W,1,8,1.9,19,M,,M,,*5B
06/13/2015	14:11:41.528	$GPGGA,141142,2418.9529,N,08102.1651,W,1,8,1.9,19,M,,M,,*5B
06/13/2015	14:11:42.526	$GPGGA,141143,2418.9539,N,08102.1660,W,1,8,1.9,19,M,,M,,*59
06/13/2015	14:11:43.546	$GPGGA,141144,2418.9550,N,08102.1669,W,1,8,1.9,19,M,,M,,*58
06/13/2015	14:11:44.521	$GPGGA,141145,2418.9560,N,08102.1676,W,1,8,1.9,19,M,,M,,*54
06/13/2015	14:11:45.619	$GPGGA,141146,2418.9568,N,08102.1684,W,1,8,1.9,19,M,,M,,*52
06/13/2015	14:11:46.496	$GPGGA,141147,2418.9579,N,08102.1692,W,1,8,1.9,19,M,,M,,*54
06/13/2015	14:11:47.523	$GPGGA,141148,2418.9590,N,08102.1701,W,1,8,1.9,19,M,,M,,*57
06/13/2015	14:11:48.496	$GPGGA,141149,2418.9601,N,08102.1709,W,1,8,1.9,19,M,,M,,*55
06/13/2015	14:11:49.623	$GPGGA,141150,2418.9612,N,08102.1720,W,1,8,1.9,19,M,,M,,*54
06/13/2015	14:11:50.486	$GPGGA,141151,2418.9622,N,08102.1730,W,1,8,1.9,19,M,,M,,*57
06/13/2015	14:11:51.496	$GPGGA,141152,2418.9633,N,08102.1738,W,1,8,1.9,19,M,,M,,*5C
06/13/2015	14:11:52.600	$GPGGA,141153,2418.9643,N,08102.1745,W,1,8,1.9,19,M,,M,,*50
