Software Version Number: 1	Data File Format Number: 1	Build Version Number: 1	Error Count Since VI Started: 3	Manufacturer: Raytheon	 Model Number: RayMarine 120	 S/N: 	 Cal Date: 	 Wind Direction Offset: 0.00	 Slope (M)1: 0.00	 Offset (B)1: 0.00	 Slope (M)2: 0.00	 Offset (B)2: 0.00	 Slope (M)3: 0.00	 Offset (B)3: 0.00	 Slope (M)4: 0.00	 Offset (B)4: 0.00	 Slope (M)5: 0.00	 Offset (B)5: 0.00	 Slope (M)6: 0.00	 Offset (B)6: 0.00
Computer Date	Computer Time	GGA String
06/22/2015	10:00:00.600	$GPGGA,100001,2424.4077,N,08208.8599,W,1,9,2.2,16,M,,M,,*55
06/22/2015	10:00:01.580	$GPGGA,100002,2424.4053,N,08208.8599,W,1,8,2.2,16,M,,M,,*51
06/22/2015	10:00:02.482	$GPGGA,100003,2424.4028,N,08208.8599,W,1,8,2.2,16,M,,M,,*5C
06/22/2015	10:00:03.600	$GPGGA,100004,2424.4009,N,08208.8597,W,1,8,2.2,16,M,,M,,*56
06/22/2015	10:00:04.490	$GPGGA,100005,2424.3987,N,08208.8596,W,1,8,1.5,16,M,,M,,*5A
06/22/2015	10:00:05.571	$GPGGA,100006,2424.3965,N,08208.8595,W,1,9,1.5,16,M,,M,,*57
06/22/2015	10:00:06.580	$GPGGA,100007,2424.3943,N,08208.8594,W,1,9,1.5,16,M,,M,,*53
06/22/2015	10:00:07.580	$GPGGA,100008,2424.3922,N,08208.8595,W,1,9,1.5,16,M,,M,,*5A
06/22/2015	10:00:08.560	$GPGGA,100009,2424.3898,N,08208.8593,W,1,9,1.5,16,M,,M,,*5D
06/22/2015	10:00:09.579	$GPGGA,100010,2424.3875,N,08208.8592,W,1,9,1.5,16,M,,M,,*57
06/22/2015	10:00:10.569	$GPGGA,100011,2424.3853,N,08208.8591,W,1,9,1.5,16,M,,M,,*51
06/22/2015	10:00:11.609	$GPGGA,100012,2424.3828,N,08208.8590,W,1,9,1.5,16,M,,M,,*5F
06/22/2015	10:00:12.560	$GPGGA,100013,2424.3806,N,08208.8591,W,1,9,1.5,16,M,,M,,*53
06/22/2015	10:00:13.571	$GPGGA,100014,2424.3782,N,08208.8589,W,1,9,1.5,16,M,,M,,*5E
06/22/2015	10:00:14.561	$GPGGA,100015,2424.3757,N,08208.8587,W,1,9,2.2,16,M,,M,,*5D
06/22/2015	10:00:15.600	$GPGGA,100016,2424.3731,N,08208.8587,W,1,9,1.5,16,M,,M,,*5A
06/22/2015	10:00:16.570	$GPGGA,100017,2424.3707,N,08208.8588,W,1,9,1.5,16,M,,M,,*51
06/22/2015	10:00:17.560	$GPGGA,100018,2424.3685,N,08208.8586,W,1,8,2.2,16,M,,M,,*5E
06/22/2015	10:00:18.550	$GPGGA,100019,2424.3665,N,08208.8584,W,1,8,1.5,16,M,,M,,*57
06/22/2015	10:00:19.580	$GPGGA,100020,2424.3641,N,08208.8585,W,1,9,1.5,16,M,,M,,*5B
06/22/2015	10:00:20.540	$GPGGA,100021,2424.3616,N,08208.8585,W,1,9,2.2,16,M,,M,,*5C
06/22/2015	10:00:21.630	$GPGGA,100022,2424.3597,N,08208.8582,W,1,7,2.2,16,M,,M,,*5C
06/22/2015	10:00:22.550	$GPGGA,100023,2424.3573,N,08208.8582,W,1,7,1.5,16,M,,M,,*53
06/22/2015	10:00:23.560	$GPGGA,100024,2424.3553,N,08208.8580,W,1,8,2.2,16,M,,M,,*5F
06/22/2015	10:00:24.550	$GPGGA,100025,2424.3530,N,08208.8578,W,1,8,1.5,16,M,,M,,*58
06/22/2015	10:00:25.550	$GPGGA,100026,2424.3510,N,08208.8578,W,1,9,1.5,16,M,,M,,*58
06/22/2015	10:00:26.540	$GPGGA,100027,2424.3488,N,08208.8578,W,1,9,1.5,16,M,,M,,*59
06/22/2015	10:00:27.570	$GPGGA,100028,2424.3465,N,08208.8577,W,1,9,1.5,16,M,,M,,*5A
06/22/2015	10:00:28.519	$GPGGA,100029,2424.3443,N,08208.8576,W,1,9,1.5,16,M,,M,,*5E
06/22/2015	10:00:29.519	$GPGGA,100030,2424.3419,N,08208.8577,W,1,9,1.5,16,M,,M,,*58
06/22/2015	10:00:30.530	$GPGGA,100031,2424.3394,N,08208.8577,W,1,9,2.2,16,M,,M,,*5F
06/22/2015	10:00:31.530	$GPGGA,100032,2424.3370,N,08208.8576,W,1,8,2.2,16,M,,M,,*56
06/22/2015	10:00:32.530	$GPGGA,100033,2424.3351,N,08208.8574,W,1,8,2.2,16,M,,M,,*56
06/22/2015	10:00:33.520	$GPGGA,100034,2424.3326,N,08208.8574,W,1,9,1.5,16,M,,M,,*54
06/22/2015	10:00:34.530	$GPGGA,100035,2424.3302,N,08208.8574,W,1,9,2.2,16,M,,M,,*57
06/22/2015	10:00:35.520	$GPGGA,100036,2424.3279,N,08208.8574,W,1,8,2.2,15,M,,M,,*5B
06/22/2015	10:00:36.510	$GPGGA,100037,2424.3254,N,08208.8576,W,1,8,2.2,15,M,,M,,*57
06/22/2015	10:00:37.510	$GPGGA,100038,2424.3230,N,08208.8574,W,1,8,2.2,15,M,,M,,*58
06/22/2015	10:00:38.520	$GPGGA,100039,2424.3207,N,08208.8574,W,1,8,2.2,15,M,,M,,*5D
06/22/2015	10:00:39.520	$GPGGA,100040,2424.3183,N,08208.8576,W,1,8,2.2,15,M,,M,,*5E
06/22/2015	10:00:40.510	$GPGGA,100041,2424.3160,N,08208.8574,W,1,8,2.2,15,M,,M,,*50
06/22/2015	10:00:41.530	$GPGGA,100042,2424.3136,N,08208.8574,W,1,8,2.2,15,M,,M,,*50
06/22/2015	10:00:42.510	$GPGGA,100043,2424.3113,N,08208.8574,W,1,8,2.2,15,M,,M,,*56
06/22/2015	10:00:43.680	$GPGGA,100044,2424.3091,N,08208.8573,W,1,8,2.2,14,M,,M,,*5C
06/22/2015	10:00:44.591	$GPGGA,100045,2424.3067,N,08208.8574,W,1,8,2.2,14,M,,M,,*53
06/22/2015	10:00:45.489	$GPGGA,100046,2424.3044,N,08208.8573,W,1,8,2.2,14,M,,M,,*56
06/22/2015	10:00:46.629	$GPGGA,100047,2424.3022,N,08208.8573,W,1,8,2.2,14,M,,M,,*57
06/22/2015	10:00:47.599	$GPGGA,100048,2424.2998,N,08208.8574,W,1,8,2.2,14,M,,M,,*56
06/22/2015	10:00:48.500	$GPGGA,100049,2424.2975,N,08208.8574,W,1,8,2.2,14,M,,M,,*54
06/22/2015	10:00:49.510	$GPGGA,100050,2424.2952,N,08208.8573,W,1,8,2.2,14,M,,M,,*5E
06/22/2015	10:00:50.484	$GPGGA,100051,2424.2929,N,08208.8574,W,1,8,2.2,14,M,,M,,*54
06/22/2015	10:00:51.510	$GPGGA,100052,2424.2907,N,08208.8574,W,1,8,2.2,14,M,,M,,*5B
06/22/2015	10:00:52.620	$GPGGA,100053,2424.2885,N,08208.8573,W,1,8,2.2,14,M,,M,,*56
06/22/2015	10:00:53.481	$GPGGA,100054,2424.2861,N,08208.8574,W,1,8,2.2,14,M,,M,,*5C
06/22/2015	10:00:54.591	$GPGGA,100055,2424.2838,N,08208.8576,W,1,8,2.2,13,M,,M,,*54
06/22/2015	10:00:55.685	$GPGGA,100056,2424.2816,N,08208.8574,W,1,8,2.2,13,M,,M,,*59
06/22/2015	10:00:56.600	$GPGGA,100057,2424.2793,N,08208.8573,W,1,8,2.2,13,M,,M,,*5D
06/22/2015	10:00:57.560	$GPGGA,100058,2424.2770,N,08208.8574,W,1,8,2.2,13,M,,M,,*58
06/22/2015	10:00:58.560	$GPGGA,100059,2424.2748,N,08208.8574,W,1,8,2.2,13,M,,M,,*52
06/22/2015	10:00:59.672	$GPGGA,100100,2424.2726,N,08208.8573,W,1,8,2.2,13,M,,M,,*50
06/22/2015	10:01:00.590	$GPGGA,100101,2424.2702,N,08208.8572,W,1,8,2.2,13,M,,M,,*56
06/22/2015	10:01:01.660	$GPGGA,100102,2424.2680,N,08208.8573,W,1,8,2.2,13,M,,M,,*5F
06/22/2015	10:01:02.589	$GPGGA,100103,2424.2657,N,08208.8572,W,1,8,2.2,13,M,,M,,*55
06/22/2015	10:01:03.659	$GPGGA,100104,2424.2634,N,08208.8573,W,1,8,2.2,13,M,,M,,*56
06/22/2015	10:01:04.549	$GPGGA,100105,2424.2611,N,08208.8573,W,1,8,2.2,13,M,,M,,*50
06/22/2015	10:01:05.650	$GPGGA,100106,2424.2589,N,08208.8572,W,1,8,2.2,13,M,,M,,*50
06/22/2015	10:01:06.581	$GPGGA,100107,2424.2565,N,08208.8571,W,1,8,2.2,13,M,,M,,*50
06/22/2015	10:01:07.671	$GPGGA,100108,2424.2543,N,08208.8573,W,1,8,2.2,12,M,,M,,*58
06/22/2015	10:01:08.571	$GPGGA,100109,2424.2520,N,08208.8572,W,1,8,2.2,12,M,,M,,*5D
06/22/2015	10:01:09.540	$GPGGA,100110,2424.2497,N,08208.8571,W,1,8,2.2,12,M,,M,,*5B
06/22/2015	10:01:10.573	$GPGGA,100111,2424.2478,N,08208.8571,W,1,8,2.2,12,M,,M,,*5B
06/22/2015	10:01:11.660	$GPGGA,100112,2424.2459,N,08208.8571,W,1,9,1.5,12,M,,M,,*5E
06/22/2015	10:01:12.540	$GPGGA,100113,2424.2439,N,08208.8569,W,1,9,1.5,12,M,,M,,*50
06/22/2015	10:01:13.640	$GPGGA,100114,2424.2415,N,08208.8569,W,1,9,2.2,12,M,,M,,*5D
06/22/2015	10:01:14.560	$GPGGA,100115,2424.2392,N,08208.8569,W,1,9,2.2,12,M,,M,,*54
06/22/2015	10:01:15.630	$GPGGA,100116,2424.2372,N,08208.8568,W,1,8,1.5,13,M,,M,,*5C
06/22/2015	10:01:16.560	$GPGGA,100117,2424.2350,N,08208.8566,W,1,8,1.5,13,M,,M,,*53
06/22/2015	10:01:17.520	$GPGGA,100118,2424.2325,N,08208.8566,W,1,9,1.5,13,M,,M,,*5F
06/22/2015	10:01:18.571	$GPGGA,100119,2424.2303,N,08208.8566,W,1,9,1.5,13,M,,M,,*5A
06/22/2015	10:01:19.639	$GPGGA,100120,2424.2281,N,08208.8565,W,1,9,1.5,13,M,,M,,*58
06/22/2015	10:01:20.549	$GPGGA,100121,2424.2258,N,08208.8564,W,1,9,1.5,13,M,,M,,*5C
06/22/2015	10:01:21.619	$GPGGA,100122,2424.2236,N,08208.8563,W,1,9,1.5,13,M,,M,,*50
06/22/2015	10:01:22.549	$GPGGA,100123,2424.2215,N,08208.8561,W,1,9,1.5,13,M,,M,,*52
06/22/2015	10:01:23.600	$GPGGA,100124,2424.2193,N,08208.8560,W,1,9,1.5,13,M,,M,,*59
06/22/2015	10:01:24.560	$GPGGA,100125,2424.2170,N,08208.8560,W,1,9,1.5,13,M,,M,,*55
06/22/2015	10:01:25.590	$GPGGA,100126,2424.2148,N,08208.8559,W,1,9,1.5,13,M,,M,,*57
06/22/2015	10:01:26.540	$GPGGA,100127,2424.2124,N,08208.8559,W,1,9,2.2,13,M,,M,,*58
06/22/2015	10:01:27.640	$GPGGA,100128,2424.2103,N,08208.8558,W,1,8,2.2,13,M,,M,,*52
06/22/2015	10:01:28.500	$GPGGA,100129,2424.2080,N,08208.8556,W,1,8,1.5,13,M,,M,,*53
06/22/2015	10:01:29.630	$GPGGA,100130,2424.2058,N,08208.8556,W,1,9,1.5,13,M,,M,,*5F
06/22/2015	10:01:30.550	$GPGGA,100131,2424.2034,N,08208.8558,W,1,9,2.2,13,M,,M,,*5E
06/22/2015	10:01:31.630	$GPGGA,100132,2424.2010,N,08208.8556,W,1,8,2.2,13,M,,M,,*54
06/22/2015	10:01:32.540	$GPGGA,100133,2424.1987,N,08208.8554,W,1,8,2.2,13,M,,M,,*53
06/22/2015	10:01:33.650	$GPGGA,100134,2424.1964,N,08208.8555,W,1,8,2.2,13,M,,M,,*58
06/22/2015	10:01:34.540	$GPGGA,100135,2424.1942,N,08208.8555,W,1,8,2.2,13,M,,M,,*5D
06/22/2015	10:01:35.580	$GPGGA,100136,2424.1917,N,08208.8554,W,1,8,2.2,13,M,,M,,*5F
06/22/2015	10:01:36.540	$GPGGA,100137,2424.1895,N,08208.8555,W,1,8,2.2,13,M,,M,,*54
06/22/2015	10:01:37.572	$GPGGA,100138,2424.1871,N,08208.8554,W,1,8,2.2,13,M,,M,,*50
06/22/2015	10:01:38.509	$GPGGA,100139,2424.1848,N,08208.8555,W,1,8,2.2,13,M,,M,,*5A
06/22/2015	10:01:39.584	$GPGGA,100140,2424.1826,N,08208.8554,W,1,8,2.2,12,M,,M,,*5C
06/22/2015	10:01:40.520	$GPGGA,100141,2424.1803,N,08208.8553,W,1,8,2.2,12,M,,M,,*5D
06/22/2015	10:01:41.620	$GPGGA,100142,2424.1780,N,08208.8553,W,1,8,2.2,12,M,,M,,*5A
06/22/2015	10:01:42.600	$GPGGA,100143,2424.1758,N,08208.8553,W,1,8,2.2,12,M,,M,,*5E
06/22/2015	10:01:43.630	$GPGGA,100144,2424.1736,N,08208.8553,W,1,8,2.2,12,M,,M,,*51
06/22/2015	10:01:44.572	$GPGGA,100145,2424.1711,N,08208.8553,W,1,8,2.2,12,M,,M,,*55
06/22/2015	10:01:45.610	$GPGGA,100146,2424.1689,N,08208.8555,W,1,8,2.2,12,M,,M,,*50
06/22/2015	10:01:46.560	$GPGGA,100147,2424.1665,N,08208.8554,W,1,8,2.2,12,M,,M,,*52
06/22/2015	10:01:47.630	$GPGGA,100148,2424.1642,N,08208.8555,W,1,8,2.2,12,M,,M,,*59
06/22/2015	10:01:48.560	$GPGGA,100149,2424.1619,N,08208.8555,W,1,8,2.2,12,M,,M,,*56
06/22/2015	10:01:49.580	$GPGGA,100150,2424.1596,N,08208.8555,W,1,8,2.2,12,M,,M,,*5A
06/22/2015	10:01:50.560	$GPGGA,100151,2424.1573,N,08208.8555,W,1,8,2.2,12,M,,M,,*50
06/22/2015	10:01:51.590	$GPGGA,100152,2424.1550,N,08208.8555,W,1,8,2.2,12,M,,M,,*52
06/22/2015	10:01:53.610	$GPGGA,100154,2424.1505,N,08208.8558,W,1,8,2.2,12,M,,M,,*59
06/22/2015	10:01:54.559	$GPGGA,100155,2424.1483,N,08208.8556,W,1,8,2.2,11,M,,M,,*5A
06/22/2015	10:01:55.589	$GPGGA,100156,2424.1459,N,08208.8556,W,1,8,2.2,11,M,,M,,*5E
06/22/2015	10:01:56.549	$GPGGA,100157,2424.1436,N,08208.8556,W,1,8,2.2,11,M,,M,,*56
06/22/2015	10:01:57.571	$GPGGA,100158,2424.1413,N,08208.8558,W,1,8,2.2,11,M,,M,,*50
06/22/2015	10:01:58.550	$GPGGA,100159,2424.1390,N,08208.8559,W,1,8,2.2,11,M,,M,,*5C
06/22/2015	10:01:59.600	$GPGGA,100200,2424.1367,N,08208.8556,W,1,8,2.2,11,M,,M,,*54
06/22/2015	10:02:00.540	$GPGGA,100201,2424.1346,N,08208.8556,W,1,8,2.2,11,M,,M,,*56
06/22/2015	10:02:01.572	$GPGGA,100202,2424.1322,N,08208.8559,W,1,8,2.2,11,M,,M,,*58
06/22/2015	10:02:02.540	$GPGGA,100203,2424.1300,N,08208.8557,W,1,8,2.2,11,M,,M,,*57
06/22/2015	10:02:03.900	$GPGGA,100204,2424.1277,N,08208.8555,W,1,8,2.2,11,M,,M,,*53
06/22/2015	10:02:04.540	$GPGGA,100205,2424.1254,N,08208.8558,W,1,8,2.2,11,M,,M,,*5E
06/22/2015	10:02:05.620	$GPGGA,100206,2424.1254,N,08208.8558,W,1,8,2.2,11,M,,M,,*5D
06/22/2015	10:02:06.530	$GPGGA,100207,2424.1213,N,08208.8555,W,1,8,1.5,11,M,,M,,*56
06/22/2015	10:02:07.600	$GPGGA,100208,2424.1192,N,08208.8555,W,1,9,1.5,11,M,,M,,*52
06/22/2015	10:02:08.530	$GPGGA,100209,2424.1170,N,08208.8558,W,1,9,1.5,11,M,,M,,*52
06/22/2015	10:02:09.585	$GPGGA,100210,2424.1148,N,08208.8557,W,1,9,1.5,11,M,,M,,*5E
06/22/2015	10:02:10.520	$GPGGA,100211,2424.1124,N,08208.8556,W,1,9,2.2,11,M,,M,,*50
06/22/2015	10:02:11.582	$GPGGA,100212,2424.1124,N,08208.8556,W,1,8,2.2,11,M,,M,,*52
06/22/2015	10:02:12.509	$GPGGA,100213,2424.1078,N,08208.8557,W,1,8,2.2,11,M,,M,,*5A
06/22/2015	10:02:13.529	$GPGGA,100214,2424.1078,N,08208.8557,W,1,8,2.2,11,M,,M,,*5D
06/22/2015	10:02:14.519	$GPGGA,100215,2424.1055,N,08208.8556,W,1,8,2.2,11,M,,M,,*52
06/22/2015	10:02:15.583	$GPGGA,100216,2424.1008,N,08208.8557,W,1,8,2.2,11,M,,M,,*58
06/22/2015	10:02:16.620	$GPGGA,100217,2424.0984,N,08208.8556,W,1,8,2.2,11,M,,M,,*54
06/22/2015	10:02:17.572	$GPGGA,100218,2424.0961,N,08208.8556,W,1,8,2.2,11,M,,M,,*50
06/22/2015	10:02:18.510	$GPGGA,100219,2424.0938,N,08208.8556,W,1,8,2.2,11,M,,M,,*5D
06/22/2015	10:02:19.630	$GPGGA,100220,2424.0914,N,08208.8556,W,1,8,2.2,11,M,,M,,*59
06/22/2015	10:02:20.530	$GPGGA,100221,2424.0891,N,08208.8556,W,1,8,2.2,10,M,,M,,*55
06/22/2015	10:02:21.520	$GPGGA,100222,2424.0891,N,08208.8556,W,1,8,2.2,10,M,,M,,*56
06/22/2015	10:02:22.500	$GPGGA,100223,2424.0844,N,08208.8553,W,1,8,2.2,10,M,,M,,*5A
06/22/2015	10:02:23.630	$GPGGA,100224,2424.0822,N,08208.8555,W,1,8,2.2,10,M,,M,,*5B
06/22/2015	10:02:24.500	$GPGGA,100225,2424.0799,N,08208.8555,W,1,8,2.2,10,M,,M,,*55
06/22/2015	10:02:25.510	$GPGGA,100226,2424.0799,N,08208.8555,W,1,8,2.2,10,M,,M,,*56
06/22/2015	10:02:26.500	$GPGGA,100227,2424.0754,N,08208.8551,W,1,8,2.2,10,M,,M,,*52
06/22/2015	10:02:27.600	$GPGGA,100228,2424.0734,N,08208.8552,W,1,9,1.5,10,M,,M,,*5D
06/22/2015	10:02:28.500	$GPGGA,100229,2424.0714,N,08208.8551,W,1,9,1.5,10,M,,M,,*5D
06/22/2015	10:02:29.489	$GPGGA,100230,2424.0714,N,08208.8551,W,1,9,1.5,10,M,,M,,*55
06/22/2015	10:02:30.571	$GPGGA,100231,2424.0670,N,08208.8551,W,1,9,1.5,10,M,,M,,*57
06/22/2015	10:02:31.580	$GPGGA,100232,2424.0647,N,08208.8547,W,1,9,1.5,10,M,,M,,*57
06/22/2015	10:02:32.570	$GPGGA,100233,2424.0625,N,08208.8548,W,1,9,1.5,10,M,,M,,*5D
06/22/2015	10:02:33.584	$GPGGA,100234,2424.0603,N,08208.8548,W,1,9,1.5,10,M,,M,,*5E
06/22/2015	10:02:34.570	$GPGGA,100235,2424.0581,N,08208.8547,W,1,9,1.5,11,M,,M,,*58
06/22/2015	10:02:35.600	$GPGGA,100236,2424.0559,N,08208.8545,W,1,9,1.5,11,M,,M,,*5C
06/22/2015	10:02:37.010	$GPGGA,100237,2424.0536,N,08208.8544,W,1,9,1.5,11,M,,M,,*55
06/22/2015	10:02:37.580	$GPGGA,100238,2424.0515,N,08208.8544,W,1,9,1.5,11,M,,M,,*5B
06/22/2015	10:02:38.582	$GPGGA,100239,2424.0491,N,08208.8543,W,1,9,1.5,11,M,,M,,*50
06/22/2015	10:02:39.590	$GPGGA,100240,2424.0468,N,08208.8541,W,1,9,1.5,11,M,,M,,*5A
06/22/2015	10:02:40.550	$GPGGA,100241,2424.0446,N,08208.8542,W,1,9,1.5,11,M,,M,,*54
06/22/2015	10:02:41.581	$GPGGA,100242,2424.0423,N,08208.8540,W,1,9,1.5,11,M,,M,,*56
06/22/2015	10:02:42.550	$GPGGA,100243,2424.0398,N,08208.8539,W,1,9,1.5,11,M,,M,,*5E
06/22/2015	10:02:43.580	$GPGGA,100244,2424.0375,N,08208.8541,W,1,8,2.2,11,M,,M,,*50
06/22/2015	10:02:44.540	$GPGGA,100245,2424.0351,N,08208.8541,W,1,8,2.2,11,M,,M,,*57
06/22/2015	10:02:45.550	$GPGGA,100246,2424.0327,N,08208.8538,W,1,8,2.2,11,M,,M,,*5B
06/22/2015	10:02:46.550	$GPGGA,100247,2424.0304,N,08208.8537,W,1,8,2.2,11,M,,M,,*54
06/22/2015	10:02:47.579	$GPGGA,100248,2424.0281,N,08208.8540,W,1,8,2.2,11,M,,M,,*57
06/22/2015	10:02:48.539	$GPGGA,100249,2424.0257,N,08208.8538,W,1,8,2.2,11,M,,M,,*52
06/22/2015	10:02:49.539	$GPGGA,100250,2424.0234,N,08208.8537,W,1,8,2.2,11,M,,M,,*50
06/22/2015	10:02:50.540	$GPGGA,100251,2424.0211,N,08208.8536,W,1,8,2.2,11,M,,M,,*57
06/22/2015	10:02:51.570	$GPGGA,100252,2424.0188,N,08208.8537,W,1,8,2.2,11,M,,M,,*56
06/22/2015	10:02:52.530	$GPGGA,100253,2424.0165,N,08208.8537,W,1,8,2.2,11,M,,M,,*54
06/22/2015	10:02:53.530	$GPGGA,100254,2424.0143,N,08208.8536,W,1,8,2.2,11,M,,M,,*56
06/22/2015	10:02:54.530	$GPGGA,100255,2424.0119,N,08208.8537,W,1,8,2.2,11,M,,M,,*59
06/22/2015	10:02:55.560	$GPGGA,100256,2424.0096,N,08208.8536,W,1,8,2.2,11,M,,M,,*5D
06/22/2015	10:02:56.540	$GPGGA,100257,2424.0074,N,08208.8537,W,1,8,2.2,11,M,,M,,*51
06/22/2015	10:02:57.520	$GPGGA,100258,2424.0050,N,08208.8535,W,1,8,2.2,11,M,,M,,*5A
06/22/2015	10:02:58.540	$GPGGA,100259,2424.0028,N,08208.8535,W,1,8,2.2,11,M,,M,,*54
06/22/2015	10:02:59.580	$GPGGA,100300,2424.0005,N,08208.8534,W,1,8,2.2,11,M,,M,,*57
06/22/2015	10:03:00.510	$GPGGA,100301,2423.9984,N,08208.8534,W,1,8,2.2,11,M,,M,,*58
06/22/2015	10:03:01.520	$GPGGA,100302,2423.9960,N,08208.8534,W,1,8,2.2,11,M,,M,,*51
06/22/2015	10:03:02.520	$GPGGA,100303,2423.9937,N,08208.8534,W,1,8,2.2,11,M,,M,,*52
06/22/2015	10:03:03.550	$GPGGA,100304,2423.9915,N,08208.8532,W,1,8,2.2,10,M,,M,,*52
06/22/2015	10:03:04.619	$GPGGA,100305,2423.9892,N,08208.8531,W,1,8,2.2,10,M,,M,,*5E
06/22/2015	10:03:05.509	$GPGGA,100306,2423.9869,N,08208.8533,W,1,8,2.2,10,M,,M,,*5B
06/22/2015	10:03:06.509	$GPGGA,100307,2423.9846,N,08208.8533,W,1,8,2.2,10,M,,M,,*57
06/22/2015	10:03:07.510	$GPGGA,100308,2423.9823,N,08208.8531,W,1,8,2.2,10,M,,M,,*59
06/22/2015	10:03:08.610	$GPGGA,100309,2423.9801,N,08208.8530,W,1,8,2.2,10,M,,M,,*59
06/22/2015	10:03:09.510	$GPGGA,100310,2423.9778,N,08208.8531,W,1,8,2.2,10,M,,M,,*51
06/22/2015	10:03:10.490	$GPGGA,100311,2423.9755,N,08208.8533,W,1,8,2.2,10,M,,M,,*5D
06/22/2015	10:03:11.520	$GPGGA,100312,2423.9732,N,08208.8530,W,1,8,2.2,10,M,,M,,*5C
06/22/2015	10:03:12.500	$GPGGA,100313,2423.9710,N,08208.8529,W,1,8,2.2,10,M,,M,,*55
06/22/2015	10:03:13.620	$GPGGA,100314,2423.9688,N,08208.8531,W,1,8,2.2,10,M,,M,,*5B
06/22/2015	10:03:14.500	$GPGGA,100315,2423.9666,N,08208.8530,W,1,8,2.2,10,M,,M,,*5B
06/22/2015	10:03:15.520	$GPGGA,100316,2423.9642,N,08208.8530,W,1,8,2.2,10,M,,M,,*5E
06/22/2015	10:03:16.482	$GPGGA,100317,2423.9619,N,08208.8530,W,1,8,2.2,10,M,,M,,*51
06/22/2015	10:03:17.580	$GPGGA,100318,2423.9596,N,08208.8530,W,1,8,2.2,10,M,,M,,*5A
06/22/2015	10:03:18.590	$GPGGA,100319,2423.9573,N,08208.8529,W,1,8,2.2,10,M,,M,,*58
06/22/2015	10:03:19.590	$GPGGA,100320,2423.9551,N,08208.8530,W,1,8,2.2,10,M,,M,,*5A
06/22/2015	10:03:20.580	$GPGGA,100321,2423.9529,N,08208.8530,W,1,8,2.2,10,M,,M,,*54
06/22/2015	10:03:21.580	$GPGGA,100322,2423.9507,N,08208.8531,W,1,8,2.2,10,M,,M,,*5A
06/22/2015	10:03:22.572	$GPGGA,100323,2423.9485,N,08208.8530,W,1,8,2.2,10,M,,M,,*51
06/22/2015	10:03:23.589	$GPGGA,100324,2423.9461,N,08208.8530,W,1,9,1.5,10,M,,M,,*59
06/22/2015	10:03:24.570	$GPGGA,100325,2423.9438,N,08208.8531,W,1,9,2.2,10,M,,M,,*51
06/22/2015	10:03:25.571	$GPGGA,100326,2423.9415,N,08208.8531,W,1,8,2.2,10,M,,M,,*5C
06/22/2015	10:03:26.580	$GPGGA,100327,2423.9392,N,08208.8530,W,1,8,2.2,10,M,,M,,*54
06/22/2015	10:03:27.590	$GPGGA,100328,2423.9370,N,08208.8530,W,1,8,2.2,10,M,,M,,*57
06/22/2015	10:03:28.571	$GPGGA,100329,2423.9350,N,08208.8530,W,1,8,2.2,10,M,,M,,*54
06/22/2015	10:03:29.550	$GPGGA,100330,2423.9327,N,08208.8531,W,1,9,1.5,10,M,,M,,*58
06/22/2015	10:03:30.560	$GPGGA,100331,2423.9303,N,08208.8531,W,1,9,2.2,10,M,,M,,*5B
06/22/2015	10:03:31.590	$GPGGA,100332,2423.9280,N,08208.8529,W,1,8,2.2,10,M,,M,,*5A
06/22/2015	10:03:32.550	$GPGGA,100333,2423.9258,N,08208.8530,W,1,8,2.2,10,M,,M,,*56
06/22/2015	10:03:33.571	$GPGGA,100334,2423.9234,N,08208.8530,W,1,9,1.5,10,M,,M,,*5E
06/22/2015	10:03:34.540	$GPGGA,100335,2423.9211,N,08208.8529,W,1,9,2.2,10,M,,M,,*54
06/22/2015	10:03:35.590	$GPGGA,100336,2423.9189,N,08208.8526,W,1,8,2.2,10,M,,M,,*5B
06/22/2015	10:03:36.540	$GPGGA,100337,2423.9166,N,08208.8526,W,1,8,1.5,10,M,,M,,*5F
06/22/2015	10:03:37.560	$GPGGA,100338,2423.9143,N,08208.8526,W,1,9,1.5,10,M,,M,,*56
06/22/2015	10:03:38.540	$GPGGA,100339,2423.9121,N,08208.8525,W,1,9,1.5,10,M,,M,,*50
06/22/2015	10:03:39.569	$GPGGA,100340,2423.9099,N,08208.8523,W,1,9,1.5,10,M,,M,,*5A
06/22/2015	10:03:40.539	$GPGGA,100341,2423.9077,N,08208.8521,W,1,9,1.5,10,M,,M,,*59
06/22/2015	10:03:41.519	$GPGGA,100342,2423.9056,N,08208.8522,W,1,9,1.5,10,M,,M,,*5A
06/22/2015	10:03:42.540	$GPGGA,100343,2423.9032,N,08208.8521,W,1,9,1.5,10,M,,M,,*5A
06/22/2015	10:03:43.560	$GPGGA,100344,2423.9010,N,08208.8518,W,1,8,2.2,10,M,,M,,*52
06/22/2015	10:03:44.530	$GPGGA,100345,2423.8988,N,08208.8516,W,1,8,1.5,10,M,,M,,*50
06/22/2015	10:03:45.560	$GPGGA,100346,2423.8965,N,08208.8517,W,1,9,1.5,10,M,,M,,*50
06/22/2015	10:03:46.530	$GPGGA,100347,2423.8943,N,08208.8517,W,1,9,1.5,10,M,,M,,*55
06/22/2015	10:03:47.530	$GPGGA,100348,2423.8920,N,08208.8514,W,1,8,2.2,10,M,,M,,*59
06/22/2015	10:03:48.530	$GPGGA,100349,2423.8897,N,08208.8512,W,1,8,2.2,10,M,,M,,*53
06/22/2015	10:03:49.510	$GPGGA,100350,2423.8875,N,08208.8513,W,1,9,1.5,10,M,,M,,*53
06/22/2015	10:03:50.520	$GPGGA,100351,2423.8853,N,08208.8515,W,1,9,1.5,10,M,,M,,*50
06/22/2015	10:03:51.630	$GPGGA,100352,2423.8829,N,08208.8512,W,1,8,2.2,10,M,,M,,*5C
06/22/2015	10:03:52.520	$GPGGA,100353,2423.8806,N,08208.8511,W,1,8,2.2,10,M,,M,,*53
06/22/2015	10:03:53.620	$GPGGA,100354,2423.8784,N,08208.8512,W,1,8,2.2,10,M,,M,,*52
06/22/2015	10:03:54.500	$GPGGA,100355,2423.8761,N,08208.8512,W,1,8,2.2,10,M,,M,,*58
06/22/2015	10:03:55.630	$GPGGA,100356,2423.8738,N,08208.8510,W,1,8,2.2,10,M,,M,,*55
06/22/2015	10:03:56.510	$GPGGA,100357,2423.8716,N,08208.8511,W,1,8,2.2,10,M,,M,,*59
06/22/2015	10:03:57.489	$GPGGA,100358,2423.8692,N,08208.8510,W,1,8,2.2,10,M,,M,,*5A
06/22/2015	10:03:58.509	$GPGGA,100359,2423.8670,N,08208.8509,W,1,8,2.2,10,M,,M,,*5F
06/22/2015	10:03:59.619	$GPGGA,100400,2423.8647,N,08208.8508,W,1,8,2.2,10,M,,M,,*51
06/22/2015	10:04:00.510	$GPGGA,100401,2423.8624,N,08208.8509,W,1,8,2.2,10,M,,M,,*54
06/22/2015	10:04:01.484	$GPGGA,100402,2423.8604,N,08208.8509,W,1,8,2.2,10,M,,M,,*55
06/22/2015	10:04:02.601	$GPGGA,100403,2423.8580,N,08208.8509,W,1,8,1.5,10,M,,M,,*5F
06/22/2015	10:04:03.630	$GPGGA,100404,2423.8557,N,08208.8507,W,1,8,2.2,10,M,,M,,*58
06/22/2015	10:04:04.601	$GPGGA,100405,2423.8535,N,08208.8508,W,1,8,2.2,10,M,,M,,*52
06/22/2015	10:04:05.600	$GPGGA,100406,2423.8512,N,08208.8507,W,1,8,2.2,10,M,,M,,*5B
06/22/2015	10:04:06.590	$GPGGA,100407,2423.8489,N,08208.8508,W,1,8,2.2,10,M,,M,,*56
06/22/2015	10:04:07.583	$GPGGA,100408,2423.8466,N,08208.8508,W,1,8,2.2,10,M,,M,,*58
06/22/2015	10:04:08.582	$GPGGA,100409,2423.8442,N,08208.8506,W,1,8,2.2,10,M,,M,,*51
06/22/2015	10:04:09.574	$GPGGA,100410,2423.8420,N,08208.8506,W,1,8,2.2,10,M,,M,,*5D
06/22/2015	10:04:10.560	$GPGGA,100411,2423.8398,N,08208.8508,W,1,8,2.2,10,M,,M,,*56
06/22/2015	10:04:11.600	$GPGGA,100412,2423.8376,N,08208.8508,W,1,8,2.2,10,M,,M,,*55
06/22/2015	10:04:12.550	$GPGGA,100413,2423.8352,N,08208.8504,W,1,8,2.3,10,M,,M,,*5F
06/22/2015	10:04:13.564	$GPGGA,100414,2423.8331,N,08208.8503,W,1,8,2.2,10,M,,M,,*5B
06/22/2015	10:04:14.567	$GPGGA,100415,2423.8308,N,08208.8504,W,1,8,2.2,10,M,,M,,*57
06/22/2015	10:04:15.561	$GPGGA,100416,2423.8286,N,08208.8502,W,1,8,2.2,10,M,,M,,*55
06/22/2015	10:04:16.549	$GPGGA,100417,2423.8262,N,08208.8502,W,1,8,2.2,10,M,,M,,*5E
06/22/2015	10:04:17.539	$GPGGA,100418,2423.8240,N,08208.8500,W,1,8,2.2,10,M,,M,,*53
06/22/2015	10:04:18.549	$GPGGA,100419,2423.8218,N,08208.8501,W,1,8,2.2,10,M,,M,,*5E
06/22/2015	10:04:19.579	$GPGGA,100420,2423.8195,N,08208.8501,W,1,8,2.2,10,M,,M,,*52
06/22/2015	10:04:20.539	$GPGGA,100421,2423.8171,N,08208.8501,W,1,8,2.2,10,M,,M,,*59
06/22/2015	10:04:21.529	$GPGGA,100422,2423.8149,N,08208.8499,W,1,8,2.2,10,M,,M,,*51
06/22/2015	10:04:22.550	$GPGGA,100423,2423.8127,N,08208.8501,W,1,8,2.2,10,M,,M,,*58
06/22/2015	10:04:23.560	$GPGGA,100424,2423.8103,N,08208.8502,W,1,8,2.2,10,M,,M,,*5A
06/22/2015	10:04:24.529	$GPGGA,100425,2423.8083,N,08208.8501,W,1,8,2.2,10,M,,M,,*51
06/22/2015	10:04:25.539	$GPGGA,100426,2423.8060,N,08208.8499,W,1,9,1.5,10,M,,M,,*5A
06/22/2015	10:04:26.539	$GPGGA,100427,2423.8037,N,08208.8501,W,1,9,2.2,10,M,,M,,*5D
06/22/2015	10:04:27.572	$GPGGA,100428,2423.8018,N,08208.8502,W,1,8,2.2,10,M,,M,,*5D
06/22/2015	10:04:28.530	$GPGGA,100429,2423.7997,N,08208.8501,W,1,8,1.5,10,M,,M,,*5A
06/22/2015	10:04:29.520	$GPGGA,100430,2423.7973,N,08208.8500,W,1,9,1.5,10,M,,M,,*58
06/22/2015	10:04:30.540	$GPGGA,100431,2423.7950,N,08208.8504,W,1,9,2.2,10,M,,M,,*58
06/22/2015	10:04:31.520	$GPGGA,100432,2423.7928,N,08208.8503,W,1,8,2.2,11,M,,M,,*53
06/22/2015	10:04:32.529	$GPGGA,100433,2423.7903,N,08208.8502,W,1,8,2.2,11,M,,M,,*5A
06/22/2015	10:04:33.519	$GPGGA,100434,2423.7880,N,08208.8502,W,1,8,2.2,11,M,,M,,*57
06/22/2015	10:04:34.509	$GPGGA,100435,2423.7858,N,08208.8504,W,1,8,2.2,11,M,,M,,*55
06/22/2015	10:04:35.519	$GPGGA,100436,2423.7836,N,08208.8504,W,1,8,2.2,11,M,,M,,*5E
06/22/2015	10:04:36.519	$GPGGA,100437,2423.7813,N,08208.8503,W,1,8,1.6,11,M,,M,,*58
06/22/2015	10:04:37.539	$GPGGA,100438,2423.7791,N,08208.8502,W,1,8,2.2,11,M,,M,,*54
06/22/2015	10:04:38.519	$GPGGA,100439,2423.7768,N,08208.8504,W,1,8,2.2,11,M,,M,,*55
06/22/2015	10:04:39.549	$GPGGA,100440,2423.7745,N,08208.8503,W,1,8,2.2,11,M,,M,,*53
06/22/2015	10:04:40.499	$GPGGA,100441,2423.7722,N,08208.8502,W,1,8,2.2,11,M,,M,,*52
06/22/2015	10:04:41.609	$GPGGA,100442,2423.7699,N,08208.8502,W,1,8,2.2,11,M,,M,,*50
06/22/2015	10:04:42.489	$GPGGA,100443,2423.7676,N,08208.8504,W,1,8,2.2,11,M,,M,,*56
06/22/2015	10:04:43.540	$GPGGA,100444,2423.7654,N,08208.8503,W,1,8,2.2,11,M,,M,,*56
06/22/2015	10:04:44.509	$GPGGA,100445,2423.7632,N,08208.8501,W,1,8,2.2,11,M,,M,,*55
06/22/2015	10:04:45.580	$GPGGA,100446,2423.7608,N,08208.8501,W,1,8,2.2,11,M,,M,,*5F
06/22/2015	10:04:46.490	$GPGGA,100447,2423.7585,N,08208.8501,W,1,8,2.2,11,M,,M,,*58
06/22/2015	10:04:47.600	$GPGGA,100448,2423.7562,N,08208.8501,W,1,8,2.2,11,M,,M,,*5E
06/22/2015	10:04:48.490	$GPGGA,100449,2423.7540,N,08208.8500,W,1,8,2.2,11,M,,M,,*5E
06/22/2015	10:04:49.481	$GPGGA,100450,2423.7517,N,08208.8501,W,1,8,2.2,11,M,,M,,*55
06/22/2015	10:04:50.579	$GPGGA,100451,2423.7495,N,08208.8499,W,1,8,2.2,11,M,,M,,*5F
06/22/2015	10:04:51.589	$GPGGA,100452,2423.7471,N,08208.8498,W,1,8,2.2,11,M,,M,,*57
06/22/2015	10:04:52.489	$GPGGA,100453,2423.7449,N,08208.8498,W,1,8,2.2,11,M,,M,,*5D
06/22/2015	10:04:53.476	$GPGGA,100454,2423.7426,N,08208.8498,W,1,8,2.2,11,M,,M,,*53
06/22/2015	10:04:54.569	$GPGGA,100455,2423.7403,N,08208.8496,W,1,8,2.2,11,M,,M,,*5B
06/22/2015	10:04:55.589	$GPGGA,100456,2423.7380,N,08208.8497,W,1,8,2.2,11,M,,M,,*55
06/22/2015	10:04:56.569	$GPGGA,100457,2423.7358,N,08208.8495,W,1,8,2.2,11,M,,M,,*53
06/22/2015	10:04:57.579	$GPGGA,100458,2423.7336,N,08208.8494,W,1,8,2.2,11,M,,M,,*55
06/22/2015	10:04:58.562	$GPGGA,100459,2423.7311,N,08208.8494,W,1,8,2.2,11,M,,M,,*51
06/22/2015	10:04:59.589	$GPGGA,100500,2423.7289,N,08208.8493,W,1,8,2.2,11,M,,M,,*5B
06/22/2015	10:05:00.571	$GPGGA,100501,2423.7265,N,08208.8492,W,1,8,2.2,11,M,,M,,*59
06/22/2015	10:05:01.579	$GPGGA,100502,2423.7243,N,08208.8493,W,1,8,2.2,11,M,,M,,*5F
06/22/2015	10:05:02.579	$GPGGA,100503,2423.7220,N,08208.8492,W,1,8,2.2,11,M,,M,,*5A
06/22/2015	10:05:03.580	$GPGGA,100504,2423.7197,N,08208.8490,W,1,8,2.2,11,M,,M,,*50
06/22/2015	10:05:04.550	$GPGGA,100505,2423.7174,N,08208.8489,W,1,8,2.2,11,M,,M,,*54
06/22/2015	10:05:05.540	$GPGGA,100506,2423.7151,N,08208.8490,W,1,8,2.2,11,M,,M,,*58
06/22/2015	10:05:06.549	$GPGGA,100507,2423.7130,N,08208.8488,W,1,8,1.5,11,M,,M,,*53
06/22/2015	10:05:07.589	$GPGGA,100508,2423.7106,N,08208.8487,W,1,8,2.2,11,M,,M,,*52
06/22/2015	10:05:08.539	$GPGGA,100509,2423.7084,N,08208.8487,W,1,8,2.2,11,M,,M,,*58
06/22/2015	10:05:09.539	$GPGGA,100510,2423.7061,N,08208.8486,W,1,8,2.2,11,M,,M,,*5A
06/22/2015	10:05:10.539	$GPGGA,100511,2423.7038,N,08208.8485,W,1,8,2.2,11,M,,M,,*54
06/22/2015	10:05:11.589	$GPGGA,100512,2423.7016,N,08208.8486,W,1,8,2.2,11,M,,M,,*58
06/22/2015	10:05:12.539	$GPGGA,100513,2423.6993,N,08208.8485,W,1,8,2.2,11,M,,M,,*5F
06/22/2015	10:05:13.529	$GPGGA,100514,2423.6971,N,08208.8484,W,1,8,2.2,11,M,,M,,*55
06/22/2015	10:05:14.529	$GPGGA,100515,2423.6949,N,08208.8486,W,1,8,2.2,10,M,,M,,*5C
06/22/2015	10:05:15.560	$GPGGA,100516,2423.6926,N,08208.8485,W,1,8,2.2,10,M,,M,,*55
06/22/2015	10:05:16.519	$GPGGA,100517,2423.6902,N,08208.8483,W,1,8,2.2,10,M,,M,,*54
06/22/2015	10:05:17.549	$GPGGA,100518,2423.6880,N,08208.8483,W,1,8,2.2,10,M,,M,,*50
06/22/2015	10:05:18.530	$GPGGA,100519,2423.6857,N,08208.8483,W,1,8,2.2,10,M,,M,,*5B
06/22/2015	10:05:19.539	$GPGGA,100520,2423.6837,N,08208.8483,W,1,8,2.2,10,M,,M,,*57
06/22/2015	10:05:20.540	$GPGGA,100521,2423.6814,N,08208.8482,W,1,8,1.5,10,M,,M,,*52
06/22/2015	10:05:21.520	$GPGGA,100522,2423.6794,N,08208.8481,W,1,8,2.2,10,M,,M,,*51
06/22/2015	10:05:22.510	$GPGGA,100523,2423.6769,N,08208.8483,W,1,8,1.5,10,M,,M,,*54
06/22/2015	10:05:23.520	$GPGGA,100524,2423.6747,N,08208.8482,W,1,9,1.5,10,M,,M,,*5F
06/22/2015	10:05:24.509	$GPGGA,100525,2423.6723,N,08208.8483,W,1,9,1.5,10,M,,M,,*5D
06/22/2015	10:05:25.529	$GPGGA,100526,2423.6700,N,08208.8482,W,1,8,2.2,10,M,,M,,*5B
06/22/2015	10:05:26.509	$GPGGA,100527,2423.6676,N,08208.8483,W,1,8,2.2,10,M,,M,,*5B
06/22/2015	10:05:27.560	$GPGGA,100528,2423.6654,N,08208.8483,W,1,8,2.2,10,M,,M,,*54
06/22/2015	10:05:29.489	$GPGGA,100529,2423.6631,N,08208.8482,W,1,8,2.2,10,M,,M,,*57
06/22/2015	10:05:29.519	$GPGGA,100530,2423.6610,N,08208.8483,W,1,8,2.2,10,M,,M,,*5D
06/22/2015	10:05:30.509	$GPGGA,100531,2423.6590,N,08208.8482,W,1,8,1.5,10,M,,M,,*52
06/22/2015	10:05:31.629	$GPGGA,100532,2423.6566,N,08208.8481,W,1,9,2.2,10,M,,M,,*5E
06/22/2015	10:05:32.489	$GPGGA,100533,2423.6543,N,08208.8482,W,1,9,2.2,10,M,,M,,*5B
06/22/2015	10:05:33.619	$GPGGA,100534,2423.6520,N,08208.8481,W,1,8,2.2,10,M,,M,,*5B
06/22/2015	10:05:34.589	$GPGGA,100535,2423.6496,N,08208.8482,W,1,8,2.2,10,M,,M,,*55
06/22/2015	10:05:35.649	$GPGGA,100536,2423.6473,N,08208.8481,W,1,8,2.2,10,M,,M,,*5E
06/22/2015	10:05:36.499	$GPGGA,100537,2423.6451,N,08208.8482,W,1,8,2.2,10,M,,M,,*5C
06/22/2015	10:05:37.499	$GPGGA,100538,2423.6426,N,08208.8481,W,1,8,2.2,10,M,,M,,*50
06/22/2015	10:05:38.570	$GPGGA,100539,2423.6404,N,08208.8480,W,1,8,2.2,10,M,,M,,*50
06/22/2015	10:05:39.600	$GPGGA,100540,2423.6379,N,08208.8480,W,1,8,2.2,10,M,,M,,*53
06/22/2015	10:05:40.490	$GPGGA,100541,2423.6357,N,08208.8480,W,1,8,2.2,10,M,,M,,*5E
06/22/2015	10:05:41.609	$GPGGA,100542,2423.6333,N,08208.8478,W,1,8,2.2,10,M,,M,,*58
06/22/2015	10:05:42.569	$GPGGA,100543,2423.6311,N,08208.8479,W,1,8,2.2,10,M,,M,,*58
06/22/2015	10:05:43.489	$GPGGA,100544,2423.6288,N,08208.8479,W,1,8,2.2,10,M,,M,,*5E
06/22/2015	10:05:44.571	$GPGGA,100545,2423.6264,N,08208.8478,W,1,8,2.2,10,M,,M,,*5C
06/22/2015	10:05:45.599	$GPGGA,100546,2423.6241,N,08208.8476,W,1,8,2.2,10,M,,M,,*56
06/22/2015	10:05:46.570	$GPGGA,100547,2423.6218,N,08208.8477,W,1,8,2.2,10,M,,M,,*5A
06/22/2015	10:05:47.589	$GPGGA,100548,2423.6195,N,08208.8476,W,1,8,2.2,10,M,,M,,*52
06/22/2015	10:05:48.559	$GPGGA,100549,2423.6172,N,08208.8475,W,1,8,2.2,10,M,,M,,*59
06/22/2015	10:05:49.559	$GPGGA,100550,2423.6149,N,08208.8474,W,1,8,2.2,10,M,,M,,*58
06/22/2015	10:05:50.559	$GPGGA,100551,2423.6126,N,08208.8475,W,1,8,2.2,10,M,,M,,*51
06/22/2015	10:05:51.589	$GPGGA,100552,2423.6104,N,08208.8473,W,1,8,2.2,10,M,,M,,*54
06/22/2015	10:05:52.559	$GPGGA,100553,2423.6082,N,08208.8472,W,1,8,2.2,10,M,,M,,*5B
06/22/2015	10:05:53.559	$GPGGA,100554,2423.6058,N,08208.8471,W,1,8,2.2,10,M,,M,,*58
06/22/2015	10:05:54.549	$GPGGA,100555,2423.6035,N,08208.8472,W,1,8,2.2,10,M,,M,,*51
06/22/2015	10:05:55.570	$GPGGA,100556,2423.6013,N,08208.8469,W,1,8,2.2,10,M,,M,,*5C
06/22/2015	10:05:56.550	$GPGGA,100557,2423.5990,N,08208.8468,W,1,8,2.2,10,M,,M,,*5D
06/22/2015	10:05:57.571	$GPGGA,100558,2423.5967,N,08208.8469,W,1,8,2.2,10,M,,M,,*5B
06/22/2015	10:05:58.530	$GPGGA,100559,2423.5945,N,08208.8468,W,1,8,2.2,10,M,,M,,*5B
06/22/2015	10:05:59.569	$GPGGA,100600,2423.5923,N,08208.8464,W,1,8,2.2,10,M,,M,,*58
06/22/2015	10:06:00.539	$GPGGA,100601,2423.5899,N,08208.8465,W,1,8,2.2,10,M,,M,,*58
06/22/2015	10:06:01.529	$GPGGA,100602,2423.5877,N,08208.8466,W,1,8,2.2,10,M,,M,,*58
06/22/2015	10:06:02.530	$GPGGA,100603,2423.5854,N,08208.8464,W,1,8,2.2,10,M,,M,,*5A
06/22/2015	10:06:03.589	$GPGGA,100604,2423.5833,N,08208.8462,W,1,8,2.2,10,M,,M,,*5A
06/22/2015	10:06:04.519	$GPGGA,100605,2423.5809,N,08208.8464,W,1,8,2.2,10,M,,M,,*54
06/22/2015	10:06:05.549	$GPGGA,100606,2423.5786,N,08208.8463,W,1,8,2.3,10,M,,M,,*59
06/22/2015	10:06:06.509	$GPGGA,100607,2423.5764,N,08208.8460,W,1,8,2.2,9,M,,M,,*6E
06/22/2015	10:06:07.589	$GPGGA,100608,2423.5742,N,08208.8459,W,1,8,2.2,9,M,,M,,*6F
06/22/2015	10:06:08.519	$GPGGA,100609,2423.5721,N,08208.8459,W,1,8,2.2,9,M,,M,,*6B
06/22/2015	10:06:09.539	$GPGGA,100610,2423.5697,N,08208.8457,W,1,8,2.2,9,M,,M,,*61
06/22/2015	10:06:10.519	$GPGGA,100611,2423.5675,N,08208.8455,W,1,8,2.2,9,M,,M,,*6E
06/22/2015	10:06:11.529	$GPGGA,100612,2423.5652,N,08208.8453,W,1,8,2.2,9,M,,M,,*6E
06/22/2015	10:06:12.499	$GPGGA,100613,2423.5631,N,08208.8452,W,1,8,2.2,10,M,,M,,*53
06/22/2015	10:06:13.520	$GPGGA,100614,2423.5609,N,08208.8452,W,1,8,2.2,10,M,,M,,*5F
06/22/2015	10:06:14.530	$GPGGA,100615,2423.5587,N,08208.8454,W,1,8,1.5,10,M,,M,,*59
06/22/2015	10:06:15.630	$GPGGA,100616,2423.5563,N,08208.8450,W,1,9,2.2,10,M,,M,,*51
06/22/2015	10:06:16.509	$GPGGA,100617,2423.5542,N,08208.8449,W,1,9,2.2,10,M,,M,,*5B
06/22/2015	10:06:17.489	$GPGGA,100618,2423.5520,N,08208.8451,W,1,8,2.2,10,M,,M,,*58
06/22/2015	10:06:18.519	$GPGGA,100619,2423.5520,N,08208.8451,W,1,8,2.2,10,M,,M,,*59
06/22/2015	10:06:19.539	$GPGGA,100620,2423.5476,N,08208.8449,W,1,9,2.2,10,M,,M,,*59
06/22/2015	10:06:20.609	$GPGGA,100621,2423.5454,N,08208.8447,W,1,9,2.2,10,M,,M,,*56
06/22/2015	10:06:21.599	$GPGGA,100622,2423.5432,N,08208.8448,W,1,8,2.2,10,M,,M,,*5B
06/22/2015	10:06:22.509	$GPGGA,100623,2423.5411,N,08208.8450,W,1,8,1.5,10,M,,M,,*56
06/22/2015	10:06:23.599	$GPGGA,100624,2423.5388,N,08208.8447,W,1,9,1.5,10,M,,M,,*51
06/22/2015	10:06:24.839	$GPGGA,100625,2423.5365,N,08208.8445,W,1,9,2.2,10,M,,M,,*55
06/22/2015	10:06:25.579	$GPGGA,100626,2423.5343,N,08208.8447,W,1,8,2.2,10,M,,M,,*51
06/22/2015	10:06:26.579	$GPGGA,100627,2423.5320,N,08208.8446,W,1,8,2.2,10,M,,M,,*54
06/22/2015	10:06:27.629	$GPGGA,100628,2423.5298,N,08208.8445,W,1,8,2.2,10,M,,M,,*5A
06/22/2015	10:06:28.509	$GPGGA,100629,2423.5274,N,08208.8446,W,1,8,2.2,10,M,,M,,*5A
06/22/2015	10:06:29.589	$GPGGA,100630,2423.5251,N,08208.8445,W,1,8,2.2,10,M,,M,,*56
06/22/2015	10:06:30.561	$GPGGA,100631,2423.5228,N,08208.8446,W,1,8,2.2,10,M,,M,,*5A
06/22/2015	10:06:31.600	$GPGGA,100632,2423.5205,N,08208.8444,W,1,8,2.2,10,M,,M,,*54
06/22/2015	10:06:32.574	$GPGGA,100633,2423.5182,N,08208.8443,W,1,8,2.2,10,M,,M,,*5E
06/22/2015	10:06:33.590	$GPGGA,100634,2423.5161,N,08208.8443,W,1,8,2.2,10,M,,M,,*54
06/22/2015	10:06:34.569	$GPGGA,100635,2423.5137,N,08208.8444,W,1,8,2.2,10,M,,M,,*51
06/22/2015	10:06:35.569	$GPGGA,100636,2423.5114,N,08208.8443,W,1,8,2.2,10,M,,M,,*54
06/22/2015	10:06:36.559	$GPGGA,100637,2423.5092,N,08208.8442,W,1,8,2.2,10,M,,M,,*5B
06/22/2015	10:06:37.579	$GPGGA,100638,2423.5069,N,08208.8443,W,1,8,2.2,10,M,,M,,*51
06/22/2015	10:06:38.551	$GPGGA,100639,2423.5046,N,08208.8444,W,1,8,2.2,10,M,,M,,*5A
06/22/2015	10:06:39.609	$GPGGA,100640,2423.5024,N,08208.8442,W,1,7,2.3,10,M,,M,,*58
06/22/2015	10:06:40.549	$GPGGA,100641,2423.5002,N,08208.8439,W,1,7,2.2,10,M,,M,,*50
06/22/2015	10:06:41.568	$GPGGA,100642,2423.4980,N,08208.8439,W,1,8,2.2,10,M,,M,,*5E
06/22/2015	10:06:42.539	$GPGGA,100643,2423.4956,N,08208.8438,W,1,8,2.2,10,M,,M,,*55
06/22/2015	10:06:43.579	$GPGGA,100644,2423.4934,N,08208.8436,W,1,8,2.2,10,M,,M,,*58
06/22/2015	10:06:44.539	$GPGGA,100645,2423.4911,N,08208.8434,W,1,8,2.2,10,M,,M,,*5C
06/22/2015	10:06:45.563	$GPGGA,100646,2423.4888,N,08208.8433,W,1,8,2.2,10,M,,M,,*59
06/22/2015	10:06:46.539	$GPGGA,100647,2423.4865,N,08208.8432,W,1,8,2.2,10,M,,M,,*5A
06/22/2015	10:06:47.568	$GPGGA,100648,2423.4843,N,08208.8430,W,1,8,2.2,10,M,,M,,*53
06/22/2015	10:06:48.540	$GPGGA,100649,2423.4820,N,08208.8429,W,1,8,2.2,11,M,,M,,*5E
06/22/2015	10:06:49.530	$GPGGA,100650,2423.4798,N,08208.8429,W,1,8,2.2,11,M,,M,,*5A
06/22/2015	10:06:50.530	$GPGGA,100651,2423.4775,N,08208.8427,W,1,8,2.2,11,M,,M,,*56
06/22/2015	10:06:51.572	$GPGGA,100652,2423.4753,N,08208.8424,W,1,8,2.2,11,M,,M,,*52
06/22/2015	10:06:52.539	$GPGGA,100653,2423.4731,N,08208.8425,W,1,8,2.2,11,M,,M,,*56
06/22/2015	10:06:53.539	$GPGGA,100654,2423.4708,N,08208.8423,W,1,8,2.2,11,M,,M,,*5D
06/22/2015	10:06:54.529	$GPGGA,100655,2423.4686,N,08208.8421,W,1,8,2.2,11,M,,M,,*59
06/22/2015	10:06:55.529	$GPGGA,100656,2423.4664,N,08208.8421,W,1,8,2.2,11,M,,M,,*56
06/22/2015	10:06:56.529	$GPGGA,100657,2423.4642,N,08208.8420,W,1,8,2.2,11,M,,M,,*52
06/22/2015	10:06:57.519	$GPGGA,100658,2423.4620,N,08208.8418,W,1,8,2.2,11,M,,M,,*52
06/22/2015	10:06:58.519	$GPGGA,100659,2423.4598,N,08208.8417,W,1,8,2.2,11,M,,M,,*5C
06/22/2015	10:06:59.569	$GPGGA,100700,2423.4576,N,08208.8418,W,1,8,2.2,11,M,,M,,*5E
06/22/2015	10:07:00.499	$GPGGA,100701,2423.4554,N,08208.8416,W,1,8,2.2,11,M,,M,,*51
06/22/2015	10:07:01.499	$GPGGA,100702,2423.4532,N,08208.8415,W,1,8,2.2,11,M,,M,,*51
06/22/2015	10:07:02.519	$GPGGA,100703,2423.4510,N,08208.8414,W,1,8,2.2,11,M,,M,,*51
06/22/2015	10:07:03.629	$GPGGA,100704,2423.4489,N,08208.8414,W,1,8,2.2,11,M,,M,,*57
06/22/2015	10:07:04.499	$GPGGA,100705,2423.4467,N,08208.8413,W,1,8,2.2,11,M,,M,,*51
06/22/2015	10:07:05.590	$GPGGA,100706,2423.4444,N,08208.8412,W,1,8,2.2,11,M,,M,,*52
06/22/2015	10:07:06.500	$GPGGA,100707,2423.4422,N,08208.8412,W,1,8,2.2,11,M,,M,,*53
06/22/2015	10:07:07.520	$GPGGA,100708,2423.4400,N,08208.8411,W,1,8,2.2,11,M,,M,,*5F
06/22/2015	10:07:08.500	$GPGGA,100709,2423.4378,N,08208.8410,W,1,8,2.2,11,M,,M,,*57
06/22/2015	10:07:09.499	$GPGGA,100710,2423.4355,N,08208.8411,W,1,8,2.2,11,M,,M,,*51
06/22/2015	10:07:10.579	$GPGGA,100711,2423.4333,N,08208.8410,W,1,8,2.2,11,M,,M,,*51
06/22/2015	10:07:11.619	$GPGGA,100712,2423.4310,N,08208.8408,W,1,8,2.2,11,M,,M,,*5A
06/22/2015	10:07:12.579	$GPGGA,100713,2423.4290,N,08208.8408,W,1,8,2.2,11,M,,M,,*52
06/22/2015	10:07:13.609	$GPGGA,100714,2423.4268,N,08208.8410,W,1,8,2.2,11,M,,M,,*5B
06/22/2015	10:07:14.489	$GPGGA,100715,2423.4245,N,08208.8408,W,1,8,2.2,11,M,,M,,*5C
06/22/2015	10:07:15.609	$GPGGA,100716,2423.4223,N,08208.8406,W,1,8,2.2,11,M,,M,,*51
06/22/2015	10:07:16.489	$GPGGA,100717,2423.4201,N,08208.8407,W,1,8,2.2,11,M,,M,,*51
06/22/2015	10:07:17.569	$GPGGA,100718,2423.4179,N,08208.8406,W,1,8,2.2,11,M,,M,,*53
06/22/2015	10:07:18.579	$GPGGA,100719,2423.4157,N,08208.8404,W,1,8,2.2,11,M,,M,,*5C
06/22/2015	10:07:19.489	$GPGGA,100720,2423.4136,N,08208.8405,W,1,8,2.2,11,M,,M,,*50
06/22/2015	10:07:20.559	$GPGGA,100721,2423.4114,N,08208.8404,W,1,8,2.2,11,M,,M,,*50
06/22/2015	10:07:21.559	$GPGGA,100722,2423.4092,N,08208.8402,W,1,8,2.2,11,M,,M,,*5A
06/22/2015	10:07:22.559	$GPGGA,100723,2423.4071,N,08208.8403,W,1,8,2.2,11,M,,M,,*57
06/22/2015	10:07:23.590	$GPGGA,100724,2423.4049,N,08208.8402,W,1,8,2.2,11,M,,M,,*5A
06/22/2015	10:07:24.570	$GPGGA,100725,2423.4027,N,08208.8400,W,1,8,2.2,11,M,,M,,*51
06/22/2015	10:07:25.570	$GPGGA,100726,2423.4005,N,08208.8400,W,1,8,2.2,11,M,,M,,*52
06/22/2015	10:07:26.569	$GPGGA,100727,2423.3983,N,08208.8400,W,1,8,2.2,11,M,,M,,*53
06/22/2015	10:07:28.049	$GPGGA,100728,2423.3961,N,08208.8399,W,1,8,2.2,11,M,,M,,*57
06/22/2015	10:07:28.559	$GPGGA,100729,2423.3940,N,08208.8398,W,1,8,2.2,11,M,,M,,*54
06/22/2015	10:07:29.569	$GPGGA,100730,2423.3918,N,08208.8397,W,1,8,2.2,11,M,,M,,*5E
06/22/2015	10:07:30.549	$GPGGA,100731,2423.3895,N,08208.8397,W,1,8,2.2,11,M,,M,,*5B
06/22/2015	10:07:31.569	$GPGGA,100732,2423.3873,N,08208.8396,W,1,8,2.2,11,M,,M,,*51
06/22/2015	10:07:32.549	$GPGGA,100733,2423.3853,N,08208.8395,W,1,8,2.2,11,M,,M,,*51
06/22/2015	10:07:33.529	$GPGGA,100734,2423.3830,N,08208.8396,W,1,8,2.2,11,M,,M,,*50
06/22/2015	10:07:34.549	$GPGGA,100735,2423.3808,N,08208.8394,W,1,8,2.2,11,M,,M,,*58
06/22/2015	10:07:35.571	$GPGGA,100736,2423.3786,N,08208.8394,W,1,8,2.2,11,M,,M,,*52
06/22/2015	10:07:36.529	$GPGGA,100737,2423.3764,N,08208.8394,W,1,8,2.2,11,M,,M,,*5F
06/22/2015	10:07:37.529	$GPGGA,100738,2423.3742,N,08208.8391,W,1,8,2.2,11,M,,M,,*51
06/22/2015	10:07:38.539	$GPGGA,100739,2423.3720,N,08208.8390,W,1,8,2.2,11,M,,M,,*55
06/22/2015	10:07:39.569	$GPGGA,100740,2423.3699,N,08208.8392,W,1,8,2.2,10,M,,M,,*5B
06/22/2015	10:07:40.530	$GPGGA,100741,2423.3677,N,08208.8390,W,1,8,2.2,10,M,,M,,*58
06/22/2015	10:07:41.540	$GPGGA,100742,2423.3654,N,08208.8387,W,1,8,2.2,10,M,,M,,*5C
06/22/2015	10:07:42.520	$GPGGA,100743,2423.3633,N,08208.8387,W,1,8,2.2,10,M,,M,,*5C
06/22/2015	10:07:43.574	$GPGGA,100744,2423.3612,N,08208.8387,W,1,8,2.2,10,M,,M,,*58
06/22/2015	10:07:44.529	$GPGGA,100745,2423.3589,N,08208.8386,W,1,8,2.2,10,M,,M,,*59
06/22/2015	10:07:45.529	$GPGGA,100746,2423.3568,N,08208.8384,W,1,8,2.2,10,M,,M,,*57
06/22/2015	10:07:46.519	$GPGGA,100747,2423.3546,N,08208.8385,W,1,8,2.2,10,M,,M,,*5B
06/22/2015	10:07:47.549	$GPGGA,100748,2423.3523,N,08208.8383,W,1,8,2.2,10,M,,M,,*51
06/22/2015	10:07:48.519	$GPGGA,100749,2423.3501,N,08208.8382,W,1,8,2.2,10,M,,M,,*51
06/22/2015	10:07:49.519	$GPGGA,100750,2423.3479,N,08208.8381,W,1,8,2.2,10,M,,M,,*54
06/22/2015	10:07:50.519	$GPGGA,100751,2423.3457,N,08208.8379,W,1,8,2.2,10,M,,M,,*5E
06/22/2015	10:07:51.509	$GPGGA,100752,2423.3435,N,08208.8378,W,1,8,2.2,10,M,,M,,*58
06/22/2015	10:07:52.509	$GPGGA,100753,2423.3414,N,08208.8377,W,1,8,2.2,10,M,,M,,*55
06/22/2015	10:07:53.609	$GPGGA,100754,2423.3392,N,08208.8378,W,1,8,2.2,10,M,,M,,*54
06/22/2015	10:07:54.509	$GPGGA,100755,2423.3370,N,08208.8376,W,1,8,2.2,10,M,,M,,*57
06/22/2015	10:07:55.529	$GPGGA,100756,2423.3347,N,08208.8373,W,1,8,2.2,10,M,,M,,*55
06/22/2015	10:07:56.589	$GPGGA,100757,2423.3326,N,08208.8372,W,1,8,2.2,10,M,,M,,*52
06/22/2015	10:07:57.509	$GPGGA,100758,2423.3304,N,08208.8372,W,1,8,2.2,10,M,,M,,*5D
06/22/2015	10:07:58.500	$GPGGA,100759,2423.3282,N,08208.8370,W,1,8,2.2,10,M,,M,,*51
06/22/2015	10:07:59.610	$GPGGA,100800,2423.3260,N,08208.8369,W,1,8,2.2,10,M,,M,,*56
06/22/2015	10:08:00.490	$GPGGA,100801,2423.3239,N,08208.8368,W,1,8,2.2,10,M,,M,,*5A
06/22/2015	10:08:01.499	$GPGGA,100802,2423.3217,N,08208.8366,W,1,8,2.2,10,M,,M,,*5B
06/22/2015	10:08:02.569	$GPGGA,100803,2423.3194,N,08208.8365,W,1,8,2.2,10,M,,M,,*51
06/22/2015	10:08:03.509	$GPGGA,100804,2423.3172,N,08208.8365,W,1,8,2.2,10,M,,M,,*5E
06/22/2015	10:08:05.640	$GPGGA,100806,2423.3128,N,08208.8360,W,1,8,2.2,10,M,,M,,*56
06/22/2015	10:08:06.479	$GPGGA,100807,2423.3107,N,08208.8359,W,1,8,2.2,10,M,,M,,*50
06/22/2015	10:08:07.609	$GPGGA,100808,2423.3084,N,08208.8360,W,1,8,2.2,9,M,,M,,*67
06/22/2015	10:08:08.561	$GPGGA,100809,2423.3062,N,08208.8357,W,1,8,2.2,9,M,,M,,*6A
06/22/2015	10:08:09.599	$GPGGA,100810,2423.3040,N,08208.8354,W,1,8,2.2,9,M,,M,,*61
06/22/2015	10:08:10.569	$GPGGA,100811,2423.3018,N,08208.8353,W,1,8,2.2,9,M,,M,,*6A
06/22/2015	10:08:11.569	$GPGGA,100812,2423.2997,N,08208.8353,W,1,8,2.2,9,M,,M,,*66
06/22/2015	10:08:12.549	$GPGGA,100813,2423.2975,N,08208.8350,W,1,8,2.2,9,M,,M,,*68
06/22/2015	10:08:13.579	$GPGGA,100814,2423.2952,N,08208.8349,W,1,8,2.2,9,M,,M,,*62
06/22/2015	10:08:14.549	$GPGGA,100815,2423.2930,N,08208.8349,W,1,8,2.2,9,M,,M,,*67
06/22/2015	10:08:15.580	$GPGGA,100816,2423.2908,N,08208.8346,W,1,8,2.2,9,M,,M,,*60
06/22/2015	10:08:16.560	$GPGGA,100817,2423.2886,N,08208.8344,W,1,8,2.2,9,M,,M,,*64
06/22/2015	10:08:17.560	$GPGGA,100818,2423.2865,N,08208.8345,W,1,8,2.2,9,M,,M,,*67
06/22/2015	10:08:18.550	$GPGGA,100819,2423.2843,N,08208.8343,W,1,8,2.2,9,M,,M,,*64
06/22/2015	10:08:19.549	$GPGGA,100820,2423.2821,N,08208.8340,W,1,8,2.2,9,M,,M,,*69
06/22/2015	10:08:20.549	$GPGGA,100821,2423.2799,N,08208.8339,W,1,8,2.2,9,M,,M,,*6A
06/22/2015	10:08:21.899	$GPGGA,100822,2423.2777,N,08208.8338,W,1,8,2.2,9,M,,M,,*68
06/22/2015	10:08:22.529	$GPGGA,100823,2423.2755,N,08208.8336,W,1,8,2.2,9,M,,M,,*67
06/22/2015	10:08:23.569	$GPGGA,100824,2423.2734,N,08208.8334,W,1,8,2.2,9,M,,M,,*65
06/22/2015	10:08:24.529	$GPGGA,100825,2423.2712,N,08208.8333,W,1,8,2.2,9,M,,M,,*67
06/22/2015	10:08:25.529	$GPGGA,100826,2423.2690,N,08208.8331,W,1,8,2.2,9,M,,M,,*6D
06/22/2015	10:08:26.961	$GPGGA,100827,2423.2668,N,08208.8329,W,1,8,2.2,9,M,,M,,*62
06/22/2015	10:08:27.529	$GPGGA,100828,2423.2646,N,08208.8329,W,1,8,2.2,9,M,,M,,*61
06/22/2015	10:08:28.529	$GPGGA,100829,2423.2625,N,08208.8327,W,1,8,2.2,9,M,,M,,*6B
06/22/2015	10:08:29.519	$GPGGA,100830,2423.2603,N,08208.8324,W,1,8,2.2,9,M,,M,,*64
06/22/2015	10:08:30.529	$GPGGA,100831,2423.2580,N,08208.8323,W,1,8,2.2,9,M,,M,,*6A
06/22/2015	10:08:31.560	$GPGGA,100832,2423.2558,N,08208.8322,W,1,8,2.2,9,M,,M,,*6D
06/22/2015	10:08:32.509	$GPGGA,100833,2423.2536,N,08208.8320,W,1,8,2.2,9,M,,M,,*66
06/22/2015	10:08:33.550	$GPGGA,100834,2423.2515,N,08208.8318,W,1,8,2.2,8,M,,M,,*6A
06/22/2015	10:08:34.510	$GPGGA,100835,2423.2493,N,08208.8318,W,1,8,2.2,8,M,,M,,*64
06/22/2015	10:08:35.520	$GPGGA,100836,2423.2470,N,08208.8316,W,1,8,2.2,8,M,,M,,*64
06/22/2015	10:08:36.509	$GPGGA,100837,2423.2448,N,08208.8314,W,1,8,2.2,8,M,,M,,*6C
06/22/2015	10:08:37.639	$GPGGA,100838,2423.2427,N,08208.8314,W,1,8,2.2,8,M,,M,,*6A
06/22/2015	10:08:38.519	$GPGGA,100839,2423.2405,N,08208.8312,W,1,8,2.2,8,M,,M,,*6D
06/22/2015	10:08:39.839	$GPGGA,100840,2423.2383,N,08208.8309,W,1,8,2.2,8,M,,M,,*60
06/22/2015	10:08:40.970	$GPGGA,100841,2423.2361,N,08208.8308,W,1,8,2.2,8,M,,M,,*6C
06/22/2015	10:08:41.629	$GPGGA,100842,2423.2338,N,08208.8309,W,1,8,2.4,8,M,,M,,*64
06/22/2015	10:08:42.509	$GPGGA,100843,2423.2318,N,08208.8304,W,1,8,2.4,8,M,,M,,*6A
06/22/2015	10:08:43.675	$GPGGA,100844,2423.2296,N,08208.8301,W,1,8,2.2,8,M,,M,,*69
06/22/2015	10:08:44.489	$GPGGA,100845,2423.2274,N,08208.8300,W,1,8,2.2,8,M,,M,,*65
06/22/2015	10:08:45.489	$GPGGA,100846,2423.2253,N,08208.8297,W,1,8,2.2,8,M,,M,,*6C
06/22/2015	10:08:46.579	$GPGGA,100847,2423.2231,N,08208.8295,W,1,8,2.2,8,M,,M,,*6B
06/22/2015	10:08:47.671	$GPGGA,100848,2423.2210,N,08208.8293,W,1,8,2.2,8,M,,M,,*61
06/22/2015	10:08:48.499	$GPGGA,100849,2423.2188,N,08208.8292,W,1,8,2.2,8,M,,M,,*63
06/22/2015	10:08:49.499	$GPGGA,100850,2423.2166,N,08208.8290,W,1,8,2.2,8,M,,M,,*69
06/22/2015	10:08:50.490	$GPGGA,100851,2423.2144,N,08208.8289,W,1,8,2.2,8,M,,M,,*60
06/22/2015	10:08:51.640	$GPGGA,100852,2423.2122,N,08208.8289,W,1,8,2.2,9,M,,M,,*62
06/22/2015	10:08:52.580	$GPGGA,100853,2423.2099,N,08208.8288,W,1,8,2.2,9,M,,M,,*63
06/22/2015	10:08:53.480	$GPGGA,100854,2423.2077,N,08208.8285,W,1,8,2.2,9,M,,M,,*69
06/22/2015	10:08:54.639	$GPGGA,100855,2423.2055,N,08208.8285,W,1,8,2.2,9,M,,M,,*68
06/22/2015	10:08:55.489	$GPGGA,100856,2423.2033,N,08208.8285,W,1,8,2.2,9,M,,M,,*6B
06/22/2015	10:08:56.561	$GPGGA,100857,2423.2012,N,08208.8282,W,1,8,2.2,9,M,,M,,*6E
06/22/2015	10:08:57.609	$GPGGA,100858,2423.1990,N,08208.8280,W,1,8,2.3,9,M,,M,,*62
06/22/2015	10:08:58.570	$GPGGA,100859,2423.1969,N,08208.8280,W,1,8,2.3,9,M,,M,,*65
06/22/2015	10:08:59.662	$GPGGA,100900,2423.1947,N,08208.8279,W,1,8,2.3,9,M,,M,,*62
06/22/2015	10:09:00.629	$GPGGA,100901,2423.1925,N,08208.8277,W,1,8,2.3,9,M,,M,,*69
06/22/2015	10:09:01.550	$GPGGA,100902,2423.1903,N,08208.8277,W,1,8,2.3,9,M,,M,,*6E
06/22/2015	10:09:02.549	$GPGGA,100903,2423.1881,N,08208.8277,W,1,8,2.3,9,M,,M,,*64
06/22/2015	10:09:03.629	$GPGGA,100904,2423.1859,N,08208.8275,W,1,8,2.3,9,M,,M,,*64
06/22/2015	10:09:04.619	$GPGGA,100905,2423.1837,N,08208.8273,W,1,8,2.3,9,M,,M,,*6B
06/22/2015	10:09:05.619	$GPGGA,100906,2423.1815,N,08208.8273,W,1,8,2.3,9,M,,M,,*68
06/22/2015	10:09:06.609	$GPGGA,100907,2423.1794,N,08208.8273,W,1,8,2.3,9,M,,M,,*6F
06/22/2015	10:09:07.620	$GPGGA,100908,2423.1772,N,08208.8271,W,1,8,2.3,9,M,,M,,*6A
06/22/2015	10:09:08.610	$GPGGA,100909,2423.1749,N,08208.8269,W,1,8,2.3,9,M,,M,,*6A
06/22/2015	10:09:09.610	$GPGGA,100910,2423.1727,N,08208.8270,W,1,8,2.3,10,M,,M,,*5A
06/22/2015	10:09:10.610	$GPGGA,100911,2423.1705,N,08208.8271,W,1,8,2.3,10,M,,M,,*5A
06/22/2015	10:09:11.649	$GPGGA,100912,2423.1682,N,08208.8268,W,1,8,2.3,10,M,,M,,*5F
06/22/2015	10:09:12.539	$GPGGA,100913,2423.1661,N,08208.8267,W,1,8,2.3,10,M,,M,,*5C
06/22/2015	10:09:13.599	$GPGGA,100914,2423.1638,N,08208.8269,W,1,8,2.3,10,M,,M,,*59
06/22/2015	10:09:14.589	$GPGGA,100915,2423.1617,N,08208.8267,W,1,8,2.3,10,M,,M,,*5B
06/22/2015	10:09:15.589	$GPGGA,100916,2423.1595,N,08208.8265,W,1,8,2.3,10,M,,M,,*53
06/22/2015	10:09:16.589	$GPGGA,100917,2423.1574,N,08208.8264,W,1,8,2.3,10,M,,M,,*5C
06/22/2015	10:09:17.589	$GPGGA,100918,2423.1552,N,08208.8264,W,1,8,2.3,10,M,,M,,*57
06/22/2015	10:09:18.589	$GPGGA,100919,2423.1530,N,08208.8262,W,1,8,2.3,10,M,,M,,*54
06/22/2015	10:09:19.579	$GPGGA,100920,2423.1508,N,08208.8261,W,1,8,2.3,10,M,,M,,*56
06/22/2015	10:09:20.519	$GPGGA,100921,2423.1487,N,08208.8260,W,1,8,2.3,10,M,,M,,*50
06/22/2015	10:09:21.599	$GPGGA,100922,2423.1465,N,08208.8258,W,1,8,2.3,10,M,,M,,*54
06/22/2015	10:09:22.509	$GPGGA,100923,2423.1442,N,08208.8257,W,1,8,2.3,10,M,,M,,*5F
06/22/2015	10:09:23.579	$GPGGA,100924,2423.1420,N,08208.8256,W,1,8,2.3,10,M,,M,,*5D
06/22/2015	10:09:24.569	$GPGGA,100925,2423.1398,N,08208.8254,W,1,8,2.3,10,M,,M,,*5A
06/22/2015	10:09:25.580	$GPGGA,100926,2423.1375,N,08208.8253,W,1,8,2.3,10,M,,M,,*5D
06/22/2015	10:09:26.510	$GPGGA,100927,2423.1354,N,08208.8252,W,1,8,2.3,10,M,,M,,*5E
06/22/2015	10:09:27.520	$GPGGA,100928,2423.1332,N,08208.8251,W,1,8,2.3,10,M,,M,,*52
06/22/2015	10:09:28.571	$GPGGA,100929,2423.1310,N,08208.8249,W,1,8,2.3,10,M,,M,,*5A
06/22/2015	10:09:29.539	$GPGGA,100930,2423.1288,N,08208.8248,W,1,8,2.3,10,M,,M,,*53
06/22/2015	10:09:30.562	$GPGGA,100931,2423.1266,N,08208.8248,W,1,8,2.3,10,M,,M,,*52
06/22/2015	10:09:31.630	$GPGGA,100932,2423.1245,N,08208.8245,W,1,8,2.3,10,M,,M,,*5D
06/22/2015	10:09:32.559	$GPGGA,100933,2423.1221,N,08208.8244,W,1,8,2.3,10,M,,M,,*5F
06/22/2015	10:09:33.639	$GPGGA,100934,2423.1200,N,08208.8244,W,1,8,2.3,10,M,,M,,*5B
06/22/2015	10:09:34.561	$GPGGA,100935,2423.1178,N,08208.8243,W,1,8,2.3,10,M,,M,,*51
06/22/2015	10:09:35.574	$GPGGA,100936,2423.1158,N,08208.8240,W,1,8,2.3,10,M,,M,,*53
06/22/2015	10:09:36.549	$GPGGA,100937,2423.1135,N,08208.8239,W,1,8,2.3,10,M,,M,,*57
06/22/2015	10:09:37.579	$GPGGA,100938,2423.1113,N,08208.8241,W,1,8,2.3,10,M,,M,,*53
06/22/2015	10:09:38.600	$GPGGA,100939,2423.1090,N,08208.8239,W,1,8,2.3,10,M,,M,,*57
06/22/2015	10:09:39.599	$GPGGA,100940,2423.1068,N,08208.8237,W,1,8,2.3,10,M,,M,,*50
06/22/2015	10:09:40.572	$GPGGA,100941,2423.1046,N,08208.8237,W,1,8,2.3,10,M,,M,,*5D
06/22/2015	10:09:41.570	$GPGGA,100942,2423.1024,N,08208.8237,W,1,8,2.3,10,M,,M,,*5A
06/22/2015	10:09:42.580	$GPGGA,100943,2423.1003,N,08208.8236,W,1,8,2.3,10,M,,M,,*5F
06/22/2015	10:09:43.600	$GPGGA,100944,2423.0981,N,08208.8237,W,1,8,2.3,10,M,,M,,*5B
06/22/2015	10:09:44.561	$GPGGA,100945,2423.0958,N,08208.8234,W,1,8,2.3,10,M,,M,,*5D
06/22/2015	10:09:45.590	$GPGGA,100946,2423.0936,N,08208.8233,W,1,8,2.3,10,M,,M,,*51
06/22/2015	10:09:46.572	$GPGGA,100947,2423.0913,N,08208.8234,W,1,8,2.3,10,M,,M,,*50
06/22/2015	10:09:47.599	$GPGGA,100948,2423.0891,N,08208.8234,W,1,8,2.3,10,M,,M,,*54
06/22/2015	10:09:48.575	$GPGGA,100949,2423.0869,N,08208.8230,W,1,8,2.3,10,M,,M,,*56
06/22/2015	10:09:49.639	$GPGGA,100950,2423.0847,N,08208.8229,W,1,8,2.3,10,M,,M,,*5A
06/22/2015	10:09:50.572	$GPGGA,100951,2423.0826,N,08208.8230,W,1,8,2.3,10,M,,M,,*54
06/22/2015	10:09:51.589	$GPGGA,100952,2423.0804,N,08208.8229,W,1,8,2.3,10,M,,M,,*5F
06/22/2015	10:09:52.559	$GPGGA,100953,2423.0782,N,08208.8226,W,1,8,2.3,10,M,,M,,*50
06/22/2015	10:09:53.549	$GPGGA,100954,2423.0759,N,08208.8226,W,1,8,2.3,10,M,,M,,*51
06/22/2015	10:09:54.560	$GPGGA,100955,2423.0737,N,08208.8225,W,1,8,2.3,10,M,,M,,*5B
06/22/2015	10:09:55.599	$GPGGA,100956,2423.0717,N,08208.8223,W,1,8,2.3,10,M,,M,,*5C
06/22/2015	10:09:56.560	$GPGGA,100957,2423.0693,N,08208.8223,W,1,8,2.3,10,M,,M,,*50
06/22/2015	10:09:57.562	$GPGGA,100958,2423.0671,N,08208.8221,W,1,8,2.3,10,M,,M,,*51
06/22/2015	10:09:58.549	$GPGGA,100959,2423.0650,N,08208.8218,W,1,8,2.3,10,M,,M,,*59
06/22/2015	10:09:59.579	$GPGGA,101000,2423.0628,N,08208.8219,W,1,8,2.3,10,M,,M,,*53
06/22/2015	10:10:01.580	$GPGGA,101002,2423.0582,N,08208.8215,W,1,7,2.3,10,M,,M,,*51
06/22/2015	10:10:02.570	$GPGGA,101003,2423.0582,N,08208.8215,W,1,7,2.3,10,M,,M,,*50
06/22/2015	10:10:03.573	$GPGGA,101004,2423.0540,N,08208.8212,W,1,8,2.3,10,M,,M,,*51
06/22/2015	10:10:04.559	$GPGGA,101005,2423.0516,N,08208.8212,W,1,8,2.5,10,M,,M,,*55
06/22/2015	10:10:05.569	$GPGGA,101006,2423.0497,N,08208.8212,W,1,7,2.3,10,M,,M,,*57
06/22/2015	10:10:06.549	$GPGGA,101007,2423.0477,N,08208.8209,W,1,7,2.3,10,M,,M,,*52
06/22/2015	10:10:07.880	$GPGGA,101008,2423.0455,N,08208.8208,W,1,8,2.3,10,M,,M,,*53
06/22/2015	10:10:08.549	$GPGGA,101009,2423.0432,N,08208.8209,W,1,8,2.5,10,M,,M,,*54
06/22/2015	10:10:09.530	$GPGGA,101010,2423.0410,N,08208.8208,W,1,7,2.3,10,M,,M,,*54
06/22/2015	10:10:10.529	$GPGGA,101011,2423.0387,N,08208.8206,W,1,7,2.3,10,M,,M,,*52
06/22/2015	10:10:11.539	$GPGGA,101012,2423.0367,N,08208.8205,W,1,8,2.3,10,M,,M,,*53
06/22/2015	10:10:12.499	$GPGGA,101013,2423.0367,N,08208.8205,W,1,8,2.3,10,M,,M,,*52
06/22/2015	10:10:13.509	$GPGGA,101014,2423.0322,N,08208.8203,W,1,8,2.3,10,M,,M,,*52
06/22/2015	10:10:14.529	$GPGGA,101015,2423.0300,N,08208.8202,W,1,8,2.3,10,M,,M,,*52
06/22/2015	10:10:15.619	$GPGGA,101016,2423.0280,N,08208.8201,W,1,8,2.3,10,M,,M,,*5B
06/22/2015	10:10:16.499	$GPGGA,101017,2423.0280,N,08208.8201,W,1,8,2.3,10,M,,M,,*5A
06/22/2015	10:10:17.539	$GPGGA,101018,2423.0235,N,08208.8198,W,1,8,2.3,10,M,,M,,*58
06/22/2015	10:10:18.609	$GPGGA,101019,2423.0213,N,08208.8198,W,1,8,2.3,10,M,,M,,*5D
06/22/2015	10:10:19.639	$GPGGA,101020,2423.0190,N,08208.8197,W,1,8,2.3,10,M,,M,,*50
06/22/2015	10:10:20.519	$GPGGA,101021,2423.0190,N,08208.8197,W,1,8,2.3,11,M,,M,,*50
06/22/2015	10:10:21.608	$GPGGA,101022,2423.0145,N,08208.8194,W,1,8,2.3,11,M,,M,,*58
06/22/2015	10:10:22.528	$GPGGA,101023,2423.0145,N,08208.8194,W,1,8,2.3,11,M,,M,,*59
06/22/2015	10:10:23.498	$GPGGA,101024,2423.0101,N,08208.8192,W,1,8,2.3,11,M,,M,,*58
06/22/2015	10:10:24.598	$GPGGA,101025,2423.0079,N,08208.8191,W,1,8,2.3,11,M,,M,,*54
06/22/2015	10:10:25.608	$GPGGA,101026,2423.0056,N,08208.8193,W,1,8,2.3,11,M,,M,,*58
06/22/2015	10:10:26.588	$GPGGA,101027,2423.0032,N,08208.8190,W,1,8,2.5,11,M,,M,,*5E
06/22/2015	10:10:27.608	$GPGGA,101028,2423.0010,N,08208.8188,W,1,8,2.3,11,M,,M,,*5E
06/22/2015	10:10:28.569	$GPGGA,101029,2422.9989,N,08208.8190,W,1,8,2.3,11,M,,M,,*57
06/22/2015	10:10:29.468	$GPGGA,101030,2422.9967,N,08208.8188,W,1,8,2.3,11,M,,M,,*56
06/22/2015	10:10:30.559	$GPGGA,101031,2422.9946,N,08208.8186,W,1,8,2.3,11,M,,M,,*5A
06/22/2015	10:10:31.599	$GPGGA,101032,2422.9924,N,08208.8186,W,1,8,2.3,11,M,,M,,*5D
06/22/2015	10:10:32.560	$GPGGA,101033,2422.9902,N,08208.8185,W,1,8,2.3,11,M,,M,,*5B
06/22/2015	10:10:33.849	$GPGGA,101034,2422.9881,N,08208.8183,W,1,8,2.3,11,M,,M,,*50
06/22/2015	10:10:34.549	$GPGGA,101035,2422.9859,N,08208.8182,W,1,8,2.3,11,M,,M,,*55
06/22/2015	10:10:35.599	$GPGGA,101036,2422.9837,N,08208.8181,W,1,8,2.3,11,M,,M,,*5D
06/22/2015	10:10:36.561	$GPGGA,101037,2422.9816,N,08208.8180,W,1,8,2.3,11,M,,M,,*5E
06/22/2015	10:10:37.550	$GPGGA,101038,2422.9794,N,08208.8179,W,1,8,2.3,11,M,,M,,*52
06/22/2015	10:10:38.559	$GPGGA,101039,2422.9773,N,08208.8178,W,1,8,2.3,11,M,,M,,*5B
06/22/2015	10:10:39.588	$GPGGA,101040,2422.9751,N,08208.8179,W,1,8,2.3,11,M,,M,,*54
06/22/2015	10:10:40.548	$GPGGA,101041,2422.9728,N,08208.8177,W,1,8,2.3,11,M,,M,,*55
06/22/2015	10:10:41.559	$GPGGA,101042,2422.9707,N,08208.8175,W,1,8,2.3,11,M,,M,,*59
06/22/2015	10:10:42.551	$GPGGA,101043,2422.9685,N,08208.8174,W,1,8,2.3,11,M,,M,,*52
06/22/2015	10:10:43.568	$GPGGA,101044,2422.9663,N,08208.8175,W,1,8,2.3,11,M,,M,,*5C
06/22/2015	10:10:44.538	$GPGGA,101045,2422.9638,N,08208.8174,W,1,8,2.3,11,M,,M,,*52
06/22/2015	10:10:45.559	$GPGGA,101046,2422.9622,N,08208.8173,W,1,7,2.5,11,M,,M,,*54
06/22/2015	10:10:46.530	$GPGGA,101047,2422.9601,N,08208.8171,W,1,7,2.3,11,M,,M,,*50
06/22/2015	10:10:47.552	$GPGGA,101048,2422.9579,N,08208.8172,W,1,8,2.3,11,M,,M,,*5F
06/22/2015	10:10:48.529	$GPGGA,101049,2422.9555,N,08208.8170,W,1,8,2.3,11,M,,M,,*52
06/22/2015	10:10:49.539	$GPGGA,101050,2422.9532,N,08208.8168,W,1,7,2.5,11,M,,M,,*5B
06/22/2015	10:10:50.529	$GPGGA,101051,2422.9510,N,08208.8166,W,1,7,2.3,11,M,,M,,*52
06/22/2015	10:10:51.569	$GPGGA,101052,2422.9489,N,08208.8166,W,1,8,2.3,11,M,,M,,*5F
06/22/2015	10:10:52.519	$GPGGA,101053,2422.9465,N,08208.8166,W,1,8,2.3,11,M,,M,,*5C
06/22/2015	10:10:53.509	$GPGGA,101054,2422.9444,N,08208.8165,W,1,7,2.5,11,M,,M,,*52
06/22/2015	10:10:54.529	$GPGGA,101055,2422.9422,N,08208.8164,W,1,7,2.3,11,M,,M,,*54
06/22/2015	10:10:55.550	$GPGGA,101056,2422.9400,N,08208.8165,W,1,8,2.3,11,M,,M,,*59
06/22/2015	10:10:56.518	$GPGGA,101057,2422.9378,N,08208.8164,W,1,8,2.3,11,M,,M,,*51
06/22/2015	10:10:57.508	$GPGGA,101058,2422.9357,N,08208.8162,W,1,8,2.3,11,M,,M,,*55
06/22/2015	10:10:58.518	$GPGGA,101059,2422.9337,N,08208.8160,W,1,8,2.3,11,M,,M,,*50
06/22/2015	10:10:59.560	$GPGGA,101100,2422.9314,N,08208.8161,W,1,8,2.3,11,M,,M,,*5D
06/22/2015	10:11:00.518	$GPGGA,101101,2422.9292,N,08208.8161,W,1,8,2.3,11,M,,M,,*53
06/22/2015	10:11:01.839	$GPGGA,101102,2422.9270,N,08208.8158,W,1,8,2.3,11,M,,M,,*56
06/22/2015	10:11:02.518	$GPGGA,101103,2422.9248,N,08208.8157,W,1,8,2.3,11,M,,M,,*53
06/22/2015	10:11:03.619	$GPGGA,101104,2422.9226,N,08208.8158,W,1,8,2.3,11,M,,M,,*53
06/22/2015	10:11:04.499	$GPGGA,101105,2422.9203,N,08208.8157,W,1,8,2.3,11,M,,M,,*5A
06/22/2015	10:11:05.509	$GPGGA,101106,2422.9182,N,08208.8154,W,1,8,2.3,11,M,,M,,*50
06/22/2015	10:11:07.865	$GPGGA,101108,2422.9137,N,08208.8152,W,1,8,2.3,11,M,,M,,*56
06/22/2015	10:11:08.599	$GPGGA,101109,2422.9114,N,08208.8150,W,1,8,2.5,11,M,,M,,*52
06/22/2015	10:11:09.589	$GPGGA,101110,2422.9092,N,08208.8149,W,1,8,2.3,11,M,,M,,*5B
06/22/2015	10:11:10.599	$GPGGA,101111,2422.9070,N,08208.8148,W,1,8,2.3,11,M,,M,,*57
06/22/2015	10:11:11.499	$GPGGA,101112,2422.9048,N,08208.8147,W,1,8,2.3,11,M,,M,,*50
06/22/2015	10:11:12.479	$GPGGA,101113,2422.9026,N,08208.8145,W,1,8,2.3,10,M,,M,,*5A
06/22/2015	10:11:13.479	$GPGGA,101114,2422.9005,N,08208.8144,W,1,8,2.3,10,M,,M,,*5D
06/22/2015	10:11:14.468	$GPGGA,101115,2422.8980,N,08208.8143,W,1,8,2.3,10,M,,M,,*5E
06/22/2015	10:11:15.628	$GPGGA,101116,2422.8958,N,08208.8141,W,1,7,2.5,10,M,,M,,*53
06/22/2015	10:11:16.588	$GPGGA,101117,2422.8937,N,08208.8139,W,1,7,2.3,10,M,,M,,*52
06/22/2015	10:11:17.558	$GPGGA,101118,2422.8915,N,08208.8138,W,1,8,2.3,10,M,,M,,*53
06/22/2015	10:11:18.568	$GPGGA,101119,2422.8893,N,08208.8137,W,1,8,2.3,10,M,,M,,*52
06/22/2015	10:11:19.608	$GPGGA,101120,2422.8871,N,08208.8135,W,1,8,2.3,10,M,,M,,*56
06/22/2015	10:11:20.561	$GPGGA,101121,2422.8849,N,08208.8134,W,1,8,2.3,10,M,,M,,*5D
06/22/2015	10:11:21.569	$GPGGA,101122,2422.8828,N,08208.8132,W,1,8,2.3,10,M,,M,,*5F
06/22/2015	10:11:22.559	$GPGGA,101123,2422.8806,N,08208.8130,W,1,8,2.3,10,M,,M,,*50
06/22/2015	10:11:23.589	$GPGGA,101124,2422.8782,N,08208.8128,W,1,8,2.3,10,M,,M,,*5D
06/22/2015	10:11:24.559	$GPGGA,101125,2422.8760,N,08208.8127,W,1,8,2.3,10,M,,M,,*5F
06/22/2015	10:11:25.551	$GPGGA,101126,2422.8738,N,08208.8126,W,1,8,2.3,10,M,,M,,*50
06/22/2015	10:11:26.560	$GPGGA,101127,2422.8716,N,08208.8123,W,1,8,2.3,10,M,,M,,*58
06/22/2015	10:11:27.569	$GPGGA,101128,2422.8694,N,08208.8122,W,1,8,2.3,10,M,,M,,*5D
06/22/2015	10:11:28.549	$GPGGA,101129,2422.8673,N,08208.8120,W,1,8,2.3,10,M,,M,,*57
06/22/2015	10:11:29.539	$GPGGA,101130,2422.8651,N,08208.8118,W,1,8,2.3,10,M,,M,,*54
06/22/2015	10:11:30.552	$GPGGA,101131,2422.8629,N,08208.8117,W,1,8,2.3,10,M,,M,,*55
06/22/2015	10:11:31.568	$GPGGA,101132,2422.8606,N,08208.8118,W,1,8,2.3,10,M,,M,,*54
06/22/2015	10:11:32.551	$GPGGA,101133,2422.8584,N,08208.8115,W,1,8,2.3,10,M,,M,,*51
06/22/2015	10:11:33.528	$GPGGA,101134,2422.8564,N,08208.8112,W,1,8,2.3,10,M,,M,,*5F
06/22/2015	10:11:34.538	$GPGGA,101135,2422.8542,N,08208.8111,W,1,8,2.3,10,M,,M,,*59
06/22/2015	10:11:35.558	$GPGGA,101136,2422.8521,N,08208.8112,W,1,8,2.3,10,M,,M,,*5C
06/22/2015	10:11:36.528	$GPGGA,101137,2422.8499,N,08208.8110,W,1,8,2.3,10,M,,M,,*5D
06/22/2015	10:11:37.558	$GPGGA,101138,2422.8476,N,08208.8107,W,1,8,2.3,10,M,,M,,*55
06/22/2015	10:11:38.529	$GPGGA,101139,2422.8454,N,08208.8106,W,1,8,2.3,10,M,,M,,*55
06/22/2015	10:11:39.560	$GPGGA,101140,2422.8434,N,08208.8107,W,1,8,2.3,10,M,,M,,*5C
06/22/2015	10:11:40.529	$GPGGA,101141,2422.8411,N,08208.8105,W,1,8,2.3,10,M,,M,,*58
06/22/2015	10:11:41.549	$GPGGA,101142,2422.8389,N,08208.8104,W,1,8,2.3,10,M,,M,,*5C
06/22/2015	10:11:42.509	$GPGGA,101143,2422.8367,N,08208.8102,W,1,8,2.3,10,M,,M,,*5B
06/22/2015	10:11:43.539	$GPGGA,101144,2422.8345,N,08208.8103,W,1,8,2.3,10,M,,M,,*5D
06/22/2015	10:11:44.509	$GPGGA,101145,2422.8323,N,08208.8100,W,1,8,2.3,10,M,,M,,*5F
06/22/2015	10:11:45.519	$GPGGA,101146,2422.8302,N,08208.8098,W,1,8,2.3,10,M,,M,,*5F
06/22/2015	10:11:46.499	$GPGGA,101147,2422.8280,N,08208.8098,W,1,8,2.3,10,M,,M,,*55
06/22/2015	10:11:47.549	$GPGGA,101148,2422.8258,N,08208.8097,W,1,8,2.3,10,M,,M,,*50
06/22/2015	10:11:48.509	$GPGGA,101149,2422.8236,N,08208.8096,W,1,8,2.3,10,M,,M,,*58
06/22/2015	10:11:49.508	$GPGGA,101150,2422.8214,N,08208.8093,W,1,8,2.3,10,M,,M,,*55
06/22/2015	10:11:50.498	$GPGGA,101151,2422.8192,N,08208.8092,W,1,8,2.3,10,M,,M,,*58
06/22/2015	10:11:51.528	$GPGGA,101152,2422.8170,N,08208.8092,W,1,8,2.3,10,M,,M,,*57
06/22/2015	10:11:52.508	$GPGGA,101153,2422.8148,N,08208.8090,W,1,8,2.3,10,M,,M,,*5F
