Software Version Number: 1	Data File Format Number: 1	Build Version Number: 1	Error Count Since VI Started: 1	Manufacturer: Raytheon	 Model Number: RayMarine 120	 S/N: 	 Cal Date: 	 Wind Direction Offset: 0.00	 Slope (M)1: 0.00	 Offset (B)1: 0.00	 Slope (M)2: 0.00	 Offset (B)2: 0.00	 Slope (M)3: 0.00	 Offset (B)3: 0.00	 Slope (M)4: 0.00	 Offset (B)4: 0.00	 Slope (M)5: 0.00	 Offset (B)5: 0.00	 Slope (M)6: 0.00	 Offset (B)6: 0.00
Computer Date	Computer Time	GGA String
06/19/2015	05:00:00.587	$GPGGA,050001,2548.5882,N,07917.7592,W,1,9,1.7,16,M,,M,,*51
06/19/2015	05:00:01.497	$GPGGA,050002,2548.5859,N,07917.7602,W,1,9,1.7,16,M,,M,,*5E
06/19/2015	05:00:02.497	$GPGGA,050003,2548.5836,N,07917.7612,W,1,9,1.7,16,M,,M,,*57
06/19/2015	05:00:03.647	$GPGGA,050004,2548.5815,N,07917.7621,W,1,9,1.7,16,M,,M,,*51
06/19/2015	05:00:04.587	$GPGGA,050005,2548.5791,N,07917.7630,W,1,9,1.7,16,M,,M,,*53
06/19/2015	05:00:05.577	$GPGGA,050006,2548.5768,N,07917.7641,W,1,9,1.7,16,M,,M,,*50
06/19/2015	05:00:06.577	$GPGGA,050007,2548.5746,N,07917.7649,W,1,9,1.7,16,M,,M,,*55
06/19/2015	05:00:07.628	$GPGGA,050008,2548.5724,N,07917.7659,W,1,9,1.7,16,M,,M,,*5F
06/19/2015	05:00:08.577	$GPGGA,050009,2548.5701,N,07917.7668,W,1,9,1.7,16,M,,M,,*5B
06/19/2015	05:00:09.567	$GPGGA,050010,2548.5677,N,07917.7678,W,1,9,1.7,16,M,,M,,*52
06/19/2015	05:00:10.567	$GPGGA,050011,2548.5656,N,07917.7688,W,1,9,1.7,16,M,,M,,*5F
06/19/2015	05:00:11.618	$GPGGA,050012,2548.5634,N,07917.7696,W,1,9,1.7,16,M,,M,,*57
06/19/2015	05:00:12.578	$GPGGA,050013,2548.5609,N,07917.7706,W,1,9,1.7,16,M,,M,,*50
06/19/2015	05:00:13.558	$GPGGA,050014,2548.5587,N,07917.7715,W,1,9,1.7,16,M,,M,,*50
06/19/2015	05:00:14.568	$GPGGA,050015,2548.5565,N,07917.7725,W,1,9,1.7,16,M,,M,,*5E
06/19/2015	05:00:15.598	$GPGGA,050016,2548.5542,N,07917.7735,W,1,9,1.7,16,M,,M,,*59
06/19/2015	05:00:16.549	$GPGGA,050017,2548.5519,N,07917.7743,W,1,9,1.7,16,M,,M,,*57
06/19/2015	05:00:17.577	$GPGGA,050018,2548.5497,N,07917.7753,W,1,9,1.7,16,M,,M,,*5E
06/19/2015	05:00:18.557	$GPGGA,050019,2548.5475,N,07917.7764,W,1,9,1.7,16,M,,M,,*57
06/19/2015	05:00:19.557	$GPGGA,050020,2548.5452,N,07917.7772,W,1,9,1.7,16,M,,M,,*5F
06/19/2015	05:00:20.547	$GPGGA,050021,2548.5430,N,07917.7782,W,1,9,1.7,16,M,,M,,*55
06/19/2015	05:00:21.587	$GPGGA,050022,2548.5407,N,07917.7793,W,1,9,1.7,16,M,,M,,*52
06/19/2015	05:00:22.539	$GPGGA,050023,2548.5385,N,07917.7801,W,1,9,1.7,16,M,,M,,*5A
06/19/2015	05:00:23.547	$GPGGA,050024,2548.5363,N,07917.7812,W,1,9,1.7,16,M,,M,,*57
06/19/2015	05:00:24.540	$GPGGA,050025,2548.5340,N,07917.7822,W,1,9,1.7,16,M,,M,,*54
06/19/2015	05:00:25.537	$GPGGA,050026,2548.5317,N,07917.7832,W,1,9,1.7,16,M,,M,,*54
06/19/2015	05:00:26.547	$GPGGA,050027,2548.5295,N,07917.7843,W,1,9,1.7,16,M,,M,,*58
06/19/2015	05:00:27.547	$GPGGA,050028,2548.5273,N,07917.7854,W,1,9,1.7,16,M,,M,,*59
06/19/2015	05:00:28.540	$GPGGA,050029,2548.5249,N,07917.7863,W,1,9,1.7,16,M,,M,,*55
06/19/2015	05:00:29.518	$GPGGA,050030,2548.5228,N,07917.7874,W,1,9,1.7,16,M,,M,,*5C
06/19/2015	05:00:30.542	$GPGGA,050031,2548.5206,N,07917.7884,W,1,9,1.7,16,M,,M,,*5E
06/19/2015	05:00:32.888	$GPGGA,050033,2548.5161,N,07917.7905,W,1,9,1.7,16,M,,M,,*56
06/19/2015	05:00:33.518	$GPGGA,050034,2548.5139,N,07917.7915,W,1,9,1.7,16,M,,M,,*5D
06/19/2015	05:00:34.527	$GPGGA,050035,2548.5116,N,07917.7926,W,1,9,1.7,15,M,,M,,*52
06/19/2015	05:00:35.547	$GPGGA,050036,2548.5094,N,07917.7937,W,1,9,1.7,15,M,,M,,*5A
06/19/2015	05:00:36.517	$GPGGA,050037,2548.5072,N,07917.7948,W,1,9,1.7,15,M,,M,,*5B
06/19/2015	05:00:37.537	$GPGGA,050038,2548.5050,N,07917.7957,W,1,9,1.7,15,M,,M,,*5A
06/19/2015	05:00:38.530	$GPGGA,050039,2548.5028,N,07917.7969,W,1,9,1.7,15,M,,M,,*59
06/19/2015	05:00:39.530	$GPGGA,050040,2548.5006,N,07917.7978,W,1,9,1.7,15,M,,M,,*5B
06/19/2015	05:00:40.507	$GPGGA,050041,2548.4984,N,07917.7989,W,1,9,1.7,15,M,,M,,*56
06/19/2015	05:00:41.517	$GPGGA,050042,2548.4962,N,07917.8000,W,1,9,1.7,15,M,,M,,*5A
06/19/2015	05:00:42.598	$GPGGA,050043,2548.4940,N,07917.8010,W,1,9,1.7,15,M,,M,,*5A
06/19/2015	05:00:43.507	$GPGGA,050044,2548.4919,N,07917.8021,W,1,9,1.7,15,M,,M,,*53
06/19/2015	05:00:44.517	$GPGGA,050045,2548.4895,N,07917.8033,W,1,9,1.7,15,M,,M,,*54
06/19/2015	05:00:45.517	$GPGGA,050046,2548.4873,N,07917.8043,W,1,9,1.7,15,M,,M,,*58
06/19/2015	05:00:46.608	$GPGGA,050047,2548.4851,N,07917.8054,W,1,9,1.7,15,M,,M,,*5F
06/19/2015	05:00:47.629	$GPGGA,050048,2548.4828,N,07917.8065,W,1,9,1.7,15,M,,M,,*5C
06/19/2015	05:00:48.588	$GPGGA,050049,2548.4807,N,07917.8076,W,1,9,1.7,15,M,,M,,*52
06/19/2015	05:00:49.498	$GPGGA,050050,2548.4785,N,07917.8086,W,1,9,1.7,15,M,,M,,*50
06/19/2015	05:00:50.578	$GPGGA,050051,2548.4762,N,07917.8097,W,1,9,1.7,15,M,,M,,*58
06/19/2015	05:00:51.632	$GPGGA,050052,2548.4740,N,07917.8107,W,1,9,1.7,15,M,,M,,*53
06/19/2015	05:00:52.587	$GPGGA,050053,2548.4718,N,07917.8118,W,1,9,1.7,15,M,,M,,*51
06/19/2015	05:00:53.587	$GPGGA,050054,2548.4696,N,07917.8128,W,1,9,1.7,15,M,,M,,*52
06/19/2015	05:00:54.587	$GPGGA,050055,2548.4673,N,07917.8139,W,1,9,1.7,15,M,,M,,*58
06/19/2015	05:00:55.587	$GPGGA,050056,2548.4652,N,07917.8150,W,1,9,1.7,15,M,,M,,*57
06/19/2015	05:00:56.577	$GPGGA,050057,2548.4630,N,07917.8159,W,1,9,1.7,15,M,,M,,*5B
06/19/2015	05:00:57.597	$GPGGA,050058,2548.4608,N,07917.8169,W,1,9,1.7,15,M,,M,,*5C
06/19/2015	05:00:58.577	$GPGGA,050059,2548.4585,N,07917.8180,W,1,9,1.7,15,M,,M,,*5C
06/19/2015	05:00:59.607	$GPGGA,050100,2548.4565,N,07917.8190,W,1,9,1.7,15,M,,M,,*5E
06/19/2015	05:01:00.577	$GPGGA,050101,2548.4543,N,07917.8201,W,1,9,1.7,15,M,,M,,*50
06/19/2015	05:01:01.597	$GPGGA,050102,2548.4520,N,07917.8210,W,1,9,1.7,15,M,,M,,*56
06/19/2015	05:01:02.567	$GPGGA,050103,2548.4498,N,07917.8220,W,1,9,1.7,15,M,,M,,*56
06/19/2015	05:01:03.598	$GPGGA,050104,2548.4476,N,07917.8230,W,1,9,1.7,15,M,,M,,*50
06/19/2015	05:01:04.558	$GPGGA,050105,2548.4453,N,07917.8240,W,1,9,1.7,15,M,,M,,*51
06/19/2015	05:01:05.578	$GPGGA,050106,2548.4431,N,07917.8249,W,1,9,1.7,15,M,,M,,*5F
06/19/2015	05:01:06.558	$GPGGA,050107,2548.4409,N,07917.8259,W,1,9,1.7,15,M,,M,,*54
06/19/2015	05:01:07.598	$GPGGA,050108,2548.4386,N,07917.8269,W,1,9,1.7,15,M,,M,,*58
06/19/2015	05:01:08.558	$GPGGA,050109,2548.4364,N,07917.8280,W,1,9,1.9,15,M,,M,,*5C
06/19/2015	05:01:09.567	$GPGGA,050110,2548.4342,N,07917.8288,W,1,8,1.9,15,M,,M,,*59
06/19/2015	05:01:10.547	$GPGGA,050111,2548.4320,N,07917.8295,W,1,8,1.9,15,M,,M,,*50
06/19/2015	05:01:11.587	$GPGGA,050112,2548.4298,N,07917.8305,W,1,8,1.9,15,M,,M,,*59
06/19/2015	05:01:12.547	$GPGGA,050113,2548.4276,N,07917.8313,W,1,8,1.9,15,M,,M,,*5F
06/19/2015	05:01:13.532	$GPGGA,050114,2548.4254,N,07917.8321,W,1,8,1.9,15,M,,M,,*59
06/19/2015	05:01:14.542	$GPGGA,050115,2548.4231,N,07917.8331,W,1,8,1.9,15,M,,M,,*5A
06/19/2015	05:01:15.577	$GPGGA,050116,2548.4212,N,07917.8339,W,1,8,1.9,15,M,,M,,*50
06/19/2015	05:01:16.536	$GPGGA,050117,2548.4193,N,07917.8349,W,1,8,1.7,15,M,,M,,*52
06/19/2015	05:01:17.527	$GPGGA,050118,2548.4171,N,07917.8356,W,1,9,1.7,15,M,,M,,*5E
06/19/2015	05:01:18.517	$GPGGA,050119,2548.4150,N,07917.8367,W,1,9,1.7,16,M,,M,,*5D
06/19/2015	05:01:19.557	$GPGGA,050120,2548.4129,N,07917.8375,W,1,9,1.7,16,M,,M,,*5A
06/19/2015	05:01:20.535	$GPGGA,050121,2548.4108,N,07917.8385,W,1,9,1.7,16,M,,M,,*57
06/19/2015	05:01:21.518	$GPGGA,050122,2548.4088,N,07917.8393,W,1,9,1.7,16,M,,M,,*5A
06/19/2015	05:01:22.538	$GPGGA,050123,2548.4066,N,07917.8403,W,1,9,1.7,16,M,,M,,*55
06/19/2015	05:01:23.688	$GPGGA,050124,2548.4044,N,07917.8412,W,1,9,1.7,16,M,,M,,*52
06/19/2015	05:01:24.533	$GPGGA,050125,2548.4023,N,07917.8421,W,1,9,1.7,16,M,,M,,*52
06/19/2015	05:01:25.542	$GPGGA,050126,2548.4001,N,07917.8430,W,1,9,1.7,16,M,,M,,*51
06/19/2015	05:01:26.507	$GPGGA,050127,2548.3979,N,07917.8440,W,1,9,1.7,16,M,,M,,*56
06/19/2015	05:01:27.541	$GPGGA,050128,2548.3958,N,07917.8450,W,1,9,1.7,16,M,,M,,*5B
06/19/2015	05:01:28.537	$GPGGA,050129,2548.3936,N,07917.8458,W,1,9,1.7,16,M,,M,,*5A
06/19/2015	05:01:29.597	$GPGGA,050130,2548.3914,N,07917.8468,W,1,9,1.7,17,M,,M,,*50
06/19/2015	05:01:30.507	$GPGGA,050131,2548.3893,N,07917.8479,W,1,9,1.7,17,M,,M,,*5F
06/19/2015	05:01:31.530	$GPGGA,050132,2548.3871,N,07917.8488,W,1,9,1.7,17,M,,M,,*5E
06/19/2015	05:01:32.497	$GPGGA,050133,2548.3848,N,07917.8498,W,1,9,1.7,17,M,,M,,*54
06/19/2015	05:01:33.644	$GPGGA,050134,2548.3826,N,07917.8508,W,1,9,1.7,17,M,,M,,*53
06/19/2015	05:01:34.487	$GPGGA,050135,2548.3804,N,07917.8519,W,1,9,1.7,17,M,,M,,*52
06/19/2015	05:01:35.668	$GPGGA,050136,2548.3782,N,07917.8530,W,1,9,1.7,17,M,,M,,*5B
06/19/2015	05:01:36.657	$GPGGA,050137,2548.3761,N,07917.8538,W,1,9,1.7,17,M,,M,,*5F
06/19/2015	05:01:37.497	$GPGGA,050138,2548.3739,N,07917.8548,W,1,9,1.7,17,M,,M,,*5A
06/19/2015	05:01:38.488	$GPGGA,050139,2548.3717,N,07917.8560,W,1,9,1.7,17,M,,M,,*5D
06/19/2015	05:01:39.498	$GPGGA,050140,2548.3696,N,07917.8570,W,1,9,1.7,17,M,,M,,*5A
06/19/2015	05:01:40.598	$GPGGA,050141,2548.3674,N,07917.8580,W,1,9,1.7,17,M,,M,,*58
06/19/2015	05:01:41.633	$GPGGA,050142,2548.3652,N,07917.8591,W,1,9,1.7,17,M,,M,,*5F
06/19/2015	05:01:42.645	$GPGGA,050143,2548.3630,N,07917.8602,W,1,9,1.7,17,M,,M,,*53
06/19/2015	05:01:43.588	$GPGGA,050144,2548.3609,N,07917.8613,W,1,9,1.7,17,M,,M,,*5E
06/19/2015	05:01:44.577	$GPGGA,050145,2548.3587,N,07917.8624,W,1,9,1.7,17,M,,M,,*5E
06/19/2015	05:01:45.617	$GPGGA,050146,2548.3565,N,07917.8634,W,1,9,1.7,17,M,,M,,*50
06/19/2015	05:01:46.897	$GPGGA,050147,2548.3543,N,07917.8645,W,1,9,1.7,17,M,,M,,*53
06/19/2015	05:01:47.667	$GPGGA,050148,2548.3522,N,07917.8656,W,1,9,1.7,17,M,,M,,*59
06/19/2015	05:01:48.637	$GPGGA,050149,2548.3500,N,07917.8667,W,1,9,1.7,17,M,,M,,*5A
06/19/2015	05:01:49.647	$GPGGA,050150,2548.3478,N,07917.8678,W,1,9,1.7,17,M,,M,,*52
06/19/2015	05:01:50.640	$GPGGA,050151,2548.3457,N,07917.8689,W,1,9,1.7,17,M,,M,,*50
06/19/2015	05:01:51.617	$GPGGA,050152,2548.3435,N,07917.8699,W,1,9,1.7,17,M,,M,,*56
06/19/2015	05:01:52.557	$GPGGA,050153,2548.3413,N,07917.8710,W,1,9,1.7,17,M,,M,,*53
06/19/2015	05:01:53.617	$GPGGA,050154,2548.3391,N,07917.8721,W,1,9,1.7,17,M,,M,,*5B
06/19/2015	05:01:54.628	$GPGGA,050155,2548.3369,N,07917.8732,W,1,9,1.7,17,M,,M,,*5F
06/19/2015	05:01:55.557	$GPGGA,050156,2548.3347,N,07917.8743,W,1,8,1.9,17,M,,M,,*59
06/19/2015	05:01:56.608	$GPGGA,050157,2548.3326,N,07917.8753,W,1,8,1.7,17,M,,M,,*50
06/19/2015	05:01:57.598	$GPGGA,050158,2548.3304,N,07917.8762,W,1,9,1.7,17,M,,M,,*5C
06/19/2015	05:01:58.558	$GPGGA,050159,2548.3281,N,07917.8773,W,1,9,1.7,17,M,,M,,*51
06/19/2015	05:01:59.618	$GPGGA,050200,2548.3258,N,07917.8783,W,1,9,1.7,17,M,,M,,*55
06/19/2015	05:02:00.598	$GPGGA,050201,2548.3236,N,07917.8793,W,1,9,1.7,17,M,,M,,*5D
06/19/2015	05:02:01.587	$GPGGA,050202,2548.3212,N,07917.8802,W,1,9,1.9,17,M,,M,,*51
06/19/2015	05:02:02.597	$GPGGA,050203,2548.3190,N,07917.8812,W,1,9,1.9,17,M,,M,,*58
06/19/2015	05:02:03.607	$GPGGA,050204,2548.3167,N,07917.8822,W,1,8,1.9,17,M,,M,,*55
06/19/2015	05:02:04.597	$GPGGA,050205,2548.3143,N,07917.8830,W,1,8,1.9,17,M,,M,,*51
06/19/2015	05:02:05.530	$GPGGA,050206,2548.3120,N,07917.8840,W,1,8,1.9,17,M,,M,,*50
06/19/2015	05:02:06.587	$GPGGA,050207,2548.3098,N,07917.8849,W,1,8,1.9,17,M,,M,,*5A
06/19/2015	05:02:07.587	$GPGGA,050208,2548.3076,N,07917.8858,W,1,8,1.7,17,M,,M,,*5B
06/19/2015	05:02:08.507	$GPGGA,050209,2548.3055,N,07917.8867,W,1,8,1.7,17,M,,M,,*57
06/19/2015	05:02:09.577	$GPGGA,050210,2548.3033,N,07917.8876,W,1,9,1.7,17,M,,M,,*5E
06/19/2015	05:02:10.577	$GPGGA,050211,2548.3009,N,07917.8885,W,1,9,1.9,17,M,,M,,*54
06/19/2015	05:02:11.577	$GPGGA,050212,2548.2986,N,07917.8895,W,1,8,1.9,17,M,,M,,*58
06/19/2015	05:02:12.577	$GPGGA,050213,2548.2963,N,07917.8903,W,1,8,1.9,16,M,,M,,*5D
06/19/2015	05:02:13.537	$GPGGA,050214,2548.2941,N,07917.8913,W,1,8,1.7,16,M,,M,,*55
06/19/2015	05:02:14.557	$GPGGA,050215,2548.2919,N,07917.8923,W,1,8,1.7,16,M,,M,,*5A
06/19/2015	05:02:15.577	$GPGGA,050216,2548.2897,N,07917.8931,W,1,9,1.7,16,M,,M,,*5C
06/19/2015	05:02:16.497	$GPGGA,050217,2548.2875,N,07917.8941,W,1,9,1.7,16,M,,M,,*56
06/19/2015	05:02:17.547	$GPGGA,050218,2548.2854,N,07917.8952,W,1,9,1.7,16,M,,M,,*58
06/19/2015	05:02:18.567	$GPGGA,050219,2548.2832,N,07917.8960,W,1,9,1.7,16,M,,M,,*58
06/19/2015	05:02:19.636	$GPGGA,050220,2548.2810,N,07917.8970,W,1,9,1.7,16,M,,M,,*53
06/19/2015	05:02:20.556	$GPGGA,050221,2548.2788,N,07917.8981,W,1,9,1.7,16,M,,M,,*52
06/19/2015	05:02:21.616	$GPGGA,050222,2548.2767,N,07917.8989,W,1,9,1.7,16,M,,M,,*58
06/19/2015	05:02:22.546	$GPGGA,050223,2548.2745,N,07917.8999,W,1,9,1.7,16,M,,M,,*58
06/19/2015	05:02:23.597	$GPGGA,050224,2548.2724,N,07917.9010,W,1,9,1.7,16,M,,M,,*51
06/19/2015	05:02:24.587	$GPGGA,050225,2548.2702,N,07917.9019,W,1,9,1.7,16,M,,M,,*5D
06/19/2015	05:02:25.537	$GPGGA,050226,2548.2680,N,07917.9029,W,1,9,1.7,16,M,,M,,*56
06/19/2015	05:02:26.577	$GPGGA,050227,2548.2658,N,07917.9039,W,1,9,1.7,16,M,,M,,*53
06/19/2015	05:02:27.587	$GPGGA,050228,2548.2636,N,07917.9048,W,1,9,1.7,16,M,,M,,*52
06/19/2015	05:02:28.577	$GPGGA,050229,2548.2615,N,07917.9059,W,1,9,1.7,16,M,,M,,*52
06/19/2015	05:02:29.577	$GPGGA,050230,2548.2594,N,07917.9068,W,1,9,1.7,16,M,,M,,*52
06/19/2015	05:02:30.587	$GPGGA,050231,2548.2572,N,07917.9079,W,1,9,1.7,16,M,,M,,*5B
06/19/2015	05:02:31.587	$GPGGA,050232,2548.2549,N,07917.9090,W,1,9,1.7,16,M,,M,,*57
06/19/2015	05:02:32.577	$GPGGA,050233,2548.2528,N,07917.9100,W,1,9,1.7,16,M,,M,,*59
06/19/2015	05:02:33.627	$GPGGA,050234,2548.2506,N,07917.9109,W,1,9,1.7,16,M,,M,,*5B
06/19/2015	05:02:34.557	$GPGGA,050235,2548.2484,N,07917.9120,W,1,9,1.7,16,M,,M,,*5A
06/19/2015	05:02:35.587	$GPGGA,050236,2548.2462,N,07917.9131,W,1,9,1.7,16,M,,M,,*51
06/19/2015	05:02:36.556	$GPGGA,050237,2548.2440,N,07917.9141,W,1,9,1.7,16,M,,M,,*57
06/19/2015	05:02:37.567	$GPGGA,050238,2548.2419,N,07917.9152,W,1,9,1.7,16,M,,M,,*56
06/19/2015	05:02:38.566	$GPGGA,050239,2548.2398,N,07917.9163,W,1,9,1.7,16,M,,M,,*5B
06/19/2015	05:02:39.586	$GPGGA,050240,2548.2375,N,07917.9174,W,1,9,1.7,16,M,,M,,*50
06/19/2015	05:02:40.606	$GPGGA,050241,2548.2354,N,07917.9185,W,1,9,1.7,16,M,,M,,*5C
06/19/2015	05:02:41.557	$GPGGA,050242,2548.2333,N,07917.9195,W,1,9,1.7,16,M,,M,,*5F
06/19/2015	05:02:42.557	$GPGGA,050243,2548.2310,N,07917.9206,W,1,9,1.7,16,M,,M,,*56
06/19/2015	05:02:43.867	$GPGGA,050244,2548.2289,N,07917.9217,W,1,9,1.7,16,M,,M,,*50
06/19/2015	05:02:44.577	$GPGGA,050245,2548.2289,N,07917.9217,W,1,9,1.7,16,M,,M,,*51
06/19/2015	05:02:45.557	$GPGGA,050246,2548.2246,N,07917.9238,W,1,9,1.7,16,M,,M,,*5C
06/19/2015	05:02:46.577	$GPGGA,050247,2548.2224,N,07917.9249,W,1,9,1.7,16,M,,M,,*5F
06/19/2015	05:02:47.557	$GPGGA,050248,2548.2203,N,07917.9260,W,1,9,1.7,16,M,,M,,*5E
06/19/2015	05:02:48.537	$GPGGA,050249,2548.2203,N,07917.9260,W,1,9,1.7,16,M,,M,,*5F
06/19/2015	05:02:49.567	$GPGGA,050250,2548.2159,N,07917.9281,W,1,9,1.7,16,M,,M,,*54
06/19/2015	05:02:50.547	$GPGGA,050251,2548.2137,N,07917.9292,W,1,9,1.7,16,M,,M,,*5F
06/19/2015	05:02:51.577	$GPGGA,050252,2548.2115,N,07917.9303,W,1,9,1.7,16,M,,M,,*55
06/19/2015	05:02:52.537	$GPGGA,050253,2548.2115,N,07917.9303,W,1,9,1.7,16,M,,M,,*54
06/19/2015	05:02:53.537	$GPGGA,050254,2548.2072,N,07917.9324,W,1,9,1.7,16,M,,M,,*56
06/19/2015	05:02:54.526	$GPGGA,050255,2548.2072,N,07917.9324,W,1,9,1.7,16,M,,M,,*57
06/19/2015	05:02:55.566	$GPGGA,050256,2548.2029,N,07917.9346,W,1,9,1.7,16,M,,M,,*5E
06/19/2015	05:02:56.527	$GPGGA,050257,2548.2029,N,07917.9346,W,1,9,1.7,16,M,,M,,*5F
06/19/2015	05:02:57.530	$GPGGA,050258,2548.1984,N,07917.9365,W,1,9,1.7,16,M,,M,,*5C
06/19/2015	05:02:58.547	$GPGGA,050259,2548.1964,N,07917.9375,W,1,9,1.7,16,M,,M,,*52
06/19/2015	05:02:59.577	$GPGGA,050300,2548.1942,N,07917.9386,W,1,9,1.7,16,M,,M,,*57
06/19/2015	05:03:00.577	$GPGGA,050301,2548.1918,N,07917.9395,W,1,9,1.7,16,M,,M,,*5B
06/19/2015	05:03:01.518	$GPGGA,050302,2548.1896,N,07917.9404,W,1,9,1.7,16,M,,M,,*50
06/19/2015	05:03:02.507	$GPGGA,050303,2548.1874,N,07917.9413,W,1,9,1.7,16,M,,M,,*5B
06/19/2015	05:03:03.597	$GPGGA,050304,2548.1852,N,07917.9423,W,1,9,1.7,16,M,,M,,*5B
06/19/2015	05:03:04.547	$GPGGA,050305,2548.1830,N,07917.9433,W,1,9,1.7,16,M,,M,,*5F
06/19/2015	05:03:05.530	$GPGGA,050306,2548.1807,N,07917.9443,W,1,9,1.7,16,M,,M,,*5F
06/19/2015	05:03:06.507	$GPGGA,050307,2548.1807,N,07917.9443,W,1,9,1.7,16,M,,M,,*5E
06/19/2015	05:03:08.557	$GPGGA,050309,2548.1761,N,07917.9462,W,1,9,1.7,16,M,,M,,*5C
06/19/2015	05:03:09.607	$GPGGA,050310,2548.1718,N,07917.9480,W,1,9,1.7,16,M,,M,,*56
06/19/2015	05:03:10.577	$GPGGA,050311,2548.1695,N,07917.9490,W,1,9,1.7,16,M,,M,,*52
06/19/2015	05:03:11.632	$GPGGA,050312,2548.1672,N,07917.9499,W,1,9,1.7,16,M,,M,,*51
06/19/2015	05:03:12.586	$GPGGA,050313,2548.1650,N,07917.9509,W,1,9,1.7,16,M,,M,,*58
06/19/2015	05:03:13.576	$GPGGA,050314,2548.1628,N,07917.9517,W,1,9,1.7,16,M,,M,,*5F
06/19/2015	05:03:14.576	$GPGGA,050315,2548.1606,N,07917.9527,W,1,9,1.7,16,M,,M,,*51
06/19/2015	05:03:15.586	$GPGGA,050316,2548.1582,N,07917.9537,W,1,9,1.7,16,M,,M,,*5C
06/19/2015	05:03:16.577	$GPGGA,050317,2548.1559,N,07917.9546,W,1,9,1.7,16,M,,M,,*5D
06/19/2015	05:03:17.597	$GPGGA,050318,2548.1537,N,07917.9556,W,1,9,1.7,16,M,,M,,*5B
06/19/2015	05:03:18.577	$GPGGA,050319,2548.1514,N,07917.9566,W,1,9,1.7,16,M,,M,,*58
06/19/2015	05:03:19.597	$GPGGA,050320,2548.1492,N,07917.9574,W,1,9,1.7,16,M,,M,,*5E
06/19/2015	05:03:20.557	$GPGGA,050321,2548.1469,N,07917.9585,W,1,9,1.7,16,M,,M,,*55
06/19/2015	05:03:21.587	$GPGGA,050322,2548.1447,N,07917.9595,W,1,9,1.7,16,M,,M,,*5B
06/19/2015	05:03:22.567	$GPGGA,050323,2548.1424,N,07917.9604,W,1,9,1.7,16,M,,M,,*54
06/19/2015	05:03:23.577	$GPGGA,050324,2548.1401,N,07917.9615,W,1,9,1.7,16,M,,M,,*54
06/19/2015	05:03:24.557	$GPGGA,050325,2548.1378,N,07917.9625,W,1,9,1.7,16,M,,M,,*5F
06/19/2015	05:03:25.577	$GPGGA,050326,2548.1357,N,07917.9636,W,1,9,1.7,16,M,,M,,*53
06/19/2015	05:03:26.557	$GPGGA,050327,2548.1333,N,07917.9646,W,1,9,1.7,16,M,,M,,*57
06/19/2015	05:03:27.597	$GPGGA,050328,2548.1310,N,07917.9657,W,1,9,1.7,16,M,,M,,*59
06/19/2015	05:03:28.537	$GPGGA,050329,2548.1289,N,07917.9668,W,1,9,1.7,16,M,,M,,*55
06/19/2015	05:03:29.586	$GPGGA,050330,2548.1266,N,07917.9678,W,1,9,1.7,16,M,,M,,*5D
06/19/2015	05:03:30.536	$GPGGA,050331,2548.1243,N,07917.9689,W,1,9,1.7,16,M,,M,,*55
06/19/2015	05:03:31.576	$GPGGA,050332,2548.1221,N,07917.9698,W,1,9,1.7,16,M,,M,,*52
06/19/2015	05:03:32.546	$GPGGA,050333,2548.1198,N,07917.9709,W,1,9,1.7,16,M,,M,,*5B
06/19/2015	05:03:33.532	$GPGGA,050334,2548.1176,N,07917.9720,W,1,9,1.7,16,M,,M,,*57
06/19/2015	05:03:34.532	$GPGGA,050335,2548.1153,N,07917.9732,W,1,9,1.7,15,M,,M,,*51
06/19/2015	05:03:35.543	$GPGGA,050336,2548.1131,N,07917.9740,W,1,9,1.7,15,M,,M,,*53
06/19/2015	05:03:36.532	$GPGGA,050337,2548.1108,N,07917.9751,W,1,9,1.7,15,M,,M,,*58
06/19/2015	05:03:37.517	$GPGGA,050338,2548.1086,N,07917.9762,W,1,9,1.7,15,M,,M,,*50
06/19/2015	05:03:38.532	$GPGGA,050339,2548.1064,N,07917.9772,W,1,9,1.7,15,M,,M,,*5C
06/19/2015	05:03:39.557	$GPGGA,050340,2548.1041,N,07917.9781,W,1,9,1.7,15,M,,M,,*59
06/19/2015	05:03:40.521	$GPGGA,050341,2548.1018,N,07917.9794,W,1,9,1.7,15,M,,M,,*50
06/19/2015	05:03:41.507	$GPGGA,050342,2548.0996,N,07917.9803,W,1,9,1.7,15,M,,M,,*5C
06/19/2015	05:03:42.530	$GPGGA,050343,2548.0974,N,07917.9812,W,1,9,1.7,15,M,,M,,*51
06/19/2015	05:03:43.528	$GPGGA,050344,2548.0952,N,07917.9823,W,1,9,1.7,15,M,,M,,*50
06/19/2015	05:03:44.532	$GPGGA,050345,2548.0929,N,07917.9834,W,1,9,1.7,15,M,,M,,*5B
06/19/2015	05:03:45.634	$GPGGA,050346,2548.0907,N,07917.9845,W,1,9,1.7,15,M,,M,,*52
06/19/2015	05:03:46.530	$GPGGA,050347,2548.0884,N,07917.9855,W,1,9,1.7,15,M,,M,,*58
06/19/2015	05:03:47.656	$GPGGA,050348,2548.0862,N,07917.9866,W,1,9,1.7,15,M,,M,,*5F
06/19/2015	05:03:48.530	$GPGGA,050349,2548.0840,N,07917.9875,W,1,9,1.7,15,M,,M,,*5C
06/19/2015	05:03:49.596	$GPGGA,050350,2548.0817,N,07917.9884,W,1,9,1.7,15,M,,M,,*58
06/19/2015	05:03:50.506	$GPGGA,050351,2548.0794,N,07917.9893,W,1,9,1.7,15,M,,M,,*5B
06/19/2015	05:03:51.531	$GPGGA,050352,2548.0771,N,07917.9903,W,1,9,1.7,15,M,,M,,*5B
06/19/2015	05:03:52.507	$GPGGA,050353,2548.0750,N,07917.9913,W,1,9,1.7,15,M,,M,,*58
06/19/2015	05:03:53.487	$GPGGA,050354,2548.0726,N,07917.9921,W,1,9,1.7,15,M,,M,,*5F
06/19/2015	05:03:54.507	$GPGGA,050355,2548.0704,N,07917.9929,W,1,9,1.7,15,M,,M,,*56
06/19/2015	05:03:55.626	$GPGGA,050356,2548.0682,N,07917.9939,W,1,9,1.7,15,M,,M,,*5B
06/19/2015	05:03:56.587	$GPGGA,050357,2548.0660,N,07917.9947,W,1,9,1.7,15,M,,M,,*5F
06/19/2015	05:03:57.623	$GPGGA,050358,2548.0638,N,07917.9957,W,1,9,1.7,15,M,,M,,*5C
06/19/2015	05:03:58.577	$GPGGA,050359,2548.0616,N,07917.9965,W,1,9,1.7,15,M,,M,,*50
06/19/2015	05:04:00.052	$GPGGA,050400,2548.0593,N,07917.9975,W,1,9,1.7,15,M,,M,,*54
06/19/2015	05:04:00.587	$GPGGA,050401,2548.0571,N,07917.9985,W,1,9,1.7,15,M,,M,,*56
06/19/2015	05:04:01.577	$GPGGA,050402,2548.0549,N,07917.9993,W,1,9,1.7,14,M,,M,,*58
06/19/2015	05:04:02.587	$GPGGA,050403,2548.0527,N,07918.0004,W,1,9,1.7,14,M,,M,,*50
06/19/2015	05:04:03.619	$GPGGA,050404,2548.0505,N,07918.0012,W,1,9,1.7,14,M,,M,,*50
06/19/2015	05:04:04.566	$GPGGA,050405,2548.0483,N,07918.0022,W,1,9,1.7,14,M,,M,,*5D
06/19/2015	05:04:05.566	$GPGGA,050406,2548.0461,N,07918.0032,W,1,9,1.7,14,M,,M,,*53
06/19/2015	05:04:06.577	$GPGGA,050407,2548.0439,N,07918.0041,W,1,9,1.7,14,M,,M,,*5B
06/19/2015	05:04:07.606	$GPGGA,050408,2548.0417,N,07918.0051,W,1,9,1.7,14,M,,M,,*59
06/19/2015	05:04:08.567	$GPGGA,050409,2548.0396,N,07918.0061,W,1,9,1.7,14,M,,M,,*55
06/19/2015	05:04:09.577	$GPGGA,050410,2548.0374,N,07918.0070,W,1,9,1.7,14,M,,M,,*51
06/19/2015	05:04:10.557	$GPGGA,050411,2548.0351,N,07918.0079,W,1,9,1.7,14,M,,M,,*5E
06/19/2015	05:04:11.577	$GPGGA,050412,2548.0329,N,07918.0090,W,1,9,1.7,14,M,,M,,*55
06/19/2015	05:04:12.557	$GPGGA,050413,2548.0309,N,07918.0098,W,1,9,1.7,14,M,,M,,*5E
06/19/2015	05:04:13.577	$GPGGA,050414,2548.0286,N,07918.0108,W,1,9,1.7,14,M,,M,,*57
06/19/2015	05:04:14.547	$GPGGA,050415,2548.0264,N,07918.0117,W,1,9,1.7,14,M,,M,,*54
06/19/2015	05:04:15.587	$GPGGA,050416,2548.0242,N,07918.0127,W,1,9,1.7,14,M,,M,,*50
06/19/2015	05:04:16.547	$GPGGA,050417,2548.0220,N,07918.0137,W,1,9,1.7,14,M,,M,,*54
06/19/2015	05:04:17.577	$GPGGA,050418,2548.0198,N,07918.0146,W,1,9,1.7,14,M,,M,,*5D
06/19/2015	05:04:18.537	$GPGGA,050419,2548.0176,N,07918.0155,W,1,9,1.7,14,M,,M,,*5E
06/19/2015	05:04:19.587	$GPGGA,050420,2548.0155,N,07918.0166,W,1,9,1.7,14,M,,M,,*55
06/19/2015	05:04:20.847	$GPGGA,050421,2548.0133,N,07918.0175,W,1,9,1.7,14,M,,M,,*56
06/19/2015	05:04:21.526	$GPGGA,050422,2548.0111,N,07918.0184,W,1,9,1.7,14,M,,M,,*5B
06/19/2015	05:04:22.546	$GPGGA,050423,2548.0090,N,07918.0193,W,1,9,1.7,14,M,,M,,*54
06/19/2015	05:04:23.546	$GPGGA,050424,2548.0068,N,07918.0203,W,1,9,1.7,14,M,,M,,*5E
06/19/2015	05:04:24.528	$GPGGA,050425,2548.0046,N,07918.0213,W,1,9,1.7,13,M,,M,,*55
06/19/2015	05:04:25.566	$GPGGA,050426,2548.0025,N,07918.0222,W,1,9,1.7,13,M,,M,,*51
06/19/2015	05:04:26.531	$GPGGA,050427,2548.0003,N,07918.0231,W,1,9,1.7,13,M,,M,,*56
06/19/2015	05:04:27.577	$GPGGA,050428,2547.9981,N,07918.0242,W,1,9,1.7,13,M,,M,,*58
06/19/2015	05:04:28.531	$GPGGA,050429,2547.9959,N,07918.0253,W,1,9,1.7,13,M,,M,,*5C
06/19/2015	05:04:29.537	$GPGGA,050430,2547.9938,N,07918.0261,W,1,9,1.7,13,M,,M,,*52
06/19/2015	05:04:30.521	$GPGGA,050431,2547.9916,N,07918.0271,W,1,9,1.7,13,M,,M,,*5E
06/19/2015	05:04:31.547	$GPGGA,050432,2547.9894,N,07918.0280,W,1,9,1.7,13,M,,M,,*58
06/19/2015	05:04:32.507	$GPGGA,050433,2547.9873,N,07918.0292,W,1,9,1.7,13,M,,M,,*53
06/19/2015	05:04:33.525	$GPGGA,050434,2547.9851,N,07918.0301,W,1,9,1.7,13,M,,M,,*5F
06/19/2015	05:04:34.507	$GPGGA,050435,2547.9829,N,07918.0311,W,1,9,1.7,13,M,,M,,*50
06/19/2015	05:04:35.529	$GPGGA,050436,2547.9807,N,07918.0322,W,1,9,1.7,13,M,,M,,*5F
06/19/2015	05:04:36.497	$GPGGA,050437,2547.9785,N,07918.0332,W,1,9,1.7,13,M,,M,,*5A
06/19/2015	05:04:37.497	$GPGGA,050438,2547.9763,N,07918.0341,W,1,9,1.7,13,M,,M,,*59
06/19/2015	05:04:38.622	$GPGGA,050439,2547.9742,N,07918.0351,W,1,9,1.7,13,M,,M,,*5A
06/19/2015	05:04:39.620	$GPGGA,050440,2547.9720,N,07918.0362,W,1,9,1.7,13,M,,M,,*50
06/19/2015	05:04:40.521	$GPGGA,050441,2547.9697,N,07918.0372,W,1,9,1.7,13,M,,M,,*5D
06/19/2015	05:04:41.596	$GPGGA,050442,2547.9674,N,07918.0383,W,1,9,1.7,13,M,,M,,*5D
06/19/2015	05:04:42.586	$GPGGA,050443,2547.9652,N,07918.0392,W,1,9,1.7,13,M,,M,,*58
06/19/2015	05:04:43.517	$GPGGA,050444,2547.9630,N,07918.0404,W,1,9,1.7,13,M,,M,,*53
06/19/2015	05:04:44.497	$GPGGA,050445,2547.9608,N,07918.0413,W,1,9,1.7,13,M,,M,,*5F
06/19/2015	05:04:45.621	$GPGGA,050446,2547.9585,N,07918.0423,W,1,9,1.7,13,M,,M,,*59
06/19/2015	05:04:46.497	$GPGGA,050447,2547.9562,N,07918.0434,W,1,9,1.7,13,M,,M,,*57
06/19/2015	05:04:47.497	$GPGGA,050448,2547.9540,N,07918.0444,W,1,9,1.7,13,M,,M,,*5F
06/19/2015	05:04:48.487	$GPGGA,050449,2547.9518,N,07918.0455,W,1,9,2.0,13,M,,M,,*57
06/19/2015	05:04:49.577	$GPGGA,050450,2547.9494,N,07918.0463,W,1,9,1.7,13,M,,M,,*5B
06/19/2015	05:04:50.567	$GPGGA,050451,2547.9471,N,07918.0473,W,1,9,1.7,13,M,,M,,*50
06/19/2015	05:04:51.627	$GPGGA,050452,2547.9449,N,07918.0484,W,1,9,1.7,13,M,,M,,*50
06/19/2015	05:04:52.567	$GPGGA,050453,2547.9425,N,07918.0492,W,1,9,1.7,13,M,,M,,*5C
06/19/2015	05:04:53.597	$GPGGA,050454,2547.9402,N,07918.0502,W,1,9,1.7,13,M,,M,,*56
06/19/2015	05:04:54.577	$GPGGA,050455,2547.9379,N,07918.0511,W,1,9,1.7,13,M,,M,,*5E
06/19/2015	05:04:55.587	$GPGGA,050456,2547.9356,N,07918.0521,W,1,9,1.7,13,M,,M,,*53
06/19/2015	05:04:56.566	$GPGGA,050457,2547.9333,N,07918.0532,W,1,9,1.7,13,M,,M,,*53
06/19/2015	05:04:57.586	$GPGGA,050458,2547.9310,N,07918.0542,W,1,9,1.7,13,M,,M,,*5A
06/19/2015	05:04:58.566	$GPGGA,050459,2547.9287,N,07918.0551,W,1,9,1.7,13,M,,M,,*56
06/19/2015	05:04:59.596	$GPGGA,050500,2547.9265,N,07918.0561,W,1,9,1.7,13,M,,M,,*54
06/19/2015	05:05:00.566	$GPGGA,050501,2547.9241,N,07918.0571,W,1,9,1.7,13,M,,M,,*52
06/19/2015	05:05:01.547	$GPGGA,050502,2547.9218,N,07918.0581,W,1,9,1.7,13,M,,M,,*52
06/19/2015	05:05:02.547	$GPGGA,050503,2547.9194,N,07918.0592,W,1,9,1.7,13,M,,M,,*56
06/19/2015	05:05:03.597	$GPGGA,050504,2547.9172,N,07918.0601,W,1,9,1.7,13,M,,M,,*50
06/19/2015	05:05:04.558	$GPGGA,050505,2547.9148,N,07918.0611,W,1,9,1.7,14,M,,M,,*5E
06/19/2015	05:05:05.537	$GPGGA,050506,2547.9125,N,07918.0621,W,1,9,1.7,14,M,,M,,*55
06/19/2015	05:05:06.547	$GPGGA,050507,2547.9102,N,07918.0632,W,1,9,1.7,14,M,,M,,*53
06/19/2015	05:05:07.557	$GPGGA,050508,2547.9078,N,07918.0641,W,1,9,1.7,14,M,,M,,*54
06/19/2015	05:05:08.547	$GPGGA,050509,2547.9055,N,07918.0652,W,1,9,1.7,14,M,,M,,*58
06/19/2015	05:05:09.557	$GPGGA,050510,2547.9034,N,07918.0662,W,1,9,1.7,14,M,,M,,*54
06/19/2015	05:05:10.528	$GPGGA,050511,2547.9009,N,07918.0672,W,1,9,2.0,14,M,,M,,*5E
06/19/2015	05:05:11.557	$GPGGA,050512,2547.8985,N,07918.0683,W,1,9,1.7,14,M,,M,,*5B
06/19/2015	05:05:12.547	$GPGGA,050513,2547.8965,N,07918.0693,W,1,9,1.7,14,M,,M,,*55
06/19/2015	05:05:13.556	$GPGGA,050514,2547.8941,N,07918.0702,W,1,9,1.7,14,M,,M,,*5D
06/19/2015	05:05:14.536	$GPGGA,050515,2547.8918,N,07918.0713,W,1,9,1.7,14,M,,M,,*50
06/19/2015	05:05:15.546	$GPGGA,050516,2547.8896,N,07918.0724,W,1,9,1.7,14,M,,M,,*50
06/19/2015	05:05:16.536	$GPGGA,050517,2547.8873,N,07918.0734,W,1,9,1.7,14,M,,M,,*5B
06/19/2015	05:05:17.546	$GPGGA,050518,2547.8850,N,07918.0745,W,1,9,1.7,14,M,,M,,*53
06/19/2015	05:05:18.519	$GPGGA,050519,2547.8828,N,07918.0755,W,1,9,2.0,14,M,,M,,*58
06/19/2015	05:05:19.527	$GPGGA,050520,2547.8806,N,07918.0766,W,1,9,1.7,14,M,,M,,*5A
06/19/2015	05:05:20.637	$GPGGA,050521,2547.8783,N,07918.0780,W,1,9,2.0,14,M,,M,,*55
06/19/2015	05:05:21.507	$GPGGA,050522,2547.8760,N,07918.0792,W,1,9,1.7,14,M,,M,,*5C
06/19/2015	05:05:22.632	$GPGGA,050523,2547.8738,N,07918.0803,W,1,9,1.7,14,M,,M,,*57
06/19/2015	05:05:24.060	$GPGGA,050524,2547.8716,N,07918.0816,W,1,9,1.7,14,M,,M,,*58
06/19/2015	05:05:24.507	$GPGGA,050525,2547.8694,N,07918.0825,W,1,9,1.7,14,M,,M,,*52
06/19/2015	05:05:25.497	$GPGGA,050526,2547.8671,N,07918.0835,W,1,9,1.7,14,M,,M,,*5B
06/19/2015	05:05:26.518	$GPGGA,050527,2547.8648,N,07918.0846,W,1,9,1.7,14,M,,M,,*54
06/19/2015	05:05:27.637	$GPGGA,050528,2547.8626,N,07918.0857,W,1,9,1.7,14,M,,M,,*53
06/19/2015	05:05:28.607	$GPGGA,050529,2547.8604,N,07918.0868,W,1,9,1.7,14,M,,M,,*5E
06/19/2015	05:05:29.587	$GPGGA,050530,2547.8580,N,07918.0878,W,1,9,1.7,14,M,,M,,*58
06/19/2015	05:05:30.487	$GPGGA,050531,2547.8557,N,07918.0889,W,1,9,1.7,14,M,,M,,*5D
06/19/2015	05:05:31.506	$GPGGA,050532,2547.8535,N,07918.0900,W,1,9,1.7,14,M,,M,,*5A
06/19/2015	05:05:32.506	$GPGGA,050533,2547.8512,N,07918.0911,W,1,9,1.7,14,M,,M,,*5E
06/19/2015	05:05:33.586	$GPGGA,050534,2547.8489,N,07918.0922,W,1,9,1.7,14,M,,M,,*5A
06/19/2015	05:05:34.586	$GPGGA,050535,2547.8467,N,07918.0933,W,1,9,1.7,14,M,,M,,*5B
06/19/2015	05:05:35.636	$GPGGA,050536,2547.8445,N,07918.0943,W,1,9,1.7,14,M,,M,,*5F
06/19/2015	05:05:36.577	$GPGGA,050537,2547.8421,N,07918.0954,W,1,9,1.7,14,M,,M,,*5A
06/19/2015	05:05:37.577	$GPGGA,050538,2547.8399,N,07918.0965,W,1,9,1.7,14,M,,M,,*53
06/19/2015	05:05:38.588	$GPGGA,050539,2547.8377,N,07918.0976,W,1,9,1.7,14,M,,M,,*50
06/19/2015	05:05:39.587	$GPGGA,050540,2547.8355,N,07918.0987,W,1,9,1.7,14,M,,M,,*50
06/19/2015	05:05:40.567	$GPGGA,050541,2547.8333,N,07918.0998,W,1,9,1.7,14,M,,M,,*5F
06/19/2015	05:05:41.567	$GPGGA,050542,2547.8311,N,07918.1011,W,1,9,1.7,14,M,,M,,*55
06/19/2015	05:05:42.577	$GPGGA,050543,2547.8288,N,07918.1022,W,1,9,1.7,14,M,,M,,*55
06/19/2015	05:05:43.607	$GPGGA,050544,2547.8266,N,07918.1031,W,1,9,1.7,14,M,,M,,*50
06/19/2015	05:05:44.567	$GPGGA,050545,2547.8244,N,07918.1044,W,1,9,1.7,13,M,,M,,*54
06/19/2015	05:05:45.577	$GPGGA,050546,2547.8221,N,07918.1055,W,1,9,1.7,13,M,,M,,*54
06/19/2015	05:05:46.557	$GPGGA,050547,2547.8199,N,07918.1066,W,1,9,1.7,13,M,,M,,*55
06/19/2015	05:05:47.587	$GPGGA,050548,2547.8176,N,07918.1077,W,1,9,1.7,13,M,,M,,*5B
06/19/2015	05:05:48.566	$GPGGA,050549,2547.8154,N,07918.1088,W,1,9,1.7,13,M,,M,,*5A
06/19/2015	05:05:49.556	$GPGGA,050550,2547.8131,N,07918.1099,W,1,9,1.7,13,M,,M,,*51
06/19/2015	05:05:50.556	$GPGGA,050551,2547.8109,N,07918.1109,W,1,9,1.7,13,M,,M,,*53
06/19/2015	05:05:51.596	$GPGGA,050552,2547.8087,N,07918.1121,W,1,8,2.0,13,M,,M,,*58
06/19/2015	05:05:52.536	$GPGGA,050553,2547.8064,N,07918.1131,W,1,8,1.7,13,M,,M,,*51
06/19/2015	05:05:53.587	$GPGGA,050554,2547.8042,N,07918.1142,W,1,9,1.7,13,M,,M,,*57
06/19/2015	05:05:54.547	$GPGGA,050555,2547.8019,N,07918.1152,W,1,9,1.7,13,M,,M,,*59
06/19/2015	05:05:55.587	$GPGGA,050556,2547.7997,N,07918.1163,W,1,9,1.7,13,M,,M,,*58
06/19/2015	05:05:56.537	$GPGGA,050557,2547.7975,N,07918.1174,W,1,9,1.7,13,M,,M,,*53
06/19/2015	05:05:57.537	$GPGGA,050558,2547.7952,N,07918.1185,W,1,9,1.7,13,M,,M,,*57
06/19/2015	05:05:58.537	$GPGGA,050559,2547.7929,N,07918.1196,W,1,9,1.7,13,M,,M,,*58
06/19/2015	05:05:59.597	$GPGGA,050600,2547.7906,N,07918.1206,W,1,9,1.7,13,M,,M,,*50
06/19/2015	05:06:00.532	$GPGGA,050601,2547.7885,N,07918.1217,W,1,9,1.7,13,M,,M,,*5B
06/19/2015	05:06:01.557	$GPGGA,050602,2547.7863,N,07918.1228,W,1,9,1.7,13,M,,M,,*5C
06/19/2015	05:06:02.529	$GPGGA,050603,2547.7838,N,07918.1237,W,1,9,1.7,13,M,,M,,*5D
06/19/2015	05:06:03.547	$GPGGA,050604,2547.7816,N,07918.1247,W,1,9,1.7,13,M,,M,,*51
06/19/2015	05:06:04.637	$GPGGA,050605,2547.7794,N,07918.1257,W,1,9,1.7,13,M,,M,,*54
06/19/2015	05:06:05.637	$GPGGA,050606,2547.7771,N,07918.1268,W,1,9,1.7,13,M,,M,,*50
06/19/2015	05:06:06.532	$GPGGA,050607,2547.7748,N,07918.1279,W,1,9,1.7,13,M,,M,,*5B
06/19/2015	05:06:07.536	$GPGGA,050608,2547.7726,N,07918.1288,W,1,9,1.7,13,M,,M,,*52
06/19/2015	05:06:09.535	$GPGGA,050609,2547.7704,N,07918.1298,W,1,9,1.7,13,M,,M,,*52
06/19/2015	05:06:09.556	$GPGGA,050610,2547.7680,N,07918.1308,W,1,9,1.7,13,M,,M,,*5F
06/19/2015	05:06:10.506	$GPGGA,050611,2547.7657,N,07918.1319,W,1,9,1.7,13,M,,M,,*54
06/19/2015	05:06:11.647	$GPGGA,050612,2547.7634,N,07918.1329,W,1,9,1.7,13,M,,M,,*51
06/19/2015	05:06:12.524	$GPGGA,050613,2547.7611,N,07918.1338,W,1,9,1.7,13,M,,M,,*57
06/19/2015	05:06:13.947	$GPGGA,050614,2547.7589,N,07918.1348,W,1,9,1.7,13,M,,M,,*55
06/19/2015	05:06:14.517	$GPGGA,050615,2547.7565,N,07918.1358,W,1,9,1.7,13,M,,M,,*57
06/19/2015	05:06:15.507	$GPGGA,050616,2547.7542,N,07918.1367,W,1,9,1.7,13,M,,M,,*5D
06/19/2015	05:06:16.587	$GPGGA,050617,2547.7520,N,07918.1377,W,1,9,1.7,14,M,,M,,*5E
06/19/2015	05:06:17.633	$GPGGA,050618,2547.7498,N,07918.1387,W,1,9,1.7,14,M,,M,,*5C
06/19/2015	05:06:18.507	$GPGGA,050619,2547.7475,N,07918.1398,W,1,9,1.7,14,M,,M,,*50
06/19/2015	05:06:19.634	$GPGGA,050620,2547.7452,N,07918.1407,W,1,9,1.7,14,M,,M,,*5E
06/19/2015	05:06:20.587	$GPGGA,050621,2547.7430,N,07918.1417,W,1,9,1.7,14,M,,M,,*5A
06/19/2015	05:06:21.597	$GPGGA,050622,2547.7408,N,07918.1428,W,1,9,1.7,14,M,,M,,*5E
06/19/2015	05:06:22.587	$GPGGA,050623,2547.7384,N,07918.1438,W,1,9,1.7,14,M,,M,,*5D
06/19/2015	05:06:23.676	$GPGGA,050624,2547.7362,N,07918.1449,W,1,9,1.7,14,M,,M,,*54
06/19/2015	05:06:24.586	$GPGGA,050625,2547.7339,N,07918.1460,W,1,9,1.7,14,M,,M,,*50
06/19/2015	05:06:25.606	$GPGGA,050626,2547.7316,N,07918.1471,W,1,9,1.7,14,M,,M,,*5E
06/19/2015	05:06:26.586	$GPGGA,050627,2547.7293,N,07918.1481,W,1,9,1.7,14,M,,M,,*5C
06/19/2015	05:06:27.608	$GPGGA,050628,2547.7271,N,07918.1492,W,1,9,1.7,14,M,,M,,*5D
06/19/2015	05:06:28.577	$GPGGA,050629,2547.7247,N,07918.1503,W,1,9,1.7,14,M,,M,,*50
06/19/2015	05:06:29.587	$GPGGA,050630,2547.7225,N,07918.1515,W,1,9,1.7,14,M,,M,,*5B
06/19/2015	05:06:30.567	$GPGGA,050631,2547.7202,N,07918.1526,W,1,9,1.7,14,M,,M,,*5F
06/19/2015	05:06:31.617	$GPGGA,050632,2547.7179,N,07918.1537,W,1,9,1.7,14,M,,M,,*53
06/19/2015	05:06:32.557	$GPGGA,050633,2547.7157,N,07918.1548,W,1,9,1.7,14,M,,M,,*56
06/19/2015	05:06:33.587	$GPGGA,050634,2547.7134,N,07918.1559,W,1,9,1.7,14,M,,M,,*54
06/19/2015	05:06:34.567	$GPGGA,050635,2547.7112,N,07918.1571,W,1,9,1.7,14,M,,M,,*5B
06/19/2015	05:06:35.607	$GPGGA,050636,2547.7088,N,07918.1582,W,1,9,1.7,14,M,,M,,*56
06/19/2015	05:06:36.557	$GPGGA,050637,2547.7066,N,07918.1593,W,1,9,1.7,14,M,,M,,*57
06/19/2015	05:06:37.557	$GPGGA,050638,2547.7044,N,07918.1604,W,1,9,1.7,14,M,,M,,*55
06/19/2015	05:06:38.557	$GPGGA,050639,2547.7021,N,07918.1615,W,1,9,1.7,14,M,,M,,*57
06/19/2015	05:06:39.587	$GPGGA,050640,2547.6998,N,07918.1627,W,1,9,1.7,14,M,,M,,*52
06/19/2015	05:06:40.547	$GPGGA,050641,2547.6976,N,07918.1640,W,1,9,1.7,14,M,,M,,*52
06/19/2015	05:06:41.566	$GPGGA,050642,2547.6954,N,07918.1651,W,1,9,1.7,14,M,,M,,*51
06/19/2015	05:06:42.556	$GPGGA,050643,2547.6932,N,07918.1662,W,1,9,1.7,14,M,,M,,*50
06/19/2015	05:06:43.607	$GPGGA,050644,2547.6909,N,07918.1673,W,1,9,1.7,14,M,,M,,*5F
06/19/2015	05:06:44.556	$GPGGA,050645,2547.6888,N,07918.1685,W,1,9,1.7,14,M,,M,,*5F
06/19/2015	05:06:45.576	$GPGGA,050646,2547.6864,N,07918.1696,W,1,9,1.7,14,M,,M,,*5C
06/19/2015	05:06:46.527	$GPGGA,050647,2547.6841,N,07918.1709,W,1,9,1.7,14,M,,M,,*5D
06/19/2015	05:06:47.557	$GPGGA,050648,2547.6819,N,07918.1720,W,1,9,1.7,14,M,,M,,*54
06/19/2015	05:06:48.547	$GPGGA,050649,2547.6796,N,07918.1730,W,1,9,1.7,14,M,,M,,*5C
06/19/2015	05:06:49.567	$GPGGA,050650,2547.6774,N,07918.1741,W,1,9,1.7,14,M,,M,,*5E
06/19/2015	05:06:50.547	$GPGGA,050651,2547.6751,N,07918.1752,W,1,9,1.7,14,M,,M,,*5A
06/19/2015	05:06:51.537	$GPGGA,050652,2547.6729,N,07918.1763,W,1,9,1.7,14,M,,M,,*54
06/19/2015	05:06:52.631	$GPGGA,050653,2547.6705,N,07918.1774,W,1,9,1.7,14,M,,M,,*5D
06/19/2015	05:06:53.627	$GPGGA,050654,2547.6682,N,07918.1785,W,1,9,1.7,14,M,,M,,*5A
06/19/2015	05:06:54.521	$GPGGA,050655,2547.6660,N,07918.1795,W,1,9,1.7,14,M,,M,,*56
06/19/2015	05:06:55.557	$GPGGA,050656,2547.6636,N,07918.1806,W,1,9,1.7,14,M,,M,,*53
06/19/2015	05:06:56.517	$GPGGA,050657,2547.6613,N,07918.1815,W,1,9,1.7,14,M,,M,,*57
06/19/2015	05:06:57.537	$GPGGA,050658,2547.6590,N,07918.1825,W,1,9,1.7,14,M,,M,,*53
06/19/2015	05:06:58.517	$GPGGA,050659,2547.6566,N,07918.1835,W,1,9,1.7,14,M,,M,,*5A
06/19/2015	05:06:59.586	$GPGGA,050700,2547.6543,N,07918.1846,W,1,9,1.7,14,M,,M,,*54
06/19/2015	05:07:00.517	$GPGGA,050701,2547.6520,N,07918.1855,W,1,9,1.7,14,M,,M,,*52
06/19/2015	05:07:01.536	$GPGGA,050702,2547.6497,N,07918.1864,W,1,9,1.7,14,M,,M,,*5E
06/19/2015	05:07:02.506	$GPGGA,050703,2547.6474,N,07918.1875,W,1,9,1.7,14,M,,M,,*52
06/19/2015	05:07:03.637	$GPGGA,050704,2547.6451,N,07918.1884,W,1,9,1.7,14,M,,M,,*5C
06/19/2015	05:07:04.530	$GPGGA,050705,2547.6451,N,07918.1884,W,1,9,1.7,14,M,,M,,*5D
06/19/2015	05:07:05.524	$GPGGA,050706,2547.6404,N,07918.1904,W,1,9,1.7,14,M,,M,,*57
06/19/2015	05:07:06.522	$GPGGA,050707,2547.6382,N,07918.1915,W,1,9,1.7,14,M,,M,,*5F
06/19/2015	05:07:07.557	$GPGGA,050708,2547.6358,N,07918.1925,W,1,9,1.7,14,M,,M,,*54
06/19/2015	05:07:08.587	$GPGGA,050709,2547.6335,N,07918.1934,W,1,9,1.7,14,M,,M,,*5E
06/19/2015	05:07:09.631	$GPGGA,050710,2547.6312,N,07918.1944,W,1,9,1.7,14,M,,M,,*54
06/19/2015	05:07:10.587	$GPGGA,050711,2547.6289,N,07918.1954,W,1,9,1.7,14,M,,M,,*57
06/19/2015	05:07:11.587	$GPGGA,050712,2547.6266,N,07918.1963,W,1,9,1.7,14,M,,M,,*51
06/19/2015	05:07:12.567	$GPGGA,050713,2547.6243,N,07918.1973,W,1,9,1.7,14,M,,M,,*56
06/19/2015	05:07:13.567	$GPGGA,050714,2547.6220,N,07918.1983,W,1,9,1.7,14,M,,M,,*5B
06/19/2015	05:07:14.567	$GPGGA,050715,2547.6198,N,07918.1994,W,1,9,1.7,13,M,,M,,*5B
06/19/2015	05:07:15.607	$GPGGA,050716,2547.6174,N,07918.2002,W,1,9,1.7,13,M,,M,,*5F
06/19/2015	05:07:16.566	$GPGGA,050717,2547.6151,N,07918.2012,W,1,9,1.7,13,M,,M,,*58
06/19/2015	05:07:17.596	$GPGGA,050718,2547.6129,N,07918.2023,W,1,9,1.7,13,M,,M,,*5A
06/19/2015	05:07:18.566	$GPGGA,050719,2547.6106,N,07918.2032,W,1,9,1.7,13,M,,M,,*56
06/19/2015	05:07:19.596	$GPGGA,050720,2547.6083,N,07918.2042,W,1,9,1.7,13,M,,M,,*57
06/19/2015	05:07:20.567	$GPGGA,050721,2547.6060,N,07918.2052,W,1,9,1.7,13,M,,M,,*5A
06/19/2015	05:07:21.557	$GPGGA,050722,2547.6039,N,07918.2063,W,1,9,1.7,13,M,,M,,*57
06/19/2015	05:07:22.557	$GPGGA,050723,2547.6015,N,07918.2071,W,1,9,1.7,13,M,,M,,*5B
06/19/2015	05:07:23.597	$GPGGA,050724,2547.5992,N,07918.2082,W,1,9,1.7,13,M,,M,,*55
06/19/2015	05:07:24.557	$GPGGA,050725,2547.5970,N,07918.2092,W,1,9,1.7,13,M,,M,,*59
06/19/2015	05:07:25.567	$GPGGA,050726,2547.5947,N,07918.2103,W,1,9,1.7,13,M,,M,,*57
06/19/2015	05:07:26.547	$GPGGA,050727,2547.5925,N,07918.2114,W,1,9,1.7,13,M,,M,,*54
06/19/2015	05:07:27.587	$GPGGA,050728,2547.5902,N,07918.2124,W,1,9,1.7,13,M,,M,,*5D
06/19/2015	05:07:28.547	$GPGGA,050729,2547.5880,N,07918.2136,W,1,9,1.7,13,M,,M,,*54
06/19/2015	05:07:29.567	$GPGGA,050730,2547.5856,N,07918.2147,W,1,9,1.7,13,M,,M,,*51
06/19/2015	05:07:30.530	$GPGGA,050731,2547.5834,N,07918.2158,W,1,9,1.7,13,M,,M,,*5A
06/19/2015	05:07:31.577	$GPGGA,050732,2547.5812,N,07918.2169,W,1,9,1.7,13,M,,M,,*5F
06/19/2015	05:07:32.547	$GPGGA,050733,2547.5789,N,07918.2180,W,1,9,1.7,13,M,,M,,*54
06/19/2015	05:07:33.566	$GPGGA,050734,2547.5768,N,07918.2190,W,1,9,1.7,13,M,,M,,*5D
06/19/2015	05:07:34.536	$GPGGA,050735,2547.5744,N,07918.2201,W,1,9,1.7,13,M,,M,,*59
06/19/2015	05:07:35.543	$GPGGA,050736,2547.5722,N,07918.2211,W,1,9,1.7,13,M,,M,,*5B
06/19/2015	05:07:36.531	$GPGGA,050737,2547.5700,N,07918.2222,W,1,9,1.7,13,M,,M,,*5A
06/19/2015	05:07:37.529	$GPGGA,050738,2547.5677,N,07918.2233,W,1,9,1.7,13,M,,M,,*54
06/19/2015	05:07:38.519	$GPGGA,050739,2547.5656,N,07918.2243,W,1,9,1.7,13,M,,M,,*51
06/19/2015	05:07:39.547	$GPGGA,050740,2547.5634,N,07918.2254,W,1,9,1.7,13,M,,M,,*5D
06/19/2015	05:07:40.517	$GPGGA,050741,2547.5610,N,07918.2265,W,1,9,1.7,13,M,,M,,*58
06/19/2015	05:07:41.527	$GPGGA,050742,2547.5588,N,07918.2276,W,1,9,1.7,13,M,,M,,*5B
06/19/2015	05:07:42.507	$GPGGA,050743,2547.5566,N,07918.2287,W,1,9,2.0,13,M,,M,,*50
06/19/2015	05:07:43.547	$GPGGA,050744,2547.5544,N,07918.2298,W,1,9,1.7,13,M,,M,,*5D
06/19/2015	05:07:44.607	$GPGGA,050745,2547.5522,N,07918.2309,W,1,9,1.7,13,M,,M,,*55
06/19/2015	05:07:45.532	$GPGGA,050746,2547.5499,N,07918.2320,W,1,9,1.7,13,M,,M,,*5C
06/19/2015	05:07:46.520	$GPGGA,050747,2547.5476,N,07918.2331,W,1,9,1.7,13,M,,M,,*5C
06/19/2015	05:07:48.607	$GPGGA,050749,2547.5432,N,07918.2352,W,1,9,1.7,13,M,,M,,*57
06/19/2015	05:07:49.607	$GPGGA,050750,2547.5410,N,07918.2363,W,1,9,1.7,13,M,,M,,*5D
06/19/2015	05:07:50.617	$GPGGA,050751,2547.5387,N,07918.2373,W,1,9,1.7,13,M,,M,,*54
06/19/2015	05:07:51.631	$GPGGA,050752,2547.5365,N,07918.2384,W,1,9,1.7,13,M,,M,,*53
06/19/2015	05:07:52.520	$GPGGA,050753,2547.5342,N,07918.2392,W,1,9,1.7,13,M,,M,,*50
06/19/2015	05:07:53.596	$GPGGA,050754,2547.5320,N,07918.2402,W,1,9,1.7,13,M,,M,,*5D
06/19/2015	05:07:54.596	$GPGGA,050755,2547.5298,N,07918.2413,W,1,9,1.7,13,M,,M,,*5E
06/19/2015	05:07:55.620	$GPGGA,050756,2547.5274,N,07918.2424,W,1,9,1.7,13,M,,M,,*5B
06/19/2015	05:07:56.597	$GPGGA,050757,2547.5251,N,07918.2432,W,1,9,1.7,13,M,,M,,*5A
06/19/2015	05:07:57.607	$GPGGA,050758,2547.5228,N,07918.2442,W,1,9,1.7,13,M,,M,,*5C
06/19/2015	05:07:58.587	$GPGGA,050759,2547.5205,N,07918.2453,W,1,9,1.7,13,M,,M,,*52
06/19/2015	05:07:59.657	$GPGGA,050800,2547.5182,N,07918.2462,W,1,9,1.7,13,M,,M,,*5F
06/19/2015	05:08:00.578	$GPGGA,050801,2547.5161,N,07918.2472,W,1,9,1.7,13,M,,M,,*52
06/19/2015	05:08:01.597	$GPGGA,050802,2547.5136,N,07918.2482,W,1,9,1.7,13,M,,M,,*5C
06/19/2015	05:08:02.567	$GPGGA,050803,2547.5114,N,07918.2491,W,1,9,1.7,13,M,,M,,*5F
06/19/2015	05:08:03.617	$GPGGA,050804,2547.5092,N,07918.2500,W,1,9,1.7,13,M,,M,,*5E
06/19/2015	05:08:04.567	$GPGGA,050805,2547.5068,N,07918.2511,W,1,9,1.7,13,M,,M,,*5A
06/19/2015	05:08:05.597	$GPGGA,050806,2547.5045,N,07918.2520,W,1,9,1.7,13,M,,M,,*54
06/19/2015	05:08:06.557	$GPGGA,050807,2547.5023,N,07918.2529,W,1,9,1.7,13,M,,M,,*5C
06/19/2015	05:08:07.587	$GPGGA,050808,2547.4999,N,07918.2538,W,1,9,1.7,13,M,,M,,*5A
06/19/2015	05:08:08.566	$GPGGA,050809,2547.4977,N,07918.2548,W,1,9,1.7,13,M,,M,,*5C
06/19/2015	05:08:09.576	$GPGGA,050810,2547.4955,N,07918.2558,W,1,9,1.7,13,M,,M,,*55
06/19/2015	05:08:10.546	$GPGGA,050811,2547.4931,N,07918.2568,W,1,9,1.7,13,M,,M,,*55
06/19/2015	05:08:11.586	$GPGGA,050812,2547.4908,N,07918.2577,W,1,9,1.7,13,M,,M,,*52
06/19/2015	05:08:12.556	$GPGGA,050813,2547.4886,N,07918.2587,W,1,9,1.7,13,M,,M,,*5B
06/19/2015	05:08:13.607	$GPGGA,050814,2547.4862,N,07918.2595,W,1,8,2.0,13,M,,M,,*50
06/19/2015	05:08:14.536	$GPGGA,050815,2547.4840,N,07918.2605,W,1,8,1.7,13,M,,M,,*5F
06/19/2015	05:08:15.587	$GPGGA,050816,2547.4818,N,07918.2613,W,1,9,1.7,13,M,,M,,*57
06/19/2015	05:08:16.526	$GPGGA,050817,2547.4796,N,07918.2621,W,1,9,1.7,13,M,,M,,*5E
06/19/2015	05:08:17.566	$GPGGA,050818,2547.4772,N,07918.2630,W,1,9,1.7,13,M,,M,,*5B
06/19/2015	05:08:18.526	$GPGGA,050819,2547.4749,N,07918.2639,W,1,9,1.7,13,M,,M,,*5B
06/19/2015	05:08:19.536	$GPGGA,050820,2547.4727,N,07918.2648,W,1,9,1.7,13,M,,M,,*5F
06/19/2015	05:08:20.646	$GPGGA,050821,2547.4704,N,07918.2659,W,1,9,1.7,13,M,,M,,*5F
06/19/2015	05:08:21.556	$GPGGA,050822,2547.4681,N,07918.2668,W,1,9,1.7,13,M,,M,,*52
06/19/2015	05:08:22.526	$GPGGA,050823,2547.4659,N,07918.2677,W,1,9,1.7,14,M,,M,,*5F
06/19/2015	05:08:23.577	$GPGGA,050824,2547.4637,N,07918.2688,W,1,9,1.7,14,M,,M,,*50
06/19/2015	05:08:24.516	$GPGGA,050825,2547.4614,N,07918.2697,W,1,9,1.7,14,M,,M,,*5E
06/19/2015	05:08:25.547	$GPGGA,050826,2547.4592,N,07918.2707,W,1,9,1.7,14,M,,M,,*58
06/19/2015	05:08:26.524	$GPGGA,050827,2547.4570,N,07918.2718,W,1,9,1.7,14,M,,M,,*5B
06/19/2015	05:08:27.536	$GPGGA,050828,2547.4547,N,07918.2729,W,1,9,1.7,14,M,,M,,*52
06/19/2015	05:08:28.526	$GPGGA,050829,2547.4525,N,07918.2740,W,1,9,1.7,14,M,,M,,*58
06/19/2015	05:08:29.526	$GPGGA,050830,2547.4502,N,07918.2750,W,1,9,1.7,14,M,,M,,*54
06/19/2015	05:08:30.519	$GPGGA,050831,2547.4479,N,07918.2761,W,1,9,1.7,14,M,,M,,*5A
06/19/2015	05:08:31.536	$GPGGA,050832,2547.4457,N,07918.2771,W,1,9,1.7,14,M,,M,,*54
06/19/2015	05:08:32.606	$GPGGA,050833,2547.4435,N,07918.2782,W,1,9,1.7,14,M,,M,,*5D
06/19/2015	05:08:33.527	$GPGGA,050834,2547.4413,N,07918.2793,W,1,9,1.7,14,M,,M,,*5E
06/19/2015	05:08:34.596	$GPGGA,050835,2547.4391,N,07918.2803,W,1,9,1.7,15,M,,M,,*55
06/19/2015	05:08:35.525	$GPGGA,050836,2547.4368,N,07918.2814,W,1,9,1.7,15,M,,M,,*56
06/19/2015	05:08:36.496	$GPGGA,050837,2547.4345,N,07918.2825,W,1,9,1.7,15,M,,M,,*5A
06/19/2015	05:08:37.508	$GPGGA,050838,2547.4324,N,07918.2836,W,1,9,1.7,15,M,,M,,*50
06/19/2015	05:08:38.486	$GPGGA,050839,2547.4302,N,07918.2847,W,1,9,1.7,15,M,,M,,*53
06/19/2015	05:08:39.636	$GPGGA,050840,2547.4279,N,07918.2858,W,1,9,1.7,15,M,,M,,*5E
06/19/2015	05:08:40.510	$GPGGA,050841,2547.4256,N,07918.2868,W,1,9,1.7,15,M,,M,,*51
06/19/2015	05:08:41.487	$GPGGA,050842,2547.4234,N,07918.2879,W,1,9,1.7,15,M,,M,,*56
06/19/2015	05:08:42.577	$GPGGA,050843,2547.4212,N,07918.2890,W,1,9,1.7,15,M,,M,,*54
06/19/2015	05:08:43.625	$GPGGA,050844,2547.4189,N,07918.2901,W,1,9,1.7,15,M,,M,,*5B
06/19/2015	05:08:44.586	$GPGGA,050845,2547.4171,N,07918.2912,W,1,9,1.9,15,M,,M,,*51
06/19/2015	05:08:45.476	$GPGGA,050846,2547.4148,N,07918.2923,W,1,9,1.7,15,M,,M,,*54
06/19/2015	05:08:46.566	$GPGGA,050847,2547.4124,N,07918.2933,W,1,9,1.9,15,M,,M,,*50
06/19/2015	05:08:47.586	$GPGGA,050848,2547.4102,N,07918.2944,W,1,9,1.7,15,M,,M,,*55
06/19/2015	05:08:48.567	$GPGGA,050849,2547.4081,N,07918.2955,W,1,9,1.7,15,M,,M,,*5E
06/19/2015	05:08:49.586	$GPGGA,050850,2547.4059,N,07918.2964,W,1,9,1.7,15,M,,M,,*51
06/19/2015	05:08:50.566	$GPGGA,050851,2547.4037,N,07918.2975,W,1,9,1.7,15,M,,M,,*58
06/19/2015	05:08:51.596	$GPGGA,050852,2547.4016,N,07918.2985,W,1,9,1.7,15,M,,M,,*57
06/19/2015	05:08:52.566	$GPGGA,050853,2547.3994,N,07918.2995,W,1,9,1.7,15,M,,M,,*53
06/19/2015	05:08:53.576	$GPGGA,050854,2547.3973,N,07918.3006,W,1,9,1.7,15,M,,M,,*5F
06/19/2015	05:08:54.556	$GPGGA,050855,2547.3951,N,07918.3016,W,1,9,1.7,15,M,,M,,*5F
06/19/2015	05:08:55.586	$GPGGA,050856,2547.3929,N,07918.3025,W,1,9,1.7,15,M,,M,,*53
06/19/2015	05:08:56.546	$GPGGA,050857,2547.3905,N,07918.3035,W,1,9,1.7,15,M,,M,,*5D
06/19/2015	05:08:57.566	$GPGGA,050858,2547.3882,N,07918.3046,W,1,9,1.7,15,M,,M,,*58
06/19/2015	05:08:58.557	$GPGGA,050859,2547.3860,N,07918.3056,W,1,9,1.7,15,M,,M,,*54
06/19/2015	05:08:59.587	$GPGGA,050900,2547.3837,N,07918.3065,W,1,9,1.7,15,M,,M,,*5B
06/19/2015	05:09:00.537	$GPGGA,050901,2547.3814,N,07918.3075,W,1,9,1.7,15,M,,M,,*5A
06/19/2015	05:09:01.536	$GPGGA,050902,2547.3792,N,07918.3085,W,1,9,1.7,15,M,,M,,*57
06/19/2015	05:09:02.546	$GPGGA,050903,2547.3770,N,07918.3094,W,1,9,1.7,15,M,,M,,*5A
06/19/2015	05:09:03.556	$GPGGA,050904,2547.3747,N,07918.3104,W,1,9,1.7,15,M,,M,,*51
06/19/2015	05:09:04.536	$GPGGA,050905,2547.3724,N,07918.3114,W,1,9,1.7,15,M,,M,,*54
06/19/2015	05:09:05.566	$GPGGA,050906,2547.3702,N,07918.3125,W,1,9,1.7,15,M,,M,,*51
06/19/2015	05:09:06.536	$GPGGA,050907,2547.3680,N,07918.3134,W,1,9,1.7,15,M,,M,,*5B
06/19/2015	05:09:07.566	$GPGGA,050908,2547.3658,N,07918.3144,W,1,9,1.7,15,M,,M,,*56
06/19/2015	05:09:08.536	$GPGGA,050909,2547.3635,N,07918.3154,W,1,9,1.7,15,M,,M,,*5D
06/19/2015	05:09:09.546	$GPGGA,050910,2547.3612,N,07918.3165,W,1,9,1.7,15,M,,M,,*52
06/19/2015	05:09:10.536	$GPGGA,050911,2547.3589,N,07918.3173,W,1,9,1.7,15,M,,M,,*55
06/19/2015	05:09:11.566	$GPGGA,050912,2547.3568,N,07918.3183,W,1,9,1.7,15,M,,M,,*56
06/19/2015	05:09:12.526	$GPGGA,050913,2547.3546,N,07918.3194,W,1,9,1.7,15,M,,M,,*5D
06/19/2015	05:09:13.516	$GPGGA,050914,2547.3522,N,07918.3204,W,1,9,1.7,15,M,,M,,*52
06/19/2015	05:09:14.510	$GPGGA,050915,2547.3500,N,07918.3212,W,1,9,1.7,15,M,,M,,*54
06/19/2015	05:09:15.536	$GPGGA,050916,2547.3477,N,07918.3223,W,1,9,1.7,15,M,,M,,*54
06/19/2015	05:09:16.511	$GPGGA,050917,2547.3456,N,07918.3233,W,1,9,1.7,15,M,,M,,*57
06/19/2015	05:09:17.527	$GPGGA,050918,2547.3432,N,07918.3242,W,1,9,1.7,15,M,,M,,*5C
06/19/2015	05:09:18.506	$GPGGA,050919,2547.3410,N,07918.3252,W,1,9,1.7,15,M,,M,,*5C
06/19/2015	05:09:19.696	$GPGGA,050920,2547.3387,N,07918.3262,W,1,9,1.7,15,M,,M,,*5C
06/19/2015	05:09:20.967	$GPGGA,050921,2547.3365,N,07918.3273,W,1,9,1.7,15,M,,M,,*51
06/19/2015	05:09:21.686	$GPGGA,050922,2547.3342,N,07918.3282,W,1,9,1.7,15,M,,M,,*59
06/19/2015	05:09:22.506	$GPGGA,050923,2547.3320,N,07918.3292,W,1,9,1.7,15,M,,M,,*5D
06/19/2015	05:09:23.606	$GPGGA,050924,2547.3297,N,07918.3302,W,1,9,1.7,15,M,,M,,*5F
06/19/2015	05:09:24.596	$GPGGA,050925,2547.3275,N,07918.3313,W,1,9,1.7,15,M,,M,,*52
06/19/2015	05:09:25.686	$GPGGA,050926,2547.3253,N,07918.3321,W,1,9,1.7,15,M,,M,,*54
06/19/2015	05:09:26.626	$GPGGA,050927,2547.3232,N,07918.3331,W,1,9,1.7,15,M,,M,,*53
06/19/2015	05:09:27.512	$GPGGA,050928,2547.3210,N,07918.3342,W,1,9,1.7,15,M,,M,,*58
06/19/2015	05:09:28.606	$GPGGA,050929,2547.3189,N,07918.3350,W,1,9,1.7,15,M,,M,,*59
06/19/2015	05:09:29.686	$GPGGA,050930,2547.3167,N,07918.3360,W,1,9,1.7,15,M,,M,,*52
06/19/2015	05:09:30.496	$GPGGA,050931,2547.3146,N,07918.3371,W,1,9,1.7,15,M,,M,,*50
06/19/2015	05:09:31.676	$GPGGA,050932,2547.3125,N,07918.3379,W,1,9,1.7,15,M,,M,,*5E
06/19/2015	05:09:32.616	$GPGGA,050933,2547.3103,N,07918.3389,W,1,9,1.7,15,M,,M,,*54
06/19/2015	05:09:33.687	$GPGGA,050934,2547.3082,N,07918.3399,W,1,9,1.7,15,M,,M,,*5A
06/19/2015	05:09:34.567	$GPGGA,050935,2547.3062,N,07918.3408,W,1,9,1.7,15,M,,M,,*5A
06/19/2015	05:09:35.677	$GPGGA,050936,2547.3040,N,07918.3418,W,1,9,1.9,15,M,,M,,*56
06/19/2015	05:09:36.596	$GPGGA,050937,2547.3019,N,07918.3428,W,1,9,1.9,15,M,,M,,*58
06/19/2015	05:09:37.656	$GPGGA,050938,2547.2997,N,07918.3436,W,1,9,1.7,15,M,,M,,*58
06/19/2015	05:09:38.556	$GPGGA,050939,2547.2976,N,07918.3447,W,1,9,1.7,15,M,,M,,*50
06/19/2015	05:09:39.656	$GPGGA,050940,2547.2955,N,07918.3455,W,1,9,1.7,15,M,,M,,*5C
06/19/2015	05:09:40.586	$GPGGA,050941,2547.2934,N,07918.3465,W,1,9,1.7,15,M,,M,,*59
06/19/2015	05:09:41.666	$GPGGA,050942,2547.2912,N,07918.3475,W,1,9,1.7,15,M,,M,,*5F
06/19/2015	05:09:42.586	$GPGGA,050943,2547.2892,N,07918.3486,W,1,9,1.7,15,M,,M,,*5B
06/19/2015	05:09:43.676	$GPGGA,050944,2547.2869,N,07918.3494,W,1,9,1.7,15,M,,M,,*5B
06/19/2015	05:09:44.546	$GPGGA,050945,2547.2849,N,07918.3504,W,1,9,1.7,15,M,,M,,*50
06/19/2015	05:09:45.636	$GPGGA,050946,2547.2827,N,07918.3515,W,1,9,1.9,15,M,,M,,*55
06/19/2015	05:09:46.576	$GPGGA,050947,2547.2805,N,07918.3523,W,1,9,1.9,15,M,,M,,*51
06/19/2015	05:09:47.556	$GPGGA,050948,2547.2784,N,07918.3533,W,1,9,1.7,15,M,,M,,*57
06/19/2015	05:09:48.536	$GPGGA,050949,2547.2766,N,07918.3544,W,1,9,1.7,15,M,,M,,*5A
06/19/2015	05:09:49.656	$GPGGA,050950,2547.2744,N,07918.3553,W,1,9,1.7,15,M,,M,,*54
06/19/2015	05:09:50.566	$GPGGA,050951,2547.2723,N,07918.3563,W,1,9,1.7,15,M,,M,,*57
06/19/2015	05:09:51.657	$GPGGA,050952,2547.2702,N,07918.3573,W,1,8,1.9,15,M,,M,,*59
06/19/2015	05:09:52.557	$GPGGA,050953,2547.2681,N,07918.3582,W,1,8,1.9,15,M,,M,,*5C
06/19/2015	05:09:53.646	$GPGGA,050954,2547.2661,N,07918.3594,W,1,8,1.9,15,M,,M,,*52
06/19/2015	05:09:54.576	$GPGGA,050955,2547.2643,N,07918.3603,W,1,8,1.7,15,M,,M,,*50
06/19/2015	05:09:55.656	$GPGGA,050956,2547.2621,N,07918.3613,W,1,9,1.7,15,M,,M,,*57
06/19/2015	05:09:56.556	$GPGGA,050957,2547.2598,N,07918.3623,W,1,9,1.7,15,M,,M,,*54
06/19/2015	05:09:57.646	$GPGGA,050958,2547.2578,N,07918.3631,W,1,9,1.7,15,M,,M,,*56
06/19/2015	05:09:58.556	$GPGGA,050959,2547.2557,N,07918.3641,W,1,9,1.7,15,M,,M,,*5D
06/19/2015	05:10:00.097	$GPGGA,051000,2547.2538,N,07918.3649,W,1,9,1.7,15,M,,M,,*58
06/19/2015	05:10:00.521	$GPGGA,051001,2547.2516,N,07918.3658,W,1,9,1.7,15,M,,M,,*55
06/19/2015	05:10:01.626	$GPGGA,051002,2547.2496,N,07918.3667,W,1,9,1.7,15,M,,M,,*53
06/19/2015	05:10:02.536	$GPGGA,051003,2547.2475,N,07918.3676,W,1,9,1.7,15,M,,M,,*5F
06/19/2015	05:10:03.646	$GPGGA,051004,2547.2455,N,07918.3685,W,1,9,1.7,15,M,,M,,*56
06/19/2015	05:10:04.626	$GPGGA,051005,2547.2434,N,07918.3693,W,1,9,1.7,15,M,,M,,*57
06/19/2015	05:10:06.056	$GPGGA,051006,2547.2415,N,07918.3701,W,1,9,1.7,15,M,,M,,*5D
06/19/2015	05:10:06.546	$GPGGA,051007,2547.2393,N,07918.3710,W,1,9,1.7,15,M,,M,,*55
06/19/2015	05:10:07.596	$GPGGA,051008,2547.2372,N,07918.3717,W,1,9,1.7,15,M,,M,,*52
06/19/2015	05:10:08.537	$GPGGA,051009,2547.2351,N,07918.3725,W,1,9,1.7,15,M,,M,,*53
06/19/2015	05:10:09.597	$GPGGA,051010,2547.2330,N,07918.3735,W,1,9,1.7,15,M,,M,,*5D
06/19/2015	05:10:10.597	$GPGGA,051011,2547.2309,N,07918.3743,W,1,9,1.7,15,M,,M,,*57
06/19/2015	05:10:11.646	$GPGGA,051012,2547.2287,N,07918.3750,W,1,9,1.7,15,M,,M,,*51
06/19/2015	05:10:12.536	$GPGGA,051013,2547.2267,N,07918.3758,W,1,9,1.7,15,M,,M,,*56
06/19/2015	05:10:13.611	$GPGGA,051014,2547.2244,N,07918.3768,W,1,9,1.7,15,M,,M,,*53
06/19/2015	05:10:14.536	$GPGGA,051015,2547.2224,N,07918.3775,W,1,9,1.7,15,M,,M,,*58
06/19/2015	05:10:15.586	$GPGGA,051016,2547.2202,N,07918.3783,W,1,9,1.7,15,M,,M,,*56
06/19/2015	05:10:16.526	$GPGGA,051017,2547.2180,N,07918.3791,W,1,9,1.7,15,M,,M,,*5D
06/19/2015	05:10:17.586	$GPGGA,051018,2547.2159,N,07918.3800,W,1,9,1.7,15,M,,M,,*51
06/19/2015	05:10:18.586	$GPGGA,051019,2547.2137,N,07918.3808,W,1,9,1.7,15,M,,M,,*50
06/19/2015	05:10:19.586	$GPGGA,051020,2547.2116,N,07918.3815,W,1,9,1.7,15,M,,M,,*55
06/19/2015	05:10:20.566	$GPGGA,051021,2547.2095,N,07918.3824,W,1,9,1.7,15,M,,M,,*5C
06/19/2015	05:10:22.046	$GPGGA,051022,2547.2073,N,07918.3833,W,1,9,1.7,14,M,,M,,*50
06/19/2015	05:10:22.566	$GPGGA,051023,2547.2052,N,07918.3840,W,1,9,1.7,14,M,,M,,*56
06/19/2015	05:10:23.611	$GPGGA,051024,2547.2030,N,07918.3849,W,1,9,1.7,14,M,,M,,*5C
06/19/2015	05:10:24.576	$GPGGA,051025,2547.2009,N,07918.3858,W,1,9,1.7,14,M,,M,,*57
06/19/2015	05:10:25.576	$GPGGA,051026,2547.1989,N,07918.3866,W,1,9,1.7,14,M,,M,,*5B
06/19/2015	05:10:26.567	$GPGGA,051027,2547.1968,N,07918.3876,W,1,9,1.7,14,M,,M,,*54
06/19/2015	05:10:27.597	$GPGGA,051028,2547.1946,N,07918.3884,W,1,9,1.7,14,M,,M,,*5A
06/19/2015	05:10:28.566	$GPGGA,051029,2547.1925,N,07918.3894,W,1,9,1.9,14,M,,M,,*51
06/19/2015	05:10:29.596	$GPGGA,051030,2547.1904,N,07918.3902,W,1,8,1.7,14,M,,M,,*5B
06/19/2015	05:10:30.556	$GPGGA,051031,2547.1886,N,07918.3912,W,1,8,1.7,14,M,,M,,*50
06/19/2015	05:10:31.636	$GPGGA,051032,2547.1864,N,07918.3920,W,1,9,1.9,14,M,,M,,*51
06/19/2015	05:10:32.556	$GPGGA,051033,2547.1844,N,07918.3930,W,1,9,1.9,14,M,,M,,*53
06/19/2015	05:10:33.586	$GPGGA,051034,2547.1825,N,07918.3938,W,1,8,1.7,14,M,,M,,*54
06/19/2015	05:10:34.556	$GPGGA,051035,2547.1806,N,07918.3949,W,1,8,1.7,14,M,,M,,*52
06/19/2015	05:10:35.586	$GPGGA,051036,2547.1786,N,07918.3957,W,1,9,1.7,14,M,,M,,*58
06/19/2015	05:10:36.556	$GPGGA,051037,2547.1765,N,07918.3967,W,1,9,1.7,14,M,,M,,*57
06/19/2015	05:10:37.576	$GPGGA,051038,2547.1747,N,07918.3977,W,1,9,1.7,14,M,,M,,*59
06/19/2015	05:10:38.546	$GPGGA,051039,2547.1727,N,07918.3985,W,1,9,1.7,14,M,,M,,*53
06/19/2015	05:10:39.596	$GPGGA,051040,2547.1727,N,07918.3985,W,1,9,1.7,14,M,,M,,*5D
06/19/2015	05:10:40.546	$GPGGA,051041,2547.1687,N,07918.4006,W,1,9,1.7,14,M,,M,,*52
06/19/2015	05:10:41.626	$GPGGA,051042,2547.1668,N,07918.4014,W,1,9,1.7,14,M,,M,,*53
06/19/2015	05:10:42.536	$GPGGA,051043,2547.1648,N,07918.4024,W,1,9,1.7,14,M,,M,,*53
06/19/2015	05:10:44.577	$GPGGA,051045,2547.1607,N,07918.4043,W,1,9,1.7,14,M,,M,,*5F
06/19/2015	05:10:45.647	$GPGGA,051046,2547.1588,N,07918.4051,W,1,9,1.7,14,M,,M,,*5B
06/19/2015	05:10:46.536	$GPGGA,051047,2547.1566,N,07918.4061,W,1,9,1.7,14,M,,M,,*59
06/19/2015	05:10:47.596	$GPGGA,051048,2547.1544,N,07918.4071,W,1,8,1.9,14,M,,M,,*58
06/19/2015	05:10:48.636	$GPGGA,051049,2547.1523,N,07918.4079,W,1,8,1.9,14,M,,M,,*50
06/19/2015	05:10:49.546	$GPGGA,051050,2547.1502,N,07918.4089,W,1,9,1.7,14,M,,M,,*5B
06/19/2015	05:10:50.508	$GPGGA,051051,2547.1483,N,07918.4098,W,1,9,1.9,14,M,,M,,*5C
06/19/2015	05:10:51.536	$GPGGA,051052,2547.1483,N,07918.4098,W,1,9,1.7,14,M,,M,,*51
06/19/2015	05:10:52.509	$GPGGA,051053,2547.1442,N,07918.4115,W,1,9,1.7,14,M,,M,,*59
06/19/2015	05:10:53.536	$GPGGA,051054,2547.1442,N,07918.4115,W,1,9,1.7,14,M,,M,,*5E
06/19/2015	05:10:54.519	$GPGGA,051055,2547.1422,N,07918.4124,W,1,9,1.7,14,M,,M,,*5B
06/19/2015	05:10:55.526	$GPGGA,051056,2547.1382,N,07918.4141,W,1,9,1.7,14,M,,M,,*56
06/19/2015	05:10:56.496	$GPGGA,051057,2547.1361,N,07918.4148,W,1,9,1.7,14,M,,M,,*53
06/19/2015	05:10:57.636	$GPGGA,051058,2547.1361,N,07918.4148,W,1,9,1.7,14,M,,M,,*5C
06/19/2015	05:10:58.618	$GPGGA,051059,2547.1320,N,07918.4165,W,1,9,1.7,14,M,,M,,*57
06/19/2015	05:10:59.666	$GPGGA,051100,2547.1301,N,07918.4173,W,1,9,1.7,14,M,,M,,*5E
06/19/2015	05:11:00.496	$GPGGA,051101,2547.1281,N,07918.4181,W,1,9,1.7,14,M,,M,,*5B
06/19/2015	05:11:01.510	$GPGGA,051102,2547.1281,N,07918.4181,W,1,9,1.7,14,M,,M,,*58
06/19/2015	05:11:02.497	$GPGGA,051103,2547.1241,N,07918.4198,W,1,9,1.7,14,M,,M,,*5D
06/19/2015	05:11:03.516	$GPGGA,051104,2547.1219,N,07918.4205,W,1,9,1.7,14,M,,M,,*50
06/19/2015	05:11:04.586	$GPGGA,051105,2547.1199,N,07918.4213,W,1,9,1.7,14,M,,M,,*5D
06/19/2015	05:11:05.496	$GPGGA,051106,2547.1199,N,07918.4213,W,1,9,1.7,14,M,,M,,*5E
06/19/2015	05:11:06.496	$GPGGA,051107,2547.1180,N,07918.4220,W,1,9,1.7,14,M,,M,,*57
06/19/2015	05:11:07.596	$GPGGA,051108,2547.1138,N,07918.4236,W,1,9,1.7,14,M,,M,,*5C
06/19/2015	05:11:08.576	$GPGGA,051109,2547.1118,N,07918.4243,W,1,9,1.7,14,M,,M,,*5D
06/19/2015	05:11:09.606	$GPGGA,051110,2547.1097,N,07918.4250,W,1,9,1.7,14,M,,M,,*51
06/19/2015	05:11:10.576	$GPGGA,051111,2547.1076,N,07918.4259,W,1,9,1.7,14,M,,M,,*56
06/19/2015	05:11:11.622	$GPGGA,051112,2547.1057,N,07918.4266,W,1,9,1.7,14,M,,M,,*5A
06/19/2015	05:11:12.586	$GPGGA,051113,2547.1035,N,07918.4274,W,1,9,1.7,14,M,,M,,*5C
06/19/2015	05:11:13.556	$GPGGA,051114,2547.1015,N,07918.4281,W,1,9,1.7,14,M,,M,,*53
06/19/2015	05:11:14.566	$GPGGA,051115,2547.0994,N,07918.4288,W,1,9,1.7,14,M,,M,,*5A
06/19/2015	05:11:15.623	$GPGGA,051116,2547.0974,N,07918.4296,W,1,9,1.7,14,M,,M,,*58
06/19/2015	05:11:16.566	$GPGGA,051117,2547.0953,N,07918.4303,W,1,9,1.7,14,M,,M,,*51
06/19/2015	05:11:17.576	$GPGGA,051118,2547.0934,N,07918.4310,W,1,9,1.7,14,M,,M,,*5D
06/19/2015	05:11:18.547	$GPGGA,051119,2547.0913,N,07918.4318,W,1,9,1.7,14,M,,M,,*51
06/19/2015	05:11:19.597	$GPGGA,051120,2547.0892,N,07918.4326,W,1,9,1.7,14,M,,M,,*5E
06/19/2015	05:11:20.557	$GPGGA,051121,2547.0872,N,07918.4335,W,1,9,1.7,14,M,,M,,*53
06/19/2015	05:11:21.556	$GPGGA,051122,2547.0851,N,07918.4342,W,1,9,1.7,14,M,,M,,*51
06/19/2015	05:11:22.546	$GPGGA,051123,2547.0831,N,07918.4350,W,1,9,1.7,14,M,,M,,*55
06/19/2015	05:11:23.586	$GPGGA,051124,2547.0811,N,07918.4358,W,1,9,1.7,14,M,,M,,*58
06/19/2015	05:11:24.546	$GPGGA,051125,2547.0788,N,07918.4366,W,1,9,1.9,14,M,,M,,*55
06/19/2015	05:11:25.566	$GPGGA,051126,2547.0766,N,07918.4375,W,1,9,1.7,14,M,,M,,*5A
06/19/2015	05:11:26.546	$GPGGA,051127,2547.0746,N,07918.4382,W,1,9,1.7,14,M,,M,,*51
06/19/2015	05:11:27.546	$GPGGA,051128,2547.0724,N,07918.4391,W,1,9,1.7,14,M,,M,,*58
06/19/2015	05:11:28.546	$GPGGA,051129,2547.0704,N,07918.4400,W,1,9,1.7,14,M,,M,,*54
06/19/2015	05:11:29.536	$GPGGA,051130,2547.0685,N,07918.4409,W,1,9,1.7,14,M,,M,,*5D
06/19/2015	05:11:30.536	$GPGGA,051131,2547.0664,N,07918.4418,W,1,9,1.7,14,M,,M,,*53
06/19/2015	05:11:31.586	$GPGGA,051132,2547.0645,N,07918.4427,W,1,8,1.9,14,M,,M,,*50
06/19/2015	05:11:32.536	$GPGGA,051133,2547.0627,N,07918.4436,W,1,8,1.7,13,M,,M,,*5C
06/19/2015	05:11:33.556	$GPGGA,051134,2547.0606,N,07918.4445,W,1,9,1.7,13,M,,M,,*5D
06/19/2015	05:11:34.519	$GPGGA,051135,2547.0587,N,07918.4454,W,1,9,1.7,13,M,,M,,*56
06/19/2015	05:11:35.566	$GPGGA,051136,2547.0569,N,07918.4463,W,1,8,1.9,13,M,,M,,*5E
06/19/2015	05:11:36.610	$GPGGA,051137,2547.0549,N,07918.4472,W,1,8,1.7,13,M,,M,,*53
06/19/2015	05:11:37.547	$GPGGA,051138,2547.0530,N,07918.4480,W,1,9,1.7,14,M,,M,,*59
06/19/2015	05:11:38.626	$GPGGA,051139,2547.0511,N,07918.4490,W,1,9,1.7,14,M,,M,,*5A
06/19/2015	05:11:39.636	$GPGGA,051140,2547.0490,N,07918.4498,W,1,9,1.7,14,M,,M,,*54
06/19/2015	05:11:40.610	$GPGGA,051141,2547.0472,N,07918.4508,W,1,9,1.9,14,M,,M,,*5F
06/19/2015	05:11:41.626	$GPGGA,051142,2547.0453,N,07918.4517,W,1,9,1.7,14,M,,M,,*5F
06/19/2015	05:11:42.507	$GPGGA,051143,2547.0434,N,07918.4527,W,1,9,1.7,14,M,,M,,*5C
06/19/2015	05:11:43.626	$GPGGA,051144,2547.0415,N,07918.4534,W,1,9,1.7,14,M,,M,,*5A
06/19/2015	05:11:44.506	$GPGGA,051145,2547.0396,N,07918.4543,W,1,9,1.7,14,M,,M,,*57
06/19/2015	05:11:45.521	$GPGGA,051146,2547.0375,N,07918.4552,W,1,9,1.7,14,M,,M,,*59
06/19/2015	05:11:46.519	$GPGGA,051147,2547.0354,N,07918.4561,W,1,9,1.9,14,M,,M,,*55
06/19/2015	05:11:47.526	$GPGGA,051148,2547.0336,N,07918.4568,W,1,8,1.9,14,M,,M,,*56
06/19/2015	05:11:48.510	$GPGGA,051149,2547.0316,N,07918.4577,W,1,8,1.7,14,M,,M,,*55
06/19/2015	05:11:49.507	$GPGGA,051150,2547.0294,N,07918.4586,W,1,8,1.9,14,M,,M,,*56
06/19/2015	05:11:50.506	$GPGGA,051151,2547.0274,N,07918.4595,W,1,8,1.9,14,M,,M,,*5B
06/19/2015	05:11:51.518	$GPGGA,051152,2547.0253,N,07918.4603,W,1,8,1.9,14,M,,M,,*51
