Software Version Number: 1	Data File Format Number: 1	Build Version Number: 1	Error Count Since VI Started: 3	Manufacturer: Raytheon	 Model Number: RayMarine 120	 S/N: 	 Cal Date: 	 Wind Direction Offset: 0.00	 Slope (M)1: 0.00	 Offset (B)1: 0.00	 Slope (M)2: 0.00	 Offset (B)2: 0.00	 Slope (M)3: 0.00	 Offset (B)3: 0.00	 Slope (M)4: 0.00	 Offset (B)4: 0.00	 Slope (M)5: 0.00	 Offset (B)5: 0.00	 Slope (M)6: 0.00	 Offset (B)6: 0.00
Computer Date	Computer Time	GGA String
06/22/2015	00:00:00.501	$GPGGA,000001,2426.1651,N,08134.5727,W,1,9,1.7,17,M,,M,,*50
06/22/2015	00:00:01.601	$GPGGA,000002,2426.1650,N,08134.5748,W,1,8,2.3,17,M,,M,,*5D
06/22/2015	00:00:02.591	$GPGGA,000003,2426.1649,N,08134.5767,W,1,8,1.6,17,M,,M,,*5F
06/22/2015	00:00:03.591	$GPGGA,000004,2426.1647,N,08134.5791,W,1,9,1.6,17,M,,M,,*5E
06/22/2015	00:00:04.581	$GPGGA,000005,2426.1646,N,08134.5811,W,1,9,1.6,17,M,,M,,*59
06/22/2015	00:00:05.611	$GPGGA,000006,2426.1644,N,08134.5834,W,1,9,1.6,17,M,,M,,*5F
06/22/2015	00:00:06.581	$GPGGA,000007,2426.1643,N,08134.5854,W,1,9,1.6,17,M,,M,,*5F
06/22/2015	00:00:07.634	$GPGGA,000008,2426.1642,N,08134.5875,W,1,9,1.6,17,M,,M,,*52
06/22/2015	00:00:08.582	$GPGGA,000009,2426.1640,N,08134.5896,W,1,9,1.7,17,M,,M,,*5D
06/22/2015	00:00:09.592	$GPGGA,000010,2426.1638,N,08134.5918,W,1,8,1.6,17,M,,M,,*5D
06/22/2015	00:00:10.572	$GPGGA,000011,2426.1637,N,08134.5939,W,1,8,1.6,16,M,,M,,*51
06/22/2015	00:00:11.640	$GPGGA,000012,2426.1635,N,08134.5961,W,1,9,1.6,16,M,,M,,*5C
06/22/2015	00:00:12.571	$GPGGA,000013,2426.1635,N,08134.5983,W,1,9,1.6,16,M,,M,,*51
06/22/2015	00:00:13.551	$GPGGA,000014,2426.1633,N,08134.6005,W,1,9,1.6,16,M,,M,,*54
06/22/2015	00:00:14.561	$GPGGA,000015,2426.1632,N,08134.6027,W,1,9,1.6,16,M,,M,,*54
06/22/2015	00:00:15.601	$GPGGA,000016,2426.1630,N,08134.6049,W,1,9,1.6,16,M,,M,,*5D
06/22/2015	00:00:16.561	$GPGGA,000017,2426.1628,N,08134.6071,W,1,9,1.6,16,M,,M,,*5E
06/22/2015	00:00:17.581	$GPGGA,000018,2426.1628,N,08134.6092,W,1,9,1.6,16,M,,M,,*5C
06/22/2015	00:00:18.551	$GPGGA,000019,2426.1625,N,08134.6114,W,1,9,1.6,16,M,,M,,*5F
06/22/2015	00:00:19.581	$GPGGA,000020,2426.1624,N,08134.6136,W,1,9,1.6,16,M,,M,,*54
06/22/2015	00:00:20.551	$GPGGA,000021,2426.1622,N,08134.6158,W,1,9,1.6,16,M,,M,,*5B
06/22/2015	00:00:21.572	$GPGGA,000022,2426.1619,N,08134.6181,W,1,9,1.6,16,M,,M,,*54
06/22/2015	00:00:22.561	$GPGGA,000023,2426.1617,N,08134.6201,W,1,9,1.6,16,M,,M,,*50
06/22/2015	00:00:23.591	$GPGGA,000024,2426.1615,N,08134.6223,W,1,9,1.6,16,M,,M,,*55
06/22/2015	00:00:24.548	$GPGGA,000025,2426.1613,N,08134.6246,W,1,9,1.6,16,M,,M,,*51
06/22/2015	00:00:25.572	$GPGGA,000026,2426.1611,N,08134.6266,W,1,9,1.6,16,M,,M,,*52
06/22/2015	00:00:26.535	$GPGGA,000027,2426.1609,N,08134.6288,W,1,9,1.6,16,M,,M,,*5A
06/22/2015	00:00:27.572	$GPGGA,000028,2426.1607,N,08134.6311,W,1,9,1.6,16,M,,M,,*5A
06/22/2015	00:00:28.552	$GPGGA,000029,2426.1604,N,08134.6333,W,1,9,1.6,16,M,,M,,*58
06/22/2015	00:00:29.546	$GPGGA,000030,2426.1603,N,08134.6355,W,1,9,1.6,16,M,,M,,*57
06/22/2015	00:00:30.532	$GPGGA,000031,2426.1601,N,08134.6377,W,1,9,1.6,16,M,,M,,*54
06/22/2015	00:00:31.561	$GPGGA,000032,2426.1599,N,08134.6399,W,1,9,2.3,16,M,,M,,*53
06/22/2015	00:00:32.641	$GPGGA,000033,2426.1599,N,08134.6420,W,1,9,2.3,16,M,,M,,*57
06/22/2015	00:00:33.555	$GPGGA,000034,2426.1596,N,08134.6442,W,1,8,2.3,16,M,,M,,*5A
06/22/2015	00:00:34.521	$GPGGA,000035,2426.1595,N,08134.6463,W,1,8,2.3,16,M,,M,,*5B
06/22/2015	00:00:35.551	$GPGGA,000036,2426.1595,N,08134.6485,W,1,8,2.3,16,M,,M,,*50
06/22/2015	00:00:36.511	$GPGGA,000037,2426.1592,N,08134.6507,W,1,8,2.3,15,M,,M,,*5E
06/22/2015	00:00:37.511	$GPGGA,000038,2426.1591,N,08134.6529,W,1,8,1.6,15,M,,M,,*58
06/22/2015	00:00:38.511	$GPGGA,000039,2426.1589,N,08134.6553,W,1,8,1.6,15,M,,M,,*5D
06/22/2015	00:00:39.631	$GPGGA,000040,2426.1588,N,08134.6575,W,1,9,1.6,15,M,,M,,*57
06/22/2015	00:00:40.531	$GPGGA,000041,2426.1585,N,08134.6597,W,1,9,2.3,15,M,,M,,*51
06/22/2015	00:00:41.531	$GPGGA,000042,2426.1584,N,08134.6618,W,1,8,2.3,15,M,,M,,*56
06/22/2015	00:00:42.512	$GPGGA,000043,2426.1582,N,08134.6640,W,1,8,2.3,15,M,,M,,*5C
06/22/2015	00:00:43.562	$GPGGA,000044,2426.1581,N,08134.6662,W,1,8,2.3,15,M,,M,,*58
06/22/2015	00:00:44.592	$GPGGA,000045,2426.1581,N,08134.6683,W,1,8,2.3,15,M,,M,,*56
06/22/2015	00:00:45.512	$GPGGA,000046,2426.1578,N,08134.6705,W,1,8,1.6,15,M,,M,,*5A
06/22/2015	00:00:46.522	$GPGGA,000047,2426.1577,N,08134.6730,W,1,8,1.6,15,M,,M,,*52
06/22/2015	00:00:47.551	$GPGGA,000048,2426.1575,N,08134.6752,W,1,9,1.6,15,M,,M,,*5A
06/22/2015	00:00:48.521	$GPGGA,000049,2426.1574,N,08134.6775,W,1,9,2.3,15,M,,M,,*59
06/22/2015	00:00:49.891	$GPGGA,000050,2426.1573,N,08134.6797,W,1,8,1.6,15,M,,M,,*5D
06/22/2015	00:00:50.591	$GPGGA,000051,2426.1571,N,08134.6818,W,1,8,1.6,15,M,,M,,*56
06/22/2015	00:00:51.591	$GPGGA,000052,2426.1570,N,08134.6840,W,1,9,1.6,15,M,,M,,*58
06/22/2015	00:00:52.571	$GPGGA,000053,2426.1568,N,08134.6861,W,1,9,2.3,15,M,,M,,*55
06/22/2015	00:00:53.601	$GPGGA,000054,2426.1567,N,08134.6883,W,1,8,2.3,15,M,,M,,*50
06/22/2015	00:00:54.581	$GPGGA,000055,2426.1564,N,08134.6907,W,1,8,2.3,15,M,,M,,*5F
06/22/2015	00:00:55.621	$GPGGA,000056,2426.1563,N,08134.6930,W,1,9,1.6,15,M,,M,,*58
06/22/2015	00:00:56.571	$GPGGA,000057,2426.1560,N,08134.6954,W,1,9,1.6,15,M,,M,,*58
06/22/2015	00:00:57.591	$GPGGA,000058,2426.1559,N,08134.6976,W,1,9,1.6,15,M,,M,,*5D
06/22/2015	00:00:58.571	$GPGGA,000059,2426.1557,N,08134.6998,W,1,9,1.6,15,M,,M,,*52
06/22/2015	00:00:59.601	$GPGGA,000100,2426.1556,N,08134.7019,W,1,8,2.3,15,M,,M,,*58
06/22/2015	00:01:00.562	$GPGGA,000101,2426.1554,N,08134.7041,W,1,8,2.3,15,M,,M,,*56
06/22/2015	00:01:01.562	$GPGGA,000102,2426.1552,N,08134.7063,W,1,9,1.6,15,M,,M,,*54
06/22/2015	00:01:02.562	$GPGGA,000103,2426.1550,N,08134.7085,W,1,9,1.6,15,M,,M,,*5F
06/22/2015	00:01:03.592	$GPGGA,000104,2426.1549,N,08134.7106,W,1,9,1.6,15,M,,M,,*5A
06/22/2015	00:01:04.561	$GPGGA,000105,2426.1548,N,08134.7128,W,1,9,1.6,15,M,,M,,*56
06/22/2015	00:01:05.551	$GPGGA,000106,2426.1546,N,08134.7151,W,1,9,1.6,15,M,,M,,*55
06/22/2015	00:01:06.551	$GPGGA,000107,2426.1545,N,08134.7172,W,1,9,1.6,15,M,,M,,*56
06/22/2015	00:01:07.592	$GPGGA,000108,2426.1543,N,08134.7194,W,1,9,1.6,15,M,,M,,*57
06/22/2015	00:01:08.551	$GPGGA,000109,2426.1542,N,08134.7215,W,1,9,1.6,15,M,,M,,*5D
06/22/2015	00:01:09.571	$GPGGA,000110,2426.1541,N,08134.7236,W,1,8,2.3,15,M,,M,,*50
06/22/2015	00:01:10.541	$GPGGA,000111,2426.1541,N,08134.7258,W,1,8,1.6,15,M,,M,,*5F
06/22/2015	00:01:11.571	$GPGGA,000112,2426.1539,N,08134.7277,W,1,8,2.3,15,M,,M,,*58
06/22/2015	00:01:12.541	$GPGGA,000113,2426.1537,N,08134.7299,W,1,8,2.3,15,M,,M,,*57
06/22/2015	00:01:13.561	$GPGGA,000114,2426.1535,N,08134.7323,W,1,9,1.6,15,M,,M,,*55
06/22/2015	00:01:14.535	$GPGGA,000115,2426.1534,N,08134.7345,W,1,9,1.6,15,M,,M,,*55
06/22/2015	00:01:15.571	$GPGGA,000116,2426.1531,N,08134.7368,W,1,9,1.6,15,M,,M,,*5C
06/22/2015	00:01:16.534	$GPGGA,000117,2426.1528,N,08134.7391,W,1,9,1.6,15,M,,M,,*53
06/22/2015	00:01:17.522	$GPGGA,000118,2426.1526,N,08134.7413,W,1,9,1.6,15,M,,M,,*5F
06/22/2015	00:01:18.531	$GPGGA,000119,2426.1525,N,08134.7435,W,1,9,1.6,15,M,,M,,*59
06/22/2015	00:01:19.524	$GPGGA,000120,2426.1523,N,08134.7456,W,1,9,1.6,16,M,,M,,*53
06/22/2015	00:01:20.501	$GPGGA,000121,2426.1521,N,08134.7478,W,1,9,1.6,16,M,,M,,*5C
06/22/2015	00:01:21.521	$GPGGA,000122,2426.1518,N,08134.7500,W,1,9,1.6,16,M,,M,,*5B
06/22/2015	00:01:22.521	$GPGGA,000123,2426.1516,N,08134.7522,W,1,9,1.6,16,M,,M,,*54
06/22/2015	00:01:23.535	$GPGGA,000124,2426.1514,N,08134.7543,W,1,9,1.6,16,M,,M,,*56
06/22/2015	00:01:24.600	$GPGGA,000125,2426.1512,N,08134.7565,W,1,9,1.6,16,M,,M,,*55
06/22/2015	00:01:25.521	$GPGGA,000126,2426.1512,N,08134.7585,W,1,9,1.6,16,M,,M,,*58
06/22/2015	00:01:26.510	$GPGGA,000127,2426.1509,N,08134.7605,W,1,9,1.6,16,M,,M,,*58
06/22/2015	00:01:27.533	$GPGGA,000128,2426.1508,N,08134.7626,W,1,8,2.3,16,M,,M,,*50
06/22/2015	00:01:28.491	$GPGGA,000129,2426.1507,N,08134.7648,W,1,8,2.3,16,M,,M,,*56
06/22/2015	00:01:29.491	$GPGGA,000130,2426.1506,N,08134.7667,W,1,8,2.3,16,M,,M,,*52
06/22/2015	00:01:30.611	$GPGGA,000131,2426.1503,N,08134.7691,W,1,8,2.3,16,M,,M,,*5F
06/22/2015	00:01:31.601	$GPGGA,000132,2426.1501,N,08134.7717,W,1,9,1.6,16,M,,M,,*56
06/22/2015	00:01:32.491	$GPGGA,000133,2426.1499,N,08134.7738,W,1,9,1.6,16,M,,M,,*5A
06/22/2015	00:01:33.501	$GPGGA,000134,2426.1498,N,08134.7758,W,1,8,2.3,16,M,,M,,*5D
06/22/2015	00:01:34.501	$GPGGA,000135,2426.1496,N,08134.7782,W,1,8,2.3,16,M,,M,,*55
06/22/2015	00:01:35.501	$GPGGA,000136,2426.1494,N,08134.7804,W,1,9,1.6,16,M,,M,,*52
06/22/2015	00:01:36.491	$GPGGA,000137,2426.1494,N,08134.7826,W,1,9,1.6,16,M,,M,,*53
06/22/2015	00:01:37.601	$GPGGA,000138,2426.1491,N,08134.7850,W,1,9,1.6,17,M,,M,,*59
06/22/2015	00:01:38.571	$GPGGA,000139,2426.1490,N,08134.7872,W,1,9,1.6,17,M,,M,,*59
06/22/2015	00:01:39.610	$GPGGA,000140,2426.1488,N,08134.7894,W,1,9,1.6,17,M,,M,,*56
06/22/2015	00:01:40.570	$GPGGA,000141,2426.1487,N,08134.7916,W,1,9,1.6,17,M,,M,,*53
06/22/2015	00:01:41.600	$GPGGA,000142,2426.1487,N,08134.7938,W,1,9,1.6,17,M,,M,,*5C
06/22/2015	00:01:42.580	$GPGGA,000143,2426.1484,N,08134.7960,W,1,9,1.6,17,M,,M,,*53
06/22/2015	00:01:43.610	$GPGGA,000144,2426.1483,N,08134.7984,W,1,9,1.6,17,M,,M,,*59
06/22/2015	00:01:44.560	$GPGGA,000145,2426.1483,N,08134.8003,W,1,9,1.6,17,M,,M,,*51
06/22/2015	00:01:45.581	$GPGGA,000146,2426.1483,N,08134.8024,W,1,8,2.3,17,M,,M,,*50
06/22/2015	00:01:46.561	$GPGGA,000147,2426.1483,N,08134.8045,W,1,8,2.3,17,M,,M,,*56
06/22/2015	00:01:47.601	$GPGGA,000148,2426.1481,N,08134.8064,W,1,7,2.5,17,M,,M,,*51
06/22/2015	00:01:48.561	$GPGGA,000149,2426.1482,N,08134.8085,W,1,7,1.9,17,M,,M,,*53
06/22/2015	00:01:49.551	$GPGGA,000150,2426.1479,N,08134.8105,W,1,9,1.6,17,M,,M,,*57
06/22/2015	00:01:50.551	$GPGGA,000151,2426.1478,N,08134.8126,W,1,9,1.6,17,M,,M,,*56
06/22/2015	00:01:51.591	$GPGGA,000152,2426.1477,N,08134.8147,W,1,9,1.6,17,M,,M,,*5D
06/22/2015	00:01:52.551	$GPGGA,000153,2426.1476,N,08134.8168,W,1,9,1.6,17,M,,M,,*50
06/22/2015	00:01:53.561	$GPGGA,000154,2426.1476,N,08134.8187,W,1,9,1.6,17,M,,M,,*56
06/22/2015	00:01:54.551	$GPGGA,000155,2426.1473,N,08134.8208,W,1,9,1.6,17,M,,M,,*56
06/22/2015	00:01:55.571	$GPGGA,000156,2426.1472,N,08134.8230,W,1,8,2.3,17,M,,M,,*58
06/22/2015	00:01:56.551	$GPGGA,000157,2426.1471,N,08134.8251,W,1,8,2.3,17,M,,M,,*5D
06/22/2015	00:01:57.560	$GPGGA,000158,2426.1469,N,08134.8273,W,1,8,2.3,17,M,,M,,*5B
06/22/2015	00:01:58.533	$GPGGA,000159,2426.1467,N,08134.8295,W,1,8,2.3,17,M,,M,,*5C
06/22/2015	00:01:59.560	$GPGGA,000200,2426.1466,N,08134.8318,W,1,9,1.6,17,M,,M,,*51
06/22/2015	00:02:00.533	$GPGGA,000201,2426.1463,N,08134.8340,W,1,9,1.6,17,M,,M,,*58
06/22/2015	00:02:01.535	$GPGGA,000202,2426.1462,N,08134.8363,W,1,9,1.6,17,M,,M,,*5B
06/22/2015	00:02:02.534	$GPGGA,000203,2426.1460,N,08134.8386,W,1,9,1.6,17,M,,M,,*53
06/22/2015	00:02:03.571	$GPGGA,000204,2426.1458,N,08134.8408,W,1,9,1.6,17,M,,M,,*5E
06/22/2015	00:02:04.521	$GPGGA,000205,2426.1455,N,08134.8430,W,1,9,1.6,17,M,,M,,*59
06/22/2015	00:02:05.521	$GPGGA,000206,2426.1454,N,08134.8451,W,1,9,1.6,18,M,,M,,*53
06/22/2015	00:02:06.541	$GPGGA,000207,2426.1452,N,08134.8472,W,1,9,1.6,18,M,,M,,*55
06/22/2015	00:02:07.651	$GPGGA,000208,2426.1451,N,08134.8494,W,1,9,1.6,18,M,,M,,*51
06/22/2015	00:02:08.535	$GPGGA,000209,2426.1449,N,08134.8516,W,1,9,1.6,18,M,,M,,*52
06/22/2015	00:02:09.511	$GPGGA,000210,2426.1447,N,08134.8538,W,1,9,1.6,18,M,,M,,*58
06/22/2015	00:02:10.544	$GPGGA,000211,2426.1447,N,08134.8560,W,1,9,1.6,18,M,,M,,*54
06/22/2015	00:02:11.551	$GPGGA,000212,2426.1444,N,08134.8584,W,1,9,1.6,18,M,,M,,*5E
06/22/2015	00:02:12.501	$GPGGA,000213,2426.1442,N,08134.8605,W,1,9,1.6,18,M,,M,,*53
06/22/2015	00:02:13.511	$GPGGA,000214,2426.1440,N,08134.8627,W,1,9,1.6,19,M,,M,,*57
06/22/2015	00:02:14.510	$GPGGA,000215,2426.1438,N,08134.8649,W,1,9,1.6,19,M,,M,,*51
06/22/2015	00:02:15.510	$GPGGA,000216,2426.1437,N,08134.8671,W,1,9,1.6,19,M,,M,,*56
06/22/2015	00:02:16.523	$GPGGA,000217,2426.1434,N,08134.8692,W,1,9,1.6,19,M,,M,,*59
06/22/2015	00:02:17.600	$GPGGA,000218,2426.1433,N,08134.8714,W,1,9,1.6,19,M,,M,,*5E
06/22/2015	00:02:18.510	$GPGGA,000219,2426.1431,N,08134.8736,W,1,9,1.6,19,M,,M,,*5D
06/22/2015	00:02:19.610	$GPGGA,000220,2426.1429,N,08134.8757,W,1,9,1.6,19,M,,M,,*59
06/22/2015	00:02:20.492	$GPGGA,000221,2426.1427,N,08134.8779,W,1,9,1.6,19,M,,M,,*5A
06/22/2015	00:02:21.481	$GPGGA,000222,2426.1426,N,08134.8801,W,1,9,1.6,19,M,,M,,*58
06/22/2015	00:02:22.581	$GPGGA,000223,2426.1425,N,08134.8822,W,1,9,2.3,19,M,,M,,*5D
06/22/2015	00:02:23.491	$GPGGA,000224,2426.1424,N,08134.8844,W,1,8,2.3,19,M,,M,,*5A
06/22/2015	00:02:24.581	$GPGGA,000225,2426.1425,N,08134.8865,W,1,8,2.3,19,M,,M,,*59
06/22/2015	00:02:25.591	$GPGGA,000226,2426.1422,N,08134.8885,W,1,8,2.3,19,M,,M,,*53
06/22/2015	00:02:26.571	$GPGGA,000227,2426.1422,N,08134.8907,W,1,8,2.3,19,M,,M,,*59
06/22/2015	00:02:27.602	$GPGGA,000228,2426.1420,N,08134.8930,W,1,9,1.6,19,M,,M,,*57
06/22/2015	00:02:28.571	$GPGGA,000229,2426.1419,N,08134.8952,W,1,9,1.6,19,M,,M,,*58
06/22/2015	00:02:29.591	$GPGGA,000230,2426.1418,N,08134.8974,W,1,9,1.6,19,M,,M,,*55
06/22/2015	00:02:30.571	$GPGGA,000231,2426.1416,N,08134.8996,W,1,9,1.6,19,M,,M,,*56
06/22/2015	00:02:31.601	$GPGGA,000232,2426.1415,N,08134.9017,W,1,9,1.6,19,M,,M,,*57
06/22/2015	00:02:32.570	$GPGGA,000233,2426.1413,N,08134.9039,W,1,9,1.6,19,M,,M,,*5C
06/22/2015	00:02:33.580	$GPGGA,000234,2426.1411,N,08134.9062,W,1,9,1.6,19,M,,M,,*57
06/22/2015	00:02:34.570	$GPGGA,000235,2426.1411,N,08134.9083,W,1,9,1.6,19,M,,M,,*59
06/22/2015	00:02:35.590	$GPGGA,000236,2426.1409,N,08134.9104,W,1,8,2.3,19,M,,M,,*5A
06/22/2015	00:02:36.570	$GPGGA,000237,2426.1410,N,08134.9126,W,1,8,2.3,18,M,,M,,*52
06/22/2015	00:02:37.580	$GPGGA,000238,2426.1407,N,08134.9149,W,1,8,1.9,18,M,,M,,*5B
06/22/2015	00:02:38.561	$GPGGA,000239,2426.1406,N,08134.9173,W,1,8,1.9,18,M,,M,,*52
06/22/2015	00:02:39.592	$GPGGA,000240,2426.1404,N,08134.9195,W,1,8,1.9,18,M,,M,,*56
06/22/2015	00:02:40.561	$GPGGA,000241,2426.1404,N,08134.9216,W,1,8,1.7,18,M,,M,,*51
06/22/2015	00:02:41.571	$GPGGA,000242,2426.1402,N,08134.9241,W,1,8,2.3,18,M,,M,,*51
06/22/2015	00:02:42.551	$GPGGA,000243,2426.1403,N,08134.9263,W,1,8,1.7,18,M,,M,,*56
06/22/2015	00:02:43.551	$GPGGA,000244,2426.1400,N,08134.9285,W,1,8,2.3,18,M,,M,,*5D
06/22/2015	00:02:44.551	$GPGGA,000245,2426.1400,N,08134.9308,W,1,8,1.9,18,M,,M,,*51
06/22/2015	00:02:45.571	$GPGGA,000246,2426.1398,N,08134.9331,W,1,8,1.9,18,M,,M,,*5E
06/22/2015	00:02:46.542	$GPGGA,000247,2426.1397,N,08134.9353,W,1,8,1.9,18,M,,M,,*54
06/22/2015	00:02:47.581	$GPGGA,000248,2426.1396,N,08134.9376,W,1,8,1.9,18,M,,M,,*5D
06/22/2015	00:02:48.537	$GPGGA,000249,2426.1395,N,08134.9400,W,1,8,1.9,18,M,,M,,*59
06/22/2015	00:02:49.539	$GPGGA,000250,2426.1394,N,08134.9422,W,1,8,1.9,18,M,,M,,*50
06/22/2015	00:02:50.540	$GPGGA,000251,2426.1393,N,08134.9445,W,1,8,1.9,18,M,,M,,*57
06/22/2015	00:02:51.560	$GPGGA,000252,2426.1393,N,08134.9469,W,1,8,1.9,18,M,,M,,*5A
06/22/2015	00:02:52.523	$GPGGA,000253,2426.1393,N,08134.9491,W,1,8,1.9,18,M,,M,,*5C
06/22/2015	00:02:53.536	$GPGGA,000254,2426.1391,N,08134.9510,W,1,7,2.5,18,M,,M,,*51
06/22/2015	00:02:54.533	$GPGGA,000255,2426.1392,N,08134.9531,W,1,7,2.3,18,M,,M,,*56
06/22/2015	00:02:55.561	$GPGGA,000256,2426.1389,N,08134.9555,W,1,8,2.3,18,M,,M,,*52
06/22/2015	00:02:56.532	$GPGGA,000257,2426.1387,N,08134.9577,W,1,8,1.7,18,M,,M,,*5A
06/22/2015	00:02:57.536	$GPGGA,000258,2426.1385,N,08134.9597,W,1,9,1.7,18,M,,M,,*58
06/22/2015	00:02:58.523	$GPGGA,000259,2426.1384,N,08134.9621,W,1,9,1.7,18,M,,M,,*56
06/22/2015	00:02:59.551	$GPGGA,000300,2426.1382,N,08134.9642,W,1,9,1.7,18,M,,M,,*58
06/22/2015	00:03:00.601	$GPGGA,000301,2426.1380,N,08134.9664,W,1,9,1.7,18,M,,M,,*5F
06/22/2015	00:03:01.691	$GPGGA,000302,2426.1379,N,08134.9686,W,1,9,1.7,18,M,,M,,*56
06/22/2015	00:03:02.501	$GPGGA,000303,2426.1378,N,08134.9707,W,1,9,1.7,18,M,,M,,*5E
06/22/2015	00:03:03.523	$GPGGA,000304,2426.1376,N,08134.9727,W,1,8,2.3,18,M,,M,,*53
06/22/2015	00:03:04.491	$GPGGA,000305,2426.1373,N,08134.9752,W,1,8,2.3,18,M,,M,,*55
06/22/2015	00:03:05.691	$GPGGA,000306,2426.1371,N,08134.9776,W,1,9,1.7,19,M,,M,,*55
06/22/2015	00:03:06.501	$GPGGA,000307,2426.1369,N,08134.9798,W,1,9,1.7,19,M,,M,,*5D
06/22/2015	00:03:07.690	$GPGGA,000308,2426.1368,N,08134.9819,W,1,9,1.7,19,M,,M,,*55
06/22/2015	00:03:08.641	$GPGGA,000309,2426.1367,N,08134.9839,W,1,9,2.3,19,M,,M,,*5E
06/22/2015	00:03:09.500	$GPGGA,000310,2426.1366,N,08134.9861,W,1,8,2.3,19,M,,M,,*5B
06/22/2015	00:03:10.580	$GPGGA,000311,2426.1365,N,08134.9884,W,1,8,1.7,19,M,,M,,*55
06/22/2015	00:03:11.500	$GPGGA,000312,2426.1362,N,08134.9906,W,1,9,1.7,19,M,,M,,*5B
06/22/2015	00:03:12.590	$GPGGA,000313,2426.1361,N,08134.9928,W,1,9,1.7,19,M,,M,,*55
06/22/2015	00:03:14.611	$GPGGA,000314,2426.1360,N,08134.9949,W,1,9,1.7,19,M,,M,,*54
06/22/2015	00:03:14.641	$GPGGA,000315,2426.1358,N,08134.9972,W,1,9,1.7,19,M,,M,,*56
06/22/2015	00:03:15.681	$GPGGA,000316,2426.1357,N,08134.9994,W,1,9,1.7,19,M,,M,,*52
06/22/2015	00:03:16.581	$GPGGA,000317,2426.1354,N,08135.0016,W,1,9,1.7,19,M,,M,,*5B
06/22/2015	00:03:17.681	$GPGGA,000318,2426.1353,N,08135.0038,W,1,9,1.7,20,M,,M,,*55
06/22/2015	00:03:18.611	$GPGGA,000319,2426.1350,N,08135.0061,W,1,9,1.7,20,M,,M,,*5B
06/22/2015	00:03:19.691	$GPGGA,000320,2426.1349,N,08135.0081,W,1,9,1.7,20,M,,M,,*57
06/22/2015	00:03:20.591	$GPGGA,000321,2426.1347,N,08135.0103,W,1,9,1.7,20,M,,M,,*53
06/22/2015	00:03:21.561	$GPGGA,000322,2426.1346,N,08135.0124,W,1,9,1.7,20,M,,M,,*54
06/22/2015	00:03:22.591	$GPGGA,000323,2426.1346,N,08135.0146,W,1,9,1.7,20,M,,M,,*51
06/22/2015	00:03:23.681	$GPGGA,000324,2426.1343,N,08135.0168,W,1,9,1.7,20,M,,M,,*5F
06/22/2015	00:03:24.590	$GPGGA,000325,2426.1342,N,08135.0191,W,1,9,1.7,20,M,,M,,*59
06/22/2015	00:03:25.620	$GPGGA,000326,2426.1340,N,08135.0211,W,1,9,1.7,20,M,,M,,*53
06/22/2015	00:03:26.580	$GPGGA,000327,2426.1339,N,08135.0232,W,1,9,1.7,20,M,,M,,*5D
06/22/2015	00:03:27.670	$GPGGA,000328,2426.1337,N,08135.0253,W,1,9,1.7,20,M,,M,,*5B
06/22/2015	00:03:28.570	$GPGGA,000329,2426.1336,N,08135.0275,W,1,9,1.7,20,M,,M,,*5F
06/22/2015	00:03:29.650	$GPGGA,000330,2426.1335,N,08135.0296,W,1,9,1.7,20,M,,M,,*59
06/22/2015	00:03:30.581	$GPGGA,000331,2426.1333,N,08135.0318,W,1,9,1.7,20,M,,M,,*59
06/22/2015	00:03:31.672	$GPGGA,000332,2426.1332,N,08135.0340,W,1,9,1.7,20,M,,M,,*56
06/22/2015	00:03:32.571	$GPGGA,000333,2426.1331,N,08135.0361,W,1,9,1.7,20,M,,M,,*57
06/22/2015	00:03:33.612	$GPGGA,000334,2426.1330,N,08135.0383,W,1,9,1.7,20,M,,M,,*5D
06/22/2015	00:03:34.531	$GPGGA,000335,2426.1329,N,08135.0405,W,1,9,1.7,20,M,,M,,*5D
06/22/2015	00:03:35.661	$GPGGA,000336,2426.1330,N,08135.0426,W,1,8,2.3,20,M,,M,,*51
06/22/2015	00:03:36.532	$GPGGA,000337,2426.1326,N,08135.0451,W,1,8,2.3,20,M,,M,,*57
06/22/2015	00:03:37.523	$GPGGA,000338,2426.1325,N,08135.0471,W,1,9,1.7,20,M,,M,,*5F
06/22/2015	00:03:38.561	$GPGGA,000339,2426.1326,N,08135.0492,W,1,9,2.5,20,M,,M,,*51
06/22/2015	00:03:39.651	$GPGGA,000340,2426.1325,N,08135.0514,W,1,7,2.5,19,M,,M,,*57
06/22/2015	00:03:40.561	$GPGGA,000341,2426.1324,N,08135.0538,W,1,7,1.9,19,M,,M,,*56
06/22/2015	00:03:42.560	$GPGGA,000343,2426.1323,N,08135.0583,W,1,8,1.9,19,M,,M,,*5C
06/22/2015	00:03:43.660	$GPGGA,000344,2426.1321,N,08135.0603,W,1,9,1.7,19,M,,M,,*5D
06/22/2015	00:03:44.550	$GPGGA,000345,2426.1321,N,08135.0625,W,1,9,1.7,19,M,,M,,*58
06/22/2015	00:03:45.581	$GPGGA,000346,2426.1321,N,08135.0647,W,1,8,2.5,19,M,,M,,*5F
06/22/2015	00:03:46.520	$GPGGA,000347,2426.1320,N,08135.0668,W,1,8,2.5,19,M,,M,,*52
06/22/2015	00:03:47.630	$GPGGA,000348,2426.1320,N,08135.0690,W,1,8,2.3,19,M,,M,,*5C
06/22/2015	00:03:48.541	$GPGGA,000349,2426.1320,N,08135.0712,W,1,8,2.3,19,M,,M,,*56
06/22/2015	00:03:49.601	$GPGGA,000350,2426.1319,N,08135.0735,W,1,8,1.7,19,M,,M,,*56
06/22/2015	00:03:50.601	$GPGGA,000351,2426.1317,N,08135.0759,W,1,8,1.7,19,M,,M,,*53
06/22/2015	00:03:51.631	$GPGGA,000352,2426.1317,N,08135.0781,W,1,9,1.7,19,M,,M,,*54
06/22/2015	00:03:52.541	$GPGGA,000353,2426.1315,N,08135.0805,W,1,9,1.7,18,M,,M,,*55
06/22/2015	00:03:53.502	$GPGGA,000354,2426.1314,N,08135.0827,W,1,9,1.7,18,M,,M,,*53
06/22/2015	00:03:54.491	$GPGGA,000355,2426.1317,N,08135.0849,W,1,9,2.0,18,M,,M,,*5D
06/22/2015	00:03:55.601	$GPGGA,000356,2426.1317,N,08135.0870,W,1,8,1.9,18,M,,M,,*5F
06/22/2015	00:03:56.523	$GPGGA,000357,2426.1319,N,08135.0889,W,1,8,2.3,18,M,,M,,*5F
06/22/2015	00:03:57.591	$GPGGA,000358,2426.1317,N,08135.0915,W,1,8,1.7,18,M,,M,,*5D
06/22/2015	00:03:58.538	$GPGGA,000359,2426.1317,N,08135.0936,W,1,8,1.7,18,M,,M,,*5D
06/22/2015	00:03:59.600	$GPGGA,000400,2426.1317,N,08135.0957,W,1,9,2.3,18,M,,M,,*57
06/22/2015	00:04:00.590	$GPGGA,000401,2426.1317,N,08135.0977,W,1,9,2.3,18,M,,M,,*54
06/22/2015	00:04:01.622	$GPGGA,000402,2426.1317,N,08135.0998,W,1,8,2.3,18,M,,M,,*57
06/22/2015	00:04:02.520	$GPGGA,000403,2426.1317,N,08135.1019,W,1,8,2.3,18,M,,M,,*57
06/22/2015	00:04:03.600	$GPGGA,000404,2426.1315,N,08135.1040,W,1,8,2.3,18,M,,M,,*5E
06/22/2015	00:04:04.570	$GPGGA,000405,2426.1314,N,08135.1060,W,1,8,1.7,18,M,,M,,*5B
06/22/2015	00:04:05.581	$GPGGA,000406,2426.1312,N,08135.1082,W,1,9,1.7,18,M,,M,,*53
06/22/2015	00:04:06.581	$GPGGA,000407,2426.1310,N,08135.1105,W,1,9,1.7,17,M,,M,,*51
06/22/2015	00:04:07.581	$GPGGA,000408,2426.1310,N,08135.1127,W,1,9,1.7,17,M,,M,,*5E
06/22/2015	00:04:08.571	$GPGGA,000409,2426.1307,N,08135.1149,W,1,9,1.7,17,M,,M,,*51
06/22/2015	00:04:09.591	$GPGGA,000410,2426.1306,N,08135.1171,W,1,9,1.7,17,M,,M,,*53
06/22/2015	00:04:10.561	$GPGGA,000411,2426.1303,N,08135.1192,W,1,9,1.7,17,M,,M,,*5A
06/22/2015	00:04:11.611	$GPGGA,000412,2426.1301,N,08135.1212,W,1,9,2.3,17,M,,M,,*57
06/22/2015	00:04:12.561	$GPGGA,000413,2426.1299,N,08135.1232,W,1,9,2.3,17,M,,M,,*54
06/22/2015	00:04:13.571	$GPGGA,000414,2426.1297,N,08135.1255,W,1,8,1.7,17,M,,M,,*5A
06/22/2015	00:04:14.561	$GPGGA,000415,2426.1297,N,08135.1255,W,1,8,1.7,17,M,,M,,*5B
06/22/2015	00:04:15.661	$GPGGA,000416,2426.1292,N,08135.1301,W,1,8,1.7,17,M,,M,,*5D
06/22/2015	00:04:16.561	$GPGGA,000417,2426.1292,N,08135.1322,W,1,8,2.3,17,M,,M,,*5A
06/22/2015	00:04:17.580	$GPGGA,000418,2426.1290,N,08135.1342,W,1,8,2.3,17,M,,M,,*51
06/22/2015	00:04:18.550	$GPGGA,000419,2426.1288,N,08135.1363,W,1,8,2.3,17,M,,M,,*5A
06/22/2015	00:04:19.590	$GPGGA,000420,2426.1288,N,08135.1384,W,1,8,2.3,17,M,,M,,*59
06/22/2015	00:04:20.550	$GPGGA,000421,2426.1286,N,08135.1405,W,1,8,2.3,17,M,,M,,*58
06/22/2015	00:04:21.580	$GPGGA,000422,2426.1283,N,08135.1428,W,1,8,1.7,17,M,,M,,*56
06/22/2015	00:04:22.537	$GPGGA,000423,2426.1281,N,08135.1452,W,1,8,1.7,17,M,,M,,*58
06/22/2015	00:04:23.591	$GPGGA,000424,2426.1279,N,08135.1472,W,1,9,2.3,17,M,,M,,*5C
06/22/2015	00:04:24.543	$GPGGA,000425,2426.1278,N,08135.1493,W,1,9,2.3,17,M,,M,,*53
06/22/2015	00:04:25.581	$GPGGA,000426,2426.1277,N,08135.1514,W,1,8,2.3,17,M,,M,,*50
06/22/2015	00:04:26.545	$GPGGA,000427,2426.1274,N,08135.1535,W,1,8,2.3,17,M,,M,,*51
06/22/2015	00:04:27.591	$GPGGA,000428,2426.1273,N,08135.1557,W,1,8,2.3,17,M,,M,,*5D
06/22/2015	00:04:28.539	$GPGGA,000429,2426.1271,N,08135.1579,W,1,8,2.3,17,M,,M,,*52
06/22/2015	00:04:29.581	$GPGGA,000430,2426.1270,N,08135.1601,W,1,8,2.3,17,M,,M,,*57
06/22/2015	00:04:30.539	$GPGGA,000431,2426.1268,N,08135.1623,W,1,8,2.6,17,M,,M,,*5A
06/22/2015	00:04:31.581	$GPGGA,000432,2426.1267,N,08135.1647,W,1,7,2.6,17,M,,M,,*5B
06/22/2015	00:04:32.533	$GPGGA,000433,2426.1265,N,08135.1669,W,1,7,2.6,16,M,,M,,*55
06/22/2015	00:04:33.671	$GPGGA,000434,2426.1264,N,08135.1691,W,1,7,2.6,16,M,,M,,*54
06/22/2015	00:04:34.540	$GPGGA,000435,2426.1264,N,08135.1691,W,1,7,2.6,16,M,,M,,*55
06/22/2015	00:04:35.560	$GPGGA,000436,2426.1259,N,08135.1738,W,1,8,1.9,16,M,,M,,*59
06/22/2015	00:04:36.510	$GPGGA,000437,2426.1259,N,08135.1759,W,1,8,2.3,16,M,,M,,*56
06/22/2015	00:04:37.640	$GPGGA,000438,2426.1256,N,08135.1779,W,1,8,2.3,16,M,,M,,*54
06/22/2015	00:04:38.526	$GPGGA,000439,2426.1254,N,08135.1800,W,1,8,2.3,16,M,,M,,*56
06/22/2015	00:04:39.540	$GPGGA,000440,2426.1254,N,08135.1800,W,1,8,2.3,16,M,,M,,*58
06/22/2015	00:04:40.524	$GPGGA,000441,2426.1252,N,08135.1844,W,1,8,1.7,16,M,,M,,*58
06/22/2015	00:04:41.511	$GPGGA,000442,2426.1252,N,08135.1844,W,1,8,1.9,16,M,,M,,*55
06/22/2015	00:04:42.511	$GPGGA,000443,2426.1247,N,08135.1891,W,1,8,1.9,16,M,,M,,*58
06/22/2015	00:04:43.532	$GPGGA,000444,2426.1247,N,08135.1891,W,1,8,1.9,16,M,,M,,*5F
06/22/2015	00:04:44.511	$GPGGA,000445,2426.1245,N,08135.1936,W,1,8,1.9,16,M,,M,,*50
06/22/2015	00:04:45.611	$GPGGA,000446,2426.1242,N,08135.1962,W,1,7,2.6,16,M,,M,,*56
06/22/2015	00:04:46.511	$GPGGA,000447,2426.1241,N,08135.1983,W,1,7,1.9,16,M,,M,,*57
06/22/2015	00:04:47.521	$GPGGA,000448,2426.1241,N,08135.1983,W,1,7,2.6,16,M,,M,,*54
06/22/2015	00:04:48.501	$GPGGA,000449,2426.1241,N,08135.2025,W,1,7,2.3,16,M,,M,,*56
06/22/2015	00:04:49.501	$GPGGA,000450,2426.1241,N,08135.2025,W,1,8,2.3,16,M,,M,,*51
06/22/2015	00:04:50.581	$GPGGA,000451,2426.1238,N,08135.2067,W,1,8,2.3,16,M,,M,,*58
06/22/2015	00:04:51.630	$GPGGA,000452,2426.1237,N,08135.2088,W,1,8,2.3,16,M,,M,,*55
06/22/2015	00:04:52.580	$GPGGA,000453,2426.1236,N,08135.2110,W,1,8,2.3,16,M,,M,,*55
06/22/2015	00:04:53.610	$GPGGA,000454,2426.1235,N,08135.2132,W,1,8,2.3,16,M,,M,,*51
06/22/2015	00:04:54.580	$GPGGA,000455,2426.1234,N,08135.2155,W,1,8,2.3,16,M,,M,,*50
06/22/2015	00:04:55.610	$GPGGA,000456,2426.1234,N,08135.2178,W,1,7,2.6,16,M,,M,,*56
06/22/2015	00:04:56.570	$GPGGA,000457,2426.1232,N,08135.2200,W,1,7,2.6,16,M,,M,,*5D
06/22/2015	00:04:57.591	$GPGGA,000458,2426.1231,N,08135.2222,W,1,8,2.3,16,M,,M,,*5B
06/22/2015	00:04:58.571	$GPGGA,000459,2426.1230,N,08135.2244,W,1,8,2.3,16,M,,M,,*5B
06/22/2015	00:04:59.941	$GPGGA,000500,2426.1230,N,08135.2244,W,1,8,2.3,16,M,,M,,*56
06/22/2015	00:05:00.571	$GPGGA,000501,2426.1227,N,08135.2287,W,1,8,2.3,15,M,,M,,*5D
06/22/2015	00:05:01.581	$GPGGA,000502,2426.1227,N,08135.2287,W,1,8,2.3,15,M,,M,,*5E
06/22/2015	00:05:02.551	$GPGGA,000503,2426.1224,N,08135.2332,W,1,8,2.3,15,M,,M,,*53
06/22/2015	00:05:03.601	$GPGGA,000504,2426.1223,N,08135.2355,W,1,8,2.3,15,M,,M,,*52
06/22/2015	00:05:04.551	$GPGGA,000505,2426.1221,N,08135.2377,W,1,8,2.3,15,M,,M,,*51
06/22/2015	00:05:05.581	$GPGGA,000506,2426.1220,N,08135.2400,W,1,8,2.3,15,M,,M,,*54
06/22/2015	00:05:06.551	$GPGGA,000507,2426.1219,N,08135.2424,W,1,8,2.6,15,M,,M,,*5C
06/22/2015	00:05:07.581	$GPGGA,000508,2426.1218,N,08135.2446,W,1,7,2.6,15,M,,M,,*59
06/22/2015	00:05:08.571	$GPGGA,000509,2426.1217,N,08135.2467,W,1,7,2.6,15,M,,M,,*54
06/22/2015	00:05:09.840	$GPGGA,000510,2426.1214,N,08135.2493,W,1,7,2.6,14,M,,M,,*55
06/22/2015	00:05:10.550	$GPGGA,000511,2426.1210,N,08135.2519,W,1,7,1.7,14,M,,M,,*51
06/22/2015	00:05:11.590	$GPGGA,000512,2426.1209,N,08135.2541,W,1,9,1.7,14,M,,M,,*59
06/22/2015	00:05:12.540	$GPGGA,000513,2426.1207,N,08135.2565,W,1,9,1.7,15,M,,M,,*51
06/22/2015	00:05:13.570	$GPGGA,000514,2426.1206,N,08135.2585,W,1,9,1.7,15,M,,M,,*59
06/22/2015	00:05:14.550	$GPGGA,000515,2426.1205,N,08135.2608,W,1,9,1.7,15,M,,M,,*5D
06/22/2015	00:05:15.571	$GPGGA,000516,2426.1205,N,08135.2630,W,1,9,1.7,15,M,,M,,*55
06/22/2015	00:05:16.533	$GPGGA,000517,2426.1205,N,08135.2652,W,1,9,1.7,15,M,,M,,*50
06/22/2015	00:05:17.541	$GPGGA,000518,2426.1203,N,08135.2674,W,1,9,1.7,15,M,,M,,*5D
06/22/2015	00:05:18.533	$GPGGA,000519,2426.1202,N,08135.2697,W,1,9,1.7,16,M,,M,,*53
06/22/2015	00:05:19.571	$GPGGA,000520,2426.1201,N,08135.2720,W,1,9,1.7,16,M,,M,,*57
06/22/2015	00:05:20.551	$GPGGA,000521,2426.1200,N,08135.2743,W,1,9,1.7,16,M,,M,,*52
06/22/2015	00:05:21.641	$GPGGA,000522,2426.1201,N,08135.2767,W,1,8,1.9,16,M,,M,,*59
06/22/2015	00:05:22.541	$GPGGA,000523,2426.1199,N,08135.2790,W,1,8,1.7,17,M,,M,,*5D
06/22/2015	00:05:23.561	$GPGGA,000524,2426.1200,N,08135.2814,W,1,9,1.7,17,M,,M,,*5B
06/22/2015	00:05:24.636	$GPGGA,000525,2426.1198,N,08135.2837,W,1,9,1.7,17,M,,M,,*59
06/22/2015	00:05:25.622	$GPGGA,000526,2426.1198,N,08135.2859,W,1,9,1.7,17,M,,M,,*52
06/22/2015	00:05:26.510	$GPGGA,000527,2426.1198,N,08135.2881,W,1,9,1.7,17,M,,M,,*56
06/22/2015	00:05:27.532	$GPGGA,000528,2426.1198,N,08135.2904,W,1,8,2.3,17,M,,M,,*53
06/22/2015	00:05:28.524	$GPGGA,000529,2426.1198,N,08135.2924,W,1,8,2.6,17,M,,M,,*55
06/22/2015	00:05:29.640	$GPGGA,000530,2426.1198,N,08135.2946,W,1,7,2.6,17,M,,M,,*56
06/22/2015	00:05:30.621	$GPGGA,000531,2426.1196,N,08135.2966,W,1,7,2.6,17,M,,M,,*5B
06/22/2015	00:05:31.630	$GPGGA,000532,2426.1195,N,08135.2986,W,1,8,2.3,17,M,,M,,*5F
06/22/2015	00:05:32.520	$GPGGA,000533,2426.1194,N,08135.3009,W,1,8,2.3,17,M,,M,,*50
06/22/2015	00:05:33.536	$GPGGA,000534,2426.1194,N,08135.3029,W,1,8,2.3,17,M,,M,,*55
06/22/2015	00:05:34.591	$GPGGA,000535,2426.1189,N,08135.3054,W,1,8,2.3,17,M,,M,,*52
06/22/2015	00:05:36.011	$GPGGA,000536,2426.1187,N,08135.3076,W,1,9,1.7,17,M,,M,,*59
06/22/2015	00:05:36.601	$GPGGA,000537,2426.1185,N,08135.3098,W,1,9,1.7,17,M,,M,,*5A
06/22/2015	00:05:37.501	$GPGGA,000538,2426.1183,N,08135.3121,W,1,9,1.7,17,M,,M,,*50
06/22/2015	00:05:38.591	$GPGGA,000539,2426.1181,N,08135.3143,W,1,9,1.7,18,M,,M,,*58
06/22/2015	00:05:39.601	$GPGGA,000540,2426.1180,N,08135.3165,W,1,9,1.7,18,M,,M,,*53
06/22/2015	00:05:40.581	$GPGGA,000541,2426.1177,N,08135.3187,W,1,9,1.7,18,M,,M,,*56
06/22/2015	00:05:41.601	$GPGGA,000542,2426.1176,N,08135.3209,W,1,9,1.7,18,M,,M,,*51
06/22/2015	00:05:42.581	$GPGGA,000543,2426.1172,N,08135.3231,W,1,9,1.7,18,M,,M,,*5F
06/22/2015	00:05:43.591	$GPGGA,000544,2426.1170,N,08135.3255,W,1,9,1.7,18,M,,M,,*58
06/22/2015	00:05:44.580	$GPGGA,000545,2426.1169,N,08135.3277,W,1,9,1.7,18,M,,M,,*51
06/22/2015	00:05:45.580	$GPGGA,000546,2426.1165,N,08135.3298,W,1,9,1.7,19,M,,M,,*5E
06/22/2015	00:05:46.570	$GPGGA,000547,2426.1163,N,08135.3320,W,1,9,1.7,19,M,,M,,*5B
06/22/2015	00:05:47.590	$GPGGA,000548,2426.1161,N,08135.3342,W,1,9,1.7,19,M,,M,,*52
06/22/2015	00:05:48.570	$GPGGA,000549,2426.1159,N,08135.3363,W,1,9,1.7,19,M,,M,,*5B
06/22/2015	00:05:49.590	$GPGGA,000550,2426.1158,N,08135.3385,W,1,9,1.7,19,M,,M,,*5A
06/22/2015	00:05:50.561	$GPGGA,000551,2426.1155,N,08135.3405,W,1,9,2.3,19,M,,M,,*5E
06/22/2015	00:05:51.611	$GPGGA,000552,2426.1153,N,08135.3428,W,1,8,2.3,19,M,,M,,*55
06/22/2015	00:05:52.561	$GPGGA,000553,2426.1151,N,08135.3451,W,1,8,2.3,19,M,,M,,*58
06/22/2015	00:05:53.581	$GPGGA,000554,2426.1148,N,08135.3473,W,1,9,1.7,19,M,,M,,*51
06/22/2015	00:05:54.551	$GPGGA,000555,2426.1147,N,08135.3494,W,1,9,2.3,19,M,,M,,*51
06/22/2015	00:05:55.591	$GPGGA,000556,2426.1145,N,08135.3516,W,1,8,2.3,19,M,,M,,*5A
06/22/2015	00:05:56.561	$GPGGA,000557,2426.1143,N,08135.3538,W,1,8,2.3,19,M,,M,,*51
06/22/2015	00:05:57.561	$GPGGA,000558,2426.1141,N,08135.3559,W,1,8,2.3,19,M,,M,,*5B
06/22/2015	00:05:58.541	$GPGGA,000559,2426.1140,N,08135.3581,W,1,8,2.3,19,M,,M,,*5E
06/22/2015	00:05:59.641	$GPGGA,000600,2426.1138,N,08135.3603,W,1,8,2.3,19,M,,M,,*57
06/22/2015	00:06:00.532	$GPGGA,000601,2426.1136,N,08135.3625,W,1,8,2.3,19,M,,M,,*5C
06/22/2015	00:06:01.550	$GPGGA,000602,2426.1135,N,08135.3649,W,1,8,2.3,19,M,,M,,*56
06/22/2015	00:06:02.540	$GPGGA,000603,2426.1133,N,08135.3671,W,1,8,2.6,19,M,,M,,*5F
06/22/2015	00:06:03.580	$GPGGA,000604,2426.1131,N,08135.3696,W,1,7,2.6,19,M,,M,,*5C
06/22/2015	00:06:04.550	$GPGGA,000605,2426.1129,N,08135.3718,W,1,7,1.9,19,M,,M,,*5F
06/22/2015	00:06:05.570	$GPGGA,000606,2426.1126,N,08135.3741,W,1,9,1.7,19,M,,M,,*5F
06/22/2015	00:06:06.530	$GPGGA,000607,2426.1125,N,08135.3764,W,1,9,2.3,19,M,,M,,*5D
06/22/2015	00:06:07.541	$GPGGA,000608,2426.1124,N,08135.3786,W,1,8,2.3,18,M,,M,,*5F
06/22/2015	00:06:08.521	$GPGGA,000609,2426.1122,N,08135.3806,W,1,8,2.6,18,M,,M,,*5A
06/22/2015	00:06:09.531	$GPGGA,000610,2426.1119,N,08135.3829,W,1,8,2.3,18,M,,M,,*52
06/22/2015	00:06:10.641	$GPGGA,000611,2426.1117,N,08135.3851,W,1,8,1.7,18,M,,M,,*55
06/22/2015	00:06:11.571	$GPGGA,000612,2426.1116,N,08135.3873,W,1,9,1.7,18,M,,M,,*56
06/22/2015	00:06:12.521	$GPGGA,000613,2426.1115,N,08135.3895,W,1,9,2.6,18,M,,M,,*5E
06/22/2015	00:06:13.536	$GPGGA,000614,2426.1112,N,08135.3920,W,1,7,2.6,18,M,,M,,*5F
06/22/2015	00:06:14.531	$GPGGA,000615,2426.1111,N,08135.3942,W,1,7,1.9,18,M,,M,,*55
06/22/2015	00:06:15.561	$GPGGA,000616,2426.1111,N,08135.3965,W,1,7,2.6,18,M,,M,,*5F
06/22/2015	00:06:16.522	$GPGGA,000617,2426.1109,N,08135.3988,W,1,7,2.6,18,M,,M,,*54
06/22/2015	00:06:17.511	$GPGGA,000618,2426.1107,N,08135.4010,W,1,9,1.7,18,M,,M,,*56
06/22/2015	00:06:18.511	$GPGGA,000619,2426.1105,N,08135.4032,W,1,9,1.7,18,M,,M,,*55
06/22/2015	00:06:19.536	$GPGGA,000620,2426.1104,N,08135.4053,W,1,9,1.7,18,M,,M,,*59
06/22/2015	00:06:20.500	$GPGGA,000621,2426.1104,N,08135.4075,W,1,9,1.7,18,M,,M,,*5C
06/22/2015	00:06:21.520	$GPGGA,000622,2426.1101,N,08135.4097,W,1,9,1.7,18,M,,M,,*56
06/22/2015	00:06:22.500	$GPGGA,000623,2426.1102,N,08135.4118,W,1,9,1.7,18,M,,M,,*52
06/22/2015	00:06:23.650	$GPGGA,000624,2426.1100,N,08135.4140,W,1,7,2.6,19,M,,M,,*57
06/22/2015	00:06:24.510	$GPGGA,000625,2426.1100,N,08135.4163,W,1,7,2.6,18,M,,M,,*56
06/22/2015	00:06:25.582	$GPGGA,000626,2426.1098,N,08135.4184,W,1,7,2.6,18,M,,M,,*5C
06/22/2015	00:06:26.502	$GPGGA,000627,2426.1097,N,08135.4205,W,1,7,1.9,18,M,,M,,*54
06/22/2015	00:06:27.501	$GPGGA,000628,2426.1095,N,08135.4227,W,1,9,1.7,18,M,,M,,*59
06/22/2015	00:06:28.591	$GPGGA,000629,2426.1094,N,08135.4249,W,1,9,1.7,18,M,,M,,*51
06/22/2015	00:06:29.611	$GPGGA,000630,2426.1093,N,08135.4271,W,1,9,1.7,18,M,,M,,*55
06/22/2015	00:06:30.581	$GPGGA,000631,2426.1091,N,08135.4295,W,1,9,1.7,18,M,,M,,*5C
06/22/2015	00:06:31.601	$GPGGA,000632,2426.1090,N,08135.4317,W,1,9,1.7,18,M,,M,,*55
06/22/2015	00:06:32.581	$GPGGA,000633,2426.1088,N,08135.4339,W,1,9,1.7,18,M,,M,,*51
06/22/2015	00:06:33.571	$GPGGA,000634,2426.1087,N,08135.4360,W,1,8,2.3,18,M,,M,,*53
06/22/2015	00:06:34.581	$GPGGA,000635,2426.1086,N,08135.4382,W,1,8,1.7,18,M,,M,,*58
06/22/2015	00:06:35.611	$GPGGA,000636,2426.1084,N,08135.4407,W,1,9,1.7,18,M,,M,,*52
06/22/2015	00:06:36.570	$GPGGA,000637,2426.1082,N,08135.4429,W,1,9,1.7,18,M,,M,,*59
06/22/2015	00:06:37.580	$GPGGA,000638,2426.1082,N,08135.4452,W,1,9,1.7,18,M,,M,,*5A
06/22/2015	00:06:38.560	$GPGGA,000639,2426.1079,N,08135.4474,W,1,9,1.7,18,M,,M,,*5B
06/22/2015	00:06:39.590	$GPGGA,000640,2426.1078,N,08135.4498,W,1,9,1.7,18,M,,M,,*56
06/22/2015	00:06:40.560	$GPGGA,000641,2426.1076,N,08135.4521,W,1,9,1.7,18,M,,M,,*5A
06/22/2015	00:06:41.580	$GPGGA,000642,2426.1075,N,08135.4543,W,1,9,1.7,18,M,,M,,*5E
06/22/2015	00:06:42.551	$GPGGA,000643,2426.1075,N,08135.4564,W,1,9,1.7,18,M,,M,,*5A
06/22/2015	00:06:43.601	$GPGGA,000644,2426.1072,N,08135.4588,W,1,8,2.3,18,M,,M,,*5E
06/22/2015	00:06:44.551	$GPGGA,000645,2426.1071,N,08135.4610,W,1,8,1.7,18,M,,M,,*59
06/22/2015	00:06:45.561	$GPGGA,000646,2426.1069,N,08135.4633,W,1,9,1.7,18,M,,M,,*53
06/22/2015	00:06:46.551	$GPGGA,000647,2426.1066,N,08135.4657,W,1,9,1.7,18,M,,M,,*5F
06/22/2015	00:06:47.581	$GPGGA,000648,2426.1065,N,08135.4679,W,1,8,1.9,18,M,,M,,*50
06/22/2015	00:06:48.551	$GPGGA,000649,2426.1064,N,08135.4700,W,1,8,2.6,18,M,,M,,*53
06/22/2015	00:06:49.561	$GPGGA,000650,2426.1064,N,08135.4722,W,1,7,2.6,18,M,,M,,*54
06/22/2015	00:06:50.551	$GPGGA,000651,2426.1061,N,08135.4744,W,1,7,2.6,18,M,,M,,*50
06/22/2015	00:06:51.551	$GPGGA,000652,2426.1059,N,08135.4763,W,1,8,1.9,18,M,,M,,*5E
06/22/2015	00:06:52.551	$GPGGA,000653,2426.1058,N,08135.4784,W,1,8,1.7,18,M,,M,,*59
06/22/2015	00:06:53.571	$GPGGA,000654,2426.1055,N,08135.4808,W,1,8,2.3,18,M,,M,,*5F
06/22/2015	00:06:54.536	$GPGGA,000655,2426.1054,N,08135.4830,W,1,8,1.7,18,M,,M,,*53
06/22/2015	00:06:55.580	$GPGGA,000656,2426.1053,N,08135.4853,W,1,8,1.9,18,M,,M,,*5C
06/22/2015	00:06:56.520	$GPGGA,000657,2426.1053,N,08135.4875,W,1,8,2.6,18,M,,M,,*55
06/22/2015	00:06:57.531	$GPGGA,000658,2426.1051,N,08135.4896,W,1,7,2.6,18,M,,M,,*5A
06/22/2015	00:06:58.532	$GPGGA,000659,2426.1050,N,08135.4918,W,1,7,2.6,18,M,,M,,*5D
06/22/2015	00:06:59.550	$GPGGA,000700,2426.1049,N,08135.4939,W,1,7,2.6,18,M,,M,,*5B
06/22/2015	00:07:00.631	$GPGGA,000701,2426.1047,N,08135.4960,W,1,7,2.3,18,M,,M,,*5D
06/22/2015	00:07:01.633	$GPGGA,000702,2426.1044,N,08135.4985,W,1,8,2.3,17,M,,M,,*56
06/22/2015	00:07:02.511	$GPGGA,000703,2426.1042,N,08135.5005,W,1,8,1.9,17,M,,M,,*58
06/22/2015	00:07:03.691	$GPGGA,000704,2426.1040,N,08135.5026,W,1,8,2.3,17,M,,M,,*55
06/22/2015	00:07:04.634	$GPGGA,000705,2426.1039,N,08135.5048,W,1,8,2.3,17,M,,M,,*52
06/22/2015	00:07:05.543	$GPGGA,000706,2426.1037,N,08135.5070,W,1,8,2.3,17,M,,M,,*54
06/22/2015	00:07:06.501	$GPGGA,000707,2426.1036,N,08135.5091,W,1,8,2.3,17,M,,M,,*5B
06/22/2015	00:07:07.551	$GPGGA,000708,2426.1035,N,08135.5113,W,1,9,1.7,17,M,,M,,*5A
06/22/2015	00:07:08.627	$GPGGA,000709,2426.1033,N,08135.5134,W,1,9,2.6,17,M,,M,,*5A
06/22/2015	00:07:09.601	$GPGGA,000710,2426.1031,N,08135.5155,W,1,8,2.3,17,M,,M,,*53
06/22/2015	00:07:10.491	$GPGGA,000711,2426.1029,N,08135.5177,W,1,8,2.3,17,M,,M,,*5B
06/22/2015	00:07:11.612	$GPGGA,000712,2426.1028,N,08135.5196,W,1,9,1.7,17,M,,M,,*50
06/22/2015	00:07:12.600	$GPGGA,000713,2426.1028,N,08135.5218,W,1,9,1.7,17,M,,M,,*54
06/22/2015	00:07:13.580	$GPGGA,000714,2426.1026,N,08135.5242,W,1,8,1.9,17,M,,M,,*5D
06/22/2015	00:07:14.490	$GPGGA,000715,2426.1024,N,08135.5264,W,1,8,1.9,17,M,,M,,*5A
06/22/2015	00:07:15.600	$GPGGA,000716,2426.1023,N,08135.5286,W,1,8,1.9,17,M,,M,,*52
06/22/2015	00:07:16.580	$GPGGA,000717,2426.1021,N,08135.5308,W,1,8,1.7,17,M,,M,,*58
06/22/2015	00:07:17.580	$GPGGA,000718,2426.1019,N,08135.5330,W,1,9,1.7,16,M,,M,,*57
06/22/2015	00:07:18.580	$GPGGA,000719,2426.1018,N,08135.5354,W,1,9,1.7,16,M,,M,,*55
06/22/2015	00:07:19.580	$GPGGA,000720,2426.1017,N,08135.5376,W,1,9,1.7,16,M,,M,,*50
06/22/2015	00:07:20.560	$GPGGA,000721,2426.1014,N,08135.5397,W,1,9,1.7,16,M,,M,,*5D
06/22/2015	00:07:21.600	$GPGGA,000722,2426.1012,N,08135.5421,W,1,9,1.7,16,M,,M,,*52
06/22/2015	00:07:22.560	$GPGGA,000723,2426.1011,N,08135.5444,W,1,9,1.9,16,M,,M,,*5D
06/22/2015	00:07:23.580	$GPGGA,000724,2426.1012,N,08135.5466,W,1,7,2.6,16,M,,M,,*5B
06/22/2015	00:07:24.560	$GPGGA,000725,2426.1010,N,08135.5489,W,1,7,1.9,16,M,,M,,*55
06/22/2015	00:07:25.550	$GPGGA,000726,2426.1008,N,08135.5513,W,1,9,1.7,16,M,,M,,*5D
06/22/2015	00:07:26.560	$GPGGA,000727,2426.1006,N,08135.5538,W,1,9,1.7,16,M,,M,,*5B
06/22/2015	00:07:29.580	$GPGGA,000730,2426.1000,N,08135.5603,W,1,8,1.9,16,M,,M,,*5F
06/22/2015	00:07:30.550	$GPGGA,000731,2426.0999,N,08135.5625,W,1,8,1.9,16,M,,M,,*52
06/22/2015	00:07:31.570	$GPGGA,000732,2426.0997,N,08135.5647,W,1,8,1.9,16,M,,M,,*5B
06/22/2015	00:07:32.550	$GPGGA,000733,2426.0995,N,08135.5670,W,1,8,1.9,16,M,,M,,*5C
06/22/2015	00:07:33.560	$GPGGA,000734,2426.0993,N,08135.5694,W,1,8,1.9,16,M,,M,,*57
06/22/2015	00:07:34.540	$GPGGA,000735,2426.0992,N,08135.5716,W,1,8,1.9,16,M,,M,,*5C
06/22/2015	00:07:35.570	$GPGGA,000736,2426.0990,N,08135.5740,W,1,8,1.9,16,M,,M,,*5E
06/22/2015	00:07:36.540	$GPGGA,000737,2426.0988,N,08135.5762,W,1,8,1.9,16,M,,M,,*56
06/22/2015	00:07:37.530	$GPGGA,000738,2426.0986,N,08135.5784,W,1,8,1.9,16,M,,M,,*5F
06/22/2015	00:07:38.540	$GPGGA,000739,2426.0984,N,08135.5805,W,1,8,1.9,16,M,,M,,*5A
06/22/2015	00:07:39.570	$GPGGA,000740,2426.0983,N,08135.5825,W,1,9,1.7,16,M,,M,,*5E
06/22/2015	00:07:40.530	$GPGGA,000741,2426.0982,N,08135.5846,W,1,9,2.3,16,M,,M,,*5C
06/22/2015	00:07:41.525	$GPGGA,000742,2426.0981,N,08135.5868,W,1,8,1.9,16,M,,M,,*58
06/22/2015	00:07:42.520	$GPGGA,000743,2426.0981,N,08135.5890,W,1,8,1.9,16,M,,M,,*5E
06/22/2015	00:07:43.540	$GPGGA,000744,2426.0979,N,08135.5914,W,1,8,1.9,16,M,,M,,*53
06/22/2015	00:07:44.520	$GPGGA,000745,2426.0977,N,08135.5936,W,1,8,1.9,16,M,,M,,*5C
06/22/2015	00:07:45.831	$GPGGA,000746,2426.0976,N,08135.5957,W,1,7,2.6,16,M,,M,,*5A
06/22/2015	00:07:46.630	$GPGGA,000747,2426.0974,N,08135.5980,W,1,7,1.7,16,M,,M,,*51
06/22/2015	00:07:47.660	$GPGGA,000748,2426.0972,N,08135.6002,W,1,9,1.7,16,M,,M,,*56
06/22/2015	00:07:48.520	$GPGGA,000749,2426.0971,N,08135.6022,W,1,9,1.7,16,M,,M,,*56
06/22/2015	00:07:49.530	$GPGGA,000750,2426.0970,N,08135.6044,W,1,8,2.3,16,M,,M,,*59
06/22/2015	00:07:50.511	$GPGGA,000751,2426.0970,N,08135.6064,W,1,8,2.3,16,M,,M,,*5A
06/22/2015	00:07:51.540	$GPGGA,000752,2426.0970,N,08135.6085,W,1,8,2.3,16,M,,M,,*56
06/22/2015	00:07:52.518	$GPGGA,000753,2426.0968,N,08135.6107,W,1,8,1.7,16,M,,M,,*52
06/22/2015	00:07:53.640	$GPGGA,000754,2426.0967,N,08135.6131,W,1,7,2.6,16,M,,M,,*52
06/22/2015	00:07:54.500	$GPGGA,000755,2426.0966,N,08135.6152,W,1,7,2.6,16,M,,M,,*57
06/22/2015	00:07:55.531	$GPGGA,000756,2426.0964,N,08135.6174,W,1,7,2.6,16,M,,M,,*52
06/22/2015	00:07:56.500	$GPGGA,000757,2426.0963,N,08135.6194,W,1,7,2.6,16,M,,M,,*5A
06/22/2015	00:07:57.590	$GPGGA,000758,2426.0961,N,08135.6217,W,1,8,1.7,15,M,,M,,*51
06/22/2015	00:07:58.600	$GPGGA,000759,2426.0959,N,08135.6239,W,1,8,1.7,15,M,,M,,*57
06/22/2015	00:07:59.560	$GPGGA,000800,2426.0957,N,08135.6262,W,1,9,1.7,15,M,,M,,*55
06/22/2015	00:08:00.850	$GPGGA,000801,2426.0956,N,08135.6286,W,1,9,1.7,15,M,,M,,*5F
06/22/2015	00:08:01.610	$GPGGA,000802,2426.0952,N,08135.6311,W,1,9,1.7,15,M,,M,,*57
06/22/2015	00:08:02.600	$GPGGA,000803,2426.0952,N,08135.6333,W,1,9,2.3,15,M,,M,,*51
06/22/2015	00:08:03.661	$GPGGA,000804,2426.0950,N,08135.6356,W,1,8,1.7,15,M,,M,,*51
06/22/2015	00:08:04.490	$GPGGA,000805,2426.0947,N,08135.6380,W,1,8,1.7,15,M,,M,,*5D
06/22/2015	00:08:05.480	$GPGGA,000806,2426.0946,N,08135.6399,W,1,9,1.7,16,M,,M,,*55
06/22/2015	00:08:06.480	$GPGGA,000807,2426.0945,N,08135.6421,W,1,9,2.3,16,M,,M,,*54
06/22/2015	00:08:07.620	$GPGGA,000808,2426.0943,N,08135.6442,W,1,9,1.7,16,M,,M,,*5F
06/22/2015	00:08:08.580	$GPGGA,000809,2426.0941,N,08135.6464,W,1,9,1.7,16,M,,M,,*58
06/22/2015	00:08:09.600	$GPGGA,000810,2426.0939,N,08135.6488,W,1,9,1.9,16,M,,M,,*53
06/22/2015	00:08:10.570	$GPGGA,000811,2426.0938,N,08135.6510,W,1,9,1.9,16,M,,M,,*53
06/22/2015	00:08:11.590	$GPGGA,000812,2426.0936,N,08135.6533,W,1,8,2.6,16,M,,M,,*52
06/22/2015	00:08:12.570	$GPGGA,000813,2426.0935,N,08135.6555,W,1,8,2.6,16,M,,M,,*50
06/22/2015	00:08:13.560	$GPGGA,000814,2426.0934,N,08135.6577,W,1,7,2.6,16,M,,M,,*59
06/22/2015	00:08:14.570	$GPGGA,000815,2426.0932,N,08135.6598,W,1,7,2.3,16,M,,M,,*5A
06/22/2015	00:08:15.590	$GPGGA,000816,2426.0931,N,08135.6619,W,1,8,1.7,16,M,,M,,*58
06/22/2015	00:08:16.560	$GPGGA,000817,2426.0929,N,08135.6640,W,1,8,1.9,16,M,,M,,*52
06/22/2015	00:08:17.550	$GPGGA,000818,2426.0928,N,08135.6662,W,1,8,2.3,16,M,,M,,*55
06/22/2015	00:08:18.560	$GPGGA,000819,2426.0925,N,08135.6685,W,1,8,1.7,16,M,,M,,*57
06/22/2015	00:08:19.600	$GPGGA,000820,2426.0923,N,08135.6710,W,1,9,1.9,17,M,,M,,*58
06/22/2015	00:08:20.551	$GPGGA,000821,2426.0921,N,08135.6732,W,1,9,2.3,17,M,,M,,*52
06/22/2015	00:08:21.570	$GPGGA,000822,2426.0919,N,08135.6753,W,1,8,2.3,17,M,,M,,*5C
06/22/2015	00:08:22.560	$GPGGA,000823,2426.0917,N,08135.6775,W,1,8,2.3,17,M,,M,,*57
06/22/2015	00:08:23.590	$GPGGA,000824,2426.0916,N,08135.6796,W,1,8,2.6,17,M,,M,,*59
06/22/2015	00:08:24.540	$GPGGA,000825,2426.0914,N,08135.6817,W,1,8,2.6,17,M,,M,,*5C
06/22/2015	00:08:25.560	$GPGGA,000826,2426.0912,N,08135.6839,W,1,7,2.6,17,M,,M,,*5A
06/22/2015	00:08:26.540	$GPGGA,000827,2426.0909,N,08135.6861,W,1,7,1.9,17,M,,M,,*50
06/22/2015	00:08:27.570	$GPGGA,000828,2426.0907,N,08135.6882,W,1,8,1.9,17,M,,M,,*53
06/22/2015	00:08:28.523	$GPGGA,000829,2426.0905,N,08135.6904,W,1,8,2.6,17,M,,M,,*53
06/22/2015	00:08:29.570	$GPGGA,000830,2426.0903,N,08135.6926,W,1,7,2.3,17,M,,M,,*57
06/22/2015	00:08:30.522	$GPGGA,000831,2426.0901,N,08135.6948,W,1,7,2.6,17,M,,M,,*59
06/22/2015	00:08:31.550	$GPGGA,000832,2426.0899,N,08135.6970,W,1,7,2.6,17,M,,M,,*51
06/22/2015	00:08:32.540	$GPGGA,000833,2426.0895,N,08135.6995,W,1,7,1.9,17,M,,M,,*5B
06/22/2015	00:08:33.540	$GPGGA,000834,2426.0894,N,08135.7016,W,1,8,2.3,17,M,,M,,*58
06/22/2015	00:08:34.521	$GPGGA,000835,2426.0891,N,08135.7039,W,1,8,1.7,17,M,,M,,*56
06/22/2015	00:08:35.560	$GPGGA,000836,2426.0889,N,08135.7060,W,1,9,1.7,17,M,,M,,*51
06/22/2015	00:08:36.530	$GPGGA,000837,2426.0887,N,08135.7081,W,1,9,2.3,17,M,,M,,*56
06/22/2015	00:08:37.540	$GPGGA,000838,2426.0887,N,08135.7103,W,1,8,1.7,17,M,,M,,*54
06/22/2015	00:08:38.521	$GPGGA,000839,2426.0885,N,08135.7124,W,1,8,2.3,17,M,,M,,*55
06/22/2015	00:08:39.630	$GPGGA,000840,2426.0883,N,08135.7146,W,1,8,1.7,17,M,,M,,*5E
06/22/2015	00:08:40.530	$GPGGA,000841,2426.0881,N,08135.7171,W,1,8,1.7,17,M,,M,,*59
06/22/2015	00:08:41.614	$GPGGA,000842,2426.0880,N,08135.7193,W,1,9,1.7,17,M,,M,,*56
06/22/2015	00:08:42.530	$GPGGA,000843,2426.0878,N,08135.7212,W,1,9,2.3,17,M,,M,,*5D
06/22/2015	00:08:43.530	$GPGGA,000844,2426.0877,N,08135.7233,W,1,8,2.3,17,M,,M,,*57
06/22/2015	00:08:44.610	$GPGGA,000845,2426.0874,N,08135.7256,W,1,8,1.7,17,M,,M,,*51
06/22/2015	00:08:45.600	$GPGGA,000846,2426.0873,N,08135.7277,W,1,9,2.3,17,M,,M,,*50
06/22/2015	00:08:46.523	$GPGGA,000847,2426.0872,N,08135.7298,W,1,9,2.3,17,M,,M,,*51
06/22/2015	00:08:47.600	$GPGGA,000848,2426.0871,N,08135.7320,W,1,8,2.3,17,M,,M,,*5E
06/22/2015	00:08:48.590	$GPGGA,000849,2426.0869,N,08135.7342,W,1,8,1.7,17,M,,M,,*55
06/22/2015	00:08:49.500	$GPGGA,000850,2426.0867,N,08135.7366,W,1,9,1.7,17,M,,M,,*54
06/22/2015	00:08:50.580	$GPGGA,000851,2426.0865,N,08135.7388,W,1,9,1.7,17,M,,M,,*57
06/22/2015	00:08:51.610	$GPGGA,000852,2426.0863,N,08135.7411,W,1,9,1.7,17,M,,M,,*55
06/22/2015	00:08:52.580	$GPGGA,000853,2426.0862,N,08135.7432,W,1,9,1.7,17,M,,M,,*54
06/22/2015	00:08:53.590	$GPGGA,000854,2426.0862,N,08135.7453,W,1,9,1.7,17,M,,M,,*54
06/22/2015	00:08:56.581	$GPGGA,000857,2426.0858,N,08135.7519,W,1,9,1.7,17,M,,M,,*51
06/22/2015	00:08:57.931	$GPGGA,000858,2426.0858,N,08135.7541,W,1,9,1.7,17,M,,M,,*53
06/22/2015	00:08:58.570	$GPGGA,000859,2426.0856,N,08135.7565,W,1,9,1.7,17,M,,M,,*5A
06/22/2015	00:08:59.625	$GPGGA,000900,2426.0854,N,08135.7587,W,1,9,1.7,17,M,,M,,*59
06/22/2015	00:09:00.560	$GPGGA,000901,2426.0853,N,08135.7608,W,1,9,1.7,17,M,,M,,*5B
06/22/2015	00:09:01.580	$GPGGA,000902,2426.0852,N,08135.7628,W,1,9,1.7,17,M,,M,,*5B
06/22/2015	00:09:02.550	$GPGGA,000903,2426.0851,N,08135.7649,W,1,9,2.3,17,M,,M,,*59
06/22/2015	00:09:03.600	$GPGGA,000904,2426.0851,N,08135.7670,W,1,8,2.3,17,M,,M,,*55
06/22/2015	00:09:04.560	$GPGGA,000905,2426.0849,N,08135.7691,W,1,8,1.7,17,M,,M,,*55
06/22/2015	00:09:05.550	$GPGGA,000906,2426.0847,N,08135.7713,W,1,9,1.7,17,M,,M,,*52
06/22/2015	00:09:06.560	$GPGGA,000907,2426.0846,N,08135.7735,W,1,9,1.7,17,M,,M,,*56
06/22/2015	00:09:07.590	$GPGGA,000908,2426.0845,N,08135.7757,W,1,9,1.7,17,M,,M,,*5E
06/22/2015	00:09:08.560	$GPGGA,000909,2426.0844,N,08135.7779,W,1,9,1.7,17,M,,M,,*52
06/22/2015	00:09:09.540	$GPGGA,000910,2426.0841,N,08135.7801,W,1,9,1.7,17,M,,M,,*5F
06/22/2015	00:09:10.560	$GPGGA,000911,2426.0840,N,08135.7823,W,1,9,1.7,17,M,,M,,*5F
06/22/2015	00:09:11.570	$GPGGA,000912,2426.0838,N,08135.7844,W,1,9,1.7,17,M,,M,,*52
06/22/2015	00:09:12.540	$GPGGA,000913,2426.0836,N,08135.7866,W,1,9,1.7,17,M,,M,,*5D
06/22/2015	00:09:13.531	$GPGGA,000914,2426.0835,N,08135.7888,W,1,9,1.7,17,M,,M,,*59
06/22/2015	00:09:14.530	$GPGGA,000915,2426.0833,N,08135.7912,W,1,9,1.7,17,M,,M,,*5C
06/22/2015	00:09:15.540	$GPGGA,000916,2426.0831,N,08135.7934,W,1,9,1.7,17,M,,M,,*59
06/22/2015	00:09:16.530	$GPGGA,000917,2426.0830,N,08135.7955,W,1,9,2.3,17,M,,M,,*59
06/22/2015	00:09:17.530	$GPGGA,000918,2426.0829,N,08135.7977,W,1,8,2.3,17,M,,M,,*5F
06/22/2015	00:09:18.530	$GPGGA,000919,2426.0827,N,08135.7999,W,1,8,2.3,17,M,,M,,*50
06/22/2015	00:09:19.530	$GPGGA,000920,2426.0824,N,08135.8021,W,1,8,2.3,17,M,,M,,*5C
06/22/2015	00:09:20.530	$GPGGA,000921,2426.0822,N,08135.8045,W,1,8,1.7,17,M,,M,,*5E
06/22/2015	00:09:21.530	$GPGGA,000922,2426.0820,N,08135.8065,W,1,9,1.7,17,M,,M,,*5C
06/22/2015	00:09:22.515	$GPGGA,000923,2426.0819,N,08135.8085,W,1,9,1.7,17,M,,M,,*59
06/22/2015	00:09:23.561	$GPGGA,000924,2426.0817,N,08135.8108,W,1,8,2.3,17,M,,M,,*52
06/22/2015	00:09:24.530	$GPGGA,000925,2426.0816,N,08135.8129,W,1,8,1.7,17,M,,M,,*56
06/22/2015	00:09:25.620	$GPGGA,000926,2426.0815,N,08135.8151,W,1,8,2.3,17,M,,M,,*5E
06/22/2015	00:09:26.540	$GPGGA,000927,2426.0811,N,08135.8176,W,1,8,2.3,17,M,,M,,*5E
06/22/2015	00:09:27.530	$GPGGA,000928,2426.0809,N,08135.8201,W,1,9,1.7,17,M,,M,,*5D
06/22/2015	00:09:28.500	$GPGGA,000929,2426.0807,N,08135.8223,W,1,9,1.7,17,M,,M,,*52
06/22/2015	00:09:29.620	$GPGGA,000930,2426.0805,N,08135.8244,W,1,9,1.7,17,M,,M,,*59
06/22/2015	00:09:30.501	$GPGGA,000931,2426.0804,N,08135.8266,W,1,9,1.9,17,M,,M,,*57
06/22/2015	00:09:31.550	$GPGGA,000932,2426.0802,N,08135.8288,W,1,9,1.7,17,M,,M,,*5C
06/22/2015	00:09:32.512	$GPGGA,000933,2426.0800,N,08135.8309,W,1,9,1.7,17,M,,M,,*57
06/22/2015	00:09:34.061	$GPGGA,000934,2426.0799,N,08135.8329,W,1,9,1.7,17,M,,M,,*5D
06/22/2015	00:09:34.511	$GPGGA,000935,2426.0797,N,08135.8350,W,1,9,1.7,18,M,,M,,*53
06/22/2015	00:09:35.640	$GPGGA,000936,2426.0797,N,08135.8371,W,1,9,1.7,18,M,,M,,*53
06/22/2015	00:09:36.511	$GPGGA,000937,2426.0794,N,08135.8392,W,1,9,2.3,18,M,,M,,*5B
06/22/2015	00:09:37.580	$GPGGA,000938,2426.0793,N,08135.8414,W,1,9,1.7,18,M,,M,,*5D
06/22/2015	00:09:38.500	$GPGGA,000939,2426.0791,N,08135.8436,W,1,9,1.7,18,M,,M,,*5E
06/22/2015	00:09:39.590	$GPGGA,000940,2426.0789,N,08135.8457,W,1,9,1.7,18,M,,M,,*5E
06/22/2015	00:09:40.590	$GPGGA,000941,2426.0787,N,08135.8479,W,1,9,1.7,18,M,,M,,*5D
06/22/2015	00:09:41.580	$GPGGA,000942,2426.0786,N,08135.8501,W,1,9,1.7,18,M,,M,,*51
06/22/2015	00:09:42.580	$GPGGA,000943,2426.0784,N,08135.8522,W,1,9,1.7,18,M,,M,,*53
06/22/2015	00:09:43.660	$GPGGA,000944,2426.0783,N,08135.8544,W,1,9,1.7,19,M,,M,,*52
06/22/2015	00:09:44.570	$GPGGA,000945,2426.0782,N,08135.8566,W,1,9,1.7,19,M,,M,,*52
06/22/2015	00:09:45.590	$GPGGA,000946,2426.0780,N,08135.8587,W,1,9,1.7,19,M,,M,,*5C
06/22/2015	00:09:46.570	$GPGGA,000947,2426.0779,N,08135.8609,W,1,9,1.7,19,M,,M,,*5E
06/22/2015	00:09:47.600	$GPGGA,000948,2426.0777,N,08135.8631,W,1,9,1.7,19,M,,M,,*54
06/22/2015	00:09:48.581	$GPGGA,000949,2426.0776,N,08135.8653,W,1,9,1.7,19,M,,M,,*50
06/22/2015	00:09:49.590	$GPGGA,000950,2426.0775,N,08135.8675,W,1,9,1.7,19,M,,M,,*5F
06/22/2015	00:09:50.560	$GPGGA,000951,2426.0773,N,08135.8696,W,1,9,1.7,19,M,,M,,*55
06/22/2015	00:09:51.611	$GPGGA,000952,2426.0772,N,08135.8717,W,1,9,1.7,19,M,,M,,*5F
06/22/2015	00:09:52.560	$GPGGA,000953,2426.0773,N,08135.8739,W,1,9,2.3,19,M,,M,,*54
06/22/2015	00:09:53.580	$GPGGA,000954,2426.0771,N,08135.8761,W,1,8,2.3,19,M,,M,,*5D
06/22/2015	00:09:54.560	$GPGGA,000955,2426.0769,N,08135.8784,W,1,8,2.3,19,M,,M,,*5E
06/22/2015	00:09:55.580	$GPGGA,000956,2426.0770,N,08135.8806,W,1,9,1.7,19,M,,M,,*56
06/22/2015	00:09:56.560	$GPGGA,000957,2426.0768,N,08135.8829,W,1,9,2.3,19,M,,M,,*54
06/22/2015	00:09:57.540	$GPGGA,000958,2426.0766,N,08135.8852,W,1,8,2.3,19,M,,M,,*58
06/22/2015	00:09:59.000	$GPGGA,000959,2426.0764,N,08135.8876,W,1,8,1.7,19,M,,M,,*5A
06/22/2015	00:09:59.600	$GPGGA,001000,2426.0762,N,08135.8898,W,1,9,1.7,19,M,,M,,*59
06/22/2015	00:10:00.550	$GPGGA,001001,2426.0760,N,08135.8921,W,1,9,1.7,19,M,,M,,*59
06/22/2015	00:10:01.540	$GPGGA,001002,2426.0758,N,08135.8943,W,1,9,1.7,19,M,,M,,*55
06/22/2015	00:10:02.550	$GPGGA,001003,2426.0757,N,08135.8964,W,1,9,2.3,19,M,,M,,*59
06/22/2015	00:10:03.550	$GPGGA,001004,2426.0757,N,08135.8985,W,1,8,2.3,19,M,,M,,*50
06/22/2015	00:10:04.540	$GPGGA,001005,2426.0754,N,08135.9007,W,1,8,2.3,19,M,,M,,*50
06/22/2015	00:10:05.541	$GPGGA,001006,2426.0752,N,08135.9030,W,1,8,2.3,19,M,,M,,*51
06/22/2015	00:10:06.524	$GPGGA,001007,2426.0751,N,08135.9053,W,1,8,1.7,20,M,,M,,*5B
06/22/2015	00:10:07.560	$GPGGA,001008,2426.0750,N,08135.9075,W,1,9,1.7,20,M,,M,,*50
06/22/2015	00:10:08.524	$GPGGA,001009,2426.0750,N,08135.9095,W,1,9,2.3,20,M,,M,,*58
06/22/2015	00:10:09.527	$GPGGA,001010,2426.0748,N,08135.9118,W,1,8,2.3,20,M,,M,,*5C
06/22/2015	00:10:10.524	$GPGGA,001011,2426.0746,N,08135.9140,W,1,8,2.3,20,M,,M,,*5E
06/22/2015	00:10:11.550	$GPGGA,001012,2426.0746,N,08135.9162,W,1,8,2.3,19,M,,M,,*57
06/22/2015	00:10:12.841	$GPGGA,001013,2426.0744,N,08135.9184,W,1,8,2.3,19,M,,M,,*5C
06/22/2015	00:10:13.525	$GPGGA,001014,2426.0741,N,08135.9209,W,1,8,2.3,19,M,,M,,*58
06/22/2015	00:10:14.530	$GPGGA,001015,2426.0739,N,08135.9232,W,1,8,1.7,19,M,,M,,*59
06/22/2015	00:10:15.550	$GPGGA,001016,2426.0736,N,08135.9256,W,1,9,1.7,19,M,,M,,*56
06/22/2015	00:10:16.524	$GPGGA,001017,2426.0734,N,08135.9278,W,1,9,1.7,19,M,,M,,*59
06/22/2015	00:10:17.540	$GPGGA,001018,2426.0733,N,08135.9299,W,1,9,1.7,19,M,,M,,*5E
06/22/2015	00:10:18.512	$GPGGA,001019,2426.0732,N,08135.9321,W,1,9,2.3,19,M,,M,,*5B
06/22/2015	00:10:19.522	$GPGGA,001020,2426.0734,N,08135.9340,W,1,7,2.5,19,M,,M,,*58
06/22/2015	00:10:20.500	$GPGGA,001021,2426.0733,N,08135.9361,W,1,7,2.3,19,M,,M,,*5B
06/22/2015	00:10:21.513	$GPGGA,001022,2426.0732,N,08135.9382,W,1,8,2.3,19,M,,M,,*5B
06/22/2015	00:10:22.513	$GPGGA,001023,2426.0732,N,08135.9402,W,1,8,2.3,19,M,,M,,*55
06/22/2015	00:10:23.515	$GPGGA,001024,2426.0730,N,08135.9423,W,1,8,2.3,19,M,,M,,*53
06/22/2015	00:10:24.521	$GPGGA,001025,2426.0729,N,08135.9447,W,1,8,2.3,19,M,,M,,*58
06/22/2015	00:10:25.490	$GPGGA,001026,2426.0728,N,08135.9467,W,1,9,1.7,19,M,,M,,*5E
06/22/2015	00:10:26.590	$GPGGA,001027,2426.0725,N,08135.9491,W,1,9,2.3,19,M,,M,,*5C
06/22/2015	00:10:27.630	$GPGGA,001028,2426.0723,N,08135.9516,W,1,9,1.7,19,M,,M,,*5C
06/22/2015	00:10:28.535	$GPGGA,001029,2426.0722,N,08135.9538,W,1,9,1.7,19,M,,M,,*50
06/22/2015	00:10:29.620	$GPGGA,001030,2426.0721,N,08135.9559,W,1,9,1.7,19,M,,M,,*5C
06/22/2015	00:10:30.580	$GPGGA,001031,2426.0723,N,08135.9578,W,1,9,1.7,19,M,,M,,*5C
06/22/2015	00:10:31.590	$GPGGA,001032,2426.0721,N,08135.9599,W,1,9,1.7,19,M,,M,,*52
06/22/2015	00:10:32.580	$GPGGA,001033,2426.0719,N,08135.9621,W,1,9,2.3,19,M,,M,,*5F
06/22/2015	00:10:33.480	$GPGGA,001034,2426.0718,N,08135.9642,W,1,8,2.3,19,M,,M,,*5D
06/22/2015	00:10:34.570	$GPGGA,001035,2426.0719,N,08135.9664,W,1,8,2.6,18,M,,M,,*5D
06/22/2015	00:10:35.590	$GPGGA,001036,2426.0717,N,08135.9684,W,1,8,2.3,18,M,,M,,*5B
06/22/2015	00:10:36.570	$GPGGA,001037,2426.0715,N,08135.9707,W,1,8,2.3,18,M,,M,,*52
06/22/2015	00:10:37.560	$GPGGA,001038,2426.0714,N,08135.9729,W,1,8,2.3,18,M,,M,,*50
06/22/2015	00:10:38.580	$GPGGA,001039,2426.0710,N,08135.9754,W,1,8,2.3,18,M,,M,,*5F
06/22/2015	00:10:39.580	$GPGGA,001040,2426.0708,N,08135.9777,W,1,8,1.8,18,M,,M,,*51
06/22/2015	00:10:40.571	$GPGGA,001041,2426.0707,N,08135.9801,W,1,8,1.7,18,M,,M,,*5E
06/22/2015	00:10:41.571	$GPGGA,001042,2426.0705,N,08135.9823,W,1,9,1.7,18,M,,M,,*5E
06/22/2015	00:10:42.560	$GPGGA,001043,2426.0704,N,08135.9844,W,1,9,1.7,18,M,,M,,*5F
06/22/2015	00:10:43.600	$GPGGA,001044,2426.0703,N,08135.9864,W,1,8,2.3,18,M,,M,,*5B
06/22/2015	00:10:44.560	$GPGGA,001045,2426.0703,N,08135.9884,W,1,8,2.3,18,M,,M,,*54
06/22/2015	00:10:45.570	$GPGGA,001046,2426.0700,N,08135.9906,W,1,8,2.3,18,M,,M,,*5F
06/22/2015	00:10:46.560	$GPGGA,001047,2426.0697,N,08135.9929,W,1,8,2.3,18,M,,M,,*5C
06/22/2015	00:10:47.550	$GPGGA,001048,2426.0695,N,08135.9953,W,1,9,1.7,18,M,,M,,*5A
06/22/2015	00:10:48.540	$GPGGA,001049,2426.0692,N,08135.9975,W,1,9,1.7,18,M,,M,,*58
06/22/2015	00:10:49.571	$GPGGA,001050,2426.0690,N,08135.9997,W,1,8,1.8,18,M,,M,,*50
06/22/2015	00:10:50.550	$GPGGA,001051,2426.0688,N,08136.0019,W,1,8,1.7,18,M,,M,,*52
06/22/2015	00:10:51.580	$GPGGA,001052,2426.0686,N,08136.0041,W,1,9,1.7,18,M,,M,,*53
06/22/2015	00:10:52.540	$GPGGA,001053,2426.0685,N,08136.0065,W,1,9,1.7,18,M,,M,,*57
06/22/2015	00:10:53.580	$GPGGA,001054,2426.0685,N,08136.0085,W,1,8,1.8,18,M,,M,,*50
06/22/2015	00:10:54.527	$GPGGA,001055,2426.0682,N,08136.0105,W,1,8,1.7,18,M,,M,,*50
06/22/2015	00:10:55.540	$GPGGA,001056,2426.0681,N,08136.0126,W,1,7,2.6,18,M,,M,,*5C
06/22/2015	00:10:56.540	$GPGGA,001057,2426.0681,N,08136.0146,W,1,7,1.7,18,M,,M,,*59
06/22/2015	00:10:57.523	$GPGGA,001058,2426.0677,N,08136.0171,W,1,8,2.3,18,M,,M,,*53
06/22/2015	00:10:58.531	$GPGGA,001059,2426.0674,N,08136.0195,W,1,8,1.7,18,M,,M,,*5C
06/22/2015	00:10:59.570	$GPGGA,001100,2426.0670,N,08136.0217,W,1,8,1.8,18,M,,M,,*53
06/22/2015	00:11:00.530	$GPGGA,001101,2426.0667,N,08136.0239,W,1,8,1.8,18,M,,M,,*58
06/22/2015	00:11:01.525	$GPGGA,001102,2426.0664,N,08136.0260,W,1,9,1.7,18,M,,M,,*5A
06/22/2015	00:11:02.523	$GPGGA,001103,2426.0660,N,08136.0285,W,1,9,2.3,18,M,,M,,*53
06/22/2015	00:11:03.560	$GPGGA,001104,2426.0658,N,08136.0307,W,1,9,1.7,18,M,,M,,*53
06/22/2015	00:11:04.525	$GPGGA,001105,2426.0656,N,08136.0327,W,1,9,1.7,19,M,,M,,*5F
06/22/2015	00:11:05.530	$GPGGA,001106,2426.0656,N,08136.0348,W,1,8,2.3,19,M,,M,,*53
06/22/2015	00:11:06.512	$GPGGA,001107,2426.0653,N,08136.0369,W,1,8,2.3,19,M,,M,,*54
06/22/2015	00:11:07.540	$GPGGA,001108,2426.0650,N,08136.0392,W,1,8,2.3,19,M,,M,,*5C
06/22/2015	00:11:08.601	$GPGGA,001109,2426.0649,N,08136.0412,W,1,8,1.7,19,M,,M,,*5D
06/22/2015	00:11:09.514	$GPGGA,001110,2426.0648,N,08136.0434,W,1,8,2.3,19,M,,M,,*57
06/22/2015	00:11:10.590	$GPGGA,001111,2426.0648,N,08136.0453,W,1,8,2.3,19,M,,M,,*57
06/22/2015	00:11:11.690	$GPGGA,001112,2426.0645,N,08136.0477,W,1,8,1.7,19,M,,M,,*58
06/22/2015	00:11:12.512	$GPGGA,001113,2426.0641,N,08136.0502,W,1,8,1.7,19,M,,M,,*5E
06/22/2015	00:11:13.523	$GPGGA,001114,2426.0638,N,08136.0524,W,1,8,1.8,19,M,,M,,*5C
06/22/2015	00:11:15.541	$GPGGA,001116,2426.0636,N,08136.0567,W,1,9,1.7,19,M,,M,,*59
06/22/2015	00:11:16.670	$GPGGA,001117,2426.0634,N,08136.0589,W,1,9,1.7,19,M,,M,,*5A
06/22/2015	00:11:17.490	$GPGGA,001118,2426.0634,N,08136.0608,W,1,9,1.7,19,M,,M,,*5F
06/22/2015	00:11:18.580	$GPGGA,001119,2426.0634,N,08136.0629,W,1,9,2.3,19,M,,M,,*5A
06/22/2015	00:11:19.670	$GPGGA,001120,2426.0634,N,08136.0650,W,1,8,2.3,19,M,,M,,*5F
06/22/2015	00:11:20.580	$GPGGA,001121,2426.0632,N,08136.0670,W,1,8,2.3,19,M,,M,,*5A
06/22/2015	00:11:21.611	$GPGGA,001122,2426.0629,N,08136.0693,W,1,7,2.6,19,M,,M,,*54
06/22/2015	00:11:22.580	$GPGGA,001123,2426.0627,N,08136.0715,W,1,7,2.6,19,M,,M,,*54
06/22/2015	00:11:23.660	$GPGGA,001124,2426.0625,N,08136.0735,W,1,8,2.3,19,M,,M,,*59
06/22/2015	00:11:24.570	$GPGGA,001125,2426.0623,N,08136.0758,W,1,8,2.3,19,M,,M,,*55
06/22/2015	00:11:25.560	$GPGGA,001126,2426.0620,N,08136.0780,W,1,7,2.6,19,M,,M,,*5A
06/22/2015	00:11:26.640	$GPGGA,001127,2426.0620,N,08136.0802,W,1,7,1.7,19,M,,M,,*5C
06/22/2015	00:11:27.625	$GPGGA,001128,2426.0617,N,08136.0825,W,1,9,1.7,19,M,,M,,*5C
06/22/2015	00:11:28.560	$GPGGA,001129,2426.0616,N,08136.0847,W,1,9,1.7,19,M,,M,,*58
06/22/2015	00:11:29.600	$GPGGA,001130,2426.0612,N,08136.0870,W,1,9,1.8,19,M,,M,,*5F
06/22/2015	00:11:30.630	$GPGGA,001131,2426.0615,N,08136.0889,W,1,9,1.8,19,M,,M,,*5F
06/22/2015	00:11:31.613	$GPGGA,001132,2426.0612,N,08136.0910,W,1,8,2.3,19,M,,M,,*53
06/22/2015	00:11:32.631	$GPGGA,001133,2426.0609,N,08136.0933,W,1,8,1.7,19,M,,M,,*5E
06/22/2015	00:11:33.551	$GPGGA,001134,2426.0606,N,08136.0955,W,1,9,1.7,19,M,,M,,*57
06/22/2015	00:11:34.625	$GPGGA,001135,2426.0603,N,08136.0979,W,1,9,2.1,19,M,,M,,*58
06/22/2015	00:11:35.650	$GPGGA,001136,2426.0600,N,08136.0999,W,1,7,1.7,19,M,,M,,*5D
06/22/2015	00:11:36.570	$GPGGA,001137,2426.0598,N,08136.1020,W,1,7,1.7,19,M,,M,,*54
06/22/2015	00:11:37.580	$GPGGA,001138,2426.0596,N,08136.1040,W,1,8,1.8,19,M,,M,,*53
06/22/2015	00:11:38.630	$GPGGA,001139,2426.0594,N,08136.1060,W,1,8,2.6,19,M,,M,,*5F
06/22/2015	00:11:39.600	$GPGGA,001140,2426.0594,N,08136.1080,W,1,8,2.3,19,M,,M,,*5A
06/22/2015	00:11:40.600	$GPGGA,001141,2426.0593,N,08136.1102,W,1,8,2.3,19,M,,M,,*57
06/22/2015	00:11:41.530	$GPGGA,001142,2426.0594,N,08136.1123,W,1,8,2.3,19,M,,M,,*50
06/22/2015	00:11:42.600	$GPGGA,001143,2426.0592,N,08136.1143,W,1,8,2.3,19,M,,M,,*51
06/22/2015	00:11:43.600	$GPGGA,001144,2426.0587,N,08136.1168,W,1,9,1.7,19,M,,M,,*5D
06/22/2015	00:11:44.530	$GPGGA,001145,2426.0587,N,08136.1189,W,1,9,1.7,19,M,,M,,*53
06/22/2015	00:11:45.550	$GPGGA,001146,2426.0587,N,08136.1207,W,1,8,1.7,19,M,,M,,*54
06/22/2015	00:11:46.521	$GPGGA,001147,2426.0587,N,08136.1228,W,1,8,1.7,19,M,,M,,*58
06/22/2015	00:11:47.620	$GPGGA,001148,2426.0585,N,08136.1248,W,1,9,1.7,19,M,,M,,*52
06/22/2015	00:11:48.523	$GPGGA,001149,2426.0583,N,08136.1270,W,1,9,1.7,19,M,,M,,*5E
06/22/2015	00:11:49.550	$GPGGA,001150,2426.0582,N,08136.1291,W,1,9,2.3,18,M,,M,,*5E
06/22/2015	00:11:50.521	$GPGGA,001151,2426.0581,N,08136.1312,W,1,9,2.3,18,M,,M,,*56
06/22/2015	00:11:51.590	$GPGGA,001152,2426.0580,N,08136.1333,W,1,8,2.3,18,M,,M,,*56
06/22/2015	00:11:52.621	$GPGGA,001153,2426.0576,N,08136.1355,W,1,8,2.6,18,M,,M,,*5B
06/22/2015	00:11:53.580	$GPGGA,001154,2426.0575,N,08136.1376,W,1,7,2.3,18,M,,M,,*54
