Software Version Number: 1	Data File Format Number: 1	Build Version Number: 1	Error Count Since VI Started: 1	Manufacturer: Raytheon	 Model Number: RayMarine 120	 S/N: 	 Cal Date: 	 Wind Direction Offset: 0.00	 Slope (M)1: 0.00	 Offset (B)1: 0.00	 Slope (M)2: 0.00	 Offset (B)2: 0.00	 Slope (M)3: 0.00	 Offset (B)3: 0.00	 Slope (M)4: 0.00	 Offset (B)4: 0.00	 Slope (M)5: 0.00	 Offset (B)5: 0.00	 Slope (M)6: 0.00	 Offset (B)6: 0.00
Computer Date	Computer Time	GGA String
06/17/2015	21:00:00.516	$GPGGA,210001,2543.8835,N,08009.7267,W,1,9,2.3,11,M,,M,,*59
06/17/2015	21:00:01.517	$GPGGA,210002,2543.8835,N,08009.7266,W,1,9,2.3,11,M,,M,,*5B
06/17/2015	21:00:02.507	$GPGGA,210003,2543.8835,N,08009.7266,W,1,9,2.3,11,M,,M,,*5A
06/17/2015	21:00:03.526	$GPGGA,210004,2543.8835,N,08009.7266,W,1,9,2.3,11,M,,M,,*5D
06/17/2015	21:00:04.516	$GPGGA,210005,2543.8835,N,08009.7266,W,1,9,2.3,11,M,,M,,*5C
06/17/2015	21:00:05.506	$GPGGA,210006,2543.8835,N,08009.7265,W,1,9,2.3,12,M,,M,,*5F
06/17/2015	21:00:06.516	$GPGGA,210007,2543.8835,N,08009.7265,W,1,9,2.3,12,M,,M,,*5E
06/17/2015	21:00:07.506	$GPGGA,210008,2543.8835,N,08009.7265,W,1,9,2.3,12,M,,M,,*51
06/17/2015	21:00:08.506	$GPGGA,210009,2543.8835,N,08009.7265,W,1,9,2.3,12,M,,M,,*50
06/17/2015	21:00:09.506	$GPGGA,210010,2543.8835,N,08009.7265,W,1,9,2.3,12,M,,M,,*58
06/17/2015	21:00:10.506	$GPGGA,210011,2543.8835,N,08009.7265,W,1,9,2.3,12,M,,M,,*59
06/17/2015	21:00:11.606	$GPGGA,210012,2543.8835,N,08009.7265,W,1,9,2.3,12,M,,M,,*5A
06/17/2015	21:00:12.496	$GPGGA,210013,2543.8833,N,08009.7266,W,1,9,2.3,12,M,,M,,*5E
06/17/2015	21:00:13.586	$GPGGA,210014,2543.8834,N,08009.7266,W,1,9,2.3,12,M,,M,,*5E
06/17/2015	21:00:14.496	$GPGGA,210015,2543.8833,N,08009.7266,W,1,9,2.3,12,M,,M,,*58
06/17/2015	21:00:15.627	$GPGGA,210016,2543.8834,N,08009.7267,W,1,9,2.3,12,M,,M,,*5D
06/17/2015	21:00:16.586	$GPGGA,210017,2543.8832,N,08009.7267,W,1,9,2.3,12,M,,M,,*5A
06/17/2015	21:00:17.596	$GPGGA,210018,2543.8833,N,08009.7267,W,1,9,2.3,12,M,,M,,*54
06/17/2015	21:00:18.586	$GPGGA,210019,2543.8832,N,08009.7269,W,1,9,2.3,12,M,,M,,*5A
06/17/2015	21:00:19.657	$GPGGA,210020,2543.8833,N,08009.7268,W,1,9,2.3,11,M,,M,,*53
06/17/2015	21:00:20.567	$GPGGA,210021,2543.8832,N,08009.7269,W,1,9,2.3,11,M,,M,,*52
06/17/2015	21:00:21.596	$GPGGA,210022,2543.8833,N,08009.7269,W,1,9,2.3,11,M,,M,,*50
06/17/2015	21:00:22.906	$GPGGA,210023,2543.8832,N,08009.7269,W,1,9,2.3,11,M,,M,,*50
06/17/2015	21:00:23.576	$GPGGA,210024,2543.8831,N,08009.7269,W,1,9,2.3,11,M,,M,,*54
06/17/2015	21:00:24.556	$GPGGA,210025,2543.8831,N,08009.7270,W,1,9,2.3,11,M,,M,,*5D
06/17/2015	21:00:25.576	$GPGGA,210026,2543.8831,N,08009.7270,W,1,9,2.3,11,M,,M,,*5E
06/17/2015	21:00:26.556	$GPGGA,210027,2543.8831,N,08009.7270,W,1,9,2.3,11,M,,M,,*5F
06/17/2015	21:00:27.586	$GPGGA,210028,2543.8831,N,08009.7272,W,1,9,2.3,11,M,,M,,*52
06/17/2015	21:00:28.546	$GPGGA,210029,2543.8831,N,08009.7271,W,1,9,2.3,11,M,,M,,*50
06/17/2015	21:00:29.576	$GPGGA,210030,2543.8831,N,08009.7272,W,1,9,2.3,11,M,,M,,*5B
06/17/2015	21:00:30.556	$GPGGA,210031,2543.8831,N,08009.7271,W,1,9,2.3,11,M,,M,,*59
06/17/2015	21:00:31.576	$GPGGA,210032,2543.8831,N,08009.7272,W,1,9,2.3,11,M,,M,,*59
06/17/2015	21:00:32.566	$GPGGA,210033,2543.8831,N,08009.7272,W,1,9,2.3,11,M,,M,,*58
06/17/2015	21:00:33.556	$GPGGA,210034,2543.8831,N,08009.7272,W,1,9,2.3,11,M,,M,,*5F
06/17/2015	21:00:34.536	$GPGGA,210035,2543.8833,N,08009.7272,W,1,9,2.3,11,M,,M,,*5C
06/17/2015	21:00:35.576	$GPGGA,210036,2543.8832,N,08009.7272,W,1,9,2.3,11,M,,M,,*5E
06/17/2015	21:00:36.547	$GPGGA,210037,2543.8833,N,08009.7272,W,1,9,2.3,11,M,,M,,*5E
06/17/2015	21:00:37.577	$GPGGA,210038,2543.8832,N,08009.7272,W,1,9,2.3,10,M,,M,,*51
06/17/2015	21:00:38.526	$GPGGA,210039,2543.8831,N,08009.7269,W,1,9,2.3,10,M,,M,,*59
06/17/2015	21:00:39.536	$GPGGA,210040,2543.8831,N,08009.7265,W,1,10,1.6,10,M,,M,,*65
06/17/2015	21:00:40.527	$GPGGA,210041,2543.8830,N,08009.7263,W,1,10,1.6,11,M,,M,,*62
06/17/2015	21:00:41.526	$GPGGA,210042,2543.8831,N,08009.7261,W,1,10,1.6,11,M,,M,,*62
06/17/2015	21:00:42.866	$GPGGA,210043,2543.8830,N,08009.7260,W,1,10,1.6,11,M,,M,,*63
06/17/2015	21:00:43.566	$GPGGA,210044,2543.8831,N,08009.7261,W,1,10,1.6,11,M,,M,,*64
06/17/2015	21:00:44.516	$GPGGA,210045,2543.8830,N,08009.7260,W,1,10,1.6,11,M,,M,,*65
06/17/2015	21:00:45.636	$GPGGA,210046,2543.8829,N,08009.7259,W,1,10,1.6,11,M,,M,,*64
06/17/2015	21:00:46.506	$GPGGA,210047,2543.8830,N,08009.7259,W,1,10,1.6,12,M,,M,,*6E
06/17/2015	21:00:47.527	$GPGGA,210048,2543.8829,N,08009.7259,W,1,10,1.6,12,M,,M,,*69
06/17/2015	21:00:48.506	$GPGGA,210049,2543.8831,N,08009.7259,W,1,10,1.6,12,M,,M,,*61
06/17/2015	21:00:49.526	$GPGGA,210050,2543.8830,N,08009.7259,W,1,10,1.6,12,M,,M,,*68
06/17/2015	21:00:50.616	$GPGGA,210051,2543.8831,N,08009.7258,W,1,10,1.6,12,M,,M,,*69
06/17/2015	21:00:51.616	$GPGGA,210052,2543.8830,N,08009.7258,W,1,10,1.6,12,M,,M,,*6B
06/17/2015	21:00:52.506	$GPGGA,210053,2543.8831,N,08009.7257,W,1,10,1.6,13,M,,M,,*65
06/17/2015	21:00:53.506	$GPGGA,210054,2543.8830,N,08009.7258,W,1,10,1.6,13,M,,M,,*6C
06/17/2015	21:00:54.507	$GPGGA,210055,2543.8831,N,08009.7257,W,1,10,1.6,13,M,,M,,*63
06/17/2015	21:00:55.507	$GPGGA,210056,2543.8830,N,08009.7258,W,1,10,1.6,13,M,,M,,*6E
06/17/2015	21:00:56.586	$GPGGA,210057,2543.8831,N,08009.7257,W,1,10,1.6,13,M,,M,,*61
06/17/2015	21:00:57.486	$GPGGA,210058,2543.8831,N,08009.7258,W,1,10,1.6,14,M,,M,,*66
06/17/2015	21:00:58.587	$GPGGA,210059,2543.8831,N,08009.7257,W,1,10,1.6,14,M,,M,,*68
06/17/2015	21:00:59.676	$GPGGA,210100,2543.8831,N,08009.7258,W,1,10,1.6,14,M,,M,,*6A
06/17/2015	21:01:00.576	$GPGGA,210101,2543.8833,N,08009.7257,W,1,10,1.6,14,M,,M,,*66
06/17/2015	21:01:01.596	$GPGGA,210102,2543.8832,N,08009.7258,W,1,10,1.6,14,M,,M,,*6B
06/17/2015	21:01:02.576	$GPGGA,210103,2543.8833,N,08009.7257,W,1,10,1.6,14,M,,M,,*64
06/17/2015	21:01:03.636	$GPGGA,210104,2543.8832,N,08009.7258,W,1,10,1.6,15,M,,M,,*6C
06/17/2015	21:01:04.576	$GPGGA,210105,2543.8833,N,08009.7257,W,1,10,1.6,15,M,,M,,*63
06/17/2015	21:01:05.566	$GPGGA,210106,2543.8832,N,08009.7258,W,1,10,1.6,15,M,,M,,*6E
06/17/2015	21:01:06.576	$GPGGA,210107,2543.8833,N,08009.7257,W,1,10,1.6,15,M,,M,,*61
06/17/2015	21:01:07.586	$GPGGA,210108,2543.8832,N,08009.7258,W,1,10,1.6,15,M,,M,,*60
06/17/2015	21:01:08.576	$GPGGA,210109,2543.8835,N,08009.7256,W,1,10,1.6,15,M,,M,,*68
06/17/2015	21:01:09.586	$GPGGA,210110,2543.8835,N,08009.7256,W,1,10,1.6,15,M,,M,,*60
06/17/2015	21:01:10.556	$GPGGA,210111,2543.8835,N,08009.7256,W,1,10,1.6,16,M,,M,,*62
06/17/2015	21:01:11.587	$GPGGA,210112,2543.8837,N,08009.7255,W,1,10,1.6,16,M,,M,,*60
06/17/2015	21:01:12.557	$GPGGA,210113,2543.8836,N,08009.7255,W,1,10,1.6,16,M,,M,,*60
06/17/2015	21:01:13.577	$GPGGA,210114,2543.8837,N,08009.7256,W,1,10,1.6,16,M,,M,,*65
06/17/2015	21:01:14.546	$GPGGA,210115,2543.8836,N,08009.7256,W,1,10,1.6,16,M,,M,,*65
06/17/2015	21:01:15.597	$GPGGA,210116,2543.8837,N,08009.7256,W,1,10,1.6,16,M,,M,,*67
06/17/2015	21:01:16.556	$GPGGA,210117,2543.8836,N,08009.7255,W,1,10,1.6,16,M,,M,,*64
06/17/2015	21:01:17.566	$GPGGA,210118,2543.8837,N,08009.7256,W,1,10,1.6,16,M,,M,,*69
06/17/2015	21:01:18.541	$GPGGA,210119,2543.8835,N,08009.7256,W,1,10,1.6,16,M,,M,,*6A
06/17/2015	21:01:19.576	$GPGGA,210120,2543.8835,N,08009.7256,W,1,10,1.6,16,M,,M,,*60
06/17/2015	21:01:20.536	$GPGGA,210121,2543.8837,N,08009.7255,W,1,10,1.6,16,M,,M,,*60
06/17/2015	21:01:21.566	$GPGGA,210122,2543.8835,N,08009.7255,W,1,10,1.6,16,M,,M,,*61
06/17/2015	21:01:22.536	$GPGGA,210123,2543.8835,N,08009.7255,W,1,10,1.6,16,M,,M,,*60
06/17/2015	21:01:23.576	$GPGGA,210124,2543.8837,N,08009.7255,W,1,9,1.6,17,M,,M,,*5C
06/17/2015	21:01:24.536	$GPGGA,210125,2543.8836,N,08009.7255,W,1,9,1.6,17,M,,M,,*5C
06/17/2015	21:01:25.526	$GPGGA,210126,2543.8838,N,08009.7255,W,1,10,1.6,17,M,,M,,*69
06/17/2015	21:01:26.536	$GPGGA,210127,2543.8837,N,08009.7255,W,1,10,1.6,17,M,,M,,*67
06/17/2015	21:01:27.556	$GPGGA,210128,2543.8836,N,08009.7255,W,1,10,1.6,17,M,,M,,*69
06/17/2015	21:01:28.536	$GPGGA,210129,2543.8835,N,08009.7255,W,1,10,1.6,17,M,,M,,*6B
06/17/2015	21:01:29.517	$GPGGA,210130,2543.8835,N,08009.7256,W,1,10,1.6,17,M,,M,,*60
06/17/2015	21:01:30.607	$GPGGA,210131,2543.8835,N,08009.7255,W,1,10,1.6,17,M,,M,,*62
06/17/2015	21:01:31.516	$GPGGA,210132,2543.8835,N,08009.7256,W,1,10,1.6,17,M,,M,,*62
06/17/2015	21:01:32.516	$GPGGA,210133,2543.8835,N,08009.7256,W,1,10,1.6,17,M,,M,,*63
06/17/2015	21:01:33.606	$GPGGA,210134,2543.8835,N,08009.7256,W,1,10,1.6,17,M,,M,,*64
06/17/2015	21:01:34.496	$GPGGA,210135,2543.8833,N,08009.7256,W,1,10,1.6,17,M,,M,,*63
06/17/2015	21:01:35.627	$GPGGA,210136,2543.8834,N,08009.7256,W,1,10,1.6,17,M,,M,,*67
06/17/2015	21:01:36.506	$GPGGA,210137,2543.8832,N,08009.7258,W,1,10,1.6,17,M,,M,,*6E
06/17/2015	21:01:37.606	$GPGGA,210138,2543.8833,N,08009.7258,W,1,10,1.6,16,M,,M,,*61
06/17/2015	21:01:38.506	$GPGGA,210139,2543.8831,N,08009.7258,W,1,10,1.6,16,M,,M,,*62
06/17/2015	21:01:39.646	$GPGGA,210140,2543.8831,N,08009.7259,W,1,10,1.6,16,M,,M,,*6D
06/17/2015	21:01:40.506	$GPGGA,210141,2543.8831,N,08009.7259,W,1,10,1.6,16,M,,M,,*6C
06/17/2015	21:01:41.606	$GPGGA,210142,2543.8831,N,08009.7261,W,1,10,1.6,16,M,,M,,*64
06/17/2015	21:01:42.586	$GPGGA,210143,2543.8830,N,08009.7260,W,1,10,1.6,16,M,,M,,*65
06/17/2015	21:01:43.506	$GPGGA,210144,2543.8831,N,08009.7261,W,1,10,1.6,16,M,,M,,*62
06/17/2015	21:01:44.586	$GPGGA,210145,2543.8830,N,08009.7262,W,1,10,1.6,16,M,,M,,*61
06/17/2015	21:01:45.586	$GPGGA,210146,2543.8831,N,08009.7261,W,1,10,1.6,16,M,,M,,*60
06/17/2015	21:01:46.587	$GPGGA,210147,2543.8829,N,08009.7262,W,1,10,1.6,16,M,,M,,*6B
06/17/2015	21:01:47.607	$GPGGA,210148,2543.8830,N,08009.7261,W,1,10,1.6,16,M,,M,,*6F
06/17/2015	21:01:48.576	$GPGGA,210149,2543.8828,N,08009.7262,W,1,10,1.6,16,M,,M,,*64
06/17/2015	21:01:49.596	$GPGGA,210150,2543.8828,N,08009.7261,W,1,10,1.6,15,M,,M,,*6C
06/17/2015	21:01:50.576	$GPGGA,210151,2543.8828,N,08009.7262,W,1,10,1.6,15,M,,M,,*6E
06/17/2015	21:01:51.606	$GPGGA,210152,2543.8828,N,08009.7262,W,1,10,1.6,15,M,,M,,*6D
06/17/2015	21:01:52.566	$GPGGA,210153,2543.8828,N,08009.7262,W,1,10,1.6,15,M,,M,,*6C
06/17/2015	21:01:53.576	$GPGGA,210154,2543.8828,N,08009.7262,W,1,10,1.6,15,M,,M,,*6B
06/17/2015	21:01:54.566	$GPGGA,210155,2543.8828,N,08009.7262,W,1,10,1.6,15,M,,M,,*6A
06/17/2015	21:01:55.616	$GPGGA,210156,2543.8828,N,08009.7262,W,1,10,1.6,15,M,,M,,*69
06/17/2015	21:01:56.556	$GPGGA,210157,2543.8828,N,08009.7262,W,1,10,1.6,15,M,,M,,*68
06/17/2015	21:01:57.566	$GPGGA,210158,2543.8828,N,08009.7261,W,1,10,1.6,15,M,,M,,*64
06/17/2015	21:01:58.546	$GPGGA,210159,2543.8828,N,08009.7262,W,1,10,1.6,15,M,,M,,*66
06/17/2015	21:01:59.635	$GPGGA,210200,2543.8828,N,08009.7262,W,1,10,1.6,14,M,,M,,*68
06/17/2015	21:02:00.546	$GPGGA,210201,2543.8828,N,08009.7262,W,1,10,1.6,14,M,,M,,*69
06/17/2015	21:02:01.576	$GPGGA,210202,2543.8828,N,08009.7262,W,1,10,1.6,14,M,,M,,*6A
06/17/2015	21:02:02.546	$GPGGA,210203,2543.8828,N,08009.7262,W,1,10,1.6,14,M,,M,,*6B
06/17/2015	21:02:03.546	$GPGGA,210204,2543.8828,N,08009.7262,W,1,10,1.6,14,M,,M,,*6C
06/17/2015	21:02:04.535	$GPGGA,210205,2543.8828,N,08009.7262,W,1,10,1.6,14,M,,M,,*6D
06/17/2015	21:02:05.545	$GPGGA,210206,2543.8828,N,08009.7262,W,1,10,1.6,14,M,,M,,*6E
06/17/2015	21:02:07.574	$GPGGA,210207,2543.8828,N,08009.7262,W,1,10,1.6,14,M,,M,,*6F
06/17/2015	21:02:07.605	$GPGGA,210208,2543.8828,N,08009.7262,W,1,10,1.6,14,M,,M,,*60
06/17/2015	21:02:08.534	$GPGGA,210209,2543.8828,N,08009.7262,W,1,10,1.6,14,M,,M,,*61
06/17/2015	21:02:09.534	$GPGGA,210210,2543.8828,N,08009.7261,W,1,10,1.6,14,M,,M,,*6A
06/17/2015	21:02:10.524	$GPGGA,210211,2543.8828,N,08009.7262,W,1,10,1.6,13,M,,M,,*6F
06/17/2015	21:02:11.574	$GPGGA,210212,2543.8828,N,08009.7261,W,1,10,1.6,13,M,,M,,*6F
06/17/2015	21:02:12.524	$GPGGA,210213,2543.8828,N,08009.7262,W,1,10,1.6,13,M,,M,,*6D
06/17/2015	21:02:13.617	$GPGGA,210214,2543.8828,N,08009.7261,W,1,10,1.6,13,M,,M,,*69
06/17/2015	21:02:14.504	$GPGGA,210215,2543.8828,N,08009.7262,W,1,10,1.6,13,M,,M,,*6B
06/17/2015	21:02:15.544	$GPGGA,210216,2543.8828,N,08009.7261,W,1,10,1.6,13,M,,M,,*6B
06/17/2015	21:02:16.494	$GPGGA,210217,2543.8828,N,08009.7260,W,1,10,1.6,13,M,,M,,*6B
06/17/2015	21:02:17.616	$GPGGA,210218,2543.8828,N,08009.7261,W,1,10,1.6,13,M,,M,,*65
06/17/2015	21:02:18.505	$GPGGA,210219,2543.8828,N,08009.7260,W,1,10,1.6,13,M,,M,,*65
06/17/2015	21:02:19.534	$GPGGA,210220,2543.8828,N,08009.7261,W,1,10,1.6,13,M,,M,,*6E
06/17/2015	21:02:20.584	$GPGGA,210221,2543.8828,N,08009.7260,W,1,10,1.5,13,M,,M,,*6D
06/17/2015	21:02:21.494	$GPGGA,210222,2543.8828,N,08009.7262,W,1,11,1.5,13,M,,M,,*6D
06/17/2015	21:02:22.585	$GPGGA,210223,2543.8826,N,08009.7265,W,1,11,1.5,13,M,,M,,*65
06/17/2015	21:02:23.594	$GPGGA,210224,2543.8827,N,08009.7265,W,1,11,1.5,13,M,,M,,*63
06/17/2015	21:02:24.494	$GPGGA,210225,2543.8826,N,08009.7266,W,1,11,1.5,13,M,,M,,*60
06/17/2015	21:02:25.575	$GPGGA,210226,2543.8827,N,08009.7267,W,1,11,1.5,13,M,,M,,*63
06/17/2015	21:02:26.574	$GPGGA,210227,2543.8826,N,08009.7269,W,1,11,1.5,13,M,,M,,*6D
06/17/2015	21:02:27.594	$GPGGA,210228,2543.8827,N,08009.7268,W,1,11,1.5,13,M,,M,,*62
06/17/2015	21:02:28.564	$GPGGA,210229,2543.8826,N,08009.7269,W,1,11,1.5,13,M,,M,,*63
06/17/2015	21:02:29.604	$GPGGA,210230,2543.8827,N,08009.7268,W,1,11,1.5,13,M,,M,,*6B
06/17/2015	21:02:30.564	$GPGGA,210231,2543.8826,N,08009.7269,W,1,11,1.5,13,M,,M,,*6A
06/17/2015	21:02:31.604	$GPGGA,210232,2543.8827,N,08009.7268,W,1,11,1.5,13,M,,M,,*69
06/17/2015	21:02:32.554	$GPGGA,210233,2543.8826,N,08009.7269,W,1,11,1.5,13,M,,M,,*68
06/17/2015	21:02:33.574	$GPGGA,210234,2543.8825,N,08009.7268,W,1,11,1.5,13,M,,M,,*6D
06/17/2015	21:02:34.554	$GPGGA,210235,2543.8826,N,08009.7267,W,1,11,1.5,14,M,,M,,*67
06/17/2015	21:02:35.594	$GPGGA,210236,2543.8827,N,08009.7267,W,1,11,1.5,14,M,,M,,*65
06/17/2015	21:02:36.554	$GPGGA,210237,2543.8826,N,08009.7267,W,1,11,1.5,14,M,,M,,*65
06/17/2015	21:02:37.544	$GPGGA,210238,2543.8827,N,08009.7267,W,1,11,1.5,14,M,,M,,*6B
06/17/2015	21:02:38.544	$GPGGA,210239,2543.8826,N,08009.7267,W,1,11,1.5,14,M,,M,,*6B
06/17/2015	21:02:39.575	$GPGGA,210240,2543.8827,N,08009.7267,W,1,11,1.5,14,M,,M,,*64
06/17/2015	21:02:40.535	$GPGGA,210241,2543.8826,N,08009.7267,W,1,11,1.5,13,M,,M,,*63
06/17/2015	21:02:41.564	$GPGGA,210242,2543.8827,N,08009.7267,W,1,11,1.5,13,M,,M,,*61
06/17/2015	21:02:42.544	$GPGGA,210243,2543.8826,N,08009.7267,W,1,11,1.5,13,M,,M,,*61
06/17/2015	21:02:43.564	$GPGGA,210244,2543.8827,N,08009.7269,W,1,11,1.5,13,M,,M,,*69
06/17/2015	21:02:44.534	$GPGGA,210245,2543.8826,N,08009.7268,W,1,11,1.5,13,M,,M,,*68
06/17/2015	21:02:45.534	$GPGGA,210246,2543.8827,N,08009.7269,W,1,11,1.5,13,M,,M,,*6B
06/17/2015	21:02:46.534	$GPGGA,210247,2543.8826,N,08009.7269,W,1,11,1.5,13,M,,M,,*6B
06/17/2015	21:02:47.564	$GPGGA,210248,2543.8827,N,08009.7269,W,1,11,1.5,13,M,,M,,*65
06/17/2015	21:02:48.534	$GPGGA,210249,2543.8826,N,08009.7269,W,1,11,1.5,13,M,,M,,*65
06/17/2015	21:02:49.514	$GPGGA,210250,2543.8825,N,08009.7269,W,1,11,1.5,13,M,,M,,*6E
06/17/2015	21:02:50.514	$GPGGA,210251,2543.8826,N,08009.7269,W,1,11,1.5,13,M,,M,,*6C
06/17/2015	21:02:51.554	$GPGGA,210252,2543.8825,N,08009.7269,W,1,11,1.5,13,M,,M,,*6C
06/17/2015	21:02:52.524	$GPGGA,210253,2543.8826,N,08009.7269,W,1,11,1.5,13,M,,M,,*6E
06/17/2015	21:02:53.544	$GPGGA,210254,2543.8825,N,08009.7269,W,1,11,1.5,13,M,,M,,*6A
06/17/2015	21:02:54.524	$GPGGA,210255,2543.8826,N,08009.7269,W,1,11,1.5,13,M,,M,,*68
06/17/2015	21:02:55.534	$GPGGA,210256,2543.8825,N,08009.7269,W,1,11,1.5,13,M,,M,,*68
06/17/2015	21:02:56.504	$GPGGA,210257,2543.8826,N,08009.7269,W,1,11,1.5,13,M,,M,,*6A
06/17/2015	21:02:57.595	$GPGGA,210258,2543.8827,N,08009.7269,W,1,11,1.5,13,M,,M,,*64
06/17/2015	21:02:58.494	$GPGGA,210259,2543.8826,N,08009.7270,W,1,11,1.5,13,M,,M,,*6C
06/17/2015	21:02:59.534	$GPGGA,210300,2543.8827,N,08009.7269,W,1,11,1.5,13,M,,M,,*68
06/17/2015	21:03:00.494	$GPGGA,210301,2543.8826,N,08009.7269,W,1,11,1.5,12,M,,M,,*69
06/17/2015	21:03:01.615	$GPGGA,210302,2543.8827,N,08009.7269,W,1,11,1.5,12,M,,M,,*6B
06/17/2015	21:03:02.504	$GPGGA,210303,2543.8826,N,08009.7269,W,1,11,1.5,12,M,,M,,*6B
06/17/2015	21:03:03.625	$GPGGA,210304,2543.8827,N,08009.7269,W,1,11,1.5,12,M,,M,,*6D
06/17/2015	21:03:04.594	$GPGGA,210305,2543.8828,N,08009.7269,W,1,11,1.5,12,M,,M,,*63
06/17/2015	21:03:05.594	$GPGGA,210306,2543.8828,N,08009.7269,W,1,11,1.5,12,M,,M,,*60
06/17/2015	21:03:06.484	$GPGGA,210307,2543.8828,N,08009.7269,W,1,11,1.5,12,M,,M,,*61
06/17/2015	21:03:07.627	$GPGGA,210308,2543.8828,N,08009.7269,W,1,11,1.5,12,M,,M,,*6E
06/17/2015	21:03:08.574	$GPGGA,210309,2543.8828,N,08009.7269,W,1,11,1.5,12,M,,M,,*6F
06/17/2015	21:03:09.574	$GPGGA,210310,2543.8828,N,08009.7269,W,1,11,1.5,12,M,,M,,*67
06/17/2015	21:03:10.564	$GPGGA,210311,2543.8828,N,08009.7269,W,1,11,1.5,12,M,,M,,*66
06/17/2015	21:03:11.604	$GPGGA,210312,2543.8830,N,08009.7270,W,1,11,1.5,12,M,,M,,*64
06/17/2015	21:03:12.574	$GPGGA,210313,2543.8829,N,08009.7270,W,1,11,1.5,12,M,,M,,*6D
06/17/2015	21:03:13.594	$GPGGA,210314,2543.8831,N,08009.7270,W,1,11,1.5,12,M,,M,,*63
06/17/2015	21:03:14.555	$GPGGA,210315,2543.8830,N,08009.7270,W,1,11,1.5,12,M,,M,,*63
06/17/2015	21:03:15.595	$GPGGA,210316,2543.8831,N,08009.7272,W,1,11,1.5,11,M,,M,,*60
06/17/2015	21:03:16.564	$GPGGA,210317,2543.8831,N,08009.7271,W,1,11,1.5,11,M,,M,,*62
06/17/2015	21:03:17.554	$GPGGA,210318,2543.8831,N,08009.7272,W,1,11,1.5,11,M,,M,,*6E
06/17/2015	21:03:18.564	$GPGGA,210319,2543.8831,N,08009.7271,W,1,11,1.5,11,M,,M,,*6C
06/17/2015	21:03:19.554	$GPGGA,210320,2543.8833,N,08009.7272,W,1,11,1.5,11,M,,M,,*67
06/17/2015	21:03:20.574	$GPGGA,210321,2543.8832,N,08009.7271,W,1,11,1.5,11,M,,M,,*64
06/17/2015	21:03:21.564	$GPGGA,210322,2543.8834,N,08009.7272,W,1,11,1.5,11,M,,M,,*62
06/17/2015	21:03:22.544	$GPGGA,210323,2543.8833,N,08009.7271,W,1,11,1.5,11,M,,M,,*67
06/17/2015	21:03:23.574	$GPGGA,210324,2543.8834,N,08009.7272,W,1,11,1.5,11,M,,M,,*64
06/17/2015	21:03:24.534	$GPGGA,210325,2543.8833,N,08009.7271,W,1,11,1.5,11,M,,M,,*61
06/17/2015	21:03:25.534	$GPGGA,210326,2543.8834,N,08009.7272,W,1,11,1.5,11,M,,M,,*66
06/17/2015	21:03:26.534	$GPGGA,210327,2543.8833,N,08009.7270,W,1,11,1.5,11,M,,M,,*62
06/17/2015	21:03:27.574	$GPGGA,210328,2543.8834,N,08009.7270,W,1,11,1.5,11,M,,M,,*6A
06/17/2015	21:03:28.534	$GPGGA,210329,2543.8833,N,08009.7270,W,1,11,1.5,11,M,,M,,*6C
06/17/2015	21:03:29.544	$GPGGA,210330,2543.8834,N,08009.7270,W,1,11,1.5,11,M,,M,,*63
06/17/2015	21:03:30.534	$GPGGA,210331,2543.8832,N,08009.7270,W,1,11,1.5,11,M,,M,,*64
06/17/2015	21:03:31.575	$GPGGA,210332,2543.8833,N,08009.7270,W,1,11,1.5,11,M,,M,,*66
06/17/2015	21:03:32.545	$GPGGA,210333,2543.8832,N,08009.7270,W,1,11,1.5,11,M,,M,,*66
06/17/2015	21:03:33.544	$GPGGA,210334,2543.8833,N,08009.7272,W,1,11,1.5,11,M,,M,,*62
06/17/2015	21:03:34.514	$GPGGA,210335,2543.8832,N,08009.7271,W,1,11,1.5,11,M,,M,,*61
06/17/2015	21:03:35.554	$GPGGA,210336,2543.8831,N,08009.7272,W,1,11,1.5,11,M,,M,,*62
06/17/2015	21:03:36.534	$GPGGA,210337,2543.8831,N,08009.7271,W,1,11,1.5,11,M,,M,,*60
06/17/2015	21:03:37.544	$GPGGA,210338,2543.8833,N,08009.7272,W,1,11,1.5,11,M,,M,,*6E
06/17/2015	21:03:38.514	$GPGGA,210339,2543.8832,N,08009.7271,W,1,11,1.5,11,M,,M,,*6D
06/17/2015	21:03:39.534	$GPGGA,210340,2543.8831,N,08009.7272,W,1,11,1.5,11,M,,M,,*63
06/17/2015	21:03:40.504	$GPGGA,210341,2543.8831,N,08009.7271,W,1,11,1.5,11,M,,M,,*61
06/17/2015	21:03:41.524	$GPGGA,210342,2543.8831,N,08009.7272,W,1,11,1.5,11,M,,M,,*61
06/17/2015	21:03:42.514	$GPGGA,210343,2543.8831,N,08009.7271,W,1,11,1.5,11,M,,M,,*63
06/17/2015	21:03:43.614	$GPGGA,210344,2543.8831,N,08009.7272,W,1,11,1.5,11,M,,M,,*67
06/17/2015	21:03:44.514	$GPGGA,210345,2543.8831,N,08009.7271,W,1,11,1.5,11,M,,M,,*65
06/17/2015	21:03:45.494	$GPGGA,210346,2543.8831,N,08009.7272,W,1,11,1.5,11,M,,M,,*65
06/17/2015	21:03:46.584	$GPGGA,210347,2543.8831,N,08009.7271,W,1,11,1.5,11,M,,M,,*67
06/17/2015	21:03:47.604	$GPGGA,210348,2543.8831,N,08009.7272,W,1,11,1.5,11,M,,M,,*6B
06/17/2015	21:03:48.594	$GPGGA,210349,2543.8831,N,08009.7271,W,1,11,1.5,11,M,,M,,*69
06/17/2015	21:03:49.625	$GPGGA,210350,2543.8831,N,08009.7272,W,1,11,1.5,11,M,,M,,*62
06/17/2015	21:03:50.585	$GPGGA,210351,2543.8830,N,08009.7271,W,1,11,1.5,11,M,,M,,*61
06/17/2015	21:03:51.626	$GPGGA,210352,2543.8831,N,08009.7272,W,1,11,1.5,11,M,,M,,*60
06/17/2015	21:03:52.584	$GPGGA,210353,2543.8830,N,08009.7271,W,1,11,1.5,11,M,,M,,*63
06/17/2015	21:03:53.584	$GPGGA,210354,2543.8831,N,08009.7270,W,1,11,1.5,11,M,,M,,*64
06/17/2015	21:03:54.574	$GPGGA,210355,2543.8830,N,08009.7270,W,1,11,1.5,11,M,,M,,*64
06/17/2015	21:03:55.634	$GPGGA,210356,2543.8831,N,08009.7270,W,1,11,1.5,11,M,,M,,*66
06/17/2015	21:03:56.564	$GPGGA,210357,2543.8830,N,08009.7270,W,1,11,1.5,11,M,,M,,*66
06/17/2015	21:03:57.944	$GPGGA,210358,2543.8829,N,08009.7270,W,1,11,1.5,10,M,,M,,*60
06/17/2015	21:03:58.554	$GPGGA,210359,2543.8830,N,08009.7270,W,1,11,1.5,10,M,,M,,*69
06/17/2015	21:03:59.624	$GPGGA,210400,2543.8829,N,08009.7269,W,1,11,1.5,10,M,,M,,*62
06/17/2015	21:04:00.564	$GPGGA,210401,2543.8828,N,08009.7269,W,1,11,1.5,10,M,,M,,*62
06/17/2015	21:04:01.564	$GPGGA,210402,2543.8828,N,08009.7269,W,1,11,1.5,10,M,,M,,*61
06/17/2015	21:04:02.554	$GPGGA,210403,2543.8828,N,08009.7269,W,1,11,1.5,10,M,,M,,*60
06/17/2015	21:04:03.574	$GPGGA,210404,2543.8828,N,08009.7269,W,1,11,1.5,10,M,,M,,*67
06/17/2015	21:04:04.544	$GPGGA,210405,2543.8828,N,08009.7269,W,1,11,1.5,10,M,,M,,*66
06/17/2015	21:04:05.544	$GPGGA,210406,2543.8828,N,08009.7269,W,1,11,1.5,10,M,,M,,*65
06/17/2015	21:04:06.555	$GPGGA,210407,2543.8828,N,08009.7269,W,1,11,1.5,10,M,,M,,*64
06/17/2015	21:04:07.575	$GPGGA,210408,2543.8828,N,08009.7269,W,1,11,1.5,10,M,,M,,*6B
06/17/2015	21:04:08.554	$GPGGA,210409,2543.8828,N,08009.7269,W,1,11,1.5,10,M,,M,,*6A
06/17/2015	21:04:09.534	$GPGGA,210410,2543.8828,N,08009.7269,W,1,11,1.5,10,M,,M,,*62
06/17/2015	21:04:10.544	$GPGGA,210411,2543.8828,N,08009.7269,W,1,11,1.5,10,M,,M,,*63
06/17/2015	21:04:11.564	$GPGGA,210412,2543.8828,N,08009.7269,W,1,11,1.5,10,M,,M,,*60
06/17/2015	21:04:12.534	$GPGGA,210413,2543.8828,N,08009.7268,W,1,11,1.5,10,M,,M,,*60
06/17/2015	21:04:13.534	$GPGGA,210414,2543.8828,N,08009.7269,W,1,11,1.5,10,M,,M,,*66
06/17/2015	21:04:14.534	$GPGGA,210415,2543.8828,N,08009.7268,W,1,11,1.5,10,M,,M,,*66
06/17/2015	21:04:15.534	$GPGGA,210416,2543.8828,N,08009.7269,W,1,11,1.5,10,M,,M,,*64
06/17/2015	21:04:16.534	$GPGGA,210417,2543.8828,N,08009.7268,W,1,11,1.5,9,M,,M,,*5C
06/17/2015	21:04:17.514	$GPGGA,210418,2543.8828,N,08009.7269,W,1,11,1.5,9,M,,M,,*52
06/17/2015	21:04:18.945	$GPGGA,210419,2543.8828,N,08009.7268,W,1,11,1.5,9,M,,M,,*52
06/17/2015	21:04:19.524	$GPGGA,210420,2543.8828,N,08009.7269,W,1,11,1.5,9,M,,M,,*59
06/17/2015	21:04:20.504	$GPGGA,210421,2543.8830,N,08009.7268,W,1,11,1.5,9,M,,M,,*50
06/17/2015	21:04:21.534	$GPGGA,210422,2543.8829,N,08009.7269,W,1,11,1.5,9,M,,M,,*5A
06/17/2015	21:04:22.525	$GPGGA,210423,2543.8830,N,08009.7268,W,1,11,1.5,9,M,,M,,*52
06/17/2015	21:04:23.534	$GPGGA,210424,2543.8831,N,08009.7269,W,1,11,1.5,9,M,,M,,*55
06/17/2015	21:04:24.495	$GPGGA,210425,2543.8830,N,08009.7268,W,1,11,1.5,9,M,,M,,*54
06/17/2015	21:04:25.516	$GPGGA,210426,2543.8831,N,08009.7269,W,1,10,2.1,9,M,,M,,*51
06/17/2015	21:04:26.594	$GPGGA,210427,2543.8831,N,08009.7269,W,1,10,2.1,9,M,,M,,*50
06/17/2015	21:04:27.524	$GPGGA,210428,2543.8830,N,08009.7265,W,1,10,2.1,9,M,,M,,*52
06/17/2015	21:04:28.504	$GPGGA,210429,2543.8831,N,08009.7262,W,1,10,1.5,9,M,,M,,*52
06/17/2015	21:04:29.484	$GPGGA,210430,2543.8829,N,08009.7259,W,1,11,1.5,9,M,,M,,*5A
06/17/2015	21:04:30.584	$GPGGA,210431,2543.8828,N,08009.7256,W,1,11,1.5,9,M,,M,,*55
06/17/2015	21:04:31.684	$GPGGA,210432,2543.8828,N,08009.7258,W,1,11,2.1,9,M,,M,,*5F
06/17/2015	21:04:32.504	$GPGGA,210433,2543.8830,N,08009.7258,W,1,11,2.1,9,M,,M,,*57
06/17/2015	21:04:33.684	$GPGGA,210434,2543.8829,N,08009.7261,W,1,10,2.1,9,M,,M,,*53
06/17/2015	21:04:34.574	$GPGGA,210435,2543.8830,N,08009.7260,W,1,10,2.1,9,M,,M,,*5B
06/17/2015	21:04:35.494	$GPGGA,210436,2543.8829,N,08009.7262,W,1,10,2.1,10,M,,M,,*6A
06/17/2015	21:04:36.484	$GPGGA,210437,2543.8831,N,08009.7262,W,1,10,2.1,10,M,,M,,*62
06/17/2015	21:04:37.474	$GPGGA,210438,2543.8830,N,08009.7265,W,1,10,2.1,10,M,,M,,*6B
06/17/2015	21:04:38.574	$GPGGA,210439,2543.8831,N,08009.7265,W,1,10,2.1,10,M,,M,,*6B
06/17/2015	21:04:39.684	$GPGGA,210440,2543.8831,N,08009.7265,W,1,10,2.1,9,M,,M,,*5D
06/17/2015	21:04:40.554	$GPGGA,210441,2543.8831,N,08009.7266,W,1,10,2.1,9,M,,M,,*5F
06/17/2015	21:04:41.665	$GPGGA,210442,2543.8833,N,08009.7267,W,1,10,2.1,9,M,,M,,*5F
06/17/2015	21:04:42.595	$GPGGA,210443,2543.8832,N,08009.7267,W,1,10,2.1,9,M,,M,,*5F
06/17/2015	21:04:43.674	$GPGGA,210444,2543.8833,N,08009.7267,W,1,10,2.1,9,M,,M,,*59
06/17/2015	21:04:44.584	$GPGGA,210445,2543.8832,N,08009.7269,W,1,10,2.1,9,M,,M,,*57
06/17/2015	21:04:45.634	$GPGGA,210446,2543.8834,N,08009.7269,W,1,10,2.1,9,M,,M,,*52
06/17/2015	21:04:46.574	$GPGGA,210447,2543.8833,N,08009.7269,W,1,10,2.1,9,M,,M,,*54
06/17/2015	21:04:47.674	$GPGGA,210448,2543.8834,N,08009.7270,W,1,10,2.1,9,M,,M,,*54
06/17/2015	21:04:48.564	$GPGGA,210449,2543.8835,N,08009.7270,W,1,10,2.1,9,M,,M,,*54
06/17/2015	21:04:49.664	$GPGGA,210450,2543.8835,N,08009.7270,W,1,10,2.1,9,M,,M,,*5C
06/17/2015	21:04:50.574	$GPGGA,210451,2543.8835,N,08009.7272,W,1,10,2.1,9,M,,M,,*5F
06/17/2015	21:04:51.654	$GPGGA,210452,2543.8835,N,08009.7271,W,1,10,2.1,9,M,,M,,*5F
06/17/2015	21:04:52.564	$GPGGA,210453,2543.8835,N,08009.7272,W,1,10,2.1,9,M,,M,,*5D
06/17/2015	21:04:53.624	$GPGGA,210454,2543.8835,N,08009.7271,W,1,10,2.1,9,M,,M,,*59
06/17/2015	21:04:54.554	$GPGGA,210455,2543.8835,N,08009.7270,W,1,10,2.1,9,M,,M,,*59
06/17/2015	21:04:55.644	$GPGGA,210456,2543.8835,N,08009.7272,W,1,10,2.1,8,M,,M,,*59
06/17/2015	21:04:56.554	$GPGGA,210457,2543.8835,N,08009.7271,W,1,10,2.1,8,M,,M,,*5B
06/17/2015	21:04:57.634	$GPGGA,210458,2543.8835,N,08009.7272,W,1,10,2.1,8,M,,M,,*57
06/17/2015	21:04:58.564	$GPGGA,210459,2543.8835,N,08009.7271,W,1,10,2.1,8,M,,M,,*55
06/17/2015	21:04:59.665	$GPGGA,210500,2543.8835,N,08009.7272,W,1,10,2.1,8,M,,M,,*5B
06/17/2015	21:05:00.515	$GPGGA,210501,2543.8835,N,08009.7272,W,1,10,2.1,8,M,,M,,*5A
06/17/2015	21:05:01.584	$GPGGA,210502,2543.8837,N,08009.7272,W,1,10,2.1,8,M,,M,,*5B
06/17/2015	21:05:02.564	$GPGGA,210503,2543.8836,N,08009.7272,W,1,10,2.1,8,M,,M,,*5B
06/17/2015	21:05:03.634	$GPGGA,210504,2543.8837,N,08009.7273,W,1,10,2.1,8,M,,M,,*5C
06/17/2015	21:05:04.504	$GPGGA,210505,2543.8836,N,08009.7273,W,1,10,2.1,8,M,,M,,*5C
06/17/2015	21:05:05.624	$GPGGA,210506,2543.8838,N,08009.7273,W,1,10,2.1,8,M,,M,,*51
06/17/2015	21:05:06.624	$GPGGA,210507,2543.8837,N,08009.7273,W,1,10,2.1,7,M,,M,,*50
06/17/2015	21:05:07.634	$GPGGA,210508,2543.8838,N,08009.7274,W,1,10,2.1,7,M,,M,,*57
06/17/2015	21:05:08.534	$GPGGA,210509,2543.8837,N,08009.7274,W,1,10,2.1,7,M,,M,,*59
06/17/2015	21:05:09.504	$GPGGA,210510,2543.8838,N,08009.7274,W,1,10,2.1,7,M,,M,,*5E
06/17/2015	21:05:10.594	$GPGGA,210511,2543.8837,N,08009.7274,W,1,10,2.1,7,M,,M,,*50
06/17/2015	21:05:11.634	$GPGGA,210512,2543.8838,N,08009.7274,W,1,10,2.1,7,M,,M,,*5C
06/17/2015	21:05:12.524	$GPGGA,210513,2543.8839,N,08009.7274,W,1,10,2.1,7,M,,M,,*5C
06/17/2015	21:05:13.564	$GPGGA,210514,2543.8837,N,08009.7276,W,1,10,2.1,7,M,,M,,*57
06/17/2015	21:05:14.584	$GPGGA,210515,2543.8839,N,08009.7274,W,1,10,2.1,7,M,,M,,*5A
06/17/2015	21:05:15.594	$GPGGA,210516,2543.8837,N,08009.7274,W,1,10,2.1,7,M,,M,,*57
06/17/2015	21:05:16.535	$GPGGA,210517,2543.8838,N,08009.7274,W,1,10,2.1,7,M,,M,,*59
06/17/2015	21:05:17.617	$GPGGA,210518,2543.8837,N,08009.7274,W,1,10,2.1,6,M,,M,,*58
06/17/2015	21:05:18.584	$GPGGA,210519,2543.8838,N,08009.7274,W,1,10,2.1,6,M,,M,,*56
06/17/2015	21:05:19.604	$GPGGA,210520,2543.8837,N,08009.7274,W,1,10,2.1,6,M,,M,,*53
06/17/2015	21:05:20.574	$GPGGA,210521,2543.8838,N,08009.7276,W,1,10,2.1,6,M,,M,,*5F
06/17/2015	21:05:21.584	$GPGGA,210522,2543.8837,N,08009.7275,W,1,10,2.1,6,M,,M,,*50
06/17/2015	21:05:22.564	$GPGGA,210523,2543.8838,N,08009.7276,W,1,10,2.3,6,M,,M,,*5F
06/17/2015	21:05:23.574	$GPGGA,210524,2543.8837,N,08009.7276,W,1,9,2.3,6,M,,M,,*6F
06/17/2015	21:05:24.564	$GPGGA,210525,2543.8838,N,08009.7276,W,1,9,2.1,6,M,,M,,*63
06/17/2015	21:05:25.584	$GPGGA,210526,2543.8837,N,08009.7276,W,1,10,2.1,6,M,,M,,*57
06/17/2015	21:05:26.554	$GPGGA,210527,2543.8836,N,08009.7276,W,1,10,2.1,6,M,,M,,*57
06/17/2015	21:05:27.616	$GPGGA,210528,2543.8837,N,08009.7277,W,1,10,2.1,6,M,,M,,*58
06/17/2015	21:05:28.554	$GPGGA,210529,2543.8836,N,08009.7277,W,1,10,2.1,6,M,,M,,*58
06/17/2015	21:05:29.604	$GPGGA,210530,2543.8837,N,08009.7277,W,1,10,2.1,5,M,,M,,*52
06/17/2015	21:05:30.544	$GPGGA,210531,2543.8836,N,08009.7277,W,1,10,2.1,5,M,,M,,*52
06/17/2015	21:05:31.584	$GPGGA,210532,2543.8837,N,08009.7277,W,1,10,2.1,5,M,,M,,*50
06/17/2015	21:05:32.554	$GPGGA,210533,2543.8836,N,08009.7277,W,1,10,2.1,5,M,,M,,*50
06/17/2015	21:05:33.626	$GPGGA,210534,2543.8837,N,08009.7277,W,1,10,2.1,5,M,,M,,*56
06/17/2015	21:05:34.545	$GPGGA,210535,2543.8835,N,08009.7277,W,1,10,2.1,5,M,,M,,*55
06/17/2015	21:05:35.626	$GPGGA,210536,2543.8835,N,08009.7277,W,1,10,2.1,5,M,,M,,*56
06/17/2015	21:05:36.534	$GPGGA,210537,2543.8835,N,08009.7277,W,1,10,2.1,5,M,,M,,*57
06/17/2015	21:05:37.564	$GPGGA,210538,2543.8835,N,08009.7277,W,1,10,2.1,5,M,,M,,*58
06/17/2015	21:05:38.554	$GPGGA,210539,2543.8835,N,08009.7277,W,1,10,2.1,5,M,,M,,*59
06/17/2015	21:05:39.644	$GPGGA,210540,2543.8835,N,08009.7277,W,1,10,2.1,5,M,,M,,*57
06/17/2015	21:05:40.534	$GPGGA,210541,2543.8835,N,08009.7277,W,1,10,2.1,5,M,,M,,*56
06/17/2015	21:05:41.574	$GPGGA,210542,2543.8833,N,08009.7276,W,1,10,2.1,5,M,,M,,*52
06/17/2015	21:05:42.534	$GPGGA,210543,2543.8834,N,08009.7276,W,1,10,2.1,5,M,,M,,*54
06/17/2015	21:05:43.544	$GPGGA,210544,2543.8832,N,08009.7276,W,1,10,2.1,5,M,,M,,*55
06/17/2015	21:05:44.534	$GPGGA,210545,2543.8832,N,08009.7276,W,1,10,2.1,5,M,,M,,*54
06/17/2015	21:05:45.574	$GPGGA,210546,2543.8832,N,08009.7276,W,1,10,2.1,5,M,,M,,*57
06/17/2015	21:05:46.524	$GPGGA,210547,2543.8833,N,08009.7276,W,1,10,2.1,5,M,,M,,*57
06/17/2015	21:05:47.594	$GPGGA,210548,2543.8832,N,08009.7276,W,1,10,2.1,5,M,,M,,*59
06/17/2015	21:05:48.534	$GPGGA,210549,2543.8831,N,08009.7276,W,1,10,2.1,5,M,,M,,*5B
06/17/2015	21:05:49.526	$GPGGA,210550,2543.8831,N,08009.7276,W,1,10,2.1,5,M,,M,,*53
06/17/2015	21:05:50.504	$GPGGA,210551,2543.8831,N,08009.7276,W,1,10,2.1,5,M,,M,,*52
06/17/2015	21:05:51.585	$GPGGA,210552,2543.8831,N,08009.7277,W,1,10,2.1,5,M,,M,,*50
06/17/2015	21:05:52.535	$GPGGA,210553,2543.8831,N,08009.7277,W,1,10,2.1,5,M,,M,,*51
06/17/2015	21:05:53.625	$GPGGA,210554,2543.8831,N,08009.7277,W,1,10,2.1,5,M,,M,,*56
06/17/2015	21:05:54.624	$GPGGA,210555,2543.8831,N,08009.7277,W,1,10,2.1,5,M,,M,,*57
06/17/2015	21:05:55.634	$GPGGA,210556,2543.8831,N,08009.7277,W,1,10,2.1,5,M,,M,,*54
06/17/2015	21:05:56.584	$GPGGA,210557,2543.8831,N,08009.7277,W,1,10,2.1,5,M,,M,,*55
06/17/2015	21:05:57.634	$GPGGA,210558,2543.8831,N,08009.7277,W,1,10,2.1,6,M,,M,,*59
06/17/2015	21:05:58.584	$GPGGA,210559,2543.8831,N,08009.7277,W,1,10,2.1,6,M,,M,,*58
06/17/2015	21:05:59.674	$GPGGA,210600,2543.8831,N,08009.7277,W,1,10,2.1,6,M,,M,,*57
06/17/2015	21:06:00.584	$GPGGA,210601,2543.8831,N,08009.7277,W,1,10,2.1,6,M,,M,,*56
06/17/2015	21:06:01.595	$GPGGA,210602,2543.8831,N,08009.7277,W,1,10,2.1,6,M,,M,,*55
06/17/2015	21:06:02.574	$GPGGA,210603,2543.8831,N,08009.7277,W,1,10,2.1,6,M,,M,,*54
06/17/2015	21:06:03.624	$GPGGA,210604,2543.8831,N,08009.7277,W,1,10,2.1,6,M,,M,,*53
06/17/2015	21:06:04.484	$GPGGA,210605,2543.8833,N,08009.7276,W,1,10,2.1,6,M,,M,,*51
06/17/2015	21:06:05.604	$GPGGA,210606,2543.8831,N,08009.7276,W,1,10,2.1,6,M,,M,,*50
06/17/2015	21:06:06.564	$GPGGA,210607,2543.8833,N,08009.7276,W,1,10,2.1,6,M,,M,,*53
06/17/2015	21:06:07.574	$GPGGA,210608,2543.8832,N,08009.7276,W,1,10,2.1,6,M,,M,,*5D
06/17/2015	21:06:08.564	$GPGGA,210609,2543.8833,N,08009.7276,W,1,10,2.1,6,M,,M,,*5D
06/17/2015	21:06:09.585	$GPGGA,210610,2543.8832,N,08009.7276,W,1,10,2.1,6,M,,M,,*54
06/17/2015	21:06:10.574	$GPGGA,210611,2543.8831,N,08009.7276,W,1,10,2.1,6,M,,M,,*56
06/17/2015	21:06:12.584	$GPGGA,210613,2543.8831,N,08009.7276,W,1,10,2.1,6,M,,M,,*54
06/17/2015	21:06:13.574	$GPGGA,210614,2543.8831,N,08009.7276,W,1,10,2.1,7,M,,M,,*52
06/17/2015	21:06:14.544	$GPGGA,210615,2543.8831,N,08009.7275,W,1,10,2.1,7,M,,M,,*50
06/17/2015	21:06:15.584	$GPGGA,210616,2543.8830,N,08009.7276,W,1,10,2.1,7,M,,M,,*51
06/17/2015	21:06:16.554	$GPGGA,210617,2543.8831,N,08009.7275,W,1,10,2.1,7,M,,M,,*52
06/17/2015	21:06:17.554	$GPGGA,210618,2543.8830,N,08009.7276,W,1,10,2.1,7,M,,M,,*5F
06/17/2015	21:06:18.544	$GPGGA,210619,2543.8831,N,08009.7274,W,1,10,2.1,7,M,,M,,*5D
06/17/2015	21:06:19.574	$GPGGA,210620,2543.8830,N,08009.7274,W,1,10,2.1,7,M,,M,,*56
06/17/2015	21:06:20.544	$GPGGA,210621,2543.8831,N,08009.7273,W,1,10,2.1,7,M,,M,,*51
06/17/2015	21:06:21.544	$GPGGA,210622,2543.8830,N,08009.7273,W,1,10,2.1,7,M,,M,,*53
06/17/2015	21:06:22.534	$GPGGA,210623,2543.8831,N,08009.7273,W,1,10,2.1,7,M,,M,,*53
06/17/2015	21:06:23.534	$GPGGA,210624,2543.8830,N,08009.7273,W,1,10,2.1,7,M,,M,,*55
06/17/2015	21:06:24.534	$GPGGA,210625,2543.8831,N,08009.7273,W,1,10,2.1,7,M,,M,,*55
06/17/2015	21:06:25.524	$GPGGA,210626,2543.8831,N,08009.7273,W,1,10,2.1,7,M,,M,,*56
06/17/2015	21:06:26.515	$GPGGA,210627,2543.8831,N,08009.7273,W,1,10,2.1,7,M,,M,,*57
06/17/2015	21:06:27.565	$GPGGA,210628,2543.8831,N,08009.7273,W,1,10,2.1,7,M,,M,,*58
06/17/2015	21:06:28.534	$GPGGA,210629,2543.8831,N,08009.7273,W,1,10,2.1,7,M,,M,,*59
06/17/2015	21:06:29.514	$GPGGA,210630,2543.8831,N,08009.7273,W,1,10,2.1,8,M,,M,,*5E
06/17/2015	21:06:30.504	$GPGGA,210631,2543.8831,N,08009.7273,W,1,10,2.1,8,M,,M,,*5F
06/17/2015	21:06:31.554	$GPGGA,210632,2543.8830,N,08009.7273,W,1,10,2.1,8,M,,M,,*5D
06/17/2015	21:06:32.504	$GPGGA,210633,2543.8831,N,08009.7273,W,1,10,2.1,8,M,,M,,*5D
06/17/2015	21:06:33.534	$GPGGA,210634,2543.8831,N,08009.7274,W,1,10,2.1,8,M,,M,,*5D
06/17/2015	21:06:34.504	$GPGGA,210635,2543.8831,N,08009.7274,W,1,10,2.1,8,M,,M,,*5C
06/17/2015	21:06:35.634	$GPGGA,210636,2543.8831,N,08009.7274,W,1,10,2.1,8,M,,M,,*5F
06/17/2015	21:06:36.594	$GPGGA,210637,2543.8831,N,08009.7274,W,1,10,2.1,8,M,,M,,*5E
06/17/2015	21:06:37.604	$GPGGA,210638,2543.8831,N,08009.7276,W,1,10,2.1,8,M,,M,,*53
06/17/2015	21:06:38.514	$GPGGA,210639,2543.8831,N,08009.7275,W,1,10,2.1,8,M,,M,,*51
06/17/2015	21:06:39.544	$GPGGA,210640,2543.8831,N,08009.7276,W,1,10,2.1,8,M,,M,,*5C
06/17/2015	21:06:40.604	$GPGGA,210641,2543.8831,N,08009.7275,W,1,10,2.1,8,M,,M,,*5E
06/17/2015	21:06:41.514	$GPGGA,210642,2543.8831,N,08009.7276,W,1,10,2.1,8,M,,M,,*5E
06/17/2015	21:06:42.484	$GPGGA,210643,2543.8831,N,08009.7276,W,1,10,2.1,8,M,,M,,*5F
06/17/2015	21:06:43.594	$GPGGA,210644,2543.8831,N,08009.7277,W,1,10,2.1,8,M,,M,,*59
06/17/2015	21:06:44.595	$GPGGA,210645,2543.8831,N,08009.7277,W,1,10,2.1,8,M,,M,,*58
06/17/2015	21:06:45.614	$GPGGA,210646,2543.8831,N,08009.7277,W,1,10,2.1,8,M,,M,,*5B
06/17/2015	21:06:46.484	$GPGGA,210647,2543.8831,N,08009.7277,W,1,10,2.1,8,M,,M,,*5A
06/17/2015	21:06:47.594	$GPGGA,210648,2543.8831,N,08009.7277,W,1,10,2.1,8,M,,M,,*55
06/17/2015	21:06:48.564	$GPGGA,210649,2543.8831,N,08009.7277,W,1,10,2.1,8,M,,M,,*54
06/17/2015	21:06:49.594	$GPGGA,210650,2543.8830,N,08009.7275,W,1,10,2.1,8,M,,M,,*5F
06/17/2015	21:06:50.574	$GPGGA,210651,2543.8829,N,08009.7271,W,1,10,1.5,8,M,,M,,*55
06/17/2015	21:06:51.574	$GPGGA,210652,2543.8828,N,08009.7267,W,1,11,1.5,8,M,,M,,*51
06/17/2015	21:06:52.564	$GPGGA,210653,2543.8826,N,08009.7265,W,1,11,1.5,8,M,,M,,*5C
06/17/2015	21:06:53.554	$GPGGA,210654,2543.8827,N,08009.7264,W,1,11,1.5,8,M,,M,,*5B
06/17/2015	21:06:54.554	$GPGGA,210655,2543.8825,N,08009.7262,W,1,11,1.5,8,M,,M,,*5E
06/17/2015	21:06:55.584	$GPGGA,210656,2543.8826,N,08009.7262,W,1,11,1.5,9,M,,M,,*5F
06/17/2015	21:06:56.564	$GPGGA,210657,2543.8825,N,08009.7262,W,1,11,1.5,9,M,,M,,*5D
06/17/2015	21:06:57.564	$GPGGA,210658,2543.8826,N,08009.7262,W,1,11,1.5,9,M,,M,,*51
06/17/2015	21:06:58.554	$GPGGA,210659,2543.8827,N,08009.7263,W,1,11,1.5,9,M,,M,,*50
06/17/2015	21:06:59.634	$GPGGA,210700,2543.8826,N,08009.7263,W,1,11,1.5,10,M,,M,,*64
06/17/2015	21:07:00.544	$GPGGA,210701,2543.8827,N,08009.7263,W,1,11,1.5,10,M,,M,,*64
06/17/2015	21:07:01.575	$GPGGA,210702,2543.8826,N,08009.7262,W,1,11,1.5,10,M,,M,,*67
06/17/2015	21:07:02.555	$GPGGA,210703,2543.8827,N,08009.7263,W,1,11,1.5,10,M,,M,,*66
06/17/2015	21:07:03.574	$GPGGA,210704,2543.8826,N,08009.7262,W,1,11,1.5,10,M,,M,,*61
06/17/2015	21:07:04.544	$GPGGA,210705,2543.8827,N,08009.7262,W,1,11,1.5,11,M,,M,,*60
06/17/2015	21:07:05.574	$GPGGA,210706,2543.8826,N,08009.7261,W,1,11,1.5,11,M,,M,,*61
06/17/2015	21:07:06.534	$GPGGA,210707,2543.8827,N,08009.7262,W,1,11,1.5,11,M,,M,,*62
06/17/2015	21:07:07.544	$GPGGA,210708,2543.8826,N,08009.7260,W,1,11,1.5,11,M,,M,,*6E
06/17/2015	21:07:08.534	$GPGGA,210709,2543.8827,N,08009.7259,W,1,11,1.5,11,M,,M,,*64
06/17/2015	21:07:09.534	$GPGGA,210710,2543.8828,N,08009.7262,W,1,11,1.5,11,M,,M,,*6B
06/17/2015	21:07:10.534	$GPGGA,210711,2543.8828,N,08009.7263,W,1,11,2.1,12,M,,M,,*6F
06/17/2015	21:07:11.564	$GPGGA,210712,2543.8828,N,08009.7265,W,1,10,2.1,12,M,,M,,*6B
06/17/2015	21:07:12.534	$GPGGA,210713,2543.8828,N,08009.7267,W,1,10,2.1,12,M,,M,,*68
06/17/2015	21:07:13.544	$GPGGA,210714,2543.8828,N,08009.7269,W,1,10,2.1,12,M,,M,,*61
06/17/2015	21:07:14.524	$GPGGA,210715,2543.8830,N,08009.7270,W,1,10,2.1,12,M,,M,,*61
06/17/2015	21:07:15.554	$GPGGA,210716,2543.8829,N,08009.7272,W,1,10,2.1,12,M,,M,,*68
06/17/2015	21:07:16.624	$GPGGA,210717,2543.8830,N,08009.7273,W,1,10,2.1,12,M,,M,,*60
06/17/2015	21:07:17.634	$GPGGA,210718,2543.8831,N,08009.7274,W,1,10,2.1,12,M,,M,,*69
06/17/2015	21:07:18.855	$GPGGA,210719,2543.8830,N,08009.7276,W,1,10,2.1,11,M,,M,,*68
06/17/2015	21:07:19.535	$GPGGA,210720,2543.8831,N,08009.7276,W,1,10,2.1,11,M,,M,,*63
06/17/2015	21:07:20.516	$GPGGA,210721,2543.8829,N,08009.7273,W,1,10,2.1,11,M,,M,,*6E
06/17/2015	21:07:21.817	$GPGGA,210722,2543.8828,N,08009.7269,W,1,11,1.5,11,M,,M,,*61
06/17/2015	21:07:22.494	$GPGGA,210723,2543.8828,N,08009.7267,W,1,11,1.5,11,M,,M,,*6E
06/17/2015	21:07:23.634	$GPGGA,210724,2543.8828,N,08009.7264,W,1,11,1.5,11,M,,M,,*6A
06/17/2015	21:07:24.494	$GPGGA,210725,2543.8828,N,08009.7263,W,1,11,1.5,11,M,,M,,*6C
06/17/2015	21:07:25.584	$GPGGA,210726,2543.8828,N,08009.7266,W,1,11,1.5,12,M,,M,,*69
06/17/2015	21:07:26.504	$GPGGA,210727,2543.8828,N,08009.7269,W,1,11,2.1,12,M,,M,,*60
06/17/2015	21:07:27.617	$GPGGA,210728,2543.8828,N,08009.7270,W,1,10,2.1,12,M,,M,,*66
06/17/2015	21:07:28.494	$GPGGA,210729,2543.8830,N,08009.7272,W,1,10,2.1,12,M,,M,,*6C
06/17/2015	21:07:29.594	$GPGGA,210730,2543.8829,N,08009.7273,W,1,10,2.1,12,M,,M,,*6D
06/17/2015	21:07:30.484	$GPGGA,210731,2543.8830,N,08009.7276,W,1,10,2.1,12,M,,M,,*61
06/17/2015	21:07:31.594	$GPGGA,210732,2543.8831,N,08009.7276,W,1,10,2.1,11,M,,M,,*60
06/17/2015	21:07:32.574	$GPGGA,210733,2543.8830,N,08009.7277,W,1,10,2.1,11,M,,M,,*61
06/17/2015	21:07:33.584	$GPGGA,210734,2543.8831,N,08009.7279,W,1,10,2.1,11,M,,M,,*69
06/17/2015	21:07:34.584	$GPGGA,210735,2543.8830,N,08009.7280,W,1,10,2.1,11,M,,M,,*6F
06/17/2015	21:07:35.604	$GPGGA,210736,2543.8831,N,08009.7280,W,1,10,2.1,11,M,,M,,*6D
06/17/2015	21:07:36.575	$GPGGA,210737,2543.8831,N,08009.7280,W,1,10,2.1,11,M,,M,,*6C
06/17/2015	21:07:37.595	$GPGGA,210738,2543.8831,N,08009.7281,W,1,10,2.1,11,M,,M,,*62
06/17/2015	21:07:38.574	$GPGGA,210739,2543.8833,N,08009.7283,W,1,10,2.1,11,M,,M,,*63
06/17/2015	21:07:39.594	$GPGGA,210740,2543.8832,N,08009.7283,W,1,10,2.1,10,M,,M,,*6D
06/17/2015	21:07:40.554	$GPGGA,210741,2543.8833,N,08009.7284,W,1,10,2.1,10,M,,M,,*6A
06/17/2015	21:07:41.564	$GPGGA,210742,2543.8832,N,08009.7285,W,1,10,2.1,10,M,,M,,*69
06/17/2015	21:07:42.554	$GPGGA,210743,2543.8833,N,08009.7285,W,1,10,2.1,10,M,,M,,*69
06/17/2015	21:07:43.584	$GPGGA,210744,2543.8832,N,08009.7287,W,1,10,2.1,10,M,,M,,*6D
06/17/2015	21:07:44.544	$GPGGA,210745,2543.8833,N,08009.7287,W,1,10,2.1,10,M,,M,,*6D
06/17/2015	21:07:45.565	$GPGGA,210746,2543.8832,N,08009.7287,W,1,10,2.1,9,M,,M,,*57
06/17/2015	21:07:46.544	$GPGGA,210747,2543.8833,N,08009.7287,W,1,10,2.1,9,M,,M,,*57
06/17/2015	21:07:47.574	$GPGGA,210748,2543.8832,N,08009.7288,W,1,10,2.1,9,M,,M,,*56
06/17/2015	21:07:48.554	$GPGGA,210749,2543.8833,N,08009.7288,W,1,10,2.1,9,M,,M,,*56
06/17/2015	21:07:49.534	$GPGGA,210750,2543.8832,N,08009.7288,W,1,10,2.1,9,M,,M,,*5F
06/17/2015	21:07:50.524	$GPGGA,210751,2543.8833,N,08009.7288,W,1,10,2.1,9,M,,M,,*5F
06/17/2015	21:07:51.574	$GPGGA,210752,2543.8832,N,08009.7288,W,1,10,2.1,9,M,,M,,*5D
06/17/2015	21:07:52.534	$GPGGA,210753,2543.8833,N,08009.7288,W,1,10,2.1,8,M,,M,,*5C
06/17/2015	21:07:53.524	$GPGGA,210754,2543.8832,N,08009.7287,W,1,10,2.1,8,M,,M,,*55
06/17/2015	21:07:54.535	$GPGGA,210755,2543.8833,N,08009.7287,W,1,10,2.1,8,M,,M,,*55
06/17/2015	21:07:55.554	$GPGGA,210756,2543.8832,N,08009.7286,W,1,10,2.1,8,M,,M,,*56
06/17/2015	21:07:56.534	$GPGGA,210757,2543.8833,N,08009.7287,W,1,10,2.1,8,M,,M,,*57
06/17/2015	21:07:57.515	$GPGGA,210758,2543.8832,N,08009.7285,W,1,10,2.1,8,M,,M,,*5B
06/17/2015	21:07:58.514	$GPGGA,210759,2543.8833,N,08009.7285,W,1,10,2.1,8,M,,M,,*5B
06/17/2015	21:07:59.604	$GPGGA,210800,2543.8832,N,08009.7285,W,1,10,2.1,8,M,,M,,*59
06/17/2015	21:08:00.624	$GPGGA,210801,2543.8833,N,08009.7284,W,1,10,2.1,7,M,,M,,*57
06/17/2015	21:08:01.504	$GPGGA,210802,2543.8832,N,08009.7283,W,1,10,2.1,7,M,,M,,*52
06/17/2015	21:08:02.604	$GPGGA,210803,2543.8833,N,08009.7283,W,1,10,2.1,7,M,,M,,*52
06/17/2015	21:08:03.524	$GPGGA,210804,2543.8831,N,08009.7283,W,1,10,2.1,7,M,,M,,*57
06/17/2015	21:08:04.624	$GPGGA,210805,2543.8831,N,08009.7283,W,1,10,2.1,7,M,,M,,*56
06/17/2015	21:08:05.504	$GPGGA,210806,2543.8831,N,08009.7283,W,1,10,2.1,7,M,,M,,*55
06/17/2015	21:08:06.494	$GPGGA,210807,2543.8831,N,08009.7283,W,1,10,2.1,7,M,,M,,*54
06/17/2015	21:08:07.534	$GPGGA,210808,2543.8831,N,08009.7283,W,1,10,2.1,7,M,,M,,*5B
06/17/2015	21:08:08.494	$GPGGA,210809,2543.8831,N,08009.7283,W,1,10,2.1,7,M,,M,,*5A
06/17/2015	21:08:09.594	$GPGGA,210810,2543.8831,N,08009.7283,W,1,10,2.1,7,M,,M,,*52
06/17/2015	21:08:10.584	$GPGGA,210811,2543.8831,N,08009.7283,W,1,10,2.1,7,M,,M,,*53
06/17/2015	21:08:11.495	$GPGGA,210812,2543.8831,N,08009.7283,W,1,10,2.1,7,M,,M,,*50
06/17/2015	21:08:12.575	$GPGGA,210813,2543.8831,N,08009.7284,W,1,10,2.1,7,M,,M,,*56
06/17/2015	21:08:13.574	$GPGGA,210814,2543.8830,N,08009.7284,W,1,10,2.1,7,M,,M,,*50
06/17/2015	21:08:14.484	$GPGGA,210815,2543.8831,N,08009.7284,W,1,10,2.1,7,M,,M,,*50
06/17/2015	21:08:15.584	$GPGGA,210816,2543.8830,N,08009.7284,W,1,10,2.1,7,M,,M,,*52
06/17/2015	21:08:16.574	$GPGGA,210817,2543.8831,N,08009.7284,W,1,10,2.1,7,M,,M,,*52
06/17/2015	21:08:17.574	$GPGGA,210818,2543.8830,N,08009.7284,W,1,10,2.1,7,M,,M,,*5C
06/17/2015	21:08:18.564	$GPGGA,210819,2543.8831,N,08009.7285,W,1,10,2.1,7,M,,M,,*5D
06/17/2015	21:08:19.584	$GPGGA,210820,2543.8830,N,08009.7287,W,1,10,2.1,7,M,,M,,*54
06/17/2015	21:08:20.564	$GPGGA,210821,2543.8831,N,08009.7286,W,1,10,2.1,7,M,,M,,*55
06/17/2015	21:08:21.574	$GPGGA,210822,2543.8830,N,08009.7287,W,1,10,2.1,6,M,,M,,*57
06/17/2015	21:08:22.564	$GPGGA,210823,2543.8831,N,08009.7287,W,1,10,2.1,6,M,,M,,*57
06/17/2015	21:08:23.594	$GPGGA,210824,2543.8830,N,08009.7287,W,1,10,2.1,6,M,,M,,*51
06/17/2015	21:08:24.564	$GPGGA,210825,2543.8831,N,08009.7287,W,1,10,2.1,6,M,,M,,*51
06/17/2015	21:08:25.544	$GPGGA,210826,2543.8831,N,08009.7288,W,1,10,2.1,6,M,,M,,*5D
06/17/2015	21:08:26.554	$GPGGA,210827,2543.8830,N,08009.7288,W,1,10,2.1,6,M,,M,,*5D
06/17/2015	21:08:27.584	$GPGGA,210828,2543.8831,N,08009.7288,W,1,10,2.1,6,M,,M,,*53
06/17/2015	21:08:28.544	$GPGGA,210829,2543.8830,N,08009.7290,W,1,10,2.1,6,M,,M,,*5A
06/17/2015	21:08:29.545	$GPGGA,210830,2543.8831,N,08009.7288,W,1,10,2.1,6,M,,M,,*5A
06/17/2015	21:08:30.554	$GPGGA,210831,2543.8831,N,08009.7290,W,1,10,2.1,6,M,,M,,*52
06/17/2015	21:08:31.554	$GPGGA,210832,2543.8831,N,08009.7289,W,1,10,2.1,6,M,,M,,*59
06/17/2015	21:08:32.544	$GPGGA,210833,2543.8831,N,08009.7290,W,1,10,2.1,6,M,,M,,*50
06/17/2015	21:08:33.564	$GPGGA,210834,2543.8831,N,08009.7290,W,1,10,2.1,5,M,,M,,*54
06/17/2015	21:08:34.534	$GPGGA,210835,2543.8831,N,08009.7290,W,1,10,2.1,5,M,,M,,*55
06/17/2015	21:08:35.584	$GPGGA,210836,2543.8833,N,08009.7291,W,1,10,2.1,5,M,,M,,*55
06/17/2015	21:08:36.544	$GPGGA,210837,2543.8831,N,08009.7291,W,1,10,2.1,5,M,,M,,*56
06/17/2015	21:08:37.524	$GPGGA,210838,2543.8833,N,08009.7291,W,1,10,2.1,5,M,,M,,*5B
06/17/2015	21:08:38.534	$GPGGA,210839,2543.8832,N,08009.7291,W,1,10,2.1,5,M,,M,,*5B
06/17/2015	21:08:39.544	$GPGGA,210840,2543.8833,N,08009.7291,W,1,10,2.1,5,M,,M,,*54
06/17/2015	21:08:40.514	$GPGGA,210841,2543.8832,N,08009.7290,W,1,10,2.1,5,M,,M,,*55
06/17/2015	21:08:41.554	$GPGGA,210842,2543.8834,N,08009.7290,W,1,10,2.1,5,M,,M,,*50
06/17/2015	21:08:42.604	$GPGGA,210843,2543.8833,N,08009.7290,W,1,10,2.1,5,M,,M,,*56
06/17/2015	21:08:43.534	$GPGGA,210844,2543.8834,N,08009.7289,W,1,10,2.1,5,M,,M,,*5E
06/17/2015	21:08:44.534	$GPGGA,210845,2543.8832,N,08009.7290,W,1,10,2.1,5,M,,M,,*51
06/17/2015	21:08:45.504	$GPGGA,210846,2543.8833,N,08009.7289,W,1,10,2.1,4,M,,M,,*5A
06/17/2015	21:08:46.515	$GPGGA,210847,2543.8832,N,08009.7290,W,1,10,2.1,4,M,,M,,*52
06/17/2015	21:08:47.565	$GPGGA,210848,2543.8833,N,08009.7289,W,1,10,2.1,4,M,,M,,*54
06/17/2015	21:08:48.514	$GPGGA,210849,2543.8832,N,08009.7290,W,1,10,2.1,4,M,,M,,*5C
06/17/2015	21:08:49.494	$GPGGA,210850,2543.8833,N,08009.7288,W,1,10,2.1,4,M,,M,,*5C
06/17/2015	21:08:50.504	$GPGGA,210851,2543.8832,N,08009.7288,W,1,10,2.1,4,M,,M,,*5C
06/17/2015	21:08:51.615	$GPGGA,210852,2543.8833,N,08009.7288,W,1,10,2.1,4,M,,M,,*5E
06/17/2015	21:08:52.484	$GPGGA,210853,2543.8832,N,08009.7288,W,1,10,2.1,4,M,,M,,*5E
06/17/2015	21:08:53.584	$GPGGA,210854,2543.8833,N,08009.7287,W,1,10,2.1,4,M,,M,,*57
06/17/2015	21:08:54.604	$GPGGA,210855,2543.8832,N,08009.7287,W,1,10,2.1,4,M,,M,,*57
06/17/2015	21:08:55.604	$GPGGA,210856,2543.8834,N,08009.7286,W,1,10,2.1,4,M,,M,,*53
06/17/2015	21:08:56.574	$GPGGA,210857,2543.8832,N,08009.7287,W,1,10,2.1,4,M,,M,,*55
06/17/2015	21:08:57.614	$GPGGA,210858,2543.8834,N,08009.7286,W,1,10,2.1,4,M,,M,,*5D
06/17/2015	21:08:58.584	$GPGGA,210859,2543.8833,N,08009.7287,W,1,10,2.1,4,M,,M,,*5A
06/17/2015	21:08:59.644	$GPGGA,210900,2543.8834,N,08009.7286,W,1,10,2.1,4,M,,M,,*51
06/17/2015	21:09:00.574	$GPGGA,210901,2543.8833,N,08009.7287,W,1,10,2.1,4,M,,M,,*56
06/17/2015	21:09:01.604	$GPGGA,210902,2543.8834,N,08009.7286,W,1,10,2.1,4,M,,M,,*53
06/17/2015	21:09:02.564	$GPGGA,210903,2543.8833,N,08009.7287,W,1,10,2.1,4,M,,M,,*54
06/17/2015	21:09:03.584	$GPGGA,210904,2543.8834,N,08009.7286,W,1,10,2.1,4,M,,M,,*55
06/17/2015	21:09:04.563	$GPGGA,210905,2543.8833,N,08009.7287,W,1,10,2.1,4,M,,M,,*52
06/17/2015	21:09:05.572	$GPGGA,210906,2543.8834,N,08009.7286,W,1,10,2.1,4,M,,M,,*57
06/17/2015	21:09:06.552	$GPGGA,210907,2543.8833,N,08009.7287,W,1,10,2.1,5,M,,M,,*51
06/17/2015	21:09:07.582	$GPGGA,210908,2543.8835,N,08009.7287,W,1,10,2.1,5,M,,M,,*58
06/17/2015	21:09:08.532	$GPGGA,210909,2543.8835,N,08009.7286,W,1,10,2.1,5,M,,M,,*58
06/17/2015	21:09:09.572	$GPGGA,210910,2543.8835,N,08009.7287,W,1,10,2.1,5,M,,M,,*51
06/17/2015	21:09:10.542	$GPGGA,210911,2543.8835,N,08009.7287,W,1,10,2.1,5,M,,M,,*50
06/17/2015	21:09:11.542	$GPGGA,210912,2543.8835,N,08009.7287,W,1,10,2.1,4,M,,M,,*52
06/17/2015	21:09:12.542	$GPGGA,210913,2543.8835,N,08009.7287,W,1,10,2.1,4,M,,M,,*53
06/17/2015	21:09:13.582	$GPGGA,210914,2543.8835,N,08009.7287,W,1,10,2.1,4,M,,M,,*54
06/17/2015	21:09:14.532	$GPGGA,210915,2543.8835,N,08009.7288,W,1,10,2.1,4,M,,M,,*5A
06/17/2015	21:09:15.552	$GPGGA,210916,2543.8835,N,08009.7288,W,1,10,2.1,4,M,,M,,*59
06/17/2015	21:09:16.522	$GPGGA,210917,2543.8837,N,08009.7288,W,1,10,2.1,4,M,,M,,*5A
06/17/2015	21:09:17.532	$GPGGA,210918,2543.8836,N,08009.7290,W,1,10,2.1,4,M,,M,,*5D
06/17/2015	21:09:18.512	$GPGGA,210919,2543.8837,N,08009.7289,W,1,10,2.1,4,M,,M,,*55
06/17/2015	21:09:19.612	$GPGGA,210920,2543.8836,N,08009.7290,W,1,10,2.1,4,M,,M,,*56
06/17/2015	21:09:20.522	$GPGGA,210921,2543.8837,N,08009.7290,W,1,10,2.1,4,M,,M,,*56
06/17/2015	21:09:21.522	$GPGGA,210922,2543.8838,N,08009.7289,W,1,10,2.1,4,M,,M,,*52
06/17/2015	21:09:22.513	$GPGGA,210923,2543.8837,N,08009.7290,W,1,10,2.1,4,M,,M,,*54
06/17/2015	21:09:24.392	$GPGGA,210924,2543.8838,N,08009.7289,W,1,10,2.1,4,M,,M,,*54
06/17/2015	21:09:24.512	$GPGGA,210925,2543.8837,N,08009.7290,W,1,10,2.1,4,M,,M,,*52
06/17/2015	21:09:25.522	$GPGGA,210926,2543.8838,N,08009.7289,W,1,10,2.1,4,M,,M,,*56
06/17/2015	21:09:26.503	$GPGGA,210927,2543.8837,N,08009.7290,W,1,10,2.1,4,M,,M,,*50
06/17/2015	21:09:27.542	$GPGGA,210928,2543.8838,N,08009.7289,W,1,10,2.1,4,M,,M,,*58
06/17/2015	21:09:28.522	$GPGGA,210929,2543.8837,N,08009.7290,W,1,10,2.1,4,M,,M,,*5E
06/17/2015	21:09:29.522	$GPGGA,210930,2543.8838,N,08009.7289,W,1,10,2.1,4,M,,M,,*51
06/17/2015	21:09:30.822	$GPGGA,210931,2543.8837,N,08009.7290,W,1,10,2.1,4,M,,M,,*57
06/17/2015	21:09:31.562	$GPGGA,210932,2543.8836,N,08009.7288,W,1,10,2.1,4,M,,M,,*5C
06/17/2015	21:09:32.582	$GPGGA,210933,2543.8837,N,08009.7288,W,1,10,2.1,4,M,,M,,*5C
06/17/2015	21:09:33.494	$GPGGA,210934,2543.8836,N,08009.7288,W,1,10,2.1,4,M,,M,,*5A
06/17/2015	21:09:34.572	$GPGGA,210935,2543.8837,N,08009.7288,W,1,10,2.1,4,M,,M,,*5A
06/17/2015	21:09:35.582	$GPGGA,210936,2543.8836,N,08009.7288,W,1,10,2.1,4,M,,M,,*58
06/17/2015	21:09:36.482	$GPGGA,210937,2543.8837,N,08009.7288,W,1,10,2.1,4,M,,M,,*58
06/17/2015	21:09:37.592	$GPGGA,210938,2543.8836,N,08009.7290,W,1,10,2.1,4,M,,M,,*5F
06/17/2015	21:09:38.492	$GPGGA,210939,2543.8838,N,08009.7289,W,1,10,2.1,4,M,,M,,*58
06/17/2015	21:09:39.593	$GPGGA,210940,2543.8837,N,08009.7290,W,1,10,2.1,4,M,,M,,*51
06/17/2015	21:09:40.582	$GPGGA,210941,2543.8836,N,08009.7290,W,1,10,2.1,4,M,,M,,*51
06/17/2015	21:09:41.573	$GPGGA,210942,2543.8837,N,08009.7290,W,1,10,2.1,4,M,,M,,*53
06/17/2015	21:09:42.562	$GPGGA,210943,2543.8836,N,08009.7290,W,1,10,2.1,4,M,,M,,*53
06/17/2015	21:09:43.572	$GPGGA,210944,2543.8838,N,08009.7290,W,1,10,2.1,4,M,,M,,*5A
06/17/2015	21:09:44.572	$GPGGA,210945,2543.8837,N,08009.7291,W,1,10,2.1,4,M,,M,,*55
06/17/2015	21:09:45.552	$GPGGA,210946,2543.8838,N,08009.7291,W,1,10,2.1,4,M,,M,,*59
06/17/2015	21:09:46.562	$GPGGA,210947,2543.8837,N,08009.7291,W,1,10,2.1,4,M,,M,,*57
06/17/2015	21:09:47.572	$GPGGA,210948,2543.8838,N,08009.7291,W,1,10,2.1,4,M,,M,,*57
06/17/2015	21:09:48.542	$GPGGA,210949,2543.8837,N,08009.7292,W,1,10,2.1,4,M,,M,,*5A
06/17/2015	21:09:49.542	$GPGGA,210950,2543.8838,N,08009.7292,W,1,10,2.1,4,M,,M,,*5D
06/17/2015	21:09:50.542	$GPGGA,210951,2543.8837,N,08009.7292,W,1,10,2.1,4,M,,M,,*53
06/17/2015	21:09:51.572	$GPGGA,210952,2543.8838,N,08009.7292,W,1,10,2.1,4,M,,M,,*5F
06/17/2015	21:09:52.542	$GPGGA,210953,2543.8837,N,08009.7292,W,1,10,2.1,4,M,,M,,*51
06/17/2015	21:09:53.562	$GPGGA,210954,2543.8838,N,08009.7292,W,1,10,2.1,4,M,,M,,*59
06/17/2015	21:09:54.542	$GPGGA,210955,2543.8837,N,08009.7291,W,1,10,2.1,4,M,,M,,*54
06/17/2015	21:09:55.582	$GPGGA,210956,2543.8838,N,08009.7291,W,1,10,2.1,4,M,,M,,*58
06/17/2015	21:09:56.533	$GPGGA,210957,2543.8837,N,08009.7290,W,1,10,2.1,4,M,,M,,*57
06/17/2015	21:09:57.553	$GPGGA,210958,2543.8838,N,08009.7290,W,1,10,2.1,4,M,,M,,*57
06/17/2015	21:09:58.523	$GPGGA,210959,2543.8837,N,08009.7290,W,1,10,2.1,4,M,,M,,*59
06/17/2015	21:09:59.613	$GPGGA,211000,2543.8838,N,08009.7290,W,1,10,2.1,4,M,,M,,*52
06/17/2015	21:10:00.532	$GPGGA,211001,2543.8837,N,08009.7290,W,1,10,2.1,4,M,,M,,*5C
06/17/2015	21:10:01.542	$GPGGA,211002,2543.8838,N,08009.7290,W,1,10,2.1,4,M,,M,,*50
06/17/2015	21:10:02.522	$GPGGA,211003,2543.8837,N,08009.7290,W,1,10,2.1,4,M,,M,,*5E
06/17/2015	21:10:03.552	$GPGGA,211004,2543.8838,N,08009.7290,W,1,10,2.1,4,M,,M,,*56
06/17/2015	21:10:04.542	$GPGGA,211005,2543.8836,N,08009.7290,W,1,10,2.1,4,M,,M,,*59
06/17/2015	21:10:05.522	$GPGGA,211006,2543.8837,N,08009.7290,W,1,10,2.1,4,M,,M,,*5B
06/17/2015	21:10:06.522	$GPGGA,211007,2543.8836,N,08009.7290,W,1,10,2.1,4,M,,M,,*5B
06/17/2015	21:10:07.552	$GPGGA,211008,2543.8837,N,08009.7290,W,1,10,2.1,4,M,,M,,*55
06/17/2015	21:10:08.522	$GPGGA,211009,2543.8836,N,08009.7290,W,1,10,2.1,4,M,,M,,*55
06/17/2015	21:10:09.512	$GPGGA,211010,2543.8837,N,08009.7290,W,1,10,2.1,4,M,,M,,*5C
06/17/2015	21:10:10.504	$GPGGA,211011,2543.8836,N,08009.7290,W,1,10,2.1,4,M,,M,,*5C
06/17/2015	21:10:11.522	$GPGGA,211012,2543.8837,N,08009.7290,W,1,10,2.1,4,M,,M,,*5E
06/17/2015	21:10:12.504	$GPGGA,211013,2543.8836,N,08009.7289,W,1,10,2.1,4,M,,M,,*56
06/17/2015	21:10:13.613	$GPGGA,211014,2543.8837,N,08009.7290,W,1,10,2.1,4,M,,M,,*58
06/17/2015	21:10:14.493	$GPGGA,211015,2543.8835,N,08009.7289,W,1,10,2.1,4,M,,M,,*53
06/17/2015	21:10:15.608	$GPGGA,211016,2543.8835,N,08009.7288,W,1,10,2.1,4,M,,M,,*51
06/17/2015	21:10:16.503	$GPGGA,211017,2543.8835,N,08009.7288,W,1,10,2.1,4,M,,M,,*50
06/17/2015	21:10:17.483	$GPGGA,211018,2543.8835,N,08009.7287,W,1,10,2.1,4,M,,M,,*50
06/17/2015	21:10:18.582	$GPGGA,211019,2543.8835,N,08009.7287,W,1,10,2.1,4,M,,M,,*51
06/17/2015	21:10:19.613	$GPGGA,211020,2543.8835,N,08009.7287,W,1,10,2.1,4,M,,M,,*5B
06/17/2015	21:10:20.582	$GPGGA,211021,2543.8833,N,08009.7287,W,1,10,2.1,4,M,,M,,*5C
06/17/2015	21:10:21.572	$GPGGA,211022,2543.8834,N,08009.7287,W,1,10,2.1,4,M,,M,,*58
06/17/2015	21:10:22.582	$GPGGA,211023,2543.8833,N,08009.7287,W,1,10,2.1,4,M,,M,,*5E
06/17/2015	21:10:23.612	$GPGGA,211024,2543.8834,N,08009.7287,W,1,10,2.1,4,M,,M,,*5E
06/17/2015	21:10:24.482	$GPGGA,211025,2543.8833,N,08009.7286,W,1,10,2.1,4,M,,M,,*59
06/17/2015	21:10:25.572	$GPGGA,211026,2543.8832,N,08009.7287,W,1,10,2.1,4,M,,M,,*5A
06/17/2015	21:10:26.582	$GPGGA,211027,2543.8833,N,08009.7286,W,1,10,2.1,4,M,,M,,*5B
06/17/2015	21:10:27.592	$GPGGA,211028,2543.8832,N,08009.7287,W,1,10,2.1,4,M,,M,,*54
06/17/2015	21:10:30.012	$GPGGA,211029,2543.8833,N,08009.7286,W,1,10,2.1,4,M,,M,,*55
06/17/2015	21:10:30.042	$GPGGA,211030,2543.8832,N,08009.7287,W,1,10,2.1,4,M,,M,,*5D
06/17/2015	21:10:30.562	$GPGGA,211031,2543.8833,N,08009.7286,W,1,10,2.1,4,M,,M,,*5C
06/17/2015	21:10:31.583	$GPGGA,211032,2543.8832,N,08009.7287,W,1,10,2.1,4,M,,M,,*5F
06/17/2015	21:10:32.553	$GPGGA,211033,2543.8833,N,08009.7285,W,1,10,2.1,4,M,,M,,*5D
06/17/2015	21:10:33.572	$GPGGA,211034,2543.8832,N,08009.7285,W,1,10,2.1,4,M,,M,,*5B
06/17/2015	21:10:34.562	$GPGGA,211035,2543.8834,N,08009.7285,W,1,10,2.1,4,M,,M,,*5C
06/17/2015	21:10:35.572	$GPGGA,211036,2543.8833,N,08009.7285,W,1,10,2.1,4,M,,M,,*58
06/17/2015	21:10:36.552	$GPGGA,211037,2543.8834,N,08009.7285,W,1,10,2.1,4,M,,M,,*5E
06/17/2015	21:10:37.562	$GPGGA,211038,2543.8835,N,08009.7285,W,1,10,2.1,4,M,,M,,*50
06/17/2015	21:10:38.542	$GPGGA,211039,2543.8835,N,08009.7285,W,1,10,2.1,4,M,,M,,*51
06/17/2015	21:10:39.582	$GPGGA,211040,2543.8835,N,08009.7285,W,1,10,2.1,4,M,,M,,*5F
06/17/2015	21:10:40.523	$GPGGA,211041,2543.8835,N,08009.7284,W,1,10,2.1,4,M,,M,,*5F
06/17/2015	21:10:41.542	$GPGGA,211042,2543.8835,N,08009.7284,W,1,10,2.1,4,M,,M,,*5C
06/17/2015	21:10:42.522	$GPGGA,211043,2543.8835,N,08009.7284,W,1,10,2.1,4,M,,M,,*5D
06/17/2015	21:10:43.552	$GPGGA,211044,2543.8835,N,08009.7284,W,1,10,2.1,5,M,,M,,*5B
06/17/2015	21:10:44.542	$GPGGA,211045,2543.8835,N,08009.7284,W,1,10,2.1,5,M,,M,,*5A
06/17/2015	21:10:45.942	$GPGGA,211046,2543.8837,N,08009.7283,W,1,10,2.1,5,M,,M,,*5C
06/17/2015	21:10:46.522	$GPGGA,211047,2543.8835,N,08009.7283,W,1,10,2.1,5,M,,M,,*5F
06/17/2015	21:10:47.522	$GPGGA,211048,2543.8837,N,08009.7283,W,1,10,2.1,5,M,,M,,*52
06/17/2015	21:10:48.512	$GPGGA,211049,2543.8836,N,08009.7283,W,1,10,2.1,5,M,,M,,*52
06/17/2015	21:10:49.543	$GPGGA,211050,2543.8837,N,08009.7283,W,1,10,2.1,5,M,,M,,*5B
06/17/2015	21:10:50.522	$GPGGA,211051,2543.8836,N,08009.7283,W,1,10,2.1,5,M,,M,,*5B
06/17/2015	21:10:51.522	$GPGGA,211052,2543.8837,N,08009.7283,W,1,10,2.1,5,M,,M,,*59
06/17/2015	21:10:52.505	$GPGGA,211053,2543.8836,N,08009.7282,W,1,10,2.1,5,M,,M,,*58
06/17/2015	21:10:54.532	$GPGGA,211055,2543.8835,N,08009.7283,W,1,10,2.1,5,M,,M,,*5C
06/17/2015	21:10:55.522	$GPGGA,211056,2543.8835,N,08009.7283,W,1,10,2.1,5,M,,M,,*5F
06/17/2015	21:10:56.522	$GPGGA,211057,2543.8835,N,08009.7283,W,1,10,2.1,6,M,,M,,*5D
06/17/2015	21:10:57.522	$GPGGA,211058,2543.8837,N,08009.7283,W,1,10,2.1,6,M,,M,,*50
06/17/2015	21:10:58.582	$GPGGA,211059,2543.8835,N,08009.7276,W,1,10,2.1,6,M,,M,,*59
06/17/2015	21:10:59.612	$GPGGA,211100,2543.8835,N,08009.7275,W,1,11,1.5,6,M,,M,,*51
06/17/2015	21:11:00.512	$GPGGA,211101,2543.8833,N,08009.7273,W,1,11,1.5,6,M,,M,,*50
06/17/2015	21:11:01.492	$GPGGA,211102,2543.8834,N,08009.7272,W,1,11,1.5,6,M,,M,,*55
06/17/2015	21:11:02.582	$GPGGA,211103,2543.8832,N,08009.7271,W,1,11,1.5,7,M,,M,,*50
06/17/2015	21:11:03.632	$GPGGA,211104,2543.8833,N,08009.7272,W,1,11,1.5,7,M,,M,,*55
06/17/2015	21:11:04.582	$GPGGA,211105,2543.8832,N,08009.7270,W,1,11,1.5,7,M,,M,,*57
06/17/2015	21:11:05.582	$GPGGA,211106,2543.8831,N,08009.7270,W,1,11,1.5,7,M,,M,,*57
06/17/2015	21:11:06.573	$GPGGA,211107,2543.8831,N,08009.7269,W,1,11,1.5,8,M,,M,,*51
06/17/2015	21:11:07.613	$GPGGA,211108,2543.8831,N,08009.7269,W,1,11,1.5,8,M,,M,,*5E
06/17/2015	21:11:08.562	$GPGGA,211109,2543.8830,N,08009.7270,W,1,11,1.5,8,M,,M,,*56
06/17/2015	21:11:09.582	$GPGGA,211110,2543.8831,N,08009.7270,W,1,11,1.5,8,M,,M,,*5F
06/17/2015	21:11:10.572	$GPGGA,211111,2543.8830,N,08009.7270,W,1,11,1.5,8,M,,M,,*5F
06/17/2015	21:11:11.592	$GPGGA,211112,2543.8831,N,08009.7270,W,1,11,1.5,9,M,,M,,*5C
06/17/2015	21:11:12.552	$GPGGA,211113,2543.8830,N,08009.7269,W,1,11,1.5,9,M,,M,,*54
06/17/2015	21:11:13.562	$GPGGA,211114,2543.8829,N,08009.7269,W,1,11,1.5,9,M,,M,,*5B
06/17/2015	21:11:14.562	$GPGGA,211115,2543.8830,N,08009.7268,W,1,11,1.5,9,M,,M,,*53
06/17/2015	21:11:15.582	$GPGGA,211116,2543.8829,N,08009.7269,W,1,11,1.5,9,M,,M,,*59
06/17/2015	21:11:17.602	$GPGGA,211118,2543.8828,N,08009.7267,W,1,11,1.5,9,M,,M,,*58
06/17/2015	21:11:18.552	$GPGGA,211119,2543.8828,N,08009.7266,W,1,11,1.5,10,M,,M,,*60
06/17/2015	21:11:19.582	$GPGGA,211120,2543.8828,N,08009.7266,W,1,11,1.5,10,M,,M,,*6A
06/17/2015	21:11:20.542	$GPGGA,211121,2543.8828,N,08009.7265,W,1,11,1.5,10,M,,M,,*68
06/17/2015	21:11:21.542	$GPGGA,211122,2543.8828,N,08009.7265,W,1,11,1.5,10,M,,M,,*6B
06/17/2015	21:11:22.542	$GPGGA,211123,2543.8828,N,08009.7264,W,1,11,1.5,10,M,,M,,*6B
06/17/2015	21:11:23.542	$GPGGA,211124,2543.8828,N,08009.7265,W,1,11,1.5,10,M,,M,,*6D
06/17/2015	21:11:24.553	$GPGGA,211125,2543.8828,N,08009.7264,W,1,11,1.5,10,M,,M,,*6D
06/17/2015	21:11:25.552	$GPGGA,211126,2543.8828,N,08009.7263,W,1,11,1.5,11,M,,M,,*68
06/17/2015	21:11:26.522	$GPGGA,211127,2543.8828,N,08009.7263,W,1,11,1.5,11,M,,M,,*69
06/17/2015	21:11:27.532	$GPGGA,211128,2543.8828,N,08009.7263,W,1,11,1.5,11,M,,M,,*66
06/17/2015	21:11:28.532	$GPGGA,211129,2543.8828,N,08009.7262,W,1,11,1.5,11,M,,M,,*66
06/17/2015	21:11:29.522	$GPGGA,211130,2543.8828,N,08009.7262,W,1,11,1.5,11,M,,M,,*6E
06/17/2015	21:11:30.522	$GPGGA,211131,2543.8828,N,08009.7262,W,1,11,1.5,11,M,,M,,*6F
06/17/2015	21:11:31.532	$GPGGA,211132,2543.8828,N,08009.7262,W,1,11,1.5,11,M,,M,,*6C
06/17/2015	21:11:32.532	$GPGGA,211133,2543.8828,N,08009.7261,W,1,11,1.5,11,M,,M,,*6E
06/17/2015	21:11:33.512	$GPGGA,211134,2543.8828,N,08009.7262,W,1,11,1.5,12,M,,M,,*69
06/17/2015	21:11:34.682	$GPGGA,211135,2543.8828,N,08009.7261,W,1,11,1.5,12,M,,M,,*6B
06/17/2015	21:11:35.522	$GPGGA,211136,2543.8828,N,08009.7262,W,1,11,1.5,12,M,,M,,*6B
06/17/2015	21:11:36.522	$GPGGA,211137,2543.8830,N,08009.7261,W,1,11,1.5,12,M,,M,,*60
06/17/2015	21:11:37.522	$GPGGA,211138,2543.8829,N,08009.7262,W,1,11,1.5,12,M,,M,,*64
06/17/2015	21:11:38.503	$GPGGA,211139,2543.8831,N,08009.7261,W,1,11,1.5,12,M,,M,,*6F
06/17/2015	21:11:39.692	$GPGGA,211140,2543.8830,N,08009.7262,W,1,11,1.5,12,M,,M,,*63
06/17/2015	21:11:40.502	$GPGGA,211141,2543.8831,N,08009.7261,W,1,11,1.5,12,M,,M,,*60
06/17/2015	21:11:41.593	$GPGGA,211142,2543.8831,N,08009.7262,W,1,11,1.5,12,M,,M,,*60
06/17/2015	21:11:42.493	$GPGGA,211143,2543.8831,N,08009.7262,W,1,11,1.5,13,M,,M,,*60
06/17/2015	21:11:43.602	$GPGGA,211144,2543.8831,N,08009.7262,W,1,11,1.5,13,M,,M,,*67
06/17/2015	21:11:44.662	$GPGGA,211145,2543.8833,N,08009.7262,W,1,11,1.5,13,M,,M,,*64
06/17/2015	21:11:45.602	$GPGGA,211146,2543.8832,N,08009.7262,W,1,11,1.5,13,M,,M,,*66
06/17/2015	21:11:46.492	$GPGGA,211147,2543.8833,N,08009.7262,W,1,11,1.5,13,M,,M,,*66
06/17/2015	21:11:47.992	$GPGGA,211148,2543.8832,N,08009.7262,W,1,11,1.5,13,M,,M,,*68
