Software Version Number: 1	Data File Format Number: 1	Build Version Number: 1	Error Count Since VI Started: 3	Manufacturer: Raytheon	 Model Number: RayMarine 120	 S/N: 	 Cal Date: 	 Wind Direction Offset: 0.00	 Slope (M)1: 0.00	 Offset (B)1: 0.00	 Slope (M)2: 0.00	 Offset (B)2: 0.00	 Slope (M)3: 0.00	 Offset (B)3: 0.00	 Slope (M)4: 0.00	 Offset (B)4: 0.00	 Slope (M)5: 0.00	 Offset (B)5: 0.00	 Slope (M)6: 0.00	 Offset (B)6: 0.00
Computer Date	Computer Time	GGA String
06/22/2015	11:00:00.542	$GPGGA,110001,2424.1628,N,08208.2950,W,1,10,1.5,13,M,,M,,*67
06/22/2015	11:00:01.562	$GPGGA,110002,2424.1617,N,08208.2947,W,1,10,1.5,13,M,,M,,*6E
06/22/2015	11:00:02.542	$GPGGA,110003,2424.1606,N,08208.2943,W,1,10,1.5,13,M,,M,,*6B
06/22/2015	11:00:03.532	$GPGGA,110004,2424.1595,N,08208.2938,W,1,10,1.5,13,M,,M,,*69
06/22/2015	11:00:04.642	$GPGGA,110005,2424.1583,N,08208.2934,W,1,10,1.5,13,M,,M,,*63
06/22/2015	11:00:05.632	$GPGGA,110006,2424.1571,N,08208.2932,W,1,10,1.5,13,M,,M,,*6B
06/22/2015	11:00:06.532	$GPGGA,110007,2424.1560,N,08208.2928,W,1,10,1.5,13,M,,M,,*61
06/22/2015	11:00:07.632	$GPGGA,110008,2424.1549,N,08208.2923,W,1,10,1.5,13,M,,M,,*6E
06/22/2015	11:00:08.532	$GPGGA,110009,2424.1537,N,08208.2920,W,1,10,1.5,13,M,,M,,*65
06/22/2015	11:00:09.622	$GPGGA,110010,2424.1525,N,08208.2916,W,1,10,1.5,13,M,,M,,*6B
06/22/2015	11:00:10.512	$GPGGA,110011,2424.1514,N,08208.2912,W,1,10,1.5,13,M,,M,,*6C
06/22/2015	11:00:11.501	$GPGGA,110012,2424.1503,N,08208.2909,W,1,9,1.9,13,M,,M,,*57
06/22/2015	11:00:12.511	$GPGGA,110013,2424.1491,N,08208.2905,W,1,9,1.5,13,M,,M,,*5C
06/22/2015	11:00:13.621	$GPGGA,110014,2424.1480,N,08208.2899,W,1,10,1.5,12,M,,M,,*66
06/22/2015	11:00:14.501	$GPGGA,110015,2424.1469,N,08208.2897,W,1,10,1.5,12,M,,M,,*6E
06/22/2015	11:00:15.641	$GPGGA,110016,2424.1458,N,08208.2896,W,1,10,1.5,12,M,,M,,*6E
06/22/2015	11:00:16.601	$GPGGA,110017,2424.1445,N,08208.2892,W,1,10,1.5,12,M,,M,,*67
06/22/2015	11:00:17.581	$GPGGA,110018,2424.1433,N,08208.2887,W,1,10,1.5,12,M,,M,,*6D
06/22/2015	11:00:18.591	$GPGGA,110019,2424.1422,N,08208.2884,W,1,10,1.5,12,M,,M,,*6F
06/22/2015	11:00:19.641	$GPGGA,110020,2424.1411,N,08208.2884,W,1,10,1.5,12,M,,M,,*65
06/22/2015	11:00:20.577	$GPGGA,110021,2424.1398,N,08208.2881,W,1,10,1.5,12,M,,M,,*67
06/22/2015	11:00:21.601	$GPGGA,110022,2424.1386,N,08208.2876,W,1,10,1.5,12,M,,M,,*63
06/22/2015	11:00:22.576	$GPGGA,110023,2424.1375,N,08208.2873,W,1,10,1.5,12,M,,M,,*6B
06/22/2015	11:00:23.631	$GPGGA,110024,2424.1362,N,08208.2871,W,1,10,1.5,12,M,,M,,*68
06/22/2015	11:00:24.611	$GPGGA,110025,2424.1351,N,08208.2869,W,1,10,1.5,12,M,,M,,*60
06/22/2015	11:00:25.581	$GPGGA,110026,2424.1339,N,08208.2866,W,1,10,1.5,12,M,,M,,*62
06/22/2015	11:00:26.581	$GPGGA,110027,2424.1328,N,08208.2862,W,1,10,1.5,12,M,,M,,*67
06/22/2015	11:00:27.591	$GPGGA,110028,2424.1314,N,08208.2858,W,1,10,1.5,12,M,,M,,*6E
06/22/2015	11:00:28.581	$GPGGA,110029,2424.1303,N,08208.2856,W,1,10,1.5,12,M,,M,,*67
06/22/2015	11:00:29.569	$GPGGA,110030,2424.1290,N,08208.2855,W,1,10,1.5,12,M,,M,,*67
06/22/2015	11:00:30.581	$GPGGA,110031,2424.1278,N,08208.2850,W,1,10,1.5,12,M,,M,,*65
06/22/2015	11:00:31.611	$GPGGA,110032,2424.1266,N,08208.2846,W,1,10,1.5,12,M,,M,,*6E
06/22/2015	11:00:32.582	$GPGGA,110033,2424.1254,N,08208.2845,W,1,10,1.5,12,M,,M,,*6D
06/22/2015	11:00:33.564	$GPGGA,110034,2424.1241,N,08208.2843,W,1,10,1.5,12,M,,M,,*68
06/22/2015	11:00:34.563	$GPGGA,110035,2424.1230,N,08208.2838,W,1,10,1.5,12,M,,M,,*63
06/22/2015	11:00:35.581	$GPGGA,110036,2424.1217,N,08208.2834,W,1,10,1.5,12,M,,M,,*69
06/22/2015	11:00:36.563	$GPGGA,110037,2424.1205,N,08208.2832,W,1,10,1.5,12,M,,M,,*6D
06/22/2015	11:00:37.541	$GPGGA,110038,2424.1191,N,08208.2830,W,1,10,1.5,12,M,,M,,*6E
06/22/2015	11:00:38.551	$GPGGA,110039,2424.1180,N,08208.2826,W,1,10,1.5,12,M,,M,,*68
06/22/2015	11:00:39.564	$GPGGA,110040,2424.1167,N,08208.2821,W,1,10,1.5,12,M,,M,,*68
06/22/2015	11:00:40.541	$GPGGA,110041,2424.1154,N,08208.2819,W,1,10,1.5,12,M,,M,,*62
06/22/2015	11:00:41.531	$GPGGA,110042,2424.1141,N,08208.2817,W,1,10,1.5,12,M,,M,,*6B
06/22/2015	11:00:42.541	$GPGGA,110043,2424.1129,N,08208.2813,W,1,10,1.5,12,M,,M,,*60
06/22/2015	11:00:43.551	$GPGGA,110044,2424.1115,N,08208.2809,W,1,10,1.5,12,M,,M,,*63
06/22/2015	11:00:44.531	$GPGGA,110045,2424.1102,N,08208.2806,W,1,10,1.5,12,M,,M,,*6B
06/22/2015	11:00:45.532	$GPGGA,110046,2424.1089,N,08208.2803,W,1,10,1.5,12,M,,M,,*6F
06/22/2015	11:00:46.521	$GPGGA,110047,2424.1076,N,08208.2800,W,1,10,1.5,12,M,,M,,*6D
06/22/2015	11:00:47.551	$GPGGA,110048,2424.1064,N,08208.2797,W,1,10,1.5,12,M,,M,,*60
06/22/2015	11:00:48.521	$GPGGA,110049,2424.1050,N,08208.2793,W,1,10,1.5,12,M,,M,,*62
06/22/2015	11:00:49.541	$GPGGA,110050,2424.1036,N,08208.2790,W,1,10,1.5,12,M,,M,,*69
06/22/2015	11:00:50.521	$GPGGA,110051,2424.1023,N,08208.2787,W,1,10,1.5,12,M,,M,,*6A
06/22/2015	11:00:51.631	$GPGGA,110052,2424.1010,N,08208.2784,W,1,10,1.5,12,M,,M,,*6A
06/22/2015	11:00:52.521	$GPGGA,110053,2424.0996,N,08208.2780,W,1,10,1.5,12,M,,M,,*69
06/22/2015	11:00:53.522	$GPGGA,110054,2424.0983,N,08208.2777,W,1,10,1.5,12,M,,M,,*62
06/22/2015	11:00:54.511	$GPGGA,110055,2424.0970,N,08208.2775,W,1,10,1.5,12,M,,M,,*6D
06/22/2015	11:00:55.541	$GPGGA,110056,2424.0957,N,08208.2770,W,1,10,1.5,12,M,,M,,*6E
06/22/2015	11:00:56.511	$GPGGA,110057,2424.0943,N,08208.2767,W,1,10,1.5,12,M,,M,,*6C
06/22/2015	11:00:57.631	$GPGGA,110058,2424.0930,N,08208.2765,W,1,10,1.5,12,M,,M,,*65
06/22/2015	11:00:58.521	$GPGGA,110059,2424.0917,N,08208.2763,W,1,10,1.5,12,M,,M,,*67
06/22/2015	11:00:59.663	$GPGGA,110100,2424.0905,N,08208.2759,W,1,10,1.5,12,M,,M,,*60
06/22/2015	11:01:00.601	$GPGGA,110101,2424.0891,N,08208.2754,W,1,10,1.5,12,M,,M,,*60
06/22/2015	11:01:01.631	$GPGGA,110102,2424.0877,N,08208.2752,W,1,10,1.5,12,M,,M,,*6D
06/22/2015	11:01:02.591	$GPGGA,110103,2424.0864,N,08208.2751,W,1,10,1.5,12,M,,M,,*6D
06/22/2015	11:01:03.631	$GPGGA,110104,2424.0851,N,08208.2746,W,1,10,1.5,12,M,,M,,*6A
06/22/2015	11:01:04.601	$GPGGA,110105,2424.0837,N,08208.2741,W,1,10,1.5,12,M,,M,,*6C
06/22/2015	11:01:05.631	$GPGGA,110106,2424.0824,N,08208.2738,W,1,10,1.5,12,M,,M,,*63
06/22/2015	11:01:06.591	$GPGGA,110107,2424.0811,N,08208.2737,W,1,10,1.5,12,M,,M,,*6B
06/22/2015	11:01:07.611	$GPGGA,110108,2424.0797,N,08208.2733,W,1,10,1.5,12,M,,M,,*61
06/22/2015	11:01:08.581	$GPGGA,110109,2424.0783,N,08208.2727,W,1,10,1.5,12,M,,M,,*60
06/22/2015	11:01:09.601	$GPGGA,110110,2424.0770,N,08208.2724,W,1,10,1.5,12,M,,M,,*67
06/22/2015	11:01:10.581	$GPGGA,110111,2424.0757,N,08208.2722,W,1,10,1.5,12,M,,M,,*65
06/22/2015	11:01:11.621	$GPGGA,110112,2424.0742,N,08208.2719,W,1,10,1.5,12,M,,M,,*6A
06/22/2015	11:01:12.575	$GPGGA,110113,2424.0728,N,08208.2713,W,1,10,1.5,12,M,,M,,*6D
06/22/2015	11:01:13.575	$GPGGA,110114,2424.0715,N,08208.2709,W,1,10,1.5,12,M,,M,,*6F
06/22/2015	11:01:14.562	$GPGGA,110115,2424.0701,N,08208.2707,W,1,10,1.5,12,M,,M,,*65
06/22/2015	11:01:15.601	$GPGGA,110116,2424.0687,N,08208.2703,W,1,10,1.5,12,M,,M,,*6D
06/22/2015	11:01:16.571	$GPGGA,110117,2424.0674,N,08208.2698,W,1,10,1.5,12,M,,M,,*63
06/22/2015	11:01:17.584	$GPGGA,110118,2424.0659,N,08208.2694,W,1,10,1.5,12,M,,M,,*6F
06/22/2015	11:01:18.567	$GPGGA,110119,2424.0645,N,08208.2691,W,1,10,1.5,12,M,,M,,*66
06/22/2015	11:01:19.591	$GPGGA,110120,2424.0631,N,08208.2687,W,1,10,1.5,12,M,,M,,*68
06/22/2015	11:01:20.563	$GPGGA,110121,2424.0617,N,08208.2682,W,1,10,1.5,12,M,,M,,*68
06/22/2015	11:01:21.551	$GPGGA,110122,2424.0605,N,08208.2678,W,1,10,1.5,12,M,,M,,*6D
06/22/2015	11:01:22.567	$GPGGA,110123,2424.0591,N,08208.2675,W,1,10,1.5,12,M,,M,,*6F
06/22/2015	11:01:23.601	$GPGGA,110124,2424.0575,N,08208.2670,W,1,10,1.5,12,M,,M,,*67
06/22/2015	11:01:24.551	$GPGGA,110125,2424.0562,N,08208.2666,W,1,10,1.5,12,M,,M,,*67
06/22/2015	11:01:25.551	$GPGGA,110126,2424.0547,N,08208.2662,W,1,10,1.5,12,M,,M,,*67
06/22/2015	11:01:26.551	$GPGGA,110127,2424.0533,N,08208.2659,W,1,10,1.5,12,M,,M,,*6D
06/22/2015	11:01:27.631	$GPGGA,110128,2424.0519,N,08208.2655,W,1,10,1.5,12,M,,M,,*66
06/22/2015	11:01:28.541	$GPGGA,110129,2424.0505,N,08208.2650,W,1,10,1.5,12,M,,M,,*6F
06/22/2015	11:01:29.565	$GPGGA,110130,2424.0491,N,08208.2646,W,1,10,1.5,12,M,,M,,*6C
06/22/2015	11:01:30.531	$GPGGA,110131,2424.0476,N,08208.2643,W,1,10,1.5,12,M,,M,,*61
06/22/2015	11:01:31.621	$GPGGA,110132,2424.0462,N,08208.2640,W,1,10,1.5,12,M,,M,,*64
06/22/2015	11:01:32.521	$GPGGA,110133,2424.0448,N,08208.2636,W,1,10,1.5,12,M,,M,,*6C
06/22/2015	11:01:33.551	$GPGGA,110134,2424.0434,N,08208.2631,W,1,10,1.5,12,M,,M,,*67
06/22/2015	11:01:34.541	$GPGGA,110135,2424.0421,N,08208.2628,W,1,10,1.5,12,M,,M,,*6A
06/22/2015	11:01:35.591	$GPGGA,110136,2424.0405,N,08208.2625,W,1,10,1.5,12,M,,M,,*62
06/22/2015	11:01:36.531	$GPGGA,110137,2424.0392,N,08208.2621,W,1,10,1.5,12,M,,M,,*6E
06/22/2015	11:01:37.551	$GPGGA,110138,2424.0378,N,08208.2617,W,1,10,1.5,12,M,,M,,*60
06/22/2015	11:01:38.621	$GPGGA,110139,2424.0363,N,08208.2612,W,1,10,1.5,12,M,,M,,*6E
06/22/2015	11:01:39.576	$GPGGA,110140,2424.0349,N,08208.2609,W,1,10,1.5,12,M,,M,,*62
06/22/2015	11:01:40.521	$GPGGA,110141,2424.0334,N,08208.2606,W,1,10,1.5,12,M,,M,,*66
06/22/2015	11:01:41.541	$GPGGA,110142,2424.0320,N,08208.2603,W,1,10,1.5,12,M,,M,,*65
06/22/2015	11:01:42.541	$GPGGA,110143,2424.0305,N,08208.2598,W,1,10,1.5,12,M,,M,,*62
06/22/2015	11:01:43.621	$GPGGA,110144,2424.0291,N,08208.2594,W,1,10,1.5,12,M,,M,,*65
06/22/2015	11:01:44.611	$GPGGA,110145,2424.0276,N,08208.2591,W,1,10,1.5,12,M,,M,,*68
06/22/2015	11:01:45.601	$GPGGA,110146,2424.0262,N,08208.2588,W,1,10,1.5,12,M,,M,,*66
06/22/2015	11:01:46.521	$GPGGA,110147,2424.0262,N,08208.2588,W,1,10,1.5,12,M,,M,,*67
06/22/2015	11:01:47.621	$GPGGA,110148,2424.0233,N,08208.2579,W,1,10,1.5,12,M,,M,,*62
06/22/2015	11:01:48.601	$GPGGA,110149,2424.0219,N,08208.2574,W,1,10,1.5,12,M,,M,,*66
06/22/2015	11:01:49.591	$GPGGA,110150,2424.0204,N,08208.2573,W,1,10,1.5,12,M,,M,,*65
06/22/2015	11:01:50.601	$GPGGA,110151,2424.0190,N,08208.2570,W,1,10,1.5,12,M,,M,,*69
06/22/2015	11:01:51.621	$GPGGA,110152,2424.0175,N,08208.2564,W,1,10,1.5,12,M,,M,,*64
06/22/2015	11:01:52.591	$GPGGA,110153,2424.0161,N,08208.2559,W,1,10,1.5,12,M,,M,,*6E
06/22/2015	11:01:53.601	$GPGGA,110154,2424.0147,N,08208.2557,W,1,10,1.5,12,M,,M,,*63
06/22/2015	11:01:54.591	$GPGGA,110155,2424.0132,N,08208.2555,W,1,10,1.5,12,M,,M,,*62
06/22/2015	11:01:55.612	$GPGGA,110156,2424.0118,N,08208.2549,W,1,10,1.5,12,M,,M,,*64
06/22/2015	11:01:56.591	$GPGGA,110157,2424.0105,N,08208.2543,W,1,10,1.5,12,M,,M,,*63
06/22/2015	11:01:57.601	$GPGGA,110158,2424.0092,N,08208.2541,W,1,10,1.5,12,M,,M,,*61
06/22/2015	11:01:58.578	$GPGGA,110159,2424.0076,N,08208.2537,W,1,10,1.5,12,M,,M,,*6B
06/22/2015	11:01:59.651	$GPGGA,110200,2424.0062,N,08208.2533,W,1,10,1.5,12,M,,M,,*65
06/22/2015	11:02:00.579	$GPGGA,110201,2424.0049,N,08208.2529,W,1,10,1.5,12,M,,M,,*66
06/22/2015	11:02:01.601	$GPGGA,110202,2424.0034,N,08208.2525,W,1,10,1.5,12,M,,M,,*63
06/22/2015	11:02:02.571	$GPGGA,110203,2424.0020,N,08208.2520,W,1,10,1.5,12,M,,M,,*62
06/22/2015	11:02:03.601	$GPGGA,110204,2424.0005,N,08208.2517,W,1,10,1.5,12,M,,M,,*66
06/22/2015	11:02:04.577	$GPGGA,110205,2423.9991,N,08208.2515,W,1,10,1.5,12,M,,M,,*6F
06/22/2015	11:02:05.562	$GPGGA,110206,2423.9977,N,08208.2511,W,1,10,1.5,12,M,,M,,*60
06/22/2015	11:02:06.576	$GPGGA,110207,2423.9962,N,08208.2505,W,1,10,1.5,12,M,,M,,*60
06/22/2015	11:02:07.601	$GPGGA,110208,2423.9948,N,08208.2502,W,1,10,1.5,11,M,,M,,*63
06/22/2015	11:02:08.563	$GPGGA,110209,2423.9933,N,08208.2501,W,1,10,1.5,11,M,,M,,*6D
06/22/2015	11:02:09.572	$GPGGA,110210,2423.9919,N,08208.2496,W,1,10,1.5,11,M,,M,,*62
06/22/2015	11:02:10.564	$GPGGA,110211,2423.9905,N,08208.2491,W,1,10,1.5,11,M,,M,,*69
06/22/2015	11:02:11.581	$GPGGA,110212,2423.9891,N,08208.2489,W,1,10,1.5,11,M,,M,,*6F
06/22/2015	11:02:12.551	$GPGGA,110213,2423.9877,N,08208.2487,W,1,10,1.5,11,M,,M,,*68
06/22/2015	11:02:13.541	$GPGGA,110214,2423.9862,N,08208.2481,W,1,10,1.5,11,M,,M,,*6D
06/22/2015	11:02:14.551	$GPGGA,110215,2423.9850,N,08208.2478,W,1,10,1.5,11,M,,M,,*6B
06/22/2015	11:02:15.551	$GPGGA,110216,2423.9834,N,08208.2475,W,1,10,1.5,11,M,,M,,*67
06/22/2015	11:02:16.551	$GPGGA,110217,2423.9820,N,08208.2471,W,1,10,1.5,11,M,,M,,*67
06/22/2015	11:02:17.551	$GPGGA,110218,2423.9807,N,08208.2467,W,1,10,1.5,11,M,,M,,*6A
06/22/2015	11:02:18.541	$GPGGA,110219,2423.9791,N,08208.2464,W,1,10,1.5,11,M,,M,,*68
06/22/2015	11:02:19.581	$GPGGA,110220,2423.9778,N,08208.2460,W,1,10,1.5,11,M,,M,,*61
06/22/2015	11:02:20.541	$GPGGA,110221,2423.9763,N,08208.2457,W,1,10,1.5,11,M,,M,,*6E
06/22/2015	11:02:21.531	$GPGGA,110222,2423.9749,N,08208.2453,W,1,10,1.5,11,M,,M,,*61
06/22/2015	11:02:22.531	$GPGGA,110223,2423.9735,N,08208.2449,W,1,10,1.5,11,M,,M,,*60
06/22/2015	11:02:23.562	$GPGGA,110224,2423.9720,N,08208.2446,W,1,10,1.5,11,M,,M,,*6C
06/22/2015	11:02:24.521	$GPGGA,110225,2423.9706,N,08208.2443,W,1,10,1.5,11,M,,M,,*6C
06/22/2015	11:02:25.541	$GPGGA,110226,2423.9692,N,08208.2439,W,1,10,1.5,11,M,,M,,*6E
06/22/2015	11:02:26.521	$GPGGA,110227,2423.9678,N,08208.2435,W,1,10,1.5,11,M,,M,,*67
06/22/2015	11:02:27.631	$GPGGA,110228,2423.9663,N,08208.2432,W,1,10,1.5,11,M,,M,,*65
06/22/2015	11:02:28.511	$GPGGA,110229,2423.9649,N,08208.2430,W,1,10,1.5,11,M,,M,,*6E
06/22/2015	11:02:29.531	$GPGGA,110230,2423.9635,N,08208.2426,W,1,10,1.5,11,M,,M,,*6A
06/22/2015	11:02:30.532	$GPGGA,110231,2423.9620,N,08208.2422,W,1,10,1.5,11,M,,M,,*6B
06/22/2015	11:02:31.541	$GPGGA,110232,2423.9606,N,08208.2420,W,1,10,1.5,11,M,,M,,*6E
06/22/2015	11:02:32.501	$GPGGA,110233,2423.9592,N,08208.2416,W,1,10,1.5,11,M,,M,,*64
06/22/2015	11:02:33.611	$GPGGA,110234,2423.9579,N,08208.2412,W,1,10,1.5,11,M,,M,,*62
06/22/2015	11:02:34.521	$GPGGA,110235,2423.9563,N,08208.2409,W,1,10,1.5,11,M,,M,,*62
06/22/2015	11:02:35.651	$GPGGA,110236,2423.9549,N,08208.2407,W,1,10,1.5,11,M,,M,,*67
06/22/2015	11:02:36.591	$GPGGA,110237,2423.9534,N,08208.2403,W,1,10,1.5,11,M,,M,,*68
06/22/2015	11:02:37.631	$GPGGA,110238,2423.9520,N,08208.2398,W,1,10,1.5,11,M,,M,,*67
06/22/2015	11:02:38.601	$GPGGA,110239,2423.9507,N,08208.2396,W,1,10,1.5,11,M,,M,,*6D
06/22/2015	11:02:39.641	$GPGGA,110240,2423.9491,N,08208.2394,W,1,10,1.5,11,M,,M,,*6F
06/22/2015	11:02:40.581	$GPGGA,110241,2423.9478,N,08208.2389,W,1,10,1.5,11,M,,M,,*65
06/22/2015	11:02:41.611	$GPGGA,110242,2423.9464,N,08208.2385,W,1,10,1.5,11,M,,M,,*67
06/22/2015	11:02:42.581	$GPGGA,110243,2423.9449,N,08208.2383,W,1,10,1.5,11,M,,M,,*6F
06/22/2015	11:02:43.601	$GPGGA,110244,2423.9435,N,08208.2379,W,1,10,1.5,11,M,,M,,*66
06/22/2015	11:02:44.591	$GPGGA,110245,2423.9420,N,08208.2375,W,1,10,1.5,11,M,,M,,*6F
06/22/2015	11:02:45.591	$GPGGA,110246,2423.9406,N,08208.2372,W,1,10,1.5,11,M,,M,,*6F
06/22/2015	11:02:46.581	$GPGGA,110247,2423.9390,N,08208.2369,W,1,10,1.5,11,M,,M,,*6C
06/22/2015	11:02:47.601	$GPGGA,110248,2423.9377,N,08208.2364,W,1,10,1.5,11,M,,M,,*67
06/22/2015	11:02:48.581	$GPGGA,110249,2423.9362,N,08208.2360,W,1,10,1.5,11,M,,M,,*66
06/22/2015	11:02:49.591	$GPGGA,110250,2423.9348,N,08208.2359,W,1,10,1.5,11,M,,M,,*6C
06/22/2015	11:02:50.571	$GPGGA,110251,2423.9333,N,08208.2354,W,1,10,1.5,11,M,,M,,*6C
06/22/2015	11:02:51.591	$GPGGA,110252,2423.9319,N,08208.2349,W,1,10,1.5,11,M,,M,,*6B
06/22/2015	11:02:52.563	$GPGGA,110253,2423.9305,N,08208.2346,W,1,10,1.5,11,M,,M,,*68
06/22/2015	11:02:53.567	$GPGGA,110254,2423.9290,N,08208.2343,W,1,10,1.5,11,M,,M,,*67
06/22/2015	11:02:54.570	$GPGGA,110255,2423.9276,N,08208.2340,W,1,10,1.9,11,M,,M,,*61
06/22/2015	11:02:55.611	$GPGGA,110256,2423.9260,N,08208.2337,W,1,10,1.5,11,M,,M,,*69
06/22/2015	11:02:56.563	$GPGGA,110257,2423.9245,N,08208.2333,W,1,10,1.5,11,M,,M,,*6B
06/22/2015	11:02:57.551	$GPGGA,110258,2423.9231,N,08208.2329,W,1,10,1.5,11,M,,M,,*6C
06/22/2015	11:02:58.564	$GPGGA,110259,2423.9216,N,08208.2327,W,1,10,1.5,11,M,,M,,*66
06/22/2015	11:02:59.591	$GPGGA,110300,2423.9202,N,08208.2323,W,1,10,1.5,11,M,,M,,*6A
06/22/2015	11:03:00.551	$GPGGA,110301,2423.9187,N,08208.2319,W,1,10,1.5,11,M,,M,,*6C
06/22/2015	11:03:01.541	$GPGGA,110302,2423.9172,N,08208.2315,W,1,10,1.5,11,M,,M,,*69
06/22/2015	11:03:02.551	$GPGGA,110303,2423.9158,N,08208.2311,W,1,10,1.5,11,M,,M,,*64
06/22/2015	11:03:03.581	$GPGGA,110304,2423.9143,N,08208.2308,W,1,10,1.5,11,M,,M,,*61
06/22/2015	11:03:04.551	$GPGGA,110305,2423.9128,N,08208.2305,W,1,10,1.5,11,M,,M,,*60
06/22/2015	11:03:05.582	$GPGGA,110306,2423.9114,N,08208.2300,W,1,10,1.5,12,M,,M,,*6A
06/22/2015	11:03:06.541	$GPGGA,110307,2423.9099,N,08208.2296,W,1,10,1.5,12,M,,M,,*61
06/22/2015	11:03:07.564	$GPGGA,110308,2423.9085,N,08208.2294,W,1,10,1.5,12,M,,M,,*61
06/22/2015	11:03:08.531	$GPGGA,110309,2423.9071,N,08208.2290,W,1,10,1.5,12,M,,M,,*6F
06/22/2015	11:03:09.541	$GPGGA,110310,2423.9056,N,08208.2285,W,1,10,1.5,12,M,,M,,*66
06/22/2015	11:03:10.542	$GPGGA,110311,2423.9041,N,08208.2281,W,1,10,1.5,12,M,,M,,*65
06/22/2015	11:03:11.531	$GPGGA,110312,2423.9027,N,08208.2280,W,1,10,1.5,12,M,,M,,*67
06/22/2015	11:03:12.641	$GPGGA,110313,2423.9013,N,08208.2276,W,1,10,1.5,12,M,,M,,*68
06/22/2015	11:03:13.541	$GPGGA,110314,2423.8998,N,08208.2271,W,1,10,1.5,12,M,,M,,*63
06/22/2015	11:03:14.541	$GPGGA,110315,2423.8984,N,08208.2267,W,1,10,1.5,12,M,,M,,*68
06/22/2015	11:03:15.621	$GPGGA,110316,2423.8970,N,08208.2265,W,1,10,1.5,12,M,,M,,*62
06/22/2015	11:03:16.511	$GPGGA,110317,2423.8955,N,08208.2260,W,1,10,1.5,12,M,,M,,*61
06/22/2015	11:03:17.642	$GPGGA,110318,2423.8941,N,08208.2256,W,1,10,1.5,12,M,,M,,*6E
06/22/2015	11:03:18.531	$GPGGA,110319,2423.8927,N,08208.2253,W,1,10,1.5,13,M,,M,,*6B
06/22/2015	11:03:19.521	$GPGGA,110320,2423.8912,N,08208.2250,W,1,10,1.5,13,M,,M,,*64
06/22/2015	11:03:20.511	$GPGGA,110321,2423.8898,N,08208.2246,W,1,10,1.5,13,M,,M,,*61
06/22/2015	11:03:21.601	$GPGGA,110322,2423.8884,N,08208.2243,W,1,10,1.5,13,M,,M,,*6A
06/22/2015	11:03:22.521	$GPGGA,110323,2423.8871,N,08208.2238,W,1,10,1.5,13,M,,M,,*6D
06/22/2015	11:03:23.621	$GPGGA,110324,2423.8857,N,08208.2234,W,1,10,1.5,13,M,,M,,*62
06/22/2015	11:03:24.591	$GPGGA,110325,2423.8842,N,08208.2232,W,1,10,1.5,13,M,,M,,*61
06/22/2015	11:03:25.601	$GPGGA,110326,2423.8828,N,08208.2229,W,1,10,1.5,13,M,,M,,*64
06/22/2015	11:03:26.591	$GPGGA,110327,2423.8813,N,08208.2223,W,1,10,1.5,13,M,,M,,*67
06/22/2015	11:03:27.631	$GPGGA,110328,2423.8799,N,08208.2219,W,1,10,1.5,13,M,,M,,*6C
06/22/2015	11:03:28.581	$GPGGA,110329,2423.8785,N,08208.2218,W,1,10,1.5,13,M,,M,,*61
06/22/2015	11:03:29.611	$GPGGA,110330,2423.8771,N,08208.2215,W,1,10,1.5,13,M,,M,,*6F
06/22/2015	11:03:30.582	$GPGGA,110331,2423.8757,N,08208.2208,W,1,10,1.5,13,M,,M,,*66
06/22/2015	11:03:31.621	$GPGGA,110332,2423.8743,N,08208.2204,W,1,10,1.5,13,M,,M,,*6C
06/22/2015	11:03:32.584	$GPGGA,110333,2423.8728,N,08208.2203,W,1,10,1.5,13,M,,M,,*67
06/22/2015	11:03:33.601	$GPGGA,110334,2423.8714,N,08208.2200,W,1,10,1.5,13,M,,M,,*6C
06/22/2015	11:03:34.577	$GPGGA,110335,2423.8700,N,08208.2194,W,1,10,1.5,13,M,,M,,*66
06/22/2015	11:03:35.611	$GPGGA,110336,2423.8687,N,08208.2190,W,1,10,1.5,13,M,,M,,*6F
06/22/2015	11:03:36.571	$GPGGA,110337,2423.8672,N,08208.2188,W,1,10,1.5,13,M,,M,,*6D
06/22/2015	11:03:37.591	$GPGGA,110338,2423.8658,N,08208.2186,W,1,10,1.5,13,M,,M,,*64
06/22/2015	11:03:38.577	$GPGGA,110339,2423.8644,N,08208.2181,W,1,10,1.5,13,M,,M,,*6F
06/22/2015	11:03:39.611	$GPGGA,110340,2423.8629,N,08208.2176,W,1,10,1.5,13,M,,M,,*62
06/22/2015	11:03:40.578	$GPGGA,110341,2423.8616,N,08208.2173,W,1,10,1.5,13,M,,M,,*6A
06/22/2015	11:03:41.584	$GPGGA,110342,2423.8602,N,08208.2172,W,1,10,1.5,13,M,,M,,*6D
06/22/2015	11:03:42.568	$GPGGA,110343,2423.8587,N,08208.2168,W,1,10,1.5,13,M,,M,,*69
06/22/2015	11:03:43.585	$GPGGA,110344,2423.8573,N,08208.2162,W,1,10,1.5,13,M,,M,,*6F
06/22/2015	11:03:44.577	$GPGGA,110345,2423.8559,N,08208.2160,W,1,10,1.5,13,M,,M,,*64
06/22/2015	11:03:45.591	$GPGGA,110346,2423.8546,N,08208.2158,W,1,10,1.5,13,M,,M,,*62
06/22/2015	11:03:46.562	$GPGGA,110347,2423.8531,N,08208.2154,W,1,10,1.5,13,M,,M,,*6F
06/22/2015	11:03:47.564	$GPGGA,110348,2423.8517,N,08208.2149,W,1,10,1.5,13,M,,M,,*68
06/22/2015	11:03:48.541	$GPGGA,110349,2423.8503,N,08208.2146,W,1,10,1.5,13,M,,M,,*63
06/22/2015	11:03:49.873	$GPGGA,110350,2423.8488,N,08208.2145,W,1,10,1.5,13,M,,M,,*6A
06/22/2015	11:03:50.541	$GPGGA,110351,2423.8475,N,08208.2141,W,1,10,1.5,13,M,,M,,*6D
06/22/2015	11:03:51.551	$GPGGA,110352,2423.8460,N,08208.2137,W,1,10,1.5,13,M,,M,,*6B
06/22/2015	11:03:52.531	$GPGGA,110353,2423.8446,N,08208.2133,W,1,10,1.5,13,M,,M,,*6A
06/22/2015	11:03:53.541	$GPGGA,110354,2423.8432,N,08208.2132,W,1,10,1.5,13,M,,M,,*6F
06/22/2015	11:03:54.541	$GPGGA,110355,2423.8418,N,08208.2129,W,1,10,1.5,13,M,,M,,*6C
06/22/2015	11:03:55.551	$GPGGA,110356,2423.8405,N,08208.2124,W,1,10,1.5,13,M,,M,,*6E
06/22/2015	11:03:56.567	$GPGGA,110357,2423.8391,N,08208.2121,W,1,10,1.5,13,M,,M,,*60
06/22/2015	11:03:57.712	$GPGGA,110358,2423.8376,N,08208.2119,W,1,10,1.5,13,M,,M,,*6D
06/22/2015	11:03:58.531	$GPGGA,110359,2423.8362,N,08208.2115,W,1,10,1.5,13,M,,M,,*65
06/22/2015	11:03:59.551	$GPGGA,110400,2423.8347,N,08208.2111,W,1,10,1.5,13,M,,M,,*6D
06/22/2015	11:04:00.531	$GPGGA,110401,2423.8333,N,08208.2108,W,1,10,1.5,13,M,,M,,*67
06/22/2015	11:04:01.541	$GPGGA,110402,2423.8318,N,08208.2104,W,1,10,1.5,13,M,,M,,*61
06/22/2015	11:04:02.611	$GPGGA,110403,2423.8304,N,08208.2101,W,1,10,1.5,13,M,,M,,*68
06/22/2015	11:04:03.531	$GPGGA,110404,2423.8290,N,08208.2098,W,1,10,1.5,13,M,,M,,*62
06/22/2015	11:04:04.511	$GPGGA,110405,2423.8275,N,08208.2095,W,1,10,1.5,13,M,,M,,*65
06/22/2015	11:04:05.531	$GPGGA,110406,2423.8260,N,08208.2090,W,1,10,1.5,13,M,,M,,*67
06/22/2015	11:04:06.511	$GPGGA,110407,2423.8246,N,08208.2086,W,1,10,1.5,13,M,,M,,*65
06/22/2015	11:04:07.541	$GPGGA,110408,2423.8232,N,08208.2085,W,1,10,1.5,13,M,,M,,*6A
06/22/2015	11:04:08.501	$GPGGA,110409,2423.8218,N,08208.2082,W,1,10,1.5,13,M,,M,,*64
06/22/2015	11:04:09.691	$GPGGA,110410,2423.8204,N,08208.2076,W,1,10,1.5,13,M,,M,,*6A
06/22/2015	11:04:10.601	$GPGGA,110411,2423.8190,N,08208.2073,W,1,10,1.5,13,M,,M,,*60
06/22/2015	11:04:11.711	$GPGGA,110412,2423.8176,N,08208.2072,W,1,10,1.5,13,M,,M,,*6A
06/22/2015	11:04:12.521	$GPGGA,110413,2423.8161,N,08208.2068,W,1,10,1.5,13,M,,M,,*66
06/22/2015	11:04:14.621	$GPGGA,110415,2423.8132,N,08208.2061,W,1,10,1.5,13,M,,M,,*6F
06/22/2015	11:04:15.711	$GPGGA,110416,2423.8118,N,08208.2057,W,1,10,1.5,12,M,,M,,*60
06/22/2015	11:04:16.641	$GPGGA,110417,2423.8105,N,08208.2054,W,1,10,1.5,12,M,,M,,*6E
06/22/2015	11:04:17.962	$GPGGA,110418,2423.8091,N,08208.2051,W,1,10,1.5,12,M,,M,,*68
06/22/2015	11:04:18.581	$GPGGA,110419,2423.8075,N,08208.2047,W,1,10,1.5,12,M,,M,,*64
06/22/2015	11:04:19.701	$GPGGA,110420,2423.8062,N,08208.2043,W,1,10,1.5,12,M,,M,,*6C
06/22/2015	11:04:20.581	$GPGGA,110421,2423.8047,N,08208.2040,W,1,10,1.5,12,M,,M,,*69
06/22/2015	11:04:21.691	$GPGGA,110422,2423.8033,N,08208.2037,W,1,10,1.5,12,M,,M,,*69
06/22/2015	11:04:22.581	$GPGGA,110423,2423.8018,N,08208.2033,W,1,10,1.5,12,M,,M,,*65
06/22/2015	11:04:23.701	$GPGGA,110424,2423.8004,N,08208.2029,W,1,10,1.5,12,M,,M,,*64
06/22/2015	11:04:24.601	$GPGGA,110425,2423.7990,N,08208.2025,W,1,10,1.5,12,M,,M,,*62
06/22/2015	11:04:25.631	$GPGGA,110426,2423.7975,N,08208.2021,W,1,10,1.5,12,M,,M,,*6E
06/22/2015	11:04:26.601	$GPGGA,110427,2423.7961,N,08208.2018,W,1,10,1.5,12,M,,M,,*60
06/22/2015	11:04:27.574	$GPGGA,110428,2423.7946,N,08208.2015,W,1,10,1.5,12,M,,M,,*67
06/22/2015	11:04:28.565	$GPGGA,110429,2423.7932,N,08208.2010,W,1,10,1.5,12,M,,M,,*60
06/22/2015	11:04:29.565	$GPGGA,110430,2423.7917,N,08208.2006,W,1,10,1.5,12,M,,M,,*68
06/22/2015	11:04:30.563	$GPGGA,110431,2423.7903,N,08208.2004,W,1,10,1.5,12,M,,M,,*6E
06/22/2015	11:04:31.691	$GPGGA,110432,2423.7889,N,08208.2000,W,1,10,1.5,12,M,,M,,*6A
06/22/2015	11:04:32.565	$GPGGA,110433,2423.7874,N,08208.1996,W,1,10,1.5,12,M,,M,,*6C
06/22/2015	11:04:33.621	$GPGGA,110434,2423.7860,N,08208.1992,W,1,10,1.5,12,M,,M,,*6A
06/22/2015	11:04:34.581	$GPGGA,110435,2423.7845,N,08208.1988,W,1,10,1.5,12,M,,M,,*67
06/22/2015	11:04:35.563	$GPGGA,110436,2423.7831,N,08208.1985,W,1,10,1.5,12,M,,M,,*6A
06/22/2015	11:04:36.581	$GPGGA,110437,2423.7816,N,08208.1981,W,1,10,1.5,12,M,,M,,*6A
06/22/2015	11:04:37.651	$GPGGA,110438,2423.7802,N,08208.1976,W,1,10,1.5,12,M,,M,,*68
06/22/2015	11:04:38.541	$GPGGA,110439,2423.7787,N,08208.1973,W,1,10,1.5,12,M,,M,,*6E
06/22/2015	11:04:39.665	$GPGGA,110440,2423.7773,N,08208.1969,W,1,10,1.5,12,M,,M,,*60
06/22/2015	11:04:41.097	$GPGGA,110441,2423.7758,N,08208.1965,W,1,10,1.5,12,M,,M,,*64
06/22/2015	11:04:41.651	$GPGGA,110442,2423.7744,N,08208.1961,W,1,10,1.5,12,M,,M,,*6E
06/22/2015	11:04:42.578	$GPGGA,110443,2423.7729,N,08208.1957,W,1,10,1.5,12,M,,M,,*61
06/22/2015	11:04:43.651	$GPGGA,110444,2423.7715,N,08208.1954,W,1,10,1.5,12,M,,M,,*6A
06/22/2015	11:04:44.575	$GPGGA,110445,2423.7701,N,08208.1949,W,1,10,1.5,12,M,,M,,*62
06/22/2015	11:04:45.531	$GPGGA,110446,2423.7687,N,08208.1944,W,1,10,1.5,12,M,,M,,*63
06/22/2015	11:04:46.581	$GPGGA,110447,2423.7672,N,08208.1940,W,1,10,1.5,12,M,,M,,*6C
06/22/2015	11:04:48.551	$GPGGA,110449,2423.7644,N,08208.1933,W,1,10,1.5,12,M,,M,,*63
06/22/2015	11:04:49.611	$GPGGA,110450,2423.7630,N,08208.1928,W,1,10,1.5,12,M,,M,,*62
06/22/2015	11:04:50.551	$GPGGA,110451,2423.7615,N,08208.1924,W,1,10,1.5,12,M,,M,,*68
06/22/2015	11:04:51.621	$GPGGA,110452,2423.7601,N,08208.1921,W,1,10,1.5,12,M,,M,,*6B
06/22/2015	11:04:52.551	$GPGGA,110453,2423.7587,N,08208.1916,W,1,10,1.5,12,M,,M,,*63
06/22/2015	11:04:53.611	$GPGGA,110454,2423.7572,N,08208.1912,W,1,10,1.5,12,M,,M,,*6A
06/22/2015	11:04:54.541	$GPGGA,110455,2423.7558,N,08208.1910,W,1,10,1.5,12,M,,M,,*61
06/22/2015	11:04:55.641	$GPGGA,110456,2423.7544,N,08208.1906,W,1,10,1.5,12,M,,M,,*68
06/22/2015	11:04:56.541	$GPGGA,110457,2423.7529,N,08208.1902,W,1,10,1.5,12,M,,M,,*66
06/22/2015	11:04:57.621	$GPGGA,110458,2423.7515,N,08208.1899,W,1,10,1.5,12,M,,M,,*65
06/22/2015	11:04:58.601	$GPGGA,110459,2423.7502,N,08208.1896,W,1,10,1.5,11,M,,M,,*6E
06/22/2015	11:04:59.621	$GPGGA,110500,2423.7486,N,08208.1891,W,1,10,1.5,11,M,,M,,*69
06/22/2015	11:05:00.587	$GPGGA,110501,2423.7473,N,08208.1887,W,1,10,1.5,11,M,,M,,*65
06/22/2015	11:05:01.641	$GPGGA,110502,2423.7457,N,08208.1884,W,1,10,1.5,11,M,,M,,*63
06/22/2015	11:05:02.601	$GPGGA,110503,2423.7444,N,08208.1881,W,1,10,1.5,11,M,,M,,*65
06/22/2015	11:05:03.611	$GPGGA,110504,2423.7428,N,08208.1876,W,1,10,1.5,11,M,,M,,*60
06/22/2015	11:05:04.601	$GPGGA,110505,2423.7415,N,08208.1873,W,1,10,1.5,11,M,,M,,*6A
06/22/2015	11:05:05.911	$GPGGA,110506,2423.7401,N,08208.1870,W,1,10,1.5,11,M,,M,,*6F
06/22/2015	11:05:06.591	$GPGGA,110507,2423.7385,N,08208.1867,W,1,10,1.5,11,M,,M,,*63
06/22/2015	11:05:07.612	$GPGGA,110508,2423.7372,N,08208.1863,W,1,10,1.5,11,M,,M,,*60
06/22/2015	11:05:08.580	$GPGGA,110509,2423.7356,N,08208.1859,W,1,10,1.5,11,M,,M,,*6E
06/22/2015	11:05:09.631	$GPGGA,110510,2423.7343,N,08208.1858,W,1,10,1.5,11,M,,M,,*63
06/22/2015	11:05:10.587	$GPGGA,110511,2423.7328,N,08208.1855,W,1,10,1.5,11,M,,M,,*62
06/22/2015	11:05:11.631	$GPGGA,110512,2423.7314,N,08208.1850,W,1,10,1.5,11,M,,M,,*6B
06/22/2015	11:05:12.581	$GPGGA,110513,2423.7299,N,08208.1847,W,1,10,1.5,11,M,,M,,*68
06/22/2015	11:05:13.611	$GPGGA,110514,2423.7285,N,08208.1846,W,1,10,1.5,11,M,,M,,*63
06/22/2015	11:05:14.581	$GPGGA,110515,2423.7271,N,08208.1841,W,1,10,1.5,11,M,,M,,*6E
06/22/2015	11:05:15.621	$GPGGA,110516,2423.7256,N,08208.1837,W,1,10,1.5,11,M,,M,,*69
06/22/2015	11:05:16.580	$GPGGA,110517,2423.7242,N,08208.1835,W,1,10,1.5,11,M,,M,,*6F
06/22/2015	11:05:17.579	$GPGGA,110518,2423.7242,N,08208.1835,W,1,10,1.5,11,M,,M,,*60
06/22/2015	11:05:18.574	$GPGGA,110519,2423.7213,N,08208.1828,W,1,10,1.5,11,M,,M,,*69
06/22/2015	11:05:19.621	$GPGGA,110520,2423.7198,N,08208.1825,W,1,10,1.5,11,M,,M,,*6E
06/22/2015	11:05:20.575	$GPGGA,110521,2423.7184,N,08208.1822,W,1,10,1.5,11,M,,M,,*65
06/22/2015	11:05:21.641	$GPGGA,110522,2423.7169,N,08208.1817,W,1,10,1.5,10,M,,M,,*62
06/22/2015	11:05:22.574	$GPGGA,110523,2423.7155,N,08208.1814,W,1,10,1.5,10,M,,M,,*6F
06/22/2015	11:05:23.621	$GPGGA,110524,2423.7141,N,08208.1811,W,1,10,1.5,10,M,,M,,*68
06/22/2015	11:05:24.551	$GPGGA,110525,2423.7126,N,08208.1807,W,1,10,1.5,10,M,,M,,*6F
06/22/2015	11:05:25.601	$GPGGA,110526,2423.7112,N,08208.1802,W,1,10,1.5,10,M,,M,,*6E
06/22/2015	11:05:26.561	$GPGGA,110527,2423.7097,N,08208.1799,W,1,10,1.5,10,M,,M,,*6E
06/22/2015	11:05:27.591	$GPGGA,110528,2423.7097,N,08208.1799,W,1,10,1.5,10,M,,M,,*61
06/22/2015	11:05:28.562	$GPGGA,110529,2423.7068,N,08208.1791,W,1,10,1.5,10,M,,M,,*68
06/22/2015	11:05:29.601	$GPGGA,110530,2423.7054,N,08208.1786,W,1,10,1.5,10,M,,M,,*69
06/22/2015	11:05:30.551	$GPGGA,110531,2423.7039,N,08208.1783,W,1,10,1.5,10,M,,M,,*66
06/22/2015	11:05:31.611	$GPGGA,110532,2423.7025,N,08208.1779,W,1,10,1.5,10,M,,M,,*6D
06/22/2015	11:05:32.652	$GPGGA,110533,2423.7010,N,08208.1774,W,1,10,1.5,10,M,,M,,*67
06/22/2015	11:05:33.551	$GPGGA,110534,2423.7010,N,08208.1774,W,1,10,1.5,10,M,,M,,*60
06/22/2015	11:05:34.551	$GPGGA,110535,2423.6982,N,08208.1767,W,1,10,1.5,10,M,,M,,*60
06/22/2015	11:05:35.575	$GPGGA,110536,2423.6982,N,08208.1767,W,1,10,1.5,10,M,,M,,*63
06/22/2015	11:05:36.532	$GPGGA,110537,2423.6953,N,08208.1757,W,1,10,1.5,10,M,,M,,*6D
06/22/2015	11:05:37.531	$GPGGA,110538,2423.6953,N,08208.1757,W,1,10,1.5,10,M,,M,,*62
06/22/2015	11:05:38.521	$GPGGA,110539,2423.6924,N,08208.1750,W,1,10,1.5,10,M,,M,,*64
06/22/2015	11:05:39.565	$GPGGA,110540,2423.6924,N,08208.1750,W,1,10,1.5,10,M,,M,,*6A
06/22/2015	11:05:40.611	$GPGGA,110541,2423.6895,N,08208.1742,W,1,10,1.5,10,M,,M,,*63
06/22/2015	11:05:41.621	$GPGGA,110542,2423.6880,N,08208.1737,W,1,10,1.5,10,M,,M,,*66
06/22/2015	11:05:42.522	$GPGGA,110543,2423.6866,N,08208.1732,W,1,10,1.5,10,M,,M,,*6A
06/22/2015	11:05:43.651	$GPGGA,110544,2423.6852,N,08208.1729,W,1,10,1.5,10,M,,M,,*60
06/22/2015	11:05:44.601	$GPGGA,110545,2423.6837,N,08208.1726,W,1,10,1.5,10,M,,M,,*6D
06/22/2015	11:05:45.641	$GPGGA,110546,2423.6823,N,08208.1721,W,1,10,1.5,10,M,,M,,*6C
06/22/2015	11:05:46.511	$GPGGA,110547,2423.6807,N,08208.1716,W,1,10,1.5,10,M,,M,,*6F
06/22/2015	11:05:47.651	$GPGGA,110548,2423.6794,N,08208.1714,W,1,10,1.5,10,M,,M,,*67
06/22/2015	11:05:48.601	$GPGGA,110549,2423.6778,N,08208.1711,W,1,10,1.5,10,M,,M,,*61
06/22/2015	11:05:49.631	$GPGGA,110550,2423.6765,N,08208.1705,W,1,10,1.5,10,M,,M,,*60
06/22/2015	11:05:50.591	$GPGGA,110551,2423.6750,N,08208.1700,W,1,10,1.5,10,M,,M,,*62
06/22/2015	11:05:51.632	$GPGGA,110552,2423.6736,N,08208.1699,W,1,10,1.5,10,M,,M,,*60
06/22/2015	11:05:52.591	$GPGGA,110553,2423.6721,N,08208.1695,W,1,10,1.5,10,M,,M,,*6B
06/22/2015	11:05:53.621	$GPGGA,110554,2423.6707,N,08208.1690,W,1,10,1.5,10,M,,M,,*6D
06/22/2015	11:05:54.591	$GPGGA,110555,2423.6693,N,08208.1686,W,1,10,1.5,10,M,,M,,*67
06/22/2015	11:05:55.591	$GPGGA,110556,2423.6679,N,08208.1683,W,1,10,1.5,10,M,,M,,*65
06/22/2015	11:05:56.581	$GPGGA,110557,2423.6664,N,08208.1680,W,1,10,1.5,10,M,,M,,*6B
06/22/2015	11:05:58.031	$GPGGA,110558,2423.6650,N,08208.1675,W,1,10,1.5,10,M,,M,,*69
06/22/2015	11:05:58.581	$GPGGA,110559,2423.6636,N,08208.1671,W,1,10,1.5,10,M,,M,,*6C
06/22/2015	11:05:59.611	$GPGGA,110600,2423.6621,N,08208.1668,W,1,10,1.5,10,M,,M,,*6D
06/22/2015	11:06:00.575	$GPGGA,110601,2423.6607,N,08208.1665,W,1,10,1.5,10,M,,M,,*65
06/22/2015	11:06:01.575	$GPGGA,110602,2423.6593,N,08208.1661,W,1,10,1.5,10,M,,M,,*6C
06/22/2015	11:06:02.581	$GPGGA,110603,2423.6578,N,08208.1657,W,1,10,1.5,10,M,,M,,*6D
06/22/2015	11:06:03.611	$GPGGA,110604,2423.6563,N,08208.1652,W,1,10,1.5,10,M,,M,,*65
06/22/2015	11:06:04.574	$GPGGA,110605,2423.6550,N,08208.1650,W,1,10,1.5,10,M,,M,,*66
06/22/2015	11:06:05.562	$GPGGA,110606,2423.6535,N,08208.1648,W,1,10,1.5,10,M,,M,,*6F
06/22/2015	11:06:06.571	$GPGGA,110607,2423.6521,N,08208.1643,W,1,10,1.5,10,M,,M,,*60
06/22/2015	11:06:07.601	$GPGGA,110608,2423.6507,N,08208.1638,W,1,10,1.5,10,M,,M,,*67
06/22/2015	11:06:08.566	$GPGGA,110609,2423.6494,N,08208.1636,W,1,10,1.5,10,M,,M,,*63
06/22/2015	11:06:09.567	$GPGGA,110610,2423.6479,N,08208.1633,W,1,10,1.5,10,M,,M,,*6D
06/22/2015	11:06:10.551	$GPGGA,110611,2423.6465,N,08208.1628,W,1,10,1.5,10,M,,M,,*6B
06/22/2015	11:06:11.591	$GPGGA,110612,2423.6451,N,08208.1624,W,1,10,1.5,10,M,,M,,*63
06/22/2015	11:06:12.551	$GPGGA,110613,2423.6437,N,08208.1621,W,1,10,1.5,10,M,,M,,*67
06/22/2015	11:06:13.541	$GPGGA,110614,2423.6422,N,08208.1618,W,1,10,1.5,10,M,,M,,*6E
06/22/2015	11:06:14.531	$GPGGA,110615,2423.6408,N,08208.1613,W,1,10,1.5,10,M,,M,,*6C
06/22/2015	11:06:15.556	$GPGGA,110616,2423.6394,N,08208.1611,W,1,10,1.5,10,M,,M,,*6F
06/22/2015	11:06:16.531	$GPGGA,110617,2423.6380,N,08208.1608,W,1,10,1.5,10,M,,M,,*63
06/22/2015	11:06:17.556	$GPGGA,110618,2423.6365,N,08208.1603,W,1,10,1.5,10,M,,M,,*6C
06/22/2015	11:06:18.520	$GPGGA,110619,2423.6351,N,08208.1599,W,1,10,1.5,10,M,,M,,*6A
06/22/2015	11:06:19.568	$GPGGA,110620,2423.6337,N,08208.1597,W,1,10,1.5,10,M,,M,,*6E
06/22/2015	11:06:20.530	$GPGGA,110621,2423.6324,N,08208.1594,W,1,10,1.5,10,M,,M,,*6E
06/22/2015	11:06:21.556	$GPGGA,110622,2423.6310,N,08208.1589,W,1,10,1.5,10,M,,M,,*66
06/22/2015	11:06:22.530	$GPGGA,110623,2423.6295,N,08208.1585,W,1,10,1.5,10,M,,M,,*67
06/22/2015	11:06:23.530	$GPGGA,110624,2423.6281,N,08208.1582,W,1,10,1.5,10,M,,M,,*62
06/22/2015	11:06:24.610	$GPGGA,110625,2423.6266,N,08208.1579,W,1,10,1.5,10,M,,M,,*6E
06/22/2015	11:06:25.510	$GPGGA,110626,2423.6252,N,08208.1575,W,1,10,1.5,10,M,,M,,*66
06/22/2015	11:06:26.610	$GPGGA,110627,2423.6238,N,08208.1571,W,1,10,1.5,10,M,,M,,*6F
06/22/2015	11:06:27.520	$GPGGA,110628,2423.6223,N,08208.1568,W,1,10,1.5,10,M,,M,,*62
06/22/2015	11:06:28.511	$GPGGA,110629,2423.6208,N,08208.1566,W,1,10,1.5,10,M,,M,,*64
06/22/2015	11:06:29.601	$GPGGA,110630,2423.6195,N,08208.1561,W,1,10,1.5,10,M,,M,,*6C
06/22/2015	11:06:30.521	$GPGGA,110631,2423.6180,N,08208.1557,W,1,10,1.5,10,M,,M,,*6C
06/22/2015	11:06:31.521	$GPGGA,110632,2423.6166,N,08208.1555,W,1,10,1.5,10,M,,M,,*65
06/22/2015	11:06:32.591	$GPGGA,110633,2423.6151,N,08208.1551,W,1,10,1.5,10,M,,M,,*64
06/22/2015	11:06:33.501	$GPGGA,110634,2423.6137,N,08208.1546,W,1,10,1.5,10,M,,M,,*65
06/22/2015	11:06:35.652	$GPGGA,110636,2423.6109,N,08208.1540,W,1,10,1.5,10,M,,M,,*6C
06/22/2015	11:06:36.590	$GPGGA,110637,2423.6094,N,08208.1536,W,1,10,1.5,10,M,,M,,*69
06/22/2015	11:06:37.590	$GPGGA,110638,2423.6080,N,08208.1531,W,1,10,1.5,10,M,,M,,*64
06/22/2015	11:06:38.580	$GPGGA,110639,2423.6066,N,08208.1527,W,1,10,1.5,10,M,,M,,*6A
06/22/2015	11:06:39.590	$GPGGA,110640,2423.6053,N,08208.1524,W,1,10,1.5,10,M,,M,,*61
06/22/2015	11:06:40.580	$GPGGA,110641,2423.6037,N,08208.1520,W,1,10,1.5,10,M,,M,,*66
06/22/2015	11:06:41.580	$GPGGA,110642,2423.6023,N,08208.1515,W,1,10,1.5,10,M,,M,,*66
06/22/2015	11:06:42.580	$GPGGA,110643,2423.6010,N,08208.1512,W,1,10,1.5,10,M,,M,,*60
06/22/2015	11:06:43.610	$GPGGA,110644,2423.5994,N,08208.1508,W,1,10,1.5,10,M,,M,,*6A
06/22/2015	11:06:44.569	$GPGGA,110645,2423.5981,N,08208.1504,W,1,10,1.5,10,M,,M,,*63
06/22/2015	11:06:45.571	$GPGGA,110646,2423.5966,N,08208.1501,W,1,10,1.5,10,M,,M,,*6C
06/22/2015	11:06:46.571	$GPGGA,110647,2423.5952,N,08208.1495,W,1,10,1.5,10,M,,M,,*66
06/22/2015	11:06:47.601	$GPGGA,110648,2423.5938,N,08208.1491,W,1,10,1.5,10,M,,M,,*61
06/22/2015	11:06:48.571	$GPGGA,110649,2423.5923,N,08208.1492,W,1,10,1.5,10,M,,M,,*69
06/22/2015	11:06:50.021	$GPGGA,110650,2423.5909,N,08208.1485,W,1,10,1.5,10,M,,M,,*6F
06/22/2015	11:06:50.565	$GPGGA,110651,2423.5894,N,08208.1478,W,1,10,1.5,10,M,,M,,*69
06/22/2015	11:06:51.591	$GPGGA,110652,2423.5880,N,08208.1476,W,1,10,1.5,10,M,,M,,*61
06/22/2015	11:06:52.554	$GPGGA,110653,2423.5865,N,08208.1474,W,1,10,1.5,10,M,,M,,*69
06/22/2015	11:06:53.564	$GPGGA,110654,2423.5851,N,08208.1468,W,1,10,1.5,10,M,,M,,*64
06/22/2015	11:06:54.557	$GPGGA,110655,2423.5837,N,08208.1462,W,1,10,1.5,10,M,,M,,*6F
06/22/2015	11:06:55.590	$GPGGA,110656,2423.5823,N,08208.1461,W,1,10,1.5,10,M,,M,,*6A
06/22/2015	11:06:56.540	$GPGGA,110657,2423.5808,N,08208.1456,W,1,10,1.5,11,M,,M,,*67
06/22/2015	11:06:57.580	$GPGGA,110658,2423.5794,N,08208.1449,W,1,10,1.5,11,M,,M,,*6C
06/22/2015	11:06:58.563	$GPGGA,110659,2423.5781,N,08208.1447,W,1,10,1.5,11,M,,M,,*67
06/22/2015	11:06:59.564	$GPGGA,110700,2423.5768,N,08208.1444,W,1,10,1.5,11,M,,M,,*6E
06/22/2015	11:07:00.552	$GPGGA,110701,2423.5752,N,08208.1437,W,1,10,1.5,11,M,,M,,*62
06/22/2015	11:07:01.531	$GPGGA,110702,2423.5739,N,08208.1432,W,1,10,1.5,11,M,,M,,*69
06/22/2015	11:07:02.550	$GPGGA,110703,2423.5725,N,08208.1429,W,1,10,1.9,11,M,,M,,*63
06/22/2015	11:07:03.581	$GPGGA,110704,2423.5710,N,08208.1425,W,1,10,1.5,11,M,,M,,*62
06/22/2015	11:07:04.551	$GPGGA,110705,2423.5696,N,08208.1419,W,1,10,1.5,11,M,,M,,*63
06/22/2015	11:07:05.553	$GPGGA,110706,2423.5682,N,08208.1413,W,1,10,1.5,11,M,,M,,*6F
06/22/2015	11:07:06.641	$GPGGA,110707,2423.5668,N,08208.1410,W,1,10,1.9,11,M,,M,,*65
06/22/2015	11:07:07.571	$GPGGA,110708,2423.5654,N,08208.1405,W,1,10,1.5,11,M,,M,,*6D
06/22/2015	11:07:08.641	$GPGGA,110709,2423.5640,N,08208.1400,W,1,10,1.5,11,M,,M,,*6C
06/22/2015	11:07:09.551	$GPGGA,110710,2423.5627,N,08208.1395,W,1,10,1.5,11,M,,M,,*6E
06/22/2015	11:07:10.530	$GPGGA,110711,2423.5612,N,08208.1389,W,1,10,1.9,11,M,,M,,*68
06/22/2015	11:07:11.550	$GPGGA,110712,2423.5598,N,08208.1384,W,1,10,1.5,11,M,,M,,*6B
06/22/2015	11:07:12.530	$GPGGA,110713,2423.5583,N,08208.1380,W,1,10,1.5,11,M,,M,,*64
06/22/2015	11:07:13.640	$GPGGA,110714,2423.5569,N,08208.1376,W,1,10,1.5,11,M,,M,,*6E
06/22/2015	11:07:14.520	$GPGGA,110715,2423.5555,N,08208.1370,W,1,10,1.5,11,M,,M,,*66
06/22/2015	11:07:15.520	$GPGGA,110716,2423.5540,N,08208.1365,W,1,10,1.5,11,M,,M,,*65
06/22/2015	11:07:16.620	$GPGGA,110717,2423.5526,N,08208.1363,W,1,10,1.5,11,M,,M,,*62
06/22/2015	11:07:17.520	$GPGGA,110718,2423.5511,N,08208.1358,W,1,10,1.5,11,M,,M,,*61
06/22/2015	11:07:18.500	$GPGGA,110719,2423.5497,N,08208.1351,W,1,10,1.5,11,M,,M,,*66
06/22/2015	11:07:19.520	$GPGGA,110720,2423.5482,N,08208.1348,W,1,10,1.5,12,M,,M,,*63
06/22/2015	11:07:20.611	$GPGGA,110721,2423.5469,N,08208.1344,W,1,10,1.5,12,M,,M,,*6B
06/22/2015	11:07:21.501	$GPGGA,110722,2423.5454,N,08208.1339,W,1,10,1.5,12,M,,M,,*6C
06/22/2015	11:07:22.611	$GPGGA,110723,2423.5440,N,08208.1333,W,1,10,1.5,12,M,,M,,*62
06/22/2015	11:07:23.601	$GPGGA,110724,2423.5426,N,08208.1329,W,1,10,1.5,12,M,,M,,*6E
06/22/2015	11:07:24.581	$GPGGA,110725,2423.5412,N,08208.1326,W,1,10,1.5,12,M,,M,,*67
06/22/2015	11:07:25.591	$GPGGA,110726,2423.5397,N,08208.1321,W,1,10,1.5,12,M,,M,,*69
06/22/2015	11:07:26.591	$GPGGA,110727,2423.5383,N,08208.1316,W,1,10,1.5,12,M,,M,,*69
06/22/2015	11:07:27.621	$GPGGA,110728,2423.5369,N,08208.1311,W,1,10,1.5,12,M,,M,,*65
06/22/2015	11:07:28.580	$GPGGA,110729,2423.5354,N,08208.1309,W,1,10,1.5,12,M,,M,,*63
06/22/2015	11:07:29.570	$GPGGA,110730,2423.5340,N,08208.1304,W,1,10,1.5,12,M,,M,,*63
06/22/2015	11:07:30.590	$GPGGA,110731,2423.5327,N,08208.1298,W,1,10,1.5,12,M,,M,,*67
06/22/2015	11:07:31.610	$GPGGA,110732,2423.5313,N,08208.1295,W,1,10,1.5,13,M,,M,,*6F
06/22/2015	11:07:32.570	$GPGGA,110733,2423.5298,N,08208.1291,W,1,10,1.5,13,M,,M,,*68
06/22/2015	11:07:33.870	$GPGGA,110734,2423.5284,N,08208.1285,W,1,10,1.5,13,M,,M,,*67
06/22/2015	11:07:34.580	$GPGGA,110735,2423.5269,N,08208.1281,W,1,10,1.5,13,M,,M,,*61
06/22/2015	11:07:35.600	$GPGGA,110736,2423.5255,N,08208.1277,W,1,10,1.5,13,M,,M,,*64
06/22/2015	11:07:36.571	$GPGGA,110737,2423.5241,N,08208.1273,W,1,10,1.5,13,M,,M,,*64
06/22/2015	11:07:37.590	$GPGGA,110738,2423.5227,N,08208.1270,W,1,10,1.5,13,M,,M,,*68
06/22/2015	11:07:38.572	$GPGGA,110739,2423.5212,N,08208.1265,W,1,10,1.5,13,M,,M,,*6B
06/22/2015	11:07:39.601	$GPGGA,110740,2423.5198,N,08208.1260,W,1,10,1.5,13,M,,M,,*61
06/22/2015	11:07:40.563	$GPGGA,110741,2423.5183,N,08208.1257,W,1,10,1.5,13,M,,M,,*6E
06/22/2015	11:07:41.565	$GPGGA,110742,2423.5169,N,08208.1253,W,1,10,1.5,13,M,,M,,*6D
06/22/2015	11:07:42.564	$GPGGA,110743,2423.5155,N,08208.1248,W,1,10,1.5,13,M,,M,,*69
06/22/2015	11:07:43.563	$GPGGA,110744,2423.5141,N,08208.1244,W,1,10,1.5,13,M,,M,,*67
06/22/2015	11:07:44.553	$GPGGA,110745,2423.5127,N,08208.1241,W,1,10,1.5,13,M,,M,,*63
06/22/2015	11:07:45.541	$GPGGA,110746,2423.5114,N,08208.1236,W,1,10,1.5,13,M,,M,,*60
06/22/2015	11:07:46.550	$GPGGA,110747,2423.5100,N,08208.1230,W,1,10,1.9,13,M,,M,,*6E
06/22/2015	11:07:47.572	$GPGGA,110748,2423.5086,N,08208.1225,W,1,9,1.9,13,M,,M,,*52
06/22/2015	11:07:48.550	$GPGGA,110749,2423.5072,N,08208.1221,W,1,9,1.9,13,M,,M,,*5C
06/22/2015	11:07:49.563	$GPGGA,110750,2423.5060,N,08208.1217,W,1,9,1.9,13,M,,M,,*52
06/22/2015	11:07:50.540	$GPGGA,110751,2423.5045,N,08208.1212,W,1,9,1.9,13,M,,M,,*51
06/22/2015	11:07:51.540	$GPGGA,110752,2423.5031,N,08208.1207,W,1,9,1.9,13,M,,M,,*55
06/22/2015	11:07:52.540	$GPGGA,110753,2423.5017,N,08208.1203,W,1,9,1.9,13,M,,M,,*54
06/22/2015	11:07:53.540	$GPGGA,110754,2423.5003,N,08208.1197,W,1,9,1.9,13,M,,M,,*58
06/22/2015	11:07:54.530	$GPGGA,110755,2423.4989,N,08208.1194,W,1,9,1.9,13,M,,M,,*50
06/22/2015	11:07:55.564	$GPGGA,110756,2423.4974,N,08208.1190,W,1,9,1.9,13,M,,M,,*55
06/22/2015	11:07:56.531	$GPGGA,110757,2423.4962,N,08208.1185,W,1,9,1.9,13,M,,M,,*57
06/22/2015	11:07:57.521	$GPGGA,110758,2423.4948,N,08208.1180,W,1,9,1.9,13,M,,M,,*55
06/22/2015	11:07:58.531	$GPGGA,110759,2423.4933,N,08208.1176,W,1,9,1.9,13,M,,M,,*51
06/22/2015	11:07:59.551	$GPGGA,110800,2423.4920,N,08208.1171,W,1,9,1.9,13,M,,M,,*57
06/22/2015	11:08:00.511	$GPGGA,110801,2423.4906,N,08208.1168,W,1,9,1.9,13,M,,M,,*5A
06/22/2015	11:08:01.531	$GPGGA,110802,2423.4892,N,08208.1164,W,1,9,1.9,13,M,,M,,*59
06/22/2015	11:08:02.531	$GPGGA,110803,2423.4879,N,08208.1157,W,1,9,1.9,12,M,,M,,*5C
06/22/2015	11:08:03.631	$GPGGA,110804,2423.4865,N,08208.1153,W,1,9,1.9,12,M,,M,,*52
06/22/2015	11:08:04.520	$GPGGA,110805,2423.4851,N,08208.1151,W,1,9,1.9,12,M,,M,,*56
06/22/2015	11:08:05.500	$GPGGA,110806,2423.4838,N,08208.1145,W,1,9,1.9,12,M,,M,,*5F
06/22/2015	11:08:06.490	$GPGGA,110807,2423.4825,N,08208.1139,W,1,9,1.9,12,M,,M,,*59
06/22/2015	11:08:07.540	$GPGGA,110808,2423.4810,N,08208.1136,W,1,9,1.9,12,M,,M,,*5F
06/22/2015	11:08:08.500	$GPGGA,110809,2423.4797,N,08208.1130,W,1,9,1.9,12,M,,M,,*58
06/22/2015	11:08:09.510	$GPGGA,110810,2423.4783,N,08208.1125,W,1,9,1.9,12,M,,M,,*51
06/22/2015	11:08:10.510	$GPGGA,110811,2423.4769,N,08208.1121,W,1,9,1.9,12,M,,M,,*50
06/22/2015	11:08:11.610	$GPGGA,110812,2423.4755,N,08208.1116,W,1,9,1.9,12,M,,M,,*58
06/22/2015	11:08:12.490	$GPGGA,110813,2423.4742,N,08208.1111,W,1,9,1.9,12,M,,M,,*58
06/22/2015	11:08:13.591	$GPGGA,110814,2423.4728,N,08208.1106,W,1,9,1.9,12,M,,M,,*55
06/22/2015	11:08:14.501	$GPGGA,110815,2423.4714,N,08208.1101,W,1,9,1.9,12,M,,M,,*5C
06/22/2015	11:08:15.651	$GPGGA,110816,2423.4700,N,08208.1096,W,1,9,1.9,12,M,,M,,*55
06/22/2015	11:08:16.581	$GPGGA,110817,2423.4686,N,08208.1091,W,1,9,1.9,12,M,,M,,*5C
06/22/2015	11:08:17.581	$GPGGA,110818,2423.4671,N,08208.1086,W,1,9,1.9,12,M,,M,,*5D
06/22/2015	11:08:18.581	$GPGGA,110819,2423.4659,N,08208.1081,W,1,9,1.9,11,M,,M,,*52
06/22/2015	11:08:19.611	$GPGGA,110820,2423.4644,N,08208.1076,W,1,9,1.9,11,M,,M,,*5C
06/22/2015	11:08:20.570	$GPGGA,110821,2423.4630,N,08208.1071,W,1,9,1.9,11,M,,M,,*59
06/22/2015	11:08:21.560	$GPGGA,110822,2423.4616,N,08208.1066,W,1,9,1.9,11,M,,M,,*58
06/22/2015	11:08:22.570	$GPGGA,110823,2423.4601,N,08208.1061,W,1,9,1.9,11,M,,M,,*58
06/22/2015	11:08:23.630	$GPGGA,110824,2423.4587,N,08208.1056,W,1,9,1.9,11,M,,M,,*56
06/22/2015	11:08:24.560	$GPGGA,110825,2423.4573,N,08208.1050,W,1,9,1.9,11,M,,M,,*5A
06/22/2015	11:08:25.600	$GPGGA,110826,2423.4559,N,08208.1046,W,1,9,1.9,11,M,,M,,*56
06/22/2015	11:08:26.560	$GPGGA,110827,2423.4545,N,08208.1041,W,1,9,1.9,11,M,,M,,*5D
06/22/2015	11:08:27.580	$GPGGA,110828,2423.4531,N,08208.1036,W,1,9,1.9,11,M,,M,,*51
06/22/2015	11:08:28.564	$GPGGA,110829,2423.4518,N,08208.1031,W,1,9,1.9,11,M,,M,,*5C
06/22/2015	11:08:29.566	$GPGGA,110830,2423.4503,N,08208.1026,W,1,9,1.9,11,M,,M,,*58
06/22/2015	11:08:30.562	$GPGGA,110831,2423.4489,N,08208.1021,W,1,9,1.9,11,M,,M,,*5D
06/22/2015	11:08:31.581	$GPGGA,110832,2423.4475,N,08208.1016,W,1,9,1.9,11,M,,M,,*59
06/22/2015	11:08:32.567	$GPGGA,110833,2423.4461,N,08208.1013,W,1,9,1.9,11,M,,M,,*58
06/22/2015	11:08:33.571	$GPGGA,110834,2423.4447,N,08208.1007,W,1,9,1.9,11,M,,M,,*5E
06/22/2015	11:08:34.541	$GPGGA,110835,2423.4432,N,08208.1002,W,1,9,1.9,11,M,,M,,*58
06/22/2015	11:08:35.571	$GPGGA,110836,2423.4418,N,08208.0999,W,1,9,1.9,11,M,,M,,*59
06/22/2015	11:08:36.541	$GPGGA,110837,2423.4406,N,08208.0995,W,1,9,1.9,11,M,,M,,*5B
06/22/2015	11:08:37.531	$GPGGA,110838,2423.4390,N,08208.0989,W,1,9,1.9,11,M,,M,,*51
06/22/2015	11:08:38.530	$GPGGA,110839,2423.4377,N,08208.0987,W,1,9,1.9,11,M,,M,,*57
06/22/2015	11:08:39.580	$GPGGA,110840,2423.4362,N,08208.0983,W,1,9,1.9,11,M,,M,,*59
06/22/2015	11:08:40.530	$GPGGA,110841,2423.4348,N,08208.0976,W,1,9,1.9,11,M,,M,,*5A
06/22/2015	11:08:41.561	$GPGGA,110842,2423.4334,N,08208.0973,W,1,9,1.9,11,M,,M,,*57
06/22/2015	11:08:42.520	$GPGGA,110843,2423.4320,N,08208.0971,W,1,9,1.9,11,M,,M,,*51
06/22/2015	11:08:43.551	$GPGGA,110844,2423.4306,N,08208.0966,W,1,9,1.9,11,M,,M,,*54
06/22/2015	11:08:45.530	$GPGGA,110845,2423.4292,N,08208.0961,W,1,9,1.9,11,M,,M,,*5E
06/22/2015	11:08:45.563	$GPGGA,110846,2423.4277,N,08208.0958,W,1,9,1.9,11,M,,M,,*5C
06/22/2015	11:08:46.510	$GPGGA,110847,2423.4263,N,08208.0953,W,1,9,1.9,11,M,,M,,*53
06/22/2015	11:08:47.540	$GPGGA,110848,2423.4249,N,08208.0949,W,1,9,1.9,11,M,,M,,*5F
06/22/2015	11:08:48.511	$GPGGA,110849,2423.4234,N,08208.0946,W,1,9,1.9,11,M,,M,,*5B
06/22/2015	11:08:49.522	$GPGGA,110850,2423.4221,N,08208.0940,W,1,9,1.9,11,M,,M,,*51
06/22/2015	11:08:50.521	$GPGGA,110851,2423.4207,N,08208.0934,W,1,9,1.9,11,M,,M,,*57
06/22/2015	11:08:51.511	$GPGGA,110852,2423.4193,N,08208.0932,W,1,9,1.9,11,M,,M,,*5C
06/22/2015	11:08:52.521	$GPGGA,110853,2423.4178,N,08208.0929,W,1,9,1.9,11,M,,M,,*52
06/22/2015	11:08:53.511	$GPGGA,110854,2423.4164,N,08208.0922,W,1,9,1.9,11,M,,M,,*53
06/22/2015	11:08:54.501	$GPGGA,110855,2423.4150,N,08208.0917,W,1,9,1.9,11,M,,M,,*53
06/22/2015	11:08:55.530	$GPGGA,110856,2423.4137,N,08208.0914,W,1,9,1.9,11,M,,M,,*52
06/22/2015	11:08:56.500	$GPGGA,110857,2423.4122,N,08208.0910,W,1,9,1.9,11,M,,M,,*53
06/22/2015	11:08:57.500	$GPGGA,110858,2423.4108,N,08208.0904,W,1,9,1.9,11,M,,M,,*51
06/22/2015	11:08:58.500	$GPGGA,110859,2423.4095,N,08208.0900,W,1,9,1.9,11,M,,M,,*51
06/22/2015	11:08:59.640	$GPGGA,110900,2423.4081,N,08208.0898,W,1,9,1.9,11,M,,M,,*59
06/22/2015	11:09:00.600	$GPGGA,110901,2423.4067,N,08208.0893,W,1,9,1.9,11,M,,M,,*5B
06/22/2015	11:09:01.500	$GPGGA,110902,2423.4053,N,08208.0887,W,1,9,1.9,11,M,,M,,*5A
06/22/2015	11:09:02.580	$GPGGA,110903,2423.4039,N,08208.0884,W,1,9,1.9,11,M,,M,,*54
06/22/2015	11:09:03.660	$GPGGA,110904,2423.4026,N,08208.0881,W,1,9,1.9,11,M,,M,,*58
06/22/2015	11:09:04.490	$GPGGA,110905,2423.4012,N,08208.0875,W,1,9,1.9,11,M,,M,,*55
06/22/2015	11:09:05.601	$GPGGA,110906,2423.3998,N,08208.0870,W,1,9,1.9,11,M,,M,,*5F
06/22/2015	11:09:06.511	$GPGGA,110907,2423.3984,N,08208.0867,W,1,9,1.9,11,M,,M,,*55
06/22/2015	11:09:07.631	$GPGGA,110908,2423.3970,N,08208.0863,W,1,9,1.9,11,M,,M,,*55
06/22/2015	11:09:08.564	$GPGGA,110909,2423.3956,N,08208.0858,W,1,9,1.9,11,M,,M,,*58
06/22/2015	11:09:09.601	$GPGGA,110910,2423.3942,N,08208.0852,W,1,9,1.9,11,M,,M,,*5F
06/22/2015	11:09:10.571	$GPGGA,110911,2423.3929,N,08208.0849,W,1,9,1.9,11,M,,M,,*59
06/22/2015	11:09:11.581	$GPGGA,110912,2423.3914,N,08208.0845,W,1,9,1.9,11,M,,M,,*58
06/22/2015	11:09:12.571	$GPGGA,110913,2423.3900,N,08208.0840,W,1,9,1.9,11,M,,M,,*59
06/22/2015	11:09:13.580	$GPGGA,110914,2423.3887,N,08208.0836,W,1,9,1.9,11,M,,M,,*51
06/22/2015	11:09:14.560	$GPGGA,110915,2423.3873,N,08208.0831,W,1,9,1.9,11,M,,M,,*5C
06/22/2015	11:09:15.650	$GPGGA,110916,2423.3859,N,08208.0825,W,1,9,1.9,11,M,,M,,*52
06/22/2015	11:09:16.560	$GPGGA,110917,2423.3846,N,08208.0823,W,1,9,1.9,11,M,,M,,*5B
06/22/2015	11:09:17.560	$GPGGA,110918,2423.3831,N,08208.0818,W,1,9,1.9,10,M,,M,,*5D
06/22/2015	11:09:18.551	$GPGGA,110919,2423.3817,N,08208.0812,W,1,9,1.9,10,M,,M,,*52
06/22/2015	11:09:19.560	$GPGGA,110920,2423.3804,N,08208.0807,W,1,9,1.9,10,M,,M,,*5E
06/22/2015	11:09:20.550	$GPGGA,110921,2423.3789,N,08208.0803,W,1,9,1.9,10,M,,M,,*51
06/22/2015	11:09:21.570	$GPGGA,110922,2423.3775,N,08208.0798,W,1,9,1.9,10,M,,M,,*5C
06/22/2015	11:09:22.540	$GPGGA,110923,2423.3761,N,08208.0794,W,1,9,1.9,10,M,,M,,*54
06/22/2015	11:09:23.621	$GPGGA,110924,2423.3747,N,08208.0787,W,1,9,1.9,10,M,,M,,*55
06/22/2015	11:09:24.553	$GPGGA,110925,2423.3734,N,08208.0783,W,1,9,1.9,10,M,,M,,*54
06/22/2015	11:09:25.571	$GPGGA,110926,2423.3719,N,08208.0779,W,1,9,1.9,10,M,,M,,*5D
06/22/2015	11:09:26.541	$GPGGA,110927,2423.3705,N,08208.0775,W,1,9,1.9,10,M,,M,,*5D
06/22/2015	11:09:27.557	$GPGGA,110928,2423.3691,N,08208.0769,W,1,9,1.9,10,M,,M,,*53
06/22/2015	11:09:28.541	$GPGGA,110929,2423.3677,N,08208.0764,W,1,9,1.9,10,M,,M,,*57
06/22/2015	11:09:29.571	$GPGGA,110930,2423.3663,N,08208.0759,W,1,9,1.9,10,M,,M,,*54
06/22/2015	11:09:30.520	$GPGGA,110931,2423.3649,N,08208.0756,W,1,9,1.9,10,M,,M,,*52
06/22/2015	11:09:31.610	$GPGGA,110932,2423.3635,N,08208.0750,W,1,9,1.9,10,M,,M,,*5C
06/22/2015	11:09:32.530	$GPGGA,110933,2423.3622,N,08208.0744,W,1,9,1.9,10,M,,M,,*5E
06/22/2015	11:09:33.520	$GPGGA,110934,2423.3607,N,08208.0741,W,1,9,1.9,10,M,,M,,*5B
06/22/2015	11:09:34.530	$GPGGA,110935,2423.3593,N,08208.0736,W,1,9,1.9,10,M,,M,,*54
06/22/2015	11:09:35.554	$GPGGA,110936,2423.3579,N,08208.0731,W,1,9,1.9,10,M,,M,,*54
06/22/2015	11:09:36.557	$GPGGA,110937,2423.3566,N,08208.0725,W,1,9,1.9,10,M,,M,,*5E
06/22/2015	11:09:37.530	$GPGGA,110938,2423.3551,N,08208.0721,W,1,9,1.9,10,M,,M,,*51
06/22/2015	11:09:38.500	$GPGGA,110939,2423.3537,N,08208.0718,W,1,9,1.9,10,M,,M,,*5A
06/22/2015	11:09:39.552	$GPGGA,110940,2423.3523,N,08208.0712,W,1,9,1.9,10,M,,M,,*5B
06/22/2015	11:09:40.521	$GPGGA,110941,2423.3510,N,08208.0707,W,1,9,1.9,10,M,,M,,*5E
06/22/2015	11:09:41.566	$GPGGA,110942,2423.3495,N,08208.0703,W,1,9,1.9,10,M,,M,,*55
06/22/2015	11:09:42.521	$GPGGA,110943,2423.3481,N,08208.0699,W,1,9,1.9,10,M,,M,,*53
06/22/2015	11:09:43.531	$GPGGA,110944,2423.3467,N,08208.0695,W,1,9,1.9,10,M,,M,,*50
06/22/2015	11:09:44.521	$GPGGA,110945,2423.3453,N,08208.0690,W,1,9,1.9,11,M,,M,,*52
06/22/2015	11:09:45.501	$GPGGA,110946,2423.3439,N,08208.0684,W,1,9,1.9,11,M,,M,,*58
06/22/2015	11:09:46.501	$GPGGA,110947,2423.3427,N,08208.0681,W,1,9,1.9,11,M,,M,,*53
06/22/2015	11:09:47.531	$GPGGA,110948,2423.3411,N,08208.0677,W,1,9,1.9,11,M,,M,,*50
06/22/2015	11:09:48.520	$GPGGA,110949,2423.3398,N,08208.0671,W,1,9,1.9,11,M,,M,,*51
06/22/2015	11:09:49.590	$GPGGA,110950,2423.3383,N,08208.0666,W,1,9,1.9,11,M,,M,,*55
06/22/2015	11:09:50.590	$GPGGA,110951,2423.3369,N,08208.0663,W,1,9,1.9,11,M,,M,,*55
06/22/2015	11:09:51.600	$GPGGA,110952,2423.3355,N,08208.0659,W,1,9,1.9,11,M,,M,,*50
06/22/2015	11:09:52.590	$GPGGA,110953,2423.3340,N,08208.0654,W,1,9,1.9,11,M,,M,,*58
06/22/2015	11:09:53.590	$GPGGA,110954,2423.3326,N,08208.0650,W,1,9,1.9,11,M,,M,,*5B
06/22/2015	11:09:54.580	$GPGGA,110955,2423.3312,N,08208.0646,W,1,9,1.9,11,M,,M,,*5A
06/22/2015	11:09:55.590	$GPGGA,110956,2423.3299,N,08208.0641,W,1,9,1.9,11,M,,M,,*5C
06/22/2015	11:09:56.610	$GPGGA,110957,2423.3284,N,08208.0637,W,1,9,1.9,11,M,,M,,*50
06/22/2015	11:09:57.581	$GPGGA,110958,2423.3269,N,08208.0633,W,1,9,1.9,11,M,,M,,*58
06/22/2015	11:09:58.574	$GPGGA,110959,2423.3255,N,08208.0627,W,1,9,1.9,11,M,,M,,*53
06/22/2015	11:09:59.611	$GPGGA,111000,2423.3242,N,08208.0623,W,1,9,1.9,10,M,,M,,*54
06/22/2015	11:10:00.568	$GPGGA,111001,2423.3228,N,08208.0620,W,1,9,1.9,10,M,,M,,*5A
06/22/2015	11:10:01.581	$GPGGA,111002,2423.3214,N,08208.0615,W,1,9,1.9,10,M,,M,,*50
06/22/2015	11:10:02.565	$GPGGA,111003,2423.3199,N,08208.0610,W,1,9,1.9,10,M,,M,,*52
06/22/2015	11:10:03.591	$GPGGA,111004,2423.3185,N,08208.0606,W,1,9,1.9,10,M,,M,,*5F
06/22/2015	11:10:04.565	$GPGGA,111005,2423.3170,N,08208.0602,W,1,9,1.9,10,M,,M,,*50
06/22/2015	11:10:05.552	$GPGGA,111006,2423.3157,N,08208.0598,W,1,9,1.9,10,M,,M,,*56
06/22/2015	11:10:06.570	$GPGGA,111007,2423.3142,N,08208.0593,W,1,9,1.9,10,M,,M,,*58
06/22/2015	11:10:07.580	$GPGGA,111008,2423.3128,N,08208.0588,W,1,9,1.9,10,M,,M,,*51
06/22/2015	11:10:08.552	$GPGGA,111009,2423.3114,N,08208.0585,W,1,9,1.9,10,M,,M,,*52
06/22/2015	11:10:09.571	$GPGGA,111010,2423.3100,N,08208.0580,W,1,9,1.9,10,M,,M,,*5A
06/22/2015	11:10:10.540	$GPGGA,111011,2423.3087,N,08208.0576,W,1,9,1.9,10,M,,M,,*5C
06/22/2015	11:10:11.580	$GPGGA,111012,2423.3071,N,08208.0571,W,1,9,1.9,10,M,,M,,*51
06/22/2015	11:10:12.550	$GPGGA,111013,2423.3057,N,08208.0566,W,1,9,1.9,10,M,,M,,*52
06/22/2015	11:10:13.570	$GPGGA,111014,2423.3044,N,08208.0562,W,1,9,1.9,10,M,,M,,*53
06/22/2015	11:10:14.530	$GPGGA,111015,2423.3029,N,08208.0558,W,1,9,1.9,10,M,,M,,*50
06/22/2015	11:10:15.567	$GPGGA,111016,2423.3015,N,08208.0553,W,1,9,1.9,10,M,,M,,*57
06/22/2015	11:10:16.921	$GPGGA,111017,2423.3001,N,08208.0548,W,1,9,1.9,10,M,,M,,*59
06/22/2015	11:10:17.531	$GPGGA,111018,2423.2986,N,08208.0544,W,1,9,1.9,10,M,,M,,*5D
06/22/2015	11:10:18.521	$GPGGA,111019,2423.2973,N,08208.0540,W,1,9,1.9,10,M,,M,,*52
06/22/2015	11:10:19.541	$GPGGA,111020,2423.2958,N,08208.0534,W,1,9,1.9,10,M,,M,,*52
06/22/2015	11:10:20.521	$GPGGA,111021,2423.2944,N,08208.0530,W,1,9,1.9,10,M,,M,,*5A
06/22/2015	11:10:22.257	$GPGGA,111022,2423.2930,N,08208.0526,W,1,9,1.9,10,M,,M,,*5D
06/22/2015	11:10:22.511	$GPGGA,111023,2423.2916,N,08208.0521,W,1,9,1.9,10,M,,M,,*5F
06/22/2015	11:10:23.540	$GPGGA,111024,2423.2901,N,08208.0516,W,1,9,1.9,10,M,,M,,*5A
06/22/2015	11:10:24.520	$GPGGA,111025,2423.2887,N,08208.0511,W,1,9,1.9,10,M,,M,,*53
06/22/2015	11:10:25.530	$GPGGA,111026,2423.2874,N,08208.0506,W,1,9,1.9,10,M,,M,,*5A
06/22/2015	11:10:26.510	$GPGGA,111027,2423.2858,N,08208.0502,W,1,9,1.9,10,M,,M,,*51
06/22/2015	11:10:27.520	$GPGGA,111028,2423.2845,N,08208.0497,W,1,9,1.9,10,M,,M,,*5F
06/22/2015	11:10:28.620	$GPGGA,111029,2423.2831,N,08208.0491,W,1,9,1.9,10,M,,M,,*5B
06/22/2015	11:10:29.510	$GPGGA,111030,2423.2816,N,08208.0487,W,1,9,1.9,10,M,,M,,*51
06/22/2015	11:10:30.510	$GPGGA,111031,2423.2802,N,08208.0483,W,1,9,1.9,9,M,,M,,*69
06/22/2015	11:10:31.530	$GPGGA,111032,2423.2787,N,08208.0478,W,1,9,1.9,9,M,,M,,*6C
06/22/2015	11:10:32.500	$GPGGA,111033,2423.2773,N,08208.0471,W,1,9,1.9,9,M,,M,,*6F
06/22/2015	11:10:33.491	$GPGGA,111034,2423.2759,N,08208.0467,W,1,9,1.9,9,M,,M,,*67
06/22/2015	11:10:34.611	$GPGGA,111035,2423.2745,N,08208.0463,W,1,9,1.9,9,M,,M,,*6F
06/22/2015	11:10:35.602	$GPGGA,111036,2423.2730,N,08208.0457,W,1,9,1.9,9,M,,M,,*69
06/22/2015	11:10:36.501	$GPGGA,111037,2423.2716,N,08208.0451,W,1,9,1.9,9,M,,M,,*6A
06/22/2015	11:10:37.601	$GPGGA,111038,2423.2702,N,08208.0448,W,1,9,1.9,9,M,,M,,*68
06/22/2015	11:10:38.591	$GPGGA,111039,2423.2690,N,08208.0443,W,1,9,1.9,9,M,,M,,*68
06/22/2015	11:10:39.631	$GPGGA,111040,2423.2674,N,08208.0437,W,1,9,1.9,9,M,,M,,*6F
06/22/2015	11:10:40.580	$GPGGA,111041,2423.2661,N,08208.0431,W,1,9,1.9,9,M,,M,,*6C
06/22/2015	11:10:41.590	$GPGGA,111042,2423.2646,N,08208.0428,W,1,9,1.9,9,M,,M,,*62
06/22/2015	11:10:42.570	$GPGGA,111043,2423.2632,N,08208.0423,W,1,9,1.9,9,M,,M,,*6B
06/22/2015	11:10:43.600	$GPGGA,111044,2423.2618,N,08208.0417,W,1,9,1.9,9,M,,M,,*63
06/22/2015	11:10:44.570	$GPGGA,111045,2423.2604,N,08208.0412,W,1,9,1.9,9,M,,M,,*6A
06/22/2015	11:10:45.560	$GPGGA,111046,2423.2590,N,08208.0408,W,1,9,1.9,9,M,,M,,*6C
06/22/2015	11:10:46.570	$GPGGA,111047,2423.2578,N,08208.0403,W,1,9,1.9,9,M,,M,,*60
06/22/2015	11:10:47.580	$GPGGA,111048,2423.2563,N,08208.0397,W,1,9,1.9,9,M,,M,,*6F
06/22/2015	11:10:48.570	$GPGGA,111049,2423.2549,N,08208.0393,W,1,9,1.9,9,M,,M,,*62
06/22/2015	11:10:49.580	$GPGGA,111050,2423.2535,N,08208.0388,W,1,9,1.9,9,M,,M,,*6B
06/22/2015	11:10:50.561	$GPGGA,111051,2423.2521,N,08208.0384,W,1,9,1.9,9,M,,M,,*63
06/22/2015	11:10:51.562	$GPGGA,111052,2423.2507,N,08208.0379,W,1,9,1.9,9,M,,M,,*66
06/22/2015	11:10:52.551	$GPGGA,111053,2423.2495,N,08208.0373,W,1,9,1.9,9,M,,M,,*67
06/22/2015	11:10:53.541	$GPGGA,111054,2423.2480,N,08208.0370,W,1,9,1.9,9,M,,M,,*67
06/22/2015	11:10:54.552	$GPGGA,111055,2423.2466,N,08208.0366,W,1,9,1.9,9,M,,M,,*69
06/22/2015	11:10:55.581	$GPGGA,111056,2423.2452,N,08208.0359,W,1,9,1.9,9,M,,M,,*61
06/22/2015	11:10:56.561	$GPGGA,111057,2423.2439,N,08208.0354,W,1,9,1.9,9,M,,M,,*60
06/22/2015	11:10:57.561	$GPGGA,111058,2423.2424,N,08208.0350,W,1,9,1.9,9,M,,M,,*67
06/22/2015	11:10:58.552	$GPGGA,111059,2423.2410,N,08208.0346,W,1,9,1.9,9,M,,M,,*66
06/22/2015	11:10:59.563	$GPGGA,111100,2423.2397,N,08208.0341,W,1,9,1.9,9,M,,M,,*64
06/22/2015	11:11:00.540	$GPGGA,111101,2423.2383,N,08208.0335,W,1,9,1.9,9,M,,M,,*63
06/22/2015	11:11:01.531	$GPGGA,111102,2423.2368,N,08208.0331,W,1,9,1.9,9,M,,M,,*61
06/22/2015	11:11:02.901	$GPGGA,111103,2423.2355,N,08208.0328,W,1,9,1.9,9,M,,M,,*66
06/22/2015	11:11:03.570	$GPGGA,111104,2423.2341,N,08208.0323,W,1,9,1.9,9,M,,M,,*6F
06/22/2015	11:11:04.530	$GPGGA,111105,2423.2327,N,08208.0315,W,1,9,1.9,9,M,,M,,*6B
06/22/2015	11:11:05.555	$GPGGA,111106,2423.2314,N,08208.0312,W,1,9,1.9,9,M,,M,,*6F
06/22/2015	11:11:06.957	$GPGGA,111107,2423.2299,N,08208.0309,W,1,9,1.9,9,M,,M,,*60
06/22/2015	11:11:07.531	$GPGGA,111108,2423.2285,N,08208.0303,W,1,9,1.9,9,M,,M,,*68
06/22/2015	11:11:08.531	$GPGGA,111109,2423.2271,N,08208.0296,W,1,9,1.9,9,M,,M,,*6F
06/22/2015	11:11:09.531	$GPGGA,111110,2423.2258,N,08208.0293,W,1,9,1.9,9,M,,M,,*69
06/22/2015	11:11:10.531	$GPGGA,111111,2423.2244,N,08208.0290,W,1,9,1.9,9,M,,M,,*66
06/22/2015	11:11:11.531	$GPGGA,111112,2423.2231,N,08208.0284,W,1,9,1.9,9,M,,M,,*62
06/22/2015	11:11:12.631	$GPGGA,111113,2423.2217,N,08208.0278,W,1,9,1.9,9,M,,M,,*64
06/22/2015	11:11:14.068	$GPGGA,111114,2423.2203,N,08208.0273,W,1,9,1.9,9,M,,M,,*6D
06/22/2015	11:11:14.501	$GPGGA,111115,2423.2191,N,08208.0270,W,1,9,1.9,9,M,,M,,*67
06/22/2015	11:11:15.540	$GPGGA,111116,2423.2175,N,08208.0265,W,1,9,1.9,9,M,,M,,*6A
06/22/2015	11:11:16.510	$GPGGA,111117,2423.2161,N,08208.0259,W,1,9,1.9,9,M,,M,,*61
06/22/2015	11:11:17.520	$GPGGA,111118,2423.2149,N,08208.0254,W,1,9,1.9,9,M,,M,,*69
06/22/2015	11:11:18.500	$GPGGA,111119,2423.2134,N,08208.0250,W,1,9,1.9,9,M,,M,,*66
06/22/2015	11:11:19.530	$GPGGA,111120,2423.2120,N,08208.0245,W,1,9,1.9,9,M,,M,,*6D
06/22/2015	11:11:20.510	$GPGGA,111121,2423.2108,N,08208.0239,W,1,9,1.9,9,M,,M,,*6D
06/22/2015	11:11:21.510	$GPGGA,111122,2423.2094,N,08208.0235,W,1,9,1.9,9,M,,M,,*66
06/22/2015	11:11:22.500	$GPGGA,111123,2423.2080,N,08208.0231,W,1,9,1.9,9,M,,M,,*66
06/22/2015	11:11:23.500	$GPGGA,111124,2423.2066,N,08208.0225,W,1,9,1.9,9,M,,M,,*6C
06/22/2015	11:11:24.580	$GPGGA,111125,2423.2052,N,08208.0221,W,1,9,1.9,9,M,,M,,*6E
06/22/2015	11:11:25.601	$GPGGA,111126,2423.2038,N,08208.0218,W,1,9,1.9,9,M,,M,,*6B
06/22/2015	11:11:26.511	$GPGGA,111127,2423.2025,N,08208.0212,W,1,9,1.9,9,M,,M,,*6C
06/22/2015	11:11:27.621	$GPGGA,111128,2423.2010,N,08208.0206,W,1,8,2.2,9,M,,M,,*69
06/22/2015	11:11:28.581	$GPGGA,111129,2423.1997,N,08208.0203,W,1,8,1.9,9,M,,M,,*60
06/22/2015	11:11:29.571	$GPGGA,111130,2423.1983,N,08208.0198,W,1,9,1.9,9,M,,M,,*6D
06/22/2015	11:11:30.571	$GPGGA,111131,2423.1969,N,08208.0193,W,1,9,1.9,9,M,,M,,*63
06/22/2015	11:11:32.860	$GPGGA,111133,2423.1942,N,08208.0184,W,1,9,1.9,9,M,,M,,*6E
06/22/2015	11:11:33.580	$GPGGA,111134,2423.1927,N,08208.0179,W,1,9,1.9,9,M,,M,,*68
06/22/2015	11:11:34.570	$GPGGA,111135,2423.1913,N,08208.0174,W,1,9,1.9,10,M,,M,,*5B
06/22/2015	11:11:35.600	$GPGGA,111136,2423.1898,N,08208.0170,W,1,9,1.9,10,M,,M,,*5E
06/22/2015	11:11:36.563	$GPGGA,111137,2423.1885,N,08208.0167,W,1,9,1.9,10,M,,M,,*55
06/22/2015	11:11:37.580	$GPGGA,111138,2423.1871,N,08208.0161,W,1,9,1.9,10,M,,M,,*57
06/22/2015	11:11:38.570	$GPGGA,111139,2423.1856,N,08208.0155,W,1,9,1.9,10,M,,M,,*54
06/22/2015	11:11:39.590	$GPGGA,111140,2423.1842,N,08208.0151,W,1,9,1.9,10,M,,M,,*5B
06/22/2015	11:11:40.568	$GPGGA,111141,2423.1830,N,08208.0149,W,1,9,1.9,10,M,,M,,*56
06/22/2015	11:11:41.571	$GPGGA,111142,2423.1815,N,08208.0143,W,1,9,1.9,10,M,,M,,*58
06/22/2015	11:11:42.561	$GPGGA,111143,2423.1801,N,08208.0137,W,1,9,1.9,10,M,,M,,*5F
06/22/2015	11:11:43.581	$GPGGA,111144,2423.1787,N,08208.0133,W,1,9,1.9,10,M,,M,,*5D
06/22/2015	11:11:44.552	$GPGGA,111145,2423.1773,N,08208.0130,W,1,9,1.9,10,M,,M,,*54
06/22/2015	11:11:45.541	$GPGGA,111146,2423.1758,N,08208.0126,W,1,9,1.9,10,M,,M,,*59
06/22/2015	11:11:46.559	$GPGGA,111147,2423.1745,N,08208.0119,W,1,9,1.9,10,M,,M,,*58
