Software Version Number: 1	Data File Format Number: 1	Build Version Number: 1	Error Count Since VI Started: 1	Manufacturer: Raytheon	 Model Number: RayMarine 120	 S/N: 	 Cal Date: 	 Wind Direction Offset: 0.00	 Slope (M)1: 0.00	 Offset (B)1: 0.00	 Slope (M)2: 0.00	 Offset (B)2: 0.00	 Slope (M)3: 0.00	 Offset (B)3: 0.00	 Slope (M)4: 0.00	 Offset (B)4: 0.00	 Slope (M)5: 0.00	 Offset (B)5: 0.00	 Slope (M)6: 0.00	 Offset (B)6: 0.00
Computer Date	Computer Time	GGA String
06/12/2015	15:00:00.529	$GPGGA,150001,2428.0172,N,08122.8918,W,1,9,1.7,24,M,,M,,*55
06/12/2015	15:00:01.620	$GPGGA,150002,2428.0179,N,08122.8902,W,1,9,1.7,24,M,,M,,*56
06/12/2015	15:00:02.563	$GPGGA,150003,2428.0189,N,08122.8887,W,1,9,1.7,24,M,,M,,*54
06/12/2015	15:00:04.040	$GPGGA,150004,2428.0197,N,08122.8873,W,1,9,1.7,24,M,,M,,*57
06/12/2015	15:00:04.572	$GPGGA,150005,2428.0203,N,08122.8856,W,1,9,1.7,24,M,,M,,*5F
06/12/2015	15:00:05.510	$GPGGA,150006,2428.0210,N,08122.8840,W,1,9,1.7,24,M,,M,,*59
06/12/2015	15:00:06.560	$GPGGA,150007,2428.0219,N,08122.8825,W,1,9,1.7,24,M,,M,,*52
06/12/2015	15:00:07.619	$GPGGA,150008,2428.0226,N,08122.8808,W,1,9,1.7,24,M,,M,,*5E
06/12/2015	15:00:08.565	$GPGGA,150009,2428.0232,N,08122.8792,W,1,9,1.7,24,M,,M,,*56
06/12/2015	15:00:09.509	$GPGGA,150010,2428.0239,N,08122.8777,W,1,9,1.7,24,M,,M,,*5E
06/12/2015	15:00:10.549	$GPGGA,150011,2428.0247,N,08122.8761,W,1,9,1.7,24,M,,M,,*51
06/12/2015	15:00:11.589	$GPGGA,150012,2428.0254,N,08122.8745,W,1,9,1.7,24,M,,M,,*56
06/12/2015	15:00:12.549	$GPGGA,150013,2428.0260,N,08122.8731,W,1,9,1.7,24,M,,M,,*53
06/12/2015	15:00:13.599	$GPGGA,150014,2428.0266,N,08122.8715,W,1,9,1.7,24,M,,M,,*54
06/12/2015	15:00:14.529	$GPGGA,150015,2428.0275,N,08122.8700,W,1,9,1.7,24,M,,M,,*53
06/12/2015	15:00:15.629	$GPGGA,150016,2428.0282,N,08122.8684,W,1,9,1.7,24,M,,M,,*55
06/12/2015	15:00:16.539	$GPGGA,150017,2428.0287,N,08122.8669,W,1,9,1.7,24,M,,M,,*52
06/12/2015	15:00:17.579	$GPGGA,150018,2428.0293,N,08122.8653,W,1,9,1.8,24,M,,M,,*5E
06/12/2015	15:00:18.530	$GPGGA,150019,2428.0300,N,08122.8638,W,1,9,1.7,24,M,,M,,*56
06/12/2015	15:00:19.630	$GPGGA,150020,2428.0308,N,08122.8624,W,1,9,1.7,24,M,,M,,*59
06/12/2015	15:00:20.610	$GPGGA,150021,2428.0313,N,08122.8608,W,1,9,1.7,24,M,,M,,*5C
06/12/2015	15:00:21.620	$GPGGA,150022,2428.0316,N,08122.8592,W,1,9,1.7,24,M,,M,,*5A
06/12/2015	15:00:22.530	$GPGGA,150023,2428.0323,N,08122.8578,W,1,9,1.7,25,M,,M,,*58
06/12/2015	15:00:23.590	$GPGGA,150024,2428.0331,N,08122.8563,W,1,9,1.7,25,M,,M,,*56
06/12/2015	15:00:24.509	$GPGGA,150025,2428.0336,N,08122.8546,W,1,9,1.7,25,M,,M,,*57
06/12/2015	15:00:25.609	$GPGGA,150026,2428.0341,N,08122.8530,W,1,9,1.7,25,M,,M,,*55
06/12/2015	15:00:26.569	$GPGGA,150027,2428.0345,N,08122.8515,W,1,9,1.7,25,M,,M,,*57
06/12/2015	15:00:27.609	$GPGGA,150028,2428.0351,N,08122.8499,W,1,9,1.7,25,M,,M,,*58
06/12/2015	15:00:28.579	$GPGGA,150029,2428.0356,N,08122.8482,W,1,9,1.7,25,M,,M,,*54
06/12/2015	15:00:29.609	$GPGGA,150030,2428.0362,N,08122.8465,W,1,9,1.7,25,M,,M,,*52
06/12/2015	15:00:30.569	$GPGGA,150031,2428.0367,N,08122.8450,W,1,9,1.7,25,M,,M,,*50
06/12/2015	15:00:31.599	$GPGGA,150032,2428.0376,N,08122.8435,W,1,9,1.7,25,M,,M,,*50
06/12/2015	15:00:32.575	$GPGGA,150033,2428.0378,N,08122.8417,W,1,9,1.7,25,M,,M,,*5F
06/12/2015	15:00:33.570	$GPGGA,150034,2428.0381,N,08122.8401,W,1,9,1.7,25,M,,M,,*59
06/12/2015	15:00:34.561	$GPGGA,150035,2428.0389,N,08122.8387,W,1,9,1.7,25,M,,M,,*59
06/12/2015	15:00:35.620	$GPGGA,150036,2428.0396,N,08122.8371,W,1,9,1.7,26,M,,M,,*5E
06/12/2015	15:00:36.550	$GPGGA,150037,2428.0399,N,08122.8353,W,1,9,1.7,26,M,,M,,*50
06/12/2015	15:00:37.580	$GPGGA,150038,2428.0405,N,08122.8336,W,1,9,1.7,26,M,,M,,*5E
06/12/2015	15:00:38.540	$GPGGA,150039,2428.0405,N,08122.8336,W,1,9,1.7,26,M,,M,,*5F
06/12/2015	15:00:39.576	$GPGGA,150040,2428.0419,N,08122.8306,W,1,9,1.7,26,M,,M,,*5F
06/12/2015	15:00:40.550	$GPGGA,150041,2428.0423,N,08122.8288,W,1,9,1.7,26,M,,M,,*50
06/12/2015	15:00:41.600	$GPGGA,150042,2428.0428,N,08122.8271,W,1,9,2.1,26,M,,M,,*5B
06/12/2015	15:00:42.549	$GPGGA,150043,2428.0434,N,08122.8256,W,1,9,1.7,26,M,,M,,*57
06/12/2015	15:00:43.639	$GPGGA,150044,2428.0441,N,08122.8242,W,1,9,1.7,26,M,,M,,*57
06/12/2015	15:00:44.539	$GPGGA,150045,2428.0446,N,08122.8224,W,1,9,1.7,26,M,,M,,*51
06/12/2015	15:00:45.599	$GPGGA,150046,2428.0450,N,08122.8208,W,1,9,1.7,26,M,,M,,*5B
06/12/2015	15:00:46.529	$GPGGA,150047,2428.0454,N,08122.8192,W,1,9,2.1,26,M,,M,,*5B
06/12/2015	15:00:47.599	$GPGGA,150048,2428.0463,N,08122.8174,W,1,8,1.7,26,M,,M,,*5C
06/12/2015	15:00:48.539	$GPGGA,150049,2428.0468,N,08122.8159,W,1,8,1.7,26,M,,M,,*59
06/12/2015	15:00:49.609	$GPGGA,150050,2428.0471,N,08122.8143,W,1,9,1.7,26,M,,M,,*53
06/12/2015	15:00:50.529	$GPGGA,150051,2428.0471,N,08122.8143,W,1,9,1.7,26,M,,M,,*52
06/12/2015	15:00:51.549	$GPGGA,150052,2428.0477,N,08122.8128,W,1,9,1.7,27,M,,M,,*5B
06/12/2015	15:00:52.529	$GPGGA,150053,2428.0484,N,08122.8111,W,1,9,1.7,27,M,,M,,*5C
06/12/2015	15:00:53.588	$GPGGA,150054,2428.0493,N,08122.8079,W,1,9,1.8,27,M,,M,,*5D
06/12/2015	15:00:54.510	$GPGGA,150055,2428.0500,N,08122.8063,W,1,9,1.8,27,M,,M,,*5C
06/12/2015	15:00:55.650	$GPGGA,150056,2428.0504,N,08122.8048,W,1,9,1.7,27,M,,M,,*5D
06/12/2015	15:00:56.550	$GPGGA,150057,2428.0510,N,08122.8033,W,1,9,1.7,27,M,,M,,*55
06/12/2015	15:00:57.540	$GPGGA,150058,2428.0510,N,08122.8033,W,1,9,1.7,27,M,,M,,*5A
06/12/2015	15:00:58.620	$GPGGA,150059,2428.0522,N,08122.8004,W,1,9,1.7,27,M,,M,,*5E
06/12/2015	15:00:59.589	$GPGGA,150100,2428.0526,N,08122.7988,W,1,8,1.7,27,M,,M,,*54
06/12/2015	15:01:00.863	$GPGGA,150101,2428.0531,N,08122.7973,W,1,8,1.7,27,M,,M,,*57
06/12/2015	15:01:01.639	$GPGGA,150102,2428.0537,N,08122.7962,W,1,9,1.7,27,M,,M,,*53
06/12/2015	15:01:02.509	$GPGGA,150103,2428.0537,N,08122.7962,W,1,9,1.7,27,M,,M,,*52
06/12/2015	15:01:03.529	$GPGGA,150104,2428.0544,N,08122.7947,W,1,8,2.4,27,M,,M,,*57
06/12/2015	15:01:04.489	$GPGGA,150105,2428.0551,N,08122.7915,W,1,8,1.7,27,M,,M,,*55
06/12/2015	15:01:05.589	$GPGGA,150106,2428.0558,N,08122.7901,W,1,9,1.7,27,M,,M,,*5B
06/12/2015	15:01:06.500	$GPGGA,150107,2428.0565,N,08122.7887,W,1,9,1.7,27,M,,M,,*5B
06/12/2015	15:01:07.599	$GPGGA,150108,2428.0571,N,08122.7869,W,1,9,1.7,27,M,,M,,*51
06/12/2015	15:01:08.489	$GPGGA,150109,2428.0576,N,08122.7852,W,1,9,1.7,27,M,,M,,*5F
06/12/2015	15:01:09.579	$GPGGA,150110,2428.0583,N,08122.7838,W,1,9,1.7,27,M,,M,,*51
06/12/2015	15:01:10.489	$GPGGA,150111,2428.0590,N,08122.7822,W,1,9,1.7,27,M,,M,,*59
06/12/2015	15:01:11.600	$GPGGA,150112,2428.0596,N,08122.7804,W,1,9,1.7,27,M,,M,,*58
06/12/2015	15:01:12.570	$GPGGA,150113,2428.0602,N,08122.7789,W,1,9,1.7,27,M,,M,,*5D
06/12/2015	15:01:13.601	$GPGGA,150114,2428.0612,N,08122.7775,W,1,9,1.7,27,M,,M,,*58
06/12/2015	15:01:14.580	$GPGGA,150115,2428.0618,N,08122.7758,W,1,9,2.4,27,M,,M,,*5C
06/12/2015	15:01:15.580	$GPGGA,150116,2428.0623,N,08122.7745,W,1,8,2.1,27,M,,M,,*5F
06/12/2015	15:01:16.574	$GPGGA,150117,2428.0630,N,08122.7727,W,1,8,1.8,27,M,,M,,*52
06/12/2015	15:01:17.579	$GPGGA,150118,2428.0641,N,08122.7709,W,1,9,1.7,27,M,,M,,*59
06/12/2015	15:01:18.575	$GPGGA,150119,2428.0648,N,08122.7692,W,1,9,1.7,27,M,,M,,*52
06/12/2015	15:01:19.589	$GPGGA,150120,2428.0654,N,08122.7672,W,1,9,1.7,28,M,,M,,*54
06/12/2015	15:01:20.569	$GPGGA,150121,2428.0662,N,08122.7657,W,1,9,1.7,28,M,,M,,*57
06/12/2015	15:01:21.579	$GPGGA,150122,2428.0672,N,08122.7641,W,1,7,2.5,28,M,,M,,*5D
06/12/2015	15:01:22.549	$GPGGA,150123,2428.0676,N,08122.7623,W,1,7,2.4,28,M,,M,,*5D
06/12/2015	15:01:23.589	$GPGGA,150124,2428.0681,N,08122.7609,W,1,9,1.7,28,M,,M,,*54
06/12/2015	15:01:24.549	$GPGGA,150125,2428.0691,N,08122.7593,W,1,9,1.7,28,M,,M,,*54
06/12/2015	15:01:25.570	$GPGGA,150126,2428.0699,N,08122.7578,W,1,9,1.7,28,M,,M,,*5A
06/12/2015	15:01:26.539	$GPGGA,150127,2428.0706,N,08122.7562,W,1,9,2.1,28,M,,M,,*52
06/12/2015	15:01:27.579	$GPGGA,150128,2428.0712,N,08122.7546,W,1,8,2.4,28,M,,M,,*5A
06/12/2015	15:01:28.540	$GPGGA,150129,2428.0719,N,08122.7530,W,1,8,2.1,28,M,,M,,*54
06/12/2015	15:01:29.562	$GPGGA,150130,2428.0725,N,08122.7515,W,1,8,2.1,28,M,,M,,*54
06/12/2015	15:01:30.540	$GPGGA,150131,2428.0732,N,08122.7498,W,1,8,2.1,28,M,,M,,*57
06/12/2015	15:01:31.580	$GPGGA,150132,2428.0739,N,08122.7481,W,1,8,2.1,28,M,,M,,*57
06/12/2015	15:01:32.540	$GPGGA,150133,2428.0746,N,08122.7464,W,1,8,2.1,28,M,,M,,*55
06/12/2015	15:01:33.540	$GPGGA,150134,2428.0755,N,08122.7447,W,1,8,2.1,28,M,,M,,*51
06/12/2015	15:01:34.550	$GPGGA,150135,2428.0761,N,08122.7429,W,1,8,2.1,28,M,,M,,*5F
06/12/2015	15:01:35.564	$GPGGA,150136,2428.0768,N,08122.7413,W,1,8,2.1,27,M,,M,,*53
06/12/2015	15:01:36.529	$GPGGA,150137,2428.0775,N,08122.7396,W,1,8,2.1,27,M,,M,,*54
06/12/2015	15:01:37.509	$GPGGA,150138,2428.0782,N,08122.7378,W,1,8,2.1,27,M,,M,,*53
06/12/2015	15:01:38.529	$GPGGA,150139,2428.0789,N,08122.7362,W,1,8,2.1,27,M,,M,,*52
06/12/2015	15:01:39.519	$GPGGA,150140,2428.0795,N,08122.7346,W,1,8,2.1,27,M,,M,,*57
06/12/2015	15:01:40.529	$GPGGA,150141,2428.0800,N,08122.7329,W,1,8,2.1,27,M,,M,,*5C
06/12/2015	15:01:41.519	$GPGGA,150142,2428.0808,N,08122.7312,W,1,8,2.1,27,M,,M,,*5F
06/12/2015	15:01:42.509	$GPGGA,150143,2428.0815,N,08122.7296,W,1,8,2.1,27,M,,M,,*5F
06/12/2015	15:01:43.539	$GPGGA,150144,2428.0820,N,08122.7279,W,1,8,2.1,26,M,,M,,*5E
06/12/2015	15:01:44.509	$GPGGA,150145,2428.0826,N,08122.7263,W,1,8,2.1,26,M,,M,,*52
06/12/2015	15:01:45.510	$GPGGA,150146,2428.0833,N,08122.7247,W,1,8,2.1,26,M,,M,,*53
06/12/2015	15:01:46.500	$GPGGA,150147,2428.0837,N,08122.7230,W,1,8,2.1,26,M,,M,,*56
06/12/2015	15:01:47.530	$GPGGA,150148,2428.0844,N,08122.7214,W,1,8,2.1,26,M,,M,,*5B
06/12/2015	15:01:48.500	$GPGGA,150149,2428.0850,N,08122.7197,W,1,8,2.1,26,M,,M,,*57
06/12/2015	15:01:49.610	$GPGGA,150150,2428.0854,N,08122.7181,W,1,8,2.1,25,M,,M,,*5F
06/12/2015	15:01:50.510	$GPGGA,150151,2428.0858,N,08122.7164,W,1,8,2.1,25,M,,M,,*59
06/12/2015	15:01:51.640	$GPGGA,150152,2428.0864,N,08122.7148,W,1,8,2.1,25,M,,M,,*5B
06/12/2015	15:01:52.609	$GPGGA,150153,2428.0869,N,08122.7132,W,1,8,2.1,25,M,,M,,*5A
06/12/2015	15:01:53.499	$GPGGA,150154,2428.0875,N,08122.7113,W,1,8,2.1,25,M,,M,,*53
06/12/2015	15:01:54.499	$GPGGA,150155,2428.0878,N,08122.7098,W,1,8,2.1,25,M,,M,,*5D
06/12/2015	15:01:55.589	$GPGGA,150156,2428.0883,N,08122.7082,W,1,8,2.1,25,M,,M,,*51
06/12/2015	15:01:56.489	$GPGGA,150157,2428.0887,N,08122.7064,W,1,8,2.1,24,M,,M,,*5D
06/12/2015	15:01:57.609	$GPGGA,150158,2428.0891,N,08122.7049,W,1,8,2.1,24,M,,M,,*5A
06/12/2015	15:01:58.479	$GPGGA,150159,2428.0894,N,08122.7033,W,1,8,2.1,24,M,,M,,*53
06/12/2015	15:01:59.599	$GPGGA,150200,2428.0900,N,08122.7015,W,1,8,2.1,24,M,,M,,*54
06/12/2015	15:02:00.575	$GPGGA,150201,2428.0905,N,08122.6999,W,1,8,2.1,24,M,,M,,*5C
06/12/2015	15:02:01.573	$GPGGA,150202,2428.0908,N,08122.6982,W,1,8,2.1,24,M,,M,,*58
06/12/2015	15:02:02.579	$GPGGA,150203,2428.0912,N,08122.6965,W,1,8,2.1,23,M,,M,,*5C
06/12/2015	15:02:03.610	$GPGGA,150204,2428.0916,N,08122.6948,W,1,8,2.1,23,M,,M,,*50
06/12/2015	15:02:04.573	$GPGGA,150205,2428.0920,N,08122.6931,W,1,8,2.1,23,M,,M,,*5A
06/12/2015	15:02:05.580	$GPGGA,150206,2428.0926,N,08122.6914,W,1,8,2.1,23,M,,M,,*58
06/12/2015	15:02:06.562	$GPGGA,150207,2428.0929,N,08122.6897,W,1,8,2.1,23,M,,M,,*5C
06/12/2015	15:02:07.620	$GPGGA,150208,2428.0932,N,08122.6880,W,1,8,2.1,23,M,,M,,*5F
06/12/2015	15:02:08.563	$GPGGA,150209,2428.0938,N,08122.6862,W,1,8,2.1,23,M,,M,,*58
06/12/2015	15:02:09.562	$GPGGA,150210,2428.0943,N,08122.6844,W,1,8,2.1,23,M,,M,,*58
06/12/2015	15:02:10.549	$GPGGA,150211,2428.0947,N,08122.6826,W,1,8,2.1,22,M,,M,,*58
06/12/2015	15:02:11.572	$GPGGA,150212,2428.0949,N,08122.6808,W,1,8,2.1,22,M,,M,,*59
06/12/2015	15:02:12.549	$GPGGA,150213,2428.0956,N,08122.6791,W,1,8,2.1,22,M,,M,,*59
06/12/2015	15:02:13.575	$GPGGA,150214,2428.0959,N,08122.6774,W,1,8,2.1,22,M,,M,,*5A
06/12/2015	15:02:14.539	$GPGGA,150215,2428.0965,N,08122.6755,W,1,8,2.1,22,M,,M,,*57
06/12/2015	15:02:15.575	$GPGGA,150216,2428.0970,N,08122.6738,W,1,8,2.1,22,M,,M,,*5B
06/12/2015	15:02:16.549	$GPGGA,150217,2428.0974,N,08122.6722,W,1,8,2.1,22,M,,M,,*55
06/12/2015	15:02:17.539	$GPGGA,150218,2428.0979,N,08122.6704,W,1,8,2.1,22,M,,M,,*53
06/12/2015	15:02:18.539	$GPGGA,150219,2428.0983,N,08122.6687,W,1,8,2.1,21,M,,M,,*5E
06/12/2015	15:02:19.569	$GPGGA,150220,2428.0988,N,08122.6669,W,1,8,2.1,21,M,,M,,*5F
06/12/2015	15:02:20.530	$GPGGA,150221,2428.0995,N,08122.6652,W,1,8,2.1,21,M,,M,,*5A
06/12/2015	15:02:21.540	$GPGGA,150222,2428.0999,N,08122.6636,W,1,8,2.1,21,M,,M,,*57
06/12/2015	15:02:22.540	$GPGGA,150223,2428.1003,N,08122.6618,W,1,8,2.1,21,M,,M,,*51
06/12/2015	15:02:24.530	$GPGGA,150225,2428.1017,N,08122.6585,W,1,8,2.1,21,M,,M,,*55
06/12/2015	15:02:25.550	$GPGGA,150226,2428.1021,N,08122.6568,W,1,8,2.1,21,M,,M,,*50
06/12/2015	15:02:26.610	$GPGGA,150227,2428.1026,N,08122.6551,W,1,8,2.1,21,M,,M,,*5C
06/12/2015	15:02:27.549	$GPGGA,150228,2428.1032,N,08122.6534,W,1,8,2.1,21,M,,M,,*55
06/12/2015	15:02:28.519	$GPGGA,150229,2428.1039,N,08122.6518,W,1,8,2.1,21,M,,M,,*51
06/12/2015	15:02:29.499	$GPGGA,150230,2428.1044,N,08122.6499,W,1,8,2.1,21,M,,M,,*5B
06/12/2015	15:02:30.499	$GPGGA,150231,2428.1049,N,08122.6481,W,1,8,2.1,21,M,,M,,*5E
06/12/2015	15:02:31.539	$GPGGA,150232,2428.1057,N,08122.6464,W,1,8,2.1,21,M,,M,,*59
06/12/2015	15:02:32.509	$GPGGA,150233,2428.1063,N,08122.6448,W,1,8,2.1,20,M,,M,,*50
06/12/2015	15:02:33.619	$GPGGA,150234,2428.1068,N,08122.6430,W,1,8,2.1,20,M,,M,,*53
06/12/2015	15:02:34.609	$GPGGA,150235,2428.1075,N,08122.6412,W,1,8,2.3,20,M,,M,,*5C
06/12/2015	15:02:35.509	$GPGGA,150236,2428.1082,N,08122.6394,W,1,7,2.3,20,M,,M,,*51
06/12/2015	15:02:36.509	$GPGGA,150237,2428.1089,N,08122.6378,W,1,7,2.1,20,M,,M,,*5B
06/12/2015	15:02:37.509	$GPGGA,150238,2428.1096,N,08122.6361,W,1,8,2.1,20,M,,M,,*5D
06/12/2015	15:02:38.580	$GPGGA,150239,2428.1102,N,08122.6345,W,1,8,2.1,20,M,,M,,*56
06/12/2015	15:02:39.620	$GPGGA,150240,2428.1107,N,08122.6330,W,1,8,2.1,20,M,,M,,*5F
06/12/2015	15:02:40.500	$GPGGA,150241,2428.1115,N,08122.6312,W,1,8,2.1,20,M,,M,,*5D
06/12/2015	15:02:41.580	$GPGGA,150242,2428.1121,N,08122.6297,W,1,8,2.1,20,M,,M,,*55
06/12/2015	15:02:42.580	$GPGGA,150243,2428.1126,N,08122.6283,W,1,8,2.1,20,M,,M,,*56
06/12/2015	15:02:43.990	$GPGGA,150244,2428.1133,N,08122.6266,W,1,8,2.1,20,M,,M,,*5E
06/12/2015	15:02:44.499	$GPGGA,150245,2428.1140,N,08122.6250,W,1,8,2.1,20,M,,M,,*5E
06/12/2015	15:02:45.589	$GPGGA,150246,2428.1147,N,08122.6235,W,1,7,2.3,20,M,,M,,*54
06/12/2015	15:02:46.579	$GPGGA,150247,2428.1151,N,08122.6220,W,1,7,2.1,20,M,,M,,*54
06/12/2015	15:02:47.579	$GPGGA,150248,2428.1158,N,08122.6203,W,1,8,2.1,20,M,,M,,*5C
06/12/2015	15:02:48.579	$GPGGA,150249,2428.1165,N,08122.6188,W,1,8,2.3,20,M,,M,,*51
06/12/2015	15:02:49.569	$GPGGA,150250,2428.1172,N,08122.6173,W,1,8,2.1,20,M,,M,,*59
06/12/2015	15:02:50.571	$GPGGA,150251,2428.1175,N,08122.6158,W,1,8,2.1,20,M,,M,,*56
06/12/2015	15:02:51.589	$GPGGA,150252,2428.1180,N,08122.6142,W,1,8,2.1,20,M,,M,,*54
06/12/2015	15:02:52.571	$GPGGA,150253,2428.1187,N,08122.6127,W,1,8,2.1,20,M,,M,,*51
06/12/2015	15:02:53.549	$GPGGA,150254,2428.1193,N,08122.6110,W,1,8,2.1,20,M,,M,,*57
06/12/2015	15:02:54.549	$GPGGA,150255,2428.1198,N,08122.6094,W,1,8,2.1,20,M,,M,,*50
06/12/2015	15:02:55.600	$GPGGA,150256,2428.1204,N,08122.6079,W,1,8,2.1,20,M,,M,,*56
06/12/2015	15:02:56.562	$GPGGA,150257,2428.1208,N,08122.6063,W,1,8,2.1,20,M,,M,,*50
06/12/2015	15:02:57.574	$GPGGA,150258,2428.1215,N,08122.6046,W,1,8,2.1,20,M,,M,,*54
06/12/2015	15:02:58.550	$GPGGA,150259,2428.1221,N,08122.6030,W,1,8,2.1,20,M,,M,,*53
06/12/2015	15:02:59.610	$GPGGA,150300,2428.1227,N,08122.6013,W,1,8,2.1,20,M,,M,,*59
06/12/2015	15:03:00.550	$GPGGA,150301,2428.1232,N,08122.5996,W,1,8,2.1,20,M,,M,,*5B
06/12/2015	15:03:01.563	$GPGGA,150302,2428.1237,N,08122.5981,W,1,8,2.1,20,M,,M,,*5B
06/12/2015	15:03:02.529	$GPGGA,150303,2428.1243,N,08122.5965,W,1,8,2.1,20,M,,M,,*53
06/12/2015	15:03:03.589	$GPGGA,150304,2428.1248,N,08122.5947,W,1,8,2.1,20,M,,M,,*5F
06/12/2015	15:03:04.539	$GPGGA,150305,2428.1252,N,08122.5931,W,1,8,2.1,20,M,,M,,*54
06/12/2015	15:03:05.560	$GPGGA,150306,2428.1258,N,08122.5915,W,1,8,2.1,20,M,,M,,*5B
06/12/2015	15:03:06.519	$GPGGA,150307,2428.1263,N,08122.5898,W,1,8,2.1,20,M,,M,,*56
06/12/2015	15:03:07.539	$GPGGA,150308,2428.1268,N,08122.5881,W,1,8,2.1,20,M,,M,,*5A
06/12/2015	15:03:08.519	$GPGGA,150309,2428.1273,N,08122.5865,W,1,8,2.1,20,M,,M,,*5B
06/12/2015	15:03:09.519	$GPGGA,150310,2428.1279,N,08122.5847,W,1,8,2.1,20,M,,M,,*59
06/12/2015	15:03:10.529	$GPGGA,150311,2428.1281,N,08122.5830,W,1,8,2.1,20,M,,M,,*5F
06/12/2015	15:03:11.560	$GPGGA,150312,2428.1287,N,08122.5814,W,1,8,2.1,20,M,,M,,*5C
06/12/2015	15:03:12.529	$GPGGA,150313,2428.1294,N,08122.5797,W,1,8,2.1,20,M,,M,,*5B
06/12/2015	15:03:13.510	$GPGGA,150314,2428.1298,N,08122.5778,W,1,8,2.1,20,M,,M,,*51
06/12/2015	15:03:14.510	$GPGGA,150315,2428.1301,N,08122.5760,W,1,8,2.1,20,M,,M,,*58
06/12/2015	15:03:15.530	$GPGGA,150316,2428.1308,N,08122.5744,W,1,8,2.1,20,M,,M,,*54
06/12/2015	15:03:16.520	$GPGGA,150317,2428.1313,N,08122.5726,W,1,8,2.1,20,M,,M,,*5B
06/12/2015	15:03:17.500	$GPGGA,150318,2428.1317,N,08122.5708,W,1,8,2.1,20,M,,M,,*5C
06/12/2015	15:03:18.510	$GPGGA,150319,2428.1321,N,08122.5693,W,1,8,2.1,20,M,,M,,*5B
06/12/2015	15:03:19.639	$GPGGA,150320,2428.1328,N,08122.5675,W,1,8,2.1,20,M,,M,,*50
06/12/2015	15:03:20.509	$GPGGA,150321,2428.1331,N,08122.5658,W,1,8,2.1,20,M,,M,,*56
06/12/2015	15:03:21.509	$GPGGA,150322,2428.1335,N,08122.5643,W,1,8,2.1,20,M,,M,,*5B
06/12/2015	15:03:22.609	$GPGGA,150323,2428.1341,N,08122.5626,W,1,8,2.1,20,M,,M,,*5A
06/12/2015	15:03:23.609	$GPGGA,150324,2428.1346,N,08122.5609,W,1,8,2.1,20,M,,M,,*57
06/12/2015	15:03:24.509	$GPGGA,150325,2428.1349,N,08122.5592,W,1,8,2.1,20,M,,M,,*58
06/12/2015	15:03:25.509	$GPGGA,150326,2428.1353,N,08122.5576,W,1,8,2.1,19,M,,M,,*50
06/12/2015	15:03:26.580	$GPGGA,150327,2428.1359,N,08122.5560,W,1,8,2.1,19,M,,M,,*5C
06/12/2015	15:03:27.599	$GPGGA,150328,2428.1363,N,08122.5541,W,1,8,2.1,19,M,,M,,*59
06/12/2015	15:03:28.489	$GPGGA,150329,2428.1367,N,08122.5525,W,1,8,2.2,19,M,,M,,*5D
06/12/2015	15:03:29.589	$GPGGA,150330,2428.1371,N,08122.5507,W,1,8,2.2,19,M,,M,,*52
06/12/2015	15:03:30.580	$GPGGA,150331,2428.1378,N,08122.5491,W,1,8,2.2,19,M,,M,,*54
06/12/2015	15:03:31.600	$GPGGA,150332,2428.1380,N,08122.5474,W,1,8,2.2,19,M,,M,,*5B
06/12/2015	15:03:32.581	$GPGGA,150333,2428.1385,N,08122.5456,W,1,8,2.2,19,M,,M,,*5F
06/12/2015	15:03:33.600	$GPGGA,150334,2428.1392,N,08122.5440,W,1,8,2.2,19,M,,M,,*59
06/12/2015	15:03:34.565	$GPGGA,150335,2428.1396,N,08122.5421,W,1,8,2.2,19,M,,M,,*5B
06/12/2015	15:03:35.600	$GPGGA,150336,2428.1400,N,08122.5405,W,1,7,2.4,19,M,,M,,*5F
06/12/2015	15:03:36.566	$GPGGA,150337,2428.1404,N,08122.5389,W,1,7,2.2,19,M,,M,,*5F
06/12/2015	15:03:37.570	$GPGGA,150338,2428.1410,N,08122.5373,W,1,8,2.2,19,M,,M,,*5F
06/12/2015	15:03:38.565	$GPGGA,150339,2428.1415,N,08122.5354,W,1,8,2.2,19,M,,M,,*5E
06/12/2015	15:03:39.609	$GPGGA,150340,2428.1420,N,08122.5337,W,1,8,2.2,19,M,,M,,*53
06/12/2015	15:03:40.549	$GPGGA,150341,2428.1425,N,08122.5321,W,1,8,2.2,19,M,,M,,*50
06/12/2015	15:03:41.549	$GPGGA,150342,2428.1431,N,08122.5303,W,1,8,2.2,19,M,,M,,*56
06/12/2015	15:03:42.559	$GPGGA,150343,2428.1436,N,08122.5286,W,1,8,2.2,19,M,,M,,*5C
06/12/2015	15:03:43.599	$GPGGA,150344,2428.1440,N,08122.5271,W,1,8,2.2,19,M,,M,,*52
06/12/2015	15:03:44.549	$GPGGA,150345,2428.1446,N,08122.5254,W,1,8,2.2,19,M,,M,,*52
06/12/2015	15:03:45.561	$GPGGA,150346,2428.1450,N,08122.5238,W,1,8,2.2,19,M,,M,,*5C
06/12/2015	15:03:46.549	$GPGGA,150347,2428.1456,N,08122.5223,W,1,8,2.2,19,M,,M,,*51
06/12/2015	15:03:47.589	$GPGGA,150348,2428.1461,N,08122.5207,W,1,8,2.2,19,M,,M,,*5C
06/12/2015	15:03:48.540	$GPGGA,150349,2428.1465,N,08122.5191,W,1,8,2.2,18,M,,M,,*54
06/12/2015	15:03:49.563	$GPGGA,150350,2428.1472,N,08122.5175,W,1,8,2.2,18,M,,M,,*50
06/12/2015	15:03:50.540	$GPGGA,150351,2428.1478,N,08122.5158,W,1,8,2.2,18,M,,M,,*54
06/12/2015	15:03:51.580	$GPGGA,150352,2428.1483,N,08122.5141,W,1,8,2.2,18,M,,M,,*5B
06/12/2015	15:03:52.540	$GPGGA,150353,2428.1490,N,08122.5124,W,1,8,2.2,18,M,,M,,*5B
06/12/2015	15:03:53.570	$GPGGA,150354,2428.1496,N,08122.5107,W,1,8,2.2,18,M,,M,,*5B
06/12/2015	15:03:54.540	$GPGGA,150355,2428.1503,N,08122.5090,W,1,8,2.2,18,M,,M,,*58
06/12/2015	15:03:55.570	$GPGGA,150356,2428.1510,N,08122.5070,W,1,7,2.4,18,M,,M,,*5E
06/12/2015	15:03:56.519	$GPGGA,150357,2428.1512,N,08122.5063,W,1,7,2.2,18,M,,M,,*59
06/12/2015	15:03:57.529	$GPGGA,150358,2428.1519,N,08122.5046,W,1,8,2.2,18,M,,M,,*55
06/12/2015	15:03:58.509	$GPGGA,150359,2428.1523,N,08122.5029,W,1,8,2.2,18,M,,M,,*54
06/12/2015	15:03:59.559	$GPGGA,150400,2428.1530,N,08122.5010,W,1,8,2.2,18,M,,M,,*57
06/12/2015	15:04:00.519	$GPGGA,150401,2428.1537,N,08122.4997,W,1,8,2.4,18,M,,M,,*50
06/12/2015	15:04:01.549	$GPGGA,150402,2428.1541,N,08122.4983,W,1,8,2.2,18,M,,M,,*51
06/12/2015	15:04:02.509	$GPGGA,150403,2428.1548,N,08122.4963,W,1,8,2.2,18,M,,M,,*57
06/12/2015	15:04:03.662	$GPGGA,150404,2428.1552,N,08122.4948,W,1,7,2.2,18,M,,M,,*5D
06/12/2015	15:04:04.529	$GPGGA,150405,2428.1561,N,08122.4929,W,1,7,2.2,18,M,,M,,*5B
06/12/2015	15:04:05.509	$GPGGA,150406,2428.1565,N,08122.4915,W,1,7,2.4,18,M,,M,,*55
06/12/2015	15:04:06.499	$GPGGA,150407,2428.1573,N,08122.4898,W,1,7,2.2,18,M,,M,,*51
06/12/2015	15:04:07.650	$GPGGA,150408,2428.1577,N,08122.4880,W,1,8,2.2,18,M,,M,,*5C
06/12/2015	15:04:08.599	$GPGGA,150409,2428.1584,N,08122.4863,W,1,8,2.2,18,M,,M,,*5C
06/12/2015	15:04:09.589	$GPGGA,150410,2428.1591,N,08122.4847,W,1,8,2.2,18,M,,M,,*56
06/12/2015	15:04:10.489	$GPGGA,150411,2428.1595,N,08122.4829,W,1,8,2.2,18,M,,M,,*5B
06/12/2015	15:04:11.618	$GPGGA,150412,2428.1602,N,08122.4812,W,1,8,2.2,18,M,,M,,*5D
06/12/2015	15:04:12.488	$GPGGA,150413,2428.1609,N,08122.4796,W,1,8,2.2,18,M,,M,,*54
06/12/2015	15:04:13.588	$GPGGA,150414,2428.1615,N,08122.4778,W,1,8,2.2,18,M,,M,,*5E
06/12/2015	15:04:14.578	$GPGGA,150415,2428.1620,N,08122.4761,W,1,8,2.2,18,M,,M,,*51
06/12/2015	15:04:15.578	$GPGGA,150416,2428.1627,N,08122.4744,W,1,8,2.2,18,M,,M,,*52
06/12/2015	15:04:16.569	$GPGGA,150417,2428.1633,N,08122.4728,W,1,8,2.2,18,M,,M,,*5C
06/12/2015	15:04:17.569	$GPGGA,150418,2428.1638,N,08122.4710,W,1,8,1.8,18,M,,M,,*5A
06/12/2015	15:04:18.569	$GPGGA,150419,2428.1645,N,08122.4692,W,1,8,1.8,18,M,,M,,*5A
06/12/2015	15:04:19.609	$GPGGA,150420,2428.1651,N,08122.4675,W,1,9,1.8,17,M,,M,,*52
06/12/2015	15:04:20.569	$GPGGA,150421,2428.1656,N,08122.4660,W,1,9,1.8,17,M,,M,,*50
06/12/2015	15:04:21.549	$GPGGA,150422,2428.1663,N,08122.4643,W,1,9,1.8,17,M,,M,,*54
06/12/2015	15:04:22.562	$GPGGA,150423,2428.1670,N,08122.4626,W,1,9,1.8,17,M,,M,,*54
06/12/2015	15:04:23.609	$GPGGA,150424,2428.1674,N,08122.4609,W,1,9,1.8,17,M,,M,,*5A
06/12/2015	15:04:24.550	$GPGGA,150425,2428.1680,N,08122.4594,W,1,9,1.8,17,M,,M,,*57
06/12/2015	15:04:25.579	$GPGGA,150426,2428.1685,N,08122.4577,W,1,9,1.9,17,M,,M,,*5D
06/12/2015	15:04:26.549	$GPGGA,150427,2428.1692,N,08122.4561,W,1,9,1.9,17,M,,M,,*5D
06/12/2015	15:04:27.579	$GPGGA,150428,2428.1696,N,08122.4545,W,1,8,1.8,17,M,,M,,*50
06/12/2015	15:04:28.552	$GPGGA,150429,2428.1700,N,08122.4529,W,1,8,1.8,17,M,,M,,*55
06/12/2015	15:04:29.538	$GPGGA,150430,2428.1706,N,08122.4514,W,1,9,1.8,17,M,,M,,*54
06/12/2015	15:04:30.538	$GPGGA,150431,2428.1711,N,08122.4498,W,1,9,1.8,17,M,,M,,*56
06/12/2015	15:04:31.578	$GPGGA,150432,2428.1718,N,08122.4481,W,1,9,1.8,17,M,,M,,*54
06/12/2015	15:04:32.538	$GPGGA,150433,2428.1721,N,08122.4464,W,1,9,1.8,17,M,,M,,*54
06/12/2015	15:04:33.529	$GPGGA,150434,2428.1725,N,08122.4448,W,1,9,1.8,17,M,,M,,*59
06/12/2015	15:04:34.539	$GPGGA,150435,2428.1732,N,08122.4432,W,1,9,1.8,17,M,,M,,*53
06/12/2015	15:04:35.599	$GPGGA,150436,2428.1738,N,08122.4413,W,1,9,1.8,17,M,,M,,*59
06/12/2015	15:04:36.529	$GPGGA,150437,2428.1742,N,08122.4397,W,1,9,1.8,17,M,,M,,*5E
06/12/2015	15:04:37.539	$GPGGA,150438,2428.1747,N,08122.4380,W,1,9,1.8,17,M,,M,,*52
06/12/2015	15:04:38.519	$GPGGA,150439,2428.1751,N,08122.4363,W,1,9,2.2,17,M,,M,,*50
06/12/2015	15:04:39.549	$GPGGA,150440,2428.1758,N,08122.4347,W,1,8,1.8,17,M,,M,,*59
06/12/2015	15:04:40.519	$GPGGA,150441,2428.1763,N,08122.4329,W,1,8,1.8,17,M,,M,,*58
06/12/2015	15:04:41.519	$GPGGA,150442,2428.1768,N,08122.4311,W,1,9,1.8,17,M,,M,,*5A
06/12/2015	15:04:42.519	$GPGGA,150443,2428.1772,N,08122.4292,W,1,9,1.8,17,M,,M,,*5A
06/12/2015	15:04:43.569	$GPGGA,150444,2428.1776,N,08122.4276,W,1,9,2.2,17,M,,M,,*5A
06/12/2015	15:04:44.519	$GPGGA,150445,2428.1783,N,08122.4261,W,1,9,1.8,17,M,,M,,*5E
06/12/2015	15:04:45.539	$GPGGA,150446,2428.1783,N,08122.4261,W,1,9,1.8,17,M,,M,,*5D
06/12/2015	15:04:46.518	$GPGGA,150447,2428.1794,N,08122.4220,W,1,9,1.8,17,M,,M,,*5F
06/12/2015	15:04:47.651	$GPGGA,150448,2428.1797,N,08122.4204,W,1,9,1.8,17,M,,M,,*55
06/12/2015	15:04:48.598	$GPGGA,150449,2428.1803,N,08122.4188,W,1,9,1.8,17,M,,M,,*51
06/12/2015	15:04:49.498	$GPGGA,150450,2428.1808,N,08122.4169,W,1,9,1.8,17,M,,M,,*5D
06/12/2015	15:04:50.588	$GPGGA,150451,2428.1812,N,08122.4152,W,1,9,1.8,17,M,,M,,*5F
06/12/2015	15:04:51.550	$GPGGA,150452,2428.1815,N,08122.4137,W,1,9,1.8,17,M,,M,,*58
06/12/2015	15:04:52.509	$GPGGA,150453,2428.1821,N,08122.4118,W,1,9,1.8,16,M,,M,,*52
06/12/2015	15:04:53.609	$GPGGA,150454,2428.1826,N,08122.4101,W,1,9,1.8,16,M,,M,,*5A
06/12/2015	15:04:54.589	$GPGGA,150455,2428.1832,N,08122.4087,W,1,9,1.8,16,M,,M,,*51
06/12/2015	15:04:55.589	$GPGGA,150456,2428.1837,N,08122.4069,W,1,9,1.8,16,M,,M,,*57
06/12/2015	15:04:56.499	$GPGGA,150457,2428.1841,N,08122.4051,W,1,9,1.8,16,M,,M,,*5C
06/12/2015	15:04:57.589	$GPGGA,150458,2428.1846,N,08122.4036,W,1,9,1.8,16,M,,M,,*55
06/12/2015	15:04:58.489	$GPGGA,150459,2428.1852,N,08122.4021,W,1,9,1.8,16,M,,M,,*57
06/12/2015	15:04:59.650	$GPGGA,150500,2428.1857,N,08122.4003,W,1,9,1.8,16,M,,M,,*5F
06/12/2015	15:05:00.569	$GPGGA,150501,2428.1861,N,08122.3987,W,1,9,1.8,16,M,,M,,*59
06/12/2015	15:05:01.569	$GPGGA,150502,2428.1866,N,08122.3972,W,1,9,1.8,16,M,,M,,*57
06/12/2015	15:05:02.569	$GPGGA,150503,2428.1870,N,08122.3955,W,1,9,1.8,16,M,,M,,*54
06/12/2015	15:05:03.579	$GPGGA,150504,2428.1875,N,08122.3939,W,1,9,1.8,16,M,,M,,*5C
06/12/2015	15:05:04.568	$GPGGA,150505,2428.1880,N,08122.3922,W,1,9,1.8,16,M,,M,,*5D
06/12/2015	15:05:05.568	$GPGGA,150506,2428.1884,N,08122.3906,W,1,9,1.8,16,M,,M,,*5C
06/12/2015	15:05:06.568	$GPGGA,150507,2428.1890,N,08122.3889,W,1,9,1.8,16,M,,M,,*5E
06/12/2015	15:05:07.578	$GPGGA,150508,2428.1895,N,08122.3871,W,1,9,1.8,16,M,,M,,*53
06/12/2015	15:05:08.559	$GPGGA,150509,2428.1899,N,08122.3856,W,1,9,1.8,16,M,,M,,*5B
06/12/2015	15:05:09.569	$GPGGA,150510,2428.1906,N,08122.3840,W,1,9,1.8,16,M,,M,,*53
06/12/2015	15:05:10.552	$GPGGA,150511,2428.1911,N,08122.3823,W,1,9,1.8,16,M,,M,,*51
06/12/2015	15:05:11.579	$GPGGA,150512,2428.1915,N,08122.3806,W,1,9,1.8,16,M,,M,,*51
06/12/2015	15:05:12.569	$GPGGA,150513,2428.1920,N,08122.3791,W,1,9,1.8,16,M,,M,,*57
06/12/2015	15:05:13.559	$GPGGA,150514,2428.1927,N,08122.3774,W,1,9,1.8,16,M,,M,,*5C
06/12/2015	15:05:14.557	$GPGGA,150515,2428.1931,N,08122.3756,W,1,9,1.8,16,M,,M,,*5A
06/12/2015	15:05:15.572	$GPGGA,150516,2428.1938,N,08122.3740,W,1,8,2.2,16,M,,M,,*5F
06/12/2015	15:05:16.556	$GPGGA,150517,2428.1945,N,08122.3724,W,1,8,1.9,16,M,,M,,*5E
06/12/2015	15:05:17.562	$GPGGA,150518,2428.1949,N,08122.3706,W,1,9,1.9,16,M,,M,,*5C
06/12/2015	15:05:18.539	$GPGGA,150519,2428.1955,N,08122.3691,W,1,9,1.9,16,M,,M,,*5F
06/12/2015	15:05:19.569	$GPGGA,150520,2428.1962,N,08122.3676,W,1,9,1.9,16,M,,M,,*58
06/12/2015	15:05:20.539	$GPGGA,150521,2428.1967,N,08122.3660,W,1,9,1.9,16,M,,M,,*5B
06/12/2015	15:05:21.558	$GPGGA,150522,2428.1974,N,08122.3644,W,1,9,1.9,16,M,,M,,*5C
06/12/2015	15:05:22.528	$GPGGA,150523,2428.1980,N,08122.3629,W,1,9,1.9,16,M,,M,,*5D
06/12/2015	15:05:23.557	$GPGGA,150524,2428.1984,N,08122.3613,W,1,8,1.9,16,M,,M,,*56
06/12/2015	15:05:24.518	$GPGGA,150525,2428.1989,N,08122.3598,W,1,8,1.9,16,M,,M,,*5A
06/12/2015	15:05:25.559	$GPGGA,150526,2428.1996,N,08122.3583,W,1,8,1.9,16,M,,M,,*5D
06/12/2015	15:05:26.509	$GPGGA,150527,2428.2002,N,08122.3567,W,1,8,1.9,16,M,,M,,*51
06/12/2015	15:05:27.529	$GPGGA,150528,2428.2007,N,08122.3551,W,1,9,1.9,16,M,,M,,*5F
06/12/2015	15:05:28.509	$GPGGA,150529,2428.2013,N,08122.3537,W,1,9,1.9,16,M,,M,,*5B
06/12/2015	15:05:29.519	$GPGGA,150530,2428.2020,N,08122.3520,W,1,9,1.9,16,M,,M,,*55
06/12/2015	15:05:30.499	$GPGGA,150531,2428.2025,N,08122.3503,W,1,9,1.9,16,M,,M,,*50
06/12/2015	15:05:31.539	$GPGGA,150532,2428.2032,N,08122.3485,W,1,8,1.9,16,M,,M,,*5B
06/12/2015	15:05:32.499	$GPGGA,150533,2428.2036,N,08122.3471,W,1,8,2.4,16,M,,M,,*5B
06/12/2015	15:05:34.100	$GPGGA,150534,2428.2043,N,08122.3455,W,1,9,1.9,16,M,,M,,*57
06/12/2015	15:05:34.489	$GPGGA,150535,2428.2049,N,08122.3439,W,1,9,1.9,16,M,,M,,*56
06/12/2015	15:05:35.539	$GPGGA,150536,2428.2052,N,08122.3424,W,1,8,1.9,17,M,,M,,*53
06/12/2015	15:05:36.499	$GPGGA,150537,2428.2058,N,08122.3407,W,1,8,1.9,17,M,,M,,*59
06/12/2015	15:05:37.589	$GPGGA,150538,2428.2065,N,08122.3394,W,1,9,1.9,17,M,,M,,*54
06/12/2015	15:05:38.579	$GPGGA,150539,2428.2070,N,08122.3378,W,1,9,1.9,17,M,,M,,*53
06/12/2015	15:05:39.518	$GPGGA,150540,2428.2075,N,08122.3361,W,1,9,1.9,17,M,,M,,*50
06/12/2015	15:05:40.574	$GPGGA,150541,2428.2083,N,08122.3345,W,1,9,1.9,17,M,,M,,*5E
06/12/2015	15:05:41.488	$GPGGA,150542,2428.2089,N,08122.3327,W,1,8,1.9,17,M,,M,,*52
06/12/2015	15:05:42.488	$GPGGA,150543,2428.2094,N,08122.3310,W,1,8,1.9,17,M,,M,,*5B
06/12/2015	15:05:43.629	$GPGGA,150544,2428.2101,N,08122.3294,W,1,9,1.9,17,M,,M,,*5D
06/12/2015	15:05:44.579	$GPGGA,150545,2428.2108,N,08122.3276,W,1,9,1.9,17,M,,M,,*59
06/12/2015	15:05:45.574	$GPGGA,150546,2428.2112,N,08122.3259,W,1,9,1.9,17,M,,M,,*5C
06/12/2015	15:05:46.579	$GPGGA,150547,2428.2119,N,08122.3242,W,1,9,1.9,17,M,,M,,*5C
06/12/2015	15:05:47.589	$GPGGA,150548,2428.2126,N,08122.3226,W,1,9,1.9,17,M,,M,,*5D
06/12/2015	15:05:48.579	$GPGGA,150549,2428.2130,N,08122.3209,W,1,9,1.9,17,M,,M,,*56
06/12/2015	15:05:49.579	$GPGGA,150550,2428.2136,N,08122.3191,W,1,9,1.9,17,M,,M,,*5A
06/12/2015	15:05:50.565	$GPGGA,150551,2428.2141,N,08122.3177,W,1,9,2.2,17,M,,M,,*5B
06/12/2015	15:05:51.609	$GPGGA,150552,2428.2147,N,08122.3161,W,1,9,1.9,17,M,,M,,*51
06/12/2015	15:05:52.549	$GPGGA,150553,2428.2151,N,08122.3143,W,1,9,1.9,17,M,,M,,*57
06/12/2015	15:05:53.569	$GPGGA,150554,2428.2158,N,08122.3127,W,1,9,1.9,17,M,,M,,*5B
06/12/2015	15:05:54.560	$GPGGA,150555,2428.2162,N,08122.3112,W,1,9,1.9,17,M,,M,,*55
06/12/2015	15:05:55.589	$GPGGA,150556,2428.2169,N,08122.3094,W,1,9,1.9,17,M,,M,,*52
06/12/2015	15:05:56.554	$GPGGA,150557,2428.2175,N,08122.3079,W,1,9,1.9,18,M,,M,,*52
06/12/2015	15:05:57.568	$GPGGA,150558,2428.2180,N,08122.3062,W,1,9,1.9,18,M,,M,,*5D
06/12/2015	15:05:58.548	$GPGGA,150559,2428.2184,N,08122.3045,W,1,9,1.9,18,M,,M,,*5D
06/12/2015	15:05:59.608	$GPGGA,150600,2428.2191,N,08122.3029,W,1,9,1.9,18,M,,M,,*5C
06/12/2015	15:06:00.549	$GPGGA,150601,2428.2195,N,08122.3012,W,1,9,1.9,18,M,,M,,*51
06/12/2015	15:06:01.529	$GPGGA,150602,2428.2201,N,08122.2996,W,1,9,1.9,18,M,,M,,*58
06/12/2015	15:06:02.539	$GPGGA,150603,2428.2206,N,08122.2980,W,1,9,1.9,18,M,,M,,*59
06/12/2015	15:06:03.569	$GPGGA,150604,2428.2212,N,08122.2963,W,1,9,1.9,18,M,,M,,*56
06/12/2015	15:06:04.539	$GPGGA,150605,2428.2216,N,08122.2946,W,1,9,1.9,18,M,,M,,*54
06/12/2015	15:06:05.519	$GPGGA,150606,2428.2220,N,08122.2931,W,1,9,1.9,18,M,,M,,*52
06/12/2015	15:06:06.539	$GPGGA,150607,2428.2227,N,08122.2913,W,1,9,1.9,18,M,,M,,*54
06/12/2015	15:06:07.550	$GPGGA,150608,2428.2231,N,08122.2896,W,1,9,1.9,18,M,,M,,*50
06/12/2015	15:06:08.529	$GPGGA,150609,2428.2235,N,08122.2880,W,1,9,1.9,18,M,,M,,*52
06/12/2015	15:06:09.550	$GPGGA,150610,2428.2241,N,08122.2862,W,1,9,1.9,19,M,,M,,*54
06/12/2015	15:06:10.529	$GPGGA,150611,2428.2248,N,08122.2846,W,1,9,1.9,19,M,,M,,*5A
06/12/2015	15:06:11.529	$GPGGA,150612,2428.2253,N,08122.2828,W,1,8,1.9,19,M,,M,,*5A
06/12/2015	15:06:12.529	$GPGGA,150613,2428.2258,N,08122.2809,W,1,8,1.9,19,M,,M,,*53
06/12/2015	15:06:13.519	$GPGGA,150614,2428.2263,N,08122.2792,W,1,9,1.9,19,M,,M,,*50
06/12/2015	15:06:14.518	$GPGGA,150615,2428.2270,N,08122.2774,W,1,9,1.9,19,M,,M,,*5B
06/12/2015	15:06:15.560	$GPGGA,150616,2428.2274,N,08122.2756,W,1,9,1.9,19,M,,M,,*5C
06/12/2015	15:06:16.508	$GPGGA,150617,2428.2278,N,08122.2739,W,1,9,1.9,19,M,,M,,*58
06/12/2015	15:06:17.608	$GPGGA,150618,2428.2285,N,08122.2719,W,1,9,1.9,19,M,,M,,*57
06/12/2015	15:06:18.599	$GPGGA,150619,2428.2289,N,08122.2704,W,1,9,1.9,19,M,,M,,*56
06/12/2015	15:06:19.629	$GPGGA,150620,2428.2295,N,08122.2689,W,1,9,1.9,19,M,,M,,*55
06/12/2015	15:06:20.509	$GPGGA,150621,2428.2300,N,08122.2670,W,1,9,1.9,19,M,,M,,*5F
06/12/2015	15:06:21.609	$GPGGA,150622,2428.2306,N,08122.2654,W,1,9,1.9,19,M,,M,,*5C
06/12/2015	15:06:22.589	$GPGGA,150623,2428.2309,N,08122.2640,W,1,9,1.9,19,M,,M,,*57
06/12/2015	15:06:23.499	$GPGGA,150624,2428.2314,N,08122.2622,W,1,9,1.9,19,M,,M,,*58
06/12/2015	15:06:24.599	$GPGGA,150625,2428.2321,N,08122.2607,W,1,9,1.9,19,M,,M,,*58
06/12/2015	15:06:25.500	$GPGGA,150626,2428.2327,N,08122.2591,W,1,9,1.9,19,M,,M,,*51
06/12/2015	15:06:26.509	$GPGGA,150627,2428.2329,N,08122.2574,W,1,9,1.9,19,M,,M,,*55
06/12/2015	15:06:27.609	$GPGGA,150628,2428.2335,N,08122.2557,W,1,9,1.9,19,M,,M,,*56
06/12/2015	15:06:28.489	$GPGGA,150629,2428.2341,N,08122.2541,W,1,9,1.9,19,M,,M,,*53
06/12/2015	15:06:29.609	$GPGGA,150630,2428.2345,N,08122.2526,W,1,9,1.9,19,M,,M,,*5E
06/12/2015	15:06:30.579	$GPGGA,150631,2428.2350,N,08122.2508,W,1,9,1.9,19,M,,M,,*57
06/12/2015	15:06:31.608	$GPGGA,150632,2428.2356,N,08122.2493,W,1,9,1.9,19,M,,M,,*51
06/12/2015	15:06:32.578	$GPGGA,150633,2428.2357,N,08122.2477,W,1,9,1.9,19,M,,M,,*5B
06/12/2015	15:06:33.588	$GPGGA,150634,2428.2364,N,08122.2460,W,1,9,1.9,19,M,,M,,*5A
06/12/2015	15:06:34.558	$GPGGA,150635,2428.2371,N,08122.2445,W,1,9,1.9,19,M,,M,,*58
06/12/2015	15:06:35.599	$GPGGA,150636,2428.2375,N,08122.2428,W,1,9,1.9,19,M,,M,,*54
06/12/2015	15:06:36.579	$GPGGA,150637,2428.2379,N,08122.2409,W,1,9,1.9,19,M,,M,,*5A
06/12/2015	15:06:37.579	$GPGGA,150638,2428.2385,N,08122.2395,W,1,9,1.9,19,M,,M,,*54
06/12/2015	15:06:38.552	$GPGGA,150639,2428.2390,N,08122.2379,W,1,9,1.9,19,M,,M,,*53
06/12/2015	15:06:39.589	$GPGGA,150640,2428.2396,N,08122.2361,W,1,9,1.9,19,M,,M,,*52
06/12/2015	15:06:40.551	$GPGGA,150641,2428.2401,N,08122.2345,W,1,9,1.9,19,M,,M,,*5C
06/12/2015	15:06:41.564	$GPGGA,150642,2428.2406,N,08122.2329,W,1,8,1.9,19,M,,M,,*53
06/12/2015	15:06:42.553	$GPGGA,150643,2428.2411,N,08122.2312,W,1,8,1.9,19,M,,M,,*5C
06/12/2015	15:06:43.579	$GPGGA,150644,2428.2415,N,08122.2295,W,1,9,1.9,19,M,,M,,*50
06/12/2015	15:06:44.563	$GPGGA,150645,2428.2421,N,08122.2279,W,1,9,1.9,19,M,,M,,*54
06/12/2015	15:06:45.539	$GPGGA,150646,2428.2426,N,08122.2263,W,1,9,1.9,19,M,,M,,*5B
06/12/2015	15:06:46.549	$GPGGA,150647,2428.2432,N,08122.2246,W,1,9,1.9,19,M,,M,,*58
06/12/2015	15:06:47.579	$GPGGA,150648,2428.2436,N,08122.2229,W,1,9,1.9,19,M,,M,,*5A
06/12/2015	15:06:48.539	$GPGGA,150649,2428.2440,N,08122.2214,W,1,9,1.9,19,M,,M,,*54
06/12/2015	15:06:49.568	$GPGGA,150650,2428.2448,N,08122.2196,W,1,9,1.9,19,M,,M,,*5D
06/12/2015	15:06:50.538	$GPGGA,150651,2428.2451,N,08122.2179,W,1,9,1.9,19,M,,M,,*55
06/12/2015	15:06:51.578	$GPGGA,150652,2428.2457,N,08122.2164,W,1,9,1.9,19,M,,M,,*5C
06/12/2015	15:06:52.538	$GPGGA,150653,2428.2464,N,08122.2146,W,1,9,1.9,19,M,,M,,*5D
06/12/2015	15:06:53.539	$GPGGA,150654,2428.2466,N,08122.2128,W,1,9,1.9,19,M,,M,,*50
06/12/2015	15:06:54.529	$GPGGA,150655,2428.2471,N,08122.2112,W,1,9,1.9,19,M,,M,,*5E
06/12/2015	15:06:55.559	$GPGGA,150656,2428.2477,N,08122.2097,W,1,9,1.9,18,M,,M,,*56
06/12/2015	15:06:56.530	$GPGGA,150657,2428.2484,N,08122.2081,W,1,9,1.9,18,M,,M,,*5C
06/12/2015	15:06:57.539	$GPGGA,150658,2428.2487,N,08122.2062,W,1,9,1.9,18,M,,M,,*5D
06/12/2015	15:06:58.509	$GPGGA,150659,2428.2488,N,08122.2048,W,1,9,1.9,18,M,,M,,*5B
06/12/2015	15:06:59.529	$GPGGA,150700,2428.2495,N,08122.2038,W,1,8,2.2,18,M,,M,,*54
06/12/2015	15:07:00.510	$GPGGA,150701,2428.2501,N,08122.2023,W,1,8,1.9,18,M,,M,,*5B
06/12/2015	15:07:01.656	$GPGGA,150702,2428.2502,N,08122.2007,W,1,9,1.9,19,M,,M,,*5D
06/12/2015	15:07:03.029	$GPGGA,150703,2428.2505,N,08122.1993,W,1,9,1.9,19,M,,M,,*5C
06/12/2015	15:07:03.689	$GPGGA,150704,2428.2509,N,08122.1980,W,1,9,1.9,19,M,,M,,*55
06/12/2015	15:07:04.509	$GPGGA,150705,2428.2513,N,08122.1964,W,1,9,1.9,19,M,,M,,*55
06/12/2015	15:07:05.519	$GPGGA,150706,2428.2518,N,08122.1948,W,1,9,1.9,19,M,,M,,*53
06/12/2015	15:07:06.588	$GPGGA,150707,2428.2523,N,08122.1933,W,1,9,1.9,19,M,,M,,*56
06/12/2015	15:07:07.551	$GPGGA,150708,2428.2527,N,08122.1916,W,1,9,1.9,19,M,,M,,*5A
06/12/2015	15:07:08.508	$GPGGA,150709,2428.2531,N,08122.1900,W,1,9,1.9,19,M,,M,,*5B
06/12/2015	15:07:09.638	$GPGGA,150710,2428.2534,N,08122.1885,W,1,9,1.9,19,M,,M,,*5A
06/12/2015	15:07:10.589	$GPGGA,150711,2428.2541,N,08122.1867,W,1,9,1.9,19,M,,M,,*55
06/12/2015	15:07:11.509	$GPGGA,150712,2428.2547,N,08122.1850,W,1,9,1.9,19,M,,M,,*54
06/12/2015	15:07:12.499	$GPGGA,150713,2428.2549,N,08122.1833,W,1,9,1.9,19,M,,M,,*5E
06/12/2015	15:07:13.669	$GPGGA,150714,2428.2552,N,08122.1815,W,1,8,1.9,19,M,,M,,*56
06/12/2015	15:07:14.659	$GPGGA,150715,2428.2560,N,08122.1797,W,1,8,1.9,19,M,,M,,*53
06/12/2015	15:07:15.499	$GPGGA,150716,2428.2565,N,08122.1780,W,1,9,1.9,19,M,,M,,*52
06/12/2015	15:07:16.639	$GPGGA,150717,2428.2569,N,08122.1762,W,1,9,1.9,19,M,,M,,*53
06/12/2015	15:07:17.651	$GPGGA,150718,2428.2571,N,08122.1746,W,1,9,1.9,19,M,,M,,*53
06/12/2015	15:07:18.660	$GPGGA,150719,2428.2577,N,08122.1731,W,1,9,1.9,19,M,,M,,*54
06/12/2015	15:07:19.662	$GPGGA,150720,2428.2581,N,08122.1714,W,1,9,1.9,19,M,,M,,*50
06/12/2015	15:07:20.560	$GPGGA,150721,2428.2585,N,08122.1697,W,1,9,1.9,19,M,,M,,*5F
06/12/2015	15:07:21.559	$GPGGA,150722,2428.2589,N,08122.1680,W,1,9,1.9,19,M,,M,,*56
06/12/2015	15:07:22.609	$GPGGA,150723,2428.2595,N,08122.1663,W,1,9,1.9,19,M,,M,,*57
06/12/2015	15:07:23.669	$GPGGA,150724,2428.2599,N,08122.1645,W,1,9,1.9,19,M,,M,,*58
06/12/2015	15:07:24.608	$GPGGA,150725,2428.2603,N,08122.1627,W,1,9,1.9,19,M,,M,,*5D
06/12/2015	15:07:25.598	$GPGGA,150726,2428.2607,N,08122.1610,W,1,9,1.9,19,M,,M,,*5E
06/12/2015	15:07:26.608	$GPGGA,150727,2428.2612,N,08122.1593,W,1,9,1.9,19,M,,M,,*53
06/12/2015	15:07:27.618	$GPGGA,150728,2428.2617,N,08122.1576,W,1,9,1.9,19,M,,M,,*52
06/12/2015	15:07:29.609	$GPGGA,150729,2428.2623,N,08122.1559,W,1,9,1.9,19,M,,M,,*59
06/12/2015	15:07:29.639	$GPGGA,150730,2428.2625,N,08122.1541,W,1,9,1.9,19,M,,M,,*5E
06/12/2015	15:07:30.539	$GPGGA,150731,2428.2630,N,08122.1523,W,1,9,1.9,19,M,,M,,*5F
06/12/2015	15:07:31.599	$GPGGA,150732,2428.2636,N,08122.1507,W,1,9,1.9,19,M,,M,,*5C
06/12/2015	15:07:32.599	$GPGGA,150733,2428.2642,N,08122.1489,W,1,9,1.9,19,M,,M,,*59
06/12/2015	15:07:33.529	$GPGGA,150734,2428.2643,N,08122.1471,W,1,9,1.9,19,M,,M,,*58
06/12/2015	15:07:34.609	$GPGGA,150735,2428.2650,N,08122.1455,W,1,9,1.9,19,M,,M,,*5D
06/12/2015	15:07:35.539	$GPGGA,150736,2428.2656,N,08122.1437,W,1,9,1.9,19,M,,M,,*5C
06/12/2015	15:07:36.599	$GPGGA,150737,2428.2660,N,08122.1419,W,1,9,1.9,19,M,,M,,*54
06/12/2015	15:07:37.519	$GPGGA,150738,2428.2664,N,08122.1402,W,1,9,1.9,19,M,,M,,*55
06/12/2015	15:07:38.519	$GPGGA,150739,2428.2670,N,08122.1385,W,1,9,1.9,19,M,,M,,*59
06/12/2015	15:07:39.619	$GPGGA,150740,2428.2675,N,08122.1368,W,1,9,1.9,19,M,,M,,*51
06/12/2015	15:07:40.599	$GPGGA,150741,2428.2679,N,08122.1351,W,1,9,1.9,19,M,,M,,*56
06/12/2015	15:07:41.549	$GPGGA,150742,2428.2685,N,08122.1333,W,1,9,1.9,19,M,,M,,*52
06/12/2015	15:07:42.578	$GPGGA,150743,2428.2689,N,08122.1315,W,1,9,1.9,19,M,,M,,*5B
06/12/2015	15:07:43.588	$GPGGA,150744,2428.2695,N,08122.1298,W,1,9,1.9,19,M,,M,,*55
06/12/2015	15:07:44.578	$GPGGA,150745,2428.2700,N,08122.1280,W,1,9,1.9,19,M,,M,,*50
06/12/2015	15:07:45.551	$GPGGA,150746,2428.2704,N,08122.1263,W,1,9,1.9,19,M,,M,,*5A
06/12/2015	15:07:46.629	$GPGGA,150747,2428.2708,N,08122.1246,W,1,9,1.9,19,M,,M,,*50
06/12/2015	15:07:47.519	$GPGGA,150748,2428.2715,N,08122.1227,W,1,9,1.9,19,M,,M,,*54
06/12/2015	15:07:48.639	$GPGGA,150749,2428.2719,N,08122.1210,W,1,9,1.9,19,M,,M,,*5D
06/12/2015	15:07:49.549	$GPGGA,150750,2428.2726,N,08122.1192,W,1,9,1.9,19,M,,M,,*50
06/12/2015	15:07:50.559	$GPGGA,150751,2428.2732,N,08122.1174,W,1,9,1.9,19,M,,M,,*5C
06/12/2015	15:07:51.589	$GPGGA,150752,2428.2735,N,08122.1157,W,1,9,1.9,19,M,,M,,*59
06/12/2015	15:07:52.569	$GPGGA,150753,2428.2739,N,08122.1140,W,1,9,1.9,19,M,,M,,*52
06/12/2015	15:07:53.562	$GPGGA,150754,2428.2747,N,08122.1121,W,1,9,1.9,19,M,,M,,*5B
06/12/2015	15:07:54.550	$GPGGA,150755,2428.2751,N,08122.1104,W,1,9,1.9,19,M,,M,,*5A
06/12/2015	15:07:55.569	$GPGGA,150756,2428.2757,N,08122.1087,W,1,9,1.9,19,M,,M,,*55
06/12/2015	15:07:56.589	$GPGGA,150757,2428.2762,N,08122.1069,W,1,9,1.9,19,M,,M,,*52
06/12/2015	15:07:57.557	$GPGGA,150758,2428.2769,N,08122.1051,W,1,9,1.9,19,M,,M,,*5D
06/12/2015	15:07:58.599	$GPGGA,150759,2428.2773,N,08122.1034,W,1,9,1.9,19,M,,M,,*54
06/12/2015	15:07:59.638	$GPGGA,150800,2428.2777,N,08122.1018,W,1,9,1.9,19,M,,M,,*5D
06/12/2015	15:08:00.559	$GPGGA,150801,2428.2784,N,08122.1000,W,1,9,1.9,19,M,,M,,*59
06/12/2015	15:08:01.598	$GPGGA,150802,2428.2790,N,08122.0982,W,1,9,1.9,19,M,,M,,*5D
06/12/2015	15:08:02.578	$GPGGA,150803,2428.2794,N,08122.0966,W,1,9,1.9,19,M,,M,,*52
06/12/2015	15:08:03.619	$GPGGA,150804,2428.2798,N,08122.0950,W,1,9,1.9,19,M,,M,,*5C
06/12/2015	15:08:04.579	$GPGGA,150805,2428.2805,N,08122.0932,W,1,9,1.9,19,M,,M,,*52
06/12/2015	15:08:05.579	$GPGGA,150806,2428.2809,N,08122.0915,W,1,9,1.9,18,M,,M,,*59
06/12/2015	15:08:06.589	$GPGGA,150807,2428.2813,N,08122.0899,W,1,9,1.9,18,M,,M,,*56
06/12/2015	15:08:07.599	$GPGGA,150808,2428.2820,N,08122.0881,W,1,9,1.9,18,M,,M,,*50
06/12/2015	15:08:08.557	$GPGGA,150809,2428.2824,N,08122.0865,W,1,9,1.9,18,M,,M,,*5F
06/12/2015	15:08:09.579	$GPGGA,150810,2428.2829,N,08122.0848,W,1,9,1.9,18,M,,M,,*55
06/12/2015	15:08:10.561	$GPGGA,150811,2428.2833,N,08122.0830,W,1,9,1.9,18,M,,M,,*50
06/12/2015	15:08:11.589	$GPGGA,150812,2428.2838,N,08122.0815,W,1,9,1.9,18,M,,M,,*5F
06/12/2015	15:08:12.567	$GPGGA,150813,2428.2838,N,08122.0815,W,1,9,1.9,18,M,,M,,*5E
06/12/2015	15:08:13.569	$GPGGA,150814,2428.2849,N,08122.0780,W,1,9,1.9,18,M,,M,,*5C
06/12/2015	15:08:14.555	$GPGGA,150815,2428.2852,N,08122.0764,W,1,9,1.9,18,M,,M,,*5D
06/12/2015	15:08:15.579	$GPGGA,150816,2428.2858,N,08122.0747,W,1,9,1.9,18,M,,M,,*55
06/12/2015	15:08:16.549	$GPGGA,150817,2428.2858,N,08122.0747,W,1,9,1.9,18,M,,M,,*54
06/12/2015	15:08:17.588	$GPGGA,150818,2428.2867,N,08122.0713,W,1,9,1.9,18,M,,M,,*56
06/12/2015	15:08:18.553	$GPGGA,150819,2428.2872,N,08122.0695,W,1,9,1.9,18,M,,M,,*5C
06/12/2015	15:08:19.555	$GPGGA,150820,2428.2877,N,08122.0679,W,1,9,1.9,18,M,,M,,*51
06/12/2015	15:08:20.562	$GPGGA,150821,2428.2881,N,08122.0662,W,1,9,1.9,18,M,,M,,*53
06/12/2015	15:08:21.539	$GPGGA,150822,2428.2887,N,08122.0644,W,1,9,1.9,18,M,,M,,*52
06/12/2015	15:08:22.549	$GPGGA,150823,2428.2892,N,08122.0628,W,1,9,1.9,18,M,,M,,*5D
06/12/2015	15:08:23.579	$GPGGA,150824,2428.2898,N,08122.0611,W,1,9,1.9,18,M,,M,,*5A
06/12/2015	15:08:25.019	$GPGGA,150825,2428.2901,N,08122.0593,W,1,9,1.9,18,M,,M,,*53
06/12/2015	15:08:25.553	$GPGGA,150826,2428.2906,N,08122.0577,W,1,9,1.9,18,M,,M,,*5D
06/12/2015	15:08:26.539	$GPGGA,150827,2428.2906,N,08122.0577,W,1,9,1.9,18,M,,M,,*5C
06/12/2015	15:08:27.653	$GPGGA,150828,2428.2916,N,08122.0542,W,1,9,1.9,18,M,,M,,*54
06/12/2015	15:08:28.550	$GPGGA,150829,2428.2916,N,08122.0542,W,1,9,1.9,18,M,,M,,*55
06/12/2015	15:08:29.529	$GPGGA,150830,2428.2927,N,08122.0508,W,1,9,1.9,18,M,,M,,*51
06/12/2015	15:08:30.557	$GPGGA,150831,2428.2931,N,08122.0490,W,1,9,1.9,18,M,,M,,*57
06/12/2015	15:08:31.539	$GPGGA,150832,2428.2935,N,08122.0471,W,1,9,1.9,18,M,,M,,*5F
06/12/2015	15:08:32.529	$GPGGA,150833,2428.2935,N,08122.0471,W,1,9,1.9,18,M,,M,,*5E
06/12/2015	15:08:33.553	$GPGGA,150834,2428.2946,N,08122.0439,W,1,9,1.9,18,M,,M,,*51
06/12/2015	15:08:34.518	$GPGGA,150835,2428.2946,N,08122.0439,W,1,9,1.9,18,M,,M,,*50
06/12/2015	15:08:35.638	$GPGGA,150836,2428.2953,N,08122.0403,W,1,9,1.9,18,M,,M,,*5E
06/12/2015	15:08:36.570	$GPGGA,150837,2428.2960,N,08122.0386,W,1,9,1.9,18,M,,M,,*55
06/12/2015	15:08:37.608	$GPGGA,150838,2428.2964,N,08122.0368,W,1,9,1.9,18,M,,M,,*5E
06/12/2015	15:08:38.509	$GPGGA,150839,2428.2964,N,08122.0368,W,1,9,1.9,18,M,,M,,*5F
06/12/2015	15:08:39.609	$GPGGA,150840,2428.2974,N,08122.0334,W,1,9,1.9,18,M,,M,,*59
06/12/2015	15:08:40.599	$GPGGA,150841,2428.2979,N,08122.0316,W,1,9,1.9,18,M,,M,,*55
06/12/2015	15:08:41.499	$GPGGA,150842,2428.2982,N,08122.0299,W,1,9,1.9,18,M,,M,,*54
06/12/2015	15:08:42.499	$GPGGA,150843,2428.2982,N,08122.0299,W,1,9,1.9,18,M,,M,,*55
06/12/2015	15:08:43.653	$GPGGA,150844,2428.2993,N,08122.0265,W,1,9,1.9,18,M,,M,,*51
06/12/2015	15:08:44.589	$GPGGA,150845,2428.2997,N,08122.0246,W,1,9,1.9,18,M,,M,,*55
06/12/2015	15:08:45.609	$GPGGA,150846,2428.3001,N,08122.0230,W,1,9,1.9,18,M,,M,,*50
06/12/2015	15:08:46.589	$GPGGA,150847,2428.3007,N,08122.0213,W,1,9,1.9,18,M,,M,,*56
06/12/2015	15:08:47.609	$GPGGA,150848,2428.3013,N,08122.0195,W,1,9,1.9,18,M,,M,,*51
06/12/2015	15:08:48.589	$GPGGA,150849,2428.3017,N,08122.0178,W,1,9,1.9,18,M,,M,,*57
06/12/2015	15:08:49.599	$GPGGA,150850,2428.3021,N,08122.0160,W,1,9,1.9,18,M,,M,,*53
06/12/2015	15:08:50.571	$GPGGA,150851,2428.3021,N,08122.0160,W,1,9,1.9,18,M,,M,,*52
06/12/2015	15:08:51.588	$GPGGA,150852,2428.3033,N,08122.0128,W,1,9,1.9,18,M,,M,,*5E
06/12/2015	15:08:52.578	$GPGGA,150853,2428.3037,N,08122.0109,W,1,9,1.9,18,M,,M,,*58
06/12/2015	15:08:53.570	$GPGGA,150854,2428.3042,N,08122.0092,W,1,9,1.9,18,M,,M,,*5E
06/12/2015	15:08:54.588	$GPGGA,150855,2428.3047,N,08122.0075,W,1,9,1.9,18,M,,M,,*53
06/12/2015	15:08:55.619	$GPGGA,150856,2428.3054,N,08122.0058,W,1,9,1.9,18,M,,M,,*5D
06/12/2015	15:08:56.565	$GPGGA,150857,2428.3058,N,08122.0042,W,1,9,1.9,18,M,,M,,*5B
06/12/2015	15:08:57.558	$GPGGA,150858,2428.3064,N,08122.0023,W,1,9,1.9,18,M,,M,,*5C
06/12/2015	15:08:58.549	$GPGGA,150859,2428.3069,N,08122.0006,W,1,9,1.9,18,M,,M,,*57
06/12/2015	15:08:59.569	$GPGGA,150900,2428.3075,N,08121.9992,W,1,9,1.9,18,M,,M,,*59
06/12/2015	15:09:00.562	$GPGGA,150901,2428.3080,N,08121.9973,W,1,9,1.9,18,M,,M,,*5D
06/12/2015	15:09:01.569	$GPGGA,150902,2428.3083,N,08121.9956,W,1,9,1.9,18,M,,M,,*5A
06/12/2015	15:09:02.551	$GPGGA,150903,2428.3091,N,08121.9941,W,1,9,1.9,17,M,,M,,*51
06/12/2015	15:09:03.589	$GPGGA,150904,2428.3094,N,08121.9927,W,1,8,1.9,17,M,,M,,*52
06/12/2015	15:09:04.552	$GPGGA,150905,2428.3098,N,08121.9911,W,1,8,1.9,17,M,,M,,*5A
06/12/2015	15:09:05.579	$GPGGA,150906,2428.3100,N,08121.9896,W,1,9,1.9,17,M,,M,,*56
06/12/2015	15:09:06.539	$GPGGA,150907,2428.3107,N,08121.9880,W,1,9,1.9,17,M,,M,,*57
06/12/2015	15:09:07.549	$GPGGA,150908,2428.3112,N,08121.9864,W,1,9,1.9,17,M,,M,,*56
06/12/2015	15:09:08.529	$GPGGA,150909,2428.3116,N,08121.9847,W,1,9,1.9,17,M,,M,,*52
06/12/2015	15:09:09.563	$GPGGA,150910,2428.3119,N,08121.9831,W,1,9,1.9,17,M,,M,,*54
06/12/2015	15:09:10.538	$GPGGA,150911,2428.3125,N,08121.9815,W,1,9,1.9,17,M,,M,,*5C
06/12/2015	15:09:11.550	$GPGGA,150912,2428.3130,N,08121.9797,W,1,9,1.9,17,M,,M,,*5E
06/12/2015	15:09:12.538	$GPGGA,150913,2428.3134,N,08121.9781,W,1,9,1.9,17,M,,M,,*5C
06/12/2015	15:09:13.552	$GPGGA,150914,2428.3140,N,08121.9763,W,1,9,1.9,17,M,,M,,*54
06/12/2015	15:09:14.539	$GPGGA,150915,2428.3145,N,08121.9747,W,1,9,1.9,17,M,,M,,*56
06/12/2015	15:09:15.649	$GPGGA,150916,2428.3151,N,08121.9730,W,1,9,1.9,17,M,,M,,*50
06/12/2015	15:09:16.519	$GPGGA,150917,2428.3155,N,08121.9712,W,1,9,1.9,17,M,,M,,*55
06/12/2015	15:09:17.539	$GPGGA,150918,2428.3161,N,08121.9696,W,1,9,1.9,17,M,,M,,*50
06/12/2015	15:09:18.509	$GPGGA,150919,2428.3167,N,08121.9679,W,1,9,1.9,17,M,,M,,*56
06/12/2015	15:09:19.639	$GPGGA,150920,2428.3170,N,08121.9661,W,1,9,1.9,17,M,,M,,*53
06/12/2015	15:09:20.529	$GPGGA,150921,2428.3174,N,08121.9643,W,1,9,1.9,17,M,,M,,*56
06/12/2015	15:09:21.619	$GPGGA,150922,2428.3181,N,08121.9627,W,1,9,1.9,17,M,,M,,*5D
06/12/2015	15:09:23.650	$GPGGA,150924,2428.3190,N,08121.9591,W,1,9,1.9,17,M,,M,,*55
06/12/2015	15:09:24.599	$GPGGA,150925,2428.3195,N,08121.9573,W,1,9,1.9,17,M,,M,,*5D
06/12/2015	15:09:25.499	$GPGGA,150926,2428.3201,N,08121.9556,W,1,9,1.9,17,M,,M,,*57
06/12/2015	15:09:26.608	$GPGGA,150927,2428.3206,N,08121.9538,W,1,9,1.9,16,M,,M,,*58
06/12/2015	15:09:27.638	$GPGGA,150928,2428.3210,N,08121.9521,W,1,9,1.9,16,M,,M,,*58
06/12/2015	15:09:28.598	$GPGGA,150929,2428.3214,N,08121.9502,W,1,9,1.9,16,M,,M,,*5C
06/12/2015	15:09:29.498	$GPGGA,150930,2428.3219,N,08121.9484,W,1,9,1.9,16,M,,M,,*56
06/12/2015	15:09:30.589	$GPGGA,150931,2428.3224,N,08121.9467,W,1,9,1.9,16,M,,M,,*54
06/12/2015	15:09:31.599	$GPGGA,150932,2428.3228,N,08121.9448,W,1,9,1.9,16,M,,M,,*56
06/12/2015	15:09:32.579	$GPGGA,150933,2428.3232,N,08121.9431,W,1,9,1.9,16,M,,M,,*52
06/12/2015	15:09:33.589	$GPGGA,150934,2428.3237,N,08121.9413,W,1,9,1.9,16,M,,M,,*50
06/12/2015	15:09:34.579	$GPGGA,150935,2428.3242,N,08121.9394,W,1,9,1.9,16,M,,M,,*5B
06/12/2015	15:09:35.619	$GPGGA,150936,2428.3248,N,08121.9377,W,1,9,1.9,16,M,,M,,*5F
06/12/2015	15:09:36.579	$GPGGA,150937,2428.3253,N,08121.9358,W,1,9,1.9,16,M,,M,,*59
06/12/2015	15:09:37.589	$GPGGA,150938,2428.3255,N,08121.9340,W,1,9,1.9,16,M,,M,,*59
06/12/2015	15:09:38.569	$GPGGA,150939,2428.3260,N,08121.9322,W,1,9,1.9,16,M,,M,,*5A
06/12/2015	15:09:39.609	$GPGGA,150940,2428.3266,N,08121.9303,W,1,9,1.9,16,M,,M,,*51
06/12/2015	15:09:40.569	$GPGGA,150941,2428.3270,N,08121.9285,W,1,9,1.9,16,M,,M,,*58
06/12/2015	15:09:41.579	$GPGGA,150942,2428.3274,N,08121.9268,W,1,9,1.9,16,M,,M,,*5C
06/12/2015	15:09:42.559	$GPGGA,150943,2428.3279,N,08121.9249,W,1,9,1.9,16,M,,M,,*53
06/12/2015	15:09:43.589	$GPGGA,150944,2428.3284,N,08121.9230,W,1,9,1.9,16,M,,M,,*58
06/12/2015	15:09:44.561	$GPGGA,150945,2428.3288,N,08121.9213,W,1,9,1.9,16,M,,M,,*54
06/12/2015	15:09:45.568	$GPGGA,150946,2428.3293,N,08121.9196,W,1,9,1.9,16,M,,M,,*53
06/12/2015	15:09:46.558	$GPGGA,150947,2428.3297,N,08121.9177,W,1,9,1.9,16,M,,M,,*59
06/12/2015	15:09:47.568	$GPGGA,150948,2428.3300,N,08121.9158,W,1,9,1.9,16,M,,M,,*54
06/12/2015	15:09:48.559	$GPGGA,150949,2428.3306,N,08121.9140,W,1,9,1.9,16,M,,M,,*5A
06/12/2015	15:09:49.561	$GPGGA,150950,2428.3311,N,08121.9125,W,1,9,1.9,16,M,,M,,*57
06/12/2015	15:09:50.549	$GPGGA,150951,2428.3317,N,08121.9105,W,1,9,1.9,16,M,,M,,*52
06/12/2015	15:09:51.589	$GPGGA,150952,2428.3320,N,08121.9087,W,1,9,1.9,16,M,,M,,*5E
06/12/2015	15:09:52.539	$GPGGA,150953,2428.3325,N,08121.9072,W,1,9,1.9,16,M,,M,,*50
06/12/2015	15:09:53.569	$GPGGA,150954,2428.3331,N,08121.9053,W,1,9,1.9,16,M,,M,,*51
06/12/2015	15:09:54.539	$GPGGA,150955,2428.3335,N,08121.9036,W,1,9,1.9,16,M,,M,,*57
06/12/2015	15:09:55.539	$GPGGA,150956,2428.3340,N,08121.9020,W,1,9,1.9,16,M,,M,,*51
06/12/2015	15:09:56.539	$GPGGA,150957,2428.3346,N,08121.9002,W,1,9,1.9,16,M,,M,,*56
06/12/2015	15:09:57.529	$GPGGA,150958,2428.3350,N,08121.8986,W,1,9,1.9,16,M,,M,,*5A
06/12/2015	15:09:58.529	$GPGGA,150959,2428.3357,N,08121.8970,W,1,9,1.9,16,M,,M,,*55
06/12/2015	15:09:59.559	$GPGGA,151000,2428.3362,N,08121.8953,W,1,9,1.9,16,M,,M,,*56
06/12/2015	15:10:00.499	$GPGGA,151001,2428.3365,N,08121.8936,W,1,9,1.9,16,M,,M,,*53
06/12/2015	15:10:01.518	$GPGGA,151002,2428.3369,N,08121.8919,W,1,9,1.9,16,M,,M,,*51
06/12/2015	15:10:02.498	$GPGGA,151003,2428.3376,N,08121.8901,W,1,9,1.9,16,M,,M,,*57
06/12/2015	15:10:03.658	$GPGGA,151004,2428.3382,N,08121.8884,W,1,9,1.9,16,M,,M,,*57
06/12/2015	15:10:04.498	$GPGGA,151005,2428.3386,N,08121.8868,W,1,9,1.9,16,M,,M,,*50
06/12/2015	15:10:05.498	$GPGGA,151006,2428.3390,N,08121.8849,W,1,9,1.9,16,M,,M,,*57
06/12/2015	15:10:06.608	$GPGGA,151007,2428.3396,N,08121.8832,W,1,9,1.9,16,M,,M,,*5C
06/12/2015	15:10:07.539	$GPGGA,151008,2428.3402,N,08121.8816,W,1,9,1.9,16,M,,M,,*5F
06/12/2015	15:10:08.508	$GPGGA,151009,2428.3405,N,08121.8798,W,1,9,1.9,16,M,,M,,*50
06/12/2015	15:10:09.508	$GPGGA,151010,2428.3409,N,08121.8779,W,1,9,1.9,16,M,,M,,*5B
06/12/2015	15:10:10.488	$GPGGA,151011,2428.3416,N,08121.8763,W,1,9,1.9,16,M,,M,,*5F
06/12/2015	15:10:11.498	$GPGGA,151012,2428.3423,N,08121.8747,W,1,9,1.9,16,M,,M,,*5C
06/12/2015	15:10:12.598	$GPGGA,151013,2428.3427,N,08121.8728,W,1,9,1.9,16,M,,M,,*50
06/12/2015	15:10:13.628	$GPGGA,151014,2428.3429,N,08121.8710,W,1,9,1.9,16,M,,M,,*52
06/12/2015	15:10:14.488	$GPGGA,151015,2428.3437,N,08121.8693,W,1,9,1.9,16,M,,M,,*56
06/12/2015	15:10:15.498	$GPGGA,151016,2428.3445,N,08121.8677,W,1,9,1.9,16,M,,M,,*5A
06/12/2015	15:10:16.569	$GPGGA,151017,2428.3448,N,08121.8659,W,1,9,1.9,16,M,,M,,*5A
06/12/2015	15:10:17.579	$GPGGA,151018,2428.3451,N,08121.8641,W,1,9,1.9,16,M,,M,,*54
06/12/2015	15:10:18.479	$GPGGA,151019,2428.3459,N,08121.8624,W,1,9,1.9,16,M,,M,,*5E
06/12/2015	15:10:19.578	$GPGGA,151020,2428.3465,N,08121.8607,W,1,9,1.9,16,M,,M,,*5A
06/12/2015	15:10:20.569	$GPGGA,151021,2428.3467,N,08121.8590,W,1,9,1.9,16,M,,M,,*54
06/12/2015	15:10:21.598	$GPGGA,151022,2428.3473,N,08121.8571,W,1,9,1.9,16,M,,M,,*5D
06/12/2015	15:10:22.568	$GPGGA,151023,2428.3481,N,08121.8555,W,1,9,1.9,16,M,,M,,*57
06/12/2015	15:10:23.578	$GPGGA,151024,2428.3485,N,08121.8538,W,1,9,1.9,16,M,,M,,*5F
06/12/2015	15:10:24.568	$GPGGA,151025,2428.3488,N,08121.8519,W,1,9,1.9,16,M,,M,,*50
06/12/2015	15:10:25.588	$GPGGA,151026,2428.3497,N,08121.8504,W,1,9,1.9,16,M,,M,,*51
06/12/2015	15:10:27.018	$GPGGA,151027,2428.3503,N,08121.8489,W,1,9,1.9,16,M,,M,,*58
06/12/2015	15:10:27.608	$GPGGA,151028,2428.3506,N,08121.8469,W,1,9,1.9,16,M,,M,,*5C
06/12/2015	15:10:28.558	$GPGGA,151029,2428.3512,N,08121.8453,W,1,9,1.9,16,M,,M,,*51
06/12/2015	15:10:29.568	$GPGGA,151030,2428.3519,N,08121.8439,W,1,9,1.9,16,M,,M,,*5E
06/12/2015	15:10:30.551	$GPGGA,151031,2428.3524,N,08121.8422,W,1,9,1.9,16,M,,M,,*5B
06/12/2015	15:10:31.551	$GPGGA,151032,2428.3528,N,08121.8404,W,1,9,1.9,16,M,,M,,*50
06/12/2015	15:10:32.554	$GPGGA,151033,2428.3535,N,08121.8388,W,1,9,1.9,16,M,,M,,*5E
06/12/2015	15:10:33.543	$GPGGA,151034,2428.3539,N,08121.8373,W,1,9,1.9,16,M,,M,,*51
06/12/2015	15:10:34.539	$GPGGA,151035,2428.3544,N,08121.8355,W,1,9,1.9,16,M,,M,,*5E
06/12/2015	15:10:35.579	$GPGGA,151036,2428.3549,N,08121.8339,W,1,9,1.9,16,M,,M,,*5A
06/12/2015	15:10:36.528	$GPGGA,151037,2428.3559,N,08121.8325,W,1,9,1.9,16,M,,M,,*57
06/12/2015	15:10:37.518	$GPGGA,151038,2428.3564,N,08121.8307,W,1,9,1.9,16,M,,M,,*56
06/12/2015	15:10:38.538	$GPGGA,151039,2428.3564,N,08121.8291,W,1,9,1.9,16,M,,M,,*59
06/12/2015	15:10:39.558	$GPGGA,151040,2428.3571,N,08121.8277,W,1,9,1.9,16,M,,M,,*5B
06/12/2015	15:10:40.528	$GPGGA,151041,2428.3581,N,08121.8262,W,1,9,1.9,16,M,,M,,*51
06/12/2015	15:10:41.560	$GPGGA,151042,2428.3584,N,08121.8246,W,1,9,1.9,16,M,,M,,*51
06/12/2015	15:10:42.528	$GPGGA,151043,2428.3586,N,08121.8229,W,1,9,1.9,16,M,,M,,*5B
06/12/2015	15:10:43.553	$GPGGA,151044,2428.3593,N,08121.8213,W,1,9,1.9,16,M,,M,,*51
06/12/2015	15:10:44.528	$GPGGA,151045,2428.3600,N,08121.8201,W,1,9,1.9,16,M,,M,,*5A
06/12/2015	15:10:45.508	$GPGGA,151046,2428.3604,N,08121.8184,W,1,9,1.9,16,M,,M,,*53
06/12/2015	15:10:46.508	$GPGGA,151047,2428.3607,N,08121.8167,W,1,9,1.9,16,M,,M,,*5C
06/12/2015	15:10:47.508	$GPGGA,151048,2428.3611,N,08121.8153,W,1,9,1.9,16,M,,M,,*53
06/12/2015	15:10:48.498	$GPGGA,151049,2428.3618,N,08121.8138,W,1,9,1.9,16,M,,M,,*56
06/12/2015	15:10:49.545	$GPGGA,151050,2428.3621,N,08121.8122,W,1,9,1.9,16,M,,M,,*5F
06/12/2015	15:10:50.518	$GPGGA,151051,2428.3625,N,08121.8107,W,1,9,1.9,16,M,,M,,*5D
06/12/2015	15:10:51.644	$GPGGA,151052,2428.3629,N,08121.8092,W,1,9,1.9,16,M,,M,,*5F
06/12/2015	15:10:52.489	$GPGGA,151053,2428.3633,N,08121.8075,W,1,9,1.9,16,M,,M,,*5C
06/12/2015	15:10:53.519	$GPGGA,151054,2428.3639,N,08121.8058,W,1,9,1.9,16,M,,M,,*5E
06/12/2015	15:10:54.608	$GPGGA,151055,2428.3642,N,08121.8042,W,1,9,1.9,16,M,,M,,*58
06/12/2015	15:10:55.598	$GPGGA,151056,2428.3646,N,08121.8026,W,1,9,1.9,16,M,,M,,*5D
06/12/2015	15:10:56.498	$GPGGA,151057,2428.3651,N,08121.8009,W,1,9,1.9,16,M,,M,,*57
06/12/2015	15:10:57.588	$GPGGA,151058,2428.3656,N,08121.7993,W,1,9,1.9,16,M,,M,,*5A
06/12/2015	15:10:58.598	$GPGGA,151059,2428.3658,N,08121.7977,W,1,9,1.9,16,M,,M,,*5F
06/12/2015	15:10:59.508	$GPGGA,151100,2428.3662,N,08121.7960,W,1,9,1.9,16,M,,M,,*5D
06/12/2015	15:11:00.578	$GPGGA,151101,2428.3667,N,08121.7943,W,1,9,1.9,16,M,,M,,*58
06/12/2015	15:11:01.608	$GPGGA,151102,2428.3672,N,08121.7928,W,1,9,1.9,16,M,,M,,*52
06/12/2015	15:11:02.578	$GPGGA,151103,2428.3678,N,08121.7910,W,1,9,1.9,16,M,,M,,*52
06/12/2015	15:11:03.608	$GPGGA,151104,2428.3680,N,08121.7894,W,1,9,1.9,16,M,,M,,*5F
06/12/2015	15:11:05.618	$GPGGA,151106,2428.3689,N,08121.7859,W,1,9,1.9,16,M,,M,,*55
06/12/2015	15:11:06.568	$GPGGA,151107,2428.3696,N,08121.7845,W,1,9,1.9,16,M,,M,,*57
06/12/2015	15:11:07.618	$GPGGA,151108,2428.3703,N,08121.7831,W,1,9,1.9,16,M,,M,,*56
06/12/2015	15:11:08.569	$GPGGA,151109,2428.3707,N,08121.7812,W,1,9,1.9,16,M,,M,,*52
06/12/2015	15:11:09.556	$GPGGA,151110,2428.3709,N,08121.7796,W,1,9,1.9,16,M,,M,,*57
06/12/2015	15:11:10.589	$GPGGA,151111,2428.3716,N,08121.7782,W,1,9,1.9,16,M,,M,,*5D
06/12/2015	15:11:11.608	$GPGGA,151112,2428.3723,N,08121.7767,W,1,9,1.9,16,M,,M,,*53
06/12/2015	15:11:12.559	$GPGGA,151113,2428.3727,N,08121.7750,W,1,9,1.9,16,M,,M,,*52
06/12/2015	15:11:13.588	$GPGGA,151114,2428.3730,N,08121.7734,W,1,9,1.9,16,M,,M,,*51
06/12/2015	15:11:14.555	$GPGGA,151115,2428.3737,N,08121.7718,W,1,9,1.9,16,M,,M,,*59
06/12/2015	15:11:15.552	$GPGGA,151116,2428.3741,N,08121.7704,W,1,9,1.9,16,M,,M,,*56
06/12/2015	15:11:16.553	$GPGGA,151117,2428.3745,N,08121.7688,W,1,9,1.9,16,M,,M,,*56
06/12/2015	15:11:17.558	$GPGGA,151118,2428.3751,N,08121.7670,W,1,9,1.9,16,M,,M,,*5B
06/12/2015	15:11:18.539	$GPGGA,151119,2428.3755,N,08121.7655,W,1,9,1.9,16,M,,M,,*59
06/12/2015	15:11:19.558	$GPGGA,151120,2428.3759,N,08121.7641,W,1,9,1.9,16,M,,M,,*5A
06/12/2015	15:11:20.538	$GPGGA,151121,2428.3766,N,08121.7625,W,1,9,1.9,16,M,,M,,*55
06/12/2015	15:11:21.528	$GPGGA,151122,2428.3770,N,08121.7607,W,1,9,1.9,16,M,,M,,*51
06/12/2015	15:11:22.540	$GPGGA,151123,2428.3773,N,08121.7594,W,1,9,1.9,16,M,,M,,*5A
06/12/2015	15:11:23.588	$GPGGA,151124,2428.3777,N,08121.7580,W,1,9,1.9,16,M,,M,,*5C
06/12/2015	15:11:24.528	$GPGGA,151125,2428.3784,N,08121.7563,W,1,9,1.9,15,M,,M,,*5F
06/12/2015	15:11:25.558	$GPGGA,151126,2428.3787,N,08121.7547,W,1,9,1.9,15,M,,M,,*59
06/12/2015	15:11:26.519	$GPGGA,151127,2428.3790,N,08121.7531,W,1,9,1.9,15,M,,M,,*5F
06/12/2015	15:11:27.549	$GPGGA,151128,2428.3795,N,08121.7517,W,1,9,1.9,15,M,,M,,*51
06/12/2015	15:11:28.519	$GPGGA,151129,2428.3802,N,08121.7502,W,1,9,1.9,15,M,,M,,*55
06/12/2015	15:11:29.518	$GPGGA,151130,2428.3805,N,08121.7485,W,1,9,1.9,15,M,,M,,*54
06/12/2015	15:11:30.528	$GPGGA,151131,2428.3808,N,08121.7469,W,1,9,1.9,15,M,,M,,*5A
06/12/2015	15:11:31.568	$GPGGA,151132,2428.3813,N,08121.7454,W,1,9,1.9,15,M,,M,,*5D
06/12/2015	15:11:32.518	$GPGGA,151133,2428.3819,N,08121.7440,W,1,9,1.9,15,M,,M,,*53
06/12/2015	15:11:33.658	$GPGGA,151134,2428.3823,N,08121.7422,W,1,9,1.9,15,M,,M,,*59
06/12/2015	15:11:34.498	$GPGGA,151135,2428.3828,N,08121.7407,W,1,9,1.9,15,M,,M,,*54
06/12/2015	15:11:35.518	$GPGGA,151136,2428.3831,N,08121.7394,W,1,9,1.9,15,M,,M,,*52
06/12/2015	15:11:36.598	$GPGGA,151137,2428.3837,N,08121.7377,W,1,9,1.9,15,M,,M,,*58
06/12/2015	15:11:37.498	$GPGGA,151138,2428.3842,N,08121.7362,W,1,9,1.9,15,M,,M,,*51
06/12/2015	15:11:38.598	$GPGGA,151139,2428.3848,N,08121.7348,W,1,9,1.9,15,M,,M,,*52
06/12/2015	15:11:39.528	$GPGGA,151140,2428.3852,N,08121.7332,W,1,9,1.9,15,M,,M,,*5A
06/12/2015	15:11:40.508	$GPGGA,151141,2428.3857,N,08121.7317,W,1,9,1.9,15,M,,M,,*59
06/12/2015	15:11:41.588	$GPGGA,151142,2428.3864,N,08121.7301,W,1,9,1.9,15,M,,M,,*5D
06/12/2015	15:11:42.498	$GPGGA,151143,2428.3867,N,08121.7285,W,1,9,1.9,15,M,,M,,*52
06/12/2015	15:11:43.629	$GPGGA,151144,2428.3871,N,08121.7268,W,1,9,1.9,15,M,,M,,*51
06/12/2015	15:11:44.579	$GPGGA,151145,2428.3878,N,08121.7252,W,1,9,1.9,15,M,,M,,*50
06/12/2015	15:11:45.489	$GPGGA,151146,2428.3885,N,08121.7236,W,1,9,1.9,15,M,,M,,*53
06/12/2015	15:11:46.588	$GPGGA,151147,2428.3888,N,08121.7219,W,1,9,1.9,15,M,,M,,*52
06/12/2015	15:11:47.668	$GPGGA,151148,2428.3893,N,08121.7202,W,1,9,1.9,15,M,,M,,*5D
06/12/2015	15:11:48.598	$GPGGA,151149,2428.3902,N,08121.7188,W,1,9,1.9,15,M,,M,,*54
06/12/2015	15:11:49.588	$GPGGA,151150,2428.3907,N,08121.7170,W,1,9,1.9,15,M,,M,,*5E
06/12/2015	15:11:50.568	$GPGGA,151151,2428.3911,N,08121.7154,W,1,9,1.9,15,M,,M,,*5E
