Software Version Number: 1	Data File Format Number: 1	Build Version Number: 1	Error Count Since VI Started: 1	Manufacturer: Raytheon	 Model Number: RayMarine 120	 S/N: 	 Cal Date: 	 Wind Direction Offset: 0.00	 Slope (M)1: 0.00	 Offset (B)1: 0.00	 Slope (M)2: 0.00	 Offset (B)2: 0.00	 Slope (M)3: 0.00	 Offset (B)3: 0.00	 Slope (M)4: 0.00	 Offset (B)4: 0.00	 Slope (M)5: 0.00	 Offset (B)5: 0.00	 Slope (M)6: 0.00	 Offset (B)6: 0.00
Computer Date	Computer Time	GGA String
06/15/2015	22:00:00.555	$GPGGA,220001,2426.9749,N,08058.6092,W,1,9,1.6,20,M,,M,,*54
06/15/2015	22:00:01.596	$GPGGA,220002,2426.9742,N,08058.6077,W,1,10,1.6,20,M,,M,,*6F
06/15/2015	22:00:02.556	$GPGGA,220003,2426.9732,N,08058.6066,W,1,10,1.6,20,M,,M,,*69
06/15/2015	22:00:03.585	$GPGGA,220004,2426.9722,N,08058.6055,W,1,10,1.6,20,M,,M,,*6F
06/15/2015	22:00:04.565	$GPGGA,220005,2426.9713,N,08058.6041,W,1,10,1.6,20,M,,M,,*69
06/15/2015	22:00:05.635	$GPGGA,220006,2426.9706,N,08058.6025,W,1,10,1.6,20,M,,M,,*6C
06/15/2015	22:00:06.545	$GPGGA,220007,2426.9695,N,08058.6014,W,1,10,1.6,20,M,,M,,*64
06/15/2015	22:00:07.625	$GPGGA,220008,2426.9684,N,08058.6002,W,1,10,1.6,21,M,,M,,*6D
06/15/2015	22:00:08.535	$GPGGA,220009,2426.9677,N,08058.5986,W,1,10,1.6,21,M,,M,,*66
06/15/2015	22:00:09.565	$GPGGA,220010,2426.9668,N,08058.5971,W,1,10,1.6,21,M,,M,,*68
06/15/2015	22:00:10.535	$GPGGA,220011,2426.9657,N,08058.5959,W,1,10,1.6,21,M,,M,,*6F
06/15/2015	22:00:11.625	$GPGGA,220012,2426.9648,N,08058.5945,W,1,10,1.6,21,M,,M,,*6F
06/15/2015	22:00:12.545	$GPGGA,220013,2426.9641,N,08058.5931,W,1,10,1.6,21,M,,M,,*64
06/15/2015	22:00:13.535	$GPGGA,220014,2426.9641,N,08058.5931,W,1,10,1.6,21,M,,M,,*63
06/15/2015	22:00:14.535	$GPGGA,220015,2426.9622,N,08058.5903,W,1,10,1.6,21,M,,M,,*66
06/15/2015	22:00:15.597	$GPGGA,220016,2426.9622,N,08058.5903,W,1,10,1.6,21,M,,M,,*65
06/15/2015	22:00:16.525	$GPGGA,220017,2426.9614,N,08058.5888,W,1,10,1.6,21,M,,M,,*63
06/15/2015	22:00:17.635	$GPGGA,220018,2426.9595,N,08058.5861,W,1,10,1.6,21,M,,M,,*61
06/15/2015	22:00:18.535	$GPGGA,220019,2426.9588,N,08058.5845,W,1,10,1.6,21,M,,M,,*6A
06/15/2015	22:00:19.556	$GPGGA,220020,2426.9588,N,08058.5845,W,1,10,1.6,21,M,,M,,*60
06/15/2015	22:00:20.525	$GPGGA,220021,2426.9570,N,08058.5817,W,1,10,1.6,21,M,,M,,*61
06/15/2015	22:00:21.575	$GPGGA,220022,2426.9562,N,08058.5802,W,1,10,1.6,21,M,,M,,*65
06/15/2015	22:00:22.998	$GPGGA,220023,2426.9554,N,08058.5786,W,1,10,1.6,21,M,,M,,*62
06/15/2015	22:00:23.585	$GPGGA,220024,2426.9545,N,08058.5772,W,1,10,1.6,21,M,,M,,*6E
06/15/2015	22:00:24.507	$GPGGA,220025,2426.9537,N,08058.5757,W,1,10,1.6,21,M,,M,,*6D
06/15/2015	22:00:25.625	$GPGGA,220026,2426.9537,N,08058.5757,W,1,10,1.6,21,M,,M,,*6E
06/15/2015	22:00:26.496	$GPGGA,220027,2426.9521,N,08058.5728,W,1,10,1.6,21,M,,M,,*60
06/15/2015	22:00:27.645	$GPGGA,220028,2426.9521,N,08058.5728,W,1,10,1.6,21,M,,M,,*6F
06/15/2015	22:00:28.608	$GPGGA,220029,2426.9504,N,08058.5696,W,1,10,1.6,21,M,,M,,*6D
06/15/2015	22:00:29.515	$GPGGA,220030,2426.9504,N,08058.5696,W,1,10,1.6,21,M,,M,,*65
06/15/2015	22:00:30.585	$GPGGA,220031,2426.9489,N,08058.5667,W,1,10,1.6,21,M,,M,,*6E
06/15/2015	22:00:32.955	$GPGGA,220033,2426.9474,N,08058.5636,W,1,10,1.6,21,M,,M,,*6A
06/15/2015	22:00:33.585	$GPGGA,220034,2426.9465,N,08058.5621,W,1,10,1.6,21,M,,M,,*6B
06/15/2015	22:00:34.485	$GPGGA,220035,2426.9457,N,08058.5606,W,1,10,1.6,21,M,,M,,*6E
06/15/2015	22:00:35.615	$GPGGA,220036,2426.9450,N,08058.5592,W,1,10,1.6,21,M,,M,,*64
06/15/2015	22:00:36.576	$GPGGA,220037,2426.9442,N,08058.5576,W,1,10,1.6,21,M,,M,,*6C
06/15/2015	22:00:37.586	$GPGGA,220038,2426.9435,N,08058.5561,W,1,10,1.6,21,M,,M,,*65
06/15/2015	22:00:38.575	$GPGGA,220039,2426.9426,N,08058.5545,W,1,10,1.7,21,M,,M,,*61
06/15/2015	22:00:39.604	$GPGGA,220040,2426.9418,N,08058.5530,W,1,9,1.7,21,M,,M,,*58
06/15/2015	22:00:40.575	$GPGGA,220041,2426.9411,N,08058.5518,W,1,9,1.6,21,M,,M,,*5B
06/15/2015	22:00:41.555	$GPGGA,220042,2426.9404,N,08058.5505,W,1,10,1.6,21,M,,M,,*68
06/15/2015	22:00:42.565	$GPGGA,220043,2426.9395,N,08058.5490,W,1,10,1.6,21,M,,M,,*6B
06/15/2015	22:00:43.585	$GPGGA,220044,2426.9388,N,08058.5476,W,1,10,1.6,21,M,,M,,*68
06/15/2015	22:00:44.565	$GPGGA,220045,2426.9380,N,08058.5461,W,1,10,1.6,21,M,,M,,*67
06/15/2015	22:00:45.575	$GPGGA,220046,2426.9371,N,08058.5446,W,1,10,1.6,21,M,,M,,*6F
06/15/2015	22:00:46.565	$GPGGA,220047,2426.9362,N,08058.5431,W,1,10,1.6,21,M,,M,,*6C
06/15/2015	22:00:47.565	$GPGGA,220048,2426.9355,N,08058.5417,W,1,10,1.6,21,M,,M,,*63
06/15/2015	22:00:48.555	$GPGGA,220049,2426.9348,N,08058.5400,W,1,10,1.6,21,M,,M,,*68
06/15/2015	22:00:49.565	$GPGGA,220050,2426.9338,N,08058.5386,W,1,10,1.6,21,M,,M,,*6E
06/15/2015	22:00:50.555	$GPGGA,220051,2426.9330,N,08058.5371,W,1,10,1.6,21,M,,M,,*6F
06/15/2015	22:00:51.555	$GPGGA,220052,2426.9320,N,08058.5354,W,1,10,1.6,21,M,,M,,*6A
06/15/2015	22:00:52.575	$GPGGA,220053,2426.9312,N,08058.5340,W,1,10,1.6,21,M,,M,,*6F
06/15/2015	22:00:53.545	$GPGGA,220054,2426.9302,N,08058.5323,W,1,10,1.6,21,M,,M,,*6C
06/15/2015	22:00:54.536	$GPGGA,220055,2426.9294,N,08058.5306,W,1,10,1.6,20,M,,M,,*65
06/15/2015	22:00:55.575	$GPGGA,220056,2426.9283,N,08058.5292,W,1,10,1.6,20,M,,M,,*6C
06/15/2015	22:00:56.535	$GPGGA,220057,2426.9274,N,08058.5277,W,1,10,1.6,20,M,,M,,*6E
06/15/2015	22:00:57.565	$GPGGA,220058,2426.9266,N,08058.5259,W,1,10,1.6,20,M,,M,,*6E
06/15/2015	22:00:58.545	$GPGGA,220059,2426.9256,N,08058.5243,W,1,10,1.6,20,M,,M,,*67
06/15/2015	22:01:00.565	$GPGGA,220101,2426.9237,N,08058.5212,W,1,10,1.6,20,M,,M,,*68
06/15/2015	22:01:01.555	$GPGGA,220102,2426.9229,N,08058.5195,W,1,10,1.6,20,M,,M,,*68
06/15/2015	22:01:02.525	$GPGGA,220103,2426.9221,N,08058.5179,W,1,10,1.6,20,M,,M,,*63
06/15/2015	22:01:03.575	$GPGGA,220104,2426.9211,N,08058.5163,W,1,10,1.6,20,M,,M,,*6C
06/15/2015	22:01:04.525	$GPGGA,220105,2426.9201,N,08058.5145,W,1,10,1.6,20,M,,M,,*68
06/15/2015	22:01:05.545	$GPGGA,220106,2426.9194,N,08058.5128,W,1,10,1.6,20,M,,M,,*6F
06/15/2015	22:01:06.515	$GPGGA,220107,2426.9184,N,08058.5112,W,1,10,1.6,20,M,,M,,*66
06/15/2015	22:01:07.555	$GPGGA,220108,2426.9176,N,08058.5093,W,1,10,1.6,20,M,,M,,*6C
06/15/2015	22:01:08.625	$GPGGA,220109,2426.9167,N,08058.5078,W,1,10,1.7,20,M,,M,,*69
06/15/2015	22:01:09.615	$GPGGA,220110,2426.9158,N,08058.5062,W,1,9,1.8,20,M,,M,,*51
06/15/2015	22:01:10.515	$GPGGA,220111,2426.9149,N,08058.5046,W,1,9,1.8,20,M,,M,,*56
06/15/2015	22:01:11.536	$GPGGA,220112,2426.9142,N,08058.5027,W,1,9,1.8,20,M,,M,,*59
06/15/2015	22:01:12.516	$GPGGA,220113,2426.9133,N,08058.5009,W,1,9,1.8,20,M,,M,,*52
06/15/2015	22:01:13.615	$GPGGA,220114,2426.9124,N,08058.4991,W,1,10,1.6,20,M,,M,,*6C
06/15/2015	22:01:14.505	$GPGGA,220115,2426.9115,N,08058.4973,W,1,10,1.9,20,M,,M,,*6C
06/15/2015	22:01:15.615	$GPGGA,220116,2426.9108,N,08058.4955,W,1,10,1.6,20,M,,M,,*68
06/15/2015	22:01:16.515	$GPGGA,220117,2426.9100,N,08058.4936,W,1,10,1.6,20,M,,M,,*64
06/15/2015	22:01:17.598	$GPGGA,220118,2426.9091,N,08058.4918,W,1,10,1.6,20,M,,M,,*6E
06/15/2015	22:01:18.497	$GPGGA,220119,2426.9082,N,08058.4901,W,1,10,1.6,20,M,,M,,*65
06/15/2015	22:01:19.598	$GPGGA,220120,2426.9075,N,08058.4884,W,1,10,1.6,20,M,,M,,*6B
06/15/2015	22:01:20.505	$GPGGA,220121,2426.9068,N,08058.4865,W,1,10,1.6,20,M,,M,,*69
06/15/2015	22:01:21.575	$GPGGA,220122,2426.9059,N,08058.4846,W,1,10,1.6,20,M,,M,,*69
06/15/2015	22:01:22.575	$GPGGA,220123,2426.9052,N,08058.4829,W,1,10,1.6,20,M,,M,,*6A
06/15/2015	22:01:23.585	$GPGGA,220124,2426.9043,N,08058.4810,W,1,9,1.7,20,M,,M,,*5E
06/15/2015	22:01:24.575	$GPGGA,220125,2426.9037,N,08058.4790,W,1,9,1.7,20,M,,M,,*5B
06/15/2015	22:01:25.565	$GPGGA,220126,2426.9030,N,08058.4773,W,1,10,1.6,20,M,,M,,*6B
06/15/2015	22:01:26.575	$GPGGA,220127,2426.9020,N,08058.4754,W,1,10,1.6,20,M,,M,,*6E
06/15/2015	22:01:27.596	$GPGGA,220128,2426.9014,N,08058.4737,W,1,10,1.6,20,M,,M,,*63
06/15/2015	22:01:28.575	$GPGGA,220129,2426.9007,N,08058.4720,W,1,10,1.7,20,M,,M,,*67
06/15/2015	22:01:29.566	$GPGGA,220130,2426.8999,N,08058.4702,W,1,10,1.6,20,M,,M,,*61
06/15/2015	22:01:30.565	$GPGGA,220131,2426.8994,N,08058.4686,W,1,10,1.6,20,M,,M,,*60
06/15/2015	22:01:31.596	$GPGGA,220132,2426.8987,N,08058.4669,W,1,10,1.6,20,M,,M,,*60
06/15/2015	22:01:32.555	$GPGGA,220133,2426.8978,N,08058.4650,W,1,10,1.6,20,M,,M,,*6B
06/15/2015	22:01:33.545	$GPGGA,220134,2426.8972,N,08058.4634,W,1,10,1.6,20,M,,M,,*64
06/15/2015	22:01:34.556	$GPGGA,220135,2426.8966,N,08058.4617,W,1,10,1.6,20,M,,M,,*61
06/15/2015	22:01:35.896	$GPGGA,220136,2426.8958,N,08058.4600,W,1,10,1.6,20,M,,M,,*69
06/15/2015	22:01:36.555	$GPGGA,220137,2426.8951,N,08058.4582,W,1,10,1.6,20,M,,M,,*68
06/15/2015	22:01:37.546	$GPGGA,220138,2426.8945,N,08058.4565,W,1,10,1.6,20,M,,M,,*6B
06/15/2015	22:01:38.535	$GPGGA,220139,2426.8940,N,08058.4548,W,1,10,1.6,20,M,,M,,*60
06/15/2015	22:01:39.575	$GPGGA,220140,2426.8931,N,08058.4529,W,1,10,1.6,20,M,,M,,*6F
06/15/2015	22:01:40.555	$GPGGA,220141,2426.8925,N,08058.4512,W,1,10,1.6,20,M,,M,,*63
06/15/2015	22:01:41.565	$GPGGA,220142,2426.8919,N,08058.4497,W,1,10,1.6,20,M,,M,,*63
06/15/2015	22:01:42.535	$GPGGA,220143,2426.8911,N,08058.4479,W,1,10,1.6,20,M,,M,,*6A
06/15/2015	22:01:43.535	$GPGGA,220144,2426.8904,N,08058.4462,W,1,9,1.8,20,M,,M,,*55
06/15/2015	22:01:44.535	$GPGGA,220145,2426.8897,N,08058.4445,W,1,9,1.6,20,M,,M,,*54
06/15/2015	22:01:45.556	$GPGGA,220146,2426.8890,N,08058.4427,W,1,10,1.6,20,M,,M,,*6C
06/15/2015	22:01:46.536	$GPGGA,220147,2426.8882,N,08058.4413,W,1,10,1.6,20,M,,M,,*69
06/15/2015	22:01:47.566	$GPGGA,220148,2426.8875,N,08058.4394,W,1,10,1.6,20,M,,M,,*66
06/15/2015	22:01:48.515	$GPGGA,220149,2426.8869,N,08058.4375,W,1,10,1.8,20,M,,M,,*6B
06/15/2015	22:01:49.515	$GPGGA,220150,2426.8864,N,08058.4361,W,1,9,1.7,20,M,,M,,*5C
06/15/2015	22:01:50.525	$GPGGA,220151,2426.8853,N,08058.4343,W,1,9,1.6,20,M,,M,,*58
06/15/2015	22:01:51.535	$GPGGA,220152,2426.8847,N,08058.4325,W,1,8,1.9,20,M,,M,,*50
06/15/2015	22:01:52.555	$GPGGA,220153,2426.8843,N,08058.4310,W,1,8,1.8,20,M,,M,,*52
06/15/2015	22:01:53.555	$GPGGA,220154,2426.8833,N,08058.4293,W,1,10,1.6,20,M,,M,,*6F
06/15/2015	22:01:54.525	$GPGGA,220155,2426.8825,N,08058.4277,W,1,10,1.6,20,M,,M,,*63
06/15/2015	22:01:55.635	$GPGGA,220156,2426.8819,N,08058.4262,W,1,9,1.7,20,M,,M,,*52
06/15/2015	22:01:56.499	$GPGGA,220157,2426.8811,N,08058.4243,W,1,9,1.6,20,M,,M,,*59
06/15/2015	22:01:57.502	$GPGGA,220158,2426.8804,N,08058.4227,W,1,10,1.6,20,M,,M,,*68
06/15/2015	22:01:58.509	$GPGGA,220159,2426.8799,N,08058.4212,W,1,10,1.8,20,M,,M,,*6A
06/15/2015	22:01:59.635	$GPGGA,220200,2426.8792,N,08058.4194,W,1,10,1.6,20,M,,M,,*6D
06/15/2015	22:02:00.510	$GPGGA,220201,2426.8784,N,08058.4178,W,1,10,1.8,20,M,,M,,*67
06/15/2015	22:02:01.608	$GPGGA,220202,2426.8777,N,08058.4163,W,1,10,1.6,20,M,,M,,*6C
06/15/2015	22:02:02.596	$GPGGA,220203,2426.8770,N,08058.4144,W,1,10,1.6,20,M,,M,,*6F
06/15/2015	22:02:03.507	$GPGGA,220204,2426.8763,N,08058.4127,W,1,10,1.6,20,M,,M,,*6F
06/15/2015	22:02:04.574	$GPGGA,220205,2426.8754,N,08058.4111,W,1,10,1.6,20,M,,M,,*6F
06/15/2015	22:02:05.573	$GPGGA,220206,2426.8747,N,08058.4093,W,1,10,1.6,20,M,,M,,*65
06/15/2015	22:02:06.563	$GPGGA,220207,2426.8741,N,08058.4074,W,1,10,1.6,20,M,,M,,*6B
06/15/2015	22:02:07.588	$GPGGA,220208,2426.8734,N,08058.4056,W,1,10,1.6,20,M,,M,,*66
06/15/2015	22:02:08.573	$GPGGA,220209,2426.8725,N,08058.4039,W,1,10,1.6,20,M,,M,,*6E
06/15/2015	22:02:09.563	$GPGGA,220210,2426.8718,N,08058.4020,W,1,10,1.6,20,M,,M,,*60
06/15/2015	22:02:10.563	$GPGGA,220211,2426.8713,N,08058.4002,W,1,10,1.6,20,M,,M,,*6A
06/15/2015	22:02:11.573	$GPGGA,220212,2426.8706,N,08058.3984,W,1,10,1.6,20,M,,M,,*6D
06/15/2015	22:02:12.563	$GPGGA,220213,2426.8698,N,08058.3964,W,1,10,1.6,20,M,,M,,*64
06/15/2015	22:02:13.573	$GPGGA,220214,2426.8692,N,08058.3946,W,1,10,1.6,20,M,,M,,*69
06/15/2015	22:02:14.553	$GPGGA,220215,2426.8687,N,08058.3928,W,1,10,1.6,20,M,,M,,*64
06/15/2015	22:02:15.587	$GPGGA,220216,2426.8680,N,08058.3908,W,1,10,1.6,20,M,,M,,*62
06/15/2015	22:02:16.553	$GPGGA,220217,2426.8674,N,08058.3890,W,1,10,1.6,20,M,,M,,*68
06/15/2015	22:02:17.574	$GPGGA,220218,2426.8669,N,08058.3871,W,1,10,1.6,20,M,,M,,*64
06/15/2015	22:02:18.543	$GPGGA,220219,2426.8662,N,08058.3853,W,1,10,1.6,20,M,,M,,*6E
06/15/2015	22:02:19.573	$GPGGA,220220,2426.8658,N,08058.3836,W,1,10,1.6,20,M,,M,,*6E
06/15/2015	22:02:20.543	$GPGGA,220221,2426.8652,N,08058.3814,W,1,10,2.0,20,M,,M,,*60
06/15/2015	22:02:21.553	$GPGGA,220222,2426.8647,N,08058.3794,W,1,10,1.6,20,M,,M,,*65
06/15/2015	22:02:22.588	$GPGGA,220223,2426.8641,N,08058.3774,W,1,10,1.6,20,M,,M,,*6C
06/15/2015	22:02:23.563	$GPGGA,220224,2426.8635,N,08058.3753,W,1,9,1.8,20,M,,M,,*5B
06/15/2015	22:02:24.523	$GPGGA,220225,2426.8630,N,08058.3734,W,1,9,1.8,20,M,,M,,*5E
06/15/2015	22:02:25.553	$GPGGA,220226,2426.8623,N,08058.3713,W,1,9,1.8,20,M,,M,,*5A
06/15/2015	22:02:26.533	$GPGGA,220227,2426.8617,N,08058.3692,W,1,9,1.6,20,M,,M,,*5A
06/15/2015	22:02:27.553	$GPGGA,220228,2426.8613,N,08058.3674,W,1,10,1.6,20,M,,M,,*61
06/15/2015	22:02:28.543	$GPGGA,220229,2426.8607,N,08058.3654,W,1,10,1.6,20,M,,M,,*67
06/15/2015	22:02:29.553	$GPGGA,220230,2426.8600,N,08058.3633,W,1,9,1.8,21,M,,M,,*5E
06/15/2015	22:02:30.523	$GPGGA,220231,2426.8595,N,08058.3615,W,1,9,1.6,21,M,,M,,*5A
06/15/2015	22:02:31.553	$GPGGA,220232,2426.8589,N,08058.3595,W,1,10,1.6,21,M,,M,,*67
06/15/2015	22:02:32.543	$GPGGA,220233,2426.8582,N,08058.3575,W,1,10,1.6,21,M,,M,,*63
06/15/2015	22:02:33.503	$GPGGA,220234,2426.8579,N,08058.3557,W,1,10,1.6,21,M,,M,,*60
06/15/2015	22:02:34.523	$GPGGA,220235,2426.8575,N,08058.3538,W,1,10,1.8,21,M,,M,,*6A
06/15/2015	22:02:35.543	$GPGGA,220236,2426.8568,N,08058.3518,W,1,10,1.6,21,M,,M,,*69
06/15/2015	22:02:36.499	$GPGGA,220237,2426.8564,N,08058.3500,W,1,10,1.6,22,M,,M,,*6E
06/15/2015	22:02:37.513	$GPGGA,220238,2426.8559,N,08058.3483,W,1,10,1.6,22,M,,M,,*65
06/15/2015	22:02:38.503	$GPGGA,220239,2426.8553,N,08058.3464,W,1,10,1.6,22,M,,M,,*67
06/15/2015	22:02:39.524	$GPGGA,220240,2426.8550,N,08058.3447,W,1,9,1.8,22,M,,M,,*5D
06/15/2015	22:02:40.613	$GPGGA,220241,2426.8546,N,08058.3428,W,1,9,1.8,22,M,,M,,*52
06/15/2015	22:02:41.623	$GPGGA,220242,2426.8541,N,08058.3410,W,1,9,1.8,22,M,,M,,*5D
06/15/2015	22:02:42.513	$GPGGA,220243,2426.8536,N,08058.3393,W,1,9,1.8,22,M,,M,,*50
06/15/2015	22:02:43.533	$GPGGA,220244,2426.8531,N,08058.3374,W,1,10,1.6,22,M,,M,,*6F
06/15/2015	22:02:44.503	$GPGGA,220245,2426.8526,N,08058.3356,W,1,10,1.6,22,M,,M,,*68
06/15/2015	22:02:45.489	$GPGGA,220246,2426.8521,N,08058.3339,W,1,10,1.6,22,M,,M,,*65
06/15/2015	22:02:46.573	$GPGGA,220247,2426.8514,N,08058.3320,W,1,10,1.6,22,M,,M,,*6A
06/15/2015	22:02:47.623	$GPGGA,220248,2426.8507,N,08058.3301,W,1,10,1.6,22,M,,M,,*64
06/15/2015	22:02:48.503	$GPGGA,220249,2426.8503,N,08058.3283,W,1,10,1.6,22,M,,M,,*6A
06/15/2015	22:02:49.485	$GPGGA,220250,2426.8496,N,08058.3265,W,1,10,1.6,22,M,,M,,*67
06/15/2015	22:02:50.573	$GPGGA,220251,2426.8490,N,08058.3246,W,1,10,1.6,22,M,,M,,*61
06/15/2015	22:02:51.484	$GPGGA,220252,2426.8485,N,08058.3229,W,1,10,1.6,22,M,,M,,*6F
06/15/2015	22:02:52.563	$GPGGA,220253,2426.8479,N,08058.3211,W,1,10,1.6,22,M,,M,,*66
06/15/2015	22:02:53.563	$GPGGA,220254,2426.8474,N,08058.3193,W,1,10,1.6,22,M,,M,,*65
06/15/2015	22:02:54.563	$GPGGA,220255,2426.8470,N,08058.3174,W,1,10,1.6,22,M,,M,,*69
06/15/2015	22:02:55.613	$GPGGA,220256,2426.8463,N,08058.3156,W,1,10,1.6,22,M,,M,,*68
06/15/2015	22:02:56.574	$GPGGA,220257,2426.8458,N,08058.3138,W,1,10,1.6,22,M,,M,,*69
06/15/2015	22:02:57.588	$GPGGA,220258,2426.8453,N,08058.3118,W,1,10,1.6,22,M,,M,,*6F
06/15/2015	22:02:58.573	$GPGGA,220259,2426.8449,N,08058.3100,W,1,10,1.6,22,M,,M,,*6C
06/15/2015	22:02:59.594	$GPGGA,220300,2426.8445,N,08058.3082,W,1,10,1.6,22,M,,M,,*66
06/15/2015	22:03:00.563	$GPGGA,220301,2426.8441,N,08058.3062,W,1,10,1.6,22,M,,M,,*6D
06/15/2015	22:03:01.553	$GPGGA,220302,2426.8436,N,08058.3044,W,1,10,1.6,22,M,,M,,*6A
06/15/2015	22:03:02.553	$GPGGA,220303,2426.8434,N,08058.3025,W,1,10,1.6,22,M,,M,,*6E
06/15/2015	22:03:03.586	$GPGGA,220304,2426.8430,N,08058.3004,W,1,10,1.6,22,M,,M,,*6E
06/15/2015	22:03:04.553	$GPGGA,220305,2426.8427,N,08058.2985,W,1,10,1.6,22,M,,M,,*68
06/15/2015	22:03:05.563	$GPGGA,220306,2426.8423,N,08058.2966,W,1,10,1.6,22,M,,M,,*62
06/15/2015	22:03:06.543	$GPGGA,220307,2426.8420,N,08058.2946,W,1,10,1.6,22,M,,M,,*62
06/15/2015	22:03:07.573	$GPGGA,220308,2426.8419,N,08058.2925,W,1,10,1.6,22,M,,M,,*62
06/15/2015	22:03:08.533	$GPGGA,220309,2426.8418,N,08058.2905,W,1,10,1.6,22,M,,M,,*60
06/15/2015	22:03:09.553	$GPGGA,220310,2426.8416,N,08058.2887,W,1,10,1.6,22,M,,M,,*6D
06/15/2015	22:03:10.533	$GPGGA,220311,2426.8414,N,08058.2865,W,1,10,1.7,22,M,,M,,*63
06/15/2015	22:03:11.573	$GPGGA,220312,2426.8416,N,08058.2844,W,1,10,1.6,22,M,,M,,*60
06/15/2015	22:03:12.533	$GPGGA,220313,2426.8413,N,08058.2827,W,1,10,1.6,22,M,,M,,*61
06/15/2015	22:03:13.553	$GPGGA,220314,2426.8411,N,08058.2809,W,1,10,1.6,22,M,,M,,*68
06/15/2015	22:03:14.524	$GPGGA,220315,2426.8412,N,08058.2789,W,1,10,1.6,22,M,,M,,*6D
06/15/2015	22:03:15.564	$GPGGA,220316,2426.8414,N,08058.2770,W,1,10,1.6,22,M,,M,,*6E
06/15/2015	22:03:16.533	$GPGGA,220317,2426.8411,N,08058.2751,W,1,10,1.6,22,M,,M,,*69
06/15/2015	22:03:17.543	$GPGGA,220318,2426.8412,N,08058.2730,W,1,10,1.6,22,M,,M,,*62
06/15/2015	22:03:18.503	$GPGGA,220319,2426.8412,N,08058.2710,W,1,10,1.6,22,M,,M,,*61
06/15/2015	22:03:19.553	$GPGGA,220320,2426.8412,N,08058.2690,W,1,10,1.6,22,M,,M,,*62
06/15/2015	22:03:20.623	$GPGGA,220321,2426.8411,N,08058.2669,W,1,10,1.6,22,M,,M,,*66
06/15/2015	22:03:21.553	$GPGGA,220322,2426.8412,N,08058.2648,W,1,10,1.6,22,M,,M,,*65
06/15/2015	22:03:22.513	$GPGGA,220323,2426.8411,N,08058.2629,W,1,10,1.6,22,M,,M,,*60
06/15/2015	22:03:23.523	$GPGGA,220324,2426.8412,N,08058.2607,W,1,10,1.6,22,M,,M,,*68
06/15/2015	22:03:24.493	$GPGGA,220325,2426.8412,N,08058.2586,W,1,10,1.6,22,M,,M,,*63
06/15/2015	22:03:25.498	$GPGGA,220326,2426.8411,N,08058.2566,W,1,10,1.6,22,M,,M,,*6D
06/15/2015	22:03:26.497	$GPGGA,220327,2426.8412,N,08058.2546,W,1,10,1.7,22,M,,M,,*6C
06/15/2015	22:03:27.633	$GPGGA,220328,2426.8412,N,08058.2524,W,1,10,1.6,22,M,,M,,*66
06/15/2015	22:03:28.503	$GPGGA,220329,2426.8415,N,08058.2505,W,1,10,1.6,22,M,,M,,*63
06/15/2015	22:03:29.623	$GPGGA,220330,2426.8414,N,08058.2484,W,1,10,1.6,22,M,,M,,*62
06/15/2015	22:03:30.497	$GPGGA,220331,2426.8416,N,08058.2463,W,1,10,1.6,22,M,,M,,*68
06/15/2015	22:03:31.513	$GPGGA,220332,2426.8416,N,08058.2443,W,1,10,1.6,22,M,,M,,*69
06/15/2015	22:03:32.585	$GPGGA,220333,2426.8416,N,08058.2422,W,1,10,1.6,22,M,,M,,*6F
06/15/2015	22:03:33.490	$GPGGA,220334,2426.8419,N,08058.2403,W,1,10,1.6,22,M,,M,,*64
06/15/2015	22:03:34.495	$GPGGA,220335,2426.8417,N,08058.2381,W,1,10,1.6,22,M,,M,,*66
06/15/2015	22:03:35.633	$GPGGA,220336,2426.8419,N,08058.2360,W,1,10,1.6,21,M,,M,,*67
06/15/2015	22:03:36.486	$GPGGA,220337,2426.8422,N,08058.2339,W,1,10,1.6,21,M,,M,,*62
06/15/2015	22:03:37.586	$GPGGA,220338,2426.8421,N,08058.2317,W,1,10,1.6,21,M,,M,,*62
06/15/2015	22:03:38.573	$GPGGA,220339,2426.8422,N,08058.2296,W,1,10,1.6,21,M,,M,,*68
06/15/2015	22:03:39.623	$GPGGA,220340,2426.8423,N,08058.2277,W,1,10,1.6,21,M,,M,,*68
06/15/2015	22:03:40.563	$GPGGA,220341,2426.8425,N,08058.2255,W,1,10,1.6,21,M,,M,,*6F
06/15/2015	22:03:41.613	$GPGGA,220342,2426.8424,N,08058.2233,W,1,10,1.6,21,M,,M,,*6D
06/15/2015	22:03:42.563	$GPGGA,220343,2426.8427,N,08058.2213,W,1,10,1.6,21,M,,M,,*6D
06/15/2015	22:03:43.605	$GPGGA,220344,2426.8427,N,08058.2192,W,1,10,1.6,21,M,,M,,*60
06/15/2015	22:03:44.553	$GPGGA,220345,2426.8427,N,08058.2170,W,1,10,1.6,21,M,,M,,*6D
06/15/2015	22:03:45.843	$GPGGA,220346,2426.8430,N,08058.2150,W,1,10,1.6,21,M,,M,,*6A
06/15/2015	22:03:46.563	$GPGGA,220347,2426.8430,N,08058.2129,W,1,10,1.6,21,M,,M,,*65
06/15/2015	22:03:47.606	$GPGGA,220348,2426.8430,N,08058.2108,W,1,10,1.6,20,M,,M,,*68
06/15/2015	22:03:48.553	$GPGGA,220349,2426.8432,N,08058.2086,W,1,10,1.6,20,M,,M,,*6C
06/15/2015	22:03:49.564	$GPGGA,220350,2426.8434,N,08058.2066,W,1,10,1.6,20,M,,M,,*6C
06/15/2015	22:03:50.553	$GPGGA,220351,2426.8434,N,08058.2045,W,1,10,1.6,20,M,,M,,*6C
06/15/2015	22:03:51.587	$GPGGA,220352,2426.8436,N,08058.2024,W,1,10,1.6,20,M,,M,,*6A
06/15/2015	22:03:52.543	$GPGGA,220353,2426.8438,N,08058.2003,W,1,10,1.6,20,M,,M,,*60
06/15/2015	22:03:53.563	$GPGGA,220354,2426.8438,N,08058.1982,W,1,10,1.6,20,M,,M,,*64
06/15/2015	22:03:54.543	$GPGGA,220355,2426.8438,N,08058.1961,W,1,10,1.6,20,M,,M,,*68
06/15/2015	22:03:55.605	$GPGGA,220356,2426.8441,N,08058.1940,W,1,10,1.6,20,M,,M,,*66
06/15/2015	22:03:56.533	$GPGGA,220357,2426.8441,N,08058.1920,W,1,10,1.6,20,M,,M,,*61
06/15/2015	22:03:57.553	$GPGGA,220358,2426.8441,N,08058.1900,W,1,10,1.6,20,M,,M,,*6C
06/15/2015	22:03:58.533	$GPGGA,220359,2426.8441,N,08058.1876,W,1,10,1.6,20,M,,M,,*6D
06/15/2015	22:03:59.573	$GPGGA,220400,2426.8443,N,08058.1857,W,1,10,1.6,20,M,,M,,*67
06/15/2015	22:04:00.533	$GPGGA,220401,2426.8442,N,08058.1840,W,1,10,1.6,19,M,,M,,*6B
06/15/2015	22:04:01.553	$GPGGA,220402,2426.8443,N,08058.1817,W,1,10,1.6,19,M,,M,,*6B
06/15/2015	22:04:02.533	$GPGGA,220403,2426.8445,N,08058.1796,W,1,10,1.6,19,M,,M,,*6A
06/15/2015	22:04:03.603	$GPGGA,220404,2426.8445,N,08058.1778,W,1,10,1.6,19,M,,M,,*6D
06/15/2015	22:04:04.513	$GPGGA,220405,2426.8443,N,08058.1758,W,1,10,1.6,19,M,,M,,*68
06/15/2015	22:04:05.503	$GPGGA,220406,2426.8445,N,08058.1735,W,1,10,1.6,19,M,,M,,*66
06/15/2015	22:04:06.624	$GPGGA,220407,2426.8447,N,08058.1716,W,1,10,1.6,19,M,,M,,*64
06/15/2015	22:04:07.588	$GPGGA,220408,2426.8446,N,08058.1698,W,1,10,1.7,19,M,,M,,*6C
06/15/2015	22:04:08.513	$GPGGA,220409,2426.8447,N,08058.1676,W,1,10,1.6,19,M,,M,,*6D
06/15/2015	22:04:09.523	$GPGGA,220410,2426.8448,N,08058.1656,W,1,10,1.6,19,M,,M,,*68
06/15/2015	22:04:10.623	$GPGGA,220411,2426.8448,N,08058.1639,W,1,10,1.6,19,M,,M,,*60
06/15/2015	22:04:11.603	$GPGGA,220412,2426.8449,N,08058.1620,W,1,10,1.6,19,M,,M,,*6A
06/15/2015	22:04:12.523	$GPGGA,220413,2426.8451,N,08058.1602,W,1,10,1.6,19,M,,M,,*62
06/15/2015	22:04:13.513	$GPGGA,220414,2426.8452,N,08058.1585,W,1,10,1.6,19,M,,M,,*6A
06/15/2015	22:04:14.584	$GPGGA,220415,2426.8452,N,08058.1568,W,1,10,1.6,19,M,,M,,*68
06/15/2015	22:04:15.633	$GPGGA,220416,2426.8454,N,08058.1550,W,1,10,1.6,19,M,,M,,*66
06/15/2015	22:04:16.503	$GPGGA,220417,2426.8455,N,08058.1536,W,1,10,1.6,19,M,,M,,*66
06/15/2015	22:04:17.523	$GPGGA,220418,2426.8454,N,08058.1520,W,1,10,1.6,18,M,,M,,*6E
06/15/2015	22:04:18.523	$GPGGA,220419,2426.8456,N,08058.1503,W,1,10,1.6,18,M,,M,,*6C
06/15/2015	22:04:19.613	$GPGGA,220420,2426.8456,N,08058.1490,W,1,10,1.6,18,M,,M,,*6D
06/15/2015	22:04:20.503	$GPGGA,220421,2426.8456,N,08058.1476,W,1,10,1.6,18,M,,M,,*64
06/15/2015	22:04:21.573	$GPGGA,220422,2426.8456,N,08058.1462,W,1,10,1.6,18,M,,M,,*62
06/15/2015	22:04:22.573	$GPGGA,220423,2426.8458,N,08058.1449,W,1,10,1.6,18,M,,M,,*64
06/15/2015	22:04:23.584	$GPGGA,220424,2426.8457,N,08058.1436,W,1,10,1.6,18,M,,M,,*64
06/15/2015	22:04:24.564	$GPGGA,220425,2426.8458,N,08058.1423,W,1,10,1.6,18,M,,M,,*6E
06/15/2015	22:04:25.573	$GPGGA,220426,2426.8457,N,08058.1411,W,1,10,1.6,18,M,,M,,*63
06/15/2015	22:04:26.584	$GPGGA,220427,2426.8459,N,08058.1399,W,1,10,1.6,18,M,,M,,*6B
06/15/2015	22:04:27.573	$GPGGA,220428,2426.8458,N,08058.1388,W,1,10,1.6,18,M,,M,,*65
06/15/2015	22:04:28.563	$GPGGA,220429,2426.8459,N,08058.1375,W,1,10,1.6,18,M,,M,,*67
06/15/2015	22:04:29.553	$GPGGA,220430,2426.8456,N,08058.1363,W,1,10,1.6,18,M,,M,,*67
06/15/2015	22:04:30.553	$GPGGA,220431,2426.8459,N,08058.1355,W,1,10,1.6,18,M,,M,,*6C
06/15/2015	22:04:31.595	$GPGGA,220432,2426.8457,N,08058.1344,W,1,10,1.6,18,M,,M,,*61
06/15/2015	22:04:32.553	$GPGGA,220433,2426.8456,N,08058.1333,W,1,10,1.6,18,M,,M,,*61
06/15/2015	22:04:33.553	$GPGGA,220434,2426.8456,N,08058.1324,W,1,10,1.6,18,M,,M,,*60
06/15/2015	22:04:34.553	$GPGGA,220435,2426.8454,N,08058.1315,W,1,10,1.6,18,M,,M,,*61
06/15/2015	22:04:35.553	$GPGGA,220436,2426.8453,N,08058.1305,W,1,8,1.7,18,M,,M,,*5C
06/15/2015	22:04:36.543	$GPGGA,220437,2426.8452,N,08058.1296,W,1,8,1.6,18,M,,M,,*56
06/15/2015	22:04:37.573	$GPGGA,220438,2426.8450,N,08058.1285,W,1,9,1.6,18,M,,M,,*58
06/15/2015	22:04:38.553	$GPGGA,220439,2426.8447,N,08058.1277,W,1,9,1.6,18,M,,M,,*52
06/15/2015	22:04:39.573	$GPGGA,220440,2426.8446,N,08058.1270,W,1,10,1.6,18,M,,M,,*62
06/15/2015	22:04:40.543	$GPGGA,220441,2426.8445,N,08058.1262,W,1,10,1.6,18,M,,M,,*63
06/15/2015	22:04:41.554	$GPGGA,220442,2426.8442,N,08058.1253,W,1,10,1.6,18,M,,M,,*65
06/15/2015	22:04:42.543	$GPGGA,220443,2426.8441,N,08058.1249,W,1,10,1.8,18,M,,M,,*62
06/15/2015	22:04:43.543	$GPGGA,220444,2426.8439,N,08058.1243,W,1,10,1.6,18,M,,M,,*6E
06/15/2015	22:04:44.533	$GPGGA,220445,2426.8438,N,08058.1237,W,1,10,1.6,18,M,,M,,*6D
06/15/2015	22:04:45.513	$GPGGA,220446,2426.8436,N,08058.1233,W,1,10,1.6,19,M,,M,,*65
06/15/2015	22:04:46.523	$GPGGA,220447,2426.8434,N,08058.1229,W,1,10,1.6,19,M,,M,,*6D
06/15/2015	22:04:47.553	$GPGGA,220448,2426.8431,N,08058.1223,W,1,10,1.6,19,M,,M,,*6D
06/15/2015	22:04:48.513	$GPGGA,220449,2426.8429,N,08058.1218,W,1,10,1.6,19,M,,M,,*6D
06/15/2015	22:04:49.513	$GPGGA,220450,2426.8427,N,08058.1215,W,1,9,1.8,19,M,,M,,*50
06/15/2015	22:04:50.523	$GPGGA,220451,2426.8424,N,08058.1210,W,1,9,1.6,19,M,,M,,*59
06/15/2015	22:04:51.523	$GPGGA,220452,2426.8425,N,08058.1204,W,1,9,1.7,19,M,,M,,*5F
06/15/2015	22:04:52.523	$GPGGA,220453,2426.8423,N,08058.1201,W,1,9,1.6,19,M,,M,,*5C
06/15/2015	22:04:53.523	$GPGGA,220454,2426.8421,N,08058.1200,W,1,10,1.6,19,M,,M,,*60
06/15/2015	22:04:54.513	$GPGGA,220455,2426.8419,N,08058.1195,W,1,10,1.6,19,M,,M,,*65
06/15/2015	22:04:55.523	$GPGGA,220456,2426.8417,N,08058.1191,W,1,10,1.6,19,M,,M,,*6C
06/15/2015	22:04:56.501	$GPGGA,220457,2426.8416,N,08058.1188,W,1,10,1.6,19,M,,M,,*64
06/15/2015	22:04:57.501	$GPGGA,220458,2426.8414,N,08058.1184,W,1,9,1.8,19,M,,M,,*53
06/15/2015	22:04:58.498	$GPGGA,220459,2426.8413,N,08058.1181,W,1,9,1.7,19,M,,M,,*5F
06/15/2015	22:04:59.534	$GPGGA,220500,2426.8411,N,08058.1179,W,1,10,1.6,19,M,,M,,*6E
06/15/2015	22:05:00.498	$GPGGA,220501,2426.8412,N,08058.1176,W,1,10,1.7,19,M,,M,,*62
06/15/2015	22:05:01.613	$GPGGA,220502,2426.8411,N,08058.1173,W,1,10,1.6,20,M,,M,,*6C
06/15/2015	22:05:02.583	$GPGGA,220503,2426.8410,N,08058.1170,W,1,10,1.6,20,M,,M,,*6F
06/15/2015	22:05:03.502	$GPGGA,220504,2426.8411,N,08058.1166,W,1,9,1.7,20,M,,M,,*57
06/15/2015	22:05:04.573	$GPGGA,220505,2426.8410,N,08058.1162,W,1,9,1.6,20,M,,M,,*52
06/15/2015	22:05:05.613	$GPGGA,220506,2426.8411,N,08058.1157,W,1,9,1.8,20,M,,M,,*58
06/15/2015	22:05:06.492	$GPGGA,220507,2426.8412,N,08058.1155,W,1,9,1.9,20,M,,M,,*59
06/15/2015	22:05:07.493	$GPGGA,220508,2426.8412,N,08058.1152,W,1,8,1.8,21,M,,M,,*50
06/15/2015	22:05:08.493	$GPGGA,220509,2426.8414,N,08058.1147,W,1,8,1.8,21,M,,M,,*53
06/15/2015	22:05:09.473	$GPGGA,220510,2426.8415,N,08058.1144,W,1,8,2.2,21,M,,M,,*50
06/15/2015	22:05:10.573	$GPGGA,220511,2426.8416,N,08058.1141,W,1,8,1.6,21,M,,M,,*50
06/15/2015	22:05:11.573	$GPGGA,220512,2426.8419,N,08058.1137,W,1,10,1.6,21,M,,M,,*64
06/15/2015	22:05:12.563	$GPGGA,220513,2426.8420,N,08058.1133,W,1,10,1.6,22,M,,M,,*68
06/15/2015	22:05:13.587	$GPGGA,220514,2426.8422,N,08058.1129,W,1,10,1.6,22,M,,M,,*66
06/15/2015	22:05:14.553	$GPGGA,220515,2426.8426,N,08058.1126,W,1,10,1.7,22,M,,M,,*6D
06/15/2015	22:05:15.573	$GPGGA,220516,2426.8427,N,08058.1121,W,1,10,1.6,22,M,,M,,*69
06/15/2015	22:05:16.564	$GPGGA,220517,2426.8430,N,08058.1117,W,1,10,2.1,22,M,,M,,*6F
06/15/2015	22:05:17.553	$GPGGA,220518,2426.8433,N,08058.1113,W,1,9,2.0,22,M,,M,,*5E
06/15/2015	22:05:18.563	$GPGGA,220519,2426.8434,N,08058.1106,W,1,9,1.6,22,M,,M,,*59
06/15/2015	22:05:19.563	$GPGGA,220520,2426.8436,N,08058.1101,W,1,10,1.6,23,M,,M,,*6F
06/15/2015	22:05:20.563	$GPGGA,220521,2426.8440,N,08058.1098,W,1,10,2.0,23,M,,M,,*6B
06/15/2015	22:05:21.553	$GPGGA,220522,2426.8444,N,08058.1095,W,1,9,2.0,23,M,,M,,*59
06/15/2015	22:05:22.553	$GPGGA,220523,2426.8445,N,08058.1090,W,1,9,2.0,23,M,,M,,*5C
06/15/2015	22:05:23.573	$GPGGA,220524,2426.8447,N,08058.1084,W,1,9,2.0,23,M,,M,,*5C
06/15/2015	22:05:24.533	$GPGGA,220525,2426.8451,N,08058.1081,W,1,9,1.6,23,M,,M,,*5A
06/15/2015	22:05:25.563	$GPGGA,220526,2426.8452,N,08058.1078,W,1,9,1.8,23,M,,M,,*52
06/15/2015	22:05:26.533	$GPGGA,220527,2426.8454,N,08058.1074,W,1,9,1.7,23,M,,M,,*56
06/15/2015	22:05:27.573	$GPGGA,220528,2426.8458,N,08058.1069,W,1,9,2.0,23,M,,M,,*5D
06/15/2015	22:05:28.533	$GPGGA,220529,2426.8459,N,08058.1063,W,1,9,2.2,23,M,,M,,*55
06/15/2015	22:05:29.563	$GPGGA,220530,2426.8463,N,08058.1058,W,1,10,1.6,23,M,,M,,*63
06/15/2015	22:05:30.533	$GPGGA,220531,2426.8465,N,08058.1053,W,1,10,1.6,23,M,,M,,*6F
06/15/2015	22:05:31.553	$GPGGA,220532,2426.8466,N,08058.1049,W,1,10,1.6,23,M,,M,,*64
06/15/2015	22:05:32.523	$GPGGA,220533,2426.8469,N,08058.1042,W,1,10,1.6,24,M,,M,,*66
06/15/2015	22:05:33.523	$GPGGA,220534,2426.8470,N,08058.1036,W,1,10,1.6,24,M,,M,,*6A
06/15/2015	22:05:34.524	$GPGGA,220535,2426.8472,N,08058.1032,W,1,10,1.9,24,M,,M,,*62
06/15/2015	22:05:35.563	$GPGGA,220536,2426.8473,N,08058.1027,W,1,10,1.6,24,M,,M,,*6B
06/15/2015	22:05:36.523	$GPGGA,220537,2426.8474,N,08058.1025,W,1,10,1.8,24,M,,M,,*61
06/15/2015	22:05:37.543	$GPGGA,220538,2426.8477,N,08058.1019,W,1,7,2.3,24,M,,M,,*5C
06/15/2015	22:05:38.503	$GPGGA,220539,2426.8479,N,08058.1014,W,1,7,1.8,24,M,,M,,*56
06/15/2015	22:05:39.523	$GPGGA,220540,2426.8478,N,08058.1010,W,1,8,1.7,24,M,,M,,*5D
06/15/2015	22:05:40.513	$GPGGA,220541,2426.8481,N,08058.1006,W,1,8,1.6,24,M,,M,,*5C
06/15/2015	22:05:41.513	$GPGGA,220542,2426.8483,N,08058.1003,W,1,10,1.6,24,M,,M,,*61
06/15/2015	22:05:42.503	$GPGGA,220543,2426.8484,N,08058.0999,W,1,10,1.6,24,M,,M,,*6C
06/15/2015	22:05:43.603	$GPGGA,220544,2426.8487,N,08058.0995,W,1,10,1.6,24,M,,M,,*64
06/15/2015	22:05:44.503	$GPGGA,220545,2426.8488,N,08058.0991,W,1,10,1.6,24,M,,M,,*6E
06/15/2015	22:05:45.493	$GPGGA,220546,2426.8490,N,08058.0988,W,1,10,1.6,24,M,,M,,*6C
06/15/2015	22:05:46.496	$GPGGA,220547,2426.8492,N,08058.0985,W,1,10,1.6,25,M,,M,,*63
06/15/2015	22:05:47.523	$GPGGA,220548,2426.8494,N,08058.0981,W,1,10,1.6,25,M,,M,,*6E
06/15/2015	22:05:48.493	$GPGGA,220549,2426.8495,N,08058.0978,W,1,10,1.6,25,M,,M,,*68
06/15/2015	22:05:49.623	$GPGGA,220550,2426.8498,N,08058.0974,W,1,10,1.6,25,M,,M,,*61
06/15/2015	22:05:50.503	$GPGGA,220551,2426.8497,N,08058.0971,W,1,10,1.6,25,M,,M,,*6A
06/15/2015	22:05:51.597	$GPGGA,220552,2426.8499,N,08058.0968,W,1,10,1.6,25,M,,M,,*6F
06/15/2015	22:05:52.493	$GPGGA,220553,2426.8503,N,08058.0965,W,1,10,1.6,25,M,,M,,*61
06/15/2015	22:05:53.493	$GPGGA,220554,2426.8503,N,08058.0963,W,1,10,1.6,25,M,,M,,*60
06/15/2015	22:05:54.573	$GPGGA,220555,2426.8503,N,08058.0960,W,1,10,1.7,25,M,,M,,*63
06/15/2015	22:05:55.613	$GPGGA,220556,2426.8505,N,08058.0957,W,1,10,1.6,25,M,,M,,*63
06/15/2015	22:05:56.587	$GPGGA,220557,2426.8508,N,08058.0954,W,1,10,1.7,25,M,,M,,*6D
06/15/2015	22:05:57.603	$GPGGA,220558,2426.8509,N,08058.0952,W,1,10,1.6,25,M,,M,,*64
06/15/2015	22:05:58.563	$GPGGA,220559,2426.8510,N,08058.0950,W,1,10,1.7,25,M,,M,,*6E
06/15/2015	22:05:59.613	$GPGGA,220600,2426.8512,N,08058.0948,W,1,10,1.6,25,M,,M,,*6B
06/15/2015	22:06:00.563	$GPGGA,220601,2426.8513,N,08058.0946,W,1,10,1.7,25,M,,M,,*64
06/15/2015	22:06:01.553	$GPGGA,220602,2426.8514,N,08058.0943,W,1,9,1.7,25,M,,M,,*5D
06/15/2015	22:06:02.563	$GPGGA,220603,2426.8516,N,08058.0941,W,1,9,1.7,25,M,,M,,*5C
06/15/2015	22:06:03.603	$GPGGA,220604,2426.8517,N,08058.0938,W,1,10,1.6,25,M,,M,,*6D
06/15/2015	22:06:04.563	$GPGGA,220605,2426.8519,N,08058.0937,W,1,10,1.6,25,M,,M,,*6D
06/15/2015	22:06:05.543	$GPGGA,220606,2426.8518,N,08058.0935,W,1,10,1.6,25,M,,M,,*6D
06/15/2015	22:06:06.563	$GPGGA,220607,2426.8521,N,08058.0933,W,1,10,1.7,25,M,,M,,*61
06/15/2015	22:06:07.573	$GPGGA,220608,2426.8521,N,08058.0930,W,1,10,1.6,25,M,,M,,*6C
06/15/2015	22:06:08.553	$GPGGA,220609,2426.8524,N,08058.0929,W,1,10,1.7,24,M,,M,,*60
06/15/2015	22:06:09.544	$GPGGA,220610,2426.8524,N,08058.0928,W,1,10,1.6,24,M,,M,,*68
06/15/2015	22:06:10.543	$GPGGA,220611,2426.8526,N,08058.0925,W,1,10,1.6,24,M,,M,,*66
06/15/2015	22:06:11.573	$GPGGA,220612,2426.8528,N,08058.0923,W,1,10,1.6,24,M,,M,,*6D
06/15/2015	22:06:12.543	$GPGGA,220613,2426.8528,N,08058.0921,W,1,10,1.6,24,M,,M,,*6E
06/15/2015	22:06:13.533	$GPGGA,220614,2426.8531,N,08058.0920,W,1,10,1.6,24,M,,M,,*60
06/15/2015	22:06:14.533	$GPGGA,220615,2426.8531,N,08058.0918,W,1,10,1.6,24,M,,M,,*6A
06/15/2015	22:06:15.563	$GPGGA,220616,2426.8532,N,08058.0915,W,1,10,1.6,24,M,,M,,*67
06/15/2015	22:06:16.533	$GPGGA,220617,2426.8534,N,08058.0913,W,1,10,1.6,24,M,,M,,*66
06/15/2015	22:06:17.563	$GPGGA,220618,2426.8535,N,08058.0911,W,1,10,1.6,24,M,,M,,*6A
06/15/2015	22:06:18.533	$GPGGA,220619,2426.8537,N,08058.0910,W,1,10,1.6,24,M,,M,,*68
06/15/2015	22:06:19.553	$GPGGA,220620,2426.8536,N,08058.0908,W,1,10,1.6,24,M,,M,,*6A
06/15/2015	22:06:20.523	$GPGGA,220621,2426.8539,N,08058.0906,W,1,10,1.6,24,M,,M,,*6A
06/15/2015	22:06:21.563	$GPGGA,220622,2426.8539,N,08058.0905,W,1,10,1.6,23,M,,M,,*6D
06/15/2015	22:06:22.523	$GPGGA,220623,2426.8542,N,08058.0904,W,1,10,1.6,23,M,,M,,*61
06/15/2015	22:06:23.543	$GPGGA,220624,2426.8542,N,08058.0902,W,1,10,1.6,23,M,,M,,*60
06/15/2015	22:06:24.503	$GPGGA,220625,2426.8544,N,08058.0900,W,1,10,1.6,23,M,,M,,*65
06/15/2015	22:06:25.523	$GPGGA,220626,2426.8546,N,08058.0900,W,1,10,1.6,23,M,,M,,*64
06/15/2015	22:06:26.504	$GPGGA,220627,2426.8546,N,08058.0898,W,1,10,1.6,23,M,,M,,*65
06/15/2015	22:06:28.533	$GPGGA,220629,2426.8549,N,08058.0896,W,1,10,1.6,23,M,,M,,*6A
06/15/2015	22:06:29.513	$GPGGA,220630,2426.8550,N,08058.0895,W,1,10,1.6,23,M,,M,,*69
06/15/2015	22:06:30.513	$GPGGA,220631,2426.8552,N,08058.0896,W,1,10,1.6,23,M,,M,,*69
06/15/2015	22:06:31.523	$GPGGA,220632,2426.8553,N,08058.0894,W,1,10,1.6,23,M,,M,,*69
06/15/2015	22:06:32.653	$GPGGA,220633,2426.8555,N,08058.0893,W,1,10,1.6,23,M,,M,,*69
06/15/2015	22:06:33.623	$GPGGA,220634,2426.8557,N,08058.0893,W,1,10,1.8,23,M,,M,,*62
06/15/2015	22:06:34.493	$GPGGA,220635,2426.8560,N,08058.0893,W,1,10,1.8,23,M,,M,,*67
06/15/2015	22:06:35.653	$GPGGA,220636,2426.8560,N,08058.0893,W,1,9,1.8,22,M,,M,,*5D
06/15/2015	22:06:36.653	$GPGGA,220637,2426.8563,N,08058.0892,W,1,9,1.8,22,M,,M,,*5E
06/15/2015	22:06:37.490	$GPGGA,220638,2426.8566,N,08058.0893,W,1,9,1.8,22,M,,M,,*55
06/15/2015	22:06:38.653	$GPGGA,220639,2426.8568,N,08058.0894,W,1,9,1.8,22,M,,M,,*5D
06/15/2015	22:06:39.613	$GPGGA,220640,2426.8568,N,08058.0894,W,1,9,1.8,22,M,,M,,*53
06/15/2015	22:06:40.653	$GPGGA,220641,2426.8571,N,08058.0894,W,1,9,1.8,22,M,,M,,*5A
06/15/2015	22:06:41.563	$GPGGA,220642,2426.8573,N,08058.0894,W,1,9,1.8,22,M,,M,,*5B
06/15/2015	22:06:42.563	$GPGGA,220643,2426.8575,N,08058.0894,W,1,9,1.8,22,M,,M,,*5C
06/15/2015	22:06:43.934	$GPGGA,220644,2426.8577,N,08058.0894,W,1,9,1.8,22,M,,M,,*59
06/15/2015	22:06:44.564	$GPGGA,220645,2426.8578,N,08058.0896,W,1,9,1.8,22,M,,M,,*55
06/15/2015	22:06:45.603	$GPGGA,220646,2426.8579,N,08058.0896,W,1,9,1.8,21,M,,M,,*54
06/15/2015	22:06:46.563	$GPGGA,220647,2426.8582,N,08058.0896,W,1,9,1.8,21,M,,M,,*51
06/15/2015	22:06:47.663	$GPGGA,220648,2426.8582,N,08058.0896,W,1,9,1.8,21,M,,M,,*5E
06/15/2015	22:06:48.563	$GPGGA,220649,2426.8585,N,08058.0897,W,1,9,1.8,21,M,,M,,*59
06/15/2015	22:06:49.586	$GPGGA,220650,2426.8586,N,08058.0899,W,1,8,1.9,21,M,,M,,*5C
06/15/2015	22:06:50.623	$GPGGA,220651,2426.8589,N,08058.0898,W,1,8,1.8,21,M,,M,,*52
06/15/2015	22:06:51.613	$GPGGA,220652,2426.8589,N,08058.0900,W,1,9,1.8,21,M,,M,,*50
06/15/2015	22:06:52.613	$GPGGA,220653,2426.8592,N,08058.0900,W,1,9,1.8,21,M,,M,,*5B
06/15/2015	22:06:53.586	$GPGGA,220654,2426.8593,N,08058.0901,W,1,9,1.8,21,M,,M,,*5C
06/15/2015	22:06:54.613	$GPGGA,220655,2426.8596,N,08058.0903,W,1,9,1.8,21,M,,M,,*5A
06/15/2015	22:06:55.603	$GPGGA,220656,2426.8597,N,08058.0903,W,1,9,1.8,21,M,,M,,*58
06/15/2015	22:06:56.613	$GPGGA,220657,2426.8599,N,08058.0904,W,1,9,1.8,21,M,,M,,*50
06/15/2015	22:06:57.573	$GPGGA,220658,2426.8602,N,08058.0904,W,1,8,1.9,20,M,,M,,*5F
06/15/2015	22:06:58.603	$GPGGA,220659,2426.8603,N,08058.0905,W,1,8,1.9,20,M,,M,,*5E
06/15/2015	22:06:59.643	$GPGGA,220700,2426.8604,N,08058.0907,W,1,8,1.9,20,M,,M,,*56
06/15/2015	22:07:00.583	$GPGGA,220701,2426.8607,N,08058.0908,W,1,8,1.8,20,M,,M,,*5A
06/15/2015	22:07:01.595	$GPGGA,220702,2426.8607,N,08058.0910,W,1,8,1.8,20,M,,M,,*50
06/15/2015	22:07:02.523	$GPGGA,220703,2426.8610,N,08058.0910,W,1,8,1.8,20,M,,M,,*57
06/15/2015	22:07:03.573	$GPGGA,220704,2426.8613,N,08058.0911,W,1,9,1.8,20,M,,M,,*53
06/15/2015	22:07:04.586	$GPGGA,220705,2426.8614,N,08058.0911,W,1,9,1.9,20,M,,M,,*54
06/15/2015	22:07:05.592	$GPGGA,220706,2426.8615,N,08058.0912,W,1,8,1.9,20,M,,M,,*54
06/15/2015	22:07:06.513	$GPGGA,220707,2426.8618,N,08058.0914,W,1,8,1.9,20,M,,M,,*5E
06/15/2015	22:07:07.573	$GPGGA,220708,2426.8620,N,08058.0914,W,1,9,1.8,19,M,,M,,*50
06/15/2015	22:07:08.573	$GPGGA,220709,2426.8622,N,08058.0915,W,1,9,1.8,19,M,,M,,*52
06/15/2015	22:07:09.573	$GPGGA,220710,2426.8624,N,08058.0918,W,1,9,1.8,19,M,,M,,*51
06/15/2015	22:07:10.863	$GPGGA,220711,2426.8625,N,08058.0918,W,1,9,1.8,19,M,,M,,*51
06/15/2015	22:07:11.653	$GPGGA,220712,2426.8625,N,08058.0919,W,1,8,1.8,19,M,,M,,*52
06/15/2015	22:07:12.623	$GPGGA,220713,2426.8628,N,08058.0921,W,1,8,1.8,19,M,,M,,*55
06/15/2015	22:07:13.613	$GPGGA,220714,2426.8629,N,08058.0921,W,1,9,1.8,19,M,,M,,*52
06/15/2015	22:07:14.623	$GPGGA,220715,2426.8629,N,08058.0922,W,1,9,1.8,18,M,,M,,*51
06/15/2015	22:07:15.587	$GPGGA,220716,2426.8632,N,08058.0925,W,1,9,1.8,18,M,,M,,*5F
06/15/2015	22:07:16.543	$GPGGA,220717,2426.8633,N,08058.0925,W,1,9,1.8,18,M,,M,,*5F
06/15/2015	22:07:17.543	$GPGGA,220718,2426.8635,N,08058.0928,W,1,9,1.8,18,M,,M,,*5B
06/15/2015	22:07:18.563	$GPGGA,220719,2426.8634,N,08058.0928,W,1,9,1.8,18,M,,M,,*5B
06/15/2015	22:07:19.554	$GPGGA,220720,2426.8636,N,08058.0929,W,1,9,1.8,18,M,,M,,*52
06/15/2015	22:07:20.484	$GPGGA,220721,2426.8638,N,08058.0932,W,1,9,1.8,18,M,,M,,*57
06/15/2015	22:07:21.493	$GPGGA,220722,2426.8639,N,08058.0932,W,1,9,1.8,18,M,,M,,*55
06/15/2015	22:07:22.543	$GPGGA,220723,2426.8640,N,08058.0934,W,1,9,1.8,18,M,,M,,*5C
06/15/2015	22:07:23.563	$GPGGA,220724,2426.8640,N,08058.0936,W,1,9,1.8,17,M,,M,,*56
06/15/2015	22:07:24.573	$GPGGA,220725,2426.8643,N,08058.0937,W,1,9,1.8,17,M,,M,,*55
06/15/2015	22:07:25.543	$GPGGA,220726,2426.8643,N,08058.0940,W,1,9,1.8,17,M,,M,,*56
06/15/2015	22:07:26.573	$GPGGA,220727,2426.8644,N,08058.0941,W,1,9,1.8,17,M,,M,,*51
06/15/2015	22:07:27.585	$GPGGA,220728,2426.8647,N,08058.0943,W,1,9,1.8,17,M,,M,,*5F
06/15/2015	22:07:28.563	$GPGGA,220729,2426.8647,N,08058.0946,W,1,9,1.8,17,M,,M,,*5B
06/15/2015	22:07:29.598	$GPGGA,220730,2426.8649,N,08058.0947,W,1,9,1.8,17,M,,M,,*5C
06/15/2015	22:07:30.573	$GPGGA,220731,2426.8650,N,08058.0950,W,1,9,1.8,17,M,,M,,*53
06/15/2015	22:07:31.573	$GPGGA,220732,2426.8651,N,08058.0951,W,1,9,1.8,17,M,,M,,*50
06/15/2015	22:07:32.573	$GPGGA,220733,2426.8651,N,08058.0952,W,1,9,1.8,17,M,,M,,*52
06/15/2015	22:07:33.563	$GPGGA,220734,2426.8654,N,08058.0954,W,1,9,1.9,17,M,,M,,*57
06/15/2015	22:07:34.573	$GPGGA,220735,2426.8653,N,08058.0957,W,1,9,1.8,17,M,,M,,*53
06/15/2015	22:07:35.573	$GPGGA,220736,2426.8654,N,08058.0958,W,1,9,1.8,17,M,,M,,*58
06/15/2015	22:07:36.604	$GPGGA,220737,2426.8656,N,08058.0961,W,1,9,1.8,17,M,,M,,*51
06/15/2015	22:07:37.563	$GPGGA,220738,2426.8657,N,08058.0962,W,1,9,1.8,16,M,,M,,*5D
06/15/2015	22:07:38.563	$GPGGA,220739,2426.8656,N,08058.0965,W,1,9,1.8,16,M,,M,,*5A
06/15/2015	22:07:39.596	$GPGGA,220740,2426.8656,N,08058.0965,W,1,9,1.8,16,M,,M,,*54
06/15/2015	22:07:40.563	$GPGGA,220741,2426.8660,N,08058.0969,W,1,9,1.8,16,M,,M,,*5C
06/15/2015	22:07:41.563	$GPGGA,220742,2426.8661,N,08058.0972,W,1,9,1.8,16,M,,M,,*54
06/15/2015	22:07:42.543	$GPGGA,220743,2426.8662,N,08058.0973,W,1,9,1.8,16,M,,M,,*57
06/15/2015	22:07:43.573	$GPGGA,220744,2426.8664,N,08058.0976,W,1,9,1.8,16,M,,M,,*53
06/15/2015	22:07:44.573	$GPGGA,220745,2426.8665,N,08058.0979,W,1,9,1.8,16,M,,M,,*5C
06/15/2015	22:07:45.563	$GPGGA,220746,2426.8665,N,08058.0980,W,1,9,1.8,16,M,,M,,*59
06/15/2015	22:07:46.563	$GPGGA,220747,2426.8667,N,08058.0983,W,1,9,1.8,16,M,,M,,*59
06/15/2015	22:07:47.583	$GPGGA,220748,2426.8668,N,08058.0984,W,1,9,1.8,16,M,,M,,*5E
06/15/2015	22:07:48.563	$GPGGA,220749,2426.8669,N,08058.0987,W,1,9,1.8,16,M,,M,,*5D
06/15/2015	22:07:49.563	$GPGGA,220750,2426.8671,N,08058.0990,W,1,9,1.8,16,M,,M,,*5A
06/15/2015	22:07:50.563	$GPGGA,220751,2426.8672,N,08058.0991,W,1,9,1.8,16,M,,M,,*59
06/15/2015	22:07:51.543	$GPGGA,220752,2426.8671,N,08058.0993,W,1,9,1.8,16,M,,M,,*5B
06/15/2015	22:07:52.523	$GPGGA,220753,2426.8671,N,08058.0993,W,1,9,1.8,16,M,,M,,*5A
06/15/2015	22:07:53.543	$GPGGA,220754,2426.8675,N,08058.0997,W,1,9,1.8,16,M,,M,,*5D
06/15/2015	22:07:54.554	$GPGGA,220755,2426.8676,N,08058.1001,W,1,9,1.8,16,M,,M,,*58
06/15/2015	22:07:55.563	$GPGGA,220756,2426.8676,N,08058.1002,W,1,9,1.8,16,M,,M,,*58
06/15/2015	22:07:56.563	$GPGGA,220757,2426.8676,N,08058.1002,W,1,9,1.8,16,M,,M,,*59
06/15/2015	22:07:57.533	$GPGGA,220758,2426.8679,N,08058.1008,W,1,9,1.8,16,M,,M,,*53
06/15/2015	22:07:58.963	$GPGGA,220759,2426.8680,N,08058.1009,W,1,9,1.8,16,M,,M,,*55
06/15/2015	22:07:59.543	$GPGGA,220800,2426.8680,N,08058.1012,W,1,9,1.8,16,M,,M,,*5C
06/15/2015	22:08:00.623	$GPGGA,220801,2426.8682,N,08058.1015,W,1,9,1.8,16,M,,M,,*58
06/15/2015	22:08:01.543	$GPGGA,220802,2426.8683,N,08058.1016,W,1,9,1.8,16,M,,M,,*59
06/15/2015	22:08:02.523	$GPGGA,220803,2426.8683,N,08058.1019,W,1,9,1.8,16,M,,M,,*57
06/15/2015	22:08:03.523	$GPGGA,220804,2426.8685,N,08058.1020,W,1,9,1.8,16,M,,M,,*5C
06/15/2015	22:08:04.483	$GPGGA,220805,2426.8685,N,08058.1020,W,1,9,1.8,16,M,,M,,*5D
06/15/2015	22:08:05.474	$GPGGA,220806,2426.8688,N,08058.1026,W,1,9,1.8,16,M,,M,,*55
06/15/2015	22:08:06.533	$GPGGA,220807,2426.8690,N,08058.1027,W,1,9,1.8,16,M,,M,,*5C
06/15/2015	22:08:07.474	$GPGGA,220808,2426.8690,N,08058.1030,W,1,8,1.8,16,M,,M,,*54
06/15/2015	22:08:08.563	$GPGGA,220809,2426.8691,N,08058.1033,W,1,8,2.2,16,M,,M,,*5E
06/15/2015	22:08:09.493	$GPGGA,220810,2426.8691,N,08058.1035,W,1,9,1.8,16,M,,M,,*58
06/15/2015	22:08:10.563	$GPGGA,220811,2426.8693,N,08058.1037,W,1,9,1.8,16,M,,M,,*59
06/15/2015	22:08:11.483	$GPGGA,220812,2426.8694,N,08058.1038,W,1,8,1.8,16,M,,M,,*53
06/15/2015	22:08:12.590	$GPGGA,220813,2426.8694,N,08058.1040,W,1,8,1.8,16,M,,M,,*5D
06/15/2015	22:08:13.572	$GPGGA,220814,2426.8694,N,08058.1041,W,1,8,1.8,16,M,,M,,*5B
06/15/2015	22:08:14.552	$GPGGA,220815,2426.8696,N,08058.1044,W,1,8,1.8,16,M,,M,,*5D
06/15/2015	22:08:15.592	$GPGGA,220816,2426.8695,N,08058.1045,W,1,9,1.8,16,M,,M,,*5D
06/15/2015	22:08:16.562	$GPGGA,220817,2426.8696,N,08058.1046,W,1,9,1.8,16,M,,M,,*5C
06/15/2015	22:08:17.577	$GPGGA,220818,2426.8697,N,08058.1048,W,1,8,1.8,16,M,,M,,*5D
06/15/2015	22:08:18.552	$GPGGA,220819,2426.8698,N,08058.1051,W,1,8,1.8,16,M,,M,,*5B
06/15/2015	22:08:19.589	$GPGGA,220820,2426.8698,N,08058.1052,W,1,9,1.8,16,M,,M,,*53
06/15/2015	22:08:20.542	$GPGGA,220821,2426.8698,N,08058.1053,W,1,9,1.8,16,M,,M,,*53
06/15/2015	22:08:21.562	$GPGGA,220822,2426.8700,N,08058.1055,W,1,8,1.8,16,M,,M,,*57
06/15/2015	22:08:22.553	$GPGGA,220823,2426.8701,N,08058.1058,W,1,8,1.8,16,M,,M,,*5A
06/15/2015	22:08:23.580	$GPGGA,220824,2426.8701,N,08058.1060,W,1,9,1.8,17,M,,M,,*56
06/15/2015	22:08:24.533	$GPGGA,220825,2426.8704,N,08058.1062,W,1,9,1.8,17,M,,M,,*50
06/15/2015	22:08:25.553	$GPGGA,220826,2426.8703,N,08058.1063,W,1,9,1.8,17,M,,M,,*55
06/15/2015	22:08:26.543	$GPGGA,220827,2426.8704,N,08058.1066,W,1,9,1.8,17,M,,M,,*56
06/15/2015	22:08:27.576	$GPGGA,220828,2426.8702,N,08058.1067,W,1,7,2.3,17,M,,M,,*58
06/15/2015	22:08:28.533	$GPGGA,220829,2426.8703,N,08058.1070,W,1,7,1.8,17,M,,M,,*56
06/15/2015	22:08:29.553	$GPGGA,220830,2426.8704,N,08058.1073,W,1,9,1.8,17,M,,M,,*54
06/15/2015	22:08:30.522	$GPGGA,220831,2426.8703,N,08058.1074,W,1,9,1.8,17,M,,M,,*55
06/15/2015	22:08:31.532	$GPGGA,220832,2426.8705,N,08058.1077,W,1,8,1.8,17,M,,M,,*52
06/15/2015	22:08:32.522	$GPGGA,220833,2426.8705,N,08058.1078,W,1,8,1.8,17,M,,M,,*5C
06/15/2015	22:08:33.512	$GPGGA,220834,2426.8705,N,08058.1080,W,1,9,1.8,17,M,,M,,*5D
06/15/2015	22:08:34.522	$GPGGA,220835,2426.8707,N,08058.1082,W,1,9,1.8,18,M,,M,,*53
06/15/2015	22:08:35.552	$GPGGA,220836,2426.8706,N,08058.1084,W,1,9,1.8,18,M,,M,,*57
06/15/2015	22:08:36.522	$GPGGA,220837,2426.8708,N,08058.1087,W,1,9,1.8,18,M,,M,,*5B
06/15/2015	22:08:37.502	$GPGGA,220838,2426.8708,N,08058.1088,W,1,8,2.2,18,M,,M,,*53
06/15/2015	22:08:38.512	$GPGGA,220839,2426.8709,N,08058.1091,W,1,8,1.8,18,M,,M,,*52
06/15/2015	22:08:39.553	$GPGGA,220840,2426.8711,N,08058.1091,W,1,9,1.8,18,M,,M,,*54
06/15/2015	22:08:40.623	$GPGGA,220841,2426.8712,N,08058.1092,W,1,9,1.8,18,M,,M,,*55
06/15/2015	22:08:41.613	$GPGGA,220842,2426.8712,N,08058.1095,W,1,9,1.8,18,M,,M,,*51
06/15/2015	22:08:42.503	$GPGGA,220843,2426.8712,N,08058.1096,W,1,9,1.8,18,M,,M,,*53
06/15/2015	22:08:43.543	$GPGGA,220844,2426.8714,N,08058.1098,W,1,9,1.8,18,M,,M,,*5C
06/15/2015	22:08:44.503	$GPGGA,220845,2426.8715,N,08058.1100,W,1,9,1.8,19,M,,M,,*5D
06/15/2015	22:08:45.603	$GPGGA,220846,2426.8716,N,08058.1102,W,1,9,1.8,19,M,,M,,*5F
06/15/2015	22:08:46.613	$GPGGA,220847,2426.8716,N,08058.1103,W,1,9,1.8,19,M,,M,,*5F
06/15/2015	22:08:47.512	$GPGGA,220848,2426.8716,N,08058.1105,W,1,9,1.8,19,M,,M,,*56
06/15/2015	22:08:48.612	$GPGGA,220849,2426.8719,N,08058.1107,W,1,9,1.8,19,M,,M,,*5A
06/15/2015	22:08:49.573	$GPGGA,220850,2426.8719,N,08058.1109,W,1,9,1.8,19,M,,M,,*5C
06/15/2015	22:08:50.586	$GPGGA,220851,2426.8719,N,08058.1111,W,1,9,1.8,19,M,,M,,*54
06/15/2015	22:08:51.622	$GPGGA,220852,2426.8719,N,08058.1113,W,1,9,1.8,19,M,,M,,*55
06/15/2015	22:08:52.502	$GPGGA,220853,2426.8721,N,08058.1113,W,1,9,1.8,19,M,,M,,*5F
06/15/2015	22:08:53.578	$GPGGA,220854,2426.8722,N,08058.1116,W,1,9,1.8,19,M,,M,,*5E
06/15/2015	22:08:54.488	$GPGGA,220855,2426.8720,N,08058.1117,W,1,9,1.8,19,M,,M,,*5C
06/15/2015	22:08:55.502	$GPGGA,220856,2426.8722,N,08058.1120,W,1,9,1.8,19,M,,M,,*59
06/15/2015	22:08:56.577	$GPGGA,220857,2426.8723,N,08058.1123,W,1,9,1.8,19,M,,M,,*5A
06/15/2015	22:08:57.563	$GPGGA,220858,2426.8723,N,08058.1124,W,1,9,1.8,19,M,,M,,*52
06/15/2015	22:08:58.580	$GPGGA,220859,2426.8723,N,08058.1125,W,1,9,1.8,19,M,,M,,*52
06/15/2015	22:08:59.593	$GPGGA,220900,2426.8725,N,08058.1127,W,1,9,1.8,20,M,,M,,*51
06/15/2015	22:09:00.563	$GPGGA,220901,2426.8726,N,08058.1129,W,1,9,1.8,20,M,,M,,*5D
06/15/2015	22:09:01.579	$GPGGA,220902,2426.8727,N,08058.1134,W,1,9,1.8,20,M,,M,,*53
06/15/2015	22:09:02.553	$GPGGA,220903,2426.8727,N,08058.1134,W,1,9,1.8,20,M,,M,,*52
06/15/2015	22:09:03.575	$GPGGA,220904,2426.8727,N,08058.1135,W,1,9,1.8,20,M,,M,,*54
06/15/2015	22:09:04.553	$GPGGA,220905,2426.8729,N,08058.1138,W,1,9,1.8,20,M,,M,,*56
06/15/2015	22:09:05.542	$GPGGA,220906,2426.8728,N,08058.1141,W,1,9,1.8,20,M,,M,,*5A
06/15/2015	22:09:06.552	$GPGGA,220907,2426.8730,N,08058.1142,W,1,9,1.8,20,M,,M,,*51
06/15/2015	22:09:07.562	$GPGGA,220908,2426.8732,N,08058.1145,W,1,9,1.8,20,M,,M,,*5B
06/15/2015	22:09:08.553	$GPGGA,220909,2426.8731,N,08058.1147,W,1,9,1.8,20,M,,M,,*5B
06/15/2015	22:09:09.532	$GPGGA,220910,2426.8732,N,08058.1149,W,1,9,1.8,20,M,,M,,*5E
06/15/2015	22:09:10.542	$GPGGA,220911,2426.8734,N,08058.1150,W,1,9,1.8,20,M,,M,,*51
06/15/2015	22:09:11.575	$GPGGA,220912,2426.8734,N,08058.1152,W,1,9,1.8,20,M,,M,,*50
06/15/2015	22:09:12.532	$GPGGA,220913,2426.8734,N,08058.1156,W,1,9,1.8,20,M,,M,,*55
06/15/2015	22:09:13.552	$GPGGA,220914,2426.8736,N,08058.1157,W,1,9,1.8,20,M,,M,,*51
06/15/2015	22:09:14.523	$GPGGA,220915,2426.8737,N,08058.1160,W,1,9,1.8,20,M,,M,,*55
06/15/2015	22:09:15.553	$GPGGA,220916,2426.8737,N,08058.1161,W,1,9,1.8,20,M,,M,,*57
06/15/2015	22:09:16.533	$GPGGA,220917,2426.8738,N,08058.1163,W,1,9,1.8,20,M,,M,,*5B
06/15/2015	22:09:17.543	$GPGGA,220918,2426.8740,N,08058.1167,W,1,9,1.8,20,M,,M,,*5F
06/15/2015	22:09:18.533	$GPGGA,220919,2426.8741,N,08058.1168,W,1,9,1.8,20,M,,M,,*50
06/15/2015	22:09:19.563	$GPGGA,220920,2426.8741,N,08058.1171,W,1,9,1.8,20,M,,M,,*52
06/15/2015	22:09:20.533	$GPGGA,220921,2426.8743,N,08058.1172,W,1,9,1.8,20,M,,M,,*52
06/15/2015	22:09:21.533	$GPGGA,220922,2426.8744,N,08058.1175,W,1,9,1.8,20,M,,M,,*51
06/15/2015	22:09:22.512	$GPGGA,220923,2426.8745,N,08058.1178,W,1,9,1.8,20,M,,M,,*5C
06/15/2015	22:09:23.552	$GPGGA,220924,2426.8747,N,08058.1179,W,1,9,1.8,20,M,,M,,*58
06/15/2015	22:09:24.512	$GPGGA,220925,2426.8748,N,08058.1182,W,1,9,1.8,20,M,,M,,*52
06/15/2015	22:09:25.502	$GPGGA,220926,2426.8747,N,08058.1185,W,1,9,1.8,20,M,,M,,*59
06/15/2015	22:09:26.602	$GPGGA,220927,2426.8748,N,08058.1188,W,1,9,1.8,20,M,,M,,*5A
06/15/2015	22:09:27.522	$GPGGA,220928,2426.8751,N,08058.1189,W,1,9,1.8,20,M,,M,,*5C
06/15/2015	22:09:28.492	$GPGGA,220929,2426.8750,N,08058.1192,W,1,9,1.8,20,M,,M,,*56
06/15/2015	22:09:29.502	$GPGGA,220930,2426.8752,N,08058.1193,W,1,9,1.8,20,M,,M,,*5D
06/15/2015	22:09:30.502	$GPGGA,220931,2426.8752,N,08058.1196,W,1,9,1.8,20,M,,M,,*59
06/15/2015	22:09:31.623	$GPGGA,220932,2426.8755,N,08058.1199,W,1,9,1.8,20,M,,M,,*52
06/15/2015	22:09:32.583	$GPGGA,220933,2426.8754,N,08058.1201,W,1,9,1.8,20,M,,M,,*50
06/15/2015	22:09:33.613	$GPGGA,220934,2426.8755,N,08058.1204,W,1,9,1.8,20,M,,M,,*53
06/15/2015	22:09:34.583	$GPGGA,220935,2426.8756,N,08058.1207,W,1,9,1.8,20,M,,M,,*52
06/15/2015	22:09:35.593	$GPGGA,220936,2426.8758,N,08058.1208,W,1,9,1.8,20,M,,M,,*50
06/15/2015	22:09:36.503	$GPGGA,220937,2426.8759,N,08058.1210,W,1,9,1.8,20,M,,M,,*59
06/15/2015	22:09:37.503	$GPGGA,220938,2426.8759,N,08058.1214,W,1,9,1.8,20,M,,M,,*52
06/15/2015	22:09:38.493	$GPGGA,220939,2426.8761,N,08058.1215,W,1,9,1.8,20,M,,M,,*59
06/15/2015	22:09:39.503	$GPGGA,220940,2426.8762,N,08058.1218,W,1,9,1.8,20,M,,M,,*59
06/15/2015	22:09:40.574	$GPGGA,220941,2426.8763,N,08058.1221,W,1,9,1.8,20,M,,M,,*53
06/15/2015	22:09:41.488	$GPGGA,220942,2426.8763,N,08058.1222,W,1,9,1.8,20,M,,M,,*53
06/15/2015	22:09:42.472	$GPGGA,220943,2426.8763,N,08058.1225,W,1,9,1.8,20,M,,M,,*55
06/15/2015	22:09:43.582	$GPGGA,220944,2426.8763,N,08058.1225,W,1,8,1.8,20,M,,M,,*53
06/15/2015	22:09:44.562	$GPGGA,220945,2426.8765,N,08058.1228,W,1,8,1.8,20,M,,M,,*59
06/15/2015	22:09:45.592	$GPGGA,220946,2426.8764,N,08058.1230,W,1,8,1.8,20,M,,M,,*52
06/15/2015	22:09:46.562	$GPGGA,220947,2426.8766,N,08058.1233,W,1,8,1.8,20,M,,M,,*52
06/15/2015	22:09:47.575	$GPGGA,220948,2426.8768,N,08058.1236,W,1,8,1.8,20,M,,M,,*56
06/15/2015	22:09:48.553	$GPGGA,220949,2426.8770,N,08058.1239,W,1,8,1.8,20,M,,M,,*51
06/15/2015	22:09:49.573	$GPGGA,220950,2426.8770,N,08058.1241,W,1,9,1.8,20,M,,M,,*57
06/15/2015	22:09:50.563	$GPGGA,220951,2426.8773,N,08058.1244,W,1,9,1.8,20,M,,M,,*50
06/15/2015	22:09:51.583	$GPGGA,220952,2426.8774,N,08058.1246,W,1,9,1.8,20,M,,M,,*56
06/15/2015	22:09:52.554	$GPGGA,220953,2426.8774,N,08058.1248,W,1,9,1.8,20,M,,M,,*59
06/15/2015	22:09:53.563	$GPGGA,220954,2426.8776,N,08058.1250,W,1,9,1.8,20,M,,M,,*55
06/15/2015	22:09:54.543	$GPGGA,220955,2426.8777,N,08058.1254,W,1,9,1.8,20,M,,M,,*51
06/15/2015	22:09:55.573	$GPGGA,220956,2426.8779,N,08058.1257,W,1,8,1.8,20,M,,M,,*5E
06/15/2015	22:09:56.543	$GPGGA,220957,2426.8780,N,08058.1258,W,1,8,1.8,20,M,,M,,*56
06/15/2015	22:09:57.562	$GPGGA,220958,2426.8781,N,08058.1261,W,1,9,1.8,20,M,,M,,*53
06/15/2015	22:09:58.532	$GPGGA,220959,2426.8781,N,08058.1262,W,1,9,1.8,20,M,,M,,*51
06/15/2015	22:09:59.574	$GPGGA,221000,2426.8781,N,08058.1264,W,1,8,1.8,20,M,,M,,*52
06/15/2015	22:10:00.532	$GPGGA,221001,2426.8781,N,08058.1268,W,1,8,1.9,20,M,,M,,*5E
06/15/2015	22:10:01.562	$GPGGA,221002,2426.8781,N,08058.1269,W,1,7,1.9,20,M,,M,,*53
06/15/2015	22:10:02.522	$GPGGA,221003,2426.8783,N,08058.1272,W,1,7,1.9,20,M,,M,,*5A
06/15/2015	22:10:03.532	$GPGGA,221004,2426.8784,N,08058.1273,W,1,8,1.8,20,M,,M,,*55
06/15/2015	22:10:04.532	$GPGGA,221005,2426.8783,N,08058.1275,W,1,8,1.8,20,M,,M,,*55
06/15/2015	22:10:05.542	$GPGGA,221006,2426.8787,N,08058.1277,W,1,7,1.9,20,M,,M,,*5E
06/15/2015	22:10:06.533	$GPGGA,221007,2426.8788,N,08058.1280,W,1,7,1.8,20,M,,M,,*59
06/15/2015	22:10:07.563	$GPGGA,221008,2426.8791,N,08058.1283,W,1,8,1.8,20,M,,M,,*52
06/15/2015	22:10:08.523	$GPGGA,221009,2426.8792,N,08058.1284,W,1,8,1.8,19,M,,M,,*5D
06/15/2015	22:10:09.513	$GPGGA,221010,2426.8792,N,08058.1286,W,1,8,1.8,19,M,,M,,*57
06/15/2015	22:10:10.513	$GPGGA,221011,2426.8790,N,08058.1285,W,1,8,1.8,19,M,,M,,*57
06/15/2015	22:10:11.633	$GPGGA,221012,2426.8792,N,08058.1287,W,1,7,1.9,19,M,,M,,*5A
06/15/2015	22:10:12.523	$GPGGA,221013,2426.8794,N,08058.1288,W,1,7,1.8,19,M,,M,,*53
06/15/2015	22:10:13.543	$GPGGA,221014,2426.8792,N,08058.1288,W,1,8,1.8,19,M,,M,,*5D
06/15/2015	22:10:14.503	$GPGGA,221015,2426.8792,N,08058.1288,W,1,8,1.8,19,M,,M,,*5C
06/15/2015	22:10:15.533	$GPGGA,221016,2426.8792,N,08058.1288,W,1,8,1.8,19,M,,M,,*5F
06/15/2015	22:10:16.612	$GPGGA,221017,2426.8794,N,08058.1290,W,1,8,1.9,19,M,,M,,*50
06/15/2015	22:10:17.502	$GPGGA,221018,2426.8795,N,08058.1294,W,1,8,1.8,19,M,,M,,*5B
06/15/2015	22:10:18.485	$GPGGA,221019,2426.8793,N,08058.1292,W,1,8,2.2,19,M,,M,,*53
06/15/2015	22:10:19.522	$GPGGA,221020,2426.8794,N,08058.1293,W,1,8,1.8,19,M,,M,,*56
06/15/2015	22:10:20.482	$GPGGA,221021,2426.8793,N,08058.1292,W,1,8,1.9,19,M,,M,,*50
06/15/2015	22:10:21.487	$GPGGA,221022,2426.8792,N,08058.1291,W,1,8,1.8,19,M,,M,,*50
06/15/2015	22:10:22.602	$GPGGA,221023,2426.8790,N,08058.1290,W,1,8,1.8,19,M,,M,,*52
06/15/2015	22:10:23.522	$GPGGA,221024,2426.8792,N,08058.1291,W,1,8,1.8,19,M,,M,,*56
06/15/2015	22:10:24.486	$GPGGA,221025,2426.8792,N,08058.1291,W,1,8,1.8,19,M,,M,,*57
06/15/2015	22:10:25.753	$GPGGA,221026,2426.8792,N,08058.1291,W,1,8,1.8,19,M,,M,,*54
06/15/2015	22:10:26.473	$GPGGA,221027,2426.8790,N,08058.1291,W,1,8,1.9,19,M,,M,,*56
06/15/2015	22:10:27.488	$GPGGA,221028,2426.8792,N,08058.1293,W,1,9,1.8,19,M,,M,,*59
06/15/2015	22:10:28.563	$GPGGA,221029,2426.8792,N,08058.1293,W,1,9,1.8,19,M,,M,,*58
06/15/2015	22:10:29.563	$GPGGA,221030,2426.8792,N,08058.1293,W,1,8,1.8,19,M,,M,,*51
06/15/2015	22:10:30.577	$GPGGA,221031,2426.8792,N,08058.1293,W,1,8,1.9,19,M,,M,,*51
06/15/2015	22:10:31.613	$GPGGA,221032,2426.8795,N,08058.1295,W,1,8,1.8,19,M,,M,,*52
06/15/2015	22:10:32.562	$GPGGA,221033,2426.8794,N,08058.1295,W,1,8,1.8,19,M,,M,,*52
06/15/2015	22:10:33.552	$GPGGA,221034,2426.8793,N,08058.1297,W,1,8,1.8,19,M,,M,,*50
06/15/2015	22:10:34.562	$GPGGA,221035,2426.8795,N,08058.1297,W,1,8,1.9,19,M,,M,,*56
06/15/2015	22:10:35.602	$GPGGA,221036,2426.8797,N,08058.1298,W,1,9,1.8,19,M,,M,,*58
06/15/2015	22:10:36.552	$GPGGA,221037,2426.8798,N,08058.1300,W,1,9,1.8,19,M,,M,,*56
06/15/2015	22:10:37.574	$GPGGA,221038,2426.8797,N,08058.1301,W,1,9,1.8,19,M,,M,,*57
06/15/2015	22:10:38.552	$GPGGA,221039,2426.8796,N,08058.1301,W,1,9,1.9,19,M,,M,,*56
06/15/2015	22:10:39.592	$GPGGA,221040,2426.8798,N,08058.1301,W,1,7,1.9,19,M,,M,,*58
06/15/2015	22:10:40.542	$GPGGA,221041,2426.8799,N,08058.1302,W,1,7,1.8,19,M,,M,,*5A
06/15/2015	22:10:41.563	$GPGGA,221042,2426.8801,N,08058.1304,W,1,9,1.8,19,M,,M,,*5F
06/15/2015	22:10:42.533	$GPGGA,221043,2426.8800,N,08058.1304,W,1,9,1.8,19,M,,M,,*5F
06/15/2015	22:10:43.543	$GPGGA,221044,2426.8801,N,08058.1305,W,1,8,1.8,19,M,,M,,*59
06/15/2015	22:10:44.543	$GPGGA,221045,2426.8802,N,08058.1308,W,1,8,1.8,19,M,,M,,*56
06/15/2015	22:10:45.553	$GPGGA,221046,2426.8802,N,08058.1308,W,1,7,2.2,19,M,,M,,*53
06/15/2015	22:10:46.533	$GPGGA,221047,2426.8802,N,08058.1309,W,1,7,1.8,19,M,,M,,*5A
06/15/2015	22:10:47.576	$GPGGA,221048,2426.8805,N,08058.1309,W,1,9,1.8,19,M,,M,,*5C
06/15/2015	22:10:48.533	$GPGGA,221049,2426.8808,N,08058.1311,W,1,9,1.8,19,M,,M,,*59
06/15/2015	22:10:49.523	$GPGGA,221050,2426.8809,N,08058.1312,W,1,7,2.2,19,M,,M,,*54
06/15/2015	22:10:50.522	$GPGGA,221051,2426.8810,N,08058.1315,W,1,7,1.8,19,M,,M,,*53
06/15/2015	22:10:51.552	$GPGGA,221052,2426.8810,N,08058.1314,W,1,9,1.8,18,M,,M,,*5E
06/15/2015	22:10:52.522	$GPGGA,221053,2426.8810,N,08058.1315,W,1,9,1.8,18,M,,M,,*5E
06/15/2015	22:10:53.532	$GPGGA,221054,2426.8812,N,08058.1316,W,1,9,1.8,18,M,,M,,*58
06/15/2015	22:10:54.532	$GPGGA,221055,2426.8813,N,08058.1318,W,1,9,1.8,18,M,,M,,*56
06/15/2015	22:10:55.532	$GPGGA,221056,2426.8813,N,08058.1317,W,1,9,1.8,18,M,,M,,*5A
06/15/2015	22:10:56.502	$GPGGA,221057,2426.8812,N,08058.1316,W,1,9,1.8,18,M,,M,,*5B
06/15/2015	22:10:57.532	$GPGGA,221058,2426.8815,N,08058.1319,W,1,8,1.8,18,M,,M,,*5D
06/15/2015	22:10:58.502	$GPGGA,221059,2426.8816,N,08058.1320,W,1,8,1.8,18,M,,M,,*55
06/15/2015	22:10:59.523	$GPGGA,221100,2426.8814,N,08058.1320,W,1,9,1.8,18,M,,M,,*5B
06/15/2015	22:11:00.493	$GPGGA,221101,2426.8815,N,08058.1322,W,1,9,1.8,18,M,,M,,*59
06/15/2015	22:11:01.513	$GPGGA,221102,2426.8814,N,08058.1322,W,1,8,1.8,18,M,,M,,*5A
06/15/2015	22:11:02.513	$GPGGA,221103,2426.8816,N,08058.1324,W,1,8,1.8,18,M,,M,,*5F
06/15/2015	22:11:03.513	$GPGGA,221104,2426.8815,N,08058.1326,W,1,9,1.8,18,M,,M,,*58
06/15/2015	22:11:04.493	$GPGGA,221105,2426.8814,N,08058.1325,W,1,9,1.8,18,M,,M,,*5B
06/15/2015	22:11:05.613	$GPGGA,221106,2426.8815,N,08058.1327,W,1,9,1.8,18,M,,M,,*5B
06/15/2015	22:11:06.493	$GPGGA,221107,2426.8814,N,08058.1329,W,1,9,1.8,18,M,,M,,*55
06/15/2015	22:11:07.652	$GPGGA,221108,2426.8813,N,08058.1328,W,1,9,1.8,18,M,,M,,*5C
06/15/2015	22:11:08.492	$GPGGA,221109,2426.8812,N,08058.1329,W,1,9,1.8,18,M,,M,,*5D
06/15/2015	22:11:09.502	$GPGGA,221110,2426.8813,N,08058.1331,W,1,9,1.8,18,M,,M,,*5D
06/15/2015	22:11:10.492	$GPGGA,221111,2426.8813,N,08058.1333,W,1,9,1.8,18,M,,M,,*5E
06/15/2015	22:11:11.502	$GPGGA,221112,2426.8812,N,08058.1333,W,1,9,1.8,18,M,,M,,*5C
06/15/2015	22:11:12.492	$GPGGA,221113,2426.8811,N,08058.1333,W,1,9,1.8,18,M,,M,,*5E
06/15/2015	22:11:13.602	$GPGGA,221114,2426.8813,N,08058.1335,W,1,9,1.8,18,M,,M,,*5D
06/15/2015	22:11:14.584	$GPGGA,221115,2426.8811,N,08058.1337,W,1,9,1.8,19,M,,M,,*5D
06/15/2015	22:11:15.612	$GPGGA,221116,2426.8810,N,08058.1337,W,1,9,1.8,19,M,,M,,*5F
06/15/2015	22:11:16.576	$GPGGA,221117,2426.8810,N,08058.1338,W,1,9,1.8,19,M,,M,,*51
06/15/2015	22:11:17.603	$GPGGA,221118,2426.8810,N,08058.1340,W,1,9,1.8,19,M,,M,,*51
06/15/2015	22:11:18.563	$GPGGA,221119,2426.8808,N,08058.1341,W,1,9,1.8,19,M,,M,,*58
06/15/2015	22:11:19.593	$GPGGA,221120,2426.8806,N,08058.1342,W,1,9,1.8,19,M,,M,,*5F
06/15/2015	22:11:20.553	$GPGGA,221121,2426.8806,N,08058.1344,W,1,9,1.8,19,M,,M,,*58
06/15/2015	22:11:21.576	$GPGGA,221122,2426.8806,N,08058.1345,W,1,9,1.8,19,M,,M,,*5A
06/15/2015	22:11:22.563	$GPGGA,221123,2426.8804,N,08058.1347,W,1,9,1.8,19,M,,M,,*5B
06/15/2015	22:11:23.633	$GPGGA,221124,2426.8803,N,08058.1346,W,1,8,1.8,19,M,,M,,*5B
06/15/2015	22:11:24.553	$GPGGA,221125,2426.8803,N,08058.1348,W,1,8,1.8,19,M,,M,,*54
06/15/2015	22:11:25.577	$GPGGA,221126,2426.8802,N,08058.1348,W,1,8,1.8,19,M,,M,,*56
06/15/2015	22:11:26.552	$GPGGA,221127,2426.8801,N,08058.1349,W,1,8,1.8,19,M,,M,,*55
06/15/2015	22:11:27.572	$GPGGA,221128,2426.8800,N,08058.1351,W,1,8,1.8,19,M,,M,,*52
06/15/2015	22:11:28.552	$GPGGA,221129,2426.8799,N,08058.1350,W,1,8,1.8,19,M,,M,,*5D
06/15/2015	22:11:29.562	$GPGGA,221130,2426.8799,N,08058.1351,W,1,8,1.8,19,M,,M,,*54
06/15/2015	22:11:30.555	$GPGGA,221131,2426.8797,N,08058.1352,W,1,8,1.9,19,M,,M,,*59
06/15/2015	22:11:31.575	$GPGGA,221132,2426.8798,N,08058.1353,W,1,7,1.8,19,M,,M,,*5A
06/15/2015	22:11:32.532	$GPGGA,221133,2426.8796,N,08058.1353,W,1,7,1.9,19,M,,M,,*54
06/15/2015	22:11:33.552	$GPGGA,221134,2426.8797,N,08058.1355,W,1,7,1.8,19,M,,M,,*55
06/15/2015	22:11:34.533	$GPGGA,221135,2426.8796,N,08058.1356,W,1,7,1.8,20,M,,M,,*5C
06/15/2015	22:11:35.577	$GPGGA,221136,2426.8797,N,08058.1358,W,1,8,1.8,20,M,,M,,*5F
06/15/2015	22:11:36.523	$GPGGA,221137,2426.8796,N,08058.1359,W,1,8,1.9,20,M,,M,,*5F
06/15/2015	22:11:37.543	$GPGGA,221138,2426.8795,N,08058.1362,W,1,7,1.9,20,M,,M,,*54
06/15/2015	22:11:38.523	$GPGGA,221139,2426.8799,N,08058.1365,W,1,7,2.3,20,M,,M,,*57
06/15/2015	22:11:39.563	$GPGGA,221140,2426.8797,N,08058.1363,W,1,7,1.8,20,M,,M,,*59
06/15/2015	22:11:40.513	$GPGGA,221141,2426.8798,N,08058.1363,W,1,7,1.9,20,M,,M,,*56
06/15/2015	22:11:41.523	$GPGGA,221142,2426.8799,N,08058.1362,W,1,7,1.9,20,M,,M,,*55
06/15/2015	22:11:42.522	$GPGGA,221143,2426.8799,N,08058.1363,W,1,7,1.9,20,M,,M,,*55
06/15/2015	22:11:43.542	$GPGGA,221144,2426.8799,N,08058.1363,W,1,7,1.9,20,M,,M,,*52
06/15/2015	22:11:44.532	$GPGGA,221145,2426.8797,N,08058.1363,W,1,7,1.9,20,M,,M,,*5D
06/15/2015	22:11:45.552	$GPGGA,221146,2426.8798,N,08058.1367,W,1,7,2.6,20,M,,M,,*59
06/15/2015	22:11:46.503	$GPGGA,221147,2426.8797,N,08058.1367,W,1,7,1.9,21,M,,M,,*5A
