Software Version Number: 1	Data File Format Number: 1	Build Version Number: 1	Error Count Since VI Started: 3	Manufacturer: Raytheon	 Model Number: RayMarine 120	 S/N: 	 Cal Date: 	 Wind Direction Offset: 0.00	 Slope (M)1: 0.00	 Offset (B)1: 0.00	 Slope (M)2: 0.00	 Offset (B)2: 0.00	 Slope (M)3: 0.00	 Offset (B)3: 0.00	 Slope (M)4: 0.00	 Offset (B)4: 0.00	 Slope (M)5: 0.00	 Offset (B)5: 0.00	 Slope (M)6: 0.00	 Offset (B)6: 0.00
Computer Date	Computer Time	GGA String
06/22/2015	16:00:00.546	$GPGGA,160001,2419.9652,N,08202.4556,W,1,11,1.3,13,M,,M,,*6A
06/22/2015	16:00:01.546	$GPGGA,160002,2419.9659,N,08202.4556,W,1,11,1.3,13,M,,M,,*62
06/22/2015	16:00:02.536	$GPGGA,160003,2419.9665,N,08202.4557,W,1,11,1.3,13,M,,M,,*6D
06/22/2015	16:00:03.585	$GPGGA,160004,2419.9670,N,08202.4559,W,1,11,1.3,13,M,,M,,*60
06/22/2015	16:00:04.525	$GPGGA,160005,2419.9677,N,08202.4560,W,1,11,1.3,13,M,,M,,*6C
06/22/2015	16:00:05.551	$GPGGA,160006,2419.9684,N,08202.4561,W,1,11,1.3,13,M,,M,,*62
06/22/2015	16:00:06.525	$GPGGA,160007,2419.9691,N,08202.4563,W,1,11,1.3,13,M,,M,,*65
06/22/2015	16:00:07.548	$GPGGA,160008,2419.9695,N,08202.4564,W,1,11,1.3,13,M,,M,,*69
06/22/2015	16:00:08.525	$GPGGA,160009,2419.9702,N,08202.4566,W,1,11,1.3,13,M,,M,,*65
06/22/2015	16:00:09.525	$GPGGA,160010,2419.9709,N,08202.4566,W,1,11,1.3,13,M,,M,,*66
06/22/2015	16:00:10.525	$GPGGA,160011,2419.9716,N,08202.4567,W,1,11,1.3,13,M,,M,,*68
06/22/2015	16:00:11.535	$GPGGA,160012,2419.9722,N,08202.4570,W,1,11,1.3,12,M,,M,,*6B
06/22/2015	16:00:12.515	$GPGGA,160013,2419.9727,N,08202.4570,W,1,11,1.3,12,M,,M,,*6F
06/22/2015	16:00:13.525	$GPGGA,160014,2419.9734,N,08202.4572,W,1,11,1.3,12,M,,M,,*68
06/22/2015	16:00:14.505	$GPGGA,160015,2419.9740,N,08202.4574,W,1,11,1.3,12,M,,M,,*6C
06/22/2015	16:00:15.537	$GPGGA,160016,2419.9747,N,08202.4573,W,1,11,1.3,12,M,,M,,*6F
06/22/2015	16:00:16.675	$GPGGA,160017,2419.9753,N,08202.4575,W,1,11,1.3,12,M,,M,,*6D
06/22/2015	16:00:17.595	$GPGGA,160018,2419.9758,N,08202.4577,W,1,11,1.3,12,M,,M,,*6B
06/22/2015	16:00:18.504	$GPGGA,160019,2419.9764,N,08202.4577,W,1,11,1.3,12,M,,M,,*65
06/22/2015	16:00:19.674	$GPGGA,160020,2419.9771,N,08202.4578,W,1,11,1.3,12,M,,M,,*64
06/22/2015	16:00:20.675	$GPGGA,160021,2419.9777,N,08202.4579,W,1,11,1.3,12,M,,M,,*62
06/22/2015	16:00:21.505	$GPGGA,160022,2419.9782,N,08202.4581,W,1,11,1.3,12,M,,M,,*6C
06/22/2015	16:00:22.595	$GPGGA,160023,2419.9789,N,08202.4582,W,1,11,1.3,12,M,,M,,*65
06/22/2015	16:00:23.595	$GPGGA,160024,2419.9795,N,08202.4584,W,1,11,1.3,12,M,,M,,*69
06/22/2015	16:00:24.585	$GPGGA,160025,2419.9802,N,08202.4585,W,1,11,1.3,12,M,,M,,*68
06/22/2015	16:00:25.635	$GPGGA,160026,2419.9807,N,08202.4585,W,1,11,1.3,12,M,,M,,*6E
06/22/2015	16:00:26.665	$GPGGA,160027,2419.9814,N,08202.4586,W,1,11,1.3,12,M,,M,,*6E
06/22/2015	16:00:27.665	$GPGGA,160028,2419.9820,N,08202.4588,W,1,11,1.3,12,M,,M,,*68
06/22/2015	16:00:28.585	$GPGGA,160029,2419.9825,N,08202.4589,W,1,11,1.3,12,M,,M,,*6D
06/22/2015	16:00:29.625	$GPGGA,160030,2419.9832,N,08202.4589,W,1,11,1.3,12,M,,M,,*63
06/22/2015	16:00:30.651	$GPGGA,160031,2419.9838,N,08202.4592,W,1,11,1.3,12,M,,M,,*62
06/22/2015	16:00:31.675	$GPGGA,160032,2419.9845,N,08202.4591,W,1,11,1.4,12,M,,M,,*6F
06/22/2015	16:00:32.647	$GPGGA,160033,2419.9850,N,08202.4592,W,1,11,1.4,12,M,,M,,*69
06/22/2015	16:00:33.605	$GPGGA,160034,2419.9857,N,08202.4593,W,1,10,1.4,12,M,,M,,*69
06/22/2015	16:00:34.648	$GPGGA,160035,2419.9864,N,08202.4595,W,1,10,1.4,12,M,,M,,*6E
06/22/2015	16:00:35.575	$GPGGA,160036,2419.9868,N,08202.4597,W,1,11,1.3,12,M,,M,,*65
06/22/2015	16:00:36.564	$GPGGA,160037,2419.9875,N,08202.4599,W,1,11,1.3,12,M,,M,,*66
06/22/2015	16:00:37.604	$GPGGA,160038,2419.9881,N,08202.4599,W,1,11,1.3,12,M,,M,,*62
06/22/2015	16:00:38.615	$GPGGA,160039,2419.9886,N,08202.4602,W,1,11,1.3,12,M,,M,,*65
06/22/2015	16:00:39.615	$GPGGA,160040,2419.9893,N,08202.4603,W,1,11,1.3,12,M,,M,,*6E
06/22/2015	16:00:40.615	$GPGGA,160041,2419.9900,N,08202.4604,W,1,11,1.3,12,M,,M,,*63
06/22/2015	16:00:41.545	$GPGGA,160042,2419.9906,N,08202.4606,W,1,11,1.3,11,M,,M,,*67
06/22/2015	16:00:42.605	$GPGGA,160043,2419.9911,N,08202.4607,W,1,11,1.3,11,M,,M,,*61
06/22/2015	16:00:43.637	$GPGGA,160044,2419.9919,N,08202.4608,W,1,11,1.4,11,M,,M,,*66
06/22/2015	16:00:44.605	$GPGGA,160045,2419.9926,N,08202.4608,W,1,11,1.4,11,M,,M,,*6B
06/22/2015	16:00:45.565	$GPGGA,160046,2419.9932,N,08202.4610,W,1,11,1.3,11,M,,M,,*63
06/22/2015	16:00:46.606	$GPGGA,160047,2419.9939,N,08202.4611,W,1,11,1.3,11,M,,M,,*68
06/22/2015	16:00:47.637	$GPGGA,160048,2419.9944,N,08202.4613,W,1,11,1.3,11,M,,M,,*6F
06/22/2015	16:00:48.605	$GPGGA,160049,2419.9951,N,08202.4615,W,1,11,1.4,11,M,,M,,*6B
06/22/2015	16:00:49.555	$GPGGA,160050,2419.9958,N,08202.4617,W,1,10,1.3,11,M,,M,,*6E
06/22/2015	16:00:50.535	$GPGGA,160051,2419.9966,N,08202.4617,W,1,10,1.3,11,M,,M,,*62
06/22/2015	16:00:51.595	$GPGGA,160052,2419.9972,N,08202.4621,W,1,10,1.3,11,M,,M,,*61
06/22/2015	16:00:52.595	$GPGGA,160053,2419.9977,N,08202.4624,W,1,10,1.3,11,M,,M,,*60
06/22/2015	16:00:53.584	$GPGGA,160054,2419.9984,N,08202.4625,W,1,11,1.3,11,M,,M,,*6B
06/22/2015	16:00:54.524	$GPGGA,160055,2419.9991,N,08202.4626,W,1,11,1.3,11,M,,M,,*6D
06/22/2015	16:00:55.605	$GPGGA,160056,2419.9998,N,08202.4628,W,1,11,1.3,11,M,,M,,*69
06/22/2015	16:00:56.585	$GPGGA,160057,2420.0004,N,08202.4631,W,1,11,1.3,11,M,,M,,*6F
06/22/2015	16:00:57.515	$GPGGA,160058,2420.0011,N,08202.4633,W,1,11,1.3,11,M,,M,,*66
06/22/2015	16:00:58.575	$GPGGA,160059,2420.0016,N,08202.4635,W,1,11,1.4,11,M,,M,,*61
06/22/2015	16:00:59.605	$GPGGA,160100,2420.0023,N,08202.4636,W,1,10,1.3,11,M,,M,,*6F
06/22/2015	16:01:00.515	$GPGGA,160101,2420.0031,N,08202.4637,W,1,10,1.3,11,M,,M,,*6C
06/22/2015	16:01:01.545	$GPGGA,160102,2420.0037,N,08202.4639,W,1,11,1.3,11,M,,M,,*66
06/22/2015	16:01:03.080	$GPGGA,160103,2420.0044,N,08202.4642,W,1,11,1.3,11,M,,M,,*6F
06/22/2015	16:01:03.637	$GPGGA,160104,2420.0049,N,08202.4643,W,1,11,1.3,11,M,,M,,*64
06/22/2015	16:01:04.625	$GPGGA,160105,2420.0058,N,08202.4644,W,1,11,1.3,11,M,,M,,*62
06/22/2015	16:01:05.615	$GPGGA,160106,2420.0063,N,08202.4646,W,1,11,1.3,11,M,,M,,*6B
06/22/2015	16:01:06.565	$GPGGA,160107,2420.0070,N,08202.4650,W,1,11,1.3,11,M,,M,,*6F
06/22/2015	16:01:07.585	$GPGGA,160108,2420.0077,N,08202.4650,W,1,11,1.3,11,M,,M,,*67
06/22/2015	16:01:08.565	$GPGGA,160109,2420.0084,N,08202.4651,W,1,11,1.3,11,M,,M,,*6B
06/22/2015	16:01:09.605	$GPGGA,160110,2420.0089,N,08202.4654,W,1,11,1.3,11,M,,M,,*6B
06/22/2015	16:01:10.615	$GPGGA,160111,2420.0096,N,08202.4655,W,1,11,1.3,11,M,,M,,*65
06/22/2015	16:01:11.634	$GPGGA,160112,2420.0103,N,08202.4657,W,1,11,1.3,11,M,,M,,*69
06/22/2015	16:01:12.584	$GPGGA,160113,2420.0110,N,08202.4660,W,1,11,1.3,11,M,,M,,*6E
06/22/2015	16:01:13.595	$GPGGA,160114,2420.0116,N,08202.4660,W,1,11,1.3,11,M,,M,,*6F
06/22/2015	16:01:14.595	$GPGGA,160115,2420.0123,N,08202.4662,W,1,11,1.3,11,M,,M,,*6A
06/22/2015	16:01:15.605	$GPGGA,160116,2420.0128,N,08202.4664,W,1,11,1.3,11,M,,M,,*64
06/22/2015	16:01:16.595	$GPGGA,160117,2420.0135,N,08202.4667,W,1,11,1.3,11,M,,M,,*6A
06/22/2015	16:01:17.595	$GPGGA,160118,2420.0143,N,08202.4668,W,1,11,1.3,11,M,,M,,*6B
06/22/2015	16:01:18.586	$GPGGA,160119,2420.0149,N,08202.4669,W,1,11,1.3,11,M,,M,,*61
06/22/2015	16:01:19.637	$GPGGA,160120,2420.0154,N,08202.4671,W,1,11,1.3,11,M,,M,,*6E
06/22/2015	16:01:20.585	$GPGGA,160121,2420.0161,N,08202.4673,W,1,11,1.3,11,M,,M,,*6B
06/22/2015	16:01:21.615	$GPGGA,160122,2420.0168,N,08202.4675,W,1,11,1.3,11,M,,M,,*67
06/22/2015	16:01:22.575	$GPGGA,160123,2420.0175,N,08202.4676,W,1,11,1.3,11,M,,M,,*69
06/22/2015	16:01:23.655	$GPGGA,160124,2420.0182,N,08202.4678,W,1,11,1.3,11,M,,M,,*68
06/22/2015	16:01:24.585	$GPGGA,160125,2420.0189,N,08202.4680,W,1,11,1.3,11,M,,M,,*65
06/22/2015	16:01:25.575	$GPGGA,160126,2420.0196,N,08202.4682,W,1,11,1.3,11,M,,M,,*6A
06/22/2015	16:01:26.575	$GPGGA,160127,2420.0203,N,08202.4683,W,1,11,1.3,11,M,,M,,*65
06/22/2015	16:01:27.605	$GPGGA,160128,2420.0211,N,08202.4686,W,1,11,1.3,11,M,,M,,*6C
06/22/2015	16:01:28.574	$GPGGA,160129,2420.0217,N,08202.4689,W,1,11,1.3,11,M,,M,,*64
06/22/2015	16:01:29.554	$GPGGA,160130,2420.0222,N,08202.4690,W,1,11,1.3,11,M,,M,,*62
06/22/2015	16:01:30.565	$GPGGA,160131,2420.0230,N,08202.4691,W,1,11,1.3,11,M,,M,,*61
06/22/2015	16:01:31.625	$GPGGA,160132,2420.0237,N,08202.4693,W,1,11,1.3,11,M,,M,,*67
06/22/2015	16:01:32.575	$GPGGA,160133,2420.0244,N,08202.4697,W,1,11,1.3,11,M,,M,,*66
06/22/2015	16:01:33.565	$GPGGA,160134,2420.0251,N,08202.4698,W,1,11,1.3,11,M,,M,,*6A
06/22/2015	16:01:34.552	$GPGGA,160135,2420.0260,N,08202.4700,W,1,11,1.3,11,M,,M,,*69
06/22/2015	16:01:35.546	$GPGGA,160136,2420.0266,N,08202.4702,W,1,11,1.3,11,M,,M,,*6E
06/22/2015	16:01:36.565	$GPGGA,160137,2420.0273,N,08202.4704,W,1,11,1.3,11,M,,M,,*6D
06/22/2015	16:01:37.547	$GPGGA,160138,2420.0280,N,08202.4707,W,1,11,1.3,11,M,,M,,*6D
06/22/2015	16:01:38.555	$GPGGA,160139,2420.0289,N,08202.4708,W,1,11,1.3,11,M,,M,,*6A
06/22/2015	16:01:39.585	$GPGGA,160140,2420.0295,N,08202.4711,W,1,11,1.3,11,M,,M,,*61
06/22/2015	16:01:40.555	$GPGGA,160141,2420.0302,N,08202.4715,W,1,11,1.3,11,M,,M,,*6B
06/22/2015	16:01:41.537	$GPGGA,160142,2420.0311,N,08202.4716,W,1,10,1.3,11,M,,M,,*68
06/22/2015	16:01:42.575	$GPGGA,160143,2420.0311,N,08202.4716,W,1,10,1.3,11,M,,M,,*69
06/22/2015	16:01:43.575	$GPGGA,160144,2420.0327,N,08202.4720,W,1,11,1.3,11,M,,M,,*6F
06/22/2015	16:01:44.625	$GPGGA,160145,2420.0334,N,08202.4723,W,1,11,1.3,11,M,,M,,*6F
06/22/2015	16:01:45.545	$GPGGA,160146,2420.0342,N,08202.4725,W,1,11,1.3,11,M,,M,,*6B
06/22/2015	16:01:46.524	$GPGGA,160147,2420.0342,N,08202.4725,W,1,11,1.3,11,M,,M,,*6A
06/22/2015	16:01:47.540	$GPGGA,160148,2420.0358,N,08202.4732,W,1,11,1.3,11,M,,M,,*68
06/22/2015	16:01:48.615	$GPGGA,160149,2420.0366,N,08202.4733,W,1,11,1.3,11,M,,M,,*65
06/22/2015	16:01:49.525	$GPGGA,160150,2420.0374,N,08202.4736,W,1,11,1.3,11,M,,M,,*6B
06/22/2015	16:01:50.615	$GPGGA,160151,2420.0381,N,08202.4738,W,1,11,1.3,11,M,,M,,*6E
06/22/2015	16:01:51.565	$GPGGA,160152,2420.0388,N,08202.4740,W,1,11,1.3,11,M,,M,,*6B
06/22/2015	16:01:53.051	$GPGGA,160153,2420.0395,N,08202.4743,W,1,11,1.3,11,M,,M,,*65
06/22/2015	16:01:53.605	$GPGGA,160154,2420.0402,N,08202.4745,W,1,10,1.3,11,M,,M,,*6C
06/22/2015	16:01:55.005	$GPGGA,160155,2420.0402,N,08202.4745,W,1,10,1.3,11,M,,M,,*6D
06/22/2015	16:01:55.615	$GPGGA,160156,2420.0417,N,08202.4751,W,1,11,1.3,11,M,,M,,*6E
06/22/2015	16:01:56.525	$GPGGA,160157,2420.0417,N,08202.4751,W,1,11,1.3,11,M,,M,,*6F
06/22/2015	16:01:57.595	$GPGGA,160158,2420.0432,N,08202.4756,W,1,11,1.3,11,M,,M,,*60
06/22/2015	16:01:58.525	$GPGGA,160159,2420.0432,N,08202.4756,W,1,11,1.3,11,M,,M,,*61
06/22/2015	16:01:59.615	$GPGGA,160200,2420.0449,N,08202.4762,W,1,11,1.3,11,M,,M,,*65
06/22/2015	16:02:00.605	$GPGGA,160201,2420.0457,N,08202.4765,W,1,11,1.3,11,M,,M,,*6C
06/22/2015	16:02:01.595	$GPGGA,160202,2420.0464,N,08202.4766,W,1,11,1.3,11,M,,M,,*6C
06/22/2015	16:02:02.585	$GPGGA,160203,2420.0472,N,08202.4769,W,1,11,1.3,11,M,,M,,*65
06/22/2015	16:02:03.594	$GPGGA,160204,2420.0479,N,08202.4772,W,1,11,1.3,11,M,,M,,*63
06/22/2015	16:02:04.584	$GPGGA,160205,2420.0488,N,08202.4774,W,1,11,1.3,11,M,,M,,*6A
06/22/2015	16:02:05.615	$GPGGA,160206,2420.0496,N,08202.4776,W,1,11,1.3,11,M,,M,,*64
06/22/2015	16:02:06.595	$GPGGA,160207,2420.0503,N,08202.4779,W,1,11,1.3,11,M,,M,,*67
06/22/2015	16:02:07.605	$GPGGA,160208,2420.0511,N,08202.4781,W,1,11,1.3,11,M,,M,,*6C
06/22/2015	16:02:08.575	$GPGGA,160209,2420.0521,N,08202.4783,W,1,11,1.3,11,M,,M,,*6C
06/22/2015	16:02:09.595	$GPGGA,160210,2420.0529,N,08202.4785,W,1,11,1.3,11,M,,M,,*6A
06/22/2015	16:02:10.565	$GPGGA,160211,2420.0537,N,08202.4788,W,1,11,1.4,11,M,,M,,*6E
06/22/2015	16:02:11.605	$GPGGA,160212,2420.0544,N,08202.4790,W,1,11,1.3,11,M,,M,,*67
06/22/2015	16:02:12.575	$GPGGA,160213,2420.0553,N,08202.4794,W,1,11,1.3,11,M,,M,,*64
06/22/2015	16:02:13.576	$GPGGA,160214,2420.0560,N,08202.4796,W,1,11,1.3,11,M,,M,,*61
06/22/2015	16:02:14.605	$GPGGA,160215,2420.0568,N,08202.4798,W,1,11,1.3,11,M,,M,,*66
06/22/2015	16:02:16.595	$GPGGA,160217,2420.0583,N,08202.4803,W,1,11,1.4,11,M,,M,,*6B
06/22/2015	16:02:17.565	$GPGGA,160218,2420.0591,N,08202.4808,W,1,10,1.4,11,M,,M,,*6D
06/22/2015	16:02:18.565	$GPGGA,160219,2420.0601,N,08202.4809,W,1,10,1.3,11,M,,M,,*60
06/22/2015	16:02:19.585	$GPGGA,160220,2420.0608,N,08202.4812,W,1,11,1.3,11,M,,M,,*68
06/22/2015	16:02:20.585	$GPGGA,160221,2420.0615,N,08202.4814,W,1,11,1.3,11,M,,M,,*63
06/22/2015	16:02:21.854	$GPGGA,160222,2420.0623,N,08202.4817,W,1,11,1.3,11,M,,M,,*66
06/22/2015	16:02:22.544	$GPGGA,160223,2420.0630,N,08202.4820,W,1,11,1.3,11,M,,M,,*61
06/22/2015	16:02:23.595	$GPGGA,160224,2420.0638,N,08202.4823,W,1,11,1.3,11,M,,M,,*6D
06/22/2015	16:02:24.550	$GPGGA,160225,2420.0645,N,08202.4826,W,1,11,1.3,11,M,,M,,*63
06/22/2015	16:02:25.595	$GPGGA,160226,2420.0652,N,08202.4828,W,1,11,1.3,12,M,,M,,*6B
06/22/2015	16:02:26.535	$GPGGA,160227,2420.0662,N,08202.4830,W,1,11,1.3,12,M,,M,,*60
06/22/2015	16:02:27.545	$GPGGA,160228,2420.0667,N,08202.4834,W,1,10,1.4,12,M,,M,,*68
06/22/2015	16:02:28.525	$GPGGA,160229,2420.0676,N,08202.4837,W,1,10,1.3,12,M,,M,,*6D
06/22/2015	16:02:30.575	$GPGGA,160231,2420.0691,N,08202.4842,W,1,11,1.3,12,M,,M,,*6E
06/22/2015	16:02:31.575	$GPGGA,160232,2420.0699,N,08202.4844,W,1,11,1.3,12,M,,M,,*63
06/22/2015	16:02:32.646	$GPGGA,160233,2420.0708,N,08202.4845,W,1,11,1.3,12,M,,M,,*6A
06/22/2015	16:02:33.525	$GPGGA,160234,2420.0716,N,08202.4848,W,1,11,1.3,12,M,,M,,*6F
06/22/2015	16:02:34.536	$GPGGA,160235,2420.0723,N,08202.4852,W,1,11,1.3,12,M,,M,,*63
06/22/2015	16:02:35.555	$GPGGA,160236,2420.0732,N,08202.4853,W,1,11,1.3,12,M,,M,,*61
06/22/2015	16:02:36.535	$GPGGA,160237,2420.0739,N,08202.4855,W,1,11,1.3,12,M,,M,,*6D
06/22/2015	16:02:37.525	$GPGGA,160238,2420.0746,N,08202.4859,W,1,11,1.3,12,M,,M,,*66
06/22/2015	16:02:38.514	$GPGGA,160239,2420.0756,N,08202.4861,W,1,11,1.3,12,M,,M,,*6D
06/22/2015	16:02:39.550	$GPGGA,160240,2420.0763,N,08202.4864,W,1,11,1.3,12,M,,M,,*60
06/22/2015	16:02:40.605	$GPGGA,160241,2420.0771,N,08202.4866,W,1,11,1.3,12,M,,M,,*60
06/22/2015	16:02:41.605	$GPGGA,160242,2420.0779,N,08202.4868,W,1,11,1.3,12,M,,M,,*65
06/22/2015	16:02:42.516	$GPGGA,160243,2420.0786,N,08202.4870,W,1,11,1.3,12,M,,M,,*6D
06/22/2015	16:02:43.637	$GPGGA,160244,2420.0795,N,08202.4873,W,1,11,1.3,12,M,,M,,*6B
06/22/2015	16:02:44.515	$GPGGA,160245,2420.0803,N,08202.4875,W,1,11,1.3,12,M,,M,,*6C
06/22/2015	16:02:45.595	$GPGGA,160246,2420.0811,N,08202.4877,W,1,11,1.3,12,M,,M,,*6E
06/22/2015	16:02:46.605	$GPGGA,160247,2420.0818,N,08202.4881,W,1,11,1.3,12,M,,M,,*6F
06/22/2015	16:02:47.605	$GPGGA,160248,2420.0826,N,08202.4882,W,1,11,1.3,12,M,,M,,*6E
06/22/2015	16:02:48.595	$GPGGA,160249,2420.0833,N,08202.4884,W,1,11,1.3,12,M,,M,,*6D
06/22/2015	16:02:49.605	$GPGGA,160250,2420.0842,N,08202.4886,W,1,11,1.3,12,M,,M,,*61
06/22/2015	16:02:50.585	$GPGGA,160251,2420.0849,N,08202.4889,W,1,11,1.3,12,M,,M,,*64
06/22/2015	16:02:51.595	$GPGGA,160252,2420.0857,N,08202.4892,W,1,11,1.3,12,M,,M,,*62
06/22/2015	16:02:52.595	$GPGGA,160253,2420.0864,N,08202.4895,W,1,11,1.3,12,M,,M,,*64
06/22/2015	16:02:53.625	$GPGGA,160254,2420.0872,N,08202.4896,W,1,10,1.3,12,M,,M,,*66
06/22/2015	16:02:54.585	$GPGGA,160255,2420.0879,N,08202.4899,W,1,10,1.3,12,M,,M,,*63
06/22/2015	16:02:55.585	$GPGGA,160256,2420.0886,N,08202.4902,W,1,11,1.3,12,M,,M,,*62
06/22/2015	16:02:56.584	$GPGGA,160257,2420.0894,N,08202.4904,W,1,11,1.3,12,M,,M,,*66
06/22/2015	16:02:57.595	$GPGGA,160258,2420.0901,N,08202.4906,W,1,10,1.3,12,M,,M,,*67
06/22/2015	16:02:58.575	$GPGGA,160259,2420.0908,N,08202.4910,W,1,10,1.3,12,M,,M,,*68
06/22/2015	16:02:59.615	$GPGGA,160300,2420.0915,N,08202.4913,W,1,11,1.3,12,M,,M,,*6B
06/22/2015	16:03:00.569	$GPGGA,160301,2420.0923,N,08202.4914,W,1,11,1.3,12,M,,M,,*68
06/22/2015	16:03:01.585	$GPGGA,160302,2420.0930,N,08202.4917,W,1,10,1.3,12,M,,M,,*6B
06/22/2015	16:03:02.565	$GPGGA,160303,2420.0938,N,08202.4921,W,1,10,1.3,12,M,,M,,*67
06/22/2015	16:03:03.605	$GPGGA,160304,2420.0948,N,08202.4924,W,1,11,1.3,12,M,,M,,*63
06/22/2015	16:03:04.565	$GPGGA,160305,2420.0956,N,08202.4928,W,1,11,1.3,12,M,,M,,*61
06/22/2015	16:03:05.585	$GPGGA,160306,2420.0963,N,08202.4928,W,1,11,1.3,12,M,,M,,*64
06/22/2015	16:03:06.565	$GPGGA,160307,2420.0970,N,08202.4931,W,1,11,1.3,12,M,,M,,*6F
06/22/2015	16:03:07.565	$GPGGA,160308,2420.0979,N,08202.4935,W,1,11,1.3,12,M,,M,,*6D
06/22/2015	16:03:08.565	$GPGGA,160309,2420.0987,N,08202.4936,W,1,11,1.3,12,M,,M,,*6E
06/22/2015	16:03:09.585	$GPGGA,160310,2420.0995,N,08202.4939,W,1,11,1.3,12,M,,M,,*6A
06/22/2015	16:03:10.549	$GPGGA,160311,2420.1002,N,08202.4942,W,1,11,1.3,12,M,,M,,*61
06/22/2015	16:03:11.585	$GPGGA,160312,2420.1010,N,08202.4944,W,1,11,1.3,11,M,,M,,*64
06/22/2015	16:03:12.555	$GPGGA,160313,2420.1017,N,08202.4946,W,1,11,1.3,11,M,,M,,*60
06/22/2015	16:03:13.544	$GPGGA,160314,2420.1024,N,08202.4949,W,1,11,1.3,11,M,,M,,*68
06/22/2015	16:03:14.546	$GPGGA,160315,2420.1031,N,08202.4953,W,1,11,1.3,11,M,,M,,*66
06/22/2015	16:03:15.585	$GPGGA,160316,2420.1039,N,08202.4956,W,1,11,1.3,11,M,,M,,*68
06/22/2015	16:03:16.551	$GPGGA,160317,2420.1048,N,08202.4957,W,1,11,1.3,11,M,,M,,*6E
06/22/2015	16:03:17.585	$GPGGA,160318,2420.1055,N,08202.4960,W,1,11,1.3,11,M,,M,,*69
06/22/2015	16:03:18.525	$GPGGA,160319,2420.1061,N,08202.4964,W,1,11,1.3,11,M,,M,,*6B
06/22/2015	16:03:19.575	$GPGGA,160320,2420.1070,N,08202.4965,W,1,11,1.3,11,M,,M,,*60
06/22/2015	16:03:20.535	$GPGGA,160321,2420.1078,N,08202.4968,W,1,11,1.3,11,M,,M,,*64
06/22/2015	16:03:21.565	$GPGGA,160322,2420.1085,N,08202.4971,W,1,11,1.3,11,M,,M,,*6D
06/22/2015	16:03:22.536	$GPGGA,160323,2420.1092,N,08202.4973,W,1,11,1.3,11,M,,M,,*68
06/22/2015	16:03:23.575	$GPGGA,160324,2420.1099,N,08202.4976,W,1,11,1.3,11,M,,M,,*61
06/22/2015	16:03:24.637	$GPGGA,160325,2420.1107,N,08202.4978,W,1,11,1.3,11,M,,M,,*68
06/22/2015	16:03:25.536	$GPGGA,160326,2420.1114,N,08202.4980,W,1,11,1.3,11,M,,M,,*6E
06/22/2015	16:03:26.525	$GPGGA,160327,2420.1121,N,08202.4983,W,1,11,1.3,11,M,,M,,*6A
06/22/2015	16:03:27.536	$GPGGA,160328,2420.1128,N,08202.4986,W,1,10,1.3,11,M,,M,,*68
06/22/2015	16:03:28.515	$GPGGA,160329,2420.1136,N,08202.4989,W,1,10,1.3,11,M,,M,,*69
06/22/2015	16:03:29.537	$GPGGA,160330,2420.1143,N,08202.4990,W,1,11,1.3,11,M,,M,,*6A
06/22/2015	16:03:30.525	$GPGGA,160331,2420.1151,N,08202.4993,W,1,11,1.3,11,M,,M,,*6B
06/22/2015	16:03:31.624	$GPGGA,160332,2420.1158,N,08202.4996,W,1,11,1.3,11,M,,M,,*64
06/22/2015	16:03:32.515	$GPGGA,160333,2420.1165,N,08202.5000,W,1,11,1.3,11,M,,M,,*6C
06/22/2015	16:03:33.615	$GPGGA,160334,2420.1172,N,08202.5001,W,1,11,1.3,11,M,,M,,*6C
06/22/2015	16:03:34.515	$GPGGA,160335,2420.1180,N,08202.5004,W,1,11,1.3,11,M,,M,,*65
06/22/2015	16:03:35.605	$GPGGA,160336,2420.1187,N,08202.5007,W,1,11,1.3,11,M,,M,,*62
06/22/2015	16:03:36.595	$GPGGA,160337,2420.1196,N,08202.5008,W,1,11,1.3,11,M,,M,,*6C
06/22/2015	16:03:37.605	$GPGGA,160338,2420.1204,N,08202.5011,W,1,11,1.3,11,M,,M,,*63
06/22/2015	16:03:38.595	$GPGGA,160339,2420.1212,N,08202.5014,W,1,11,1.3,11,M,,M,,*60
06/22/2015	16:03:40.075	$GPGGA,160340,2420.1219,N,08202.5018,W,1,11,1.3,11,M,,M,,*69
06/22/2015	16:03:40.585	$GPGGA,160341,2420.1227,N,08202.5019,W,1,11,1.3,11,M,,M,,*64
06/22/2015	16:03:41.615	$GPGGA,160342,2420.1236,N,08202.5022,W,1,11,1.3,11,M,,M,,*6F
06/22/2015	16:03:42.595	$GPGGA,160343,2420.1245,N,08202.5022,W,1,11,1.4,11,M,,M,,*6D
06/22/2015	16:03:43.595	$GPGGA,160344,2420.1254,N,08202.5025,W,1,11,1.3,11,M,,M,,*6A
06/22/2015	16:03:44.585	$GPGGA,160345,2420.1263,N,08202.5029,W,1,11,1.4,11,M,,M,,*64
06/22/2015	16:03:45.585	$GPGGA,160346,2420.1270,N,08202.5032,W,1,11,1.3,11,M,,M,,*68
06/22/2015	16:03:46.585	$GPGGA,160347,2420.1280,N,08202.5033,W,1,11,1.3,11,M,,M,,*67
06/22/2015	16:03:47.615	$GPGGA,160348,2420.1288,N,08202.5037,W,1,10,1.3,11,M,,M,,*65
06/22/2015	16:03:48.564	$GPGGA,160349,2420.1298,N,08202.5040,W,1,10,1.3,11,M,,M,,*65
06/22/2015	16:03:49.594	$GPGGA,160350,2420.1306,N,08202.5041,W,1,11,1.3,11,M,,M,,*6B
06/22/2015	16:03:50.575	$GPGGA,160351,2420.1316,N,08202.5043,W,1,11,1.3,11,M,,M,,*69
06/22/2015	16:03:51.605	$GPGGA,160352,2420.1324,N,08202.5044,W,1,11,1.3,11,M,,M,,*6C
06/22/2015	16:03:52.575	$GPGGA,160353,2420.1333,N,08202.5047,W,1,11,1.3,11,M,,M,,*68
06/22/2015	16:03:53.555	$GPGGA,160354,2420.1341,N,08202.5051,W,1,11,1.3,11,M,,M,,*6D
06/22/2015	16:03:54.565	$GPGGA,160355,2420.1349,N,08202.5051,W,1,11,1.3,11,M,,M,,*64
06/22/2015	16:03:55.585	$GPGGA,160356,2420.1357,N,08202.5052,W,1,10,1.4,11,M,,M,,*6D
06/22/2015	16:03:56.555	$GPGGA,160357,2420.1367,N,08202.5052,W,1,10,1.4,11,M,,M,,*6F
06/22/2015	16:03:57.585	$GPGGA,160358,2420.1375,N,08202.5054,W,1,11,1.3,11,M,,M,,*63
06/22/2015	16:03:58.545	$GPGGA,160359,2420.1384,N,08202.5054,W,1,11,1.3,11,M,,M,,*6C
06/22/2015	16:03:59.605	$GPGGA,160400,2420.1392,N,08202.5054,W,1,11,1.3,11,M,,M,,*60
06/22/2015	16:04:00.545	$GPGGA,160401,2420.1400,N,08202.5054,W,1,11,1.6,11,M,,M,,*68
06/22/2015	16:04:01.545	$GPGGA,160402,2420.1407,N,08202.5055,W,1,11,1.3,12,M,,M,,*6B
06/22/2015	16:04:02.546	$GPGGA,160403,2420.1414,N,08202.5056,W,1,11,1.6,12,M,,M,,*6E
06/22/2015	16:04:03.585	$GPGGA,160404,2420.1425,N,08202.5058,W,1,10,1.6,12,M,,M,,*64
06/22/2015	16:04:04.545	$GPGGA,160405,2420.1432,N,08202.5059,W,1,10,1.3,12,M,,M,,*67
06/22/2015	16:04:05.537	$GPGGA,160406,2420.1439,N,08202.5059,W,1,10,1.3,12,M,,M,,*6F
06/22/2015	16:04:06.544	$GPGGA,160407,2420.1446,N,08202.5059,W,1,10,1.3,12,M,,M,,*66
06/22/2015	16:04:07.545	$GPGGA,160408,2420.1454,N,08202.5059,W,1,11,1.3,13,M,,M,,*6A
06/22/2015	16:04:08.545	$GPGGA,160409,2420.1461,N,08202.5061,W,1,11,1.3,13,M,,M,,*66
06/22/2015	16:04:09.525	$GPGGA,160410,2420.1469,N,08202.5061,W,1,11,1.3,13,M,,M,,*66
06/22/2015	16:04:10.547	$GPGGA,160411,2420.1476,N,08202.5062,W,1,11,1.3,13,M,,M,,*6A
06/22/2015	16:04:11.648	$GPGGA,160412,2420.1483,N,08202.5063,W,1,11,1.3,13,M,,M,,*62
06/22/2015	16:04:12.535	$GPGGA,160413,2420.1492,N,08202.5063,W,1,11,1.3,13,M,,M,,*63
06/22/2015	16:04:13.535	$GPGGA,160414,2420.1500,N,08202.5065,W,1,11,1.3,14,M,,M,,*6F
06/22/2015	16:04:14.615	$GPGGA,160415,2420.1508,N,08202.5066,W,1,11,1.3,14,M,,M,,*65
06/22/2015	16:04:15.565	$GPGGA,160416,2420.1515,N,08202.5069,W,1,11,1.3,14,M,,M,,*65
06/22/2015	16:04:16.526	$GPGGA,160417,2420.1522,N,08202.5069,W,1,11,1.3,14,M,,M,,*60
06/22/2015	16:04:17.615	$GPGGA,160418,2420.1529,N,08202.5069,W,1,11,1.3,14,M,,M,,*64
06/22/2015	16:04:18.516	$GPGGA,160419,2420.1537,N,08202.5070,W,1,11,1.3,14,M,,M,,*62
06/22/2015	16:04:19.625	$GPGGA,160420,2420.1544,N,08202.5072,W,1,11,1.3,15,M,,M,,*6F
06/22/2015	16:04:20.515	$GPGGA,160421,2420.1554,N,08202.5076,W,1,11,1.3,15,M,,M,,*6B
06/22/2015	16:04:21.505	$GPGGA,160422,2420.1563,N,08202.5079,W,1,10,1.6,15,M,,M,,*67
06/22/2015	16:04:22.515	$GPGGA,160423,2420.1572,N,08202.5080,W,1,10,1.3,15,M,,M,,*65
06/22/2015	16:04:23.604	$GPGGA,160424,2420.1580,N,08202.5083,W,1,11,1.3,15,M,,M,,*6D
06/22/2015	16:04:24.604	$GPGGA,160425,2420.1588,N,08202.5087,W,1,11,1.3,15,M,,M,,*60
06/22/2015	16:04:25.625	$GPGGA,160426,2420.1597,N,08202.5088,W,1,11,1.3,15,M,,M,,*62
06/22/2015	16:04:26.585	$GPGGA,160427,2420.1605,N,08202.5090,W,1,11,1.3,15,M,,M,,*62
06/22/2015	16:04:27.605	$GPGGA,160428,2420.1613,N,08202.5090,W,1,11,1.3,15,M,,M,,*6A
06/22/2015	16:04:28.585	$GPGGA,160429,2420.1620,N,08202.5091,W,1,11,1.3,15,M,,M,,*6A
06/22/2015	16:04:29.605	$GPGGA,160430,2420.1628,N,08202.5094,W,1,11,1.3,15,M,,M,,*6F
06/22/2015	16:04:30.585	$GPGGA,160431,2420.1637,N,08202.5095,W,1,11,1.3,15,M,,M,,*61
06/22/2015	16:04:31.615	$GPGGA,160432,2420.1645,N,08202.5097,W,1,11,1.3,16,M,,M,,*66
06/22/2015	16:04:32.585	$GPGGA,160433,2420.1653,N,08202.5098,W,1,11,1.3,16,M,,M,,*6F
06/22/2015	16:04:33.575	$GPGGA,160434,2420.1662,N,08202.5101,W,1,11,1.3,16,M,,M,,*6B
06/22/2015	16:04:34.575	$GPGGA,160435,2420.1670,N,08202.5102,W,1,11,1.3,16,M,,M,,*6A
06/22/2015	16:04:35.605	$GPGGA,160436,2420.1680,N,08202.5105,W,1,11,1.3,16,M,,M,,*61
06/22/2015	16:04:36.575	$GPGGA,160437,2420.1689,N,08202.5106,W,1,11,1.6,16,M,,M,,*6F
06/22/2015	16:04:37.585	$GPGGA,160438,2420.1696,N,08202.5108,W,1,11,1.3,16,M,,M,,*65
06/22/2015	16:04:38.575	$GPGGA,160439,2420.1706,N,08202.5110,W,1,11,1.3,16,M,,M,,*65
06/22/2015	16:04:39.575	$GPGGA,160440,2420.1716,N,08202.5112,W,1,11,1.3,16,M,,M,,*68
06/22/2015	16:04:40.574	$GPGGA,160441,2420.1725,N,08202.5112,W,1,11,1.3,16,M,,M,,*69
06/22/2015	16:04:41.584	$GPGGA,160442,2420.1735,N,08202.5116,W,1,10,1.4,16,M,,M,,*69
06/22/2015	16:04:42.575	$GPGGA,160443,2420.1743,N,08202.5119,W,1,10,1.5,16,M,,M,,*67
06/22/2015	16:04:43.595	$GPGGA,160444,2420.1754,N,08202.5120,W,1,11,1.3,16,M,,M,,*6B
06/22/2015	16:04:44.565	$GPGGA,160445,2420.1764,N,08202.5124,W,1,11,1.3,16,M,,M,,*6D
06/22/2015	16:04:45.565	$GPGGA,160446,2420.1772,N,08202.5128,W,1,11,1.3,16,M,,M,,*65
06/22/2015	16:04:46.555	$GPGGA,160447,2420.1783,N,08202.5130,W,1,11,1.3,16,M,,M,,*63
06/22/2015	16:04:47.565	$GPGGA,160448,2420.1793,N,08202.5134,W,1,11,1.3,16,M,,M,,*69
06/22/2015	16:04:48.555	$GPGGA,160449,2420.1801,N,08202.5137,W,1,11,1.3,16,M,,M,,*6F
06/22/2015	16:04:49.545	$GPGGA,160450,2420.1812,N,08202.5141,W,1,11,1.3,16,M,,M,,*64
06/22/2015	16:04:50.555	$GPGGA,160451,2420.1822,N,08202.5145,W,1,11,1.3,16,M,,M,,*62
06/22/2015	16:04:51.585	$GPGGA,160452,2420.1833,N,08202.5148,W,1,11,1.3,16,M,,M,,*6C
06/22/2015	16:04:52.537	$GPGGA,160453,2420.1843,N,08202.5153,W,1,11,1.3,17,M,,M,,*61
06/22/2015	16:04:53.548	$GPGGA,160454,2420.1855,N,08202.5156,W,1,11,1.3,17,M,,M,,*64
06/22/2015	16:04:54.539	$GPGGA,160455,2420.1866,N,08202.5159,W,1,11,1.3,17,M,,M,,*6A
06/22/2015	16:04:55.551	$GPGGA,160456,2420.1877,N,08202.5163,W,1,11,1.3,17,M,,M,,*60
06/22/2015	16:04:56.652	$GPGGA,160457,2420.1888,N,08202.5167,W,1,11,1.3,17,M,,M,,*65
06/22/2015	16:04:57.653	$GPGGA,160458,2420.1898,N,08202.5171,W,1,11,1.3,17,M,,M,,*6C
06/22/2015	16:04:58.538	$GPGGA,160459,2420.1909,N,08202.5175,W,1,11,1.3,17,M,,M,,*60
06/22/2015	16:04:59.564	$GPGGA,160500,2420.1920,N,08202.5178,W,1,11,1.3,17,M,,M,,*6B
06/22/2015	16:05:00.536	$GPGGA,160501,2420.1931,N,08202.5182,W,1,11,1.3,17,M,,M,,*6F
06/22/2015	16:05:01.652	$GPGGA,160502,2420.1942,N,08202.5188,W,1,11,1.3,17,M,,M,,*62
06/22/2015	16:05:02.555	$GPGGA,160503,2420.1953,N,08202.5191,W,1,11,1.3,17,M,,M,,*6B
06/22/2015	16:05:03.685	$GPGGA,160504,2420.1964,N,08202.5193,W,1,11,1.3,17,M,,M,,*6A
06/22/2015	16:05:05.565	$GPGGA,160506,2420.1985,N,08202.5202,W,1,11,1.3,17,M,,M,,*6C
06/22/2015	16:05:06.535	$GPGGA,160507,2420.1996,N,08202.5206,W,1,11,1.3,17,M,,M,,*6B
06/22/2015	16:05:07.685	$GPGGA,160508,2420.2007,N,08202.5210,W,1,11,1.3,17,M,,M,,*61
06/22/2015	16:05:08.525	$GPGGA,160509,2420.2018,N,08202.5213,W,1,11,1.3,17,M,,M,,*6D
06/22/2015	16:05:09.639	$GPGGA,160510,2420.2029,N,08202.5217,W,1,11,1.3,17,M,,M,,*63
06/22/2015	16:05:10.515	$GPGGA,160511,2420.2039,N,08202.5220,W,1,11,1.3,17,M,,M,,*67
06/22/2015	16:05:11.651	$GPGGA,160512,2420.2050,N,08202.5224,W,1,11,1.3,17,M,,M,,*6F
06/22/2015	16:05:13.605	$GPGGA,160513,2420.2061,N,08202.5228,W,1,11,1.3,17,M,,M,,*60
06/22/2015	16:05:13.639	$GPGGA,160514,2420.2074,N,08202.5231,W,1,11,1.4,17,M,,M,,*6C
06/22/2015	16:05:14.605	$GPGGA,160515,2420.2085,N,08202.5235,W,1,11,1.3,17,M,,M,,*60
06/22/2015	16:05:17.105	$GPGGA,160517,2420.2107,N,08202.5243,W,1,11,1.4,17,M,,M,,*6F
06/22/2015	16:05:17.615	$GPGGA,160518,2420.2118,N,08202.5246,W,1,10,1.4,17,M,,M,,*6A
06/22/2015	16:05:18.595	$GPGGA,160519,2420.2130,N,08202.5249,W,1,10,1.3,17,M,,M,,*69
06/22/2015	16:05:19.625	$GPGGA,160520,2420.2141,N,08202.5254,W,1,11,1.3,17,M,,M,,*68
06/22/2015	16:05:20.595	$GPGGA,160521,2420.2151,N,08202.5258,W,1,11,1.3,17,M,,M,,*64
06/22/2015	16:05:21.575	$GPGGA,160522,2420.2164,N,08202.5261,W,1,11,1.3,17,M,,M,,*6B
06/22/2015	16:05:22.585	$GPGGA,160523,2420.2175,N,08202.5264,W,1,11,1.3,17,M,,M,,*6F
06/22/2015	16:05:23.639	$GPGGA,160524,2420.2186,N,08202.5268,W,1,11,1.4,17,M,,M,,*6F
06/22/2015	16:05:24.585	$GPGGA,160525,2420.2198,N,08202.5272,W,1,11,1.3,16,M,,M,,*6C
06/22/2015	16:05:25.595	$GPGGA,160526,2420.2209,N,08202.5275,W,1,11,1.3,16,M,,M,,*63
06/22/2015	16:05:26.565	$GPGGA,160527,2420.2222,N,08202.5278,W,1,11,1.4,16,M,,M,,*61
06/22/2015	16:05:27.615	$GPGGA,160528,2420.2234,N,08202.5282,W,1,10,1.3,16,M,,M,,*6A
06/22/2015	16:05:28.565	$GPGGA,160529,2420.2245,N,08202.5286,W,1,10,1.3,16,M,,M,,*69
06/22/2015	16:05:29.585	$GPGGA,160530,2420.2256,N,08202.5289,W,1,11,1.3,16,M,,M,,*6D
06/22/2015	16:05:30.565	$GPGGA,160531,2420.2267,N,08202.5293,W,1,11,1.6,16,M,,M,,*60
06/22/2015	16:05:31.605	$GPGGA,160532,2420.2280,N,08202.5296,W,1,10,1.3,16,M,,M,,*6B
06/22/2015	16:05:32.565	$GPGGA,160533,2420.2291,N,08202.5300,W,1,10,1.8,16,M,,M,,*6F
06/22/2015	16:05:33.574	$GPGGA,160534,2420.2303,N,08202.5304,W,1,9,1.6,16,M,,M,,*50
06/22/2015	16:05:34.564	$GPGGA,160535,2420.2316,N,08202.5311,W,1,9,1.3,16,M,,M,,*54
06/22/2015	16:05:35.595	$GPGGA,160536,2420.2325,N,08202.5312,W,1,11,1.3,16,M,,M,,*6D
06/22/2015	16:05:36.565	$GPGGA,160537,2420.2336,N,08202.5314,W,1,11,1.3,16,M,,M,,*68
06/22/2015	16:05:37.585	$GPGGA,160538,2420.2346,N,08202.5318,W,1,11,1.3,16,M,,M,,*6C
06/22/2015	16:05:38.555	$GPGGA,160539,2420.2357,N,08202.5321,W,1,11,1.3,16,M,,M,,*67
06/22/2015	16:05:39.565	$GPGGA,160540,2420.2368,N,08202.5325,W,1,10,1.3,16,M,,M,,*60
06/22/2015	16:05:40.550	$GPGGA,160541,2420.2379,N,08202.5326,W,1,10,1.3,16,M,,M,,*62
06/22/2015	16:05:41.555	$GPGGA,160542,2420.2390,N,08202.5329,W,1,10,1.3,16,M,,M,,*69
06/22/2015	16:05:42.555	$GPGGA,160543,2420.2400,N,08202.5332,W,1,10,1.3,16,M,,M,,*6C
06/22/2015	16:05:43.555	$GPGGA,160544,2420.2411,N,08202.5334,W,1,11,1.3,16,M,,M,,*6C
06/22/2015	16:05:44.546	$GPGGA,160545,2420.2422,N,08202.5337,W,1,11,1.3,16,M,,M,,*6E
06/22/2015	16:05:45.565	$GPGGA,160546,2420.2435,N,08202.5340,W,1,10,1.3,16,M,,M,,*6A
06/22/2015	16:05:46.546	$GPGGA,160547,2420.2446,N,08202.5343,W,1,10,1.3,16,M,,M,,*6C
06/22/2015	16:05:47.595	$GPGGA,160548,2420.2458,N,08202.5344,W,1,10,1.3,16,M,,M,,*6B
06/22/2015	16:05:49.005	$GPGGA,160549,2420.2469,N,08202.5348,W,1,10,1.6,16,M,,M,,*61
06/22/2015	16:05:49.545	$GPGGA,160550,2420.2480,N,08202.5351,W,1,9,1.3,16,M,,M,,*5B
06/22/2015	16:05:50.524	$GPGGA,160551,2420.2491,N,08202.5355,W,1,9,1.3,16,M,,M,,*5E
06/22/2015	16:05:51.645	$GPGGA,160552,2420.2504,N,08202.5358,W,1,10,1.3,16,M,,M,,*65
06/22/2015	16:05:52.536	$GPGGA,160553,2420.2516,N,08202.5361,W,1,10,1.3,16,M,,M,,*6D
06/22/2015	16:05:53.525	$GPGGA,160554,2420.2527,N,08202.5365,W,1,11,1.3,16,M,,M,,*6D
06/22/2015	16:05:54.615	$GPGGA,160555,2420.2538,N,08202.5368,W,1,11,1.3,16,M,,M,,*6F
06/22/2015	16:05:55.535	$GPGGA,160556,2420.2552,N,08202.5368,W,1,11,1.3,16,M,,M,,*60
06/22/2015	16:05:56.625	$GPGGA,160557,2420.2563,N,08202.5372,W,1,11,1.3,16,M,,M,,*68
06/22/2015	16:05:57.637	$GPGGA,160558,2420.2576,N,08202.5376,W,1,11,1.3,16,M,,M,,*67
06/22/2015	16:05:58.606	$GPGGA,160559,2420.2589,N,08202.5377,W,1,11,1.3,16,M,,M,,*67
06/22/2015	16:05:59.647	$GPGGA,160600,2420.2600,N,08202.5379,W,1,11,1.3,16,M,,M,,*64
06/22/2015	16:06:00.605	$GPGGA,160601,2420.2613,N,08202.5383,W,1,11,1.3,16,M,,M,,*62
06/22/2015	16:06:01.595	$GPGGA,160602,2420.2625,N,08202.5387,W,1,11,1.3,16,M,,M,,*60
06/22/2015	16:06:02.595	$GPGGA,160603,2420.2638,N,08202.5388,W,1,11,1.3,16,M,,M,,*62
06/22/2015	16:06:03.646	$GPGGA,160604,2420.2650,N,08202.5390,W,1,11,1.3,16,M,,M,,*62
06/22/2015	16:06:04.595	$GPGGA,160605,2420.2661,N,08202.5392,W,1,11,1.3,16,M,,M,,*63
06/22/2015	16:06:05.605	$GPGGA,160606,2420.2674,N,08202.5395,W,1,11,1.3,16,M,,M,,*63
06/22/2015	16:06:06.595	$GPGGA,160607,2420.2686,N,08202.5397,W,1,11,1.3,16,M,,M,,*6D
06/22/2015	16:06:07.605	$GPGGA,160608,2420.2697,N,08202.5399,W,1,11,1.3,16,M,,M,,*6C
06/22/2015	16:06:08.584	$GPGGA,160609,2420.2711,N,08202.5401,W,1,11,1.3,16,M,,M,,*64
06/22/2015	16:06:09.604	$GPGGA,160610,2420.2722,N,08202.5405,W,1,11,1.3,16,M,,M,,*68
06/22/2015	16:06:10.563	$GPGGA,160611,2420.2733,N,08202.5408,W,1,11,1.3,16,M,,M,,*64
06/22/2015	16:06:11.603	$GPGGA,160612,2420.2747,N,08202.5409,W,1,10,1.3,16,M,,M,,*64
06/22/2015	16:06:12.573	$GPGGA,160613,2420.2760,N,08202.5412,W,1,10,1.3,16,M,,M,,*6A
06/22/2015	16:06:13.563	$GPGGA,160614,2420.2772,N,08202.5413,W,1,11,1.3,16,M,,M,,*6E
06/22/2015	16:06:14.563	$GPGGA,160615,2420.2783,N,08202.5415,W,1,11,1.3,16,M,,M,,*67
06/22/2015	16:06:15.583	$GPGGA,160616,2420.2794,N,08202.5419,W,1,10,1.3,16,M,,M,,*6F
06/22/2015	16:06:16.563	$GPGGA,160617,2420.2807,N,08202.5421,W,1,10,1.3,16,M,,M,,*60
06/22/2015	16:06:17.573	$GPGGA,160618,2420.2820,N,08202.5424,W,1,11,1.3,16,M,,M,,*6E
06/22/2015	16:06:18.553	$GPGGA,160619,2420.2831,N,08202.5426,W,1,11,1.3,16,M,,M,,*6D
06/22/2015	16:06:19.593	$GPGGA,160620,2420.2845,N,08202.5430,W,1,9,1.5,16,M,,M,,*5C
06/22/2015	16:06:20.553	$GPGGA,160621,2420.2856,N,08202.5433,W,1,9,1.3,16,M,,M,,*5A
06/22/2015	16:06:21.573	$GPGGA,160622,2420.2870,N,08202.5434,W,1,11,1.3,16,M,,M,,*63
06/22/2015	16:06:22.553	$GPGGA,160623,2420.2881,N,08202.5437,W,1,11,1.3,16,M,,M,,*6F
06/22/2015	16:06:23.553	$GPGGA,160624,2420.2895,N,08202.5441,W,1,11,1.3,15,M,,M,,*6F
06/22/2015	16:06:24.543	$GPGGA,160625,2420.2906,N,08202.5441,W,1,11,1.3,15,M,,M,,*65
06/22/2015	16:06:25.552	$GPGGA,160626,2420.2919,N,08202.5442,W,1,11,1.3,15,M,,M,,*6B
06/22/2015	16:06:26.542	$GPGGA,160627,2420.2928,N,08202.5446,W,1,11,1.3,15,M,,M,,*6C
06/22/2015	16:06:27.542	$GPGGA,160628,2420.2939,N,08202.5448,W,1,11,1.3,15,M,,M,,*6D
06/22/2015	16:06:28.543	$GPGGA,160629,2420.2952,N,08202.5448,W,1,11,1.3,15,M,,M,,*61
06/22/2015	16:06:29.543	$GPGGA,160630,2420.2964,N,08202.5452,W,1,10,1.3,15,M,,M,,*66
06/22/2015	16:06:30.526	$GPGGA,160631,2420.2975,N,08202.5453,W,1,10,1.3,15,M,,M,,*66
06/22/2015	16:06:31.553	$GPGGA,160632,2420.2986,N,08202.5455,W,1,11,1.3,15,M,,M,,*6E
06/22/2015	16:06:32.534	$GPGGA,160633,2420.2997,N,08202.5456,W,1,11,1.3,15,M,,M,,*6C
06/22/2015	16:06:33.553	$GPGGA,160634,2420.3010,N,08202.5460,W,1,10,1.3,15,M,,M,,*68
06/22/2015	16:06:34.525	$GPGGA,160635,2420.3021,N,08202.5463,W,1,10,1.3,16,M,,M,,*6B
06/22/2015	16:06:35.543	$GPGGA,160636,2420.3032,N,08202.5466,W,1,10,1.3,16,M,,M,,*6F
06/22/2015	16:06:36.636	$GPGGA,160637,2420.3043,N,08202.5470,W,1,10,1.3,16,M,,M,,*6F
06/22/2015	16:06:37.513	$GPGGA,160638,2420.3055,N,08202.5473,W,1,10,1.3,16,M,,M,,*64
06/22/2015	16:06:38.513	$GPGGA,160639,2420.3068,N,08202.5475,W,1,10,1.3,16,M,,M,,*6D
06/22/2015	16:06:39.553	$GPGGA,160640,2420.3079,N,08202.5481,W,1,11,1.3,16,M,,M,,*69
06/22/2015	16:06:40.513	$GPGGA,160641,2420.3091,N,08202.5484,W,1,11,1.6,16,M,,M,,*6E
06/22/2015	16:06:41.503	$GPGGA,160642,2420.3102,N,08202.5488,W,1,8,1.8,16,M,,M,,*5C
06/22/2015	16:06:42.503	$GPGGA,160643,2420.3113,N,08202.5492,W,1,8,1.3,16,M,,M,,*5D
06/22/2015	16:06:43.662	$GPGGA,160644,2420.3127,N,08202.5499,W,1,11,1.3,16,M,,M,,*6E
06/22/2015	16:06:44.524	$GPGGA,160645,2420.3138,N,08202.5502,W,1,11,1.3,16,M,,M,,*62
06/22/2015	16:06:45.593	$GPGGA,160646,2420.3151,N,08202.5506,W,1,10,1.3,16,M,,M,,*6B
06/22/2015	16:06:46.593	$GPGGA,160647,2420.3163,N,08202.5510,W,1,10,1.3,16,M,,M,,*6C
06/22/2015	16:06:47.613	$GPGGA,160648,2420.3174,N,08202.5516,W,1,11,1.3,16,M,,M,,*62
06/22/2015	16:06:48.503	$GPGGA,160649,2420.3187,N,08202.5520,W,1,11,1.3,16,M,,M,,*6A
06/22/2015	16:06:49.603	$GPGGA,160650,2420.3199,N,08202.5522,W,1,11,1.3,16,M,,M,,*6F
06/22/2015	16:06:50.503	$GPGGA,160651,2420.3210,N,08202.5525,W,1,11,1.3,16,M,,M,,*6B
06/22/2015	16:06:51.631	$GPGGA,160652,2420.3221,N,08202.5531,W,1,10,1.3,16,M,,M,,*6E
06/22/2015	16:06:52.593	$GPGGA,160653,2420.3232,N,08202.5535,W,1,10,1.3,16,M,,M,,*69
06/22/2015	16:06:53.583	$GPGGA,160654,2420.3246,N,08202.5538,W,1,11,1.3,16,M,,M,,*61
06/22/2015	16:06:54.583	$GPGGA,160655,2420.3257,N,08202.5540,W,1,11,1.3,16,M,,M,,*6F
06/22/2015	16:06:55.583	$GPGGA,160656,2420.3268,N,08202.5543,W,1,11,1.3,16,M,,M,,*63
06/22/2015	16:06:56.583	$GPGGA,160657,2420.3279,N,08202.5549,W,1,11,1.3,15,M,,M,,*6B
06/22/2015	16:06:57.563	$GPGGA,160658,2420.3292,N,08202.5553,W,1,9,1.6,15,M,,M,,*56
06/22/2015	16:06:58.583	$GPGGA,160659,2420.3304,N,08202.5554,W,1,9,1.3,15,M,,M,,*5B
06/22/2015	16:06:59.613	$GPGGA,160700,2420.3317,N,08202.5558,W,1,11,1.3,15,M,,M,,*61
06/22/2015	16:07:00.562	$GPGGA,160701,2420.3328,N,08202.5561,W,1,11,1.3,15,M,,M,,*66
06/22/2015	16:07:01.582	$GPGGA,160702,2420.3339,N,08202.5564,W,1,11,1.3,15,M,,M,,*60
06/22/2015	16:07:02.572	$GPGGA,160703,2420.3351,N,08202.5565,W,1,11,1.3,15,M,,M,,*6E
06/22/2015	16:07:03.593	$GPGGA,160704,2420.3362,N,08202.5567,W,1,11,1.3,15,M,,M,,*6B
06/22/2015	16:07:04.553	$GPGGA,160705,2420.3372,N,08202.5571,W,1,11,1.3,15,M,,M,,*6C
06/22/2015	16:07:05.553	$GPGGA,160706,2420.3385,N,08202.5574,W,1,11,1.3,15,M,,M,,*62
06/22/2015	16:07:06.573	$GPGGA,160707,2420.3398,N,08202.5576,W,1,11,1.3,15,M,,M,,*6D
06/22/2015	16:07:07.594	$GPGGA,160708,2420.3409,N,08202.5581,W,1,10,1.6,15,M,,M,,*61
06/22/2015	16:07:08.553	$GPGGA,160709,2420.3420,N,08202.5583,W,1,10,1.3,15,M,,M,,*6C
06/22/2015	16:07:09.553	$GPGGA,160710,2420.3433,N,08202.5585,W,1,10,1.3,15,M,,M,,*60
06/22/2015	16:07:10.553	$GPGGA,160711,2420.3445,N,08202.5589,W,1,10,1.3,15,M,,M,,*6C
06/22/2015	16:07:11.583	$GPGGA,160712,2420.3456,N,08202.5592,W,1,11,1.3,15,M,,M,,*66
06/22/2015	16:07:12.553	$GPGGA,160713,2420.3467,N,08202.5596,W,1,11,1.3,15,M,,M,,*61
06/22/2015	16:07:13.535	$GPGGA,160714,2420.3481,N,08202.5600,W,1,10,1.3,15,M,,M,,*63
06/22/2015	16:07:14.543	$GPGGA,160715,2420.3494,N,08202.5603,W,1,10,1.3,15,M,,M,,*65
06/22/2015	16:07:15.573	$GPGGA,160716,2420.3505,N,08202.5605,W,1,10,1.6,15,M,,M,,*6C
06/22/2015	16:07:16.540	$GPGGA,160717,2420.3517,N,08202.5607,W,1,10,1.6,15,M,,M,,*6C
06/22/2015	16:07:17.544	$GPGGA,160718,2420.3528,N,08202.5608,W,1,11,1.3,15,M,,M,,*64
06/22/2015	16:07:18.541	$GPGGA,160719,2420.3539,N,08202.5611,W,1,11,1.3,15,M,,M,,*6D
06/22/2015	16:07:19.572	$GPGGA,160720,2420.3550,N,08202.5614,W,1,11,1.3,15,M,,M,,*6D
06/22/2015	16:07:20.545	$GPGGA,160721,2420.3563,N,08202.5618,W,1,11,1.6,15,M,,M,,*65
06/22/2015	16:07:21.513	$GPGGA,160722,2420.3575,N,08202.5621,W,1,9,1.6,15,M,,M,,*52
06/22/2015	16:07:22.529	$GPGGA,160723,2420.3588,N,08202.5622,W,1,9,1.3,15,M,,M,,*57
06/22/2015	16:07:23.553	$GPGGA,160724,2420.3600,N,08202.5626,W,1,11,1.3,15,M,,M,,*6E
06/22/2015	16:07:24.539	$GPGGA,160725,2420.3613,N,08202.5629,W,1,11,1.3,15,M,,M,,*62
06/22/2015	16:07:25.537	$GPGGA,160726,2420.3624,N,08202.5630,W,1,10,1.6,15,M,,M,,*69
06/22/2015	16:07:26.513	$GPGGA,160727,2420.3636,N,08202.5633,W,1,10,1.3,15,M,,M,,*6D
06/22/2015	16:07:27.543	$GPGGA,160728,2420.3647,N,08202.5636,W,1,11,1.3,15,M,,M,,*60
06/22/2015	16:07:29.563	$GPGGA,160730,2420.3672,N,08202.5643,W,1,10,1.6,15,M,,M,,*69
06/22/2015	16:07:30.873	$GPGGA,160731,2420.3685,N,08202.5644,W,1,10,1.3,15,M,,M,,*62
06/22/2015	16:07:31.513	$GPGGA,160732,2420.3698,N,08202.5648,W,1,9,1.6,15,M,,M,,*5C
06/22/2015	16:07:32.493	$GPGGA,160733,2420.3712,N,08202.5652,W,1,9,1.6,15,M,,M,,*55
06/22/2015	16:07:33.513	$GPGGA,160734,2420.3723,N,08202.5657,W,1,10,1.6,15,M,,M,,*6D
06/22/2015	16:07:34.513	$GPGGA,160735,2420.3737,N,08202.5658,W,1,10,1.3,15,M,,M,,*63
06/22/2015	16:07:35.612	$GPGGA,160736,2420.3748,N,08202.5659,W,1,11,1.3,15,M,,M,,*68
06/22/2015	16:07:36.503	$GPGGA,160737,2420.3759,N,08202.5663,W,1,11,1.3,15,M,,M,,*60
06/22/2015	16:07:37.592	$GPGGA,160738,2420.3772,N,08202.5666,W,1,11,1.3,14,M,,M,,*62
06/22/2015	16:07:38.504	$GPGGA,160739,2420.3786,N,08202.5668,W,1,11,1.3,14,M,,M,,*66
06/22/2015	16:07:39.603	$GPGGA,160740,2420.3795,N,08202.5665,W,1,9,1.9,14,M,,M,,*54
06/22/2015	16:07:40.583	$GPGGA,160741,2420.3806,N,08202.5666,W,1,9,1.3,15,M,,M,,*58
06/22/2015	16:07:41.603	$GPGGA,160742,2420.3820,N,08202.5666,W,1,11,1.3,15,M,,M,,*66
06/22/2015	16:07:42.593	$GPGGA,160743,2420.3831,N,08202.5668,W,1,11,1.3,15,M,,M,,*69
06/22/2015	16:07:43.613	$GPGGA,160744,2420.3845,N,08202.5669,W,1,9,1.6,15,M,,M,,*50
06/22/2015	16:07:44.573	$GPGGA,160745,2420.3856,N,08202.5670,W,1,9,1.3,15,M,,M,,*5E
06/22/2015	16:07:45.593	$GPGGA,160746,2420.3867,N,08202.5672,W,1,11,1.3,15,M,,M,,*64
06/22/2015	16:07:46.583	$GPGGA,160747,2420.3878,N,08202.5675,W,1,11,1.3,15,M,,M,,*6C
06/22/2015	16:07:47.593	$GPGGA,160748,2420.3892,N,08202.5677,W,1,11,1.3,15,M,,M,,*65
06/22/2015	16:07:48.573	$GPGGA,160749,2420.3904,N,08202.5679,W,1,11,1.3,15,M,,M,,*64
06/22/2015	16:07:49.583	$GPGGA,160750,2420.3914,N,08202.5680,W,1,9,1.6,15,M,,M,,*57
06/22/2015	16:07:50.563	$GPGGA,160751,2420.3927,N,08202.5683,W,1,9,1.3,16,M,,M,,*53
06/22/2015	16:07:51.593	$GPGGA,160752,2420.3939,N,08202.5686,W,1,11,1.3,16,M,,M,,*63
06/22/2015	16:07:52.553	$GPGGA,160753,2420.3951,N,08202.5688,W,1,11,1.3,16,M,,M,,*62
06/22/2015	16:07:53.552	$GPGGA,160754,2420.3961,N,08202.5691,W,1,11,1.3,16,M,,M,,*6E
06/22/2015	16:07:54.562	$GPGGA,160755,2420.3976,N,08202.5695,W,1,11,1.3,16,M,,M,,*6D
06/22/2015	16:07:55.593	$GPGGA,160756,2420.3989,N,08202.5699,W,1,10,1.6,16,M,,M,,*66
06/22/2015	16:07:56.563	$GPGGA,160757,2420.4001,N,08202.5704,W,1,10,1.3,16,M,,M,,*69
06/22/2015	16:07:57.583	$GPGGA,160758,2420.4014,N,08202.5708,W,1,11,1.3,16,M,,M,,*6F
06/22/2015	16:07:58.543	$GPGGA,160759,2420.4026,N,08202.5710,W,1,11,1.3,16,M,,M,,*66
06/22/2015	16:07:59.613	$GPGGA,160800,2420.4039,N,08202.5713,W,1,10,1.3,16,M,,M,,*69
06/22/2015	16:08:00.553	$GPGGA,160801,2420.4051,N,08202.5719,W,1,10,1.3,16,M,,M,,*6C
06/22/2015	16:08:01.543	$GPGGA,160802,2420.4063,N,08202.5723,W,1,11,1.3,16,M,,M,,*66
06/22/2015	16:08:02.543	$GPGGA,160803,2420.4076,N,08202.5726,W,1,11,1.3,16,M,,M,,*66
06/22/2015	16:08:03.573	$GPGGA,160804,2420.4088,N,08202.5728,W,1,11,1.3,16,M,,M,,*6E
06/22/2015	16:08:04.543	$GPGGA,160805,2420.4101,N,08202.5731,W,1,11,1.3,16,M,,M,,*67
06/22/2015	16:08:05.573	$GPGGA,160806,2420.4112,N,08202.5735,W,1,11,1.3,16,M,,M,,*62
06/22/2015	16:08:06.535	$GPGGA,160807,2420.4124,N,08202.5740,W,1,11,1.3,16,M,,M,,*64
06/22/2015	16:08:07.573	$GPGGA,160808,2420.4137,N,08202.5742,W,1,11,1.3,16,M,,M,,*6B
06/22/2015	16:08:08.536	$GPGGA,160809,2420.4149,N,08202.5745,W,1,11,1.3,16,M,,M,,*64
06/22/2015	16:08:09.543	$GPGGA,160810,2420.4160,N,08202.5749,W,1,11,1.3,16,M,,M,,*6B
06/22/2015	16:08:10.522	$GPGGA,160811,2420.4173,N,08202.5752,W,1,11,1.3,16,M,,M,,*62
06/22/2015	16:08:11.562	$GPGGA,160812,2420.4184,N,08202.5756,W,1,10,1.3,16,M,,M,,*6C
06/22/2015	16:08:12.532	$GPGGA,160813,2420.4196,N,08202.5760,W,1,10,1.3,16,M,,M,,*6B
06/22/2015	16:08:13.536	$GPGGA,160814,2420.4209,N,08202.5763,W,1,11,1.3,16,M,,M,,*6B
06/22/2015	16:08:14.613	$GPGGA,160815,2420.4221,N,08202.5767,W,1,11,1.6,16,M,,M,,*61
06/22/2015	16:08:15.543	$GPGGA,160816,2420.4232,N,08202.5771,W,1,11,1.3,16,M,,M,,*62
06/22/2015	16:08:16.533	$GPGGA,160817,2420.4245,N,08202.5775,W,1,11,1.3,16,M,,M,,*67
06/22/2015	16:08:17.539	$GPGGA,160818,2420.4258,N,08202.5780,W,1,11,1.3,16,M,,M,,*6E
06/22/2015	16:08:18.503	$GPGGA,160819,2420.4269,N,08202.5785,W,1,11,1.3,16,M,,M,,*68
06/22/2015	16:08:19.523	$GPGGA,160820,2420.4276,N,08202.5779,W,1,10,1.6,16,M,,M,,*6B
06/22/2015	16:08:20.653	$GPGGA,160821,2420.4289,N,08202.5784,W,1,10,1.3,16,M,,M,,*6D
06/22/2015	16:08:21.524	$GPGGA,160822,2420.4300,N,08202.5788,W,1,10,1.3,16,M,,M,,*62
06/22/2015	16:08:22.523	$GPGGA,160823,2420.4310,N,08202.5791,W,1,10,1.3,16,M,,M,,*6A
06/22/2015	16:08:23.713	$GPGGA,160824,2420.4322,N,08202.5795,W,1,10,1.3,16,M,,M,,*68
06/22/2015	16:08:24.625	$GPGGA,160825,2420.4333,N,08202.5798,W,1,10,1.3,16,M,,M,,*64
06/22/2015	16:08:25.683	$GPGGA,160826,2420.4344,N,08202.5802,W,1,11,1.3,16,M,,M,,*6A
06/22/2015	16:08:26.613	$GPGGA,160827,2420.4355,N,08202.5806,W,1,11,1.3,16,M,,M,,*6F
06/22/2015	16:08:27.593	$GPGGA,160828,2420.4366,N,08202.5809,W,1,11,1.3,16,M,,M,,*6F
06/22/2015	16:08:28.582	$GPGGA,160829,2420.4379,N,08202.5813,W,1,11,1.3,16,M,,M,,*6B
06/22/2015	16:08:29.652	$GPGGA,160830,2420.4391,N,08202.5817,W,1,10,1.3,16,M,,M,,*60
06/22/2015	16:08:30.625	$GPGGA,160831,2420.4402,N,08202.5821,W,1,10,1.3,16,M,,M,,*69
06/22/2015	16:08:31.693	$GPGGA,160832,2420.4415,N,08202.5825,W,1,11,1.3,16,M,,M,,*69
06/22/2015	16:08:32.573	$GPGGA,160833,2420.4427,N,08202.5829,W,1,11,1.3,16,M,,M,,*65
06/22/2015	16:08:33.683	$GPGGA,160834,2420.4438,N,08202.5834,W,1,11,1.3,16,M,,M,,*60
06/22/2015	16:08:34.573	$GPGGA,160835,2420.4451,N,08202.5836,W,1,11,1.3,16,M,,M,,*6C
06/22/2015	16:08:35.693	$GPGGA,160836,2420.4463,N,08202.5839,W,1,11,1.3,16,M,,M,,*61
06/22/2015	16:08:36.603	$GPGGA,160837,2420.4475,N,08202.5843,W,1,11,1.3,16,M,,M,,*6A
06/22/2015	16:08:37.673	$GPGGA,160838,2420.4488,N,08202.5846,W,1,11,1.3,16,M,,M,,*62
06/22/2015	16:08:38.563	$GPGGA,160839,2420.4500,N,08202.5849,W,1,11,1.3,16,M,,M,,*6D
06/22/2015	16:08:39.673	$GPGGA,160840,2420.4511,N,08202.5853,W,1,11,1.3,16,M,,M,,*68
06/22/2015	16:08:40.583	$GPGGA,160841,2420.4523,N,08202.5856,W,1,11,1.3,16,M,,M,,*6D
06/22/2015	16:08:41.563	$GPGGA,160842,2420.4535,N,08202.5858,W,1,11,1.3,16,M,,M,,*67
06/22/2015	16:08:42.593	$GPGGA,160843,2420.4547,N,08202.5860,W,1,11,1.3,16,M,,M,,*68
06/22/2015	16:08:43.683	$GPGGA,160844,2420.4560,N,08202.5864,W,1,10,1.3,16,M,,M,,*6F
06/22/2015	16:08:44.553	$GPGGA,160845,2420.4572,N,08202.5870,W,1,10,1.6,16,M,,M,,*6D
06/22/2015	16:08:45.642	$GPGGA,160846,2420.4585,N,08202.5872,W,1,11,1.3,16,M,,M,,*60
06/22/2015	16:08:46.582	$GPGGA,160847,2420.4597,N,08202.5875,W,1,11,1.3,16,M,,M,,*65
06/22/2015	16:08:47.673	$GPGGA,160848,2420.4608,N,08202.5878,W,1,11,1.3,16,M,,M,,*62
06/22/2015	16:08:48.573	$GPGGA,160849,2420.4619,N,08202.5881,W,1,11,1.3,16,M,,M,,*65
06/22/2015	16:08:49.663	$GPGGA,160850,2420.4630,N,08202.5882,W,1,10,1.5,16,M,,M,,*62
06/22/2015	16:08:50.533	$GPGGA,160851,2420.4644,N,08202.5883,W,1,10,1.5,16,M,,M,,*61
06/22/2015	16:08:51.653	$GPGGA,160852,2420.4655,N,08202.5885,W,1,11,1.3,16,M,,M,,*63
06/22/2015	16:08:52.533	$GPGGA,160853,2420.4666,N,08202.5885,W,1,11,1.3,16,M,,M,,*62
06/22/2015	16:08:53.613	$GPGGA,160854,2420.4677,N,08202.5887,W,1,10,1.6,16,M,,M,,*63
06/22/2015	16:08:54.563	$GPGGA,160855,2420.4691,N,08202.5890,W,1,10,1.6,16,M,,M,,*6C
06/22/2015	16:08:55.653	$GPGGA,160856,2420.4706,N,08202.5892,W,1,10,1.3,16,M,,M,,*67
06/22/2015	16:08:56.525	$GPGGA,160857,2420.4719,N,08202.5893,W,1,10,1.3,16,M,,M,,*69
06/22/2015	16:08:57.643	$GPGGA,160858,2420.4733,N,08202.5896,W,1,11,1.3,16,M,,M,,*6A
06/22/2015	16:08:58.523	$GPGGA,160859,2420.4745,N,08202.5900,W,1,11,1.3,16,M,,M,,*64
06/22/2015	16:08:59.653	$GPGGA,160900,2420.4758,N,08202.5901,W,1,11,1.6,16,M,,M,,*61
06/22/2015	16:09:00.546	$GPGGA,160901,2420.4769,N,08202.5903,W,1,11,1.3,16,M,,M,,*65
06/22/2015	16:09:01.613	$GPGGA,160902,2420.4780,N,08202.5904,W,1,11,1.3,16,M,,M,,*66
06/22/2015	16:09:02.526	$GPGGA,160903,2420.4792,N,08202.5907,W,1,11,1.3,16,M,,M,,*67
06/22/2015	16:09:03.525	$GPGGA,160904,2420.4806,N,08202.5910,W,1,11,1.3,16,M,,M,,*64
06/22/2015	16:09:04.512	$GPGGA,160905,2420.4816,N,08202.5911,W,1,11,1.6,16,M,,M,,*60
06/22/2015	16:09:05.603	$GPGGA,160906,2420.4828,N,08202.5912,W,1,11,1.3,17,M,,M,,*69
06/22/2015	16:09:06.543	$GPGGA,160907,2420.4839,N,08202.5914,W,1,11,1.3,17,M,,M,,*6E
06/22/2015	16:09:07.634	$GPGGA,160908,2420.4850,N,08202.5915,W,1,11,1.3,17,M,,M,,*6F
06/22/2015	16:09:08.875	$GPGGA,160909,2420.4863,N,08202.5918,W,1,11,1.3,17,M,,M,,*63
06/22/2015	16:09:09.643	$GPGGA,160910,2420.4875,N,08202.5921,W,1,11,1.3,17,M,,M,,*66
06/22/2015	16:09:10.543	$GPGGA,160911,2420.4886,N,08202.5923,W,1,11,1.3,17,M,,M,,*69
06/22/2015	16:09:11.603	$GPGGA,160912,2420.4900,N,08202.5925,W,1,11,1.3,17,M,,M,,*63
06/22/2015	16:09:12.543	$GPGGA,160913,2420.4911,N,08202.5928,W,1,11,1.3,17,M,,M,,*6F
06/22/2015	16:09:13.603	$GPGGA,160914,2420.4924,N,08202.5932,W,1,11,1.3,17,M,,M,,*65
06/22/2015	16:09:14.603	$GPGGA,160915,2420.4937,N,08202.5934,W,1,11,1.3,17,M,,M,,*60
06/22/2015	16:09:15.623	$GPGGA,160916,2420.4948,N,08202.5937,W,1,11,1.3,17,M,,M,,*68
06/22/2015	16:09:16.583	$GPGGA,160917,2420.4961,N,08202.5941,W,1,11,1.3,17,M,,M,,*63
06/22/2015	16:09:17.624	$GPGGA,160918,2420.4973,N,08202.5943,W,1,11,1.3,17,M,,M,,*6D
06/22/2015	16:09:18.583	$GPGGA,160919,2420.4984,N,08202.5947,W,1,11,1.3,17,M,,M,,*60
06/22/2015	16:09:19.623	$GPGGA,160920,2420.4995,N,08202.5950,W,1,11,1.3,17,M,,M,,*6C
06/22/2015	16:09:20.582	$GPGGA,160921,2420.5008,N,08202.5954,W,1,11,1.3,17,M,,M,,*65
06/22/2015	16:09:21.582	$GPGGA,160922,2420.5020,N,08202.5957,W,1,11,1.3,17,M,,M,,*6F
06/22/2015	16:09:22.572	$GPGGA,160923,2420.5031,N,08202.5959,W,1,11,1.3,17,M,,M,,*60
06/22/2015	16:09:23.623	$GPGGA,160924,2420.5044,N,08202.5962,W,1,11,1.3,17,M,,M,,*6D
06/22/2015	16:09:24.583	$GPGGA,160925,2420.5056,N,08202.5966,W,1,11,1.6,17,M,,M,,*6E
06/22/2015	16:09:25.639	$GPGGA,160926,2420.5067,N,08202.5969,W,1,10,1.3,17,M,,M,,*64
06/22/2015	16:09:26.573	$GPGGA,160927,2420.5080,N,08202.5972,W,1,10,1.3,17,M,,M,,*66
06/22/2015	16:09:27.644	$GPGGA,160928,2420.5092,N,08202.5975,W,1,11,1.3,17,M,,M,,*6C
06/22/2015	16:09:28.563	$GPGGA,160929,2420.5103,N,08202.5979,W,1,11,1.3,17,M,,M,,*68
06/22/2015	16:09:29.593	$GPGGA,160930,2420.5103,N,08202.5979,W,1,11,1.3,17,M,,M,,*60
06/22/2015	16:09:30.553	$GPGGA,160931,2420.5127,N,08202.5986,W,1,11,1.3,17,M,,M,,*67
06/22/2015	16:09:31.603	$GPGGA,160932,2420.5138,N,08202.5987,W,1,11,1.3,17,M,,M,,*6B
06/22/2015	16:09:32.573	$GPGGA,160933,2420.5149,N,08202.5991,W,1,11,1.4,17,M,,M,,*6C
06/22/2015	16:09:33.593	$GPGGA,160934,2420.5161,N,08202.5994,W,1,10,1.4,17,M,,M,,*65
06/22/2015	16:09:34.543	$GPGGA,160935,2420.5172,N,08202.5998,W,1,10,1.4,17,M,,M,,*6A
06/22/2015	16:09:35.653	$GPGGA,160936,2420.5172,N,08202.5998,W,1,11,1.3,17,M,,M,,*6F
06/22/2015	16:09:36.553	$GPGGA,160937,2420.5195,N,08202.6005,W,1,11,1.3,17,M,,M,,*69
06/22/2015	16:09:37.583	$GPGGA,160938,2420.5206,N,08202.6008,W,1,11,1.3,17,M,,M,,*62
06/22/2015	16:09:38.552	$GPGGA,160939,2420.5219,N,08202.6012,W,1,11,1.3,17,M,,M,,*66
06/22/2015	16:09:39.582	$GPGGA,160940,2420.5219,N,08202.6012,W,1,11,1.3,17,M,,M,,*68
06/22/2015	16:09:40.536	$GPGGA,160941,2420.5242,N,08202.6019,W,1,11,1.4,17,M,,M,,*6B
06/22/2015	16:09:41.635	$GPGGA,160942,2420.5254,N,08202.6022,W,1,10,1.3,17,M,,M,,*61
06/22/2015	16:09:42.553	$GPGGA,160943,2420.5266,N,08202.6026,W,1,10,1.3,17,M,,M,,*65
06/22/2015	16:09:43.613	$GPGGA,160944,2420.5280,N,08202.6030,W,1,11,1.6,17,M,,M,,*69
06/22/2015	16:09:44.543	$GPGGA,160945,2420.5291,N,08202.6035,W,1,11,1.4,17,M,,M,,*6F
06/22/2015	16:09:45.613	$GPGGA,160946,2420.5302,N,08202.6040,W,1,10,1.3,17,M,,M,,*63
06/22/2015	16:09:46.543	$GPGGA,160947,2420.5313,N,08202.6044,W,1,10,1.3,17,M,,M,,*66
06/22/2015	16:09:47.563	$GPGGA,160948,2420.5313,N,08202.6044,W,1,11,1.3,17,M,,M,,*68
06/22/2015	16:09:48.524	$GPGGA,160949,2420.5337,N,08202.6051,W,1,11,1.3,17,M,,M,,*6B
06/22/2015	16:09:49.536	$GPGGA,160950,2420.5337,N,08202.6051,W,1,11,1.3,17,M,,M,,*63
06/22/2015	16:09:50.527	$GPGGA,160951,2420.5360,N,08202.6059,W,1,11,1.4,17,M,,M,,*6F
06/22/2015	16:09:51.553	$GPGGA,160952,2420.5360,N,08202.6059,W,1,11,1.3,17,M,,M,,*6B
06/22/2015	16:09:52.543	$GPGGA,160953,2420.5385,N,08202.6067,W,1,11,1.3,17,M,,M,,*6C
06/22/2015	16:09:53.653	$GPGGA,160954,2420.5398,N,08202.6069,W,1,11,1.3,17,M,,M,,*69
06/22/2015	16:09:54.603	$GPGGA,160955,2420.5410,N,08202.6074,W,1,11,1.3,16,M,,M,,*62
06/22/2015	16:09:55.542	$GPGGA,160956,2420.5410,N,08202.6074,W,1,11,1.3,16,M,,M,,*61
06/22/2015	16:09:56.512	$GPGGA,160957,2420.5434,N,08202.6081,W,1,11,1.3,16,M,,M,,*6C
06/22/2015	16:09:57.663	$GPGGA,160958,2420.5446,N,08202.6087,W,1,11,1.3,16,M,,M,,*60
06/22/2015	16:09:58.604	$GPGGA,160959,2420.5457,N,08202.6092,W,1,11,1.4,16,M,,M,,*62
06/22/2015	16:09:59.583	$GPGGA,161000,2420.5457,N,08202.6092,W,1,10,1.4,16,M,,M,,*67
06/22/2015	16:10:00.593	$GPGGA,161001,2420.5481,N,08202.6098,W,1,10,1.4,16,M,,M,,*67
06/22/2015	16:10:01.614	$GPGGA,161002,2420.5493,N,08202.6102,W,1,10,1.4,16,M,,M,,*65
06/22/2015	16:10:02.504	$GPGGA,161003,2420.5506,N,08202.6106,W,1,10,1.4,16,M,,M,,*6D
06/22/2015	16:10:03.613	$GPGGA,161004,2420.5518,N,08202.6110,W,1,10,1.4,16,M,,M,,*62
06/22/2015	16:10:04.528	$GPGGA,161005,2420.5518,N,08202.6110,W,1,10,1.4,16,M,,M,,*63
06/22/2015	16:10:05.593	$GPGGA,161006,2420.5542,N,08202.6116,W,1,9,1.5,16,M,,M,,*50
06/22/2015	16:10:06.583	$GPGGA,161007,2420.5554,N,08202.6118,W,1,9,1.4,16,M,,M,,*59
06/22/2015	16:10:07.624	$GPGGA,161008,2420.5565,N,08202.6120,W,1,10,1.4,16,M,,M,,*67
06/22/2015	16:10:08.583	$GPGGA,161009,2420.5578,N,08202.6121,W,1,10,1.4,16,M,,M,,*6B
06/22/2015	16:10:09.593	$GPGGA,161010,2420.5590,N,08202.6124,W,1,10,1.4,16,M,,M,,*60
06/22/2015	16:10:10.583	$GPGGA,161011,2420.5602,N,08202.6127,W,1,10,1.4,16,M,,M,,*6A
06/22/2015	16:10:11.613	$GPGGA,161012,2420.5615,N,08202.6131,W,1,10,1.4,16,M,,M,,*68
06/22/2015	16:10:12.573	$GPGGA,161013,2420.5627,N,08202.6132,W,1,10,1.4,16,M,,M,,*6B
06/22/2015	16:10:13.592	$GPGGA,161014,2420.5640,N,08202.6135,W,1,10,1.4,16,M,,M,,*6A
06/22/2015	16:10:14.562	$GPGGA,161015,2420.5652,N,08202.6138,W,1,10,1.4,17,M,,M,,*64
06/22/2015	16:10:15.613	$GPGGA,161016,2420.5663,N,08202.6142,W,1,10,1.4,17,M,,M,,*68
06/22/2015	16:10:16.583	$GPGGA,161017,2420.5676,N,08202.6145,W,1,10,1.5,17,M,,M,,*6B
06/22/2015	16:10:17.583	$GPGGA,161018,2420.5688,N,08202.6147,W,1,9,1.5,17,M,,M,,*5F
06/22/2015	16:10:18.563	$GPGGA,161019,2420.5699,N,08202.6150,W,1,9,1.4,17,M,,M,,*59
06/22/2015	16:10:19.563	$GPGGA,161020,2420.5712,N,08202.6154,W,1,10,1.4,17,M,,M,,*6D
06/22/2015	16:10:20.563	$GPGGA,161021,2420.5724,N,08202.6157,W,1,10,1.4,17,M,,M,,*6A
06/22/2015	16:10:21.553	$GPGGA,161022,2420.5735,N,08202.6160,W,1,10,1.4,17,M,,M,,*6D
06/22/2015	16:10:22.563	$GPGGA,161023,2420.5746,N,08202.6163,W,1,10,1.4,17,M,,M,,*6B
06/22/2015	16:10:23.563	$GPGGA,161024,2420.5759,N,08202.6165,W,1,10,1.4,17,M,,M,,*64
06/22/2015	16:10:24.553	$GPGGA,161025,2420.5771,N,08202.6167,W,1,10,1.5,17,M,,M,,*6C
06/22/2015	16:10:25.553	$GPGGA,161026,2420.5782,N,08202.6171,W,1,10,1.4,17,M,,M,,*65
06/22/2015	16:10:26.553	$GPGGA,161027,2420.5795,N,08202.6174,W,1,10,1.4,17,M,,M,,*67
06/22/2015	16:10:27.593	$GPGGA,161028,2420.5807,N,08202.6176,W,1,10,1.4,17,M,,M,,*6E
06/22/2015	16:10:28.537	$GPGGA,161029,2420.5820,N,08202.6178,W,1,10,1.5,17,M,,M,,*65
06/22/2015	16:10:29.563	$GPGGA,161030,2420.5832,N,08202.6182,W,1,9,1.5,17,M,,M,,*53
06/22/2015	16:10:30.542	$GPGGA,161031,2420.5844,N,08202.6185,W,1,9,1.4,17,M,,M,,*55
06/22/2015	16:10:31.582	$GPGGA,161032,2420.5857,N,08202.6185,W,1,10,1.4,17,M,,M,,*6C
06/22/2015	16:10:32.543	$GPGGA,161033,2420.5869,N,08202.6188,W,1,10,1.4,17,M,,M,,*6D
06/22/2015	16:10:33.553	$GPGGA,161034,2420.5880,N,08202.6189,W,1,10,1.4,17,M,,M,,*6C
06/22/2015	16:10:34.524	$GPGGA,161035,2420.5890,N,08202.6197,W,1,10,1.5,17,M,,M,,*62
06/22/2015	16:10:35.543	$GPGGA,161036,2420.5901,N,08202.6199,W,1,10,1.4,17,M,,M,,*67
06/22/2015	16:10:36.523	$GPGGA,161037,2420.5915,N,08202.6200,W,1,10,1.4,17,M,,M,,*60
06/22/2015	16:10:37.643	$GPGGA,161038,2420.5927,N,08202.6201,W,1,10,1.4,17,M,,M,,*6F
06/22/2015	16:10:38.536	$GPGGA,161039,2420.5938,N,08202.6203,W,1,10,1.4,17,M,,M,,*62
06/22/2015	16:10:39.653	$GPGGA,161040,2420.5951,N,08202.6207,W,1,10,1.4,17,M,,M,,*67
06/22/2015	16:10:40.523	$GPGGA,161041,2420.5963,N,08202.6208,W,1,10,1.4,17,M,,M,,*68
06/22/2015	16:10:41.533	$GPGGA,161042,2420.5974,N,08202.6210,W,1,10,1.4,17,M,,M,,*64
06/22/2015	16:10:42.613	$GPGGA,161043,2420.5985,N,08202.6214,W,1,10,1.4,17,M,,M,,*6F
06/22/2015	16:10:43.543	$GPGGA,161044,2420.5998,N,08202.6215,W,1,10,1.4,17,M,,M,,*65
06/22/2015	16:10:44.613	$GPGGA,161045,2420.6010,N,08202.6218,W,1,10,1.4,17,M,,M,,*63
06/22/2015	16:10:45.613	$GPGGA,161046,2420.6021,N,08202.6221,W,1,10,1.4,17,M,,M,,*68
06/22/2015	16:10:46.503	$GPGGA,161047,2420.6034,N,08202.6223,W,1,10,1.4,17,M,,M,,*6F
06/22/2015	16:10:47.543	$GPGGA,161048,2420.6046,N,08202.6226,W,1,10,1.4,17,M,,M,,*60
06/22/2015	16:10:48.602	$GPGGA,161049,2420.6057,N,08202.6229,W,1,10,1.4,17,M,,M,,*6E
06/22/2015	16:10:49.612	$GPGGA,161050,2420.6070,N,08202.6232,W,1,10,1.4,17,M,,M,,*69
06/22/2015	16:10:50.503	$GPGGA,161051,2420.6082,N,08202.6233,W,1,10,1.4,17,M,,M,,*64
06/22/2015	16:10:51.635	$GPGGA,161052,2420.6093,N,08202.6237,W,1,10,1.4,17,M,,M,,*63
06/22/2015	16:10:52.503	$GPGGA,161053,2420.6106,N,08202.6240,W,1,10,1.4,17,M,,M,,*6F
06/22/2015	16:10:53.593	$GPGGA,161054,2420.6118,N,08202.6243,W,1,10,1.4,17,M,,M,,*64
06/22/2015	16:10:54.593	$GPGGA,161055,2420.6131,N,08202.6246,W,1,10,1.4,17,M,,M,,*6B
06/22/2015	16:10:55.603	$GPGGA,161056,2420.6142,N,08202.6250,W,1,10,1.4,17,M,,M,,*6B
06/22/2015	16:10:56.583	$GPGGA,161057,2420.6154,N,08202.6253,W,1,10,1.5,17,M,,M,,*6F
06/22/2015	16:10:57.603	$GPGGA,161058,2420.6165,N,08202.6255,W,1,10,1.4,17,M,,M,,*65
06/22/2015	16:10:58.583	$GPGGA,161059,2420.6176,N,08202.6257,W,1,10,1.4,17,M,,M,,*64
06/22/2015	16:10:59.613	$GPGGA,161100,2420.6190,N,08202.6261,W,1,9,1.4,17,M,,M,,*5C
06/22/2015	16:11:00.587	$GPGGA,161101,2420.6201,N,08202.6264,W,1,9,1.4,17,M,,M,,*53
06/22/2015	16:11:01.583	$GPGGA,161102,2420.6212,N,08202.6269,W,1,9,1.5,17,M,,M,,*5E
06/22/2015	16:11:02.583	$GPGGA,161103,2420.6223,N,08202.6272,W,1,9,1.4,17,M,,M,,*56
06/22/2015	16:11:03.593	$GPGGA,161104,2420.6236,N,08202.6275,W,1,9,1.6,17,M,,M,,*50
06/22/2015	16:11:04.573	$GPGGA,161105,2420.6248,N,08202.6276,W,1,9,1.4,17,M,,M,,*59
06/22/2015	16:11:05.562	$GPGGA,161106,2420.6259,N,08202.6280,W,1,10,1.4,17,M,,M,,*6B
06/22/2015	16:11:06.572	$GPGGA,161107,2420.6272,N,08202.6283,W,1,10,1.4,17,M,,M,,*60
06/22/2015	16:11:07.603	$GPGGA,161108,2420.6284,N,08202.6286,W,1,10,1.4,17,M,,M,,*63
06/22/2015	16:11:08.573	$GPGGA,161109,2420.6295,N,08202.6290,W,1,10,1.4,17,M,,M,,*65
06/22/2015	16:11:10.593	$GPGGA,161111,2420.6320,N,08202.6297,W,1,10,1.4,17,M,,M,,*64
06/22/2015	16:11:11.593	$GPGGA,161112,2420.6331,N,08202.6301,W,1,10,1.4,17,M,,M,,*69
06/22/2015	16:11:12.563	$GPGGA,161113,2420.6344,N,08202.6304,W,1,10,1.4,17,M,,M,,*6F
06/22/2015	16:11:13.583	$GPGGA,161114,2420.6355,N,08202.6308,W,1,10,1.4,16,M,,M,,*65
06/22/2015	16:11:14.543	$GPGGA,161115,2420.6367,N,08202.6311,W,1,10,1.4,16,M,,M,,*6D
06/22/2015	16:11:15.553	$GPGGA,161116,2420.6378,N,08202.6315,W,1,10,1.4,16,M,,M,,*64
06/22/2015	16:11:16.543	$GPGGA,161117,2420.6389,N,08202.6319,W,1,10,1.4,16,M,,M,,*67
06/22/2015	16:11:17.553	$GPGGA,161118,2420.6400,N,08202.6322,W,1,9,1.4,16,M,,M,,*5E
06/22/2015	16:11:18.543	$GPGGA,161119,2420.6413,N,08202.6326,W,1,9,1.4,16,M,,M,,*59
06/22/2015	16:11:19.583	$GPGGA,161120,2420.6425,N,08202.6329,W,1,10,1.4,16,M,,M,,*61
06/22/2015	16:11:20.543	$GPGGA,161121,2420.6436,N,08202.6333,W,1,10,1.6,16,M,,M,,*6B
06/22/2015	16:11:21.563	$GPGGA,161122,2420.6449,N,08202.6337,W,1,10,1.4,16,M,,M,,*66
06/22/2015	16:11:22.553	$GPGGA,161123,2420.6460,N,08202.6342,W,1,10,1.4,16,M,,M,,*6E
06/22/2015	16:11:23.562	$GPGGA,161124,2420.6471,N,08202.6345,W,1,10,1.4,16,M,,M,,*6E
06/22/2015	16:11:24.533	$GPGGA,161125,2420.6483,N,08202.6348,W,1,10,1.4,16,M,,M,,*6F
06/22/2015	16:11:25.523	$GPGGA,161126,2420.6494,N,08202.6353,W,1,9,1.4,16,M,,M,,*58
06/22/2015	16:11:26.524	$GPGGA,161127,2420.6508,N,08202.6358,W,1,9,1.4,16,M,,M,,*56
06/22/2015	16:11:27.543	$GPGGA,161128,2420.6521,N,08202.6362,W,1,10,1.4,16,M,,M,,*63
06/22/2015	16:11:28.542	$GPGGA,161129,2420.6533,N,08202.6363,W,1,10,1.4,16,M,,M,,*60
06/22/2015	16:11:29.637	$GPGGA,161130,2420.6544,N,08202.6367,W,1,9,1.4,16,M,,M,,*54
06/22/2015	16:11:30.523	$GPGGA,161131,2420.6557,N,08202.6371,W,1,9,1.4,16,M,,M,,*50
06/22/2015	16:11:31.543	$GPGGA,161132,2420.6569,N,08202.6373,W,1,10,1.4,16,M,,M,,*64
06/22/2015	16:11:32.523	$GPGGA,161133,2420.6581,N,08202.6376,W,1,10,1.4,16,M,,M,,*66
06/22/2015	16:11:33.513	$GPGGA,161134,2420.6592,N,08202.6380,W,1,10,1.4,16,M,,M,,*6A
06/22/2015	16:11:34.613	$GPGGA,161135,2420.6606,N,08202.6384,W,1,10,1.4,16,M,,M,,*61
06/22/2015	16:11:35.523	$GPGGA,161136,2420.6617,N,08202.6385,W,1,10,1.4,16,M,,M,,*63
06/22/2015	16:11:36.603	$GPGGA,161137,2420.6631,N,08202.6388,W,1,10,1.4,16,M,,M,,*6B
06/22/2015	16:11:37.603	$GPGGA,161138,2420.6642,N,08202.6392,W,1,10,1.4,16,M,,M,,*6B
06/22/2015	16:11:38.603	$GPGGA,161139,2420.6653,N,08202.6395,W,1,10,1.4,16,M,,M,,*6D
06/22/2015	16:11:39.613	$GPGGA,161140,2420.6666,N,08202.6398,W,1,10,1.4,16,M,,M,,*68
06/22/2015	16:11:40.503	$GPGGA,161141,2420.6678,N,08202.6400,W,1,10,1.4,16,M,,M,,*60
06/22/2015	16:11:41.628	$GPGGA,161142,2420.6689,N,08202.6405,W,1,10,1.4,16,M,,M,,*68
06/22/2015	16:11:42.583	$GPGGA,161143,2420.6702,N,08202.6406,W,1,10,1.5,16,M,,M,,*69
06/22/2015	16:11:43.925	$GPGGA,161144,2420.6714,N,08202.6409,W,1,10,1.4,16,M,,M,,*67
06/22/2015	16:11:44.593	$GPGGA,161145,2420.6725,N,08202.6409,W,1,10,1.4,16,M,,M,,*64
06/22/2015	16:11:45.603	$GPGGA,161146,2420.6738,N,08202.6413,W,1,10,1.4,16,M,,M,,*60
