Software Version Number: 1	Data File Format Number: 1	Build Version Number: 1	Error Count Since VI Started: 1	Manufacturer: Raytheon	 Model Number: RayMarine 120	 S/N: 	 Cal Date: 	 Wind Direction Offset: 0.00	 Slope (M)1: 0.00	 Offset (B)1: 0.00	 Slope (M)2: 0.00	 Offset (B)2: 0.00	 Slope (M)3: 0.00	 Offset (B)3: 0.00	 Slope (M)4: 0.00	 Offset (B)4: 0.00	 Slope (M)5: 0.00	 Offset (B)5: 0.00	 Slope (M)6: 0.00	 Offset (B)6: 0.00
Computer Date	Computer Time	GGA String
06/18/2015	18:00:00.531	$GPGGA,180001,2549.8393,N,07925.4184,W,1,11,1.6,17,M,,M,,*62
06/18/2015	18:00:01.522	$GPGGA,180002,2549.8401,N,07925.4187,W,1,11,1.6,17,M,,M,,*6E
06/18/2015	18:00:02.522	$GPGGA,180003,2549.8409,N,07925.4187,W,1,11,1.6,17,M,,M,,*67
06/18/2015	18:00:03.512	$GPGGA,180004,2549.8418,N,07925.4187,W,1,11,1.6,16,M,,M,,*61
06/18/2015	18:00:04.492	$GPGGA,180005,2549.8426,N,07925.4187,W,1,11,1.9,17,M,,M,,*63
06/18/2015	18:00:05.622	$GPGGA,180006,2549.8433,N,07925.4187,W,1,11,1.6,17,M,,M,,*6B
06/18/2015	18:00:06.592	$GPGGA,180007,2549.8441,N,07925.4187,W,1,11,1.6,17,M,,M,,*6F
06/18/2015	18:00:07.633	$GPGGA,180008,2549.8448,N,07925.4186,W,1,11,1.6,17,M,,M,,*68
06/18/2015	18:00:08.593	$GPGGA,180009,2549.8456,N,07925.4187,W,1,11,1.6,17,M,,M,,*67
06/18/2015	18:00:09.592	$GPGGA,180010,2549.8463,N,07925.4188,W,1,11,1.6,17,M,,M,,*66
06/18/2015	18:00:10.582	$GPGGA,180011,2549.8470,N,07925.4188,W,1,11,1.6,17,M,,M,,*65
06/18/2015	18:00:11.622	$GPGGA,180012,2549.8477,N,07925.4187,W,1,11,1.6,17,M,,M,,*6E
06/18/2015	18:00:12.582	$GPGGA,180013,2549.8484,N,07925.4188,W,1,11,1.6,17,M,,M,,*6C
06/18/2015	18:00:13.602	$GPGGA,180014,2549.8492,N,07925.4189,W,1,11,1.6,17,M,,M,,*6D
06/18/2015	18:00:14.572	$GPGGA,180015,2549.8499,N,07925.4189,W,1,11,1.6,17,M,,M,,*67
06/18/2015	18:00:15.602	$GPGGA,180016,2549.8508,N,07925.4191,W,1,11,1.6,17,M,,M,,*64
06/18/2015	18:00:16.572	$GPGGA,180017,2549.8514,N,07925.4191,W,1,11,1.6,18,M,,M,,*67
06/18/2015	18:00:17.571	$GPGGA,180018,2549.8523,N,07925.4191,W,1,10,1.6,18,M,,M,,*6D
06/18/2015	18:00:18.572	$GPGGA,180019,2549.8530,N,07925.4191,W,1,10,1.6,18,M,,M,,*6E
06/18/2015	18:00:19.593	$GPGGA,180020,2549.8537,N,07925.4192,W,1,11,1.6,18,M,,M,,*61
06/18/2015	18:00:20.562	$GPGGA,180021,2549.8546,N,07925.4194,W,1,11,1.6,18,M,,M,,*60
06/18/2015	18:00:21.562	$GPGGA,180022,2549.8553,N,07925.4193,W,1,11,1.6,18,M,,M,,*60
06/18/2015	18:00:22.562	$GPGGA,180023,2549.8561,N,07925.4195,W,1,11,1.6,18,M,,M,,*66
06/18/2015	18:00:23.592	$GPGGA,180024,2549.8571,N,07925.4198,W,1,11,1.6,18,M,,M,,*6D
06/18/2015	18:00:24.552	$GPGGA,180025,2549.8578,N,07925.4198,W,1,11,1.6,18,M,,M,,*65
06/18/2015	18:00:25.582	$GPGGA,180026,2549.8586,N,07925.4201,W,1,10,1.7,18,M,,M,,*64
06/18/2015	18:00:26.562	$GPGGA,180027,2549.8595,N,07925.4202,W,1,10,1.7,18,M,,M,,*64
06/18/2015	18:00:27.562	$GPGGA,180028,2549.8604,N,07925.4203,W,1,10,1.7,18,M,,M,,*61
06/18/2015	18:00:28.552	$GPGGA,180029,2549.8613,N,07925.4205,W,1,10,1.6,18,M,,M,,*61
06/18/2015	18:00:29.562	$GPGGA,180030,2549.8620,N,07925.4206,W,1,11,1.6,18,M,,M,,*6B
06/18/2015	18:00:30.552	$GPGGA,180031,2549.8629,N,07925.4207,W,1,11,1.9,18,M,,M,,*6D
06/18/2015	18:00:31.582	$GPGGA,180032,2549.8636,N,07925.4209,W,1,11,1.6,18,M,,M,,*61
06/18/2015	18:00:32.542	$GPGGA,180033,2549.8646,N,07925.4210,W,1,11,1.9,18,M,,M,,*60
06/18/2015	18:00:33.572	$GPGGA,180034,2549.8654,N,07925.4212,W,1,10,1.9,18,M,,M,,*67
06/18/2015	18:00:34.532	$GPGGA,180035,2549.8662,N,07925.4213,W,1,10,1.9,18,M,,M,,*62
06/18/2015	18:00:35.551	$GPGGA,180036,2549.8671,N,07925.4214,W,1,10,1.9,18,M,,M,,*64
06/18/2015	18:00:36.542	$GPGGA,180037,2549.8679,N,07925.4216,W,1,10,1.9,18,M,,M,,*6F
06/18/2015	18:00:37.522	$GPGGA,180038,2549.8687,N,07925.4217,W,1,9,2.2,18,M,,M,,*50
06/18/2015	18:00:38.532	$GPGGA,180039,2549.8694,N,07925.4219,W,1,9,1.9,18,M,,M,,*55
06/18/2015	18:00:39.572	$GPGGA,180040,2549.8701,N,07925.4220,W,1,10,1.9,18,M,,M,,*64
06/18/2015	18:00:40.532	$GPGGA,180041,2549.8709,N,07925.4221,W,1,10,1.9,18,M,,M,,*6C
06/18/2015	18:00:41.512	$GPGGA,180042,2549.8718,N,07925.4223,W,1,10,1.9,18,M,,M,,*6D
06/18/2015	18:00:42.652	$GPGGA,180043,2549.8727,N,07925.4224,W,1,10,1.9,18,M,,M,,*67
06/18/2015	18:00:43.622	$GPGGA,180044,2549.8734,N,07925.4224,W,1,11,1.6,18,M,,M,,*6C
06/18/2015	18:00:44.522	$GPGGA,180045,2549.8743,N,07925.4224,W,1,11,1.6,18,M,,M,,*6D
06/18/2015	18:00:45.612	$GPGGA,180046,2549.8750,N,07925.4224,W,1,11,1.6,18,M,,M,,*6C
06/18/2015	18:00:46.512	$GPGGA,180047,2549.8759,N,07925.4225,W,1,11,1.6,19,M,,M,,*64
06/18/2015	18:00:47.542	$GPGGA,180048,2549.8766,N,07925.4227,W,1,11,1.6,19,M,,M,,*65
06/18/2015	18:00:48.522	$GPGGA,180049,2549.8773,N,07925.4225,W,1,11,1.6,19,M,,M,,*62
06/18/2015	18:00:49.512	$GPGGA,180050,2549.8783,N,07925.4227,W,1,11,1.6,19,M,,M,,*67
06/18/2015	18:00:50.642	$GPGGA,180051,2549.8791,N,07925.4230,W,1,11,1.9,19,M,,M,,*6C
06/18/2015	18:00:51.692	$GPGGA,180052,2549.8799,N,07925.4228,W,1,10,1.6,19,M,,M,,*60
06/18/2015	18:00:52.631	$GPGGA,180053,2549.8806,N,07925.4230,W,1,10,1.6,19,M,,M,,*61
06/18/2015	18:00:53.692	$GPGGA,180054,2549.8815,N,07925.4231,W,1,10,1.6,19,M,,M,,*65
06/18/2015	18:00:54.503	$GPGGA,180055,2549.8824,N,07925.4232,W,1,10,1.6,19,M,,M,,*65
06/18/2015	18:00:55.532	$GPGGA,180056,2549.8831,N,07925.4234,W,1,11,1.6,19,M,,M,,*65
06/18/2015	18:00:56.582	$GPGGA,180057,2549.8839,N,07925.4234,W,1,11,1.9,19,M,,M,,*63
06/18/2015	18:00:57.482	$GPGGA,180058,2549.8849,N,07925.4238,W,1,11,1.6,19,M,,M,,*68
06/18/2015	18:00:58.582	$GPGGA,180059,2549.8857,N,07925.4237,W,1,11,1.6,19,M,,M,,*69
06/18/2015	18:00:59.712	$GPGGA,180100,2549.8864,N,07925.4235,W,1,11,1.6,19,M,,M,,*66
06/18/2015	18:01:00.612	$GPGGA,180101,2549.8873,N,07925.4236,W,1,11,1.6,19,M,,M,,*62
06/18/2015	18:01:01.492	$GPGGA,180102,2549.8881,N,07925.4236,W,1,11,1.6,19,M,,M,,*6C
06/18/2015	18:01:02.622	$GPGGA,180103,2549.8889,N,07925.4236,W,1,11,1.6,19,M,,M,,*65
06/18/2015	18:01:03.694	$GPGGA,180104,2549.8899,N,07925.4238,W,1,11,1.6,19,M,,M,,*6D
06/18/2015	18:01:04.595	$GPGGA,180105,2549.8907,N,07925.4239,W,1,11,1.6,20,M,,M,,*61
06/18/2015	18:01:05.682	$GPGGA,180106,2549.8915,N,07925.4239,W,1,11,1.6,20,M,,M,,*61
06/18/2015	18:01:06.603	$GPGGA,180107,2549.8925,N,07925.4239,W,1,11,1.6,20,M,,M,,*63
06/18/2015	18:01:07.682	$GPGGA,180108,2549.8932,N,07925.4241,W,1,11,1.6,20,M,,M,,*65
06/18/2015	18:01:08.595	$GPGGA,180109,2549.8942,N,07925.4241,W,1,11,1.6,20,M,,M,,*63
06/18/2015	18:01:09.672	$GPGGA,180110,2549.8951,N,07925.4242,W,1,11,1.6,20,M,,M,,*6A
06/18/2015	18:01:10.581	$GPGGA,180111,2549.8958,N,07925.4242,W,1,11,1.6,20,M,,M,,*62
06/18/2015	18:01:11.652	$GPGGA,180112,2549.8968,N,07925.4243,W,1,11,1.6,19,M,,M,,*69
06/18/2015	18:01:12.582	$GPGGA,180113,2549.8976,N,07925.4243,W,1,11,1.6,19,M,,M,,*67
06/18/2015	18:01:13.672	$GPGGA,180114,2549.8986,N,07925.4243,W,1,11,1.6,19,M,,M,,*6F
06/18/2015	18:01:14.582	$GPGGA,180115,2549.8994,N,07925.4243,W,1,11,1.6,19,M,,M,,*6D
06/18/2015	18:01:15.662	$GPGGA,180116,2549.9003,N,07925.4243,W,1,11,1.6,19,M,,M,,*68
06/18/2015	18:01:16.572	$GPGGA,180117,2549.9012,N,07925.4243,W,1,11,1.6,19,M,,M,,*69
06/18/2015	18:01:17.542	$GPGGA,180118,2549.9021,N,07925.4243,W,1,11,1.6,19,M,,M,,*66
06/18/2015	18:01:18.572	$GPGGA,180119,2549.9030,N,07925.4245,W,1,11,1.6,19,M,,M,,*61
06/18/2015	18:01:19.632	$GPGGA,180120,2549.9039,N,07925.4244,W,1,11,1.6,19,M,,M,,*63
06/18/2015	18:01:20.532	$GPGGA,180121,2549.9048,N,07925.4243,W,1,11,1.6,19,M,,M,,*63
06/18/2015	18:01:21.662	$GPGGA,180122,2549.9057,N,07925.4243,W,1,11,1.6,19,M,,M,,*6E
06/18/2015	18:01:22.532	$GPGGA,180123,2549.9065,N,07925.4243,W,1,11,1.6,19,M,,M,,*6E
06/18/2015	18:01:23.642	$GPGGA,180124,2549.9073,N,07925.4242,W,1,11,1.6,19,M,,M,,*6F
06/18/2015	18:01:24.562	$GPGGA,180125,2549.9083,N,07925.4242,W,1,11,1.6,19,M,,M,,*61
06/18/2015	18:01:25.622	$GPGGA,180126,2549.9091,N,07925.4242,W,1,11,1.6,19,M,,M,,*61
06/18/2015	18:01:26.522	$GPGGA,180127,2549.9099,N,07925.4241,W,1,11,1.6,19,M,,M,,*6B
06/18/2015	18:01:27.621	$GPGGA,180128,2549.9109,N,07925.4241,W,1,11,1.6,18,M,,M,,*6D
06/18/2015	18:01:28.512	$GPGGA,180129,2549.9117,N,07925.4241,W,1,11,1.6,18,M,,M,,*63
06/18/2015	18:01:29.622	$GPGGA,180130,2549.9127,N,07925.4240,W,1,11,1.6,18,M,,M,,*69
06/18/2015	18:01:30.552	$GPGGA,180131,2549.9135,N,07925.4241,W,1,11,1.6,18,M,,M,,*6A
06/18/2015	18:01:31.532	$GPGGA,180132,2549.9144,N,07925.4239,W,1,11,1.6,18,M,,M,,*60
06/18/2015	18:01:32.562	$GPGGA,180133,2549.9152,N,07925.4239,W,1,11,1.6,18,M,,M,,*66
06/18/2015	18:01:33.643	$GPGGA,180134,2549.9159,N,07925.4239,W,1,11,1.6,18,M,,M,,*6A
06/18/2015	18:01:34.632	$GPGGA,180135,2549.9167,N,07925.4239,W,1,11,1.6,18,M,,M,,*66
06/18/2015	18:01:35.612	$GPGGA,180136,2549.9177,N,07925.4239,W,1,11,1.6,18,M,,M,,*64
06/18/2015	18:01:36.542	$GPGGA,180137,2549.9185,N,07925.4239,W,1,11,1.6,18,M,,M,,*68
06/18/2015	18:01:37.595	$GPGGA,180138,2549.9192,N,07925.4239,W,1,11,1.6,18,M,,M,,*61
06/18/2015	18:01:38.602	$GPGGA,180139,2549.9200,N,07925.4239,W,1,11,1.6,18,M,,M,,*68
06/18/2015	18:01:39.632	$GPGGA,180140,2549.9207,N,07925.4239,W,1,11,1.6,18,M,,M,,*61
06/18/2015	18:01:40.552	$GPGGA,180141,2549.9213,N,07925.4241,W,1,11,1.9,18,M,,M,,*65
06/18/2015	18:01:41.592	$GPGGA,180142,2549.9220,N,07925.4241,W,1,10,1.6,19,M,,M,,*69
06/18/2015	18:01:42.532	$GPGGA,180143,2549.9225,N,07925.4241,W,1,10,2.0,19,M,,M,,*68
06/18/2015	18:01:43.592	$GPGGA,180144,2549.9234,N,07925.4239,W,1,10,1.6,19,M,,M,,*65
06/18/2015	18:01:44.582	$GPGGA,180145,2549.9240,N,07925.4236,W,1,10,1.6,19,M,,M,,*68
06/18/2015	18:01:45.621	$GPGGA,180146,2549.9249,N,07925.4235,W,1,11,2.0,19,M,,M,,*65
06/18/2015	18:01:46.593	$GPGGA,180147,2549.9256,N,07925.4233,W,1,11,1.6,19,M,,M,,*69
06/18/2015	18:01:47.632	$GPGGA,180148,2549.9264,N,07925.4230,W,1,11,1.6,19,M,,M,,*64
06/18/2015	18:01:48.582	$GPGGA,180149,2549.9272,N,07925.4228,W,1,11,1.6,20,M,,M,,*61
06/18/2015	18:01:49.602	$GPGGA,180150,2549.9279,N,07925.4226,W,1,11,1.6,20,M,,M,,*6C
06/18/2015	18:01:50.572	$GPGGA,180151,2549.9286,N,07925.4225,W,1,11,1.6,20,M,,M,,*6E
06/18/2015	18:01:51.632	$GPGGA,180152,2549.9294,N,07925.4222,W,1,11,1.6,20,M,,M,,*69
06/18/2015	18:01:52.572	$GPGGA,180153,2549.9303,N,07925.4219,W,1,11,1.6,20,M,,M,,*6F
06/18/2015	18:01:53.602	$GPGGA,180154,2549.9312,N,07925.4217,W,1,10,1.6,20,M,,M,,*67
06/18/2015	18:01:54.562	$GPGGA,180155,2549.9319,N,07925.4213,W,1,10,1.6,20,M,,M,,*69
06/18/2015	18:01:55.662	$GPGGA,180156,2549.9328,N,07925.4210,W,1,11,1.6,20,M,,M,,*6A
06/18/2015	18:01:56.562	$GPGGA,180157,2549.9336,N,07925.4206,W,1,11,1.6,20,M,,M,,*63
06/18/2015	18:01:57.582	$GPGGA,180158,2549.9344,N,07925.4203,W,1,10,1.9,20,M,,M,,*62
06/18/2015	18:01:58.562	$GPGGA,180159,2549.9354,N,07925.4199,W,1,10,1.6,21,M,,M,,*6C
06/18/2015	18:01:59.642	$GPGGA,180200,2549.9361,N,07925.4195,W,1,10,1.6,21,M,,M,,*69
06/18/2015	18:02:00.562	$GPGGA,180201,2549.9361,N,07925.4195,W,1,10,1.6,21,M,,M,,*68
06/18/2015	18:02:01.582	$GPGGA,180202,2549.9377,N,07925.4188,W,1,10,1.6,21,M,,M,,*60
06/18/2015	18:02:02.551	$GPGGA,180203,2549.9384,N,07925.4184,W,1,10,1.6,21,M,,M,,*61
06/18/2015	18:02:03.602	$GPGGA,180204,2549.9391,N,07925.4181,W,1,10,1.6,21,M,,M,,*67
06/18/2015	18:02:04.542	$GPGGA,180205,2549.9398,N,07925.4176,W,1,10,1.6,21,M,,M,,*67
06/18/2015	18:02:05.593	$GPGGA,180206,2549.9406,N,07925.4171,W,1,11,1.6,21,M,,M,,*62
06/18/2015	18:02:06.562	$GPGGA,180207,2549.9413,N,07925.4166,W,1,11,1.6,21,M,,M,,*61
06/18/2015	18:02:07.593	$GPGGA,180208,2549.9422,N,07925.4160,W,1,11,2.0,21,M,,M,,*6F
06/18/2015	18:02:08.532	$GPGGA,180209,2549.9428,N,07925.4156,W,1,11,2.0,21,M,,M,,*61
06/18/2015	18:02:09.582	$GPGGA,180210,2549.9438,N,07925.4148,W,1,11,1.6,21,M,,M,,*62
06/18/2015	18:02:10.542	$GPGGA,180211,2549.9445,N,07925.4142,W,1,11,1.6,21,M,,M,,*63
06/18/2015	18:02:11.602	$GPGGA,180212,2549.9453,N,07925.4136,W,1,11,1.6,21,M,,M,,*64
06/18/2015	18:02:12.542	$GPGGA,180213,2549.9460,N,07925.4130,W,1,11,1.6,21,M,,M,,*63
06/18/2015	18:02:13.542	$GPGGA,180214,2549.9460,N,07925.4130,W,1,11,1.6,21,M,,M,,*64
06/18/2015	18:02:14.542	$GPGGA,180215,2549.9475,N,07925.4116,W,1,11,2.0,21,M,,M,,*60
06/18/2015	18:02:15.582	$GPGGA,180216,2549.9475,N,07925.4116,W,1,10,2.0,21,M,,M,,*62
06/18/2015	18:02:16.532	$GPGGA,180217,2549.9484,N,07925.4109,W,1,10,2.0,21,M,,M,,*63
06/18/2015	18:02:17.582	$GPGGA,180218,2549.9498,N,07925.4096,W,1,10,2.0,21,M,,M,,*66
06/18/2015	18:02:18.632	$GPGGA,180219,2549.9506,N,07925.4088,W,1,10,2.0,21,M,,M,,*6E
06/18/2015	18:02:19.662	$GPGGA,180220,2549.9506,N,07925.4088,W,1,11,1.6,21,M,,M,,*60
06/18/2015	18:02:20.611	$GPGGA,180221,2549.9518,N,07925.4076,W,1,11,1.6,21,M,,M,,*6F
06/18/2015	18:02:21.632	$GPGGA,180222,2549.9525,N,07925.4069,W,1,11,1.6,21,M,,M,,*6C
06/18/2015	18:02:22.512	$GPGGA,180223,2549.9532,N,07925.4063,W,1,11,1.6,20,M,,M,,*60
06/18/2015	18:02:23.652	$GPGGA,180224,2549.9539,N,07925.4056,W,1,11,1.6,20,M,,M,,*6A
06/18/2015	18:02:24.602	$GPGGA,180225,2549.9547,N,07925.4049,W,1,11,1.6,20,M,,M,,*6C
06/18/2015	18:02:25.532	$GPGGA,180226,2549.9547,N,07925.4049,W,1,11,1.6,20,M,,M,,*6F
06/18/2015	18:02:26.532	$GPGGA,180227,2549.9560,N,07925.4035,W,1,11,2.0,20,M,,M,,*65
06/18/2015	18:02:27.642	$GPGGA,180228,2549.9568,N,07925.4028,W,1,10,2.0,20,M,,M,,*6F
06/18/2015	18:02:28.512	$GPGGA,180229,2549.9575,N,07925.4021,W,1,10,2.0,20,M,,M,,*6B
06/18/2015	18:02:29.622	$GPGGA,180230,2549.9581,N,07925.4015,W,1,11,1.6,20,M,,M,,*6B
06/18/2015	18:02:30.602	$GPGGA,180231,2549.9586,N,07925.4007,W,1,11,1.6,20,M,,M,,*6E
06/18/2015	18:02:31.612	$GPGGA,180232,2549.9594,N,07925.4001,W,1,11,1.6,20,M,,M,,*68
06/18/2015	18:02:32.512	$GPGGA,180233,2549.9594,N,07925.4001,W,1,11,1.6,20,M,,M,,*69
06/18/2015	18:02:33.612	$GPGGA,180234,2549.9608,N,07925.3986,W,1,10,1.6,20,M,,M,,*68
06/18/2015	18:02:34.582	$GPGGA,180235,2549.9615,N,07925.3980,W,1,10,1.6,20,M,,M,,*63
06/18/2015	18:02:35.622	$GPGGA,180236,2549.9622,N,07925.3972,W,1,11,1.6,20,M,,M,,*68
06/18/2015	18:02:36.582	$GPGGA,180237,2549.9630,N,07925.3965,W,1,11,1.6,20,M,,M,,*6C
06/18/2015	18:02:37.601	$GPGGA,180238,2549.9636,N,07925.3957,W,1,11,1.6,20,M,,M,,*64
06/18/2015	18:02:38.582	$GPGGA,180239,2549.9644,N,07925.3949,W,1,11,1.6,20,M,,M,,*6F
06/18/2015	18:02:39.612	$GPGGA,180240,2549.9652,N,07925.3942,W,1,10,1.6,20,M,,M,,*6C
06/18/2015	18:02:40.572	$GPGGA,180241,2549.9659,N,07925.3934,W,1,10,1.6,20,M,,M,,*67
06/18/2015	18:02:41.594	$GPGGA,180242,2549.9666,N,07925.3927,W,1,11,1.6,20,M,,M,,*6B
06/18/2015	18:02:42.562	$GPGGA,180243,2549.9675,N,07925.3919,W,1,11,1.6,20,M,,M,,*65
06/18/2015	18:02:43.582	$GPGGA,180244,2549.9683,N,07925.3911,W,1,10,1.6,20,M,,M,,*62
06/18/2015	18:02:44.572	$GPGGA,180245,2549.9690,N,07925.3903,W,1,10,1.6,20,M,,M,,*62
06/18/2015	18:02:45.562	$GPGGA,180246,2549.9697,N,07925.3896,W,1,11,1.6,20,M,,M,,*6A
06/18/2015	18:02:48.052	$GPGGA,180248,2549.9713,N,07925.3880,W,1,11,1.6,20,M,,M,,*6E
06/18/2015	18:02:48.572	$GPGGA,180249,2549.9720,N,07925.3872,W,1,11,1.6,20,M,,M,,*62
06/18/2015	18:02:49.593	$GPGGA,180250,2549.9727,N,07925.3864,W,1,11,1.6,20,M,,M,,*6A
06/18/2015	18:02:50.552	$GPGGA,180251,2549.9735,N,07925.3856,W,1,11,1.6,20,M,,M,,*69
06/18/2015	18:02:51.552	$GPGGA,180252,2549.9744,N,07925.3848,W,1,11,1.6,20,M,,M,,*63
06/18/2015	18:02:52.562	$GPGGA,180253,2549.9751,N,07925.3840,W,1,11,1.6,20,M,,M,,*6E
06/18/2015	18:02:54.572	$GPGGA,180255,2549.9767,N,07925.3824,W,1,11,1.6,19,M,,M,,*65
06/18/2015	18:02:55.571	$GPGGA,180256,2549.9774,N,07925.3816,W,1,10,2.0,19,M,,M,,*61
06/18/2015	18:02:56.532	$GPGGA,180257,2549.9782,N,07925.3809,W,1,10,2.0,19,M,,M,,*67
06/18/2015	18:02:57.552	$GPGGA,180258,2549.9789,N,07925.3801,W,1,11,1.6,19,M,,M,,*6F
06/18/2015	18:02:58.542	$GPGGA,180259,2549.9798,N,07925.3792,W,1,11,1.6,19,M,,M,,*6B
06/18/2015	18:02:59.572	$GPGGA,180300,2549.9807,N,07925.3784,W,1,11,1.6,19,M,,M,,*68
06/18/2015	18:03:00.552	$GPGGA,180301,2549.9814,N,07925.3775,W,1,11,2.0,20,M,,M,,*6A
06/18/2015	18:03:01.532	$GPGGA,180302,2549.9823,N,07925.3766,W,1,10,2.0,20,M,,M,,*6E
06/18/2015	18:03:02.532	$GPGGA,180303,2549.9829,N,07925.3758,W,1,10,2.0,20,M,,M,,*68
06/18/2015	18:03:03.562	$GPGGA,180304,2549.9838,N,07925.3751,W,1,11,1.6,20,M,,M,,*62
06/18/2015	18:03:04.532	$GPGGA,180305,2549.9846,N,07925.3742,W,1,11,1.6,20,M,,M,,*68
06/18/2015	18:03:05.512	$GPGGA,180306,2549.9854,N,07925.3733,W,1,11,1.6,20,M,,M,,*6E
06/18/2015	18:03:06.622	$GPGGA,180307,2549.9863,N,07925.3724,W,1,11,1.6,20,M,,M,,*6D
06/18/2015	18:03:07.622	$GPGGA,180308,2549.9872,N,07925.3715,W,1,11,1.6,20,M,,M,,*60
06/18/2015	18:03:08.512	$GPGGA,180309,2549.9879,N,07925.3707,W,1,11,1.6,20,M,,M,,*69
06/18/2015	18:03:09.632	$GPGGA,180310,2549.9886,N,07925.3698,W,1,11,1.6,20,M,,M,,*66
06/18/2015	18:03:10.512	$GPGGA,180311,2549.9896,N,07925.3689,W,1,11,1.6,20,M,,M,,*66
06/18/2015	18:03:11.622	$GPGGA,180312,2549.9904,N,07925.3680,W,1,11,1.6,20,M,,M,,*66
06/18/2015	18:03:12.491	$GPGGA,180313,2549.9912,N,07925.3671,W,1,11,1.6,20,M,,M,,*6E
06/18/2015	18:03:13.631	$GPGGA,180314,2549.9921,N,07925.3662,W,1,11,1.6,20,M,,M,,*6B
06/18/2015	18:03:14.501	$GPGGA,180315,2549.9929,N,07925.3653,W,1,11,1.6,20,M,,M,,*60
06/18/2015	18:03:15.621	$GPGGA,180316,2549.9937,N,07925.3644,W,1,11,1.6,20,M,,M,,*6A
06/18/2015	18:03:16.501	$GPGGA,180317,2549.9946,N,07925.3635,W,1,11,1.6,20,M,,M,,*6B
06/18/2015	18:03:17.601	$GPGGA,180318,2549.9953,N,07925.3626,W,1,11,1.6,20,M,,M,,*62
06/18/2015	18:03:18.585	$GPGGA,180319,2549.9961,N,07925.3617,W,1,11,1.6,20,M,,M,,*60
06/18/2015	18:03:19.601	$GPGGA,180320,2549.9969,N,07925.3608,W,1,11,1.6,20,M,,M,,*6C
06/18/2015	18:03:20.501	$GPGGA,180321,2549.9977,N,07925.3599,W,1,11,1.6,20,M,,M,,*69
06/18/2015	18:03:21.582	$GPGGA,180322,2549.9984,N,07925.3589,W,1,10,1.6,20,M,,M,,*66
06/18/2015	18:03:22.571	$GPGGA,180323,2549.9994,N,07925.3580,W,1,10,1.6,19,M,,M,,*65
06/18/2015	18:03:23.592	$GPGGA,180324,2550.0002,N,07925.3571,W,1,11,1.6,19,M,,M,,*6A
06/18/2015	18:03:24.572	$GPGGA,180325,2550.0009,N,07925.3562,W,1,11,1.6,19,M,,M,,*62
06/18/2015	18:03:25.612	$GPGGA,180326,2550.0015,N,07925.3554,W,1,11,1.6,19,M,,M,,*69
06/18/2015	18:03:26.562	$GPGGA,180327,2550.0023,N,07925.3546,W,1,11,1.6,19,M,,M,,*6E
06/18/2015	18:03:27.582	$GPGGA,180328,2550.0031,N,07925.3536,W,1,11,1.6,19,M,,M,,*65
06/18/2015	18:03:28.562	$GPGGA,180329,2550.0038,N,07925.3527,W,1,11,1.6,19,M,,M,,*6D
06/18/2015	18:03:29.592	$GPGGA,180330,2550.0045,N,07925.3518,W,1,10,1.9,19,M,,M,,*6D
06/18/2015	18:03:30.561	$GPGGA,180331,2550.0053,N,07925.3509,W,1,10,1.6,19,M,,M,,*64
06/18/2015	18:03:31.561	$GPGGA,180332,2550.0062,N,07925.3500,W,1,10,1.9,19,M,,M,,*63
06/18/2015	18:03:32.561	$GPGGA,180333,2550.0069,N,07925.3490,W,1,10,1.9,19,M,,M,,*61
06/18/2015	18:03:33.541	$GPGGA,180334,2550.0076,N,07925.3481,W,1,10,1.9,19,M,,M,,*68
06/18/2015	18:03:34.551	$GPGGA,180335,2550.0084,N,07925.3472,W,1,10,1.9,19,M,,M,,*68
06/18/2015	18:03:35.571	$GPGGA,180336,2550.0091,N,07925.3462,W,1,10,1.9,19,M,,M,,*6E
06/18/2015	18:03:36.541	$GPGGA,180337,2550.0098,N,07925.3452,W,1,10,1.6,19,M,,M,,*6A
06/18/2015	18:03:37.571	$GPGGA,180338,2550.0106,N,07925.3443,W,1,10,1.9,19,M,,M,,*6C
06/18/2015	18:03:38.551	$GPGGA,180339,2550.0113,N,07925.3433,W,1,10,1.9,19,M,,M,,*6E
06/18/2015	18:03:39.571	$GPGGA,180340,2550.0120,N,07925.3423,W,1,10,1.9,19,M,,M,,*61
06/18/2015	18:03:40.531	$GPGGA,180341,2550.0127,N,07925.3414,W,1,10,1.9,19,M,,M,,*63
06/18/2015	18:03:41.542	$GPGGA,180342,2550.0135,N,07925.3402,W,1,10,1.9,19,M,,M,,*64
06/18/2015	18:03:42.532	$GPGGA,180343,2550.0143,N,07925.3392,W,1,10,1.6,19,M,,M,,*65
06/18/2015	18:03:43.562	$GPGGA,180344,2550.0149,N,07925.3382,W,1,10,1.9,19,M,,M,,*66
06/18/2015	18:03:44.532	$GPGGA,180345,2550.0156,N,07925.3372,W,1,10,1.9,19,M,,M,,*66
06/18/2015	18:03:45.522	$GPGGA,180346,2550.0164,N,07925.3363,W,1,10,1.9,18,M,,M,,*65
06/18/2015	18:03:46.532	$GPGGA,180347,2550.0171,N,07925.3353,W,1,10,1.9,18,M,,M,,*63
06/18/2015	18:03:47.571	$GPGGA,180348,2550.0178,N,07925.3343,W,1,11,1.6,18,M,,M,,*6A
06/18/2015	18:03:48.531	$GPGGA,180349,2550.0183,N,07925.3335,W,1,11,1.9,18,M,,M,,*61
06/18/2015	18:03:49.541	$GPGGA,180350,2550.0189,N,07925.3329,W,1,11,1.6,18,M,,M,,*61
06/18/2015	18:03:50.511	$GPGGA,180351,2550.0196,N,07925.3322,W,1,11,1.6,18,M,,M,,*65
06/18/2015	18:03:51.521	$GPGGA,180352,2550.0201,N,07925.3311,W,1,11,1.6,18,M,,M,,*6B
06/18/2015	18:03:52.521	$GPGGA,180353,2550.0208,N,07925.3301,W,1,11,1.9,18,M,,M,,*6D
06/18/2015	18:03:53.531	$GPGGA,180354,2550.0217,N,07925.3290,W,1,10,1.9,18,M,,M,,*6C
06/18/2015	18:03:54.501	$GPGGA,180355,2550.0224,N,07925.3280,W,1,10,1.9,18,M,,M,,*6C
06/18/2015	18:03:55.551	$GPGGA,180356,2550.0230,N,07925.3270,W,1,10,1.9,18,M,,M,,*65
06/18/2015	18:03:56.511	$GPGGA,180357,2550.0237,N,07925.3262,W,1,10,1.9,18,M,,M,,*60
06/18/2015	18:03:57.501	$GPGGA,180358,2550.0244,N,07925.3253,W,1,11,1.6,18,M,,M,,*67
06/18/2015	18:03:58.592	$GPGGA,180359,2550.0250,N,07925.3244,W,1,11,1.6,18,M,,M,,*65
06/18/2015	18:03:59.642	$GPGGA,180400,2550.0257,N,07925.3234,W,1,11,1.6,18,M,,M,,*6E
06/18/2015	18:04:00.492	$GPGGA,180401,2550.0265,N,07925.3224,W,1,11,1.9,18,M,,M,,*60
06/18/2015	18:04:01.592	$GPGGA,180402,2550.0271,N,07925.3215,W,1,10,1.9,18,M,,M,,*65
06/18/2015	18:04:02.512	$GPGGA,180403,2550.0279,N,07925.3205,W,1,10,1.6,18,M,,M,,*62
06/18/2015	18:04:03.602	$GPGGA,180404,2550.0286,N,07925.3194,W,1,10,1.9,18,M,,M,,*61
06/18/2015	18:04:04.492	$GPGGA,180405,2550.0293,N,07925.3183,W,1,10,1.9,18,M,,M,,*62
06/18/2015	18:04:05.481	$GPGGA,180406,2550.0301,N,07925.3173,W,1,10,1.9,18,M,,M,,*64
06/18/2015	18:04:06.571	$GPGGA,180407,2550.0308,N,07925.3163,W,1,10,1.9,18,M,,M,,*6D
06/18/2015	18:04:07.611	$GPGGA,180408,2550.0315,N,07925.3154,W,1,10,1.9,18,M,,M,,*6A
06/18/2015	18:04:08.571	$GPGGA,180409,2550.0322,N,07925.3145,W,1,10,1.6,18,M,,M,,*60
06/18/2015	18:04:09.591	$GPGGA,180410,2550.0329,N,07925.3136,W,1,11,1.6,18,M,,M,,*66
06/18/2015	18:04:10.571	$GPGGA,180411,2550.0336,N,07925.3127,W,1,11,1.6,18,M,,M,,*69
06/18/2015	18:04:11.621	$GPGGA,180412,2550.0342,N,07925.3117,W,1,11,1.6,18,M,,M,,*6A
06/18/2015	18:04:12.561	$GPGGA,180413,2550.0351,N,07925.3108,W,1,11,1.6,18,M,,M,,*67
06/18/2015	18:04:13.591	$GPGGA,180414,2550.0358,N,07925.3098,W,1,11,1.6,18,M,,M,,*61
06/18/2015	18:04:14.571	$GPGGA,180415,2550.0366,N,07925.3088,W,1,11,1.6,18,M,,M,,*6C
06/18/2015	18:04:15.581	$GPGGA,180416,2550.0373,N,07925.3078,W,1,10,1.9,18,M,,M,,*6A
06/18/2015	18:04:16.562	$GPGGA,180417,2550.0381,N,07925.3069,W,1,10,1.6,18,M,,M,,*69
06/18/2015	18:04:17.552	$GPGGA,180418,2550.0388,N,07925.3061,W,1,11,1.6,18,M,,M,,*66
06/18/2015	18:04:18.562	$GPGGA,180419,2550.0396,N,07925.3050,W,1,11,1.6,18,M,,M,,*6A
06/18/2015	18:04:19.582	$GPGGA,180420,2550.0403,N,07925.3041,W,1,10,1.9,18,M,,M,,*65
06/18/2015	18:04:20.562	$GPGGA,180421,2550.0412,N,07925.3031,W,1,10,1.6,18,M,,M,,*6C
06/18/2015	18:04:21.572	$GPGGA,180422,2550.0420,N,07925.3021,W,1,11,1.6,18,M,,M,,*6E
06/18/2015	18:04:22.551	$GPGGA,180423,2550.0428,N,07925.3011,W,1,11,1.6,18,M,,M,,*64
06/18/2015	18:04:23.591	$GPGGA,180424,2550.0435,N,07925.3002,W,1,11,1.6,18,M,,M,,*6D
06/18/2015	18:04:25.572	$GPGGA,180426,2550.0452,N,07925.2982,W,1,11,1.6,18,M,,M,,*6E
06/18/2015	18:04:26.551	$GPGGA,180427,2550.0460,N,07925.2973,W,1,11,1.6,18,M,,M,,*60
06/18/2015	18:04:27.541	$GPGGA,180428,2550.0468,N,07925.2963,W,1,11,1.6,18,M,,M,,*66
06/18/2015	18:04:29.561	$GPGGA,180430,2550.0485,N,07925.2945,W,1,11,1.6,18,M,,M,,*68
06/18/2015	18:04:30.541	$GPGGA,180431,2550.0492,N,07925.2936,W,1,11,1.6,18,M,,M,,*6B
06/18/2015	18:04:31.531	$GPGGA,180432,2550.0500,N,07925.2927,W,1,11,1.6,18,M,,M,,*62
06/18/2015	18:04:32.551	$GPGGA,180433,2550.0508,N,07925.2918,W,1,11,1.6,18,M,,M,,*67
06/18/2015	18:04:33.522	$GPGGA,180434,2550.0517,N,07925.2908,W,1,11,1.6,18,M,,M,,*6F
06/18/2015	18:04:34.532	$GPGGA,180435,2550.0525,N,07925.2899,W,1,11,1.6,18,M,,M,,*66
06/18/2015	18:04:35.642	$GPGGA,180436,2550.0532,N,07925.2890,W,1,11,1.6,18,M,,M,,*6A
06/18/2015	18:04:36.532	$GPGGA,180437,2550.0542,N,07925.2880,W,1,11,1.6,18,M,,M,,*6D
06/18/2015	18:04:37.552	$GPGGA,180438,2550.0549,N,07925.2871,W,1,11,1.6,18,M,,M,,*67
06/18/2015	18:04:38.532	$GPGGA,180439,2550.0557,N,07925.2862,W,1,11,1.6,18,M,,M,,*6B
06/18/2015	18:04:39.661	$GPGGA,180440,2550.0565,N,07925.2853,W,1,11,1.6,18,M,,M,,*66
06/18/2015	18:04:40.601	$GPGGA,180441,2550.0573,N,07925.2844,W,1,11,1.6,18,M,,M,,*66
06/18/2015	18:04:41.521	$GPGGA,180442,2550.0580,N,07925.2834,W,1,11,1.6,18,M,,M,,*6E
06/18/2015	18:04:42.521	$GPGGA,180443,2550.0590,N,07925.2824,W,1,11,1.6,18,M,,M,,*6F
06/18/2015	18:04:43.511	$GPGGA,180444,2550.0598,N,07925.2815,W,1,11,1.6,18,M,,M,,*62
06/18/2015	18:04:44.501	$GPGGA,180445,2550.0607,N,07925.2806,W,1,11,1.6,18,M,,M,,*64
06/18/2015	18:04:45.931	$GPGGA,180446,2550.0615,N,07925.2796,W,1,11,1.6,18,M,,M,,*62
06/18/2015	18:04:46.611	$GPGGA,180447,2550.0623,N,07925.2787,W,1,11,1.6,18,M,,M,,*66
06/18/2015	18:04:47.611	$GPGGA,180448,2550.0631,N,07925.2778,W,1,11,1.6,18,M,,M,,*6A
06/18/2015	18:04:48.511	$GPGGA,180449,2550.0640,N,07925.2769,W,1,11,1.6,18,M,,M,,*6D
06/18/2015	18:04:49.631	$GPGGA,180450,2550.0648,N,07925.2760,W,1,11,1.6,18,M,,M,,*64
06/18/2015	18:04:50.582	$GPGGA,180451,2550.0656,N,07925.2751,W,1,11,1.6,17,M,,M,,*67
06/18/2015	18:04:51.602	$GPGGA,180452,2550.0665,N,07925.2742,W,1,11,1.6,17,M,,M,,*66
06/18/2015	18:04:52.592	$GPGGA,180453,2550.0673,N,07925.2732,W,1,11,1.6,17,M,,M,,*67
06/18/2015	18:04:53.612	$GPGGA,180454,2550.0681,N,07925.2723,W,1,11,1.6,17,M,,M,,*6D
06/18/2015	18:04:54.592	$GPGGA,180455,2550.0690,N,07925.2713,W,1,11,1.6,17,M,,M,,*6F
06/18/2015	18:04:55.612	$GPGGA,180456,2550.0696,N,07925.2704,W,1,11,1.6,17,M,,M,,*6C
06/18/2015	18:04:56.572	$GPGGA,180457,2550.0706,N,07925.2695,W,1,11,1.6,17,M,,M,,*6C
06/18/2015	18:04:57.581	$GPGGA,180458,2550.0714,N,07925.2685,W,1,11,1.6,17,M,,M,,*61
06/18/2015	18:04:58.582	$GPGGA,180459,2550.0721,N,07925.2676,W,1,11,1.6,17,M,,M,,*6A
06/18/2015	18:04:59.631	$GPGGA,180500,2550.0728,N,07925.2667,W,1,11,1.6,17,M,,M,,*6E
06/18/2015	18:05:00.571	$GPGGA,180501,2550.0737,N,07925.2658,W,1,11,1.6,17,M,,M,,*6D
06/18/2015	18:05:01.591	$GPGGA,180502,2550.0746,N,07925.2650,W,1,11,1.6,17,M,,M,,*60
06/18/2015	18:05:02.571	$GPGGA,180503,2550.0753,N,07925.2640,W,1,11,1.6,17,M,,M,,*64
06/18/2015	18:05:03.571	$GPGGA,180504,2550.0760,N,07925.2631,W,1,11,1.6,17,M,,M,,*65
06/18/2015	18:05:04.561	$GPGGA,180505,2550.0768,N,07925.2622,W,1,11,1.6,17,M,,M,,*6E
06/18/2015	18:05:05.583	$GPGGA,180506,2550.0777,N,07925.2613,W,1,11,1.6,17,M,,M,,*61
06/18/2015	18:05:06.561	$GPGGA,180507,2550.0784,N,07925.2604,W,1,11,1.6,17,M,,M,,*6A
06/18/2015	18:05:07.581	$GPGGA,180508,2550.0790,N,07925.2595,W,1,11,1.6,17,M,,M,,*6B
06/18/2015	18:05:08.542	$GPGGA,180509,2550.0799,N,07925.2586,W,1,11,1.6,17,M,,M,,*61
06/18/2015	18:05:09.572	$GPGGA,180510,2550.0807,N,07925.2577,W,1,11,1.6,17,M,,M,,*6F
06/18/2015	18:05:10.552	$GPGGA,180511,2550.0815,N,07925.2567,W,1,11,1.6,17,M,,M,,*6C
06/18/2015	18:05:11.562	$GPGGA,180512,2550.0822,N,07925.2556,W,1,10,1.9,17,M,,M,,*67
06/18/2015	18:05:12.552	$GPGGA,180513,2550.0829,N,07925.2546,W,1,10,1.9,17,M,,M,,*6C
06/18/2015	18:05:13.552	$GPGGA,180514,2550.0839,N,07925.2536,W,1,10,1.9,17,M,,M,,*6D
06/18/2015	18:05:14.551	$GPGGA,180515,2550.0846,N,07925.2526,W,1,10,1.9,17,M,,M,,*65
06/18/2015	18:05:15.551	$GPGGA,180516,2550.0851,N,07925.2519,W,1,10,1.9,16,M,,M,,*6D
06/18/2015	18:05:16.551	$GPGGA,180517,2550.0858,N,07925.2509,W,1,10,1.6,16,M,,M,,*6B
06/18/2015	18:05:17.531	$GPGGA,180518,2550.0865,N,07925.2503,W,1,10,1.9,16,M,,M,,*6F
06/18/2015	18:05:18.541	$GPGGA,180519,2550.0872,N,07925.2493,W,1,10,1.6,16,M,,M,,*6F
06/18/2015	18:05:19.571	$GPGGA,180520,2550.0880,N,07925.2483,W,1,11,1.6,16,M,,M,,*68
06/18/2015	18:05:20.541	$GPGGA,180521,2550.0887,N,07925.2473,W,1,11,1.9,16,M,,M,,*6E
06/18/2015	18:05:21.521	$GPGGA,180522,2550.0894,N,07925.2463,W,1,10,1.9,16,M,,M,,*6F
06/18/2015	18:05:22.541	$GPGGA,180523,2550.0901,N,07925.2454,W,1,10,1.9,16,M,,M,,*67
06/18/2015	18:05:23.532	$GPGGA,180524,2550.0908,N,07925.2445,W,1,11,1.6,16,M,,M,,*67
06/18/2015	18:05:24.531	$GPGGA,180525,2550.0914,N,07925.2436,W,1,11,1.6,16,M,,M,,*6F
06/18/2015	18:05:25.541	$GPGGA,180526,2550.0920,N,07925.2426,W,1,11,1.6,16,M,,M,,*6A
06/18/2015	18:05:26.533	$GPGGA,180527,2550.0929,N,07925.2417,W,1,11,1.6,16,M,,M,,*60
06/18/2015	18:05:27.542	$GPGGA,180528,2550.0934,N,07925.2408,W,1,11,1.6,16,M,,M,,*6D
06/18/2015	18:05:28.522	$GPGGA,180529,2550.0941,N,07925.2399,W,1,11,1.6,16,M,,M,,*61
06/18/2015	18:05:29.502	$GPGGA,180530,2550.0948,N,07925.2390,W,1,10,1.9,16,M,,M,,*67
06/18/2015	18:05:30.622	$GPGGA,180531,2550.0955,N,07925.2380,W,1,10,1.6,16,M,,M,,*64
06/18/2015	18:05:31.562	$GPGGA,180532,2550.0961,N,07925.2370,W,1,10,1.6,16,M,,M,,*6F
06/18/2015	18:05:32.601	$GPGGA,180533,2550.0966,N,07925.2362,W,1,10,1.6,16,M,,M,,*6A
06/18/2015	18:05:33.511	$GPGGA,180534,2550.0974,N,07925.2353,W,1,11,1.6,16,M,,M,,*6D
06/18/2015	18:05:34.511	$GPGGA,180535,2550.0979,N,07925.2344,W,1,11,1.9,16,M,,M,,*68
06/18/2015	18:05:35.601	$GPGGA,180536,2550.0984,N,07925.2336,W,1,10,1.6,16,M,,M,,*62
06/18/2015	18:05:36.601	$GPGGA,180537,2550.0992,N,07925.2326,W,1,10,1.6,16,M,,M,,*65
06/18/2015	18:05:37.621	$GPGGA,180538,2550.0999,N,07925.2316,W,1,11,1.6,16,M,,M,,*63
06/18/2015	18:05:38.591	$GPGGA,180539,2550.1003,N,07925.2307,W,1,11,1.9,16,M,,M,,*66
06/18/2015	18:05:39.501	$GPGGA,180540,2550.1010,N,07925.2297,W,1,10,1.9,16,M,,M,,*63
06/18/2015	18:05:40.581	$GPGGA,180541,2550.1017,N,07925.2288,W,1,10,1.9,15,M,,M,,*68
06/18/2015	18:05:41.611	$GPGGA,180542,2550.1023,N,07925.2280,W,1,10,1.6,15,M,,M,,*6B
06/18/2015	18:05:42.591	$GPGGA,180543,2550.1028,N,07925.2270,W,1,10,1.9,15,M,,M,,*61
06/18/2015	18:05:43.632	$GPGGA,180544,2550.1035,N,07925.2262,W,1,10,1.6,15,M,,M,,*66
06/18/2015	18:05:44.572	$GPGGA,180545,2550.1041,N,07925.2253,W,1,10,1.6,16,M,,M,,*65
06/18/2015	18:05:45.572	$GPGGA,180546,2550.1046,N,07925.2243,W,1,11,1.6,16,M,,M,,*61
06/18/2015	18:05:46.572	$GPGGA,180547,2550.1053,N,07925.2233,W,1,11,1.9,16,M,,M,,*6C
06/18/2015	18:05:47.642	$GPGGA,180548,2550.1060,N,07925.2222,W,1,10,1.9,16,M,,M,,*62
06/18/2015	18:05:48.572	$GPGGA,180549,2550.1066,N,07925.2212,W,1,10,1.9,16,M,,M,,*66
06/18/2015	18:05:49.582	$GPGGA,180550,2550.1073,N,07925.2201,W,1,10,1.9,16,M,,M,,*68
06/18/2015	18:05:50.571	$GPGGA,180551,2550.1079,N,07925.2190,W,1,10,1.9,16,M,,M,,*68
06/18/2015	18:05:51.611	$GPGGA,180552,2550.1086,N,07925.2179,W,1,10,1.9,16,M,,M,,*6C
06/18/2015	18:05:52.561	$GPGGA,180553,2550.1093,N,07925.2169,W,1,10,1.6,16,M,,M,,*67
06/18/2015	18:05:53.591	$GPGGA,180554,2550.1099,N,07925.2158,W,1,11,1.9,16,M,,M,,*66
06/18/2015	18:05:54.561	$GPGGA,180555,2550.1106,N,07925.2146,W,1,11,1.9,16,M,,M,,*6F
06/18/2015	18:05:55.631	$GPGGA,180556,2550.1113,N,07925.2134,W,1,10,1.9,16,M,,M,,*6C
06/18/2015	18:05:56.561	$GPGGA,180557,2550.1120,N,07925.2122,W,1,10,1.9,16,M,,M,,*6A
06/18/2015	18:05:57.571	$GPGGA,180558,2550.1126,N,07925.2110,W,1,10,1.9,16,M,,M,,*62
06/18/2015	18:05:58.551	$GPGGA,180559,2550.1133,N,07925.2098,W,1,10,1.9,16,M,,M,,*66
06/18/2015	18:05:59.593	$GPGGA,180600,2550.1140,N,07925.2088,W,1,10,1.6,16,M,,M,,*63
06/18/2015	18:06:00.551	$GPGGA,180601,2550.1147,N,07925.2076,W,1,10,1.6,16,M,,M,,*64
06/18/2015	18:06:01.572	$GPGGA,180602,2550.1153,N,07925.2064,W,1,11,1.6,16,M,,M,,*60
06/18/2015	18:06:02.542	$GPGGA,180603,2550.1160,N,07925.2052,W,1,11,1.6,16,M,,M,,*64
06/18/2015	18:06:03.602	$GPGGA,180604,2550.1168,N,07925.2038,W,1,11,1.9,16,M,,M,,*68
06/18/2015	18:06:04.542	$GPGGA,180605,2550.1176,N,07925.2025,W,1,11,1.9,16,M,,M,,*6A
06/18/2015	18:06:05.542	$GPGGA,180606,2550.1182,N,07925.2013,W,1,10,1.6,16,M,,M,,*69
06/18/2015	18:06:06.562	$GPGGA,180607,2550.1190,N,07925.1999,W,1,10,1.6,17,M,,M,,*62
06/18/2015	18:06:07.581	$GPGGA,180608,2550.1198,N,07925.1986,W,1,11,1.6,17,M,,M,,*6A
06/18/2015	18:06:08.521	$GPGGA,180609,2550.1205,N,07925.1973,W,1,11,1.6,17,M,,M,,*66
06/18/2015	18:06:09.561	$GPGGA,180610,2550.1212,N,07925.1959,W,1,11,1.6,17,M,,M,,*60
06/18/2015	18:06:10.641	$GPGGA,180611,2550.1221,N,07925.1946,W,1,11,1.6,17,M,,M,,*6F
06/18/2015	18:06:11.571	$GPGGA,180612,2550.1230,N,07925.1932,W,1,11,1.6,17,M,,M,,*6F
06/18/2015	18:06:12.541	$GPGGA,180613,2550.1237,N,07925.1918,W,1,11,1.6,17,M,,M,,*61
06/18/2015	18:06:13.611	$GPGGA,180614,2550.1245,N,07925.1904,W,1,11,1.6,17,M,,M,,*6E
06/18/2015	18:06:14.531	$GPGGA,180615,2550.1254,N,07925.1890,W,1,11,1.6,17,M,,M,,*63
06/18/2015	18:06:15.583	$GPGGA,180616,2550.1262,N,07925.1875,W,1,11,1.6,18,M,,M,,*61
06/18/2015	18:06:16.541	$GPGGA,180617,2550.1270,N,07925.1861,W,1,11,1.6,18,M,,M,,*66
06/18/2015	18:06:17.521	$GPGGA,180618,2550.1277,N,07925.1845,W,1,11,1.6,18,M,,M,,*68
06/18/2015	18:06:18.632	$GPGGA,180619,2550.1287,N,07925.1831,W,1,11,1.6,18,M,,M,,*65
06/18/2015	18:06:19.572	$GPGGA,180620,2550.1295,N,07925.1816,W,1,11,1.6,18,M,,M,,*69
06/18/2015	18:06:20.532	$GPGGA,180621,2550.1302,N,07925.1801,W,1,11,1.6,18,M,,M,,*61
06/18/2015	18:06:21.622	$GPGGA,180622,2550.1312,N,07925.1786,W,1,11,1.6,18,M,,M,,*63
06/18/2015	18:06:22.602	$GPGGA,180623,2550.1320,N,07925.1771,W,1,11,1.6,18,M,,M,,*6B
06/18/2015	18:06:23.642	$GPGGA,180624,2550.1328,N,07925.1755,W,1,11,1.6,18,M,,M,,*62
06/18/2015	18:06:24.591	$GPGGA,180625,2550.1337,N,07925.1740,W,1,11,1.6,18,M,,M,,*69
06/18/2015	18:06:25.631	$GPGGA,180626,2550.1345,N,07925.1725,W,1,11,1.6,18,M,,M,,*6C
06/18/2015	18:06:26.591	$GPGGA,180627,2550.1353,N,07925.1709,W,1,11,1.6,18,M,,M,,*64
06/18/2015	18:06:27.631	$GPGGA,180628,2550.1360,N,07925.1694,W,1,11,1.6,18,M,,M,,*6E
06/18/2015	18:06:28.591	$GPGGA,180629,2550.1370,N,07925.1678,W,1,11,1.6,18,M,,M,,*6C
06/18/2015	18:06:29.601	$GPGGA,180630,2550.1378,N,07925.1663,W,1,11,1.6,18,M,,M,,*66
06/18/2015	18:06:30.591	$GPGGA,180631,2550.1385,N,07925.1647,W,1,11,1.6,18,M,,M,,*63
06/18/2015	18:06:31.611	$GPGGA,180632,2550.1393,N,07925.1631,W,1,11,1.6,18,M,,M,,*66
06/18/2015	18:06:32.581	$GPGGA,180633,2550.1402,N,07925.1615,W,1,11,1.6,18,M,,M,,*6E
06/18/2015	18:06:33.591	$GPGGA,180634,2550.1411,N,07925.1599,W,1,11,1.6,18,M,,M,,*6C
06/18/2015	18:06:34.583	$GPGGA,180635,2550.1418,N,07925.1583,W,1,11,1.9,18,M,,M,,*60
06/18/2015	18:06:35.582	$GPGGA,180636,2550.1425,N,07925.1568,W,1,11,1.6,18,M,,M,,*67
06/18/2015	18:06:36.562	$GPGGA,180637,2550.1435,N,07925.1552,W,1,11,1.6,18,M,,M,,*6E
06/18/2015	18:06:37.593	$GPGGA,180638,2550.1442,N,07925.1536,W,1,11,1.6,18,M,,M,,*63
06/18/2015	18:06:38.573	$GPGGA,180639,2550.1450,N,07925.1520,W,1,11,1.6,18,M,,M,,*66
06/18/2015	18:06:39.572	$GPGGA,180640,2550.1457,N,07925.1504,W,1,11,1.6,18,M,,M,,*69
06/18/2015	18:06:40.552	$GPGGA,180641,2550.1465,N,07925.1488,W,1,11,1.6,18,M,,M,,*6C
06/18/2015	18:06:41.585	$GPGGA,180642,2550.1472,N,07925.1471,W,1,10,1.9,18,M,,M,,*61
06/18/2015	18:06:42.571	$GPGGA,180643,2550.1480,N,07925.1455,W,1,10,1.9,18,M,,M,,*6B
06/18/2015	18:06:43.601	$GPGGA,180644,2550.1487,N,07925.1439,W,1,10,1.9,18,M,,M,,*61
06/18/2015	18:06:44.561	$GPGGA,180645,2550.1494,N,07925.1424,W,1,10,1.9,18,M,,M,,*6E
06/18/2015	18:06:45.571	$GPGGA,180646,2550.1503,N,07925.1408,W,1,10,1.9,18,M,,M,,*6C
06/18/2015	18:06:46.551	$GPGGA,180647,2550.1510,N,07925.1392,W,1,10,1.9,17,M,,M,,*64
06/18/2015	18:06:47.581	$GPGGA,180648,2550.1516,N,07925.1376,W,1,10,1.9,17,M,,M,,*67
06/18/2015	18:06:48.551	$GPGGA,180649,2550.1523,N,07925.1360,W,1,10,1.9,17,M,,M,,*67
06/18/2015	18:06:49.551	$GPGGA,180650,2550.1530,N,07925.1345,W,1,10,1.9,17,M,,M,,*6A
06/18/2015	18:06:50.551	$GPGGA,180651,2550.1537,N,07925.1329,W,1,10,1.9,17,M,,M,,*66
06/18/2015	18:06:51.571	$GPGGA,180652,2550.1544,N,07925.1314,W,1,10,1.9,17,M,,M,,*6F
06/18/2015	18:06:52.531	$GPGGA,180653,2550.1550,N,07925.1298,W,1,10,1.9,17,M,,M,,*6E
06/18/2015	18:06:53.552	$GPGGA,180654,2550.1557,N,07925.1283,W,1,10,1.9,17,M,,M,,*64
06/18/2015	18:06:54.532	$GPGGA,180655,2550.1563,N,07925.1267,W,1,10,1.9,16,M,,M,,*69
06/18/2015	18:06:55.562	$GPGGA,180656,2550.1570,N,07925.1252,W,1,11,1.6,16,M,,M,,*60
06/18/2015	18:06:56.542	$GPGGA,180657,2550.1576,N,07925.1237,W,1,11,1.6,16,M,,M,,*64
06/18/2015	18:06:57.642	$GPGGA,180658,2550.1583,N,07925.1222,W,1,11,1.6,16,M,,M,,*65
06/18/2015	18:06:58.532	$GPGGA,180659,2550.1588,N,07925.1207,W,1,11,1.6,16,M,,M,,*68
06/18/2015	18:06:59.551	$GPGGA,180700,2550.1595,N,07925.1192,W,1,11,1.6,16,M,,M,,*66
06/18/2015	18:07:00.611	$GPGGA,180701,2550.1601,N,07925.1177,W,1,11,1.6,16,M,,M,,*62
06/18/2015	18:07:01.551	$GPGGA,180702,2550.1606,N,07925.1162,W,1,11,1.6,16,M,,M,,*62
06/18/2015	18:07:02.531	$GPGGA,180703,2550.1612,N,07925.1148,W,1,11,1.6,16,M,,M,,*6E
06/18/2015	18:07:03.651	$GPGGA,180704,2550.1617,N,07925.1133,W,1,11,1.6,15,M,,M,,*63
06/18/2015	18:07:04.531	$GPGGA,180705,2550.1623,N,07925.1119,W,1,11,1.6,15,M,,M,,*6D
06/18/2015	18:07:05.511	$GPGGA,180706,2550.1628,N,07925.1105,W,1,11,1.6,15,M,,M,,*68
06/18/2015	18:07:06.501	$GPGGA,180707,2550.1635,N,07925.1090,W,1,11,1.9,15,M,,M,,*67
06/18/2015	18:07:08.651	$GPGGA,180709,2550.1646,N,07925.1061,W,1,11,1.6,15,M,,M,,*6C
06/18/2015	18:07:09.521	$GPGGA,180710,2550.1652,N,07925.1046,W,1,10,1.9,15,M,,M,,*6A
06/18/2015	18:07:10.511	$GPGGA,180711,2550.1657,N,07925.1030,W,1,10,1.9,16,M,,M,,*6C
06/18/2015	18:07:11.642	$GPGGA,180712,2550.1664,N,07925.1016,W,1,10,1.9,16,M,,M,,*6B
06/18/2015	18:07:12.512	$GPGGA,180713,2550.1670,N,07925.1001,W,1,10,1.9,16,M,,M,,*69
06/18/2015	18:07:13.602	$GPGGA,180714,2550.1675,N,07925.0985,W,1,10,1.9,16,M,,M,,*6F
06/18/2015	18:07:14.592	$GPGGA,180715,2550.1682,N,07925.0974,W,1,10,1.9,16,M,,M,,*68
06/18/2015	18:07:15.512	$GPGGA,180716,2550.1688,N,07925.0958,W,1,11,1.6,16,M,,M,,*61
06/18/2015	18:07:17.601	$GPGGA,180717,2550.1693,N,07925.0942,W,1,11,1.9,16,M,,M,,*6E
06/18/2015	18:07:17.631	$GPGGA,180718,2550.1700,N,07925.0926,W,1,10,1.9,16,M,,M,,*69
06/18/2015	18:07:18.582	$GPGGA,180719,2550.1707,N,07925.0911,W,1,10,1.9,16,M,,M,,*6B
06/18/2015	18:07:19.641	$GPGGA,180720,2550.1714,N,07925.0895,W,1,10,1.9,16,M,,M,,*6E
06/18/2015	18:07:20.591	$GPGGA,180721,2550.1720,N,07925.0880,W,1,10,1.9,16,M,,M,,*6C
06/18/2015	18:07:21.601	$GPGGA,180722,2550.1728,N,07925.0864,W,1,10,1.9,16,M,,M,,*6D
06/18/2015	18:07:22.483	$GPGGA,180723,2550.1734,N,07925.0849,W,1,10,1.9,16,M,,M,,*6E
06/18/2015	18:07:23.581	$GPGGA,180724,2550.1740,N,07925.0834,W,1,10,1.9,16,M,,M,,*60
06/18/2015	18:07:24.571	$GPGGA,180725,2550.1747,N,07925.0818,W,1,10,1.9,16,M,,M,,*68
06/18/2015	18:07:25.561	$GPGGA,180726,2550.1754,N,07925.0803,W,1,10,1.9,16,M,,M,,*63
06/18/2015	18:07:26.571	$GPGGA,180727,2550.1761,N,07925.0787,W,1,10,1.9,16,M,,M,,*67
06/18/2015	18:07:27.591	$GPGGA,180728,2550.1768,N,07925.0772,W,1,10,1.9,16,M,,M,,*6B
06/18/2015	18:07:28.572	$GPGGA,180729,2550.1776,N,07925.0757,W,1,10,1.9,16,M,,M,,*62
06/18/2015	18:07:29.572	$GPGGA,180730,2550.1782,N,07925.0741,W,1,10,1.9,16,M,,M,,*66
06/18/2015	18:07:30.552	$GPGGA,180731,2550.1789,N,07925.0726,W,1,10,1.9,16,M,,M,,*6D
06/18/2015	18:07:31.592	$GPGGA,180732,2550.1796,N,07925.0711,W,1,10,1.9,16,M,,M,,*64
06/18/2015	18:07:32.552	$GPGGA,180733,2550.1803,N,07925.0696,W,1,10,1.9,16,M,,M,,*68
06/18/2015	18:07:33.572	$GPGGA,180734,2550.1808,N,07925.0681,W,1,10,1.9,16,M,,M,,*62
06/18/2015	18:07:34.551	$GPGGA,180735,2550.1815,N,07925.0666,W,1,10,1.9,16,M,,M,,*66
06/18/2015	18:07:35.551	$GPGGA,180736,2550.1823,N,07925.0652,W,1,10,1.9,16,M,,M,,*67
06/18/2015	18:07:36.552	$GPGGA,180737,2550.1829,N,07925.0637,W,1,10,1.9,16,M,,M,,*6F
06/18/2015	18:07:37.551	$GPGGA,180738,2550.1836,N,07925.0623,W,1,10,1.9,16,M,,M,,*6B
06/18/2015	18:07:38.541	$GPGGA,180739,2550.1841,N,07925.0608,W,1,10,1.9,16,M,,M,,*63
06/18/2015	18:07:39.581	$GPGGA,180740,2550.1848,N,07925.0593,W,1,10,1.9,16,M,,M,,*65
06/18/2015	18:07:40.531	$GPGGA,180741,2550.1855,N,07925.0578,W,1,10,1.9,16,M,,M,,*6D
06/18/2015	18:07:41.561	$GPGGA,180742,2550.1861,N,07925.0563,W,1,10,1.9,15,M,,M,,*60
06/18/2015	18:07:42.531	$GPGGA,180743,2550.1868,N,07925.0549,W,1,10,1.9,15,M,,M,,*60
06/18/2015	18:07:43.551	$GPGGA,180744,2550.1873,N,07925.0535,W,1,10,1.9,15,M,,M,,*66
06/18/2015	18:07:44.531	$GPGGA,180745,2550.1880,N,07925.0521,W,1,10,1.6,15,M,,M,,*61
06/18/2015	18:07:45.561	$GPGGA,180746,2550.1886,N,07925.0507,W,1,11,1.6,15,M,,M,,*61
06/18/2015	18:07:46.532	$GPGGA,180747,2550.1891,N,07925.0493,W,1,11,1.6,15,M,,M,,*6A
06/18/2015	18:07:47.552	$GPGGA,180748,2550.1898,N,07925.0478,W,1,11,1.6,15,M,,M,,*69
06/18/2015	18:07:48.532	$GPGGA,180749,2550.1904,N,07925.0463,W,1,11,1.9,15,M,,M,,*69
06/18/2015	18:07:49.512	$GPGGA,180750,2550.1909,N,07925.0449,W,1,10,1.9,15,M,,M,,*65
06/18/2015	18:07:50.522	$GPGGA,180751,2550.1916,N,07925.0435,W,1,10,1.9,15,M,,M,,*61
06/18/2015	18:07:51.532	$GPGGA,180752,2550.1920,N,07925.0420,W,1,10,1.9,15,M,,M,,*63
06/18/2015	18:07:52.601	$GPGGA,180753,2550.1926,N,07925.0406,W,1,10,1.9,15,M,,M,,*60
06/18/2015	18:07:53.631	$GPGGA,180754,2550.1931,N,07925.0391,W,1,11,1.6,15,M,,M,,*66
06/18/2015	18:07:54.521	$GPGGA,180755,2550.1937,N,07925.0376,W,1,11,1.9,15,M,,M,,*67
06/18/2015	18:07:55.611	$GPGGA,180756,2550.1942,N,07925.0363,W,1,11,1.6,15,M,,M,,*6D
06/18/2015	18:07:56.611	$GPGGA,180757,2550.1948,N,07925.0349,W,1,11,1.6,15,M,,M,,*6E
06/18/2015	18:07:57.501	$GPGGA,180758,2550.1953,N,07925.0335,W,1,11,1.6,15,M,,M,,*60
06/18/2015	18:07:58.591	$GPGGA,180759,2550.1958,N,07925.0321,W,1,11,1.6,15,M,,M,,*6F
06/18/2015	18:07:59.611	$GPGGA,180800,2550.1963,N,07925.0307,W,1,11,1.6,15,M,,M,,*60
06/18/2015	18:08:00.501	$GPGGA,180801,2550.1967,N,07925.0292,W,1,11,1.6,15,M,,M,,*68
06/18/2015	18:08:01.621	$GPGGA,180802,2550.1971,N,07925.0278,W,1,11,1.6,15,M,,M,,*68
06/18/2015	18:08:02.591	$GPGGA,180803,2550.1977,N,07925.0264,W,1,11,1.6,15,M,,M,,*62
06/18/2015	18:08:03.602	$GPGGA,180804,2550.1981,N,07925.0250,W,1,11,1.6,15,M,,M,,*6B
06/18/2015	18:08:04.502	$GPGGA,180805,2550.1985,N,07925.0236,W,1,11,1.6,15,M,,M,,*6E
06/18/2015	18:08:05.612	$GPGGA,180806,2550.1989,N,07925.0222,W,1,10,1.9,15,M,,M,,*6A
06/18/2015	18:08:06.592	$GPGGA,180807,2550.1995,N,07925.0209,W,1,10,1.6,15,M,,M,,*60
06/18/2015	18:08:07.592	$GPGGA,180808,2550.2000,N,07925.0194,W,1,11,1.6,15,M,,M,,*6F
06/18/2015	18:08:08.482	$GPGGA,180809,2550.2003,N,07925.0180,W,1,11,1.9,15,M,,M,,*67
06/18/2015	18:08:09.601	$GPGGA,180810,2550.2007,N,07925.0167,W,1,10,1.9,15,M,,M,,*63
06/18/2015	18:08:10.571	$GPGGA,180811,2550.2010,N,07925.0154,W,1,10,1.6,15,M,,M,,*6B
06/18/2015	18:08:11.611	$GPGGA,180812,2550.2016,N,07925.0139,W,1,11,1.6,15,M,,M,,*64
06/18/2015	18:08:12.571	$GPGGA,180813,2550.2021,N,07925.0125,W,1,11,1.9,15,M,,M,,*63
06/18/2015	18:08:13.581	$GPGGA,180814,2550.2024,N,07925.0111,W,1,10,1.9,15,M,,M,,*67
06/18/2015	18:08:14.561	$GPGGA,180815,2550.2029,N,07925.0096,W,1,10,1.9,15,M,,M,,*65
06/18/2015	18:08:15.571	$GPGGA,180816,2550.2032,N,07925.0082,W,1,11,1.6,15,M,,M,,*67
06/18/2015	18:08:16.561	$GPGGA,180817,2550.2036,N,07925.0069,W,1,11,1.6,15,M,,M,,*67
06/18/2015	18:08:17.581	$GPGGA,180818,2550.2042,N,07925.0056,W,1,11,1.6,15,M,,M,,*67
06/18/2015	18:08:18.551	$GPGGA,180819,2550.2046,N,07925.0043,W,1,11,1.6,15,M,,M,,*66
06/18/2015	18:08:19.591	$GPGGA,180820,2550.2050,N,07925.0029,W,1,11,1.6,15,M,,M,,*67
06/18/2015	18:08:20.561	$GPGGA,180821,2550.2054,N,07925.0015,W,1,11,1.6,15,M,,M,,*6D
06/18/2015	18:08:21.542	$GPGGA,180822,2550.2058,N,07925.0001,W,1,11,1.6,15,M,,M,,*67
06/18/2015	18:08:22.542	$GPGGA,180823,2550.2063,N,07924.9987,W,1,11,1.6,15,M,,M,,*61
06/18/2015	18:08:23.582	$GPGGA,180824,2550.2068,N,07924.9974,W,1,11,1.6,15,M,,M,,*61
06/18/2015	18:08:24.542	$GPGGA,180825,2550.2072,N,07924.9960,W,1,11,1.6,15,M,,M,,*6E
06/18/2015	18:08:25.552	$GPGGA,180826,2550.2076,N,07924.9946,W,1,11,1.6,15,M,,M,,*6D
06/18/2015	18:08:26.542	$GPGGA,180827,2550.2082,N,07924.9931,W,1,11,1.6,15,M,,M,,*67
06/18/2015	18:08:27.583	$GPGGA,180828,2550.2086,N,07924.9916,W,1,10,1.9,15,M,,M,,*67
06/18/2015	18:08:28.541	$GPGGA,180829,2550.2090,N,07924.9904,W,1,10,1.9,15,M,,M,,*62
06/18/2015	18:08:29.541	$GPGGA,180830,2550.2094,N,07924.9891,W,1,11,1.6,15,M,,M,,*6D
06/18/2015	18:08:30.531	$GPGGA,180831,2550.2101,N,07924.9876,W,1,11,1.6,16,M,,M,,*6B
06/18/2015	18:08:31.551	$GPGGA,180832,2550.2105,N,07924.9861,W,1,10,1.9,16,M,,M,,*64
06/18/2015	18:08:32.531	$GPGGA,180833,2550.2111,N,07924.9847,W,1,10,1.9,16,M,,M,,*64
06/18/2015	18:08:33.541	$GPGGA,180834,2550.2115,N,07924.9834,W,1,11,1.6,16,M,,M,,*6D
06/18/2015	18:08:34.531	$GPGGA,180835,2550.2121,N,07924.9821,W,1,11,1.5,16,M,,M,,*6C
06/18/2015	18:08:35.561	$GPGGA,180836,2550.2126,N,07924.9806,W,1,11,1.5,16,M,,M,,*6D
06/18/2015	18:08:36.511	$GPGGA,180837,2550.2132,N,07924.9792,W,1,11,1.9,16,M,,M,,*67
06/18/2015	18:08:37.661	$GPGGA,180838,2550.2137,N,07924.9777,W,1,11,1.5,16,M,,M,,*6A
06/18/2015	18:08:38.522	$GPGGA,180839,2550.2141,N,07924.9762,W,1,11,1.5,16,M,,M,,*6E
06/18/2015	18:08:39.522	$GPGGA,180840,2550.2148,N,07924.9748,W,1,11,1.5,16,M,,M,,*61
06/18/2015	18:08:40.602	$GPGGA,180841,2550.2154,N,07924.9733,W,1,11,1.5,16,M,,M,,*61
06/18/2015	18:08:41.512	$GPGGA,180842,2550.2159,N,07924.9718,W,1,11,1.5,16,M,,M,,*66
06/18/2015	18:08:42.522	$GPGGA,180843,2550.2165,N,07924.9704,W,1,11,1.5,16,M,,M,,*65
06/18/2015	18:08:43.522	$GPGGA,180844,2550.2172,N,07924.9689,W,1,11,1.5,16,M,,M,,*60
06/18/2015	18:08:44.591	$GPGGA,180845,2550.2177,N,07924.9673,W,1,11,1.9,16,M,,M,,*6D
06/18/2015	18:08:45.601	$GPGGA,180846,2550.2184,N,07924.9659,W,1,10,1.9,16,M,,M,,*6B
06/18/2015	18:08:46.501	$GPGGA,180847,2550.2188,N,07924.9644,W,1,10,1.9,16,M,,M,,*6A
06/18/2015	18:08:47.691	$GPGGA,180848,2550.2195,N,07924.9629,W,1,10,1.9,16,M,,M,,*62
06/18/2015	18:08:48.601	$GPGGA,180849,2550.2202,N,07924.9614,W,1,10,1.9,16,M,,M,,*60
06/18/2015	18:08:49.501	$GPGGA,180850,2550.2208,N,07924.9599,W,1,10,1.9,16,M,,M,,*64
06/18/2015	18:08:50.501	$GPGGA,180851,2550.2213,N,07924.9585,W,1,10,1.9,16,M,,M,,*62
06/18/2015	18:08:51.671	$GPGGA,180852,2550.2220,N,07924.9570,W,1,10,1.9,16,M,,M,,*6B
06/18/2015	18:08:52.511	$GPGGA,180853,2550.2226,N,07924.9555,W,1,10,1.9,16,M,,M,,*6B
06/18/2015	18:08:53.611	$GPGGA,180854,2550.2233,N,07924.9541,W,1,10,1.9,16,M,,M,,*6D
06/18/2015	18:08:54.651	$GPGGA,180855,2550.2238,N,07924.9526,W,1,10,1.9,16,M,,M,,*66
06/18/2015	18:08:55.672	$GPGGA,180856,2550.2244,N,07924.9512,W,1,10,1.9,16,M,,M,,*69
06/18/2015	18:08:56.572	$GPGGA,180857,2550.2249,N,07924.9498,W,1,10,1.9,16,M,,M,,*66
06/18/2015	18:08:57.612	$GPGGA,180858,2550.2255,N,07924.9484,W,1,10,1.5,16,M,,M,,*65
06/18/2015	18:08:58.652	$GPGGA,180859,2550.2260,N,07924.9470,W,1,10,1.5,16,M,,M,,*69
06/18/2015	18:08:59.683	$GPGGA,180900,2550.2267,N,07924.9457,W,1,11,1.5,16,M,,M,,*67
06/18/2015	18:09:00.562	$GPGGA,180901,2550.2273,N,07924.9443,W,1,11,1.5,16,M,,M,,*66
06/18/2015	18:09:01.622	$GPGGA,180902,2550.2278,N,07924.9429,W,1,11,1.5,16,M,,M,,*62
06/18/2015	18:09:02.641	$GPGGA,180903,2550.2284,N,07924.9415,W,1,11,1.5,16,M,,M,,*6F
06/18/2015	18:09:03.631	$GPGGA,180904,2550.2289,N,07924.9401,W,1,11,1.5,16,M,,M,,*60
06/18/2015	18:09:04.621	$GPGGA,180905,2550.2296,N,07924.9387,W,1,11,1.5,16,M,,M,,*66
06/18/2015	18:09:05.601	$GPGGA,180906,2550.2300,N,07924.9373,W,1,11,1.9,16,M,,M,,*6C
06/18/2015	18:09:06.621	$GPGGA,180907,2550.2307,N,07924.9358,W,1,11,1.9,16,M,,M,,*63
06/18/2015	18:09:07.601	$GPGGA,180908,2550.2314,N,07924.9344,W,1,10,1.9,16,M,,M,,*62
06/18/2015	18:09:09.611	$GPGGA,180910,2550.2324,N,07924.9316,W,1,10,1.5,16,M,,M,,*63
06/18/2015	18:09:10.621	$GPGGA,180911,2550.2329,N,07924.9303,W,1,10,1.5,16,M,,M,,*6B
06/18/2015	18:09:11.631	$GPGGA,180912,2550.2336,N,07924.9287,W,1,10,1.9,15,M,,M,,*64
06/18/2015	18:09:12.591	$GPGGA,180913,2550.2341,N,07924.9272,W,1,10,1.9,15,M,,M,,*6F
06/18/2015	18:09:13.531	$GPGGA,180914,2550.2346,N,07924.9258,W,1,10,1.9,15,M,,M,,*67
06/18/2015	18:09:14.591	$GPGGA,180915,2550.2352,N,07924.9243,W,1,10,1.9,15,M,,M,,*69
06/18/2015	18:09:15.601	$GPGGA,180916,2550.2357,N,07924.9229,W,1,10,1.9,15,M,,M,,*63
06/18/2015	18:09:16.591	$GPGGA,180917,2550.2361,N,07924.9216,W,1,10,1.9,15,M,,M,,*6B
06/18/2015	18:09:17.561	$GPGGA,180918,2550.2365,N,07924.9203,W,1,11,1.5,15,M,,M,,*69
06/18/2015	18:09:18.582	$GPGGA,180919,2550.2371,N,07924.9189,W,1,11,1.5,15,M,,M,,*6C
06/18/2015	18:09:19.584	$GPGGA,180920,2550.2375,N,07924.9175,W,1,11,1.5,15,M,,M,,*61
06/18/2015	18:09:20.510	$GPGGA,180921,2550.2379,N,07924.9161,W,1,11,1.5,15,M,,M,,*69
06/18/2015	18:09:21.610	$GPGGA,180922,2550.2383,N,07924.9148,W,1,11,1.5,16,M,,M,,*67
06/18/2015	18:09:22.580	$GPGGA,180923,2550.2388,N,07924.9134,W,1,11,1.5,16,M,,M,,*66
06/18/2015	18:09:23.591	$GPGGA,180924,2550.2393,N,07924.9119,W,1,11,1.9,16,M,,M,,*68
06/18/2015	18:09:24.601	$GPGGA,180925,2550.2397,N,07924.9106,W,1,11,1.5,16,M,,M,,*6F
06/18/2015	18:09:25.541	$GPGGA,180926,2550.2401,N,07924.9093,W,1,11,1.5,16,M,,M,,*69
06/18/2015	18:09:26.621	$GPGGA,180927,2550.2406,N,07924.9080,W,1,11,1.5,16,M,,M,,*6D
06/18/2015	18:09:28.591	$GPGGA,180929,2550.2412,N,07924.9054,W,1,11,1.8,16,M,,M,,*62
06/18/2015	18:09:29.541	$GPGGA,180930,2550.2418,N,07924.9040,W,1,10,2.1,16,M,,M,,*6E
06/18/2015	18:09:30.571	$GPGGA,180931,2550.2422,N,07924.9024,W,1,10,1.9,16,M,,M,,*6F
06/18/2015	18:09:31.561	$GPGGA,180932,2550.2426,N,07924.9011,W,1,10,2.1,16,M,,M,,*65
06/18/2015	18:09:32.591	$GPGGA,180933,2550.2429,N,07924.8997,W,1,10,2.1,16,M,,M,,*6D
06/18/2015	18:09:33.581	$GPGGA,180934,2550.2433,N,07924.8985,W,1,9,1.8,16,M,,M,,*50
06/18/2015	18:09:34.561	$GPGGA,180935,2550.2437,N,07924.8971,W,1,9,1.5,16,M,,M,,*53
06/18/2015	18:09:36.011	$GPGGA,180936,2550.2440,N,07924.8957,W,1,11,1.9,16,M,,M,,*61
06/18/2015	18:09:36.541	$GPGGA,180937,2550.2443,N,07924.8946,W,1,11,1.8,16,M,,M,,*62
06/18/2015	18:09:37.590	$GPGGA,180938,2550.2447,N,07924.8933,W,1,10,1.6,16,M,,M,,*64
06/18/2015	18:09:38.580	$GPGGA,180939,2550.2450,N,07924.8919,W,1,10,1.6,17,M,,M,,*6A
06/18/2015	18:09:39.600	$GPGGA,180940,2550.2451,N,07924.8905,W,1,10,1.5,17,M,,M,,*6B
06/18/2015	18:09:40.590	$GPGGA,180941,2550.2454,N,07924.8891,W,1,10,1.5,17,M,,M,,*63
06/18/2015	18:09:41.581	$GPGGA,180942,2550.2458,N,07924.8877,W,1,11,1.9,17,M,,M,,*69
06/18/2015	18:09:42.581	$GPGGA,180943,2550.2459,N,07924.8865,W,1,11,1.8,17,M,,M,,*6B
06/18/2015	18:09:43.631	$GPGGA,180944,2550.2462,N,07924.8851,W,1,10,1.5,17,M,,M,,*6F
06/18/2015	18:09:44.572	$GPGGA,180945,2550.2465,N,07924.8838,W,1,10,1.5,17,M,,M,,*66
06/18/2015	18:09:45.581	$GPGGA,180946,2550.2468,N,07924.8826,W,1,11,1.5,17,M,,M,,*66
06/18/2015	18:09:46.841	$GPGGA,180947,2550.2469,N,07924.8811,W,1,11,1.5,17,M,,M,,*62
06/18/2015	18:09:47.601	$GPGGA,180948,2550.2472,N,07924.8798,W,1,11,1.5,17,M,,M,,*69
06/18/2015	18:09:48.582	$GPGGA,180949,2550.2473,N,07924.8785,W,1,11,1.5,17,M,,M,,*65
06/18/2015	18:09:49.574	$GPGGA,180950,2550.2476,N,07924.8772,W,1,11,1.5,17,M,,M,,*60
06/18/2015	18:09:50.572	$GPGGA,180951,2550.2477,N,07924.8759,W,1,11,1.5,17,M,,M,,*69
06/18/2015	18:09:51.566	$GPGGA,180952,2550.2480,N,07924.8746,W,1,11,1.5,17,M,,M,,*6C
06/18/2015	18:09:52.581	$GPGGA,180953,2550.2482,N,07924.8733,W,1,11,1.5,18,M,,M,,*62
06/18/2015	18:09:53.561	$GPGGA,180954,2550.2483,N,07924.8719,W,1,11,1.5,18,M,,M,,*6C
06/18/2015	18:09:54.575	$GPGGA,180955,2550.2484,N,07924.8706,W,1,11,1.5,18,M,,M,,*64
06/18/2015	18:09:55.580	$GPGGA,180956,2550.2487,N,07924.8693,W,1,11,1.5,18,M,,M,,*69
06/18/2015	18:09:56.550	$GPGGA,180957,2550.2487,N,07924.8680,W,1,11,1.9,18,M,,M,,*66
06/18/2015	18:09:57.540	$GPGGA,180958,2550.2488,N,07924.8667,W,1,10,1.5,18,M,,M,,*62
06/18/2015	18:09:58.561	$GPGGA,180959,2550.2490,N,07924.8655,W,1,10,1.5,18,M,,M,,*6B
06/18/2015	18:09:59.581	$GPGGA,181000,2550.2491,N,07924.8641,W,1,11,1.5,18,M,,M,,*6A
06/18/2015	18:10:00.575	$GPGGA,181001,2550.2494,N,07924.8628,W,1,11,1.5,18,M,,M,,*61
06/18/2015	18:10:01.551	$GPGGA,181002,2550.2495,N,07924.8615,W,1,11,1.5,18,M,,M,,*6D
06/18/2015	18:10:02.561	$GPGGA,181003,2550.2495,N,07924.8602,W,1,11,1.9,18,M,,M,,*66
06/18/2015	18:10:03.561	$GPGGA,181004,2550.2498,N,07924.8588,W,1,10,1.9,18,M,,M,,*6C
06/18/2015	18:10:04.581	$GPGGA,181005,2550.2498,N,07924.8575,W,1,10,1.5,18,M,,M,,*63
06/18/2015	18:10:05.541	$GPGGA,181006,2550.2498,N,07924.8575,W,1,11,1.5,18,M,,M,,*61
06/18/2015	18:10:06.531	$GPGGA,181007,2550.2500,N,07924.8561,W,1,11,1.5,18,M,,M,,*65
06/18/2015	18:10:07.561	$GPGGA,181008,2550.2502,N,07924.8533,W,1,10,1.9,18,M,,M,,*62
06/18/2015	18:10:08.531	$GPGGA,181009,2550.2502,N,07924.8533,W,1,10,1.9,18,M,,M,,*63
06/18/2015	18:10:09.631	$GPGGA,181010,2550.2504,N,07924.8506,W,1,10,1.9,18,M,,M,,*6B
06/18/2015	18:10:10.541	$GPGGA,181011,2550.2505,N,07924.8493,W,1,10,1.5,18,M,,M,,*6A
06/18/2015	18:10:11.541	$GPGGA,181012,2550.2506,N,07924.8480,W,1,11,1.5,18,M,,M,,*69
06/18/2015	18:10:12.520	$GPGGA,181013,2550.2506,N,07924.8480,W,1,11,1.5,19,M,,M,,*69
06/18/2015	18:10:13.630	$GPGGA,181014,2550.2509,N,07924.8454,W,1,11,1.5,19,M,,M,,*68
06/18/2015	18:10:14.600	$GPGGA,181015,2550.2511,N,07924.8440,W,1,11,1.5,19,M,,M,,*65
06/18/2015	18:10:15.530	$GPGGA,181016,2550.2513,N,07924.8425,W,1,11,1.5,19,M,,M,,*67
06/18/2015	18:10:16.511	$GPGGA,181017,2550.2513,N,07924.8425,W,1,11,2.1,19,M,,M,,*61
06/18/2015	18:10:17.521	$GPGGA,181018,2550.2518,N,07924.8398,W,1,10,1.8,19,M,,M,,*6F
06/18/2015	18:10:18.541	$GPGGA,181019,2550.2518,N,07924.8398,W,1,10,1.8,19,M,,M,,*6E
06/18/2015	18:10:19.631	$GPGGA,181020,2550.2520,N,07924.8367,W,1,9,2.1,19,M,,M,,*5D
06/18/2015	18:10:20.601	$GPGGA,181021,2550.2523,N,07924.8352,W,1,9,1.5,19,M,,M,,*5E
06/18/2015	18:10:21.601	$GPGGA,181022,2550.2524,N,07924.8336,W,1,11,1.5,19,M,,M,,*61
06/18/2015	18:10:22.591	$GPGGA,181023,2550.2527,N,07924.8322,W,1,11,1.5,19,M,,M,,*66
06/18/2015	18:10:23.611	$GPGGA,181024,2550.2529,N,07924.8307,W,1,11,1.5,19,M,,M,,*68
06/18/2015	18:10:24.591	$GPGGA,181025,2550.2531,N,07924.8292,W,1,11,1.5,19,M,,M,,*6D
06/18/2015	18:10:25.591	$GPGGA,181026,2550.2533,N,07924.8278,W,1,11,1.5,19,M,,M,,*68
06/18/2015	18:10:26.591	$GPGGA,181027,2550.2534,N,07924.8262,W,1,11,1.5,19,M,,M,,*65
06/18/2015	18:10:27.611	$GPGGA,181028,2550.2538,N,07924.8246,W,1,10,1.7,20,M,,M,,*69
06/18/2015	18:10:28.571	$GPGGA,181029,2550.2542,N,07924.8230,W,1,10,1.5,20,M,,M,,*66
06/18/2015	18:10:29.590	$GPGGA,181030,2550.2544,N,07924.8214,W,1,10,1.9,20,M,,M,,*62
06/18/2015	18:10:30.500	$GPGGA,181031,2550.2544,N,07924.8214,W,1,10,1.9,20,M,,M,,*63
06/18/2015	18:10:31.620	$GPGGA,181032,2550.2552,N,07924.8183,W,1,10,1.9,20,M,,M,,*6A
06/18/2015	18:10:32.560	$GPGGA,181033,2550.2555,N,07924.8168,W,1,10,1.5,20,M,,M,,*65
06/18/2015	18:10:33.561	$GPGGA,181034,2550.2558,N,07924.8153,W,1,10,1.8,20,M,,M,,*6A
06/18/2015	18:10:34.561	$GPGGA,181035,2550.2562,N,07924.8138,W,1,10,1.8,20,M,,M,,*6F
06/18/2015	18:10:35.581	$GPGGA,181036,2550.2565,N,07924.8122,W,1,10,1.8,20,M,,M,,*60
06/18/2015	18:10:36.561	$GPGGA,181037,2550.2567,N,07924.8106,W,1,10,1.8,21,M,,M,,*64
06/18/2015	18:10:37.571	$GPGGA,181038,2550.2570,N,07924.8091,W,1,10,1.8,21,M,,M,,*62
06/18/2015	18:10:38.551	$GPGGA,181039,2550.2574,N,07924.8074,W,1,10,2.1,21,M,,M,,*66
06/18/2015	18:10:39.581	$GPGGA,181040,2550.2577,N,07924.8058,W,1,10,1.8,21,M,,M,,*6F
06/18/2015	18:10:40.561	$GPGGA,181041,2550.2580,N,07924.8042,W,1,10,1.8,21,M,,M,,*6D
06/18/2015	18:10:41.551	$GPGGA,181042,2550.2583,N,07924.8026,W,1,9,2.1,21,M,,M,,*5D
06/18/2015	18:10:42.571	$GPGGA,181043,2550.2587,N,07924.8009,W,1,9,2.1,21,M,,M,,*55
06/18/2015	18:10:43.581	$GPGGA,181044,2550.2589,N,07924.7993,W,1,10,1.9,21,M,,M,,*6A
06/18/2015	18:10:44.551	$GPGGA,181045,2550.2592,N,07924.7977,W,1,10,2.1,21,M,,M,,*60
06/18/2015	18:10:45.561	$GPGGA,181046,2550.2596,N,07924.7960,W,1,9,2.1,21,M,,M,,*59
06/18/2015	18:10:46.531	$GPGGA,181047,2550.2599,N,07924.7944,W,1,9,1.9,21,M,,M,,*5A
06/18/2015	18:10:47.590	$GPGGA,181048,2550.2599,N,07924.7928,W,1,11,1.5,21,M,,M,,*6A
06/18/2015	18:10:48.540	$GPGGA,181049,2550.2603,N,07924.7909,W,1,11,2.1,21,M,,M,,*6F
06/18/2015	18:10:49.551	$GPGGA,181050,2550.2607,N,07924.7892,W,1,10,1.9,21,M,,M,,*6A
06/18/2015	18:10:50.530	$GPGGA,181051,2550.2609,N,07924.7875,W,1,10,1.9,21,M,,M,,*6C
06/18/2015	18:10:51.551	$GPGGA,181052,2550.2610,N,07924.7859,W,1,10,1.9,21,M,,M,,*69
06/18/2015	18:10:52.531	$GPGGA,181053,2550.2614,N,07924.7843,W,1,10,1.5,21,M,,M,,*6B
06/18/2015	18:10:53.521	$GPGGA,181054,2550.2616,N,07924.7829,W,1,11,1.5,21,M,,M,,*63
06/18/2015	18:10:54.521	$GPGGA,181055,2550.2617,N,07924.7815,W,1,11,1.5,22,M,,M,,*6F
06/18/2015	18:10:55.561	$GPGGA,181056,2550.2620,N,07924.7799,W,1,11,1.5,22,M,,M,,*63
06/18/2015	18:10:56.521	$GPGGA,181057,2550.2623,N,07924.7784,W,1,11,2.1,22,M,,M,,*6A
06/18/2015	18:10:57.541	$GPGGA,181058,2550.2625,N,07924.7768,W,1,11,1.5,22,M,,M,,*66
06/18/2015	18:10:58.511	$GPGGA,181059,2550.2628,N,07924.7753,W,1,11,1.8,22,M,,M,,*6F
06/18/2015	18:10:59.551	$GPGGA,181100,2550.2631,N,07924.7737,W,1,11,1.5,22,M,,M,,*65
06/18/2015	18:11:00.521	$GPGGA,181101,2550.2632,N,07924.7721,W,1,11,1.5,22,M,,M,,*60
06/18/2015	18:11:02.663	$GPGGA,181103,2550.2638,N,07924.7686,W,1,10,1.9,22,M,,M,,*69
06/18/2015	18:11:03.651	$GPGGA,181104,2550.2639,N,07924.7672,W,1,11,1.5,22,M,,M,,*69
06/18/2015	18:11:04.600	$GPGGA,181105,2550.2642,N,07924.7656,W,1,11,1.5,23,M,,M,,*63
06/18/2015	18:11:05.640	$GPGGA,181106,2550.2643,N,07924.7639,W,1,11,1.5,23,M,,M,,*68
06/18/2015	18:11:06.600	$GPGGA,181107,2550.2646,N,07924.7623,W,1,11,1.5,23,M,,M,,*67
06/18/2015	18:11:07.671	$GPGGA,181108,2550.2649,N,07924.7605,W,1,11,1.5,23,M,,M,,*63
06/18/2015	18:11:08.585	$GPGGA,181109,2550.2652,N,07924.7588,W,1,11,1.9,23,M,,M,,*62
06/18/2015	18:11:09.501	$GPGGA,181110,2550.2654,N,07924.7572,W,1,10,1.9,23,M,,M,,*68
06/18/2015	18:11:10.591	$GPGGA,181111,2550.2657,N,07924.7555,W,1,10,1.9,23,M,,M,,*6F
06/18/2015	18:11:11.521	$GPGGA,181112,2550.2660,N,07924.7538,W,1,10,1.9,23,M,,M,,*63
06/18/2015	18:11:12.601	$GPGGA,181113,2550.2663,N,07924.7520,W,1,10,1.9,23,M,,M,,*68
06/18/2015	18:11:13.571	$GPGGA,181114,2550.2664,N,07924.7503,W,1,10,1.9,23,M,,M,,*69
06/18/2015	18:11:14.583	$GPGGA,181115,2550.2668,N,07924.7486,W,1,10,1.9,23,M,,M,,*68
06/18/2015	18:11:15.631	$GPGGA,181116,2550.2670,N,07924.7469,W,1,10,1.9,23,M,,M,,*63
06/18/2015	18:11:16.571	$GPGGA,181117,2550.2672,N,07924.7452,W,1,10,1.9,23,M,,M,,*68
06/18/2015	18:11:17.572	$GPGGA,181118,2550.2674,N,07924.7435,W,1,10,1.9,23,M,,M,,*60
06/18/2015	18:11:18.573	$GPGGA,181119,2550.2677,N,07924.7418,W,1,10,1.9,23,M,,M,,*6D
06/18/2015	18:11:19.582	$GPGGA,181120,2550.2679,N,07924.7402,W,1,10,1.9,23,M,,M,,*62
06/18/2015	18:11:20.573	$GPGGA,181121,2550.2681,N,07924.7385,W,1,10,1.9,23,M,,M,,*6C
06/18/2015	18:11:21.591	$GPGGA,181122,2550.2683,N,07924.7369,W,1,10,1.9,23,M,,M,,*6F
06/18/2015	18:11:22.560	$GPGGA,181123,2550.2686,N,07924.7354,W,1,10,1.9,23,M,,M,,*65
06/18/2015	18:11:23.571	$GPGGA,181124,2550.2688,N,07924.7339,W,1,11,1.5,23,M,,M,,*6A
06/18/2015	18:11:24.571	$GPGGA,181125,2550.2690,N,07924.7323,W,1,11,1.5,23,M,,M,,*69
06/18/2015	18:11:25.580	$GPGGA,181126,2550.2693,N,07924.7306,W,1,10,1.9,23,M,,M,,*63
06/18/2015	18:11:26.551	$GPGGA,181127,2550.2695,N,07924.7292,W,1,10,2.0,23,M,,M,,*62
06/18/2015	18:11:27.584	$GPGGA,181128,2550.2697,N,07924.7277,W,1,9,2.1,23,M,,M,,*5D
06/18/2015	18:11:28.551	$GPGGA,181129,2550.2701,N,07924.7262,W,1,9,2.1,23,M,,M,,*56
06/18/2015	18:11:29.541	$GPGGA,181130,2550.2704,N,07924.7246,W,1,10,1.9,23,M,,M,,*6E
06/18/2015	18:11:30.542	$GPGGA,181131,2550.2707,N,07924.7230,W,1,10,1.9,23,M,,M,,*6D
06/18/2015	18:11:31.581	$GPGGA,181132,2550.2710,N,07924.7215,W,1,10,1.9,23,M,,M,,*6F
06/18/2015	18:11:32.561	$GPGGA,181133,2550.2712,N,07924.7199,W,1,10,1.9,23,M,,M,,*6B
06/18/2015	18:11:33.561	$GPGGA,181134,2550.2715,N,07924.7183,W,1,10,1.9,22,M,,M,,*61
06/18/2015	18:11:34.833	$GPGGA,181135,2550.2718,N,07924.7167,W,1,10,1.9,22,M,,M,,*67
06/18/2015	18:11:35.571	$GPGGA,181136,2550.2721,N,07924.7151,W,1,10,1.9,22,M,,M,,*6B
06/18/2015	18:11:36.541	$GPGGA,181137,2550.2722,N,07924.7135,W,1,10,1.9,22,M,,M,,*6B
06/18/2015	18:11:37.561	$GPGGA,181138,2550.2726,N,07924.7119,W,1,10,1.9,22,M,,M,,*6E
06/18/2015	18:11:38.571	$GPGGA,181139,2550.2728,N,07924.7104,W,1,10,1.9,22,M,,M,,*6D
06/18/2015	18:11:39.560	$GPGGA,181140,2550.2729,N,07924.7088,W,1,10,1.9,22,M,,M,,*67
06/18/2015	18:11:40.540	$GPGGA,181141,2550.2733,N,07924.7072,W,1,10,1.9,22,M,,M,,*68
06/18/2015	18:11:41.540	$GPGGA,181142,2550.2736,N,07924.7056,W,1,10,1.9,21,M,,M,,*6B
06/18/2015	18:11:42.520	$GPGGA,181143,2550.2737,N,07924.7040,W,1,10,1.9,21,M,,M,,*6C
06/18/2015	18:11:43.541	$GPGGA,181144,2550.2739,N,07924.7024,W,1,10,1.9,21,M,,M,,*67
06/18/2015	18:11:44.511	$GPGGA,181145,2550.2743,N,07924.7008,W,1,10,1.9,21,M,,M,,*65
06/18/2015	18:11:45.521	$GPGGA,181146,2550.2744,N,07924.6992,W,1,10,1.9,21,M,,M,,*6A
06/18/2015	18:11:46.511	$GPGGA,181147,2550.2746,N,07924.6977,W,1,10,1.9,21,M,,M,,*62
06/18/2015	18:11:47.521	$GPGGA,181148,2550.2748,N,07924.6962,W,1,10,1.9,21,M,,M,,*67
