Software Version Number: 1	Data File Format Number: 1	Build Version Number: 1	Error Count Since VI Started: 2	Manufacturer: Raytheon	 Model Number: RayMarine 120	 S/N: 	 Cal Date: 	 Wind Direction Offset: 0.00	 Slope (M)1: 0.00	 Offset (B)1: 0.00	 Slope (M)2: 0.00	 Offset (B)2: 0.00	 Slope (M)3: 0.00	 Offset (B)3: 0.00	 Slope (M)4: 0.00	 Offset (B)4: 0.00	 Slope (M)5: 0.00	 Offset (B)5: 0.00	 Slope (M)6: 0.00	 Offset (B)6: 0.00
Computer Date	Computer Time	GGA String
06/19/2015	22:00:00.559	$GPGGA,220001,2519.5547,N,07922.1998,W,1,7,1.8,22,M,,M,,*54
06/19/2015	22:00:01.639	$GPGGA,220002,2519.5547,N,07922.1998,W,1,8,2.3,22,M,,M,,*50
06/19/2015	22:00:02.529	$GPGGA,220003,2519.5546,N,07922.1997,W,1,8,2.3,22,M,,M,,*5F
06/19/2015	22:00:03.659	$GPGGA,220004,2519.5545,N,07922.1998,W,1,8,1.8,21,M,,M,,*5F
06/19/2015	22:00:04.538	$GPGGA,220005,2519.5544,N,07922.1995,W,1,8,1.8,21,M,,M,,*52
06/19/2015	22:00:05.622	$GPGGA,220006,2519.5542,N,07922.1992,W,1,8,1.8,21,M,,M,,*50
06/19/2015	22:00:06.549	$GPGGA,220007,2519.5543,N,07922.1991,W,1,8,1.8,21,M,,M,,*53
06/19/2015	22:00:07.658	$GPGGA,220008,2519.5541,N,07922.1989,W,1,8,1.8,21,M,,M,,*57
06/19/2015	22:00:08.568	$GPGGA,220009,2519.5540,N,07922.1990,W,1,8,1.8,21,M,,M,,*5F
06/19/2015	22:00:09.598	$GPGGA,220010,2519.5538,N,07922.1987,W,1,8,1.8,21,M,,M,,*5E
06/19/2015	22:00:10.508	$GPGGA,220011,2519.5537,N,07922.1987,W,1,8,1.8,21,M,,M,,*50
06/19/2015	22:00:11.648	$GPGGA,220012,2519.5537,N,07922.1986,W,1,8,1.8,21,M,,M,,*52
06/19/2015	22:00:12.548	$GPGGA,220013,2519.5536,N,07922.1985,W,1,8,1.8,21,M,,M,,*51
06/19/2015	22:00:13.508	$GPGGA,220014,2519.5535,N,07922.1985,W,1,8,1.8,21,M,,M,,*55
06/19/2015	22:00:14.538	$GPGGA,220015,2519.5534,N,07922.1985,W,1,8,1.8,21,M,,M,,*55
06/19/2015	22:00:15.608	$GPGGA,220016,2519.5535,N,07922.1984,W,1,8,2.4,21,M,,M,,*59
06/19/2015	22:00:16.529	$GPGGA,220017,2519.5533,N,07922.1984,W,1,8,2.3,21,M,,M,,*59
06/19/2015	22:00:17.633	$GPGGA,220018,2519.5531,N,07922.1987,W,1,7,1.8,21,M,,M,,*50
06/19/2015	22:00:18.622	$GPGGA,220019,2519.5529,N,07922.1988,W,1,7,1.8,21,M,,M,,*57
06/19/2015	22:00:19.634	$GPGGA,220020,2519.5528,N,07922.1987,W,1,8,1.8,21,M,,M,,*5C
06/19/2015	22:00:20.539	$GPGGA,220021,2519.5526,N,07922.1987,W,1,8,2.3,21,M,,M,,*5B
06/19/2015	22:00:21.549	$GPGGA,220022,2519.5526,N,07922.1987,W,1,7,1.8,21,M,,M,,*5F
06/19/2015	22:00:22.589	$GPGGA,220023,2519.5526,N,07922.1986,W,1,7,1.8,21,M,,M,,*5F
06/19/2015	22:00:23.640	$GPGGA,220024,2519.5523,N,07922.1985,W,1,8,1.8,21,M,,M,,*51
06/19/2015	22:00:24.538	$GPGGA,220025,2519.5522,N,07922.1984,W,1,8,1.8,21,M,,M,,*50
06/19/2015	22:00:25.578	$GPGGA,220026,2519.5522,N,07922.1982,W,1,8,2.4,21,M,,M,,*5A
06/19/2015	22:00:26.528	$GPGGA,220027,2519.5520,N,07922.1983,W,1,8,2.4,21,M,,M,,*58
06/19/2015	22:00:27.588	$GPGGA,220028,2519.5521,N,07922.1980,W,1,7,2.4,21,M,,M,,*5A
06/19/2015	22:00:28.578	$GPGGA,220029,2519.5519,N,07922.1978,W,1,7,2.4,21,M,,M,,*57
06/19/2015	22:00:29.634	$GPGGA,220030,2519.5519,N,07922.1977,W,1,7,2.4,21,M,,M,,*50
06/19/2015	22:00:30.568	$GPGGA,220031,2519.5517,N,07922.1975,W,1,7,2.4,21,M,,M,,*5D
06/19/2015	22:00:31.588	$GPGGA,220032,2519.5518,N,07922.1974,W,1,7,2.4,21,M,,M,,*50
06/19/2015	22:00:32.578	$GPGGA,220033,2519.5516,N,07922.1973,W,1,7,2.4,21,M,,M,,*58
06/19/2015	22:00:33.599	$GPGGA,220034,2519.5515,N,07922.1971,W,1,7,2.4,21,M,,M,,*5E
06/19/2015	22:00:34.559	$GPGGA,220035,2519.5515,N,07922.1970,W,1,7,2.4,21,M,,M,,*5E
06/19/2015	22:00:35.599	$GPGGA,220036,2519.5513,N,07922.1969,W,1,7,2.4,21,M,,M,,*53
06/19/2015	22:00:36.569	$GPGGA,220037,2519.5512,N,07922.1968,W,1,7,2.4,21,M,,M,,*52
06/19/2015	22:00:37.633	$GPGGA,220038,2519.5513,N,07922.1967,W,1,7,2.4,21,M,,M,,*53
06/19/2015	22:00:38.559	$GPGGA,220039,2519.5511,N,07922.1966,W,1,7,2.4,21,M,,M,,*51
06/19/2015	22:00:39.639	$GPGGA,220040,2519.5505,N,07922.1966,W,1,7,1.8,21,M,,M,,*55
06/19/2015	22:00:40.559	$GPGGA,220041,2519.5506,N,07922.1964,W,1,7,1.8,21,M,,M,,*55
06/19/2015	22:00:41.609	$GPGGA,220042,2519.5505,N,07922.1963,W,1,8,1.8,21,M,,M,,*5D
06/19/2015	22:00:42.558	$GPGGA,220043,2519.5504,N,07922.1962,W,1,8,1.8,21,M,,M,,*5C
06/19/2015	22:00:43.598	$GPGGA,220044,2519.5504,N,07922.1962,W,1,8,1.8,21,M,,M,,*5B
06/19/2015	22:00:44.548	$GPGGA,220045,2519.5502,N,07922.1960,W,1,8,1.8,21,M,,M,,*5E
06/19/2015	22:00:45.578	$GPGGA,220046,2519.5503,N,07922.1959,W,1,8,1.8,21,M,,M,,*56
06/19/2015	22:00:46.548	$GPGGA,220047,2519.5501,N,07922.1958,W,1,8,1.8,21,M,,M,,*54
06/19/2015	22:00:47.588	$GPGGA,220048,2519.5501,N,07922.1958,W,1,8,1.8,21,M,,M,,*5B
06/19/2015	22:00:48.538	$GPGGA,220049,2519.5501,N,07922.1956,W,1,8,1.8,21,M,,M,,*54
06/19/2015	22:00:49.888	$GPGGA,220050,2519.5501,N,07922.1954,W,1,8,1.8,22,M,,M,,*5D
06/19/2015	22:00:50.535	$GPGGA,220051,2519.5500,N,07922.1955,W,1,8,1.9,22,M,,M,,*5D
06/19/2015	22:00:51.569	$GPGGA,220052,2519.5499,N,07922.1955,W,1,7,1.9,22,M,,M,,*50
06/19/2015	22:00:52.529	$GPGGA,220053,2519.5500,N,07922.1956,W,1,7,1.9,22,M,,M,,*53
06/19/2015	22:00:53.639	$GPGGA,220054,2519.5500,N,07922.1956,W,1,8,1.8,22,M,,M,,*5A
06/19/2015	22:00:54.540	$GPGGA,220055,2519.5498,N,07922.1959,W,1,8,1.8,22,M,,M,,*54
06/19/2015	22:00:55.589	$GPGGA,220056,2519.5499,N,07922.1958,W,1,8,1.9,22,M,,M,,*56
06/19/2015	22:00:56.520	$GPGGA,220057,2519.5498,N,07922.1957,W,1,8,1.9,22,M,,M,,*59
06/19/2015	22:00:57.599	$GPGGA,220058,2519.5497,N,07922.1956,W,1,8,1.8,22,M,,M,,*59
06/19/2015	22:00:58.529	$GPGGA,220059,2519.5497,N,07922.1958,W,1,8,1.8,22,M,,M,,*56
06/19/2015	22:00:59.621	$GPGGA,220100,2519.5497,N,07922.1956,W,1,8,1.8,22,M,,M,,*55
06/19/2015	22:01:00.520	$GPGGA,220101,2519.5497,N,07922.1956,W,1,8,1.8,22,M,,M,,*54
06/19/2015	22:01:01.578	$GPGGA,220102,2519.5495,N,07922.1956,W,1,8,1.8,22,M,,M,,*55
06/19/2015	22:01:02.531	$GPGGA,220103,2519.5496,N,07922.1956,W,1,8,1.8,22,M,,M,,*57
06/19/2015	22:01:03.588	$GPGGA,220104,2519.5494,N,07922.1956,W,1,8,1.8,22,M,,M,,*52
06/19/2015	22:01:04.839	$GPGGA,220105,2519.5493,N,07922.1958,W,1,8,1.8,22,M,,M,,*5A
06/19/2015	22:01:05.578	$GPGGA,220106,2519.5492,N,07922.1958,W,1,8,1.8,22,M,,M,,*58
06/19/2015	22:01:06.508	$GPGGA,220107,2519.5491,N,07922.1957,W,1,8,1.8,22,M,,M,,*55
06/19/2015	22:01:07.528	$GPGGA,220108,2519.5491,N,07922.1957,W,1,8,1.8,22,M,,M,,*5A
06/19/2015	22:01:08.499	$GPGGA,220109,2519.5491,N,07922.1956,W,1,8,1.9,22,M,,M,,*5B
06/19/2015	22:01:09.609	$GPGGA,220110,2519.5490,N,07922.1956,W,1,8,1.8,22,M,,M,,*53
06/19/2015	22:01:10.499	$GPGGA,220111,2519.5490,N,07922.1958,W,1,8,1.8,23,M,,M,,*5D
06/19/2015	22:01:11.509	$GPGGA,220112,2519.5490,N,07922.1958,W,1,7,2.4,23,M,,M,,*5E
06/19/2015	22:01:12.489	$GPGGA,220113,2519.5490,N,07922.1955,W,1,7,2.4,23,M,,M,,*52
06/19/2015	22:01:13.509	$GPGGA,220114,2519.5490,N,07922.1955,W,1,8,1.8,23,M,,M,,*55
06/19/2015	22:01:14.589	$GPGGA,220115,2519.5488,N,07922.1954,W,1,8,1.8,23,M,,M,,*5C
06/19/2015	22:01:15.599	$GPGGA,220116,2519.5487,N,07922.1953,W,1,8,1.8,23,M,,M,,*57
06/19/2015	22:01:16.579	$GPGGA,220117,2519.5488,N,07922.1954,W,1,8,1.8,23,M,,M,,*5E
06/19/2015	22:01:17.588	$GPGGA,220118,2519.5486,N,07922.1952,W,1,8,1.8,23,M,,M,,*59
06/19/2015	22:01:18.478	$GPGGA,220119,2519.5486,N,07922.1952,W,1,8,1.8,23,M,,M,,*58
06/19/2015	22:01:19.618	$GPGGA,220120,2519.5483,N,07922.1951,W,1,7,2.4,23,M,,M,,*54
06/19/2015	22:01:20.568	$GPGGA,220121,2519.5484,N,07922.1950,W,1,7,1.8,23,M,,M,,*5C
06/19/2015	22:01:21.578	$GPGGA,220122,2519.5481,N,07922.1951,W,1,7,2.4,23,M,,M,,*54
06/19/2015	22:01:22.578	$GPGGA,220123,2519.5482,N,07922.1948,W,1,7,1.8,23,M,,M,,*51
06/19/2015	22:01:23.608	$GPGGA,220124,2519.5481,N,07922.1947,W,1,8,1.8,23,M,,M,,*55
06/19/2015	22:01:24.558	$GPGGA,220125,2519.5482,N,07922.1946,W,1,8,1.8,23,M,,M,,*56
06/19/2015	22:01:25.578	$GPGGA,220126,2519.5481,N,07922.1945,W,1,8,1.8,23,M,,M,,*55
06/19/2015	22:01:26.569	$GPGGA,220127,2519.5482,N,07922.1944,W,1,8,2.4,23,M,,M,,*59
06/19/2015	22:01:27.609	$GPGGA,220128,2519.5481,N,07922.1943,W,1,7,2.4,23,M,,M,,*5D
06/19/2015	22:01:28.559	$GPGGA,220129,2519.5482,N,07922.1941,W,1,7,1.8,23,M,,M,,*52
06/19/2015	22:01:29.579	$GPGGA,220130,2519.5481,N,07922.1939,W,1,8,1.8,23,M,,M,,*59
06/19/2015	22:01:30.549	$GPGGA,220131,2519.5482,N,07922.1938,W,1,8,1.8,23,M,,M,,*5A
06/19/2015	22:01:31.579	$GPGGA,220132,2519.5480,N,07922.1937,W,1,8,1.8,23,M,,M,,*54
06/19/2015	22:01:32.549	$GPGGA,220133,2519.5479,N,07922.1936,W,1,8,2.4,23,M,,M,,*5D
06/19/2015	22:01:33.569	$GPGGA,220134,2519.5479,N,07922.1935,W,1,7,2.4,23,M,,M,,*56
06/19/2015	22:01:35.598	$GPGGA,220136,2519.5480,N,07922.1933,W,1,8,1.8,23,M,,M,,*54
06/19/2015	22:01:36.548	$GPGGA,220137,2519.5479,N,07922.1933,W,1,8,1.8,23,M,,M,,*53
06/19/2015	22:01:37.558	$GPGGA,220138,2519.5479,N,07922.1932,W,1,8,1.8,23,M,,M,,*5D
06/19/2015	22:01:38.538	$GPGGA,220139,2519.5479,N,07922.1931,W,1,8,2.4,23,M,,M,,*50
06/19/2015	22:01:39.569	$GPGGA,220140,2519.5479,N,07922.1929,W,1,8,1.8,23,M,,M,,*58
06/19/2015	22:01:40.548	$GPGGA,220141,2519.5479,N,07922.1929,W,1,8,1.8,23,M,,M,,*59
06/19/2015	22:01:41.548	$GPGGA,220142,2519.5477,N,07922.1928,W,1,8,1.8,23,M,,M,,*55
06/19/2015	22:01:42.538	$GPGGA,220143,2519.5478,N,07922.1927,W,1,8,1.8,23,M,,M,,*54
06/19/2015	22:01:43.579	$GPGGA,220144,2519.5477,N,07922.1926,W,1,8,1.8,23,M,,M,,*5D
06/19/2015	22:01:44.532	$GPGGA,220145,2519.5476,N,07922.1926,W,1,8,1.8,23,M,,M,,*5D
06/19/2015	22:01:45.523	$GPGGA,220146,2519.5475,N,07922.1925,W,1,7,1.9,23,M,,M,,*50
06/19/2015	22:01:46.531	$GPGGA,220147,2519.5473,N,07922.1926,W,1,7,3.2,23,M,,M,,*5D
06/19/2015	22:01:47.539	$GPGGA,220148,2519.5474,N,07922.1926,W,1,7,1.9,23,M,,M,,*5C
06/19/2015	22:01:48.534	$GPGGA,220149,2519.5471,N,07922.1924,W,1,7,1.8,23,M,,M,,*5B
06/19/2015	22:01:49.509	$GPGGA,220150,2519.5471,N,07922.1925,W,1,8,1.8,23,M,,M,,*5D
06/19/2015	22:01:50.509	$GPGGA,220151,2519.5471,N,07922.1922,W,1,8,1.8,23,M,,M,,*5B
06/19/2015	22:01:51.530	$GPGGA,220152,2519.5470,N,07922.1922,W,1,7,1.9,23,M,,M,,*57
06/19/2015	22:01:52.498	$GPGGA,220153,2519.5471,N,07922.1921,W,1,7,1.9,23,M,,M,,*54
06/19/2015	22:01:53.518	$GPGGA,220154,2519.5469,N,07922.1922,W,1,7,1.9,23,M,,M,,*59
06/19/2015	22:01:54.518	$GPGGA,220155,2519.5471,N,07922.1921,W,1,7,1.8,23,M,,M,,*53
06/19/2015	22:01:55.538	$GPGGA,220156,2519.5469,N,07922.1919,W,1,7,1.9,23,M,,M,,*53
06/19/2015	22:01:56.498	$GPGGA,220157,2519.5470,N,07922.1919,W,1,7,1.9,22,M,,M,,*5B
06/19/2015	22:01:57.520	$GPGGA,220158,2519.5468,N,07922.1918,W,1,7,1.9,22,M,,M,,*5C
06/19/2015	22:01:58.498	$GPGGA,220159,2519.5470,N,07922.1918,W,1,7,1.9,22,M,,M,,*54
06/19/2015	22:01:59.628	$GPGGA,220200,2519.5469,N,07922.1918,W,1,8,1.8,22,M,,M,,*5D
06/19/2015	22:02:00.508	$GPGGA,220201,2519.5470,N,07922.1918,W,1,8,1.8,22,M,,M,,*54
06/19/2015	22:02:01.499	$GPGGA,220202,2519.5468,N,07922.1918,W,1,8,1.8,22,M,,M,,*5E
06/19/2015	22:02:02.609	$GPGGA,220203,2519.5468,N,07922.1917,W,1,8,1.8,22,M,,M,,*50
06/19/2015	22:02:03.599	$GPGGA,220204,2519.5468,N,07922.1915,W,1,8,1.8,22,M,,M,,*55
06/19/2015	22:02:04.599	$GPGGA,220205,2519.5468,N,07922.1916,W,1,8,1.9,22,M,,M,,*56
06/19/2015	22:02:05.489	$GPGGA,220206,2519.5468,N,07922.1915,W,1,8,1.8,22,M,,M,,*57
06/19/2015	22:02:06.589	$GPGGA,220207,2519.5468,N,07922.1915,W,1,8,1.8,22,M,,M,,*56
06/19/2015	22:02:07.589	$GPGGA,220208,2519.5468,N,07922.1913,W,1,8,1.8,22,M,,M,,*5F
06/19/2015	22:02:08.579	$GPGGA,220209,2519.5468,N,07922.1911,W,1,8,1.9,22,M,,M,,*5D
06/19/2015	22:02:09.568	$GPGGA,220210,2519.5468,N,07922.1908,W,1,8,1.8,22,M,,M,,*5C
06/19/2015	22:02:10.578	$GPGGA,220211,2519.5468,N,07922.1906,W,1,8,1.9,22,M,,M,,*52
06/19/2015	22:02:11.578	$GPGGA,220212,2519.5468,N,07922.1908,W,1,7,1.9,22,M,,M,,*50
06/19/2015	22:02:12.848	$GPGGA,220213,2519.5468,N,07922.1907,W,1,7,1.8,22,M,,M,,*5F
06/19/2015	22:02:13.568	$GPGGA,220214,2519.5468,N,07922.1904,W,1,8,1.8,22,M,,M,,*54
06/19/2015	22:02:14.568	$GPGGA,220215,2519.5468,N,07922.1901,W,1,8,1.9,22,M,,M,,*51
06/19/2015	22:02:15.588	$GPGGA,220216,2519.5468,N,07922.1900,W,1,8,1.8,22,M,,M,,*52
06/19/2015	22:02:16.558	$GPGGA,220217,2519.5468,N,07922.1902,W,1,8,1.9,21,M,,M,,*53
06/19/2015	22:02:17.578	$GPGGA,220218,2519.5468,N,07922.1904,W,1,8,1.8,21,M,,M,,*5B
06/19/2015	22:02:18.549	$GPGGA,220219,2519.5468,N,07922.1905,W,1,8,1.8,21,M,,M,,*5B
06/19/2015	22:02:19.579	$GPGGA,220220,2519.5468,N,07922.1903,W,1,8,1.8,21,M,,M,,*57
06/19/2015	22:02:20.559	$GPGGA,220221,2519.5468,N,07922.1902,W,1,8,1.9,21,M,,M,,*56
06/19/2015	22:02:21.579	$GPGGA,220222,2519.5468,N,07922.1900,W,1,8,1.8,21,M,,M,,*56
06/19/2015	22:02:22.539	$GPGGA,220223,2519.5468,N,07922.1900,W,1,8,1.8,21,M,,M,,*57
06/19/2015	22:02:23.559	$GPGGA,220224,2519.5468,N,07922.1897,W,1,8,1.8,21,M,,M,,*5F
06/19/2015	22:02:24.549	$GPGGA,220225,2519.5468,N,07922.1895,W,1,8,1.9,21,M,,M,,*5D
06/19/2015	22:02:25.559	$GPGGA,220226,2519.5466,N,07922.1894,W,1,7,1.9,21,M,,M,,*5E
06/19/2015	22:02:26.539	$GPGGA,220227,2519.5467,N,07922.1891,W,1,7,1.8,21,M,,M,,*5A
06/19/2015	22:02:27.548	$GPGGA,220228,2519.5466,N,07922.1889,W,1,7,1.9,21,M,,M,,*5C
06/19/2015	22:02:28.538	$GPGGA,220229,2519.5467,N,07922.1893,W,1,7,1.9,21,M,,M,,*57
06/19/2015	22:02:29.538	$GPGGA,220230,2519.5466,N,07922.1891,W,1,8,1.8,21,M,,M,,*52
06/19/2015	22:02:30.538	$GPGGA,220231,2519.5467,N,07922.1888,W,1,8,1.8,21,M,,M,,*5A
06/19/2015	22:02:31.568	$GPGGA,220232,2519.5465,N,07922.1887,W,1,7,1.9,21,M,,M,,*5A
06/19/2015	22:02:32.528	$GPGGA,220233,2519.5466,N,07922.1884,W,1,7,1.8,21,M,,M,,*5A
06/19/2015	22:02:33.558	$GPGGA,220234,2519.5464,N,07922.1883,W,1,8,1.8,20,M,,M,,*56
06/19/2015	22:02:34.528	$GPGGA,220235,2519.5466,N,07922.1880,W,1,8,1.8,20,M,,M,,*56
06/19/2015	22:02:35.558	$GPGGA,220236,2519.5464,N,07922.1879,W,1,7,1.9,20,M,,M,,*5F
06/19/2015	22:02:36.510	$GPGGA,220237,2519.5464,N,07922.1880,W,1,7,1.9,20,M,,M,,*58
06/19/2015	22:02:37.520	$GPGGA,220238,2519.5466,N,07922.1879,W,1,8,1.8,20,M,,M,,*5D
06/19/2015	22:02:38.510	$GPGGA,220239,2519.5465,N,07922.1877,W,1,8,1.8,20,M,,M,,*51
06/19/2015	22:02:39.529	$GPGGA,220240,2519.5464,N,07922.1879,W,1,7,1.9,20,M,,M,,*5E
06/19/2015	22:02:40.509	$GPGGA,220241,2519.5464,N,07922.1876,W,1,7,1.8,20,M,,M,,*51
06/19/2015	22:02:41.622	$GPGGA,220242,2519.5464,N,07922.1873,W,1,8,1.8,20,M,,M,,*58
06/19/2015	22:02:42.519	$GPGGA,220243,2519.5464,N,07922.1873,W,1,8,1.9,20,M,,M,,*58
06/19/2015	22:02:43.531	$GPGGA,220244,2519.5464,N,07922.1871,W,1,8,1.8,20,M,,M,,*5C
06/19/2015	22:02:44.598	$GPGGA,220245,2519.5464,N,07922.1872,W,1,8,1.9,20,M,,M,,*5F
06/19/2015	22:02:45.498	$GPGGA,220246,2519.5464,N,07922.1872,W,1,8,1.8,19,M,,M,,*57
06/19/2015	22:02:46.588	$GPGGA,220247,2519.5464,N,07922.1869,W,1,8,1.8,19,M,,M,,*5C
06/19/2015	22:02:47.529	$GPGGA,220248,2519.5464,N,07922.1869,W,1,7,1.9,19,M,,M,,*5D
06/19/2015	22:02:48.508	$GPGGA,220249,2519.5464,N,07922.1869,W,1,7,1.8,19,M,,M,,*5D
06/19/2015	22:02:49.608	$GPGGA,220250,2519.5466,N,07922.1868,W,1,8,1.8,19,M,,M,,*59
06/19/2015	22:02:50.498	$GPGGA,220251,2519.5465,N,07922.1868,W,1,8,1.8,19,M,,M,,*5B
06/19/2015	22:02:51.598	$GPGGA,220252,2519.5466,N,07922.1867,W,1,8,1.8,19,M,,M,,*54
06/19/2015	22:02:52.578	$GPGGA,220253,2519.5465,N,07922.1868,W,1,8,1.8,19,M,,M,,*59
06/19/2015	22:02:53.599	$GPGGA,220254,2519.5464,N,07922.1867,W,1,8,1.8,19,M,,M,,*50
06/19/2015	22:02:54.569	$GPGGA,220255,2519.5466,N,07922.1866,W,1,8,1.8,19,M,,M,,*52
06/19/2015	22:02:55.579	$GPGGA,220256,2519.5464,N,07922.1865,W,1,8,1.8,19,M,,M,,*50
06/19/2015	22:02:56.579	$GPGGA,220257,2519.5464,N,07922.1863,W,1,8,1.8,19,M,,M,,*57
06/19/2015	22:02:57.579	$GPGGA,220258,2519.5464,N,07922.1861,W,1,8,1.8,19,M,,M,,*5A
06/19/2015	22:02:58.579	$GPGGA,220259,2519.5464,N,07922.1860,W,1,8,1.8,19,M,,M,,*5A
06/19/2015	22:02:59.609	$GPGGA,220300,2519.5463,N,07922.1861,W,1,8,1.8,18,M,,M,,*50
06/19/2015	22:03:00.579	$GPGGA,220301,2519.5464,N,07922.1859,W,1,8,1.8,18,M,,M,,*5D
06/19/2015	22:03:01.899	$GPGGA,220302,2519.5463,N,07922.1857,W,1,8,1.8,18,M,,M,,*57
06/19/2015	22:03:02.578	$GPGGA,220303,2519.5464,N,07922.1854,W,1,8,1.8,18,M,,M,,*52
06/19/2015	22:03:03.588	$GPGGA,220304,2519.5463,N,07922.1852,W,1,7,1.9,18,M,,M,,*5A
06/19/2015	22:03:04.568	$GPGGA,220305,2519.5464,N,07922.1850,W,1,7,1.8,18,M,,M,,*5F
06/19/2015	22:03:05.578	$GPGGA,220306,2519.5463,N,07922.1848,W,1,8,1.8,18,M,,M,,*5D
06/19/2015	22:03:06.548	$GPGGA,220307,2519.5464,N,07922.1845,W,1,8,1.8,18,M,,M,,*56
06/19/2015	22:03:07.599	$GPGGA,220308,2519.5463,N,07922.1842,W,1,7,1.9,18,M,,M,,*57
06/19/2015	22:03:08.548	$GPGGA,220309,2519.5464,N,07922.1839,W,1,7,1.8,18,M,,M,,*5C
06/19/2015	22:03:09.559	$GPGGA,220310,2519.5464,N,07922.1839,W,1,8,1.8,18,M,,M,,*5B
06/19/2015	22:03:10.558	$GPGGA,220311,2519.5463,N,07922.1836,W,1,8,1.8,18,M,,M,,*52
06/19/2015	22:03:11.569	$GPGGA,220312,2519.5464,N,07922.1834,W,1,7,1.9,18,M,,M,,*5A
06/19/2015	22:03:12.549	$GPGGA,220313,2519.5463,N,07922.1830,W,1,7,1.9,18,M,,M,,*58
06/19/2015	22:03:13.559	$GPGGA,220314,2519.5464,N,07922.1828,W,1,8,1.8,18,M,,M,,*5F
06/19/2015	22:03:14.539	$GPGGA,220315,2519.5464,N,07922.1826,W,1,8,1.8,18,M,,M,,*50
06/19/2015	22:03:15.589	$GPGGA,220316,2519.5464,N,07922.1824,W,1,8,1.8,18,M,,M,,*51
06/19/2015	22:03:16.539	$GPGGA,220317,2519.5464,N,07922.1822,W,1,8,1.9,18,M,,M,,*57
06/19/2015	22:03:17.549	$GPGGA,220318,2519.5464,N,07922.1820,W,1,7,1.9,18,M,,M,,*55
06/19/2015	22:03:18.529	$GPGGA,220319,2519.5466,N,07922.1818,W,1,7,1.9,18,M,,M,,*5D
06/19/2015	22:03:19.568	$GPGGA,220320,2519.5465,N,07922.1817,W,1,7,1.9,18,M,,M,,*5B
06/19/2015	22:03:20.522	$GPGGA,220321,2519.5466,N,07922.1816,W,1,7,1.8,18,M,,M,,*59
06/19/2015	22:03:21.548	$GPGGA,220322,2519.5465,N,07922.1814,W,1,8,1.8,18,M,,M,,*54
06/19/2015	22:03:22.538	$GPGGA,220323,2519.5466,N,07922.1812,W,1,8,1.9,18,M,,M,,*51
06/19/2015	22:03:23.538	$GPGGA,220324,2519.5467,N,07922.1814,W,1,7,1.9,18,M,,M,,*5E
06/19/2015	22:03:24.519	$GPGGA,220325,2519.5468,N,07922.1812,W,1,7,1.8,18,M,,M,,*57
06/19/2015	22:03:25.519	$GPGGA,220326,2519.5468,N,07922.1810,W,1,8,1.8,17,M,,M,,*56
06/19/2015	22:03:26.528	$GPGGA,220327,2519.5468,N,07922.1809,W,1,8,1.8,17,M,,M,,*5F
06/19/2015	22:03:27.533	$GPGGA,220328,2519.5468,N,07922.1811,W,1,7,1.9,17,M,,M,,*57
06/19/2015	22:03:28.509	$GPGGA,220329,2519.5468,N,07922.1810,W,1,7,1.8,17,M,,M,,*56
06/19/2015	22:03:29.509	$GPGGA,220330,2519.5470,N,07922.1811,W,1,8,1.8,17,M,,M,,*59
06/19/2015	22:03:30.599	$GPGGA,220331,2519.5469,N,07922.1810,W,1,8,1.8,17,M,,M,,*51
06/19/2015	22:03:31.521	$GPGGA,220332,2519.5470,N,07922.1808,W,1,8,1.8,17,M,,M,,*53
06/19/2015	22:03:32.609	$GPGGA,220333,2519.5469,N,07922.1806,W,1,8,1.9,17,M,,M,,*55
06/19/2015	22:03:33.599	$GPGGA,220334,2519.5470,N,07922.1805,W,1,8,1.8,17,M,,M,,*58
06/19/2015	22:03:34.621	$GPGGA,220335,2519.5469,N,07922.1802,W,1,8,1.8,17,M,,M,,*56
06/19/2015	22:03:35.499	$GPGGA,220336,2519.5471,N,07922.1800,W,1,8,1.8,17,M,,M,,*5E
06/19/2015	22:03:36.489	$GPGGA,220337,2519.5470,N,07922.1798,W,1,8,1.8,17,M,,M,,*50
06/19/2015	22:03:37.588	$GPGGA,220338,2519.5471,N,07922.1796,W,1,8,1.8,17,M,,M,,*50
06/19/2015	22:03:38.608	$GPGGA,220339,2519.5470,N,07922.1794,W,1,8,1.9,17,M,,M,,*53
06/19/2015	22:03:39.498	$GPGGA,220340,2519.5471,N,07922.1792,W,1,7,1.9,16,M,,M,,*54
06/19/2015	22:03:40.488	$GPGGA,220341,2519.5470,N,07922.1790,W,1,7,1.8,16,M,,M,,*57
06/19/2015	22:03:41.578	$GPGGA,220342,2519.5471,N,07922.1788,W,1,8,1.8,16,M,,M,,*53
06/19/2015	22:03:42.578	$GPGGA,220343,2519.5471,N,07922.1788,W,1,8,1.9,16,M,,M,,*53
06/19/2015	22:03:43.608	$GPGGA,220344,2519.5471,N,07922.1787,W,1,8,1.8,16,M,,M,,*5A
06/19/2015	22:03:44.568	$GPGGA,220345,2519.5472,N,07922.1788,W,1,8,1.9,16,M,,M,,*56
06/19/2015	22:03:45.568	$GPGGA,220346,2519.5471,N,07922.1786,W,1,8,1.8,16,M,,M,,*59
06/19/2015	22:03:46.579	$GPGGA,220347,2519.5472,N,07922.1786,W,1,8,1.9,16,M,,M,,*5A
06/19/2015	22:03:47.599	$GPGGA,220348,2519.5472,N,07922.1785,W,1,8,1.8,16,M,,M,,*57
06/19/2015	22:03:48.570	$GPGGA,220349,2519.5472,N,07922.1784,W,1,8,1.8,16,M,,M,,*57
06/19/2015	22:03:49.559	$GPGGA,220350,2519.5472,N,07922.1783,W,1,8,1.8,16,M,,M,,*58
06/19/2015	22:03:50.569	$GPGGA,220351,2519.5474,N,07922.1781,W,1,8,1.8,16,M,,M,,*5D
06/19/2015	22:03:51.609	$GPGGA,220352,2519.5473,N,07922.1780,W,1,8,1.8,16,M,,M,,*58
06/19/2015	22:03:52.559	$GPGGA,220353,2519.5474,N,07922.1779,W,1,8,1.8,16,M,,M,,*58
06/19/2015	22:03:53.569	$GPGGA,220354,2519.5473,N,07922.1777,W,1,8,1.8,16,M,,M,,*56
06/19/2015	22:03:54.558	$GPGGA,220355,2519.5474,N,07922.1775,W,1,8,1.9,16,M,,M,,*53
06/19/2015	22:03:55.578	$GPGGA,220356,2519.5473,N,07922.1772,W,1,7,1.9,16,M,,M,,*5F
06/19/2015	22:03:56.558	$GPGGA,220357,2519.5474,N,07922.1771,W,1,7,1.8,16,M,,M,,*5B
06/19/2015	22:03:57.568	$GPGGA,220358,2519.5475,N,07922.1769,W,1,8,1.8,15,M,,M,,*50
06/19/2015	22:03:58.548	$GPGGA,220359,2519.5473,N,07922.1768,W,1,8,1.8,15,M,,M,,*56
06/19/2015	22:03:59.627	$GPGGA,220400,2519.5474,N,07922.1767,W,1,8,1.8,15,M,,M,,*55
06/19/2015	22:04:00.538	$GPGGA,220401,2519.5475,N,07922.1766,W,1,8,1.8,15,M,,M,,*54
06/19/2015	22:04:01.538	$GPGGA,220402,2519.5475,N,07922.1764,W,1,8,1.8,15,M,,M,,*55
06/19/2015	22:04:02.548	$GPGGA,220403,2519.5475,N,07922.1763,W,1,8,1.8,15,M,,M,,*53
06/19/2015	22:04:03.549	$GPGGA,220404,2519.5475,N,07922.1761,W,1,8,1.8,15,M,,M,,*56
06/19/2015	22:04:04.531	$GPGGA,220405,2519.5475,N,07922.1761,W,1,8,1.9,15,M,,M,,*56
06/19/2015	22:04:05.521	$GPGGA,220406,2519.5475,N,07922.1760,W,1,8,1.8,15,M,,M,,*55
06/19/2015	22:04:06.539	$GPGGA,220407,2519.5475,N,07922.1758,W,1,8,1.8,15,M,,M,,*5F
06/19/2015	22:04:07.539	$GPGGA,220408,2519.5475,N,07922.1757,W,1,7,1.9,15,M,,M,,*51
06/19/2015	22:04:08.539	$GPGGA,220409,2519.5475,N,07922.1756,W,1,7,1.8,15,M,,M,,*50
06/19/2015	22:04:09.569	$GPGGA,220410,2519.5475,N,07922.1755,W,1,8,1.8,15,M,,M,,*54
06/19/2015	22:04:10.529	$GPGGA,220411,2519.5475,N,07922.1754,W,1,8,1.8,15,M,,M,,*54
06/19/2015	22:04:11.539	$GPGGA,220412,2519.5475,N,07922.1752,W,1,8,1.8,15,M,,M,,*51
06/19/2015	22:04:12.522	$GPGGA,220413,2519.5475,N,07922.1750,W,1,8,1.8,15,M,,M,,*52
06/19/2015	22:04:13.533	$GPGGA,220414,2519.5475,N,07922.1752,W,1,7,1.9,15,M,,M,,*59
06/19/2015	22:04:14.521	$GPGGA,220415,2519.5475,N,07922.1752,W,1,7,1.8,15,M,,M,,*59
06/19/2015	22:04:15.538	$GPGGA,220416,2519.5477,N,07922.1749,W,1,8,1.8,15,M,,M,,*5D
06/19/2015	22:04:16.608	$GPGGA,220417,2519.5476,N,07922.1747,W,1,8,1.9,15,M,,M,,*52
06/19/2015	22:04:17.608	$GPGGA,220418,2519.5477,N,07922.1746,W,1,7,1.8,15,M,,M,,*53
06/19/2015	22:04:18.508	$GPGGA,220419,2519.5476,N,07922.1745,W,1,7,1.8,15,M,,M,,*50
06/19/2015	22:04:19.668	$GPGGA,220420,2519.5477,N,07922.1743,W,1,8,1.9,15,M,,M,,*53
06/19/2015	22:04:20.522	$GPGGA,220421,2519.5476,N,07922.1743,W,1,8,1.9,15,M,,M,,*53
06/19/2015	22:04:21.499	$GPGGA,220422,2519.5477,N,07922.1740,W,1,8,1.8,15,M,,M,,*53
06/19/2015	22:04:22.522	$GPGGA,220423,2519.5476,N,07922.1739,W,1,8,1.9,15,M,,M,,*5C
06/19/2015	22:04:23.535	$GPGGA,220424,2519.5477,N,07922.1739,W,1,8,1.8,15,M,,M,,*5B
06/19/2015	22:04:24.499	$GPGGA,220425,2519.5476,N,07922.1736,W,1,8,1.8,14,M,,M,,*55
06/19/2015	22:04:25.499	$GPGGA,220426,2519.5477,N,07922.1734,W,1,8,1.8,14,M,,M,,*55
06/19/2015	22:04:26.499	$GPGGA,220427,2519.5475,N,07922.1731,W,1,8,1.8,14,M,,M,,*53
06/19/2015	22:04:27.649	$GPGGA,220428,2519.5475,N,07922.1730,W,1,8,1.8,14,M,,M,,*5D
06/19/2015	22:04:28.599	$GPGGA,220429,2519.5475,N,07922.1729,W,1,8,1.8,14,M,,M,,*54
06/19/2015	22:04:29.598	$GPGGA,220430,2519.5475,N,07922.1728,W,1,8,1.8,14,M,,M,,*5D
06/19/2015	22:04:30.588	$GPGGA,220431,2519.5475,N,07922.1726,W,1,8,1.8,14,M,,M,,*52
06/19/2015	22:04:31.598	$GPGGA,220432,2519.5475,N,07922.1725,W,1,8,1.8,14,M,,M,,*52
06/19/2015	22:04:32.588	$GPGGA,220433,2519.5475,N,07922.1724,W,1,8,1.8,14,M,,M,,*52
06/19/2015	22:04:33.578	$GPGGA,220434,2519.5475,N,07922.1722,W,1,8,1.8,14,M,,M,,*53
06/19/2015	22:04:34.598	$GPGGA,220435,2519.5475,N,07922.1721,W,1,8,1.8,14,M,,M,,*51
06/19/2015	22:04:35.608	$GPGGA,220436,2519.5475,N,07922.1720,W,1,8,2.4,14,M,,M,,*5C
06/19/2015	22:04:36.568	$GPGGA,220437,2519.5473,N,07922.1720,W,1,8,1.8,14,M,,M,,*54
06/19/2015	22:04:37.588	$GPGGA,220438,2519.5472,N,07922.1719,W,1,8,1.8,14,M,,M,,*50
06/19/2015	22:04:38.579	$GPGGA,220439,2519.5472,N,07922.1717,W,1,8,1.8,14,M,,M,,*5F
06/19/2015	22:04:39.600	$GPGGA,220440,2519.5471,N,07922.1717,W,1,8,1.8,14,M,,M,,*52
06/19/2015	22:04:40.559	$GPGGA,220441,2519.5469,N,07922.1717,W,1,8,1.8,15,M,,M,,*5B
06/19/2015	22:04:41.589	$GPGGA,220442,2519.5470,N,07922.1716,W,1,8,1.8,15,M,,M,,*51
06/19/2015	22:04:42.559	$GPGGA,220443,2519.5468,N,07922.1715,W,1,8,1.8,15,M,,M,,*5A
06/19/2015	22:04:43.589	$GPGGA,220444,2519.5468,N,07922.1713,W,1,8,1.8,15,M,,M,,*5B
06/19/2015	22:04:44.549	$GPGGA,220445,2519.5466,N,07922.1712,W,1,8,1.8,15,M,,M,,*55
06/19/2015	22:04:45.539	$GPGGA,220446,2519.5468,N,07922.1710,W,1,8,1.8,15,M,,M,,*5A
06/19/2015	22:04:46.548	$GPGGA,220447,2519.5465,N,07922.1708,W,1,8,1.8,15,M,,M,,*5F
06/19/2015	22:04:47.608	$GPGGA,220448,2519.5466,N,07922.1707,W,1,8,1.9,16,M,,M,,*5E
06/19/2015	22:04:48.548	$GPGGA,220449,2519.5465,N,07922.1707,W,1,8,1.8,16,M,,M,,*5D
06/19/2015	22:04:49.578	$GPGGA,220450,2519.5466,N,07922.1709,W,1,8,1.8,16,M,,M,,*58
06/19/2015	22:04:50.538	$GPGGA,220451,2519.5465,N,07922.1707,W,1,8,1.8,16,M,,M,,*54
06/19/2015	22:04:51.568	$GPGGA,220452,2519.5466,N,07922.1707,W,1,8,1.8,16,M,,M,,*54
06/19/2015	22:04:52.532	$GPGGA,220453,2519.5467,N,07922.1706,W,1,8,1.8,16,M,,M,,*55
06/19/2015	22:04:53.559	$GPGGA,220454,2519.5468,N,07922.1704,W,1,8,1.8,16,M,,M,,*5F
06/19/2015	22:04:54.538	$GPGGA,220455,2519.5466,N,07922.1702,W,1,8,1.8,17,M,,M,,*57
06/19/2015	22:04:55.558	$GPGGA,220456,2519.5468,N,07922.1701,W,1,8,1.8,17,M,,M,,*59
06/19/2015	22:04:56.531	$GPGGA,220457,2519.5468,N,07922.1699,W,1,8,1.9,17,M,,M,,*59
06/19/2015	22:04:57.539	$GPGGA,220458,2519.5468,N,07922.1697,W,1,7,1.9,17,M,,M,,*57
06/19/2015	22:04:58.519	$GPGGA,220459,2519.5468,N,07922.1698,W,1,7,1.8,17,M,,M,,*58
06/19/2015	22:04:59.589	$GPGGA,220500,2519.5468,N,07922.1696,W,1,8,1.8,17,M,,M,,*54
06/19/2015	22:05:00.522	$GPGGA,220501,2519.5468,N,07922.1696,W,1,8,1.8,17,M,,M,,*55
06/19/2015	22:05:01.549	$GPGGA,220502,2519.5468,N,07922.1695,W,1,8,1.8,17,M,,M,,*55
06/19/2015	22:05:02.509	$GPGGA,220503,2519.5470,N,07922.1693,W,1,8,1.9,17,M,,M,,*5A
06/19/2015	22:05:03.579	$GPGGA,220504,2519.5471,N,07922.1694,W,1,7,1.8,17,M,,M,,*55
06/19/2015	22:05:04.520	$GPGGA,220505,2519.5470,N,07922.1695,W,1,7,1.8,17,M,,M,,*54
06/19/2015	22:05:05.499	$GPGGA,220506,2519.5471,N,07922.1694,W,1,8,1.8,17,M,,M,,*58
06/19/2015	22:05:06.513	$GPGGA,220507,2519.5470,N,07922.1693,W,1,8,2.4,17,M,,M,,*50
06/19/2015	22:05:07.558	$GPGGA,220508,2519.5469,N,07922.1691,W,1,7,1.9,17,M,,M,,*54
06/19/2015	22:05:08.516	$GPGGA,220509,2519.5468,N,07922.1689,W,1,7,1.9,18,M,,M,,*52
06/19/2015	22:05:09.616	$GPGGA,220510,2519.5468,N,07922.1689,W,1,7,1.9,18,M,,M,,*5A
06/19/2015	22:05:10.520	$GPGGA,220511,2519.5470,N,07922.1687,W,1,7,1.8,18,M,,M,,*5D
06/19/2015	22:05:11.558	$GPGGA,220512,2519.5469,N,07922.1686,W,1,8,1.8,18,M,,M,,*58
06/19/2015	22:05:12.578	$GPGGA,220513,2519.5470,N,07922.1683,W,1,8,1.9,18,M,,M,,*55
06/19/2015	22:05:13.598	$GPGGA,220514,2519.5471,N,07922.1684,W,1,7,1.9,18,M,,M,,*5B
06/19/2015	22:05:14.578	$GPGGA,220515,2519.5469,N,07922.1680,W,1,7,1.8,18,M,,M,,*56
06/19/2015	22:05:15.609	$GPGGA,220516,2519.5470,N,07922.1678,W,1,8,1.8,18,M,,M,,*55
06/19/2015	22:05:16.588	$GPGGA,220517,2519.5471,N,07922.1675,W,1,8,1.9,18,M,,M,,*59
06/19/2015	22:05:17.568	$GPGGA,220518,2519.5470,N,07922.1676,W,1,7,1.8,18,M,,M,,*5A
06/19/2015	22:05:18.578	$GPGGA,220519,2519.5471,N,07922.1672,W,1,7,1.8,18,M,,M,,*5E
06/19/2015	22:05:19.598	$GPGGA,220520,2519.5470,N,07922.1670,W,1,7,1.9,18,M,,M,,*56
06/19/2015	22:05:20.558	$GPGGA,220521,2519.5471,N,07922.1668,W,1,7,1.8,18,M,,M,,*5E
06/19/2015	22:05:21.567	$GPGGA,220522,2519.5471,N,07922.1665,W,1,8,1.8,19,M,,M,,*5E
06/19/2015	22:05:22.567	$GPGGA,220523,2519.5471,N,07922.1663,W,1,8,1.8,19,M,,M,,*59
06/19/2015	22:05:23.598	$GPGGA,220524,2519.5470,N,07922.1660,W,1,8,1.8,19,M,,M,,*5C
06/19/2015	22:05:24.568	$GPGGA,220525,2519.5470,N,07922.1660,W,1,8,1.9,19,M,,M,,*5C
06/19/2015	22:05:25.568	$GPGGA,220526,2519.5471,N,07922.1657,W,1,8,1.8,19,M,,M,,*5B
06/19/2015	22:05:26.559	$GPGGA,220527,2519.5472,N,07922.1656,W,1,8,1.8,19,M,,M,,*58
06/19/2015	22:05:27.588	$GPGGA,220528,2519.5472,N,07922.1654,W,1,8,1.8,19,M,,M,,*55
06/19/2015	22:05:28.558	$GPGGA,220529,2519.5471,N,07922.1652,W,1,8,1.8,19,M,,M,,*51
06/19/2015	22:05:29.578	$GPGGA,220530,2519.5474,N,07922.1650,W,1,8,1.8,19,M,,M,,*5E
06/19/2015	22:05:30.548	$GPGGA,220531,2519.5473,N,07922.1647,W,1,8,1.9,19,M,,M,,*5F
06/19/2015	22:05:31.578	$GPGGA,220532,2519.5474,N,07922.1644,W,1,7,1.9,19,M,,M,,*57
06/19/2015	22:05:32.538	$GPGGA,220533,2519.5473,N,07922.1641,W,1,7,1.8,19,M,,M,,*55
06/19/2015	22:05:33.558	$GPGGA,220534,2519.5475,N,07922.1638,W,1,8,1.8,19,M,,M,,*55
06/19/2015	22:05:34.528	$GPGGA,220535,2519.5475,N,07922.1636,W,1,8,1.8,19,M,,M,,*5A
06/19/2015	22:05:35.538	$GPGGA,220536,2519.5475,N,07922.1633,W,1,7,1.9,19,M,,M,,*52
06/19/2015	22:05:36.548	$GPGGA,220537,2519.5475,N,07922.1632,W,1,7,1.8,19,M,,M,,*53
06/19/2015	22:05:37.548	$GPGGA,220538,2519.5477,N,07922.1630,W,1,8,1.8,19,M,,M,,*53
06/19/2015	22:05:38.528	$GPGGA,220539,2519.5478,N,07922.1628,W,1,8,1.8,19,M,,M,,*54
06/19/2015	22:05:39.597	$GPGGA,220540,2519.5479,N,07922.1626,W,1,8,1.8,19,M,,M,,*55
06/19/2015	22:05:40.537	$GPGGA,220541,2519.5479,N,07922.1626,W,1,8,1.9,19,M,,M,,*55
06/19/2015	22:05:41.548	$GPGGA,220542,2519.5479,N,07922.1625,W,1,8,1.8,19,M,,M,,*54
06/19/2015	22:05:42.528	$GPGGA,220543,2519.5481,N,07922.1624,W,1,8,1.8,19,M,,M,,*53
06/19/2015	22:05:43.568	$GPGGA,220544,2519.5482,N,07922.1622,W,1,8,1.8,18,M,,M,,*50
06/19/2015	22:05:44.535	$GPGGA,220545,2519.5482,N,07922.1620,W,1,8,1.8,18,M,,M,,*53
06/19/2015	22:05:45.548	$GPGGA,220546,2519.5484,N,07922.1618,W,1,8,1.8,18,M,,M,,*5D
06/19/2015	22:05:46.528	$GPGGA,220547,2519.5485,N,07922.1617,W,1,8,1.8,18,M,,M,,*52
06/19/2015	22:05:47.558	$GPGGA,220548,2519.5486,N,07922.1616,W,1,8,1.8,18,M,,M,,*5F
06/19/2015	22:05:48.511	$GPGGA,220549,2519.5486,N,07922.1613,W,1,8,1.8,18,M,,M,,*5B
06/19/2015	22:05:49.509	$GPGGA,220550,2519.5486,N,07922.1610,W,1,7,1.9,18,M,,M,,*5E
06/19/2015	22:05:50.522	$GPGGA,220551,2519.5488,N,07922.1611,W,1,7,1.9,18,M,,M,,*50
06/19/2015	22:05:51.538	$GPGGA,220552,2519.5489,N,07922.1609,W,1,8,1.8,18,M,,M,,*55
06/19/2015	22:05:52.501	$GPGGA,220553,2519.5490,N,07922.1606,W,1,8,1.8,18,M,,M,,*53
06/19/2015	22:05:53.488	$GPGGA,220554,2519.5490,N,07922.1607,W,1,8,1.8,18,M,,M,,*55
06/19/2015	22:05:54.488	$GPGGA,220555,2519.5490,N,07922.1604,W,1,8,1.8,18,M,,M,,*57
06/19/2015	22:05:55.628	$GPGGA,220556,2519.5492,N,07922.1603,W,1,8,1.8,18,M,,M,,*51
06/19/2015	22:05:56.511	$GPGGA,220557,2519.5493,N,07922.1602,W,1,8,1.8,18,M,,M,,*50
06/19/2015	22:05:57.487	$GPGGA,220558,2519.5493,N,07922.1600,W,1,8,1.8,18,M,,M,,*5D
06/19/2015	22:05:58.588	$GPGGA,220559,2519.5495,N,07922.1598,W,1,8,1.8,18,M,,M,,*58
06/19/2015	22:05:59.548	$GPGGA,220600,2519.5496,N,07922.1597,W,1,8,1.8,18,M,,M,,*5B
06/19/2015	22:06:00.578	$GPGGA,220601,2519.5495,N,07922.1595,W,1,8,1.8,18,M,,M,,*5B
06/19/2015	22:06:01.613	$GPGGA,220602,2519.5497,N,07922.1593,W,1,8,1.8,18,M,,M,,*5C
06/19/2015	22:06:02.578	$GPGGA,220603,2519.5499,N,07922.1592,W,1,8,1.8,18,M,,M,,*52
06/19/2015	22:06:03.488	$GPGGA,220604,2519.5498,N,07922.1590,W,1,8,1.8,18,M,,M,,*56
06/19/2015	22:06:04.578	$GPGGA,220605,2519.5500,N,07922.1589,W,1,8,1.8,18,M,,M,,*5F
06/19/2015	22:06:05.478	$GPGGA,220606,2519.5500,N,07922.1586,W,1,8,1.8,18,M,,M,,*53
06/19/2015	22:06:06.568	$GPGGA,220607,2519.5501,N,07922.1584,W,1,8,1.9,17,M,,M,,*5F
06/19/2015	22:06:07.588	$GPGGA,220608,2519.5503,N,07922.1584,W,1,8,1.8,17,M,,M,,*53
06/19/2015	22:06:08.578	$GPGGA,220609,2519.5504,N,07922.1584,W,1,8,1.8,17,M,,M,,*55
06/19/2015	22:06:09.598	$GPGGA,220610,2519.5504,N,07922.1580,W,1,8,1.8,17,M,,M,,*59
06/19/2015	22:06:10.568	$GPGGA,220611,2519.5506,N,07922.1578,W,1,8,1.9,17,M,,M,,*5C
06/19/2015	22:06:11.598	$GPGGA,220612,2519.5505,N,07922.1577,W,1,7,1.9,17,M,,M,,*5C
06/19/2015	22:06:12.568	$GPGGA,220613,2519.5507,N,07922.1577,W,1,7,1.8,17,M,,M,,*5E
06/19/2015	22:06:13.578	$GPGGA,220614,2519.5508,N,07922.1575,W,1,8,1.8,17,M,,M,,*5B
06/19/2015	22:06:14.567	$GPGGA,220615,2519.5508,N,07922.1573,W,1,8,1.8,17,M,,M,,*5C
06/19/2015	22:06:15.597	$GPGGA,220616,2519.5510,N,07922.1575,W,1,7,1.9,17,M,,M,,*5E
06/19/2015	22:06:16.558	$GPGGA,220617,2519.5511,N,07922.1574,W,1,7,1.8,17,M,,M,,*5E
06/19/2015	22:06:17.548	$GPGGA,220618,2519.5511,N,07922.1573,W,1,8,1.8,17,M,,M,,*59
06/19/2015	22:06:18.548	$GPGGA,220619,2519.5511,N,07922.1571,W,1,8,1.8,17,M,,M,,*5A
06/19/2015	22:06:19.568	$GPGGA,220620,2519.5514,N,07922.1570,W,1,8,1.8,17,M,,M,,*54
06/19/2015	22:06:20.548	$GPGGA,220621,2519.5515,N,07922.1568,W,1,8,1.8,16,M,,M,,*5C
06/19/2015	22:06:21.568	$GPGGA,220622,2519.5515,N,07922.1567,W,1,8,1.8,16,M,,M,,*50
06/19/2015	22:06:22.548	$GPGGA,220623,2519.5515,N,07922.1566,W,1,8,1.8,16,M,,M,,*50
06/19/2015	22:06:23.568	$GPGGA,220624,2519.5517,N,07922.1564,W,1,8,1.8,16,M,,M,,*57
06/19/2015	22:06:24.538	$GPGGA,220625,2519.5518,N,07922.1561,W,1,8,1.8,16,M,,M,,*5C
06/19/2015	22:06:25.525	$GPGGA,220626,2519.5517,N,07922.1560,W,1,8,1.8,16,M,,M,,*51
06/19/2015	22:06:26.538	$GPGGA,220627,2519.5518,N,07922.1559,W,1,8,1.8,16,M,,M,,*55
06/19/2015	22:06:27.621	$GPGGA,220628,2519.5518,N,07922.1557,W,1,8,1.8,16,M,,M,,*54
06/19/2015	22:06:28.520	$GPGGA,220629,2519.5521,N,07922.1553,W,1,8,1.8,16,M,,M,,*5B
06/19/2015	22:06:29.548	$GPGGA,220630,2519.5522,N,07922.1550,W,1,7,1.9,16,M,,M,,*5D
06/19/2015	22:06:30.528	$GPGGA,220631,2519.5522,N,07922.1548,W,1,7,1.8,16,M,,M,,*54
06/19/2015	22:06:31.557	$GPGGA,220632,2519.5522,N,07922.1546,W,1,8,1.8,16,M,,M,,*56
06/19/2015	22:06:32.527	$GPGGA,220633,2519.5524,N,07922.1542,W,1,8,1.8,16,M,,M,,*55
06/19/2015	22:06:33.549	$GPGGA,220634,2519.5525,N,07922.1543,W,1,7,1.9,16,M,,M,,*5C
06/19/2015	22:06:34.521	$GPGGA,220635,2519.5524,N,07922.1541,W,1,7,1.8,15,M,,M,,*5C
06/19/2015	22:06:35.558	$GPGGA,220636,2519.5526,N,07922.1540,W,1,8,1.8,15,M,,M,,*53
06/19/2015	22:06:36.515	$GPGGA,220637,2519.5526,N,07922.1536,W,1,8,1.8,15,M,,M,,*53
06/19/2015	22:06:37.538	$GPGGA,220638,2519.5528,N,07922.1534,W,1,7,1.9,15,M,,M,,*5E
06/19/2015	22:06:38.538	$GPGGA,220639,2519.5527,N,07922.1532,W,1,7,1.8,15,M,,M,,*57
06/19/2015	22:06:39.619	$GPGGA,220640,2519.5529,N,07922.1530,W,1,8,1.8,15,M,,M,,*5A
06/19/2015	22:06:40.511	$GPGGA,220641,2519.5529,N,07922.1527,W,1,8,1.8,15,M,,M,,*5D
06/19/2015	22:06:41.498	$GPGGA,220642,2519.5531,N,07922.1525,W,1,8,1.8,15,M,,M,,*55
06/19/2015	22:06:42.513	$GPGGA,220643,2519.5532,N,07922.1523,W,1,8,1.8,15,M,,M,,*51
06/19/2015	22:06:43.528	$GPGGA,220644,2519.5533,N,07922.1520,W,1,8,1.8,15,M,,M,,*54
06/19/2015	22:06:44.608	$GPGGA,220645,2519.5533,N,07922.1518,W,1,8,1.8,15,M,,M,,*5E
06/19/2015	22:06:45.512	$GPGGA,220646,2519.5533,N,07922.1516,W,1,8,1.8,15,M,,M,,*53
06/19/2015	22:06:46.588	$GPGGA,220647,2519.5535,N,07922.1514,W,1,8,1.8,15,M,,M,,*56
06/19/2015	22:06:47.513	$GPGGA,220648,2519.5536,N,07922.1512,W,1,8,1.8,15,M,,M,,*5C
06/19/2015	22:06:48.578	$GPGGA,220649,2519.5536,N,07922.1510,W,1,8,1.8,15,M,,M,,*5F
06/19/2015	22:06:49.617	$GPGGA,220650,2519.5536,N,07922.1508,W,1,8,1.8,15,M,,M,,*5E
06/19/2015	22:06:50.577	$GPGGA,220651,2519.5537,N,07922.1506,W,1,8,1.8,15,M,,M,,*50
06/19/2015	22:06:51.588	$GPGGA,220652,2519.5539,N,07922.1503,W,1,8,1.8,15,M,,M,,*58
06/19/2015	22:06:52.588	$GPGGA,220653,2519.5540,N,07922.1502,W,1,8,1.9,15,M,,M,,*57
06/19/2015	22:06:53.578	$GPGGA,220654,2519.5540,N,07922.1501,W,1,8,1.8,15,M,,M,,*52
06/19/2015	22:06:54.568	$GPGGA,220655,2519.5542,N,07922.1499,W,1,8,1.8,15,M,,M,,*51
06/19/2015	22:06:55.612	$GPGGA,220656,2519.5544,N,07922.1498,W,1,8,1.8,14,M,,M,,*54
06/19/2015	22:06:56.568	$GPGGA,220657,2519.5544,N,07922.1496,W,1,8,1.8,14,M,,M,,*5B
06/19/2015	22:06:57.558	$GPGGA,220658,2519.5544,N,07922.1495,W,1,8,1.8,14,M,,M,,*57
06/19/2015	22:06:58.568	$GPGGA,220659,2519.5546,N,07922.1493,W,1,8,1.8,14,M,,M,,*52
06/19/2015	22:06:59.598	$GPGGA,220700,2519.5547,N,07922.1489,W,1,8,1.8,14,M,,M,,*55
06/19/2015	22:07:00.578	$GPGGA,220701,2519.5547,N,07922.1487,W,1,8,1.9,14,M,,M,,*5B
06/19/2015	22:07:01.578	$GPGGA,220702,2519.5547,N,07922.1485,W,1,8,1.8,14,M,,M,,*5B
06/19/2015	22:07:02.548	$GPGGA,220703,2519.5549,N,07922.1482,W,1,8,1.8,14,M,,M,,*53
06/19/2015	22:07:03.578	$GPGGA,220704,2519.5551,N,07922.1479,W,1,8,1.8,14,M,,M,,*59
06/19/2015	22:07:04.558	$GPGGA,220705,2519.5551,N,07922.1477,W,1,8,1.8,14,M,,M,,*56
06/19/2015	22:07:05.568	$GPGGA,220706,2519.5551,N,07922.1476,W,1,8,1.8,14,M,,M,,*54
06/19/2015	22:07:06.547	$GPGGA,220707,2519.5553,N,07922.1473,W,1,8,1.8,14,M,,M,,*52
06/19/2015	22:07:07.577	$GPGGA,220708,2519.5554,N,07922.1471,W,1,8,1.8,14,M,,M,,*58
06/19/2015	22:07:08.548	$GPGGA,220709,2519.5553,N,07922.1470,W,1,8,1.8,14,M,,M,,*5F
06/19/2015	22:07:09.538	$GPGGA,220710,2519.5555,N,07922.1468,W,1,8,1.8,14,M,,M,,*58
06/19/2015	22:07:10.538	$GPGGA,220711,2519.5555,N,07922.1466,W,1,8,1.8,14,M,,M,,*57
06/19/2015	22:07:11.578	$GPGGA,220712,2519.5557,N,07922.1465,W,1,8,1.8,14,M,,M,,*55
06/19/2015	22:07:12.538	$GPGGA,220713,2519.5558,N,07922.1463,W,1,8,1.8,14,M,,M,,*5D
06/19/2015	22:07:13.568	$GPGGA,220714,2519.5560,N,07922.1460,W,1,8,1.8,14,M,,M,,*52
06/19/2015	22:07:14.538	$GPGGA,220715,2519.5561,N,07922.1459,W,1,8,1.9,14,M,,M,,*59
06/19/2015	22:07:15.578	$GPGGA,220716,2519.5562,N,07922.1458,W,1,8,1.8,14,M,,M,,*59
06/19/2015	22:07:16.528	$GPGGA,220717,2519.5562,N,07922.1456,W,1,8,1.8,14,M,,M,,*56
06/19/2015	22:07:17.528	$GPGGA,220718,2519.5564,N,07922.1454,W,1,8,1.8,14,M,,M,,*5D
06/19/2015	22:07:18.528	$GPGGA,220719,2519.5565,N,07922.1452,W,1,8,1.8,14,M,,M,,*5B
06/19/2015	22:07:19.568	$GPGGA,220720,2519.5565,N,07922.1448,W,1,7,1.9,14,M,,M,,*54
06/19/2015	22:07:20.528	$GPGGA,220721,2519.5565,N,07922.1446,W,1,7,1.9,14,M,,M,,*5B
06/19/2015	22:07:21.548	$GPGGA,220722,2519.5566,N,07922.1445,W,1,8,1.8,14,M,,M,,*56
06/19/2015	22:07:22.518	$GPGGA,220723,2519.5569,N,07922.1444,W,1,8,1.8,14,M,,M,,*59
06/19/2015	22:07:23.538	$GPGGA,220724,2519.5569,N,07922.1442,W,1,8,1.8,14,M,,M,,*58
06/19/2015	22:07:24.508	$GPGGA,220725,2519.5569,N,07922.1441,W,1,8,1.8,14,M,,M,,*5A
06/19/2015	22:07:25.547	$GPGGA,220726,2519.5571,N,07922.1439,W,1,8,1.8,14,M,,M,,*5F
06/19/2015	22:07:26.598	$GPGGA,220727,2519.5573,N,07922.1436,W,1,8,1.8,14,M,,M,,*53
06/19/2015	22:07:27.678	$GPGGA,220728,2519.5573,N,07922.1436,W,1,7,1.8,14,M,,M,,*53
06/19/2015	22:07:28.519	$GPGGA,220729,2519.5573,N,07922.1434,W,1,7,1.8,14,M,,M,,*50
06/19/2015	22:07:29.522	$GPGGA,220730,2519.5576,N,07922.1432,W,1,8,1.8,14,M,,M,,*54
06/19/2015	22:07:30.522	$GPGGA,220731,2519.5576,N,07922.1429,W,1,8,1.8,14,M,,M,,*5F
06/19/2015	22:07:31.528	$GPGGA,220732,2519.5576,N,07922.1428,W,1,7,1.9,14,M,,M,,*53
06/19/2015	22:07:32.529	$GPGGA,220733,2519.5578,N,07922.1427,W,1,7,1.8,14,M,,M,,*52
06/19/2015	22:07:33.628	$GPGGA,220734,2519.5579,N,07922.1425,W,1,8,1.8,14,M,,M,,*59
06/19/2015	22:07:34.515	$GPGGA,220735,2519.5580,N,07922.1422,W,1,8,1.8,14,M,,M,,*59
06/19/2015	22:07:35.668	$GPGGA,220736,2519.5580,N,07922.1421,W,1,7,1.8,14,M,,M,,*56
06/19/2015	22:07:36.498	$GPGGA,220737,2519.5580,N,07922.1419,W,1,7,1.8,14,M,,M,,*5C
06/19/2015	22:07:37.608	$GPGGA,220738,2519.5582,N,07922.1417,W,1,8,1.8,14,M,,M,,*50
06/19/2015	22:07:38.578	$GPGGA,220739,2519.5583,N,07922.1415,W,1,8,1.8,14,M,,M,,*52
06/19/2015	22:07:39.588	$GPGGA,220740,2519.5581,N,07922.1411,W,1,8,1.8,14,M,,M,,*5A
06/19/2015	22:07:40.668	$GPGGA,220741,2519.5580,N,07922.1408,W,1,8,1.5,14,M,,M,,*5F
06/19/2015	22:07:41.567	$GPGGA,220742,2519.5580,N,07922.1405,W,1,8,1.5,14,M,,M,,*51
06/19/2015	22:07:42.637	$GPGGA,220743,2519.5580,N,07922.1403,W,1,8,1.5,14,M,,M,,*56
06/19/2015	22:07:43.648	$GPGGA,220744,2519.5582,N,07922.1401,W,1,8,1.5,14,M,,M,,*51
06/19/2015	22:07:44.638	$GPGGA,220745,2519.5581,N,07922.1398,W,1,8,1.5,14,M,,M,,*54
06/19/2015	22:07:45.609	$GPGGA,220746,2519.5582,N,07922.1396,W,1,8,1.5,14,M,,M,,*5A
06/19/2015	22:07:46.558	$GPGGA,220747,2519.5581,N,07922.1393,W,1,8,1.5,14,M,,M,,*5D
06/19/2015	22:07:47.621	$GPGGA,220748,2519.5583,N,07922.1391,W,1,9,1.5,14,M,,M,,*53
06/19/2015	22:07:48.558	$GPGGA,220749,2519.5582,N,07922.1389,W,1,9,1.5,14,M,,M,,*5A
06/19/2015	22:07:49.598	$GPGGA,220750,2519.5583,N,07922.1387,W,1,9,1.5,15,M,,M,,*5C
06/19/2015	22:07:50.614	$GPGGA,220751,2519.5583,N,07922.1385,W,1,9,1.5,15,M,,M,,*5F
06/19/2015	22:07:51.658	$GPGGA,220752,2519.5584,N,07922.1383,W,1,9,1.5,15,M,,M,,*5D
06/19/2015	22:07:52.628	$GPGGA,220753,2519.5586,N,07922.1381,W,1,9,1.5,15,M,,M,,*5C
06/19/2015	22:07:53.548	$GPGGA,220754,2519.5585,N,07922.1379,W,1,9,1.5,15,M,,M,,*5F
06/19/2015	22:07:54.598	$GPGGA,220755,2519.5587,N,07922.1377,W,1,9,1.5,15,M,,M,,*52
06/19/2015	22:07:55.658	$GPGGA,220756,2519.5587,N,07922.1374,W,1,9,1.5,15,M,,M,,*52
06/19/2015	22:07:56.598	$GPGGA,220757,2519.5589,N,07922.1372,W,1,9,1.5,15,M,,M,,*5B
06/19/2015	22:07:57.588	$GPGGA,220758,2519.5588,N,07922.1370,W,1,9,1.5,15,M,,M,,*57
06/19/2015	22:07:58.588	$GPGGA,220759,2519.5590,N,07922.1368,W,1,9,1.5,15,M,,M,,*56
06/19/2015	22:07:59.597	$GPGGA,220800,2519.5589,N,07922.1366,W,1,9,1.5,16,M,,M,,*50
06/19/2015	22:08:00.597	$GPGGA,220801,2519.5591,N,07922.1364,W,1,9,1.5,16,M,,M,,*5A
06/19/2015	22:08:01.528	$GPGGA,220802,2519.5591,N,07922.1362,W,1,9,1.5,16,M,,M,,*5F
06/19/2015	22:08:02.588	$GPGGA,220803,2519.5593,N,07922.1360,W,1,9,1.5,16,M,,M,,*5E
06/19/2015	22:08:03.588	$GPGGA,220804,2519.5592,N,07922.1358,W,1,9,1.5,16,M,,M,,*53
06/19/2015	22:08:04.519	$GPGGA,220805,2519.5593,N,07922.1356,W,1,9,1.5,16,M,,M,,*5D
06/19/2015	22:08:05.528	$GPGGA,220806,2519.5594,N,07922.1354,W,1,9,1.5,16,M,,M,,*5B
06/19/2015	22:08:06.598	$GPGGA,220807,2519.5596,N,07922.1352,W,1,9,1.5,16,M,,M,,*5E
06/19/2015	22:08:07.618	$GPGGA,220808,2519.5595,N,07922.1350,W,1,9,1.5,16,M,,M,,*50
06/19/2015	22:08:08.518	$GPGGA,220809,2519.5597,N,07922.1349,W,1,9,1.5,16,M,,M,,*5B
06/19/2015	22:08:09.558	$GPGGA,220810,2519.5598,N,07922.1346,W,1,9,1.5,16,M,,M,,*53
06/19/2015	22:08:10.568	$GPGGA,220811,2519.5598,N,07922.1344,W,1,9,1.5,16,M,,M,,*50
06/19/2015	22:08:11.598	$GPGGA,220812,2519.5600,N,07922.1342,W,1,9,1.5,17,M,,M,,*56
06/19/2015	22:08:12.568	$GPGGA,220813,2519.5601,N,07922.1340,W,1,9,1.5,17,M,,M,,*54
06/19/2015	22:08:13.538	$GPGGA,220814,2519.5602,N,07922.1338,W,1,9,1.5,17,M,,M,,*5F
06/19/2015	22:08:14.498	$GPGGA,220815,2519.5602,N,07922.1336,W,1,9,1.5,17,M,,M,,*50
06/19/2015	22:08:15.568	$GPGGA,220816,2519.5604,N,07922.1334,W,1,9,1.5,17,M,,M,,*57
06/19/2015	22:08:16.597	$GPGGA,220817,2519.5605,N,07922.1332,W,1,9,1.5,17,M,,M,,*51
06/19/2015	22:08:17.597	$GPGGA,220818,2519.5607,N,07922.1330,W,1,9,1.5,17,M,,M,,*5E
06/19/2015	22:08:18.568	$GPGGA,220819,2519.5608,N,07922.1328,W,1,9,1.5,17,M,,M,,*59
06/19/2015	22:08:19.609	$GPGGA,220820,2519.5609,N,07922.1326,W,1,9,1.5,17,M,,M,,*5C
06/19/2015	22:08:20.488	$GPGGA,220821,2519.5611,N,07922.1324,W,1,9,1.5,17,M,,M,,*56
06/19/2015	22:08:21.488	$GPGGA,220822,2519.5612,N,07922.1323,W,1,9,1.5,17,M,,M,,*51
06/19/2015	22:08:22.598	$GPGGA,220823,2519.5612,N,07922.1321,W,1,9,1.5,17,M,,M,,*52
06/19/2015	22:08:23.568	$GPGGA,220824,2519.5615,N,07922.1318,W,1,9,1.5,17,M,,M,,*58
06/19/2015	22:08:24.588	$GPGGA,220825,2519.5616,N,07922.1316,W,1,9,1.5,17,M,,M,,*54
06/19/2015	22:08:25.588	$GPGGA,220826,2519.5616,N,07922.1315,W,1,9,1.5,17,M,,M,,*54
06/19/2015	22:08:26.588	$GPGGA,220827,2519.5618,N,07922.1312,W,1,9,1.5,17,M,,M,,*5C
06/19/2015	22:08:27.588	$GPGGA,220828,2519.5619,N,07922.1310,W,1,9,1.5,17,M,,M,,*50
06/19/2015	22:08:28.578	$GPGGA,220829,2519.5620,N,07922.1308,W,1,9,1.5,17,M,,M,,*52
06/19/2015	22:08:29.609	$GPGGA,220830,2519.5620,N,07922.1307,W,1,9,1.5,17,M,,M,,*55
06/19/2015	22:08:30.578	$GPGGA,220831,2519.5623,N,07922.1305,W,1,9,1.5,17,M,,M,,*55
06/19/2015	22:08:31.610	$GPGGA,220832,2519.5623,N,07922.1302,W,1,9,1.5,17,M,,M,,*51
06/19/2015	22:08:32.578	$GPGGA,220833,2519.5626,N,07922.1300,W,1,9,1.5,17,M,,M,,*57
06/19/2015	22:08:33.621	$GPGGA,220834,2519.5625,N,07922.1298,W,1,9,1.5,17,M,,M,,*53
06/19/2015	22:08:34.567	$GPGGA,220835,2519.5627,N,07922.1297,W,1,9,1.5,17,M,,M,,*5F
06/19/2015	22:08:35.597	$GPGGA,220836,2519.5629,N,07922.1295,W,1,9,1.5,17,M,,M,,*50
06/19/2015	22:08:36.598	$GPGGA,220837,2519.5630,N,07922.1293,W,1,9,1.5,17,M,,M,,*5F
06/19/2015	22:08:37.618	$GPGGA,220838,2519.5630,N,07922.1291,W,1,9,1.5,17,M,,M,,*52
06/19/2015	22:08:38.578	$GPGGA,220839,2519.5631,N,07922.1289,W,1,9,1.5,17,M,,M,,*5B
06/19/2015	22:08:39.588	$GPGGA,220840,2519.5633,N,07922.1287,W,1,9,1.5,17,M,,M,,*59
06/19/2015	22:08:40.568	$GPGGA,220841,2519.5634,N,07922.1286,W,1,9,1.5,17,M,,M,,*5E
06/19/2015	22:08:41.558	$GPGGA,220842,2519.5636,N,07922.1284,W,1,9,1.5,17,M,,M,,*5D
06/19/2015	22:08:42.568	$GPGGA,220843,2519.5637,N,07922.1282,W,1,9,1.5,17,M,,M,,*5B
06/19/2015	22:08:43.578	$GPGGA,220844,2519.5638,N,07922.1280,W,1,9,1.5,17,M,,M,,*51
06/19/2015	22:08:44.568	$GPGGA,220845,2519.5638,N,07922.1278,W,1,9,1.5,17,M,,M,,*57
06/19/2015	22:08:45.578	$GPGGA,220846,2519.5638,N,07922.1276,W,1,9,1.5,17,M,,M,,*5A
06/19/2015	22:08:46.548	$GPGGA,220847,2519.5638,N,07922.1276,W,1,9,1.5,17,M,,M,,*5B
06/19/2015	22:08:47.568	$GPGGA,220848,2519.5641,N,07922.1271,W,1,9,1.5,17,M,,M,,*5D
06/19/2015	22:08:48.568	$GPGGA,220849,2519.5641,N,07922.1270,W,1,9,1.5,17,M,,M,,*5D
06/19/2015	22:08:49.548	$GPGGA,220850,2519.5643,N,07922.1267,W,1,9,1.5,17,M,,M,,*51
06/19/2015	22:08:50.558	$GPGGA,220851,2519.5643,N,07922.1267,W,1,9,1.5,17,M,,M,,*50
06/19/2015	22:08:51.577	$GPGGA,220852,2519.5645,N,07922.1262,W,1,9,1.5,17,M,,M,,*50
06/19/2015	22:08:52.558	$GPGGA,220853,2519.5645,N,07922.1261,W,1,9,1.5,17,M,,M,,*52
06/19/2015	22:08:53.538	$GPGGA,220854,2519.5647,N,07922.1259,W,1,9,1.5,17,M,,M,,*5C
06/19/2015	22:08:54.558	$GPGGA,220855,2519.5647,N,07922.1259,W,1,9,1.5,17,M,,M,,*5D
06/19/2015	22:08:55.548	$GPGGA,220856,2519.5649,N,07922.1254,W,1,9,1.5,17,M,,M,,*5D
06/19/2015	22:08:56.538	$GPGGA,220857,2519.5649,N,07922.1254,W,1,9,1.5,17,M,,M,,*5C
06/19/2015	22:08:57.558	$GPGGA,220858,2519.5650,N,07922.1250,W,1,9,1.5,17,M,,M,,*5F
06/19/2015	22:08:58.538	$GPGGA,220859,2519.5650,N,07922.1250,W,1,9,1.5,17,M,,M,,*5E
06/19/2015	22:08:59.558	$GPGGA,220900,2519.5654,N,07922.1247,W,1,9,1.5,17,M,,M,,*51
06/19/2015	22:09:00.521	$GPGGA,220901,2519.5654,N,07922.1247,W,1,9,1.5,17,M,,M,,*50
06/19/2015	22:09:01.559	$GPGGA,220902,2519.5656,N,07922.1242,W,1,9,1.5,17,M,,M,,*54
06/19/2015	22:09:02.528	$GPGGA,220903,2519.5656,N,07922.1242,W,1,9,1.5,17,M,,M,,*55
06/19/2015	22:09:03.648	$GPGGA,220904,2519.5659,N,07922.1238,W,1,9,1.5,17,M,,M,,*50
06/19/2015	22:09:04.538	$GPGGA,220905,2519.5659,N,07922.1238,W,1,9,1.5,17,M,,M,,*51
06/19/2015	22:09:05.638	$GPGGA,220906,2519.5661,N,07922.1234,W,1,9,1.5,17,M,,M,,*55
06/19/2015	22:09:06.558	$GPGGA,220907,2519.5661,N,07922.1234,W,1,9,1.5,17,M,,M,,*54
06/19/2015	22:09:07.628	$GPGGA,220908,2519.5663,N,07922.1230,W,1,9,1.5,17,M,,M,,*5D
06/19/2015	22:09:08.620	$GPGGA,220909,2519.5665,N,07922.1229,W,1,9,1.5,17,M,,M,,*52
06/19/2015	22:09:09.627	$GPGGA,220910,2519.5666,N,07922.1227,W,1,9,1.5,17,M,,M,,*57
06/19/2015	22:09:10.609	$GPGGA,220911,2519.5667,N,07922.1225,W,1,9,1.5,17,M,,M,,*55
06/19/2015	22:09:11.598	$GPGGA,220912,2519.5669,N,07922.1222,W,1,9,1.5,17,M,,M,,*5F
06/19/2015	22:09:12.538	$GPGGA,220913,2519.5669,N,07922.1222,W,1,9,1.5,16,M,,M,,*5F
06/19/2015	22:09:14.053	$GPGGA,220914,2519.5670,N,07922.1219,W,1,9,1.5,16,M,,M,,*58
06/19/2015	22:09:14.578	$GPGGA,220915,2519.5672,N,07922.1217,W,1,9,1.5,16,M,,M,,*55
06/19/2015	22:09:15.628	$GPGGA,220916,2519.5673,N,07922.1215,W,1,9,1.5,16,M,,M,,*55
06/19/2015	22:09:16.578	$GPGGA,220917,2519.5674,N,07922.1213,W,1,9,1.5,16,M,,M,,*55
06/19/2015	22:09:17.588	$GPGGA,220918,2519.5674,N,07922.1210,W,1,9,1.5,16,M,,M,,*59
06/19/2015	22:09:18.568	$GPGGA,220919,2519.5677,N,07922.1208,W,1,9,1.5,16,M,,M,,*52
06/19/2015	22:09:19.608	$GPGGA,220920,2519.5676,N,07922.1206,W,1,9,1.5,16,M,,M,,*57
06/19/2015	22:09:20.578	$GPGGA,220921,2519.5677,N,07922.1204,W,1,9,1.5,16,M,,M,,*55
06/19/2015	22:09:21.578	$GPGGA,220922,2519.5680,N,07922.1202,W,1,9,1.5,16,M,,M,,*58
06/19/2015	22:09:22.568	$GPGGA,220923,2519.5681,N,07922.1200,W,1,9,1.5,16,M,,M,,*5A
06/19/2015	22:09:23.588	$GPGGA,220924,2519.5681,N,07922.1198,W,1,9,1.5,16,M,,M,,*5F
06/19/2015	22:09:24.568	$GPGGA,220925,2519.5683,N,07922.1196,W,1,9,1.5,16,M,,M,,*52
06/19/2015	22:09:25.578	$GPGGA,220926,2519.5685,N,07922.1194,W,1,9,1.5,16,M,,M,,*55
06/19/2015	22:09:26.567	$GPGGA,220927,2519.5685,N,07922.1192,W,1,9,1.5,16,M,,M,,*52
06/19/2015	22:09:27.587	$GPGGA,220928,2519.5685,N,07922.1190,W,1,9,1.5,16,M,,M,,*5F
06/19/2015	22:09:28.558	$GPGGA,220929,2519.5687,N,07922.1188,W,1,9,1.5,16,M,,M,,*55
06/19/2015	22:09:29.568	$GPGGA,220930,2519.5688,N,07922.1186,W,1,9,1.5,16,M,,M,,*5C
06/19/2015	22:09:30.558	$GPGGA,220931,2519.5688,N,07922.1184,W,1,9,1.5,16,M,,M,,*5F
06/19/2015	22:09:31.578	$GPGGA,220932,2519.5690,N,07922.1182,W,1,9,1.5,16,M,,M,,*53
06/19/2015	22:09:32.568	$GPGGA,220933,2519.5691,N,07922.1180,W,1,9,1.5,16,M,,M,,*51
06/19/2015	22:09:33.970	$GPGGA,220934,2519.5692,N,07922.1178,W,1,9,1.5,16,M,,M,,*52
06/19/2015	22:09:34.548	$GPGGA,220935,2519.5692,N,07922.1178,W,1,9,1.5,16,M,,M,,*53
06/19/2015	22:09:35.578	$GPGGA,220936,2519.5695,N,07922.1175,W,1,9,1.5,16,M,,M,,*5A
06/19/2015	22:09:36.558	$GPGGA,220937,2519.5695,N,07922.1173,W,1,9,1.5,16,M,,M,,*5D
06/19/2015	22:09:37.538	$GPGGA,220938,2519.5696,N,07922.1170,W,1,9,1.5,16,M,,M,,*52
06/19/2015	22:09:38.528	$GPGGA,220939,2519.5696,N,07922.1169,W,1,9,1.5,16,M,,M,,*5B
06/19/2015	22:09:39.568	$GPGGA,220940,2519.5698,N,07922.1167,W,1,9,1.5,16,M,,M,,*55
06/19/2015	22:09:40.538	$GPGGA,220941,2519.5699,N,07922.1164,W,1,9,1.5,16,M,,M,,*56
06/19/2015	22:09:41.531	$GPGGA,220942,2519.5699,N,07922.1162,W,1,9,1.5,16,M,,M,,*53
06/19/2015	22:09:42.538	$GPGGA,220943,2519.5701,N,07922.1160,W,1,9,1.5,16,M,,M,,*50
06/19/2015	22:09:43.568	$GPGGA,220944,2519.5702,N,07922.1158,W,1,9,1.5,16,M,,M,,*5F
06/19/2015	22:09:44.537	$GPGGA,220945,2519.5703,N,07922.1156,W,1,9,1.5,16,M,,M,,*51
06/19/2015	22:09:45.513	$GPGGA,220946,2519.5703,N,07922.1154,W,1,9,1.5,16,M,,M,,*50
06/19/2015	22:09:46.518	$GPGGA,220947,2519.5705,N,07922.1152,W,1,9,1.5,16,M,,M,,*51
06/19/2015	22:09:47.558	$GPGGA,220948,2519.5706,N,07922.1150,W,1,9,1.5,16,M,,M,,*5F
06/19/2015	22:09:48.523	$GPGGA,220949,2519.5706,N,07922.1148,W,1,9,1.5,16,M,,M,,*57
06/19/2015	22:09:49.522	$GPGGA,220950,2519.5709,N,07922.1146,W,1,9,1.5,16,M,,M,,*5E
06/19/2015	22:09:50.528	$GPGGA,220951,2519.5710,N,07922.1144,W,1,9,1.5,15,M,,M,,*56
06/19/2015	22:09:51.538	$GPGGA,220952,2519.5710,N,07922.1142,W,1,9,1.5,15,M,,M,,*53
06/19/2015	22:09:52.598	$GPGGA,220953,2519.5712,N,07922.1140,W,1,9,1.5,15,M,,M,,*52
06/19/2015	22:09:53.614	$GPGGA,220954,2519.5713,N,07922.1138,W,1,9,1.5,15,M,,M,,*5B
06/19/2015	22:09:54.522	$GPGGA,220955,2519.5714,N,07922.1136,W,1,9,1.5,15,M,,M,,*53
06/19/2015	22:09:55.611	$GPGGA,220956,2519.5714,N,07922.1134,W,1,9,1.5,15,M,,M,,*52
06/19/2015	22:09:56.520	$GPGGA,220957,2519.5716,N,07922.1133,W,1,9,1.5,15,M,,M,,*56
06/19/2015	22:09:57.598	$GPGGA,220958,2519.5717,N,07922.1131,W,1,9,1.5,15,M,,M,,*5A
06/19/2015	22:09:58.598	$GPGGA,220959,2519.5717,N,07922.1129,W,1,9,1.5,15,M,,M,,*52
06/19/2015	22:09:59.648	$GPGGA,221000,2519.5719,N,07922.1127,W,1,9,1.5,15,M,,M,,*56
06/19/2015	22:10:00.524	$GPGGA,221001,2519.5721,N,07922.1124,W,1,9,1.5,15,M,,M,,*5F
06/19/2015	22:10:01.622	$GPGGA,221002,2519.5721,N,07922.1122,W,1,9,1.5,15,M,,M,,*5A
06/19/2015	22:10:02.587	$GPGGA,221003,2519.5721,N,07922.1121,W,1,9,1.5,15,M,,M,,*58
06/19/2015	22:10:03.622	$GPGGA,221004,2519.5724,N,07922.1118,W,1,9,1.5,15,M,,M,,*50
06/19/2015	22:10:04.578	$GPGGA,221005,2519.5724,N,07922.1116,W,1,9,1.5,15,M,,M,,*5F
06/19/2015	22:10:05.598	$GPGGA,221006,2519.5724,N,07922.1114,W,1,9,1.5,15,M,,M,,*5E
06/19/2015	22:10:06.568	$GPGGA,221007,2519.5727,N,07922.1112,W,1,9,1.5,15,M,,M,,*5A
06/19/2015	22:10:07.611	$GPGGA,221008,2519.5728,N,07922.1110,W,1,9,1.5,15,M,,M,,*58
06/19/2015	22:10:08.578	$GPGGA,221009,2519.5728,N,07922.1108,W,1,9,1.5,15,M,,M,,*50
06/19/2015	22:10:09.598	$GPGGA,221010,2519.5728,N,07922.1107,W,1,9,1.5,15,M,,M,,*57
06/19/2015	22:10:10.568	$GPGGA,221011,2519.5731,N,07922.1104,W,1,9,1.5,15,M,,M,,*5D
06/19/2015	22:10:12.047	$GPGGA,221012,2519.5732,N,07922.1102,W,1,9,1.5,15,M,,M,,*5B
06/19/2015	22:10:12.568	$GPGGA,221013,2519.5732,N,07922.1100,W,1,9,1.5,15,M,,M,,*58
06/19/2015	22:10:13.578	$GPGGA,221014,2519.5735,N,07922.1099,W,1,9,1.5,15,M,,M,,*59
06/19/2015	22:10:14.558	$GPGGA,221015,2519.5735,N,07922.1097,W,1,9,1.5,15,M,,M,,*56
06/19/2015	22:10:15.588	$GPGGA,221016,2519.5737,N,07922.1095,W,1,9,1.5,15,M,,M,,*55
06/19/2015	22:10:16.568	$GPGGA,221017,2519.5738,N,07922.1093,W,1,9,1.5,15,M,,M,,*5D
06/19/2015	22:10:17.568	$GPGGA,221018,2519.5739,N,07922.1091,W,1,9,1.5,15,M,,M,,*51
06/19/2015	22:10:18.558	$GPGGA,221019,2519.5741,N,07922.1088,W,1,9,1.5,15,M,,M,,*57
06/19/2015	22:10:19.577	$GPGGA,221020,2519.5742,N,07922.1086,W,1,9,1.5,15,M,,M,,*50
06/19/2015	22:10:20.547	$GPGGA,221021,2519.5742,N,07922.1084,W,1,9,1.5,15,M,,M,,*53
06/19/2015	22:10:21.578	$GPGGA,221022,2519.5743,N,07922.1083,W,1,9,1.5,15,M,,M,,*56
06/19/2015	22:10:22.548	$GPGGA,221023,2519.5746,N,07922.1081,W,1,9,1.5,15,M,,M,,*50
06/19/2015	22:10:23.588	$GPGGA,221024,2519.5746,N,07922.1078,W,1,9,1.5,15,M,,M,,*51
06/19/2015	22:10:24.538	$GPGGA,221025,2519.5748,N,07922.1076,W,1,9,1.5,15,M,,M,,*50
06/19/2015	22:10:25.568	$GPGGA,221026,2519.5749,N,07922.1075,W,1,9,1.5,15,M,,M,,*51
06/19/2015	22:10:26.538	$GPGGA,221027,2519.5750,N,07922.1072,W,1,9,1.5,15,M,,M,,*5F
06/19/2015	22:10:27.568	$GPGGA,221028,2519.5752,N,07922.1070,W,1,9,1.5,15,M,,M,,*50
06/19/2015	22:10:28.528	$GPGGA,221029,2519.5751,N,07922.1069,W,1,9,1.5,15,M,,M,,*5A
06/19/2015	22:10:29.528	$GPGGA,221030,2519.5753,N,07922.1066,W,1,9,1.5,15,M,,M,,*5F
06/19/2015	22:10:30.538	$GPGGA,221031,2519.5755,N,07922.1064,W,1,9,1.5,15,M,,M,,*5A
06/19/2015	22:10:31.568	$GPGGA,221032,2519.5756,N,07922.1062,W,1,9,1.5,15,M,,M,,*5C
06/19/2015	22:10:32.528	$GPGGA,221033,2519.5757,N,07922.1060,W,1,9,1.5,15,M,,M,,*5E
06/19/2015	22:10:33.538	$GPGGA,221034,2519.5759,N,07922.1057,W,1,9,1.5,15,M,,M,,*53
06/19/2015	22:10:34.528	$GPGGA,221035,2519.5760,N,07922.1055,W,1,9,1.5,15,M,,M,,*5A
06/19/2015	22:10:35.538	$GPGGA,221036,2519.5760,N,07922.1053,W,1,9,1.5,15,M,,M,,*5F
06/19/2015	22:10:36.509	$GPGGA,221037,2519.5763,N,07922.1051,W,1,9,1.5,15,M,,M,,*5F
06/19/2015	22:10:37.526	$GPGGA,221038,2519.5764,N,07922.1049,W,1,9,1.5,15,M,,M,,*5E
06/19/2015	22:10:38.508	$GPGGA,221039,2519.5766,N,07922.1047,W,1,9,1.5,15,M,,M,,*53
06/19/2015	22:10:39.621	$GPGGA,221040,2519.5767,N,07922.1044,W,1,9,1.5,15,M,,M,,*5F
06/19/2015	22:10:40.519	$GPGGA,221041,2519.5768,N,07922.1042,W,1,9,1.5,15,M,,M,,*57
06/19/2015	22:10:41.528	$GPGGA,221042,2519.5768,N,07922.1040,W,1,9,1.5,15,M,,M,,*56
06/19/2015	22:10:42.498	$GPGGA,221043,2519.5771,N,07922.1038,W,1,9,1.5,15,M,,M,,*50
06/19/2015	22:10:43.512	$GPGGA,221044,2519.5771,N,07922.1036,W,1,9,1.5,15,M,,M,,*59
06/19/2015	22:10:44.588	$GPGGA,221045,2519.5773,N,07922.1034,W,1,9,1.5,15,M,,M,,*58
06/19/2015	22:10:45.598	$GPGGA,221046,2519.5775,N,07922.1032,W,1,9,1.5,15,M,,M,,*5B
06/19/2015	22:10:46.521	$GPGGA,221047,2519.5777,N,07922.1029,W,1,9,1.5,15,M,,M,,*52
06/19/2015	22:10:47.511	$GPGGA,221048,2519.5778,N,07922.1027,W,1,9,1.5,15,M,,M,,*5C
06/19/2015	22:10:48.598	$GPGGA,221049,2519.5777,N,07922.1025,W,1,9,1.5,15,M,,M,,*50
06/19/2015	22:10:49.588	$GPGGA,221050,2519.5779,N,07922.1023,W,1,9,1.5,15,M,,M,,*50
06/19/2015	22:10:50.588	$GPGGA,221051,2519.5782,N,07922.1020,W,1,9,1.5,15,M,,M,,*56
06/19/2015	22:10:51.622	$GPGGA,221052,2519.5782,N,07922.1018,W,1,9,1.5,15,M,,M,,*5E
06/19/2015	22:10:52.588	$GPGGA,221053,2519.5784,N,07922.1016,W,1,9,1.5,15,M,,M,,*57
06/19/2015	22:10:53.598	$GPGGA,221054,2519.5786,N,07922.1014,W,1,9,1.5,15,M,,M,,*50
06/19/2015	22:10:54.567	$GPGGA,221055,2519.5788,N,07922.1011,W,1,9,1.5,15,M,,M,,*5A
06/19/2015	22:10:55.612	$GPGGA,221056,2519.5789,N,07922.1008,W,1,9,1.5,15,M,,M,,*50
06/19/2015	22:10:56.835	$GPGGA,221057,2519.5789,N,07922.1006,W,1,9,1.5,15,M,,M,,*5F
06/19/2015	22:10:57.598	$GPGGA,221058,2519.5790,N,07922.1003,W,1,9,1.5,15,M,,M,,*5D
06/19/2015	22:10:58.568	$GPGGA,221059,2519.5793,N,07922.1001,W,1,9,1.5,15,M,,M,,*5D
06/19/2015	22:10:59.598	$GPGGA,221100,2519.5793,N,07922.0998,W,1,9,1.5,15,M,,M,,*58
06/19/2015	22:11:00.568	$GPGGA,221101,2519.5795,N,07922.0996,W,1,9,1.5,15,M,,M,,*51
06/19/2015	22:11:01.558	$GPGGA,221102,2519.5796,N,07922.0993,W,1,9,1.5,15,M,,M,,*54
06/19/2015	22:11:02.568	$GPGGA,221103,2519.5797,N,07922.0990,W,1,9,1.5,15,M,,M,,*57
06/19/2015	22:11:03.588	$GPGGA,221104,2519.5799,N,07922.0987,W,1,9,1.5,15,M,,M,,*58
06/19/2015	22:11:04.568	$GPGGA,221105,2519.5798,N,07922.0984,W,1,9,1.5,15,M,,M,,*5B
06/19/2015	22:11:05.568	$GPGGA,221106,2519.5800,N,07922.0981,W,1,9,1.5,15,M,,M,,*53
06/19/2015	22:11:06.547	$GPGGA,221107,2519.5802,N,07922.0978,W,1,9,1.5,15,M,,M,,*56
06/19/2015	22:11:07.567	$GPGGA,221108,2519.5803,N,07922.0975,W,1,9,1.5,15,M,,M,,*55
06/19/2015	22:11:08.557	$GPGGA,221109,2519.5804,N,07922.0972,W,1,9,1.5,15,M,,M,,*54
06/19/2015	22:11:09.557	$GPGGA,221110,2519.5804,N,07922.0969,W,1,9,1.5,15,M,,M,,*56
06/19/2015	22:11:10.527	$GPGGA,221111,2519.5804,N,07922.0966,W,1,9,1.5,15,M,,M,,*58
06/19/2015	22:11:11.556	$GPGGA,221112,2519.5806,N,07922.0963,W,1,9,1.5,15,M,,M,,*5C
06/19/2015	22:11:12.526	$GPGGA,221113,2519.5807,N,07922.0959,W,1,9,1.5,15,M,,M,,*55
06/19/2015	22:11:13.546	$GPGGA,221114,2519.5807,N,07922.0956,W,1,9,1.5,15,M,,M,,*5D
06/19/2015	22:11:14.536	$GPGGA,221115,2519.5807,N,07922.0953,W,1,9,1.5,15,M,,M,,*59
06/19/2015	22:11:15.526	$GPGGA,221116,2519.5807,N,07922.0950,W,1,9,1.5,15,M,,M,,*59
06/19/2015	22:11:16.518	$GPGGA,221117,2519.5808,N,07922.0947,W,1,9,1.5,15,M,,M,,*51
06/19/2015	22:11:17.516	$GPGGA,221118,2519.5810,N,07922.0944,W,1,9,1.5,15,M,,M,,*54
06/19/2015	22:11:18.526	$GPGGA,221119,2519.5809,N,07922.0941,W,1,9,1.5,15,M,,M,,*58
06/19/2015	22:11:19.566	$GPGGA,221120,2519.5810,N,07922.0938,W,1,9,1.5,15,M,,M,,*54
06/19/2015	22:11:20.516	$GPGGA,221121,2519.5811,N,07922.0934,W,1,9,1.5,15,M,,M,,*58
06/19/2015	22:11:21.526	$GPGGA,221122,2519.5811,N,07922.0931,W,1,9,1.5,15,M,,M,,*5E
06/19/2015	22:11:22.500	$GPGGA,221123,2519.5811,N,07922.0929,W,1,9,1.5,15,M,,M,,*56
06/19/2015	22:11:23.526	$GPGGA,221124,2519.5811,N,07922.0926,W,1,9,1.5,15,M,,M,,*5E
06/19/2015	22:11:24.501	$GPGGA,221125,2519.5811,N,07922.0923,W,1,9,1.5,15,M,,M,,*5A
06/19/2015	22:11:25.517	$GPGGA,221126,2519.5811,N,07922.0920,W,1,9,1.5,15,M,,M,,*5A
06/19/2015	22:11:26.522	$GPGGA,221127,2519.5811,N,07922.0917,W,1,9,1.5,15,M,,M,,*5F
06/19/2015	22:11:27.511	$GPGGA,221128,2519.5811,N,07922.0914,W,1,8,1.8,15,M,,M,,*5F
06/19/2015	22:11:28.503	$GPGGA,221129,2519.5809,N,07922.0911,W,1,8,1.5,15,M,,M,,*5F
06/19/2015	22:11:29.626	$GPGGA,221130,2519.5810,N,07922.0909,W,1,9,1.5,15,M,,M,,*57
06/19/2015	22:11:30.499	$GPGGA,221131,2519.5809,N,07922.0906,W,1,9,1.8,15,M,,M,,*5C
06/19/2015	22:11:31.606	$GPGGA,221132,2519.5808,N,07922.0902,W,1,9,1.5,15,M,,M,,*57
06/19/2015	22:11:32.509	$GPGGA,221133,2519.5807,N,07922.0899,W,1,9,1.5,15,M,,M,,*5A
06/19/2015	22:11:33.499	$GPGGA,221134,2519.5805,N,07922.0896,W,1,9,1.5,15,M,,M,,*50
06/19/2015	22:11:34.586	$GPGGA,221135,2519.5804,N,07922.0893,W,1,9,1.5,15,M,,M,,*55
06/19/2015	22:11:35.586	$GPGGA,221136,2519.5804,N,07922.0889,W,1,9,1.5,15,M,,M,,*5D
06/19/2015	22:11:36.611	$GPGGA,221137,2519.5802,N,07922.0887,W,1,9,1.5,15,M,,M,,*54
06/19/2015	22:11:37.566	$GPGGA,221138,2519.5801,N,07922.0884,W,1,9,1.5,15,M,,M,,*5B
06/19/2015	22:11:38.576	$GPGGA,221139,2519.5799,N,07922.0881,W,1,9,1.5,15,M,,M,,*51
06/19/2015	22:11:39.597	$GPGGA,221140,2519.5798,N,07922.0878,W,1,9,1.5,15,M,,M,,*58
06/19/2015	22:11:40.566	$GPGGA,221141,2519.5797,N,07922.0876,W,1,9,1.5,15,M,,M,,*58
06/19/2015	22:11:41.600	$GPGGA,221142,2519.5797,N,07922.0873,W,1,9,1.5,15,M,,M,,*5E
06/19/2015	22:11:42.567	$GPGGA,221143,2519.5794,N,07922.0872,W,1,9,1.5,15,M,,M,,*5D
06/19/2015	22:11:43.577	$GPGGA,221144,2519.5793,N,07922.0870,W,1,9,1.5,15,M,,M,,*5F
06/19/2015	22:11:44.567	$GPGGA,221145,2519.5793,N,07922.0868,W,1,9,1.5,15,M,,M,,*57
06/19/2015	22:11:45.567	$GPGGA,221146,2519.5790,N,07922.0865,W,1,9,1.5,15,M,,M,,*5A
06/19/2015	22:11:46.556	$GPGGA,221147,2519.5789,N,07922.0865,W,1,9,1.5,15,M,,M,,*53
06/19/2015	22:11:47.600	$GPGGA,221148,2519.5788,N,07922.0865,W,1,8,1.8,16,M,,M,,*52
06/19/2015	22:11:48.556	$GPGGA,221149,2519.5787,N,07922.0864,W,1,8,1.8,16,M,,M,,*5D
