Software Version Number: 1	Data File Format Number: 1	Build Version Number: 1	Error Count Since VI Started: 1	Manufacturer: Raytheon	 Model Number: RayMarine 120	 S/N: 	 Cal Date: 	 Wind Direction Offset: 0.00	 Slope (M)1: 0.00	 Offset (B)1: 0.00	 Slope (M)2: 0.00	 Offset (B)2: 0.00	 Slope (M)3: 0.00	 Offset (B)3: 0.00	 Slope (M)4: 0.00	 Offset (B)4: 0.00	 Slope (M)5: 0.00	 Offset (B)5: 0.00	 Slope (M)6: 0.00	 Offset (B)6: 0.00
Computer Date	Computer Time	GGA String
06/10/2015	12:00:00.556	$GPGGA,120001,2536.9917,N,08007.3751,W,1,10,1.5,12,M,,M,,*6F
06/10/2015	12:00:01.546	$GPGGA,120002,2536.9892,N,08007.3747,W,1,10,1.5,12,M,,M,,*67
06/10/2015	12:00:02.556	$GPGGA,120003,2536.9867,N,08007.3743,W,1,10,1.5,12,M,,M,,*68
06/10/2015	12:00:03.576	$GPGGA,120004,2536.9843,N,08007.3739,W,1,10,1.5,12,M,,M,,*64
06/10/2015	12:00:04.556	$GPGGA,120005,2536.9818,N,08007.3735,W,1,10,1.5,12,M,,M,,*67
06/10/2015	12:00:05.576	$GPGGA,120006,2536.9793,N,08007.3732,W,1,10,1.5,12,M,,M,,*6F
06/10/2015	12:00:06.547	$GPGGA,120007,2536.9767,N,08007.3728,W,1,10,1.5,12,M,,M,,*6E
06/10/2015	12:00:07.667	$GPGGA,120008,2536.9742,N,08007.3724,W,1,10,1.5,12,M,,M,,*6A
06/10/2015	12:00:08.527	$GPGGA,120009,2536.9717,N,08007.3720,W,1,10,1.5,12,M,,M,,*6F
06/10/2015	12:00:09.537	$GPGGA,120010,2536.9692,N,08007.3716,W,1,10,1.5,12,M,,M,,*6E
06/10/2015	12:00:10.527	$GPGGA,120011,2536.9667,N,08007.3713,W,1,10,1.5,12,M,,M,,*60
06/10/2015	12:00:11.657	$GPGGA,120012,2536.9641,N,08007.3709,W,1,10,1.5,12,M,,M,,*6C
06/10/2015	12:00:12.647	$GPGGA,120013,2536.9616,N,08007.3705,W,1,10,1.5,12,M,,M,,*63
06/10/2015	12:00:13.557	$GPGGA,120014,2536.9591,N,08007.3702,W,1,10,1.5,12,M,,M,,*6F
06/10/2015	12:00:14.537	$GPGGA,120015,2536.9566,N,08007.3699,W,1,10,1.5,12,M,,M,,*65
06/10/2015	12:00:15.527	$GPGGA,120016,2536.9540,N,08007.3695,W,1,10,1.5,12,M,,M,,*6E
06/10/2015	12:00:16.527	$GPGGA,120017,2536.9515,N,08007.3692,W,1,10,1.5,12,M,,M,,*68
06/10/2015	12:00:17.507	$GPGGA,120018,2536.9490,N,08007.3689,W,1,10,1.5,12,M,,M,,*61
06/10/2015	12:00:18.516	$GPGGA,120019,2536.9465,N,08007.3686,W,1,10,1.5,12,M,,M,,*65
06/10/2015	12:00:19.546	$GPGGA,120020,2536.9440,N,08007.3683,W,1,10,1.5,12,M,,M,,*6D
06/10/2015	12:00:20.506	$GPGGA,120021,2536.9415,N,08007.3680,W,1,10,1.5,12,M,,M,,*6F
06/10/2015	12:00:21.526	$GPGGA,120022,2536.9389,N,08007.3677,W,1,10,1.5,12,M,,M,,*66
06/10/2015	12:00:22.516	$GPGGA,120023,2536.9363,N,08007.3675,W,1,10,1.5,12,M,,M,,*61
06/10/2015	12:00:23.637	$GPGGA,120024,2536.9338,N,08007.3672,W,1,10,1.5,12,M,,M,,*6F
06/10/2015	12:00:24.607	$GPGGA,120025,2536.9313,N,08007.3670,W,1,10,1.5,12,M,,M,,*65
06/10/2015	12:00:25.647	$GPGGA,120026,2536.9287,N,08007.3668,W,1,10,1.5,12,M,,M,,*63
06/10/2015	12:00:26.507	$GPGGA,120027,2536.9262,N,08007.3665,W,1,10,1.5,12,M,,M,,*64
06/10/2015	12:00:27.517	$GPGGA,120028,2536.9237,N,08007.3663,W,1,10,1.5,12,M,,M,,*6D
06/10/2015	12:00:28.597	$GPGGA,120029,2536.9212,N,08007.3660,W,1,10,1.5,12,M,,M,,*68
06/10/2015	12:00:29.587	$GPGGA,120030,2536.9187,N,08007.3658,W,1,10,1.5,12,M,,M,,*64
06/10/2015	12:00:30.587	$GPGGA,120031,2536.9162,N,08007.3656,W,1,10,1.5,12,M,,M,,*60
06/10/2015	12:00:31.627	$GPGGA,120032,2536.9137,N,08007.3654,W,1,10,1.5,12,M,,M,,*61
06/10/2015	12:00:32.587	$GPGGA,120033,2536.9113,N,08007.3651,W,1,10,1.5,12,M,,M,,*63
06/10/2015	12:00:33.577	$GPGGA,120034,2536.9088,N,08007.3650,W,1,10,1.5,12,M,,M,,*66
06/10/2015	12:00:34.587	$GPGGA,120035,2536.9061,N,08007.3648,W,1,10,1.5,12,M,,M,,*69
06/10/2015	12:00:35.606	$GPGGA,120036,2536.9036,N,08007.3646,W,1,10,1.5,12,M,,M,,*66
06/10/2015	12:00:36.586	$GPGGA,120037,2536.9012,N,08007.3644,W,1,10,1.5,12,M,,M,,*63
06/10/2015	12:00:37.597	$GPGGA,120038,2536.8987,N,08007.3642,W,1,10,1.5,12,M,,M,,*6E
06/10/2015	12:00:38.576	$GPGGA,120039,2536.8961,N,08007.3640,W,1,10,1.5,12,M,,M,,*65
06/10/2015	12:00:39.616	$GPGGA,120040,2536.8936,N,08007.3638,W,1,10,1.5,12,M,,M,,*66
06/10/2015	12:00:40.556	$GPGGA,120041,2536.8911,N,08007.3636,W,1,10,1.5,12,M,,M,,*6C
06/10/2015	12:00:41.587	$GPGGA,120042,2536.8885,N,08007.3634,W,1,10,1.5,12,M,,M,,*61
06/10/2015	12:00:43.607	$GPGGA,120044,2536.8835,N,08007.3631,W,1,10,1.5,12,M,,M,,*69
06/10/2015	12:00:44.567	$GPGGA,120045,2536.8810,N,08007.3629,W,1,10,1.5,12,M,,M,,*66
06/10/2015	12:00:45.587	$GPGGA,120046,2536.8784,N,08007.3627,W,1,10,1.5,12,M,,M,,*69
06/10/2015	12:00:46.547	$GPGGA,120047,2536.8759,N,08007.3625,W,1,10,1.5,12,M,,M,,*6A
06/10/2015	12:00:47.587	$GPGGA,120048,2536.8734,N,08007.3622,W,1,10,1.5,12,M,,M,,*69
06/10/2015	12:00:48.557	$GPGGA,120049,2536.8708,N,08007.3620,W,1,10,1.5,12,M,,M,,*65
06/10/2015	12:00:49.577	$GPGGA,120050,2536.8683,N,08007.3618,W,1,10,1.5,12,M,,M,,*64
06/10/2015	12:00:50.547	$GPGGA,120051,2536.8658,N,08007.3615,W,1,10,1.5,12,M,,M,,*6E
06/10/2015	12:00:51.597	$GPGGA,120052,2536.8633,N,08007.3612,W,1,10,1.5,12,M,,M,,*67
06/10/2015	12:00:52.547	$GPGGA,120053,2536.8607,N,08007.3610,W,1,10,1.5,12,M,,M,,*63
06/10/2015	12:00:53.556	$GPGGA,120054,2536.8582,N,08007.3607,W,1,10,1.5,11,M,,M,,*6F
06/10/2015	12:00:54.546	$GPGGA,120055,2536.8557,N,08007.3604,W,1,10,1.5,11,M,,M,,*65
06/10/2015	12:00:55.546	$GPGGA,120056,2536.8531,N,08007.3601,W,1,10,1.5,11,M,,M,,*63
06/10/2015	12:00:56.536	$GPGGA,120057,2536.8506,N,08007.3598,W,1,10,1.5,11,M,,M,,*65
06/10/2015	12:00:57.526	$GPGGA,120058,2536.8481,N,08007.3594,W,1,10,1.5,11,M,,M,,*68
06/10/2015	12:00:58.547	$GPGGA,120059,2536.8456,N,08007.3592,W,1,10,1.5,11,M,,M,,*65
06/10/2015	12:00:59.587	$GPGGA,120100,2536.8430,N,08007.3589,W,1,10,1.5,11,M,,M,,*62
06/10/2015	12:01:00.717	$GPGGA,120101,2536.8405,N,08007.3585,W,1,10,1.5,11,M,,M,,*69
06/10/2015	12:01:01.538	$GPGGA,120102,2536.8380,N,08007.3582,W,1,10,1.5,11,M,,M,,*67
06/10/2015	12:01:02.527	$GPGGA,120103,2536.8353,N,08007.3579,W,1,10,1.5,11,M,,M,,*6C
06/10/2015	12:01:03.698	$GPGGA,120104,2536.8329,N,08007.3574,W,1,10,1.5,11,M,,M,,*6B
06/10/2015	12:01:04.537	$GPGGA,120105,2536.8302,N,08007.3571,W,1,10,1.5,11,M,,M,,*66
06/10/2015	12:01:05.507	$GPGGA,120106,2536.8277,N,08007.3567,W,1,10,1.5,11,M,,M,,*61
06/10/2015	12:01:06.607	$GPGGA,120107,2536.8252,N,08007.3563,W,1,10,1.5,11,M,,M,,*63
06/10/2015	12:01:07.547	$GPGGA,120108,2536.8228,N,08007.3559,W,1,10,1.5,11,M,,M,,*68
06/10/2015	12:01:08.517	$GPGGA,120109,2536.8201,N,08007.3555,W,1,10,1.5,11,M,,M,,*6E
06/10/2015	12:01:09.517	$GPGGA,120110,2536.8176,N,08007.3551,W,1,10,1.5,11,M,,M,,*61
06/10/2015	12:01:10.596	$GPGGA,120111,2536.8152,N,08007.3547,W,1,10,1.5,11,M,,M,,*61
06/10/2015	12:01:11.666	$GPGGA,120112,2536.8127,N,08007.3543,W,1,10,1.5,11,M,,M,,*64
06/10/2015	12:01:12.606	$GPGGA,120113,2536.8102,N,08007.3539,W,1,10,1.5,11,M,,M,,*6F
06/10/2015	12:01:13.626	$GPGGA,120114,2536.8075,N,08007.3534,W,1,10,1.5,11,M,,M,,*64
06/10/2015	12:01:14.596	$GPGGA,120115,2536.8051,N,08007.3530,W,1,10,1.5,11,M,,M,,*67
06/10/2015	12:01:15.696	$GPGGA,120116,2536.8026,N,08007.3526,W,1,10,1.5,11,M,,M,,*63
06/10/2015	12:01:16.597	$GPGGA,120117,2536.8000,N,08007.3522,W,1,10,1.5,11,M,,M,,*62
06/10/2015	12:01:17.637	$GPGGA,120118,2536.7975,N,08007.3518,W,1,10,1.5,11,M,,M,,*60
06/10/2015	12:01:18.637	$GPGGA,120119,2536.7950,N,08007.3514,W,1,10,1.5,11,M,,M,,*6A
06/10/2015	12:01:19.677	$GPGGA,120120,2536.7924,N,08007.3510,W,1,10,1.5,11,M,,M,,*67
06/10/2015	12:01:20.577	$GPGGA,120121,2536.7899,N,08007.3505,W,1,10,1.5,11,M,,M,,*65
06/10/2015	12:01:21.637	$GPGGA,120122,2536.7875,N,08007.3502,W,1,10,1.5,11,M,,M,,*63
06/10/2015	12:01:22.577	$GPGGA,120123,2536.7849,N,08007.3499,W,1,10,1.5,11,M,,M,,*6E
06/10/2015	12:01:23.677	$GPGGA,120124,2536.7825,N,08007.3494,W,1,10,1.5,11,M,,M,,*6E
06/10/2015	12:01:24.637	$GPGGA,120125,2536.7799,N,08007.3491,W,1,10,1.5,11,M,,M,,*62
06/10/2015	12:01:25.667	$GPGGA,120126,2536.7775,N,08007.3488,W,1,10,1.5,11,M,,M,,*6B
06/10/2015	12:01:26.657	$GPGGA,120127,2536.7751,N,08007.3484,W,1,10,1.5,11,M,,M,,*60
06/10/2015	12:01:27.637	$GPGGA,120128,2536.7726,N,08007.3481,W,1,10,1.5,11,M,,M,,*6A
06/10/2015	12:01:28.606	$GPGGA,120129,2536.7701,N,08007.3479,W,1,10,1.5,11,M,,M,,*69
06/10/2015	12:01:29.606	$GPGGA,120130,2536.7675,N,08007.3476,W,1,10,1.5,11,M,,M,,*6C
06/10/2015	12:01:30.566	$GPGGA,120131,2536.7650,N,08007.3473,W,1,10,1.5,11,M,,M,,*6F
06/10/2015	12:01:31.616	$GPGGA,120132,2536.7625,N,08007.3470,W,1,10,1.5,11,M,,M,,*6D
06/10/2015	12:01:32.636	$GPGGA,120133,2536.7600,N,08007.3468,W,1,10,1.5,11,M,,M,,*62
06/10/2015	12:01:33.557	$GPGGA,120134,2536.7574,N,08007.3465,W,1,10,1.5,11,M,,M,,*68
06/10/2015	12:01:34.637	$GPGGA,120135,2536.7550,N,08007.3463,W,1,10,1.5,11,M,,M,,*69
06/10/2015	12:01:35.657	$GPGGA,120136,2536.7524,N,08007.3461,W,1,10,1.9,11,M,,M,,*67
06/10/2015	12:01:36.608	$GPGGA,120137,2536.7499,N,08007.3459,W,1,10,1.9,11,M,,M,,*6A
06/10/2015	12:01:37.547	$GPGGA,120138,2536.7473,N,08007.3457,W,1,9,1.9,11,M,,M,,*57
06/10/2015	12:01:38.627	$GPGGA,120139,2536.7448,N,08007.3455,W,1,9,1.9,11,M,,M,,*5C
06/10/2015	12:01:39.617	$GPGGA,120140,2536.7423,N,08007.3454,W,1,9,1.9,11,M,,M,,*5E
06/10/2015	12:01:40.597	$GPGGA,120141,2536.7398,N,08007.3452,W,1,9,1.9,11,M,,M,,*5E
06/10/2015	12:01:41.607	$GPGGA,120142,2536.7373,N,08007.3451,W,1,9,1.9,11,M,,M,,*5B
06/10/2015	12:01:42.537	$GPGGA,120143,2536.7347,N,08007.3449,W,1,9,1.9,11,M,,M,,*54
06/10/2015	12:01:43.647	$GPGGA,120144,2536.7322,N,08007.3447,W,1,9,1.9,11,M,,M,,*5E
06/10/2015	12:01:44.537	$GPGGA,120145,2536.7297,N,08007.3446,W,1,9,1.9,11,M,,M,,*51
06/10/2015	12:01:45.586	$GPGGA,120146,2536.7272,N,08007.3444,W,1,9,1.9,12,M,,M,,*58
06/10/2015	12:01:46.596	$GPGGA,120147,2536.7246,N,08007.3443,W,1,9,1.5,12,M,,M,,*55
06/10/2015	12:01:47.596	$GPGGA,120148,2536.7220,N,08007.3443,W,1,10,1.5,12,M,,M,,*62
06/10/2015	12:01:48.526	$GPGGA,120149,2536.7195,N,08007.3442,W,1,10,1.5,12,M,,M,,*6F
06/10/2015	12:01:49.657	$GPGGA,120150,2536.7169,N,08007.3440,W,1,9,1.5,12,M,,M,,*5E
06/10/2015	12:01:50.657	$GPGGA,120151,2536.7144,N,08007.3438,W,1,9,1.5,12,M,,M,,*5F
06/10/2015	12:01:51.587	$GPGGA,120152,2536.7119,N,08007.3437,W,1,10,1.5,12,M,,M,,*63
06/10/2015	12:01:52.507	$GPGGA,120153,2536.7094,N,08007.3435,W,1,10,1.5,12,M,,M,,*64
06/10/2015	12:01:53.627	$GPGGA,120154,2536.7067,N,08007.3433,W,1,10,1.5,12,M,,M,,*69
06/10/2015	12:01:54.627	$GPGGA,120155,2536.7043,N,08007.3431,W,1,10,1.5,13,M,,M,,*6D
06/10/2015	12:01:55.677	$GPGGA,120156,2536.7018,N,08007.3430,W,1,10,1.5,13,M,,M,,*61
06/10/2015	12:01:56.607	$GPGGA,120157,2536.6991,N,08007.3427,W,1,10,1.5,13,M,,M,,*6F
06/10/2015	12:01:57.507	$GPGGA,120158,2536.6967,N,08007.3426,W,1,10,1.5,13,M,,M,,*68
06/10/2015	12:01:58.607	$GPGGA,120159,2536.6942,N,08007.3424,W,1,10,1.5,13,M,,M,,*6C
06/10/2015	12:01:59.597	$GPGGA,120200,2536.6915,N,08007.3421,W,1,10,1.5,13,M,,M,,*64
06/10/2015	12:02:00.617	$GPGGA,120201,2536.6890,N,08007.3419,W,1,10,1.5,13,M,,M,,*62
06/10/2015	12:02:01.527	$GPGGA,120202,2536.6866,N,08007.3416,W,1,10,1.5,13,M,,M,,*67
06/10/2015	12:02:02.567	$GPGGA,120203,2536.6841,N,08007.3414,W,1,10,1.5,13,M,,M,,*61
06/10/2015	12:02:03.636	$GPGGA,120204,2536.6815,N,08007.3411,W,1,10,1.5,14,M,,M,,*65
06/10/2015	12:02:04.586	$GPGGA,120205,2536.6790,N,08007.3409,W,1,10,1.5,14,M,,M,,*6F
06/10/2015	12:02:05.646	$GPGGA,120206,2536.6765,N,08007.3407,W,1,10,1.5,14,M,,M,,*68
06/10/2015	12:02:06.586	$GPGGA,120207,2536.6740,N,08007.3404,W,1,10,1.5,14,M,,M,,*6D
06/10/2015	12:02:07.616	$GPGGA,120208,2536.6714,N,08007.3401,W,1,10,1.5,14,M,,M,,*66
06/10/2015	12:02:08.577	$GPGGA,120209,2536.6689,N,08007.3398,W,1,10,1.5,14,M,,M,,*65
06/10/2015	12:02:09.597	$GPGGA,120210,2536.6664,N,08007.3395,W,1,10,1.5,14,M,,M,,*63
06/10/2015	12:02:10.607	$GPGGA,120211,2536.6638,N,08007.3391,W,1,10,1.5,14,M,,M,,*6F
06/10/2015	12:02:11.597	$GPGGA,120212,2536.6613,N,08007.3388,W,1,10,1.5,14,M,,M,,*6D
06/10/2015	12:02:12.587	$GPGGA,120213,2536.6588,N,08007.3385,W,1,10,1.5,14,M,,M,,*60
06/10/2015	12:02:13.597	$GPGGA,120214,2536.6563,N,08007.3381,W,1,10,1.5,14,M,,M,,*66
06/10/2015	12:02:14.607	$GPGGA,120215,2536.6538,N,08007.3377,W,1,10,1.5,14,M,,M,,*60
06/10/2015	12:02:15.637	$GPGGA,120216,2536.6513,N,08007.3374,W,1,10,1.5,14,M,,M,,*69
06/10/2015	12:02:16.587	$GPGGA,120217,2536.6488,N,08007.3370,W,1,10,1.5,14,M,,M,,*6F
06/10/2015	12:02:17.577	$GPGGA,120218,2536.6463,N,08007.3366,W,1,10,1.5,14,M,,M,,*62
06/10/2015	12:02:19.637	$GPGGA,120219,2536.6438,N,08007.3362,W,1,10,1.5,15,M,,M,,*68
06/10/2015	12:02:19.667	$GPGGA,120220,2536.6414,N,08007.3358,W,1,10,1.5,15,M,,M,,*65
06/10/2015	12:02:20.576	$GPGGA,120221,2536.6389,N,08007.3354,W,1,10,1.5,15,M,,M,,*6B
06/10/2015	12:02:21.586	$GPGGA,120222,2536.6364,N,08007.3350,W,1,10,1.5,15,M,,M,,*6F
06/10/2015	12:02:22.556	$GPGGA,120223,2536.6339,N,08007.3346,W,1,10,1.5,15,M,,M,,*61
06/10/2015	12:02:23.636	$GPGGA,120224,2536.6315,N,08007.3341,W,1,10,1.5,15,M,,M,,*6F
06/10/2015	12:02:24.586	$GPGGA,120225,2536.6315,N,08007.3341,W,1,10,1.5,15,M,,M,,*6E
06/10/2015	12:02:25.887	$GPGGA,120226,2536.6265,N,08007.3334,W,1,10,1.5,15,M,,M,,*69
06/10/2015	12:02:26.577	$GPGGA,120227,2536.6241,N,08007.3330,W,1,10,1.5,15,M,,M,,*6A
06/10/2015	12:02:27.557	$GPGGA,120228,2536.6216,N,08007.3326,W,1,10,1.5,15,M,,M,,*60
06/10/2015	12:02:28.557	$GPGGA,120229,2536.6216,N,08007.3326,W,1,10,1.5,15,M,,M,,*61
06/10/2015	12:02:29.577	$GPGGA,120230,2536.6166,N,08007.3318,W,1,10,1.5,15,M,,M,,*60
06/10/2015	12:02:30.597	$GPGGA,120231,2536.6166,N,08007.3318,W,1,10,1.5,15,M,,M,,*61
06/10/2015	12:02:31.587	$GPGGA,120232,2536.6117,N,08007.3310,W,1,10,1.5,15,M,,M,,*6C
06/10/2015	12:02:32.547	$GPGGA,120233,2536.6117,N,08007.3310,W,1,10,1.5,15,M,,M,,*6D
06/10/2015	12:02:33.567	$GPGGA,120234,2536.6068,N,08007.3302,W,1,10,1.5,15,M,,M,,*60
06/10/2015	12:02:34.567	$GPGGA,120235,2536.6042,N,08007.3299,W,1,10,1.5,15,M,,M,,*6A
06/10/2015	12:02:35.597	$GPGGA,120236,2536.6017,N,08007.3295,W,1,10,1.5,15,M,,M,,*65
06/10/2015	12:02:36.537	$GPGGA,120237,2536.6017,N,08007.3295,W,1,10,1.5,15,M,,M,,*64
06/10/2015	12:02:37.627	$GPGGA,120238,2536.5967,N,08007.3289,W,1,10,1.5,15,M,,M,,*6B
06/10/2015	12:02:38.536	$GPGGA,120239,2536.5967,N,08007.3289,W,1,10,1.5,15,M,,M,,*6A
06/10/2015	12:02:39.536	$GPGGA,120240,2536.5917,N,08007.3283,W,1,10,1.5,15,M,,M,,*69
06/10/2015	12:02:40.646	$GPGGA,120241,2536.5892,N,08007.3281,W,1,10,1.5,15,M,,M,,*66
06/10/2015	12:02:41.516	$GPGGA,120242,2536.5867,N,08007.3278,W,1,10,1.5,15,M,,M,,*69
06/10/2015	12:02:42.526	$GPGGA,120243,2536.5867,N,08007.3278,W,1,10,1.5,15,M,,M,,*68
06/10/2015	12:02:43.660	$GPGGA,120244,2536.5817,N,08007.3273,W,1,10,1.5,15,M,,M,,*63
06/10/2015	12:02:44.547	$GPGGA,120245,2536.5817,N,08007.3273,W,1,10,1.5,15,M,,M,,*62
06/10/2015	12:02:45.659	$GPGGA,120246,2536.5768,N,08007.3268,W,1,10,1.5,15,M,,M,,*6C
06/10/2015	12:02:46.607	$GPGGA,120247,2536.5742,N,08007.3266,W,1,10,1.5,15,M,,M,,*6B
06/10/2015	12:02:47.617	$GPGGA,120248,2536.5717,N,08007.3264,W,1,10,1.5,15,M,,M,,*66
06/10/2015	12:02:48.597	$GPGGA,120249,2536.5692,N,08007.3262,W,1,10,1.5,15,M,,M,,*6D
06/10/2015	12:02:49.607	$GPGGA,120250,2536.5667,N,08007.3260,W,1,10,1.5,15,M,,M,,*6D
06/10/2015	12:02:50.607	$GPGGA,120251,2536.5641,N,08007.3258,W,1,10,1.5,15,M,,M,,*63
06/10/2015	12:02:51.637	$GPGGA,120252,2536.5616,N,08007.3257,W,1,10,1.5,15,M,,M,,*6D
06/10/2015	12:02:52.597	$GPGGA,120253,2536.5591,N,08007.3255,W,1,10,1.5,15,M,,M,,*62
06/10/2015	12:02:53.617	$GPGGA,120254,2536.5565,N,08007.3253,W,1,10,1.5,15,M,,M,,*68
06/10/2015	12:02:54.587	$GPGGA,120255,2536.5540,N,08007.3251,W,1,10,1.5,15,M,,M,,*6C
06/10/2015	12:02:55.676	$GPGGA,120256,2536.5515,N,08007.3250,W,1,10,1.5,15,M,,M,,*6E
06/10/2015	12:02:56.586	$GPGGA,120257,2536.5490,N,08007.3248,W,1,10,1.5,15,M,,M,,*6A
06/10/2015	12:02:57.596	$GPGGA,120258,2536.5464,N,08007.3247,W,1,10,1.5,15,M,,M,,*61
06/10/2015	12:02:58.586	$GPGGA,120259,2536.5439,N,08007.3245,W,1,10,1.5,15,M,,M,,*6A
06/10/2015	12:02:59.616	$GPGGA,120300,2536.5414,N,08007.3243,W,1,10,1.5,15,M,,M,,*6E
06/10/2015	12:03:00.586	$GPGGA,120301,2536.5414,N,08007.3243,W,1,10,1.5,15,M,,M,,*6F
06/10/2015	12:03:01.607	$GPGGA,120302,2536.5364,N,08007.3241,W,1,10,1.5,15,M,,M,,*6E
06/10/2015	12:03:02.587	$GPGGA,120303,2536.5339,N,08007.3239,W,1,10,1.5,15,M,,M,,*68
06/10/2015	12:03:03.587	$GPGGA,120304,2536.5314,N,08007.3238,W,1,10,1.5,15,M,,M,,*61
06/10/2015	12:03:04.577	$GPGGA,120305,2536.5289,N,08007.3238,W,1,10,1.5,15,M,,M,,*65
06/10/2015	12:03:05.587	$GPGGA,120306,2536.5264,N,08007.3237,W,1,10,1.5,15,M,,M,,*6A
06/10/2015	12:03:06.567	$GPGGA,120307,2536.5239,N,08007.3236,W,1,10,1.5,15,M,,M,,*62
06/10/2015	12:03:07.567	$GPGGA,120308,2536.5215,N,08007.3237,W,1,10,1.5,15,M,,M,,*62
06/10/2015	12:03:08.561	$GPGGA,120309,2536.5190,N,08007.3235,W,1,10,1.5,15,M,,M,,*6F
06/10/2015	12:03:09.557	$GPGGA,120310,2536.5164,N,08007.3234,W,1,10,1.5,15,M,,M,,*6D
06/10/2015	12:03:10.557	$GPGGA,120311,2536.5139,N,08007.3234,W,1,10,1.5,15,M,,M,,*64
06/10/2015	12:03:11.597	$GPGGA,120312,2536.5114,N,08007.3234,W,1,10,1.5,15,M,,M,,*68
06/10/2015	12:03:12.547	$GPGGA,120313,2536.5089,N,08007.3233,W,1,10,1.5,15,M,,M,,*6B
06/10/2015	12:03:13.536	$GPGGA,120314,2536.5063,N,08007.3233,W,1,10,1.5,15,M,,M,,*68
06/10/2015	12:03:14.556	$GPGGA,120315,2536.5038,N,08007.3232,W,1,10,1.5,15,M,,M,,*66
06/10/2015	12:03:15.556	$GPGGA,120316,2536.5013,N,08007.3231,W,1,10,1.5,15,M,,M,,*6F
06/10/2015	12:03:16.556	$GPGGA,120317,2536.4988,N,08007.3230,W,1,10,1.5,15,M,,M,,*65
06/10/2015	12:03:17.546	$GPGGA,120318,2536.4963,N,08007.3229,W,1,10,1.5,15,M,,M,,*67
06/10/2015	12:03:18.527	$GPGGA,120319,2536.4937,N,08007.3230,W,1,10,1.5,15,M,,M,,*6F
06/10/2015	12:03:19.557	$GPGGA,120320,2536.4912,N,08007.3228,W,1,10,1.5,15,M,,M,,*6B
06/10/2015	12:03:20.527	$GPGGA,120321,2536.4887,N,08007.3227,W,1,10,1.5,15,M,,M,,*68
06/10/2015	12:03:21.547	$GPGGA,120322,2536.4862,N,08007.3226,W,1,10,1.5,15,M,,M,,*61
06/10/2015	12:03:22.537	$GPGGA,120323,2536.4837,N,08007.3224,W,1,10,1.9,15,M,,M,,*6E
06/10/2015	12:03:23.547	$GPGGA,120324,2536.4812,N,08007.3222,W,1,9,1.9,15,M,,M,,*50
06/10/2015	12:03:24.517	$GPGGA,120325,2536.4789,N,08007.3221,W,1,9,1.9,15,M,,M,,*5F
06/10/2015	12:03:25.517	$GPGGA,120326,2536.4763,N,08007.3219,W,1,9,1.9,15,M,,M,,*53
06/10/2015	12:03:26.537	$GPGGA,120327,2536.4738,N,08007.3217,W,1,9,1.9,15,M,,M,,*52
06/10/2015	12:03:27.567	$GPGGA,120328,2536.4713,N,08007.3215,W,1,9,1.9,15,M,,M,,*56
06/10/2015	12:03:28.627	$GPGGA,120329,2536.4688,N,08007.3213,W,1,9,1.9,15,M,,M,,*52
06/10/2015	12:03:29.537	$GPGGA,120330,2536.4663,N,08007.3210,W,1,9,1.9,15,M,,M,,*5C
06/10/2015	12:03:30.526	$GPGGA,120331,2536.4638,N,08007.3208,W,1,9,1.9,15,M,,M,,*5A
06/10/2015	12:03:31.646	$GPGGA,120332,2536.4613,N,08007.3205,W,1,9,1.9,15,M,,M,,*5D
06/10/2015	12:03:32.506	$GPGGA,120333,2536.4587,N,08007.3202,W,1,9,1.9,15,M,,M,,*55
06/10/2015	12:03:33.606	$GPGGA,120334,2536.4562,N,08007.3199,W,1,9,1.9,15,M,,M,,*58
06/10/2015	12:03:34.596	$GPGGA,120335,2536.4537,N,08007.3196,W,1,9,1.9,15,M,,M,,*56
06/10/2015	12:03:35.506	$GPGGA,120336,2536.4512,N,08007.3194,W,1,9,1.9,15,M,,M,,*50
06/10/2015	12:03:36.517	$GPGGA,120337,2536.4487,N,08007.3190,W,1,9,1.9,15,M,,M,,*58
06/10/2015	12:03:37.587	$GPGGA,120338,2536.4462,N,08007.3187,W,1,9,1.9,14,M,,M,,*5B
06/10/2015	12:03:38.587	$GPGGA,120339,2536.4437,N,08007.3185,W,1,9,1.9,14,M,,M,,*58
06/10/2015	12:03:39.597	$GPGGA,120340,2536.4413,N,08007.3182,W,1,9,1.9,14,M,,M,,*57
06/10/2015	12:03:40.637	$GPGGA,120341,2536.4388,N,08007.3179,W,1,9,1.9,14,M,,M,,*57
06/10/2015	12:03:41.627	$GPGGA,120342,2536.4361,N,08007.3176,W,1,9,1.9,14,M,,M,,*5C
06/10/2015	12:03:42.587	$GPGGA,120343,2536.4337,N,08007.3173,W,1,9,1.9,14,M,,M,,*5B
06/10/2015	12:03:43.507	$GPGGA,120344,2536.4312,N,08007.3170,W,1,9,1.9,14,M,,M,,*58
06/10/2015	12:03:44.587	$GPGGA,120345,2536.4286,N,08007.3168,W,1,9,1.9,14,M,,M,,*5C
06/10/2015	12:03:45.637	$GPGGA,120346,2536.4261,N,08007.3166,W,1,9,1.9,14,M,,M,,*58
06/10/2015	12:03:46.567	$GPGGA,120347,2536.4236,N,08007.3163,W,1,9,1.9,14,M,,M,,*5E
06/10/2015	12:03:47.626	$GPGGA,120348,2536.4211,N,08007.3160,W,1,9,1.9,14,M,,M,,*57
06/10/2015	12:03:48.576	$GPGGA,120349,2536.4185,N,08007.3158,W,1,9,1.9,14,M,,M,,*53
06/10/2015	12:03:49.596	$GPGGA,120350,2536.4160,N,08007.3156,W,1,9,1.9,14,M,,M,,*5E
06/10/2015	12:03:50.566	$GPGGA,120351,2536.4135,N,08007.3153,W,1,9,1.9,14,M,,M,,*5A
06/10/2015	12:03:51.606	$GPGGA,120352,2536.4110,N,08007.3151,W,1,9,1.9,14,M,,M,,*5C
06/10/2015	12:03:52.576	$GPGGA,120353,2536.4085,N,08007.3149,W,1,9,1.9,14,M,,M,,*59
06/10/2015	12:03:53.587	$GPGGA,120354,2536.4060,N,08007.3147,W,1,9,1.9,14,M,,M,,*5B
06/10/2015	12:03:54.567	$GPGGA,120355,2536.4034,N,08007.3144,W,1,9,1.9,14,M,,M,,*58
06/10/2015	12:03:55.597	$GPGGA,120356,2536.4009,N,08007.3142,W,1,9,1.9,14,M,,M,,*53
06/10/2015	12:03:56.567	$GPGGA,120357,2536.3984,N,08007.3140,W,1,9,1.9,14,M,,M,,*5B
06/10/2015	12:03:57.577	$GPGGA,120358,2536.3959,N,08007.3138,W,1,9,1.9,14,M,,M,,*5B
06/10/2015	12:03:58.558	$GPGGA,120359,2536.3934,N,08007.3137,W,1,9,1.9,14,M,,M,,*5E
06/10/2015	12:03:59.597	$GPGGA,120400,2536.3908,N,08007.3135,W,1,9,1.9,14,M,,M,,*58
06/10/2015	12:04:00.547	$GPGGA,120401,2536.3883,N,08007.3133,W,1,9,1.9,14,M,,M,,*5D
06/10/2015	12:04:01.558	$GPGGA,120402,2536.3858,N,08007.3131,W,1,9,1.9,14,M,,M,,*5A
06/10/2015	12:04:02.547	$GPGGA,120403,2536.3833,N,08007.3130,W,1,9,1.9,14,M,,M,,*57
06/10/2015	12:04:03.587	$GPGGA,120404,2536.3808,N,08007.3128,W,1,9,1.9,14,M,,M,,*51
06/10/2015	12:04:04.537	$GPGGA,120405,2536.3783,N,08007.3127,W,1,9,1.9,14,M,,M,,*53
06/10/2015	12:04:05.856	$GPGGA,120406,2536.3757,N,08007.3126,W,1,9,1.9,14,M,,M,,*58
06/10/2015	12:04:06.546	$GPGGA,120407,2536.3732,N,08007.3125,W,1,9,1.9,14,M,,M,,*59
06/10/2015	12:04:07.557	$GPGGA,120408,2536.3708,N,08007.3123,W,1,9,1.9,14,M,,M,,*59
06/10/2015	12:04:08.536	$GPGGA,120409,2536.3683,N,08007.3122,W,1,9,1.9,14,M,,M,,*5B
06/10/2015	12:04:09.536	$GPGGA,120410,2536.3658,N,08007.3122,W,1,9,1.9,14,M,,M,,*55
06/10/2015	12:04:10.526	$GPGGA,120411,2536.3633,N,08007.3121,W,1,9,1.9,14,M,,M,,*5A
06/10/2015	12:04:11.577	$GPGGA,120412,2536.3607,N,08007.3120,W,1,9,1.9,14,M,,M,,*5F
06/10/2015	12:04:12.517	$GPGGA,120413,2536.3583,N,08007.3119,W,1,9,1.9,14,M,,M,,*5B
06/10/2015	12:04:13.527	$GPGGA,120414,2536.3557,N,08007.3119,W,1,9,1.9,14,M,,M,,*55
06/10/2015	12:04:14.517	$GPGGA,120415,2536.3532,N,08007.3118,W,1,9,1.9,14,M,,M,,*56
06/10/2015	12:04:15.537	$GPGGA,120416,2536.3507,N,08007.3117,W,1,9,1.9,14,M,,M,,*5C
06/10/2015	12:04:16.627	$GPGGA,120417,2536.3482,N,08007.3116,W,1,9,1.9,14,M,,M,,*50
06/10/2015	12:04:17.637	$GPGGA,120418,2536.3457,N,08007.3115,W,1,9,1.9,14,M,,M,,*54
06/10/2015	12:04:18.527	$GPGGA,120419,2536.3432,N,08007.3115,W,1,9,1.9,14,M,,M,,*56
06/10/2015	12:04:19.647	$GPGGA,120420,2536.3407,N,08007.3114,W,1,9,1.9,14,M,,M,,*5B
06/10/2015	12:04:20.517	$GPGGA,120421,2536.3381,N,08007.3114,W,1,9,1.9,14,M,,M,,*53
06/10/2015	12:04:21.517	$GPGGA,120422,2536.3356,N,08007.3113,W,1,9,1.9,14,M,,M,,*5D
06/10/2015	12:04:22.616	$GPGGA,120423,2536.3331,N,08007.3112,W,1,9,1.9,14,M,,M,,*5C
06/10/2015	12:04:23.656	$GPGGA,120424,2536.3306,N,08007.3112,W,1,9,1.9,14,M,,M,,*5F
06/10/2015	12:04:24.616	$GPGGA,120425,2536.3280,N,08007.3111,W,1,9,1.9,14,M,,M,,*52
06/10/2015	12:04:25.646	$GPGGA,120426,2536.3255,N,08007.3110,W,1,9,1.9,14,M,,M,,*58
06/10/2015	12:04:26.606	$GPGGA,120427,2536.3230,N,08007.3109,W,1,9,1.9,14,M,,M,,*52
06/10/2015	12:04:27.616	$GPGGA,120428,2536.3205,N,08007.3107,W,1,9,1.9,14,M,,M,,*55
06/10/2015	12:04:28.597	$GPGGA,120429,2536.3181,N,08007.3106,W,1,9,1.9,14,M,,M,,*5A
06/10/2015	12:04:29.587	$GPGGA,120430,2536.3156,N,08007.3105,W,1,9,1.9,14,M,,M,,*5B
06/10/2015	12:04:30.587	$GPGGA,120431,2536.3130,N,08007.3103,W,1,9,1.9,14,M,,M,,*5C
06/10/2015	12:04:31.597	$GPGGA,120432,2536.3105,N,08007.3102,W,1,9,1.9,14,M,,M,,*58
06/10/2015	12:04:32.577	$GPGGA,120433,2536.3080,N,08007.3100,W,1,9,1.9,14,M,,M,,*57
06/10/2015	12:04:33.617	$GPGGA,120434,2536.3055,N,08007.3098,W,1,9,1.9,14,M,,M,,*58
06/10/2015	12:04:34.577	$GPGGA,120435,2536.3029,N,08007.3096,W,1,9,1.9,14,M,,M,,*5C
06/10/2015	12:04:35.617	$GPGGA,120436,2536.3005,N,08007.3094,W,1,9,1.9,14,M,,M,,*53
06/10/2015	12:04:36.567	$GPGGA,120437,2536.2980,N,08007.3092,W,1,9,1.8,14,M,,M,,*50
06/10/2015	12:04:37.577	$GPGGA,120438,2536.2955,N,08007.3090,W,1,10,1.8,14,M,,M,,*6D
06/10/2015	12:04:38.577	$GPGGA,120439,2536.2930,N,08007.3088,W,1,10,1.8,14,M,,M,,*66
06/10/2015	12:04:39.607	$GPGGA,120440,2536.2906,N,08007.3085,W,1,10,1.8,14,M,,M,,*60
06/10/2015	12:04:40.576	$GPGGA,120441,2536.2881,N,08007.3083,W,1,10,1.8,14,M,,M,,*69
06/10/2015	12:04:41.556	$GPGGA,120442,2536.2856,N,08007.3080,W,1,10,1.8,14,M,,M,,*63
06/10/2015	12:04:42.566	$GPGGA,120443,2536.2831,N,08007.3078,W,1,10,1.8,14,M,,M,,*64
06/10/2015	12:04:43.586	$GPGGA,120444,2536.2806,N,08007.3075,W,1,10,1.8,15,M,,M,,*6B
06/10/2015	12:04:44.556	$GPGGA,120445,2536.2781,N,08007.3072,W,1,10,1.8,15,M,,M,,*6D
06/10/2015	12:04:45.586	$GPGGA,120446,2536.2755,N,08007.3070,W,1,10,1.8,15,M,,M,,*65
06/10/2015	12:04:46.557	$GPGGA,120447,2536.2730,N,08007.3067,W,1,10,1.8,15,M,,M,,*61
06/10/2015	12:04:47.587	$GPGGA,120448,2536.2706,N,08007.3065,W,1,10,1.8,15,M,,M,,*69
06/10/2015	12:04:48.557	$GPGGA,120449,2536.2680,N,08007.3062,W,1,10,1.8,15,M,,M,,*60
06/10/2015	12:04:49.537	$GPGGA,120450,2536.2655,N,08007.3059,W,1,10,1.8,15,M,,M,,*68
06/10/2015	12:04:50.547	$GPGGA,120451,2536.2632,N,08007.3057,W,1,10,1.8,15,M,,M,,*66
06/10/2015	12:04:51.587	$GPGGA,120452,2536.2605,N,08007.3054,W,1,10,1.8,15,M,,M,,*62
06/10/2015	12:04:52.537	$GPGGA,120453,2536.2580,N,08007.3052,W,1,10,1.8,15,M,,M,,*6B
06/10/2015	12:04:53.537	$GPGGA,120454,2536.2556,N,08007.3049,W,1,10,1.8,15,M,,M,,*6D
06/10/2015	12:04:54.527	$GPGGA,120455,2536.2531,N,08007.3046,W,1,10,1.8,15,M,,M,,*62
06/10/2015	12:04:55.627	$GPGGA,120456,2536.2505,N,08007.3044,W,1,10,1.8,16,M,,M,,*67
06/10/2015	12:04:56.527	$GPGGA,120457,2536.2480,N,08007.3041,W,1,10,1.8,16,M,,M,,*6F
06/10/2015	12:04:57.516	$GPGGA,120458,2536.2455,N,08007.3039,W,1,10,1.8,16,M,,M,,*67
06/10/2015	12:04:58.526	$GPGGA,120459,2536.2430,N,08007.3036,W,1,10,1.8,16,M,,M,,*6A
06/10/2015	12:04:59.546	$GPGGA,120500,2536.2405,N,08007.3034,W,1,10,1.8,16,M,,M,,*63
06/10/2015	12:05:00.516	$GPGGA,120501,2536.2380,N,08007.3032,W,1,10,1.8,16,M,,M,,*6E
06/10/2015	12:05:01.526	$GPGGA,120502,2536.2355,N,08007.3029,W,1,10,1.8,16,M,,M,,*6F
06/10/2015	12:05:02.626	$GPGGA,120503,2536.2329,N,08007.3028,W,1,10,1.8,16,M,,M,,*64
06/10/2015	12:05:03.516	$GPGGA,120504,2536.2304,N,08007.3025,W,1,10,1.8,16,M,,M,,*61
06/10/2015	12:05:04.496	$GPGGA,120505,2536.2279,N,08007.3023,W,1,10,1.8,16,M,,M,,*6D
06/10/2015	12:05:05.526	$GPGGA,120506,2536.2253,N,08007.3021,W,1,10,1.8,16,M,,M,,*64
06/10/2015	12:05:06.506	$GPGGA,120507,2536.2228,N,08007.3019,W,1,10,1.8,16,M,,M,,*62
06/10/2015	12:05:07.606	$GPGGA,120508,2536.2203,N,08007.3016,W,1,10,1.8,16,M,,M,,*6B
06/10/2015	12:05:08.596	$GPGGA,120509,2536.2177,N,08007.3014,W,1,10,1.8,16,M,,M,,*68
06/10/2015	12:05:09.516	$GPGGA,120510,2536.2152,N,08007.3012,W,1,10,1.8,16,M,,M,,*61
06/10/2015	12:05:10.496	$GPGGA,120511,2536.2127,N,08007.3011,W,1,10,1.8,16,M,,M,,*61
06/10/2015	12:05:11.596	$GPGGA,120512,2536.2101,N,08007.3008,W,1,10,1.8,16,M,,M,,*6E
06/10/2015	12:05:12.506	$GPGGA,120513,2536.2076,N,08007.3006,W,1,10,1.8,16,M,,M,,*60
06/10/2015	12:05:13.637	$GPGGA,120514,2536.2050,N,08007.3005,W,1,10,1.8,17,M,,M,,*61
06/10/2015	12:05:14.577	$GPGGA,120515,2536.2025,N,08007.3003,W,1,10,1.8,17,M,,M,,*64
06/10/2015	12:05:15.616	$GPGGA,120516,2536.2000,N,08007.3002,W,1,10,1.8,17,M,,M,,*61
06/10/2015	12:05:16.496	$GPGGA,120517,2536.1975,N,08007.3002,W,1,10,1.8,17,M,,M,,*68
06/10/2015	12:05:17.586	$GPGGA,120518,2536.1950,N,08007.3000,W,1,10,1.8,17,M,,M,,*62
06/10/2015	12:05:18.576	$GPGGA,120519,2536.1925,N,08007.2999,W,1,10,1.8,17,M,,M,,*69
06/10/2015	12:05:19.606	$GPGGA,120520,2536.1899,N,08007.2998,W,1,10,1.8,17,M,,M,,*64
06/10/2015	12:05:20.586	$GPGGA,120521,2536.1874,N,08007.2999,W,1,10,1.8,17,M,,M,,*67
06/10/2015	12:05:21.566	$GPGGA,120522,2536.1849,N,08007.2997,W,1,10,1.8,17,M,,M,,*64
06/10/2015	12:05:22.576	$GPGGA,120523,2536.1824,N,08007.2996,W,1,10,1.8,17,M,,M,,*6F
06/10/2015	12:05:23.596	$GPGGA,120524,2536.1799,N,08007.2996,W,1,10,1.8,17,M,,M,,*61
06/10/2015	12:05:24.556	$GPGGA,120525,2536.1774,N,08007.2995,W,1,10,1.8,16,M,,M,,*61
06/10/2015	12:05:25.596	$GPGGA,120526,2536.1748,N,08007.2994,W,1,10,1.8,16,M,,M,,*6C
06/10/2015	12:05:26.550	$GPGGA,120527,2536.1723,N,08007.2993,W,1,10,1.8,16,M,,M,,*67
06/10/2015	12:05:27.586	$GPGGA,120528,2536.1698,N,08007.2993,W,1,10,1.8,16,M,,M,,*69
06/10/2015	12:05:28.556	$GPGGA,120529,2536.1673,N,08007.2992,W,1,10,1.8,16,M,,M,,*6C
06/10/2015	12:05:29.546	$GPGGA,120530,2536.1648,N,08007.2991,W,1,10,1.8,16,M,,M,,*6F
06/10/2015	12:05:30.566	$GPGGA,120531,2536.1624,N,08007.2991,W,1,10,1.8,16,M,,M,,*64
06/10/2015	12:05:31.577	$GPGGA,120532,2536.1597,N,08007.2989,W,1,10,1.8,16,M,,M,,*65
06/10/2015	12:05:32.556	$GPGGA,120533,2536.1572,N,08007.2988,W,1,10,1.8,16,M,,M,,*6E
06/10/2015	12:05:33.566	$GPGGA,120534,2536.1548,N,08007.2988,W,1,10,1.8,16,M,,M,,*60
06/10/2015	12:05:34.536	$GPGGA,120535,2536.1521,N,08007.2987,W,1,10,1.8,16,M,,M,,*61
06/10/2015	12:05:35.606	$GPGGA,120536,2536.1496,N,08007.2985,W,1,10,1.8,16,M,,M,,*6D
06/10/2015	12:05:36.836	$GPGGA,120537,2536.1471,N,08007.2985,W,1,10,1.8,16,M,,M,,*65
06/10/2015	12:05:37.527	$GPGGA,120538,2536.1445,N,08007.2984,W,1,10,1.8,16,M,,M,,*6C
06/10/2015	12:05:38.536	$GPGGA,120539,2536.1420,N,08007.2983,W,1,10,1.8,16,M,,M,,*69
06/10/2015	12:05:39.566	$GPGGA,120540,2536.1394,N,08007.2981,W,1,9,1.9,16,M,,M,,*54
06/10/2015	12:05:40.536	$GPGGA,120541,2536.1371,N,08007.2981,W,1,9,1.9,16,M,,M,,*5E
06/10/2015	12:05:41.536	$GPGGA,120542,2536.1344,N,08007.2979,W,1,10,1.8,16,M,,M,,*65
06/10/2015	12:05:42.526	$GPGGA,120543,2536.1318,N,08007.2978,W,1,10,1.9,16,M,,M,,*6D
06/10/2015	12:05:43.566	$GPGGA,120544,2536.1293,N,08007.2977,W,1,9,1.9,16,M,,M,,*5F
06/10/2015	12:05:44.536	$GPGGA,120545,2536.1267,N,08007.2976,W,1,9,1.9,16,M,,M,,*54
06/10/2015	12:05:45.556	$GPGGA,120546,2536.1242,N,08007.2975,W,1,9,1.9,16,M,,M,,*53
06/10/2015	12:05:46.516	$GPGGA,120547,2536.1217,N,08007.2973,W,1,9,1.9,16,M,,M,,*54
06/10/2015	12:05:47.676	$GPGGA,120548,2536.1192,N,08007.2972,W,1,9,1.9,15,M,,M,,*57
06/10/2015	12:05:48.527	$GPGGA,120549,2536.1166,N,08007.2970,W,1,9,1.9,15,M,,M,,*5F
06/10/2015	12:05:49.517	$GPGGA,120550,2536.1141,N,08007.2968,W,1,9,1.9,15,M,,M,,*5B
06/10/2015	12:05:50.526	$GPGGA,120551,2536.1116,N,08007.2967,W,1,9,1.9,15,M,,M,,*57
06/10/2015	12:05:51.526	$GPGGA,120552,2536.1090,N,08007.2965,W,1,9,1.9,15,M,,M,,*59
06/10/2015	12:05:52.606	$GPGGA,120553,2536.1065,N,08007.2963,W,1,9,1.9,15,M,,M,,*54
06/10/2015	12:05:53.516	$GPGGA,120554,2536.1040,N,08007.2961,W,1,9,1.9,15,M,,M,,*56
06/10/2015	12:05:54.526	$GPGGA,120555,2536.1015,N,08007.2959,W,1,9,1.9,15,M,,M,,*5C
06/10/2015	12:05:55.666	$GPGGA,120556,2536.0990,N,08007.2957,W,1,10,1.8,15,M,,M,,*6D
06/10/2015	12:05:56.506	$GPGGA,120557,2536.0965,N,08007.2955,W,1,10,1.8,15,M,,M,,*64
06/10/2015	12:05:57.606	$GPGGA,120558,2536.0941,N,08007.2953,W,1,10,1.8,14,M,,M,,*6A
06/10/2015	12:05:58.506	$GPGGA,120559,2536.0916,N,08007.2950,W,1,10,1.8,14,M,,M,,*6A
06/10/2015	12:05:59.556	$GPGGA,120600,2536.0891,N,08007.2948,W,1,10,1.8,14,M,,M,,*62
06/10/2015	12:06:00.506	$GPGGA,120601,2536.0866,N,08007.2946,W,1,10,1.8,14,M,,M,,*65
06/10/2015	12:06:01.606	$GPGGA,120602,2536.0841,N,08007.2943,W,1,10,1.8,14,M,,M,,*66
06/10/2015	12:06:02.576	$GPGGA,120603,2536.0815,N,08007.2940,W,1,10,1.9,14,M,,M,,*64
06/10/2015	12:06:03.626	$GPGGA,120604,2536.0790,N,08007.2937,W,1,9,1.9,14,M,,M,,*59
06/10/2015	12:06:04.576	$GPGGA,120605,2536.0764,N,08007.2935,W,1,9,1.9,14,M,,M,,*51
06/10/2015	12:06:05.616	$GPGGA,120606,2536.0739,N,08007.2931,W,1,9,1.9,14,M,,M,,*5E
06/10/2015	12:06:06.567	$GPGGA,120607,2536.0714,N,08007.2928,W,1,9,1.9,14,M,,M,,*58
06/10/2015	12:06:07.606	$GPGGA,120608,2536.0688,N,08007.2925,W,1,9,1.9,14,M,,M,,*5E
06/10/2015	12:06:08.566	$GPGGA,120609,2536.0663,N,08007.2922,W,1,9,1.9,14,M,,M,,*5D
06/10/2015	12:06:09.586	$GPGGA,120610,2536.0638,N,08007.2919,W,1,9,1.9,14,M,,M,,*53
06/10/2015	12:06:10.576	$GPGGA,120611,2536.0612,N,08007.2916,W,1,9,1.9,14,M,,M,,*55
06/10/2015	12:06:11.576	$GPGGA,120612,2536.0587,N,08007.2914,W,1,9,1.9,14,M,,M,,*5B
06/10/2015	12:06:12.566	$GPGGA,120613,2536.0562,N,08007.2911,W,1,9,1.9,14,M,,M,,*54
06/10/2015	12:06:13.586	$GPGGA,120614,2536.0535,N,08007.2908,W,1,9,1.9,14,M,,M,,*59
06/10/2015	12:06:14.586	$GPGGA,120615,2536.0510,N,08007.2906,W,1,9,1.8,14,M,,M,,*50
06/10/2015	12:06:15.606	$GPGGA,120616,2536.0486,N,08007.2902,W,1,10,1.8,14,M,,M,,*61
06/10/2015	12:06:16.566	$GPGGA,120617,2536.0461,N,08007.2900,W,1,10,1.8,14,M,,M,,*6B
06/10/2015	12:06:17.566	$GPGGA,120618,2536.0436,N,08007.2897,W,1,10,1.8,14,M,,M,,*69
06/10/2015	12:06:18.556	$GPGGA,120619,2536.0411,N,08007.2895,W,1,10,1.8,14,M,,M,,*6F
06/10/2015	12:06:19.586	$GPGGA,120620,2536.0386,N,08007.2893,W,1,10,1.8,14,M,,M,,*6A
06/10/2015	12:06:20.566	$GPGGA,120621,2536.0361,N,08007.2890,W,1,10,1.8,14,M,,M,,*61
06/10/2015	12:06:21.536	$GPGGA,120622,2536.0338,N,08007.2888,W,1,10,1.8,14,M,,M,,*67
06/10/2015	12:06:22.556	$GPGGA,120623,2536.0313,N,08007.2886,W,1,10,1.8,14,M,,M,,*61
06/10/2015	12:06:23.567	$GPGGA,120624,2536.0287,N,08007.2883,W,1,10,1.8,14,M,,M,,*6F
06/10/2015	12:06:24.549	$GPGGA,120625,2536.0262,N,08007.2880,W,1,10,1.8,14,M,,M,,*66
06/10/2015	12:06:25.576	$GPGGA,120626,2536.0237,N,08007.2879,W,1,10,1.8,15,M,,M,,*62
06/10/2015	12:06:26.536	$GPGGA,120627,2536.0211,N,08007.2876,W,1,10,1.8,15,M,,M,,*68
06/10/2015	12:06:27.576	$GPGGA,120628,2536.0186,N,08007.2874,W,1,10,1.8,15,M,,M,,*68
06/10/2015	12:06:28.536	$GPGGA,120629,2536.0161,N,08007.2872,W,1,10,1.8,15,M,,M,,*66
06/10/2015	12:06:29.548	$GPGGA,120630,2536.0135,N,08007.2870,W,1,10,1.8,15,M,,M,,*6D
06/10/2015	12:06:30.536	$GPGGA,120631,2536.0110,N,08007.2868,W,1,10,1.8,15,M,,M,,*62
06/10/2015	12:06:31.566	$GPGGA,120632,2536.0085,N,08007.2866,W,1,10,1.8,15,M,,M,,*62
06/10/2015	12:06:32.636	$GPGGA,120633,2536.0060,N,08007.2864,W,1,10,1.8,15,M,,M,,*6A
06/10/2015	12:06:33.548	$GPGGA,120634,2536.0034,N,08007.2862,W,1,10,1.8,15,M,,M,,*6A
06/10/2015	12:06:34.536	$GPGGA,120635,2536.0009,N,08007.2860,W,1,10,1.8,15,M,,M,,*67
06/10/2015	12:06:36.026	$GPGGA,120636,2535.9984,N,08007.2859,W,1,10,1.8,15,M,,M,,*68
06/10/2015	12:06:36.536	$GPGGA,120637,2535.9959,N,08007.2857,W,1,10,1.8,15,M,,M,,*67
06/10/2015	12:06:37.536	$GPGGA,120638,2535.9934,N,08007.2856,W,1,10,1.8,15,M,,M,,*62
06/10/2015	12:06:38.506	$GPGGA,120639,2535.9909,N,08007.2855,W,1,10,1.8,15,M,,M,,*6E
06/10/2015	12:06:39.656	$GPGGA,120640,2535.9883,N,08007.2854,W,1,10,1.8,15,M,,M,,*62
06/10/2015	12:06:40.546	$GPGGA,120641,2535.9858,N,08007.2853,W,1,10,1.8,15,M,,M,,*62
06/10/2015	12:06:41.507	$GPGGA,120642,2535.9833,N,08007.2852,W,1,10,1.8,15,M,,M,,*6D
06/10/2015	12:06:42.516	$GPGGA,120643,2535.9808,N,08007.2852,W,1,10,1.8,15,M,,M,,*64
06/10/2015	12:06:43.606	$GPGGA,120644,2535.9783,N,08007.2851,W,1,10,1.8,15,M,,M,,*6C
06/10/2015	12:06:44.596	$GPGGA,120645,2535.9758,N,08007.2850,W,1,10,1.8,15,M,,M,,*6A
06/10/2015	12:06:45.616	$GPGGA,120646,2535.9732,N,08007.2849,W,1,10,1.8,15,M,,M,,*6D
06/10/2015	12:06:46.506	$GPGGA,120647,2535.9732,N,08007.2849,W,1,10,1.8,15,M,,M,,*6C
06/10/2015	12:06:47.636	$GPGGA,120648,2535.9682,N,08007.2848,W,1,10,1.8,15,M,,M,,*68
06/10/2015	12:06:48.506	$GPGGA,120649,2535.9682,N,08007.2848,W,1,10,1.8,15,M,,M,,*69
06/10/2015	12:06:49.616	$GPGGA,120650,2535.9631,N,08007.2847,W,1,10,1.8,15,M,,M,,*66
06/10/2015	12:06:50.586	$GPGGA,120651,2535.9606,N,08007.2847,W,1,10,1.8,15,M,,M,,*63
06/10/2015	12:06:51.606	$GPGGA,120652,2535.9580,N,08007.2846,W,1,10,1.8,15,M,,M,,*6C
06/10/2015	12:06:52.576	$GPGGA,120653,2535.9555,N,08007.2847,W,1,10,1.8,15,M,,M,,*64
06/10/2015	12:06:53.596	$GPGGA,120654,2535.9530,N,08007.2846,W,1,10,1.8,15,M,,M,,*61
06/10/2015	12:06:54.576	$GPGGA,120655,2535.9505,N,08007.2844,W,1,10,1.8,15,M,,M,,*64
06/10/2015	12:06:55.586	$GPGGA,120656,2535.9480,N,08007.2843,W,1,10,1.8,15,M,,M,,*6C
06/10/2015	12:06:56.576	$GPGGA,120657,2535.9455,N,08007.2842,W,1,10,1.8,15,M,,M,,*64
06/10/2015	12:06:57.586	$GPGGA,120658,2535.9431,N,08007.2843,W,1,10,1.8,15,M,,M,,*68
06/10/2015	12:06:58.567	$GPGGA,120659,2535.9404,N,08007.2840,W,1,10,1.8,15,M,,M,,*6C
06/10/2015	12:06:59.597	$GPGGA,120700,2535.9379,N,08007.2839,W,1,10,1.8,15,M,,M,,*62
06/10/2015	12:07:00.566	$GPGGA,120701,2535.9355,N,08007.2838,W,1,10,1.8,15,M,,M,,*6C
06/10/2015	12:07:01.566	$GPGGA,120702,2535.9328,N,08007.2837,W,1,10,1.8,15,M,,M,,*6A
06/10/2015	12:07:02.826	$GPGGA,120703,2535.9303,N,08007.2835,W,1,10,1.8,15,M,,M,,*60
06/10/2015	12:07:03.586	$GPGGA,120704,2535.9278,N,08007.2834,W,1,10,1.8,15,M,,M,,*6B
06/10/2015	12:07:04.556	$GPGGA,120705,2535.9254,N,08007.2832,W,1,10,1.8,15,M,,M,,*62
06/10/2015	12:07:05.586	$GPGGA,120706,2535.9229,N,08007.2830,W,1,10,1.8,15,M,,M,,*69
06/10/2015	12:07:06.556	$GPGGA,120707,2535.9203,N,08007.2828,W,1,10,1.8,15,M,,M,,*69
06/10/2015	12:07:07.586	$GPGGA,120708,2535.9178,N,08007.2826,W,1,10,1.8,15,M,,M,,*67
06/10/2015	12:07:08.547	$GPGGA,120709,2535.9153,N,08007.2824,W,1,10,1.8,15,M,,M,,*6D
06/10/2015	12:07:09.536	$GPGGA,120710,2535.9128,N,08007.2823,W,1,10,1.8,15,M,,M,,*6E
06/10/2015	12:07:10.556	$GPGGA,120711,2535.9103,N,08007.2821,W,1,10,1.9,15,M,,M,,*65
06/10/2015	12:07:11.566	$GPGGA,120712,2535.9077,N,08007.2818,W,1,10,1.8,15,M,,M,,*6F
06/10/2015	12:07:12.546	$GPGGA,120713,2535.9052,N,08007.2816,W,1,10,1.9,15,M,,M,,*66
06/10/2015	12:07:13.526	$GPGGA,120714,2535.9026,N,08007.2814,W,1,10,1.8,15,M,,M,,*61
06/10/2015	12:07:14.536	$GPGGA,120715,2535.9002,N,08007.2812,W,1,10,1.9,15,M,,M,,*61
06/10/2015	12:07:15.576	$GPGGA,120716,2535.8977,N,08007.2809,W,1,10,1.8,15,M,,M,,*63
06/10/2015	12:07:16.527	$GPGGA,120717,2535.8952,N,08007.2807,W,1,10,1.8,15,M,,M,,*6B
06/10/2015	12:07:17.526	$GPGGA,120718,2535.8927,N,08007.2804,W,1,10,1.8,15,M,,M,,*65
06/10/2015	12:07:18.536	$GPGGA,120719,2535.8902,N,08007.2801,W,1,10,1.8,15,M,,M,,*66
06/10/2015	12:07:19.536	$GPGGA,120720,2535.8877,N,08007.2799,W,1,10,1.8,15,M,,M,,*61
06/10/2015	12:07:20.547	$GPGGA,120721,2535.8853,N,08007.2796,W,1,10,1.9,15,M,,M,,*68
06/10/2015	12:07:21.536	$GPGGA,120722,2535.8828,N,08007.2793,W,1,10,1.8,15,M,,M,,*63
06/10/2015	12:07:22.506	$GPGGA,120723,2535.8802,N,08007.2790,W,1,10,1.8,15,M,,M,,*69
06/10/2015	12:07:23.647	$GPGGA,120724,2535.8777,N,08007.2788,W,1,10,1.8,15,M,,M,,*6A
06/10/2015	12:07:24.536	$GPGGA,120725,2535.8752,N,08007.2785,W,1,10,1.8,15,M,,M,,*61
06/10/2015	12:07:25.636	$GPGGA,120726,2535.8728,N,08007.2783,W,1,10,1.8,15,M,,M,,*69
06/10/2015	12:07:26.526	$GPGGA,120727,2535.8702,N,08007.2780,W,1,10,1.8,15,M,,M,,*63
06/10/2015	12:07:27.616	$GPGGA,120728,2535.8678,N,08007.2777,W,1,10,1.8,16,M,,M,,*6B
06/10/2015	12:07:28.506	$GPGGA,120729,2535.8653,N,08007.2775,W,1,10,1.8,16,M,,M,,*61
06/10/2015	12:07:29.596	$GPGGA,120730,2535.8627,N,08007.2773,W,1,10,1.8,16,M,,M,,*6C
06/10/2015	12:07:30.516	$GPGGA,120731,2535.8602,N,08007.2770,W,1,10,1.9,16,M,,M,,*68
06/10/2015	12:07:31.636	$GPGGA,120732,2535.8577,N,08007.2768,W,1,9,1.9,16,M,,M,,*5B
06/10/2015	12:07:32.586	$GPGGA,120733,2535.8554,N,08007.2766,W,1,9,1.8,16,M,,M,,*54
06/10/2015	12:07:33.617	$GPGGA,120734,2535.8528,N,08007.2764,W,1,10,1.8,16,M,,M,,*62
06/10/2015	12:07:34.597	$GPGGA,120735,2535.8503,N,08007.2763,W,1,10,1.8,16,M,,M,,*6D
06/10/2015	12:07:35.516	$GPGGA,120736,2535.8477,N,08007.2761,W,1,9,1.9,16,M,,M,,*57
06/10/2015	12:07:36.576	$GPGGA,120737,2535.8452,N,08007.2759,W,1,9,1.9,16,M,,M,,*5A
06/10/2015	12:07:37.586	$GPGGA,120738,2535.8425,N,08007.2758,W,1,9,1.9,16,M,,M,,*54
06/10/2015	12:07:38.586	$GPGGA,120739,2535.8400,N,08007.2757,W,1,9,1.9,16,M,,M,,*5D
06/10/2015	12:07:39.616	$GPGGA,120740,2535.8374,N,08007.2756,W,1,9,1.9,16,M,,M,,*56
06/10/2015	12:07:40.576	$GPGGA,120741,2535.8348,N,08007.2754,W,1,9,1.9,16,M,,M,,*5A
06/10/2015	12:07:41.596	$GPGGA,120742,2535.8323,N,08007.2753,W,1,9,1.9,16,M,,M,,*53
06/10/2015	12:07:42.566	$GPGGA,120743,2535.8298,N,08007.2753,W,1,9,1.9,16,M,,M,,*53
06/10/2015	12:07:43.606	$GPGGA,120744,2535.8273,N,08007.2752,W,1,10,1.8,16,M,,M,,*69
06/10/2015	12:07:44.566	$GPGGA,120745,2535.8248,N,08007.2751,W,1,10,1.8,16,M,,M,,*63
06/10/2015	12:07:45.586	$GPGGA,120746,2535.8223,N,08007.2751,W,1,10,1.8,16,M,,M,,*6D
06/10/2015	12:07:46.566	$GPGGA,120747,2535.8199,N,08007.2750,W,1,10,1.8,16,M,,M,,*6F
06/10/2015	12:07:47.617	$GPGGA,120748,2535.8172,N,08007.2749,W,1,10,1.8,16,M,,M,,*6D
06/10/2015	12:07:48.556	$GPGGA,120749,2535.8147,N,08007.2749,W,1,10,1.9,16,M,,M,,*6B
06/10/2015	12:07:49.556	$GPGGA,120750,2535.8121,N,08007.2749,W,1,9,1.9,16,M,,M,,*5B
06/10/2015	12:07:50.556	$GPGGA,120751,2535.8096,N,08007.2748,W,1,9,1.9,16,M,,M,,*56
06/10/2015	12:07:51.587	$GPGGA,120752,2535.8070,N,08007.2749,W,1,9,1.9,16,M,,M,,*5C
06/10/2015	12:07:52.556	$GPGGA,120753,2535.8045,N,08007.2748,W,1,9,1.9,16,M,,M,,*5A
06/10/2015	12:07:53.566	$GPGGA,120754,2535.8020,N,08007.2749,W,1,9,1.9,16,M,,M,,*5F
06/10/2015	12:07:54.556	$GPGGA,120755,2535.7995,N,08007.2748,W,1,9,1.9,16,M,,M,,*57
06/10/2015	12:07:55.596	$GPGGA,120756,2535.7970,N,08007.2749,W,1,10,1.8,15,M,,M,,*64
06/10/2015	12:07:56.546	$GPGGA,120757,2535.7945,N,08007.2748,W,1,10,1.8,15,M,,M,,*62
06/10/2015	12:07:57.576	$GPGGA,120758,2535.7919,N,08007.2749,W,1,9,1.9,15,M,,M,,*5C
06/10/2015	12:07:58.536	$GPGGA,120759,2535.7894,N,08007.2749,W,1,9,1.9,15,M,,M,,*59
06/10/2015	12:07:59.576	$GPGGA,120800,2535.7868,N,08007.2749,W,1,9,1.9,15,M,,M,,*59
06/10/2015	12:08:00.536	$GPGGA,120801,2535.7843,N,08007.2750,W,1,9,1.9,15,M,,M,,*59
06/10/2015	12:08:01.526	$GPGGA,120802,2535.7818,N,08007.2751,W,1,9,1.9,15,M,,M,,*55
06/10/2015	12:08:02.548	$GPGGA,120803,2535.7794,N,08007.2751,W,1,9,1.8,15,M,,M,,*5E
06/10/2015	12:08:03.546	$GPGGA,120804,2535.7769,N,08007.2753,W,1,10,1.8,15,M,,M,,*61
06/10/2015	12:08:04.526	$GPGGA,120805,2535.7745,N,08007.2756,W,1,10,1.8,15,M,,M,,*6B
06/10/2015	12:08:05.556	$GPGGA,120806,2535.7720,N,08007.2755,W,1,10,1.8,15,M,,M,,*68
06/10/2015	12:08:06.526	$GPGGA,120807,2535.7697,N,08007.2757,W,1,10,1.8,15,M,,M,,*66
06/10/2015	12:08:07.536	$GPGGA,120808,2535.7672,N,08007.2760,W,1,10,1.8,15,M,,M,,*66
06/10/2015	12:08:08.527	$GPGGA,120809,2535.7646,N,08007.2761,W,1,10,1.9,15,M,,M,,*60
06/10/2015	12:08:09.527	$GPGGA,120810,2535.7621,N,08007.2764,W,1,9,1.9,15,M,,M,,*54
06/10/2015	12:08:10.626	$GPGGA,120811,2535.7596,N,08007.2765,W,1,9,1.8,15,M,,M,,*5A
06/10/2015	12:08:11.626	$GPGGA,120812,2535.7571,N,08007.2768,W,1,10,1.8,15,M,,M,,*65
06/10/2015	12:08:12.606	$GPGGA,120813,2535.7546,N,08007.2771,W,1,10,1.8,15,M,,M,,*68
06/10/2015	12:08:13.516	$GPGGA,120814,2535.7521,N,08007.2774,W,1,10,1.8,15,M,,M,,*6B
06/10/2015	12:08:14.596	$GPGGA,120815,2535.7496,N,08007.2776,W,1,10,1.8,15,M,,M,,*65
06/10/2015	12:08:15.656	$GPGGA,120816,2535.7471,N,08007.2779,W,1,9,1.9,15,M,,M,,*59
06/10/2015	12:08:16.516	$GPGGA,120817,2535.7446,N,08007.2782,W,1,9,1.9,15,M,,M,,*58
06/10/2015	12:08:17.496	$GPGGA,120818,2535.7421,N,08007.2785,W,1,9,1.9,15,M,,M,,*51
06/10/2015	12:08:18.586	$GPGGA,120819,2535.7397,N,08007.2789,W,1,9,1.9,15,M,,M,,*56
06/10/2015	12:08:19.526	$GPGGA,120820,2535.7372,N,08007.2792,W,1,9,1.9,16,M,,M,,*5E
06/10/2015	12:08:20.516	$GPGGA,120821,2535.7345,N,08007.2794,W,1,9,2.3,16,M,,M,,*54
06/10/2015	12:08:21.626	$GPGGA,120822,2535.7320,N,08007.2798,W,1,8,2.3,16,M,,M,,*59
06/10/2015	12:08:22.576	$GPGGA,120823,2535.7294,N,08007.2803,W,1,8,2.3,16,M,,M,,*5B
06/10/2015	12:08:23.636	$GPGGA,120824,2535.7271,N,08007.2807,W,1,8,2.3,16,M,,M,,*53
06/10/2015	12:08:24.576	$GPGGA,120825,2535.7245,N,08007.2811,W,1,8,1.9,16,M,,M,,*5B
06/10/2015	12:08:25.616	$GPGGA,120826,2535.7220,N,08007.2816,W,1,9,1.9,16,M,,M,,*5D
06/10/2015	12:08:26.577	$GPGGA,120827,2535.7195,N,08007.2821,W,1,9,1.9,16,M,,M,,*55
06/10/2015	12:08:27.616	$GPGGA,120828,2535.7170,N,08007.2825,W,1,9,1.9,16,M,,M,,*55
06/10/2015	12:08:28.576	$GPGGA,120829,2535.7146,N,08007.2830,W,1,9,1.9,16,M,,M,,*55
06/10/2015	12:08:29.606	$GPGGA,120830,2535.7121,N,08007.2836,W,1,9,1.9,16,M,,M,,*5A
06/10/2015	12:08:30.586	$GPGGA,120831,2535.7096,N,08007.2840,W,1,9,1.9,16,M,,M,,*57
06/10/2015	12:08:31.586	$GPGGA,120832,2535.7072,N,08007.2845,W,1,9,1.9,16,M,,M,,*5B
06/10/2015	12:08:32.576	$GPGGA,120833,2535.7047,N,08007.2851,W,1,9,1.9,16,M,,M,,*59
06/10/2015	12:08:33.566	$GPGGA,120834,2535.7022,N,08007.2855,W,1,9,1.9,16,M,,M,,*59
06/10/2015	12:08:34.566	$GPGGA,120835,2535.6997,N,08007.2861,W,1,9,1.9,16,M,,M,,*59
06/10/2015	12:08:35.596	$GPGGA,120836,2535.6973,N,08007.2865,W,1,9,1.9,16,M,,M,,*54
06/10/2015	12:08:36.556	$GPGGA,120837,2535.6949,N,08007.2872,W,1,9,2.2,16,M,,M,,*52
06/10/2015	12:08:37.576	$GPGGA,120838,2535.6924,N,08007.2876,W,1,9,1.9,16,M,,M,,*5A
06/10/2015	12:08:38.566	$GPGGA,120839,2535.6899,N,08007.2881,W,1,9,1.9,16,M,,M,,*54
06/10/2015	12:08:39.586	$GPGGA,120840,2535.6874,N,08007.2886,W,1,9,1.9,16,M,,M,,*5E
06/10/2015	12:08:40.576	$GPGGA,120841,2535.6849,N,08007.2890,W,1,9,1.9,16,M,,M,,*56
06/10/2015	12:08:41.536	$GPGGA,120842,2535.6824,N,08007.2894,W,1,9,1.9,16,M,,M,,*5A
06/10/2015	12:08:42.587	$GPGGA,120843,2535.6799,N,08007.2899,W,1,9,1.9,16,M,,M,,*5F
06/10/2015	12:08:43.548	$GPGGA,120844,2535.6774,N,08007.2904,W,1,9,1.9,16,M,,M,,*5E
06/10/2015	12:08:44.548	$GPGGA,120845,2535.6748,N,08007.2906,W,1,9,1.9,16,M,,M,,*52
06/10/2015	12:08:45.566	$GPGGA,120846,2535.6723,N,08007.2910,W,1,8,2.3,16,M,,M,,*53
06/10/2015	12:08:46.547	$GPGGA,120847,2535.6698,N,08007.2913,W,1,8,1.9,16,M,,M,,*59
06/10/2015	12:08:47.547	$GPGGA,120848,2535.6672,N,08007.2917,W,1,8,2.3,16,M,,M,,*5F
06/10/2015	12:08:48.536	$GPGGA,120849,2535.6647,N,08007.2920,W,1,8,2.3,16,M,,M,,*5C
06/10/2015	12:08:49.550	$GPGGA,120850,2535.6622,N,08007.2923,W,1,8,2.3,16,M,,M,,*54
06/10/2015	12:08:50.546	$GPGGA,120851,2535.6599,N,08007.2927,W,1,8,2.3,16,M,,M,,*52
06/10/2015	12:08:51.536	$GPGGA,120852,2535.6574,N,08007.2931,W,1,9,1.9,16,M,,M,,*5D
06/10/2015	12:08:52.526	$GPGGA,120853,2535.6550,N,08007.2934,W,1,9,1.9,16,M,,M,,*5F
06/10/2015	12:08:53.546	$GPGGA,120854,2535.6526,N,08007.2938,W,1,10,1.8,16,M,,M,,*6C
06/10/2015	12:08:54.526	$GPGGA,120855,2535.6501,N,08007.2942,W,1,10,1.8,16,M,,M,,*65
06/10/2015	12:08:55.566	$GPGGA,120856,2535.6476,N,08007.2945,W,1,10,1.8,16,M,,M,,*60
06/10/2015	12:08:56.536	$GPGGA,120857,2535.6451,N,08007.2948,W,1,10,1.8,16,M,,M,,*69
06/10/2015	12:08:57.516	$GPGGA,120858,2535.6426,N,08007.2949,W,1,10,1.8,17,M,,M,,*66
06/10/2015	12:08:58.516	$GPGGA,120859,2535.6401,N,08007.2952,W,1,10,1.8,17,M,,M,,*68
06/10/2015	12:08:59.566	$GPGGA,120900,2535.6375,N,08007.2953,W,1,10,1.8,17,M,,M,,*60
06/10/2015	12:09:00.646	$GPGGA,120901,2535.6350,N,08007.2955,W,1,10,1.8,17,M,,M,,*60
06/10/2015	12:09:01.687	$GPGGA,120902,2535.6325,N,08007.2956,W,1,10,1.9,17,M,,M,,*63
06/10/2015	12:09:02.496	$GPGGA,120903,2535.6300,N,08007.2959,W,1,10,1.9,17,M,,M,,*6A
06/10/2015	12:09:03.516	$GPGGA,120904,2535.6275,N,08007.2959,W,1,9,1.9,17,M,,M,,*56
06/10/2015	12:09:04.636	$GPGGA,120905,2535.6250,N,08007.2960,W,1,9,1.8,17,M,,M,,*5B
06/10/2015	12:09:05.496	$GPGGA,120906,2535.6224,N,08007.2962,W,1,10,1.8,17,M,,M,,*61
06/10/2015	12:09:06.606	$GPGGA,120907,2535.6200,N,08007.2963,W,1,10,1.8,17,M,,M,,*67
06/10/2015	12:09:07.526	$GPGGA,120908,2535.6176,N,08007.2966,W,1,9,1.9,18,M,,M,,*59
06/10/2015	12:09:08.626	$GPGGA,120909,2535.6151,N,08007.2966,W,1,9,1.9,18,M,,M,,*5D
06/10/2015	12:09:10.066	$GPGGA,120910,2535.6125,N,08007.2969,W,1,9,1.8,18,M,,M,,*58
06/10/2015	12:09:10.506	$GPGGA,120911,2535.6100,N,08007.2971,W,1,9,1.8,18,M,,M,,*57
06/10/2015	12:09:11.506	$GPGGA,120912,2535.6075,N,08007.2973,W,1,10,1.8,18,M,,M,,*6D
06/10/2015	12:09:12.586	$GPGGA,120913,2535.6050,N,08007.2975,W,1,10,1.9,18,M,,M,,*6C
06/10/2015	12:09:13.686	$GPGGA,120914,2535.6025,N,08007.2977,W,1,9,1.9,18,M,,M,,*53
06/10/2015	12:09:14.606	$GPGGA,120915,2535.5999,N,08007.2978,W,1,9,1.8,18,M,,M,,*51
06/10/2015	12:09:15.696	$GPGGA,120916,2535.5974,N,08007.2980,W,1,10,1.8,18,M,,M,,*6E
06/10/2015	12:09:16.576	$GPGGA,120917,2535.5949,N,08007.2982,W,1,10,1.8,18,M,,M,,*63
06/10/2015	12:09:17.676	$GPGGA,120918,2535.5923,N,08007.2984,W,1,10,1.8,18,M,,M,,*66
06/10/2015	12:09:18.617	$GPGGA,120919,2535.5898,N,08007.2988,W,1,10,1.9,18,M,,M,,*6B
06/10/2015	12:09:19.687	$GPGGA,120920,2535.5873,N,08007.2989,W,1,9,1.9,18,M,,M,,*5D
06/10/2015	12:09:20.586	$GPGGA,120921,2535.5848,N,08007.2991,W,1,9,1.8,18,M,,M,,*5C
06/10/2015	12:09:21.676	$GPGGA,120922,2535.5822,N,08007.2995,W,1,10,1.8,18,M,,M,,*6F
06/10/2015	12:09:22.616	$GPGGA,120923,2535.5797,N,08007.2998,W,1,10,1.9,18,M,,M,,*63
06/10/2015	12:09:23.676	$GPGGA,120924,2535.5771,N,08007.2999,W,1,9,1.9,18,M,,M,,*55
06/10/2015	12:09:24.556	$GPGGA,120925,2535.5746,N,08007.3002,W,1,9,1.9,18,M,,M,,*5A
06/10/2015	12:09:25.666	$GPGGA,120926,2535.5721,N,08007.3006,W,1,9,1.9,18,M,,M,,*5C
06/10/2015	12:09:26.607	$GPGGA,120927,2535.5695,N,08007.3009,W,1,9,2.3,18,M,,M,,*55
06/10/2015	12:09:27.676	$GPGGA,120928,2535.5672,N,08007.3013,W,1,8,2.3,18,M,,M,,*59
06/10/2015	12:09:28.549	$GPGGA,120929,2535.5646,N,08007.3016,W,1,8,1.9,17,M,,M,,*5C
06/10/2015	12:09:29.656	$GPGGA,120930,2535.5621,N,08007.3018,W,1,8,2.3,17,M,,M,,*52
06/10/2015	12:09:30.576	$GPGGA,120931,2535.5596,N,08007.3022,W,1,8,2.3,17,M,,M,,*55
06/10/2015	12:09:31.666	$GPGGA,120932,2535.5570,N,08007.3027,W,1,8,2.3,17,M,,M,,*5B
06/10/2015	12:09:32.546	$GPGGA,120933,2535.5545,N,08007.3029,W,1,8,1.9,17,M,,M,,*5B
06/10/2015	12:09:33.536	$GPGGA,120934,2535.5519,N,08007.3033,W,1,8,2.3,17,M,,M,,*57
06/10/2015	12:09:34.566	$GPGGA,120935,2535.5494,N,08007.3038,W,1,8,2.3,17,M,,M,,*59
06/10/2015	12:09:35.677	$GPGGA,120936,2535.5470,N,08007.3042,W,1,8,1.9,17,M,,M,,*54
06/10/2015	12:09:36.577	$GPGGA,120937,2535.5444,N,08007.3046,W,1,8,2.3,17,M,,M,,*5F
06/10/2015	12:09:37.646	$GPGGA,120938,2535.5421,N,08007.3050,W,1,8,2.3,17,M,,M,,*54
06/10/2015	12:09:38.526	$GPGGA,120939,2535.5397,N,08007.3056,W,1,8,1.9,17,M,,M,,*50
06/10/2015	12:09:39.636	$GPGGA,120940,2535.5374,N,08007.3060,W,1,9,1.9,17,M,,M,,*57
06/10/2015	12:09:40.576	$GPGGA,120941,2535.5349,N,08007.3064,W,1,9,1.9,17,M,,M,,*5C
06/10/2015	12:09:41.636	$GPGGA,120942,2535.5324,N,08007.3069,W,1,9,1.9,17,M,,M,,*59
06/10/2015	12:09:42.556	$GPGGA,120943,2535.5299,N,08007.3074,W,1,9,2.1,17,M,,M,,*58
06/10/2015	12:09:43.656	$GPGGA,120944,2535.5275,N,08007.3078,W,1,8,1.8,17,M,,M,,*5A
06/10/2015	12:09:44.546	$GPGGA,120945,2535.5251,N,08007.3082,W,1,8,1.8,17,M,,M,,*58
06/10/2015	12:09:45.636	$GPGGA,120946,2535.5226,N,08007.3085,W,1,8,1.8,17,M,,M,,*5C
06/10/2015	12:09:46.536	$GPGGA,120947,2535.5202,N,08007.3090,W,1,8,1.9,17,M,,M,,*5E
06/10/2015	12:09:47.676	$GPGGA,120948,2535.5177,N,08007.3094,W,1,9,1.9,18,M,,M,,*5A
06/10/2015	12:09:48.556	$GPGGA,120949,2535.5154,N,08007.3098,W,1,9,1.9,18,M,,M,,*56
06/10/2015	12:09:49.616	$GPGGA,120950,2535.5126,N,08007.3103,W,1,9,2.3,18,M,,M,,*51
06/10/2015	12:09:50.556	$GPGGA,120951,2535.5100,N,08007.3105,W,1,9,2.3,18,M,,M,,*52
06/10/2015	12:09:51.506	$GPGGA,120952,2535.5075,N,08007.3108,W,1,8,2.3,18,M,,M,,*5E
06/10/2015	12:09:52.546	$GPGGA,120953,2535.5051,N,08007.3114,W,1,8,1.9,18,M,,M,,*5D
06/10/2015	12:09:53.627	$GPGGA,120954,2535.5027,N,08007.3118,W,1,9,1.9,18,M,,M,,*56
06/10/2015	12:09:54.587	$GPGGA,120955,2535.5002,N,08007.3121,W,1,9,1.9,19,M,,M,,*5B
06/10/2015	12:09:55.636	$GPGGA,120956,2535.4977,N,08007.3123,W,1,9,1.9,19,M,,M,,*50
06/10/2015	12:09:56.596	$GPGGA,120957,2535.4952,N,08007.3128,W,1,9,1.9,19,M,,M,,*5D
06/10/2015	12:09:57.636	$GPGGA,120958,2535.4928,N,08007.3130,W,1,9,1.9,19,M,,M,,*56
06/10/2015	12:09:58.586	$GPGGA,120959,2535.4903,N,08007.3134,W,1,9,1.9,19,M,,M,,*5A
06/10/2015	12:09:59.596	$GPGGA,121000,2535.4879,N,08007.3137,W,1,9,1.9,19,M,,M,,*51
06/10/2015	12:10:00.586	$GPGGA,121001,2535.4854,N,08007.3140,W,1,9,1.8,19,M,,M,,*5E
06/10/2015	12:10:01.616	$GPGGA,121002,2535.4828,N,08007.3143,W,1,10,1.8,19,M,,M,,*6D
06/10/2015	12:10:02.577	$GPGGA,121003,2535.4803,N,08007.3145,W,1,10,1.8,19,M,,M,,*63
06/10/2015	12:10:03.636	$GPGGA,121004,2535.4778,N,08007.3147,W,1,10,1.8,19,M,,M,,*65
06/10/2015	12:10:04.566	$GPGGA,121005,2535.4753,N,08007.3150,W,1,10,1.8,19,M,,M,,*6B
06/10/2015	12:10:05.626	$GPGGA,121006,2535.4727,N,08007.3154,W,1,10,1.8,20,M,,M,,*65
06/10/2015	12:10:06.576	$GPGGA,121007,2535.4702,N,08007.3155,W,1,10,1.8,20,M,,M,,*62
06/10/2015	12:10:07.626	$GPGGA,121008,2535.4677,N,08007.3158,W,1,10,1.8,20,M,,M,,*63
06/10/2015	12:10:08.576	$GPGGA,121009,2535.4651,N,08007.3161,W,1,10,1.8,20,M,,M,,*6C
06/10/2015	12:10:09.666	$GPGGA,121010,2535.4626,N,08007.3163,W,1,10,1.8,20,M,,M,,*66
06/10/2015	12:10:10.586	$GPGGA,121011,2535.4601,N,08007.3165,W,1,10,1.8,20,M,,M,,*64
06/10/2015	12:10:11.687	$GPGGA,121012,2535.4574,N,08007.3168,W,1,10,1.8,20,M,,M,,*6B
06/10/2015	12:10:12.556	$GPGGA,121013,2535.4549,N,08007.3169,W,1,10,1.8,20,M,,M,,*65
06/10/2015	12:10:13.596	$GPGGA,121014,2535.4549,N,08007.3169,W,1,10,1.8,20,M,,M,,*62
06/10/2015	12:10:14.566	$GPGGA,121015,2535.4497,N,08007.3173,W,1,10,1.9,20,M,,M,,*6B
06/10/2015	12:10:15.646	$GPGGA,121016,2535.4473,N,08007.3176,W,1,9,1.8,20,M,,M,,*5E
06/10/2015	12:10:16.556	$GPGGA,121017,2535.4449,N,08007.3179,W,1,9,1.8,20,M,,M,,*59
06/10/2015	12:10:17.586	$GPGGA,121018,2535.4424,N,08007.3180,W,1,10,1.9,20,M,,M,,*62
06/10/2015	12:10:18.566	$GPGGA,121019,2535.4398,N,08007.3183,W,1,10,1.8,20,M,,M,,*61
06/10/2015	12:10:19.606	$GPGGA,121020,2535.4372,N,08007.3184,W,1,10,1.9,20,M,,M,,*69
06/10/2015	12:10:20.556	$GPGGA,121021,2535.4348,N,08007.3186,W,1,10,1.8,20,M,,M,,*62
06/10/2015	12:10:21.576	$GPGGA,121022,2535.4321,N,08007.3188,W,1,10,1.9,20,M,,M,,*61
06/10/2015	12:10:22.546	$GPGGA,121023,2535.4296,N,08007.3190,W,1,10,1.8,20,M,,M,,*65
06/10/2015	12:10:23.616	$GPGGA,121024,2535.4270,N,08007.3193,W,1,10,1.9,20,M,,M,,*68
06/10/2015	12:10:24.566	$GPGGA,121025,2535.4245,N,08007.3195,W,1,10,1.9,19,M,,M,,*63
06/10/2015	12:10:25.606	$GPGGA,121026,2535.4220,N,08007.3197,W,1,9,1.8,19,M,,M,,*58
06/10/2015	12:10:26.536	$GPGGA,121027,2535.4195,N,08007.3201,W,1,9,1.8,19,M,,M,,*58
06/10/2015	12:10:27.556	$GPGGA,121028,2535.4195,N,08007.3201,W,1,10,1.8,19,M,,M,,*6F
06/10/2015	12:10:28.557	$GPGGA,121029,2535.4171,N,08007.3202,W,1,10,1.8,19,M,,M,,*67
06/10/2015	12:10:29.587	$GPGGA,121030,2535.4121,N,08007.3208,W,1,10,1.8,19,M,,M,,*60
06/10/2015	12:10:30.556	$GPGGA,121031,2535.4096,N,08007.3212,W,1,10,1.8,19,M,,M,,*67
06/10/2015	12:10:31.606	$GPGGA,121032,2535.4071,N,08007.3213,W,1,10,1.8,19,M,,M,,*6C
06/10/2015	12:10:32.556	$GPGGA,121033,2535.4046,N,08007.3216,W,1,10,1.8,19,M,,M,,*6C
06/10/2015	12:10:33.586	$GPGGA,121034,2535.4021,N,08007.3220,W,1,10,1.9,19,M,,M,,*6E
06/10/2015	12:10:34.636	$GPGGA,121035,2535.3996,N,08007.3223,W,1,10,1.9,19,M,,M,,*6E
06/10/2015	12:10:35.576	$GPGGA,121036,2535.3996,N,08007.3223,W,1,9,1.9,19,M,,M,,*55
06/10/2015	12:10:36.506	$GPGGA,121037,2535.3947,N,08007.3230,W,1,9,1.9,19,M,,M,,*5A
06/10/2015	12:10:37.646	$GPGGA,121038,2535.3947,N,08007.3230,W,1,9,1.9,19,M,,M,,*55
06/10/2015	12:10:38.596	$GPGGA,121039,2535.3896,N,08007.3237,W,1,9,1.8,19,M,,M,,*5F
06/10/2015	12:10:39.596	$GPGGA,121040,2535.3896,N,08007.3237,W,1,9,1.9,19,M,,M,,*50
06/10/2015	12:10:40.596	$GPGGA,121041,2535.3846,N,08007.3246,W,1,9,1.9,19,M,,M,,*5A
06/10/2015	12:10:41.636	$GPGGA,121042,2535.3821,N,08007.3251,W,1,9,1.9,19,M,,M,,*5E
06/10/2015	12:10:42.506	$GPGGA,121043,2535.3795,N,08007.3255,W,1,9,2.3,19,M,,M,,*52
06/10/2015	12:10:43.606	$GPGGA,121044,2535.3770,N,08007.3259,W,1,8,2.3,19,M,,M,,*53
06/10/2015	12:10:44.506	$GPGGA,121045,2535.3745,N,08007.3262,W,1,8,1.9,19,M,,M,,*55
06/10/2015	12:10:45.586	$GPGGA,121046,2535.3719,N,08007.3267,W,1,9,1.9,19,M,,M,,*5B
06/10/2015	12:10:46.497	$GPGGA,121047,2535.3694,N,08007.3270,W,1,9,1.8,18,M,,M,,*58
06/10/2015	12:10:47.626	$GPGGA,121048,2535.3669,N,08007.3275,W,1,9,1.8,18,M,,M,,*50
06/10/2015	12:10:48.586	$GPGGA,121049,2535.3643,N,08007.3280,W,1,9,1.8,18,M,,M,,*53
06/10/2015	12:10:49.616	$GPGGA,121050,2535.3618,N,08007.3284,W,1,8,2.3,18,M,,M,,*58
06/10/2015	12:10:50.586	$GPGGA,121051,2535.3593,N,08007.3288,W,1,8,2.3,18,M,,M,,*55
06/10/2015	12:10:51.627	$GPGGA,121052,2535.3568,N,08007.3292,W,1,9,1.8,18,M,,M,,*50
06/10/2015	12:10:52.586	$GPGGA,121053,2535.3543,N,08007.3296,W,1,9,1.8,18,M,,M,,*5C
06/10/2015	12:10:53.576	$GPGGA,121054,2535.3518,N,08007.3302,W,1,8,2.3,18,M,,M,,*50
06/10/2015	12:10:54.576	$GPGGA,121055,2535.3492,N,08007.3305,W,1,8,2.3,18,M,,M,,*55
06/10/2015	12:10:55.626	$GPGGA,121056,2535.3467,N,08007.3309,W,1,8,2.3,17,M,,M,,*5F
06/10/2015	12:10:56.556	$GPGGA,121057,2535.3442,N,08007.3313,W,1,8,1.8,17,M,,M,,*5A
06/10/2015	12:10:57.546	$GPGGA,121058,2535.3417,N,08007.3317,W,1,8,2.3,17,M,,M,,*59
06/10/2015	12:10:58.556	$GPGGA,121059,2535.3392,N,08007.3321,W,1,8,2.3,17,M,,M,,*57
06/10/2015	12:10:59.586	$GPGGA,121100,2535.3367,N,08007.3327,W,1,8,2.3,17,M,,M,,*56
06/10/2015	12:11:00.556	$GPGGA,121101,2535.3344,N,08007.3331,W,1,8,1.8,17,M,,M,,*59
06/10/2015	12:11:01.566	$GPGGA,121102,2535.3318,N,08007.3334,W,1,8,2.3,17,M,,M,,*5E
06/10/2015	12:11:02.546	$GPGGA,121103,2535.3293,N,08007.3338,W,1,8,2.3,17,M,,M,,*51
06/10/2015	12:11:03.586	$GPGGA,121104,2535.3268,N,08007.3342,W,1,8,2.3,17,M,,M,,*5F
06/10/2015	12:11:04.546	$GPGGA,121105,2535.3242,N,08007.3345,W,1,8,2.3,16,M,,M,,*50
06/10/2015	12:11:05.565	$GPGGA,121106,2535.3242,N,08007.3345,W,1,8,2.3,16,M,,M,,*53
06/10/2015	12:11:06.546	$GPGGA,121107,2535.3193,N,08007.3353,W,1,8,1.9,16,M,,M,,*53
06/10/2015	12:11:07.545	$GPGGA,121108,2535.3168,N,08007.3356,W,1,8,2.3,16,M,,M,,*54
06/10/2015	12:11:08.535	$GPGGA,121109,2535.3142,N,08007.3360,W,1,8,1.9,16,M,,M,,*51
06/10/2015	12:11:09.540	$GPGGA,121110,2535.3116,N,08007.3361,W,1,9,1.9,16,M,,M,,*58
06/10/2015	12:11:10.515	$GPGGA,121111,2535.3091,N,08007.3367,W,1,9,1.7,16,M,,M,,*5F
06/10/2015	12:11:11.565	$GPGGA,121112,2535.3066,N,08007.3370,W,1,10,1.7,16,M,,M,,*6A
06/10/2015	12:11:12.516	$GPGGA,121113,2535.3042,N,08007.3374,W,1,10,1.7,16,M,,M,,*69
06/10/2015	12:11:13.556	$GPGGA,121114,2535.3017,N,08007.3378,W,1,10,1.7,16,M,,M,,*62
06/10/2015	12:11:14.526	$GPGGA,121115,2535.2992,N,08007.3382,W,1,10,1.7,16,M,,M,,*63
06/10/2015	12:11:15.566	$GPGGA,121116,2535.2968,N,08007.3383,W,1,10,1.7,16,M,,M,,*64
06/10/2015	12:11:16.506	$GPGGA,121117,2535.2943,N,08007.3386,W,1,10,1.8,16,M,,M,,*66
06/10/2015	12:11:17.546	$GPGGA,121118,2535.2917,N,08007.3389,W,1,10,1.7,16,M,,M,,*68
06/10/2015	12:11:18.516	$GPGGA,121119,2535.2892,N,08007.3388,W,1,10,1.9,16,M,,M,,*6A
06/10/2015	12:11:19.526	$GPGGA,121120,2535.2867,N,08007.3389,W,1,9,1.9,16,M,,M,,*53
06/10/2015	12:11:20.526	$GPGGA,121121,2535.2842,N,08007.3390,W,1,9,2.3,16,M,,M,,*54
06/10/2015	12:11:21.626	$GPGGA,121122,2535.2818,N,08007.3392,W,1,10,1.7,16,M,,M,,*65
06/10/2015	12:11:22.515	$GPGGA,121123,2535.2793,N,08007.3393,W,1,10,1.9,16,M,,M,,*67
06/10/2015	12:11:23.545	$GPGGA,121124,2535.2768,N,08007.3396,W,1,10,1.7,16,M,,M,,*6F
06/10/2015	12:11:24.595	$GPGGA,121125,2535.2744,N,08007.3396,W,1,10,1.7,16,M,,M,,*60
06/10/2015	12:11:25.495	$GPGGA,121126,2535.2717,N,08007.3399,W,1,9,1.8,16,M,,M,,*5D
06/10/2015	12:11:26.585	$GPGGA,121127,2535.2691,N,08007.3400,W,1,9,1.8,16,M,,M,,*54
06/10/2015	12:11:27.505	$GPGGA,121128,2535.2666,N,08007.3401,W,1,9,1.8,16,M,,M,,*52
06/10/2015	12:11:28.595	$GPGGA,121129,2535.2640,N,08007.3403,W,1,9,2.3,16,M,,M,,*5D
06/10/2015	12:11:29.585	$GPGGA,121130,2535.2614,N,08007.3404,W,1,10,1.7,16,M,,M,,*6C
06/10/2015	12:11:30.515	$GPGGA,121131,2535.2589,N,08007.3405,W,1,10,1.7,16,M,,M,,*6B
06/10/2015	12:11:31.506	$GPGGA,121132,2535.2563,N,08007.3407,W,1,9,1.8,16,M,,M,,*59
06/10/2015	12:11:32.576	$GPGGA,121133,2535.2538,N,08007.3410,W,1,9,1.7,16,M,,M,,*5F
06/10/2015	12:11:33.586	$GPGGA,121134,2535.2513,N,08007.3412,W,1,9,1.9,16,M,,M,,*5D
06/10/2015	12:11:34.576	$GPGGA,121135,2535.2486,N,08007.3414,W,1,9,1.8,16,M,,M,,*56
06/10/2015	12:11:35.606	$GPGGA,121136,2535.2460,N,08007.3414,W,1,10,1.7,16,M,,M,,*6A
06/10/2015	12:11:36.576	$GPGGA,121137,2535.2437,N,08007.3418,W,1,10,1.7,16,M,,M,,*65
06/10/2015	12:11:37.586	$GPGGA,121138,2535.2411,N,08007.3419,W,1,10,1.7,16,M,,M,,*6F
06/10/2015	12:11:38.566	$GPGGA,121139,2535.2386,N,08007.3421,W,1,10,1.9,16,M,,M,,*62
06/10/2015	12:11:39.605	$GPGGA,121140,2535.2361,N,08007.3425,W,1,10,1.7,16,M,,M,,*6F
06/10/2015	12:11:40.555	$GPGGA,121141,2535.2336,N,08007.3428,W,1,10,1.7,16,M,,M,,*61
06/10/2015	12:11:41.575	$GPGGA,121142,2535.2312,N,08007.3430,W,1,10,1.7,16,M,,M,,*6D
06/10/2015	12:11:42.565	$GPGGA,121143,2535.2287,N,08007.3433,W,1,10,1.7,16,M,,M,,*62
06/10/2015	12:11:43.595	$GPGGA,121144,2535.2262,N,08007.3437,W,1,10,1.7,17,M,,M,,*6B
