Software Version Number: 1	Data File Format Number: 1	Build Version Number: 1	Error Count Since VI Started: 2	Manufacturer: Raytheon	 Model Number: RayMarine 120	 S/N: 	 Cal Date: 	 Wind Direction Offset: 0.00	 Slope (M)1: 0.00	 Offset (B)1: 0.00	 Slope (M)2: 0.00	 Offset (B)2: 0.00	 Slope (M)3: 0.00	 Offset (B)3: 0.00	 Slope (M)4: 0.00	 Offset (B)4: 0.00	 Slope (M)5: 0.00	 Offset (B)5: 0.00	 Slope (M)6: 0.00	 Offset (B)6: 0.00
Computer Date	Computer Time	GGA String
06/20/2015	22:00:01.697	$GPGGA,220002,2457.5594,N,08019.4987,W,1,7,1.8,19,M,,M,,*5F
06/20/2015	22:00:02.581	$GPGGA,220003,2457.5592,N,08019.4989,W,1,7,1.9,19,M,,M,,*57
06/20/2015	22:00:03.631	$GPGGA,220004,2457.5591,N,08019.4990,W,1,7,1.9,19,M,,M,,*5B
06/20/2015	22:00:04.531	$GPGGA,220005,2457.5591,N,08019.4993,W,1,7,1.9,19,M,,M,,*59
06/20/2015	22:00:05.571	$GPGGA,220006,2457.5591,N,08019.4994,W,1,7,1.9,19,M,,M,,*5D
06/20/2015	22:00:06.482	$GPGGA,220007,2457.5589,N,08019.4996,W,1,7,1.9,19,M,,M,,*57
06/20/2015	22:00:07.641	$GPGGA,220008,2457.5588,N,08019.4997,W,1,7,1.9,19,M,,M,,*58
06/20/2015	22:00:08.570	$GPGGA,220009,2457.5589,N,08019.5000,W,1,7,1.9,19,M,,M,,*5E
06/20/2015	22:00:09.610	$GPGGA,220010,2457.5587,N,08019.5001,W,1,7,1.9,19,M,,M,,*59
06/20/2015	22:00:10.570	$GPGGA,220011,2457.5589,N,08019.5004,W,1,7,1.8,19,M,,M,,*52
06/20/2015	22:00:11.630	$GPGGA,220012,2457.5587,N,08019.5007,W,1,8,1.9,19,M,,M,,*52
06/20/2015	22:00:12.570	$GPGGA,220013,2457.5587,N,08019.5007,W,1,8,1.9,19,M,,M,,*53
06/20/2015	22:00:13.600	$GPGGA,220014,2457.5587,N,08019.5008,W,1,7,1.9,19,M,,M,,*54
06/20/2015	22:00:14.550	$GPGGA,220015,2457.5585,N,08019.5011,W,1,7,1.9,19,M,,M,,*5F
06/20/2015	22:00:15.630	$GPGGA,220016,2457.5584,N,08019.5011,W,1,7,1.9,19,M,,M,,*5D
06/20/2015	22:00:16.550	$GPGGA,220017,2457.5583,N,08019.5011,W,1,7,1.9,18,M,,M,,*5A
06/20/2015	22:00:17.596	$GPGGA,220018,2457.5582,N,08019.5012,W,1,7,1.9,18,M,,M,,*57
06/20/2015	22:00:18.550	$GPGGA,220019,2457.5581,N,08019.5014,W,1,7,1.9,18,M,,M,,*53
06/20/2015	22:00:19.571	$GPGGA,220020,2457.5580,N,08019.5015,W,1,7,2.4,18,M,,M,,*57
06/20/2015	22:00:20.551	$GPGGA,220021,2457.5580,N,08019.5016,W,1,7,2.4,18,M,,M,,*55
06/20/2015	22:00:21.585	$GPGGA,220022,2457.5580,N,08019.5018,W,1,6,1.9,18,M,,M,,*57
06/20/2015	22:00:22.562	$GPGGA,220023,2457.5575,N,08019.5019,W,1,6,1.9,18,M,,M,,*5D
06/20/2015	22:00:23.651	$GPGGA,220024,2457.5573,N,08019.5020,W,1,7,1.9,18,M,,M,,*57
06/20/2015	22:00:24.551	$GPGGA,220025,2457.5571,N,08019.5022,W,1,7,1.9,18,M,,M,,*56
06/20/2015	22:00:25.570	$GPGGA,220026,2457.5569,N,08019.5023,W,1,7,1.8,18,M,,M,,*5C
06/20/2015	22:00:26.550	$GPGGA,220027,2457.5569,N,08019.5025,W,1,7,1.9,18,M,,M,,*5A
06/20/2015	22:00:27.584	$GPGGA,220028,2457.5569,N,08019.5027,W,1,7,1.8,18,M,,M,,*56
06/20/2015	22:00:28.540	$GPGGA,220029,2457.5569,N,08019.5030,W,1,7,1.8,18,M,,M,,*51
06/20/2015	22:00:29.594	$GPGGA,220030,2457.5567,N,08019.5030,W,1,8,1.9,19,M,,M,,*58
06/20/2015	22:00:30.530	$GPGGA,220031,2457.5566,N,08019.5033,W,1,8,1.8,19,M,,M,,*5A
06/20/2015	22:00:31.570	$GPGGA,220032,2457.5569,N,08019.5036,W,1,8,1.8,19,M,,M,,*53
06/20/2015	22:00:32.530	$GPGGA,220033,2457.5567,N,08019.5038,W,1,8,1.8,19,M,,M,,*52
06/20/2015	22:00:33.560	$GPGGA,220034,2457.5566,N,08019.5038,W,1,7,1.9,19,M,,M,,*5A
06/20/2015	22:00:34.520	$GPGGA,220035,2457.5566,N,08019.5040,W,1,7,1.8,19,M,,M,,*55
06/20/2015	22:00:35.610	$GPGGA,220036,2457.5566,N,08019.5040,W,1,8,1.8,19,M,,M,,*59
06/20/2015	22:00:36.511	$GPGGA,220037,2457.5566,N,08019.5043,W,1,8,1.8,19,M,,M,,*5B
06/20/2015	22:00:37.561	$GPGGA,220038,2457.5563,N,08019.5042,W,1,8,1.9,19,M,,M,,*51
06/20/2015	22:00:38.621	$GPGGA,220039,2457.5564,N,08019.5044,W,1,8,1.9,19,M,,M,,*51
06/20/2015	22:00:39.541	$GPGGA,220040,2457.5564,N,08019.5044,W,1,8,1.8,19,M,,M,,*5E
06/20/2015	22:00:40.601	$GPGGA,220041,2457.5559,N,08019.5044,W,1,8,1.8,19,M,,M,,*51
06/20/2015	22:00:41.611	$GPGGA,220042,2457.5559,N,08019.5044,W,1,8,1.8,19,M,,M,,*52
06/20/2015	22:00:42.521	$GPGGA,220043,2457.5558,N,08019.5047,W,1,8,1.8,19,M,,M,,*51
06/20/2015	22:00:43.540	$GPGGA,220044,2457.5557,N,08019.5048,W,1,7,1.9,19,M,,M,,*58
06/20/2015	22:00:44.510	$GPGGA,220045,2457.5556,N,08019.5048,W,1,7,1.9,19,M,,M,,*58
06/20/2015	22:00:45.490	$GPGGA,220046,2457.5556,N,08019.5048,W,1,8,1.8,19,M,,M,,*55
06/20/2015	22:00:46.500	$GPGGA,220047,2457.5556,N,08019.5052,W,1,8,1.8,19,M,,M,,*5F
06/20/2015	22:00:47.530	$GPGGA,220048,2457.5555,N,08019.5051,W,1,8,1.8,19,M,,M,,*50
06/20/2015	22:00:48.500	$GPGGA,220049,2457.5555,N,08019.5051,W,1,8,1.8,19,M,,M,,*51
06/20/2015	22:00:49.590	$GPGGA,220050,2457.5554,N,08019.5054,W,1,8,1.8,19,M,,M,,*5D
06/20/2015	22:00:50.500	$GPGGA,220051,2457.5553,N,08019.5054,W,1,8,1.8,19,M,,M,,*5B
06/20/2015	22:00:51.530	$GPGGA,220052,2457.5553,N,08019.5054,W,1,8,1.8,18,M,,M,,*59
06/20/2015	22:00:52.591	$GPGGA,220053,2457.5553,N,08019.5055,W,1,8,1.8,18,M,,M,,*59
06/20/2015	22:00:53.584	$GPGGA,220054,2457.5551,N,08019.5055,W,1,8,1.8,18,M,,M,,*5C
06/20/2015	22:00:54.492	$GPGGA,220055,2457.5551,N,08019.5055,W,1,8,1.8,18,M,,M,,*5D
06/20/2015	22:00:55.501	$GPGGA,220056,2457.5551,N,08019.5055,W,1,8,1.8,18,M,,M,,*5E
06/20/2015	22:00:56.571	$GPGGA,220057,2457.5548,N,08019.5055,W,1,8,1.8,18,M,,M,,*57
06/20/2015	22:00:57.571	$GPGGA,220058,2457.5547,N,08019.5056,W,1,8,1.8,18,M,,M,,*54
06/20/2015	22:00:58.571	$GPGGA,220059,2457.5546,N,08019.5058,W,1,8,1.8,18,M,,M,,*5A
06/20/2015	22:00:59.611	$GPGGA,220100,2457.5545,N,08019.5056,W,1,8,1.8,18,M,,M,,*5A
06/20/2015	22:01:00.560	$GPGGA,220101,2457.5544,N,08019.5056,W,1,8,1.8,18,M,,M,,*5A
06/20/2015	22:01:01.570	$GPGGA,220102,2457.5544,N,08019.5058,W,1,8,1.8,18,M,,M,,*57
06/20/2015	22:01:02.570	$GPGGA,220103,2457.5542,N,08019.5058,W,1,8,1.8,17,M,,M,,*5F
06/20/2015	22:01:03.610	$GPGGA,220104,2457.5541,N,08019.5058,W,1,8,1.8,17,M,,M,,*5B
06/20/2015	22:01:04.560	$GPGGA,220105,2457.5543,N,08019.5059,W,1,8,1.8,17,M,,M,,*59
06/20/2015	22:01:05.580	$GPGGA,220106,2457.5540,N,08019.5061,W,1,7,1.9,17,M,,M,,*5C
06/20/2015	22:01:06.560	$GPGGA,220107,2457.5537,N,08019.5059,W,1,7,1.8,17,M,,M,,*57
06/20/2015	22:01:07.583	$GPGGA,220108,2457.5539,N,08019.5061,W,1,8,1.8,17,M,,M,,*52
06/20/2015	22:01:08.540	$GPGGA,220109,2457.5540,N,08019.5063,W,1,8,1.8,17,M,,M,,*5F
06/20/2015	22:01:09.570	$GPGGA,220110,2457.5540,N,08019.5063,W,1,8,1.8,17,M,,M,,*57
06/20/2015	22:01:10.550	$GPGGA,220111,2457.5538,N,08019.5062,W,1,8,1.8,17,M,,M,,*58
06/20/2015	22:01:11.594	$GPGGA,220112,2457.5540,N,08019.5065,W,1,8,1.8,17,M,,M,,*53
06/20/2015	22:01:12.541	$GPGGA,220113,2457.5540,N,08019.5066,W,1,8,1.8,17,M,,M,,*51
06/20/2015	22:01:13.561	$GPGGA,220114,2457.5540,N,08019.5065,W,1,8,1.8,17,M,,M,,*55
06/20/2015	22:01:14.541	$GPGGA,220115,2457.5540,N,08019.5064,W,1,8,1.8,17,M,,M,,*55
06/20/2015	22:01:15.571	$GPGGA,220116,2457.5540,N,08019.5068,W,1,8,1.8,17,M,,M,,*5A
06/20/2015	22:01:16.531	$GPGGA,220117,2457.5542,N,08019.5069,W,1,8,1.8,17,M,,M,,*58
06/20/2015	22:01:17.531	$GPGGA,220118,2457.5540,N,08019.5065,W,1,8,1.8,16,M,,M,,*58
06/20/2015	22:01:18.530	$GPGGA,220119,2457.5537,N,08019.5065,W,1,8,1.9,16,M,,M,,*58
06/20/2015	22:01:19.550	$GPGGA,220120,2457.5537,N,08019.5068,W,1,8,1.8,16,M,,M,,*5E
06/20/2015	22:01:20.530	$GPGGA,220121,2457.5537,N,08019.5066,W,1,8,1.8,16,M,,M,,*51
06/20/2015	22:01:21.560	$GPGGA,220122,2457.5535,N,08019.5066,W,1,8,1.8,16,M,,M,,*50
06/20/2015	22:01:22.520	$GPGGA,220123,2457.5536,N,08019.5068,W,1,8,1.9,16,M,,M,,*5D
06/20/2015	22:01:23.570	$GPGGA,220124,2457.5536,N,08019.5069,W,1,8,1.8,16,M,,M,,*5A
06/20/2015	22:01:24.520	$GPGGA,220125,2457.5536,N,08019.5068,W,1,8,1.8,16,M,,M,,*5A
06/20/2015	22:01:25.510	$GPGGA,220126,2457.5536,N,08019.5069,W,1,8,1.8,16,M,,M,,*58
06/20/2015	22:01:26.620	$GPGGA,220127,2457.5537,N,08019.5070,W,1,8,1.8,16,M,,M,,*50
06/20/2015	22:01:27.540	$GPGGA,220128,2457.5536,N,08019.5069,W,1,8,1.8,16,M,,M,,*56
06/20/2015	22:01:28.520	$GPGGA,220129,2457.5535,N,08019.5069,W,1,8,1.8,16,M,,M,,*54
06/20/2015	22:01:29.531	$GPGGA,220130,2457.5536,N,08019.5070,W,1,8,1.8,16,M,,M,,*57
06/20/2015	22:01:30.511	$GPGGA,220131,2457.5534,N,08019.5069,W,1,8,1.8,16,M,,M,,*5C
06/20/2015	22:01:31.531	$GPGGA,220132,2457.5533,N,08019.5069,W,1,7,1.9,16,M,,M,,*56
06/20/2015	22:01:32.761	$GPGGA,220133,2457.5531,N,08019.5067,W,1,7,1.8,16,M,,M,,*5A
06/20/2015	22:01:33.521	$GPGGA,220134,2457.5530,N,08019.5066,W,1,8,1.8,16,M,,M,,*52
06/20/2015	22:01:34.501	$GPGGA,220135,2457.5531,N,08019.5068,W,1,8,1.8,16,M,,M,,*5C
06/20/2015	22:01:35.630	$GPGGA,220136,2457.5532,N,08019.5067,W,1,8,1.8,16,M,,M,,*53
06/20/2015	22:01:36.502	$GPGGA,220137,2457.5530,N,08019.5066,W,1,8,1.8,15,M,,M,,*52
06/20/2015	22:01:37.590	$GPGGA,220138,2457.5531,N,08019.5065,W,1,8,1.8,15,M,,M,,*5F
06/20/2015	22:01:38.500	$GPGGA,220139,2457.5527,N,08019.5068,W,1,8,2.4,15,M,,M,,*5B
06/20/2015	22:01:39.590	$GPGGA,220140,2457.5526,N,08019.5067,W,1,8,1.8,15,M,,M,,*54
06/20/2015	22:01:40.495	$GPGGA,220141,2457.5523,N,08019.5066,W,1,8,1.8,15,M,,M,,*51
06/20/2015	22:01:41.600	$GPGGA,220142,2457.5522,N,08019.5066,W,1,7,1.9,15,M,,M,,*5D
06/20/2015	22:01:42.493	$GPGGA,220143,2457.5520,N,08019.5068,W,1,7,1.9,15,M,,M,,*50
06/20/2015	22:01:43.499	$GPGGA,220144,2457.5519,N,08019.5066,W,1,8,1.8,16,M,,M,,*5E
06/20/2015	22:01:44.582	$GPGGA,220145,2457.5518,N,08019.5065,W,1,8,1.9,16,M,,M,,*5C
06/20/2015	22:01:45.570	$GPGGA,220146,2457.5518,N,08019.5064,W,1,7,1.9,16,M,,M,,*51
06/20/2015	22:01:46.571	$GPGGA,220147,2457.5517,N,08019.5065,W,1,7,1.9,16,M,,M,,*5E
06/20/2015	22:01:47.585	$GPGGA,220148,2457.5518,N,08019.5065,W,1,7,1.9,16,M,,M,,*5E
06/20/2015	22:01:48.561	$GPGGA,220149,2457.5517,N,08019.5064,W,1,7,1.9,16,M,,M,,*51
06/20/2015	22:01:49.561	$GPGGA,220150,2457.5516,N,08019.5063,W,1,7,1.9,17,M,,M,,*5E
06/20/2015	22:01:50.561	$GPGGA,220151,2457.5517,N,08019.5065,W,1,7,1.9,17,M,,M,,*58
06/20/2015	22:01:51.591	$GPGGA,220152,2457.5518,N,08019.5064,W,1,7,1.9,17,M,,M,,*55
06/20/2015	22:01:52.561	$GPGGA,220153,2457.5518,N,08019.5062,W,1,7,1.9,17,M,,M,,*52
06/20/2015	22:01:53.560	$GPGGA,220154,2457.5518,N,08019.5062,W,1,6,2.4,17,M,,M,,*5A
06/20/2015	22:01:54.560	$GPGGA,220155,2457.5518,N,08019.5062,W,1,6,1.9,17,M,,M,,*55
06/20/2015	22:01:55.560	$GPGGA,220156,2457.5517,N,08019.5061,W,1,7,1.9,17,M,,M,,*5B
06/20/2015	22:01:56.540	$GPGGA,220157,2457.5518,N,08019.5060,W,1,7,1.9,17,M,,M,,*54
06/20/2015	22:01:57.570	$GPGGA,220158,2457.5517,N,08019.5061,W,1,6,2.4,17,M,,M,,*5A
06/20/2015	22:01:58.550	$GPGGA,220159,2457.5513,N,08019.5057,W,1,6,1.9,17,M,,M,,*54
06/20/2015	22:01:59.598	$GPGGA,220200,2457.5510,N,08019.5058,W,1,8,1.8,17,M,,M,,*58
06/20/2015	22:02:00.530	$GPGGA,220201,2457.5511,N,08019.5056,W,1,8,1.9,17,M,,M,,*57
06/20/2015	22:02:01.560	$GPGGA,220202,2457.5511,N,08019.5056,W,1,7,1.9,18,M,,M,,*54
06/20/2015	22:02:02.541	$GPGGA,220203,2457.5511,N,08019.5055,W,1,7,1.9,18,M,,M,,*56
06/20/2015	22:02:03.540	$GPGGA,220204,2457.5511,N,08019.5055,W,1,7,1.9,18,M,,M,,*51
06/20/2015	22:02:04.541	$GPGGA,220205,2457.5513,N,08019.5055,W,1,7,1.8,18,M,,M,,*53
06/20/2015	22:02:05.531	$GPGGA,220206,2457.5511,N,08019.5054,W,1,7,2.4,18,M,,M,,*5C
06/20/2015	22:02:06.531	$GPGGA,220207,2457.5510,N,08019.5053,W,1,7,1.9,18,M,,M,,*55
06/20/2015	22:02:07.561	$GPGGA,220208,2457.5511,N,08019.5052,W,1,8,1.8,18,M,,M,,*54
06/20/2015	22:02:08.541	$GPGGA,220209,2457.5509,N,08019.5052,W,1,8,1.8,18,M,,M,,*5C
06/20/2015	22:02:09.551	$GPGGA,220210,2457.5510,N,08019.5051,W,1,8,1.8,18,M,,M,,*5F
06/20/2015	22:02:10.530	$GPGGA,220211,2457.5508,N,08019.5049,W,1,8,1.8,18,M,,M,,*5E
06/20/2015	22:02:11.550	$GPGGA,220212,2457.5508,N,08019.5048,W,1,8,1.8,18,M,,M,,*5C
06/20/2015	22:02:12.520	$GPGGA,220213,2457.5506,N,08019.5047,W,1,8,1.8,18,M,,M,,*5C
06/20/2015	22:02:13.550	$GPGGA,220214,2457.5508,N,08019.5047,W,1,8,1.8,18,M,,M,,*55
06/20/2015	22:02:14.520	$GPGGA,220215,2457.5508,N,08019.5045,W,1,8,2.4,18,M,,M,,*59
06/20/2015	22:02:15.540	$GPGGA,220216,2457.5508,N,08019.5043,W,1,7,2.4,18,M,,M,,*53
06/20/2015	22:02:16.500	$GPGGA,220217,2457.5506,N,08019.5041,W,1,7,1.5,18,M,,M,,*5C
06/20/2015	22:02:17.507	$GPGGA,220218,2457.5505,N,08019.5041,W,1,7,1.7,17,M,,M,,*5D
06/20/2015	22:02:18.602	$GPGGA,220219,2457.5504,N,08019.5039,W,1,7,1.7,17,M,,M,,*52
06/20/2015	22:02:19.530	$GPGGA,220220,2457.5502,N,08019.5036,W,1,7,1.7,17,M,,M,,*51
06/20/2015	22:02:20.592	$GPGGA,220221,2457.5500,N,08019.5036,W,1,7,1.7,17,M,,M,,*52
06/20/2015	22:02:21.501	$GPGGA,220222,2457.5499,N,08019.5034,W,1,8,1.5,17,M,,M,,*5F
06/20/2015	22:02:22.585	$GPGGA,220223,2457.5498,N,08019.5033,W,1,8,1.7,17,M,,M,,*5A
06/20/2015	22:02:23.521	$GPGGA,220224,2457.5497,N,08019.5032,W,1,8,1.5,17,M,,M,,*51
06/20/2015	22:02:24.501	$GPGGA,220225,2457.5497,N,08019.5030,W,1,8,1.5,17,M,,M,,*52
06/20/2015	22:02:25.581	$GPGGA,220226,2457.5494,N,08019.5028,W,1,8,1.5,17,M,,M,,*5B
06/20/2015	22:02:26.581	$GPGGA,220227,2457.5495,N,08019.5029,W,1,8,1.5,17,M,,M,,*5A
06/20/2015	22:02:27.601	$GPGGA,220228,2457.5493,N,08019.5026,W,1,8,1.5,17,M,,M,,*5C
06/20/2015	22:02:28.600	$GPGGA,220229,2457.5491,N,08019.5023,W,1,8,1.5,17,M,,M,,*5A
06/20/2015	22:02:29.585	$GPGGA,220230,2457.5492,N,08019.5023,W,1,7,1.6,17,M,,M,,*5D
06/20/2015	22:02:30.570	$GPGGA,220231,2457.5491,N,08019.5023,W,1,7,1.5,17,M,,M,,*5C
06/20/2015	22:02:31.597	$GPGGA,220232,2457.5490,N,08019.5020,W,1,8,1.5,17,M,,M,,*52
06/20/2015	22:02:32.580	$GPGGA,220233,2457.5490,N,08019.5017,W,1,8,1.5,17,M,,M,,*57
06/20/2015	22:02:33.583	$GPGGA,220234,2457.5490,N,08019.5018,W,1,8,1.5,17,M,,M,,*5F
06/20/2015	22:02:34.570	$GPGGA,220235,2457.5487,N,08019.5016,W,1,8,1.6,17,M,,M,,*55
06/20/2015	22:02:35.620	$GPGGA,220236,2457.5486,N,08019.5012,W,1,8,1.5,17,M,,M,,*50
06/20/2015	22:02:36.560	$GPGGA,220237,2457.5486,N,08019.5011,W,1,8,1.5,17,M,,M,,*52
06/20/2015	22:02:37.583	$GPGGA,220238,2457.5484,N,08019.5012,W,1,8,1.5,17,M,,M,,*5C
06/20/2015	22:02:38.561	$GPGGA,220239,2457.5483,N,08019.5010,W,1,8,1.6,17,M,,M,,*5B
06/20/2015	22:02:39.871	$GPGGA,220240,2457.5482,N,08019.5006,W,1,8,1.5,17,M,,M,,*50
06/20/2015	22:02:40.571	$GPGGA,220241,2457.5482,N,08019.5007,W,1,8,1.5,17,M,,M,,*50
06/20/2015	22:02:41.571	$GPGGA,220242,2457.5481,N,08019.5006,W,1,8,1.5,16,M,,M,,*50
06/20/2015	22:02:42.561	$GPGGA,220243,2457.5479,N,08019.5003,W,1,8,1.5,16,M,,M,,*53
06/20/2015	22:02:43.571	$GPGGA,220244,2457.5479,N,08019.5000,W,1,8,1.5,16,M,,M,,*57
06/20/2015	22:02:44.561	$GPGGA,220245,2457.5479,N,08019.5000,W,1,8,1.5,16,M,,M,,*56
06/20/2015	22:02:45.570	$GPGGA,220246,2457.5479,N,08019.5000,W,1,8,1.5,16,M,,M,,*55
06/20/2015	22:02:46.550	$GPGGA,220247,2457.5477,N,08019.4997,W,1,8,1.5,16,M,,M,,*5C
06/20/2015	22:02:47.582	$GPGGA,220248,2457.5476,N,08019.4995,W,1,9,1.5,16,M,,M,,*51
06/20/2015	22:02:48.540	$GPGGA,220249,2457.5475,N,08019.4996,W,1,9,1.5,16,M,,M,,*50
06/20/2015	22:02:49.540	$GPGGA,220250,2457.5475,N,08019.4994,W,1,9,1.5,16,M,,M,,*5A
06/20/2015	22:02:50.530	$GPGGA,220251,2457.5475,N,08019.4991,W,1,9,1.5,16,M,,M,,*5E
06/20/2015	22:02:51.560	$GPGGA,220252,2457.5472,N,08019.4990,W,1,9,1.5,16,M,,M,,*5B
06/20/2015	22:02:52.530	$GPGGA,220253,2457.5472,N,08019.4989,W,1,9,1.5,16,M,,M,,*52
06/20/2015	22:02:53.595	$GPGGA,220254,2457.5471,N,08019.4986,W,1,9,1.5,16,M,,M,,*59
06/20/2015	22:02:54.540	$GPGGA,220255,2457.5470,N,08019.4984,W,1,9,1.5,16,M,,M,,*5B
06/20/2015	22:02:55.570	$GPGGA,220256,2457.5469,N,08019.4983,W,1,9,1.5,16,M,,M,,*57
06/20/2015	22:02:56.531	$GPGGA,220257,2457.5468,N,08019.4981,W,1,9,1.5,16,M,,M,,*55
06/20/2015	22:02:57.541	$GPGGA,220258,2457.5468,N,08019.4978,W,1,9,1.5,16,M,,M,,*5C
06/20/2015	22:02:58.511	$GPGGA,220259,2457.5468,N,08019.4976,W,1,9,1.5,16,M,,M,,*53
06/20/2015	22:02:59.571	$GPGGA,220300,2457.5466,N,08019.4975,W,1,9,1.5,16,M,,M,,*53
06/20/2015	22:03:00.531	$GPGGA,220301,2457.5467,N,08019.4972,W,1,9,1.5,16,M,,M,,*54
06/20/2015	22:03:01.521	$GPGGA,220302,2457.5464,N,08019.4970,W,1,8,1.5,16,M,,M,,*57
06/20/2015	22:03:02.521	$GPGGA,220303,2457.5463,N,08019.4969,W,1,8,1.5,16,M,,M,,*59
06/20/2015	22:03:03.540	$GPGGA,220304,2457.5464,N,08019.4966,W,1,9,1.5,16,M,,M,,*57
06/20/2015	22:03:04.510	$GPGGA,220305,2457.5463,N,08019.4965,W,1,9,1.5,16,M,,M,,*52
06/20/2015	22:03:05.630	$GPGGA,220306,2457.5462,N,08019.4964,W,1,9,1.5,16,M,,M,,*51
06/20/2015	22:03:06.610	$GPGGA,220307,2457.5463,N,08019.4962,W,1,9,1.5,16,M,,M,,*57
06/20/2015	22:03:07.520	$GPGGA,220308,2457.5461,N,08019.4960,W,1,9,1.5,16,M,,M,,*58
06/20/2015	22:03:08.580	$GPGGA,220309,2457.5461,N,08019.4958,W,1,9,1.5,16,M,,M,,*52
06/20/2015	22:03:09.483	$GPGGA,220310,2457.5461,N,08019.4957,W,1,9,1.5,16,M,,M,,*55
06/20/2015	22:03:10.571	$GPGGA,220311,2457.5461,N,08019.4955,W,1,9,1.5,16,M,,M,,*56
06/20/2015	22:03:11.610	$GPGGA,220312,2457.5459,N,08019.4952,W,1,9,1.5,16,M,,M,,*59
06/20/2015	22:03:12.500	$GPGGA,220313,2457.5460,N,08019.4950,W,1,9,1.5,16,M,,M,,*50
06/20/2015	22:03:13.610	$GPGGA,220314,2457.5458,N,08019.4949,W,1,9,1.5,16,M,,M,,*54
06/20/2015	22:03:14.576	$GPGGA,220315,2457.5459,N,08019.4946,W,1,9,1.5,16,M,,M,,*5B
06/20/2015	22:03:15.590	$GPGGA,220316,2457.5457,N,08019.4945,W,1,9,1.5,16,M,,M,,*55
06/20/2015	22:03:16.572	$GPGGA,220317,2457.5457,N,08019.4943,W,1,9,1.5,16,M,,M,,*52
06/20/2015	22:03:17.610	$GPGGA,220318,2457.5457,N,08019.4941,W,1,9,1.5,16,M,,M,,*5F
06/20/2015	22:03:18.572	$GPGGA,220319,2457.5455,N,08019.4939,W,1,9,1.5,16,M,,M,,*53
06/20/2015	22:03:19.610	$GPGGA,220320,2457.5456,N,08019.4938,W,1,9,1.5,16,M,,M,,*5B
06/20/2015	22:03:20.559	$GPGGA,220321,2457.5454,N,08019.4935,W,1,9,1.7,16,M,,M,,*57
06/20/2015	22:03:21.559	$GPGGA,220322,2457.5454,N,08019.4933,W,1,8,1.7,16,M,,M,,*53
06/20/2015	22:03:22.559	$GPGGA,220323,2457.5454,N,08019.4932,W,1,8,2.4,15,M,,M,,*50
06/20/2015	22:03:23.589	$GPGGA,220324,2457.5452,N,08019.4930,W,1,9,1.5,15,M,,M,,*50
06/20/2015	22:03:24.550	$GPGGA,220325,2457.5451,N,08019.4927,W,1,9,1.5,15,M,,M,,*54
06/20/2015	22:03:25.560	$GPGGA,220326,2457.5450,N,08019.4925,W,1,9,1.5,15,M,,M,,*54
06/20/2015	22:03:26.550	$GPGGA,220327,2457.5447,N,08019.4923,W,1,9,1.5,15,M,,M,,*55
06/20/2015	22:03:27.560	$GPGGA,220328,2457.5446,N,08019.4920,W,1,9,1.5,15,M,,M,,*58
06/20/2015	22:03:28.560	$GPGGA,220329,2457.5444,N,08019.4917,W,1,9,1.5,15,M,,M,,*5F
06/20/2015	22:03:29.560	$GPGGA,220330,2457.5443,N,08019.4914,W,1,9,1.5,15,M,,M,,*53
06/20/2015	22:03:30.540	$GPGGA,220331,2457.5443,N,08019.4911,W,1,9,1.5,15,M,,M,,*57
06/20/2015	22:03:31.570	$GPGGA,220332,2457.5441,N,08019.4909,W,1,9,1.5,15,M,,M,,*5F
06/20/2015	22:03:32.540	$GPGGA,220333,2457.5439,N,08019.4906,W,1,9,1.5,15,M,,M,,*5E
06/20/2015	22:03:33.560	$GPGGA,220334,2457.5439,N,08019.4903,W,1,9,1.5,15,M,,M,,*5C
06/20/2015	22:03:34.530	$GPGGA,220335,2457.5436,N,08019.4901,W,1,9,1.5,16,M,,M,,*53
06/20/2015	22:03:35.570	$GPGGA,220336,2457.5435,N,08019.4899,W,1,9,1.5,16,M,,M,,*53
06/20/2015	22:03:36.530	$GPGGA,220337,2457.5435,N,08019.4895,W,1,9,1.5,16,M,,M,,*5E
06/20/2015	22:03:37.550	$GPGGA,220338,2457.5433,N,08019.4892,W,1,9,1.5,16,M,,M,,*50
06/20/2015	22:03:38.529	$GPGGA,220339,2457.5432,N,08019.4890,W,1,9,1.5,16,M,,M,,*52
06/20/2015	22:03:39.549	$GPGGA,220340,2457.5432,N,08019.4888,W,1,9,1.5,16,M,,M,,*55
06/20/2015	22:03:40.539	$GPGGA,220341,2457.5432,N,08019.4884,W,1,9,1.5,16,M,,M,,*58
06/20/2015	22:03:41.540	$GPGGA,220342,2457.5429,N,08019.4881,W,1,9,1.5,16,M,,M,,*54
06/20/2015	22:03:42.520	$GPGGA,220343,2457.5428,N,08019.4880,W,1,9,1.5,16,M,,M,,*55
06/20/2015	22:03:43.560	$GPGGA,220344,2457.5428,N,08019.4877,W,1,9,1.5,16,M,,M,,*5A
06/20/2015	22:03:44.520	$GPGGA,220345,2457.5428,N,08019.4874,W,1,9,1.5,16,M,,M,,*58
06/20/2015	22:03:45.510	$GPGGA,220346,2457.5426,N,08019.4872,W,1,9,1.5,16,M,,M,,*53
06/20/2015	22:03:46.620	$GPGGA,220347,2457.5425,N,08019.4870,W,1,9,1.5,16,M,,M,,*53
06/20/2015	22:03:47.574	$GPGGA,220348,2457.5424,N,08019.4866,W,1,9,1.5,16,M,,M,,*5A
06/20/2015	22:03:48.500	$GPGGA,220349,2457.5424,N,08019.4863,W,1,9,1.5,16,M,,M,,*5E
06/20/2015	22:03:49.500	$GPGGA,220350,2457.5423,N,08019.4861,W,1,9,1.5,16,M,,M,,*53
06/20/2015	22:03:50.510	$GPGGA,220351,2457.5422,N,08019.4859,W,1,9,1.5,16,M,,M,,*58
06/20/2015	22:03:51.530	$GPGGA,220352,2457.5421,N,08019.4856,W,1,9,1.5,16,M,,M,,*57
06/20/2015	22:03:52.490	$GPGGA,220353,2457.5421,N,08019.4853,W,1,9,1.5,16,M,,M,,*53
06/20/2015	22:03:54.050	$GPGGA,220354,2457.5421,N,08019.4851,W,1,9,1.5,16,M,,M,,*56
06/20/2015	22:03:54.500	$GPGGA,220355,2457.5419,N,08019.4849,W,1,9,1.5,16,M,,M,,*55
06/20/2015	22:03:55.519	$GPGGA,220356,2457.5418,N,08019.4846,W,1,9,1.5,16,M,,M,,*58
06/20/2015	22:03:56.589	$GPGGA,220357,2457.5417,N,08019.4844,W,1,9,1.5,16,M,,M,,*54
06/20/2015	22:03:57.499	$GPGGA,220358,2457.5417,N,08019.4842,W,1,9,1.5,16,M,,M,,*5D
06/20/2015	22:03:58.479	$GPGGA,220359,2457.5416,N,08019.4838,W,1,9,1.5,16,M,,M,,*50
06/20/2015	22:03:59.560	$GPGGA,220400,2457.5415,N,08019.4836,W,1,9,1.5,16,M,,M,,*56
06/20/2015	22:04:00.580	$GPGGA,220401,2457.5414,N,08019.4835,W,1,9,1.5,16,M,,M,,*55
06/20/2015	22:04:01.483	$GPGGA,220402,2457.5414,N,08019.4831,W,1,9,1.5,16,M,,M,,*52
06/20/2015	22:04:02.570	$GPGGA,220403,2457.5414,N,08019.4828,W,1,9,1.5,16,M,,M,,*5B
06/20/2015	22:04:03.610	$GPGGA,220404,2457.5412,N,08019.4828,W,1,9,1.5,16,M,,M,,*5A
06/20/2015	22:04:04.584	$GPGGA,220405,2457.5411,N,08019.4825,W,1,9,1.5,16,M,,M,,*55
06/20/2015	22:04:05.573	$GPGGA,220406,2457.5410,N,08019.4821,W,1,9,1.5,16,M,,M,,*53
06/20/2015	22:04:06.590	$GPGGA,220407,2457.5410,N,08019.4821,W,1,9,1.5,16,M,,M,,*52
06/20/2015	22:04:07.590	$GPGGA,220408,2457.5408,N,08019.4819,W,1,9,1.5,16,M,,M,,*5F
06/20/2015	22:04:08.560	$GPGGA,220409,2457.5407,N,08019.4815,W,1,9,1.5,16,M,,M,,*5D
06/20/2015	22:04:09.570	$GPGGA,220410,2457.5406,N,08019.4813,W,1,9,1.5,16,M,,M,,*52
06/20/2015	22:04:10.560	$GPGGA,220411,2457.5405,N,08019.4811,W,1,9,1.5,16,M,,M,,*52
06/20/2015	22:04:11.580	$GPGGA,220412,2457.5404,N,08019.4808,W,1,9,1.5,16,M,,M,,*58
06/20/2015	22:04:12.550	$GPGGA,220413,2457.5405,N,08019.4805,W,1,9,1.5,16,M,,M,,*55
06/20/2015	22:04:13.569	$GPGGA,220414,2457.5403,N,08019.4803,W,1,9,1.5,16,M,,M,,*52
06/20/2015	22:04:14.559	$GPGGA,220415,2457.5401,N,08019.4801,W,1,9,1.5,16,M,,M,,*53
06/20/2015	22:04:15.609	$GPGGA,220416,2457.5402,N,08019.4798,W,1,9,1.5,16,M,,M,,*5C
06/20/2015	22:04:16.560	$GPGGA,220417,2457.5400,N,08019.4795,W,1,9,1.5,16,M,,M,,*52
06/20/2015	22:04:17.550	$GPGGA,220418,2457.5399,N,08019.4793,W,1,9,1.5,16,M,,M,,*5C
06/20/2015	22:04:18.550	$GPGGA,220419,2457.5398,N,08019.4790,W,1,9,1.5,16,M,,M,,*5F
06/20/2015	22:04:19.600	$GPGGA,220420,2457.5399,N,08019.4788,W,1,9,1.5,16,M,,M,,*5D
06/20/2015	22:04:20.540	$GPGGA,220421,2457.5397,N,08019.4785,W,1,9,1.5,16,M,,M,,*5F
06/20/2015	22:04:21.570	$GPGGA,220422,2457.5396,N,08019.4782,W,1,9,1.5,16,M,,M,,*5A
06/20/2015	22:04:22.540	$GPGGA,220423,2457.5396,N,08019.4780,W,1,9,1.5,16,M,,M,,*59
06/20/2015	22:04:23.583	$GPGGA,220424,2457.5396,N,08019.4777,W,1,9,1.5,16,M,,M,,*56
06/20/2015	22:04:24.530	$GPGGA,220425,2457.5394,N,08019.4773,W,1,9,1.5,16,M,,M,,*51
06/20/2015	22:04:25.560	$GPGGA,220426,2457.5393,N,08019.4770,W,1,9,1.5,16,M,,M,,*56
06/20/2015	22:04:26.520	$GPGGA,220427,2457.5392,N,08019.4768,W,1,9,1.5,16,M,,M,,*5F
06/20/2015	22:04:27.576	$GPGGA,220428,2457.5392,N,08019.4766,W,1,9,1.5,16,M,,M,,*5E
06/20/2015	22:04:28.520	$GPGGA,220429,2457.5392,N,08019.4762,W,1,9,1.5,16,M,,M,,*5B
06/20/2015	22:04:29.540	$GPGGA,220430,2457.5392,N,08019.4759,W,1,9,1.5,16,M,,M,,*5B
06/20/2015	22:04:30.529	$GPGGA,220431,2457.5389,N,08019.4758,W,1,9,1.5,16,M,,M,,*51
06/20/2015	22:04:31.539	$GPGGA,220432,2457.5389,N,08019.4754,W,1,9,1.5,16,M,,M,,*5E
06/20/2015	22:04:32.509	$GPGGA,220433,2457.5388,N,08019.4751,W,1,9,1.5,16,M,,M,,*5B
06/20/2015	22:04:33.539	$GPGGA,220434,2457.5387,N,08019.4748,W,1,9,1.5,16,M,,M,,*5B
06/20/2015	22:04:34.500	$GPGGA,220435,2457.5386,N,08019.4746,W,1,9,1.5,16,M,,M,,*55
06/20/2015	22:04:35.540	$GPGGA,220436,2457.5385,N,08019.4744,W,1,9,1.5,16,M,,M,,*57
06/20/2015	22:04:36.510	$GPGGA,220437,2457.5385,N,08019.4739,W,1,9,1.8,16,M,,M,,*51
06/20/2015	22:04:37.530	$GPGGA,220438,2457.5383,N,08019.4734,W,1,8,1.5,16,M,,M,,*59
06/20/2015	22:04:38.530	$GPGGA,220439,2457.5381,N,08019.4732,W,1,8,1.5,16,M,,M,,*5C
06/20/2015	22:04:39.620	$GPGGA,220440,2457.5379,N,08019.4729,W,1,9,1.5,16,M,,M,,*5E
06/20/2015	22:04:40.530	$GPGGA,220441,2457.5378,N,08019.4725,W,1,9,1.5,16,M,,M,,*52
06/20/2015	22:04:41.530	$GPGGA,220442,2457.5378,N,08019.4723,W,1,9,1.5,16,M,,M,,*57
06/20/2015	22:04:42.510	$GPGGA,220443,2457.5376,N,08019.4720,W,1,9,1.5,16,M,,M,,*5B
06/20/2015	22:04:43.530	$GPGGA,220444,2457.5374,N,08019.4716,W,1,9,1.5,16,M,,M,,*5B
06/20/2015	22:04:44.600	$GPGGA,220445,2457.5372,N,08019.4713,W,1,9,1.5,15,M,,M,,*5A
06/20/2015	22:04:45.610	$GPGGA,220446,2457.5370,N,08019.4709,W,1,9,1.5,15,M,,M,,*50
06/20/2015	22:04:46.500	$GPGGA,220447,2457.5368,N,08019.4707,W,1,9,1.5,15,M,,M,,*56
06/20/2015	22:04:47.589	$GPGGA,220448,2457.5367,N,08019.4703,W,1,9,1.5,15,M,,M,,*52
06/20/2015	22:04:48.579	$GPGGA,220449,2457.5364,N,08019.4699,W,1,9,1.5,15,M,,M,,*52
06/20/2015	22:04:49.499	$GPGGA,220450,2457.5363,N,08019.4696,W,1,9,1.5,15,M,,M,,*52
06/20/2015	22:04:50.576	$GPGGA,220451,2457.5360,N,08019.4693,W,1,9,1.5,15,M,,M,,*55
06/20/2015	22:04:51.600	$GPGGA,220452,2457.5357,N,08019.4689,W,1,9,1.5,15,M,,M,,*59
06/20/2015	22:04:52.560	$GPGGA,220453,2457.5356,N,08019.4687,W,1,9,1.5,15,M,,M,,*57
06/20/2015	22:04:53.583	$GPGGA,220454,2457.5353,N,08019.4685,W,1,9,1.5,15,M,,M,,*57
06/20/2015	22:04:54.575	$GPGGA,220455,2457.5350,N,08019.4681,W,1,9,1.7,15,M,,M,,*53
06/20/2015	22:04:55.600	$GPGGA,220456,2457.5349,N,08019.4677,W,1,8,1.7,15,M,,M,,*50
06/20/2015	22:04:56.560	$GPGGA,220457,2457.5345,N,08019.4675,W,1,8,1.5,15,M,,M,,*5D
06/20/2015	22:04:57.600	$GPGGA,220458,2457.5342,N,08019.4673,W,1,9,1.5,15,M,,M,,*52
06/20/2015	22:04:58.560	$GPGGA,220459,2457.5339,N,08019.4671,W,1,9,1.5,15,M,,M,,*5D
06/20/2015	22:04:59.590	$GPGGA,220500,2457.5336,N,08019.4667,W,1,9,1.5,15,M,,M,,*58
06/20/2015	22:05:00.560	$GPGGA,220501,2457.5334,N,08019.4665,W,1,9,1.5,15,M,,M,,*59
06/20/2015	22:05:01.550	$GPGGA,220502,2457.5331,N,08019.4665,W,1,9,1.5,15,M,,M,,*5F
06/20/2015	22:05:02.540	$GPGGA,220503,2457.5327,N,08019.4663,W,1,9,1.5,15,M,,M,,*5F
06/20/2015	22:05:03.571	$GPGGA,220504,2457.5324,N,08019.4659,W,1,9,1.5,14,M,,M,,*53
06/20/2015	22:05:04.560	$GPGGA,220505,2457.5322,N,08019.4657,W,1,9,1.5,14,M,,M,,*5A
06/20/2015	22:05:05.573	$GPGGA,220506,2457.5320,N,08019.4658,W,1,8,1.7,14,M,,M,,*57
06/20/2015	22:05:06.539	$GPGGA,220507,2457.5316,N,08019.4656,W,1,8,1.5,14,M,,M,,*5F
06/20/2015	22:05:07.579	$GPGGA,220508,2457.5313,N,08019.4652,W,1,9,1.5,14,M,,M,,*50
06/20/2015	22:05:08.539	$GPGGA,220509,2457.5310,N,08019.4651,W,1,9,1.7,14,M,,M,,*53
06/20/2015	22:05:09.560	$GPGGA,220510,2457.5307,N,08019.4651,W,1,8,1.7,14,M,,M,,*5C
06/20/2015	22:05:10.530	$GPGGA,220511,2457.5304,N,08019.4650,W,1,8,1.7,14,M,,M,,*5F
06/20/2015	22:05:11.540	$GPGGA,220512,2457.5299,N,08019.4649,W,1,9,1.5,14,M,,M,,*52
06/20/2015	22:05:12.530	$GPGGA,220513,2457.5298,N,08019.4648,W,1,9,1.5,14,M,,M,,*53
06/20/2015	22:05:13.540	$GPGGA,220514,2457.5294,N,08019.4647,W,1,8,1.7,14,M,,M,,*54
06/20/2015	22:05:14.520	$GPGGA,220515,2457.5291,N,08019.4645,W,1,8,1.6,14,M,,M,,*53
06/20/2015	22:05:15.530	$GPGGA,220516,2457.5287,N,08019.4646,W,1,7,1.8,14,M,,M,,*55
06/20/2015	22:05:16.530	$GPGGA,220517,2457.5284,N,08019.4644,W,1,7,1.6,14,M,,M,,*5B
06/20/2015	22:05:17.560	$GPGGA,220518,2457.5284,N,08019.4646,W,1,8,1.6,14,M,,M,,*59
06/20/2015	22:05:18.530	$GPGGA,220519,2457.5282,N,08019.4646,W,1,8,1.5,14,M,,M,,*5D
06/20/2015	22:05:19.571	$GPGGA,220520,2457.5280,N,08019.4646,W,1,9,1.5,14,M,,M,,*54
06/20/2015	22:05:20.530	$GPGGA,220521,2457.5275,N,08019.4645,W,1,9,1.5,14,M,,M,,*5C
06/20/2015	22:05:21.630	$GPGGA,220522,2457.5273,N,08019.4646,W,1,9,1.5,14,M,,M,,*5A
06/20/2015	22:05:22.629	$GPGGA,220523,2457.5270,N,08019.4647,W,1,9,1.5,14,M,,M,,*59
06/20/2015	22:05:23.549	$GPGGA,220524,2457.5266,N,08019.4646,W,1,9,1.5,14,M,,M,,*58
06/20/2015	22:05:24.519	$GPGGA,220525,2457.5263,N,08019.4646,W,1,9,1.5,14,M,,M,,*5C
06/20/2015	22:05:25.519	$GPGGA,220526,2457.5262,N,08019.4649,W,1,9,1.5,14,M,,M,,*51
06/20/2015	22:05:26.500	$GPGGA,220527,2457.5258,N,08019.4648,W,1,9,1.5,14,M,,M,,*58
06/20/2015	22:05:27.530	$GPGGA,220528,2457.5255,N,08019.4646,W,1,8,1.5,14,M,,M,,*55
06/20/2015	22:05:28.510	$GPGGA,220529,2457.5252,N,08019.4646,W,1,8,1.5,14,M,,M,,*53
06/20/2015	22:05:29.510	$GPGGA,220530,2457.5251,N,08019.4646,W,1,9,1.5,14,M,,M,,*59
06/20/2015	22:05:30.490	$GPGGA,220531,2457.5247,N,08019.4645,W,1,9,1.5,14,M,,M,,*5C
06/20/2015	22:05:31.600	$GPGGA,220532,2457.5245,N,08019.4646,W,1,9,1.5,14,M,,M,,*5E
06/20/2015	22:05:32.490	$GPGGA,220533,2457.5242,N,08019.4646,W,1,9,1.6,14,M,,M,,*5B
06/20/2015	22:05:33.490	$GPGGA,220534,2457.5240,N,08019.4647,W,1,9,1.5,14,M,,M,,*5C
06/20/2015	22:05:34.592	$GPGGA,220535,2457.5238,N,08019.4650,W,1,9,1.5,14,M,,M,,*54
06/20/2015	22:05:35.610	$GPGGA,220536,2457.5235,N,08019.4649,W,1,9,1.5,14,M,,M,,*52
06/20/2015	22:05:36.585	$GPGGA,220537,2457.5233,N,08019.4650,W,1,9,1.5,14,M,,M,,*5D
06/20/2015	22:05:37.570	$GPGGA,220538,2457.5230,N,08019.4653,W,1,9,1.5,14,M,,M,,*52
06/20/2015	22:05:38.580	$GPGGA,220539,2457.5228,N,08019.4657,W,1,9,1.6,14,M,,M,,*5D
06/20/2015	22:05:39.580	$GPGGA,220540,2457.5224,N,08019.4657,W,1,9,1.5,14,M,,M,,*5C
06/20/2015	22:05:40.559	$GPGGA,220541,2457.5221,N,08019.4660,W,1,9,1.6,15,M,,M,,*5E
06/20/2015	22:05:41.589	$GPGGA,220542,2457.5222,N,08019.4664,W,1,8,1.6,15,M,,M,,*5B
06/20/2015	22:05:42.569	$GPGGA,220543,2457.5219,N,08019.4668,W,1,8,1.5,15,M,,M,,*5D
06/20/2015	22:05:43.609	$GPGGA,220544,2457.5215,N,08019.4671,W,1,8,1.5,15,M,,M,,*5E
06/20/2015	22:05:44.560	$GPGGA,220545,2457.5215,N,08019.4675,W,1,8,1.5,15,M,,M,,*5B
06/20/2015	22:05:45.584	$GPGGA,220546,2457.5215,N,08019.4679,W,1,9,1.5,15,M,,M,,*55
06/20/2015	22:05:46.573	$GPGGA,220547,2457.5213,N,08019.4680,W,1,9,1.5,15,M,,M,,*54
06/20/2015	22:05:47.570	$GPGGA,220548,2457.5211,N,08019.4684,W,1,9,1.5,15,M,,M,,*5D
06/20/2015	22:05:48.560	$GPGGA,220549,2457.5210,N,08019.4687,W,1,9,1.5,15,M,,M,,*5E
06/20/2015	22:05:49.540	$GPGGA,220550,2457.5209,N,08019.4691,W,1,9,1.5,15,M,,M,,*59
06/20/2015	22:05:50.550	$GPGGA,220551,2457.5208,N,08019.4694,W,1,9,1.5,15,M,,M,,*5C
06/20/2015	22:05:51.550	$GPGGA,220552,2457.5205,N,08019.4697,W,1,9,1.5,15,M,,M,,*51
06/20/2015	22:05:52.540	$GPGGA,220553,2457.5204,N,08019.4701,W,1,9,1.6,15,M,,M,,*5C
06/20/2015	22:05:53.560	$GPGGA,220554,2457.5204,N,08019.4707,W,1,9,1.5,15,M,,M,,*5E
06/20/2015	22:05:54.540	$GPGGA,220555,2457.5201,N,08019.4711,W,1,9,1.5,15,M,,M,,*5D
06/20/2015	22:05:55.540	$GPGGA,220556,2457.5197,N,08019.4718,W,1,9,1.5,16,M,,M,,*58
06/20/2015	22:05:56.540	$GPGGA,220557,2457.5195,N,08019.4723,W,1,9,1.5,16,M,,M,,*53
06/20/2015	22:05:57.559	$GPGGA,220558,2457.5193,N,08019.4727,W,1,9,1.5,16,M,,M,,*5E
06/20/2015	22:05:58.539	$GPGGA,220559,2457.5191,N,08019.4730,W,1,9,1.5,16,M,,M,,*5B
06/20/2015	22:05:59.549	$GPGGA,220600,2457.5190,N,08019.4736,W,1,9,1.5,16,M,,M,,*53
06/20/2015	22:06:00.539	$GPGGA,220601,2457.5186,N,08019.4740,W,1,9,1.5,16,M,,M,,*54
06/20/2015	22:06:01.530	$GPGGA,220602,2457.5183,N,08019.4743,W,1,9,1.5,16,M,,M,,*51
06/20/2015	22:06:02.530	$GPGGA,220603,2457.5180,N,08019.4748,W,1,9,1.5,16,M,,M,,*58
06/20/2015	22:06:03.573	$GPGGA,220604,2457.5177,N,08019.4754,W,1,8,1.5,16,M,,M,,*5B
06/20/2015	22:06:04.520	$GPGGA,220605,2457.5172,N,08019.4759,W,1,8,1.7,16,M,,M,,*50
06/20/2015	22:06:05.540	$GPGGA,220606,2457.5169,N,08019.4763,W,1,8,1.5,16,M,,M,,*52
06/20/2015	22:06:06.510	$GPGGA,220607,2457.5165,N,08019.4769,W,1,8,1.5,16,M,,M,,*55
06/20/2015	22:06:07.550	$GPGGA,220608,2457.5163,N,08019.4774,W,1,7,1.7,16,M,,M,,*5D
06/20/2015	22:06:08.520	$GPGGA,220609,2457.5157,N,08019.4780,W,1,7,1.6,16,M,,M,,*51
06/20/2015	22:06:09.530	$GPGGA,220610,2457.5155,N,08019.4781,W,1,8,1.5,16,M,,M,,*56
06/20/2015	22:06:10.510	$GPGGA,220611,2457.5154,N,08019.4787,W,1,8,1.6,16,M,,M,,*53
06/20/2015	22:06:11.540	$GPGGA,220612,2457.5151,N,08019.4792,W,1,8,1.6,16,M,,M,,*51
06/20/2015	22:06:12.520	$GPGGA,220613,2457.5150,N,08019.4794,W,1,8,1.5,16,M,,M,,*54
06/20/2015	22:06:13.600	$GPGGA,220614,2457.5146,N,08019.4799,W,1,8,1.7,16,M,,M,,*5B
06/20/2015	22:06:14.500	$GPGGA,220615,2457.5144,N,08019.4805,W,1,8,1.5,16,M,,M,,*50
06/20/2015	22:06:15.659	$GPGGA,220616,2457.5143,N,08019.4810,W,1,8,1.5,16,M,,M,,*50
06/20/2015	22:06:16.519	$GPGGA,220617,2457.5139,N,08019.4814,W,1,8,1.5,16,M,,M,,*58
06/20/2015	22:06:17.639	$GPGGA,220618,2457.5133,N,08019.4817,W,1,8,1.6,16,M,,M,,*5D
06/20/2015	22:06:18.499	$GPGGA,220619,2457.5132,N,08019.4823,W,1,8,1.5,16,M,,M,,*59
06/20/2015	22:06:19.600	$GPGGA,220620,2457.5130,N,08019.4828,W,1,8,1.5,16,M,,M,,*5A
06/20/2015	22:06:20.510	$GPGGA,220621,2457.5126,N,08019.4834,W,1,8,1.5,16,M,,M,,*51
06/20/2015	22:06:21.500	$GPGGA,220622,2457.5122,N,08019.4839,W,1,9,1.5,16,M,,M,,*5A
06/20/2015	22:06:22.583	$GPGGA,220623,2457.5119,N,08019.4845,W,1,9,1.5,16,M,,M,,*58
06/20/2015	22:06:23.500	$GPGGA,220624,2457.5116,N,08019.4849,W,1,8,1.5,16,M,,M,,*5D
06/20/2015	22:06:24.572	$GPGGA,220625,2457.5114,N,08019.4855,W,1,8,1.5,16,M,,M,,*53
06/20/2015	22:06:25.490	$GPGGA,220626,2457.5110,N,08019.4859,W,1,8,1.5,16,M,,M,,*58
06/20/2015	22:06:26.490	$GPGGA,220627,2457.5108,N,08019.4863,W,1,8,1.5,16,M,,M,,*59
06/20/2015	22:06:27.490	$GPGGA,220628,2457.5104,N,08019.4867,W,1,8,1.5,16,M,,M,,*5E
06/20/2015	22:06:28.590	$GPGGA,220629,2457.5101,N,08019.4870,W,1,8,1.5,16,M,,M,,*5C
06/20/2015	22:06:29.590	$GPGGA,220630,2457.5098,N,08019.4874,W,1,9,1.5,16,M,,M,,*50
06/20/2015	22:06:30.560	$GPGGA,220631,2457.5096,N,08019.4877,W,1,9,1.5,16,M,,M,,*5C
06/20/2015	22:06:31.580	$GPGGA,220632,2457.5092,N,08019.4881,W,1,9,1.5,16,M,,M,,*52
06/20/2015	22:06:32.576	$GPGGA,220633,2457.5089,N,08019.4884,W,1,9,1.5,16,M,,M,,*5C
06/20/2015	22:06:33.581	$GPGGA,220634,2457.5086,N,08019.4888,W,1,8,1.6,16,M,,M,,*5A
06/20/2015	22:06:34.549	$GPGGA,220635,2457.5083,N,08019.4892,W,1,8,1.6,16,M,,M,,*55
06/20/2015	22:06:35.589	$GPGGA,220636,2457.5080,N,08019.4895,W,1,9,1.5,17,M,,M,,*51
06/20/2015	22:06:36.560	$GPGGA,220637,2457.5078,N,08019.4899,W,1,9,1.5,17,M,,M,,*5B
06/20/2015	22:06:37.987	$GPGGA,220638,2457.5075,N,08019.4902,W,1,9,1.5,17,M,,M,,*5A
06/20/2015	22:06:38.550	$GPGGA,220639,2457.5071,N,08019.4906,W,1,9,1.5,17,M,,M,,*5B
06/20/2015	22:06:39.582	$GPGGA,220640,2457.5069,N,08019.4911,W,1,8,1.6,17,M,,M,,*58
06/20/2015	22:06:40.540	$GPGGA,220641,2457.5067,N,08019.4917,W,1,8,1.5,17,M,,M,,*52
06/20/2015	22:06:41.560	$GPGGA,220642,2457.5063,N,08019.4921,W,1,8,1.5,17,M,,M,,*50
06/20/2015	22:06:42.551	$GPGGA,220643,2457.5060,N,08019.4924,W,1,8,1.5,17,M,,M,,*57
06/20/2015	22:06:43.582	$GPGGA,220644,2457.5056,N,08019.4929,W,1,8,1.5,17,M,,M,,*58
06/20/2015	22:06:44.540	$GPGGA,220645,2457.5054,N,08019.4933,W,1,8,1.7,17,M,,M,,*52
06/20/2015	22:06:45.574	$GPGGA,220646,2457.5051,N,08019.4938,W,1,9,1.5,17,M,,M,,*5C
06/20/2015	22:06:46.530	$GPGGA,220647,2457.5049,N,08019.4940,W,1,9,1.5,17,M,,M,,*5B
06/20/2015	22:06:47.570	$GPGGA,220648,2457.5047,N,08019.4946,W,1,9,1.5,17,M,,M,,*5C
06/20/2015	22:06:48.530	$GPGGA,220649,2457.5044,N,08019.4949,W,1,9,1.5,17,M,,M,,*51
06/20/2015	22:06:49.560	$GPGGA,220650,2457.5043,N,08019.4954,W,1,8,1.6,17,M,,M,,*50
06/20/2015	22:06:50.529	$GPGGA,220651,2457.5039,N,08019.4958,W,1,8,1.5,17,M,,M,,*53
06/20/2015	22:06:51.559	$GPGGA,220652,2457.5036,N,08019.4961,W,1,8,1.8,17,M,,M,,*58
06/20/2015	22:06:52.509	$GPGGA,220653,2457.5031,N,08019.4964,W,1,8,1.5,18,M,,M,,*59
06/20/2015	22:06:53.519	$GPGGA,220654,2457.5029,N,08019.4967,W,1,9,1.5,18,M,,M,,*55
06/20/2015	22:06:54.510	$GPGGA,220655,2457.5027,N,08019.4971,W,1,9,1.5,18,M,,M,,*5D
06/20/2015	22:06:55.550	$GPGGA,220656,2457.5024,N,08019.4975,W,1,9,1.5,18,M,,M,,*59
06/20/2015	22:06:56.510	$GPGGA,220657,2457.5021,N,08019.4978,W,1,9,1.5,18,M,,M,,*50
06/20/2015	22:06:57.520	$GPGGA,220658,2457.5020,N,08019.4982,W,1,9,1.5,18,M,,M,,*5B
06/20/2015	22:06:58.530	$GPGGA,220659,2457.5018,N,08019.4986,W,1,9,1.5,18,M,,M,,*55
06/20/2015	22:06:59.550	$GPGGA,220700,2457.5015,N,08019.4989,W,1,8,1.6,18,M,,M,,*58
06/20/2015	22:07:00.500	$GPGGA,220701,2457.5011,N,08019.4993,W,1,8,1.5,18,M,,M,,*55
06/20/2015	22:07:01.490	$GPGGA,220702,2457.5009,N,08019.4997,W,1,9,1.5,18,M,,M,,*5A
06/20/2015	22:07:02.500	$GPGGA,220703,2457.5006,N,08019.5003,W,1,9,1.5,18,M,,M,,*51
06/20/2015	22:07:03.540	$GPGGA,220704,2457.5002,N,08019.5004,W,1,8,1.5,18,M,,M,,*54
06/20/2015	22:07:04.510	$GPGGA,220705,2457.5000,N,08019.5007,W,1,8,1.5,18,M,,M,,*54
06/20/2015	22:07:05.640	$GPGGA,220706,2457.4997,N,08019.5011,W,1,9,1.5,18,M,,M,,*57
06/20/2015	22:07:06.500	$GPGGA,220707,2457.4995,N,08019.5015,W,1,9,1.5,18,M,,M,,*50
06/20/2015	22:07:07.589	$GPGGA,220708,2457.4993,N,08019.5018,W,1,9,1.5,18,M,,M,,*54
06/20/2015	22:07:08.499	$GPGGA,220709,2457.4991,N,08019.5022,W,1,9,1.5,18,M,,M,,*5E
06/20/2015	22:07:09.619	$GPGGA,220710,2457.4988,N,08019.5025,W,1,9,1.5,18,M,,M,,*59
06/20/2015	22:07:10.573	$GPGGA,220711,2457.4986,N,08019.5029,W,1,9,1.5,18,M,,M,,*5A
06/20/2015	22:07:11.590	$GPGGA,220712,2457.4984,N,08019.5032,W,1,9,1.5,18,M,,M,,*51
06/20/2015	22:07:12.650	$GPGGA,220713,2457.4984,N,08019.5036,W,1,9,1.6,18,M,,M,,*57
06/20/2015	22:07:13.600	$GPGGA,220714,2457.4981,N,08019.5038,W,1,8,1.5,18,M,,M,,*59
06/20/2015	22:07:14.490	$GPGGA,220715,2457.4978,N,08019.5043,W,1,8,1.5,18,M,,M,,*52
06/20/2015	22:07:15.490	$GPGGA,220716,2457.4977,N,08019.5047,W,1,8,1.5,18,M,,M,,*5A
06/20/2015	22:07:16.640	$GPGGA,220717,2457.4973,N,08019.5051,W,1,8,1.7,18,M,,M,,*5A
06/20/2015	22:07:17.621	$GPGGA,220718,2457.4973,N,08019.5054,W,1,7,1.7,18,M,,M,,*5F
06/20/2015	22:07:18.560	$GPGGA,220719,2457.4971,N,08019.5059,W,1,7,1.5,18,M,,M,,*53
06/20/2015	22:07:19.640	$GPGGA,220720,2457.4968,N,08019.5063,W,1,7,1.5,18,M,,M,,*58
06/20/2015	22:07:21.650	$GPGGA,220722,2457.4963,N,08019.5072,W,1,8,1.5,18,M,,M,,*5E
06/20/2015	22:07:22.560	$GPGGA,220723,2457.4962,N,08019.5076,W,1,8,1.7,18,M,,M,,*58
06/20/2015	22:07:23.650	$GPGGA,220724,2457.4960,N,08019.5079,W,1,8,1.5,18,M,,M,,*50
06/20/2015	22:07:24.550	$GPGGA,220725,2457.4957,N,08019.5079,W,1,8,1.5,18,M,,M,,*55
06/20/2015	22:07:25.599	$GPGGA,220726,2457.4956,N,08019.5083,W,1,9,1.5,18,M,,M,,*53
06/20/2015	22:07:26.619	$GPGGA,220727,2457.4957,N,08019.5087,W,1,9,1.5,18,M,,M,,*57
06/20/2015	22:07:27.599	$GPGGA,220728,2457.4955,N,08019.5088,W,1,8,1.5,18,M,,M,,*54
06/20/2015	22:07:28.539	$GPGGA,220729,2457.4955,N,08019.5091,W,1,8,1.5,18,M,,M,,*5D
06/20/2015	22:07:29.589	$GPGGA,220730,2457.4955,N,08019.5094,W,1,8,1.5,18,M,,M,,*50
06/20/2015	22:07:30.600	$GPGGA,220731,2457.4955,N,08019.5098,W,1,8,1.5,19,M,,M,,*5C
06/20/2015	22:07:31.600	$GPGGA,220732,2457.4953,N,08019.5101,W,1,9,1.5,19,M,,M,,*59
06/20/2015	22:07:32.610	$GPGGA,220733,2457.4954,N,08019.5105,W,1,9,1.5,19,M,,M,,*5B
06/20/2015	22:07:33.530	$GPGGA,220734,2457.4952,N,08019.5108,W,1,9,1.5,19,M,,M,,*57
06/20/2015	22:07:34.610	$GPGGA,220735,2457.4950,N,08019.5112,W,1,9,1.5,19,M,,M,,*5F
06/20/2015	22:07:35.582	$GPGGA,220736,2457.4949,N,08019.5115,W,1,8,1.5,19,M,,M,,*52
06/20/2015	22:07:36.600	$GPGGA,220737,2457.4948,N,08019.5119,W,1,8,1.6,19,M,,M,,*5D
06/20/2015	22:07:37.575	$GPGGA,220738,2457.4948,N,08019.5121,W,1,7,1.5,19,M,,M,,*55
06/20/2015	22:07:38.584	$GPGGA,220739,2457.4945,N,08019.5124,W,1,7,1.5,20,M,,M,,*56
06/20/2015	22:07:39.600	$GPGGA,220740,2457.4944,N,08019.5127,W,1,9,1.6,20,M,,M,,*57
06/20/2015	22:07:40.600	$GPGGA,220741,2457.4942,N,08019.5131,W,1,9,1.6,20,M,,M,,*57
06/20/2015	22:07:41.550	$GPGGA,220742,2457.4940,N,08019.5134,W,1,8,1.5,20,M,,M,,*51
06/20/2015	22:07:42.519	$GPGGA,220743,2457.4938,N,08019.5137,W,1,8,1.5,20,M,,M,,*5C
06/20/2015	22:07:43.571	$GPGGA,220744,2457.4937,N,08019.5141,W,1,8,1.5,20,M,,M,,*55
06/20/2015	22:07:44.582	$GPGGA,220745,2457.4937,N,08019.5145,W,1,8,1.7,20,M,,M,,*52
06/20/2015	22:07:45.549	$GPGGA,220746,2457.4934,N,08019.5148,W,1,7,1.6,20,M,,M,,*51
06/20/2015	22:07:46.620	$GPGGA,220747,2457.4931,N,08019.5149,W,1,7,1.5,20,M,,M,,*57
06/20/2015	22:07:47.590	$GPGGA,220748,2457.4930,N,08019.5153,W,1,9,1.5,20,M,,M,,*5C
06/20/2015	22:07:48.571	$GPGGA,220749,2457.4928,N,08019.5156,W,1,9,1.7,20,M,,M,,*53
06/20/2015	22:07:49.500	$GPGGA,220750,2457.4926,N,08019.5159,W,1,7,1.7,20,M,,M,,*54
06/20/2015	22:07:50.575	$GPGGA,220751,2457.4926,N,08019.5163,W,1,7,1.5,20,M,,M,,*5E
06/20/2015	22:07:51.574	$GPGGA,220752,2457.4923,N,08019.5166,W,1,8,1.5,20,M,,M,,*52
06/20/2015	22:07:52.620	$GPGGA,220753,2457.4920,N,08019.5168,W,1,8,1.5,20,M,,M,,*5E
06/20/2015	22:07:53.600	$GPGGA,220754,2457.4919,N,08019.5173,W,1,8,1.6,20,M,,M,,*5A
06/20/2015	22:07:54.560	$GPGGA,220755,2457.4915,N,08019.5175,W,1,8,1.7,20,M,,M,,*50
06/20/2015	22:07:55.640	$GPGGA,220756,2457.4913,N,08019.5178,W,1,7,1.7,20,M,,M,,*57
06/20/2015	22:07:56.550	$GPGGA,220757,2457.4911,N,08019.5181,W,1,7,1.5,20,M,,M,,*50
06/20/2015	22:07:57.520	$GPGGA,220758,2457.4912,N,08019.5184,W,1,8,1.5,20,M,,M,,*56
06/20/2015	22:07:58.585	$GPGGA,220759,2457.4912,N,08019.5186,W,1,8,1.5,20,M,,M,,*55
06/20/2015	22:07:59.640	$GPGGA,220800,2457.4909,N,08019.5188,W,1,9,1.5,20,M,,M,,*53
06/20/2015	22:08:00.599	$GPGGA,220801,2457.4908,N,08019.5191,W,1,9,1.7,20,M,,M,,*59
06/20/2015	22:08:01.580	$GPGGA,220802,2457.4910,N,08019.5195,W,1,7,1.5,20,M,,M,,*5B
06/20/2015	22:08:02.539	$GPGGA,220803,2457.4908,N,08019.5197,W,1,7,1.6,20,M,,M,,*52
06/20/2015	22:08:03.600	$GPGGA,220804,2457.4908,N,08019.5199,W,1,8,1.6,20,M,,M,,*54
06/20/2015	22:08:04.571	$GPGGA,220805,2457.4908,N,08019.5202,W,1,8,1.5,20,M,,M,,*57
06/20/2015	22:08:05.590	$GPGGA,220806,2457.4904,N,08019.5203,W,1,9,1.5,20,M,,M,,*58
06/20/2015	22:08:06.571	$GPGGA,220807,2457.4901,N,08019.5206,W,1,9,1.5,20,M,,M,,*59
06/20/2015	22:08:07.620	$GPGGA,220808,2457.4899,N,08019.5207,W,1,9,1.5,20,M,,M,,*57
06/20/2015	22:08:08.573	$GPGGA,220809,2457.4897,N,08019.5210,W,1,9,1.5,20,M,,M,,*5E
06/20/2015	22:08:09.560	$GPGGA,220810,2457.4895,N,08019.5213,W,1,9,1.5,20,M,,M,,*57
06/20/2015	22:08:10.571	$GPGGA,220811,2457.4894,N,08019.5214,W,1,9,1.7,20,M,,M,,*52
06/20/2015	22:08:11.590	$GPGGA,220812,2457.4890,N,08019.5220,W,1,8,1.5,20,M,,M,,*51
06/20/2015	22:08:12.560	$GPGGA,220813,2457.4887,N,08019.5224,W,1,8,1.5,20,M,,M,,*52
06/20/2015	22:08:13.574	$GPGGA,220814,2457.4886,N,08019.5228,W,1,8,1.5,20,M,,M,,*58
06/20/2015	22:08:14.573	$GPGGA,220815,2457.4883,N,08019.5231,W,1,8,1.7,20,M,,M,,*56
06/20/2015	22:08:15.573	$GPGGA,220816,2457.4881,N,08019.5232,W,1,8,1.5,20,M,,M,,*56
06/20/2015	22:08:16.550	$GPGGA,220817,2457.4881,N,08019.5232,W,1,8,1.5,20,M,,M,,*57
06/20/2015	22:08:17.559	$GPGGA,220818,2457.4877,N,08019.5240,W,1,8,2.7,20,M,,M,,*55
06/20/2015	22:08:18.559	$GPGGA,220819,2457.4873,N,08019.5245,W,1,8,1.5,20,M,,M,,*54
06/20/2015	22:08:19.581	$GPGGA,220820,2457.4874,N,08019.5249,W,1,8,1.5,20,M,,M,,*55
06/20/2015	22:08:20.559	$GPGGA,220821,2457.4875,N,08019.5253,W,1,8,1.8,20,M,,M,,*53
06/20/2015	22:08:21.560	$GPGGA,220822,2457.4874,N,08019.5257,W,1,7,1.5,20,M,,M,,*57
06/20/2015	22:08:22.574	$GPGGA,220823,2457.4873,N,08019.5261,W,1,7,1.5,20,M,,M,,*54
06/20/2015	22:08:23.572	$GPGGA,220824,2457.4872,N,08019.5264,W,1,8,1.5,20,M,,M,,*58
06/20/2015	22:08:24.540	$GPGGA,220825,2457.4872,N,08019.5264,W,1,8,1.5,20,M,,M,,*59
06/20/2015	22:08:25.572	$GPGGA,220826,2457.4870,N,08019.5271,W,1,8,1.8,19,M,,M,,*5B
06/20/2015	22:08:26.530	$GPGGA,220827,2457.4870,N,08019.5271,W,1,8,1.8,19,M,,M,,*5A
06/20/2015	22:08:27.574	$GPGGA,220828,2457.4866,N,08019.5278,W,1,8,1.5,19,M,,M,,*56
06/20/2015	22:08:28.550	$GPGGA,220829,2457.4865,N,08019.5282,W,1,8,1.5,19,M,,M,,*51
06/20/2015	22:08:29.560	$GPGGA,220830,2457.4863,N,08019.5285,W,1,9,1.5,19,M,,M,,*59
06/20/2015	22:08:30.550	$GPGGA,220831,2457.4863,N,08019.5285,W,1,9,1.5,19,M,,M,,*58
06/20/2015	22:08:31.660	$GPGGA,220832,2457.4861,N,08019.5292,W,1,7,1.7,19,M,,M,,*53
06/20/2015	22:08:32.540	$GPGGA,220833,2457.4861,N,08019.5292,W,1,7,1.8,19,M,,M,,*5D
06/20/2015	22:08:33.540	$GPGGA,220834,2457.4858,N,08019.5294,W,1,8,1.5,19,M,,M,,*54
06/20/2015	22:08:34.530	$GPGGA,220835,2457.4856,N,08019.5297,W,1,8,1.5,19,M,,M,,*58
06/20/2015	22:08:35.649	$GPGGA,220836,2457.4852,N,08019.5305,W,1,8,1.5,19,M,,M,,*55
06/20/2015	22:08:36.899	$GPGGA,220837,2457.4852,N,08019.5305,W,1,8,1.5,19,M,,M,,*54
06/20/2015	22:08:37.609	$GPGGA,220838,2457.4850,N,08019.5311,W,1,8,1.5,19,M,,M,,*5C
06/20/2015	22:08:38.499	$GPGGA,220839,2457.4850,N,08019.5311,W,1,8,1.8,19,M,,M,,*50
06/20/2015	22:08:39.610	$GPGGA,220840,2457.4848,N,08019.5318,W,1,9,1.5,19,M,,M,,*52
06/20/2015	22:08:40.530	$GPGGA,220841,2457.4848,N,08019.5318,W,1,9,1.5,19,M,,M,,*53
06/20/2015	22:08:41.610	$GPGGA,220842,2457.4846,N,08019.5325,W,1,9,1.5,19,M,,M,,*50
06/20/2015	22:08:42.610	$GPGGA,220843,2457.4846,N,08019.5329,W,1,9,1.5,19,M,,M,,*5D
06/20/2015	22:08:43.630	$GPGGA,220844,2457.4845,N,08019.5332,W,1,8,1.5,19,M,,M,,*52
06/20/2015	22:08:44.560	$GPGGA,220845,2457.4843,N,08019.5336,W,1,8,1.5,19,M,,M,,*51
06/20/2015	22:08:45.610	$GPGGA,220846,2457.4843,N,08019.5340,W,1,8,1.5,19,M,,M,,*53
06/20/2015	22:08:46.610	$GPGGA,220847,2457.4840,N,08019.5343,W,1,8,1.6,19,M,,M,,*51
06/20/2015	22:08:47.610	$GPGGA,220848,2457.4837,N,08019.5344,W,1,8,1.5,19,M,,M,,*5A
06/20/2015	22:08:48.576	$GPGGA,220849,2457.4836,N,08019.5347,W,1,8,1.5,19,M,,M,,*59
06/20/2015	22:08:49.610	$GPGGA,220850,2457.4836,N,08019.5350,W,1,8,1.5,19,M,,M,,*57
06/20/2015	22:08:50.573	$GPGGA,220851,2457.4834,N,08019.5352,W,1,8,1.5,19,M,,M,,*56
06/20/2015	22:08:51.600	$GPGGA,220852,2457.4832,N,08019.5355,W,1,9,1.5,19,M,,M,,*55
06/20/2015	22:08:52.582	$GPGGA,220853,2457.4830,N,08019.5358,W,1,9,1.5,19,M,,M,,*5B
06/20/2015	22:08:53.569	$GPGGA,220854,2457.4829,N,08019.5362,W,1,8,1.5,19,M,,M,,*5C
06/20/2015	22:08:54.571	$GPGGA,220855,2457.4828,N,08019.5365,W,1,8,1.5,19,M,,M,,*5B
06/20/2015	22:08:55.599	$GPGGA,220856,2457.4826,N,08019.5366,W,1,8,1.6,18,M,,M,,*57
06/20/2015	22:08:56.560	$GPGGA,220857,2457.4825,N,08019.5372,W,1,8,1.7,18,M,,M,,*51
06/20/2015	22:08:57.576	$GPGGA,220858,2457.4820,N,08019.5376,W,1,6,2.7,18,M,,M,,*52
06/20/2015	22:08:58.560	$GPGGA,220859,2457.4818,N,08019.5379,W,1,6,1.5,18,M,,M,,*56
06/20/2015	22:08:59.610	$GPGGA,220900,2457.4818,N,08019.5380,W,1,8,1.5,18,M,,M,,*53
06/20/2015	22:09:00.560	$GPGGA,220901,2457.4815,N,08019.5381,W,1,8,1.5,18,M,,M,,*5E
06/20/2015	22:09:01.574	$GPGGA,220902,2457.4814,N,08019.5383,W,1,8,1.5,18,M,,M,,*5E
06/20/2015	22:09:02.550	$GPGGA,220903,2457.4812,N,08019.5387,W,1,8,1.5,18,M,,M,,*5D
06/20/2015	22:09:03.560	$GPGGA,220904,2457.4811,N,08019.5390,W,1,8,1.5,18,M,,M,,*5F
06/20/2015	22:09:04.550	$GPGGA,220905,2457.4809,N,08019.5394,W,1,8,1.5,18,M,,M,,*53
06/20/2015	22:09:05.573	$GPGGA,220906,2457.4807,N,08019.5395,W,1,8,1.6,18,M,,M,,*5C
06/20/2015	22:09:06.540	$GPGGA,220907,2457.4807,N,08019.5401,W,1,8,1.5,18,M,,M,,*54
06/20/2015	22:09:07.560	$GPGGA,220908,2457.4809,N,08019.5402,W,1,7,1.7,18,M,,M,,*5B
06/20/2015	22:09:08.530	$GPGGA,220909,2457.4807,N,08019.5405,W,1,7,1.6,18,M,,M,,*52
06/20/2015	22:09:09.520	$GPGGA,220910,2457.4805,N,08019.5408,W,1,8,1.6,18,M,,M,,*5A
06/20/2015	22:09:10.529	$GPGGA,220911,2457.4804,N,08019.5412,W,1,8,1.5,18,M,,M,,*52
06/20/2015	22:09:11.569	$GPGGA,220912,2457.4803,N,08019.5415,W,1,8,1.5,18,M,,M,,*51
06/20/2015	22:09:12.519	$GPGGA,220913,2457.4801,N,08019.5415,W,1,8,1.5,18,M,,M,,*52
06/20/2015	22:09:13.539	$GPGGA,220914,2457.4803,N,08019.5417,W,1,9,1.5,18,M,,M,,*54
06/20/2015	22:09:15.578	$GPGGA,220916,2457.4800,N,08019.5421,W,1,9,1.5,18,M,,M,,*50
06/20/2015	22:09:16.629	$GPGGA,220917,2457.4799,N,08019.5424,W,1,9,1.5,18,M,,M,,*5B
06/20/2015	22:09:17.519	$GPGGA,220918,2457.4799,N,08019.5427,W,1,9,1.5,18,M,,M,,*57
06/20/2015	22:09:18.519	$GPGGA,220919,2457.4798,N,08019.5430,W,1,9,1.5,18,M,,M,,*51
06/20/2015	22:09:19.519	$GPGGA,220920,2457.4797,N,08019.5430,W,1,9,1.5,18,M,,M,,*54
06/20/2015	22:09:20.499	$GPGGA,220921,2457.4799,N,08019.5434,W,1,9,1.5,18,M,,M,,*5F
06/20/2015	22:09:21.509	$GPGGA,220922,2457.4798,N,08019.5438,W,1,8,1.6,18,M,,M,,*53
06/20/2015	22:09:22.489	$GPGGA,220923,2457.4793,N,08019.5439,W,1,8,1.5,18,M,,M,,*5B
06/20/2015	22:09:23.519	$GPGGA,220924,2457.4789,N,08019.5441,W,1,9,1.5,18,M,,M,,*59
06/20/2015	22:09:24.500	$GPGGA,220925,2457.4787,N,08019.5444,W,1,9,1.5,18,M,,M,,*53
06/20/2015	22:09:25.590	$GPGGA,220926,2457.4783,N,08019.5444,W,1,9,1.5,18,M,,M,,*54
06/20/2015	22:09:26.580	$GPGGA,220927,2457.4780,N,08019.5446,W,1,9,1.5,18,M,,M,,*54
06/20/2015	22:09:27.539	$GPGGA,220928,2457.4779,N,08019.5452,W,1,9,1.5,18,M,,M,,*58
06/20/2015	22:09:28.499	$GPGGA,220929,2457.4778,N,08019.5455,W,1,9,1.5,17,M,,M,,*50
06/20/2015	22:09:29.589	$GPGGA,220930,2457.4775,N,08019.5455,W,1,9,1.5,17,M,,M,,*55
06/20/2015	22:09:30.499	$GPGGA,220931,2457.4776,N,08019.5459,W,1,9,1.5,17,M,,M,,*5B
06/20/2015	22:09:31.609	$GPGGA,220932,2457.4774,N,08019.5462,W,1,9,1.5,17,M,,M,,*52
06/20/2015	22:09:32.499	$GPGGA,220933,2457.4774,N,08019.5464,W,1,9,1.5,17,M,,M,,*55
06/20/2015	22:09:33.479	$GPGGA,220934,2457.4773,N,08019.5467,W,1,9,1.5,17,M,,M,,*56
06/20/2015	22:09:34.578	$GPGGA,220935,2457.4774,N,08019.5471,W,1,9,1.5,17,M,,M,,*57
06/20/2015	22:09:35.499	$GPGGA,220936,2457.4774,N,08019.5475,W,1,9,1.5,17,M,,M,,*50
06/20/2015	22:09:36.569	$GPGGA,220937,2457.4773,N,08019.5477,W,1,9,1.6,17,M,,M,,*57
06/20/2015	22:09:37.564	$GPGGA,220938,2457.4771,N,08019.5480,W,1,8,1.5,17,M,,M,,*50
06/20/2015	22:09:38.561	$GPGGA,220939,2457.4774,N,08019.5484,W,1,8,1.5,17,M,,M,,*50
06/20/2015	22:09:39.579	$GPGGA,220940,2457.4773,N,08019.5488,W,1,8,1.6,17,M,,M,,*56
06/20/2015	22:09:40.549	$GPGGA,220941,2457.4772,N,08019.5489,W,1,8,1.5,17,M,,M,,*54
06/20/2015	22:09:41.570	$GPGGA,220942,2457.4771,N,08019.5491,W,1,8,1.5,17,M,,M,,*5D
06/20/2015	22:09:42.560	$GPGGA,220943,2457.4771,N,08019.5495,W,1,8,1.5,17,M,,M,,*58
06/20/2015	22:09:43.576	$GPGGA,220944,2457.4765,N,08019.5496,W,1,8,1.5,17,M,,M,,*59
06/20/2015	22:09:44.565	$GPGGA,220945,2457.4762,N,08019.5498,W,1,8,1.6,17,M,,M,,*52
06/20/2015	22:09:45.575	$GPGGA,220946,2457.4761,N,08019.5500,W,1,8,1.5,17,M,,M,,*51
06/20/2015	22:09:46.549	$GPGGA,220947,2457.4760,N,08019.5503,W,1,8,1.5,17,M,,M,,*52
06/20/2015	22:09:47.585	$GPGGA,220948,2457.4760,N,08019.5507,W,1,8,1.5,17,M,,M,,*59
06/20/2015	22:09:48.539	$GPGGA,220949,2457.4760,N,08019.5509,W,1,8,1.5,17,M,,M,,*56
06/20/2015	22:09:49.573	$GPGGA,220950,2457.4757,N,08019.5513,W,1,7,1.7,17,M,,M,,*5C
06/20/2015	22:09:50.529	$GPGGA,220951,2457.4756,N,08019.5516,W,1,7,1.5,17,M,,M,,*5B
06/20/2015	22:09:51.574	$GPGGA,220952,2457.4755,N,08019.5520,W,1,9,1.5,17,M,,M,,*50
06/20/2015	22:09:52.539	$GPGGA,220953,2457.4754,N,08019.5522,W,1,9,1.5,17,M,,M,,*52
06/20/2015	22:09:53.529	$GPGGA,220954,2457.4751,N,08019.5524,W,1,8,1.6,17,M,,M,,*54
06/20/2015	22:09:54.539	$GPGGA,220955,2457.4749,N,08019.5527,W,1,8,1.5,17,M,,M,,*5C
06/20/2015	22:09:55.573	$GPGGA,220956,2457.4749,N,08019.5531,W,1,9,1.5,17,M,,M,,*59
06/20/2015	22:09:56.529	$GPGGA,220957,2457.4747,N,08019.5532,W,1,9,1.5,17,M,,M,,*55
06/20/2015	22:09:57.567	$GPGGA,220958,2457.4743,N,08019.5533,W,1,7,1.8,17,M,,M,,*5C
06/20/2015	22:09:58.529	$GPGGA,220959,2457.4742,N,08019.5538,W,1,7,1.5,17,M,,M,,*5A
06/20/2015	22:09:59.600	$GPGGA,221000,2457.4740,N,08019.5539,W,1,9,1.5,17,M,,M,,*53
06/20/2015	22:10:00.510	$GPGGA,221001,2457.4739,N,08019.5542,W,1,9,1.5,17,M,,M,,*50
06/20/2015	22:10:01.530	$GPGGA,221002,2457.4738,N,08019.5545,W,1,9,1.5,17,M,,M,,*55
06/20/2015	22:10:02.509	$GPGGA,221003,2457.4736,N,08019.5546,W,1,9,1.5,17,M,,M,,*59
06/20/2015	22:10:03.569	$GPGGA,221004,2457.4735,N,08019.5549,W,1,9,1.5,17,M,,M,,*52
06/20/2015	22:10:04.509	$GPGGA,221005,2457.4735,N,08019.5553,W,1,9,1.5,17,M,,M,,*58
06/20/2015	22:10:05.509	$GPGGA,221006,2457.4734,N,08019.5554,W,1,8,1.7,17,M,,M,,*5E
06/20/2015	22:10:06.499	$GPGGA,221007,2457.4733,N,08019.5556,W,1,8,1.7,17,M,,M,,*5A
06/20/2015	22:10:07.509	$GPGGA,221008,2457.4732,N,08019.5560,W,1,9,1.5,17,M,,M,,*52
06/20/2015	22:10:08.509	$GPGGA,221009,2457.4733,N,08019.5563,W,1,9,1.5,17,M,,M,,*51
06/20/2015	22:10:09.619	$GPGGA,221010,2457.4729,N,08019.5564,W,1,7,1.8,17,M,,M,,*56
06/20/2015	22:10:10.509	$GPGGA,221011,2457.4728,N,08019.5568,W,1,7,1.5,17,M,,M,,*57
06/20/2015	22:10:11.549	$GPGGA,221012,2457.4726,N,08019.5571,W,1,9,1.5,17,M,,M,,*5C
06/20/2015	22:10:12.499	$GPGGA,221013,2457.4727,N,08019.5572,W,1,9,1.8,17,M,,M,,*52
06/20/2015	22:10:13.609	$GPGGA,221014,2457.4725,N,08019.5575,W,1,8,1.7,17,M,,M,,*5E
06/20/2015	22:10:14.509	$GPGGA,221015,2457.4724,N,08019.5578,W,1,8,1.5,17,M,,M,,*51
06/20/2015	22:10:15.599	$GPGGA,221016,2457.4722,N,08019.5579,W,1,8,1.5,17,M,,M,,*55
06/20/2015	22:10:16.500	$GPGGA,221017,2457.4720,N,08019.5582,W,1,8,1.5,17,M,,M,,*52
06/20/2015	22:10:17.500	$GPGGA,221018,2457.4722,N,08019.5585,W,1,8,1.5,17,M,,M,,*58
06/20/2015	22:10:18.580	$GPGGA,221019,2457.4718,N,08019.5587,W,1,8,1.5,17,M,,M,,*52
06/20/2015	22:10:19.590	$GPGGA,221020,2457.4714,N,08019.5589,W,1,8,1.5,17,M,,M,,*5A
06/20/2015	22:10:20.570	$GPGGA,221021,2457.4713,N,08019.5592,W,1,8,1.5,17,M,,M,,*56
06/20/2015	22:10:21.579	$GPGGA,221022,2457.4713,N,08019.5597,W,1,8,1.5,17,M,,M,,*50
06/20/2015	22:10:22.489	$GPGGA,221023,2457.4710,N,08019.5600,W,1,8,1.5,17,M,,M,,*5F
06/20/2015	22:10:23.579	$GPGGA,221024,2457.4706,N,08019.5601,W,1,7,1.8,17,M,,M,,*5C
06/20/2015	22:10:24.599	$GPGGA,221025,2457.4704,N,08019.5604,W,1,7,1.5,17,M,,M,,*57
06/20/2015	22:10:25.559	$GPGGA,221026,2457.4703,N,08019.5607,W,1,9,1.5,17,M,,M,,*5E
06/20/2015	22:10:26.559	$GPGGA,221027,2457.4702,N,08019.5610,W,1,9,1.5,17,M,,M,,*58
06/20/2015	22:10:27.589	$GPGGA,221028,2457.4700,N,08019.5611,W,1,8,1.5,17,M,,M,,*55
06/20/2015	22:10:28.570	$GPGGA,221029,2457.4699,N,08019.5614,W,1,8,1.5,17,M,,M,,*50
06/20/2015	22:10:29.599	$GPGGA,221030,2457.4699,N,08019.5618,W,1,9,1.5,17,M,,M,,*55
06/20/2015	22:10:30.565	$GPGGA,221031,2457.4698,N,08019.5619,W,1,9,1.5,17,M,,M,,*54
06/20/2015	22:10:31.579	$GPGGA,221032,2457.4697,N,08019.5621,W,1,9,1.5,17,M,,M,,*53
06/20/2015	22:10:32.559	$GPGGA,221033,2457.4696,N,08019.5623,W,1,9,1.5,17,M,,M,,*51
06/20/2015	22:10:33.570	$GPGGA,221034,2457.4698,N,08019.5626,W,1,9,1.5,17,M,,M,,*5D
06/20/2015	22:10:34.550	$GPGGA,221035,2457.4695,N,08019.5628,W,1,9,1.5,17,M,,M,,*5F
06/20/2015	22:10:35.562	$GPGGA,221036,2457.4691,N,08019.5629,W,1,9,1.5,17,M,,M,,*59
06/20/2015	22:10:36.561	$GPGGA,221037,2457.4689,N,08019.5634,W,1,9,1.6,17,M,,M,,*5E
06/20/2015	22:10:37.539	$GPGGA,221038,2457.4690,N,08019.5636,W,1,8,1.5,17,M,,M,,*59
06/20/2015	22:10:38.549	$GPGGA,221039,2457.4688,N,08019.5639,W,1,8,1.5,17,M,,M,,*5E
06/20/2015	22:10:39.569	$GPGGA,221040,2457.4684,N,08019.5640,W,1,8,1.5,17,M,,M,,*52
06/20/2015	22:10:40.539	$GPGGA,221041,2457.4681,N,08019.5643,W,1,8,1.5,17,M,,M,,*55
06/20/2015	22:10:41.549	$GPGGA,221042,2457.4679,N,08019.5643,W,1,7,1.6,17,M,,M,,*5D
06/20/2015	22:10:42.529	$GPGGA,221043,2457.4677,N,08019.5647,W,1,7,1.5,17,M,,M,,*55
06/20/2015	22:10:43.569	$GPGGA,221044,2457.4677,N,08019.5646,W,1,7,1.6,17,M,,M,,*50
06/20/2015	22:10:44.529	$GPGGA,221045,2457.4677,N,08019.5647,W,1,7,1.5,17,M,,M,,*53
06/20/2015	22:10:45.559	$GPGGA,221046,2457.4677,N,08019.5650,W,1,9,1.5,17,M,,M,,*58
06/20/2015	22:10:46.529	$GPGGA,221047,2457.4675,N,08019.5654,W,1,9,1.5,17,M,,M,,*5F
06/20/2015	22:10:47.562	$GPGGA,221048,2457.4673,N,08019.5655,W,1,8,1.5,17,M,,M,,*56
06/20/2015	22:10:48.529	$GPGGA,221049,2457.4670,N,08019.5658,W,1,8,1.5,17,M,,M,,*59
06/20/2015	22:10:49.539	$GPGGA,221050,2457.4670,N,08019.5661,W,1,7,1.6,16,M,,M,,*56
06/20/2015	22:10:50.529	$GPGGA,221051,2457.4670,N,08019.5663,W,1,7,1.7,16,M,,M,,*54
06/20/2015	22:10:51.550	$GPGGA,221052,2457.4668,N,08019.5665,W,1,8,1.5,16,M,,M,,*55
06/20/2015	22:10:52.520	$GPGGA,221053,2457.4666,N,08019.5666,W,1,8,2.3,16,M,,M,,*5C
06/20/2015	22:10:53.620	$GPGGA,221054,2457.4666,N,08019.5668,W,1,8,1.5,16,M,,M,,*50
06/20/2015	22:10:54.500	$GPGGA,221055,2457.4663,N,08019.5668,W,1,8,1.5,16,M,,M,,*54
06/20/2015	22:10:55.509	$GPGGA,221056,2457.4664,N,08019.5672,W,1,8,1.5,17,M,,M,,*5A
06/20/2015	22:10:56.509	$GPGGA,221057,2457.4661,N,08019.5675,W,1,8,1.8,17,M,,M,,*54
06/20/2015	22:10:57.499	$GPGGA,221058,2457.4657,N,08019.5674,W,1,6,2.3,17,M,,M,,*59
06/20/2015	22:10:58.609	$GPGGA,221059,2457.4655,N,08019.5676,W,1,6,1.6,17,M,,M,,*5E
06/20/2015	22:10:59.519	$GPGGA,221100,2457.4655,N,08019.5679,W,1,8,1.5,17,M,,M,,*51
06/20/2015	22:11:00.609	$GPGGA,221101,2457.4655,N,08019.5681,W,1,8,2.2,17,M,,M,,*53
06/20/2015	22:11:01.509	$GPGGA,221102,2457.4652,N,08019.5683,W,1,7,1.8,17,M,,M,,*53
06/20/2015	22:11:02.499	$GPGGA,221103,2457.4654,N,08019.5686,W,1,7,1.5,17,M,,M,,*5C
06/20/2015	22:11:03.519	$GPGGA,221104,2457.4650,N,08019.5686,W,1,8,1.5,17,M,,M,,*50
06/20/2015	22:11:04.599	$GPGGA,221105,2457.4646,N,08019.5687,W,1,8,1.6,17,M,,M,,*54
06/20/2015	22:11:05.499	$GPGGA,221106,2457.4642,N,08019.5690,W,1,7,1.6,17,M,,M,,*5A
06/20/2015	22:11:06.489	$GPGGA,221107,2457.4641,N,08019.5691,W,1,7,1.5,18,M,,M,,*55
06/20/2015	22:11:07.599	$GPGGA,221108,2457.4641,N,08019.5693,W,1,7,1.6,18,M,,M,,*5B
06/20/2015	22:11:08.599	$GPGGA,221109,2457.4637,N,08019.5694,W,1,7,1.5,18,M,,M,,*5F
06/20/2015	22:11:09.490	$GPGGA,221110,2457.4635,N,08019.5697,W,1,7,1.6,18,M,,M,,*55
06/20/2015	22:11:10.563	$GPGGA,221111,2457.4634,N,08019.5701,W,1,7,1.6,18,M,,M,,*5B
06/20/2015	22:11:11.610	$GPGGA,221112,2457.4631,N,08019.5704,W,1,8,1.5,18,M,,M,,*54
06/20/2015	22:11:12.569	$GPGGA,221113,2457.4628,N,08019.5705,W,1,8,1.5,18,M,,M,,*5C
06/20/2015	22:11:13.559	$GPGGA,221114,2457.4626,N,08019.5708,W,1,8,1.5,18,M,,M,,*58
06/20/2015	22:11:14.561	$GPGGA,221115,2457.4626,N,08019.5712,W,1,8,1.5,18,M,,M,,*52
06/20/2015	22:11:15.619	$GPGGA,221116,2457.4622,N,08019.5715,W,1,9,1.5,18,M,,M,,*53
06/20/2015	22:11:16.560	$GPGGA,221117,2457.4621,N,08019.5716,W,1,9,1.5,18,M,,M,,*52
06/20/2015	22:11:17.579	$GPGGA,221118,2457.4620,N,08019.5719,W,1,9,1.5,18,M,,M,,*53
06/20/2015	22:11:18.569	$GPGGA,221119,2457.4621,N,08019.5723,W,1,9,1.5,19,M,,M,,*5B
06/20/2015	22:11:19.609	$GPGGA,221120,2457.4619,N,08019.5726,W,1,9,1.5,19,M,,M,,*5F
06/20/2015	22:11:20.549	$GPGGA,221121,2457.4619,N,08019.5727,W,1,9,1.5,19,M,,M,,*5F
06/20/2015	22:11:21.562	$GPGGA,221122,2457.4617,N,08019.5730,W,1,9,1.5,19,M,,M,,*54
06/20/2015	22:11:22.549	$GPGGA,221123,2457.4616,N,08019.5733,W,1,9,1.5,19,M,,M,,*57
06/20/2015	22:11:23.579	$GPGGA,221124,2457.4615,N,08019.5734,W,1,9,1.5,19,M,,M,,*54
06/20/2015	22:11:24.539	$GPGGA,221125,2457.4613,N,08019.5737,W,1,9,1.5,19,M,,M,,*50
06/20/2015	22:11:25.569	$GPGGA,221126,2457.4612,N,08019.5740,W,1,9,1.5,19,M,,M,,*52
06/20/2015	22:11:26.540	$GPGGA,221127,2457.4612,N,08019.5742,W,1,9,1.5,19,M,,M,,*51
06/20/2015	22:11:27.580	$GPGGA,221128,2457.4610,N,08019.5744,W,1,8,1.5,19,M,,M,,*5B
06/20/2015	22:11:28.540	$GPGGA,221129,2457.4609,N,08019.5745,W,1,8,1.5,19,M,,M,,*53
06/20/2015	22:11:29.550	$GPGGA,221130,2457.4610,N,08019.5749,W,1,9,1.5,19,M,,M,,*5E
06/20/2015	22:11:30.529	$GPGGA,221131,2457.4609,N,08019.5752,W,1,9,1.5,19,M,,M,,*5D
06/20/2015	22:11:31.539	$GPGGA,221132,2457.4608,N,08019.5753,W,1,8,1.5,19,M,,M,,*5F
06/20/2015	22:11:32.529	$GPGGA,221133,2457.4604,N,08019.5755,W,1,8,1.5,19,M,,M,,*54
06/20/2015	22:11:33.519	$GPGGA,221134,2457.4603,N,08019.5759,W,1,9,1.5,19,M,,M,,*59
06/20/2015	22:11:34.529	$GPGGA,221135,2457.4602,N,08019.5762,W,1,9,1.5,19,M,,M,,*51
06/20/2015	22:11:35.563	$GPGGA,221136,2457.4598,N,08019.5761,W,1,7,1.8,19,M,,M,,*52
06/20/2015	22:11:36.519	$GPGGA,221137,2457.4597,N,08019.5764,W,1,7,1.5,19,M,,M,,*54
06/20/2015	22:11:37.663	$GPGGA,221138,2457.4597,N,08019.5769,W,1,9,1.5,19,M,,M,,*58
06/20/2015	22:11:38.519	$GPGGA,221139,2457.4595,N,08019.5770,W,1,9,1.5,19,M,,M,,*53
06/20/2015	22:11:39.569	$GPGGA,221140,2457.4594,N,08019.5773,W,1,7,1.8,19,M,,M,,*5C
06/20/2015	22:11:40.629	$GPGGA,221141,2457.4591,N,08019.5774,W,1,7,1.5,19,M,,M,,*52
06/20/2015	22:11:41.639	$GPGGA,221142,2457.4593,N,08019.5777,W,1,9,1.5,19,M,,M,,*5E
06/20/2015	22:11:42.519	$GPGGA,221143,2457.4591,N,08019.5780,W,1,9,1.5,19,M,,M,,*55
06/20/2015	22:11:43.529	$GPGGA,221144,2457.4592,N,08019.5784,W,1,9,1.5,19,M,,M,,*55
06/20/2015	22:11:44.500	$GPGGA,221145,2457.4590,N,08019.5785,W,1,9,1.5,19,M,,M,,*57
06/20/2015	22:11:45.520	$GPGGA,221146,2457.4587,N,08019.5788,W,1,9,1.5,19,M,,M,,*5F
06/20/2015	22:11:46.500	$GPGGA,221147,2457.4589,N,08019.5792,W,1,9,1.5,19,M,,M,,*5B
06/20/2015	22:11:47.660	$GPGGA,221148,2457.4586,N,08019.5795,W,1,9,1.8,19,M,,M,,*51
06/20/2015	22:11:48.509	$GPGGA,221149,2457.4583,N,08019.5796,W,1,9,1.8,19,M,,M,,*56
06/20/2015	22:11:49.629	$GPGGA,221150,2457.4581,N,08019.5798,W,1,9,1.5,19,M,,M,,*5F
06/20/2015	22:11:50.499	$GPGGA,221151,2457.4582,N,08019.5802,W,1,9,1.5,19,M,,M,,*51
