Software Version Number: 1	Data File Format Number: 1	Build Version Number: 1	Error Count Since VI Started: 3	Manufacturer: Raytheon	 Model Number: RayMarine 120	 S/N: 	 Cal Date: 	 Wind Direction Offset: 0.00	 Slope (M)1: 0.00	 Offset (B)1: 0.00	 Slope (M)2: 0.00	 Offset (B)2: 0.00	 Slope (M)3: 0.00	 Offset (B)3: 0.00	 Slope (M)4: 0.00	 Offset (B)4: 0.00	 Slope (M)5: 0.00	 Offset (B)5: 0.00	 Slope (M)6: 0.00	 Offset (B)6: 0.00
Computer Date	Computer Time	GGA String
06/23/2015	17:00:00.521	$GPGGA,170001,2543.8843,N,08009.7272,W,1,11,1.4,10,M,,M,,*65
06/23/2015	17:00:01.550	$GPGGA,170002,2543.8844,N,08009.7272,W,1,11,1.4,10,M,,M,,*61
06/23/2015	17:00:02.526	$GPGGA,170003,2543.8845,N,08009.7272,W,1,11,1.4,10,M,,M,,*61
06/23/2015	17:00:03.559	$GPGGA,170004,2543.8844,N,08009.7273,W,1,11,1.4,10,M,,M,,*66
06/23/2015	17:00:04.529	$GPGGA,170005,2543.8845,N,08009.7273,W,1,11,1.4,10,M,,M,,*66
06/23/2015	17:00:05.539	$GPGGA,170006,2543.8844,N,08009.7273,W,1,11,1.4,10,M,,M,,*64
06/23/2015	17:00:06.529	$GPGGA,170007,2543.8845,N,08009.7273,W,1,11,1.4,10,M,,M,,*64
06/23/2015	17:00:07.710	$GPGGA,170008,2543.8844,N,08009.7272,W,1,11,1.4,10,M,,M,,*6B
06/23/2015	17:00:08.539	$GPGGA,170009,2543.8845,N,08009.7272,W,1,11,1.4,10,M,,M,,*6B
06/23/2015	17:00:09.709	$GPGGA,170010,2543.8844,N,08009.7272,W,1,11,1.4,10,M,,M,,*62
06/23/2015	17:00:11.039	$GPGGA,170011,2543.8845,N,08009.7272,W,1,11,1.4,10,M,,M,,*62
06/23/2015	17:00:11.702	$GPGGA,170012,2543.8844,N,08009.7272,W,1,11,1.4,10,M,,M,,*60
06/23/2015	17:00:12.629	$GPGGA,170013,2543.8845,N,08009.7273,W,1,11,1.4,10,M,,M,,*61
06/23/2015	17:00:13.702	$GPGGA,170014,2543.8844,N,08009.7273,W,1,11,1.4,10,M,,M,,*67
06/23/2015	17:00:14.649	$GPGGA,170015,2543.8845,N,08009.7272,W,1,11,1.4,10,M,,M,,*66
06/23/2015	17:00:15.689	$GPGGA,170016,2543.8844,N,08009.7272,W,1,11,1.4,10,M,,M,,*64
06/23/2015	17:00:16.619	$GPGGA,170017,2543.8845,N,08009.7272,W,1,11,1.4,10,M,,M,,*64
06/23/2015	17:00:17.679	$GPGGA,170018,2543.8846,N,08009.7272,W,1,11,1.4,10,M,,M,,*68
06/23/2015	17:00:18.629	$GPGGA,170019,2543.8846,N,08009.7271,W,1,11,1.4,10,M,,M,,*6A
06/23/2015	17:00:19.709	$GPGGA,170020,2543.8846,N,08009.7272,W,1,11,1.4,10,M,,M,,*63
06/23/2015	17:00:20.602	$GPGGA,170021,2543.8846,N,08009.7271,W,1,11,1.4,10,M,,M,,*61
06/23/2015	17:00:21.658	$GPGGA,170022,2543.8846,N,08009.7272,W,1,11,1.4,10,M,,M,,*61
06/23/2015	17:00:22.578	$GPGGA,170023,2543.8846,N,08009.7271,W,1,11,1.4,10,M,,M,,*63
06/23/2015	17:00:23.688	$GPGGA,170024,2543.8848,N,08009.7272,W,1,11,1.4,10,M,,M,,*69
06/23/2015	17:00:24.611	$GPGGA,170025,2543.8847,N,08009.7271,W,1,11,1.4,10,M,,M,,*64
06/23/2015	17:00:25.628	$GPGGA,170026,2543.8848,N,08009.7272,W,1,11,1.4,10,M,,M,,*6B
06/23/2015	17:00:26.588	$GPGGA,170027,2543.8849,N,08009.7272,W,1,11,1.4,10,M,,M,,*6B
06/23/2015	17:00:27.688	$GPGGA,170028,2543.8848,N,08009.7272,W,1,11,1.4,11,M,,M,,*64
06/23/2015	17:00:28.589	$GPGGA,170029,2543.8849,N,08009.7272,W,1,11,1.4,11,M,,M,,*64
06/23/2015	17:00:29.559	$GPGGA,170030,2543.8848,N,08009.7272,W,1,11,1.4,11,M,,M,,*6D
06/23/2015	17:00:30.549	$GPGGA,170031,2543.8849,N,08009.7272,W,1,11,1.4,11,M,,M,,*6D
06/23/2015	17:00:31.679	$GPGGA,170032,2543.8848,N,08009.7272,W,1,11,1.4,11,M,,M,,*6F
06/23/2015	17:00:32.589	$GPGGA,170033,2543.8849,N,08009.7272,W,1,11,1.4,11,M,,M,,*6F
06/23/2015	17:00:33.559	$GPGGA,170034,2543.8848,N,08009.7272,W,1,11,1.4,11,M,,M,,*69
06/23/2015	17:00:34.539	$GPGGA,170035,2543.8849,N,08009.7272,W,1,11,1.5,11,M,,M,,*68
06/23/2015	17:00:35.669	$GPGGA,170036,2543.8847,N,08009.7271,W,1,11,1.5,11,M,,M,,*66
06/23/2015	17:00:36.539	$GPGGA,170037,2543.8848,N,08009.7272,W,1,11,1.5,11,M,,M,,*6B
06/23/2015	17:00:37.639	$GPGGA,170038,2543.8847,N,08009.7272,W,1,11,1.5,11,M,,M,,*6B
06/23/2015	17:00:38.578	$GPGGA,170039,2543.8848,N,08009.7271,W,1,11,1.5,11,M,,M,,*66
06/23/2015	17:00:39.668	$GPGGA,170040,2543.8846,N,08009.7272,W,1,11,1.5,11,M,,M,,*65
06/23/2015	17:00:40.528	$GPGGA,170041,2543.8846,N,08009.7271,W,1,11,1.5,11,M,,M,,*67
06/23/2015	17:00:41.648	$GPGGA,170042,2543.8846,N,08009.7272,W,1,11,1.5,11,M,,M,,*67
06/23/2015	17:00:42.538	$GPGGA,170043,2543.8846,N,08009.7271,W,1,11,1.5,11,M,,M,,*65
06/23/2015	17:00:43.638	$GPGGA,170044,2543.8846,N,08009.7272,W,1,11,1.5,11,M,,M,,*61
06/23/2015	17:00:44.568	$GPGGA,170045,2543.8846,N,08009.7270,W,1,11,1.5,11,M,,M,,*62
06/23/2015	17:00:45.629	$GPGGA,170046,2543.8846,N,08009.7272,W,1,11,1.5,11,M,,M,,*63
06/23/2015	17:00:46.519	$GPGGA,170047,2543.8846,N,08009.7270,W,1,11,1.5,11,M,,M,,*60
06/23/2015	17:00:47.619	$GPGGA,170048,2543.8846,N,08009.7272,W,1,11,1.5,11,M,,M,,*6D
06/23/2015	17:00:48.559	$GPGGA,170049,2543.8846,N,08009.7271,W,1,11,1.5,11,M,,M,,*6F
06/23/2015	17:00:49.620	$GPGGA,170050,2543.8846,N,08009.7270,W,1,11,1.5,11,M,,M,,*66
06/23/2015	17:00:50.569	$GPGGA,170051,2543.8846,N,08009.7270,W,1,11,1.5,11,M,,M,,*67
06/23/2015	17:00:51.659	$GPGGA,170052,2543.8846,N,08009.7270,W,1,11,1.5,11,M,,M,,*64
06/23/2015	17:00:52.559	$GPGGA,170053,2543.8846,N,08009.7270,W,1,11,1.5,11,M,,M,,*65
06/23/2015	17:00:53.649	$GPGGA,170054,2543.8848,N,08009.7270,W,1,11,1.5,11,M,,M,,*6C
06/23/2015	17:00:54.559	$GPGGA,170055,2543.8847,N,08009.7270,W,1,11,1.5,11,M,,M,,*62
06/23/2015	17:00:55.649	$GPGGA,170056,2543.8848,N,08009.7270,W,1,11,1.5,11,M,,M,,*6E
06/23/2015	17:00:56.612	$GPGGA,170057,2543.8847,N,08009.7270,W,1,11,1.5,11,M,,M,,*60
06/23/2015	17:00:57.638	$GPGGA,170058,2543.8849,N,08009.7269,W,1,11,1.5,11,M,,M,,*69
06/23/2015	17:00:58.598	$GPGGA,170059,2543.8848,N,08009.7270,W,1,11,1.5,11,M,,M,,*61
06/23/2015	17:00:59.628	$GPGGA,170100,2543.8849,N,08009.7270,W,1,11,1.5,11,M,,M,,*6D
06/23/2015	17:01:00.598	$GPGGA,170101,2543.8849,N,08009.7270,W,1,11,1.5,11,M,,M,,*6C
06/23/2015	17:01:01.601	$GPGGA,170102,2543.8849,N,08009.7270,W,1,11,1.5,11,M,,M,,*6F
06/23/2015	17:01:02.588	$GPGGA,170103,2543.8849,N,08009.7270,W,1,11,1.5,11,M,,M,,*6E
06/23/2015	17:01:03.629	$GPGGA,170104,2543.8849,N,08009.7270,W,1,11,1.5,11,M,,M,,*69
06/23/2015	17:01:04.590	$GPGGA,170105,2543.8849,N,08009.7270,W,1,11,1.5,11,M,,M,,*68
06/23/2015	17:01:05.629	$GPGGA,170106,2543.8849,N,08009.7269,W,1,11,1.5,11,M,,M,,*63
06/23/2015	17:01:06.579	$GPGGA,170107,2543.8849,N,08009.7269,W,1,11,1.5,11,M,,M,,*62
06/23/2015	17:01:07.629	$GPGGA,170108,2543.8849,N,08009.7269,W,1,11,1.5,11,M,,M,,*6D
06/23/2015	17:01:08.579	$GPGGA,170109,2543.8849,N,08009.7268,W,1,11,1.5,11,M,,M,,*6D
06/23/2015	17:01:09.649	$GPGGA,170110,2543.8848,N,08009.7269,W,1,11,1.5,11,M,,M,,*65
06/23/2015	17:01:10.579	$GPGGA,170111,2543.8849,N,08009.7267,W,1,11,1.5,11,M,,M,,*6B
06/23/2015	17:01:11.611	$GPGGA,170112,2543.8848,N,08009.7267,W,1,11,1.5,11,M,,M,,*69
06/23/2015	17:01:12.579	$GPGGA,170113,2543.8847,N,08009.7267,W,1,11,1.5,11,M,,M,,*67
06/23/2015	17:01:13.648	$GPGGA,170114,2543.8848,N,08009.7267,W,1,11,1.5,11,M,,M,,*6F
06/23/2015	17:01:14.568	$GPGGA,170115,2543.8847,N,08009.7266,W,1,11,1.5,11,M,,M,,*60
06/23/2015	17:01:15.648	$GPGGA,170116,2543.8846,N,08009.7266,W,1,11,1.5,11,M,,M,,*62
06/23/2015	17:01:16.578	$GPGGA,170117,2543.8846,N,08009.7266,W,1,11,1.5,11,M,,M,,*63
06/23/2015	17:01:17.588	$GPGGA,170118,2543.8846,N,08009.7266,W,1,11,1.5,11,M,,M,,*6C
06/23/2015	17:01:18.578	$GPGGA,170119,2543.8846,N,08009.7267,W,1,11,1.5,11,M,,M,,*6C
06/23/2015	17:01:19.615	$GPGGA,170120,2543.8846,N,08009.7267,W,1,11,1.5,11,M,,M,,*66
06/23/2015	17:01:20.559	$GPGGA,170121,2543.8846,N,08009.7267,W,1,11,1.7,11,M,,M,,*65
06/23/2015	17:01:21.559	$GPGGA,170122,2543.8846,N,08009.7267,W,1,10,1.7,11,M,,M,,*67
06/23/2015	17:01:22.549	$GPGGA,170123,2543.8846,N,08009.7270,W,1,10,1.5,11,M,,M,,*62
06/23/2015	17:01:23.589	$GPGGA,170124,2543.8846,N,08009.7270,W,1,11,1.5,11,M,,M,,*64
06/23/2015	17:01:24.549	$GPGGA,170125,2543.8844,N,08009.7273,W,1,11,1.7,11,M,,M,,*66
06/23/2015	17:01:25.589	$GPGGA,170126,2543.8846,N,08009.7270,W,1,10,1.5,11,M,,M,,*67
06/23/2015	17:01:26.549	$GPGGA,170127,2543.8846,N,08009.7269,W,1,10,1.5,11,M,,M,,*6E
06/23/2015	17:01:27.629	$GPGGA,170128,2543.8846,N,08009.7269,W,1,11,1.5,11,M,,M,,*60
06/23/2015	17:01:28.569	$GPGGA,170129,2543.8849,N,08009.7267,W,1,11,1.5,11,M,,M,,*60
06/23/2015	17:01:29.559	$GPGGA,170130,2543.8849,N,08009.7267,W,1,11,1.5,11,M,,M,,*68
06/23/2015	17:01:30.549	$GPGGA,170131,2543.8849,N,08009.7269,W,1,11,1.5,11,M,,M,,*67
06/23/2015	17:01:31.602	$GPGGA,170132,2543.8848,N,08009.7268,W,1,11,1.5,11,M,,M,,*64
06/23/2015	17:01:32.528	$GPGGA,170133,2543.8849,N,08009.7269,W,1,11,1.5,11,M,,M,,*65
06/23/2015	17:01:33.548	$GPGGA,170134,2543.8849,N,08009.7269,W,1,11,1.5,11,M,,M,,*62
06/23/2015	17:01:34.538	$GPGGA,170135,2543.8849,N,08009.7269,W,1,11,1.5,11,M,,M,,*63
06/23/2015	17:01:35.558	$GPGGA,170136,2543.8849,N,08009.7269,W,1,11,1.5,11,M,,M,,*60
06/23/2015	17:01:36.618	$GPGGA,170137,2543.8849,N,08009.7270,W,1,11,1.5,11,M,,M,,*69
06/23/2015	17:01:37.618	$GPGGA,170138,2543.8848,N,08009.7272,W,1,11,1.5,11,M,,M,,*65
06/23/2015	17:01:38.539	$GPGGA,170139,2543.8847,N,08009.7272,W,1,11,1.5,11,M,,M,,*6B
06/23/2015	17:01:39.639	$GPGGA,170140,2543.8848,N,08009.7272,W,1,11,1.5,11,M,,M,,*6A
06/23/2015	17:01:40.529	$GPGGA,170141,2543.8846,N,08009.7273,W,1,11,1.5,11,M,,M,,*64
06/23/2015	17:01:41.610	$GPGGA,170142,2543.8846,N,08009.7273,W,1,11,1.5,11,M,,M,,*67
06/23/2015	17:01:42.599	$GPGGA,170143,2543.8846,N,08009.7274,W,1,11,1.5,11,M,,M,,*61
06/23/2015	17:01:43.529	$GPGGA,170144,2543.8846,N,08009.7274,W,1,11,1.5,11,M,,M,,*66
06/23/2015	17:01:44.519	$GPGGA,170145,2543.8846,N,08009.7276,W,1,11,1.5,11,M,,M,,*65
06/23/2015	17:01:45.629	$GPGGA,170146,2543.8846,N,08009.7275,W,1,11,1.5,11,M,,M,,*65
06/23/2015	17:01:46.604	$GPGGA,170147,2543.8844,N,08009.7276,W,1,11,1.5,11,M,,M,,*65
06/23/2015	17:01:47.649	$GPGGA,170148,2543.8845,N,08009.7275,W,1,11,1.5,11,M,,M,,*68
06/23/2015	17:01:48.588	$GPGGA,170149,2543.8844,N,08009.7276,W,1,11,1.5,11,M,,M,,*6B
06/23/2015	17:01:49.628	$GPGGA,170150,2543.8845,N,08009.7275,W,1,11,1.5,11,M,,M,,*61
06/23/2015	17:01:50.588	$GPGGA,170151,2543.8846,N,08009.7276,W,1,11,1.5,11,M,,M,,*60
06/23/2015	17:01:51.628	$GPGGA,170152,2543.8846,N,08009.7275,W,1,11,1.5,11,M,,M,,*60
06/23/2015	17:01:52.588	$GPGGA,170153,2543.8846,N,08009.7276,W,1,11,1.5,11,M,,M,,*62
06/23/2015	17:01:53.604	$GPGGA,170154,2543.8846,N,08009.7276,W,1,11,1.5,11,M,,M,,*65
06/23/2015	17:01:54.588	$GPGGA,170155,2543.8846,N,08009.7276,W,1,11,1.5,11,M,,M,,*64
06/23/2015	17:01:55.629	$GPGGA,170156,2543.8846,N,08009.7276,W,1,11,1.5,11,M,,M,,*67
06/23/2015	17:01:56.579	$GPGGA,170157,2543.8846,N,08009.7276,W,1,11,1.5,11,M,,M,,*66
06/23/2015	17:01:57.569	$GPGGA,170158,2543.8846,N,08009.7277,W,1,11,1.5,11,M,,M,,*68
06/23/2015	17:01:58.569	$GPGGA,170159,2543.8846,N,08009.7277,W,1,11,1.5,11,M,,M,,*69
06/23/2015	17:01:59.649	$GPGGA,170200,2543.8846,N,08009.7277,W,1,11,1.5,11,M,,M,,*66
06/23/2015	17:02:00.579	$GPGGA,170201,2543.8846,N,08009.7277,W,1,11,1.5,11,M,,M,,*67
06/23/2015	17:02:01.569	$GPGGA,170202,2543.8846,N,08009.7277,W,1,10,1.7,11,M,,M,,*67
06/23/2015	17:02:02.569	$GPGGA,170203,2543.8844,N,08009.7279,W,1,10,1.5,11,M,,M,,*68
06/23/2015	17:02:03.600	$GPGGA,170204,2543.8846,N,08009.7278,W,1,11,1.5,11,M,,M,,*6D
06/23/2015	17:02:04.569	$GPGGA,170205,2543.8844,N,08009.7279,W,1,11,1.5,11,M,,M,,*6F
06/23/2015	17:02:05.559	$GPGGA,170206,2543.8845,N,08009.7280,W,1,11,1.5,11,M,,M,,*6B
06/23/2015	17:02:06.558	$GPGGA,170207,2543.8844,N,08009.7279,W,1,11,1.5,11,M,,M,,*6D
06/23/2015	17:02:07.568	$GPGGA,170208,2543.8843,N,08009.7280,W,1,11,1.5,11,M,,M,,*63
06/23/2015	17:02:08.558	$GPGGA,170209,2543.8844,N,08009.7280,W,1,11,1.5,11,M,,M,,*65
06/23/2015	17:02:09.548	$GPGGA,170210,2543.8842,N,08009.7280,W,1,11,1.5,11,M,,M,,*6B
06/23/2015	17:02:10.558	$GPGGA,170211,2543.8842,N,08009.7280,W,1,11,1.5,11,M,,M,,*6A
06/23/2015	17:02:11.610	$GPGGA,170212,2543.8842,N,08009.7280,W,1,11,1.5,12,M,,M,,*6A
06/23/2015	17:02:12.548	$GPGGA,170213,2543.8842,N,08009.7280,W,1,11,1.5,12,M,,M,,*6B
06/23/2015	17:02:13.580	$GPGGA,170214,2543.8842,N,08009.7280,W,1,11,1.5,12,M,,M,,*6C
06/23/2015	17:02:14.559	$GPGGA,170215,2543.8842,N,08009.7280,W,1,11,1.5,12,M,,M,,*6D
06/23/2015	17:02:15.569	$GPGGA,170216,2543.8842,N,08009.7280,W,1,11,1.5,12,M,,M,,*6E
06/23/2015	17:02:16.549	$GPGGA,170217,2543.8842,N,08009.7280,W,1,11,1.5,12,M,,M,,*6F
06/23/2015	17:02:17.569	$GPGGA,170218,2543.8842,N,08009.7280,W,1,11,1.5,12,M,,M,,*60
06/23/2015	17:02:18.529	$GPGGA,170219,2543.8842,N,08009.7280,W,1,11,1.5,12,M,,M,,*61
06/23/2015	17:02:19.559	$GPGGA,170220,2543.8842,N,08009.7280,W,1,11,1.5,12,M,,M,,*6B
06/23/2015	17:02:20.529	$GPGGA,170221,2543.8842,N,08009.7280,W,1,11,1.5,12,M,,M,,*6A
06/23/2015	17:02:21.539	$GPGGA,170222,2543.8842,N,08009.7279,W,1,11,1.5,12,M,,M,,*6F
06/23/2015	17:02:22.549	$GPGGA,170223,2543.8842,N,08009.7280,W,1,11,1.5,12,M,,M,,*68
06/23/2015	17:02:23.638	$GPGGA,170224,2543.8842,N,08009.7279,W,1,11,1.5,12,M,,M,,*69
06/23/2015	17:02:24.538	$GPGGA,170225,2543.8842,N,08009.7280,W,1,11,1.5,11,M,,M,,*6D
06/23/2015	17:02:25.638	$GPGGA,170226,2543.8842,N,08009.7279,W,1,11,1.5,11,M,,M,,*68
06/23/2015	17:02:26.538	$GPGGA,170227,2543.8842,N,08009.7280,W,1,11,1.5,11,M,,M,,*6F
06/23/2015	17:02:27.648	$GPGGA,170228,2543.8842,N,08009.7279,W,1,11,1.5,11,M,,M,,*66
06/23/2015	17:02:28.528	$GPGGA,170229,2543.8842,N,08009.7280,W,1,11,1.5,11,M,,M,,*61
06/23/2015	17:02:29.638	$GPGGA,170230,2543.8842,N,08009.7279,W,1,11,1.5,11,M,,M,,*6F
06/23/2015	17:02:30.519	$GPGGA,170231,2543.8842,N,08009.7280,W,1,11,1.5,11,M,,M,,*68
06/23/2015	17:02:31.629	$GPGGA,170232,2543.8842,N,08009.7279,W,1,11,1.5,11,M,,M,,*6D
06/23/2015	17:02:32.599	$GPGGA,170233,2543.8844,N,08009.7280,W,1,11,1.5,11,M,,M,,*6C
06/23/2015	17:02:33.518	$GPGGA,170234,2543.8843,N,08009.7279,W,1,11,1.5,11,M,,M,,*6A
06/23/2015	17:02:34.600	$GPGGA,170235,2543.8844,N,08009.7278,W,1,11,1.5,11,M,,M,,*6D
06/23/2015	17:02:35.649	$GPGGA,170236,2543.8845,N,08009.7279,W,1,11,1.5,11,M,,M,,*6E
06/23/2015	17:02:36.600	$GPGGA,170237,2543.8844,N,08009.7278,W,1,11,1.5,11,M,,M,,*6F
06/23/2015	17:02:37.613	$GPGGA,170238,2543.8845,N,08009.7279,W,1,11,1.5,11,M,,M,,*60
06/23/2015	17:02:38.589	$GPGGA,170239,2543.8844,N,08009.7278,W,1,11,1.5,11,M,,M,,*61
06/23/2015	17:02:39.514	$GPGGA,170240,2543.8845,N,08009.7279,W,1,11,1.5,11,M,,M,,*6F
06/23/2015	17:02:40.858	$GPGGA,170241,2543.8844,N,08009.7280,W,1,11,1.5,11,M,,M,,*69
06/23/2015	17:02:41.588	$GPGGA,170242,2543.8843,N,08009.7279,W,1,11,1.5,11,M,,M,,*6B
06/23/2015	17:02:42.588	$GPGGA,170243,2543.8844,N,08009.7280,W,1,11,1.5,11,M,,M,,*6B
06/23/2015	17:02:43.599	$GPGGA,170244,2543.8843,N,08009.7279,W,1,11,1.5,11,M,,M,,*6D
06/23/2015	17:02:44.589	$GPGGA,170245,2543.8844,N,08009.7280,W,1,11,1.5,11,M,,M,,*6D
06/23/2015	17:02:45.588	$GPGGA,170246,2543.8843,N,08009.7279,W,1,11,1.5,11,M,,M,,*6F
06/23/2015	17:02:46.578	$GPGGA,170247,2543.8842,N,08009.7280,W,1,11,1.5,11,M,,M,,*69
06/23/2015	17:02:47.619	$GPGGA,170248,2543.8842,N,08009.7280,W,1,11,1.5,11,M,,M,,*66
06/23/2015	17:02:48.569	$GPGGA,170249,2543.8842,N,08009.7280,W,1,11,1.5,11,M,,M,,*67
06/23/2015	17:02:49.601	$GPGGA,170250,2543.8842,N,08009.7280,W,1,11,1.5,11,M,,M,,*6F
06/23/2015	17:02:50.579	$GPGGA,170251,2543.8842,N,08009.7280,W,1,11,1.5,11,M,,M,,*6E
06/23/2015	17:02:51.599	$GPGGA,170252,2543.8842,N,08009.7279,W,1,11,1.5,11,M,,M,,*6B
06/23/2015	17:02:52.569	$GPGGA,170253,2543.8842,N,08009.7280,W,1,11,1.5,11,M,,M,,*6C
06/23/2015	17:02:53.605	$GPGGA,170254,2543.8840,N,08009.7279,W,1,11,1.5,11,M,,M,,*6F
06/23/2015	17:02:54.569	$GPGGA,170255,2543.8841,N,08009.7280,W,1,11,1.5,11,M,,M,,*69
06/23/2015	17:02:55.569	$GPGGA,170256,2543.8840,N,08009.7279,W,1,11,1.5,11,M,,M,,*6D
06/23/2015	17:02:56.559	$GPGGA,170257,2543.8841,N,08009.7280,W,1,11,1.5,11,M,,M,,*6B
06/23/2015	17:02:57.579	$GPGGA,170258,2543.8840,N,08009.7279,W,1,11,1.5,11,M,,M,,*63
06/23/2015	17:02:58.548	$GPGGA,170259,2543.8839,N,08009.7280,W,1,11,1.5,11,M,,M,,*6A
06/23/2015	17:02:59.588	$GPGGA,170300,2543.8839,N,08009.7279,W,1,11,1.5,11,M,,M,,*61
06/23/2015	17:03:00.558	$GPGGA,170301,2543.8841,N,08009.7278,W,1,11,1.5,11,M,,M,,*6E
06/23/2015	17:03:01.548	$GPGGA,170302,2543.8840,N,08009.7279,W,1,11,1.5,11,M,,M,,*6D
06/23/2015	17:03:02.538	$GPGGA,170303,2543.8841,N,08009.7278,W,1,11,1.5,11,M,,M,,*6C
06/23/2015	17:03:03.558	$GPGGA,170304,2543.8840,N,08009.7279,W,1,11,1.5,11,M,,M,,*6B
06/23/2015	17:03:04.548	$GPGGA,170305,2543.8841,N,08009.7280,W,1,11,1.5,11,M,,M,,*6D
06/23/2015	17:03:05.549	$GPGGA,170306,2543.8840,N,08009.7279,W,1,11,1.5,11,M,,M,,*69
06/23/2015	17:03:06.539	$GPGGA,170307,2543.8841,N,08009.7280,W,1,11,1.5,11,M,,M,,*6F
06/23/2015	17:03:07.549	$GPGGA,170308,2543.8840,N,08009.7279,W,1,11,1.5,11,M,,M,,*67
06/23/2015	17:03:08.529	$GPGGA,170309,2543.8841,N,08009.7280,W,1,11,1.5,11,M,,M,,*61
06/23/2015	17:03:09.559	$GPGGA,170310,2543.8840,N,08009.7280,W,1,11,1.5,11,M,,M,,*68
06/23/2015	17:03:10.529	$GPGGA,170311,2543.8841,N,08009.7280,W,1,11,1.5,11,M,,M,,*68
06/23/2015	17:03:11.649	$GPGGA,170312,2543.8840,N,08009.7281,W,1,11,1.5,11,M,,M,,*6B
06/23/2015	17:03:12.539	$GPGGA,170313,2543.8841,N,08009.7281,W,1,11,1.5,11,M,,M,,*6B
06/23/2015	17:03:13.519	$GPGGA,170314,2543.8840,N,08009.7281,W,1,11,1.5,11,M,,M,,*6D
06/23/2015	17:03:14.539	$GPGGA,170315,2543.8841,N,08009.7283,W,1,11,1.5,11,M,,M,,*6F
06/23/2015	17:03:15.619	$GPGGA,170316,2543.8840,N,08009.7282,W,1,11,1.5,11,M,,M,,*6C
06/23/2015	17:03:16.508	$GPGGA,170317,2543.8841,N,08009.7283,W,1,11,1.5,11,M,,M,,*6D
06/23/2015	17:03:17.528	$GPGGA,170318,2543.8840,N,08009.7282,W,1,11,1.5,11,M,,M,,*62
06/23/2015	17:03:18.508	$GPGGA,170319,2543.8839,N,08009.7283,W,1,11,1.5,11,M,,M,,*6C
06/23/2015	17:03:19.528	$GPGGA,170320,2543.8839,N,08009.7282,W,1,11,1.5,11,M,,M,,*67
06/23/2015	17:03:20.600	$GPGGA,170321,2543.8839,N,08009.7283,W,1,11,1.5,11,M,,M,,*67
06/23/2015	17:03:21.612	$GPGGA,170322,2543.8839,N,08009.7282,W,1,11,1.5,11,M,,M,,*65
06/23/2015	17:03:22.608	$GPGGA,170323,2543.8839,N,08009.7283,W,1,11,1.5,11,M,,M,,*65
06/23/2015	17:03:23.612	$GPGGA,170324,2543.8839,N,08009.7282,W,1,11,1.5,11,M,,M,,*63
06/23/2015	17:03:24.509	$GPGGA,170325,2543.8839,N,08009.7283,W,1,11,1.5,11,M,,M,,*63
06/23/2015	17:03:25.609	$GPGGA,170326,2543.8839,N,08009.7282,W,1,11,1.5,11,M,,M,,*61
06/23/2015	17:03:26.603	$GPGGA,170327,2543.8839,N,08009.7283,W,1,11,1.5,11,M,,M,,*61
06/23/2015	17:03:27.509	$GPGGA,170328,2543.8839,N,08009.7282,W,1,11,1.5,11,M,,M,,*6F
06/23/2015	17:03:28.602	$GPGGA,170329,2543.8839,N,08009.7283,W,1,11,1.5,11,M,,M,,*6F
06/23/2015	17:03:29.601	$GPGGA,170330,2543.8839,N,08009.7282,W,1,11,1.5,11,M,,M,,*66
06/23/2015	17:03:30.607	$GPGGA,170331,2543.8837,N,08009.7283,W,1,11,1.5,11,M,,M,,*68
06/23/2015	17:03:31.611	$GPGGA,170332,2543.8838,N,08009.7283,W,1,11,1.5,11,M,,M,,*64
06/23/2015	17:03:32.589	$GPGGA,170333,2543.8837,N,08009.7283,W,1,11,1.5,11,M,,M,,*6A
06/23/2015	17:03:33.618	$GPGGA,170334,2543.8838,N,08009.7283,W,1,11,1.5,11,M,,M,,*62
06/23/2015	17:03:34.588	$GPGGA,170335,2543.8837,N,08009.7283,W,1,11,1.5,11,M,,M,,*6C
06/23/2015	17:03:35.599	$GPGGA,170336,2543.8838,N,08009.7283,W,1,11,1.5,11,M,,M,,*60
06/23/2015	17:03:36.578	$GPGGA,170337,2543.8837,N,08009.7282,W,1,11,1.5,11,M,,M,,*6F
06/23/2015	17:03:37.600	$GPGGA,170338,2543.8838,N,08009.7283,W,1,11,1.5,11,M,,M,,*6E
06/23/2015	17:03:38.568	$GPGGA,170339,2543.8837,N,08009.7282,W,1,11,1.5,11,M,,M,,*61
06/23/2015	17:03:39.618	$GPGGA,170340,2543.8838,N,08009.7281,W,1,11,1.5,11,M,,M,,*63
06/23/2015	17:03:40.579	$GPGGA,170341,2543.8837,N,08009.7281,W,1,11,1.5,11,M,,M,,*6D
06/23/2015	17:03:41.579	$GPGGA,170342,2543.8838,N,08009.7281,W,1,11,1.5,11,M,,M,,*61
06/23/2015	17:03:42.569	$GPGGA,170343,2543.8837,N,08009.7281,W,1,11,1.5,11,M,,M,,*6F
06/23/2015	17:03:43.600	$GPGGA,170344,2543.8838,N,08009.7281,W,1,11,1.5,11,M,,M,,*67
06/23/2015	17:03:44.560	$GPGGA,170345,2543.8837,N,08009.7281,W,1,11,1.5,11,M,,M,,*69
06/23/2015	17:03:45.579	$GPGGA,170346,2543.8838,N,08009.7281,W,1,11,1.5,11,M,,M,,*65
06/23/2015	17:03:46.559	$GPGGA,170347,2543.8837,N,08009.7281,W,1,11,1.5,11,M,,M,,*6B
06/23/2015	17:03:47.589	$GPGGA,170348,2543.8838,N,08009.7281,W,1,11,1.5,11,M,,M,,*6B
06/23/2015	17:03:48.549	$GPGGA,170349,2543.8837,N,08009.7280,W,1,11,1.5,11,M,,M,,*64
06/23/2015	17:03:49.559	$GPGGA,170350,2543.8838,N,08009.7280,W,1,11,1.5,11,M,,M,,*63
06/23/2015	17:03:50.539	$GPGGA,170351,2543.8837,N,08009.7280,W,1,11,1.5,11,M,,M,,*6D
06/23/2015	17:03:51.568	$GPGGA,170352,2543.8838,N,08009.7280,W,1,11,1.5,11,M,,M,,*61
06/23/2015	17:03:52.538	$GPGGA,170353,2543.8837,N,08009.7280,W,1,11,1.5,11,M,,M,,*6F
06/23/2015	17:03:53.538	$GPGGA,170354,2543.8838,N,08009.7279,W,1,11,1.5,11,M,,M,,*61
06/23/2015	17:03:54.538	$GPGGA,170355,2543.8839,N,08009.7280,W,1,11,1.5,11,M,,M,,*67
06/23/2015	17:03:55.548	$GPGGA,170356,2543.8839,N,08009.7279,W,1,11,1.5,11,M,,M,,*62
06/23/2015	17:03:56.648	$GPGGA,170357,2543.8837,N,08009.7280,W,1,11,1.5,11,M,,M,,*6B
06/23/2015	17:03:57.528	$GPGGA,170358,2543.8838,N,08009.7279,W,1,11,1.5,11,M,,M,,*6D
06/23/2015	17:03:58.529	$GPGGA,170359,2543.8837,N,08009.7280,W,1,11,1.5,11,M,,M,,*65
06/23/2015	17:03:59.589	$GPGGA,170400,2543.8838,N,08009.7278,W,1,11,1.5,11,M,,M,,*66
06/23/2015	17:04:00.549	$GPGGA,170401,2543.8837,N,08009.7280,W,1,11,1.5,11,M,,M,,*6F
06/23/2015	17:04:01.519	$GPGGA,170402,2543.8838,N,08009.7278,W,1,11,1.5,11,M,,M,,*64
06/23/2015	17:04:02.519	$GPGGA,170403,2543.8837,N,08009.7279,W,1,11,1.5,11,M,,M,,*6B
06/23/2015	17:04:03.549	$GPGGA,170404,2543.8836,N,08009.7278,W,1,11,1.5,11,M,,M,,*6C
06/23/2015	17:04:04.639	$GPGGA,170405,2543.8837,N,08009.7279,W,1,11,1.5,11,M,,M,,*6D
06/23/2015	17:04:05.514	$GPGGA,170406,2543.8836,N,08009.7278,W,1,11,1.5,11,M,,M,,*6E
06/23/2015	17:04:06.529	$GPGGA,170407,2543.8837,N,08009.7279,W,1,11,1.5,11,M,,M,,*6F
06/23/2015	17:04:07.629	$GPGGA,170408,2543.8836,N,08009.7278,W,1,11,1.5,11,M,,M,,*60
06/23/2015	17:04:08.528	$GPGGA,170409,2543.8837,N,08009.7279,W,1,11,1.5,11,M,,M,,*61
06/23/2015	17:04:09.613	$GPGGA,170410,2543.8836,N,08009.7278,W,1,11,1.5,11,M,,M,,*69
06/23/2015	17:04:10.518	$GPGGA,170411,2543.8837,N,08009.7279,W,1,11,1.5,10,M,,M,,*69
06/23/2015	17:04:11.548	$GPGGA,170412,2543.8836,N,08009.7278,W,1,11,1.5,10,M,,M,,*6A
06/23/2015	17:04:12.508	$GPGGA,170413,2543.8837,N,08009.7279,W,1,11,1.5,10,M,,M,,*6B
06/23/2015	17:04:13.599	$GPGGA,170414,2543.8836,N,08009.7278,W,1,11,1.5,10,M,,M,,*6C
06/23/2015	17:04:14.600	$GPGGA,170415,2543.8837,N,08009.7279,W,1,11,1.5,10,M,,M,,*6D
06/23/2015	17:04:15.621	$GPGGA,170416,2543.8836,N,08009.7278,W,1,11,1.5,10,M,,M,,*6E
06/23/2015	17:04:16.601	$GPGGA,170417,2543.8837,N,08009.7277,W,1,11,1.5,10,M,,M,,*61
06/23/2015	17:04:17.604	$GPGGA,170418,2543.8836,N,08009.7277,W,1,11,1.5,10,M,,M,,*6F
06/23/2015	17:04:18.589	$GPGGA,170419,2543.8837,N,08009.7277,W,1,11,1.5,10,M,,M,,*6F
06/23/2015	17:04:19.619	$GPGGA,170420,2543.8838,N,08009.7277,W,1,11,1.5,10,M,,M,,*6A
06/23/2015	17:04:20.579	$GPGGA,170421,2543.8837,N,08009.7277,W,1,11,1.5,10,M,,M,,*64
06/23/2015	17:04:21.599	$GPGGA,170422,2543.8838,N,08009.7277,W,1,11,1.5,10,M,,M,,*68
06/23/2015	17:04:22.589	$GPGGA,170423,2543.8837,N,08009.7277,W,1,11,1.5,10,M,,M,,*66
06/23/2015	17:04:23.602	$GPGGA,170424,2543.8836,N,08009.7277,W,1,11,1.5,10,M,,M,,*60
06/23/2015	17:04:24.579	$GPGGA,170425,2543.8838,N,08009.7277,W,1,11,1.5,10,M,,M,,*6F
06/23/2015	17:04:25.601	$GPGGA,170426,2543.8837,N,08009.7277,W,1,11,1.5,10,M,,M,,*63
06/23/2015	17:04:26.578	$GPGGA,170427,2543.8838,N,08009.7277,W,1,11,1.5,10,M,,M,,*6D
06/23/2015	17:04:27.628	$GPGGA,170428,2543.8837,N,08009.7277,W,1,11,1.5,10,M,,M,,*6D
06/23/2015	17:04:28.568	$GPGGA,170429,2543.8838,N,08009.7277,W,1,11,1.5,10,M,,M,,*63
06/23/2015	17:04:29.588	$GPGGA,170430,2543.8839,N,08009.7277,W,1,11,1.5,10,M,,M,,*6A
06/23/2015	17:04:30.558	$GPGGA,170431,2543.8839,N,08009.7277,W,1,11,1.5,10,M,,M,,*6B
06/23/2015	17:04:31.568	$GPGGA,170432,2543.8839,N,08009.7276,W,1,11,1.5,10,M,,M,,*69
06/23/2015	17:04:32.568	$GPGGA,170433,2543.8839,N,08009.7276,W,1,11,1.5,10,M,,M,,*68
06/23/2015	17:04:33.559	$GPGGA,170434,2543.8839,N,08009.7276,W,1,11,1.5,10,M,,M,,*6F
06/23/2015	17:04:34.559	$GPGGA,170435,2543.8839,N,08009.7276,W,1,11,1.5,10,M,,M,,*6E
06/23/2015	17:04:35.607	$GPGGA,170436,2543.8839,N,08009.7276,W,1,11,1.5,10,M,,M,,*6D
06/23/2015	17:04:36.549	$GPGGA,170437,2543.8839,N,08009.7275,W,1,11,1.5,9,M,,M,,*57
06/23/2015	17:04:37.559	$GPGGA,170438,2543.8839,N,08009.7276,W,1,11,1.5,9,M,,M,,*5B
06/23/2015	17:04:38.539	$GPGGA,170439,2543.8839,N,08009.7274,W,1,11,1.5,9,M,,M,,*58
06/23/2015	17:04:39.549	$GPGGA,170440,2543.8839,N,08009.7274,W,1,11,1.5,9,M,,M,,*56
06/23/2015	17:04:40.549	$GPGGA,170441,2543.8841,N,08009.7274,W,1,11,1.5,9,M,,M,,*58
06/23/2015	17:04:41.529	$GPGGA,170442,2543.8840,N,08009.7274,W,1,11,1.5,9,M,,M,,*5A
06/23/2015	17:04:42.549	$GPGGA,170443,2543.8841,N,08009.7274,W,1,11,1.5,9,M,,M,,*5A
06/23/2015	17:04:43.548	$GPGGA,170444,2543.8840,N,08009.7273,W,1,11,1.5,9,M,,M,,*5B
06/23/2015	17:04:44.548	$GPGGA,170445,2543.8841,N,08009.7273,W,1,11,1.5,9,M,,M,,*5B
06/23/2015	17:04:45.548	$GPGGA,170446,2543.8840,N,08009.7273,W,1,11,1.5,9,M,,M,,*59
06/23/2015	17:04:46.518	$GPGGA,170447,2543.8841,N,08009.7273,W,1,11,1.5,9,M,,M,,*59
06/23/2015	17:04:47.568	$GPGGA,170448,2543.8842,N,08009.7272,W,1,11,1.5,10,M,,M,,*6C
06/23/2015	17:04:48.528	$GPGGA,170449,2543.8842,N,08009.7272,W,1,11,1.5,10,M,,M,,*6D
06/23/2015	17:04:49.628	$GPGGA,170450,2543.8842,N,08009.7272,W,1,11,1.5,10,M,,M,,*65
06/23/2015	17:04:50.519	$GPGGA,170451,2543.8842,N,08009.7272,W,1,11,1.5,10,M,,M,,*64
06/23/2015	17:04:51.549	$GPGGA,170452,2543.8842,N,08009.7271,W,1,11,1.5,10,M,,M,,*64
06/23/2015	17:04:52.619	$GPGGA,170453,2543.8842,N,08009.7272,W,1,11,1.5,10,M,,M,,*66
06/23/2015	17:04:53.639	$GPGGA,170454,2543.8842,N,08009.7271,W,1,11,1.5,10,M,,M,,*62
06/23/2015	17:04:54.519	$GPGGA,170455,2543.8842,N,08009.7272,W,1,11,1.5,10,M,,M,,*60
06/23/2015	17:04:55.679	$GPGGA,170456,2543.8842,N,08009.7271,W,1,11,1.5,10,M,,M,,*60
06/23/2015	17:04:56.529	$GPGGA,170457,2543.8842,N,08009.7270,W,1,11,1.5,10,M,,M,,*60
06/23/2015	17:04:57.612	$GPGGA,170458,2543.8844,N,08009.7270,W,1,11,1.5,10,M,,M,,*69
06/23/2015	17:04:58.619	$GPGGA,170459,2543.8843,N,08009.7270,W,1,11,1.5,10,M,,M,,*6F
06/23/2015	17:04:59.889	$GPGGA,170500,2543.8844,N,08009.7269,W,1,11,1.5,10,M,,M,,*6D
06/23/2015	17:05:00.613	$GPGGA,170501,2543.8843,N,08009.7269,W,1,11,1.5,10,M,,M,,*6B
06/23/2015	17:05:01.617	$GPGGA,170502,2543.8844,N,08009.7269,W,1,11,1.5,10,M,,M,,*6F
06/23/2015	17:05:02.612	$GPGGA,170503,2543.8843,N,08009.7269,W,1,11,1.5,10,M,,M,,*69
06/23/2015	17:05:03.638	$GPGGA,170504,2543.8844,N,08009.7268,W,1,11,1.5,10,M,,M,,*68
06/23/2015	17:05:04.588	$GPGGA,170505,2543.8843,N,08009.7269,W,1,11,1.5,10,M,,M,,*6F
06/23/2015	17:05:05.602	$GPGGA,170506,2543.8844,N,08009.7269,W,1,11,1.5,10,M,,M,,*6B
06/23/2015	17:05:06.588	$GPGGA,170507,2543.8843,N,08009.7269,W,1,11,1.5,10,M,,M,,*6D
06/23/2015	17:05:07.658	$GPGGA,170508,2543.8844,N,08009.7269,W,1,11,1.5,10,M,,M,,*65
06/23/2015	17:05:08.589	$GPGGA,170509,2543.8843,N,08009.7269,W,1,11,1.5,9,M,,M,,*5B
06/23/2015	17:05:09.601	$GPGGA,170510,2543.8844,N,08009.7269,W,1,11,1.5,9,M,,M,,*54
06/23/2015	17:05:10.589	$GPGGA,170511,2543.8843,N,08009.7269,W,1,11,1.5,9,M,,M,,*52
06/23/2015	17:05:11.629	$GPGGA,170512,2543.8844,N,08009.7269,W,1,11,1.5,9,M,,M,,*56
06/23/2015	17:05:12.589	$GPGGA,170513,2543.8843,N,08009.7269,W,1,11,1.5,9,M,,M,,*50
06/23/2015	17:05:13.589	$GPGGA,170514,2543.8844,N,08009.7269,W,1,11,1.5,9,M,,M,,*50
06/23/2015	17:05:14.569	$GPGGA,170515,2543.8843,N,08009.7269,W,1,11,1.5,9,M,,M,,*56
06/23/2015	17:05:15.619	$GPGGA,170516,2543.8844,N,08009.7269,W,1,11,1.5,9,M,,M,,*52
06/23/2015	17:05:16.569	$GPGGA,170517,2543.8842,N,08009.7269,W,1,11,1.5,9,M,,M,,*55
06/23/2015	17:05:17.919	$GPGGA,170518,2543.8842,N,08009.7269,W,1,11,1.5,9,M,,M,,*5A
06/23/2015	17:05:18.568	$GPGGA,170519,2543.8842,N,08009.7269,W,1,11,1.5,9,M,,M,,*5B
06/23/2015	17:05:19.598	$GPGGA,170520,2543.8842,N,08009.7269,W,1,11,1.5,9,M,,M,,*51
06/23/2015	17:05:20.568	$GPGGA,170521,2543.8842,N,08009.7269,W,1,11,1.5,9,M,,M,,*50
06/23/2015	17:05:21.548	$GPGGA,170522,2543.8842,N,08009.7268,W,1,11,1.5,9,M,,M,,*52
06/23/2015	17:05:22.558	$GPGGA,170523,2543.8842,N,08009.7269,W,1,11,1.5,9,M,,M,,*52
06/23/2015	17:05:23.600	$GPGGA,170524,2543.8842,N,08009.7268,W,1,11,1.5,9,M,,M,,*54
06/23/2015	17:05:24.558	$GPGGA,170525,2543.8842,N,08009.7269,W,1,11,1.5,9,M,,M,,*54
06/23/2015	17:05:25.569	$GPGGA,170526,2543.8842,N,08009.7269,W,1,11,1.5,9,M,,M,,*57
06/23/2015	17:05:26.549	$GPGGA,170527,2543.8842,N,08009.7269,W,1,11,1.5,9,M,,M,,*56
06/23/2015	17:05:27.559	$GPGGA,170528,2543.8842,N,08009.7269,W,1,11,1.5,9,M,,M,,*59
06/23/2015	17:05:28.549	$GPGGA,170529,2543.8842,N,08009.7270,W,1,11,1.5,9,M,,M,,*50
06/23/2015	17:05:29.559	$GPGGA,170530,2543.8842,N,08009.7270,W,1,11,1.5,9,M,,M,,*58
06/23/2015	17:05:30.559	$GPGGA,170531,2543.8842,N,08009.7270,W,1,11,1.5,9,M,,M,,*59
06/23/2015	17:05:31.589	$GPGGA,170532,2543.8842,N,08009.7270,W,1,11,1.5,9,M,,M,,*5A
06/23/2015	17:05:32.529	$GPGGA,170533,2543.8842,N,08009.7270,W,1,11,1.5,9,M,,M,,*5B
06/23/2015	17:05:33.559	$GPGGA,170534,2543.8842,N,08009.7270,W,1,11,1.5,9,M,,M,,*5C
06/23/2015	17:05:34.529	$GPGGA,170535,2543.8842,N,08009.7270,W,1,11,1.5,9,M,,M,,*5D
06/23/2015	17:05:35.601	$GPGGA,170536,2543.8842,N,08009.7270,W,1,11,1.5,9,M,,M,,*5E
06/23/2015	17:05:36.548	$GPGGA,170537,2543.8842,N,08009.7270,W,1,11,1.5,9,M,,M,,*5F
06/23/2015	17:05:37.548	$GPGGA,170538,2543.8842,N,08009.7270,W,1,11,1.5,9,M,,M,,*50
06/23/2015	17:05:38.620	$GPGGA,170539,2543.8842,N,08009.7272,W,1,11,1.5,9,M,,M,,*53
06/23/2015	17:05:39.578	$GPGGA,170540,2543.8842,N,08009.7271,W,1,11,1.5,9,M,,M,,*5E
06/23/2015	17:05:40.619	$GPGGA,170541,2543.8842,N,08009.7272,W,1,11,1.5,9,M,,M,,*5C
06/23/2015	17:05:41.511	$GPGGA,170542,2543.8842,N,08009.7270,W,1,11,1.5,9,M,,M,,*5D
06/23/2015	17:05:42.790	$GPGGA,170543,2543.8842,N,08009.7272,W,1,11,1.5,9,M,,M,,*5E
06/23/2015	17:05:43.559	$GPGGA,170544,2543.8842,N,08009.7271,W,1,11,1.5,9,M,,M,,*5A
06/23/2015	17:05:44.539	$GPGGA,170545,2543.8842,N,08009.7272,W,1,11,1.5,9,M,,M,,*58
06/23/2015	17:05:45.613	$GPGGA,170546,2543.8842,N,08009.7271,W,1,11,1.5,9,M,,M,,*58
06/23/2015	17:05:46.529	$GPGGA,170547,2543.8842,N,08009.7272,W,1,11,1.5,9,M,,M,,*5A
06/23/2015	17:05:47.619	$GPGGA,170548,2543.8842,N,08009.7271,W,1,11,1.5,9,M,,M,,*56
06/23/2015	17:05:48.519	$GPGGA,170549,2543.8842,N,08009.7272,W,1,11,1.5,9,M,,M,,*54
06/23/2015	17:05:49.639	$GPGGA,170550,2543.8842,N,08009.7271,W,1,11,1.5,9,M,,M,,*5F
06/23/2015	17:05:50.519	$GPGGA,170551,2543.8842,N,08009.7272,W,1,11,1.5,9,M,,M,,*5D
06/23/2015	17:05:51.639	$GPGGA,170552,2543.8842,N,08009.7271,W,1,11,1.5,9,M,,M,,*5D
06/23/2015	17:05:52.613	$GPGGA,170553,2543.8842,N,08009.7272,W,1,11,1.5,9,M,,M,,*5F
06/23/2015	17:05:53.601	$GPGGA,170554,2543.8842,N,08009.7270,W,1,11,1.5,9,M,,M,,*5A
06/23/2015	17:05:54.588	$GPGGA,170555,2543.8842,N,08009.7270,W,1,11,1.5,9,M,,M,,*5B
06/23/2015	17:05:55.588	$GPGGA,170556,2543.8842,N,08009.7270,W,1,11,1.5,9,M,,M,,*58
06/23/2015	17:05:56.588	$GPGGA,170557,2543.8842,N,08009.7270,W,1,11,1.5,9,M,,M,,*59
06/23/2015	17:05:57.612	$GPGGA,170558,2543.8842,N,08009.7270,W,1,11,1.5,9,M,,M,,*56
06/23/2015	17:05:58.588	$GPGGA,170559,2543.8844,N,08009.7270,W,1,11,1.5,9,M,,M,,*51
06/23/2015	17:05:59.620	$GPGGA,170600,2543.8843,N,08009.7270,W,1,11,1.5,9,M,,M,,*59
06/23/2015	17:06:00.569	$GPGGA,170601,2543.8844,N,08009.7270,W,1,11,1.5,9,M,,M,,*5F
06/23/2015	17:06:01.594	$GPGGA,170602,2543.8843,N,08009.7270,W,1,11,1.5,9,M,,M,,*5B
06/23/2015	17:06:02.569	$GPGGA,170603,2543.8844,N,08009.7270,W,1,11,1.5,9,M,,M,,*5D
06/23/2015	17:06:03.601	$GPGGA,170604,2543.8842,N,08009.7270,W,1,11,1.5,9,M,,M,,*5C
06/23/2015	17:06:04.579	$GPGGA,170605,2543.8842,N,08009.7270,W,1,11,1.5,9,M,,M,,*5D
06/23/2015	17:06:05.559	$GPGGA,170606,2543.8842,N,08009.7270,W,1,11,1.5,9,M,,M,,*5E
06/23/2015	17:06:06.569	$GPGGA,170607,2543.8842,N,08009.7270,W,1,11,1.5,9,M,,M,,*5F
06/23/2015	17:06:07.606	$GPGGA,170608,2543.8842,N,08009.7270,W,1,11,1.5,8,M,,M,,*51
06/23/2015	17:06:08.559	$GPGGA,170609,2543.8842,N,08009.7270,W,1,11,1.5,8,M,,M,,*50
06/23/2015	17:06:09.549	$GPGGA,170610,2543.8842,N,08009.7270,W,1,11,1.5,8,M,,M,,*58
06/23/2015	17:06:10.568	$GPGGA,170611,2543.8842,N,08009.7270,W,1,11,1.5,8,M,,M,,*59
06/23/2015	17:06:11.589	$GPGGA,170612,2543.8842,N,08009.7270,W,1,11,1.5,8,M,,M,,*5A
06/23/2015	17:06:12.558	$GPGGA,170613,2543.8842,N,08009.7272,W,1,11,1.5,8,M,,M,,*59
06/23/2015	17:06:13.538	$GPGGA,170614,2543.8842,N,08009.7270,W,1,11,1.5,8,M,,M,,*5C
06/23/2015	17:06:14.528	$GPGGA,170615,2543.8842,N,08009.7270,W,1,11,1.5,8,M,,M,,*5D
06/23/2015	17:06:15.548	$GPGGA,170616,2543.8842,N,08009.7270,W,1,11,1.5,8,M,,M,,*5E
06/23/2015	17:06:16.538	$GPGGA,170617,2543.8842,N,08009.7270,W,1,11,1.5,8,M,,M,,*5F
06/23/2015	17:06:17.528	$GPGGA,170618,2543.8842,N,08009.7270,W,1,11,1.5,8,M,,M,,*50
06/23/2015	17:06:18.538	$GPGGA,170619,2543.8842,N,08009.7270,W,1,11,1.5,8,M,,M,,*51
06/23/2015	17:06:19.539	$GPGGA,170620,2543.8842,N,08009.7270,W,1,11,1.5,8,M,,M,,*5B
06/23/2015	17:06:20.538	$GPGGA,170621,2543.8842,N,08009.7272,W,1,11,1.5,8,M,,M,,*58
06/23/2015	17:06:21.528	$GPGGA,170622,2543.8842,N,08009.7271,W,1,11,1.5,8,M,,M,,*58
06/23/2015	17:06:22.518	$GPGGA,170623,2543.8842,N,08009.7270,W,1,11,1.5,8,M,,M,,*58
06/23/2015	17:06:23.538	$GPGGA,170624,2543.8842,N,08009.7270,W,1,11,1.5,8,M,,M,,*5F
06/23/2015	17:06:24.528	$GPGGA,170625,2543.8842,N,08009.7270,W,1,11,1.5,8,M,,M,,*5E
06/23/2015	17:06:25.548	$GPGGA,170626,2543.8842,N,08009.7270,W,1,11,1.5,8,M,,M,,*5D
06/23/2015	17:06:26.528	$GPGGA,170627,2543.8842,N,08009.7270,W,1,11,1.5,8,M,,M,,*5C
06/23/2015	17:06:27.538	$GPGGA,170628,2543.8842,N,08009.7270,W,1,11,1.5,8,M,,M,,*53
06/23/2015	17:06:28.508	$GPGGA,170629,2543.8842,N,08009.7270,W,1,11,1.5,8,M,,M,,*52
06/23/2015	17:06:29.618	$GPGGA,170630,2543.8842,N,08009.7270,W,1,11,1.5,8,M,,M,,*5A
06/23/2015	17:06:30.508	$GPGGA,170631,2543.8842,N,08009.7270,W,1,11,1.5,8,M,,M,,*5B
06/23/2015	17:06:31.518	$GPGGA,170632,2543.8842,N,08009.7270,W,1,11,1.5,8,M,,M,,*58
06/23/2015	17:06:32.499	$GPGGA,170633,2543.8842,N,08009.7270,W,1,11,1.5,8,M,,M,,*59
06/23/2015	17:06:33.628	$GPGGA,170634,2543.8840,N,08009.7270,W,1,11,1.5,8,M,,M,,*5C
06/23/2015	17:06:34.601	$GPGGA,170635,2543.8841,N,08009.7270,W,1,11,1.5,8,M,,M,,*5C
06/23/2015	17:06:35.518	$GPGGA,170636,2543.8839,N,08009.7270,W,1,11,1.5,8,M,,M,,*50
06/23/2015	17:06:36.508	$GPGGA,170637,2543.8839,N,08009.7270,W,1,11,1.5,8,M,,M,,*51
06/23/2015	17:06:37.608	$GPGGA,170638,2543.8839,N,08009.7270,W,1,11,1.5,8,M,,M,,*5E
06/23/2015	17:06:38.499	$GPGGA,170639,2543.8839,N,08009.7270,W,1,11,1.5,8,M,,M,,*5F
06/23/2015	17:06:39.498	$GPGGA,170640,2543.8839,N,08009.7270,W,1,11,1.5,8,M,,M,,*51
06/23/2015	17:06:40.498	$GPGGA,170641,2543.8839,N,08009.7270,W,1,11,1.5,8,M,,M,,*50
06/23/2015	17:06:41.478	$GPGGA,170642,2543.8839,N,08009.7270,W,1,11,1.5,8,M,,M,,*53
06/23/2015	17:06:42.499	$GPGGA,170643,2543.8839,N,08009.7270,W,1,11,1.5,8,M,,M,,*52
06/23/2015	17:06:43.618	$GPGGA,170644,2543.8839,N,08009.7270,W,1,11,1.5,8,M,,M,,*55
06/23/2015	17:06:44.499	$GPGGA,170645,2543.8839,N,08009.7270,W,1,11,1.5,8,M,,M,,*54
06/23/2015	17:06:45.467	$GPGGA,170646,2543.8839,N,08009.7270,W,1,11,1.5,8,M,,M,,*57
06/23/2015	17:06:46.578	$GPGGA,170647,2543.8839,N,08009.7270,W,1,11,1.5,8,M,,M,,*56
06/23/2015	17:06:47.598	$GPGGA,170648,2543.8839,N,08009.7269,W,1,11,1.5,8,M,,M,,*51
06/23/2015	17:06:48.569	$GPGGA,170649,2543.8841,N,08009.7269,W,1,11,1.5,8,M,,M,,*5F
06/23/2015	17:06:49.558	$GPGGA,170650,2543.8840,N,08009.7269,W,1,11,1.5,8,M,,M,,*56
06/23/2015	17:06:50.568	$GPGGA,170651,2543.8841,N,08009.7269,W,1,11,1.5,8,M,,M,,*56
06/23/2015	17:06:51.598	$GPGGA,170652,2543.8840,N,08009.7269,W,1,11,1.5,8,M,,M,,*54
06/23/2015	17:06:52.568	$GPGGA,170653,2543.8842,N,08009.7269,W,1,11,1.5,8,M,,M,,*57
06/23/2015	17:06:53.578	$GPGGA,170654,2543.8842,N,08009.7270,W,1,11,1.5,8,M,,M,,*58
06/23/2015	17:06:54.548	$GPGGA,170655,2543.8842,N,08009.7270,W,1,11,1.5,8,M,,M,,*59
06/23/2015	17:06:55.589	$GPGGA,170656,2543.8842,N,08009.7270,W,1,11,1.5,8,M,,M,,*5A
06/23/2015	17:06:56.558	$GPGGA,170657,2543.8842,N,08009.7270,W,1,11,1.5,8,M,,M,,*5B
06/23/2015	17:06:57.568	$GPGGA,170658,2543.8842,N,08009.7270,W,1,11,1.5,8,M,,M,,*54
06/23/2015	17:06:58.548	$GPGGA,170659,2543.8842,N,08009.7270,W,1,11,1.5,8,M,,M,,*55
06/23/2015	17:06:59.600	$GPGGA,170700,2543.8842,N,08009.7270,W,1,11,1.5,8,M,,M,,*58
06/23/2015	17:07:00.558	$GPGGA,170701,2543.8842,N,08009.7270,W,1,11,1.5,8,M,,M,,*59
06/23/2015	17:07:01.568	$GPGGA,170702,2543.8842,N,08009.7270,W,1,11,1.5,8,M,,M,,*5A
06/23/2015	17:07:02.538	$GPGGA,170703,2543.8842,N,08009.7270,W,1,11,1.5,8,M,,M,,*5B
06/23/2015	17:07:03.568	$GPGGA,170704,2543.8842,N,08009.7272,W,1,11,1.5,8,M,,M,,*5E
06/23/2015	17:07:04.538	$GPGGA,170705,2543.8840,N,08009.7271,W,1,11,1.5,8,M,,M,,*5E
06/23/2015	17:07:05.528	$GPGGA,170706,2543.8841,N,08009.7270,W,1,11,1.5,8,M,,M,,*5D
06/23/2015	17:07:06.528	$GPGGA,170707,2543.8840,N,08009.7270,W,1,11,1.5,8,M,,M,,*5D
06/23/2015	17:07:07.538	$GPGGA,170708,2543.8841,N,08009.7270,W,1,11,1.5,8,M,,M,,*53
06/23/2015	17:07:08.528	$GPGGA,170709,2543.8840,N,08009.7270,W,1,11,1.5,8,M,,M,,*53
06/23/2015	17:07:09.558	$GPGGA,170710,2543.8839,N,08009.7270,W,1,11,1.5,8,M,,M,,*55
06/23/2015	17:07:10.528	$GPGGA,170711,2543.8839,N,08009.7270,W,1,11,1.5,8,M,,M,,*54
06/23/2015	17:07:11.528	$GPGGA,170712,2543.8839,N,08009.7270,W,1,11,1.5,8,M,,M,,*57
06/23/2015	17:07:12.528	$GPGGA,170713,2543.8839,N,08009.7270,W,1,11,1.5,8,M,,M,,*56
06/23/2015	17:07:13.518	$GPGGA,170714,2543.8839,N,08009.7270,W,1,11,1.5,8,M,,M,,*51
06/23/2015	17:07:14.528	$GPGGA,170715,2543.8839,N,08009.7272,W,1,11,1.5,8,M,,M,,*52
06/23/2015	17:07:15.518	$GPGGA,170716,2543.8841,N,08009.7271,W,1,11,1.5,8,M,,M,,*5D
06/23/2015	17:07:16.518	$GPGGA,170717,2543.8840,N,08009.7272,W,1,11,1.5,8,M,,M,,*5E
06/23/2015	17:07:17.518	$GPGGA,170718,2543.8841,N,08009.7271,W,1,11,1.5,8,M,,M,,*53
06/23/2015	17:07:18.508	$GPGGA,170719,2543.8840,N,08009.7272,W,1,11,1.5,8,M,,M,,*50
06/23/2015	17:07:19.558	$GPGGA,170720,2543.8841,N,08009.7271,W,1,11,1.5,8,M,,M,,*58
06/23/2015	17:07:20.501	$GPGGA,170721,2543.8842,N,08009.7272,W,1,11,1.5,8,M,,M,,*59
06/23/2015	17:07:21.518	$GPGGA,170722,2543.8842,N,08009.7271,W,1,11,1.5,8,M,,M,,*59
06/23/2015	17:07:22.509	$GPGGA,170723,2543.8842,N,08009.7272,W,1,11,1.5,8,M,,M,,*5B
06/23/2015	17:07:23.548	$GPGGA,170724,2543.8842,N,08009.7271,W,1,11,1.5,8,M,,M,,*5F
06/23/2015	17:07:24.508	$GPGGA,170725,2543.8842,N,08009.7272,W,1,11,1.5,8,M,,M,,*5D
06/23/2015	17:07:25.618	$GPGGA,170726,2543.8842,N,08009.7271,W,1,11,1.5,8,M,,M,,*5D
06/23/2015	17:07:26.488	$GPGGA,170727,2543.8842,N,08009.7272,W,1,11,1.5,8,M,,M,,*5F
06/23/2015	17:07:27.606	$GPGGA,170728,2543.8842,N,08009.7270,W,1,11,1.5,8,M,,M,,*52
06/23/2015	17:07:28.490	$GPGGA,170729,2543.8842,N,08009.7270,W,1,11,1.5,8,M,,M,,*53
06/23/2015	17:07:29.599	$GPGGA,170730,2543.8842,N,08009.7272,W,1,11,1.5,8,M,,M,,*59
06/23/2015	17:07:30.502	$GPGGA,170731,2543.8842,N,08009.7270,W,1,11,1.5,8,M,,M,,*5A
06/23/2015	17:07:31.496	$GPGGA,170732,2543.8842,N,08009.7270,W,1,11,1.5,8,M,,M,,*59
06/23/2015	17:07:32.478	$GPGGA,170733,2543.8842,N,08009.7270,W,1,11,1.5,8,M,,M,,*58
06/23/2015	17:07:33.618	$GPGGA,170734,2543.8842,N,08009.7270,W,1,11,1.5,8,M,,M,,*5F
06/23/2015	17:07:34.492	$GPGGA,170735,2543.8842,N,08009.7270,W,1,11,1.5,8,M,,M,,*5E
06/23/2015	17:07:35.618	$GPGGA,170736,2543.8842,N,08009.7270,W,1,11,1.5,8,M,,M,,*5D
06/23/2015	17:07:36.568	$GPGGA,170737,2543.8842,N,08009.7270,W,1,11,1.5,8,M,,M,,*5C
06/23/2015	17:07:37.588	$GPGGA,170738,2543.8842,N,08009.7270,W,1,11,1.5,8,M,,M,,*53
06/23/2015	17:07:38.578	$GPGGA,170739,2543.8842,N,08009.7270,W,1,11,1.5,8,M,,M,,*52
06/23/2015	17:07:39.578	$GPGGA,170740,2543.8842,N,08009.7270,W,1,11,1.5,8,M,,M,,*5C
06/23/2015	17:07:40.558	$GPGGA,170741,2543.8842,N,08009.7270,W,1,11,1.5,8,M,,M,,*5D
06/23/2015	17:07:41.558	$GPGGA,170742,2543.8842,N,08009.7270,W,1,11,1.5,8,M,,M,,*5E
06/23/2015	17:07:42.568	$GPGGA,170743,2543.8842,N,08009.7270,W,1,11,1.5,8,M,,M,,*5F
06/23/2015	17:07:43.578	$GPGGA,170744,2543.8842,N,08009.7270,W,1,11,1.5,8,M,,M,,*58
06/23/2015	17:07:44.558	$GPGGA,170745,2543.8842,N,08009.7270,W,1,11,1.5,8,M,,M,,*59
06/23/2015	17:07:45.568	$GPGGA,170746,2543.8842,N,08009.7270,W,1,11,1.5,8,M,,M,,*5A
06/23/2015	17:07:46.559	$GPGGA,170747,2543.8842,N,08009.7270,W,1,11,1.5,8,M,,M,,*5B
06/23/2015	17:07:47.588	$GPGGA,170748,2543.8842,N,08009.7269,W,1,11,1.5,8,M,,M,,*5C
06/23/2015	17:07:48.548	$GPGGA,170749,2543.8842,N,08009.7269,W,1,11,1.5,8,M,,M,,*5D
06/23/2015	17:07:49.568	$GPGGA,170750,2543.8842,N,08009.7269,W,1,11,1.5,8,M,,M,,*55
06/23/2015	17:07:50.538	$GPGGA,170751,2543.8842,N,08009.7269,W,1,11,1.5,8,M,,M,,*54
06/23/2015	17:07:51.568	$GPGGA,170752,2543.8842,N,08009.7270,W,1,11,1.5,8,M,,M,,*5F
06/23/2015	17:07:52.538	$GPGGA,170753,2543.8842,N,08009.7269,W,1,11,1.5,8,M,,M,,*56
06/23/2015	17:07:53.568	$GPGGA,170754,2543.8842,N,08009.7269,W,1,11,1.5,8,M,,M,,*51
06/23/2015	17:07:54.528	$GPGGA,170755,2543.8842,N,08009.7269,W,1,11,1.5,8,M,,M,,*50
06/23/2015	17:07:55.578	$GPGGA,170756,2543.8842,N,08009.7269,W,1,11,1.5,8,M,,M,,*53
06/23/2015	17:07:56.528	$GPGGA,170757,2543.8842,N,08009.7269,W,1,11,1.5,8,M,,M,,*52
06/23/2015	17:07:57.558	$GPGGA,170758,2543.8842,N,08009.7269,W,1,11,1.5,8,M,,M,,*5D
06/23/2015	17:07:58.528	$GPGGA,170759,2543.8842,N,08009.7269,W,1,11,1.5,7,M,,M,,*53
06/23/2015	17:07:59.638	$GPGGA,170800,2543.8842,N,08009.7269,W,1,11,1.5,7,M,,M,,*50
06/23/2015	17:08:00.528	$GPGGA,170801,2543.8842,N,08009.7269,W,1,11,1.5,7,M,,M,,*51
06/23/2015	17:08:01.558	$GPGGA,170802,2543.8842,N,08009.7270,W,1,11,1.5,7,M,,M,,*5A
06/23/2015	17:08:02.528	$GPGGA,170803,2543.8842,N,08009.7270,W,1,11,1.5,7,M,,M,,*5B
06/23/2015	17:08:03.558	$GPGGA,170804,2543.8842,N,08009.7270,W,1,11,1.5,7,M,,M,,*5C
06/23/2015	17:08:04.507	$GPGGA,170805,2543.8842,N,08009.7270,W,1,11,1.5,7,M,,M,,*5D
06/23/2015	17:08:05.528	$GPGGA,170806,2543.8842,N,08009.7272,W,1,11,1.5,7,M,,M,,*5C
06/23/2015	17:08:06.508	$GPGGA,170807,2543.8842,N,08009.7271,W,1,11,1.5,7,M,,M,,*5E
06/23/2015	17:08:07.538	$GPGGA,170808,2543.8842,N,08009.7272,W,1,11,1.5,7,M,,M,,*52
06/23/2015	17:08:08.518	$GPGGA,170809,2543.8842,N,08009.7271,W,1,11,1.5,7,M,,M,,*50
06/23/2015	17:08:09.528	$GPGGA,170810,2543.8842,N,08009.7272,W,1,11,1.5,7,M,,M,,*5B
06/23/2015	17:08:10.518	$GPGGA,170811,2543.8842,N,08009.7271,W,1,11,1.5,7,M,,M,,*59
06/23/2015	17:08:11.528	$GPGGA,170812,2543.8842,N,08009.7272,W,1,11,1.5,7,M,,M,,*59
06/23/2015	17:08:12.518	$GPGGA,170813,2543.8842,N,08009.7271,W,1,11,1.5,7,M,,M,,*5B
06/23/2015	17:08:13.491	$GPGGA,170814,2543.8842,N,08009.7272,W,1,11,1.5,7,M,,M,,*5F
06/23/2015	17:08:14.492	$GPGGA,170815,2543.8842,N,08009.7271,W,1,11,1.5,7,M,,M,,*5D
06/23/2015	17:08:15.558	$GPGGA,170816,2543.8842,N,08009.7272,W,1,11,1.5,7,M,,M,,*5D
06/23/2015	17:08:16.493	$GPGGA,170817,2543.8842,N,08009.7270,W,1,11,1.5,7,M,,M,,*5E
06/23/2015	17:08:17.578	$GPGGA,170818,2543.8842,N,08009.7272,W,1,11,1.5,7,M,,M,,*53
06/23/2015	17:08:18.578	$GPGGA,170819,2543.8842,N,08009.7271,W,1,11,1.5,7,M,,M,,*51
06/23/2015	17:08:19.511	$GPGGA,170820,2543.8842,N,08009.7272,W,1,11,1.5,7,M,,M,,*58
06/23/2015	17:08:20.504	$GPGGA,170821,2543.8842,N,08009.7270,W,1,11,1.5,7,M,,M,,*5B
06/23/2015	17:08:21.600	$GPGGA,170822,2543.8842,N,08009.7272,W,1,11,1.5,7,M,,M,,*5A
06/23/2015	17:08:22.500	$GPGGA,170823,2543.8842,N,08009.7270,W,1,11,1.5,7,M,,M,,*59
06/23/2015	17:08:23.658	$GPGGA,170824,2543.8842,N,08009.7270,W,1,11,1.5,7,M,,M,,*5E
06/23/2015	17:08:24.658	$GPGGA,170825,2543.8842,N,08009.7270,W,1,11,1.5,7,M,,M,,*5F
06/23/2015	17:08:25.568	$GPGGA,170826,2543.8842,N,08009.7272,W,1,11,1.5,7,M,,M,,*5E
06/23/2015	17:08:26.638	$GPGGA,170827,2543.8842,N,08009.7271,W,1,11,1.5,7,M,,M,,*5C
06/23/2015	17:08:27.668	$GPGGA,170828,2543.8842,N,08009.7272,W,1,11,1.5,7,M,,M,,*50
06/23/2015	17:08:28.638	$GPGGA,170829,2543.8842,N,08009.7271,W,1,11,1.5,7,M,,M,,*52
06/23/2015	17:08:29.605	$GPGGA,170830,2543.8842,N,08009.7272,W,1,11,1.5,7,M,,M,,*59
06/23/2015	17:08:30.559	$GPGGA,170831,2543.8842,N,08009.7271,W,1,11,1.5,7,M,,M,,*5B
06/23/2015	17:08:31.648	$GPGGA,170832,2543.8842,N,08009.7272,W,1,11,1.5,7,M,,M,,*5B
06/23/2015	17:08:32.558	$GPGGA,170833,2543.8842,N,08009.7272,W,1,11,1.5,7,M,,M,,*5A
06/23/2015	17:08:33.548	$GPGGA,170834,2543.8842,N,08009.7272,W,1,11,1.5,7,M,,M,,*5D
06/23/2015	17:08:34.608	$GPGGA,170835,2543.8842,N,08009.7272,W,1,11,1.5,7,M,,M,,*5C
06/23/2015	17:08:35.618	$GPGGA,170836,2543.8842,N,08009.7272,W,1,11,1.5,7,M,,M,,*5F
06/23/2015	17:08:36.603	$GPGGA,170837,2543.8842,N,08009.7272,W,1,11,1.5,7,M,,M,,*5E
06/23/2015	17:08:37.593	$GPGGA,170838,2543.8842,N,08009.7272,W,1,11,1.5,7,M,,M,,*51
06/23/2015	17:08:38.538	$GPGGA,170839,2543.8842,N,08009.7272,W,1,11,1.5,7,M,,M,,*50
06/23/2015	17:08:39.658	$GPGGA,170840,2543.8842,N,08009.7272,W,1,11,1.5,7,M,,M,,*5E
06/23/2015	17:08:40.538	$GPGGA,170841,2543.8842,N,08009.7273,W,1,11,1.5,7,M,,M,,*5E
06/23/2015	17:08:41.578	$GPGGA,170842,2543.8842,N,08009.7273,W,1,11,1.5,7,M,,M,,*5D
06/23/2015	17:08:42.599	$GPGGA,170843,2543.8842,N,08009.7273,W,1,11,1.5,7,M,,M,,*5C
06/23/2015	17:08:43.548	$GPGGA,170844,2543.8842,N,08009.7273,W,1,11,1.5,7,M,,M,,*5B
06/23/2015	17:08:44.590	$GPGGA,170845,2543.8842,N,08009.7273,W,1,11,1.5,7,M,,M,,*5A
06/23/2015	17:08:45.578	$GPGGA,170846,2543.8842,N,08009.7273,W,1,11,1.5,7,M,,M,,*59
06/23/2015	17:08:46.528	$GPGGA,170847,2543.8842,N,08009.7273,W,1,11,1.5,7,M,,M,,*58
06/23/2015	17:08:48.518	$GPGGA,170848,2543.8842,N,08009.7273,W,1,11,1.5,7,M,,M,,*57
06/23/2015	17:08:48.548	$GPGGA,170849,2543.8842,N,08009.7273,W,1,11,1.5,7,M,,M,,*56
06/23/2015	17:08:49.568	$GPGGA,170850,2543.8842,N,08009.7273,W,1,11,1.5,7,M,,M,,*5E
06/23/2015	17:08:50.578	$GPGGA,170851,2543.8842,N,08009.7273,W,1,11,1.5,7,M,,M,,*5F
06/23/2015	17:08:51.608	$GPGGA,170852,2543.8842,N,08009.7273,W,1,11,1.5,7,M,,M,,*5C
06/23/2015	17:08:52.508	$GPGGA,170853,2543.8842,N,08009.7273,W,1,11,1.5,7,M,,M,,*5D
06/23/2015	17:08:53.558	$GPGGA,170854,2543.8842,N,08009.7273,W,1,11,1.5,7,M,,M,,*5A
06/23/2015	17:08:54.508	$GPGGA,170855,2543.8842,N,08009.7273,W,1,11,1.5,7,M,,M,,*5B
06/23/2015	17:08:55.578	$GPGGA,170856,2543.8842,N,08009.7273,W,1,11,1.5,7,M,,M,,*58
06/23/2015	17:08:56.499	$GPGGA,170857,2543.8842,N,08009.7273,W,1,11,1.5,7,M,,M,,*59
06/23/2015	17:08:57.528	$GPGGA,170858,2543.8842,N,08009.7273,W,1,11,1.5,7,M,,M,,*56
06/23/2015	17:08:58.559	$GPGGA,170859,2543.8842,N,08009.7272,W,1,11,1.5,7,M,,M,,*56
06/23/2015	17:08:59.599	$GPGGA,170900,2543.8842,N,08009.7272,W,1,11,1.5,7,M,,M,,*5B
06/23/2015	17:09:00.558	$GPGGA,170901,2543.8842,N,08009.7272,W,1,11,1.5,7,M,,M,,*5A
06/23/2015	17:09:01.598	$GPGGA,170902,2543.8842,N,08009.7271,W,1,11,1.5,7,M,,M,,*5A
06/23/2015	17:09:02.548	$GPGGA,170903,2543.8842,N,08009.7272,W,1,11,1.5,7,M,,M,,*58
06/23/2015	17:09:03.618	$GPGGA,170904,2543.8842,N,08009.7271,W,1,11,1.5,7,M,,M,,*5C
06/23/2015	17:09:04.608	$GPGGA,170905,2543.8842,N,08009.7272,W,1,11,1.5,7,M,,M,,*5E
06/23/2015	17:09:05.628	$GPGGA,170906,2543.8842,N,08009.7271,W,1,11,1.5,7,M,,M,,*5E
06/23/2015	17:09:06.588	$GPGGA,170907,2543.8842,N,08009.7272,W,1,11,1.5,7,M,,M,,*5C
06/23/2015	17:09:07.496	$GPGGA,170908,2543.8842,N,08009.7270,W,1,11,1.5,7,M,,M,,*51
06/23/2015	17:09:08.578	$GPGGA,170909,2543.8842,N,08009.7270,W,1,11,1.5,7,M,,M,,*50
06/23/2015	17:09:09.518	$GPGGA,170910,2543.8842,N,08009.7270,W,1,11,1.5,7,M,,M,,*58
06/23/2015	17:09:10.568	$GPGGA,170911,2543.8842,N,08009.7270,W,1,11,1.5,7,M,,M,,*59
06/23/2015	17:09:11.559	$GPGGA,170912,2543.8842,N,08009.7270,W,1,11,1.5,7,M,,M,,*5A
06/23/2015	17:09:12.578	$GPGGA,170913,2543.8842,N,08009.7270,W,1,11,1.5,7,M,,M,,*5B
06/23/2015	17:09:13.568	$GPGGA,170914,2543.8842,N,08009.7270,W,1,11,1.5,7,M,,M,,*5C
06/23/2015	17:09:14.578	$GPGGA,170915,2543.8842,N,08009.7270,W,1,11,1.5,7,M,,M,,*5D
06/23/2015	17:09:15.603	$GPGGA,170916,2543.8842,N,08009.7270,W,1,11,1.5,7,M,,M,,*5E
06/23/2015	17:09:16.558	$GPGGA,170917,2543.8842,N,08009.7270,W,1,11,1.5,7,M,,M,,*5F
06/23/2015	17:09:17.605	$GPGGA,170918,2543.8842,N,08009.7270,W,1,11,1.5,7,M,,M,,*50
06/23/2015	17:09:18.568	$GPGGA,170919,2543.8842,N,08009.7270,W,1,11,1.5,7,M,,M,,*51
06/23/2015	17:09:19.590	$GPGGA,170920,2543.8842,N,08009.7270,W,1,11,1.5,7,M,,M,,*5B
06/23/2015	17:09:20.568	$GPGGA,170921,2543.8842,N,08009.7272,W,1,11,1.5,7,M,,M,,*58
06/23/2015	17:09:21.558	$GPGGA,170922,2543.8844,N,08009.7271,W,1,11,1.5,7,M,,M,,*5E
06/23/2015	17:09:22.598	$GPGGA,170923,2543.8843,N,08009.7272,W,1,11,1.5,7,M,,M,,*5B
06/23/2015	17:09:23.592	$GPGGA,170924,2543.8843,N,08009.7272,W,1,11,1.5,7,M,,M,,*5C
06/23/2015	17:09:24.548	$GPGGA,170925,2543.8843,N,08009.7272,W,1,11,1.5,7,M,,M,,*5D
06/23/2015	17:09:25.578	$GPGGA,170926,2543.8845,N,08009.7272,W,1,11,1.5,7,M,,M,,*58
06/23/2015	17:09:26.568	$GPGGA,170927,2543.8844,N,08009.7272,W,1,11,1.5,7,M,,M,,*58
06/23/2015	17:09:27.578	$GPGGA,170928,2543.8844,N,08009.7272,W,1,11,1.5,7,M,,M,,*57
06/23/2015	17:09:28.548	$GPGGA,170929,2543.8846,N,08009.7271,W,1,11,1.5,7,M,,M,,*57
06/23/2015	17:09:29.568	$GPGGA,170930,2543.8846,N,08009.7271,W,1,11,1.5,7,M,,M,,*5F
06/23/2015	17:09:30.578	$GPGGA,170931,2543.8846,N,08009.7271,W,1,11,1.5,7,M,,M,,*5E
06/23/2015	17:09:31.558	$GPGGA,170932,2543.8846,N,08009.7272,W,1,11,1.5,7,M,,M,,*5E
06/23/2015	17:09:32.578	$GPGGA,170933,2543.8846,N,08009.7271,W,1,11,1.5,7,M,,M,,*5C
06/23/2015	17:09:33.538	$GPGGA,170934,2543.8846,N,08009.7272,W,1,11,1.5,7,M,,M,,*58
06/23/2015	17:09:34.568	$GPGGA,170935,2543.8846,N,08009.7271,W,1,11,1.5,7,M,,M,,*5A
06/23/2015	17:09:35.598	$GPGGA,170936,2543.8846,N,08009.7272,W,1,11,1.5,7,M,,M,,*5A
06/23/2015	17:09:36.528	$GPGGA,170937,2543.8846,N,08009.7272,W,1,11,1.5,7,M,,M,,*5B
06/23/2015	17:09:37.518	$GPGGA,170938,2543.8846,N,08009.7270,W,1,11,1.5,7,M,,M,,*56
06/23/2015	17:09:38.648	$GPGGA,170939,2543.8846,N,08009.7270,W,1,11,1.5,7,M,,M,,*57
06/23/2015	17:09:39.648	$GPGGA,170940,2543.8846,N,08009.7270,W,1,11,1.5,7,M,,M,,*59
06/23/2015	17:09:40.528	$GPGGA,170941,2543.8846,N,08009.7270,W,1,11,1.5,7,M,,M,,*58
06/23/2015	17:09:41.518	$GPGGA,170942,2543.8846,N,08009.7270,W,1,11,1.5,7,M,,M,,*5B
06/23/2015	17:09:42.518	$GPGGA,170943,2543.8846,N,08009.7270,W,1,11,1.5,7,M,,M,,*5A
06/23/2015	17:09:43.528	$GPGGA,170944,2543.8846,N,08009.7270,W,1,11,1.5,6,M,,M,,*5C
06/23/2015	17:09:44.628	$GPGGA,170945,2543.8846,N,08009.7270,W,1,11,1.5,6,M,,M,,*5D
06/23/2015	17:09:45.538	$GPGGA,170946,2543.8846,N,08009.7270,W,1,11,1.5,6,M,,M,,*5E
06/23/2015	17:09:46.508	$GPGGA,170947,2543.8846,N,08009.7270,W,1,11,1.5,6,M,,M,,*5F
06/23/2015	17:09:47.538	$GPGGA,170948,2543.8846,N,08009.7270,W,1,11,1.5,6,M,,M,,*50
06/23/2015	17:09:48.558	$GPGGA,170949,2543.8846,N,08009.7270,W,1,11,1.5,6,M,,M,,*51
06/23/2015	17:09:49.598	$GPGGA,170950,2543.8846,N,08009.7270,W,1,11,1.5,6,M,,M,,*59
06/23/2015	17:09:50.598	$GPGGA,170951,2543.8846,N,08009.7270,W,1,11,1.5,6,M,,M,,*58
06/23/2015	17:09:51.618	$GPGGA,170952,2543.8848,N,08009.7270,W,1,11,1.5,6,M,,M,,*55
06/23/2015	17:09:52.608	$GPGGA,170953,2543.8847,N,08009.7269,W,1,11,1.5,6,M,,M,,*53
06/23/2015	17:09:53.598	$GPGGA,170954,2543.8848,N,08009.7269,W,1,11,1.5,6,M,,M,,*5B
06/23/2015	17:09:54.588	$GPGGA,170955,2543.8847,N,08009.7269,W,1,11,1.5,6,M,,M,,*55
06/23/2015	17:09:55.501	$GPGGA,170956,2543.8848,N,08009.7269,W,1,11,1.5,6,M,,M,,*59
06/23/2015	17:09:56.588	$GPGGA,170957,2543.8848,N,08009.7269,W,1,11,1.5,6,M,,M,,*58
06/23/2015	17:09:57.601	$GPGGA,170958,2543.8848,N,08009.7269,W,1,11,1.5,6,M,,M,,*57
06/23/2015	17:09:58.589	$GPGGA,170959,2543.8847,N,08009.7268,W,1,11,1.5,6,M,,M,,*58
06/23/2015	17:09:59.599	$GPGGA,171000,2543.8848,N,08009.7269,W,1,11,1.5,6,M,,M,,*52
06/23/2015	17:10:00.588	$GPGGA,171001,2543.8847,N,08009.7269,W,1,11,1.5,6,M,,M,,*5C
06/23/2015	17:10:01.580	$GPGGA,171002,2543.8849,N,08009.7269,W,1,11,1.5,6,M,,M,,*51
06/23/2015	17:10:02.578	$GPGGA,171003,2543.8848,N,08009.7268,W,1,11,1.5,6,M,,M,,*50
06/23/2015	17:10:03.618	$GPGGA,171004,2543.8849,N,08009.7269,W,1,11,1.5,6,M,,M,,*57
06/23/2015	17:10:04.568	$GPGGA,171005,2543.8848,N,08009.7269,W,1,11,1.5,6,M,,M,,*57
06/23/2015	17:10:05.591	$GPGGA,171006,2543.8849,N,08009.7269,W,1,11,1.5,6,M,,M,,*55
06/23/2015	17:10:06.568	$GPGGA,171007,2543.8848,N,08009.7269,W,1,11,1.5,6,M,,M,,*55
06/23/2015	17:10:07.593	$GPGGA,171008,2543.8849,N,08009.7269,W,1,11,1.5,6,M,,M,,*5B
06/23/2015	17:10:08.558	$GPGGA,171009,2543.8848,N,08009.7269,W,1,11,1.5,6,M,,M,,*5B
06/23/2015	17:10:09.578	$GPGGA,171010,2543.8849,N,08009.7269,W,1,11,1.5,6,M,,M,,*52
06/23/2015	17:10:10.558	$GPGGA,171011,2543.8848,N,08009.7270,W,1,11,1.5,6,M,,M,,*5A
06/23/2015	17:10:11.593	$GPGGA,171012,2543.8849,N,08009.7270,W,1,11,1.5,6,M,,M,,*58
06/23/2015	17:10:12.548	$GPGGA,171013,2543.8848,N,08009.7270,W,1,11,1.5,6,M,,M,,*58
06/23/2015	17:10:13.568	$GPGGA,171014,2543.8849,N,08009.7270,W,1,11,1.5,6,M,,M,,*5E
06/23/2015	17:10:14.548	$GPGGA,171015,2543.8848,N,08009.7270,W,1,11,1.5,7,M,,M,,*5F
06/23/2015	17:10:15.589	$GPGGA,171016,2543.8849,N,08009.7270,W,1,11,1.5,7,M,,M,,*5D
06/23/2015	17:10:16.558	$GPGGA,171017,2543.8848,N,08009.7272,W,1,11,1.5,7,M,,M,,*5F
06/23/2015	17:10:17.538	$GPGGA,171018,2543.8849,N,08009.7271,W,1,11,1.5,7,M,,M,,*52
06/23/2015	17:10:18.558	$GPGGA,171019,2543.8848,N,08009.7272,W,1,11,1.5,7,M,,M,,*51
06/23/2015	17:10:19.548	$GPGGA,171020,2543.8849,N,08009.7271,W,1,11,1.5,7,M,,M,,*59
06/23/2015	17:10:20.548	$GPGGA,171021,2543.8848,N,08009.7272,W,1,11,1.5,7,M,,M,,*5A
06/23/2015	17:10:21.528	$GPGGA,171022,2543.8849,N,08009.7272,W,1,11,1.5,7,M,,M,,*58
06/23/2015	17:10:22.538	$GPGGA,171023,2543.8848,N,08009.7272,W,1,11,1.5,7,M,,M,,*58
06/23/2015	17:10:23.578	$GPGGA,171024,2543.8849,N,08009.7272,W,1,11,1.5,7,M,,M,,*5E
06/23/2015	17:10:24.528	$GPGGA,171025,2543.8848,N,08009.7272,W,1,11,1.5,7,M,,M,,*5E
06/23/2015	17:10:25.548	$GPGGA,171026,2543.8849,N,08009.7273,W,1,11,1.5,7,M,,M,,*5D
06/23/2015	17:10:26.518	$GPGGA,171027,2543.8848,N,08009.7273,W,1,11,1.5,7,M,,M,,*5D
06/23/2015	17:10:27.538	$GPGGA,171028,2543.8849,N,08009.7273,W,1,11,1.5,7,M,,M,,*53
06/23/2015	17:10:28.518	$GPGGA,171029,2543.8849,N,08009.7273,W,1,11,1.5,7,M,,M,,*52
06/23/2015	17:10:29.628	$GPGGA,171030,2543.8849,N,08009.7272,W,1,11,1.5,7,M,,M,,*5B
06/23/2015	17:10:30.508	$GPGGA,171031,2543.8849,N,08009.7272,W,1,11,1.5,7,M,,M,,*5A
06/23/2015	17:10:31.538	$GPGGA,171032,2543.8849,N,08009.7272,W,1,11,1.5,7,M,,M,,*59
06/23/2015	17:10:32.518	$GPGGA,171033,2543.8849,N,08009.7272,W,1,11,1.5,7,M,,M,,*58
06/23/2015	17:10:33.508	$GPGGA,171034,2543.8849,N,08009.7272,W,1,11,1.5,7,M,,M,,*5F
06/23/2015	17:10:34.528	$GPGGA,171035,2543.8849,N,08009.7272,W,1,11,1.5,7,M,,M,,*5E
06/23/2015	17:10:35.638	$GPGGA,171036,2543.8849,N,08009.7271,W,1,11,1.5,7,M,,M,,*5E
06/23/2015	17:10:36.518	$GPGGA,171037,2543.8849,N,08009.7272,W,1,11,1.5,7,M,,M,,*5C
06/23/2015	17:10:37.528	$GPGGA,171038,2543.8849,N,08009.7272,W,1,11,1.5,7,M,,M,,*53
06/23/2015	17:10:38.599	$GPGGA,171039,2543.8849,N,08009.7271,W,1,11,1.5,7,M,,M,,*51
06/23/2015	17:10:39.528	$GPGGA,171040,2543.8849,N,08009.7272,W,1,11,1.5,8,M,,M,,*53
06/23/2015	17:10:40.603	$GPGGA,171041,2543.8849,N,08009.7271,W,1,11,1.5,8,M,,M,,*51
06/23/2015	17:10:41.604	$GPGGA,171042,2543.8849,N,08009.7272,W,1,11,1.5,8,M,,M,,*51
06/23/2015	17:10:42.508	$GPGGA,171043,2543.8849,N,08009.7272,W,1,11,1.5,8,M,,M,,*50
06/23/2015	17:10:43.618	$GPGGA,171044,2543.8849,N,08009.7272,W,1,11,1.5,8,M,,M,,*57
06/23/2015	17:10:44.591	$GPGGA,171045,2543.8849,N,08009.7272,W,1,11,1.5,8,M,,M,,*56
06/23/2015	17:10:45.578	$GPGGA,171046,2543.8849,N,08009.7273,W,1,11,1.5,8,M,,M,,*54
06/23/2015	17:10:46.498	$GPGGA,171047,2543.8850,N,08009.7272,W,1,11,1.5,8,M,,M,,*5C
06/23/2015	17:10:47.588	$GPGGA,171048,2543.8850,N,08009.7272,W,1,10,1.8,8,M,,M,,*5F
06/23/2015	17:10:48.578	$GPGGA,171049,2543.8850,N,08009.7272,W,1,10,1.8,8,M,,M,,*5E
06/23/2015	17:10:49.478	$GPGGA,171050,2543.8850,N,08009.7271,W,1,10,1.8,8,M,,M,,*55
06/23/2015	17:10:50.578	$GPGGA,171051,2543.8852,N,08009.7272,W,1,10,1.8,8,M,,M,,*55
06/23/2015	17:10:51.608	$GPGGA,171052,2543.8851,N,08009.7272,W,1,10,1.8,8,M,,M,,*55
06/23/2015	17:10:52.579	$GPGGA,171053,2543.8852,N,08009.7272,W,1,10,1.8,8,M,,M,,*57
06/23/2015	17:10:53.588	$GPGGA,171054,2543.8851,N,08009.7272,W,1,10,1.8,8,M,,M,,*53
06/23/2015	17:10:54.578	$GPGGA,171055,2543.8852,N,08009.7272,W,1,10,1.8,7,M,,M,,*5E
06/23/2015	17:10:55.588	$GPGGA,171056,2543.8851,N,08009.7272,W,1,10,1.8,7,M,,M,,*5E
06/23/2015	17:10:56.558	$GPGGA,171057,2543.8852,N,08009.7272,W,1,10,1.8,7,M,,M,,*5C
06/23/2015	17:10:57.568	$GPGGA,171058,2543.8848,N,08009.7271,W,1,9,1.9,7,M,,M,,*62
06/23/2015	17:10:58.558	$GPGGA,171059,2543.8847,N,08009.7272,W,1,9,1.8,7,M,,M,,*6E
06/23/2015	17:10:59.607	$GPGGA,171100,2543.8846,N,08009.7271,W,1,11,1.5,7,M,,M,,*55
06/23/2015	17:11:00.558	$GPGGA,171101,2543.8846,N,08009.7272,W,1,11,1.8,8,M,,M,,*55
06/23/2015	17:11:01.548	$GPGGA,171102,2543.8846,N,08009.7273,W,1,11,1.5,8,M,,M,,*5A
06/23/2015	17:11:02.558	$GPGGA,171103,2543.8846,N,08009.7273,W,1,11,1.5,8,M,,M,,*5B
06/23/2015	17:11:03.578	$GPGGA,171104,2543.8846,N,08009.7274,W,1,11,1.5,8,M,,M,,*5B
06/23/2015	17:11:04.548	$GPGGA,171105,2543.8846,N,08009.7274,W,1,11,1.5,8,M,,M,,*5A
06/23/2015	17:11:05.538	$GPGGA,171106,2543.8846,N,08009.7276,W,1,11,1.5,8,M,,M,,*5B
06/23/2015	17:11:06.548	$GPGGA,171107,2543.8846,N,08009.7275,W,1,11,1.5,8,M,,M,,*59
06/23/2015	17:11:07.578	$GPGGA,171108,2543.8846,N,08009.7276,W,1,11,1.5,8,M,,M,,*55
06/23/2015	17:11:08.538	$GPGGA,171109,2543.8846,N,08009.7275,W,1,11,1.5,8,M,,M,,*57
06/23/2015	17:11:09.538	$GPGGA,171110,2543.8846,N,08009.7276,W,1,10,1.8,8,M,,M,,*50
06/23/2015	17:11:10.538	$GPGGA,171111,2543.8846,N,08009.7275,W,1,10,1.8,8,M,,M,,*52
06/23/2015	17:11:11.538	$GPGGA,171112,2543.8846,N,08009.7277,W,1,10,1.8,8,M,,M,,*53
06/23/2015	17:11:12.548	$GPGGA,171113,2543.8844,N,08009.7279,W,1,10,1.5,8,M,,M,,*53
06/23/2015	17:11:13.518	$GPGGA,171114,2543.8845,N,08009.7280,W,1,11,1.5,8,M,,M,,*52
06/23/2015	17:11:14.518	$GPGGA,171115,2543.8843,N,08009.7280,W,1,11,1.5,8,M,,M,,*55
06/23/2015	17:11:15.528	$GPGGA,171116,2543.8842,N,08009.7281,W,1,11,1.5,9,M,,M,,*57
06/23/2015	17:11:16.528	$GPGGA,171117,2543.8842,N,08009.7283,W,1,11,1.5,9,M,,M,,*54
06/23/2015	17:11:17.528	$GPGGA,171118,2543.8842,N,08009.7282,W,1,11,1.5,9,M,,M,,*5A
06/23/2015	17:11:18.528	$GPGGA,171119,2543.8842,N,08009.7283,W,1,11,1.5,9,M,,M,,*5A
06/23/2015	17:11:19.528	$GPGGA,171120,2543.8842,N,08009.7283,W,1,11,1.5,9,M,,M,,*50
06/23/2015	17:11:20.528	$GPGGA,171121,2543.8842,N,08009.7284,W,1,11,1.5,9,M,,M,,*56
06/23/2015	17:11:21.648	$GPGGA,171122,2543.8842,N,08009.7284,W,1,11,1.5,9,M,,M,,*55
06/23/2015	17:11:22.498	$GPGGA,171123,2543.8842,N,08009.7285,W,1,11,1.5,9,M,,M,,*55
06/23/2015	17:11:23.528	$GPGGA,171124,2543.8842,N,08009.7285,W,1,11,1.5,9,M,,M,,*52
06/23/2015	17:11:24.599	$GPGGA,171125,2543.8842,N,08009.7285,W,1,11,1.5,9,M,,M,,*53
06/23/2015	17:11:25.498	$GPGGA,171126,2543.8840,N,08009.7287,W,1,11,1.5,10,M,,M,,*68
06/23/2015	17:11:27.628	$GPGGA,171128,2543.8840,N,08009.7287,W,1,11,1.5,10,M,,M,,*66
06/23/2015	17:11:28.518	$GPGGA,171129,2543.8841,N,08009.7288,W,1,11,1.5,10,M,,M,,*69
06/23/2015	17:11:29.609	$GPGGA,171130,2543.8840,N,08009.7288,W,1,11,1.5,10,M,,M,,*60
06/23/2015	17:11:30.503	$GPGGA,171131,2543.8841,N,08009.7290,W,1,11,1.5,10,M,,M,,*69
06/23/2015	17:11:31.618	$GPGGA,171132,2543.8840,N,08009.7290,W,1,11,1.5,10,M,,M,,*6B
06/23/2015	17:11:32.600	$GPGGA,171133,2543.8841,N,08009.7290,W,1,11,1.5,10,M,,M,,*6B
06/23/2015	17:11:33.608	$GPGGA,171134,2543.8839,N,08009.7290,W,1,11,1.5,10,M,,M,,*63
06/23/2015	17:11:34.592	$GPGGA,171135,2543.8839,N,08009.7291,W,1,11,1.5,10,M,,M,,*63
06/23/2015	17:11:35.591	$GPGGA,171136,2543.8839,N,08009.7291,W,1,11,1.5,10,M,,M,,*60
06/23/2015	17:11:36.578	$GPGGA,171137,2543.8841,N,08009.7291,W,1,11,1.5,10,M,,M,,*6E
06/23/2015	17:11:37.589	$GPGGA,171138,2543.8840,N,08009.7291,W,1,11,1.5,11,M,,M,,*61
06/23/2015	17:11:38.578	$GPGGA,171139,2543.8839,N,08009.7291,W,1,11,1.5,11,M,,M,,*6E
06/23/2015	17:11:39.618	$GPGGA,171140,2543.8839,N,08009.7292,W,1,11,1.5,11,M,,M,,*63
06/23/2015	17:11:40.578	$GPGGA,171141,2543.8839,N,08009.7292,W,1,11,1.5,11,M,,M,,*62
06/23/2015	17:11:41.593	$GPGGA,171142,2543.8839,N,08009.7292,W,1,11,1.5,11,M,,M,,*61
06/23/2015	17:11:42.578	$GPGGA,171143,2543.8839,N,08009.7294,W,1,11,1.5,11,M,,M,,*66
06/23/2015	17:11:43.601	$GPGGA,171144,2543.8839,N,08009.7293,W,1,11,1.5,11,M,,M,,*66
06/23/2015	17:11:44.569	$GPGGA,171145,2543.8839,N,08009.7294,W,1,11,1.5,11,M,,M,,*60
