Software Version Number: 1	Data File Format Number: 1	Build Version Number: 1	Error Count Since VI Started: 3	Manufacturer: Raytheon	 Model Number: RayMarine 120	 S/N: 	 Cal Date: 	 Wind Direction Offset: 0.00	 Slope (M)1: 0.00	 Offset (B)1: 0.00	 Slope (M)2: 0.00	 Offset (B)2: 0.00	 Slope (M)3: 0.00	 Offset (B)3: 0.00	 Slope (M)4: 0.00	 Offset (B)4: 0.00	 Slope (M)5: 0.00	 Offset (B)5: 0.00	 Slope (M)6: 0.00	 Offset (B)6: 0.00
Computer Date	Computer Time	GGA String
06/24/2015	23:00:00.830	$GPGGA,230001,2540.6768,N,08003.5286,W,1,7,1.9,13,M,,M,,*53
06/24/2015	23:00:01.560	$GPGGA,230002,2540.6761,N,08003.5289,W,1,8,1.9,13,M,,M,,*59
06/24/2015	23:00:02.511	$GPGGA,230003,2540.6755,N,08003.5293,W,1,8,1.9,13,M,,M,,*54
06/24/2015	23:00:03.521	$GPGGA,230004,2540.6748,N,08003.5296,W,1,8,1.9,13,M,,M,,*5A
06/24/2015	23:00:04.512	$GPGGA,230005,2540.6742,N,08003.5298,W,1,8,1.9,13,M,,M,,*5F
06/24/2015	23:00:05.546	$GPGGA,230006,2540.6736,N,08003.5300,W,1,8,1.9,13,M,,M,,*5F
06/24/2015	23:00:06.501	$GPGGA,230007,2540.6729,N,08003.5303,W,1,8,1.9,13,M,,M,,*53
06/24/2015	23:00:07.561	$GPGGA,230008,2540.6723,N,08003.5305,W,1,8,1.9,13,M,,M,,*50
06/24/2015	23:00:08.601	$GPGGA,230009,2540.6716,N,08003.5307,W,1,8,1.9,13,M,,M,,*55
06/24/2015	23:00:09.511	$GPGGA,230010,2540.6711,N,08003.5311,W,1,8,1.9,13,M,,M,,*5D
06/24/2015	23:00:10.501	$GPGGA,230011,2540.6704,N,08003.5312,W,1,8,1.9,13,M,,M,,*5B
06/24/2015	23:00:11.511	$GPGGA,230012,2540.6698,N,08003.5314,W,1,8,1.9,13,M,,M,,*5A
06/24/2015	23:00:12.491	$GPGGA,230013,2540.6693,N,08003.5316,W,1,8,1.9,13,M,,M,,*52
06/24/2015	23:00:13.630	$GPGGA,230014,2540.6686,N,08003.5318,W,1,8,1.9,13,M,,M,,*5F
06/24/2015	23:00:14.480	$GPGGA,230015,2540.6680,N,08003.5319,W,1,8,1.9,13,M,,M,,*59
06/24/2015	23:00:15.500	$GPGGA,230016,2540.6674,N,08003.5321,W,1,8,1.9,13,M,,M,,*5A
06/24/2015	23:00:16.500	$GPGGA,230017,2540.6668,N,08003.5322,W,1,8,1.9,13,M,,M,,*55
06/24/2015	23:00:17.500	$GPGGA,230018,2540.6662,N,08003.5325,W,1,8,1.9,13,M,,M,,*57
06/24/2015	23:00:18.481	$GPGGA,230019,2540.6656,N,08003.5323,W,1,8,1.9,13,M,,M,,*57
06/24/2015	23:00:19.621	$GPGGA,230020,2540.6649,N,08003.5325,W,1,7,1.9,13,M,,M,,*5A
06/24/2015	23:00:20.491	$GPGGA,230021,2540.6644,N,08003.5325,W,1,7,1.9,13,M,,M,,*56
06/24/2015	23:00:21.491	$GPGGA,230022,2540.6640,N,08003.5326,W,1,7,2.4,13,M,,M,,*5C
06/24/2015	23:00:22.471	$GPGGA,230023,2540.6636,N,08003.5327,W,1,7,1.9,13,M,,M,,*53
06/24/2015	23:00:23.481	$GPGGA,230024,2540.6633,N,08003.5329,W,1,8,1.5,13,M,,M,,*5C
06/24/2015	23:00:24.631	$GPGGA,230025,2540.6628,N,08003.5332,W,1,8,1.5,13,M,,M,,*5D
06/24/2015	23:00:25.571	$GPGGA,230026,2540.6624,N,08003.5333,W,1,8,1.5,13,M,,M,,*53
06/24/2015	23:00:26.581	$GPGGA,230027,2540.6618,N,08003.5334,W,1,8,1.5,13,M,,M,,*5A
06/24/2015	23:00:27.591	$GPGGA,230028,2540.6613,N,08003.5336,W,1,8,1.5,14,M,,M,,*5B
06/24/2015	23:00:28.561	$GPGGA,230029,2540.6604,N,08003.5339,W,1,8,1.9,14,M,,M,,*5F
06/24/2015	23:00:29.571	$GPGGA,230030,2540.6599,N,08003.5340,W,1,8,1.5,14,M,,M,,*52
06/24/2015	23:00:30.561	$GPGGA,230031,2540.6592,N,08003.5341,W,1,8,1.5,14,M,,M,,*59
06/24/2015	23:00:31.630	$GPGGA,230032,2540.6585,N,08003.5343,W,1,8,1.5,14,M,,M,,*5E
06/24/2015	23:00:32.555	$GPGGA,230033,2540.6578,N,08003.5345,W,1,8,1.5,14,M,,M,,*5B
06/24/2015	23:00:33.570	$GPGGA,230034,2540.6571,N,08003.5345,W,1,8,1.5,14,M,,M,,*55
06/24/2015	23:00:34.552	$GPGGA,230035,2540.6566,N,08003.5347,W,1,8,1.5,14,M,,M,,*50
06/24/2015	23:00:35.581	$GPGGA,230036,2540.6559,N,08003.5348,W,1,8,1.5,14,M,,M,,*50
06/24/2015	23:00:36.551	$GPGGA,230037,2540.6553,N,08003.5350,W,1,8,1.5,15,M,,M,,*53
06/24/2015	23:00:37.571	$GPGGA,230038,2540.6548,N,08003.5350,W,1,8,1.5,15,M,,M,,*56
06/24/2015	23:00:38.531	$GPGGA,230039,2540.6541,N,08003.5351,W,1,8,1.5,15,M,,M,,*5F
06/24/2015	23:00:39.591	$GPGGA,230040,2540.6535,N,08003.5352,W,1,8,1.5,15,M,,M,,*51
06/24/2015	23:00:40.531	$GPGGA,230041,2540.6530,N,08003.5354,W,1,8,1.5,15,M,,M,,*53
06/24/2015	23:00:41.571	$GPGGA,230042,2540.6524,N,08003.5354,W,1,8,1.5,15,M,,M,,*55
06/24/2015	23:00:42.531	$GPGGA,230043,2540.6518,N,08003.5355,W,1,8,1.5,15,M,,M,,*5A
06/24/2015	23:00:43.601	$GPGGA,230044,2540.6512,N,08003.5358,W,1,8,1.5,15,M,,M,,*5A
06/24/2015	23:00:44.543	$GPGGA,230045,2540.6506,N,08003.5357,W,1,8,1.5,15,M,,M,,*51
06/24/2015	23:00:45.555	$GPGGA,230046,2540.6501,N,08003.5358,W,1,8,1.5,16,M,,M,,*59
06/24/2015	23:00:46.521	$GPGGA,230047,2540.6494,N,08003.5359,W,1,8,1.5,16,M,,M,,*54
06/24/2015	23:00:47.561	$GPGGA,230048,2540.6487,N,08003.5359,W,1,9,1.9,16,M,,M,,*54
06/24/2015	23:00:48.541	$GPGGA,230049,2540.6483,N,08003.5361,W,1,9,1.5,16,M,,M,,*56
06/24/2015	23:00:49.520	$GPGGA,230050,2540.6480,N,08003.5361,W,1,9,1.5,16,M,,M,,*5D
06/24/2015	23:00:50.557	$GPGGA,230051,2540.6476,N,08003.5362,W,1,9,1.5,16,M,,M,,*56
06/24/2015	23:00:51.542	$GPGGA,230052,2540.6469,N,08003.5363,W,1,9,1.5,16,M,,M,,*5A
06/24/2015	23:00:52.530	$GPGGA,230053,2540.6463,N,08003.5365,W,1,9,1.5,16,M,,M,,*57
06/24/2015	23:00:53.542	$GPGGA,230054,2540.6458,N,08003.5364,W,1,9,1.5,17,M,,M,,*58
06/24/2015	23:00:54.801	$GPGGA,230055,2540.6451,N,08003.5365,W,1,9,1.5,17,M,,M,,*51
06/24/2015	23:00:55.652	$GPGGA,230056,2540.6444,N,08003.5366,W,1,9,1.5,17,M,,M,,*55
06/24/2015	23:00:56.542	$GPGGA,230057,2540.6438,N,08003.5368,W,1,9,1.5,17,M,,M,,*51
06/24/2015	23:00:57.531	$GPGGA,230058,2540.6432,N,08003.5368,W,1,9,1.5,17,M,,M,,*54
06/24/2015	23:00:58.501	$GPGGA,230059,2540.6426,N,08003.5369,W,1,9,1.5,17,M,,M,,*51
06/24/2015	23:00:59.571	$GPGGA,230100,2540.6420,N,08003.5369,W,1,9,1.5,17,M,,M,,*5A
06/24/2015	23:01:00.501	$GPGGA,230101,2540.6414,N,08003.5372,W,1,9,1.5,17,M,,M,,*56
06/24/2015	23:01:01.621	$GPGGA,230102,2540.6407,N,08003.5371,W,1,9,1.5,18,M,,M,,*5B
06/24/2015	23:01:02.511	$GPGGA,230103,2540.6401,N,08003.5372,W,1,9,1.5,18,M,,M,,*5F
06/24/2015	23:01:03.601	$GPGGA,230104,2540.6394,N,08003.5374,W,1,9,1.5,18,M,,M,,*55
06/24/2015	23:01:04.501	$GPGGA,230105,2540.6389,N,08003.5374,W,1,9,1.5,18,M,,M,,*58
06/24/2015	23:01:05.491	$GPGGA,230106,2540.6382,N,08003.5376,W,1,9,1.5,18,M,,M,,*52
06/24/2015	23:01:06.590	$GPGGA,230107,2540.6376,N,08003.5376,W,1,9,1.5,18,M,,M,,*58
06/24/2015	23:01:07.600	$GPGGA,230108,2540.6369,N,08003.5377,W,1,9,1.5,18,M,,M,,*58
06/24/2015	23:01:09.600	$GPGGA,230110,2540.6357,N,08003.5379,W,1,9,1.5,18,M,,M,,*52
06/24/2015	23:01:10.561	$GPGGA,230111,2540.6351,N,08003.5380,W,1,9,1.5,18,M,,M,,*53
06/24/2015	23:01:11.569	$GPGGA,230112,2540.6344,N,08003.5381,W,1,9,1.5,18,M,,M,,*55
06/24/2015	23:01:12.559	$GPGGA,230113,2540.6337,N,08003.5383,W,1,9,1.5,19,M,,M,,*53
06/24/2015	23:01:13.550	$GPGGA,230114,2540.6330,N,08003.5383,W,1,9,1.5,19,M,,M,,*53
06/24/2015	23:01:14.559	$GPGGA,230115,2540.6324,N,08003.5384,W,1,9,1.5,19,M,,M,,*50
06/24/2015	23:01:15.589	$GPGGA,230116,2540.6317,N,08003.5386,W,1,9,1.5,19,M,,M,,*51
06/24/2015	23:01:16.549	$GPGGA,230117,2540.6310,N,08003.5387,W,1,9,1.5,19,M,,M,,*56
06/24/2015	23:01:17.549	$GPGGA,230118,2540.6304,N,08003.5388,W,1,9,1.5,19,M,,M,,*53
06/24/2015	23:01:18.549	$GPGGA,230119,2540.6299,N,08003.5390,W,1,9,1.5,19,M,,M,,*5E
06/24/2015	23:01:19.559	$GPGGA,230120,2540.6292,N,08003.5390,W,1,9,1.5,19,M,,M,,*5F
06/24/2015	23:01:20.540	$GPGGA,230121,2540.6286,N,08003.5391,W,1,9,1.5,19,M,,M,,*5A
06/24/2015	23:01:21.529	$GPGGA,230122,2540.6279,N,08003.5394,W,1,9,1.5,19,M,,M,,*5C
06/24/2015	23:01:22.539	$GPGGA,230123,2540.6273,N,08003.5394,W,1,9,1.5,19,M,,M,,*57
06/24/2015	23:01:23.578	$GPGGA,230124,2540.6266,N,08003.5397,W,1,9,1.5,19,M,,M,,*57
06/24/2015	23:01:24.528	$GPGGA,230125,2540.6260,N,08003.5398,W,1,9,1.5,19,M,,M,,*5F
06/24/2015	23:01:25.548	$GPGGA,230126,2540.6253,N,08003.5398,W,1,9,1.5,19,M,,M,,*5C
06/24/2015	23:01:26.528	$GPGGA,230127,2540.6247,N,08003.5401,W,1,9,1.5,19,M,,M,,*5F
06/24/2015	23:01:27.558	$GPGGA,230128,2540.6242,N,08003.5404,W,1,9,1.5,19,M,,M,,*50
06/24/2015	23:01:28.519	$GPGGA,230129,2540.6235,N,08003.5405,W,1,9,1.5,19,M,,M,,*50
06/24/2015	23:01:29.509	$GPGGA,230130,2540.6228,N,08003.5405,W,1,9,1.5,19,M,,M,,*54
06/24/2015	23:01:30.519	$GPGGA,230131,2540.6223,N,08003.5408,W,1,9,1.5,19,M,,M,,*53
06/24/2015	23:01:31.549	$GPGGA,230132,2540.6216,N,08003.5409,W,1,9,1.5,19,M,,M,,*57
06/24/2015	23:01:32.519	$GPGGA,230133,2540.6209,N,08003.5409,W,1,9,1.5,19,M,,M,,*58
06/24/2015	23:01:33.549	$GPGGA,230134,2540.6203,N,08003.5412,W,1,9,1.5,19,M,,M,,*5F
06/24/2015	23:01:34.510	$GPGGA,230135,2540.6198,N,08003.5415,W,1,9,1.5,18,M,,M,,*59
06/24/2015	23:01:35.549	$GPGGA,230136,2540.6190,N,08003.5415,W,1,9,1.5,18,M,,M,,*52
06/24/2015	23:01:36.499	$GPGGA,230137,2540.6184,N,08003.5417,W,1,9,1.5,18,M,,M,,*54
06/24/2015	23:01:37.499	$GPGGA,230138,2540.6177,N,08003.5419,W,1,9,1.5,18,M,,M,,*59
06/24/2015	23:01:38.509	$GPGGA,230139,2540.6171,N,08003.5421,W,1,9,1.5,18,M,,M,,*55
06/24/2015	23:01:39.549	$GPGGA,230140,2540.6165,N,08003.5424,W,1,9,1.5,18,M,,M,,*5B
06/24/2015	23:01:40.509	$GPGGA,230141,2540.6158,N,08003.5426,W,1,9,1.5,18,M,,M,,*56
06/24/2015	23:01:41.488	$GPGGA,230142,2540.6152,N,08003.5427,W,1,9,1.5,18,M,,M,,*5E
06/24/2015	23:01:43.548	$GPGGA,230144,2540.6140,N,08003.5431,W,1,9,1.5,18,M,,M,,*5C
06/24/2015	23:01:44.498	$GPGGA,230145,2540.6133,N,08003.5434,W,1,9,1.5,18,M,,M,,*5C
06/24/2015	23:01:45.589	$GPGGA,230146,2540.6127,N,08003.5437,W,1,9,1.5,18,M,,M,,*59
06/24/2015	23:01:46.579	$GPGGA,230147,2540.6120,N,08003.5437,W,1,9,1.5,18,M,,M,,*5F
06/24/2015	23:01:47.489	$GPGGA,230148,2540.6115,N,08003.5439,W,1,9,1.5,18,M,,M,,*58
06/24/2015	23:01:48.569	$GPGGA,230149,2540.6107,N,08003.5441,W,1,9,1.5,18,M,,M,,*55
06/24/2015	23:01:49.609	$GPGGA,230150,2540.6101,N,08003.5444,W,1,9,1.5,18,M,,M,,*5E
06/24/2015	23:01:50.569	$GPGGA,230151,2540.6095,N,08003.5445,W,1,9,1.5,18,M,,M,,*52
06/24/2015	23:01:51.589	$GPGGA,230152,2540.6088,N,08003.5446,W,1,9,1.5,18,M,,M,,*5E
06/24/2015	23:01:52.569	$GPGGA,230153,2540.6082,N,08003.5448,W,1,9,1.9,18,M,,M,,*57
06/24/2015	23:01:53.469	$GPGGA,230154,2540.6076,N,08003.5451,W,1,9,1.5,18,M,,M,,*5F
06/24/2015	23:01:54.579	$GPGGA,230155,2540.6069,N,08003.5452,W,1,9,1.5,18,M,,M,,*53
06/24/2015	23:01:55.479	$GPGGA,230156,2540.6062,N,08003.5453,W,1,9,1.5,18,M,,M,,*5A
06/24/2015	23:01:56.549	$GPGGA,230157,2540.6055,N,08003.5455,W,1,9,1.5,18,M,,M,,*59
06/24/2015	23:01:57.559	$GPGGA,230158,2540.6048,N,08003.5457,W,1,9,1.5,18,M,,M,,*58
06/24/2015	23:01:58.558	$GPGGA,230159,2540.6042,N,08003.5459,W,1,9,1.5,18,M,,M,,*5D
06/24/2015	23:01:59.518	$GPGGA,230200,2540.6035,N,08003.5462,W,1,9,1.5,18,M,,M,,*5A
06/24/2015	23:02:00.548	$GPGGA,230201,2540.6028,N,08003.5463,W,1,9,1.9,17,M,,M,,*55
06/24/2015	23:02:01.548	$GPGGA,230202,2540.6022,N,08003.5464,W,1,9,1.5,17,M,,M,,*57
06/24/2015	23:02:02.548	$GPGGA,230203,2540.6017,N,08003.5466,W,1,9,1.5,17,M,,M,,*52
06/24/2015	23:02:03.589	$GPGGA,230204,2540.6011,N,08003.5467,W,1,9,1.5,17,M,,M,,*52
06/24/2015	23:02:04.540	$GPGGA,230205,2540.6006,N,08003.5470,W,1,9,1.5,17,M,,M,,*53
06/24/2015	23:02:05.559	$GPGGA,230206,2540.6001,N,08003.5469,W,1,9,1.5,17,M,,M,,*5F
06/24/2015	23:02:06.540	$GPGGA,230207,2540.5996,N,08003.5470,W,1,9,1.5,17,M,,M,,*52
06/24/2015	23:02:07.579	$GPGGA,230208,2540.5990,N,08003.5473,W,1,9,1.5,17,M,,M,,*58
06/24/2015	23:02:08.545	$GPGGA,230209,2540.5984,N,08003.5473,W,1,9,1.5,18,M,,M,,*53
06/24/2015	23:02:09.549	$GPGGA,230210,2540.5979,N,08003.5472,W,1,9,1.5,18,M,,M,,*58
06/24/2015	23:02:10.530	$GPGGA,230211,2540.5974,N,08003.5474,W,1,9,1.5,18,M,,M,,*52
06/24/2015	23:02:11.569	$GPGGA,230212,2540.5966,N,08003.5475,W,1,9,1.5,18,M,,M,,*53
06/24/2015	23:02:12.530	$GPGGA,230213,2540.5961,N,08003.5475,W,1,9,1.5,18,M,,M,,*55
06/24/2015	23:02:13.519	$GPGGA,230214,2540.5954,N,08003.5475,W,1,9,1.5,18,M,,M,,*54
06/24/2015	23:02:14.529	$GPGGA,230215,2540.5949,N,08003.5477,W,1,9,1.5,18,M,,M,,*5B
06/24/2015	23:02:15.569	$GPGGA,230216,2540.5943,N,08003.5477,W,1,9,1.5,18,M,,M,,*52
06/24/2015	23:02:16.518	$GPGGA,230217,2540.5938,N,08003.5477,W,1,9,1.5,18,M,,M,,*5F
06/24/2015	23:02:17.528	$GPGGA,230218,2540.5931,N,08003.5478,W,1,9,1.5,18,M,,M,,*56
06/24/2015	23:02:18.508	$GPGGA,230219,2540.5924,N,08003.5478,W,1,9,1.5,18,M,,M,,*53
06/24/2015	23:02:19.518	$GPGGA,230220,2540.5919,N,08003.5480,W,1,9,1.5,18,M,,M,,*50
06/24/2015	23:02:20.519	$GPGGA,230221,2540.5913,N,08003.5480,W,1,9,1.5,18,M,,M,,*5B
06/24/2015	23:02:21.543	$GPGGA,230222,2540.5906,N,08003.5479,W,1,9,1.5,18,M,,M,,*5A
06/24/2015	23:02:22.500	$GPGGA,230223,2540.5900,N,08003.5481,W,1,9,1.5,18,M,,M,,*5A
06/24/2015	23:02:23.540	$GPGGA,230224,2540.5894,N,08003.5482,W,1,9,1.5,18,M,,M,,*52
06/24/2015	23:02:24.510	$GPGGA,230225,2540.5887,N,08003.5482,W,1,9,1.5,19,M,,M,,*50
06/24/2015	23:02:25.529	$GPGGA,230226,2540.5881,N,08003.5484,W,1,9,1.5,19,M,,M,,*53
06/24/2015	23:02:26.519	$GPGGA,230227,2540.5876,N,08003.5484,W,1,9,1.5,19,M,,M,,*5A
06/24/2015	23:02:27.545	$GPGGA,230228,2540.5869,N,08003.5484,W,1,9,1.5,19,M,,M,,*5B
06/24/2015	23:02:28.609	$GPGGA,230229,2540.5862,N,08003.5485,W,1,9,1.5,19,M,,M,,*50
06/24/2015	23:02:29.499	$GPGGA,230230,2540.5856,N,08003.5486,W,1,9,1.5,19,M,,M,,*5C
06/24/2015	23:02:30.499	$GPGGA,230231,2540.5851,N,08003.5488,W,1,9,1.5,19,M,,M,,*54
06/24/2015	23:02:31.519	$GPGGA,230232,2540.5844,N,08003.5487,W,1,9,1.5,19,M,,M,,*5C
06/24/2015	23:02:32.479	$GPGGA,230233,2540.5837,N,08003.5488,W,1,9,1.5,19,M,,M,,*56
06/24/2015	23:02:33.478	$GPGGA,230234,2540.5830,N,08003.5489,W,1,9,1.5,19,M,,M,,*57
06/24/2015	23:02:34.598	$GPGGA,230235,2540.5824,N,08003.5491,W,1,9,1.5,19,M,,M,,*5A
06/24/2015	23:02:35.528	$GPGGA,230236,2540.5817,N,08003.5491,W,1,9,1.5,19,M,,M,,*59
06/24/2015	23:02:36.588	$GPGGA,230237,2540.5811,N,08003.5492,W,1,9,1.5,19,M,,M,,*5D
06/24/2015	23:02:37.468	$GPGGA,230238,2540.5805,N,08003.5493,W,1,9,1.5,19,M,,M,,*56
06/24/2015	23:02:38.589	$GPGGA,230239,2540.5799,N,08003.5495,W,1,9,1.5,19,M,,M,,*5B
06/24/2015	23:02:39.489	$GPGGA,230240,2540.5793,N,08003.5495,W,1,9,1.5,19,M,,M,,*5F
06/24/2015	23:02:40.569	$GPGGA,230241,2540.5786,N,08003.5496,W,1,9,1.5,19,M,,M,,*59
06/24/2015	23:02:41.599	$GPGGA,230242,2540.5781,N,08003.5499,W,1,9,1.5,19,M,,M,,*52
06/24/2015	23:02:42.559	$GPGGA,230243,2540.5775,N,08003.5500,W,1,9,1.5,19,M,,M,,*59
06/24/2015	23:02:43.569	$GPGGA,230244,2540.5768,N,08003.5502,W,1,9,1.5,19,M,,M,,*50
06/24/2015	23:02:44.559	$GPGGA,230245,2540.5762,N,08003.5503,W,1,9,1.5,19,M,,M,,*5A
06/24/2015	23:02:45.549	$GPGGA,230246,2540.5757,N,08003.5506,W,1,9,1.5,19,M,,M,,*5A
06/24/2015	23:02:46.559	$GPGGA,230247,2540.5750,N,08003.5506,W,1,9,1.5,19,M,,M,,*5C
06/24/2015	23:02:47.599	$GPGGA,230248,2540.5742,N,08003.5507,W,1,9,1.5,19,M,,M,,*51
06/24/2015	23:02:48.549	$GPGGA,230249,2540.5736,N,08003.5510,W,1,9,1.5,19,M,,M,,*55
06/24/2015	23:02:49.569	$GPGGA,230250,2540.5730,N,08003.5513,W,1,9,1.5,19,M,,M,,*58
06/24/2015	23:02:50.539	$GPGGA,230251,2540.5724,N,08003.5513,W,1,9,1.5,19,M,,M,,*5C
06/24/2015	23:02:51.568	$GPGGA,230252,2540.5718,N,08003.5514,W,1,9,1.5,19,M,,M,,*57
06/24/2015	23:02:52.548	$GPGGA,230253,2540.5712,N,08003.5517,W,1,9,1.5,18,M,,M,,*5E
06/24/2015	23:02:53.568	$GPGGA,230254,2540.5706,N,08003.5518,W,1,9,1.5,18,M,,M,,*53
06/24/2015	23:02:54.544	$GPGGA,230255,2540.5700,N,08003.5520,W,1,9,1.5,18,M,,M,,*5F
06/24/2015	23:02:55.569	$GPGGA,230256,2540.5693,N,08003.5522,W,1,9,1.5,18,M,,M,,*55
06/24/2015	23:02:56.545	$GPGGA,230257,2540.5687,N,08003.5524,W,1,9,1.5,18,M,,M,,*57
06/24/2015	23:02:57.535	$GPGGA,230258,2540.5681,N,08003.5527,W,1,9,1.5,18,M,,M,,*5D
06/24/2015	23:02:58.545	$GPGGA,230259,2540.5675,N,08003.5528,W,1,9,1.5,18,M,,M,,*58
06/24/2015	23:02:59.569	$GPGGA,230300,2540.5669,N,08003.5528,W,1,8,1.5,18,M,,M,,*59
06/24/2015	23:03:00.530	$GPGGA,230301,2540.5663,N,08003.5531,W,1,8,1.5,18,M,,M,,*5A
06/24/2015	23:03:01.533	$GPGGA,230302,2540.5656,N,08003.5532,W,1,9,1.5,18,M,,M,,*5D
06/24/2015	23:03:02.531	$GPGGA,230303,2540.5649,N,08003.5532,W,1,9,1.3,18,M,,M,,*54
06/24/2015	23:03:03.569	$GPGGA,230304,2540.5643,N,08003.5535,W,1,9,1.5,18,M,,M,,*58
06/24/2015	23:03:04.535	$GPGGA,230305,2540.5636,N,08003.5536,W,1,9,1.3,18,M,,M,,*5E
06/24/2015	23:03:05.509	$GPGGA,230306,2540.5630,N,08003.5536,W,1,9,1.3,18,M,,M,,*5B
06/24/2015	23:03:06.519	$GPGGA,230307,2540.5623,N,08003.5540,W,1,9,1.5,18,M,,M,,*5F
06/24/2015	23:03:07.559	$GPGGA,230308,2540.5617,N,08003.5542,W,1,9,1.3,18,M,,M,,*53
06/24/2015	23:03:08.508	$GPGGA,230309,2540.5610,N,08003.5543,W,1,9,1.3,18,M,,M,,*54
06/24/2015	23:03:09.508	$GPGGA,230310,2540.5605,N,08003.5546,W,1,9,1.5,18,M,,M,,*5B
06/24/2015	23:03:10.518	$GPGGA,230311,2540.5598,N,08003.5547,W,1,9,1.3,18,M,,M,,*5A
06/24/2015	23:03:11.508	$GPGGA,230312,2540.5591,N,08003.5549,W,1,9,1.3,18,M,,M,,*5E
06/24/2015	23:03:12.498	$GPGGA,230313,2540.5585,N,08003.5551,W,1,9,1.3,18,M,,M,,*53
06/24/2015	23:03:13.509	$GPGGA,230314,2540.5580,N,08003.5553,W,1,9,1.3,18,M,,M,,*53
06/24/2015	23:03:14.499	$GPGGA,230315,2540.5573,N,08003.5556,W,1,9,1.3,18,M,,M,,*5B
06/24/2015	23:03:15.531	$GPGGA,230316,2540.5566,N,08003.5556,W,1,9,1.3,18,M,,M,,*5C
06/24/2015	23:03:16.669	$GPGGA,230317,2540.5559,N,08003.5557,W,1,9,1.3,19,M,,M,,*51
06/24/2015	23:03:17.609	$GPGGA,230318,2540.5553,N,08003.5560,W,1,9,1.3,19,M,,M,,*50
06/24/2015	23:03:18.649	$GPGGA,230319,2540.5547,N,08003.5559,W,1,9,1.3,19,M,,M,,*5E
06/24/2015	23:03:19.509	$GPGGA,230320,2540.5540,N,08003.5563,W,1,9,1.3,19,M,,M,,*5A
06/24/2015	23:03:20.499	$GPGGA,230321,2540.5534,N,08003.5564,W,1,9,1.5,19,M,,M,,*59
06/24/2015	23:03:21.579	$GPGGA,230322,2540.5527,N,08003.5564,W,1,9,1.3,19,M,,M,,*5E
06/24/2015	23:03:22.489	$GPGGA,230323,2540.5522,N,08003.5565,W,1,9,1.3,19,M,,M,,*5B
06/24/2015	23:03:23.579	$GPGGA,230324,2540.5515,N,08003.5567,W,1,9,1.3,19,M,,M,,*5A
06/24/2015	23:03:24.479	$GPGGA,230325,2540.5509,N,08003.5567,W,1,9,1.3,19,M,,M,,*56
06/24/2015	23:03:25.589	$GPGGA,230326,2540.5504,N,08003.5568,W,1,9,1.3,19,M,,M,,*57
06/24/2015	23:03:26.639	$GPGGA,230327,2540.5498,N,08003.5571,W,1,9,1.3,19,M,,M,,*5A
06/24/2015	23:03:27.648	$GPGGA,230328,2540.5492,N,08003.5570,W,1,9,1.3,19,M,,M,,*5E
06/24/2015	23:03:28.648	$GPGGA,230329,2540.5486,N,08003.5571,W,1,9,1.3,19,M,,M,,*5B
06/24/2015	23:03:29.608	$GPGGA,230330,2540.5480,N,08003.5572,W,1,9,1.3,19,M,,M,,*56
06/24/2015	23:03:30.559	$GPGGA,230331,2540.5475,N,08003.5572,W,1,9,1.3,19,M,,M,,*5D
06/24/2015	23:03:31.659	$GPGGA,230332,2540.5469,N,08003.5571,W,1,9,1.3,19,M,,M,,*50
06/24/2015	23:03:32.559	$GPGGA,230333,2540.5462,N,08003.5574,W,1,9,1.3,19,M,,M,,*5F
06/24/2015	23:03:33.549	$GPGGA,230334,2540.5457,N,08003.5573,W,1,9,1.3,19,M,,M,,*59
06/24/2015	23:03:34.600	$GPGGA,230335,2540.5451,N,08003.5572,W,1,9,1.3,19,M,,M,,*5F
06/24/2015	23:03:35.609	$GPGGA,230336,2540.5444,N,08003.5574,W,1,9,1.3,19,M,,M,,*5E
06/24/2015	23:03:36.619	$GPGGA,230337,2540.5439,N,08003.5574,W,1,9,1.3,19,M,,M,,*55
06/24/2015	23:03:37.589	$GPGGA,230338,2540.5433,N,08003.5574,W,1,9,1.5,19,M,,M,,*56
06/24/2015	23:03:38.599	$GPGGA,230339,2540.5428,N,08003.5574,W,1,9,1.3,19,M,,M,,*5B
06/24/2015	23:03:39.549	$GPGGA,230340,2540.5422,N,08003.5576,W,1,9,1.3,19,M,,M,,*5D
06/24/2015	23:03:40.599	$GPGGA,230341,2540.5415,N,08003.5576,W,1,9,1.3,19,M,,M,,*58
06/24/2015	23:03:41.589	$GPGGA,230342,2540.5410,N,08003.5576,W,1,9,1.3,19,M,,M,,*5E
06/24/2015	23:03:42.533	$GPGGA,230343,2540.5403,N,08003.5578,W,1,9,1.3,19,M,,M,,*53
06/24/2015	23:03:43.542	$GPGGA,230344,2540.5396,N,08003.5577,W,1,9,1.3,19,M,,M,,*50
06/24/2015	23:03:44.598	$GPGGA,230345,2540.5389,N,08003.5576,W,1,9,1.3,19,M,,M,,*5E
06/24/2015	23:03:45.608	$GPGGA,230346,2540.5383,N,08003.5578,W,1,9,1.3,19,M,,M,,*59
06/24/2015	23:03:46.588	$GPGGA,230347,2540.5378,N,08003.5579,W,1,9,1.3,19,M,,M,,*5D
06/24/2015	23:03:47.608	$GPGGA,230348,2540.5371,N,08003.5578,W,1,10,1.3,19,M,,M,,*62
06/24/2015	23:03:48.519	$GPGGA,230349,2540.5365,N,08003.5578,W,1,10,1.3,19,M,,M,,*66
06/24/2015	23:03:49.542	$GPGGA,230350,2540.5360,N,08003.5579,W,1,10,1.3,19,M,,M,,*6A
06/24/2015	23:03:50.579	$GPGGA,230351,2540.5354,N,08003.5581,W,1,10,1.3,19,M,,M,,*6B
06/24/2015	23:03:51.599	$GPGGA,230352,2540.5349,N,08003.5580,W,1,10,1.3,19,M,,M,,*65
06/24/2015	23:03:52.519	$GPGGA,230353,2540.5343,N,08003.5582,W,1,10,1.3,19,M,,M,,*6C
06/24/2015	23:03:53.580	$GPGGA,230354,2540.5338,N,08003.5582,W,1,10,1.3,19,M,,M,,*67
06/24/2015	23:03:54.510	$GPGGA,230355,2540.5331,N,08003.5583,W,1,10,1.3,19,M,,M,,*6E
06/24/2015	23:03:55.519	$GPGGA,230356,2540.5325,N,08003.5585,W,1,10,1.3,19,M,,M,,*6E
06/24/2015	23:03:56.630	$GPGGA,230357,2540.5320,N,08003.5586,W,1,10,1.3,19,M,,M,,*69
06/24/2015	23:03:57.629	$GPGGA,230358,2540.5313,N,08003.5587,W,1,10,1.3,19,M,,M,,*67
06/24/2015	23:03:58.569	$GPGGA,230359,2540.5307,N,08003.5589,W,1,10,1.3,19,M,,M,,*6D
06/24/2015	23:03:59.579	$GPGGA,230400,2540.5302,N,08003.5589,W,1,10,1.3,19,M,,M,,*63
06/24/2015	23:04:00.559	$GPGGA,230401,2540.5295,N,08003.5592,W,1,10,1.5,19,M,,M,,*61
06/24/2015	23:04:01.588	$GPGGA,230402,2540.5289,N,08003.5596,W,1,9,1.3,19,M,,M,,*55
06/24/2015	23:04:02.588	$GPGGA,230403,2540.5284,N,08003.5597,W,1,9,1.3,19,M,,M,,*58
06/24/2015	23:04:03.568	$GPGGA,230404,2540.5277,N,08003.5600,W,1,10,1.3,19,M,,M,,*66
06/24/2015	23:04:04.558	$GPGGA,230405,2540.5271,N,08003.5603,W,1,10,1.5,19,M,,M,,*64
06/24/2015	23:04:05.599	$GPGGA,230406,2540.5264,N,08003.5604,W,1,8,2.1,19,M,,M,,*5A
06/24/2015	23:04:06.559	$GPGGA,230407,2540.5259,N,08003.5605,W,1,8,1.3,19,M,,M,,*55
06/24/2015	23:04:07.879	$GPGGA,230408,2540.5255,N,08003.5608,W,1,10,1.3,19,M,,M,,*62
06/24/2015	23:04:08.579	$GPGGA,230409,2540.5248,N,08003.5611,W,1,10,1.5,19,M,,M,,*61
06/24/2015	23:04:09.619	$GPGGA,230410,2540.5241,N,08003.5610,W,1,9,1.3,19,M,,M,,*5F
06/24/2015	23:04:10.579	$GPGGA,230411,2540.5235,N,08003.5611,W,1,9,1.3,19,M,,M,,*5C
06/24/2015	23:04:11.589	$GPGGA,230412,2540.5230,N,08003.5614,W,1,10,1.3,19,M,,M,,*67
06/24/2015	23:04:12.589	$GPGGA,230413,2540.5223,N,08003.5614,W,1,10,1.3,19,M,,M,,*64
06/24/2015	23:04:13.509	$GPGGA,230414,2540.5219,N,08003.5616,W,1,9,1.5,19,M,,M,,*56
06/24/2015	23:04:14.609	$GPGGA,230415,2540.5215,N,08003.5625,W,1,9,1.3,19,M,,M,,*5D
06/24/2015	23:04:15.579	$GPGGA,230416,2540.5208,N,08003.5624,W,1,10,1.3,19,M,,M,,*6B
06/24/2015	23:04:16.579	$GPGGA,230417,2540.5202,N,08003.5628,W,1,10,1.9,19,M,,M,,*66
06/24/2015	23:04:17.589	$GPGGA,230418,2540.5197,N,08003.5632,W,1,8,1.9,19,M,,M,,*54
06/24/2015	23:04:18.558	$GPGGA,230419,2540.5190,N,08003.5632,W,1,8,1.5,19,M,,M,,*5E
06/24/2015	23:04:19.578	$GPGGA,230420,2540.5184,N,08003.5636,W,1,9,1.3,19,M,,M,,*52
06/24/2015	23:04:20.558	$GPGGA,230421,2540.5180,N,08003.5639,W,1,9,1.5,19,M,,M,,*5E
06/24/2015	23:04:21.578	$GPGGA,230422,2540.5174,N,08003.5641,W,1,9,1.5,19,M,,M,,*59
06/24/2015	23:04:22.588	$GPGGA,230423,2540.5168,N,08003.5641,W,1,9,1.3,19,M,,M,,*53
06/24/2015	23:04:23.579	$GPGGA,230424,2540.5161,N,08003.5643,W,1,10,1.3,19,M,,M,,*67
06/24/2015	23:04:24.559	$GPGGA,230425,2540.5155,N,08003.5644,W,1,10,1.3,19,M,,M,,*66
06/24/2015	23:04:25.569	$GPGGA,230426,2540.5150,N,08003.5647,W,1,10,1.3,19,M,,M,,*63
06/24/2015	23:04:26.559	$GPGGA,230427,2540.5143,N,08003.5646,W,1,10,1.3,19,M,,M,,*61
06/24/2015	23:04:27.579	$GPGGA,230428,2540.5139,N,08003.5647,W,1,10,1.3,19,M,,M,,*62
06/24/2015	23:04:28.539	$GPGGA,230429,2540.5139,N,08003.5647,W,1,10,1.3,19,M,,M,,*63
06/24/2015	23:04:29.549	$GPGGA,230430,2540.5125,N,08003.5652,W,1,10,1.3,19,M,,M,,*62
06/24/2015	23:04:30.559	$GPGGA,230431,2540.5119,N,08003.5652,W,1,10,1.3,19,M,,M,,*6C
06/24/2015	23:04:31.589	$GPGGA,230432,2540.5114,N,08003.5654,W,1,10,1.3,19,M,,M,,*64
06/24/2015	23:04:32.589	$GPGGA,230433,2540.5107,N,08003.5658,W,1,10,1.3,19,M,,M,,*6B
06/24/2015	23:04:33.569	$GPGGA,230434,2540.5101,N,08003.5658,W,1,10,1.3,19,M,,M,,*6A
06/24/2015	23:04:34.569	$GPGGA,230435,2540.5101,N,08003.5658,W,1,10,1.3,19,M,,M,,*6B
06/24/2015	23:04:35.569	$GPGGA,230436,2540.5089,N,08003.5661,W,1,10,1.3,19,M,,M,,*63
06/24/2015	23:04:36.568	$GPGGA,230437,2540.5082,N,08003.5662,W,1,10,1.3,19,M,,M,,*6A
06/24/2015	23:04:37.528	$GPGGA,230438,2540.5076,N,08003.5662,W,1,10,1.3,19,M,,M,,*6E
06/24/2015	23:04:38.548	$GPGGA,230439,2540.5070,N,08003.5662,W,1,10,1.3,19,M,,M,,*69
06/24/2015	23:04:39.568	$GPGGA,230440,2540.5064,N,08003.5665,W,1,10,1.3,19,M,,M,,*65
06/24/2015	23:04:40.519	$GPGGA,230441,2540.5064,N,08003.5665,W,1,10,1.3,19,M,,M,,*64
06/24/2015	23:04:41.519	$GPGGA,230442,2540.5052,N,08003.5665,W,1,10,1.3,18,M,,M,,*63
06/24/2015	23:04:42.531	$GPGGA,230443,2540.5046,N,08003.5668,W,1,10,1.5,18,M,,M,,*6C
06/24/2015	23:04:43.529	$GPGGA,230444,2540.5042,N,08003.5668,W,1,9,1.5,18,M,,M,,*57
06/24/2015	23:04:44.619	$GPGGA,230445,2540.5035,N,08003.5667,W,1,9,1.5,18,M,,M,,*59
06/24/2015	23:04:45.609	$GPGGA,230446,2540.5029,N,08003.5668,W,1,10,1.3,18,M,,M,,*66
06/24/2015	23:04:46.549	$GPGGA,230447,2540.5023,N,08003.5669,W,1,10,1.3,18,M,,M,,*6C
06/24/2015	23:04:47.529	$GPGGA,230448,2540.5017,N,08003.5668,W,1,10,1.3,18,M,,M,,*65
06/24/2015	23:04:48.532	$GPGGA,230449,2540.5017,N,08003.5668,W,1,10,1.3,18,M,,M,,*64
06/24/2015	23:04:49.519	$GPGGA,230450,2540.5005,N,08003.5670,W,1,10,1.3,18,M,,M,,*66
06/24/2015	23:04:50.539	$GPGGA,230451,2540.5005,N,08003.5670,W,1,10,1.3,18,M,,M,,*67
06/24/2015	23:04:51.639	$GPGGA,230452,2540.4993,N,08003.5669,W,1,10,1.3,18,M,,M,,*6B
06/24/2015	23:04:52.589	$GPGGA,230453,2540.4987,N,08003.5672,W,1,10,1.3,18,M,,M,,*65
06/24/2015	23:04:53.629	$GPGGA,230454,2540.4982,N,08003.5671,W,1,10,1.3,18,M,,M,,*64
06/24/2015	23:04:54.508	$GPGGA,230455,2540.4982,N,08003.5671,W,1,10,1.3,18,M,,M,,*65
06/24/2015	23:04:55.598	$GPGGA,230456,2540.4969,N,08003.5672,W,1,10,1.3,18,M,,M,,*60
06/24/2015	23:04:56.588	$GPGGA,230457,2540.4963,N,08003.5672,W,1,10,1.3,18,M,,M,,*6B
06/24/2015	23:04:57.488	$GPGGA,230458,2540.4957,N,08003.5672,W,1,10,1.3,18,M,,M,,*63
06/24/2015	23:04:58.590	$GPGGA,230459,2540.4951,N,08003.5675,W,1,10,1.3,18,M,,M,,*63
06/24/2015	23:04:59.630	$GPGGA,230500,2540.4944,N,08003.5676,W,1,10,1.3,18,M,,M,,*69
06/24/2015	23:05:00.569	$GPGGA,230501,2540.4938,N,08003.5674,W,1,10,1.3,18,M,,M,,*61
06/24/2015	23:05:01.569	$GPGGA,230502,2540.4932,N,08003.5676,W,1,10,1.3,18,M,,M,,*6A
06/24/2015	23:05:02.589	$GPGGA,230503,2540.4927,N,08003.5679,W,1,10,1.3,18,M,,M,,*60
06/24/2015	23:05:03.609	$GPGGA,230504,2540.4921,N,08003.5677,W,1,10,1.3,18,M,,M,,*6F
06/24/2015	23:05:04.569	$GPGGA,230505,2540.4915,N,08003.5677,W,1,10,1.3,18,M,,M,,*69
06/24/2015	23:05:05.559	$GPGGA,230506,2540.4909,N,08003.5679,W,1,10,1.3,18,M,,M,,*69
06/24/2015	23:05:06.569	$GPGGA,230507,2540.4903,N,08003.5681,W,1,10,1.3,18,M,,M,,*65
06/24/2015	23:05:07.599	$GPGGA,230508,2540.4897,N,08003.5680,W,1,10,1.3,18,M,,M,,*67
06/24/2015	23:05:08.559	$GPGGA,230509,2540.4891,N,08003.5681,W,1,10,1.3,17,M,,M,,*6E
06/24/2015	23:05:09.569	$GPGGA,230510,2540.4885,N,08003.5684,W,1,10,1.3,17,M,,M,,*66
06/24/2015	23:05:10.549	$GPGGA,230511,2540.4879,N,08003.5684,W,1,10,1.3,17,M,,M,,*64
06/24/2015	23:05:11.588	$GPGGA,230512,2540.4872,N,08003.5684,W,1,10,1.3,17,M,,M,,*6C
06/24/2015	23:05:12.550	$GPGGA,230513,2540.4867,N,08003.5687,W,1,10,1.3,17,M,,M,,*6A
06/24/2015	23:05:13.578	$GPGGA,230514,2540.4861,N,08003.5690,W,1,10,1.3,17,M,,M,,*6D
06/24/2015	23:05:14.548	$GPGGA,230515,2540.4855,N,08003.5689,W,1,10,1.3,17,M,,M,,*63
06/24/2015	23:05:15.559	$GPGGA,230516,2540.4850,N,08003.5691,W,1,9,1.5,17,M,,M,,*52
06/24/2015	23:05:16.549	$GPGGA,230517,2540.4843,N,08003.5694,W,1,9,1.5,17,M,,M,,*54
06/24/2015	23:05:17.529	$GPGGA,230518,2540.4837,N,08003.5695,W,1,9,1.5,17,M,,M,,*59
06/24/2015	23:05:18.539	$GPGGA,230519,2540.4832,N,08003.5697,W,1,9,1.5,17,M,,M,,*5F
06/24/2015	23:05:19.579	$GPGGA,230520,2540.4826,N,08003.5699,W,1,9,1.5,17,M,,M,,*5E
06/24/2015	23:05:20.529	$GPGGA,230521,2540.4821,N,08003.5701,W,1,9,1.5,17,M,,M,,*58
06/24/2015	23:05:21.549	$GPGGA,230522,2540.4814,N,08003.5702,W,1,9,1.5,17,M,,M,,*5E
06/24/2015	23:05:22.529	$GPGGA,230523,2540.4808,N,08003.5704,W,1,9,1.5,17,M,,M,,*54
06/24/2015	23:05:23.559	$GPGGA,230524,2540.4803,N,08003.5706,W,1,9,1.5,16,M,,M,,*5B
06/24/2015	23:05:24.519	$GPGGA,230525,2540.4796,N,08003.5708,W,1,9,1.5,16,M,,M,,*57
06/24/2015	23:05:25.549	$GPGGA,230526,2540.4790,N,08003.5709,W,1,9,1.5,16,M,,M,,*53
06/24/2015	23:05:26.519	$GPGGA,230527,2540.4785,N,08003.5709,W,1,9,1.3,16,M,,M,,*50
06/24/2015	23:05:27.549	$GPGGA,230528,2540.4778,N,08003.5712,W,1,10,1.3,16,M,,M,,*6F
06/24/2015	23:05:28.529	$GPGGA,230529,2540.4772,N,08003.5713,W,1,10,1.5,16,M,,M,,*63
06/24/2015	23:05:29.508	$GPGGA,230530,2540.4767,N,08003.5715,W,1,9,1.5,16,M,,M,,*51
06/24/2015	23:05:30.509	$GPGGA,230531,2540.4760,N,08003.5717,W,1,9,1.5,16,M,,M,,*55
06/24/2015	23:05:31.518	$GPGGA,230532,2540.4755,N,08003.5719,W,1,9,1.5,16,M,,M,,*5E
06/24/2015	23:05:32.518	$GPGGA,230533,2540.4749,N,08003.5723,W,1,9,1.5,16,M,,M,,*5B
06/24/2015	23:05:33.499	$GPGGA,230534,2540.4743,N,08003.5724,W,1,9,1.5,16,M,,M,,*51
06/24/2015	23:05:34.519	$GPGGA,230535,2540.4738,N,08003.5726,W,1,9,1.5,16,M,,M,,*5E
06/24/2015	23:05:35.549	$GPGGA,230536,2540.4732,N,08003.5727,W,1,10,1.3,16,M,,M,,*68
06/24/2015	23:05:36.489	$GPGGA,230537,2540.4726,N,08003.5730,W,1,10,1.3,16,M,,M,,*6A
06/24/2015	23:05:37.942	$GPGGA,230538,2540.4721,N,08003.5731,W,1,9,1.5,16,M,,M,,*5D
06/24/2015	23:05:38.499	$GPGGA,230539,2540.4715,N,08003.5733,W,1,9,1.3,16,M,,M,,*5F
06/24/2015	23:05:39.519	$GPGGA,230540,2540.4708,N,08003.5735,W,1,9,1.5,16,M,,M,,*5D
06/24/2015	23:05:40.489	$GPGGA,230541,2540.4703,N,08003.5737,W,1,9,1.5,16,M,,M,,*55
06/24/2015	23:05:41.509	$GPGGA,230542,2540.4697,N,08003.5738,W,1,9,1.5,16,M,,M,,*55
06/24/2015	23:05:42.499	$GPGGA,230543,2540.4691,N,08003.5741,W,1,9,1.5,16,M,,M,,*5C
06/24/2015	23:05:43.589	$GPGGA,230544,2540.4685,N,08003.5741,W,1,9,1.5,16,M,,M,,*5E
06/24/2015	23:05:44.489	$GPGGA,230545,2540.4679,N,08003.5744,W,1,9,1.5,16,M,,M,,*59
06/24/2015	23:05:45.489	$GPGGA,230546,2540.4673,N,08003.5745,W,1,9,1.5,16,M,,M,,*51
06/24/2015	23:05:46.478	$GPGGA,230547,2540.4666,N,08003.5746,W,1,9,1.5,16,M,,M,,*57
06/24/2015	23:05:47.498	$GPGGA,230548,2540.4659,N,08003.5746,W,1,9,1.5,16,M,,M,,*54
06/24/2015	23:05:48.488	$GPGGA,230549,2540.4653,N,08003.5749,W,1,9,1.5,16,M,,M,,*50
06/24/2015	23:05:49.598	$GPGGA,230550,2540.4645,N,08003.5751,W,1,9,1.5,16,M,,M,,*56
06/24/2015	23:05:50.559	$GPGGA,230551,2540.4639,N,08003.5752,W,1,9,1.3,16,M,,M,,*59
06/24/2015	23:05:51.619	$GPGGA,230552,2540.4632,N,08003.5753,W,1,10,1.3,16,M,,M,,*68
06/24/2015	23:05:52.569	$GPGGA,230553,2540.4626,N,08003.5755,W,1,10,1.3,16,M,,M,,*6A
06/24/2015	23:05:53.589	$GPGGA,230554,2540.4619,N,08003.5756,W,1,10,1.3,16,M,,M,,*62
06/24/2015	23:05:54.599	$GPGGA,230555,2540.4612,N,08003.5756,W,1,10,1.3,16,M,,M,,*68
06/24/2015	23:05:55.609	$GPGGA,230556,2540.4606,N,08003.5759,W,1,10,1.3,16,M,,M,,*61
06/24/2015	23:05:56.559	$GPGGA,230557,2540.4601,N,08003.5760,W,1,10,1.3,16,M,,M,,*6D
06/24/2015	23:05:57.579	$GPGGA,230558,2540.4594,N,08003.5759,W,1,10,1.3,16,M,,M,,*67
06/24/2015	23:05:58.544	$GPGGA,230559,2540.4588,N,08003.5762,W,1,10,1.3,16,M,,M,,*63
06/24/2015	23:05:59.619	$GPGGA,230600,2540.4583,N,08003.5762,W,1,10,1.3,16,M,,M,,*67
06/24/2015	23:06:00.544	$GPGGA,230601,2540.4577,N,08003.5763,W,1,10,1.3,16,M,,M,,*6C
06/24/2015	23:06:01.569	$GPGGA,230602,2540.4572,N,08003.5763,W,1,10,1.3,16,M,,M,,*6A
06/24/2015	23:06:02.849	$GPGGA,230603,2540.4566,N,08003.5763,W,1,10,1.3,16,M,,M,,*6E
06/24/2015	23:06:03.548	$GPGGA,230604,2540.4561,N,08003.5764,W,1,10,1.3,16,M,,M,,*69
06/24/2015	23:06:04.541	$GPGGA,230605,2540.4555,N,08003.5766,W,1,10,1.3,16,M,,M,,*6D
06/24/2015	23:06:05.540	$GPGGA,230606,2540.4549,N,08003.5764,W,1,10,1.3,16,M,,M,,*61
06/24/2015	23:06:06.548	$GPGGA,230607,2540.4543,N,08003.5766,W,1,10,1.3,16,M,,M,,*68
06/24/2015	23:06:07.540	$GPGGA,230608,2540.4538,N,08003.5765,W,1,10,1.3,16,M,,M,,*68
06/24/2015	23:06:08.539	$GPGGA,230609,2540.4533,N,08003.5766,W,1,10,1.3,16,M,,M,,*61
06/24/2015	23:06:09.559	$GPGGA,230610,2540.4527,N,08003.5765,W,1,10,1.3,16,M,,M,,*6F
06/24/2015	23:06:10.540	$GPGGA,230611,2540.4521,N,08003.5766,W,1,10,1.3,16,M,,M,,*6B
06/24/2015	23:06:11.559	$GPGGA,230612,2540.4516,N,08003.5766,W,1,10,1.3,16,M,,M,,*6C
06/24/2015	23:06:12.529	$GPGGA,230613,2540.4511,N,08003.5767,W,1,10,1.3,16,M,,M,,*6B
06/24/2015	23:06:13.539	$GPGGA,230614,2540.4504,N,08003.5767,W,1,10,1.3,16,M,,M,,*68
06/24/2015	23:06:14.529	$GPGGA,230615,2540.4500,N,08003.5769,W,1,10,1.3,16,M,,M,,*63
06/24/2015	23:06:15.539	$GPGGA,230616,2540.4493,N,08003.5770,W,1,10,1.3,16,M,,M,,*63
06/24/2015	23:06:16.519	$GPGGA,230617,2540.4487,N,08003.5769,W,1,10,1.3,16,M,,M,,*6F
06/24/2015	23:06:17.529	$GPGGA,230618,2540.4482,N,08003.5770,W,1,10,1.3,16,M,,M,,*6D
06/24/2015	23:06:18.509	$GPGGA,230619,2540.4476,N,08003.5771,W,1,10,1.3,16,M,,M,,*66
06/24/2015	23:06:19.639	$GPGGA,230620,2540.4471,N,08003.5771,W,1,10,1.3,16,M,,M,,*6B
06/24/2015	23:06:20.618	$GPGGA,230621,2540.4464,N,08003.5771,W,1,10,1.3,16,M,,M,,*6E
06/24/2015	23:06:21.518	$GPGGA,230622,2540.4458,N,08003.5773,W,1,10,1.3,16,M,,M,,*60
06/24/2015	23:06:22.508	$GPGGA,230623,2540.4453,N,08003.5773,W,1,10,1.3,17,M,,M,,*6B
06/24/2015	23:06:24.618	$GPGGA,230625,2540.4440,N,08003.5774,W,1,10,1.3,17,M,,M,,*68
06/24/2015	23:06:25.509	$GPGGA,230626,2540.4433,N,08003.5777,W,1,10,1.3,17,M,,M,,*6C
06/24/2015	23:06:26.589	$GPGGA,230627,2540.4427,N,08003.5776,W,1,10,1.5,17,M,,M,,*6F
06/24/2015	23:06:27.619	$GPGGA,230628,2540.4420,N,08003.5778,W,1,10,1.3,17,M,,M,,*6F
06/24/2015	23:06:28.589	$GPGGA,230629,2540.4414,N,08003.5778,W,1,10,1.3,17,M,,M,,*69
06/24/2015	23:06:29.479	$GPGGA,230630,2540.4408,N,08003.5780,W,1,10,1.3,17,M,,M,,*6B
06/24/2015	23:06:30.499	$GPGGA,230631,2540.4400,N,08003.5782,W,1,10,1.5,16,M,,M,,*67
06/24/2015	23:06:31.489	$GPGGA,230632,2540.4395,N,08003.5785,W,1,9,1.5,16,M,,M,,*50
06/24/2015	23:06:32.579	$GPGGA,230633,2540.4389,N,08003.5787,W,1,9,1.5,16,M,,M,,*5E
06/24/2015	23:06:33.789	$GPGGA,230634,2540.4385,N,08003.5788,W,1,9,1.5,16,M,,M,,*5A
06/24/2015	23:06:34.569	$GPGGA,230635,2540.4380,N,08003.5789,W,1,9,1.5,17,M,,M,,*5E
06/24/2015	23:06:35.489	$GPGGA,230636,2540.4375,N,08003.5791,W,1,9,1.5,17,M,,M,,*5E
06/24/2015	23:06:36.559	$GPGGA,230637,2540.4370,N,08003.5792,W,1,9,1.5,17,M,,M,,*59
06/24/2015	23:06:37.589	$GPGGA,230638,2540.4366,N,08003.5795,W,1,9,1.5,17,M,,M,,*56
06/24/2015	23:06:38.568	$GPGGA,230639,2540.4360,N,08003.5798,W,1,9,1.3,17,M,,M,,*5A
06/24/2015	23:06:39.618	$GPGGA,230640,2540.4355,N,08003.5799,W,1,10,1.3,17,M,,M,,*6B
06/24/2015	23:06:40.568	$GPGGA,230641,2540.4348,N,08003.5800,W,1,10,1.3,17,M,,M,,*69
06/24/2015	23:06:41.578	$GPGGA,230642,2540.4342,N,08003.5802,W,1,10,1.3,17,M,,M,,*62
06/24/2015	23:06:42.558	$GPGGA,230643,2540.4337,N,08003.5805,W,1,10,1.3,17,M,,M,,*66
06/24/2015	23:06:43.589	$GPGGA,230644,2540.4331,N,08003.5806,W,1,10,1.3,17,M,,M,,*64
06/24/2015	23:06:44.559	$GPGGA,230645,2540.4324,N,08003.5809,W,1,10,1.3,17,M,,M,,*6E
06/24/2015	23:06:45.569	$GPGGA,230646,2540.4317,N,08003.5809,W,1,10,1.3,17,M,,M,,*6D
06/24/2015	23:06:46.559	$GPGGA,230647,2540.4312,N,08003.5813,W,1,10,1.3,17,M,,M,,*62
06/24/2015	23:06:47.589	$GPGGA,230648,2540.4305,N,08003.5814,W,1,10,1.3,18,M,,M,,*63
06/24/2015	23:06:48.550	$GPGGA,230649,2540.4299,N,08003.5816,W,1,10,1.3,18,M,,M,,*64
06/24/2015	23:06:49.559	$GPGGA,230650,2540.4294,N,08003.5816,W,1,10,1.3,18,M,,M,,*61
06/24/2015	23:06:50.549	$GPGGA,230651,2540.4287,N,08003.5818,W,1,10,1.3,18,M,,M,,*6C
06/24/2015	23:06:51.549	$GPGGA,230652,2540.4281,N,08003.5821,W,1,10,1.3,18,M,,M,,*63
06/24/2015	23:06:52.550	$GPGGA,230653,2540.4276,N,08003.5822,W,1,10,1.3,18,M,,M,,*69
06/24/2015	23:06:53.559	$GPGGA,230654,2540.4268,N,08003.5824,W,1,10,1.3,18,M,,M,,*67
06/24/2015	23:06:54.531	$GPGGA,230655,2540.4262,N,08003.5827,W,1,10,1.3,18,M,,M,,*6F
06/24/2015	23:06:55.548	$GPGGA,230656,2540.4256,N,08003.5828,W,1,10,1.3,18,M,,M,,*64
06/24/2015	23:06:56.530	$GPGGA,230657,2540.4249,N,08003.5831,W,1,10,1.3,18,M,,M,,*63
06/24/2015	23:06:57.543	$GPGGA,230658,2540.4243,N,08003.5832,W,1,10,1.3,18,M,,M,,*65
06/24/2015	23:06:58.518	$GPGGA,230659,2540.4237,N,08003.5834,W,1,10,1.3,18,M,,M,,*61
06/24/2015	23:06:59.548	$GPGGA,230700,2540.4230,N,08003.5835,W,1,9,1.4,18,M,,M,,*55
06/24/2015	23:07:00.519	$GPGGA,230701,2540.4225,N,08003.5838,W,1,9,1.3,18,M,,M,,*5A
06/24/2015	23:07:01.549	$GPGGA,230702,2540.4218,N,08003.5840,W,1,10,1.3,18,M,,M,,*60
06/24/2015	23:07:02.529	$GPGGA,230703,2540.4211,N,08003.5842,W,1,10,1.5,18,M,,M,,*6C
06/24/2015	23:07:03.642	$GPGGA,230704,2540.4204,N,08003.5841,W,1,9,1.5,18,M,,M,,*54
06/24/2015	23:07:04.510	$GPGGA,230705,2540.4198,N,08003.5842,W,1,9,1.3,18,M,,M,,*56
06/24/2015	23:07:05.531	$GPGGA,230706,2540.4193,N,08003.5846,W,1,9,1.5,18,M,,M,,*5C
06/24/2015	23:07:06.499	$GPGGA,230707,2540.4186,N,08003.5847,W,1,9,1.3,18,M,,M,,*5E
06/24/2015	23:07:07.569	$GPGGA,230708,2540.4179,N,08003.5849,W,1,10,1.3,18,M,,M,,*67
06/24/2015	23:07:08.519	$GPGGA,230709,2540.4173,N,08003.5850,W,1,10,1.5,18,M,,M,,*62
06/24/2015	23:07:09.499	$GPGGA,230710,2540.4167,N,08003.5853,W,1,10,1.3,18,M,,M,,*6A
06/24/2015	23:07:10.509	$GPGGA,230711,2540.4161,N,08003.5852,W,1,10,1.3,18,M,,M,,*6C
06/24/2015	23:07:11.521	$GPGGA,230712,2540.4155,N,08003.5853,W,1,10,1.3,18,M,,M,,*69
06/24/2015	23:07:12.579	$GPGGA,230713,2540.4149,N,08003.5854,W,1,10,1.3,18,M,,M,,*62
06/24/2015	23:07:13.478	$GPGGA,230714,2540.4143,N,08003.5854,W,1,10,1.3,18,M,,M,,*6F
06/24/2015	23:07:14.578	$GPGGA,230715,2540.4137,N,08003.5856,W,1,10,1.3,18,M,,M,,*6F
06/24/2015	23:07:15.636	$GPGGA,230716,2540.4130,N,08003.5856,W,1,10,1.3,18,M,,M,,*6B
06/24/2015	23:07:16.488	$GPGGA,230717,2540.4124,N,08003.5857,W,1,10,1.3,18,M,,M,,*6E
06/24/2015	23:07:17.578	$GPGGA,230718,2540.4118,N,08003.5857,W,1,10,1.3,18,M,,M,,*6E
06/24/2015	23:07:18.578	$GPGGA,230719,2540.4113,N,08003.5858,W,1,10,1.3,18,M,,M,,*6B
06/24/2015	23:07:19.588	$GPGGA,230720,2540.4106,N,08003.5860,W,1,10,1.3,18,M,,M,,*6E
06/24/2015	23:07:20.568	$GPGGA,230721,2540.4099,N,08003.5859,W,1,10,1.3,18,M,,M,,*62
06/24/2015	23:07:21.598	$GPGGA,230722,2540.4093,N,08003.5860,W,1,10,1.3,18,M,,M,,*61
06/24/2015	23:07:22.568	$GPGGA,230723,2540.4088,N,08003.5861,W,1,10,1.3,18,M,,M,,*6B
06/24/2015	23:07:23.588	$GPGGA,230724,2540.4081,N,08003.5861,W,1,10,1.3,18,M,,M,,*65
06/24/2015	23:07:24.558	$GPGGA,230725,2540.4074,N,08003.5861,W,1,10,1.3,18,M,,M,,*6E
06/24/2015	23:07:25.558	$GPGGA,230726,2540.4067,N,08003.5863,W,1,10,1.3,18,M,,M,,*6D
06/24/2015	23:07:26.558	$GPGGA,230727,2540.4061,N,08003.5863,W,1,10,1.3,18,M,,M,,*6A
06/24/2015	23:07:27.568	$GPGGA,230728,2540.4055,N,08003.5862,W,1,10,1.3,18,M,,M,,*63
06/24/2015	23:07:28.549	$GPGGA,230729,2540.4049,N,08003.5864,W,1,10,1.3,17,M,,M,,*66
06/24/2015	23:07:29.549	$GPGGA,230730,2540.4043,N,08003.5865,W,1,10,1.3,17,M,,M,,*65
06/24/2015	23:07:30.548	$GPGGA,230731,2540.4037,N,08003.5864,W,1,10,1.5,17,M,,M,,*60
06/24/2015	23:07:31.578	$GPGGA,230732,2540.4032,N,08003.5864,W,1,10,1.3,17,M,,M,,*60
06/24/2015	23:07:32.548	$GPGGA,230733,2540.4025,N,08003.5865,W,1,10,1.3,17,M,,M,,*66
06/24/2015	23:07:33.532	$GPGGA,230734,2540.4018,N,08003.5865,W,1,9,1.5,17,M,,M,,*51
06/24/2015	23:07:34.538	$GPGGA,230735,2540.4012,N,08003.5867,W,1,9,1.3,17,M,,M,,*5E
06/24/2015	23:07:35.578	$GPGGA,230736,2540.4005,N,08003.5867,W,1,10,1.3,17,M,,M,,*63
06/24/2015	23:07:36.529	$GPGGA,230737,2540.4001,N,08003.5866,W,1,10,1.3,17,M,,M,,*67
06/24/2015	23:07:37.538	$GPGGA,230738,2540.3994,N,08003.5867,W,1,10,1.3,17,M,,M,,*6B
06/24/2015	23:07:38.538	$GPGGA,230739,2540.3988,N,08003.5870,W,1,10,1.3,17,M,,M,,*61
06/24/2015	23:07:56.498	$GPGGA,230757,2540.3884,N,08003.5885,W,1,9,1.5,16,M,,M,,*51
06/24/2015	23:07:57.588	$GPGGA,230758,2540.3879,N,08003.5887,W,1,10,1.4,16,M,,M,,*67
06/24/2015	23:07:58.589	$GPGGA,230759,2540.3875,N,08003.5889,W,1,10,1.3,16,M,,M,,*63
06/24/2015	23:07:59.537	$GPGGA,230800,2540.3867,N,08003.5890,W,1,10,1.3,16,M,,M,,*6B
06/24/2015	23:08:00.988	$GPGGA,230801,2540.3861,N,08003.5892,W,1,10,1.3,16,M,,M,,*6E
06/24/2015	23:08:01.488	$GPGGA,230802,2540.3854,N,08003.5894,W,1,10,1.3,16,M,,M,,*6D
06/24/2015	23:08:02.498	$GPGGA,230803,2540.3847,N,08003.5896,W,1,10,1.5,16,M,,M,,*6A
06/24/2015	23:08:03.631	$GPGGA,230804,2540.3842,N,08003.5897,W,1,9,1.3,16,M,,M,,*57
06/24/2015	23:08:04.569	$GPGGA,230805,2540.3835,N,08003.5900,W,1,9,1.7,16,M,,M,,*5D
06/24/2015	23:08:05.598	$GPGGA,230806,2540.3828,N,08003.5900,W,1,8,1.5,16,M,,M,,*51
06/24/2015	23:08:06.478	$GPGGA,230807,2540.3821,N,08003.5901,W,1,8,1.5,16,M,,M,,*58
06/24/2015	23:08:07.889	$GPGGA,230808,2540.3814,N,08003.5904,W,1,9,1.5,16,M,,M,,*55
06/24/2015	23:08:08.578	$GPGGA,230809,2540.3807,N,08003.5905,W,1,9,1.5,16,M,,M,,*57
06/24/2015	23:08:09.599	$GPGGA,230810,2540.3800,N,08003.5907,W,1,9,1.5,16,M,,M,,*5A
06/24/2015	23:08:10.568	$GPGGA,230811,2540.3794,N,08003.5908,W,1,9,1.5,16,M,,M,,*56
06/24/2015	23:08:11.578	$GPGGA,230812,2540.3788,N,08003.5911,W,1,9,1.5,16,M,,M,,*50
06/24/2015	23:08:12.468	$GPGGA,230813,2540.3781,N,08003.5912,W,1,9,1.5,16,M,,M,,*5B
06/24/2015	23:08:13.458	$GPGGA,230814,2540.3774,N,08003.5914,W,1,9,1.5,16,M,,M,,*50
06/24/2015	23:08:14.548	$GPGGA,230815,2540.3768,N,08003.5917,W,1,9,1.5,16,M,,M,,*5F
06/24/2015	23:08:15.588	$GPGGA,230816,2540.3760,N,08003.5919,W,1,9,1.3,16,M,,M,,*5C
06/24/2015	23:08:16.558	$GPGGA,230817,2540.3753,N,08003.5919,W,1,9,1.5,16,M,,M,,*5B
06/24/2015	23:08:17.578	$GPGGA,230818,2540.3746,N,08003.5922,W,1,9,1.3,16,M,,M,,*5E
06/24/2015	23:08:18.538	$GPGGA,230819,2540.3741,N,08003.5925,W,1,9,1.5,16,M,,M,,*59
06/24/2015	23:08:19.588	$GPGGA,230820,2540.3734,N,08003.5926,W,1,9,1.5,16,M,,M,,*52
06/24/2015	23:08:20.559	$GPGGA,230821,2540.3730,N,08003.5928,W,1,9,1.4,16,M,,M,,*58
06/24/2015	23:08:21.569	$GPGGA,230822,2540.3727,N,08003.5932,W,1,9,1.3,16,M,,M,,*51
06/24/2015	23:08:22.535	$GPGGA,230823,2540.3723,N,08003.5932,W,1,9,1.3,16,M,,M,,*54
06/24/2015	23:08:23.588	$GPGGA,230824,2540.3717,N,08003.5934,W,1,10,1.3,16,M,,M,,*6A
06/24/2015	23:08:24.538	$GPGGA,230825,2540.3712,N,08003.5936,W,1,10,1.3,16,M,,M,,*6C
06/24/2015	23:08:25.548	$GPGGA,230826,2540.3706,N,08003.5939,W,1,10,1.3,16,M,,M,,*65
06/24/2015	23:08:26.548	$GPGGA,230827,2540.3700,N,08003.5939,W,1,10,1.3,16,M,,M,,*62
06/24/2015	23:08:27.598	$GPGGA,230828,2540.3695,N,08003.5941,W,1,10,1.3,16,M,,M,,*6F
06/24/2015	23:08:28.519	$GPGGA,230829,2540.3690,N,08003.5946,W,1,10,1.5,16,M,,M,,*6A
06/24/2015	23:08:29.568	$GPGGA,230830,2540.3684,N,08003.5947,W,1,9,1.5,16,M,,M,,*5E
06/24/2015	23:08:30.534	$GPGGA,230831,2540.3680,N,08003.5948,W,1,9,1.3,16,M,,M,,*52
06/24/2015	23:08:31.598	$GPGGA,230832,2540.3676,N,08003.5954,W,1,10,1.4,16,M,,M,,*6A
06/24/2015	23:08:32.531	$GPGGA,230833,2540.3669,N,08003.5957,W,1,10,1.5,16,M,,M,,*67
06/24/2015	23:08:33.508	$GPGGA,230834,2540.3662,N,08003.5958,W,1,9,1.5,16,M,,M,,*5C
06/24/2015	23:08:34.521	$GPGGA,230835,2540.3656,N,08003.5961,W,1,9,1.5,17,M,,M,,*51
06/24/2015	23:08:35.548	$GPGGA,230836,2540.3651,N,08003.5965,W,1,9,1.3,17,M,,M,,*57
06/24/2015	23:08:36.522	$GPGGA,230837,2540.3645,N,08003.5965,W,1,9,1.3,17,M,,M,,*53
06/24/2015	23:08:37.529	$GPGGA,230838,2540.3640,N,08003.5966,W,1,10,1.3,17,M,,M,,*62
06/24/2015	23:08:38.529	$GPGGA,230839,2540.3635,N,08003.5968,W,1,10,1.3,17,M,,M,,*6F
06/24/2015	23:08:39.537	$GPGGA,230840,2540.3629,N,08003.5969,W,1,10,1.3,17,M,,M,,*6D
06/24/2015	23:08:40.508	$GPGGA,230841,2540.3624,N,08003.5970,W,1,10,1.3,17,M,,M,,*69
06/24/2015	23:08:41.508	$GPGGA,230842,2540.3618,N,08003.5972,W,1,10,1.3,17,M,,M,,*67
06/24/2015	23:08:42.488	$GPGGA,230843,2540.3613,N,08003.5972,W,1,10,1.3,17,M,,M,,*6D
06/24/2015	23:08:43.630	$GPGGA,230844,2540.3605,N,08003.5973,W,1,10,1.3,17,M,,M,,*6C
06/24/2015	23:08:44.588	$GPGGA,230845,2540.3600,N,08003.5975,W,1,10,1.3,17,M,,M,,*6E
06/24/2015	23:08:45.498	$GPGGA,230846,2540.3596,N,08003.5975,W,1,10,1.3,17,M,,M,,*61
06/24/2015	23:08:46.588	$GPGGA,230847,2540.3590,N,08003.5975,W,1,10,1.3,17,M,,M,,*66
06/24/2015	23:08:47.633	$GPGGA,230848,2540.3586,N,08003.5976,W,1,10,1.3,17,M,,M,,*6D
06/24/2015	23:08:48.598	$GPGGA,230849,2540.3578,N,08003.5977,W,1,10,1.3,17,M,,M,,*6C
06/24/2015	23:08:49.588	$GPGGA,230850,2540.3572,N,08003.5977,W,1,9,1.3,17,M,,M,,*56
06/24/2015	23:08:50.508	$GPGGA,230851,2540.3568,N,08003.5977,W,1,9,1.3,17,M,,M,,*5C
06/24/2015	23:08:51.548	$GPGGA,230852,2540.3561,N,08003.5979,W,1,10,1.3,17,M,,M,,*60
06/24/2015	23:08:52.568	$GPGGA,230853,2540.3557,N,08003.5978,W,1,10,1.3,17,M,,M,,*65
06/24/2015	23:08:53.598	$GPGGA,230854,2540.3551,N,08003.5979,W,1,10,1.3,17,M,,M,,*65
06/24/2015	23:08:54.568	$GPGGA,230855,2540.3546,N,08003.5979,W,1,10,1.3,18,M,,M,,*6D
06/24/2015	23:08:55.589	$GPGGA,230856,2540.3539,N,08003.5979,W,1,10,1.3,18,M,,M,,*66
06/24/2015	23:08:56.579	$GPGGA,230857,2540.3535,N,08003.5979,W,1,10,1.3,18,M,,M,,*6B
06/24/2015	23:08:57.559	$GPGGA,230858,2540.3528,N,08003.5980,W,1,10,1.3,18,M,,M,,*6E
06/24/2015	23:08:58.558	$GPGGA,230859,2540.3521,N,08003.5980,W,1,10,1.3,18,M,,M,,*66
06/24/2015	23:08:59.598	$GPGGA,230900,2540.3515,N,08003.5979,W,1,10,1.3,18,M,,M,,*6A
06/24/2015	23:09:00.568	$GPGGA,230901,2540.3510,N,08003.5982,W,1,10,1.3,18,M,,M,,*6A
06/24/2015	23:09:01.578	$GPGGA,230902,2540.3503,N,08003.5983,W,1,10,1.3,18,M,,M,,*6A
06/24/2015	23:09:02.558	$GPGGA,230903,2540.3496,N,08003.5982,W,1,10,1.3,18,M,,M,,*67
06/24/2015	23:09:03.608	$GPGGA,230904,2540.3489,N,08003.5983,W,1,10,1.3,18,M,,M,,*6F
06/24/2015	23:09:04.558	$GPGGA,230905,2540.3484,N,08003.5984,W,1,10,1.3,18,M,,M,,*64
06/24/2015	23:09:05.568	$GPGGA,230906,2540.3476,N,08003.5986,W,1,10,1.3,18,M,,M,,*68
06/24/2015	23:09:06.548	$GPGGA,230907,2540.3470,N,08003.5986,W,1,10,1.5,18,M,,M,,*69
06/24/2015	23:09:07.578	$GPGGA,230908,2540.3463,N,08003.5987,W,1,9,1.5,18,M,,M,,*5D
06/24/2015	23:09:08.548	$GPGGA,230909,2540.3456,N,08003.5987,W,1,9,1.3,18,M,,M,,*5C
06/24/2015	23:09:09.558	$GPGGA,230910,2540.3450,N,08003.5987,W,1,9,1.5,18,M,,M,,*54
06/24/2015	23:09:10.534	$GPGGA,230911,2540.3445,N,08003.5988,W,1,9,1.5,18,M,,M,,*5E
06/24/2015	23:09:11.568	$GPGGA,230912,2540.3438,N,08003.5991,W,1,10,1.3,18,M,,M,,*61
06/24/2015	23:09:12.532	$GPGGA,230913,2540.3432,N,08003.5991,W,1,10,1.5,18,M,,M,,*6C
06/24/2015	23:09:13.549	$GPGGA,230914,2540.3427,N,08003.5993,W,1,9,1.5,18,M,,M,,*55
06/24/2015	23:09:14.529	$GPGGA,230915,2540.3421,N,08003.5995,W,1,9,1.5,18,M,,M,,*54
06/24/2015	23:09:15.558	$GPGGA,230916,2540.3416,N,08003.5995,W,1,9,1.5,18,M,,M,,*53
06/24/2015	23:09:16.528	$GPGGA,230917,2540.3410,N,08003.5997,W,1,9,1.5,18,M,,M,,*56
06/24/2015	23:09:17.532	$GPGGA,230918,2540.3403,N,08003.5999,W,1,10,1.3,18,M,,M,,*6B
06/24/2015	23:09:18.523	$GPGGA,230919,2540.3399,N,08003.6001,W,1,10,1.9,18,M,,M,,*6F
06/24/2015	23:09:19.537	$GPGGA,230920,2540.3395,N,08003.6001,W,1,9,1.5,18,M,,M,,*5D
06/24/2015	23:09:20.638	$GPGGA,230921,2540.3389,N,08003.6004,W,1,9,1.3,18,M,,M,,*52
06/24/2015	23:09:21.508	$GPGGA,230922,2540.3382,N,08003.6005,W,1,10,1.3,18,M,,M,,*63
06/24/2015	23:09:22.537	$GPGGA,230923,2540.3377,N,08003.6005,W,1,10,1.5,18,M,,M,,*6E
06/24/2015	23:09:23.628	$GPGGA,230924,2540.3371,N,08003.6008,W,1,10,1.3,18,M,,M,,*64
06/24/2015	23:09:24.539	$GPGGA,230925,2540.3365,N,08003.6009,W,1,10,1.3,18,M,,M,,*61
06/24/2015	23:09:25.498	$GPGGA,230926,2540.3359,N,08003.6011,W,1,10,1.3,18,M,,M,,*64
06/24/2015	23:09:26.621	$GPGGA,230927,2540.3353,N,08003.6012,W,1,10,1.5,18,M,,M,,*6A
06/24/2015	23:09:27.538	$GPGGA,230928,2540.3346,N,08003.6013,W,1,10,1.3,18,M,,M,,*66
06/24/2015	23:09:28.508	$GPGGA,230929,2540.3340,N,08003.6015,W,1,10,1.3,18,M,,M,,*67
06/24/2015	23:09:29.623	$GPGGA,230930,2540.3333,N,08003.6017,W,1,10,1.3,18,M,,M,,*69
06/24/2015	23:09:30.509	$GPGGA,230931,2540.3326,N,08003.6019,W,1,10,1.3,18,M,,M,,*62
06/24/2015	23:09:31.499	$GPGGA,230932,2540.3320,N,08003.6020,W,1,10,1.3,18,M,,M,,*6D
06/24/2015	23:09:32.589	$GPGGA,230933,2540.3313,N,08003.6023,W,1,10,1.3,18,M,,M,,*6F
06/24/2015	23:09:33.588	$GPGGA,230934,2540.3307,N,08003.6024,W,1,10,1.3,18,M,,M,,*6A
06/24/2015	23:09:34.498	$GPGGA,230935,2540.3301,N,08003.6026,W,1,10,1.3,18,M,,M,,*6F
06/24/2015	23:09:35.508	$GPGGA,230936,2540.3294,N,08003.6030,W,1,10,1.3,18,M,,M,,*66
06/24/2015	23:09:36.868	$GPGGA,230937,2540.3288,N,08003.6030,W,1,10,1.5,17,M,,M,,*63
06/24/2015	23:09:37.608	$GPGGA,230938,2540.3281,N,08003.6033,W,1,10,1.3,17,M,,M,,*60
06/24/2015	23:09:38.578	$GPGGA,230939,2540.3275,N,08003.6034,W,1,10,1.3,17,M,,M,,*6D
06/24/2015	23:09:39.608	$GPGGA,230940,2540.3270,N,08003.6037,W,1,10,1.3,17,M,,M,,*65
06/24/2015	23:09:40.579	$GPGGA,230941,2540.3264,N,08003.6038,W,1,10,1.3,17,M,,M,,*6E
06/24/2015	23:09:41.588	$GPGGA,230942,2540.3257,N,08003.6040,W,1,10,1.3,17,M,,M,,*62
06/24/2015	23:09:42.568	$GPGGA,230943,2540.3251,N,08003.6042,W,1,10,1.3,17,M,,M,,*67
06/24/2015	23:09:43.599	$GPGGA,230944,2540.3246,N,08003.6044,W,1,10,1.3,17,M,,M,,*60
06/24/2015	23:09:44.568	$GPGGA,230945,2540.3239,N,08003.6046,W,1,10,1.3,17,M,,M,,*6B
06/24/2015	23:09:45.578	$GPGGA,230946,2540.3232,N,08003.6048,W,1,10,1.3,17,M,,M,,*6D
06/24/2015	23:09:46.558	$GPGGA,230947,2540.3226,N,08003.6051,W,1,10,1.3,17,M,,M,,*61
06/24/2015	23:09:47.578	$GPGGA,230948,2540.3221,N,08003.6052,W,1,10,1.3,17,M,,M,,*6A
06/24/2015	23:09:48.559	$GPGGA,230949,2540.3214,N,08003.6055,W,1,10,1.3,17,M,,M,,*6A
06/24/2015	23:09:49.579	$GPGGA,230950,2540.3207,N,08003.6056,W,1,10,1.3,17,M,,M,,*63
06/24/2015	23:09:50.568	$GPGGA,230951,2540.3201,N,08003.6059,W,1,10,1.3,17,M,,M,,*6B
06/24/2015	23:09:51.598	$GPGGA,230952,2540.3193,N,08003.6060,W,1,10,1.3,17,M,,M,,*6A
06/24/2015	23:09:52.558	$GPGGA,230953,2540.3187,N,08003.6062,W,1,10,1.5,17,M,,M,,*6A
06/24/2015	23:09:53.548	$GPGGA,230954,2540.3182,N,08003.6063,W,1,9,1.5,17,M,,M,,*51
06/24/2015	23:09:54.538	$GPGGA,230955,2540.3177,N,08003.6064,W,1,9,1.3,17,M,,M,,*5B
06/24/2015	23:09:55.558	$GPGGA,230956,2540.3169,N,08003.6066,W,1,10,1.3,17,M,,M,,*6D
06/24/2015	23:09:56.538	$GPGGA,230957,2540.3163,N,08003.6069,W,1,10,1.5,17,M,,M,,*6F
06/24/2015	23:09:57.558	$GPGGA,230958,2540.3156,N,08003.6070,W,1,9,1.5,17,M,,M,,*56
06/24/2015	23:09:58.538	$GPGGA,230959,2540.3148,N,08003.6073,W,1,9,1.5,17,M,,M,,*5B
06/24/2015	23:09:59.598	$GPGGA,231000,2540.3141,N,08003.6074,W,1,9,1.5,16,M,,M,,*50
06/24/2015	23:10:00.538	$GPGGA,231001,2540.3134,N,08003.6076,W,1,9,1.5,16,M,,M,,*51
06/24/2015	23:10:01.530	$GPGGA,231002,2540.3129,N,08003.6078,W,1,8,1.9,16,M,,M,,*5D
06/24/2015	23:10:02.538	$GPGGA,231003,2540.3124,N,08003.6081,W,1,8,1.5,16,M,,M,,*5B
06/24/2015	23:10:03.568	$GPGGA,231004,2540.3122,N,08003.6081,W,1,10,1.3,16,M,,M,,*65
06/24/2015	23:10:04.522	$GPGGA,231005,2540.3118,N,08003.6082,W,1,10,1.3,16,M,,M,,*6E
06/24/2015	23:10:05.529	$GPGGA,231006,2540.3113,N,08003.6082,W,1,9,1.5,16,M,,M,,*58
06/24/2015	23:10:06.509	$GPGGA,231007,2540.3107,N,08003.6084,W,1,9,1.3,17,M,,M,,*5D
06/24/2015	23:10:07.549	$GPGGA,231008,2540.3103,N,08003.6085,W,1,9,1.5,17,M,,M,,*51
06/24/2015	23:10:08.519	$GPGGA,231009,2540.3098,N,08003.6087,W,1,9,1.5,17,M,,M,,*51
06/24/2015	23:10:09.538	$GPGGA,231010,2540.3092,N,08003.6087,W,1,9,1.5,17,M,,M,,*53
06/24/2015	23:10:10.508	$GPGGA,231011,2540.3087,N,08003.6088,W,1,9,1.5,17,M,,M,,*59
06/24/2015	23:10:11.522	$GPGGA,231012,2540.3081,N,08003.6091,W,1,9,1.5,17,M,,M,,*54
06/24/2015	23:10:12.498	$GPGGA,231013,2540.3075,N,08003.6091,W,1,9,1.5,17,M,,M,,*5E
06/24/2015	23:10:13.528	$GPGGA,231014,2540.3069,N,08003.6092,W,1,9,1.5,17,M,,M,,*57
06/24/2015	23:10:14.498	$GPGGA,231015,2540.3063,N,08003.6094,W,1,9,1.5,17,M,,M,,*5A
06/24/2015	23:10:15.849	$GPGGA,231016,2540.3056,N,08003.6095,W,1,9,1.5,18,M,,M,,*51
06/24/2015	23:10:16.508	$GPGGA,231017,2540.3051,N,08003.6095,W,1,9,1.5,18,M,,M,,*57
06/24/2015	23:10:17.608	$GPGGA,231018,2540.3044,N,08003.6096,W,1,9,1.5,18,M,,M,,*5F
06/24/2015	23:10:18.488	$GPGGA,231019,2540.3036,N,08003.6098,W,1,9,1.5,18,M,,M,,*55
06/24/2015	23:10:19.498	$GPGGA,231020,2540.3030,N,08003.6099,W,1,9,1.5,18,M,,M,,*58
06/24/2015	23:10:20.488	$GPGGA,231021,2540.3023,N,08003.6100,W,1,9,1.3,18,M,,M,,*5C
06/24/2015	23:10:21.630	$GPGGA,231022,2540.3017,N,08003.6102,W,1,9,1.5,18,M,,M,,*5C
06/24/2015	23:10:22.488	$GPGGA,231023,2540.3012,N,08003.6101,W,1,9,1.3,18,M,,M,,*5D
06/24/2015	23:10:23.609	$GPGGA,231024,2540.3006,N,08003.6102,W,1,10,1.3,18,M,,M,,*64
06/24/2015	23:10:24.489	$GPGGA,231025,2540.3001,N,08003.6103,W,1,10,1.3,18,M,,M,,*63
06/24/2015	23:10:25.578	$GPGGA,231026,2540.2995,N,08003.6103,W,1,10,1.3,18,M,,M,,*65
06/24/2015	23:10:26.568	$GPGGA,231027,2540.2988,N,08003.6105,W,1,10,1.3,18,M,,M,,*6E
06/24/2015	23:10:27.598	$GPGGA,231028,2540.2982,N,08003.6104,W,1,9,1.5,18,M,,M,,*54
06/24/2015	23:10:28.568	$GPGGA,231029,2540.2975,N,08003.6106,W,1,9,1.3,18,M,,M,,*59
06/24/2015	23:10:29.588	$GPGGA,231030,2540.2969,N,08003.6107,W,1,10,1.3,18,M,,M,,*65
06/24/2015	23:10:30.568	$GPGGA,231031,2540.2962,N,08003.6106,W,1,10,1.3,18,M,,M,,*6E
06/24/2015	23:10:31.588	$GPGGA,231032,2540.2957,N,08003.6107,W,1,9,1.5,19,M,,M,,*55
06/24/2015	23:10:32.568	$GPGGA,231033,2540.2950,N,08003.6109,W,1,9,1.5,19,M,,M,,*5D
06/24/2015	23:10:33.588	$GPGGA,231034,2540.2944,N,08003.6109,W,1,10,1.3,19,M,,M,,*61
06/24/2015	23:10:34.568	$GPGGA,231035,2540.2937,N,08003.6109,W,1,10,1.5,19,M,,M,,*62
06/24/2015	23:10:35.558	$GPGGA,231036,2540.2930,N,08003.6110,W,1,9,1.5,19,M,,M,,*56
06/24/2015	23:10:36.558	$GPGGA,231037,2540.2923,N,08003.6110,W,1,9,1.5,18,M,,M,,*54
06/24/2015	23:10:37.568	$GPGGA,231038,2540.2916,N,08003.6111,W,1,9,1.5,18,M,,M,,*5C
06/24/2015	23:10:38.558	$GPGGA,231039,2540.2910,N,08003.6109,W,1,9,1.3,18,M,,M,,*54
06/24/2015	23:10:39.558	$GPGGA,231040,2540.2903,N,08003.6110,W,1,10,1.3,18,M,,M,,*68
06/24/2015	23:10:40.559	$GPGGA,231041,2540.2897,N,08003.6111,W,1,10,1.3,18,M,,M,,*64
06/24/2015	23:10:41.569	$GPGGA,231042,2540.2892,N,08003.6111,W,1,10,1.3,18,M,,M,,*62
06/24/2015	23:10:42.549	$GPGGA,231043,2540.2885,N,08003.6113,W,1,10,1.3,18,M,,M,,*67
06/24/2015	23:10:43.568	$GPGGA,231044,2540.2879,N,08003.6116,W,1,10,1.3,18,M,,M,,*66
06/24/2015	23:10:44.538	$GPGGA,231045,2540.2872,N,08003.6116,W,1,10,1.4,18,M,,M,,*6B
06/24/2015	23:10:45.558	$GPGGA,231046,2540.2865,N,08003.6117,W,1,9,1.5,18,M,,M,,*56
06/24/2015	23:10:46.528	$GPGGA,231047,2540.2860,N,08003.6118,W,1,9,1.5,18,M,,M,,*5D
06/24/2015	23:10:47.568	$GPGGA,231048,2540.2852,N,08003.6120,W,1,10,1.3,18,M,,M,,*66
06/24/2015	23:10:48.538	$GPGGA,231049,2540.2847,N,08003.6120,W,1,10,1.3,18,M,,M,,*63
06/24/2015	23:10:50.558	$GPGGA,231051,2540.2835,N,08003.6123,W,1,10,1.3,18,M,,M,,*6C
06/24/2015	23:10:51.548	$GPGGA,231052,2540.2829,N,08003.6124,W,1,10,1.3,18,M,,M,,*65
06/24/2015	23:10:52.536	$GPGGA,231053,2540.2823,N,08003.6125,W,1,10,1.3,17,M,,M,,*60
06/24/2015	23:10:53.818	$GPGGA,231054,2540.2817,N,08003.6127,W,1,10,1.3,17,M,,M,,*62
06/24/2015	23:10:54.533	$GPGGA,231055,2540.2811,N,08003.6127,W,1,10,1.3,17,M,,M,,*65
06/24/2015	23:10:55.548	$GPGGA,231056,2540.2805,N,08003.6129,W,1,10,1.3,17,M,,M,,*6D
06/24/2015	23:10:56.533	$GPGGA,231057,2540.2798,N,08003.6131,W,1,10,1.3,17,M,,M,,*6E
06/24/2015	23:10:57.531	$GPGGA,231058,2540.2793,N,08003.6134,W,1,9,1.4,17,M,,M,,*50
06/24/2015	23:10:58.509	$GPGGA,231059,2540.2787,N,08003.6134,W,1,9,1.3,17,M,,M,,*53
06/24/2015	23:10:59.539	$GPGGA,231100,2540.2781,N,08003.6138,W,1,10,1.3,17,M,,M,,*6C
06/24/2015	23:11:00.498	$GPGGA,231101,2540.2775,N,08003.6139,W,1,10,1.3,17,M,,M,,*67
06/24/2015	23:11:01.598	$GPGGA,231102,2540.2769,N,08003.6141,W,1,9,1.4,17,M,,M,,*59
06/24/2015	23:11:02.638	$GPGGA,231103,2540.2763,N,08003.6143,W,1,9,1.3,17,M,,M,,*57
06/24/2015	23:11:03.508	$GPGGA,231104,2540.2757,N,08003.6146,W,1,10,1.3,17,M,,M,,*6A
06/24/2015	23:11:04.508	$GPGGA,231105,2540.2752,N,08003.6147,W,1,10,1.4,17,M,,M,,*68
06/24/2015	23:11:05.678	$GPGGA,231106,2540.2745,N,08003.6149,W,1,10,1.3,17,M,,M,,*64
06/24/2015	23:11:06.488	$GPGGA,231107,2540.2739,N,08003.6152,W,1,10,1.3,17,M,,M,,*64
06/24/2015	23:11:07.498	$GPGGA,231108,2540.2733,N,08003.6153,W,1,10,1.3,17,M,,M,,*60
06/24/2015	23:11:08.498	$GPGGA,231109,2540.2727,N,08003.6156,W,1,10,1.3,17,M,,M,,*61
06/24/2015	23:11:09.668	$GPGGA,231110,2540.2722,N,08003.6157,W,1,10,1.3,17,M,,M,,*6D
06/24/2015	23:11:10.498	$GPGGA,231111,2540.2716,N,08003.6160,W,1,10,1.3,17,M,,M,,*6F
06/24/2015	23:11:11.588	$GPGGA,231112,2540.2711,N,08003.6161,W,1,10,1.3,17,M,,M,,*6A
06/24/2015	23:11:12.628	$GPGGA,231113,2540.2705,N,08003.6163,W,1,10,1.3,17,M,,M,,*6C
06/24/2015	23:11:13.668	$GPGGA,231114,2540.2699,N,08003.6165,W,1,10,1.4,17,M,,M,,*6E
06/24/2015	23:11:14.568	$GPGGA,231115,2540.2692,N,08003.6167,W,1,10,1.4,17,M,,M,,*66
06/24/2015	23:11:15.689	$GPGGA,231116,2540.2686,N,08003.6168,W,1,9,1.4,17,M,,M,,*57
06/24/2015	23:11:16.599	$GPGGA,231117,2540.2680,N,08003.6170,W,1,9,1.3,17,M,,M,,*5E
06/24/2015	23:11:17.659	$GPGGA,231118,2540.2675,N,08003.6174,W,1,10,1.3,17,M,,M,,*67
06/24/2015	23:11:18.598	$GPGGA,231119,2540.2668,N,08003.6174,W,1,10,1.4,17,M,,M,,*6D
06/24/2015	23:11:19.678	$GPGGA,231120,2540.2662,N,08003.6174,W,1,9,1.5,17,M,,M,,*54
06/24/2015	23:11:20.588	$GPGGA,231121,2540.2659,N,08003.6176,W,1,9,1.5,17,M,,M,,*5F
06/24/2015	23:11:21.648	$GPGGA,231122,2540.2654,N,08003.6179,W,1,10,1.3,17,M,,M,,*60
06/24/2015	23:11:22.588	$GPGGA,231123,2540.2650,N,08003.6179,W,1,10,1.3,17,M,,M,,*65
06/24/2015	23:11:23.678	$GPGGA,231124,2540.2643,N,08003.6181,W,1,10,1.3,17,M,,M,,*67
06/24/2015	23:11:24.588	$GPGGA,231125,2540.2637,N,08003.6185,W,1,10,1.5,17,M,,M,,*67
06/24/2015	23:11:25.548	$GPGGA,231126,2540.2632,N,08003.6185,W,1,9,1.5,17,M,,M,,*59
06/24/2015	23:11:26.578	$GPGGA,231127,2540.2625,N,08003.6188,W,1,9,1.9,17,M,,M,,*5F
06/24/2015	23:11:27.658	$GPGGA,231128,2540.2617,N,08003.6189,W,1,9,1.5,17,M,,M,,*5C
06/24/2015	23:11:28.538	$GPGGA,231129,2540.2610,N,08003.6188,W,1,9,1.5,16,M,,M,,*5A
06/24/2015	23:11:29.538	$GPGGA,231130,2540.2603,N,08003.6190,W,1,9,1.5,16,M,,M,,*59
06/24/2015	23:11:30.568	$GPGGA,231131,2540.2597,N,08003.6192,W,1,9,1.5,16,M,,M,,*54
06/24/2015	23:11:31.548	$GPGGA,231132,2540.2592,N,08003.6193,W,1,10,1.3,16,M,,M,,*6D
06/24/2015	23:11:32.568	$GPGGA,231133,2540.2587,N,08003.6194,W,1,10,1.3,16,M,,M,,*6F
06/24/2015	23:11:33.649	$GPGGA,231134,2540.2582,N,08003.6196,W,1,10,1.3,16,M,,M,,*6F
06/24/2015	23:11:34.539	$GPGGA,231135,2540.2578,N,08003.6197,W,1,10,1.3,16,M,,M,,*6A
06/24/2015	23:11:35.648	$GPGGA,231136,2540.2572,N,08003.6196,W,1,10,1.3,16,M,,M,,*62
06/24/2015	23:11:36.531	$GPGGA,231137,2540.2567,N,08003.6199,W,1,10,1.3,16,M,,M,,*68
06/24/2015	23:11:37.525	$GPGGA,231138,2540.2560,N,08003.6199,W,1,9,1.5,16,M,,M,,*5E
06/24/2015	23:11:38.518	$GPGGA,231139,2540.2554,N,08003.6198,W,1,9,1.3,16,M,,M,,*5F
06/24/2015	23:11:39.648	$GPGGA,231140,2540.2549,N,08003.6199,W,1,10,1.5,16,M,,M,,*62
06/24/2015	23:11:40.521	$GPGGA,231141,2540.2542,N,08003.6200,W,1,10,1.5,16,M,,M,,*6B
06/24/2015	23:11:41.588	$GPGGA,231142,2540.2535,N,08003.6201,W,1,10,1.3,16,M,,M,,*6F
06/24/2015	23:11:42.558	$GPGGA,231143,2540.2528,N,08003.6201,W,1,10,1.5,16,M,,M,,*64
06/24/2015	23:11:43.518	$GPGGA,231144,2540.2521,N,08003.6204,W,1,9,1.5,16,M,,M,,*57
06/24/2015	23:11:44.608	$GPGGA,231145,2540.2515,N,08003.6204,W,1,9,1.3,16,M,,M,,*57
06/24/2015	23:11:45.638	$GPGGA,231146,2540.2509,N,08003.6203,W,1,10,1.3,16,M,,M,,*66
06/24/2015	23:11:46.548	$GPGGA,231147,2540.2502,N,08003.6204,W,1,10,1.3,16,M,,M,,*6B
06/24/2015	23:11:47.608	$GPGGA,231148,2540.2496,N,08003.6206,W,1,10,1.3,16,M,,M,,*6A
06/24/2015	23:11:48.498	$GPGGA,231149,2540.2489,N,08003.6205,W,1,10,1.3,16,M,,M,,*66
06/24/2015	23:11:49.658	$GPGGA,231150,2540.2484,N,08003.6207,W,1,10,1.3,16,M,,M,,*61
06/24/2015	23:11:50.599	$GPGGA,231151,2540.2477,N,08003.6207,W,1,10,1.3,16,M,,M,,*6C
06/24/2015	23:11:51.589	$GPGGA,231152,2540.2470,N,08003.6210,W,1,10,1.5,16,M,,M,,*68
06/24/2015	23:11:52.599	$GPGGA,231153,2540.2464,N,08003.6209,W,1,10,1.3,16,M,,M,,*62
06/24/2015	23:11:53.598	$GPGGA,231154,2540.2458,N,08003.6210,W,1,10,1.3,16,M,,M,,*62
06/24/2015	23:11:54.598	$GPGGA,231155,2540.2452,N,08003.6212,W,1,10,1.3,15,M,,M,,*68
06/24/2015	23:11:55.608	$GPGGA,231156,2540.2446,N,08003.6214,W,1,10,1.3,15,M,,M,,*68
06/24/2015	23:11:56.538	$GPGGA,231157,2540.2439,N,08003.6214,W,1,10,1.3,15,M,,M,,*61
06/24/2015	23:11:57.599	$GPGGA,231158,2540.2433,N,08003.6214,W,1,10,1.3,15,M,,M,,*64
06/24/2015	23:11:58.532	$GPGGA,231159,2540.2428,N,08003.6217,W,1,10,1.3,15,M,,M,,*6C
06/24/2015	23:11:59.658	$GPGGA,231200,2540.2422,N,08003.6218,W,1,10,1.3,15,M,,M,,*66
06/24/2015	23:12:00.578	$GPGGA,231201,2540.2416,N,08003.6218,W,1,10,1.3,15,M,,M,,*60
06/24/2015	23:12:01.588	$GPGGA,231202,2540.2410,N,08003.6218,W,1,10,1.3,15,M,,M,,*65
06/24/2015	23:12:02.578	$GPGGA,231203,2540.2404,N,08003.6221,W,1,10,1.3,15,M,,M,,*6B
06/24/2015	23:12:03.598	$GPGGA,231204,2540.2398,N,08003.6221,W,1,10,1.5,15,M,,M,,*68
06/24/2015	23:12:04.568	$GPGGA,231205,2540.2392,N,08003.6221,W,1,10,1.3,15,M,,M,,*65
