Software Version Number: 1	Data File Format Number: 1	Build Version Number: 1	Error Count Since VI Started: 2	Manufacturer: Raytheon	 Model Number: RayMarine 120	 S/N: 	 Cal Date: 	 Wind Direction Offset: 0.00	 Slope (M)1: 0.00	 Offset (B)1: 0.00	 Slope (M)2: 0.00	 Offset (B)2: 0.00	 Slope (M)3: 0.00	 Offset (B)3: 0.00	 Slope (M)4: 0.00	 Offset (B)4: 0.00	 Slope (M)5: 0.00	 Offset (B)5: 0.00	 Slope (M)6: 0.00	 Offset (B)6: 0.00
Computer Date	Computer Time	GGA String
06/21/2015	07:00:00.574	$GPGGA,070001,2433.5361,N,08116.3046,W,1,9,1.8,12,M,,M,,*5D
06/21/2015	07:00:01.574	$GPGGA,070002,2433.5356,N,08116.3069,W,1,9,1.8,12,M,,M,,*57
06/21/2015	07:00:02.574	$GPGGA,070003,2433.5349,N,08116.3092,W,1,9,1.8,12,M,,M,,*5C
06/21/2015	07:00:03.594	$GPGGA,070004,2433.5341,N,08116.3114,W,1,9,1.8,12,M,,M,,*5C
06/21/2015	07:00:04.573	$GPGGA,070005,2433.5334,N,08116.3137,W,1,9,1.8,12,M,,M,,*5E
06/21/2015	07:00:05.573	$GPGGA,070006,2433.5327,N,08116.3161,W,1,9,1.8,12,M,,M,,*5C
06/21/2015	07:00:06.563	$GPGGA,070007,2433.5321,N,08116.3184,W,1,9,1.8,12,M,,M,,*50
06/21/2015	07:00:07.583	$GPGGA,070008,2433.5314,N,08116.3208,W,1,9,1.8,12,M,,M,,*5E
06/21/2015	07:00:08.553	$GPGGA,070009,2433.5307,N,08116.3231,W,1,9,1.8,12,M,,M,,*57
06/21/2015	07:00:09.574	$GPGGA,070010,2433.5302,N,08116.3255,W,1,9,1.8,12,M,,M,,*58
06/21/2015	07:00:10.554	$GPGGA,070011,2433.5294,N,08116.3280,W,1,9,1.8,12,M,,M,,*5F
06/21/2015	07:00:11.575	$GPGGA,070012,2433.5287,N,08116.3302,W,1,9,1.8,12,M,,M,,*55
06/21/2015	07:00:12.544	$GPGGA,070013,2433.5280,N,08116.3324,W,1,9,1.8,11,M,,M,,*54
06/21/2015	07:00:13.536	$GPGGA,070014,2433.5273,N,08116.3347,W,1,9,1.8,11,M,,M,,*5A
06/21/2015	07:00:14.544	$GPGGA,070015,2433.5267,N,08116.3371,W,1,9,1.8,11,M,,M,,*5B
06/21/2015	07:00:15.574	$GPGGA,070016,2433.5260,N,08116.3392,W,1,9,1.8,11,M,,M,,*52
06/21/2015	07:00:16.554	$GPGGA,070017,2433.5253,N,08116.3415,W,1,9,1.8,11,M,,M,,*5B
06/21/2015	07:00:17.536	$GPGGA,070018,2433.5247,N,08116.3439,W,1,9,1.8,11,M,,M,,*5F
06/21/2015	07:00:18.544	$GPGGA,070019,2433.5241,N,08116.3462,W,1,9,1.8,11,M,,M,,*56
06/21/2015	07:00:19.564	$GPGGA,070020,2433.5234,N,08116.3486,W,1,9,1.8,11,M,,M,,*54
06/21/2015	07:00:20.537	$GPGGA,070021,2433.5227,N,08116.3508,W,1,9,1.8,11,M,,M,,*50
06/21/2015	07:00:21.553	$GPGGA,070022,2433.5221,N,08116.3533,W,1,9,1.8,11,M,,M,,*5D
06/21/2015	07:00:22.535	$GPGGA,070023,2433.5215,N,08116.3555,W,1,9,1.8,11,M,,M,,*5B
06/21/2015	07:00:23.545	$GPGGA,070024,2433.5208,N,08116.3578,W,1,9,1.8,11,M,,M,,*5F
06/21/2015	07:00:24.513	$GPGGA,070025,2433.5201,N,08116.3602,W,1,9,1.8,11,M,,M,,*59
06/21/2015	07:00:25.973	$GPGGA,070026,2433.5195,N,08116.3624,W,1,9,1.8,11,M,,M,,*50
06/21/2015	07:00:26.540	$GPGGA,070027,2433.5190,N,08116.3649,W,1,9,1.8,11,M,,M,,*5F
06/21/2015	07:00:27.544	$GPGGA,070028,2433.5182,N,08116.3671,W,1,9,1.8,11,M,,M,,*58
06/21/2015	07:00:28.514	$GPGGA,070029,2433.5176,N,08116.3694,W,1,9,1.8,11,M,,M,,*59
06/21/2015	07:00:29.514	$GPGGA,070030,2433.5170,N,08116.3717,W,1,9,1.8,11,M,,M,,*5D
06/21/2015	07:00:30.514	$GPGGA,070031,2433.5163,N,08116.3740,W,1,9,1.8,11,M,,M,,*5C
06/21/2015	07:00:31.539	$GPGGA,070032,2433.5156,N,08116.3764,W,1,9,1.8,11,M,,M,,*5F
06/21/2015	07:00:32.514	$GPGGA,070033,2433.5150,N,08116.3787,W,1,9,1.8,11,M,,M,,*55
06/21/2015	07:00:33.514	$GPGGA,070034,2433.5143,N,08116.3812,W,1,9,1.8,11,M,,M,,*53
06/21/2015	07:00:34.604	$GPGGA,070035,2433.5135,N,08116.3835,W,1,9,1.8,11,M,,M,,*56
06/21/2015	07:00:35.514	$GPGGA,070036,2433.5129,N,08116.3858,W,1,9,1.8,11,M,,M,,*53
06/21/2015	07:00:36.614	$GPGGA,070037,2433.5122,N,08116.3881,W,1,9,1.8,11,M,,M,,*5D
06/21/2015	07:00:37.584	$GPGGA,070038,2433.5116,N,08116.3905,W,1,9,1.8,11,M,,M,,*58
06/21/2015	07:00:38.584	$GPGGA,070039,2433.5110,N,08116.3928,W,1,9,1.8,11,M,,M,,*50
06/21/2015	07:00:39.503	$GPGGA,070040,2433.5103,N,08116.3952,W,1,9,1.8,11,M,,M,,*51
06/21/2015	07:00:40.513	$GPGGA,070041,2433.5097,N,08116.3974,W,1,9,1.8,11,M,,M,,*58
06/21/2015	07:00:42.525	$GPGGA,070043,2433.5085,N,08116.4021,W,1,9,1.8,11,M,,M,,*57
06/21/2015	07:00:43.594	$GPGGA,070044,2433.5079,N,08116.4044,W,1,9,1.8,11,M,,M,,*50
06/21/2015	07:00:44.484	$GPGGA,070045,2433.5074,N,08116.4068,W,1,9,1.8,11,M,,M,,*52
06/21/2015	07:00:45.574	$GPGGA,070046,2433.5067,N,08116.4090,W,1,9,1.8,11,M,,M,,*54
06/21/2015	07:00:46.574	$GPGGA,070047,2433.5060,N,08116.4113,W,1,9,1.8,11,M,,M,,*58
06/21/2015	07:00:47.594	$GPGGA,070048,2433.5054,N,08116.4137,W,1,9,1.8,11,M,,M,,*56
06/21/2015	07:00:48.574	$GPGGA,070049,2433.5049,N,08116.4158,W,1,9,1.8,11,M,,M,,*52
06/21/2015	07:00:49.564	$GPGGA,070050,2433.5042,N,08116.4181,W,1,9,1.8,11,M,,M,,*55
06/21/2015	07:00:50.564	$GPGGA,070051,2433.5034,N,08116.4205,W,1,9,1.8,11,M,,M,,*5A
06/21/2015	07:00:51.584	$GPGGA,070052,2433.5028,N,08116.4227,W,1,9,1.8,11,M,,M,,*54
06/21/2015	07:00:52.564	$GPGGA,070053,2433.5021,N,08116.4250,W,1,9,1.8,11,M,,M,,*5C
06/21/2015	07:00:53.584	$GPGGA,070054,2433.5015,N,08116.4274,W,1,9,1.8,11,M,,M,,*5A
06/21/2015	07:00:54.564	$GPGGA,070055,2433.5009,N,08116.4296,W,1,9,1.8,10,M,,M,,*5B
06/21/2015	07:00:55.604	$GPGGA,070056,2433.5002,N,08116.4319,W,1,9,1.8,10,M,,M,,*55
06/21/2015	07:00:56.553	$GPGGA,070057,2433.4996,N,08116.4343,W,1,9,1.8,10,M,,M,,*5E
06/21/2015	07:00:57.573	$GPGGA,070058,2433.4991,N,08116.4366,W,1,9,1.8,10,M,,M,,*51
06/21/2015	07:00:58.573	$GPGGA,070059,2433.4984,N,08116.4389,W,1,9,1.8,10,M,,M,,*55
06/21/2015	07:00:59.603	$GPGGA,070100,2433.4978,N,08116.4412,W,1,9,1.8,10,M,,M,,*5E
06/21/2015	07:01:00.543	$GPGGA,070101,2433.4971,N,08116.4436,W,1,9,1.8,10,M,,M,,*50
06/21/2015	07:01:01.544	$GPGGA,070102,2433.4966,N,08116.4459,W,1,9,1.8,10,M,,M,,*5C
06/21/2015	07:01:02.554	$GPGGA,070103,2433.4958,N,08116.4483,W,1,9,1.8,10,M,,M,,*57
06/21/2015	07:01:03.574	$GPGGA,070104,2433.4951,N,08116.4506,W,1,9,1.8,10,M,,M,,*55
06/21/2015	07:01:04.554	$GPGGA,070105,2433.4945,N,08116.4530,W,1,9,1.8,10,M,,M,,*54
06/21/2015	07:01:05.564	$GPGGA,070106,2433.4939,N,08116.4553,W,1,9,1.8,10,M,,M,,*59
06/21/2015	07:01:06.544	$GPGGA,070107,2433.4933,N,08116.4577,W,1,9,1.8,10,M,,M,,*54
06/21/2015	07:01:07.551	$GPGGA,070108,2433.4927,N,08116.4600,W,1,9,1.8,10,M,,M,,*5D
06/21/2015	07:01:08.539	$GPGGA,070109,2433.4920,N,08116.4624,W,1,9,1.8,10,M,,M,,*5D
06/21/2015	07:01:09.524	$GPGGA,070110,2433.4915,N,08116.4646,W,1,9,1.8,10,M,,M,,*57
06/21/2015	07:01:10.534	$GPGGA,070111,2433.4908,N,08116.4671,W,1,9,1.8,10,M,,M,,*5E
06/21/2015	07:01:11.574	$GPGGA,070112,2433.4902,N,08116.4693,W,1,9,1.8,10,M,,M,,*5B
06/21/2015	07:01:12.530	$GPGGA,070113,2433.4895,N,08116.4716,W,1,9,1.8,10,M,,M,,*59
06/21/2015	07:01:13.536	$GPGGA,070114,2433.4890,N,08116.4738,W,1,9,1.8,10,M,,M,,*57
06/21/2015	07:01:14.636	$GPGGA,070115,2433.4883,N,08116.4762,W,1,9,1.8,10,M,,M,,*5B
06/21/2015	07:01:15.553	$GPGGA,070116,2433.4877,N,08116.4784,W,1,9,1.8,10,M,,M,,*5B
06/21/2015	07:01:16.533	$GPGGA,070117,2433.4870,N,08116.4808,W,1,9,1.8,10,M,,M,,*56
06/21/2015	07:01:17.603	$GPGGA,070118,2433.4863,N,08116.4830,W,1,9,1.8,10,M,,M,,*50
06/21/2015	07:01:18.513	$GPGGA,070119,2433.4856,N,08116.4853,W,1,9,1.8,10,M,,M,,*52
06/21/2015	07:01:19.536	$GPGGA,070120,2433.4851,N,08116.4877,W,1,9,1.8,10,M,,M,,*59
06/21/2015	07:01:20.604	$GPGGA,070121,2433.4844,N,08116.4899,W,1,9,1.8,10,M,,M,,*5C
06/21/2015	07:01:21.624	$GPGGA,070122,2433.4837,N,08116.4921,W,1,9,1.8,10,M,,M,,*59
06/21/2015	07:01:22.504	$GPGGA,070123,2433.4832,N,08116.4944,W,1,9,1.8,10,M,,M,,*5E
06/21/2015	07:01:23.626	$GPGGA,070124,2433.4825,N,08116.4967,W,1,9,1.8,10,M,,M,,*5E
06/21/2015	07:01:24.504	$GPGGA,070125,2433.4818,N,08116.4989,W,1,9,1.8,10,M,,M,,*51
06/21/2015	07:01:25.514	$GPGGA,070126,2433.4811,N,08116.5011,W,1,9,1.8,10,M,,M,,*52
06/21/2015	07:01:26.584	$GPGGA,070127,2433.4807,N,08116.5034,W,1,9,1.8,10,M,,M,,*53
06/21/2015	07:01:27.594	$GPGGA,070128,2433.4799,N,08116.5058,W,1,9,1.8,10,M,,M,,*5E
06/21/2015	07:01:28.494	$GPGGA,070129,2433.4791,N,08116.5080,W,1,9,1.8,10,M,,M,,*52
06/21/2015	07:01:29.614	$GPGGA,070130,2433.4785,N,08116.5103,W,1,9,1.8,10,M,,M,,*55
06/21/2015	07:01:30.594	$GPGGA,070131,2433.4778,N,08116.5126,W,1,9,1.8,10,M,,M,,*51
06/21/2015	07:01:31.593	$GPGGA,070132,2433.4771,N,08116.5148,W,1,9,1.8,10,M,,M,,*53
06/21/2015	07:01:32.583	$GPGGA,070133,2433.4763,N,08116.5171,W,1,9,1.8,10,M,,M,,*5B
06/21/2015	07:01:33.573	$GPGGA,070134,2433.4757,N,08116.5195,W,1,9,1.8,10,M,,M,,*51
06/21/2015	07:01:34.573	$GPGGA,070135,2433.4750,N,08116.5217,W,1,9,1.8,10,M,,M,,*5E
06/21/2015	07:01:35.603	$GPGGA,070136,2433.4743,N,08116.5239,W,1,9,1.8,10,M,,M,,*53
06/21/2015	07:01:36.574	$GPGGA,070137,2433.4736,N,08116.5264,W,1,9,1.8,10,M,,M,,*58
06/21/2015	07:01:37.594	$GPGGA,070138,2433.4731,N,08116.5286,W,1,9,1.8,10,M,,M,,*5C
06/21/2015	07:01:38.574	$GPGGA,070139,2433.4724,N,08116.5311,W,1,9,1.8,10,M,,M,,*56
06/21/2015	07:01:39.584	$GPGGA,070140,2433.4717,N,08116.5333,W,1,9,1.8,10,M,,M,,*58
06/21/2015	07:01:40.574	$GPGGA,070141,2433.4711,N,08116.5357,W,1,9,1.8,10,M,,M,,*5D
06/21/2015	07:01:41.594	$GPGGA,070142,2433.4704,N,08116.5379,W,1,9,1.8,10,M,,M,,*56
06/21/2015	07:01:42.554	$GPGGA,070143,2433.4698,N,08116.5402,W,1,9,1.8,10,M,,M,,*58
06/21/2015	07:01:43.584	$GPGGA,070144,2433.4693,N,08116.5426,W,1,9,1.8,10,M,,M,,*52
06/21/2015	07:01:44.564	$GPGGA,070145,2433.4688,N,08116.5448,W,1,9,1.8,10,M,,M,,*51
06/21/2015	07:01:45.574	$GPGGA,070146,2433.4681,N,08116.5471,W,1,9,1.8,10,M,,M,,*51
06/21/2015	07:01:46.554	$GPGGA,070147,2433.4674,N,08116.5495,W,1,9,1.8,10,M,,M,,*50
06/21/2015	07:01:47.584	$GPGGA,070148,2433.4668,N,08116.5517,W,1,9,1.8,10,M,,M,,*59
06/21/2015	07:01:48.564	$GPGGA,070149,2433.4662,N,08116.5540,W,1,9,1.8,10,M,,M,,*50
06/21/2015	07:01:49.534	$GPGGA,070150,2433.4655,N,08116.5564,W,1,9,1.8,10,M,,M,,*5A
06/21/2015	07:01:50.543	$GPGGA,070151,2433.4649,N,08116.5585,W,1,9,1.8,10,M,,M,,*59
06/21/2015	07:01:51.573	$GPGGA,070152,2433.4642,N,08116.5608,W,1,9,1.8,10,M,,M,,*57
06/21/2015	07:01:52.543	$GPGGA,070153,2433.4637,N,08116.5632,W,1,9,1.8,10,M,,M,,*5D
06/21/2015	07:01:53.563	$GPGGA,070154,2433.4630,N,08116.5654,W,1,9,1.8,10,M,,M,,*5D
06/21/2015	07:01:54.828	$GPGGA,070155,2433.4623,N,08116.5677,W,1,9,1.8,10,M,,M,,*5F
06/21/2015	07:01:55.554	$GPGGA,070156,2433.4616,N,08116.5701,W,1,9,1.8,10,M,,M,,*5A
06/21/2015	07:01:56.526	$GPGGA,070157,2433.4610,N,08116.5724,W,1,9,1.8,10,M,,M,,*5A
06/21/2015	07:01:57.564	$GPGGA,070158,2433.4603,N,08116.5748,W,1,9,1.8,10,M,,M,,*5D
06/21/2015	07:01:58.536	$GPGGA,070159,2433.4597,N,08116.5770,W,1,9,1.7,10,M,,M,,*56
06/21/2015	07:01:59.564	$GPGGA,070200,2433.4590,N,08116.5793,W,1,9,1.7,10,M,,M,,*53
06/21/2015	07:02:00.514	$GPGGA,070201,2433.4583,N,08116.5817,W,1,9,1.7,10,M,,M,,*53
06/21/2015	07:02:01.514	$GPGGA,070202,2433.4576,N,08116.5840,W,1,9,1.7,10,M,,M,,*58
06/21/2015	07:02:02.527	$GPGGA,070203,2433.4570,N,08116.5863,W,1,9,1.7,10,M,,M,,*5E
06/21/2015	07:02:03.564	$GPGGA,070204,2433.4563,N,08116.5886,W,1,9,1.7,10,M,,M,,*50
06/21/2015	07:02:04.534	$GPGGA,070205,2433.4557,N,08116.5910,W,1,9,1.7,10,M,,M,,*58
06/21/2015	07:02:05.674	$GPGGA,070206,2433.4550,N,08116.5932,W,1,9,1.7,10,M,,M,,*5C
06/21/2015	07:02:06.503	$GPGGA,070207,2433.4544,N,08116.5957,W,1,9,1.7,10,M,,M,,*5B
06/21/2015	07:02:07.524	$GPGGA,070208,2433.4538,N,08116.5979,W,1,9,1.7,10,M,,M,,*53
06/21/2015	07:02:08.603	$GPGGA,070209,2433.4531,N,08116.6002,W,1,9,1.7,10,M,,M,,*5D
06/21/2015	07:02:09.663	$GPGGA,070210,2433.4525,N,08116.6026,W,1,9,1.7,10,M,,M,,*56
06/21/2015	07:02:10.513	$GPGGA,070211,2433.4518,N,08116.6048,W,1,9,1.7,10,M,,M,,*51
06/21/2015	07:02:11.504	$GPGGA,070212,2433.4511,N,08116.6071,W,1,9,1.7,10,M,,M,,*51
06/21/2015	07:02:12.504	$GPGGA,070213,2433.4505,N,08116.6095,W,1,9,1.7,10,M,,M,,*5F
06/21/2015	07:02:13.514	$GPGGA,070214,2433.4500,N,08116.6117,W,1,9,1.7,10,M,,M,,*56
06/21/2015	07:02:14.504	$GPGGA,070215,2433.4493,N,08116.6139,W,1,9,1.7,10,M,,M,,*50
06/21/2015	07:02:15.514	$GPGGA,070216,2433.4489,N,08116.6163,W,1,9,1.7,10,M,,M,,*57
06/21/2015	07:02:16.504	$GPGGA,070217,2433.4482,N,08116.6186,W,1,9,2.1,10,M,,M,,*53
06/21/2015	07:02:17.604	$GPGGA,070218,2433.4482,N,08116.6210,W,1,9,1.7,10,M,,M,,*55
06/21/2015	07:02:18.654	$GPGGA,070219,2433.4475,N,08116.6233,W,1,9,1.7,10,M,,M,,*5D
06/21/2015	07:02:19.594	$GPGGA,070220,2433.4469,N,08116.6257,W,1,9,1.7,10,M,,M,,*58
06/21/2015	07:02:20.654	$GPGGA,070221,2433.4464,N,08116.6279,W,1,9,1.7,10,M,,M,,*58
06/21/2015	07:02:21.634	$GPGGA,070222,2433.4458,N,08116.6302,W,1,9,1.7,10,M,,M,,*59
06/21/2015	07:02:22.644	$GPGGA,070223,2433.4453,N,08116.6326,W,1,9,1.7,10,M,,M,,*55
06/21/2015	07:02:23.584	$GPGGA,070224,2433.4445,N,08116.6348,W,1,9,1.7,10,M,,M,,*5D
06/21/2015	07:02:24.644	$GPGGA,070225,2433.4440,N,08116.6373,W,1,9,1.7,10,M,,M,,*51
06/21/2015	07:02:25.613	$GPGGA,070226,2433.4433,N,08116.6395,W,1,9,1.7,10,M,,M,,*5E
06/21/2015	07:02:26.635	$GPGGA,070227,2433.4426,N,08116.6418,W,1,9,1.7,10,M,,M,,*59
06/21/2015	07:02:27.613	$GPGGA,070228,2433.4419,N,08116.6442,W,1,9,1.7,10,M,,M,,*55
06/21/2015	07:02:28.563	$GPGGA,070229,2433.4413,N,08116.6465,W,1,9,1.7,10,M,,M,,*5B
06/21/2015	07:02:29.604	$GPGGA,070230,2433.4406,N,08116.6488,W,1,9,1.7,10,M,,M,,*54
06/21/2015	07:02:30.627	$GPGGA,070231,2433.4399,N,08116.6511,W,1,9,1.7,10,M,,M,,*55
06/21/2015	07:02:31.614	$GPGGA,070232,2433.4393,N,08116.6535,W,1,9,1.7,10,M,,M,,*5A
06/21/2015	07:02:32.554	$GPGGA,070233,2433.4388,N,08116.6557,W,1,9,1.7,10,M,,M,,*55
06/21/2015	07:02:33.614	$GPGGA,070234,2433.4380,N,08116.6580,W,1,9,1.7,10,M,,M,,*50
06/21/2015	07:02:34.627	$GPGGA,070235,2433.4373,N,08116.6604,W,1,9,1.7,10,M,,M,,*52
06/21/2015	07:02:35.604	$GPGGA,070236,2433.4366,N,08116.6626,W,1,9,1.7,10,M,,M,,*55
06/21/2015	07:02:36.604	$GPGGA,070237,2433.4360,N,08116.6649,W,1,9,1.7,10,M,,M,,*5B
06/21/2015	07:02:37.904	$GPGGA,070238,2433.4353,N,08116.6673,W,1,9,1.7,10,M,,M,,*5D
06/21/2015	07:02:38.534	$GPGGA,070239,2433.4346,N,08116.6696,W,1,9,1.7,11,M,,M,,*52
06/21/2015	07:02:39.625	$GPGGA,070240,2433.4341,N,08116.6720,W,1,9,1.7,11,M,,M,,*57
06/21/2015	07:02:40.604	$GPGGA,070241,2433.4333,N,08116.6741,W,1,9,1.7,11,M,,M,,*54
06/21/2015	07:02:41.533	$GPGGA,070242,2433.4326,N,08116.6764,W,1,9,1.7,11,M,,M,,*54
06/21/2015	07:02:42.593	$GPGGA,070243,2433.4320,N,08116.6788,W,1,9,1.7,11,M,,M,,*51
06/21/2015	07:02:43.593	$GPGGA,070244,2433.4313,N,08116.6810,W,1,9,1.7,11,M,,M,,*58
06/21/2015	07:02:44.593	$GPGGA,070245,2433.4306,N,08116.6832,W,1,9,1.7,11,M,,M,,*5D
06/21/2015	07:02:45.583	$GPGGA,070246,2433.4299,N,08116.6855,W,1,9,1.7,11,M,,M,,*58
06/21/2015	07:02:46.584	$GPGGA,070247,2433.4292,N,08116.6879,W,1,9,1.7,11,M,,M,,*5C
06/21/2015	07:02:47.625	$GPGGA,070248,2433.4285,N,08116.6902,W,1,9,1.7,11,M,,M,,*58
06/21/2015	07:02:48.594	$GPGGA,070249,2433.4278,N,08116.6926,W,1,9,1.7,11,M,,M,,*5D
06/21/2015	07:02:49.514	$GPGGA,070250,2433.4272,N,08116.6948,W,1,9,1.7,11,M,,M,,*57
06/21/2015	07:02:50.574	$GPGGA,070251,2433.4265,N,08116.6972,W,1,9,1.7,11,M,,M,,*59
06/21/2015	07:02:51.644	$GPGGA,070252,2433.4259,N,08116.6994,W,1,9,1.7,11,M,,M,,*5D
06/21/2015	07:02:52.584	$GPGGA,070253,2433.4252,N,08116.7016,W,1,9,1.7,11,M,,M,,*55
06/21/2015	07:02:53.535	$GPGGA,070254,2433.4247,N,08116.7039,W,1,9,1.7,11,M,,M,,*5B
06/21/2015	07:02:54.627	$GPGGA,070255,2433.4240,N,08116.7063,W,1,9,1.7,11,M,,M,,*52
06/21/2015	07:02:55.626	$GPGGA,070256,2433.4233,N,08116.7085,W,1,9,1.7,11,M,,M,,*5D
06/21/2015	07:02:56.628	$GPGGA,070257,2433.4226,N,08116.7107,W,1,9,1.7,11,M,,M,,*53
06/21/2015	07:02:57.604	$GPGGA,070258,2433.4219,N,08116.7131,W,1,9,1.7,11,M,,M,,*55
06/21/2015	07:02:58.574	$GPGGA,070259,2433.4213,N,08116.7153,W,1,9,1.7,11,M,,M,,*5A
06/21/2015	07:02:59.583	$GPGGA,070300,2433.4207,N,08116.7178,W,1,9,1.7,11,M,,M,,*5B
06/21/2015	07:03:00.563	$GPGGA,070301,2433.4200,N,08116.7200,W,1,9,1.7,11,M,,M,,*51
06/21/2015	07:03:01.528	$GPGGA,070302,2433.4193,N,08116.7223,W,1,9,1.7,11,M,,M,,*5A
06/21/2015	07:03:02.563	$GPGGA,070303,2433.4185,N,08116.7247,W,1,9,1.7,11,M,,M,,*5E
06/21/2015	07:03:03.625	$GPGGA,070304,2433.4179,N,08116.7269,W,1,9,1.7,11,M,,M,,*56
06/21/2015	07:03:04.594	$GPGGA,070305,2433.4173,N,08116.7292,W,1,9,1.7,11,M,,M,,*59
06/21/2015	07:03:05.514	$GPGGA,070306,2433.4166,N,08116.7316,W,1,9,2.1,11,M,,M,,*56
06/21/2015	07:03:06.584	$GPGGA,070307,2433.4161,N,08116.7338,W,1,9,1.7,11,M,,M,,*59
06/21/2015	07:03:07.635	$GPGGA,070308,2433.4156,N,08116.7361,W,1,9,1.7,11,M,,M,,*5E
06/21/2015	07:03:08.584	$GPGGA,070309,2433.4151,N,08116.7385,W,1,9,1.7,11,M,,M,,*52
06/21/2015	07:03:09.594	$GPGGA,070310,2433.4146,N,08116.7410,W,1,9,1.7,11,M,,M,,*57
06/21/2015	07:03:10.574	$GPGGA,070311,2433.4140,N,08116.7433,W,1,9,1.7,11,M,,M,,*51
06/21/2015	07:03:11.594	$GPGGA,070312,2433.4133,N,08116.7457,W,1,9,1.7,11,M,,M,,*54
06/21/2015	07:03:12.574	$GPGGA,070313,2433.4128,N,08116.7479,W,1,9,1.7,11,M,,M,,*53
06/21/2015	07:03:13.584	$GPGGA,070314,2433.4122,N,08116.7503,W,1,9,1.7,11,M,,M,,*52
06/21/2015	07:03:14.564	$GPGGA,070315,2433.4117,N,08116.7525,W,1,9,1.7,11,M,,M,,*51
06/21/2015	07:03:15.604	$GPGGA,070316,2433.4111,N,08116.7547,W,1,9,1.7,11,M,,M,,*50
06/21/2015	07:03:16.563	$GPGGA,070317,2433.4106,N,08116.7570,W,1,9,1.7,11,M,,M,,*53
06/21/2015	07:03:17.573	$GPGGA,070318,2433.4100,N,08116.7594,W,1,9,1.7,11,M,,M,,*50
06/21/2015	07:03:18.573	$GPGGA,070319,2433.4095,N,08116.7616,W,1,9,2.0,11,M,,M,,*51
06/21/2015	07:03:19.583	$GPGGA,070320,2433.4088,N,08116.7641,W,1,8,2.0,11,M,,M,,*54
06/21/2015	07:03:20.573	$GPGGA,070321,2433.4084,N,08116.7663,W,1,8,2.0,11,M,,M,,*59
06/21/2015	07:03:21.554	$GPGGA,070322,2433.4077,N,08116.7686,W,1,8,1.7,11,M,,M,,*59
06/21/2015	07:03:22.574	$GPGGA,070323,2433.4070,N,08116.7710,W,1,8,1.7,11,M,,M,,*51
06/21/2015	07:03:23.594	$GPGGA,070324,2433.4063,N,08116.7732,W,1,9,1.7,11,M,,M,,*55
06/21/2015	07:03:25.604	$GPGGA,070326,2433.4049,N,08116.7778,W,1,9,1.7,12,M,,M,,*52
06/21/2015	07:03:26.564	$GPGGA,070327,2433.4042,N,08116.7800,W,1,9,1.7,12,M,,M,,*58
06/21/2015	07:03:27.604	$GPGGA,070328,2433.4036,N,08116.7822,W,1,9,1.7,12,M,,M,,*54
06/21/2015	07:03:28.564	$GPGGA,070329,2433.4030,N,08116.7845,W,1,9,1.7,12,M,,M,,*52
06/21/2015	07:03:29.537	$GPGGA,070330,2433.4023,N,08116.7868,W,1,9,1.7,12,M,,M,,*57
06/21/2015	07:03:30.564	$GPGGA,070331,2433.4016,N,08116.7891,W,1,9,1.7,12,M,,M,,*56
06/21/2015	07:03:31.574	$GPGGA,070332,2433.4008,N,08116.7915,W,1,9,1.7,13,M,,M,,*56
06/21/2015	07:03:32.554	$GPGGA,070333,2433.4001,N,08116.7937,W,1,9,1.7,13,M,,M,,*5E
06/21/2015	07:03:33.564	$GPGGA,070334,2433.3994,N,08116.7962,W,1,9,1.7,13,M,,M,,*5B
06/21/2015	07:03:34.553	$GPGGA,070335,2433.3988,N,08116.7984,W,1,9,1.7,13,M,,M,,*5F
06/21/2015	07:03:35.573	$GPGGA,070336,2433.3981,N,08116.8007,W,1,9,1.7,13,M,,M,,*58
06/21/2015	07:03:36.543	$GPGGA,070337,2433.3981,N,08116.8007,W,1,9,1.7,13,M,,M,,*59
06/21/2015	07:03:37.637	$GPGGA,070338,2433.3967,N,08116.8054,W,1,9,1.7,13,M,,M,,*58
06/21/2015	07:03:38.574	$GPGGA,070339,2433.3960,N,08116.8078,W,1,9,1.7,13,M,,M,,*50
06/21/2015	07:03:39.544	$GPGGA,070340,2433.3954,N,08116.8103,W,1,9,1.7,13,M,,M,,*54
06/21/2015	07:03:40.524	$GPGGA,070341,2433.3954,N,08116.8103,W,1,9,1.7,13,M,,M,,*55
06/21/2015	07:03:41.554	$GPGGA,070342,2433.3940,N,08116.8150,W,1,9,1.7,14,M,,M,,*52
06/21/2015	07:03:42.574	$GPGGA,070343,2433.3940,N,08116.8150,W,1,9,1.7,14,M,,M,,*53
06/21/2015	07:03:43.514	$GPGGA,070344,2433.3932,N,08116.8172,W,1,9,1.7,14,M,,M,,*51
06/21/2015	07:03:44.614	$GPGGA,070345,2433.3919,N,08116.8219,W,1,9,1.7,14,M,,M,,*57
06/21/2015	07:03:45.604	$GPGGA,070346,2433.3912,N,08116.8241,W,1,9,1.7,14,M,,M,,*52
06/21/2015	07:03:46.514	$GPGGA,070347,2433.3912,N,08116.8241,W,1,9,1.7,14,M,,M,,*53
06/21/2015	07:03:47.524	$GPGGA,070348,2433.3898,N,08116.8288,W,1,9,1.7,14,M,,M,,*5A
06/21/2015	07:03:48.514	$GPGGA,070349,2433.3898,N,08116.8288,W,1,9,1.7,14,M,,M,,*5B
06/21/2015	07:03:49.614	$GPGGA,070350,2433.3884,N,08116.8335,W,1,9,1.7,14,M,,M,,*59
06/21/2015	07:03:50.526	$GPGGA,070351,2433.3884,N,08116.8335,W,1,9,1.7,14,M,,M,,*58
06/21/2015	07:03:51.513	$GPGGA,070352,2433.3869,N,08116.8382,W,1,9,1.7,14,M,,M,,*54
06/21/2015	07:03:52.604	$GPGGA,070353,2433.3862,N,08116.8403,W,1,9,1.7,14,M,,M,,*50
06/21/2015	07:03:53.625	$GPGGA,070354,2433.3857,N,08116.8428,W,1,9,1.7,14,M,,M,,*58
06/21/2015	07:03:54.603	$GPGGA,070355,2433.3850,N,08116.8450,W,1,9,1.7,14,M,,M,,*51
06/21/2015	07:03:55.628	$GPGGA,070356,2433.3843,N,08116.8472,W,1,9,1.7,14,M,,M,,*50
06/21/2015	07:03:56.574	$GPGGA,070357,2433.3836,N,08116.8494,W,1,9,1.7,14,M,,M,,*5B
06/21/2015	07:03:57.604	$GPGGA,070358,2433.3829,N,08116.8517,W,1,9,1.7,14,M,,M,,*50
06/21/2015	07:03:58.574	$GPGGA,070359,2433.3824,N,08116.8540,W,1,9,1.7,14,M,,M,,*5E
06/21/2015	07:03:59.605	$GPGGA,070400,2433.3817,N,08116.8563,W,1,9,1.7,14,M,,M,,*54
06/21/2015	07:04:00.574	$GPGGA,070401,2433.3810,N,08116.8587,W,1,9,1.7,14,M,,M,,*58
06/21/2015	07:04:01.574	$GPGGA,070402,2433.3803,N,08116.8609,W,1,9,1.7,14,M,,M,,*5C
06/21/2015	07:04:02.584	$GPGGA,070403,2433.3796,N,08116.8631,W,1,9,1.7,14,M,,M,,*55
06/21/2015	07:04:03.595	$GPGGA,070404,2433.3790,N,08116.8653,W,1,9,1.7,14,M,,M,,*50
06/21/2015	07:04:04.564	$GPGGA,070405,2433.3783,N,08116.8676,W,1,9,1.7,14,M,,M,,*54
06/21/2015	07:04:05.584	$GPGGA,070406,2433.3777,N,08116.8699,W,1,9,1.7,14,M,,M,,*5D
06/21/2015	07:04:06.563	$GPGGA,070407,2433.3770,N,08116.8722,W,1,9,1.7,14,M,,M,,*5A
06/21/2015	07:04:07.584	$GPGGA,070408,2433.3763,N,08116.8746,W,1,9,1.7,14,M,,M,,*55
06/21/2015	07:04:08.554	$GPGGA,070409,2433.3757,N,08116.8769,W,1,9,1.7,14,M,,M,,*5E
06/21/2015	07:04:09.563	$GPGGA,070410,2433.3752,N,08116.8793,W,1,9,1.7,14,M,,M,,*56
06/21/2015	07:04:10.553	$GPGGA,070411,2433.3745,N,08116.8816,W,1,9,1.7,14,M,,M,,*53
06/21/2015	07:04:11.573	$GPGGA,070412,2433.3738,N,08116.8840,W,1,9,1.7,14,M,,M,,*59
06/21/2015	07:04:12.553	$GPGGA,070413,2433.3732,N,08116.8862,W,1,9,1.7,14,M,,M,,*52
06/21/2015	07:04:13.563	$GPGGA,070414,2433.3727,N,08116.8885,W,1,9,1.7,14,M,,M,,*58
06/21/2015	07:04:14.535	$GPGGA,070415,2433.3720,N,08116.8909,W,1,9,1.7,14,M,,M,,*5B
06/21/2015	07:04:15.573	$GPGGA,070416,2433.3714,N,08116.8931,W,1,9,1.7,14,M,,M,,*54
06/21/2015	07:04:16.533	$GPGGA,070417,2433.3708,N,08116.8954,W,1,9,1.7,14,M,,M,,*5B
06/21/2015	07:04:17.533	$GPGGA,070418,2433.3703,N,08116.8978,W,1,9,1.7,14,M,,M,,*51
06/21/2015	07:04:18.533	$GPGGA,070419,2433.3698,N,08116.9000,W,1,9,1.7,14,M,,M,,*54
06/21/2015	07:04:19.533	$GPGGA,070420,2433.3691,N,08116.9024,W,1,9,1.7,14,M,,M,,*51
06/21/2015	07:04:20.533	$GPGGA,070421,2433.3685,N,08116.9047,W,1,9,1.7,14,M,,M,,*50
06/21/2015	07:04:21.513	$GPGGA,070422,2433.3680,N,08116.9071,W,1,8,1.9,14,M,,M,,*5C
06/21/2015	07:04:22.530	$GPGGA,070423,2433.3672,N,08116.9094,W,1,8,1.7,14,M,,M,,*55
06/21/2015	07:04:23.553	$GPGGA,070424,2433.3666,N,08116.9118,W,1,9,1.7,14,M,,M,,*53
06/21/2015	07:04:24.524	$GPGGA,070425,2433.3659,N,08116.9141,W,1,9,1.7,14,M,,M,,*52
06/21/2015	07:04:25.524	$GPGGA,070426,2433.3653,N,08116.9163,W,1,9,1.7,14,M,,M,,*5B
06/21/2015	07:04:26.503	$GPGGA,070427,2433.3647,N,08116.9187,W,1,9,1.7,14,M,,M,,*55
06/21/2015	07:04:27.553	$GPGGA,070428,2433.3640,N,08116.9209,W,1,9,1.7,14,M,,M,,*58
06/21/2015	07:04:28.528	$GPGGA,070429,2433.3634,N,08116.9231,W,1,9,1.7,14,M,,M,,*51
06/21/2015	07:04:29.593	$GPGGA,070430,2433.3627,N,08116.9254,W,1,9,1.7,14,M,,M,,*58
06/21/2015	07:04:30.516	$GPGGA,070431,2433.3620,N,08116.9277,W,1,9,1.7,14,M,,M,,*5F
06/21/2015	07:04:31.622	$GPGGA,070432,2433.3615,N,08116.9303,W,1,9,1.7,14,M,,M,,*58
06/21/2015	07:04:32.503	$GPGGA,070433,2433.3607,N,08116.9325,W,1,9,1.7,14,M,,M,,*5E
06/21/2015	07:04:33.514	$GPGGA,070434,2433.3600,N,08116.9348,W,1,9,1.7,14,M,,M,,*55
06/21/2015	07:04:34.583	$GPGGA,070435,2433.3593,N,08116.9371,W,1,9,1.7,14,M,,M,,*57
06/21/2015	07:04:35.626	$GPGGA,070436,2433.3587,N,08116.9393,W,1,9,1.7,14,M,,M,,*5D
06/21/2015	07:04:36.503	$GPGGA,070437,2433.3582,N,08116.9415,W,1,9,1.7,14,M,,M,,*50
06/21/2015	07:04:37.583	$GPGGA,070438,2433.3575,N,08116.9437,W,1,9,1.7,14,M,,M,,*57
06/21/2015	07:04:38.493	$GPGGA,070439,2433.3568,N,08116.9460,W,1,9,1.7,14,M,,M,,*58
06/21/2015	07:04:39.493	$GPGGA,070440,2433.3560,N,08116.9483,W,1,9,1.7,14,M,,M,,*53
06/21/2015	07:04:40.583	$GPGGA,070441,2433.3553,N,08116.9506,W,1,9,1.7,14,M,,M,,*5E
06/21/2015	07:04:41.604	$GPGGA,070442,2433.3546,N,08116.9530,W,1,9,1.7,14,M,,M,,*5C
06/21/2015	07:04:42.484	$GPGGA,070443,2433.3539,N,08116.9553,W,1,9,1.7,14,M,,M,,*50
06/21/2015	07:04:43.583	$GPGGA,070444,2433.3531,N,08116.9577,W,1,9,1.7,14,M,,M,,*59
06/21/2015	07:04:44.573	$GPGGA,070445,2433.3524,N,08116.9599,W,1,9,1.7,14,M,,M,,*5C
06/21/2015	07:04:45.573	$GPGGA,070446,2433.3517,N,08116.9621,W,1,9,1.7,14,M,,M,,*5F
06/21/2015	07:04:46.573	$GPGGA,070447,2433.3510,N,08116.9644,W,1,9,1.7,14,M,,M,,*5A
06/21/2015	07:04:47.573	$GPGGA,070448,2433.3501,N,08116.9667,W,1,9,1.7,14,M,,M,,*54
06/21/2015	07:04:48.563	$GPGGA,070449,2433.3494,N,08116.9689,W,1,9,1.7,14,M,,M,,*58
06/21/2015	07:04:49.553	$GPGGA,070450,2433.3488,N,08116.9712,W,1,9,1.7,14,M,,M,,*5E
06/21/2015	07:04:50.564	$GPGGA,070451,2433.3481,N,08116.9736,W,1,9,1.7,14,M,,M,,*50
06/21/2015	07:04:51.593	$GPGGA,070452,2433.3474,N,08116.9758,W,1,9,1.7,14,M,,M,,*51
06/21/2015	07:04:52.553	$GPGGA,070453,2433.3467,N,08116.9781,W,1,9,1.7,14,M,,M,,*56
06/21/2015	07:04:53.543	$GPGGA,070454,2433.3459,N,08116.9805,W,1,9,1.7,14,M,,M,,*5F
06/21/2015	07:04:54.553	$GPGGA,070455,2433.3452,N,08116.9828,W,1,9,1.7,14,M,,M,,*5A
06/21/2015	07:04:55.583	$GPGGA,070456,2433.3445,N,08116.9852,W,1,9,1.7,14,M,,M,,*52
06/21/2015	07:04:56.553	$GPGGA,070457,2433.3439,N,08116.9874,W,1,9,1.7,14,M,,M,,*5C
06/21/2015	07:04:57.553	$GPGGA,070458,2433.3432,N,08116.9897,W,1,9,1.7,14,M,,M,,*55
06/21/2015	07:04:58.553	$GPGGA,070459,2433.3427,N,08116.9921,W,1,9,1.7,14,M,,M,,*5C
06/21/2015	07:04:59.574	$GPGGA,070500,2433.3421,N,08116.9943,W,1,9,1.7,14,M,,M,,*53
06/21/2015	07:05:00.544	$GPGGA,070501,2433.3416,N,08116.9967,W,1,9,2.4,14,M,,M,,*50
06/21/2015	07:05:01.533	$GPGGA,070502,2433.3412,N,08116.9989,W,1,9,1.7,14,M,,M,,*57
06/21/2015	07:05:02.813	$GPGGA,070503,2433.3406,N,08117.0012,W,1,9,1.7,14,M,,M,,*50
06/21/2015	07:05:03.573	$GPGGA,070504,2433.3400,N,08117.0036,W,1,8,1.9,14,M,,M,,*58
06/21/2015	07:05:04.533	$GPGGA,070505,2433.3394,N,08117.0058,W,1,8,1.9,14,M,,M,,*5B
06/21/2015	07:05:05.525	$GPGGA,070506,2433.3389,N,08117.0083,W,1,9,1.7,14,M,,M,,*5D
06/21/2015	07:05:06.533	$GPGGA,070507,2433.3383,N,08117.0105,W,1,9,1.7,14,M,,M,,*59
06/21/2015	07:05:07.543	$GPGGA,070508,2433.3377,N,08117.0130,W,1,9,1.7,14,M,,M,,*5B
06/21/2015	07:05:08.524	$GPGGA,070509,2433.3371,N,08117.0152,W,1,9,1.7,14,M,,M,,*58
06/21/2015	07:05:09.515	$GPGGA,070510,2433.3366,N,08117.0177,W,1,9,1.7,14,M,,M,,*51
06/21/2015	07:05:10.513	$GPGGA,070511,2433.3362,N,08117.0199,W,1,9,1.7,15,M,,M,,*55
06/21/2015	07:05:11.853	$GPGGA,070512,2433.3358,N,08117.0222,W,1,7,2.8,15,M,,M,,*5E
06/21/2015	07:05:12.514	$GPGGA,070513,2433.3352,N,08117.0246,W,1,7,1.8,15,M,,M,,*54
06/21/2015	07:05:13.503	$GPGGA,070514,2433.3346,N,08117.0268,W,1,9,1.7,15,M,,M,,*5B
06/21/2015	07:05:14.526	$GPGGA,070515,2433.3340,N,08117.0292,W,1,9,1.7,15,M,,M,,*59
06/21/2015	07:05:15.523	$GPGGA,070516,2433.3335,N,08117.0314,W,1,9,1.7,15,M,,M,,*57
06/21/2015	07:05:16.517	$GPGGA,070517,2433.3329,N,08117.0337,W,1,9,1.7,15,M,,M,,*5A
06/21/2015	07:05:17.618	$GPGGA,070518,2433.3323,N,08117.0361,W,1,9,1.7,15,M,,M,,*5C
06/21/2015	07:05:18.513	$GPGGA,070519,2433.3317,N,08117.0384,W,1,9,1.7,15,M,,M,,*51
06/21/2015	07:05:19.624	$GPGGA,070520,2433.3311,N,08117.0406,W,1,9,1.7,15,M,,M,,*50
06/21/2015	07:05:20.614	$GPGGA,070521,2433.3304,N,08117.0430,W,1,9,1.7,15,M,,M,,*50
06/21/2015	07:05:21.603	$GPGGA,070522,2433.3298,N,08117.0452,W,1,9,1.7,15,M,,M,,*53
06/21/2015	07:05:22.614	$GPGGA,070523,2433.3293,N,08117.0475,W,1,9,1.7,15,M,,M,,*5C
06/21/2015	07:05:23.603	$GPGGA,070524,2433.3286,N,08117.0498,W,1,9,1.7,15,M,,M,,*5C
06/21/2015	07:05:24.503	$GPGGA,070525,2433.3279,N,08117.0520,W,1,9,1.7,15,M,,M,,*5F
06/21/2015	07:05:26.042	$GPGGA,070526,2433.3272,N,08117.0543,W,1,9,1.7,15,M,,M,,*52
06/21/2015	07:05:26.583	$GPGGA,070527,2433.3264,N,08117.0567,W,1,9,1.7,15,M,,M,,*52
06/21/2015	07:05:27.493	$GPGGA,070528,2433.3258,N,08117.0589,W,1,9,1.7,15,M,,M,,*52
06/21/2015	07:05:28.573	$GPGGA,070529,2433.3252,N,08117.0612,W,1,9,1.7,16,M,,M,,*5B
06/21/2015	07:05:29.573	$GPGGA,070530,2433.3243,N,08117.0636,W,1,9,1.7,16,M,,M,,*55
06/21/2015	07:05:30.573	$GPGGA,070531,2433.3237,N,08117.0659,W,1,9,1.7,16,M,,M,,*5E
06/21/2015	07:05:31.603	$GPGGA,070532,2433.3232,N,08117.0683,W,1,9,1.7,16,M,,M,,*5F
06/21/2015	07:05:32.573	$GPGGA,070533,2433.3224,N,08117.0705,W,1,9,1.7,16,M,,M,,*56
06/21/2015	07:05:33.583	$GPGGA,070534,2433.3217,N,08117.0727,W,1,9,1.7,16,M,,M,,*51
06/21/2015	07:05:34.574	$GPGGA,070535,2433.3210,N,08117.0751,W,1,9,1.7,16,M,,M,,*56
06/21/2015	07:05:35.594	$GPGGA,070536,2433.3203,N,08117.0773,W,1,9,1.7,16,M,,M,,*57
06/21/2015	07:05:36.833	$GPGGA,070537,2433.3195,N,08117.0795,W,1,9,1.7,16,M,,M,,*52
06/21/2015	07:05:37.573	$GPGGA,070538,2433.3188,N,08117.0817,W,1,9,1.7,16,M,,M,,*54
06/21/2015	07:05:38.563	$GPGGA,070539,2433.3181,N,08117.0840,W,1,9,1.7,16,M,,M,,*5E
06/21/2015	07:05:39.583	$GPGGA,070540,2433.3174,N,08117.0863,W,1,9,1.7,16,M,,M,,*5B
06/21/2015	07:05:40.563	$GPGGA,070541,2433.3167,N,08117.0886,W,1,9,1.7,16,M,,M,,*53
06/21/2015	07:05:41.573	$GPGGA,070542,2433.3159,N,08117.0908,W,1,9,1.7,16,M,,M,,*5A
06/21/2015	07:05:43.631	$GPGGA,070544,2433.3146,N,08117.0954,W,1,9,1.7,16,M,,M,,*5B
06/21/2015	07:05:44.553	$GPGGA,070545,2433.3139,N,08117.0976,W,1,9,1.7,16,M,,M,,*52
06/21/2015	07:05:45.573	$GPGGA,070546,2433.3132,N,08117.0999,W,1,9,1.7,16,M,,M,,*5B
06/21/2015	07:05:46.553	$GPGGA,070547,2433.3127,N,08117.1022,W,1,9,1.7,16,M,,M,,*56
06/21/2015	07:05:47.583	$GPGGA,070548,2433.3120,N,08117.1045,W,1,9,1.7,16,M,,M,,*5F
06/21/2015	07:05:48.553	$GPGGA,070549,2433.3112,N,08117.1069,W,1,9,1.7,16,M,,M,,*51
06/21/2015	07:05:49.533	$GPGGA,070550,2433.3105,N,08117.1091,W,1,9,1.7,16,M,,M,,*58
06/21/2015	07:05:50.543	$GPGGA,070551,2433.3099,N,08117.1114,W,1,9,1.7,16,M,,M,,*51
06/21/2015	07:05:51.584	$GPGGA,070552,2433.3092,N,08117.1138,W,1,9,1.7,16,M,,M,,*57
06/21/2015	07:05:52.544	$GPGGA,070553,2433.3085,N,08117.1160,W,1,9,1.7,16,M,,M,,*5D
06/21/2015	07:05:53.529	$GPGGA,070554,2433.3080,N,08117.1182,W,1,9,1.7,15,M,,M,,*50
06/21/2015	07:05:54.529	$GPGGA,070555,2433.3073,N,08117.1206,W,1,9,1.7,15,M,,M,,*52
06/21/2015	07:05:55.553	$GPGGA,070556,2433.3066,N,08117.1228,W,1,9,1.7,15,M,,M,,*59
06/21/2015	07:05:56.515	$GPGGA,070557,2433.3060,N,08117.1250,W,1,9,1.7,15,M,,M,,*51
06/21/2015	07:05:57.553	$GPGGA,070558,2433.3055,N,08117.1275,W,1,9,1.7,15,M,,M,,*5F
06/21/2015	07:05:58.533	$GPGGA,070559,2433.3047,N,08117.1297,W,1,9,1.7,15,M,,M,,*51
06/21/2015	07:05:59.553	$GPGGA,070600,2433.3041,N,08117.1320,W,1,9,1.7,15,M,,M,,*55
06/21/2015	07:06:00.541	$GPGGA,070601,2433.3035,N,08117.1344,W,1,9,1.7,15,M,,M,,*55
06/21/2015	07:06:01.517	$GPGGA,070602,2433.3029,N,08117.1367,W,1,9,1.7,15,M,,M,,*5A
06/21/2015	07:06:02.530	$GPGGA,070603,2433.3022,N,08117.1389,W,1,9,1.7,15,M,,M,,*50
06/21/2015	07:06:03.633	$GPGGA,070604,2433.3016,N,08117.1413,W,1,9,1.7,15,M,,M,,*54
06/21/2015	07:06:04.516	$GPGGA,070605,2433.3010,N,08117.1435,W,1,9,1.7,15,M,,M,,*57
06/21/2015	07:06:05.503	$GPGGA,070606,2433.3004,N,08117.1459,W,1,9,1.7,15,M,,M,,*5B
06/21/2015	07:06:06.517	$GPGGA,070607,2433.2997,N,08117.1481,W,1,9,1.7,15,M,,M,,*5D
06/21/2015	07:06:07.619	$GPGGA,070608,2433.2991,N,08117.1506,W,1,9,1.7,15,M,,M,,*5A
06/21/2015	07:06:08.620	$GPGGA,070609,2433.2986,N,08117.1529,W,1,9,1.7,15,M,,M,,*50
06/21/2015	07:06:09.525	$GPGGA,070610,2433.2979,N,08117.1553,W,1,9,1.7,15,M,,M,,*55
06/21/2015	07:06:10.504	$GPGGA,070611,2433.2971,N,08117.1576,W,1,9,1.7,15,M,,M,,*5B
06/21/2015	07:06:11.632	$GPGGA,070612,2433.2966,N,08117.1600,W,1,8,2.2,15,M,,M,,*5B
06/21/2015	07:06:12.503	$GPGGA,070613,2433.2961,N,08117.1623,W,1,8,1.7,15,M,,M,,*5A
06/21/2015	07:06:13.584	$GPGGA,070614,2433.2955,N,08117.1647,W,1,9,1.7,15,M,,M,,*59
06/21/2015	07:06:14.494	$GPGGA,070615,2433.2950,N,08117.1669,W,1,9,1.7,15,M,,M,,*51
06/21/2015	07:06:15.629	$GPGGA,070616,2433.2943,N,08117.1691,W,1,9,1.7,15,M,,M,,*57
06/21/2015	07:06:16.573	$GPGGA,070617,2433.2937,N,08117.1716,W,1,9,1.7,15,M,,M,,*5B
06/21/2015	07:06:17.573	$GPGGA,070618,2433.2932,N,08117.1739,W,1,9,1.7,15,M,,M,,*5C
06/21/2015	07:06:18.573	$GPGGA,070619,2433.2926,N,08117.1763,W,1,9,1.7,15,M,,M,,*57
06/21/2015	07:06:19.618	$GPGGA,070620,2433.2917,N,08117.1785,W,1,9,1.7,15,M,,M,,*57
06/21/2015	07:06:20.563	$GPGGA,070621,2433.2911,N,08117.1808,W,1,9,2.2,15,M,,M,,*5C
06/21/2015	07:06:21.573	$GPGGA,070622,2433.2905,N,08117.1832,W,1,8,2.2,15,M,,M,,*52
06/21/2015	07:06:22.563	$GPGGA,070623,2433.2898,N,08117.1853,W,1,8,1.7,15,M,,M,,*57
06/21/2015	07:06:23.593	$GPGGA,070624,2433.2892,N,08117.1876,W,1,9,1.7,15,M,,M,,*5C
06/21/2015	07:06:24.563	$GPGGA,070625,2433.2886,N,08117.1900,W,1,9,1.7,15,M,,M,,*58
06/21/2015	07:06:25.573	$GPGGA,070626,2433.2880,N,08117.1922,W,1,9,1.7,15,M,,M,,*5D
06/21/2015	07:06:26.564	$GPGGA,070627,2433.2872,N,08117.1947,W,1,9,1.7,15,M,,M,,*52
06/21/2015	07:06:27.574	$GPGGA,070628,2433.2865,N,08117.1969,W,1,9,1.7,15,M,,M,,*57
06/21/2015	07:06:28.553	$GPGGA,070629,2433.2858,N,08117.1992,W,1,9,1.7,15,M,,M,,*5C
06/21/2015	07:06:30.593	$GPGGA,070631,2433.2845,N,08117.2038,W,1,9,1.7,15,M,,M,,*53
06/21/2015	07:06:31.583	$GPGGA,070632,2433.2838,N,08117.2060,W,1,9,1.7,15,M,,M,,*57
06/21/2015	07:06:32.573	$GPGGA,070633,2433.2831,N,08117.2084,W,1,9,1.7,15,M,,M,,*55
06/21/2015	07:06:33.563	$GPGGA,070634,2433.2824,N,08117.2107,W,1,9,1.7,15,M,,M,,*5C
06/21/2015	07:06:34.536	$GPGGA,070635,2433.2818,N,08117.2132,W,1,9,1.8,15,M,,M,,*5B
06/21/2015	07:06:35.573	$GPGGA,070636,2433.2811,N,08117.2154,W,1,9,1.7,15,M,,M,,*5E
06/21/2015	07:06:36.533	$GPGGA,070637,2433.2804,N,08117.2178,W,1,9,1.7,15,M,,M,,*55
06/21/2015	07:06:37.533	$GPGGA,070638,2433.2798,N,08117.2201,W,1,9,1.7,15,M,,M,,*5D
06/21/2015	07:06:38.543	$GPGGA,070639,2433.2791,N,08117.2225,W,1,9,1.7,15,M,,M,,*53
06/21/2015	07:06:39.543	$GPGGA,070640,2433.2784,N,08117.2247,W,1,9,1.7,15,M,,M,,*5D
06/21/2015	07:06:40.533	$GPGGA,070641,2433.2777,N,08117.2270,W,1,9,1.7,15,M,,M,,*54
06/21/2015	07:06:41.573	$GPGGA,070642,2433.2770,N,08117.2294,W,1,9,1.7,15,M,,M,,*5A
06/21/2015	07:06:42.543	$GPGGA,070643,2433.2763,N,08117.2319,W,1,9,1.7,15,M,,M,,*5D
06/21/2015	07:06:43.553	$GPGGA,070644,2433.2756,N,08117.2342,W,1,9,1.7,15,M,,M,,*52
06/21/2015	07:06:44.554	$GPGGA,070645,2433.2751,N,08117.2366,W,1,9,1.7,15,M,,M,,*52
06/21/2015	07:06:45.534	$GPGGA,070646,2433.2744,N,08117.2389,W,1,9,1.7,15,M,,M,,*54
06/21/2015	07:06:46.513	$GPGGA,070647,2433.2738,N,08117.2413,W,1,9,1.7,15,M,,M,,*5A
06/21/2015	07:06:47.573	$GPGGA,070648,2433.2733,N,08117.2433,W,1,8,1.8,15,M,,M,,*52
06/21/2015	07:06:48.527	$GPGGA,070649,2433.2726,N,08117.2457,W,1,8,1.7,15,M,,M,,*5A
06/21/2015	07:06:49.533	$GPGGA,070650,2433.2720,N,08117.2479,W,1,9,1.7,15,M,,M,,*59
06/21/2015	07:06:50.513	$GPGGA,070651,2433.2715,N,08117.2504,W,1,9,1.7,15,M,,M,,*55
06/21/2015	07:06:52.046	$GPGGA,070652,2433.2708,N,08117.2527,W,1,9,1.7,15,M,,M,,*5B
06/21/2015	07:06:52.513	$GPGGA,070653,2433.2701,N,08117.2551,W,1,9,1.7,15,M,,M,,*52
06/21/2015	07:06:53.513	$GPGGA,070654,2433.2694,N,08117.2576,W,1,9,1.7,16,M,,M,,*5E
06/21/2015	07:06:54.603	$GPGGA,070655,2433.2688,N,08117.2599,W,1,9,1.7,16,M,,M,,*53
06/21/2015	07:06:55.663	$GPGGA,070656,2433.2681,N,08117.2623,W,1,9,1.7,16,M,,M,,*5B
06/21/2015	07:06:56.514	$GPGGA,070657,2433.2675,N,08117.2645,W,1,9,1.7,16,M,,M,,*51
06/21/2015	07:06:57.514	$GPGGA,070658,2433.2669,N,08117.2668,W,1,9,1.7,16,M,,M,,*5C
06/21/2015	07:06:58.593	$GPGGA,070659,2433.2662,N,08117.2691,W,1,9,1.7,16,M,,M,,*50
06/21/2015	07:06:59.663	$GPGGA,070700,2433.2656,N,08117.2713,W,1,9,1.7,15,M,,M,,*52
06/21/2015	07:07:00.503	$GPGGA,070701,2433.2650,N,08117.2736,W,1,9,1.7,15,M,,M,,*52
06/21/2015	07:07:01.594	$GPGGA,070702,2433.2643,N,08117.2760,W,1,9,1.7,15,M,,M,,*50
06/21/2015	07:07:02.494	$GPGGA,070703,2433.2636,N,08117.2782,W,1,9,1.7,15,M,,M,,*5F
06/21/2015	07:07:03.503	$GPGGA,070704,2433.2630,N,08117.2805,W,1,9,1.7,15,M,,M,,*5E
06/21/2015	07:07:04.583	$GPGGA,070705,2433.2625,N,08117.2827,W,1,9,1.7,15,M,,M,,*5B
06/21/2015	07:07:05.583	$GPGGA,070706,2433.2617,N,08117.2850,W,1,9,1.7,15,M,,M,,*59
06/21/2015	07:07:06.573	$GPGGA,070707,2433.2610,N,08117.2873,W,1,9,1.7,15,M,,M,,*5E
06/21/2015	07:07:07.603	$GPGGA,070708,2433.2605,N,08117.2897,W,1,9,1.7,15,M,,M,,*5F
06/21/2015	07:07:08.583	$GPGGA,070709,2433.2598,N,08117.2919,W,1,9,1.7,15,M,,M,,*5E
06/21/2015	07:07:09.593	$GPGGA,070710,2433.2592,N,08117.2942,W,1,9,1.7,15,M,,M,,*52
06/21/2015	07:07:10.583	$GPGGA,070711,2433.2586,N,08117.2964,W,1,9,1.7,15,M,,M,,*52
06/21/2015	07:07:11.573	$GPGGA,070712,2433.2580,N,08117.2988,W,1,9,1.7,15,M,,M,,*55
06/21/2015	07:07:12.573	$GPGGA,070713,2433.2574,N,08117.3009,W,1,9,1.7,15,M,,M,,*5E
06/21/2015	07:07:13.583	$GPGGA,070714,2433.2568,N,08117.3032,W,1,9,1.7,15,M,,M,,*5C
06/21/2015	07:07:14.553	$GPGGA,070715,2433.2562,N,08117.3056,W,1,9,1.7,15,M,,M,,*55
06/21/2015	07:07:15.618	$GPGGA,070716,2433.2556,N,08117.3078,W,1,9,1.7,15,M,,M,,*5D
06/21/2015	07:07:16.563	$GPGGA,070717,2433.2550,N,08117.3101,W,1,9,1.7,15,M,,M,,*55
06/21/2015	07:07:17.573	$GPGGA,070718,2433.2543,N,08117.3125,W,1,9,1.7,15,M,,M,,*5E
06/21/2015	07:07:18.553	$GPGGA,070719,2433.2538,N,08117.3148,W,1,9,1.7,15,M,,M,,*58
06/21/2015	07:07:19.584	$GPGGA,070720,2433.2531,N,08117.3172,W,1,9,1.7,14,M,,M,,*53
06/21/2015	07:07:20.544	$GPGGA,070721,2433.2525,N,08117.3194,W,1,9,1.7,14,M,,M,,*5F
06/21/2015	07:07:21.563	$GPGGA,070722,2433.2520,N,08117.3217,W,1,9,1.7,14,M,,M,,*51
06/21/2015	07:07:22.543	$GPGGA,070723,2433.2513,N,08117.3241,W,1,9,1.7,14,M,,M,,*53
06/21/2015	07:07:23.583	$GPGGA,070724,2433.2507,N,08117.3262,W,1,9,1.7,14,M,,M,,*50
06/21/2015	07:07:24.533	$GPGGA,070725,2433.2500,N,08117.3285,W,1,9,1.7,14,M,,M,,*5F
06/21/2015	07:07:25.543	$GPGGA,070726,2433.2495,N,08117.3309,W,1,9,1.7,14,M,,M,,*54
06/21/2015	07:07:26.543	$GPGGA,070727,2433.2488,N,08117.3331,W,1,9,1.7,14,M,,M,,*52
06/21/2015	07:07:27.583	$GPGGA,070728,2433.2481,N,08117.3354,W,1,9,1.7,14,M,,M,,*57
06/21/2015	07:07:28.543	$GPGGA,070729,2433.2474,N,08117.3378,W,1,9,1.9,14,M,,M,,*5C
06/21/2015	07:07:29.543	$GPGGA,070730,2433.2468,N,08117.3400,W,1,8,1.7,14,M,,M,,*5E
06/21/2015	07:07:30.533	$GPGGA,070731,2433.2460,N,08117.3423,W,1,8,1.7,14,M,,M,,*56
06/21/2015	07:07:31.563	$GPGGA,070732,2433.2453,N,08117.3446,W,1,9,1.7,14,M,,M,,*57
06/21/2015	07:07:32.524	$GPGGA,070733,2433.2448,N,08117.3468,W,1,9,1.7,14,M,,M,,*50
06/21/2015	07:07:33.543	$GPGGA,070734,2433.2440,N,08117.3490,W,1,9,1.7,14,M,,M,,*58
06/21/2015	07:07:34.514	$GPGGA,070735,2433.2434,N,08117.3512,W,1,9,1.7,14,M,,M,,*51
06/21/2015	07:07:35.573	$GPGGA,070736,2433.2427,N,08117.3534,W,1,9,1.7,14,M,,M,,*54
06/21/2015	07:07:36.514	$GPGGA,070737,2433.2420,N,08117.3558,W,1,9,1.7,14,M,,M,,*58
06/21/2015	07:07:37.516	$GPGGA,070738,2433.2413,N,08117.3580,W,1,9,1.7,14,M,,M,,*52
06/21/2015	07:07:38.533	$GPGGA,070739,2433.2406,N,08117.3605,W,1,9,1.7,14,M,,M,,*59
06/21/2015	07:07:39.543	$GPGGA,070740,2433.2399,N,08117.3627,W,1,9,1.7,14,M,,M,,*56
06/21/2015	07:07:40.523	$GPGGA,070741,2433.2393,N,08117.3649,W,1,9,1.7,14,M,,M,,*55
06/21/2015	07:07:41.518	$GPGGA,070742,2433.2386,N,08117.3671,W,1,9,1.7,14,M,,M,,*59
06/21/2015	07:07:42.643	$GPGGA,070743,2433.2379,N,08117.3693,W,1,9,1.7,14,M,,M,,*54
06/21/2015	07:07:43.543	$GPGGA,070744,2433.2372,N,08117.3714,W,1,9,1.7,14,M,,M,,*56
06/21/2015	07:07:44.513	$GPGGA,070745,2433.2365,N,08117.3737,W,1,9,1.7,14,M,,M,,*50
06/21/2015	07:07:45.593	$GPGGA,070746,2433.2358,N,08117.3759,W,1,9,1.7,14,M,,M,,*55
06/21/2015	07:07:46.603	$GPGGA,070747,2433.2351,N,08117.3783,W,1,9,1.7,14,M,,M,,*5A
06/21/2015	07:07:47.534	$GPGGA,070748,2433.2344,N,08117.3806,W,1,9,1.7,14,M,,M,,*53
06/21/2015	07:07:48.583	$GPGGA,070749,2433.2337,N,08117.3829,W,1,9,1.7,14,M,,M,,*5B
06/21/2015	07:07:49.613	$GPGGA,070750,2433.2330,N,08117.3851,W,1,9,1.7,14,M,,M,,*5B
06/21/2015	07:07:50.583	$GPGGA,070751,2433.2323,N,08117.3876,W,1,9,1.7,14,M,,M,,*5D
06/21/2015	07:07:51.543	$GPGGA,070752,2433.2316,N,08117.3898,W,1,9,1.7,14,M,,M,,*58
06/21/2015	07:07:52.573	$GPGGA,070753,2433.2309,N,08117.3920,W,1,9,1.7,14,M,,M,,*55
06/21/2015	07:07:53.573	$GPGGA,070754,2433.2303,N,08117.3943,W,1,9,1.7,14,M,,M,,*5D
06/21/2015	07:07:54.574	$GPGGA,070755,2433.2296,N,08117.3965,W,1,9,1.7,14,M,,M,,*55
06/21/2015	07:07:55.604	$GPGGA,070756,2433.2289,N,08117.3988,W,1,9,1.7,14,M,,M,,*5B
06/21/2015	07:07:56.583	$GPGGA,070757,2433.2281,N,08117.4010,W,1,9,1.7,14,M,,M,,*5D
06/21/2015	07:07:57.593	$GPGGA,070758,2433.2274,N,08117.4033,W,1,9,1.7,15,M,,M,,*58
06/21/2015	07:07:58.573	$GPGGA,070759,2433.2267,N,08117.4057,W,1,9,1.7,15,M,,M,,*59
06/21/2015	07:07:59.593	$GPGGA,070800,2433.2260,N,08117.4079,W,1,9,1.7,15,M,,M,,*51
06/21/2015	07:08:00.563	$GPGGA,070801,2433.2253,N,08117.4102,W,1,9,1.7,15,M,,M,,*5D
06/21/2015	07:08:01.583	$GPGGA,070802,2433.2245,N,08117.4126,W,1,9,1.7,15,M,,M,,*5F
06/21/2015	07:08:02.563	$GPGGA,070803,2433.2238,N,08117.4148,W,1,9,1.7,15,M,,M,,*5C
06/21/2015	07:08:03.583	$GPGGA,070804,2433.2231,N,08117.4171,W,1,9,1.7,15,M,,M,,*58
06/21/2015	07:08:04.563	$GPGGA,070805,2433.2224,N,08117.4194,W,1,9,1.7,15,M,,M,,*56
06/21/2015	07:08:05.573	$GPGGA,070806,2433.2218,N,08117.4216,W,1,9,1.7,15,M,,M,,*53
06/21/2015	07:08:06.543	$GPGGA,070807,2433.2211,N,08117.4238,W,1,9,1.7,15,M,,M,,*57
06/21/2015	07:08:07.573	$GPGGA,070808,2433.2206,N,08117.4260,W,1,9,1.7,15,M,,M,,*53
06/21/2015	07:08:08.553	$GPGGA,070809,2433.2198,N,08117.4285,W,1,9,1.7,15,M,,M,,*5D
06/21/2015	07:08:09.543	$GPGGA,070810,2433.2192,N,08117.4307,W,1,9,1.7,15,M,,M,,*54
06/21/2015	07:08:10.553	$GPGGA,070811,2433.2185,N,08117.4329,W,1,9,1.7,15,M,,M,,*5F
06/21/2015	07:08:11.574	$GPGGA,070812,2433.2179,N,08117.4353,W,1,9,1.7,15,M,,M,,*52
06/21/2015	07:08:12.544	$GPGGA,070813,2433.2173,N,08117.4375,W,1,9,1.7,15,M,,M,,*5D
06/21/2015	07:08:13.553	$GPGGA,070814,2433.2166,N,08117.4398,W,1,9,1.7,15,M,,M,,*5D
06/21/2015	07:08:14.543	$GPGGA,070815,2433.2160,N,08117.4422,W,1,9,1.7,15,M,,M,,*5C
06/21/2015	07:08:15.543	$GPGGA,070816,2433.2153,N,08117.4444,W,1,9,1.7,15,M,,M,,*5F
06/21/2015	07:08:16.543	$GPGGA,070817,2433.2148,N,08117.4469,W,1,9,1.7,15,M,,M,,*5B
06/21/2015	07:08:17.573	$GPGGA,070818,2433.2141,N,08117.4491,W,1,9,1.7,15,M,,M,,*5A
06/21/2015	07:08:18.524	$GPGGA,070819,2433.2135,N,08117.4516,W,1,9,1.7,15,M,,M,,*56
06/21/2015	07:08:19.542	$GPGGA,070820,2433.2130,N,08117.4538,W,1,9,1.7,15,M,,M,,*55
06/21/2015	07:08:20.518	$GPGGA,070821,2433.2123,N,08117.4561,W,1,9,1.7,15,M,,M,,*5A
06/21/2015	07:08:21.529	$GPGGA,070822,2433.2117,N,08117.4585,W,1,9,1.7,15,M,,M,,*54
06/21/2015	07:08:22.518	$GPGGA,070823,2433.2112,N,08117.4607,W,1,9,1.7,15,M,,M,,*59
06/21/2015	07:08:23.538	$GPGGA,070824,2433.2105,N,08117.4631,W,1,9,1.7,15,M,,M,,*5D
06/21/2015	07:08:24.503	$GPGGA,070825,2433.2099,N,08117.4654,W,1,9,1.7,15,M,,M,,*5B
06/21/2015	07:08:25.533	$GPGGA,070826,2433.2094,N,08117.4678,W,1,9,1.7,15,M,,M,,*5B
06/21/2015	07:08:26.547	$GPGGA,070827,2433.2087,N,08117.4700,W,1,9,1.7,15,M,,M,,*56
06/21/2015	07:08:27.523	$GPGGA,070828,2433.2081,N,08117.4725,W,1,9,1.7,15,M,,M,,*58
06/21/2015	07:08:28.618	$GPGGA,070829,2433.2076,N,08117.4747,W,1,9,1.7,15,M,,M,,*55
06/21/2015	07:08:29.534	$GPGGA,070830,2433.2068,N,08117.4770,W,1,9,1.7,15,M,,M,,*56
06/21/2015	07:08:30.622	$GPGGA,070831,2433.2062,N,08117.4794,W,1,9,1.7,15,M,,M,,*57
06/21/2015	07:08:31.533	$GPGGA,070832,2433.2056,N,08117.4817,W,1,9,1.7,15,M,,M,,*57
06/21/2015	07:08:32.493	$GPGGA,070833,2433.2049,N,08117.4841,W,1,9,1.7,15,M,,M,,*5B
06/21/2015	07:08:33.519	$GPGGA,070834,2433.2043,N,08117.4863,W,1,9,1.7,14,M,,M,,*57
06/21/2015	07:08:34.583	$GPGGA,070835,2433.2036,N,08117.4888,W,1,9,1.7,14,M,,M,,*51
06/21/2015	07:08:35.616	$GPGGA,070836,2433.2030,N,08117.4910,W,1,9,1.7,14,M,,M,,*54
06/21/2015	07:08:36.503	$GPGGA,070837,2433.2025,N,08117.4933,W,1,9,1.7,14,M,,M,,*50
06/21/2015	07:08:37.593	$GPGGA,070838,2433.2018,N,08117.4957,W,1,9,1.7,14,M,,M,,*53
06/21/2015	07:08:38.884	$GPGGA,070839,2433.2012,N,08117.4978,W,1,9,1.7,14,M,,M,,*55
06/21/2015	07:08:39.593	$GPGGA,070840,2433.2005,N,08117.5001,W,1,9,1.7,14,M,,M,,*5B
06/21/2015	07:08:40.573	$GPGGA,070841,2433.2000,N,08117.5025,W,1,9,1.7,14,M,,M,,*59
06/21/2015	07:08:43.343	$GPGGA,070843,2433.1986,N,08117.5072,W,1,9,1.7,14,M,,M,,*5D
06/21/2015	07:08:43.583	$GPGGA,070844,2433.1980,N,08117.5095,W,1,9,1.7,14,M,,M,,*55
06/21/2015	07:08:44.573	$GPGGA,070845,2433.1974,N,08117.5120,W,1,9,1.7,14,M,,M,,*50
06/21/2015	07:08:45.618	$GPGGA,070846,2433.1967,N,08117.5144,W,1,9,1.7,14,M,,M,,*53
06/21/2015	07:08:46.574	$GPGGA,070847,2433.1960,N,08117.5166,W,1,9,1.7,14,M,,M,,*55
06/21/2015	07:08:47.584	$GPGGA,070848,2433.1953,N,08117.5191,W,1,9,1.7,14,M,,M,,*52
06/21/2015	07:08:48.563	$GPGGA,070849,2433.1947,N,08117.5213,W,1,9,1.7,14,M,,M,,*5F
06/21/2015	07:08:49.583	$GPGGA,070850,2433.1940,N,08117.5235,W,1,9,1.7,14,M,,M,,*54
06/21/2015	07:08:50.565	$GPGGA,070851,2433.1935,N,08117.5257,W,1,9,1.7,14,M,,M,,*53
06/21/2015	07:08:51.563	$GPGGA,070852,2433.1927,N,08117.5279,W,1,9,1.7,14,M,,M,,*5F
06/21/2015	07:08:52.563	$GPGGA,070853,2433.1920,N,08117.5303,W,1,9,1.7,14,M,,M,,*55
06/21/2015	07:08:53.553	$GPGGA,070854,2433.1913,N,08117.5326,W,1,9,1.7,14,M,,M,,*55
06/21/2015	07:08:54.553	$GPGGA,070855,2433.1906,N,08117.5350,W,1,9,1.7,14,M,,M,,*51
06/21/2015	07:08:55.583	$GPGGA,070856,2433.1899,N,08117.5373,W,1,9,1.7,14,M,,M,,*54
06/21/2015	07:08:56.553	$GPGGA,070857,2433.1892,N,08117.5397,W,1,9,1.7,14,M,,M,,*54
06/21/2015	07:08:57.553	$GPGGA,070858,2433.1885,N,08117.5419,W,1,9,1.7,14,M,,M,,*5C
06/21/2015	07:08:58.533	$GPGGA,070859,2433.1878,N,08117.5441,W,1,9,1.7,14,M,,M,,*52
06/21/2015	07:08:59.583	$GPGGA,070900,2433.1870,N,08117.5463,W,1,8,1.9,14,M,,M,,*58
06/21/2015	07:09:00.537	$GPGGA,070901,2433.1864,N,08117.5486,W,1,8,1.7,14,M,,M,,*59
06/21/2015	07:09:01.553	$GPGGA,070902,2433.1856,N,08117.5509,W,1,9,1.7,14,M,,M,,*5C
06/21/2015	07:09:02.534	$GPGGA,070903,2433.1848,N,08117.5531,W,1,9,1.7,14,M,,M,,*59
06/21/2015	07:09:03.563	$GPGGA,070904,2433.1841,N,08117.5553,W,1,9,1.7,14,M,,M,,*53
06/21/2015	07:09:04.528	$GPGGA,070905,2433.1834,N,08117.5574,W,1,9,1.7,14,M,,M,,*55
06/21/2015	07:09:05.532	$GPGGA,070906,2433.1828,N,08117.5597,W,1,9,1.7,14,M,,M,,*56
06/21/2015	07:09:06.536	$GPGGA,070907,2433.1820,N,08117.5619,W,1,9,1.7,14,M,,M,,*5A
06/21/2015	07:09:07.533	$GPGGA,070908,2433.1813,N,08117.5641,W,1,9,1.7,14,M,,M,,*58
06/21/2015	07:09:08.633	$GPGGA,070909,2433.1806,N,08117.5665,W,1,9,1.7,14,M,,M,,*5B
06/21/2015	07:09:09.534	$GPGGA,070910,2433.1801,N,08117.5688,W,1,9,1.7,14,M,,M,,*57
06/21/2015	07:09:10.533	$GPGGA,070911,2433.1794,N,08117.5712,W,1,9,1.7,14,M,,M,,*57
06/21/2015	07:09:11.643	$GPGGA,070912,2433.1785,N,08117.5734,W,1,9,1.7,14,M,,M,,*50
06/21/2015	07:09:12.633	$GPGGA,070913,2433.1778,N,08117.5758,W,1,9,1.7,14,M,,M,,*59
06/21/2015	07:09:13.603	$GPGGA,070914,2433.1772,N,08117.5781,W,1,9,1.7,14,M,,M,,*50
06/21/2015	07:09:14.503	$GPGGA,070915,2433.1765,N,08117.5803,W,1,9,1.7,14,M,,M,,*52
06/21/2015	07:09:15.533	$GPGGA,070916,2433.1758,N,08117.5827,W,1,9,1.7,14,M,,M,,*59
06/21/2015	07:09:16.523	$GPGGA,070917,2433.1750,N,08117.5849,W,1,9,1.7,14,M,,M,,*58
06/21/2015	07:09:17.503	$GPGGA,070918,2433.1744,N,08117.5871,W,1,9,1.7,14,M,,M,,*59
06/21/2015	07:09:18.503	$GPGGA,070919,2433.1737,N,08117.5893,W,1,9,1.7,14,M,,M,,*50
06/21/2015	07:09:19.603	$GPGGA,070920,2433.1731,N,08117.5917,W,1,9,1.7,14,M,,M,,*51
06/21/2015	07:09:20.854	$GPGGA,070921,2433.1725,N,08117.5939,W,1,9,1.7,14,M,,M,,*59
06/21/2015	07:09:21.604	$GPGGA,070922,2433.1718,N,08117.5962,W,1,9,1.7,14,M,,M,,*5A
06/21/2015	07:09:22.504	$GPGGA,070923,2433.1711,N,08117.5986,W,1,9,1.7,14,M,,M,,*58
06/21/2015	07:09:23.514	$GPGGA,070924,2433.1704,N,08117.6008,W,1,9,1.7,14,M,,M,,*57
06/21/2015	07:09:24.583	$GPGGA,070925,2433.1698,N,08117.6031,W,1,9,1.7,14,M,,M,,*58
06/21/2015	07:09:25.583	$GPGGA,070926,2433.1693,N,08117.6055,W,1,9,1.7,14,M,,M,,*52
06/21/2015	07:09:26.583	$GPGGA,070927,2433.1686,N,08117.6077,W,1,9,1.7,14,M,,M,,*57
06/21/2015	07:09:27.583	$GPGGA,070928,2433.1680,N,08117.6100,W,1,9,1.7,14,M,,M,,*5F
06/21/2015	07:09:28.573	$GPGGA,070929,2433.1674,N,08117.6124,W,1,9,1.7,14,M,,M,,*53
06/21/2015	07:09:29.603	$GPGGA,070930,2433.1668,N,08117.6146,W,1,9,1.7,14,M,,M,,*52
06/21/2015	07:09:30.583	$GPGGA,070931,2433.1662,N,08117.6170,W,1,9,1.7,14,M,,M,,*5C
06/21/2015	07:09:31.583	$GPGGA,070932,2433.1656,N,08117.6192,W,1,9,1.7,14,M,,M,,*54
06/21/2015	07:09:32.573	$GPGGA,070933,2433.1650,N,08117.6215,W,1,9,1.7,14,M,,M,,*5F
06/21/2015	07:09:33.573	$GPGGA,070934,2433.1644,N,08117.6239,W,1,9,1.7,14,M,,M,,*53
06/21/2015	07:09:34.583	$GPGGA,070935,2433.1638,N,08117.6261,W,1,9,1.7,14,M,,M,,*54
06/21/2015	07:09:35.953	$GPGGA,070936,2433.1635,N,08117.6286,W,1,9,1.7,14,M,,M,,*53
06/21/2015	07:09:36.563	$GPGGA,070937,2433.1629,N,08117.6308,W,1,9,2.2,14,M,,M,,*5E
06/21/2015	07:09:37.573	$GPGGA,070938,2433.1624,N,08117.6333,W,1,9,1.7,14,M,,M,,*52
06/21/2015	07:09:38.564	$GPGGA,070939,2433.1619,N,08117.6356,W,1,9,1.7,14,M,,M,,*5E
06/21/2015	07:09:39.604	$GPGGA,070940,2433.1614,N,08117.6380,W,1,9,1.7,14,M,,M,,*56
06/21/2015	07:09:40.564	$GPGGA,070941,2433.1609,N,08117.6405,W,1,9,1.7,14,M,,M,,*51
06/21/2015	07:09:41.573	$GPGGA,070942,2433.1603,N,08117.6428,W,1,9,1.7,14,M,,M,,*57
06/21/2015	07:09:42.563	$GPGGA,070943,2433.1599,N,08117.6452,W,1,9,1.7,14,M,,M,,*5B
06/21/2015	07:09:43.583	$GPGGA,070944,2433.1592,N,08117.6475,W,1,9,1.7,14,M,,M,,*52
06/21/2015	07:09:44.553	$GPGGA,070945,2433.1586,N,08117.6499,W,1,9,1.7,14,M,,M,,*54
06/21/2015	07:09:45.573	$GPGGA,070946,2433.1581,N,08117.6521,W,1,9,1.7,14,M,,M,,*52
06/21/2015	07:09:46.553	$GPGGA,070947,2433.1574,N,08117.6544,W,1,9,1.7,14,M,,M,,*5A
06/21/2015	07:09:47.543	$GPGGA,070948,2433.1570,N,08117.6568,W,1,9,1.7,14,M,,M,,*5F
06/21/2015	07:09:48.553	$GPGGA,070949,2433.1563,N,08117.6590,W,1,9,1.7,14,M,,M,,*5B
06/21/2015	07:09:49.573	$GPGGA,070950,2433.1557,N,08117.6613,W,1,9,1.7,14,M,,M,,*5C
06/21/2015	07:09:50.533	$GPGGA,070951,2433.1550,N,08117.6637,W,1,9,1.7,14,M,,M,,*5C
06/21/2015	07:09:51.543	$GPGGA,070952,2433.1544,N,08117.6660,W,1,8,1.9,14,M,,M,,*57
06/21/2015	07:09:52.543	$GPGGA,070953,2433.1539,N,08117.6684,W,1,8,1.7,14,M,,M,,*58
06/21/2015	07:09:53.563	$GPGGA,070954,2433.1532,N,08117.6707,W,1,9,1.7,14,M,,M,,*5F
06/21/2015	07:09:54.533	$GPGGA,070955,2433.1525,N,08117.6730,W,1,9,1.7,14,M,,M,,*5C
06/21/2015	07:09:55.553	$GPGGA,070956,2433.1518,N,08117.6753,W,1,9,1.7,14,M,,M,,*54
06/21/2015	07:09:56.530	$GPGGA,070957,2433.1512,N,08117.6777,W,1,9,1.7,14,M,,M,,*59
06/21/2015	07:09:57.534	$GPGGA,070958,2433.1505,N,08117.6799,W,1,9,1.7,14,M,,M,,*50
06/21/2015	07:09:58.653	$GPGGA,070959,2433.1498,N,08117.6821,W,1,9,1.7,14,M,,M,,*58
06/21/2015	07:09:59.715	$GPGGA,071000,2433.1490,N,08117.6843,W,1,9,1.7,14,M,,M,,*50
06/21/2015	07:10:00.533	$GPGGA,071001,2433.1483,N,08117.6865,W,1,9,1.7,14,M,,M,,*57
06/21/2015	07:10:01.533	$GPGGA,071002,2433.1476,N,08117.6889,W,1,9,1.7,14,M,,M,,*5C
06/21/2015	07:10:02.503	$GPGGA,071003,2433.1469,N,08117.6911,W,1,9,1.7,14,M,,M,,*53
06/21/2015	07:10:03.533	$GPGGA,071004,2433.1462,N,08117.6934,W,1,9,1.7,14,M,,M,,*58
06/21/2015	07:10:04.503	$GPGGA,071005,2433.1455,N,08117.6958,W,1,9,1.7,14,M,,M,,*57
06/21/2015	07:10:05.503	$GPGGA,071006,2433.1448,N,08117.6980,W,1,9,1.7,14,M,,M,,*5D
06/21/2015	07:10:06.623	$GPGGA,071007,2433.1440,N,08117.7005,W,1,9,1.7,14,M,,M,,*51
06/21/2015	07:10:07.693	$GPGGA,071008,2433.1433,N,08117.7027,W,1,9,1.7,14,M,,M,,*5A
06/21/2015	07:10:08.623	$GPGGA,071009,2433.1426,N,08117.7050,W,1,9,1.7,14,M,,M,,*5F
06/21/2015	07:10:09.673	$GPGGA,071010,2433.1419,N,08117.7074,W,1,9,1.7,14,M,,M,,*5D
06/21/2015	07:10:10.503	$GPGGA,071011,2433.1412,N,08117.7095,W,1,9,1.7,14,M,,M,,*58
06/21/2015	07:10:11.674	$GPGGA,071012,2433.1406,N,08117.7118,W,1,9,1.9,14,M,,M,,*54
06/21/2015	07:10:12.633	$GPGGA,071013,2433.1398,N,08117.7140,W,1,9,1.7,14,M,,M,,*56
06/21/2015	07:10:13.483	$GPGGA,071014,2433.1391,N,08117.7162,W,1,9,1.7,14,M,,M,,*58
06/21/2015	07:10:14.573	$GPGGA,071015,2433.1385,N,08117.7186,W,1,9,1.7,14,M,,M,,*56
06/21/2015	07:10:15.673	$GPGGA,071016,2433.1378,N,08117.7207,W,1,9,1.7,14,M,,M,,*5D
06/21/2015	07:10:16.563	$GPGGA,071017,2433.1371,N,08117.7230,W,1,9,1.7,14,M,,M,,*51
06/21/2015	07:10:17.662	$GPGGA,071018,2433.1364,N,08117.7252,W,1,9,1.7,14,M,,M,,*5E
06/21/2015	07:10:18.604	$GPGGA,071019,2433.1357,N,08117.7276,W,1,9,1.7,14,M,,M,,*59
06/21/2015	07:10:19.672	$GPGGA,071020,2433.1350,N,08117.7298,W,1,9,1.7,14,M,,M,,*54
06/21/2015	07:10:20.582	$GPGGA,071021,2433.1343,N,08117.7320,W,1,9,1.7,14,M,,M,,*55
06/21/2015	07:10:21.552	$GPGGA,071022,2433.1336,N,08117.7344,W,1,9,1.7,14,M,,M,,*56
06/21/2015	07:10:22.592	$GPGGA,071023,2433.1329,N,08117.7366,W,1,9,1.7,14,M,,M,,*59
06/21/2015	07:10:23.662	$GPGGA,071024,2433.1324,N,08117.7388,W,1,9,1.7,14,M,,M,,*53
06/21/2015	07:10:24.583	$GPGGA,071025,2433.1317,N,08117.7411,W,1,9,1.7,14,M,,M,,*55
06/21/2015	07:10:25.663	$GPGGA,071026,2433.1308,N,08117.7433,W,1,8,1.9,14,M,,M,,*57
06/21/2015	07:10:26.563	$GPGGA,071027,2433.1302,N,08117.7457,W,1,8,1.7,14,M,,M,,*50
06/21/2015	07:10:27.663	$GPGGA,071028,2433.1296,N,08117.7480,W,1,9,1.7,14,M,,M,,*58
06/21/2015	07:10:28.573	$GPGGA,071029,2433.1288,N,08117.7504,W,1,9,1.7,14,M,,M,,*5B
06/21/2015	07:10:29.643	$GPGGA,071030,2433.1281,N,08117.7529,W,1,9,1.7,14,M,,M,,*55
06/21/2015	07:10:30.543	$GPGGA,071031,2433.1275,N,08117.7551,W,1,9,1.7,14,M,,M,,*50
06/21/2015	07:10:31.663	$GPGGA,071032,2433.1268,N,08117.7574,W,1,9,1.7,14,M,,M,,*58
06/21/2015	07:10:32.543	$GPGGA,071033,2433.1261,N,08117.7598,W,1,9,1.7,14,M,,M,,*52
06/21/2015	07:10:33.652	$GPGGA,071034,2433.1255,N,08117.7619,W,1,9,1.7,14,M,,M,,*58
06/21/2015	07:10:34.532	$GPGGA,071035,2433.1248,N,08117.7642,W,1,9,1.7,14,M,,M,,*5B
06/21/2015	07:10:35.617	$GPGGA,071036,2433.1241,N,08117.7664,W,1,9,1.7,14,M,,M,,*55
06/21/2015	07:10:36.562	$GPGGA,071037,2433.1235,N,08117.7688,W,1,9,1.7,14,M,,M,,*55
06/21/2015	07:10:37.622	$GPGGA,071038,2433.1228,N,08117.7713,W,1,9,1.9,14,M,,M,,*5B
06/21/2015	07:10:38.522	$GPGGA,071039,2433.1220,N,08117.7735,W,1,9,1.9,14,M,,M,,*56
06/21/2015	07:10:39.642	$GPGGA,071040,2433.1214,N,08117.7760,W,1,9,1.7,14,M,,M,,*51
06/21/2015	07:10:40.552	$GPGGA,071041,2433.1207,N,08117.7782,W,1,9,1.7,14,M,,M,,*5E
06/21/2015	07:10:41.603	$GPGGA,071042,2433.1199,N,08117.7805,W,1,9,1.7,14,M,,M,,*59
06/21/2015	07:10:42.516	$GPGGA,071043,2433.1191,N,08117.7827,W,1,9,1.7,14,M,,M,,*50
06/21/2015	07:10:43.633	$GPGGA,071044,2433.1184,N,08117.7851,W,1,9,1.7,15,M,,M,,*53
06/21/2015	07:10:44.505	$GPGGA,071045,2433.1177,N,08117.7874,W,1,9,1.7,15,M,,M,,*59
06/21/2015	07:10:45.593	$GPGGA,071046,2433.1169,N,08117.7897,W,1,9,1.7,15,M,,M,,*58
06/21/2015	07:10:46.543	$GPGGA,071047,2433.1162,N,08117.7919,W,1,9,1.7,15,M,,M,,*55
06/21/2015	07:10:47.633	$GPGGA,071048,2433.1156,N,08117.7942,W,1,9,1.7,15,M,,M,,*53
06/21/2015	07:10:48.543	$GPGGA,071049,2433.1151,N,08117.7964,W,1,9,1.9,14,M,,M,,*5E
06/21/2015	07:10:49.653	$GPGGA,071050,2433.1143,N,08117.7986,W,1,8,1.7,14,M,,M,,*56
06/21/2015	07:10:50.543	$GPGGA,071051,2433.1136,N,08117.8009,W,1,8,1.7,14,M,,M,,*54
06/21/2015	07:10:51.605	$GPGGA,071052,2433.1129,N,08117.8031,W,1,9,1.7,14,M,,M,,*53
06/21/2015	07:10:52.552	$GPGGA,071053,2433.1122,N,08117.8053,W,1,9,1.7,14,M,,M,,*5D
06/21/2015	07:10:53.602	$GPGGA,071054,2433.1116,N,08117.8076,W,1,9,1.7,14,M,,M,,*5A
06/21/2015	07:10:54.522	$GPGGA,071055,2433.1109,N,08117.8100,W,1,9,1.7,14,M,,M,,*55
06/21/2015	07:10:55.492	$GPGGA,071056,2433.1104,N,08117.8123,W,1,9,1.7,14,M,,M,,*5A
06/21/2015	07:10:56.482	$GPGGA,071057,2433.1096,N,08117.8145,W,1,9,1.7,14,M,,M,,*51
06/21/2015	07:10:57.572	$GPGGA,071058,2433.1091,N,08117.8168,W,1,9,1.7,14,M,,M,,*56
06/21/2015	07:10:58.513	$GPGGA,071059,2433.1086,N,08117.8190,W,1,9,1.7,14,M,,M,,*56
06/21/2015	07:10:59.607	$GPGGA,071100,2433.1079,N,08117.8215,W,1,9,1.7,14,M,,M,,*55
06/21/2015	07:11:00.506	$GPGGA,071101,2433.1073,N,08117.8237,W,1,9,1.9,14,M,,M,,*50
06/21/2015	07:11:01.573	$GPGGA,071102,2433.1068,N,08117.8260,W,1,8,1.7,14,M,,M,,*54
06/21/2015	07:11:02.573	$GPGGA,071103,2433.1062,N,08117.8284,W,1,8,1.7,14,M,,M,,*55
06/21/2015	07:11:03.633	$GPGGA,071104,2433.1057,N,08117.8309,W,1,9,1.7,14,M,,M,,*51
06/21/2015	07:11:04.573	$GPGGA,071105,2433.1050,N,08117.8332,W,1,9,1.7,14,M,,M,,*5F
06/21/2015	07:11:05.603	$GPGGA,071106,2433.1044,N,08117.8357,W,1,9,1.7,14,M,,M,,*5A
06/21/2015	07:11:06.573	$GPGGA,071107,2433.1037,N,08117.8381,W,1,9,1.7,14,M,,M,,*54
06/21/2015	07:11:07.607	$GPGGA,071108,2433.1031,N,08117.8404,W,1,9,1.7,14,M,,M,,*57
06/21/2015	07:11:08.562	$GPGGA,071109,2433.1025,N,08117.8428,W,1,9,1.7,14,M,,M,,*5D
06/21/2015	07:11:09.582	$GPGGA,071110,2433.1019,N,08117.8450,W,1,9,1.7,14,M,,M,,*55
06/21/2015	07:11:10.562	$GPGGA,071111,2433.1013,N,08117.8472,W,1,9,1.7,14,M,,M,,*5E
06/21/2015	07:11:11.642	$GPGGA,071112,2433.1007,N,08117.8493,W,1,9,1.7,14,M,,M,,*57
06/21/2015	07:11:12.572	$GPGGA,071113,2433.1001,N,08117.8516,W,1,9,1.7,14,M,,M,,*5C
06/21/2015	07:11:13.582	$GPGGA,071114,2433.0995,N,08117.8540,W,1,9,1.7,14,M,,M,,*5D
06/21/2015	07:11:14.542	$GPGGA,071115,2433.0995,N,08117.8540,W,1,9,1.7,14,M,,M,,*5C
06/21/2015	07:11:15.582	$GPGGA,071116,2433.0982,N,08117.8587,W,1,9,1.7,14,M,,M,,*52
06/21/2015	07:11:16.563	$GPGGA,071117,2433.0976,N,08117.8609,W,1,9,1.7,14,M,,M,,*5D
06/21/2015	07:11:17.593	$GPGGA,071118,2433.0970,N,08117.8632,W,1,9,1.7,14,M,,M,,*5C
06/21/2015	07:11:18.553	$GPGGA,071119,2433.0964,N,08117.8656,W,1,9,1.7,14,M,,M,,*5A
06/21/2015	07:11:19.593	$GPGGA,071120,2433.0958,N,08117.8678,W,1,9,1.7,14,M,,M,,*53
06/21/2015	07:11:20.543	$GPGGA,071121,2433.0952,N,08117.8699,W,1,9,1.7,14,M,,M,,*57
06/21/2015	07:11:21.553	$GPGGA,071122,2433.0952,N,08117.8699,W,1,9,1.7,14,M,,M,,*54
06/21/2015	07:11:22.563	$GPGGA,071123,2433.0941,N,08117.8744,W,1,9,1.7,14,M,,M,,*56
06/21/2015	07:11:23.553	$GPGGA,071124,2433.0941,N,08117.8744,W,1,9,1.7,14,M,,M,,*51
06/21/2015	07:11:24.533	$GPGGA,071125,2433.0934,N,08117.8768,W,1,9,1.7,14,M,,M,,*5C
06/21/2015	07:11:25.563	$GPGGA,071126,2433.0927,N,08117.8790,W,1,9,1.7,14,M,,M,,*5A
06/21/2015	07:11:26.532	$GPGGA,071127,2433.0913,N,08117.8837,W,1,9,1.9,13,M,,M,,*57
06/21/2015	07:11:27.622	$GPGGA,071128,2433.0906,N,08117.8860,W,1,8,1.7,13,M,,M,,*51
06/21/2015	07:11:28.552	$GPGGA,071129,2433.0899,N,08117.8884,W,1,8,1.7,13,M,,M,,*5D
06/21/2015	07:11:29.572	$GPGGA,071130,2433.0892,N,08117.8906,W,1,9,1.7,13,M,,M,,*54
06/21/2015	07:11:30.522	$GPGGA,071131,2433.0887,N,08117.8928,W,1,9,1.7,13,M,,M,,*5D
06/21/2015	07:11:31.563	$GPGGA,071132,2433.0880,N,08117.8950,W,1,9,1.7,13,M,,M,,*56
06/21/2015	07:11:32.516	$GPGGA,071133,2433.0872,N,08117.8972,W,1,9,1.7,13,M,,M,,*5A
06/21/2015	07:11:33.522	$GPGGA,071134,2433.0872,N,08117.8972,W,1,9,1.7,13,M,,M,,*5D
06/21/2015	07:11:34.516	$GPGGA,071135,2433.0859,N,08117.9018,W,1,9,1.7,13,M,,M,,*51
06/21/2015	07:11:35.533	$GPGGA,071136,2433.0859,N,08117.9018,W,1,9,1.7,13,M,,M,,*52
06/21/2015	07:11:36.518	$GPGGA,071137,2433.0844,N,08117.9064,W,1,9,1.7,13,M,,M,,*54
06/21/2015	07:11:37.633	$GPGGA,071138,2433.0838,N,08117.9089,W,1,9,1.7,13,M,,M,,*53
06/21/2015	07:11:38.523	$GPGGA,071139,2433.0838,N,08117.9089,W,1,9,1.7,13,M,,M,,*52
06/21/2015	07:11:39.833	$GPGGA,071140,2433.0830,N,08117.9111,W,1,9,1.7,13,M,,M,,*54
06/21/2015	07:11:40.493	$GPGGA,071141,2433.0816,N,08117.9156,W,1,9,1.7,14,M,,M,,*55
06/21/2015	07:11:41.493	$GPGGA,071142,2433.0816,N,08117.9156,W,1,9,1.7,14,M,,M,,*56
06/21/2015	07:11:42.493	$GPGGA,071143,2433.0811,N,08117.9180,W,1,9,1.7,14,M,,M,,*5B
06/21/2015	07:11:43.632	$GPGGA,071144,2433.0797,N,08117.9223,W,1,9,1.7,14,M,,M,,*57
06/21/2015	07:11:44.525	$GPGGA,071145,2433.0790,N,08117.9246,W,1,9,1.7,14,M,,M,,*52
06/21/2015	07:11:45.592	$GPGGA,071146,2433.0783,N,08117.9270,W,1,8,1.9,14,M,,M,,*59
06/21/2015	07:11:46.592	$GPGGA,071147,2433.0776,N,08117.9292,W,1,8,1.7,14,M,,M,,*50
06/21/2015	07:11:47.592	$GPGGA,071148,2433.0769,N,08117.9315,W,1,9,1.7,14,M,,M,,*5E
06/21/2015	07:11:48.492	$GPGGA,071149,2433.0762,N,08117.9339,W,1,9,1.7,14,M,,M,,*5A
06/21/2015	07:11:49.592	$GPGGA,071150,2433.0757,N,08117.9361,W,1,9,1.7,14,M,,M,,*59
06/21/2015	07:11:50.582	$GPGGA,071151,2433.0748,N,08117.9383,W,1,9,1.7,14,M,,M,,*5A
06/21/2015	07:11:51.593	$GPGGA,071152,2433.0741,N,08117.9407,W,1,9,1.7,14,M,,M,,*5B
06/21/2015	07:11:52.573	$GPGGA,071153,2433.0735,N,08117.9429,W,1,9,1.7,14,M,,M,,*55
