Software Version Number: 1	Data File Format Number: 1	Build Version Number: 1	Error Count Since VI Started: 1	Manufacturer: Raytheon	 Model Number: RayMarine 120	 S/N: 	 Cal Date: 	 Wind Direction Offset: 0.00	 Slope (M)1: 0.00	 Offset (B)1: 0.00	 Slope (M)2: 0.00	 Offset (B)2: 0.00	 Slope (M)3: 0.00	 Offset (B)3: 0.00	 Slope (M)4: 0.00	 Offset (B)4: 0.00	 Slope (M)5: 0.00	 Offset (B)5: 0.00	 Slope (M)6: 0.00	 Offset (B)6: 0.00
Computer Date	Computer Time	GGA String
06/11/2015	05:00:00.560	$GPGGA,050001,2421.0116,N,08131.3733,W,1,10,1.5,17,M,,M,,*6B
06/11/2015	05:00:01.580	$GPGGA,050002,2421.0114,N,08131.3748,W,1,10,1.6,17,M,,M,,*65
06/11/2015	05:00:02.566	$GPGGA,050003,2421.0111,N,08131.3762,W,1,10,1.6,17,M,,M,,*69
06/11/2015	05:00:03.560	$GPGGA,050004,2421.0108,N,08131.3776,W,1,9,1.5,17,M,,M,,*58
06/11/2015	05:00:04.563	$GPGGA,050005,2421.0105,N,08131.3793,W,1,9,1.5,17,M,,M,,*5F
06/11/2015	05:00:05.580	$GPGGA,050006,2421.0104,N,08131.3808,W,1,10,1.5,17,M,,M,,*68
06/11/2015	05:00:06.540	$GPGGA,050007,2421.0100,N,08131.3822,W,1,10,1.6,17,M,,M,,*66
06/11/2015	05:00:07.590	$GPGGA,050008,2421.0096,N,08131.3837,W,1,9,1.5,17,M,,M,,*58
06/11/2015	05:00:08.549	$GPGGA,050009,2421.0093,N,08131.3851,W,1,9,1.5,17,M,,M,,*5C
06/11/2015	05:00:09.571	$GPGGA,050010,2421.0092,N,08131.3866,W,1,10,1.6,17,M,,M,,*6A
06/11/2015	05:00:10.569	$GPGGA,050011,2421.0085,N,08131.3880,W,1,10,1.5,17,M,,M,,*66
06/11/2015	05:00:11.579	$GPGGA,050012,2421.0081,N,08131.3894,W,1,10,1.5,17,M,,M,,*64
06/11/2015	05:00:12.549	$GPGGA,050013,2421.0079,N,08131.3907,W,1,10,1.5,17,M,,M,,*69
06/11/2015	05:00:13.571	$GPGGA,050014,2421.0076,N,08131.3923,W,1,10,1.5,17,M,,M,,*67
06/11/2015	05:00:14.550	$GPGGA,050015,2421.0074,N,08131.3938,W,1,10,1.5,17,M,,M,,*6E
06/11/2015	05:00:15.560	$GPGGA,050016,2421.0069,N,08131.3950,W,1,10,1.5,18,M,,M,,*60
06/11/2015	05:00:16.520	$GPGGA,050017,2421.0067,N,08131.3965,W,1,10,1.5,18,M,,M,,*69
06/11/2015	05:00:17.531	$GPGGA,050018,2421.0064,N,08131.3979,W,1,10,1.5,18,M,,M,,*68
06/11/2015	05:00:18.540	$GPGGA,050019,2421.0060,N,08131.3992,W,1,10,1.5,18,M,,M,,*68
06/11/2015	05:00:19.641	$GPGGA,050020,2421.0057,N,08131.4007,W,1,10,1.5,18,M,,M,,*64
06/11/2015	05:00:20.550	$GPGGA,050021,2421.0054,N,08131.4021,W,1,10,1.5,18,M,,M,,*62
06/11/2015	05:00:21.610	$GPGGA,050022,2421.0050,N,08131.4035,W,1,10,1.5,18,M,,M,,*60
06/11/2015	05:00:22.530	$GPGGA,050023,2421.0047,N,08131.4050,W,1,10,1.6,18,M,,M,,*67
06/11/2015	05:00:23.550	$GPGGA,050024,2421.0044,N,08131.4064,W,1,9,1.5,18,M,,M,,*5F
06/11/2015	05:00:24.530	$GPGGA,050025,2421.0039,N,08131.4079,W,1,9,1.6,18,M,,M,,*5B
06/11/2015	05:00:25.610	$GPGGA,050026,2421.0036,N,08131.4093,W,1,9,1.5,18,M,,M,,*50
06/11/2015	05:00:26.539	$GPGGA,050027,2421.0033,N,08131.4105,W,1,9,1.5,18,M,,M,,*5A
06/11/2015	05:00:27.609	$GPGGA,050028,2421.0031,N,08131.4120,W,1,10,1.6,18,M,,M,,*6B
06/11/2015	05:00:28.520	$GPGGA,050029,2421.0027,N,08131.4136,W,1,10,1.6,18,M,,M,,*6A
06/11/2015	05:00:29.519	$GPGGA,050030,2421.0021,N,08131.4149,W,1,10,1.6,18,M,,M,,*6C
06/11/2015	05:00:30.510	$GPGGA,050031,2421.0020,N,08131.4166,W,1,10,1.5,18,M,,M,,*62
06/11/2015	05:00:31.550	$GPGGA,050032,2421.0015,N,08131.4180,W,1,10,1.7,18,M,,M,,*6D
06/11/2015	05:00:32.520	$GPGGA,050033,2421.0013,N,08131.4194,W,1,10,1.6,18,M,,M,,*6E
06/11/2015	05:00:33.590	$GPGGA,050034,2421.0009,N,08131.4209,W,1,9,1.6,18,M,,M,,*5D
06/11/2015	05:00:34.585	$GPGGA,050035,2421.0006,N,08131.4223,W,1,9,1.5,18,M,,M,,*58
06/11/2015	05:00:35.600	$GPGGA,050036,2421.0003,N,08131.4234,W,1,10,1.5,18,M,,M,,*60
06/11/2015	05:00:36.590	$GPGGA,050037,2420.9998,N,08131.4249,W,1,10,1.6,18,M,,M,,*6B
06/11/2015	05:00:37.581	$GPGGA,050038,2420.9995,N,08131.4264,W,1,10,1.7,18,M,,M,,*67
06/11/2015	05:00:38.581	$GPGGA,050039,2420.9993,N,08131.4279,W,1,10,1.6,18,M,,M,,*6D
06/11/2015	05:00:39.600	$GPGGA,050040,2420.9991,N,08131.4295,W,1,9,1.6,18,M,,M,,*5B
06/11/2015	05:00:40.581	$GPGGA,050041,2420.9986,N,08131.4307,W,1,9,1.5,18,M,,M,,*55
06/11/2015	05:00:41.590	$GPGGA,050042,2420.9984,N,08131.4321,W,1,9,1.6,18,M,,M,,*53
06/11/2015	05:00:42.568	$GPGGA,050043,2420.9980,N,08131.4335,W,1,9,1.5,18,M,,M,,*50
06/11/2015	05:00:43.609	$GPGGA,050044,2420.9977,N,08131.4350,W,1,10,1.5,18,M,,M,,*64
06/11/2015	05:00:44.579	$GPGGA,050045,2420.9973,N,08131.4365,W,1,10,1.5,18,M,,M,,*67
06/11/2015	05:00:45.589	$GPGGA,050046,2420.9970,N,08131.4380,W,1,10,1.5,18,M,,M,,*6C
06/11/2015	05:00:46.564	$GPGGA,050047,2420.9968,N,08131.4391,W,1,10,1.5,18,M,,M,,*64
06/11/2015	05:00:47.609	$GPGGA,050048,2420.9966,N,08131.4404,W,1,11,1.5,18,M,,M,,*6F
06/11/2015	05:00:48.566	$GPGGA,050049,2420.9964,N,08131.4418,W,1,11,1.5,18,M,,M,,*61
06/11/2015	05:00:49.550	$GPGGA,050050,2420.9960,N,08131.4433,W,1,10,1.6,18,M,,M,,*66
06/11/2015	05:00:50.562	$GPGGA,050051,2420.9956,N,08131.4448,W,1,10,1.5,18,M,,M,,*6D
06/11/2015	05:00:51.580	$GPGGA,050052,2420.9953,N,08131.4463,W,1,11,1.5,18,M,,M,,*63
06/11/2015	05:00:52.568	$GPGGA,050053,2420.9950,N,08131.4477,W,1,11,1.6,18,M,,M,,*67
06/11/2015	05:00:53.580	$GPGGA,050054,2420.9948,N,08131.4490,W,1,10,1.6,18,M,,M,,*61
06/11/2015	05:00:54.550	$GPGGA,050055,2420.9944,N,08131.4501,W,1,10,1.6,18,M,,M,,*65
06/11/2015	05:00:55.580	$GPGGA,050056,2420.9939,N,08131.4513,W,1,10,1.6,18,M,,M,,*6F
06/11/2015	05:00:56.540	$GPGGA,050057,2420.9937,N,08131.4527,W,1,10,1.5,18,M,,M,,*64
06/11/2015	05:00:57.573	$GPGGA,050058,2420.9932,N,08131.4541,W,1,11,1.5,18,M,,M,,*6F
06/11/2015	05:00:58.520	$GPGGA,050059,2420.9928,N,08131.4556,W,1,11,1.5,18,M,,M,,*63
06/11/2015	05:00:59.570	$GPGGA,050100,2420.9926,N,08131.4567,W,1,10,1.6,18,M,,M,,*60
06/11/2015	05:01:00.520	$GPGGA,050101,2420.9922,N,08131.4581,W,1,10,1.5,18,M,,M,,*6E
06/11/2015	05:01:01.529	$GPGGA,050102,2420.9919,N,08131.4593,W,1,10,1.6,18,M,,M,,*65
06/11/2015	05:01:02.529	$GPGGA,050103,2420.9915,N,08131.4606,W,1,10,1.6,18,M,,M,,*67
06/11/2015	05:01:03.529	$GPGGA,050104,2420.9911,N,08131.4621,W,1,11,1.5,18,M,,M,,*63
06/11/2015	05:01:04.529	$GPGGA,050105,2420.9908,N,08131.4635,W,1,11,1.5,18,M,,M,,*6F
06/11/2015	05:01:05.519	$GPGGA,050106,2420.9903,N,08131.4650,W,1,11,1.5,18,M,,M,,*64
06/11/2015	05:01:06.629	$GPGGA,050107,2420.9898,N,08131.4662,W,1,11,1.7,18,M,,M,,*65
06/11/2015	05:01:07.639	$GPGGA,050108,2420.9894,N,08131.4675,W,1,11,1.5,18,M,,M,,*62
06/11/2015	05:01:08.519	$GPGGA,050109,2420.9890,N,08131.4689,W,1,11,1.5,18,M,,M,,*64
06/11/2015	05:01:09.519	$GPGGA,050110,2420.9886,N,08131.4702,W,1,10,1.6,18,M,,M,,*6B
06/11/2015	05:01:10.499	$GPGGA,050111,2420.9883,N,08131.4716,W,1,10,1.5,18,M,,M,,*69
06/11/2015	05:01:11.529	$GPGGA,050112,2420.9877,N,08131.4732,W,1,11,1.5,18,M,,M,,*66
06/11/2015	05:01:13.552	$GPGGA,050114,2420.9870,N,08131.4758,W,1,11,1.5,17,M,,M,,*64
06/11/2015	05:01:14.489	$GPGGA,050115,2420.9867,N,08131.4772,W,1,11,1.6,17,M,,M,,*68
06/11/2015	05:01:15.640	$GPGGA,050116,2420.9865,N,08131.4785,W,1,11,1.5,17,M,,M,,*62
06/11/2015	05:01:16.510	$GPGGA,050117,2420.9861,N,08131.4799,W,1,11,1.5,17,M,,M,,*6A
06/11/2015	05:01:17.590	$GPGGA,050118,2420.9857,N,08131.4813,W,1,11,1.5,17,M,,M,,*6D
06/11/2015	05:01:18.489	$GPGGA,050119,2420.9855,N,08131.4830,W,1,11,1.5,17,M,,M,,*6F
06/11/2015	05:01:19.599	$GPGGA,050120,2420.9852,N,08131.4845,W,1,10,1.6,17,M,,M,,*62
06/11/2015	05:01:20.509	$GPGGA,050121,2420.9848,N,08131.4859,W,1,10,1.6,17,M,,M,,*65
06/11/2015	05:01:21.609	$GPGGA,050122,2420.9845,N,08131.4874,W,1,10,1.6,17,M,,M,,*64
06/11/2015	05:01:22.579	$GPGGA,050123,2420.9843,N,08131.4888,W,1,10,1.6,17,M,,M,,*60
06/11/2015	05:01:23.599	$GPGGA,050124,2420.9839,N,08131.4900,W,1,11,1.5,17,M,,M,,*69
06/11/2015	05:01:24.569	$GPGGA,050125,2420.9836,N,08131.4915,W,1,11,1.6,17,M,,M,,*60
06/11/2015	05:01:25.579	$GPGGA,050126,2420.9833,N,08131.4931,W,1,10,1.6,17,M,,M,,*61
06/11/2015	05:01:26.579	$GPGGA,050127,2420.9829,N,08131.4944,W,1,10,1.6,17,M,,M,,*69
06/11/2015	05:01:27.600	$GPGGA,050128,2420.9825,N,08131.4960,W,1,11,1.5,16,M,,M,,*6F
06/11/2015	05:01:28.569	$GPGGA,050129,2420.9820,N,08131.4973,W,1,11,1.5,16,M,,M,,*69
06/11/2015	05:01:29.579	$GPGGA,050130,2420.9818,N,08131.4987,W,1,11,1.5,16,M,,M,,*61
06/11/2015	05:01:30.567	$GPGGA,050131,2420.9814,N,08131.5000,W,1,11,1.5,16,M,,M,,*6B
06/11/2015	05:01:31.589	$GPGGA,050132,2420.9809,N,08131.5014,W,1,11,1.5,16,M,,M,,*61
06/11/2015	05:01:32.566	$GPGGA,050133,2420.9807,N,08131.5029,W,1,11,1.5,16,M,,M,,*60
06/11/2015	05:01:33.570	$GPGGA,050134,2420.9803,N,08131.5043,W,1,11,1.5,16,M,,M,,*6F
06/11/2015	05:01:34.552	$GPGGA,050135,2420.9799,N,08131.5058,W,1,11,1.5,16,M,,M,,*68
06/11/2015	05:01:35.590	$GPGGA,050136,2420.9794,N,08131.5072,W,1,10,1.6,16,M,,M,,*6C
06/11/2015	05:01:36.558	$GPGGA,050137,2420.9791,N,08131.5087,W,1,10,1.5,16,M,,M,,*61
06/11/2015	05:01:37.571	$GPGGA,050138,2420.9789,N,08131.5101,W,1,10,1.6,16,M,,M,,*6B
06/11/2015	05:01:38.539	$GPGGA,050139,2420.9785,N,08131.5113,W,1,10,1.6,16,M,,M,,*65
06/11/2015	05:01:39.579	$GPGGA,050140,2420.9780,N,08131.5128,W,1,10,1.6,16,M,,M,,*66
06/11/2015	05:01:40.549	$GPGGA,050141,2420.9778,N,08131.5144,W,1,10,1.5,16,M,,M,,*69
06/11/2015	05:01:41.529	$GPGGA,050142,2420.9774,N,08131.5159,W,1,11,1.5,16,M,,M,,*6B
06/11/2015	05:01:42.539	$GPGGA,050143,2420.9768,N,08131.5174,W,1,11,1.5,16,M,,M,,*68
06/11/2015	05:01:43.569	$GPGGA,050144,2420.9765,N,08131.5188,W,1,11,1.5,16,M,,M,,*61
06/11/2015	05:01:44.539	$GPGGA,050145,2420.9763,N,08131.5202,W,1,11,1.5,16,M,,M,,*67
06/11/2015	05:01:45.519	$GPGGA,050146,2420.9758,N,08131.5215,W,1,10,1.6,16,M,,M,,*68
06/11/2015	05:01:46.539	$GPGGA,050147,2420.9755,N,08131.5228,W,1,10,1.6,16,M,,M,,*6A
06/11/2015	05:01:47.540	$GPGGA,050148,2420.9753,N,08131.5242,W,1,11,1.5,16,M,,M,,*6D
06/11/2015	05:01:48.529	$GPGGA,050149,2420.9749,N,08131.5257,W,1,11,1.5,16,M,,M,,*63
06/11/2015	05:01:49.562	$GPGGA,050150,2420.9744,N,08131.5272,W,1,11,1.5,16,M,,M,,*61
06/11/2015	05:01:50.520	$GPGGA,050151,2420.9740,N,08131.5286,W,1,11,1.5,16,M,,M,,*6F
06/11/2015	05:01:51.654	$GPGGA,050152,2420.9738,N,08131.5300,W,1,11,1.5,16,M,,M,,*6C
06/11/2015	05:01:52.530	$GPGGA,050153,2420.9734,N,08131.5314,W,1,11,1.5,16,M,,M,,*64
06/11/2015	05:01:53.629	$GPGGA,050154,2420.9729,N,08131.5327,W,1,10,1.6,16,M,,M,,*6D
06/11/2015	05:01:54.629	$GPGGA,050155,2420.9726,N,08131.5341,W,1,10,1.5,16,M,,M,,*60
06/11/2015	05:01:55.639	$GPGGA,050156,2420.9724,N,08131.5357,W,1,11,1.5,16,M,,M,,*67
06/11/2015	05:01:56.499	$GPGGA,050157,2420.9720,N,08131.5372,W,1,11,1.5,16,M,,M,,*65
06/11/2015	05:01:57.499	$GPGGA,050158,2420.9715,N,08131.5387,W,1,11,1.5,16,M,,M,,*66
06/11/2015	05:01:58.519	$GPGGA,050159,2420.9713,N,08131.5401,W,1,11,1.6,16,M,,M,,*6B
06/11/2015	05:02:01.663	$GPGGA,050202,2420.9704,N,08131.5441,W,1,11,1.5,16,M,,M,,*67
06/11/2015	05:02:02.509	$GPGGA,050203,2420.9700,N,08131.5455,W,1,11,1.5,16,M,,M,,*67
06/11/2015	05:02:03.599	$GPGGA,050204,2420.9696,N,08131.5470,W,1,11,1.5,16,M,,M,,*69
06/11/2015	05:02:04.499	$GPGGA,050205,2420.9693,N,08131.5484,W,1,11,1.5,16,M,,M,,*66
06/11/2015	05:02:05.589	$GPGGA,050206,2420.9691,N,08131.5498,W,1,11,1.5,16,M,,M,,*6A
06/11/2015	05:02:06.499	$GPGGA,050207,2420.9688,N,08131.5511,W,1,11,1.5,16,M,,M,,*63
06/11/2015	05:02:07.619	$GPGGA,050208,2420.9684,N,08131.5524,W,1,11,1.5,16,M,,M,,*66
06/11/2015	05:02:08.580	$GPGGA,050209,2420.9681,N,08131.5536,W,1,11,1.5,16,M,,M,,*61
06/11/2015	05:02:09.600	$GPGGA,050210,2420.9677,N,08131.5551,W,1,11,1.5,15,M,,M,,*62
06/11/2015	05:02:10.580	$GPGGA,050211,2420.9674,N,08131.5567,W,1,11,1.5,15,M,,M,,*65
06/11/2015	05:02:11.579	$GPGGA,050212,2420.9671,N,08131.5581,W,1,11,1.5,15,M,,M,,*6B
06/11/2015	05:02:12.579	$GPGGA,050213,2420.9668,N,08131.5596,W,1,11,1.5,15,M,,M,,*64
06/11/2015	05:02:13.609	$GPGGA,050214,2420.9666,N,08131.5608,W,1,11,1.5,15,M,,M,,*69
06/11/2015	05:02:14.564	$GPGGA,050215,2420.9662,N,08131.5622,W,1,11,1.6,15,M,,M,,*67
06/11/2015	05:02:15.609	$GPGGA,050216,2420.9661,N,08131.5637,W,1,10,1.6,15,M,,M,,*62
06/11/2015	05:02:16.569	$GPGGA,050217,2420.9659,N,08131.5652,W,1,10,1.5,15,M,,M,,*68
06/11/2015	05:02:17.569	$GPGGA,050218,2420.9655,N,08131.5665,W,1,10,1.6,15,M,,M,,*6C
06/11/2015	05:02:18.569	$GPGGA,050219,2420.9651,N,08131.5680,W,1,10,1.5,15,M,,M,,*61
06/11/2015	05:02:19.563	$GPGGA,050220,2420.9648,N,08131.5694,W,1,11,1.5,15,M,,M,,*67
06/11/2015	05:02:20.569	$GPGGA,050221,2420.9646,N,08131.5708,W,1,11,1.5,15,M,,M,,*6C
06/11/2015	05:02:21.579	$GPGGA,050222,2420.9643,N,08131.5722,W,1,11,1.5,15,M,,M,,*62
06/11/2015	05:02:22.549	$GPGGA,050223,2420.9638,N,08131.5737,W,1,11,1.5,15,M,,M,,*6B
06/11/2015	05:02:23.579	$GPGGA,050224,2420.9634,N,08131.5749,W,1,10,1.6,15,M,,M,,*6B
06/11/2015	05:02:24.556	$GPGGA,050225,2420.9631,N,08131.5763,W,1,10,1.5,15,M,,M,,*64
06/11/2015	05:02:25.561	$GPGGA,050226,2420.9628,N,08131.5778,W,1,10,1.6,15,M,,M,,*66
06/11/2015	05:02:26.554	$GPGGA,050227,2420.9624,N,08131.5791,W,1,10,1.6,15,M,,M,,*6C
06/11/2015	05:02:27.550	$GPGGA,050228,2420.9620,N,08131.5806,W,1,10,1.6,15,M,,M,,*66
06/11/2015	05:02:28.549	$GPGGA,050229,2420.9619,N,08131.5820,W,1,10,1.6,15,M,,M,,*69
06/11/2015	05:02:29.529	$GPGGA,050230,2420.9614,N,08131.5835,W,1,11,1.5,15,M,,M,,*6A
06/11/2015	05:02:30.539	$GPGGA,050231,2420.9608,N,08131.5847,W,1,11,1.7,15,M,,M,,*61
06/11/2015	05:02:31.539	$GPGGA,050232,2420.9603,N,08131.5861,W,1,9,1.7,15,M,,M,,*54
06/11/2015	05:02:32.539	$GPGGA,050233,2420.9601,N,08131.5875,W,1,9,1.7,15,M,,M,,*52
06/11/2015	05:02:33.539	$GPGGA,050234,2420.9594,N,08131.5887,W,1,10,1.6,15,M,,M,,*6E
06/11/2015	05:02:34.539	$GPGGA,050235,2420.9590,N,08131.5900,W,1,10,1.5,15,M,,M,,*66
06/11/2015	05:02:35.569	$GPGGA,050236,2420.9586,N,08131.5914,W,1,11,1.5,16,M,,M,,*65
06/11/2015	05:02:36.519	$GPGGA,050237,2420.9583,N,08131.5929,W,1,11,1.5,16,M,,M,,*6F
06/11/2015	05:02:37.529	$GPGGA,050238,2420.9579,N,08131.5943,W,1,11,1.5,16,M,,M,,*69
06/11/2015	05:02:38.509	$GPGGA,050239,2420.9573,N,08131.5957,W,1,11,1.5,16,M,,M,,*67
06/11/2015	05:02:39.539	$GPGGA,050240,2420.9569,N,08131.5970,W,1,11,1.5,16,M,,M,,*67
06/11/2015	05:02:40.510	$GPGGA,050241,2420.9565,N,08131.5983,W,1,11,1.6,16,M,,M,,*65
06/11/2015	05:02:41.553	$GPGGA,050242,2420.9559,N,08131.5998,W,1,10,1.6,16,M,,M,,*62
06/11/2015	05:02:42.499	$GPGGA,050243,2420.9554,N,08131.6012,W,1,10,1.5,16,M,,M,,*65
06/11/2015	05:02:43.540	$GPGGA,050244,2420.9550,N,08131.6026,W,1,11,1.5,16,M,,M,,*60
06/11/2015	05:02:44.510	$GPGGA,050245,2420.9547,N,08131.6041,W,1,11,1.5,16,M,,M,,*66
06/11/2015	05:02:45.689	$GPGGA,050246,2420.9541,N,08131.6055,W,1,11,1.6,17,M,,M,,*64
06/11/2015	05:02:46.519	$GPGGA,050247,2420.9536,N,08131.6070,W,1,11,1.6,17,M,,M,,*62
06/11/2015	05:02:47.529	$GPGGA,050248,2420.9532,N,08131.6084,W,1,9,1.7,17,M,,M,,*5A
06/11/2015	05:02:48.499	$GPGGA,050249,2420.9529,N,08131.6098,W,1,9,1.6,17,M,,M,,*5D
06/11/2015	05:02:49.519	$GPGGA,050250,2420.9525,N,08131.6113,W,1,10,1.6,17,M,,M,,*63
06/11/2015	05:02:50.509	$GPGGA,050251,2420.9520,N,08131.6128,W,1,10,1.6,17,M,,M,,*6F
06/11/2015	05:02:51.599	$GPGGA,050252,2420.9515,N,08131.6145,W,1,11,1.5,17,M,,M,,*63
06/11/2015	05:02:52.589	$GPGGA,050253,2420.9510,N,08131.6160,W,1,11,1.5,17,M,,M,,*60
06/11/2015	05:02:53.679	$GPGGA,050254,2420.9507,N,08131.6174,W,1,11,1.6,17,M,,M,,*67
06/11/2015	05:02:54.509	$GPGGA,050255,2420.9501,N,08131.6189,W,1,11,1.6,17,M,,M,,*62
06/11/2015	05:02:55.689	$GPGGA,050256,2420.9497,N,08131.6203,W,1,10,1.6,17,M,,M,,*6F
06/11/2015	05:02:57.709	$GPGGA,050258,2420.9490,N,08131.6230,W,1,10,1.6,17,M,,M,,*66
06/11/2015	05:02:58.629	$GPGGA,050259,2420.9485,N,08131.6246,W,1,10,1.6,17,M,,M,,*62
06/11/2015	05:02:59.699	$GPGGA,050300,2420.9484,N,08131.6258,W,1,10,1.6,17,M,,M,,*61
06/11/2015	05:03:00.600	$GPGGA,050301,2420.9482,N,08131.6272,W,1,10,1.5,17,M,,M,,*6D
06/11/2015	05:03:01.660	$GPGGA,050302,2420.9476,N,08131.6287,W,1,11,1.6,18,M,,M,,*62
06/11/2015	05:03:02.570	$GPGGA,050303,2420.9473,N,08131.6302,W,1,11,1.6,18,M,,M,,*6A
06/11/2015	05:03:03.679	$GPGGA,050304,2420.9471,N,08131.6319,W,1,10,1.6,18,M,,M,,*64
06/11/2015	05:03:04.589	$GPGGA,050305,2420.9467,N,08131.6333,W,1,10,1.5,18,M,,M,,*69
06/11/2015	05:03:05.669	$GPGGA,050306,2420.9462,N,08131.6348,W,1,11,1.5,18,M,,M,,*62
06/11/2015	05:03:06.560	$GPGGA,050307,2420.9460,N,08131.6362,W,1,11,1.5,18,M,,M,,*69
06/11/2015	05:03:07.689	$GPGGA,050308,2420.9456,N,08131.6376,W,1,11,1.5,18,M,,M,,*66
06/11/2015	05:03:08.589	$GPGGA,050309,2420.9453,N,08131.6391,W,1,11,1.5,18,M,,M,,*6B
06/11/2015	05:03:09.619	$GPGGA,050310,2420.9449,N,08131.6405,W,1,11,1.5,18,M,,M,,*62
06/11/2015	05:03:10.579	$GPGGA,050311,2420.9446,N,08131.6418,W,1,11,1.5,18,M,,M,,*60
06/11/2015	05:03:11.559	$GPGGA,050312,2420.9442,N,08131.6431,W,1,11,1.5,18,M,,M,,*6C
06/11/2015	05:03:12.579	$GPGGA,050313,2420.9438,N,08131.6445,W,1,11,1.5,18,M,,M,,*63
06/11/2015	05:03:13.652	$GPGGA,050314,2420.9435,N,08131.6459,W,1,11,1.5,18,M,,M,,*64
06/11/2015	05:03:14.569	$GPGGA,050315,2420.9432,N,08131.6474,W,1,11,1.5,18,M,,M,,*6D
06/11/2015	05:03:15.660	$GPGGA,050316,2420.9429,N,08131.6488,W,1,11,1.5,18,M,,M,,*67
06/11/2015	05:03:16.569	$GPGGA,050317,2420.9425,N,08131.6503,W,1,11,1.5,18,M,,M,,*68
06/11/2015	05:03:17.609	$GPGGA,050318,2420.9422,N,08131.6517,W,1,11,1.5,18,M,,M,,*65
06/11/2015	05:03:18.580	$GPGGA,050319,2420.9418,N,08131.6532,W,1,11,1.5,18,M,,M,,*6A
06/11/2015	05:03:19.670	$GPGGA,050320,2420.9415,N,08131.6546,W,1,11,1.6,18,M,,M,,*6D
06/11/2015	05:03:20.530	$GPGGA,050321,2420.9411,N,08131.6561,W,1,11,1.6,18,M,,M,,*6D
06/11/2015	05:03:21.619	$GPGGA,050322,2420.9408,N,08131.6575,W,1,11,1.5,18,M,,M,,*60
06/11/2015	05:03:22.555	$GPGGA,050323,2420.9406,N,08131.6589,W,1,11,1.5,18,M,,M,,*6C
06/11/2015	05:03:23.653	$GPGGA,050324,2420.9402,N,08131.6604,W,1,11,1.5,18,M,,M,,*69
06/11/2015	05:03:24.560	$GPGGA,050325,2420.9398,N,08131.6618,W,1,11,1.5,18,M,,M,,*61
06/11/2015	05:03:25.599	$GPGGA,050326,2420.9396,N,08131.6633,W,1,10,1.6,18,M,,M,,*67
06/11/2015	05:03:26.569	$GPGGA,050327,2420.9395,N,08131.6648,W,1,10,1.5,18,M,,M,,*6A
06/11/2015	05:03:27.656	$GPGGA,050328,2420.9392,N,08131.6662,W,1,11,1.5,18,M,,M,,*6B
06/11/2015	05:03:28.551	$GPGGA,050329,2420.9388,N,08131.6676,W,1,11,1.5,18,M,,M,,*64
06/11/2015	05:03:29.619	$GPGGA,050330,2420.9385,N,08131.6691,W,1,11,1.5,18,M,,M,,*68
06/11/2015	05:03:30.509	$GPGGA,050331,2420.9384,N,08131.6706,W,1,11,1.5,18,M,,M,,*67
06/11/2015	05:03:31.629	$GPGGA,050332,2420.9381,N,08131.6720,W,1,10,1.5,18,M,,M,,*64
06/11/2015	05:03:32.559	$GPGGA,050333,2420.9377,N,08131.6735,W,1,10,1.6,18,M,,M,,*6B
06/11/2015	05:03:33.629	$GPGGA,050334,2420.9374,N,08131.6749,W,1,10,1.6,18,M,,M,,*64
06/11/2015	05:03:34.539	$GPGGA,050335,2420.9373,N,08131.6764,W,1,10,1.6,18,M,,M,,*6D
06/11/2015	05:03:35.620	$GPGGA,050336,2420.9370,N,08131.6777,W,1,10,1.5,18,M,,M,,*6C
06/11/2015	05:03:36.600	$GPGGA,050337,2420.9366,N,08131.6792,W,1,10,1.5,18,M,,M,,*61
06/11/2015	05:03:37.640	$GPGGA,050338,2420.9363,N,08131.6806,W,1,11,1.5,18,M,,M,,*68
06/11/2015	05:03:38.589	$GPGGA,050339,2420.9361,N,08131.6821,W,1,11,1.6,18,M,,M,,*6D
06/11/2015	05:03:39.619	$GPGGA,050340,2420.9356,N,08131.6835,W,1,10,1.5,18,M,,M,,*60
06/11/2015	05:03:40.539	$GPGGA,050341,2420.9352,N,08131.6850,W,1,10,1.5,18,M,,M,,*66
06/11/2015	05:03:41.629	$GPGGA,050342,2420.9352,N,08131.6865,W,1,11,1.5,18,M,,M,,*62
06/11/2015	05:03:42.529	$GPGGA,050343,2420.9348,N,08131.6879,W,1,11,1.6,18,M,,M,,*66
06/11/2015	05:03:43.599	$GPGGA,050344,2420.9342,N,08131.6891,W,1,10,1.5,18,M,,M,,*6F
06/11/2015	05:03:44.589	$GPGGA,050345,2420.9341,N,08131.6904,W,1,10,1.5,18,M,,M,,*60
06/11/2015	05:03:45.589	$GPGGA,050346,2420.9337,N,08131.6920,W,1,11,1.6,18,M,,M,,*66
06/11/2015	05:03:46.589	$GPGGA,050347,2420.9333,N,08131.6936,W,1,11,1.5,18,M,,M,,*67
06/11/2015	05:03:47.649	$GPGGA,050348,2420.9330,N,08131.6951,W,1,11,1.6,18,M,,M,,*69
06/11/2015	05:03:48.569	$GPGGA,050349,2420.9325,N,08131.6966,W,1,11,1.6,18,M,,M,,*68
06/11/2015	05:03:49.589	$GPGGA,050350,2420.9321,N,08131.6980,W,1,10,1.6,18,M,,M,,*6D
06/11/2015	05:03:50.569	$GPGGA,050351,2420.9317,N,08131.6994,W,1,10,1.5,18,M,,M,,*6F
06/11/2015	05:03:51.639	$GPGGA,050352,2420.9313,N,08131.7009,W,1,11,1.6,18,M,,M,,*66
06/11/2015	05:03:52.569	$GPGGA,050353,2420.9310,N,08131.7023,W,1,11,1.6,18,M,,M,,*6C
06/11/2015	05:03:53.630	$GPGGA,050354,2420.9306,N,08131.7038,W,1,10,1.5,18,M,,M,,*64
06/11/2015	05:03:54.570	$GPGGA,050355,2420.9302,N,08131.7052,W,1,10,1.5,18,M,,M,,*6D
06/11/2015	05:03:55.609	$GPGGA,050356,2420.9297,N,08131.7067,W,1,11,1.6,18,M,,M,,*67
06/11/2015	05:03:56.562	$GPGGA,050357,2420.9294,N,08131.7084,W,1,11,1.5,18,M,,M,,*6B
06/11/2015	05:03:57.639	$GPGGA,050358,2420.9288,N,08131.7097,W,1,11,1.5,18,M,,M,,*6B
06/11/2015	05:03:58.566	$GPGGA,050359,2420.9285,N,08131.7113,W,1,11,1.6,18,M,,M,,*69
06/11/2015	05:03:59.599	$GPGGA,050400,2420.9281,N,08131.7125,W,1,10,1.6,18,M,,M,,*62
06/11/2015	05:04:00.565	$GPGGA,050401,2420.9277,N,08131.7140,W,1,10,1.5,18,M,,M,,*6A
06/11/2015	05:04:01.560	$GPGGA,050402,2420.9277,N,08131.7140,W,1,11,1.5,18,M,,M,,*68
06/11/2015	05:04:02.550	$GPGGA,050403,2420.9269,N,08131.7171,W,1,11,1.6,18,M,,M,,*67
06/11/2015	05:04:03.609	$GPGGA,050404,2420.9265,N,08131.7186,W,1,10,1.6,18,M,,M,,*65
06/11/2015	05:04:04.571	$GPGGA,050405,2420.9261,N,08131.7200,W,1,10,1.6,18,M,,M,,*6D
06/11/2015	05:04:05.554	$GPGGA,050406,2420.9261,N,08131.7200,W,1,10,1.6,18,M,,M,,*6E
06/11/2015	05:04:06.552	$GPGGA,050407,2420.9254,N,08131.7227,W,1,10,1.5,18,M,,M,,*6F
06/11/2015	05:04:07.599	$GPGGA,050408,2420.9250,N,08131.7243,W,1,11,1.5,18,M,,M,,*67
06/11/2015	05:04:08.539	$GPGGA,050409,2420.9245,N,08131.7256,W,1,11,1.5,18,M,,M,,*66
06/11/2015	05:04:09.579	$GPGGA,050410,2420.9240,N,08131.7270,W,1,11,1.5,18,M,,M,,*6F
06/11/2015	05:04:10.551	$GPGGA,050411,2420.9237,N,08131.7284,W,1,11,1.5,18,M,,M,,*65
06/11/2015	05:04:11.610	$GPGGA,050412,2420.9233,N,08131.7298,W,1,11,1.6,18,M,,M,,*6C
06/11/2015	05:04:12.530	$GPGGA,050413,2420.9229,N,08131.7312,W,1,11,1.6,18,M,,M,,*65
06/11/2015	05:04:13.651	$GPGGA,050414,2420.9223,N,08131.7324,W,1,11,1.5,18,M,,M,,*6E
06/11/2015	05:04:14.539	$GPGGA,050415,2420.9221,N,08131.7339,W,1,11,1.5,18,M,,M,,*61
06/11/2015	05:04:15.663	$GPGGA,050416,2420.9218,N,08131.7353,W,1,10,1.6,18,M,,M,,*66
06/11/2015	05:04:16.629	$GPGGA,050417,2420.9211,N,08131.7366,W,1,10,1.6,18,M,,M,,*68
06/11/2015	05:04:17.661	$GPGGA,050418,2420.9208,N,08131.7381,W,1,11,1.5,18,M,,M,,*64
06/11/2015	05:04:18.529	$GPGGA,050419,2420.9204,N,08131.7395,W,1,11,1.5,18,M,,M,,*6C
06/11/2015	05:04:19.669	$GPGGA,050420,2420.9200,N,08131.7408,W,1,11,1.5,18,M,,M,,*61
06/11/2015	05:04:20.566	$GPGGA,050421,2420.9196,N,08131.7422,W,1,11,1.6,18,M,,M,,*67
06/11/2015	05:04:21.609	$GPGGA,050422,2420.9193,N,08131.7436,W,1,10,1.6,18,M,,M,,*65
06/11/2015	05:04:22.499	$GPGGA,050423,2420.9189,N,08131.7449,W,1,10,1.5,18,M,,M,,*64
06/11/2015	05:04:23.539	$GPGGA,050424,2420.9184,N,08131.7464,W,1,11,1.5,18,M,,M,,*60
06/11/2015	05:04:24.499	$GPGGA,050425,2420.9180,N,08131.7478,W,1,11,1.5,18,M,,M,,*68
06/11/2015	05:04:25.639	$GPGGA,050426,2420.9178,N,08131.7493,W,1,10,1.6,18,M,,M,,*6B
06/11/2015	05:04:26.609	$GPGGA,050427,2420.9172,N,08131.7507,W,1,10,1.6,18,M,,M,,*6C
06/11/2015	05:04:27.619	$GPGGA,050428,2420.9167,N,08131.7522,W,1,10,1.6,18,M,,M,,*60
06/11/2015	05:04:28.600	$GPGGA,050429,2420.9164,N,08131.7537,W,1,10,1.6,18,M,,M,,*66
06/11/2015	05:04:29.590	$GPGGA,050430,2420.9160,N,08131.7551,W,1,10,1.6,18,M,,M,,*6A
06/11/2015	05:04:30.589	$GPGGA,050431,2420.9157,N,08131.7565,W,1,10,1.5,18,M,,M,,*6B
06/11/2015	05:04:31.589	$GPGGA,050432,2420.9153,N,08131.7577,W,1,11,1.5,18,M,,M,,*6E
06/11/2015	05:04:32.589	$GPGGA,050433,2420.9150,N,08131.7591,W,1,11,1.6,18,M,,M,,*67
06/11/2015	05:04:33.579	$GPGGA,050434,2420.9148,N,08131.7608,W,1,11,1.5,18,M,,M,,*69
06/11/2015	05:04:34.579	$GPGGA,050435,2420.9146,N,08131.7623,W,1,11,1.5,18,M,,M,,*6F
06/11/2015	05:04:35.609	$GPGGA,050436,2420.9142,N,08131.7638,W,1,11,1.5,18,M,,M,,*62
06/11/2015	05:04:36.571	$GPGGA,050437,2420.9138,N,08131.7653,W,1,11,1.5,18,M,,M,,*63
06/11/2015	05:04:37.571	$GPGGA,050438,2420.9135,N,08131.7668,W,1,11,1.5,18,M,,M,,*69
06/11/2015	05:04:38.570	$GPGGA,050439,2420.9132,N,08131.7682,W,1,11,1.5,18,M,,M,,*6B
06/11/2015	05:04:39.609	$GPGGA,050440,2420.9129,N,08131.7696,W,1,11,1.5,18,M,,M,,*6A
06/11/2015	05:04:40.569	$GPGGA,050441,2420.9126,N,08131.7711,W,1,11,1.6,18,M,,M,,*69
06/11/2015	05:04:41.564	$GPGGA,050442,2420.9124,N,08131.7728,W,1,11,1.5,18,M,,M,,*61
06/11/2015	05:04:42.571	$GPGGA,050443,2420.9120,N,08131.7742,W,1,11,1.5,18,M,,M,,*68
06/11/2015	05:04:43.599	$GPGGA,050444,2420.9117,N,08131.7758,W,1,11,1.5,18,M,,M,,*60
06/11/2015	05:04:44.562	$GPGGA,050445,2420.9113,N,08131.7774,W,1,11,1.5,18,M,,M,,*6B
06/11/2015	05:04:45.580	$GPGGA,050446,2420.9110,N,08131.7789,W,1,11,1.5,18,M,,M,,*69
06/11/2015	05:04:46.551	$GPGGA,050447,2420.9107,N,08131.7803,W,1,11,1.5,18,M,,M,,*63
06/11/2015	05:04:47.562	$GPGGA,050448,2420.9104,N,08131.7818,W,1,11,1.5,18,M,,M,,*65
06/11/2015	05:04:48.552	$GPGGA,050449,2420.9100,N,08131.7832,W,1,11,1.5,18,M,,M,,*68
06/11/2015	05:04:49.569	$GPGGA,050450,2420.9097,N,08131.7847,W,1,11,1.5,18,M,,M,,*6D
06/11/2015	05:04:50.539	$GPGGA,050451,2420.9095,N,08131.7862,W,1,11,1.6,18,M,,M,,*6A
06/11/2015	05:04:51.563	$GPGGA,050452,2420.9090,N,08131.7876,W,1,11,1.5,18,M,,M,,*6A
06/11/2015	05:04:52.539	$GPGGA,050453,2420.9088,N,08131.7891,W,1,11,1.5,18,M,,M,,*6B
06/11/2015	05:04:53.539	$GPGGA,050454,2420.9084,N,08131.7906,W,1,10,1.6,18,M,,M,,*6D
06/11/2015	05:04:54.539	$GPGGA,050455,2420.9081,N,08131.7921,W,1,10,1.6,18,M,,M,,*6C
06/11/2015	05:04:55.589	$GPGGA,050456,2420.9077,N,08131.7937,W,1,11,1.5,18,M,,M,,*63
06/11/2015	05:04:56.539	$GPGGA,050457,2420.9073,N,08131.7952,W,1,11,1.5,18,M,,M,,*65
06/11/2015	05:04:57.529	$GPGGA,050458,2420.9071,N,08131.7966,W,1,10,1.6,18,M,,M,,*6D
06/11/2015	05:04:58.519	$GPGGA,050459,2420.9067,N,08131.7980,W,1,10,1.5,18,M,,M,,*60
06/11/2015	05:04:59.579	$GPGGA,050500,2420.9064,N,08131.7995,W,1,11,1.5,18,M,,M,,*6B
06/11/2015	05:05:00.539	$GPGGA,050501,2420.9060,N,08131.8010,W,1,11,1.5,18,M,,M,,*65
06/11/2015	05:05:01.658	$GPGGA,050502,2420.9057,N,08131.8027,W,1,11,1.5,18,M,,M,,*66
06/11/2015	05:05:02.519	$GPGGA,050503,2420.9053,N,08131.8042,W,1,11,1.6,18,M,,M,,*63
06/11/2015	05:05:03.552	$GPGGA,050504,2420.9049,N,08131.8057,W,1,11,1.5,18,M,,M,,*68
06/11/2015	05:05:04.520	$GPGGA,050505,2420.9045,N,08131.8072,W,1,11,1.5,18,M,,M,,*62
06/11/2015	05:05:05.529	$GPGGA,050506,2420.9041,N,08131.8086,W,1,11,1.5,18,M,,M,,*6E
06/11/2015	05:05:06.529	$GPGGA,050507,2420.9039,N,08131.8101,W,1,11,1.6,18,M,,M,,*6D
06/11/2015	05:05:07.639	$GPGGA,050508,2420.9037,N,08131.8115,W,1,10,1.6,18,M,,M,,*68
06/11/2015	05:05:08.529	$GPGGA,050509,2420.9032,N,08131.8129,W,1,10,1.6,18,M,,M,,*63
06/11/2015	05:05:09.629	$GPGGA,050510,2420.9030,N,08131.8143,W,1,11,1.5,18,M,,M,,*67
06/11/2015	05:05:10.519	$GPGGA,050511,2420.9027,N,08131.8158,W,1,11,1.6,18,M,,M,,*69
06/11/2015	05:05:11.539	$GPGGA,050512,2420.9024,N,08131.8172,W,1,10,1.6,18,M,,M,,*60
06/11/2015	05:05:12.509	$GPGGA,050513,2420.9018,N,08131.8186,W,1,10,1.6,18,M,,M,,*65
06/11/2015	05:05:13.599	$GPGGA,050514,2420.9016,N,08131.8201,W,1,10,1.6,18,M,,M,,*60
06/11/2015	05:05:14.509	$GPGGA,050515,2420.9014,N,08131.8215,W,1,10,1.6,18,M,,M,,*66
06/11/2015	05:05:15.519	$GPGGA,050516,2420.9010,N,08131.8230,W,1,9,1.6,18,M,,M,,*5E
06/11/2015	05:05:16.499	$GPGGA,050517,2420.9006,N,08131.8242,W,1,9,1.6,17,M,,M,,*52
06/11/2015	05:05:17.610	$GPGGA,050518,2420.9003,N,08131.8258,W,1,10,1.6,17,M,,M,,*6B
06/11/2015	05:05:18.589	$GPGGA,050519,2420.9001,N,08131.8273,W,1,10,1.6,17,M,,M,,*61
06/11/2015	05:05:19.629	$GPGGA,050520,2420.8995,N,08131.8288,W,1,10,1.6,17,M,,M,,*6A
06/11/2015	05:05:20.580	$GPGGA,050521,2420.8991,N,08131.8302,W,1,10,1.6,17,M,,M,,*6C
06/11/2015	05:05:21.600	$GPGGA,050522,2420.8987,N,08131.8316,W,1,9,1.8,17,M,,M,,*5B
06/11/2015	05:05:22.570	$GPGGA,050523,2420.8983,N,08131.8331,W,1,9,1.6,17,M,,M,,*55
06/11/2015	05:05:23.589	$GPGGA,050524,2420.8979,N,08131.8345,W,1,9,1.6,17,M,,M,,*54
06/11/2015	05:05:24.569	$GPGGA,050525,2420.8976,N,08131.8358,W,1,9,1.6,17,M,,M,,*56
06/11/2015	05:05:25.589	$GPGGA,050526,2420.8970,N,08131.8372,W,1,9,1.6,17,M,,M,,*5B
06/11/2015	05:05:26.569	$GPGGA,050527,2420.8965,N,08131.8387,W,1,9,1.8,17,M,,M,,*5A
06/11/2015	05:05:27.589	$GPGGA,050528,2420.8960,N,08131.8403,W,1,9,1.6,17,M,,M,,*55
06/11/2015	05:05:28.569	$GPGGA,050529,2420.8955,N,08131.8417,W,1,9,1.6,17,M,,M,,*57
06/11/2015	05:05:29.553	$GPGGA,050530,2420.8951,N,08131.8429,W,1,9,1.6,17,M,,M,,*56
06/11/2015	05:05:30.550	$GPGGA,050531,2420.8945,N,08131.8443,W,1,9,1.6,17,M,,M,,*5E
06/11/2015	05:05:31.589	$GPGGA,050532,2420.8942,N,08131.8455,W,1,9,1.6,17,M,,M,,*5D
06/11/2015	05:05:32.560	$GPGGA,050533,2420.8936,N,08131.8468,W,1,9,1.6,18,M,,M,,*5E
06/11/2015	05:05:33.569	$GPGGA,050534,2420.8931,N,08131.8483,W,1,9,1.6,18,M,,M,,*5B
06/11/2015	05:05:34.561	$GPGGA,050535,2420.8927,N,08131.8498,W,1,9,1.6,18,M,,M,,*57
06/11/2015	05:05:35.589	$GPGGA,050536,2420.8922,N,08131.8513,W,1,10,1.6,18,M,,M,,*6B
06/11/2015	05:05:36.552	$GPGGA,050537,2420.8918,N,08131.8527,W,1,10,1.6,18,M,,M,,*64
06/11/2015	05:05:37.539	$GPGGA,050538,2420.8914,N,08131.8541,W,1,9,1.6,18,M,,M,,*5F
06/11/2015	05:05:38.551	$GPGGA,050539,2420.8911,N,08131.8555,W,1,9,1.6,18,M,,M,,*5E
06/11/2015	05:05:39.570	$GPGGA,050540,2420.8905,N,08131.8569,W,1,10,1.6,18,M,,M,,*62
06/11/2015	05:05:40.539	$GPGGA,050541,2420.8901,N,08131.8584,W,1,10,1.7,18,M,,M,,*65
06/11/2015	05:05:41.539	$GPGGA,050542,2420.8897,N,08131.8599,W,1,10,1.6,18,M,,M,,*65
06/11/2015	05:05:42.539	$GPGGA,050543,2420.8894,N,08131.8614,W,1,10,1.6,18,M,,M,,*61
06/11/2015	05:05:43.559	$GPGGA,050544,2420.8890,N,08131.8627,W,1,9,1.6,18,M,,M,,*5A
06/11/2015	05:05:44.529	$GPGGA,050545,2420.8886,N,08131.8641,W,1,9,1.6,18,M,,M,,*5C
06/11/2015	05:05:45.539	$GPGGA,050546,2420.8885,N,08131.8653,W,1,9,1.6,18,M,,M,,*5F
06/11/2015	05:05:46.529	$GPGGA,050547,2420.8880,N,08131.8670,W,1,9,1.6,18,M,,M,,*5A
06/11/2015	05:05:47.553	$GPGGA,050548,2420.8876,N,08131.8685,W,1,10,1.6,18,M,,M,,*6E
06/11/2015	05:05:48.539	$GPGGA,050549,2420.8873,N,08131.8700,W,1,10,1.6,18,M,,M,,*66
06/11/2015	05:05:49.519	$GPGGA,050550,2420.8871,N,08131.8714,W,1,9,1.6,18,M,,M,,*51
06/11/2015	05:05:50.529	$GPGGA,050551,2420.8867,N,08131.8728,W,1,9,1.6,18,M,,M,,*58
06/11/2015	05:05:51.560	$GPGGA,050552,2420.8864,N,08131.8741,W,1,10,1.6,18,M,,M,,*6F
06/11/2015	05:05:52.519	$GPGGA,050553,2420.8860,N,08131.8757,W,1,10,1.6,18,M,,M,,*6D
06/11/2015	05:05:53.529	$GPGGA,050554,2420.8857,N,08131.8772,W,1,9,1.6,18,M,,M,,*51
06/11/2015	05:05:54.519	$GPGGA,050555,2420.8853,N,08131.8787,W,1,9,1.6,18,M,,M,,*5E
06/11/2015	05:05:55.640	$GPGGA,050556,2420.8849,N,08131.8801,W,1,9,1.6,18,M,,M,,*57
06/11/2015	05:05:56.510	$GPGGA,050557,2420.8846,N,08131.8815,W,1,9,1.6,18,M,,M,,*5C
06/11/2015	05:05:57.600	$GPGGA,050558,2420.8842,N,08131.8827,W,1,9,1.6,18,M,,M,,*56
06/11/2015	05:05:58.499	$GPGGA,050559,2420.8839,N,08131.8841,W,1,9,1.6,18,M,,M,,*5B
06/11/2015	05:05:59.552	$GPGGA,050600,2420.8836,N,08131.8855,W,1,9,1.6,18,M,,M,,*5E
06/11/2015	05:06:00.509	$GPGGA,050601,2420.8835,N,08131.8870,W,1,9,1.6,18,M,,M,,*5B
06/11/2015	05:06:01.520	$GPGGA,050602,2420.8830,N,08131.8884,W,1,10,1.6,18,M,,M,,*6E
06/11/2015	05:06:02.610	$GPGGA,050603,2420.8826,N,08131.8898,W,1,10,1.6,19,M,,M,,*64
06/11/2015	05:06:03.509	$GPGGA,050604,2420.8824,N,08131.8912,W,1,9,1.6,19,M,,M,,*5A
06/11/2015	05:06:04.499	$GPGGA,050605,2420.8820,N,08131.8924,W,1,9,1.6,19,M,,M,,*5A
06/11/2015	05:06:05.499	$GPGGA,050606,2420.8815,N,08131.8939,W,1,10,1.6,19,M,,M,,*6B
06/11/2015	05:06:06.519	$GPGGA,050607,2420.8813,N,08131.8953,W,1,10,1.6,19,M,,M,,*60
06/11/2015	05:06:07.629	$GPGGA,050608,2420.8810,N,08131.8967,W,1,10,1.6,19,M,,M,,*6B
06/11/2015	05:06:08.579	$GPGGA,050609,2420.8806,N,08131.8981,W,1,10,1.6,19,M,,M,,*65
06/11/2015	05:06:09.579	$GPGGA,050610,2420.8802,N,08131.8995,W,1,9,1.8,19,M,,M,,*5A
06/11/2015	05:06:10.569	$GPGGA,050611,2420.8799,N,08131.9008,W,1,9,1.6,19,M,,M,,*54
06/11/2015	05:06:11.599	$GPGGA,050612,2420.8795,N,08131.9022,W,1,9,1.6,19,M,,M,,*53
06/11/2015	05:06:12.563	$GPGGA,050613,2420.8792,N,08131.9036,W,1,9,1.6,19,M,,M,,*50
06/11/2015	05:06:13.590	$GPGGA,050614,2420.8788,N,08131.9050,W,1,10,1.6,19,M,,M,,*64
06/11/2015	05:06:14.570	$GPGGA,050615,2420.8783,N,08131.9064,W,1,10,1.6,19,M,,M,,*69
06/11/2015	05:06:15.599	$GPGGA,050616,2420.8781,N,08131.9079,W,1,9,1.6,19,M,,M,,*5C
06/11/2015	05:06:16.559	$GPGGA,050617,2420.8777,N,08131.9093,W,1,9,1.6,19,M,,M,,*50
06/11/2015	05:06:17.579	$GPGGA,050618,2420.8773,N,08131.9104,W,1,9,1.6,19,M,,M,,*54
06/11/2015	05:06:18.556	$GPGGA,050619,2420.8767,N,08131.9118,W,1,9,1.6,19,M,,M,,*5D
06/11/2015	05:06:19.589	$GPGGA,050620,2420.8766,N,08131.9131,W,1,9,1.6,19,M,,M,,*5D
06/11/2015	05:06:20.551	$GPGGA,050621,2420.8763,N,08131.9147,W,1,9,1.6,19,M,,M,,*58
06/11/2015	05:06:21.579	$GPGGA,050622,2420.8757,N,08131.9162,W,1,9,1.6,19,M,,M,,*5B
06/11/2015	05:06:22.569	$GPGGA,050623,2420.8753,N,08131.9176,W,1,9,1.6,19,M,,M,,*5B
06/11/2015	05:06:23.579	$GPGGA,050624,2420.8750,N,08131.9188,W,1,9,1.6,19,M,,M,,*5E
06/11/2015	05:06:24.559	$GPGGA,050625,2420.8746,N,08131.9202,W,1,9,1.6,19,M,,M,,*59
06/11/2015	05:06:25.559	$GPGGA,050626,2420.8741,N,08131.9216,W,1,10,1.6,19,M,,M,,*60
06/11/2015	05:06:26.554	$GPGGA,050627,2420.8737,N,08131.9231,W,1,10,1.6,19,M,,M,,*65
06/11/2015	05:06:27.589	$GPGGA,050628,2420.8734,N,08131.9246,W,1,10,1.6,19,M,,M,,*69
06/11/2015	05:06:28.551	$GPGGA,050629,2420.8728,N,08131.9261,W,1,10,1.6,19,M,,M,,*60
06/11/2015	05:06:29.529	$GPGGA,050630,2420.8723,N,08131.9275,W,1,9,1.6,19,M,,M,,*5E
06/11/2015	05:06:30.540	$GPGGA,050631,2420.8720,N,08131.9290,W,1,9,1.6,19,M,,M,,*57
06/11/2015	05:06:31.570	$GPGGA,050632,2420.8717,N,08131.9303,W,1,9,1.6,19,M,,M,,*5B
06/11/2015	05:06:32.530	$GPGGA,050633,2420.8712,N,08131.9317,W,1,9,1.6,19,M,,M,,*5A
06/11/2015	05:06:33.564	$GPGGA,050634,2420.8710,N,08131.9332,W,1,10,1.6,19,M,,M,,*60
06/11/2015	05:06:34.529	$GPGGA,050635,2420.8705,N,08131.9346,W,1,10,1.7,19,M,,M,,*67
06/11/2015	05:06:35.552	$GPGGA,050636,2420.8700,N,08131.9362,W,1,10,1.6,19,M,,M,,*66
06/11/2015	05:06:36.529	$GPGGA,050637,2420.8698,N,08131.9378,W,1,10,1.6,19,M,,M,,*6C
06/11/2015	05:06:37.539	$GPGGA,050638,2420.8694,N,08131.9391,W,1,10,1.6,19,M,,M,,*68
06/11/2015	05:06:38.539	$GPGGA,050639,2420.8691,N,08131.9404,W,1,10,1.6,19,M,,M,,*67
06/11/2015	05:06:39.863	$GPGGA,050640,2420.8687,N,08131.9418,W,1,10,1.6,19,M,,M,,*63
06/11/2015	05:06:40.519	$GPGGA,050641,2420.8682,N,08131.9433,W,1,10,1.6,19,M,,M,,*6E
06/11/2015	05:06:41.529	$GPGGA,050642,2420.8678,N,08131.9447,W,1,10,1.6,19,M,,M,,*6B
06/11/2015	05:06:42.509	$GPGGA,050643,2420.8676,N,08131.9462,W,1,10,1.6,18,M,,M,,*62
06/11/2015	05:06:43.562	$GPGGA,050644,2420.8671,N,08131.9477,W,1,10,1.6,18,M,,M,,*66
06/11/2015	05:06:44.519	$GPGGA,050645,2420.8667,N,08131.9491,W,1,10,1.6,18,M,,M,,*68
06/11/2015	05:06:45.499	$GPGGA,050646,2420.8665,N,08131.9505,W,1,10,1.6,18,M,,M,,*65
06/11/2015	05:06:46.599	$GPGGA,050647,2420.8660,N,08131.9517,W,1,10,1.6,18,M,,M,,*62
06/11/2015	05:06:47.509	$GPGGA,050648,2420.8658,N,08131.9532,W,1,10,1.6,18,M,,M,,*61
06/11/2015	05:06:48.500	$GPGGA,050649,2420.8653,N,08131.9546,W,1,10,1.6,18,M,,M,,*68
06/11/2015	05:06:49.610	$GPGGA,050650,2420.8649,N,08131.9560,W,1,10,1.6,18,M,,M,,*6F
06/11/2015	05:06:50.499	$GPGGA,050651,2420.8647,N,08131.9575,W,1,10,1.6,18,M,,M,,*64
06/11/2015	05:06:51.510	$GPGGA,050652,2420.8643,N,08131.9589,W,1,9,1.6,18,M,,M,,*58
06/11/2015	05:06:52.499	$GPGGA,050653,2420.8640,N,08131.9603,W,1,9,1.6,18,M,,M,,*5B
06/11/2015	05:06:53.489	$GPGGA,050654,2420.8635,N,08131.9617,W,1,10,1.6,18,M,,M,,*63
06/11/2015	05:06:54.589	$GPGGA,050655,2420.8631,N,08131.9632,W,1,10,1.6,18,M,,M,,*61
06/11/2015	05:06:55.589	$GPGGA,050656,2420.8629,N,08131.9644,W,1,9,1.6,18,M,,M,,*52
06/11/2015	05:06:56.589	$GPGGA,050657,2420.8624,N,08131.9657,W,1,9,1.6,18,M,,M,,*5C
06/11/2015	05:06:57.599	$GPGGA,050658,2420.8622,N,08131.9671,W,1,10,1.6,18,M,,M,,*69
06/11/2015	05:06:58.559	$GPGGA,050659,2420.8617,N,08131.9686,W,1,10,1.6,18,M,,M,,*66
06/11/2015	05:06:59.609	$GPGGA,050700,2420.8613,N,08131.9698,W,1,10,1.6,18,M,,M,,*60
06/11/2015	05:07:00.569	$GPGGA,050701,2420.8611,N,08131.9712,W,1,10,1.6,18,M,,M,,*60
06/11/2015	05:07:01.569	$GPGGA,050702,2420.8606,N,08131.9726,W,1,9,1.6,18,M,,M,,*5A
06/11/2015	05:07:02.559	$GPGGA,050703,2420.8601,N,08131.9740,W,1,9,1.6,18,M,,M,,*5C
06/11/2015	05:07:03.559	$GPGGA,050704,2420.8598,N,08131.9752,W,1,9,1.6,18,M,,M,,*5B
06/11/2015	05:07:04.551	$GPGGA,050705,2420.8594,N,08131.9766,W,1,9,1.6,18,M,,M,,*51
06/11/2015	05:07:05.559	$GPGGA,050706,2420.8589,N,08131.9780,W,1,9,1.6,18,M,,M,,*56
06/11/2015	05:07:06.559	$GPGGA,050707,2420.8586,N,08131.9794,W,1,9,1.6,18,M,,M,,*5D
06/11/2015	05:07:07.579	$GPGGA,050708,2420.8583,N,08131.9809,W,1,9,1.6,18,M,,M,,*5C
06/11/2015	05:07:08.552	$GPGGA,050709,2420.8578,N,08131.9821,W,1,9,1.6,18,M,,M,,*53
06/11/2015	05:07:09.578	$GPGGA,050710,2420.8575,N,08131.9834,W,1,9,1.6,18,M,,M,,*52
06/11/2015	05:07:10.544	$GPGGA,050711,2420.8571,N,08131.9846,W,1,9,1.6,18,M,,M,,*52
06/11/2015	05:07:11.588	$GPGGA,050712,2420.8568,N,08131.9860,W,1,10,1.6,18,M,,M,,*65
06/11/2015	05:07:12.539	$GPGGA,050713,2420.8564,N,08131.9875,W,1,10,1.6,18,M,,M,,*6C
06/11/2015	05:07:13.528	$GPGGA,050714,2420.8560,N,08131.9888,W,1,10,1.6,18,M,,M,,*6D
06/11/2015	05:07:14.542	$GPGGA,050715,2420.8557,N,08131.9903,W,1,10,1.6,18,M,,M,,*6A
06/11/2015	05:07:15.569	$GPGGA,050716,2420.8555,N,08131.9915,W,1,9,1.6,18,M,,M,,*54
06/11/2015	05:07:16.529	$GPGGA,050717,2420.8551,N,08131.9929,W,1,9,1.6,18,M,,M,,*5E
06/11/2015	05:07:17.551	$GPGGA,050718,2420.8546,N,08131.9942,W,1,9,1.7,18,M,,M,,*5B
06/11/2015	05:07:18.519	$GPGGA,050719,2420.8542,N,08131.9954,W,1,9,1.6,18,M,,M,,*58
06/11/2015	05:07:19.569	$GPGGA,050720,2420.8539,N,08131.9967,W,1,10,1.6,18,M,,M,,*66
06/11/2015	05:07:20.529	$GPGGA,050721,2420.8535,N,08131.9982,W,1,10,1.6,18,M,,M,,*60
06/11/2015	05:07:21.519	$GPGGA,050722,2420.8529,N,08131.9996,W,1,9,1.6,18,M,,M,,*53
06/11/2015	05:07:22.929	$GPGGA,050723,2420.8525,N,08132.0011,W,1,9,1.6,18,M,,M,,*52
06/11/2015	05:07:23.679	$GPGGA,050724,2420.8521,N,08132.0023,W,1,10,1.6,18,M,,M,,*68
06/11/2015	05:07:24.629	$GPGGA,050725,2420.8517,N,08132.0037,W,1,10,1.6,18,M,,M,,*69
06/11/2015	05:07:25.518	$GPGGA,050726,2420.8512,N,08132.0051,W,1,9,1.6,18,M,,M,,*57
06/11/2015	05:07:26.498	$GPGGA,050727,2420.8510,N,08132.0065,W,1,9,1.6,18,M,,M,,*53
06/11/2015	05:07:27.541	$GPGGA,050728,2420.8506,N,08132.0079,W,1,10,1.6,18,M,,M,,*6E
06/11/2015	05:07:28.508	$GPGGA,050729,2420.8501,N,08132.0092,W,1,10,1.6,18,M,,M,,*6D
06/11/2015	05:07:29.518	$GPGGA,050730,2420.8499,N,08132.0106,W,1,10,1.6,18,M,,M,,*69
06/11/2015	05:07:30.498	$GPGGA,050731,2420.8496,N,08132.0120,W,1,10,1.6,18,M,,M,,*63
06/11/2015	05:07:31.508	$GPGGA,050732,2420.8492,N,08132.0134,W,1,10,1.6,18,M,,M,,*61
06/11/2015	05:07:32.508	$GPGGA,050733,2420.8488,N,08132.0148,W,1,10,1.6,18,M,,M,,*60
06/11/2015	05:07:33.499	$GPGGA,050734,2420.8486,N,08132.0163,W,1,10,1.6,18,M,,M,,*60
06/11/2015	05:07:34.609	$GPGGA,050735,2420.8483,N,08132.0177,W,1,10,1.6,18,M,,M,,*61
06/11/2015	05:07:35.519	$GPGGA,050736,2420.8477,N,08132.0191,W,1,10,1.6,18,M,,M,,*61
06/11/2015	05:07:36.489	$GPGGA,050737,2420.8474,N,08132.0206,W,1,10,1.6,18,M,,M,,*6E
06/11/2015	05:07:37.599	$GPGGA,050738,2420.8471,N,08132.0220,W,1,9,1.6,18,M,,M,,*58
06/11/2015	05:07:38.489	$GPGGA,050739,2420.8467,N,08132.0235,W,1,9,1.6,18,M,,M,,*5A
06/11/2015	05:07:39.599	$GPGGA,050740,2420.8463,N,08132.0247,W,1,10,1.6,18,M,,M,,*6D
06/11/2015	05:07:40.579	$GPGGA,050741,2420.8461,N,08132.0262,W,1,10,1.6,18,M,,M,,*69
06/11/2015	05:07:41.589	$GPGGA,050742,2420.8458,N,08132.0276,W,1,10,1.6,18,M,,M,,*65
06/11/2015	05:07:42.579	$GPGGA,050743,2420.8453,N,08132.0290,W,1,10,1.6,18,M,,M,,*67
06/11/2015	05:07:43.608	$GPGGA,050744,2420.8450,N,08132.0305,W,1,9,1.6,18,M,,M,,*56
06/11/2015	05:07:44.568	$GPGGA,050745,2420.8447,N,08132.0318,W,1,9,1.6,18,M,,M,,*5D
06/11/2015	05:07:45.588	$GPGGA,050746,2420.8443,N,08132.0332,W,1,9,1.6,18,M,,M,,*52
06/11/2015	05:07:46.568	$GPGGA,050747,2420.8439,N,08132.0347,W,1,9,1.7,18,M,,M,,*5D
06/11/2015	05:07:47.608	$GPGGA,050748,2420.8436,N,08132.0361,W,1,8,1.6,18,M,,M,,*59
06/11/2015	05:07:48.558	$GPGGA,050749,2420.8434,N,08132.0373,W,1,8,1.6,18,M,,M,,*59
06/11/2015	05:07:49.578	$GPGGA,050750,2420.8428,N,08132.0388,W,1,9,1.6,18,M,,M,,*59
06/11/2015	05:07:50.559	$GPGGA,050751,2420.8425,N,08132.0401,W,1,9,1.6,18,M,,M,,*53
06/11/2015	05:07:51.609	$GPGGA,050752,2420.8423,N,08132.0415,W,1,9,1.6,18,M,,M,,*53
06/11/2015	05:07:52.554	$GPGGA,050753,2420.8418,N,08132.0427,W,1,9,1.6,18,M,,M,,*5B
06/11/2015	05:07:53.552	$GPGGA,050754,2420.8414,N,08132.0442,W,1,9,1.6,18,M,,M,,*53
06/11/2015	05:07:54.549	$GPGGA,050755,2420.8410,N,08132.0459,W,1,9,1.6,18,M,,M,,*5C
06/11/2015	05:07:55.579	$GPGGA,050756,2420.8407,N,08132.0473,W,1,10,1.6,18,M,,M,,*69
06/11/2015	05:07:56.599	$GPGGA,050757,2420.8403,N,08132.0486,W,1,10,1.6,18,M,,M,,*66
06/11/2015	05:07:57.559	$GPGGA,050758,2420.8400,N,08132.0499,W,1,9,1.6,18,M,,M,,*5C
06/11/2015	05:07:58.541	$GPGGA,050759,2420.8398,N,08132.0513,W,1,9,1.6,18,M,,M,,*58
06/11/2015	05:07:59.579	$GPGGA,050800,2420.8395,N,08132.0525,W,1,9,1.6,18,M,,M,,*53
06/11/2015	05:08:00.528	$GPGGA,050801,2420.8391,N,08132.0539,W,1,9,1.6,18,M,,M,,*5B
06/11/2015	05:08:01.558	$GPGGA,050802,2420.8387,N,08132.0553,W,1,10,1.6,18,M,,M,,*6B
06/11/2015	05:08:02.544	$GPGGA,050803,2420.8385,N,08132.0568,W,1,10,1.6,18,M,,M,,*60
06/11/2015	05:08:03.568	$GPGGA,050804,2420.8382,N,08132.0583,W,1,10,1.6,18,M,,M,,*65
06/11/2015	05:08:04.540	$GPGGA,050805,2420.8378,N,08132.0596,W,1,10,1.6,18,M,,M,,*65
06/11/2015	05:08:05.528	$GPGGA,050806,2420.8376,N,08132.0610,W,1,9,1.6,18,M,,M,,*5D
06/11/2015	05:08:06.528	$GPGGA,050807,2420.8373,N,08132.0622,W,1,9,1.6,18,M,,M,,*58
06/11/2015	05:08:07.568	$GPGGA,050808,2420.8369,N,08132.0636,W,1,10,1.6,18,M,,M,,*61
06/11/2015	05:08:08.529	$GPGGA,050809,2420.8366,N,08132.0652,W,1,10,1.6,18,M,,M,,*6D
06/11/2015	05:08:09.552	$GPGGA,050810,2420.8363,N,08132.0668,W,1,10,1.6,18,M,,M,,*69
06/11/2015	05:08:10.539	$GPGGA,050811,2420.8359,N,08132.0683,W,1,10,1.6,18,M,,M,,*64
06/11/2015	05:08:11.549	$GPGGA,050812,2420.8356,N,08132.0697,W,1,9,1.6,18,M,,M,,*55
06/11/2015	05:08:12.529	$GPGGA,050813,2420.8353,N,08132.0712,W,1,9,1.6,18,M,,M,,*5D
06/11/2015	05:08:13.644	$GPGGA,050814,2420.8349,N,08132.0724,W,1,9,1.6,18,M,,M,,*54
06/11/2015	05:08:14.509	$GPGGA,050815,2420.8345,N,08132.0738,W,1,9,1.6,18,M,,M,,*54
06/11/2015	05:08:15.609	$GPGGA,050816,2420.8342,N,08132.0753,W,1,10,1.6,18,M,,M,,*65
06/11/2015	05:08:16.529	$GPGGA,050817,2420.8340,N,08132.0767,W,1,10,1.6,18,M,,M,,*61
06/11/2015	05:08:17.589	$GPGGA,050818,2420.8335,N,08132.0781,W,1,9,1.6,18,M,,M,,*5C
06/11/2015	05:08:18.509	$GPGGA,050819,2420.8335,N,08132.0781,W,1,9,1.6,18,M,,M,,*5D
06/11/2015	05:08:19.618	$GPGGA,050820,2420.8329,N,08132.0810,W,1,10,1.6,18,M,,M,,*65
06/11/2015	05:08:20.518	$GPGGA,050821,2420.8326,N,08132.0824,W,1,10,1.6,18,M,,M,,*6C
06/11/2015	05:08:21.618	$GPGGA,050822,2420.8322,N,08132.0838,W,1,9,1.6,18,M,,M,,*5E
06/11/2015	05:08:22.588	$GPGGA,050823,2420.8317,N,08132.0853,W,1,9,1.6,18,M,,M,,*54
06/11/2015	05:08:23.628	$GPGGA,050824,2420.8313,N,08132.0867,W,1,9,1.6,18,M,,M,,*50
06/11/2015	05:08:24.508	$GPGGA,050825,2420.8311,N,08132.0881,W,1,9,1.6,18,M,,M,,*5B
06/11/2015	05:08:25.609	$GPGGA,050826,2420.8306,N,08132.0896,W,1,10,1.6,18,M,,M,,*60
06/11/2015	05:08:26.579	$GPGGA,050827,2420.8301,N,08132.0910,W,1,10,1.6,18,M,,M,,*69
06/11/2015	05:08:27.544	$GPGGA,050828,2420.8298,N,08132.0925,W,1,9,1.6,18,M,,M,,*59
06/11/2015	05:08:28.759	$GPGGA,050829,2420.8295,N,08132.0940,W,1,9,1.6,18,M,,M,,*56
06/11/2015	05:08:29.489	$GPGGA,050830,2420.8290,N,08132.0954,W,1,9,1.6,18,M,,M,,*5E
06/11/2015	05:08:30.579	$GPGGA,050831,2420.8287,N,08132.0968,W,1,9,1.6,18,M,,M,,*56
06/11/2015	05:08:31.589	$GPGGA,050832,2420.8286,N,08132.0983,W,1,9,1.6,18,M,,M,,*51
06/11/2015	05:08:32.579	$GPGGA,050833,2420.8281,N,08132.0997,W,1,9,1.6,18,M,,M,,*52
06/11/2015	05:08:33.569	$GPGGA,050834,2420.8277,N,08132.1011,W,1,9,1.6,18,M,,M,,*5A
06/11/2015	05:08:34.569	$GPGGA,050835,2420.8275,N,08132.1024,W,1,9,1.6,18,M,,M,,*5F
06/11/2015	05:08:35.598	$GPGGA,050836,2420.8272,N,08132.1038,W,1,10,1.6,18,M,,M,,*6E
06/11/2015	05:08:36.558	$GPGGA,050837,2420.8268,N,08132.1052,W,1,10,1.6,18,M,,M,,*68
06/11/2015	05:08:37.578	$GPGGA,050838,2420.8264,N,08132.1067,W,1,10,1.6,18,M,,M,,*6D
06/11/2015	05:08:38.558	$GPGGA,050839,2420.8261,N,08132.1082,W,1,10,1.6,18,M,,M,,*62
06/11/2015	05:08:39.588	$GPGGA,050840,2420.8257,N,08132.1095,W,1,10,1.6,18,M,,M,,*6F
06/11/2015	05:08:40.556	$GPGGA,050841,2420.8251,N,08132.1109,W,1,10,1.8,18,M,,M,,*62
06/11/2015	05:08:41.578	$GPGGA,050842,2420.8248,N,08132.1124,W,1,10,1.6,18,M,,M,,*68
06/11/2015	05:08:42.547	$GPGGA,050843,2420.8243,N,08132.1138,W,1,10,1.6,18,M,,M,,*6F
06/11/2015	05:08:43.579	$GPGGA,050844,2420.8239,N,08132.1152,W,1,10,1.6,18,M,,M,,*69
06/11/2015	05:08:44.555	$GPGGA,050845,2420.8233,N,08132.1167,W,1,10,1.6,18,M,,M,,*64
06/11/2015	05:08:45.579	$GPGGA,050846,2420.8230,N,08132.1181,W,1,10,1.6,18,M,,M,,*6C
06/11/2015	05:08:46.557	$GPGGA,050847,2420.8225,N,08132.1194,W,1,10,1.6,18,M,,M,,*6D
06/11/2015	05:08:47.579	$GPGGA,050848,2420.8221,N,08132.1208,W,1,10,1.6,18,M,,M,,*60
06/11/2015	05:08:48.548	$GPGGA,050849,2420.8217,N,08132.1222,W,1,10,1.6,18,M,,M,,*6C
06/11/2015	05:08:49.569	$GPGGA,050850,2420.8214,N,08132.1236,W,1,10,1.6,18,M,,M,,*62
06/11/2015	05:08:50.553	$GPGGA,050851,2420.8210,N,08132.1250,W,1,10,1.6,18,M,,M,,*67
06/11/2015	05:08:51.579	$GPGGA,050852,2420.8205,N,08132.1265,W,1,10,1.6,18,M,,M,,*66
06/11/2015	05:08:52.529	$GPGGA,050853,2420.8201,N,08132.1279,W,1,10,1.6,18,M,,M,,*6E
06/11/2015	05:08:53.542	$GPGGA,050854,2420.8196,N,08132.1294,W,1,9,1.7,18,M,,M,,*5E
06/11/2015	05:08:54.528	$GPGGA,050855,2420.8193,N,08132.1308,W,1,9,1.6,18,M,,M,,*5F
06/11/2015	05:08:55.528	$GPGGA,050856,2420.8189,N,08132.1322,W,1,10,1.6,18,M,,M,,*67
06/11/2015	05:08:56.618	$GPGGA,050857,2420.8185,N,08132.1337,W,1,10,1.6,18,M,,M,,*6E
06/11/2015	05:08:57.552	$GPGGA,050858,2420.8181,N,08132.1351,W,1,10,1.6,18,M,,M,,*65
06/11/2015	05:08:58.508	$GPGGA,050859,2420.8176,N,08132.1366,W,1,10,1.6,18,M,,M,,*68
06/11/2015	05:08:59.538	$GPGGA,050900,2420.8172,N,08132.1380,W,1,9,1.6,18,M,,M,,*51
06/11/2015	05:09:00.519	$GPGGA,050901,2420.8169,N,08132.1394,W,1,9,1.6,18,M,,M,,*5F
06/11/2015	05:09:01.519	$GPGGA,050902,2420.8165,N,08132.1409,W,1,9,1.6,18,M,,M,,*53
06/11/2015	05:09:02.499	$GPGGA,050903,2420.8161,N,08132.1423,W,1,9,1.6,18,M,,M,,*5E
06/11/2015	05:09:03.619	$GPGGA,050904,2420.8157,N,08132.1438,W,1,9,1.6,18,M,,M,,*56
06/11/2015	05:09:04.509	$GPGGA,050905,2420.8153,N,08132.1453,W,1,9,1.6,18,M,,M,,*5E
06/11/2015	05:09:05.619	$GPGGA,050906,2420.8150,N,08132.1468,W,1,9,1.6,18,M,,M,,*56
06/11/2015	05:09:06.619	$GPGGA,050907,2420.8147,N,08132.1482,W,1,9,1.8,18,M,,M,,*5B
06/11/2015	05:09:07.609	$GPGGA,050908,2420.8143,N,08132.1496,W,1,9,1.6,18,M,,M,,*5B
06/11/2015	05:09:09.030	$GPGGA,050909,2420.8140,N,08132.1510,W,1,9,1.6,17,M,,M,,*59
06/11/2015	05:09:09.629	$GPGGA,050910,2420.8136,N,08132.1525,W,1,10,1.6,17,M,,M,,*6E
06/11/2015	05:09:10.508	$GPGGA,050911,2420.8132,N,08132.1539,W,1,10,1.6,17,M,,M,,*66
06/11/2015	05:09:11.508	$GPGGA,050912,2420.8128,N,08132.1553,W,1,9,1.6,17,M,,M,,*5A
06/11/2015	05:09:12.578	$GPGGA,050913,2420.8125,N,08132.1568,W,1,9,1.6,17,M,,M,,*5E
06/11/2015	05:09:13.578	$GPGGA,050914,2420.8122,N,08132.1582,W,1,9,1.6,17,M,,M,,*5A
06/11/2015	05:09:14.578	$GPGGA,050915,2420.8120,N,08132.1594,W,1,9,1.6,17,M,,M,,*5E
06/11/2015	05:09:15.598	$GPGGA,050916,2420.8116,N,08132.1608,W,1,10,1.6,17,M,,M,,*66
06/11/2015	05:09:16.578	$GPGGA,050917,2420.8112,N,08132.1622,W,1,10,1.6,17,M,,M,,*6B
06/11/2015	05:09:17.598	$GPGGA,050918,2420.8109,N,08132.1637,W,1,10,1.6,17,M,,M,,*6A
06/11/2015	05:09:18.569	$GPGGA,050919,2420.8105,N,08132.1651,W,1,10,1.6,17,M,,M,,*67
06/11/2015	05:09:19.579	$GPGGA,050920,2420.8100,N,08132.1665,W,1,9,1.6,17,M,,M,,*57
06/11/2015	05:09:20.569	$GPGGA,050921,2420.8098,N,08132.1680,W,1,9,1.6,17,M,,M,,*5D
06/11/2015	05:09:21.589	$GPGGA,050922,2420.8094,N,08132.1694,W,1,9,1.6,17,M,,M,,*57
06/11/2015	05:09:22.559	$GPGGA,050923,2420.8091,N,08132.1709,W,1,9,1.6,17,M,,M,,*56
06/11/2015	05:09:23.579	$GPGGA,050924,2420.8085,N,08132.1723,W,1,9,1.6,17,M,,M,,*5C
06/11/2015	05:09:24.569	$GPGGA,050925,2420.8081,N,08132.1735,W,1,9,1.6,17,M,,M,,*5E
06/11/2015	05:09:25.579	$GPGGA,050926,2420.8078,N,08132.1749,W,1,9,1.6,17,M,,M,,*50
06/11/2015	05:09:26.569	$GPGGA,050927,2420.8075,N,08132.1764,W,1,9,1.6,17,M,,M,,*53
06/11/2015	05:09:27.559	$GPGGA,050928,2420.8070,N,08132.1779,W,1,9,1.6,17,M,,M,,*55
06/11/2015	05:09:28.558	$GPGGA,050929,2420.8067,N,08132.1793,W,1,9,1.6,17,M,,M,,*56
06/11/2015	05:09:29.578	$GPGGA,050930,2420.8065,N,08132.1808,W,1,10,1.6,17,M,,M,,*69
06/11/2015	05:09:30.558	$GPGGA,050931,2420.8062,N,08132.1822,W,1,10,1.6,17,M,,M,,*67
06/11/2015	05:09:31.578	$GPGGA,050932,2420.8058,N,08132.1835,W,1,9,1.6,17,M,,M,,*53
06/11/2015	05:09:32.552	$GPGGA,050933,2420.8057,N,08132.1850,W,1,9,1.6,17,M,,M,,*5E
06/11/2015	05:09:33.540	$GPGGA,050934,2420.8055,N,08132.1862,W,1,9,1.6,17,M,,M,,*5A
06/11/2015	05:09:34.550	$GPGGA,050935,2420.8051,N,08132.1876,W,1,9,1.6,17,M,,M,,*5A
06/11/2015	05:09:35.569	$GPGGA,050936,2420.8047,N,08132.1891,W,1,10,1.6,17,M,,M,,*6F
06/11/2015	05:09:36.529	$GPGGA,050937,2420.8046,N,08132.1907,W,1,10,1.6,17,M,,M,,*61
06/11/2015	05:09:37.559	$GPGGA,050938,2420.8044,N,08132.1920,W,1,10,1.6,17,M,,M,,*69
06/11/2015	05:09:38.549	$GPGGA,050939,2420.8040,N,08132.1931,W,1,10,1.6,17,M,,M,,*6C
06/11/2015	05:09:39.579	$GPGGA,050940,2420.8035,N,08132.1945,W,1,10,1.6,17,M,,M,,*63
06/11/2015	05:09:40.551	$GPGGA,050941,2420.8033,N,08132.1960,W,1,10,1.6,17,M,,M,,*63
06/11/2015	05:09:41.549	$GPGGA,050942,2420.8029,N,08132.1976,W,1,10,1.6,17,M,,M,,*6C
06/11/2015	05:09:42.519	$GPGGA,050943,2420.8026,N,08132.1992,W,1,10,1.6,17,M,,M,,*68
06/11/2015	05:09:43.529	$GPGGA,050944,2420.8022,N,08132.2005,W,1,9,1.6,17,M,,M,,*57
06/11/2015	05:09:44.529	$GPGGA,050945,2420.8020,N,08132.2017,W,1,9,1.6,17,M,,M,,*57
06/11/2015	05:09:45.508	$GPGGA,050946,2420.8017,N,08132.2030,W,1,10,1.6,17,M,,M,,*6D
06/11/2015	05:09:46.528	$GPGGA,050947,2420.8013,N,08132.2045,W,1,10,1.7,17,M,,M,,*6B
06/11/2015	05:09:47.558	$GPGGA,050948,2420.8009,N,08132.2059,W,1,10,1.6,17,M,,M,,*63
06/11/2015	05:09:48.628	$GPGGA,050949,2420.8004,N,08132.2074,W,1,10,1.6,17,M,,M,,*60
06/11/2015	05:09:49.508	$GPGGA,050950,2420.8001,N,08132.2088,W,1,10,1.6,17,M,,M,,*6E
06/11/2015	05:09:50.598	$GPGGA,050951,2420.7999,N,08132.2103,W,1,10,1.6,17,M,,M,,*6A
06/11/2015	05:09:51.528	$GPGGA,050952,2420.7995,N,08132.2115,W,1,10,1.6,17,M,,M,,*62
06/11/2015	05:09:52.518	$GPGGA,050953,2420.7993,N,08132.2126,W,1,10,1.6,17,M,,M,,*65
06/11/2015	05:09:53.519	$GPGGA,050954,2420.7990,N,08132.2139,W,1,10,1.6,17,M,,M,,*6F
06/11/2015	05:09:54.519	$GPGGA,050955,2420.7986,N,08132.2153,W,1,10,1.6,17,M,,M,,*65
06/11/2015	05:09:55.609	$GPGGA,050956,2420.7982,N,08132.2168,W,1,10,1.6,17,M,,M,,*6A
06/11/2015	05:09:56.499	$GPGGA,050957,2420.7979,N,08132.2182,W,1,10,1.6,17,M,,M,,*6B
06/11/2015	05:09:57.599	$GPGGA,050958,2420.7976,N,08132.2197,W,1,10,1.6,17,M,,M,,*6F
06/11/2015	05:09:58.499	$GPGGA,050959,2420.7972,N,08132.2209,W,1,10,1.6,17,M,,M,,*6E
06/11/2015	05:09:59.541	$GPGGA,051000,2420.7969,N,08132.2222,W,1,9,1.6,17,M,,M,,*51
06/11/2015	05:10:00.579	$GPGGA,051001,2420.7966,N,08132.2234,W,1,9,1.6,17,M,,M,,*58
06/11/2015	05:10:01.589	$GPGGA,051002,2420.7963,N,08132.2248,W,1,10,1.6,17,M,,M,,*6D
06/11/2015	05:10:02.579	$GPGGA,051003,2420.7959,N,08132.2262,W,1,10,1.6,17,M,,M,,*6D
06/11/2015	05:10:03.598	$GPGGA,051004,2420.7955,N,08132.2274,W,1,10,1.6,17,M,,M,,*61
06/11/2015	05:10:04.588	$GPGGA,051005,2420.7952,N,08132.2288,W,1,10,1.6,17,M,,M,,*64
06/11/2015	05:10:05.578	$GPGGA,051006,2420.7950,N,08132.2302,W,1,10,1.6,17,M,,M,,*66
06/11/2015	05:10:06.578	$GPGGA,051007,2420.7944,N,08132.2316,W,1,10,1.6,17,M,,M,,*67
06/11/2015	05:10:07.598	$GPGGA,051008,2420.7941,N,08132.2332,W,1,9,1.6,17,M,,M,,*53
06/11/2015	05:10:08.578	$GPGGA,051009,2420.7939,N,08132.2344,W,1,9,1.7,17,M,,M,,*5D
06/11/2015	05:10:09.568	$GPGGA,051010,2420.7933,N,08132.2359,W,1,9,1.6,17,M,,M,,*52
06/11/2015	05:10:10.569	$GPGGA,051011,2420.7929,N,08132.2373,W,1,9,1.6,17,M,,M,,*50
06/11/2015	05:10:11.609	$GPGGA,051012,2420.7928,N,08132.2388,W,1,10,1.6,18,M,,M,,*61
06/11/2015	05:10:12.559	$GPGGA,051013,2420.7924,N,08132.2403,W,1,10,1.6,18,M,,M,,*68
06/11/2015	05:10:13.589	$GPGGA,051014,2420.7919,N,08132.2417,W,1,8,1.7,18,M,,M,,*5C
06/11/2015	05:10:14.559	$GPGGA,051015,2420.7915,N,08132.2431,W,1,8,1.6,18,M,,M,,*54
06/11/2015	05:10:15.589	$GPGGA,051016,2420.7912,N,08132.2444,W,1,10,1.6,18,M,,M,,*6B
06/11/2015	05:10:16.549	$GPGGA,051017,2420.7910,N,08132.2457,W,1,10,1.6,18,M,,M,,*6A
06/11/2015	05:10:17.559	$GPGGA,051018,2420.7904,N,08132.2471,W,1,8,1.8,18,M,,M,,*53
06/11/2015	05:10:18.549	$GPGGA,051019,2420.7900,N,08132.2485,W,1,8,1.6,18,M,,M,,*53
06/11/2015	05:10:19.589	$GPGGA,051020,2420.7898,N,08132.2500,W,1,10,1.6,18,M,,M,,*6C
06/11/2015	05:10:20.547	$GPGGA,051021,2420.7894,N,08132.2514,W,1,10,1.6,18,M,,M,,*64
06/11/2015	05:10:21.568	$GPGGA,051022,2420.7890,N,08132.2527,W,1,10,1.6,18,M,,M,,*63
06/11/2015	05:10:22.552	$GPGGA,051023,2420.7886,N,08132.2541,W,1,10,1.6,18,M,,M,,*65
06/11/2015	05:10:23.568	$GPGGA,051024,2420.7882,N,08132.2554,W,1,9,1.6,18,M,,M,,*5A
06/11/2015	05:10:24.543	$GPGGA,051025,2420.7878,N,08132.2569,W,1,9,1.6,18,M,,M,,*50
06/11/2015	05:10:25.558	$GPGGA,051026,2420.7874,N,08132.2583,W,1,9,1.6,18,M,,M,,*5B
06/11/2015	05:10:26.538	$GPGGA,051027,2420.7871,N,08132.2597,W,1,9,1.6,18,M,,M,,*5A
06/11/2015	05:10:27.543	$GPGGA,051028,2420.7867,N,08132.2610,W,1,9,1.6,18,M,,M,,*5E
06/11/2015	05:10:28.529	$GPGGA,051029,2420.7863,N,08132.2624,W,1,9,1.6,18,M,,M,,*5C
06/11/2015	05:10:29.519	$GPGGA,051030,2420.7860,N,08132.2637,W,1,9,1.6,18,M,,M,,*55
06/11/2015	05:10:30.519	$GPGGA,051031,2420.7856,N,08132.2652,W,1,9,1.6,18,M,,M,,*52
06/11/2015	05:10:31.559	$GPGGA,051032,2420.7852,N,08132.2666,W,1,9,1.6,18,M,,M,,*52
06/11/2015	05:10:32.689	$GPGGA,051033,2420.7849,N,08132.2680,W,1,9,1.6,18,M,,M,,*51
06/11/2015	05:10:33.659	$GPGGA,051034,2420.7845,N,08132.2695,W,1,10,1.6,18,M,,M,,*66
06/11/2015	05:10:34.519	$GPGGA,051035,2420.7841,N,08132.2710,W,1,10,1.6,18,M,,M,,*6F
06/11/2015	05:10:35.541	$GPGGA,051036,2420.7838,N,08132.2724,W,1,10,1.6,18,M,,M,,*65
06/11/2015	05:10:36.509	$GPGGA,051037,2420.7833,N,08132.2738,W,1,10,1.6,18,M,,M,,*62
06/11/2015	05:10:37.529	$GPGGA,051038,2420.7829,N,08132.2753,W,1,9,1.6,18,M,,M,,*53
06/11/2015	05:10:38.509	$GPGGA,051039,2420.7827,N,08132.2765,W,1,9,1.6,18,M,,M,,*59
06/11/2015	05:10:39.558	$GPGGA,051040,2420.7824,N,08132.2780,W,1,10,1.6,18,M,,M,,*67
06/11/2015	05:10:40.599	$GPGGA,051041,2420.7820,N,08132.2796,W,1,10,1.6,18,M,,M,,*65
06/11/2015	05:10:41.658	$GPGGA,051042,2420.7816,N,08132.2811,W,1,10,1.6,18,M,,M,,*63
06/11/2015	05:10:42.668	$GPGGA,051043,2420.7813,N,08132.2827,W,1,10,1.6,18,M,,M,,*62
06/11/2015	05:10:43.688	$GPGGA,051044,2420.7809,N,08132.2841,W,1,9,1.6,18,M,,M,,*56
06/11/2015	05:10:44.598	$GPGGA,051045,2420.7805,N,08132.2854,W,1,9,1.6,18,M,,M,,*5F
06/11/2015	05:10:45.619	$GPGGA,051046,2420.7802,N,08132.2868,W,1,10,1.6,18,M,,M,,*6C
06/11/2015	05:10:46.589	$GPGGA,051047,2420.7800,N,08132.2883,W,1,10,1.6,18,M,,M,,*6A
06/11/2015	05:10:47.599	$GPGGA,051048,2420.7796,N,08132.2898,W,1,9,1.6,18,M,,M,,*57
06/11/2015	05:10:48.659	$GPGGA,051049,2420.7793,N,08132.2915,W,1,9,1.6,18,M,,M,,*57
06/11/2015	05:10:49.629	$GPGGA,051050,2420.7788,N,08132.2931,W,1,9,1.6,18,M,,M,,*53
06/11/2015	05:10:50.489	$GPGGA,051051,2420.7785,N,08132.2946,W,1,9,1.6,18,M,,M,,*5F
06/11/2015	05:10:51.679	$GPGGA,051052,2420.7782,N,08132.2960,W,1,9,1.6,18,M,,M,,*5F
06/11/2015	05:10:52.499	$GPGGA,051053,2420.7780,N,08132.2975,W,1,9,1.6,18,M,,M,,*58
06/11/2015	05:10:53.609	$GPGGA,051054,2420.7775,N,08132.2988,W,1,8,1.6,18,M,,M,,*56
06/11/2015	05:10:54.569	$GPGGA,051055,2420.7771,N,08132.3002,W,1,8,1.6,18,M,,M,,*59
06/11/2015	05:10:55.658	$GPGGA,051056,2420.7768,N,08132.3018,W,1,10,1.6,18,M,,M,,*60
06/11/2015	05:10:56.649	$GPGGA,051057,2420.7764,N,08132.3033,W,1,10,1.6,18,M,,M,,*64
06/11/2015	05:10:57.608	$GPGGA,051058,2420.7760,N,08132.3049,W,1,9,1.6,18,M,,M,,*5A
06/11/2015	05:10:58.638	$GPGGA,051059,2420.7756,N,08132.3063,W,1,9,1.6,18,M,,M,,*56
06/11/2015	05:10:59.628	$GPGGA,051100,2420.7753,N,08132.3076,W,1,9,1.6,18,M,,M,,*5A
06/11/2015	05:11:00.641	$GPGGA,051101,2420.7751,N,08132.3089,W,1,9,1.6,18,M,,M,,*59
06/11/2015	05:11:03.084	$GPGGA,051103,2420.7742,N,08132.3119,W,1,9,1.6,18,M,,M,,*51
06/11/2015	05:11:03.619	$GPGGA,051104,2420.7739,N,08132.3134,W,1,10,1.6,18,M,,M,,*6D
06/11/2015	05:11:04.559	$GPGGA,051105,2420.7737,N,08132.3147,W,1,10,1.7,18,M,,M,,*67
06/11/2015	05:11:05.549	$GPGGA,051106,2420.7733,N,08132.3161,W,1,9,1.6,18,M,,M,,*5D
06/11/2015	05:11:06.599	$GPGGA,051107,2420.7729,N,08132.3173,W,1,9,1.6,18,M,,M,,*54
06/11/2015	05:11:07.649	$GPGGA,051108,2420.7726,N,08132.3187,W,1,9,1.6,18,M,,M,,*5F
06/11/2015	05:11:08.619	$GPGGA,051109,2420.7722,N,08132.3201,W,1,9,1.6,18,M,,M,,*57
06/11/2015	05:11:09.599	$GPGGA,051110,2420.7721,N,08132.3212,W,1,9,1.6,18,M,,M,,*5E
06/11/2015	05:11:10.540	$GPGGA,051111,2420.7717,N,08132.3226,W,1,9,1.6,18,M,,M,,*5D
06/11/2015	05:11:11.629	$GPGGA,051112,2420.7712,N,08132.3240,W,1,9,1.6,18,M,,M,,*5B
06/11/2015	05:11:12.529	$GPGGA,051113,2420.7708,N,08132.3255,W,1,9,1.6,18,M,,M,,*55
06/11/2015	05:11:13.598	$GPGGA,051114,2420.7705,N,08132.3270,W,1,8,1.6,18,M,,M,,*59
06/11/2015	05:11:14.598	$GPGGA,051115,2420.7701,N,08132.3284,W,1,8,1.6,18,M,,M,,*57
06/11/2015	05:11:15.868	$GPGGA,051116,2420.7697,N,08132.3298,W,1,10,1.6,18,M,,M,,*6E
06/11/2015	05:11:16.588	$GPGGA,051117,2420.7693,N,08132.3313,W,1,10,1.6,18,M,,M,,*69
06/11/2015	05:11:17.578	$GPGGA,051118,2420.7690,N,08132.3327,W,1,9,1.6,18,M,,M,,*5A
06/11/2015	05:11:18.518	$GPGGA,051119,2420.7686,N,08132.3340,W,1,9,1.6,18,M,,M,,*5D
06/11/2015	05:11:19.608	$GPGGA,051120,2420.7680,N,08132.3354,W,1,9,1.6,18,M,,M,,*54
06/11/2015	05:11:20.579	$GPGGA,051121,2420.7679,N,08132.3370,W,1,9,1.6,18,M,,M,,*55
06/11/2015	05:11:21.509	$GPGGA,051122,2420.7673,N,08132.3383,W,1,9,1.6,18,M,,M,,*50
06/11/2015	05:11:22.579	$GPGGA,051123,2420.7669,N,08132.3397,W,1,9,1.6,18,M,,M,,*5F
06/11/2015	05:11:23.579	$GPGGA,051124,2420.7665,N,08132.3411,W,1,9,1.6,18,M,,M,,*5D
06/11/2015	05:11:24.569	$GPGGA,051125,2420.7662,N,08132.3425,W,1,9,1.6,18,M,,M,,*5C
06/11/2015	05:11:25.549	$GPGGA,051126,2420.7657,N,08132.3440,W,1,9,1.6,18,M,,M,,*5A
06/11/2015	05:11:26.599	$GPGGA,051127,2420.7654,N,08132.3454,W,1,9,1.6,18,M,,M,,*5D
06/11/2015	05:11:27.642	$GPGGA,051128,2420.7650,N,08132.3469,W,1,10,1.6,18,M,,M,,*60
06/11/2015	05:11:28.609	$GPGGA,051129,2420.7646,N,08132.3484,W,1,10,1.6,18,M,,M,,*65
06/11/2015	05:11:29.529	$GPGGA,051130,2420.7641,N,08132.3498,W,1,10,1.6,18,M,,M,,*67
06/11/2015	05:11:30.558	$GPGGA,051131,2420.7639,N,08132.3513,W,1,10,1.6,18,M,,M,,*6B
06/11/2015	05:11:31.568	$GPGGA,051132,2420.7634,N,08132.3529,W,1,9,1.6,18,M,,M,,*54
06/11/2015	05:11:32.608	$GPGGA,051133,2420.7629,N,08132.3544,W,1,9,1.6,18,M,,M,,*52
06/11/2015	05:11:33.619	$GPGGA,051134,2420.7626,N,08132.3559,W,1,9,1.6,18,M,,M,,*56
06/11/2015	05:11:34.558	$GPGGA,051135,2420.7625,N,08132.3574,W,1,9,1.6,18,M,,M,,*5B
06/11/2015	05:11:35.598	$GPGGA,051136,2420.7621,N,08132.3588,W,1,10,1.6,18,M,,M,,*67
06/11/2015	05:11:36.598	$GPGGA,051137,2420.7617,N,08132.3602,W,1,10,1.6,18,M,,M,,*62
06/11/2015	05:11:37.578	$GPGGA,051138,2420.7616,N,08132.3616,W,1,10,1.6,18,M,,M,,*69
06/11/2015	05:11:38.589	$GPGGA,051139,2420.7614,N,08132.3631,W,1,10,1.7,18,M,,M,,*6E
06/11/2015	05:11:39.589	$GPGGA,051140,2420.7614,N,08132.3647,W,1,9,1.6,18,M,,M,,*58
06/11/2015	05:11:40.579	$GPGGA,051141,2420.7612,N,08132.3663,W,1,9,1.6,18,M,,M,,*59
06/11/2015	05:11:42.579	$GPGGA,051142,2420.7611,N,08132.3678,W,1,10,1.6,18,M,,M,,*6B
06/11/2015	05:11:42.609	$GPGGA,051143,2420.7610,N,08132.3693,W,1,10,1.6,18,M,,M,,*6E
06/11/2015	05:11:43.609	$GPGGA,051144,2420.7607,N,08132.3707,W,1,9,1.6,18,M,,M,,*5B
06/11/2015	05:11:44.579	$GPGGA,051145,2420.7603,N,08132.3722,W,1,9,1.6,18,M,,M,,*59
06/11/2015	05:11:45.579	$GPGGA,051146,2420.7601,N,08132.3737,W,1,10,1.6,18,M,,M,,*64
06/11/2015	05:11:46.599	$GPGGA,051147,2420.7599,N,08132.3754,W,1,10,1.6,18,M,,M,,*62
06/11/2015	05:11:47.579	$GPGGA,051148,2420.7596,N,08132.3768,W,1,9,1.6,19,M,,M,,*54
