Software Version Number: 1	Data File Format Number: 1	Build Version Number: 1	Error Count Since VI Started: 1	Manufacturer: Raytheon	 Model Number: RayMarine 120	 S/N: 	 Cal Date: 	 Wind Direction Offset: 0.00	 Slope (M)1: 0.00	 Offset (B)1: 0.00	 Slope (M)2: 0.00	 Offset (B)2: 0.00	 Slope (M)3: 0.00	 Offset (B)3: 0.00	 Slope (M)4: 0.00	 Offset (B)4: 0.00	 Slope (M)5: 0.00	 Offset (B)5: 0.00	 Slope (M)6: 0.00	 Offset (B)6: 0.00
Computer Date	Computer Time	GGA String
06/19/2015	19:00:00.569	$GPGGA,190001,2515.1056,N,07914.4247,W,1,9,1.9,20,M,,M,,*55
06/19/2015	19:00:01.569	$GPGGA,190002,2515.1059,N,07914.4241,W,1,9,1.9,20,M,,M,,*5F
06/19/2015	19:00:02.568	$GPGGA,190003,2515.1061,N,07914.4234,W,1,9,1.9,20,M,,M,,*57
06/19/2015	19:00:03.568	$GPGGA,190004,2515.1066,N,07914.4228,W,1,9,1.9,20,M,,M,,*5A
06/19/2015	19:00:04.542	$GPGGA,190005,2515.1068,N,07914.4221,W,1,9,1.9,20,M,,M,,*5C
06/19/2015	19:00:05.578	$GPGGA,190006,2515.1071,N,07914.4215,W,1,9,1.9,19,M,,M,,*5A
06/19/2015	19:00:06.545	$GPGGA,190007,2515.1075,N,07914.4208,W,1,9,1.9,19,M,,M,,*53
06/19/2015	19:00:07.578	$GPGGA,190008,2515.1078,N,07914.4202,W,1,9,1.9,19,M,,M,,*5B
06/19/2015	19:00:08.538	$GPGGA,190009,2515.1082,N,07914.4196,W,1,9,1.9,19,M,,M,,*51
06/19/2015	19:00:09.568	$GPGGA,190010,2515.1086,N,07914.4190,W,1,9,1.9,19,M,,M,,*5B
06/19/2015	19:00:10.553	$GPGGA,190011,2515.1091,N,07914.4183,W,1,9,1.9,19,M,,M,,*5E
06/19/2015	19:00:11.578	$GPGGA,190012,2515.1095,N,07914.4177,W,1,8,2.8,19,M,,M,,*51
06/19/2015	19:00:12.540	$GPGGA,190013,2515.1097,N,07914.4171,W,1,8,1.9,19,M,,M,,*56
06/19/2015	19:00:13.554	$GPGGA,190014,2515.1102,N,07914.4165,W,1,9,1.9,19,M,,M,,*58
06/19/2015	19:00:14.538	$GPGGA,190015,2515.1106,N,07914.4160,W,1,9,1.9,19,M,,M,,*58
06/19/2015	19:00:15.558	$GPGGA,190016,2515.1110,N,07914.4154,W,1,9,1.9,19,M,,M,,*5B
06/19/2015	19:00:16.519	$GPGGA,190017,2515.1114,N,07914.4148,W,1,9,1.9,19,M,,M,,*53
06/19/2015	19:00:17.559	$GPGGA,190018,2515.1118,N,07914.4142,W,1,9,1.9,19,M,,M,,*5A
06/19/2015	19:00:18.529	$GPGGA,190019,2515.1122,N,07914.4137,W,1,9,1.9,18,M,,M,,*51
06/19/2015	19:00:19.559	$GPGGA,190020,2515.1126,N,07914.4131,W,1,8,2.0,18,M,,M,,*52
06/19/2015	19:00:20.518	$GPGGA,190021,2515.1131,N,07914.4125,W,1,8,2.0,18,M,,M,,*50
06/19/2015	19:00:21.548	$GPGGA,190022,2515.1136,N,07914.4119,W,1,8,2.0,18,M,,M,,*5B
06/19/2015	19:00:22.508	$GPGGA,190023,2515.1140,N,07914.4113,W,1,8,2.0,18,M,,M,,*51
06/19/2015	19:00:23.528	$GPGGA,190024,2515.1144,N,07914.4107,W,1,8,2.0,18,M,,M,,*57
06/19/2015	19:00:24.508	$GPGGA,190025,2515.1150,N,07914.4100,W,1,8,1.9,18,M,,M,,*5E
06/19/2015	19:00:25.498	$GPGGA,190026,2515.1154,N,07914.4094,W,1,9,1.9,18,M,,M,,*54
06/19/2015	19:00:26.508	$GPGGA,190027,2515.1160,N,07914.4088,W,1,9,1.9,18,M,,M,,*5F
06/19/2015	19:00:27.545	$GPGGA,190028,2515.1164,N,07914.4083,W,1,9,1.9,18,M,,M,,*5F
06/19/2015	19:00:28.518	$GPGGA,190029,2515.1168,N,07914.4077,W,1,9,1.9,18,M,,M,,*59
06/19/2015	19:00:29.518	$GPGGA,190030,2515.1172,N,07914.4071,W,1,9,1.9,18,M,,M,,*5C
06/19/2015	19:00:30.498	$GPGGA,190031,2515.1179,N,07914.4066,W,1,9,1.9,18,M,,M,,*50
06/19/2015	19:00:31.542	$GPGGA,190032,2515.1183,N,07914.4061,W,1,9,1.9,18,M,,M,,*51
06/19/2015	19:00:32.488	$GPGGA,190033,2515.1189,N,07914.4056,W,1,9,1.9,18,M,,M,,*5E
06/19/2015	19:00:33.488	$GPGGA,190034,2515.1194,N,07914.4050,W,1,9,1.9,18,M,,M,,*53
06/19/2015	19:00:34.509	$GPGGA,190035,2515.1198,N,07914.4045,W,1,9,1.9,18,M,,M,,*5A
06/19/2015	19:00:35.519	$GPGGA,190036,2515.1204,N,07914.4041,W,1,9,1.9,18,M,,M,,*5B
06/19/2015	19:00:36.479	$GPGGA,190037,2515.1208,N,07914.4037,W,1,9,1.9,18,M,,M,,*57
06/19/2015	19:00:37.478	$GPGGA,190038,2515.1214,N,07914.4031,W,1,9,1.9,18,M,,M,,*53
06/19/2015	19:00:38.588	$GPGGA,190039,2515.1219,N,07914.4026,W,1,9,1.9,18,M,,M,,*59
06/19/2015	19:00:39.488	$GPGGA,190040,2515.1225,N,07914.4022,W,1,9,1.9,18,M,,M,,*5C
06/19/2015	19:00:40.478	$GPGGA,190041,2515.1230,N,07914.4018,W,1,9,1.9,18,M,,M,,*50
06/19/2015	19:00:41.478	$GPGGA,190042,2515.1234,N,07914.4014,W,1,8,2.0,18,M,,M,,*50
06/19/2015	19:00:42.488	$GPGGA,190043,2515.1240,N,07914.4010,W,1,8,1.9,18,M,,M,,*5C
06/19/2015	19:00:43.578	$GPGGA,190044,2515.1244,N,07914.4004,W,1,9,1.9,18,M,,M,,*5B
06/19/2015	19:00:44.578	$GPGGA,190045,2515.1248,N,07914.3999,W,1,9,2.0,18,M,,M,,*56
06/19/2015	19:00:45.568	$GPGGA,190046,2515.1254,N,07914.3994,W,1,9,1.9,18,M,,M,,*5F
06/19/2015	19:00:46.578	$GPGGA,190047,2515.1259,N,07914.3988,W,1,9,1.9,18,M,,M,,*5E
06/19/2015	19:00:47.598	$GPGGA,190048,2515.1263,N,07914.3983,W,1,9,1.9,18,M,,M,,*53
06/19/2015	19:00:48.568	$GPGGA,190049,2515.1269,N,07914.3978,W,1,9,1.9,18,M,,M,,*5C
06/19/2015	19:00:49.578	$GPGGA,190050,2515.1273,N,07914.3973,W,1,9,1.9,18,M,,M,,*54
06/19/2015	19:00:50.568	$GPGGA,190051,2515.1279,N,07914.3968,W,1,9,1.9,18,M,,M,,*55
06/19/2015	19:00:51.569	$GPGGA,190052,2515.1284,N,07914.3963,W,1,9,1.9,18,M,,M,,*5F
06/19/2015	19:00:52.559	$GPGGA,190053,2515.1288,N,07914.3959,W,1,9,1.9,19,M,,M,,*5A
06/19/2015	19:00:53.569	$GPGGA,190054,2515.1295,N,07914.3954,W,1,9,1.9,19,M,,M,,*5C
06/19/2015	19:00:54.547	$GPGGA,190055,2515.1301,N,07914.3950,W,1,9,1.9,19,M,,M,,*55
06/19/2015	19:00:55.578	$GPGGA,190056,2515.1306,N,07914.3946,W,1,9,1.9,19,M,,M,,*56
06/19/2015	19:00:56.568	$GPGGA,190057,2515.1312,N,07914.3942,W,1,9,1.9,19,M,,M,,*56
06/19/2015	19:00:57.568	$GPGGA,190058,2515.1317,N,07914.3937,W,1,9,1.9,19,M,,M,,*5E
06/19/2015	19:00:58.548	$GPGGA,190059,2515.1323,N,07914.3934,W,1,9,1.9,19,M,,M,,*5B
06/19/2015	19:00:59.578	$GPGGA,190100,2515.1328,N,07914.3929,W,1,9,1.9,19,M,,M,,*51
06/19/2015	19:01:00.541	$GPGGA,190101,2515.1335,N,07914.3925,W,1,9,1.9,19,M,,M,,*50
06/19/2015	19:01:01.551	$GPGGA,190102,2515.1339,N,07914.3921,W,1,9,1.9,19,M,,M,,*5B
06/19/2015	19:01:02.542	$GPGGA,190103,2515.1346,N,07914.3918,W,1,9,1.9,19,M,,M,,*58
06/19/2015	19:01:03.539	$GPGGA,190104,2515.1352,N,07914.3915,W,1,9,1.9,19,M,,M,,*57
06/19/2015	19:01:04.528	$GPGGA,190105,2515.1357,N,07914.3911,W,1,9,1.9,19,M,,M,,*57
06/19/2015	19:01:05.558	$GPGGA,190106,2515.1364,N,07914.3907,W,1,9,1.9,19,M,,M,,*53
06/19/2015	19:01:06.528	$GPGGA,190107,2515.1371,N,07914.3904,W,1,9,1.9,19,M,,M,,*55
06/19/2015	19:01:07.558	$GPGGA,190108,2515.1377,N,07914.3900,W,1,9,1.9,19,M,,M,,*58
06/19/2015	19:01:08.519	$GPGGA,190109,2515.1382,N,07914.3897,W,1,9,1.9,19,M,,M,,*5C
06/19/2015	19:01:09.819	$GPGGA,190110,2515.1388,N,07914.3895,W,1,9,1.9,19,M,,M,,*5C
06/19/2015	19:01:10.519	$GPGGA,190111,2515.1393,N,07914.3892,W,1,9,1.9,19,M,,M,,*50
06/19/2015	19:01:11.569	$GPGGA,190112,2515.1400,N,07914.3888,W,1,9,1.9,19,M,,M,,*55
06/19/2015	19:01:12.518	$GPGGA,190113,2515.1407,N,07914.3886,W,1,9,2.2,19,M,,M,,*55
06/19/2015	19:01:13.508	$GPGGA,190114,2515.1418,N,07914.3882,W,1,8,2.2,19,M,,M,,*59
06/19/2015	19:01:14.508	$GPGGA,190115,2515.1425,N,07914.3879,W,1,8,2.0,19,M,,M,,*50
06/19/2015	19:01:15.528	$GPGGA,190116,2515.1432,N,07914.3878,W,1,9,1.9,19,M,,M,,*5F
06/19/2015	19:01:16.508	$GPGGA,190117,2515.1440,N,07914.3874,W,1,9,1.9,20,M,,M,,*5D
06/19/2015	19:01:17.541	$GPGGA,190118,2515.1447,N,07914.3872,W,1,8,2.0,20,M,,M,,*58
06/19/2015	19:01:18.508	$GPGGA,190119,2515.1454,N,07914.3870,W,1,8,1.9,20,M,,M,,*53
06/19/2015	19:01:19.528	$GPGGA,190120,2515.1460,N,07914.3868,W,1,9,1.9,20,M,,M,,*56
06/19/2015	19:01:20.508	$GPGGA,190121,2515.1467,N,07914.3865,W,1,9,1.9,20,M,,M,,*5D
06/19/2015	19:01:21.488	$GPGGA,190122,2515.1474,N,07914.3863,W,1,9,1.9,20,M,,M,,*5A
06/19/2015	19:01:22.508	$GPGGA,190123,2515.1480,N,07914.3860,W,1,9,1.9,20,M,,M,,*53
06/19/2015	19:01:23.628	$GPGGA,190124,2515.1487,N,07914.3858,W,1,8,2.0,20,M,,M,,*53
06/19/2015	19:01:24.498	$GPGGA,190125,2515.1494,N,07914.3856,W,1,8,1.9,20,M,,M,,*54
06/19/2015	19:01:25.608	$GPGGA,190126,2515.1501,N,07914.3853,W,1,9,1.9,20,M,,M,,*5E
06/19/2015	19:01:26.599	$GPGGA,190127,2515.1508,N,07914.3851,W,1,9,1.9,20,M,,M,,*54
06/19/2015	19:01:27.509	$GPGGA,190128,2515.1515,N,07914.3848,W,1,9,1.9,20,M,,M,,*5F
06/19/2015	19:01:28.579	$GPGGA,190129,2515.1522,N,07914.3845,W,1,9,1.9,20,M,,M,,*57
06/19/2015	19:01:29.479	$GPGGA,190130,2515.1530,N,07914.3842,W,1,8,2.0,20,M,,M,,*50
06/19/2015	19:01:30.478	$GPGGA,190131,2515.1537,N,07914.3839,W,1,8,1.9,20,M,,M,,*50
06/19/2015	19:01:31.619	$GPGGA,190132,2515.1544,N,07914.3836,W,1,9,1.9,20,M,,M,,*59
06/19/2015	19:01:32.578	$GPGGA,190133,2515.1555,N,07914.3833,W,1,9,2.2,20,M,,M,,*55
06/19/2015	19:01:33.588	$GPGGA,190134,2515.1565,N,07914.3832,W,1,9,1.9,21,M,,M,,*59
06/19/2015	19:01:34.568	$GPGGA,190135,2515.1573,N,07914.3830,W,1,9,1.9,21,M,,M,,*5D
06/19/2015	19:01:35.578	$GPGGA,190136,2515.1581,N,07914.3827,W,1,9,1.9,21,M,,M,,*55
06/19/2015	19:01:36.568	$GPGGA,190137,2515.1588,N,07914.3825,W,1,9,1.9,21,M,,M,,*5F
06/19/2015	19:01:37.558	$GPGGA,190138,2515.1594,N,07914.3823,W,1,9,1.9,21,M,,M,,*5B
06/19/2015	19:01:38.578	$GPGGA,190139,2515.1601,N,07914.3821,W,1,9,1.9,21,M,,M,,*57
06/19/2015	19:01:39.568	$GPGGA,190140,2515.1606,N,07914.3819,W,1,9,1.9,21,M,,M,,*55
06/19/2015	19:01:40.568	$GPGGA,190141,2515.1613,N,07914.3818,W,1,9,1.9,21,M,,M,,*51
06/19/2015	19:01:41.568	$GPGGA,190142,2515.1620,N,07914.3816,W,1,9,1.9,21,M,,M,,*5C
06/19/2015	19:01:42.550	$GPGGA,190143,2515.1628,N,07914.3814,W,1,9,1.9,21,M,,M,,*57
06/19/2015	19:01:43.579	$GPGGA,190144,2515.1633,N,07914.3812,W,1,9,1.9,21,M,,M,,*5C
06/19/2015	19:01:44.549	$GPGGA,190145,2515.1639,N,07914.3810,W,1,9,2.2,21,M,,M,,*5D
06/19/2015	19:01:45.559	$GPGGA,190146,2515.1646,N,07914.3809,W,1,9,1.9,21,M,,M,,*56
06/19/2015	19:01:46.549	$GPGGA,190147,2515.1652,N,07914.3806,W,1,9,1.9,21,M,,M,,*5D
06/19/2015	19:01:47.578	$GPGGA,190148,2515.1657,N,07914.3804,W,1,9,1.9,21,M,,M,,*55
06/19/2015	19:01:48.541	$GPGGA,190149,2515.1664,N,07914.3803,W,1,9,1.9,21,M,,M,,*53
06/19/2015	19:01:49.528	$GPGGA,190150,2515.1671,N,07914.3801,W,1,9,1.9,21,M,,M,,*5D
06/19/2015	19:01:50.539	$GPGGA,190151,2515.1678,N,07914.3799,W,1,9,1.9,21,M,,M,,*5B
06/19/2015	19:01:51.568	$GPGGA,190152,2515.1685,N,07914.3798,W,1,9,1.9,21,M,,M,,*5B
06/19/2015	19:01:52.528	$GPGGA,190153,2515.1693,N,07914.3796,W,1,9,1.9,21,M,,M,,*53
06/19/2015	19:01:53.528	$GPGGA,190154,2515.1700,N,07914.3793,W,1,8,2.0,21,M,,M,,*51
06/19/2015	19:01:54.528	$GPGGA,190155,2515.1707,N,07914.3791,W,1,8,1.9,21,M,,M,,*5F
06/19/2015	19:01:55.568	$GPGGA,190156,2515.1714,N,07914.3789,W,1,9,1.9,21,M,,M,,*56
06/19/2015	19:01:56.528	$GPGGA,190157,2515.1721,N,07914.3786,W,1,9,1.9,21,M,,M,,*5E
06/19/2015	19:01:57.518	$GPGGA,190158,2515.1729,N,07914.3784,W,1,9,1.9,21,M,,M,,*5B
06/19/2015	19:01:58.528	$GPGGA,190159,2515.1738,N,07914.3782,W,1,9,1.9,21,M,,M,,*5C
06/19/2015	19:01:59.551	$GPGGA,190200,2515.1745,N,07914.3779,W,1,9,1.9,21,M,,M,,*5D
06/19/2015	19:02:00.508	$GPGGA,190201,2515.1753,N,07914.3777,W,1,9,1.9,21,M,,M,,*55
06/19/2015	19:02:01.548	$GPGGA,190202,2515.1760,N,07914.3775,W,1,9,1.9,21,M,,M,,*54
06/19/2015	19:02:02.509	$GPGGA,190203,2515.1765,N,07914.3773,W,1,9,1.9,21,M,,M,,*56
06/19/2015	19:02:03.529	$GPGGA,190204,2515.1772,N,07914.3772,W,1,9,1.9,21,M,,M,,*56
06/19/2015	19:02:04.519	$GPGGA,190205,2515.1779,N,07914.3769,W,1,9,1.9,21,M,,M,,*56
06/19/2015	19:02:05.628	$GPGGA,190206,2515.1786,N,07914.3767,W,1,9,1.9,21,M,,M,,*5B
06/19/2015	19:02:06.508	$GPGGA,190207,2515.1794,N,07914.3766,W,1,9,1.9,21,M,,M,,*58
06/19/2015	19:02:07.542	$GPGGA,190208,2515.1801,N,07914.3764,W,1,9,1.9,21,M,,M,,*56
06/19/2015	19:02:08.598	$GPGGA,190209,2515.1808,N,07914.3762,W,1,9,1.9,21,M,,M,,*58
06/19/2015	19:02:09.498	$GPGGA,190210,2515.1815,N,07914.3760,W,1,9,1.9,21,M,,M,,*5E
06/19/2015	19:02:10.488	$GPGGA,190211,2515.1821,N,07914.3759,W,1,9,1.9,21,M,,M,,*52
06/19/2015	19:02:11.508	$GPGGA,190212,2515.1826,N,07914.3756,W,1,8,2.0,21,M,,M,,*52
06/19/2015	19:02:12.508	$GPGGA,190213,2515.1833,N,07914.3754,W,1,8,1.9,21,M,,M,,*5F
06/19/2015	19:02:13.608	$GPGGA,190214,2515.1840,N,07914.3752,W,1,9,2.0,21,M,,M,,*51
06/19/2015	19:02:14.488	$GPGGA,190215,2515.1846,N,07914.3750,W,1,9,2.0,21,M,,M,,*54
06/19/2015	19:02:15.518	$GPGGA,190216,2515.1852,N,07914.3748,W,1,9,1.9,21,M,,M,,*51
06/19/2015	19:02:16.478	$GPGGA,190217,2515.1859,N,07914.3746,W,1,9,1.9,21,M,,M,,*55
06/19/2015	19:02:17.478	$GPGGA,190218,2515.1866,N,07914.3743,W,1,9,1.9,20,M,,M,,*52
06/19/2015	19:02:18.579	$GPGGA,190219,2515.1873,N,07914.3740,W,1,9,1.9,20,M,,M,,*54
06/19/2015	19:02:19.489	$GPGGA,190220,2515.1880,N,07914.3738,W,1,9,1.9,20,M,,M,,*5D
06/19/2015	19:02:20.579	$GPGGA,190221,2515.1886,N,07914.3735,W,1,9,1.9,20,M,,M,,*57
06/19/2015	19:02:21.599	$GPGGA,190222,2515.1893,N,07914.3732,W,1,9,1.9,20,M,,M,,*57
06/19/2015	19:02:22.568	$GPGGA,190223,2515.1898,N,07914.3729,W,1,9,2.2,20,M,,M,,*5F
06/19/2015	19:02:23.618	$GPGGA,190224,2515.1906,N,07914.3727,W,1,8,1.9,20,M,,M,,*59
06/19/2015	19:02:24.568	$GPGGA,190225,2515.1913,N,07914.3725,W,1,8,1.9,20,M,,M,,*5E
06/19/2015	19:02:25.578	$GPGGA,190226,2515.1920,N,07914.3721,W,1,9,1.9,21,M,,M,,*59
06/19/2015	19:02:26.568	$GPGGA,190227,2515.1927,N,07914.3719,W,1,9,1.9,21,M,,M,,*54
06/19/2015	19:02:27.588	$GPGGA,190228,2515.1933,N,07914.3717,W,1,9,1.9,21,M,,M,,*50
06/19/2015	19:02:28.554	$GPGGA,190229,2515.1938,N,07914.3714,W,1,9,1.9,21,M,,M,,*59
06/19/2015	19:02:29.578	$GPGGA,190230,2515.1946,N,07914.3712,W,1,9,1.9,21,M,,M,,*5E
06/19/2015	19:02:30.555	$GPGGA,190231,2515.1953,N,07914.3709,W,1,9,1.9,21,M,,M,,*51
06/19/2015	19:02:31.588	$GPGGA,190232,2515.1959,N,07914.3706,W,1,9,1.9,21,M,,M,,*57
06/19/2015	19:02:32.568	$GPGGA,190233,2515.1966,N,07914.3704,W,1,9,1.9,21,M,,M,,*58
06/19/2015	19:02:33.539	$GPGGA,190234,2515.1971,N,07914.3701,W,1,9,1.9,21,M,,M,,*5C
06/19/2015	19:02:34.550	$GPGGA,190235,2515.1978,N,07914.3698,W,1,9,1.9,21,M,,M,,*55
06/19/2015	19:02:35.588	$GPGGA,190236,2515.1985,N,07914.3695,W,1,9,1.9,21,M,,M,,*59
06/19/2015	19:02:36.545	$GPGGA,190237,2515.1991,N,07914.3692,W,1,9,1.9,21,M,,M,,*5A
06/19/2015	19:02:37.569	$GPGGA,190238,2515.1998,N,07914.3689,W,1,9,1.9,21,M,,M,,*56
06/19/2015	19:02:38.560	$GPGGA,190239,2515.2003,N,07914.3686,W,1,9,1.9,21,M,,M,,*50
06/19/2015	19:02:39.589	$GPGGA,190240,2515.2010,N,07914.3683,W,1,9,1.9,21,M,,M,,*59
06/19/2015	19:02:40.538	$GPGGA,190241,2515.2017,N,07914.3680,W,1,9,1.9,21,M,,M,,*5C
06/19/2015	19:02:41.544	$GPGGA,190242,2515.2023,N,07914.3677,W,1,9,1.9,21,M,,M,,*50
06/19/2015	19:02:42.528	$GPGGA,190243,2515.2029,N,07914.3674,W,1,9,2.2,21,M,,M,,*50
06/19/2015	19:02:43.578	$GPGGA,190244,2515.2036,N,07914.3672,W,1,8,2.2,21,M,,M,,*5E
06/19/2015	19:02:44.528	$GPGGA,190245,2515.2040,N,07914.3668,W,1,8,2.2,21,M,,M,,*55
06/19/2015	19:02:45.538	$GPGGA,190246,2515.2047,N,07914.3666,W,1,8,1.9,21,M,,M,,*57
06/19/2015	19:02:46.518	$GPGGA,190247,2515.2054,N,07914.3663,W,1,8,1.9,21,M,,M,,*51
06/19/2015	19:02:47.598	$GPGGA,190248,2515.2061,N,07914.3660,W,1,9,1.9,21,M,,M,,*5A
06/19/2015	19:02:48.518	$GPGGA,190249,2515.2068,N,07914.3658,W,1,9,1.9,21,M,,M,,*59
06/19/2015	19:02:49.528	$GPGGA,190250,2515.2075,N,07914.3656,W,1,9,1.9,21,M,,M,,*53
06/19/2015	19:02:50.540	$GPGGA,190251,2515.2082,N,07914.3653,W,1,9,1.9,21,M,,M,,*5F
06/19/2015	19:02:52.018	$GPGGA,190252,2515.2087,N,07914.3651,W,1,9,1.9,21,M,,M,,*5B
06/19/2015	19:02:52.518	$GPGGA,190253,2515.2094,N,07914.3648,W,1,9,1.9,21,M,,M,,*50
06/19/2015	19:02:53.499	$GPGGA,190254,2515.2101,N,07914.3645,W,1,9,1.9,21,M,,M,,*57
06/19/2015	19:02:54.519	$GPGGA,190255,2515.2108,N,07914.3643,W,1,9,1.9,21,M,,M,,*59
06/19/2015	19:02:55.663	$GPGGA,190256,2515.2114,N,07914.3641,W,1,9,1.9,21,M,,M,,*55
06/19/2015	19:02:56.529	$GPGGA,190257,2515.2119,N,07914.3638,W,1,9,1.9,21,M,,M,,*57
06/19/2015	19:02:57.588	$GPGGA,190258,2515.2126,N,07914.3636,W,1,9,1.9,21,M,,M,,*5A
06/19/2015	19:02:58.498	$GPGGA,190259,2515.2133,N,07914.3634,W,1,9,1.9,21,M,,M,,*5D
06/19/2015	19:02:59.558	$GPGGA,190300,2515.2140,N,07914.3632,W,1,9,1.9,21,M,,M,,*52
06/19/2015	19:03:00.498	$GPGGA,190301,2515.2146,N,07914.3630,W,1,9,1.9,21,M,,M,,*57
06/19/2015	19:03:01.588	$GPGGA,190302,2515.2151,N,07914.3628,W,1,9,1.9,21,M,,M,,*5B
06/19/2015	19:03:02.598	$GPGGA,190303,2515.2158,N,07914.3626,W,1,9,1.9,21,M,,M,,*5D
06/19/2015	19:03:03.598	$GPGGA,190304,2515.2164,N,07914.3623,W,1,9,1.9,21,M,,M,,*50
06/19/2015	19:03:04.578	$GPGGA,190305,2515.2170,N,07914.3621,W,1,9,1.9,21,M,,M,,*56
06/19/2015	19:03:05.608	$GPGGA,190306,2515.2177,N,07914.3619,W,1,9,1.9,21,M,,M,,*59
06/19/2015	19:03:06.498	$GPGGA,190307,2515.2184,N,07914.3617,W,1,9,1.9,21,M,,M,,*5A
06/19/2015	19:03:07.552	$GPGGA,190308,2515.2191,N,07914.3615,W,1,9,1.9,20,M,,M,,*52
06/19/2015	19:03:08.588	$GPGGA,190309,2515.2197,N,07914.3614,W,1,9,1.9,20,M,,M,,*54
06/19/2015	19:03:09.598	$GPGGA,190310,2515.2202,N,07914.3612,W,1,9,1.9,20,M,,M,,*55
06/19/2015	19:03:11.639	$GPGGA,190312,2515.2216,N,07914.3609,W,1,9,1.9,20,M,,M,,*58
06/19/2015	19:03:12.569	$GPGGA,190313,2515.2223,N,07914.3608,W,1,9,1.9,20,M,,M,,*5E
06/19/2015	19:03:13.569	$GPGGA,190314,2515.2230,N,07914.3606,W,1,9,1.9,20,M,,M,,*55
06/19/2015	19:03:14.569	$GPGGA,190315,2515.2237,N,07914.3605,W,1,9,1.9,20,M,,M,,*50
06/19/2015	19:03:15.578	$GPGGA,190316,2515.2242,N,07914.3604,W,1,9,1.9,20,M,,M,,*50
06/19/2015	19:03:16.568	$GPGGA,190317,2515.2249,N,07914.3602,W,1,9,1.9,20,M,,M,,*5C
06/19/2015	19:03:17.554	$GPGGA,190318,2515.2256,N,07914.3601,W,1,9,2.2,20,M,,M,,*56
06/19/2015	19:03:18.568	$GPGGA,190319,2515.2263,N,07914.3600,W,1,9,2.2,20,M,,M,,*50
06/19/2015	19:03:19.598	$GPGGA,190320,2515.2271,N,07914.3599,W,1,9,1.9,20,M,,M,,*52
06/19/2015	19:03:20.544	$GPGGA,190321,2515.2280,N,07914.3598,W,1,9,1.9,20,M,,M,,*5C
06/19/2015	19:03:21.555	$GPGGA,190322,2515.2289,N,07914.3598,W,1,9,1.9,20,M,,M,,*56
06/19/2015	19:03:22.568	$GPGGA,190323,2515.2296,N,07914.3597,W,1,9,1.9,20,M,,M,,*56
06/19/2015	19:03:23.578	$GPGGA,190324,2515.2303,N,07914.3598,W,1,9,1.9,20,M,,M,,*53
06/19/2015	19:03:24.544	$GPGGA,190325,2515.2311,N,07914.3596,W,1,9,1.9,20,M,,M,,*5F
06/19/2015	19:03:25.552	$GPGGA,190326,2515.2321,N,07914.3595,W,1,9,1.9,20,M,,M,,*5C
06/19/2015	19:03:26.550	$GPGGA,190327,2515.2328,N,07914.3594,W,1,9,1.9,20,M,,M,,*55
06/19/2015	19:03:27.568	$GPGGA,190328,2515.2336,N,07914.3595,W,1,9,1.9,20,M,,M,,*54
06/19/2015	19:03:28.529	$GPGGA,190329,2515.2343,N,07914.3593,W,1,9,1.9,20,M,,M,,*51
06/19/2015	19:03:29.529	$GPGGA,190330,2515.2350,N,07914.3592,W,1,9,1.9,20,M,,M,,*5A
06/19/2015	19:03:30.529	$GPGGA,190331,2515.2357,N,07914.3591,W,1,9,1.9,20,M,,M,,*5F
06/19/2015	19:03:31.569	$GPGGA,190332,2515.2365,N,07914.3590,W,1,9,1.9,20,M,,M,,*5C
06/19/2015	19:03:32.547	$GPGGA,190333,2515.2372,N,07914.3591,W,1,9,1.9,20,M,,M,,*5A
06/19/2015	19:03:33.568	$GPGGA,190334,2515.2379,N,07914.3589,W,1,9,1.9,20,M,,M,,*5F
06/19/2015	19:03:34.528	$GPGGA,190335,2515.2388,N,07914.3589,W,1,9,1.9,21,M,,M,,*51
06/19/2015	19:03:35.528	$GPGGA,190336,2515.2394,N,07914.3588,W,1,9,1.9,21,M,,M,,*5E
06/19/2015	19:03:36.528	$GPGGA,190337,2515.2403,N,07914.3587,W,1,9,1.9,21,M,,M,,*59
06/19/2015	19:03:37.558	$GPGGA,190338,2515.2410,N,07914.3586,W,1,9,1.9,21,M,,M,,*55
06/19/2015	19:03:38.518	$GPGGA,190339,2515.2418,N,07914.3585,W,1,9,1.9,21,M,,M,,*5F
06/19/2015	19:03:39.553	$GPGGA,190340,2515.2425,N,07914.3584,W,1,9,1.9,21,M,,M,,*5E
06/19/2015	19:03:40.518	$GPGGA,190341,2515.2432,N,07914.3584,W,1,9,1.9,21,M,,M,,*59
06/19/2015	19:03:41.508	$GPGGA,190342,2515.2439,N,07914.3583,W,1,9,1.9,21,M,,M,,*56
06/19/2015	19:03:42.508	$GPGGA,190343,2515.2444,N,07914.3584,W,1,9,1.9,21,M,,M,,*5A
06/19/2015	19:03:43.528	$GPGGA,190344,2515.2451,N,07914.3581,W,1,8,2.2,21,M,,M,,*55
06/19/2015	19:03:44.498	$GPGGA,190345,2515.2458,N,07914.3581,W,1,8,2.2,21,M,,M,,*5D
06/19/2015	19:03:45.518	$GPGGA,190346,2515.2462,N,07914.3580,W,1,8,2.2,21,M,,M,,*56
06/19/2015	19:03:46.509	$GPGGA,190347,2515.2469,N,07914.3579,W,1,8,1.9,21,M,,M,,*52
06/19/2015	19:03:47.499	$GPGGA,190348,2515.2477,N,07914.3578,W,1,9,1.9,21,M,,M,,*52
06/19/2015	19:03:48.879	$GPGGA,190349,2515.2484,N,07914.3577,W,1,9,1.9,20,M,,M,,*51
06/19/2015	19:03:49.618	$GPGGA,190350,2515.2491,N,07914.3576,W,1,9,1.9,20,M,,M,,*5C
06/19/2015	19:03:50.518	$GPGGA,190351,2515.2498,N,07914.3575,W,1,9,1.9,20,M,,M,,*57
06/19/2015	19:03:51.608	$GPGGA,190352,2515.2505,N,07914.3573,W,1,9,1.9,20,M,,M,,*57
06/19/2015	19:03:52.498	$GPGGA,190353,2515.2513,N,07914.3573,W,1,9,1.9,20,M,,M,,*51
06/19/2015	19:03:53.618	$GPGGA,190354,2515.2519,N,07914.3571,W,1,9,1.9,20,M,,M,,*5E
06/19/2015	19:03:54.578	$GPGGA,190355,2515.2526,N,07914.3570,W,1,9,1.9,20,M,,M,,*52
06/19/2015	19:03:55.498	$GPGGA,190356,2515.2534,N,07914.3569,W,1,9,1.9,20,M,,M,,*5A
06/19/2015	19:03:56.578	$GPGGA,190357,2515.2540,N,07914.3567,W,1,9,1.9,20,M,,M,,*56
06/19/2015	19:03:57.478	$GPGGA,190358,2515.2547,N,07914.3566,W,1,9,1.9,20,M,,M,,*5F
06/19/2015	19:03:58.588	$GPGGA,190359,2515.2553,N,07914.3565,W,1,9,1.9,20,M,,M,,*58
06/19/2015	19:03:59.628	$GPGGA,190400,2515.2560,N,07914.3563,W,1,9,1.9,20,M,,M,,*55
06/19/2015	19:04:00.568	$GPGGA,190401,2515.2567,N,07914.3562,W,1,9,1.9,20,M,,M,,*52
06/19/2015	19:04:01.558	$GPGGA,190402,2515.2574,N,07914.3561,W,1,9,1.9,20,M,,M,,*50
06/19/2015	19:04:02.578	$GPGGA,190403,2515.2581,N,07914.3560,W,1,9,1.9,20,M,,M,,*5A
06/19/2015	19:04:03.609	$GPGGA,190404,2515.2588,N,07914.3558,W,1,9,1.9,20,M,,M,,*5F
06/19/2015	19:04:04.559	$GPGGA,190405,2515.2595,N,07914.3556,W,1,9,1.9,19,M,,M,,*56
06/19/2015	19:04:05.569	$GPGGA,190406,2515.2603,N,07914.3555,W,1,8,2.2,19,M,,M,,*53
06/19/2015	19:04:06.569	$GPGGA,190407,2515.2610,N,07914.3554,W,1,8,1.9,19,M,,M,,*59
06/19/2015	19:04:07.598	$GPGGA,190408,2515.2617,N,07914.3552,W,1,9,1.9,19,M,,M,,*56
06/19/2015	19:04:08.550	$GPGGA,190409,2515.2624,N,07914.3551,W,1,9,1.9,19,M,,M,,*54
06/19/2015	19:04:09.578	$GPGGA,190410,2515.2631,N,07914.3550,W,1,9,1.9,19,M,,M,,*59
06/19/2015	19:04:10.551	$GPGGA,190411,2515.2636,N,07914.3548,W,1,9,1.9,19,M,,M,,*56
06/19/2015	19:04:11.578	$GPGGA,190412,2515.2643,N,07914.3547,W,1,9,1.9,19,M,,M,,*58
06/19/2015	19:04:12.551	$GPGGA,190413,2515.2652,N,07914.3546,W,1,9,2.2,19,M,,M,,*50
06/19/2015	19:04:13.568	$GPGGA,190414,2515.2660,N,07914.3545,W,1,9,1.9,19,M,,M,,*5D
06/19/2015	19:04:14.548	$GPGGA,190415,2515.2668,N,07914.3544,W,1,9,1.9,19,M,,M,,*55
06/19/2015	19:04:15.551	$GPGGA,190416,2515.2675,N,07914.3543,W,1,9,1.9,19,M,,M,,*5D
06/19/2015	19:04:16.528	$GPGGA,190417,2515.2683,N,07914.3542,W,1,9,1.9,18,M,,M,,*55
06/19/2015	19:04:17.528	$GPGGA,190418,2515.2692,N,07914.3541,W,1,9,1.9,18,M,,M,,*59
06/19/2015	19:04:18.548	$GPGGA,190419,2515.2700,N,07914.3539,W,1,9,1.9,18,M,,M,,*5D
06/19/2015	19:04:19.578	$GPGGA,190420,2515.2708,N,07914.3538,W,1,9,1.9,18,M,,M,,*5E
06/19/2015	19:04:20.518	$GPGGA,190421,2515.2715,N,07914.3537,W,1,9,1.9,18,M,,M,,*5C
06/19/2015	19:04:21.519	$GPGGA,190422,2515.2724,N,07914.3536,W,1,9,1.9,18,M,,M,,*5C
06/19/2015	19:04:22.529	$GPGGA,190423,2515.2730,N,07914.3534,W,1,9,1.9,18,M,,M,,*5A
06/19/2015	19:04:23.554	$GPGGA,190424,2515.2739,N,07914.3533,W,1,9,1.9,18,M,,M,,*53
06/19/2015	19:04:24.519	$GPGGA,190425,2515.2746,N,07914.3532,W,1,9,1.9,18,M,,M,,*5B
06/19/2015	19:04:25.553	$GPGGA,190426,2515.2753,N,07914.3529,W,1,9,1.9,18,M,,M,,*56
06/19/2015	19:04:26.508	$GPGGA,190427,2515.2761,N,07914.3528,W,1,9,1.9,18,M,,M,,*57
06/19/2015	19:04:27.553	$GPGGA,190428,2515.2769,N,07914.3527,W,1,9,1.9,18,M,,M,,*5F
06/19/2015	19:04:28.965	$GPGGA,190429,2515.2776,N,07914.3525,W,1,9,1.9,18,M,,M,,*52
06/19/2015	19:04:29.508	$GPGGA,190430,2515.2783,N,07914.3524,W,1,9,1.9,18,M,,M,,*51
06/19/2015	19:04:30.528	$GPGGA,190431,2515.2791,N,07914.3523,W,1,9,1.9,18,M,,M,,*54
06/19/2015	19:04:31.557	$GPGGA,190432,2515.2798,N,07914.3521,W,1,9,1.9,18,M,,M,,*5C
06/19/2015	19:04:32.618	$GPGGA,190433,2515.2805,N,07914.3519,W,1,9,1.9,18,M,,M,,*5D
06/19/2015	19:04:33.518	$GPGGA,190434,2515.2813,N,07914.3518,W,1,9,1.9,18,M,,M,,*5C
06/19/2015	19:04:34.498	$GPGGA,190435,2515.2820,N,07914.3516,W,1,9,1.9,18,M,,M,,*53
06/19/2015	19:04:35.518	$GPGGA,190436,2515.2827,N,07914.3515,W,1,9,1.9,18,M,,M,,*54
06/19/2015	19:04:36.498	$GPGGA,190437,2515.2834,N,07914.3513,W,1,9,1.9,18,M,,M,,*51
06/19/2015	19:04:37.498	$GPGGA,190438,2515.2842,N,07914.3512,W,1,9,1.9,18,M,,M,,*5E
06/19/2015	19:04:38.589	$GPGGA,190439,2515.2849,N,07914.3510,W,1,9,1.9,18,M,,M,,*56
06/19/2015	19:04:39.519	$GPGGA,190440,2515.2858,N,07914.3508,W,1,9,1.9,18,M,,M,,*51
06/19/2015	19:04:40.589	$GPGGA,190441,2515.2865,N,07914.3507,W,1,9,1.8,18,M,,M,,*50
06/19/2015	19:04:41.629	$GPGGA,190442,2515.2873,N,07914.3505,W,1,9,1.8,18,M,,M,,*56
06/19/2015	19:04:42.598	$GPGGA,190443,2515.2880,N,07914.3503,W,1,9,1.8,18,M,,M,,*5D
06/19/2015	19:04:43.498	$GPGGA,190444,2515.2887,N,07914.3502,W,1,9,1.8,18,M,,M,,*5C
06/19/2015	19:04:44.578	$GPGGA,190445,2515.2895,N,07914.3500,W,1,9,1.8,18,M,,M,,*5C
06/19/2015	19:04:45.598	$GPGGA,190446,2515.2902,N,07914.3498,W,1,9,1.8,18,M,,M,,*50
06/19/2015	19:04:46.578	$GPGGA,190447,2515.2909,N,07914.3496,W,1,9,1.8,18,M,,M,,*54
06/19/2015	19:04:47.588	$GPGGA,190448,2515.2917,N,07914.3494,W,1,9,1.8,18,M,,M,,*56
06/19/2015	19:04:48.578	$GPGGA,190449,2515.2924,N,07914.3493,W,1,9,1.8,18,M,,M,,*50
06/19/2015	19:04:49.568	$GPGGA,190450,2515.2931,N,07914.3490,W,1,9,1.8,18,M,,M,,*5F
06/19/2015	19:04:50.578	$GPGGA,190451,2515.2938,N,07914.3489,W,1,9,1.8,18,M,,M,,*5F
06/19/2015	19:04:51.588	$GPGGA,190452,2515.2943,N,07914.3487,W,1,8,2.2,18,M,,M,,*56
06/19/2015	19:04:52.568	$GPGGA,190453,2515.2950,N,07914.3485,W,1,8,2.2,18,M,,M,,*57
06/19/2015	19:04:53.561	$GPGGA,190454,2515.2957,N,07914.3483,W,1,8,2.2,18,M,,M,,*51
06/19/2015	19:04:54.558	$GPGGA,190455,2515.2964,N,07914.3481,W,1,8,2.2,18,M,,M,,*52
06/19/2015	19:04:55.588	$GPGGA,190456,2515.2972,N,07914.3479,W,1,8,2.2,18,M,,M,,*51
06/19/2015	19:04:56.560	$GPGGA,190457,2515.2981,N,07914.3477,W,1,8,1.8,18,M,,M,,*5B
06/19/2015	19:04:57.579	$GPGGA,190458,2515.2989,N,07914.3476,W,1,9,1.8,17,M,,M,,*53
06/19/2015	19:04:58.554	$GPGGA,190459,2515.2997,N,07914.3474,W,1,9,1.8,17,M,,M,,*5F
06/19/2015	19:04:59.588	$GPGGA,190500,2515.3006,N,07914.3472,W,1,9,1.8,17,M,,M,,*54
06/19/2015	19:05:00.539	$GPGGA,190501,2515.3014,N,07914.3470,W,1,9,1.8,17,M,,M,,*54
06/19/2015	19:05:01.578	$GPGGA,190502,2515.3021,N,07914.3468,W,1,8,2.2,17,M,,M,,*50
06/19/2015	19:05:03.618	$GPGGA,190504,2515.3036,N,07914.3465,W,1,9,1.8,17,M,,M,,*55
06/19/2015	19:05:04.554	$GPGGA,190505,2515.3044,N,07914.3463,W,1,9,1.8,17,M,,M,,*57
06/19/2015	19:05:05.578	$GPGGA,190506,2515.3053,N,07914.3461,W,1,9,1.8,17,M,,M,,*50
06/19/2015	19:05:06.518	$GPGGA,190507,2515.3062,N,07914.3459,W,1,9,1.8,17,M,,M,,*58
06/19/2015	19:05:07.537	$GPGGA,190508,2515.3069,N,07914.3457,W,1,9,1.8,16,M,,M,,*53
06/19/2015	19:05:08.531	$GPGGA,190509,2515.3079,N,07914.3456,W,1,9,1.8,16,M,,M,,*52
06/19/2015	19:05:09.518	$GPGGA,190510,2515.3087,N,07914.3455,W,1,9,1.8,16,M,,M,,*58
06/19/2015	19:05:10.518	$GPGGA,190511,2515.3096,N,07914.3453,W,1,9,1.8,16,M,,M,,*5F
06/19/2015	19:05:11.544	$GPGGA,190512,2515.3104,N,07914.3451,W,1,9,1.8,16,M,,M,,*54
06/19/2015	19:05:12.518	$GPGGA,190513,2515.3111,N,07914.3449,W,1,9,2.2,16,M,,M,,*51
06/19/2015	19:05:13.535	$GPGGA,190514,2515.3120,N,07914.3448,W,1,8,2.2,16,M,,M,,*54
06/19/2015	19:05:14.529	$GPGGA,190515,2515.3127,N,07914.3446,W,1,8,1.8,16,M,,M,,*55
06/19/2015	19:05:15.508	$GPGGA,190516,2515.3134,N,07914.3445,W,1,9,1.8,16,M,,M,,*56
06/19/2015	19:05:16.498	$GPGGA,190517,2515.3143,N,07914.3443,W,1,9,1.8,16,M,,M,,*51
06/19/2015	19:05:17.533	$GPGGA,190518,2515.3151,N,07914.3442,W,1,8,2.2,16,M,,M,,*54
06/19/2015	19:05:18.508	$GPGGA,190519,2515.3158,N,07914.3440,W,1,8,2.2,16,M,,M,,*5E
06/19/2015	19:05:19.507	$GPGGA,190520,2515.3166,N,07914.3439,W,1,8,2.2,16,M,,M,,*57
06/19/2015	19:05:20.507	$GPGGA,190521,2515.3174,N,07914.3438,W,1,8,1.8,16,M,,M,,*5D
06/19/2015	19:05:21.507	$GPGGA,190522,2515.3183,N,07914.3436,W,1,9,1.8,15,M,,M,,*5A
06/19/2015	19:05:22.497	$GPGGA,190523,2515.3192,N,07914.3435,W,1,9,1.8,15,M,,M,,*58
06/19/2015	19:05:23.517	$GPGGA,190524,2515.3201,N,07914.3434,W,1,9,1.8,15,M,,M,,*57
06/19/2015	19:05:24.498	$GPGGA,190525,2515.3210,N,07914.3432,W,1,9,1.8,15,M,,M,,*50
06/19/2015	19:05:25.508	$GPGGA,190526,2515.3220,N,07914.3431,W,1,9,1.8,15,M,,M,,*53
06/19/2015	19:05:26.498	$GPGGA,190527,2515.3228,N,07914.3428,W,1,9,2.0,15,M,,M,,*59
06/19/2015	19:05:27.678	$GPGGA,190528,2515.3235,N,07914.3425,W,1,9,1.8,15,M,,M,,*5C
06/19/2015	19:05:28.498	$GPGGA,190529,2515.3245,N,07914.3423,W,1,9,1.8,15,M,,M,,*5C
06/19/2015	19:05:29.668	$GPGGA,190530,2515.3253,N,07914.3421,W,1,9,1.8,16,M,,M,,*52
06/19/2015	19:05:30.478	$GPGGA,190531,2515.3261,N,07914.3419,W,1,9,1.8,16,M,,M,,*59
06/19/2015	19:05:31.478	$GPGGA,190532,2515.3268,N,07914.3416,W,1,9,1.8,16,M,,M,,*5C
06/19/2015	19:05:32.488	$GPGGA,190533,2515.3275,N,07914.3415,W,1,9,2.2,16,M,,M,,*5B
06/19/2015	19:05:33.478	$GPGGA,190534,2515.3282,N,07914.3414,W,1,8,2.2,16,M,,M,,*54
06/19/2015	19:05:34.607	$GPGGA,190535,2515.3290,N,07914.3413,W,1,8,1.8,16,M,,M,,*58
06/19/2015	19:05:35.667	$GPGGA,190536,2515.3297,N,07914.3411,W,1,9,1.8,16,M,,M,,*5F
06/19/2015	19:05:36.617	$GPGGA,190537,2515.3304,N,07914.3410,W,1,9,2.2,16,M,,M,,*5D
06/19/2015	19:05:37.467	$GPGGA,190538,2515.3314,N,07914.3409,W,1,8,2.2,16,M,,M,,*5A
06/19/2015	19:05:38.551	$GPGGA,190539,2515.3324,N,07914.3407,W,1,8,2.2,16,M,,M,,*56
06/19/2015	19:05:39.667	$GPGGA,190540,2515.3333,N,07914.3407,W,1,9,1.8,16,M,,M,,*56
06/19/2015	19:05:40.547	$GPGGA,190541,2515.3344,N,07914.3406,W,1,9,1.8,16,M,,M,,*56
06/19/2015	19:05:41.658	$GPGGA,190542,2515.3354,N,07914.3405,W,1,9,1.8,17,M,,M,,*56
06/19/2015	19:05:42.578	$GPGGA,190543,2515.3362,N,07914.3405,W,1,9,1.8,17,M,,M,,*52
06/19/2015	19:05:43.668	$GPGGA,190544,2515.3372,N,07914.3405,W,1,8,2.2,17,M,,M,,*5C
06/19/2015	19:05:44.578	$GPGGA,190545,2515.3382,N,07914.3404,W,1,8,1.8,17,M,,M,,*5A
06/19/2015	19:05:46.074	$GPGGA,190546,2515.3391,N,07914.3404,W,1,9,1.8,17,M,,M,,*5A
06/19/2015	19:05:46.568	$GPGGA,190547,2515.3401,N,07914.3404,W,1,9,1.8,17,M,,M,,*55
06/19/2015	19:05:47.548	$GPGGA,190548,2515.3409,N,07914.3404,W,1,9,1.8,17,M,,M,,*52
06/19/2015	19:05:48.588	$GPGGA,190549,2515.3416,N,07914.3403,W,1,9,2.2,18,M,,M,,*5C
06/19/2015	19:05:49.648	$GPGGA,190550,2515.3423,N,07914.3403,W,1,8,2.2,18,M,,M,,*53
06/19/2015	19:05:50.537	$GPGGA,190551,2515.3432,N,07914.3403,W,1,8,2.2,18,M,,M,,*52
06/19/2015	19:05:51.658	$GPGGA,190552,2515.3440,N,07914.3402,W,1,8,2.2,18,M,,M,,*55
06/19/2015	19:05:52.567	$GPGGA,190553,2515.3448,N,07914.3403,W,1,8,2.2,18,M,,M,,*5D
06/19/2015	19:05:53.517	$GPGGA,190554,2515.3456,N,07914.3403,W,1,8,2.2,18,M,,M,,*55
06/19/2015	19:05:54.567	$GPGGA,190555,2515.3470,N,07914.3403,W,1,8,1.8,18,M,,M,,*59
06/19/2015	19:05:55.657	$GPGGA,190556,2515.3480,N,07914.3404,W,1,9,1.8,18,M,,M,,*53
06/19/2015	19:05:56.517	$GPGGA,190557,2515.3491,N,07914.3404,W,1,9,1.8,18,M,,M,,*52
06/19/2015	19:05:57.607	$GPGGA,190558,2515.3501,N,07914.3405,W,1,9,1.8,18,M,,M,,*54
06/19/2015	19:05:58.547	$GPGGA,190559,2515.3510,N,07914.3407,W,1,9,1.8,18,M,,M,,*57
06/19/2015	19:05:59.648	$GPGGA,190600,2515.3521,N,07914.3406,W,1,9,1.8,18,M,,M,,*5B
06/19/2015	19:06:00.538	$GPGGA,190601,2515.3530,N,07914.3407,W,1,9,1.8,18,M,,M,,*5B
06/19/2015	19:06:01.508	$GPGGA,190602,2515.3537,N,07914.3407,W,1,9,1.8,18,M,,M,,*5F
06/19/2015	19:06:02.548	$GPGGA,190603,2515.3545,N,07914.3407,W,1,9,2.2,18,M,,M,,*52
06/19/2015	19:06:03.640	$GPGGA,190604,2515.3549,N,07914.3408,W,1,8,2.2,18,M,,M,,*57
06/19/2015	19:06:04.498	$GPGGA,190605,2515.3557,N,07914.3408,W,1,8,1.8,18,M,,M,,*50
06/19/2015	19:06:05.578	$GPGGA,190606,2515.3566,N,07914.3408,W,1,9,1.8,18,M,,M,,*50
06/19/2015	19:06:06.531	$GPGGA,190607,2515.3575,N,07914.3410,W,1,9,1.8,18,M,,M,,*5A
06/19/2015	19:06:07.578	$GPGGA,190608,2515.3582,N,07914.3410,W,1,9,2.2,18,M,,M,,*54
06/19/2015	19:06:08.548	$GPGGA,190609,2515.3599,N,07914.3411,W,1,9,1.8,18,M,,M,,*57
06/19/2015	19:06:09.617	$GPGGA,190610,2515.3607,N,07914.3412,W,1,9,1.8,18,M,,M,,*58
06/19/2015	19:06:10.617	$GPGGA,190611,2515.3618,N,07914.3412,W,1,9,1.9,18,M,,M,,*56
06/19/2015	19:06:11.647	$GPGGA,190612,2515.3631,N,07914.3409,W,1,8,1.8,18,M,,M,,*54
06/19/2015	19:06:12.547	$GPGGA,190613,2515.3642,N,07914.3408,W,1,8,1.8,18,M,,M,,*50
06/19/2015	19:06:13.607	$GPGGA,190614,2515.3653,N,07914.3408,W,1,9,1.8,18,M,,M,,*56
06/19/2015	19:06:14.517	$GPGGA,190615,2515.3662,N,07914.3407,W,1,9,1.8,19,M,,M,,*5B
06/19/2015	19:06:15.637	$GPGGA,190616,2515.3674,N,07914.3407,W,1,9,1.8,19,M,,M,,*5F
06/19/2015	19:06:16.539	$GPGGA,190617,2515.3685,N,07914.3408,W,1,9,2.2,19,M,,M,,*56
06/19/2015	19:06:17.638	$GPGGA,190618,2515.3696,N,07914.3408,W,1,8,2.2,19,M,,M,,*5A
06/19/2015	19:06:18.578	$GPGGA,190619,2515.3705,N,07914.3408,W,1,8,1.8,19,M,,M,,*59
06/19/2015	19:06:19.588	$GPGGA,190620,2515.3715,N,07914.3410,W,1,9,1.8,19,M,,M,,*5A
06/19/2015	19:06:20.531	$GPGGA,190621,2515.3723,N,07914.3410,W,1,9,1.8,20,M,,M,,*54
06/19/2015	19:06:21.468	$GPGGA,190622,2515.3733,N,07914.3410,W,1,9,1.8,20,M,,M,,*56
06/19/2015	19:06:22.568	$GPGGA,190623,2515.3741,N,07914.3411,W,1,9,1.8,20,M,,M,,*53
06/19/2015	19:06:23.608	$GPGGA,190624,2515.3752,N,07914.3412,W,1,9,1.8,20,M,,M,,*55
06/19/2015	19:06:24.568	$GPGGA,190625,2515.3763,N,07914.3414,W,1,9,1.8,20,M,,M,,*50
06/19/2015	19:06:25.608	$GPGGA,190626,2515.3773,N,07914.3414,W,1,9,1.8,20,M,,M,,*52
06/19/2015	19:06:26.558	$GPGGA,190627,2515.3781,N,07914.3415,W,1,9,2.2,20,M,,M,,*56
06/19/2015	19:06:27.587	$GPGGA,190628,2515.3792,N,07914.3418,W,1,8,1.8,20,M,,M,,*5E
06/19/2015	19:06:28.577	$GPGGA,190629,2515.3801,N,07914.3418,W,1,8,1.8,21,M,,M,,*5B
06/19/2015	19:06:29.567	$GPGGA,190630,2515.3810,N,07914.3419,W,1,9,1.8,21,M,,M,,*53
06/19/2015	19:06:30.547	$GPGGA,190631,2515.3820,N,07914.3421,W,1,9,1.8,21,M,,M,,*5A
06/19/2015	19:06:31.577	$GPGGA,190632,2515.3831,N,07914.3421,W,1,9,1.8,21,M,,M,,*59
06/19/2015	19:06:32.567	$GPGGA,190633,2515.3842,N,07914.3422,W,1,9,1.8,21,M,,M,,*5F
06/19/2015	19:06:33.578	$GPGGA,190634,2515.3842,N,07914.3422,W,1,9,1.8,21,M,,M,,*58
06/19/2015	19:06:34.548	$GPGGA,190635,2515.3860,N,07914.3423,W,1,9,2.2,21,M,,M,,*51
06/19/2015	19:06:35.628	$GPGGA,190636,2515.3870,N,07914.3425,W,1,8,2.2,21,M,,M,,*54
06/19/2015	19:06:36.548	$GPGGA,190637,2515.3880,N,07914.3424,W,1,8,2.2,21,M,,M,,*5B
06/19/2015	19:06:37.618	$GPGGA,190638,2515.3889,N,07914.3425,W,1,8,2.2,21,M,,M,,*5C
06/19/2015	19:06:38.543	$GPGGA,190639,2515.3900,N,07914.3424,W,1,8,2.2,21,M,,M,,*5C
06/19/2015	19:06:39.588	$GPGGA,190640,2515.3911,N,07914.3425,W,1,8,1.8,21,M,,M,,*5A
06/19/2015	19:06:40.538	$GPGGA,190641,2515.3924,N,07914.3424,W,1,8,1.8,21,M,,M,,*5C
06/19/2015	19:06:41.643	$GPGGA,190642,2515.3936,N,07914.3425,W,1,9,1.8,21,M,,M,,*5C
06/19/2015	19:06:42.548	$GPGGA,190643,2515.3950,N,07914.3423,W,1,9,1.8,21,M,,M,,*5B
06/19/2015	19:06:43.608	$GPGGA,190644,2515.3961,N,07914.3422,W,1,9,1.8,21,M,,M,,*5F
06/19/2015	19:06:44.546	$GPGGA,190645,2515.3975,N,07914.3422,W,1,9,1.8,21,M,,M,,*5B
06/19/2015	19:06:45.557	$GPGGA,190646,2515.3987,N,07914.3420,W,1,9,2.2,21,M,,M,,*5E
06/19/2015	19:06:46.533	$GPGGA,190647,2515.4001,N,07914.3419,W,1,9,2.2,21,M,,M,,*55
06/19/2015	19:06:47.587	$GPGGA,190648,2515.4015,N,07914.3418,W,1,9,1.8,21,M,,M,,*57
06/19/2015	19:06:48.527	$GPGGA,190649,2515.4029,N,07914.3417,W,1,9,1.8,21,M,,M,,*56
06/19/2015	19:06:49.587	$GPGGA,190650,2515.4040,N,07914.3415,W,1,9,2.2,21,M,,M,,*5A
06/19/2015	19:06:50.543	$GPGGA,190651,2515.4052,N,07914.3413,W,1,9,2.2,21,M,,M,,*5E
06/19/2015	19:06:51.588	$GPGGA,190652,2515.4065,N,07914.3414,W,1,8,1.8,21,M,,M,,*56
06/19/2015	19:06:52.518	$GPGGA,190653,2515.4077,N,07914.3411,W,1,8,1.8,20,M,,M,,*50
06/19/2015	19:06:53.578	$GPGGA,190654,2515.4090,N,07914.3411,W,1,9,1.8,20,M,,M,,*5F
06/19/2015	19:06:54.518	$GPGGA,190655,2515.4104,N,07914.3411,W,1,9,1.8,20,M,,M,,*52
06/19/2015	19:06:55.578	$GPGGA,190656,2515.4117,N,07914.3411,W,1,9,1.8,20,M,,M,,*53
06/19/2015	19:06:56.833	$GPGGA,190657,2515.4131,N,07914.3412,W,1,9,1.8,20,M,,M,,*55
06/19/2015	19:06:57.631	$GPGGA,190658,2515.4145,N,07914.3414,W,1,9,1.8,20,M,,M,,*5F
06/19/2015	19:06:58.488	$GPGGA,190659,2515.4159,N,07914.3414,W,1,9,1.8,20,M,,M,,*53
06/19/2015	19:06:59.530	$GPGGA,190700,2515.4159,N,07914.3414,W,1,9,1.8,20,M,,M,,*5E
06/19/2015	19:07:00.498	$GPGGA,190701,2515.4186,N,07914.3418,W,1,9,2.2,20,M,,M,,*58
06/19/2015	19:07:01.498	$GPGGA,190702,2515.4186,N,07914.3418,W,1,9,1.8,20,M,,M,,*52
06/19/2015	19:07:02.507	$GPGGA,190703,2515.4217,N,07914.3423,W,1,9,1.8,20,M,,M,,*50
06/19/2015	19:07:03.607	$GPGGA,190704,2515.4229,N,07914.3425,W,1,9,1.8,20,M,,M,,*5C
06/19/2015	19:07:04.517	$GPGGA,190705,2515.4242,N,07914.3428,W,1,9,1.8,20,M,,M,,*5D
06/19/2015	19:07:05.487	$GPGGA,190706,2515.4242,N,07914.3428,W,1,9,1.8,20,M,,M,,*5E
06/19/2015	19:07:06.477	$GPGGA,190707,2515.4265,N,07914.3434,W,1,9,2.2,19,M,,M,,*54
06/19/2015	19:07:07.617	$GPGGA,190708,2515.4265,N,07914.3434,W,1,9,1.8,19,M,,M,,*52
06/19/2015	19:07:08.487	$GPGGA,190709,2515.4292,N,07914.3443,W,1,9,1.8,19,M,,M,,*5B
06/19/2015	19:07:09.498	$GPGGA,190710,2515.4292,N,07914.3443,W,1,9,1.8,19,M,,M,,*53
06/19/2015	19:07:10.578	$GPGGA,190711,2515.4319,N,07914.3454,W,1,9,1.8,19,M,,M,,*56
06/19/2015	19:07:11.498	$GPGGA,190712,2515.4332,N,07914.3461,W,1,9,1.8,19,M,,M,,*5A
06/19/2015	19:07:12.578	$GPGGA,190713,2515.4346,N,07914.3466,W,1,9,1.8,19,M,,M,,*5F
06/19/2015	19:07:13.558	$GPGGA,190714,2515.4359,N,07914.3473,W,1,9,1.8,19,M,,M,,*52
06/19/2015	19:07:14.578	$GPGGA,190715,2515.4373,N,07914.3482,W,1,9,1.8,19,M,,M,,*55
06/19/2015	19:07:15.618	$GPGGA,190716,2515.4386,N,07914.3490,W,1,9,1.8,19,M,,M,,*5F
06/19/2015	19:07:16.548	$GPGGA,190717,2515.4398,N,07914.3497,W,1,9,1.8,19,M,,M,,*56
06/19/2015	19:07:17.588	$GPGGA,190718,2515.4412,N,07914.3506,W,1,9,1.8,19,M,,M,,*55
06/19/2015	19:07:18.558	$GPGGA,190719,2515.4424,N,07914.3515,W,1,9,1.8,19,M,,M,,*53
06/19/2015	19:07:19.597	$GPGGA,190720,2515.4437,N,07914.3524,W,1,9,1.8,19,M,,M,,*59
06/19/2015	19:07:20.547	$GPGGA,190721,2515.4449,N,07914.3534,W,1,9,1.8,19,M,,M,,*50
06/19/2015	19:07:21.577	$GPGGA,190722,2515.4460,N,07914.3544,W,1,9,1.8,19,M,,M,,*5F
06/19/2015	19:07:22.547	$GPGGA,190723,2515.4473,N,07914.3553,W,1,9,1.8,19,M,,M,,*5A
06/19/2015	19:07:23.577	$GPGGA,190724,2515.4484,N,07914.3564,W,1,9,1.8,19,M,,M,,*51
06/19/2015	19:07:24.547	$GPGGA,190725,2515.4495,N,07914.3576,W,1,9,1.8,19,M,,M,,*53
06/19/2015	19:07:25.537	$GPGGA,190726,2515.4506,N,07914.3587,W,1,9,1.8,19,M,,M,,*55
06/19/2015	19:07:26.543	$GPGGA,190727,2515.4517,N,07914.3598,W,1,9,1.8,19,M,,M,,*5A
06/19/2015	19:07:27.578	$GPGGA,190728,2515.4528,N,07914.3609,W,1,9,1.8,19,M,,M,,*52
06/19/2015	19:07:28.542	$GPGGA,190729,2515.4538,N,07914.3623,W,1,9,1.8,19,M,,M,,*5A
06/19/2015	19:07:29.548	$GPGGA,190730,2515.4547,N,07914.3634,W,1,9,1.8,19,M,,M,,*5C
06/19/2015	19:07:30.528	$GPGGA,190731,2515.4557,N,07914.3646,W,1,9,1.8,19,M,,M,,*59
06/19/2015	19:07:31.578	$GPGGA,190732,2515.4567,N,07914.3660,W,1,9,1.8,19,M,,M,,*5D
06/19/2015	19:07:32.518	$GPGGA,190733,2515.4576,N,07914.3674,W,1,9,1.8,19,M,,M,,*59
06/19/2015	19:07:33.539	$GPGGA,190734,2515.4585,N,07914.3686,W,1,9,1.8,19,M,,M,,*5F
06/19/2015	19:07:34.518	$GPGGA,190735,2515.4594,N,07914.3700,W,1,9,1.8,19,M,,M,,*51
06/19/2015	19:07:35.541	$GPGGA,190736,2515.4601,N,07914.3715,W,1,9,1.8,19,M,,M,,*59
06/19/2015	19:07:36.532	$GPGGA,190737,2515.4608,N,07914.3729,W,1,9,1.8,19,M,,M,,*5E
06/19/2015	19:07:37.517	$GPGGA,190738,2515.4617,N,07914.3744,W,1,9,1.8,19,M,,M,,*54
06/19/2015	19:07:38.533	$GPGGA,190739,2515.4625,N,07914.3759,W,1,9,1.8,19,M,,M,,*58
06/19/2015	19:07:39.543	$GPGGA,190740,2515.4632,N,07914.3775,W,1,9,1.8,19,M,,M,,*5E
06/19/2015	19:07:40.531	$GPGGA,190741,2515.4639,N,07914.3790,W,1,9,1.8,19,M,,M,,*5F
06/19/2015	19:07:41.538	$GPGGA,190742,2515.4646,N,07914.3805,W,1,9,1.8,19,M,,M,,*57
06/19/2015	19:07:42.507	$GPGGA,190743,2515.4651,N,07914.3822,W,1,9,1.8,18,M,,M,,*54
06/19/2015	19:07:43.548	$GPGGA,190744,2515.4659,N,07914.3837,W,1,9,1.8,18,M,,M,,*5F
06/19/2015	19:07:44.498	$GPGGA,190745,2515.4665,N,07914.3853,W,1,9,1.8,18,M,,M,,*53
06/19/2015	19:07:45.531	$GPGGA,190746,2515.4670,N,07914.3870,W,1,9,1.8,18,M,,M,,*55
06/19/2015	19:07:46.508	$GPGGA,190747,2515.4676,N,07914.3887,W,1,9,1.8,18,M,,M,,*5A
06/19/2015	19:07:47.508	$GPGGA,190748,2515.4682,N,07914.3903,W,1,9,1.8,18,M,,M,,*53
06/19/2015	19:07:48.488	$GPGGA,190749,2515.4687,N,07914.3920,W,1,9,1.8,18,M,,M,,*56
06/19/2015	19:07:49.508	$GPGGA,190750,2515.4691,N,07914.3938,W,1,9,1.8,18,M,,M,,*50
06/19/2015	19:07:50.538	$GPGGA,190751,2515.4697,N,07914.3954,W,1,9,1.9,18,M,,M,,*5C
06/19/2015	19:07:51.628	$GPGGA,190752,2515.4702,N,07914.3971,W,1,8,1.9,18,M,,M,,*54
06/19/2015	19:07:52.498	$GPGGA,190753,2515.4706,N,07914.3988,W,1,8,1.8,18,M,,M,,*56
06/19/2015	19:07:53.508	$GPGGA,190754,2515.4709,N,07914.4006,W,1,9,1.8,18,M,,M,,*57
06/19/2015	19:07:54.487	$GPGGA,190755,2515.4713,N,07914.4025,W,1,9,1.8,18,M,,M,,*5C
06/19/2015	19:07:55.587	$GPGGA,190756,2515.4716,N,07914.4042,W,1,8,2.2,18,M,,M,,*53
06/19/2015	19:07:56.497	$GPGGA,190757,2515.4719,N,07914.4058,W,1,8,2.2,18,M,,M,,*56
06/19/2015	19:07:57.577	$GPGGA,190758,2515.4720,N,07914.4077,W,1,8,2.2,17,M,,M,,*51
06/19/2015	19:07:58.587	$GPGGA,190759,2515.4724,N,07914.4097,W,1,8,1.8,17,M,,M,,*53
06/19/2015	19:07:59.637	$GPGGA,190800,2515.4727,N,07914.4115,W,1,9,1.8,17,M,,M,,*59
06/19/2015	19:08:00.577	$GPGGA,190801,2515.4727,N,07914.4133,W,1,9,1.8,17,M,,M,,*5C
06/19/2015	19:08:01.578	$GPGGA,190802,2515.4729,N,07914.4151,W,1,9,1.8,17,M,,M,,*55
06/19/2015	19:08:02.568	$GPGGA,190803,2515.4731,N,07914.4169,W,1,9,1.8,17,M,,M,,*56
06/19/2015	19:08:03.598	$GPGGA,190804,2515.4731,N,07914.4188,W,1,9,1.8,17,M,,M,,*5E
06/19/2015	19:08:04.558	$GPGGA,190805,2515.4731,N,07914.4207,W,1,9,1.8,17,M,,M,,*5B
06/19/2015	19:08:05.599	$GPGGA,190806,2515.4731,N,07914.4225,W,1,9,1.8,17,M,,M,,*58
06/19/2015	19:08:06.998	$GPGGA,190807,2515.4734,N,07914.4245,W,1,9,1.8,17,M,,M,,*5A
06/19/2015	19:08:07.588	$GPGGA,190808,2515.4732,N,07914.4263,W,1,9,1.8,17,M,,M,,*57
06/19/2015	19:08:08.558	$GPGGA,190809,2515.4734,N,07914.4281,W,1,9,1.8,17,M,,M,,*5C
06/19/2015	19:08:09.568	$GPGGA,190810,2515.4734,N,07914.4300,W,1,9,1.8,17,M,,M,,*5C
06/19/2015	19:08:10.608	$GPGGA,190811,2515.4734,N,07914.4321,W,1,9,1.8,17,M,,M,,*5E
06/19/2015	19:08:11.588	$GPGGA,190812,2515.4734,N,07914.4339,W,1,9,1.8,17,M,,M,,*54
06/19/2015	19:08:12.540	$GPGGA,190813,2515.4734,N,07914.4357,W,1,9,1.8,17,M,,M,,*5D
06/19/2015	19:08:13.577	$GPGGA,190814,2515.4735,N,07914.4376,W,1,9,1.8,17,M,,M,,*58
06/19/2015	19:08:14.547	$GPGGA,190815,2515.4734,N,07914.4395,W,1,9,1.8,17,M,,M,,*55
06/19/2015	19:08:15.587	$GPGGA,190816,2515.4735,N,07914.4415,W,1,9,1.8,17,M,,M,,*58
06/19/2015	19:08:16.544	$GPGGA,190817,2515.4735,N,07914.4433,W,1,9,1.8,17,M,,M,,*5D
06/19/2015	19:08:17.557	$GPGGA,190818,2515.4737,N,07914.4452,W,1,9,1.8,17,M,,M,,*57
06/19/2015	19:08:18.542	$GPGGA,190819,2515.4736,N,07914.4472,W,1,9,1.8,17,M,,M,,*55
06/19/2015	19:08:19.578	$GPGGA,190820,2515.4738,N,07914.4491,W,1,9,1.8,17,M,,M,,*5C
06/19/2015	19:08:20.532	$GPGGA,190821,2515.4738,N,07914.4510,W,1,9,1.8,17,M,,M,,*55
06/19/2015	19:08:21.518	$GPGGA,190822,2515.4740,N,07914.4530,W,1,9,1.8,17,M,,M,,*5B
06/19/2015	19:08:22.540	$GPGGA,190823,2515.4741,N,07914.4548,W,1,9,1.8,17,M,,M,,*54
06/19/2015	19:08:23.532	$GPGGA,190824,2515.4742,N,07914.4567,W,1,9,1.8,17,M,,M,,*5D
06/19/2015	19:08:24.532	$GPGGA,190825,2515.4742,N,07914.4588,W,1,9,2.2,17,M,,M,,*54
06/19/2015	19:08:25.519	$GPGGA,190826,2515.4745,N,07914.4606,W,1,8,2.2,17,M,,M,,*54
06/19/2015	19:08:26.528	$GPGGA,190827,2515.4747,N,07914.4625,W,1,8,2.2,17,M,,M,,*56
06/19/2015	19:08:27.518	$GPGGA,190828,2515.4746,N,07914.4646,W,1,8,2.2,17,M,,M,,*5D
06/19/2015	19:08:28.508	$GPGGA,190829,2515.4749,N,07914.4665,W,1,8,2.2,17,M,,M,,*52
06/19/2015	19:08:29.537	$GPGGA,190830,2515.4753,N,07914.4684,W,1,9,1.8,17,M,,M,,*56
06/19/2015	19:08:30.507	$GPGGA,190831,2515.4755,N,07914.4704,W,1,9,2.2,17,M,,M,,*51
06/19/2015	19:08:31.529	$GPGGA,190832,2515.4760,N,07914.4725,W,1,8,2.2,17,M,,M,,*56
06/19/2015	19:08:32.497	$GPGGA,190833,2515.4763,N,07914.4744,W,1,8,1.8,17,M,,M,,*5A
06/19/2015	19:08:33.517	$GPGGA,190834,2515.4769,N,07914.4763,W,1,9,1.8,17,M,,M,,*53
06/19/2015	19:08:34.507	$GPGGA,190835,2515.4771,N,07914.4783,W,1,9,1.8,17,M,,M,,*55
06/19/2015	19:08:35.527	$GPGGA,190836,2515.4774,N,07914.4802,W,1,9,1.8,17,M,,M,,*55
06/19/2015	19:08:36.488	$GPGGA,190837,2515.4777,N,07914.4823,W,1,9,1.9,17,M,,M,,*55
06/19/2015	19:08:37.488	$GPGGA,190838,2515.4781,N,07914.4841,W,1,8,1.9,17,M,,M,,*56
06/19/2015	19:08:38.508	$GPGGA,190839,2515.4785,N,07914.4860,W,1,8,1.9,17,M,,M,,*50
06/19/2015	19:08:39.508	$GPGGA,190840,2515.4788,N,07914.4881,W,1,8,1.9,17,M,,M,,*5C
06/19/2015	19:08:40.579	$GPGGA,190841,2515.4791,N,07914.4902,W,1,8,1.9,17,M,,M,,*5F
06/19/2015	19:08:41.508	$GPGGA,190842,2515.4792,N,07914.4922,W,1,9,1.8,17,M,,M,,*5D
06/19/2015	19:08:42.478	$GPGGA,190843,2515.4795,N,07914.4942,W,1,9,1.8,17,M,,M,,*5D
06/19/2015	19:08:43.488	$GPGGA,190844,2515.4796,N,07914.4961,W,1,8,2.2,17,M,,M,,*50
06/19/2015	19:08:44.578	$GPGGA,190845,2515.4799,N,07914.4980,W,1,8,2.2,17,M,,M,,*51
06/19/2015	19:08:45.588	$GPGGA,190846,2515.4800,N,07914.5000,W,1,8,2.2,17,M,,M,,*5D
06/19/2015	19:08:46.598	$GPGGA,190847,2515.4803,N,07914.5020,W,1,8,1.8,17,M,,M,,*54
06/19/2015	19:08:47.577	$GPGGA,190848,2515.4810,N,07914.5040,W,1,8,2.2,17,M,,M,,*56
06/19/2015	19:08:48.587	$GPGGA,190849,2515.4810,N,07914.5059,W,1,8,1.8,17,M,,M,,*56
06/19/2015	19:08:49.567	$GPGGA,190850,2515.4811,N,07914.5079,W,1,8,2.2,17,M,,M,,*54
06/19/2015	19:08:50.587	$GPGGA,190851,2515.4816,N,07914.5099,W,1,8,1.8,17,M,,M,,*55
06/19/2015	19:08:51.577	$GPGGA,190852,2515.4818,N,07914.5119,W,1,8,2.2,17,M,,M,,*58
06/19/2015	19:08:52.567	$GPGGA,190853,2515.4820,N,07914.5138,W,1,8,2.0,17,M,,M,,*53
06/19/2015	19:08:54.598	$GPGGA,190855,2515.4825,N,07914.5178,W,1,8,2.0,17,M,,M,,*54
06/19/2015	19:08:55.578	$GPGGA,190856,2515.4828,N,07914.5199,W,1,8,2.0,17,M,,M,,*55
06/19/2015	19:08:56.548	$GPGGA,190857,2515.4832,N,07914.5217,W,1,8,2.0,17,M,,M,,*5A
06/19/2015	19:08:57.548	$GPGGA,190858,2515.4834,N,07914.5238,W,1,8,2.0,17,M,,M,,*5E
06/19/2015	19:08:58.558	$GPGGA,190859,2515.4836,N,07914.5257,W,1,8,2.0,17,M,,M,,*54
06/19/2015	19:08:59.588	$GPGGA,190900,2515.4839,N,07914.5278,W,1,8,2.0,17,M,,M,,*5B
06/19/2015	19:09:00.544	$GPGGA,190901,2515.4843,N,07914.5297,W,1,8,2.0,17,M,,M,,*56
06/19/2015	19:09:01.558	$GPGGA,190902,2515.4845,N,07914.5318,W,1,8,2.0,17,M,,M,,*55
06/19/2015	19:09:02.544	$GPGGA,190903,2515.4846,N,07914.5337,W,1,8,2.0,17,M,,M,,*5A
06/19/2015	19:09:03.568	$GPGGA,190904,2515.4850,N,07914.5358,W,1,8,2.0,17,M,,M,,*53
06/19/2015	19:09:04.544	$GPGGA,190905,2515.4852,N,07914.5377,W,1,8,2.0,17,M,,M,,*5D
06/19/2015	19:09:05.557	$GPGGA,190906,2515.4854,N,07914.5397,W,1,8,2.0,17,M,,M,,*56
06/19/2015	19:09:06.543	$GPGGA,190907,2515.4857,N,07914.5417,W,1,8,2.0,17,M,,M,,*5B
06/19/2015	19:09:07.567	$GPGGA,190908,2515.4861,N,07914.5437,W,1,8,2.0,17,M,,M,,*53
06/19/2015	19:09:08.530	$GPGGA,190909,2515.4863,N,07914.5457,W,1,8,2.0,17,M,,M,,*56
06/19/2015	19:09:09.557	$GPGGA,190910,2515.4865,N,07914.5477,W,1,8,2.0,17,M,,M,,*5A
06/19/2015	19:09:10.532	$GPGGA,190911,2515.4868,N,07914.5498,W,1,8,2.0,17,M,,M,,*57
06/19/2015	19:09:11.578	$GPGGA,190912,2515.4871,N,07914.5517,W,1,8,2.0,17,M,,M,,*5A
06/19/2015	19:09:12.537	$GPGGA,190913,2515.4874,N,07914.5538,W,1,8,2.0,17,M,,M,,*53
06/19/2015	19:09:13.552	$GPGGA,190914,2515.4876,N,07914.5557,W,1,8,2.0,17,M,,M,,*5F
06/19/2015	19:09:14.509	$GPGGA,190915,2515.4879,N,07914.5578,W,1,8,2.0,17,M,,M,,*5C
06/19/2015	19:09:15.544	$GPGGA,190916,2515.4882,N,07914.5598,W,1,8,2.0,17,M,,M,,*55
06/19/2015	19:09:16.508	$GPGGA,190917,2515.4885,N,07914.5618,W,1,8,1.6,17,M,,M,,*5D
06/19/2015	19:09:17.518	$GPGGA,190918,2515.4890,N,07914.5639,W,1,8,2.0,16,M,,M,,*51
06/19/2015	19:09:18.518	$GPGGA,190919,2515.4893,N,07914.5659,W,1,8,1.6,16,M,,M,,*50
06/19/2015	19:09:19.518	$GPGGA,190920,2515.4896,N,07914.5679,W,1,9,1.6,16,M,,M,,*5C
06/19/2015	19:09:20.618	$GPGGA,190921,2515.4899,N,07914.5699,W,1,9,1.6,16,M,,M,,*5C
06/19/2015	19:09:21.538	$GPGGA,190922,2515.4906,N,07914.5719,W,1,8,2.0,16,M,,M,,*55
06/19/2015	19:09:22.507	$GPGGA,190923,2515.4907,N,07914.5740,W,1,8,1.6,16,M,,M,,*5C
06/19/2015	19:09:23.553	$GPGGA,190924,2515.4910,N,07914.5760,W,1,9,1.6,16,M,,M,,*5E
06/19/2015	19:09:24.607	$GPGGA,190925,2515.4914,N,07914.5780,W,1,9,1.6,16,M,,M,,*55
06/19/2015	19:09:25.587	$GPGGA,190926,2515.4919,N,07914.5799,W,1,9,1.6,16,M,,M,,*53
06/19/2015	19:09:26.587	$GPGGA,190927,2515.4922,N,07914.5820,W,1,9,1.6,16,M,,M,,*57
06/19/2015	19:09:27.607	$GPGGA,190928,2515.4925,N,07914.5842,W,1,9,1.6,16,M,,M,,*5B
06/19/2015	19:09:28.608	$GPGGA,190929,2515.4929,N,07914.5860,W,1,9,1.6,16,M,,M,,*56
06/19/2015	19:09:29.508	$GPGGA,190930,2515.4933,N,07914.5881,W,1,9,1.6,17,M,,M,,*5B
06/19/2015	19:09:30.488	$GPGGA,190931,2515.4937,N,07914.5900,W,1,9,1.6,17,M,,M,,*56
06/19/2015	19:09:31.488	$GPGGA,190932,2515.4939,N,07914.5921,W,1,9,1.6,17,M,,M,,*58
06/19/2015	19:09:32.578	$GPGGA,190933,2515.4943,N,07914.5940,W,1,9,1.6,17,M,,M,,*53
06/19/2015	19:09:33.578	$GPGGA,190934,2515.4948,N,07914.5961,W,1,9,1.6,17,M,,M,,*5C
06/19/2015	19:09:34.578	$GPGGA,190935,2515.4951,N,07914.5980,W,1,9,1.6,17,M,,M,,*5A
06/19/2015	19:09:35.608	$GPGGA,190936,2515.4954,N,07914.6001,W,1,9,1.6,17,M,,M,,*5F
06/19/2015	19:09:36.578	$GPGGA,190937,2515.4958,N,07914.6022,W,1,9,1.6,17,M,,M,,*53
06/19/2015	19:09:37.578	$GPGGA,190938,2515.4962,N,07914.6040,W,1,9,1.6,17,M,,M,,*51
06/19/2015	19:09:38.568	$GPGGA,190939,2515.4965,N,07914.6059,W,1,9,1.7,17,M,,M,,*5E
06/19/2015	19:09:39.607	$GPGGA,190940,2515.4969,N,07914.6080,W,1,9,1.6,17,M,,M,,*59
06/19/2015	19:09:40.567	$GPGGA,190941,2515.4972,N,07914.6099,W,1,9,1.7,17,M,,M,,*5B
06/19/2015	19:09:41.607	$GPGGA,190942,2515.4976,N,07914.6118,W,1,9,1.6,17,M,,M,,*55
06/19/2015	19:09:42.567	$GPGGA,190943,2515.4980,N,07914.6138,W,1,9,1.6,17,M,,M,,*5F
06/19/2015	19:09:43.577	$GPGGA,190944,2515.4983,N,07914.6160,W,1,9,1.6,17,M,,M,,*56
06/19/2015	19:09:44.557	$GPGGA,190945,2515.4986,N,07914.6179,W,1,9,1.6,17,M,,M,,*5A
06/19/2015	19:09:45.577	$GPGGA,190946,2515.4990,N,07914.6199,W,1,9,1.6,17,M,,M,,*50
06/19/2015	19:09:46.548	$GPGGA,190947,2515.4994,N,07914.6218,W,1,9,1.6,17,M,,M,,*5F
06/19/2015	19:09:47.598	$GPGGA,190948,2515.4995,N,07914.6239,W,1,9,1.7,17,M,,M,,*53
06/19/2015	19:09:48.548	$GPGGA,190949,2515.5000,N,07914.6257,W,1,9,1.6,17,M,,M,,*5F
06/19/2015	19:09:49.558	$GPGGA,190950,2515.5005,N,07914.6276,W,1,10,1.6,17,M,,M,,*69
06/19/2015	19:09:50.548	$GPGGA,190951,2515.5009,N,07914.6297,W,1,10,1.6,17,M,,M,,*6B
06/19/2015	19:09:51.558	$GPGGA,190952,2515.5011,N,07914.6316,W,1,9,1.7,17,M,,M,,*50
06/19/2015	19:09:52.542	$GPGGA,190953,2515.5013,N,07914.6337,W,1,9,1.6,17,M,,M,,*51
06/19/2015	19:09:53.558	$GPGGA,190954,2515.5018,N,07914.6356,W,1,10,1.6,17,M,,M,,*62
06/19/2015	19:09:54.538	$GPGGA,190955,2515.5022,N,07914.6376,W,1,10,1.6,17,M,,M,,*68
06/19/2015	19:09:55.578	$GPGGA,190956,2515.5026,N,07914.6395,W,1,10,1.6,17,M,,M,,*62
06/19/2015	19:09:56.542	$GPGGA,190957,2515.5030,N,07914.6416,W,1,10,1.6,17,M,,M,,*68
06/19/2015	19:09:57.527	$GPGGA,190958,2515.5031,N,07914.6435,W,1,10,1.6,17,M,,M,,*67
06/19/2015	19:09:58.530	$GPGGA,190959,2515.5034,N,07914.6456,W,1,10,1.7,17,M,,M,,*67
06/19/2015	19:09:59.557	$GPGGA,191000,2515.5038,N,07914.6478,W,1,10,1.6,17,M,,M,,*62
06/19/2015	19:10:00.528	$GPGGA,191001,2515.5041,N,07914.6497,W,1,10,1.6,17,M,,M,,*6C
06/19/2015	19:10:01.547	$GPGGA,191002,2515.5042,N,07914.6518,W,1,10,1.6,17,M,,M,,*6A
06/19/2015	19:10:02.517	$GPGGA,191003,2515.5047,N,07914.6539,W,1,10,1.6,17,M,,M,,*6D
06/19/2015	19:10:03.528	$GPGGA,191004,2515.5051,N,07914.6559,W,1,10,1.6,17,M,,M,,*6B
06/19/2015	19:10:04.530	$GPGGA,191005,2515.5053,N,07914.6579,W,1,10,1.6,17,M,,M,,*6A
06/19/2015	19:10:05.508	$GPGGA,191006,2515.5056,N,07914.6600,W,1,10,1.6,17,M,,M,,*61
06/19/2015	19:10:06.508	$GPGGA,191007,2515.5059,N,07914.6620,W,1,10,1.6,17,M,,M,,*6D
06/19/2015	19:10:07.558	$GPGGA,191008,2515.5063,N,07914.6640,W,1,10,1.6,17,M,,M,,*6D
06/19/2015	19:10:08.508	$GPGGA,191009,2515.5067,N,07914.6660,W,1,10,1.6,17,M,,M,,*6A
06/19/2015	19:10:09.518	$GPGGA,191010,2515.5067,N,07914.6681,W,1,9,1.8,17,M,,M,,*5B
06/19/2015	19:10:10.498	$GPGGA,191011,2515.5070,N,07914.6702,W,1,9,1.6,17,M,,M,,*58
06/19/2015	19:10:11.508	$GPGGA,191012,2515.5073,N,07914.6720,W,1,10,1.6,17,M,,M,,*60
06/19/2015	19:10:12.618	$GPGGA,191013,2515.5076,N,07914.6741,W,1,10,1.6,17,M,,M,,*63
06/19/2015	19:10:13.528	$GPGGA,191014,2515.5078,N,07914.6763,W,1,10,1.6,17,M,,M,,*6A
06/19/2015	19:10:14.517	$GPGGA,191015,2515.5081,N,07914.6782,W,1,10,1.6,17,M,,M,,*62
06/19/2015	19:10:15.667	$GPGGA,191016,2515.5084,N,07914.6801,W,1,10,2.0,17,M,,M,,*65
06/19/2015	19:10:16.497	$GPGGA,191017,2515.5087,N,07914.6821,W,1,10,2.0,17,M,,M,,*65
06/19/2015	19:10:17.507	$GPGGA,191018,2515.5089,N,07914.6842,W,1,9,2.0,17,M,,M,,*59
06/19/2015	19:10:18.487	$GPGGA,191019,2515.5094,N,07914.6861,W,1,9,1.6,17,M,,M,,*50
06/19/2015	19:10:19.607	$GPGGA,191020,2515.5099,N,07914.6880,W,1,10,1.6,17,M,,M,,*60
06/19/2015	19:10:20.487	$GPGGA,191021,2515.5100,N,07914.6901,W,1,10,1.6,17,M,,M,,*68
06/19/2015	19:10:21.609	$GPGGA,191022,2515.5102,N,07914.6922,W,1,9,2.0,17,M,,M,,*55
06/19/2015	19:10:22.488	$GPGGA,191023,2515.5106,N,07914.6941,W,1,9,2.0,17,M,,M,,*55
06/19/2015	19:10:23.629	$GPGGA,191024,2515.5109,N,07914.6960,W,1,10,2.0,17,M,,M,,*66
06/19/2015	19:10:24.498	$GPGGA,191025,2515.5112,N,07914.6980,W,1,10,2.0,17,M,,M,,*63
06/19/2015	19:10:25.588	$GPGGA,191026,2515.5114,N,07914.7001,W,1,10,1.6,17,M,,M,,*62
06/19/2015	19:10:26.578	$GPGGA,191027,2515.5118,N,07914.7020,W,1,10,1.8,17,M,,M,,*62
06/19/2015	19:10:27.638	$GPGGA,191028,2515.5123,N,07914.7039,W,1,9,1.7,17,M,,M,,*5A
06/19/2015	19:10:28.568	$GPGGA,191029,2515.5128,N,07914.7056,W,1,9,1.6,17,M,,M,,*58
06/19/2015	19:10:29.588	$GPGGA,191030,2515.5132,N,07914.7072,W,1,10,1.8,17,M,,M,,*6B
06/19/2015	19:10:30.578	$GPGGA,191031,2515.5136,N,07914.7090,W,1,10,1.6,17,M,,M,,*6C
06/19/2015	19:10:31.578	$GPGGA,191032,2515.5141,N,07914.7108,W,1,10,1.6,17,M,,M,,*6F
06/19/2015	19:10:32.567	$GPGGA,191033,2515.5146,N,07914.7126,W,1,10,1.6,17,M,,M,,*65
06/19/2015	19:10:33.557	$GPGGA,191034,2515.5150,N,07914.7144,W,1,10,1.6,17,M,,M,,*61
06/19/2015	19:10:34.557	$GPGGA,191035,2515.5156,N,07914.7162,W,1,10,1.6,17,M,,M,,*62
06/19/2015	19:10:35.587	$GPGGA,191036,2515.5161,N,07914.7180,W,1,10,1.6,18,M,,M,,*66
06/19/2015	19:10:36.557	$GPGGA,191037,2515.5165,N,07914.7198,W,1,10,1.6,18,M,,M,,*6A
06/19/2015	19:10:37.557	$GPGGA,191038,2515.5172,N,07914.7215,W,1,10,1.6,18,M,,M,,*65
06/19/2015	19:10:38.558	$GPGGA,191039,2515.5178,N,07914.7233,W,1,10,1.6,18,M,,M,,*6A
06/19/2015	19:10:39.608	$GPGGA,191040,2515.5182,N,07914.7249,W,1,10,1.6,18,M,,M,,*6C
06/19/2015	19:10:40.548	$GPGGA,191041,2515.5190,N,07914.7266,W,1,10,1.6,18,M,,M,,*63
06/19/2015	19:10:41.568	$GPGGA,191042,2515.5197,N,07914.7283,W,1,10,1.6,18,M,,M,,*6C
06/19/2015	19:10:42.548	$GPGGA,191043,2515.5203,N,07914.7299,W,1,10,1.6,18,M,,M,,*68
06/19/2015	19:10:43.638	$GPGGA,191044,2515.5210,N,07914.7316,W,1,10,1.6,18,M,,M,,*6B
06/19/2015	19:10:44.539	$GPGGA,191045,2515.5217,N,07914.7330,W,1,10,1.6,18,M,,M,,*69
06/19/2015	19:10:45.568	$GPGGA,191046,2515.5224,N,07914.7346,W,1,10,1.8,18,M,,M,,*65
06/19/2015	19:10:46.541	$GPGGA,191047,2515.5232,N,07914.7361,W,1,10,1.8,18,M,,M,,*66
06/19/2015	19:10:47.588	$GPGGA,191048,2515.5240,N,07914.7377,W,1,9,1.8,18,M,,M,,*53
06/19/2015	19:10:48.532	$GPGGA,191049,2515.5248,N,07914.7392,W,1,9,1.8,18,M,,M,,*51
06/19/2015	19:10:49.557	$GPGGA,191050,2515.5257,N,07914.7406,W,1,9,1.8,18,M,,M,,*5D
06/19/2015	19:10:50.544	$GPGGA,191051,2515.5265,N,07914.7421,W,1,9,1.6,18,M,,M,,*56
06/19/2015	19:10:51.567	$GPGGA,191052,2515.5273,N,07914.7435,W,1,10,1.6,18,M,,M,,*6F
06/19/2015	19:10:52.527	$GPGGA,191053,2515.5283,N,07914.7449,W,1,10,1.6,18,M,,M,,*6A
06/19/2015	19:10:53.518	$GPGGA,191054,2515.5293,N,07914.7461,W,1,10,1.6,18,M,,M,,*66
06/19/2015	19:10:54.542	$GPGGA,191055,2515.5302,N,07914.7475,W,1,10,1.6,18,M,,M,,*6B
06/19/2015	19:10:55.567	$GPGGA,191056,2515.5313,N,07914.7487,W,1,10,1.6,18,M,,M,,*65
06/19/2015	19:10:56.508	$GPGGA,191057,2515.5323,N,07914.7500,W,1,10,1.6,18,M,,M,,*69
06/19/2015	19:10:57.518	$GPGGA,191058,2515.5333,N,07914.7511,W,1,10,1.6,18,M,,M,,*67
06/19/2015	19:10:58.518	$GPGGA,191059,2515.5344,N,07914.7525,W,1,10,1.8,17,M,,M,,*60
06/19/2015	19:10:59.638	$GPGGA,191100,2515.5355,N,07914.7536,W,1,9,1.8,17,M,,M,,*57
06/19/2015	19:11:00.518	$GPGGA,191101,2515.5367,N,07914.7548,W,1,9,1.8,17,M,,M,,*5E
06/19/2015	19:11:01.648	$GPGGA,191102,2515.5378,N,07914.7561,W,1,9,1.8,17,M,,M,,*58
06/19/2015	19:11:02.531	$GPGGA,191103,2515.5391,N,07914.7573,W,1,9,1.8,17,M,,M,,*5D
06/19/2015	19:11:03.558	$GPGGA,191104,2515.5403,N,07914.7585,W,1,9,1.8,17,M,,M,,*5F
06/19/2015	19:11:04.498	$GPGGA,191105,2515.5414,N,07914.7598,W,1,9,1.8,17,M,,M,,*54
06/19/2015	19:11:05.588	$GPGGA,191106,2515.5428,N,07914.7609,W,1,9,1.8,17,M,,M,,*53
06/19/2015	19:11:06.478	$GPGGA,191107,2515.5439,N,07914.7623,W,1,9,1.8,17,M,,M,,*5A
06/19/2015	19:11:07.634	$GPGGA,191108,2515.5452,N,07914.7634,W,1,9,1.6,17,M,,M,,*50
06/19/2015	19:11:08.507	$GPGGA,191109,2515.5463,N,07914.7645,W,1,9,1.6,17,M,,M,,*55
06/19/2015	19:11:09.597	$GPGGA,191110,2515.5475,N,07914.7656,W,1,10,2.0,17,M,,M,,*65
06/19/2015	19:11:10.497	$GPGGA,191111,2515.5486,N,07914.7670,W,1,10,1.8,18,M,,M,,*68
06/19/2015	19:11:11.598	$GPGGA,191112,2515.5497,N,07914.7682,W,1,9,1.8,18,M,,M,,*5E
06/19/2015	19:11:12.487	$GPGGA,191113,2515.5510,N,07914.7695,W,1,9,1.8,18,M,,M,,*57
06/19/2015	19:11:13.607	$GPGGA,191114,2515.5521,N,07914.7706,W,1,9,1.8,18,M,,M,,*59
06/19/2015	19:11:14.487	$GPGGA,191115,2515.5533,N,07914.7717,W,1,9,1.8,18,M,,M,,*5B
06/19/2015	19:11:15.928	$GPGGA,191116,2515.5546,N,07914.7728,W,1,9,1.6,18,M,,M,,*58
06/19/2015	19:11:16.557	$GPGGA,191117,2515.5558,N,07914.7738,W,1,9,1.6,18,M,,M,,*57
06/19/2015	19:11:17.577	$GPGGA,191118,2515.5572,N,07914.7749,W,1,10,1.8,18,M,,M,,*60
06/19/2015	19:11:18.557	$GPGGA,191119,2515.5584,N,07914.7760,W,1,10,1.8,18,M,,M,,*63
06/19/2015	19:11:19.587	$GPGGA,191120,2515.5598,N,07914.7769,W,1,9,1.8,18,M,,M,,*55
06/19/2015	19:11:20.557	$GPGGA,191121,2515.5611,N,07914.7778,W,1,9,1.6,18,M,,M,,*58
06/19/2015	19:11:21.557	$GPGGA,191122,2515.5625,N,07914.7789,W,1,10,1.6,19,M,,M,,*6B
06/19/2015	19:11:22.557	$GPGGA,191123,2515.5638,N,07914.7797,W,1,10,1.6,19,M,,M,,*69
06/19/2015	19:11:23.577	$GPGGA,191124,2515.5654,N,07914.7807,W,1,10,2.0,19,M,,M,,*67
06/19/2015	19:11:24.547	$GPGGA,191125,2515.5667,N,07914.7815,W,1,10,2.0,19,M,,M,,*65
06/19/2015	19:11:25.557	$GPGGA,191126,2515.5681,N,07914.7825,W,1,10,2.2,19,M,,M,,*6F
06/19/2015	19:11:26.547	$GPGGA,191127,2515.5699,N,07914.7833,W,1,10,2.2,19,M,,M,,*60
06/19/2015	19:11:27.547	$GPGGA,191128,2515.5714,N,07914.7841,W,1,9,1.8,19,M,,M,,*5F
06/19/2015	19:11:28.540	$GPGGA,191129,2515.5727,N,07914.7850,W,1,9,1.6,19,M,,M,,*50
06/19/2015	19:11:29.539	$GPGGA,191130,2515.5742,N,07914.7858,W,1,10,1.6,19,M,,M,,*6B
06/19/2015	19:11:30.532	$GPGGA,191131,2515.5757,N,07914.7865,W,1,10,1.6,20,M,,M,,*6A
06/19/2015	19:11:31.568	$GPGGA,191132,2515.5771,N,07914.7872,W,1,10,1.6,20,M,,M,,*6B
06/19/2015	19:11:32.537	$GPGGA,191133,2515.5786,N,07914.7879,W,1,10,2.0,20,M,,M,,*6C
06/19/2015	19:11:33.524	$GPGGA,191134,2515.5800,N,07914.7887,W,1,8,2.2,20,M,,M,,*50
06/19/2015	19:11:34.539	$GPGGA,191135,2515.5814,N,07914.7892,W,1,8,2.0,20,M,,M,,*52
06/19/2015	19:11:35.557	$GPGGA,191136,2515.5829,N,07914.7898,W,1,9,2.0,20,M,,M,,*54
06/19/2015	19:11:36.537	$GPGGA,191137,2515.5846,N,07914.7905,W,1,9,2.0,20,M,,M,,*59
06/19/2015	19:11:37.507	$GPGGA,191138,2515.5862,N,07914.7909,W,1,10,1.6,20,M,,M,,*61
06/19/2015	19:11:38.507	$GPGGA,191139,2515.5878,N,07914.7915,W,1,10,1.6,20,M,,M,,*66
06/19/2015	19:11:39.557	$GPGGA,191140,2515.5893,N,07914.7919,W,1,10,1.6,20,M,,M,,*61
06/19/2015	19:11:40.507	$GPGGA,191141,2515.5909,N,07914.7924,W,1,10,1.6,20,M,,M,,*6C
06/19/2015	19:11:41.536	$GPGGA,191142,2515.5925,N,07914.7928,W,1,9,1.8,20,M,,M,,*5B
06/19/2015	19:11:42.518	$GPGGA,191143,2515.5940,N,07914.7931,W,1,9,1.8,20,M,,M,,*51
06/19/2015	19:11:43.540	$GPGGA,191144,2515.5956,N,07914.7935,W,1,10,1.6,20,M,,M,,*63
06/19/2015	19:11:44.522	$GPGGA,191145,2515.5972,N,07914.7938,W,1,10,1.6,20,M,,M,,*69
06/19/2015	19:11:45.523	$GPGGA,191146,2515.5988,N,07914.7942,W,1,10,1.6,20,M,,M,,*62
06/19/2015	19:11:46.530	$GPGGA,191147,2515.6006,N,07914.7945,W,1,10,1.6,20,M,,M,,*68
06/19/2015	19:11:47.550	$GPGGA,191148,2515.6021,N,07914.7948,W,1,10,1.6,20,M,,M,,*6F
06/19/2015	19:11:48.522	$GPGGA,191149,2515.6038,N,07914.7952,W,1,10,1.7,20,M,,M,,*6C
06/19/2015	19:11:49.532	$GPGGA,191150,2515.6053,N,07914.7955,W,1,9,1.7,20,M,,M,,*56
