Software Version Number: 1	Data File Format Number: 1	Build Version Number: 1	Error Count Since VI Started: 1	Manufacturer: Raytheon	 Model Number: RayMarine 120	 S/N: 	 Cal Date: 	 Wind Direction Offset: 0.00	 Slope (M)1: 0.00	 Offset (B)1: 0.00	 Slope (M)2: 0.00	 Offset (B)2: 0.00	 Slope (M)3: 0.00	 Offset (B)3: 0.00	 Slope (M)4: 0.00	 Offset (B)4: 0.00	 Slope (M)5: 0.00	 Offset (B)5: 0.00	 Slope (M)6: 0.00	 Offset (B)6: 0.00
Computer Date	Computer Time	GGA String
06/19/2015	01:00:00.535	$GPGGA,010001,2603.5922,N,07916.6040,W,1,8,1.9,15,M,,M,,*54
06/19/2015	01:00:01.555	$GPGGA,010002,2603.5938,N,07916.6044,W,1,7,2.7,15,M,,M,,*5A
06/19/2015	01:00:02.535	$GPGGA,010003,2603.5955,N,07916.6049,W,1,7,2.7,15,M,,M,,*5D
06/19/2015	01:00:03.569	$GPGGA,010004,2603.5972,N,07916.6055,W,1,8,1.9,15,M,,M,,*50
06/19/2015	01:00:04.525	$GPGGA,010005,2603.5988,N,07916.6059,W,1,8,1.9,15,M,,M,,*58
06/19/2015	01:00:05.535	$GPGGA,010006,2603.6003,N,07916.6062,W,1,7,2.7,15,M,,M,,*58
06/19/2015	01:00:06.524	$GPGGA,010007,2603.6020,N,07916.6066,W,1,7,2.0,15,M,,M,,*5B
06/19/2015	01:00:07.634	$GPGGA,010008,2603.6035,N,07916.6069,W,1,8,1.9,15,M,,M,,*5A
06/19/2015	01:00:08.494	$GPGGA,010009,2603.6050,N,07916.6071,W,1,8,2.7,16,M,,M,,*5F
06/19/2015	01:00:09.494	$GPGGA,010010,2603.6067,N,07916.6076,W,1,7,2.7,16,M,,M,,*5B
06/19/2015	01:00:10.513	$GPGGA,010011,2603.6082,N,07916.6080,W,1,7,2.7,16,M,,M,,*58
06/19/2015	01:00:11.603	$GPGGA,010012,2603.6100,N,07916.6087,W,1,7,2.7,16,M,,M,,*57
06/19/2015	01:00:12.503	$GPGGA,010013,2603.6117,N,07916.6092,W,1,7,1.9,17,M,,M,,*58
06/19/2015	01:00:13.493	$GPGGA,010014,2603.6135,N,07916.6098,W,1,8,1.9,17,M,,M,,*5A
06/19/2015	01:00:14.583	$GPGGA,010015,2603.6151,N,07916.6105,W,1,8,1.9,17,M,,M,,*5C
06/19/2015	01:00:15.493	$GPGGA,010016,2603.6169,N,07916.6113,W,1,8,1.9,17,M,,M,,*53
06/19/2015	01:00:16.483	$GPGGA,010017,2603.6187,N,07916.6120,W,1,8,1.9,17,M,,M,,*52
06/19/2015	01:00:17.483	$GPGGA,010018,2603.6204,N,07916.6128,W,1,8,1.9,18,M,,M,,*52
06/19/2015	01:00:18.573	$GPGGA,010019,2603.6219,N,07916.6135,W,1,8,2.7,18,M,,M,,*5E
06/19/2015	01:00:19.623	$GPGGA,010020,2603.6237,N,07916.6143,W,1,8,1.9,18,M,,M,,*54
06/19/2015	01:00:20.493	$GPGGA,010021,2603.6255,N,07916.6152,W,1,8,1.9,18,M,,M,,*51
06/19/2015	01:00:21.573	$GPGGA,010022,2603.6272,N,07916.6163,W,1,7,2.7,18,M,,M,,*57
06/19/2015	01:00:22.563	$GPGGA,010023,2603.6288,N,07916.6171,W,1,7,2.7,19,M,,M,,*51
06/19/2015	01:00:23.584	$GPGGA,010024,2603.6305,N,07916.6181,W,1,8,1.9,19,M,,M,,*5F
06/19/2015	01:00:24.574	$GPGGA,010025,2603.6320,N,07916.6192,W,1,8,1.9,19,M,,M,,*5B
06/19/2015	01:00:25.564	$GPGGA,010026,2603.6337,N,07916.6203,W,1,8,1.9,19,M,,M,,*55
06/19/2015	01:00:26.564	$GPGGA,010027,2603.6353,N,07916.6215,W,1,8,1.9,19,M,,M,,*51
06/19/2015	01:00:27.594	$GPGGA,010028,2603.6370,N,07916.6228,W,1,8,1.9,19,M,,M,,*51
06/19/2015	01:00:28.553	$GPGGA,010029,2603.6385,N,07916.6239,W,1,8,1.9,20,M,,M,,*50
06/19/2015	01:00:29.544	$GPGGA,010030,2603.6403,N,07916.6254,W,1,8,1.9,20,M,,M,,*5A
06/19/2015	01:00:30.543	$GPGGA,010031,2603.6418,N,07916.6266,W,1,8,2.7,20,M,,M,,*5D
06/19/2015	01:00:31.583	$GPGGA,010032,2603.6435,N,07916.6279,W,1,7,2.7,20,M,,M,,*50
06/19/2015	01:00:32.553	$GPGGA,010033,2603.6451,N,07916.6293,W,1,7,2.7,20,M,,M,,*57
06/19/2015	01:00:33.554	$GPGGA,010034,2603.6464,N,07916.6302,W,1,7,2.7,20,M,,M,,*5F
06/19/2015	01:00:34.556	$GPGGA,010035,2603.6479,N,07916.6315,W,1,7,1.9,20,M,,M,,*59
06/19/2015	01:00:35.583	$GPGGA,010036,2603.6494,N,07916.6329,W,1,8,1.9,20,M,,M,,*59
06/19/2015	01:00:36.543	$GPGGA,010037,2603.6511,N,07916.6341,W,1,8,1.9,20,M,,M,,*5A
06/19/2015	01:00:37.553	$GPGGA,010038,2603.6526,N,07916.6356,W,1,8,1.9,20,M,,M,,*57
06/19/2015	01:00:38.546	$GPGGA,010039,2603.6544,N,07916.6371,W,1,8,2.7,21,M,,M,,*5B
06/19/2015	01:00:39.573	$GPGGA,010040,2603.6559,N,07916.6385,W,1,7,2.7,21,M,,M,,*5D
06/19/2015	01:00:40.547	$GPGGA,010041,2603.6574,N,07916.6400,W,1,7,1.9,21,M,,M,,*54
06/19/2015	01:00:41.524	$GPGGA,010042,2603.6590,N,07916.6416,W,1,8,1.9,21,M,,M,,*55
06/19/2015	01:00:42.534	$GPGGA,010043,2603.6606,N,07916.6431,W,1,8,1.9,21,M,,M,,*5D
06/19/2015	01:00:43.564	$GPGGA,010044,2603.6622,N,07916.6447,W,1,8,1.9,21,M,,M,,*5D
06/19/2015	01:00:44.534	$GPGGA,010045,2603.6637,N,07916.6464,W,1,8,1.9,21,M,,M,,*59
06/19/2015	01:00:45.623	$GPGGA,010046,2603.6653,N,07916.6481,W,1,8,1.9,21,M,,M,,*53
06/19/2015	01:00:46.524	$GPGGA,010047,2603.6667,N,07916.6499,W,1,8,1.9,21,M,,M,,*5C
06/19/2015	01:00:47.563	$GPGGA,010048,2603.6681,N,07916.6517,W,1,8,1.9,21,M,,M,,*5C
06/19/2015	01:00:48.523	$GPGGA,010049,2603.6696,N,07916.6533,W,1,8,1.9,21,M,,M,,*5D
06/19/2015	01:00:49.523	$GPGGA,010050,2603.6710,N,07916.6551,W,1,8,1.9,21,M,,M,,*5E
06/19/2015	01:00:50.503	$GPGGA,010051,2603.6722,N,07916.6569,W,1,8,1.9,21,M,,M,,*55
06/19/2015	01:00:51.653	$GPGGA,010052,2603.6736,N,07916.6587,W,1,8,1.9,20,M,,M,,*52
06/19/2015	01:00:52.533	$GPGGA,010053,2603.6749,N,07916.6607,W,1,8,1.9,20,M,,M,,*50
06/19/2015	01:00:53.523	$GPGGA,010054,2603.6761,N,07916.6624,W,1,8,1.9,20,M,,M,,*5C
06/19/2015	01:00:54.513	$GPGGA,010055,2603.6772,N,07916.6642,W,1,8,1.9,20,M,,M,,*5F
06/19/2015	01:00:55.603	$GPGGA,010056,2603.6785,N,07916.6660,W,1,7,2.7,20,M,,M,,*56
06/19/2015	01:00:56.513	$GPGGA,010057,2603.6796,N,07916.6678,W,1,7,1.9,20,M,,M,,*51
06/19/2015	01:00:57.493	$GPGGA,010058,2603.6807,N,07916.6696,W,1,8,1.9,20,M,,M,,*56
06/19/2015	01:00:58.594	$GPGGA,010059,2603.6819,N,07916.6714,W,1,8,1.9,20,M,,M,,*53
06/19/2015	01:00:59.547	$GPGGA,010100,2603.6830,N,07916.6734,W,1,8,1.9,20,M,,M,,*57
06/19/2015	01:01:00.494	$GPGGA,010101,2603.6840,N,07916.6752,W,1,8,1.9,19,M,,M,,*5B
06/19/2015	01:01:01.584	$GPGGA,010102,2603.6851,N,07916.6770,W,1,8,1.9,19,M,,M,,*58
06/19/2015	01:01:02.504	$GPGGA,010103,2603.6862,N,07916.6789,W,1,8,1.9,19,M,,M,,*5F
06/19/2015	01:01:03.493	$GPGGA,010104,2603.6873,N,07916.6808,W,1,8,1.9,19,M,,M,,*5E
06/19/2015	01:01:04.493	$GPGGA,010105,2603.6884,N,07916.6828,W,1,8,1.9,19,M,,M,,*55
06/19/2015	01:01:05.483	$GPGGA,010106,2603.6894,N,07916.6847,W,1,8,1.9,19,M,,M,,*5E
06/19/2015	01:01:06.569	$GPGGA,010107,2603.6905,N,07916.6868,W,1,8,1.9,19,M,,M,,*5B
06/19/2015	01:01:07.613	$GPGGA,010108,2603.6915,N,07916.6887,W,1,8,1.9,19,M,,M,,*54
06/19/2015	01:01:08.563	$GPGGA,010109,2603.6926,N,07916.6907,W,1,8,1.9,19,M,,M,,*5C
06/19/2015	01:01:09.583	$GPGGA,010110,2603.6937,N,07916.6926,W,1,8,1.9,19,M,,M,,*57
06/19/2015	01:01:10.559	$GPGGA,010111,2603.6948,N,07916.6945,W,1,8,1.9,19,M,,M,,*5B
06/19/2015	01:01:11.593	$GPGGA,010112,2603.6958,N,07916.6965,W,1,8,1.9,19,M,,M,,*5B
06/19/2015	01:01:12.564	$GPGGA,010113,2603.6967,N,07916.6985,W,1,8,1.9,18,M,,M,,*59
06/19/2015	01:01:13.604	$GPGGA,010114,2603.6978,N,07916.7005,W,1,8,1.9,18,M,,M,,*50
06/19/2015	01:01:14.563	$GPGGA,010115,2603.6989,N,07916.7023,W,1,8,1.9,18,M,,M,,*5B
06/19/2015	01:01:15.613	$GPGGA,010116,2603.7000,N,07916.7043,W,1,8,1.9,18,M,,M,,*57
06/19/2015	01:01:16.594	$GPGGA,010117,2603.7010,N,07916.7063,W,1,8,1.9,18,M,,M,,*55
06/19/2015	01:01:17.574	$GPGGA,010118,2603.7021,N,07916.7084,W,1,8,1.9,18,M,,M,,*51
06/19/2015	01:01:18.564	$GPGGA,010119,2603.7031,N,07916.7103,W,1,8,1.9,18,M,,M,,*5F
06/19/2015	01:01:19.584	$GPGGA,010120,2603.7040,N,07916.7124,W,1,8,1.9,18,M,,M,,*56
06/19/2015	01:01:20.543	$GPGGA,010121,2603.7050,N,07916.7143,W,1,8,1.9,18,M,,M,,*57
06/19/2015	01:01:21.546	$GPGGA,010122,2603.7061,N,07916.7164,W,1,8,1.9,18,M,,M,,*53
06/19/2015	01:01:22.564	$GPGGA,010123,2603.7071,N,07916.7184,W,1,8,1.9,18,M,,M,,*5D
06/19/2015	01:01:23.583	$GPGGA,010124,2603.7081,N,07916.7204,W,1,8,1.9,17,M,,M,,*51
06/19/2015	01:01:24.533	$GPGGA,010125,2603.7090,N,07916.7225,W,1,8,1.9,17,M,,M,,*53
06/19/2015	01:01:26.060	$GPGGA,010126,2603.7100,N,07916.7244,W,1,8,1.9,17,M,,M,,*5F
06/19/2015	01:01:26.533	$GPGGA,010127,2603.7108,N,07916.7265,W,1,8,1.9,17,M,,M,,*55
06/19/2015	01:01:27.558	$GPGGA,010128,2603.7121,N,07916.7284,W,1,8,1.9,17,M,,M,,*5E
06/19/2015	01:01:28.836	$GPGGA,010129,2603.7132,N,07916.7305,W,1,8,1.5,17,M,,M,,*59
06/19/2015	01:01:29.554	$GPGGA,010130,2603.7141,N,07916.7326,W,1,8,1.5,17,M,,M,,*54
06/19/2015	01:01:30.523	$GPGGA,010131,2603.7150,N,07916.7346,W,1,8,1.5,17,M,,M,,*53
06/19/2015	01:01:31.583	$GPGGA,010132,2603.7159,N,07916.7366,W,1,8,1.9,17,M,,M,,*57
06/19/2015	01:01:32.523	$GPGGA,010133,2603.7168,N,07916.7388,W,1,8,1.5,17,M,,M,,*58
06/19/2015	01:01:33.514	$GPGGA,010134,2603.7176,N,07916.7408,W,1,8,1.5,17,M,,M,,*5F
06/19/2015	01:01:34.534	$GPGGA,010135,2603.7184,N,07916.7429,W,1,8,1.5,17,M,,M,,*50
06/19/2015	01:01:35.534	$GPGGA,010136,2603.7193,N,07916.7449,W,1,8,1.5,17,M,,M,,*53
06/19/2015	01:01:36.504	$GPGGA,010137,2603.7201,N,07916.7471,W,1,8,1.5,17,M,,M,,*51
06/19/2015	01:01:37.514	$GPGGA,010138,2603.7208,N,07916.7491,W,1,8,1.5,17,M,,M,,*59
06/19/2015	01:01:38.513	$GPGGA,010139,2603.7215,N,07916.7512,W,1,8,1.5,17,M,,M,,*5E
06/19/2015	01:01:39.645	$GPGGA,010140,2603.7222,N,07916.7533,W,1,8,1.5,17,M,,M,,*57
06/19/2015	01:01:40.513	$GPGGA,010141,2603.7227,N,07916.7554,W,1,8,1.5,17,M,,M,,*52
06/19/2015	01:01:41.493	$GPGGA,010142,2603.7234,N,07916.7574,W,1,8,1.5,17,M,,M,,*51
06/19/2015	01:01:42.593	$GPGGA,010143,2603.7241,N,07916.7595,W,1,8,1.5,17,M,,M,,*5D
06/19/2015	01:01:43.523	$GPGGA,010144,2603.7247,N,07916.7616,W,1,8,1.5,17,M,,M,,*54
06/19/2015	01:01:44.503	$GPGGA,010145,2603.7253,N,07916.7637,W,1,8,1.5,17,M,,M,,*53
06/19/2015	01:01:45.513	$GPGGA,010146,2603.7259,N,07916.7657,W,1,8,1.5,17,M,,M,,*5C
06/19/2015	01:01:46.493	$GPGGA,010147,2603.7264,N,07916.7678,W,1,8,1.5,17,M,,M,,*5E
06/19/2015	01:01:47.657	$GPGGA,010148,2603.7271,N,07916.7699,W,1,9,1.5,17,M,,M,,*5B
06/19/2015	01:01:48.493	$GPGGA,010149,2603.7277,N,07916.7720,W,1,9,1.5,17,M,,M,,*5F
06/19/2015	01:01:49.493	$GPGGA,010150,2603.7282,N,07916.7740,W,1,9,1.5,17,M,,M,,*5B
06/19/2015	01:01:50.593	$GPGGA,010151,2603.7289,N,07916.7761,W,1,9,1.5,17,M,,M,,*52
06/19/2015	01:01:51.624	$GPGGA,010152,2603.7296,N,07916.7782,W,1,9,1.5,17,M,,M,,*52
06/19/2015	01:01:52.584	$GPGGA,010153,2603.7302,N,07916.7803,W,1,9,1.5,17,M,,M,,*59
06/19/2015	01:01:53.594	$GPGGA,010154,2603.7307,N,07916.7823,W,1,9,1.5,17,M,,M,,*59
06/19/2015	01:01:54.574	$GPGGA,010155,2603.7314,N,07916.7843,W,1,9,1.5,17,M,,M,,*5C
06/19/2015	01:01:55.603	$GPGGA,010156,2603.7320,N,07916.7865,W,1,9,1.5,17,M,,M,,*5C
06/19/2015	01:01:56.573	$GPGGA,010157,2603.7327,N,07916.7884,W,1,9,1.5,17,M,,M,,*55
06/19/2015	01:01:57.573	$GPGGA,010158,2603.7332,N,07916.7905,W,1,9,1.5,17,M,,M,,*56
06/19/2015	01:01:58.573	$GPGGA,010159,2603.7339,N,07916.7926,W,1,9,1.5,17,M,,M,,*5D
06/19/2015	01:01:59.613	$GPGGA,010200,2603.7346,N,07916.7946,W,1,9,1.5,17,M,,M,,*5C
06/19/2015	01:02:00.563	$GPGGA,010201,2603.7352,N,07916.7967,W,1,9,1.5,17,M,,M,,*5B
06/19/2015	01:02:01.573	$GPGGA,010202,2603.7357,N,07916.7988,W,1,9,1.5,17,M,,M,,*5C
06/19/2015	01:02:02.563	$GPGGA,010203,2603.7365,N,07916.8009,W,1,9,1.5,17,M,,M,,*53
06/19/2015	01:02:03.593	$GPGGA,010204,2603.7372,N,07916.8028,W,1,9,1.5,17,M,,M,,*51
06/19/2015	01:02:04.555	$GPGGA,010205,2603.7378,N,07916.8049,W,1,9,1.5,17,M,,M,,*5D
06/19/2015	01:02:05.557	$GPGGA,010206,2603.7385,N,07916.8071,W,1,9,1.5,17,M,,M,,*57
06/19/2015	01:02:06.554	$GPGGA,010207,2603.7390,N,07916.8092,W,1,9,1.5,17,M,,M,,*5F
06/19/2015	01:02:07.573	$GPGGA,010208,2603.7397,N,07916.8112,W,1,9,1.5,17,M,,M,,*5E
06/19/2015	01:02:08.557	$GPGGA,010209,2603.7404,N,07916.8133,W,1,9,1.5,17,M,,M,,*51
06/19/2015	01:02:09.564	$GPGGA,010210,2603.7410,N,07916.8154,W,1,9,1.5,17,M,,M,,*5D
06/19/2015	01:02:10.548	$GPGGA,010211,2603.7415,N,07916.8176,W,1,9,1.5,17,M,,M,,*59
06/19/2015	01:02:11.584	$GPGGA,010212,2603.7422,N,07916.8197,W,1,9,1.5,17,M,,M,,*51
06/19/2015	01:02:12.534	$GPGGA,010213,2603.7428,N,07916.8217,W,1,9,1.5,17,M,,M,,*51
06/19/2015	01:02:13.533	$GPGGA,010214,2603.7433,N,07916.8238,W,1,9,1.5,17,M,,M,,*51
06/19/2015	01:02:14.533	$GPGGA,010215,2603.7440,N,07916.8259,W,1,9,1.5,17,M,,M,,*53
06/19/2015	01:02:15.543	$GPGGA,010216,2603.7446,N,07916.8280,W,1,9,1.5,17,M,,M,,*52
06/19/2015	01:02:16.533	$GPGGA,010217,2603.7451,N,07916.8300,W,1,9,1.5,17,M,,M,,*5C
06/19/2015	01:02:17.563	$GPGGA,010218,2603.7458,N,07916.8321,W,1,9,1.5,16,M,,M,,*58
06/19/2015	01:02:18.513	$GPGGA,010219,2603.7466,N,07916.8342,W,1,9,1.5,16,M,,M,,*51
06/19/2015	01:02:19.593	$GPGGA,010220,2603.7472,N,07916.8363,W,1,9,1.5,16,M,,M,,*5D
06/19/2015	01:02:20.523	$GPGGA,010221,2603.7477,N,07916.8385,W,1,9,1.5,16,M,,M,,*51
06/19/2015	01:02:21.533	$GPGGA,010222,2603.7484,N,07916.8405,W,1,9,1.5,16,M,,M,,*51
06/19/2015	01:02:22.513	$GPGGA,010223,2603.7491,N,07916.8428,W,1,9,1.5,16,M,,M,,*5B
06/19/2015	01:02:23.555	$GPGGA,010224,2603.7498,N,07916.8450,W,1,9,1.5,16,M,,M,,*5A
06/19/2015	01:02:24.524	$GPGGA,010225,2603.7505,N,07916.8472,W,1,9,1.5,16,M,,M,,*5E
06/19/2015	01:02:25.633	$GPGGA,010226,2603.7513,N,07916.8493,W,1,9,1.5,16,M,,M,,*55
06/19/2015	01:02:26.534	$GPGGA,010227,2603.7522,N,07916.8516,W,1,9,1.5,16,M,,M,,*5A
06/19/2015	01:02:27.534	$GPGGA,010228,2603.7529,N,07916.8540,W,1,9,1.5,16,M,,M,,*5D
06/19/2015	01:02:28.504	$GPGGA,010229,2603.7538,N,07916.8562,W,1,9,1.5,16,M,,M,,*5C
06/19/2015	01:02:29.549	$GPGGA,010230,2603.7545,N,07916.8585,W,1,9,1.5,16,M,,M,,*57
06/19/2015	01:02:30.513	$GPGGA,010231,2603.7552,N,07916.8609,W,1,9,1.5,16,M,,M,,*57
06/19/2015	01:02:31.543	$GPGGA,010232,2603.7560,N,07916.8632,W,1,9,1.5,16,M,,M,,*5D
06/19/2015	01:02:32.503	$GPGGA,010233,2603.7570,N,07916.8656,W,1,9,1.5,16,M,,M,,*5F
06/19/2015	01:02:33.773	$GPGGA,010234,2603.7578,N,07916.8681,W,1,9,1.5,16,M,,M,,*5A
06/19/2015	01:02:34.584	$GPGGA,010235,2603.7587,N,07916.8703,W,1,9,1.5,15,M,,M,,*53
06/19/2015	01:02:35.593	$GPGGA,010236,2603.7596,N,07916.8728,W,1,9,1.5,15,M,,M,,*59
06/19/2015	01:02:36.503	$GPGGA,010237,2603.7603,N,07916.8753,W,1,9,1.5,15,M,,M,,*5B
06/19/2015	01:02:37.583	$GPGGA,010238,2603.7610,N,07916.8777,W,1,9,1.5,15,M,,M,,*50
06/19/2015	01:02:38.583	$GPGGA,010239,2603.7620,N,07916.8801,W,1,9,1.5,15,M,,M,,*5C
06/19/2015	01:02:39.593	$GPGGA,010240,2603.7628,N,07916.8826,W,1,9,1.5,15,M,,M,,*5F
06/19/2015	01:02:40.573	$GPGGA,010241,2603.7635,N,07916.8851,W,1,9,1.5,15,M,,M,,*52
06/19/2015	01:02:41.593	$GPGGA,010242,2603.7643,N,07916.8876,W,1,9,1.9,15,M,,M,,*59
06/19/2015	01:02:42.583	$GPGGA,010243,2603.7650,N,07916.8902,W,1,9,1.9,15,M,,M,,*58
06/19/2015	01:02:43.594	$GPGGA,010244,2603.7659,N,07916.8925,W,1,9,1.5,15,M,,M,,*5F
06/19/2015	01:02:44.564	$GPGGA,010245,2603.7667,N,07916.8952,W,1,9,1.5,15,M,,M,,*53
06/19/2015	01:02:45.584	$GPGGA,010246,2603.7674,N,07916.8978,W,1,9,1.5,15,M,,M,,*5A
06/19/2015	01:02:46.564	$GPGGA,010247,2603.7682,N,07916.9003,W,1,9,1.5,15,M,,M,,*56
06/19/2015	01:02:47.594	$GPGGA,010248,2603.7690,N,07916.9029,W,1,9,1.5,15,M,,M,,*52
06/19/2015	01:02:48.563	$GPGGA,010249,2603.7697,N,07916.9055,W,1,9,1.5,15,M,,M,,*5F
06/19/2015	01:02:49.553	$GPGGA,010250,2603.7706,N,07916.9082,W,1,9,1.5,15,M,,M,,*54
06/19/2015	01:02:50.559	$GPGGA,010251,2603.7714,N,07916.9108,W,1,9,1.5,14,M,,M,,*54
06/19/2015	01:02:51.603	$GPGGA,010252,2603.7722,N,07916.9134,W,1,9,1.5,14,M,,M,,*5D
06/19/2015	01:02:52.553	$GPGGA,010253,2603.7729,N,07916.9160,W,1,9,1.5,14,M,,M,,*56
06/19/2015	01:02:53.583	$GPGGA,010254,2603.7737,N,07916.9187,W,1,9,1.5,14,M,,M,,*57
06/19/2015	01:02:54.557	$GPGGA,010255,2603.7746,N,07916.9212,W,1,9,1.5,14,M,,M,,*5F
06/19/2015	01:02:55.583	$GPGGA,010256,2603.7755,N,07916.9238,W,1,9,1.5,14,M,,M,,*56
06/19/2015	01:02:56.545	$GPGGA,010257,2603.7762,N,07916.9266,W,1,9,1.5,15,M,,M,,*59
06/19/2015	01:02:57.823	$GPGGA,010258,2603.7771,N,07916.9292,W,1,9,1.5,15,M,,M,,*5F
06/19/2015	01:02:58.546	$GPGGA,010259,2603.7780,N,07916.9317,W,1,9,1.5,15,M,,M,,*5C
06/19/2015	01:02:59.573	$GPGGA,010300,2603.7787,N,07916.9343,W,1,9,1.5,15,M,,M,,*57
06/19/2015	01:03:00.545	$GPGGA,010301,2603.7797,N,07916.9369,W,1,9,1.5,15,M,,M,,*5F
06/19/2015	01:03:01.546	$GPGGA,010302,2603.7805,N,07916.9395,W,1,9,1.5,15,M,,M,,*5B
06/19/2015	01:03:02.534	$GPGGA,010303,2603.7815,N,07916.9422,W,1,9,1.5,15,M,,M,,*50
06/19/2015	01:03:03.534	$GPGGA,010304,2603.7823,N,07916.9448,W,1,9,1.5,15,M,,M,,*5E
06/19/2015	01:03:04.534	$GPGGA,010305,2603.7834,N,07916.9474,W,1,9,1.5,15,M,,M,,*56
06/19/2015	01:03:05.523	$GPGGA,010306,2603.7841,N,07916.9501,W,1,9,1.5,15,M,,M,,*54
06/19/2015	01:03:06.533	$GPGGA,010307,2603.7851,N,07916.9528,W,1,9,1.5,15,M,,M,,*5F
06/19/2015	01:03:07.557	$GPGGA,010308,2603.7860,N,07916.9555,W,1,9,1.5,15,M,,M,,*58
06/19/2015	01:03:08.523	$GPGGA,010309,2603.7870,N,07916.9581,W,1,9,1.5,15,M,,M,,*51
06/19/2015	01:03:09.523	$GPGGA,010310,2603.7880,N,07916.9607,W,1,9,1.5,15,M,,M,,*5B
06/19/2015	01:03:10.503	$GPGGA,010311,2603.7888,N,07916.9633,W,1,9,1.5,15,M,,M,,*55
06/19/2015	01:03:11.523	$GPGGA,010312,2603.7899,N,07916.9660,W,1,9,1.5,15,M,,M,,*50
06/19/2015	01:03:12.503	$GPGGA,010313,2603.7909,N,07916.9686,W,1,9,1.5,15,M,,M,,*51
06/19/2015	01:03:13.603	$GPGGA,010314,2603.7917,N,07916.9711,W,1,9,1.5,15,M,,M,,*56
06/19/2015	01:03:14.503	$GPGGA,010315,2603.7928,N,07916.9737,W,1,9,1.5,15,M,,M,,*5F
06/19/2015	01:03:15.513	$GPGGA,010316,2603.7936,N,07916.9762,W,1,9,1.5,15,M,,M,,*53
06/19/2015	01:03:16.503	$GPGGA,010317,2603.7948,N,07916.9788,W,1,9,1.5,15,M,,M,,*5F
06/19/2015	01:03:17.603	$GPGGA,010318,2603.7957,N,07916.9814,W,1,9,1.5,15,M,,M,,*54
06/19/2015	01:03:18.504	$GPGGA,010319,2603.7967,N,07916.9839,W,1,9,2.0,15,M,,M,,*5F
06/19/2015	01:03:19.524	$GPGGA,010320,2603.7978,N,07916.9864,W,1,9,1.5,15,M,,M,,*55
06/19/2015	01:03:20.594	$GPGGA,010321,2603.7989,N,07916.9889,W,1,9,1.5,15,M,,M,,*59
06/19/2015	01:03:21.494	$GPGGA,010322,2603.7999,N,07916.9914,W,1,9,1.5,15,M,,M,,*5E
06/19/2015	01:03:22.574	$GPGGA,010323,2603.8008,N,07916.9940,W,1,9,1.5,15,M,,M,,*50
06/19/2015	01:03:23.503	$GPGGA,010324,2603.8018,N,07916.9965,W,1,9,1.5,15,M,,M,,*51
06/19/2015	01:03:24.573	$GPGGA,010325,2603.8029,N,07916.9990,W,1,9,1.5,15,M,,M,,*58
06/19/2015	01:03:25.583	$GPGGA,010326,2603.8039,N,07917.0016,W,1,9,1.5,15,M,,M,,*55
06/19/2015	01:03:26.583	$GPGGA,010327,2603.8049,N,07917.0043,W,1,9,1.5,15,M,,M,,*53
06/19/2015	01:03:27.603	$GPGGA,010328,2603.8058,N,07917.0068,W,1,9,1.5,15,M,,M,,*55
06/19/2015	01:03:28.563	$GPGGA,010329,2603.8069,N,07917.0094,W,1,9,1.5,15,M,,M,,*55
06/19/2015	01:03:29.563	$GPGGA,010330,2603.8078,N,07917.0119,W,1,9,1.5,15,M,,M,,*59
06/19/2015	01:03:30.573	$GPGGA,010331,2603.8087,N,07917.0145,W,1,9,1.5,15,M,,M,,*51
06/19/2015	01:03:31.583	$GPGGA,010332,2603.8097,N,07917.0170,W,1,9,1.5,15,M,,M,,*55
06/19/2015	01:03:32.573	$GPGGA,010333,2603.8105,N,07917.0196,W,1,9,1.5,15,M,,M,,*56
06/19/2015	01:03:33.573	$GPGGA,010334,2603.8113,N,07917.0224,W,1,9,1.5,15,M,,M,,*5C
06/19/2015	01:03:34.563	$GPGGA,010335,2603.8123,N,07917.0249,W,1,9,1.5,15,M,,M,,*55
06/19/2015	01:03:35.593	$GPGGA,010336,2603.8131,N,07917.0275,W,1,9,1.5,15,M,,M,,*5A
06/19/2015	01:03:36.546	$GPGGA,010337,2603.8140,N,07917.0301,W,1,9,1.5,15,M,,M,,*5F
06/19/2015	01:03:37.574	$GPGGA,010338,2603.8148,N,07917.0329,W,1,9,1.5,15,M,,M,,*52
06/19/2015	01:03:38.559	$GPGGA,010339,2603.8156,N,07917.0354,W,1,9,1.5,15,M,,M,,*56
06/19/2015	01:03:39.594	$GPGGA,010340,2603.8163,N,07917.0380,W,1,9,1.5,15,M,,M,,*57
06/19/2015	01:03:40.558	$GPGGA,010341,2603.8172,N,07917.0406,W,1,9,1.5,15,M,,M,,*5F
06/19/2015	01:03:41.573	$GPGGA,010342,2603.8178,N,07917.0433,W,1,9,1.5,15,M,,M,,*50
06/19/2015	01:03:42.543	$GPGGA,010343,2603.8185,N,07917.0459,W,1,9,1.5,15,M,,M,,*5F
06/19/2015	01:03:43.573	$GPGGA,010344,2603.8194,N,07917.0485,W,1,9,1.5,15,M,,M,,*59
06/19/2015	01:03:44.543	$GPGGA,010345,2603.8202,N,07917.0511,W,1,9,1.5,15,M,,M,,*58
06/19/2015	01:03:45.533	$GPGGA,010346,2603.8209,N,07917.0538,W,1,9,1.5,15,M,,M,,*5B
06/19/2015	01:03:46.544	$GPGGA,010347,2603.8216,N,07917.0564,W,1,9,1.5,15,M,,M,,*5D
06/19/2015	01:03:48.023	$GPGGA,010348,2603.8223,N,07917.0590,W,1,9,1.5,15,M,,M,,*5F
06/19/2015	01:03:48.543	$GPGGA,010349,2603.8231,N,07917.0615,W,1,9,1.5,15,M,,M,,*53
06/19/2015	01:03:49.523	$GPGGA,010350,2603.8239,N,07917.0643,W,1,9,1.5,15,M,,M,,*50
06/19/2015	01:03:50.544	$GPGGA,010351,2603.8246,N,07917.0668,W,1,9,1.5,15,M,,M,,*50
06/19/2015	01:03:51.563	$GPGGA,010352,2603.8253,N,07917.0694,W,1,9,1.5,15,M,,M,,*54
06/19/2015	01:03:52.524	$GPGGA,010353,2603.8260,N,07917.0722,W,1,9,1.5,15,M,,M,,*59
06/19/2015	01:03:53.544	$GPGGA,010354,2603.8268,N,07917.0748,W,1,9,1.5,15,M,,M,,*5A
06/19/2015	01:03:55.584	$GPGGA,010356,2603.8284,N,07917.0802,W,1,9,1.5,15,M,,M,,*5B
06/19/2015	01:03:56.524	$GPGGA,010357,2603.8290,N,07917.0827,W,1,9,1.5,15,M,,M,,*58
06/19/2015	01:03:57.514	$GPGGA,010358,2603.8299,N,07917.0853,W,1,9,1.5,15,M,,M,,*5D
06/19/2015	01:03:58.603	$GPGGA,010359,2603.8307,N,07917.0881,W,1,9,1.5,15,M,,M,,*55
06/19/2015	01:03:59.563	$GPGGA,010400,2603.8315,N,07917.0905,W,1,9,1.5,15,M,,M,,*50
06/19/2015	01:04:00.503	$GPGGA,010401,2603.8322,N,07917.0932,W,1,9,1.5,15,M,,M,,*51
06/19/2015	01:04:01.603	$GPGGA,010402,2603.8331,N,07917.0958,W,1,9,1.5,15,M,,M,,*5C
06/19/2015	01:04:02.613	$GPGGA,010403,2603.8340,N,07917.0984,W,1,9,1.5,15,M,,M,,*5A
06/19/2015	01:04:03.513	$GPGGA,010404,2603.8349,N,07917.1009,W,1,9,1.5,15,M,,M,,*59
06/19/2015	01:04:04.503	$GPGGA,010405,2603.8358,N,07917.1037,W,1,9,1.5,15,M,,M,,*55
06/19/2015	01:04:05.493	$GPGGA,010406,2603.8365,N,07917.1062,W,1,8,1.9,15,M,,M,,*55
06/19/2015	01:04:06.583	$GPGGA,010407,2603.8375,N,07917.1087,W,1,8,1.9,15,M,,M,,*5E
06/19/2015	01:04:07.593	$GPGGA,010408,2603.8385,N,07917.1113,W,1,8,1.9,15,M,,M,,*52
06/19/2015	01:04:08.583	$GPGGA,010409,2603.8394,N,07917.1139,W,1,8,1.5,15,M,,M,,*57
06/19/2015	01:04:09.583	$GPGGA,010410,2603.8401,N,07917.1164,W,1,8,1.9,15,M,,M,,*50
06/19/2015	01:04:10.583	$GPGGA,010411,2603.8411,N,07917.1190,W,1,8,1.9,15,M,,M,,*5B
06/19/2015	01:04:11.594	$GPGGA,010412,2603.8420,N,07917.1217,W,1,8,1.9,15,M,,M,,*56
06/19/2015	01:04:12.574	$GPGGA,010413,2603.8430,N,07917.1243,W,1,8,1.5,15,M,,M,,*5B
06/19/2015	01:04:13.594	$GPGGA,010414,2603.8438,N,07917.1268,W,1,9,1.5,15,M,,M,,*5C
06/19/2015	01:04:14.574	$GPGGA,010415,2603.8447,N,07917.1293,W,1,9,1.5,15,M,,M,,*51
06/19/2015	01:04:15.573	$GPGGA,010416,2603.8456,N,07917.1319,W,1,9,1.5,15,M,,M,,*51
06/19/2015	01:04:16.564	$GPGGA,010417,2603.8465,N,07917.1344,W,1,9,1.5,15,M,,M,,*58
06/19/2015	01:04:17.603	$GPGGA,010418,2603.8473,N,07917.1369,W,1,9,1.5,15,M,,M,,*5F
06/19/2015	01:04:18.583	$GPGGA,010419,2603.8481,N,07917.1395,W,1,9,1.5,15,M,,M,,*50
06/19/2015	01:04:19.583	$GPGGA,010420,2603.8492,N,07917.1420,W,1,9,1.5,15,M,,M,,*51
06/19/2015	01:04:20.563	$GPGGA,010421,2603.8499,N,07917.1445,W,1,9,1.5,15,M,,M,,*58
06/19/2015	01:04:21.583	$GPGGA,010422,2603.8509,N,07917.1470,W,1,9,1.5,15,M,,M,,*55
06/19/2015	01:04:22.558	$GPGGA,010423,2603.8519,N,07917.1495,W,1,9,1.5,15,M,,M,,*5E
06/19/2015	01:04:23.593	$GPGGA,010424,2603.8528,N,07917.1521,W,1,9,1.5,15,M,,M,,*55
06/19/2015	01:04:24.563	$GPGGA,010425,2603.8537,N,07917.1546,W,1,9,1.5,15,M,,M,,*5B
06/19/2015	01:04:25.573	$GPGGA,010426,2603.8546,N,07917.1572,W,1,9,1.5,15,M,,M,,*59
06/19/2015	01:04:26.549	$GPGGA,010427,2603.8556,N,07917.1597,W,1,9,1.5,15,M,,M,,*52
06/19/2015	01:04:27.563	$GPGGA,010428,2603.8564,N,07917.1623,W,1,9,1.5,15,M,,M,,*50
06/19/2015	01:04:28.549	$GPGGA,010429,2603.8574,N,07917.1649,W,1,9,1.5,15,M,,M,,*5C
06/19/2015	01:04:29.534	$GPGGA,010430,2603.8582,N,07917.1674,W,1,9,1.5,15,M,,M,,*53
06/19/2015	01:04:30.561	$GPGGA,010431,2603.8593,N,07917.1699,W,1,9,1.5,15,M,,M,,*51
06/19/2015	01:04:31.584	$GPGGA,010432,2603.8603,N,07917.1724,W,1,9,1.5,15,M,,M,,*5F
06/19/2015	01:04:32.548	$GPGGA,010433,2603.8611,N,07917.1749,W,1,9,1.5,15,M,,M,,*56
06/19/2015	01:04:33.533	$GPGGA,010434,2603.8621,N,07917.1774,W,1,9,1.5,15,M,,M,,*5C
06/19/2015	01:04:34.549	$GPGGA,010435,2603.8631,N,07917.1799,W,1,9,1.5,15,M,,M,,*5F
06/19/2015	01:04:35.583	$GPGGA,010436,2603.8640,N,07917.1824,W,1,9,1.5,15,M,,M,,*53
06/19/2015	01:04:36.523	$GPGGA,010437,2603.8649,N,07917.1850,W,1,9,1.5,15,M,,M,,*58
06/19/2015	01:04:37.556	$GPGGA,010438,2603.8658,N,07917.1875,W,1,9,1.5,15,M,,M,,*50
06/19/2015	01:04:38.533	$GPGGA,010439,2603.8667,N,07917.1901,W,1,9,1.5,15,M,,M,,*5F
06/19/2015	01:04:39.533	$GPGGA,010440,2603.8676,N,07917.1927,W,1,9,1.5,15,M,,M,,*55
06/19/2015	01:04:40.533	$GPGGA,010441,2603.8686,N,07917.1954,W,1,9,1.5,15,M,,M,,*5F
06/19/2015	01:04:41.533	$GPGGA,010442,2603.8694,N,07917.1980,W,1,9,1.5,15,M,,M,,*56
06/19/2015	01:04:42.523	$GPGGA,010443,2603.8703,N,07917.2005,W,1,9,1.5,15,M,,M,,*5F
06/19/2015	01:04:43.543	$GPGGA,010444,2603.8712,N,07917.2030,W,1,9,1.5,15,M,,M,,*5E
06/19/2015	01:04:45.523	$GPGGA,010445,2603.8719,N,07917.2056,W,1,9,1.5,15,M,,M,,*54
06/19/2015	01:04:45.558	$GPGGA,010446,2603.8729,N,07917.2082,W,1,9,1.5,15,M,,M,,*5D
06/19/2015	01:04:46.514	$GPGGA,010447,2603.8737,N,07917.2107,W,1,9,1.5,15,M,,M,,*5F
06/19/2015	01:04:47.534	$GPGGA,010448,2603.8745,N,07917.2133,W,1,9,1.5,15,M,,M,,*52
06/19/2015	01:04:48.494	$GPGGA,010449,2603.8754,N,07917.2158,W,1,9,1.5,15,M,,M,,*5E
06/19/2015	01:04:49.494	$GPGGA,010450,2603.8762,N,07917.2184,W,1,9,1.5,15,M,,M,,*52
06/19/2015	01:04:50.633	$GPGGA,010451,2603.8770,N,07917.2211,W,1,9,1.5,15,M,,M,,*5F
06/19/2015	01:04:51.703	$GPGGA,010452,2603.8777,N,07917.2236,W,1,9,1.5,15,M,,M,,*5E
06/19/2015	01:04:52.573	$GPGGA,010453,2603.8784,N,07917.2262,W,1,9,1.5,15,M,,M,,*52
06/19/2015	01:04:53.503	$GPGGA,010454,2603.8794,N,07917.2288,W,1,9,1.5,15,M,,M,,*50
06/19/2015	01:04:54.493	$GPGGA,010455,2603.8802,N,07917.2314,W,1,9,1.5,15,M,,M,,*55
06/19/2015	01:04:55.693	$GPGGA,010456,2603.8809,N,07917.2339,W,1,9,1.5,15,M,,M,,*52
06/19/2015	01:04:56.573	$GPGGA,010457,2603.8817,N,07917.2364,W,1,9,1.5,15,M,,M,,*54
06/19/2015	01:04:57.683	$GPGGA,010458,2603.8826,N,07917.2391,W,1,9,1.5,15,M,,M,,*53
06/19/2015	01:04:58.633	$GPGGA,010459,2603.8834,N,07917.2415,W,1,9,1.5,15,M,,M,,*5A
06/19/2015	01:04:59.703	$GPGGA,010500,2603.8842,N,07917.2442,W,1,9,1.5,15,M,,M,,*54
06/19/2015	01:05:00.603	$GPGGA,010501,2603.8849,N,07917.2467,W,1,9,1.5,15,M,,M,,*59
06/19/2015	01:05:01.673	$GPGGA,010502,2603.8859,N,07917.2491,W,1,9,1.5,15,M,,M,,*52
06/19/2015	01:05:02.603	$GPGGA,010503,2603.8866,N,07917.2518,W,1,9,1.5,15,M,,M,,*5F
06/19/2015	01:05:03.694	$GPGGA,010504,2603.8875,N,07917.2543,W,1,9,1.5,15,M,,M,,*54
06/19/2015	01:05:04.624	$GPGGA,010505,2603.8884,N,07917.2569,W,1,9,2.0,15,M,,M,,*55
06/19/2015	01:05:05.658	$GPGGA,010506,2603.8891,N,07917.2594,W,1,8,1.5,15,M,,M,,*57
06/19/2015	01:05:06.594	$GPGGA,010507,2603.8899,N,07917.2619,W,1,8,1.5,15,M,,M,,*58
06/19/2015	01:05:07.658	$GPGGA,010508,2603.8907,N,07917.2645,W,1,9,1.5,15,M,,M,,*59
06/19/2015	01:05:08.563	$GPGGA,010509,2603.8913,N,07917.2670,W,1,9,1.5,15,M,,M,,*5B
06/19/2015	01:05:09.636	$GPGGA,010510,2603.8921,N,07917.2695,W,1,9,1.5,15,M,,M,,*59
06/19/2015	01:05:10.583	$GPGGA,010511,2603.8929,N,07917.2720,W,1,9,1.5,15,M,,M,,*5F
06/19/2015	01:05:11.673	$GPGGA,010512,2603.8936,N,07917.2746,W,1,9,1.5,15,M,,M,,*52
06/19/2015	01:05:12.583	$GPGGA,010513,2603.8945,N,07917.2771,W,1,9,1.5,15,M,,M,,*53
06/19/2015	01:05:13.547	$GPGGA,010514,2603.8953,N,07917.2797,W,1,9,1.5,15,M,,M,,*5B
06/19/2015	01:05:14.573	$GPGGA,010515,2603.8961,N,07917.2825,W,1,9,1.5,15,M,,M,,*5D
06/19/2015	01:05:15.645	$GPGGA,010516,2603.8969,N,07917.2850,W,1,9,1.5,15,M,,M,,*54
06/19/2015	01:05:16.543	$GPGGA,010517,2603.8978,N,07917.2876,W,1,9,1.5,15,M,,M,,*51
06/19/2015	01:05:17.623	$GPGGA,010518,2603.8986,N,07917.2901,W,1,9,1.5,15,M,,M,,*5E
06/19/2015	01:05:18.563	$GPGGA,010519,2603.8994,N,07917.2926,W,1,9,1.5,15,M,,M,,*59
06/19/2015	01:05:19.673	$GPGGA,010520,2603.9003,N,07917.2952,W,1,9,1.5,15,M,,M,,*56
06/19/2015	01:05:20.533	$GPGGA,010521,2603.9011,N,07917.2977,W,1,9,1.5,15,M,,M,,*53
06/19/2015	01:05:21.614	$GPGGA,010522,2603.9019,N,07917.3002,W,1,9,1.5,15,M,,M,,*52
06/19/2015	01:05:22.524	$GPGGA,010523,2603.9027,N,07917.3027,W,1,9,1.5,15,M,,M,,*59
06/19/2015	01:05:23.674	$GPGGA,010524,2603.9037,N,07917.3053,W,1,9,1.5,15,M,,M,,*5C
06/19/2015	01:05:24.563	$GPGGA,010525,2603.9045,N,07917.3078,W,1,9,1.5,15,M,,M,,*51
06/19/2015	01:05:25.646	$GPGGA,010526,2603.9055,N,07917.3103,W,1,9,1.5,15,M,,M,,*5E
06/19/2015	01:05:26.613	$GPGGA,010527,2603.9063,N,07917.3129,W,1,9,1.5,16,M,,M,,*51
06/19/2015	01:05:27.613	$GPGGA,010528,2603.9073,N,07917.3154,W,1,9,1.5,16,M,,M,,*55
06/19/2015	01:05:28.558	$GPGGA,010529,2603.9081,N,07917.3179,W,1,9,1.5,16,M,,M,,*56
06/19/2015	01:05:29.633	$GPGGA,010530,2603.9091,N,07917.3204,W,1,9,1.5,16,M,,M,,*56
06/19/2015	01:05:30.560	$GPGGA,010531,2603.9099,N,07917.3230,W,1,9,1.5,16,M,,M,,*58
06/19/2015	01:05:31.614	$GPGGA,010532,2603.9108,N,07917.3255,W,1,9,1.5,16,M,,M,,*51
06/19/2015	01:05:32.547	$GPGGA,010533,2603.9117,N,07917.3280,W,1,9,1.5,16,M,,M,,*56
06/19/2015	01:05:33.654	$GPGGA,010534,2603.9127,N,07917.3306,W,1,9,1.5,16,M,,M,,*5D
06/19/2015	01:05:34.533	$GPGGA,010535,2603.9135,N,07917.3331,W,1,9,1.5,16,M,,M,,*5B
06/19/2015	01:05:35.603	$GPGGA,010536,2603.9142,N,07917.3356,W,1,9,1.5,16,M,,M,,*59
06/19/2015	01:05:36.613	$GPGGA,010537,2603.9153,N,07917.3382,W,1,9,1.5,16,M,,M,,*51
06/19/2015	01:05:37.623	$GPGGA,010538,2603.9160,N,07917.3407,W,1,9,1.5,16,M,,M,,*54
06/19/2015	01:05:38.534	$GPGGA,010539,2603.9171,N,07917.3434,W,1,9,2.0,16,M,,M,,*53
06/19/2015	01:05:39.604	$GPGGA,010540,2603.9181,N,07917.3461,W,1,8,2.0,16,M,,M,,*53
06/19/2015	01:05:40.534	$GPGGA,010541,2603.9189,N,07917.3486,W,1,8,2.0,16,M,,M,,*53
06/19/2015	01:05:41.594	$GPGGA,010542,2603.9199,N,07917.3513,W,1,8,2.0,16,M,,M,,*5C
06/19/2015	01:05:42.534	$GPGGA,010543,2603.9207,N,07917.3540,W,1,8,2.0,16,M,,M,,*5F
06/19/2015	01:05:43.683	$GPGGA,010544,2603.9217,N,07917.3566,W,1,8,2.0,16,M,,M,,*5D
06/19/2015	01:05:44.583	$GPGGA,010545,2603.9225,N,07917.3591,W,1,8,1.5,16,M,,M,,*53
06/19/2015	01:05:45.573	$GPGGA,010546,2603.9232,N,07917.3616,W,1,9,1.5,16,M,,M,,*5B
06/19/2015	01:05:46.573	$GPGGA,010547,2603.9240,N,07917.3642,W,1,9,1.5,16,M,,M,,*5E
06/19/2015	01:05:47.662	$GPGGA,010548,2603.9249,N,07917.3667,W,1,9,1.5,16,M,,M,,*5F
06/19/2015	01:05:48.573	$GPGGA,010549,2603.9256,N,07917.3693,W,1,9,1.5,15,M,,M,,*58
06/19/2015	01:05:49.651	$GPGGA,010550,2603.9265,N,07917.3718,W,1,9,1.5,15,M,,M,,*52
06/19/2015	01:05:50.593	$GPGGA,010551,2603.9272,N,07917.3744,W,1,9,1.5,15,M,,M,,*5C
06/19/2015	01:05:51.657	$GPGGA,010552,2603.9279,N,07917.3770,W,1,9,1.5,15,M,,M,,*53
06/19/2015	01:05:52.563	$GPGGA,010553,2603.9287,N,07917.3795,W,1,9,1.5,15,M,,M,,*58
06/19/2015	01:05:53.613	$GPGGA,010554,2603.9296,N,07917.3822,W,1,9,1.5,15,M,,M,,*5C
06/19/2015	01:05:54.563	$GPGGA,010555,2603.9303,N,07917.3847,W,1,9,1.5,15,M,,M,,*53
06/19/2015	01:05:55.613	$GPGGA,010556,2603.9311,N,07917.3873,W,1,9,1.5,16,M,,M,,*57
06/19/2015	01:05:56.574	$GPGGA,010557,2603.9319,N,07917.3898,W,1,9,1.5,16,M,,M,,*5B
06/19/2015	01:05:57.574	$GPGGA,010558,2603.9319,N,07917.3898,W,1,9,1.5,16,M,,M,,*54
06/19/2015	01:05:58.584	$GPGGA,010559,2603.9334,N,07917.3949,W,1,9,1.5,16,M,,M,,*57
06/19/2015	01:05:59.694	$GPGGA,010600,2603.9343,N,07917.3974,W,1,9,1.5,16,M,,M,,*56
06/19/2015	01:06:00.563	$GPGGA,010601,2603.9351,N,07917.3999,W,1,9,1.5,16,M,,M,,*57
06/19/2015	01:06:01.557	$GPGGA,010602,2603.9351,N,07917.3999,W,1,9,1.5,16,M,,M,,*54
06/19/2015	01:06:02.544	$GPGGA,010603,2603.9359,N,07917.4025,W,1,9,1.5,16,M,,M,,*54
06/19/2015	01:06:03.603	$GPGGA,010604,2603.9376,N,07917.4076,W,1,9,1.5,16,M,,M,,*58
06/19/2015	01:06:04.548	$GPGGA,010605,2603.9384,N,07917.4102,W,1,9,1.5,16,M,,M,,*56
06/19/2015	01:06:05.563	$GPGGA,010606,2603.9391,N,07917.4129,W,1,9,1.5,16,M,,M,,*58
06/19/2015	01:06:06.543	$GPGGA,010607,2603.9399,N,07917.4155,W,1,9,1.5,16,M,,M,,*5A
06/19/2015	01:06:07.563	$GPGGA,010608,2603.9399,N,07917.4155,W,1,9,1.5,16,M,,M,,*55
06/19/2015	01:06:08.533	$GPGGA,010609,2603.9416,N,07917.4205,W,1,9,1.5,16,M,,M,,*52
06/19/2015	01:06:09.573	$GPGGA,010610,2603.9424,N,07917.4231,W,1,9,2.0,16,M,,M,,*5A
06/19/2015	01:06:10.533	$GPGGA,010611,2603.9431,N,07917.4256,W,1,9,2.0,16,M,,M,,*5E
06/19/2015	01:06:11.573	$GPGGA,010612,2603.9431,N,07917.4256,W,1,9,1.5,16,M,,M,,*5B
06/19/2015	01:06:12.533	$GPGGA,010613,2603.9449,N,07917.4306,W,1,9,1.5,16,M,,M,,*51
06/19/2015	01:06:13.534	$GPGGA,010614,2603.9449,N,07917.4306,W,1,8,2.0,16,M,,M,,*51
06/19/2015	01:06:14.524	$GPGGA,010615,2603.9467,N,07917.4357,W,1,8,1.5,16,M,,M,,*5E
06/19/2015	01:06:16.654	$GPGGA,010617,2603.9484,N,07917.4407,W,1,9,1.6,16,M,,M,,*51
06/19/2015	01:06:17.647	$GPGGA,010618,2603.9484,N,07917.4407,W,1,9,1.6,16,M,,M,,*5E
06/19/2015	01:06:18.635	$GPGGA,010619,2603.9503,N,07917.4458,W,1,9,1.6,16,M,,M,,*5B
06/19/2015	01:06:19.545	$GPGGA,010620,2603.9503,N,07917.4458,W,1,9,1.6,16,M,,M,,*51
06/19/2015	01:06:20.533	$GPGGA,010621,2603.9521,N,07917.4509,W,1,9,1.6,16,M,,M,,*55
06/19/2015	01:06:21.513	$GPGGA,010622,2603.9521,N,07917.4509,W,1,9,1.6,16,M,,M,,*56
06/19/2015	01:06:22.593	$GPGGA,010623,2603.9540,N,07917.4561,W,1,9,1.6,16,M,,M,,*5E
06/19/2015	01:06:23.673	$GPGGA,010624,2603.9550,N,07917.4588,W,1,9,1.6,16,M,,M,,*5F
06/19/2015	01:06:24.593	$GPGGA,010625,2603.9560,N,07917.4613,W,1,9,1.6,16,M,,M,,*5C
06/19/2015	01:06:25.583	$GPGGA,010626,2603.9560,N,07917.4613,W,1,9,1.6,16,M,,M,,*5F
06/19/2015	01:06:26.593	$GPGGA,010627,2603.9579,N,07917.4662,W,1,9,1.6,16,M,,M,,*50
06/19/2015	01:06:27.593	$GPGGA,010628,2603.9587,N,07917.4689,W,1,9,1.6,15,M,,M,,*58
06/19/2015	01:06:28.613	$GPGGA,010629,2603.9597,N,07917.4714,W,1,9,1.6,15,M,,M,,*5D
06/19/2015	01:06:29.593	$GPGGA,010630,2603.9607,N,07917.4738,W,1,9,1.6,15,M,,M,,*51
06/19/2015	01:06:30.583	$GPGGA,010631,2603.9615,N,07917.4763,W,1,9,1.6,15,M,,M,,*5D
06/19/2015	01:06:31.604	$GPGGA,010632,2603.9626,N,07917.4788,W,1,9,1.6,15,M,,M,,*5B
06/19/2015	01:06:32.584	$GPGGA,010633,2603.9635,N,07917.4814,W,1,9,1.6,15,M,,M,,*52
06/19/2015	01:06:33.574	$GPGGA,010634,2603.9644,N,07917.4839,W,1,9,1.6,15,M,,M,,*5C
06/19/2015	01:06:34.564	$GPGGA,010635,2603.9652,N,07917.4866,W,1,9,1.6,15,M,,M,,*50
06/19/2015	01:06:35.603	$GPGGA,010636,2603.9662,N,07917.4891,W,1,9,1.6,15,M,,M,,*58
06/19/2015	01:06:36.563	$GPGGA,010637,2603.9672,N,07917.4915,W,1,9,1.6,15,M,,M,,*55
06/19/2015	01:06:37.594	$GPGGA,010638,2603.9680,N,07917.4942,W,1,9,1.6,15,M,,M,,*55
06/19/2015	01:06:38.573	$GPGGA,010639,2603.9691,N,07917.4967,W,1,9,1.6,15,M,,M,,*53
06/19/2015	01:06:39.613	$GPGGA,010640,2603.9698,N,07917.4993,W,1,9,1.6,15,M,,M,,*5F
06/19/2015	01:06:40.553	$GPGGA,010641,2603.9708,N,07917.5018,W,1,9,1.6,15,M,,M,,*5D
06/19/2015	01:06:41.554	$GPGGA,010642,2603.9716,N,07917.5043,W,1,8,2.0,15,M,,M,,*5B
06/19/2015	01:06:42.563	$GPGGA,010643,2603.9726,N,07917.5069,W,1,8,1.6,15,M,,M,,*54
06/19/2015	01:06:43.583	$GPGGA,010644,2603.9734,N,07917.5095,W,1,9,1.6,15,M,,M,,*52
06/19/2015	01:06:44.563	$GPGGA,010645,2603.9742,N,07917.5120,W,1,9,1.6,15,M,,M,,*5D
06/19/2015	01:06:45.544	$GPGGA,010646,2603.9753,N,07917.5146,W,1,9,1.6,14,M,,M,,*5F
06/19/2015	01:06:46.554	$GPGGA,010647,2603.9763,N,07917.5173,W,1,9,1.6,14,M,,M,,*5B
06/19/2015	01:06:47.559	$GPGGA,010648,2603.9771,N,07917.5199,W,1,9,1.6,14,M,,M,,*53
06/19/2015	01:06:48.552	$GPGGA,010649,2603.9780,N,07917.5224,W,1,9,1.6,14,M,,M,,*59
06/19/2015	01:06:49.574	$GPGGA,010650,2603.9789,N,07917.5249,W,1,9,1.6,14,M,,M,,*53
06/19/2015	01:06:50.546	$GPGGA,010651,2603.9796,N,07917.5275,W,1,9,1.6,14,M,,M,,*53
06/19/2015	01:06:51.564	$GPGGA,010652,2603.9806,N,07917.5301,W,1,9,1.6,14,M,,M,,*54
06/19/2015	01:06:52.546	$GPGGA,010653,2603.9814,N,07917.5326,W,1,9,1.6,14,M,,M,,*53
06/19/2015	01:06:53.533	$GPGGA,010654,2603.9823,N,07917.5352,W,1,9,1.6,14,M,,M,,*53
06/19/2015	01:06:54.523	$GPGGA,010655,2603.9831,N,07917.5377,W,1,9,1.6,14,M,,M,,*56
06/19/2015	01:06:55.558	$GPGGA,010656,2603.9839,N,07917.5404,W,1,9,1.6,14,M,,M,,*5E
06/19/2015	01:06:56.523	$GPGGA,010657,2603.9846,N,07917.5428,W,1,9,1.6,14,M,,M,,*59
06/19/2015	01:06:57.533	$GPGGA,010658,2603.9856,N,07917.5453,W,1,9,1.6,14,M,,M,,*5B
06/19/2015	01:06:58.533	$GPGGA,010659,2603.9864,N,07917.5480,W,1,9,1.6,14,M,,M,,*55
06/19/2015	01:06:59.583	$GPGGA,010700,2603.9872,N,07917.5506,W,1,9,1.6,14,M,,M,,*50
06/19/2015	01:07:00.523	$GPGGA,010701,2603.9879,N,07917.5531,W,1,9,1.6,14,M,,M,,*5E
06/19/2015	01:07:01.523	$GPGGA,010702,2603.9888,N,07917.5556,W,1,9,1.6,14,M,,M,,*52
06/19/2015	01:07:02.503	$GPGGA,010703,2603.9897,N,07917.5582,W,1,9,1.6,14,M,,M,,*54
06/19/2015	01:07:03.523	$GPGGA,010704,2603.9904,N,07917.5607,W,1,9,1.6,14,M,,M,,*56
06/19/2015	01:07:04.603	$GPGGA,010705,2603.9912,N,07917.5632,W,1,9,1.6,14,M,,M,,*56
06/19/2015	01:07:05.603	$GPGGA,010706,2603.9921,N,07917.5658,W,1,9,1.6,14,M,,M,,*59
06/19/2015	01:07:06.592	$GPGGA,010707,2603.9930,N,07917.5683,W,1,9,1.6,14,M,,M,,*5E
06/19/2015	01:07:07.512	$GPGGA,010708,2603.9937,N,07917.5708,W,1,9,1.6,14,M,,M,,*54
06/19/2015	01:07:08.602	$GPGGA,010709,2603.9947,N,07917.5733,W,1,9,1.6,14,M,,M,,*5A
06/19/2015	01:07:09.602	$GPGGA,010710,2603.9955,N,07917.5759,W,1,9,1.6,14,M,,M,,*5D
06/19/2015	01:07:10.501	$GPGGA,010711,2603.9962,N,07917.5785,W,1,9,1.6,14,M,,M,,*59
06/19/2015	01:07:11.501	$GPGGA,010712,2603.9973,N,07917.5810,W,1,9,1.6,14,M,,M,,*59
06/19/2015	01:07:12.481	$GPGGA,010713,2603.9980,N,07917.5836,W,1,9,1.6,14,M,,M,,*50
06/19/2015	01:07:13.571	$GPGGA,010714,2603.9990,N,07917.5863,W,1,8,2.0,14,M,,M,,*52
06/19/2015	01:07:14.581	$GPGGA,010715,2603.9997,N,07917.5887,W,1,8,2.0,14,M,,M,,*5E
06/19/2015	01:07:15.601	$GPGGA,010716,2604.0004,N,07917.5912,W,1,9,1.6,14,M,,M,,*59
06/19/2015	01:07:16.571	$GPGGA,010717,2604.0013,N,07917.5937,W,1,9,1.6,14,M,,M,,*59
06/19/2015	01:07:17.571	$GPGGA,010718,2604.0020,N,07917.5964,W,1,9,1.6,14,M,,M,,*50
06/19/2015	01:07:18.581	$GPGGA,010719,2604.0030,N,07917.5988,W,1,9,1.6,14,M,,M,,*52
06/19/2015	01:07:19.591	$GPGGA,010720,2604.0038,N,07917.6013,W,1,9,1.6,14,M,,M,,*58
06/19/2015	01:07:20.561	$GPGGA,010721,2604.0049,N,07917.6040,W,1,9,1.6,14,M,,M,,*59
06/19/2015	01:07:21.591	$GPGGA,010722,2604.0058,N,07917.6064,W,1,9,1.6,14,M,,M,,*5C
06/19/2015	01:07:22.561	$GPGGA,010723,2604.0067,N,07917.6089,W,1,9,1.6,14,M,,M,,*52
06/19/2015	01:07:23.592	$GPGGA,010724,2604.0078,N,07917.6116,W,1,9,1.6,14,M,,M,,*5C
06/19/2015	01:07:24.562	$GPGGA,010725,2604.0087,N,07917.6141,W,1,9,1.6,14,M,,M,,*5F
06/19/2015	01:07:25.572	$GPGGA,010726,2604.0096,N,07917.6167,W,1,9,1.6,14,M,,M,,*58
06/19/2015	01:07:26.562	$GPGGA,010727,2604.0107,N,07917.6192,W,1,9,1.6,14,M,,M,,*5A
06/19/2015	01:07:27.581	$GPGGA,010728,2604.0117,N,07917.6217,W,1,9,1.6,14,M,,M,,*5A
06/19/2015	01:07:28.544	$GPGGA,010729,2604.0125,N,07917.6243,W,1,9,1.6,14,M,,M,,*5B
06/19/2015	01:07:29.543	$GPGGA,010730,2604.0135,N,07917.6268,W,1,9,1.6,14,M,,M,,*5B
06/19/2015	01:07:30.551	$GPGGA,010731,2604.0146,N,07917.6294,W,1,9,1.6,14,M,,M,,*5D
06/19/2015	01:07:31.571	$GPGGA,010732,2604.0156,N,07917.6319,W,1,9,1.6,14,M,,M,,*5B
06/19/2015	01:07:32.561	$GPGGA,010733,2604.0165,N,07917.6345,W,1,9,1.6,14,M,,M,,*53
06/19/2015	01:07:33.531	$GPGGA,010734,2604.0175,N,07917.6370,W,1,9,1.6,14,M,,M,,*53
06/19/2015	01:07:34.542	$GPGGA,010735,2604.0185,N,07917.6395,W,1,9,1.6,14,M,,M,,*56
06/19/2015	01:07:35.561	$GPGGA,010736,2604.0193,N,07917.6421,W,1,9,1.6,14,M,,M,,*5A
06/19/2015	01:07:36.544	$GPGGA,010737,2604.0204,N,07917.6446,W,1,9,1.6,14,M,,M,,*57
06/19/2015	01:07:37.561	$GPGGA,010738,2604.0212,N,07917.6471,W,1,9,1.6,14,M,,M,,*5B
06/19/2015	01:07:38.521	$GPGGA,010739,2604.0222,N,07917.6497,W,1,9,1.6,14,M,,M,,*51
06/19/2015	01:07:39.551	$GPGGA,010740,2604.0230,N,07917.6521,W,1,9,1.6,14,M,,M,,*50
06/19/2015	01:07:40.521	$GPGGA,010741,2604.0240,N,07917.6547,W,1,9,1.6,14,M,,M,,*56
06/19/2015	01:07:41.634	$GPGGA,010742,2604.0248,N,07917.6573,W,1,9,1.6,14,M,,M,,*5A
06/19/2015	01:07:42.534	$GPGGA,010743,2604.0258,N,07917.6598,W,1,9,1.6,14,M,,M,,*5F
06/19/2015	01:07:43.562	$GPGGA,010744,2604.0268,N,07917.6623,W,1,9,1.6,14,M,,M,,*58
06/19/2015	01:07:44.536	$GPGGA,010745,2604.0276,N,07917.6649,W,1,9,1.6,14,M,,M,,*5A
06/19/2015	01:07:45.501	$GPGGA,010746,2604.0286,N,07917.6674,W,1,9,1.6,14,M,,M,,*58
06/19/2015	01:07:46.501	$GPGGA,010747,2604.0294,N,07917.6699,W,1,9,1.6,14,M,,M,,*59
06/19/2015	01:07:47.531	$GPGGA,010748,2604.0304,N,07917.6724,W,1,9,1.6,14,M,,M,,*59
06/19/2015	01:07:48.602	$GPGGA,010749,2604.0313,N,07917.6750,W,1,9,1.6,14,M,,M,,*5D
06/19/2015	01:07:49.521	$GPGGA,010750,2604.0320,N,07917.6775,W,1,9,1.6,14,M,,M,,*52
06/19/2015	01:07:50.501	$GPGGA,010751,2604.0330,N,07917.6800,W,1,9,1.6,14,M,,M,,*5F
06/19/2015	01:07:51.501	$GPGGA,010752,2604.0338,N,07917.6826,W,1,9,1.6,14,M,,M,,*50
06/19/2015	01:07:52.501	$GPGGA,010753,2604.0347,N,07917.6853,W,1,9,1.6,14,M,,M,,*5B
06/19/2015	01:07:53.591	$GPGGA,010754,2604.0356,N,07917.6878,W,1,9,1.6,14,M,,M,,*55
06/19/2015	01:07:54.501	$GPGGA,010755,2604.0365,N,07917.6904,W,1,9,1.6,14,M,,M,,*5E
06/19/2015	01:07:55.601	$GPGGA,010756,2604.0373,N,07917.6929,W,1,9,1.6,14,M,,M,,*55
06/19/2015	01:07:56.591	$GPGGA,010757,2604.0381,N,07917.6954,W,1,9,1.6,14,M,,M,,*53
06/19/2015	01:07:57.601	$GPGGA,010758,2604.0391,N,07917.6980,W,1,9,1.6,14,M,,M,,*54
06/19/2015	01:07:58.592	$GPGGA,010759,2604.0399,N,07917.7006,W,1,9,1.6,14,M,,M,,*5B
06/19/2015	01:07:59.653	$GPGGA,010800,2604.0406,N,07917.7031,W,1,9,1.6,14,M,,M,,*5D
06/19/2015	01:08:00.492	$GPGGA,010801,2604.0416,N,07917.7057,W,1,9,1.6,14,M,,M,,*5D
06/19/2015	01:08:01.612	$GPGGA,010802,2604.0424,N,07917.7084,W,1,9,1.6,14,M,,M,,*51
06/19/2015	01:08:02.571	$GPGGA,010803,2604.0432,N,07917.7110,W,1,9,1.6,14,M,,M,,*5B
06/19/2015	01:08:03.611	$GPGGA,010804,2604.0439,N,07917.7135,W,1,9,1.6,14,M,,M,,*50
06/19/2015	01:08:04.571	$GPGGA,010805,2604.0449,N,07917.7160,W,1,9,1.6,14,M,,M,,*56
06/19/2015	01:08:05.591	$GPGGA,010806,2604.0457,N,07917.7186,W,1,9,1.6,14,M,,M,,*52
06/19/2015	01:08:06.571	$GPGGA,010807,2604.0464,N,07917.7211,W,1,9,1.6,14,M,,M,,*5E
06/19/2015	01:08:07.731	$GPGGA,010808,2604.0472,N,07917.7237,W,1,9,1.6,14,M,,M,,*52
06/19/2015	01:08:09.611	$GPGGA,010810,2604.0489,N,07917.7288,W,1,9,1.6,14,M,,M,,*5B
06/19/2015	01:08:10.551	$GPGGA,010811,2604.0497,N,07917.7314,W,1,9,1.6,14,M,,M,,*51
06/19/2015	01:08:11.591	$GPGGA,010812,2604.0506,N,07917.7339,W,1,9,1.6,14,M,,M,,*54
06/19/2015	01:08:12.561	$GPGGA,010813,2604.0514,N,07917.7366,W,1,9,1.6,14,M,,M,,*5C
06/19/2015	01:08:13.591	$GPGGA,010814,2604.0524,N,07917.7392,W,1,9,1.6,14,M,,M,,*53
06/19/2015	01:08:14.546	$GPGGA,010815,2604.0533,N,07917.7417,W,1,9,1.6,14,M,,M,,*5E
06/19/2015	01:08:15.571	$GPGGA,010816,2604.0540,N,07917.7442,W,1,9,1.6,14,M,,M,,*59
06/19/2015	01:08:16.542	$GPGGA,010817,2604.0550,N,07917.7467,W,1,9,1.6,14,M,,M,,*5E
06/19/2015	01:08:17.543	$GPGGA,010818,2604.0558,N,07917.7493,W,1,9,1.6,14,M,,M,,*52
06/19/2015	01:08:18.534	$GPGGA,010819,2604.0569,N,07917.7518,W,1,9,1.6,14,M,,M,,*53
06/19/2015	01:08:19.552	$GPGGA,010820,2604.0576,N,07917.7543,W,1,9,1.6,14,M,,M,,*59
06/19/2015	01:08:20.542	$GPGGA,010821,2604.0586,N,07917.7569,W,1,9,1.6,14,M,,M,,*5F
06/19/2015	01:08:21.561	$GPGGA,010822,2604.0596,N,07917.7594,W,1,9,1.6,14,M,,M,,*5F
06/19/2015	01:08:22.521	$GPGGA,010823,2604.0605,N,07917.7619,W,1,9,1.6,14,M,,M,,*51
06/19/2015	01:08:23.536	$GPGGA,010824,2604.0613,N,07917.7645,W,1,9,1.6,14,M,,M,,*58
06/19/2015	01:08:24.536	$GPGGA,010825,2604.0623,N,07917.7670,W,1,9,1.6,14,M,,M,,*5C
06/19/2015	01:08:25.542	$GPGGA,010826,2604.0631,N,07917.7695,W,1,9,1.6,14,M,,M,,*57
06/19/2015	01:08:26.521	$GPGGA,010827,2604.0641,N,07917.7720,W,1,9,1.6,14,M,,M,,*5E
06/19/2015	01:08:27.521	$GPGGA,010828,2604.0651,N,07917.7746,W,1,9,1.6,14,M,,M,,*50
06/19/2015	01:08:28.521	$GPGGA,010829,2604.0659,N,07917.7771,W,1,9,1.6,14,M,,M,,*5D
06/19/2015	01:08:29.521	$GPGGA,010830,2604.0670,N,07917.7796,W,1,9,1.6,14,M,,M,,*57
06/19/2015	01:08:30.511	$GPGGA,010831,2604.0680,N,07917.7819,W,1,9,1.6,14,M,,M,,*51
06/19/2015	01:08:31.521	$GPGGA,010832,2604.0690,N,07917.7844,W,1,9,1.6,14,M,,M,,*5B
06/19/2015	01:08:32.502	$GPGGA,010833,2604.0699,N,07917.7869,W,1,9,1.6,14,M,,M,,*5C
06/19/2015	01:08:33.512	$GPGGA,010834,2604.0709,N,07917.7894,W,1,9,1.6,14,M,,M,,*51
06/19/2015	01:08:34.602	$GPGGA,010835,2604.0719,N,07917.7919,W,1,9,1.6,14,M,,M,,*55
06/19/2015	01:08:35.522	$GPGGA,010836,2604.0728,N,07917.7942,W,1,9,1.6,14,M,,M,,*5A
06/19/2015	01:08:36.612	$GPGGA,010837,2604.0739,N,07917.7967,W,1,9,1.6,13,M,,M,,*5B
06/19/2015	01:08:37.591	$GPGGA,010838,2604.0748,N,07917.7992,W,1,9,1.6,13,M,,M,,*58
06/19/2015	01:08:38.512	$GPGGA,010839,2604.0757,N,07917.8017,W,1,9,1.6,13,M,,M,,*5C
06/19/2015	01:08:39.611	$GPGGA,010840,2604.0768,N,07917.8042,W,1,9,1.6,13,M,,M,,*5E
06/19/2015	01:08:40.491	$GPGGA,010841,2604.0777,N,07917.8067,W,1,9,1.6,13,M,,M,,*56
06/19/2015	01:08:41.621	$GPGGA,010842,2604.0786,N,07917.8092,W,1,9,1.6,13,M,,M,,*51
06/19/2015	01:08:42.581	$GPGGA,010843,2604.0796,N,07917.8116,W,1,9,1.6,13,M,,M,,*5C
06/19/2015	01:08:43.511	$GPGGA,010844,2604.0806,N,07917.8140,W,1,9,1.6,13,M,,M,,*5E
06/19/2015	01:08:44.491	$GPGGA,010845,2604.0815,N,07917.8165,W,1,9,1.6,13,M,,M,,*5A
06/19/2015	01:08:46.635	$GPGGA,010847,2604.0833,N,07917.8215,W,1,9,1.6,13,M,,M,,*58
06/19/2015	01:08:47.581	$GPGGA,010848,2604.0844,N,07917.8241,W,1,9,1.6,13,M,,M,,*56
06/19/2015	01:08:48.591	$GPGGA,010849,2604.0854,N,07917.8264,W,1,9,1.6,13,M,,M,,*51
06/19/2015	01:08:49.571	$GPGGA,010850,2604.0862,N,07917.8291,W,1,9,1.6,13,M,,M,,*56
06/19/2015	01:08:51.649	$GPGGA,010852,2604.0882,N,07917.8340,W,1,9,1.6,13,M,,M,,*57
06/19/2015	01:08:52.562	$GPGGA,010853,2604.0891,N,07917.8364,W,1,9,1.6,13,M,,M,,*52
06/19/2015	01:08:53.622	$GPGGA,010854,2604.0901,N,07917.8389,W,1,9,1.6,13,M,,M,,*5E
06/19/2015	01:08:54.562	$GPGGA,010855,2604.0909,N,07917.8414,W,1,9,1.6,13,M,,M,,*54
06/19/2015	01:08:55.591	$GPGGA,010856,2604.0919,N,07917.8439,W,1,9,1.6,13,M,,M,,*59
06/19/2015	01:08:56.561	$GPGGA,010857,2604.0929,N,07917.8465,W,1,9,1.6,13,M,,M,,*52
06/19/2015	01:08:57.571	$GPGGA,010858,2604.0938,N,07917.8490,W,1,9,1.6,13,M,,M,,*57
06/19/2015	01:08:58.551	$GPGGA,010859,2604.0948,N,07917.8515,W,1,9,2.0,13,M,,M,,*58
06/19/2015	01:08:59.611	$GPGGA,010900,2604.0956,N,07917.8540,W,1,9,1.6,13,M,,M,,*5F
06/19/2015	01:09:00.551	$GPGGA,010901,2604.0965,N,07917.8566,W,1,9,1.6,13,M,,M,,*5A
06/19/2015	01:09:01.561	$GPGGA,010902,2604.0974,N,07917.8591,W,1,9,1.6,13,M,,M,,*51
06/19/2015	01:09:02.551	$GPGGA,010903,2604.0983,N,07917.8616,W,1,9,1.6,13,M,,M,,*54
06/19/2015	01:09:03.571	$GPGGA,010904,2604.0991,N,07917.8642,W,1,9,1.6,13,M,,M,,*51
06/19/2015	01:09:04.542	$GPGGA,010905,2604.0999,N,07917.8667,W,1,9,1.6,13,M,,M,,*5F
06/19/2015	01:09:05.561	$GPGGA,010906,2604.1006,N,07917.8692,W,1,9,1.6,13,M,,M,,*58
06/19/2015	01:09:06.801	$GPGGA,010907,2604.1016,N,07917.8717,W,1,9,1.6,13,M,,M,,*54
06/19/2015	01:09:07.591	$GPGGA,010908,2604.1024,N,07917.8743,W,1,9,1.6,13,M,,M,,*5B
06/19/2015	01:09:08.550	$GPGGA,010909,2604.1031,N,07917.8768,W,1,9,1.6,13,M,,M,,*57
06/19/2015	01:09:09.546	$GPGGA,010910,2604.1041,N,07917.8793,W,1,9,1.6,13,M,,M,,*5C
06/19/2015	01:09:10.643	$GPGGA,010911,2604.1049,N,07917.8818,W,1,9,1.6,13,M,,M,,*59
06/19/2015	01:09:11.552	$GPGGA,010912,2604.1057,N,07917.8842,W,1,9,1.6,13,M,,M,,*5A
06/19/2015	01:09:12.532	$GPGGA,010913,2604.1064,N,07917.8869,W,1,9,1.6,13,M,,M,,*52
06/19/2015	01:09:13.544	$GPGGA,010914,2604.1075,N,07917.8894,W,1,8,2.0,13,M,,M,,*53
06/19/2015	01:09:14.631	$GPGGA,010915,2604.1082,N,07917.8917,W,1,8,1.6,13,M,,M,,*55
06/19/2015	01:09:15.641	$GPGGA,010916,2604.1089,N,07917.8941,W,1,9,1.6,13,M,,M,,*5F
06/19/2015	01:09:16.645	$GPGGA,010917,2604.1096,N,07917.8967,W,1,9,1.6,13,M,,M,,*54
06/19/2015	01:09:17.501	$GPGGA,010918,2604.1106,N,07917.8990,W,1,9,1.6,13,M,,M,,*5B
06/19/2015	01:09:18.512	$GPGGA,010919,2604.1115,N,07917.9015,W,1,9,1.6,13,M,,M,,*5D
06/19/2015	01:09:19.561	$GPGGA,010920,2604.1124,N,07917.9040,W,1,9,1.6,13,M,,M,,*55
06/19/2015	01:09:20.511	$GPGGA,010921,2604.1133,N,07917.9065,W,1,9,1.6,13,M,,M,,*55
06/19/2015	01:09:21.611	$GPGGA,010922,2604.1142,N,07917.9090,W,1,9,1.6,13,M,,M,,*5A
06/19/2015	01:09:22.511	$GPGGA,010923,2604.1151,N,07917.9115,W,1,9,1.6,13,M,,M,,*55
06/19/2015	01:09:23.641	$GPGGA,010924,2604.1161,N,07917.9140,W,1,9,1.6,13,M,,M,,*51
06/19/2015	01:09:24.501	$GPGGA,010925,2604.1169,N,07917.9163,W,1,9,1.6,13,M,,M,,*59
06/19/2015	01:09:25.611	$GPGGA,010926,2604.1179,N,07917.9188,W,1,9,1.6,13,M,,M,,*5E
06/19/2015	01:09:26.492	$GPGGA,010927,2604.1189,N,07917.9213,W,1,9,1.6,13,M,,M,,*51
06/19/2015	01:09:27.492	$GPGGA,010928,2604.1198,N,07917.9238,W,1,9,1.6,13,M,,M,,*57
06/19/2015	01:09:28.602	$GPGGA,010929,2604.1208,N,07917.9263,W,1,9,1.6,13,M,,M,,*52
06/19/2015	01:09:29.592	$GPGGA,010930,2604.1218,N,07917.9288,W,1,9,1.6,13,M,,M,,*5E
06/19/2015	01:09:30.501	$GPGGA,010931,2604.1227,N,07917.9313,W,1,9,1.6,13,M,,M,,*50
06/19/2015	01:09:31.501	$GPGGA,010932,2604.1236,N,07917.9337,W,1,9,1.6,13,M,,M,,*55
06/19/2015	01:09:32.581	$GPGGA,010933,2604.1245,N,07917.9361,W,1,9,1.6,13,M,,M,,*53
06/19/2015	01:09:33.632	$GPGGA,010934,2604.1255,N,07917.9386,W,1,9,1.6,13,M,,M,,*5C
06/19/2015	01:09:34.571	$GPGGA,010935,2604.1265,N,07917.9411,W,1,9,1.6,13,M,,M,,*57
06/19/2015	01:09:35.611	$GPGGA,010936,2604.1274,N,07917.9436,W,1,9,1.6,13,M,,M,,*51
06/19/2015	01:09:36.581	$GPGGA,010937,2604.1284,N,07917.9460,W,1,9,1.6,13,M,,M,,*5C
06/19/2015	01:09:37.591	$GPGGA,010938,2604.1294,N,07917.9485,W,1,9,1.6,13,M,,M,,*59
06/19/2015	01:09:38.571	$GPGGA,010939,2604.1303,N,07917.9510,W,1,9,1.6,13,M,,M,,*5A
06/19/2015	01:09:39.611	$GPGGA,010940,2604.1313,N,07917.9537,W,1,9,1.6,13,M,,M,,*50
06/19/2015	01:09:40.571	$GPGGA,010941,2604.1323,N,07917.9561,W,1,9,1.6,13,M,,M,,*51
06/19/2015	01:09:41.581	$GPGGA,010942,2604.1333,N,07917.9586,W,1,9,1.6,13,M,,M,,*5A
06/19/2015	01:09:42.561	$GPGGA,010943,2604.1342,N,07917.9611,W,1,9,1.6,13,M,,M,,*50
06/19/2015	01:09:43.602	$GPGGA,010944,2604.1353,N,07917.9635,W,1,9,1.6,13,M,,M,,*51
06/19/2015	01:09:44.572	$GPGGA,010945,2604.1362,N,07917.9660,W,1,9,1.6,13,M,,M,,*52
06/19/2015	01:09:45.582	$GPGGA,010946,2604.1371,N,07917.9686,W,1,9,1.6,13,M,,M,,*5B
06/19/2015	01:09:46.562	$GPGGA,010947,2604.1381,N,07917.9711,W,1,9,1.6,13,M,,M,,*5A
06/19/2015	01:09:47.581	$GPGGA,010948,2604.1389,N,07917.9736,W,1,9,1.6,13,M,,M,,*58
06/19/2015	01:09:49.081	$GPGGA,010949,2604.1399,N,07917.9761,W,1,9,1.6,13,M,,M,,*5A
06/19/2015	01:09:49.571	$GPGGA,010950,2604.1407,N,07917.9785,W,1,9,1.6,13,M,,M,,*58
06/19/2015	01:09:50.543	$GPGGA,010951,2604.1418,N,07917.9810,W,1,9,1.6,13,M,,M,,*54
06/19/2015	01:09:51.591	$GPGGA,010952,2604.1427,N,07917.9835,W,1,9,1.6,13,M,,M,,*5C
06/19/2015	01:09:52.533	$GPGGA,010953,2604.1436,N,07917.9860,W,1,9,1.6,13,M,,M,,*5D
06/19/2015	01:09:53.541	$GPGGA,010954,2604.1445,N,07917.9884,W,1,9,1.6,13,M,,M,,*54
06/19/2015	01:09:54.551	$GPGGA,010955,2604.1454,N,07917.9910,W,1,9,1.6,13,M,,M,,*59
06/19/2015	01:09:55.681	$GPGGA,010956,2604.1462,N,07917.9933,W,1,9,1.6,13,M,,M,,*5E
06/19/2015	01:09:56.533	$GPGGA,010957,2604.1472,N,07917.9958,W,1,9,1.6,13,M,,M,,*53
06/19/2015	01:09:57.551	$GPGGA,010958,2604.1480,N,07917.9982,W,1,9,1.6,13,M,,M,,*56
06/19/2015	01:09:58.541	$GPGGA,010959,2604.1490,N,07918.0007,W,1,9,1.6,13,M,,M,,*54
06/19/2015	01:09:59.591	$GPGGA,011000,2604.1498,N,07918.0033,W,1,9,1.6,13,M,,M,,*5F
06/19/2015	01:10:00.543	$GPGGA,011001,2604.1508,N,07918.0058,W,1,9,1.6,13,M,,M,,*5B
06/19/2015	01:10:01.542	$GPGGA,011002,2604.1516,N,07918.0083,W,1,9,1.6,13,M,,M,,*51
06/19/2015	01:10:02.522	$GPGGA,011003,2604.1526,N,07918.0108,W,1,9,1.6,13,M,,M,,*51
06/19/2015	01:10:03.592	$GPGGA,011004,2604.1534,N,07918.0133,W,1,9,1.6,13,M,,M,,*5D
06/19/2015	01:10:04.512	$GPGGA,011005,2604.1544,N,07918.0157,W,1,9,1.6,13,M,,M,,*59
06/19/2015	01:10:05.541	$GPGGA,011006,2604.1554,N,07918.0182,W,1,9,1.6,13,M,,M,,*53
06/19/2015	01:10:06.621	$GPGGA,011007,2604.1562,N,07918.0209,W,1,9,1.6,13,M,,M,,*57
06/19/2015	01:10:07.644	$GPGGA,011008,2604.1572,N,07918.0233,W,1,9,1.6,13,M,,M,,*50
06/19/2015	01:10:08.532	$GPGGA,011009,2604.1581,N,07918.0258,W,1,9,1.6,13,M,,M,,*50
06/19/2015	01:10:09.551	$GPGGA,011010,2604.1588,N,07918.0283,W,1,9,1.6,13,M,,M,,*57
06/19/2015	01:10:10.501	$GPGGA,011011,2604.1598,N,07918.0308,W,1,9,1.6,13,M,,M,,*55
06/19/2015	01:10:11.611	$GPGGA,011012,2604.1606,N,07918.0333,W,1,9,1.6,13,M,,M,,*5A
06/19/2015	01:10:12.521	$GPGGA,011013,2604.1616,N,07918.0358,W,1,9,1.6,13,M,,M,,*57
06/19/2015	01:10:13.601	$GPGGA,011014,2604.1624,N,07918.0383,W,1,9,1.6,13,M,,M,,*57
06/19/2015	01:10:15.085	$GPGGA,011015,2604.1633,N,07918.0408,W,1,9,1.6,13,M,,M,,*54
06/19/2015	01:10:15.601	$GPGGA,011016,2604.1642,N,07918.0434,W,1,9,1.6,13,M,,M,,*5E
06/19/2015	01:10:16.591	$GPGGA,011017,2604.1651,N,07918.0459,W,1,9,1.6,13,M,,M,,*56
06/19/2015	01:10:17.591	$GPGGA,011018,2604.1660,N,07918.0484,W,1,9,1.6,13,M,,M,,*5B
06/19/2015	01:10:18.502	$GPGGA,011019,2604.1667,N,07918.0507,W,1,9,1.6,13,M,,M,,*57
06/19/2015	01:10:19.592	$GPGGA,011020,2604.1677,N,07918.0532,W,1,9,1.6,13,M,,M,,*5A
06/19/2015	01:10:20.582	$GPGGA,011021,2604.1685,N,07918.0557,W,1,9,1.6,13,M,,M,,*55
06/19/2015	01:10:21.582	$GPGGA,011022,2604.1693,N,07918.0582,W,1,9,1.6,13,M,,M,,*59
06/19/2015	01:10:22.571	$GPGGA,011023,2604.1703,N,07918.0607,W,1,9,1.6,13,M,,M,,*5E
06/19/2015	01:10:23.612	$GPGGA,011024,2604.1711,N,07918.0632,W,1,9,1.6,13,M,,M,,*5C
06/19/2015	01:10:24.561	$GPGGA,011025,2604.1721,N,07918.0657,W,1,9,1.6,13,M,,M,,*5D
06/19/2015	01:10:25.571	$GPGGA,011026,2604.1729,N,07918.0681,W,1,9,1.6,13,M,,M,,*5D
06/19/2015	01:10:26.571	$GPGGA,011027,2604.1739,N,07918.0705,W,1,9,1.6,13,M,,M,,*50
06/19/2015	01:10:27.571	$GPGGA,011028,2604.1747,N,07918.0730,W,1,9,1.6,13,M,,M,,*50
06/19/2015	01:10:28.561	$GPGGA,011029,2604.1757,N,07918.0755,W,1,9,1.6,13,M,,M,,*53
06/19/2015	01:10:29.582	$GPGGA,011030,2604.1765,N,07918.0780,W,1,9,1.6,13,M,,M,,*52
06/19/2015	01:10:30.551	$GPGGA,011031,2604.1776,N,07918.0805,W,1,9,1.6,13,M,,M,,*53
06/19/2015	01:10:31.601	$GPGGA,011032,2604.1785,N,07918.0829,W,1,9,1.6,13,M,,M,,*52
06/19/2015	01:10:32.551	$GPGGA,011033,2604.1794,N,07918.0853,W,1,9,1.6,13,M,,M,,*5E
06/19/2015	01:10:33.571	$GPGGA,011034,2604.1804,N,07918.0878,W,1,9,1.6,13,M,,M,,*56
06/19/2015	01:10:34.551	$GPGGA,011035,2604.1814,N,07918.0903,W,1,9,1.6,13,M,,M,,*5B
06/19/2015	01:10:36.022	$GPGGA,011036,2604.1823,N,07918.0928,W,1,9,1.6,13,M,,M,,*55
06/19/2015	01:10:36.547	$GPGGA,011037,2604.1833,N,07918.0952,W,1,9,1.6,13,M,,M,,*58
06/19/2015	01:10:37.532	$GPGGA,011038,2604.1843,N,07918.0977,W,1,9,1.6,13,M,,M,,*57
06/19/2015	01:10:38.533	$GPGGA,011039,2604.1852,N,07918.1001,W,1,9,1.6,13,M,,M,,*5F
06/19/2015	01:10:39.553	$GPGGA,011040,2604.1862,N,07918.1026,W,1,9,1.6,13,M,,M,,*57
06/19/2015	01:10:40.546	$GPGGA,011041,2604.1873,N,07918.1051,W,1,9,1.6,13,M,,M,,*56
06/19/2015	01:10:41.521	$GPGGA,011042,2604.1883,N,07918.1076,W,1,9,1.6,13,M,,M,,*5F
06/19/2015	01:10:42.537	$GPGGA,011043,2604.1894,N,07918.1099,W,1,9,1.6,13,M,,M,,*59
06/19/2015	01:10:43.561	$GPGGA,011044,2604.1904,N,07918.1124,W,1,9,1.6,13,M,,M,,*51
06/19/2015	01:10:44.533	$GPGGA,011045,2604.1913,N,07918.1149,W,1,9,1.6,13,M,,M,,*5D
06/19/2015	01:10:45.521	$GPGGA,011046,2604.1924,N,07918.1174,W,1,9,1.6,13,M,,M,,*54
06/19/2015	01:10:46.535	$GPGGA,011047,2604.1935,N,07918.1199,W,1,9,1.6,13,M,,M,,*56
06/19/2015	01:10:47.571	$GPGGA,011048,2604.1944,N,07918.1222,W,1,9,1.6,13,M,,M,,*5C
06/19/2015	01:10:48.545	$GPGGA,011049,2604.1953,N,07918.1247,W,1,9,1.6,13,M,,M,,*58
06/19/2015	01:10:49.651	$GPGGA,011050,2604.1964,N,07918.1272,W,1,9,1.6,13,M,,M,,*52
06/19/2015	01:10:50.536	$GPGGA,011051,2604.1974,N,07918.1297,W,1,9,1.6,13,M,,M,,*59
06/19/2015	01:10:51.521	$GPGGA,011052,2604.1982,N,07918.1322,W,1,9,1.6,13,M,,M,,*5C
06/19/2015	01:10:52.521	$GPGGA,011053,2604.1992,N,07918.1347,W,1,9,1.6,13,M,,M,,*5F
06/19/2015	01:10:53.502	$GPGGA,011054,2604.2003,N,07918.1370,W,1,9,1.6,13,M,,M,,*5E
06/19/2015	01:10:54.502	$GPGGA,011055,2604.2013,N,07918.1395,W,1,9,1.6,13,M,,M,,*55
06/19/2015	01:10:55.522	$GPGGA,011056,2604.2021,N,07918.1420,W,1,9,1.6,13,M,,M,,*5E
06/19/2015	01:10:56.512	$GPGGA,011057,2604.2032,N,07918.1445,W,1,9,1.6,13,M,,M,,*5E
06/19/2015	01:10:57.601	$GPGGA,011058,2604.2040,N,07918.1470,W,1,9,1.6,13,M,,M,,*52
06/19/2015	01:10:58.601	$GPGGA,011059,2604.2049,N,07918.1496,W,1,9,1.6,13,M,,M,,*52
06/19/2015	01:10:59.651	$GPGGA,011100,2604.2057,N,07918.1521,W,1,9,1.6,13,M,,M,,*5D
06/19/2015	01:11:00.601	$GPGGA,011101,2604.2068,N,07918.1546,W,1,9,1.6,13,M,,M,,*51
06/19/2015	01:11:01.635	$GPGGA,011102,2604.2076,N,07918.1572,W,1,9,1.6,13,M,,M,,*5A
06/19/2015	01:11:02.591	$GPGGA,011103,2604.2085,N,07918.1597,W,1,9,2.0,13,M,,M,,*59
06/19/2015	01:11:03.621	$GPGGA,011104,2604.2096,N,07918.1620,W,1,8,2.0,13,M,,M,,*52
06/19/2015	01:11:04.581	$GPGGA,011105,2604.2105,N,07918.1645,W,1,8,1.6,13,M,,M,,*5E
06/19/2015	01:11:05.581	$GPGGA,011106,2604.2115,N,07918.1669,W,1,9,1.6,13,M,,M,,*53
06/19/2015	01:11:06.581	$GPGGA,011107,2604.2125,N,07918.1694,W,1,9,1.6,13,M,,M,,*53
06/19/2015	01:11:07.591	$GPGGA,011108,2604.2133,N,07918.1720,W,1,9,1.6,13,M,,M,,*55
06/19/2015	01:11:08.591	$GPGGA,011109,2604.2141,N,07918.1745,W,1,9,1.6,13,M,,M,,*52
06/19/2015	01:11:09.571	$GPGGA,011110,2604.2150,N,07918.1770,W,1,9,1.6,13,M,,M,,*5C
06/19/2015	01:11:10.581	$GPGGA,011111,2604.2159,N,07918.1795,W,1,9,1.6,13,M,,M,,*5F
06/19/2015	01:11:11.612	$GPGGA,011112,2604.2166,N,07918.1818,W,1,9,1.6,13,M,,M,,*5A
06/19/2015	01:11:12.572	$GPGGA,011113,2604.2176,N,07918.1843,W,1,9,1.6,13,M,,M,,*54
06/19/2015	01:11:13.582	$GPGGA,011114,2604.2184,N,07918.1868,W,1,9,1.6,14,M,,M,,*50
06/19/2015	01:11:14.562	$GPGGA,011115,2604.2193,N,07918.1893,W,1,9,1.6,14,M,,M,,*53
06/19/2015	01:11:15.602	$GPGGA,011116,2604.2202,N,07918.1918,W,1,8,2.0,14,M,,M,,*5D
06/19/2015	01:11:16.561	$GPGGA,011117,2604.2212,N,07918.1943,W,1,8,1.6,14,M,,M,,*56
06/19/2015	01:11:17.891	$GPGGA,011118,2604.2222,N,07918.1967,W,1,9,1.6,14,M,,M,,*5D
06/19/2015	01:11:18.551	$GPGGA,011119,2604.2231,N,07918.1992,W,1,9,1.6,14,M,,M,,*54
06/19/2015	01:11:20.041	$GPGGA,011120,2604.2240,N,07918.2017,W,1,9,1.6,14,M,,M,,*5F
06/19/2015	01:11:20.561	$GPGGA,011121,2604.2251,N,07918.2041,W,1,9,1.6,14,M,,M,,*5D
06/19/2015	01:11:21.561	$GPGGA,011122,2604.2260,N,07918.2066,W,1,9,1.6,14,M,,M,,*59
06/19/2015	01:11:22.561	$GPGGA,011123,2604.2269,N,07918.2092,W,1,9,1.6,14,M,,M,,*5A
06/19/2015	01:11:23.591	$GPGGA,011124,2604.2278,N,07918.2117,W,1,9,1.6,14,M,,M,,*51
06/19/2015	01:11:24.531	$GPGGA,011125,2604.2287,N,07918.2142,W,1,9,1.6,14,M,,M,,*50
06/19/2015	01:11:25.531	$GPGGA,011126,2604.2296,N,07918.2167,W,1,9,1.6,14,M,,M,,*54
06/19/2015	01:11:26.541	$GPGGA,011127,2604.2306,N,07918.2191,W,1,9,1.6,14,M,,M,,*54
06/19/2015	01:11:27.551	$GPGGA,011128,2604.2314,N,07918.2216,W,1,9,1.6,14,M,,M,,*54
06/19/2015	01:11:28.562	$GPGGA,011129,2604.2324,N,07918.2241,W,1,9,1.6,14,M,,M,,*54
06/19/2015	01:11:29.562	$GPGGA,011130,2604.2334,N,07918.2266,W,1,9,1.6,15,M,,M,,*59
06/19/2015	01:11:30.544	$GPGGA,011131,2604.2343,N,07918.2291,W,1,9,1.6,15,M,,M,,*50
06/19/2015	01:11:32.023	$GPGGA,011132,2604.2352,N,07918.2317,W,1,9,1.6,15,M,,M,,*5C
06/19/2015	01:11:32.544	$GPGGA,011133,2604.2361,N,07918.2342,W,1,9,1.6,15,M,,M,,*5D
06/19/2015	01:11:33.561	$GPGGA,011134,2604.2371,N,07918.2367,W,1,9,1.6,15,M,,M,,*5C
06/19/2015	01:11:34.533	$GPGGA,011135,2604.2381,N,07918.2392,W,1,9,1.6,15,M,,M,,*58
06/19/2015	01:11:35.551	$GPGGA,011136,2604.2390,N,07918.2418,W,1,9,1.6,15,M,,M,,*5E
06/19/2015	01:11:36.521	$GPGGA,011137,2604.2400,N,07918.2442,W,1,9,1.6,15,M,,M,,*5E
06/19/2015	01:11:37.621	$GPGGA,011138,2604.2410,N,07918.2467,W,1,9,1.6,15,M,,M,,*57
06/19/2015	01:11:38.551	$GPGGA,011139,2604.2419,N,07918.2491,W,1,9,1.6,15,M,,M,,*56
06/19/2015	01:11:39.644	$GPGGA,011140,2604.2428,N,07918.2516,W,1,9,1.6,15,M,,M,,*54
06/19/2015	01:11:40.511	$GPGGA,011141,2604.2437,N,07918.2541,W,1,9,1.6,15,M,,M,,*59
06/19/2015	01:11:41.621	$GPGGA,011142,2604.2448,N,07918.2566,W,1,9,1.6,15,M,,M,,*57
06/19/2015	01:11:42.511	$GPGGA,011143,2604.2458,N,07918.2592,W,1,9,1.6,15,M,,M,,*5C
06/19/2015	01:11:43.541	$GPGGA,011144,2604.2468,N,07918.2617,W,1,9,1.6,15,M,,M,,*56
06/19/2015	01:11:44.591	$GPGGA,011145,2604.2477,N,07918.2642,W,1,9,1.6,15,M,,M,,*59
06/19/2015	01:11:45.491	$GPGGA,011146,2604.2487,N,07918.2667,W,1,9,1.6,15,M,,M,,*52
06/19/2015	01:11:46.492	$GPGGA,011147,2604.2497,N,07918.2692,W,1,9,1.6,15,M,,M,,*58
06/19/2015	01:11:47.602	$GPGGA,011148,2604.2506,N,07918.2717,W,1,9,1.6,15,M,,M,,*52
06/19/2015	01:11:48.602	$GPGGA,011149,2604.2516,N,07918.2743,W,1,9,1.6,15,M,,M,,*53
06/19/2015	01:11:49.592	$GPGGA,011150,2604.2526,N,07918.2768,W,1,9,1.6,15,M,,M,,*51
06/19/2015	01:11:50.501	$GPGGA,011151,2604.2536,N,07918.2793,W,1,9,1.6,15,M,,M,,*55
06/19/2015	01:11:51.591	$GPGGA,011152,2604.2545,N,07918.2818,W,1,9,1.6,15,M,,M,,*5E
06/19/2015	01:11:52.591	$GPGGA,011153,2604.2556,N,07918.2843,W,1,9,1.6,15,M,,M,,*53
