Software Version Number: 1	Data File Format Number: 1	Build Version Number: 1	Error Count Since VI Started: 2	Manufacturer: Raytheon	 Model Number: RayMarine 120	 S/N: 	 Cal Date: 	 Wind Direction Offset: 0.00	 Slope (M)1: 0.00	 Offset (B)1: 0.00	 Slope (M)2: 0.00	 Offset (B)2: 0.00	 Slope (M)3: 0.00	 Offset (B)3: 0.00	 Slope (M)4: 0.00	 Offset (B)4: 0.00	 Slope (M)5: 0.00	 Offset (B)5: 0.00	 Slope (M)6: 0.00	 Offset (B)6: 0.00
Computer Date	Computer Time	GGA String
06/20/2015	12:00:00.578	$GPGGA,120001,2448.6968,N,08024.9686,W,1,10,1.4,20,M,,M,,*60
06/20/2015	12:00:01.588	$GPGGA,120002,2448.6964,N,08024.9668,W,1,11,1.4,20,M,,M,,*6E
06/20/2015	12:00:02.588	$GPGGA,120003,2448.6960,N,08024.9650,W,1,11,1.5,20,M,,M,,*61
06/20/2015	12:00:03.598	$GPGGA,120004,2448.6955,N,08024.9633,W,1,11,1.4,20,M,,M,,*64
06/20/2015	12:00:04.578	$GPGGA,120005,2448.6953,N,08024.9617,W,1,11,1.4,20,M,,M,,*65
06/20/2015	12:00:05.588	$GPGGA,120006,2448.6949,N,08024.9601,W,1,11,1.4,20,M,,M,,*6A
06/20/2015	12:00:06.558	$GPGGA,120007,2448.6945,N,08024.9584,W,1,11,1.7,21,M,,M,,*6B
06/20/2015	12:00:07.588	$GPGGA,120008,2448.6942,N,08024.9568,W,1,11,1.4,21,M,,M,,*62
06/20/2015	12:00:08.568	$GPGGA,120009,2448.6938,N,08024.9551,W,1,11,1.7,21,M,,M,,*67
06/20/2015	12:00:09.568	$GPGGA,120010,2448.6935,N,08024.9534,W,1,10,1.7,21,M,,M,,*60
06/20/2015	12:00:10.567	$GPGGA,120011,2448.6931,N,08024.9517,W,1,10,1.7,21,M,,M,,*64
06/20/2015	12:00:11.597	$GPGGA,120012,2448.6928,N,08024.9500,W,1,10,1.7,21,M,,M,,*69
06/20/2015	12:00:12.549	$GPGGA,120013,2448.6924,N,08024.9484,W,1,10,1.7,21,M,,M,,*69
06/20/2015	12:00:13.540	$GPGGA,120014,2448.6922,N,08024.9467,W,1,10,1.7,21,M,,M,,*65
06/20/2015	12:00:14.557	$GPGGA,120015,2448.6919,N,08024.9450,W,1,10,1.8,21,M,,M,,*67
06/20/2015	12:00:15.577	$GPGGA,120016,2448.6917,N,08024.9433,W,1,10,1.7,21,M,,M,,*60
06/20/2015	12:00:16.548	$GPGGA,120017,2448.6914,N,08024.9416,W,1,10,1.7,21,M,,M,,*65
06/20/2015	12:00:17.542	$GPGGA,120018,2448.6911,N,08024.9400,W,1,9,1.8,21,M,,M,,*5F
06/20/2015	12:00:18.550	$GPGGA,120019,2448.6908,N,08024.9384,W,1,9,1.8,21,M,,M,,*5D
06/20/2015	12:00:19.558	$GPGGA,120020,2448.6902,N,08024.9368,W,1,10,1.5,21,M,,M,,*6A
06/20/2015	12:00:20.548	$GPGGA,120021,2448.6898,N,08024.9351,W,1,10,1.4,21,M,,M,,*62
06/20/2015	12:00:21.568	$GPGGA,120022,2448.6895,N,08024.9334,W,1,10,1.7,21,M,,M,,*6C
06/20/2015	12:00:22.548	$GPGGA,120023,2448.6892,N,08024.9317,W,1,10,1.5,21,M,,M,,*69
06/20/2015	12:00:23.548	$GPGGA,120024,2448.6889,N,08024.9301,W,1,11,1.4,21,M,,M,,*63
06/20/2015	12:00:24.539	$GPGGA,120025,2448.6888,N,08024.9285,W,1,11,1.5,21,M,,M,,*6F
06/20/2015	12:00:25.528	$GPGGA,120026,2448.6884,N,08024.9269,W,1,11,1.4,21,M,,M,,*63
06/20/2015	12:00:26.518	$GPGGA,120027,2448.6880,N,08024.9252,W,1,11,1.4,21,M,,M,,*6E
06/20/2015	12:00:27.538	$GPGGA,120028,2448.6877,N,08024.9237,W,1,11,1.4,21,M,,M,,*6A
06/20/2015	12:00:28.527	$GPGGA,120029,2448.6874,N,08024.9220,W,1,11,1.4,21,M,,M,,*6E
06/20/2015	12:00:29.540	$GPGGA,120030,2448.6870,N,08024.9203,W,1,11,1.4,21,M,,M,,*63
06/20/2015	12:00:30.527	$GPGGA,120031,2448.6867,N,08024.9187,W,1,11,1.4,21,M,,M,,*6B
06/20/2015	12:00:31.638	$GPGGA,120032,2448.6863,N,08024.9170,W,1,10,1.5,21,M,,M,,*64
06/20/2015	12:00:32.517	$GPGGA,120033,2448.6860,N,08024.9153,W,1,10,1.5,21,M,,M,,*67
06/20/2015	12:00:33.517	$GPGGA,120034,2448.6857,N,08024.9137,W,1,11,1.4,21,M,,M,,*66
06/20/2015	12:00:34.608	$GPGGA,120035,2448.6855,N,08024.9120,W,1,11,1.4,21,M,,M,,*63
06/20/2015	12:00:35.518	$GPGGA,120036,2448.6850,N,08024.9103,W,1,10,1.5,20,M,,M,,*65
06/20/2015	12:00:36.598	$GPGGA,120037,2448.6846,N,08024.9087,W,1,10,1.5,20,M,,M,,*6E
06/20/2015	12:00:37.528	$GPGGA,120038,2448.6843,N,08024.9070,W,1,10,1.5,20,M,,M,,*6C
06/20/2015	12:00:38.518	$GPGGA,120039,2448.6839,N,08024.9052,W,1,10,1.8,20,M,,M,,*6D
06/20/2015	12:00:39.498	$GPGGA,120040,2448.6835,N,08024.9035,W,1,10,1.7,20,M,,M,,*61
06/20/2015	12:00:40.498	$GPGGA,120041,2448.6832,N,08024.9017,W,1,10,1.8,20,M,,M,,*68
06/20/2015	12:00:41.618	$GPGGA,120042,2448.6828,N,08024.9000,W,1,10,1.7,20,M,,M,,*69
06/20/2015	12:00:42.488	$GPGGA,120043,2448.6823,N,08024.8982,W,1,10,1.7,20,M,,M,,*61
06/20/2015	12:00:43.498	$GPGGA,120044,2448.6819,N,08024.8964,W,1,10,1.7,20,M,,M,,*67
06/20/2015	12:00:44.498	$GPGGA,120045,2448.6814,N,08024.8947,W,1,10,1.7,20,M,,M,,*6A
06/20/2015	12:00:45.497	$GPGGA,120046,2448.6810,N,08024.8929,W,1,10,1.7,20,M,,M,,*65
06/20/2015	12:00:46.577	$GPGGA,120047,2448.6807,N,08024.8911,W,1,10,1.7,20,M,,M,,*69
06/20/2015	12:00:47.587	$GPGGA,120048,2448.6803,N,08024.8894,W,1,10,1.7,20,M,,M,,*6E
06/20/2015	12:00:48.487	$GPGGA,120049,2448.6801,N,08024.8876,W,1,10,1.7,19,M,,M,,*6B
06/20/2015	12:00:49.617	$GPGGA,120050,2448.6796,N,08024.8859,W,1,10,1.7,19,M,,M,,*6F
06/20/2015	12:00:50.487	$GPGGA,120051,2448.6794,N,08024.8841,W,1,10,1.8,19,M,,M,,*6A
06/20/2015	12:00:51.578	$GPGGA,120052,2448.6790,N,08024.8824,W,1,10,1.7,19,M,,M,,*61
06/20/2015	12:00:54.093	$GPGGA,120054,2448.6781,N,08024.8792,W,1,10,1.7,19,M,,M,,*65
06/20/2015	12:00:54.568	$GPGGA,120055,2448.6779,N,08024.8775,W,1,10,1.5,19,M,,M,,*68
06/20/2015	12:00:55.588	$GPGGA,120056,2448.6776,N,08024.8760,W,1,10,1.5,19,M,,M,,*60
06/20/2015	12:00:56.558	$GPGGA,120057,2448.6772,N,08024.8743,W,1,10,1.5,19,M,,M,,*64
06/20/2015	12:00:57.578	$GPGGA,120058,2448.6768,N,08024.8725,W,1,9,1.7,19,M,,M,,*5A
06/20/2015	12:00:58.555	$GPGGA,120059,2448.6763,N,08024.8707,W,1,9,1.5,19,M,,M,,*52
06/20/2015	12:00:59.608	$GPGGA,120100,2448.6759,N,08024.8690,W,1,10,1.5,19,M,,M,,*61
06/20/2015	12:01:00.554	$GPGGA,120101,2448.6756,N,08024.8672,W,1,10,1.4,19,M,,M,,*62
06/20/2015	12:01:01.578	$GPGGA,120102,2448.6752,N,08024.8656,W,1,10,1.5,19,M,,M,,*62
06/20/2015	12:01:02.557	$GPGGA,120103,2448.6748,N,08024.8639,W,1,10,1.4,19,M,,M,,*60
06/20/2015	12:01:03.551	$GPGGA,120104,2448.6745,N,08024.8622,W,1,10,1.4,19,M,,M,,*60
06/20/2015	12:01:04.564	$GPGGA,120105,2448.6744,N,08024.8601,W,1,10,1.4,19,M,,M,,*61
06/20/2015	12:01:05.556	$GPGGA,120106,2448.6740,N,08024.8584,W,1,11,1.4,19,M,,M,,*69
06/20/2015	12:01:06.553	$GPGGA,120107,2448.6736,N,08024.8567,W,1,11,1.4,19,M,,M,,*64
06/20/2015	12:01:07.577	$GPGGA,120108,2448.6733,N,08024.8549,W,1,11,1.4,19,M,,M,,*62
06/20/2015	12:01:08.541	$GPGGA,120109,2448.6729,N,08024.8532,W,1,11,1.4,19,M,,M,,*64
06/20/2015	12:01:10.544	$GPGGA,120110,2448.6725,N,08024.8516,W,1,11,1.4,19,M,,M,,*66
06/20/2015	12:01:10.568	$GPGGA,120111,2448.6720,N,08024.8498,W,1,11,1.4,19,M,,M,,*65
06/20/2015	12:01:11.568	$GPGGA,120112,2448.6718,N,08024.8482,W,1,11,1.4,19,M,,M,,*66
06/20/2015	12:01:12.528	$GPGGA,120113,2448.6714,N,08024.8464,W,1,11,1.4,20,M,,M,,*69
06/20/2015	12:01:13.518	$GPGGA,120114,2448.6711,N,08024.8447,W,1,11,1.4,20,M,,M,,*6A
06/20/2015	12:01:14.528	$GPGGA,120115,2448.6707,N,08024.8429,W,1,11,1.4,20,M,,M,,*64
06/20/2015	12:01:15.528	$GPGGA,120116,2448.6703,N,08024.8412,W,1,9,1.5,20,M,,M,,*53
06/20/2015	12:01:16.528	$GPGGA,120117,2448.6698,N,08024.8394,W,1,9,1.7,20,M,,M,,*5A
06/20/2015	12:01:17.640	$GPGGA,120118,2448.6695,N,08024.8376,W,1,11,1.4,20,M,,M,,*6E
06/20/2015	12:01:18.528	$GPGGA,120119,2448.6693,N,08024.8358,W,1,11,1.4,20,M,,M,,*65
06/20/2015	12:01:19.539	$GPGGA,120120,2448.6689,N,08024.8339,W,1,11,1.4,20,M,,M,,*63
06/20/2015	12:01:20.517	$GPGGA,120121,2448.6685,N,08024.8321,W,1,11,1.4,20,M,,M,,*67
06/20/2015	12:01:21.527	$GPGGA,120122,2448.6683,N,08024.8302,W,1,11,1.4,20,M,,M,,*63
06/20/2015	12:01:22.527	$GPGGA,120123,2448.6679,N,08024.8284,W,1,11,1.4,21,M,,M,,*69
06/20/2015	12:01:23.537	$GPGGA,120124,2448.6676,N,08024.8266,W,1,11,1.4,21,M,,M,,*6D
06/20/2015	12:01:24.517	$GPGGA,120125,2448.6674,N,08024.8248,W,1,11,1.4,21,M,,M,,*62
06/20/2015	12:01:25.607	$GPGGA,120126,2448.6671,N,08024.8231,W,1,10,1.5,21,M,,M,,*6A
06/20/2015	12:01:26.508	$GPGGA,120127,2448.6668,N,08024.8215,W,1,10,1.5,21,M,,M,,*65
06/20/2015	12:01:27.498	$GPGGA,120128,2448.6665,N,08024.8197,W,1,9,1.7,21,M,,M,,*54
06/20/2015	12:01:28.598	$GPGGA,120129,2448.6662,N,08024.8179,W,1,9,1.7,21,M,,M,,*52
06/20/2015	12:01:29.628	$GPGGA,120130,2448.6660,N,08024.8162,W,1,10,1.5,21,M,,M,,*68
06/20/2015	12:01:30.498	$GPGGA,120131,2448.6655,N,08024.8144,W,1,10,1.5,21,M,,M,,*6B
06/20/2015	12:01:31.498	$GPGGA,120132,2448.6653,N,08024.8127,W,1,9,1.8,21,M,,M,,*5E
06/20/2015	12:01:32.578	$GPGGA,120133,2448.6650,N,08024.8110,W,1,9,1.7,21,M,,M,,*57
06/20/2015	12:01:33.578	$GPGGA,120134,2448.6647,N,08024.8093,W,1,10,1.7,21,M,,M,,*64
06/20/2015	12:01:34.478	$GPGGA,120135,2448.6644,N,08024.8075,W,1,10,1.7,20,M,,M,,*6F
06/20/2015	12:01:35.608	$GPGGA,120136,2448.6640,N,08024.8058,W,1,9,1.8,20,M,,M,,*50
06/20/2015	12:01:36.488	$GPGGA,120137,2448.6636,N,08024.8040,W,1,9,1.8,20,M,,M,,*59
06/20/2015	12:01:37.478	$GPGGA,120138,2448.6635,N,08024.8022,W,1,10,1.7,20,M,,M,,*66
06/20/2015	12:01:38.567	$GPGGA,120139,2448.6630,N,08024.8007,W,1,10,1.8,20,M,,M,,*6A
06/20/2015	12:01:39.627	$GPGGA,120140,2448.6626,N,08024.7990,W,1,10,1.5,20,M,,M,,*66
06/20/2015	12:01:40.577	$GPGGA,120141,2448.6622,N,08024.7973,W,1,10,1.4,21,M,,M,,*6E
06/20/2015	12:01:41.587	$GPGGA,120142,2448.6620,N,08024.7956,W,1,11,1.4,21,M,,M,,*69
06/20/2015	12:01:42.557	$GPGGA,120143,2448.6617,N,08024.7940,W,1,11,1.4,21,M,,M,,*6B
06/20/2015	12:01:43.587	$GPGGA,120144,2448.6613,N,08024.7923,W,1,10,1.5,21,M,,M,,*6D
06/20/2015	12:01:44.558	$GPGGA,120145,2448.6609,N,08024.7907,W,1,10,1.4,21,M,,M,,*60
06/20/2015	12:01:45.578	$GPGGA,120146,2448.6606,N,08024.7890,W,1,11,1.4,21,M,,M,,*62
06/20/2015	12:01:46.568	$GPGGA,120147,2448.6601,N,08024.7872,W,1,11,1.4,21,M,,M,,*68
06/20/2015	12:01:47.568	$GPGGA,120148,2448.6599,N,08024.7856,W,1,11,1.4,21,M,,M,,*63
06/20/2015	12:01:48.558	$GPGGA,120149,2448.6595,N,08024.7838,W,1,11,1.4,21,M,,M,,*66
06/20/2015	12:01:49.578	$GPGGA,120150,2448.6591,N,08024.7820,W,1,10,1.4,21,M,,M,,*62
06/20/2015	12:01:50.548	$GPGGA,120151,2448.6588,N,08024.7803,W,1,10,1.4,21,M,,M,,*6A
06/20/2015	12:01:51.588	$GPGGA,120152,2448.6585,N,08024.7786,W,1,11,1.4,21,M,,M,,*67
06/20/2015	12:01:52.548	$GPGGA,120153,2448.6581,N,08024.7768,W,1,11,1.4,21,M,,M,,*62
06/20/2015	12:01:53.558	$GPGGA,120154,2448.6577,N,08024.7751,W,1,11,1.4,21,M,,M,,*66
06/20/2015	12:01:54.538	$GPGGA,120155,2448.6574,N,08024.7734,W,1,11,1.4,21,M,,M,,*67
06/20/2015	12:01:55.547	$GPGGA,120156,2448.6570,N,08024.7717,W,1,9,1.5,21,M,,M,,*59
06/20/2015	12:01:56.547	$GPGGA,120157,2448.6566,N,08024.7701,W,1,9,1.4,21,M,,M,,*59
06/20/2015	12:01:57.557	$GPGGA,120158,2448.6563,N,08024.7684,W,1,11,1.4,21,M,,M,,*66
06/20/2015	12:01:58.537	$GPGGA,120159,2448.6559,N,08024.7667,W,1,11,1.4,21,M,,M,,*63
06/20/2015	12:01:59.557	$GPGGA,120200,2448.6554,N,08024.7650,W,1,11,1.4,21,M,,M,,*65
06/20/2015	12:02:00.537	$GPGGA,120201,2448.6552,N,08024.7633,W,1,11,1.4,21,M,,M,,*67
06/20/2015	12:02:01.518	$GPGGA,120202,2448.6548,N,08024.7616,W,1,11,1.4,21,M,,M,,*68
06/20/2015	12:02:02.539	$GPGGA,120203,2448.6543,N,08024.7599,W,1,11,1.4,21,M,,M,,*66
06/20/2015	12:02:03.678	$GPGGA,120204,2448.6541,N,08024.7583,W,1,11,1.4,21,M,,M,,*68
06/20/2015	12:02:05.859	$GPGGA,120206,2448.6532,N,08024.7548,W,1,11,1.4,21,M,,M,,*69
06/20/2015	12:02:06.608	$GPGGA,120207,2448.6530,N,08024.7532,W,1,11,1.4,21,M,,M,,*67
06/20/2015	12:02:07.668	$GPGGA,120208,2448.6524,N,08024.7514,W,1,11,1.4,21,M,,M,,*69
06/20/2015	12:02:08.518	$GPGGA,120209,2448.6521,N,08024.7498,W,1,11,1.4,21,M,,M,,*68
06/20/2015	12:02:09.642	$GPGGA,120210,2448.6518,N,08024.7481,W,1,10,1.5,21,M,,M,,*62
06/20/2015	12:02:10.618	$GPGGA,120211,2448.6514,N,08024.7464,W,1,10,1.5,21,M,,M,,*64
06/20/2015	12:02:11.648	$GPGGA,120212,2448.6510,N,08024.7447,W,1,10,1.5,21,M,,M,,*62
06/20/2015	12:02:12.608	$GPGGA,120213,2448.6506,N,08024.7430,W,1,10,1.4,21,M,,M,,*65
06/20/2015	12:02:13.507	$GPGGA,120214,2448.6502,N,08024.7412,W,1,11,1.4,21,M,,M,,*67
06/20/2015	12:02:14.597	$GPGGA,120215,2448.6498,N,08024.7394,W,1,11,1.4,21,M,,M,,*6D
06/20/2015	12:02:15.627	$GPGGA,120216,2448.6494,N,08024.7377,W,1,11,1.4,20,M,,M,,*6E
06/20/2015	12:02:16.897	$GPGGA,120217,2448.6489,N,08024.7359,W,1,11,1.7,20,M,,M,,*6C
06/20/2015	12:02:17.607	$GPGGA,120218,2448.6487,N,08024.7342,W,1,10,1.7,20,M,,M,,*66
06/20/2015	12:02:18.597	$GPGGA,120219,2448.6481,N,08024.7327,W,1,10,1.4,20,M,,M,,*61
06/20/2015	12:02:19.648	$GPGGA,120220,2448.6477,N,08024.7309,W,1,11,1.7,20,M,,M,,*6C
06/20/2015	12:02:20.588	$GPGGA,120221,2448.6473,N,08024.7293,W,1,11,1.5,20,M,,M,,*69
06/20/2015	12:02:21.618	$GPGGA,120222,2448.6470,N,08024.7276,W,1,10,1.8,20,M,,M,,*6E
06/20/2015	12:02:22.578	$GPGGA,120223,2448.6466,N,08024.7262,W,1,10,1.5,20,M,,M,,*60
06/20/2015	12:02:23.608	$GPGGA,120224,2448.6462,N,08024.7246,W,1,10,1.5,20,M,,M,,*65
06/20/2015	12:02:24.588	$GPGGA,120225,2448.6459,N,08024.7229,W,1,10,1.5,20,M,,M,,*65
06/20/2015	12:02:25.588	$GPGGA,120226,2448.6454,N,08024.7211,W,1,10,1.4,20,M,,M,,*61
06/20/2015	12:02:26.578	$GPGGA,120227,2448.6448,N,08024.7195,W,1,10,1.4,21,M,,M,,*63
06/20/2015	12:02:27.648	$GPGGA,120228,2448.6444,N,08024.7177,W,1,11,1.4,21,M,,M,,*6D
06/20/2015	12:02:28.578	$GPGGA,120229,2448.6441,N,08024.7159,W,1,11,1.4,21,M,,M,,*65
06/20/2015	12:02:29.588	$GPGGA,120230,2448.6438,N,08024.7142,W,1,11,1.4,21,M,,M,,*69
06/20/2015	12:02:30.567	$GPGGA,120231,2448.6434,N,08024.7126,W,1,11,1.5,21,M,,M,,*67
06/20/2015	12:02:31.627	$GPGGA,120232,2448.6431,N,08024.7108,W,1,10,1.4,21,M,,M,,*6D
06/20/2015	12:02:32.567	$GPGGA,120233,2448.6429,N,08024.7091,W,1,10,1.5,21,M,,M,,*65
06/20/2015	12:02:33.567	$GPGGA,120234,2448.6426,N,08024.7072,W,1,9,1.4,21,M,,M,,*59
06/20/2015	12:02:34.557	$GPGGA,120235,2448.6423,N,08024.7056,W,1,9,1.4,21,M,,M,,*5B
06/20/2015	12:02:35.607	$GPGGA,120236,2448.6420,N,08024.7039,W,1,11,1.5,21,M,,M,,*6A
06/20/2015	12:02:36.549	$GPGGA,120237,2448.6416,N,08024.7022,W,1,11,1.5,21,M,,M,,*64
06/20/2015	12:02:37.578	$GPGGA,120238,2448.6413,N,08024.7006,W,1,10,1.7,21,M,,M,,*6B
06/20/2015	12:02:38.578	$GPGGA,120239,2448.6411,N,08024.6988,W,1,10,1.4,21,M,,M,,*65
06/20/2015	12:02:39.608	$GPGGA,120240,2448.6406,N,08024.6971,W,1,11,1.4,21,M,,M,,*6A
06/20/2015	12:02:40.546	$GPGGA,120241,2448.6402,N,08024.6955,W,1,11,1.7,21,M,,M,,*6A
06/20/2015	12:02:41.558	$GPGGA,120242,2448.6400,N,08024.6938,W,1,10,1.4,21,M,,M,,*62
06/20/2015	12:02:43.008	$GPGGA,120243,2448.6396,N,08024.6922,W,1,10,1.4,21,M,,M,,*60
06/20/2015	12:02:43.608	$GPGGA,120244,2448.6393,N,08024.6906,W,1,11,1.7,21,M,,M,,*66
06/20/2015	12:02:44.551	$GPGGA,120245,2448.6389,N,08024.6887,W,1,11,1.5,21,M,,M,,*66
06/20/2015	12:02:45.568	$GPGGA,120246,2448.6386,N,08024.6870,W,1,9,1.4,21,M,,M,,*5A
06/20/2015	12:02:46.548	$GPGGA,120247,2448.6382,N,08024.6853,W,1,9,1.4,21,M,,M,,*5E
06/20/2015	12:02:47.568	$GPGGA,120248,2448.6378,N,08024.6837,W,1,11,1.5,21,M,,M,,*6E
06/20/2015	12:02:48.549	$GPGGA,120249,2448.6375,N,08024.6820,W,1,11,1.5,20,M,,M,,*65
06/20/2015	12:02:49.640	$GPGGA,120250,2448.6371,N,08024.6804,W,1,10,1.5,20,M,,M,,*6E
06/20/2015	12:02:50.541	$GPGGA,120251,2448.6367,N,08024.6789,W,1,10,1.8,21,M,,M,,*6E
06/20/2015	12:02:51.577	$GPGGA,120252,2448.6364,N,08024.6771,W,1,9,1.5,20,M,,M,,*5D
06/20/2015	12:02:52.527	$GPGGA,120253,2448.6360,N,08024.6754,W,1,9,1.5,21,M,,M,,*5E
06/20/2015	12:02:53.547	$GPGGA,120254,2448.6357,N,08024.6739,W,1,10,1.8,21,M,,M,,*63
06/20/2015	12:02:54.508	$GPGGA,120255,2448.6353,N,08024.6723,W,1,10,1.8,21,M,,M,,*6D
06/20/2015	12:02:55.538	$GPGGA,120256,2448.6347,N,08024.6706,W,1,9,1.8,21,M,,M,,*54
06/20/2015	12:02:56.528	$GPGGA,120257,2448.6343,N,08024.6690,W,1,9,1.7,21,M,,M,,*50
06/20/2015	12:02:57.618	$GPGGA,120258,2448.6339,N,08024.6675,W,1,10,1.5,21,M,,M,,*63
06/20/2015	12:02:58.518	$GPGGA,120259,2448.6335,N,08024.6658,W,1,10,1.7,21,M,,M,,*63
06/20/2015	12:02:59.658	$GPGGA,120300,2448.6332,N,08024.6641,W,1,10,1.4,21,M,,M,,*62
06/20/2015	12:03:00.598	$GPGGA,120301,2448.6328,N,08024.6625,W,1,10,1.4,21,M,,M,,*6A
06/20/2015	12:03:01.588	$GPGGA,120302,2448.6324,N,08024.6610,W,1,11,1.4,21,M,,M,,*62
06/20/2015	12:03:02.518	$GPGGA,120303,2448.6321,N,08024.6592,W,1,11,1.4,21,M,,M,,*6F
06/20/2015	12:03:03.628	$GPGGA,120304,2448.6317,N,08024.6575,W,1,11,1.5,22,M,,M,,*66
06/20/2015	12:03:04.518	$GPGGA,120305,2448.6314,N,08024.6559,W,1,11,1.5,22,M,,M,,*6A
06/20/2015	12:03:05.627	$GPGGA,120306,2448.6310,N,08024.6543,W,1,10,1.5,22,M,,M,,*67
06/20/2015	12:03:06.597	$GPGGA,120307,2448.6307,N,08024.6525,W,1,10,1.4,22,M,,M,,*61
06/20/2015	12:03:07.597	$GPGGA,120308,2448.6303,N,08024.6508,W,1,11,1.4,22,M,,M,,*64
06/20/2015	12:03:08.577	$GPGGA,120309,2448.6299,N,08024.6491,W,1,11,1.4,22,M,,M,,*66
06/20/2015	12:03:09.607	$GPGGA,120310,2448.6294,N,08024.6473,W,1,11,1.4,22,M,,M,,*6F
06/20/2015	12:03:10.577	$GPGGA,120311,2448.6292,N,08024.6456,W,1,11,1.4,22,M,,M,,*6F
06/20/2015	12:03:11.608	$GPGGA,120312,2448.6288,N,08024.6439,W,1,11,1.4,22,M,,M,,*6E
06/20/2015	12:03:12.578	$GPGGA,120313,2448.6283,N,08024.6422,W,1,11,1.4,22,M,,M,,*6E
06/20/2015	12:03:13.588	$GPGGA,120314,2448.6281,N,08024.6404,W,1,11,1.4,23,M,,M,,*6E
06/20/2015	12:03:14.588	$GPGGA,120315,2448.6277,N,08024.6387,W,1,11,1.4,23,M,,M,,*6A
06/20/2015	12:03:15.598	$GPGGA,120316,2448.6272,N,08024.6370,W,1,11,1.4,23,M,,M,,*64
06/20/2015	12:03:16.568	$GPGGA,120317,2448.6268,N,08024.6354,W,1,11,1.4,23,M,,M,,*68
06/20/2015	12:03:17.588	$GPGGA,120318,2448.6265,N,08024.6336,W,1,11,1.4,23,M,,M,,*6E
06/20/2015	12:03:18.578	$GPGGA,120319,2448.6261,N,08024.6320,W,1,11,1.4,23,M,,M,,*6C
06/20/2015	12:03:19.588	$GPGGA,120320,2448.6257,N,08024.6303,W,1,11,1.4,23,M,,M,,*62
06/20/2015	12:03:20.558	$GPGGA,120321,2448.6253,N,08024.6286,W,1,11,1.4,23,M,,M,,*6B
06/20/2015	12:03:21.578	$GPGGA,120322,2448.6250,N,08024.6269,W,1,11,1.4,23,M,,M,,*6A
06/20/2015	12:03:22.558	$GPGGA,120323,2448.6246,N,08024.6252,W,1,11,1.4,23,M,,M,,*64
06/20/2015	12:03:23.587	$GPGGA,120324,2448.6242,N,08024.6235,W,1,11,1.4,23,M,,M,,*66
06/20/2015	12:03:24.554	$GPGGA,120325,2448.6239,N,08024.6218,W,1,11,1.4,23,M,,M,,*64
06/20/2015	12:03:25.855	$GPGGA,120326,2448.6235,N,08024.6201,W,1,11,1.4,23,M,,M,,*63
06/20/2015	12:03:26.557	$GPGGA,120327,2448.6232,N,08024.6184,W,1,11,1.4,23,M,,M,,*6B
06/20/2015	12:03:27.587	$GPGGA,120328,2448.6230,N,08024.6168,W,1,11,1.4,23,M,,M,,*64
06/20/2015	12:03:28.548	$GPGGA,120329,2448.6227,N,08024.6151,W,1,11,1.4,23,M,,M,,*69
06/20/2015	12:03:29.578	$GPGGA,120330,2448.6223,N,08024.6134,W,1,10,1.4,23,M,,M,,*67
06/20/2015	12:03:30.541	$GPGGA,120331,2448.6219,N,08024.6117,W,1,10,1.4,22,M,,M,,*6F
06/20/2015	12:03:31.588	$GPGGA,120332,2448.6216,N,08024.6099,W,1,11,1.4,22,M,,M,,*65
06/20/2015	12:03:32.543	$GPGGA,120333,2448.6212,N,08024.6082,W,1,11,1.5,22,M,,M,,*6B
06/20/2015	12:03:33.528	$GPGGA,120334,2448.6208,N,08024.6065,W,1,11,1.4,22,M,,M,,*6F
06/20/2015	12:03:34.538	$GPGGA,120335,2448.6205,N,08024.6047,W,1,11,1.5,22,M,,M,,*62
06/20/2015	12:03:35.548	$GPGGA,120336,2448.6201,N,08024.6030,W,1,10,1.5,22,M,,M,,*64
06/20/2015	12:03:36.518	$GPGGA,120337,2448.6198,N,08024.6012,W,1,10,1.4,22,M,,M,,*67
06/20/2015	12:03:37.528	$GPGGA,120338,2448.6194,N,08024.5995,W,1,10,1.5,22,M,,M,,*60
06/20/2015	12:03:38.545	$GPGGA,120339,2448.6190,N,08024.5977,W,1,10,1.4,22,M,,M,,*68
06/20/2015	12:03:39.558	$GPGGA,120340,2448.6184,N,08024.5959,W,1,11,1.4,22,M,,M,,*6E
06/20/2015	12:03:40.638	$GPGGA,120341,2448.6180,N,08024.5942,W,1,11,1.4,22,M,,M,,*61
06/20/2015	12:03:41.617	$GPGGA,120342,2448.6176,N,08024.5924,W,1,11,1.4,22,M,,M,,*6B
06/20/2015	12:03:42.527	$GPGGA,120343,2448.6172,N,08024.5906,W,1,11,1.4,22,M,,M,,*6E
06/20/2015	12:03:43.638	$GPGGA,120344,2448.6169,N,08024.5889,W,1,11,1.4,23,M,,M,,*64
06/20/2015	12:03:44.517	$GPGGA,120345,2448.6165,N,08024.5872,W,1,11,1.4,23,M,,M,,*6D
06/20/2015	12:03:45.598	$GPGGA,120346,2448.6162,N,08024.5855,W,1,11,1.4,23,M,,M,,*6C
06/20/2015	12:03:46.518	$GPGGA,120347,2448.6159,N,08024.5838,W,1,11,1.4,23,M,,M,,*6E
06/20/2015	12:03:47.628	$GPGGA,120348,2448.6155,N,08024.5820,W,1,11,1.4,23,M,,M,,*64
06/20/2015	12:03:48.518	$GPGGA,120349,2448.6152,N,08024.5803,W,1,11,1.4,23,M,,M,,*63
06/20/2015	12:03:49.518	$GPGGA,120350,2448.6149,N,08024.5786,W,1,11,1.4,23,M,,M,,*63
06/20/2015	12:03:50.588	$GPGGA,120351,2448.6147,N,08024.5768,W,1,11,1.7,23,M,,M,,*6F
06/20/2015	12:03:51.609	$GPGGA,120352,2448.6142,N,08024.5752,W,1,11,1.4,23,M,,M,,*63
06/20/2015	12:03:52.498	$GPGGA,120353,2448.6140,N,08024.5735,W,1,11,1.5,23,M,,M,,*60
06/20/2015	12:03:53.598	$GPGGA,120354,2448.6136,N,08024.5717,W,1,9,1.8,23,M,,M,,*52
06/20/2015	12:03:54.488	$GPGGA,120355,2448.6133,N,08024.5699,W,1,9,1.7,23,M,,M,,*5E
06/20/2015	12:03:55.498	$GPGGA,120356,2448.6129,N,08024.5682,W,1,10,1.7,23,M,,M,,*64
06/20/2015	12:03:56.588	$GPGGA,120357,2448.6126,N,08024.5664,W,1,10,1.7,22,M,,M,,*63
06/20/2015	12:03:57.578	$GPGGA,120358,2448.6122,N,08024.5647,W,1,10,1.7,22,M,,M,,*69
06/20/2015	12:03:58.587	$GPGGA,120359,2448.6119,N,08024.5630,W,1,10,1.4,22,M,,M,,*63
06/20/2015	12:03:59.617	$GPGGA,120400,2448.6116,N,08024.5613,W,1,11,1.4,22,M,,M,,*67
06/20/2015	12:04:00.587	$GPGGA,120401,2448.6113,N,08024.5595,W,1,11,1.4,22,M,,M,,*6E
06/20/2015	12:04:01.577	$GPGGA,120402,2448.6109,N,08024.5578,W,1,11,1.4,22,M,,M,,*65
06/20/2015	12:04:02.577	$GPGGA,120403,2448.6105,N,08024.5563,W,1,11,2.1,22,M,,M,,*64
06/20/2015	12:04:03.577	$GPGGA,120404,2448.6101,N,08024.5550,W,1,10,1.7,22,M,,M,,*63
06/20/2015	12:04:04.578	$GPGGA,120405,2448.6097,N,08024.5534,W,1,10,1.4,22,M,,M,,*6D
06/20/2015	12:04:05.588	$GPGGA,120406,2448.6094,N,08024.5518,W,1,10,1.4,22,M,,M,,*63
06/20/2015	12:04:06.558	$GPGGA,120407,2448.6090,N,08024.5501,W,1,10,1.4,22,M,,M,,*6E
06/20/2015	12:04:07.588	$GPGGA,120408,2448.6087,N,08024.5484,W,1,10,1.4,22,M,,M,,*6B
06/20/2015	12:04:08.561	$GPGGA,120409,2448.6084,N,08024.5468,W,1,10,1.4,22,M,,M,,*6B
06/20/2015	12:04:09.568	$GPGGA,120410,2448.6080,N,08024.5453,W,1,11,1.4,22,M,,M,,*6E
06/20/2015	12:04:10.554	$GPGGA,120411,2448.6077,N,08024.5435,W,1,11,1.4,22,M,,M,,*67
06/20/2015	12:04:11.598	$GPGGA,120412,2448.6075,N,08024.5417,W,1,10,1.7,22,M,,M,,*64
06/20/2015	12:04:12.550	$GPGGA,120413,2448.6071,N,08024.5399,W,1,10,1.7,23,M,,M,,*61
06/20/2015	12:04:13.558	$GPGGA,120414,2448.6069,N,08024.5380,W,1,9,2.1,23,M,,M,,*5A
06/20/2015	12:04:14.551	$GPGGA,120415,2448.6066,N,08024.5364,W,1,9,1.7,22,M,,M,,*5A
06/20/2015	12:04:15.587	$GPGGA,120416,2448.6064,N,08024.5346,W,1,11,1.4,22,M,,M,,*61
06/20/2015	12:04:16.552	$GPGGA,120417,2448.6061,N,08024.5328,W,1,11,1.7,22,M,,M,,*6E
06/20/2015	12:04:17.557	$GPGGA,120418,2448.6059,N,08024.5311,W,1,10,1.7,22,M,,M,,*61
06/20/2015	12:04:18.539	$GPGGA,120419,2448.6057,N,08024.5294,W,1,10,1.4,22,M,,M,,*61
06/20/2015	12:04:19.552	$GPGGA,120420,2448.6053,N,08024.5277,W,1,10,1.7,22,M,,M,,*61
06/20/2015	12:04:20.527	$GPGGA,120421,2448.6049,N,08024.5259,W,1,10,1.4,22,M,,M,,*64
06/20/2015	12:04:21.650	$GPGGA,120422,2448.6047,N,08024.5243,W,1,11,1.4,22,M,,M,,*63
06/20/2015	12:04:22.528	$GPGGA,120423,2448.6043,N,08024.5226,W,1,11,1.4,22,M,,M,,*65
06/20/2015	12:04:23.579	$GPGGA,120424,2448.6041,N,08024.5209,W,1,11,1.4,22,M,,M,,*6D
06/20/2015	12:04:24.538	$GPGGA,120425,2448.6039,N,08024.5192,W,1,11,1.4,22,M,,M,,*62
06/20/2015	12:04:25.528	$GPGGA,120426,2448.6035,N,08024.5175,W,1,11,1.4,22,M,,M,,*64
06/20/2015	12:04:26.542	$GPGGA,120427,2448.6032,N,08024.5158,W,1,11,1.4,22,M,,M,,*6D
06/20/2015	12:04:27.688	$GPGGA,120428,2448.6029,N,08024.5141,W,1,11,1.4,22,M,,M,,*60
06/20/2015	12:04:28.641	$GPGGA,120429,2448.6026,N,08024.5124,W,1,11,1.4,22,M,,M,,*6D
06/20/2015	12:04:29.618	$GPGGA,120430,2448.6022,N,08024.5107,W,1,11,1.4,22,M,,M,,*60
06/20/2015	12:04:30.518	$GPGGA,120431,2448.6019,N,08024.5090,W,1,11,1.4,22,M,,M,,*66
06/20/2015	12:04:31.618	$GPGGA,120432,2448.6017,N,08024.5073,W,1,11,1.4,22,M,,M,,*66
06/20/2015	12:04:32.508	$GPGGA,120433,2448.6012,N,08024.5056,W,1,11,1.4,22,M,,M,,*65
06/20/2015	12:04:33.639	$GPGGA,120434,2448.6010,N,08024.5039,W,1,11,1.4,22,M,,M,,*69
06/20/2015	12:04:35.547	$GPGGA,120436,2448.6003,N,08024.5005,W,1,10,1.4,22,M,,M,,*67
06/20/2015	12:04:36.597	$GPGGA,120437,2448.5999,N,08024.4988,W,1,10,1.4,22,M,,M,,*62
06/20/2015	12:04:37.517	$GPGGA,120438,2448.5994,N,08024.4972,W,1,11,1.4,22,M,,M,,*64
06/20/2015	12:04:38.598	$GPGGA,120439,2448.5992,N,08024.4955,W,1,11,1.4,22,M,,M,,*66
06/20/2015	12:04:39.628	$GPGGA,120440,2448.5988,N,08024.4937,W,1,11,1.4,22,M,,M,,*67
06/20/2015	12:04:40.588	$GPGGA,120441,2448.5982,N,08024.4921,W,1,11,1.4,22,M,,M,,*6B
06/20/2015	12:04:41.618	$GPGGA,120442,2448.5978,N,08024.4904,W,1,11,1.4,22,M,,M,,*6A
06/20/2015	12:04:42.588	$GPGGA,120443,2448.5974,N,08024.4886,W,1,11,1.4,22,M,,M,,*6C
06/20/2015	12:04:43.618	$GPGGA,120444,2448.5970,N,08024.4870,W,1,10,1.7,22,M,,M,,*64
06/20/2015	12:04:45.618	$GPGGA,120446,2448.5963,N,08024.4834,W,1,11,1.4,22,M,,M,,*66
06/20/2015	12:04:46.578	$GPGGA,120447,2448.5959,N,08024.4816,W,1,11,1.4,22,M,,M,,*6E
06/20/2015	12:04:47.608	$GPGGA,120448,2448.5956,N,08024.4797,W,1,11,1.4,22,M,,M,,*68
06/20/2015	12:04:48.588	$GPGGA,120449,2448.5952,N,08024.4780,W,1,11,1.4,22,M,,M,,*6B
06/20/2015	12:04:49.588	$GPGGA,120450,2448.5947,N,08024.4763,W,1,11,1.4,22,M,,M,,*6A
06/20/2015	12:04:50.557	$GPGGA,120451,2448.5943,N,08024.4746,W,1,11,1.7,21,M,,M,,*68
06/20/2015	12:04:51.597	$GPGGA,120452,2448.5941,N,08024.4731,W,1,11,1.4,21,M,,M,,*6A
06/20/2015	12:04:52.567	$GPGGA,120453,2448.5936,N,08024.4714,W,1,11,1.4,21,M,,M,,*6C
06/20/2015	12:04:53.597	$GPGGA,120454,2448.5934,N,08024.4697,W,1,11,1.4,21,M,,M,,*63
06/20/2015	12:04:54.567	$GPGGA,120455,2448.5929,N,08024.4680,W,1,11,1.4,21,M,,M,,*68
06/20/2015	12:04:55.587	$GPGGA,120456,2448.5925,N,08024.4664,W,1,11,1.4,21,M,,M,,*6D
06/20/2015	12:04:56.558	$GPGGA,120457,2448.5923,N,08024.4647,W,1,11,1.4,21,M,,M,,*6B
06/20/2015	12:04:57.558	$GPGGA,120458,2448.5919,N,08024.4631,W,1,11,1.4,21,M,,M,,*6C
06/20/2015	12:04:58.550	$GPGGA,120459,2448.5916,N,08024.4614,W,1,11,1.4,21,M,,M,,*65
06/20/2015	12:04:59.608	$GPGGA,120500,2448.5912,N,08024.4597,W,1,11,1.4,21,M,,M,,*64
06/20/2015	12:05:00.558	$GPGGA,120501,2448.5910,N,08024.4581,W,1,11,1.4,21,M,,M,,*60
06/20/2015	12:05:01.578	$GPGGA,120502,2448.5906,N,08024.4564,W,1,11,1.4,21,M,,M,,*6F
06/20/2015	12:05:02.540	$GPGGA,120503,2448.5902,N,08024.4548,W,1,11,1.4,21,M,,M,,*64
06/20/2015	12:05:03.588	$GPGGA,120504,2448.5899,N,08024.4532,W,1,11,1.4,21,M,,M,,*6D
06/20/2015	12:05:04.551	$GPGGA,120505,2448.5896,N,08024.4515,W,1,11,1.4,21,M,,M,,*66
06/20/2015	12:05:05.588	$GPGGA,120506,2448.5893,N,08024.4499,W,1,11,1.4,21,M,,M,,*65
06/20/2015	12:05:06.528	$GPGGA,120507,2448.5891,N,08024.4482,W,1,11,1.4,21,M,,M,,*6C
06/20/2015	12:05:07.687	$GPGGA,120508,2448.5887,N,08024.4465,W,1,11,1.4,20,M,,M,,*6C
06/20/2015	12:05:08.517	$GPGGA,120509,2448.5882,N,08024.4449,W,1,11,1.4,20,M,,M,,*66
06/20/2015	12:05:09.531	$GPGGA,120510,2448.5880,N,08024.4432,W,1,11,1.4,20,M,,M,,*60
06/20/2015	12:05:10.517	$GPGGA,120511,2448.5876,N,08024.4415,W,1,11,1.4,20,M,,M,,*6D
06/20/2015	12:05:11.537	$GPGGA,120512,2448.5870,N,08024.4399,W,1,11,1.4,20,M,,M,,*6B
06/20/2015	12:05:12.527	$GPGGA,120513,2448.5867,N,08024.4382,W,1,11,1.4,20,M,,M,,*66
06/20/2015	12:05:13.517	$GPGGA,120514,2448.5864,N,08024.4364,W,1,11,1.4,20,M,,M,,*6A
06/20/2015	12:05:14.517	$GPGGA,120515,2448.5859,N,08024.4348,W,1,11,1.4,20,M,,M,,*6B
06/20/2015	12:05:15.677	$GPGGA,120516,2448.5856,N,08024.4330,W,1,10,1.7,20,M,,M,,*6A
06/20/2015	12:05:16.607	$GPGGA,120517,2448.5853,N,08024.4312,W,1,10,1.7,20,M,,M,,*6E
06/20/2015	12:05:17.517	$GPGGA,120518,2448.5848,N,08024.4296,W,1,11,1.4,20,M,,M,,*64
06/20/2015	12:05:18.597	$GPGGA,120519,2448.5844,N,08024.4280,W,1,11,1.7,20,M,,M,,*6D
06/20/2015	12:05:19.517	$GPGGA,120520,2448.5842,N,08024.4263,W,1,11,1.4,20,M,,M,,*6F
06/20/2015	12:05:20.597	$GPGGA,120521,2448.5840,N,08024.4247,W,1,11,1.4,20,M,,M,,*6A
06/20/2015	12:05:21.633	$GPGGA,120522,2448.5834,N,08024.4230,W,1,11,1.4,20,M,,M,,*6A
06/20/2015	12:05:22.497	$GPGGA,120523,2448.5831,N,08024.4214,W,1,11,1.4,20,M,,M,,*68
06/20/2015	12:05:23.677	$GPGGA,120524,2448.5829,N,08024.4197,W,1,11,1.4,20,M,,M,,*6E
06/20/2015	12:05:24.588	$GPGGA,120525,2448.5826,N,08024.4181,W,1,11,1.4,20,M,,M,,*67
06/20/2015	12:05:25.627	$GPGGA,120526,2448.5822,N,08024.4164,W,1,11,1.4,19,M,,M,,*61
06/20/2015	12:05:26.657	$GPGGA,120527,2448.5818,N,08024.4148,W,1,11,1.4,19,M,,M,,*67
06/20/2015	12:05:27.507	$GPGGA,120528,2448.5816,N,08024.4130,W,1,11,1.4,19,M,,M,,*69
06/20/2015	12:05:28.577	$GPGGA,120529,2448.5812,N,08024.4111,W,1,11,1.7,19,M,,M,,*6C
06/20/2015	12:05:29.607	$GPGGA,120530,2448.5808,N,08024.4094,W,1,11,1.7,19,M,,M,,*63
06/20/2015	12:05:30.487	$GPGGA,120531,2448.5805,N,08024.4076,W,1,11,1.7,19,M,,M,,*63
06/20/2015	12:05:31.487	$GPGGA,120532,2448.5802,N,08024.4058,W,1,10,1.7,19,M,,M,,*6A
06/20/2015	12:05:32.642	$GPGGA,120533,2448.5799,N,08024.4040,W,1,10,2.1,19,M,,M,,*6A
06/20/2015	12:05:33.467	$GPGGA,120534,2448.5795,N,08024.4025,W,1,9,2.1,19,M,,M,,*5A
06/20/2015	12:05:34.633	$GPGGA,120535,2448.5790,N,08024.4010,W,1,9,1.7,19,M,,M,,*5D
06/20/2015	12:05:35.657	$GPGGA,120536,2448.5787,N,08024.3994,W,1,10,1.7,18,M,,M,,*63
06/20/2015	12:05:36.631	$GPGGA,120537,2448.5783,N,08024.3977,W,1,10,1.7,18,M,,M,,*6B
06/20/2015	12:05:37.577	$GPGGA,120538,2448.5779,N,08024.3960,W,1,10,1.7,18,M,,M,,*67
06/20/2015	12:05:38.630	$GPGGA,120539,2448.5777,N,08024.3943,W,1,10,1.7,18,M,,M,,*69
06/20/2015	12:05:39.607	$GPGGA,120540,2448.5775,N,08024.3925,W,1,10,1.7,18,M,,M,,*65
06/20/2015	12:05:40.597	$GPGGA,120541,2448.5770,N,08024.3910,W,1,10,1.7,18,M,,M,,*67
06/20/2015	12:05:41.598	$GPGGA,120542,2448.5766,N,08024.3893,W,1,9,1.7,18,M,,M,,*51
06/20/2015	12:05:42.547	$GPGGA,120543,2448.5765,N,08024.3876,W,1,9,1.7,18,M,,M,,*58
06/20/2015	12:05:43.607	$GPGGA,120544,2448.5760,N,08024.3859,W,1,10,1.7,18,M,,M,,*6F
06/20/2015	12:05:44.607	$GPGGA,120545,2448.5757,N,08024.3843,W,1,10,1.7,18,M,,M,,*61
06/20/2015	12:05:45.597	$GPGGA,120546,2448.5754,N,08024.3826,W,1,10,1.7,18,M,,M,,*62
06/20/2015	12:05:46.541	$GPGGA,120547,2448.5750,N,08024.3808,W,1,10,1.7,18,M,,M,,*6B
06/20/2015	12:05:47.630	$GPGGA,120548,2448.5747,N,08024.3792,W,1,10,1.7,18,M,,M,,*6E
06/20/2015	12:05:48.530	$GPGGA,120549,2448.5744,N,08024.3773,W,1,10,1.7,18,M,,M,,*63
06/20/2015	12:05:49.557	$GPGGA,120550,2448.5741,N,08024.3755,W,1,11,1.4,18,M,,M,,*68
06/20/2015	12:05:50.587	$GPGGA,120551,2448.5737,N,08024.3739,W,1,11,1.4,18,M,,M,,*62
06/20/2015	12:05:51.587	$GPGGA,120552,2448.5734,N,08024.3721,W,1,11,1.4,18,M,,M,,*6B
06/20/2015	12:05:52.597	$GPGGA,120553,2448.5732,N,08024.3704,W,1,11,1.4,18,M,,M,,*6B
06/20/2015	12:05:53.529	$GPGGA,120554,2448.5728,N,08024.3687,W,1,11,1.4,18,M,,M,,*6D
06/20/2015	12:05:54.517	$GPGGA,120555,2448.5724,N,08024.3670,W,1,11,1.4,18,M,,M,,*68
06/20/2015	12:05:55.587	$GPGGA,120556,2448.5721,N,08024.3653,W,1,11,1.4,18,M,,M,,*6F
06/20/2015	12:05:56.577	$GPGGA,120557,2448.5717,N,08024.3636,W,1,11,1.7,18,M,,M,,*6B
06/20/2015	12:05:58.017	$GPGGA,120558,2448.5714,N,08024.3618,W,1,10,1.7,18,M,,M,,*6A
06/20/2015	12:05:58.507	$GPGGA,120559,2448.5710,N,08024.3600,W,1,10,1.4,18,M,,M,,*65
06/20/2015	12:05:59.578	$GPGGA,120600,2448.5707,N,08024.3583,W,1,10,1.7,18,M,,M,,*67
06/20/2015	12:06:00.587	$GPGGA,120601,2448.5703,N,08024.3566,W,1,10,1.7,18,M,,M,,*69
06/20/2015	12:06:01.557	$GPGGA,120602,2448.5699,N,08024.3549,W,1,10,1.7,18,M,,M,,*65
06/20/2015	12:06:02.567	$GPGGA,120603,2448.5696,N,08024.3532,W,1,10,1.7,18,M,,M,,*67
06/20/2015	12:06:03.617	$GPGGA,120604,2448.5692,N,08024.3515,W,1,10,1.4,18,M,,M,,*62
06/20/2015	12:06:04.632	$GPGGA,120605,2448.5688,N,08024.3500,W,1,10,1.4,18,M,,M,,*6C
06/20/2015	12:06:05.497	$GPGGA,120606,2448.5685,N,08024.3483,W,1,11,1.4,18,M,,M,,*69
06/20/2015	12:06:06.577	$GPGGA,120607,2448.5681,N,08024.3466,W,1,11,1.7,18,M,,M,,*64
06/20/2015	12:06:07.630	$GPGGA,120608,2448.5676,N,08024.3450,W,1,10,1.4,18,M,,M,,*64
06/20/2015	12:06:08.567	$GPGGA,120609,2448.5674,N,08024.3432,W,1,10,1.7,18,M,,M,,*60
06/20/2015	12:06:09.617	$GPGGA,120610,2448.5670,N,08024.3414,W,1,10,1.7,18,M,,M,,*68
06/20/2015	12:06:10.487	$GPGGA,120611,2448.5665,N,08024.3397,W,1,10,1.7,18,M,,M,,*61
06/20/2015	12:06:11.567	$GPGGA,120612,2448.5663,N,08024.3381,W,1,10,1.4,18,M,,M,,*60
06/20/2015	12:06:12.577	$GPGGA,120613,2448.5659,N,08024.3365,W,1,10,1.4,18,M,,M,,*62
06/20/2015	12:06:13.607	$GPGGA,120614,2448.5656,N,08024.3348,W,1,11,1.4,18,M,,M,,*64
06/20/2015	12:06:14.587	$GPGGA,120615,2448.5652,N,08024.3331,W,1,11,1.4,18,M,,M,,*6F
06/20/2015	12:06:15.617	$GPGGA,120616,2448.5649,N,08024.3313,W,1,11,1.4,18,M,,M,,*66
06/20/2015	12:06:16.578	$GPGGA,120617,2448.5645,N,08024.3295,W,1,11,1.4,18,M,,M,,*64
06/20/2015	12:06:17.577	$GPGGA,120618,2448.5642,N,08024.3277,W,1,11,1.7,18,M,,M,,*63
06/20/2015	12:06:18.577	$GPGGA,120619,2448.5640,N,08024.3259,W,1,11,1.7,18,M,,M,,*6C
06/20/2015	12:06:19.617	$GPGGA,120620,2448.5636,N,08024.3240,W,1,10,1.7,18,M,,M,,*6E
06/20/2015	12:06:20.577	$GPGGA,120621,2448.5634,N,08024.3223,W,1,10,1.7,18,M,,M,,*68
06/20/2015	12:06:21.577	$GPGGA,120622,2448.5631,N,08024.3207,W,1,10,1.4,18,M,,M,,*6B
06/20/2015	12:06:22.557	$GPGGA,120623,2448.5627,N,08024.3188,W,1,10,1.6,18,M,,M,,*6B
06/20/2015	12:06:23.578	$GPGGA,120624,2448.5625,N,08024.3170,W,1,9,1.6,18,M,,M,,*51
06/20/2015	12:06:24.577	$GPGGA,120625,2448.5622,N,08024.3151,W,1,9,1.4,18,M,,M,,*56
06/20/2015	12:06:25.577	$GPGGA,120626,2448.5620,N,08024.3133,W,1,11,1.5,18,M,,M,,*6B
06/20/2015	12:06:26.557	$GPGGA,120627,2448.5616,N,08024.3116,W,1,11,1.4,18,M,,M,,*69
06/20/2015	12:06:27.587	$GPGGA,120628,2448.5613,N,08024.3097,W,1,11,1.4,18,M,,M,,*6B
06/20/2015	12:06:28.557	$GPGGA,120629,2448.5611,N,08024.3079,W,1,11,1.4,18,M,,M,,*68
06/20/2015	12:06:29.547	$GPGGA,120630,2448.5609,N,08024.3062,W,1,11,1.4,19,M,,M,,*62
06/20/2015	12:06:30.567	$GPGGA,120631,2448.5605,N,08024.3044,W,1,11,1.5,19,M,,M,,*6A
06/20/2015	12:06:31.577	$GPGGA,120632,2448.5603,N,08024.3027,W,1,10,1.4,19,M,,M,,*6A
06/20/2015	12:06:32.557	$GPGGA,120633,2448.5602,N,08024.3011,W,1,10,1.4,19,M,,M,,*6F
06/20/2015	12:06:33.547	$GPGGA,120634,2448.5599,N,08024.2994,W,1,11,1.4,19,M,,M,,*6D
06/20/2015	12:06:34.558	$GPGGA,120635,2448.5596,N,08024.2977,W,1,11,1.4,19,M,,M,,*6E
06/20/2015	12:06:35.557	$GPGGA,120636,2448.5594,N,08024.2960,W,1,11,1.4,19,M,,M,,*69
06/20/2015	12:06:36.597	$GPGGA,120637,2448.5592,N,08024.2942,W,1,11,1.4,19,M,,M,,*6E
06/20/2015	12:06:37.567	$GPGGA,120638,2448.5591,N,08024.2924,W,1,11,1.4,19,M,,M,,*62
06/20/2015	12:06:38.547	$GPGGA,120639,2448.5588,N,08024.2905,W,1,11,1.7,19,M,,M,,*6B
06/20/2015	12:06:39.597	$GPGGA,120640,2448.5587,N,08024.2887,W,1,10,1.7,19,M,,M,,*60
06/20/2015	12:06:40.538	$GPGGA,120641,2448.5583,N,08024.2870,W,1,10,1.7,19,M,,M,,*6D
06/20/2015	12:06:41.528	$GPGGA,120642,2448.5580,N,08024.2856,W,1,10,1.7,19,M,,M,,*69
06/20/2015	12:06:42.542	$GPGGA,120643,2448.5578,N,08024.2836,W,1,10,1.8,19,M,,M,,*66
06/20/2015	12:06:43.567	$GPGGA,120644,2448.5576,N,08024.2815,W,1,8,1.7,19,M,,M,,*58
06/20/2015	12:06:44.538	$GPGGA,120645,2448.5574,N,08024.2796,W,1,8,1.7,19,M,,M,,*5F
06/20/2015	12:06:45.547	$GPGGA,120646,2448.5571,N,08024.2778,W,1,10,2.0,19,M,,M,,*64
06/20/2015	12:06:46.617	$GPGGA,120647,2448.5567,N,08024.2759,W,1,10,2.0,19,M,,M,,*61
06/20/2015	12:06:47.539	$GPGGA,120648,2448.5565,N,08024.2739,W,1,11,1.4,19,M,,M,,*6C
06/20/2015	12:06:48.507	$GPGGA,120649,2448.5565,N,08024.2739,W,1,11,1.4,19,M,,M,,*6D
06/20/2015	12:06:49.637	$GPGGA,120650,2448.5563,N,08024.2702,W,1,11,1.4,19,M,,M,,*6B
06/20/2015	12:06:50.527	$GPGGA,120651,2448.5563,N,08024.2702,W,1,11,1.4,19,M,,M,,*6A
06/20/2015	12:06:51.568	$GPGGA,120652,2448.5562,N,08024.2667,W,1,11,1.4,19,M,,M,,*6A
06/20/2015	12:06:52.542	$GPGGA,120653,2448.5562,N,08024.2667,W,1,11,1.4,19,M,,M,,*6B
06/20/2015	12:06:53.517	$GPGGA,120654,2448.5559,N,08024.2631,W,1,10,1.4,19,M,,M,,*66
06/20/2015	12:06:54.507	$GPGGA,120655,2448.5559,N,08024.2631,W,1,10,1.4,19,M,,M,,*67
06/20/2015	12:06:55.597	$GPGGA,120656,2448.5558,N,08024.2594,W,1,11,1.4,19,M,,M,,*68
06/20/2015	12:06:56.517	$GPGGA,120657,2448.5557,N,08024.2577,W,1,11,1.7,19,M,,M,,*68
06/20/2015	12:06:57.507	$GPGGA,120658,2448.5556,N,08024.2559,W,1,10,1.7,19,M,,M,,*6B
06/20/2015	12:06:58.507	$GPGGA,120659,2448.5557,N,08024.2540,W,1,10,1.7,19,M,,M,,*63
06/20/2015	12:06:59.497	$GPGGA,120700,2448.5556,N,08024.2522,W,1,10,1.7,19,M,,M,,*6B
06/20/2015	12:07:00.587	$GPGGA,120701,2448.5555,N,08024.2504,W,1,10,1.7,19,M,,M,,*6D
06/20/2015	12:07:01.487	$GPGGA,120702,2448.5555,N,08024.2486,W,1,10,1.7,19,M,,M,,*65
06/20/2015	12:07:02.597	$GPGGA,120703,2448.5557,N,08024.2468,W,1,10,1.7,19,M,,M,,*66
06/20/2015	12:07:03.497	$GPGGA,120704,2448.5555,N,08024.2449,W,1,10,1.7,19,M,,M,,*60
06/20/2015	12:07:04.577	$GPGGA,120705,2448.5555,N,08024.2431,W,1,10,1.7,19,M,,M,,*6E
06/20/2015	12:07:05.577	$GPGGA,120706,2448.5555,N,08024.2413,W,1,10,1.7,19,M,,M,,*6D
06/20/2015	12:07:06.597	$GPGGA,120707,2448.5557,N,08024.2394,W,1,10,1.7,19,M,,M,,*66
06/20/2015	12:07:07.587	$GPGGA,120708,2448.5555,N,08024.2376,W,1,10,1.7,19,M,,M,,*67
06/20/2015	12:07:08.567	$GPGGA,120709,2448.5555,N,08024.2357,W,1,10,1.7,19,M,,M,,*65
06/20/2015	12:07:09.588	$GPGGA,120710,2448.5557,N,08024.2338,W,1,10,1.7,19,M,,M,,*66
06/20/2015	12:07:10.567	$GPGGA,120711,2448.5558,N,08024.2319,W,1,10,1.7,19,M,,M,,*6B
06/20/2015	12:07:11.597	$GPGGA,120712,2448.5557,N,08024.2302,W,1,10,1.7,19,M,,M,,*6D
06/20/2015	12:07:12.567	$GPGGA,120713,2448.5558,N,08024.2284,W,1,10,1.4,19,M,,M,,*6F
06/20/2015	12:07:13.577	$GPGGA,120714,2448.5558,N,08024.2266,W,1,10,1.4,19,M,,M,,*64
06/20/2015	12:07:14.557	$GPGGA,120715,2448.5560,N,08024.2247,W,1,10,1.7,19,M,,M,,*6E
06/20/2015	12:07:15.607	$GPGGA,120716,2448.5558,N,08024.2227,W,1,10,1.7,19,M,,M,,*60
06/20/2015	12:07:16.557	$GPGGA,120717,2448.5560,N,08024.2208,W,1,10,1.7,19,M,,M,,*67
06/20/2015	12:07:17.567	$GPGGA,120718,2448.5561,N,08024.2189,W,1,10,1.7,19,M,,M,,*63
06/20/2015	12:07:18.567	$GPGGA,120719,2448.5560,N,08024.2169,W,1,10,1.7,19,M,,M,,*6D
06/20/2015	12:07:19.577	$GPGGA,120720,2448.5562,N,08024.2150,W,1,10,1.7,19,M,,M,,*6F
06/20/2015	12:07:20.547	$GPGGA,120721,2448.5564,N,08024.2131,W,1,10,1.7,19,M,,M,,*6F
06/20/2015	12:07:21.547	$GPGGA,120722,2448.5563,N,08024.2112,W,1,9,1.7,19,M,,M,,*52
06/20/2015	12:07:22.547	$GPGGA,120723,2448.5566,N,08024.2093,W,1,9,1.7,19,M,,M,,*5E
06/20/2015	12:07:23.538	$GPGGA,120724,2448.5568,N,08024.2073,W,1,9,1.7,19,M,,M,,*59
06/20/2015	12:07:24.547	$GPGGA,120725,2448.5569,N,08024.2054,W,1,9,1.7,19,M,,M,,*5C
06/20/2015	12:07:25.557	$GPGGA,120726,2448.5571,N,08024.2035,W,1,10,1.7,19,M,,M,,*69
06/20/2015	12:07:26.538	$GPGGA,120727,2448.5573,N,08024.2015,W,1,10,1.7,19,M,,M,,*68
06/20/2015	12:07:27.567	$GPGGA,120728,2448.5573,N,08024.1996,W,1,10,1.7,19,M,,M,,*66
06/20/2015	12:07:28.527	$GPGGA,120729,2448.5576,N,08024.1977,W,1,10,1.7,19,M,,M,,*6D
06/20/2015	12:07:29.587	$GPGGA,120730,2448.5579,N,08024.1958,W,1,10,1.7,19,M,,M,,*67
06/20/2015	12:07:30.517	$GPGGA,120731,2448.5580,N,08024.1940,W,1,10,1.7,19,M,,M,,*69
06/20/2015	12:07:31.537	$GPGGA,120732,2448.5583,N,08024.1922,W,1,11,1.4,19,M,,M,,*6F
06/20/2015	12:07:32.529	$GPGGA,120733,2448.5586,N,08024.1903,W,1,11,1.4,19,M,,M,,*68
06/20/2015	12:07:33.532	$GPGGA,120734,2448.5587,N,08024.1883,W,1,10,1.7,19,M,,M,,*65
06/20/2015	12:07:34.507	$GPGGA,120735,2448.5591,N,08024.1864,W,1,10,1.7,19,M,,M,,*6A
06/20/2015	12:07:35.528	$GPGGA,120736,2448.5594,N,08024.1844,W,1,10,1.7,19,M,,M,,*6E
06/20/2015	12:07:36.517	$GPGGA,120737,2448.5596,N,08024.1825,W,1,10,1.7,18,M,,M,,*6B
06/20/2015	12:07:37.635	$GPGGA,120738,2448.5598,N,08024.1806,W,1,10,1.7,18,M,,M,,*6B
06/20/2015	12:07:38.517	$GPGGA,120739,2448.5602,N,08024.1786,W,1,10,1.7,18,M,,M,,*6D
06/20/2015	12:07:39.537	$GPGGA,120740,2448.5604,N,08024.1767,W,1,10,1.7,18,M,,M,,*6A
06/20/2015	12:07:40.517	$GPGGA,120741,2448.5605,N,08024.1750,W,1,10,1.7,18,M,,M,,*6E
06/20/2015	12:07:41.507	$GPGGA,120742,2448.5609,N,08024.1731,W,1,11,1.4,18,M,,M,,*64
06/20/2015	12:07:42.497	$GPGGA,120743,2448.5613,N,08024.1712,W,1,11,1.5,18,M,,M,,*6E
06/20/2015	12:07:43.607	$GPGGA,120744,2448.5616,N,08024.1694,W,1,9,1.7,18,M,,M,,*58
06/20/2015	12:07:44.598	$GPGGA,120745,2448.5619,N,08024.1675,W,1,9,1.4,18,M,,M,,*5A
06/20/2015	12:07:45.597	$GPGGA,120746,2448.5623,N,08024.1657,W,1,10,1.5,18,M,,M,,*69
06/20/2015	12:07:46.587	$GPGGA,120747,2448.5627,N,08024.1638,W,1,10,1.5,18,M,,M,,*65
06/20/2015	12:07:47.627	$GPGGA,120748,2448.5629,N,08024.1619,W,1,10,1.5,18,M,,M,,*67
06/20/2015	12:07:48.577	$GPGGA,120749,2448.5633,N,08024.1600,W,1,10,1.5,18,M,,M,,*65
06/20/2015	12:07:49.607	$GPGGA,120750,2448.5638,N,08024.1581,W,1,10,1.5,18,M,,M,,*6C
06/20/2015	12:07:50.587	$GPGGA,120751,2448.5641,N,08024.1563,W,1,10,1.5,18,M,,M,,*6F
06/20/2015	12:07:51.607	$GPGGA,120752,2448.5644,N,08024.1543,W,1,10,1.5,18,M,,M,,*6B
06/20/2015	12:07:52.577	$GPGGA,120753,2448.5648,N,08024.1525,W,1,10,1.5,18,M,,M,,*66
06/20/2015	12:07:53.567	$GPGGA,120754,2448.5652,N,08024.1505,W,1,9,1.5,18,M,,M,,*50
06/20/2015	12:07:54.567	$GPGGA,120755,2448.5656,N,08024.1485,W,1,9,1.4,18,M,,M,,*5D
06/20/2015	12:07:55.627	$GPGGA,120756,2448.5659,N,08024.1465,W,1,11,1.4,18,M,,M,,*66
06/20/2015	12:07:56.567	$GPGGA,120757,2448.5663,N,08024.1453,W,1,11,1.6,18,M,,M,,*69
06/20/2015	12:07:57.557	$GPGGA,120758,2448.5669,N,08024.1434,W,1,10,1.5,18,M,,M,,*6F
06/20/2015	12:07:58.567	$GPGGA,120759,2448.5673,N,08024.1413,W,1,10,1.4,18,M,,M,,*61
06/20/2015	12:07:59.597	$GPGGA,120800,2448.5677,N,08024.1391,W,1,10,1.6,18,M,,M,,*69
06/20/2015	12:08:00.557	$GPGGA,120801,2448.5684,N,08024.1369,W,1,10,2.0,18,M,,M,,*66
06/20/2015	12:08:01.578	$GPGGA,120802,2448.5688,N,08024.1349,W,1,10,1.6,18,M,,M,,*6E
06/20/2015	12:08:02.557	$GPGGA,120803,2448.5692,N,08024.1329,W,1,10,1.6,18,M,,M,,*62
06/20/2015	12:08:03.587	$GPGGA,120804,2448.5696,N,08024.1313,W,1,10,1.6,18,M,,M,,*68
06/20/2015	12:08:04.547	$GPGGA,120805,2448.5701,N,08024.1293,W,1,10,1.4,19,M,,M,,*6C
06/20/2015	12:08:05.567	$GPGGA,120806,2448.5706,N,08024.1273,W,1,11,1.4,19,M,,M,,*67
06/20/2015	12:08:06.547	$GPGGA,120807,2448.5712,N,08024.1254,W,1,11,1.4,19,M,,M,,*66
06/20/2015	12:08:07.587	$GPGGA,120808,2448.5716,N,08024.1236,W,1,10,1.4,19,M,,M,,*68
06/20/2015	12:08:08.547	$GPGGA,120809,2448.5721,N,08024.1218,W,1,10,1.4,19,M,,M,,*61
06/20/2015	12:08:09.557	$GPGGA,120810,2448.5727,N,08024.1200,W,1,10,1.4,19,M,,M,,*66
06/20/2015	12:08:10.541	$GPGGA,120811,2448.5732,N,08024.1178,W,1,10,1.4,19,M,,M,,*6F
06/20/2015	12:08:11.541	$GPGGA,120812,2448.5735,N,08024.1159,W,1,9,2.0,19,M,,M,,*57
06/20/2015	12:08:12.540	$GPGGA,120813,2448.5742,N,08024.1138,W,1,9,1.4,19,M,,M,,*56
06/20/2015	12:08:14.544	$GPGGA,120814,2448.5748,N,08024.1118,W,1,9,2.0,19,M,,M,,*5E
06/20/2015	12:08:14.557	$GPGGA,120815,2448.5753,N,08024.1097,W,1,9,2.0,19,M,,M,,*53
06/20/2015	12:08:15.557	$GPGGA,120816,2448.5760,N,08024.1077,W,1,8,2.1,19,M,,M,,*5E
06/20/2015	12:08:16.533	$GPGGA,120817,2448.5766,N,08024.1059,W,1,8,2.1,19,M,,M,,*55
06/20/2015	12:08:17.517	$GPGGA,120818,2448.5771,N,08024.1038,W,1,10,1.6,19,M,,M,,*66
06/20/2015	12:08:18.517	$GPGGA,120819,2448.5777,N,08024.1017,W,1,10,2.0,19,M,,M,,*69
06/20/2015	12:08:19.568	$GPGGA,120820,2448.5782,N,08024.0997,W,1,9,2.0,19,M,,M,,*51
06/20/2015	12:08:20.527	$GPGGA,120821,2448.5789,N,08024.0982,W,1,9,1.6,19,M,,M,,*5A
06/20/2015	12:08:21.632	$GPGGA,120822,2448.5796,N,08024.0963,W,1,11,1.4,19,M,,M,,*63
06/20/2015	12:08:22.534	$GPGGA,120823,2448.5800,N,08024.0945,W,1,11,1.4,19,M,,M,,*66
06/20/2015	12:08:23.517	$GPGGA,120824,2448.5808,N,08024.0925,W,1,11,1.4,19,M,,M,,*6F
06/20/2015	12:08:24.507	$GPGGA,120825,2448.5815,N,08024.0907,W,1,11,1.4,19,M,,M,,*62
06/20/2015	12:08:25.527	$GPGGA,120826,2448.5822,N,08024.0887,W,1,10,1.5,19,M,,M,,*6C
06/20/2015	12:08:26.597	$GPGGA,120827,2448.5829,N,08024.0867,W,1,10,1.4,20,M,,M,,*63
06/20/2015	12:08:27.617	$GPGGA,120828,2448.5836,N,08024.0848,W,1,11,1.4,20,M,,M,,*6E
06/20/2015	12:08:28.607	$GPGGA,120829,2448.5844,N,08024.0828,W,1,11,1.4,20,M,,M,,*6C
06/20/2015	12:08:29.607	$GPGGA,120830,2448.5851,N,08024.0808,W,1,11,1.4,20,M,,M,,*62
06/20/2015	12:08:30.507	$GPGGA,120831,2448.5860,N,08024.0789,W,1,11,1.4,20,M,,M,,*67
06/20/2015	12:08:31.632	$GPGGA,120832,2448.5869,N,08024.0770,W,1,11,1.4,20,M,,M,,*6B
06/20/2015	12:08:32.507	$GPGGA,120833,2448.5876,N,08024.0751,W,1,11,1.4,20,M,,M,,*67
06/20/2015	12:08:33.597	$GPGGA,120834,2448.5883,N,08024.0732,W,1,10,1.4,20,M,,M,,*6E
06/20/2015	12:08:34.597	$GPGGA,120835,2448.5893,N,08024.0713,W,1,10,1.4,20,M,,M,,*6D
06/20/2015	12:08:35.607	$GPGGA,120836,2448.5900,N,08024.0694,W,1,11,1.4,20,M,,M,,*6A
06/20/2015	12:08:36.588	$GPGGA,120837,2448.5908,N,08024.0676,W,1,11,1.4,20,M,,M,,*6F
06/20/2015	12:08:37.587	$GPGGA,120838,2448.5916,N,08024.0657,W,1,11,1.4,20,M,,M,,*6C
06/20/2015	12:08:38.587	$GPGGA,120839,2448.5925,N,08024.0637,W,1,11,1.4,20,M,,M,,*6B
06/20/2015	12:08:39.588	$GPGGA,120840,2448.5933,N,08024.0618,W,1,11,1.4,20,M,,M,,*6F
06/20/2015	12:08:40.577	$GPGGA,120841,2448.5941,N,08024.0598,W,1,11,1.4,20,M,,M,,*60
06/20/2015	12:08:41.577	$GPGGA,120842,2448.5949,N,08024.0579,W,1,11,1.4,20,M,,M,,*64
06/20/2015	12:08:42.577	$GPGGA,120843,2448.5958,N,08024.0560,W,1,11,1.4,21,M,,M,,*6C
06/20/2015	12:08:43.607	$GPGGA,120844,2448.5966,N,08024.0541,W,1,11,1.4,21,M,,M,,*65
06/20/2015	12:08:44.577	$GPGGA,120845,2448.5974,N,08024.0523,W,1,11,1.4,21,M,,M,,*63
06/20/2015	12:08:45.557	$GPGGA,120846,2448.5984,N,08024.0503,W,1,11,1.4,21,M,,M,,*6D
06/20/2015	12:08:46.567	$GPGGA,120847,2448.5991,N,08024.0483,W,1,11,1.4,21,M,,M,,*61
06/20/2015	12:08:47.577	$GPGGA,120848,2448.5999,N,08024.0464,W,1,11,1.4,21,M,,M,,*6F
06/20/2015	12:08:48.557	$GPGGA,120849,2448.6009,N,08024.0446,W,1,11,1.6,21,M,,M,,*6F
06/20/2015	12:08:49.577	$GPGGA,120850,2448.6016,N,08024.0425,W,1,11,1.4,21,M,,M,,*6E
06/20/2015	12:08:50.557	$GPGGA,120851,2448.6024,N,08024.0405,W,1,11,1.4,21,M,,M,,*6C
06/20/2015	12:08:51.587	$GPGGA,120852,2448.6035,N,08024.0386,W,1,11,1.4,21,M,,M,,*63
06/20/2015	12:08:52.557	$GPGGA,120853,2448.6042,N,08024.0366,W,1,11,1.4,21,M,,M,,*6C
06/20/2015	12:08:53.567	$GPGGA,120854,2448.6050,N,08024.0348,W,1,9,1.7,21,M,,M,,*5E
06/20/2015	12:08:54.548	$GPGGA,120855,2448.6060,N,08024.0331,W,1,9,1.5,21,M,,M,,*50
06/20/2015	12:08:55.587	$GPGGA,120856,2448.6068,N,08024.0313,W,1,9,1.7,21,M,,M,,*59
06/20/2015	12:08:56.539	$GPGGA,120857,2448.6077,N,08024.0292,W,1,9,1.7,21,M,,M,,*5E
06/20/2015	12:08:57.577	$GPGGA,120858,2448.6086,N,08024.0272,W,1,11,1.4,21,M,,M,,*6B
06/20/2015	12:08:58.547	$GPGGA,120859,2448.6095,N,08024.0253,W,1,11,1.4,21,M,,M,,*6B
06/20/2015	12:08:59.587	$GPGGA,120900,2448.6104,N,08024.0235,W,1,10,1.4,21,M,,M,,*6E
06/20/2015	12:09:00.539	$GPGGA,120901,2448.6113,N,08024.0219,W,1,10,1.4,21,M,,M,,*67
06/20/2015	12:09:01.547	$GPGGA,120902,2448.6122,N,08024.0199,W,1,9,1.7,21,M,,M,,*56
06/20/2015	12:09:02.529	$GPGGA,120903,2448.6132,N,08024.0180,W,1,9,1.5,21,M,,M,,*5C
06/20/2015	12:09:03.546	$GPGGA,120904,2448.6142,N,08024.0160,W,1,9,1.7,21,M,,M,,*50
06/20/2015	12:09:04.540	$GPGGA,120905,2448.6151,N,08024.0140,W,1,9,1.5,21,M,,M,,*53
06/20/2015	12:09:05.527	$GPGGA,120906,2448.6161,N,08024.0121,W,1,11,1.4,21,M,,M,,*6C
06/20/2015	12:09:06.527	$GPGGA,120907,2448.6171,N,08024.0104,W,1,11,1.4,21,M,,M,,*6B
06/20/2015	12:09:07.557	$GPGGA,120908,2448.6180,N,08024.0087,W,1,10,1.5,21,M,,M,,*60
06/20/2015	12:09:08.530	$GPGGA,120909,2448.6190,N,08024.0068,W,1,10,1.7,21,M,,M,,*63
06/20/2015	12:09:09.507	$GPGGA,120910,2448.6203,N,08024.0049,W,1,9,1.5,21,M,,M,,*5B
06/20/2015	12:09:10.517	$GPGGA,120911,2448.6212,N,08024.0031,W,1,9,1.5,21,M,,M,,*55
06/20/2015	12:09:11.548	$GPGGA,120912,2448.6223,N,08024.0014,W,1,9,1.5,21,M,,M,,*53
06/20/2015	12:09:12.497	$GPGGA,120913,2448.6236,N,08023.9997,W,1,9,1.5,21,M,,M,,*5A
06/20/2015	12:09:13.533	$GPGGA,120914,2448.6245,N,08023.9980,W,1,9,1.5,21,M,,M,,*5F
06/20/2015	12:09:14.497	$GPGGA,120915,2448.6256,N,08023.9961,W,1,9,1.5,20,M,,M,,*52
06/20/2015	12:09:15.518	$GPGGA,120916,2448.6269,N,08023.9945,W,1,11,1.4,21,M,,M,,*62
06/20/2015	12:09:16.497	$GPGGA,120917,2448.6279,N,08023.9930,W,1,11,1.4,21,M,,M,,*60
06/20/2015	12:09:17.607	$GPGGA,120918,2448.6288,N,08023.9913,W,1,10,1.5,21,M,,M,,*60
06/20/2015	12:09:18.507	$GPGGA,120919,2448.6299,N,08023.9897,W,1,10,1.4,21,M,,M,,*6D
06/20/2015	12:09:19.617	$GPGGA,120920,2448.6312,N,08023.9881,W,1,11,1.4,21,M,,M,,*63
06/20/2015	12:09:20.597	$GPGGA,120921,2448.6321,N,08023.9863,W,1,11,1.4,21,M,,M,,*6E
06/20/2015	12:09:21.617	$GPGGA,120922,2448.6333,N,08023.9846,W,1,11,1.4,21,M,,M,,*69
06/20/2015	12:09:22.587	$GPGGA,120923,2448.6345,N,08023.9830,W,1,11,1.4,21,M,,M,,*68
06/20/2015	12:09:23.617	$GPGGA,120924,2448.6356,N,08023.9813,W,1,11,1.4,21,M,,M,,*6C
06/20/2015	12:09:24.587	$GPGGA,120925,2448.6367,N,08023.9796,W,1,11,1.4,21,M,,M,,*6D
06/20/2015	12:09:25.577	$GPGGA,120926,2448.6378,N,08023.9779,W,1,11,1.4,21,M,,M,,*61
06/20/2015	12:09:26.587	$GPGGA,120927,2448.6389,N,08023.9763,W,1,11,1.4,21,M,,M,,*65
06/20/2015	12:09:27.631	$GPGGA,120928,2448.6400,N,08023.9746,W,1,11,1.4,21,M,,M,,*6B
06/20/2015	12:09:28.567	$GPGGA,120929,2448.6411,N,08023.9730,W,1,11,1.4,21,M,,M,,*6B
06/20/2015	12:09:29.588	$GPGGA,120930,2448.6424,N,08023.9713,W,1,11,1.4,21,M,,M,,*64
06/20/2015	12:09:30.577	$GPGGA,120931,2448.6436,N,08023.9696,W,1,11,1.4,21,M,,M,,*6A
06/20/2015	12:09:31.629	$GPGGA,120932,2448.6447,N,08023.9679,W,1,11,1.4,21,M,,M,,*6E
06/20/2015	12:09:32.567	$GPGGA,120933,2448.6458,N,08023.9663,W,1,11,1.4,21,M,,M,,*6A
06/20/2015	12:09:33.597	$GPGGA,120934,2448.6471,N,08023.9647,W,1,11,1.4,21,M,,M,,*60
06/20/2015	12:09:34.557	$GPGGA,120935,2448.6482,N,08023.9630,W,1,11,1.4,21,M,,M,,*6D
06/20/2015	12:09:35.607	$GPGGA,120936,2448.6494,N,08023.9613,W,1,11,1.4,21,M,,M,,*68
06/20/2015	12:09:36.557	$GPGGA,120937,2448.6505,N,08023.9597,W,1,11,1.4,21,M,,M,,*6F
06/20/2015	12:09:37.577	$GPGGA,120938,2448.6519,N,08023.9580,W,1,11,1.4,21,M,,M,,*6B
06/20/2015	12:09:38.557	$GPGGA,120939,2448.6530,N,08023.9563,W,1,11,1.4,20,M,,M,,*6D
06/20/2015	12:09:39.588	$GPGGA,120940,2448.6541,N,08023.9547,W,1,11,1.4,20,M,,M,,*63
06/20/2015	12:09:40.543	$GPGGA,120941,2448.6555,N,08023.9531,W,1,11,1.4,20,M,,M,,*66
06/20/2015	12:09:41.557	$GPGGA,120942,2448.6566,N,08023.9515,W,1,11,1.4,20,M,,M,,*63
06/20/2015	12:09:42.544	$GPGGA,120943,2448.6579,N,08023.9498,W,1,11,1.4,20,M,,M,,*68
06/20/2015	12:09:43.587	$GPGGA,120944,2448.6591,N,08023.9482,W,1,11,1.4,20,M,,M,,*62
06/20/2015	12:09:44.544	$GPGGA,120945,2448.6604,N,08023.9466,W,1,11,1.4,20,M,,M,,*66
06/20/2015	12:09:45.548	$GPGGA,120946,2448.6616,N,08023.9450,W,1,11,1.4,20,M,,M,,*63
06/20/2015	12:09:46.542	$GPGGA,120947,2448.6628,N,08023.9434,W,1,11,1.4,20,M,,M,,*6D
06/20/2015	12:09:47.587	$GPGGA,120948,2448.6642,N,08023.9419,W,1,11,1.4,20,M,,M,,*61
06/20/2015	12:09:48.548	$GPGGA,120949,2448.6655,N,08023.9403,W,1,11,1.4,20,M,,M,,*6D
06/20/2015	12:09:49.529	$GPGGA,120950,2448.6667,N,08023.9388,W,1,11,1.4,20,M,,M,,*60
06/20/2015	12:09:50.556	$GPGGA,120951,2448.6682,N,08023.9372,W,1,11,1.4,20,M,,M,,*6F
06/20/2015	12:09:51.587	$GPGGA,120952,2448.6695,N,08023.9357,W,1,11,1.4,20,M,,M,,*6D
06/20/2015	12:09:52.528	$GPGGA,120953,2448.6707,N,08023.9342,W,1,11,1.4,20,M,,M,,*62
06/20/2015	12:09:53.539	$GPGGA,120954,2448.6722,N,08023.9327,W,1,11,1.4,20,M,,M,,*61
06/20/2015	12:09:54.517	$GPGGA,120955,2448.6736,N,08023.9312,W,1,11,1.4,20,M,,M,,*63
06/20/2015	12:09:55.557	$GPGGA,120956,2448.6749,N,08023.9297,W,1,11,1.4,20,M,,M,,*64
06/20/2015	12:09:56.507	$GPGGA,120957,2448.6763,N,08023.9282,W,1,11,1.4,20,M,,M,,*69
06/20/2015	12:09:57.627	$GPGGA,120958,2448.6776,N,08023.9267,W,1,11,1.4,19,M,,M,,*63
06/20/2015	12:09:58.617	$GPGGA,120959,2448.6790,N,08023.9252,W,1,11,1.4,19,M,,M,,*6C
06/20/2015	12:09:59.687	$GPGGA,121000,2448.6804,N,08023.9237,W,1,11,1.4,19,M,,M,,*69
06/20/2015	12:10:00.529	$GPGGA,121001,2448.6818,N,08023.9223,W,1,11,1.4,19,M,,M,,*60
06/20/2015	12:10:01.517	$GPGGA,121002,2448.6832,N,08023.9208,W,1,11,1.4,19,M,,M,,*62
06/20/2015	12:10:02.607	$GPGGA,121003,2448.6846,N,08023.9192,W,1,11,1.4,19,M,,M,,*60
06/20/2015	12:10:03.617	$GPGGA,121004,2448.6859,N,08023.9178,W,1,11,1.4,19,M,,M,,*6D
06/20/2015	12:10:04.508	$GPGGA,121005,2448.6873,N,08023.9164,W,1,11,1.4,19,M,,M,,*69
06/20/2015	12:10:05.617	$GPGGA,121006,2448.6888,N,08023.9149,W,1,11,1.4,19,M,,M,,*61
06/20/2015	12:10:06.507	$GPGGA,121007,2448.6902,N,08023.9134,W,1,11,1.4,19,M,,M,,*69
06/20/2015	12:10:07.628	$GPGGA,121008,2448.6917,N,08023.9120,W,1,11,1.4,19,M,,M,,*67
06/20/2015	12:10:08.597	$GPGGA,121009,2448.6931,N,08023.9105,W,1,11,1.4,19,M,,M,,*65
06/20/2015	12:10:09.607	$GPGGA,121010,2448.6945,N,08023.9090,W,1,11,1.4,19,M,,M,,*63
06/20/2015	12:10:10.598	$GPGGA,121011,2448.6959,N,08023.9076,W,1,11,1.4,18,M,,M,,*66
06/20/2015	12:10:11.631	$GPGGA,121012,2448.6973,N,08023.9062,W,1,11,1.4,18,M,,M,,*68
06/20/2015	12:10:12.587	$GPGGA,121013,2448.6988,N,08023.9047,W,1,11,1.4,18,M,,M,,*6A
06/20/2015	12:10:13.597	$GPGGA,121014,2448.7002,N,08023.9033,W,1,11,1.4,18,M,,M,,*64
06/20/2015	12:10:14.587	$GPGGA,121015,2448.7017,N,08023.9019,W,1,11,1.4,18,M,,M,,*69
06/20/2015	12:10:15.657	$GPGGA,121016,2448.7029,N,08023.9004,W,1,11,1.4,18,M,,M,,*6B
06/20/2015	12:10:16.627	$GPGGA,121017,2448.7046,N,08023.8990,W,1,11,1.4,18,M,,M,,*66
06/20/2015	12:10:17.587	$GPGGA,121018,2448.7060,N,08023.8976,W,1,11,1.4,18,M,,M,,*65
06/20/2015	12:10:18.577	$GPGGA,121019,2448.7074,N,08023.8961,W,1,11,1.4,18,M,,M,,*67
06/20/2015	12:10:19.607	$GPGGA,121020,2448.7089,N,08023.8947,W,1,11,1.4,18,M,,M,,*6B
06/20/2015	12:10:20.617	$GPGGA,121021,2448.7104,N,08023.8934,W,1,11,1.4,18,M,,M,,*6A
06/20/2015	12:10:21.598	$GPGGA,121022,2448.7118,N,08023.8919,W,1,11,1.4,18,M,,M,,*6B
06/20/2015	12:10:22.567	$GPGGA,121023,2448.7132,N,08023.8905,W,1,11,1.4,18,M,,M,,*6F
06/20/2015	12:10:23.587	$GPGGA,121024,2448.7147,N,08023.8890,W,1,10,1.4,18,M,,M,,*66
06/20/2015	12:10:24.567	$GPGGA,121025,2448.7162,N,08023.8877,W,1,10,1.4,18,M,,M,,*69
06/20/2015	12:10:25.587	$GPGGA,121026,2448.7177,N,08023.8864,W,1,11,1.5,18,M,,M,,*6C
06/20/2015	12:10:26.557	$GPGGA,121027,2448.7191,N,08023.8851,W,1,11,1.4,18,M,,M,,*62
06/20/2015	12:10:27.567	$GPGGA,121028,2448.7206,N,08023.8837,W,1,11,1.4,18,M,,M,,*60
06/20/2015	12:10:28.537	$GPGGA,121029,2448.7222,N,08023.8824,W,1,11,1.4,18,M,,M,,*65
06/20/2015	12:10:29.587	$GPGGA,121030,2448.7238,N,08023.8810,W,1,10,1.4,18,M,,M,,*60
06/20/2015	12:10:30.537	$GPGGA,121031,2448.7252,N,08023.8797,W,1,10,1.4,18,M,,M,,*6D
06/20/2015	12:10:31.567	$GPGGA,121032,2448.7267,N,08023.8785,W,1,10,1.4,18,M,,M,,*6B
06/20/2015	12:10:32.547	$GPGGA,121033,2448.7284,N,08023.8774,W,1,10,1.4,18,M,,M,,*69
06/20/2015	12:10:33.567	$GPGGA,121034,2448.7299,N,08023.8762,W,1,10,1.4,17,M,,M,,*6A
06/20/2015	12:10:34.547	$GPGGA,121035,2448.7314,N,08023.8749,W,1,10,1.4,17,M,,M,,*66
06/20/2015	12:10:35.657	$GPGGA,121036,2448.7329,N,08023.8738,W,1,11,1.4,17,M,,M,,*6C
06/20/2015	12:10:36.547	$GPGGA,121037,2448.7346,N,08023.8727,W,1,11,1.4,17,M,,M,,*6A
06/20/2015	12:10:37.557	$GPGGA,121038,2448.7361,N,08023.8714,W,1,11,1.4,17,M,,M,,*60
06/20/2015	12:10:38.527	$GPGGA,121039,2448.7378,N,08023.8702,W,1,11,1.4,17,M,,M,,*6E
06/20/2015	12:10:39.658	$GPGGA,121040,2448.7393,N,08023.8692,W,1,11,1.4,17,M,,M,,*6D
06/20/2015	12:10:40.638	$GPGGA,121041,2448.7410,N,08023.8680,W,1,11,1.4,17,M,,M,,*63
06/20/2015	12:10:41.639	$GPGGA,121042,2448.7426,N,08023.8669,W,1,11,1.4,17,M,,M,,*62
06/20/2015	12:10:42.537	$GPGGA,121043,2448.7441,N,08023.8658,W,1,11,1.4,17,M,,M,,*60
06/20/2015	12:10:43.587	$GPGGA,121044,2448.7458,N,08023.8648,W,1,11,1.4,17,M,,M,,*6E
06/20/2015	12:10:44.607	$GPGGA,121045,2448.7473,N,08023.8636,W,1,11,1.4,17,M,,M,,*6F
06/20/2015	12:10:45.517	$GPGGA,121046,2448.7491,N,08023.8625,W,1,11,1.4,17,M,,M,,*62
06/20/2015	12:10:46.537	$GPGGA,121047,2448.7506,N,08023.8616,W,1,11,1.4,17,M,,M,,*6C
06/20/2015	12:10:47.657	$GPGGA,121048,2448.7523,N,08023.8605,W,1,11,1.4,17,M,,M,,*66
06/20/2015	12:10:48.537	$GPGGA,121049,2448.7538,N,08023.8593,W,1,11,1.4,17,M,,M,,*61
06/20/2015	12:10:49.617	$GPGGA,121050,2448.7555,N,08023.8583,W,1,10,1.4,17,M,,M,,*62
06/20/2015	12:10:50.507	$GPGGA,121051,2448.7555,N,08023.8583,W,1,10,1.4,17,M,,M,,*63
06/20/2015	12:10:51.647	$GPGGA,121052,2448.7589,N,08023.8563,W,1,11,1.4,17,M,,M,,*6E
06/20/2015	12:10:52.597	$GPGGA,121053,2448.7605,N,08023.8551,W,1,11,1.4,17,M,,M,,*69
06/20/2015	12:10:53.597	$GPGGA,121054,2448.7621,N,08023.8541,W,1,10,1.4,17,M,,M,,*68
06/20/2015	12:10:54.597	$GPGGA,121055,2448.7638,N,08023.8531,W,1,10,1.4,17,M,,M,,*66
06/20/2015	12:10:55.597	$GPGGA,121056,2448.7656,N,08023.8521,W,1,11,1.4,17,M,,M,,*6D
06/20/2015	12:10:56.598	$GPGGA,121057,2448.7672,N,08023.8510,W,1,11,1.5,17,M,,M,,*69
06/20/2015	12:10:57.597	$GPGGA,121058,2448.7688,N,08023.8500,W,1,9,1.4,17,M,,M,,*5A
06/20/2015	12:10:58.577	$GPGGA,121059,2448.7704,N,08023.8490,W,1,9,1.4,17,M,,M,,*56
06/20/2015	12:10:59.607	$GPGGA,121100,2448.7719,N,08023.8478,W,1,10,1.4,17,M,,M,,*69
06/20/2015	12:11:01.617	$GPGGA,121102,2448.7751,N,08023.8456,W,1,11,1.4,17,M,,M,,*6A
06/20/2015	12:11:02.567	$GPGGA,121103,2448.7766,N,08023.8445,W,1,11,1.4,17,M,,M,,*6D
06/20/2015	12:11:03.607	$GPGGA,121104,2448.7784,N,08023.8435,W,1,11,1.4,17,M,,M,,*61
06/20/2015	12:11:04.567	$GPGGA,121105,2448.7800,N,08023.8425,W,1,11,1.4,17,M,,M,,*62
06/20/2015	12:11:05.587	$GPGGA,121106,2448.7816,N,08023.8415,W,1,11,1.4,17,M,,M,,*65
06/20/2015	12:11:06.572	$GPGGA,121107,2448.7834,N,08023.8405,W,1,11,1.4,17,M,,M,,*65
06/20/2015	12:11:07.577	$GPGGA,121108,2448.7851,N,08023.8394,W,1,11,1.4,17,M,,M,,*66
06/20/2015	12:11:08.567	$GPGGA,121109,2448.7867,N,08023.8385,W,1,11,1.4,17,M,,M,,*62
06/20/2015	12:11:09.547	$GPGGA,121110,2448.7885,N,08023.8375,W,1,11,1.4,17,M,,M,,*69
06/20/2015	12:11:10.557	$GPGGA,121111,2448.7902,N,08023.8364,W,1,11,1.4,17,M,,M,,*66
06/20/2015	12:11:11.587	$GPGGA,121112,2448.7919,N,08023.8355,W,1,10,1.5,17,M,,M,,*6D
06/20/2015	12:11:12.547	$GPGGA,121113,2448.7935,N,08023.8345,W,1,10,1.5,17,M,,M,,*63
06/20/2015	12:11:13.547	$GPGGA,121114,2448.7953,N,08023.8333,W,1,10,1.5,17,M,,M,,*65
06/20/2015	12:11:14.547	$GPGGA,121115,2448.7971,N,08023.8324,W,1,10,1.4,17,M,,M,,*63
06/20/2015	12:11:15.586	$GPGGA,121116,2448.7988,N,08023.8315,W,1,10,1.5,17,M,,M,,*65
06/20/2015	12:11:16.536	$GPGGA,121117,2448.8006,N,08023.8305,W,1,10,1.4,17,M,,M,,*64
06/20/2015	12:11:17.566	$GPGGA,121118,2448.8022,N,08023.8296,W,1,11,1.4,17,M,,M,,*67
06/20/2015	12:11:18.527	$GPGGA,121119,2448.8040,N,08023.8288,W,1,11,1.4,17,M,,M,,*6D
06/20/2015	12:11:19.540	$GPGGA,121120,2448.8058,N,08023.8280,W,1,11,1.4,17,M,,M,,*66
06/20/2015	12:11:20.526	$GPGGA,121121,2448.8075,N,08023.8271,W,1,11,1.4,17,M,,M,,*66
06/20/2015	12:11:21.536	$GPGGA,121122,2448.8093,N,08023.8263,W,1,11,1.4,17,M,,M,,*6E
06/20/2015	12:11:22.517	$GPGGA,121123,2448.8111,N,08023.8255,W,1,11,1.4,17,M,,M,,*61
06/20/2015	12:11:23.546	$GPGGA,121124,2448.8127,N,08023.8246,W,1,11,1.4,17,M,,M,,*61
06/20/2015	12:11:24.531	$GPGGA,121125,2448.8145,N,08023.8237,W,1,11,1.4,17,M,,M,,*62
06/20/2015	12:11:25.557	$GPGGA,121126,2448.8163,N,08023.8230,W,1,11,1.4,17,M,,M,,*62
06/20/2015	12:11:26.538	$GPGGA,121127,2448.8180,N,08023.8221,W,1,11,1.4,17,M,,M,,*6E
06/20/2015	12:11:27.647	$GPGGA,121128,2448.8196,N,08023.8212,W,1,11,1.4,17,M,,M,,*66
06/20/2015	12:11:28.627	$GPGGA,121129,2448.8214,N,08023.8205,W,1,11,1.4,17,M,,M,,*68
06/20/2015	12:11:29.617	$GPGGA,121130,2448.8232,N,08023.8197,W,1,11,1.4,17,M,,M,,*6C
06/20/2015	12:11:30.519	$GPGGA,121131,2448.8249,N,08023.8188,W,1,11,1.4,17,M,,M,,*6F
06/20/2015	12:11:31.629	$GPGGA,121132,2448.8267,N,08023.8181,W,1,11,1.4,17,M,,M,,*69
06/20/2015	12:11:32.518	$GPGGA,121133,2448.8284,N,08023.8173,W,1,11,1.4,17,M,,M,,*68
06/20/2015	12:11:33.597	$GPGGA,121134,2448.8302,N,08023.8165,W,1,11,1.4,17,M,,M,,*67
06/20/2015	12:11:34.517	$GPGGA,121135,2448.8318,N,08023.8158,W,1,11,1.4,17,M,,M,,*63
06/20/2015	12:11:35.627	$GPGGA,121136,2448.8336,N,08023.8150,W,1,11,1.4,17,M,,M,,*64
06/20/2015	12:11:36.537	$GPGGA,121137,2448.8354,N,08023.8143,W,1,11,1.4,17,M,,M,,*63
06/20/2015	12:11:37.596	$GPGGA,121138,2448.8371,N,08023.8136,W,1,11,1.4,16,M,,M,,*68
06/20/2015	12:11:38.586	$GPGGA,121139,2448.8389,N,08023.8128,W,1,11,1.4,16,M,,M,,*61
06/20/2015	12:11:39.506	$GPGGA,121140,2448.8405,N,08023.8121,W,1,11,1.4,16,M,,M,,*65
06/20/2015	12:11:40.576	$GPGGA,121141,2448.8423,N,08023.8115,W,1,11,1.4,16,M,,M,,*67
06/20/2015	12:11:41.587	$GPGGA,121142,2448.8441,N,08023.8108,W,1,11,1.4,16,M,,M,,*6C
06/20/2015	12:11:42.587	$GPGGA,121143,2448.8459,N,08023.8102,W,1,11,1.4,16,M,,M,,*6E
06/20/2015	12:11:43.597	$GPGGA,121144,2448.8477,N,08023.8096,W,1,11,1.4,16,M,,M,,*69
06/20/2015	12:11:44.587	$GPGGA,121145,2448.8494,N,08023.8090,W,1,11,1.4,16,M,,M,,*63
06/20/2015	12:11:45.587	$GPGGA,121146,2448.8512,N,08023.8084,W,1,11,1.4,16,M,,M,,*6A
