Software Version Number: 1	Data File Format Number: 1	Build Version Number: 1	Error Count Since VI Started: 1	Manufacturer: Raytheon	 Model Number: RayMarine 120	 S/N: 	 Cal Date: 	 Wind Direction Offset: 0.00	 Slope (M)1: 0.00	 Offset (B)1: 0.00	 Slope (M)2: 0.00	 Offset (B)2: 0.00	 Slope (M)3: 0.00	 Offset (B)3: 0.00	 Slope (M)4: 0.00	 Offset (B)4: 0.00	 Slope (M)5: 0.00	 Offset (B)5: 0.00	 Slope (M)6: 0.00	 Offset (B)6: 0.00
Computer Date	Computer Time	GGA String
06/18/2015	13:00:00.585	$GPGGA,130001,2542.9751,N,07918.4790,W,1,9,1.4,16,M,,M,,*5E
06/18/2015	13:00:01.605	$GPGGA,130002,2542.9750,N,07918.4791,W,1,10,1.4,16,M,,M,,*65
06/18/2015	13:00:02.575	$GPGGA,130003,2542.9751,N,07918.4792,W,1,10,1.4,16,M,,M,,*66
06/18/2015	13:00:03.605	$GPGGA,130004,2542.9749,N,07918.4794,W,1,10,1.4,16,M,,M,,*6E
06/18/2015	13:00:04.575	$GPGGA,130005,2542.9749,N,07918.4793,W,1,10,1.4,16,M,,M,,*68
06/18/2015	13:00:05.565	$GPGGA,130006,2542.9749,N,07918.4794,W,1,10,1.4,16,M,,M,,*6C
06/18/2015	13:00:06.585	$GPGGA,130007,2542.9749,N,07918.4794,W,1,10,1.4,16,M,,M,,*6D
06/18/2015	13:00:07.605	$GPGGA,130008,2542.9749,N,07918.4794,W,1,10,1.4,16,M,,M,,*62
06/18/2015	13:00:08.565	$GPGGA,130009,2542.9749,N,07918.4795,W,1,10,1.4,16,M,,M,,*62
06/18/2015	13:00:09.605	$GPGGA,130010,2542.9749,N,07918.4794,W,1,10,1.4,16,M,,M,,*6B
06/18/2015	13:00:10.554	$GPGGA,130011,2542.9747,N,07918.4793,W,1,10,1.5,16,M,,M,,*62
06/18/2015	13:00:11.595	$GPGGA,130012,2542.9748,N,07918.4794,W,1,9,1.5,16,M,,M,,*51
06/18/2015	13:00:12.565	$GPGGA,130013,2542.9746,N,07918.4792,W,1,9,1.5,16,M,,M,,*58
06/18/2015	13:00:13.575	$GPGGA,130014,2542.9745,N,07918.4792,W,1,9,1.5,16,M,,M,,*5C
06/18/2015	13:00:14.555	$GPGGA,130015,2542.9744,N,07918.4792,W,1,9,1.5,16,M,,M,,*5C
06/18/2015	13:00:15.605	$GPGGA,130016,2542.9745,N,07918.4791,W,1,9,1.5,16,M,,M,,*5D
06/18/2015	13:00:16.545	$GPGGA,130017,2542.9743,N,07918.4795,W,1,9,1.5,16,M,,M,,*5E
06/18/2015	13:00:17.585	$GPGGA,130018,2542.9742,N,07918.4798,W,1,9,1.5,16,M,,M,,*5D
06/18/2015	13:00:18.545	$GPGGA,130019,2542.9742,N,07918.4803,W,1,9,1.5,16,M,,M,,*51
06/18/2015	13:00:19.555	$GPGGA,130020,2542.9742,N,07918.4805,W,1,10,1.4,16,M,,M,,*64
06/18/2015	13:00:20.555	$GPGGA,130021,2542.9740,N,07918.4805,W,1,10,1.5,16,M,,M,,*66
06/18/2015	13:00:21.535	$GPGGA,130022,2542.9739,N,07918.4806,W,1,9,1.5,16,M,,M,,*50
06/18/2015	13:00:22.545	$GPGGA,130023,2542.9740,N,07918.4806,W,1,9,1.5,16,M,,M,,*5F
06/18/2015	13:00:23.565	$GPGGA,130024,2542.9738,N,07918.4809,W,1,9,1.5,16,M,,M,,*58
06/18/2015	13:00:24.545	$GPGGA,130025,2542.9736,N,07918.4809,W,1,9,1.5,16,M,,M,,*57
06/18/2015	13:00:25.525	$GPGGA,130026,2542.9737,N,07918.4809,W,1,9,1.5,16,M,,M,,*55
06/18/2015	13:00:26.535	$GPGGA,130027,2542.9735,N,07918.4810,W,1,9,1.5,16,M,,M,,*5E
06/18/2015	13:00:27.554	$GPGGA,130028,2542.9734,N,07918.4810,W,1,9,1.5,16,M,,M,,*50
06/18/2015	13:00:28.526	$GPGGA,130029,2542.9734,N,07918.4812,W,1,9,1.5,16,M,,M,,*53
06/18/2015	13:00:29.555	$GPGGA,130030,2542.9733,N,07918.4810,W,1,9,1.5,16,M,,M,,*5E
06/18/2015	13:00:30.635	$GPGGA,130031,2542.9732,N,07918.4812,W,1,9,1.5,16,M,,M,,*5C
06/18/2015	13:00:31.565	$GPGGA,130032,2542.9731,N,07918.4811,W,1,9,1.5,16,M,,M,,*5F
06/18/2015	13:00:32.535	$GPGGA,130033,2542.9733,N,07918.4810,W,1,9,1.5,16,M,,M,,*5D
06/18/2015	13:00:33.645	$GPGGA,130034,2542.9731,N,07918.4809,W,1,10,1.4,16,M,,M,,*69
06/18/2015	13:00:34.545	$GPGGA,130035,2542.9731,N,07918.4809,W,1,10,1.4,16,M,,M,,*68
06/18/2015	13:00:35.655	$GPGGA,130036,2542.9731,N,07918.4808,W,1,10,1.4,16,M,,M,,*6A
06/18/2015	13:00:36.515	$GPGGA,130037,2542.9729,N,07918.4807,W,1,10,1.4,16,M,,M,,*6D
06/18/2015	13:00:37.605	$GPGGA,130038,2542.9728,N,07918.4809,W,1,10,1.4,16,M,,M,,*6D
06/18/2015	13:00:38.515	$GPGGA,130039,2542.9727,N,07918.4807,W,1,10,1.4,16,M,,M,,*6D
06/18/2015	13:00:39.635	$GPGGA,130040,2542.9727,N,07918.4808,W,1,10,1.4,16,M,,M,,*6C
06/18/2015	13:00:40.595	$GPGGA,130041,2542.9726,N,07918.4807,W,1,10,1.4,16,M,,M,,*63
06/18/2015	13:00:41.595	$GPGGA,130042,2542.9725,N,07918.4806,W,1,10,1.4,16,M,,M,,*62
06/18/2015	13:00:42.515	$GPGGA,130043,2542.9724,N,07918.4806,W,1,10,1.4,16,M,,M,,*62
06/18/2015	13:00:43.615	$GPGGA,130044,2542.9724,N,07918.4806,W,1,10,1.4,16,M,,M,,*65
06/18/2015	13:00:44.585	$GPGGA,130045,2542.9724,N,07918.4806,W,1,10,1.4,16,M,,M,,*64
06/18/2015	13:00:45.584	$GPGGA,130046,2542.9722,N,07918.4806,W,1,10,1.4,16,M,,M,,*61
06/18/2015	13:00:46.595	$GPGGA,130047,2542.9723,N,07918.4806,W,1,10,1.4,16,M,,M,,*61
06/18/2015	13:00:47.615	$GPGGA,130048,2542.9721,N,07918.4805,W,1,10,1.4,16,M,,M,,*6F
06/18/2015	13:00:48.575	$GPGGA,130049,2542.9722,N,07918.4805,W,1,10,1.4,16,M,,M,,*6D
06/18/2015	13:00:49.595	$GPGGA,130050,2542.9720,N,07918.4806,W,1,10,1.4,16,M,,M,,*64
06/18/2015	13:00:50.575	$GPGGA,130051,2542.9720,N,07918.4802,W,1,10,1.7,16,M,,M,,*62
06/18/2015	13:00:51.605	$GPGGA,130052,2542.9718,N,07918.4801,W,1,10,1.4,16,M,,M,,*6A
06/18/2015	13:00:52.565	$GPGGA,130053,2542.9717,N,07918.4800,W,1,10,1.4,16,M,,M,,*65
06/18/2015	13:00:53.585	$GPGGA,130054,2542.9716,N,07918.4799,W,1,10,1.4,16,M,,M,,*6C
06/18/2015	13:00:54.575	$GPGGA,130055,2542.9716,N,07918.4799,W,1,10,1.4,16,M,,M,,*6D
06/18/2015	13:00:55.605	$GPGGA,130056,2542.9715,N,07918.4801,W,1,9,1.7,16,M,,M,,*58
06/18/2015	13:00:56.575	$GPGGA,130057,2542.9716,N,07918.4800,W,1,9,1.7,16,M,,M,,*5B
06/18/2015	13:00:57.575	$GPGGA,130058,2542.9715,N,07918.4801,W,1,9,1.7,16,M,,M,,*56
06/18/2015	13:00:58.575	$GPGGA,130059,2542.9714,N,07918.4800,W,1,9,1.7,16,M,,M,,*57
06/18/2015	13:00:59.595	$GPGGA,130100,2542.9715,N,07918.4801,W,1,9,1.7,16,M,,M,,*5A
06/18/2015	13:01:00.565	$GPGGA,130101,2542.9714,N,07918.4801,W,1,9,1.7,16,M,,M,,*5A
06/18/2015	13:01:01.585	$GPGGA,130102,2542.9713,N,07918.4799,W,1,9,1.7,16,M,,M,,*50
06/18/2015	13:01:02.554	$GPGGA,130103,2542.9713,N,07918.4801,W,1,9,1.4,16,M,,M,,*5C
06/18/2015	13:01:03.576	$GPGGA,130104,2542.9713,N,07918.4800,W,1,9,1.7,16,M,,M,,*59
06/18/2015	13:01:04.555	$GPGGA,130105,2542.9713,N,07918.4801,W,1,9,1.7,16,M,,M,,*59
06/18/2015	13:01:05.565	$GPGGA,130106,2542.9713,N,07918.4800,W,1,9,1.7,16,M,,M,,*5B
06/18/2015	13:01:06.545	$GPGGA,130107,2542.9711,N,07918.4801,W,1,9,1.7,16,M,,M,,*59
06/18/2015	13:01:07.585	$GPGGA,130108,2542.9712,N,07918.4800,W,1,9,1.7,16,M,,M,,*54
06/18/2015	13:01:08.535	$GPGGA,130109,2542.9711,N,07918.4801,W,1,9,1.7,16,M,,M,,*57
06/18/2015	13:01:09.527	$GPGGA,130110,2542.9710,N,07918.4800,W,1,9,1.7,16,M,,M,,*5F
06/18/2015	13:01:10.535	$GPGGA,130111,2542.9711,N,07918.4801,W,1,9,1.7,16,M,,M,,*5E
06/18/2015	13:01:11.565	$GPGGA,130112,2542.9710,N,07918.4800,W,1,9,1.7,16,M,,M,,*5D
06/18/2015	13:01:12.535	$GPGGA,130113,2542.9709,N,07918.4801,W,1,9,1.7,16,M,,M,,*55
06/18/2015	13:01:13.525	$GPGGA,130114,2542.9709,N,07918.4799,W,1,9,1.7,16,M,,M,,*5C
06/18/2015	13:01:14.645	$GPGGA,130115,2542.9709,N,07918.4799,W,1,9,1.7,16,M,,M,,*5D
06/18/2015	13:01:15.535	$GPGGA,130116,2542.9709,N,07918.4799,W,1,9,1.7,16,M,,M,,*5E
06/18/2015	13:01:16.535	$GPGGA,130117,2542.9708,N,07918.4799,W,1,9,1.7,16,M,,M,,*5E
06/18/2015	13:01:17.525	$GPGGA,130118,2542.9709,N,07918.4799,W,1,9,1.7,15,M,,M,,*53
06/18/2015	13:01:18.535	$GPGGA,130119,2542.9708,N,07918.4799,W,1,9,1.7,15,M,,M,,*53
06/18/2015	13:01:19.665	$GPGGA,130120,2542.9709,N,07918.4799,W,1,9,1.7,15,M,,M,,*58
06/18/2015	13:01:20.614	$GPGGA,130121,2542.9707,N,07918.4799,W,1,9,1.7,15,M,,M,,*57
06/18/2015	13:01:21.505	$GPGGA,130122,2542.9708,N,07918.4799,W,1,9,1.7,15,M,,M,,*5B
06/18/2015	13:01:22.626	$GPGGA,130123,2542.9706,N,07918.4797,W,1,9,1.4,15,M,,M,,*59
06/18/2015	13:01:23.627	$GPGGA,130124,2542.9706,N,07918.4794,W,1,10,1.4,15,M,,M,,*65
06/18/2015	13:01:24.526	$GPGGA,130125,2542.9704,N,07918.4795,W,1,10,1.4,15,M,,M,,*67
06/18/2015	13:01:25.615	$GPGGA,130126,2542.9703,N,07918.4791,W,1,9,1.4,15,M,,M,,*5F
06/18/2015	13:01:26.515	$GPGGA,130127,2542.9704,N,07918.4789,W,1,9,1.4,15,M,,M,,*50
06/18/2015	13:01:27.645	$GPGGA,130128,2542.9702,N,07918.4790,W,1,10,1.4,16,M,,M,,*6A
06/18/2015	13:01:28.527	$GPGGA,130129,2542.9702,N,07918.4788,W,1,10,1.4,16,M,,M,,*62
06/18/2015	13:01:29.627	$GPGGA,130130,2542.9702,N,07918.4790,W,1,10,1.7,16,M,,M,,*60
06/18/2015	13:01:30.595	$GPGGA,130131,2542.9702,N,07918.4790,W,1,10,1.7,16,M,,M,,*61
06/18/2015	13:01:31.628	$GPGGA,130132,2542.9702,N,07918.4789,W,1,9,1.4,16,M,,M,,*51
06/18/2015	13:01:32.585	$GPGGA,130133,2542.9700,N,07918.4788,W,1,9,1.4,16,M,,M,,*53
06/18/2015	13:01:33.615	$GPGGA,130134,2542.9699,N,07918.4786,W,1,10,1.4,16,M,,M,,*63
06/18/2015	13:01:34.595	$GPGGA,130135,2542.9699,N,07918.4785,W,1,10,1.4,16,M,,M,,*61
06/18/2015	13:01:35.645	$GPGGA,130136,2542.9699,N,07918.4785,W,1,10,1.4,16,M,,M,,*62
06/18/2015	13:01:36.575	$GPGGA,130137,2542.9698,N,07918.4785,W,1,10,1.4,16,M,,M,,*62
06/18/2015	13:01:37.604	$GPGGA,130138,2542.9698,N,07918.4785,W,1,10,1.4,16,M,,M,,*6D
06/18/2015	13:01:38.605	$GPGGA,130139,2542.9698,N,07918.4785,W,1,10,1.4,17,M,,M,,*6D
06/18/2015	13:01:39.605	$GPGGA,130140,2542.9697,N,07918.4785,W,1,10,1.4,17,M,,M,,*6C
06/18/2015	13:01:40.585	$GPGGA,130141,2542.9698,N,07918.4785,W,1,10,1.4,17,M,,M,,*62
06/18/2015	13:01:41.595	$GPGGA,130142,2542.9697,N,07918.4787,W,1,10,1.4,17,M,,M,,*6C
06/18/2015	13:01:42.575	$GPGGA,130143,2542.9698,N,07918.4787,W,1,10,1.4,17,M,,M,,*62
06/18/2015	13:01:43.605	$GPGGA,130144,2542.9697,N,07918.4787,W,1,10,1.4,17,M,,M,,*6A
06/18/2015	13:01:44.575	$GPGGA,130145,2542.9698,N,07918.4787,W,1,10,1.4,17,M,,M,,*64
06/18/2015	13:01:45.585	$GPGGA,130146,2542.9697,N,07918.4787,W,1,10,1.4,17,M,,M,,*68
06/18/2015	13:01:46.555	$GPGGA,130147,2542.9698,N,07918.4788,W,1,10,1.4,17,M,,M,,*69
06/18/2015	13:01:47.595	$GPGGA,130148,2542.9697,N,07918.4788,W,1,10,1.4,17,M,,M,,*69
06/18/2015	13:01:48.575	$GPGGA,130149,2542.9698,N,07918.4788,W,1,10,1.4,17,M,,M,,*67
06/18/2015	13:01:49.585	$GPGGA,130150,2542.9697,N,07918.4788,W,1,10,1.4,17,M,,M,,*60
06/18/2015	13:01:50.565	$GPGGA,130151,2542.9698,N,07918.4790,W,1,10,1.4,17,M,,M,,*67
06/18/2015	13:01:51.585	$GPGGA,130152,2542.9697,N,07918.4790,W,1,10,1.7,17,M,,M,,*68
06/18/2015	13:01:52.545	$GPGGA,130153,2542.9698,N,07918.4790,W,1,10,1.7,17,M,,M,,*66
06/18/2015	13:01:53.565	$GPGGA,130154,2542.9697,N,07918.4791,W,1,9,1.7,17,M,,M,,*57
06/18/2015	13:01:54.545	$GPGGA,130155,2542.9698,N,07918.4791,W,1,9,1.7,17,M,,M,,*59
06/18/2015	13:01:55.634	$GPGGA,130156,2542.9697,N,07918.4791,W,1,9,1.4,17,M,,M,,*56
06/18/2015	13:01:56.545	$GPGGA,130157,2542.9698,N,07918.4790,W,1,9,1.4,17,M,,M,,*59
06/18/2015	13:01:57.535	$GPGGA,130158,2542.9697,N,07918.4790,W,1,10,1.5,17,M,,M,,*60
06/18/2015	13:01:58.535	$GPGGA,130159,2542.9698,N,07918.4790,W,1,10,1.5,17,M,,M,,*6E
06/18/2015	13:01:59.626	$GPGGA,130200,2542.9697,N,07918.4789,W,1,9,1.5,17,M,,M,,*5E
06/18/2015	13:02:00.545	$GPGGA,130201,2542.9698,N,07918.4788,W,1,9,1.5,17,M,,M,,*51
06/18/2015	13:02:01.545	$GPGGA,130202,2542.9697,N,07918.4788,W,1,9,1.5,17,M,,M,,*5D
06/18/2015	13:02:02.526	$GPGGA,130203,2542.9696,N,07918.4788,W,1,9,1.5,17,M,,M,,*5D
06/18/2015	13:02:03.575	$GPGGA,130204,2542.9698,N,07918.4787,W,1,9,1.5,17,M,,M,,*5B
06/18/2015	13:02:04.615	$GPGGA,130205,2542.9696,N,07918.4787,W,1,9,1.5,17,M,,M,,*54
06/18/2015	13:02:05.515	$GPGGA,130206,2542.9697,N,07918.4786,W,1,9,1.5,17,M,,M,,*57
06/18/2015	13:02:06.517	$GPGGA,130207,2542.9695,N,07918.4787,W,1,9,1.5,16,M,,M,,*54
06/18/2015	13:02:07.545	$GPGGA,130208,2542.9695,N,07918.4786,W,1,9,1.5,16,M,,M,,*5A
06/18/2015	13:02:08.525	$GPGGA,130209,2542.9695,N,07918.4787,W,1,9,1.5,16,M,,M,,*5A
06/18/2015	13:02:09.505	$GPGGA,130210,2542.9695,N,07918.4785,W,1,9,1.5,16,M,,M,,*50
06/18/2015	13:02:10.595	$GPGGA,130211,2542.9695,N,07918.4785,W,1,9,1.5,16,M,,M,,*51
06/18/2015	13:02:11.615	$GPGGA,130212,2542.9695,N,07918.4785,W,1,9,1.5,16,M,,M,,*52
06/18/2015	13:02:12.504	$GPGGA,130213,2542.9695,N,07918.4785,W,1,9,1.5,16,M,,M,,*53
06/18/2015	13:02:13.624	$GPGGA,130214,2542.9695,N,07918.4785,W,1,9,1.5,16,M,,M,,*54
06/18/2015	13:02:14.515	$GPGGA,130215,2542.9695,N,07918.4785,W,1,9,1.5,16,M,,M,,*55
06/18/2015	13:02:15.604	$GPGGA,130216,2542.9693,N,07918.4784,W,1,9,1.5,16,M,,M,,*51
06/18/2015	13:02:16.504	$GPGGA,130217,2542.9694,N,07918.4784,W,1,9,1.5,16,M,,M,,*57
06/18/2015	13:02:17.615	$GPGGA,130218,2542.9693,N,07918.4784,W,1,9,1.5,16,M,,M,,*5F
06/18/2015	13:02:18.574	$GPGGA,130219,2542.9694,N,07918.4784,W,1,9,1.5,16,M,,M,,*59
06/18/2015	13:02:19.594	$GPGGA,130220,2542.9693,N,07918.4785,W,1,9,1.5,16,M,,M,,*55
06/18/2015	13:02:20.574	$GPGGA,130221,2542.9694,N,07918.4784,W,1,9,1.5,16,M,,M,,*52
06/18/2015	13:02:21.584	$GPGGA,130222,2542.9693,N,07918.4784,W,1,8,1.7,16,M,,M,,*55
06/18/2015	13:02:22.574	$GPGGA,130223,2542.9694,N,07918.4784,W,1,8,1.7,16,M,,M,,*53
06/18/2015	13:02:23.595	$GPGGA,130224,2542.9693,N,07918.4784,W,1,8,1.7,16,M,,M,,*53
06/18/2015	13:02:24.565	$GPGGA,130225,2542.9695,N,07918.4782,W,1,8,1.5,16,M,,M,,*50
06/18/2015	13:02:25.585	$GPGGA,130226,2542.9693,N,07918.4783,W,1,9,1.5,16,M,,M,,*55
06/18/2015	13:02:26.565	$GPGGA,130227,2542.9694,N,07918.4782,W,1,9,1.5,16,M,,M,,*52
06/18/2015	13:02:27.595	$GPGGA,130228,2542.9695,N,07918.4783,W,1,9,1.5,16,M,,M,,*5D
06/18/2015	13:02:28.555	$GPGGA,130229,2542.9695,N,07918.4782,W,1,9,1.5,16,M,,M,,*5D
06/18/2015	13:02:29.555	$GPGGA,130230,2542.9693,N,07918.4783,W,1,9,1.5,16,M,,M,,*52
06/18/2015	13:02:30.564	$GPGGA,130231,2542.9694,N,07918.4782,W,1,9,1.5,16,M,,M,,*55
06/18/2015	13:02:31.584	$GPGGA,130232,2542.9695,N,07918.4783,W,1,9,1.5,16,M,,M,,*56
06/18/2015	13:02:32.544	$GPGGA,130233,2542.9695,N,07918.4782,W,1,9,1.5,16,M,,M,,*56
06/18/2015	13:02:33.574	$GPGGA,130234,2542.9695,N,07918.4782,W,1,9,1.5,16,M,,M,,*51
06/18/2015	13:02:34.544	$GPGGA,130235,2542.9694,N,07918.4782,W,1,9,1.5,16,M,,M,,*51
06/18/2015	13:02:35.574	$GPGGA,130236,2542.9693,N,07918.4783,W,1,9,1.5,16,M,,M,,*54
06/18/2015	13:02:36.534	$GPGGA,130237,2542.9694,N,07918.4783,W,1,9,1.5,16,M,,M,,*52
06/18/2015	13:02:37.534	$GPGGA,130238,2542.9693,N,07918.4783,W,1,9,1.5,16,M,,M,,*5A
06/18/2015	13:02:38.544	$GPGGA,130239,2542.9694,N,07918.4783,W,1,9,1.5,16,M,,M,,*5C
06/18/2015	13:02:39.544	$GPGGA,130240,2542.9693,N,07918.4783,W,1,9,1.5,16,M,,M,,*55
06/18/2015	13:02:40.524	$GPGGA,130241,2542.9694,N,07918.4783,W,1,9,1.5,16,M,,M,,*53
06/18/2015	13:02:41.535	$GPGGA,130242,2542.9692,N,07918.4783,W,1,9,1.5,16,M,,M,,*56
06/18/2015	13:02:42.535	$GPGGA,130243,2542.9694,N,07918.4784,W,1,9,1.5,16,M,,M,,*56
06/18/2015	13:02:43.535	$GPGGA,130244,2542.9692,N,07918.4783,W,1,9,1.5,16,M,,M,,*50
06/18/2015	13:02:44.535	$GPGGA,130245,2542.9693,N,07918.4784,W,1,9,1.5,16,M,,M,,*57
06/18/2015	13:02:45.555	$GPGGA,130246,2542.9692,N,07918.4784,W,1,9,1.5,16,M,,M,,*55
06/18/2015	13:02:46.519	$GPGGA,130247,2542.9694,N,07918.4783,W,1,9,1.5,16,M,,M,,*55
06/18/2015	13:02:47.534	$GPGGA,130248,2542.9692,N,07918.4784,W,1,9,1.5,16,M,,M,,*5B
06/18/2015	13:02:48.504	$GPGGA,130249,2542.9693,N,07918.4784,W,1,9,1.5,16,M,,M,,*5B
06/18/2015	13:02:49.515	$GPGGA,130250,2542.9694,N,07918.4784,W,1,9,1.5,16,M,,M,,*54
06/18/2015	13:02:50.624	$GPGGA,130251,2542.9693,N,07918.4783,W,1,9,1.5,16,M,,M,,*55
06/18/2015	13:02:51.654	$GPGGA,130252,2542.9694,N,07918.4784,W,1,9,1.5,16,M,,M,,*56
06/18/2015	13:02:52.524	$GPGGA,130253,2542.9693,N,07918.4784,W,1,9,1.5,16,M,,M,,*50
06/18/2015	13:02:53.604	$GPGGA,130254,2542.9694,N,07918.4783,W,1,9,1.5,16,M,,M,,*57
06/18/2015	13:02:54.494	$GPGGA,130255,2542.9693,N,07918.4783,W,1,9,1.5,16,M,,M,,*51
06/18/2015	13:02:55.534	$GPGGA,130256,2542.9694,N,07918.4782,W,1,9,1.5,16,M,,M,,*54
06/18/2015	13:02:56.594	$GPGGA,130257,2542.9693,N,07918.4783,W,1,9,1.5,15,M,,M,,*50
06/18/2015	13:02:57.504	$GPGGA,130258,2542.9694,N,07918.4782,W,1,9,1.5,15,M,,M,,*59
06/18/2015	13:02:58.617	$GPGGA,130259,2542.9693,N,07918.4781,W,1,9,1.5,15,M,,M,,*5C
06/18/2015	13:02:59.665	$GPGGA,130300,2542.9695,N,07918.4781,W,1,9,1.5,15,M,,M,,*57
06/18/2015	13:03:00.616	$GPGGA,130301,2542.9695,N,07918.4781,W,1,9,1.5,15,M,,M,,*56
06/18/2015	13:03:01.615	$GPGGA,130302,2542.9695,N,07918.4781,W,1,9,1.5,15,M,,M,,*55
06/18/2015	13:03:02.585	$GPGGA,130303,2542.9695,N,07918.4781,W,1,9,1.5,15,M,,M,,*54
06/18/2015	13:03:03.605	$GPGGA,130304,2542.9695,N,07918.4780,W,1,9,1.5,15,M,,M,,*52
06/18/2015	13:03:04.585	$GPGGA,130305,2542.9695,N,07918.4780,W,1,9,1.5,15,M,,M,,*53
06/18/2015	13:03:06.029	$GPGGA,130306,2542.9695,N,07918.4780,W,1,9,1.5,15,M,,M,,*50
06/18/2015	13:03:06.574	$GPGGA,130307,2542.9695,N,07918.4780,W,1,9,1.5,15,M,,M,,*51
06/18/2015	13:03:07.504	$GPGGA,130308,2542.9697,N,07918.4779,W,1,9,1.5,15,M,,M,,*5A
06/18/2015	13:03:08.575	$GPGGA,130309,2542.9696,N,07918.4780,W,1,9,1.5,15,M,,M,,*5C
06/18/2015	13:03:09.574	$GPGGA,130310,2542.9695,N,07918.4780,W,1,9,1.5,15,M,,M,,*57
06/18/2015	13:03:10.574	$GPGGA,130311,2542.9695,N,07918.4779,W,1,9,1.5,15,M,,M,,*50
06/18/2015	13:03:11.614	$GPGGA,130312,2542.9697,N,07918.4780,W,1,9,1.5,15,M,,M,,*57
06/18/2015	13:03:12.495	$GPGGA,130313,2542.9698,N,07918.4779,W,1,9,1.5,15,M,,M,,*5F
06/18/2015	13:03:13.584	$GPGGA,130314,2542.9696,N,07918.4780,W,1,9,1.5,15,M,,M,,*50
06/18/2015	13:03:14.554	$GPGGA,130315,2542.9698,N,07918.4779,W,1,9,1.5,15,M,,M,,*59
06/18/2015	13:03:15.584	$GPGGA,130316,2542.9697,N,07918.4778,W,1,9,1.5,15,M,,M,,*54
06/18/2015	13:03:16.555	$GPGGA,130317,2542.9698,N,07918.4779,W,1,9,1.5,15,M,,M,,*5B
06/18/2015	13:03:17.575	$GPGGA,130318,2542.9698,N,07918.4778,W,1,9,1.5,15,M,,M,,*55
06/18/2015	13:03:18.555	$GPGGA,130319,2542.9698,N,07918.4779,W,1,9,1.5,15,M,,M,,*55
06/18/2015	13:03:19.575	$GPGGA,130320,2542.9698,N,07918.4778,W,1,9,1.5,15,M,,M,,*5E
06/18/2015	13:03:20.555	$GPGGA,130321,2542.9698,N,07918.4777,W,1,9,1.5,15,M,,M,,*50
06/18/2015	13:03:21.535	$GPGGA,130322,2542.9699,N,07918.4777,W,1,9,1.5,15,M,,M,,*52
06/18/2015	13:03:22.534	$GPGGA,130323,2542.9699,N,07918.4777,W,1,9,1.5,15,M,,M,,*53
06/18/2015	13:03:23.574	$GPGGA,130324,2542.9699,N,07918.4777,W,1,9,1.5,15,M,,M,,*54
06/18/2015	13:03:24.534	$GPGGA,130325,2542.9701,N,07918.4777,W,1,9,1.5,15,M,,M,,*55
06/18/2015	13:03:25.554	$GPGGA,130326,2542.9700,N,07918.4776,W,1,9,1.5,15,M,,M,,*56
06/18/2015	13:03:26.534	$GPGGA,130327,2542.9701,N,07918.4776,W,1,9,1.5,15,M,,M,,*56
06/18/2015	13:03:27.564	$GPGGA,130328,2542.9700,N,07918.4776,W,1,9,1.5,15,M,,M,,*58
06/18/2015	13:03:28.524	$GPGGA,130329,2542.9701,N,07918.4775,W,1,9,1.5,15,M,,M,,*5B
06/18/2015	13:03:29.554	$GPGGA,130330,2542.9700,N,07918.4776,W,1,9,1.5,15,M,,M,,*51
06/18/2015	13:03:30.544	$GPGGA,130331,2542.9701,N,07918.4774,W,1,9,1.5,15,M,,M,,*53
06/18/2015	13:03:31.554	$GPGGA,130332,2542.9702,N,07918.4776,W,1,9,1.5,15,M,,M,,*51
06/18/2015	13:03:32.516	$GPGGA,130333,2542.9702,N,07918.4774,W,1,9,1.5,15,M,,M,,*52
06/18/2015	13:03:33.519	$GPGGA,130334,2542.9702,N,07918.4774,W,1,9,1.5,15,M,,M,,*55
06/18/2015	13:03:34.525	$GPGGA,130335,2542.9702,N,07918.4774,W,1,9,1.5,15,M,,M,,*54
06/18/2015	13:03:35.545	$GPGGA,130336,2542.9702,N,07918.4774,W,1,9,1.5,15,M,,M,,*57
06/18/2015	13:03:36.517	$GPGGA,130337,2542.9702,N,07918.4774,W,1,9,1.5,14,M,,M,,*57
06/18/2015	13:03:37.517	$GPGGA,130338,2542.9702,N,07918.4774,W,1,9,1.5,14,M,,M,,*58
06/18/2015	13:03:38.505	$GPGGA,130339,2542.9704,N,07918.4774,W,1,9,1.5,14,M,,M,,*5F
06/18/2015	13:03:39.525	$GPGGA,130340,2542.9703,N,07918.4773,W,1,8,1.8,14,M,,M,,*5D
06/18/2015	13:03:40.504	$GPGGA,130341,2542.9704,N,07918.4773,W,1,8,1.5,14,M,,M,,*56
06/18/2015	13:03:41.494	$GPGGA,130342,2542.9702,N,07918.4772,W,1,9,1.5,14,M,,M,,*53
06/18/2015	13:03:42.494	$GPGGA,130343,2542.9704,N,07918.4773,W,1,9,1.5,14,M,,M,,*55
06/18/2015	13:03:43.544	$GPGGA,130344,2542.9705,N,07918.4773,W,1,8,1.8,14,M,,M,,*5F
06/18/2015	13:03:44.504	$GPGGA,130345,2542.9703,N,07918.4772,W,1,8,1.8,14,M,,M,,*59
06/18/2015	13:03:45.615	$GPGGA,130346,2542.9704,N,07918.4773,W,1,9,1.5,14,M,,M,,*50
06/18/2015	13:03:46.484	$GPGGA,130347,2542.9705,N,07918.4772,W,1,9,1.5,14,M,,M,,*51
06/18/2015	13:03:47.594	$GPGGA,130348,2542.9706,N,07918.4772,W,1,9,1.5,14,M,,M,,*5D
06/18/2015	13:03:48.504	$GPGGA,130349,2542.9706,N,07918.4771,W,1,9,1.5,14,M,,M,,*5F
06/18/2015	13:03:49.604	$GPGGA,130350,2542.9706,N,07918.4772,W,1,9,1.5,14,M,,M,,*54
06/18/2015	13:03:50.484	$GPGGA,130351,2542.9706,N,07918.4771,W,1,9,1.5,14,M,,M,,*56
06/18/2015	13:03:51.625	$GPGGA,130352,2542.9706,N,07918.4772,W,1,9,1.5,14,M,,M,,*56
06/18/2015	13:03:52.485	$GPGGA,130353,2542.9706,N,07918.4771,W,1,9,1.5,14,M,,M,,*54
06/18/2015	13:03:53.575	$GPGGA,130354,2542.9708,N,07918.4772,W,1,9,1.5,14,M,,M,,*5E
06/18/2015	13:03:54.475	$GPGGA,130355,2542.9706,N,07918.4771,W,1,9,1.3,14,M,,M,,*54
06/18/2015	13:03:55.625	$GPGGA,130356,2542.9708,N,07918.4772,W,1,9,1.3,14,M,,M,,*5A
06/18/2015	13:03:56.485	$GPGGA,130357,2542.9709,N,07918.4771,W,1,9,1.5,14,M,,M,,*5F
06/18/2015	13:03:57.574	$GPGGA,130358,2542.9712,N,07918.4770,W,1,9,1.5,14,M,,M,,*5B
06/18/2015	13:03:58.574	$GPGGA,130359,2542.9711,N,07918.4770,W,1,9,1.3,14,M,,M,,*5F
06/18/2015	13:03:59.615	$GPGGA,130400,2542.9713,N,07918.4770,W,1,9,1.3,14,M,,M,,*56
06/18/2015	13:04:00.574	$GPGGA,130401,2542.9713,N,07918.4769,W,1,9,1.3,14,M,,M,,*5F
06/18/2015	13:04:01.574	$GPGGA,130402,2542.9715,N,07918.4769,W,1,9,1.3,14,M,,M,,*5A
06/18/2015	13:04:02.564	$GPGGA,130403,2542.9713,N,07918.4769,W,1,9,1.3,14,M,,M,,*5D
06/18/2015	13:04:03.594	$GPGGA,130404,2542.9715,N,07918.4768,W,1,9,1.5,14,M,,M,,*5B
06/18/2015	13:04:05.616	$GPGGA,130406,2542.9715,N,07918.4768,W,1,9,1.3,14,M,,M,,*5F
06/18/2015	13:04:06.554	$GPGGA,130407,2542.9716,N,07918.4769,W,1,9,1.3,14,M,,M,,*5C
06/18/2015	13:04:07.554	$GPGGA,130408,2542.9716,N,07918.4767,W,1,9,1.3,14,M,,M,,*5D
06/18/2015	13:04:08.545	$GPGGA,130409,2542.9717,N,07918.4767,W,1,9,1.3,14,M,,M,,*5D
06/18/2015	13:04:09.555	$GPGGA,130410,2542.9717,N,07918.4767,W,1,9,1.3,14,M,,M,,*55
06/18/2015	13:04:10.535	$GPGGA,130411,2542.9717,N,07918.4766,W,1,9,1.3,15,M,,M,,*54
06/18/2015	13:04:11.565	$GPGGA,130412,2542.9717,N,07918.4767,W,1,9,1.3,15,M,,M,,*56
06/18/2015	13:04:12.545	$GPGGA,130413,2542.9717,N,07918.4766,W,1,9,1.3,15,M,,M,,*56
06/18/2015	13:04:13.555	$GPGGA,130414,2542.9719,N,07918.4766,W,1,9,1.3,15,M,,M,,*5F
06/18/2015	13:04:14.535	$GPGGA,130415,2542.9718,N,07918.4766,W,1,9,1.3,15,M,,M,,*5F
06/18/2015	13:04:15.564	$GPGGA,130416,2542.9719,N,07918.4766,W,1,9,1.3,15,M,,M,,*5D
06/18/2015	13:04:16.534	$GPGGA,130417,2542.9718,N,07918.4766,W,1,9,1.3,15,M,,M,,*5D
06/18/2015	13:04:17.514	$GPGGA,130418,2542.9719,N,07918.4765,W,1,9,1.3,15,M,,M,,*50
06/18/2015	13:04:18.525	$GPGGA,130419,2542.9718,N,07918.4765,W,1,9,1.3,15,M,,M,,*50
06/18/2015	13:04:19.564	$GPGGA,130420,2542.9719,N,07918.4765,W,1,9,1.3,15,M,,M,,*5B
06/18/2015	13:04:20.524	$GPGGA,130421,2542.9718,N,07918.4765,W,1,9,1.3,15,M,,M,,*5B
06/18/2015	13:04:21.554	$GPGGA,130422,2542.9719,N,07918.4765,W,1,9,1.3,15,M,,M,,*59
06/18/2015	13:04:22.524	$GPGGA,130423,2542.9718,N,07918.4765,W,1,9,1.3,15,M,,M,,*59
06/18/2015	13:04:23.544	$GPGGA,130424,2542.9719,N,07918.4764,W,1,9,1.3,15,M,,M,,*5E
06/18/2015	13:04:24.516	$GPGGA,130425,2542.9718,N,07918.4765,W,1,9,1.3,15,M,,M,,*5F
06/18/2015	13:04:25.534	$GPGGA,130426,2542.9719,N,07918.4764,W,1,9,1.3,15,M,,M,,*5C
06/18/2015	13:04:26.516	$GPGGA,130427,2542.9718,N,07918.4765,W,1,9,1.3,15,M,,M,,*5D
06/18/2015	13:04:27.695	$GPGGA,130428,2542.9719,N,07918.4763,W,1,9,1.3,15,M,,M,,*55
06/18/2015	13:04:28.518	$GPGGA,130429,2542.9718,N,07918.4763,W,1,9,1.3,15,M,,M,,*55
06/18/2015	13:04:29.515	$GPGGA,130430,2542.9719,N,07918.4763,W,1,9,1.3,15,M,,M,,*5C
06/18/2015	13:04:30.505	$GPGGA,130431,2542.9718,N,07918.4762,W,1,9,1.3,15,M,,M,,*5D
06/18/2015	13:04:31.695	$GPGGA,130432,2542.9719,N,07918.4762,W,1,9,1.3,15,M,,M,,*5F
06/18/2015	13:04:32.504	$GPGGA,130433,2542.9718,N,07918.4762,W,1,9,1.3,15,M,,M,,*5F
06/18/2015	13:04:33.584	$GPGGA,130434,2542.9719,N,07918.4762,W,1,9,1.3,15,M,,M,,*59
06/18/2015	13:04:34.584	$GPGGA,130435,2542.9720,N,07918.4762,W,1,9,1.3,15,M,,M,,*52
06/18/2015	13:04:35.494	$GPGGA,130436,2542.9720,N,07918.4762,W,1,9,1.3,15,M,,M,,*51
06/18/2015	13:04:36.584	$GPGGA,130437,2542.9720,N,07918.4762,W,1,9,1.3,15,M,,M,,*50
06/18/2015	13:04:37.684	$GPGGA,130438,2542.9720,N,07918.4762,W,1,9,1.3,15,M,,M,,*5F
06/18/2015	13:04:38.494	$GPGGA,130439,2542.9720,N,07918.4762,W,1,9,1.3,15,M,,M,,*5E
06/18/2015	13:04:39.484	$GPGGA,130440,2542.9720,N,07918.4762,W,1,9,1.3,15,M,,M,,*50
06/18/2015	13:04:40.575	$GPGGA,130441,2542.9720,N,07918.4762,W,1,9,1.3,15,M,,M,,*51
06/18/2015	13:04:41.664	$GPGGA,130442,2542.9720,N,07918.4762,W,1,9,1.3,15,M,,M,,*52
06/18/2015	13:04:42.564	$GPGGA,130443,2542.9720,N,07918.4761,W,1,9,1.3,15,M,,M,,*50
06/18/2015	13:04:43.695	$GPGGA,130444,2542.9720,N,07918.4762,W,1,9,1.3,15,M,,M,,*54
06/18/2015	13:04:44.595	$GPGGA,130445,2542.9720,N,07918.4762,W,1,9,1.3,15,M,,M,,*55
06/18/2015	13:04:45.675	$GPGGA,130446,2542.9722,N,07918.4762,W,1,9,1.3,15,M,,M,,*54
06/18/2015	13:04:46.595	$GPGGA,130447,2542.9721,N,07918.4761,W,1,9,1.3,15,M,,M,,*55
06/18/2015	13:04:47.685	$GPGGA,130448,2542.9722,N,07918.4762,W,1,10,1.3,15,M,,M,,*62
06/18/2015	13:04:48.605	$GPGGA,130449,2542.9721,N,07918.4762,W,1,10,1.3,15,M,,M,,*60
06/18/2015	13:04:49.674	$GPGGA,130450,2542.9722,N,07918.4762,W,1,10,1.3,15,M,,M,,*6B
06/18/2015	13:04:50.554	$GPGGA,130451,2542.9723,N,07918.4762,W,1,10,1.3,15,M,,M,,*6B
06/18/2015	13:04:51.674	$GPGGA,130452,2542.9722,N,07918.4761,W,1,10,1.3,14,M,,M,,*6B
06/18/2015	13:04:52.619	$GPGGA,130453,2542.9723,N,07918.4762,W,1,10,1.3,14,M,,M,,*68
06/18/2015	13:04:53.554	$GPGGA,130454,2542.9722,N,07918.4761,W,1,10,1.3,14,M,,M,,*6D
06/18/2015	13:04:54.574	$GPGGA,130455,2542.9724,N,07918.4760,W,1,10,1.3,14,M,,M,,*6B
06/18/2015	13:04:55.664	$GPGGA,130456,2542.9724,N,07918.4761,W,1,10,1.3,14,M,,M,,*69
06/18/2015	13:04:56.574	$GPGGA,130457,2542.9724,N,07918.4760,W,1,10,1.3,14,M,,M,,*69
06/18/2015	13:04:58.074	$GPGGA,130458,2542.9724,N,07918.4761,W,1,10,1.3,14,M,,M,,*67
06/18/2015	13:04:58.564	$GPGGA,130459,2542.9724,N,07918.4760,W,1,10,1.3,14,M,,M,,*67
06/18/2015	13:04:59.674	$GPGGA,130500,2542.9724,N,07918.4761,W,1,10,1.3,14,M,,M,,*6B
06/18/2015	13:05:00.534	$GPGGA,130501,2542.9724,N,07918.4759,W,1,10,1.3,14,M,,M,,*61
06/18/2015	13:05:01.625	$GPGGA,130502,2542.9726,N,07918.4761,W,1,10,1.3,14,M,,M,,*6B
06/18/2015	13:05:02.525	$GPGGA,130503,2542.9725,N,07918.4759,W,1,10,1.3,14,M,,M,,*62
06/18/2015	13:05:03.655	$GPGGA,130504,2542.9726,N,07918.4759,W,1,10,1.3,14,M,,M,,*66
06/18/2015	13:05:04.555	$GPGGA,130505,2542.9725,N,07918.4759,W,1,10,1.3,14,M,,M,,*64
06/18/2015	13:05:05.595	$GPGGA,130506,2542.9726,N,07918.4759,W,1,10,1.3,14,M,,M,,*64
06/18/2015	13:05:06.555	$GPGGA,130507,2542.9727,N,07918.4759,W,1,10,1.3,14,M,,M,,*64
06/18/2015	13:05:07.644	$GPGGA,130508,2542.9726,N,07918.4759,W,1,10,1.3,14,M,,M,,*6A
06/18/2015	13:05:08.514	$GPGGA,130509,2542.9727,N,07918.4759,W,1,10,1.3,14,M,,M,,*6A
06/18/2015	13:05:09.615	$GPGGA,130510,2542.9726,N,07918.4759,W,1,10,1.3,14,M,,M,,*63
06/18/2015	13:05:10.544	$GPGGA,130511,2542.9727,N,07918.4758,W,1,10,1.3,14,M,,M,,*62
06/18/2015	13:05:11.644	$GPGGA,130512,2542.9726,N,07918.4758,W,1,10,1.3,14,M,,M,,*60
06/18/2015	13:05:12.554	$GPGGA,130513,2542.9727,N,07918.4758,W,1,10,1.3,14,M,,M,,*60
06/18/2015	13:05:13.614	$GPGGA,130514,2542.9726,N,07918.4758,W,1,10,1.3,14,M,,M,,*66
06/18/2015	13:05:14.504	$GPGGA,130515,2542.9727,N,07918.4758,W,1,10,1.3,14,M,,M,,*66
06/18/2015	13:05:15.624	$GPGGA,130516,2542.9727,N,07918.4758,W,1,10,1.3,14,M,,M,,*65
06/18/2015	13:05:16.494	$GPGGA,130517,2542.9727,N,07918.4758,W,1,10,1.3,14,M,,M,,*64
06/18/2015	13:05:17.584	$GPGGA,130518,2542.9727,N,07918.4758,W,1,10,1.3,14,M,,M,,*6B
06/18/2015	13:05:18.545	$GPGGA,130519,2542.9727,N,07918.4758,W,1,10,1.3,14,M,,M,,*6A
06/18/2015	13:05:19.635	$GPGGA,130520,2542.9727,N,07918.4758,W,1,10,1.3,14,M,,M,,*60
06/18/2015	13:05:20.485	$GPGGA,130521,2542.9727,N,07918.4759,W,1,10,1.3,14,M,,M,,*60
06/18/2015	13:05:21.635	$GPGGA,130522,2542.9729,N,07918.4759,W,1,10,1.3,14,M,,M,,*6D
06/18/2015	13:05:22.585	$GPGGA,130523,2542.9728,N,07918.4759,W,1,10,1.3,14,M,,M,,*6D
06/18/2015	13:05:23.585	$GPGGA,130524,2542.9727,N,07918.4759,W,1,10,1.3,13,M,,M,,*62
06/18/2015	13:05:24.584	$GPGGA,130525,2542.9729,N,07918.4759,W,1,10,1.3,13,M,,M,,*6D
06/18/2015	13:05:25.614	$GPGGA,130526,2542.9728,N,07918.4759,W,1,10,1.3,13,M,,M,,*6F
06/18/2015	13:05:26.524	$GPGGA,130527,2542.9729,N,07918.4759,W,1,10,1.3,13,M,,M,,*6F
06/18/2015	13:05:27.604	$GPGGA,130528,2542.9728,N,07918.4759,W,1,10,1.3,13,M,,M,,*61
06/18/2015	13:05:28.584	$GPGGA,130529,2542.9729,N,07918.4759,W,1,10,1.3,13,M,,M,,*61
06/18/2015	13:05:29.584	$GPGGA,130530,2542.9730,N,07918.4759,W,1,10,1.3,13,M,,M,,*61
06/18/2015	13:05:30.514	$GPGGA,130531,2542.9729,N,07918.4759,W,1,10,1.3,13,M,,M,,*68
06/18/2015	13:05:31.634	$GPGGA,130532,2542.9730,N,07918.4759,W,1,10,1.3,13,M,,M,,*63
06/18/2015	13:05:32.564	$GPGGA,130533,2542.9729,N,07918.4759,W,1,10,1.3,13,M,,M,,*6A
06/18/2015	13:05:33.634	$GPGGA,130534,2542.9730,N,07918.4759,W,1,10,1.3,13,M,,M,,*65
06/18/2015	13:05:34.574	$GPGGA,130535,2542.9731,N,07918.4759,W,1,10,1.3,13,M,,M,,*65
06/18/2015	13:05:35.654	$GPGGA,130536,2542.9731,N,07918.4759,W,1,10,1.3,13,M,,M,,*66
06/18/2015	13:05:36.565	$GPGGA,130537,2542.9731,N,07918.4759,W,1,10,1.3,13,M,,M,,*67
06/18/2015	13:05:38.035	$GPGGA,130538,2542.9731,N,07918.4759,W,1,10,1.3,13,M,,M,,*68
06/18/2015	13:05:38.555	$GPGGA,130539,2542.9731,N,07918.4759,W,1,10,1.3,13,M,,M,,*69
06/18/2015	13:05:39.635	$GPGGA,130540,2542.9731,N,07918.4759,W,1,10,1.3,13,M,,M,,*67
06/18/2015	13:05:40.565	$GPGGA,130541,2542.9731,N,07918.4758,W,1,10,1.3,13,M,,M,,*67
06/18/2015	13:05:41.595	$GPGGA,130542,2542.9731,N,07918.4759,W,1,10,1.3,13,M,,M,,*65
06/18/2015	13:05:42.554	$GPGGA,130543,2542.9731,N,07918.4759,W,1,10,1.3,13,M,,M,,*64
06/18/2015	13:05:43.594	$GPGGA,130544,2542.9733,N,07918.4759,W,1,10,1.3,13,M,,M,,*61
06/18/2015	13:05:44.554	$GPGGA,130545,2542.9732,N,07918.4759,W,1,10,1.3,13,M,,M,,*61
06/18/2015	13:05:45.584	$GPGGA,130546,2542.9733,N,07918.4759,W,1,10,1.3,13,M,,M,,*63
06/18/2015	13:05:46.534	$GPGGA,130547,2542.9732,N,07918.4759,W,1,10,1.3,13,M,,M,,*63
06/18/2015	13:05:47.604	$GPGGA,130548,2542.9732,N,07918.4759,W,1,10,1.3,13,M,,M,,*6C
06/18/2015	13:05:48.534	$GPGGA,130549,2542.9733,N,07918.4759,W,1,10,1.3,13,M,,M,,*6C
06/18/2015	13:05:49.574	$GPGGA,130550,2542.9733,N,07918.4759,W,1,10,1.3,13,M,,M,,*64
06/18/2015	13:05:50.534	$GPGGA,130551,2542.9733,N,07918.4759,W,1,10,1.3,13,M,,M,,*65
06/18/2015	13:05:51.615	$GPGGA,130552,2542.9734,N,07918.4759,W,1,10,1.3,13,M,,M,,*61
06/18/2015	13:05:52.544	$GPGGA,130553,2542.9734,N,07918.4759,W,1,10,1.3,13,M,,M,,*60
06/18/2015	13:05:53.535	$GPGGA,130554,2542.9734,N,07918.4759,W,1,10,1.3,13,M,,M,,*67
06/18/2015	13:05:54.535	$GPGGA,130555,2542.9734,N,07918.4761,W,1,10,1.8,13,M,,M,,*66
06/18/2015	13:05:55.565	$GPGGA,130556,2542.9734,N,07918.4760,W,1,8,1.8,13,M,,M,,*5D
06/18/2015	13:05:56.535	$GPGGA,130557,2542.9734,N,07918.4761,W,1,8,1.8,13,M,,M,,*5D
06/18/2015	13:05:57.555	$GPGGA,130558,2542.9735,N,07918.4760,W,1,8,1.8,13,M,,M,,*52
06/18/2015	13:05:58.525	$GPGGA,130559,2542.9735,N,07918.4762,W,1,8,1.8,13,M,,M,,*51
06/18/2015	13:05:59.625	$GPGGA,130600,2542.9737,N,07918.4761,W,1,8,1.8,13,M,,M,,*5F
06/18/2015	13:06:00.526	$GPGGA,130601,2542.9736,N,07918.4760,W,1,8,1.6,13,M,,M,,*50
06/18/2015	13:06:01.574	$GPGGA,130602,2542.9738,N,07918.4761,W,1,9,1.6,13,M,,M,,*5D
06/18/2015	13:06:02.625	$GPGGA,130603,2542.9738,N,07918.4760,W,1,9,1.6,13,M,,M,,*5D
06/18/2015	13:06:03.584	$GPGGA,130604,2542.9738,N,07918.4761,W,1,9,1.6,13,M,,M,,*5B
06/18/2015	13:06:04.544	$GPGGA,130605,2542.9738,N,07918.4760,W,1,9,1.6,13,M,,M,,*5B
06/18/2015	13:06:05.615	$GPGGA,130606,2542.9738,N,07918.4761,W,1,9,1.6,13,M,,M,,*59
06/18/2015	13:06:06.504	$GPGGA,130607,2542.9740,N,07918.4760,W,1,9,1.6,13,M,,M,,*56
06/18/2015	13:06:07.634	$GPGGA,130608,2542.9740,N,07918.4760,W,1,9,1.6,13,M,,M,,*59
06/18/2015	13:06:08.518	$GPGGA,130609,2542.9739,N,07918.4761,W,1,9,1.6,13,M,,M,,*57
06/18/2015	13:06:09.484	$GPGGA,130610,2542.9740,N,07918.4762,W,1,9,1.6,13,M,,M,,*52
06/18/2015	13:06:10.604	$GPGGA,130611,2542.9742,N,07918.4760,W,1,9,1.6,13,M,,M,,*53
06/18/2015	13:06:11.505	$GPGGA,130612,2542.9742,N,07918.4760,W,1,9,1.6,13,M,,M,,*50
06/18/2015	13:06:12.575	$GPGGA,130613,2542.9739,N,07918.4758,W,1,9,1.3,13,M,,M,,*53
06/18/2015	13:06:13.585	$GPGGA,130614,2542.9738,N,07918.4756,W,1,10,1.3,13,M,,M,,*63
06/18/2015	13:06:14.575	$GPGGA,130615,2542.9738,N,07918.4754,W,1,10,1.3,13,M,,M,,*60
06/18/2015	13:06:15.515	$GPGGA,130616,2542.9738,N,07918.4754,W,1,10,1.3,13,M,,M,,*63
06/18/2015	13:06:16.485	$GPGGA,130617,2542.9738,N,07918.4756,W,1,10,1.9,13,M,,M,,*6A
06/18/2015	13:06:17.617	$GPGGA,130618,2542.9738,N,07918.4758,W,1,9,1.6,13,M,,M,,*5C
06/18/2015	13:06:18.574	$GPGGA,130619,2542.9736,N,07918.4754,W,1,9,1.6,13,M,,M,,*5F
06/18/2015	13:06:19.594	$GPGGA,130620,2542.9735,N,07918.4755,W,1,10,1.3,13,M,,M,,*6A
06/18/2015	13:06:20.574	$GPGGA,130621,2542.9734,N,07918.4756,W,1,10,1.3,13,M,,M,,*69
06/18/2015	13:06:21.584	$GPGGA,130622,2542.9734,N,07918.4756,W,1,10,1.3,14,M,,M,,*6D
06/18/2015	13:06:22.564	$GPGGA,130623,2542.9735,N,07918.4756,W,1,10,1.3,14,M,,M,,*6D
06/18/2015	13:06:23.584	$GPGGA,130624,2542.9734,N,07918.4756,W,1,9,1.5,14,M,,M,,*55
06/18/2015	13:06:24.564	$GPGGA,130625,2542.9734,N,07918.4755,W,1,9,1.5,14,M,,M,,*57
06/18/2015	13:06:25.574	$GPGGA,130626,2542.9734,N,07918.4755,W,1,10,1.3,14,M,,M,,*6A
06/18/2015	13:06:26.554	$GPGGA,130627,2542.9735,N,07918.4755,W,1,10,1.3,14,M,,M,,*6A
06/18/2015	13:06:27.594	$GPGGA,130628,2542.9735,N,07918.4755,W,1,10,1.3,14,M,,M,,*65
06/18/2015	13:06:28.555	$GPGGA,130629,2542.9734,N,07918.4755,W,1,10,1.3,14,M,,M,,*65
06/18/2015	13:06:29.535	$GPGGA,130630,2542.9735,N,07918.4756,W,1,10,1.3,15,M,,M,,*6E
06/18/2015	13:06:30.555	$GPGGA,130631,2542.9734,N,07918.4758,W,1,10,1.3,15,M,,M,,*60
06/18/2015	13:06:31.565	$GPGGA,130632,2542.9734,N,07918.4758,W,1,10,1.3,15,M,,M,,*63
06/18/2015	13:06:32.545	$GPGGA,130633,2542.9735,N,07918.4757,W,1,10,1.3,15,M,,M,,*6C
06/18/2015	13:06:33.565	$GPGGA,130634,2542.9735,N,07918.4757,W,1,9,1.5,15,M,,M,,*55
06/18/2015	13:06:34.544	$GPGGA,130635,2542.9738,N,07918.4757,W,1,9,1.5,15,M,,M,,*59
06/18/2015	13:06:35.574	$GPGGA,130636,2542.9738,N,07918.4756,W,1,9,1.5,15,M,,M,,*5B
06/18/2015	13:06:36.534	$GPGGA,130637,2542.9738,N,07918.4756,W,1,9,1.5,15,M,,M,,*5A
06/18/2015	13:06:37.524	$GPGGA,130638,2542.9738,N,07918.4755,W,1,9,1.5,15,M,,M,,*56
06/18/2015	13:06:38.534	$GPGGA,130639,2542.9740,N,07918.4755,W,1,9,1.5,15,M,,M,,*58
06/18/2015	13:06:39.534	$GPGGA,130640,2542.9738,N,07918.4758,W,1,9,1.5,15,M,,M,,*54
06/18/2015	13:06:40.534	$GPGGA,130641,2542.9738,N,07918.4757,W,1,9,1.3,15,M,,M,,*5C
06/18/2015	13:06:41.515	$GPGGA,130642,2542.9738,N,07918.4758,W,1,10,1.3,15,M,,M,,*68
06/18/2015	13:06:42.644	$GPGGA,130643,2542.9738,N,07918.4758,W,1,10,1.3,15,M,,M,,*69
06/18/2015	13:06:43.654	$GPGGA,130644,2542.9738,N,07918.4758,W,1,10,1.3,15,M,,M,,*6E
06/18/2015	13:06:44.644	$GPGGA,130645,2542.9738,N,07918.4759,W,1,10,1.3,15,M,,M,,*6E
06/18/2015	13:06:45.634	$GPGGA,130646,2542.9738,N,07918.4759,W,1,10,1.3,15,M,,M,,*6D
06/18/2015	13:06:46.515	$GPGGA,130647,2542.9740,N,07918.4761,W,1,10,1.3,15,M,,M,,*68
06/18/2015	13:06:47.555	$GPGGA,130648,2542.9739,N,07918.4760,W,1,10,1.3,15,M,,M,,*68
06/18/2015	13:06:48.505	$GPGGA,130649,2542.9740,N,07918.4761,W,1,10,1.3,15,M,,M,,*66
06/18/2015	13:06:49.516	$GPGGA,130650,2542.9739,N,07918.4760,W,1,10,1.3,15,M,,M,,*61
06/18/2015	13:06:50.495	$GPGGA,130651,2542.9741,N,07918.4762,W,1,10,1.3,15,M,,M,,*6D
06/18/2015	13:06:51.535	$GPGGA,130652,2542.9740,N,07918.4761,W,1,10,1.3,15,M,,M,,*6C
06/18/2015	13:06:52.514	$GPGGA,130653,2542.9741,N,07918.4762,W,1,10,1.3,15,M,,M,,*6F
06/18/2015	13:06:53.624	$GPGGA,130654,2542.9742,N,07918.4761,W,1,10,1.3,15,M,,M,,*68
06/18/2015	13:06:54.518	$GPGGA,130655,2542.9742,N,07918.4762,W,1,10,1.3,15,M,,M,,*6A
06/18/2015	13:06:55.604	$GPGGA,130656,2542.9742,N,07918.4762,W,1,10,1.3,15,M,,M,,*69
06/18/2015	13:06:56.504	$GPGGA,130657,2542.9744,N,07918.4761,W,1,10,1.3,15,M,,M,,*6D
06/18/2015	13:06:57.615	$GPGGA,130658,2542.9743,N,07918.4762,W,1,10,1.3,15,M,,M,,*66
06/18/2015	13:06:58.504	$GPGGA,130659,2542.9745,N,07918.4761,W,1,10,1.3,15,M,,M,,*62
06/18/2015	13:06:59.554	$GPGGA,130700,2542.9744,N,07918.4762,W,1,10,1.3,15,M,,M,,*6D
06/18/2015	13:07:00.575	$GPGGA,130701,2542.9745,N,07918.4762,W,1,10,1.4,15,M,,M,,*6A
06/18/2015	13:07:01.594	$GPGGA,130702,2542.9745,N,07918.4765,W,1,9,1.4,15,M,,M,,*56
06/18/2015	13:07:02.574	$GPGGA,130703,2542.9745,N,07918.4767,W,1,9,1.3,15,M,,M,,*52
06/18/2015	13:07:03.495	$GPGGA,130704,2542.9747,N,07918.4769,W,1,10,1.3,15,M,,M,,*61
06/18/2015	13:07:04.575	$GPGGA,130705,2542.9748,N,07918.4770,W,1,10,1.3,15,M,,M,,*67
06/18/2015	13:07:05.575	$GPGGA,130706,2542.9749,N,07918.4772,W,1,10,1.3,15,M,,M,,*67
06/18/2015	13:07:06.575	$GPGGA,130707,2542.9749,N,07918.4772,W,1,10,1.3,15,M,,M,,*66
06/18/2015	13:07:07.585	$GPGGA,130708,2542.9749,N,07918.4773,W,1,10,1.3,15,M,,M,,*68
06/18/2015	13:07:08.555	$GPGGA,130709,2542.9749,N,07918.4774,W,1,10,1.3,15,M,,M,,*6E
06/18/2015	13:07:09.594	$GPGGA,130710,2542.9749,N,07918.4776,W,1,10,1.3,15,M,,M,,*64
06/18/2015	13:07:10.564	$GPGGA,130711,2542.9751,N,07918.4776,W,1,10,1.3,15,M,,M,,*6C
06/18/2015	13:07:11.594	$GPGGA,130712,2542.9750,N,07918.4776,W,1,10,1.3,15,M,,M,,*6E
06/18/2015	13:07:12.564	$GPGGA,130713,2542.9752,N,07918.4776,W,1,10,1.3,15,M,,M,,*6D
06/18/2015	13:07:13.574	$GPGGA,130714,2542.9751,N,07918.4777,W,1,10,1.3,15,M,,M,,*68
06/18/2015	13:07:14.554	$GPGGA,130715,2542.9753,N,07918.4776,W,1,10,1.3,15,M,,M,,*6A
06/18/2015	13:07:15.584	$GPGGA,130716,2542.9753,N,07918.4776,W,1,10,1.3,15,M,,M,,*69
06/18/2015	13:07:16.554	$GPGGA,130717,2542.9753,N,07918.4776,W,1,10,1.3,15,M,,M,,*68
06/18/2015	13:07:17.574	$GPGGA,130718,2542.9753,N,07918.4777,W,1,10,1.3,15,M,,M,,*66
06/18/2015	13:07:18.544	$GPGGA,130719,2542.9753,N,07918.4777,W,1,10,1.3,15,M,,M,,*67
06/18/2015	13:07:19.574	$GPGGA,130720,2542.9753,N,07918.4777,W,1,10,1.3,15,M,,M,,*6D
06/18/2015	13:07:20.554	$GPGGA,130721,2542.9755,N,07918.4776,W,1,10,1.3,15,M,,M,,*6B
06/18/2015	13:07:21.535	$GPGGA,130722,2542.9754,N,07918.4777,W,1,10,1.3,15,M,,M,,*68
06/18/2015	13:07:22.545	$GPGGA,130723,2542.9756,N,07918.4777,W,1,10,1.3,15,M,,M,,*6B
06/18/2015	13:07:23.545	$GPGGA,130724,2542.9755,N,07918.4779,W,1,10,1.3,15,M,,M,,*61
06/18/2015	13:07:24.535	$GPGGA,130725,2542.9756,N,07918.4778,W,1,10,1.3,15,M,,M,,*62
06/18/2015	13:07:25.565	$GPGGA,130726,2542.9755,N,07918.4779,W,1,10,1.3,15,M,,M,,*63
06/18/2015	13:07:26.535	$GPGGA,130727,2542.9756,N,07918.4778,W,1,10,1.3,15,M,,M,,*60
06/18/2015	13:07:27.544	$GPGGA,130728,2542.9756,N,07918.4777,W,1,10,1.3,15,M,,M,,*60
06/18/2015	13:07:28.534	$GPGGA,130729,2542.9758,N,07918.4776,W,1,10,1.4,15,M,,M,,*69
06/18/2015	13:07:29.518	$GPGGA,130730,2542.9757,N,07918.4775,W,1,10,1.3,15,M,,M,,*6A
06/18/2015	13:07:30.524	$GPGGA,130731,2542.9758,N,07918.4776,W,1,10,1.3,15,M,,M,,*67
06/18/2015	13:07:31.524	$GPGGA,130732,2542.9759,N,07918.4775,W,1,10,1.3,15,M,,M,,*66
06/18/2015	13:07:32.608	$GPGGA,130733,2542.9758,N,07918.4774,W,1,10,1.4,15,M,,M,,*60
06/18/2015	13:07:33.514	$GPGGA,130734,2542.9760,N,07918.4774,W,1,10,1.3,15,M,,M,,*6B
06/18/2015	13:07:34.634	$GPGGA,130735,2542.9760,N,07918.4774,W,1,10,1.3,15,M,,M,,*6A
06/18/2015	13:07:35.524	$GPGGA,130736,2542.9760,N,07918.4776,W,1,10,1.3,15,M,,M,,*6B
06/18/2015	13:07:36.494	$GPGGA,130737,2542.9760,N,07918.4775,W,1,10,1.3,15,M,,M,,*69
06/18/2015	13:07:37.594	$GPGGA,130738,2542.9760,N,07918.4776,W,1,10,1.3,15,M,,M,,*65
06/18/2015	13:07:38.529	$GPGGA,130739,2542.9762,N,07918.4776,W,1,10,1.3,15,M,,M,,*66
06/18/2015	13:07:39.645	$GPGGA,130740,2542.9761,N,07918.4776,W,1,10,1.3,15,M,,M,,*6B
06/18/2015	13:07:40.505	$GPGGA,130741,2542.9762,N,07918.4776,W,1,10,1.3,15,M,,M,,*69
06/18/2015	13:07:41.515	$GPGGA,130742,2542.9761,N,07918.4776,W,1,10,1.3,15,M,,M,,*69
06/18/2015	13:07:42.505	$GPGGA,130743,2542.9762,N,07918.4776,W,1,10,1.3,15,M,,M,,*6B
06/18/2015	13:07:43.525	$GPGGA,130744,2542.9761,N,07918.4776,W,1,10,1.3,15,M,,M,,*6F
06/18/2015	13:07:44.584	$GPGGA,130745,2542.9762,N,07918.4776,W,1,10,1.4,15,M,,M,,*6A
06/18/2015	13:07:45.594	$GPGGA,130746,2542.9763,N,07918.4776,W,1,10,1.3,15,M,,M,,*6F
06/18/2015	13:07:46.574	$GPGGA,130747,2542.9762,N,07918.4775,W,1,10,1.3,15,M,,M,,*6C
06/18/2015	13:07:47.634	$GPGGA,130748,2542.9763,N,07918.4776,W,1,10,1.3,15,M,,M,,*61
06/18/2015	13:07:48.584	$GPGGA,130749,2542.9762,N,07918.4775,W,1,10,1.3,15,M,,M,,*62
06/18/2015	13:07:49.606	$GPGGA,130750,2542.9763,N,07918.4776,W,1,10,1.3,15,M,,M,,*68
06/18/2015	13:07:50.564	$GPGGA,130751,2542.9763,N,07918.4775,W,1,10,1.3,15,M,,M,,*6A
06/18/2015	13:07:51.614	$GPGGA,130752,2542.9763,N,07918.4774,W,1,10,1.3,15,M,,M,,*68
06/18/2015	13:07:52.574	$GPGGA,130753,2542.9763,N,07918.4774,W,1,10,1.3,15,M,,M,,*69
06/18/2015	13:07:53.594	$GPGGA,130754,2542.9763,N,07918.4773,W,1,10,1.3,15,M,,M,,*69
06/18/2015	13:07:54.564	$GPGGA,130755,2542.9764,N,07918.4774,W,1,10,1.4,15,M,,M,,*6F
06/18/2015	13:07:55.616	$GPGGA,130756,2542.9764,N,07918.4774,W,1,10,1.3,15,M,,M,,*6B
06/18/2015	13:07:56.555	$GPGGA,130757,2542.9764,N,07918.4776,W,1,10,1.3,15,M,,M,,*68
06/18/2015	13:07:57.565	$GPGGA,130758,2542.9764,N,07918.4775,W,1,10,1.3,15,M,,M,,*64
06/18/2015	13:07:58.565	$GPGGA,130759,2542.9766,N,07918.4777,W,1,10,1.4,15,M,,M,,*62
06/18/2015	13:07:59.605	$GPGGA,130800,2542.9765,N,07918.4777,W,1,10,1.3,15,M,,M,,*65
06/18/2015	13:08:00.555	$GPGGA,130801,2542.9766,N,07918.4776,W,1,10,1.3,15,M,,M,,*66
06/18/2015	13:08:01.565	$GPGGA,130802,2542.9765,N,07918.4776,W,1,10,1.3,15,M,,M,,*66
06/18/2015	13:08:02.544	$GPGGA,130803,2542.9766,N,07918.4775,W,1,10,1.3,15,M,,M,,*67
06/18/2015	13:08:03.574	$GPGGA,130804,2542.9765,N,07918.4774,W,1,9,1.4,15,M,,M,,*5D
06/18/2015	13:08:04.544	$GPGGA,130805,2542.9766,N,07918.4774,W,1,9,1.4,15,M,,M,,*5F
06/18/2015	13:08:05.584	$GPGGA,130806,2542.9765,N,07918.4776,W,1,10,1.3,15,M,,M,,*62
06/18/2015	13:08:06.534	$GPGGA,130807,2542.9766,N,07918.4776,W,1,10,1.3,15,M,,M,,*60
06/18/2015	13:08:07.574	$GPGGA,130808,2542.9765,N,07918.4776,W,1,10,1.3,15,M,,M,,*6C
06/18/2015	13:08:08.524	$GPGGA,130809,2542.9767,N,07918.4774,W,1,10,1.4,15,M,,M,,*6A
06/18/2015	13:08:09.554	$GPGGA,130810,2542.9767,N,07918.4776,W,1,9,1.4,15,M,,M,,*58
06/18/2015	13:08:10.514	$GPGGA,130811,2542.9767,N,07918.4779,W,1,9,1.3,15,M,,M,,*51
06/18/2015	13:08:11.554	$GPGGA,130812,2542.9765,N,07918.4783,W,1,10,1.3,15,M,,M,,*6D
06/18/2015	13:08:12.514	$GPGGA,130813,2542.9767,N,07918.4780,W,1,10,1.3,15,M,,M,,*6D
06/18/2015	13:08:13.544	$GPGGA,130814,2542.9767,N,07918.4779,W,1,9,1.4,15,M,,M,,*53
06/18/2015	13:08:14.504	$GPGGA,130815,2542.9767,N,07918.4778,W,1,9,1.3,15,M,,M,,*54
06/18/2015	13:08:15.534	$GPGGA,130816,2542.9765,N,07918.4776,W,1,9,1.4,15,M,,M,,*5C
06/18/2015	13:08:16.505	$GPGGA,130817,2542.9767,N,07918.4775,W,1,9,1.4,15,M,,M,,*5C
06/18/2015	13:08:17.504	$GPGGA,130818,2542.9767,N,07918.4774,W,1,9,1.4,15,M,,M,,*52
06/18/2015	13:08:18.494	$GPGGA,130819,2542.9767,N,07918.4774,W,1,9,1.3,15,M,,M,,*54
06/18/2015	13:08:19.513	$GPGGA,130820,2542.9767,N,07918.4772,W,1,9,1.4,15,M,,M,,*5F
06/18/2015	13:08:20.613	$GPGGA,130821,2542.9767,N,07918.4771,W,1,9,1.4,15,M,,M,,*5D
06/18/2015	13:08:21.493	$GPGGA,130822,2542.9767,N,07918.4772,W,1,10,1.3,15,M,,M,,*62
06/18/2015	13:08:22.503	$GPGGA,130823,2542.9767,N,07918.4771,W,1,10,1.4,15,M,,M,,*67
06/18/2015	13:08:23.614	$GPGGA,130824,2542.9767,N,07918.4770,W,1,9,1.4,14,M,,M,,*58
06/18/2015	13:08:25.774	$GPGGA,130826,2542.9767,N,07918.4770,W,1,10,1.3,14,M,,M,,*65
06/18/2015	13:08:26.607	$GPGGA,130827,2542.9767,N,07918.4770,W,1,10,1.4,14,M,,M,,*63
06/18/2015	13:08:27.624	$GPGGA,130828,2542.9767,N,07918.4770,W,1,9,1.4,14,M,,M,,*54
06/18/2015	13:08:28.575	$GPGGA,130829,2542.9767,N,07918.4769,W,1,9,1.4,14,M,,M,,*5D
06/18/2015	13:08:29.484	$GPGGA,130830,2542.9767,N,07918.4772,W,1,10,1.3,14,M,,M,,*60
06/18/2015	13:08:30.574	$GPGGA,130831,2542.9767,N,07918.4776,W,1,10,1.3,14,M,,M,,*65
06/18/2015	13:08:31.594	$GPGGA,130832,2542.9767,N,07918.4775,W,1,10,1.3,14,M,,M,,*65
06/18/2015	13:08:32.584	$GPGGA,130833,2542.9769,N,07918.4774,W,1,10,1.4,14,M,,M,,*6C
06/18/2015	13:08:33.474	$GPGGA,130834,2542.9767,N,07918.4776,W,1,10,1.3,14,M,,M,,*60
06/18/2015	13:08:34.564	$GPGGA,130835,2542.9767,N,07918.4775,W,1,10,1.3,14,M,,M,,*62
06/18/2015	13:08:35.574	$GPGGA,130836,2542.9767,N,07918.4773,W,1,9,1.4,14,M,,M,,*58
06/18/2015	13:08:36.564	$GPGGA,130837,2542.9769,N,07918.4774,W,1,9,1.4,14,M,,M,,*50
06/18/2015	13:08:37.593	$GPGGA,130838,2542.9768,N,07918.4774,W,1,10,1.3,14,M,,M,,*61
06/18/2015	13:08:38.563	$GPGGA,130839,2542.9769,N,07918.4773,W,1,10,1.3,14,M,,M,,*66
06/18/2015	13:08:39.573	$GPGGA,130840,2542.9768,N,07918.4773,W,1,9,1.4,14,M,,M,,*56
06/18/2015	13:08:40.543	$GPGGA,130841,2542.9770,N,07918.4773,W,1,9,1.4,14,M,,M,,*5E
06/18/2015	13:08:41.574	$GPGGA,130842,2542.9769,N,07918.4773,W,1,10,1.3,14,M,,M,,*6A
06/18/2015	13:08:42.554	$GPGGA,130843,2542.9770,N,07918.4771,W,1,10,1.3,14,M,,M,,*61
06/18/2015	13:08:43.594	$GPGGA,130844,2542.9769,N,07918.4772,W,1,10,1.3,14,M,,M,,*6D
06/18/2015	13:08:44.554	$GPGGA,130845,2542.9770,N,07918.4772,W,1,10,1.3,14,M,,M,,*64
06/18/2015	13:08:45.554	$GPGGA,130846,2542.9769,N,07918.4772,W,1,10,1.3,14,M,,M,,*6F
06/18/2015	13:08:46.554	$GPGGA,130847,2542.9771,N,07918.4772,W,1,10,1.3,13,M,,M,,*60
06/18/2015	13:08:47.606	$GPGGA,130848,2542.9771,N,07918.4773,W,1,10,1.3,13,M,,M,,*6E
06/18/2015	13:08:48.544	$GPGGA,130849,2542.9769,N,07918.4774,W,1,10,1.3,13,M,,M,,*61
06/18/2015	13:08:49.534	$GPGGA,130850,2542.9771,N,07918.4773,W,1,10,1.3,13,M,,M,,*67
06/18/2015	13:08:50.544	$GPGGA,130851,2542.9771,N,07918.4774,W,1,10,1.3,13,M,,M,,*61
06/18/2015	13:08:51.564	$GPGGA,130852,2542.9771,N,07918.4773,W,1,10,1.3,13,M,,M,,*65
06/18/2015	13:08:52.534	$GPGGA,130853,2542.9771,N,07918.4774,W,1,10,1.3,13,M,,M,,*63
06/18/2015	13:08:53.554	$GPGGA,130854,2542.9771,N,07918.4774,W,1,10,1.3,13,M,,M,,*64
06/18/2015	13:08:54.523	$GPGGA,130855,2542.9771,N,07918.4773,W,1,10,1.3,13,M,,M,,*62
06/18/2015	13:08:55.543	$GPGGA,130856,2542.9773,N,07918.4774,W,1,10,1.3,13,M,,M,,*64
06/18/2015	13:08:56.533	$GPGGA,130857,2542.9771,N,07918.4774,W,1,10,1.3,13,M,,M,,*67
06/18/2015	13:08:57.513	$GPGGA,130858,2542.9773,N,07918.4773,W,1,10,1.3,13,M,,M,,*6D
06/18/2015	13:08:58.534	$GPGGA,130859,2542.9774,N,07918.4773,W,1,10,1.3,13,M,,M,,*6B
06/18/2015	13:08:59.584	$GPGGA,130900,2542.9772,N,07918.4773,W,1,10,1.3,13,M,,M,,*60
06/18/2015	13:09:00.514	$GPGGA,130901,2542.9774,N,07918.4772,W,1,10,1.3,13,M,,M,,*66
06/18/2015	13:09:01.534	$GPGGA,130902,2542.9773,N,07918.4771,W,1,10,1.3,13,M,,M,,*61
06/18/2015	13:09:02.504	$GPGGA,130903,2542.9774,N,07918.4772,W,1,10,1.3,13,M,,M,,*64
06/18/2015	13:09:03.534	$GPGGA,130904,2542.9774,N,07918.4771,W,1,10,1.3,13,M,,M,,*60
06/18/2015	13:09:04.504	$GPGGA,130905,2542.9774,N,07918.4772,W,1,10,1.3,13,M,,M,,*62
06/18/2015	13:09:05.524	$GPGGA,130906,2542.9774,N,07918.4771,W,1,10,1.3,13,M,,M,,*62
06/18/2015	13:09:06.514	$GPGGA,130907,2542.9774,N,07918.4772,W,1,10,1.3,13,M,,M,,*60
06/18/2015	13:09:07.534	$GPGGA,130908,2542.9774,N,07918.4771,W,1,10,1.3,13,M,,M,,*6C
06/18/2015	13:09:08.624	$GPGGA,130909,2542.9776,N,07918.4772,W,1,10,1.3,12,M,,M,,*6D
06/18/2015	13:09:09.494	$GPGGA,130910,2542.9775,N,07918.4770,W,1,10,1.3,12,M,,M,,*64
06/18/2015	13:09:10.494	$GPGGA,130911,2542.9776,N,07918.4772,W,1,10,1.3,12,M,,M,,*64
06/18/2015	13:09:11.654	$GPGGA,130912,2542.9775,N,07918.4770,W,1,10,1.3,12,M,,M,,*66
06/18/2015	13:09:12.503	$GPGGA,130913,2542.9777,N,07918.4770,W,1,10,1.3,12,M,,M,,*65
06/18/2015	13:09:13.623	$GPGGA,130914,2542.9776,N,07918.4769,W,1,10,1.3,12,M,,M,,*6B
06/18/2015	13:09:14.583	$GPGGA,130915,2542.9778,N,07918.4769,W,1,10,1.3,12,M,,M,,*64
06/18/2015	13:09:15.513	$GPGGA,130916,2542.9778,N,07918.4770,W,1,10,1.3,12,M,,M,,*6F
06/18/2015	13:09:16.584	$GPGGA,130917,2542.9778,N,07918.4769,W,1,10,1.3,12,M,,M,,*66
06/18/2015	13:09:17.604	$GPGGA,130918,2542.9778,N,07918.4768,W,1,10,1.3,12,M,,M,,*68
06/18/2015	13:09:18.814	$GPGGA,130919,2542.9778,N,07918.4767,W,1,10,1.3,12,M,,M,,*66
06/18/2015	13:09:19.654	$GPGGA,130920,2542.9778,N,07918.4769,W,1,10,1.3,12,M,,M,,*62
06/18/2015	13:09:20.484	$GPGGA,130921,2542.9778,N,07918.4767,W,1,10,1.3,12,M,,M,,*6D
06/18/2015	13:09:21.607	$GPGGA,130922,2542.9778,N,07918.4765,W,1,10,1.4,12,M,,M,,*6B
06/18/2015	13:09:22.574	$GPGGA,130923,2542.9778,N,07918.4764,W,1,10,1.3,12,M,,M,,*6C
06/18/2015	13:09:23.594	$GPGGA,130924,2542.9778,N,07918.4763,W,1,10,1.4,12,M,,M,,*6B
06/18/2015	13:09:24.564	$GPGGA,130925,2542.9778,N,07918.4765,W,1,10,1.3,12,M,,M,,*6B
06/18/2015	13:09:25.594	$GPGGA,130926,2542.9778,N,07918.4763,W,1,10,1.4,12,M,,M,,*69
06/18/2015	13:09:26.564	$GPGGA,130927,2542.9778,N,07918.4762,W,1,10,1.3,12,M,,M,,*6E
06/18/2015	13:09:27.594	$GPGGA,130928,2542.9780,N,07918.4761,W,1,10,1.4,12,M,,M,,*62
06/18/2015	13:09:28.564	$GPGGA,130929,2542.9781,N,07918.4758,W,1,10,1.7,12,M,,M,,*6B
06/18/2015	13:09:29.543	$GPGGA,130930,2542.9779,N,07918.4762,W,1,8,1.3,12,M,,M,,*50
06/18/2015	13:09:30.553	$GPGGA,130931,2542.9778,N,07918.4763,W,1,8,1.4,12,M,,M,,*56
06/18/2015	13:09:31.573	$GPGGA,130932,2542.9778,N,07918.4763,W,1,9,1.4,12,M,,M,,*54
06/18/2015	13:09:32.553	$GPGGA,130933,2542.9778,N,07918.4765,W,1,9,1.5,12,M,,M,,*52
06/18/2015	13:09:34.574	$GPGGA,130935,2542.9781,N,07918.4763,W,1,8,1.4,12,M,,M,,*54
06/18/2015	13:09:35.584	$GPGGA,130936,2542.9781,N,07918.4763,W,1,9,1.4,12,M,,M,,*56
06/18/2015	13:09:36.534	$GPGGA,130937,2542.9781,N,07918.4763,W,1,9,1.4,12,M,,M,,*57
06/18/2015	13:09:37.554	$GPGGA,130938,2542.9782,N,07918.4762,W,1,9,1.4,13,M,,M,,*5B
06/18/2015	13:09:38.534	$GPGGA,130939,2542.9784,N,07918.4762,W,1,9,1.4,13,M,,M,,*5C
06/18/2015	13:09:39.594	$GPGGA,130940,2542.9783,N,07918.4762,W,1,9,1.4,13,M,,M,,*55
06/18/2015	13:09:40.534	$GPGGA,130941,2542.9784,N,07918.4762,W,1,9,1.3,13,M,,M,,*54
06/18/2015	13:09:41.554	$GPGGA,130942,2542.9785,N,07918.4762,W,1,10,1.3,13,M,,M,,*6E
06/18/2015	13:09:42.534	$GPGGA,130943,2542.9785,N,07918.4761,W,1,10,1.3,13,M,,M,,*6C
06/18/2015	13:09:43.554	$GPGGA,130944,2542.9785,N,07918.4760,W,1,10,1.3,13,M,,M,,*6A
06/18/2015	13:09:44.534	$GPGGA,130945,2542.9785,N,07918.4761,W,1,10,1.4,13,M,,M,,*6D
06/18/2015	13:09:45.514	$GPGGA,130946,2542.9785,N,07918.4760,W,1,9,1.4,13,M,,M,,*57
06/18/2015	13:09:46.514	$GPGGA,130947,2542.9785,N,07918.4759,W,1,9,1.3,13,M,,M,,*5B
06/18/2015	13:09:47.543	$GPGGA,130948,2542.9787,N,07918.4761,W,1,10,1.3,13,M,,M,,*65
06/18/2015	13:09:48.533	$GPGGA,130949,2542.9786,N,07918.4762,W,1,10,1.3,13,M,,M,,*66
06/18/2015	13:09:49.513	$GPGGA,130950,2542.9788,N,07918.4763,W,1,10,1.3,14,M,,M,,*66
06/18/2015	13:09:50.623	$GPGGA,130951,2542.9789,N,07918.4765,W,1,10,1.3,14,M,,M,,*60
06/18/2015	13:09:51.554	$GPGGA,130952,2542.9789,N,07918.4766,W,1,10,1.3,14,M,,M,,*60
06/18/2015	13:09:52.524	$GPGGA,130953,2542.9789,N,07918.4765,W,1,10,1.4,14,M,,M,,*65
06/18/2015	13:09:53.494	$GPGGA,130954,2542.9791,N,07918.4765,W,1,9,1.4,14,M,,M,,*53
06/18/2015	13:09:54.614	$GPGGA,130955,2542.9792,N,07918.4766,W,1,9,1.4,14,M,,M,,*52
06/18/2015	13:09:55.634	$GPGGA,130956,2542.9791,N,07918.4767,W,1,9,1.3,14,M,,M,,*54
06/18/2015	13:09:56.514	$GPGGA,130957,2542.9792,N,07918.4767,W,1,9,1.3,14,M,,M,,*56
06/18/2015	13:09:57.484	$GPGGA,130958,2542.9794,N,07918.4767,W,1,10,1.3,14,M,,M,,*67
06/18/2015	13:09:58.524	$GPGGA,130959,2542.9795,N,07918.4767,W,1,10,1.3,14,M,,M,,*67
06/18/2015	13:09:59.554	$GPGGA,131000,2542.9796,N,07918.4767,W,1,10,1.3,14,M,,M,,*60
06/18/2015	13:10:00.614	$GPGGA,131001,2542.9796,N,07918.4767,W,1,10,1.3,14,M,,M,,*61
06/18/2015	13:10:01.594	$GPGGA,131002,2542.9796,N,07918.4767,W,1,10,1.3,14,M,,M,,*62
06/18/2015	13:10:02.514	$GPGGA,131003,2542.9798,N,07918.4766,W,1,10,1.5,14,M,,M,,*6A
06/18/2015	13:10:03.534	$GPGGA,131004,2542.9799,N,07918.4765,W,1,8,2.1,14,M,,M,,*51
06/18/2015	13:10:04.573	$GPGGA,131005,2542.9796,N,07918.4761,W,1,8,2.1,14,M,,M,,*5B
06/18/2015	13:10:05.503	$GPGGA,131006,2542.9799,N,07918.4762,W,1,8,1.5,14,M,,M,,*53
06/18/2015	13:10:06.493	$GPGGA,131007,2542.9799,N,07918.4760,W,1,8,1.4,14,M,,M,,*51
06/18/2015	13:10:07.593	$GPGGA,131008,2542.9800,N,07918.4762,W,1,9,1.5,14,M,,M,,*53
06/18/2015	13:10:08.484	$GPGGA,131009,2542.9802,N,07918.4762,W,1,9,1.5,14,M,,M,,*50
06/18/2015	13:10:09.564	$GPGGA,131010,2542.9803,N,07918.4763,W,1,9,1.3,14,M,,M,,*5E
06/18/2015	13:10:10.564	$GPGGA,131011,2542.9803,N,07918.4763,W,1,9,1.3,14,M,,M,,*5F
06/18/2015	13:10:11.605	$GPGGA,131012,2542.9803,N,07918.4763,W,1,10,1.3,14,M,,M,,*64
06/18/2015	13:10:12.554	$GPGGA,131013,2542.9805,N,07918.4765,W,1,10,1.3,14,M,,M,,*65
06/18/2015	13:10:13.575	$GPGGA,131014,2542.9804,N,07918.4763,W,1,10,1.3,14,M,,M,,*65
06/18/2015	13:10:14.554	$GPGGA,131015,2542.9806,N,07918.4761,W,1,10,1.4,14,M,,M,,*63
06/18/2015	13:10:15.584	$GPGGA,131016,2542.9805,N,07918.4762,W,1,9,1.4,14,M,,M,,*58
06/18/2015	13:10:16.554	$GPGGA,131017,2542.9804,N,07918.4760,W,1,9,1.4,15,M,,M,,*5B
06/18/2015	13:10:17.574	$GPGGA,131018,2542.9806,N,07918.4759,W,1,8,1.5,15,M,,M,,*5C
06/18/2015	13:10:18.544	$GPGGA,131019,2542.9805,N,07918.4758,W,1,8,1.4,15,M,,M,,*5E
06/18/2015	13:10:19.584	$GPGGA,131020,2542.9807,N,07918.4758,W,1,9,1.4,15,M,,M,,*57
06/18/2015	13:10:20.534	$GPGGA,131021,2542.9807,N,07918.4756,W,1,9,1.4,15,M,,M,,*58
06/18/2015	13:10:21.564	$GPGGA,131022,2542.9807,N,07918.4755,W,1,10,1.3,15,M,,M,,*67
06/18/2015	13:10:22.543	$GPGGA,131023,2542.9807,N,07918.4755,W,1,10,1.4,15,M,,M,,*61
06/18/2015	13:10:23.593	$GPGGA,131024,2542.9807,N,07918.4758,W,1,9,1.4,15,M,,M,,*53
06/18/2015	13:10:24.533	$GPGGA,131025,2542.9807,N,07918.4756,W,1,9,1.3,15,M,,M,,*5B
06/18/2015	13:10:25.553	$GPGGA,131026,2542.9807,N,07918.4758,W,1,9,1.4,15,M,,M,,*51
06/18/2015	13:10:26.524	$GPGGA,131027,2542.9807,N,07918.4757,W,1,9,1.5,15,M,,M,,*5E
06/18/2015	13:10:27.564	$GPGGA,131028,2542.9807,N,07918.4756,W,1,9,1.5,15,M,,M,,*50
06/18/2015	13:10:28.534	$GPGGA,131029,2542.9809,N,07918.4756,W,1,9,1.3,15,M,,M,,*59
06/18/2015	13:10:29.564	$GPGGA,131030,2542.9808,N,07918.4756,W,1,10,1.3,15,M,,M,,*68
06/18/2015	13:10:30.514	$GPGGA,131031,2542.9810,N,07918.4755,W,1,10,1.3,15,M,,M,,*63
06/18/2015	13:10:31.564	$GPGGA,131032,2542.9810,N,07918.4755,W,1,10,1.3,15,M,,M,,*60
06/18/2015	13:10:32.524	$GPGGA,131033,2542.9811,N,07918.4756,W,1,10,1.3,15,M,,M,,*63
06/18/2015	13:10:33.514	$GPGGA,131034,2542.9811,N,07918.4756,W,1,10,1.3,15,M,,M,,*64
06/18/2015	13:10:34.524	$GPGGA,131035,2542.9813,N,07918.4755,W,1,10,1.3,15,M,,M,,*64
06/18/2015	13:10:35.534	$GPGGA,131036,2542.9814,N,07918.4756,W,1,10,1.3,15,M,,M,,*63
06/18/2015	13:10:36.514	$GPGGA,131037,2542.9814,N,07918.4758,W,1,10,1.3,15,M,,M,,*6C
06/18/2015	13:10:37.494	$GPGGA,131038,2542.9814,N,07918.4756,W,1,10,1.3,15,M,,M,,*6D
06/18/2015	13:10:38.494	$GPGGA,131039,2542.9814,N,07918.4756,W,1,10,1.3,15,M,,M,,*6C
06/18/2015	13:10:39.533	$GPGGA,131040,2542.9814,N,07918.4756,W,1,10,1.3,15,M,,M,,*62
06/18/2015	13:10:40.593	$GPGGA,131041,2542.9814,N,07918.4758,W,1,10,1.3,15,M,,M,,*6D
06/18/2015	13:10:41.519	$GPGGA,131042,2542.9814,N,07918.4756,W,1,10,1.3,15,M,,M,,*60
06/18/2015	13:10:42.514	$GPGGA,131043,2542.9814,N,07918.4758,W,1,10,1.3,15,M,,M,,*6F
06/18/2015	13:10:43.635	$GPGGA,131044,2542.9814,N,07918.4757,W,1,10,1.3,15,M,,M,,*67
06/18/2015	13:10:44.508	$GPGGA,131045,2542.9814,N,07918.4758,W,1,10,1.3,15,M,,M,,*69
06/18/2015	13:10:45.514	$GPGGA,131046,2542.9814,N,07918.4757,W,1,10,1.3,15,M,,M,,*65
06/18/2015	13:10:46.584	$GPGGA,131047,2542.9814,N,07918.4758,W,1,10,1.3,15,M,,M,,*6B
06/18/2015	13:10:47.607	$GPGGA,131048,2542.9814,N,07918.4757,W,1,10,1.3,15,M,,M,,*6B
06/18/2015	13:10:48.494	$GPGGA,131049,2542.9814,N,07918.4758,W,1,10,1.3,15,M,,M,,*65
06/18/2015	13:10:49.584	$GPGGA,131050,2542.9814,N,07918.4757,W,1,10,1.3,15,M,,M,,*62
06/18/2015	13:10:50.584	$GPGGA,131051,2542.9812,N,07918.4758,W,1,10,1.3,15,M,,M,,*6A
06/18/2015	13:10:51.624	$GPGGA,131052,2542.9813,N,07918.4756,W,1,10,1.3,15,M,,M,,*66
06/18/2015	13:10:52.574	$GPGGA,131053,2542.9812,N,07918.4756,W,1,10,1.3,15,M,,M,,*66
06/18/2015	13:10:53.584	$GPGGA,131054,2542.9813,N,07918.4756,W,1,10,1.3,15,M,,M,,*60
06/18/2015	13:10:54.564	$GPGGA,131055,2542.9812,N,07918.4756,W,1,10,1.3,15,M,,M,,*60
06/18/2015	13:10:55.604	$GPGGA,131056,2542.9813,N,07918.4755,W,1,10,1.3,15,M,,M,,*61
06/18/2015	13:10:56.564	$GPGGA,131057,2542.9814,N,07918.4754,W,1,10,1.3,15,M,,M,,*66
06/18/2015	13:10:57.583	$GPGGA,131058,2542.9812,N,07918.4754,W,1,10,1.3,15,M,,M,,*6F
06/18/2015	13:10:58.553	$GPGGA,131059,2542.9814,N,07918.4754,W,1,10,1.3,15,M,,M,,*68
06/18/2015	13:10:59.603	$GPGGA,131100,2542.9814,N,07918.4753,W,1,10,1.3,15,M,,M,,*62
06/18/2015	13:11:00.563	$GPGGA,131101,2542.9814,N,07918.4752,W,1,10,1.3,15,M,,M,,*62
06/18/2015	13:11:01.554	$GPGGA,131102,2542.9814,N,07918.4754,W,1,9,1.4,15,M,,M,,*58
06/18/2015	13:11:02.554	$GPGGA,131103,2542.9814,N,07918.4756,W,1,9,1.3,15,M,,M,,*5C
06/18/2015	13:11:03.584	$GPGGA,131104,2542.9814,N,07918.4754,W,1,10,1.3,15,M,,M,,*61
06/18/2015	13:11:04.554	$GPGGA,131105,2542.9814,N,07918.4756,W,1,10,1.4,15,M,,M,,*65
06/18/2015	13:11:05.594	$GPGGA,131106,2542.9816,N,07918.4755,W,1,10,1.3,15,M,,M,,*60
06/18/2015	13:11:06.544	$GPGGA,131107,2542.9815,N,07918.4753,W,1,10,1.3,15,M,,M,,*64
06/18/2015	13:11:07.575	$GPGGA,131108,2542.9816,N,07918.4752,W,1,9,1.4,15,M,,M,,*56
06/18/2015	13:11:08.544	$GPGGA,131109,2542.9818,N,07918.4751,W,1,9,1.5,15,M,,M,,*5B
06/18/2015	13:11:09.544	$GPGGA,131110,2542.9818,N,07918.4750,W,1,9,1.4,15,M,,M,,*53
06/18/2015	13:11:10.534	$GPGGA,131111,2542.9820,N,07918.4754,W,1,9,1.5,15,M,,M,,*5C
06/18/2015	13:11:11.564	$GPGGA,131112,2542.9818,N,07918.4752,W,1,9,1.5,15,M,,M,,*52
06/18/2015	13:11:12.524	$GPGGA,131113,2542.9820,N,07918.4752,W,1,9,2.1,15,M,,M,,*5F
06/18/2015	13:11:13.544	$GPGGA,131114,2542.9821,N,07918.4752,W,1,8,2.1,15,M,,M,,*58
06/18/2015	13:11:14.533	$GPGGA,131115,2542.9823,N,07918.4751,W,1,8,2.1,15,M,,M,,*58
06/18/2015	13:11:15.563	$GPGGA,131116,2542.9821,N,07918.4751,W,1,9,1.4,15,M,,M,,*5E
06/18/2015	13:11:16.533	$GPGGA,131117,2542.9820,N,07918.4751,W,1,9,1.4,15,M,,M,,*5E
06/18/2015	13:11:17.533	$GPGGA,131118,2542.9821,N,07918.4750,W,1,10,1.3,15,M,,M,,*6E
06/18/2015	13:11:18.524	$GPGGA,131119,2542.9819,N,07918.4751,W,1,10,1.3,15,M,,M,,*65
06/18/2015	13:11:19.644	$GPGGA,131120,2542.9820,N,07918.4751,W,1,10,1.3,15,M,,M,,*65
06/18/2015	13:11:20.524	$GPGGA,131121,2542.9818,N,07918.4750,W,1,10,1.3,15,M,,M,,*6E
06/18/2015	13:11:21.515	$GPGGA,131122,2542.9818,N,07918.4749,W,1,9,1.4,15,M,,M,,*5A
06/18/2015	13:11:22.508	$GPGGA,131123,2542.9820,N,07918.4748,W,1,9,1.3,15,M,,M,,*56
06/18/2015	13:11:23.534	$GPGGA,131124,2542.9819,N,07918.4749,W,1,10,1.3,15,M,,M,,*62
06/18/2015	13:11:24.524	$GPGGA,131125,2542.9820,N,07918.4748,W,1,10,1.3,15,M,,M,,*68
06/18/2015	13:11:25.516	$GPGGA,131126,2542.9819,N,07918.4747,W,1,9,1.4,15,M,,M,,*51
06/18/2015	13:11:26.507	$GPGGA,131127,2542.9820,N,07918.4746,W,1,9,1.4,15,M,,M,,*5B
06/18/2015	13:11:27.506	$GPGGA,131128,2542.9821,N,07918.4747,W,1,9,1.4,15,M,,M,,*54
06/18/2015	13:11:28.504	$GPGGA,131129,2542.9820,N,07918.4745,W,1,9,1.4,15,M,,M,,*56
06/18/2015	13:11:29.506	$GPGGA,131130,2542.9821,N,07918.4744,W,1,9,1.4,15,M,,M,,*5E
06/18/2015	13:11:30.584	$GPGGA,131131,2542.9821,N,07918.4744,W,1,9,1.4,15,M,,M,,*5F
06/18/2015	13:11:31.544	$GPGGA,131132,2542.9821,N,07918.4743,W,1,8,1.5,15,M,,M,,*5B
06/18/2015	13:11:32.507	$GPGGA,131133,2542.9821,N,07918.4742,W,1,8,1.5,15,M,,M,,*5B
06/18/2015	13:11:33.493	$GPGGA,131134,2542.9823,N,07918.4743,W,1,9,1.4,15,M,,M,,*5F
06/18/2015	13:11:34.483	$GPGGA,131135,2542.9822,N,07918.4741,W,1,9,1.5,15,M,,M,,*5C
06/18/2015	13:11:35.593	$GPGGA,131136,2542.9823,N,07918.4741,W,1,9,1.4,15,M,,M,,*5F
06/18/2015	13:11:36.494	$GPGGA,131137,2542.9824,N,07918.4743,W,1,9,1.4,15,M,,M,,*5B
06/18/2015	13:11:37.474	$GPGGA,131138,2542.9825,N,07918.4742,W,1,9,1.4,15,M,,M,,*54
06/18/2015	13:11:38.474	$GPGGA,131139,2542.9825,N,07918.4743,W,1,9,1.4,15,M,,M,,*54
06/18/2015	13:11:39.614	$GPGGA,131140,2542.9825,N,07918.4743,W,1,8,2.1,15,M,,M,,*5D
06/18/2015	13:11:40.484	$GPGGA,131141,2542.9825,N,07918.4744,W,1,8,1.5,15,M,,M,,*5C
06/18/2015	13:11:41.574	$GPGGA,131142,2542.9825,N,07918.4743,W,1,8,2.1,15,M,,M,,*5F
06/18/2015	13:11:42.474	$GPGGA,131143,2542.9825,N,07918.4743,W,1,8,1.4,15,M,,M,,*58
06/18/2015	13:11:43.606	$GPGGA,131144,2542.9825,N,07918.4743,W,1,10,1.3,15,M,,M,,*61
06/18/2015	13:11:44.565	$GPGGA,131145,2542.9825,N,07918.4742,W,1,10,1.4,15,M,,M,,*66
06/18/2015	13:11:45.564	$GPGGA,131146,2542.9825,N,07918.4741,W,1,9,1.4,15,M,,M,,*5E
06/18/2015	13:11:46.554	$GPGGA,131147,2542.9825,N,07918.4741,W,1,9,1.3,15,M,,M,,*58
