Software Version Number: 1	Data File Format Number: 1	Build Version Number: 1	Error Count Since VI Started: 1	Manufacturer: Raytheon	 Model Number: RayMarine 120	 S/N: 	 Cal Date: 	 Wind Direction Offset: 0.00	 Slope (M)1: 0.00	 Offset (B)1: 0.00	 Slope (M)2: 0.00	 Offset (B)2: 0.00	 Slope (M)3: 0.00	 Offset (B)3: 0.00	 Slope (M)4: 0.00	 Offset (B)4: 0.00	 Slope (M)5: 0.00	 Offset (B)5: 0.00	 Slope (M)6: 0.00	 Offset (B)6: 0.00
Computer Date	Computer Time	GGA String
06/13/2015	15:00:00.528	$GPGGA,150001,2420.6197,N,08103.4613,W,1,9,1.8,18,M,,M,,*5B
06/13/2015	15:00:01.535	$GPGGA,150002,2420.6198,N,08103.4613,W,1,9,1.8,18,M,,M,,*57
06/13/2015	15:00:02.529	$GPGGA,150003,2420.6200,N,08103.4612,W,1,9,1.8,18,M,,M,,*55
06/13/2015	15:00:03.522	$GPGGA,150004,2420.6199,N,08103.4613,W,1,9,1.8,18,M,,M,,*50
06/13/2015	15:00:04.642	$GPGGA,150005,2420.6201,N,08103.4612,W,1,9,1.8,18,M,,M,,*52
06/13/2015	15:00:05.629	$GPGGA,150006,2420.6203,N,08103.4610,W,1,9,1.8,18,M,,M,,*51
06/13/2015	15:00:06.502	$GPGGA,150007,2420.6202,N,08103.4610,W,1,9,1.8,18,M,,M,,*51
06/13/2015	15:00:07.512	$GPGGA,150008,2420.6204,N,08103.4611,W,1,9,1.8,18,M,,M,,*59
06/13/2015	15:00:11.642	$GPGGA,150012,2420.6208,N,08103.4609,W,1,9,1.8,18,M,,M,,*57
06/13/2015	15:00:12.491	$GPGGA,150013,2420.6211,N,08103.4608,W,1,9,1.8,18,M,,M,,*5F
06/13/2015	15:00:13.622	$GPGGA,150014,2420.6210,N,08103.4608,W,1,9,1.8,18,M,,M,,*59
06/13/2015	15:00:14.511	$GPGGA,150015,2420.6211,N,08103.4610,W,1,9,1.8,18,M,,M,,*50
06/13/2015	15:00:15.511	$GPGGA,150016,2420.6212,N,08103.4608,W,1,9,1.8,18,M,,M,,*59
06/13/2015	15:00:16.581	$GPGGA,150017,2420.6212,N,08103.4608,W,1,9,1.8,18,M,,M,,*58
06/13/2015	15:00:17.571	$GPGGA,150018,2420.6214,N,08103.4610,W,1,9,1.8,18,M,,M,,*58
06/13/2015	15:00:18.491	$GPGGA,150019,2420.6215,N,08103.4608,W,1,9,1.8,19,M,,M,,*50
06/13/2015	15:00:19.582	$GPGGA,150020,2420.6214,N,08103.4608,W,1,9,1.8,19,M,,M,,*5B
06/13/2015	15:00:20.582	$GPGGA,150021,2420.6216,N,08103.4608,W,1,9,1.8,19,M,,M,,*58
06/13/2015	15:00:21.592	$GPGGA,150022,2420.6218,N,08103.4608,W,1,9,1.8,19,M,,M,,*55
06/13/2015	15:00:22.572	$GPGGA,150023,2420.6219,N,08103.4608,W,1,9,1.8,19,M,,M,,*55
06/13/2015	15:00:23.572	$GPGGA,150024,2420.6218,N,08103.4607,W,1,9,1.8,19,M,,M,,*5C
06/13/2015	15:00:24.582	$GPGGA,150025,2420.6219,N,08103.4607,W,1,9,1.8,19,M,,M,,*5C
06/13/2015	15:00:25.571	$GPGGA,150026,2420.6221,N,08103.4607,W,1,9,1.8,19,M,,M,,*54
06/13/2015	15:00:26.561	$GPGGA,150027,2420.6222,N,08103.4607,W,1,9,1.8,19,M,,M,,*56
06/13/2015	15:00:27.581	$GPGGA,150028,2420.6223,N,08103.4605,W,1,9,1.8,19,M,,M,,*5A
06/13/2015	15:00:28.561	$GPGGA,150029,2420.6223,N,08103.4606,W,1,9,1.8,19,M,,M,,*58
06/13/2015	15:00:29.571	$GPGGA,150030,2420.6225,N,08103.4606,W,1,9,1.8,19,M,,M,,*56
06/13/2015	15:00:30.561	$GPGGA,150031,2420.6227,N,08103.4605,W,1,9,1.8,19,M,,M,,*56
06/13/2015	15:00:31.571	$GPGGA,150032,2420.6229,N,08103.4606,W,1,9,1.8,19,M,,M,,*58
06/13/2015	15:00:32.551	$GPGGA,150033,2420.6228,N,08103.4605,W,1,9,1.8,19,M,,M,,*5B
06/13/2015	15:00:33.541	$GPGGA,150034,2420.6230,N,08103.4604,W,1,9,1.8,19,M,,M,,*54
06/13/2015	15:00:34.551	$GPGGA,150035,2420.6232,N,08103.4603,W,1,9,1.8,19,M,,M,,*50
06/13/2015	15:00:35.581	$GPGGA,150036,2420.6234,N,08103.4603,W,1,9,1.8,19,M,,M,,*55
06/13/2015	15:00:36.562	$GPGGA,150037,2420.6234,N,08103.4603,W,1,9,1.8,19,M,,M,,*54
06/13/2015	15:00:37.562	$GPGGA,150038,2420.6234,N,08103.4604,W,1,9,1.8,19,M,,M,,*5C
06/13/2015	15:00:38.542	$GPGGA,150039,2420.6237,N,08103.4603,W,1,9,1.8,19,M,,M,,*59
06/13/2015	15:00:39.552	$GPGGA,150040,2420.6241,N,08103.4602,W,1,9,1.8,19,M,,M,,*57
06/13/2015	15:00:40.542	$GPGGA,150041,2420.6241,N,08103.4603,W,1,9,1.8,19,M,,M,,*57
06/13/2015	15:00:41.552	$GPGGA,150042,2420.6241,N,08103.4604,W,1,9,1.8,19,M,,M,,*53
06/13/2015	15:00:42.542	$GPGGA,150043,2420.6245,N,08103.4603,W,1,9,1.8,19,M,,M,,*51
06/13/2015	15:00:43.531	$GPGGA,150044,2420.6248,N,08103.4602,W,1,9,1.8,19,M,,M,,*5A
06/13/2015	15:00:44.534	$GPGGA,150045,2420.6247,N,08103.4604,W,1,9,1.8,19,M,,M,,*52
06/13/2015	15:00:45.524	$GPGGA,150046,2420.6248,N,08103.4604,W,1,9,1.8,19,M,,M,,*5E
06/13/2015	15:00:46.531	$GPGGA,150047,2420.6251,N,08103.4604,W,1,9,1.8,19,M,,M,,*57
06/13/2015	15:00:47.871	$GPGGA,150048,2420.6252,N,08103.4603,W,1,9,1.8,19,M,,M,,*5C
06/13/2015	15:00:48.531	$GPGGA,150049,2420.6254,N,08103.4604,W,1,9,1.8,19,M,,M,,*5C
06/13/2015	15:00:49.511	$GPGGA,150050,2420.6255,N,08103.4604,W,1,9,1.8,19,M,,M,,*55
06/13/2015	15:00:50.511	$GPGGA,150051,2420.6255,N,08103.4606,W,1,9,1.8,19,M,,M,,*56
06/13/2015	15:00:51.541	$GPGGA,150052,2420.6258,N,08103.4605,W,1,9,1.8,19,M,,M,,*5B
06/13/2015	15:00:52.525	$GPGGA,150053,2420.6259,N,08103.4604,W,1,9,1.8,18,M,,M,,*5B
06/13/2015	15:00:53.521	$GPGGA,150054,2420.6259,N,08103.4604,W,1,9,1.8,18,M,,M,,*5C
06/13/2015	15:00:54.512	$GPGGA,150055,2420.6262,N,08103.4604,W,1,9,1.8,18,M,,M,,*55
06/13/2015	15:00:55.525	$GPGGA,150056,2420.6265,N,08103.4603,W,1,9,1.8,18,M,,M,,*56
06/13/2015	15:00:56.492	$GPGGA,150057,2420.6264,N,08103.4606,W,1,9,1.8,18,M,,M,,*53
06/13/2015	15:00:57.512	$GPGGA,150058,2420.6266,N,08103.4607,W,1,9,1.8,18,M,,M,,*5F
06/13/2015	15:00:58.592	$GPGGA,150059,2420.6268,N,08103.4605,W,1,9,1.8,18,M,,M,,*52
06/13/2015	15:00:59.533	$GPGGA,150100,2420.6270,N,08103.4606,W,1,9,1.8,18,M,,M,,*55
06/13/2015	15:01:00.491	$GPGGA,150101,2420.6270,N,08103.4607,W,1,9,1.8,18,M,,M,,*55
06/13/2015	15:01:01.626	$GPGGA,150102,2420.6272,N,08103.4608,W,1,9,1.8,18,M,,M,,*5B
06/13/2015	15:01:02.501	$GPGGA,150103,2420.6274,N,08103.4606,W,1,9,1.8,18,M,,M,,*52
06/13/2015	15:01:03.492	$GPGGA,150104,2420.6277,N,08103.4607,W,1,9,1.8,18,M,,M,,*57
06/13/2015	15:01:04.491	$GPGGA,150105,2420.6277,N,08103.4610,W,1,9,1.8,18,M,,M,,*50
06/13/2015	15:01:05.626	$GPGGA,150106,2420.6279,N,08103.4610,W,1,8,1.9,18,M,,M,,*5D
06/13/2015	15:01:06.561	$GPGGA,150107,2420.6281,N,08103.4608,W,1,8,1.8,18,M,,M,,*53
06/13/2015	15:01:07.601	$GPGGA,150108,2420.6281,N,08103.4607,W,1,9,1.8,18,M,,M,,*52
06/13/2015	15:01:08.571	$GPGGA,150109,2420.6284,N,08103.4607,W,1,9,1.8,18,M,,M,,*56
06/13/2015	15:01:09.561	$GPGGA,150110,2420.6286,N,08103.4606,W,1,9,1.8,18,M,,M,,*5D
06/13/2015	15:01:10.571	$GPGGA,150111,2420.6287,N,08103.4607,W,1,9,1.8,18,M,,M,,*5C
06/13/2015	15:01:11.591	$GPGGA,150112,2420.6288,N,08103.4607,W,1,9,1.8,18,M,,M,,*50
06/13/2015	15:01:12.551	$GPGGA,150113,2420.6290,N,08103.4607,W,1,9,1.8,18,M,,M,,*58
06/13/2015	15:01:13.571	$GPGGA,150114,2420.6291,N,08103.4607,W,1,9,1.8,18,M,,M,,*5E
06/13/2015	15:01:14.551	$GPGGA,150115,2420.6294,N,08103.4605,W,1,9,1.8,18,M,,M,,*58
06/13/2015	15:01:15.629	$GPGGA,150116,2420.6295,N,08103.4604,W,1,9,1.8,18,M,,M,,*5B
06/13/2015	15:01:16.551	$GPGGA,150117,2420.6294,N,08103.4606,W,1,9,1.8,18,M,,M,,*59
06/13/2015	15:01:17.551	$GPGGA,150118,2420.6297,N,08103.4605,W,1,9,1.8,18,M,,M,,*56
06/13/2015	15:01:18.540	$GPGGA,150119,2420.6299,N,08103.4606,W,1,9,2.6,18,M,,M,,*57
06/13/2015	15:01:19.580	$GPGGA,150120,2420.6302,N,08103.4607,W,1,8,2.6,18,M,,M,,*5E
06/13/2015	15:01:20.550	$GPGGA,150121,2420.6300,N,08103.4607,W,1,8,2.6,18,M,,M,,*5D
06/13/2015	15:01:21.530	$GPGGA,150122,2420.6303,N,08103.4605,W,1,9,1.8,18,M,,M,,*53
06/13/2015	15:01:22.541	$GPGGA,150123,2420.6305,N,08103.4603,W,1,9,2.6,18,M,,M,,*5F
06/13/2015	15:01:23.581	$GPGGA,150124,2420.6304,N,08103.4603,W,1,9,1.9,18,M,,M,,*55
06/13/2015	15:01:24.531	$GPGGA,150125,2420.6306,N,08103.4604,W,1,9,1.9,18,M,,M,,*51
06/13/2015	15:01:25.529	$GPGGA,150126,2420.6309,N,08103.4604,W,1,9,1.9,18,M,,M,,*5D
06/13/2015	15:01:26.531	$GPGGA,150127,2420.6310,N,08103.4604,W,1,9,1.9,18,M,,M,,*54
06/13/2015	15:01:27.541	$GPGGA,150128,2420.6312,N,08103.4604,W,1,9,1.9,18,M,,M,,*59
06/13/2015	15:01:28.531	$GPGGA,150129,2420.6313,N,08103.4603,W,1,9,1.9,18,M,,M,,*5E
06/13/2015	15:01:29.516	$GPGGA,150130,2420.6315,N,08103.4603,W,1,9,1.9,18,M,,M,,*50
06/13/2015	15:01:30.516	$GPGGA,150131,2420.6317,N,08103.4606,W,1,9,1.9,18,M,,M,,*56
06/13/2015	15:01:31.541	$GPGGA,150132,2420.6320,N,08103.4606,W,1,8,2.7,18,M,,M,,*5D
06/13/2015	15:01:32.514	$GPGGA,150133,2420.6320,N,08103.4606,W,1,8,1.9,18,M,,M,,*51
06/13/2015	15:01:33.501	$GPGGA,150134,2420.6323,N,08103.4608,W,1,9,1.9,18,M,,M,,*5A
06/13/2015	15:01:34.521	$GPGGA,150135,2420.6324,N,08103.4608,W,1,9,1.9,18,M,,M,,*5C
06/13/2015	15:01:35.540	$GPGGA,150136,2420.6327,N,08103.4606,W,1,9,1.9,18,M,,M,,*52
06/13/2015	15:01:36.500	$GPGGA,150137,2420.6328,N,08103.4607,W,1,9,1.9,18,M,,M,,*5D
06/13/2015	15:01:37.525	$GPGGA,150138,2420.6331,N,08103.4610,W,1,8,2.7,18,M,,M,,*50
06/13/2015	15:01:38.504	$GPGGA,150139,2420.6334,N,08103.4611,W,1,8,2.7,18,M,,M,,*55
06/13/2015	15:01:39.518	$GPGGA,150140,2420.6335,N,08103.4609,W,1,8,2.7,18,M,,M,,*53
06/13/2015	15:01:40.601	$GPGGA,150141,2420.6335,N,08103.4610,W,1,8,1.9,19,M,,M,,*56
06/13/2015	15:01:41.681	$GPGGA,150142,2420.6337,N,08103.4609,W,1,9,1.9,19,M,,M,,*5E
06/13/2015	15:01:42.514	$GPGGA,150143,2420.6336,N,08103.4610,W,1,9,1.9,19,M,,M,,*56
06/13/2015	15:01:43.681	$GPGGA,150144,2420.6339,N,08103.4608,W,1,9,1.9,19,M,,M,,*57
06/13/2015	15:01:44.626	$GPGGA,150145,2420.6342,N,08103.4610,W,1,9,1.9,19,M,,M,,*53
06/13/2015	15:01:45.691	$GPGGA,150146,2420.6346,N,08103.4611,W,1,8,2.7,19,M,,M,,*59
06/13/2015	15:01:46.501	$GPGGA,150147,2420.6346,N,08103.4613,W,1,8,2.7,19,M,,M,,*5A
06/13/2015	15:01:47.515	$GPGGA,150148,2420.6346,N,08103.4613,W,1,9,1.9,19,M,,M,,*59
06/13/2015	15:01:48.481	$GPGGA,150149,2420.6349,N,08103.4611,W,1,9,1.9,19,M,,M,,*55
06/13/2015	15:01:49.471	$GPGGA,150150,2420.6352,N,08103.4613,W,1,9,1.9,19,M,,M,,*55
06/13/2015	15:01:50.626	$GPGGA,150151,2420.6355,N,08103.4615,W,1,9,2.9,19,M,,M,,*56
06/13/2015	15:01:51.491	$GPGGA,150152,2420.6357,N,08103.4617,W,1,7,2.9,19,M,,M,,*5B
06/13/2015	15:01:52.571	$GPGGA,150153,2420.6359,N,08103.4618,W,1,7,1.9,20,M,,M,,*52
06/13/2015	15:01:53.660	$GPGGA,150154,2420.6362,N,08103.4621,W,1,9,1.9,20,M,,M,,*59
06/13/2015	15:01:54.590	$GPGGA,150155,2420.6364,N,08103.4620,W,1,9,1.9,20,M,,M,,*5F
06/13/2015	15:01:55.690	$GPGGA,150156,2420.6367,N,08103.4621,W,1,9,1.9,20,M,,M,,*5E
06/13/2015	15:01:56.560	$GPGGA,150157,2420.6368,N,08103.4621,W,1,9,1.9,20,M,,M,,*50
06/13/2015	15:01:57.671	$GPGGA,150158,2420.6371,N,08103.4624,W,1,9,1.9,20,M,,M,,*52
06/13/2015	15:01:58.551	$GPGGA,150159,2420.6373,N,08103.4625,W,1,9,1.9,20,M,,M,,*50
06/13/2015	15:01:59.681	$GPGGA,150200,2420.6375,N,08103.4625,W,1,9,1.9,20,M,,M,,*59
06/13/2015	15:02:00.592	$GPGGA,150201,2420.6377,N,08103.4628,W,1,9,1.9,20,M,,M,,*57
06/13/2015	15:02:01.661	$GPGGA,150202,2420.6378,N,08103.4628,W,1,8,2.0,20,M,,M,,*50
06/13/2015	15:02:02.551	$GPGGA,150203,2420.6382,N,08103.4631,W,1,8,1.9,20,M,,M,,*56
06/13/2015	15:02:03.661	$GPGGA,150204,2420.6385,N,08103.4632,W,1,9,1.9,20,M,,M,,*54
06/13/2015	15:02:04.601	$GPGGA,150205,2420.6388,N,08103.4631,W,1,9,1.9,20,M,,M,,*5B
06/13/2015	15:02:05.631	$GPGGA,150206,2420.6391,N,08103.4632,W,1,9,1.9,20,M,,M,,*53
06/13/2015	15:02:06.571	$GPGGA,150207,2420.6390,N,08103.4633,W,1,9,1.9,21,M,,M,,*53
06/13/2015	15:02:07.661	$GPGGA,150208,2420.6393,N,08103.4635,W,1,9,1.9,21,M,,M,,*59
06/13/2015	15:02:08.541	$GPGGA,150209,2420.6395,N,08103.4634,W,1,9,1.9,21,M,,M,,*5F
06/13/2015	15:02:09.641	$GPGGA,150210,2420.6399,N,08103.4633,W,1,9,1.9,21,M,,M,,*5C
06/13/2015	15:02:10.540	$GPGGA,150211,2420.6400,N,08103.4635,W,1,9,1.9,21,M,,M,,*5C
06/13/2015	15:02:11.630	$GPGGA,150212,2420.6403,N,08103.4636,W,1,9,1.9,21,M,,M,,*5F
06/13/2015	15:02:12.526	$GPGGA,150213,2420.6404,N,08103.4637,W,1,9,1.9,21,M,,M,,*58
06/13/2015	15:02:13.630	$GPGGA,150214,2420.6406,N,08103.4635,W,1,9,1.9,21,M,,M,,*5F
06/13/2015	15:02:14.528	$GPGGA,150215,2420.6409,N,08103.4634,W,1,9,1.9,21,M,,M,,*50
06/13/2015	15:02:15.661	$GPGGA,150216,2420.6407,N,08103.4635,W,1,8,1.9,21,M,,M,,*5D
06/13/2015	15:02:16.551	$GPGGA,150217,2420.6409,N,08103.4636,W,1,8,1.9,21,M,,M,,*51
06/13/2015	15:02:17.615	$GPGGA,150218,2420.6411,N,08103.4636,W,1,9,1.9,21,M,,M,,*56
06/13/2015	15:02:18.541	$GPGGA,150219,2420.6414,N,08103.4635,W,1,9,1.9,21,M,,M,,*51
06/13/2015	15:02:19.531	$GPGGA,150220,2420.6414,N,08103.4634,W,1,7,2.1,21,M,,M,,*5F
06/13/2015	15:02:20.511	$GPGGA,150221,2420.6414,N,08103.4636,W,1,7,1.9,21,M,,M,,*57
06/13/2015	15:02:21.581	$GPGGA,150222,2420.6414,N,08103.4636,W,1,8,1.9,21,M,,M,,*5B
06/13/2015	15:02:22.513	$GPGGA,150223,2420.6418,N,08103.4634,W,1,8,1.9,21,M,,M,,*54
06/13/2015	15:02:23.618	$GPGGA,150224,2420.6422,N,08103.4633,W,1,8,1.9,22,M,,M,,*5E
06/13/2015	15:02:24.531	$GPGGA,150225,2420.6422,N,08103.4636,W,1,8,1.9,22,M,,M,,*5A
06/13/2015	15:02:25.501	$GPGGA,150226,2420.6424,N,08103.4639,W,1,9,1.9,22,M,,M,,*51
06/13/2015	15:02:26.541	$GPGGA,150227,2420.6427,N,08103.4635,W,1,9,1.9,22,M,,M,,*5F
06/13/2015	15:02:27.601	$GPGGA,150228,2420.6429,N,08103.4635,W,1,9,1.9,22,M,,M,,*5E
06/13/2015	15:02:28.529	$GPGGA,150229,2420.6429,N,08103.4637,W,1,9,1.9,22,M,,M,,*5D
06/13/2015	15:02:29.490	$GPGGA,150230,2420.6431,N,08103.4639,W,1,9,1.9,22,M,,M,,*52
06/13/2015	15:02:30.580	$GPGGA,150231,2420.6432,N,08103.4639,W,1,9,1.9,22,M,,M,,*50
06/13/2015	15:02:31.623	$GPGGA,150232,2420.6436,N,08103.4639,W,1,9,1.9,22,M,,M,,*57
06/13/2015	15:02:32.491	$GPGGA,150233,2420.6436,N,08103.4640,W,1,9,1.9,22,M,,M,,*58
06/13/2015	15:02:33.481	$GPGGA,150234,2420.6436,N,08103.4642,W,1,8,2.7,22,M,,M,,*51
06/13/2015	15:02:34.525	$GPGGA,150235,2420.6439,N,08103.4641,W,1,8,1.9,22,M,,M,,*51
06/13/2015	15:02:35.651	$GPGGA,150236,2420.6442,N,08103.4642,W,1,9,2.7,22,M,,M,,*51
06/13/2015	15:02:36.481	$GPGGA,150237,2420.6441,N,08103.4643,W,1,9,2.7,22,M,,M,,*52
06/13/2015	15:02:37.561	$GPGGA,150238,2420.6442,N,08103.4643,W,1,9,1.9,22,M,,M,,*53
06/13/2015	15:02:38.581	$GPGGA,150239,2420.6443,N,08103.4642,W,1,9,1.9,22,M,,M,,*52
06/13/2015	15:02:39.631	$GPGGA,150240,2420.6443,N,08103.4641,W,1,9,1.9,22,M,,M,,*5F
06/13/2015	15:02:40.591	$GPGGA,150241,2420.6443,N,08103.4642,W,1,9,1.9,22,M,,M,,*5D
06/13/2015	15:02:41.571	$GPGGA,150242,2420.6445,N,08103.4642,W,1,9,1.9,22,M,,M,,*58
06/13/2015	15:02:42.561	$GPGGA,150243,2420.6446,N,08103.4640,W,1,9,1.9,22,M,,M,,*58
06/13/2015	15:02:43.591	$GPGGA,150244,2420.6445,N,08103.4639,W,1,9,1.9,22,M,,M,,*52
06/13/2015	15:02:44.561	$GPGGA,150245,2420.6446,N,08103.4639,W,1,9,1.9,23,M,,M,,*51
06/13/2015	15:02:45.640	$GPGGA,150246,2420.6449,N,08103.4642,W,1,9,2.7,23,M,,M,,*5C
06/13/2015	15:02:46.550	$GPGGA,150247,2420.6450,N,08103.4640,W,1,9,1.9,23,M,,M,,*5A
06/13/2015	15:02:47.590	$GPGGA,150248,2420.6451,N,08103.4638,W,1,9,1.9,23,M,,M,,*5B
06/13/2015	15:02:48.550	$GPGGA,150249,2420.6451,N,08103.4639,W,1,9,1.9,23,M,,M,,*5B
06/13/2015	15:02:49.601	$GPGGA,150250,2420.6451,N,08103.4640,W,1,9,1.9,23,M,,M,,*5D
06/13/2015	15:02:50.561	$GPGGA,150251,2420.6453,N,08103.4640,W,1,9,1.9,23,M,,M,,*5E
06/13/2015	15:02:51.571	$GPGGA,150252,2420.6456,N,08103.4639,W,1,9,2.7,23,M,,M,,*5B
06/13/2015	15:02:52.541	$GPGGA,150253,2420.6457,N,08103.4640,W,1,9,1.9,23,M,,M,,*58
06/13/2015	15:02:53.622	$GPGGA,150254,2420.6458,N,08103.4642,W,1,9,1.9,23,M,,M,,*52
06/13/2015	15:02:54.541	$GPGGA,150255,2420.6458,N,08103.4639,W,1,9,2.7,23,M,,M,,*52
06/13/2015	15:02:55.641	$GPGGA,150256,2420.6460,N,08103.4638,W,1,8,2.7,23,M,,M,,*5A
06/13/2015	15:02:57.601	$GPGGA,150258,2420.6462,N,08103.4639,W,1,8,1.9,23,M,,M,,*5A
06/13/2015	15:02:58.531	$GPGGA,150259,2420.6465,N,08103.4637,W,1,8,1.9,23,M,,M,,*52
06/13/2015	15:02:59.661	$GPGGA,150300,2420.6465,N,08103.4639,W,1,9,1.9,23,M,,M,,*50
06/13/2015	15:03:00.551	$GPGGA,150301,2420.6465,N,08103.4639,W,1,9,1.9,23,M,,M,,*51
06/13/2015	15:03:01.571	$GPGGA,150302,2420.6467,N,08103.4637,W,1,9,1.9,23,M,,M,,*5E
06/13/2015	15:03:02.531	$GPGGA,150303,2420.6466,N,08103.4634,W,1,9,1.9,23,M,,M,,*5D
06/13/2015	15:03:03.627	$GPGGA,150304,2420.6467,N,08103.4635,W,1,9,1.9,22,M,,M,,*5B
06/13/2015	15:03:04.530	$GPGGA,150305,2420.6468,N,08103.4636,W,1,9,1.9,22,M,,M,,*56
06/13/2015	15:03:05.590	$GPGGA,150306,2420.6469,N,08103.4635,W,1,9,1.9,22,M,,M,,*57
06/13/2015	15:03:06.520	$GPGGA,150307,2420.6469,N,08103.4633,W,1,9,1.9,22,M,,M,,*50
06/13/2015	15:03:07.581	$GPGGA,150308,2420.6469,N,08103.4633,W,1,9,1.9,22,M,,M,,*5F
06/13/2015	15:03:08.521	$GPGGA,150309,2420.6469,N,08103.4633,W,1,9,1.9,22,M,,M,,*5E
06/13/2015	15:03:09.571	$GPGGA,150310,2420.6469,N,08103.4632,W,1,9,1.9,22,M,,M,,*57
06/13/2015	15:03:10.523	$GPGGA,150311,2420.6471,N,08103.4631,W,1,9,2.0,22,M,,M,,*56
06/13/2015	15:03:11.591	$GPGGA,150312,2420.6472,N,08103.4630,W,1,8,2.0,22,M,,M,,*56
06/13/2015	15:03:12.514	$GPGGA,150313,2420.6471,N,08103.4632,W,1,8,1.9,21,M,,M,,*5F
06/13/2015	15:03:13.526	$GPGGA,150314,2420.6472,N,08103.4630,W,1,9,1.9,21,M,,M,,*58
06/13/2015	15:03:14.511	$GPGGA,150315,2420.6472,N,08103.4629,W,1,9,1.9,21,M,,M,,*51
06/13/2015	15:03:15.531	$GPGGA,150316,2420.6472,N,08103.4629,W,1,9,1.9,21,M,,M,,*52
06/13/2015	15:03:16.521	$GPGGA,150317,2420.6473,N,08103.4628,W,1,9,1.9,21,M,,M,,*53
06/13/2015	15:03:17.561	$GPGGA,150318,2420.6472,N,08103.4628,W,1,9,1.9,21,M,,M,,*5D
06/13/2015	15:03:18.481	$GPGGA,150319,2420.6472,N,08103.4628,W,1,9,1.9,21,M,,M,,*5C
06/13/2015	15:03:19.531	$GPGGA,150320,2420.6474,N,08103.4627,W,1,9,1.9,21,M,,M,,*5F
06/13/2015	15:03:20.580	$GPGGA,150321,2420.6473,N,08103.4625,W,1,9,2.0,21,M,,M,,*51
06/13/2015	15:03:21.590	$GPGGA,150322,2420.6474,N,08103.4626,W,1,9,1.9,21,M,,M,,*5C
06/13/2015	15:03:22.580	$GPGGA,150323,2420.6475,N,08103.4623,W,1,9,1.9,21,M,,M,,*59
06/13/2015	15:03:23.513	$GPGGA,150324,2420.6474,N,08103.4622,W,1,9,1.9,21,M,,M,,*5E
06/13/2015	15:03:24.491	$GPGGA,150325,2420.6473,N,08103.4624,W,1,9,1.9,21,M,,M,,*5E
06/13/2015	15:03:25.591	$GPGGA,150326,2420.6475,N,08103.4622,W,1,9,1.9,21,M,,M,,*5D
06/13/2015	15:03:26.581	$GPGGA,150327,2420.6474,N,08103.4620,W,1,9,1.9,21,M,,M,,*5F
06/13/2015	15:03:27.582	$GPGGA,150328,2420.6473,N,08103.4621,W,1,9,1.9,21,M,,M,,*56
06/13/2015	15:03:28.581	$GPGGA,150329,2420.6472,N,08103.4620,W,1,9,1.9,21,M,,M,,*57
06/13/2015	15:03:29.561	$GPGGA,150330,2420.6472,N,08103.4617,W,1,9,1.9,21,M,,M,,*5B
06/13/2015	15:03:30.581	$GPGGA,150331,2420.6472,N,08103.4615,W,1,9,1.9,21,M,,M,,*58
06/13/2015	15:03:31.601	$GPGGA,150332,2420.6470,N,08103.4617,W,1,9,1.9,21,M,,M,,*5B
06/13/2015	15:03:32.561	$GPGGA,150333,2420.6469,N,08103.4615,W,1,9,1.9,21,M,,M,,*50
06/13/2015	15:03:33.581	$GPGGA,150334,2420.6469,N,08103.4611,W,1,9,1.9,21,M,,M,,*53
06/13/2015	15:03:34.551	$GPGGA,150335,2420.6469,N,08103.4611,W,1,9,1.9,21,M,,M,,*52
06/13/2015	15:03:35.601	$GPGGA,150336,2420.6465,N,08103.4611,W,1,8,2.7,21,M,,M,,*51
06/13/2015	15:03:36.561	$GPGGA,150337,2420.6465,N,08103.4609,W,1,8,1.9,21,M,,M,,*54
06/13/2015	15:03:37.571	$GPGGA,150338,2420.6465,N,08103.4606,W,1,9,1.9,21,M,,M,,*55
06/13/2015	15:03:38.540	$GPGGA,150339,2420.6463,N,08103.4606,W,1,9,1.9,21,M,,M,,*52
06/13/2015	15:03:39.570	$GPGGA,150340,2420.6462,N,08103.4606,W,1,9,1.9,21,M,,M,,*5D
06/13/2015	15:03:40.570	$GPGGA,150341,2420.6461,N,08103.4603,W,1,9,1.9,21,M,,M,,*5A
06/13/2015	15:03:41.530	$GPGGA,150342,2420.6460,N,08103.4600,W,1,9,1.9,21,M,,M,,*5B
06/13/2015	15:03:42.551	$GPGGA,150343,2420.6461,N,08103.4599,W,1,9,1.9,21,M,,M,,*58
06/13/2015	15:03:43.581	$GPGGA,150344,2420.6458,N,08103.4598,W,1,8,1.9,21,M,,M,,*55
06/13/2015	15:03:44.541	$GPGGA,150345,2420.6458,N,08103.4596,W,1,8,1.9,21,M,,M,,*5A
06/13/2015	15:03:45.541	$GPGGA,150346,2420.6458,N,08103.4592,W,1,9,1.9,21,M,,M,,*5C
06/13/2015	15:03:46.531	$GPGGA,150347,2420.6456,N,08103.4589,W,1,9,1.9,21,M,,M,,*59
06/13/2015	15:03:47.541	$GPGGA,150348,2420.6454,N,08103.4587,W,1,9,1.9,21,M,,M,,*5A
06/13/2015	15:03:48.531	$GPGGA,150349,2420.6454,N,08103.4584,W,1,9,1.9,21,M,,M,,*58
06/13/2015	15:03:49.541	$GPGGA,150350,2420.6452,N,08103.4581,W,1,9,1.9,21,M,,M,,*53
06/13/2015	15:03:50.521	$GPGGA,150351,2420.6451,N,08103.4578,W,1,9,1.9,21,M,,M,,*57
06/13/2015	15:03:51.551	$GPGGA,150352,2420.6451,N,08103.4575,W,1,8,1.9,21,M,,M,,*58
06/13/2015	15:03:52.521	$GPGGA,150353,2420.6449,N,08103.4572,W,1,8,1.9,21,M,,M,,*57
06/13/2015	15:03:53.551	$GPGGA,150354,2420.6448,N,08103.4570,W,1,9,1.9,21,M,,M,,*52
06/13/2015	15:03:54.517	$GPGGA,150355,2420.6447,N,08103.4569,W,1,9,1.9,21,M,,M,,*54
06/13/2015	15:03:55.570	$GPGGA,150356,2420.6447,N,08103.4567,W,1,9,1.9,21,M,,M,,*59
06/13/2015	15:03:56.623	$GPGGA,150357,2420.6447,N,08103.4564,W,1,9,1.9,21,M,,M,,*5B
06/13/2015	15:03:57.540	$GPGGA,150358,2420.6447,N,08103.4562,W,1,9,1.9,21,M,,M,,*52
06/13/2015	15:03:58.614	$GPGGA,150359,2420.6444,N,08103.4560,W,1,9,1.9,21,M,,M,,*52
06/13/2015	15:03:59.551	$GPGGA,150400,2420.6443,N,08103.4557,W,1,9,1.9,21,M,,M,,*5A
06/13/2015	15:04:00.515	$GPGGA,150401,2420.6443,N,08103.4554,W,1,9,1.9,21,M,,M,,*58
06/13/2015	15:04:01.491	$GPGGA,150402,2420.6445,N,08103.4552,W,1,9,1.9,21,M,,M,,*5B
06/13/2015	15:04:02.491	$GPGGA,150403,2420.6443,N,08103.4549,W,1,9,1.9,21,M,,M,,*56
06/13/2015	15:04:03.631	$GPGGA,150404,2420.6441,N,08103.4547,W,1,9,1.9,21,M,,M,,*5D
06/13/2015	15:04:04.517	$GPGGA,150405,2420.6443,N,08103.4543,W,1,9,1.9,21,M,,M,,*5A
06/13/2015	15:04:05.601	$GPGGA,150406,2420.6443,N,08103.4540,W,1,9,1.9,21,M,,M,,*5A
06/13/2015	15:04:06.491	$GPGGA,150407,2420.6442,N,08103.4537,W,1,9,1.9,21,M,,M,,*5A
06/13/2015	15:04:07.491	$GPGGA,150408,2420.6440,N,08103.4534,W,1,9,1.9,21,M,,M,,*54
06/13/2015	15:04:08.601	$GPGGA,150409,2420.6442,N,08103.4530,W,1,9,1.9,21,M,,M,,*53
06/13/2015	15:04:09.501	$GPGGA,150410,2420.6443,N,08103.4526,W,1,9,1.9,21,M,,M,,*5D
06/13/2015	15:04:10.591	$GPGGA,150411,2420.6440,N,08103.4525,W,1,9,1.9,21,M,,M,,*5C
06/13/2015	15:04:11.501	$GPGGA,150412,2420.6440,N,08103.4523,W,1,9,1.9,21,M,,M,,*59
06/13/2015	15:04:12.491	$GPGGA,150413,2420.6440,N,08103.4520,W,1,9,1.9,21,M,,M,,*5B
06/13/2015	15:04:13.601	$GPGGA,150414,2420.6440,N,08103.4517,W,1,9,1.9,21,M,,M,,*58
06/13/2015	15:04:14.580	$GPGGA,150415,2420.6440,N,08103.4514,W,1,9,1.9,21,M,,M,,*5A
06/13/2015	15:04:15.632	$GPGGA,150416,2420.6438,N,08103.4510,W,1,9,1.9,21,M,,M,,*52
06/13/2015	15:04:16.561	$GPGGA,150417,2420.6439,N,08103.4509,W,1,9,1.9,20,M,,M,,*5B
06/13/2015	15:04:17.571	$GPGGA,150418,2420.6440,N,08103.4507,W,1,9,1.9,20,M,,M,,*54
06/13/2015	15:04:18.571	$GPGGA,150419,2420.6440,N,08103.4505,W,1,9,1.9,20,M,,M,,*57
06/13/2015	15:04:19.581	$GPGGA,150420,2420.6440,N,08103.4502,W,1,9,1.9,20,M,,M,,*5A
06/13/2015	15:04:20.571	$GPGGA,150421,2420.6437,N,08103.4501,W,1,9,1.9,20,M,,M,,*58
06/13/2015	15:04:21.581	$GPGGA,150422,2420.6438,N,08103.4499,W,1,9,1.9,20,M,,M,,*54
06/13/2015	15:04:22.551	$GPGGA,150423,2420.6437,N,08103.4497,W,1,9,1.9,20,M,,M,,*54
06/13/2015	15:04:23.581	$GPGGA,150424,2420.6439,N,08103.4496,W,1,9,1.9,20,M,,M,,*5C
06/13/2015	15:04:24.561	$GPGGA,150425,2420.6437,N,08103.4495,W,1,9,1.9,20,M,,M,,*50
06/13/2015	15:04:25.561	$GPGGA,150426,2420.6438,N,08103.4493,W,1,9,1.9,20,M,,M,,*5A
06/13/2015	15:04:26.551	$GPGGA,150427,2420.6439,N,08103.4491,W,1,9,2.0,20,M,,M,,*52
06/13/2015	15:04:28.048	$GPGGA,150428,2420.6440,N,08103.4490,W,1,9,1.9,20,M,,M,,*58
06/13/2015	15:04:28.551	$GPGGA,150429,2420.6438,N,08103.4488,W,1,9,1.9,20,M,,M,,*5F
06/13/2015	15:04:29.581	$GPGGA,150430,2420.6440,N,08103.4486,W,1,9,1.9,20,M,,M,,*56
06/13/2015	15:04:30.550	$GPGGA,150431,2420.6440,N,08103.4484,W,1,9,1.9,20,M,,M,,*55
06/13/2015	15:04:31.560	$GPGGA,150432,2420.6442,N,08103.4483,W,1,9,1.9,20,M,,M,,*53
06/13/2015	15:04:32.540	$GPGGA,150433,2420.6441,N,08103.4481,W,1,9,1.9,20,M,,M,,*53
06/13/2015	15:04:33.530	$GPGGA,150434,2420.6442,N,08103.4481,W,1,9,1.9,20,M,,M,,*57
06/13/2015	15:04:34.531	$GPGGA,150435,2420.6441,N,08103.4480,W,1,9,1.9,20,M,,M,,*54
06/13/2015	15:04:35.581	$GPGGA,150436,2420.6443,N,08103.4479,W,1,9,1.9,20,M,,M,,*53
06/13/2015	15:04:36.531	$GPGGA,150437,2420.6443,N,08103.4478,W,1,9,1.9,20,M,,M,,*53
06/13/2015	15:04:37.526	$GPGGA,150438,2420.6445,N,08103.4478,W,1,9,1.9,20,M,,M,,*5A
06/13/2015	15:04:38.525	$GPGGA,150439,2420.6446,N,08103.4478,W,1,9,1.9,20,M,,M,,*58
06/13/2015	15:04:39.524	$GPGGA,150440,2420.6447,N,08103.4477,W,1,9,1.9,20,M,,M,,*58
06/13/2015	15:04:40.531	$GPGGA,150441,2420.6447,N,08103.4477,W,1,9,1.9,19,M,,M,,*53
06/13/2015	15:04:41.516	$GPGGA,150442,2420.6447,N,08103.4478,W,1,9,1.9,19,M,,M,,*5F
06/13/2015	15:04:42.525	$GPGGA,150443,2420.6450,N,08103.4477,W,1,9,1.9,19,M,,M,,*57
06/13/2015	15:04:43.531	$GPGGA,150444,2420.6451,N,08103.4477,W,1,9,1.9,19,M,,M,,*51
06/13/2015	15:04:44.523	$GPGGA,150445,2420.6454,N,08103.4477,W,1,9,1.9,19,M,,M,,*55
06/13/2015	15:04:45.551	$GPGGA,150446,2420.6454,N,08103.4477,W,1,9,1.9,19,M,,M,,*56
06/13/2015	15:04:46.513	$GPGGA,150447,2420.6454,N,08103.4478,W,1,9,1.9,19,M,,M,,*58
06/13/2015	15:04:47.533	$GPGGA,150448,2420.6457,N,08103.4478,W,1,9,1.9,19,M,,M,,*54
06/13/2015	15:04:48.490	$GPGGA,150449,2420.6458,N,08103.4478,W,1,9,1.9,19,M,,M,,*5A
06/13/2015	15:04:49.630	$GPGGA,150450,2420.6460,N,08103.4480,W,1,9,1.9,19,M,,M,,*5E
06/13/2015	15:04:50.529	$GPGGA,150451,2420.6461,N,08103.4479,W,1,9,1.9,19,M,,M,,*58
06/13/2015	15:04:51.502	$GPGGA,150452,2420.6462,N,08103.4477,W,1,9,1.9,19,M,,M,,*56
06/13/2015	15:04:52.491	$GPGGA,150453,2420.6465,N,08103.4477,W,1,9,1.9,19,M,,M,,*50
06/13/2015	15:04:53.491	$GPGGA,150454,2420.6465,N,08103.4477,W,1,8,2.0,19,M,,M,,*5C
06/13/2015	15:04:54.501	$GPGGA,150455,2420.6467,N,08103.4477,W,1,8,1.9,19,M,,M,,*55
06/13/2015	15:04:55.625	$GPGGA,150456,2420.6469,N,08103.4476,W,1,9,1.9,19,M,,M,,*58
06/13/2015	15:04:56.501	$GPGGA,150457,2420.6471,N,08103.4475,W,1,9,1.9,19,M,,M,,*53
06/13/2015	15:04:57.491	$GPGGA,150458,2420.6470,N,08103.4477,W,1,9,1.9,19,M,,M,,*5F
06/13/2015	15:04:58.591	$GPGGA,150459,2420.6472,N,08103.4476,W,1,9,1.9,19,M,,M,,*5D
06/13/2015	15:04:59.551	$GPGGA,150500,2420.6475,N,08103.4474,W,1,9,1.9,19,M,,M,,*55
06/13/2015	15:05:00.571	$GPGGA,150501,2420.6476,N,08103.4476,W,1,9,1.9,19,M,,M,,*55
06/13/2015	15:05:01.471	$GPGGA,150502,2420.6476,N,08103.4477,W,1,9,1.9,19,M,,M,,*57
06/13/2015	15:05:02.571	$GPGGA,150503,2420.6480,N,08103.4478,W,1,9,2.1,19,M,,M,,*5B
06/13/2015	15:05:03.481	$GPGGA,150504,2420.6482,N,08103.4476,W,1,9,1.9,19,M,,M,,*5B
06/13/2015	15:05:04.561	$GPGGA,150505,2420.6483,N,08103.4475,W,1,9,2.7,19,M,,M,,*55
06/13/2015	15:05:05.570	$GPGGA,150506,2420.6483,N,08103.4476,W,1,8,2.7,19,M,,M,,*54
06/13/2015	15:05:06.570	$GPGGA,150507,2420.6485,N,08103.4476,W,1,8,2.7,19,M,,M,,*53
06/13/2015	15:05:07.570	$GPGGA,150508,2420.6487,N,08103.4475,W,1,8,2.7,18,M,,M,,*5C
06/13/2015	15:05:08.560	$GPGGA,150509,2420.6489,N,08103.4474,W,1,8,1.9,18,M,,M,,*5F
06/13/2015	15:05:09.561	$GPGGA,150510,2420.6488,N,08103.4476,W,1,9,1.9,18,M,,M,,*55
06/13/2015	15:05:10.561	$GPGGA,150511,2420.6489,N,08103.4475,W,1,9,1.9,18,M,,M,,*56
06/13/2015	15:05:11.581	$GPGGA,150512,2420.6490,N,08103.4476,W,1,9,1.9,18,M,,M,,*5E
06/13/2015	15:05:12.551	$GPGGA,150513,2420.6492,N,08103.4473,W,1,9,1.9,18,M,,M,,*58
06/13/2015	15:05:13.571	$GPGGA,150514,2420.6493,N,08103.4473,W,1,9,1.9,18,M,,M,,*5E
06/13/2015	15:05:14.541	$GPGGA,150515,2420.6494,N,08103.4474,W,1,9,1.9,18,M,,M,,*5F
06/13/2015	15:05:15.581	$GPGGA,150516,2420.6497,N,08103.4474,W,1,9,1.9,18,M,,M,,*5F
06/13/2015	15:05:16.541	$GPGGA,150517,2420.6497,N,08103.4474,W,1,9,2.7,18,M,,M,,*53
06/13/2015	15:05:17.561	$GPGGA,150518,2420.6498,N,08103.4474,W,1,9,1.9,19,M,,M,,*5F
06/13/2015	15:05:18.531	$GPGGA,150519,2420.6500,N,08103.4474,W,1,9,1.9,19,M,,M,,*5E
06/13/2015	15:05:19.591	$GPGGA,150520,2420.6501,N,08103.4474,W,1,9,1.9,19,M,,M,,*55
06/13/2015	15:05:20.541	$GPGGA,150521,2420.6503,N,08103.4474,W,1,9,1.9,19,M,,M,,*56
06/13/2015	15:05:21.531	$GPGGA,150522,2420.6504,N,08103.4473,W,1,9,1.9,19,M,,M,,*55
06/13/2015	15:05:22.540	$GPGGA,150523,2420.6508,N,08103.4474,W,1,9,1.9,19,M,,M,,*5F
06/13/2015	15:05:23.580	$GPGGA,150524,2420.6510,N,08103.4476,W,1,8,2.7,19,M,,M,,*5F
06/13/2015	15:05:24.520	$GPGGA,150525,2420.6512,N,08103.4476,W,1,8,1.9,19,M,,M,,*51
06/13/2015	15:05:25.550	$GPGGA,150526,2420.6514,N,08103.4476,W,1,9,1.9,19,M,,M,,*55
06/13/2015	15:05:26.521	$GPGGA,150527,2420.6515,N,08103.4477,W,1,9,1.9,19,M,,M,,*54
06/13/2015	15:05:27.541	$GPGGA,150528,2420.6516,N,08103.4477,W,1,9,1.9,19,M,,M,,*58
06/13/2015	15:05:28.515	$GPGGA,150529,2420.6519,N,08103.4476,W,1,9,1.9,19,M,,M,,*57
06/13/2015	15:05:29.516	$GPGGA,150530,2420.6521,N,08103.4477,W,1,9,1.9,19,M,,M,,*55
06/13/2015	15:05:30.523	$GPGGA,150531,2420.6523,N,08103.4478,W,1,9,1.9,20,M,,M,,*53
06/13/2015	15:05:31.561	$GPGGA,150532,2420.6523,N,08103.4478,W,1,9,1.9,20,M,,M,,*50
06/13/2015	15:05:32.523	$GPGGA,150533,2420.6526,N,08103.4477,W,1,9,1.9,20,M,,M,,*5B
06/13/2015	15:05:33.623	$GPGGA,150534,2420.6527,N,08103.4475,W,1,9,1.9,20,M,,M,,*5F
06/13/2015	15:05:34.501	$GPGGA,150535,2420.6530,N,08103.4477,W,1,9,1.9,20,M,,M,,*5A
06/13/2015	15:05:35.641	$GPGGA,150536,2420.6534,N,08103.4480,W,1,8,2.7,20,M,,M,,*59
06/13/2015	15:05:36.521	$GPGGA,150537,2420.6536,N,08103.4480,W,1,8,2.7,20,M,,M,,*5A
06/13/2015	15:05:37.614	$GPGGA,150538,2420.6539,N,08103.4478,W,1,9,1.9,20,M,,M,,*51
06/13/2015	15:05:38.601	$GPGGA,150539,2420.6540,N,08103.4480,W,1,9,1.9,20,M,,M,,*59
06/13/2015	15:05:39.631	$GPGGA,150540,2420.6541,N,08103.4480,W,1,9,1.9,20,M,,M,,*56
06/13/2015	15:05:40.612	$GPGGA,150541,2420.6545,N,08103.4480,W,1,9,1.9,20,M,,M,,*53
06/13/2015	15:05:41.530	$GPGGA,150542,2420.6548,N,08103.4477,W,1,8,2.7,20,M,,M,,*59
06/13/2015	15:05:42.511	$GPGGA,150543,2420.6550,N,08103.4480,W,1,8,1.9,20,M,,M,,*54
06/13/2015	15:05:43.590	$GPGGA,150544,2420.6551,N,08103.4481,W,1,9,1.9,20,M,,M,,*52
06/13/2015	15:05:44.581	$GPGGA,150545,2420.6554,N,08103.4479,W,1,9,1.9,20,M,,M,,*51
06/13/2015	15:05:45.491	$GPGGA,150546,2420.6557,N,08103.4478,W,1,9,1.9,20,M,,M,,*50
06/13/2015	15:05:46.491	$GPGGA,150547,2420.6559,N,08103.4480,W,1,9,1.9,20,M,,M,,*58
06/13/2015	15:05:47.491	$GPGGA,150548,2420.6562,N,08103.4479,W,1,9,1.9,20,M,,M,,*59
06/13/2015	15:05:48.581	$GPGGA,150549,2420.6566,N,08103.4480,W,1,9,1.9,20,M,,M,,*5A
06/13/2015	15:05:49.591	$GPGGA,150550,2420.6568,N,08103.4480,W,1,9,1.9,20,M,,M,,*5C
06/13/2015	15:05:50.571	$GPGGA,150551,2420.6570,N,08103.4480,W,1,9,1.9,20,M,,M,,*54
06/13/2015	15:05:51.581	$GPGGA,150552,2420.6572,N,08103.4479,W,1,9,1.9,20,M,,M,,*53
06/13/2015	15:05:52.561	$GPGGA,150553,2420.6574,N,08103.4480,W,1,9,1.9,20,M,,M,,*52
06/13/2015	15:05:53.581	$GPGGA,150554,2420.6577,N,08103.4480,W,1,9,1.9,20,M,,M,,*56
06/13/2015	15:05:54.561	$GPGGA,150555,2420.6581,N,08103.4479,W,1,9,1.9,20,M,,M,,*58
06/13/2015	15:05:55.591	$GPGGA,150556,2420.6584,N,08103.4480,W,1,9,1.9,20,M,,M,,*58
06/13/2015	15:05:56.591	$GPGGA,150557,2420.6587,N,08103.4483,W,1,9,1.9,20,M,,M,,*59
06/13/2015	15:05:57.560	$GPGGA,150558,2420.6590,N,08103.4482,W,1,9,1.9,20,M,,M,,*51
06/13/2015	15:05:58.550	$GPGGA,150559,2420.6592,N,08103.4481,W,1,9,1.9,20,M,,M,,*51
06/13/2015	15:05:59.570	$GPGGA,150600,2420.6595,N,08103.4481,W,1,9,1.9,20,M,,M,,*59
06/13/2015	15:06:00.570	$GPGGA,150601,2420.6599,N,08103.4483,W,1,9,1.9,20,M,,M,,*56
06/13/2015	15:06:01.541	$GPGGA,150602,2420.6605,N,08103.4482,W,1,8,2.7,20,M,,M,,*5E
06/13/2015	15:06:02.551	$GPGGA,150603,2420.6606,N,08103.4483,W,1,8,2.7,20,M,,M,,*5D
06/13/2015	15:06:03.571	$GPGGA,150604,2420.6609,N,08103.4485,W,1,9,1.9,20,M,,M,,*5F
06/13/2015	15:06:04.541	$GPGGA,150605,2420.6612,N,08103.4487,W,1,9,2.3,20,M,,M,,*5F
06/13/2015	15:06:05.962	$GPGGA,150606,2420.6613,N,08103.4487,W,1,9,1.9,21,M,,M,,*55
06/13/2015	15:06:07.613	$GPGGA,150608,2420.6619,N,08103.4494,W,1,9,1.9,21,M,,M,,*53
06/13/2015	15:06:08.541	$GPGGA,150609,2420.6624,N,08103.4494,W,1,9,1.9,21,M,,M,,*5C
06/13/2015	15:06:09.561	$GPGGA,150610,2420.6628,N,08103.4495,W,1,8,2.7,21,M,,M,,*55
06/13/2015	15:06:10.541	$GPGGA,150611,2420.6631,N,08103.4498,W,1,8,1.9,21,M,,M,,*5C
06/13/2015	15:06:11.551	$GPGGA,150612,2420.6635,N,08103.4501,W,1,9,1.9,21,M,,M,,*5B
06/13/2015	15:06:12.531	$GPGGA,150613,2420.6638,N,08103.4501,W,1,9,1.9,21,M,,M,,*57
06/13/2015	15:06:13.551	$GPGGA,150614,2420.6641,N,08103.4500,W,1,8,2.7,22,M,,M,,*50
06/13/2015	15:06:14.521	$GPGGA,150615,2420.6644,N,08103.4501,W,1,8,1.9,22,M,,M,,*58
06/13/2015	15:06:15.540	$GPGGA,150616,2420.6646,N,08103.4502,W,1,9,1.9,22,M,,M,,*5B
06/13/2015	15:06:16.511	$GPGGA,150617,2420.6651,N,08103.4501,W,1,9,1.9,22,M,,M,,*5F
06/13/2015	15:06:17.550	$GPGGA,150618,2420.6655,N,08103.4505,W,1,9,1.9,22,M,,M,,*50
06/13/2015	15:06:18.518	$GPGGA,150619,2420.6659,N,08103.4505,W,1,9,2.7,22,M,,M,,*50
06/13/2015	15:06:19.671	$GPGGA,150620,2420.6662,N,08103.4504,W,1,8,1.9,23,M,,M,,*5E
06/13/2015	15:06:20.522	$GPGGA,150621,2420.6666,N,08103.4506,W,1,8,1.9,23,M,,M,,*59
06/13/2015	15:06:21.527	$GPGGA,150622,2420.6670,N,08103.4508,W,1,9,1.9,23,M,,M,,*52
06/13/2015	15:06:22.623	$GPGGA,150623,2420.6674,N,08103.4507,W,1,9,1.9,23,M,,M,,*58
06/13/2015	15:06:23.501	$GPGGA,150624,2420.6678,N,08103.4508,W,1,9,1.9,23,M,,M,,*5C
06/13/2015	15:06:24.591	$GPGGA,150625,2420.6681,N,08103.4510,W,1,9,1.9,23,M,,M,,*52
06/13/2015	15:06:25.505	$GPGGA,150626,2420.6685,N,08103.4512,W,1,9,1.9,23,M,,M,,*57
06/13/2015	15:06:26.491	$GPGGA,150627,2420.6692,N,08103.4511,W,1,9,2.7,24,M,,M,,*59
06/13/2015	15:06:27.522	$GPGGA,150628,2420.6695,N,08103.4513,W,1,9,1.9,24,M,,M,,*5E
06/13/2015	15:06:28.501	$GPGGA,150629,2420.6696,N,08103.4516,W,1,9,2.0,24,M,,M,,*53
06/13/2015	15:06:29.501	$GPGGA,150630,2420.6702,N,08103.4514,W,1,9,1.9,24,M,,M,,*5F
06/13/2015	15:06:30.491	$GPGGA,150631,2420.6706,N,08103.4513,W,1,9,1.9,24,M,,M,,*5D
06/13/2015	15:06:31.623	$GPGGA,150632,2420.6707,N,08103.4514,W,1,9,1.9,24,M,,M,,*58
06/13/2015	15:06:32.580	$GPGGA,150633,2420.6711,N,08103.4516,W,1,9,1.9,24,M,,M,,*5C
06/13/2015	15:06:33.626	$GPGGA,150634,2420.6714,N,08103.4516,W,1,9,1.9,24,M,,M,,*5E
06/13/2015	15:06:34.580	$GPGGA,150635,2420.6718,N,08103.4516,W,1,9,1.9,24,M,,M,,*53
06/13/2015	15:06:35.600	$GPGGA,150636,2420.6720,N,08103.4516,W,1,9,1.9,24,M,,M,,*5B
06/13/2015	15:06:36.581	$GPGGA,150637,2420.6722,N,08103.4516,W,1,9,1.9,24,M,,M,,*58
06/13/2015	15:06:37.591	$GPGGA,150638,2420.6725,N,08103.4516,W,1,9,1.9,24,M,,M,,*50
06/13/2015	15:06:38.571	$GPGGA,150639,2420.6729,N,08103.4516,W,1,9,1.9,24,M,,M,,*5D
06/13/2015	15:06:39.615	$GPGGA,150640,2420.6732,N,08103.4519,W,1,9,1.9,24,M,,M,,*56
06/13/2015	15:06:40.571	$GPGGA,150641,2420.6734,N,08103.4520,W,1,9,1.9,24,M,,M,,*5B
06/13/2015	15:06:41.551	$GPGGA,150642,2420.6738,N,08103.4519,W,1,9,1.9,24,M,,M,,*5E
06/13/2015	15:06:42.581	$GPGGA,150643,2420.6740,N,08103.4520,W,1,9,1.9,24,M,,M,,*5A
06/13/2015	15:06:43.591	$GPGGA,150644,2420.6742,N,08103.4520,W,1,9,1.9,24,M,,M,,*5F
06/13/2015	15:06:44.551	$GPGGA,150645,2420.6745,N,08103.4521,W,1,9,1.9,24,M,,M,,*58
06/13/2015	15:06:45.551	$GPGGA,150646,2420.6747,N,08103.4523,W,1,9,1.9,24,M,,M,,*5B
06/13/2015	15:06:46.551	$GPGGA,150647,2420.6749,N,08103.4523,W,1,9,1.9,24,M,,M,,*54
06/13/2015	15:06:47.601	$GPGGA,150648,2420.6750,N,08103.4524,W,1,9,2.0,24,M,,M,,*5E
06/13/2015	15:06:48.551	$GPGGA,150649,2420.6754,N,08103.4523,W,1,9,1.9,24,M,,M,,*56
06/13/2015	15:06:49.541	$GPGGA,150650,2420.6757,N,08103.4524,W,1,9,1.9,24,M,,M,,*5A
06/13/2015	15:06:50.550	$GPGGA,150651,2420.6758,N,08103.4525,W,1,9,1.9,24,M,,M,,*55
06/13/2015	15:06:51.570	$GPGGA,150652,2420.6761,N,08103.4525,W,1,9,1.9,24,M,,M,,*5C
06/13/2015	15:06:52.550	$GPGGA,150653,2420.6763,N,08103.4527,W,1,9,1.9,24,M,,M,,*5D
06/13/2015	15:06:53.550	$GPGGA,150654,2420.6765,N,08103.4528,W,1,9,1.9,24,M,,M,,*53
06/13/2015	15:06:54.531	$GPGGA,150655,2420.6767,N,08103.4530,W,1,9,1.9,24,M,,M,,*59
06/13/2015	15:06:55.631	$GPGGA,150656,2420.6768,N,08103.4530,W,1,9,1.9,24,M,,M,,*55
06/13/2015	15:06:56.531	$GPGGA,150657,2420.6769,N,08103.4531,W,1,9,1.9,24,M,,M,,*54
06/13/2015	15:06:57.531	$GPGGA,150658,2420.6772,N,08103.4532,W,1,9,1.9,24,M,,M,,*52
06/13/2015	15:06:58.541	$GPGGA,150659,2420.6772,N,08103.4534,W,1,9,1.9,24,M,,M,,*55
06/13/2015	15:06:59.581	$GPGGA,150700,2420.6776,N,08103.4534,W,1,9,1.9,24,M,,M,,*5C
06/13/2015	15:07:00.547	$GPGGA,150701,2420.6776,N,08103.4535,W,1,9,1.9,24,M,,M,,*5C
06/13/2015	15:07:01.541	$GPGGA,150702,2420.6779,N,08103.4538,W,1,9,1.9,24,M,,M,,*5D
06/13/2015	15:07:02.525	$GPGGA,150703,2420.6781,N,08103.4538,W,1,9,1.9,24,M,,M,,*5B
06/13/2015	15:07:03.581	$GPGGA,150704,2420.6783,N,08103.4539,W,1,9,1.9,24,M,,M,,*5F
06/13/2015	15:07:04.513	$GPGGA,150705,2420.6783,N,08103.4541,W,1,9,1.9,24,M,,M,,*51
06/13/2015	15:07:05.541	$GPGGA,150706,2420.6786,N,08103.4542,W,1,9,1.9,24,M,,M,,*54
06/13/2015	15:07:06.624	$GPGGA,150707,2420.6787,N,08103.4545,W,1,9,1.9,24,M,,M,,*53
06/13/2015	15:07:07.620	$GPGGA,150708,2420.6790,N,08103.4546,W,1,9,1.9,24,M,,M,,*59
06/13/2015	15:07:08.517	$GPGGA,150709,2420.6792,N,08103.4548,W,1,9,2.0,24,M,,M,,*5E
06/13/2015	15:07:09.520	$GPGGA,150710,2420.6793,N,08103.4549,W,1,8,1.9,24,M,,M,,*5D
06/13/2015	15:07:10.608	$GPGGA,150711,2420.6794,N,08103.4552,W,1,8,1.9,24,M,,M,,*51
06/13/2015	15:07:11.630	$GPGGA,150712,2420.6797,N,08103.4552,W,1,9,1.9,24,M,,M,,*50
06/13/2015	15:07:12.604	$GPGGA,150713,2420.6800,N,08103.4555,W,1,9,1.9,24,M,,M,,*57
06/13/2015	15:07:13.503	$GPGGA,150714,2420.6801,N,08103.4556,W,1,9,1.9,24,M,,M,,*52
06/13/2015	15:07:14.490	$GPGGA,150715,2420.6801,N,08103.4557,W,1,9,1.9,24,M,,M,,*52
06/13/2015	15:07:15.620	$GPGGA,150716,2420.6804,N,08103.4559,W,1,9,1.9,24,M,,M,,*5A
06/13/2015	15:07:16.570	$GPGGA,150717,2420.6807,N,08103.4558,W,1,9,1.9,24,M,,M,,*59
06/13/2015	15:07:17.570	$GPGGA,150718,2420.6808,N,08103.4559,W,1,9,2.0,24,M,,M,,*52
06/13/2015	15:07:18.570	$GPGGA,150719,2420.6810,N,08103.4560,W,1,9,2.0,24,M,,M,,*50
06/13/2015	15:07:19.601	$GPGGA,150720,2420.6811,N,08103.4563,W,1,9,1.9,23,M,,M,,*55
06/13/2015	15:07:20.515	$GPGGA,150721,2420.6814,N,08103.4563,W,1,9,1.9,23,M,,M,,*51
06/13/2015	15:07:21.490	$GPGGA,150722,2420.6815,N,08103.4566,W,1,9,2.0,23,M,,M,,*5C
06/13/2015	15:07:22.561	$GPGGA,150723,2420.6815,N,08103.4566,W,1,9,2.0,23,M,,M,,*5D
06/13/2015	15:07:23.608	$GPGGA,150724,2420.6818,N,08103.4567,W,1,9,1.9,23,M,,M,,*5C
06/13/2015	15:07:24.561	$GPGGA,150725,2420.6819,N,08103.4570,W,1,9,2.0,23,M,,M,,*50
06/13/2015	15:07:25.570	$GPGGA,150726,2420.6823,N,08103.4570,W,1,9,1.9,23,M,,M,,*50
06/13/2015	15:07:26.560	$GPGGA,150727,2420.6825,N,08103.4572,W,1,9,1.9,23,M,,M,,*55
06/13/2015	15:07:27.581	$GPGGA,150728,2420.6826,N,08103.4574,W,1,9,1.9,23,M,,M,,*5F
06/13/2015	15:07:28.550	$GPGGA,150729,2420.6828,N,08103.4574,W,1,9,1.9,23,M,,M,,*50
06/13/2015	15:07:29.580	$GPGGA,150730,2420.6830,N,08103.4575,W,1,9,1.9,23,M,,M,,*50
06/13/2015	15:07:30.550	$GPGGA,150731,2420.6833,N,08103.4577,W,1,9,1.9,23,M,,M,,*50
06/13/2015	15:07:31.605	$GPGGA,150732,2420.6834,N,08103.4581,W,1,9,1.9,23,M,,M,,*5D
06/13/2015	15:07:32.540	$GPGGA,150733,2420.6836,N,08103.4584,W,1,9,1.9,23,M,,M,,*5B
06/13/2015	15:07:33.560	$GPGGA,150734,2420.6839,N,08103.4585,W,1,9,1.9,23,M,,M,,*52
06/13/2015	15:07:34.550	$GPGGA,150735,2420.6839,N,08103.4585,W,1,9,2.0,23,M,,M,,*59
06/13/2015	15:07:35.570	$GPGGA,150736,2420.6843,N,08103.4589,W,1,8,2.0,23,M,,M,,*5A
06/13/2015	15:07:36.550	$GPGGA,150737,2420.6844,N,08103.4593,W,1,8,1.9,23,M,,M,,*5D
06/13/2015	15:07:37.530	$GPGGA,150738,2420.6847,N,08103.4595,W,1,9,1.9,23,M,,M,,*56
06/13/2015	15:07:38.540	$GPGGA,150739,2420.6850,N,08103.4597,W,1,9,1.9,22,M,,M,,*52
06/13/2015	15:07:39.561	$GPGGA,150740,2420.6852,N,08103.4602,W,1,8,2.0,22,M,,M,,*5A
06/13/2015	15:07:40.531	$GPGGA,150741,2420.6854,N,08103.4604,W,1,8,1.9,22,M,,M,,*51
06/13/2015	15:07:41.521	$GPGGA,150742,2420.6857,N,08103.4606,W,1,9,1.9,22,M,,M,,*52
06/13/2015	15:07:42.530	$GPGGA,150743,2420.6859,N,08103.4607,W,1,9,1.9,22,M,,M,,*5C
06/13/2015	15:07:43.550	$GPGGA,150744,2420.6861,N,08103.4610,W,1,9,1.9,22,M,,M,,*56
06/13/2015	15:07:44.530	$GPGGA,150745,2420.6862,N,08103.4613,W,1,9,1.9,22,M,,M,,*57
06/13/2015	15:07:45.550	$GPGGA,150746,2420.6865,N,08103.4617,W,1,9,1.9,22,M,,M,,*57
06/13/2015	15:07:46.520	$GPGGA,150747,2420.6869,N,08103.4618,W,1,9,1.9,22,M,,M,,*55
06/13/2015	15:07:47.520	$GPGGA,150748,2420.6870,N,08103.4622,W,1,9,1.9,22,M,,M,,*5B
06/13/2015	15:07:48.520	$GPGGA,150749,2420.6872,N,08103.4625,W,1,9,2.0,22,M,,M,,*55
06/13/2015	15:07:49.511	$GPGGA,150750,2420.6875,N,08103.4628,W,1,8,2.0,22,M,,M,,*56
06/13/2015	15:07:50.520	$GPGGA,150751,2420.6877,N,08103.4627,W,1,8,2.0,21,M,,M,,*59
06/13/2015	15:07:51.520	$GPGGA,150752,2420.6879,N,08103.4632,W,1,9,1.9,21,M,,M,,*5B
06/13/2015	15:07:52.505	$GPGGA,150753,2420.6880,N,08103.4635,W,1,9,2.0,21,M,,M,,*51
06/13/2015	15:07:53.612	$GPGGA,150754,2420.6883,N,08103.4639,W,1,9,1.9,21,M,,M,,*53
06/13/2015	15:07:54.502	$GPGGA,150755,2420.6886,N,08103.4644,W,1,9,1.9,21,M,,M,,*5D
06/13/2015	15:07:55.620	$GPGGA,150756,2420.6887,N,08103.4647,W,1,9,1.9,21,M,,M,,*5C
06/13/2015	15:07:56.490	$GPGGA,150757,2420.6888,N,08103.4650,W,1,9,1.9,21,M,,M,,*54
06/13/2015	15:07:57.511	$GPGGA,150758,2420.6891,N,08103.4653,W,1,9,1.9,21,M,,M,,*50
06/13/2015	15:07:58.491	$GPGGA,150759,2420.6893,N,08103.4655,W,1,9,1.9,21,M,,M,,*55
06/13/2015	15:07:59.651	$GPGGA,150800,2420.6895,N,08103.4658,W,1,9,1.9,21,M,,M,,*5D
06/13/2015	15:08:00.510	$GPGGA,150801,2420.6898,N,08103.4662,W,1,9,2.1,21,M,,M,,*53
06/13/2015	15:08:01.507	$GPGGA,150802,2420.6899,N,08103.4667,W,1,9,1.9,21,M,,M,,*5F
06/13/2015	15:08:02.500	$GPGGA,150803,2420.6902,N,08103.4671,W,1,9,1.9,21,M,,M,,*5A
06/13/2015	15:08:03.500	$GPGGA,150804,2420.6905,N,08103.4675,W,1,9,1.9,21,M,,M,,*5E
06/13/2015	15:08:04.491	$GPGGA,150805,2420.6906,N,08103.4678,W,1,9,1.9,20,M,,M,,*50
06/13/2015	15:08:05.570	$GPGGA,150806,2420.6906,N,08103.4680,W,1,9,1.9,20,M,,M,,*54
06/13/2015	15:08:06.480	$GPGGA,150807,2420.6909,N,08103.4686,W,1,9,1.9,20,M,,M,,*5C
06/13/2015	15:08:07.610	$GPGGA,150808,2420.6911,N,08103.4691,W,1,9,1.9,20,M,,M,,*5C
06/13/2015	15:08:08.570	$GPGGA,150809,2420.6910,N,08103.4696,W,1,9,1.9,20,M,,M,,*5B
06/13/2015	15:08:09.580	$GPGGA,150810,2420.6912,N,08103.4700,W,1,9,1.9,20,M,,M,,*5F
06/13/2015	15:08:10.571	$GPGGA,150811,2420.6913,N,08103.4704,W,1,9,1.9,20,M,,M,,*5B
06/13/2015	15:08:11.590	$GPGGA,150812,2420.6913,N,08103.4707,W,1,9,1.9,20,M,,M,,*5B
06/13/2015	15:08:12.550	$GPGGA,150813,2420.6913,N,08103.4711,W,1,9,1.9,20,M,,M,,*5D
06/13/2015	15:08:13.550	$GPGGA,150814,2420.6915,N,08103.4716,W,1,9,1.9,20,M,,M,,*5B
06/13/2015	15:08:14.561	$GPGGA,150815,2420.6916,N,08103.4722,W,1,9,1.9,20,M,,M,,*5E
06/13/2015	15:08:15.571	$GPGGA,150816,2420.6915,N,08103.4726,W,1,9,1.9,20,M,,M,,*5A
06/13/2015	15:08:16.561	$GPGGA,150817,2420.6916,N,08103.4729,W,1,9,1.9,20,M,,M,,*57
06/13/2015	15:08:17.540	$GPGGA,150818,2420.6917,N,08103.4733,W,1,8,2.0,20,M,,M,,*59
06/13/2015	15:08:18.550	$GPGGA,150819,2420.6920,N,08103.4736,W,1,8,2.0,20,M,,M,,*59
06/13/2015	15:08:19.580	$GPGGA,150820,2420.6917,N,08103.4740,W,1,9,1.9,20,M,,M,,*5D
06/13/2015	15:08:20.550	$GPGGA,150821,2420.6917,N,08103.4744,W,1,9,1.9,20,M,,M,,*58
06/13/2015	15:08:21.560	$GPGGA,150822,2420.6920,N,08103.4747,W,1,9,1.9,20,M,,M,,*5C
06/13/2015	15:08:22.540	$GPGGA,150823,2420.6920,N,08103.4751,W,1,9,1.9,20,M,,M,,*5A
06/13/2015	15:08:23.580	$GPGGA,150824,2420.6919,N,08103.4754,W,1,9,1.9,20,M,,M,,*52
06/13/2015	15:08:24.540	$GPGGA,150825,2420.6922,N,08103.4756,W,1,9,2.0,20,M,,M,,*53
06/13/2015	15:08:25.540	$GPGGA,150826,2420.6924,N,08103.4759,W,1,8,2.1,20,M,,M,,*59
06/13/2015	15:08:26.870	$GPGGA,150827,2420.6924,N,08103.4762,W,1,8,1.9,20,M,,M,,*5B
06/13/2015	15:08:27.530	$GPGGA,150828,2420.6924,N,08103.4765,W,1,9,1.9,20,M,,M,,*52
06/13/2015	15:08:28.530	$GPGGA,150829,2420.6926,N,08103.4769,W,1,9,1.9,20,M,,M,,*5D
06/13/2015	15:08:29.550	$GPGGA,150830,2420.6927,N,08103.4770,W,1,9,1.9,20,M,,M,,*5C
06/13/2015	15:08:30.520	$GPGGA,150831,2420.6928,N,08103.4772,W,1,9,1.9,20,M,,M,,*50
06/13/2015	15:08:31.530	$GPGGA,150832,2420.6928,N,08103.4776,W,1,9,1.9,20,M,,M,,*57
06/13/2015	15:08:32.531	$GPGGA,150833,2420.6928,N,08103.4777,W,1,9,1.9,20,M,,M,,*57
06/13/2015	15:08:33.512	$GPGGA,150834,2420.6930,N,08103.4780,W,1,9,1.9,20,M,,M,,*51
06/13/2015	15:08:34.521	$GPGGA,150835,2420.6931,N,08103.4781,W,1,9,1.9,20,M,,M,,*50
06/13/2015	15:08:35.570	$GPGGA,150836,2420.6931,N,08103.4784,W,1,9,1.9,20,M,,M,,*56
06/13/2015	15:08:36.520	$GPGGA,150837,2420.6928,N,08103.4787,W,1,9,1.9,20,M,,M,,*5C
06/13/2015	15:08:37.504	$GPGGA,150838,2420.6931,N,08103.4787,W,1,9,1.9,20,M,,M,,*5B
06/13/2015	15:08:38.620	$GPGGA,150839,2420.6931,N,08103.4790,W,1,9,1.9,20,M,,M,,*5C
06/13/2015	15:08:39.630	$GPGGA,150840,2420.6928,N,08103.4791,W,1,9,1.9,20,M,,M,,*5B
06/13/2015	15:08:40.590	$GPGGA,150841,2420.6927,N,08103.4794,W,1,9,1.9,20,M,,M,,*50
06/13/2015	15:08:41.490	$GPGGA,150842,2420.6928,N,08103.4796,W,1,8,2.0,20,M,,M,,*55
06/13/2015	15:08:42.503	$GPGGA,150843,2420.6928,N,08103.4799,W,1,8,2.0,20,M,,M,,*5B
06/13/2015	15:08:43.520	$GPGGA,150844,2420.6927,N,08103.4801,W,1,8,2.0,20,M,,M,,*5D
06/13/2015	15:08:44.511	$GPGGA,150845,2420.6926,N,08103.4805,W,1,8,1.9,20,M,,M,,*53
06/13/2015	15:08:45.612	$GPGGA,150846,2420.6925,N,08103.4808,W,1,9,1.9,20,M,,M,,*5F
06/13/2015	15:08:46.505	$GPGGA,150847,2420.6924,N,08103.4810,W,1,9,2.0,20,M,,M,,*5C
06/13/2015	15:08:47.530	$GPGGA,150848,2420.6922,N,08103.4814,W,1,9,1.9,20,M,,M,,*5B
06/13/2015	15:08:48.480	$GPGGA,150849,2420.6921,N,08103.4819,W,1,9,1.9,20,M,,M,,*54
06/13/2015	15:08:49.571	$GPGGA,150850,2420.6922,N,08103.4823,W,1,8,2.0,20,M,,M,,*5D
06/13/2015	15:08:50.581	$GPGGA,150851,2420.6920,N,08103.4824,W,1,8,2.0,20,M,,M,,*59
06/13/2015	15:08:51.631	$GPGGA,150852,2420.6918,N,08103.4827,W,1,8,2.0,20,M,,M,,*52
06/13/2015	15:08:52.570	$GPGGA,150853,2420.6920,N,08103.4831,W,1,8,2.0,20,M,,M,,*5F
06/13/2015	15:08:53.570	$GPGGA,150854,2420.6919,N,08103.4837,W,1,9,1.9,20,M,,M,,*5F
06/13/2015	15:08:54.570	$GPGGA,150855,2420.6918,N,08103.4841,W,1,9,1.9,20,M,,M,,*5E
06/13/2015	15:08:55.580	$GPGGA,150856,2420.6917,N,08103.4845,W,1,9,1.9,20,M,,M,,*56
06/13/2015	15:08:56.480	$GPGGA,150857,2420.6915,N,08103.4848,W,1,9,2.0,21,M,,M,,*53
06/13/2015	15:08:57.590	$GPGGA,150858,2420.6914,N,08103.4850,W,1,8,2.0,21,M,,M,,*55
06/13/2015	15:08:58.560	$GPGGA,150859,2420.6913,N,08103.4855,W,1,8,1.9,21,M,,M,,*5C
06/13/2015	15:08:59.604	$GPGGA,150900,2420.6913,N,08103.4859,W,1,9,1.9,21,M,,M,,*5C
06/13/2015	15:09:00.560	$GPGGA,150901,2420.6911,N,08103.4864,W,1,9,1.9,21,M,,M,,*51
06/13/2015	15:09:01.580	$GPGGA,150902,2420.6909,N,08103.4868,W,1,9,1.9,21,M,,M,,*57
06/13/2015	15:09:02.550	$GPGGA,150903,2420.6907,N,08103.4873,W,1,9,2.0,21,M,,M,,*58
06/13/2015	15:09:03.580	$GPGGA,150904,2420.6906,N,08103.4877,W,1,8,2.0,21,M,,M,,*5B
06/13/2015	15:09:04.560	$GPGGA,150905,2420.6906,N,08103.4881,W,1,8,1.9,20,M,,M,,*58
06/13/2015	15:09:05.560	$GPGGA,150906,2420.6903,N,08103.4885,W,1,9,1.9,20,M,,M,,*5B
06/13/2015	15:09:06.550	$GPGGA,150907,2420.6902,N,08103.4891,W,1,9,1.9,20,M,,M,,*5E
06/13/2015	15:09:07.591	$GPGGA,150908,2420.6899,N,08103.4896,W,1,9,1.9,20,M,,M,,*55
06/13/2015	15:09:08.551	$GPGGA,150909,2420.6898,N,08103.4902,W,1,9,2.1,20,M,,M,,*52
06/13/2015	15:09:09.571	$GPGGA,150910,2420.6897,N,08103.4906,W,1,9,1.9,20,M,,M,,*5A
06/13/2015	15:09:10.540	$GPGGA,150911,2420.6895,N,08103.4908,W,1,9,1.9,20,M,,M,,*57
06/13/2015	15:09:11.540	$GPGGA,150912,2420.6895,N,08103.4913,W,1,9,1.9,20,M,,M,,*5E
06/13/2015	15:09:12.550	$GPGGA,150913,2420.6895,N,08103.4917,W,1,9,1.9,20,M,,M,,*5B
06/13/2015	15:09:13.560	$GPGGA,150914,2420.6895,N,08103.4922,W,1,9,1.9,20,M,,M,,*5A
06/13/2015	15:09:14.520	$GPGGA,150915,2420.6895,N,08103.4926,W,1,9,1.9,20,M,,M,,*5F
06/13/2015	15:09:15.570	$GPGGA,150916,2420.6895,N,08103.4931,W,1,9,1.9,20,M,,M,,*5A
06/13/2015	15:09:16.520	$GPGGA,150917,2420.6895,N,08103.4936,W,1,9,1.9,20,M,,M,,*5C
06/13/2015	15:09:17.540	$GPGGA,150918,2420.6895,N,08103.4939,W,1,9,1.9,20,M,,M,,*5C
06/13/2015	15:09:18.520	$GPGGA,150919,2420.6895,N,08103.4942,W,1,9,1.9,20,M,,M,,*51
06/13/2015	15:09:19.560	$GPGGA,150920,2420.6895,N,08103.4946,W,1,9,1.9,20,M,,M,,*5F
06/13/2015	15:09:20.530	$GPGGA,150921,2420.6895,N,08103.4950,W,1,9,1.9,20,M,,M,,*59
06/13/2015	15:09:21.550	$GPGGA,150922,2420.6895,N,08103.4954,W,1,9,1.9,20,M,,M,,*5E
06/13/2015	15:09:22.940	$GPGGA,150923,2420.6893,N,08103.4958,W,1,9,1.9,20,M,,M,,*55
06/13/2015	15:09:23.530	$GPGGA,150924,2420.6895,N,08103.4962,W,1,9,1.9,20,M,,M,,*5D
06/13/2015	15:09:24.512	$GPGGA,150925,2420.6895,N,08103.4967,W,1,9,1.9,20,M,,M,,*59
06/13/2015	15:09:25.661	$GPGGA,150926,2420.6895,N,08103.4969,W,1,9,1.9,20,M,,M,,*54
06/13/2015	15:09:26.507	$GPGGA,150927,2420.6895,N,08103.4971,W,1,9,1.9,20,M,,M,,*5C
06/13/2015	15:09:27.530	$GPGGA,150928,2420.6895,N,08103.4975,W,1,9,1.9,20,M,,M,,*57
06/13/2015	15:09:28.512	$GPGGA,150929,2420.6895,N,08103.4980,W,1,9,1.9,20,M,,M,,*5C
06/13/2015	15:09:29.630	$GPGGA,150930,2420.6895,N,08103.4985,W,1,9,1.9,20,M,,M,,*51
06/13/2015	15:09:30.623	$GPGGA,150931,2420.6895,N,08103.4989,W,1,9,1.9,20,M,,M,,*5C
06/13/2015	15:09:31.540	$GPGGA,150932,2420.6895,N,08103.4991,W,1,9,1.9,20,M,,M,,*56
06/13/2015	15:09:32.660	$GPGGA,150933,2420.6895,N,08103.4994,W,1,9,1.9,20,M,,M,,*52
06/13/2015	15:09:33.510	$GPGGA,150934,2420.6893,N,08103.4996,W,1,9,1.9,20,M,,M,,*51
06/13/2015	15:09:34.501	$GPGGA,150935,2420.6894,N,08103.5000,W,1,9,1.9,20,M,,M,,*50
06/13/2015	15:09:35.650	$GPGGA,150936,2420.6893,N,08103.5004,W,1,9,1.9,20,M,,M,,*50
06/13/2015	15:09:36.660	$GPGGA,150937,2420.6892,N,08103.5007,W,1,9,1.9,20,M,,M,,*53
06/13/2015	15:09:37.490	$GPGGA,150938,2420.6891,N,08103.5011,W,1,9,1.9,20,M,,M,,*58
06/13/2015	15:09:38.640	$GPGGA,150939,2420.6890,N,08103.5014,W,1,9,1.9,20,M,,M,,*5D
06/13/2015	15:09:39.660	$GPGGA,150940,2420.6891,N,08103.5016,W,1,9,1.9,20,M,,M,,*50
06/13/2015	15:09:40.640	$GPGGA,150941,2420.6889,N,08103.5018,W,1,9,1.9,20,M,,M,,*56
06/13/2015	15:09:41.621	$GPGGA,150942,2420.6890,N,08103.5020,W,1,8,2.0,20,M,,M,,*5D
06/13/2015	15:09:42.641	$GPGGA,150943,2420.6889,N,08103.5025,W,1,8,1.9,20,M,,M,,*5B
06/13/2015	15:09:43.641	$GPGGA,150944,2420.6890,N,08103.5029,W,1,9,1.9,20,M,,M,,*59
06/13/2015	15:09:44.631	$GPGGA,150945,2420.6889,N,08103.5033,W,1,9,1.9,20,M,,M,,*5B
06/13/2015	15:09:45.560	$GPGGA,150946,2420.6890,N,08103.5036,W,1,9,1.9,20,M,,M,,*55
06/13/2015	15:09:46.630	$GPGGA,150947,2420.6889,N,08103.5038,W,1,9,1.9,20,M,,M,,*52
06/13/2015	15:09:47.621	$GPGGA,150948,2420.6888,N,08103.5041,W,1,9,1.9,20,M,,M,,*52
06/13/2015	15:09:48.640	$GPGGA,150949,2420.6888,N,08103.5044,W,1,9,1.9,20,M,,M,,*56
06/13/2015	15:09:49.609	$GPGGA,150950,2420.6888,N,08103.5048,W,1,9,1.9,20,M,,M,,*52
06/13/2015	15:09:50.603	$GPGGA,150951,2420.6885,N,08103.5054,W,1,9,1.9,20,M,,M,,*53
06/13/2015	15:09:51.630	$GPGGA,150952,2420.6884,N,08103.5061,W,1,9,2.0,20,M,,M,,*5D
06/13/2015	15:09:52.617	$GPGGA,150953,2420.6884,N,08103.5065,W,1,9,2.0,20,M,,M,,*58
06/13/2015	15:09:53.540	$GPGGA,150954,2420.6880,N,08103.5069,W,1,9,2.0,20,M,,M,,*57
06/13/2015	15:09:54.604	$GPGGA,150955,2420.6879,N,08103.5072,W,1,9,2.0,20,M,,M,,*5A
06/13/2015	15:09:55.602	$GPGGA,150956,2420.6878,N,08103.5076,W,1,8,2.0,20,M,,M,,*5D
06/13/2015	15:09:56.615	$GPGGA,150957,2420.6875,N,08103.5081,W,1,8,2.0,20,M,,M,,*59
06/13/2015	15:09:57.602	$GPGGA,150958,2420.6873,N,08103.5087,W,1,9,2.0,20,M,,M,,*57
06/13/2015	15:09:58.530	$GPGGA,150959,2420.6871,N,08103.5094,W,1,9,2.0,20,M,,M,,*56
06/13/2015	15:09:59.631	$GPGGA,151000,2420.6868,N,08103.5099,W,1,8,2.0,20,M,,M,,*56
06/13/2015	15:10:00.531	$GPGGA,151001,2420.6866,N,08103.5103,W,1,8,2.0,20,M,,M,,*5B
06/13/2015	15:10:01.609	$GPGGA,151002,2420.6864,N,08103.5108,W,1,9,2.0,20,M,,M,,*50
06/13/2015	15:10:02.590	$GPGGA,151003,2420.6862,N,08103.5110,W,1,9,2.0,20,M,,M,,*5E
06/13/2015	15:10:03.530	$GPGGA,151004,2420.6861,N,08103.5116,W,1,9,2.0,20,M,,M,,*5C
06/13/2015	15:10:04.590	$GPGGA,151005,2420.6860,N,08103.5121,W,1,9,2.0,20,M,,M,,*58
06/13/2015	15:10:05.605	$GPGGA,151006,2420.6857,N,08103.5126,W,1,9,2.0,19,M,,M,,*52
06/13/2015	15:10:06.520	$GPGGA,151007,2420.6855,N,08103.5131,W,1,9,2.0,19,M,,M,,*57
06/13/2015	15:10:07.530	$GPGGA,151008,2420.6855,N,08103.5138,W,1,9,2.0,19,M,,M,,*51
06/13/2015	15:10:08.514	$GPGGA,151009,2420.6853,N,08103.5144,W,1,9,2.0,19,M,,M,,*5D
06/13/2015	15:10:09.550	$GPGGA,151010,2420.6850,N,08103.5148,W,1,9,2.0,19,M,,M,,*5A
06/13/2015	15:10:10.500	$GPGGA,151011,2420.6848,N,08103.5152,W,1,9,2.0,19,M,,M,,*59
06/13/2015	15:10:11.630	$GPGGA,151012,2420.6850,N,08103.5159,W,1,9,2.0,19,M,,M,,*58
06/13/2015	15:10:12.560	$GPGGA,151013,2420.6848,N,08103.5164,W,1,9,2.0,19,M,,M,,*5E
06/13/2015	15:10:13.620	$GPGGA,151014,2420.6844,N,08103.5170,W,1,9,2.0,19,M,,M,,*50
06/13/2015	15:10:14.560	$GPGGA,151015,2420.6843,N,08103.5177,W,1,9,2.0,19,M,,M,,*51
06/13/2015	15:10:15.630	$GPGGA,151016,2420.6844,N,08103.5184,W,1,9,2.0,19,M,,M,,*59
06/13/2015	15:10:16.561	$GPGGA,151017,2420.6841,N,08103.5189,W,1,9,2.0,19,M,,M,,*50
06/13/2015	15:10:17.621	$GPGGA,151018,2420.6839,N,08103.5193,W,1,9,2.0,19,M,,M,,*5B
06/13/2015	15:10:18.561	$GPGGA,151019,2420.6841,N,08103.5199,W,1,9,2.0,19,M,,M,,*5F
06/13/2015	15:10:19.631	$GPGGA,151020,2420.6841,N,08103.5206,W,1,9,2.0,19,M,,M,,*50
06/13/2015	15:10:20.615	$GPGGA,151021,2420.6839,N,08103.5213,W,1,9,2.0,19,M,,M,,*5A
06/13/2015	15:10:21.621	$GPGGA,151022,2420.6838,N,08103.5220,W,1,9,2.0,19,M,,M,,*58
06/13/2015	15:10:22.550	$GPGGA,151023,2420.6840,N,08103.5228,W,1,9,2.0,19,M,,M,,*5E
06/13/2015	15:10:23.560	$GPGGA,151024,2420.6839,N,08103.5232,W,1,9,2.0,19,M,,M,,*5C
06/13/2015	15:10:24.600	$GPGGA,151025,2420.6840,N,08103.5238,W,1,9,2.0,19,M,,M,,*59
06/13/2015	15:10:25.580	$GPGGA,151026,2420.6839,N,08103.5245,W,1,9,2.0,19,M,,M,,*5E
06/13/2015	15:10:26.540	$GPGGA,151027,2420.6840,N,08103.5250,W,1,9,2.0,19,M,,M,,*55
06/13/2015	15:10:27.617	$GPGGA,151028,2420.6841,N,08103.5257,W,1,9,2.0,19,M,,M,,*5C
06/13/2015	15:10:28.570	$GPGGA,151029,2420.6841,N,08103.5264,W,1,9,2.0,19,M,,M,,*5D
06/13/2015	15:10:29.602	$GPGGA,151030,2420.6843,N,08103.5271,W,1,8,2.0,19,M,,M,,*52
06/13/2015	15:10:30.570	$GPGGA,151031,2420.6844,N,08103.5276,W,1,8,2.0,19,M,,M,,*53
06/13/2015	15:10:31.615	$GPGGA,151032,2420.6844,N,08103.5282,W,1,9,2.0,19,M,,M,,*5A
06/13/2015	15:10:32.580	$GPGGA,151033,2420.6844,N,08103.5286,W,1,9,2.0,19,M,,M,,*5F
06/13/2015	15:10:33.590	$GPGGA,151034,2420.6847,N,08103.5293,W,1,9,2.0,19,M,,M,,*5F
06/13/2015	15:10:34.551	$GPGGA,151035,2420.6848,N,08103.5300,W,1,9,2.0,19,M,,M,,*5A
06/13/2015	15:10:35.591	$GPGGA,151036,2420.6851,N,08103.5305,W,1,9,2.0,18,M,,M,,*55
06/13/2015	15:10:36.551	$GPGGA,151037,2420.6852,N,08103.5311,W,1,9,2.0,18,M,,M,,*52
06/13/2015	15:10:37.560	$GPGGA,151038,2420.6854,N,08103.5316,W,1,9,2.0,18,M,,M,,*5C
06/13/2015	15:10:38.560	$GPGGA,151039,2420.6855,N,08103.5322,W,1,9,2.0,18,M,,M,,*5B
06/13/2015	15:10:39.580	$GPGGA,151040,2420.6855,N,08103.5322,W,1,9,2.0,18,M,,M,,*55
06/13/2015	15:10:40.560	$GPGGA,151041,2420.6859,N,08103.5333,W,1,9,2.0,18,M,,M,,*58
06/13/2015	15:10:41.590	$GPGGA,151042,2420.6861,N,08103.5340,W,1,9,2.0,18,M,,M,,*54
06/13/2015	15:10:42.560	$GPGGA,151043,2420.6863,N,08103.5347,W,1,9,2.0,18,M,,M,,*50
06/13/2015	15:10:43.620	$GPGGA,151044,2420.6866,N,08103.5352,W,1,9,2.0,18,M,,M,,*56
06/13/2015	15:10:44.550	$GPGGA,151045,2420.6870,N,08103.5358,W,1,9,2.0,18,M,,M,,*5A
06/13/2015	15:10:45.560	$GPGGA,151046,2420.6872,N,08103.5362,W,1,9,2.0,18,M,,M,,*52
06/13/2015	15:10:46.550	$GPGGA,151047,2420.6873,N,08103.5368,W,1,9,2.0,18,M,,M,,*58
06/13/2015	15:10:47.580	$GPGGA,151048,2420.6877,N,08103.5373,W,1,9,2.0,18,M,,M,,*59
06/13/2015	15:10:48.540	$GPGGA,151049,2420.6883,N,08103.5379,W,1,9,2.0,18,M,,M,,*59
06/13/2015	15:10:49.560	$GPGGA,151050,2420.6886,N,08103.5384,W,1,9,2.0,18,M,,M,,*56
06/13/2015	15:10:50.540	$GPGGA,151051,2420.6886,N,08103.5384,W,1,9,2.0,18,M,,M,,*57
06/13/2015	15:10:51.551	$GPGGA,151052,2420.6894,N,08103.5395,W,1,9,2.0,18,M,,M,,*57
06/13/2015	15:10:52.521	$GPGGA,151053,2420.6894,N,08103.5395,W,1,9,2.0,18,M,,M,,*56
06/13/2015	15:10:53.551	$GPGGA,151054,2420.6899,N,08103.5405,W,1,9,2.0,18,M,,M,,*52
06/13/2015	15:10:54.531	$GPGGA,151055,2420.6899,N,08103.5405,W,1,9,2.0,18,M,,M,,*53
06/13/2015	15:10:55.560	$GPGGA,151056,2420.6909,N,08103.5412,W,1,9,2.7,18,M,,M,,*59
06/13/2015	15:10:56.560	$GPGGA,151057,2420.6913,N,08103.5415,W,1,9,2.0,18,M,,M,,*53
06/13/2015	15:10:57.540	$GPGGA,151058,2420.6913,N,08103.5415,W,1,9,2.0,18,M,,M,,*5C
06/13/2015	15:10:58.510	$GPGGA,151059,2420.6916,N,08103.5419,W,1,9,2.0,18,M,,M,,*54
06/13/2015	15:10:59.580	$GPGGA,151100,2420.6924,N,08103.5426,W,1,9,2.0,18,M,,M,,*54
06/13/2015	15:11:00.600	$GPGGA,151101,2420.6930,N,08103.5428,W,1,9,2.0,18,M,,M,,*5E
06/13/2015	15:11:01.530	$GPGGA,151102,2420.6935,N,08103.5433,W,1,9,2.0,18,M,,M,,*52
06/13/2015	15:11:02.530	$GPGGA,151103,2420.6935,N,08103.5433,W,1,9,2.0,18,M,,M,,*53
06/13/2015	15:11:03.560	$GPGGA,151104,2420.6945,N,08103.5441,W,1,9,2.0,18,M,,M,,*56
06/13/2015	15:11:04.612	$GPGGA,151105,2420.6952,N,08103.5444,W,1,9,2.0,18,M,,M,,*54
06/13/2015	15:11:05.615	$GPGGA,151106,2420.6956,N,08103.5445,W,1,8,2.7,18,M,,M,,*54
06/13/2015	15:11:06.520	$GPGGA,151107,2420.6956,N,08103.5445,W,1,8,2.0,18,M,,M,,*52
06/13/2015	15:11:07.630	$GPGGA,151108,2420.6964,N,08103.5451,W,1,9,2.0,18,M,,M,,*58
06/13/2015	15:11:08.530	$GPGGA,151109,2420.6964,N,08103.5451,W,1,9,2.0,19,M,,M,,*58
06/13/2015	15:11:09.514	$GPGGA,151110,2420.6974,N,08103.5456,W,1,9,2.0,19,M,,M,,*56
06/13/2015	15:11:10.513	$GPGGA,151111,2420.6974,N,08103.5456,W,1,9,2.0,19,M,,M,,*57
06/13/2015	15:11:11.616	$GPGGA,151112,2420.6985,N,08103.5462,W,1,9,2.0,19,M,,M,,*5D
06/13/2015	15:11:12.580	$GPGGA,151113,2420.6989,N,08103.5462,W,1,9,2.0,19,M,,M,,*50
06/13/2015	15:11:13.615	$GPGGA,151114,2420.6995,N,08103.5464,W,1,9,2.0,20,M,,M,,*56
06/13/2015	15:11:14.500	$GPGGA,151115,2420.6995,N,08103.5464,W,1,9,2.0,20,M,,M,,*57
06/13/2015	15:11:15.590	$GPGGA,151116,2420.7006,N,08103.5470,W,1,9,2.0,20,M,,M,,*53
06/13/2015	15:11:17.630	$GPGGA,151118,2420.7017,N,08103.5473,W,1,9,2.0,20,M,,M,,*5E
06/13/2015	15:11:18.570	$GPGGA,151119,2420.7021,N,08103.5477,W,1,9,2.0,20,M,,M,,*5E
06/13/2015	15:11:19.621	$GPGGA,151120,2420.7025,N,08103.5477,W,1,8,2.7,20,M,,M,,*56
06/13/2015	15:11:20.560	$GPGGA,151121,2420.7032,N,08103.5476,W,1,8,2.0,20,M,,M,,*57
06/13/2015	15:11:21.570	$GPGGA,151122,2420.7036,N,08103.5477,W,1,9,2.0,21,M,,M,,*51
06/13/2015	15:11:22.560	$GPGGA,151123,2420.7042,N,08103.5480,W,1,9,2.0,21,M,,M,,*5B
06/13/2015	15:11:23.615	$GPGGA,151124,2420.7046,N,08103.5482,W,1,9,2.0,21,M,,M,,*5A
06/13/2015	15:11:24.560	$GPGGA,151125,2420.7052,N,08103.5482,W,1,9,2.7,21,M,,M,,*59
06/13/2015	15:11:25.580	$GPGGA,151126,2420.7056,N,08103.5481,W,1,8,2.7,21,M,,M,,*5C
06/13/2015	15:11:26.561	$GPGGA,151127,2420.7061,N,08103.5482,W,1,8,2.0,21,M,,M,,*5D
06/13/2015	15:11:27.571	$GPGGA,151128,2420.7067,N,08103.5484,W,1,8,2.7,21,M,,M,,*55
06/13/2015	15:11:28.551	$GPGGA,151129,2420.7072,N,08103.5484,W,1,8,2.7,21,M,,M,,*50
06/13/2015	15:11:29.541	$GPGGA,151130,2420.7075,N,08103.5484,W,1,9,2.0,21,M,,M,,*59
06/13/2015	15:11:30.540	$GPGGA,151131,2420.7078,N,08103.5483,W,1,9,2.0,21,M,,M,,*52
06/13/2015	15:11:31.580	$GPGGA,151132,2420.7083,N,08103.5484,W,1,9,2.0,21,M,,M,,*52
06/13/2015	15:11:32.550	$GPGGA,151133,2420.7086,N,08103.5483,W,1,9,2.7,21,M,,M,,*56
06/13/2015	15:11:33.550	$GPGGA,151134,2420.7090,N,08103.5484,W,1,9,2.0,21,M,,M,,*56
06/13/2015	15:11:34.540	$GPGGA,151135,2420.7094,N,08103.5481,W,1,9,2.0,21,M,,M,,*56
06/13/2015	15:11:35.570	$GPGGA,151136,2420.7099,N,08103.5481,W,1,9,2.0,21,M,,M,,*58
06/13/2015	15:11:36.530	$GPGGA,151137,2420.7103,N,08103.5482,W,1,9,2.0,21,M,,M,,*58
06/13/2015	15:11:37.540	$GPGGA,151138,2420.7107,N,08103.5482,W,1,9,2.0,21,M,,M,,*53
06/13/2015	15:11:38.530	$GPGGA,151139,2420.7111,N,08103.5480,W,1,9,2.0,21,M,,M,,*57
06/13/2015	15:11:39.570	$GPGGA,151140,2420.7115,N,08103.5479,W,1,9,2.0,21,M,,M,,*5B
06/13/2015	15:11:40.530	$GPGGA,151141,2420.7119,N,08103.5480,W,1,9,2.0,21,M,,M,,*50
06/13/2015	15:11:41.512	$GPGGA,151142,2420.7122,N,08103.5480,W,1,9,2.0,21,M,,M,,*5B
06/13/2015	15:11:42.530	$GPGGA,151143,2420.7126,N,08103.5477,W,1,9,2.0,21,M,,M,,*56
06/13/2015	15:11:43.540	$GPGGA,151144,2420.7130,N,08103.5478,W,1,9,2.0,21,M,,M,,*59
06/13/2015	15:11:44.511	$GPGGA,151145,2420.7135,N,08103.5478,W,1,9,2.0,21,M,,M,,*5D
06/13/2015	15:11:45.531	$GPGGA,151146,2420.7139,N,08103.5477,W,1,8,2.0,21,M,,M,,*5C
06/13/2015	15:11:46.531	$GPGGA,151147,2420.7143,N,08103.5475,W,1,8,2.0,21,M,,M,,*52
06/13/2015	15:11:47.560	$GPGGA,151148,2420.7147,N,08103.5477,W,1,9,2.0,21,M,,M,,*5A
06/13/2015	15:11:48.520	$GPGGA,151149,2420.7151,N,08103.5476,W,1,9,2.0,21,M,,M,,*5D
06/13/2015	15:11:49.605	$GPGGA,151150,2420.7155,N,08103.5473,W,1,9,2.0,21,M,,M,,*54
06/13/2015	15:11:50.512	$GPGGA,151151,2420.7159,N,08103.5472,W,1,9,2.0,21,M,,M,,*58
06/13/2015	15:11:51.512	$GPGGA,151152,2420.7164,N,08103.5475,W,1,9,2.0,21,M,,M,,*52
06/13/2015	15:11:52.500	$GPGGA,151153,2420.7168,N,08103.5474,W,1,9,2.0,21,M,,M,,*5E
06/13/2015	15:11:53.603	$GPGGA,151154,2420.7173,N,08103.5470,W,1,9,2.0,21,M,,M,,*57
