Software Version Number: 1	Data File Format Number: 1	Build Version Number: 1	Error Count Since VI Started: 1	Manufacturer: Raytheon	 Model Number: RayMarine 120	 S/N: 	 Cal Date: 	 Wind Direction Offset: 0.00	 Slope (M)1: 0.00	 Offset (B)1: 0.00	 Slope (M)2: 0.00	 Offset (B)2: 0.00	 Slope (M)3: 0.00	 Offset (B)3: 0.00	 Slope (M)4: 0.00	 Offset (B)4: 0.00	 Slope (M)5: 0.00	 Offset (B)5: 0.00	 Slope (M)6: 0.00	 Offset (B)6: 0.00
Computer Date	Computer Time	GGA String
06/19/2015	06:00:00.541	$GPGGA,060001,2540.9331,N,07919.3324,W,1,9,2.0,16,M,,M,,*50
06/19/2015	06:00:02.561	$GPGGA,060003,2540.9283,N,07919.3335,W,1,9,2.0,16,M,,M,,*5A
06/19/2015	06:00:03.571	$GPGGA,060004,2540.9258,N,07919.3338,W,1,9,2.0,16,M,,M,,*56
06/19/2015	06:00:04.544	$GPGGA,060005,2540.9232,N,07919.3342,W,1,9,2.2,16,M,,M,,*54
06/19/2015	06:00:05.541	$GPGGA,060006,2540.9207,N,07919.3346,W,1,9,2.0,16,M,,M,,*57
06/19/2015	06:00:06.541	$GPGGA,060007,2540.9182,N,07919.3352,W,1,9,2.0,16,M,,M,,*5D
06/19/2015	06:00:07.561	$GPGGA,060008,2540.9157,N,07919.3356,W,1,9,2.0,16,M,,M,,*5E
06/19/2015	06:00:08.536	$GPGGA,060009,2540.9135,N,07919.3361,W,1,9,2.2,16,M,,M,,*5D
06/19/2015	06:00:09.561	$GPGGA,060010,2540.9111,N,07919.3367,W,1,9,2.0,16,M,,M,,*57
06/19/2015	06:00:10.523	$GPGGA,060011,2540.9088,N,07919.3372,W,1,9,2.0,16,M,,M,,*53
06/19/2015	06:00:11.536	$GPGGA,060012,2540.9064,N,07919.3378,W,1,9,2.0,16,M,,M,,*58
06/19/2015	06:00:12.512	$GPGGA,060013,2540.9041,N,07919.3383,W,1,9,2.0,16,M,,M,,*5A
06/19/2015	06:00:13.536	$GPGGA,060014,2540.9016,N,07919.3389,W,1,9,2.0,16,M,,M,,*55
06/19/2015	06:00:14.533	$GPGGA,060015,2540.8992,N,07919.3393,W,1,9,2.0,16,M,,M,,*5B
06/19/2015	06:00:15.542	$GPGGA,060016,2540.8969,N,07919.3399,W,1,9,2.0,16,M,,M,,*56
06/19/2015	06:00:16.524	$GPGGA,060017,2540.8944,N,07919.3403,W,1,9,2.0,16,M,,M,,*5C
06/19/2015	06:00:17.542	$GPGGA,060018,2540.8919,N,07919.3408,W,1,9,2.0,16,M,,M,,*50
06/19/2015	06:00:18.522	$GPGGA,060019,2540.8895,N,07919.3412,W,1,9,2.0,16,M,,M,,*5F
06/19/2015	06:00:19.526	$GPGGA,060020,2540.8871,N,07919.3418,W,1,9,2.0,16,M,,M,,*55
06/19/2015	06:00:20.511	$GPGGA,060021,2540.8846,N,07919.3422,W,1,9,2.0,16,M,,M,,*59
06/19/2015	06:00:21.511	$GPGGA,060022,2540.8821,N,07919.3428,W,1,9,2.0,16,M,,M,,*51
06/19/2015	06:00:22.611	$GPGGA,060023,2540.8797,N,07919.3433,W,1,9,2.0,16,M,,M,,*58
06/19/2015	06:00:23.602	$GPGGA,060024,2540.8773,N,07919.3439,W,1,9,2.0,16,M,,M,,*5F
06/19/2015	06:00:24.611	$GPGGA,060025,2540.8748,N,07919.3444,W,1,9,2.0,16,M,,M,,*5C
06/19/2015	06:00:25.511	$GPGGA,060026,2540.8723,N,07919.3450,W,1,9,2.0,16,M,,M,,*57
06/19/2015	06:00:26.511	$GPGGA,060027,2540.8698,N,07919.3455,W,1,9,2.0,16,M,,M,,*52
06/19/2015	06:00:27.521	$GPGGA,060028,2540.8674,N,07919.3461,W,1,9,2.0,16,M,,M,,*58
06/19/2015	06:00:28.582	$GPGGA,060029,2540.8649,N,07919.3466,W,1,9,2.0,16,M,,M,,*50
06/19/2015	06:00:29.502	$GPGGA,060030,2540.8625,N,07919.3472,W,1,9,2.0,16,M,,M,,*57
06/19/2015	06:00:30.482	$GPGGA,060031,2540.8600,N,07919.3479,W,1,9,2.0,16,M,,M,,*5A
06/19/2015	06:00:31.612	$GPGGA,060032,2540.8575,N,07919.3483,W,1,9,2.0,16,M,,M,,*5D
06/19/2015	06:00:32.572	$GPGGA,060033,2540.8551,N,07919.3490,W,1,9,2.0,16,M,,M,,*58
06/19/2015	06:00:33.592	$GPGGA,060034,2540.8526,N,07919.3497,W,1,9,2.0,16,M,,M,,*58
06/19/2015	06:00:34.492	$GPGGA,060035,2540.8503,N,07919.3502,W,1,9,2.0,16,M,,M,,*53
06/19/2015	06:00:35.581	$GPGGA,060036,2540.8477,N,07919.3508,W,1,9,2.0,16,M,,M,,*58
06/19/2015	06:00:36.581	$GPGGA,060037,2540.8453,N,07919.3515,W,1,9,2.0,16,M,,M,,*53
06/19/2015	06:00:37.581	$GPGGA,060038,2540.8428,N,07919.3522,W,1,9,2.0,16,M,,M,,*54
06/19/2015	06:00:38.561	$GPGGA,060039,2540.8405,N,07919.3529,W,1,9,2.0,16,M,,M,,*51
06/19/2015	06:00:39.581	$GPGGA,060040,2540.8380,N,07919.3535,W,1,9,2.0,16,M,,M,,*58
06/19/2015	06:00:40.551	$GPGGA,060041,2540.8355,N,07919.3541,W,1,9,2.0,16,M,,M,,*52
06/19/2015	06:00:41.581	$GPGGA,060042,2540.8330,N,07919.3548,W,1,9,2.0,16,M,,M,,*5B
06/19/2015	06:00:42.551	$GPGGA,060043,2540.8305,N,07919.3553,W,1,9,2.0,16,M,,M,,*56
06/19/2015	06:00:43.611	$GPGGA,060044,2540.8281,N,07919.3560,W,1,9,2.0,16,M,,M,,*5C
06/19/2015	06:00:44.551	$GPGGA,060045,2540.8257,N,07919.3566,W,1,9,2.0,16,M,,M,,*50
06/19/2015	06:00:45.551	$GPGGA,060046,2540.8232,N,07919.3573,W,1,9,2.0,17,M,,M,,*55
06/19/2015	06:00:46.542	$GPGGA,060047,2540.8207,N,07919.3578,W,1,9,2.0,17,M,,M,,*59
06/19/2015	06:00:47.572	$GPGGA,060048,2540.8182,N,07919.3584,W,1,9,2.0,17,M,,M,,*5B
06/19/2015	06:00:48.542	$GPGGA,060049,2540.8157,N,07919.3591,W,1,9,2.0,17,M,,M,,*56
06/19/2015	06:00:49.562	$GPGGA,060050,2540.8134,N,07919.3596,W,1,9,2.0,17,M,,M,,*5C
06/19/2015	06:00:50.532	$GPGGA,060051,2540.8109,N,07919.3602,W,1,9,2.0,17,M,,M,,*5D
06/19/2015	06:00:51.572	$GPGGA,060052,2540.8083,N,07919.3609,W,1,9,2.0,17,M,,M,,*56
06/19/2015	06:00:52.532	$GPGGA,060053,2540.8059,N,07919.3614,W,1,9,2.0,17,M,,M,,*5C
06/19/2015	06:00:53.551	$GPGGA,060054,2540.8034,N,07919.3620,W,1,9,2.0,17,M,,M,,*57
06/19/2015	06:00:54.523	$GPGGA,060055,2540.8009,N,07919.3625,W,1,9,2.0,17,M,,M,,*5D
06/19/2015	06:00:55.561	$GPGGA,060056,2540.7984,N,07919.3631,W,1,9,2.0,17,M,,M,,*58
06/19/2015	06:00:56.524	$GPGGA,060057,2540.7961,N,07919.3635,W,1,9,2.0,17,M,,M,,*56
06/19/2015	06:00:57.521	$GPGGA,060058,2540.7934,N,07919.3642,W,1,9,2.0,17,M,,M,,*59
06/19/2015	06:00:58.521	$GPGGA,060059,2540.7910,N,07919.3646,W,1,9,2.0,17,M,,M,,*5A
06/19/2015	06:00:59.571	$GPGGA,060100,2540.7885,N,07919.3652,W,1,9,2.0,17,M,,M,,*5F
06/19/2015	06:01:00.522	$GPGGA,060101,2540.7859,N,07919.3657,W,1,9,2.0,17,M,,M,,*5A
06/19/2015	06:01:01.551	$GPGGA,060102,2540.7834,N,07919.3663,W,1,9,2.0,17,M,,M,,*55
06/19/2015	06:01:02.511	$GPGGA,060103,2540.7810,N,07919.3667,W,1,9,2.0,17,M,,M,,*56
06/19/2015	06:01:03.538	$GPGGA,060104,2540.7785,N,07919.3672,W,1,9,2.0,17,M,,M,,*56
06/19/2015	06:01:04.522	$GPGGA,060105,2540.7760,N,07919.3678,W,1,9,2.0,17,M,,M,,*56
06/19/2015	06:01:05.523	$GPGGA,060106,2540.7735,N,07919.3682,W,1,9,2.0,17,M,,M,,*50
06/19/2015	06:01:06.526	$GPGGA,060107,2540.7710,N,07919.3689,W,1,9,2.0,17,M,,M,,*5D
06/19/2015	06:01:07.662	$GPGGA,060108,2540.7686,N,07919.3693,W,1,9,2.0,17,M,,M,,*57
06/19/2015	06:01:08.492	$GPGGA,060109,2540.7661,N,07919.3697,W,1,9,2.0,17,M,,M,,*5B
06/19/2015	06:01:09.512	$GPGGA,060110,2540.7635,N,07919.3703,W,1,9,2.0,17,M,,M,,*5E
06/19/2015	06:01:10.491	$GPGGA,060111,2540.7610,N,07919.3707,W,1,9,2.0,17,M,,M,,*5C
06/19/2015	06:01:11.551	$GPGGA,060112,2540.7585,N,07919.3712,W,1,9,2.0,17,M,,M,,*54
06/19/2015	06:01:12.501	$GPGGA,060113,2540.7560,N,07919.3717,W,1,9,2.0,17,M,,M,,*5B
06/19/2015	06:01:14.733	$GPGGA,060114,2540.7535,N,07919.3722,W,1,9,2.0,17,M,,M,,*5A
06/19/2015	06:01:14.761	$GPGGA,060115,2540.7510,N,07919.3728,W,1,9,2.0,17,M,,M,,*56
06/19/2015	06:01:15.537	$GPGGA,060116,2540.7485,N,07919.3732,W,1,9,2.0,17,M,,M,,*53
06/19/2015	06:01:16.481	$GPGGA,060117,2540.7460,N,07919.3739,W,1,9,2.0,17,M,,M,,*52
06/19/2015	06:01:17.501	$GPGGA,060118,2540.7435,N,07919.3743,W,1,9,2.0,16,M,,M,,*51
06/19/2015	06:01:18.591	$GPGGA,060119,2540.7410,N,07919.3750,W,1,9,2.0,16,M,,M,,*55
06/19/2015	06:01:19.481	$GPGGA,060120,2540.7385,N,07919.3754,W,1,9,2.0,16,M,,M,,*50
06/19/2015	06:01:20.581	$GPGGA,060121,2540.7361,N,07919.3761,W,1,9,2.0,16,M,,M,,*5D
06/19/2015	06:01:21.492	$GPGGA,060122,2540.7336,N,07919.3765,W,1,9,2.0,16,M,,M,,*58
06/19/2015	06:01:22.572	$GPGGA,060123,2540.7311,N,07919.3772,W,1,9,2.0,16,M,,M,,*5A
06/19/2015	06:01:23.612	$GPGGA,060124,2540.7287,N,07919.3777,W,1,9,2.0,16,M,,M,,*56
06/19/2015	06:01:24.572	$GPGGA,060125,2540.7262,N,07919.3783,W,1,9,2.0,16,M,,M,,*57
06/19/2015	06:01:25.562	$GPGGA,060126,2540.7238,N,07919.3788,W,1,9,2.0,16,M,,M,,*50
06/19/2015	06:01:26.562	$GPGGA,060127,2540.7213,N,07919.3795,W,1,9,2.0,16,M,,M,,*54
06/19/2015	06:01:27.602	$GPGGA,060128,2540.7189,N,07919.3801,W,1,9,2.0,16,M,,M,,*59
06/19/2015	06:01:28.561	$GPGGA,060129,2540.7164,N,07919.3808,W,1,9,2.0,16,M,,M,,*52
06/19/2015	06:01:29.561	$GPGGA,060130,2540.7141,N,07919.3813,W,1,9,2.0,16,M,,M,,*57
06/19/2015	06:01:30.551	$GPGGA,060131,2540.7115,N,07919.3819,W,1,9,2.0,16,M,,M,,*5D
06/19/2015	06:01:31.571	$GPGGA,060132,2540.7090,N,07919.3826,W,1,9,2.0,16,M,,M,,*5E
06/19/2015	06:01:32.551	$GPGGA,060133,2540.7066,N,07919.3833,W,1,9,2.0,16,M,,M,,*52
06/19/2015	06:01:33.561	$GPGGA,060134,2540.7043,N,07919.3838,W,1,9,2.0,16,M,,M,,*59
06/19/2015	06:01:34.541	$GPGGA,060135,2540.7018,N,07919.3845,W,1,9,2.0,16,M,,M,,*5C
06/19/2015	06:01:35.571	$GPGGA,060136,2540.6992,N,07919.3852,W,1,9,2.0,16,M,,M,,*53
06/19/2015	06:01:36.551	$GPGGA,060137,2540.6968,N,07919.3858,W,1,9,2.0,16,M,,M,,*5D
06/19/2015	06:01:37.541	$GPGGA,060138,2540.6944,N,07919.3865,W,1,9,2.0,16,M,,M,,*52
06/19/2015	06:01:38.552	$GPGGA,060139,2540.6919,N,07919.3871,W,1,9,2.0,16,M,,M,,*5E
06/19/2015	06:01:39.582	$GPGGA,060140,2540.6895,N,07919.3878,W,1,9,2.0,16,M,,M,,*5C
06/19/2015	06:01:40.829	$GPGGA,060141,2540.6870,N,07919.3884,W,1,9,2.0,16,M,,M,,*55
06/19/2015	06:01:41.552	$GPGGA,060142,2540.6845,N,07919.3891,W,1,9,2.0,16,M,,M,,*54
06/19/2015	06:01:42.530	$GPGGA,060143,2540.6821,N,07919.3898,W,1,9,2.0,16,M,,M,,*5E
06/19/2015	06:01:43.572	$GPGGA,060144,2540.6796,N,07919.3903,W,1,9,2.0,16,M,,M,,*59
06/19/2015	06:01:44.535	$GPGGA,060145,2540.6772,N,07919.3909,W,1,9,2.0,16,M,,M,,*58
06/19/2015	06:01:45.524	$GPGGA,060146,2540.6748,N,07919.3916,W,1,9,2.0,16,M,,M,,*5C
06/19/2015	06:01:46.531	$GPGGA,060147,2540.6723,N,07919.3923,W,1,9,2.0,16,M,,M,,*56
06/19/2015	06:01:47.561	$GPGGA,060148,2540.6698,N,07919.3928,W,1,9,2.0,16,M,,M,,*53
06/19/2015	06:01:48.541	$GPGGA,060149,2540.6674,N,07919.3934,W,1,9,2.0,16,M,,M,,*5D
06/19/2015	06:01:49.541	$GPGGA,060150,2540.6649,N,07919.3941,W,1,9,2.0,16,M,,M,,*59
06/19/2015	06:01:50.542	$GPGGA,060151,2540.6624,N,07919.3946,W,1,9,2.0,16,M,,M,,*54
06/19/2015	06:01:51.561	$GPGGA,060152,2540.6600,N,07919.3952,W,1,9,2.0,16,M,,M,,*54
06/19/2015	06:01:52.511	$GPGGA,060153,2540.6575,N,07919.3959,W,1,9,2.0,16,M,,M,,*5F
06/19/2015	06:01:53.531	$GPGGA,060154,2540.6550,N,07919.3964,W,1,9,2.0,16,M,,M,,*51
06/19/2015	06:01:54.501	$GPGGA,060155,2540.6525,N,07919.3970,W,1,9,2.0,16,M,,M,,*57
06/19/2015	06:01:55.541	$GPGGA,060156,2540.6501,N,07919.3975,W,1,9,2.0,16,M,,M,,*57
06/19/2015	06:01:56.502	$GPGGA,060157,2540.6476,N,07919.3981,W,1,9,2.0,16,M,,M,,*5C
06/19/2015	06:01:57.528	$GPGGA,060158,2540.6451,N,07919.3986,W,1,9,2.0,16,M,,M,,*51
06/19/2015	06:01:58.612	$GPGGA,060159,2540.6426,N,07919.3992,W,1,9,2.0,16,M,,M,,*55
06/19/2015	06:01:59.632	$GPGGA,060200,2540.6401,N,07919.3997,W,1,9,2.0,16,M,,M,,*5A
06/19/2015	06:02:00.532	$GPGGA,060201,2540.6377,N,07919.4003,W,1,9,2.0,16,M,,M,,*5E
06/19/2015	06:02:01.502	$GPGGA,060202,2540.6353,N,07919.4008,W,1,9,2.0,16,M,,M,,*50
06/19/2015	06:02:02.582	$GPGGA,060203,2540.6328,N,07919.4014,W,1,9,2.0,16,M,,M,,*50
06/19/2015	06:02:03.632	$GPGGA,060204,2540.6302,N,07919.4019,W,1,9,2.0,16,M,,M,,*52
06/19/2015	06:02:04.581	$GPGGA,060205,2540.6277,N,07919.4025,W,1,9,2.0,16,M,,M,,*5F
06/19/2015	06:02:05.611	$GPGGA,060206,2540.6252,N,07919.4030,W,1,9,2.0,17,M,,M,,*5E
06/19/2015	06:02:06.581	$GPGGA,060207,2540.6227,N,07919.4035,W,1,9,2.0,17,M,,M,,*58
06/19/2015	06:02:07.581	$GPGGA,060208,2540.6202,N,07919.4040,W,1,9,2.0,17,M,,M,,*52
06/19/2015	06:02:08.561	$GPGGA,060209,2540.6178,N,07919.4046,W,1,9,2.0,17,M,,M,,*5B
06/19/2015	06:02:09.481	$GPGGA,060210,2540.6153,N,07919.4051,W,1,9,2.0,17,M,,M,,*5C
06/19/2015	06:02:10.561	$GPGGA,060211,2540.6129,N,07919.4057,W,1,9,2.0,17,M,,M,,*56
06/19/2015	06:02:11.601	$GPGGA,060212,2540.6104,N,07919.4061,W,1,9,2.0,17,M,,M,,*5F
06/19/2015	06:02:12.561	$GPGGA,060213,2540.6079,N,07919.4068,W,1,9,2.0,17,M,,M,,*5C
06/19/2015	06:02:13.561	$GPGGA,060214,2540.6054,N,07919.4072,W,1,9,2.0,17,M,,M,,*5F
06/19/2015	06:02:14.561	$GPGGA,060215,2540.6029,N,07919.4077,W,1,9,2.0,17,M,,M,,*51
06/19/2015	06:02:15.591	$GPGGA,060216,2540.6005,N,07919.4083,W,1,9,2.0,17,M,,M,,*57
06/19/2015	06:02:16.571	$GPGGA,060217,2540.5981,N,07919.4090,W,1,9,2.0,17,M,,M,,*52
06/19/2015	06:02:17.561	$GPGGA,060218,2540.5956,N,07919.4094,W,1,9,2.0,17,M,,M,,*53
06/19/2015	06:02:18.541	$GPGGA,060219,2540.5931,N,07919.4100,W,1,9,2.0,17,M,,M,,*5F
06/19/2015	06:02:19.581	$GPGGA,060220,2540.5906,N,07919.4107,W,1,9,2.0,17,M,,M,,*56
06/19/2015	06:02:20.540	$GPGGA,060221,2540.5882,N,07919.4111,W,1,9,2.0,17,M,,M,,*5D
06/19/2015	06:02:21.550	$GPGGA,060222,2540.5858,N,07919.4118,W,1,9,2.0,17,M,,M,,*50
06/19/2015	06:02:22.540	$GPGGA,060223,2540.5833,N,07919.4123,W,1,9,2.0,17,M,,M,,*54
06/19/2015	06:02:23.572	$GPGGA,060224,2540.5808,N,07919.4129,W,1,9,2.0,17,M,,M,,*51
06/19/2015	06:02:24.532	$GPGGA,060225,2540.5784,N,07919.4136,W,1,9,2.0,17,M,,M,,*55
06/19/2015	06:02:25.525	$GPGGA,060226,2540.5760,N,07919.4141,W,1,9,2.0,17,M,,M,,*5C
06/19/2015	06:02:26.523	$GPGGA,060227,2540.5735,N,07919.4148,W,1,9,2.0,17,M,,M,,*54
06/19/2015	06:02:27.561	$GPGGA,060228,2540.5710,N,07919.4155,W,1,9,2.0,17,M,,M,,*50
06/19/2015	06:02:28.527	$GPGGA,060229,2540.5687,N,07919.4162,W,1,9,2.0,17,M,,M,,*5A
06/19/2015	06:02:29.541	$GPGGA,060230,2540.5663,N,07919.4169,W,1,9,2.0,17,M,,M,,*53
06/19/2015	06:02:30.528	$GPGGA,060231,2540.5638,N,07919.4174,W,1,9,2.0,17,M,,M,,*50
06/19/2015	06:02:31.531	$GPGGA,060232,2540.5614,N,07919.4181,W,1,9,2.0,17,M,,M,,*57
06/19/2015	06:02:32.532	$GPGGA,060233,2540.5589,N,07919.4188,W,1,9,2.0,17,M,,M,,*58
06/19/2015	06:02:33.515	$GPGGA,060234,2540.5564,N,07919.4195,W,1,9,2.0,17,M,,M,,*50
06/19/2015	06:02:34.524	$GPGGA,060235,2540.5541,N,07919.4202,W,1,9,2.0,17,M,,M,,*5B
06/19/2015	06:02:35.551	$GPGGA,060236,2540.5516,N,07919.4207,W,1,9,2.0,17,M,,M,,*5F
06/19/2015	06:02:36.512	$GPGGA,060237,2540.5493,N,07919.4214,W,1,9,2.0,17,M,,M,,*50
06/19/2015	06:02:37.491	$GPGGA,060238,2540.5469,N,07919.4220,W,1,9,2.0,17,M,,M,,*5D
06/19/2015	06:02:38.500	$GPGGA,060239,2540.5445,N,07919.4227,W,1,9,2.0,17,M,,M,,*55
06/19/2015	06:02:39.517	$GPGGA,060240,2540.5421,N,07919.4232,W,1,9,2.0,17,M,,M,,*5D
06/19/2015	06:02:40.614	$GPGGA,060241,2540.5398,N,07919.4239,W,1,9,2.0,17,M,,M,,*52
06/19/2015	06:02:41.625	$GPGGA,060242,2540.5374,N,07919.4245,W,1,9,2.0,17,M,,M,,*58
06/19/2015	06:02:42.516	$GPGGA,060243,2540.5350,N,07919.4252,W,1,9,2.0,17,M,,M,,*59
06/19/2015	06:02:43.541	$GPGGA,060244,2540.5327,N,07919.4256,W,1,9,2.0,17,M,,M,,*5A
06/19/2015	06:02:44.481	$GPGGA,060245,2540.5302,N,07919.4263,W,1,9,2.0,17,M,,M,,*5A
06/19/2015	06:02:45.511	$GPGGA,060246,2540.5278,N,07919.4268,W,1,9,2.0,17,M,,M,,*5E
06/19/2015	06:02:46.581	$GPGGA,060247,2540.5255,N,07919.4274,W,1,9,2.0,17,M,,M,,*5D
06/19/2015	06:02:47.531	$GPGGA,060248,2540.5230,N,07919.4281,W,1,9,2.0,17,M,,M,,*5B
06/19/2015	06:02:48.481	$GPGGA,060249,2540.5206,N,07919.4288,W,1,9,2.0,17,M,,M,,*56
06/19/2015	06:02:49.581	$GPGGA,060250,2540.5182,N,07919.4293,W,1,9,2.0,17,M,,M,,*5B
06/19/2015	06:02:50.481	$GPGGA,060251,2540.5158,N,07919.4299,W,1,9,2.0,17,M,,M,,*57
06/19/2015	06:02:51.581	$GPGGA,060252,2540.5134,N,07919.4306,W,1,9,2.0,17,M,,M,,*59
06/19/2015	06:02:52.501	$GPGGA,060253,2540.5110,N,07919.4313,W,1,9,2.0,17,M,,M,,*5A
06/19/2015	06:02:53.571	$GPGGA,060254,2540.5086,N,07919.4319,W,1,9,2.0,17,M,,M,,*59
06/19/2015	06:02:54.481	$GPGGA,060255,2540.5062,N,07919.4326,W,1,9,2.0,17,M,,M,,*5E
06/19/2015	06:02:55.613	$GPGGA,060256,2540.5038,N,07919.4333,W,1,9,2.0,17,M,,M,,*56
06/19/2015	06:02:56.560	$GPGGA,060257,2540.5013,N,07919.4340,W,1,9,2.0,17,M,,M,,*5A
06/19/2015	06:02:57.590	$GPGGA,060258,2540.4989,N,07919.4348,W,1,9,2.0,17,M,,M,,*56
06/19/2015	06:02:58.551	$GPGGA,060259,2540.4966,N,07919.4355,W,1,9,2.0,17,M,,M,,*5A
06/19/2015	06:02:59.591	$GPGGA,060300,2540.4940,N,07919.4364,W,1,9,2.0,17,M,,M,,*51
06/19/2015	06:03:00.561	$GPGGA,060301,2540.4916,N,07919.4371,W,1,9,2.0,17,M,,M,,*57
06/19/2015	06:03:01.551	$GPGGA,060302,2540.4892,N,07919.4378,W,1,9,2.0,17,M,,M,,*50
06/19/2015	06:03:02.561	$GPGGA,060303,2540.4867,N,07919.4384,W,1,9,2.0,17,M,,M,,*58
06/19/2015	06:03:03.571	$GPGGA,060304,2540.4843,N,07919.4391,W,1,9,2.0,17,M,,M,,*5D
06/19/2015	06:03:04.561	$GPGGA,060305,2540.4819,N,07919.4398,W,1,9,2.0,17,M,,M,,*5A
06/19/2015	06:03:05.571	$GPGGA,060306,2540.4794,N,07919.4404,W,1,9,2.0,17,M,,M,,*51
06/19/2015	06:03:06.541	$GPGGA,060307,2540.4771,N,07919.4411,W,1,9,2.0,17,M,,M,,*5F
06/19/2015	06:03:07.551	$GPGGA,060308,2540.4745,N,07919.4418,W,1,9,2.0,17,M,,M,,*5E
06/19/2015	06:03:08.541	$GPGGA,060309,2540.4720,N,07919.4423,W,1,9,2.0,17,M,,M,,*54
06/19/2015	06:03:09.541	$GPGGA,060310,2540.4696,N,07919.4429,W,1,9,2.0,17,M,,M,,*5A
06/19/2015	06:03:10.533	$GPGGA,060311,2540.4673,N,07919.4436,W,1,9,2.2,17,M,,M,,*5C
06/19/2015	06:03:11.541	$GPGGA,060312,2540.4648,N,07919.4440,W,1,8,2.2,17,M,,M,,*57
06/19/2015	06:03:12.535	$GPGGA,060313,2540.4623,N,07919.4445,W,1,8,2.2,17,M,,M,,*5E
06/19/2015	06:03:13.560	$GPGGA,060314,2540.4599,N,07919.4451,W,1,8,2.2,17,M,,M,,*5E
06/19/2015	06:03:14.530	$GPGGA,060315,2540.4574,N,07919.4456,W,1,8,2.2,17,M,,M,,*5B
06/19/2015	06:03:15.560	$GPGGA,060316,2540.4549,N,07919.4462,W,1,8,2.2,17,M,,M,,*51
06/19/2015	06:03:16.871	$GPGGA,060317,2540.4526,N,07919.4466,W,1,8,2.2,17,M,,M,,*5D
06/19/2015	06:03:17.529	$GPGGA,060318,2540.4501,N,07919.4472,W,1,9,2.0,17,M,,M,,*51
06/19/2015	06:03:18.525	$GPGGA,060319,2540.4476,N,07919.4476,W,1,9,2.2,17,M,,M,,*57
06/19/2015	06:03:19.561	$GPGGA,060320,2540.4453,N,07919.4480,W,1,9,2.0,17,M,,M,,*51
06/19/2015	06:03:20.517	$GPGGA,060321,2540.4428,N,07919.4485,W,1,9,2.0,17,M,,M,,*59
06/19/2015	06:03:21.541	$GPGGA,060322,2540.4404,N,07919.4491,W,1,9,2.0,17,M,,M,,*51
06/19/2015	06:03:22.511	$GPGGA,060323,2540.4378,N,07919.4494,W,1,9,2.0,17,M,,M,,*59
06/19/2015	06:03:23.551	$GPGGA,060324,2540.4353,N,07919.4498,W,1,8,2.2,17,M,,M,,*58
06/19/2015	06:03:24.515	$GPGGA,060325,2540.4330,N,07919.4503,W,1,8,2.2,17,M,,M,,*5F
06/19/2015	06:03:25.501	$GPGGA,060326,2540.4305,N,07919.4508,W,1,9,2.0,16,M,,M,,*53
06/19/2015	06:03:26.515	$GPGGA,060327,2540.4283,N,07919.4512,W,1,9,2.0,16,M,,M,,*56
06/19/2015	06:03:27.525	$GPGGA,060328,2540.4258,N,07919.4516,W,1,9,2.0,16,M,,M,,*5B
06/19/2015	06:03:28.512	$GPGGA,060329,2540.4232,N,07919.4520,W,1,9,2.2,16,M,,M,,*51
06/19/2015	06:03:29.524	$GPGGA,060330,2540.4207,N,07919.4523,W,1,8,2.2,16,M,,M,,*5D
06/19/2015	06:03:30.516	$GPGGA,060331,2540.4182,N,07919.4527,W,1,8,2.2,16,M,,M,,*56
06/19/2015	06:03:31.500	$GPGGA,060332,2540.4157,N,07919.4531,W,1,8,2.2,16,M,,M,,*5A
06/19/2015	06:03:32.490	$GPGGA,060333,2540.4135,N,07919.4538,W,1,8,2.2,16,M,,M,,*56
06/19/2015	06:03:33.490	$GPGGA,060334,2540.4113,N,07919.4543,W,1,9,2.0,16,M,,M,,*5A
06/19/2015	06:03:34.601	$GPGGA,060335,2540.4090,N,07919.4548,W,1,9,2.0,16,M,,M,,*5A
06/19/2015	06:03:35.627	$GPGGA,060336,2540.4066,N,07919.4553,W,1,9,2.0,16,M,,M,,*5A
06/19/2015	06:03:36.491	$GPGGA,060337,2540.4041,N,07919.4559,W,1,9,2.0,16,M,,M,,*54
06/19/2015	06:03:37.571	$GPGGA,060338,2540.4016,N,07919.4563,W,1,9,2.0,16,M,,M,,*50
06/19/2015	06:03:38.491	$GPGGA,060339,2540.3991,N,07919.4570,W,1,9,2.0,16,M,,M,,*52
06/19/2015	06:03:39.481	$GPGGA,060340,2540.3966,N,07919.4574,W,1,9,2.0,16,M,,M,,*50
06/19/2015	06:03:40.561	$GPGGA,060341,2540.3941,N,07919.4579,W,1,9,2.0,16,M,,M,,*59
06/19/2015	06:03:41.491	$GPGGA,060342,2540.3916,N,07919.4585,W,1,9,2.0,16,M,,M,,*5B
06/19/2015	06:03:42.561	$GPGGA,060343,2540.3891,N,07919.4589,W,1,9,2.0,16,M,,M,,*58
06/19/2015	06:03:43.571	$GPGGA,060344,2540.3866,N,07919.4595,W,1,9,2.0,16,M,,M,,*5A
06/19/2015	06:03:44.561	$GPGGA,060345,2540.3842,N,07919.4599,W,1,9,2.0,16,M,,M,,*51
06/19/2015	06:03:46.039	$GPGGA,060346,2540.3817,N,07919.4606,W,1,9,2.0,16,M,,M,,*57
06/19/2015	06:03:46.551	$GPGGA,060347,2540.3793,N,07919.4611,W,1,9,2.0,16,M,,M,,*53
06/19/2015	06:03:48.560	$GPGGA,060348,2540.3768,N,07919.4617,W,1,9,2.0,16,M,,M,,*5E
06/19/2015	06:03:48.590	$GPGGA,060349,2540.3743,N,07919.4624,W,1,9,2.0,16,M,,M,,*56
06/19/2015	06:03:49.550	$GPGGA,060350,2540.3718,N,07919.4631,W,1,9,2.0,16,M,,M,,*54
06/19/2015	06:03:50.540	$GPGGA,060351,2540.3694,N,07919.4636,W,1,9,2.0,16,M,,M,,*57
06/19/2015	06:03:51.581	$GPGGA,060352,2540.3669,N,07919.4642,W,1,9,2.0,16,M,,M,,*55
06/19/2015	06:03:52.551	$GPGGA,060353,2540.3643,N,07919.4650,W,1,9,2.0,16,M,,M,,*5F
06/19/2015	06:03:53.551	$GPGGA,060354,2540.3619,N,07919.4655,W,1,9,2.0,15,M,,M,,*51
06/19/2015	06:03:54.551	$GPGGA,060355,2540.3594,N,07919.4661,W,1,9,2.0,15,M,,M,,*51
06/19/2015	06:03:55.915	$GPGGA,060356,2540.3570,N,07919.4668,W,1,9,2.0,15,M,,M,,*51
06/19/2015	06:03:56.551	$GPGGA,060357,2540.3546,N,07919.4673,W,1,9,2.0,15,M,,M,,*5F
06/19/2015	06:03:57.531	$GPGGA,060358,2540.3521,N,07919.4679,W,1,9,2.0,15,M,,M,,*5B
06/19/2015	06:03:58.541	$GPGGA,060359,2540.3496,N,07919.4686,W,1,9,2.0,15,M,,M,,*57
06/19/2015	06:03:59.601	$GPGGA,060400,2540.3471,N,07919.4691,W,1,9,2.0,15,M,,M,,*53
06/19/2015	06:04:00.531	$GPGGA,060401,2540.3447,N,07919.4697,W,1,9,2.0,15,M,,M,,*51
06/19/2015	06:04:01.561	$GPGGA,060402,2540.3423,N,07919.4702,W,1,9,2.0,15,M,,M,,*5D
06/19/2015	06:04:02.531	$GPGGA,060403,2540.3398,N,07919.4708,W,1,9,2.0,15,M,,M,,*51
06/19/2015	06:04:03.561	$GPGGA,060404,2540.3373,N,07919.4715,W,1,9,2.0,15,M,,M,,*5F
06/19/2015	06:04:04.521	$GPGGA,060405,2540.3349,N,07919.4719,W,1,9,2.0,15,M,,M,,*5B
06/19/2015	06:04:05.524	$GPGGA,060406,2540.3324,N,07919.4725,W,1,9,2.0,15,M,,M,,*5C
06/19/2015	06:04:06.513	$GPGGA,060407,2540.3299,N,07919.4730,W,1,9,2.0,15,M,,M,,*5E
06/19/2015	06:04:07.521	$GPGGA,060408,2540.3275,N,07919.4736,W,1,9,2.0,15,M,,M,,*55
06/19/2015	06:04:08.520	$GPGGA,060409,2540.3250,N,07919.4741,W,1,9,2.0,15,M,,M,,*53
06/19/2015	06:04:09.518	$GPGGA,060410,2540.3226,N,07919.4747,W,1,9,2.0,15,M,,M,,*5C
06/19/2015	06:04:10.527	$GPGGA,060411,2540.3201,N,07919.4751,W,1,9,2.0,15,M,,M,,*5F
06/19/2015	06:04:11.531	$GPGGA,060412,2540.3176,N,07919.4756,W,1,9,2.0,15,M,,M,,*58
06/19/2015	06:04:12.501	$GPGGA,060413,2540.3152,N,07919.4762,W,1,9,2.0,15,M,,M,,*58
06/19/2015	06:04:13.527	$GPGGA,060414,2540.3127,N,07919.4765,W,1,9,2.0,15,M,,M,,*5A
06/19/2015	06:04:14.513	$GPGGA,060415,2540.3102,N,07919.4770,W,1,9,2.0,15,M,,M,,*58
06/19/2015	06:04:15.531	$GPGGA,060416,2540.3077,N,07919.4776,W,1,9,2.0,15,M,,M,,*5E
06/19/2015	06:04:16.971	$GPGGA,060417,2540.3052,N,07919.4780,W,1,9,2.0,15,M,,M,,*51
06/19/2015	06:04:17.511	$GPGGA,060418,2540.3028,N,07919.4784,W,1,8,2.2,15,M,,M,,*54
06/19/2015	06:04:18.501	$GPGGA,060419,2540.3004,N,07919.4790,W,1,8,2.2,15,M,,M,,*5E
06/19/2015	06:04:19.525	$GPGGA,060420,2540.2979,N,07919.4794,W,1,9,2.0,15,M,,M,,*51
06/19/2015	06:04:20.501	$GPGGA,060421,2540.2954,N,07919.4798,W,1,9,2.0,15,M,,M,,*53
06/19/2015	06:04:21.661	$GPGGA,060422,2540.2929,N,07919.4802,W,1,8,2.2,15,M,,M,,*55
06/19/2015	06:04:22.501	$GPGGA,060423,2540.2904,N,07919.4806,W,1,8,2.2,15,M,,M,,*5F
06/19/2015	06:04:23.660	$GPGGA,060424,2540.2880,N,07919.4810,W,1,8,2.2,15,M,,M,,*52
06/19/2015	06:04:24.650	$GPGGA,060425,2540.2856,N,07919.4814,W,1,8,2.2,15,M,,M,,*5C
06/19/2015	06:04:25.490	$GPGGA,060426,2540.2831,N,07919.4817,W,1,8,2.2,15,M,,M,,*5D
06/19/2015	06:04:26.491	$GPGGA,060427,2540.2805,N,07919.4821,W,1,8,2.2,15,M,,M,,*5E
06/19/2015	06:04:27.581	$GPGGA,060428,2540.2781,N,07919.4826,W,1,8,2.2,15,M,,M,,*55
06/19/2015	06:04:28.471	$GPGGA,060429,2540.2755,N,07919.4828,W,1,8,2.2,15,M,,M,,*53
06/19/2015	06:04:29.561	$GPGGA,060430,2540.2731,N,07919.4832,W,1,8,2.2,15,M,,M,,*52
06/19/2015	06:04:30.561	$GPGGA,060431,2540.2706,N,07919.4837,W,1,8,2.2,15,M,,M,,*52
06/19/2015	06:04:31.481	$GPGGA,060432,2540.2681,N,07919.4839,W,1,8,2.2,15,M,,M,,*51
06/19/2015	06:04:32.561	$GPGGA,060433,2540.2657,N,07919.4845,W,1,8,2.2,15,M,,M,,*50
06/19/2015	06:04:33.561	$GPGGA,060434,2540.2632,N,07919.4848,W,1,8,2.2,15,M,,M,,*59
06/19/2015	06:04:34.561	$GPGGA,060435,2540.2608,N,07919.4852,W,1,8,2.2,15,M,,M,,*5A
06/19/2015	06:04:35.651	$GPGGA,060436,2540.2585,N,07919.4856,W,1,9,2.0,15,M,,M,,*58
06/19/2015	06:04:36.621	$GPGGA,060437,2540.2560,N,07919.4860,W,1,9,2.0,15,M,,M,,*57
06/19/2015	06:04:37.571	$GPGGA,060438,2540.2536,N,07919.4866,W,1,8,2.0,15,M,,M,,*5C
06/19/2015	06:04:38.624	$GPGGA,060439,2540.2513,N,07919.4870,W,1,8,2.0,15,M,,M,,*5D
06/19/2015	06:04:39.591	$GPGGA,060440,2540.2489,N,07919.4874,W,1,9,2.0,15,M,,M,,*54
06/19/2015	06:04:40.630	$GPGGA,060441,2540.2464,N,07919.4879,W,1,9,2.0,15,M,,M,,*5B
06/19/2015	06:04:41.590	$GPGGA,060442,2540.2440,N,07919.4884,W,1,9,2.0,15,M,,M,,*5C
06/19/2015	06:04:43.027	$GPGGA,060443,2540.2415,N,07919.4888,W,1,9,2.0,15,M,,M,,*51
06/19/2015	06:04:43.631	$GPGGA,060444,2540.2391,N,07919.4893,W,1,9,2.0,15,M,,M,,*57
06/19/2015	06:04:44.611	$GPGGA,060445,2540.2366,N,07919.4899,W,1,9,2.0,15,M,,M,,*54
06/19/2015	06:04:45.581	$GPGGA,060446,2540.2343,N,07919.4903,W,1,9,2.0,15,M,,M,,*52
06/19/2015	06:04:46.523	$GPGGA,060447,2540.2318,N,07919.4908,W,1,9,2.0,15,M,,M,,*56
06/19/2015	06:04:47.631	$GPGGA,060448,2540.2292,N,07919.4913,W,1,9,2.0,15,M,,M,,*50
06/19/2015	06:04:48.581	$GPGGA,060449,2540.2268,N,07919.4920,W,1,9,2.0,15,M,,M,,*54
06/19/2015	06:04:49.571	$GPGGA,060450,2540.2244,N,07919.4924,W,1,9,2.0,15,M,,M,,*56
06/19/2015	06:04:50.601	$GPGGA,060451,2540.2220,N,07919.4929,W,1,9,2.0,15,M,,M,,*58
06/19/2015	06:04:51.581	$GPGGA,060452,2540.2195,N,07919.4936,W,1,9,2.0,15,M,,M,,*58
06/19/2015	06:04:52.581	$GPGGA,060453,2540.2170,N,07919.4942,W,1,9,2.0,15,M,,M,,*51
06/19/2015	06:04:53.551	$GPGGA,060454,2540.2146,N,07919.4946,W,1,9,2.0,15,M,,M,,*57
06/19/2015	06:04:54.518	$GPGGA,060455,2540.2120,N,07919.4953,W,1,9,2.0,15,M,,M,,*52
06/19/2015	06:04:55.571	$GPGGA,060456,2540.2096,N,07919.4957,W,1,9,2.0,15,M,,M,,*59
06/19/2015	06:04:56.591	$GPGGA,060457,2540.2072,N,07919.4964,W,1,9,2.0,15,M,,M,,*52
06/19/2015	06:04:57.501	$GPGGA,060458,2540.2047,N,07919.4968,W,1,9,2.0,15,M,,M,,*57
06/19/2015	06:04:58.570	$GPGGA,060459,2540.2021,N,07919.4975,W,1,9,2.0,15,M,,M,,*5A
06/19/2015	06:04:59.600	$GPGGA,060500,2540.1996,N,07919.4982,W,1,9,2.0,15,M,,M,,*59
06/19/2015	06:05:00.830	$GPGGA,060501,2540.1971,N,07919.4986,W,1,9,2.0,15,M,,M,,*55
06/19/2015	06:05:01.521	$GPGGA,060502,2540.1946,N,07919.4993,W,1,9,2.0,15,M,,M,,*56
06/19/2015	06:05:02.491	$GPGGA,060503,2540.1922,N,07919.4998,W,1,9,2.0,15,M,,M,,*5E
06/19/2015	06:05:03.581	$GPGGA,060504,2540.1897,N,07919.5004,W,1,9,2.0,15,M,,M,,*5B
06/19/2015	06:05:04.561	$GPGGA,060505,2540.1872,N,07919.5008,W,1,9,2.0,15,M,,M,,*5D
06/19/2015	06:05:05.622	$GPGGA,060506,2540.1848,N,07919.5014,W,1,9,2.0,15,M,,M,,*5A
06/19/2015	06:05:06.491	$GPGGA,060507,2540.1823,N,07919.5018,W,1,9,2.0,15,M,,M,,*5A
06/19/2015	06:05:07.571	$GPGGA,060508,2540.1797,N,07919.5022,W,1,9,2.2,15,M,,M,,*5E
06/19/2015	06:05:08.503	$GPGGA,060509,2540.1772,N,07919.5027,W,1,9,2.2,15,M,,M,,*51
06/19/2015	06:05:09.541	$GPGGA,060510,2540.1747,N,07919.5032,W,1,8,2.0,15,M,,M,,*58
06/19/2015	06:05:10.541	$GPGGA,060511,2540.1721,N,07919.5036,W,1,8,2.2,15,M,,M,,*5F
06/19/2015	06:05:11.551	$GPGGA,060512,2540.1696,N,07919.5038,W,1,8,2.2,15,M,,M,,*5F
06/19/2015	06:05:12.541	$GPGGA,060513,2540.1671,N,07919.5043,W,1,8,2.2,15,M,,M,,*5B
06/19/2015	06:05:13.581	$GPGGA,060514,2540.1646,N,07919.5047,W,1,8,2.2,15,M,,M,,*5C
06/19/2015	06:05:14.532	$GPGGA,060515,2540.1621,N,07919.5051,W,1,8,2.2,15,M,,M,,*5B
06/19/2015	06:05:15.480	$GPGGA,060516,2540.1595,N,07919.5054,W,1,8,2.2,15,M,,M,,*51
06/19/2015	06:05:16.540	$GPGGA,060517,2540.1570,N,07919.5058,W,1,8,2.2,16,M,,M,,*54
06/19/2015	06:05:17.790	$GPGGA,060518,2540.1545,N,07919.5061,W,1,8,2.2,16,M,,M,,*57
06/19/2015	06:05:18.531	$GPGGA,060519,2540.1520,N,07919.5063,W,1,8,2.2,16,M,,M,,*57
06/19/2015	06:05:19.611	$GPGGA,060520,2540.1495,N,07919.5068,W,1,8,2.2,16,M,,M,,*59
06/19/2015	06:05:20.571	$GPGGA,060521,2540.1470,N,07919.5072,W,1,8,2.2,16,M,,M,,*58
06/19/2015	06:05:21.571	$GPGGA,060522,2540.1445,N,07919.5076,W,1,8,2.2,16,M,,M,,*59
06/19/2015	06:05:22.551	$GPGGA,060523,2540.1420,N,07919.5079,W,1,8,2.2,16,M,,M,,*54
06/19/2015	06:05:23.601	$GPGGA,060524,2540.1395,N,07919.5083,W,1,8,2.2,16,M,,M,,*5F
06/19/2015	06:05:24.551	$GPGGA,060525,2540.1371,N,07919.5087,W,1,8,2.2,16,M,,M,,*50
06/19/2015	06:05:25.561	$GPGGA,060526,2540.1346,N,07919.5090,W,1,8,2.0,16,M,,M,,*53
06/19/2015	06:05:26.561	$GPGGA,060527,2540.1321,N,07919.5094,W,1,8,2.2,16,M,,M,,*55
06/19/2015	06:05:27.601	$GPGGA,060528,2540.1296,N,07919.5098,W,1,8,2.2,16,M,,M,,*5B
06/19/2015	06:05:28.571	$GPGGA,060529,2540.1275,N,07919.5105,W,1,8,2.0,16,M,,M,,*50
06/19/2015	06:05:29.572	$GPGGA,060530,2540.1253,N,07919.5109,W,1,9,2.0,16,M,,M,,*51
06/19/2015	06:05:30.571	$GPGGA,060531,2540.1230,N,07919.5115,W,1,9,2.0,16,M,,M,,*58
06/19/2015	06:05:31.571	$GPGGA,060532,2540.1205,N,07919.5119,W,1,9,2.2,16,M,,M,,*53
06/19/2015	06:05:32.550	$GPGGA,060533,2540.1180,N,07919.5121,W,1,9,2.2,16,M,,M,,*57
06/19/2015	06:05:33.531	$GPGGA,060534,2540.1154,N,07919.5126,W,1,8,2.2,16,M,,M,,*5F
06/19/2015	06:05:34.540	$GPGGA,060535,2540.1129,N,07919.5130,W,1,8,2.0,16,M,,M,,*51
06/19/2015	06:05:35.580	$GPGGA,060536,2540.1102,N,07919.5134,W,1,9,2.2,16,M,,M,,*5C
06/19/2015	06:05:36.541	$GPGGA,060537,2540.1077,N,07919.5137,W,1,9,2.2,16,M,,M,,*5D
06/19/2015	06:05:37.541	$GPGGA,060538,2540.1053,N,07919.5142,W,1,8,2.2,16,M,,M,,*57
06/19/2015	06:05:38.541	$GPGGA,060539,2540.1053,N,07919.5142,W,1,8,2.2,16,M,,M,,*56
06/19/2015	06:05:39.571	$GPGGA,060540,2540.1003,N,07919.5152,W,1,9,2.0,16,M,,M,,*5F
06/19/2015	06:05:40.551	$GPGGA,060541,2540.0978,N,07919.5156,W,1,9,2.0,16,M,,M,,*5E
06/19/2015	06:05:41.551	$GPGGA,060542,2540.0952,N,07919.5163,W,1,9,2.0,16,M,,M,,*53
06/19/2015	06:05:42.531	$GPGGA,060543,2540.0927,N,07919.5166,W,1,9,2.0,16,M,,M,,*55
06/19/2015	06:05:43.551	$GPGGA,060544,2540.0902,N,07919.5171,W,1,9,2.0,16,M,,M,,*53
06/19/2015	06:05:44.561	$GPGGA,060545,2540.0877,N,07919.5177,W,1,9,2.0,16,M,,M,,*57
06/19/2015	06:05:45.541	$GPGGA,060546,2540.0852,N,07919.5181,W,1,9,2.0,16,M,,M,,*5A
06/19/2015	06:05:46.531	$GPGGA,060547,2540.0826,N,07919.5186,W,1,9,2.0,16,M,,M,,*5F
06/19/2015	06:05:47.561	$GPGGA,060548,2540.0801,N,07919.5191,W,1,9,2.0,16,M,,M,,*53
06/19/2015	06:05:48.561	$GPGGA,060549,2540.0776,N,07919.5196,W,1,9,2.0,16,M,,M,,*5A
06/19/2015	06:05:49.624	$GPGGA,060550,2540.0751,N,07919.5202,W,1,9,2.0,16,M,,M,,*59
06/19/2015	06:05:50.519	$GPGGA,060551,2540.0751,N,07919.5202,W,1,9,2.0,16,M,,M,,*58
06/19/2015	06:05:51.540	$GPGGA,060552,2540.0700,N,07919.5211,W,1,9,2.0,16,M,,M,,*5D
06/19/2015	06:05:52.515	$GPGGA,060553,2540.0675,N,07919.5217,W,1,9,2.0,16,M,,M,,*59
06/19/2015	06:05:53.614	$GPGGA,060554,2540.0650,N,07919.5221,W,1,9,2.0,16,M,,M,,*5C
06/19/2015	06:05:54.541	$GPGGA,060555,2540.0624,N,07919.5227,W,1,9,2.0,16,M,,M,,*58
06/19/2015	06:05:55.527	$GPGGA,060556,2540.0600,N,07919.5231,W,1,9,2.0,16,M,,M,,*5A
06/19/2015	06:05:56.601	$GPGGA,060557,2540.0575,N,07919.5236,W,1,9,2.0,17,M,,M,,*5C
06/19/2015	06:05:57.481	$GPGGA,060558,2540.0549,N,07919.5240,W,1,9,2.0,17,M,,M,,*5D
06/19/2015	06:05:58.581	$GPGGA,060559,2540.0526,N,07919.5246,W,1,9,2.0,17,M,,M,,*53
06/19/2015	06:05:59.661	$GPGGA,060600,2540.0500,N,07919.5250,W,1,9,2.0,17,M,,M,,*5F
06/19/2015	06:06:00.571	$GPGGA,060601,2540.0475,N,07919.5256,W,1,9,2.0,17,M,,M,,*5B
06/19/2015	06:06:01.601	$GPGGA,060602,2540.0450,N,07919.5260,W,1,9,2.0,17,M,,M,,*5A
06/19/2015	06:06:02.571	$GPGGA,060603,2540.0425,N,07919.5265,W,1,9,2.0,17,M,,M,,*5C
06/19/2015	06:06:03.581	$GPGGA,060604,2540.0400,N,07919.5269,W,1,9,2.0,17,M,,M,,*50
06/19/2015	06:06:04.571	$GPGGA,060605,2540.0374,N,07919.5274,W,1,9,2.2,17,M,,M,,*5B
06/19/2015	06:06:05.591	$GPGGA,060606,2540.0349,N,07919.5278,W,1,9,2.0,17,M,,M,,*58
06/19/2015	06:06:06.561	$GPGGA,060607,2540.0324,N,07919.5282,W,1,9,2.0,17,M,,M,,*57
06/19/2015	06:06:07.570	$GPGGA,060608,2540.0299,N,07919.5286,W,1,8,2.2,17,M,,M,,*58
06/19/2015	06:06:08.560	$GPGGA,060609,2540.0274,N,07919.5290,W,1,8,2.2,17,M,,M,,*5D
06/19/2015	06:06:09.570	$GPGGA,060610,2540.0249,N,07919.5294,W,1,8,2.2,17,M,,M,,*5F
06/19/2015	06:06:10.550	$GPGGA,060611,2540.0226,N,07919.5300,W,1,8,2.2,17,M,,M,,*5B
06/19/2015	06:06:11.581	$GPGGA,060612,2540.0201,N,07919.5303,W,1,9,2.0,17,M,,M,,*5D
06/19/2015	06:06:12.561	$GPGGA,060613,2540.0175,N,07919.5307,W,1,9,2.0,17,M,,M,,*58
06/19/2015	06:06:13.541	$GPGGA,060614,2540.0150,N,07919.5309,W,1,8,2.2,17,M,,M,,*55
06/19/2015	06:06:14.551	$GPGGA,060615,2540.0128,N,07919.5316,W,1,8,2.2,17,M,,M,,*55
06/19/2015	06:06:15.591	$GPGGA,060616,2540.0107,N,07919.5322,W,1,9,2.0,17,M,,M,,*5F
06/19/2015	06:06:16.551	$GPGGA,060617,2540.0085,N,07919.5327,W,1,9,2.0,17,M,,M,,*50
06/19/2015	06:06:17.561	$GPGGA,060618,2540.0058,N,07919.5330,W,1,9,2.0,17,M,,M,,*59
06/19/2015	06:06:18.614	$GPGGA,060619,2540.0031,N,07919.5333,W,1,9,2.2,17,M,,M,,*56
06/19/2015	06:06:19.561	$GPGGA,060620,2540.0006,N,07919.5336,W,1,8,2.2,17,M,,M,,*5C
06/19/2015	06:06:20.541	$GPGGA,060621,2539.9980,N,07919.5339,W,1,8,2.2,17,M,,M,,*52
06/19/2015	06:06:21.531	$GPGGA,060622,2539.9953,N,07919.5343,W,1,8,2.2,17,M,,M,,*52
06/19/2015	06:06:22.541	$GPGGA,060623,2539.9928,N,07919.5344,W,1,8,2.2,17,M,,M,,*58
06/19/2015	06:06:23.561	$GPGGA,060624,2539.9902,N,07919.5347,W,1,8,2.2,17,M,,M,,*54
06/19/2015	06:06:24.526	$GPGGA,060625,2539.9876,N,07919.5351,W,1,8,2.2,17,M,,M,,*50
06/19/2015	06:06:25.540	$GPGGA,060626,2539.9851,N,07919.5354,W,1,8,2.2,17,M,,M,,*53
06/19/2015	06:06:26.530	$GPGGA,060627,2539.9829,N,07919.5358,W,1,8,2.2,17,M,,M,,*51
06/19/2015	06:06:27.550	$GPGGA,060628,2539.9803,N,07919.5361,W,1,9,2.0,17,M,,M,,*5F
06/19/2015	06:06:28.521	$GPGGA,060629,2539.9775,N,07919.5365,W,1,9,2.4,17,M,,M,,*50
06/19/2015	06:06:29.851	$GPGGA,060630,2539.9749,N,07919.5366,W,1,7,2.4,17,M,,M,,*5A
06/19/2015	06:06:30.531	$GPGGA,060631,2539.9722,N,07919.5369,W,1,7,2.4,17,M,,M,,*59
06/19/2015	06:06:31.561	$GPGGA,060632,2539.9696,N,07919.5372,W,1,7,2.4,16,M,,M,,*5F
06/19/2015	06:06:32.511	$GPGGA,060633,2539.9670,N,07919.5376,W,1,7,2.4,16,M,,M,,*52
06/19/2015	06:06:33.511	$GPGGA,060634,2539.9644,N,07919.5379,W,1,7,2.4,16,M,,M,,*5D
06/19/2015	06:06:34.501	$GPGGA,060635,2539.9619,N,07919.5383,W,1,7,2.4,16,M,,M,,*51
06/19/2015	06:06:35.531	$GPGGA,060636,2539.9594,N,07919.5387,W,1,7,2.4,16,M,,M,,*50
06/19/2015	06:06:36.501	$GPGGA,060637,2539.9568,N,07919.5390,W,1,7,2.3,16,M,,M,,*53
06/19/2015	06:06:37.501	$GPGGA,060638,2539.9543,N,07919.5394,W,1,8,2.3,16,M,,M,,*5E
06/19/2015	06:06:38.612	$GPGGA,060639,2539.9516,N,07919.5395,W,1,8,2.4,16,M,,M,,*59
06/19/2015	06:06:39.621	$GPGGA,060640,2539.9496,N,07919.5404,W,1,7,2.4,16,M,,M,,*5E
06/19/2015	06:06:40.491	$GPGGA,060641,2539.9471,N,07919.5406,W,1,7,2.3,16,M,,M,,*53
06/19/2015	06:06:41.601	$GPGGA,060642,2539.9447,N,07919.5412,W,1,7,2.4,16,M,,M,,*57
06/19/2015	06:06:42.520	$GPGGA,060643,2539.9424,N,07919.5415,W,1,7,2.3,16,M,,M,,*53
06/19/2015	06:06:43.520	$GPGGA,060644,2539.9399,N,07919.5420,W,1,8,2.3,16,M,,M,,*5C
06/19/2015	06:06:44.490	$GPGGA,060645,2539.9375,N,07919.5424,W,1,8,2.3,16,M,,M,,*5B
06/19/2015	06:06:45.500	$GPGGA,060646,2539.9349,N,07919.5428,W,1,8,2.3,16,M,,M,,*5B
06/19/2015	06:06:46.491	$GPGGA,060647,2539.9325,N,07919.5434,W,1,8,2.3,15,M,,M,,*5E
06/19/2015	06:06:47.612	$GPGGA,060648,2539.9301,N,07919.5438,W,1,8,2.3,15,M,,M,,*5B
06/19/2015	06:06:48.571	$GPGGA,060649,2539.9277,N,07919.5442,W,1,8,2.3,15,M,,M,,*57
06/19/2015	06:06:49.491	$GPGGA,060650,2539.9254,N,07919.5448,W,1,8,2.3,15,M,,M,,*54
06/19/2015	06:06:53.181	$GPGGA,060653,2539.9182,N,07919.5462,W,1,8,2.3,15,M,,M,,*57
06/19/2015	06:06:53.561	$GPGGA,060654,2539.9158,N,07919.5466,W,1,8,2.3,15,M,,M,,*53
06/19/2015	06:06:54.562	$GPGGA,060655,2539.9135,N,07919.5470,W,1,8,2.3,15,M,,M,,*5E
06/19/2015	06:06:55.601	$GPGGA,060656,2539.9110,N,07919.5475,W,1,8,2.3,15,M,,M,,*5F
06/19/2015	06:06:56.561	$GPGGA,060657,2539.9085,N,07919.5480,W,1,8,2.3,15,M,,M,,*59
06/19/2015	06:06:57.581	$GPGGA,060658,2539.9060,N,07919.5484,W,1,8,2.3,15,M,,M,,*59
06/19/2015	06:06:58.551	$GPGGA,060659,2539.9036,N,07919.5488,W,1,8,2.4,14,M,,M,,*51
06/19/2015	06:06:59.591	$GPGGA,060700,2539.9012,N,07919.5493,W,1,8,2.3,14,M,,M,,*57
06/19/2015	06:07:00.550	$GPGGA,060701,2539.8987,N,07919.5498,W,1,8,2.3,14,M,,M,,*59
06/19/2015	06:07:01.560	$GPGGA,060702,2539.8962,N,07919.5502,W,1,8,2.3,14,M,,M,,*53
06/19/2015	06:07:02.550	$GPGGA,060703,2539.8938,N,07919.5506,W,1,8,2.3,14,M,,M,,*59
06/19/2015	06:07:03.581	$GPGGA,060704,2539.8913,N,07919.5509,W,1,8,2.3,14,M,,M,,*58
06/19/2015	06:07:04.541	$GPGGA,060705,2539.8889,N,07919.5513,W,1,8,2.3,14,M,,M,,*50
06/19/2015	06:07:05.551	$GPGGA,060706,2539.8864,N,07919.5517,W,1,8,2.3,14,M,,M,,*54
06/19/2015	06:07:06.541	$GPGGA,060707,2539.8839,N,07919.5521,W,1,8,2.4,14,M,,M,,*5F
06/19/2015	06:07:07.571	$GPGGA,060708,2539.8815,N,07919.5525,W,1,8,2.3,14,M,,M,,*5D
06/19/2015	06:07:09.591	$GPGGA,060710,2539.8765,N,07919.5532,W,1,7,2.4,14,M,,M,,*52
06/19/2015	06:07:10.531	$GPGGA,060711,2539.8741,N,07919.5535,W,1,7,2.4,14,M,,M,,*52
06/19/2015	06:07:11.571	$GPGGA,060712,2539.8716,N,07919.5538,W,1,7,2.4,14,M,,M,,*5E
06/19/2015	06:07:12.531	$GPGGA,060713,2539.8690,N,07919.5542,W,1,7,2.4,14,M,,M,,*5D
06/19/2015	06:07:13.521	$GPGGA,060714,2539.8665,N,07919.5545,W,1,7,2.4,14,M,,M,,*57
06/19/2015	06:07:14.521	$GPGGA,060715,2539.8641,N,07919.5546,W,1,7,2.4,14,M,,M,,*53
06/19/2015	06:07:15.561	$GPGGA,060716,2539.8616,N,07919.5550,W,1,7,2.4,14,M,,M,,*55
06/19/2015	06:07:16.522	$GPGGA,060717,2539.8593,N,07919.5553,W,1,7,2.4,14,M,,M,,*59
06/19/2015	06:07:17.550	$GPGGA,060718,2539.8568,N,07919.5556,W,1,7,2.4,14,M,,M,,*57
06/19/2015	06:07:18.519	$GPGGA,060719,2539.8542,N,07919.5558,W,1,7,2.4,14,M,,M,,*50
06/19/2015	06:07:19.550	$GPGGA,060720,2539.8517,N,07919.5561,W,1,7,2.4,14,M,,M,,*50
06/19/2015	06:07:20.530	$GPGGA,060721,2539.8493,N,07919.5564,W,1,7,2.4,14,M,,M,,*59
06/19/2015	06:07:21.517	$GPGGA,060722,2539.8468,N,07919.5567,W,1,7,2.4,14,M,,M,,*5D
06/19/2015	06:07:22.501	$GPGGA,060723,2539.8446,N,07919.5572,W,1,7,2.4,13,M,,M,,*53
06/19/2015	06:07:23.513	$GPGGA,060724,2539.8421,N,07919.5576,W,1,8,2.3,13,M,,M,,*59
06/19/2015	06:07:24.520	$GPGGA,060725,2539.8396,N,07919.5579,W,1,8,2.4,13,M,,M,,*5B
06/19/2015	06:07:25.525	$GPGGA,060726,2539.8374,N,07919.5585,W,1,7,2.4,13,M,,M,,*58
06/19/2015	06:07:26.516	$GPGGA,060727,2539.8349,N,07919.5587,W,1,7,2.3,13,M,,M,,*52
06/19/2015	06:07:27.517	$GPGGA,060728,2539.8324,N,07919.5590,W,1,7,2.4,13,M,,M,,*57
06/19/2015	06:07:28.611	$GPGGA,060729,2539.8301,N,07919.5596,W,1,7,2.4,13,M,,M,,*57
06/19/2015	06:07:29.501	$GPGGA,060730,2539.8276,N,07919.5598,W,1,8,2.3,13,M,,M,,*58
06/19/2015	06:07:30.581	$GPGGA,060731,2539.8251,N,07919.5601,W,1,8,2.4,13,M,,M,,*58
06/19/2015	06:07:31.526	$GPGGA,060732,2539.8225,N,07919.5604,W,1,7,2.4,13,M,,M,,*52
06/19/2015	06:07:32.491	$GPGGA,060733,2539.8205,N,07919.5611,W,1,7,2.3,13,M,,M,,*52
06/19/2015	06:07:33.501	$GPGGA,060734,2539.8182,N,07919.5614,W,1,8,2.3,13,M,,M,,*53
06/19/2015	06:07:34.491	$GPGGA,060735,2539.8158,N,07919.5619,W,1,8,2.3,13,M,,M,,*58
06/19/2015	06:07:35.517	$GPGGA,060736,2539.8135,N,07919.5623,W,1,8,2.3,13,M,,M,,*59
06/19/2015	06:07:36.570	$GPGGA,060737,2539.8111,N,07919.5629,W,1,8,2.3,13,M,,M,,*54
06/19/2015	06:07:37.600	$GPGGA,060738,2539.8087,N,07919.5632,W,1,8,2.3,13,M,,M,,*5F
06/19/2015	06:07:38.571	$GPGGA,060739,2539.8063,N,07919.5636,W,1,8,2.3,13,M,,M,,*50
06/19/2015	06:07:39.611	$GPGGA,060740,2539.8038,N,07919.5640,W,1,8,2.3,13,M,,M,,*51
06/19/2015	06:07:40.571	$GPGGA,060741,2539.8015,N,07919.5645,W,1,8,2.3,13,M,,M,,*5A
06/19/2015	06:07:41.561	$GPGGA,060742,2539.7990,N,07919.5650,W,1,8,2.3,13,M,,M,,*56
06/19/2015	06:07:42.561	$GPGGA,060743,2539.7966,N,07919.5654,W,1,8,2.3,13,M,,M,,*5A
06/19/2015	06:07:43.571	$GPGGA,060744,2539.7943,N,07919.5658,W,1,8,2.3,13,M,,M,,*56
06/19/2015	06:07:44.561	$GPGGA,060745,2539.7918,N,07919.5662,W,1,8,2.3,13,M,,M,,*50
06/19/2015	06:07:45.591	$GPGGA,060746,2539.7894,N,07919.5666,W,1,8,2.3,13,M,,M,,*52
06/19/2015	06:07:46.551	$GPGGA,060747,2539.7870,N,07919.5670,W,1,8,2.3,13,M,,M,,*5E
06/19/2015	06:07:47.581	$GPGGA,060748,2539.7845,N,07919.5675,W,1,8,2.3,13,M,,M,,*52
06/19/2015	06:07:48.551	$GPGGA,060749,2539.7821,N,07919.5679,W,1,8,2.3,13,M,,M,,*5D
06/19/2015	06:07:49.561	$GPGGA,060750,2539.7798,N,07919.5683,W,1,8,2.3,13,M,,M,,*5D
06/19/2015	06:07:50.551	$GPGGA,060751,2539.7773,N,07919.5686,W,1,8,2.3,13,M,,M,,*5C
06/19/2015	06:07:51.581	$GPGGA,060752,2539.7749,N,07919.5690,W,1,8,2.3,13,M,,M,,*51
06/19/2015	06:07:52.550	$GPGGA,060753,2539.7726,N,07919.5695,W,1,8,2.3,13,M,,M,,*5C
06/19/2015	06:07:53.560	$GPGGA,060754,2539.7702,N,07919.5699,W,1,8,2.3,13,M,,M,,*51
06/19/2015	06:07:54.530	$GPGGA,060755,2539.7677,N,07919.5704,W,1,8,2.3,13,M,,M,,*56
06/19/2015	06:07:55.600	$GPGGA,060756,2539.7654,N,07919.5708,W,1,8,2.3,13,M,,M,,*58
06/19/2015	06:07:56.531	$GPGGA,060757,2539.7629,N,07919.5712,W,1,8,2.3,13,M,,M,,*58
06/19/2015	06:07:57.561	$GPGGA,060758,2539.7605,N,07919.5716,W,1,8,2.3,13,M,,M,,*5D
06/19/2015	06:07:58.541	$GPGGA,060759,2539.7581,N,07919.5720,W,1,8,2.3,13,M,,M,,*56
06/19/2015	06:07:59.571	$GPGGA,060800,2539.7557,N,07919.5726,W,1,8,2.3,13,M,,M,,*58
06/19/2015	06:08:00.531	$GPGGA,060801,2539.7533,N,07919.5730,W,1,8,2.3,13,M,,M,,*5C
06/19/2015	06:08:01.551	$GPGGA,060802,2539.7510,N,07919.5734,W,1,8,2.3,13,M,,M,,*5A
06/19/2015	06:08:02.532	$GPGGA,060803,2539.7486,N,07919.5738,W,1,8,2.3,13,M,,M,,*59
06/19/2015	06:08:03.571	$GPGGA,060804,2539.7463,N,07919.5742,W,1,8,2.3,13,M,,M,,*58
06/19/2015	06:08:04.532	$GPGGA,060805,2539.7439,N,07919.5746,W,1,8,2.3,13,M,,M,,*52
06/19/2015	06:08:05.523	$GPGGA,060806,2539.7415,N,07919.5751,W,1,8,2.3,13,M,,M,,*59
06/19/2015	06:08:06.514	$GPGGA,060807,2539.7392,N,07919.5755,W,1,8,2.3,13,M,,M,,*54
06/19/2015	06:08:07.551	$GPGGA,060808,2539.7368,N,07919.5759,W,1,8,2.3,13,M,,M,,*52
06/19/2015	06:08:08.514	$GPGGA,060809,2539.7344,N,07919.5764,W,1,8,2.3,13,M,,M,,*53
06/19/2015	06:08:09.531	$GPGGA,060810,2539.7320,N,07919.5769,W,1,8,2.3,13,M,,M,,*54
06/19/2015	06:08:11.560	$GPGGA,060812,2539.7272,N,07919.5775,W,1,8,2.3,13,M,,M,,*5D
06/19/2015	06:08:12.603	$GPGGA,060813,2539.7249,N,07919.5780,W,1,8,2.3,13,M,,M,,*5E
06/19/2015	06:08:13.504	$GPGGA,060814,2539.7225,N,07919.5784,W,1,8,2.3,13,M,,M,,*57
06/19/2015	06:08:14.490	$GPGGA,060815,2539.7202,N,07919.5788,W,1,8,2.3,13,M,,M,,*5F
06/19/2015	06:08:15.608	$GPGGA,060816,2539.7177,N,07919.5792,W,1,8,2.3,13,M,,M,,*56
06/19/2015	06:08:16.490	$GPGGA,060817,2539.7153,N,07919.5796,W,1,8,2.3,13,M,,M,,*55
06/19/2015	06:08:17.570	$GPGGA,060818,2539.7130,N,07919.5800,W,1,8,2.3,13,M,,M,,*5F
06/19/2015	06:08:18.480	$GPGGA,060819,2539.7105,N,07919.5805,W,1,8,2.3,13,M,,M,,*5D
06/19/2015	06:08:19.515	$GPGGA,060820,2539.7081,N,07919.5809,W,1,8,2.3,13,M,,M,,*56
06/19/2015	06:08:20.480	$GPGGA,060821,2539.7057,N,07919.5813,W,1,8,2.3,13,M,,M,,*57
06/19/2015	06:08:21.490	$GPGGA,060822,2539.7036,N,07919.5816,W,1,7,2.4,13,M,,M,,*5E
06/19/2015	06:08:22.560	$GPGGA,060823,2539.7014,N,07919.5822,W,1,7,2.3,13,M,,M,,*5F
06/19/2015	06:08:23.591	$GPGGA,060824,2539.6991,N,07919.5827,W,1,8,2.3,13,M,,M,,*57
06/19/2015	06:08:24.481	$GPGGA,060825,2539.6969,N,07919.5832,W,1,8,2.3,13,M,,M,,*55
06/19/2015	06:08:25.561	$GPGGA,060826,2539.6946,N,07919.5836,W,1,8,2.3,13,M,,M,,*5F
06/19/2015	06:08:26.571	$GPGGA,060827,2539.6924,N,07919.5842,W,1,8,2.3,13,M,,M,,*59
06/19/2015	06:08:27.570	$GPGGA,060828,2539.6900,N,07919.5846,W,1,8,2.3,13,M,,M,,*54
06/19/2015	06:08:28.460	$GPGGA,060829,2539.6878,N,07919.5852,W,1,8,2.3,13,M,,M,,*5E
06/19/2015	06:08:29.560	$GPGGA,060830,2539.6855,N,07919.5856,W,1,8,2.3,13,M,,M,,*5D
06/19/2015	06:08:30.560	$GPGGA,060831,2539.6830,N,07919.5860,W,1,8,2.3,13,M,,M,,*5A
06/19/2015	06:08:31.560	$GPGGA,060832,2539.6803,N,07919.5861,W,1,7,2.4,13,M,,M,,*50
06/19/2015	06:08:32.550	$GPGGA,060833,2539.6779,N,07919.5865,W,1,7,2.4,13,M,,M,,*57
06/19/2015	06:08:33.570	$GPGGA,060834,2539.6756,N,07919.5871,W,1,8,2.3,13,M,,M,,*50
06/19/2015	06:08:34.550	$GPGGA,060835,2539.6734,N,07919.5875,W,1,8,2.3,13,M,,M,,*51
06/19/2015	06:08:35.600	$GPGGA,060836,2539.6711,N,07919.5881,W,1,8,2.3,13,M,,M,,*5E
06/19/2015	06:08:36.550	$GPGGA,060837,2539.6687,N,07919.5885,W,1,8,2.3,13,M,,M,,*55
06/19/2015	06:08:37.560	$GPGGA,060838,2539.6664,N,07919.5889,W,1,8,2.3,13,M,,M,,*5B
06/19/2015	06:08:38.540	$GPGGA,060839,2539.6642,N,07919.5893,W,1,8,2.3,13,M,,M,,*55
06/19/2015	06:08:39.601	$GPGGA,060840,2539.6617,N,07919.5897,W,1,8,2.3,13,M,,M,,*5F
06/19/2015	06:08:40.540	$GPGGA,060841,2539.6593,N,07919.5903,W,1,8,2.3,13,M,,M,,*5D
06/19/2015	06:08:41.551	$GPGGA,060842,2539.6570,N,07919.5907,W,1,8,2.3,13,M,,M,,*57
06/19/2015	06:08:42.531	$GPGGA,060843,2539.6545,N,07919.5910,W,1,8,2.3,13,M,,M,,*56
06/19/2015	06:08:43.561	$GPGGA,060844,2539.6521,N,07919.5914,W,1,8,2.3,13,M,,M,,*57
06/19/2015	06:08:44.514	$GPGGA,060845,2539.6497,N,07919.5918,W,1,8,2.3,13,M,,M,,*56
06/19/2015	06:08:45.540	$GPGGA,060846,2539.6473,N,07919.5922,W,1,8,2.3,12,M,,M,,*57
06/19/2015	06:08:46.520	$GPGGA,060847,2539.6449,N,07919.5926,W,1,8,2.9,12,M,,M,,*51
06/19/2015	06:08:47.570	$GPGGA,060848,2539.6424,N,07919.5932,W,1,8,2.3,12,M,,M,,*5A
06/19/2015	06:08:48.513	$GPGGA,060849,2539.6400,N,07919.5936,W,1,8,2.3,13,M,,M,,*58
06/19/2015	06:08:49.540	$GPGGA,060850,2539.6376,N,07919.5941,W,1,8,2.3,13,M,,M,,*56
06/19/2015	06:08:50.503	$GPGGA,060851,2539.6353,N,07919.5946,W,1,8,2.3,13,M,,M,,*57
06/19/2015	06:08:51.550	$GPGGA,060852,2539.6328,N,07919.5950,W,1,8,2.3,13,M,,M,,*5F
06/19/2015	06:08:52.511	$GPGGA,060853,2539.6303,N,07919.5954,W,1,8,2.3,13,M,,M,,*53
06/19/2015	06:08:53.550	$GPGGA,060854,2539.6279,N,07919.5957,W,1,8,2.3,13,M,,M,,*5B
06/19/2015	06:08:54.515	$GPGGA,060855,2539.6254,N,07919.5961,W,1,8,2.3,13,M,,M,,*50
06/19/2015	06:08:55.560	$GPGGA,060856,2539.6230,N,07919.5965,W,1,8,2.3,13,M,,M,,*55
06/19/2015	06:08:56.521	$GPGGA,060857,2539.6205,N,07919.5969,W,1,8,2.3,13,M,,M,,*5E
06/19/2015	06:08:57.513	$GPGGA,060858,2539.6181,N,07919.5972,W,1,8,2.3,13,M,,M,,*54
06/19/2015	06:08:58.490	$GPGGA,060859,2539.6156,N,07919.5977,W,1,8,2.3,13,M,,M,,*5A
06/19/2015	06:08:59.571	$GPGGA,060900,2539.6131,N,07919.5982,W,1,8,2.3,14,M,,M,,*5B
06/19/2015	06:09:00.503	$GPGGA,060901,2539.6107,N,07919.5986,W,1,8,2.3,14,M,,M,,*5B
06/19/2015	06:09:01.504	$GPGGA,060902,2539.6083,N,07919.5990,W,1,8,2.3,14,M,,M,,*52
06/19/2015	06:09:02.480	$GPGGA,060903,2539.6059,N,07919.5993,W,1,8,2.3,14,M,,M,,*57
06/19/2015	06:09:03.490	$GPGGA,060904,2539.6035,N,07919.5998,W,1,8,2.3,14,M,,M,,*51
06/19/2015	06:09:04.490	$GPGGA,060905,2539.6011,N,07919.6004,W,1,8,2.3,14,M,,M,,*59
06/19/2015	06:09:05.610	$GPGGA,060906,2539.5988,N,07919.6008,W,1,8,2.3,14,M,,M,,*5C
06/19/2015	06:09:06.570	$GPGGA,060907,2539.5964,N,07919.6012,W,1,8,2.3,14,M,,M,,*54
06/19/2015	06:09:07.630	$GPGGA,060908,2539.5941,N,07919.6015,W,1,8,2.3,14,M,,M,,*5B
06/19/2015	06:09:08.480	$GPGGA,060909,2539.5916,N,07919.6020,W,1,8,2.3,14,M,,M,,*5E
06/19/2015	06:09:09.470	$GPGGA,060910,2539.5892,N,07919.6024,W,1,8,2.3,15,M,,M,,*5E
06/19/2015	06:09:10.560	$GPGGA,060911,2539.5869,N,07919.6030,W,1,8,2.3,15,M,,M,,*5E
06/19/2015	06:09:11.590	$GPGGA,060912,2539.5844,N,07919.6033,W,1,8,2.3,15,M,,M,,*51
06/19/2015	06:09:12.580	$GPGGA,060913,2539.5820,N,07919.6037,W,1,8,2.3,15,M,,M,,*56
06/19/2015	06:09:13.570	$GPGGA,060914,2539.5797,N,07919.6042,W,1,8,2.3,15,M,,M,,*50
06/19/2015	06:09:14.570	$GPGGA,060915,2539.5772,N,07919.6046,W,1,8,2.3,15,M,,M,,*5E
06/19/2015	06:09:15.590	$GPGGA,060916,2539.5748,N,07919.6049,W,1,8,2.3,15,M,,M,,*5B
06/19/2015	06:09:16.551	$GPGGA,060917,2539.5723,N,07919.6053,W,1,8,2.3,15,M,,M,,*5C
06/19/2015	06:09:17.561	$GPGGA,060918,2539.5700,N,07919.6058,W,1,8,2.3,15,M,,M,,*59
06/19/2015	06:09:18.561	$GPGGA,060919,2539.5676,N,07919.6060,W,1,8,2.3,15,M,,M,,*53
06/19/2015	06:09:19.890	$GPGGA,060920,2539.5652,N,07919.6063,W,1,8,2.3,15,M,,M,,*5C
06/19/2015	06:09:20.540	$GPGGA,060921,2539.5628,N,07919.6067,W,1,8,2.3,15,M,,M,,*54
06/19/2015	06:09:21.560	$GPGGA,060922,2539.5605,N,07919.6070,W,1,8,2.3,15,M,,M,,*5E
06/19/2015	06:09:22.550	$GPGGA,060923,2539.5580,N,07919.6073,W,1,8,2.3,15,M,,M,,*52
06/19/2015	06:09:23.570	$GPGGA,060924,2539.5556,N,07919.6077,W,1,8,2.3,15,M,,M,,*5A
06/19/2015	06:09:24.540	$GPGGA,060925,2539.5533,N,07919.6080,W,1,8,2.3,15,M,,M,,*50
06/19/2015	06:09:25.560	$GPGGA,060926,2539.5509,N,07919.6082,W,1,8,2.3,15,M,,M,,*58
06/19/2015	06:09:26.540	$GPGGA,060927,2539.5486,N,07919.6084,W,1,8,2.3,16,M,,M,,*5A
06/19/2015	06:09:27.570	$GPGGA,060928,2539.5461,N,07919.6088,W,1,8,2.3,16,M,,M,,*50
06/19/2015	06:09:28.540	$GPGGA,060929,2539.5437,N,07919.6091,W,1,8,2.3,16,M,,M,,*5A
06/19/2015	06:09:29.550	$GPGGA,060930,2539.5414,N,07919.6094,W,1,8,2.3,16,M,,M,,*56
06/19/2015	06:09:30.520	$GPGGA,060931,2539.5390,N,07919.6096,W,1,8,2.3,16,M,,M,,*5E
06/19/2015	06:09:31.560	$GPGGA,060932,2539.5367,N,07919.6098,W,1,8,2.3,16,M,,M,,*5B
06/19/2015	06:09:32.520	$GPGGA,060933,2539.5343,N,07919.6100,W,1,8,2.4,16,M,,M,,*5B
06/19/2015	06:09:33.521	$GPGGA,060934,2539.5320,N,07919.6105,W,1,7,2.3,16,M,,M,,*54
06/19/2015	06:09:34.531	$GPGGA,060935,2539.5298,N,07919.6107,W,1,7,2.3,16,M,,M,,*55
06/19/2015	06:09:35.561	$GPGGA,060936,2539.5275,N,07919.6111,W,1,8,2.3,16,M,,M,,*5D
06/19/2015	06:09:36.511	$GPGGA,060937,2539.5251,N,07919.6113,W,1,8,2.4,16,M,,M,,*5F
06/19/2015	06:09:37.520	$GPGGA,060938,2539.5227,N,07919.6116,W,1,7,2.3,16,M,,M,,*5C
06/19/2015	06:09:38.520	$GPGGA,060939,2539.5204,N,07919.6120,W,1,7,2.3,16,M,,M,,*59
06/19/2015	06:09:39.550	$GPGGA,060940,2539.5182,N,07919.6123,W,1,8,2.3,16,M,,M,,*56
06/19/2015	06:09:40.510	$GPGGA,060941,2539.5159,N,07919.6125,W,1,8,2.3,16,M,,M,,*57
06/19/2015	06:09:41.530	$GPGGA,060942,2539.5135,N,07919.6129,W,1,8,2.3,16,M,,M,,*52
06/19/2015	06:09:42.501	$GPGGA,060943,2539.5111,N,07919.6131,W,1,8,2.3,16,M,,M,,*5C
06/19/2015	06:09:43.520	$GPGGA,060944,2539.5089,N,07919.6134,W,1,8,2.3,16,M,,M,,*5E
06/19/2015	06:09:44.520	$GPGGA,060945,2539.5065,N,07919.6138,W,1,8,2.3,16,M,,M,,*51
06/19/2015	06:09:45.520	$GPGGA,060946,2539.5042,N,07919.6142,W,1,8,2.3,16,M,,M,,*5A
06/19/2015	06:09:46.605	$GPGGA,060947,2539.5018,N,07919.6145,W,1,8,2.3,16,M,,M,,*53
06/19/2015	06:09:47.520	$GPGGA,060948,2539.4995,N,07919.6146,W,1,8,2.3,15,M,,M,,*51
06/19/2015	06:09:48.510	$GPGGA,060949,2539.4970,N,07919.6149,W,1,8,2.3,15,M,,M,,*54
06/19/2015	06:09:49.480	$GPGGA,060950,2539.4946,N,07919.6152,W,1,8,2.3,15,M,,M,,*53
06/19/2015	06:09:50.580	$GPGGA,060951,2539.4922,N,07919.6154,W,1,8,2.3,15,M,,M,,*56
06/19/2015	06:09:51.591	$GPGGA,060952,2539.4898,N,07919.6156,W,1,8,2.3,15,M,,M,,*57
06/19/2015	06:09:52.491	$GPGGA,060953,2539.4874,N,07919.6160,W,1,8,2.3,15,M,,M,,*51
06/19/2015	06:09:53.511	$GPGGA,060954,2539.4851,N,07919.6163,W,1,8,2.3,15,M,,M,,*52
06/19/2015	06:09:54.591	$GPGGA,060955,2539.4827,N,07919.6164,W,1,8,2.3,15,M,,M,,*55
06/19/2015	06:09:55.510	$GPGGA,060956,2539.4804,N,07919.6167,W,1,8,2.3,15,M,,M,,*54
06/19/2015	06:09:56.580	$GPGGA,060957,2539.4780,N,07919.6171,W,1,8,2.3,15,M,,M,,*51
06/19/2015	06:09:57.590	$GPGGA,060958,2539.4757,N,07919.6174,W,1,8,2.3,15,M,,M,,*51
06/19/2015	06:09:58.490	$GPGGA,060959,2539.4734,N,07919.6176,W,1,8,2.3,15,M,,M,,*57
06/19/2015	06:09:59.590	$GPGGA,061000,2539.4711,N,07919.6179,W,1,8,2.3,15,M,,M,,*5B
06/19/2015	06:10:00.570	$GPGGA,061001,2539.4688,N,07919.6182,W,1,8,2.3,15,M,,M,,*5F
06/19/2015	06:10:01.480	$GPGGA,061002,2539.4666,N,07919.6185,W,1,8,2.3,15,M,,M,,*5B
06/19/2015	06:10:02.560	$GPGGA,061003,2539.4643,N,07919.6188,W,1,8,2.3,15,M,,M,,*50
06/19/2015	06:10:03.580	$GPGGA,061004,2539.4620,N,07919.6190,W,1,8,2.3,15,M,,M,,*5B
06/19/2015	06:10:04.550	$GPGGA,061005,2539.4598,N,07919.6192,W,1,8,2.3,15,M,,M,,*58
06/19/2015	06:10:05.570	$GPGGA,061006,2539.4576,N,07919.6194,W,1,8,2.3,15,M,,M,,*5D
06/19/2015	06:10:06.560	$GPGGA,061007,2539.4554,N,07919.6197,W,1,8,2.3,15,M,,M,,*5F
06/19/2015	06:10:07.580	$GPGGA,061008,2539.4531,N,07919.6200,W,1,8,2.3,15,M,,M,,*5E
06/19/2015	06:10:08.571	$GPGGA,061009,2539.4508,N,07919.6203,W,1,8,2.3,15,M,,M,,*56
06/19/2015	06:10:09.571	$GPGGA,061010,2539.4486,N,07919.6206,W,1,8,2.3,15,M,,M,,*5C
06/19/2015	06:10:10.541	$GPGGA,061011,2539.4464,N,07919.6208,W,1,8,2.3,15,M,,M,,*5F
06/19/2015	06:10:11.571	$GPGGA,061012,2539.4442,N,07919.6210,W,1,8,2.3,15,M,,M,,*51
06/19/2015	06:10:12.530	$GPGGA,061013,2539.4421,N,07919.6214,W,1,8,2.3,15,M,,M,,*51
06/19/2015	06:10:13.530	$GPGGA,061014,2539.4398,N,07919.6217,W,1,8,2.3,15,M,,M,,*50
06/19/2015	06:10:14.540	$GPGGA,061015,2539.4377,N,07919.6218,W,1,8,2.3,15,M,,M,,*5F
06/19/2015	06:10:15.570	$GPGGA,061016,2539.4355,N,07919.6221,W,1,8,2.3,15,M,,M,,*56
06/19/2015	06:10:16.540	$GPGGA,061017,2539.4332,N,07919.6223,W,1,8,2.3,15,M,,M,,*54
06/19/2015	06:10:17.550	$GPGGA,061018,2539.4312,N,07919.6226,W,1,8,2.3,15,M,,M,,*5C
06/19/2015	06:10:18.530	$GPGGA,061019,2539.4290,N,07919.6229,W,1,8,2.3,15,M,,M,,*59
06/19/2015	06:10:19.860	$GPGGA,061020,2539.4267,N,07919.6232,W,1,8,2.3,15,M,,M,,*51
06/19/2015	06:10:20.510	$GPGGA,061021,2539.4245,N,07919.6236,W,1,8,2.3,15,M,,M,,*54
06/19/2015	06:10:21.530	$GPGGA,061022,2539.4225,N,07919.6239,W,1,8,2.3,15,M,,M,,*5E
06/19/2015	06:10:22.530	$GPGGA,061023,2539.4202,N,07919.6241,W,1,8,2.3,15,M,,M,,*55
06/19/2015	06:10:23.550	$GPGGA,061024,2539.4180,N,07919.6244,W,1,8,2.3,15,M,,M,,*5E
06/19/2015	06:10:24.520	$GPGGA,061025,2539.4160,N,07919.6247,W,1,8,2.3,15,M,,M,,*52
06/19/2015	06:10:25.524	$GPGGA,061026,2539.4137,N,07919.6250,W,1,8,2.3,15,M,,M,,*55
06/19/2015	06:10:26.516	$GPGGA,061027,2539.4115,N,07919.6254,W,1,8,2.3,15,M,,M,,*50
06/19/2015	06:10:27.534	$GPGGA,061028,2539.4095,N,07919.6257,W,1,8,2.3,15,M,,M,,*55
06/19/2015	06:10:28.517	$GPGGA,061029,2539.4072,N,07919.6259,W,1,8,2.3,15,M,,M,,*53
06/19/2015	06:10:29.508	$GPGGA,061030,2539.4050,N,07919.6262,W,1,8,2.3,15,M,,M,,*53
06/19/2015	06:10:30.490	$GPGGA,061031,2539.4030,N,07919.6265,W,1,8,2.3,15,M,,M,,*53
06/19/2015	06:10:31.517	$GPGGA,061032,2539.4007,N,07919.6268,W,1,8,2.3,15,M,,M,,*59
06/19/2015	06:10:32.613	$GPGGA,061033,2539.3985,N,07919.6272,W,1,8,2.3,15,M,,M,,*57
06/19/2015	06:10:33.613	$GPGGA,061034,2539.3965,N,07919.6273,W,1,8,2.3,15,M,,M,,*5F
06/19/2015	06:10:34.505	$GPGGA,061035,2539.3941,N,07919.6276,W,1,8,2.3,15,M,,M,,*5D
06/19/2015	06:10:35.505	$GPGGA,061036,2539.3920,N,07919.6279,W,1,8,2.3,15,M,,M,,*56
06/19/2015	06:10:36.505	$GPGGA,061037,2539.3898,N,07919.6282,W,1,8,2.3,15,M,,M,,*51
06/19/2015	06:10:37.620	$GPGGA,061038,2539.3876,N,07919.6284,W,1,8,2.3,15,M,,M,,*58
06/19/2015	06:10:38.521	$GPGGA,061039,2539.3854,N,07919.6286,W,1,8,2.3,15,M,,M,,*5B
06/19/2015	06:10:39.590	$GPGGA,061040,2539.3832,N,07919.6290,W,1,8,2.3,15,M,,M,,*52
06/19/2015	06:10:40.471	$GPGGA,061041,2539.3811,N,07919.6291,W,1,8,2.3,15,M,,M,,*53
06/19/2015	06:10:41.471	$GPGGA,061042,2539.3789,N,07919.6293,W,1,8,2.3,15,M,,M,,*5C
06/19/2015	06:10:42.570	$GPGGA,061043,2539.3767,N,07919.6297,W,1,8,2.3,15,M,,M,,*59
06/19/2015	06:10:43.621	$GPGGA,061044,2539.3745,N,07919.6298,W,1,8,2.3,15,M,,M,,*51
06/19/2015	06:10:44.561	$GPGGA,061045,2539.3723,N,07919.6301,W,1,8,2.3,15,M,,M,,*51
06/19/2015	06:10:45.591	$GPGGA,061046,2539.3701,N,07919.6304,W,1,8,2.3,15,M,,M,,*57
06/19/2015	06:10:46.561	$GPGGA,061047,2539.3680,N,07919.6305,W,1,8,2.3,15,M,,M,,*5F
06/19/2015	06:10:47.480	$GPGGA,061048,2539.3658,N,07919.6308,W,1,8,2.3,15,M,,M,,*58
06/19/2015	06:10:48.570	$GPGGA,061049,2539.3636,N,07919.6309,W,1,8,2.3,15,M,,M,,*50
06/19/2015	06:10:49.551	$GPGGA,061050,2539.3615,N,07919.6312,W,1,8,2.3,15,M,,M,,*53
06/19/2015	06:10:50.560	$GPGGA,061051,2539.3593,N,07919.6315,W,1,8,2.3,15,M,,M,,*58
06/19/2015	06:10:51.590	$GPGGA,061052,2539.3570,N,07919.6316,W,1,8,2.3,15,M,,M,,*55
06/19/2015	06:10:52.550	$GPGGA,061053,2539.3548,N,07919.6319,W,1,8,2.3,15,M,,M,,*50
06/19/2015	06:10:53.580	$GPGGA,061054,2539.3528,N,07919.6322,W,1,8,2.3,15,M,,M,,*59
06/19/2015	06:10:54.550	$GPGGA,061055,2539.3505,N,07919.6323,W,1,8,2.3,15,M,,M,,*56
06/19/2015	06:10:55.570	$GPGGA,061056,2539.3483,N,07919.6326,W,1,8,2.3,15,M,,M,,*5F
06/19/2015	06:10:56.550	$GPGGA,061057,2539.3461,N,07919.6329,W,1,8,2.3,15,M,,M,,*5D
06/19/2015	06:10:57.580	$GPGGA,061058,2539.3439,N,07919.6330,W,1,8,2.3,15,M,,M,,*57
06/19/2015	06:10:58.550	$GPGGA,061059,2539.3418,N,07919.6333,W,1,8,2.3,15,M,,M,,*56
06/19/2015	06:10:59.580	$GPGGA,061100,2539.3396,N,07919.6337,W,1,8,2.3,15,M,,M,,*5E
06/19/2015	06:11:00.530	$GPGGA,061101,2539.3376,N,07919.6338,W,1,8,2.3,16,M,,M,,*5D
06/19/2015	06:11:01.561	$GPGGA,061102,2539.3353,N,07919.6340,W,1,8,2.3,16,M,,M,,*56
06/19/2015	06:11:02.531	$GPGGA,061103,2539.3333,N,07919.6344,W,1,8,2.3,16,M,,M,,*55
06/19/2015	06:11:03.551	$GPGGA,061104,2539.3311,N,07919.6348,W,1,8,2.3,16,M,,M,,*5E
06/19/2015	06:11:04.541	$GPGGA,061105,2539.3288,N,07919.6351,W,1,8,2.3,16,M,,M,,*56
06/19/2015	06:11:05.550	$GPGGA,061106,2539.3268,N,07919.6353,W,1,8,2.3,16,M,,M,,*59
06/19/2015	06:11:06.530	$GPGGA,061107,2539.3246,N,07919.6356,W,1,8,2.3,16,M,,M,,*51
06/19/2015	06:11:07.560	$GPGGA,061108,2539.3224,N,07919.6359,W,1,8,2.3,16,M,,M,,*55
06/19/2015	06:11:08.530	$GPGGA,061109,2539.3203,N,07919.6363,W,1,8,2.3,16,M,,M,,*58
06/19/2015	06:11:09.540	$GPGGA,061110,2539.3181,N,07919.6366,W,1,8,2.3,16,M,,M,,*5C
06/19/2015	06:11:10.522	$GPGGA,061111,2539.3160,N,07919.6369,W,1,8,2.3,16,M,,M,,*5D
06/19/2015	06:11:11.530	$GPGGA,061112,2539.3139,N,07919.6373,W,1,8,2.3,16,M,,M,,*59
06/19/2015	06:11:12.530	$GPGGA,061113,2539.3117,N,07919.6376,W,1,8,2.3,16,M,,M,,*51
06/19/2015	06:11:13.515	$GPGGA,061114,2539.3095,N,07919.6380,W,1,8,2.3,16,M,,M,,*54
06/19/2015	06:11:14.513	$GPGGA,061115,2539.3074,N,07919.6384,W,1,8,2.3,16,M,,M,,*5E
06/19/2015	06:11:15.550	$GPGGA,061116,2539.3052,N,07919.6388,W,1,8,2.3,16,M,,M,,*55
06/19/2015	06:11:16.512	$GPGGA,061117,2539.3031,N,07919.6392,W,1,8,2.2,16,M,,M,,*5B
06/19/2015	06:11:17.530	$GPGGA,061118,2539.3009,N,07919.6396,W,1,8,2.2,16,M,,M,,*5B
06/19/2015	06:11:18.616	$GPGGA,061119,2539.2988,N,07919.6399,W,1,8,2.2,16,M,,M,,*54
06/19/2015	06:11:19.614	$GPGGA,061120,2539.2966,N,07919.6403,W,1,8,2.2,16,M,,M,,*5A
06/19/2015	06:11:20.504	$GPGGA,061121,2539.2944,N,07919.6407,W,1,8,2.2,16,M,,M,,*5F
06/19/2015	06:11:21.531	$GPGGA,061122,2539.2923,N,07919.6412,W,1,8,2.2,16,M,,M,,*59
06/19/2015	06:11:22.480	$GPGGA,061123,2539.2901,N,07919.6416,W,1,8,2.2,16,M,,M,,*5C
06/19/2015	06:11:23.630	$GPGGA,061124,2539.2880,N,07919.6420,W,1,8,2.2,16,M,,M,,*56
06/19/2015	06:11:24.490	$GPGGA,061125,2539.2858,N,07919.6423,W,1,8,2.2,16,M,,M,,*51
06/19/2015	06:11:25.480	$GPGGA,061126,2539.2836,N,07919.6427,W,1,8,2.2,16,M,,M,,*5E
06/19/2015	06:11:26.604	$GPGGA,061127,2539.2816,N,07919.6432,W,1,8,2.2,16,M,,M,,*59
06/19/2015	06:11:27.505	$GPGGA,061128,2539.2793,N,07919.6435,W,1,8,2.2,16,M,,M,,*53
06/19/2015	06:11:28.490	$GPGGA,061129,2539.2773,N,07919.6439,W,1,8,2.2,16,M,,M,,*50
06/19/2015	06:11:29.490	$GPGGA,061130,2539.2751,N,07919.6445,W,1,8,2.2,16,M,,M,,*53
06/19/2015	06:11:30.570	$GPGGA,061131,2539.2729,N,07919.6447,W,1,8,2.2,16,M,,M,,*5F
06/19/2015	06:11:31.504	$GPGGA,061132,2539.2708,N,07919.6452,W,1,8,2.2,16,M,,M,,*5B
06/19/2015	06:11:32.580	$GPGGA,061133,2539.2686,N,07919.6456,W,1,8,2.2,16,M,,M,,*59
06/19/2015	06:11:33.570	$GPGGA,061134,2539.2665,N,07919.6459,W,1,8,2.2,16,M,,M,,*5C
06/19/2015	06:11:34.470	$GPGGA,061135,2539.2643,N,07919.6461,W,1,8,2.2,16,M,,M,,*52
06/19/2015	06:11:35.580	$GPGGA,061136,2539.2621,N,07919.6465,W,1,8,2.2,16,M,,M,,*51
06/19/2015	06:11:36.551	$GPGGA,061137,2539.2600,N,07919.6470,W,1,8,2.2,16,M,,M,,*57
06/19/2015	06:11:37.571	$GPGGA,061138,2539.2578,N,07919.6472,W,1,8,2.2,16,M,,M,,*56
06/19/2015	06:11:38.561	$GPGGA,061139,2539.2557,N,07919.6475,W,1,8,2.2,16,M,,M,,*5D
06/19/2015	06:11:39.561	$GPGGA,061140,2539.2535,N,07919.6478,W,1,8,2.2,16,M,,M,,*5A
06/19/2015	06:11:40.560	$GPGGA,061141,2539.2514,N,07919.6481,W,1,8,2.2,16,M,,M,,*5E
06/19/2015	06:11:41.570	$GPGGA,061142,2539.2493,N,07919.6485,W,1,8,2.2,16,M,,M,,*57
06/19/2015	06:11:42.550	$GPGGA,061143,2539.2473,N,07919.6488,W,1,8,2.2,16,M,,M,,*55
06/19/2015	06:11:43.591	$GPGGA,061144,2539.2450,N,07919.6490,W,1,8,2.2,16,M,,M,,*5A
06/19/2015	06:11:44.550	$GPGGA,061145,2539.2430,N,07919.6493,W,1,8,2.2,16,M,,M,,*5E
06/19/2015	06:11:45.580	$GPGGA,061146,2539.2408,N,07919.6496,W,1,8,2.2,16,M,,M,,*53
06/19/2015	06:11:46.530	$GPGGA,061147,2539.2386,N,07919.6499,W,1,8,2.2,16,M,,M,,*5C
06/19/2015	06:11:47.580	$GPGGA,061148,2539.2365,N,07919.6501,W,1,8,2.2,16,M,,M,,*5E
06/19/2015	06:11:48.530	$GPGGA,061149,2539.2343,N,07919.6504,W,1,8,2.2,16,M,,M,,*5E
06/19/2015	06:11:49.560	$GPGGA,061150,2539.2321,N,07919.6507,W,1,8,2.2,16,M,,M,,*51
06/19/2015	06:11:50.540	$GPGGA,061151,2539.2300,N,07919.6510,W,1,8,2.2,16,M,,M,,*55
06/19/2015	06:11:51.571	$GPGGA,061152,2539.2278,N,07919.6512,W,1,8,2.2,16,M,,M,,*5A
06/19/2015	06:11:52.540	$GPGGA,061153,2539.2257,N,07919.6515,W,1,8,2.2,16,M,,M,,*51
