Software Version Number: 1	Data File Format Number: 1	Build Version Number: 1	Error Count Since VI Started: 1	Manufacturer: Raytheon	 Model Number: RayMarine 120	 S/N: 	 Cal Date: 	 Wind Direction Offset: 0.00	 Slope (M)1: 0.00	 Offset (B)1: 0.00	 Slope (M)2: 0.00	 Offset (B)2: 0.00	 Slope (M)3: 0.00	 Offset (B)3: 0.00	 Slope (M)4: 0.00	 Offset (B)4: 0.00	 Slope (M)5: 0.00	 Offset (B)5: 0.00	 Slope (M)6: 0.00	 Offset (B)6: 0.00
Computer Date	Computer Time	GGA String
06/18/2015	05:00:00.519	$GPGGA,050001,2540.9181,N,07948.3970,W,1,9,1.9,16,M,,M,,*5F
06/18/2015	05:00:01.549	$GPGGA,050002,2540.9182,N,07948.3951,W,1,9,1.6,16,M,,M,,*53
06/18/2015	05:00:02.529	$GPGGA,050003,2540.9186,N,07948.3915,W,1,9,1.9,16,M,,M,,*59
06/18/2015	05:00:03.589	$GPGGA,050004,2540.9189,N,07948.3897,W,1,8,1.6,16,M,,M,,*54
06/18/2015	05:00:04.519	$GPGGA,050005,2540.9189,N,07948.3879,W,1,8,1.6,16,M,,M,,*55
06/18/2015	05:00:05.529	$GPGGA,050006,2540.9189,N,07948.3879,W,1,9,1.6,16,M,,M,,*57
06/18/2015	05:00:06.519	$GPGGA,050007,2540.9193,N,07948.3843,W,1,9,1.9,16,M,,M,,*5B
06/18/2015	05:00:07.579	$GPGGA,050008,2540.9196,N,07948.3824,W,1,8,1.9,16,M,,M,,*51
06/18/2015	05:00:08.529	$GPGGA,050009,2540.9196,N,07948.3806,W,1,8,1.9,16,M,,M,,*50
06/18/2015	05:00:09.559	$GPGGA,050010,2540.9199,N,07948.3787,W,1,9,1.9,16,M,,M,,*50
06/18/2015	05:00:10.519	$GPGGA,050011,2540.9202,N,07948.3769,W,1,9,1.9,16,M,,M,,*50
06/18/2015	05:00:11.569	$GPGGA,050012,2540.9203,N,07948.3751,W,1,8,1.9,16,M,,M,,*58
06/18/2015	05:00:12.509	$GPGGA,050013,2540.9206,N,07948.3732,W,1,8,1.9,16,M,,M,,*59
06/18/2015	05:00:13.559	$GPGGA,050014,2540.9209,N,07948.3713,W,1,8,2.1,16,M,,M,,*59
06/18/2015	05:00:14.609	$GPGGA,050015,2540.9208,N,07948.3699,W,1,8,2.1,16,M,,M,,*5A
06/18/2015	05:00:15.598	$GPGGA,050016,2540.9208,N,07948.3699,W,1,9,1.6,16,M,,M,,*5C
06/18/2015	05:00:16.519	$GPGGA,050017,2540.9214,N,07948.3667,W,1,9,1.9,16,M,,M,,*5E
06/18/2015	05:00:17.509	$GPGGA,050018,2540.9214,N,07948.3667,W,1,8,1.9,16,M,,M,,*50
06/18/2015	05:00:18.509	$GPGGA,050019,2540.9218,N,07948.3633,W,1,8,1.6,16,M,,M,,*53
06/18/2015	05:00:19.519	$GPGGA,050020,2540.9218,N,07948.3633,W,1,9,1.6,16,M,,M,,*58
06/18/2015	05:00:20.509	$GPGGA,050021,2540.9222,N,07948.3598,W,1,9,1.6,16,M,,M,,*52
06/18/2015	05:00:21.549	$GPGGA,050022,2540.9225,N,07948.3580,W,1,8,1.9,16,M,,M,,*51
06/18/2015	05:00:22.479	$GPGGA,050023,2540.9228,N,07948.3563,W,1,8,1.9,16,M,,M,,*50
06/18/2015	05:00:23.509	$GPGGA,050024,2540.9228,N,07948.3563,W,1,8,1.9,16,M,,M,,*57
06/18/2015	05:00:24.589	$GPGGA,050025,2540.9230,N,07948.3528,W,1,8,1.6,16,M,,M,,*5F
06/18/2015	05:00:25.582	$GPGGA,050026,2540.9234,N,07948.3509,W,1,9,1.6,16,M,,M,,*5A
06/18/2015	05:00:26.489	$GPGGA,050027,2540.9234,N,07948.3509,W,1,9,1.9,16,M,,M,,*54
06/18/2015	05:00:27.499	$GPGGA,050028,2540.9236,N,07948.3491,W,1,9,1.6,16,M,,M,,*56
06/18/2015	05:00:28.489	$GPGGA,050029,2540.9236,N,07948.3475,W,1,9,1.6,16,M,,M,,*5D
06/18/2015	05:00:29.479	$GPGGA,050030,2540.9238,N,07948.3440,W,1,9,1.6,16,M,,M,,*5D
06/18/2015	05:00:30.489	$GPGGA,050031,2540.9240,N,07948.3421,W,1,9,1.6,17,M,,M,,*55
06/18/2015	05:00:31.579	$GPGGA,050032,2540.9243,N,07948.3403,W,1,8,1.9,17,M,,M,,*5B
06/18/2015	05:00:32.559	$GPGGA,050033,2540.9247,N,07948.3383,W,1,8,1.9,17,M,,M,,*51
06/18/2015	05:00:33.570	$GPGGA,050034,2540.9250,N,07948.3363,W,1,9,1.6,17,M,,M,,*50
06/18/2015	05:00:34.559	$GPGGA,050035,2540.9253,N,07948.3345,W,1,9,1.6,17,M,,M,,*56
06/18/2015	05:00:35.569	$GPGGA,050036,2540.9254,N,07948.3326,W,1,8,1.9,17,M,,M,,*59
06/18/2015	05:00:36.559	$GPGGA,050037,2540.9256,N,07948.3308,W,1,8,1.9,17,M,,M,,*56
06/18/2015	05:00:37.889	$GPGGA,050038,2540.9257,N,07948.3290,W,1,9,1.6,17,M,,M,,*56
06/18/2015	05:00:38.559	$GPGGA,050039,2540.9258,N,07948.3273,W,1,9,1.9,17,M,,M,,*5A
06/18/2015	05:00:39.579	$GPGGA,050040,2540.9260,N,07948.3255,W,1,9,1.6,17,M,,M,,*54
06/18/2015	05:00:40.539	$GPGGA,050041,2540.9261,N,07948.3237,W,1,9,1.6,17,M,,M,,*50
06/18/2015	05:00:41.569	$GPGGA,050042,2540.9260,N,07948.3220,W,1,8,1.9,17,M,,M,,*5A
06/18/2015	05:00:42.559	$GPGGA,050043,2540.9263,N,07948.3202,W,1,8,1.6,17,M,,M,,*57
06/18/2015	05:00:43.589	$GPGGA,050044,2540.9264,N,07948.3185,W,1,9,1.6,17,M,,M,,*5A
06/18/2015	05:00:44.539	$GPGGA,050045,2540.9265,N,07948.3167,W,1,9,1.6,17,M,,M,,*56
06/18/2015	05:00:45.549	$GPGGA,050046,2540.9267,N,07948.3149,W,1,9,1.6,17,M,,M,,*5B
06/18/2015	05:00:46.539	$GPGGA,050047,2540.9266,N,07948.3131,W,1,9,1.6,17,M,,M,,*54
06/18/2015	05:00:47.569	$GPGGA,050048,2540.9268,N,07948.3114,W,1,9,1.6,17,M,,M,,*52
06/18/2015	05:00:48.529	$GPGGA,050049,2540.9269,N,07948.3096,W,1,9,1.6,17,M,,M,,*59
06/18/2015	05:00:49.519	$GPGGA,050050,2540.9271,N,07948.3079,W,1,9,1.6,17,M,,M,,*59
06/18/2015	05:00:50.528	$GPGGA,050051,2540.9272,N,07948.3061,W,1,9,1.6,17,M,,M,,*52
06/18/2015	05:00:51.559	$GPGGA,050052,2540.9272,N,07948.3044,W,1,9,1.6,17,M,,M,,*56
06/18/2015	05:00:52.519	$GPGGA,050053,2540.9274,N,07948.3026,W,1,9,1.7,17,M,,M,,*54
06/18/2015	05:00:53.549	$GPGGA,050054,2540.9275,N,07948.3008,W,1,9,1.7,17,M,,M,,*5E
06/18/2015	05:00:54.519	$GPGGA,050055,2540.9276,N,07948.2990,W,1,9,1.7,17,M,,M,,*55
06/18/2015	05:00:55.559	$GPGGA,050056,2540.9276,N,07948.2973,W,1,9,1.7,17,M,,M,,*5B
06/18/2015	05:00:56.529	$GPGGA,050057,2540.9279,N,07948.2955,W,1,9,1.7,17,M,,M,,*51
06/18/2015	05:00:57.509	$GPGGA,050058,2540.9279,N,07948.2937,W,1,8,1.9,17,M,,M,,*55
06/18/2015	05:00:58.519	$GPGGA,050059,2540.9281,N,07948.2920,W,1,8,1.7,17,M,,M,,*5B
06/18/2015	05:00:59.829	$GPGGA,050100,2540.9280,N,07948.2903,W,1,9,1.7,17,M,,M,,*57
06/18/2015	05:01:00.509	$GPGGA,050101,2540.9279,N,07948.2887,W,1,9,1.7,17,M,,M,,*5D
06/18/2015	05:01:01.529	$GPGGA,050102,2540.9279,N,07948.2870,W,1,9,1.7,17,M,,M,,*56
06/18/2015	05:01:02.509	$GPGGA,050103,2540.9279,N,07948.2854,W,1,9,1.7,17,M,,M,,*51
06/18/2015	05:01:03.529	$GPGGA,050104,2540.9281,N,07948.2836,W,1,9,1.7,17,M,,M,,*55
06/18/2015	05:01:04.489	$GPGGA,050105,2540.9280,N,07948.2819,W,1,9,1.7,17,M,,M,,*58
06/18/2015	05:01:05.509	$GPGGA,050106,2540.9283,N,07948.2801,W,1,9,1.7,17,M,,M,,*51
06/18/2015	05:01:06.499	$GPGGA,050107,2540.9285,N,07948.2782,W,1,9,1.9,17,M,,M,,*5C
06/18/2015	05:01:07.519	$GPGGA,050108,2540.9286,N,07948.2763,W,1,8,1.9,17,M,,M,,*5E
06/18/2015	05:01:08.509	$GPGGA,050109,2540.9290,N,07948.2744,W,1,8,1.7,17,M,,M,,*53
06/18/2015	05:01:09.589	$GPGGA,050110,2540.9292,N,07948.2725,W,1,9,1.7,17,M,,M,,*5F
06/18/2015	05:01:10.479	$GPGGA,050111,2540.9294,N,07948.2706,W,1,9,1.7,17,M,,M,,*59
06/18/2015	05:01:11.509	$GPGGA,050112,2540.9297,N,07948.2688,W,1,9,1.7,17,M,,M,,*5E
06/18/2015	05:01:12.469	$GPGGA,050113,2540.9297,N,07948.2670,W,1,9,1.7,17,M,,M,,*58
06/18/2015	05:01:13.569	$GPGGA,050114,2540.9300,N,07948.2651,W,1,9,1.7,17,M,,M,,*53
06/18/2015	05:01:14.589	$GPGGA,050115,2540.9301,N,07948.2632,W,1,9,1.7,17,M,,M,,*56
06/18/2015	05:01:15.609	$GPGGA,050116,2540.9303,N,07948.2614,W,1,8,1.9,17,M,,M,,*5C
06/18/2015	05:01:16.559	$GPGGA,050117,2540.9304,N,07948.2597,W,1,8,1.9,17,M,,M,,*52
06/18/2015	05:01:17.569	$GPGGA,050118,2540.9305,N,07948.2578,W,1,9,1.7,17,M,,M,,*52
06/18/2015	05:01:18.479	$GPGGA,050119,2540.9307,N,07948.2561,W,1,9,1.7,17,M,,M,,*59
06/18/2015	05:01:19.619	$GPGGA,050120,2540.9308,N,07948.2543,W,1,9,1.7,16,M,,M,,*5D
06/18/2015	05:01:20.559	$GPGGA,050121,2540.9310,N,07948.2524,W,1,9,1.7,16,M,,M,,*54
06/18/2015	05:01:21.549	$GPGGA,050122,2540.9311,N,07948.2507,W,1,8,1.9,16,M,,M,,*58
06/18/2015	05:01:22.549	$GPGGA,050123,2540.9312,N,07948.2487,W,1,8,1.7,16,M,,M,,*5D
06/18/2015	05:01:23.569	$GPGGA,050124,2540.9315,N,07948.2470,W,1,8,1.9,16,M,,M,,*5B
06/18/2015	05:01:24.549	$GPGGA,050125,2540.9314,N,07948.2453,W,1,8,1.7,16,M,,M,,*54
06/18/2015	05:01:25.558	$GPGGA,050126,2540.9315,N,07948.2435,W,1,9,1.7,16,M,,M,,*57
06/18/2015	05:01:26.549	$GPGGA,050127,2540.9319,N,07948.2416,W,1,9,1.7,16,M,,M,,*5B
06/18/2015	05:01:27.579	$GPGGA,050128,2540.9321,N,07948.2397,W,1,8,1.9,16,M,,M,,*5E
06/18/2015	05:01:28.549	$GPGGA,050129,2540.9323,N,07948.2378,W,1,8,1.9,16,M,,M,,*5C
06/18/2015	05:01:29.559	$GPGGA,050130,2540.9325,N,07948.2359,W,1,8,1.9,16,M,,M,,*51
06/18/2015	05:01:30.539	$GPGGA,050131,2540.9326,N,07948.2341,W,1,8,1.9,16,M,,M,,*5A
06/18/2015	05:01:31.569	$GPGGA,050132,2540.9329,N,07948.2322,W,1,8,1.9,16,M,,M,,*53
06/18/2015	05:01:32.529	$GPGGA,050133,2540.9330,N,07948.2303,W,1,8,1.9,16,M,,M,,*59
06/18/2015	05:01:33.559	$GPGGA,050134,2540.9333,N,07948.2283,W,1,8,1.9,16,M,,M,,*54
06/18/2015	05:01:34.529	$GPGGA,050135,2540.9334,N,07948.2265,W,1,8,1.7,16,M,,M,,*54
06/18/2015	05:01:35.559	$GPGGA,050136,2540.9336,N,07948.2247,W,1,9,1.7,16,M,,M,,*54
06/18/2015	05:01:36.529	$GPGGA,050137,2540.9335,N,07948.2231,W,1,9,1.9,16,M,,M,,*59
06/18/2015	05:01:37.549	$GPGGA,050138,2540.9337,N,07948.2213,W,1,9,1.7,16,M,,M,,*5A
06/18/2015	05:01:38.529	$GPGGA,050139,2540.9339,N,07948.2196,W,1,9,1.9,16,M,,M,,*55
06/18/2015	05:01:39.559	$GPGGA,050140,2540.9337,N,07948.2181,W,1,9,1.7,16,M,,M,,*5D
06/18/2015	05:01:40.519	$GPGGA,050141,2540.9340,N,07948.2162,W,1,9,1.7,16,M,,M,,*51
06/18/2015	05:01:41.539	$GPGGA,050142,2540.9338,N,07948.2145,W,1,8,1.9,16,M,,M,,*57
06/18/2015	05:01:42.529	$GPGGA,050143,2540.9341,N,07948.2127,W,1,8,1.7,16,M,,M,,*52
06/18/2015	05:01:43.559	$GPGGA,050144,2540.9344,N,07948.2108,W,1,8,1.9,16,M,,M,,*53
06/18/2015	05:01:44.519	$GPGGA,050145,2540.9344,N,07948.2090,W,1,8,1.7,16,M,,M,,*5C
06/18/2015	05:01:45.509	$GPGGA,050146,2540.9346,N,07948.2072,W,1,9,1.7,16,M,,M,,*50
06/18/2015	05:01:46.519	$GPGGA,050147,2540.9347,N,07948.2055,W,1,9,1.7,16,M,,M,,*55
06/18/2015	05:01:47.519	$GPGGA,050148,2540.9350,N,07948.2036,W,1,9,1.7,16,M,,M,,*59
06/18/2015	05:01:48.519	$GPGGA,050149,2540.9352,N,07948.2017,W,1,9,1.7,16,M,,M,,*59
06/18/2015	05:01:49.609	$GPGGA,050150,2540.9355,N,07948.1997,W,1,8,1.9,16,M,,M,,*5B
06/18/2015	05:01:50.509	$GPGGA,050151,2540.9355,N,07948.1979,W,1,8,1.7,16,M,,M,,*54
06/18/2015	05:01:51.529	$GPGGA,050152,2540.9353,N,07948.1965,W,1,8,1.9,16,M,,M,,*52
06/18/2015	05:01:52.479	$GPGGA,050153,2540.9355,N,07948.1948,W,1,8,1.7,16,M,,M,,*54
06/18/2015	05:01:53.499	$GPGGA,050154,2540.9352,N,07948.1932,W,1,9,1.7,16,M,,M,,*58
06/18/2015	05:01:54.479	$GPGGA,050155,2540.9354,N,07948.1915,W,1,9,1.7,16,M,,M,,*5A
06/18/2015	05:01:55.609	$GPGGA,050156,2540.9355,N,07948.1895,W,1,9,1.7,16,M,,M,,*51
06/18/2015	05:01:56.589	$GPGGA,050157,2540.9357,N,07948.1878,W,1,9,1.9,16,M,,M,,*5F
06/18/2015	05:01:57.499	$GPGGA,050158,2540.9359,N,07948.1859,W,1,9,1.7,16,M,,M,,*53
06/18/2015	05:01:58.569	$GPGGA,050159,2540.9361,N,07948.1841,W,1,9,1.9,16,M,,M,,*5E
06/18/2015	05:01:59.589	$GPGGA,050200,2540.9363,N,07948.1823,W,1,9,1.7,16,M,,M,,*59
06/18/2015	05:02:00.569	$GPGGA,050201,2540.9366,N,07948.1804,W,1,9,1.7,16,M,,M,,*58
06/18/2015	05:02:01.470	$GPGGA,050202,2540.9368,N,07948.1786,W,1,9,1.7,16,M,,M,,*50
06/18/2015	05:02:02.570	$GPGGA,050203,2540.9370,N,07948.1766,W,1,9,1.9,16,M,,M,,*58
06/18/2015	05:02:03.599	$GPGGA,050204,2540.9373,N,07948.1747,W,1,9,1.7,16,M,,M,,*51
06/18/2015	05:02:04.570	$GPGGA,050205,2540.9373,N,07948.1729,W,1,9,1.7,16,M,,M,,*58
06/18/2015	05:02:05.569	$GPGGA,050206,2540.9376,N,07948.1711,W,1,9,1.7,16,M,,M,,*55
06/18/2015	05:02:06.569	$GPGGA,050207,2540.9375,N,07948.1694,W,1,9,1.9,16,M,,M,,*55
06/18/2015	05:02:07.569	$GPGGA,050208,2540.9377,N,07948.1676,W,1,9,1.7,16,M,,M,,*5A
06/18/2015	05:02:08.549	$GPGGA,050209,2540.9377,N,07948.1659,W,1,9,1.7,16,M,,M,,*56
06/18/2015	05:02:09.560	$GPGGA,050210,2540.9379,N,07948.1641,W,1,9,1.7,16,M,,M,,*59
06/18/2015	05:02:10.559	$GPGGA,050211,2540.9380,N,07948.1623,W,1,9,1.7,16,M,,M,,*5A
06/18/2015	05:02:12.029	$GPGGA,050212,2540.9380,N,07948.1605,W,1,9,1.7,16,M,,M,,*5D
06/18/2015	05:02:12.549	$GPGGA,050213,2540.9381,N,07948.1587,W,1,9,1.7,16,M,,M,,*54
06/18/2015	05:02:13.559	$GPGGA,050214,2540.9384,N,07948.1568,W,1,9,1.7,16,M,,M,,*57
06/18/2015	05:02:14.549	$GPGGA,050215,2540.9384,N,07948.1551,W,1,9,1.7,16,M,,M,,*5C
06/18/2015	05:02:15.559	$GPGGA,050216,2540.9384,N,07948.1533,W,1,9,1.7,16,M,,M,,*5B
06/18/2015	05:02:16.539	$GPGGA,050217,2540.9386,N,07948.1515,W,1,9,1.9,16,M,,M,,*52
06/18/2015	05:02:17.529	$GPGGA,050218,2540.9388,N,07948.1497,W,1,9,1.7,16,M,,M,,*56
06/18/2015	05:02:18.549	$GPGGA,050219,2540.9390,N,07948.1479,W,1,9,1.9,16,M,,M,,*50
06/18/2015	05:02:19.573	$GPGGA,050220,2540.9389,N,07948.1461,W,1,8,1.9,16,M,,M,,*5A
06/18/2015	05:02:20.529	$GPGGA,050221,2540.9391,N,07948.1444,W,1,8,1.7,16,M,,M,,*5B
06/18/2015	05:02:21.549	$GPGGA,050222,2540.9393,N,07948.1425,W,1,9,1.7,16,M,,M,,*5C
06/18/2015	05:02:22.529	$GPGGA,050223,2540.9395,N,07948.1406,W,1,9,1.9,16,M,,M,,*54
06/18/2015	05:02:23.569	$GPGGA,050224,2540.9397,N,07948.1388,W,1,9,1.7,16,M,,M,,*5E
06/18/2015	05:02:24.519	$GPGGA,050225,2540.9398,N,07948.1369,W,1,9,1.7,15,M,,M,,*5C
06/18/2015	05:02:25.529	$GPGGA,050226,2540.9401,N,07948.1351,W,1,9,1.7,15,M,,M,,*53
06/18/2015	05:02:26.529	$GPGGA,050227,2540.9402,N,07948.1333,W,1,9,1.9,15,M,,M,,*5B
06/18/2015	05:02:27.549	$GPGGA,050228,2540.9402,N,07948.1315,W,1,8,1.9,15,M,,M,,*51
06/18/2015	05:02:28.509	$GPGGA,050229,2540.9405,N,07948.1297,W,1,8,1.7,15,M,,M,,*52
06/18/2015	05:02:29.529	$GPGGA,050230,2540.9406,N,07948.1279,W,1,8,1.9,15,M,,M,,*57
06/18/2015	05:02:30.509	$GPGGA,050231,2540.9406,N,07948.1263,W,1,8,1.9,15,M,,M,,*5D
06/18/2015	05:02:31.519	$GPGGA,050232,2540.9406,N,07948.1246,W,1,9,1.7,15,M,,M,,*56
06/18/2015	05:02:32.519	$GPGGA,050233,2540.9406,N,07948.1230,W,1,9,1.7,15,M,,M,,*56
06/18/2015	05:02:33.519	$GPGGA,050234,2540.9404,N,07948.1214,W,1,9,1.7,15,M,,M,,*55
06/18/2015	05:02:34.619	$GPGGA,050235,2540.9405,N,07948.1199,W,1,9,1.7,15,M,,M,,*53
06/18/2015	05:02:35.548	$GPGGA,050236,2540.9406,N,07948.1182,W,1,9,1.7,15,M,,M,,*59
06/18/2015	05:02:36.519	$GPGGA,050237,2540.9406,N,07948.1165,W,1,9,1.7,15,M,,M,,*51
06/18/2015	05:02:37.589	$GPGGA,050238,2540.9409,N,07948.1147,W,1,9,1.7,15,M,,M,,*51
06/18/2015	05:02:38.619	$GPGGA,050239,2540.9408,N,07948.1129,W,1,9,1.7,15,M,,M,,*59
06/18/2015	05:02:39.599	$GPGGA,050240,2540.9411,N,07948.1112,W,1,9,1.7,15,M,,M,,*57
06/18/2015	05:02:40.509	$GPGGA,050241,2540.9413,N,07948.1094,W,1,9,1.7,16,M,,M,,*58
06/18/2015	05:02:41.619	$GPGGA,050242,2540.9413,N,07948.1076,W,1,9,1.7,16,M,,M,,*57
06/18/2015	05:02:42.489	$GPGGA,050243,2540.9415,N,07948.1059,W,1,9,1.7,16,M,,M,,*5D
06/18/2015	05:02:43.529	$GPGGA,050244,2540.9417,N,07948.1040,W,1,9,1.7,16,M,,M,,*50
06/18/2015	05:02:44.499	$GPGGA,050245,2540.9417,N,07948.1025,W,1,9,1.9,16,M,,M,,*5C
06/18/2015	05:02:45.489	$GPGGA,050246,2540.9417,N,07948.1008,W,1,9,1.7,16,M,,M,,*5E
06/18/2015	05:02:46.479	$GPGGA,050247,2540.9419,N,07948.0990,W,1,9,1.7,16,M,,M,,*58
06/18/2015	05:02:47.589	$GPGGA,050248,2540.9422,N,07948.0972,W,1,9,1.7,16,M,,M,,*53
06/18/2015	05:02:48.489	$GPGGA,050249,2540.9424,N,07948.0955,W,1,9,1.7,16,M,,M,,*51
06/18/2015	05:02:49.619	$GPGGA,050250,2540.9426,N,07948.0936,W,1,9,1.7,16,M,,M,,*5E
06/18/2015	05:02:50.569	$GPGGA,050251,2540.9427,N,07948.0918,W,1,9,1.7,16,M,,M,,*52
06/18/2015	05:02:51.589	$GPGGA,050252,2540.9431,N,07948.0900,W,1,9,1.7,16,M,,M,,*5F
06/18/2015	05:02:52.469	$GPGGA,050253,2540.9434,N,07948.0881,W,1,9,1.9,17,M,,M,,*5C
06/18/2015	05:02:53.560	$GPGGA,050254,2540.9437,N,07948.0862,W,1,8,1.9,17,M,,M,,*54
06/18/2015	05:02:54.569	$GPGGA,050255,2540.9438,N,07948.0845,W,1,8,1.7,17,M,,M,,*51
06/18/2015	05:02:55.599	$GPGGA,050256,2540.9442,N,07948.0826,W,1,9,1.7,17,M,,M,,*5B
06/18/2015	05:02:56.559	$GPGGA,050257,2540.9442,N,07948.0810,W,1,9,1.9,17,M,,M,,*51
06/18/2015	05:02:58.039	$GPGGA,050258,2540.9442,N,07948.0793,W,1,9,1.7,17,M,,M,,*54
06/18/2015	05:02:58.549	$GPGGA,050259,2540.9445,N,07948.0775,W,1,9,1.7,17,M,,M,,*5A
06/18/2015	05:02:59.619	$GPGGA,050300,2540.9445,N,07948.0758,W,1,9,1.7,17,M,,M,,*58
06/18/2015	05:03:00.549	$GPGGA,050301,2540.9449,N,07948.0741,W,1,9,1.7,17,M,,M,,*5D
06/18/2015	05:03:01.559	$GPGGA,050302,2540.9449,N,07948.0724,W,1,9,1.7,17,M,,M,,*5D
06/18/2015	05:03:02.549	$GPGGA,050303,2540.9451,N,07948.0706,W,1,9,1.7,17,M,,M,,*55
06/18/2015	05:03:03.569	$GPGGA,050304,2540.9453,N,07948.0689,W,1,9,1.7,17,M,,M,,*56
06/18/2015	05:03:04.539	$GPGGA,050305,2540.9453,N,07948.0671,W,1,9,1.7,17,M,,M,,*50
06/18/2015	05:03:05.549	$GPGGA,050306,2540.9456,N,07948.0653,W,1,9,1.7,17,M,,M,,*56
06/18/2015	05:03:06.539	$GPGGA,050307,2540.9453,N,07948.0638,W,1,9,1.9,17,M,,M,,*51
06/18/2015	05:03:07.579	$GPGGA,050308,2540.9453,N,07948.0622,W,1,9,1.7,17,M,,M,,*5B
06/18/2015	05:03:08.529	$GPGGA,050309,2540.9453,N,07948.0606,W,1,9,1.7,17,M,,M,,*5C
06/18/2015	05:03:09.519	$GPGGA,050310,2540.9453,N,07948.0590,W,1,9,1.7,17,M,,M,,*58
06/18/2015	05:03:10.548	$GPGGA,050311,2540.9456,N,07948.0572,W,1,9,1.7,17,M,,M,,*50
06/18/2015	05:03:11.569	$GPGGA,050312,2540.9458,N,07948.0554,W,1,8,1.9,17,M,,M,,*56
06/18/2015	05:03:12.519	$GPGGA,050313,2540.9459,N,07948.0537,W,1,8,1.7,17,M,,M,,*5D
06/18/2015	05:03:13.519	$GPGGA,050314,2540.9460,N,07948.0519,W,1,9,1.7,17,M,,M,,*5D
06/18/2015	05:03:14.529	$GPGGA,050315,2540.9460,N,07948.0502,W,1,9,1.7,17,M,,M,,*56
06/18/2015	05:03:15.519	$GPGGA,050316,2540.9463,N,07948.0484,W,1,9,1.7,17,M,,M,,*59
06/18/2015	05:03:16.519	$GPGGA,050317,2540.9464,N,07948.0467,W,1,9,1.7,18,M,,M,,*5D
06/18/2015	05:03:17.509	$GPGGA,050318,2540.9464,N,07948.0449,W,1,9,1.7,18,M,,M,,*5E
06/18/2015	05:03:18.529	$GPGGA,050319,2540.9466,N,07948.0432,W,1,9,1.9,18,M,,M,,*5F
06/18/2015	05:03:19.549	$GPGGA,050320,2540.9467,N,07948.0413,W,1,9,1.7,18,M,,M,,*59
06/18/2015	05:03:20.519	$GPGGA,050321,2540.9469,N,07948.0396,W,1,9,1.7,18,M,,M,,*5C
06/18/2015	05:03:21.509	$GPGGA,050322,2540.9470,N,07948.0378,W,1,9,1.7,18,M,,M,,*57
06/18/2015	05:03:22.499	$GPGGA,050323,2540.9471,N,07948.0360,W,1,9,1.7,18,M,,M,,*5E
06/18/2015	05:03:23.529	$GPGGA,050324,2540.9473,N,07948.0343,W,1,9,1.7,18,M,,M,,*5A
06/18/2015	05:03:24.489	$GPGGA,050325,2540.9472,N,07948.0326,W,1,9,1.7,18,M,,M,,*59
06/18/2015	05:03:25.509	$GPGGA,050326,2540.9474,N,07948.0309,W,1,9,1.7,18,M,,M,,*51
06/18/2015	05:03:26.499	$GPGGA,050327,2540.9475,N,07948.0292,W,1,9,1.7,18,M,,M,,*52
06/18/2015	05:03:27.628	$GPGGA,050328,2540.9477,N,07948.0274,W,1,9,1.7,18,M,,M,,*57
06/18/2015	05:03:28.489	$GPGGA,050329,2540.9478,N,07948.0257,W,1,9,1.7,18,M,,M,,*58
06/18/2015	05:03:29.609	$GPGGA,050330,2540.9478,N,07948.0239,W,1,9,1.7,18,M,,M,,*58
06/18/2015	05:03:30.489	$GPGGA,050331,2540.9478,N,07948.0221,W,1,9,1.7,18,M,,M,,*50
06/18/2015	05:03:31.619	$GPGGA,050332,2540.9481,N,07948.0204,W,1,9,1.7,18,M,,M,,*52
06/18/2015	05:03:32.589	$GPGGA,050333,2540.9482,N,07948.0187,W,1,9,1.7,18,M,,M,,*58
06/18/2015	05:03:33.579	$GPGGA,050334,2540.9482,N,07948.0169,W,1,9,1.7,18,M,,M,,*5F
06/18/2015	05:03:34.579	$GPGGA,050335,2540.9484,N,07948.0152,W,1,9,1.7,18,M,,M,,*50
06/18/2015	05:03:35.489	$GPGGA,050336,2540.9485,N,07948.0135,W,1,9,1.7,18,M,,M,,*53
06/18/2015	05:03:36.469	$GPGGA,050337,2540.9488,N,07948.0116,W,1,9,1.7,18,M,,M,,*5E
06/18/2015	05:03:37.579	$GPGGA,050338,2540.9489,N,07948.0098,W,1,8,1.9,18,M,,M,,*58
06/18/2015	05:03:38.569	$GPGGA,050339,2540.9491,N,07948.0080,W,1,8,1.7,18,M,,M,,*57
06/18/2015	05:03:39.639	$GPGGA,050340,2540.9493,N,07948.0062,W,1,9,1.7,18,M,,M,,*56
06/18/2015	05:03:40.570	$GPGGA,050341,2540.9495,N,07948.0045,W,1,9,1.7,18,M,,M,,*54
06/18/2015	05:03:41.579	$GPGGA,050342,2540.9496,N,07948.0028,W,1,9,1.7,18,M,,M,,*5F
06/18/2015	05:03:42.559	$GPGGA,050343,2540.9498,N,07948.0010,W,1,9,1.7,18,M,,M,,*5B
06/18/2015	05:03:43.639	$GPGGA,050344,2540.9499,N,07947.9992,W,1,9,1.7,18,M,,M,,*58
06/18/2015	05:03:44.559	$GPGGA,050345,2540.9500,N,07947.9974,W,1,9,1.7,18,M,,M,,*50
06/18/2015	05:03:45.578	$GPGGA,050346,2540.9502,N,07947.9957,W,1,9,1.7,18,M,,M,,*50
06/18/2015	05:03:46.559	$GPGGA,050347,2540.9503,N,07947.9940,W,1,9,1.7,18,M,,M,,*56
06/18/2015	05:03:47.639	$GPGGA,050348,2540.9505,N,07947.9922,W,1,9,1.7,18,M,,M,,*5B
06/18/2015	05:03:48.549	$GPGGA,050349,2540.9506,N,07947.9904,W,1,9,1.7,18,M,,M,,*5D
06/18/2015	05:03:49.569	$GPGGA,050350,2540.9507,N,07947.9887,W,1,9,1.7,18,M,,M,,*5E
06/18/2015	05:03:50.539	$GPGGA,050351,2540.9510,N,07947.9869,W,1,9,1.7,18,M,,M,,*59
06/18/2015	05:03:51.599	$GPGGA,050352,2540.9510,N,07947.9852,W,1,9,1.7,18,M,,M,,*52
06/18/2015	05:03:52.539	$GPGGA,050353,2540.9513,N,07947.9834,W,1,9,1.7,18,M,,M,,*50
06/18/2015	05:03:53.529	$GPGGA,050354,2540.9514,N,07947.9816,W,1,9,1.7,18,M,,M,,*50
06/18/2015	05:03:54.540	$GPGGA,050355,2540.9517,N,07947.9798,W,1,9,1.7,18,M,,M,,*5B
06/18/2015	05:03:55.569	$GPGGA,050356,2540.9518,N,07947.9781,W,1,9,1.7,18,M,,M,,*5F
06/18/2015	05:03:56.529	$GPGGA,050357,2540.9521,N,07947.9763,W,1,9,1.7,18,M,,M,,*58
06/18/2015	05:03:57.529	$GPGGA,050358,2540.9523,N,07947.9745,W,1,9,1.7,18,M,,M,,*51
06/18/2015	05:03:58.539	$GPGGA,050359,2540.9524,N,07947.9727,W,1,9,1.7,18,M,,M,,*53
06/18/2015	05:03:59.619	$GPGGA,050400,2540.9525,N,07947.9709,W,1,9,1.7,18,M,,M,,*55
06/18/2015	05:04:00.519	$GPGGA,050401,2540.9528,N,07947.9691,W,1,9,1.7,18,M,,M,,*59
06/18/2015	05:04:01.539	$GPGGA,050402,2540.9529,N,07947.9673,W,1,9,1.7,18,M,,M,,*57
06/18/2015	05:04:02.529	$GPGGA,050403,2540.9531,N,07947.9655,W,1,9,1.7,18,M,,M,,*5B
06/18/2015	05:04:03.559	$GPGGA,050404,2540.9532,N,07947.9637,W,1,9,1.7,18,M,,M,,*5B
06/18/2015	05:04:04.519	$GPGGA,050405,2540.9535,N,07947.9619,W,1,9,1.7,18,M,,M,,*51
06/18/2015	05:04:05.549	$GPGGA,050406,2540.9536,N,07947.9601,W,1,9,1.7,18,M,,M,,*58
06/18/2015	05:04:06.519	$GPGGA,050407,2540.9539,N,07947.9582,W,1,9,1.7,18,M,,M,,*5E
06/18/2015	05:04:07.549	$GPGGA,050408,2540.9540,N,07947.9565,W,1,9,1.7,18,M,,M,,*56
06/18/2015	05:04:08.519	$GPGGA,050409,2540.9543,N,07947.9546,W,1,9,1.7,18,M,,M,,*55
06/18/2015	05:04:09.529	$GPGGA,050410,2540.9545,N,07947.9528,W,1,9,1.7,18,M,,M,,*53
06/18/2015	05:04:10.519	$GPGGA,050411,2540.9547,N,07947.9510,W,1,9,1.7,18,M,,M,,*5B
06/18/2015	05:04:11.549	$GPGGA,050412,2540.9547,N,07947.9492,W,1,8,1.7,18,M,,M,,*52
06/18/2015	05:04:12.519	$GPGGA,050413,2540.9550,N,07947.9475,W,1,8,1.7,18,M,,M,,*5C
06/18/2015	05:04:13.799	$GPGGA,050414,2540.9553,N,07947.9456,W,1,9,1.9,18,M,,M,,*56
06/18/2015	05:04:14.579	$GPGGA,050415,2540.9549,N,07947.9443,W,1,9,1.9,18,M,,M,,*58
06/18/2015	05:04:15.539	$GPGGA,050416,2540.9553,N,07947.9423,W,1,9,1.7,18,M,,M,,*58
06/18/2015	05:04:16.579	$GPGGA,050417,2540.9556,N,07947.9404,W,1,9,1.7,18,M,,M,,*59
06/18/2015	05:04:17.599	$GPGGA,050418,2540.9558,N,07947.9386,W,1,9,1.9,18,M,,M,,*5B
06/18/2015	05:04:18.489	$GPGGA,050419,2540.9561,N,07947.9368,W,1,9,1.7,18,M,,M,,*5E
06/18/2015	05:04:19.539	$GPGGA,050420,2540.9561,N,07947.9351,W,1,9,1.7,18,M,,M,,*5E
06/18/2015	05:04:20.588	$GPGGA,050421,2540.9563,N,07947.9334,W,1,9,1.7,18,M,,M,,*5E
06/18/2015	05:04:21.599	$GPGGA,050422,2540.9564,N,07947.9317,W,1,9,1.7,18,M,,M,,*5B
06/18/2015	05:04:22.570	$GPGGA,050423,2540.9565,N,07947.9300,W,1,9,1.7,18,M,,M,,*5D
06/18/2015	05:04:23.589	$GPGGA,050424,2540.9565,N,07947.9283,W,1,9,1.7,18,M,,M,,*50
06/18/2015	05:04:24.499	$GPGGA,050425,2540.9567,N,07947.9266,W,1,9,1.7,18,M,,M,,*58
06/18/2015	05:04:25.599	$GPGGA,050426,2540.9568,N,07947.9249,W,1,9,1.7,18,M,,M,,*59
06/18/2015	05:04:26.564	$GPGGA,050427,2540.9568,N,07947.9232,W,1,9,1.7,18,M,,M,,*54
06/18/2015	05:04:27.599	$GPGGA,050428,2540.9570,N,07947.9215,W,1,8,1.9,18,M,,M,,*58
06/18/2015	05:04:28.559	$GPGGA,050429,2540.9572,N,07947.9198,W,1,8,1.7,18,M,,M,,*53
06/18/2015	05:04:29.579	$GPGGA,050430,2540.9572,N,07947.9181,W,1,9,1.7,18,M,,M,,*52
06/18/2015	05:04:30.559	$GPGGA,050431,2540.9572,N,07947.9164,W,1,9,1.7,18,M,,M,,*58
06/18/2015	05:04:31.559	$GPGGA,050432,2540.9572,N,07947.9148,W,1,9,1.7,18,M,,M,,*55
06/18/2015	05:04:32.564	$GPGGA,050433,2540.9572,N,07947.9148,W,1,9,1.7,18,M,,M,,*54
06/18/2015	05:04:33.579	$GPGGA,050434,2540.9573,N,07947.9115,W,1,9,1.7,18,M,,M,,*5A
06/18/2015	05:04:34.549	$GPGGA,050435,2540.9575,N,07947.9099,W,1,9,1.7,18,M,,M,,*58
06/18/2015	05:04:35.579	$GPGGA,050436,2540.9576,N,07947.9081,W,1,9,1.7,18,M,,M,,*51
06/18/2015	05:04:36.549	$GPGGA,050437,2540.9576,N,07947.9066,W,1,9,1.9,18,M,,M,,*57
06/18/2015	05:04:37.558	$GPGGA,050438,2540.9576,N,07947.9049,W,1,9,1.7,18,M,,M,,*5B
06/18/2015	05:04:38.559	$GPGGA,050439,2540.9576,N,07947.9032,W,1,9,1.7,18,M,,M,,*56
06/18/2015	05:04:39.573	$GPGGA,050440,2540.9579,N,07947.9015,W,1,9,1.7,18,M,,M,,*52
06/18/2015	05:04:40.539	$GPGGA,050441,2540.9579,N,07947.8998,W,1,9,1.7,18,M,,M,,*5E
06/18/2015	05:04:41.559	$GPGGA,050442,2540.9579,N,07947.8981,W,1,9,1.7,18,M,,M,,*55
06/18/2015	05:04:42.539	$GPGGA,050443,2540.9579,N,07947.8964,W,1,9,1.7,18,M,,M,,*5F
06/18/2015	05:04:43.559	$GPGGA,050444,2540.9582,N,07947.8946,W,1,9,1.7,18,M,,M,,*5C
06/18/2015	05:04:44.539	$GPGGA,050445,2540.9583,N,07947.8929,W,1,9,1.7,18,M,,M,,*55
06/18/2015	05:04:45.519	$GPGGA,050446,2540.9583,N,07947.8912,W,1,9,1.7,18,M,,M,,*5E
06/18/2015	05:04:46.519	$GPGGA,050447,2540.9583,N,07947.8895,W,1,9,1.7,18,M,,M,,*51
06/18/2015	05:04:47.899	$GPGGA,050448,2540.9585,N,07947.8878,W,1,9,1.7,18,M,,M,,*5B
06/18/2015	05:04:48.529	$GPGGA,050449,2540.9584,N,07947.8860,W,1,9,1.7,18,M,,M,,*52
06/18/2015	05:04:49.509	$GPGGA,050450,2540.9586,N,07947.8843,W,1,9,1.7,18,M,,M,,*59
06/18/2015	05:04:50.529	$GPGGA,050451,2540.9587,N,07947.8825,W,1,9,1.7,18,M,,M,,*59
06/18/2015	05:04:51.569	$GPGGA,050452,2540.9589,N,07947.8808,W,1,9,1.7,18,M,,M,,*5B
06/18/2015	05:04:52.509	$GPGGA,050453,2540.9590,N,07947.8790,W,1,9,1.7,18,M,,M,,*5C
06/18/2015	05:04:53.509	$GPGGA,050454,2540.9590,N,07947.8772,W,1,9,1.7,18,M,,M,,*57
06/18/2015	05:04:54.519	$GPGGA,050455,2540.9593,N,07947.8755,W,1,9,1.7,18,M,,M,,*50
06/18/2015	05:04:55.518	$GPGGA,050456,2540.9594,N,07947.8738,W,1,9,1.7,18,M,,M,,*5F
06/18/2015	05:04:56.519	$GPGGA,050457,2540.9596,N,07947.8721,W,1,9,1.7,18,M,,M,,*54
06/18/2015	05:04:57.609	$GPGGA,050458,2540.9599,N,07947.8704,W,1,9,1.7,18,M,,M,,*53
06/18/2015	05:04:58.499	$GPGGA,050459,2540.9600,N,07947.8686,W,1,9,1.7,18,M,,M,,*5A
06/18/2015	05:04:59.539	$GPGGA,050500,2540.9601,N,07947.8668,W,1,9,1.7,18,M,,M,,*56
06/18/2015	05:05:00.499	$GPGGA,050501,2540.9604,N,07947.8649,W,1,9,1.7,18,M,,M,,*51
06/18/2015	05:05:01.619	$GPGGA,050502,2540.9605,N,07947.8631,W,1,9,1.7,18,M,,M,,*5C
06/18/2015	05:05:02.499	$GPGGA,050503,2540.9607,N,07947.8613,W,1,9,1.7,18,M,,M,,*5F
06/18/2015	05:05:03.519	$GPGGA,050504,2540.9610,N,07947.8594,W,1,9,1.7,18,M,,M,,*52
06/18/2015	05:05:04.581	$GPGGA,050505,2540.9612,N,07947.8577,W,1,9,1.7,18,M,,M,,*5C
06/18/2015	05:05:05.479	$GPGGA,050506,2540.9614,N,07947.8560,W,1,9,1.7,18,M,,M,,*5F
06/18/2015	05:05:06.599	$GPGGA,050507,2540.9615,N,07947.8541,W,1,9,1.7,18,M,,M,,*5C
06/18/2015	05:05:07.599	$GPGGA,050508,2540.9619,N,07947.8523,W,1,8,1.7,18,M,,M,,*5A
06/18/2015	05:05:08.581	$GPGGA,050509,2540.9619,N,07947.8505,W,1,8,1.8,18,M,,M,,*50
06/18/2015	05:05:09.570	$GPGGA,050510,2540.9622,N,07947.8487,W,1,9,1.7,18,M,,M,,*55
06/18/2015	05:05:10.573	$GPGGA,050511,2540.9623,N,07947.8469,W,1,9,1.7,18,M,,M,,*55
06/18/2015	05:05:11.609	$GPGGA,050512,2540.9625,N,07947.8450,W,1,9,1.7,18,M,,M,,*5A
06/18/2015	05:05:12.575	$GPGGA,050513,2540.9626,N,07947.8433,W,1,9,1.7,18,M,,M,,*5D
06/18/2015	05:05:13.609	$GPGGA,050514,2540.9630,N,07947.8415,W,1,9,1.7,18,M,,M,,*59
06/18/2015	05:05:14.574	$GPGGA,050515,2540.9632,N,07947.8397,W,1,9,1.7,18,M,,M,,*57
06/18/2015	05:05:15.609	$GPGGA,050516,2540.9633,N,07947.8379,W,1,9,1.7,18,M,,M,,*55
06/18/2015	05:05:17.609	$GPGGA,050518,2540.9637,N,07947.8343,W,1,9,1.7,18,M,,M,,*56
06/18/2015	05:05:18.549	$GPGGA,050519,2540.9640,N,07947.8324,W,1,9,1.7,18,M,,M,,*56
06/18/2015	05:05:19.589	$GPGGA,050520,2540.9641,N,07947.8306,W,1,9,1.7,18,M,,M,,*5D
06/18/2015	05:05:20.549	$GPGGA,050521,2540.9643,N,07947.8289,W,1,9,1.7,18,M,,M,,*58
06/18/2015	05:05:21.572	$GPGGA,050522,2540.9644,N,07947.8270,W,1,9,1.7,18,M,,M,,*5A
06/18/2015	05:05:22.539	$GPGGA,050523,2540.9646,N,07947.8251,W,1,9,1.7,18,M,,M,,*5A
06/18/2015	05:05:23.599	$GPGGA,050524,2540.9648,N,07947.8232,W,1,8,1.7,18,M,,M,,*57
06/18/2015	05:05:24.549	$GPGGA,050525,2540.9648,N,07947.8213,W,1,8,1.7,18,M,,M,,*55
06/18/2015	05:05:25.529	$GPGGA,050526,2540.9650,N,07947.8196,W,1,9,1.7,18,M,,M,,*50
06/18/2015	05:05:26.549	$GPGGA,050527,2540.9651,N,07947.8178,W,1,9,1.7,18,M,,M,,*50
06/18/2015	05:05:27.539	$GPGGA,050528,2540.9652,N,07947.8160,W,1,9,1.7,18,M,,M,,*55
06/18/2015	05:05:28.539	$GPGGA,050529,2540.9654,N,07947.8142,W,1,9,1.7,18,M,,M,,*52
06/18/2015	05:05:29.529	$GPGGA,050530,2540.9655,N,07947.8125,W,1,9,1.7,18,M,,M,,*5A
06/18/2015	05:05:30.538	$GPGGA,050531,2540.9655,N,07947.8107,W,1,9,1.7,18,M,,M,,*5B
06/18/2015	05:05:31.559	$GPGGA,050532,2540.9658,N,07947.8090,W,1,9,1.7,18,M,,M,,*5A
06/18/2015	05:05:32.539	$GPGGA,050533,2540.9659,N,07947.8073,W,1,9,1.7,18,M,,M,,*57
06/18/2015	05:05:33.559	$GPGGA,050534,2540.9661,N,07947.8054,W,1,9,1.7,18,M,,M,,*5E
06/18/2015	05:05:34.519	$GPGGA,050535,2540.9662,N,07947.8038,W,1,9,1.7,18,M,,M,,*56
06/18/2015	05:05:35.529	$GPGGA,050536,2540.9662,N,07947.8020,W,1,9,1.7,18,M,,M,,*5C
06/18/2015	05:05:36.519	$GPGGA,050537,2540.9664,N,07947.8003,W,1,9,1.7,18,M,,M,,*5A
06/18/2015	05:05:37.529	$GPGGA,050538,2540.9665,N,07947.7986,W,1,9,1.7,18,M,,M,,*5F
06/18/2015	05:05:38.519	$GPGGA,050539,2540.9666,N,07947.7968,W,1,9,1.7,18,M,,M,,*5D
06/18/2015	05:05:39.559	$GPGGA,050540,2540.9666,N,07947.7951,W,1,9,1.7,18,M,,M,,*59
06/18/2015	05:05:40.629	$GPGGA,050541,2540.9668,N,07947.7934,W,1,9,1.7,18,M,,M,,*55
06/18/2015	05:05:41.529	$GPGGA,050542,2540.9667,N,07947.7917,W,1,9,1.7,18,M,,M,,*58
06/18/2015	05:05:42.519	$GPGGA,050543,2540.9669,N,07947.7899,W,1,9,1.7,18,M,,M,,*50
06/18/2015	05:05:43.549	$GPGGA,050544,2540.9669,N,07947.7882,W,1,9,1.7,18,M,,M,,*5D
06/18/2015	05:05:44.519	$GPGGA,050545,2540.9670,N,07947.7865,W,1,9,1.7,18,M,,M,,*5D
06/18/2015	05:05:45.509	$GPGGA,050546,2540.9673,N,07947.7848,W,1,9,1.7,18,M,,M,,*52
06/18/2015	05:05:46.489	$GPGGA,050547,2540.9673,N,07947.7831,W,1,9,1.7,18,M,,M,,*5D
06/18/2015	05:05:47.508	$GPGGA,050548,2540.9673,N,07947.7814,W,1,9,1.7,18,M,,M,,*55
06/18/2015	05:05:48.609	$GPGGA,050549,2540.9675,N,07947.7796,W,1,9,1.7,18,M,,M,,*57
06/18/2015	05:05:49.489	$GPGGA,050550,2540.9677,N,07947.7779,W,1,9,1.7,18,M,,M,,*5C
06/18/2015	05:05:50.499	$GPGGA,050551,2540.9677,N,07947.7762,W,1,9,1.7,18,M,,M,,*57
06/18/2015	05:05:51.499	$GPGGA,050552,2540.9677,N,07947.7744,W,1,9,1.7,18,M,,M,,*50
06/18/2015	05:05:52.489	$GPGGA,050553,2540.9679,N,07947.7727,W,1,9,1.7,18,M,,M,,*5A
06/18/2015	05:05:53.489	$GPGGA,050554,2540.9680,N,07947.7710,W,1,9,1.7,18,M,,M,,*5F
06/18/2015	05:05:54.589	$GPGGA,050555,2540.9679,N,07947.7692,W,1,9,1.7,18,M,,M,,*53
06/18/2015	05:05:55.589	$GPGGA,050556,2540.9680,N,07947.7675,W,1,9,1.7,18,M,,M,,*5F
06/18/2015	05:05:56.579	$GPGGA,050557,2540.9683,N,07947.7658,W,1,9,1.7,18,M,,M,,*52
06/18/2015	05:05:57.570	$GPGGA,050558,2540.9684,N,07947.7640,W,1,9,1.7,18,M,,M,,*53
06/18/2015	05:05:59.709	$GPGGA,050600,2540.9686,N,07947.7605,W,1,9,1.7,18,M,,M,,*5E
06/18/2015	05:06:00.570	$GPGGA,050601,2540.9687,N,07947.7588,W,1,9,1.7,18,M,,M,,*58
06/18/2015	05:06:01.570	$GPGGA,050602,2540.9688,N,07947.7570,W,1,9,1.7,18,M,,M,,*53
06/18/2015	05:06:02.570	$GPGGA,050603,2540.9690,N,07947.7553,W,1,9,1.7,18,M,,M,,*5A
06/18/2015	05:06:03.570	$GPGGA,050604,2540.9691,N,07947.7535,W,1,9,1.7,18,M,,M,,*5C
06/18/2015	05:06:04.570	$GPGGA,050605,2540.9691,N,07947.7516,W,1,9,1.7,18,M,,M,,*5C
06/18/2015	05:06:05.578	$GPGGA,050606,2540.9694,N,07947.7499,W,1,9,1.7,18,M,,M,,*5C
06/18/2015	05:06:06.537	$GPGGA,050607,2540.9695,N,07947.7482,W,1,9,1.7,18,M,,M,,*56
06/18/2015	05:06:07.567	$GPGGA,050608,2540.9698,N,07947.7465,W,1,9,1.7,18,M,,M,,*5D
06/18/2015	05:06:08.547	$GPGGA,050609,2540.9698,N,07947.7447,W,1,9,1.7,18,M,,M,,*5C
06/18/2015	05:06:09.527	$GPGGA,050610,2540.9701,N,07947.7428,W,1,9,1.7,18,M,,M,,*5C
06/18/2015	05:06:10.537	$GPGGA,050611,2540.9704,N,07947.7412,W,1,9,1.7,18,M,,M,,*51
06/18/2015	05:06:11.567	$GPGGA,050612,2540.9705,N,07947.7394,W,1,9,1.7,18,M,,M,,*5A
06/18/2015	05:06:12.527	$GPGGA,050613,2540.9706,N,07947.7377,W,1,9,1.7,18,M,,M,,*55
06/18/2015	05:06:13.547	$GPGGA,050614,2540.9709,N,07947.7359,W,1,9,1.7,18,M,,M,,*51
06/18/2015	05:06:14.527	$GPGGA,050615,2540.9712,N,07947.7342,W,1,9,1.7,18,M,,M,,*50
06/18/2015	05:06:15.577	$GPGGA,050616,2540.9713,N,07947.7323,W,1,9,1.7,18,M,,M,,*55
06/18/2015	05:06:16.527	$GPGGA,050617,2540.9715,N,07947.7304,W,1,9,1.7,18,M,,M,,*57
06/18/2015	05:06:17.559	$GPGGA,050618,2540.9716,N,07947.7287,W,1,8,1.7,18,M,,M,,*50
06/18/2015	05:06:18.517	$GPGGA,050619,2540.9720,N,07947.7269,W,1,8,1.7,18,M,,M,,*54
06/18/2015	05:06:19.567	$GPGGA,050620,2540.9722,N,07947.7251,W,1,9,1.7,18,M,,M,,*56
06/18/2015	05:06:20.517	$GPGGA,050621,2540.9724,N,07947.7233,W,1,9,1.7,18,M,,M,,*55
06/18/2015	05:06:21.537	$GPGGA,050622,2540.9726,N,07947.7214,W,1,9,1.7,18,M,,M,,*51
06/18/2015	05:06:22.516	$GPGGA,050623,2540.9727,N,07947.7196,W,1,9,1.7,18,M,,M,,*58
06/18/2015	05:06:24.039	$GPGGA,050624,2540.9730,N,07947.7177,W,1,9,1.7,18,M,,M,,*56
06/18/2015	05:06:24.507	$GPGGA,050625,2540.9733,N,07947.7163,W,1,9,1.7,17,M,,M,,*5E
06/18/2015	05:06:25.537	$GPGGA,050626,2540.9734,N,07947.7144,W,1,9,1.7,17,M,,M,,*5F
06/18/2015	05:06:26.517	$GPGGA,050627,2540.9737,N,07947.7127,W,1,9,1.7,17,M,,M,,*58
06/18/2015	05:06:27.667	$GPGGA,050628,2540.9738,N,07947.7110,W,1,9,1.7,17,M,,M,,*5C
06/18/2015	05:06:28.497	$GPGGA,050629,2540.9741,N,07947.7093,W,1,9,1.7,17,M,,M,,*59
06/18/2015	05:06:29.517	$GPGGA,050630,2540.9742,N,07947.7076,W,1,9,1.7,17,M,,M,,*59
06/18/2015	05:06:30.487	$GPGGA,050631,2540.9745,N,07947.7057,W,1,9,1.7,17,M,,M,,*5C
06/18/2015	05:06:31.497	$GPGGA,050632,2540.9745,N,07947.7038,W,1,8,1.7,17,M,,M,,*57
06/18/2015	05:06:32.657	$GPGGA,050633,2540.9747,N,07947.7020,W,1,8,1.7,17,M,,M,,*5D
06/18/2015	05:06:33.627	$GPGGA,050634,2540.9748,N,07947.7001,W,1,9,1.7,17,M,,M,,*57
06/18/2015	05:06:34.497	$GPGGA,050635,2540.9749,N,07947.6984,W,1,9,1.7,17,M,,M,,*52
06/18/2015	05:06:35.497	$GPGGA,050636,2540.9752,N,07947.6966,W,1,9,1.7,17,M,,M,,*57
06/18/2015	05:06:36.487	$GPGGA,050637,2540.9753,N,07947.6948,W,1,9,1.7,17,M,,M,,*5B
06/18/2015	05:06:37.497	$GPGGA,050638,2540.9755,N,07947.6930,W,1,9,1.7,17,M,,M,,*5D
06/18/2015	05:06:38.477	$GPGGA,050639,2540.9756,N,07947.6912,W,1,9,1.7,17,M,,M,,*5F
06/18/2015	05:06:39.487	$GPGGA,050640,2540.9759,N,07947.6898,W,1,8,1.7,17,M,,M,,*5C
06/18/2015	05:06:40.466	$GPGGA,050641,2540.9760,N,07947.6881,W,1,8,1.7,17,M,,M,,*5F
06/18/2015	05:06:41.477	$GPGGA,050642,2540.9762,N,07947.6865,W,1,9,1.7,17,M,,M,,*55
06/18/2015	05:06:42.559	$GPGGA,050643,2540.9763,N,07947.6847,W,1,9,1.7,17,M,,M,,*55
06/18/2015	05:06:43.477	$GPGGA,050644,2540.9764,N,07947.6830,W,1,9,1.7,17,M,,M,,*55
06/18/2015	05:06:44.467	$GPGGA,050645,2540.9767,N,07947.6812,W,1,9,1.7,17,M,,M,,*57
06/18/2015	05:06:45.467	$GPGGA,050646,2540.9767,N,07947.6795,W,1,9,1.7,17,M,,M,,*54
06/18/2015	05:06:46.477	$GPGGA,050647,2540.9767,N,07947.6779,W,1,9,1.7,17,M,,M,,*57
06/18/2015	05:06:47.657	$GPGGA,050648,2540.9769,N,07947.6763,W,1,8,1.7,17,M,,M,,*5C
06/18/2015	05:06:48.547	$GPGGA,050649,2540.9770,N,07947.6747,W,1,8,1.7,17,M,,M,,*53
06/18/2015	05:06:49.597	$GPGGA,050650,2540.9769,N,07947.6730,W,1,9,1.7,18,M,,M,,*5D
06/18/2015	05:06:50.627	$GPGGA,050651,2540.9770,N,07947.6714,W,1,9,1.7,18,M,,M,,*52
06/18/2015	05:06:51.647	$GPGGA,050652,2540.9771,N,07947.6698,W,1,9,1.7,18,M,,M,,*55
06/18/2015	05:06:52.627	$GPGGA,050653,2540.9771,N,07947.6681,W,1,9,1.7,18,M,,M,,*5C
06/18/2015	05:06:53.607	$GPGGA,050654,2540.9771,N,07947.6665,W,1,9,1.7,18,M,,M,,*51
06/18/2015	05:06:54.607	$GPGGA,050655,2540.9773,N,07947.6648,W,1,9,1.7,18,M,,M,,*5D
06/18/2015	05:06:55.607	$GPGGA,050656,2540.9774,N,07947.6631,W,1,9,1.7,18,M,,M,,*57
06/18/2015	05:06:56.607	$GPGGA,050657,2540.9774,N,07947.6614,W,1,9,1.7,18,M,,M,,*51
06/18/2015	05:06:57.576	$GPGGA,050658,2540.9776,N,07947.6598,W,1,9,1.7,18,M,,M,,*5B
06/18/2015	05:06:58.607	$GPGGA,050659,2540.9775,N,07947.6581,W,1,9,1.7,18,M,,M,,*51
06/18/2015	05:06:59.587	$GPGGA,050700,2540.9777,N,07947.6564,W,1,9,1.7,18,M,,M,,*55
06/18/2015	05:07:00.527	$GPGGA,050701,2540.9776,N,07947.6547,W,1,9,1.7,18,M,,M,,*54
06/18/2015	05:07:01.567	$GPGGA,050702,2540.9778,N,07947.6530,W,1,9,1.7,18,M,,M,,*59
06/18/2015	05:07:02.577	$GPGGA,050703,2540.9778,N,07947.6513,W,1,9,1.7,18,M,,M,,*59
06/18/2015	05:07:03.537	$GPGGA,050704,2540.9778,N,07947.6496,W,1,9,1.7,18,M,,M,,*52
06/18/2015	05:07:04.597	$GPGGA,050705,2540.9780,N,07947.6479,W,1,9,1.7,18,M,,M,,*55
06/18/2015	05:07:05.557	$GPGGA,050706,2540.9779,N,07947.6462,W,1,9,1.7,19,M,,M,,*5B
06/18/2015	05:07:06.577	$GPGGA,050707,2540.9781,N,07947.6445,W,1,9,1.7,19,M,,M,,*58
06/18/2015	05:07:07.577	$GPGGA,050708,2540.9781,N,07947.6427,W,1,9,1.7,19,M,,M,,*53
06/18/2015	05:07:08.507	$GPGGA,050709,2540.9781,N,07947.6410,W,1,9,1.7,19,M,,M,,*56
06/18/2015	05:07:09.577	$GPGGA,050710,2540.9782,N,07947.6392,W,1,9,1.7,19,M,,M,,*50
06/18/2015	05:07:10.567	$GPGGA,050711,2540.9784,N,07947.6374,W,1,9,1.7,19,M,,M,,*5F
06/18/2015	05:07:11.607	$GPGGA,050712,2540.9785,N,07947.6356,W,1,9,1.7,19,M,,M,,*5D
06/18/2015	05:07:12.497	$GPGGA,050713,2540.9785,N,07947.6338,W,1,9,1.7,19,M,,M,,*54
06/18/2015	05:07:13.557	$GPGGA,050714,2540.9787,N,07947.6320,W,1,9,1.7,19,M,,M,,*58
06/18/2015	05:07:14.497	$GPGGA,050715,2540.9786,N,07947.6302,W,1,9,1.7,19,M,,M,,*58
06/18/2015	05:07:15.558	$GPGGA,050716,2540.9788,N,07947.6284,W,1,9,1.7,19,M,,M,,*5A
06/18/2015	05:07:16.560	$GPGGA,050717,2540.9789,N,07947.6266,W,1,9,1.7,19,M,,M,,*56
06/18/2015	05:07:17.607	$GPGGA,050718,2540.9789,N,07947.6248,W,1,8,1.7,19,M,,M,,*54
06/18/2015	05:07:18.558	$GPGGA,050719,2540.9792,N,07947.6231,W,1,8,1.7,19,M,,M,,*51
06/18/2015	05:07:19.559	$GPGGA,050720,2540.9792,N,07947.6213,W,1,9,1.7,19,M,,M,,*5A
06/18/2015	05:07:20.559	$GPGGA,050721,2540.9792,N,07947.6194,W,1,9,1.7,19,M,,M,,*57
06/18/2015	05:07:21.597	$GPGGA,050722,2540.9795,N,07947.6177,W,1,9,1.7,19,M,,M,,*5E
06/18/2015	05:07:22.547	$GPGGA,050723,2540.9796,N,07947.6159,W,1,9,1.7,19,M,,M,,*50
06/18/2015	05:07:23.597	$GPGGA,050724,2540.9798,N,07947.6141,W,1,9,1.7,19,M,,M,,*50
06/18/2015	05:07:24.547	$GPGGA,050725,2540.9799,N,07947.6123,W,1,9,1.7,19,M,,M,,*54
06/18/2015	05:07:25.577	$GPGGA,050726,2540.9799,N,07947.6105,W,1,9,1.7,19,M,,M,,*53
06/18/2015	05:07:26.537	$GPGGA,050727,2540.9802,N,07947.6086,W,1,9,1.8,19,M,,M,,*5A
06/18/2015	05:07:27.547	$GPGGA,050728,2540.9803,N,07947.6068,W,1,8,1.8,19,M,,M,,*55
06/18/2015	05:07:28.567	$GPGGA,050729,2540.9803,N,07947.6050,W,1,8,1.8,18,M,,M,,*5E
06/18/2015	05:07:29.577	$GPGGA,050730,2540.9806,N,07947.6031,W,1,8,1.7,18,M,,M,,*5B
06/18/2015	05:07:30.587	$GPGGA,050731,2540.9807,N,07947.6013,W,1,8,1.8,18,M,,M,,*54
06/18/2015	05:07:31.569	$GPGGA,050732,2540.9809,N,07947.5995,W,1,8,1.8,18,M,,M,,*5D
06/18/2015	05:07:32.536	$GPGGA,050733,2540.9810,N,07947.5977,W,1,8,1.8,18,M,,M,,*58
06/18/2015	05:07:33.597	$GPGGA,050734,2540.9814,N,07947.5960,W,1,8,1.7,18,M,,M,,*52
06/18/2015	05:07:34.559	$GPGGA,050735,2540.9816,N,07947.5943,W,1,8,1.7,18,M,,M,,*50
06/18/2015	05:07:35.577	$GPGGA,050736,2540.9818,N,07947.5926,W,1,9,1.7,18,M,,M,,*5F
06/18/2015	05:07:36.571	$GPGGA,050737,2540.9820,N,07947.5909,W,1,9,1.8,18,M,,M,,*57
06/18/2015	05:07:37.568	$GPGGA,050738,2540.9821,N,07947.5890,W,1,8,1.8,18,M,,M,,*59
06/18/2015	05:07:38.567	$GPGGA,050739,2540.9821,N,07947.5890,W,1,8,1.8,18,M,,M,,*58
06/18/2015	05:07:39.588	$GPGGA,050740,2540.9825,N,07947.5855,W,1,9,1.7,18,M,,M,,*55
06/18/2015	05:07:40.547	$GPGGA,050741,2540.9827,N,07947.5836,W,1,9,1.8,18,M,,M,,*5C
06/18/2015	05:07:41.551	$GPGGA,050742,2540.9828,N,07947.5818,W,1,8,1.8,18,M,,M,,*5D
06/18/2015	05:07:42.560	$GPGGA,050743,2540.9832,N,07947.5801,W,1,8,1.7,18,M,,M,,*50
06/18/2015	05:07:43.577	$GPGGA,050744,2540.9834,N,07947.5785,W,1,9,1.7,18,M,,M,,*53
06/18/2015	05:07:44.577	$GPGGA,050745,2540.9835,N,07947.5767,W,1,9,1.8,18,M,,M,,*50
06/18/2015	05:07:45.547	$GPGGA,050746,2540.9836,N,07947.5748,W,1,8,1.8,18,M,,M,,*5C
06/18/2015	05:07:46.527	$GPGGA,050747,2540.9836,N,07947.5748,W,1,8,1.8,18,M,,M,,*5D
06/18/2015	05:07:47.567	$GPGGA,050748,2540.9839,N,07947.5711,W,1,8,1.8,18,M,,M,,*51
06/18/2015	05:07:48.547	$GPGGA,050749,2540.9842,N,07947.5694,W,1,8,1.7,18,M,,M,,*5F
06/18/2015	05:07:49.557	$GPGGA,050750,2540.9843,N,07947.5676,W,1,9,1.8,18,M,,M,,*54
06/18/2015	05:07:50.560	$GPGGA,050751,2540.9845,N,07947.5658,W,1,9,1.8,18,M,,M,,*5F
06/18/2015	05:07:51.577	$GPGGA,050752,2540.9846,N,07947.5640,W,1,8,1.8,18,M,,M,,*57
06/18/2015	05:07:52.537	$GPGGA,050753,2540.9849,N,07947.5622,W,1,8,1.8,18,M,,M,,*5D
06/18/2015	05:07:53.517	$GPGGA,050754,2540.9849,N,07947.5622,W,1,8,1.8,18,M,,M,,*5A
06/18/2015	05:07:54.527	$GPGGA,050755,2540.9853,N,07947.5588,W,1,8,1.7,18,M,,M,,*5C
06/18/2015	05:07:55.587	$GPGGA,050756,2540.9854,N,07947.5570,W,1,9,1.7,18,M,,M,,*5E
06/18/2015	05:07:56.537	$GPGGA,050757,2540.9856,N,07947.5552,W,1,9,1.8,17,M,,M,,*5D
06/18/2015	05:07:57.517	$GPGGA,050758,2540.9857,N,07947.5534,W,1,8,1.7,17,M,,M,,*5D
06/18/2015	05:07:58.527	$GPGGA,050759,2540.9857,N,07947.5534,W,1,8,1.7,17,M,,M,,*5C
06/18/2015	05:07:59.561	$GPGGA,050800,2540.9861,N,07947.5500,W,1,9,1.7,17,M,,M,,*5C
06/18/2015	05:08:00.527	$GPGGA,050801,2540.9861,N,07947.5500,W,1,9,1.7,17,M,,M,,*5D
06/18/2015	05:08:01.547	$GPGGA,050802,2540.9865,N,07947.5466,W,1,9,1.7,17,M,,M,,*5B
06/18/2015	05:08:02.517	$GPGGA,050803,2540.9865,N,07947.5466,W,1,9,1.7,17,M,,M,,*5A
06/18/2015	05:08:03.567	$GPGGA,050804,2540.9868,N,07947.5432,W,1,9,1.7,17,M,,M,,*51
06/18/2015	05:08:04.547	$GPGGA,050805,2540.9870,N,07947.5414,W,1,9,1.7,17,M,,M,,*5D
06/18/2015	05:08:05.507	$GPGGA,050806,2540.9871,N,07947.5396,W,1,9,1.7,17,M,,M,,*52
06/18/2015	05:08:06.537	$GPGGA,050807,2540.9872,N,07947.5380,W,1,9,1.7,17,M,,M,,*57
06/18/2015	05:08:07.506	$GPGGA,050808,2540.9874,N,07947.5363,W,1,9,1.7,17,M,,M,,*53
06/18/2015	05:08:08.507	$GPGGA,050809,2540.9874,N,07947.5363,W,1,9,1.7,17,M,,M,,*52
06/18/2015	05:08:09.507	$GPGGA,050810,2540.9875,N,07947.5328,W,1,9,1.7,17,M,,M,,*54
06/18/2015	05:08:10.497	$GPGGA,050811,2540.9875,N,07947.5328,W,1,9,1.7,17,M,,M,,*55
06/18/2015	05:08:11.517	$GPGGA,050812,2540.9876,N,07947.5292,W,1,9,1.7,17,M,,M,,*55
06/18/2015	05:08:12.497	$GPGGA,050813,2540.9876,N,07947.5292,W,1,9,1.7,17,M,,M,,*54
06/18/2015	05:08:13.597	$GPGGA,050814,2540.9879,N,07947.5258,W,1,9,1.7,17,M,,M,,*5A
06/18/2015	05:08:14.507	$GPGGA,050815,2540.9879,N,07947.5258,W,1,9,1.7,17,M,,M,,*5B
06/18/2015	05:08:15.497	$GPGGA,050816,2540.9879,N,07947.5223,W,1,9,1.7,17,M,,M,,*54
06/18/2015	05:08:16.587	$GPGGA,050817,2540.9881,N,07947.5205,W,1,9,1.7,17,M,,M,,*56
06/18/2015	05:08:17.467	$GPGGA,050818,2540.9882,N,07947.5188,W,1,9,1.7,17,M,,M,,*5C
06/18/2015	05:08:18.567	$GPGGA,050819,2540.9881,N,07947.5171,W,1,9,1.7,17,M,,M,,*58
06/18/2015	05:08:19.587	$GPGGA,050820,2540.9883,N,07947.5153,W,1,9,1.7,17,M,,M,,*50
06/18/2015	05:08:20.560	$GPGGA,050821,2540.9883,N,07947.5136,W,1,9,1.7,17,M,,M,,*52
06/18/2015	05:08:21.567	$GPGGA,050822,2540.9883,N,07947.5118,W,1,9,1.7,17,M,,M,,*5D
06/18/2015	05:08:22.558	$GPGGA,050823,2540.9885,N,07947.5101,W,1,9,1.7,17,M,,M,,*52
06/18/2015	05:08:23.587	$GPGGA,050824,2540.9886,N,07947.5084,W,1,9,1.7,17,M,,M,,*5A
06/18/2015	05:08:24.567	$GPGGA,050825,2540.9885,N,07947.5066,W,1,9,1.7,17,M,,M,,*54
06/18/2015	05:08:25.576	$GPGGA,050826,2540.9886,N,07947.5049,W,1,9,1.7,17,M,,M,,*59
06/18/2015	05:08:26.547	$GPGGA,050827,2540.9888,N,07947.5031,W,1,9,1.7,17,M,,M,,*59
06/18/2015	05:08:27.577	$GPGGA,050828,2540.9889,N,07947.5014,W,1,9,1.7,17,M,,M,,*50
06/18/2015	05:08:28.547	$GPGGA,050829,2540.9890,N,07947.4996,W,1,9,1.7,17,M,,M,,*5B
06/18/2015	05:08:29.567	$GPGGA,050830,2540.9890,N,07947.4978,W,1,9,1.7,17,M,,M,,*53
06/18/2015	05:08:30.547	$GPGGA,050831,2540.9890,N,07947.4961,W,1,9,1.7,17,M,,M,,*5A
06/18/2015	05:08:32.167	$GPGGA,050832,2540.9893,N,07947.4943,W,1,9,1.7,17,M,,M,,*5A
06/18/2015	05:08:32.547	$GPGGA,050833,2540.9893,N,07947.4925,W,1,9,1.7,17,M,,M,,*5B
06/18/2015	05:08:33.551	$GPGGA,050834,2540.9894,N,07947.4908,W,1,9,1.7,17,M,,M,,*54
06/18/2015	05:08:34.537	$GPGGA,050835,2540.9896,N,07947.4890,W,1,9,1.7,17,M,,M,,*57
06/18/2015	05:08:35.567	$GPGGA,050836,2540.9897,N,07947.4872,W,1,9,1.7,17,M,,M,,*59
06/18/2015	05:08:36.537	$GPGGA,050837,2540.9899,N,07947.4855,W,1,9,1.7,17,M,,M,,*53
06/18/2015	05:08:37.517	$GPGGA,050838,2540.9900,N,07947.4837,W,1,9,1.7,17,M,,M,,*59
06/18/2015	05:08:38.527	$GPGGA,050839,2540.9901,N,07947.4820,W,1,9,1.7,17,M,,M,,*5F
06/18/2015	05:08:39.558	$GPGGA,050840,2540.9903,N,07947.4802,W,1,9,1.7,17,M,,M,,*53
06/18/2015	05:08:40.527	$GPGGA,050841,2540.9904,N,07947.4785,W,1,9,1.7,16,M,,M,,*54
06/18/2015	05:08:41.537	$GPGGA,050842,2540.9904,N,07947.4767,W,1,9,1.7,16,M,,M,,*5B
06/18/2015	05:08:42.526	$GPGGA,050843,2540.9907,N,07947.4749,W,1,9,1.8,16,M,,M,,*5A
06/18/2015	05:08:43.560	$GPGGA,050844,2540.9908,N,07947.4731,W,1,8,1.8,16,M,,M,,*5C
06/18/2015	05:08:45.570	$GPGGA,050846,2540.9911,N,07947.4695,W,1,8,1.8,16,M,,M,,*59
06/18/2015	05:08:46.497	$GPGGA,050847,2540.9911,N,07947.4677,W,1,8,1.8,16,M,,M,,*54
06/18/2015	05:08:47.517	$GPGGA,050848,2540.9914,N,07947.4659,W,1,8,1.8,16,M,,M,,*52
06/18/2015	05:08:48.507	$GPGGA,050849,2540.9915,N,07947.4641,W,1,8,1.8,16,M,,M,,*5B
06/18/2015	05:08:49.507	$GPGGA,050850,2540.9918,N,07947.4626,W,1,9,1.7,16,M,,M,,*51
06/18/2015	05:08:50.517	$GPGGA,050851,2540.9919,N,07947.4608,W,1,9,1.7,16,M,,M,,*5D
06/18/2015	05:08:51.497	$GPGGA,050852,2540.9922,N,07947.4590,W,1,8,1.8,16,M,,M,,*5A
06/18/2015	05:08:52.487	$GPGGA,050853,2540.9925,N,07947.4574,W,1,8,1.7,16,M,,M,,*59
06/18/2015	05:08:53.487	$GPGGA,050854,2540.9926,N,07947.4556,W,1,9,1.7,16,M,,M,,*5C
06/18/2015	05:08:54.507	$GPGGA,050855,2540.9930,N,07947.4539,W,1,9,1.8,16,M,,M,,*5C
06/18/2015	05:08:55.627	$GPGGA,050856,2540.9932,N,07947.4522,W,1,9,1.7,16,M,,M,,*58
06/18/2015	05:08:56.497	$GPGGA,050857,2540.9933,N,07947.4504,W,1,9,1.7,16,M,,M,,*5C
06/18/2015	05:08:58.047	$GPGGA,050858,2540.9935,N,07947.4486,W,1,8,1.8,16,M,,M,,*50
06/18/2015	05:08:58.487	$GPGGA,050859,2540.9937,N,07947.4470,W,1,8,1.7,15,M,,M,,*56
06/18/2015	05:08:59.547	$GPGGA,050900,2540.9940,N,07947.4451,W,1,9,1.7,15,M,,M,,*59
06/18/2015	05:09:00.496	$GPGGA,050901,2540.9940,N,07947.4433,W,1,9,1.8,15,M,,M,,*53
06/18/2015	05:09:01.577	$GPGGA,050902,2540.9943,N,07947.4416,W,1,9,1.7,15,M,,M,,*5B
06/18/2015	05:09:02.497	$GPGGA,050903,2540.9944,N,07947.4397,W,1,9,1.8,15,M,,M,,*5C
06/18/2015	05:09:03.587	$GPGGA,050904,2540.9946,N,07947.4379,W,1,8,1.8,15,M,,M,,*58
06/18/2015	05:09:04.587	$GPGGA,050905,2540.9948,N,07947.4361,W,1,8,1.8,15,M,,M,,*5E
06/18/2015	05:09:05.467	$GPGGA,050906,2540.9950,N,07947.4343,W,1,8,1.8,15,M,,M,,*54
06/18/2015	05:09:06.477	$GPGGA,050907,2540.9951,N,07947.4325,W,1,8,1.8,15,M,,M,,*54
06/18/2015	05:09:07.597	$GPGGA,050908,2540.9953,N,07947.4307,W,1,8,1.8,15,M,,M,,*59
06/18/2015	05:09:08.558	$GPGGA,050909,2540.9954,N,07947.4289,W,1,8,1.8,15,M,,M,,*58
06/18/2015	05:09:09.577	$GPGGA,050910,2540.9955,N,07947.4271,W,1,8,1.8,15,M,,M,,*56
06/18/2015	05:09:10.547	$GPGGA,050911,2540.9957,N,07947.4253,W,1,8,1.8,15,M,,M,,*55
06/18/2015	05:09:11.567	$GPGGA,050912,2540.9958,N,07947.4236,W,1,8,1.8,15,M,,M,,*5A
06/18/2015	05:09:12.557	$GPGGA,050913,2540.9959,N,07947.4218,W,1,8,1.8,15,M,,M,,*56
06/18/2015	05:09:13.547	$GPGGA,050914,2540.9962,N,07947.4200,W,1,8,1.8,15,M,,M,,*50
06/18/2015	05:09:14.537	$GPGGA,050915,2540.9964,N,07947.4183,W,1,8,1.8,15,M,,M,,*5F
06/18/2015	05:09:15.577	$GPGGA,050916,2540.9965,N,07947.4165,W,1,8,1.8,15,M,,M,,*55
06/18/2015	05:09:16.537	$GPGGA,050917,2540.9966,N,07947.4147,W,1,8,1.8,15,M,,M,,*57
06/18/2015	05:09:17.566	$GPGGA,050918,2540.9968,N,07947.4130,W,1,8,1.8,15,M,,M,,*56
06/18/2015	05:09:18.537	$GPGGA,050919,2540.9969,N,07947.4112,W,1,8,1.8,15,M,,M,,*56
06/18/2015	05:09:19.567	$GPGGA,050920,2540.9971,N,07947.4094,W,1,9,1.7,15,M,,M,,*54
06/18/2015	05:09:20.537	$GPGGA,050921,2540.9973,N,07947.4076,W,1,9,1.8,15,M,,M,,*54
06/18/2015	05:09:21.557	$GPGGA,050922,2540.9973,N,07947.4060,W,1,8,1.8,15,M,,M,,*51
06/18/2015	05:09:22.527	$GPGGA,050923,2540.9976,N,07947.4043,W,1,8,1.7,15,M,,M,,*5B
06/18/2015	05:09:23.547	$GPGGA,050924,2540.9977,N,07947.4026,W,1,9,1.7,15,M,,M,,*5F
06/18/2015	05:09:24.528	$GPGGA,050925,2540.9979,N,07947.4010,W,1,9,1.7,15,M,,M,,*55
06/18/2015	05:09:25.557	$GPGGA,050926,2540.9980,N,07947.3993,W,1,9,1.7,15,M,,M,,*55
06/18/2015	05:09:26.537	$GPGGA,050927,2540.9983,N,07947.3976,W,1,9,1.7,15,M,,M,,*5C
06/18/2015	05:09:27.567	$GPGGA,050928,2540.9984,N,07947.3958,W,1,9,1.7,15,M,,M,,*58
06/18/2015	05:09:28.507	$GPGGA,050929,2540.9984,N,07947.3941,W,1,9,1.7,15,M,,M,,*51
06/18/2015	05:09:29.527	$GPGGA,050930,2540.9986,N,07947.3924,W,1,9,1.7,15,M,,M,,*58
06/18/2015	05:09:30.507	$GPGGA,050931,2540.9987,N,07947.3906,W,1,9,1.7,15,M,,M,,*58
06/18/2015	05:09:31.557	$GPGGA,050932,2540.9987,N,07947.3889,W,1,9,1.7,15,M,,M,,*5D
06/18/2015	05:09:32.517	$GPGGA,050933,2540.9988,N,07947.3872,W,1,9,1.7,15,M,,M,,*57
06/18/2015	05:09:33.497	$GPGGA,050934,2540.9990,N,07947.3854,W,1,9,1.7,15,M,,M,,*5D
06/18/2015	05:09:34.617	$GPGGA,050935,2540.9991,N,07947.3838,W,1,9,1.7,15,M,,M,,*57
06/18/2015	05:09:35.626	$GPGGA,050936,2540.9991,N,07947.3820,W,1,9,1.7,15,M,,M,,*5D
06/18/2015	05:09:36.597	$GPGGA,050937,2540.9991,N,07947.3803,W,1,9,1.7,15,M,,M,,*5D
06/18/2015	05:09:37.497	$GPGGA,050938,2540.9993,N,07947.3785,W,1,9,1.7,15,M,,M,,*51
06/18/2015	05:09:38.497	$GPGGA,050939,2540.9994,N,07947.3769,W,1,9,1.7,15,M,,M,,*55
06/18/2015	05:09:39.527	$GPGGA,050940,2540.9995,N,07947.3751,W,1,9,1.7,15,M,,M,,*51
06/18/2015	05:09:40.487	$GPGGA,050941,2540.9995,N,07947.3733,W,1,9,1.7,15,M,,M,,*54
06/18/2015	05:09:41.497	$GPGGA,050942,2540.9997,N,07947.3716,W,1,9,1.7,15,M,,M,,*52
06/18/2015	05:09:42.607	$GPGGA,050943,2540.9998,N,07947.3698,W,1,9,1.7,15,M,,M,,*5B
06/18/2015	05:09:43.597	$GPGGA,050944,2540.9998,N,07947.3680,W,1,9,1.7,15,M,,M,,*55
06/18/2015	05:09:44.497	$GPGGA,050945,2541.0000,N,07947.3663,W,1,9,1.7,15,M,,M,,*59
06/18/2015	05:09:45.577	$GPGGA,050946,2541.0001,N,07947.3646,W,1,9,1.7,15,M,,M,,*5C
06/18/2015	05:09:46.477	$GPGGA,050947,2541.0002,N,07947.3628,W,1,9,1.7,15,M,,M,,*56
06/18/2015	05:09:47.487	$GPGGA,050948,2541.0002,N,07947.3611,W,1,9,1.7,15,M,,M,,*53
06/18/2015	05:09:48.567	$GPGGA,050949,2541.0002,N,07947.3593,W,1,9,1.7,15,M,,M,,*5B
06/18/2015	05:09:49.607	$GPGGA,050950,2541.0004,N,07947.3575,W,1,9,1.7,15,M,,M,,*5D
06/18/2015	05:09:50.477	$GPGGA,050951,2541.0005,N,07947.3557,W,1,9,1.7,15,M,,M,,*5D
06/18/2015	05:09:51.497	$GPGGA,050952,2541.0005,N,07947.3540,W,1,9,1.7,15,M,,M,,*58
06/18/2015	05:09:52.476	$GPGGA,050953,2541.0006,N,07947.3521,W,1,9,1.7,15,M,,M,,*5D
06/18/2015	05:09:53.597	$GPGGA,050954,2541.0009,N,07947.3504,W,1,9,1.7,15,M,,M,,*52
06/18/2015	05:09:54.557	$GPGGA,050955,2541.0009,N,07947.3486,W,1,9,1.7,15,M,,M,,*58
06/18/2015	05:09:55.587	$GPGGA,050956,2541.0011,N,07947.3468,W,1,9,1.7,15,M,,M,,*52
06/18/2015	05:09:56.557	$GPGGA,050957,2541.0012,N,07947.3450,W,1,9,1.7,15,M,,M,,*5B
06/18/2015	05:09:57.567	$GPGGA,050958,2541.0013,N,07947.3432,W,1,8,1.8,15,M,,M,,*5F
06/18/2015	05:09:58.557	$GPGGA,050959,2541.0013,N,07947.3414,W,1,8,1.8,15,M,,M,,*5A
06/18/2015	05:09:59.587	$GPGGA,051000,2541.0015,N,07947.3396,W,1,8,1.8,15,M,,M,,*55
06/18/2015	05:10:00.547	$GPGGA,051001,2541.0016,N,07947.3378,W,1,8,1.8,15,M,,M,,*57
06/18/2015	05:10:01.567	$GPGGA,051002,2541.0018,N,07947.3360,W,1,8,1.8,15,M,,M,,*53
06/18/2015	05:10:02.537	$GPGGA,051003,2541.0019,N,07947.3342,W,1,8,1.8,15,M,,M,,*53
06/18/2015	05:10:03.877	$GPGGA,051004,2541.0020,N,07947.3324,W,1,8,1.8,15,M,,M,,*5E
06/18/2015	05:10:04.547	$GPGGA,051005,2541.0022,N,07947.3306,W,1,8,1.8,15,M,,M,,*5D
06/18/2015	05:10:05.577	$GPGGA,051006,2541.0023,N,07947.3288,W,1,8,1.8,15,M,,M,,*58
06/18/2015	05:10:06.547	$GPGGA,051007,2541.0024,N,07947.3270,W,1,8,1.8,15,M,,M,,*59
06/18/2015	05:10:07.567	$GPGGA,051008,2541.0027,N,07947.3252,W,1,8,1.8,15,M,,M,,*55
06/18/2015	05:10:08.537	$GPGGA,051009,2541.0027,N,07947.3234,W,1,8,1.8,14,M,,M,,*55
06/18/2015	05:10:09.527	$GPGGA,051010,2541.0029,N,07947.3216,W,1,8,1.8,14,M,,M,,*53
06/18/2015	05:10:10.526	$GPGGA,051011,2541.0031,N,07947.3198,W,1,8,1.8,14,M,,M,,*5E
06/18/2015	05:10:11.567	$GPGGA,051012,2541.0033,N,07947.3180,W,1,8,1.8,14,M,,M,,*56
06/18/2015	05:10:12.537	$GPGGA,051013,2541.0034,N,07947.3162,W,1,8,1.8,14,M,,M,,*5C
06/18/2015	05:10:13.558	$GPGGA,051014,2541.0036,N,07947.3144,W,1,8,1.8,14,M,,M,,*5D
06/18/2015	05:10:14.527	$GPGGA,051015,2541.0038,N,07947.3126,W,1,8,1.8,14,M,,M,,*56
06/18/2015	05:10:15.547	$GPGGA,051016,2541.0040,N,07947.3108,W,1,8,1.8,14,M,,M,,*56
06/18/2015	05:10:16.517	$GPGGA,051017,2541.0041,N,07947.3089,W,1,8,1.8,14,M,,M,,*5E
06/18/2015	05:10:17.507	$GPGGA,051018,2541.0042,N,07947.3071,W,1,8,1.8,14,M,,M,,*55
06/18/2015	05:10:18.517	$GPGGA,051019,2541.0045,N,07947.3053,W,1,8,1.8,14,M,,M,,*53
06/18/2015	05:10:19.517	$GPGGA,051020,2541.0047,N,07947.3034,W,1,8,1.8,14,M,,M,,*5A
06/18/2015	05:10:20.517	$GPGGA,051021,2541.0049,N,07947.3016,W,1,8,1.8,14,M,,M,,*55
06/18/2015	05:10:21.507	$GPGGA,051022,2541.0051,N,07947.2998,W,1,8,1.8,14,M,,M,,*51
06/18/2015	05:10:22.517	$GPGGA,051023,2541.0052,N,07947.2980,W,1,8,1.8,14,M,,M,,*5A
06/18/2015	05:10:23.537	$GPGGA,051024,2541.0055,N,07947.2962,W,1,8,1.8,14,M,,M,,*56
06/18/2015	05:10:24.507	$GPGGA,051025,2541.0056,N,07947.2944,W,1,8,1.8,14,M,,M,,*50
06/18/2015	05:10:25.497	$GPGGA,051026,2541.0058,N,07947.2926,W,1,8,1.8,14,M,,M,,*59
06/18/2015	05:10:26.607	$GPGGA,051027,2541.0060,N,07947.2908,W,1,8,1.8,14,M,,M,,*5F
06/18/2015	05:10:27.536	$GPGGA,051028,2541.0062,N,07947.2890,W,1,8,1.8,14,M,,M,,*52
06/18/2015	05:10:28.587	$GPGGA,051029,2541.0063,N,07947.2872,W,1,8,1.8,14,M,,M,,*5E
06/18/2015	05:10:29.617	$GPGGA,051030,2541.0066,N,07947.2854,W,1,8,1.8,14,M,,M,,*57
06/18/2015	05:10:30.477	$GPGGA,051031,2541.0067,N,07947.2837,W,1,8,1.8,14,M,,M,,*52
06/18/2015	05:10:31.497	$GPGGA,051032,2541.0070,N,07947.2819,W,1,8,1.8,14,M,,M,,*5B
06/18/2015	05:10:32.607	$GPGGA,051033,2541.0071,N,07947.2801,W,1,8,1.8,14,M,,M,,*52
06/18/2015	05:10:33.597	$GPGGA,051034,2541.0074,N,07947.2783,W,1,8,1.8,14,M,,M,,*55
06/18/2015	05:10:34.507	$GPGGA,051035,2541.0074,N,07947.2766,W,1,8,1.8,14,M,,M,,*5F
06/18/2015	05:10:35.627	$GPGGA,051036,2541.0077,N,07947.2748,W,1,8,1.8,14,M,,M,,*53
06/18/2015	05:10:36.597	$GPGGA,051037,2541.0078,N,07947.2730,W,1,8,1.8,14,M,,M,,*52
06/18/2015	05:10:37.617	$GPGGA,051038,2541.0080,N,07947.2713,W,1,8,1.8,14,M,,M,,*5B
06/18/2015	05:10:38.487	$GPGGA,051039,2541.0081,N,07947.2695,W,1,8,1.8,14,M,,M,,*54
06/18/2015	05:10:39.617	$GPGGA,051040,2541.0084,N,07947.2678,W,1,8,1.8,14,M,,M,,*5C
06/18/2015	05:10:40.567	$GPGGA,051041,2541.0085,N,07947.2660,W,1,8,1.8,14,M,,M,,*55
06/18/2015	05:10:41.587	$GPGGA,051042,2541.0087,N,07947.2643,W,1,8,1.8,14,M,,M,,*55
06/18/2015	05:10:42.567	$GPGGA,051043,2541.0089,N,07947.2626,W,1,8,1.8,14,M,,M,,*59
06/18/2015	05:10:43.617	$GPGGA,051044,2541.0091,N,07947.2610,W,1,9,1.7,14,M,,M,,*5C
06/18/2015	05:10:44.557	$GPGGA,051045,2541.0092,N,07947.2592,W,1,9,1.7,14,M,,M,,*57
06/18/2015	05:10:45.546	$GPGGA,051046,2541.0094,N,07947.2574,W,1,8,1.8,14,M,,M,,*54
06/18/2015	05:10:46.547	$GPGGA,051047,2541.0096,N,07947.2558,W,1,8,1.7,14,M,,M,,*56
06/18/2015	05:10:47.577	$GPGGA,051048,2541.0096,N,07947.2542,W,1,9,1.7,14,M,,M,,*53
06/18/2015	05:10:48.561	$GPGGA,051049,2541.0099,N,07947.2524,W,1,9,1.7,14,M,,M,,*5D
06/18/2015	05:10:49.547	$GPGGA,051050,2541.0099,N,07947.2507,W,1,9,1.7,14,M,,M,,*54
06/18/2015	05:10:50.547	$GPGGA,051051,2541.0102,N,07947.2490,W,1,9,1.7,14,M,,M,,*59
06/18/2015	05:10:51.577	$GPGGA,051052,2541.0103,N,07947.2473,W,1,9,1.7,14,M,,M,,*56
06/18/2015	05:10:52.547	$GPGGA,051053,2541.0105,N,07947.2456,W,1,9,1.7,14,M,,M,,*56
06/18/2015	05:10:53.547	$GPGGA,051054,2541.0107,N,07947.2439,W,1,9,1.7,14,M,,M,,*5A
06/18/2015	05:10:54.537	$GPGGA,051055,2541.0107,N,07947.2422,W,1,9,1.7,14,M,,M,,*51
06/18/2015	05:10:55.577	$GPGGA,051056,2541.0109,N,07947.2405,W,1,9,1.7,14,M,,M,,*59
06/18/2015	05:10:56.537	$GPGGA,051057,2541.0110,N,07947.2387,W,1,9,1.7,14,M,,M,,*5D
06/18/2015	05:10:57.567	$GPGGA,051058,2541.0112,N,07947.2370,W,1,9,1.7,14,M,,M,,*58
06/18/2015	05:10:58.527	$GPGGA,051059,2541.0113,N,07947.2352,W,1,9,1.7,14,M,,M,,*58
06/18/2015	05:10:59.577	$GPGGA,051100,2541.0114,N,07947.2335,W,1,9,1.7,14,M,,M,,*53
06/18/2015	05:11:00.527	$GPGGA,051101,2541.0116,N,07947.2318,W,1,9,1.7,14,M,,M,,*5F
06/18/2015	05:11:01.527	$GPGGA,051102,2541.0117,N,07947.2300,W,1,9,1.7,14,M,,M,,*54
06/18/2015	05:11:02.516	$GPGGA,051103,2541.0117,N,07947.2283,W,1,9,1.7,14,M,,M,,*5F
06/18/2015	05:11:03.557	$GPGGA,051104,2541.0118,N,07947.2266,W,1,9,1.7,14,M,,M,,*5C
06/18/2015	05:11:04.517	$GPGGA,051105,2541.0120,N,07947.2248,W,1,9,1.7,14,M,,M,,*5A
06/18/2015	05:11:05.517	$GPGGA,051106,2541.0121,N,07947.2231,W,1,9,1.7,14,M,,M,,*56
06/18/2015	05:11:06.517	$GPGGA,051107,2541.0121,N,07947.2213,W,1,9,1.7,14,M,,M,,*57
06/18/2015	05:11:07.527	$GPGGA,051108,2541.0123,N,07947.2196,W,1,9,1.7,14,M,,M,,*54
06/18/2015	05:11:08.517	$GPGGA,051109,2541.0125,N,07947.2178,W,1,9,1.7,14,M,,M,,*53
06/18/2015	05:11:09.507	$GPGGA,051110,2541.0125,N,07947.2161,W,1,9,1.7,14,M,,M,,*53
06/18/2015	05:11:10.497	$GPGGA,051111,2541.0127,N,07947.2143,W,1,9,1.7,14,M,,M,,*50
06/18/2015	05:11:11.527	$GPGGA,051112,2541.0128,N,07947.2126,W,1,9,1.7,14,M,,M,,*5F
06/18/2015	05:11:12.617	$GPGGA,051113,2541.0128,N,07947.2108,W,1,9,1.7,14,M,,M,,*52
06/18/2015	05:11:13.487	$GPGGA,051114,2541.0130,N,07947.2091,W,1,9,1.7,14,M,,M,,*5D
06/18/2015	05:11:14.608	$GPGGA,051115,2541.0131,N,07947.2073,W,1,9,1.7,14,M,,M,,*51
06/18/2015	05:11:16.537	$GPGGA,051117,2541.0132,N,07947.2038,W,1,9,1.7,14,M,,M,,*5F
06/18/2015	05:11:17.487	$GPGGA,051118,2541.0134,N,07947.2021,W,1,8,1.8,14,M,,M,,*50
06/18/2015	05:11:18.487	$GPGGA,051119,2541.0135,N,07947.2002,W,1,8,1.7,14,M,,M,,*5E
06/18/2015	05:11:19.497	$GPGGA,051120,2541.0135,N,07947.1984,W,1,9,1.7,14,M,,M,,*51
06/18/2015	05:11:20.596	$GPGGA,051121,2541.0136,N,07947.1965,W,1,9,1.8,14,M,,M,,*53
06/18/2015	05:11:21.607	$GPGGA,051122,2541.0138,N,07947.1948,W,1,8,1.8,14,M,,M,,*50
06/18/2015	05:11:22.497	$GPGGA,051123,2541.0139,N,07947.1929,W,1,8,1.8,14,M,,M,,*57
06/18/2015	05:11:23.477	$GPGGA,051124,2541.0139,N,07947.1912,W,1,8,1.8,14,M,,M,,*58
06/18/2015	05:11:24.497	$GPGGA,051125,2541.0142,N,07947.1894,W,1,8,1.8,14,M,,M,,*5A
06/18/2015	05:11:25.577	$GPGGA,051126,2541.0143,N,07947.1876,W,1,8,1.8,14,M,,M,,*54
06/18/2015	05:11:26.477	$GPGGA,051127,2541.0143,N,07947.1858,W,1,8,1.8,14,M,,M,,*59
06/18/2015	05:11:27.637	$GPGGA,051128,2541.0146,N,07947.1840,W,1,8,1.8,14,M,,M,,*5A
06/18/2015	05:11:28.477	$GPGGA,051129,2541.0146,N,07947.1822,W,1,8,1.8,14,M,,M,,*5F
06/18/2015	05:11:29.577	$GPGGA,051130,2541.0149,N,07947.1804,W,1,8,1.8,14,M,,M,,*5C
06/18/2015	05:11:30.567	$GPGGA,051131,2541.0150,N,07947.1786,W,1,8,1.8,14,M,,M,,*50
06/18/2015	05:11:31.637	$GPGGA,051132,2541.0152,N,07947.1768,W,1,8,1.8,14,M,,M,,*51
06/18/2015	05:11:32.558	$GPGGA,051133,2541.0154,N,07947.1751,W,1,8,1.7,14,M,,M,,*53
06/18/2015	05:11:33.577	$GPGGA,051134,2541.0157,N,07947.1733,W,1,9,1.7,14,M,,M,,*52
06/18/2015	05:11:34.558	$GPGGA,051135,2541.0157,N,07947.1716,W,1,9,1.7,14,M,,M,,*54
06/18/2015	05:11:35.577	$GPGGA,051136,2541.0159,N,07947.1699,W,1,9,1.7,14,M,,M,,*5F
06/18/2015	05:11:36.560	$GPGGA,051137,2541.0161,N,07947.1681,W,1,9,1.7,14,M,,M,,*5C
06/18/2015	05:11:37.567	$GPGGA,051138,2541.0164,N,07947.1662,W,1,9,1.7,14,M,,M,,*5B
06/18/2015	05:11:38.547	$GPGGA,051139,2541.0164,N,07947.1645,W,1,9,1.7,14,M,,M,,*5F
06/18/2015	05:11:39.577	$GPGGA,051140,2541.0167,N,07947.1627,W,1,9,1.7,14,M,,M,,*56
06/18/2015	05:11:40.537	$GPGGA,051141,2541.0168,N,07947.1609,W,1,9,1.7,14,M,,M,,*54
06/18/2015	05:11:41.567	$GPGGA,051142,2541.0171,N,07947.1591,W,1,9,1.7,14,M,,M,,*5D
06/18/2015	05:11:42.537	$GPGGA,051143,2541.0172,N,07947.1573,W,1,9,1.7,14,M,,M,,*53
06/18/2015	05:11:43.587	$GPGGA,051144,2541.0174,N,07947.1555,W,1,9,1.7,14,M,,M,,*56
06/18/2015	05:11:44.547	$GPGGA,051145,2541.0175,N,07947.1537,W,1,9,1.7,14,M,,M,,*52
06/18/2015	05:11:45.527	$GPGGA,051146,2541.0178,N,07947.1519,W,1,9,1.7,14,M,,M,,*50
06/18/2015	05:11:46.537	$GPGGA,051147,2541.0179,N,07947.1500,W,1,9,1.7,14,M,,M,,*58
06/18/2015	05:11:47.557	$GPGGA,051148,2541.0181,N,07947.1483,W,1,9,1.7,14,M,,M,,*5A
06/18/2015	05:11:48.547	$GPGGA,051149,2541.0182,N,07947.1465,W,1,9,1.7,14,M,,M,,*50
06/18/2015	05:11:49.527	$GPGGA,051150,2541.0183,N,07947.1446,W,1,9,1.8,14,M,,M,,*57
06/18/2015	05:11:50.527	$GPGGA,051151,2541.0185,N,07947.1428,W,1,9,1.8,14,M,,M,,*58
06/18/2015	05:11:51.567	$GPGGA,051152,2541.0186,N,07947.1409,W,1,8,1.8,14,M,,M,,*5A
