Software Version Number: 1	Data File Format Number: 1	Build Version Number: 1	Error Count Since VI Started: 1	Manufacturer: Raytheon	 Model Number: RayMarine 120	 S/N: 	 Cal Date: 	 Wind Direction Offset: 0.00	 Slope (M)1: 0.00	 Offset (B)1: 0.00	 Slope (M)2: 0.00	 Offset (B)2: 0.00	 Slope (M)3: 0.00	 Offset (B)3: 0.00	 Slope (M)4: 0.00	 Offset (B)4: 0.00	 Slope (M)5: 0.00	 Offset (B)5: 0.00	 Slope (M)6: 0.00	 Offset (B)6: 0.00
Computer Date	Computer Time	GGA String
06/16/2015	09:00:00.527	$GPGGA,090001,2421.2593,N,08106.7833,W,1,9,3.1,12,M,,M,,*58
06/16/2015	09:00:01.515	$GPGGA,090002,2421.2596,N,08106.7843,W,1,8,3.1,12,M,,M,,*58
06/16/2015	09:00:02.534	$GPGGA,090003,2421.2596,N,08106.7854,W,1,8,2.3,12,M,,M,,*5C
06/16/2015	09:00:03.654	$GPGGA,090004,2421.2596,N,08106.7863,W,1,9,2.3,12,M,,M,,*5E
06/16/2015	09:00:04.554	$GPGGA,090005,2421.2596,N,08106.7874,W,1,9,2.3,12,M,,M,,*59
06/16/2015	09:00:05.534	$GPGGA,090006,2421.2596,N,08106.7886,W,1,9,2.3,12,M,,M,,*57
06/16/2015	09:00:06.514	$GPGGA,090007,2421.2596,N,08106.7897,W,1,9,2.3,12,M,,M,,*56
06/16/2015	09:00:07.534	$GPGGA,090008,2421.2596,N,08106.7906,W,1,9,2.3,12,M,,M,,*50
06/16/2015	09:00:08.504	$GPGGA,090009,2421.2594,N,08106.7915,W,1,9,2.3,12,M,,M,,*51
06/16/2015	09:00:09.594	$GPGGA,090010,2421.2596,N,08106.7924,W,1,8,3.1,13,M,,M,,*5A
06/16/2015	09:00:10.494	$GPGGA,090011,2421.2596,N,08106.7934,W,1,8,2.8,13,M,,M,,*52
06/16/2015	09:00:11.544	$GPGGA,090012,2421.2596,N,08106.7944,W,1,9,2.3,13,M,,M,,*5C
06/16/2015	09:00:12.614	$GPGGA,090013,2421.2596,N,08106.7955,W,1,9,2.3,13,M,,M,,*5D
06/16/2015	09:00:13.504	$GPGGA,090014,2421.2596,N,08106.7963,W,1,9,2.3,13,M,,M,,*5F
06/16/2015	09:00:14.505	$GPGGA,090015,2421.2592,N,08106.7973,W,1,9,3.1,13,M,,M,,*58
06/16/2015	09:00:15.515	$GPGGA,090016,2421.2592,N,08106.7981,W,1,9,2.3,13,M,,M,,*55
06/16/2015	09:00:16.485	$GPGGA,090017,2421.2594,N,08106.7991,W,1,9,2.3,14,M,,M,,*54
06/16/2015	09:00:17.627	$GPGGA,090018,2421.2595,N,08106.8000,W,1,9,2.3,14,M,,M,,*54
06/16/2015	09:00:18.595	$GPGGA,090019,2421.2596,N,08106.8010,W,1,9,2.3,14,M,,M,,*57
06/16/2015	09:00:19.604	$GPGGA,090020,2421.2596,N,08106.8021,W,1,9,2.3,14,M,,M,,*5F
06/16/2015	09:00:20.574	$GPGGA,090021,2421.2599,N,08106.8031,W,1,9,2.3,14,M,,M,,*50
06/16/2015	09:00:21.484	$GPGGA,090022,2421.2599,N,08106.8042,W,1,9,2.3,14,M,,M,,*57
06/16/2015	09:00:22.484	$GPGGA,090023,2421.2600,N,08106.8051,W,1,9,2.3,14,M,,M,,*57
06/16/2015	09:00:23.594	$GPGGA,090024,2421.2602,N,08106.8060,W,1,9,2.3,14,M,,M,,*50
06/16/2015	09:00:24.634	$GPGGA,090025,2421.2603,N,08106.8071,W,1,9,2.3,15,M,,M,,*51
06/16/2015	09:00:25.594	$GPGGA,090026,2421.2603,N,08106.8082,W,1,9,2.3,15,M,,M,,*5E
06/16/2015	09:00:26.574	$GPGGA,090027,2421.2605,N,08106.8092,W,1,9,2.3,15,M,,M,,*58
06/16/2015	09:00:27.604	$GPGGA,090028,2421.2606,N,08106.8103,W,1,9,2.3,15,M,,M,,*5D
06/16/2015	09:00:28.554	$GPGGA,090029,2421.2607,N,08106.8114,W,1,9,2.3,15,M,,M,,*5B
06/16/2015	09:00:29.640	$GPGGA,090030,2421.2607,N,08106.8123,W,1,8,2.4,14,M,,M,,*50
06/16/2015	09:00:30.564	$GPGGA,090031,2421.2607,N,08106.8133,W,1,8,2.3,14,M,,M,,*57
06/16/2015	09:00:31.605	$GPGGA,090032,2421.2607,N,08106.8143,W,1,9,2.3,14,M,,M,,*52
06/16/2015	09:00:32.565	$GPGGA,090033,2421.2607,N,08106.8154,W,1,9,2.3,14,M,,M,,*55
06/16/2015	09:00:34.081	$GPGGA,090034,2421.2607,N,08106.8165,W,1,9,2.3,14,M,,M,,*50
06/16/2015	09:00:34.555	$GPGGA,090035,2421.2607,N,08106.8176,W,1,9,2.3,14,M,,M,,*53
06/16/2015	09:00:35.575	$GPGGA,090036,2421.2607,N,08106.8186,W,1,9,2.3,14,M,,M,,*5F
06/16/2015	09:00:36.555	$GPGGA,090037,2421.2609,N,08106.8197,W,1,9,2.3,14,M,,M,,*50
06/16/2015	09:00:37.564	$GPGGA,090038,2421.2608,N,08106.8206,W,1,9,2.3,14,M,,M,,*55
06/16/2015	09:00:38.544	$GPGGA,090039,2421.2609,N,08106.8217,W,1,9,2.3,14,M,,M,,*55
06/16/2015	09:00:39.584	$GPGGA,090040,2421.2610,N,08106.8228,W,1,9,2.3,14,M,,M,,*5F
06/16/2015	09:00:40.534	$GPGGA,090041,2421.2610,N,08106.8240,W,1,9,2.3,14,M,,M,,*50
06/16/2015	09:00:41.564	$GPGGA,090042,2421.2610,N,08106.8249,W,1,9,2.3,14,M,,M,,*5A
06/16/2015	09:00:43.604	$GPGGA,090044,2421.2613,N,08106.8270,W,1,9,2.3,14,M,,M,,*55
06/16/2015	09:00:44.539	$GPGGA,090045,2421.2612,N,08106.8281,W,1,9,2.3,14,M,,M,,*5B
06/16/2015	09:00:45.554	$GPGGA,090046,2421.2613,N,08106.8292,W,1,8,2.4,14,M,,M,,*5D
06/16/2015	09:00:46.537	$GPGGA,090047,2421.2614,N,08106.8303,W,1,8,2.3,14,M,,M,,*55
06/16/2015	09:00:47.574	$GPGGA,090048,2421.2616,N,08106.8313,W,1,9,2.3,14,M,,M,,*58
06/16/2015	09:00:48.524	$GPGGA,090049,2421.2614,N,08106.8324,W,1,9,2.4,14,M,,M,,*58
06/16/2015	09:00:49.525	$GPGGA,090050,2421.2616,N,08106.8335,W,1,9,2.3,14,M,,M,,*55
06/16/2015	09:00:50.515	$GPGGA,090051,2421.2617,N,08106.8345,W,1,9,2.3,14,M,,M,,*52
06/16/2015	09:00:51.565	$GPGGA,090052,2421.2618,N,08106.8356,W,1,8,2.4,14,M,,M,,*5A
06/16/2015	09:00:52.526	$GPGGA,090053,2421.2618,N,08106.8367,W,1,8,2.3,14,M,,M,,*5E
06/16/2015	09:00:53.545	$GPGGA,090054,2421.2618,N,08106.8378,W,1,9,2.3,14,M,,M,,*56
06/16/2015	09:00:54.529	$GPGGA,090055,2421.2620,N,08106.8389,W,1,9,2.3,14,M,,M,,*52
06/16/2015	09:00:55.684	$GPGGA,090056,2421.2619,N,08106.8400,W,1,8,2.3,14,M,,M,,*5C
06/16/2015	09:00:56.514	$GPGGA,090057,2421.2621,N,08106.8411,W,1,8,2.3,14,M,,M,,*56
06/16/2015	09:00:57.644	$GPGGA,090058,2421.2621,N,08106.8422,W,1,8,2.3,14,M,,M,,*59
06/16/2015	09:00:58.504	$GPGGA,090059,2421.2621,N,08106.8433,W,1,8,2.3,14,M,,M,,*58
06/16/2015	09:00:59.737	$GPGGA,090100,2421.2621,N,08106.8444,W,1,9,2.3,14,M,,M,,*54
06/16/2015	09:01:00.514	$GPGGA,090101,2421.2621,N,08106.8455,W,1,9,2.3,14,M,,M,,*55
06/16/2015	09:01:01.514	$GPGGA,090102,2421.2621,N,08106.8465,W,1,9,2.3,14,M,,M,,*55
06/16/2015	09:01:02.494	$GPGGA,090103,2421.2621,N,08106.8476,W,1,9,2.3,14,M,,M,,*56
06/16/2015	09:01:03.604	$GPGGA,090104,2421.2623,N,08106.8487,W,1,9,2.3,14,M,,M,,*5D
06/16/2015	09:01:04.504	$GPGGA,090105,2421.2622,N,08106.8498,W,1,9,2.3,15,M,,M,,*52
06/16/2015	09:01:05.504	$GPGGA,090106,2421.2623,N,08106.8509,W,1,8,2.5,15,M,,M,,*5E
06/16/2015	09:01:06.485	$GPGGA,090107,2421.2622,N,08106.8520,W,1,8,2.3,15,M,,M,,*53
06/16/2015	09:01:07.505	$GPGGA,090108,2421.2621,N,08106.8531,W,1,9,2.3,15,M,,M,,*5E
06/16/2015	09:01:08.895	$GPGGA,090109,2421.2621,N,08106.8541,W,1,9,2.3,15,M,,M,,*58
06/16/2015	09:01:09.575	$GPGGA,090110,2421.2623,N,08106.8551,W,1,8,2.8,15,M,,M,,*59
06/16/2015	09:01:10.655	$GPGGA,090111,2421.2622,N,08106.8562,W,1,8,2.3,15,M,,M,,*52
06/16/2015	09:01:11.585	$GPGGA,090112,2421.2623,N,08106.8573,W,1,9,2.3,15,M,,M,,*51
06/16/2015	09:01:12.644	$GPGGA,090113,2421.2622,N,08106.8584,W,1,9,2.3,15,M,,M,,*59
06/16/2015	09:01:13.626	$GPGGA,090114,2421.2623,N,08106.8592,W,1,9,2.3,15,M,,M,,*58
06/16/2015	09:01:14.638	$GPGGA,090115,2421.2622,N,08106.8602,W,1,9,2.3,15,M,,M,,*52
06/16/2015	09:01:15.664	$GPGGA,090116,2421.2623,N,08106.8613,W,1,9,2.3,15,M,,M,,*50
06/16/2015	09:01:16.636	$GPGGA,090117,2421.2622,N,08106.8624,W,1,9,2.3,15,M,,M,,*54
06/16/2015	09:01:17.626	$GPGGA,090118,2421.2621,N,08106.8634,W,1,9,2.3,15,M,,M,,*59
06/16/2015	09:01:18.638	$GPGGA,090119,2421.2621,N,08106.8645,W,1,9,2.3,15,M,,M,,*5E
06/16/2015	09:01:19.654	$GPGGA,090120,2421.2621,N,08106.8656,W,1,9,2.3,15,M,,M,,*56
06/16/2015	09:01:20.636	$GPGGA,090121,2421.2621,N,08106.8665,W,1,9,2.3,15,M,,M,,*57
06/16/2015	09:01:21.564	$GPGGA,090122,2421.2621,N,08106.8675,W,1,9,2.3,16,M,,M,,*56
06/16/2015	09:01:22.626	$GPGGA,090123,2421.2621,N,08106.8686,W,1,9,2.3,16,M,,M,,*5B
06/16/2015	09:01:23.604	$GPGGA,090124,2421.2621,N,08106.8699,W,1,9,2.3,16,M,,M,,*52
06/16/2015	09:01:24.631	$GPGGA,090125,2421.2621,N,08106.8710,W,1,9,2.3,16,M,,M,,*53
06/16/2015	09:01:25.605	$GPGGA,090126,2421.2621,N,08106.8721,W,1,9,2.3,16,M,,M,,*52
06/16/2015	09:01:26.605	$GPGGA,090127,2421.2621,N,08106.8730,W,1,9,2.3,16,M,,M,,*53
06/16/2015	09:01:27.595	$GPGGA,090128,2421.2621,N,08106.8740,W,1,9,2.3,16,M,,M,,*5B
06/16/2015	09:01:28.605	$GPGGA,090129,2421.2619,N,08106.8750,W,1,9,2.3,16,M,,M,,*50
06/16/2015	09:01:29.537	$GPGGA,090130,2421.2620,N,08106.8761,W,1,9,2.3,16,M,,M,,*50
06/16/2015	09:01:30.604	$GPGGA,090131,2421.2621,N,08106.8770,W,1,9,2.3,17,M,,M,,*51
06/16/2015	09:01:31.654	$GPGGA,090132,2421.2619,N,08106.8782,W,1,9,2.3,17,M,,M,,*54
06/16/2015	09:01:32.595	$GPGGA,090133,2421.2620,N,08106.8793,W,1,9,2.3,17,M,,M,,*5F
06/16/2015	09:01:33.614	$GPGGA,090134,2421.2618,N,08106.8802,W,1,9,2.3,17,M,,M,,*54
06/16/2015	09:01:34.525	$GPGGA,090135,2421.2618,N,08106.8812,W,1,9,2.3,17,M,,M,,*54
06/16/2015	09:01:35.594	$GPGGA,090136,2421.2620,N,08106.8822,W,1,9,2.3,17,M,,M,,*5F
06/16/2015	09:01:36.584	$GPGGA,090137,2421.2619,N,08106.8833,W,1,9,2.3,17,M,,M,,*54
06/16/2015	09:01:37.544	$GPGGA,090138,2421.2618,N,08106.8842,W,1,9,2.3,17,M,,M,,*5C
06/16/2015	09:01:38.537	$GPGGA,090139,2421.2617,N,08106.8852,W,1,9,2.3,17,M,,M,,*53
06/16/2015	09:01:39.604	$GPGGA,090140,2421.2618,N,08106.8863,W,1,9,2.3,18,M,,M,,*5F
06/16/2015	09:01:40.524	$GPGGA,090141,2421.2617,N,08106.8874,W,1,9,2.3,18,M,,M,,*57
06/16/2015	09:01:41.639	$GPGGA,090142,2421.2618,N,08106.8884,W,1,9,2.3,18,M,,M,,*54
06/16/2015	09:01:42.515	$GPGGA,090143,2421.2618,N,08106.8895,W,1,9,2.3,18,M,,M,,*55
06/16/2015	09:01:43.585	$GPGGA,090144,2421.2617,N,08106.8905,W,1,9,2.3,18,M,,M,,*55
06/16/2015	09:01:44.575	$GPGGA,090145,2421.2617,N,08106.8916,W,1,9,2.3,18,M,,M,,*56
06/16/2015	09:01:45.625	$GPGGA,090146,2421.2616,N,08106.8925,W,1,9,2.3,18,M,,M,,*54
06/16/2015	09:01:46.575	$GPGGA,090147,2421.2617,N,08106.8935,W,1,9,2.3,18,M,,M,,*55
06/16/2015	09:01:47.654	$GPGGA,090148,2421.2617,N,08106.8945,W,1,9,2.3,18,M,,M,,*5D
06/16/2015	09:01:48.574	$GPGGA,090149,2421.2617,N,08106.8956,W,1,9,2.3,18,M,,M,,*5E
06/16/2015	09:01:49.544	$GPGGA,090150,2421.2616,N,08106.8967,W,1,9,2.3,18,M,,M,,*55
06/16/2015	09:01:50.554	$GPGGA,090151,2421.2617,N,08106.8977,W,1,9,2.3,18,M,,M,,*54
06/16/2015	09:01:51.640	$GPGGA,090152,2421.2616,N,08106.8986,W,1,9,2.3,18,M,,M,,*58
06/16/2015	09:01:52.564	$GPGGA,090153,2421.2615,N,08106.8996,W,1,9,2.3,18,M,,M,,*5B
06/16/2015	09:01:53.584	$GPGGA,090154,2421.2617,N,08106.9004,W,1,9,2.3,18,M,,M,,*5D
06/16/2015	09:01:54.584	$GPGGA,090155,2421.2617,N,08106.9014,W,1,9,2.3,18,M,,M,,*5D
06/16/2015	09:01:55.504	$GPGGA,090156,2421.2617,N,08106.9025,W,1,9,2.3,18,M,,M,,*5C
06/16/2015	09:01:56.554	$GPGGA,090157,2421.2617,N,08106.9035,W,1,9,2.3,18,M,,M,,*5C
06/16/2015	09:01:57.504	$GPGGA,090158,2421.2617,N,08106.9046,W,1,9,2.3,18,M,,M,,*57
06/16/2015	09:01:58.574	$GPGGA,090159,2421.2617,N,08106.9055,W,1,9,2.3,18,M,,M,,*54
06/16/2015	09:01:59.605	$GPGGA,090200,2421.2618,N,08106.9065,W,1,9,2.3,18,M,,M,,*57
06/16/2015	09:02:00.585	$GPGGA,090201,2421.2618,N,08106.9075,W,1,9,2.3,18,M,,M,,*57
06/16/2015	09:02:01.575	$GPGGA,090202,2421.2620,N,08106.9084,W,1,9,2.5,18,M,,M,,*57
06/16/2015	09:02:02.575	$GPGGA,090203,2421.2619,N,08106.9095,W,1,9,2.3,18,M,,M,,*5A
06/16/2015	09:02:03.605	$GPGGA,090204,2421.2621,N,08106.9107,W,1,9,2.5,18,M,,M,,*5A
06/16/2015	09:02:04.584	$GPGGA,090205,2421.2621,N,08106.9118,W,1,9,2.5,18,M,,M,,*55
06/16/2015	09:02:05.584	$GPGGA,090206,2421.2621,N,08106.9127,W,1,8,2.5,18,M,,M,,*5B
06/16/2015	09:02:06.574	$GPGGA,090207,2421.2621,N,08106.9137,W,1,8,2.3,18,M,,M,,*5D
06/16/2015	09:02:07.604	$GPGGA,090208,2421.2621,N,08106.9147,W,1,9,2.5,18,M,,M,,*52
06/16/2015	09:02:08.564	$GPGGA,090209,2421.2623,N,08106.9156,W,1,9,2.3,18,M,,M,,*57
06/16/2015	09:02:09.584	$GPGGA,090210,2421.2622,N,08106.9167,W,1,9,2.3,18,M,,M,,*5C
06/16/2015	09:02:10.584	$GPGGA,090211,2421.2623,N,08106.9180,W,1,9,2.3,18,M,,M,,*55
06/16/2015	09:02:11.614	$GPGGA,090212,2421.2622,N,08106.9191,W,1,9,2.3,18,M,,M,,*57
06/16/2015	09:02:12.554	$GPGGA,090213,2421.2624,N,08106.9201,W,1,9,2.3,18,M,,M,,*5A
06/16/2015	09:02:13.604	$GPGGA,090214,2421.2623,N,08106.9210,W,1,9,2.3,18,M,,M,,*5A
06/16/2015	09:02:14.554	$GPGGA,090215,2421.2624,N,08106.9219,W,1,9,2.5,18,M,,M,,*53
06/16/2015	09:02:15.594	$GPGGA,090216,2421.2625,N,08106.9230,W,1,8,2.3,18,M,,M,,*5D
06/16/2015	09:02:16.575	$GPGGA,090217,2421.2625,N,08106.9230,W,1,8,2.3,18,M,,M,,*5C
06/16/2015	09:02:17.565	$GPGGA,090218,2421.2627,N,08106.9250,W,1,8,2.3,18,M,,M,,*57
06/16/2015	09:02:18.555	$GPGGA,090219,2421.2625,N,08106.9261,W,1,8,2.3,18,M,,M,,*56
06/16/2015	09:02:19.585	$GPGGA,090220,2421.2627,N,08106.9270,W,1,8,2.5,18,M,,M,,*58
06/16/2015	09:02:20.545	$GPGGA,090221,2421.2628,N,08106.9278,W,1,8,2.5,18,M,,M,,*5E
06/16/2015	09:02:21.575	$GPGGA,090222,2421.2628,N,08106.9288,W,1,8,2.5,18,M,,M,,*52
06/16/2015	09:02:22.554	$GPGGA,090223,2421.2630,N,08106.9299,W,1,8,2.5,18,M,,M,,*5A
06/16/2015	09:02:23.574	$GPGGA,090224,2421.2631,N,08106.9307,W,1,8,2.6,18,M,,M,,*59
06/16/2015	09:02:24.564	$GPGGA,090225,2421.2632,N,08106.9321,W,1,8,2.3,18,M,,M,,*5A
06/16/2015	09:02:25.526	$GPGGA,090226,2421.2632,N,08106.9329,W,1,9,2.3,18,M,,M,,*50
06/16/2015	09:02:26.554	$GPGGA,090227,2421.2632,N,08106.9339,W,1,9,2.6,18,M,,M,,*55
06/16/2015	09:02:27.574	$GPGGA,090228,2421.2634,N,08106.9348,W,1,8,2.3,18,M,,M,,*5E
06/16/2015	09:02:28.554	$GPGGA,090229,2421.2635,N,08106.9357,W,1,8,2.3,18,M,,M,,*50
06/16/2015	09:02:29.994	$GPGGA,090230,2421.2635,N,08106.9366,W,1,9,2.3,18,M,,M,,*5B
06/16/2015	09:02:30.544	$GPGGA,090231,2421.2635,N,08106.9366,W,1,9,2.3,18,M,,M,,*5A
06/16/2015	09:02:31.544	$GPGGA,090232,2421.2636,N,08106.9387,W,1,9,2.3,18,M,,M,,*55
06/16/2015	09:02:32.630	$GPGGA,090233,2421.2638,N,08106.9397,W,1,9,2.3,18,M,,M,,*5B
06/16/2015	09:02:33.534	$GPGGA,090234,2421.2636,N,08106.9408,W,1,8,2.5,18,M,,M,,*54
06/16/2015	09:02:34.525	$GPGGA,090235,2421.2636,N,08106.9408,W,1,8,2.3,18,M,,M,,*53
06/16/2015	09:02:35.615	$GPGGA,090236,2421.2636,N,08106.9430,W,1,9,2.3,18,M,,M,,*5A
06/16/2015	09:02:36.555	$GPGGA,090237,2421.2636,N,08106.9441,W,1,9,2.5,18,M,,M,,*5B
06/16/2015	09:02:37.631	$GPGGA,090238,2421.2636,N,08106.9452,W,1,8,2.5,18,M,,M,,*57
06/16/2015	09:02:38.515	$GPGGA,090239,2421.2636,N,08106.9452,W,1,8,2.3,18,M,,M,,*50
06/16/2015	09:02:39.504	$GPGGA,090240,2421.2636,N,08106.9473,W,1,9,2.3,18,M,,M,,*5C
06/16/2015	09:02:40.614	$GPGGA,090241,2421.2636,N,08106.9483,W,1,9,2.3,19,M,,M,,*53
06/16/2015	09:02:41.614	$GPGGA,090242,2421.2638,N,08106.9492,W,1,9,2.3,19,M,,M,,*5E
06/16/2015	09:02:42.595	$GPGGA,090243,2421.2636,N,08106.9502,W,1,9,2.3,19,M,,M,,*59
06/16/2015	09:02:43.614	$GPGGA,090244,2421.2638,N,08106.9512,W,1,9,2.3,19,M,,M,,*51
06/16/2015	09:02:44.594	$GPGGA,090245,2421.2637,N,08106.9524,W,1,9,2.3,19,M,,M,,*5A
06/16/2015	09:02:45.584	$GPGGA,090246,2421.2638,N,08106.9534,W,1,9,2.3,19,M,,M,,*57
06/16/2015	09:02:46.504	$GPGGA,090247,2421.2638,N,08106.9534,W,1,9,2.3,19,M,,M,,*56
06/16/2015	09:02:47.594	$GPGGA,090248,2421.2638,N,08106.9553,W,1,8,2.8,20,M,,M,,*58
06/16/2015	09:02:48.584	$GPGGA,090249,2421.2637,N,08106.9563,W,1,8,2.8,20,M,,M,,*55
06/16/2015	09:02:49.574	$GPGGA,090250,2421.2639,N,08106.9574,W,1,9,2.3,20,M,,M,,*5F
06/16/2015	09:02:50.574	$GPGGA,090251,2421.2637,N,08106.9584,W,1,9,2.3,20,M,,M,,*5F
06/16/2015	09:02:51.595	$GPGGA,090252,2421.2639,N,08106.9593,W,1,9,2.3,20,M,,M,,*54
06/16/2015	09:02:52.575	$GPGGA,090253,2421.2639,N,08106.9603,W,1,9,2.3,20,M,,M,,*5F
06/16/2015	09:02:53.575	$GPGGA,090254,2421.2639,N,08106.9613,W,1,9,2.3,21,M,,M,,*58
06/16/2015	09:02:54.585	$GPGGA,090255,2421.2639,N,08106.9622,W,1,9,2.3,21,M,,M,,*5B
06/16/2015	09:02:55.585	$GPGGA,090256,2421.2641,N,08106.9632,W,1,9,2.3,21,M,,M,,*56
06/16/2015	09:02:56.575	$GPGGA,090257,2421.2642,N,08106.9642,W,1,9,2.3,21,M,,M,,*53
06/16/2015	09:02:57.584	$GPGGA,090258,2421.2640,N,08106.9653,W,1,9,2.3,21,M,,M,,*5E
06/16/2015	09:02:58.554	$GPGGA,090259,2421.2642,N,08106.9661,W,1,9,2.3,21,M,,M,,*5C
06/16/2015	09:02:59.604	$GPGGA,090300,2421.2643,N,08106.9671,W,1,9,2.3,21,M,,M,,*51
06/16/2015	09:03:00.564	$GPGGA,090301,2421.2641,N,08106.9682,W,1,9,2.3,21,M,,M,,*5E
06/16/2015	09:03:01.554	$GPGGA,090302,2421.2642,N,08106.9691,W,1,9,2.3,22,M,,M,,*5F
06/16/2015	09:03:02.564	$GPGGA,090303,2421.2641,N,08106.9701,W,1,9,2.3,22,M,,M,,*55
06/16/2015	09:03:03.584	$GPGGA,090304,2421.2643,N,08106.9712,W,1,9,2.3,22,M,,M,,*52
06/16/2015	09:03:04.544	$GPGGA,090305,2421.2641,N,08106.9722,W,1,9,2.3,22,M,,M,,*52
06/16/2015	09:03:05.544	$GPGGA,090306,2421.2642,N,08106.9733,W,1,9,2.3,22,M,,M,,*52
06/16/2015	09:03:06.554	$GPGGA,090307,2421.2641,N,08106.9743,W,1,9,2.3,22,M,,M,,*57
06/16/2015	09:03:07.574	$GPGGA,090308,2421.2642,N,08106.9752,W,1,9,2.3,22,M,,M,,*5B
06/16/2015	09:03:08.554	$GPGGA,090309,2421.2641,N,08106.9763,W,1,9,2.3,22,M,,M,,*5B
06/16/2015	09:03:09.565	$GPGGA,090310,2421.2642,N,08106.9774,W,1,9,2.3,22,M,,M,,*56
06/16/2015	09:03:10.545	$GPGGA,090311,2421.2640,N,08106.9784,W,1,9,2.3,22,M,,M,,*5A
06/16/2015	09:03:11.575	$GPGGA,090312,2421.2641,N,08106.9795,W,1,8,2.3,22,M,,M,,*59
06/16/2015	09:03:12.545	$GPGGA,090313,2421.2640,N,08106.9805,W,1,8,2.3,22,M,,M,,*5F
06/16/2015	09:03:13.565	$GPGGA,090314,2421.2641,N,08106.9816,W,1,9,2.3,22,M,,M,,*5A
06/16/2015	09:03:14.554	$GPGGA,090315,2421.2640,N,08106.9827,W,1,9,2.3,22,M,,M,,*58
06/16/2015	09:03:15.674	$GPGGA,090316,2421.2639,N,08106.9837,W,1,9,2.3,22,M,,M,,*54
06/16/2015	09:03:16.534	$GPGGA,090317,2421.2641,N,08106.9848,W,1,9,2.3,22,M,,M,,*52
06/16/2015	09:03:17.554	$GPGGA,090318,2421.2639,N,08106.9857,W,1,9,2.3,22,M,,M,,*5C
06/16/2015	09:03:18.534	$GPGGA,090319,2421.2639,N,08106.9867,W,1,9,2.3,22,M,,M,,*5E
06/16/2015	09:03:19.639	$GPGGA,090320,2421.2641,N,08106.9877,W,1,9,2.3,22,M,,M,,*5A
06/16/2015	09:03:20.514	$GPGGA,090321,2421.2640,N,08106.9886,W,1,9,2.3,22,M,,M,,*54
06/16/2015	09:03:21.544	$GPGGA,090322,2421.2641,N,08106.9896,W,1,9,2.3,22,M,,M,,*57
06/16/2015	09:03:22.527	$GPGGA,090323,2421.2639,N,08106.9908,W,1,9,2.3,22,M,,M,,*5F
06/16/2015	09:03:23.544	$GPGGA,090324,2421.2639,N,08106.9918,W,1,9,2.3,22,M,,M,,*59
06/16/2015	09:03:24.524	$GPGGA,090325,2421.2641,N,08106.9929,W,1,9,2.3,22,M,,M,,*55
06/16/2015	09:03:25.514	$GPGGA,090326,2421.2640,N,08106.9939,W,1,9,2.3,22,M,,M,,*56
06/16/2015	09:03:26.506	$GPGGA,090327,2421.2641,N,08106.9949,W,1,9,2.3,22,M,,M,,*51
06/16/2015	09:03:27.515	$GPGGA,090328,2421.2640,N,08106.9960,W,1,9,2.3,22,M,,M,,*54
06/16/2015	09:03:28.595	$GPGGA,090329,2421.2641,N,08106.9969,W,1,9,2.3,22,M,,M,,*5D
06/16/2015	09:03:29.505	$GPGGA,090330,2421.2642,N,08106.9980,W,1,8,2.5,22,M,,M,,*56
06/16/2015	09:03:30.515	$GPGGA,090331,2421.2641,N,08106.9991,W,1,8,2.5,22,M,,M,,*54
06/16/2015	09:03:31.515	$GPGGA,090332,2421.2642,N,08107.0003,W,1,9,2.3,22,M,,M,,*59
06/16/2015	09:03:32.504	$GPGGA,090333,2421.2640,N,08107.0012,W,1,9,2.3,22,M,,M,,*5A
06/16/2015	09:03:33.627	$GPGGA,090334,2421.2642,N,08107.0022,W,1,9,2.3,22,M,,M,,*5C
06/16/2015	09:03:34.584	$GPGGA,090335,2421.2643,N,08107.0032,W,1,9,2.3,22,M,,M,,*5D
06/16/2015	09:03:35.615	$GPGGA,090336,2421.2643,N,08107.0043,W,1,8,2.5,22,M,,M,,*5F
06/16/2015	09:03:36.585	$GPGGA,090337,2421.2643,N,08107.0052,W,1,8,2.3,22,M,,M,,*58
06/16/2015	09:03:37.584	$GPGGA,090338,2421.2645,N,08107.0062,W,1,8,2.3,22,M,,M,,*52
06/16/2015	09:03:38.494	$GPGGA,090339,2421.2644,N,08107.0072,W,1,8,2.5,22,M,,M,,*55
06/16/2015	09:03:39.494	$GPGGA,090340,2421.2646,N,08107.0083,W,1,8,2.3,22,M,,M,,*51
06/16/2015	09:03:40.574	$GPGGA,090341,2421.2646,N,08107.0092,W,1,8,2.5,22,M,,M,,*56
06/16/2015	09:03:41.574	$GPGGA,090342,2421.2648,N,08107.0101,W,1,8,2.5,22,M,,M,,*50
06/16/2015	09:03:42.574	$GPGGA,090343,2421.2649,N,08107.0112,W,1,8,2.5,22,M,,M,,*52
06/16/2015	09:03:43.584	$GPGGA,090344,2421.2648,N,08107.0121,W,1,9,2.3,22,M,,M,,*53
06/16/2015	09:03:44.595	$GPGGA,090345,2421.2650,N,08107.0133,W,1,9,2.3,22,M,,M,,*58
06/16/2015	09:03:45.575	$GPGGA,090346,2421.2652,N,08107.0141,W,1,9,2.3,22,M,,M,,*5C
06/16/2015	09:03:46.565	$GPGGA,090347,2421.2651,N,08107.0152,W,1,9,2.5,22,M,,M,,*5A
06/16/2015	09:03:47.615	$GPGGA,090348,2421.2653,N,08107.0163,W,1,8,2.5,21,M,,M,,*57
06/16/2015	09:03:48.565	$GPGGA,090349,2421.2654,N,08107.0173,W,1,8,2.5,21,M,,M,,*50
06/16/2015	09:03:49.574	$GPGGA,090350,2421.2654,N,08107.0184,W,1,9,2.3,21,M,,M,,*57
06/16/2015	09:03:50.554	$GPGGA,090351,2421.2654,N,08107.0195,W,1,9,2.3,21,M,,M,,*56
06/16/2015	09:03:51.584	$GPGGA,090352,2421.2656,N,08107.0207,W,1,8,2.3,21,M,,M,,*5E
06/16/2015	09:03:53.604	$GPGGA,090354,2421.2654,N,08107.0231,W,1,9,2.3,21,M,,M,,*5E
06/16/2015	09:03:54.554	$GPGGA,090355,2421.2656,N,08107.0243,W,1,9,2.3,21,M,,M,,*58
06/16/2015	09:03:55.564	$GPGGA,090356,2421.2655,N,08107.0254,W,1,9,2.3,21,M,,M,,*5E
06/16/2015	09:03:56.554	$GPGGA,090357,2421.2657,N,08107.0264,W,1,9,2.3,21,M,,M,,*5E
06/16/2015	09:03:57.534	$GPGGA,090358,2421.2659,N,08107.0274,W,1,7,2.7,21,M,,M,,*54
06/16/2015	09:03:58.544	$GPGGA,090359,2421.2660,N,08107.0283,W,1,7,2.5,21,M,,M,,*55
06/16/2015	09:03:59.574	$GPGGA,090400,2421.2661,N,08107.0293,W,1,8,2.5,21,M,,M,,*51
06/16/2015	09:04:01.595	$GPGGA,090402,2421.2661,N,08107.0314,W,1,9,2.3,21,M,,M,,*5A
06/16/2015	09:04:02.545	$GPGGA,090403,2421.2663,N,08107.0322,W,1,9,2.3,21,M,,M,,*5C
06/16/2015	09:04:03.565	$GPGGA,090404,2421.2664,N,08107.0333,W,1,8,2.5,21,M,,M,,*5B
06/16/2015	09:04:04.528	$GPGGA,090405,2421.2665,N,08107.0343,W,1,8,2.5,21,M,,M,,*5C
06/16/2015	09:04:05.525	$GPGGA,090406,2421.2665,N,08107.0354,W,1,8,2.5,21,M,,M,,*59
06/16/2015	09:04:06.535	$GPGGA,090407,2421.2667,N,08107.0365,W,1,8,2.3,21,M,,M,,*5E
06/16/2015	09:04:07.554	$GPGGA,090408,2421.2666,N,08107.0376,W,1,8,2.3,21,M,,M,,*52
06/16/2015	09:04:08.643	$GPGGA,090409,2421.2668,N,08107.0387,W,1,8,2.3,21,M,,M,,*53
06/16/2015	09:04:09.544	$GPGGA,090410,2421.2668,N,08107.0397,W,1,9,2.3,21,M,,M,,*5B
06/16/2015	09:04:10.514	$GPGGA,090411,2421.2668,N,08107.0408,W,1,9,2.3,21,M,,M,,*5B
06/16/2015	09:04:11.643	$GPGGA,090412,2421.2670,N,08107.0419,W,1,9,2.3,21,M,,M,,*51
06/16/2015	09:04:12.514	$GPGGA,090413,2421.2668,N,08107.0430,W,1,9,2.3,21,M,,M,,*52
06/16/2015	09:04:13.539	$GPGGA,090414,2421.2668,N,08107.0438,W,1,8,2.8,21,M,,M,,*57
06/16/2015	09:04:14.604	$GPGGA,090415,2421.2670,N,08107.0446,W,1,8,2.3,21,M,,M,,*5D
06/16/2015	09:04:15.644	$GPGGA,090416,2421.2671,N,08107.0456,W,1,9,2.3,21,M,,M,,*5F
06/16/2015	09:04:16.514	$GPGGA,090417,2421.2670,N,08107.0466,W,1,9,2.3,21,M,,M,,*5C
06/16/2015	09:04:17.525	$GPGGA,090418,2421.2671,N,08107.0477,W,1,9,2.3,21,M,,M,,*52
06/16/2015	09:04:18.594	$GPGGA,090419,2421.2670,N,08107.0488,W,1,9,2.3,21,M,,M,,*52
06/16/2015	09:04:19.640	$GPGGA,090420,2421.2671,N,08107.0499,W,1,9,2.3,21,M,,M,,*59
06/16/2015	09:04:20.515	$GPGGA,090421,2421.2670,N,08107.0509,W,1,9,2.3,21,M,,M,,*51
06/16/2015	09:04:21.495	$GPGGA,090422,2421.2671,N,08107.0520,W,1,9,2.3,21,M,,M,,*58
06/16/2015	09:04:22.495	$GPGGA,090423,2421.2670,N,08107.0531,W,1,9,2.3,21,M,,M,,*58
06/16/2015	09:04:23.645	$GPGGA,090424,2421.2671,N,08107.0540,W,1,9,2.3,21,M,,M,,*58
06/16/2015	09:04:24.584	$GPGGA,090425,2421.2672,N,08107.0551,W,1,9,2.3,22,M,,M,,*59
06/16/2015	09:04:25.594	$GPGGA,090426,2421.2672,N,08107.0561,W,1,9,2.3,22,M,,M,,*59
06/16/2015	09:04:26.594	$GPGGA,090427,2421.2672,N,08107.0572,W,1,9,2.3,22,M,,M,,*5A
06/16/2015	09:04:27.604	$GPGGA,090428,2421.2670,N,08107.0583,W,1,9,2.3,22,M,,M,,*59
06/16/2015	09:04:28.584	$GPGGA,090429,2421.2672,N,08107.0594,W,1,9,2.3,22,M,,M,,*5C
06/16/2015	09:04:29.574	$GPGGA,090430,2421.2672,N,08107.0605,W,1,9,2.3,22,M,,M,,*5F
06/16/2015	09:04:30.574	$GPGGA,090431,2421.2672,N,08107.0615,W,1,9,2.3,22,M,,M,,*5F
06/16/2015	09:04:31.584	$GPGGA,090432,2421.2672,N,08107.0626,W,1,9,2.3,22,M,,M,,*5C
06/16/2015	09:04:32.574	$GPGGA,090433,2421.2672,N,08107.0637,W,1,9,2.3,22,M,,M,,*5D
06/16/2015	09:04:33.614	$GPGGA,090434,2421.2672,N,08107.0647,W,1,9,2.3,22,M,,M,,*5D
06/16/2015	09:04:34.574	$GPGGA,090435,2421.2672,N,08107.0659,W,1,9,2.3,22,M,,M,,*53
06/16/2015	09:04:35.604	$GPGGA,090436,2421.2672,N,08107.0669,W,1,9,2.3,22,M,,M,,*53
06/16/2015	09:04:36.565	$GPGGA,090437,2421.2672,N,08107.0680,W,1,9,2.3,22,M,,M,,*55
06/16/2015	09:04:37.555	$GPGGA,090438,2421.2672,N,08107.0690,W,1,9,2.3,22,M,,M,,*5B
06/16/2015	09:04:38.565	$GPGGA,090439,2421.2672,N,08107.0701,W,1,9,2.3,22,M,,M,,*53
06/16/2015	09:04:39.565	$GPGGA,090440,2421.2670,N,08107.0712,W,1,9,2.3,22,M,,M,,*5D
06/16/2015	09:04:40.565	$GPGGA,090441,2421.2671,N,08107.0723,W,1,9,2.3,22,M,,M,,*5F
06/16/2015	09:04:41.574	$GPGGA,090442,2421.2669,N,08107.0733,W,1,9,2.3,22,M,,M,,*54
06/16/2015	09:04:42.564	$GPGGA,090443,2421.2670,N,08107.0744,W,1,9,2.3,22,M,,M,,*5D
06/16/2015	09:04:43.584	$GPGGA,090444,2421.2669,N,08107.0755,W,1,9,2.3,22,M,,M,,*52
06/16/2015	09:04:44.554	$GPGGA,090445,2421.2670,N,08107.0766,W,1,9,2.3,22,M,,M,,*5B
06/16/2015	09:04:45.584	$GPGGA,090446,2421.2668,N,08107.0777,W,1,9,2.3,22,M,,M,,*51
06/16/2015	09:04:46.537	$GPGGA,090447,2421.2668,N,08107.0787,W,1,9,2.3,22,M,,M,,*5F
06/16/2015	09:04:47.554	$GPGGA,090448,2421.2670,N,08107.0798,W,1,9,2.3,22,M,,M,,*57
06/16/2015	09:04:48.534	$GPGGA,090449,2421.2669,N,08107.0807,W,1,9,2.3,22,M,,M,,*57
06/16/2015	09:04:49.542	$GPGGA,090450,2421.2668,N,08107.0818,W,1,9,2.3,22,M,,M,,*50
06/16/2015	09:04:50.554	$GPGGA,090451,2421.2670,N,08107.0828,W,1,9,2.3,22,M,,M,,*5B
06/16/2015	09:04:51.544	$GPGGA,090452,2421.2671,N,08107.0838,W,1,8,2.5,22,M,,M,,*5F
06/16/2015	09:04:52.544	$GPGGA,090453,2421.2670,N,08107.0849,W,1,8,2.7,22,M,,M,,*5B
06/16/2015	09:04:53.564	$GPGGA,090454,2421.2671,N,08107.0858,W,1,9,2.3,22,M,,M,,*58
06/16/2015	09:04:54.545	$GPGGA,090455,2421.2670,N,08107.0870,W,1,9,2.3,22,M,,M,,*52
06/16/2015	09:04:55.585	$GPGGA,090456,2421.2672,N,08107.0879,W,1,9,2.3,22,M,,M,,*5A
06/16/2015	09:04:56.525	$GPGGA,090457,2421.2672,N,08107.0889,W,1,9,2.5,22,M,,M,,*52
06/16/2015	09:04:57.525	$GPGGA,090458,2421.2672,N,08107.0900,W,1,8,2.5,21,M,,M,,*5F
06/16/2015	09:04:58.645	$GPGGA,090459,2421.2672,N,08107.0910,W,1,8,2.3,21,M,,M,,*59
06/16/2015	09:04:59.554	$GPGGA,090500,2421.2672,N,08107.0921,W,1,9,2.3,21,M,,M,,*57
06/16/2015	09:05:00.614	$GPGGA,090501,2421.2674,N,08107.0933,W,1,9,2.3,21,M,,M,,*53
06/16/2015	09:05:01.635	$GPGGA,090502,2421.2673,N,08107.0944,W,1,9,2.3,21,M,,M,,*57
06/16/2015	09:05:02.524	$GPGGA,090503,2421.2674,N,08107.0955,W,1,9,2.3,21,M,,M,,*51
06/16/2015	09:05:03.539	$GPGGA,090504,2421.2675,N,08107.0966,W,1,9,2.3,21,M,,M,,*57
06/16/2015	09:05:04.622	$GPGGA,090505,2421.2674,N,08107.0977,W,1,9,2.3,21,M,,M,,*57
06/16/2015	09:05:05.604	$GPGGA,090506,2421.2675,N,08107.0988,W,1,9,2.3,21,M,,M,,*55
06/16/2015	09:05:06.619	$GPGGA,090507,2421.2675,N,08107.0998,W,1,9,2.3,21,M,,M,,*55
06/16/2015	09:05:07.604	$GPGGA,090508,2421.2675,N,08107.1009,W,1,8,2.5,21,M,,M,,*5D
06/16/2015	09:05:08.494	$GPGGA,090509,2421.2677,N,08107.1019,W,1,8,2.3,21,M,,M,,*59
06/16/2015	09:05:09.505	$GPGGA,090510,2421.2678,N,08107.1030,W,1,9,2.3,21,M,,M,,*54
06/16/2015	09:05:10.484	$GPGGA,090511,2421.2679,N,08107.1042,W,1,9,2.3,21,M,,M,,*51
06/16/2015	09:05:11.644	$GPGGA,090512,2421.2679,N,08107.1052,W,1,9,2.3,21,M,,M,,*53
06/16/2015	09:05:12.504	$GPGGA,090513,2421.2679,N,08107.1062,W,1,9,2.3,21,M,,M,,*51
06/16/2015	09:05:13.574	$GPGGA,090514,2421.2679,N,08107.1073,W,1,8,2.5,21,M,,M,,*51
06/16/2015	09:05:14.594	$GPGGA,090515,2421.2681,N,08107.1082,W,1,8,2.5,21,M,,M,,*59
06/16/2015	09:05:15.634	$GPGGA,090516,2421.2682,N,08107.1092,W,1,8,2.5,21,M,,M,,*58
06/16/2015	09:05:16.573	$GPGGA,090517,2421.2681,N,08107.1103,W,1,8,2.5,21,M,,M,,*53
06/16/2015	09:05:17.625	$GPGGA,090518,2421.2682,N,08107.1114,W,1,9,2.3,21,M,,M,,*5E
06/16/2015	09:05:18.573	$GPGGA,090519,2421.2681,N,08107.1125,W,1,9,2.3,21,M,,M,,*5E
06/16/2015	09:05:19.573	$GPGGA,090520,2421.2682,N,08107.1135,W,1,9,2.3,21,M,,M,,*56
06/16/2015	09:05:20.573	$GPGGA,090521,2421.2682,N,08107.1145,W,1,9,2.3,21,M,,M,,*50
06/16/2015	09:05:21.584	$GPGGA,090522,2421.2682,N,08107.1156,W,1,8,2.5,21,M,,M,,*56
06/16/2015	09:05:22.564	$GPGGA,090523,2421.2682,N,08107.1167,W,1,8,2.3,21,M,,M,,*53
06/16/2015	09:05:23.622	$GPGGA,090524,2421.2682,N,08107.1178,W,1,9,2.3,21,M,,M,,*5B
06/16/2015	09:05:24.564	$GPGGA,090525,2421.2683,N,08107.1189,W,1,9,2.3,21,M,,M,,*55
06/16/2015	09:05:25.564	$GPGGA,090526,2421.2683,N,08107.1199,W,1,9,2.3,21,M,,M,,*57
06/16/2015	09:05:26.554	$GPGGA,090527,2421.2685,N,08107.1208,W,1,9,2.3,21,M,,M,,*5B
06/16/2015	09:05:27.584	$GPGGA,090528,2421.2686,N,08107.1219,W,1,8,2.5,21,M,,M,,*50
06/16/2015	09:05:28.554	$GPGGA,090529,2421.2686,N,08107.1229,W,1,8,2.3,21,M,,M,,*54
06/16/2015	09:05:29.544	$GPGGA,090530,2421.2686,N,08107.1240,W,1,9,2.3,21,M,,M,,*52
06/16/2015	09:05:30.554	$GPGGA,090531,2421.2688,N,08107.1250,W,1,9,2.3,21,M,,M,,*5C
06/16/2015	09:05:31.584	$GPGGA,090532,2421.2689,N,08107.1261,W,1,8,2.3,21,M,,M,,*5D
06/16/2015	09:05:32.554	$GPGGA,090533,2421.2688,N,08107.1272,W,1,8,2.5,21,M,,M,,*59
06/16/2015	09:05:33.535	$GPGGA,090534,2421.2689,N,08107.1283,W,1,8,2.5,21,M,,M,,*51
06/16/2015	09:05:34.543	$GPGGA,090535,2421.2690,N,08107.1293,W,1,8,2.3,21,M,,M,,*5F
06/16/2015	09:05:35.553	$GPGGA,090536,2421.2690,N,08107.1304,W,1,9,2.3,21,M,,M,,*52
06/16/2015	09:05:36.543	$GPGGA,090537,2421.2690,N,08107.1313,W,1,9,2.3,21,M,,M,,*55
06/16/2015	09:05:37.525	$GPGGA,090538,2421.2690,N,08107.1324,W,1,8,2.3,21,M,,M,,*5F
06/16/2015	09:05:38.533	$GPGGA,090539,2421.2693,N,08107.1334,W,1,8,2.3,21,M,,M,,*5C
06/16/2015	09:05:39.574	$GPGGA,090540,2421.2692,N,08107.1344,W,1,8,2.5,21,M,,M,,*52
06/16/2015	09:05:40.524	$GPGGA,090541,2421.2691,N,08107.1355,W,1,8,2.5,21,M,,M,,*50
06/16/2015	09:05:41.531	$GPGGA,090542,2421.2692,N,08107.1366,W,1,9,2.3,21,M,,M,,*57
06/16/2015	09:05:42.528	$GPGGA,090543,2421.2693,N,08107.1376,W,1,9,2.3,21,M,,M,,*56
06/16/2015	09:05:43.544	$GPGGA,090544,2421.2692,N,08107.1385,W,1,9,2.3,21,M,,M,,*5C
06/16/2015	09:05:44.534	$GPGGA,090545,2421.2691,N,08107.1395,W,1,9,2.3,21,M,,M,,*5F
06/16/2015	09:05:45.534	$GPGGA,090546,2421.2693,N,08107.1406,W,1,9,2.3,21,M,,M,,*53
06/16/2015	09:05:46.544	$GPGGA,090547,2421.2693,N,08107.1417,W,1,9,2.3,21,M,,M,,*52
06/16/2015	09:05:47.574	$GPGGA,090548,2421.2692,N,08107.1427,W,1,9,2.3,21,M,,M,,*5F
06/16/2015	09:05:48.524	$GPGGA,090549,2421.2691,N,08107.1438,W,1,9,2.3,21,M,,M,,*53
06/16/2015	09:05:49.504	$GPGGA,090550,2421.2693,N,08107.1447,W,1,9,2.3,21,M,,M,,*51
06/16/2015	09:05:50.520	$GPGGA,090551,2421.2691,N,08107.1456,W,1,9,2.3,21,M,,M,,*52
06/16/2015	09:05:51.653	$GPGGA,090552,2421.2692,N,08107.1467,W,1,9,2.3,21,M,,M,,*50
06/16/2015	09:05:52.635	$GPGGA,090553,2421.2693,N,08107.1477,W,1,9,2.3,21,M,,M,,*51
06/16/2015	09:05:53.517	$GPGGA,090554,2421.2692,N,08107.1488,W,1,9,2.3,21,M,,M,,*57
06/16/2015	09:05:54.513	$GPGGA,090555,2421.2693,N,08107.1499,W,1,9,2.3,21,M,,M,,*57
06/16/2015	09:05:55.524	$GPGGA,090556,2421.2691,N,08107.1508,W,1,9,2.3,21,M,,M,,*5F
06/16/2015	09:05:56.594	$GPGGA,090557,2421.2693,N,08107.1517,W,1,9,2.3,21,M,,M,,*52
06/16/2015	09:05:57.594	$GPGGA,090558,2421.2693,N,08107.1528,W,1,9,2.3,21,M,,M,,*51
06/16/2015	09:05:58.504	$GPGGA,090559,2421.2692,N,08107.1537,W,1,9,2.3,21,M,,M,,*5F
06/16/2015	09:05:59.524	$GPGGA,090600,2421.2693,N,08107.1547,W,1,9,2.3,21,M,,M,,*56
06/16/2015	09:06:00.594	$GPGGA,090601,2421.2693,N,08107.1557,W,1,9,2.3,21,M,,M,,*56
06/16/2015	09:06:01.605	$GPGGA,090602,2421.2693,N,08107.1568,W,1,9,2.3,21,M,,M,,*59
06/16/2015	09:06:02.495	$GPGGA,090603,2421.2693,N,08107.1579,W,1,9,2.3,21,M,,M,,*58
06/16/2015	09:06:03.494	$GPGGA,090604,2421.2693,N,08107.1590,W,1,9,2.3,21,M,,M,,*58
06/16/2015	09:06:04.484	$GPGGA,090605,2421.2693,N,08107.1600,W,1,9,2.3,21,M,,M,,*53
06/16/2015	09:06:05.604	$GPGGA,090606,2421.2695,N,08107.1608,W,1,9,2.3,21,M,,M,,*5E
06/16/2015	09:06:06.574	$GPGGA,090607,2421.2694,N,08107.1618,W,1,9,2.3,21,M,,M,,*5F
06/16/2015	09:06:07.644	$GPGGA,090608,2421.2695,N,08107.1629,W,1,8,2.3,21,M,,M,,*52
06/16/2015	09:06:08.574	$GPGGA,090609,2421.2696,N,08107.1641,W,1,8,2.3,21,M,,M,,*5E
06/16/2015	09:06:09.573	$GPGGA,090610,2421.2695,N,08107.1655,W,1,9,2.3,21,M,,M,,*51
06/16/2015	09:06:10.573	$GPGGA,090611,2421.2696,N,08107.1665,W,1,9,2.3,21,M,,M,,*50
06/16/2015	09:06:11.653	$GPGGA,090612,2421.2694,N,08107.1673,W,1,9,2.3,21,M,,M,,*56
06/16/2015	09:06:12.553	$GPGGA,090613,2421.2696,N,08107.1683,W,1,9,2.3,21,M,,M,,*5A
06/16/2015	09:06:13.573	$GPGGA,090614,2421.2697,N,08107.1691,W,1,9,2.3,21,M,,M,,*5F
06/16/2015	09:06:14.564	$GPGGA,090615,2421.2697,N,08107.1702,W,1,9,2.3,21,M,,M,,*55
06/16/2015	09:06:15.584	$GPGGA,090616,2421.2697,N,08107.1712,W,1,8,2.3,21,M,,M,,*56
06/16/2015	09:06:16.554	$GPGGA,090617,2421.2699,N,08107.1723,W,1,8,2.3,21,M,,M,,*5B
06/16/2015	09:06:17.574	$GPGGA,090618,2421.2698,N,08107.1734,W,1,9,2.3,21,M,,M,,*52
06/16/2015	09:06:18.554	$GPGGA,090619,2421.2699,N,08107.1742,W,1,9,2.3,21,M,,M,,*53
06/16/2015	09:06:19.574	$GPGGA,090620,2421.2700,N,08107.1752,W,1,8,2.3,21,M,,M,,*58
06/16/2015	09:06:20.544	$GPGGA,090621,2421.2701,N,08107.1761,W,1,8,2.3,21,M,,M,,*58
06/16/2015	09:06:21.554	$GPGGA,090622,2421.2701,N,08107.1771,W,1,9,2.3,21,M,,M,,*5B
06/16/2015	09:06:22.554	$GPGGA,090623,2421.2701,N,08107.1782,W,1,9,2.3,21,M,,M,,*56
06/16/2015	09:06:23.616	$GPGGA,090624,2421.2703,N,08107.1792,W,1,9,2.3,21,M,,M,,*52
06/16/2015	09:06:24.534	$GPGGA,090625,2421.2704,N,08107.1803,W,1,9,2.3,21,M,,M,,*53
06/16/2015	09:06:25.527	$GPGGA,090626,2421.2706,N,08107.1811,W,1,9,2.3,21,M,,M,,*51
06/16/2015	09:06:26.543	$GPGGA,090627,2421.2707,N,08107.1821,W,1,9,2.3,21,M,,M,,*52
06/16/2015	09:06:27.573	$GPGGA,090628,2421.2706,N,08107.1831,W,1,9,2.3,21,M,,M,,*5D
06/16/2015	09:06:28.543	$GPGGA,090629,2421.2708,N,08107.1840,W,1,9,2.3,20,M,,M,,*55
06/16/2015	09:06:29.563	$GPGGA,090630,2421.2710,N,08107.1851,W,1,9,2.3,20,M,,M,,*54
06/16/2015	09:06:30.523	$GPGGA,090631,2421.2711,N,08107.1862,W,1,9,2.3,20,M,,M,,*54
06/16/2015	09:06:31.564	$GPGGA,090632,2421.2709,N,08107.1872,W,1,9,2.3,20,M,,M,,*5F
06/16/2015	09:06:32.534	$GPGGA,090633,2421.2711,N,08107.1882,W,1,9,2.3,20,M,,M,,*58
06/16/2015	09:06:33.534	$GPGGA,090634,2421.2711,N,08107.1893,W,1,9,2.3,20,M,,M,,*5F
06/16/2015	09:06:34.544	$GPGGA,090635,2421.2712,N,08107.1902,W,1,9,2.3,20,M,,M,,*54
06/16/2015	09:06:35.644	$GPGGA,090636,2421.2712,N,08107.1912,W,1,9,2.3,20,M,,M,,*56
06/16/2015	09:06:36.521	$GPGGA,090637,2421.2714,N,08107.1922,W,1,9,2.3,20,M,,M,,*52
06/16/2015	09:06:37.521	$GPGGA,090638,2421.2713,N,08107.1933,W,1,9,2.3,20,M,,M,,*5A
06/16/2015	09:06:38.544	$GPGGA,090639,2421.2715,N,08107.1943,W,1,9,2.3,20,M,,M,,*5A
06/16/2015	09:06:39.644	$GPGGA,090640,2421.2715,N,08107.1952,W,1,9,2.3,20,M,,M,,*54
06/16/2015	09:06:40.528	$GPGGA,090641,2421.2715,N,08107.1963,W,1,9,2.3,20,M,,M,,*57
06/16/2015	09:06:41.524	$GPGGA,090642,2421.2717,N,08107.1973,W,1,9,2.3,20,M,,M,,*57
06/16/2015	09:06:42.515	$GPGGA,090643,2421.2716,N,08107.1984,W,1,9,2.3,20,M,,M,,*5F
06/16/2015	09:06:43.544	$GPGGA,090644,2421.2717,N,08107.1994,W,1,9,2.3,20,M,,M,,*58
06/16/2015	09:06:44.523	$GPGGA,090645,2421.2718,N,08107.2003,W,1,9,2.3,20,M,,M,,*52
06/16/2015	09:06:45.503	$GPGGA,090646,2421.2719,N,08107.2013,W,1,9,2.3,20,M,,M,,*51
06/16/2015	09:06:46.593	$GPGGA,090647,2421.2719,N,08107.2024,W,1,9,2.3,20,M,,M,,*54
06/16/2015	09:06:47.619	$GPGGA,090648,2421.2719,N,08107.2034,W,1,9,2.3,20,M,,M,,*5A
06/16/2015	09:06:48.515	$GPGGA,090649,2421.2721,N,08107.2045,W,1,9,2.3,20,M,,M,,*56
06/16/2015	09:06:49.504	$GPGGA,090650,2421.2722,N,08107.2056,W,1,9,2.3,20,M,,M,,*5F
06/16/2015	09:06:50.584	$GPGGA,090651,2421.2722,N,08107.2064,W,1,9,2.3,20,M,,M,,*5F
06/16/2015	09:06:51.616	$GPGGA,090652,2421.2722,N,08107.2074,W,1,9,2.3,19,M,,M,,*57
06/16/2015	09:06:52.584	$GPGGA,090653,2421.2724,N,08107.2082,W,1,9,2.3,19,M,,M,,*59
06/16/2015	09:06:53.604	$GPGGA,090654,2421.2725,N,08107.2093,W,1,9,2.3,19,M,,M,,*5F
06/16/2015	09:06:54.574	$GPGGA,090655,2421.2724,N,08107.2103,W,1,9,2.3,19,M,,M,,*57
06/16/2015	09:06:55.594	$GPGGA,090656,2421.2725,N,08107.2113,W,1,9,2.3,19,M,,M,,*54
06/16/2015	09:06:56.584	$GPGGA,090657,2421.2726,N,08107.2124,W,1,9,2.3,19,M,,M,,*52
06/16/2015	09:06:57.594	$GPGGA,090658,2421.2726,N,08107.2135,W,1,9,2.3,19,M,,M,,*5D
06/16/2015	09:06:58.564	$GPGGA,090659,2421.2726,N,08107.2144,W,1,9,2.3,19,M,,M,,*5A
06/16/2015	09:06:59.594	$GPGGA,090700,2421.2728,N,08107.2154,W,1,9,2.3,19,M,,M,,*58
06/16/2015	09:07:00.574	$GPGGA,090701,2421.2729,N,08107.2165,W,1,9,2.3,19,M,,M,,*5A
06/16/2015	09:07:01.583	$GPGGA,090702,2421.2727,N,08107.2176,W,1,9,2.3,19,M,,M,,*55
06/16/2015	09:07:02.554	$GPGGA,090703,2421.2728,N,08107.2186,W,1,9,2.3,19,M,,M,,*54
06/16/2015	09:07:03.594	$GPGGA,090704,2421.2729,N,08107.2197,W,1,9,2.3,19,M,,M,,*52
06/16/2015	09:07:04.563	$GPGGA,090705,2421.2729,N,08107.2207,W,1,9,2.3,19,M,,M,,*59
06/16/2015	09:07:05.573	$GPGGA,090706,2421.2729,N,08107.2218,W,1,9,2.3,19,M,,M,,*54
06/16/2015	09:07:06.564	$GPGGA,090707,2421.2729,N,08107.2227,W,1,9,2.3,19,M,,M,,*59
06/16/2015	09:07:07.584	$GPGGA,090708,2421.2730,N,08107.2237,W,1,9,2.3,19,M,,M,,*5F
06/16/2015	09:07:08.554	$GPGGA,090709,2421.2730,N,08107.2247,W,1,9,2.3,19,M,,M,,*59
06/16/2015	09:07:09.544	$GPGGA,090710,2421.2730,N,08107.2258,W,1,9,2.3,19,M,,M,,*5F
06/16/2015	09:07:10.554	$GPGGA,090711,2421.2730,N,08107.2269,W,1,9,2.3,19,M,,M,,*5C
06/16/2015	09:07:11.954	$GPGGA,090712,2421.2730,N,08107.2279,W,1,9,2.3,19,M,,M,,*5E
06/16/2015	09:07:12.544	$GPGGA,090713,2421.2732,N,08107.2288,W,1,9,2.3,19,M,,M,,*53
06/16/2015	09:07:13.564	$GPGGA,090714,2421.2733,N,08107.2298,W,1,8,2.3,19,M,,M,,*55
06/16/2015	09:07:14.544	$GPGGA,090715,2421.2733,N,08107.2309,W,1,8,2.3,19,M,,M,,*5D
06/16/2015	09:07:15.544	$GPGGA,090716,2421.2733,N,08107.2319,W,1,9,2.3,19,M,,M,,*5E
06/16/2015	09:07:16.544	$GPGGA,090717,2421.2733,N,08107.2330,W,1,9,2.3,19,M,,M,,*54
06/16/2015	09:07:17.564	$GPGGA,090718,2421.2733,N,08107.2341,W,1,9,2.3,19,M,,M,,*5D
06/16/2015	09:07:18.534	$GPGGA,090719,2421.2735,N,08107.2352,W,1,9,2.3,19,M,,M,,*58
06/16/2015	09:07:19.563	$GPGGA,090720,2421.2737,N,08107.2360,W,1,9,2.3,19,M,,M,,*51
06/16/2015	09:07:20.523	$GPGGA,090721,2421.2735,N,08107.2373,W,1,9,2.3,19,M,,M,,*50
06/16/2015	09:07:21.533	$GPGGA,090722,2421.2736,N,08107.2382,W,1,9,2.3,19,M,,M,,*5E
06/16/2015	09:07:22.523	$GPGGA,090723,2421.2735,N,08107.2393,W,1,9,2.3,18,M,,M,,*5D
06/16/2015	09:07:23.543	$GPGGA,090724,2421.2737,N,08107.2403,W,1,9,2.3,18,M,,M,,*56
06/16/2015	09:07:24.534	$GPGGA,090725,2421.2737,N,08107.2414,W,1,9,2.3,18,M,,M,,*51
06/16/2015	09:07:25.534	$GPGGA,090726,2421.2737,N,08107.2424,W,1,9,2.3,18,M,,M,,*51
06/16/2015	09:07:26.534	$GPGGA,090727,2421.2737,N,08107.2435,W,1,9,2.3,18,M,,M,,*50
06/16/2015	09:07:27.634	$GPGGA,090728,2421.2739,N,08107.2443,W,1,8,2.3,18,M,,M,,*51
06/16/2015	09:07:28.518	$GPGGA,090729,2421.2738,N,08107.2453,W,1,8,2.3,18,M,,M,,*50
06/16/2015	09:07:29.514	$GPGGA,090730,2421.2739,N,08107.2464,W,1,9,2.3,18,M,,M,,*5C
06/16/2015	09:07:30.504	$GPGGA,090731,2421.2740,N,08107.2475,W,1,9,2.3,18,M,,M,,*53
06/16/2015	09:07:31.524	$GPGGA,090732,2421.2740,N,08107.2487,W,1,9,2.3,18,M,,M,,*5D
06/16/2015	09:07:32.514	$GPGGA,090733,2421.2742,N,08107.2497,W,1,9,2.3,18,M,,M,,*5F
06/16/2015	09:07:33.624	$GPGGA,090734,2421.2741,N,08107.2507,W,1,9,2.3,18,M,,M,,*53
06/16/2015	09:07:34.516	$GPGGA,090735,2421.2743,N,08107.2516,W,1,9,2.3,18,M,,M,,*50
06/16/2015	09:07:35.604	$GPGGA,090736,2421.2744,N,08107.2527,W,1,9,2.3,18,M,,M,,*56
06/16/2015	09:07:36.503	$GPGGA,090737,2421.2744,N,08107.2538,W,1,9,2.3,18,M,,M,,*59
06/16/2015	09:07:37.583	$GPGGA,090738,2421.2744,N,08107.2550,W,1,9,2.3,18,M,,M,,*58
06/16/2015	09:07:38.493	$GPGGA,090739,2421.2744,N,08107.2561,W,1,9,2.3,18,M,,M,,*5B
06/16/2015	09:07:39.593	$GPGGA,090740,2421.2744,N,08107.2572,W,1,9,2.3,18,M,,M,,*57
06/16/2015	09:07:40.593	$GPGGA,090741,2421.2744,N,08107.2583,W,1,9,2.3,18,M,,M,,*58
06/16/2015	09:07:41.584	$GPGGA,090742,2421.2744,N,08107.2591,W,1,9,2.3,18,M,,M,,*58
06/16/2015	09:07:42.574	$GPGGA,090743,2421.2746,N,08107.2602,W,1,9,2.3,18,M,,M,,*52
06/16/2015	09:07:43.604	$GPGGA,090744,2421.2744,N,08107.2613,W,1,9,2.3,18,M,,M,,*57
06/16/2015	09:07:44.584	$GPGGA,090745,2421.2744,N,08107.2624,W,1,9,2.3,18,M,,M,,*52
06/16/2015	09:07:45.574	$GPGGA,090746,2421.2746,N,08107.2635,W,1,9,2.3,18,M,,M,,*53
06/16/2015	09:07:46.584	$GPGGA,090747,2421.2747,N,08107.2645,W,1,9,2.3,18,M,,M,,*54
06/16/2015	09:07:47.624	$GPGGA,090748,2421.2746,N,08107.2653,W,1,8,2.3,18,M,,M,,*5C
06/16/2015	09:07:48.574	$GPGGA,090749,2421.2747,N,08107.2662,W,1,8,2.3,18,M,,M,,*5E
06/16/2015	09:07:49.574	$GPGGA,090750,2421.2750,N,08107.2671,W,1,9,2.3,18,M,,M,,*53
06/16/2015	09:07:50.564	$GPGGA,090751,2421.2749,N,08107.2682,W,1,9,2.3,18,M,,M,,*56
06/16/2015	09:07:51.629	$GPGGA,090752,2421.2750,N,08107.2695,W,1,9,2.3,17,M,,M,,*54
06/16/2015	09:07:52.564	$GPGGA,090753,2421.2749,N,08107.2706,W,1,9,2.3,17,M,,M,,*56
06/16/2015	09:07:53.564	$GPGGA,090754,2421.2750,N,08107.2715,W,1,9,2.3,17,M,,M,,*5B
06/16/2015	09:07:54.563	$GPGGA,090755,2421.2751,N,08107.2727,W,1,9,2.3,17,M,,M,,*5A
06/16/2015	09:07:55.583	$GPGGA,090756,2421.2751,N,08107.2738,W,1,9,2.3,17,M,,M,,*57
06/16/2015	09:07:56.563	$GPGGA,090757,2421.2751,N,08107.2749,W,1,9,2.3,17,M,,M,,*50
06/16/2015	09:07:57.573	$GPGGA,090758,2421.2751,N,08107.2757,W,1,9,2.3,17,M,,M,,*50
06/16/2015	09:07:58.553	$GPGGA,090759,2421.2753,N,08107.2767,W,1,9,2.3,17,M,,M,,*50
06/16/2015	09:07:59.584	$GPGGA,090800,2421.2752,N,08107.2778,W,1,9,2.3,17,M,,M,,*5C
06/16/2015	09:08:00.554	$GPGGA,090801,2421.2754,N,08107.2789,W,1,9,2.3,17,M,,M,,*55
06/16/2015	09:08:01.574	$GPGGA,090802,2421.2753,N,08107.2800,W,1,9,2.3,17,M,,M,,*5F
06/16/2015	09:08:02.544	$GPGGA,090803,2421.2754,N,08107.2811,W,1,9,2.3,17,M,,M,,*59
06/16/2015	09:08:03.584	$GPGGA,090804,2421.2755,N,08107.2819,W,1,9,2.3,17,M,,M,,*57
06/16/2015	09:08:04.544	$GPGGA,090805,2421.2755,N,08107.2829,W,1,9,2.3,17,M,,M,,*55
06/16/2015	09:08:05.554	$GPGGA,090806,2421.2755,N,08107.2839,W,1,8,2.3,17,M,,M,,*56
06/16/2015	09:08:06.529	$GPGGA,090807,2421.2755,N,08107.2850,W,1,8,2.3,17,M,,M,,*58
06/16/2015	09:08:07.534	$GPGGA,090808,2421.2757,N,08107.2858,W,1,9,2.3,17,M,,M,,*5C
06/16/2015	09:08:08.534	$GPGGA,090809,2421.2756,N,08107.2870,W,1,9,2.3,17,M,,M,,*56
06/16/2015	09:08:09.554	$GPGGA,090810,2421.2758,N,08107.2881,W,1,9,2.3,17,M,,M,,*5E
06/16/2015	09:08:10.534	$GPGGA,090811,2421.2757,N,08107.2890,W,1,9,2.3,17,M,,M,,*50
06/16/2015	09:08:11.573	$GPGGA,090812,2421.2758,N,08107.2901,W,1,9,2.3,17,M,,M,,*55
06/16/2015	09:08:12.532	$GPGGA,090813,2421.2758,N,08107.2910,W,1,9,2.3,17,M,,M,,*54
06/16/2015	09:08:13.527	$GPGGA,090814,2421.2760,N,08107.2920,W,1,9,2.3,17,M,,M,,*5B
06/16/2015	09:08:14.521	$GPGGA,090815,2421.2759,N,08107.2931,W,1,9,2.3,17,M,,M,,*50
06/16/2015	09:08:15.643	$GPGGA,090816,2421.2761,N,08107.2941,W,1,9,2.3,17,M,,M,,*5F
06/16/2015	09:08:16.514	$GPGGA,090817,2421.2760,N,08107.2952,W,1,9,2.3,17,M,,M,,*5D
06/16/2015	09:08:17.631	$GPGGA,090818,2421.2762,N,08107.2960,W,1,9,2.3,17,M,,M,,*51
06/16/2015	09:08:18.514	$GPGGA,090819,2421.2760,N,08107.2970,W,1,9,2.5,17,M,,M,,*55
06/16/2015	09:08:19.514	$GPGGA,090820,2421.2762,N,08107.2981,W,1,9,2.3,17,M,,M,,*55
06/16/2015	09:08:20.526	$GPGGA,090821,2421.2762,N,08107.2991,W,1,9,2.3,18,M,,M,,*5A
06/16/2015	09:08:21.624	$GPGGA,090822,2421.2762,N,08107.3002,W,1,9,2.3,18,M,,M,,*5B
06/16/2015	09:08:22.494	$GPGGA,090823,2421.2764,N,08107.3011,W,1,9,2.3,18,M,,M,,*5E
06/16/2015	09:08:23.544	$GPGGA,090824,2421.2765,N,08107.3020,W,1,9,2.3,18,M,,M,,*5A
06/16/2015	09:08:24.514	$GPGGA,090825,2421.2766,N,08107.3031,W,1,9,2.5,18,M,,M,,*5E
06/16/2015	09:08:25.514	$GPGGA,090826,2421.2766,N,08107.3042,W,1,9,2.3,18,M,,M,,*5F
06/16/2015	09:08:26.584	$GPGGA,090827,2421.2766,N,08107.3051,W,1,9,2.3,18,M,,M,,*5C
06/16/2015	09:08:27.504	$GPGGA,090828,2421.2769,N,08107.3061,W,1,9,2.3,18,M,,M,,*5F
06/16/2015	09:08:28.584	$GPGGA,090829,2421.2769,N,08107.3071,W,1,9,2.3,18,M,,M,,*5F
06/16/2015	09:08:29.483	$GPGGA,090830,2421.2771,N,08107.3081,W,1,9,2.3,18,M,,M,,*51
06/16/2015	09:08:30.583	$GPGGA,090831,2421.2773,N,08107.3090,W,1,9,2.3,18,M,,M,,*52
06/16/2015	09:08:31.693	$GPGGA,090832,2421.2773,N,08107.3100,W,1,9,2.3,18,M,,M,,*59
06/16/2015	09:08:32.593	$GPGGA,090833,2421.2773,N,08107.3111,W,1,9,2.5,18,M,,M,,*5E
06/16/2015	09:08:33.583	$GPGGA,090834,2421.2775,N,08107.3122,W,1,9,2.3,18,M,,M,,*59
06/16/2015	09:08:34.584	$GPGGA,090835,2421.2776,N,08107.3132,W,1,9,2.3,18,M,,M,,*5A
06/16/2015	09:08:35.584	$GPGGA,090836,2421.2776,N,08107.3141,W,1,9,2.3,18,M,,M,,*5D
06/16/2015	09:08:36.564	$GPGGA,090837,2421.2777,N,08107.3151,W,1,9,2.3,18,M,,M,,*5C
06/16/2015	09:08:37.584	$GPGGA,090838,2421.2779,N,08107.3161,W,1,9,2.3,19,M,,M,,*5F
06/16/2015	09:08:38.564	$GPGGA,090839,2421.2780,N,08107.3172,W,1,9,2.3,19,M,,M,,*5A
06/16/2015	09:08:39.594	$GPGGA,090840,2421.2780,N,08107.3183,W,1,9,2.3,19,M,,M,,*5A
06/16/2015	09:08:40.564	$GPGGA,090841,2421.2782,N,08107.3194,W,1,9,2.3,19,M,,M,,*5F
06/16/2015	09:08:41.604	$GPGGA,090842,2421.2783,N,08107.3204,W,1,9,2.3,19,M,,M,,*57
06/16/2015	09:08:42.564	$GPGGA,090843,2421.2784,N,08107.3213,W,1,9,2.3,19,M,,M,,*57
06/16/2015	09:08:43.604	$GPGGA,090844,2421.2784,N,08107.3223,W,1,9,2.3,19,M,,M,,*53
06/16/2015	09:08:44.554	$GPGGA,090845,2421.2786,N,08107.3233,W,1,9,2.3,19,M,,M,,*51
06/16/2015	09:08:45.544	$GPGGA,090846,2421.2787,N,08107.3244,W,1,9,2.3,19,M,,M,,*53
06/16/2015	09:08:46.563	$GPGGA,090847,2421.2786,N,08107.3255,W,1,9,2.3,19,M,,M,,*53
06/16/2015	09:08:47.583	$GPGGA,090848,2421.2787,N,08107.3264,W,1,9,2.3,19,M,,M,,*5F
06/16/2015	09:08:48.543	$GPGGA,090849,2421.2787,N,08107.3275,W,1,9,2.3,19,M,,M,,*5E
06/16/2015	09:08:49.573	$GPGGA,090850,2421.2789,N,08107.3287,W,1,9,2.3,19,M,,M,,*55
06/16/2015	09:08:50.553	$GPGGA,090851,2421.2790,N,08107.3296,W,1,9,2.3,19,M,,M,,*5C
06/16/2015	09:08:51.584	$GPGGA,090852,2421.2789,N,08107.3306,W,1,9,2.3,19,M,,M,,*5F
06/16/2015	09:08:52.544	$GPGGA,090853,2421.2790,N,08107.3316,W,1,9,2.3,19,M,,M,,*57
06/16/2015	09:08:53.554	$GPGGA,090854,2421.2789,N,08107.3327,W,1,9,2.3,19,M,,M,,*5A
06/16/2015	09:08:54.534	$GPGGA,090855,2421.2791,N,08107.3338,W,1,9,2.3,19,M,,M,,*5C
06/16/2015	09:08:55.544	$GPGGA,090856,2421.2791,N,08107.3349,W,1,9,2.3,18,M,,M,,*58
06/16/2015	09:08:56.554	$GPGGA,090857,2421.2791,N,08107.3360,W,1,9,2.3,18,M,,M,,*52
06/16/2015	09:08:57.564	$GPGGA,090858,2421.2791,N,08107.3371,W,1,9,2.3,18,M,,M,,*5D
06/16/2015	09:08:58.534	$GPGGA,090859,2421.2791,N,08107.3381,W,1,9,2.3,18,M,,M,,*53
06/16/2015	09:08:59.564	$GPGGA,090900,2421.2791,N,08107.3392,W,1,8,2.3,18,M,,M,,*5D
06/16/2015	09:09:00.520	$GPGGA,090901,2421.2791,N,08107.3403,W,1,8,2.3,18,M,,M,,*53
06/16/2015	09:09:01.544	$GPGGA,090902,2421.2793,N,08107.3414,W,1,9,2.3,18,M,,M,,*55
06/16/2015	09:09:02.534	$GPGGA,090903,2421.2792,N,08107.3423,W,1,9,2.3,18,M,,M,,*51
06/16/2015	09:09:03.720	$GPGGA,090904,2421.2793,N,08107.3432,W,1,8,2.3,18,M,,M,,*56
06/16/2015	09:09:04.613	$GPGGA,090905,2421.2794,N,08107.3441,W,1,8,2.3,18,M,,M,,*54
06/16/2015	09:09:05.693	$GPGGA,090906,2421.2794,N,08107.3451,W,1,8,2.3,18,M,,M,,*56
06/16/2015	09:09:06.517	$GPGGA,090907,2421.2795,N,08107.3461,W,1,8,2.3,18,M,,M,,*55
06/16/2015	09:09:07.533	$GPGGA,090908,2421.2795,N,08107.3470,W,1,9,2.3,18,M,,M,,*5B
06/16/2015	09:09:08.525	$GPGGA,090909,2421.2797,N,08107.3482,W,1,9,2.3,18,M,,M,,*55
06/16/2015	09:09:09.694	$GPGGA,090910,2421.2796,N,08107.3491,W,1,8,2.3,18,M,,M,,*5F
06/16/2015	09:09:10.528	$GPGGA,090911,2421.2795,N,08107.3504,W,1,8,2.3,18,M,,M,,*50
06/16/2015	09:09:11.717	$GPGGA,090912,2421.2797,N,08107.3516,W,1,9,2.3,18,M,,M,,*53
06/16/2015	09:09:12.634	$GPGGA,090913,2421.2796,N,08107.3527,W,1,9,2.3,18,M,,M,,*51
06/16/2015	09:09:13.684	$GPGGA,090914,2421.2797,N,08107.3538,W,1,9,2.3,18,M,,M,,*59
06/16/2015	09:09:14.634	$GPGGA,090915,2421.2796,N,08107.3549,W,1,9,2.3,18,M,,M,,*5F
06/16/2015	09:09:15.704	$GPGGA,090916,2421.2797,N,08107.3560,W,1,9,2.3,17,M,,M,,*59
06/16/2015	09:09:16.637	$GPGGA,090917,2421.2798,N,08107.3571,W,1,9,2.3,17,M,,M,,*57
06/16/2015	09:09:17.684	$GPGGA,090918,2421.2796,N,08107.3582,W,1,9,2.3,17,M,,M,,*5A
06/16/2015	09:09:18.627	$GPGGA,090919,2421.2797,N,08107.3592,W,1,9,2.3,17,M,,M,,*5B
06/16/2015	09:09:19.594	$GPGGA,090920,2421.2796,N,08107.3602,W,1,8,2.3,17,M,,M,,*5B
06/16/2015	09:09:20.621	$GPGGA,090921,2421.2797,N,08107.3613,W,1,8,2.3,17,M,,M,,*5B
06/16/2015	09:09:21.673	$GPGGA,090922,2421.2798,N,08107.3624,W,1,9,2.3,17,M,,M,,*52
06/16/2015	09:09:22.618	$GPGGA,090923,2421.2796,N,08107.3632,W,1,9,2.3,17,M,,M,,*5A
06/16/2015	09:09:23.693	$GPGGA,090924,2421.2797,N,08107.3643,W,1,9,2.3,17,M,,M,,*5A
06/16/2015	09:09:24.619	$GPGGA,090925,2421.2798,N,08107.3653,W,1,9,2.3,17,M,,M,,*55
06/16/2015	09:09:25.673	$GPGGA,090926,2421.2796,N,08107.3663,W,1,9,2.3,17,M,,M,,*5B
06/16/2015	09:09:26.622	$GPGGA,090927,2421.2795,N,08107.3674,W,1,9,2.3,17,M,,M,,*5F
06/16/2015	09:09:27.574	$GPGGA,090928,2421.2798,N,08107.3683,W,1,9,2.3,17,M,,M,,*55
06/16/2015	09:09:28.594	$GPGGA,090929,2421.2796,N,08107.3696,W,1,9,2.3,17,M,,M,,*5E
06/16/2015	09:09:29.674	$GPGGA,090930,2421.2795,N,08107.3707,W,1,9,2.3,17,M,,M,,*5C
06/16/2015	09:09:30.564	$GPGGA,090931,2421.2797,N,08107.3717,W,1,9,2.3,17,M,,M,,*5E
06/16/2015	09:09:31.684	$GPGGA,090932,2421.2798,N,08107.3726,W,1,9,2.3,17,M,,M,,*50
06/16/2015	09:09:32.584	$GPGGA,090933,2421.2796,N,08107.3736,W,1,9,2.3,17,M,,M,,*5E
06/16/2015	09:09:33.554	$GPGGA,090934,2421.2797,N,08107.3747,W,1,9,2.3,17,M,,M,,*5E
06/16/2015	09:09:34.564	$GPGGA,090935,2421.2796,N,08107.3758,W,1,9,2.3,17,M,,M,,*50
06/16/2015	09:09:35.654	$GPGGA,090936,2421.2797,N,08107.3769,W,1,9,2.3,17,M,,M,,*50
06/16/2015	09:09:36.594	$GPGGA,090937,2421.2798,N,08107.3779,W,1,9,2.3,17,M,,M,,*5F
06/16/2015	09:09:37.654	$GPGGA,090938,2421.2796,N,08107.3790,W,1,9,2.3,17,M,,M,,*59
06/16/2015	09:09:38.544	$GPGGA,090939,2421.2798,N,08107.3798,W,1,9,2.3,17,M,,M,,*5E
06/16/2015	09:09:39.653	$GPGGA,090940,2421.2798,N,08107.3809,W,1,9,2.3,17,M,,M,,*57
06/16/2015	09:09:40.573	$GPGGA,090941,2421.2798,N,08107.3820,W,1,9,2.3,17,M,,M,,*5D
06/16/2015	09:09:41.553	$GPGGA,090942,2421.2798,N,08107.3831,W,1,9,2.3,17,M,,M,,*5E
06/16/2015	09:09:42.573	$GPGGA,090943,2421.2798,N,08107.3841,W,1,9,2.3,17,M,,M,,*58
06/16/2015	09:09:43.653	$GPGGA,090944,2421.2798,N,08107.3852,W,1,9,2.3,17,M,,M,,*5D
06/16/2015	09:09:44.574	$GPGGA,090945,2421.2800,N,08107.3862,W,1,9,2.3,17,M,,M,,*51
06/16/2015	09:09:45.604	$GPGGA,090946,2421.2799,N,08107.3871,W,1,9,2.3,17,M,,M,,*5F
06/16/2015	09:09:46.534	$GPGGA,090947,2421.2801,N,08107.3881,W,1,9,2.3,17,M,,M,,*5F
06/16/2015	09:09:47.644	$GPGGA,090948,2421.2800,N,08107.3892,W,1,9,2.3,17,M,,M,,*53
06/16/2015	09:09:48.564	$GPGGA,090949,2421.2802,N,08107.3903,W,1,9,2.3,17,M,,M,,*59
06/16/2015	09:09:49.595	$GPGGA,090950,2421.2802,N,08107.3914,W,1,9,2.3,17,M,,M,,*57
06/16/2015	09:09:50.514	$GPGGA,090951,2421.2802,N,08107.3924,W,1,9,2.3,17,M,,M,,*55
06/16/2015	09:09:51.664	$GPGGA,090952,2421.2804,N,08107.3935,W,1,9,2.3,17,M,,M,,*50
06/16/2015	09:09:52.625	$GPGGA,090953,2421.2803,N,08107.3945,W,1,9,2.3,17,M,,M,,*51
06/16/2015	09:09:53.594	$GPGGA,090954,2421.2804,N,08107.3956,W,1,9,2.3,17,M,,M,,*53
06/16/2015	09:09:54.516	$GPGGA,090955,2421.2805,N,08107.3967,W,1,9,2.3,17,M,,M,,*51
06/16/2015	09:09:55.644	$GPGGA,090956,2421.2805,N,08107.3977,W,1,9,2.3,17,M,,M,,*53
06/16/2015	09:09:58.083	$GPGGA,090958,2421.2805,N,08107.3999,W,1,9,2.3,17,M,,M,,*5D
06/16/2015	09:09:58.603	$GPGGA,090959,2421.2807,N,08107.4010,W,1,9,2.3,17,M,,M,,*51
06/16/2015	09:09:59.615	$GPGGA,091000,2421.2806,N,08107.4021,W,1,9,2.3,17,M,,M,,*56
06/16/2015	09:10:00.533	$GPGGA,091001,2421.2808,N,08107.4032,W,1,9,2.3,17,M,,M,,*5B
06/16/2015	09:10:01.625	$GPGGA,091002,2421.2809,N,08107.4043,W,1,9,2.5,17,M,,M,,*59
06/16/2015	09:10:02.554	$GPGGA,091003,2421.2807,N,08107.4053,W,1,9,2.3,17,M,,M,,*51
06/16/2015	09:10:03.615	$GPGGA,091004,2421.2808,N,08107.4064,W,1,9,2.3,17,M,,M,,*5D
06/16/2015	09:10:04.544	$GPGGA,091005,2421.2809,N,08107.4075,W,1,9,2.3,17,M,,M,,*5D
06/16/2015	09:10:05.595	$GPGGA,091006,2421.2809,N,08107.4086,W,1,9,2.3,17,M,,M,,*52
06/16/2015	09:10:06.614	$GPGGA,091007,2421.2809,N,08107.4097,W,1,9,2.3,17,M,,M,,*53
06/16/2015	09:10:07.654	$GPGGA,091008,2421.2811,N,08107.4107,W,1,9,2.3,17,M,,M,,*5D
06/16/2015	09:10:08.584	$GPGGA,091009,2421.2812,N,08107.4118,W,1,9,2.3,17,M,,M,,*51
06/16/2015	09:10:09.604	$GPGGA,091010,2421.2810,N,08107.4129,W,1,9,2.3,17,M,,M,,*59
06/16/2015	09:10:10.584	$GPGGA,091011,2421.2811,N,08107.4140,W,1,9,2.3,17,M,,M,,*56
06/16/2015	09:10:11.654	$GPGGA,091012,2421.2812,N,08107.4151,W,1,9,2.3,17,M,,M,,*56
06/16/2015	09:10:12.574	$GPGGA,091013,2421.2811,N,08107.4162,W,1,9,2.3,17,M,,M,,*54
06/16/2015	09:10:13.574	$GPGGA,091014,2421.2812,N,08107.4171,W,1,9,2.3,17,M,,M,,*52
06/16/2015	09:10:14.573	$GPGGA,091015,2421.2811,N,08107.4181,W,1,9,2.3,17,M,,M,,*5F
06/16/2015	09:10:15.653	$GPGGA,091016,2421.2813,N,08107.4191,W,1,9,2.3,17,M,,M,,*5F
06/16/2015	09:10:16.583	$GPGGA,091017,2421.2813,N,08107.4202,W,1,9,2.5,17,M,,M,,*51
06/16/2015	09:10:17.633	$GPGGA,091018,2421.2813,N,08107.4212,W,1,8,2.5,17,M,,M,,*5E
06/16/2015	09:10:18.573	$GPGGA,091019,2421.2815,N,08107.4223,W,1,8,2.3,17,M,,M,,*5D
06/16/2015	09:10:19.644	$GPGGA,091020,2421.2814,N,08107.4234,W,1,9,2.3,17,M,,M,,*51
06/16/2015	09:10:20.564	$GPGGA,091021,2421.2815,N,08107.4245,W,1,9,2.3,17,M,,M,,*57
06/16/2015	09:10:21.644	$GPGGA,091022,2421.2814,N,08107.4254,W,1,9,2.3,17,M,,M,,*55
06/16/2015	09:10:22.584	$GPGGA,091023,2421.2816,N,08107.4264,W,1,9,2.3,17,M,,M,,*55
06/16/2015	09:10:23.604	$GPGGA,091024,2421.2816,N,08107.4275,W,1,9,2.3,17,M,,M,,*52
06/16/2015	09:10:24.554	$GPGGA,091025,2421.2816,N,08107.4286,W,1,9,2.3,17,M,,M,,*5F
06/16/2015	09:10:25.584	$GPGGA,091026,2421.2816,N,08107.4297,W,1,9,2.3,17,M,,M,,*5C
06/16/2015	09:10:26.554	$GPGGA,091027,2421.2816,N,08107.4308,W,1,9,2.3,17,M,,M,,*5A
06/16/2015	09:10:28.074	$GPGGA,091028,2421.2816,N,08107.4318,W,1,9,2.3,18,M,,M,,*5B
06/16/2015	09:10:28.544	$GPGGA,091029,2421.2816,N,08107.4328,W,1,9,2.3,18,M,,M,,*59
06/16/2015	09:10:29.584	$GPGGA,091030,2421.2816,N,08107.4339,W,1,9,2.3,18,M,,M,,*51
06/16/2015	09:10:30.534	$GPGGA,091031,2421.2816,N,08107.4350,W,1,9,2.3,18,M,,M,,*5F
06/16/2015	09:10:31.614	$GPGGA,091032,2421.2816,N,08107.4361,W,1,9,2.3,18,M,,M,,*5E
06/16/2015	09:10:32.553	$GPGGA,091033,2421.2816,N,08107.4372,W,1,9,2.3,18,M,,M,,*5D
06/16/2015	09:10:33.583	$GPGGA,091034,2421.2816,N,08107.4382,W,1,9,2.3,18,M,,M,,*55
06/16/2015	09:10:34.543	$GPGGA,091035,2421.2816,N,08107.4393,W,1,9,2.3,18,M,,M,,*54
06/16/2015	09:10:35.603	$GPGGA,091036,2421.2816,N,08107.4404,W,1,9,2.3,18,M,,M,,*5E
06/16/2015	09:10:36.584	$GPGGA,091037,2421.2814,N,08107.4415,W,1,9,2.3,18,M,,M,,*5D
06/16/2015	09:10:37.544	$GPGGA,091038,2421.2814,N,08107.4415,W,1,9,2.3,18,M,,M,,*52
06/16/2015	09:10:38.554	$GPGGA,091039,2421.2815,N,08107.4437,W,1,9,2.3,18,M,,M,,*52
06/16/2015	09:10:39.604	$GPGGA,091040,2421.2813,N,08107.4449,W,1,9,2.3,18,M,,M,,*53
06/16/2015	09:10:40.644	$GPGGA,091041,2421.2813,N,08107.4460,W,1,9,2.3,18,M,,M,,*59
06/16/2015	09:10:41.644	$GPGGA,091042,2421.2813,N,08107.4470,W,1,9,2.3,18,M,,M,,*5B
06/16/2015	09:10:42.523	$GPGGA,091043,2421.2813,N,08107.4480,W,1,9,2.3,18,M,,M,,*55
06/16/2015	09:10:43.654	$GPGGA,091044,2421.2813,N,08107.4491,W,1,9,2.3,18,M,,M,,*52
06/16/2015	09:10:44.534	$GPGGA,091045,2421.2813,N,08107.4501,W,1,9,2.3,18,M,,M,,*5B
06/16/2015	09:10:45.574	$GPGGA,091046,2421.2813,N,08107.4512,W,1,9,2.3,19,M,,M,,*5B
06/16/2015	09:10:46.604	$GPGGA,091047,2421.2813,N,08107.4523,W,1,9,2.3,19,M,,M,,*58
06/16/2015	09:10:47.654	$GPGGA,091048,2421.2813,N,08107.4534,W,1,9,2.3,19,M,,M,,*51
06/16/2015	09:10:48.626	$GPGGA,091049,2421.2813,N,08107.4545,W,1,9,2.3,19,M,,M,,*56
06/16/2015	09:10:49.533	$GPGGA,091050,2421.2813,N,08107.4545,W,1,9,2.3,19,M,,M,,*5E
06/16/2015	09:10:50.973	$GPGGA,091051,2421.2813,N,08107.4555,W,1,9,2.3,19,M,,M,,*5E
06/16/2015	09:10:51.523	$GPGGA,091052,2421.2815,N,08107.4564,W,1,9,2.3,19,M,,M,,*59
06/16/2015	09:10:52.493	$GPGGA,091053,2421.2813,N,08107.4586,W,1,9,2.3,19,M,,M,,*52
06/16/2015	09:10:53.523	$GPGGA,091054,2421.2813,N,08107.4596,W,1,9,2.3,19,M,,M,,*54
06/16/2015	09:10:54.494	$GPGGA,091055,2421.2813,N,08107.4606,W,1,9,2.3,19,M,,M,,*5F
06/16/2015	09:10:55.604	$GPGGA,091056,2421.2813,N,08107.4617,W,1,9,2.3,19,M,,M,,*5C
06/16/2015	09:10:56.604	$GPGGA,091057,2421.2815,N,08107.4628,W,1,9,2.3,19,M,,M,,*57
06/16/2015	09:10:57.618	$GPGGA,091058,2421.2814,N,08107.4639,W,1,9,2.3,19,M,,M,,*59
06/16/2015	09:10:58.584	$GPGGA,091059,2421.2816,N,08107.4649,W,1,9,2.3,19,M,,M,,*5D
06/16/2015	09:10:59.604	$GPGGA,091100,2421.2816,N,08107.4658,W,1,9,2.3,19,M,,M,,*50
06/16/2015	09:11:00.584	$GPGGA,091101,2421.2816,N,08107.4668,W,1,9,2.3,19,M,,M,,*52
06/16/2015	09:11:01.604	$GPGGA,091102,2421.2816,N,08107.4678,W,1,8,2.5,19,M,,M,,*57
06/16/2015	09:11:02.594	$GPGGA,091103,2421.2818,N,08107.4689,W,1,8,2.3,19,M,,M,,*50
06/16/2015	09:11:03.604	$GPGGA,091104,2421.2819,N,08107.4700,W,1,9,2.3,19,M,,M,,*57
06/16/2015	09:11:04.564	$GPGGA,091105,2421.2820,N,08107.4709,W,1,9,2.3,19,M,,M,,*55
06/16/2015	09:11:05.564	$GPGGA,091106,2421.2820,N,08107.4719,W,1,9,2.3,19,M,,M,,*57
06/16/2015	09:11:06.573	$GPGGA,091107,2421.2820,N,08107.4729,W,1,9,2.3,19,M,,M,,*55
06/16/2015	09:11:07.583	$GPGGA,091108,2421.2822,N,08107.4740,W,1,9,2.3,19,M,,M,,*57
06/16/2015	09:11:08.563	$GPGGA,091109,2421.2821,N,08107.4749,W,1,9,2.3,19,M,,M,,*5C
06/16/2015	09:11:09.573	$GPGGA,091110,2421.2822,N,08107.4761,W,1,9,2.3,19,M,,M,,*5D
06/16/2015	09:11:10.564	$GPGGA,091111,2421.2823,N,08107.4772,W,1,9,2.3,19,M,,M,,*5F
06/16/2015	09:11:11.616	$GPGGA,091112,2421.2823,N,08107.4781,W,1,9,2.3,19,M,,M,,*50
06/16/2015	09:11:12.553	$GPGGA,091113,2421.2823,N,08107.4791,W,1,9,2.3,19,M,,M,,*50
06/16/2015	09:11:13.573	$GPGGA,091114,2421.2823,N,08107.4791,W,1,9,2.3,19,M,,M,,*57
06/16/2015	09:11:14.543	$GPGGA,091115,2421.2824,N,08107.4812,W,1,9,2.3,19,M,,M,,*55
06/16/2015	09:11:15.583	$GPGGA,091116,2421.2823,N,08107.4823,W,1,9,2.3,19,M,,M,,*53
06/16/2015	09:11:16.543	$GPGGA,091117,2421.2823,N,08107.4834,W,1,9,2.3,19,M,,M,,*54
06/16/2015	09:11:17.563	$GPGGA,091118,2421.2824,N,08107.4845,W,1,9,2.3,19,M,,M,,*5A
06/16/2015	09:11:18.543	$GPGGA,091119,2421.2824,N,08107.4855,W,1,9,2.3,19,M,,M,,*5A
06/16/2015	09:11:19.583	$GPGGA,091120,2421.2824,N,08107.4866,W,1,9,2.3,19,M,,M,,*50
06/16/2015	09:11:20.523	$GPGGA,091121,2421.2826,N,08107.4877,W,1,9,2.3,19,M,,M,,*53
06/16/2015	09:11:21.533	$GPGGA,091122,2421.2824,N,08107.4888,W,1,9,2.3,19,M,,M,,*52
06/16/2015	09:11:22.534	$GPGGA,091123,2421.2824,N,08107.4899,W,1,9,2.3,19,M,,M,,*53
06/16/2015	09:11:23.534	$GPGGA,091124,2421.2826,N,08107.4908,W,1,9,2.3,19,M,,M,,*5F
06/16/2015	09:11:24.533	$GPGGA,091125,2421.2825,N,08107.4920,W,1,9,2.3,19,M,,M,,*57
06/16/2015	09:11:25.553	$GPGGA,091126,2421.2827,N,08107.4929,W,1,9,2.3,19,M,,M,,*5F
06/16/2015	09:11:26.523	$GPGGA,091127,2421.2827,N,08107.4939,W,1,9,2.3,19,M,,M,,*5F
06/16/2015	09:11:27.564	$GPGGA,091128,2421.2825,N,08107.4950,W,1,9,2.3,19,M,,M,,*5D
06/16/2015	09:11:28.513	$GPGGA,091129,2421.2827,N,08107.4960,W,1,9,2.3,19,M,,M,,*5D
06/16/2015	09:11:29.504	$GPGGA,091130,2421.2827,N,08107.4971,W,1,9,2.3,20,M,,M,,*5F
06/16/2015	09:11:30.518	$GPGGA,091131,2421.2827,N,08107.4982,W,1,9,2.3,20,M,,M,,*52
06/16/2015	09:11:32.015	$GPGGA,091132,2421.2827,N,08107.4993,W,1,9,2.3,20,M,,M,,*51
06/16/2015	09:11:32.505	$GPGGA,091133,2421.2827,N,08107.5004,W,1,9,2.3,20,M,,M,,*56
06/16/2015	09:11:33.523	$GPGGA,091134,2421.2827,N,08107.5015,W,1,9,2.3,20,M,,M,,*51
06/16/2015	09:11:34.505	$GPGGA,091135,2421.2829,N,08107.5025,W,1,9,2.3,20,M,,M,,*5D
06/16/2015	09:11:35.523	$GPGGA,091136,2421.2828,N,08107.5036,W,1,9,2.3,20,M,,M,,*5D
06/16/2015	09:11:36.507	$GPGGA,091137,2421.2829,N,08107.5047,W,1,9,2.3,20,M,,M,,*5B
06/16/2015	09:11:37.516	$GPGGA,091138,2421.2830,N,08107.5058,W,1,9,2.3,20,M,,M,,*52
06/16/2015	09:11:38.593	$GPGGA,091139,2421.2831,N,08107.5069,W,1,9,2.3,20,M,,M,,*50
06/16/2015	09:11:39.524	$GPGGA,091140,2421.2829,N,08107.5079,W,1,9,2.3,20,M,,M,,*56
06/16/2015	09:11:40.506	$GPGGA,091141,2421.2830,N,08107.5090,W,1,9,2.3,20,M,,M,,*58
06/16/2015	09:11:41.523	$GPGGA,091142,2421.2831,N,08107.5099,W,1,9,2.3,20,M,,M,,*53
06/16/2015	09:11:42.510	$GPGGA,091143,2421.2831,N,08107.5109,W,1,9,2.3,20,M,,M,,*5A
06/16/2015	09:11:43.615	$GPGGA,091144,2421.2831,N,08107.5120,W,1,9,2.3,20,M,,M,,*56
06/16/2015	09:11:44.493	$GPGGA,091145,2421.2831,N,08107.5131,W,1,9,2.3,20,M,,M,,*57
06/16/2015	09:11:45.493	$GPGGA,091146,2421.2831,N,08107.5141,W,1,9,2.3,20,M,,M,,*53
06/16/2015	09:11:46.483	$GPGGA,091147,2421.2831,N,08107.5152,W,1,9,2.3,20,M,,M,,*50
06/16/2015	09:11:47.619	$GPGGA,091148,2421.2831,N,08107.5163,W,1,9,2.3,20,M,,M,,*5D
06/16/2015	09:11:48.574	$GPGGA,091149,2421.2831,N,08107.5173,W,1,9,2.3,20,M,,M,,*5D
06/16/2015	09:11:49.573	$GPGGA,091150,2421.2831,N,08107.5184,W,1,9,2.3,20,M,,M,,*5D
06/16/2015	09:11:50.573	$GPGGA,091151,2421.2831,N,08107.5195,W,1,9,2.3,20,M,,M,,*5C
06/16/2015	09:11:51.609	$GPGGA,091152,2421.2831,N,08107.5206,W,1,9,2.3,20,M,,M,,*56
