Software Version Number: 1	Data File Format Number: 1	Build Version Number: 1	Error Count Since VI Started: 1	Manufacturer: Raytheon	 Model Number: RayMarine 120	 S/N: 	 Cal Date: 	 Wind Direction Offset: 0.00	 Slope (M)1: 0.00	 Offset (B)1: 0.00	 Slope (M)2: 0.00	 Offset (B)2: 0.00	 Slope (M)3: 0.00	 Offset (B)3: 0.00	 Slope (M)4: 0.00	 Offset (B)4: 0.00	 Slope (M)5: 0.00	 Offset (B)5: 0.00	 Slope (M)6: 0.00	 Offset (B)6: 0.00
Computer Date	Computer Time	GGA String
06/16/2015	10:00:00.495	$GPGGA,100001,2421.3065,N,08110.5612,W,1,9,1.5,9,M,,M,,*69
06/16/2015	10:00:01.576	$GPGGA,100002,2421.3064,N,08110.5622,W,1,9,1.5,9,M,,M,,*68
06/16/2015	10:00:02.476	$GPGGA,100003,2421.3065,N,08110.5633,W,1,9,1.5,9,M,,M,,*68
06/16/2015	10:00:03.595	$GPGGA,100004,2421.3064,N,08110.5645,W,1,9,1.5,9,M,,M,,*6F
06/16/2015	10:00:04.575	$GPGGA,100005,2421.3063,N,08110.5658,W,1,9,1.5,9,M,,M,,*65
06/16/2015	10:00:05.575	$GPGGA,100006,2421.3064,N,08110.5668,W,1,9,1.5,9,M,,M,,*62
06/16/2015	10:00:06.565	$GPGGA,100007,2421.3063,N,08110.5679,W,1,9,1.5,9,M,,M,,*64
06/16/2015	10:00:07.585	$GPGGA,100008,2421.3064,N,08110.5690,W,1,9,1.5,9,M,,M,,*6B
06/16/2015	10:00:08.575	$GPGGA,100009,2421.3062,N,08110.5701,W,1,9,1.5,9,M,,M,,*65
06/16/2015	10:00:09.555	$GPGGA,100010,2421.3062,N,08110.5712,W,1,9,1.5,9,M,,M,,*6F
06/16/2015	10:00:10.555	$GPGGA,100011,2421.3062,N,08110.5723,W,1,9,1.5,9,M,,M,,*6C
06/16/2015	10:00:11.595	$GPGGA,100012,2421.3062,N,08110.5735,W,1,9,1.5,9,M,,M,,*68
06/16/2015	10:00:12.555	$GPGGA,100013,2421.3062,N,08110.5748,W,1,9,1.5,9,M,,M,,*63
06/16/2015	10:00:13.541	$GPGGA,100014,2421.3060,N,08110.5759,W,1,9,1.5,9,M,,M,,*66
06/16/2015	10:00:14.539	$GPGGA,100015,2421.3061,N,08110.5770,W,1,9,1.5,9,M,,M,,*6D
06/16/2015	10:00:15.575	$GPGGA,100016,2421.3060,N,08110.5780,W,1,9,1.5,9,M,,M,,*60
06/16/2015	10:00:16.549	$GPGGA,100017,2421.3061,N,08110.5792,W,1,9,1.5,9,M,,M,,*63
06/16/2015	10:00:17.565	$GPGGA,100018,2421.3059,N,08110.5803,W,1,9,1.5,9,M,,M,,*60
06/16/2015	10:00:20.017	$GPGGA,100019,2421.3058,N,08110.5816,W,1,9,1.5,9,M,,M,,*64
06/16/2015	10:00:20.076	$GPGGA,100020,2421.3058,N,08110.5827,W,1,9,1.5,9,M,,M,,*6C
06/16/2015	10:00:20.539	$GPGGA,100021,2421.3058,N,08110.5838,W,1,9,1.5,9,M,,M,,*63
06/16/2015	10:00:21.575	$GPGGA,100022,2421.3057,N,08110.5849,W,1,9,1.5,9,M,,M,,*69
06/16/2015	10:00:22.534	$GPGGA,100023,2421.3058,N,08110.5860,W,1,9,1.5,9,M,,M,,*6C
06/16/2015	10:00:23.575	$GPGGA,100024,2421.3057,N,08110.5871,W,1,9,1.5,9,M,,M,,*64
06/16/2015	10:00:24.528	$GPGGA,100025,2421.3056,N,08110.5883,W,1,9,1.5,9,M,,M,,*69
06/16/2015	10:00:25.555	$GPGGA,100026,2421.3057,N,08110.5896,W,1,9,1.5,9,M,,M,,*6F
06/16/2015	10:00:26.539	$GPGGA,100027,2421.3055,N,08110.5907,W,1,9,1.5,9,M,,M,,*65
06/16/2015	10:00:27.565	$GPGGA,100028,2421.3055,N,08110.5918,W,1,9,1.5,9,M,,M,,*64
06/16/2015	10:00:28.515	$GPGGA,100029,2421.3055,N,08110.5929,W,1,9,1.5,9,M,,M,,*67
06/16/2015	10:00:29.555	$GPGGA,100030,2421.3055,N,08110.5939,W,1,9,1.5,9,M,,M,,*6E
06/16/2015	10:00:30.505	$GPGGA,100031,2421.3052,N,08110.5950,W,1,9,1.5,9,M,,M,,*67
06/16/2015	10:00:31.875	$GPGGA,100032,2421.3051,N,08110.5961,W,1,9,1.5,9,M,,M,,*65
06/16/2015	10:00:32.515	$GPGGA,100033,2421.3051,N,08110.5973,W,1,9,1.5,9,M,,M,,*67
06/16/2015	10:00:33.505	$GPGGA,100034,2421.3051,N,08110.5986,W,1,9,1.5,9,M,,M,,*6A
06/16/2015	10:00:34.515	$GPGGA,100035,2421.3049,N,08110.5997,W,1,9,1.5,9,M,,M,,*62
06/16/2015	10:00:35.538	$GPGGA,100036,2421.3050,N,08110.6008,W,1,9,1.5,9,M,,M,,*65
06/16/2015	10:00:36.496	$GPGGA,100037,2421.3049,N,08110.6019,W,1,9,1.5,9,M,,M,,*6C
06/16/2015	10:00:37.616	$GPGGA,100038,2421.3048,N,08110.6030,W,1,9,1.5,9,M,,M,,*69
06/16/2015	10:00:38.505	$GPGGA,100039,2421.3047,N,08110.6040,W,1,9,1.5,9,M,,M,,*60
06/16/2015	10:00:39.636	$GPGGA,100040,2421.3047,N,08110.6051,W,1,9,1.5,8,M,,M,,*6F
06/16/2015	10:00:40.505	$GPGGA,100041,2421.3046,N,08110.6063,W,1,9,1.5,8,M,,M,,*6E
06/16/2015	10:00:41.616	$GPGGA,100042,2421.3045,N,08110.6074,W,1,8,1.9,8,M,,M,,*65
06/16/2015	10:00:42.505	$GPGGA,100043,2421.3046,N,08110.6085,W,1,8,1.5,8,M,,M,,*65
06/16/2015	10:00:43.635	$GPGGA,100044,2421.3045,N,08110.6095,W,1,9,1.5,8,M,,M,,*61
06/16/2015	10:00:44.585	$GPGGA,100045,2421.3044,N,08110.6106,W,1,9,1.5,8,M,,M,,*6A
06/16/2015	10:00:45.585	$GPGGA,100046,2421.3044,N,08110.6117,W,1,9,1.5,8,M,,M,,*69
06/16/2015	10:00:46.505	$GPGGA,100047,2421.3044,N,08110.6128,W,1,9,1.5,8,M,,M,,*64
06/16/2015	10:00:47.595	$GPGGA,100048,2421.3044,N,08110.6141,W,1,9,1.5,8,M,,M,,*64
06/16/2015	10:00:48.495	$GPGGA,100049,2421.3044,N,08110.6150,W,1,9,1.6,8,M,,M,,*66
06/16/2015	10:00:49.895	$GPGGA,100050,2421.3044,N,08110.6160,W,1,9,1.5,8,M,,M,,*6E
06/16/2015	10:00:50.575	$GPGGA,100051,2421.3044,N,08110.6172,W,1,9,1.5,8,M,,M,,*6C
06/16/2015	10:00:51.615	$GPGGA,100052,2421.3044,N,08110.6182,W,1,9,1.5,8,M,,M,,*60
06/16/2015	10:00:52.565	$GPGGA,100053,2421.3044,N,08110.6193,W,1,9,1.5,8,M,,M,,*61
06/16/2015	10:00:53.595	$GPGGA,100054,2421.3044,N,08110.6203,W,1,9,1.5,8,M,,M,,*6C
06/16/2015	10:00:54.566	$GPGGA,100055,2421.3044,N,08110.6214,W,1,9,1.5,8,M,,M,,*6B
06/16/2015	10:00:55.566	$GPGGA,100056,2421.3044,N,08110.6223,W,1,9,1.5,8,M,,M,,*6C
06/16/2015	10:00:56.565	$GPGGA,100057,2421.3044,N,08110.6235,W,1,9,1.5,8,M,,M,,*6A
06/16/2015	10:00:57.555	$GPGGA,100058,2421.3044,N,08110.6246,W,1,9,1.5,9,M,,M,,*60
06/16/2015	10:00:58.585	$GPGGA,100059,2421.3046,N,08110.6255,W,1,9,1.6,9,M,,M,,*62
06/16/2015	10:00:59.585	$GPGGA,100100,2421.3047,N,08110.6264,W,1,9,1.5,9,M,,M,,*6F
06/16/2015	10:01:00.565	$GPGGA,100101,2421.3049,N,08110.6275,W,1,9,1.5,9,M,,M,,*60
06/16/2015	10:01:01.555	$GPGGA,100102,2421.3048,N,08110.6286,W,1,9,1.5,9,M,,M,,*6E
06/16/2015	10:01:02.555	$GPGGA,100103,2421.3050,N,08110.6295,W,1,9,1.5,9,M,,M,,*64
06/16/2015	10:01:03.585	$GPGGA,100104,2421.3049,N,08110.6306,W,1,9,1.5,9,M,,M,,*60
06/16/2015	10:01:04.528	$GPGGA,100105,2421.3050,N,08110.6316,W,1,9,1.5,9,M,,M,,*68
06/16/2015	10:01:05.555	$GPGGA,100106,2421.3051,N,08110.6327,W,1,9,1.5,9,M,,M,,*68
06/16/2015	10:01:06.535	$GPGGA,100107,2421.3051,N,08110.6340,W,1,9,1.5,9,M,,M,,*68
06/16/2015	10:01:07.565	$GPGGA,100108,2421.3049,N,08110.6349,W,1,9,1.5,9,M,,M,,*67
06/16/2015	10:01:08.535	$GPGGA,100109,2421.3050,N,08110.6360,W,1,9,1.5,9,M,,M,,*65
06/16/2015	10:01:09.555	$GPGGA,100110,2421.3049,N,08110.6370,W,1,9,1.5,9,M,,M,,*64
06/16/2015	10:01:10.535	$GPGGA,100111,2421.3051,N,08110.6380,W,1,9,1.5,9,M,,M,,*63
06/16/2015	10:01:11.565	$GPGGA,100112,2421.3051,N,08110.6391,W,1,9,1.5,9,M,,M,,*60
06/16/2015	10:01:12.530	$GPGGA,100113,2421.3049,N,08110.6402,W,1,9,1.5,9,M,,M,,*65
06/16/2015	10:01:13.554	$GPGGA,100114,2421.3050,N,08110.6413,W,1,9,1.5,9,M,,M,,*6A
06/16/2015	10:01:14.526	$GPGGA,100115,2421.3049,N,08110.6424,W,1,9,1.5,9,M,,M,,*67
06/16/2015	10:01:15.526	$GPGGA,100116,2421.3051,N,08110.6434,W,1,9,1.5,10,M,,M,,*54
06/16/2015	10:01:16.518	$GPGGA,100117,2421.3049,N,08110.6445,W,1,9,1.5,10,M,,M,,*5A
06/16/2015	10:01:17.524	$GPGGA,100118,2421.3048,N,08110.6454,W,1,9,1.5,10,M,,M,,*54
06/16/2015	10:01:18.784	$GPGGA,100119,2421.3047,N,08110.6467,W,1,9,1.5,10,M,,M,,*5A
06/16/2015	10:01:19.544	$GPGGA,100120,2421.3046,N,08110.6478,W,1,8,1.6,10,M,,M,,*5D
06/16/2015	10:01:20.504	$GPGGA,100121,2421.3045,N,08110.6490,W,1,8,1.5,10,M,,M,,*5A
06/16/2015	10:01:21.504	$GPGGA,100122,2421.3044,N,08110.6501,W,1,9,1.5,10,M,,M,,*50
06/16/2015	10:01:22.505	$GPGGA,100123,2421.3044,N,08110.6512,W,1,9,1.5,10,M,,M,,*53
06/16/2015	10:01:23.545	$GPGGA,100124,2421.3044,N,08110.6522,W,1,9,1.5,10,M,,M,,*57
06/16/2015	10:01:24.505	$GPGGA,100125,2421.3044,N,08110.6532,W,1,9,1.5,10,M,,M,,*57
06/16/2015	10:01:25.605	$GPGGA,100126,2421.3044,N,08110.6543,W,1,9,1.5,10,M,,M,,*52
06/16/2015	10:01:26.505	$GPGGA,100127,2421.3042,N,08110.6554,W,1,9,1.6,10,M,,M,,*50
06/16/2015	10:01:27.518	$GPGGA,100128,2421.3041,N,08110.6565,W,1,9,1.5,10,M,,M,,*5D
06/16/2015	10:01:28.505	$GPGGA,100129,2421.3042,N,08110.6577,W,1,9,1.5,10,M,,M,,*5C
06/16/2015	10:01:29.495	$GPGGA,100130,2421.3040,N,08110.6587,W,1,9,1.5,10,M,,M,,*59
06/16/2015	10:01:30.495	$GPGGA,100131,2421.3040,N,08110.6597,W,1,9,1.5,10,M,,M,,*59
06/16/2015	10:01:31.494	$GPGGA,100132,2421.3040,N,08110.6608,W,1,9,1.5,10,M,,M,,*5F
06/16/2015	10:01:32.604	$GPGGA,100133,2421.3040,N,08110.6618,W,1,9,1.5,10,M,,M,,*5F
06/16/2015	10:01:33.604	$GPGGA,100134,2421.3038,N,08110.6629,W,1,9,1.5,10,M,,M,,*55
06/16/2015	10:01:34.494	$GPGGA,100135,2421.3039,N,08110.6638,W,1,9,1.5,10,M,,M,,*55
06/16/2015	10:01:35.625	$GPGGA,100136,2421.3040,N,08110.6648,W,1,9,1.5,10,M,,M,,*5F
06/16/2015	10:01:36.494	$GPGGA,100137,2421.3040,N,08110.6659,W,1,9,1.5,10,M,,M,,*5E
06/16/2015	10:01:37.464	$GPGGA,100138,2421.3038,N,08110.6670,W,1,9,1.5,10,M,,M,,*55
06/16/2015	10:01:38.564	$GPGGA,100139,2421.3037,N,08110.6680,W,1,9,1.5,10,M,,M,,*54
06/16/2015	10:01:40.616	$GPGGA,100141,2421.3038,N,08110.6699,W,1,9,1.5,10,M,,M,,*5C
06/16/2015	10:01:41.585	$GPGGA,100142,2421.3039,N,08110.6709,W,1,9,1.5,10,M,,M,,*56
06/16/2015	10:01:42.566	$GPGGA,100143,2421.3038,N,08110.6720,W,1,9,1.5,10,M,,M,,*5D
06/16/2015	10:01:43.595	$GPGGA,100144,2421.3037,N,08110.6731,W,1,9,1.5,10,M,,M,,*55
06/16/2015	10:01:44.555	$GPGGA,100145,2421.3037,N,08110.6742,W,1,9,1.5,10,M,,M,,*50
06/16/2015	10:01:45.565	$GPGGA,100146,2421.3037,N,08110.6752,W,1,9,1.5,10,M,,M,,*52
06/16/2015	10:01:46.555	$GPGGA,100147,2421.3039,N,08110.6763,W,1,9,1.5,10,M,,M,,*5F
06/16/2015	10:01:47.595	$GPGGA,100148,2421.3038,N,08110.6771,W,1,9,1.5,10,M,,M,,*52
06/16/2015	10:01:48.554	$GPGGA,100149,2421.3039,N,08110.6781,W,1,9,1.5,10,M,,M,,*5D
06/16/2015	10:01:49.544	$GPGGA,100150,2421.3038,N,08110.6792,W,1,9,1.5,10,M,,M,,*56
06/16/2015	10:01:50.544	$GPGGA,100151,2421.3039,N,08110.6803,W,1,9,1.5,10,M,,M,,*51
06/16/2015	10:01:51.584	$GPGGA,100152,2421.3037,N,08110.6814,W,1,9,1.5,10,M,,M,,*5A
06/16/2015	10:01:52.534	$GPGGA,100153,2421.3037,N,08110.6824,W,1,9,1.5,10,M,,M,,*58
06/16/2015	10:01:53.554	$GPGGA,100154,2421.3037,N,08110.6835,W,1,9,1.5,10,M,,M,,*5F
06/16/2015	10:01:54.534	$GPGGA,100155,2421.3039,N,08110.6844,W,1,9,1.5,10,M,,M,,*56
06/16/2015	10:01:55.544	$GPGGA,100156,2421.3038,N,08110.6853,W,1,9,1.5,10,M,,M,,*52
06/16/2015	10:01:56.545	$GPGGA,100157,2421.3037,N,08110.6864,W,1,9,1.5,10,M,,M,,*58
06/16/2015	10:01:57.555	$GPGGA,100158,2421.3039,N,08110.6875,W,1,9,1.5,10,M,,M,,*59
06/16/2015	10:01:58.535	$GPGGA,100159,2421.3040,N,08110.6886,W,1,9,1.5,9,M,,M,,*62
06/16/2015	10:01:59.565	$GPGGA,100200,2421.3040,N,08110.6897,W,1,9,1.5,9,M,,M,,*6D
06/16/2015	10:02:00.534	$GPGGA,100201,2421.3038,N,08110.6907,W,1,9,1.5,9,M,,M,,*6B
06/16/2015	10:02:01.522	$GPGGA,100202,2421.3039,N,08110.6916,W,1,9,1.5,9,M,,M,,*69
06/16/2015	10:02:02.522	$GPGGA,100203,2421.3040,N,08110.6926,W,1,9,1.5,9,M,,M,,*65
06/16/2015	10:02:03.555	$GPGGA,100204,2421.3040,N,08110.6936,W,1,9,1.5,9,M,,M,,*63
06/16/2015	10:02:05.536	$GPGGA,100206,2421.3037,N,08110.6958,W,1,8,1.6,9,M,,M,,*6B
06/16/2015	10:02:06.517	$GPGGA,100207,2421.3037,N,08110.6969,W,1,8,1.5,9,M,,M,,*6B
06/16/2015	10:02:07.554	$GPGGA,100208,2421.3039,N,08110.6978,W,1,9,1.5,9,M,,M,,*6B
06/16/2015	10:02:08.504	$GPGGA,100209,2421.3037,N,08110.6987,W,1,9,1.5,9,M,,M,,*64
06/16/2015	10:02:09.534	$GPGGA,100210,2421.3039,N,08110.6998,W,1,9,1.5,9,M,,M,,*6C
06/16/2015	10:02:10.494	$GPGGA,100211,2421.3040,N,08110.7006,W,1,9,1.5,9,M,,M,,*6C
06/16/2015	10:02:11.528	$GPGGA,100212,2421.3040,N,08110.7016,W,1,9,1.5,9,M,,M,,*6E
06/16/2015	10:02:12.621	$GPGGA,100213,2421.3040,N,08110.7027,W,1,9,1.5,9,M,,M,,*6D
06/16/2015	10:02:13.527	$GPGGA,100214,2421.3040,N,08110.7035,W,1,9,1.5,9,M,,M,,*69
06/16/2015	10:02:14.505	$GPGGA,100215,2421.3040,N,08110.7045,W,1,9,1.5,9,M,,M,,*6F
06/16/2015	10:02:15.536	$GPGGA,100216,2421.3040,N,08110.7056,W,1,9,1.5,9,M,,M,,*6E
06/16/2015	10:02:16.495	$GPGGA,100217,2421.3040,N,08110.7066,W,1,9,1.5,9,M,,M,,*6C
06/16/2015	10:02:17.605	$GPGGA,100218,2421.3040,N,08110.7077,W,1,9,1.5,9,M,,M,,*63
06/16/2015	10:02:18.605	$GPGGA,100219,2421.3040,N,08110.7086,W,1,9,1.5,9,M,,M,,*6C
06/16/2015	10:02:19.530	$GPGGA,100220,2421.3040,N,08110.7096,W,1,9,1.5,9,M,,M,,*67
06/16/2015	10:02:20.575	$GPGGA,100221,2421.3040,N,08110.7107,W,1,9,1.5,9,M,,M,,*6F
06/16/2015	10:02:21.605	$GPGGA,100222,2421.3038,N,08110.7118,W,1,9,1.5,9,M,,M,,*6D
06/16/2015	10:02:22.495	$GPGGA,100223,2421.3039,N,08110.7129,W,1,9,1.5,9,M,,M,,*6F
06/16/2015	10:02:23.594	$GPGGA,100224,2421.3038,N,08110.7140,W,1,9,1.5,9,M,,M,,*66
06/16/2015	10:02:24.484	$GPGGA,100225,2421.3039,N,08110.7150,W,1,9,1.5,9,M,,M,,*67
06/16/2015	10:02:25.484	$GPGGA,100226,2421.3036,N,08110.7161,W,1,9,1.5,9,M,,M,,*69
06/16/2015	10:02:26.474	$GPGGA,100227,2421.3036,N,08110.7171,W,1,9,1.5,9,M,,M,,*69
06/16/2015	10:02:27.494	$GPGGA,100228,2421.3035,N,08110.7183,W,1,9,1.5,9,M,,M,,*68
06/16/2015	10:02:28.554	$GPGGA,100229,2421.3036,N,08110.7194,W,1,9,1.5,9,M,,M,,*6C
06/16/2015	10:02:29.574	$GPGGA,100230,2421.3034,N,08110.7205,W,1,9,1.5,9,M,,M,,*6D
06/16/2015	10:02:30.564	$GPGGA,100231,2421.3035,N,08110.7216,W,1,9,1.5,9,M,,M,,*6F
06/16/2015	10:02:31.585	$GPGGA,100232,2421.3033,N,08110.7227,W,1,9,1.5,9,M,,M,,*68
06/16/2015	10:02:32.565	$GPGGA,100233,2421.3033,N,08110.7237,W,1,9,1.5,9,M,,M,,*68
06/16/2015	10:02:33.565	$GPGGA,100234,2421.3031,N,08110.7249,W,1,9,1.5,9,M,,M,,*64
06/16/2015	10:02:34.555	$GPGGA,100235,2421.3032,N,08110.7262,W,1,9,1.5,9,M,,M,,*6F
06/16/2015	10:02:35.555	$GPGGA,100236,2421.3030,N,08110.7272,W,1,9,1.5,9,M,,M,,*6F
06/16/2015	10:02:37.142	$GPGGA,100237,2421.3029,N,08110.7283,W,1,9,1.5,9,M,,M,,*68
06/16/2015	10:02:37.539	$GPGGA,100238,2421.3029,N,08110.7294,W,1,9,1.5,9,M,,M,,*61
06/16/2015	10:02:38.536	$GPGGA,100239,2421.3029,N,08110.7305,W,1,9,1.5,9,M,,M,,*69
06/16/2015	10:02:39.575	$GPGGA,100240,2421.3028,N,08110.7316,W,1,9,1.5,9,M,,M,,*64
06/16/2015	10:02:40.545	$GPGGA,100241,2421.3029,N,08110.7327,W,1,9,1.5,9,M,,M,,*66
06/16/2015	10:02:41.534	$GPGGA,100242,2421.3027,N,08110.7339,W,1,9,1.5,9,M,,M,,*64
06/16/2015	10:02:42.544	$GPGGA,100243,2421.3026,N,08110.7350,W,1,9,1.5,9,M,,M,,*6B
06/16/2015	10:02:43.544	$GPGGA,100244,2421.3026,N,08110.7363,W,1,9,1.5,9,M,,M,,*6C
06/16/2015	10:02:44.527	$GPGGA,100245,2421.3026,N,08110.7374,W,1,9,1.5,9,M,,M,,*6B
06/16/2015	10:02:45.554	$GPGGA,100246,2421.3026,N,08110.7384,W,1,9,1.5,9,M,,M,,*67
06/16/2015	10:02:46.534	$GPGGA,100247,2421.3026,N,08110.7395,W,1,9,1.5,9,M,,M,,*66
06/16/2015	10:02:47.564	$GPGGA,100248,2421.3023,N,08110.7407,W,1,8,1.6,9,M,,M,,*62
06/16/2015	10:02:48.514	$GPGGA,100249,2421.3022,N,08110.7420,W,1,8,1.5,9,M,,M,,*64
06/16/2015	10:02:49.518	$GPGGA,100250,2421.3022,N,08110.7431,W,1,9,1.5,9,M,,M,,*6D
06/16/2015	10:02:50.526	$GPGGA,100251,2421.3022,N,08110.7442,W,1,9,1.5,9,M,,M,,*68
06/16/2015	10:02:51.535	$GPGGA,100252,2421.3022,N,08110.7453,W,1,9,1.5,9,M,,M,,*6B
06/16/2015	10:02:52.518	$GPGGA,100253,2421.3022,N,08110.7464,W,1,9,1.5,9,M,,M,,*6E
06/16/2015	10:02:53.532	$GPGGA,100254,2421.3022,N,08110.7475,W,1,9,1.5,9,M,,M,,*69
06/16/2015	10:02:54.520	$GPGGA,100255,2421.3022,N,08110.7485,W,1,9,1.5,9,M,,M,,*67
06/16/2015	10:02:55.545	$GPGGA,100256,2421.3022,N,08110.7496,W,1,9,1.5,9,M,,M,,*66
06/16/2015	10:02:56.518	$GPGGA,100257,2421.3022,N,08110.7507,W,1,9,1.6,9,M,,M,,*6D
06/16/2015	10:02:57.505	$GPGGA,100258,2421.3020,N,08110.7518,W,1,9,1.5,9,M,,M,,*6D
06/16/2015	10:02:58.523	$GPGGA,100259,2421.3022,N,08110.7529,W,1,9,1.5,9,M,,M,,*6C
06/16/2015	10:02:59.554	$GPGGA,100300,2421.3020,N,08110.7540,W,1,9,1.5,9,M,,M,,*6C
06/16/2015	10:03:00.531	$GPGGA,100301,2421.3022,N,08110.7550,W,1,9,1.6,9,M,,M,,*6D
06/16/2015	10:03:01.529	$GPGGA,100302,2421.3020,N,08110.7561,W,1,9,1.5,9,M,,M,,*6D
06/16/2015	10:03:02.494	$GPGGA,100303,2421.3021,N,08110.7572,W,1,9,1.6,9,M,,M,,*6C
06/16/2015	10:03:03.624	$GPGGA,100304,2421.3022,N,08110.7581,W,1,9,1.5,9,M,,M,,*67
06/16/2015	10:03:04.508	$GPGGA,100305,2421.3022,N,08110.7592,W,1,9,1.5,9,M,,M,,*64
06/16/2015	10:03:05.504	$GPGGA,100306,2421.3020,N,08110.7603,W,1,9,1.5,9,M,,M,,*6E
06/16/2015	10:03:06.495	$GPGGA,100307,2421.3021,N,08110.7615,W,1,9,1.5,9,M,,M,,*69
06/16/2015	10:03:07.517	$GPGGA,100308,2421.3022,N,08110.7626,W,1,9,1.5,9,M,,M,,*65
06/16/2015	10:03:08.495	$GPGGA,100309,2421.3022,N,08110.7637,W,1,9,1.5,9,M,,M,,*64
06/16/2015	10:03:09.519	$GPGGA,100310,2421.3020,N,08110.7648,W,1,9,1.5,9,M,,M,,*66
06/16/2015	10:03:10.485	$GPGGA,100311,2421.3022,N,08110.7657,W,1,9,1.5,9,M,,M,,*6B
06/16/2015	10:03:11.517	$GPGGA,100312,2421.3022,N,08110.7668,W,1,9,1.5,9,M,,M,,*64
06/16/2015	10:03:12.475	$GPGGA,100313,2421.3022,N,08110.7680,W,1,9,1.5,9,M,,M,,*63
06/16/2015	10:03:13.495	$GPGGA,100314,2421.3022,N,08110.7691,W,1,9,1.5,9,M,,M,,*64
06/16/2015	10:03:14.485	$GPGGA,100315,2421.3022,N,08110.7702,W,1,9,1.5,9,M,,M,,*6E
06/16/2015	10:03:15.595	$GPGGA,100316,2421.3022,N,08110.7711,W,1,9,1.5,9,M,,M,,*6F
06/16/2015	10:03:16.574	$GPGGA,100317,2421.3022,N,08110.7722,W,1,9,1.5,9,M,,M,,*6E
06/16/2015	10:03:17.474	$GPGGA,100318,2421.3022,N,08110.7732,W,1,9,1.5,9,M,,M,,*60
06/16/2015	10:03:18.474	$GPGGA,100319,2421.3022,N,08110.7743,W,1,9,1.5,9,M,,M,,*67
06/16/2015	10:03:19.584	$GPGGA,100320,2421.3022,N,08110.7756,W,1,9,1.5,9,M,,M,,*69
06/16/2015	10:03:20.564	$GPGGA,100321,2421.3022,N,08110.7767,W,1,9,1.5,9,M,,M,,*6A
06/16/2015	10:03:21.574	$GPGGA,100322,2421.3022,N,08110.7778,W,1,9,1.5,9,M,,M,,*67
06/16/2015	10:03:22.554	$GPGGA,100323,2421.3022,N,08110.7789,W,1,9,1.5,9,M,,M,,*68
06/16/2015	10:03:23.594	$GPGGA,100324,2421.3022,N,08110.7798,W,1,9,1.5,9,M,,M,,*6F
06/16/2015	10:03:24.575	$GPGGA,100325,2421.3022,N,08110.7809,W,1,9,1.5,9,M,,M,,*69
06/16/2015	10:03:25.555	$GPGGA,100326,2421.3020,N,08110.7821,W,1,9,1.5,9,M,,M,,*62
06/16/2015	10:03:26.555	$GPGGA,100327,2421.3021,N,08110.7830,W,1,9,1.5,9,M,,M,,*62
06/16/2015	10:03:27.575	$GPGGA,100328,2421.3020,N,08110.7843,W,1,9,1.5,9,M,,M,,*68
06/16/2015	10:03:28.545	$GPGGA,100329,2421.3021,N,08110.7854,W,1,9,1.5,9,M,,M,,*6E
06/16/2015	10:03:29.575	$GPGGA,100330,2421.3020,N,08110.7865,W,1,9,1.5,9,M,,M,,*65
06/16/2015	10:03:30.545	$GPGGA,100331,2421.3021,N,08110.7876,W,1,9,1.6,9,M,,M,,*64
06/16/2015	10:03:31.585	$GPGGA,100332,2421.3022,N,08110.7886,W,1,8,1.7,9,M,,M,,*6B
06/16/2015	10:03:32.535	$GPGGA,100333,2421.3019,N,08110.7897,W,1,8,1.6,9,M,,M,,*63
06/16/2015	10:03:33.554	$GPGGA,100334,2421.3017,N,08110.7910,W,1,8,1.5,9,M,,M,,*67
06/16/2015	10:03:34.534	$GPGGA,100335,2421.3018,N,08110.7921,W,1,8,1.5,9,M,,M,,*6B
06/16/2015	10:03:35.564	$GPGGA,100336,2421.3016,N,08110.7933,W,1,9,1.5,9,M,,M,,*64
06/16/2015	10:03:36.534	$GPGGA,100337,2421.3017,N,08110.7944,W,1,9,1.5,9,M,,M,,*64
06/16/2015	10:03:37.554	$GPGGA,100338,2421.3016,N,08110.7955,W,1,9,1.5,9,M,,M,,*6A
06/16/2015	10:03:38.524	$GPGGA,100339,2421.3017,N,08110.7964,W,1,9,1.5,9,M,,M,,*68
06/16/2015	10:03:39.594	$GPGGA,100340,2421.3016,N,08110.7974,W,1,9,1.5,9,M,,M,,*66
06/16/2015	10:03:40.534	$GPGGA,100341,2421.3017,N,08110.7985,W,1,9,1.5,9,M,,M,,*68
06/16/2015	10:03:41.523	$GPGGA,100342,2421.3016,N,08110.7996,W,1,9,1.5,9,M,,M,,*68
06/16/2015	10:03:42.525	$GPGGA,100343,2421.3015,N,08110.8007,W,1,9,1.5,9,M,,M,,*64
06/16/2015	10:03:43.565	$GPGGA,100344,2421.3015,N,08110.8020,W,1,9,1.5,9,M,,M,,*66
06/16/2015	10:03:44.531	$GPGGA,100345,2421.3015,N,08110.8031,W,1,9,1.5,9,M,,M,,*67
06/16/2015	10:03:45.535	$GPGGA,100346,2421.3015,N,08110.8042,W,1,9,1.5,9,M,,M,,*60
06/16/2015	10:03:46.505	$GPGGA,100347,2421.3015,N,08110.8051,W,1,9,1.5,10,M,,M,,*5B
06/16/2015	10:03:47.535	$GPGGA,100348,2421.3013,N,08110.8063,W,1,9,1.5,10,M,,M,,*53
06/16/2015	10:03:48.505	$GPGGA,100349,2421.3012,N,08110.8074,W,1,9,1.5,10,M,,M,,*55
06/16/2015	10:03:49.545	$GPGGA,100350,2421.3011,N,08110.8086,W,1,9,1.5,10,M,,M,,*53
06/16/2015	10:03:50.525	$GPGGA,100351,2421.3010,N,08110.8098,W,1,9,1.5,10,M,,M,,*5C
06/16/2015	10:03:51.544	$GPGGA,100352,2421.3011,N,08110.8111,W,1,9,1.5,10,M,,M,,*5E
06/16/2015	10:03:52.524	$GPGGA,100353,2421.3008,N,08110.8122,W,1,9,1.6,10,M,,M,,*54
06/16/2015	10:03:53.594	$GPGGA,100354,2421.3008,N,08110.8133,W,1,8,1.5,10,M,,M,,*51
06/16/2015	10:03:54.516	$GPGGA,100355,2421.3008,N,08110.8144,W,1,8,1.5,10,M,,M,,*50
06/16/2015	10:03:55.544	$GPGGA,100356,2421.3008,N,08110.8155,W,1,9,1.5,10,M,,M,,*52
06/16/2015	10:03:56.514	$GPGGA,100357,2421.3006,N,08110.8165,W,1,9,1.5,10,M,,M,,*5E
06/16/2015	10:03:57.515	$GPGGA,100358,2421.3005,N,08110.8177,W,1,9,1.5,10,M,,M,,*51
06/16/2015	10:03:58.514	$GPGGA,100359,2421.3004,N,08110.8190,W,1,9,1.5,10,M,,M,,*58
06/16/2015	10:03:59.645	$GPGGA,100400,2421.3004,N,08110.8201,W,1,9,1.5,10,M,,M,,*58
06/16/2015	10:04:00.575	$GPGGA,100401,2421.3004,N,08110.8212,W,1,9,1.5,10,M,,M,,*5B
06/16/2015	10:04:01.585	$GPGGA,100402,2421.3004,N,08110.8223,W,1,9,1.5,10,M,,M,,*5A
06/16/2015	10:04:02.485	$GPGGA,100403,2421.3001,N,08110.8233,W,1,9,1.5,10,M,,M,,*5F
06/16/2015	10:04:03.975	$GPGGA,100404,2421.3001,N,08110.8244,W,1,9,1.5,10,M,,M,,*58
06/16/2015	10:04:04.575	$GPGGA,100405,2421.3001,N,08110.8256,W,1,9,1.5,10,M,,M,,*5A
06/16/2015	10:04:05.485	$GPGGA,100406,2421.3000,N,08110.8269,W,1,9,1.5,10,M,,M,,*54
06/16/2015	10:04:06.585	$GPGGA,100407,2421.2999,N,08110.8280,W,1,9,1.5,10,M,,M,,*5A
06/16/2015	10:04:07.575	$GPGGA,100408,2421.3000,N,08110.8291,W,1,9,1.5,10,M,,M,,*5D
06/16/2015	10:04:08.584	$GPGGA,100409,2421.2999,N,08110.8302,W,1,9,1.5,10,M,,M,,*5F
06/16/2015	10:04:09.474	$GPGGA,100410,2421.2998,N,08110.8314,W,1,9,1.6,10,M,,M,,*52
06/16/2015	10:04:10.574	$GPGGA,100411,2421.2999,N,08110.8324,W,1,9,1.6,10,M,,M,,*51
06/16/2015	10:04:11.594	$GPGGA,100412,2421.2997,N,08110.8335,W,1,9,1.5,10,M,,M,,*5F
06/16/2015	10:04:12.554	$GPGGA,100413,2421.2997,N,08110.8347,W,1,9,1.5,10,M,,M,,*5B
06/16/2015	10:04:13.574	$GPGGA,100414,2421.2997,N,08110.8360,W,1,9,1.5,10,M,,M,,*59
06/16/2015	10:04:14.554	$GPGGA,100415,2421.2995,N,08110.8372,W,1,9,1.6,10,M,,M,,*5A
06/16/2015	10:04:15.564	$GPGGA,100416,2421.2996,N,08110.8383,W,1,9,1.5,10,M,,M,,*57
06/16/2015	10:04:16.555	$GPGGA,100417,2421.2995,N,08110.8394,W,1,9,1.5,10,M,,M,,*53
06/16/2015	10:04:17.585	$GPGGA,100418,2421.2996,N,08110.8404,W,1,9,1.5,10,M,,M,,*51
06/16/2015	10:04:18.545	$GPGGA,100419,2421.2995,N,08110.8415,W,1,9,1.5,10,M,,M,,*53
06/16/2015	10:04:19.585	$GPGGA,100420,2421.2996,N,08110.8426,W,1,9,1.5,10,M,,M,,*5A
06/16/2015	10:04:20.545	$GPGGA,100421,2421.2995,N,08110.8439,W,1,9,1.5,10,M,,M,,*56
06/16/2015	10:04:21.555	$GPGGA,100422,2421.2994,N,08110.8450,W,1,9,1.5,10,M,,M,,*5B
06/16/2015	10:04:22.545	$GPGGA,100423,2421.2996,N,08110.8461,W,1,9,1.5,10,M,,M,,*5A
06/16/2015	10:04:23.545	$GPGGA,100424,2421.2997,N,08110.8472,W,1,9,1.5,10,M,,M,,*5E
06/16/2015	10:04:24.545	$GPGGA,100425,2421.2997,N,08110.8480,W,1,9,1.5,10,M,,M,,*52
06/16/2015	10:04:25.554	$GPGGA,100426,2421.2995,N,08110.8491,W,1,8,1.7,10,M,,M,,*50
06/16/2015	10:04:26.534	$GPGGA,100427,2421.2994,N,08110.8504,W,1,8,1.5,10,M,,M,,*5F
06/16/2015	10:04:27.564	$GPGGA,100428,2421.2993,N,08110.8515,W,1,8,1.6,10,M,,M,,*54
06/16/2015	10:04:28.534	$GPGGA,100429,2421.2991,N,08110.8529,W,1,8,1.5,10,M,,M,,*5B
06/16/2015	10:04:29.544	$GPGGA,100430,2421.2990,N,08110.8540,W,1,8,1.6,10,M,,M,,*5E
06/16/2015	10:04:30.534	$GPGGA,100431,2421.2990,N,08110.8552,W,1,8,1.6,10,M,,M,,*5C
06/16/2015	10:04:31.544	$GPGGA,100432,2421.2988,N,08110.8563,W,1,9,1.5,10,M,,M,,*56
06/16/2015	10:04:32.527	$GPGGA,100433,2421.2989,N,08110.8573,W,1,9,1.5,10,M,,M,,*57
06/16/2015	10:04:33.544	$GPGGA,100434,2421.2990,N,08110.8584,W,1,9,1.5,10,M,,M,,*50
06/16/2015	10:04:34.525	$GPGGA,100435,2421.2990,N,08110.8595,W,1,9,1.5,10,M,,M,,*51
06/16/2015	10:04:35.565	$GPGGA,100436,2421.2990,N,08110.8605,W,1,9,1.5,10,M,,M,,*58
06/16/2015	10:04:36.522	$GPGGA,100437,2421.2990,N,08110.8614,W,1,9,1.5,10,M,,M,,*59
06/16/2015	10:04:37.518	$GPGGA,100438,2421.2990,N,08110.8625,W,1,9,1.5,10,M,,M,,*54
06/16/2015	10:04:38.515	$GPGGA,100439,2421.2990,N,08110.8636,W,1,9,1.5,10,M,,M,,*57
06/16/2015	10:04:39.525	$GPGGA,100440,2421.2990,N,08110.8647,W,1,9,1.5,10,M,,M,,*5F
06/16/2015	10:04:40.505	$GPGGA,100441,2421.2990,N,08110.8660,W,1,9,1.5,10,M,,M,,*5B
06/16/2015	10:04:41.535	$GPGGA,100442,2421.2988,N,08110.8670,W,1,8,1.6,10,M,,M,,*52
06/16/2015	10:04:42.495	$GPGGA,100443,2421.2989,N,08110.8679,W,1,8,1.5,10,M,,M,,*58
06/16/2015	10:04:43.524	$GPGGA,100444,2421.2990,N,08110.8689,W,1,9,1.5,10,M,,M,,*59
06/16/2015	10:04:44.484	$GPGGA,100445,2421.2992,N,08110.8700,W,1,9,1.5,10,M,,M,,*5A
06/16/2015	10:04:45.614	$GPGGA,100446,2421.2991,N,08110.8710,W,1,9,1.5,10,M,,M,,*5B
06/16/2015	10:04:46.504	$GPGGA,100447,2421.2993,N,08110.8721,W,1,9,1.5,10,M,,M,,*5A
06/16/2015	10:04:47.594	$GPGGA,100448,2421.2992,N,08110.8730,W,1,9,1.5,10,M,,M,,*54
06/16/2015	10:04:48.484	$GPGGA,100449,2421.2991,N,08110.8743,W,1,9,1.5,10,M,,M,,*52
06/16/2015	10:04:49.504	$GPGGA,100450,2421.2992,N,08110.8754,W,1,8,1.6,10,M,,M,,*5D
06/16/2015	10:04:50.494	$GPGGA,100451,2421.2990,N,08110.8764,W,1,8,1.5,10,M,,M,,*5E
06/16/2015	10:04:51.505	$GPGGA,100452,2421.2990,N,08110.8776,W,1,9,1.5,10,M,,M,,*5F
06/16/2015	10:04:52.495	$GPGGA,100453,2421.2990,N,08110.8790,W,1,9,1.5,10,M,,M,,*56
06/16/2015	10:04:53.575	$GPGGA,100454,2421.2990,N,08110.8801,W,1,8,1.6,10,M,,M,,*54
06/16/2015	10:04:54.495	$GPGGA,100455,2421.2987,N,08110.8811,W,1,8,1.5,10,M,,M,,*51
06/16/2015	10:04:55.595	$GPGGA,100456,2421.2988,N,08110.8822,W,1,9,1.5,10,M,,M,,*5C
06/16/2015	10:04:56.575	$GPGGA,100457,2421.2987,N,08110.8833,W,1,9,1.5,10,M,,M,,*52
06/16/2015	10:04:57.575	$GPGGA,100458,2421.2986,N,08110.8844,W,1,9,1.5,10,M,,M,,*5C
06/16/2015	10:04:58.575	$GPGGA,100459,2421.2986,N,08110.8856,W,1,9,1.6,10,M,,M,,*5D
06/16/2015	10:04:59.627	$GPGGA,100500,2421.2986,N,08110.8869,W,1,9,1.5,10,M,,M,,*5F
06/16/2015	10:05:00.564	$GPGGA,100501,2421.2986,N,08110.8880,W,1,9,1.5,10,M,,M,,*59
06/16/2015	10:05:01.584	$GPGGA,100502,2421.2988,N,08110.8889,W,1,9,1.5,10,M,,M,,*5D
06/16/2015	10:05:02.564	$GPGGA,100503,2421.2987,N,08110.8899,W,1,9,1.5,10,M,,M,,*52
06/16/2015	10:05:03.574	$GPGGA,100504,2421.2988,N,08110.8910,W,1,9,1.5,10,M,,M,,*5A
06/16/2015	10:05:04.554	$GPGGA,100505,2421.2987,N,08110.8920,W,1,9,1.5,10,M,,M,,*57
06/16/2015	10:05:05.564	$GPGGA,100506,2421.2990,N,08110.8931,W,1,9,1.5,10,M,,M,,*52
06/16/2015	10:05:06.554	$GPGGA,100507,2421.2988,N,08110.8943,W,1,9,1.7,10,M,,M,,*5D
06/16/2015	10:05:07.584	$GPGGA,100508,2421.2989,N,08110.8954,W,1,8,1.6,10,M,,M,,*55
06/16/2015	10:05:08.554	$GPGGA,100509,2421.2987,N,08110.8965,W,1,8,1.5,10,M,,M,,*5B
06/16/2015	10:05:09.536	$GPGGA,100510,2421.2988,N,08110.8977,W,1,9,1.5,10,M,,M,,*5E
06/16/2015	10:05:10.545	$GPGGA,100511,2421.2987,N,08110.8988,W,1,9,1.6,10,M,,M,,*53
06/16/2015	10:05:11.565	$GPGGA,100512,2421.2986,N,08110.8997,W,1,9,1.5,10,M,,M,,*5C
06/16/2015	10:05:12.545	$GPGGA,100513,2421.2986,N,08110.9008,W,1,9,1.5,10,M,,M,,*53
06/16/2015	10:05:13.565	$GPGGA,100514,2421.2988,N,08110.9021,W,1,9,1.5,10,M,,M,,*51
06/16/2015	10:05:14.545	$GPGGA,100515,2421.2986,N,08110.9032,W,1,9,1.5,10,M,,M,,*5C
06/16/2015	10:05:15.545	$GPGGA,100516,2421.2986,N,08110.9043,W,1,9,1.5,10,M,,M,,*59
06/16/2015	10:05:16.545	$GPGGA,100517,2421.2986,N,08110.9053,W,1,9,1.5,10,M,,M,,*59
06/16/2015	10:05:17.565	$GPGGA,100518,2421.2984,N,08110.9064,W,1,9,1.5,10,M,,M,,*50
06/16/2015	10:05:18.534	$GPGGA,100519,2421.2983,N,08110.9075,W,1,9,1.5,10,M,,M,,*56
06/16/2015	10:05:19.534	$GPGGA,100520,2421.2984,N,08110.9086,W,1,9,1.5,10,M,,M,,*57
06/16/2015	10:05:20.524	$GPGGA,100521,2421.2983,N,08110.9097,W,1,9,1.5,10,M,,M,,*51
06/16/2015	10:05:21.534	$GPGGA,100522,2421.2982,N,08110.9108,W,1,9,1.5,10,M,,M,,*54
06/16/2015	10:05:22.534	$GPGGA,100523,2421.2982,N,08110.9118,W,1,9,1.5,10,M,,M,,*54
06/16/2015	10:05:23.524	$GPGGA,100524,2421.2982,N,08110.9129,W,1,9,1.5,10,M,,M,,*51
06/16/2015	10:05:24.504	$GPGGA,100525,2421.2981,N,08110.9140,W,1,9,1.5,10,M,,M,,*5C
06/16/2015	10:05:25.519	$GPGGA,100526,2421.2980,N,08110.9151,W,1,9,1.5,10,M,,M,,*5E
06/16/2015	10:05:26.505	$GPGGA,100527,2421.2982,N,08110.9162,W,1,9,1.5,10,M,,M,,*5D
06/16/2015	10:05:28.521	$GPGGA,100528,2421.2980,N,08110.9173,W,1,9,1.5,10,M,,M,,*50
06/16/2015	10:05:28.545	$GPGGA,100529,2421.2979,N,08110.9184,W,1,9,1.5,10,M,,M,,*5F
06/16/2015	10:05:29.505	$GPGGA,100530,2421.2979,N,08110.9194,W,1,9,1.5,10,M,,M,,*56
06/16/2015	10:05:30.505	$GPGGA,100531,2421.2979,N,08110.9205,W,1,9,1.5,10,M,,M,,*5C
06/16/2015	10:05:31.626	$GPGGA,100532,2421.2979,N,08110.9216,W,1,9,1.5,10,M,,M,,*5D
06/16/2015	10:05:32.495	$GPGGA,100533,2421.2979,N,08110.9227,W,1,9,1.5,10,M,,M,,*5E
06/16/2015	10:05:33.519	$GPGGA,100534,2421.2977,N,08110.9238,W,1,9,1.5,10,M,,M,,*59
06/16/2015	10:05:34.485	$GPGGA,100535,2421.2975,N,08110.9249,W,1,9,1.5,10,M,,M,,*5C
06/16/2015	10:05:35.522	$GPGGA,100536,2421.2975,N,08110.9259,W,1,9,1.5,10,M,,M,,*5E
06/16/2015	10:05:36.494	$GPGGA,100537,2421.2973,N,08110.9271,W,1,9,1.5,10,M,,M,,*53
06/16/2015	10:05:37.618	$GPGGA,100538,2421.2972,N,08110.9282,W,1,9,1.5,10,M,,M,,*51
06/16/2015	10:05:38.584	$GPGGA,100539,2421.2971,N,08110.9293,W,1,9,1.5,10,M,,M,,*53
06/16/2015	10:05:39.628	$GPGGA,100540,2421.2970,N,08110.9304,W,1,9,1.5,10,M,,M,,*53
06/16/2015	10:05:40.494	$GPGGA,100541,2421.2971,N,08110.9315,W,1,9,1.5,10,M,,M,,*53
06/16/2015	10:05:41.574	$GPGGA,100542,2421.2968,N,08110.9326,W,1,9,1.5,10,M,,M,,*58
06/16/2015	10:05:42.484	$GPGGA,100543,2421.2968,N,08110.9336,W,1,9,1.5,10,M,,M,,*58
06/16/2015	10:05:43.594	$GPGGA,100544,2421.2968,N,08110.9347,W,1,9,1.5,10,M,,M,,*59
06/16/2015	10:05:44.485	$GPGGA,100545,2421.2966,N,08110.9358,W,1,9,1.5,10,M,,M,,*58
06/16/2015	10:05:45.475	$GPGGA,100546,2421.2965,N,08110.9369,W,1,9,1.5,10,M,,M,,*5A
06/16/2015	10:05:46.565	$GPGGA,100547,2421.2966,N,08110.9382,W,1,9,1.5,10,M,,M,,*5D
06/16/2015	10:05:47.616	$GPGGA,100548,2421.2964,N,08110.9393,W,1,9,1.5,10,M,,M,,*50
06/16/2015	10:05:48.575	$GPGGA,100549,2421.2963,N,08110.9404,W,1,9,1.5,10,M,,M,,*5F
06/16/2015	10:05:49.595	$GPGGA,100550,2421.2962,N,08110.9415,W,1,9,1.5,10,M,,M,,*56
06/16/2015	10:05:50.555	$GPGGA,100551,2421.2963,N,08110.9426,W,1,9,1.5,10,M,,M,,*56
06/16/2015	10:05:51.605	$GPGGA,100552,2421.2961,N,08110.9436,W,1,9,1.5,10,M,,M,,*56
06/16/2015	10:05:52.555	$GPGGA,100553,2421.2961,N,08110.9447,W,1,9,1.5,10,M,,M,,*51
06/16/2015	10:05:53.574	$GPGGA,100554,2421.2961,N,08110.9458,W,1,9,1.5,10,M,,M,,*58
06/16/2015	10:05:54.544	$GPGGA,100555,2421.2961,N,08110.9470,W,1,9,1.6,10,M,,M,,*50
06/16/2015	10:05:55.594	$GPGGA,100556,2421.2961,N,08110.9481,W,1,8,1.6,10,M,,M,,*5C
06/16/2015	10:05:56.544	$GPGGA,100557,2421.2959,N,08110.9492,W,1,8,1.5,10,M,,M,,*57
06/16/2015	10:05:57.564	$GPGGA,100558,2421.2958,N,08110.9502,W,1,9,1.5,10,M,,M,,*50
06/16/2015	10:05:58.554	$GPGGA,100559,2421.2960,N,08110.9512,W,1,9,1.5,10,M,,M,,*5B
06/16/2015	10:05:59.604	$GPGGA,100600,2421.2959,N,08110.9523,W,1,9,1.5,10,M,,M,,*5C
06/16/2015	10:06:00.544	$GPGGA,100601,2421.2960,N,08110.9534,W,1,9,1.5,10,M,,M,,*51
06/16/2015	10:06:01.535	$GPGGA,100602,2421.2958,N,08110.9543,W,1,9,1.5,10,M,,M,,*59
06/16/2015	10:06:02.555	$GPGGA,100603,2421.2960,N,08110.9555,W,1,9,1.5,10,M,,M,,*54
06/16/2015	10:06:03.565	$GPGGA,100604,2421.2959,N,08110.9566,W,1,9,1.5,10,M,,M,,*59
06/16/2015	10:06:04.533	$GPGGA,100605,2421.2960,N,08110.9577,W,1,9,1.6,10,M,,M,,*51
06/16/2015	10:06:05.533	$GPGGA,100606,2421.2957,N,08110.9588,W,1,9,1.5,10,M,,M,,*55
06/16/2015	10:06:06.535	$GPGGA,100607,2421.2957,N,08110.9599,W,1,9,1.9,10,M,,M,,*58
06/16/2015	10:06:07.538	$GPGGA,100608,2421.2960,N,08110.9608,W,1,9,1.5,10,M,,M,,*54
06/16/2015	10:06:08.535	$GPGGA,100609,2421.2959,N,08110.9618,W,1,9,1.5,10,M,,M,,*5E
06/16/2015	10:06:09.529	$GPGGA,100610,2421.2960,N,08110.9628,W,1,9,1.5,10,M,,M,,*5F
06/16/2015	10:06:10.535	$GPGGA,100611,2421.2961,N,08110.9639,W,1,9,1.5,10,M,,M,,*5F
06/16/2015	10:06:11.564	$GPGGA,100612,2421.2963,N,08110.9649,W,1,9,1.5,10,M,,M,,*59
06/16/2015	10:06:12.534	$GPGGA,100613,2421.2962,N,08110.9658,W,1,9,1.5,10,M,,M,,*59
06/16/2015	10:06:13.544	$GPGGA,100614,2421.2963,N,08110.9669,W,1,8,1.6,10,M,,M,,*5F
06/16/2015	10:06:14.516	$GPGGA,100615,2421.2962,N,08110.9680,W,1,8,1.5,10,M,,M,,*5B
06/16/2015	10:06:15.554	$GPGGA,100616,2421.2964,N,08110.9689,W,1,9,1.5,10,M,,M,,*56
06/16/2015	10:06:16.518	$GPGGA,100617,2421.2963,N,08110.9700,W,1,9,1.7,10,M,,M,,*52
06/16/2015	10:06:17.664	$GPGGA,100618,2421.2962,N,08110.9712,W,1,9,1.5,10,M,,M,,*5D
06/16/2015	10:06:18.494	$GPGGA,100619,2421.2963,N,08110.9722,W,1,9,1.5,10,M,,M,,*5E
06/16/2015	10:06:19.535	$GPGGA,100620,2421.2964,N,08110.9733,W,1,9,1.5,10,M,,M,,*53
06/16/2015	10:06:20.495	$GPGGA,100621,2421.2963,N,08110.9743,W,1,9,1.5,10,M,,M,,*52
06/16/2015	10:06:21.515	$GPGGA,100622,2421.2962,N,08110.9754,W,1,9,1.5,10,M,,M,,*56
06/16/2015	10:06:22.675	$GPGGA,100623,2421.2963,N,08110.9763,W,1,9,1.5,11,M,,M,,*53
06/16/2015	10:06:23.531	$GPGGA,100624,2421.2962,N,08110.9773,W,1,7,1.9,11,M,,M,,*56
06/16/2015	10:06:24.505	$GPGGA,100625,2421.2963,N,08110.9784,W,1,7,1.5,11,M,,M,,*52
06/16/2015	10:06:25.665	$GPGGA,100626,2421.2962,N,08110.9794,W,1,9,1.5,11,M,,M,,*5F
06/16/2015	10:06:26.505	$GPGGA,100627,2421.2961,N,08110.9805,W,1,9,1.5,11,M,,M,,*5A
06/16/2015	10:06:27.527	$GPGGA,100628,2421.2961,N,08110.9816,W,1,9,1.5,11,M,,M,,*57
06/16/2015	10:06:28.504	$GPGGA,100629,2421.2959,N,08110.9827,W,1,9,1.7,11,M,,M,,*5D
06/16/2015	10:06:29.494	$GPGGA,100630,2421.2958,N,08110.9838,W,1,9,1.5,11,M,,M,,*58
06/16/2015	10:06:30.925	$GPGGA,100631,2421.2957,N,08110.9849,W,1,9,1.5,11,M,,M,,*50
06/16/2015	10:06:31.484	$GPGGA,100632,2421.2957,N,08110.9859,W,1,8,1.6,11,M,,M,,*50
06/16/2015	10:06:32.644	$GPGGA,100633,2421.2957,N,08110.9871,W,1,8,1.5,11,M,,M,,*58
06/16/2015	10:06:33.484	$GPGGA,100634,2421.2955,N,08110.9882,W,1,8,1.6,11,M,,M,,*52
06/16/2015	10:06:34.484	$GPGGA,100635,2421.2954,N,08110.9893,W,1,8,1.5,11,M,,M,,*51
06/16/2015	10:06:35.684	$GPGGA,100636,2421.2954,N,08110.9904,W,1,9,1.5,11,M,,M,,*5C
06/16/2015	10:06:36.635	$GPGGA,100637,2421.2954,N,08110.9914,W,1,9,1.5,11,M,,M,,*5C
06/16/2015	10:06:37.617	$GPGGA,100638,2421.2953,N,08110.9924,W,1,9,1.5,11,M,,M,,*57
06/16/2015	10:06:38.565	$GPGGA,100639,2421.2953,N,08110.9935,W,1,9,1.6,11,M,,M,,*55
06/16/2015	10:06:39.635	$GPGGA,100640,2421.2954,N,08110.9944,W,1,9,1.5,11,M,,M,,*59
06/16/2015	10:06:40.555	$GPGGA,100641,2421.2953,N,08110.9956,W,1,9,1.5,11,M,,M,,*5C
06/16/2015	10:06:41.595	$GPGGA,100642,2421.2953,N,08110.9965,W,1,9,1.5,11,M,,M,,*5F
06/16/2015	10:06:42.625	$GPGGA,100643,2421.2953,N,08110.9976,W,1,9,1.5,11,M,,M,,*5C
06/16/2015	10:06:43.605	$GPGGA,100644,2421.2953,N,08110.9986,W,1,9,1.5,11,M,,M,,*54
06/16/2015	10:06:45.275	$GPGGA,100645,2421.2953,N,08110.9996,W,1,9,1.6,11,M,,M,,*57
06/16/2015	10:06:45.584	$GPGGA,100646,2421.2952,N,08111.0007,W,1,9,1.5,11,M,,M,,*5F
06/16/2015	10:06:46.624	$GPGGA,100647,2421.2951,N,08111.0018,W,1,9,1.5,11,M,,M,,*53
06/16/2015	10:06:47.624	$GPGGA,100648,2421.2952,N,08111.0029,W,1,9,1.5,11,M,,M,,*5D
06/16/2015	10:06:48.604	$GPGGA,100649,2421.2951,N,08111.0040,W,1,9,1.5,11,M,,M,,*50
06/16/2015	10:06:49.584	$GPGGA,100650,2421.2952,N,08111.0050,W,1,9,1.5,11,M,,M,,*5A
06/16/2015	10:06:50.616	$GPGGA,100651,2421.2951,N,08111.0061,W,1,9,1.5,11,M,,M,,*5A
06/16/2015	10:06:51.604	$GPGGA,100652,2421.2950,N,08111.0070,W,1,8,1.6,11,M,,M,,*5A
06/16/2015	10:06:52.604	$GPGGA,100653,2421.2950,N,08111.0081,W,1,8,1.5,11,M,,M,,*56
06/16/2015	10:06:53.575	$GPGGA,100654,2421.2950,N,08111.0091,W,1,9,1.5,11,M,,M,,*51
06/16/2015	10:06:54.528	$GPGGA,100655,2421.2950,N,08111.0102,W,1,9,1.5,11,M,,M,,*5B
06/16/2015	10:06:55.615	$GPGGA,100656,2421.2950,N,08111.0113,W,1,9,1.5,11,M,,M,,*58
06/16/2015	10:06:56.595	$GPGGA,100657,2421.2950,N,08111.0124,W,1,9,1.5,11,M,,M,,*5D
06/16/2015	10:06:57.525	$GPGGA,100658,2421.2950,N,08111.0134,W,1,9,1.5,11,M,,M,,*53
06/16/2015	10:06:58.585	$GPGGA,100659,2421.2952,N,08111.0144,W,1,9,1.5,11,M,,M,,*57
06/16/2015	10:06:59.595	$GPGGA,100700,2421.2950,N,08111.0155,W,1,9,1.5,11,M,,M,,*58
06/16/2015	10:07:00.585	$GPGGA,100701,2421.2950,N,08111.0166,W,1,9,1.6,11,M,,M,,*5A
06/16/2015	10:07:01.545	$GPGGA,100702,2421.2950,N,08111.0177,W,1,9,1.6,11,M,,M,,*59
06/16/2015	10:07:02.575	$GPGGA,100703,2421.2950,N,08111.0188,W,1,9,1.6,11,M,,M,,*58
06/16/2015	10:07:03.564	$GPGGA,100704,2421.2950,N,08111.0196,W,1,9,1.5,11,M,,M,,*53
06/16/2015	10:07:04.583	$GPGGA,100705,2421.2950,N,08111.0206,W,1,9,1.5,11,M,,M,,*58
06/16/2015	10:07:05.515	$GPGGA,100706,2421.2950,N,08111.0215,W,1,9,1.5,11,M,,M,,*59
06/16/2015	10:07:06.493	$GPGGA,100707,2421.2950,N,08111.0224,W,1,9,1.5,11,M,,M,,*5A
06/16/2015	10:07:07.593	$GPGGA,100708,2421.2950,N,08111.0235,W,1,9,1.9,11,M,,M,,*59
06/16/2015	10:07:08.493	$GPGGA,100709,2421.2948,N,08111.0246,W,1,9,1.9,11,M,,M,,*55
06/16/2015	10:07:09.523	$GPGGA,100710,2421.2949,N,08111.0257,W,1,8,1.5,11,M,,M,,*51
06/16/2015	10:07:10.483	$GPGGA,100711,2421.2948,N,08111.0267,W,1,8,1.5,11,M,,M,,*52
06/16/2015	10:07:11.553	$GPGGA,100712,2421.2947,N,08111.0278,W,1,9,1.5,11,M,,M,,*51
06/16/2015	10:07:12.543	$GPGGA,100713,2421.2945,N,08111.0287,W,1,9,1.5,11,M,,M,,*52
06/16/2015	10:07:13.523	$GPGGA,100714,2421.2946,N,08111.0297,W,1,9,1.5,11,M,,M,,*57
06/16/2015	10:07:14.473	$GPGGA,100715,2421.2945,N,08111.0308,W,1,9,1.5,11,M,,M,,*52
06/16/2015	10:07:15.553	$GPGGA,100716,2421.2946,N,08111.0318,W,1,8,1.5,11,M,,M,,*52
06/16/2015	10:07:16.573	$GPGGA,100717,2421.2944,N,08111.0329,W,1,8,1.5,11,M,,M,,*53
06/16/2015	10:07:17.573	$GPGGA,100718,2421.2943,N,08111.0340,W,1,9,1.5,11,M,,M,,*55
06/16/2015	10:07:18.533	$GPGGA,100719,2421.2943,N,08111.0350,W,1,9,1.5,11,M,,M,,*55
06/16/2015	10:07:19.483	$GPGGA,100720,2421.2943,N,08111.0361,W,1,9,1.5,11,M,,M,,*5D
06/16/2015	10:07:20.562	$GPGGA,100721,2421.2941,N,08111.0370,W,1,9,1.6,11,M,,M,,*5D
06/16/2015	10:07:21.604	$GPGGA,100722,2421.2942,N,08111.0381,W,1,8,1.5,11,M,,M,,*51
06/16/2015	10:07:22.573	$GPGGA,100723,2421.2940,N,08111.0392,W,1,8,1.5,11,M,,M,,*50
06/16/2015	10:07:23.573	$GPGGA,100724,2421.2941,N,08111.0405,W,1,9,1.5,11,M,,M,,*5E
06/16/2015	10:07:24.563	$GPGGA,100725,2421.2940,N,08111.0415,W,1,9,1.5,11,M,,M,,*5F
06/16/2015	10:07:25.593	$GPGGA,100726,2421.2939,N,08111.0426,W,1,9,1.5,11,M,,M,,*52
06/16/2015	10:07:26.583	$GPGGA,100727,2421.2939,N,08111.0434,W,1,9,1.5,11,M,,M,,*50
06/16/2015	10:07:27.584	$GPGGA,100728,2421.2941,N,08111.0444,W,1,9,1.5,11,M,,M,,*57
06/16/2015	10:07:28.553	$GPGGA,100729,2421.2940,N,08111.0453,W,1,9,1.5,11,M,,M,,*51
06/16/2015	10:07:29.563	$GPGGA,100730,2421.2939,N,08111.0464,W,1,9,1.6,11,M,,M,,*50
06/16/2015	10:07:30.543	$GPGGA,100731,2421.2939,N,08111.0474,W,1,9,1.5,11,M,,M,,*53
06/16/2015	10:07:31.573	$GPGGA,100732,2421.2941,N,08111.0485,W,1,9,1.5,11,M,,M,,*51
06/16/2015	10:07:32.543	$GPGGA,100733,2421.2942,N,08111.0495,W,1,9,1.5,11,M,,M,,*52
06/16/2015	10:07:33.543	$GPGGA,100734,2421.2941,N,08111.0504,W,1,9,1.5,11,M,,M,,*5F
06/16/2015	10:07:34.553	$GPGGA,100735,2421.2942,N,08111.0513,W,1,9,1.5,11,M,,M,,*5B
06/16/2015	10:07:35.563	$GPGGA,100736,2421.2941,N,08111.0524,W,1,9,1.5,11,M,,M,,*5F
06/16/2015	10:07:36.563	$GPGGA,100737,2421.2939,N,08111.0535,W,1,9,1.6,11,M,,M,,*52
06/16/2015	10:07:37.583	$GPGGA,100738,2421.2939,N,08111.0546,W,1,8,1.6,11,M,,M,,*58
06/16/2015	10:07:38.552	$GPGGA,100739,2421.2939,N,08111.0557,W,1,8,1.5,11,M,,M,,*5A
06/16/2015	10:07:39.563	$GPGGA,100740,2421.2939,N,08111.0567,W,1,9,1.5,11,M,,M,,*56
06/16/2015	10:07:40.553	$GPGGA,100741,2421.2939,N,08111.0575,W,1,9,1.5,11,M,,M,,*54
06/16/2015	10:07:41.563	$GPGGA,100742,2421.2939,N,08111.0585,W,1,9,1.5,11,M,,M,,*58
06/16/2015	10:07:42.543	$GPGGA,100743,2421.2939,N,08111.0596,W,1,9,1.9,11,M,,M,,*57
06/16/2015	10:07:43.563	$GPGGA,100744,2421.2939,N,08111.0607,W,1,7,1.6,11,M,,M,,*5A
06/16/2015	10:07:44.543	$GPGGA,100745,2421.2939,N,08111.0616,W,1,7,1.5,11,M,,M,,*58
06/16/2015	10:07:45.523	$GPGGA,100746,2421.2939,N,08111.0625,W,1,9,1.5,11,M,,M,,*55
06/16/2015	10:07:46.533	$GPGGA,100747,2421.2942,N,08111.0634,W,1,9,1.5,11,M,,M,,*58
06/16/2015	10:07:47.563	$GPGGA,100748,2421.2940,N,08111.0645,W,1,9,1.5,11,M,,M,,*53
06/16/2015	10:07:48.543	$GPGGA,100749,2421.2939,N,08111.0655,W,1,9,1.5,11,M,,M,,*5D
06/16/2015	10:07:49.543	$GPGGA,100750,2421.2939,N,08111.0665,W,1,9,1.5,11,M,,M,,*56
06/16/2015	10:07:50.564	$GPGGA,100751,2421.2939,N,08111.0676,W,1,9,1.6,11,M,,M,,*56
06/16/2015	10:07:51.563	$GPGGA,100752,2421.2939,N,08111.0686,W,1,8,1.6,11,M,,M,,*5B
06/16/2015	10:07:52.533	$GPGGA,100753,2421.2937,N,08111.0697,W,1,8,1.5,11,M,,M,,*57
06/16/2015	10:07:53.543	$GPGGA,100754,2421.2939,N,08111.0708,W,1,9,1.5,11,M,,M,,*58
06/16/2015	10:07:54.523	$GPGGA,100755,2421.2939,N,08111.0719,W,1,9,1.5,11,M,,M,,*59
06/16/2015	10:07:55.542	$GPGGA,100756,2421.2937,N,08111.0728,W,1,9,1.6,11,M,,M,,*55
06/16/2015	10:07:56.563	$GPGGA,100757,2421.2939,N,08111.0737,W,1,9,1.5,11,M,,M,,*57
06/16/2015	10:07:57.633	$GPGGA,100758,2421.2939,N,08111.0746,W,1,9,1.5,11,M,,M,,*5E
06/16/2015	10:07:58.593	$GPGGA,100759,2421.2939,N,08111.0758,W,1,9,1.5,11,M,,M,,*50
06/16/2015	10:07:59.553	$GPGGA,100800,2421.2939,N,08111.0769,W,1,9,1.5,11,M,,M,,*51
06/16/2015	10:08:00.553	$GPGGA,100801,2421.2939,N,08111.0777,W,1,9,1.5,11,M,,M,,*5F
06/16/2015	10:08:01.511	$GPGGA,100802,2421.2939,N,08111.0788,W,1,9,1.5,11,M,,M,,*5C
06/16/2015	10:08:02.533	$GPGGA,100803,2421.2939,N,08111.0788,W,1,9,1.6,11,M,,M,,*5E
06/16/2015	10:08:03.514	$GPGGA,100804,2421.2939,N,08111.0809,W,1,9,1.5,11,M,,M,,*5C
06/16/2015	10:08:04.603	$GPGGA,100805,2421.2937,N,08111.0820,W,1,9,1.5,11,M,,M,,*58
06/16/2015	10:08:05.613	$GPGGA,100806,2421.2936,N,08111.0831,W,1,8,1.6,11,M,,M,,*58
06/16/2015	10:08:06.483	$GPGGA,100807,2421.2936,N,08111.0831,W,1,8,1.6,11,M,,M,,*59
06/16/2015	10:08:07.507	$GPGGA,100808,2421.2936,N,08111.0854,W,1,8,1.6,11,M,,M,,*55
06/16/2015	10:08:08.573	$GPGGA,100809,2421.2938,N,08111.0864,W,1,8,1.6,11,M,,M,,*59
06/16/2015	10:08:09.483	$GPGGA,100810,2421.2937,N,08111.0875,W,1,9,1.5,11,M,,M,,*5C
06/16/2015	10:08:10.583	$GPGGA,100811,2421.2936,N,08111.0885,W,1,9,1.5,11,M,,M,,*53
06/16/2015	10:08:11.618	$GPGGA,100812,2421.2936,N,08111.0896,W,1,9,1.5,11,M,,M,,*52
06/16/2015	10:08:12.563	$GPGGA,100813,2421.2936,N,08111.0907,W,1,9,1.5,11,M,,M,,*5A
06/16/2015	10:08:13.572	$GPGGA,100814,2421.2936,N,08111.0918,W,1,8,1.6,11,M,,M,,*51
06/16/2015	10:08:14.563	$GPGGA,100815,2421.2936,N,08111.0929,W,1,8,1.5,11,M,,M,,*51
06/16/2015	10:08:15.583	$GPGGA,100816,2421.2935,N,08111.0939,W,1,9,1.5,11,M,,M,,*51
06/16/2015	10:08:16.563	$GPGGA,100817,2421.2936,N,08111.0950,W,1,9,1.5,11,M,,M,,*5C
06/16/2015	10:08:17.553	$GPGGA,100818,2421.2936,N,08111.0961,W,1,9,1.5,11,M,,M,,*51
06/16/2015	10:08:18.553	$GPGGA,100819,2421.2935,N,08111.0972,W,1,9,1.5,11,M,,M,,*51
06/16/2015	10:08:19.563	$GPGGA,100820,2421.2934,N,08111.0983,W,1,8,1.6,11,M,,M,,*56
06/16/2015	10:08:20.553	$GPGGA,100821,2421.2935,N,08111.0993,W,1,8,1.5,10,M,,M,,*55
06/16/2015	10:08:21.543	$GPGGA,100822,2421.2935,N,08111.1002,W,1,9,1.5,10,M,,M,,*57
06/16/2015	10:08:22.553	$GPGGA,100823,2421.2936,N,08111.1013,W,1,9,1.5,10,M,,M,,*55
06/16/2015	10:08:23.583	$GPGGA,100824,2421.2936,N,08111.1023,W,1,9,1.5,10,M,,M,,*51
06/16/2015	10:08:24.543	$GPGGA,100825,2421.2935,N,08111.1034,W,1,9,1.5,10,M,,M,,*55
06/16/2015	10:08:25.553	$GPGGA,100826,2421.2934,N,08111.1045,W,1,9,1.5,10,M,,M,,*51
06/16/2015	10:08:26.533	$GPGGA,100827,2421.2935,N,08111.1056,W,1,9,1.5,10,M,,M,,*53
06/16/2015	10:08:27.543	$GPGGA,100828,2421.2934,N,08111.1067,W,1,9,1.5,10,M,,M,,*5F
06/16/2015	10:08:28.543	$GPGGA,100829,2421.2932,N,08111.1080,W,1,9,1.7,10,M,,M,,*53
06/16/2015	10:08:29.524	$GPGGA,100830,2421.2932,N,08111.1091,W,1,9,1.5,10,M,,M,,*59
06/16/2015	10:08:30.542	$GPGGA,100831,2421.2932,N,08111.1102,W,1,9,1.5,10,M,,M,,*53
06/16/2015	10:08:31.563	$GPGGA,100832,2421.2930,N,08111.1113,W,1,9,1.5,10,M,,M,,*52
06/16/2015	10:08:32.533	$GPGGA,100833,2421.2928,N,08111.1124,W,1,9,1.5,10,M,,M,,*5E
06/16/2015	10:08:33.553	$GPGGA,100834,2421.2928,N,08111.1135,W,1,9,1.5,10,M,,M,,*59
06/16/2015	10:08:34.523	$GPGGA,100835,2421.2928,N,08111.1147,W,1,9,1.6,10,M,,M,,*5E
06/16/2015	10:08:35.523	$GPGGA,100836,2421.2924,N,08111.1158,W,1,9,1.5,10,M,,M,,*5C
06/16/2015	10:08:36.520	$GPGGA,100837,2421.2924,N,08111.1171,W,1,9,1.5,10,M,,M,,*56
06/16/2015	10:08:37.515	$GPGGA,100838,2421.2924,N,08111.1181,W,1,9,1.5,10,M,,M,,*56
06/16/2015	10:08:38.523	$GPGGA,100839,2421.2923,N,08111.1192,W,1,9,1.5,10,M,,M,,*52
06/16/2015	10:08:39.553	$GPGGA,100840,2421.2924,N,08111.1201,W,1,9,1.5,10,M,,M,,*52
06/16/2015	10:08:40.505	$GPGGA,100841,2421.2925,N,08111.1210,W,1,9,1.5,10,M,,M,,*52
06/16/2015	10:08:41.503	$GPGGA,100842,2421.2925,N,08111.1221,W,1,8,1.7,10,M,,M,,*50
06/16/2015	10:08:42.533	$GPGGA,100843,2421.2927,N,08111.1232,W,1,8,1.6,10,M,,M,,*50
06/16/2015	10:08:43.553	$GPGGA,100844,2421.2925,N,08111.1243,W,1,9,1.5,10,M,,M,,*51
06/16/2015	10:08:44.517	$GPGGA,100845,2421.2924,N,08111.1254,W,1,9,1.5,10,M,,M,,*57
06/16/2015	10:08:45.517	$GPGGA,100846,2421.2923,N,08111.1265,W,1,9,1.5,10,M,,M,,*51
06/16/2015	10:08:46.517	$GPGGA,100847,2421.2924,N,08111.1276,W,1,9,1.5,10,M,,M,,*55
06/16/2015	10:08:47.533	$GPGGA,100848,2421.2922,N,08111.1288,W,1,9,1.5,10,M,,M,,*5D
06/16/2015	10:08:48.516	$GPGGA,100849,2421.2921,N,08111.1298,W,1,9,1.6,10,M,,M,,*5D
06/16/2015	10:08:49.523	$GPGGA,100850,2421.2921,N,08111.1311,W,1,9,1.5,10,M,,M,,*56
06/16/2015	10:08:50.504	$GPGGA,100851,2421.2921,N,08111.1322,W,1,9,1.6,10,M,,M,,*54
06/16/2015	10:08:51.614	$GPGGA,100852,2421.2919,N,08111.1333,W,1,9,1.5,10,M,,M,,*5F
06/16/2015	10:08:52.483	$GPGGA,100853,2421.2921,N,08111.1342,W,1,9,1.5,10,M,,M,,*53
06/16/2015	10:08:53.883	$GPGGA,100854,2421.2921,N,08111.1353,W,1,9,1.5,10,M,,M,,*54
06/16/2015	10:08:54.516	$GPGGA,100855,2421.2921,N,08111.1365,W,1,9,1.5,11,M,,M,,*51
06/16/2015	10:08:55.505	$GPGGA,100856,2421.2919,N,08111.1376,W,1,9,1.5,11,M,,M,,*5B
06/16/2015	10:08:56.483	$GPGGA,100857,2421.2918,N,08111.1387,W,1,9,1.5,11,M,,M,,*55
06/16/2015	10:08:57.483	$GPGGA,100858,2421.2919,N,08111.1399,W,1,8,1.6,11,M,,M,,*56
06/16/2015	10:08:58.493	$GPGGA,100859,2421.2917,N,08111.1410,W,1,8,1.5,11,M,,M,,*5C
06/16/2015	10:08:59.643	$GPGGA,100900,2421.2919,N,08111.1420,W,1,8,1.6,11,M,,M,,*5F
06/16/2015	10:09:00.493	$GPGGA,100901,2421.2917,N,08111.1432,W,1,8,1.5,11,M,,M,,*50
06/16/2015	10:09:01.473	$GPGGA,100902,2421.2920,N,08111.1442,W,1,8,1.6,11,M,,M,,*53
06/16/2015	10:09:02.563	$GPGGA,100903,2421.2918,N,08111.1454,W,1,8,1.5,11,M,,M,,*5D
06/16/2015	10:09:03.483	$GPGGA,100904,2421.2917,N,08111.1467,W,1,8,1.6,11,M,,M,,*56
06/16/2015	10:09:04.563	$GPGGA,100905,2421.2919,N,08111.1475,W,1,8,1.4,11,M,,M,,*58
06/16/2015	10:09:05.592	$GPGGA,100906,2421.2920,N,08111.1483,W,1,9,1.4,11,M,,M,,*59
06/16/2015	10:09:06.573	$GPGGA,100907,2421.2917,N,08111.1496,W,1,9,1.4,11,M,,M,,*58
06/16/2015	10:09:07.573	$GPGGA,100908,2421.2919,N,08111.1506,W,1,8,1.4,11,M,,M,,*50
06/16/2015	10:09:08.563	$GPGGA,100909,2421.2917,N,08111.1517,W,1,8,1.4,11,M,,M,,*5F
06/16/2015	10:09:09.563	$GPGGA,100910,2421.2916,N,08111.1528,W,1,8,1.4,11,M,,M,,*5A
06/16/2015	10:09:10.554	$GPGGA,100911,2421.2915,N,08111.1539,W,1,8,1.4,11,M,,M,,*58
06/16/2015	10:09:11.553	$GPGGA,100912,2421.2916,N,08111.1550,W,1,8,1.4,11,M,,M,,*57
06/16/2015	10:09:12.553	$GPGGA,100913,2421.2917,N,08111.1559,W,1,8,1.4,11,M,,M,,*5E
06/16/2015	10:09:13.553	$GPGGA,100914,2421.2915,N,08111.1569,W,1,9,1.4,11,M,,M,,*59
06/16/2015	10:09:14.543	$GPGGA,100915,2421.2914,N,08111.1582,W,1,9,1.4,11,M,,M,,*5C
06/16/2015	10:09:15.593	$GPGGA,100916,2421.2914,N,08111.1593,W,1,9,1.4,11,M,,M,,*5F
06/16/2015	10:09:16.533	$GPGGA,100917,2421.2914,N,08111.1604,W,1,9,1.4,11,M,,M,,*53
06/16/2015	10:09:17.533	$GPGGA,100918,2421.2914,N,08111.1616,W,1,9,1.4,11,M,,M,,*5F
06/16/2015	10:09:18.533	$GPGGA,100919,2421.2914,N,08111.1627,W,1,9,1.4,11,M,,M,,*5C
06/16/2015	10:09:19.573	$GPGGA,100920,2421.2912,N,08111.1637,W,1,9,1.4,11,M,,M,,*51
06/16/2015	10:09:20.533	$GPGGA,100921,2421.2913,N,08111.1648,W,1,9,1.4,12,M,,M,,*5A
06/16/2015	10:09:21.523	$GPGGA,100922,2421.2912,N,08111.1658,W,1,9,1.4,12,M,,M,,*59
06/16/2015	10:09:22.533	$GPGGA,100923,2421.2911,N,08111.1669,W,1,9,1.4,12,M,,M,,*59
06/16/2015	10:09:23.542	$GPGGA,100924,2421.2910,N,08111.1681,W,1,9,1.4,12,M,,M,,*59
06/16/2015	10:09:24.533	$GPGGA,100925,2421.2910,N,08111.1692,W,1,9,1.4,12,M,,M,,*5A
06/16/2015	10:09:25.517	$GPGGA,100926,2421.2910,N,08111.1703,W,1,9,1.4,12,M,,M,,*50
06/16/2015	10:09:26.523	$GPGGA,100927,2421.2910,N,08111.1713,W,1,9,1.4,12,M,,M,,*50
06/16/2015	10:09:27.543	$GPGGA,100928,2421.2908,N,08111.1723,W,1,9,1.4,12,M,,M,,*55
06/16/2015	10:09:28.516	$GPGGA,100929,2421.2910,N,08111.1734,W,1,9,1.4,12,M,,M,,*5B
06/16/2015	10:09:29.543	$GPGGA,100930,2421.2908,N,08111.1745,W,1,8,1.5,12,M,,M,,*5C
06/16/2015	10:09:30.523	$GPGGA,100931,2421.2907,N,08111.1756,W,1,8,1.4,12,M,,M,,*51
06/16/2015	10:09:31.553	$GPGGA,100932,2421.2906,N,08111.1767,W,1,9,1.4,12,M,,M,,*50
06/16/2015	10:09:32.493	$GPGGA,100933,2421.2906,N,08111.1777,W,1,9,1.4,12,M,,M,,*50
06/16/2015	10:09:33.509	$GPGGA,100934,2421.2905,N,08111.1788,W,1,9,1.4,12,M,,M,,*54
06/16/2015	10:09:34.514	$GPGGA,100935,2421.2906,N,08111.1797,W,1,9,1.4,12,M,,M,,*58
06/16/2015	10:09:35.533	$GPGGA,100936,2421.2905,N,08111.1810,W,1,9,1.4,12,M,,M,,*58
06/16/2015	10:09:36.516	$GPGGA,100937,2421.2904,N,08111.1821,W,1,9,1.4,12,M,,M,,*5A
06/16/2015	10:09:37.613	$GPGGA,100938,2421.2903,N,08111.1832,W,1,9,1.4,12,M,,M,,*50
06/16/2015	10:09:38.505	$GPGGA,100939,2421.2903,N,08111.1842,W,1,9,1.4,12,M,,M,,*56
06/16/2015	10:09:39.523	$GPGGA,100940,2421.2905,N,08111.1853,W,1,9,1.4,12,M,,M,,*5E
06/16/2015	10:09:40.582	$GPGGA,100941,2421.2904,N,08111.1862,W,1,9,1.4,12,M,,M,,*5C
06/16/2015	10:09:41.505	$GPGGA,100942,2421.2905,N,08111.1872,W,1,9,1.4,12,M,,M,,*5F
06/16/2015	10:09:42.483	$GPGGA,100943,2421.2904,N,08111.1882,W,1,9,1.4,12,M,,M,,*50
06/16/2015	10:09:43.615	$GPGGA,100944,2421.2906,N,08111.1893,W,1,9,1.4,12,M,,M,,*55
06/16/2015	10:09:44.505	$GPGGA,100945,2421.2905,N,08111.1904,W,1,9,1.4,12,M,,M,,*58
06/16/2015	10:09:45.473	$GPGGA,100946,2421.2903,N,08111.1915,W,1,8,1.4,12,M,,M,,*5C
06/16/2015	10:09:46.483	$GPGGA,100947,2421.2903,N,08111.1925,W,1,8,1.4,12,M,,M,,*5E
06/16/2015	10:09:47.618	$GPGGA,100948,2421.2903,N,08111.1936,W,1,10,1.4,12,M,,M,,*6A
06/16/2015	10:09:48.573	$GPGGA,100949,2421.2903,N,08111.1947,W,1,10,1.4,12,M,,M,,*6D
06/16/2015	10:09:49.583	$GPGGA,100950,2421.2903,N,08111.1958,W,1,10,1.4,12,M,,M,,*6B
06/16/2015	10:09:50.583	$GPGGA,100951,2421.2903,N,08111.1969,W,1,10,1.4,12,M,,M,,*68
06/16/2015	10:09:51.895	$GPGGA,100952,2421.2903,N,08111.1978,W,1,10,1.4,12,M,,M,,*6B
06/16/2015	10:09:52.573	$GPGGA,100953,2421.2903,N,08111.1990,W,1,10,1.4,12,M,,M,,*6C
06/16/2015	10:09:53.573	$GPGGA,100954,2421.2903,N,08111.2001,W,1,10,1.4,12,M,,M,,*69
06/16/2015	10:09:54.563	$GPGGA,100955,2421.2903,N,08111.2012,W,1,10,1.4,12,M,,M,,*6A
06/16/2015	10:09:55.613	$GPGGA,100956,2421.2903,N,08111.2023,W,1,10,1.4,12,M,,M,,*6B
06/16/2015	10:09:56.563	$GPGGA,100957,2421.2905,N,08111.2032,W,1,10,1.4,12,M,,M,,*6C
06/16/2015	10:09:57.553	$GPGGA,100958,2421.2906,N,08111.2041,W,1,10,1.4,12,M,,M,,*64
06/16/2015	10:09:58.562	$GPGGA,100959,2421.2906,N,08111.2052,W,1,10,1.4,12,M,,M,,*67
06/16/2015	10:09:59.593	$GPGGA,101000,2421.2907,N,08111.2063,W,1,10,1.4,12,M,,M,,*60
06/16/2015	10:10:00.553	$GPGGA,101001,2421.2906,N,08111.2074,W,1,10,1.4,12,M,,M,,*66
06/16/2015	10:10:01.563	$GPGGA,101002,2421.2905,N,08111.2086,W,1,9,1.4,12,M,,M,,*53
06/16/2015	10:10:02.543	$GPGGA,101003,2421.2906,N,08111.2096,W,1,9,1.4,12,M,,M,,*50
06/16/2015	10:10:03.593	$GPGGA,101004,2421.2909,N,08111.2107,W,1,10,1.4,12,M,,M,,*69
06/16/2015	10:10:04.553	$GPGGA,101005,2421.2907,N,08111.2117,W,1,10,1.4,12,M,,M,,*67
06/16/2015	10:10:05.543	$GPGGA,101006,2421.2907,N,08111.2128,W,1,10,1.4,12,M,,M,,*68
06/16/2015	10:10:06.543	$GPGGA,101007,2421.2907,N,08111.2140,W,1,10,1.4,12,M,,M,,*67
06/16/2015	10:10:07.573	$GPGGA,101008,2421.2906,N,08111.2153,W,1,9,1.4,11,M,,M,,*50
06/16/2015	10:10:08.523	$GPGGA,101009,2421.2909,N,08111.2161,W,1,9,1.5,11,M,,M,,*5E
06/16/2015	10:10:09.563	$GPGGA,101010,2421.2906,N,08111.2173,W,1,10,1.4,11,M,,M,,*63
06/16/2015	10:10:10.543	$GPGGA,101011,2421.2906,N,08111.2186,W,1,10,1.4,11,M,,M,,*68
06/16/2015	10:10:12.019	$GPGGA,101012,2421.2905,N,08111.2197,W,1,9,1.4,11,M,,M,,*50
06/16/2015	10:10:12.533	$GPGGA,101013,2421.2904,N,08111.2207,W,1,9,1.7,11,M,,M,,*59
06/16/2015	10:10:13.553	$GPGGA,101014,2421.2903,N,08111.2219,W,1,10,1.4,11,M,,M,,*6D
06/16/2015	10:10:14.533	$GPGGA,101015,2421.2903,N,08111.2232,W,1,10,1.4,11,M,,M,,*65
06/16/2015	10:10:15.522	$GPGGA,101016,2421.2903,N,08111.2243,W,1,9,1.5,11,M,,M,,*59
06/16/2015	10:10:16.993	$GPGGA,101017,2421.2903,N,08111.2254,W,1,9,1.4,11,M,,M,,*5F
06/16/2015	10:10:17.513	$GPGGA,101018,2421.2903,N,08111.2263,W,1,10,1.4,11,M,,M,,*6C
06/16/2015	10:10:18.523	$GPGGA,101019,2421.2901,N,08111.2276,W,1,10,1.5,11,M,,M,,*6A
06/16/2015	10:10:19.523	$GPGGA,101020,2421.2899,N,08111.2290,W,1,10,1.4,11,M,,M,,*69
06/16/2015	10:10:20.604	$GPGGA,101021,2421.2899,N,08111.2301,W,1,10,1.4,11,M,,M,,*61
06/16/2015	10:10:21.513	$GPGGA,101022,2421.2899,N,08111.2312,W,1,10,1.4,11,M,,M,,*60
06/16/2015	10:10:22.516	$GPGGA,101023,2421.2898,N,08111.2323,W,1,10,1.4,11,M,,M,,*62
06/16/2015	10:10:23.633	$GPGGA,101024,2421.2897,N,08111.2334,W,1,10,1.4,11,M,,M,,*6C
06/16/2015	10:10:24.515	$GPGGA,101025,2421.2899,N,08111.2345,W,1,10,1.5,11,M,,M,,*64
06/16/2015	10:10:25.518	$GPGGA,101026,2421.2897,N,08111.2356,W,1,9,1.5,11,M,,M,,*53
06/16/2015	10:10:26.505	$GPGGA,101027,2421.2896,N,08111.2370,W,1,9,1.4,11,M,,M,,*56
06/16/2015	10:10:27.603	$GPGGA,101028,2421.2893,N,08111.2381,W,1,10,1.4,11,M,,M,,*6A
06/16/2015	10:10:28.513	$GPGGA,101029,2421.2894,N,08111.2393,W,1,10,1.4,11,M,,M,,*6F
06/16/2015	10:10:29.607	$GPGGA,101030,2421.2892,N,08111.2404,W,1,10,1.4,11,M,,M,,*68
06/16/2015	10:10:30.493	$GPGGA,101031,2421.2892,N,08111.2414,W,1,10,1.4,11,M,,M,,*68
06/16/2015	10:10:31.623	$GPGGA,101032,2421.2890,N,08111.2426,W,1,9,1.5,11,M,,M,,*51
06/16/2015	10:10:32.509	$GPGGA,101033,2421.2892,N,08111.2438,W,1,9,1.4,11,M,,M,,*5C
06/16/2015	10:10:33.605	$GPGGA,101034,2421.2890,N,08111.2449,W,1,10,1.4,11,M,,M,,*67
06/16/2015	10:10:34.583	$GPGGA,101035,2421.2891,N,08111.2460,W,1,10,1.4,11,M,,M,,*6C
06/16/2015	10:10:35.593	$GPGGA,101036,2421.2890,N,08111.2471,W,1,9,1.5,11,M,,M,,*57
06/16/2015	10:10:36.573	$GPGGA,101037,2421.2891,N,08111.2482,W,1,9,1.4,11,M,,M,,*5A
06/16/2015	10:10:37.573	$GPGGA,101038,2421.2889,N,08111.2493,W,1,10,1.4,11,M,,M,,*64
06/16/2015	10:10:38.573	$GPGGA,101039,2421.2889,N,08111.2504,W,1,10,1.4,11,M,,M,,*6A
06/16/2015	10:10:39.593	$GPGGA,101040,2421.2889,N,08111.2515,W,1,10,1.4,11,M,,M,,*64
06/16/2015	10:10:40.583	$GPGGA,101041,2421.2888,N,08111.2526,W,1,10,1.4,11,M,,M,,*64
06/16/2015	10:10:41.583	$GPGGA,101042,2421.2888,N,08111.2538,W,1,10,1.4,11,M,,M,,*68
06/16/2015	10:10:42.573	$GPGGA,101043,2421.2888,N,08111.2550,W,1,10,1.4,11,M,,M,,*67
06/16/2015	10:10:43.593	$GPGGA,101044,2421.2887,N,08111.2561,W,1,9,1.4,11,M,,M,,*55
06/16/2015	10:10:44.563	$GPGGA,101045,2421.2888,N,08111.2572,W,1,9,1.4,11,M,,M,,*59
06/16/2015	10:10:46.093	$GPGGA,101046,2421.2888,N,08111.2583,W,1,10,1.4,11,M,,M,,*6C
06/16/2015	10:10:46.563	$GPGGA,101047,2421.2888,N,08111.2592,W,1,10,1.4,11,M,,M,,*6D
06/16/2015	10:10:47.583	$GPGGA,101048,2421.2888,N,08111.2603,W,1,10,1.4,11,M,,M,,*69
06/16/2015	10:10:48.553	$GPGGA,101049,2421.2888,N,08111.2615,W,1,10,1.4,11,M,,M,,*6F
06/16/2015	10:10:49.543	$GPGGA,101050,2421.2888,N,08111.2626,W,1,10,1.4,11,M,,M,,*67
06/16/2015	10:10:50.552	$GPGGA,101051,2421.2887,N,08111.2637,W,1,10,1.4,11,M,,M,,*69
06/16/2015	10:10:51.584	$GPGGA,101052,2421.2888,N,08111.2648,W,1,10,1.4,11,M,,M,,*6D
06/16/2015	10:10:52.543	$GPGGA,101053,2421.2889,N,08111.2657,W,1,10,1.4,11,M,,M,,*63
06/16/2015	10:10:53.553	$GPGGA,101054,2421.2888,N,08111.2668,W,1,10,1.4,11,M,,M,,*69
06/16/2015	10:10:54.543	$GPGGA,101055,2421.2888,N,08111.2678,W,1,10,1.4,11,M,,M,,*69
06/16/2015	10:10:55.606	$GPGGA,101056,2421.2889,N,08111.2689,W,1,10,1.4,11,M,,M,,*65
06/16/2015	10:10:56.543	$GPGGA,101057,2421.2888,N,08111.2700,W,1,10,1.4,11,M,,M,,*65
06/16/2015	10:10:57.533	$GPGGA,101058,2421.2886,N,08111.2713,W,1,9,1.4,11,M,,M,,*5E
06/16/2015	10:10:58.533	$GPGGA,101059,2421.2887,N,08111.2724,W,1,9,1.4,11,M,,M,,*5A
06/16/2015	10:10:59.583	$GPGGA,101100,2421.2888,N,08111.2735,W,1,10,1.4,11,M,,M,,*60
06/16/2015	10:11:00.543	$GPGGA,101101,2421.2886,N,08111.2746,W,1,10,1.4,11,M,,M,,*6B
06/16/2015	10:11:01.523	$GPGGA,101102,2421.2888,N,08111.2757,W,1,10,1.4,11,M,,M,,*66
06/16/2015	10:11:02.543	$GPGGA,101103,2421.2886,N,08111.2767,W,1,10,1.4,11,M,,M,,*6A
06/16/2015	10:11:03.533	$GPGGA,101104,2421.2887,N,08111.2778,W,1,10,1.4,11,M,,M,,*62
06/16/2015	10:11:04.523	$GPGGA,101105,2421.2886,N,08111.2789,W,1,10,1.4,11,M,,M,,*6C
06/16/2015	10:11:05.518	$GPGGA,101106,2421.2887,N,08111.2800,W,1,10,1.4,11,M,,M,,*60
06/16/2015	10:11:06.533	$GPGGA,101107,2421.2886,N,08111.2811,W,1,10,1.4,11,M,,M,,*60
06/16/2015	10:11:07.563	$GPGGA,101108,2421.2887,N,08111.2822,W,1,10,1.4,11,M,,M,,*6E
06/16/2015	10:11:08.510	$GPGGA,101109,2421.2885,N,08111.2833,W,1,10,1.4,11,M,,M,,*6D
06/16/2015	10:11:09.518	$GPGGA,101110,2421.2885,N,08111.2844,W,1,10,1.4,11,M,,M,,*65
06/16/2015	10:11:10.507	$GPGGA,101111,2421.2885,N,08111.2857,W,1,10,1.4,11,M,,M,,*66
06/16/2015	10:11:11.523	$GPGGA,101112,2421.2885,N,08111.2866,W,1,10,1.4,11,M,,M,,*67
06/16/2015	10:11:12.623	$GPGGA,101113,2421.2885,N,08111.2879,W,1,10,1.4,11,M,,M,,*68
06/16/2015	10:11:13.523	$GPGGA,101114,2421.2885,N,08111.2890,W,1,10,1.4,11,M,,M,,*68
06/16/2015	10:11:14.523	$GPGGA,101115,2421.2885,N,08111.2901,W,1,10,1.4,11,M,,M,,*60
06/16/2015	10:11:15.503	$GPGGA,101116,2421.2885,N,08111.2912,W,1,10,1.4,11,M,,M,,*61
06/16/2015	10:11:16.493	$GPGGA,101117,2421.2885,N,08111.2923,W,1,10,1.4,11,M,,M,,*62
06/16/2015	10:11:17.593	$GPGGA,101118,2421.2885,N,08111.2934,W,1,10,1.4,11,M,,M,,*6B
06/16/2015	10:11:18.520	$GPGGA,101119,2421.2885,N,08111.2945,W,1,10,1.4,11,M,,M,,*6C
06/16/2015	10:11:19.523	$GPGGA,101120,2421.2885,N,08111.2956,W,1,10,1.4,11,M,,M,,*64
06/16/2015	10:11:20.483	$GPGGA,101121,2421.2883,N,08111.2967,W,1,10,1.4,11,M,,M,,*61
06/16/2015	10:11:21.517	$GPGGA,101122,2421.2884,N,08111.2980,W,1,10,1.4,11,M,,M,,*6C
06/16/2015	10:11:22.606	$GPGGA,101123,2421.2883,N,08111.2991,W,1,10,1.5,11,M,,M,,*6B
06/16/2015	10:11:23.615	$GPGGA,101124,2421.2882,N,08111.3002,W,1,9,1.4,11,M,,M,,*56
06/16/2015	10:11:24.493	$GPGGA,101125,2421.2881,N,08111.3014,W,1,9,1.4,11,M,,M,,*53
06/16/2015	10:11:25.482	$GPGGA,101126,2421.2881,N,08111.3025,W,1,10,1.4,11,M,,M,,*6A
06/16/2015	10:11:26.583	$GPGGA,101127,2421.2880,N,08111.3036,W,1,10,1.4,11,M,,M,,*68
06/16/2015	10:11:27.606	$GPGGA,101128,2421.2881,N,08111.3049,W,1,10,1.4,11,M,,M,,*6E
06/16/2015	10:11:28.483	$GPGGA,101129,2421.2879,N,08111.3060,W,1,10,1.4,11,M,,M,,*63
06/16/2015	10:11:29.593	$GPGGA,101130,2421.2878,N,08111.3072,W,1,10,1.4,11,M,,M,,*69
06/16/2015	10:11:30.583	$GPGGA,101131,2421.2878,N,08111.3085,W,1,10,1.4,11,M,,M,,*60
06/16/2015	10:11:31.653	$GPGGA,101132,2421.2876,N,08111.3096,W,1,10,1.4,11,M,,M,,*6F
06/16/2015	10:11:32.584	$GPGGA,101133,2421.2877,N,08111.3107,W,1,10,1.4,11,M,,M,,*66
06/16/2015	10:11:33.573	$GPGGA,101134,2421.2876,N,08111.3118,W,1,10,1.4,11,M,,M,,*6E
06/16/2015	10:11:34.563	$GPGGA,101135,2421.2875,N,08111.3129,W,1,10,1.4,11,M,,M,,*6E
06/16/2015	10:11:35.633	$GPGGA,101136,2421.2876,N,08111.3140,W,1,10,1.4,11,M,,M,,*61
06/16/2015	10:11:36.563	$GPGGA,101137,2421.2874,N,08111.3152,W,1,10,1.4,11,M,,M,,*61
06/16/2015	10:11:37.563	$GPGGA,101138,2421.2874,N,08111.3163,W,1,10,1.4,11,M,,M,,*6C
06/16/2015	10:11:38.553	$GPGGA,101139,2421.2874,N,08111.3175,W,1,10,1.4,11,M,,M,,*6A
06/16/2015	10:11:39.583	$GPGGA,101140,2421.2874,N,08111.3186,W,1,10,1.4,11,M,,M,,*68
06/16/2015	10:11:40.563	$GPGGA,101141,2421.2872,N,08111.3197,W,1,10,1.4,11,M,,M,,*6F
06/16/2015	10:11:41.543	$GPGGA,101142,2421.2871,N,08111.3208,W,1,10,1.4,11,M,,M,,*6A
06/16/2015	10:11:42.553	$GPGGA,101143,2421.2870,N,08111.3219,W,1,10,1.4,11,M,,M,,*6A
06/16/2015	10:11:43.572	$GPGGA,101144,2421.2870,N,08111.3231,W,1,10,1.4,11,M,,M,,*67
06/16/2015	10:11:44.563	$GPGGA,101145,2421.2869,N,08111.3244,W,1,10,1.4,11,M,,M,,*6C
06/16/2015	10:11:45.593	$GPGGA,101146,2421.2868,N,08111.3255,W,1,10,1.4,11,M,,M,,*6E
06/16/2015	10:11:46.533	$GPGGA,101147,2421.2869,N,08111.3264,W,1,10,1.4,11,M,,M,,*6C
06/16/2015	10:11:47.553	$GPGGA,101148,2421.2867,N,08111.3275,W,1,10,1.4,11,M,,M,,*6D
06/16/2015	10:11:48.533	$GPGGA,101149,2421.2867,N,08111.3285,W,1,10,1.4,11,M,,M,,*63
06/16/2015	10:11:49.523	$GPGGA,101150,2421.2867,N,08111.3296,W,1,10,1.5,11,M,,M,,*68
06/16/2015	10:11:50.553	$GPGGA,101151,2421.2867,N,08111.3307,W,1,10,1.4,11,M,,M,,*61
