Software Version Number: 1	Data File Format Number: 1	Build Version Number: 1	Error Count Since VI Started: 1	Manufacturer: Raytheon	 Model Number: RayMarine 120	 S/N: 	 Cal Date: 	 Wind Direction Offset: 0.00	 Slope (M)1: 0.00	 Offset (B)1: 0.00	 Slope (M)2: 0.00	 Offset (B)2: 0.00	 Slope (M)3: 0.00	 Offset (B)3: 0.00	 Slope (M)4: 0.00	 Offset (B)4: 0.00	 Slope (M)5: 0.00	 Offset (B)5: 0.00	 Slope (M)6: 0.00	 Offset (B)6: 0.00
Computer Date	Computer Time	GGA String
06/16/2015	22:00:00.597	$GPGGA,220001,2437.7466,N,08044.0343,W,1,10,1.6,16,M,,M,,*6D
06/16/2015	22:00:01.588	$GPGGA,220002,2437.7479,N,08044.0350,W,1,10,1.6,16,M,,M,,*62
06/16/2015	22:00:02.588	$GPGGA,220003,2437.7494,N,08044.0352,W,1,10,1.6,16,M,,M,,*62
06/16/2015	22:00:03.648	$GPGGA,220004,2437.7509,N,08044.0354,W,1,10,1.6,16,M,,M,,*66
06/16/2015	22:00:04.577	$GPGGA,220005,2437.7523,N,08044.0359,W,1,10,1.6,16,M,,M,,*62
06/16/2015	22:00:05.587	$GPGGA,220006,2437.7537,N,08044.0363,W,1,10,1.6,16,M,,M,,*6D
06/16/2015	22:00:06.577	$GPGGA,220007,2437.7552,N,08044.0366,W,1,10,1.6,16,M,,M,,*6A
06/16/2015	22:00:07.617	$GPGGA,220008,2437.7566,N,08044.0372,W,1,10,1.6,16,M,,M,,*67
06/16/2015	22:00:08.567	$GPGGA,220009,2437.7580,N,08044.0373,W,1,10,1.6,16,M,,M,,*6F
06/16/2015	22:00:09.587	$GPGGA,220010,2437.7594,N,08044.0377,W,1,10,1.6,16,M,,M,,*66
06/16/2015	22:00:10.587	$GPGGA,220011,2437.7607,N,08044.0383,W,1,10,1.6,16,M,,M,,*65
06/16/2015	22:00:11.597	$GPGGA,220012,2437.7621,N,08044.0386,W,1,10,1.6,16,M,,M,,*67
06/16/2015	22:00:12.577	$GPGGA,220013,2437.7636,N,08044.0390,W,1,10,1.6,16,M,,M,,*67
06/16/2015	22:00:13.577	$GPGGA,220014,2437.7650,N,08044.0394,W,1,10,1.6,17,M,,M,,*65
06/16/2015	22:00:14.567	$GPGGA,220015,2437.7664,N,08044.0397,W,1,10,1.6,17,M,,M,,*60
06/16/2015	22:00:15.587	$GPGGA,220016,2437.7679,N,08044.0401,W,1,10,1.6,17,M,,M,,*67
06/16/2015	22:00:16.558	$GPGGA,220017,2437.7693,N,08044.0405,W,1,10,1.6,17,M,,M,,*66
06/16/2015	22:00:17.587	$GPGGA,220018,2437.7708,N,08044.0408,W,1,10,1.6,17,M,,M,,*67
06/16/2015	22:00:18.557	$GPGGA,220019,2437.7722,N,08044.0410,W,1,10,1.6,17,M,,M,,*67
06/16/2015	22:00:19.588	$GPGGA,220020,2437.7736,N,08044.0415,W,1,10,1.6,17,M,,M,,*6D
06/16/2015	22:00:20.538	$GPGGA,220021,2437.7751,N,08044.0419,W,1,10,1.6,17,M,,M,,*61
06/16/2015	22:00:21.577	$GPGGA,220022,2437.7766,N,08044.0423,W,1,10,1.6,17,M,,M,,*6F
06/16/2015	22:00:22.547	$GPGGA,220023,2437.7780,N,08044.0426,W,1,10,1.6,17,M,,M,,*63
06/16/2015	22:00:23.559	$GPGGA,220024,2437.7794,N,08044.0430,W,1,10,1.6,17,M,,M,,*66
06/16/2015	22:00:24.528	$GPGGA,220025,2437.7809,N,08044.0434,W,1,10,1.6,17,M,,M,,*68
06/16/2015	22:00:25.568	$GPGGA,220026,2437.7823,N,08044.0438,W,1,10,1.6,17,M,,M,,*6F
06/16/2015	22:00:26.537	$GPGGA,220027,2437.7838,N,08044.0441,W,1,10,1.6,17,M,,M,,*6A
06/16/2015	22:00:27.569	$GPGGA,220028,2437.7852,N,08044.0445,W,1,10,1.6,17,M,,M,,*6D
06/16/2015	22:00:28.547	$GPGGA,220029,2437.7867,N,08044.0449,W,1,10,1.6,17,M,,M,,*66
06/16/2015	22:00:29.537	$GPGGA,220030,2437.7881,N,08044.0452,W,1,10,1.6,17,M,,M,,*6C
06/16/2015	22:00:30.607	$GPGGA,220031,2437.7896,N,08044.0455,W,1,10,1.6,17,M,,M,,*6C
06/16/2015	22:00:31.569	$GPGGA,220032,2437.7910,N,08044.0460,W,1,10,1.6,17,M,,M,,*66
06/16/2015	22:00:32.537	$GPGGA,220033,2437.7925,N,08044.0463,W,1,10,1.6,17,M,,M,,*62
06/16/2015	22:00:33.607	$GPGGA,220034,2437.7939,N,08044.0466,W,1,10,1.6,16,M,,M,,*6C
06/16/2015	22:00:34.537	$GPGGA,220035,2437.7953,N,08044.0470,W,1,10,1.6,16,M,,M,,*66
06/16/2015	22:00:35.567	$GPGGA,220036,2437.7968,N,08044.0473,W,1,10,1.6,16,M,,M,,*6E
06/16/2015	22:00:36.518	$GPGGA,220037,2437.7982,N,08044.0477,W,1,10,1.6,16,M,,M,,*6F
06/16/2015	22:00:37.628	$GPGGA,220038,2437.7997,N,08044.0480,W,1,10,1.6,16,M,,M,,*6C
06/16/2015	22:00:38.598	$GPGGA,220039,2437.8011,N,08044.0484,W,1,10,1.6,16,M,,M,,*61
06/16/2015	22:00:39.647	$GPGGA,220040,2437.8026,N,08044.0488,W,1,10,1.6,16,M,,M,,*67
06/16/2015	22:00:40.527	$GPGGA,220041,2437.8040,N,08044.0492,W,1,10,1.6,16,M,,M,,*6D
06/16/2015	22:00:41.587	$GPGGA,220042,2437.8055,N,08044.0495,W,1,10,1.6,16,M,,M,,*6D
06/16/2015	22:00:42.507	$GPGGA,220043,2437.8069,N,08044.0498,W,1,10,1.6,16,M,,M,,*6E
06/16/2015	22:00:43.627	$GPGGA,220044,2437.8083,N,08044.0503,W,1,10,1.6,16,M,,M,,*6E
06/16/2015	22:00:44.597	$GPGGA,220045,2437.8098,N,08044.0507,W,1,10,1.6,16,M,,M,,*61
06/16/2015	22:00:45.607	$GPGGA,220046,2437.8112,N,08044.0509,W,1,10,1.6,16,M,,M,,*6F
06/16/2015	22:00:46.587	$GPGGA,220047,2437.8127,N,08044.0514,W,1,10,1.6,16,M,,M,,*64
06/16/2015	22:00:47.607	$GPGGA,220048,2437.8141,N,08044.0518,W,1,10,1.6,16,M,,M,,*67
06/16/2015	22:00:48.587	$GPGGA,220049,2437.8155,N,08044.0522,W,1,10,1.6,16,M,,M,,*6A
06/16/2015	22:00:49.570	$GPGGA,220050,2437.8170,N,08044.0527,W,1,10,1.6,16,M,,M,,*60
06/16/2015	22:00:50.577	$GPGGA,220051,2437.8184,N,08044.0529,W,1,10,1.6,16,M,,M,,*64
06/16/2015	22:00:51.607	$GPGGA,220052,2437.8199,N,08044.0535,W,1,10,1.6,16,M,,M,,*66
06/16/2015	22:00:52.587	$GPGGA,220053,2437.8213,N,08044.0539,W,1,10,1.6,16,M,,M,,*6A
06/16/2015	22:00:53.607	$GPGGA,220054,2437.8228,N,08044.0542,W,1,10,1.6,16,M,,M,,*69
06/16/2015	22:00:54.567	$GPGGA,220055,2437.8242,N,08044.0546,W,1,10,1.6,16,M,,M,,*60
06/16/2015	22:00:55.598	$GPGGA,220056,2437.8256,N,08044.0550,W,1,10,1.6,16,M,,M,,*61
06/16/2015	22:00:56.571	$GPGGA,220057,2437.8271,N,08044.0554,W,1,10,1.6,16,M,,M,,*61
06/16/2015	22:00:58.047	$GPGGA,220058,2437.8285,N,08044.0558,W,1,10,1.6,16,M,,M,,*69
06/16/2015	22:00:58.560	$GPGGA,220059,2437.8300,N,08044.0561,W,1,10,1.6,16,M,,M,,*6E
06/16/2015	22:00:59.607	$GPGGA,220100,2437.8315,N,08044.0564,W,1,10,1.6,16,M,,M,,*62
06/16/2015	22:01:00.563	$GPGGA,220101,2437.8329,N,08044.0571,W,1,10,1.6,15,M,,M,,*6B
06/16/2015	22:01:01.570	$GPGGA,220102,2437.8344,N,08044.0574,W,1,10,1.6,15,M,,M,,*66
06/16/2015	22:01:02.547	$GPGGA,220103,2437.8358,N,08044.0576,W,1,10,1.6,15,M,,M,,*68
06/16/2015	22:01:03.577	$GPGGA,220104,2437.8372,N,08044.0581,W,1,10,1.6,15,M,,M,,*6F
06/16/2015	22:01:04.527	$GPGGA,220105,2437.8387,N,08044.0585,W,1,10,1.6,15,M,,M,,*60
06/16/2015	22:01:05.527	$GPGGA,220106,2437.8401,N,08044.0589,W,1,10,1.6,15,M,,M,,*66
06/16/2015	22:01:06.527	$GPGGA,220107,2437.8416,N,08044.0592,W,1,10,1.6,15,M,,M,,*6B
06/16/2015	22:01:07.537	$GPGGA,220108,2437.8430,N,08044.0596,W,1,10,1.6,15,M,,M,,*64
06/16/2015	22:01:08.547	$GPGGA,220109,2437.8445,N,08044.0600,W,1,10,1.6,15,M,,M,,*6B
06/16/2015	22:01:09.528	$GPGGA,220110,2437.8459,N,08044.0603,W,1,10,1.6,15,M,,M,,*6D
06/16/2015	22:01:10.537	$GPGGA,220111,2437.8474,N,08044.0607,W,1,10,1.6,15,M,,M,,*67
06/16/2015	22:01:11.567	$GPGGA,220112,2437.8488,N,08044.0611,W,1,10,1.6,15,M,,M,,*60
06/16/2015	22:01:12.517	$GPGGA,220113,2437.8503,N,08044.0614,W,1,10,1.6,15,M,,M,,*66
06/16/2015	22:01:13.527	$GPGGA,220114,2437.8517,N,08044.0618,W,1,10,1.6,15,M,,M,,*68
06/16/2015	22:01:14.626	$GPGGA,220115,2437.8532,N,08044.0621,W,1,10,1.6,15,M,,M,,*64
06/16/2015	22:01:15.616	$GPGGA,220116,2437.8548,N,08044.0625,W,1,10,1.6,15,M,,M,,*6E
06/16/2015	22:01:16.526	$GPGGA,220117,2437.8561,N,08044.0629,W,1,10,1.6,15,M,,M,,*68
06/16/2015	22:01:17.616	$GPGGA,220118,2437.8577,N,08044.0632,W,1,10,1.6,15,M,,M,,*6A
06/16/2015	22:01:18.506	$GPGGA,220119,2437.8592,N,08044.0636,W,1,10,1.6,15,M,,M,,*64
06/16/2015	22:01:19.527	$GPGGA,220120,2437.8607,N,08044.0640,W,1,10,1.6,15,M,,M,,*60
06/16/2015	22:01:20.606	$GPGGA,220121,2437.8622,N,08044.0644,W,1,10,1.6,15,M,,M,,*62
06/16/2015	22:01:21.496	$GPGGA,220122,2437.8636,N,08044.0648,W,1,10,1.6,15,M,,M,,*68
06/16/2015	22:01:22.517	$GPGGA,220123,2437.8651,N,08044.0651,W,1,10,1.6,15,M,,M,,*60
06/16/2015	22:01:23.518	$GPGGA,220124,2437.8665,N,08044.0655,W,1,10,1.6,15,M,,M,,*64
06/16/2015	22:01:24.587	$GPGGA,220125,2437.8680,N,08044.0661,W,1,10,1.6,15,M,,M,,*69
06/16/2015	22:01:25.587	$GPGGA,220126,2437.8697,N,08044.0663,W,1,10,1.6,15,M,,M,,*6E
06/16/2015	22:01:26.587	$GPGGA,220127,2437.8711,N,08044.0668,W,1,10,1.6,15,M,,M,,*6B
06/16/2015	22:01:27.597	$GPGGA,220128,2437.8727,N,08044.0672,W,1,10,1.6,15,M,,M,,*6A
06/16/2015	22:01:28.577	$GPGGA,220129,2437.8741,N,08044.0676,W,1,10,1.6,15,M,,M,,*6F
06/16/2015	22:01:29.587	$GPGGA,220130,2437.8755,N,08044.0679,W,1,10,1.6,15,M,,M,,*6D
06/16/2015	22:01:30.577	$GPGGA,220131,2437.8770,N,08044.0683,W,1,10,1.6,15,M,,M,,*6E
06/16/2015	22:01:31.596	$GPGGA,220132,2437.8786,N,08044.0687,W,1,10,1.6,15,M,,M,,*60
06/16/2015	22:01:32.576	$GPGGA,220133,2437.8802,N,08044.0690,W,1,10,1.6,15,M,,M,,*64
06/16/2015	22:01:33.566	$GPGGA,220134,2437.8817,N,08044.0694,W,1,10,1.6,15,M,,M,,*63
06/16/2015	22:01:34.566	$GPGGA,220135,2437.8831,N,08044.0699,W,1,10,1.6,15,M,,M,,*6B
06/16/2015	22:01:35.596	$GPGGA,220136,2437.8846,N,08044.0702,W,1,10,1.6,15,M,,M,,*6B
06/16/2015	22:01:36.566	$GPGGA,220137,2437.8860,N,08044.0704,W,1,10,1.6,15,M,,M,,*68
06/16/2015	22:01:37.576	$GPGGA,220138,2437.8875,N,08044.0709,W,1,10,1.6,15,M,,M,,*6E
06/16/2015	22:01:38.896	$GPGGA,220139,2437.8889,N,08044.0713,W,1,10,1.6,15,M,,M,,*67
06/16/2015	22:01:39.567	$GPGGA,220140,2437.8904,N,08044.0715,W,1,10,1.6,15,M,,M,,*6B
06/16/2015	22:01:40.567	$GPGGA,220141,2437.8918,N,08044.0719,W,1,10,1.6,15,M,,M,,*6B
06/16/2015	22:01:41.558	$GPGGA,220142,2437.8932,N,08044.0723,W,1,10,1.6,15,M,,M,,*69
06/16/2015	22:01:42.551	$GPGGA,220143,2437.8947,N,08044.0726,W,1,10,1.6,15,M,,M,,*6F
06/16/2015	22:01:43.577	$GPGGA,220144,2437.8962,N,08044.0730,W,1,10,1.6,15,M,,M,,*68
06/16/2015	22:01:44.537	$GPGGA,220145,2437.8976,N,08044.0734,W,1,10,1.6,15,M,,M,,*68
06/16/2015	22:01:45.577	$GPGGA,220146,2437.8992,N,08044.0738,W,1,10,1.6,15,M,,M,,*6D
06/16/2015	22:01:46.547	$GPGGA,220147,2437.9007,N,08044.0740,W,1,10,1.6,15,M,,M,,*67
06/16/2015	22:01:47.549	$GPGGA,220148,2437.9019,N,08044.0744,W,1,10,1.6,15,M,,M,,*63
06/16/2015	22:01:48.551	$GPGGA,220149,2437.9034,N,08044.0749,W,1,10,1.6,15,M,,M,,*60
06/16/2015	22:01:49.526	$GPGGA,220150,2437.9048,N,08044.0751,W,1,10,1.6,15,M,,M,,*6A
06/16/2015	22:01:50.551	$GPGGA,220151,2437.9063,N,08044.0753,W,1,10,1.6,15,M,,M,,*60
06/16/2015	22:01:51.566	$GPGGA,220152,2437.9077,N,08044.0760,W,1,10,1.6,15,M,,M,,*66
06/16/2015	22:01:52.536	$GPGGA,220153,2437.9092,N,08044.0763,W,1,10,1.6,15,M,,M,,*6F
06/16/2015	22:01:53.560	$GPGGA,220154,2437.9108,N,08044.0764,W,1,10,1.6,15,M,,M,,*6D
06/16/2015	22:01:54.536	$GPGGA,220155,2437.9120,N,08044.0770,W,1,10,1.6,15,M,,M,,*63
06/16/2015	22:01:55.546	$GPGGA,220156,2437.9135,N,08044.0773,W,1,10,1.6,15,M,,M,,*67
06/16/2015	22:01:56.526	$GPGGA,220157,2437.9149,N,08044.0775,W,1,10,1.6,15,M,,M,,*6B
06/16/2015	22:01:57.553	$GPGGA,220158,2437.9164,N,08044.0778,W,1,10,1.6,15,M,,M,,*66
06/16/2015	22:01:58.527	$GPGGA,220159,2437.9178,N,08044.0784,W,1,10,1.6,15,M,,M,,*69
06/16/2015	22:01:59.667	$GPGGA,220200,2437.9193,N,08044.0788,W,1,10,1.6,15,M,,M,,*6F
06/16/2015	22:02:00.517	$GPGGA,220201,2437.9207,N,08044.0789,W,1,10,1.6,15,M,,M,,*61
06/16/2015	22:02:01.517	$GPGGA,220202,2437.9221,N,08044.0793,W,1,10,1.6,15,M,,M,,*6D
06/16/2015	22:02:02.497	$GPGGA,220203,2437.9236,N,08044.0798,W,1,10,1.6,15,M,,M,,*61
06/16/2015	22:02:03.550	$GPGGA,220204,2437.9250,N,08044.0802,W,1,10,1.6,15,M,,M,,*6A
06/16/2015	22:02:04.517	$GPGGA,220205,2437.9265,N,08044.0805,W,1,10,1.6,15,M,,M,,*6A
06/16/2015	22:02:05.617	$GPGGA,220206,2437.9279,N,08044.0809,W,1,10,1.6,15,M,,M,,*68
06/16/2015	22:02:06.516	$GPGGA,220207,2437.9294,N,08044.0813,W,1,10,1.6,15,M,,M,,*61
06/16/2015	22:02:07.516	$GPGGA,220208,2437.9308,N,08044.0816,W,1,10,1.6,15,M,,M,,*6F
06/16/2015	22:02:08.506	$GPGGA,220209,2437.9323,N,08044.0820,W,1,10,1.6,15,M,,M,,*62
06/16/2015	22:02:09.586	$GPGGA,220210,2437.9339,N,08044.0822,W,1,10,1.6,15,M,,M,,*63
06/16/2015	22:02:10.496	$GPGGA,220211,2437.9354,N,08044.0825,W,1,10,1.6,15,M,,M,,*6E
06/16/2015	22:02:11.596	$GPGGA,220212,2437.9368,N,08044.0831,W,1,10,1.6,15,M,,M,,*67
06/16/2015	22:02:12.496	$GPGGA,220213,2437.9383,N,08044.0834,W,1,10,1.8,15,M,,M,,*68
06/16/2015	22:02:13.586	$GPGGA,220214,2437.9398,N,08044.0835,W,1,10,1.6,15,M,,M,,*6A
06/16/2015	22:02:14.597	$GPGGA,220215,2437.9412,N,08044.0840,W,1,10,1.6,15,M,,M,,*6C
06/16/2015	22:02:15.597	$GPGGA,220216,2437.9427,N,08044.0845,W,1,10,1.6,15,M,,M,,*6C
06/16/2015	22:02:16.587	$GPGGA,220217,2437.9442,N,08044.0846,W,1,10,1.6,15,M,,M,,*6D
06/16/2015	22:02:17.567	$GPGGA,220218,2437.9456,N,08044.0850,W,1,10,1.6,15,M,,M,,*60
06/16/2015	22:02:18.577	$GPGGA,220219,2437.9471,N,08044.0856,W,1,10,1.6,15,M,,M,,*62
06/16/2015	22:02:19.587	$GPGGA,220220,2437.9487,N,08044.0860,W,1,10,1.6,15,M,,M,,*64
06/16/2015	22:02:20.587	$GPGGA,220221,2437.9502,N,08044.0861,W,1,10,1.8,15,M,,M,,*66
06/16/2015	22:02:21.557	$GPGGA,220222,2437.9516,N,08044.0865,W,1,9,1.8,15,M,,M,,*5C
06/16/2015	22:02:22.567	$GPGGA,220223,2437.9529,N,08044.0870,W,1,9,1.6,15,M,,M,,*5B
06/16/2015	22:02:23.587	$GPGGA,220224,2437.9543,N,08044.0874,W,1,10,1.6,15,M,,M,,*6C
06/16/2015	22:02:24.566	$GPGGA,220225,2437.9558,N,08044.0878,W,1,10,1.6,15,M,,M,,*6B
06/16/2015	22:02:25.576	$GPGGA,220226,2437.9572,N,08044.0882,W,1,10,1.6,15,M,,M,,*65
06/16/2015	22:02:26.557	$GPGGA,220227,2437.9587,N,08044.0885,W,1,10,1.6,15,M,,M,,*69
06/16/2015	22:02:27.586	$GPGGA,220228,2437.9601,N,08044.0889,W,1,10,1.6,15,M,,M,,*67
06/16/2015	22:02:28.547	$GPGGA,220229,2437.9617,N,08044.0892,W,1,10,1.6,15,M,,M,,*6B
06/16/2015	22:02:29.576	$GPGGA,220230,2437.9630,N,08044.0896,W,1,10,1.6,15,M,,M,,*62
06/16/2015	22:02:30.547	$GPGGA,220231,2437.9646,N,08044.0900,W,1,10,1.6,15,M,,M,,*6C
06/16/2015	22:02:31.548	$GPGGA,220232,2437.9661,N,08044.0903,W,1,10,1.6,15,M,,M,,*69
06/16/2015	22:02:32.558	$GPGGA,220233,2437.9675,N,08044.0907,W,1,10,1.6,15,M,,M,,*69
06/16/2015	22:02:33.537	$GPGGA,220234,2437.9690,N,08044.0910,W,1,10,1.6,15,M,,M,,*63
06/16/2015	22:02:34.548	$GPGGA,220235,2437.9705,N,08044.0915,W,1,10,1.6,15,M,,M,,*6A
06/16/2015	22:02:35.577	$GPGGA,220236,2437.9719,N,08044.0918,W,1,10,1.6,15,M,,M,,*69
06/16/2015	22:02:36.527	$GPGGA,220237,2437.9733,N,08044.0921,W,1,10,1.6,15,M,,M,,*6A
06/16/2015	22:02:37.577	$GPGGA,220238,2437.9747,N,08044.0926,W,1,9,1.7,15,M,,M,,*58
06/16/2015	22:02:38.537	$GPGGA,220239,2437.9762,N,08044.0928,W,1,9,1.6,15,M,,M,,*51
06/16/2015	22:02:39.577	$GPGGA,220240,2437.9776,N,08044.0932,W,1,10,1.6,15,M,,M,,*69
06/16/2015	22:02:40.839	$GPGGA,220241,2437.9791,N,08044.0937,W,1,10,1.6,15,M,,M,,*64
06/16/2015	22:02:41.526	$GPGGA,220242,2437.9805,N,08044.0940,W,1,10,1.6,16,M,,M,,*66
06/16/2015	22:02:42.526	$GPGGA,220243,2437.9818,N,08044.0943,W,1,10,1.6,16,M,,M,,*68
06/16/2015	22:02:43.566	$GPGGA,220244,2437.9832,N,08044.0947,W,1,10,1.6,16,M,,M,,*63
06/16/2015	22:02:44.516	$GPGGA,220245,2437.9846,N,08044.0951,W,1,10,1.6,16,M,,M,,*66
06/16/2015	22:02:45.526	$GPGGA,220246,2437.9861,N,08044.0954,W,1,10,1.6,16,M,,M,,*65
06/16/2015	22:02:46.507	$GPGGA,220247,2437.9875,N,08044.0957,W,1,10,1.7,16,M,,M,,*63
06/16/2015	22:02:47.556	$GPGGA,220248,2437.9890,N,08044.0962,W,1,10,1.6,16,M,,M,,*60
06/16/2015	22:02:48.506	$GPGGA,220249,2437.9904,N,08044.0965,W,1,10,1.6,16,M,,M,,*6A
06/16/2015	22:02:49.517	$GPGGA,220250,2437.9919,N,08044.0968,W,1,10,1.6,16,M,,M,,*63
06/16/2015	22:02:50.507	$GPGGA,220251,2437.9933,N,08044.0972,W,1,10,1.6,16,M,,M,,*61
06/16/2015	22:02:51.677	$GPGGA,220252,2437.9947,N,08044.0975,W,1,9,1.7,16,M,,M,,*5F
06/16/2015	22:02:52.667	$GPGGA,220253,2437.9962,N,08044.0979,W,1,9,1.7,17,M,,M,,*54
06/16/2015	22:02:53.617	$GPGGA,220254,2437.9976,N,08044.0983,W,1,9,1.6,17,M,,M,,*52
06/16/2015	22:02:54.487	$GPGGA,220255,2437.9991,N,08044.0986,W,1,9,1.6,17,M,,M,,*5F
06/16/2015	22:02:55.497	$GPGGA,220256,2438.0005,N,08044.0990,W,1,10,1.6,17,M,,M,,*61
06/16/2015	22:02:56.660	$GPGGA,220257,2438.0020,N,08044.0994,W,1,10,1.7,17,M,,M,,*62
06/16/2015	22:02:57.617	$GPGGA,220258,2438.0034,N,08044.0998,W,1,9,1.7,17,M,,M,,*5C
06/16/2015	22:02:58.487	$GPGGA,220259,2438.0049,N,08044.1001,W,1,9,1.7,17,M,,M,,*5F
06/16/2015	22:02:59.676	$GPGGA,220300,2438.0063,N,08044.1005,W,1,9,1.7,17,M,,M,,*5E
06/16/2015	22:03:00.649	$GPGGA,220301,2438.0078,N,08044.1011,W,1,9,1.6,17,M,,M,,*51
06/16/2015	22:03:01.651	$GPGGA,220302,2438.0095,N,08044.1015,W,1,10,1.6,17,M,,M,,*6D
06/16/2015	22:03:02.658	$GPGGA,220303,2438.0109,N,08044.1019,W,1,10,1.6,17,M,,M,,*64
06/16/2015	22:03:03.662	$GPGGA,220304,2438.0124,N,08044.1023,W,1,9,1.6,17,M,,M,,*5D
06/16/2015	22:03:04.648	$GPGGA,220305,2438.0139,N,08044.1027,W,1,9,1.6,17,M,,M,,*54
06/16/2015	22:03:05.607	$GPGGA,220306,2438.0154,N,08044.1031,W,1,10,1.6,18,M,,M,,*6C
06/16/2015	22:03:06.649	$GPGGA,220307,2438.0171,N,08044.1037,W,1,10,1.6,18,M,,M,,*6C
06/16/2015	22:03:07.577	$GPGGA,220308,2438.0186,N,08044.1042,W,1,10,1.6,18,M,,M,,*69
06/16/2015	22:03:08.652	$GPGGA,220309,2438.0201,N,08044.1044,W,1,10,1.6,18,M,,M,,*62
06/16/2015	22:03:09.607	$GPGGA,220310,2438.0215,N,08044.1048,W,1,10,1.6,18,M,,M,,*63
06/16/2015	22:03:10.607	$GPGGA,220311,2438.0230,N,08044.1052,W,1,10,1.6,18,M,,M,,*6E
06/16/2015	22:03:11.637	$GPGGA,220312,2438.0246,N,08044.1056,W,1,10,1.6,18,M,,M,,*68
06/16/2015	22:03:12.560	$GPGGA,220313,2438.0261,N,08044.1060,W,1,10,1.6,18,M,,M,,*69
06/16/2015	22:03:13.597	$GPGGA,220314,2438.0276,N,08044.1064,W,1,10,1.6,18,M,,M,,*6C
06/16/2015	22:03:14.607	$GPGGA,220315,2438.0291,N,08044.1069,W,1,10,1.6,18,M,,M,,*69
06/16/2015	22:03:15.607	$GPGGA,220316,2438.0305,N,08044.1071,W,1,10,1.6,18,M,,M,,*6F
06/16/2015	22:03:16.606	$GPGGA,220317,2438.0320,N,08044.1077,W,1,10,1.6,18,M,,M,,*6F
06/16/2015	22:03:17.616	$GPGGA,220318,2438.0336,N,08044.1080,W,1,10,1.6,18,M,,M,,*6F
06/16/2015	22:03:18.536	$GPGGA,220319,2438.0351,N,08044.1084,W,1,10,1.6,18,M,,M,,*6B
06/16/2015	22:03:19.626	$GPGGA,220320,2438.0366,N,08044.1087,W,1,10,1.6,19,M,,M,,*67
06/16/2015	22:03:20.596	$GPGGA,220321,2438.0380,N,08044.1091,W,1,10,1.6,19,M,,M,,*69
06/16/2015	22:03:21.626	$GPGGA,220322,2438.0395,N,08044.1095,W,1,10,1.8,19,M,,M,,*64
06/16/2015	22:03:22.596	$GPGGA,220323,2438.0410,N,08044.1098,W,1,10,1.8,19,M,,M,,*62
06/16/2015	22:03:23.606	$GPGGA,220324,2438.0424,N,08044.1102,W,1,9,1.8,19,M,,M,,*58
06/16/2015	22:03:24.587	$GPGGA,220325,2438.0439,N,08044.1106,W,1,9,1.8,19,M,,M,,*51
06/16/2015	22:03:25.567	$GPGGA,220326,2438.0454,N,08044.1109,W,1,9,1.8,19,M,,M,,*56
06/16/2015	22:03:26.517	$GPGGA,220327,2438.0470,N,08044.1113,W,1,9,1.8,19,M,,M,,*5A
06/16/2015	22:03:27.597	$GPGGA,220328,2438.0484,N,08044.1117,W,1,9,1.8,19,M,,M,,*5A
06/16/2015	22:03:28.587	$GPGGA,220329,2438.0499,N,08044.1121,W,1,9,1.8,19,M,,M,,*52
06/16/2015	22:03:29.637	$GPGGA,220330,2438.0515,N,08044.1125,W,1,9,1.8,19,M,,M,,*5B
06/16/2015	22:03:30.564	$GPGGA,220331,2438.0529,N,08044.1128,W,1,9,1.8,19,M,,M,,*58
06/16/2015	22:03:31.517	$GPGGA,220332,2438.0544,N,08044.1132,W,1,9,1.8,19,M,,M,,*5B
06/16/2015	22:03:32.577	$GPGGA,220333,2438.0558,N,08044.1138,W,1,9,1.8,19,M,,M,,*5D
06/16/2015	22:03:33.537	$GPGGA,220334,2438.0573,N,08044.1141,W,1,9,1.8,19,M,,M,,*5D
06/16/2015	22:03:34.496	$GPGGA,220335,2438.0587,N,08044.1142,W,1,9,1.8,19,M,,M,,*54
06/16/2015	22:03:35.636	$GPGGA,220336,2438.0601,N,08044.1147,W,1,9,1.8,19,M,,M,,*5F
06/16/2015	22:03:36.586	$GPGGA,220337,2438.0616,N,08044.1152,W,1,9,1.8,19,M,,M,,*5C
06/16/2015	22:03:37.550	$GPGGA,220338,2438.0630,N,08044.1154,W,1,9,1.8,19,M,,M,,*51
06/16/2015	22:03:38.616	$GPGGA,220339,2438.0645,N,08044.1158,W,1,9,1.8,19,M,,M,,*5E
06/16/2015	22:03:39.636	$GPGGA,220340,2438.0659,N,08044.1163,W,1,9,1.8,19,M,,M,,*55
06/16/2015	22:03:40.568	$GPGGA,220341,2438.0674,N,08044.1167,W,1,9,1.8,19,M,,M,,*5F
06/16/2015	22:03:41.517	$GPGGA,220342,2438.0688,N,08044.1170,W,1,9,1.8,19,M,,M,,*59
06/16/2015	22:03:42.587	$GPGGA,220343,2438.0703,N,08044.1174,W,1,9,1.8,19,M,,M,,*5E
06/16/2015	22:03:43.617	$GPGGA,220344,2438.0717,N,08044.1178,W,1,9,1.8,19,M,,M,,*50
06/16/2015	22:03:44.597	$GPGGA,220345,2438.0732,N,08044.1182,W,1,9,1.8,19,M,,M,,*53
06/16/2015	22:03:45.607	$GPGGA,220346,2438.0746,N,08044.1186,W,1,9,1.8,18,M,,M,,*56
06/16/2015	22:03:46.577	$GPGGA,220347,2438.0760,N,08044.1189,W,1,9,1.8,18,M,,M,,*5C
06/16/2015	22:03:47.587	$GPGGA,220348,2438.0775,N,08044.1192,W,1,9,1.8,18,M,,M,,*5D
06/16/2015	22:03:48.577	$GPGGA,220349,2438.0789,N,08044.1197,W,1,9,1.8,18,M,,M,,*5A
06/16/2015	22:03:49.597	$GPGGA,220350,2438.0789,N,08044.1197,W,1,9,1.8,18,M,,M,,*52
06/16/2015	22:03:50.567	$GPGGA,220351,2438.0818,N,08044.1204,W,1,9,1.8,18,M,,M,,*5D
06/16/2015	22:03:51.596	$GPGGA,220352,2438.0833,N,08044.1208,W,1,9,1.8,18,M,,M,,*5B
06/16/2015	22:03:52.576	$GPGGA,220353,2438.0847,N,08044.1214,W,1,9,1.8,18,M,,M,,*54
06/16/2015	22:03:54.016	$GPGGA,220354,2438.0862,N,08044.1217,W,1,9,1.8,18,M,,M,,*57
06/16/2015	22:03:54.559	$GPGGA,220355,2438.0876,N,08044.1221,W,1,9,1.8,18,M,,M,,*56
06/16/2015	22:03:55.586	$GPGGA,220356,2438.0891,N,08044.1225,W,1,9,1.8,18,M,,M,,*58
06/16/2015	22:03:56.566	$GPGGA,220357,2438.0905,N,08044.1230,W,1,9,1.8,18,M,,M,,*51
06/16/2015	22:03:57.559	$GPGGA,220358,2438.0919,N,08044.1233,W,1,9,1.8,18,M,,M,,*50
06/16/2015	22:03:58.626	$GPGGA,220359,2438.0934,N,08044.1236,W,1,9,1.8,18,M,,M,,*5B
06/16/2015	22:03:59.597	$GPGGA,220400,2438.0948,N,08044.1240,W,1,9,1.8,18,M,,M,,*5A
06/16/2015	22:04:00.557	$GPGGA,220401,2438.0963,N,08044.1244,W,1,9,1.8,18,M,,M,,*56
06/16/2015	22:04:01.577	$GPGGA,220402,2438.0977,N,08044.1247,W,1,9,1.8,18,M,,M,,*53
06/16/2015	22:04:02.567	$GPGGA,220403,2438.0992,N,08044.1251,W,1,9,1.8,18,M,,M,,*5E
06/16/2015	22:04:03.577	$GPGGA,220404,2438.1006,N,08044.1257,W,1,9,1.8,18,M,,M,,*5A
06/16/2015	22:04:04.557	$GPGGA,220405,2438.1021,N,08044.1259,W,1,9,1.8,18,M,,M,,*50
06/16/2015	22:04:05.587	$GPGGA,220406,2438.1035,N,08044.1264,W,1,9,1.8,18,M,,M,,*58
06/16/2015	22:04:06.577	$GPGGA,220407,2438.1050,N,08044.1268,W,1,9,1.8,18,M,,M,,*56
06/16/2015	22:04:07.587	$GPGGA,220408,2438.1064,N,08044.1272,W,1,9,1.8,18,M,,M,,*55
06/16/2015	22:04:08.557	$GPGGA,220409,2438.1079,N,08044.1276,W,1,9,1.8,18,M,,M,,*5C
06/16/2015	22:04:09.556	$GPGGA,220410,2438.1079,N,08044.1276,W,1,9,1.8,18,M,,M,,*54
06/16/2015	22:04:10.547	$GPGGA,220411,2438.1093,N,08044.1279,W,1,9,1.8,18,M,,M,,*5E
06/16/2015	22:04:11.566	$GPGGA,220412,2438.1124,N,08044.1288,W,1,9,1.8,18,M,,M,,*5E
06/16/2015	22:04:12.536	$GPGGA,220413,2438.1124,N,08044.1288,W,1,9,1.8,17,M,,M,,*50
06/16/2015	22:04:13.546	$GPGGA,220414,2438.1138,N,08044.1293,W,1,9,1.8,17,M,,M,,*50
06/16/2015	22:04:14.526	$GPGGA,220415,2438.1151,N,08044.1297,W,1,9,1.8,17,M,,M,,*5A
06/16/2015	22:04:15.549	$GPGGA,220416,2438.1180,N,08044.1304,W,1,9,1.8,17,M,,M,,*5E
06/16/2015	22:04:16.517	$GPGGA,220417,2438.1180,N,08044.1304,W,1,9,1.8,17,M,,M,,*5F
06/16/2015	22:04:17.637	$GPGGA,220418,2438.1209,N,08044.1311,W,1,9,1.8,17,M,,M,,*56
06/16/2015	22:04:18.527	$GPGGA,220419,2438.1209,N,08044.1311,W,1,9,1.8,17,M,,M,,*57
06/16/2015	22:04:19.648	$GPGGA,220420,2438.1238,N,08044.1320,W,1,9,1.8,17,M,,M,,*5D
06/16/2015	22:04:20.562	$GPGGA,220421,2438.1238,N,08044.1320,W,1,9,1.8,17,M,,M,,*5C
06/16/2015	22:04:21.507	$GPGGA,220422,2438.1266,N,08044.1329,W,1,9,1.8,17,M,,M,,*5D
06/16/2015	22:04:22.637	$GPGGA,220423,2438.1281,N,08044.1333,W,1,9,1.8,17,M,,M,,*5E
06/16/2015	22:04:23.507	$GPGGA,220424,2438.1297,N,08044.1337,W,1,9,1.8,17,M,,M,,*5A
06/16/2015	22:04:24.597	$GPGGA,220425,2438.1310,N,08044.1341,W,1,9,1.8,17,M,,M,,*54
06/16/2015	22:04:25.637	$GPGGA,220426,2438.1324,N,08044.1345,W,1,9,1.8,17,M,,M,,*54
06/16/2015	22:04:26.616	$GPGGA,220427,2438.1339,N,08044.1349,W,1,9,1.8,17,M,,M,,*55
06/16/2015	22:04:27.616	$GPGGA,220428,2438.1353,N,08044.1355,W,1,9,1.8,17,M,,M,,*5B
06/16/2015	22:04:28.596	$GPGGA,220429,2438.1368,N,08044.1358,W,1,9,1.8,17,M,,M,,*5F
06/16/2015	22:04:29.586	$GPGGA,220430,2438.1382,N,08044.1362,W,1,9,1.8,17,M,,M,,*5A
06/16/2015	22:04:30.586	$GPGGA,220431,2438.1398,N,08044.1366,W,1,9,1.8,17,M,,M,,*54
06/16/2015	22:04:31.586	$GPGGA,220432,2438.1411,N,08044.1370,W,1,9,1.8,17,M,,M,,*56
06/16/2015	22:04:32.596	$GPGGA,220433,2438.1427,N,08044.1373,W,1,9,1.8,16,M,,M,,*50
06/16/2015	22:04:33.606	$GPGGA,220434,2438.1442,N,08044.1376,W,1,9,1.8,16,M,,M,,*51
06/16/2015	22:04:34.577	$GPGGA,220435,2438.1456,N,08044.1381,W,1,9,1.8,16,M,,M,,*5D
06/16/2015	22:04:35.587	$GPGGA,220436,2438.1469,N,08044.1387,W,1,9,1.8,16,M,,M,,*54
06/16/2015	22:04:36.587	$GPGGA,220437,2438.1485,N,08044.1389,W,1,9,1.8,16,M,,M,,*59
06/16/2015	22:04:37.567	$GPGGA,220438,2438.1500,N,08044.1392,W,1,9,1.8,16,M,,M,,*50
06/16/2015	22:04:38.577	$GPGGA,220439,2438.1514,N,08044.1398,W,1,9,1.8,16,M,,M,,*5E
06/16/2015	22:04:39.597	$GPGGA,220440,2438.1529,N,08044.1402,W,1,9,1.8,16,M,,M,,*5A
06/16/2015	22:04:40.567	$GPGGA,220441,2438.1543,N,08044.1405,W,1,9,1.8,16,M,,M,,*50
06/16/2015	22:04:41.577	$GPGGA,220442,2438.1558,N,08044.1409,W,1,9,1.8,16,M,,M,,*55
06/16/2015	22:04:42.567	$GPGGA,220443,2438.1573,N,08044.1412,W,1,9,1.8,16,M,,M,,*57
06/16/2015	22:04:43.596	$GPGGA,220444,2438.1587,N,08044.1416,W,1,9,1.8,16,M,,M,,*5F
06/16/2015	22:04:44.562	$GPGGA,220445,2438.1601,N,08044.1423,W,1,9,1.8,16,M,,M,,*55
06/16/2015	22:04:45.576	$GPGGA,220446,2438.1617,N,08044.1424,W,1,9,1.8,16,M,,M,,*56
06/16/2015	22:04:46.557	$GPGGA,220447,2438.1631,N,08044.1427,W,1,9,1.8,16,M,,M,,*50
06/16/2015	22:04:47.586	$GPGGA,220448,2438.1645,N,08044.1434,W,1,9,1.8,16,M,,M,,*5E
06/16/2015	22:04:48.547	$GPGGA,220449,2438.1659,N,08044.1438,W,1,9,1.8,16,M,,M,,*5E
06/16/2015	22:04:49.566	$GPGGA,220450,2438.1674,N,08044.1439,W,1,9,1.8,16,M,,M,,*58
06/16/2015	22:04:50.536	$GPGGA,220451,2438.1688,N,08044.1445,W,1,9,1.8,16,M,,M,,*51
06/16/2015	22:04:51.577	$GPGGA,220452,2438.1703,N,08044.1449,W,1,9,1.8,16,M,,M,,*5C
06/16/2015	22:04:52.549	$GPGGA,220453,2438.1717,N,08044.1452,W,1,9,1.8,16,M,,M,,*52
06/16/2015	22:04:53.527	$GPGGA,220454,2438.1732,N,08044.1456,W,1,9,1.8,16,M,,M,,*56
06/16/2015	22:04:54.547	$GPGGA,220455,2438.1746,N,08044.1460,W,1,9,1.8,16,M,,M,,*51
06/16/2015	22:04:55.560	$GPGGA,220456,2438.1761,N,08044.1463,W,1,9,1.8,16,M,,M,,*54
06/16/2015	22:04:56.547	$GPGGA,220457,2438.1776,N,08044.1468,W,1,9,1.8,16,M,,M,,*58
06/16/2015	22:04:57.517	$GPGGA,220458,2438.1790,N,08044.1474,W,1,9,1.8,16,M,,M,,*52
06/16/2015	22:04:58.527	$GPGGA,220459,2438.1805,N,08044.1475,W,1,9,1.8,16,M,,M,,*51
06/16/2015	22:04:59.607	$GPGGA,220500,2438.1819,N,08044.1479,W,1,9,1.8,16,M,,M,,*5D
06/16/2015	22:05:00.517	$GPGGA,220501,2438.1833,N,08044.1482,W,1,9,1.9,16,M,,M,,*51
06/16/2015	22:05:01.536	$GPGGA,220502,2438.1848,N,08044.1488,W,1,8,1.9,16,M,,M,,*55
06/16/2015	22:05:02.526	$GPGGA,220503,2438.1862,N,08044.1492,W,1,8,1.8,16,M,,M,,*56
06/16/2015	22:05:03.536	$GPGGA,220504,2438.1879,N,08044.1496,W,1,9,1.8,16,M,,M,,*5E
06/16/2015	22:05:04.526	$GPGGA,220505,2438.1893,N,08044.1500,W,1,9,1.8,16,M,,M,,*55
06/16/2015	22:05:05.616	$GPGGA,220506,2438.1908,N,08044.1506,W,1,9,1.8,16,M,,M,,*53
06/16/2015	22:05:06.626	$GPGGA,220507,2438.1922,N,08044.1508,W,1,9,1.8,16,M,,M,,*54
06/16/2015	22:05:07.526	$GPGGA,220508,2438.1938,N,08044.1512,W,1,8,1.9,16,M,,M,,*5B
06/16/2015	22:05:08.506	$GPGGA,220509,2438.1952,N,08044.1515,W,1,8,1.8,16,M,,M,,*50
06/16/2015	22:05:09.497	$GPGGA,220510,2438.1967,N,08044.1521,W,1,9,1.8,16,M,,M,,*58
06/16/2015	22:05:10.607	$GPGGA,220511,2438.1981,N,08044.1525,W,1,9,1.8,16,M,,M,,*55
06/16/2015	22:05:11.507	$GPGGA,220512,2438.1996,N,08044.1528,W,1,9,1.8,16,M,,M,,*5D
06/16/2015	22:05:12.507	$GPGGA,220513,2438.2010,N,08044.1532,W,1,9,1.8,16,M,,M,,*53
06/16/2015	22:05:13.587	$GPGGA,220514,2438.2025,N,08044.1535,W,1,9,1.8,16,M,,M,,*55
06/16/2015	22:05:14.507	$GPGGA,220515,2438.2039,N,08044.1539,W,1,9,1.8,16,M,,M,,*55
06/16/2015	22:05:15.507	$GPGGA,220516,2438.2054,N,08044.1544,W,1,9,1.8,16,M,,M,,*57
06/16/2015	22:05:16.587	$GPGGA,220517,2438.2070,N,08044.1547,W,1,9,1.8,16,M,,M,,*53
06/16/2015	22:05:17.617	$GPGGA,220518,2438.2083,N,08044.1551,W,1,9,1.8,16,M,,M,,*57
06/16/2015	22:05:18.576	$GPGGA,220519,2438.2097,N,08044.1555,W,1,9,1.8,16,M,,M,,*57
06/16/2015	22:05:19.596	$GPGGA,220520,2438.2112,N,08044.1558,W,1,9,1.8,16,M,,M,,*5C
06/16/2015	22:05:20.586	$GPGGA,220521,2438.2126,N,08044.1562,W,1,9,1.8,16,M,,M,,*53
06/16/2015	22:05:21.566	$GPGGA,220522,2438.2141,N,08044.1568,W,1,9,1.8,16,M,,M,,*5B
06/16/2015	22:05:22.576	$GPGGA,220523,2438.2155,N,08044.1572,W,1,9,1.8,16,M,,M,,*54
06/16/2015	22:05:23.607	$GPGGA,220524,2438.2170,N,08044.1575,W,1,9,1.8,16,M,,M,,*53
06/16/2015	22:05:24.566	$GPGGA,220525,2438.2184,N,08044.1577,W,1,9,1.8,16,M,,M,,*5B
06/16/2015	22:05:25.566	$GPGGA,220526,2438.2199,N,08044.1583,W,1,9,1.8,16,M,,M,,*5F
06/16/2015	22:05:26.577	$GPGGA,220527,2438.2215,N,08044.1586,W,1,9,1.8,16,M,,M,,*5C
06/16/2015	22:05:27.597	$GPGGA,220528,2438.2229,N,08044.1590,W,1,9,1.8,16,M,,M,,*5B
06/16/2015	22:05:28.565	$GPGGA,220529,2438.2242,N,08044.1594,W,1,9,1.8,16,M,,M,,*53
06/16/2015	22:05:29.587	$GPGGA,220530,2438.2258,N,08044.1597,W,1,9,1.8,16,M,,M,,*53
06/16/2015	22:05:30.547	$GPGGA,220531,2438.2273,N,08044.1600,W,1,9,1.8,16,M,,M,,*56
06/16/2015	22:05:31.587	$GPGGA,220532,2438.2287,N,08044.1604,W,1,9,1.8,16,M,,M,,*5A
06/16/2015	22:05:32.557	$GPGGA,220533,2438.2302,N,08044.1608,W,1,9,1.8,16,M,,M,,*5B
06/16/2015	22:05:33.547	$GPGGA,220534,2438.2317,N,08044.1613,W,1,9,1.8,16,M,,M,,*52
06/16/2015	22:05:34.548	$GPGGA,220535,2438.2331,N,08044.1615,W,1,9,1.8,16,M,,M,,*51
06/16/2015	22:05:35.557	$GPGGA,220536,2438.2346,N,08044.1618,W,1,9,1.8,16,M,,M,,*5F
06/16/2015	22:05:36.546	$GPGGA,220537,2438.2360,N,08044.1623,W,1,9,1.8,16,M,,M,,*52
06/16/2015	22:05:37.566	$GPGGA,220538,2438.2375,N,08044.1627,W,1,9,1.8,16,M,,M,,*5D
06/16/2015	22:05:38.537	$GPGGA,220539,2438.2390,N,08044.1629,W,1,9,1.8,16,M,,M,,*59
06/16/2015	22:05:39.556	$GPGGA,220540,2438.2404,N,08044.1634,W,1,9,1.8,16,M,,M,,*51
06/16/2015	22:05:40.526	$GPGGA,220541,2438.2418,N,08044.1638,W,1,9,1.8,16,M,,M,,*51
06/16/2015	22:05:41.536	$GPGGA,220542,2438.2433,N,08044.1640,W,1,9,1.8,16,M,,M,,*54
06/16/2015	22:05:42.536	$GPGGA,220543,2438.2447,N,08044.1644,W,1,9,1.8,16,M,,M,,*52
06/16/2015	22:05:43.567	$GPGGA,220544,2438.2461,N,08044.1648,W,1,9,1.8,16,M,,M,,*5D
06/16/2015	22:05:44.537	$GPGGA,220545,2438.2476,N,08044.1651,W,1,9,1.8,16,M,,M,,*52
06/16/2015	22:05:45.538	$GPGGA,220546,2438.2490,N,08044.1655,W,1,9,1.8,16,M,,M,,*5D
06/16/2015	22:05:46.548	$GPGGA,220547,2438.2504,N,08044.1660,W,1,9,1.8,16,M,,M,,*56
06/16/2015	22:05:47.637	$GPGGA,220548,2438.2519,N,08044.1665,W,1,9,1.8,16,M,,M,,*50
06/16/2015	22:05:48.517	$GPGGA,220549,2438.2533,N,08044.1666,W,1,9,1.8,16,M,,M,,*5A
06/16/2015	22:05:49.507	$GPGGA,220550,2438.2548,N,08044.1671,W,1,9,1.8,16,M,,M,,*58
06/16/2015	22:05:50.517	$GPGGA,220551,2438.2562,N,08044.1676,W,1,9,1.8,16,M,,M,,*56
06/16/2015	22:05:51.637	$GPGGA,220552,2438.2577,N,08044.1680,W,1,9,1.8,16,M,,M,,*58
06/16/2015	22:05:52.507	$GPGGA,220553,2438.2591,N,08044.1683,W,1,9,1.8,17,M,,M,,*53
06/16/2015	22:05:53.506	$GPGGA,220554,2438.2605,N,08044.1687,W,1,9,1.8,17,M,,M,,*5E
06/16/2015	22:05:54.516	$GPGGA,220555,2438.2620,N,08044.1691,W,1,9,1.8,17,M,,M,,*5F
06/16/2015	22:05:55.526	$GPGGA,220556,2438.2634,N,08044.1694,W,1,9,1.8,17,M,,M,,*5C
06/16/2015	22:05:56.616	$GPGGA,220557,2438.2649,N,08044.1699,W,1,9,1.8,17,M,,M,,*5A
06/16/2015	22:05:57.506	$GPGGA,220558,2438.2663,N,08044.1703,W,1,9,1.8,17,M,,M,,*5F
06/16/2015	22:05:58.496	$GPGGA,220559,2438.2678,N,08044.1706,W,1,9,1.8,17,M,,M,,*51
06/16/2015	22:05:59.648	$GPGGA,220600,2438.2693,N,08044.1712,W,1,9,1.8,17,M,,M,,*5E
06/16/2015	22:06:00.586	$GPGGA,220601,2438.2707,N,08044.1716,W,1,9,1.8,17,M,,M,,*57
06/16/2015	22:06:01.597	$GPGGA,220602,2438.2722,N,08044.1720,W,1,9,1.8,17,M,,M,,*56
06/16/2015	22:06:02.587	$GPGGA,220603,2438.2736,N,08044.1723,W,1,9,1.8,17,M,,M,,*51
06/16/2015	22:06:03.587	$GPGGA,220604,2438.2750,N,08044.1727,W,1,9,1.8,17,M,,M,,*52
06/16/2015	22:06:04.577	$GPGGA,220605,2438.2766,N,08044.1731,W,1,9,1.8,17,M,,M,,*51
06/16/2015	22:06:05.597	$GPGGA,220606,2438.2780,N,08044.1735,W,1,9,1.8,17,M,,M,,*5E
06/16/2015	22:06:06.587	$GPGGA,220607,2438.2794,N,08044.1741,W,1,9,1.8,17,M,,M,,*59
06/16/2015	22:06:07.617	$GPGGA,220608,2438.2809,N,08044.1745,W,1,9,1.8,17,M,,M,,*59
06/16/2015	22:06:08.577	$GPGGA,220609,2438.2823,N,08044.1746,W,1,9,1.8,17,M,,M,,*53
06/16/2015	22:06:09.567	$GPGGA,220610,2438.2837,N,08044.1752,W,1,9,1.8,17,M,,M,,*5B
06/16/2015	22:06:10.577	$GPGGA,220611,2438.2851,N,08044.1756,W,1,9,1.8,17,M,,M,,*5E
06/16/2015	22:06:11.586	$GPGGA,220612,2438.2866,N,08044.1759,W,1,9,1.8,17,M,,M,,*56
06/16/2015	22:06:12.566	$GPGGA,220613,2438.2881,N,08044.1763,W,1,9,1.8,17,M,,M,,*57
06/16/2015	22:06:13.576	$GPGGA,220614,2438.2895,N,08044.1767,W,1,9,1.8,17,M,,M,,*51
06/16/2015	22:06:14.566	$GPGGA,220615,2438.2909,N,08044.1771,W,1,9,1.8,17,M,,M,,*53
06/16/2015	22:06:15.586	$GPGGA,220616,2438.2923,N,08044.1775,W,1,9,1.8,17,M,,M,,*5C
06/16/2015	22:06:16.556	$GPGGA,220617,2438.2938,N,08044.1779,W,1,9,1.8,17,M,,M,,*5B
06/16/2015	22:06:17.546	$GPGGA,220618,2438.2952,N,08044.1785,W,1,9,1.8,17,M,,M,,*5B
06/16/2015	22:06:18.566	$GPGGA,220619,2438.2967,N,08044.1788,W,1,9,1.8,17,M,,M,,*51
06/16/2015	22:06:19.587	$GPGGA,220620,2438.2982,N,08044.1792,W,1,9,1.8,17,M,,M,,*5B
06/16/2015	22:06:20.554	$GPGGA,220621,2438.2996,N,08044.1796,W,1,9,1.8,17,M,,M,,*5B
06/16/2015	22:06:21.577	$GPGGA,220622,2438.3010,N,08044.1801,W,1,9,1.8,17,M,,M,,*5F
06/16/2015	22:06:22.537	$GPGGA,220623,2438.3025,N,08044.1803,W,1,9,1.8,17,M,,M,,*5A
06/16/2015	22:06:23.547	$GPGGA,220624,2438.3039,N,08044.1807,W,1,9,1.8,17,M,,M,,*54
06/16/2015	22:06:24.537	$GPGGA,220625,2438.3053,N,08044.1813,W,1,9,1.8,17,M,,M,,*5C
06/16/2015	22:06:25.537	$GPGGA,220626,2438.3066,N,08044.1817,W,1,9,1.8,17,M,,M,,*5D
06/16/2015	22:06:26.537	$GPGGA,220627,2438.3082,N,08044.1821,W,1,9,1.8,17,M,,M,,*53
06/16/2015	22:06:27.577	$GPGGA,220628,2438.3097,N,08044.1824,W,1,9,1.8,17,M,,M,,*5D
06/16/2015	22:06:28.516	$GPGGA,220629,2438.3111,N,08044.1828,W,1,9,1.8,17,M,,M,,*5F
06/16/2015	22:06:29.526	$GPGGA,220630,2438.3126,N,08044.1833,W,1,9,1.8,17,M,,M,,*59
06/16/2015	22:06:30.516	$GPGGA,220631,2438.3141,N,08044.1837,W,1,9,1.8,17,M,,M,,*5D
06/16/2015	22:06:31.576	$GPGGA,220632,2438.3154,N,08044.1842,W,1,9,1.8,17,M,,M,,*58
06/16/2015	22:06:32.536	$GPGGA,220633,2438.3167,N,08044.1846,W,1,9,1.8,17,M,,M,,*5D
06/16/2015	22:06:33.526	$GPGGA,220634,2438.3183,N,08044.1850,W,1,9,1.8,17,M,,M,,*57
06/16/2015	22:06:34.606	$GPGGA,220635,2438.3196,N,08044.1854,W,1,9,1.8,16,M,,M,,*57
06/16/2015	22:06:35.648	$GPGGA,220636,2438.3212,N,08044.1857,W,1,9,1.8,16,M,,M,,*58
06/16/2015	22:06:36.527	$GPGGA,220637,2438.3225,N,08044.1861,W,1,9,1.8,16,M,,M,,*58
06/16/2015	22:06:37.527	$GPGGA,220638,2438.3239,N,08044.1866,W,1,9,1.8,16,M,,M,,*5D
06/16/2015	22:06:38.517	$GPGGA,220639,2438.3255,N,08044.1871,W,1,9,1.8,16,M,,M,,*50
06/16/2015	22:06:39.537	$GPGGA,220640,2438.3268,N,08044.1873,W,1,9,1.8,16,M,,M,,*52
06/16/2015	22:06:40.497	$GPGGA,220641,2438.3282,N,08044.1879,W,1,9,1.8,16,M,,M,,*5D
06/16/2015	22:06:41.497	$GPGGA,220642,2438.3297,N,08044.1882,W,1,9,1.8,16,M,,M,,*5E
06/16/2015	22:06:42.497	$GPGGA,220643,2438.3311,N,08044.1886,W,1,9,1.8,16,M,,M,,*54
06/16/2015	22:06:43.507	$GPGGA,220644,2438.3325,N,08044.1891,W,1,9,1.8,16,M,,M,,*52
06/16/2015	22:06:44.497	$GPGGA,220645,2438.3340,N,08044.1894,W,1,9,1.8,16,M,,M,,*55
06/16/2015	22:06:45.587	$GPGGA,220646,2438.3354,N,08044.1897,W,1,9,1.8,16,M,,M,,*50
06/16/2015	22:06:46.596	$GPGGA,220647,2438.3368,N,08044.1904,W,1,9,1.8,16,M,,M,,*55
06/16/2015	22:06:47.606	$GPGGA,220648,2438.3383,N,08044.1908,W,1,9,1.8,16,M,,M,,*53
06/16/2015	22:06:48.586	$GPGGA,220649,2438.3397,N,08044.1909,W,1,9,1.8,16,M,,M,,*56
06/16/2015	22:06:49.596	$GPGGA,220650,2438.3412,N,08044.1915,W,1,9,1.8,16,M,,M,,*59
06/16/2015	22:06:50.576	$GPGGA,220651,2438.3425,N,08044.1919,W,1,9,1.8,16,M,,M,,*50
06/16/2015	22:06:51.596	$GPGGA,220652,2438.3438,N,08044.1923,W,1,9,1.8,16,M,,M,,*56
06/16/2015	22:06:52.576	$GPGGA,220653,2438.3452,N,08044.1926,W,1,9,1.9,16,M,,M,,*5F
06/16/2015	22:06:53.566	$GPGGA,220654,2438.3466,N,08044.1927,W,1,8,1.9,16,M,,M,,*5F
06/16/2015	22:06:54.577	$GPGGA,220655,2438.3479,N,08044.1933,W,1,8,1.9,16,M,,M,,*55
06/16/2015	22:06:55.597	$GPGGA,220656,2438.3492,N,08044.1936,W,1,8,1.9,16,M,,M,,*56
06/16/2015	22:06:56.559	$GPGGA,220657,2438.3508,N,08044.1938,W,1,8,1.9,16,M,,M,,*5B
06/16/2015	22:06:57.587	$GPGGA,220658,2438.3521,N,08044.1943,W,1,8,1.9,16,M,,M,,*53
06/16/2015	22:06:58.567	$GPGGA,220659,2438.3535,N,08044.1947,W,1,8,1.9,16,M,,M,,*53
06/16/2015	22:06:59.597	$GPGGA,220700,2438.3549,N,08044.1951,W,1,8,1.9,16,M,,M,,*52
06/16/2015	22:07:00.558	$GPGGA,220701,2438.3563,N,08044.1954,W,1,8,1.9,16,M,,M,,*5E
06/16/2015	22:07:01.587	$GPGGA,220702,2438.3577,N,08044.1958,W,1,8,1.9,16,M,,M,,*54
06/16/2015	22:07:02.561	$GPGGA,220703,2438.3591,N,08044.1962,W,1,8,1.9,15,M,,M,,*57
06/16/2015	22:07:03.587	$GPGGA,220704,2438.3604,N,08044.1965,W,1,8,1.9,15,M,,M,,*58
06/16/2015	22:07:04.547	$GPGGA,220705,2438.3620,N,08044.1970,W,1,8,1.9,15,M,,M,,*5B
06/16/2015	22:07:05.576	$GPGGA,220706,2438.3633,N,08044.1976,W,1,8,1.8,15,M,,M,,*5D
06/16/2015	22:07:06.536	$GPGGA,220707,2438.3649,N,08044.1977,W,1,8,1.8,15,M,,M,,*50
06/16/2015	22:07:07.586	$GPGGA,220708,2438.3662,N,08044.1981,W,1,8,1.8,15,M,,M,,*5F
06/16/2015	22:07:08.561	$GPGGA,220709,2438.3676,N,08044.1987,W,1,8,1.8,15,M,,M,,*5D
06/16/2015	22:07:09.557	$GPGGA,220710,2438.3690,N,08044.1991,W,1,8,1.8,15,M,,M,,*5A
06/16/2015	22:07:10.550	$GPGGA,220711,2438.3705,N,08044.1994,W,1,8,1.8,15,M,,M,,*53
06/16/2015	22:07:11.577	$GPGGA,220712,2438.3719,N,08044.1998,W,1,8,1.8,15,M,,M,,*51
06/16/2015	22:07:12.537	$GPGGA,220713,2438.3733,N,08044.2003,W,1,8,1.8,15,M,,M,,*50
06/16/2015	22:07:13.527	$GPGGA,220714,2438.3748,N,08044.2006,W,1,8,1.8,15,M,,M,,*5E
06/16/2015	22:07:14.537	$GPGGA,220715,2438.3762,N,08044.2009,W,1,8,1.8,14,M,,M,,*59
06/16/2015	22:07:15.577	$GPGGA,220716,2438.3776,N,08044.2014,W,1,8,1.8,14,M,,M,,*53
06/16/2015	22:07:16.637	$GPGGA,220717,2438.3790,N,08044.2019,W,1,8,1.8,14,M,,M,,*57
06/16/2015	22:07:17.653	$GPGGA,220718,2438.3803,N,08044.2023,W,1,8,1.8,14,M,,M,,*54
06/16/2015	22:07:20.097	$GPGGA,220720,2438.3831,N,08044.2028,W,1,8,1.8,14,M,,M,,*55
06/16/2015	22:07:20.527	$GPGGA,220721,2438.3846,N,08044.2034,W,1,8,1.8,14,M,,M,,*59
06/16/2015	22:07:21.636	$GPGGA,220722,2438.3860,N,08044.2038,W,1,8,1.8,14,M,,M,,*52
06/16/2015	22:07:22.626	$GPGGA,220723,2438.3873,N,08044.2041,W,1,8,1.8,14,M,,M,,*5F
06/16/2015	22:07:24.106	$GPGGA,220724,2438.3886,N,08044.2042,W,1,8,1.9,14,M,,M,,*50
06/16/2015	22:07:24.526	$GPGGA,220725,2438.3900,N,08044.2048,W,1,8,1.9,14,M,,M,,*54
06/16/2015	22:07:25.536	$GPGGA,220726,2438.3914,N,08044.2052,W,1,8,1.8,14,M,,M,,*58
06/16/2015	22:07:26.516	$GPGGA,220727,2438.3929,N,08044.2055,W,1,8,1.8,14,M,,M,,*50
06/16/2015	22:07:27.506	$GPGGA,220728,2438.3943,N,08044.2057,W,1,8,1.8,14,M,,M,,*51
06/16/2015	22:07:28.596	$GPGGA,220729,2438.3958,N,08044.2061,W,1,8,1.8,14,M,,M,,*5F
06/16/2015	22:07:29.597	$GPGGA,220730,2438.3972,N,08044.2066,W,1,8,1.8,14,M,,M,,*58
06/16/2015	22:07:30.597	$GPGGA,220731,2438.3987,N,08044.2070,W,1,8,1.9,14,M,,M,,*55
06/16/2015	22:07:31.617	$GPGGA,220732,2438.4001,N,08044.2074,W,1,7,1.8,14,M,,M,,*5C
06/16/2015	22:07:32.507	$GPGGA,220733,2438.4016,N,08044.2078,W,1,7,1.8,14,M,,M,,*57
06/16/2015	22:07:33.597	$GPGGA,220734,2438.4032,N,08044.2082,W,1,8,1.8,14,M,,M,,*5C
06/16/2015	22:07:34.587	$GPGGA,220735,2438.4045,N,08044.2088,W,1,8,1.8,14,M,,M,,*57
06/16/2015	22:07:35.627	$GPGGA,220736,2438.4059,N,08044.2092,W,1,8,1.8,14,M,,M,,*52
06/16/2015	22:07:36.587	$GPGGA,220737,2438.4074,N,08044.2095,W,1,8,1.8,14,M,,M,,*5B
06/16/2015	22:07:37.627	$GPGGA,220738,2438.4090,N,08044.2097,W,1,8,1.8,14,M,,M,,*5C
06/16/2015	22:07:38.586	$GPGGA,220739,2438.4102,N,08044.2103,W,1,8,1.8,14,M,,M,,*5B
06/16/2015	22:07:39.616	$GPGGA,220740,2438.4117,N,08044.2110,W,1,8,1.8,14,M,,M,,*53
06/16/2015	22:07:40.566	$GPGGA,220741,2438.4131,N,08044.2110,W,1,8,1.9,14,M,,M,,*57
06/16/2015	22:07:41.596	$GPGGA,220742,2438.4145,N,08044.2113,W,1,7,1.8,14,M,,M,,*5A
06/16/2015	22:07:42.566	$GPGGA,220743,2438.4157,N,08044.2120,W,1,7,1.8,14,M,,M,,*58
06/16/2015	22:07:43.606	$GPGGA,220744,2438.4173,N,08044.2124,W,1,8,2.4,14,M,,M,,*5D
06/16/2015	22:07:44.626	$GPGGA,220745,2438.4186,N,08044.2125,W,1,8,1.8,14,M,,M,,*58
06/16/2015	22:07:45.596	$GPGGA,220746,2438.4200,N,08044.2129,W,1,8,1.8,14,M,,M,,*5A
06/16/2015	22:07:46.557	$GPGGA,220747,2438.4213,N,08044.2135,W,1,8,1.8,14,M,,M,,*54
06/16/2015	22:07:47.597	$GPGGA,220748,2438.4225,N,08044.2139,W,1,8,1.8,14,M,,M,,*52
06/16/2015	22:07:48.558	$GPGGA,220749,2438.4238,N,08044.2142,W,1,8,1.8,14,M,,M,,*53
06/16/2015	22:07:49.567	$GPGGA,220750,2438.4250,N,08044.2146,W,1,8,1.8,14,M,,M,,*51
06/16/2015	22:07:50.549	$GPGGA,220751,2438.4264,N,08044.2150,W,1,8,1.8,14,M,,M,,*50
06/16/2015	22:07:51.587	$GPGGA,220752,2438.4278,N,08044.2153,W,1,8,1.8,14,M,,M,,*5D
06/16/2015	22:07:52.547	$GPGGA,220753,2438.4290,N,08044.2157,W,1,8,1.8,14,M,,M,,*5E
06/16/2015	22:07:53.577	$GPGGA,220754,2438.4304,N,08044.2161,W,1,8,1.8,14,M,,M,,*50
06/16/2015	22:07:54.537	$GPGGA,220755,2438.4318,N,08044.2164,W,1,8,1.8,14,M,,M,,*59
06/16/2015	22:07:55.577	$GPGGA,220756,2438.4332,N,08044.2167,W,1,8,1.8,14,M,,M,,*51
06/16/2015	22:07:56.536	$GPGGA,220757,2438.4346,N,08044.2171,W,1,8,1.8,14,M,,M,,*54
06/16/2015	22:07:57.558	$GPGGA,220758,2438.4359,N,08044.2175,W,1,8,1.8,14,M,,M,,*51
06/16/2015	22:07:58.526	$GPGGA,220759,2438.4373,N,08044.2179,W,1,8,1.8,14,M,,M,,*54
06/16/2015	22:07:59.596	$GPGGA,220800,2438.4388,N,08044.2182,W,1,8,1.8,14,M,,M,,*57
06/16/2015	22:08:00.526	$GPGGA,220801,2438.4399,N,08044.2187,W,1,8,1.9,14,M,,M,,*52
06/16/2015	22:08:01.536	$GPGGA,220802,2438.4413,N,08044.2191,W,1,7,1.9,14,M,,M,,*5C
06/16/2015	22:08:02.536	$GPGGA,220803,2438.4427,N,08044.2193,W,1,7,1.8,14,M,,M,,*59
06/16/2015	22:08:03.566	$GPGGA,220804,2438.4440,N,08044.2197,W,1,8,1.8,14,M,,M,,*54
06/16/2015	22:08:04.525	$GPGGA,220805,2438.4440,N,08044.2197,W,1,8,1.8,14,M,,M,,*55
06/16/2015	22:08:05.515	$GPGGA,220806,2438.4467,N,08044.2205,W,1,8,1.8,14,M,,M,,*5B
06/16/2015	22:08:06.615	$GPGGA,220807,2438.4482,N,08044.2207,W,1,8,1.8,14,M,,M,,*53
06/16/2015	22:08:07.615	$GPGGA,220808,2438.4496,N,08044.2211,W,1,8,1.8,15,M,,M,,*5F
06/16/2015	22:08:08.525	$GPGGA,220809,2438.4510,N,08044.2215,W,1,8,1.9,15,M,,M,,*54
06/16/2015	22:08:09.495	$GPGGA,220810,2438.4525,N,08044.2220,W,1,7,1.8,15,M,,M,,*52
06/16/2015	22:08:10.515	$GPGGA,220811,2438.4539,N,08044.2223,W,1,7,1.8,15,M,,M,,*5D
06/16/2015	22:08:11.595	$GPGGA,220812,2438.4554,N,08044.2225,W,1,8,1.8,15,M,,M,,*5C
06/16/2015	22:08:12.585	$GPGGA,220813,2438.4568,N,08044.2229,W,1,8,1.8,15,M,,M,,*5E
06/16/2015	22:08:13.614	$GPGGA,220814,2438.4582,N,08044.2236,W,1,8,1.8,15,M,,M,,*53
06/16/2015	22:08:14.584	$GPGGA,220815,2438.4596,N,08044.2237,W,1,8,1.9,15,M,,M,,*57
06/16/2015	22:08:15.594	$GPGGA,220816,2438.4610,N,08044.2240,W,1,7,1.8,15,M,,M,,*57
06/16/2015	22:08:16.504	$GPGGA,220817,2438.4623,N,08044.2243,W,1,7,1.8,15,M,,M,,*55
06/16/2015	22:08:17.574	$GPGGA,220818,2438.4637,N,08044.2247,W,1,8,1.8,15,M,,M,,*54
06/16/2015	22:08:18.584	$GPGGA,220819,2438.4650,N,08044.2249,W,1,8,1.8,15,M,,M,,*5A
06/16/2015	22:08:19.614	$GPGGA,220820,2438.4664,N,08044.2252,W,1,8,1.8,15,M,,M,,*5D
06/16/2015	22:08:20.564	$GPGGA,220821,2438.4677,N,08044.2256,W,1,8,1.8,15,M,,M,,*5A
06/16/2015	22:08:21.564	$GPGGA,220822,2438.4691,N,08044.2258,W,1,8,1.8,15,M,,M,,*5F
06/16/2015	22:08:22.585	$GPGGA,220823,2438.4706,N,08044.2261,W,1,8,1.8,15,M,,M,,*5B
06/16/2015	22:08:23.595	$GPGGA,220824,2438.4720,N,08044.2266,W,1,8,1.9,15,M,,M,,*5E
06/16/2015	22:08:24.595	$GPGGA,220825,2438.4734,N,08044.2269,W,1,8,1.9,15,M,,M,,*55
06/16/2015	22:08:25.585	$GPGGA,220826,2438.4749,N,08044.2272,W,1,7,1.9,15,M,,M,,*59
06/16/2015	22:08:26.555	$GPGGA,220827,2438.4763,N,08044.2276,W,1,7,1.8,15,M,,M,,*55
06/16/2015	22:08:27.585	$GPGGA,220828,2438.4776,N,08044.2280,W,1,8,1.8,15,M,,M,,*58
06/16/2015	22:08:28.565	$GPGGA,220829,2438.4791,N,08044.2283,W,1,8,1.8,15,M,,M,,*53
06/16/2015	22:08:29.565	$GPGGA,220830,2438.4805,N,08044.2285,W,1,8,1.8,15,M,,M,,*5F
06/16/2015	22:08:30.555	$GPGGA,220831,2438.4818,N,08044.2290,W,1,8,1.8,15,M,,M,,*56
06/16/2015	22:08:31.594	$GPGGA,220832,2438.4832,N,08044.2294,W,1,8,1.8,15,M,,M,,*59
06/16/2015	22:08:32.554	$GPGGA,220833,2438.4846,N,08044.2295,W,1,8,1.9,15,M,,M,,*5B
06/16/2015	22:08:33.564	$GPGGA,220834,2438.4861,N,08044.2301,W,1,8,1.8,15,M,,M,,*54
06/16/2015	22:08:34.535	$GPGGA,220835,2438.4876,N,08044.2305,W,1,8,1.8,15,M,,M,,*57
06/16/2015	22:08:35.574	$GPGGA,220836,2438.4892,N,08044.2309,W,1,8,1.8,15,M,,M,,*52
06/16/2015	22:08:36.545	$GPGGA,220837,2438.4906,N,08044.2312,W,1,8,1.8,15,M,,M,,*55
06/16/2015	22:08:37.564	$GPGGA,220838,2438.4919,N,08044.2316,W,1,8,1.8,15,M,,M,,*50
06/16/2015	22:08:38.554	$GPGGA,220839,2438.4933,N,08044.2320,W,1,8,1.8,15,M,,M,,*5C
06/16/2015	22:08:39.547	$GPGGA,220840,2438.4948,N,08044.2323,W,1,8,1.8,15,M,,M,,*5D
06/16/2015	22:08:41.575	$GPGGA,220842,2438.4977,N,08044.2332,W,1,8,1.8,15,M,,M,,*53
06/16/2015	22:08:42.525	$GPGGA,220843,2438.4991,N,08044.2335,W,1,8,1.8,15,M,,M,,*5D
06/16/2015	22:08:43.535	$GPGGA,220844,2438.5005,N,08044.2337,W,1,8,1.8,15,M,,M,,*5D
06/16/2015	22:08:44.525	$GPGGA,220845,2438.5019,N,08044.2341,W,1,8,1.8,15,M,,M,,*50
06/16/2015	22:08:45.556	$GPGGA,220846,2438.5031,N,08044.2346,W,1,8,1.8,15,M,,M,,*5E
06/16/2015	22:08:46.525	$GPGGA,220847,2438.5045,N,08044.2350,W,1,8,1.9,15,M,,M,,*5A
06/16/2015	22:08:47.525	$GPGGA,220848,2438.5059,N,08044.2352,W,1,7,1.9,15,M,,M,,*55
06/16/2015	22:08:48.524	$GPGGA,220849,2438.5073,N,08044.2355,W,1,7,1.8,15,M,,M,,*5A
06/16/2015	22:08:49.552	$GPGGA,220850,2438.5085,N,08044.2361,W,1,8,1.8,15,M,,M,,*53
06/16/2015	22:08:50.524	$GPGGA,220851,2438.5099,N,08044.2363,W,1,8,1.8,15,M,,M,,*5D
06/16/2015	22:08:51.514	$GPGGA,220852,2438.5114,N,08044.2366,W,1,8,1.8,15,M,,M,,*5F
06/16/2015	22:08:52.514	$GPGGA,220853,2438.5128,N,08044.2370,W,1,8,1.8,15,M,,M,,*56
06/16/2015	22:08:53.494	$GPGGA,220854,2438.5142,N,08044.2374,W,1,8,1.8,15,M,,M,,*59
06/16/2015	22:08:54.614	$GPGGA,220855,2438.5157,N,08044.2378,W,1,8,1.9,15,M,,M,,*51
06/16/2015	22:08:55.624	$GPGGA,220856,2438.5174,N,08044.2384,W,1,8,1.8,15,M,,M,,*51
06/16/2015	22:08:56.504	$GPGGA,220857,2438.5188,N,08044.2388,W,1,8,1.8,15,M,,M,,*5F
06/16/2015	22:08:57.495	$GPGGA,220858,2438.5201,N,08044.2391,W,1,8,1.8,15,M,,M,,*5A
06/16/2015	22:08:58.605	$GPGGA,220859,2438.5215,N,08044.2395,W,1,8,1.8,15,M,,M,,*5A
06/16/2015	22:08:59.495	$GPGGA,220900,2438.5229,N,08044.2399,W,1,8,1.8,15,M,,M,,*54
06/16/2015	22:09:00.585	$GPGGA,220901,2438.5244,N,08044.2402,W,1,8,1.8,15,M,,M,,*5B
06/16/2015	22:09:01.485	$GPGGA,220902,2438.5258,N,08044.2404,W,1,8,1.8,15,M,,M,,*53
06/16/2015	22:09:02.585	$GPGGA,220903,2438.5271,N,08044.2408,W,1,8,1.8,15,M,,M,,*55
06/16/2015	22:09:03.595	$GPGGA,220904,2438.5284,N,08044.2413,W,1,8,1.8,14,M,,M,,*53
06/16/2015	22:09:04.495	$GPGGA,220905,2438.5298,N,08044.2414,W,1,8,1.9,14,M,,M,,*59
06/16/2015	22:09:05.575	$GPGGA,220906,2438.5312,N,08044.2417,W,1,8,1.8,14,M,,M,,*5B
06/16/2015	22:09:06.584	$GPGGA,220907,2438.5326,N,08044.2422,W,1,8,1.8,14,M,,M,,*5B
06/16/2015	22:09:07.604	$GPGGA,220908,2438.5340,N,08044.2426,W,1,8,1.8,14,M,,M,,*50
06/16/2015	22:09:08.564	$GPGGA,220909,2438.5355,N,08044.2431,W,1,8,1.8,14,M,,M,,*53
06/16/2015	22:09:09.584	$GPGGA,220910,2438.5369,N,08044.2433,W,1,8,1.8,14,M,,M,,*56
06/16/2015	22:09:10.554	$GPGGA,220911,2438.5383,N,08044.2438,W,1,8,1.8,14,M,,M,,*58
06/16/2015	22:09:11.594	$GPGGA,220912,2438.5396,N,08044.2442,W,1,8,1.8,14,M,,M,,*52
06/16/2015	22:09:12.554	$GPGGA,220913,2438.5410,N,08044.2444,W,1,8,1.9,14,M,,M,,*5D
06/16/2015	22:09:13.564	$GPGGA,220914,2438.5421,N,08044.2447,W,1,7,1.9,14,M,,M,,*54
06/16/2015	22:09:14.565	$GPGGA,220915,2438.5434,N,08044.2451,W,1,7,1.8,14,M,,M,,*57
06/16/2015	22:09:15.575	$GPGGA,220916,2438.5448,N,08044.2456,W,1,8,1.8,14,M,,M,,*57
06/16/2015	22:09:16.555	$GPGGA,220917,2438.5461,N,08044.2458,W,1,8,1.9,14,M,,M,,*52
06/16/2015	22:09:17.565	$GPGGA,220918,2438.5478,N,08044.2462,W,1,8,1.8,14,M,,M,,*5D
06/16/2015	22:09:18.555	$GPGGA,220919,2438.5493,N,08044.2467,W,1,8,1.8,14,M,,M,,*5C
06/16/2015	22:09:19.575	$GPGGA,220920,2438.5507,N,08044.2471,W,1,8,1.8,14,M,,M,,*5D
06/16/2015	22:09:20.547	$GPGGA,220921,2438.5522,N,08044.2475,W,1,8,1.9,14,M,,M,,*5E
06/16/2015	22:09:21.555	$GPGGA,220922,2438.5536,N,08044.2479,W,1,8,1.8,14,M,,M,,*55
06/16/2015	22:09:23.614	$GPGGA,220924,2438.5564,N,08044.2487,W,1,8,1.8,14,M,,M,,*55
06/16/2015	22:09:24.524	$GPGGA,220925,2438.5578,N,08044.2493,W,1,8,1.8,14,M,,M,,*5C
06/16/2015	22:09:25.524	$GPGGA,220926,2438.5593,N,08044.2496,W,1,8,1.8,14,M,,M,,*5F
06/16/2015	22:09:26.537	$GPGGA,220927,2438.5607,N,08044.2500,W,1,8,1.8,14,M,,M,,*5E
06/16/2015	22:09:27.564	$GPGGA,220928,2438.5620,N,08044.2504,W,1,8,1.8,14,M,,M,,*50
06/16/2015	22:09:28.534	$GPGGA,220929,2438.5634,N,08044.2507,W,1,8,1.8,14,M,,M,,*57
06/16/2015	22:09:29.514	$GPGGA,220930,2438.5648,N,08044.2511,W,1,8,1.8,14,M,,M,,*53
06/16/2015	22:09:30.535	$GPGGA,220931,2438.5665,N,08044.2514,W,1,8,1.9,14,M,,M,,*59
06/16/2015	22:09:31.565	$GPGGA,220932,2438.5680,N,08044.2519,W,1,8,1.8,14,M,,M,,*5D
06/16/2015	22:09:32.515	$GPGGA,220933,2438.5695,N,08044.2523,W,1,8,1.8,14,M,,M,,*51
06/16/2015	22:09:33.515	$GPGGA,220934,2438.5709,N,08044.2527,W,1,8,1.8,14,M,,M,,*56
06/16/2015	22:09:34.535	$GPGGA,220935,2438.5723,N,08044.2532,W,1,8,1.8,14,M,,M,,*5B
06/16/2015	22:09:35.535	$GPGGA,220936,2438.5735,N,08044.2533,W,1,7,1.9,14,M,,M,,*50
06/16/2015	22:09:36.505	$GPGGA,220937,2438.5750,N,08044.2537,W,1,7,1.8,14,M,,M,,*57
06/16/2015	22:09:37.495	$GPGGA,220938,2438.5763,N,08044.2543,W,1,8,1.8,14,M,,M,,*54
06/16/2015	22:09:38.595	$GPGGA,220939,2438.5777,N,08044.2544,W,1,8,1.8,14,M,,M,,*57
06/16/2015	22:09:39.555	$GPGGA,220940,2438.5790,N,08044.2548,W,1,8,1.8,14,M,,M,,*5C
06/16/2015	22:09:40.505	$GPGGA,220941,2438.5804,N,08044.2554,W,1,8,1.8,14,M,,M,,*52
06/16/2015	22:09:41.524	$GPGGA,220942,2438.5818,N,08044.2556,W,1,8,1.8,14,M,,M,,*5E
06/16/2015	22:09:42.504	$GPGGA,220943,2438.5833,N,08044.2559,W,1,8,1.8,14,M,,M,,*59
06/16/2015	22:09:43.524	$GPGGA,220944,2438.5847,N,08044.2563,W,1,8,1.8,14,M,,M,,*54
06/16/2015	22:09:44.504	$GPGGA,220945,2438.5861,N,08044.2569,W,1,8,1.8,14,M,,M,,*5B
06/16/2015	22:09:45.484	$GPGGA,220946,2438.5876,N,08044.2572,W,1,7,1.9,14,M,,M,,*5A
06/16/2015	22:09:46.504	$GPGGA,220947,2438.5891,N,08044.2576,W,1,7,1.8,14,M,,M,,*57
06/16/2015	22:09:47.594	$GPGGA,220948,2438.5905,N,08044.2579,W,1,8,1.8,14,M,,M,,*54
06/16/2015	22:09:48.584	$GPGGA,220949,2438.5919,N,08044.2585,W,1,8,1.8,14,M,,M,,*5B
06/16/2015	22:09:49.495	$GPGGA,220950,2438.5934,N,08044.2588,W,1,8,1.8,14,M,,M,,*51
06/16/2015	22:09:50.858	$GPGGA,220951,2438.5948,N,08044.2591,W,1,8,1.8,14,M,,M,,*53
06/16/2015	22:09:51.615	$GPGGA,220952,2438.5962,N,08044.2595,W,1,8,1.8,14,M,,M,,*5C
06/16/2015	22:09:52.585	$GPGGA,220953,2438.5976,N,08044.2598,W,1,8,1.8,14,M,,M,,*55
06/16/2015	22:09:53.605	$GPGGA,220954,2438.5990,N,08044.2602,W,1,8,1.8,14,M,,M,,*5A
06/16/2015	22:09:54.575	$GPGGA,220955,2438.6003,N,08044.2606,W,1,8,1.8,14,M,,M,,*5F
06/16/2015	22:09:55.605	$GPGGA,220956,2438.6017,N,08044.2609,W,1,8,1.8,14,M,,M,,*56
06/16/2015	22:09:56.555	$GPGGA,220957,2438.6031,N,08044.2612,W,1,8,1.8,14,M,,M,,*59
06/16/2015	22:09:57.575	$GPGGA,220958,2438.6045,N,08044.2617,W,1,8,1.8,14,M,,M,,*50
06/16/2015	22:09:58.554	$GPGGA,220959,2438.6059,N,08044.2619,W,1,8,1.9,14,M,,M,,*53
06/16/2015	22:09:59.684	$GPGGA,221000,2438.6073,N,08044.2623,W,1,8,1.8,14,M,,M,,*57
06/16/2015	22:10:00.554	$GPGGA,221001,2438.6086,N,08044.2626,W,1,8,1.8,14,M,,M,,*59
06/16/2015	22:10:01.584	$GPGGA,221002,2438.6100,N,08044.2630,W,1,8,1.8,14,M,,M,,*52
06/16/2015	22:10:02.554	$GPGGA,221003,2438.6115,N,08044.2634,W,1,8,1.9,14,M,,M,,*52
06/16/2015	22:10:03.574	$GPGGA,221004,2438.6129,N,08044.2637,W,1,8,1.8,14,M,,M,,*58
06/16/2015	22:10:04.554	$GPGGA,221005,2438.6146,N,08044.2641,W,1,8,1.8,14,M,,M,,*51
06/16/2015	22:10:05.554	$GPGGA,221006,2438.6160,N,08044.2645,W,1,8,1.8,14,M,,M,,*52
06/16/2015	22:10:06.555	$GPGGA,221007,2438.6174,N,08044.2650,W,1,8,1.8,14,M,,M,,*52
06/16/2015	22:10:07.575	$GPGGA,221008,2438.6189,N,08044.2653,W,1,7,1.9,14,M,,M,,*52
06/16/2015	22:10:08.536	$GPGGA,221009,2438.6203,N,08044.2655,W,1,7,1.9,14,M,,M,,*54
06/16/2015	22:10:09.537	$GPGGA,221010,2438.6216,N,08044.2659,W,1,8,1.8,14,M,,M,,*5A
06/16/2015	22:10:10.545	$GPGGA,221011,2438.6230,N,08044.2664,W,1,8,1.8,14,M,,M,,*51
06/16/2015	22:10:11.555	$GPGGA,221012,2438.6245,N,08044.2668,W,1,8,1.8,14,M,,M,,*5C
06/16/2015	22:10:12.547	$GPGGA,221013,2438.6259,N,08044.2673,W,1,8,1.8,14,M,,M,,*5A
06/16/2015	22:10:13.538	$GPGGA,221014,2438.6272,N,08044.2674,W,1,7,1.9,14,M,,M,,*5D
06/16/2015	22:10:14.536	$GPGGA,221015,2438.6286,N,08044.2678,W,1,7,1.8,14,M,,M,,*5A
06/16/2015	22:10:15.555	$GPGGA,221016,2438.6299,N,08044.2681,W,1,8,1.8,14,M,,M,,*5E
06/16/2015	22:10:16.524	$GPGGA,221017,2438.6313,N,08044.2686,W,1,8,1.8,14,M,,M,,*5B
06/16/2015	22:10:17.524	$GPGGA,221018,2438.6328,N,08044.2691,W,1,8,1.8,14,M,,M,,*5A
06/16/2015	22:10:18.646	$GPGGA,221019,2438.6342,N,08044.2693,W,1,8,1.8,14,M,,M,,*55
06/16/2015	22:10:19.544	$GPGGA,221020,2438.6357,N,08044.2697,W,1,8,1.8,14,M,,M,,*5F
06/16/2015	22:10:20.504	$GPGGA,221021,2438.6371,N,08044.2702,W,1,8,1.8,14,M,,M,,*57
06/16/2015	22:10:21.514	$GPGGA,221022,2438.6385,N,08044.2704,W,1,8,1.8,14,M,,M,,*59
06/16/2015	22:10:22.504	$GPGGA,221023,2438.6400,N,08044.2707,W,1,8,1.8,14,M,,M,,*51
06/16/2015	22:10:23.704	$GPGGA,221024,2438.6414,N,08044.2713,W,1,8,1.8,14,M,,M,,*56
06/16/2015	22:10:24.525	$GPGGA,221025,2438.6428,N,08044.2717,W,1,8,1.8,14,M,,M,,*5C
06/16/2015	22:10:25.515	$GPGGA,221026,2438.6443,N,08044.2720,W,1,8,1.8,14,M,,M,,*56
06/16/2015	22:10:26.495	$GPGGA,221027,2438.6457,N,08044.2724,W,1,8,1.8,14,M,,M,,*56
06/16/2015	22:10:27.545	$GPGGA,221028,2438.6471,N,08044.2728,W,1,8,1.8,14,M,,M,,*51
06/16/2015	22:10:28.595	$GPGGA,221029,2438.6485,N,08044.2731,W,1,8,1.8,14,M,,M,,*53
06/16/2015	22:10:29.675	$GPGGA,221030,2438.6500,N,08044.2733,W,1,8,1.8,14,M,,M,,*55
06/16/2015	22:10:30.495	$GPGGA,221031,2438.6514,N,08044.2738,W,1,8,1.8,14,M,,M,,*5A
06/16/2015	22:10:31.705	$GPGGA,221032,2438.6526,N,08044.2745,W,1,8,1.8,14,M,,M,,*52
06/16/2015	22:10:32.515	$GPGGA,221033,2438.6541,N,08044.2746,W,1,8,1.8,14,M,,M,,*51
06/16/2015	22:10:33.684	$GPGGA,221034,2438.6557,N,08044.2749,W,1,8,1.8,14,M,,M,,*5E
06/16/2015	22:10:34.494	$GPGGA,221035,2438.6570,N,08044.2753,W,1,8,1.8,14,M,,M,,*51
06/16/2015	22:10:35.594	$GPGGA,221036,2438.6584,N,08044.2758,W,1,7,1.9,14,M,,M,,*5C
06/16/2015	22:10:36.604	$GPGGA,221037,2438.6599,N,08044.2760,W,1,7,1.8,14,M,,M,,*5B
06/16/2015	22:10:37.574	$GPGGA,221038,2438.6613,N,08044.2764,W,1,8,1.8,14,M,,M,,*5E
06/16/2015	22:10:38.574	$GPGGA,221039,2438.6627,N,08044.2768,W,1,8,1.8,14,M,,M,,*54
06/16/2015	22:10:39.694	$GPGGA,221040,2438.6642,N,08044.2771,W,1,8,1.8,14,M,,M,,*51
06/16/2015	22:10:40.574	$GPGGA,221041,2438.6656,N,08044.2775,W,1,8,1.8,14,M,,M,,*51
06/16/2015	22:10:41.657	$GPGGA,221042,2438.6671,N,08044.2780,W,1,8,1.8,14,M,,M,,*5D
06/16/2015	22:10:42.625	$GPGGA,221043,2438.6685,N,08044.2783,W,1,8,1.8,14,M,,M,,*54
06/16/2015	22:10:44.165	$GPGGA,221044,2438.6700,N,08044.2786,W,1,8,1.8,14,M,,M,,*5A
06/16/2015	22:10:44.616	$GPGGA,221045,2438.6714,N,08044.2790,W,1,8,1.8,14,M,,M,,*59
06/16/2015	22:10:45.665	$GPGGA,221046,2438.6729,N,08044.2796,W,1,8,1.8,14,M,,M,,*52
06/16/2015	22:10:46.585	$GPGGA,221047,2438.6743,N,08044.2800,W,1,8,1.8,14,M,,M,,*5F
06/16/2015	22:10:47.654	$GPGGA,221048,2438.6758,N,08044.2803,W,1,8,1.8,14,M,,M,,*59
06/16/2015	22:10:48.575	$GPGGA,221049,2438.6772,N,08044.2807,W,1,8,1.8,14,M,,M,,*54
06/16/2015	22:10:49.655	$GPGGA,221050,2438.6786,N,08044.2811,W,1,8,1.8,14,M,,M,,*50
06/16/2015	22:10:50.547	$GPGGA,221051,2438.6801,N,08044.2814,W,1,8,1.8,14,M,,M,,*54
06/16/2015	22:10:51.624	$GPGGA,221052,2438.6815,N,08044.2818,W,1,8,1.8,14,M,,M,,*5E
06/16/2015	22:10:52.594	$GPGGA,221053,2438.6830,N,08044.2822,W,1,8,1.8,14,M,,M,,*51
06/16/2015	22:10:53.664	$GPGGA,221054,2438.6844,N,08044.2826,W,1,8,1.8,14,M,,M,,*51
06/16/2015	22:10:54.550	$GPGGA,221055,2438.6858,N,08044.2830,W,1,8,1.8,14,M,,M,,*5A
06/16/2015	22:10:55.548	$GPGGA,221056,2438.6873,N,08044.2833,W,1,8,1.8,13,M,,M,,*54
06/16/2015	22:10:56.564	$GPGGA,221057,2438.6887,N,08044.2839,W,1,8,1.8,13,M,,M,,*54
06/16/2015	22:10:57.649	$GPGGA,221058,2438.6901,N,08044.2843,W,1,8,1.8,13,M,,M,,*59
06/16/2015	22:10:58.564	$GPGGA,221059,2438.6916,N,08044.2847,W,1,8,1.8,13,M,,M,,*5A
06/16/2015	22:10:59.665	$GPGGA,221100,2438.6931,N,08044.2850,W,1,8,1.8,13,M,,M,,*54
06/16/2015	22:11:00.560	$GPGGA,221101,2438.6945,N,08044.2854,W,1,8,1.8,13,M,,M,,*52
06/16/2015	22:11:01.525	$GPGGA,221102,2438.6959,N,08044.2858,W,1,8,1.8,13,M,,M,,*50
06/16/2015	22:11:02.615	$GPGGA,221103,2438.6974,N,08044.2861,W,1,8,1.8,13,M,,M,,*54
06/16/2015	22:11:03.655	$GPGGA,221104,2438.6988,N,08044.2865,W,1,8,1.8,13,M,,M,,*54
06/16/2015	22:11:04.575	$GPGGA,221105,2438.7002,N,08044.2869,W,1,8,1.8,13,M,,M,,*53
06/16/2015	22:11:05.585	$GPGGA,221106,2438.7016,N,08044.2872,W,1,8,1.8,13,M,,M,,*5F
06/16/2015	22:11:06.625	$GPGGA,221107,2438.7031,N,08044.2876,W,1,8,1.8,13,M,,M,,*5F
06/16/2015	22:11:07.605	$GPGGA,221108,2438.7045,N,08044.2880,W,1,8,1.8,13,M,,M,,*5A
06/16/2015	22:11:08.504	$GPGGA,221109,2438.7060,N,08044.2884,W,1,8,1.8,13,M,,M,,*58
06/16/2015	22:11:09.504	$GPGGA,221110,2438.7074,N,08044.2888,W,1,8,1.8,13,M,,M,,*59
06/16/2015	22:11:10.549	$GPGGA,221111,2438.7087,N,08044.2891,W,1,8,1.8,13,M,,M,,*5C
06/16/2015	22:11:11.604	$GPGGA,221112,2438.7101,N,08044.2894,W,1,8,1.8,13,M,,M,,*55
06/16/2015	22:11:12.546	$GPGGA,221113,2438.7117,N,08044.2898,W,1,8,1.8,13,M,,M,,*5F
06/16/2015	22:11:13.594	$GPGGA,221114,2438.7130,N,08044.2905,W,1,8,1.8,13,M,,M,,*58
06/16/2015	22:11:14.551	$GPGGA,221115,2438.7146,N,08044.2908,W,1,8,1.8,13,M,,M,,*55
06/16/2015	22:11:15.584	$GPGGA,221116,2438.7159,N,08044.2909,W,1,8,1.8,13,M,,M,,*59
06/16/2015	22:11:16.486	$GPGGA,221117,2438.7173,N,08044.2915,W,1,8,1.8,13,M,,M,,*5D
06/16/2015	22:11:17.625	$GPGGA,221118,2438.7188,N,08044.2919,W,1,8,1.8,13,M,,M,,*5A
06/16/2015	22:11:18.605	$GPGGA,221119,2438.7202,N,08044.2921,W,1,8,1.8,13,M,,M,,*51
06/16/2015	22:11:19.651	$GPGGA,221120,2438.7217,N,08044.2923,W,1,8,1.8,13,M,,M,,*5D
06/16/2015	22:11:20.595	$GPGGA,221121,2438.7231,N,08044.2930,W,1,8,1.8,13,M,,M,,*5A
06/16/2015	22:11:21.585	$GPGGA,221122,2438.7245,N,08044.2934,W,1,8,1.8,13,M,,M,,*5E
06/16/2015	22:11:22.585	$GPGGA,221123,2438.7262,N,08044.2937,W,1,8,1.8,13,M,,M,,*59
06/16/2015	22:11:24.105	$GPGGA,221124,2438.7276,N,08044.2939,W,1,8,1.8,13,M,,M,,*55
06/16/2015	22:11:24.565	$GPGGA,221125,2438.7289,N,08044.2945,W,1,8,1.8,13,M,,M,,*5F
06/16/2015	22:11:25.565	$GPGGA,221126,2438.7303,N,08044.2948,W,1,8,1.8,13,M,,M,,*52
06/16/2015	22:11:26.574	$GPGGA,221127,2438.7303,N,08044.2948,W,1,8,1.8,13,M,,M,,*53
06/16/2015	22:11:27.614	$GPGGA,221128,2438.7332,N,08044.2955,W,1,8,1.8,13,M,,M,,*52
06/16/2015	22:11:28.564	$GPGGA,221129,2438.7346,N,08044.2959,W,1,8,1.8,13,M,,M,,*5C
06/16/2015	22:11:29.594	$GPGGA,221130,2438.7361,N,08044.2962,W,1,8,1.8,13,M,,M,,*59
06/16/2015	22:11:30.564	$GPGGA,221131,2438.7375,N,08044.2966,W,1,8,1.8,13,M,,M,,*59
06/16/2015	22:11:31.594	$GPGGA,221132,2438.7388,N,08044.2970,W,1,8,1.9,13,M,,M,,*5E
06/16/2015	22:11:32.564	$GPGGA,221133,2438.7403,N,08044.2974,W,1,8,1.8,13,M,,M,,*5E
06/16/2015	22:11:33.594	$GPGGA,221134,2438.7418,N,08044.2977,W,1,8,1.8,13,M,,M,,*50
06/16/2015	22:11:34.565	$GPGGA,221135,2438.7432,N,08044.2982,W,1,8,1.8,13,M,,M,,*53
06/16/2015	22:11:35.595	$GPGGA,221136,2438.7447,N,08044.2986,W,1,8,1.8,13,M,,M,,*56
06/16/2015	22:11:36.555	$GPGGA,221137,2438.7461,N,08044.2991,W,1,8,1.8,13,M,,M,,*55
06/16/2015	22:11:37.585	$GPGGA,221138,2438.7475,N,08044.2995,W,1,8,1.8,13,M,,M,,*5B
06/16/2015	22:11:38.540	$GPGGA,221139,2438.7488,N,08044.2999,W,1,8,1.8,13,M,,M,,*54
06/16/2015	22:11:39.585	$GPGGA,221140,2438.7502,N,08044.3003,W,1,8,1.8,13,M,,M,,*52
06/16/2015	22:11:40.545	$GPGGA,221141,2438.7518,N,08044.3007,W,1,8,1.8,13,M,,M,,*5C
06/16/2015	22:11:41.585	$GPGGA,221142,2438.7518,N,08044.3007,W,1,8,1.8,13,M,,M,,*5F
06/16/2015	22:11:42.565	$GPGGA,221143,2438.7547,N,08044.3016,W,1,8,1.8,13,M,,M,,*54
06/16/2015	22:11:43.604	$GPGGA,221144,2438.7560,N,08044.3020,W,1,8,1.8,13,M,,M,,*53
06/16/2015	22:11:44.535	$GPGGA,221145,2438.7574,N,08044.3022,W,1,8,1.8,13,M,,M,,*55
06/16/2015	22:11:45.564	$GPGGA,221146,2438.7574,N,08044.3022,W,1,8,1.8,13,M,,M,,*56
06/16/2015	22:11:46.540	$GPGGA,221147,2438.7605,N,08044.3032,W,1,8,1.8,13,M,,M,,*53
06/16/2015	22:11:47.553	$GPGGA,221148,2438.7605,N,08044.3032,W,1,8,1.8,13,M,,M,,*5C
06/16/2015	22:11:48.540	$GPGGA,221149,2438.7634,N,08044.3039,W,1,8,1.8,13,M,,M,,*54
