Software Version Number: 1	Data File Format Number: 1	Build Version Number: 1	Error Count Since VI Started: 2	Manufacturer: Raytheon	 Model Number: RayMarine 120	 S/N: 	 Cal Date: 	 Wind Direction Offset: 0.00	 Slope (M)1: 0.00	 Offset (B)1: 0.00	 Slope (M)2: 0.00	 Offset (B)2: 0.00	 Slope (M)3: 0.00	 Offset (B)3: 0.00	 Slope (M)4: 0.00	 Offset (B)4: 0.00	 Slope (M)5: 0.00	 Offset (B)5: 0.00	 Slope (M)6: 0.00	 Offset (B)6: 0.00
Computer Date	Computer Time	GGA String
06/20/2015	02:00:00.588	$GPGGA,020001,2510.8147,N,07940.0477,W,1,11,1.4,15,M,,M,,*60
06/20/2015	02:00:01.618	$GPGGA,020002,2510.8138,N,07940.0495,W,1,11,1.4,15,M,,M,,*67
06/20/2015	02:00:02.578	$GPGGA,020003,2510.8129,N,07940.0514,W,1,11,1.4,15,M,,M,,*6E
06/20/2015	02:00:03.613	$GPGGA,020004,2510.8120,N,07940.0532,W,1,11,1.4,15,M,,M,,*64
06/20/2015	02:00:04.588	$GPGGA,020005,2510.8111,N,07940.0550,W,1,11,1.4,15,M,,M,,*63
06/20/2015	02:00:05.578	$GPGGA,020006,2510.8102,N,07940.0571,W,1,11,1.4,15,M,,M,,*61
06/20/2015	02:00:06.578	$GPGGA,020007,2510.8093,N,07940.0589,W,1,11,1.4,15,M,,M,,*6E
06/20/2015	02:00:07.579	$GPGGA,020008,2510.8084,N,07940.0610,W,1,11,1.4,15,M,,M,,*64
06/20/2015	02:00:09.558	$GPGGA,020010,2510.8066,N,07940.0647,W,1,11,1.4,15,M,,M,,*63
06/20/2015	02:00:10.558	$GPGGA,020011,2510.8058,N,07940.0666,W,1,11,1.4,15,M,,M,,*6C
06/20/2015	02:00:11.602	$GPGGA,020012,2510.8051,N,07940.0686,W,1,10,1.7,15,M,,M,,*6A
06/20/2015	02:00:12.559	$GPGGA,020013,2510.8041,N,07940.0705,W,1,10,1.4,15,M,,M,,*63
06/20/2015	02:00:13.578	$GPGGA,020014,2510.8033,N,07940.0724,W,1,11,1.4,15,M,,M,,*63
06/20/2015	02:00:14.558	$GPGGA,020015,2510.8023,N,07940.0744,W,1,11,1.4,15,M,,M,,*65
06/20/2015	02:00:15.558	$GPGGA,020016,2510.8015,N,07940.0762,W,1,11,1.4,15,M,,M,,*67
06/20/2015	02:00:16.548	$GPGGA,020017,2510.8005,N,07940.0780,W,1,11,1.6,15,M,,M,,*69
06/20/2015	02:00:17.588	$GPGGA,020018,2510.7998,N,07940.0800,W,1,11,1.4,15,M,,M,,*61
06/20/2015	02:00:18.558	$GPGGA,020019,2510.7990,N,07940.0820,W,1,11,1.4,15,M,,M,,*6A
06/20/2015	02:00:19.588	$GPGGA,020020,2510.7979,N,07940.0838,W,1,11,1.4,15,M,,M,,*6E
06/20/2015	02:00:20.558	$GPGGA,020021,2510.7971,N,07940.0858,W,1,11,1.4,15,M,,M,,*61
06/20/2015	02:00:21.578	$GPGGA,020022,2510.7964,N,07940.0879,W,1,11,1.4,15,M,,M,,*65
06/20/2015	02:00:22.538	$GPGGA,020023,2510.7954,N,07940.0900,W,1,11,1.5,15,M,,M,,*69
06/20/2015	02:00:23.668	$GPGGA,020024,2510.7945,N,07940.0918,W,1,11,1.4,15,M,,M,,*66
06/20/2015	02:00:24.658	$GPGGA,020025,2510.7939,N,07940.0940,W,1,11,1.4,15,M,,M,,*61
06/20/2015	02:00:25.638	$GPGGA,020026,2510.7930,N,07940.0961,W,1,11,1.4,15,M,,M,,*68
06/20/2015	02:00:26.548	$GPGGA,020027,2510.7922,N,07940.0979,W,1,11,1.4,15,M,,M,,*63
06/20/2015	02:00:27.528	$GPGGA,020028,2510.7914,N,07940.0999,W,1,11,1.4,15,M,,M,,*67
06/20/2015	02:00:28.519	$GPGGA,020029,2510.7906,N,07940.1020,W,1,11,1.4,15,M,,M,,*6F
06/20/2015	02:00:29.629	$GPGGA,020030,2510.7898,N,07940.1040,W,1,11,1.4,15,M,,M,,*67
06/20/2015	02:00:30.528	$GPGGA,020031,2510.7892,N,07940.1059,W,1,11,1.4,15,M,,M,,*64
06/20/2015	02:00:31.638	$GPGGA,020032,2510.7883,N,07940.1080,W,1,11,1.4,15,M,,M,,*63
06/20/2015	02:00:32.538	$GPGGA,020033,2510.7874,N,07940.1099,W,1,11,1.4,15,M,,M,,*62
06/20/2015	02:00:33.618	$GPGGA,020034,2510.7867,N,07940.1120,W,1,11,1.4,15,M,,M,,*64
06/20/2015	02:00:34.519	$GPGGA,020035,2510.7859,N,07940.1138,W,1,11,1.4,15,M,,M,,*61
06/20/2015	02:00:35.628	$GPGGA,020036,2510.7850,N,07940.1158,W,1,10,1.6,15,M,,M,,*6E
06/20/2015	02:00:36.618	$GPGGA,020037,2510.7842,N,07940.1178,W,1,10,1.4,15,M,,M,,*6C
06/20/2015	02:00:37.638	$GPGGA,020038,2510.7834,N,07940.1199,W,1,11,1.4,15,M,,M,,*6C
06/20/2015	02:00:38.518	$GPGGA,020039,2510.7825,N,07940.1218,W,1,11,1.6,15,M,,M,,*65
06/20/2015	02:00:39.628	$GPGGA,020040,2510.7816,N,07940.1239,W,1,11,1.4,15,M,,M,,*6A
06/20/2015	02:00:40.602	$GPGGA,020041,2510.7807,N,07940.1258,W,1,11,1.4,16,M,,M,,*6F
06/20/2015	02:00:41.598	$GPGGA,020042,2510.7799,N,07940.1279,W,1,11,1.4,16,M,,M,,*67
06/20/2015	02:00:43.089	$GPGGA,020043,2510.7789,N,07940.1297,W,1,11,1.4,16,M,,M,,*67
06/20/2015	02:00:43.598	$GPGGA,020044,2510.7781,N,07940.1316,W,1,11,1.4,16,M,,M,,*60
06/20/2015	02:00:44.588	$GPGGA,020045,2510.7774,N,07940.1337,W,1,11,1.6,16,M,,M,,*6A
06/20/2015	02:00:45.588	$GPGGA,020046,2510.7766,N,07940.1355,W,1,10,1.6,16,M,,M,,*6F
06/20/2015	02:00:46.603	$GPGGA,020047,2510.7756,N,07940.1376,W,1,10,1.6,16,M,,M,,*6C
06/20/2015	02:00:47.619	$GPGGA,020048,2510.7748,N,07940.1395,W,1,11,1.4,16,M,,M,,*62
06/20/2015	02:00:48.578	$GPGGA,020049,2510.7740,N,07940.1414,W,1,11,1.6,16,M,,M,,*67
06/20/2015	02:00:49.611	$GPGGA,020050,2510.7733,N,07940.1434,W,1,10,1.6,16,M,,M,,*68
06/20/2015	02:00:51.038	$GPGGA,020051,2510.7723,N,07940.1454,W,1,10,2.1,16,M,,M,,*6A
06/20/2015	02:00:51.619	$GPGGA,020052,2510.7713,N,07940.1474,W,1,11,1.4,16,M,,M,,*6F
06/20/2015	02:00:52.588	$GPGGA,020053,2510.7704,N,07940.1492,W,1,11,1.4,16,M,,M,,*60
06/20/2015	02:00:53.578	$GPGGA,020054,2510.7695,N,07940.1511,W,1,11,1.4,16,M,,M,,*64
06/20/2015	02:00:54.578	$GPGGA,020055,2510.7686,N,07940.1530,W,1,11,1.4,16,M,,M,,*64
06/20/2015	02:00:55.598	$GPGGA,020056,2510.7676,N,07940.1550,W,1,11,1.4,16,M,,M,,*6E
06/20/2015	02:00:56.579	$GPGGA,020057,2510.7666,N,07940.1568,W,1,11,1.4,16,M,,M,,*65
06/20/2015	02:00:57.568	$GPGGA,020058,2510.7657,N,07940.1586,W,1,11,1.4,16,M,,M,,*68
06/20/2015	02:00:58.568	$GPGGA,020059,2510.7648,N,07940.1605,W,1,11,1.4,16,M,,M,,*6F
06/20/2015	02:00:59.616	$GPGGA,020100,2510.7639,N,07940.1626,W,1,11,1.4,16,M,,M,,*65
06/20/2015	02:01:00.568	$GPGGA,020101,2510.7632,N,07940.1644,W,1,11,1.6,16,M,,M,,*69
06/20/2015	02:01:02.010	$GPGGA,020102,2510.7623,N,07940.1663,W,1,10,1.6,17,M,,M,,*6F
06/20/2015	02:01:02.558	$GPGGA,020103,2510.7614,N,07940.1685,W,1,10,1.6,17,M,,M,,*62
06/20/2015	02:01:03.569	$GPGGA,020104,2510.7603,N,07940.1705,W,1,11,1.4,17,M,,M,,*69
06/20/2015	02:01:04.569	$GPGGA,020105,2510.7594,N,07940.1724,W,1,11,1.4,17,M,,M,,*66
06/20/2015	02:01:05.588	$GPGGA,020106,2510.7586,N,07940.1745,W,1,11,1.4,17,M,,M,,*61
06/20/2015	02:01:06.548	$GPGGA,020107,2510.7578,N,07940.1766,W,1,11,1.4,17,M,,M,,*60
06/20/2015	02:01:07.578	$GPGGA,020108,2510.7569,N,07940.1785,W,1,11,1.4,17,M,,M,,*62
06/20/2015	02:01:08.668	$GPGGA,020109,2510.7560,N,07940.1806,W,1,11,1.4,17,M,,M,,*6E
06/20/2015	02:01:09.658	$GPGGA,020110,2510.7553,N,07940.1825,W,1,11,1.4,17,M,,M,,*67
06/20/2015	02:01:10.538	$GPGGA,020111,2510.7545,N,07940.1846,W,1,11,1.6,17,M,,M,,*66
06/20/2015	02:01:11.648	$GPGGA,020112,2510.7535,N,07940.1864,W,1,11,1.4,17,M,,M,,*60
06/20/2015	02:01:12.538	$GPGGA,020113,2510.7528,N,07940.1884,W,1,11,1.4,17,M,,M,,*63
06/20/2015	02:01:13.548	$GPGGA,020114,2510.7521,N,07940.1904,W,1,11,1.4,17,M,,M,,*64
06/20/2015	02:01:14.528	$GPGGA,020115,2510.7511,N,07940.1925,W,1,11,1.6,17,M,,M,,*67
06/20/2015	02:01:15.578	$GPGGA,020116,2510.7503,N,07940.1944,W,1,11,1.4,17,M,,M,,*62
06/20/2015	02:01:16.639	$GPGGA,020117,2510.7495,N,07940.1962,W,1,11,1.4,17,M,,M,,*69
06/20/2015	02:01:17.648	$GPGGA,020118,2510.7486,N,07940.1983,W,1,11,1.4,17,M,,M,,*6B
06/20/2015	02:01:18.628	$GPGGA,020119,2510.7477,N,07940.2002,W,1,11,1.4,17,M,,M,,*67
06/20/2015	02:01:19.548	$GPGGA,020120,2510.7468,N,07940.2023,W,1,11,1.4,17,M,,M,,*60
06/20/2015	02:01:20.518	$GPGGA,020121,2510.7460,N,07940.2043,W,1,11,1.4,18,M,,M,,*60
06/20/2015	02:01:21.619	$GPGGA,020122,2510.7451,N,07940.2063,W,1,11,1.4,18,M,,M,,*63
06/20/2015	02:01:22.619	$GPGGA,020123,2510.7442,N,07940.2084,W,1,11,1.4,18,M,,M,,*69
06/20/2015	02:01:23.648	$GPGGA,020124,2510.7434,N,07940.2103,W,1,11,1.4,18,M,,M,,*61
06/20/2015	02:01:24.618	$GPGGA,020125,2510.7426,N,07940.2124,W,1,11,1.4,18,M,,M,,*66
06/20/2015	02:01:25.638	$GPGGA,020126,2510.7417,N,07940.2144,W,1,11,1.4,18,M,,M,,*61
06/20/2015	02:01:26.513	$GPGGA,020127,2510.7408,N,07940.2162,W,1,11,1.4,18,M,,M,,*6A
06/20/2015	02:01:27.648	$GPGGA,020128,2510.7401,N,07940.2182,W,1,10,1.6,18,M,,M,,*61
06/20/2015	02:01:28.606	$GPGGA,020129,2510.7393,N,07940.2201,W,1,10,1.4,18,M,,M,,*66
06/20/2015	02:01:29.508	$GPGGA,020130,2510.7384,N,07940.2220,W,1,11,1.4,18,M,,M,,*6A
06/20/2015	02:01:30.588	$GPGGA,020131,2510.7375,N,07940.2240,W,1,11,1.4,18,M,,M,,*63
06/20/2015	02:01:31.628	$GPGGA,020132,2510.7367,N,07940.2258,W,1,11,1.4,18,M,,M,,*6A
06/20/2015	02:01:32.588	$GPGGA,020133,2510.7357,N,07940.2279,W,1,11,1.4,18,M,,M,,*6B
06/20/2015	02:01:33.603	$GPGGA,020134,2510.7348,N,07940.2298,W,1,11,1.4,18,M,,M,,*6D
06/20/2015	02:01:34.588	$GPGGA,020135,2510.7339,N,07940.2317,W,1,11,1.4,18,M,,M,,*6C
06/20/2015	02:01:35.618	$GPGGA,020136,2510.7329,N,07940.2337,W,1,11,1.4,18,M,,M,,*6C
06/20/2015	02:01:36.588	$GPGGA,020137,2510.7321,N,07940.2356,W,1,11,1.4,18,M,,M,,*62
06/20/2015	02:01:37.578	$GPGGA,020138,2510.7311,N,07940.2375,W,1,11,1.4,18,M,,M,,*6F
06/20/2015	02:01:38.589	$GPGGA,020139,2510.7303,N,07940.2395,W,1,11,1.4,18,M,,M,,*63
06/20/2015	02:01:39.629	$GPGGA,020140,2510.7293,N,07940.2414,W,1,11,1.4,18,M,,M,,*6B
06/20/2015	02:01:40.578	$GPGGA,020141,2510.7285,N,07940.2433,W,1,11,1.4,18,M,,M,,*68
06/20/2015	02:01:41.588	$GPGGA,020142,2510.7276,N,07940.2453,W,1,10,1.6,18,M,,M,,*62
06/20/2015	02:01:42.578	$GPGGA,020143,2510.7268,N,07940.2472,W,1,10,1.6,18,M,,M,,*6F
06/20/2015	02:01:43.617	$GPGGA,020144,2510.7260,N,07940.2493,W,1,10,1.6,18,M,,M,,*6F
06/20/2015	02:01:44.568	$GPGGA,020145,2510.7249,N,07940.2511,W,1,10,1.4,17,M,,M,,*63
06/20/2015	02:01:45.558	$GPGGA,020146,2510.7242,N,07940.2532,W,1,11,1.4,17,M,,M,,*6B
06/20/2015	02:01:46.568	$GPGGA,020147,2510.7233,N,07940.2551,W,1,11,1.6,17,M,,M,,*6B
06/20/2015	02:01:47.568	$GPGGA,020148,2510.7225,N,07940.2569,W,1,11,1.4,17,M,,M,,*6A
06/20/2015	02:01:48.559	$GPGGA,020149,2510.7217,N,07940.2590,W,1,11,1.4,17,M,,M,,*6C
06/20/2015	02:01:49.548	$GPGGA,020150,2510.7208,N,07940.2609,W,1,10,1.6,17,M,,M,,*6A
06/20/2015	02:01:50.568	$GPGGA,020151,2510.7199,N,07940.2630,W,1,10,1.4,17,M,,M,,*68
06/20/2015	02:01:51.588	$GPGGA,020152,2510.7191,N,07940.2649,W,1,11,1.4,17,M,,M,,*6C
06/20/2015	02:01:52.548	$GPGGA,020153,2510.7181,N,07940.2671,W,1,11,1.4,17,M,,M,,*67
06/20/2015	02:01:54.588	$GPGGA,020155,2510.7164,N,07940.2710,W,1,11,1.4,17,M,,M,,*6C
06/20/2015	02:01:55.548	$GPGGA,020156,2510.7157,N,07940.2731,W,1,10,1.6,17,M,,M,,*6F
06/20/2015	02:01:56.539	$GPGGA,020157,2510.7150,N,07940.2751,W,1,10,2.1,17,M,,M,,*6B
06/20/2015	02:01:57.559	$GPGGA,020158,2510.7141,N,07940.2772,W,1,10,1.6,17,M,,M,,*61
06/20/2015	02:01:58.548	$GPGGA,020159,2510.7133,N,07940.2793,W,1,10,1.4,17,M,,M,,*68
06/20/2015	02:01:59.711	$GPGGA,020200,2510.7124,N,07940.2814,W,1,11,1.4,17,M,,M,,*60
06/20/2015	02:02:00.548	$GPGGA,020201,2510.7115,N,07940.2834,W,1,11,1.4,17,M,,M,,*61
06/20/2015	02:02:01.658	$GPGGA,020202,2510.7108,N,07940.2854,W,1,11,1.4,17,M,,M,,*68
06/20/2015	02:02:02.548	$GPGGA,020203,2510.7098,N,07940.2873,W,1,11,1.4,17,M,,M,,*64
06/20/2015	02:02:03.548	$GPGGA,020204,2510.7090,N,07940.2892,W,1,10,1.6,17,M,,M,,*67
06/20/2015	02:02:04.518	$GPGGA,020205,2510.7081,N,07940.2912,W,1,10,1.6,17,M,,M,,*6F
06/20/2015	02:02:05.648	$GPGGA,020206,2510.7073,N,07940.2930,W,1,10,1.6,17,M,,M,,*61
06/20/2015	02:02:06.508	$GPGGA,020207,2510.7065,N,07940.2951,W,1,10,1.6,17,M,,M,,*60
06/20/2015	02:02:07.628	$GPGGA,020208,2510.7054,N,07940.2970,W,1,11,1.4,17,M,,M,,*6D
06/20/2015	02:02:08.599	$GPGGA,020209,2510.7047,N,07940.2989,W,1,11,1.4,17,M,,M,,*68
06/20/2015	02:02:09.508	$GPGGA,020210,2510.7037,N,07940.3009,W,1,11,1.4,17,M,,M,,*67
06/20/2015	02:02:10.608	$GPGGA,020211,2510.7029,N,07940.3028,W,1,11,1.4,16,M,,M,,*6B
06/20/2015	02:02:11.638	$GPGGA,020212,2510.7021,N,07940.3046,W,1,11,1.6,16,M,,M,,*6A
06/20/2015	02:02:12.593	$GPGGA,020213,2510.7012,N,07940.3067,W,1,11,1.4,16,M,,M,,*6A
06/20/2015	02:02:13.602	$GPGGA,020214,2510.7003,N,07940.3086,W,1,11,1.4,16,M,,M,,*62
06/20/2015	02:02:14.608	$GPGGA,020215,2510.6994,N,07940.3107,W,1,11,1.4,16,M,,M,,*6D
06/20/2015	02:02:15.617	$GPGGA,020216,2510.6985,N,07940.3126,W,1,11,1.4,16,M,,M,,*6D
06/20/2015	02:02:16.594	$GPGGA,020217,2510.6978,N,07940.3147,W,1,11,1.4,16,M,,M,,*69
06/20/2015	02:02:17.599	$GPGGA,020218,2510.6968,N,07940.3168,W,1,11,1.4,16,M,,M,,*6A
06/20/2015	02:02:18.590	$GPGGA,020219,2510.6960,N,07940.3187,W,1,11,1.4,16,M,,M,,*62
06/20/2015	02:02:19.917	$GPGGA,020220,2510.6953,N,07940.3208,W,1,11,1.4,16,M,,M,,*6C
06/20/2015	02:02:20.589	$GPGGA,020221,2510.6944,N,07940.3228,W,1,11,1.4,16,M,,M,,*69
06/20/2015	02:02:21.607	$GPGGA,020222,2510.6936,N,07940.3248,W,1,11,1.6,16,M,,M,,*6B
06/20/2015	02:02:22.577	$GPGGA,020223,2510.6928,N,07940.3270,W,1,11,1.7,16,M,,M,,*6F
06/20/2015	02:02:23.628	$GPGGA,020224,2510.6919,N,07940.3289,W,1,10,1.4,16,M,,M,,*6E
06/20/2015	02:02:24.578	$GPGGA,020225,2510.6911,N,07940.3310,W,1,10,1.4,16,M,,M,,*66
06/20/2015	02:02:25.568	$GPGGA,020226,2510.6903,N,07940.3331,W,1,11,1.4,16,M,,M,,*64
06/20/2015	02:02:26.568	$GPGGA,020227,2510.6896,N,07940.3352,W,1,11,1.4,17,M,,M,,*6C
06/20/2015	02:02:27.600	$GPGGA,020228,2510.6888,N,07940.3372,W,1,11,1.4,17,M,,M,,*6E
06/20/2015	02:02:28.608	$GPGGA,020229,2510.6880,N,07940.3393,W,1,11,1.4,17,M,,M,,*68
06/20/2015	02:02:29.598	$GPGGA,020230,2510.6872,N,07940.3414,W,1,11,1.4,17,M,,M,,*65
06/20/2015	02:02:30.559	$GPGGA,020231,2510.6866,N,07940.3436,W,1,11,1.4,17,M,,M,,*61
06/20/2015	02:02:31.592	$GPGGA,020232,2510.6857,N,07940.3457,W,1,11,1.4,17,M,,M,,*67
06/20/2015	02:02:32.558	$GPGGA,020233,2510.6850,N,07940.3477,W,1,11,1.4,17,M,,M,,*63
06/20/2015	02:02:33.598	$GPGGA,020234,2510.6842,N,07940.3498,W,1,11,1.4,17,M,,M,,*66
06/20/2015	02:02:34.557	$GPGGA,020235,2510.6834,N,07940.3519,W,1,11,1.4,17,M,,M,,*6E
06/20/2015	02:02:35.588	$GPGGA,020236,2510.6827,N,07940.3540,W,1,11,1.4,17,M,,M,,*63
06/20/2015	02:02:36.557	$GPGGA,020237,2510.6820,N,07940.3562,W,1,11,1.4,17,M,,M,,*65
06/20/2015	02:02:37.577	$GPGGA,020238,2510.6812,N,07940.3584,W,1,11,1.4,17,M,,M,,*63
06/20/2015	02:02:38.547	$GPGGA,020239,2510.6805,N,07940.3605,W,1,11,1.4,17,M,,M,,*6E
06/20/2015	02:02:39.627	$GPGGA,020240,2510.6797,N,07940.3625,W,1,11,1.4,17,M,,M,,*66
06/20/2015	02:02:40.558	$GPGGA,020241,2510.6790,N,07940.3645,W,1,11,1.4,17,M,,M,,*66
06/20/2015	02:02:41.648	$GPGGA,020242,2510.6783,N,07940.3665,W,1,11,1.4,17,M,,M,,*65
06/20/2015	02:02:42.548	$GPGGA,020243,2510.6776,N,07940.3685,W,1,11,1.4,17,M,,M,,*60
06/20/2015	02:02:43.578	$GPGGA,020244,2510.6768,N,07940.3707,W,1,11,1.4,17,M,,M,,*63
06/20/2015	02:02:44.558	$GPGGA,020245,2510.6760,N,07940.3726,W,1,11,1.4,17,M,,M,,*69
06/20/2015	02:02:45.528	$GPGGA,020246,2510.6752,N,07940.3747,W,1,11,1.5,17,M,,M,,*6D
06/20/2015	02:02:46.528	$GPGGA,020247,2510.6744,N,07940.3768,W,1,11,1.5,17,M,,M,,*66
06/20/2015	02:02:47.578	$GPGGA,020248,2510.6736,N,07940.3790,W,1,11,1.5,17,M,,M,,*6B
06/20/2015	02:02:48.538	$GPGGA,020249,2510.6729,N,07940.3811,W,1,11,1.5,17,M,,M,,*62
06/20/2015	02:02:49.548	$GPGGA,020250,2510.6722,N,07940.3831,W,1,11,1.5,17,M,,M,,*63
06/20/2015	02:02:50.537	$GPGGA,020251,2510.6714,N,07940.3852,W,1,11,1.5,17,M,,M,,*62
06/20/2015	02:02:52.126	$GPGGA,020252,2510.6707,N,07940.3873,W,1,11,1.5,17,M,,M,,*60
06/20/2015	02:02:52.537	$GPGGA,020253,2510.6700,N,07940.3892,W,1,11,1.5,17,M,,M,,*69
06/20/2015	02:02:53.599	$GPGGA,020254,2510.6693,N,07940.3913,W,1,11,1.5,17,M,,M,,*6D
06/20/2015	02:02:54.605	$GPGGA,020255,2510.6684,N,07940.3932,W,1,11,1.5,17,M,,M,,*69
06/20/2015	02:02:55.637	$GPGGA,020256,2510.6676,N,07940.3952,W,1,11,1.5,17,M,,M,,*61
06/20/2015	02:02:56.607	$GPGGA,020257,2510.6668,N,07940.3974,W,1,11,1.5,17,M,,M,,*6B
06/20/2015	02:02:57.637	$GPGGA,020258,2510.6661,N,07940.3995,W,1,11,1.5,17,M,,M,,*62
06/20/2015	02:02:58.517	$GPGGA,020259,2510.6653,N,07940.4015,W,1,11,1.5,17,M,,M,,*64
06/20/2015	02:02:59.618	$GPGGA,020300,2510.6644,N,07940.4035,W,1,11,1.5,17,M,,M,,*6D
06/20/2015	02:03:00.591	$GPGGA,020301,2510.6637,N,07940.4057,W,1,11,1.5,17,M,,M,,*6C
06/20/2015	02:03:01.609	$GPGGA,020302,2510.6629,N,07940.4079,W,1,11,1.5,17,M,,M,,*6C
06/20/2015	02:03:02.598	$GPGGA,020303,2510.6621,N,07940.4100,W,1,11,1.5,17,M,,M,,*6A
06/20/2015	02:03:03.599	$GPGGA,020304,2510.6613,N,07940.4119,W,1,11,1.5,17,M,,M,,*64
06/20/2015	02:03:04.602	$GPGGA,020305,2510.6604,N,07940.4140,W,1,11,1.5,17,M,,M,,*6F
06/20/2015	02:03:05.601	$GPGGA,020306,2510.6596,N,07940.4160,W,1,11,1.5,17,M,,M,,*66
06/20/2015	02:03:06.589	$GPGGA,020307,2510.6588,N,07940.4180,W,1,11,1.5,17,M,,M,,*66
06/20/2015	02:03:07.627	$GPGGA,020308,2510.6579,N,07940.4202,W,1,11,1.5,17,M,,M,,*6E
06/20/2015	02:03:08.577	$GPGGA,020309,2510.6571,N,07940.4221,W,1,11,1.5,16,M,,M,,*67
06/20/2015	02:03:09.605	$GPGGA,020310,2510.6563,N,07940.4241,W,1,11,1.5,16,M,,M,,*6A
06/20/2015	02:03:10.587	$GPGGA,020311,2510.6554,N,07940.4260,W,1,11,1.5,16,M,,M,,*6C
06/20/2015	02:03:11.617	$GPGGA,020312,2510.6548,N,07940.4281,W,1,11,1.5,16,M,,M,,*6D
06/20/2015	02:03:12.577	$GPGGA,020313,2510.6539,N,07940.4300,W,1,11,1.5,16,M,,M,,*62
06/20/2015	02:03:13.598	$GPGGA,020314,2510.6531,N,07940.4321,W,1,11,1.5,16,M,,M,,*6E
06/20/2015	02:03:14.577	$GPGGA,020315,2510.6524,N,07940.4342,W,1,11,1.5,16,M,,M,,*6E
06/20/2015	02:03:15.605	$GPGGA,020316,2510.6516,N,07940.4362,W,1,11,1.5,16,M,,M,,*6E
06/20/2015	02:03:16.568	$GPGGA,020317,2510.6507,N,07940.4382,W,1,11,1.5,16,M,,M,,*61
06/20/2015	02:03:17.558	$GPGGA,020318,2510.6501,N,07940.4404,W,1,11,1.5,16,M,,M,,*61
06/20/2015	02:03:18.558	$GPGGA,020319,2510.6492,N,07940.4425,W,1,11,1.5,16,M,,M,,*68
06/20/2015	02:03:19.928	$GPGGA,020320,2510.6484,N,07940.4445,W,1,11,1.5,16,M,,M,,*63
06/20/2015	02:03:20.558	$GPGGA,020321,2510.6476,N,07940.4465,W,1,11,1.5,16,M,,M,,*6D
06/20/2015	02:03:21.589	$GPGGA,020322,2510.6469,N,07940.4487,W,1,11,1.5,16,M,,M,,*6C
06/20/2015	02:03:22.548	$GPGGA,020323,2510.6461,N,07940.4508,W,1,11,1.5,16,M,,M,,*63
06/20/2015	02:03:23.568	$GPGGA,020324,2510.6454,N,07940.4527,W,1,11,1.5,16,M,,M,,*6F
06/20/2015	02:03:24.558	$GPGGA,020325,2510.6444,N,07940.4548,W,1,11,1.5,16,M,,M,,*66
06/20/2015	02:03:25.567	$GPGGA,020326,2510.6437,N,07940.4568,W,1,11,1.5,16,M,,M,,*63
06/20/2015	02:03:26.547	$GPGGA,020327,2510.6429,N,07940.4588,W,1,11,1.5,16,M,,M,,*63
06/20/2015	02:03:27.667	$GPGGA,020328,2510.6420,N,07940.4610,W,1,11,1.5,16,M,,M,,*67
06/20/2015	02:03:28.547	$GPGGA,020329,2510.6412,N,07940.4629,W,1,11,1.5,16,M,,M,,*6D
06/20/2015	02:03:29.558	$GPGGA,020330,2510.6404,N,07940.4650,W,1,11,1.5,16,M,,M,,*6C
06/20/2015	02:03:30.527	$GPGGA,020331,2510.6395,N,07940.4671,W,1,11,1.6,16,M,,M,,*62
06/20/2015	02:03:31.577	$GPGGA,020332,2510.6386,N,07940.4693,W,1,11,1.5,16,M,,M,,*6C
06/20/2015	02:03:32.537	$GPGGA,020333,2510.6379,N,07940.4712,W,1,11,1.5,16,M,,M,,*65
06/20/2015	02:03:33.648	$GPGGA,020334,2510.6371,N,07940.4733,W,1,11,1.5,16,M,,M,,*69
06/20/2015	02:03:34.528	$GPGGA,020335,2510.6362,N,07940.4754,W,1,11,1.5,16,M,,M,,*6B
06/20/2015	02:03:35.558	$GPGGA,020336,2510.6355,N,07940.4774,W,1,11,1.5,16,M,,M,,*6E
06/20/2015	02:03:36.518	$GPGGA,020337,2510.6348,N,07940.4795,W,1,11,1.5,16,M,,M,,*6C
06/20/2015	02:03:37.518	$GPGGA,020338,2510.6340,N,07940.4816,W,1,11,1.5,15,M,,M,,*6C
06/20/2015	02:03:38.618	$GPGGA,020339,2510.6333,N,07940.4835,W,1,11,1.5,15,M,,M,,*68
06/20/2015	02:03:39.618	$GPGGA,020340,2510.6326,N,07940.4856,W,1,11,1.5,15,M,,M,,*67
06/20/2015	02:03:40.608	$GPGGA,020341,2510.6319,N,07940.4877,W,1,11,1.5,15,M,,M,,*69
06/20/2015	02:03:41.638	$GPGGA,020342,2510.6311,N,07940.4899,W,1,11,1.5,15,M,,M,,*62
06/20/2015	02:03:42.599	$GPGGA,020343,2510.6306,N,07940.4920,W,1,11,1.5,15,M,,M,,*66
06/20/2015	02:03:43.657	$GPGGA,020344,2510.6299,N,07940.4940,W,1,11,1.5,15,M,,M,,*60
06/20/2015	02:03:44.607	$GPGGA,020345,2510.6290,N,07940.4961,W,1,11,1.5,15,M,,M,,*6B
06/20/2015	02:03:45.607	$GPGGA,020346,2510.6284,N,07940.4982,W,1,11,1.5,15,M,,M,,*60
06/20/2015	02:03:46.607	$GPGGA,020347,2510.6277,N,07940.5004,W,1,11,1.5,15,M,,M,,*6B
06/20/2015	02:03:47.637	$GPGGA,020348,2510.6270,N,07940.5023,W,1,11,1.5,15,M,,M,,*66
06/20/2015	02:03:48.602	$GPGGA,020349,2510.6263,N,07940.5043,W,1,11,1.5,15,M,,M,,*63
06/20/2015	02:03:49.627	$GPGGA,020350,2510.6255,N,07940.5065,W,1,11,1.5,15,M,,M,,*6A
06/20/2015	02:03:50.507	$GPGGA,020351,2510.6247,N,07940.5085,W,1,11,1.5,15,M,,M,,*66
06/20/2015	02:03:51.628	$GPGGA,020352,2510.6239,N,07940.5106,W,1,11,1.5,15,M,,M,,*66
06/20/2015	02:03:52.588	$GPGGA,020353,2510.6231,N,07940.5126,W,1,11,1.5,15,M,,M,,*6D
06/20/2015	02:03:53.598	$GPGGA,020354,2510.6224,N,07940.5148,W,1,11,1.5,15,M,,M,,*66
06/20/2015	02:03:54.578	$GPGGA,020355,2510.6216,N,07940.5166,W,1,11,1.6,15,M,,M,,*69
06/20/2015	02:03:55.618	$GPGGA,020356,2510.6208,N,07940.5186,W,1,11,1.5,15,M,,M,,*68
06/20/2015	02:03:56.568	$GPGGA,020357,2510.6200,N,07940.5207,W,1,11,1.5,15,M,,M,,*6B
06/20/2015	02:03:57.578	$GPGGA,020358,2510.6192,N,07940.5228,W,1,11,1.5,15,M,,M,,*61
06/20/2015	02:03:58.578	$GPGGA,020359,2510.6185,N,07940.5249,W,1,11,1.5,15,M,,M,,*61
06/20/2015	02:03:59.608	$GPGGA,020400,2510.6176,N,07940.5268,W,1,10,1.6,15,M,,M,,*67
06/20/2015	02:04:00.577	$GPGGA,020401,2510.6167,N,07940.5289,W,1,10,1.5,15,M,,M,,*6A
06/20/2015	02:04:01.577	$GPGGA,020402,2510.6159,N,07940.5309,W,1,11,1.5,15,M,,M,,*6C
06/20/2015	02:04:02.577	$GPGGA,020403,2510.6151,N,07940.5329,W,1,11,1.5,15,M,,M,,*67
06/20/2015	02:04:03.577	$GPGGA,020404,2510.6141,N,07940.5350,W,1,11,1.5,15,M,,M,,*6F
06/20/2015	02:04:04.568	$GPGGA,020405,2510.6133,N,07940.5370,W,1,11,1.5,15,M,,M,,*69
06/20/2015	02:04:05.547	$GPGGA,020406,2510.6124,N,07940.5391,W,1,11,1.5,15,M,,M,,*63
06/20/2015	02:04:06.558	$GPGGA,020407,2510.6115,N,07940.5410,W,1,11,1.5,15,M,,M,,*6E
06/20/2015	02:04:07.557	$GPGGA,020408,2510.6106,N,07940.5431,W,1,11,1.5,15,M,,M,,*60
06/20/2015	02:04:08.558	$GPGGA,020409,2510.6097,N,07940.5452,W,1,11,1.5,15,M,,M,,*6D
06/20/2015	02:04:09.548	$GPGGA,020410,2510.6089,N,07940.5471,W,1,11,1.5,15,M,,M,,*6B
06/20/2015	02:04:10.558	$GPGGA,020411,2510.6082,N,07940.5491,W,1,11,1.5,15,M,,M,,*6F
06/20/2015	02:04:11.598	$GPGGA,020412,2510.6072,N,07940.5510,W,1,11,1.5,15,M,,M,,*6B
06/20/2015	02:04:12.558	$GPGGA,020413,2510.6064,N,07940.5529,W,1,11,1.5,15,M,,M,,*67
06/20/2015	02:04:13.558	$GPGGA,020414,2510.6057,N,07940.5550,W,1,11,1.5,15,M,,M,,*6E
06/20/2015	02:04:14.538	$GPGGA,020415,2510.6048,N,07940.5569,W,1,11,1.5,15,M,,M,,*6B
06/20/2015	02:04:15.568	$GPGGA,020416,2510.6040,N,07940.5589,W,1,11,1.5,15,M,,M,,*6E
06/20/2015	02:04:16.658	$GPGGA,020417,2510.6031,N,07940.5610,W,1,11,1.5,15,M,,M,,*6A
06/20/2015	02:04:17.567	$GPGGA,020418,2510.6024,N,07940.5629,W,1,11,1.5,15,M,,M,,*6B
06/20/2015	02:04:18.547	$GPGGA,020419,2510.6017,N,07940.5650,W,1,11,1.5,15,M,,M,,*64
06/20/2015	02:04:19.557	$GPGGA,020420,2510.6008,N,07940.5669,W,1,11,1.5,15,M,,M,,*6A
06/20/2015	02:04:20.527	$GPGGA,020421,2510.6000,N,07940.5690,W,1,11,1.5,15,M,,M,,*65
06/20/2015	02:04:21.637	$GPGGA,020422,2510.5992,N,07940.5710,W,1,11,1.5,15,M,,M,,*6E
06/20/2015	02:04:22.637	$GPGGA,020423,2510.5985,N,07940.5730,W,1,11,1.5,15,M,,M,,*6B
06/20/2015	02:04:23.637	$GPGGA,020424,2510.5977,N,07940.5749,W,1,11,1.5,15,M,,M,,*6F
06/20/2015	02:04:24.617	$GPGGA,020425,2510.5970,N,07940.5770,W,1,11,1.5,15,M,,M,,*63
06/20/2015	02:04:25.527	$GPGGA,020426,2510.5963,N,07940.5789,W,1,11,1.5,15,M,,M,,*64
06/20/2015	02:04:26.628	$GPGGA,020427,2510.5954,N,07940.5809,W,1,11,1.5,15,M,,M,,*66
06/20/2015	02:04:27.518	$GPGGA,020428,2510.5946,N,07940.5829,W,1,11,1.5,15,M,,M,,*68
06/20/2015	02:04:28.508	$GPGGA,020429,2510.5938,N,07940.5850,W,1,11,1.5,15,M,,M,,*6E
06/20/2015	02:04:29.618	$GPGGA,020430,2510.5931,N,07940.5871,W,1,11,1.5,15,M,,M,,*6C
06/20/2015	02:04:30.518	$GPGGA,020431,2510.5923,N,07940.5892,W,1,11,1.5,15,M,,M,,*63
06/20/2015	02:04:31.628	$GPGGA,020432,2510.5914,N,07940.5911,W,1,11,1.5,15,M,,M,,*6E
06/20/2015	02:04:32.509	$GPGGA,020433,2510.5907,N,07940.5932,W,1,11,1.6,15,M,,M,,*6F
06/20/2015	02:04:33.608	$GPGGA,020434,2510.5900,N,07940.5952,W,1,11,1.5,14,M,,M,,*6B
06/20/2015	02:04:34.600	$GPGGA,020435,2510.5891,N,07940.5972,W,1,11,1.5,14,M,,M,,*61
06/20/2015	02:04:35.627	$GPGGA,020436,2510.5884,N,07940.5993,W,1,11,1.5,14,M,,M,,*69
06/20/2015	02:04:36.588	$GPGGA,020437,2510.5876,N,07940.6013,W,1,11,1.7,14,M,,M,,*65
06/20/2015	02:04:37.607	$GPGGA,020438,2510.5869,N,07940.6033,W,1,11,1.5,14,M,,M,,*64
06/20/2015	02:04:38.598	$GPGGA,020439,2510.5859,N,07940.6053,W,1,11,1.5,14,M,,M,,*60
06/20/2015	02:04:39.627	$GPGGA,020440,2510.5851,N,07940.6073,W,1,11,1.5,14,M,,M,,*64
06/20/2015	02:04:40.577	$GPGGA,020441,2510.5842,N,07940.6094,W,1,11,1.5,14,M,,M,,*6E
06/20/2015	02:04:41.602	$GPGGA,020442,2510.5834,N,07940.6113,W,1,11,1.5,14,M,,M,,*62
06/20/2015	02:04:42.577	$GPGGA,020443,2510.5826,N,07940.6134,W,1,11,1.6,14,M,,M,,*66
06/20/2015	02:04:43.608	$GPGGA,020444,2510.5815,N,07940.6156,W,1,10,1.6,14,M,,M,,*64
06/20/2015	02:04:44.603	$GPGGA,020445,2510.5807,N,07940.6175,W,1,10,1.5,14,M,,M,,*64
06/20/2015	02:04:45.880	$GPGGA,020446,2510.5799,N,07940.6196,W,1,11,1.5,14,M,,M,,*63
06/20/2015	02:04:46.578	$GPGGA,020447,2510.5791,N,07940.6215,W,1,11,1.5,14,M,,M,,*62
06/20/2015	02:04:47.607	$GPGGA,020448,2510.5782,N,07940.6236,W,1,11,1.5,14,M,,M,,*6E
06/20/2015	02:04:48.578	$GPGGA,020449,2510.5775,N,07940.6255,W,1,11,1.5,14,M,,M,,*62
06/20/2015	02:04:49.568	$GPGGA,020450,2510.5766,N,07940.6275,W,1,11,1.5,15,M,,M,,*6B
06/20/2015	02:04:50.578	$GPGGA,020451,2510.5758,N,07940.6294,W,1,11,1.5,15,M,,M,,*68
06/20/2015	02:04:51.608	$GPGGA,020452,2510.5750,N,07940.6315,W,1,11,1.5,15,M,,M,,*6B
06/20/2015	02:04:52.557	$GPGGA,020453,2510.5743,N,07940.6333,W,1,11,1.6,15,M,,M,,*6F
06/20/2015	02:04:53.567	$GPGGA,020454,2510.5735,N,07940.6352,W,1,11,1.5,15,M,,M,,*6D
06/20/2015	02:04:54.547	$GPGGA,020455,2510.5728,N,07940.6371,W,1,11,1.5,15,M,,M,,*61
06/20/2015	02:04:55.567	$GPGGA,020456,2510.5721,N,07940.6391,W,1,11,1.5,15,M,,M,,*65
06/20/2015	02:04:56.557	$GPGGA,020457,2510.5712,N,07940.6412,W,1,11,1.6,15,M,,M,,*6B
06/20/2015	02:04:57.557	$GPGGA,020458,2510.5705,N,07940.6432,W,1,11,1.5,15,M,,M,,*63
06/20/2015	02:04:58.557	$GPGGA,020459,2510.5697,N,07940.6452,W,1,11,1.5,15,M,,M,,*6E
06/20/2015	02:04:59.601	$GPGGA,020500,2510.5689,N,07940.6474,W,1,11,1.5,15,M,,M,,*68
06/20/2015	02:05:00.537	$GPGGA,020501,2510.5681,N,07940.6495,W,1,11,1.5,15,M,,M,,*6E
06/20/2015	02:05:01.690	$GPGGA,020502,2510.5674,N,07940.6514,W,1,11,1.5,15,M,,M,,*6F
06/20/2015	02:05:02.658	$GPGGA,020503,2510.5667,N,07940.6535,W,1,11,1.5,15,M,,M,,*6F
06/20/2015	02:05:03.558	$GPGGA,020504,2510.5658,N,07940.6555,W,1,11,1.5,15,M,,M,,*62
06/20/2015	02:05:04.548	$GPGGA,020505,2510.5652,N,07940.6576,W,1,11,1.6,15,M,,M,,*6B
06/20/2015	02:05:05.528	$GPGGA,020506,2510.5643,N,07940.6597,W,1,10,1.6,15,M,,M,,*66
06/20/2015	02:05:06.528	$GPGGA,020507,2510.5634,N,07940.6618,W,1,10,1.5,15,M,,M,,*60
06/20/2015	02:05:07.558	$GPGGA,020508,2510.5627,N,07940.6640,W,1,11,1.5,15,M,,M,,*61
06/20/2015	02:05:08.528	$GPGGA,020509,2510.5620,N,07940.6660,W,1,11,1.5,15,M,,M,,*65
06/20/2015	02:05:09.548	$GPGGA,020510,2510.5612,N,07940.6680,W,1,10,1.6,15,M,,M,,*60
06/20/2015	02:05:10.537	$GPGGA,020511,2510.5605,N,07940.6702,W,1,10,1.5,15,M,,M,,*6F
06/20/2015	02:05:11.547	$GPGGA,020512,2510.5598,N,07940.6723,W,1,11,1.5,15,M,,M,,*69
06/20/2015	02:05:12.527	$GPGGA,020513,2510.5589,N,07940.6742,W,1,11,1.5,15,M,,M,,*6F
06/20/2015	02:05:13.637	$GPGGA,020514,2510.5581,N,07940.6763,W,1,11,1.5,15,M,,M,,*63
06/20/2015	02:05:14.537	$GPGGA,020515,2510.5574,N,07940.6782,W,1,11,1.5,15,M,,M,,*67
06/20/2015	02:05:15.698	$GPGGA,020516,2510.5567,N,07940.6803,W,1,11,1.5,15,M,,M,,*60
06/20/2015	02:05:16.537	$GPGGA,020517,2510.5559,N,07940.6824,W,1,11,1.5,15,M,,M,,*69
06/20/2015	02:05:17.687	$GPGGA,020518,2510.5551,N,07940.6846,W,1,11,1.5,15,M,,M,,*6A
06/20/2015	02:05:18.678	$GPGGA,020519,2510.5544,N,07940.6865,W,1,11,1.5,15,M,,M,,*6E
06/20/2015	02:05:19.701	$GPGGA,020520,2510.5536,N,07940.6886,W,1,11,1.5,15,M,,M,,*6C
06/20/2015	02:05:20.602	$GPGGA,020521,2510.5529,N,07940.6908,W,1,11,1.5,15,M,,M,,*64
06/20/2015	02:05:21.638	$GPGGA,020522,2510.5522,N,07940.6929,W,1,11,1.5,15,M,,M,,*6F
06/20/2015	02:05:22.678	$GPGGA,020523,2510.5515,N,07940.6948,W,1,11,1.5,15,M,,M,,*6D
06/20/2015	02:05:23.658	$GPGGA,020524,2510.5508,N,07940.6969,W,1,11,1.5,15,M,,M,,*65
06/20/2015	02:05:25.648	$GPGGA,020526,2510.5494,N,07940.7010,W,1,10,1.5,15,M,,M,,*64
06/20/2015	02:05:26.658	$GPGGA,020527,2510.5486,N,07940.7030,W,1,10,1.5,15,M,,M,,*64
06/20/2015	02:05:27.677	$GPGGA,020528,2510.5479,N,07940.7050,W,1,11,1.5,15,M,,M,,*6C
06/20/2015	02:05:28.657	$GPGGA,020529,2510.5472,N,07940.7071,W,1,11,1.5,15,M,,M,,*65
06/20/2015	02:05:29.637	$GPGGA,020530,2510.5465,N,07940.7092,W,1,11,1.5,15,M,,M,,*66
06/20/2015	02:05:30.637	$GPGGA,020531,2510.5458,N,07940.7111,W,1,11,1.5,15,M,,M,,*63
06/20/2015	02:05:31.647	$GPGGA,020532,2510.5450,N,07940.7132,W,1,11,1.5,15,M,,M,,*69
06/20/2015	02:05:32.577	$GPGGA,020533,2510.5443,N,07940.7151,W,1,11,1.5,15,M,,M,,*6F
06/20/2015	02:05:33.647	$GPGGA,020534,2510.5435,N,07940.7171,W,1,11,1.5,15,M,,M,,*6B
06/20/2015	02:05:34.627	$GPGGA,020535,2510.5428,N,07940.7191,W,1,11,1.5,15,M,,M,,*68
06/20/2015	02:05:35.617	$GPGGA,020536,2510.5419,N,07940.7211,W,1,11,1.5,15,M,,M,,*62
06/20/2015	02:05:36.618	$GPGGA,020537,2510.5411,N,07940.7232,W,1,11,1.5,15,M,,M,,*6A
06/20/2015	02:05:37.618	$GPGGA,020538,2510.5403,N,07940.7251,W,1,11,1.5,15,M,,M,,*63
06/20/2015	02:05:38.618	$GPGGA,020539,2510.5394,N,07940.7270,W,1,11,1.5,15,M,,M,,*68
06/20/2015	02:05:39.568	$GPGGA,020540,2510.5385,N,07940.7290,W,1,11,1.5,15,M,,M,,*68
06/20/2015	02:05:40.558	$GPGGA,020541,2510.5378,N,07940.7312,W,1,11,1.5,15,M,,M,,*60
06/20/2015	02:05:41.592	$GPGGA,020542,2510.5369,N,07940.7330,W,1,11,1.5,15,M,,M,,*63
06/20/2015	02:05:42.618	$GPGGA,020543,2510.5360,N,07940.7350,W,1,11,1.5,15,M,,M,,*6D
06/20/2015	02:05:43.603	$GPGGA,020544,2510.5352,N,07940.7370,W,1,11,1.5,15,M,,M,,*69
06/20/2015	02:05:44.548	$GPGGA,020545,2510.5345,N,07940.7391,W,1,11,1.5,15,M,,M,,*61
06/20/2015	02:05:45.567	$GPGGA,020546,2510.5334,N,07940.7410,W,1,11,1.5,15,M,,M,,*6A
06/20/2015	02:05:46.605	$GPGGA,020547,2510.5327,N,07940.7431,W,1,11,1.5,15,M,,M,,*6A
06/20/2015	02:05:47.617	$GPGGA,020548,2510.5317,N,07940.7451,W,1,11,1.5,15,M,,M,,*60
06/20/2015	02:05:48.599	$GPGGA,020549,2510.5309,N,07940.7471,W,1,11,1.5,15,M,,M,,*6C
06/20/2015	02:05:49.567	$GPGGA,020550,2510.5302,N,07940.7490,W,1,11,1.6,15,M,,M,,*63
06/20/2015	02:05:50.537	$GPGGA,020551,2510.5291,N,07940.7511,W,1,11,1.6,15,M,,M,,*61
06/20/2015	02:05:51.657	$GPGGA,020552,2510.5281,N,07940.7530,W,1,11,1.5,15,M,,M,,*63
06/20/2015	02:05:52.590	$GPGGA,020553,2510.5273,N,07940.7551,W,1,11,1.5,15,M,,M,,*68
06/20/2015	02:05:53.528	$GPGGA,020554,2510.5266,N,07940.7572,W,1,11,1.5,15,M,,M,,*6A
06/20/2015	02:05:54.602	$GPGGA,020555,2510.5255,N,07940.7591,W,1,11,1.5,15,M,,M,,*66
06/20/2015	02:05:55.628	$GPGGA,020556,2510.5246,N,07940.7610,W,1,11,1.5,15,M,,M,,*6D
06/20/2015	02:05:56.594	$GPGGA,020557,2510.5238,N,07940.7630,W,1,11,1.5,15,M,,M,,*67
06/20/2015	02:05:57.538	$GPGGA,020558,2510.5229,N,07940.7650,W,1,11,1.5,15,M,,M,,*6E
06/20/2015	02:05:58.618	$GPGGA,020559,2510.5221,N,07940.7670,W,1,11,1.5,15,M,,M,,*65
06/20/2015	02:05:59.604	$GPGGA,020600,2510.5212,N,07940.7691,W,1,11,1.5,15,M,,M,,*65
06/20/2015	02:06:00.578	$GPGGA,020601,2510.5204,N,07940.7710,W,1,11,1.5,15,M,,M,,*6B
06/20/2015	02:06:01.508	$GPGGA,020602,2510.5197,N,07940.7731,W,1,11,1.5,15,M,,M,,*62
06/20/2015	02:06:02.593	$GPGGA,020603,2510.5190,N,07940.7750,W,1,11,1.5,15,M,,M,,*63
06/20/2015	02:06:03.637	$GPGGA,020604,2510.5180,N,07940.7771,W,1,11,1.5,15,M,,M,,*66
06/20/2015	02:06:04.577	$GPGGA,020605,2510.5172,N,07940.7790,W,1,11,1.5,15,M,,M,,*65
06/20/2015	02:06:05.617	$GPGGA,020606,2510.5165,N,07940.7811,W,1,11,1.5,15,M,,M,,*66
06/20/2015	02:06:06.607	$GPGGA,020607,2510.5158,N,07940.7832,W,1,11,1.5,15,M,,M,,*68
06/20/2015	02:06:07.607	$GPGGA,020608,2510.5150,N,07940.7852,W,1,11,1.5,15,M,,M,,*69
06/20/2015	02:06:08.607	$GPGGA,020609,2510.5141,N,07940.7872,W,1,11,1.5,15,M,,M,,*6A
06/20/2015	02:06:09.627	$GPGGA,020610,2510.5135,N,07940.7894,W,1,11,1.5,15,M,,M,,*69
06/20/2015	02:06:10.587	$GPGGA,020611,2510.5128,N,07940.7913,W,1,11,1.5,15,M,,M,,*6A
06/20/2015	02:06:11.678	$GPGGA,020612,2510.5121,N,07940.7934,W,1,11,1.5,15,M,,M,,*65
06/20/2015	02:06:12.598	$GPGGA,020613,2510.5114,N,07940.7953,W,1,11,1.5,15,M,,M,,*63
06/20/2015	02:06:13.608	$GPGGA,020614,2510.5107,N,07940.7974,W,1,11,1.5,15,M,,M,,*63
06/20/2015	02:06:14.579	$GPGGA,020615,2510.5099,N,07940.7995,W,1,11,1.5,15,M,,M,,*6B
06/20/2015	02:06:15.608	$GPGGA,020616,2510.5092,N,07940.8014,W,1,11,1.5,15,M,,M,,*6C
06/20/2015	02:06:16.578	$GPGGA,020617,2510.5092,N,07940.8014,W,1,11,1.5,15,M,,M,,*6D
06/20/2015	02:06:17.598	$GPGGA,020618,2510.5078,N,07940.8056,W,1,11,1.5,15,M,,M,,*60
06/20/2015	02:06:18.578	$GPGGA,020619,2510.5071,N,07940.8076,W,1,11,1.5,15,M,,M,,*6A
06/20/2015	02:06:20.157	$GPGGA,020620,2510.5065,N,07940.8097,W,1,11,1.5,15,M,,M,,*6A
06/20/2015	02:06:20.607	$GPGGA,020621,2510.5058,N,07940.8118,W,1,11,1.5,15,M,,M,,*63
06/20/2015	02:06:21.599	$GPGGA,020622,2510.5050,N,07940.8139,W,1,11,1.5,15,M,,M,,*6B
06/20/2015	02:06:22.587	$GPGGA,020623,2510.5045,N,07940.8161,W,1,11,1.5,15,M,,M,,*63
06/20/2015	02:06:23.617	$GPGGA,020624,2510.5042,N,07940.8183,W,1,11,1.5,15,M,,M,,*6F
06/20/2015	02:06:24.567	$GPGGA,020625,2510.5042,N,07940.8183,W,1,11,1.5,15,M,,M,,*6E
06/20/2015	02:06:25.577	$GPGGA,020626,2510.5027,N,07940.8226,W,1,11,1.5,15,M,,M,,*62
06/20/2015	02:06:26.594	$GPGGA,020627,2510.5021,N,07940.8246,W,1,11,1.5,15,M,,M,,*63
06/20/2015	02:06:27.567	$GPGGA,020628,2510.5015,N,07940.8267,W,1,11,1.5,15,M,,M,,*68
06/20/2015	02:06:28.588	$GPGGA,020629,2510.5009,N,07940.8288,W,1,11,1.5,15,M,,M,,*65
06/20/2015	02:06:29.568	$GPGGA,020630,2510.5000,N,07940.8309,W,1,11,1.5,15,M,,M,,*6C
06/20/2015	02:06:30.558	$GPGGA,020631,2510.5000,N,07940.8309,W,1,11,1.5,15,M,,M,,*6D
06/20/2015	02:06:31.568	$GPGGA,020632,2510.4987,N,07940.8350,W,1,11,1.5,15,M,,M,,*65
06/20/2015	02:06:32.578	$GPGGA,020633,2510.4987,N,07940.8350,W,1,11,1.5,15,M,,M,,*64
06/20/2015	02:06:33.578	$GPGGA,020634,2510.4973,N,07940.8390,W,1,11,1.5,15,M,,M,,*64
06/20/2015	02:06:34.568	$GPGGA,020635,2510.4973,N,07940.8390,W,1,11,1.5,15,M,,M,,*65
06/20/2015	02:06:35.568	$GPGGA,020636,2510.4958,N,07940.8432,W,1,11,1.5,15,M,,M,,*60
06/20/2015	02:06:36.608	$GPGGA,020637,2510.4950,N,07940.8451,W,1,11,1.5,15,M,,M,,*6C
06/20/2015	02:06:37.657	$GPGGA,020638,2510.4944,N,07940.8472,W,1,11,1.5,15,M,,M,,*67
06/20/2015	02:06:38.547	$GPGGA,020639,2510.4944,N,07940.8472,W,1,11,1.5,15,M,,M,,*66
06/20/2015	02:06:39.567	$GPGGA,020640,2510.4928,N,07940.8512,W,1,11,1.5,15,M,,M,,*65
06/20/2015	02:06:40.537	$GPGGA,020641,2510.4928,N,07940.8512,W,1,11,1.5,15,M,,M,,*64
06/20/2015	02:06:41.647	$GPGGA,020642,2510.4912,N,07940.8552,W,1,11,1.5,15,M,,M,,*6A
06/20/2015	02:06:42.537	$GPGGA,020643,2510.4912,N,07940.8552,W,1,11,1.5,15,M,,M,,*6B
06/20/2015	02:06:44.537	$GPGGA,020645,2510.4897,N,07940.8591,W,1,11,1.5,15,M,,M,,*6E
06/20/2015	02:06:45.517	$GPGGA,020646,2510.4880,N,07940.8631,W,1,11,1.5,15,M,,M,,*62
06/20/2015	02:06:46.608	$GPGGA,020647,2510.4872,N,07940.8650,W,1,11,1.5,15,M,,M,,*69
06/20/2015	02:06:47.628	$GPGGA,020648,2510.4863,N,07940.8671,W,1,11,1.5,15,M,,M,,*65
06/20/2015	02:06:48.618	$GPGGA,020649,2510.4854,N,07940.8692,W,1,11,1.5,15,M,,M,,*6D
06/20/2015	02:06:49.618	$GPGGA,020650,2510.4846,N,07940.8711,W,1,11,1.5,15,M,,M,,*6C
06/20/2015	02:06:50.538	$GPGGA,020651,2510.4846,N,07940.8711,W,1,11,1.5,15,M,,M,,*6D
06/20/2015	02:06:51.528	$GPGGA,020652,2510.4828,N,07940.8751,W,1,11,1.5,15,M,,M,,*62
06/20/2015	02:06:52.558	$GPGGA,020653,2510.4828,N,07940.8751,W,1,11,1.5,15,M,,M,,*63
06/20/2015	02:06:53.628	$GPGGA,020654,2510.4812,N,07940.8793,W,1,11,1.5,15,M,,M,,*63
06/20/2015	02:06:54.610	$GPGGA,020655,2510.4803,N,07940.8811,W,1,11,1.5,15,M,,M,,*67
06/20/2015	02:06:55.617	$GPGGA,020656,2510.4794,N,07940.8831,W,1,11,1.5,15,M,,M,,*67
06/20/2015	02:06:56.607	$GPGGA,020657,2510.4787,N,07940.8852,W,1,11,1.5,15,M,,M,,*61
06/20/2015	02:06:57.594	$GPGGA,020658,2510.4779,N,07940.8873,W,1,11,1.5,15,M,,M,,*6C
06/20/2015	02:06:58.608	$GPGGA,020659,2510.4771,N,07940.8892,W,1,11,1.5,15,M,,M,,*6A
06/20/2015	02:06:59.647	$GPGGA,020700,2510.4762,N,07940.8913,W,1,11,1.5,15,M,,M,,*6D
06/20/2015	02:07:00.588	$GPGGA,020701,2510.4755,N,07940.8932,W,1,11,1.5,15,M,,M,,*6B
06/20/2015	02:07:01.609	$GPGGA,020702,2510.4746,N,07940.8952,W,1,11,1.5,15,M,,M,,*6C
06/20/2015	02:07:02.592	$GPGGA,020703,2510.4738,N,07940.8971,W,1,11,1.5,14,M,,M,,*64
06/20/2015	02:07:03.610	$GPGGA,020704,2510.4731,N,07940.8992,W,1,11,1.5,14,M,,M,,*67
06/20/2015	02:07:04.880	$GPGGA,020705,2510.4722,N,07940.9011,W,1,11,1.5,14,M,,M,,*67
06/20/2015	02:07:05.606	$GPGGA,020706,2510.4714,N,07940.9032,W,1,11,1.5,14,M,,M,,*60
06/20/2015	02:07:06.568	$GPGGA,020707,2510.4706,N,07940.9050,W,1,11,1.5,14,M,,M,,*66
06/20/2015	02:07:07.618	$GPGGA,020708,2510.4699,N,07940.9071,W,1,11,1.5,14,M,,M,,*6D
06/20/2015	02:07:08.578	$GPGGA,020709,2510.4691,N,07940.9090,W,1,11,1.5,14,M,,M,,*6B
06/20/2015	02:07:09.603	$GPGGA,020710,2510.4684,N,07940.9111,W,1,11,1.5,14,M,,M,,*6F
06/20/2015	02:07:10.568	$GPGGA,020711,2510.4677,N,07940.9130,W,1,11,1.5,14,M,,M,,*61
06/20/2015	02:07:11.608	$GPGGA,020712,2510.4668,N,07940.9151,W,1,11,1.5,14,M,,M,,*6B
06/20/2015	02:07:12.567	$GPGGA,020713,2510.4660,N,07940.9170,W,1,11,1.5,14,M,,M,,*61
06/20/2015	02:07:13.590	$GPGGA,020714,2510.4652,N,07940.9191,W,1,11,1.5,14,M,,M,,*68
06/20/2015	02:07:14.588	$GPGGA,020715,2510.4645,N,07940.9212,W,1,11,1.5,14,M,,M,,*67
06/20/2015	02:07:15.568	$GPGGA,020716,2510.4637,N,07940.9231,W,1,11,1.5,14,M,,M,,*60
06/20/2015	02:07:16.557	$GPGGA,020717,2510.4628,N,07940.9252,W,1,11,1.5,14,M,,M,,*6A
06/20/2015	02:07:17.547	$GPGGA,020718,2510.4621,N,07940.9271,W,1,11,1.5,14,M,,M,,*6D
06/20/2015	02:07:18.567	$GPGGA,020719,2510.4613,N,07940.9292,W,1,11,1.5,14,M,,M,,*60
06/20/2015	02:07:19.608	$GPGGA,020720,2510.4606,N,07940.9311,W,1,11,1.5,14,M,,M,,*64
06/20/2015	02:07:20.567	$GPGGA,020721,2510.4598,N,07940.9332,W,1,11,1.5,14,M,,M,,*60
06/20/2015	02:07:21.538	$GPGGA,020722,2510.4590,N,07940.9353,W,1,11,1.5,14,M,,M,,*6C
06/20/2015	02:07:22.658	$GPGGA,020723,2510.4583,N,07940.9373,W,1,11,1.5,14,M,,M,,*6D
06/20/2015	02:07:23.568	$GPGGA,020724,2510.4579,N,07940.9394,W,1,11,1.5,14,M,,M,,*66
06/20/2015	02:07:24.558	$GPGGA,020725,2510.4572,N,07940.9415,W,1,11,1.5,14,M,,M,,*62
06/20/2015	02:07:25.558	$GPGGA,020726,2510.4563,N,07940.9436,W,1,11,1.5,14,M,,M,,*60
06/20/2015	02:07:26.538	$GPGGA,020727,2510.4555,N,07940.9456,W,1,11,1.5,14,M,,M,,*62
06/20/2015	02:07:27.668	$GPGGA,020728,2510.4550,N,07940.9478,W,1,10,1.5,14,M,,M,,*65
06/20/2015	02:07:28.548	$GPGGA,020729,2510.4544,N,07940.9498,W,1,10,1.3,14,M,,M,,*69
06/20/2015	02:07:29.658	$GPGGA,020730,2510.4538,N,07940.9519,W,1,11,1.3,14,M,,M,,*63
06/20/2015	02:07:30.547	$GPGGA,020731,2510.4531,N,07940.9539,W,1,11,1.3,14,M,,M,,*69
06/20/2015	02:07:31.667	$GPGGA,020732,2510.4525,N,07940.9560,W,1,11,1.3,14,M,,M,,*63
06/20/2015	02:07:32.617	$GPGGA,020733,2510.4518,N,07940.9581,W,1,11,1.3,14,M,,M,,*63
06/20/2015	02:07:33.647	$GPGGA,020734,2510.4510,N,07940.9602,W,1,11,1.3,14,M,,M,,*64
06/20/2015	02:07:34.627	$GPGGA,020735,2510.4502,N,07940.9621,W,1,11,1.3,14,M,,M,,*67
06/20/2015	02:07:35.657	$GPGGA,020736,2510.4494,N,07940.9642,W,1,11,1.3,14,M,,M,,*6F
06/20/2015	02:07:36.608	$GPGGA,020737,2510.4487,N,07940.9662,W,1,11,1.3,14,M,,M,,*6E
06/20/2015	02:07:37.637	$GPGGA,020738,2510.4479,N,07940.9683,W,1,11,1.3,15,M,,M,,*6E
06/20/2015	02:07:38.608	$GPGGA,020739,2510.4471,N,07940.9704,W,1,11,1.3,15,M,,M,,*69
06/20/2015	02:07:39.648	$GPGGA,020740,2510.4464,N,07940.9725,W,1,11,1.3,15,M,,M,,*60
06/20/2015	02:07:40.602	$GPGGA,020741,2510.4456,N,07940.9745,W,1,11,1.3,15,M,,M,,*66
06/20/2015	02:07:41.597	$GPGGA,020742,2510.4449,N,07940.9765,W,1,11,1.3,15,M,,M,,*69
06/20/2015	02:07:42.608	$GPGGA,020743,2510.4439,N,07940.9785,W,1,11,1.3,15,M,,M,,*61
06/20/2015	02:07:43.648	$GPGGA,020744,2510.4432,N,07940.9805,W,1,11,1.3,15,M,,M,,*6A
06/20/2015	02:07:44.593	$GPGGA,020745,2510.4424,N,07940.9826,W,1,11,1.3,15,M,,M,,*6D
06/20/2015	02:07:45.618	$GPGGA,020746,2510.4417,N,07940.9845,W,1,11,1.3,15,M,,M,,*6B
06/20/2015	02:07:46.602	$GPGGA,020747,2510.4409,N,07940.9863,W,1,11,1.5,15,M,,M,,*67
06/20/2015	02:07:47.627	$GPGGA,020748,2510.4402,N,07940.9884,W,1,11,1.5,15,M,,M,,*6A
06/20/2015	02:07:48.593	$GPGGA,020749,2510.4393,N,07940.9903,W,1,11,1.5,15,M,,M,,*6A
06/20/2015	02:07:49.577	$GPGGA,020750,2510.4385,N,07940.9922,W,1,12,1.3,15,M,,M,,*63
06/20/2015	02:07:50.593	$GPGGA,020751,2510.4377,N,07940.9942,W,1,12,1.3,15,M,,M,,*69
06/20/2015	02:07:51.617	$GPGGA,020752,2510.4370,N,07940.9961,W,1,12,1.3,15,M,,M,,*6C
06/20/2015	02:07:52.596	$GPGGA,020753,2510.4361,N,07940.9980,W,1,12,1.3,15,M,,M,,*62
06/20/2015	02:07:53.577	$GPGGA,020754,2510.4353,N,07941.0000,W,1,12,1.3,15,M,,M,,*6D
06/20/2015	02:07:54.577	$GPGGA,020755,2510.4345,N,07941.0019,W,1,12,1.3,15,M,,M,,*63
06/20/2015	02:07:55.617	$GPGGA,020756,2510.4337,N,07941.0040,W,1,12,1.3,15,M,,M,,*69
06/20/2015	02:07:56.592	$GPGGA,020757,2510.4330,N,07941.0058,W,1,12,1.3,16,M,,M,,*65
06/20/2015	02:07:57.568	$GPGGA,020758,2510.4321,N,07941.0079,W,1,11,1.5,16,M,,M,,*6C
06/20/2015	02:07:58.578	$GPGGA,020759,2510.4313,N,07941.0098,W,1,11,1.5,16,M,,M,,*63
06/20/2015	02:07:59.598	$GPGGA,020800,2510.4305,N,07941.0117,W,1,12,1.3,16,M,,M,,*64
06/20/2015	02:08:00.578	$GPGGA,020801,2510.4297,N,07941.0137,W,1,12,1.3,16,M,,M,,*6D
06/20/2015	02:08:01.593	$GPGGA,020802,2510.4290,N,07941.0157,W,1,12,1.3,16,M,,M,,*6F
06/20/2015	02:08:02.558	$GPGGA,020803,2510.4283,N,07941.0177,W,1,12,1.3,16,M,,M,,*6E
06/20/2015	02:08:03.591	$GPGGA,020804,2510.4273,N,07941.0196,W,1,12,1.3,16,M,,M,,*69
06/20/2015	02:08:04.568	$GPGGA,020805,2510.4265,N,07941.0215,W,1,12,1.3,16,M,,M,,*67
06/20/2015	02:08:05.590	$GPGGA,020806,2510.4258,N,07941.0236,W,1,12,1.3,16,M,,M,,*6B
06/20/2015	02:08:06.537	$GPGGA,020807,2510.4249,N,07941.0256,W,1,12,1.3,16,M,,M,,*6C
06/20/2015	02:08:08.017	$GPGGA,020808,2510.4240,N,07941.0275,W,1,12,1.3,16,M,,M,,*6B
06/20/2015	02:08:08.637	$GPGGA,020809,2510.4233,N,07941.0294,W,1,12,1.5,16,M,,M,,*67
06/20/2015	02:08:09.547	$GPGGA,020810,2510.4225,N,07941.0314,W,1,12,1.3,16,M,,M,,*67
06/20/2015	02:08:10.547	$GPGGA,020811,2510.4218,N,07941.0334,W,1,12,1.3,16,M,,M,,*6A
06/20/2015	02:08:11.657	$GPGGA,020812,2510.4209,N,07941.0354,W,1,11,1.5,16,M,,M,,*6A
06/20/2015	02:08:12.547	$GPGGA,020813,2510.4202,N,07941.0373,W,1,11,1.5,16,M,,M,,*65
06/20/2015	02:08:13.827	$GPGGA,020814,2510.4194,N,07941.0394,W,1,12,1.3,16,M,,M,,*62
06/20/2015	02:08:14.527	$GPGGA,020815,2510.4185,N,07941.0413,W,1,12,1.3,16,M,,M,,*6B
06/20/2015	02:08:15.537	$GPGGA,020816,2510.4178,N,07941.0434,W,1,12,1.3,16,M,,M,,*6F
06/20/2015	02:08:16.517	$GPGGA,020817,2510.4169,N,07941.0453,W,1,12,1.3,16,M,,M,,*6F
06/20/2015	02:08:17.507	$GPGGA,020818,2510.4161,N,07941.0474,W,1,12,1.3,16,M,,M,,*6D
06/20/2015	02:08:18.607	$GPGGA,020819,2510.4154,N,07941.0495,W,1,12,1.3,16,M,,M,,*65
06/20/2015	02:08:19.537	$GPGGA,020820,2510.4146,N,07941.0514,W,1,12,1.3,16,M,,M,,*64
06/20/2015	02:08:20.517	$GPGGA,020821,2510.4137,N,07941.0533,W,1,12,1.3,16,M,,M,,*66
06/20/2015	02:08:21.507	$GPGGA,020822,2510.4130,N,07941.0554,W,1,12,1.3,16,M,,M,,*63
06/20/2015	02:08:23.026	$GPGGA,020823,2510.4121,N,07941.0575,W,1,12,1.3,16,M,,M,,*61
06/20/2015	02:08:23.516	$GPGGA,020824,2510.4113,N,07941.0596,W,1,12,1.3,16,M,,M,,*6A
06/20/2015	02:08:24.507	$GPGGA,020825,2510.4104,N,07941.0616,W,1,12,1.3,16,M,,M,,*66
06/20/2015	02:08:25.597	$GPGGA,020826,2510.4097,N,07941.0637,W,1,12,1.3,16,M,,M,,*6D
06/20/2015	02:08:26.597	$GPGGA,020827,2510.4089,N,07941.0658,W,1,12,1.3,16,M,,M,,*6A
06/20/2015	02:08:27.637	$GPGGA,020828,2510.4081,N,07941.0679,W,1,12,1.3,16,M,,M,,*6E
06/20/2015	02:08:28.599	$GPGGA,020829,2510.4073,N,07941.0699,W,1,12,1.3,16,M,,M,,*6C
06/20/2015	02:08:29.599	$GPGGA,020830,2510.4066,N,07941.0719,W,1,12,1.3,16,M,,M,,*69
06/20/2015	02:08:30.593	$GPGGA,020831,2510.4059,N,07941.0741,W,1,12,1.3,16,M,,M,,*69
06/20/2015	02:08:31.617	$GPGGA,020832,2510.4052,N,07941.0762,W,1,11,1.4,16,M,,M,,*64
06/20/2015	02:08:32.592	$GPGGA,020833,2510.4044,N,07941.0781,W,1,11,1.4,16,M,,M,,*6F
06/20/2015	02:08:33.579	$GPGGA,020834,2510.4038,N,07941.0803,W,1,12,1.3,16,M,,M,,*62
06/20/2015	02:08:34.593	$GPGGA,020835,2510.4031,N,07941.0824,W,1,12,1.3,16,M,,M,,*6F
06/20/2015	02:08:35.617	$GPGGA,020836,2510.4023,N,07941.0845,W,1,12,1.3,16,M,,M,,*68
06/20/2015	02:08:36.567	$GPGGA,020837,2510.4016,N,07941.0864,W,1,12,1.4,16,M,,M,,*6B
06/20/2015	02:08:37.591	$GPGGA,020838,2510.4007,N,07941.0885,W,1,11,1.4,16,M,,M,,*68
06/20/2015	02:08:38.567	$GPGGA,020839,2510.3999,N,07941.0904,W,1,11,1.3,16,M,,M,,*6F
06/20/2015	02:08:39.597	$GPGGA,020840,2510.3991,N,07941.0925,W,1,12,1.3,16,M,,M,,*69
06/20/2015	02:08:40.579	$GPGGA,020841,2510.3983,N,07941.0946,W,1,12,1.3,16,M,,M,,*6E
06/20/2015	02:08:41.592	$GPGGA,020842,2510.3976,N,07941.0965,W,1,12,1.3,16,M,,M,,*66
06/20/2015	02:08:42.567	$GPGGA,020843,2510.3969,N,07941.0986,W,1,12,1.3,16,M,,M,,*64
06/20/2015	02:08:43.577	$GPGGA,020844,2510.3960,N,07941.1008,W,1,12,1.3,16,M,,M,,*64
06/20/2015	02:08:44.567	$GPGGA,020845,2510.3952,N,07941.1027,W,1,12,1.5,16,M,,M,,*6F
06/20/2015	02:08:45.557	$GPGGA,020846,2510.3945,N,07941.1048,W,1,11,1.5,16,M,,M,,*60
06/20/2015	02:08:46.557	$GPGGA,020847,2510.3937,N,07941.1069,W,1,11,1.3,16,M,,M,,*61
06/20/2015	02:08:47.567	$GPGGA,020848,2510.3929,N,07941.1088,W,1,11,1.5,16,M,,M,,*68
06/20/2015	02:08:48.557	$GPGGA,020849,2510.3920,N,07941.1109,W,1,11,1.5,16,M,,M,,*68
06/20/2015	02:08:49.547	$GPGGA,020850,2510.3912,N,07941.1129,W,1,11,1.5,16,M,,M,,*63
06/20/2015	02:08:50.557	$GPGGA,020851,2510.3904,N,07941.1149,W,1,11,1.3,16,M,,M,,*65
06/20/2015	02:08:51.567	$GPGGA,020852,2510.3896,N,07941.1170,W,1,12,1.3,16,M,,M,,*65
06/20/2015	02:08:52.557	$GPGGA,020853,2510.3889,N,07941.1190,W,1,12,1.3,16,M,,M,,*64
06/20/2015	02:08:54.698	$GPGGA,020855,2510.3872,N,07941.1229,W,1,12,1.5,16,M,,M,,*61
06/20/2015	02:08:56.598	$GPGGA,020857,2510.3857,N,07941.1269,W,1,12,1.3,16,M,,M,,*66
06/20/2015	02:08:57.536	$GPGGA,020858,2510.3848,N,07941.1290,W,1,12,1.3,16,M,,M,,*61
06/20/2015	02:08:58.526	$GPGGA,020859,2510.3840,N,07941.1309,W,1,12,1.3,16,M,,M,,*69
06/20/2015	02:08:59.547	$GPGGA,020900,2510.3832,N,07941.1329,W,1,12,1.3,16,M,,M,,*63
06/20/2015	02:09:00.537	$GPGGA,020901,2510.3824,N,07941.1349,W,1,12,1.3,16,M,,M,,*63
06/20/2015	02:09:01.647	$GPGGA,020902,2510.3815,N,07941.1369,W,1,12,1.3,16,M,,M,,*60
06/20/2015	02:09:02.537	$GPGGA,020903,2510.3807,N,07941.1388,W,1,12,1.3,16,M,,M,,*6D
06/20/2015	02:09:03.637	$GPGGA,020904,2510.3800,N,07941.1409,W,1,12,1.3,16,M,,M,,*63
06/20/2015	02:09:04.537	$GPGGA,020905,2510.3792,N,07941.1427,W,1,12,1.3,16,M,,M,,*6A
06/20/2015	02:09:05.517	$GPGGA,020906,2510.3782,N,07941.1445,W,1,12,1.3,16,M,,M,,*6C
06/20/2015	02:09:06.617	$GPGGA,020907,2510.3774,N,07941.1465,W,1,12,1.3,16,M,,M,,*66
06/20/2015	02:09:07.627	$GPGGA,020908,2510.3767,N,07941.1485,W,1,12,1.3,16,M,,M,,*65
06/20/2015	02:09:08.617	$GPGGA,020909,2510.3759,N,07941.1506,W,1,12,1.3,16,M,,M,,*63
06/20/2015	02:09:09.598	$GPGGA,020910,2510.3752,N,07941.1525,W,1,12,1.3,16,M,,M,,*61
06/20/2015	02:09:10.607	$GPGGA,020911,2510.3745,N,07941.1546,W,1,12,1.4,16,M,,M,,*64
06/20/2015	02:09:11.617	$GPGGA,020912,2510.3737,N,07941.1565,W,1,11,1.4,16,M,,M,,*60
06/20/2015	02:09:12.517	$GPGGA,020913,2510.3731,N,07941.1586,W,1,11,1.3,16,M,,M,,*6D
06/20/2015	02:09:13.597	$GPGGA,020914,2510.3723,N,07941.1607,W,1,11,1.4,16,M,,M,,*64
06/20/2015	02:09:14.589	$GPGGA,020915,2510.3716,N,07941.1626,W,1,11,1.3,16,M,,M,,*67
06/20/2015	02:09:15.626	$GPGGA,020916,2510.3708,N,07941.1647,W,1,12,1.3,16,M,,M,,*6F
06/20/2015	02:09:16.598	$GPGGA,020917,2510.3702,N,07941.1667,W,1,12,1.3,16,M,,M,,*66
06/20/2015	02:09:17.607	$GPGGA,020918,2510.3694,N,07941.1688,W,1,12,1.3,16,M,,M,,*66
06/20/2015	02:09:18.583	$GPGGA,020919,2510.3687,N,07941.1709,W,1,12,1.4,16,M,,M,,*6A
06/20/2015	02:09:19.617	$GPGGA,020920,2510.3680,N,07941.1730,W,1,12,1.3,16,M,,M,,*6A
06/20/2015	02:09:20.577	$GPGGA,020921,2510.3674,N,07941.1750,W,1,12,1.3,16,M,,M,,*66
06/20/2015	02:09:21.582	$GPGGA,020922,2510.3666,N,07941.1770,W,1,12,1.3,16,M,,M,,*64
06/20/2015	02:09:22.592	$GPGGA,020923,2510.3659,N,07941.1792,W,1,12,1.3,16,M,,M,,*65
06/20/2015	02:09:23.597	$GPGGA,020924,2510.3652,N,07941.1813,W,1,12,1.3,16,M,,M,,*6F
06/20/2015	02:09:24.582	$GPGGA,020925,2510.3645,N,07941.1833,W,1,12,1.4,16,M,,M,,*6D
06/20/2015	02:09:25.567	$GPGGA,020926,2510.3637,N,07941.1854,W,1,12,1.3,16,M,,M,,*6D
06/20/2015	02:09:26.567	$GPGGA,020927,2510.3630,N,07941.1875,W,1,12,1.4,16,M,,M,,*6F
06/20/2015	02:09:27.617	$GPGGA,020928,2510.3622,N,07941.1894,W,1,11,1.4,16,M,,M,,*6F
06/20/2015	02:09:28.567	$GPGGA,020929,2510.3615,N,07941.1915,W,1,11,1.3,16,M,,M,,*65
06/20/2015	02:09:29.588	$GPGGA,020930,2510.3608,N,07941.1936,W,1,12,1.3,16,M,,M,,*63
06/20/2015	02:09:30.557	$GPGGA,020931,2510.3600,N,07941.1956,W,1,12,1.3,16,M,,M,,*6C
06/20/2015	02:09:31.607	$GPGGA,020932,2510.3593,N,07941.1976,W,1,12,1.3,16,M,,M,,*64
06/20/2015	02:09:32.546	$GPGGA,020933,2510.3586,N,07941.1998,W,1,12,1.3,16,M,,M,,*61
06/20/2015	02:09:33.596	$GPGGA,020934,2510.3579,N,07941.2017,W,1,12,1.3,16,M,,M,,*6B
06/20/2015	02:09:34.557	$GPGGA,020935,2510.3571,N,07941.2038,W,1,12,1.4,16,M,,M,,*68
06/20/2015	02:09:35.596	$GPGGA,020936,2510.3564,N,07941.2059,W,1,12,1.4,16,M,,M,,*68
06/20/2015	02:09:36.547	$GPGGA,020937,2510.3557,N,07941.2078,W,1,12,1.4,16,M,,M,,*6A
06/20/2015	02:09:37.547	$GPGGA,020938,2510.3547,N,07941.2099,W,1,12,1.4,16,M,,M,,*6B
06/20/2015	02:09:38.657	$GPGGA,020939,2510.3539,N,07941.2118,W,1,12,1.4,16,M,,M,,*6B
06/20/2015	02:09:39.697	$GPGGA,020940,2510.3531,N,07941.2139,W,1,12,1.4,16,M,,M,,*6E
06/20/2015	02:09:40.547	$GPGGA,020941,2510.3523,N,07941.2158,W,1,12,1.4,16,M,,M,,*6B
06/20/2015	02:09:41.548	$GPGGA,020942,2510.3514,N,07941.2178,W,1,12,1.4,16,M,,M,,*6E
06/20/2015	02:09:42.537	$GPGGA,020943,2510.3506,N,07941.2197,W,1,12,1.4,16,M,,M,,*6D
06/20/2015	02:09:43.567	$GPGGA,020944,2510.3499,N,07941.2218,W,1,12,1.4,16,M,,M,,*69
06/20/2015	02:09:44.527	$GPGGA,020945,2510.3492,N,07941.2237,W,1,12,1.4,16,M,,M,,*6E
06/20/2015	02:09:45.637	$GPGGA,020946,2510.3482,N,07941.2256,W,1,12,1.5,16,M,,M,,*6A
06/20/2015	02:09:46.527	$GPGGA,020947,2510.3474,N,07941.2276,W,1,12,1.5,16,M,,M,,*60
06/20/2015	02:09:47.537	$GPGGA,020948,2510.3465,N,07941.2296,W,1,12,1.4,16,M,,M,,*60
06/20/2015	02:09:48.537	$GPGGA,020949,2510.3457,N,07941.2316,W,1,12,1.4,16,M,,M,,*69
06/20/2015	02:09:49.517	$GPGGA,020950,2510.3447,N,07941.2335,W,1,11,1.5,16,M,,M,,*63
06/20/2015	02:09:50.516	$GPGGA,020951,2510.3439,N,07941.2355,W,1,11,1.4,16,M,,M,,*6C
06/20/2015	02:09:51.537	$GPGGA,020952,2510.3431,N,07941.2375,W,1,12,1.4,16,M,,M,,*66
06/20/2015	02:09:52.527	$GPGGA,020953,2510.3423,N,07941.2395,W,1,12,1.4,16,M,,M,,*6A
06/20/2015	02:09:53.617	$GPGGA,020954,2510.3416,N,07941.2414,W,1,12,1.4,16,M,,M,,*65
06/20/2015	02:09:54.507	$GPGGA,020955,2510.3407,N,07941.2433,W,1,12,1.4,16,M,,M,,*61
06/20/2015	02:09:55.647	$GPGGA,020956,2510.3398,N,07941.2454,W,1,11,1.5,16,M,,M,,*60
06/20/2015	02:09:56.517	$GPGGA,020957,2510.3389,N,07941.2473,W,1,11,1.5,16,M,,M,,*64
06/20/2015	02:09:57.617	$GPGGA,020958,2510.3380,N,07941.2494,W,1,12,1.4,16,M,,M,,*69
06/20/2015	02:09:58.607	$GPGGA,020959,2510.3371,N,07941.2514,W,1,12,1.4,16,M,,M,,*6F
06/20/2015	02:09:59.647	$GPGGA,021000,2510.3363,N,07941.2534,W,1,12,1.4,16,M,,M,,*6A
06/20/2015	02:10:00.607	$GPGGA,021001,2510.3355,N,07941.2554,W,1,12,1.4,16,M,,M,,*68
06/20/2015	02:10:01.607	$GPGGA,021002,2510.3347,N,07941.2576,W,1,12,1.4,16,M,,M,,*68
06/20/2015	02:10:02.607	$GPGGA,021003,2510.3340,N,07941.2595,W,1,12,1.4,16,M,,M,,*63
06/20/2015	02:10:03.647	$GPGGA,021004,2510.3331,N,07941.2616,W,1,12,1.4,16,M,,M,,*6A
06/20/2015	02:10:04.597	$GPGGA,021005,2510.3323,N,07941.2635,W,1,12,1.4,16,M,,M,,*69
06/20/2015	02:10:05.597	$GPGGA,021006,2510.3315,N,07941.2655,W,1,12,1.4,16,M,,M,,*69
06/20/2015	02:10:06.587	$GPGGA,021007,2510.3307,N,07941.2677,W,1,12,1.4,16,M,,M,,*6B
06/20/2015	02:10:07.616	$GPGGA,021008,2510.3299,N,07941.2697,W,1,12,1.4,16,M,,M,,*6C
06/20/2015	02:10:08.579	$GPGGA,021009,2510.3290,N,07941.2717,W,1,12,1.4,16,M,,M,,*6D
06/20/2015	02:10:09.607	$GPGGA,021010,2510.3282,N,07941.2738,W,1,12,1.4,16,M,,M,,*6B
06/20/2015	02:10:10.581	$GPGGA,021011,2510.3275,N,07941.2758,W,1,12,1.4,16,M,,M,,*64
06/20/2015	02:10:11.647	$GPGGA,021012,2510.3268,N,07941.2778,W,1,12,1.4,16,M,,M,,*69
06/20/2015	02:10:12.581	$GPGGA,021013,2510.3259,N,07941.2798,W,1,12,1.4,16,M,,M,,*64
06/20/2015	02:10:13.597	$GPGGA,021014,2510.3252,N,07941.2818,W,1,12,1.4,16,M,,M,,*6F
06/20/2015	02:10:14.585	$GPGGA,021015,2510.3244,N,07941.2839,W,1,12,1.4,16,M,,M,,*6A
06/20/2015	02:10:15.637	$GPGGA,021016,2510.3237,N,07941.2858,W,1,12,1.4,16,M,,M,,*6A
06/20/2015	02:10:16.567	$GPGGA,021017,2510.3232,N,07941.2879,W,1,12,1.4,16,M,,M,,*6D
06/20/2015	02:10:17.597	$GPGGA,021018,2510.3223,N,07941.2901,W,1,12,1.4,16,M,,M,,*6C
06/20/2015	02:10:18.579	$GPGGA,021019,2510.3215,N,07941.2920,W,1,12,1.4,16,M,,M,,*6B
06/20/2015	02:10:19.597	$GPGGA,021020,2510.3208,N,07941.2941,W,1,12,1.4,16,M,,M,,*6A
06/20/2015	02:10:20.547	$GPGGA,021021,2510.3200,N,07941.2962,W,1,12,1.4,16,M,,M,,*62
06/20/2015	02:10:21.597	$GPGGA,021022,2510.3193,N,07941.2981,W,1,12,1.4,16,M,,M,,*65
06/20/2015	02:10:22.580	$GPGGA,021023,2510.3185,N,07941.3002,W,1,12,1.4,17,M,,M,,*61
06/20/2015	02:10:23.597	$GPGGA,021024,2510.3178,N,07941.3020,W,1,12,1.4,17,M,,M,,*64
06/20/2015	02:10:24.557	$GPGGA,021025,2510.3170,N,07941.3042,W,1,12,1.5,17,M,,M,,*68
06/20/2015	02:10:25.556	$GPGGA,021026,2510.3163,N,07941.3061,W,1,11,1.5,17,M,,M,,*6B
06/20/2015	02:10:26.537	$GPGGA,021027,2510.3153,N,07941.3081,W,1,11,1.5,17,M,,M,,*67
06/20/2015	02:10:27.589	$GPGGA,021028,2510.3146,N,07941.3100,W,1,11,1.5,17,M,,M,,*64
06/20/2015	02:10:28.537	$GPGGA,021029,2510.3139,N,07941.3119,W,1,11,1.4,17,M,,M,,*64
06/20/2015	02:10:29.567	$GPGGA,021030,2510.3131,N,07941.3139,W,1,12,1.4,17,M,,M,,*65
06/20/2015	02:10:30.557	$GPGGA,021031,2510.3123,N,07941.3158,W,1,12,1.5,17,M,,M,,*61
06/20/2015	02:10:31.578	$GPGGA,021032,2510.3116,N,07941.3179,W,1,11,1.4,17,M,,M,,*65
06/20/2015	02:10:32.557	$GPGGA,021033,2510.3109,N,07941.3197,W,1,11,1.4,17,M,,M,,*6A
06/20/2015	02:10:33.647	$GPGGA,021034,2510.3100,N,07941.3217,W,1,12,1.4,17,M,,M,,*6C
06/20/2015	02:10:34.617	$GPGGA,021035,2510.3092,N,07941.3237,W,1,12,1.4,17,M,,M,,*65
06/20/2015	02:10:35.657	$GPGGA,021036,2510.3085,N,07941.3256,W,1,12,1.4,17,M,,M,,*67
06/20/2015	02:10:36.617	$GPGGA,021037,2510.3078,N,07941.3277,W,1,12,1.4,17,M,,M,,*67
06/20/2015	02:10:37.657	$GPGGA,021038,2510.3070,N,07941.3295,W,1,12,1.4,17,M,,M,,*6C
06/20/2015	02:10:38.617	$GPGGA,021039,2510.3062,N,07941.3316,W,1,12,1.4,17,M,,M,,*64
06/20/2015	02:10:39.657	$GPGGA,021040,2510.3055,N,07941.3335,W,1,12,1.4,17,M,,M,,*6F
06/20/2015	02:10:40.617	$GPGGA,021041,2510.3047,N,07941.3354,W,1,12,1.4,17,M,,M,,*6A
06/20/2015	02:10:41.647	$GPGGA,021042,2510.3040,N,07941.3374,W,1,12,1.4,17,M,,M,,*6C
06/20/2015	02:10:42.616	$GPGGA,021043,2510.3031,N,07941.3394,W,1,12,1.4,17,M,,M,,*65
06/20/2015	02:10:43.657	$GPGGA,021044,2510.3024,N,07941.3415,W,1,12,1.4,17,M,,M,,*68
06/20/2015	02:10:44.607	$GPGGA,021045,2510.3016,N,07941.3436,W,1,12,1.4,17,M,,M,,*69
06/20/2015	02:10:45.627	$GPGGA,021046,2510.3008,N,07941.3457,W,1,12,1.4,17,M,,M,,*62
06/20/2015	02:10:46.597	$GPGGA,021047,2510.3000,N,07941.3477,W,1,12,1.4,17,M,,M,,*69
06/20/2015	02:10:47.637	$GPGGA,021048,2510.2992,N,07941.3498,W,1,12,1.4,17,M,,M,,*64
06/20/2015	02:10:48.597	$GPGGA,021049,2510.2984,N,07941.3519,W,1,12,1.4,17,M,,M,,*6A
06/20/2015	02:10:49.617	$GPGGA,021050,2510.2977,N,07941.3540,W,1,12,1.4,17,M,,M,,*62
06/20/2015	02:10:50.597	$GPGGA,021051,2510.2969,N,07941.3559,W,1,12,1.4,17,M,,M,,*64
06/20/2015	02:10:51.617	$GPGGA,021052,2510.2961,N,07941.3578,W,1,12,1.4,17,M,,M,,*6C
06/20/2015	02:10:52.597	$GPGGA,021053,2510.2953,N,07941.3598,W,1,12,1.4,17,M,,M,,*62
06/20/2015	02:10:53.579	$GPGGA,021054,2510.2946,N,07941.3620,W,1,12,1.4,17,M,,M,,*61
06/20/2015	02:10:54.591	$GPGGA,021055,2510.2940,N,07941.3641,W,1,12,1.4,17,M,,M,,*61
06/20/2015	02:10:55.593	$GPGGA,021056,2510.2933,N,07941.3663,W,1,12,1.4,17,M,,M,,*66
06/20/2015	02:10:56.577	$GPGGA,021057,2510.2925,N,07941.3682,W,1,12,1.4,17,M,,M,,*6F
06/20/2015	02:10:57.607	$GPGGA,021058,2510.2918,N,07941.3703,W,1,12,1.4,17,M,,M,,*66
06/20/2015	02:10:58.588	$GPGGA,021059,2510.2910,N,07941.3723,W,1,12,1.4,17,M,,M,,*6D
06/20/2015	02:10:59.637	$GPGGA,021100,2510.2904,N,07941.3744,W,1,11,1.4,17,M,,M,,*67
06/20/2015	02:11:00.566	$GPGGA,021101,2510.2897,N,07941.3765,W,1,11,1.4,17,M,,M,,*6E
06/20/2015	02:11:01.597	$GPGGA,021102,2510.2890,N,07941.3786,W,1,12,1.4,17,M,,M,,*64
06/20/2015	02:11:02.580	$GPGGA,021103,2510.2883,N,07941.3805,W,1,12,1.4,17,M,,M,,*63
06/20/2015	02:11:03.597	$GPGGA,021104,2510.2875,N,07941.3826,W,1,12,1.4,17,M,,M,,*6C
06/20/2015	02:11:04.567	$GPGGA,021105,2510.2867,N,07941.3844,W,1,12,1.5,17,M,,M,,*6B
06/20/2015	02:11:05.557	$GPGGA,021106,2510.2859,N,07941.3863,W,1,11,1.5,17,M,,M,,*63
06/20/2015	02:11:06.567	$GPGGA,021107,2510.2851,N,07941.3884,W,1,11,1.4,17,M,,M,,*62
06/20/2015	02:11:07.567	$GPGGA,021108,2510.2842,N,07941.3903,W,1,12,1.4,17,M,,M,,*62
06/20/2015	02:11:08.547	$GPGGA,021109,2510.2833,N,07941.3923,W,1,12,1.4,17,M,,M,,*67
06/20/2015	02:11:09.557	$GPGGA,021110,2510.2825,N,07941.3943,W,1,12,1.4,17,M,,M,,*6E
06/20/2015	02:11:10.577	$GPGGA,021111,2510.2818,N,07941.3963,W,1,12,1.4,17,M,,M,,*63
06/20/2015	02:11:11.596	$GPGGA,021112,2510.2810,N,07941.3983,W,1,12,1.4,17,M,,M,,*66
06/20/2015	02:11:12.547	$GPGGA,021113,2510.2802,N,07941.4003,W,1,12,1.4,17,M,,M,,*62
06/20/2015	02:11:13.657	$GPGGA,021114,2510.2795,N,07941.4022,W,1,12,1.4,17,M,,M,,*67
06/20/2015	02:11:14.547	$GPGGA,021115,2510.2787,N,07941.4043,W,1,12,1.4,17,M,,M,,*62
06/20/2015	02:11:15.597	$GPGGA,021116,2510.2780,N,07941.4062,W,1,12,1.4,17,M,,M,,*65
06/20/2015	02:11:16.557	$GPGGA,021117,2510.2771,N,07941.4082,W,1,12,1.4,17,M,,M,,*64
06/20/2015	02:11:17.656	$GPGGA,021118,2510.2764,N,07941.4102,W,1,12,1.4,17,M,,M,,*66
06/20/2015	02:11:18.547	$GPGGA,021119,2510.2756,N,07941.4122,W,1,12,1.4,17,M,,M,,*64
06/20/2015	02:11:19.667	$GPGGA,021120,2510.2748,N,07941.4144,W,1,12,1.4,17,M,,M,,*61
06/20/2015	02:11:20.537	$GPGGA,021121,2510.2740,N,07941.4162,W,1,12,1.4,17,M,,M,,*6C
06/20/2015	02:11:21.627	$GPGGA,021122,2510.2733,N,07941.4183,W,1,12,1.4,17,M,,M,,*64
06/20/2015	02:11:22.537	$GPGGA,021123,2510.2726,N,07941.4202,W,1,12,1.5,17,M,,M,,*6A
06/20/2015	02:11:23.537	$GPGGA,021124,2510.2716,N,07941.4223,W,1,12,1.4,17,M,,M,,*6C
06/20/2015	02:11:24.617	$GPGGA,021125,2510.2709,N,07941.4242,W,1,12,1.4,17,M,,M,,*64
06/20/2015	02:11:25.527	$GPGGA,021126,2510.2702,N,07941.4261,W,1,12,1.4,17,M,,M,,*6D
06/20/2015	02:11:26.617	$GPGGA,021127,2510.2693,N,07941.4281,W,1,12,1.5,17,M,,M,,*6A
06/20/2015	02:11:27.537	$GPGGA,021128,2510.2684,N,07941.4301,W,1,12,1.4,17,M,,M,,*6B
06/20/2015	02:11:28.527	$GPGGA,021129,2510.2676,N,07941.4321,W,1,12,1.4,17,M,,M,,*65
06/20/2015	02:11:29.617	$GPGGA,021130,2510.2668,N,07941.4342,W,1,12,1.4,17,M,,M,,*67
06/20/2015	02:11:30.607	$GPGGA,021131,2510.2659,N,07941.4361,W,1,12,1.4,17,M,,M,,*65
06/20/2015	02:11:31.647	$GPGGA,021132,2510.2651,N,07941.4380,W,1,12,1.4,17,M,,M,,*61
06/20/2015	02:11:32.607	$GPGGA,021133,2510.2643,N,07941.4400,W,1,12,1.4,17,M,,M,,*6C
06/20/2015	02:11:33.637	$GPGGA,021134,2510.2635,N,07941.4419,W,1,12,1.4,17,M,,M,,*62
06/20/2015	02:11:34.607	$GPGGA,021135,2510.2627,N,07941.4440,W,1,12,1.4,17,M,,M,,*6C
06/20/2015	02:11:35.626	$GPGGA,021136,2510.2621,N,07941.4459,W,1,12,1.4,17,M,,M,,*61
06/20/2015	02:11:36.617	$GPGGA,021137,2510.2611,N,07941.4480,W,1,12,1.4,17,M,,M,,*67
06/20/2015	02:11:37.592	$GPGGA,021138,2510.2603,N,07941.4499,W,1,12,1.4,17,M,,M,,*63
06/20/2015	02:11:38.597	$GPGGA,021139,2510.2596,N,07941.4520,W,1,12,1.4,17,M,,M,,*6E
06/20/2015	02:11:39.617	$GPGGA,021140,2510.2587,N,07941.4539,W,1,12,1.4,17,M,,M,,*68
06/20/2015	02:11:40.597	$GPGGA,021141,2510.2579,N,07941.4559,W,1,12,1.4,17,M,,M,,*6E
06/20/2015	02:11:41.597	$GPGGA,021142,2510.2571,N,07941.4579,W,1,12,1.4,17,M,,M,,*67
06/20/2015	02:11:42.589	$GPGGA,021143,2510.2564,N,07941.4599,W,1,12,1.4,17,M,,M,,*6C
06/20/2015	02:11:43.617	$GPGGA,021144,2510.2556,N,07941.4620,W,1,12,1.4,17,M,,M,,*6B
06/20/2015	02:11:44.581	$GPGGA,021145,2510.2547,N,07941.4639,W,1,12,1.4,17,M,,M,,*62
06/20/2015	02:11:45.597	$GPGGA,021146,2510.2539,N,07941.4660,W,1,12,1.4,17,M,,M,,*64
