Software Version Number: 1	Data File Format Number: 1	Build Version Number: 1	Error Count Since VI Started: 1	Manufacturer: Raytheon	 Model Number: RayMarine 120	 S/N: 	 Cal Date: 	 Wind Direction Offset: 0.00	 Slope (M)1: 0.00	 Offset (B)1: 0.00	 Slope (M)2: 0.00	 Offset (B)2: 0.00	 Slope (M)3: 0.00	 Offset (B)3: 0.00	 Slope (M)4: 0.00	 Offset (B)4: 0.00	 Slope (M)5: 0.00	 Offset (B)5: 0.00	 Slope (M)6: 0.00	 Offset (B)6: 0.00
Computer Date	Computer Time	GGA String
06/18/2015	23:00:00.490	$GPGGA,230001,2600.0537,N,07921.1235,W,1,8,1.6,14,M,,M,,*57
06/18/2015	23:00:01.480	$GPGGA,230002,2600.0540,N,07921.1239,W,1,8,1.6,14,M,,M,,*58
06/18/2015	23:00:02.573	$GPGGA,230003,2600.0542,N,07921.1246,W,1,8,1.6,14,M,,M,,*53
06/18/2015	23:00:03.480	$GPGGA,230004,2600.0544,N,07921.1251,W,1,8,1.6,14,M,,M,,*54
06/18/2015	23:00:04.560	$GPGGA,230005,2600.0547,N,07921.1257,W,1,8,1.6,14,M,,M,,*50
06/18/2015	23:00:05.570	$GPGGA,230006,2600.0549,N,07921.1264,W,1,8,1.6,14,M,,M,,*5D
06/18/2015	23:00:06.550	$GPGGA,230007,2600.0551,N,07921.1269,W,1,8,1.6,14,M,,M,,*58
06/18/2015	23:00:07.579	$GPGGA,230008,2600.0553,N,07921.1276,W,1,8,1.6,14,M,,M,,*5B
06/18/2015	23:00:08.550	$GPGGA,230009,2600.0555,N,07921.1282,W,1,8,1.6,14,M,,M,,*57
06/18/2015	23:00:09.563	$GPGGA,230010,2600.0558,N,07921.1287,W,1,8,1.6,14,M,,M,,*57
06/18/2015	23:00:10.564	$GPGGA,230011,2600.0561,N,07921.1293,W,1,8,1.6,14,M,,M,,*59
06/18/2015	23:00:11.580	$GPGGA,230012,2600.0562,N,07921.1300,W,1,8,1.6,14,M,,M,,*52
06/18/2015	23:00:12.550	$GPGGA,230013,2600.0565,N,07921.1305,W,1,8,1.6,14,M,,M,,*51
06/18/2015	23:00:13.550	$GPGGA,230014,2600.0566,N,07921.1311,W,1,8,1.6,14,M,,M,,*50
06/18/2015	23:00:14.550	$GPGGA,230015,2600.0569,N,07921.1318,W,1,8,1.6,14,M,,M,,*57
06/18/2015	23:00:15.580	$GPGGA,230016,2600.0571,N,07921.1322,W,1,8,1.6,14,M,,M,,*54
06/18/2015	23:00:16.540	$GPGGA,230017,2600.0573,N,07921.1329,W,1,8,1.6,14,M,,M,,*5C
06/18/2015	23:00:17.567	$GPGGA,230018,2600.0576,N,07921.1334,W,1,8,1.6,14,M,,M,,*5A
06/18/2015	23:00:18.530	$GPGGA,230019,2600.0578,N,07921.1340,W,1,8,1.6,14,M,,M,,*56
06/18/2015	23:00:19.540	$GPGGA,230020,2600.0580,N,07921.1345,W,1,8,1.6,14,M,,M,,*5E
06/18/2015	23:00:20.550	$GPGGA,230021,2600.0582,N,07921.1352,W,1,8,1.6,13,M,,M,,*5C
06/18/2015	23:00:21.563	$GPGGA,230022,2600.0583,N,07921.1358,W,1,8,1.6,13,M,,M,,*54
06/18/2015	23:00:22.530	$GPGGA,230023,2600.0586,N,07921.1363,W,1,8,1.6,13,M,,M,,*58
06/18/2015	23:00:23.572	$GPGGA,230024,2600.0587,N,07921.1369,W,1,8,1.6,13,M,,M,,*54
06/18/2015	23:00:24.530	$GPGGA,230025,2600.0590,N,07921.1376,W,1,8,1.6,13,M,,M,,*5D
06/18/2015	23:00:25.559	$GPGGA,230026,2600.0591,N,07921.1381,W,1,8,1.6,13,M,,M,,*57
06/18/2015	23:00:26.520	$GPGGA,230027,2600.0594,N,07921.1387,W,1,8,1.6,13,M,,M,,*55
06/18/2015	23:00:27.561	$GPGGA,230028,2600.0597,N,07921.1392,W,1,8,1.6,13,M,,M,,*5D
06/18/2015	23:00:28.510	$GPGGA,230029,2600.0598,N,07921.1398,W,1,8,1.6,13,M,,M,,*59
06/18/2015	23:00:29.510	$GPGGA,230030,2600.0601,N,07921.1403,W,1,8,1.6,13,M,,M,,*57
06/18/2015	23:00:30.540	$GPGGA,230031,2600.0602,N,07921.1409,W,1,8,1.6,13,M,,M,,*5F
06/18/2015	23:00:31.550	$GPGGA,230032,2600.0605,N,07921.1414,W,1,8,1.6,13,M,,M,,*57
06/18/2015	23:00:32.500	$GPGGA,230033,2600.0607,N,07921.1420,W,1,8,1.6,13,M,,M,,*53
06/18/2015	23:00:33.530	$GPGGA,230034,2600.0609,N,07921.1427,W,1,8,1.6,13,M,,M,,*5D
06/18/2015	23:00:34.510	$GPGGA,230035,2600.0611,N,07921.1432,W,1,8,1.6,13,M,,M,,*51
06/18/2015	23:00:35.690	$GPGGA,230036,2600.0613,N,07921.1438,W,1,8,1.6,13,M,,M,,*5A
06/18/2015	23:00:36.520	$GPGGA,230037,2600.0616,N,07921.1445,W,1,8,1.6,13,M,,M,,*54
06/18/2015	23:00:37.500	$GPGGA,230038,2600.0618,N,07921.1450,W,1,8,1.6,13,M,,M,,*51
06/18/2015	23:00:38.500	$GPGGA,230039,2600.0620,N,07921.1456,W,1,8,1.6,13,M,,M,,*5D
06/18/2015	23:00:39.510	$GPGGA,230040,2600.0622,N,07921.1461,W,1,8,1.6,13,M,,M,,*55
06/18/2015	23:00:40.490	$GPGGA,230041,2600.0623,N,07921.1468,W,1,8,1.6,13,M,,M,,*5C
06/18/2015	23:00:41.500	$GPGGA,230042,2600.0625,N,07921.1474,W,1,8,1.6,13,M,,M,,*54
06/18/2015	23:00:42.489	$GPGGA,230043,2600.0627,N,07921.1481,W,1,8,1.6,13,M,,M,,*5D
06/18/2015	23:00:43.500	$GPGGA,230044,2600.0630,N,07921.1486,W,1,8,1.6,13,M,,M,,*5B
06/18/2015	23:00:44.610	$GPGGA,230045,2600.0631,N,07921.1492,W,1,8,1.6,13,M,,M,,*5E
06/18/2015	23:00:45.670	$GPGGA,230046,2600.0634,N,07921.1499,W,1,8,1.6,13,M,,M,,*53
06/18/2015	23:00:46.490	$GPGGA,230047,2600.0636,N,07921.1504,W,1,8,1.6,13,M,,M,,*55
06/18/2015	23:00:47.500	$GPGGA,230048,2600.0638,N,07921.1510,W,1,8,1.6,13,M,,M,,*51
06/18/2015	23:00:48.490	$GPGGA,230049,2600.0640,N,07921.1515,W,1,8,1.6,13,M,,M,,*5A
06/18/2015	23:00:49.670	$GPGGA,230050,2600.0641,N,07921.1521,W,1,8,1.6,13,M,,M,,*54
06/18/2015	23:00:50.480	$GPGGA,230051,2600.0644,N,07921.1528,W,1,8,1.6,13,M,,M,,*59
06/18/2015	23:00:51.480	$GPGGA,230052,2600.0647,N,07921.1533,W,1,8,1.6,13,M,,M,,*53
06/18/2015	23:00:52.580	$GPGGA,230053,2600.0648,N,07921.1539,W,1,8,1.6,13,M,,M,,*57
06/18/2015	23:00:53.673	$GPGGA,230054,2600.0651,N,07921.1546,W,1,8,1.6,13,M,,M,,*50
06/18/2015	23:00:54.569	$GPGGA,230055,2600.0652,N,07921.1551,W,1,8,1.6,13,M,,M,,*54
06/18/2015	23:00:55.680	$GPGGA,230056,2600.0656,N,07921.1557,W,1,8,1.6,13,M,,M,,*55
06/18/2015	23:00:56.550	$GPGGA,230057,2600.0656,N,07921.1564,W,1,8,1.6,13,M,,M,,*54
06/18/2015	23:00:57.650	$GPGGA,230058,2600.0659,N,07921.1569,W,1,8,1.6,13,M,,M,,*59
06/18/2015	23:00:58.581	$GPGGA,230059,2600.0662,N,07921.1576,W,1,8,1.6,13,M,,M,,*5E
06/18/2015	23:00:59.675	$GPGGA,230100,2600.0663,N,07921.1582,W,1,8,1.6,13,M,,M,,*59
06/18/2015	23:01:00.539	$GPGGA,230101,2600.0666,N,07921.1587,W,1,8,1.6,13,M,,M,,*58
06/18/2015	23:01:01.620	$GPGGA,230102,2600.0667,N,07921.1593,W,1,8,1.6,13,M,,M,,*5F
06/18/2015	23:01:02.577	$GPGGA,230103,2600.0670,N,07921.1600,W,1,8,1.6,13,M,,M,,*51
06/18/2015	23:01:03.650	$GPGGA,230104,2600.0673,N,07921.1607,W,1,8,1.6,13,M,,M,,*52
06/18/2015	23:01:04.564	$GPGGA,230105,2600.0674,N,07921.1612,W,1,8,1.6,13,M,,M,,*50
06/18/2015	23:01:05.690	$GPGGA,230106,2600.0677,N,07921.1618,W,1,8,1.6,13,M,,M,,*5A
06/18/2015	23:01:06.562	$GPGGA,230107,2600.0680,N,07921.1624,W,1,8,1.6,13,M,,M,,*5C
06/18/2015	23:01:07.650	$GPGGA,230108,2600.0681,N,07921.1631,W,1,8,1.6,14,M,,M,,*51
06/18/2015	23:01:08.550	$GPGGA,230109,2600.0685,N,07921.1637,W,1,8,1.6,14,M,,M,,*52
06/18/2015	23:01:09.520	$GPGGA,230110,2600.0687,N,07921.1644,W,1,8,1.6,14,M,,M,,*5C
06/18/2015	23:01:10.530	$GPGGA,230111,2600.0688,N,07921.1649,W,1,8,1.6,14,M,,M,,*5F
06/18/2015	23:01:11.620	$GPGGA,230112,2600.0691,N,07921.1655,W,1,8,1.6,14,M,,M,,*59
06/18/2015	23:01:12.550	$GPGGA,230113,2600.0692,N,07921.1662,W,1,8,1.6,14,M,,M,,*5F
06/18/2015	23:01:13.640	$GPGGA,230114,2600.0695,N,07921.1667,W,1,8,1.6,14,M,,M,,*5A
06/18/2015	23:01:14.520	$GPGGA,230115,2600.0698,N,07921.1673,W,1,8,1.6,14,M,,M,,*53
06/18/2015	23:01:15.650	$GPGGA,230116,2600.0699,N,07921.1680,W,1,8,1.6,14,M,,M,,*5D
06/18/2015	23:01:16.560	$GPGGA,230117,2600.0702,N,07921.1685,W,1,8,1.6,14,M,,M,,*5A
06/18/2015	23:01:17.609	$GPGGA,230118,2600.0703,N,07921.1692,W,1,8,1.6,14,M,,M,,*52
06/18/2015	23:01:18.510	$GPGGA,230119,2600.0706,N,07921.1698,W,1,8,1.6,14,M,,M,,*5C
06/18/2015	23:01:19.590	$GPGGA,230120,2600.0708,N,07921.1705,W,1,8,1.6,14,M,,M,,*5D
06/18/2015	23:01:20.511	$GPGGA,230121,2600.0710,N,07921.1710,W,1,8,1.6,14,M,,M,,*51
06/18/2015	23:01:21.580	$GPGGA,230122,2600.0713,N,07921.1716,W,1,8,1.6,14,M,,M,,*57
06/18/2015	23:01:22.540	$GPGGA,230123,2600.0714,N,07921.1721,W,1,8,1.6,14,M,,M,,*55
06/18/2015	23:01:23.572	$GPGGA,230124,2600.0717,N,07921.1727,W,1,8,1.6,14,M,,M,,*57
06/18/2015	23:01:24.500	$GPGGA,230125,2600.0719,N,07921.1734,W,1,8,1.6,14,M,,M,,*5A
06/18/2015	23:01:25.490	$GPGGA,230126,2600.0721,N,07921.1739,W,1,8,1.6,14,M,,M,,*5F
06/18/2015	23:01:26.610	$GPGGA,230127,2600.0723,N,07921.1745,W,1,8,1.6,14,M,,M,,*57
06/18/2015	23:01:27.620	$GPGGA,230128,2600.0724,N,07921.1750,W,1,8,1.6,14,M,,M,,*5B
06/18/2015	23:01:28.610	$GPGGA,230129,2600.0727,N,07921.1756,W,1,8,1.6,14,M,,M,,*5F
06/18/2015	23:01:29.565	$GPGGA,230130,2600.0730,N,07921.1761,W,1,8,1.6,14,M,,M,,*55
06/18/2015	23:01:30.540	$GPGGA,230131,2600.0732,N,07921.1767,W,1,8,1.6,14,M,,M,,*50
06/18/2015	23:01:31.575	$GPGGA,230132,2600.0732,N,07921.1774,W,1,8,1.7,14,M,,M,,*50
06/18/2015	23:01:32.520	$GPGGA,230133,2600.0737,N,07921.1781,W,1,8,1.6,14,M,,M,,*5F
06/18/2015	23:01:33.560	$GPGGA,230134,2600.0739,N,07921.1786,W,1,8,1.6,14,M,,M,,*51
06/18/2015	23:01:34.520	$GPGGA,230135,2600.0742,N,07921.1792,W,1,8,1.6,14,M,,M,,*59
06/18/2015	23:01:35.663	$GPGGA,230136,2600.0746,N,07921.1799,W,1,8,1.6,14,M,,M,,*55
06/18/2015	23:01:36.575	$GPGGA,230137,2600.0749,N,07921.1804,W,1,8,1.6,14,M,,M,,*50
06/18/2015	23:01:37.565	$GPGGA,230138,2600.0750,N,07921.1810,W,1,8,1.6,14,M,,M,,*52
06/18/2015	23:01:38.500	$GPGGA,230139,2600.0753,N,07921.1815,W,1,8,1.6,14,M,,M,,*55
06/18/2015	23:01:39.600	$GPGGA,230140,2600.0757,N,07921.1822,W,1,8,1.6,14,M,,M,,*5B
06/18/2015	23:01:40.590	$GPGGA,230141,2600.0759,N,07921.1828,W,1,8,1.6,14,M,,M,,*5E
06/18/2015	23:01:41.564	$GPGGA,230142,2600.0760,N,07921.1835,W,1,8,1.6,14,M,,M,,*5B
06/18/2015	23:01:42.550	$GPGGA,230143,2600.0764,N,07921.1840,W,1,8,1.6,14,M,,M,,*5C
06/18/2015	23:01:43.590	$GPGGA,230144,2600.0767,N,07921.1846,W,1,8,1.6,14,M,,M,,*5E
06/18/2015	23:01:44.562	$GPGGA,230145,2600.0768,N,07921.1853,W,1,8,1.6,14,M,,M,,*54
06/18/2015	23:01:45.600	$GPGGA,230146,2600.0771,N,07921.1858,W,1,8,2.1,14,M,,M,,*50
06/18/2015	23:01:46.540	$GPGGA,230147,2600.0775,N,07921.1865,W,1,8,2.1,14,M,,M,,*5B
06/18/2015	23:01:47.574	$GPGGA,230148,2600.0778,N,07921.1871,W,1,7,2.1,14,M,,M,,*53
06/18/2015	23:01:48.550	$GPGGA,230149,2600.0779,N,07921.1876,W,1,7,2.1,14,M,,M,,*54
06/18/2015	23:01:49.570	$GPGGA,230150,2600.0782,N,07921.1882,W,1,7,2.1,14,M,,M,,*53
06/18/2015	23:01:50.560	$GPGGA,230151,2600.0785,N,07921.1889,W,1,7,2.1,14,M,,M,,*5E
06/18/2015	23:01:51.574	$GPGGA,230152,2600.0786,N,07921.1895,W,1,7,2.1,14,M,,M,,*53
06/18/2015	23:01:52.539	$GPGGA,230153,2600.0789,N,07921.1901,W,1,7,2.1,14,M,,M,,*51
06/18/2015	23:01:53.620	$GPGGA,230154,2600.0792,N,07921.1908,W,1,7,2.1,14,M,,M,,*55
06/18/2015	23:01:54.540	$GPGGA,230155,2600.0795,N,07921.1913,W,1,7,2.1,15,M,,M,,*58
06/18/2015	23:01:55.610	$GPGGA,230156,2600.0795,N,07921.1913,W,1,7,2.1,15,M,,M,,*5B
06/18/2015	23:01:56.550	$GPGGA,230157,2600.0799,N,07921.1925,W,1,7,2.1,15,M,,M,,*53
06/18/2015	23:01:57.560	$GPGGA,230158,2600.0800,N,07921.1930,W,1,7,2.1,15,M,,M,,*57
06/18/2015	23:01:58.550	$GPGGA,230159,2600.0803,N,07921.1936,W,1,7,2.1,15,M,,M,,*53
06/18/2015	23:01:59.572	$GPGGA,230200,2600.0804,N,07921.1943,W,1,7,2.1,15,M,,M,,*59
06/18/2015	23:02:00.561	$GPGGA,230201,2600.0807,N,07921.1948,W,1,7,2.1,15,M,,M,,*50
06/18/2015	23:02:01.550	$GPGGA,230202,2600.0807,N,07921.1948,W,1,7,2.1,15,M,,M,,*53
06/18/2015	23:02:02.520	$GPGGA,230203,2600.0811,N,07921.1960,W,1,7,2.1,15,M,,M,,*5F
06/18/2015	23:02:03.580	$GPGGA,230204,2600.0813,N,07921.1965,W,1,7,2.1,15,M,,M,,*5F
06/18/2015	23:02:04.520	$GPGGA,230205,2600.0815,N,07921.1972,W,1,7,2.1,15,M,,M,,*5E
06/18/2015	23:02:06.576	$GPGGA,230207,2600.0818,N,07921.1983,W,1,7,2.1,15,M,,M,,*5F
06/18/2015	23:02:07.540	$GPGGA,230208,2600.0818,N,07921.1983,W,1,7,2.1,15,M,,M,,*50
06/18/2015	23:02:08.520	$GPGGA,230209,2600.0822,N,07921.1994,W,1,7,2.1,15,M,,M,,*5E
06/18/2015	23:02:09.562	$GPGGA,230210,2600.0824,N,07921.1999,W,1,7,2.1,15,M,,M,,*5D
06/18/2015	23:02:10.499	$GPGGA,230211,2600.0824,N,07921.1999,W,1,7,2.1,15,M,,M,,*5C
06/18/2015	23:02:11.580	$GPGGA,230212,2600.0828,N,07921.2009,W,1,7,2.1,15,M,,M,,*50
06/18/2015	23:02:12.500	$GPGGA,230213,2600.0829,N,07921.2016,W,1,7,2.1,15,M,,M,,*5E
06/18/2015	23:02:13.520	$GPGGA,230214,2600.0829,N,07921.2016,W,1,7,2.1,15,M,,M,,*59
06/18/2015	23:02:14.510	$GPGGA,230215,2600.0833,N,07921.2027,W,1,7,2.1,15,M,,M,,*51
06/18/2015	23:02:15.520	$GPGGA,230216,2600.0833,N,07921.2027,W,1,7,2.1,15,M,,M,,*52
06/18/2015	23:02:16.500	$GPGGA,230217,2600.0837,N,07921.2038,W,1,7,2.1,15,M,,M,,*59
06/18/2015	23:02:17.600	$GPGGA,230218,2600.0839,N,07921.2043,W,1,7,2.1,15,M,,M,,*54
06/18/2015	23:02:18.500	$GPGGA,230219,2600.0842,N,07921.2048,W,1,7,2.1,15,M,,M,,*52
06/18/2015	23:02:19.520	$GPGGA,230220,2600.0844,N,07921.2055,W,1,7,2.1,15,M,,M,,*52
06/18/2015	23:02:20.500	$GPGGA,230221,2600.0844,N,07921.2059,W,1,7,2.1,15,M,,M,,*5F
06/18/2015	23:02:21.580	$GPGGA,230222,2600.0847,N,07921.2066,W,1,7,2.1,15,M,,M,,*53
06/18/2015	23:02:22.490	$GPGGA,230223,2600.0850,N,07921.2070,W,1,7,2.1,15,M,,M,,*53
06/18/2015	23:02:23.620	$GPGGA,230224,2600.0851,N,07921.2077,W,1,7,2.1,15,M,,M,,*52
06/18/2015	23:02:24.562	$GPGGA,230225,2600.0854,N,07921.2082,W,1,7,2.1,15,M,,M,,*5C
06/18/2015	23:02:25.570	$GPGGA,230226,2600.0855,N,07921.2088,W,1,7,2.1,15,M,,M,,*54
06/18/2015	23:02:26.565	$GPGGA,230227,2600.0858,N,07921.2093,W,1,7,2.1,15,M,,M,,*52
06/18/2015	23:02:27.579	$GPGGA,230228,2600.0858,N,07921.2099,W,1,7,2.1,15,M,,M,,*57
06/18/2015	23:02:28.561	$GPGGA,230229,2600.0861,N,07921.2106,W,1,7,2.1,15,M,,M,,*5B
06/18/2015	23:02:29.561	$GPGGA,230230,2600.0862,N,07921.2111,W,1,7,2.1,15,M,,M,,*56
06/18/2015	23:02:30.570	$GPGGA,230231,2600.0864,N,07921.2117,W,1,7,2.1,15,M,,M,,*57
06/18/2015	23:02:31.600	$GPGGA,230232,2600.0865,N,07921.2122,W,1,7,2.1,15,M,,M,,*53
06/18/2015	23:02:32.561	$GPGGA,230233,2600.0868,N,07921.2128,W,1,7,2.1,15,M,,M,,*55
06/18/2015	23:02:33.590	$GPGGA,230234,2600.0869,N,07921.2133,W,1,7,2.1,15,M,,M,,*59
06/18/2015	23:02:34.560	$GPGGA,230235,2600.0872,N,07921.2139,W,1,7,2.1,15,M,,M,,*58
06/18/2015	23:02:36.350	$GPGGA,230236,2600.0875,N,07921.2146,W,1,7,2.1,15,M,,M,,*54
06/18/2015	23:02:36.553	$GPGGA,230237,2600.0876,N,07921.2151,W,1,7,2.1,15,M,,M,,*50
06/18/2015	23:02:37.540	$GPGGA,230238,2600.0878,N,07921.2157,W,1,7,2.1,15,M,,M,,*57
06/18/2015	23:02:38.840	$GPGGA,230239,2600.0880,N,07921.2164,W,1,7,2.1,15,M,,M,,*51
06/18/2015	23:02:39.570	$GPGGA,230240,2600.0882,N,07921.2169,W,1,7,2.1,15,M,,M,,*50
06/18/2015	23:02:40.540	$GPGGA,230241,2600.0883,N,07921.2175,W,1,7,2.1,15,M,,M,,*5D
06/18/2015	23:02:41.565	$GPGGA,230242,2600.0887,N,07921.2182,W,1,7,2.1,15,M,,M,,*52
06/18/2015	23:02:42.540	$GPGGA,230243,2600.0889,N,07921.2186,W,1,7,2.1,15,M,,M,,*59
06/18/2015	23:02:43.564	$GPGGA,230244,2600.0891,N,07921.2193,W,1,7,2.1,15,M,,M,,*53
06/18/2015	23:02:44.530	$GPGGA,230245,2600.0894,N,07921.2197,W,1,7,2.1,15,M,,M,,*53
06/18/2015	23:02:45.565	$GPGGA,230246,2600.0896,N,07921.2204,W,1,7,2.1,15,M,,M,,*5B
06/18/2015	23:02:46.530	$GPGGA,230247,2600.0898,N,07921.2211,W,1,7,2.1,15,M,,M,,*50
06/18/2015	23:02:47.564	$GPGGA,230248,2600.0900,N,07921.2215,W,1,7,2.1,15,M,,M,,*5B
06/18/2015	23:02:48.530	$GPGGA,230249,2600.0901,N,07921.2220,W,1,7,2.1,15,M,,M,,*5D
06/18/2015	23:02:49.550	$GPGGA,230250,2600.0905,N,07921.2227,W,1,7,2.1,15,M,,M,,*56
06/18/2015	23:02:50.530	$GPGGA,230251,2600.0908,N,07921.2233,W,1,7,2.1,15,M,,M,,*5F
06/18/2015	23:02:51.530	$GPGGA,230252,2600.0909,N,07921.2237,W,1,7,2.1,15,M,,M,,*59
06/18/2015	23:02:52.520	$GPGGA,230253,2600.0912,N,07921.2243,W,1,7,2.1,15,M,,M,,*51
06/18/2015	23:02:53.540	$GPGGA,230254,2600.0915,N,07921.2249,W,1,7,2.1,15,M,,M,,*5B
06/18/2015	23:02:54.500	$GPGGA,230255,2600.0916,N,07921.2255,W,1,7,2.1,15,M,,M,,*54
06/18/2015	23:02:55.566	$GPGGA,230256,2600.0919,N,07921.2262,W,1,7,2.1,15,M,,M,,*5C
06/18/2015	23:02:56.620	$GPGGA,230257,2600.0922,N,07921.2267,W,1,7,2.1,15,M,,M,,*50
06/18/2015	23:02:57.530	$GPGGA,230258,2600.0925,N,07921.2273,W,1,7,2.1,15,M,,M,,*5D
06/18/2015	23:02:58.500	$GPGGA,230259,2600.0927,N,07921.2280,W,1,7,2.1,15,M,,M,,*52
06/18/2015	23:02:59.630	$GPGGA,230300,2600.0929,N,07921.2284,W,1,7,2.1,15,M,,M,,*55
06/18/2015	23:03:00.520	$GPGGA,230301,2600.0932,N,07921.2290,W,1,7,2.1,15,M,,M,,*5B
06/18/2015	23:03:01.520	$GPGGA,230302,2600.0934,N,07921.2295,W,1,7,2.1,15,M,,M,,*5B
06/18/2015	23:03:02.499	$GPGGA,230303,2600.0934,N,07921.2301,W,1,7,2.1,15,M,,M,,*56
06/18/2015	23:03:03.520	$GPGGA,230304,2600.0934,N,07921.2305,W,1,6,2.3,15,M,,M,,*56
06/18/2015	23:03:04.480	$GPGGA,230305,2600.0937,N,07921.2312,W,1,6,2.1,15,M,,M,,*50
06/18/2015	23:03:05.620	$GPGGA,230306,2600.0938,N,07921.2316,W,1,7,2.1,15,M,,M,,*59
06/18/2015	23:03:06.500	$GPGGA,230307,2600.0941,N,07921.2323,W,1,7,2.1,15,M,,M,,*50
06/18/2015	23:03:07.520	$GPGGA,230308,2600.0944,N,07921.2328,W,1,7,2.1,15,M,,M,,*51
06/18/2015	23:03:08.490	$GPGGA,230309,2600.0945,N,07921.2334,W,1,7,2.1,15,M,,M,,*5C
06/18/2015	23:03:09.500	$GPGGA,230310,2600.0948,N,07921.2339,W,1,7,2.1,15,M,,M,,*54
06/18/2015	23:03:10.590	$GPGGA,230311,2600.0952,N,07921.2345,W,1,7,2.1,15,M,,M,,*55
06/18/2015	23:03:11.620	$GPGGA,230312,2600.0956,N,07921.2352,W,1,7,2.1,15,M,,M,,*54
06/18/2015	23:03:12.490	$GPGGA,230313,2600.0958,N,07921.2357,W,1,7,2.1,15,M,,M,,*5E
06/18/2015	23:03:13.574	$GPGGA,230314,2600.0959,N,07921.2363,W,1,7,2.1,15,M,,M,,*5F
06/18/2015	23:03:14.475	$GPGGA,230315,2600.0963,N,07921.2370,W,1,7,2.3,15,M,,M,,*57
06/18/2015	23:03:15.590	$GPGGA,230316,2600.0969,N,07921.2377,W,1,7,2.1,15,M,,M,,*5B
06/18/2015	23:03:16.565	$GPGGA,230317,2600.0972,N,07921.2382,W,1,7,2.1,15,M,,M,,*5A
06/18/2015	23:03:17.562	$GPGGA,230318,2600.0974,N,07921.2389,W,1,7,2.1,15,M,,M,,*58
06/18/2015	23:03:18.560	$GPGGA,230319,2600.0979,N,07921.2395,W,1,7,2.1,15,M,,M,,*59
06/18/2015	23:03:19.600	$GPGGA,230320,2600.0978,N,07921.2399,W,1,7,2.1,15,M,,M,,*5E
06/18/2015	23:03:20.549	$GPGGA,230321,2600.0981,N,07921.2406,W,1,7,2.3,15,M,,M,,*5A
06/18/2015	23:03:21.572	$GPGGA,230322,2600.0981,N,07921.2411,W,1,7,2.1,15,M,,M,,*5D
06/18/2015	23:03:22.565	$GPGGA,230323,2600.0984,N,07921.2417,W,1,7,2.1,15,M,,M,,*5F
06/18/2015	23:03:23.581	$GPGGA,230324,2600.0987,N,07921.2424,W,1,7,2.1,15,M,,M,,*5B
06/18/2015	23:03:24.540	$GPGGA,230325,2600.0988,N,07921.2429,W,1,7,2.1,15,M,,M,,*58
06/18/2015	23:03:25.576	$GPGGA,230326,2600.0988,N,07921.2433,W,1,7,2.1,15,M,,M,,*50
06/18/2015	23:03:26.550	$GPGGA,230327,2600.0990,N,07921.2439,W,1,7,2.3,15,M,,M,,*50
06/18/2015	23:03:27.578	$GPGGA,230328,2600.0992,N,07921.2446,W,1,7,2.1,15,M,,M,,*57
06/18/2015	23:03:28.540	$GPGGA,230329,2600.0995,N,07921.2450,W,1,7,2.1,15,M,,M,,*56
06/18/2015	23:03:29.563	$GPGGA,230330,2600.0997,N,07921.2457,W,1,7,2.1,15,M,,M,,*5B
06/18/2015	23:03:30.550	$GPGGA,230331,2600.0999,N,07921.2462,W,1,7,2.1,15,M,,M,,*52
06/18/2015	23:03:31.563	$GPGGA,230332,2600.1003,N,07921.2469,W,1,7,2.1,15,M,,M,,*51
06/18/2015	23:03:32.540	$GPGGA,230333,2600.1006,N,07921.2475,W,1,7,2.1,15,M,,M,,*58
06/18/2015	23:03:33.565	$GPGGA,230334,2600.1009,N,07921.2482,W,1,7,2.1,15,M,,M,,*58
06/18/2015	23:03:34.520	$GPGGA,230335,2600.1010,N,07921.2487,W,1,7,2.1,15,M,,M,,*54
06/18/2015	23:03:35.593	$GPGGA,230336,2600.1012,N,07921.2493,W,1,6,2.3,15,M,,M,,*53
06/18/2015	23:03:36.530	$GPGGA,230337,2600.1014,N,07921.2498,W,1,6,2.1,15,M,,M,,*5D
06/18/2015	23:03:37.529	$GPGGA,230338,2600.1016,N,07921.2504,W,1,7,2.1,15,M,,M,,*55
06/18/2015	23:03:38.530	$GPGGA,230339,2600.1019,N,07921.2511,W,1,7,2.3,15,M,,M,,*5D
06/18/2015	23:03:39.520	$GPGGA,230340,2600.1018,N,07921.2514,W,1,7,2.1,15,M,,M,,*55
06/18/2015	23:03:40.510	$GPGGA,230341,2600.1024,N,07921.2522,W,1,7,2.3,15,M,,M,,*5C
06/18/2015	23:03:41.520	$GPGGA,230342,2600.1031,N,07921.2530,W,1,7,2.1,15,M,,M,,*5A
06/18/2015	23:03:42.520	$GPGGA,230343,2600.1034,N,07921.2536,W,1,7,2.1,15,M,,M,,*58
06/18/2015	23:03:43.520	$GPGGA,230344,2600.1037,N,07921.2541,W,1,7,2.1,15,M,,M,,*5C
06/18/2015	23:03:44.620	$GPGGA,230345,2600.1039,N,07921.2547,W,1,7,2.1,15,M,,M,,*55
06/18/2015	23:03:45.620	$GPGGA,230346,2600.1041,N,07921.2552,W,1,7,2.1,16,M,,M,,*5E
06/18/2015	23:03:46.500	$GPGGA,230347,2600.1042,N,07921.2558,W,1,7,2.1,16,M,,M,,*56
06/18/2015	23:03:47.500	$GPGGA,230348,2600.1042,N,07921.2563,W,1,7,2.1,16,M,,M,,*51
06/18/2015	23:03:48.590	$GPGGA,230349,2600.1045,N,07921.2569,W,1,7,2.1,16,M,,M,,*5D
06/18/2015	23:03:49.510	$GPGGA,230350,2600.1046,N,07921.2576,W,1,7,2.1,16,M,,M,,*58
06/18/2015	23:03:50.520	$GPGGA,230351,2600.1049,N,07921.2581,W,1,7,2.1,16,M,,M,,*5E
06/18/2015	23:03:51.600	$GPGGA,230352,2600.1049,N,07921.2587,W,1,7,2.1,16,M,,M,,*5B
06/18/2015	23:03:52.490	$GPGGA,230353,2600.1052,N,07921.2591,W,1,7,2.1,16,M,,M,,*57
06/18/2015	23:03:53.510	$GPGGA,230354,2600.1055,N,07921.2598,W,1,7,2.1,16,M,,M,,*5E
06/18/2015	23:03:54.480	$GPGGA,230355,2600.1057,N,07921.2603,W,1,7,2.1,16,M,,M,,*5C
06/18/2015	23:03:55.619	$GPGGA,230356,2600.1059,N,07921.2608,W,1,7,2.1,16,M,,M,,*5A
06/18/2015	23:03:56.490	$GPGGA,230357,2600.1060,N,07921.2613,W,1,7,2.1,16,M,,M,,*5B
06/18/2015	23:03:57.490	$GPGGA,230358,2600.1064,N,07921.2620,W,1,6,2.3,16,M,,M,,*53
06/18/2015	23:03:58.500	$GPGGA,230359,2600.1068,N,07921.2626,W,1,6,2.1,16,M,,M,,*5A
06/18/2015	23:03:59.590	$GPGGA,230400,2600.1071,N,07921.2634,W,1,7,2.1,16,M,,M,,*5B
06/18/2015	23:04:00.570	$GPGGA,230401,2600.1075,N,07921.2639,W,1,7,2.1,16,M,,M,,*53
06/18/2015	23:04:01.600	$GPGGA,230402,2600.1079,N,07921.2646,W,1,7,2.1,16,M,,M,,*54
06/18/2015	23:04:02.572	$GPGGA,230403,2600.1084,N,07921.2652,W,1,7,2.1,16,M,,M,,*52
06/18/2015	23:04:03.591	$GPGGA,230404,2600.1089,N,07921.2659,W,1,7,2.1,16,M,,M,,*53
06/18/2015	23:04:04.575	$GPGGA,230405,2600.1093,N,07921.2666,W,1,7,2.1,16,M,,M,,*55
06/18/2015	23:04:05.570	$GPGGA,230406,2600.1096,N,07921.2673,W,1,7,2.1,16,M,,M,,*57
06/18/2015	23:04:06.540	$GPGGA,230407,2600.1097,N,07921.2678,W,1,7,2.1,16,M,,M,,*5C
06/18/2015	23:04:07.580	$GPGGA,230408,2600.1099,N,07921.2684,W,1,7,2.1,16,M,,M,,*5E
06/18/2015	23:04:08.550	$GPGGA,230409,2600.1100,N,07921.2688,W,1,7,2.1,16,M,,M,,*52
06/18/2015	23:04:09.530	$GPGGA,230410,2600.1102,N,07921.2695,W,1,7,2.1,16,M,,M,,*54
06/18/2015	23:04:10.540	$GPGGA,230411,2600.1104,N,07921.2699,W,1,7,2.1,16,M,,M,,*5F
06/18/2015	23:04:11.562	$GPGGA,230412,2600.1104,N,07921.2704,W,1,7,2.1,16,M,,M,,*59
06/18/2015	23:04:12.539	$GPGGA,230413,2600.1104,N,07921.2710,W,1,7,2.3,16,M,,M,,*5F
06/18/2015	23:04:13.555	$GPGGA,230414,2600.1107,N,07921.2715,W,1,6,2.3,16,M,,M,,*5F
06/18/2015	23:04:14.539	$GPGGA,230415,2600.1111,N,07921.2722,W,1,6,2.1,16,M,,M,,*5F
06/18/2015	23:04:15.579	$GPGGA,230416,2600.1115,N,07921.2728,W,1,7,2.1,16,M,,M,,*53
06/18/2015	23:04:16.539	$GPGGA,230417,2600.1118,N,07921.2733,W,1,7,2.1,16,M,,M,,*55
06/18/2015	23:04:17.519	$GPGGA,230418,2600.1120,N,07921.2739,W,1,7,2.1,16,M,,M,,*5B
06/18/2015	23:04:18.529	$GPGGA,230419,2600.1122,N,07921.2746,W,1,7,2.1,16,M,,M,,*50
06/18/2015	23:04:19.556	$GPGGA,230420,2600.1125,N,07921.2751,W,1,7,2.1,16,M,,M,,*5B
06/18/2015	23:04:20.529	$GPGGA,230421,2600.1126,N,07921.2757,W,1,7,2.1,16,M,,M,,*5F
06/18/2015	23:04:21.509	$GPGGA,230422,2600.1129,N,07921.2764,W,1,7,2.1,16,M,,M,,*53
06/18/2015	23:04:22.519	$GPGGA,230423,2600.1129,N,07921.2768,W,1,7,2.1,16,M,,M,,*5E
06/18/2015	23:04:23.563	$GPGGA,230424,2600.1133,N,07921.2775,W,1,6,2.3,17,M,,M,,*5C
06/18/2015	23:04:24.520	$GPGGA,230425,2600.1136,N,07921.2779,W,1,6,2.1,17,M,,M,,*56
06/18/2015	23:04:25.540	$GPGGA,230426,2600.1139,N,07921.2786,W,1,7,2.1,17,M,,M,,*5B
06/18/2015	23:04:26.500	$GPGGA,230427,2600.1142,N,07921.2793,W,1,7,2.1,17,M,,M,,*52
06/18/2015	23:04:27.520	$GPGGA,230428,2600.1141,N,07921.2797,W,1,7,2.1,17,M,,M,,*5A
06/18/2015	23:04:28.490	$GPGGA,230429,2600.1142,N,07921.2801,W,1,7,2.3,17,M,,M,,*5A
06/18/2015	23:04:29.520	$GPGGA,230430,2600.1143,N,07921.2807,W,1,6,2.3,17,M,,M,,*54
06/18/2015	23:04:30.489	$GPGGA,230431,2600.1146,N,07921.2814,W,1,6,2.1,17,M,,M,,*50
06/18/2015	23:04:32.619	$GPGGA,230433,2600.1147,N,07921.2823,W,1,7,2.1,17,M,,M,,*56
06/18/2015	23:04:33.499	$GPGGA,230434,2600.1147,N,07921.2829,W,1,6,2.3,17,M,,M,,*58
06/18/2015	23:04:34.499	$GPGGA,230435,2600.1151,N,07921.2834,W,1,6,2.1,17,M,,M,,*50
06/18/2015	23:04:35.549	$GPGGA,230436,2600.1151,N,07921.2840,W,1,7,2.1,17,M,,M,,*51
06/18/2015	23:04:36.499	$GPGGA,230437,2600.1154,N,07921.2845,W,1,7,2.1,17,M,,M,,*50
06/18/2015	23:04:37.499	$GPGGA,230438,2600.1154,N,07921.2850,W,1,7,2.1,17,M,,M,,*5B
06/18/2015	23:04:38.479	$GPGGA,230439,2600.1158,N,07921.2858,W,1,7,2.3,17,M,,M,,*5C
06/18/2015	23:04:39.529	$GPGGA,230440,2600.1161,N,07921.2863,W,1,7,2.1,16,M,,M,,*53
06/18/2015	23:04:40.499	$GPGGA,230441,2600.1164,N,07921.2869,W,1,7,2.1,16,M,,M,,*5D
06/18/2015	23:04:41.490	$GPGGA,230442,2600.1165,N,07921.2874,W,1,7,2.1,16,M,,M,,*53
06/18/2015	23:04:42.570	$GPGGA,230443,2600.1168,N,07921.2880,W,1,7,2.1,16,M,,M,,*54
06/18/2015	23:04:43.600	$GPGGA,230444,2600.1169,N,07921.2887,W,1,7,2.1,16,M,,M,,*55
06/18/2015	23:04:44.480	$GPGGA,230445,2600.1171,N,07921.2891,W,1,7,2.1,16,M,,M,,*5A
06/18/2015	23:04:45.580	$GPGGA,230446,2600.1172,N,07921.2897,W,1,7,2.1,16,M,,M,,*5C
06/18/2015	23:04:46.590	$GPGGA,230447,2600.1176,N,07921.2904,W,1,7,2.3,16,M,,M,,*50
06/18/2015	23:04:47.599	$GPGGA,230448,2600.1178,N,07921.2909,W,1,7,2.1,16,M,,M,,*5E
06/18/2015	23:04:48.479	$GPGGA,230449,2600.1179,N,07921.2915,W,1,7,2.1,16,M,,M,,*53
06/18/2015	23:04:49.463	$GPGGA,230450,2600.1180,N,07921.2920,W,1,6,2.3,16,M,,M,,*58
06/18/2015	23:04:50.568	$GPGGA,230451,2600.1183,N,07921.2927,W,1,6,2.3,16,M,,M,,*5D
06/18/2015	23:04:51.579	$GPGGA,230452,2600.1187,N,07921.2934,W,1,7,2.1,16,M,,M,,*5B
06/18/2015	23:04:52.549	$GPGGA,230453,2600.1194,N,07921.2941,W,1,7,2.1,16,M,,M,,*5A
06/18/2015	23:04:53.552	$GPGGA,230454,2600.1194,N,07921.2946,W,1,7,2.1,16,M,,M,,*5A
06/18/2015	23:04:54.539	$GPGGA,230455,2600.1198,N,07921.2952,W,1,7,2.3,16,M,,M,,*50
06/18/2015	23:04:55.609	$GPGGA,230456,2600.1203,N,07921.2959,W,1,7,2.1,16,M,,M,,*5B
06/18/2015	23:04:56.558	$GPGGA,230457,2600.1207,N,07921.2966,W,1,7,2.1,16,M,,M,,*52
06/18/2015	23:04:57.529	$GPGGA,230458,2600.1208,N,07921.2970,W,1,7,2.1,16,M,,M,,*55
06/18/2015	23:04:58.540	$GPGGA,230459,2600.1206,N,07921.2974,W,1,7,2.3,16,M,,M,,*5C
06/18/2015	23:04:59.570	$GPGGA,230500,2600.1208,N,07921.2980,W,1,7,2.1,16,M,,M,,*56
06/18/2015	23:05:00.530	$GPGGA,230501,2600.1209,N,07921.2985,W,1,7,2.1,16,M,,M,,*53
06/18/2015	23:05:01.551	$GPGGA,230502,2600.1211,N,07921.2991,W,1,6,2.3,16,M,,M,,*5F
06/18/2015	23:05:02.540	$GPGGA,230503,2600.1214,N,07921.2998,W,1,6,2.3,16,M,,M,,*52
06/18/2015	23:05:03.570	$GPGGA,230504,2600.1216,N,07921.3002,W,1,7,2.1,16,M,,M,,*5F
06/18/2015	23:05:04.529	$GPGGA,230505,2600.1216,N,07921.3007,W,1,7,2.1,16,M,,M,,*5B
06/18/2015	23:05:05.519	$GPGGA,230506,2600.1219,N,07921.3013,W,1,6,2.3,16,M,,M,,*51
06/18/2015	23:05:06.539	$GPGGA,230507,2600.1222,N,07921.3020,W,1,6,2.3,15,M,,M,,*5B
06/18/2015	23:05:07.519	$GPGGA,230508,2600.1225,N,07921.3027,W,1,7,2.1,15,M,,M,,*57
06/18/2015	23:05:08.519	$GPGGA,230509,2600.1227,N,07921.3031,W,1,7,2.1,15,M,,M,,*53
06/18/2015	23:05:09.509	$GPGGA,230510,2600.1230,N,07921.3038,W,1,7,2.1,15,M,,M,,*54
06/18/2015	23:05:10.509	$GPGGA,230511,2600.1234,N,07921.3045,W,1,7,2.1,15,M,,M,,*5B
06/18/2015	23:05:11.562	$GPGGA,230512,2600.1237,N,07921.3050,W,1,7,2.1,15,M,,M,,*5F
06/18/2015	23:05:12.509	$GPGGA,230513,2600.1240,N,07921.3056,W,1,7,2.1,15,M,,M,,*58
06/18/2015	23:05:13.519	$GPGGA,230514,2600.1244,N,07921.3063,W,1,7,2.1,15,M,,M,,*5D
06/18/2015	23:05:14.499	$GPGGA,230515,2600.1245,N,07921.3068,W,1,7,2.1,15,M,,M,,*56
06/18/2015	23:05:15.609	$GPGGA,230516,2600.1245,N,07921.3074,W,1,6,2.3,15,M,,M,,*5B
06/18/2015	23:05:16.500	$GPGGA,230517,2600.1250,N,07921.3081,W,1,6,2.3,15,M,,M,,*54
06/18/2015	23:05:17.630	$GPGGA,230518,2600.1255,N,07921.3087,W,1,7,2.1,15,M,,M,,*5B
06/18/2015	23:05:18.500	$GPGGA,230519,2600.1259,N,07921.3094,W,1,7,2.1,15,M,,M,,*54
06/18/2015	23:05:19.654	$GPGGA,230520,2600.1261,N,07921.3100,W,1,7,2.1,15,M,,M,,*59
06/18/2015	23:05:20.500	$GPGGA,230521,2600.1265,N,07921.3107,W,1,7,2.1,15,M,,M,,*5B
06/18/2015	23:05:21.610	$GPGGA,230522,2600.1266,N,07921.3111,W,1,7,2.3,15,M,,M,,*5E
06/18/2015	23:05:22.499	$GPGGA,230523,2600.1266,N,07921.3116,W,1,7,2.3,15,M,,M,,*58
06/18/2015	23:05:23.599	$GPGGA,230524,2600.1270,N,07921.3122,W,1,7,2.1,15,M,,M,,*5D
06/18/2015	23:05:24.499	$GPGGA,230525,2600.1270,N,07921.3128,W,1,7,2.1,15,M,,M,,*56
06/18/2015	23:05:25.519	$GPGGA,230526,2600.1270,N,07921.3133,W,1,6,2.3,15,M,,M,,*5C
06/18/2015	23:05:26.489	$GPGGA,230527,2600.1272,N,07921.3139,W,1,6,2.3,15,M,,M,,*55
06/18/2015	23:05:27.499	$GPGGA,230528,2600.1276,N,07921.3144,W,1,6,2.3,15,M,,M,,*54
06/18/2015	23:05:28.499	$GPGGA,230529,2600.1277,N,07921.3150,W,1,6,2.1,15,M,,M,,*53
06/18/2015	23:05:29.499	$GPGGA,230530,2600.1277,N,07921.3154,W,1,6,2.3,15,M,,M,,*5D
06/18/2015	23:05:30.489	$GPGGA,230531,2600.1280,N,07921.3161,W,1,6,2.1,15,M,,M,,*50
06/18/2015	23:05:31.479	$GPGGA,230532,2600.1281,N,07921.3165,W,1,7,2.1,15,M,,M,,*57
06/18/2015	23:05:32.569	$GPGGA,230533,2600.1283,N,07921.3172,W,1,7,2.1,14,M,,M,,*53
06/18/2015	23:05:33.580	$GPGGA,230534,2600.1286,N,07921.3176,W,1,7,2.3,14,M,,M,,*57
06/18/2015	23:05:34.580	$GPGGA,230535,2600.1288,N,07921.3183,W,1,7,2.1,14,M,,M,,*50
06/18/2015	23:05:35.600	$GPGGA,230536,2600.1292,N,07921.3190,W,1,7,2.1,14,M,,M,,*5A
06/18/2015	23:05:36.570	$GPGGA,230537,2600.1294,N,07921.3194,W,1,7,2.3,14,M,,M,,*5B
06/18/2015	23:05:37.590	$GPGGA,230538,2600.1299,N,07921.3201,W,1,6,2.1,14,M,,M,,*55
06/18/2015	23:05:38.561	$GPGGA,230539,2600.1302,N,07921.3208,W,1,6,2.1,14,M,,M,,*5E
06/18/2015	23:05:39.579	$GPGGA,230540,2600.1303,N,07921.3213,W,1,7,2.3,14,M,,M,,*58
06/18/2015	23:05:40.554	$GPGGA,230541,2600.1310,N,07921.3220,W,1,7,2.1,14,M,,M,,*59
06/18/2015	23:05:41.549	$GPGGA,230542,2600.1313,N,07921.3226,W,1,7,2.1,14,M,,M,,*5F
06/18/2015	23:05:42.549	$GPGGA,230543,2600.1312,N,07921.3231,W,1,7,2.3,14,M,,M,,*5B
06/18/2015	23:05:43.589	$GPGGA,230544,2600.1320,N,07921.3240,W,1,6,2.1,14,M,,M,,*58
06/18/2015	23:05:44.552	$GPGGA,230545,2600.1324,N,07921.3246,W,1,6,2.1,14,M,,M,,*5B
06/18/2015	23:05:45.559	$GPGGA,230546,2600.1328,N,07921.3252,W,1,7,2.1,14,M,,M,,*50
06/18/2015	23:05:46.539	$GPGGA,230547,2600.1328,N,07921.3258,W,1,7,2.3,14,M,,M,,*59
06/18/2015	23:05:47.589	$GPGGA,230548,2600.1331,N,07921.3263,W,1,6,2.1,14,M,,M,,*55
06/18/2015	23:05:48.539	$GPGGA,230549,2600.1330,N,07921.3269,W,1,6,2.1,14,M,,M,,*5F
06/18/2015	23:05:49.549	$GPGGA,230550,2600.1331,N,07921.3273,W,1,7,2.3,14,M,,M,,*5E
06/18/2015	23:05:50.529	$GPGGA,230551,2600.1333,N,07921.3278,W,1,7,2.3,14,M,,M,,*56
06/18/2015	23:05:51.570	$GPGGA,230552,2600.1335,N,07921.3285,W,1,6,2.1,14,M,,M,,*52
06/18/2015	23:05:52.530	$GPGGA,230553,2600.1337,N,07921.3291,W,1,6,2.3,14,M,,M,,*56
06/18/2015	23:05:53.565	$GPGGA,230554,2600.1338,N,07921.3295,W,1,6,2.3,14,M,,M,,*5A
06/18/2015	23:05:54.530	$GPGGA,230555,2600.1341,N,07921.3302,W,1,6,2.1,14,M,,M,,*58
06/18/2015	23:05:55.560	$GPGGA,230556,2600.1345,N,07921.3309,W,1,7,2.1,14,M,,M,,*55
06/18/2015	23:05:56.510	$GPGGA,230557,2600.1349,N,07921.3314,W,1,7,2.1,15,M,,M,,*55
06/18/2015	23:05:57.539	$GPGGA,230558,2600.1352,N,07921.3321,W,1,7,2.1,15,M,,M,,*56
06/18/2015	23:05:58.519	$GPGGA,230559,2600.1353,N,07921.3327,W,1,7,2.1,15,M,,M,,*50
06/18/2015	23:05:59.569	$GPGGA,230600,2600.1356,N,07921.3334,W,1,7,2.1,15,M,,M,,*58
06/18/2015	23:06:00.529	$GPGGA,230601,2600.1357,N,07921.3339,W,1,7,2.1,15,M,,M,,*55
06/18/2015	23:06:01.551	$GPGGA,230602,2600.1360,N,07921.3345,W,1,7,2.1,15,M,,M,,*59
06/18/2015	23:06:02.499	$GPGGA,230603,2600.1359,N,07921.3350,W,1,7,2.3,15,M,,M,,*54
06/18/2015	23:06:03.589	$GPGGA,230604,2600.1360,N,07921.3356,W,1,6,2.3,15,M,,M,,*5E
06/18/2015	23:06:04.509	$GPGGA,230605,2600.1362,N,07921.3360,W,1,6,2.1,15,M,,M,,*5A
06/18/2015	23:06:05.529	$GPGGA,230606,2600.1363,N,07921.3365,W,1,7,2.3,15,M,,M,,*5E
06/18/2015	23:06:06.509	$GPGGA,230607,2600.1367,N,07921.3372,W,1,7,2.1,15,M,,M,,*5F
06/18/2015	23:06:07.529	$GPGGA,230608,2600.1367,N,07921.3378,W,1,7,2.1,15,M,,M,,*5A
06/18/2015	23:06:08.500	$GPGGA,230609,2600.1368,N,07921.3382,W,1,7,2.3,15,M,,M,,*53
06/18/2015	23:06:09.500	$GPGGA,230610,2600.1371,N,07921.3389,W,1,6,2.3,15,M,,M,,*59
06/18/2015	23:06:10.610	$GPGGA,230611,2600.1377,N,07921.3396,W,1,6,2.1,15,M,,M,,*52
06/18/2015	23:06:11.520	$GPGGA,230612,2600.1381,N,07921.3403,W,1,7,2.1,15,M,,M,,*52
06/18/2015	23:06:12.510	$GPGGA,230613,2600.1385,N,07921.3410,W,1,7,2.1,15,M,,M,,*55
06/18/2015	23:06:13.500	$GPGGA,230614,2600.1386,N,07921.3414,W,1,7,2.3,15,M,,M,,*57
06/18/2015	23:06:14.599	$GPGGA,230615,2600.1386,N,07921.3419,W,1,7,2.3,15,M,,M,,*5B
06/18/2015	23:06:15.552	$GPGGA,230616,2600.1388,N,07921.3425,W,1,6,2.3,15,M,,M,,*58
06/18/2015	23:06:16.569	$GPGGA,230617,2600.1389,N,07921.3429,W,1,6,2.3,15,M,,M,,*54
06/18/2015	23:06:17.569	$GPGGA,230618,2600.1393,N,07921.3436,W,1,6,2.1,15,M,,M,,*5C
06/18/2015	23:06:18.499	$GPGGA,230619,2600.1393,N,07921.3441,W,1,6,2.3,15,M,,M,,*5F
06/18/2015	23:06:19.619	$GPGGA,230620,2600.1395,N,07921.3447,W,1,6,2.3,15,M,,M,,*55
06/18/2015	23:06:20.589	$GPGGA,230621,2600.1396,N,07921.3452,W,1,6,2.3,15,M,,M,,*53
06/18/2015	23:06:21.559	$GPGGA,230622,2600.1399,N,07921.3457,W,1,6,2.3,15,M,,M,,*5A
06/18/2015	23:06:22.479	$GPGGA,230623,2600.1402,N,07921.3464,W,1,6,2.1,15,M,,M,,*5C
06/18/2015	23:06:23.579	$GPGGA,230624,2600.1409,N,07921.3470,W,1,7,2.1,15,M,,M,,*54
06/18/2015	23:06:24.559	$GPGGA,230625,2600.1410,N,07921.3476,W,1,7,2.3,15,M,,M,,*59
06/18/2015	23:06:25.569	$GPGGA,230626,2600.1411,N,07921.3480,W,1,6,2.3,15,M,,M,,*53
06/18/2015	23:06:27.611	$GPGGA,230628,2600.1414,N,07921.3493,W,1,7,2.1,15,M,,M,,*59
06/18/2015	23:06:28.557	$GPGGA,230629,2600.1420,N,07921.3498,W,1,7,2.1,15,M,,M,,*54
06/18/2015	23:06:29.580	$GPGGA,230630,2600.1421,N,07921.3504,W,1,7,2.1,15,M,,M,,*59
06/18/2015	23:06:30.551	$GPGGA,230631,2600.1421,N,07921.3504,W,1,7,2.3,15,M,,M,,*5A
06/18/2015	23:06:31.590	$GPGGA,230632,2600.1429,N,07921.3517,W,1,7,2.1,15,M,,M,,*51
06/18/2015	23:06:32.539	$GPGGA,230633,2600.1432,N,07921.3523,W,1,7,2.1,15,M,,M,,*5D
06/18/2015	23:06:33.549	$GPGGA,230634,2600.1433,N,07921.3529,W,1,7,2.1,15,M,,M,,*51
06/18/2015	23:06:34.539	$GPGGA,230635,2600.1435,N,07921.3534,W,1,7,2.1,15,M,,M,,*5A
06/18/2015	23:06:35.579	$GPGGA,230636,2600.1436,N,07921.3540,W,1,6,2.3,15,M,,M,,*5A
06/18/2015	23:06:36.539	$GPGGA,230637,2600.1440,N,07921.3545,W,1,6,2.3,15,M,,M,,*5F
06/18/2015	23:06:37.554	$GPGGA,230638,2600.1443,N,07921.3551,W,1,7,2.1,15,M,,M,,*55
06/18/2015	23:06:38.530	$GPGGA,230639,2600.1446,N,07921.3559,W,1,7,2.1,15,M,,M,,*59
06/18/2015	23:06:39.566	$GPGGA,230640,2600.1447,N,07921.3563,W,1,7,2.1,15,M,,M,,*5F
06/18/2015	23:06:40.529	$GPGGA,230641,2600.1450,N,07921.3569,W,1,7,2.3,15,M,,M,,*50
06/18/2015	23:06:41.519	$GPGGA,230642,2600.1453,N,07921.3576,W,1,7,2.1,15,M,,M,,*5C
06/18/2015	23:06:42.529	$GPGGA,230643,2600.1454,N,07921.3581,W,1,7,2.9,15,M,,M,,*5A
06/18/2015	23:06:43.552	$GPGGA,230644,2600.1458,N,07921.3587,W,1,7,2.1,15,M,,M,,*5F
06/18/2015	23:06:44.520	$GPGGA,230645,2600.1461,N,07921.3594,W,1,7,2.1,15,M,,M,,*56
06/18/2015	23:06:45.552	$GPGGA,230646,2600.1464,N,07921.3599,W,1,7,2.1,15,M,,M,,*5D
06/18/2015	23:06:46.520	$GPGGA,230647,2600.1465,N,07921.3605,W,1,7,2.1,15,M,,M,,*5B
06/18/2015	23:06:47.520	$GPGGA,230648,2600.1472,N,07921.3611,W,1,6,2.3,15,M,,M,,*54
06/18/2015	23:06:48.500	$GPGGA,230649,2600.1474,N,07921.3617,W,1,6,2.1,15,M,,M,,*57
06/18/2015	23:06:49.509	$GPGGA,230650,2600.1478,N,07921.3624,W,1,7,2.1,15,M,,M,,*52
06/18/2015	23:06:50.529	$GPGGA,230651,2600.1479,N,07921.3629,W,1,7,2.1,15,M,,M,,*5F
06/18/2015	23:06:51.509	$GPGGA,230652,2600.1483,N,07921.3636,W,1,6,2.3,15,M,,M,,*54
06/18/2015	23:06:52.519	$GPGGA,230653,2600.1487,N,07921.3642,W,1,6,2.1,15,M,,M,,*50
06/18/2015	23:06:53.509	$GPGGA,230654,2600.1490,N,07921.3649,W,1,7,2.1,15,M,,M,,*5B
06/18/2015	23:06:55.579	$GPGGA,230656,2600.1496,N,07921.3661,W,1,7,2.1,15,M,,M,,*55
06/18/2015	23:06:56.609	$GPGGA,230657,2600.1497,N,07921.3667,W,1,7,2.9,15,M,,M,,*5B
06/18/2015	23:06:57.499	$GPGGA,230658,2600.1501,N,07921.3672,W,1,7,2.1,15,M,,M,,*56
06/18/2015	23:06:58.489	$GPGGA,230659,2600.1505,N,07921.3681,W,1,7,2.1,15,M,,M,,*5F
06/18/2015	23:06:59.539	$GPGGA,230700,2600.1508,N,07921.3686,W,1,7,2.1,15,M,,M,,*58
06/18/2015	23:07:00.599	$GPGGA,230701,2600.1511,N,07921.3692,W,1,7,2.1,16,M,,M,,*57
06/18/2015	23:07:01.510	$GPGGA,230702,2600.1514,N,07921.3699,W,1,7,2.1,16,M,,M,,*5A
06/18/2015	23:07:02.470	$GPGGA,230703,2600.1514,N,07921.3699,W,1,7,2.1,16,M,,M,,*5B
06/18/2015	23:07:03.960	$GPGGA,230704,2600.1516,N,07921.3710,W,1,6,2.3,16,M,,M,,*5D
06/18/2015	23:07:04.490	$GPGGA,230705,2600.1519,N,07921.3717,W,1,6,2.1,16,M,,M,,*56
06/18/2015	23:07:05.490	$GPGGA,230706,2600.1522,N,07921.3723,W,1,7,2.1,16,M,,M,,*5B
06/18/2015	23:07:06.480	$GPGGA,230707,2600.1523,N,07921.3729,W,1,7,2.1,16,M,,M,,*51
06/18/2015	23:07:07.619	$GPGGA,230708,2600.1526,N,07921.3735,W,1,7,2.1,16,M,,M,,*56
06/18/2015	23:07:08.559	$GPGGA,230709,2600.1529,N,07921.3740,W,1,7,2.1,16,M,,M,,*5A
06/18/2015	23:07:09.569	$GPGGA,230710,2600.1530,N,07921.3746,W,1,7,2.1,16,M,,M,,*5C
06/18/2015	23:07:10.559	$GPGGA,230711,2600.1534,N,07921.3751,W,1,7,2.1,16,M,,M,,*5F
06/18/2015	23:07:11.579	$GPGGA,230712,2600.1537,N,07921.3757,W,1,7,2.1,16,M,,M,,*59
06/18/2015	23:07:12.559	$GPGGA,230713,2600.1540,N,07921.3764,W,1,7,2.1,16,M,,M,,*58
06/18/2015	23:07:13.579	$GPGGA,230714,2600.1544,N,07921.3769,W,1,7,2.1,17,M,,M,,*57
06/18/2015	23:07:14.569	$GPGGA,230715,2600.1545,N,07921.3775,W,1,7,2.1,17,M,,M,,*5A
06/18/2015	23:07:15.589	$GPGGA,230716,2600.1548,N,07921.3782,W,1,7,2.1,17,M,,M,,*5C
06/18/2015	23:07:16.551	$GPGGA,230717,2600.1552,N,07921.3787,W,1,7,2.1,17,M,,M,,*53
06/18/2015	23:07:17.579	$GPGGA,230718,2600.1552,N,07921.3793,W,1,7,2.1,17,M,,M,,*59
06/18/2015	23:07:18.550	$GPGGA,230719,2600.1555,N,07921.3800,W,1,7,2.1,17,M,,M,,*5A
06/18/2015	23:07:19.590	$GPGGA,230720,2600.1559,N,07921.3805,W,1,7,2.1,17,M,,M,,*59
06/18/2015	23:07:20.561	$GPGGA,230721,2600.1561,N,07921.3811,W,1,7,2.1,17,M,,M,,*56
06/18/2015	23:07:21.560	$GPGGA,230722,2600.1563,N,07921.3816,W,1,7,2.1,17,M,,M,,*50
06/18/2015	23:07:22.540	$GPGGA,230723,2600.1563,N,07921.3822,W,1,7,2.1,17,M,,M,,*56
06/18/2015	23:07:23.560	$GPGGA,230724,2600.1568,N,07921.3827,W,1,6,2.3,17,M,,M,,*5C
06/18/2015	23:07:24.539	$GPGGA,230725,2600.1570,N,07921.3833,W,1,6,2.1,17,M,,M,,*53
06/18/2015	23:07:25.552	$GPGGA,230726,2600.1572,N,07921.3838,W,1,7,2.1,17,M,,M,,*58
06/18/2015	23:07:26.529	$GPGGA,230727,2600.1573,N,07921.3844,W,1,7,2.3,17,M,,M,,*51
06/18/2015	23:07:27.552	$GPGGA,230728,2600.1574,N,07921.3848,W,1,7,2.1,17,M,,M,,*57
06/18/2015	23:07:28.529	$GPGGA,230729,2600.1576,N,07921.3855,W,1,7,2.1,17,M,,M,,*58
06/18/2015	23:07:29.529	$GPGGA,230730,2600.1577,N,07921.3859,W,1,6,2.3,17,M,,M,,*5E
06/18/2015	23:07:30.529	$GPGGA,230731,2600.1581,N,07921.3866,W,1,6,2.3,17,M,,M,,*5A
06/18/2015	23:07:31.559	$GPGGA,230732,2600.1584,N,07921.3870,W,1,7,2.1,17,M,,M,,*58
06/18/2015	23:07:32.509	$GPGGA,230733,2600.1586,N,07921.3876,W,1,7,2.1,17,M,,M,,*5D
06/18/2015	23:07:33.529	$GPGGA,230734,2600.1588,N,07921.3881,W,1,7,2.1,17,M,,M,,*5C
06/18/2015	23:07:34.509	$GPGGA,230735,2600.1591,N,07921.3887,W,1,7,2.1,17,M,,M,,*53
06/18/2015	23:07:35.539	$GPGGA,230736,2600.1594,N,07921.3894,W,1,7,2.1,17,M,,M,,*57
06/18/2015	23:07:36.510	$GPGGA,230737,2600.1595,N,07921.3898,W,1,7,2.1,17,M,,M,,*5B
06/18/2015	23:07:37.510	$GPGGA,230738,2600.1595,N,07921.3903,W,1,6,2.3,17,M,,M,,*54
06/18/2015	23:07:38.500	$GPGGA,230739,2600.1597,N,07921.3909,W,1,6,2.1,17,M,,M,,*5F
06/18/2015	23:07:39.551	$GPGGA,230740,2600.1596,N,07921.3913,W,1,7,2.1,17,M,,M,,*5A
06/18/2015	23:07:40.520	$GPGGA,230741,2600.1599,N,07921.3918,W,1,7,2.1,17,M,,M,,*5F
06/18/2015	23:07:41.500	$GPGGA,230742,2600.1601,N,07921.3924,W,1,7,2.1,17,M,,M,,*51
06/18/2015	23:07:42.539	$GPGGA,230743,2600.1602,N,07921.3930,W,1,7,2.1,17,M,,M,,*56
06/18/2015	23:07:43.529	$GPGGA,230744,2600.1606,N,07921.3935,W,1,7,2.1,17,M,,M,,*50
06/18/2015	23:07:44.509	$GPGGA,230745,2600.1608,N,07921.3941,W,1,7,2.1,17,M,,M,,*5C
06/18/2015	23:07:45.619	$GPGGA,230746,2600.1612,N,07921.3949,W,1,6,2.3,17,M,,M,,*5F
06/18/2015	23:07:46.479	$GPGGA,230747,2600.1617,N,07921.3954,W,1,6,2.1,17,M,,M,,*55
06/18/2015	23:07:47.629	$GPGGA,230748,2600.1620,N,07921.3961,W,1,7,2.1,17,M,,M,,*59
06/18/2015	23:07:48.499	$GPGGA,230749,2600.1623,N,07921.3967,W,1,7,2.1,17,M,,M,,*5D
06/18/2015	23:07:49.499	$GPGGA,230750,2600.1624,N,07921.3972,W,1,7,2.1,17,M,,M,,*56
06/18/2015	23:07:50.499	$GPGGA,230751,2600.1626,N,07921.3978,W,1,7,2.3,17,M,,M,,*5D
06/18/2015	23:07:51.609	$GPGGA,230752,2600.1628,N,07921.3983,W,1,7,2.1,17,M,,M,,*56
06/18/2015	23:07:52.489	$GPGGA,230753,2600.1631,N,07921.3989,W,1,7,2.1,17,M,,M,,*55
06/18/2015	23:07:53.470	$GPGGA,230754,2600.1634,N,07921.3996,W,1,7,2.1,17,M,,M,,*59
06/18/2015	23:07:54.580	$GPGGA,230755,2600.1637,N,07921.4001,W,1,7,2.1,17,M,,M,,*5B
06/18/2015	23:07:55.500	$GPGGA,230756,2600.1638,N,07921.4007,W,1,7,2.1,17,M,,M,,*51
06/18/2015	23:07:56.568	$GPGGA,230757,2600.1641,N,07921.4012,W,1,7,2.1,17,M,,M,,*5A
06/18/2015	23:07:57.580	$GPGGA,230758,2600.1642,N,07921.4018,W,1,7,2.1,17,M,,M,,*5C
06/18/2015	23:07:58.560	$GPGGA,230759,2600.1646,N,07921.4025,W,1,7,2.1,17,M,,M,,*57
06/18/2015	23:07:59.599	$GPGGA,230800,2600.1648,N,07921.4030,W,1,7,2.1,17,M,,M,,*5E
06/18/2015	23:08:00.550	$GPGGA,230801,2600.1649,N,07921.4036,W,1,7,2.1,17,M,,M,,*58
06/18/2015	23:08:01.553	$GPGGA,230802,2600.1652,N,07921.4042,W,1,7,2.1,17,M,,M,,*52
06/18/2015	23:08:02.569	$GPGGA,230803,2600.1653,N,07921.4047,W,1,7,2.1,17,M,,M,,*57
06/18/2015	23:08:03.589	$GPGGA,230804,2600.1656,N,07921.4053,W,1,7,2.1,17,M,,M,,*50
06/18/2015	23:08:04.551	$GPGGA,230805,2600.1659,N,07921.4059,W,1,7,2.1,17,M,,M,,*54
06/18/2015	23:08:05.569	$GPGGA,230806,2600.1660,N,07921.4065,W,1,7,2.1,17,M,,M,,*52
06/18/2015	23:08:06.539	$GPGGA,230807,2600.1662,N,07921.4071,W,1,7,2.1,17,M,,M,,*54
06/18/2015	23:08:07.579	$GPGGA,230808,2600.1663,N,07921.4075,W,1,6,2.3,17,M,,M,,*5D
06/18/2015	23:08:08.539	$GPGGA,230809,2600.1667,N,07921.4083,W,1,6,2.3,17,M,,M,,*51
06/18/2015	23:08:09.549	$GPGGA,230810,2600.1671,N,07921.4090,W,1,7,2.1,17,M,,M,,*5F
06/18/2015	23:08:10.549	$GPGGA,230811,2600.1674,N,07921.4095,W,1,7,2.1,17,M,,M,,*5E
06/18/2015	23:08:11.570	$GPGGA,230812,2600.1673,N,07921.4100,W,1,7,2.1,17,M,,M,,*57
06/18/2015	23:08:12.530	$GPGGA,230813,2600.1680,N,07921.4108,W,1,7,2.3,17,M,,M,,*50
06/18/2015	23:08:13.520	$GPGGA,230814,2600.1682,N,07921.4113,W,1,7,2.1,17,M,,M,,*5D
06/18/2015	23:08:14.540	$GPGGA,230815,2600.1685,N,07921.4119,W,1,7,2.1,17,M,,M,,*51
06/18/2015	23:08:15.540	$GPGGA,230816,2600.1688,N,07921.4124,W,1,7,2.1,17,M,,M,,*51
06/18/2015	23:08:16.530	$GPGGA,230817,2600.1689,N,07921.4129,W,1,7,2.1,17,M,,M,,*5C
06/18/2015	23:08:17.539	$GPGGA,230818,2600.1691,N,07921.4136,W,1,7,2.1,17,M,,M,,*54
06/18/2015	23:08:18.519	$GPGGA,230819,2600.1693,N,07921.4141,W,1,7,2.1,17,M,,M,,*57
06/18/2015	23:08:19.552	$GPGGA,230820,2600.1695,N,07921.4147,W,1,7,2.1,17,M,,M,,*5D
06/18/2015	23:08:20.519	$GPGGA,230821,2600.1696,N,07921.4152,W,1,7,2.1,17,M,,M,,*5B
06/18/2015	23:08:21.529	$GPGGA,230822,2600.1698,N,07921.4158,W,1,7,2.1,17,M,,M,,*5C
06/18/2015	23:08:22.519	$GPGGA,230823,2600.1700,N,07921.4163,W,1,7,2.1,17,M,,M,,*55
06/18/2015	23:08:23.519	$GPGGA,230824,2600.1702,N,07921.4169,W,1,7,2.1,17,M,,M,,*5A
06/18/2015	23:08:24.519	$GPGGA,230825,2600.1704,N,07921.4174,W,1,7,2.1,17,M,,M,,*51
06/18/2015	23:08:25.519	$GPGGA,230826,2600.1707,N,07921.4180,W,1,7,2.1,17,M,,M,,*5A
06/18/2015	23:08:26.669	$GPGGA,230827,2600.1710,N,07921.4187,W,1,7,2.1,17,M,,M,,*5A
06/18/2015	23:08:27.519	$GPGGA,230828,2600.1711,N,07921.4192,W,1,7,2.1,17,M,,M,,*50
06/18/2015	23:08:28.490	$GPGGA,230829,2600.1714,N,07921.4198,W,1,7,2.1,17,M,,M,,*5E
06/18/2015	23:08:29.511	$GPGGA,230830,2600.1718,N,07921.4205,W,1,7,2.1,17,M,,M,,*5D
06/18/2015	23:08:30.500	$GPGGA,230831,2600.1720,N,07921.4210,W,1,7,2.1,17,M,,M,,*53
06/18/2015	23:08:31.661	$GPGGA,230832,2600.1721,N,07921.4216,W,1,7,2.1,17,M,,M,,*57
06/18/2015	23:08:32.490	$GPGGA,230833,2600.1725,N,07921.4221,W,1,7,2.1,17,M,,M,,*56
06/18/2015	23:08:33.480	$GPGGA,230834,2600.1727,N,07921.4227,W,1,7,2.1,17,M,,M,,*55
06/18/2015	23:08:34.499	$GPGGA,230835,2600.1729,N,07921.4232,W,1,7,2.1,17,M,,M,,*5E
06/18/2015	23:08:35.539	$GPGGA,230836,2600.1732,N,07921.4238,W,1,7,2.1,17,M,,M,,*5D
06/18/2015	23:08:36.489	$GPGGA,230837,2600.1735,N,07921.4243,W,1,7,2.1,17,M,,M,,*57
06/18/2015	23:08:37.479	$GPGGA,230838,2600.1738,N,07921.4249,W,1,7,2.1,17,M,,M,,*5F
06/18/2015	23:08:38.479	$GPGGA,230839,2600.1740,N,07921.4256,W,1,7,2.1,17,M,,M,,*5F
06/18/2015	23:08:39.479	$GPGGA,230840,2600.1743,N,07921.4261,W,1,7,2.1,17,M,,M,,*56
06/18/2015	23:08:40.499	$GPGGA,230841,2600.1746,N,07921.4267,W,1,7,2.1,17,M,,M,,*54
06/18/2015	23:08:41.589	$GPGGA,230842,2600.1749,N,07921.4274,W,1,7,2.1,17,M,,M,,*5A
06/18/2015	23:08:42.639	$GPGGA,230843,2600.1750,N,07921.4279,W,1,7,2.1,17,M,,M,,*5E
06/18/2015	23:08:43.661	$GPGGA,230844,2600.1754,N,07921.4285,W,1,7,2.1,17,M,,M,,*5E
06/18/2015	23:08:44.639	$GPGGA,230845,2600.1756,N,07921.4292,W,1,7,2.1,17,M,,M,,*5B
06/18/2015	23:08:45.639	$GPGGA,230846,2600.1758,N,07921.4297,W,1,7,2.1,17,M,,M,,*53
06/18/2015	23:08:46.560	$GPGGA,230847,2600.1761,N,07921.4303,W,1,7,2.1,17,M,,M,,*54
06/18/2015	23:08:47.640	$GPGGA,230848,2600.1764,N,07921.4310,W,1,7,2.1,17,M,,M,,*5C
06/18/2015	23:08:48.620	$GPGGA,230849,2600.1767,N,07921.4315,W,1,7,2.1,17,M,,M,,*5B
06/18/2015	23:08:49.552	$GPGGA,230850,2600.1768,N,07921.4321,W,1,7,2.1,17,M,,M,,*5B
06/18/2015	23:08:51.082	$GPGGA,230851,2600.1772,N,07921.4326,W,1,7,2.1,17,M,,M,,*56
06/18/2015	23:08:51.600	$GPGGA,230852,2600.1775,N,07921.4332,W,1,7,2.1,17,M,,M,,*57
06/18/2015	23:08:52.549	$GPGGA,230853,2600.1778,N,07921.4339,W,1,7,2.1,17,M,,M,,*50
06/18/2015	23:08:53.599	$GPGGA,230854,2600.1779,N,07921.4343,W,1,7,2.1,17,M,,M,,*5B
06/18/2015	23:08:54.619	$GPGGA,230855,2600.1783,N,07921.4350,W,1,7,2.1,17,M,,M,,*5D
06/18/2015	23:08:55.599	$GPGGA,230856,2600.1785,N,07921.4357,W,1,7,2.1,17,M,,M,,*5F
06/18/2015	23:08:56.609	$GPGGA,230857,2600.1787,N,07921.4361,W,1,7,2.1,17,M,,M,,*59
06/18/2015	23:08:57.619	$GPGGA,230858,2600.1790,N,07921.4368,W,1,7,2.1,17,M,,M,,*59
06/18/2015	23:08:58.609	$GPGGA,230859,2600.1793,N,07921.4373,W,1,7,2.1,17,M,,M,,*51
06/18/2015	23:08:59.599	$GPGGA,230900,2600.1794,N,07921.4379,W,1,7,2.1,16,M,,M,,*50
06/18/2015	23:09:00.609	$GPGGA,230901,2600.1796,N,07921.4384,W,1,7,2.1,16,M,,M,,*51
06/18/2015	23:09:01.529	$GPGGA,230902,2600.1800,N,07921.4390,W,1,7,2.1,16,M,,M,,*57
06/18/2015	23:09:02.599	$GPGGA,230903,2600.1801,N,07921.4397,W,1,7,2.1,16,M,,M,,*50
06/18/2015	23:09:03.640	$GPGGA,230904,2600.1804,N,07921.4401,W,1,7,2.1,16,M,,M,,*5A
06/18/2015	23:09:04.520	$GPGGA,230905,2600.1807,N,07921.4408,W,1,7,2.1,16,M,,M,,*51
06/18/2015	23:09:05.553	$GPGGA,230906,2600.1810,N,07921.4413,W,1,7,2.1,16,M,,M,,*5E
06/18/2015	23:09:06.600	$GPGGA,230907,2600.1812,N,07921.4418,W,1,7,2.1,16,M,,M,,*56
06/18/2015	23:09:07.600	$GPGGA,230908,2600.1812,N,07921.4423,W,1,7,2.1,16,M,,M,,*51
06/18/2015	23:09:08.570	$GPGGA,230909,2600.1815,N,07921.4429,W,1,7,2.1,16,M,,M,,*5D
06/18/2015	23:09:09.569	$GPGGA,230910,2600.1819,N,07921.4436,W,1,7,2.1,16,M,,M,,*57
06/18/2015	23:09:10.509	$GPGGA,230911,2600.1819,N,07921.4440,W,1,7,2.1,16,M,,M,,*57
06/18/2015	23:09:11.599	$GPGGA,230912,2600.1823,N,07921.4447,W,1,7,2.1,16,M,,M,,*5A
06/18/2015	23:09:12.570	$GPGGA,230913,2600.1826,N,07921.4451,W,1,7,2.1,16,M,,M,,*59
06/18/2015	23:09:13.539	$GPGGA,230914,2600.1828,N,07921.4458,W,1,7,2.1,16,M,,M,,*59
06/18/2015	23:09:14.499	$GPGGA,230915,2600.1830,N,07921.4463,W,1,7,2.1,16,M,,M,,*59
06/18/2015	23:09:15.579	$GPGGA,230916,2600.1833,N,07921.4469,W,1,7,2.1,16,M,,M,,*53
06/18/2015	23:09:16.551	$GPGGA,230917,2600.1836,N,07921.4474,W,1,7,2.1,16,M,,M,,*5B
06/18/2015	23:09:17.519	$GPGGA,230918,2600.1837,N,07921.4480,W,1,7,2.1,16,M,,M,,*5E
06/18/2015	23:09:18.489	$GPGGA,230919,2600.1840,N,07921.4485,W,1,7,2.1,16,M,,M,,*5A
06/18/2015	23:09:19.556	$GPGGA,230920,2600.1843,N,07921.4491,W,1,7,2.1,16,M,,M,,*56
06/18/2015	23:09:20.553	$GPGGA,230921,2600.1844,N,07921.4498,W,1,7,2.1,16,M,,M,,*59
06/18/2015	23:09:21.600	$GPGGA,230922,2600.1847,N,07921.4503,W,1,7,2.1,16,M,,M,,*5A
06/18/2015	23:09:22.560	$GPGGA,230923,2600.1848,N,07921.4509,W,1,7,2.1,16,M,,M,,*5E
06/18/2015	23:09:23.562	$GPGGA,230924,2600.1852,N,07921.4514,W,1,7,2.1,16,M,,M,,*5E
06/18/2015	23:09:24.540	$GPGGA,230925,2600.1854,N,07921.4521,W,1,7,2.1,16,M,,M,,*5F
06/18/2015	23:09:25.590	$GPGGA,230926,2600.1855,N,07921.4525,W,1,7,2.3,16,M,,M,,*5B
06/18/2015	23:09:26.580	$GPGGA,230927,2600.1855,N,07921.4531,W,1,7,2.3,16,M,,M,,*5F
06/18/2015	23:09:27.599	$GPGGA,230928,2600.1858,N,07921.4538,W,1,6,2.1,16,M,,M,,*57
06/18/2015	23:09:28.539	$GPGGA,230929,2600.1857,N,07921.4542,W,1,6,2.3,16,M,,M,,*56
06/18/2015	23:09:29.569	$GPGGA,230930,2600.1859,N,07921.4548,W,1,6,2.3,16,M,,M,,*5A
06/18/2015	23:09:30.579	$GPGGA,230931,2600.1861,N,07921.4555,W,1,6,2.3,16,M,,M,,*5C
06/18/2015	23:09:31.609	$GPGGA,230932,2600.1866,N,07921.4561,W,1,6,2.1,16,M,,M,,*5D
06/18/2015	23:09:32.564	$GPGGA,230933,2600.1866,N,07921.4566,W,1,6,2.3,16,M,,M,,*59
06/18/2015	23:09:33.559	$GPGGA,230934,2600.1869,N,07921.4574,W,1,6,2.1,16,M,,M,,*50
06/18/2015	23:09:34.564	$GPGGA,230935,2600.1873,N,07921.4581,W,1,6,2.1,16,M,,M,,*50
06/18/2015	23:09:35.609	$GPGGA,230936,2600.1873,N,07921.4586,W,1,7,2.3,16,M,,M,,*57
06/18/2015	23:09:36.561	$GPGGA,230937,2600.1879,N,07921.4593,W,1,7,2.1,16,M,,M,,*5A
06/18/2015	23:09:37.562	$GPGGA,230938,2600.1880,N,07921.4599,W,1,7,2.1,16,M,,M,,*59
06/18/2015	23:09:38.570	$GPGGA,230939,2600.1881,N,07921.4606,W,1,7,2.1,16,M,,M,,*5C
06/18/2015	23:09:39.656	$GPGGA,230940,2600.1883,N,07921.4613,W,1,7,2.1,16,M,,M,,*54
06/18/2015	23:09:40.556	$GPGGA,230941,2600.1886,N,07921.4618,W,1,7,2.1,16,M,,M,,*5B
06/18/2015	23:09:41.570	$GPGGA,230942,2600.1888,N,07921.4625,W,1,7,2.1,16,M,,M,,*58
06/18/2015	23:09:42.540	$GPGGA,230943,2600.1888,N,07921.4632,W,1,7,2.3,16,M,,M,,*5D
06/18/2015	23:09:43.590	$GPGGA,230944,2600.1888,N,07921.4636,W,1,6,2.3,16,M,,M,,*5F
06/18/2015	23:09:44.561	$GPGGA,230945,2600.1888,N,07921.4642,W,1,6,2.3,16,M,,M,,*5D
06/18/2015	23:09:45.560	$GPGGA,230946,2600.1891,N,07921.4650,W,1,6,2.1,16,M,,M,,*57
06/18/2015	23:09:46.539	$GPGGA,230947,2600.1893,N,07921.4655,W,1,6,2.3,16,M,,M,,*53
06/18/2015	23:09:47.571	$GPGGA,230948,2600.1894,N,07921.4660,W,1,6,2.3,16,M,,M,,*5D
06/18/2015	23:09:48.589	$GPGGA,230949,2600.1895,N,07921.4667,W,1,6,2.3,16,M,,M,,*5A
06/18/2015	23:09:49.549	$GPGGA,230950,2600.1897,N,07921.4673,W,1,6,2.1,16,M,,M,,*57
06/18/2015	23:09:50.549	$GPGGA,230951,2600.1898,N,07921.4679,W,1,6,2.3,16,M,,M,,*51
06/18/2015	23:09:51.569	$GPGGA,230952,2600.1901,N,07921.4686,W,1,6,2.3,16,M,,M,,*53
06/18/2015	23:09:52.529	$GPGGA,230953,2600.1901,N,07921.4686,W,1,6,2.1,16,M,,M,,*50
06/18/2015	23:09:53.519	$GPGGA,230954,2600.1906,N,07921.4698,W,1,7,2.1,16,M,,M,,*5E
06/18/2015	23:09:54.539	$GPGGA,230955,2600.1906,N,07921.4704,W,1,7,2.3,16,M,,M,,*59
06/18/2015	23:09:55.560	$GPGGA,230956,2600.1904,N,07921.4709,W,1,6,2.1,16,M,,M,,*56
06/18/2015	23:09:56.540	$GPGGA,230957,2600.1905,N,07921.4715,W,1,6,2.1,16,M,,M,,*5B
06/18/2015	23:09:57.530	$GPGGA,230958,2600.1906,N,07921.4720,W,1,7,2.1,15,M,,M,,*53
06/18/2015	23:09:58.580	$GPGGA,230959,2600.1906,N,07921.4726,W,1,7,2.1,15,M,,M,,*54
06/18/2015	23:09:59.570	$GPGGA,231000,2600.1909,N,07921.4733,W,1,7,2.1,15,M,,M,,*5B
06/18/2015	23:10:00.550	$GPGGA,231001,2600.1913,N,07921.4740,W,1,7,2.1,15,M,,M,,*55
06/18/2015	23:10:01.510	$GPGGA,231002,2600.1916,N,07921.4747,W,1,7,2.1,15,M,,M,,*54
06/18/2015	23:10:02.519	$GPGGA,231003,2600.1916,N,07921.4747,W,1,7,2.1,15,M,,M,,*55
06/18/2015	23:10:03.539	$GPGGA,231004,2600.1919,N,07921.4754,W,1,7,2.1,15,M,,M,,*5F
06/18/2015	23:10:04.539	$GPGGA,231005,2600.1924,N,07921.4766,W,1,7,2.1,15,M,,M,,*51
06/18/2015	23:10:05.609	$GPGGA,231006,2600.1927,N,07921.4773,W,1,7,2.1,15,M,,M,,*55
06/18/2015	23:10:06.609	$GPGGA,231007,2600.1930,N,07921.4780,W,1,7,2.1,15,M,,M,,*5E
06/18/2015	23:10:07.519	$GPGGA,231008,2600.1933,N,07921.4787,W,1,7,2.1,15,M,,M,,*55
06/18/2015	23:10:08.529	$GPGGA,231009,2600.1935,N,07921.4794,W,1,7,2.1,15,M,,M,,*50
06/18/2015	23:10:09.479	$GPGGA,231010,2600.1938,N,07921.4801,W,1,7,2.1,15,M,,M,,*56
06/18/2015	23:10:10.519	$GPGGA,231011,2600.1938,N,07921.4801,W,1,7,2.1,15,M,,M,,*57
06/18/2015	23:10:11.489	$GPGGA,231012,2600.1942,N,07921.4813,W,1,7,2.1,15,M,,M,,*5A
06/18/2015	23:10:12.579	$GPGGA,231013,2600.1944,N,07921.4820,W,1,7,2.1,15,M,,M,,*5D
06/18/2015	23:10:13.589	$GPGGA,231014,2600.1946,N,07921.4827,W,1,7,2.1,15,M,,M,,*5F
06/18/2015	23:10:14.489	$GPGGA,231015,2600.1948,N,07921.4834,W,1,7,2.1,15,M,,M,,*52
06/18/2015	23:10:15.609	$GPGGA,231016,2600.1949,N,07921.4841,W,1,7,2.1,15,M,,M,,*52
06/18/2015	23:10:16.499	$GPGGA,231017,2600.1949,N,07921.4841,W,1,7,2.1,15,M,,M,,*53
06/18/2015	23:10:17.469	$GPGGA,231018,2600.1953,N,07921.4855,W,1,7,2.1,15,M,,M,,*52
06/18/2015	23:10:18.560	$GPGGA,231019,2600.1956,N,07921.4860,W,1,7,2.1,15,M,,M,,*50
06/18/2015	23:10:19.579	$GPGGA,231020,2600.1956,N,07921.4867,W,1,7,2.1,15,M,,M,,*5D
06/18/2015	23:10:20.558	$GPGGA,231021,2600.1960,N,07921.4874,W,1,7,2.1,15,M,,M,,*5B
06/18/2015	23:10:21.558	$GPGGA,231022,2600.1960,N,07921.4881,W,1,7,2.1,15,M,,M,,*52
06/18/2015	23:10:23.569	$GPGGA,231024,2600.1964,N,07921.4893,W,1,7,2.1,15,M,,M,,*53
06/18/2015	23:10:24.556	$GPGGA,231025,2600.1964,N,07921.4893,W,1,7,2.1,15,M,,M,,*52
06/18/2015	23:10:25.569	$GPGGA,231026,2600.1969,N,07921.4906,W,1,7,2.1,15,M,,M,,*51
06/18/2015	23:10:26.549	$GPGGA,231027,2600.1971,N,07921.4914,W,1,7,2.1,15,M,,M,,*5A
06/18/2015	23:10:27.559	$GPGGA,231028,2600.1973,N,07921.4921,W,1,7,2.1,15,M,,M,,*51
06/18/2015	23:10:28.559	$GPGGA,231029,2600.1974,N,07921.4928,W,1,7,2.1,15,M,,M,,*5E
06/18/2015	23:10:29.550	$GPGGA,231030,2600.1975,N,07921.4933,W,1,7,2.1,15,M,,M,,*5D
06/18/2015	23:10:30.549	$GPGGA,231031,2600.1978,N,07921.4940,W,1,7,2.1,15,M,,M,,*55
06/18/2015	23:10:31.569	$GPGGA,231032,2600.1978,N,07921.4947,W,1,7,2.1,15,M,,M,,*51
06/18/2015	23:10:32.540	$GPGGA,231033,2600.1981,N,07921.4954,W,1,7,2.1,15,M,,M,,*54
06/18/2015	23:10:33.549	$GPGGA,231034,2600.1982,N,07921.4961,W,1,7,2.1,15,M,,M,,*56
06/18/2015	23:10:34.519	$GPGGA,231035,2600.1985,N,07921.4968,W,1,7,2.1,15,M,,M,,*59
06/18/2015	23:10:35.569	$GPGGA,231036,2600.1985,N,07921.4975,W,1,7,2.1,15,M,,M,,*56
06/18/2015	23:10:36.519	$GPGGA,231037,2600.1988,N,07921.4982,W,1,7,2.1,15,M,,M,,*52
06/18/2015	23:10:37.539	$GPGGA,231038,2600.1989,N,07921.4989,W,1,7,2.1,15,M,,M,,*57
06/18/2015	23:10:38.528	$GPGGA,231039,2600.1992,N,07921.4996,W,1,7,2.1,15,M,,M,,*52
06/18/2015	23:10:39.539	$GPGGA,231040,2600.1992,N,07921.5003,W,1,7,2.1,15,M,,M,,*58
06/18/2015	23:10:40.528	$GPGGA,231041,2600.1995,N,07921.5009,W,1,7,2.1,15,M,,M,,*54
06/18/2015	23:10:41.542	$GPGGA,231042,2600.1996,N,07921.5016,W,1,7,2.1,15,M,,M,,*5A
06/18/2015	23:10:42.510	$GPGGA,231043,2600.1999,N,07921.5023,W,1,7,2.1,15,M,,M,,*52
06/18/2015	23:10:43.519	$GPGGA,231044,2600.2000,N,07921.5029,W,1,7,2.1,15,M,,M,,*55
06/18/2015	23:10:44.509	$GPGGA,231045,2600.2002,N,07921.5036,W,1,7,2.1,15,M,,M,,*58
06/18/2015	23:10:45.539	$GPGGA,231046,2600.2003,N,07921.5043,W,1,7,2.1,15,M,,M,,*58
06/18/2015	23:10:46.499	$GPGGA,231047,2600.2006,N,07921.5051,W,1,7,2.1,15,M,,M,,*5F
06/18/2015	23:10:47.619	$GPGGA,231048,2600.2007,N,07921.5058,W,1,7,2.1,15,M,,M,,*58
06/18/2015	23:10:48.509	$GPGGA,231049,2600.2009,N,07921.5065,W,1,7,2.1,15,M,,M,,*59
06/18/2015	23:10:49.489	$GPGGA,231050,2600.2010,N,07921.5072,W,1,7,2.1,15,M,,M,,*5F
06/18/2015	23:10:50.609	$GPGGA,231051,2600.2013,N,07921.5079,W,1,7,2.1,15,M,,M,,*56
06/18/2015	23:10:51.589	$GPGGA,231052,2600.2014,N,07921.5084,W,1,7,2.1,15,M,,M,,*50
06/18/2015	23:10:52.589	$GPGGA,231053,2600.2016,N,07921.5091,W,1,7,2.1,15,M,,M,,*57
06/18/2015	23:10:53.589	$GPGGA,231054,2600.2018,N,07921.5098,W,1,7,2.1,15,M,,M,,*57
06/18/2015	23:10:54.489	$GPGGA,231055,2600.2020,N,07921.5105,W,1,7,2.1,15,M,,M,,*58
06/18/2015	23:10:55.488	$GPGGA,231056,2600.2021,N,07921.5112,W,1,7,2.1,15,M,,M,,*5C
06/18/2015	23:10:56.578	$GPGGA,231057,2600.2024,N,07921.5119,W,1,7,2.1,14,M,,M,,*52
06/18/2015	23:10:57.588	$GPGGA,231058,2600.2025,N,07921.5126,W,1,7,2.1,14,M,,M,,*50
06/18/2015	23:10:58.489	$GPGGA,231059,2600.2027,N,07921.5133,W,1,7,2.1,14,M,,M,,*57
06/18/2015	23:10:59.509	$GPGGA,231100,2600.2028,N,07921.5138,W,1,7,2.1,14,M,,M,,*5E
06/18/2015	23:11:00.569	$GPGGA,231101,2600.2031,N,07921.5145,W,1,7,2.1,14,M,,M,,*5D
06/18/2015	23:11:01.569	$GPGGA,231102,2600.2032,N,07921.5152,W,1,7,2.1,14,M,,M,,*5B
06/18/2015	23:11:02.559	$GPGGA,231103,2600.2034,N,07921.5159,W,1,7,2.1,14,M,,M,,*57
06/18/2015	23:11:03.579	$GPGGA,231104,2600.2036,N,07921.5166,W,1,7,2.1,14,M,,M,,*5E
06/18/2015	23:11:04.579	$GPGGA,231105,2600.2038,N,07921.5171,W,1,7,2.1,14,M,,M,,*57
06/18/2015	23:11:05.559	$GPGGA,231106,2600.2039,N,07921.5178,W,1,7,2.1,14,M,,M,,*5C
06/18/2015	23:11:06.469	$GPGGA,231107,2600.2042,N,07921.5185,W,1,7,2.1,14,M,,M,,*53
06/18/2015	23:11:07.579	$GPGGA,231108,2600.2043,N,07921.5191,W,1,7,2.1,14,M,,M,,*58
06/18/2015	23:11:08.549	$GPGGA,231109,2600.2045,N,07921.5199,W,1,7,2.1,14,M,,M,,*57
06/18/2015	23:11:09.579	$GPGGA,231110,2600.2047,N,07921.5206,W,1,7,2.1,14,M,,M,,*58
06/18/2015	23:11:10.549	$GPGGA,231111,2600.2047,N,07921.5211,W,1,7,2.1,14,M,,M,,*5F
06/18/2015	23:11:11.579	$GPGGA,231112,2600.2050,N,07921.5217,W,1,7,2.1,14,M,,M,,*5C
06/18/2015	23:11:12.544	$GPGGA,231113,2600.2054,N,07921.5225,W,1,7,2.3,14,M,,M,,*5A
06/18/2015	23:11:13.568	$GPGGA,231114,2600.2054,N,07921.5231,W,1,7,2.1,14,M,,M,,*5A
06/18/2015	23:11:14.548	$GPGGA,231115,2600.2061,N,07921.5239,W,1,7,2.3,14,M,,M,,*57
06/18/2015	23:11:15.568	$GPGGA,231116,2600.2063,N,07921.5246,W,1,7,2.1,14,M,,M,,*5C
06/18/2015	23:11:16.539	$GPGGA,231117,2600.2065,N,07921.5253,W,1,7,2.3,14,M,,M,,*5D
06/18/2015	23:11:17.579	$GPGGA,231118,2600.2065,N,07921.5257,W,1,7,2.1,14,M,,M,,*54
06/18/2015	23:11:18.539	$GPGGA,231119,2600.2068,N,07921.5264,W,1,7,3.1,14,M,,M,,*59
06/18/2015	23:11:19.569	$GPGGA,231120,2600.2067,N,07921.5269,W,1,6,2.3,14,M,,M,,*53
06/18/2015	23:11:20.539	$GPGGA,231121,2600.2072,N,07921.5276,W,1,6,3.1,14,M,,M,,*5B
06/18/2015	23:11:21.540	$GPGGA,231122,2600.2079,N,07921.5285,W,1,7,2.1,14,M,,M,,*5F
06/18/2015	23:11:22.519	$GPGGA,231123,2600.2079,N,07921.5290,W,1,7,2.1,14,M,,M,,*5A
06/18/2015	23:11:23.559	$GPGGA,231124,2600.2077,N,07921.5296,W,1,6,2.3,14,M,,M,,*56
06/18/2015	23:11:24.529	$GPGGA,231125,2600.2079,N,07921.5303,W,1,6,2.3,14,M,,M,,*54
06/18/2015	23:11:25.519	$GPGGA,231126,2600.2079,N,07921.5307,W,1,6,2.3,14,M,,M,,*53
06/18/2015	23:11:26.519	$GPGGA,231127,2600.2081,N,07921.5314,W,1,6,2.3,14,M,,M,,*57
06/18/2015	23:11:27.529	$GPGGA,231128,2600.2079,N,07921.5322,W,1,5,3.1,14,M,,M,,*5A
06/18/2015	23:11:28.529	$GPGGA,231129,2600.2081,N,07921.5332,W,1,5,2.3,14,M,,M,,*5E
06/18/2015	23:11:29.538	$GPGGA,231130,2600.2080,N,07921.5340,W,1,7,2.1,14,M,,M,,*52
06/18/2015	23:11:30.518	$GPGGA,231131,2600.2082,N,07921.5344,W,1,7,2.3,14,M,,M,,*57
06/18/2015	23:11:31.549	$GPGGA,231132,2600.2081,N,07921.5354,W,1,6,2.9,14,M,,M,,*5D
06/18/2015	23:11:32.518	$GPGGA,231133,2600.2083,N,07921.5361,W,1,6,2.3,14,M,,M,,*52
06/18/2015	23:11:33.509	$GPGGA,231134,2600.2083,N,07921.5368,W,1,6,2.3,15,M,,M,,*5D
06/18/2015	23:11:34.499	$GPGGA,231135,2600.2083,N,07921.5376,W,1,6,2.3,15,M,,M,,*53
06/18/2015	23:11:35.519	$GPGGA,231136,2600.2086,N,07921.5380,W,1,6,2.3,15,M,,M,,*5C
06/18/2015	23:11:36.509	$GPGGA,231137,2600.2087,N,07921.5384,W,1,6,3.1,15,M,,M,,*5B
06/18/2015	23:11:37.499	$GPGGA,231138,2600.2089,N,07921.5390,W,1,5,3.1,15,M,,M,,*5C
06/18/2015	23:11:38.509	$GPGGA,231139,2600.2090,N,07921.5397,W,1,5,3.1,15,M,,M,,*52
06/18/2015	23:11:39.509	$GPGGA,231140,2600.2092,N,07921.5401,W,1,6,2.3,15,M,,M,,*56
06/18/2015	23:11:40.609	$GPGGA,231141,2600.2093,N,07921.5406,W,1,6,2.3,15,M,,M,,*51
06/18/2015	23:11:41.499	$GPGGA,231142,2600.2096,N,07921.5412,W,1,5,3.1,15,M,,M,,*52
06/18/2015	23:11:42.479	$GPGGA,231143,2600.2097,N,07921.5416,W,1,5,2.9,15,M,,M,,*5F
06/18/2015	23:11:43.519	$GPGGA,231144,2600.2099,N,07921.5420,W,1,6,2.3,15,M,,M,,*5A
06/18/2015	23:11:44.499	$GPGGA,231145,2600.2101,N,07921.5426,W,1,6,2.3,15,M,,M,,*5D
06/18/2015	23:11:45.489	$GPGGA,231146,2600.2103,N,07921.5434,W,1,6,2.3,15,M,,M,,*5F
06/18/2015	23:11:46.489	$GPGGA,231147,2600.2108,N,07921.5441,W,1,6,2.3,15,M,,M,,*57
06/18/2015	23:11:47.618	$GPGGA,231148,2600.2112,N,07921.5448,W,1,7,2.1,15,M,,M,,*59
06/18/2015	23:11:48.478	$GPGGA,231149,2600.2121,N,07921.5455,W,1,7,2.9,14,M,,M,,*5D
06/18/2015	23:11:49.468	$GPGGA,231150,2600.2120,N,07921.5460,W,1,7,2.1,14,M,,M,,*5A
06/18/2015	23:11:50.568	$GPGGA,231151,2600.2126,N,07921.5469,W,1,7,2.3,14,M,,M,,*56
06/18/2015	23:11:51.609	$GPGGA,231152,2600.2126,N,07921.5474,W,1,6,2.9,14,M,,M,,*52
06/18/2015	23:11:52.579	$GPGGA,231153,2600.2126,N,07921.5478,W,1,6,2.3,14,M,,M,,*55
