Software Version Number: 1	Data File Format Number: 1	Build Version Number: 1	Error Count Since VI Started: 1	Manufacturer: Raytheon	 Model Number: RayMarine 120	 S/N: 	 Cal Date: 	 Wind Direction Offset: 0.00	 Slope (M)1: 0.00	 Offset (B)1: 0.00	 Slope (M)2: 0.00	 Offset (B)2: 0.00	 Slope (M)3: 0.00	 Offset (B)3: 0.00	 Slope (M)4: 0.00	 Offset (B)4: 0.00	 Slope (M)5: 0.00	 Offset (B)5: 0.00	 Slope (M)6: 0.00	 Offset (B)6: 0.00
Computer Date	Computer Time	GGA String
06/11/2015	02:00:00.530	$GPGGA,020000,2425.2485,N,08116.1284,W,1,9,1.8,18,M,,M,,*50
06/11/2015	02:00:00.566	$GPGGA,020001,2425.2481,N,08116.1300,W,1,9,1.6,18,M,,M,,*56
06/11/2015	02:00:01.550	$GPGGA,020002,2425.2477,N,08116.1313,W,1,9,1.8,18,M,,M,,*50
06/11/2015	02:00:02.540	$GPGGA,020003,2425.2474,N,08116.1327,W,1,9,1.6,18,M,,M,,*5B
06/11/2015	02:00:03.550	$GPGGA,020004,2425.2470,N,08116.1342,W,1,10,1.6,18,M,,M,,*63
06/11/2015	02:00:04.519	$GPGGA,020005,2425.2466,N,08116.1355,W,1,10,1.6,18,M,,M,,*63
06/11/2015	02:00:05.529	$GPGGA,020006,2425.2462,N,08116.1370,W,1,10,1.6,18,M,,M,,*63
06/11/2015	02:00:06.539	$GPGGA,020007,2425.2459,N,08116.1384,W,1,10,1.6,18,M,,M,,*61
06/11/2015	02:00:07.569	$GPGGA,020008,2425.2455,N,08116.1398,W,1,10,1.6,18,M,,M,,*6F
06/11/2015	02:00:08.509	$GPGGA,020009,2425.2450,N,08116.1412,W,1,10,1.8,18,M,,M,,*60
06/11/2015	02:00:09.519	$GPGGA,020010,2425.2448,N,08116.1427,W,1,10,1.6,18,M,,M,,*69
06/11/2015	02:00:10.529	$GPGGA,020011,2425.2442,N,08116.1441,W,1,10,1.6,18,M,,M,,*62
06/11/2015	02:00:11.559	$GPGGA,020012,2425.2439,N,08116.1453,W,1,10,1.6,18,M,,M,,*6E
06/11/2015	02:00:12.519	$GPGGA,020013,2425.2435,N,08116.1467,W,1,10,1.8,19,M,,M,,*6B
06/11/2015	02:00:13.609	$GPGGA,020014,2425.2431,N,08116.1479,W,1,9,1.8,19,M,,M,,*5F
06/11/2015	02:00:14.499	$GPGGA,020015,2425.2427,N,08116.1492,W,1,9,1.6,19,M,,M,,*52
06/11/2015	02:00:16.530	$GPGGA,020017,2425.2420,N,08116.1521,W,1,10,1.6,19,M,,M,,*66
06/11/2015	02:00:17.520	$GPGGA,020018,2425.2415,N,08116.1533,W,1,10,1.6,19,M,,M,,*6C
06/11/2015	02:00:18.510	$GPGGA,020019,2425.2411,N,08116.1546,W,1,10,1.8,19,M,,M,,*65
06/11/2015	02:00:19.500	$GPGGA,020020,2425.2408,N,08116.1561,W,1,9,1.8,19,M,,M,,*5A
06/11/2015	02:00:20.582	$GPGGA,020021,2425.2404,N,08116.1575,W,1,9,1.6,19,M,,M,,*5C
06/11/2015	02:00:21.500	$GPGGA,020022,2425.2401,N,08116.1587,W,1,10,1.6,19,M,,M,,*6F
06/11/2015	02:00:22.590	$GPGGA,020023,2425.2397,N,08116.1600,W,1,10,1.8,19,M,,M,,*64
06/11/2015	02:00:23.500	$GPGGA,020024,2425.2392,N,08116.1615,W,1,10,1.6,19,M,,M,,*6C
06/11/2015	02:00:24.581	$GPGGA,020025,2425.2390,N,08116.1627,W,1,10,1.6,19,M,,M,,*6E
06/11/2015	02:00:25.476	$GPGGA,020026,2425.2385,N,08116.1640,W,1,9,1.8,19,M,,M,,*5E
06/11/2015	02:00:26.573	$GPGGA,020027,2425.2381,N,08116.1654,W,1,9,1.8,19,M,,M,,*5E
06/11/2015	02:00:27.609	$GPGGA,020028,2425.2377,N,08116.1669,W,1,10,1.6,19,M,,M,,*60
06/11/2015	02:00:28.582	$GPGGA,020029,2425.2374,N,08116.1681,W,1,10,1.6,19,M,,M,,*64
06/11/2015	02:00:29.589	$GPGGA,020030,2425.2370,N,08116.1694,W,1,10,1.6,19,M,,M,,*6C
06/11/2015	02:00:30.575	$GPGGA,020031,2425.2365,N,08116.1706,W,1,10,1.8,19,M,,M,,*6D
06/11/2015	02:00:31.583	$GPGGA,020032,2425.2363,N,08116.1720,W,1,10,1.6,19,M,,M,,*62
06/11/2015	02:00:32.559	$GPGGA,020033,2425.2358,N,08116.1734,W,1,10,1.8,18,M,,M,,*61
06/11/2015	02:00:33.585	$GPGGA,020034,2425.2354,N,08116.1748,W,1,10,1.6,18,M,,M,,*6F
06/11/2015	02:00:34.560	$GPGGA,020035,2425.2350,N,08116.1761,W,1,10,1.6,18,M,,M,,*61
06/11/2015	02:00:35.570	$GPGGA,020036,2425.2346,N,08116.1774,W,1,10,1.6,18,M,,M,,*61
06/11/2015	02:00:36.573	$GPGGA,020037,2425.2343,N,08116.1788,W,1,10,1.6,18,M,,M,,*66
06/11/2015	02:00:37.574	$GPGGA,020038,2425.2340,N,08116.1799,W,1,9,1.8,18,M,,M,,*5C
06/11/2015	02:00:38.550	$GPGGA,020039,2425.2336,N,08116.1814,W,1,9,1.6,18,M,,M,,*58
06/11/2015	02:00:39.584	$GPGGA,020040,2425.2332,N,08116.1828,W,1,10,1.6,18,M,,M,,*65
06/11/2015	02:00:40.549	$GPGGA,020041,2425.2328,N,08116.1839,W,1,10,1.6,18,M,,M,,*6F
06/11/2015	02:00:41.549	$GPGGA,020042,2425.2325,N,08116.1853,W,1,9,1.8,18,M,,M,,*5B
06/11/2015	02:00:42.549	$GPGGA,020043,2425.2320,N,08116.1868,W,1,9,1.8,18,M,,M,,*57
06/11/2015	02:00:43.590	$GPGGA,020044,2425.2315,N,08116.1880,W,1,10,1.6,18,M,,M,,*66
06/11/2015	02:00:44.549	$GPGGA,020045,2425.2311,N,08116.1894,W,1,10,1.6,18,M,,M,,*66
06/11/2015	02:00:45.559	$GPGGA,020046,2425.2307,N,08116.1908,W,1,10,1.6,18,M,,M,,*66
06/11/2015	02:00:46.539	$GPGGA,020047,2425.2304,N,08116.1920,W,1,10,1.6,18,M,,M,,*6E
06/11/2015	02:00:47.569	$GPGGA,020048,2425.2300,N,08116.1933,W,1,9,1.8,18,M,,M,,*51
06/11/2015	02:00:48.539	$GPGGA,020049,2425.2296,N,08116.1947,W,1,9,1.6,18,M,,M,,*53
06/11/2015	02:00:49.549	$GPGGA,020050,2425.2290,N,08116.1960,W,1,10,1.6,18,M,,M,,*60
06/11/2015	02:00:50.540	$GPGGA,020051,2425.2286,N,08116.1973,W,1,10,1.6,18,M,,M,,*64
06/11/2015	02:00:51.574	$GPGGA,020052,2425.2281,N,08116.1987,W,1,10,1.6,18,M,,M,,*6B
06/11/2015	02:00:52.540	$GPGGA,020053,2425.2276,N,08116.1999,W,1,10,1.6,18,M,,M,,*6D
06/11/2015	02:00:53.550	$GPGGA,020054,2425.2271,N,08116.2012,W,1,10,1.6,18,M,,M,,*64
06/11/2015	02:00:54.530	$GPGGA,020055,2425.2267,N,08116.2027,W,1,10,1.6,18,M,,M,,*64
06/11/2015	02:00:55.560	$GPGGA,020056,2425.2262,N,08116.2041,W,1,9,1.6,18,M,,M,,*5A
06/11/2015	02:00:56.519	$GPGGA,020057,2425.2258,N,08116.2052,W,1,9,1.6,18,M,,M,,*50
06/11/2015	02:00:57.529	$GPGGA,020058,2425.2255,N,08116.2066,W,1,10,1.6,18,M,,M,,*6D
06/11/2015	02:00:58.529	$GPGGA,020059,2425.2251,N,08116.2078,W,1,10,1.8,18,M,,M,,*69
06/11/2015	02:00:59.539	$GPGGA,020100,2425.2246,N,08116.2092,W,1,10,1.6,18,M,,M,,*68
06/11/2015	02:01:00.499	$GPGGA,020101,2425.2242,N,08116.2103,W,1,10,1.6,18,M,,M,,*64
06/11/2015	02:01:01.499	$GPGGA,020102,2425.2238,N,08116.2117,W,1,10,1.6,17,M,,M,,*60
06/11/2015	02:01:02.619	$GPGGA,020103,2425.2233,N,08116.2132,W,1,10,1.6,17,M,,M,,*6D
06/11/2015	02:01:03.519	$GPGGA,020104,2425.2228,N,08116.2144,W,1,10,1.6,17,M,,M,,*61
06/11/2015	02:01:04.619	$GPGGA,020105,2425.2224,N,08116.2158,W,1,10,1.6,17,M,,M,,*61
06/11/2015	02:01:05.491	$GPGGA,020106,2425.2220,N,08116.2172,W,1,9,1.6,17,M,,M,,*56
06/11/2015	02:01:06.489	$GPGGA,020107,2425.2214,N,08116.2186,W,1,9,1.6,17,M,,M,,*5B
06/11/2015	02:01:07.599	$GPGGA,020108,2425.2210,N,08116.2200,W,1,9,1.6,17,M,,M,,*5D
06/11/2015	02:01:08.510	$GPGGA,020109,2425.2206,N,08116.2214,W,1,9,1.6,17,M,,M,,*5E
06/11/2015	02:01:09.590	$GPGGA,020110,2425.2202,N,08116.2227,W,1,10,1.6,17,M,,M,,*6A
06/11/2015	02:01:10.500	$GPGGA,020111,2425.2197,N,08116.2240,W,1,10,1.6,17,M,,M,,*65
06/11/2015	02:01:11.590	$GPGGA,020112,2425.2195,N,08116.2251,W,1,9,1.8,17,M,,M,,*52
06/11/2015	02:01:12.590	$GPGGA,020113,2425.2195,N,08116.2265,W,1,9,2.1,17,M,,M,,*5E
06/11/2015	02:01:13.580	$GPGGA,020114,2425.2189,N,08116.2279,W,1,10,1.6,17,M,,M,,*65
06/11/2015	02:01:14.569	$GPGGA,020115,2425.2185,N,08116.2291,W,1,10,1.6,17,M,,M,,*6E
06/11/2015	02:01:15.582	$GPGGA,020116,2425.2182,N,08116.2305,W,1,9,1.8,17,M,,M,,*50
06/11/2015	02:01:16.579	$GPGGA,020117,2425.2179,N,08116.2319,W,1,9,1.6,17,M,,M,,*56
06/11/2015	02:01:17.578	$GPGGA,020118,2425.2175,N,08116.2334,W,1,10,1.6,17,M,,M,,*62
06/11/2015	02:01:18.580	$GPGGA,020119,2425.2173,N,08116.2348,W,1,10,1.6,17,M,,M,,*6E
06/11/2015	02:01:19.599	$GPGGA,020120,2425.2169,N,08116.2360,W,1,10,1.6,17,M,,M,,*65
06/11/2015	02:01:20.582	$GPGGA,020121,2425.2166,N,08116.2374,W,1,10,1.8,17,M,,M,,*60
06/11/2015	02:01:21.585	$GPGGA,020122,2425.2161,N,08116.2388,W,1,10,1.6,17,M,,M,,*69
06/11/2015	02:01:22.569	$GPGGA,020123,2425.2156,N,08116.2402,W,1,10,1.6,17,M,,M,,*69
06/11/2015	02:01:23.589	$GPGGA,020124,2425.2153,N,08116.2417,W,1,10,1.6,18,M,,M,,*60
06/11/2015	02:01:24.559	$GPGGA,020125,2425.2150,N,08116.2429,W,1,10,1.6,18,M,,M,,*6F
06/11/2015	02:01:25.550	$GPGGA,020126,2425.2144,N,08116.2443,W,1,9,1.8,18,M,,M,,*53
06/11/2015	02:01:26.550	$GPGGA,020127,2425.2139,N,08116.2457,W,1,9,1.6,18,M,,M,,*53
06/11/2015	02:01:27.583	$GPGGA,020128,2425.2135,N,08116.2472,W,1,9,1.8,18,M,,M,,*59
06/11/2015	02:01:28.540	$GPGGA,020129,2425.2130,N,08116.2486,W,1,9,1.6,18,M,,M,,*58
06/11/2015	02:01:29.571	$GPGGA,020130,2425.2126,N,08116.2500,W,1,10,1.6,18,M,,M,,*60
06/11/2015	02:01:30.550	$GPGGA,020131,2425.2122,N,08116.2514,W,1,10,1.6,18,M,,M,,*60
06/11/2015	02:01:31.581	$GPGGA,020132,2425.2119,N,08116.2527,W,1,10,1.6,18,M,,M,,*6B
06/11/2015	02:01:32.549	$GPGGA,020133,2425.2115,N,08116.2541,W,1,10,1.6,18,M,,M,,*66
06/11/2015	02:01:33.559	$GPGGA,020134,2425.2112,N,08116.2555,W,1,10,1.6,18,M,,M,,*63
06/11/2015	02:01:34.530	$GPGGA,020135,2425.2108,N,08116.2569,W,1,10,1.6,18,M,,M,,*66
06/11/2015	02:01:35.550	$GPGGA,020136,2425.2104,N,08116.2583,W,1,10,1.6,18,M,,M,,*6D
06/11/2015	02:01:36.539	$GPGGA,020137,2425.2099,N,08116.2597,W,1,10,1.6,18,M,,M,,*6C
06/11/2015	02:01:37.549	$GPGGA,020138,2425.2096,N,08116.2610,W,1,10,1.6,18,M,,M,,*60
06/11/2015	02:01:38.519	$GPGGA,020139,2425.2094,N,08116.2626,W,1,10,1.6,19,M,,M,,*67
06/11/2015	02:01:39.573	$GPGGA,020140,2425.2088,N,08116.2638,W,1,10,1.6,19,M,,M,,*6B
06/11/2015	02:01:40.519	$GPGGA,020141,2425.2084,N,08116.2653,W,1,10,1.6,19,M,,M,,*6B
06/11/2015	02:01:41.673	$GPGGA,020142,2425.2080,N,08116.2667,W,1,10,1.6,19,M,,M,,*6B
06/11/2015	02:01:42.519	$GPGGA,020143,2425.2076,N,08116.2681,W,1,10,1.6,19,M,,M,,*6B
06/11/2015	02:01:43.682	$GPGGA,020144,2425.2072,N,08116.2695,W,1,10,1.6,19,M,,M,,*6D
06/11/2015	02:01:44.510	$GPGGA,020145,2425.2069,N,08116.2707,W,1,10,1.6,19,M,,M,,*6C
06/11/2015	02:01:45.640	$GPGGA,020146,2425.2065,N,08116.2721,W,1,9,1.8,19,M,,M,,*51
06/11/2015	02:01:46.682	$GPGGA,020147,2425.2062,N,08116.2735,W,1,9,1.8,19,M,,M,,*52
06/11/2015	02:01:47.670	$GPGGA,020148,2425.2058,N,08116.2747,W,1,9,2.1,19,M,,M,,*5B
06/11/2015	02:01:48.510	$GPGGA,020149,2425.2054,N,08116.2761,W,1,9,2.1,19,M,,M,,*52
06/11/2015	02:01:49.683	$GPGGA,020150,2425.2051,N,08116.2775,W,1,9,1.8,19,M,,M,,*50
06/11/2015	02:01:50.509	$GPGGA,020151,2425.2047,N,08116.2789,W,1,9,1.8,19,M,,M,,*55
06/11/2015	02:01:51.529	$GPGGA,020152,2425.2041,N,08116.2804,W,1,9,1.6,19,M,,M,,*54
06/11/2015	02:01:52.499	$GPGGA,020153,2425.2036,N,08116.2818,W,1,9,1.6,19,M,,M,,*58
06/11/2015	02:01:53.489	$GPGGA,020154,2425.2033,N,08116.2832,W,1,9,1.8,19,M,,M,,*5C
06/11/2015	02:01:54.679	$GPGGA,020155,2425.2029,N,08116.2847,W,1,9,1.8,19,M,,M,,*54
06/11/2015	02:01:55.669	$GPGGA,020156,2425.2025,N,08116.2859,W,1,9,1.8,19,M,,M,,*54
06/11/2015	02:01:56.509	$GPGGA,020157,2425.2018,N,08116.2874,W,1,9,1.8,19,M,,M,,*54
06/11/2015	02:01:57.639	$GPGGA,020158,2425.2014,N,08116.2888,W,1,8,2.1,19,M,,M,,*5F
06/11/2015	02:01:58.579	$GPGGA,020159,2425.2010,N,08116.2901,W,1,8,1.6,19,M,,M,,*5E
06/11/2015	02:01:59.699	$GPGGA,020200,2425.2005,N,08116.2913,W,1,10,1.6,18,M,,M,,*6E
06/11/2015	02:02:00.583	$GPGGA,020201,2425.2001,N,08116.2926,W,1,10,1.6,18,M,,M,,*6D
06/11/2015	02:02:01.487	$GPGGA,020202,2425.1998,N,08116.2939,W,1,9,1.8,18,M,,M,,*5C
06/11/2015	02:02:02.640	$GPGGA,020203,2425.1994,N,08116.2952,W,1,9,1.8,18,M,,M,,*5C
06/11/2015	02:02:03.650	$GPGGA,020204,2425.1989,N,08116.2967,W,1,9,1.6,18,M,,M,,*5F
06/11/2015	02:02:04.574	$GPGGA,020205,2425.1983,N,08116.2981,W,1,9,1.6,18,M,,M,,*5C
06/11/2015	02:02:05.610	$GPGGA,020206,2425.1979,N,08116.2995,W,1,10,1.6,18,M,,M,,*67
06/11/2015	02:02:06.649	$GPGGA,020207,2425.1974,N,08116.3009,W,1,10,1.8,18,M,,M,,*68
06/11/2015	02:02:07.572	$GPGGA,020208,2425.1969,N,08116.3021,W,1,8,1.8,18,M,,M,,*58
06/11/2015	02:02:08.559	$GPGGA,020209,2425.1967,N,08116.3033,W,1,8,1.8,18,M,,M,,*54
06/11/2015	02:02:09.599	$GPGGA,020210,2425.1960,N,08116.3049,W,1,9,1.6,18,M,,M,,*59
06/11/2015	02:02:10.549	$GPGGA,020211,2425.1954,N,08116.3063,W,1,9,1.6,18,M,,M,,*57
06/11/2015	02:02:11.609	$GPGGA,020212,2425.1950,N,08116.3076,W,1,10,1.6,18,M,,M,,*6C
06/11/2015	02:02:12.609	$GPGGA,020213,2425.1946,N,08116.3089,W,1,10,1.6,18,M,,M,,*6A
06/11/2015	02:02:13.549	$GPGGA,020214,2425.1942,N,08116.3103,W,1,10,1.6,18,M,,M,,*6A
06/11/2015	02:02:14.549	$GPGGA,020215,2425.1938,N,08116.3116,W,1,10,1.8,18,M,,M,,*6C
06/11/2015	02:02:15.639	$GPGGA,020216,2425.1932,N,08116.3130,W,1,8,1.6,18,M,,M,,*56
06/11/2015	02:02:16.609	$GPGGA,020217,2425.1926,N,08116.3144,W,1,8,1.6,18,M,,M,,*51
06/11/2015	02:02:17.539	$GPGGA,020218,2425.1922,N,08116.3158,W,1,9,1.6,18,M,,M,,*56
06/11/2015	02:02:18.600	$GPGGA,020219,2425.1918,N,08116.3172,W,1,9,1.6,18,M,,M,,*56
06/11/2015	02:02:19.660	$GPGGA,020220,2425.1914,N,08116.3186,W,1,9,1.6,18,M,,M,,*5B
06/11/2015	02:02:20.530	$GPGGA,020221,2425.1909,N,08116.3198,W,1,9,1.6,18,M,,M,,*59
06/11/2015	02:02:21.630	$GPGGA,020222,2425.1904,N,08116.3212,W,1,8,1.6,18,M,,M,,*57
06/11/2015	02:02:22.530	$GPGGA,020223,2425.1902,N,08116.3224,W,1,8,1.6,18,M,,M,,*55
06/11/2015	02:02:23.540	$GPGGA,020224,2425.1898,N,08116.3238,W,1,9,1.6,18,M,,M,,*5C
06/11/2015	02:02:24.619	$GPGGA,020225,2425.1895,N,08116.3251,W,1,9,1.6,18,M,,M,,*5F
06/11/2015	02:02:25.609	$GPGGA,020226,2425.1891,N,08116.3264,W,1,9,1.9,18,M,,M,,*51
06/11/2015	02:02:26.582	$GPGGA,020227,2425.1886,N,08116.3278,W,1,9,1.6,18,M,,M,,*54
06/11/2015	02:02:27.589	$GPGGA,020228,2425.1884,N,08116.3291,W,1,10,1.6,18,M,,M,,*66
06/11/2015	02:02:28.579	$GPGGA,020229,2425.1878,N,08116.3306,W,1,10,1.6,18,M,,M,,*6B
06/11/2015	02:02:29.588	$GPGGA,020230,2425.1873,N,08116.3320,W,1,10,1.9,18,M,,M,,*63
06/11/2015	02:02:30.589	$GPGGA,020231,2425.1870,N,08116.3332,W,1,10,1.9,18,M,,M,,*62
06/11/2015	02:02:31.639	$GPGGA,020232,2425.1867,N,08116.3346,W,1,8,1.6,18,M,,M,,*52
06/11/2015	02:02:32.559	$GPGGA,020233,2425.1863,N,08116.3360,W,1,8,1.6,18,M,,M,,*53
06/11/2015	02:02:33.571	$GPGGA,020234,2425.1860,N,08116.3372,W,1,10,1.6,18,M,,M,,*6D
06/11/2015	02:02:34.509	$GPGGA,020235,2425.1856,N,08116.3385,W,1,10,1.6,18,M,,M,,*61
06/11/2015	02:02:35.650	$GPGGA,020236,2425.1852,N,08116.3399,W,1,9,1.8,18,M,,M,,*5D
06/11/2015	02:02:36.583	$GPGGA,020237,2425.1845,N,08116.3414,W,1,9,2.1,18,M,,M,,*52
06/11/2015	02:02:37.500	$GPGGA,020238,2425.1841,N,08116.3428,W,1,8,2.1,18,M,,M,,*57
06/11/2015	02:02:38.600	$GPGGA,020239,2425.1837,N,08116.3441,W,1,8,1.6,18,M,,M,,*5C
06/11/2015	02:02:39.650	$GPGGA,020240,2425.1832,N,08116.3455,W,1,10,1.6,18,M,,M,,*6B
06/11/2015	02:02:40.571	$GPGGA,020241,2425.1828,N,08116.3468,W,1,10,1.6,18,M,,M,,*6F
06/11/2015	02:02:41.529	$GPGGA,020242,2425.1824,N,08116.3483,W,1,10,1.6,18,M,,M,,*65
06/11/2015	02:02:42.549	$GPGGA,020243,2425.1819,N,08116.3497,W,1,10,2.1,18,M,,M,,*6B
06/11/2015	02:02:43.629	$GPGGA,020244,2425.1815,N,08116.3511,W,1,8,1.7,18,M,,M,,*53
06/11/2015	02:02:44.559	$GPGGA,020245,2425.1812,N,08116.3524,W,1,8,1.7,18,M,,M,,*53
06/11/2015	02:02:45.629	$GPGGA,020246,2425.1806,N,08116.3534,W,1,9,2.1,18,M,,M,,*50
06/11/2015	02:02:46.580	$GPGGA,020247,2425.1801,N,08116.3545,W,1,9,1.6,18,M,,M,,*54
06/11/2015	02:02:47.619	$GPGGA,020248,2425.1796,N,08116.3558,W,1,10,1.6,18,M,,M,,*6E
06/11/2015	02:02:48.581	$GPGGA,020249,2425.1792,N,08116.3570,W,1,10,1.8,19,M,,M,,*6E
06/11/2015	02:02:49.569	$GPGGA,020250,2425.1788,N,08116.3584,W,1,9,1.8,19,M,,M,,*5E
06/11/2015	02:02:50.581	$GPGGA,020251,2425.1783,N,08116.3596,W,1,9,1.6,19,M,,M,,*59
06/11/2015	02:02:51.599	$GPGGA,020252,2425.1780,N,08116.3609,W,1,10,1.8,19,M,,M,,*6A
06/11/2015	02:02:52.599	$GPGGA,020253,2425.1778,N,08116.3621,W,1,10,1.6,19,M,,M,,*68
06/11/2015	02:02:53.610	$GPGGA,020254,2425.1776,N,08116.3634,W,1,10,1.6,19,M,,M,,*65
06/11/2015	02:02:54.600	$GPGGA,020255,2425.1772,N,08116.3647,W,1,10,1.6,19,M,,M,,*64
06/11/2015	02:02:55.580	$GPGGA,020256,2425.1768,N,08116.3660,W,1,10,1.6,19,M,,M,,*69
06/11/2015	02:02:56.580	$GPGGA,020257,2425.1766,N,08116.3674,W,1,10,1.6,19,M,,M,,*63
06/11/2015	02:02:57.590	$GPGGA,020258,2425.1760,N,08116.3688,W,1,10,2.1,20,M,,M,,*67
06/11/2015	02:02:58.571	$GPGGA,020259,2425.1756,N,08116.3700,W,1,10,1.6,20,M,,M,,*66
06/11/2015	02:02:59.599	$GPGGA,020300,2425.1750,N,08116.3714,W,1,10,1.8,20,M,,M,,*66
06/11/2015	02:03:00.559	$GPGGA,020301,2425.1747,N,08116.3728,W,1,10,1.8,20,M,,M,,*6E
06/11/2015	02:03:01.569	$GPGGA,020302,2425.1743,N,08116.3740,W,1,9,1.8,20,M,,M,,*5F
06/11/2015	02:03:02.979	$GPGGA,020303,2425.1740,N,08116.3754,W,1,9,1.9,20,M,,M,,*59
06/11/2015	02:03:03.582	$GPGGA,020304,2425.1736,N,08116.3768,W,1,8,1.8,20,M,,M,,*50
06/11/2015	02:03:04.572	$GPGGA,020305,2425.1732,N,08116.3782,W,1,8,1.9,20,M,,M,,*50
06/11/2015	02:03:05.573	$GPGGA,020306,2425.1727,N,08116.3795,W,1,8,1.9,20,M,,M,,*51
06/11/2015	02:03:06.549	$GPGGA,020307,2425.1721,N,08116.3808,W,1,8,2.4,20,M,,M,,*53
06/11/2015	02:03:07.539	$GPGGA,020308,2425.1718,N,08116.3822,W,1,7,2.4,20,M,,M,,*51
06/11/2015	02:03:08.559	$GPGGA,020309,2425.1715,N,08116.3835,W,1,7,1.8,20,M,,M,,*54
06/11/2015	02:03:09.539	$GPGGA,020310,2425.1711,N,08116.3848,W,1,9,1.8,20,M,,M,,*5C
06/11/2015	02:03:10.560	$GPGGA,020311,2425.1708,N,08116.3862,W,1,9,1.9,20,M,,M,,*5C
06/11/2015	02:03:11.541	$GPGGA,020312,2425.1707,N,08116.3874,W,1,8,1.9,20,M,,M,,*56
06/11/2015	02:03:12.560	$GPGGA,020313,2425.1702,N,08116.3887,W,1,8,1.9,20,M,,M,,*5E
06/11/2015	02:03:13.560	$GPGGA,020314,2425.1698,N,08116.3902,W,1,8,1.9,20,M,,M,,*57
06/11/2015	02:03:14.630	$GPGGA,020315,2425.1694,N,08116.3916,W,1,8,1.9,20,M,,M,,*5F
06/11/2015	02:03:15.579	$GPGGA,020316,2425.1690,N,08116.3930,W,1,8,1.9,20,M,,M,,*5C
06/11/2015	02:03:16.529	$GPGGA,020317,2425.1690,N,08116.3930,W,1,8,1.9,20,M,,M,,*5D
06/11/2015	02:03:17.639	$GPGGA,020318,2425.1683,N,08116.3956,W,1,8,1.9,20,M,,M,,*50
06/11/2015	02:03:18.539	$GPGGA,020319,2425.1680,N,08116.3968,W,1,8,1.8,20,M,,M,,*5E
06/11/2015	02:03:19.569	$GPGGA,020320,2425.1680,N,08116.3968,W,1,9,1.8,20,M,,M,,*55
06/11/2015	02:03:20.549	$GPGGA,020321,2425.1669,N,08116.3996,W,1,9,1.7,20,M,,M,,*5D
06/11/2015	02:03:21.519	$GPGGA,020322,2425.1666,N,08116.4010,W,1,9,1.7,20,M,,M,,*51
06/11/2015	02:03:22.519	$GPGGA,020323,2425.1666,N,08116.4010,W,1,9,1.6,20,M,,M,,*51
06/11/2015	02:03:23.629	$GPGGA,020324,2425.1657,N,08116.4036,W,1,9,1.7,20,M,,M,,*51
06/11/2015	02:03:24.509	$GPGGA,020325,2425.1657,N,08116.4036,W,1,9,1.7,20,M,,M,,*50
06/11/2015	02:03:25.519	$GPGGA,020326,2425.1649,N,08116.4064,W,1,10,1.6,20,M,,M,,*62
06/11/2015	02:03:26.519	$GPGGA,020327,2425.1649,N,08116.4064,W,1,10,1.6,20,M,,M,,*63
06/11/2015	02:03:27.529	$GPGGA,020328,2425.1639,N,08116.4091,W,1,9,1.8,20,M,,M,,*57
06/11/2015	02:03:28.510	$GPGGA,020329,2425.1639,N,08116.4091,W,1,9,1.8,20,M,,M,,*56
06/11/2015	02:03:29.500	$GPGGA,020330,2425.1635,N,08116.4104,W,1,9,1.8,20,M,,M,,*5F
06/11/2015	02:03:30.500	$GPGGA,020331,2425.1629,N,08116.4118,W,1,9,1.7,20,M,,M,,*51
06/11/2015	02:03:31.600	$GPGGA,020332,2425.1622,N,08116.4144,W,1,8,1.9,20,M,,M,,*5F
06/11/2015	02:03:32.600	$GPGGA,020333,2425.1617,N,08116.4158,W,1,8,1.8,20,M,,M,,*54
06/11/2015	02:03:33.599	$GPGGA,020334,2425.1611,N,08116.4173,W,1,10,1.6,20,M,,M,,*6B
06/11/2015	02:03:34.529	$GPGGA,020335,2425.1611,N,08116.4173,W,1,10,1.7,20,M,,M,,*6B
06/11/2015	02:03:35.599	$GPGGA,020336,2425.1601,N,08116.4202,W,1,9,1.7,20,M,,M,,*54
06/11/2015	02:03:36.580	$GPGGA,020337,2425.1599,N,08116.4213,W,1,9,1.7,20,M,,M,,*57
06/11/2015	02:03:37.609	$GPGGA,020338,2425.1593,N,08116.4227,W,1,9,1.8,20,M,,M,,*5A
06/11/2015	02:03:38.584	$GPGGA,020339,2425.1590,N,08116.4241,W,1,9,1.6,20,M,,M,,*56
06/11/2015	02:03:39.639	$GPGGA,020340,2425.1584,N,08116.4256,W,1,8,1.9,20,M,,M,,*55
06/11/2015	02:03:40.585	$GPGGA,020341,2425.1578,N,08116.4270,W,1,8,2.4,20,M,,M,,*5D
06/11/2015	02:03:41.569	$GPGGA,020342,2425.1574,N,08116.4285,W,1,9,1.7,20,M,,M,,*59
06/11/2015	02:03:42.560	$GPGGA,020343,2425.1571,N,08116.4297,W,1,9,1.7,20,M,,M,,*5E
06/11/2015	02:03:43.589	$GPGGA,020344,2425.1567,N,08116.4311,W,1,8,1.9,20,M,,M,,*5E
06/11/2015	02:03:44.575	$GPGGA,020345,2425.1563,N,08116.4324,W,1,8,1.9,20,M,,M,,*5D
06/11/2015	02:03:45.585	$GPGGA,020346,2425.1561,N,08116.4336,W,1,9,1.8,20,M,,M,,*5F
06/11/2015	02:03:46.570	$GPGGA,020347,2425.1557,N,08116.4350,W,1,9,1.8,20,M,,M,,*5B
06/11/2015	02:03:47.590	$GPGGA,020348,2425.1552,N,08116.4364,W,1,8,1.9,20,M,,M,,*56
06/11/2015	02:03:48.560	$GPGGA,020349,2425.1548,N,08116.4378,W,1,8,1.7,20,M,,M,,*5F
06/11/2015	02:03:49.584	$GPGGA,020350,2425.1545,N,08116.4390,W,1,9,1.7,20,M,,M,,*5D
06/11/2015	02:03:50.560	$GPGGA,020351,2425.1542,N,08116.4404,W,1,9,1.8,20,M,,M,,*5E
06/11/2015	02:03:51.578	$GPGGA,020352,2425.1538,N,08116.4418,W,1,9,1.8,20,M,,M,,*5D
06/11/2015	02:03:52.559	$GPGGA,020353,2425.1534,N,08116.4431,W,1,9,1.8,20,M,,M,,*5B
06/11/2015	02:03:54.549	$GPGGA,020354,2425.1530,N,08116.4444,W,1,8,1.9,20,M,,M,,*5A
06/11/2015	02:03:54.585	$GPGGA,020355,2425.1525,N,08116.4458,W,1,8,1.8,20,M,,M,,*53
06/11/2015	02:03:55.579	$GPGGA,020356,2425.1520,N,08116.4473,W,1,10,1.6,20,M,,M,,*6B
06/11/2015	02:03:56.539	$GPGGA,020357,2425.1516,N,08116.4487,W,1,10,1.9,20,M,,M,,*6B
06/11/2015	02:03:57.529	$GPGGA,020358,2425.1510,N,08116.4499,W,1,8,1.9,20,M,,M,,*54
06/11/2015	02:03:58.539	$GPGGA,020359,2425.1506,N,08116.4513,W,1,8,1.9,20,M,,M,,*51
06/11/2015	02:03:59.639	$GPGGA,020400,2425.1502,N,08116.4527,W,1,10,1.6,20,M,,M,,*6F
06/11/2015	02:04:00.539	$GPGGA,020401,2425.1496,N,08116.4541,W,1,10,1.9,20,M,,M,,*6D
06/11/2015	02:04:01.529	$GPGGA,020402,2425.1491,N,08116.4556,W,1,9,1.7,20,M,,M,,*59
06/11/2015	02:04:02.549	$GPGGA,020403,2425.1488,N,08116.4570,W,1,9,1.6,20,M,,M,,*55
06/11/2015	02:04:03.540	$GPGGA,020404,2425.1483,N,08116.4582,W,1,8,1.9,20,M,,M,,*5A
06/11/2015	02:04:04.620	$GPGGA,020405,2425.1478,N,08116.4595,W,1,8,1.8,20,M,,M,,*58
06/11/2015	02:04:05.670	$GPGGA,020406,2425.1476,N,08116.4610,W,1,10,1.6,20,M,,M,,*6C
06/11/2015	02:04:06.510	$GPGGA,020407,2425.1471,N,08116.4624,W,1,10,1.7,20,M,,M,,*6C
06/11/2015	02:04:07.560	$GPGGA,020408,2425.1465,N,08116.4636,W,1,10,1.6,20,M,,M,,*64
06/11/2015	02:04:08.530	$GPGGA,020409,2425.1461,N,08116.4651,W,1,10,1.7,20,M,,M,,*61
06/11/2015	02:04:09.940	$GPGGA,020410,2425.1456,N,08116.4665,W,1,8,2.1,20,M,,M,,*56
06/11/2015	02:04:10.499	$GPGGA,020411,2425.1451,N,08116.4678,W,1,8,1.7,20,M,,M,,*59
06/11/2015	02:04:11.539	$GPGGA,020412,2425.1447,N,08116.4693,W,1,9,1.7,20,M,,M,,*59
06/11/2015	02:04:12.509	$GPGGA,020413,2425.1445,N,08116.4707,W,1,9,1.7,20,M,,M,,*56
06/11/2015	02:04:13.519	$GPGGA,020414,2425.1440,N,08116.4719,W,1,10,1.6,20,M,,M,,*62
06/11/2015	02:04:14.509	$GPGGA,020415,2425.1436,N,08116.4733,W,1,10,1.6,19,M,,M,,*60
06/11/2015	02:04:15.499	$GPGGA,020416,2425.1434,N,08116.4747,W,1,10,1.6,19,M,,M,,*62
06/11/2015	02:04:16.589	$GPGGA,020417,2425.1431,N,08116.4762,W,1,10,1.7,19,M,,M,,*60
06/11/2015	02:04:17.609	$GPGGA,020418,2425.1427,N,08116.4776,W,1,10,1.6,19,M,,M,,*6C
06/11/2015	02:04:18.499	$GPGGA,020419,2425.1423,N,08116.4788,W,1,10,1.6,19,M,,M,,*68
06/11/2015	02:04:19.599	$GPGGA,020420,2425.1420,N,08116.4801,W,1,10,1.6,19,M,,M,,*6F
06/11/2015	02:04:20.584	$GPGGA,020421,2425.1416,N,08116.4816,W,1,10,1.6,19,M,,M,,*6D
06/11/2015	02:04:21.620	$GPGGA,020422,2425.1411,N,08116.4828,W,1,10,1.6,19,M,,M,,*64
06/11/2015	02:04:22.620	$GPGGA,020423,2425.1407,N,08116.4844,W,1,10,1.7,19,M,,M,,*69
06/11/2015	02:04:23.600	$GPGGA,020424,2425.1404,N,08116.4856,W,1,9,1.7,19,M,,M,,*56
06/11/2015	02:04:24.590	$GPGGA,020425,2425.1400,N,08116.4870,W,1,9,1.6,19,M,,M,,*56
06/11/2015	02:04:25.610	$GPGGA,020426,2425.1394,N,08116.4884,W,1,10,1.6,19,M,,M,,*6C
06/11/2015	02:04:26.575	$GPGGA,020427,2425.1393,N,08116.4896,W,1,10,1.7,19,M,,M,,*68
06/11/2015	02:04:27.619	$GPGGA,020428,2425.1389,N,08116.4910,W,1,10,1.6,19,M,,M,,*62
06/11/2015	02:04:28.574	$GPGGA,020429,2425.1383,N,08116.4924,W,1,10,1.6,20,M,,M,,*64
06/11/2015	02:04:29.609	$GPGGA,020430,2425.1379,N,08116.4939,W,1,9,1.7,20,M,,M,,*5C
06/11/2015	02:04:30.559	$GPGGA,020431,2425.1376,N,08116.4950,W,1,9,1.7,20,M,,M,,*5D
06/11/2015	02:04:31.589	$GPGGA,020432,2425.1372,N,08116.4965,W,1,10,1.6,20,M,,M,,*65
06/11/2015	02:04:32.586	$GPGGA,020433,2425.1368,N,08116.4979,W,1,10,1.6,20,M,,M,,*62
06/11/2015	02:04:33.581	$GPGGA,020434,2425.1365,N,08116.4993,W,1,10,1.6,20,M,,M,,*6C
06/11/2015	02:04:34.999	$GPGGA,020435,2425.1361,N,08116.5007,W,1,10,1.6,20,M,,M,,*6C
06/11/2015	02:04:35.589	$GPGGA,020436,2425.1357,N,08116.5020,W,1,10,1.6,20,M,,M,,*6F
06/11/2015	02:04:36.549	$GPGGA,020437,2425.1353,N,08116.5034,W,1,10,1.7,20,M,,M,,*6E
06/11/2015	02:04:37.579	$GPGGA,020438,2425.1349,N,08116.5048,W,1,10,1.6,20,M,,M,,*60
06/11/2015	02:04:38.561	$GPGGA,020439,2425.1346,N,08116.5062,W,1,10,1.6,20,M,,M,,*66
06/11/2015	02:04:39.560	$GPGGA,020440,2425.1342,N,08116.5076,W,1,10,1.6,20,M,,M,,*69
06/11/2015	02:04:40.550	$GPGGA,020441,2425.1339,N,08116.5090,W,1,10,1.7,20,M,,M,,*6D
06/11/2015	02:04:41.560	$GPGGA,020442,2425.1335,N,08116.5103,W,1,9,1.7,20,M,,M,,*51
06/11/2015	02:04:42.540	$GPGGA,020443,2425.1331,N,08116.5116,W,1,9,1.6,20,M,,M,,*51
06/11/2015	02:04:43.559	$GPGGA,020444,2425.1328,N,08116.5130,W,1,10,1.6,20,M,,M,,*62
06/11/2015	02:04:44.539	$GPGGA,020445,2425.1321,N,08116.5145,W,1,10,1.6,20,M,,M,,*68
06/11/2015	02:04:45.559	$GPGGA,020446,2425.1314,N,08116.5159,W,1,8,2.1,20,M,,M,,*5D
06/11/2015	02:04:46.539	$GPGGA,020447,2425.1310,N,08116.5173,W,1,8,2.1,20,M,,M,,*50
06/11/2015	02:04:47.569	$GPGGA,020448,2425.1306,N,08116.5188,W,1,8,2.1,20,M,,M,,*5C
06/11/2015	02:04:48.529	$GPGGA,020449,2425.1301,N,08116.5199,W,1,8,1.6,20,M,,M,,*5E
06/11/2015	02:04:49.519	$GPGGA,020450,2425.1296,N,08116.5213,W,1,8,1.9,20,M,,M,,*57
06/11/2015	02:04:50.519	$GPGGA,020451,2425.1292,N,08116.5228,W,1,8,1.7,20,M,,M,,*54
06/11/2015	02:04:51.571	$GPGGA,020452,2425.1292,N,08116.5239,W,1,9,1.7,20,M,,M,,*56
06/11/2015	02:04:52.639	$GPGGA,020453,2425.1284,N,08116.5254,W,1,9,1.8,20,M,,M,,*54
06/11/2015	02:04:53.539	$GPGGA,020454,2425.1282,N,08116.5267,W,1,9,1.7,20,M,,M,,*5A
06/11/2015	02:04:54.509	$GPGGA,020455,2425.1277,N,08116.5282,W,1,9,1.8,20,M,,M,,*55
06/11/2015	02:04:55.530	$GPGGA,020456,2425.1272,N,08116.5294,W,1,9,1.7,20,M,,M,,*5B
06/11/2015	02:04:56.520	$GPGGA,020457,2425.1268,N,08116.5307,W,1,9,1.7,20,M,,M,,*5A
06/11/2015	02:04:57.530	$GPGGA,020458,2425.1264,N,08116.5321,W,1,10,1.6,20,M,,M,,*64
06/11/2015	02:04:58.510	$GPGGA,020459,2425.1260,N,08116.5333,W,1,10,1.7,20,M,,M,,*63
06/11/2015	02:04:59.560	$GPGGA,020500,2425.1256,N,08116.5347,W,1,10,1.6,20,M,,M,,*69
06/11/2015	02:05:00.520	$GPGGA,020501,2425.1253,N,08116.5358,W,1,10,1.6,20,M,,M,,*63
06/11/2015	02:05:01.629	$GPGGA,020502,2425.1248,N,08116.5372,W,1,10,1.6,20,M,,M,,*62
06/11/2015	02:05:02.509	$GPGGA,020503,2425.1245,N,08116.5387,W,1,10,1.7,20,M,,M,,*65
06/11/2015	02:05:03.639	$GPGGA,020504,2425.1239,N,08116.5401,W,1,9,1.7,20,M,,M,,*58
06/11/2015	02:05:04.584	$GPGGA,020505,2425.1234,N,08116.5413,W,1,9,1.7,21,M,,M,,*56
06/11/2015	02:05:05.629	$GPGGA,020506,2425.1230,N,08116.5426,W,1,10,1.6,21,M,,M,,*6E
06/11/2015	02:05:06.599	$GPGGA,020507,2425.1227,N,08116.5441,W,1,10,1.6,21,M,,M,,*68
06/11/2015	02:05:07.599	$GPGGA,020508,2425.1221,N,08116.5455,W,1,9,1.7,21,M,,M,,*5D
06/11/2015	02:05:08.499	$GPGGA,020509,2425.1216,N,08116.5469,W,1,9,1.7,21,M,,M,,*57
06/11/2015	02:05:09.619	$GPGGA,020510,2425.1214,N,08116.5480,W,1,9,1.7,21,M,,M,,*5A
06/11/2015	02:05:10.579	$GPGGA,020511,2425.1212,N,08116.5493,W,1,9,1.8,21,M,,M,,*50
06/11/2015	02:05:11.609	$GPGGA,020512,2425.1206,N,08116.5507,W,1,9,1.7,21,M,,M,,*55
06/11/2015	02:05:12.579	$GPGGA,020513,2425.1203,N,08116.5521,W,1,9,1.8,21,M,,M,,*5A
06/11/2015	02:05:13.578	$GPGGA,020514,2425.1198,N,08116.5535,W,1,9,1.7,21,M,,M,,*56
06/11/2015	02:05:14.573	$GPGGA,020515,2425.1194,N,08116.5549,W,1,9,2.1,21,M,,M,,*55
06/11/2015	02:05:15.630	$GPGGA,020516,2425.1189,N,08116.5564,W,1,9,1.7,21,M,,M,,*50
06/11/2015	02:05:16.584	$GPGGA,020517,2425.1185,N,08116.5578,W,1,9,1.7,21,M,,M,,*50
06/11/2015	02:05:17.560	$GPGGA,020518,2425.1180,N,08116.5592,W,1,9,1.7,21,M,,M,,*5E
06/11/2015	02:05:18.559	$GPGGA,020519,2425.1176,N,08116.5607,W,1,9,2.1,20,M,,M,,*5D
06/11/2015	02:05:19.599	$GPGGA,020520,2425.1171,N,08116.5621,W,1,9,1.7,20,M,,M,,*51
06/11/2015	02:05:20.579	$GPGGA,020521,2425.1169,N,08116.5632,W,1,9,1.7,20,M,,M,,*5B
06/11/2015	02:05:21.589	$GPGGA,020522,2425.1167,N,08116.5645,W,1,8,1.9,20,M,,M,,*59
06/11/2015	02:05:22.549	$GPGGA,020523,2425.1165,N,08116.5658,W,1,8,1.7,20,M,,M,,*58
06/11/2015	02:05:23.599	$GPGGA,020524,2425.1161,N,08116.5672,W,1,9,1.7,20,M,,M,,*52
06/11/2015	02:05:24.559	$GPGGA,020525,2425.1158,N,08116.5686,W,1,9,1.7,20,M,,M,,*52
06/11/2015	02:05:25.549	$GPGGA,020526,2425.1155,N,08116.5697,W,1,9,1.8,20,M,,M,,*53
06/11/2015	02:05:26.549	$GPGGA,020527,2425.1151,N,08116.5710,W,1,9,1.8,20,M,,M,,*58
06/11/2015	02:05:27.581	$GPGGA,020528,2425.1151,N,08116.5723,W,1,9,1.7,20,M,,M,,*58
06/11/2015	02:05:28.549	$GPGGA,020529,2425.1147,N,08116.5737,W,1,9,1.6,20,M,,M,,*5A
06/11/2015	02:05:29.549	$GPGGA,020530,2425.1142,N,08116.5751,W,1,10,1.6,20,M,,M,,*6F
06/11/2015	02:05:30.540	$GPGGA,020531,2425.1138,N,08116.5764,W,1,10,1.6,19,M,,M,,*6F
06/11/2015	02:05:31.580	$GPGGA,020532,2425.1135,N,08116.5777,W,1,9,1.8,19,M,,M,,*55
06/11/2015	02:05:32.530	$GPGGA,020533,2425.1131,N,08116.5791,W,1,9,1.6,19,M,,M,,*56
06/11/2015	02:05:33.570	$GPGGA,020534,2425.1126,N,08116.5805,W,1,9,1.7,19,M,,M,,*54
06/11/2015	02:05:34.550	$GPGGA,020535,2425.1122,N,08116.5817,W,1,9,1.7,19,M,,M,,*52
06/11/2015	02:05:35.540	$GPGGA,020536,2425.1117,N,08116.5831,W,1,10,1.6,19,M,,M,,*6A
06/11/2015	02:05:36.529	$GPGGA,020537,2425.1113,N,08116.5845,W,1,10,1.6,19,M,,M,,*6C
06/11/2015	02:05:37.559	$GPGGA,020538,2425.1108,N,08116.5857,W,1,8,1.9,19,M,,M,,*5C
06/11/2015	02:05:38.519	$GPGGA,020539,2425.1105,N,08116.5871,W,1,8,1.8,19,M,,M,,*55
06/11/2015	02:05:39.659	$GPGGA,020540,2425.1101,N,08116.5882,W,1,10,1.6,19,M,,M,,*64
06/11/2015	02:05:40.520	$GPGGA,020541,2425.1094,N,08116.5896,W,1,10,1.8,19,M,,M,,*63
06/11/2015	02:05:41.649	$GPGGA,020542,2425.1089,N,08116.5911,W,1,10,1.6,19,M,,M,,*6C
06/11/2015	02:05:42.629	$GPGGA,020543,2425.1086,N,08116.5925,W,1,10,1.6,19,M,,M,,*65
06/11/2015	02:05:43.529	$GPGGA,020544,2425.1082,N,08116.5936,W,1,9,1.8,19,M,,M,,*52
06/11/2015	02:05:44.509	$GPGGA,020545,2425.1075,N,08116.5948,W,1,9,1.8,19,M,,M,,*52
06/11/2015	02:05:45.639	$GPGGA,020546,2425.1071,N,08116.5962,W,1,10,1.6,19,M,,M,,*6B
06/11/2015	02:05:46.509	$GPGGA,020547,2425.1066,N,08116.5975,W,1,10,1.9,19,M,,M,,*65
06/11/2015	02:05:47.619	$GPGGA,020548,2425.1060,N,08116.5990,W,1,8,1.9,19,M,,M,,*5E
06/11/2015	02:05:48.610	$GPGGA,020549,2425.1057,N,08116.6002,W,1,8,1.6,19,M,,M,,*55
06/11/2015	02:05:49.500	$GPGGA,020550,2425.1053,N,08116.6015,W,1,10,1.6,19,M,,M,,*66
06/11/2015	02:05:50.600	$GPGGA,020551,2425.1046,N,08116.6030,W,1,10,1.6,19,M,,M,,*64
06/11/2015	02:05:51.520	$GPGGA,020552,2425.1040,N,08116.6042,W,1,9,1.7,19,M,,M,,*5D
06/11/2015	02:05:52.600	$GPGGA,020553,2425.1036,N,08116.6056,W,1,9,1.8,19,M,,M,,*57
06/11/2015	02:05:53.599	$GPGGA,020554,2425.1031,N,08116.6070,W,1,10,1.6,19,M,,M,,*65
06/11/2015	02:05:54.499	$GPGGA,020555,2425.1028,N,08116.6084,W,1,10,1.7,19,M,,M,,*66
06/11/2015	02:05:55.599	$GPGGA,020556,2425.1021,N,08116.6098,W,1,9,1.7,19,M,,M,,*59
06/11/2015	02:05:56.590	$GPGGA,020557,2425.1017,N,08116.6111,W,1,9,1.7,19,M,,M,,*5D
06/11/2015	02:05:57.619	$GPGGA,020558,2425.1013,N,08116.6125,W,1,9,1.7,19,M,,M,,*51
06/11/2015	02:05:58.568	$GPGGA,020559,2425.1008,N,08116.6138,W,1,9,1.7,19,M,,M,,*56
06/11/2015	02:05:59.679	$GPGGA,020600,2425.1004,N,08116.6152,W,1,9,1.7,19,M,,M,,*59
06/11/2015	02:06:00.469	$GPGGA,020601,2425.1003,N,08116.6163,W,1,9,1.8,19,M,,M,,*52
06/11/2015	02:06:01.589	$GPGGA,020602,2425.0999,N,08116.6176,W,1,10,1.6,19,M,,M,,*68
06/11/2015	02:06:02.479	$GPGGA,020603,2425.0997,N,08116.6189,W,1,10,1.7,19,M,,M,,*66
06/11/2015	02:06:03.589	$GPGGA,020604,2425.0992,N,08116.6201,W,1,10,1.6,19,M,,M,,*66
06/11/2015	02:06:04.479	$GPGGA,020605,2425.0988,N,08116.6212,W,1,10,2.4,19,M,,M,,*6F
06/11/2015	02:06:05.579	$GPGGA,020606,2425.0985,N,08116.6223,W,1,10,1.6,19,M,,M,,*62
06/11/2015	02:06:06.559	$GPGGA,020607,2425.0982,N,08116.6236,W,1,10,1.6,20,M,,M,,*6A
06/11/2015	02:06:07.571	$GPGGA,020608,2425.0979,N,08116.6247,W,1,10,1.6,20,M,,M,,*67
06/11/2015	02:06:08.565	$GPGGA,020609,2425.0976,N,08116.6259,W,1,10,1.6,20,M,,M,,*66
06/11/2015	02:06:09.549	$GPGGA,020610,2425.0972,N,08116.6272,W,1,10,1.6,20,M,,M,,*63
06/11/2015	02:06:10.566	$GPGGA,020611,2425.0970,N,08116.6286,W,1,10,1.6,20,M,,M,,*6B
06/11/2015	02:06:11.578	$GPGGA,020612,2425.0965,N,08116.6298,W,1,9,1.7,20,M,,M,,*5A
06/11/2015	02:06:12.548	$GPGGA,020613,2425.0961,N,08116.6311,W,1,9,1.6,20,M,,M,,*5E
06/11/2015	02:06:13.560	$GPGGA,020614,2425.0958,N,08116.6323,W,1,9,1.7,21,M,,M,,*52
06/11/2015	02:06:14.538	$GPGGA,020615,2425.0956,N,08116.6335,W,1,9,1.6,21,M,,M,,*5B
06/11/2015	02:06:15.565	$GPGGA,020616,2425.0952,N,08116.6348,W,1,10,1.6,21,M,,M,,*6E
06/11/2015	02:06:16.539	$GPGGA,020617,2425.0948,N,08116.6360,W,1,10,1.6,21,M,,M,,*6E
06/11/2015	02:06:17.529	$GPGGA,020618,2425.0945,N,08116.6373,W,1,10,1.6,21,M,,M,,*6E
06/11/2015	02:06:18.539	$GPGGA,020619,2425.0942,N,08116.6385,W,1,10,1.6,21,M,,M,,*61
06/11/2015	02:06:20.539	$GPGGA,020620,2425.0938,N,08116.6396,W,1,10,1.6,21,M,,M,,*64
06/11/2015	02:06:20.569	$GPGGA,020621,2425.0936,N,08116.6409,W,1,10,1.8,22,M,,M,,*67
06/11/2015	02:06:21.549	$GPGGA,020622,2425.0934,N,08116.6423,W,1,10,1.6,22,M,,M,,*60
06/11/2015	02:06:22.519	$GPGGA,020623,2425.0928,N,08116.6438,W,1,10,1.6,22,M,,M,,*66
06/11/2015	02:06:23.519	$GPGGA,020624,2425.0923,N,08116.6450,W,1,9,1.8,22,M,,M,,*52
06/11/2015	02:06:24.539	$GPGGA,020625,2425.0920,N,08116.6463,W,1,9,1.7,22,M,,M,,*5F
06/11/2015	02:06:25.519	$GPGGA,020626,2425.0918,N,08116.6475,W,1,10,1.6,22,M,,M,,*69
06/11/2015	02:06:26.519	$GPGGA,020627,2425.0916,N,08116.6488,W,1,10,1.6,22,M,,M,,*64
06/11/2015	02:06:27.560	$GPGGA,020628,2425.0911,N,08116.6501,W,1,10,1.6,22,M,,M,,*6C
06/11/2015	02:06:28.518	$GPGGA,020629,2425.0905,N,08116.6517,W,1,10,1.6,22,M,,M,,*6F
06/11/2015	02:06:29.570	$GPGGA,020630,2425.0901,N,08116.6530,W,1,9,1.7,22,M,,M,,*5F
06/11/2015	02:06:30.518	$GPGGA,020631,2425.0898,N,08116.6543,W,1,9,1.8,22,M,,M,,*54
06/11/2015	02:06:31.508	$GPGGA,020632,2425.0893,N,08116.6557,W,1,9,1.7,22,M,,M,,*56
06/11/2015	02:06:32.518	$GPGGA,020633,2425.0891,N,08116.6572,W,1,9,2.8,22,M,,M,,*5E
06/11/2015	02:06:33.489	$GPGGA,020634,2425.0887,N,08116.6584,W,1,10,1.6,22,M,,M,,*62
06/11/2015	02:06:34.520	$GPGGA,020635,2425.0883,N,08116.6598,W,1,10,1.8,22,M,,M,,*64
06/11/2015	02:06:35.499	$GPGGA,020636,2425.0881,N,08116.6611,W,1,9,1.7,22,M,,M,,*50
06/11/2015	02:06:36.589	$GPGGA,020637,2425.0878,N,08116.6624,W,1,9,1.6,22,M,,M,,*50
06/11/2015	02:06:37.549	$GPGGA,020638,2425.0876,N,08116.6637,W,1,10,1.6,22,M,,M,,*6B
06/11/2015	02:06:38.499	$GPGGA,020639,2425.0870,N,08116.6649,W,1,10,1.6,22,M,,M,,*65
06/11/2015	02:06:39.509	$GPGGA,020640,2425.0865,N,08116.6662,W,1,9,1.8,22,M,,M,,*50
06/11/2015	02:06:40.489	$GPGGA,020641,2425.0862,N,08116.6674,W,1,9,1.6,22,M,,M,,*5F
06/11/2015	02:06:41.619	$GPGGA,020642,2425.0858,N,08116.6688,W,1,9,2.4,22,M,,M,,*57
06/11/2015	02:06:42.489	$GPGGA,020643,2425.0853,N,08116.6702,W,1,9,2.4,22,M,,M,,*5E
06/11/2015	02:06:43.629	$GPGGA,020644,2425.0848,N,08116.6714,W,1,9,1.6,22,M,,M,,*55
06/11/2015	02:06:44.579	$GPGGA,020645,2425.0844,N,08116.6728,W,1,9,1.6,22,M,,M,,*57
06/11/2015	02:06:45.499	$GPGGA,020646,2425.0841,N,08116.6741,W,1,10,1.6,22,M,,M,,*66
06/11/2015	02:06:46.488	$GPGGA,020647,2425.0836,N,08116.6754,W,1,10,1.6,22,M,,M,,*63
06/11/2015	02:06:47.618	$GPGGA,020648,2425.0831,N,08116.6767,W,1,10,1.6,22,M,,M,,*6B
06/11/2015	02:06:48.588	$GPGGA,020649,2425.0829,N,08116.6778,W,1,10,1.7,22,M,,M,,*6C
06/11/2015	02:06:49.588	$GPGGA,020650,2425.0824,N,08116.6792,W,1,9,1.7,22,M,,M,,*55
06/11/2015	02:06:50.476	$GPGGA,020651,2425.0820,N,08116.6806,W,1,9,1.7,22,M,,M,,*52
06/11/2015	02:06:51.609	$GPGGA,020652,2425.0815,N,08116.6818,W,1,9,1.7,22,M,,M,,*58
06/11/2015	02:06:52.564	$GPGGA,020653,2425.0811,N,08116.6832,W,1,9,1.6,22,M,,M,,*54
06/11/2015	02:06:53.564	$GPGGA,020654,2425.0807,N,08116.6844,W,1,10,1.7,22,M,,M,,*6C
06/11/2015	02:06:54.573	$GPGGA,020655,2425.0804,N,08116.6857,W,1,10,1.6,22,M,,M,,*6D
06/11/2015	02:06:55.599	$GPGGA,020656,2425.0801,N,08116.6868,W,1,10,1.6,22,M,,M,,*67
06/11/2015	02:06:56.559	$GPGGA,020657,2425.0797,N,08116.6882,W,1,10,1.7,22,M,,M,,*63
06/11/2015	02:06:57.539	$GPGGA,020658,2425.0791,N,08116.6897,W,1,9,1.6,22,M,,M,,*57
06/11/2015	02:06:58.609	$GPGGA,020659,2425.0786,N,08116.6909,W,1,9,1.7,22,M,,M,,*57
06/11/2015	02:06:59.619	$GPGGA,020700,2425.0784,N,08116.6922,W,1,9,1.6,22,M,,M,,*50
06/11/2015	02:07:00.549	$GPGGA,020701,2425.0779,N,08116.6934,W,1,9,1.7,22,M,,M,,*55
06/11/2015	02:07:01.567	$GPGGA,020702,2425.0775,N,08116.6948,W,1,9,1.7,22,M,,M,,*51
06/11/2015	02:07:02.539	$GPGGA,020703,2425.0771,N,08116.6962,W,1,9,1.8,22,M,,M,,*53
06/11/2015	02:07:03.570	$GPGGA,020704,2425.0765,N,08116.6976,W,1,9,1.7,22,M,,M,,*5B
06/11/2015	02:07:04.528	$GPGGA,020705,2425.0762,N,08116.6988,W,1,9,1.6,22,M,,M,,*5D
06/11/2015	02:07:05.563	$GPGGA,020706,2425.0759,N,08116.6999,W,1,10,1.6,22,M,,M,,*6E
06/11/2015	02:07:06.548	$GPGGA,020707,2425.0755,N,08116.7013,W,1,10,1.7,22,M,,M,,*68
06/11/2015	02:07:07.570	$GPGGA,020708,2425.0752,N,08116.7027,W,1,9,1.7,22,M,,M,,*5F
06/11/2015	02:07:08.539	$GPGGA,020709,2425.0748,N,08116.7041,W,1,9,1.7,22,M,,M,,*55
06/11/2015	02:07:09.569	$GPGGA,020710,2425.0743,N,08116.7053,W,1,9,1.6,22,M,,M,,*54
06/11/2015	02:07:10.519	$GPGGA,020711,2425.0740,N,08116.7066,W,1,9,1.9,22,M,,M,,*5F
06/11/2015	02:07:11.579	$GPGGA,020712,2425.0736,N,08116.7081,W,1,9,1.7,22,M,,M,,*5A
06/11/2015	02:07:12.519	$GPGGA,020713,2425.0733,N,08116.7093,W,1,9,1.6,22,M,,M,,*5C
06/11/2015	02:07:13.529	$GPGGA,020714,2425.0728,N,08116.7106,W,1,10,1.6,22,M,,M,,*64
06/11/2015	02:07:14.509	$GPGGA,020715,2425.0724,N,08116.7120,W,1,10,1.6,22,M,,M,,*6D
06/11/2015	02:07:15.563	$GPGGA,020716,2425.0721,N,08116.7133,W,1,10,1.7,22,M,,M,,*68
06/11/2015	02:07:16.519	$GPGGA,020717,2425.0717,N,08116.7146,W,1,10,1.6,22,M,,M,,*6F
06/11/2015	02:07:17.549	$GPGGA,020718,2425.0711,N,08116.7160,W,1,10,1.6,22,M,,M,,*62
06/11/2015	02:07:18.519	$GPGGA,020719,2425.0707,N,08116.7172,W,1,10,1.6,22,M,,M,,*67
06/11/2015	02:07:19.559	$GPGGA,020720,2425.0703,N,08116.7186,W,1,10,1.6,22,M,,M,,*62
06/11/2015	02:07:20.499	$GPGGA,020721,2425.0699,N,08116.7198,W,1,10,1.6,22,M,,M,,*6E
06/11/2015	02:07:21.528	$GPGGA,020722,2425.0695,N,08116.7212,W,1,10,1.6,22,M,,M,,*60
06/11/2015	02:07:22.508	$GPGGA,020723,2425.0692,N,08116.7226,W,1,10,1.6,22,M,,M,,*61
06/11/2015	02:07:23.562	$GPGGA,020724,2425.0687,N,08116.7240,W,1,10,1.6,22,M,,M,,*62
06/11/2015	02:07:24.498	$GPGGA,020725,2425.0681,N,08116.7252,W,1,10,1.6,22,M,,M,,*66
06/11/2015	02:07:25.529	$GPGGA,020726,2425.0678,N,08116.7266,W,1,10,1.6,22,M,,M,,*64
06/11/2015	02:07:26.589	$GPGGA,020727,2425.0674,N,08116.7280,W,1,10,1.7,22,M,,M,,*60
06/11/2015	02:07:27.609	$GPGGA,020728,2425.0668,N,08116.7292,W,1,9,1.7,22,M,,M,,*59
06/11/2015	02:07:28.509	$GPGGA,020729,2425.0664,N,08116.7305,W,1,9,1.6,22,M,,M,,*5A
06/11/2015	02:07:29.519	$GPGGA,020730,2425.0660,N,08116.7319,W,1,10,1.6,22,M,,M,,*63
06/11/2015	02:07:30.499	$GPGGA,020731,2425.0656,N,08116.7332,W,1,10,1.6,22,M,,M,,*6E
06/11/2015	02:07:31.539	$GPGGA,020732,2425.0650,N,08116.7346,W,1,10,1.6,22,M,,M,,*68
06/11/2015	02:07:32.499	$GPGGA,020733,2425.0645,N,08116.7359,W,1,10,1.7,22,M,,M,,*62
06/11/2015	02:07:33.489	$GPGGA,020734,2425.0641,N,08116.7374,W,1,9,1.7,22,M,,M,,*56
06/11/2015	02:07:34.870	$GPGGA,020735,2425.0638,N,08116.7386,W,1,9,1.7,22,M,,M,,*54
06/11/2015	02:07:35.539	$GPGGA,020736,2425.0634,N,08116.7399,W,1,10,1.6,22,M,,M,,*6C
06/11/2015	02:07:36.572	$GPGGA,020737,2425.0630,N,08116.7411,W,1,10,1.9,22,M,,M,,*61
06/11/2015	02:07:37.589	$GPGGA,020738,2425.0627,N,08116.7424,W,1,9,1.9,21,M,,M,,*55
06/11/2015	02:07:38.488	$GPGGA,020739,2425.0622,N,08116.7438,W,1,9,1.9,21,M,,M,,*5C
06/11/2015	02:07:39.598	$GPGGA,020740,2425.0620,N,08116.7449,W,1,9,1.6,21,M,,M,,*59
06/11/2015	02:07:40.478	$GPGGA,020741,2425.0616,N,08116.7465,W,1,9,1.7,21,M,,M,,*52
06/11/2015	02:07:42.048	$GPGGA,020742,2425.0610,N,08116.7478,W,1,9,1.7,21,M,,M,,*5B
06/11/2015	02:07:42.562	$GPGGA,020743,2425.0605,N,08116.7491,W,1,9,2.1,21,M,,M,,*5C
06/11/2015	02:07:43.564	$GPGGA,020744,2425.0602,N,08116.7504,W,1,8,1.6,21,M,,M,,*54
06/11/2015	02:07:44.563	$GPGGA,020745,2425.0599,N,08116.7515,W,1,8,1.6,21,M,,M,,*54
06/11/2015	02:07:45.549	$GPGGA,020746,2425.0595,N,08116.7529,W,1,10,1.6,21,M,,M,,*6D
06/11/2015	02:07:46.563	$GPGGA,020747,2425.0593,N,08116.7541,W,1,10,1.6,21,M,,M,,*64
06/11/2015	02:07:47.569	$GPGGA,020748,2425.0589,N,08116.7555,W,1,10,1.7,22,M,,M,,*67
06/11/2015	02:07:48.549	$GPGGA,020749,2425.0587,N,08116.7568,W,1,10,1.7,22,M,,M,,*66
06/11/2015	02:07:49.589	$GPGGA,020750,2425.0584,N,08116.7581,W,1,9,1.9,22,M,,M,,*5C
06/11/2015	02:07:50.539	$GPGGA,020751,2425.0578,N,08116.7597,W,1,9,1.6,22,M,,M,,*56
06/11/2015	02:07:52.082	$GPGGA,020752,2425.0575,N,08116.7610,W,1,10,1.6,22,M,,M,,*6C
06/11/2015	02:07:52.539	$GPGGA,020753,2425.0570,N,08116.7624,W,1,10,1.6,22,M,,M,,*6F
06/11/2015	02:07:53.549	$GPGGA,020754,2425.0569,N,08116.7638,W,1,8,2.1,22,M,,M,,*50
06/11/2015	02:07:54.549	$GPGGA,020755,2425.0566,N,08116.7652,W,1,8,1.9,22,M,,M,,*59
06/11/2015	02:07:55.549	$GPGGA,020756,2425.0563,N,08116.7666,W,1,10,1.6,22,M,,M,,*6E
06/11/2015	02:07:56.529	$GPGGA,020757,2425.0560,N,08116.7678,W,1,10,1.6,22,M,,M,,*63
06/11/2015	02:07:57.548	$GPGGA,020758,2425.0557,N,08116.7691,W,1,10,1.6,22,M,,M,,*6F
06/11/2015	02:07:58.518	$GPGGA,020759,2425.0555,N,08116.7704,W,1,10,1.6,22,M,,M,,*61
06/11/2015	02:07:59.598	$GPGGA,020800,2425.0551,N,08116.7718,W,1,9,1.7,22,M,,M,,*52
06/11/2015	02:08:00.519	$GPGGA,020801,2425.0548,N,08116.7732,W,1,9,1.7,22,M,,M,,*53
06/11/2015	02:08:01.539	$GPGGA,020802,2425.0545,N,08116.7745,W,1,10,1.6,22,M,,M,,*64
06/11/2015	02:08:02.529	$GPGGA,020803,2425.0541,N,08116.7757,W,1,10,1.6,22,M,,M,,*62
06/11/2015	02:08:03.561	$GPGGA,020804,2425.0538,N,08116.7771,W,1,9,1.9,22,M,,M,,*58
06/11/2015	02:08:04.529	$GPGGA,020805,2425.0535,N,08116.7785,W,1,9,1.6,22,M,,M,,*50
06/11/2015	02:08:05.510	$GPGGA,020806,2425.0533,N,08116.7796,W,1,10,1.6,22,M,,M,,*6F
06/11/2015	02:08:06.499	$GPGGA,020807,2425.0528,N,08116.7809,W,1,10,1.9,22,M,,M,,*62
06/11/2015	02:08:07.529	$GPGGA,020808,2425.0524,N,08116.7822,W,1,10,1.6,22,M,,M,,*67
06/11/2015	02:08:08.499	$GPGGA,020809,2425.0520,N,08116.7836,W,1,10,1.6,22,M,,M,,*67
06/11/2015	02:08:09.539	$GPGGA,020810,2425.0517,N,08116.7848,W,1,9,1.8,22,M,,M,,*54
06/11/2015	02:08:10.509	$GPGGA,020811,2425.0513,N,08116.7862,W,1,9,1.6,22,M,,M,,*57
06/11/2015	02:08:11.619	$GPGGA,020812,2425.0509,N,08116.7876,W,1,9,1.7,21,M,,M,,*58
06/11/2015	02:08:12.499	$GPGGA,020813,2425.0504,N,08116.7890,W,1,9,1.6,21,M,,M,,*5D
06/11/2015	02:08:13.588	$GPGGA,020814,2425.0500,N,08116.7905,W,1,10,1.6,21,M,,M,,*6B
06/11/2015	02:08:14.488	$GPGGA,020815,2425.0497,N,08116.7919,W,1,10,1.6,21,M,,M,,*68
06/11/2015	02:08:15.498	$GPGGA,020816,2425.0493,N,08116.7930,W,1,9,1.7,21,M,,M,,*5D
06/11/2015	02:08:16.588	$GPGGA,020817,2425.0490,N,08116.7944,W,1,9,1.6,21,M,,M,,*5D
06/11/2015	02:08:17.508	$GPGGA,020818,2425.0486,N,08116.7957,W,1,10,1.6,21,M,,M,,*6F
06/11/2015	02:08:18.499	$GPGGA,020819,2425.0482,N,08116.7970,W,1,10,1.6,21,M,,M,,*6F
06/11/2015	02:08:19.609	$GPGGA,020820,2425.0477,N,08116.7984,W,1,9,1.7,21,M,,M,,*5D
06/11/2015	02:08:20.499	$GPGGA,020821,2425.0475,N,08116.7998,W,1,9,1.6,21,M,,M,,*52
06/11/2015	02:08:21.576	$GPGGA,020822,2425.0468,N,08116.8010,W,1,10,1.6,21,M,,M,,*63
06/11/2015	02:08:23.789	$GPGGA,020823,2425.0464,N,08116.8024,W,1,10,1.8,21,M,,M,,*67
06/11/2015	02:08:23.819	$GPGGA,020824,2425.0459,N,08116.8036,W,1,10,1.6,21,M,,M,,*63
06/11/2015	02:08:24.576	$GPGGA,020825,2425.0455,N,08116.8050,W,1,10,1.6,21,M,,M,,*6E
06/11/2015	02:08:25.589	$GPGGA,020826,2425.0451,N,08116.8064,W,1,10,1.6,21,M,,M,,*6E
06/11/2015	02:08:26.572	$GPGGA,020827,2425.0446,N,08116.8078,W,1,10,1.6,21,M,,M,,*64
06/11/2015	02:08:27.572	$GPGGA,020828,2425.0441,N,08116.8089,W,1,10,1.6,20,M,,M,,*63
06/11/2015	02:08:28.566	$GPGGA,020829,2425.0439,N,08116.8103,W,1,10,1.6,20,M,,M,,*6E
06/11/2015	02:08:29.568	$GPGGA,020830,2425.0435,N,08116.8116,W,1,10,1.6,20,M,,M,,*6E
06/11/2015	02:08:30.569	$GPGGA,020831,2425.0430,N,08116.8129,W,1,10,1.9,20,M,,M,,*69
06/11/2015	02:08:31.573	$GPGGA,020832,2425.0424,N,08116.8141,W,1,9,1.9,20,M,,M,,*59
06/11/2015	02:08:32.571	$GPGGA,020833,2425.0421,N,08116.8155,W,1,9,1.6,20,M,,M,,*57
06/11/2015	02:08:33.548	$GPGGA,020834,2425.0417,N,08116.8168,W,1,10,1.6,20,M,,M,,*63
06/11/2015	02:08:34.563	$GPGGA,020835,2425.0412,N,08116.8180,W,1,10,2.2,20,M,,M,,*66
06/11/2015	02:08:35.579	$GPGGA,020836,2425.0405,N,08116.8191,W,1,10,1.6,20,M,,M,,*64
06/11/2015	02:08:36.549	$GPGGA,020837,2425.0401,N,08116.8204,W,1,10,1.6,20,M,,M,,*6E
06/11/2015	02:08:37.999	$GPGGA,020838,2425.0396,N,08116.8216,W,1,10,1.6,20,M,,M,,*6B
06/11/2015	02:08:38.549	$GPGGA,020839,2425.0389,N,08116.8230,W,1,10,1.7,20,M,,M,,*61
06/11/2015	02:08:39.589	$GPGGA,020840,2425.0385,N,08116.8241,W,1,10,1.6,20,M,,M,,*64
06/11/2015	02:08:40.539	$GPGGA,020841,2425.0379,N,08116.8251,W,1,10,2.2,20,M,,M,,*60
06/11/2015	02:08:41.563	$GPGGA,020842,2425.0374,N,08116.8262,W,1,10,1.6,20,M,,M,,*69
06/11/2015	02:08:42.539	$GPGGA,020843,2425.0370,N,08116.8275,W,1,10,1.6,20,M,,M,,*6A
06/11/2015	02:08:43.579	$GPGGA,020844,2425.0367,N,08116.8288,W,1,9,1.9,20,M,,M,,*5E
06/11/2015	02:08:44.529	$GPGGA,020845,2425.0363,N,08116.8300,W,1,9,1.9,21,M,,M,,*5B
06/11/2015	02:08:45.549	$GPGGA,020846,2425.0357,N,08116.8313,W,1,9,1.9,21,M,,M,,*5D
06/11/2015	02:08:46.529	$GPGGA,020847,2425.0353,N,08116.8327,W,1,9,1.6,21,M,,M,,*50
06/11/2015	02:08:47.529	$GPGGA,020848,2425.0349,N,08116.8340,W,1,10,1.6,21,M,,M,,*6D
06/11/2015	02:08:48.528	$GPGGA,020849,2425.0346,N,08116.8354,W,1,10,1.6,21,M,,M,,*66
06/11/2015	02:08:49.508	$GPGGA,020850,2425.0345,N,08116.8365,W,1,9,1.7,21,M,,M,,*56
06/11/2015	02:08:50.528	$GPGGA,020851,2425.0340,N,08116.8379,W,1,9,1.6,21,M,,M,,*5E
06/11/2015	02:08:51.528	$GPGGA,020852,2425.0336,N,08116.8392,W,1,10,1.6,21,M,,M,,*61
06/11/2015	02:08:52.508	$GPGGA,020853,2425.0333,N,08116.8407,W,1,10,1.6,21,M,,M,,*6E
06/11/2015	02:08:53.509	$GPGGA,020854,2425.0328,N,08116.8421,W,1,10,1.6,21,M,,M,,*67
06/11/2015	02:08:54.529	$GPGGA,020855,2425.0324,N,08116.8436,W,1,10,1.6,21,M,,M,,*6C
06/11/2015	02:08:55.519	$GPGGA,020856,2425.0320,N,08116.8450,W,1,9,1.7,21,M,,M,,*52
06/11/2015	02:08:56.499	$GPGGA,020857,2425.0316,N,08116.8465,W,1,9,1.6,22,M,,M,,*52
06/11/2015	02:08:57.509	$GPGGA,020858,2425.0311,N,08116.8479,W,1,10,1.6,22,M,,M,,*6F
06/11/2015	02:08:58.619	$GPGGA,020859,2425.0307,N,08116.8493,W,1,10,1.6,22,M,,M,,*6D
06/11/2015	02:08:59.599	$GPGGA,020900,2425.0303,N,08116.8508,W,1,9,1.7,22,M,,M,,*5E
06/11/2015	02:09:00.509	$GPGGA,020901,2425.0298,N,08116.8522,W,1,9,1.7,22,M,,M,,*54
06/11/2015	02:09:01.509	$GPGGA,020902,2425.0294,N,08116.8537,W,1,10,1.6,22,M,,M,,*66
06/11/2015	02:09:02.499	$GPGGA,020903,2425.0291,N,08116.8551,W,1,10,1.6,22,M,,M,,*62
06/11/2015	02:09:03.519	$GPGGA,020904,2425.0288,N,08116.8563,W,1,10,1.6,22,M,,M,,*6C
06/11/2015	02:09:04.499	$GPGGA,020905,2425.0284,N,08116.8577,W,1,10,1.7,22,M,,M,,*65
06/11/2015	02:09:05.609	$GPGGA,020906,2425.0281,N,08116.8589,W,1,10,1.7,22,M,,M,,*62
06/11/2015	02:09:06.508	$GPGGA,020907,2425.0277,N,08116.8603,W,1,10,1.8,22,M,,M,,*64
06/11/2015	02:09:07.508	$GPGGA,020908,2425.0273,N,08116.8618,W,1,10,1.7,22,M,,M,,*6A
06/11/2015	02:09:08.478	$GPGGA,020909,2425.0268,N,08116.8631,W,1,10,1.7,22,M,,M,,*6A
06/11/2015	02:09:09.598	$GPGGA,020910,2425.0266,N,08116.8645,W,1,10,1.7,22,M,,M,,*6F
06/11/2015	02:09:10.489	$GPGGA,020911,2425.0262,N,08116.8658,W,1,10,1.7,22,M,,M,,*66
06/11/2015	02:09:11.489	$GPGGA,020912,2425.0259,N,08116.8671,W,1,10,1.7,22,M,,M,,*66
06/11/2015	02:09:12.479	$GPGGA,020913,2425.0255,N,08116.8685,W,1,10,1.7,22,M,,M,,*60
06/11/2015	02:09:13.563	$GPGGA,020914,2425.0251,N,08116.8699,W,1,10,1.7,22,M,,M,,*6E
06/11/2015	02:09:14.589	$GPGGA,020915,2425.0248,N,08116.8712,W,1,10,1.7,22,M,,M,,*65
06/11/2015	02:09:15.572	$GPGGA,020916,2425.0245,N,08116.8726,W,1,10,1.7,22,M,,M,,*6C
06/11/2015	02:09:16.560	$GPGGA,020917,2425.0241,N,08116.8740,W,1,10,1.7,22,M,,M,,*69
06/11/2015	02:09:17.589	$GPGGA,020918,2425.0237,N,08116.8754,W,1,10,1.7,22,M,,M,,*62
06/11/2015	02:09:18.563	$GPGGA,020919,2425.0233,N,08116.8768,W,1,10,1.9,22,M,,M,,*66
06/11/2015	02:09:19.599	$GPGGA,020920,2425.0228,N,08116.8783,W,1,10,1.7,22,M,,M,,*6D
06/11/2015	02:09:20.564	$GPGGA,020921,2425.0224,N,08116.8797,W,1,10,1.7,22,M,,M,,*65
06/11/2015	02:09:21.562	$GPGGA,020922,2425.0221,N,08116.8809,W,1,9,1.7,22,M,,M,,*53
06/11/2015	02:09:22.539	$GPGGA,020923,2425.0216,N,08116.8823,W,1,9,1.7,22,M,,M,,*5E
06/11/2015	02:09:23.559	$GPGGA,020924,2425.0211,N,08116.8838,W,1,9,1.8,22,M,,M,,*5B
06/11/2015	02:09:24.548	$GPGGA,020925,2425.0209,N,08116.8851,W,1,9,2.1,22,M,,M,,*56
06/11/2015	02:09:25.538	$GPGGA,020926,2425.0205,N,08116.8865,W,1,10,1.7,22,M,,M,,*63
06/11/2015	02:09:26.548	$GPGGA,020927,2425.0202,N,08116.8876,W,1,10,1.7,22,M,,M,,*67
06/11/2015	02:09:27.538	$GPGGA,020928,2425.0199,N,08116.8891,W,1,10,1.7,22,M,,M,,*60
06/11/2015	02:09:28.549	$GPGGA,020929,2425.0197,N,08116.8903,W,1,10,1.7,22,M,,M,,*65
06/11/2015	02:09:29.539	$GPGGA,020930,2425.0192,N,08116.8916,W,1,10,1.7,22,M,,M,,*6C
06/11/2015	02:09:30.539	$GPGGA,020931,2425.0188,N,08116.8930,W,1,10,1.7,22,M,,M,,*62
06/11/2015	02:09:31.562	$GPGGA,020932,2425.0186,N,08116.8943,W,1,10,1.7,22,M,,M,,*6B
06/11/2015	02:09:32.529	$GPGGA,020933,2425.0180,N,08116.8956,W,1,10,1.7,22,M,,M,,*68
06/11/2015	02:09:33.549	$GPGGA,020934,2425.0176,N,08116.8970,W,1,10,1.7,22,M,,M,,*62
06/11/2015	02:09:34.519	$GPGGA,020935,2425.0172,N,08116.8985,W,1,10,1.7,22,M,,M,,*6D
06/11/2015	02:09:35.549	$GPGGA,020936,2425.0168,N,08116.8997,W,1,10,1.7,22,M,,M,,*66
06/11/2015	02:09:36.519	$GPGGA,020937,2425.0164,N,08116.9010,W,1,10,1.7,22,M,,M,,*6C
06/11/2015	02:09:37.549	$GPGGA,020938,2425.0161,N,08116.9024,W,1,10,1.7,22,M,,M,,*61
06/11/2015	02:09:38.509	$GPGGA,020939,2425.0155,N,08116.9037,W,1,10,1.7,22,M,,M,,*65
06/11/2015	02:09:39.549	$GPGGA,020940,2425.0150,N,08116.9050,W,1,10,1.7,22,M,,M,,*6F
06/11/2015	02:09:40.509	$GPGGA,020941,2425.0145,N,08116.9064,W,1,10,1.7,22,M,,M,,*6D
06/11/2015	02:09:41.498	$GPGGA,020942,2425.0140,N,08116.9079,W,1,10,1.7,22,M,,M,,*67
06/11/2015	02:09:42.518	$GPGGA,020943,2425.0135,N,08116.9091,W,1,10,1.7,22,M,,M,,*62
06/11/2015	02:09:43.559	$GPGGA,020944,2425.0132,N,08116.9105,W,1,10,1.7,22,M,,M,,*6E
06/11/2015	02:09:44.528	$GPGGA,020945,2425.0126,N,08116.9119,W,1,10,1.7,22,M,,M,,*67
06/11/2015	02:09:45.529	$GPGGA,020946,2425.0121,N,08116.9133,W,1,9,1.8,22,M,,M,,*5C
06/11/2015	02:09:46.509	$GPGGA,020947,2425.0115,N,08116.9147,W,1,9,1.7,22,M,,M,,*56
06/11/2015	02:09:47.499	$GPGGA,020948,2425.0111,N,08116.9160,W,1,10,1.7,22,M,,M,,*60
06/11/2015	02:09:48.489	$GPGGA,020949,2425.0107,N,08116.9174,W,1,10,1.7,22,M,,M,,*63
06/11/2015	02:09:49.489	$GPGGA,020950,2425.0103,N,08116.9188,W,1,10,1.7,22,M,,M,,*6C
06/11/2015	02:09:50.489	$GPGGA,020951,2425.0098,N,08116.9202,W,1,10,1.7,22,M,,M,,*6F
06/11/2015	02:09:51.519	$GPGGA,020952,2425.0094,N,08116.9216,W,1,10,1.7,22,M,,M,,*65
06/11/2015	02:09:52.499	$GPGGA,020953,2425.0089,N,08116.9230,W,1,10,1.7,22,M,,M,,*6C
06/11/2015	02:09:54.539	$GPGGA,020955,2425.0080,N,08116.9257,W,1,10,1.7,22,M,,M,,*62
06/11/2015	02:09:55.489	$GPGGA,020956,2425.0078,N,08116.9271,W,1,10,1.7,22,M,,M,,*62
06/11/2015	02:09:56.579	$GPGGA,020957,2425.0071,N,08116.9283,W,1,10,1.9,22,M,,M,,*69
06/11/2015	02:09:57.674	$GPGGA,020958,2425.0067,N,08116.9297,W,1,9,1.9,22,M,,M,,*5C
06/11/2015	02:09:58.488	$GPGGA,020959,2425.0062,N,08116.9311,W,1,9,1.7,22,M,,M,,*59
06/11/2015	02:09:59.688	$GPGGA,021000,2425.0057,N,08116.9324,W,1,10,1.7,22,M,,M,,*65
06/11/2015	02:10:00.588	$GPGGA,021001,2425.0054,N,08116.9339,W,1,10,1.7,21,M,,M,,*68
06/11/2015	02:10:01.563	$GPGGA,021002,2425.0051,N,08116.9351,W,1,10,1.7,21,M,,M,,*60
06/11/2015	02:10:02.567	$GPGGA,021003,2425.0047,N,08116.9365,W,1,10,1.7,21,M,,M,,*61
06/11/2015	02:10:03.676	$GPGGA,021004,2425.0042,N,08116.9379,W,1,10,1.7,21,M,,M,,*6E
06/11/2015	02:10:04.559	$GPGGA,021005,2425.0038,N,08116.9393,W,1,10,1.7,21,M,,M,,*66
06/11/2015	02:10:05.661	$GPGGA,021006,2425.0034,N,08116.9405,W,1,10,1.7,21,M,,M,,*61
06/11/2015	02:10:06.563	$GPGGA,021007,2425.0028,N,08116.9419,W,1,10,1.7,21,M,,M,,*60
06/11/2015	02:10:07.672	$GPGGA,021008,2425.0024,N,08116.9433,W,1,10,1.7,21,M,,M,,*6B
06/11/2015	02:10:08.549	$GPGGA,021009,2425.0020,N,08116.9447,W,1,10,1.7,21,M,,M,,*6D
06/11/2015	02:10:09.662	$GPGGA,021010,2425.0015,N,08116.9460,W,1,10,1.7,21,M,,M,,*66
06/11/2015	02:10:10.579	$GPGGA,021011,2425.0010,N,08116.9473,W,1,10,1.8,21,M,,M,,*6F
06/11/2015	02:10:11.663	$GPGGA,021012,2425.0006,N,08116.9487,W,1,9,1.8,21,M,,M,,*58
06/11/2015	02:10:12.579	$GPGGA,021013,2425.0002,N,08116.9501,W,1,9,1.7,21,M,,M,,*5D
06/11/2015	02:10:13.539	$GPGGA,021014,2424.9998,N,08116.9514,W,1,10,1.7,21,M,,M,,*64
06/11/2015	02:10:14.569	$GPGGA,021015,2424.9993,N,08116.9528,W,1,10,1.7,21,M,,M,,*61
06/11/2015	02:10:15.665	$GPGGA,021016,2424.9989,N,08116.9542,W,1,10,1.7,21,M,,M,,*65
06/11/2015	02:10:16.571	$GPGGA,021017,2424.9986,N,08116.9556,W,1,10,1.7,21,M,,M,,*6E
06/11/2015	02:10:17.619	$GPGGA,021018,2424.9982,N,08116.9567,W,1,9,1.8,21,M,,M,,*50
06/11/2015	02:10:18.559	$GPGGA,021019,2424.9978,N,08116.9581,W,1,9,1.8,21,M,,M,,*5C
06/11/2015	02:10:19.648	$GPGGA,021020,2424.9977,N,08116.9593,W,1,9,1.7,21,M,,M,,*55
06/11/2015	02:10:20.566	$GPGGA,021021,2424.9973,N,08116.9606,W,1,9,1.7,21,M,,M,,*5F
06/11/2015	02:10:21.629	$GPGGA,021022,2424.9967,N,08116.9620,W,1,10,1.7,21,M,,M,,*65
06/11/2015	02:10:22.549	$GPGGA,021023,2424.9962,N,08116.9633,W,1,10,1.7,21,M,,M,,*63
06/11/2015	02:10:23.529	$GPGGA,021024,2424.9959,N,08116.9646,W,1,9,1.8,21,M,,M,,*59
06/11/2015	02:10:24.565	$GPGGA,021025,2424.9955,N,08116.9660,W,1,9,1.9,21,M,,M,,*51
06/11/2015	02:10:25.609	$GPGGA,021026,2424.9949,N,08116.9675,W,1,9,1.7,21,M,,M,,*55
06/11/2015	02:10:26.509	$GPGGA,021027,2424.9945,N,08116.9687,W,1,9,1.7,21,M,,M,,*55
06/11/2015	02:10:27.640	$GPGGA,021028,2424.9941,N,08116.9701,W,1,9,1.9,21,M,,M,,*5F
06/11/2015	02:10:28.549	$GPGGA,021029,2424.9937,N,08116.9715,W,1,9,1.7,21,M,,M,,*54
06/11/2015	02:10:29.639	$GPGGA,021030,2424.9933,N,08116.9729,W,1,10,1.7,21,M,,M,,*6F
06/11/2015	02:10:30.549	$GPGGA,021031,2424.9928,N,08116.9743,W,1,10,1.7,21,M,,M,,*68
06/11/2015	02:10:31.609	$GPGGA,021032,2424.9923,N,08116.9756,W,1,10,1.7,21,M,,M,,*64
06/11/2015	02:10:32.529	$GPGGA,021033,2424.9919,N,08116.9770,W,1,10,1.8,21,M,,M,,*67
06/11/2015	02:10:33.608	$GPGGA,021034,2424.9916,N,08116.9784,W,1,9,1.8,21,M,,M,,*5C
06/11/2015	02:10:34.538	$GPGGA,021035,2424.9911,N,08116.9798,W,1,9,1.8,21,M,,M,,*57
06/11/2015	02:10:35.588	$GPGGA,021036,2424.9908,N,08116.9812,W,1,9,1.7,21,M,,M,,*5E
06/11/2015	02:10:36.488	$GPGGA,021037,2424.9904,N,08116.9826,W,1,9,1.7,21,M,,M,,*54
06/11/2015	02:10:37.588	$GPGGA,021038,2424.9901,N,08116.9838,W,1,10,1.7,21,M,,M,,*69
06/11/2015	02:10:38.539	$GPGGA,021039,2424.9897,N,08116.9852,W,1,10,1.8,21,M,,M,,*65
06/11/2015	02:10:39.660	$GPGGA,021040,2424.9892,N,08116.9866,W,1,9,1.7,21,M,,M,,*5E
06/11/2015	02:10:40.519	$GPGGA,021041,2424.9890,N,08116.9879,W,1,9,1.7,21,M,,M,,*53
06/11/2015	02:10:41.479	$GPGGA,021042,2424.9885,N,08116.9893,W,1,10,1.7,21,M,,M,,*68
06/11/2015	02:10:42.529	$GPGGA,021043,2424.9881,N,08116.9907,W,1,10,1.7,21,M,,M,,*61
06/11/2015	02:10:43.589	$GPGGA,021044,2424.9877,N,08116.9921,W,1,10,1.7,21,M,,M,,*6B
06/11/2015	02:10:44.579	$GPGGA,021045,2424.9872,N,08116.9935,W,1,10,1.7,21,M,,M,,*6A
06/11/2015	02:10:45.567	$GPGGA,021046,2424.9868,N,08116.9949,W,1,10,1.7,21,M,,M,,*69
06/11/2015	02:10:46.499	$GPGGA,021047,2424.9865,N,08116.9962,W,1,10,1.7,21,M,,M,,*6C
06/11/2015	02:10:47.599	$GPGGA,021048,2424.9861,N,08116.9976,W,1,10,1.7,21,M,,M,,*62
06/11/2015	02:10:48.572	$GPGGA,021049,2424.9855,N,08116.9990,W,1,10,1.7,21,M,,M,,*6C
06/11/2015	02:10:49.639	$GPGGA,021050,2424.9850,N,08117.0004,W,1,10,1.7,21,M,,M,,*6D
06/11/2015	02:10:50.848	$GPGGA,021051,2424.9846,N,08117.0018,W,1,10,1.7,21,M,,M,,*66
06/11/2015	02:10:51.572	$GPGGA,021052,2424.9843,N,08117.0033,W,1,10,1.7,21,M,,M,,*69
06/11/2015	02:10:52.562	$GPGGA,021053,2424.9837,N,08117.0047,W,1,10,1.7,21,M,,M,,*68
06/11/2015	02:10:53.561	$GPGGA,021054,2424.9832,N,08117.0059,W,1,10,1.8,21,M,,M,,*6A
06/11/2015	02:10:54.562	$GPGGA,021055,2424.9827,N,08117.0073,W,1,10,1.7,21,M,,M,,*68
06/11/2015	02:10:55.589	$GPGGA,021056,2424.9823,N,08117.0087,W,1,10,1.7,21,M,,M,,*64
06/11/2015	02:10:56.564	$GPGGA,021057,2424.9818,N,08117.0101,W,1,10,1.7,21,M,,M,,*62
06/11/2015	02:10:57.639	$GPGGA,021058,2424.9814,N,08117.0116,W,1,10,1.7,21,M,,M,,*67
06/11/2015	02:10:58.549	$GPGGA,021059,2424.9810,N,08117.0127,W,1,10,2.2,21,M,,M,,*66
06/11/2015	02:10:59.650	$GPGGA,021100,2424.9804,N,08117.0141,W,1,9,1.7,21,M,,M,,*50
06/11/2015	02:11:00.549	$GPGGA,021101,2424.9799,N,08117.0153,W,1,9,1.7,21,M,,M,,*59
06/11/2015	02:11:01.569	$GPGGA,021102,2424.9796,N,08117.0166,W,1,10,1.7,21,M,,M,,*6B
06/11/2015	02:11:02.549	$GPGGA,021103,2424.9789,N,08117.0178,W,1,10,1.7,21,M,,M,,*6B
06/11/2015	02:11:03.589	$GPGGA,021104,2424.9785,N,08117.0192,W,1,10,1.7,21,M,,M,,*64
06/11/2015	02:11:04.539	$GPGGA,021105,2424.9782,N,08117.0206,W,1,10,1.7,21,M,,M,,*6C
06/11/2015	02:11:05.559	$GPGGA,021106,2424.9782,N,08117.0206,W,1,10,1.7,21,M,,M,,*6F
06/11/2015	02:11:06.529	$GPGGA,021107,2424.9772,N,08117.0233,W,1,10,1.7,22,M,,M,,*64
06/11/2015	02:11:07.579	$GPGGA,021108,2424.9768,N,08117.0247,W,1,10,1.7,22,M,,M,,*63
06/11/2015	02:11:08.528	$GPGGA,021109,2424.9764,N,08117.0261,W,1,10,1.8,22,M,,M,,*65
06/11/2015	02:11:09.578	$GPGGA,021110,2424.9760,N,08117.0275,W,1,9,1.7,22,M,,M,,*5B
06/11/2015	02:11:10.528	$GPGGA,021111,2424.9754,N,08117.0289,W,1,9,1.7,22,M,,M,,*5E
06/11/2015	02:11:11.548	$GPGGA,021112,2424.9754,N,08117.0289,W,1,10,1.7,22,M,,M,,*65
06/11/2015	02:11:12.538	$GPGGA,021113,2424.9747,N,08117.0316,W,1,10,1.9,22,M,,M,,*6F
06/11/2015	02:11:13.529	$GPGGA,021114,2424.9747,N,08117.0316,W,1,9,1.9,22,M,,M,,*50
06/11/2015	02:11:14.529	$GPGGA,021115,2424.9739,N,08117.0343,W,1,9,1.7,22,M,,M,,*56
06/11/2015	02:11:15.589	$GPGGA,021116,2424.9736,N,08117.0358,W,1,10,1.9,22,M,,M,,*66
06/11/2015	02:11:16.519	$GPGGA,021117,2424.9731,N,08117.0370,W,1,10,1.7,22,M,,M,,*64
06/11/2015	02:11:17.574	$GPGGA,021118,2424.9727,N,08117.0384,W,1,10,1.7,22,M,,M,,*67
06/11/2015	02:11:18.499	$GPGGA,021119,2424.9727,N,08117.0384,W,1,10,1.7,22,M,,M,,*66
06/11/2015	02:11:19.639	$GPGGA,021120,2424.9720,N,08117.0412,W,1,10,1.7,22,M,,M,,*63
06/11/2015	02:11:20.509	$GPGGA,021121,2424.9714,N,08117.0426,W,1,10,1.7,22,M,,M,,*62
06/11/2015	02:11:21.570	$GPGGA,021122,2424.9708,N,08117.0439,W,1,10,1.9,22,M,,M,,*6C
06/11/2015	02:11:22.519	$GPGGA,021123,2424.9703,N,08117.0453,W,1,10,1.7,22,M,,M,,*64
06/11/2015	02:11:23.579	$GPGGA,021124,2424.9698,N,08117.0467,W,1,10,1.7,22,M,,M,,*67
06/11/2015	02:11:24.519	$GPGGA,021125,2424.9693,N,08117.0480,W,1,10,1.7,22,M,,M,,*64
06/11/2015	02:11:25.519	$GPGGA,021126,2424.9693,N,08117.0480,W,1,10,1.7,22,M,,M,,*67
06/11/2015	02:11:26.498	$GPGGA,021127,2424.9684,N,08117.0507,W,1,10,1.7,22,M,,M,,*6E
06/11/2015	02:11:27.608	$GPGGA,021128,2424.9680,N,08117.0521,W,1,10,1.7,22,M,,M,,*61
06/11/2015	02:11:28.498	$GPGGA,021129,2424.9674,N,08117.0535,W,1,10,1.7,22,M,,M,,*6E
06/11/2015	02:11:29.508	$GPGGA,021130,2424.9674,N,08117.0535,W,1,10,1.7,22,M,,M,,*66
06/11/2015	02:11:30.499	$GPGGA,021131,2424.9666,N,08117.0563,W,1,10,1.7,22,M,,M,,*67
06/11/2015	02:11:32.609	$GPGGA,021133,2424.9656,N,08117.0589,W,1,10,1.7,22,M,,M,,*62
06/11/2015	02:11:33.609	$GPGGA,021134,2424.9651,N,08117.0603,W,1,10,1.7,22,M,,M,,*63
06/11/2015	02:11:34.579	$GPGGA,021135,2424.9648,N,08117.0618,W,1,10,1.7,22,M,,M,,*60
06/11/2015	02:11:35.599	$GPGGA,021136,2424.9643,N,08117.0632,W,1,10,1.7,22,M,,M,,*60
06/11/2015	02:11:36.579	$GPGGA,021137,2424.9638,N,08117.0644,W,1,10,1.7,22,M,,M,,*6C
06/11/2015	02:11:37.573	$GPGGA,021138,2424.9634,N,08117.0658,W,1,9,1.9,21,M,,M,,*57
06/11/2015	02:11:38.563	$GPGGA,021139,2424.9630,N,08117.0670,W,1,9,2.1,21,M,,M,,*53
06/11/2015	02:11:39.599	$GPGGA,021140,2424.9627,N,08117.0684,W,1,9,1.9,21,M,,M,,*5B
06/11/2015	02:11:40.563	$GPGGA,021141,2424.9624,N,08117.0698,W,1,9,1.7,21,M,,M,,*5A
06/11/2015	02:11:41.572	$GPGGA,021142,2424.9621,N,08117.0712,W,1,10,1.7,21,M,,M,,*67
06/11/2015	02:11:42.561	$GPGGA,021143,2424.9615,N,08117.0724,W,1,10,3.0,21,M,,M,,*61
06/11/2015	02:11:43.588	$GPGGA,021144,2424.9612,N,08117.0737,W,1,10,1.7,21,M,,M,,*66
06/11/2015	02:11:44.548	$GPGGA,021145,2424.9608,N,08117.0751,W,1,10,1.7,21,M,,M,,*6C
