Software Version Number: 1	Data File Format Number: 1	Build Version Number: 1	Error Count Since VI Started: 1	Manufacturer: Raytheon	 Model Number: RayMarine 120	 S/N: 	 Cal Date: 	 Wind Direction Offset: 0.00	 Slope (M)1: 0.00	 Offset (B)1: 0.00	 Slope (M)2: 0.00	 Offset (B)2: 0.00	 Slope (M)3: 0.00	 Offset (B)3: 0.00	 Slope (M)4: 0.00	 Offset (B)4: 0.00	 Slope (M)5: 0.00	 Offset (B)5: 0.00	 Slope (M)6: 0.00	 Offset (B)6: 0.00
Computer Date	Computer Time	GGA String
06/12/2015	17:00:00.574	$GPGGA,170001,2426.6191,N,08118.7481,W,1,9,1.4,17,M,,M,,*5A
06/12/2015	17:00:01.564	$GPGGA,170002,2426.6182,N,08118.7470,W,1,10,1.4,17,M,,M,,*6D
06/12/2015	17:00:02.564	$GPGGA,170003,2426.6170,N,08118.7460,W,1,10,1.4,17,M,,M,,*60
06/12/2015	17:00:03.574	$GPGGA,170004,2426.6158,N,08118.7452,W,1,10,1.4,17,M,,M,,*6C
06/12/2015	17:00:04.566	$GPGGA,170005,2426.6148,N,08118.7444,W,1,10,1.4,17,M,,M,,*6B
06/12/2015	17:00:05.574	$GPGGA,170006,2426.6135,N,08118.7433,W,1,10,1.4,17,M,,M,,*62
06/12/2015	17:00:06.544	$GPGGA,170007,2426.6124,N,08118.7424,W,1,10,1.4,17,M,,M,,*65
06/12/2015	17:00:07.584	$GPGGA,170008,2426.6113,N,08118.7415,W,1,10,1.4,17,M,,M,,*6C
06/12/2015	17:00:08.555	$GPGGA,170009,2426.6100,N,08118.7405,W,1,10,1.4,17,M,,M,,*6E
06/12/2015	17:00:09.544	$GPGGA,170010,2426.6090,N,08118.7397,W,1,10,1.4,17,M,,M,,*62
06/12/2015	17:00:10.557	$GPGGA,170011,2426.6079,N,08118.7386,W,1,10,1.4,17,M,,M,,*64
06/12/2015	17:00:11.573	$GPGGA,170012,2426.6066,N,08118.7377,W,1,10,1.4,17,M,,M,,*67
06/12/2015	17:00:12.557	$GPGGA,170013,2426.6055,N,08118.7369,W,1,10,1.4,17,M,,M,,*69
06/12/2015	17:00:13.534	$GPGGA,170014,2426.6043,N,08118.7359,W,1,10,1.4,17,M,,M,,*6A
06/12/2015	17:00:14.544	$GPGGA,170015,2426.6032,N,08118.7349,W,1,10,1.4,17,M,,M,,*6C
06/12/2015	17:00:15.544	$GPGGA,170016,2426.6021,N,08118.7341,W,1,10,1.4,17,M,,M,,*65
06/12/2015	17:00:16.524	$GPGGA,170017,2426.6007,N,08118.7332,W,1,10,1.4,17,M,,M,,*64
06/12/2015	17:00:17.524	$GPGGA,170018,2426.5996,N,08118.7321,W,1,10,1.4,17,M,,M,,*6B
06/12/2015	17:00:18.535	$GPGGA,170019,2426.5986,N,08118.7312,W,1,10,1.4,17,M,,M,,*6B
06/12/2015	17:00:19.534	$GPGGA,170020,2426.5971,N,08118.7304,W,1,10,1.4,17,M,,M,,*6E
06/12/2015	17:00:20.514	$GPGGA,170021,2426.5960,N,08118.7293,W,1,10,1.4,17,M,,M,,*60
06/12/2015	17:00:21.534	$GPGGA,170022,2426.5949,N,08118.7284,W,1,10,1.4,17,M,,M,,*6E
06/12/2015	17:00:22.524	$GPGGA,170023,2426.5935,N,08118.7277,W,1,10,1.4,17,M,,M,,*68
06/12/2015	17:00:23.556	$GPGGA,170024,2426.5923,N,08118.7265,W,1,10,1.4,17,M,,M,,*6B
06/12/2015	17:00:24.514	$GPGGA,170025,2426.5911,N,08118.7255,W,1,10,1.4,17,M,,M,,*68
06/12/2015	17:00:25.934	$GPGGA,170026,2426.5900,N,08118.7248,W,1,10,1.4,17,M,,M,,*67
06/12/2015	17:00:26.524	$GPGGA,170027,2426.5887,N,08118.7239,W,1,10,1.4,17,M,,M,,*6E
06/12/2015	17:00:27.560	$GPGGA,170028,2426.5874,N,08118.7227,W,1,10,1.4,17,M,,M,,*62
06/12/2015	17:00:28.643	$GPGGA,170029,2426.5863,N,08118.7217,W,1,10,1.4,17,M,,M,,*66
06/12/2015	17:00:29.603	$GPGGA,170030,2426.5852,N,08118.7212,W,1,10,1.4,17,M,,M,,*69
06/12/2015	17:00:30.494	$GPGGA,170031,2426.5840,N,08118.7201,W,1,10,1.4,17,M,,M,,*69
06/12/2015	17:00:31.544	$GPGGA,170032,2426.5827,N,08118.7190,W,1,10,1.4,17,M,,M,,*60
06/12/2015	17:00:32.594	$GPGGA,170033,2426.5816,N,08118.7184,W,1,10,1.4,16,M,,M,,*67
06/12/2015	17:00:33.694	$GPGGA,170034,2426.5805,N,08118.7177,W,1,10,1.4,16,M,,M,,*6E
06/12/2015	17:00:34.634	$GPGGA,170035,2426.5793,N,08118.7167,W,1,10,1.4,16,M,,M,,*6E
06/12/2015	17:00:35.494	$GPGGA,170036,2426.5781,N,08118.7158,W,1,10,1.4,16,M,,M,,*62
06/12/2015	17:00:36.584	$GPGGA,170037,2426.5770,N,08118.7150,W,1,10,1.4,16,M,,M,,*65
06/12/2015	17:00:37.674	$GPGGA,170038,2426.5758,N,08118.7142,W,1,10,1.4,16,M,,M,,*63
06/12/2015	17:00:38.504	$GPGGA,170039,2426.5746,N,08118.7133,W,1,10,1.4,16,M,,M,,*6B
06/12/2015	17:00:39.684	$GPGGA,170040,2426.5736,N,08118.7124,W,1,10,1.4,16,M,,M,,*64
06/12/2015	17:00:40.604	$GPGGA,170041,2426.5723,N,08118.7115,W,1,10,1.4,16,M,,M,,*63
06/12/2015	17:00:41.578	$GPGGA,170042,2426.5710,N,08118.7108,W,1,10,1.4,16,M,,M,,*6C
06/12/2015	17:00:42.614	$GPGGA,170043,2426.5699,N,08118.7100,W,1,10,1.4,16,M,,M,,*65
06/12/2015	17:00:43.684	$GPGGA,170044,2426.5689,N,08118.7091,W,1,10,1.4,16,M,,M,,*6A
06/12/2015	17:00:44.594	$GPGGA,170045,2426.5676,N,08118.7082,W,1,10,1.4,16,M,,M,,*69
06/12/2015	17:00:45.683	$GPGGA,170046,2426.5663,N,08118.7074,W,1,10,1.4,16,M,,M,,*67
06/12/2015	17:00:46.603	$GPGGA,170047,2426.5652,N,08118.7065,W,1,10,1.4,16,M,,M,,*64
06/12/2015	17:00:47.683	$GPGGA,170048,2426.5642,N,08118.7055,W,1,10,1.4,16,M,,M,,*69
06/12/2015	17:00:48.594	$GPGGA,170049,2426.5628,N,08118.7047,W,1,10,1.4,16,M,,M,,*67
06/12/2015	17:00:49.561	$GPGGA,170050,2426.5616,N,08118.7040,W,1,10,1.4,16,M,,M,,*65
06/12/2015	17:00:50.559	$GPGGA,170051,2426.5606,N,08118.7030,W,1,10,1.4,16,M,,M,,*62
06/12/2015	17:00:51.674	$GPGGA,170052,2426.5594,N,08118.7019,W,1,10,1.4,16,M,,M,,*62
06/12/2015	17:00:52.584	$GPGGA,170053,2426.5582,N,08118.7014,W,1,10,1.4,16,M,,M,,*69
06/12/2015	17:00:53.634	$GPGGA,170054,2426.5570,N,08118.7007,W,1,10,1.4,16,M,,M,,*61
06/12/2015	17:00:54.584	$GPGGA,170055,2426.5558,N,08118.6997,W,1,10,1.4,16,M,,M,,*6B
06/12/2015	17:00:55.674	$GPGGA,170056,2426.5549,N,08118.6985,W,1,10,1.4,16,M,,M,,*6B
06/12/2015	17:00:56.544	$GPGGA,170057,2426.5536,N,08118.6978,W,1,10,1.4,16,M,,M,,*60
06/12/2015	17:00:57.654	$GPGGA,170058,2426.5522,N,08118.6973,W,1,10,1.4,15,M,,M,,*62
06/12/2015	17:00:58.554	$GPGGA,170059,2426.5513,N,08118.6962,W,1,10,1.4,15,M,,M,,*61
06/12/2015	17:00:59.664	$GPGGA,170100,2426.5502,N,08118.6950,W,1,10,1.4,15,M,,M,,*6D
06/12/2015	17:01:00.554	$GPGGA,170101,2426.5490,N,08118.6946,W,1,10,1.4,15,M,,M,,*61
06/12/2015	17:01:01.514	$GPGGA,170102,2426.5477,N,08118.6937,W,1,10,1.4,15,M,,M,,*6D
06/12/2015	17:01:02.545	$GPGGA,170103,2426.5468,N,08118.6924,W,1,10,1.4,15,M,,M,,*60
06/12/2015	17:01:03.645	$GPGGA,170104,2426.5457,N,08118.6917,W,1,10,1.4,15,M,,M,,*6B
06/12/2015	17:01:04.550	$GPGGA,170105,2426.5443,N,08118.6912,W,1,10,1.4,15,M,,M,,*6A
06/12/2015	17:01:05.613	$GPGGA,170106,2426.5432,N,08118.6901,W,1,10,1.4,15,M,,M,,*6D
06/12/2015	17:01:06.549	$GPGGA,170107,2426.5421,N,08118.6889,W,1,10,1.4,15,M,,M,,*6F
06/12/2015	17:01:07.634	$GPGGA,170108,2426.5410,N,08118.6883,W,1,10,1.4,15,M,,M,,*68
06/12/2015	17:01:08.503	$GPGGA,170109,2426.5398,N,08118.6875,W,1,10,1.4,15,M,,M,,*67
06/12/2015	17:01:09.613	$GPGGA,170110,2426.5386,N,08118.6864,W,1,10,1.4,15,M,,M,,*60
06/12/2015	17:01:10.503	$GPGGA,170111,2426.5376,N,08118.6854,W,1,10,1.4,15,M,,M,,*6D
06/12/2015	17:01:11.593	$GPGGA,170112,2426.5365,N,08118.6847,W,1,10,1.4,15,M,,M,,*6E
06/12/2015	17:01:12.533	$GPGGA,170113,2426.5353,N,08118.6838,W,1,10,1.4,15,M,,M,,*62
06/12/2015	17:01:13.613	$GPGGA,170114,2426.5342,N,08118.6827,W,1,10,1.4,15,M,,M,,*6B
06/12/2015	17:01:14.493	$GPGGA,170115,2426.5332,N,08118.6817,W,1,10,1.4,15,M,,M,,*6E
06/12/2015	17:01:15.623	$GPGGA,170116,2426.5320,N,08118.6810,W,1,10,1.4,15,M,,M,,*69
06/12/2015	17:01:16.524	$GPGGA,170117,2426.5309,N,08118.6802,W,1,10,1.6,15,M,,M,,*62
06/12/2015	17:01:17.564	$GPGGA,170118,2426.5299,N,08118.6790,W,1,9,1.4,15,M,,M,,*5B
06/12/2015	17:01:18.534	$GPGGA,170119,2426.5287,N,08118.6778,W,1,9,1.4,15,M,,M,,*53
06/12/2015	17:01:19.584	$GPGGA,170120,2426.5275,N,08118.6771,W,1,10,1.4,15,M,,M,,*65
06/12/2015	17:01:20.533	$GPGGA,170121,2426.5264,N,08118.6763,W,1,10,1.4,15,M,,M,,*67
06/12/2015	17:01:21.603	$GPGGA,170122,2426.5255,N,08118.6752,W,1,10,1.4,15,M,,M,,*64
06/12/2015	17:01:22.573	$GPGGA,170123,2426.5244,N,08118.6741,W,1,10,1.4,15,M,,M,,*67
06/12/2015	17:01:23.573	$GPGGA,170124,2426.5231,N,08118.6733,W,1,10,1.4,15,M,,M,,*67
06/12/2015	17:01:24.513	$GPGGA,170125,2426.5220,N,08118.6725,W,1,10,1.4,15,M,,M,,*61
06/12/2015	17:01:25.554	$GPGGA,170126,2426.5210,N,08118.6714,W,1,10,1.4,16,M,,M,,*60
06/12/2015	17:01:26.504	$GPGGA,170127,2426.5198,N,08118.6703,W,1,10,1.4,16,M,,M,,*64
06/12/2015	17:01:27.623	$GPGGA,170128,2426.5186,N,08118.6696,W,1,10,1.4,16,M,,M,,*69
06/12/2015	17:01:28.563	$GPGGA,170129,2426.5175,N,08118.6687,W,1,10,1.4,16,M,,M,,*64
06/12/2015	17:01:29.563	$GPGGA,170130,2426.5164,N,08118.6676,W,1,10,1.4,16,M,,M,,*62
06/12/2015	17:01:30.563	$GPGGA,170131,2426.5152,N,08118.6668,W,1,10,1.4,16,M,,M,,*69
06/12/2015	17:01:32.084	$GPGGA,170132,2426.5140,N,08118.6658,W,1,10,1.4,16,M,,M,,*6A
06/12/2015	17:01:32.558	$GPGGA,170133,2426.5130,N,08118.6648,W,1,10,1.4,16,M,,M,,*6D
06/12/2015	17:01:33.584	$GPGGA,170134,2426.5118,N,08118.6641,W,1,10,1.4,16,M,,M,,*69
06/12/2015	17:01:34.557	$GPGGA,170135,2426.5107,N,08118.6632,W,1,10,1.4,16,M,,M,,*62
06/12/2015	17:01:35.624	$GPGGA,170136,2426.5094,N,08118.6621,W,1,10,1.4,16,M,,M,,*68
06/12/2015	17:01:36.551	$GPGGA,170137,2426.5083,N,08118.6610,W,1,10,1.4,16,M,,M,,*6D
06/12/2015	17:01:37.623	$GPGGA,170138,2426.5071,N,08118.6603,W,1,10,1.4,16,M,,M,,*6D
06/12/2015	17:01:38.545	$GPGGA,170139,2426.5060,N,08118.6595,W,1,10,1.4,16,M,,M,,*60
06/12/2015	17:01:39.603	$GPGGA,170140,2426.5047,N,08118.6583,W,1,10,1.4,16,M,,M,,*6C
06/12/2015	17:01:40.562	$GPGGA,170141,2426.5035,N,08118.6573,W,1,10,1.4,16,M,,M,,*67
06/12/2015	17:01:41.564	$GPGGA,170142,2426.5025,N,08118.6565,W,1,10,1.4,16,M,,M,,*62
06/12/2015	17:01:42.546	$GPGGA,170143,2426.5025,N,08118.6565,W,1,10,1.4,16,M,,M,,*63
06/12/2015	17:01:43.623	$GPGGA,170144,2426.4999,N,08118.6546,W,1,10,1.4,16,M,,M,,*6A
06/12/2015	17:01:44.544	$GPGGA,170145,2426.4991,N,08118.6536,W,1,10,1.4,16,M,,M,,*64
06/12/2015	17:01:45.603	$GPGGA,170146,2426.4991,N,08118.6536,W,1,10,1.4,16,M,,M,,*67
06/12/2015	17:01:46.533	$GPGGA,170147,2426.4966,N,08118.6520,W,1,10,1.4,16,M,,M,,*69
06/12/2015	17:01:47.623	$GPGGA,170148,2426.4966,N,08118.6520,W,1,10,1.4,16,M,,M,,*66
06/12/2015	17:01:48.533	$GPGGA,170149,2426.4945,N,08118.6499,W,1,10,1.4,16,M,,M,,*65
06/12/2015	17:01:49.556	$GPGGA,170150,2426.4932,N,08118.6490,W,1,10,1.4,16,M,,M,,*64
06/12/2015	17:01:50.523	$GPGGA,170151,2426.4919,N,08118.6482,W,1,10,1.4,16,M,,M,,*6F
06/12/2015	17:01:51.584	$GPGGA,170152,2426.4910,N,08118.6473,W,1,10,1.4,16,M,,M,,*6B
06/12/2015	17:01:52.524	$GPGGA,170153,2426.4898,N,08118.6463,W,1,10,1.4,16,M,,M,,*6A
06/12/2015	17:01:53.544	$GPGGA,170154,2426.4885,N,08118.6454,W,1,10,1.4,16,M,,M,,*65
06/12/2015	17:01:54.504	$GPGGA,170155,2426.4874,N,08118.6445,W,1,10,1.4,16,M,,M,,*6A
06/12/2015	17:01:55.583	$GPGGA,170156,2426.4863,N,08118.6437,W,1,10,1.4,16,M,,M,,*6A
06/12/2015	17:01:56.624	$GPGGA,170157,2426.4850,N,08118.6427,W,1,10,1.4,16,M,,M,,*6A
06/12/2015	17:01:57.623	$GPGGA,170158,2426.4839,N,08118.6417,W,1,10,1.4,16,M,,M,,*69
06/12/2015	17:01:58.503	$GPGGA,170159,2426.4829,N,08118.6409,W,1,10,1.4,16,M,,M,,*66
06/12/2015	17:01:59.593	$GPGGA,170200,2426.4829,N,08118.6409,W,1,10,1.4,16,M,,M,,*69
06/12/2015	17:02:00.513	$GPGGA,170201,2426.4804,N,08118.6390,W,1,10,1.4,16,M,,M,,*60
06/12/2015	17:02:01.563	$GPGGA,170202,2426.4794,N,08118.6381,W,1,10,1.4,16,M,,M,,*65
06/12/2015	17:02:02.603	$GPGGA,170203,2426.4780,N,08118.6372,W,1,10,1.4,16,M,,M,,*6D
06/12/2015	17:02:03.623	$GPGGA,170204,2426.4768,N,08118.6363,W,1,10,1.4,16,M,,M,,*6C
06/12/2015	17:02:04.503	$GPGGA,170205,2426.4758,N,08118.6355,W,1,10,1.4,16,M,,M,,*6B
06/12/2015	17:02:05.483	$GPGGA,170206,2426.4758,N,08118.6355,W,1,10,1.4,16,M,,M,,*68
06/12/2015	17:02:06.483	$GPGGA,170207,2426.4747,N,08118.6346,W,1,10,1.4,16,M,,M,,*65
06/12/2015	17:02:07.514	$GPGGA,170208,2426.4722,N,08118.6329,W,1,10,1.4,16,M,,M,,*60
06/12/2015	17:02:08.494	$GPGGA,170209,2426.4722,N,08118.6329,W,1,10,1.4,16,M,,M,,*61
06/12/2015	17:02:09.504	$GPGGA,170210,2426.4710,N,08118.6324,W,1,10,1.4,16,M,,M,,*65
06/12/2015	17:02:10.484	$GPGGA,170211,2426.4688,N,08118.6305,W,1,10,1.6,16,M,,M,,*65
06/12/2015	17:02:11.594	$GPGGA,170212,2426.4677,N,08118.6298,W,1,10,1.4,16,M,,M,,*61
06/12/2015	17:02:12.573	$GPGGA,170213,2426.4662,N,08118.6289,W,1,10,1.4,16,M,,M,,*64
06/12/2015	17:02:13.583	$GPGGA,170214,2426.4653,N,08118.6279,W,1,10,1.4,16,M,,M,,*6E
06/12/2015	17:02:14.863	$GPGGA,170215,2426.4642,N,08118.6270,W,1,10,1.4,16,M,,M,,*66
06/12/2015	17:02:15.573	$GPGGA,170216,2426.4628,N,08118.6263,W,1,10,1.4,16,M,,M,,*6B
06/12/2015	17:02:16.563	$GPGGA,170217,2426.4617,N,08118.6254,W,1,10,1.4,16,M,,M,,*62
06/12/2015	17:02:17.555	$GPGGA,170218,2426.4608,N,08118.6244,W,1,10,1.4,16,M,,M,,*62
06/12/2015	17:02:18.555	$GPGGA,170219,2426.4594,N,08118.6236,W,1,10,1.4,16,M,,M,,*60
06/12/2015	17:02:19.593	$GPGGA,170220,2426.4581,N,08118.6229,W,1,10,1.4,16,M,,M,,*60
06/12/2015	17:02:20.547	$GPGGA,170221,2426.4572,N,08118.6219,W,1,10,1.4,16,M,,M,,*6E
06/12/2015	17:02:21.563	$GPGGA,170222,2426.4559,N,08118.6208,W,1,10,1.4,16,M,,M,,*64
06/12/2015	17:02:22.556	$GPGGA,170223,2426.4547,N,08118.6201,W,1,10,1.4,16,M,,M,,*63
06/12/2015	17:02:23.573	$GPGGA,170224,2426.4536,N,08118.6193,W,1,10,1.4,16,M,,M,,*6A
06/12/2015	17:02:24.533	$GPGGA,170225,2426.4525,N,08118.6181,W,1,10,1.4,16,M,,M,,*6A
06/12/2015	17:02:25.573	$GPGGA,170226,2426.4512,N,08118.6173,W,1,10,1.4,16,M,,M,,*60
06/12/2015	17:02:27.574	$GPGGA,170228,2426.4489,N,08118.6155,W,1,9,1.6,16,M,,M,,*53
06/12/2015	17:02:28.534	$GPGGA,170229,2426.4478,N,08118.6146,W,1,9,1.4,16,M,,M,,*5C
06/12/2015	17:02:29.564	$GPGGA,170230,2426.4467,N,08118.6140,W,1,10,1.4,16,M,,M,,*64
06/12/2015	17:02:30.523	$GPGGA,170231,2426.4453,N,08118.6130,W,1,10,1.4,16,M,,M,,*65
06/12/2015	17:02:31.573	$GPGGA,170232,2426.4443,N,08118.6120,W,1,10,1.4,16,M,,M,,*66
06/12/2015	17:02:32.523	$GPGGA,170233,2426.4433,N,08118.6111,W,1,10,1.4,16,M,,M,,*62
06/12/2015	17:02:33.513	$GPGGA,170234,2426.4420,N,08118.6103,W,1,10,1.4,16,M,,M,,*64
06/12/2015	17:02:34.523	$GPGGA,170235,2426.4409,N,08118.6094,W,1,10,1.6,16,M,,M,,*63
06/12/2015	17:02:35.563	$GPGGA,170236,2426.4400,N,08118.6085,W,1,10,1.4,16,M,,M,,*6B
06/12/2015	17:02:36.533	$GPGGA,170237,2426.4388,N,08118.6074,W,1,10,1.6,16,M,,M,,*61
06/12/2015	17:02:37.513	$GPGGA,170238,2426.4375,N,08118.6068,W,1,10,1.4,16,M,,M,,*63
06/12/2015	17:02:38.523	$GPGGA,170239,2426.4364,N,08118.6060,W,1,10,1.4,16,M,,M,,*6A
06/12/2015	17:02:39.523	$GPGGA,170240,2426.4353,N,08118.6050,W,1,10,1.4,15,M,,M,,*60
06/12/2015	17:02:41.645	$GPGGA,170241,2426.4341,N,08118.6042,W,1,10,1.4,15,M,,M,,*61
06/12/2015	17:02:41.673	$GPGGA,170242,2426.4330,N,08118.6032,W,1,10,1.4,15,M,,M,,*63
06/12/2015	17:02:42.513	$GPGGA,170243,2426.4320,N,08118.6022,W,1,10,1.4,15,M,,M,,*62
06/12/2015	17:02:43.524	$GPGGA,170244,2426.4307,N,08118.6015,W,1,10,1.4,15,M,,M,,*64
06/12/2015	17:02:44.494	$GPGGA,170245,2426.4295,N,08118.6006,W,1,10,1.4,15,M,,M,,*6D
06/12/2015	17:02:45.504	$GPGGA,170246,2426.4286,N,08118.5994,W,1,10,1.4,15,M,,M,,*6D
06/12/2015	17:02:46.494	$GPGGA,170247,2426.4276,N,08118.5984,W,1,10,1.4,15,M,,M,,*62
06/12/2015	17:02:47.549	$GPGGA,170248,2426.4261,N,08118.5976,W,1,10,1.4,15,M,,M,,*66
06/12/2015	17:02:48.583	$GPGGA,170249,2426.4249,N,08118.5967,W,1,10,1.4,15,M,,M,,*6D
06/12/2015	17:02:49.915	$GPGGA,170250,2426.4240,N,08118.5956,W,1,10,1.4,15,M,,M,,*6E
06/12/2015	17:02:50.483	$GPGGA,170251,2426.4226,N,08118.5946,W,1,10,1.4,15,M,,M,,*6E
06/12/2015	17:02:51.523	$GPGGA,170252,2426.4214,N,08118.5938,W,1,10,1.4,15,M,,M,,*65
06/12/2015	17:02:52.483	$GPGGA,170253,2426.4202,N,08118.5929,W,1,10,1.4,15,M,,M,,*63
06/12/2015	17:02:53.493	$GPGGA,170254,2426.4190,N,08118.5918,W,1,10,1.4,15,M,,M,,*6E
06/12/2015	17:02:54.573	$GPGGA,170255,2426.4179,N,08118.5908,W,1,10,1.4,16,M,,M,,*6A
06/12/2015	17:02:55.623	$GPGGA,170256,2426.4168,N,08118.5899,W,1,10,1.4,16,M,,M,,*60
06/12/2015	17:02:56.573	$GPGGA,170257,2426.4155,N,08118.5891,W,1,10,1.4,16,M,,M,,*67
06/12/2015	17:02:57.583	$GPGGA,170258,2426.4143,N,08118.5880,W,1,10,1.4,16,M,,M,,*6F
06/12/2015	17:02:58.573	$GPGGA,170259,2426.4132,N,08118.5869,W,1,10,1.4,16,M,,M,,*6F
06/12/2015	17:02:59.583	$GPGGA,170300,2426.4121,N,08118.5861,W,1,10,1.4,16,M,,M,,*68
06/12/2015	17:03:00.573	$GPGGA,170301,2426.4107,N,08118.5851,W,1,10,1.6,16,M,,M,,*6C
06/12/2015	17:03:01.558	$GPGGA,170302,2426.4096,N,08118.5843,W,1,10,1.4,16,M,,M,,*67
06/12/2015	17:03:02.561	$GPGGA,170303,2426.4088,N,08118.5833,W,1,10,1.4,16,M,,M,,*6E
06/12/2015	17:03:03.894	$GPGGA,170304,2426.4074,N,08118.5823,W,1,10,1.4,16,M,,M,,*6B
06/12/2015	17:03:04.560	$GPGGA,170305,2426.4063,N,08118.5816,W,1,10,1.4,16,M,,M,,*6A
06/12/2015	17:03:05.573	$GPGGA,170306,2426.4052,N,08118.5808,W,1,10,1.4,16,M,,M,,*64
06/12/2015	17:03:06.558	$GPGGA,170307,2426.4038,N,08118.5799,W,1,10,1.4,16,M,,M,,*6E
06/12/2015	17:03:07.573	$GPGGA,170308,2426.4028,N,08118.5790,W,1,10,1.4,16,M,,M,,*69
06/12/2015	17:03:09.863	$GPGGA,170310,2426.4005,N,08118.5773,W,1,10,1.4,16,M,,M,,*62
06/12/2015	17:03:10.557	$GPGGA,170311,2426.3995,N,08118.5764,W,1,10,1.4,16,M,,M,,*62
06/12/2015	17:03:11.563	$GPGGA,170312,2426.3983,N,08118.5757,W,1,10,1.4,16,M,,M,,*66
06/12/2015	17:03:12.557	$GPGGA,170313,2426.3970,N,08118.5747,W,1,10,1.4,16,M,,M,,*6A
06/12/2015	17:03:13.556	$GPGGA,170314,2426.3961,N,08118.5737,W,1,10,1.4,16,M,,M,,*6A
06/12/2015	17:03:14.544	$GPGGA,170315,2426.3951,N,08118.5731,W,1,10,1.4,16,M,,M,,*6E
06/12/2015	17:03:15.533	$GPGGA,170316,2426.3937,N,08118.5723,W,1,10,1.4,16,M,,M,,*6E
06/12/2015	17:03:16.823	$GPGGA,170317,2426.3927,N,08118.5710,W,1,10,1.4,16,M,,M,,*6E
06/12/2015	17:03:17.553	$GPGGA,170318,2426.3918,N,08118.5702,W,1,10,1.4,16,M,,M,,*6E
06/12/2015	17:03:18.534	$GPGGA,170319,2426.3904,N,08118.5696,W,1,10,1.4,16,M,,M,,*6E
06/12/2015	17:03:19.574	$GPGGA,170320,2426.3894,N,08118.5686,W,1,10,1.4,16,M,,M,,*6D
06/12/2015	17:03:20.524	$GPGGA,170321,2426.3885,N,08118.5676,W,1,10,1.4,16,M,,M,,*63
06/12/2015	17:03:21.545	$GPGGA,170322,2426.3871,N,08118.5667,W,1,10,1.4,16,M,,M,,*6B
06/12/2015	17:03:22.523	$GPGGA,170323,2426.3859,N,08118.5661,W,1,10,1.4,16,M,,M,,*66
06/12/2015	17:03:23.543	$GPGGA,170324,2426.3849,N,08118.5652,W,1,10,1.4,16,M,,M,,*60
06/12/2015	17:03:24.503	$GPGGA,170325,2426.3839,N,08118.5643,W,1,10,1.4,16,M,,M,,*66
06/12/2015	17:03:25.513	$GPGGA,170326,2426.3826,N,08118.5635,W,1,10,1.4,16,M,,M,,*6A
06/12/2015	17:03:26.503	$GPGGA,170327,2426.3814,N,08118.5626,W,1,10,1.4,16,M,,M,,*68
06/12/2015	17:03:27.545	$GPGGA,170328,2426.3802,N,08118.5616,W,1,10,1.4,16,M,,M,,*63
06/12/2015	17:03:28.493	$GPGGA,170329,2426.3792,N,08118.5607,W,1,10,1.4,16,M,,M,,*64
06/12/2015	17:03:29.493	$GPGGA,170330,2426.3781,N,08118.5600,W,1,10,1.4,16,M,,M,,*69
06/12/2015	17:03:30.513	$GPGGA,170331,2426.3768,N,08118.5591,W,1,10,1.4,16,M,,M,,*64
06/12/2015	17:03:31.544	$GPGGA,170332,2426.3759,N,08118.5579,W,1,10,1.4,16,M,,M,,*63
06/12/2015	17:03:32.503	$GPGGA,170333,2426.3745,N,08118.5571,W,1,10,1.4,16,M,,M,,*67
06/12/2015	17:03:33.514	$GPGGA,170334,2426.3732,N,08118.5565,W,1,10,1.4,16,M,,M,,*65
06/12/2015	17:03:34.503	$GPGGA,170335,2426.3721,N,08118.5554,W,1,10,1.4,16,M,,M,,*64
06/12/2015	17:03:35.513	$GPGGA,170336,2426.3712,N,08118.5544,W,1,10,1.4,16,M,,M,,*66
06/12/2015	17:03:36.614	$GPGGA,170337,2426.3698,N,08118.5536,W,1,10,1.4,16,M,,M,,*61
06/12/2015	17:03:37.484	$GPGGA,170338,2426.3685,N,08118.5526,W,1,10,1.4,16,M,,M,,*63
06/12/2015	17:03:38.574	$GPGGA,170339,2426.3674,N,08118.5516,W,1,10,1.4,16,M,,M,,*6F
06/12/2015	17:03:39.593	$GPGGA,170340,2426.3663,N,08118.5509,W,1,10,1.4,16,M,,M,,*69
06/12/2015	17:03:40.493	$GPGGA,170341,2426.3651,N,08118.5501,W,1,10,1.4,16,M,,M,,*61
06/12/2015	17:03:41.603	$GPGGA,170342,2426.3638,N,08118.5488,W,1,10,1.4,16,M,,M,,*6D
06/12/2015	17:03:42.573	$GPGGA,170343,2426.3629,N,08118.5480,W,1,10,1.4,16,M,,M,,*64
06/12/2015	17:03:43.493	$GPGGA,170344,2426.3616,N,08118.5473,W,1,10,1.4,16,M,,M,,*63
06/12/2015	17:03:44.564	$GPGGA,170345,2426.3604,N,08118.5464,W,1,10,1.4,16,M,,M,,*67
06/12/2015	17:03:45.573	$GPGGA,170346,2426.3594,N,08118.5453,W,1,10,1.4,16,M,,M,,*6A
06/12/2015	17:03:46.563	$GPGGA,170347,2426.3583,N,08118.5444,W,1,10,1.4,16,M,,M,,*6B
06/12/2015	17:03:47.583	$GPGGA,170348,2426.3570,N,08118.5436,W,1,10,1.4,16,M,,M,,*6D
06/12/2015	17:03:48.573	$GPGGA,170349,2426.3559,N,08118.5426,W,1,10,1.4,16,M,,M,,*66
06/12/2015	17:03:49.561	$GPGGA,170350,2426.3549,N,08118.5416,W,1,10,1.4,16,M,,M,,*6C
06/12/2015	17:03:50.560	$GPGGA,170351,2426.3539,N,08118.5406,W,1,10,1.4,16,M,,M,,*6B
06/12/2015	17:03:51.565	$GPGGA,170352,2426.3524,N,08118.5397,W,1,10,1.4,16,M,,M,,*6B
06/12/2015	17:03:52.560	$GPGGA,170353,2426.3513,N,08118.5387,W,1,10,1.4,16,M,,M,,*6F
06/12/2015	17:03:53.552	$GPGGA,170354,2426.3503,N,08118.5376,W,1,10,1.4,16,M,,M,,*67
06/12/2015	17:03:54.556	$GPGGA,170355,2426.3490,N,08118.5367,W,1,10,1.4,16,M,,M,,*6D
06/12/2015	17:03:55.574	$GPGGA,170356,2426.3476,N,08118.5358,W,1,10,1.4,16,M,,M,,*6A
06/12/2015	17:03:56.546	$GPGGA,170357,2426.3466,N,08118.5348,W,1,10,1.4,16,M,,M,,*6B
06/12/2015	17:03:57.558	$GPGGA,170358,2426.3454,N,08118.5339,W,1,10,1.4,16,M,,M,,*63
06/12/2015	17:03:58.533	$GPGGA,170359,2426.3441,N,08118.5329,W,1,10,1.4,16,M,,M,,*67
06/12/2015	17:03:59.573	$GPGGA,170400,2426.3429,N,08118.5317,W,1,9,1.6,16,M,,M,,*55
06/12/2015	17:04:00.550	$GPGGA,170401,2426.3418,N,08118.5307,W,1,9,1.4,16,M,,M,,*55
06/12/2015	17:04:01.523	$GPGGA,170402,2426.3405,N,08118.5297,W,1,10,1.4,16,M,,M,,*6A
06/12/2015	17:04:02.533	$GPGGA,170403,2426.3393,N,08118.5287,W,1,10,1.4,16,M,,M,,*62
06/12/2015	17:04:03.533	$GPGGA,170404,2426.3382,N,08118.5277,W,1,10,1.4,16,M,,M,,*6A
06/12/2015	17:04:04.523	$GPGGA,170405,2426.3370,N,08118.5268,W,1,10,1.4,16,M,,M,,*68
06/12/2015	17:04:05.523	$GPGGA,170406,2426.3358,N,08118.5257,W,1,10,1.4,16,M,,M,,*6D
06/12/2015	17:04:06.533	$GPGGA,170407,2426.3346,N,08118.5248,W,1,10,1.4,16,M,,M,,*6D
06/12/2015	17:04:07.563	$GPGGA,170408,2426.3334,N,08118.5239,W,1,10,1.4,16,M,,M,,*61
06/12/2015	17:04:08.513	$GPGGA,170409,2426.3322,N,08118.5228,W,1,10,1.4,16,M,,M,,*67
06/12/2015	17:04:09.533	$GPGGA,170410,2426.3311,N,08118.5218,W,1,10,1.4,16,M,,M,,*6C
06/12/2015	17:04:10.534	$GPGGA,170411,2426.3300,N,08118.5211,W,1,10,1.4,16,M,,M,,*64
06/12/2015	17:04:11.534	$GPGGA,170412,2426.3286,N,08118.5201,W,1,10,1.4,16,M,,M,,*69
06/12/2015	17:04:12.504	$GPGGA,170413,2426.3276,N,08118.5190,W,1,10,1.4,16,M,,M,,*6C
06/12/2015	17:04:13.624	$GPGGA,170414,2426.3268,N,08118.5183,W,1,10,1.4,16,M,,M,,*66
06/12/2015	17:04:14.514	$GPGGA,170415,2426.3255,N,08118.5177,W,1,10,1.4,16,M,,M,,*62
06/12/2015	17:04:15.523	$GPGGA,170416,2426.3242,N,08118.5165,W,1,10,1.4,16,M,,M,,*64
06/12/2015	17:04:16.493	$GPGGA,170417,2426.3232,N,08118.5156,W,1,10,1.4,16,M,,M,,*62
06/12/2015	17:04:17.503	$GPGGA,170418,2426.3221,N,08118.5149,W,1,10,1.4,16,M,,M,,*61
06/12/2015	17:04:18.503	$GPGGA,170419,2426.3210,N,08118.5141,W,1,10,1.4,16,M,,M,,*6A
06/12/2015	17:04:19.504	$GPGGA,170420,2426.3199,N,08118.5133,W,1,10,1.4,17,M,,M,,*66
06/12/2015	17:04:20.603	$GPGGA,170421,2426.3188,N,08118.5123,W,1,10,1.4,17,M,,M,,*66
06/12/2015	17:04:21.593	$GPGGA,170422,2426.3177,N,08118.5115,W,1,10,1.4,17,M,,M,,*60
06/12/2015	17:04:22.483	$GPGGA,170423,2426.3165,N,08118.5106,W,1,10,1.4,17,M,,M,,*60
06/12/2015	17:04:23.503	$GPGGA,170424,2426.3154,N,08118.5097,W,1,10,1.4,17,M,,M,,*6C
06/12/2015	17:04:24.493	$GPGGA,170425,2426.3142,N,08118.5092,W,1,10,1.4,17,M,,M,,*6F
06/12/2015	17:04:25.604	$GPGGA,170426,2426.3130,N,08118.5081,W,1,10,1.4,17,M,,M,,*6B
06/12/2015	17:04:26.483	$GPGGA,170427,2426.3120,N,08118.5070,W,1,10,1.4,17,M,,M,,*65
06/12/2015	17:04:27.593	$GPGGA,170428,2426.3109,N,08118.5066,W,1,10,1.4,17,M,,M,,*66
06/12/2015	17:04:28.484	$GPGGA,170429,2426.3095,N,08118.5058,W,1,10,1.4,17,M,,M,,*6E
06/12/2015	17:04:29.594	$GPGGA,170430,2426.3085,N,08118.5046,W,1,10,1.4,17,M,,M,,*68
06/12/2015	17:04:30.564	$GPGGA,170431,2426.3074,N,08118.5037,W,1,10,1.4,17,M,,M,,*61
06/12/2015	17:04:31.624	$GPGGA,170432,2426.3062,N,08118.5030,W,1,10,1.4,17,M,,M,,*62
06/12/2015	17:04:32.573	$GPGGA,170433,2426.3051,N,08118.5022,W,1,10,1.4,17,M,,M,,*60
06/12/2015	17:04:33.553	$GPGGA,170434,2426.3040,N,08118.5011,W,1,10,1.4,17,M,,M,,*67
06/12/2015	17:04:34.563	$GPGGA,170435,2426.3028,N,08118.5002,W,1,10,1.4,17,M,,M,,*6A
06/12/2015	17:04:35.563	$GPGGA,170436,2426.3016,N,08118.4995,W,1,10,1.4,17,M,,M,,*62
06/12/2015	17:04:36.563	$GPGGA,170437,2426.3005,N,08118.4987,W,1,10,1.4,17,M,,M,,*62
06/12/2015	17:04:37.563	$GPGGA,170438,2426.2995,N,08118.4975,W,1,10,1.4,17,M,,M,,*61
06/12/2015	17:04:38.563	$GPGGA,170439,2426.2983,N,08118.4966,W,1,10,1.4,17,M,,M,,*65
06/12/2015	17:04:39.583	$GPGGA,170440,2426.2971,N,08118.4959,W,1,10,1.4,17,M,,M,,*6A
06/12/2015	17:04:40.553	$GPGGA,170441,2426.2961,N,08118.4948,W,1,10,1.4,17,M,,M,,*6A
06/12/2015	17:04:41.543	$GPGGA,170442,2426.2948,N,08118.4937,W,1,10,1.4,17,M,,M,,*6A
06/12/2015	17:04:42.553	$GPGGA,170443,2426.2937,N,08118.4929,W,1,10,1.4,17,M,,M,,*6C
06/12/2015	17:04:43.593	$GPGGA,170444,2426.2925,N,08118.4922,W,1,10,1.4,17,M,,M,,*63
06/12/2015	17:04:44.533	$GPGGA,170445,2426.2914,N,08118.4911,W,1,10,1.4,17,M,,M,,*60
06/12/2015	17:04:45.564	$GPGGA,170446,2426.2903,N,08118.4899,W,1,10,1.4,17,M,,M,,*64
06/12/2015	17:04:46.548	$GPGGA,170447,2426.2892,N,08118.4891,W,1,10,1.4,17,M,,M,,*64
06/12/2015	17:04:47.564	$GPGGA,170448,2426.2882,N,08118.4885,W,1,10,1.4,17,M,,M,,*6F
06/12/2015	17:04:48.534	$GPGGA,170449,2426.2869,N,08118.4876,W,1,10,1.4,17,M,,M,,*67
06/12/2015	17:04:49.573	$GPGGA,170450,2426.2857,N,08118.4864,W,1,10,1.4,17,M,,M,,*61
06/12/2015	17:04:51.573	$GPGGA,170452,2426.2838,N,08118.4852,W,1,10,1.4,17,M,,M,,*6F
06/12/2015	17:04:52.533	$GPGGA,170453,2426.2827,N,08118.4842,W,1,10,1.4,17,M,,M,,*61
06/12/2015	17:04:53.513	$GPGGA,170454,2426.2816,N,08118.4834,W,1,10,1.4,17,M,,M,,*65
06/12/2015	17:04:54.533	$GPGGA,170455,2426.2805,N,08118.4825,W,1,10,1.4,17,M,,M,,*66
06/12/2015	17:04:55.553	$GPGGA,170456,2426.2793,N,08118.4818,W,1,10,1.4,17,M,,M,,*6B
06/12/2015	17:04:56.513	$GPGGA,170457,2426.2782,N,08118.4811,W,1,10,1.4,17,M,,M,,*63
06/12/2015	17:04:57.633	$GPGGA,170458,2426.2771,N,08118.4800,W,1,10,1.4,17,M,,M,,*60
06/12/2015	17:04:58.503	$GPGGA,170459,2426.2762,N,08118.4793,W,1,10,1.4,17,M,,M,,*66
06/12/2015	17:04:59.533	$GPGGA,170500,2426.2751,N,08118.4789,W,1,10,1.4,17,M,,M,,*60
06/12/2015	17:05:00.623	$GPGGA,170501,2426.2737,N,08118.4779,W,1,10,1.4,17,M,,M,,*6E
06/12/2015	17:05:01.493	$GPGGA,170502,2426.2727,N,08118.4769,W,1,10,1.4,17,M,,M,,*6D
06/12/2015	17:05:02.493	$GPGGA,170503,2426.2719,N,08118.4764,W,1,10,1.4,17,M,,M,,*6C
06/12/2015	17:05:03.558	$GPGGA,170504,2426.2708,N,08118.4758,W,1,10,1.4,17,M,,M,,*64
06/12/2015	17:05:04.504	$GPGGA,170505,2426.2694,N,08118.4749,W,1,10,1.4,17,M,,M,,*61
06/12/2015	17:05:05.604	$GPGGA,170506,2426.2686,N,08118.4741,W,1,10,1.4,17,M,,M,,*69
06/12/2015	17:05:06.614	$GPGGA,170507,2426.2675,N,08118.4733,W,1,10,1.4,17,M,,M,,*61
06/12/2015	17:05:07.523	$GPGGA,170508,2426.2663,N,08118.4726,W,1,10,1.4,17,M,,M,,*6D
06/12/2015	17:05:08.593	$GPGGA,170509,2426.2654,N,08118.4721,W,1,10,1.4,17,M,,M,,*6F
06/12/2015	17:05:09.613	$GPGGA,170510,2426.2643,N,08118.4712,W,1,10,1.4,16,M,,M,,*60
06/12/2015	17:05:10.583	$GPGGA,170511,2426.2632,N,08118.4702,W,1,10,1.4,16,M,,M,,*66
06/12/2015	17:05:11.623	$GPGGA,170512,2426.2621,N,08118.4697,W,1,10,1.4,16,M,,M,,*6A
06/12/2015	17:05:12.493	$GPGGA,170513,2426.2610,N,08118.4692,W,1,10,1.4,16,M,,M,,*6C
06/12/2015	17:05:13.603	$GPGGA,170514,2426.2599,N,08118.4680,W,1,10,1.6,16,M,,M,,*68
06/12/2015	17:05:14.583	$GPGGA,170515,2426.2589,N,08118.4674,W,1,10,1.4,16,M,,M,,*61
06/12/2015	17:05:15.593	$GPGGA,170516,2426.2576,N,08118.4672,W,1,10,1.6,16,M,,M,,*66
06/12/2015	17:05:16.573	$GPGGA,170517,2426.2563,N,08118.4664,W,1,10,1.4,16,M,,M,,*66
06/12/2015	17:05:17.573	$GPGGA,170518,2426.2556,N,08118.4654,W,1,10,1.4,16,M,,M,,*6C
06/12/2015	17:05:18.573	$GPGGA,170519,2426.2544,N,08118.4648,W,1,10,1.4,16,M,,M,,*63
06/12/2015	17:05:19.593	$GPGGA,170520,2426.2531,N,08118.4644,W,1,10,1.4,16,M,,M,,*67
06/12/2015	17:05:20.564	$GPGGA,170521,2426.2520,N,08118.4634,W,1,10,1.4,16,M,,M,,*61
06/12/2015	17:05:21.584	$GPGGA,170522,2426.2513,N,08118.4625,W,1,10,1.4,16,M,,M,,*62
06/12/2015	17:05:22.561	$GPGGA,170523,2426.2500,N,08118.4619,W,1,10,1.4,16,M,,M,,*6E
06/12/2015	17:05:23.594	$GPGGA,170524,2426.2487,N,08118.4611,W,1,10,1.4,16,M,,M,,*6F
06/12/2015	17:05:24.558	$GPGGA,170525,2426.2478,N,08118.4604,W,1,10,1.4,16,M,,M,,*6A
06/12/2015	17:05:25.583	$GPGGA,170526,2426.2467,N,08118.4595,W,1,10,1.4,16,M,,M,,*6C
06/12/2015	17:05:26.557	$GPGGA,170527,2426.2455,N,08118.4585,W,1,10,1.4,16,M,,M,,*6D
06/12/2015	17:05:27.573	$GPGGA,170528,2426.2445,N,08118.4578,W,1,10,1.4,16,M,,M,,*61
06/12/2015	17:05:28.559	$GPGGA,170529,2426.2434,N,08118.4570,W,1,10,1.4,16,M,,M,,*6E
06/12/2015	17:05:29.573	$GPGGA,170530,2426.2423,N,08118.4561,W,1,10,1.4,16,M,,M,,*60
06/12/2015	17:05:30.544	$GPGGA,170531,2426.2415,N,08118.4551,W,1,10,1.4,16,M,,M,,*67
06/12/2015	17:05:31.563	$GPGGA,170532,2426.2402,N,08118.4541,W,1,10,1.5,16,M,,M,,*62
06/12/2015	17:05:32.533	$GPGGA,170533,2426.2391,N,08118.4534,W,1,10,1.4,16,M,,M,,*6D
06/12/2015	17:05:33.559	$GPGGA,170534,2426.2383,N,08118.4528,W,1,10,1.4,16,M,,M,,*64
06/12/2015	17:05:34.549	$GPGGA,170535,2426.2373,N,08118.4519,W,1,10,1.4,16,M,,M,,*68
06/12/2015	17:05:35.554	$GPGGA,170536,2426.2361,N,08118.4508,W,1,10,1.4,16,M,,M,,*68
06/12/2015	17:05:36.533	$GPGGA,170537,2426.2351,N,08118.4500,W,1,10,1.4,16,M,,M,,*62
06/12/2015	17:05:37.563	$GPGGA,170538,2426.2343,N,08118.4494,W,1,10,1.4,16,M,,M,,*62
06/12/2015	17:05:38.514	$GPGGA,170539,2426.2332,N,08118.4485,W,1,10,1.4,16,M,,M,,*65
06/12/2015	17:05:39.550	$GPGGA,170540,2426.2322,N,08118.4477,W,1,10,1.4,16,M,,M,,*67
06/12/2015	17:05:40.534	$GPGGA,170541,2426.2312,N,08118.4466,W,1,10,1.8,16,M,,M,,*69
06/12/2015	17:05:41.524	$GPGGA,170542,2426.2301,N,08118.4457,W,1,8,1.5,16,M,,M,,*5E
06/12/2015	17:05:42.633	$GPGGA,170543,2426.2290,N,08118.4449,W,1,8,1.5,16,M,,M,,*59
06/12/2015	17:05:43.633	$GPGGA,170544,2426.2280,N,08118.4441,W,1,10,1.4,17,M,,M,,*6E
06/12/2015	17:05:44.623	$GPGGA,170545,2426.2268,N,08118.4430,W,1,10,1.4,17,M,,M,,*6F
06/12/2015	17:05:45.559	$GPGGA,170546,2426.2260,N,08118.4419,W,1,10,1.4,17,M,,M,,*6F
06/12/2015	17:05:46.523	$GPGGA,170547,2426.2249,N,08118.4411,W,1,10,1.4,17,M,,M,,*6D
06/12/2015	17:05:47.546	$GPGGA,170548,2426.2235,N,08118.4403,W,1,10,1.4,17,M,,M,,*6A
06/12/2015	17:05:48.513	$GPGGA,170549,2426.2227,N,08118.4393,W,1,10,1.4,17,M,,M,,*66
06/12/2015	17:05:49.533	$GPGGA,170550,2426.2220,N,08118.4383,W,1,10,1.4,17,M,,M,,*68
06/12/2015	17:05:50.513	$GPGGA,170551,2426.2206,N,08118.4376,W,1,10,1.4,17,M,,M,,*67
06/12/2015	17:05:51.554	$GPGGA,170552,2426.2195,N,08118.4367,W,1,10,1.4,17,M,,M,,*6D
06/12/2015	17:05:52.523	$GPGGA,170553,2426.2186,N,08118.4357,W,1,10,1.4,17,M,,M,,*6D
06/12/2015	17:05:53.593	$GPGGA,170554,2426.2177,N,08118.4349,W,1,10,1.4,17,M,,M,,*6B
06/12/2015	17:05:54.583	$GPGGA,170555,2426.2166,N,08118.4341,W,1,10,1.4,17,M,,M,,*62
06/12/2015	17:05:55.634	$GPGGA,170556,2426.2155,N,08118.4331,W,1,10,1.4,17,M,,M,,*66
06/12/2015	17:05:56.574	$GPGGA,170557,2426.2145,N,08118.4321,W,1,10,1.4,17,M,,M,,*67
06/12/2015	17:05:57.494	$GPGGA,170558,2426.2134,N,08118.4312,W,1,10,1.4,17,M,,M,,*6E
06/12/2015	17:05:58.504	$GPGGA,170559,2426.2123,N,08118.4304,W,1,10,1.4,17,M,,M,,*6E
06/12/2015	17:05:59.623	$GPGGA,170600,2426.2113,N,08118.4298,W,1,10,1.4,17,M,,M,,*66
06/12/2015	17:06:00.573	$GPGGA,170601,2426.2101,N,08118.4288,W,1,10,1.4,17,M,,M,,*65
06/12/2015	17:06:01.573	$GPGGA,170602,2426.2090,N,08118.4277,W,1,10,1.4,17,M,,M,,*6F
06/12/2015	17:06:02.573	$GPGGA,170603,2426.2080,N,08118.4270,W,1,10,1.4,17,M,,M,,*68
06/12/2015	17:06:03.573	$GPGGA,170604,2426.2068,N,08118.4262,W,1,10,1.4,17,M,,M,,*6A
06/12/2015	17:06:04.573	$GPGGA,170605,2426.2056,N,08118.4252,W,1,10,1.4,17,M,,M,,*65
06/12/2015	17:06:05.563	$GPGGA,170606,2426.2047,N,08118.4245,W,1,10,1.4,17,M,,M,,*60
06/12/2015	17:06:06.573	$GPGGA,170607,2426.2036,N,08118.4236,W,1,10,1.4,17,M,,M,,*63
06/12/2015	17:06:07.573	$GPGGA,170608,2426.2022,N,08118.4226,W,1,10,1.4,17,M,,M,,*68
06/12/2015	17:06:08.563	$GPGGA,170609,2426.2011,N,08118.4220,W,1,10,1.4,17,M,,M,,*6F
06/12/2015	17:06:09.583	$GPGGA,170610,2426.2000,N,08118.4212,W,1,10,1.4,17,M,,M,,*66
06/12/2015	17:06:10.553	$GPGGA,170611,2426.1989,N,08118.4203,W,1,10,1.4,17,M,,M,,*6C
06/12/2015	17:06:11.593	$GPGGA,170612,2426.1978,N,08118.4194,W,1,10,1.4,17,M,,M,,*6C
06/12/2015	17:06:12.563	$GPGGA,170613,2426.1965,N,08118.4185,W,1,10,1.4,17,M,,M,,*61
06/12/2015	17:06:13.564	$GPGGA,170614,2426.1953,N,08118.4180,W,1,10,1.4,17,M,,M,,*66
06/12/2015	17:06:14.554	$GPGGA,170615,2426.1942,N,08118.4172,W,1,10,1.4,17,M,,M,,*6A
06/12/2015	17:06:15.574	$GPGGA,170616,2426.1929,N,08118.4161,W,1,9,1.6,17,M,,M,,*5C
06/12/2015	17:06:16.544	$GPGGA,170617,2426.1919,N,08118.4156,W,1,9,1.4,17,M,,M,,*58
06/12/2015	17:06:17.573	$GPGGA,170618,2426.1906,N,08118.4151,W,1,10,1.4,17,M,,M,,*66
06/12/2015	17:06:18.533	$GPGGA,170619,2426.1893,N,08118.4140,W,1,10,1.4,17,M,,M,,*6A
06/12/2015	17:06:19.563	$GPGGA,170620,2426.1884,N,08118.4129,W,1,10,1.4,17,M,,M,,*69
06/12/2015	17:06:20.533	$GPGGA,170621,2426.1872,N,08118.4123,W,1,10,1.4,17,M,,M,,*6B
06/12/2015	17:06:21.544	$GPGGA,170622,2426.1860,N,08118.4118,W,1,10,1.4,17,M,,M,,*63
06/12/2015	17:06:22.533	$GPGGA,170623,2426.1848,N,08118.4110,W,1,10,1.4,17,M,,M,,*60
06/12/2015	17:06:23.533	$GPGGA,170624,2426.1837,N,08118.4098,W,1,9,1.6,17,M,,M,,*54
06/12/2015	17:06:24.523	$GPGGA,170625,2426.1826,N,08118.4089,W,1,9,1.4,17,M,,M,,*57
06/12/2015	17:06:25.513	$GPGGA,170626,2426.1814,N,08118.4084,W,1,10,1.4,17,M,,M,,*60
06/12/2015	17:06:26.533	$GPGGA,170627,2426.1803,N,08118.4078,W,1,10,1.4,17,M,,M,,*64
06/12/2015	17:06:27.563	$GPGGA,170628,2426.1791,N,08118.4068,W,1,10,1.4,17,M,,M,,*6E
06/12/2015	17:06:28.523	$GPGGA,170629,2426.1781,N,08118.4057,W,1,10,1.4,17,M,,M,,*62
06/12/2015	17:06:29.523	$GPGGA,170630,2426.1770,N,08118.4051,W,1,10,1.4,17,M,,M,,*62
06/12/2015	17:06:30.524	$GPGGA,170631,2426.1758,N,08118.4045,W,1,10,1.4,17,M,,M,,*6C
06/12/2015	17:06:31.514	$GPGGA,170632,2426.1747,N,08118.4036,W,1,10,1.4,17,M,,M,,*65
06/12/2015	17:06:32.524	$GPGGA,170633,2426.1737,N,08118.4025,W,1,10,1.4,17,M,,M,,*61
06/12/2015	17:06:33.964	$GPGGA,170634,2426.1725,N,08118.4019,W,1,10,1.4,17,M,,M,,*6A
06/12/2015	17:06:34.513	$GPGGA,170635,2426.1713,N,08118.4012,W,1,10,1.4,17,M,,M,,*65
06/12/2015	17:06:35.503	$GPGGA,170636,2426.1703,N,08118.4001,W,1,10,1.4,17,M,,M,,*65
06/12/2015	17:06:36.613	$GPGGA,170637,2426.1693,N,08118.3992,W,1,10,1.4,17,M,,M,,*68
06/12/2015	17:06:37.593	$GPGGA,170638,2426.1680,N,08118.3987,W,1,9,1.6,17,M,,M,,*5B
06/12/2015	17:06:38.503	$GPGGA,170639,2426.1669,N,08118.3978,W,1,9,1.4,17,M,,M,,*5F
06/12/2015	17:06:39.503	$GPGGA,170640,2426.1660,N,08118.3965,W,1,10,1.4,17,M,,M,,*6C
06/12/2015	17:06:40.583	$GPGGA,170641,2426.1648,N,08118.3956,W,1,10,1.5,17,M,,M,,*66
06/12/2015	17:06:41.593	$GPGGA,170642,2426.1635,N,08118.3952,W,1,10,1.4,17,M,,M,,*6A
06/12/2015	17:06:42.493	$GPGGA,170643,2426.1625,N,08118.3941,W,1,10,1.4,17,M,,M,,*68
06/12/2015	17:06:43.593	$GPGGA,170644,2426.1615,N,08118.3927,W,1,10,1.4,17,M,,M,,*6C
06/12/2015	17:06:44.583	$GPGGA,170645,2426.1603,N,08118.3920,W,1,10,1.4,17,M,,M,,*6D
06/12/2015	17:06:45.483	$GPGGA,170646,2426.1592,N,08118.3915,W,1,9,1.5,17,M,,M,,*5A
06/12/2015	17:06:46.573	$GPGGA,170647,2426.1584,N,08118.3906,W,1,9,1.4,17,M,,M,,*5F
06/12/2015	17:06:47.623	$GPGGA,170648,2426.1574,N,08118.3895,W,1,10,1.4,17,M,,M,,*6C
06/12/2015	17:06:48.574	$GPGGA,170649,2426.1561,N,08118.3887,W,1,10,1.4,17,M,,M,,*6A
06/12/2015	17:06:49.584	$GPGGA,170650,2426.1550,N,08118.3880,W,1,10,1.4,17,M,,M,,*67
06/12/2015	17:06:50.564	$GPGGA,170651,2426.1542,N,08118.3872,W,1,10,1.4,17,M,,M,,*68
06/12/2015	17:06:51.604	$GPGGA,170652,2426.1530,N,08118.3864,W,1,10,1.4,17,M,,M,,*69
06/12/2015	17:06:52.573	$GPGGA,170653,2426.1518,N,08118.3854,W,1,10,1.4,17,M,,M,,*61
06/12/2015	17:06:53.563	$GPGGA,170654,2426.1508,N,08118.3845,W,1,10,1.4,17,M,,M,,*67
06/12/2015	17:06:54.563	$GPGGA,170655,2426.1497,N,08118.3838,W,1,10,1.4,17,M,,M,,*6B
06/12/2015	17:06:55.593	$GPGGA,170656,2426.1487,N,08118.3830,W,1,10,1.4,17,M,,M,,*61
06/12/2015	17:06:56.563	$GPGGA,170657,2426.1476,N,08118.3823,W,1,10,1.4,17,M,,M,,*6C
06/12/2015	17:06:57.563	$GPGGA,170658,2426.1465,N,08118.3812,W,1,10,1.4,17,M,,M,,*63
06/12/2015	17:06:58.543	$GPGGA,170659,2426.1454,N,08118.3802,W,1,10,1.4,17,M,,M,,*61
06/12/2015	17:06:59.583	$GPGGA,170700,2426.1443,N,08118.3795,W,1,10,1.4,17,M,,M,,*6B
06/12/2015	17:07:00.544	$GPGGA,170701,2426.1432,N,08118.3787,W,1,10,1.4,17,M,,M,,*6F
06/12/2015	17:07:01.523	$GPGGA,170702,2426.1422,N,08118.3778,W,1,10,1.4,17,M,,M,,*6D
06/12/2015	17:07:02.553	$GPGGA,170703,2426.1411,N,08118.3768,W,1,10,1.4,17,M,,M,,*6D
06/12/2015	17:07:03.563	$GPGGA,170704,2426.1400,N,08118.3759,W,1,10,1.4,17,M,,M,,*68
06/12/2015	17:07:04.536	$GPGGA,170705,2426.1387,N,08118.3750,W,1,10,1.4,17,M,,M,,*68
06/12/2015	17:07:05.534	$GPGGA,170706,2426.1377,N,08118.3745,W,1,10,1.4,17,M,,M,,*60
06/12/2015	17:07:06.513	$GPGGA,170707,2426.1368,N,08118.3736,W,1,10,1.4,17,M,,M,,*6B
06/12/2015	17:07:07.563	$GPGGA,170708,2426.1355,N,08118.3724,W,1,10,1.4,17,M,,M,,*69
06/12/2015	17:07:08.523	$GPGGA,170709,2426.1342,N,08118.3719,W,1,10,1.4,17,M,,M,,*60
06/12/2015	17:07:09.542	$GPGGA,170710,2426.1335,N,08118.3716,W,1,9,1.5,17,M,,M,,*5E
06/12/2015	17:07:10.512	$GPGGA,170711,2426.1324,N,08118.3706,W,1,9,1.4,17,M,,M,,*5F
06/12/2015	17:07:11.552	$GPGGA,170712,2426.1312,N,08118.3696,W,1,10,1.4,17,M,,M,,*69
06/12/2015	17:07:12.502	$GPGGA,170713,2426.1302,N,08118.3691,W,1,10,1.4,17,M,,M,,*6E
06/12/2015	17:07:13.512	$GPGGA,170714,2426.1290,N,08118.3685,W,1,10,1.4,17,M,,M,,*66
06/12/2015	17:07:14.512	$GPGGA,170715,2426.1279,N,08118.3677,W,1,10,1.6,17,M,,M,,*6F
06/12/2015	17:07:15.633	$GPGGA,170716,2426.1271,N,08118.3668,W,1,9,1.7,17,M,,M,,*53
06/12/2015	17:07:16.503	$GPGGA,170717,2426.1259,N,08118.3662,W,1,9,1.4,17,M,,M,,*51
06/12/2015	17:07:17.535	$GPGGA,170718,2426.1247,N,08118.3655,W,1,10,1.4,17,M,,M,,*6D
06/12/2015	17:07:18.503	$GPGGA,170719,2426.1237,N,08118.3646,W,1,10,1.7,17,M,,M,,*6A
06/12/2015	17:07:19.543	$GPGGA,170720,2426.1224,N,08118.3637,W,1,10,1.4,17,M,,M,,*67
06/12/2015	17:07:20.503	$GPGGA,170721,2426.1213,N,08118.3630,W,1,10,1.5,17,M,,M,,*64
06/12/2015	17:07:21.493	$GPGGA,170722,2426.1202,N,08118.3620,W,1,10,1.4,17,M,,M,,*67
06/12/2015	17:07:22.493	$GPGGA,170723,2426.1190,N,08118.3611,W,1,10,1.4,17,M,,M,,*6C
06/12/2015	17:07:23.493	$GPGGA,170724,2426.1180,N,08118.3606,W,1,10,1.4,17,M,,M,,*6C
06/12/2015	17:07:24.503	$GPGGA,170725,2426.1167,N,08118.3599,W,1,10,1.4,17,M,,M,,*61
06/12/2015	17:07:25.583	$GPGGA,170726,2426.1155,N,08118.3586,W,1,10,1.4,17,M,,M,,*6D
06/12/2015	17:07:26.583	$GPGGA,170727,2426.1144,N,08118.3577,W,1,10,1.4,17,M,,M,,*62
06/12/2015	17:07:27.482	$GPGGA,170728,2426.1133,N,08118.3573,W,1,10,1.4,17,M,,M,,*69
06/12/2015	17:07:28.472	$GPGGA,170729,2426.1122,N,08118.3566,W,1,10,1.4,17,M,,M,,*6C
06/12/2015	17:07:29.472	$GPGGA,170730,2426.1111,N,08118.3555,W,1,9,1.7,17,M,,M,,*5F
06/12/2015	17:07:30.562	$GPGGA,170731,2426.1100,N,08118.3546,W,1,9,1.4,17,M,,M,,*5F
06/12/2015	17:07:31.602	$GPGGA,170732,2426.1087,N,08118.3540,W,1,10,1.4,17,M,,M,,*6C
06/12/2015	17:07:32.562	$GPGGA,170733,2426.1077,N,08118.3533,W,1,10,1.4,17,M,,M,,*66
06/12/2015	17:07:33.563	$GPGGA,170734,2426.1066,N,08118.3524,W,1,10,1.4,17,M,,M,,*67
06/12/2015	17:07:34.573	$GPGGA,170735,2426.1054,N,08118.3513,W,1,10,1.4,17,M,,M,,*63
06/12/2015	17:07:35.573	$GPGGA,170736,2426.1044,N,08118.3506,W,1,10,1.4,17,M,,M,,*65
06/12/2015	17:07:36.552	$GPGGA,170737,2426.1032,N,08118.3501,W,1,10,1.7,17,M,,M,,*61
06/12/2015	17:07:37.583	$GPGGA,170738,2426.1021,N,08118.3491,W,1,10,1.4,17,M,,M,,*67
06/12/2015	17:07:38.553	$GPGGA,170739,2426.1011,N,08118.3481,W,1,10,1.4,17,M,,M,,*64
06/12/2015	17:07:39.593	$GPGGA,170740,2426.0999,N,08118.3472,W,1,10,1.4,17,M,,M,,*6E
06/12/2015	17:07:40.563	$GPGGA,170741,2426.0988,N,08118.3463,W,1,10,1.4,17,M,,M,,*6F
06/12/2015	17:07:41.546	$GPGGA,170742,2426.0978,N,08118.3455,W,1,10,1.4,17,M,,M,,*66
06/12/2015	17:07:42.553	$GPGGA,170743,2426.0968,N,08118.3445,W,1,10,1.4,18,M,,M,,*68
06/12/2015	17:07:43.563	$GPGGA,170744,2426.0957,N,08118.3433,W,1,10,1.4,18,M,,M,,*62
06/12/2015	17:07:44.547	$GPGGA,170745,2426.0946,N,08118.3426,W,1,10,1.4,18,M,,M,,*67
06/12/2015	17:07:45.572	$GPGGA,170746,2426.0934,N,08118.3419,W,1,9,1.6,18,M,,M,,*57
06/12/2015	17:07:46.532	$GPGGA,170747,2426.0923,N,08118.3409,W,1,9,1.4,18,M,,M,,*53
06/12/2015	17:07:47.572	$GPGGA,170748,2426.0913,N,08118.3398,W,1,10,1.4,18,M,,M,,*68
06/12/2015	17:07:48.534	$GPGGA,170749,2426.0900,N,08118.3390,W,1,10,1.4,18,M,,M,,*63
06/12/2015	17:07:49.555	$GPGGA,170750,2426.0889,N,08118.3381,W,1,9,1.5,18,M,,M,,*52
06/12/2015	17:07:50.522	$GPGGA,170751,2426.0877,N,08118.3370,W,1,9,1.4,18,M,,M,,*5D
06/12/2015	17:07:51.555	$GPGGA,170752,2426.0865,N,08118.3359,W,1,10,1.4,18,M,,M,,*6E
06/12/2015	17:07:52.523	$GPGGA,170753,2426.0854,N,08118.3350,W,1,10,1.4,18,M,,M,,*64
06/12/2015	17:07:53.539	$GPGGA,170754,2426.0844,N,08118.3342,W,1,10,1.4,18,M,,M,,*61
06/12/2015	17:07:54.513	$GPGGA,170755,2426.0833,N,08118.3334,W,1,10,1.4,18,M,,M,,*61
06/12/2015	17:07:55.550	$GPGGA,170756,2426.0822,N,08118.3323,W,1,10,1.4,18,M,,M,,*64
06/12/2015	17:07:56.523	$GPGGA,170757,2426.0813,N,08118.3311,W,1,10,1.7,18,M,,M,,*65
06/12/2015	17:07:57.523	$GPGGA,170758,2426.0804,N,08118.3303,W,1,10,1.4,18,M,,M,,*6C
06/12/2015	17:07:58.523	$GPGGA,170759,2426.0790,N,08118.3294,W,1,10,1.4,19,M,,M,,*61
06/12/2015	17:07:59.551	$GPGGA,170800,2426.0781,N,08118.3282,W,1,10,1.4,19,M,,M,,*65
06/12/2015	17:08:00.503	$GPGGA,170801,2426.0771,N,08118.3271,W,1,10,1.4,19,M,,M,,*67
06/12/2015	17:08:01.503	$GPGGA,170802,2426.0758,N,08118.3262,W,1,10,1.4,19,M,,M,,*6D
06/12/2015	17:08:02.502	$GPGGA,170803,2426.0747,N,08118.3254,W,1,10,1.4,19,M,,M,,*67
06/12/2015	17:08:03.537	$GPGGA,170804,2426.0737,N,08118.3243,W,1,10,1.4,19,M,,M,,*61
06/12/2015	17:08:05.002	$GPGGA,170805,2426.0726,N,08118.3233,W,1,10,1.4,19,M,,M,,*67
06/12/2015	17:08:05.512	$GPGGA,170806,2426.0714,N,08118.3225,W,1,10,1.4,19,M,,M,,*62
06/12/2015	17:08:06.582	$GPGGA,170807,2426.0701,N,08118.3214,W,1,10,1.4,19,M,,M,,*65
06/12/2015	17:08:07.538	$GPGGA,170808,2426.0690,N,08118.3204,W,1,10,1.4,20,M,,M,,*68
06/12/2015	17:08:08.503	$GPGGA,170809,2426.0677,N,08118.3196,W,1,10,1.4,20,M,,M,,*68
06/12/2015	17:08:09.640	$GPGGA,170810,2426.0667,N,08118.3186,W,1,10,1.4,20,M,,M,,*60
06/12/2015	17:08:10.583	$GPGGA,170811,2426.0656,N,08118.3174,W,1,10,1.4,20,M,,M,,*6E
06/12/2015	17:08:11.494	$GPGGA,170812,2426.0641,N,08118.3165,W,1,10,1.4,20,M,,M,,*6B
06/12/2015	17:08:12.483	$GPGGA,170813,2426.0629,N,08118.3157,W,1,10,1.4,20,M,,M,,*65
06/12/2015	17:08:13.613	$GPGGA,170814,2426.0620,N,08118.3147,W,1,9,1.4,20,M,,M,,*52
06/12/2015	17:08:14.484	$GPGGA,170815,2426.0607,N,08118.3137,W,1,9,1.4,20,M,,M,,*51
06/12/2015	17:08:15.583	$GPGGA,170816,2426.0594,N,08118.3128,W,1,10,1.4,20,M,,M,,*6D
06/12/2015	17:08:16.563	$GPGGA,170817,2426.0582,N,08118.3118,W,1,10,1.4,20,M,,M,,*68
06/12/2015	17:08:17.648	$GPGGA,170818,2426.0571,N,08118.3111,W,1,10,1.4,20,M,,M,,*62
06/12/2015	17:08:18.633	$GPGGA,170819,2426.0557,N,08118.3101,W,1,10,1.4,20,M,,M,,*66
06/12/2015	17:08:21.148	$GPGGA,170821,2426.0534,N,08118.3082,W,1,10,1.4,20,M,,M,,*62
06/12/2015	17:08:21.612	$GPGGA,170822,2426.0522,N,08118.3073,W,1,10,1.4,20,M,,M,,*68
06/12/2015	17:08:22.552	$GPGGA,170823,2426.0509,N,08118.3064,W,1,10,1.4,20,M,,M,,*66
06/12/2015	17:08:23.646	$GPGGA,170824,2426.0497,N,08118.3055,W,1,10,1.4,20,M,,M,,*65
06/12/2015	17:08:24.636	$GPGGA,170825,2426.0486,N,08118.3045,W,1,10,1.4,20,M,,M,,*65
06/12/2015	17:08:25.592	$GPGGA,170826,2426.0475,N,08118.3036,W,1,10,1.4,20,M,,M,,*6E
06/12/2015	17:08:26.639	$GPGGA,170827,2426.0462,N,08118.3027,W,1,10,1.4,20,M,,M,,*69
06/12/2015	17:08:27.641	$GPGGA,170828,2426.0450,N,08118.3017,W,1,10,1.4,20,M,,M,,*64
06/12/2015	17:08:28.623	$GPGGA,170829,2426.0437,N,08118.3009,W,1,10,1.4,20,M,,M,,*6B
06/12/2015	17:08:29.537	$GPGGA,170830,2426.0425,N,08118.3000,W,1,10,1.4,20,M,,M,,*69
06/12/2015	17:08:30.613	$GPGGA,170831,2426.0414,N,08118.2989,W,1,10,1.4,20,M,,M,,*63
06/12/2015	17:08:31.544	$GPGGA,170832,2426.0400,N,08118.2980,W,1,10,1.4,20,M,,M,,*6C
06/12/2015	17:08:32.593	$GPGGA,170833,2426.0388,N,08118.2971,W,1,10,1.4,20,M,,M,,*64
06/12/2015	17:08:33.593	$GPGGA,170834,2426.0375,N,08118.2960,W,1,10,1.4,20,M,,M,,*61
06/12/2015	17:08:34.603	$GPGGA,170835,2426.0363,N,08118.2950,W,1,10,1.4,20,M,,M,,*64
06/12/2015	17:08:35.583	$GPGGA,170836,2426.0351,N,08118.2943,W,1,10,1.4,20,M,,M,,*64
06/12/2015	17:08:36.583	$GPGGA,170837,2426.0338,N,08118.2931,W,1,10,1.4,20,M,,M,,*6F
06/12/2015	17:08:37.572	$GPGGA,170838,2426.0324,N,08118.2922,W,1,10,1.4,20,M,,M,,*6F
06/12/2015	17:08:38.522	$GPGGA,170839,2426.0313,N,08118.2913,W,1,10,1.4,20,M,,M,,*68
06/12/2015	17:08:39.602	$GPGGA,170840,2426.0302,N,08118.2904,W,1,10,1.4,20,M,,M,,*60
06/12/2015	17:08:40.582	$GPGGA,170841,2426.0288,N,08118.2895,W,1,10,1.4,20,M,,M,,*6B
06/12/2015	17:08:41.592	$GPGGA,170842,2426.0276,N,08118.2885,W,1,9,1.4,20,M,,M,,*50
06/12/2015	17:08:42.512	$GPGGA,170843,2426.0262,N,08118.2876,W,1,9,1.4,20,M,,M,,*58
06/12/2015	17:08:43.573	$GPGGA,170844,2426.0252,N,08118.2864,W,1,10,1.4,20,M,,M,,*67
06/12/2015	17:08:44.583	$GPGGA,170845,2426.0240,N,08118.2854,W,1,10,1.4,20,M,,M,,*66
06/12/2015	17:08:45.563	$GPGGA,170846,2426.0226,N,08118.2847,W,1,10,1.4,20,M,,M,,*67
06/12/2015	17:08:46.573	$GPGGA,170847,2426.0213,N,08118.2837,W,1,10,1.4,20,M,,M,,*67
06/12/2015	17:08:47.593	$GPGGA,170848,2426.0202,N,08118.2824,W,1,10,1.4,20,M,,M,,*6A
06/12/2015	17:08:48.848	$GPGGA,170849,2426.0190,N,08118.2817,W,1,10,1.4,20,M,,M,,*63
06/12/2015	17:08:49.536	$GPGGA,170850,2426.0176,N,08118.2811,W,1,10,1.4,20,M,,M,,*65
06/12/2015	17:08:50.593	$GPGGA,170851,2426.0163,N,08118.2799,W,1,10,1.4,20,M,,M,,*6F
06/12/2015	17:08:51.645	$GPGGA,170852,2426.0152,N,08118.2788,W,1,10,1.4,20,M,,M,,*6E
06/12/2015	17:08:52.593	$GPGGA,170853,2426.0140,N,08118.2781,W,1,10,1.4,20,M,,M,,*65
06/12/2015	17:08:53.513	$GPGGA,170854,2426.0127,N,08118.2771,W,1,10,1.4,20,M,,M,,*6C
06/12/2015	17:08:54.562	$GPGGA,170855,2426.0115,N,08118.2761,W,1,10,1.4,20,M,,M,,*6D
06/12/2015	17:08:55.562	$GPGGA,170856,2426.0104,N,08118.2754,W,1,10,1.4,20,M,,M,,*68
06/12/2015	17:08:56.544	$GPGGA,170857,2426.0092,N,08118.2744,W,1,10,1.4,20,M,,M,,*66
06/12/2015	17:08:57.612	$GPGGA,170858,2426.0079,N,08118.2733,W,1,10,1.4,20,M,,M,,*6C
06/12/2015	17:08:58.552	$GPGGA,170859,2426.0068,N,08118.2726,W,1,10,1.4,19,M,,M,,*63
06/12/2015	17:08:59.632	$GPGGA,170900,2426.0056,N,08118.2718,W,1,10,1.4,19,M,,M,,*6E
06/12/2015	17:09:00.572	$GPGGA,170901,2426.0043,N,08118.2706,W,1,10,1.4,19,M,,M,,*64
06/12/2015	17:09:01.583	$GPGGA,170902,2426.0034,N,08118.2696,W,1,10,1.4,19,M,,M,,*6F
06/12/2015	17:09:02.583	$GPGGA,170903,2426.0021,N,08118.2689,W,1,10,1.4,19,M,,M,,*64
06/12/2015	17:09:03.639	$GPGGA,170904,2426.0009,N,08118.2679,W,1,10,1.4,19,M,,M,,*66
06/12/2015	17:09:04.583	$GPGGA,170905,2425.9999,N,08118.2667,W,1,10,1.4,19,M,,M,,*62
06/12/2015	17:09:05.563	$GPGGA,170906,2425.9987,N,08118.2658,W,1,10,1.4,19,M,,M,,*62
06/12/2015	17:09:06.563	$GPGGA,170907,2425.9975,N,08118.2653,W,1,10,1.4,19,M,,M,,*65
06/12/2015	17:09:07.613	$GPGGA,170908,2425.9964,N,08118.2642,W,1,10,1.4,19,M,,M,,*6A
06/12/2015	17:09:08.563	$GPGGA,170909,2425.9955,N,08118.2629,W,1,10,1.4,19,M,,M,,*64
06/12/2015	17:09:09.573	$GPGGA,170910,2425.9941,N,08118.2622,W,1,10,1.4,19,M,,M,,*62
06/12/2015	17:09:10.583	$GPGGA,170911,2425.9927,N,08118.2614,W,1,10,1.4,19,M,,M,,*66
06/12/2015	17:09:11.593	$GPGGA,170912,2425.9919,N,08118.2603,W,1,10,1.4,19,M,,M,,*6E
06/12/2015	17:09:12.553	$GPGGA,170913,2425.9908,N,08118.2593,W,1,10,1.4,19,M,,M,,*65
06/12/2015	17:09:13.602	$GPGGA,170914,2425.9894,N,08118.2584,W,1,10,1.4,19,M,,M,,*60
06/12/2015	17:09:14.562	$GPGGA,170915,2425.9881,N,08118.2573,W,1,10,1.4,19,M,,M,,*6D
06/12/2015	17:09:15.552	$GPGGA,170916,2425.9870,N,08118.2564,W,1,10,1.4,19,M,,M,,*66
06/12/2015	17:09:16.562	$GPGGA,170917,2425.9861,N,08118.2557,W,1,10,1.4,19,M,,M,,*67
06/12/2015	17:09:17.532	$GPGGA,170918,2425.9847,N,08118.2546,W,1,10,1.4,19,M,,M,,*6C
06/12/2015	17:09:18.553	$GPGGA,170919,2425.9836,N,08118.2535,W,1,10,1.4,19,M,,M,,*6F
06/12/2015	17:09:19.613	$GPGGA,170920,2425.9823,N,08118.2528,W,1,10,1.4,19,M,,M,,*6D
06/12/2015	17:09:20.563	$GPGGA,170921,2425.9814,N,08118.2519,W,1,10,1.4,19,M,,M,,*6A
06/12/2015	17:09:21.563	$GPGGA,170922,2425.9800,N,08118.2508,W,1,10,1.4,19,M,,M,,*6C
06/12/2015	17:09:22.546	$GPGGA,170923,2425.9789,N,08118.2499,W,1,10,1.4,19,M,,M,,*6A
06/12/2015	17:09:23.573	$GPGGA,170924,2425.9778,N,08118.2493,W,1,10,1.4,19,M,,M,,*69
06/12/2015	17:09:24.549	$GPGGA,170925,2425.9778,N,08118.2493,W,1,10,1.4,19,M,,M,,*68
06/12/2015	17:09:25.533	$GPGGA,170926,2425.9755,N,08118.2473,W,1,10,1.4,19,M,,M,,*6A
06/12/2015	17:09:26.553	$GPGGA,170927,2425.9755,N,08118.2473,W,1,10,1.4,19,M,,M,,*6B
06/12/2015	17:09:27.603	$GPGGA,170928,2425.9731,N,08118.2454,W,1,10,1.4,19,M,,M,,*63
06/12/2015	17:09:28.547	$GPGGA,170929,2425.9720,N,08118.2446,W,1,10,1.4,19,M,,M,,*61
06/12/2015	17:09:29.542	$GPGGA,170930,2425.9708,N,08118.2440,W,1,10,1.4,19,M,,M,,*65
06/12/2015	17:09:30.552	$GPGGA,170931,2425.9708,N,08118.2440,W,1,10,1.4,19,M,,M,,*64
06/12/2015	17:09:31.535	$GPGGA,170932,2425.9684,N,08118.2417,W,1,10,1.4,19,M,,M,,*60
06/12/2015	17:09:32.522	$GPGGA,170933,2425.9684,N,08118.2417,W,1,10,1.4,19,M,,M,,*61
06/12/2015	17:09:33.622	$GPGGA,170934,2425.9661,N,08118.2404,W,1,10,1.4,19,M,,M,,*6F
06/12/2015	17:09:34.572	$GPGGA,170935,2425.9661,N,08118.2404,W,1,10,1.4,19,M,,M,,*6E
06/12/2015	17:09:35.634	$GPGGA,170936,2425.9638,N,08118.2384,W,1,10,1.4,19,M,,M,,*6E
06/12/2015	17:09:36.513	$GPGGA,170937,2425.9638,N,08118.2384,W,1,10,1.4,19,M,,M,,*6F
06/12/2015	17:09:37.513	$GPGGA,170938,2425.9617,N,08118.2368,W,1,10,1.4,19,M,,M,,*6F
06/12/2015	17:09:38.593	$GPGGA,170939,2425.9604,N,08118.2361,W,1,10,1.4,19,M,,M,,*65
06/12/2015	17:09:39.548	$GPGGA,170940,2425.9594,N,08118.2350,W,1,10,1.5,19,M,,M,,*62
06/12/2015	17:09:40.513	$GPGGA,170941,2425.9594,N,08118.2350,W,1,10,1.5,19,M,,M,,*63
06/12/2015	17:09:41.603	$GPGGA,170942,2425.9574,N,08118.2333,W,1,10,1.4,19,M,,M,,*6A
06/12/2015	17:09:42.503	$GPGGA,170943,2425.9574,N,08118.2333,W,1,10,1.4,19,M,,M,,*6B
06/12/2015	17:09:43.623	$GPGGA,170944,2425.9552,N,08118.2317,W,1,10,1.4,19,M,,M,,*6E
06/12/2015	17:09:44.513	$GPGGA,170945,2425.9552,N,08118.2317,W,1,10,1.4,19,M,,M,,*6F
06/12/2015	17:09:45.503	$GPGGA,170946,2425.9532,N,08118.2298,W,1,10,1.4,19,M,,M,,*6C
06/12/2015	17:09:46.493	$GPGGA,170947,2425.9532,N,08118.2298,W,1,10,1.7,19,M,,M,,*6E
06/12/2015	17:09:47.582	$GPGGA,170948,2425.9509,N,08118.2280,W,1,9,1.7,19,M,,M,,*58
06/12/2015	17:09:48.537	$GPGGA,170949,2425.9509,N,08118.2280,W,1,9,1.7,19,M,,M,,*59
06/12/2015	17:09:49.572	$GPGGA,170950,2425.9489,N,08118.2261,W,1,9,1.7,19,M,,M,,*57
06/12/2015	17:09:50.534	$GPGGA,170951,2425.9489,N,08118.2261,W,1,9,1.7,19,M,,M,,*56
06/12/2015	17:09:51.592	$GPGGA,170952,2425.9464,N,08118.2242,W,1,9,1.7,18,M,,M,,*56
06/12/2015	17:09:52.562	$GPGGA,170953,2425.9455,N,08118.2234,W,1,9,1.7,18,M,,M,,*54
06/12/2015	17:09:53.553	$GPGGA,170954,2425.9443,N,08118.2222,W,1,9,1.7,18,M,,M,,*53
06/12/2015	17:09:54.563	$GPGGA,170955,2425.9432,N,08118.2213,W,1,9,1.7,18,M,,M,,*56
06/12/2015	17:09:55.563	$GPGGA,170956,2425.9422,N,08118.2205,W,1,9,1.7,18,M,,M,,*53
06/12/2015	17:09:56.563	$GPGGA,170957,2425.9410,N,08118.2194,W,1,9,1.7,18,M,,M,,*58
06/12/2015	17:09:57.583	$GPGGA,170958,2425.9400,N,08118.2184,W,1,9,1.7,18,M,,M,,*57
06/12/2015	17:09:58.556	$GPGGA,170959,2425.9389,N,08118.2175,W,1,9,1.7,18,M,,M,,*5E
06/12/2015	17:09:59.593	$GPGGA,171000,2425.9377,N,08118.2164,W,1,9,1.7,18,M,,M,,*5B
06/12/2015	17:10:00.553	$GPGGA,171001,2425.9367,N,08118.2154,W,1,9,1.7,18,M,,M,,*58
06/12/2015	17:10:01.563	$GPGGA,171002,2425.9356,N,08118.2146,W,1,9,1.7,18,M,,M,,*5A
06/12/2015	17:10:02.557	$GPGGA,171003,2425.9343,N,08118.2135,W,1,9,1.7,18,M,,M,,*5B
06/12/2015	17:10:03.573	$GPGGA,171004,2425.9331,N,08118.2124,W,1,8,1.9,18,M,,M,,*56
06/12/2015	17:10:04.552	$GPGGA,171005,2425.9320,N,08118.2115,W,1,8,1.7,18,M,,M,,*5B
06/12/2015	17:10:05.551	$GPGGA,171006,2425.9310,N,08118.2108,W,1,9,1.7,18,M,,M,,*56
06/12/2015	17:10:06.551	$GPGGA,171007,2425.9297,N,08118.2096,W,1,9,1.7,18,M,,M,,*5F
06/12/2015	17:10:07.572	$GPGGA,171008,2425.9285,N,08118.2086,W,1,9,1.7,18,M,,M,,*52
06/12/2015	17:10:08.522	$GPGGA,171009,2425.9276,N,08118.2080,W,1,9,1.7,18,M,,M,,*59
06/12/2015	17:10:09.557	$GPGGA,171010,2425.9263,N,08118.2070,W,1,9,1.7,18,M,,M,,*5A
06/12/2015	17:10:10.523	$GPGGA,171011,2425.9251,N,08118.2060,W,1,9,1.7,18,M,,M,,*5B
06/12/2015	17:10:11.573	$GPGGA,171012,2425.9241,N,08118.2053,W,1,9,1.7,18,M,,M,,*59
06/12/2015	17:10:12.513	$GPGGA,171013,2425.9229,N,08118.2044,W,1,9,1.7,18,M,,M,,*50
06/12/2015	17:10:13.513	$GPGGA,171014,2425.9218,N,08118.2034,W,1,9,1.7,18,M,,M,,*52
06/12/2015	17:10:14.523	$GPGGA,171015,2425.9208,N,08118.2027,W,1,9,1.7,18,M,,M,,*50
06/12/2015	17:10:15.523	$GPGGA,171016,2425.9195,N,08118.2019,W,1,9,1.7,18,M,,M,,*59
06/12/2015	17:10:16.538	$GPGGA,171017,2425.9183,N,08118.2008,W,1,9,1.7,18,M,,M,,*5F
06/12/2015	17:10:17.523	$GPGGA,171018,2425.9172,N,08118.2000,W,1,9,1.7,18,M,,M,,*56
06/12/2015	17:10:18.513	$GPGGA,171019,2425.9161,N,08118.1993,W,1,9,1.7,18,M,,M,,*55
06/12/2015	17:10:19.535	$GPGGA,171020,2425.9149,N,08118.1985,W,1,9,1.7,18,M,,M,,*52
06/12/2015	17:10:20.503	$GPGGA,171021,2425.9136,N,08118.1974,W,1,9,1.7,18,M,,M,,*55
06/12/2015	17:10:21.493	$GPGGA,171022,2425.9126,N,08118.1964,W,1,9,1.7,18,M,,M,,*56
06/12/2015	17:10:22.492	$GPGGA,171023,2425.9117,N,08118.1956,W,1,9,1.5,17,M,,M,,*59
06/12/2015	17:10:23.546	$GPGGA,171024,2425.9104,N,08118.1948,W,1,9,1.5,17,M,,M,,*53
06/12/2015	17:10:24.502	$GPGGA,171025,2425.9091,N,08118.1938,W,1,9,1.5,17,M,,M,,*58
06/12/2015	17:10:25.502	$GPGGA,171026,2425.9081,N,08118.1927,W,1,9,1.7,17,M,,M,,*56
06/12/2015	17:10:26.482	$GPGGA,171027,2425.9070,N,08118.1918,W,1,9,1.7,17,M,,M,,*55
06/12/2015	17:10:27.533	$GPGGA,171028,2425.9059,N,08118.1910,W,1,9,1.5,17,M,,M,,*5B
06/12/2015	17:10:28.503	$GPGGA,171029,2425.9048,N,08118.1903,W,1,9,1.5,17,M,,M,,*58
06/12/2015	17:10:29.493	$GPGGA,171030,2425.9035,N,08118.1892,W,1,8,1.5,17,M,,M,,*52
06/12/2015	17:10:30.493	$GPGGA,171031,2425.9023,N,08118.1880,W,1,8,1.5,17,M,,M,,*57
06/12/2015	17:10:31.503	$GPGGA,171032,2425.9012,N,08118.1872,W,1,9,1.5,17,M,,M,,*5A
06/12/2015	17:10:32.493	$GPGGA,171033,2425.9001,N,08118.1866,W,1,9,1.5,17,M,,M,,*5C
06/12/2015	17:10:33.493	$GPGGA,171034,2425.8990,N,08118.1857,W,1,9,1.5,17,M,,M,,*59
06/12/2015	17:10:34.573	$GPGGA,171035,2425.8977,N,08118.1847,W,1,9,1.6,17,M,,M,,*53
06/12/2015	17:10:35.613	$GPGGA,171036,2425.8967,N,08118.1838,W,1,9,1.7,17,M,,M,,*58
06/12/2015	17:10:36.573	$GPGGA,171037,2425.8955,N,08118.1832,W,1,9,1.5,17,M,,M,,*50
06/12/2015	17:10:37.563	$GPGGA,171038,2425.8943,N,08118.1828,W,1,9,1.5,17,M,,M,,*53
06/12/2015	17:10:38.563	$GPGGA,171039,2425.8933,N,08118.1819,W,1,9,1.5,17,M,,M,,*57
06/12/2015	17:10:39.602	$GPGGA,171040,2425.8920,N,08118.1809,W,1,9,1.5,17,M,,M,,*5A
06/12/2015	17:10:40.572	$GPGGA,171041,2425.8911,N,08118.1803,W,1,9,1.7,17,M,,M,,*51
06/12/2015	17:10:41.552	$GPGGA,171042,2425.8900,N,08118.1799,W,1,8,1.6,17,M,,M,,*5E
06/12/2015	17:10:42.562	$GPGGA,171043,2425.8889,N,08118.1790,W,1,8,1.7,17,M,,M,,*57
06/12/2015	17:10:43.582	$GPGGA,171044,2425.8878,N,08118.1781,W,1,9,1.7,17,M,,M,,*5F
06/12/2015	17:10:44.544	$GPGGA,171045,2425.8866,N,08118.1772,W,1,9,1.5,17,M,,M,,*5F
06/12/2015	17:10:45.573	$GPGGA,171046,2425.8857,N,08118.1767,W,1,9,1.5,18,M,,M,,*55
06/12/2015	17:10:46.553	$GPGGA,171047,2425.8846,N,08118.1759,W,1,9,1.5,18,M,,M,,*59
06/12/2015	17:10:47.553	$GPGGA,171048,2425.8835,N,08118.1751,W,1,9,1.7,18,M,,M,,*58
06/12/2015	17:10:48.553	$GPGGA,171049,2425.8822,N,08118.1746,W,1,9,1.5,18,M,,M,,*5B
06/12/2015	17:10:49.573	$GPGGA,171050,2425.8812,N,08118.1738,W,1,10,1.5,18,M,,M,,*61
06/12/2015	17:10:50.545	$GPGGA,171051,2425.8801,N,08118.1729,W,1,10,1.5,18,M,,M,,*62
06/12/2015	17:10:51.573	$GPGGA,171052,2425.8790,N,08118.1721,W,1,10,1.5,18,M,,M,,*6E
06/12/2015	17:10:52.535	$GPGGA,171053,2425.8779,N,08118.1714,W,1,10,1.5,18,M,,M,,*6E
06/12/2015	17:10:53.563	$GPGGA,171054,2425.8768,N,08118.1706,W,1,10,1.5,18,M,,M,,*6A
06/12/2015	17:10:54.536	$GPGGA,171055,2425.8757,N,08118.1696,W,1,10,1.5,18,M,,M,,*6F
06/12/2015	17:10:55.553	$GPGGA,171056,2425.8746,N,08118.1686,W,1,10,1.5,18,M,,M,,*6D
06/12/2015	17:10:56.536	$GPGGA,171057,2425.8734,N,08118.1677,W,1,10,1.6,18,M,,M,,*64
06/12/2015	17:10:57.552	$GPGGA,171058,2425.8721,N,08118.1670,W,1,10,1.5,18,M,,M,,*6B
06/12/2015	17:10:58.522	$GPGGA,171059,2425.8712,N,08118.1660,W,1,10,1.5,18,M,,M,,*6B
06/12/2015	17:10:59.562	$GPGGA,171100,2425.8698,N,08118.1649,W,1,10,1.5,19,M,,M,,*6F
06/12/2015	17:11:00.522	$GPGGA,171101,2425.8684,N,08118.1639,W,1,10,1.5,19,M,,M,,*64
06/12/2015	17:11:01.552	$GPGGA,171102,2425.8672,N,08118.1631,W,1,10,1.5,19,M,,M,,*66
06/12/2015	17:11:02.535	$GPGGA,171103,2425.8662,N,08118.1622,W,1,10,1.5,19,M,,M,,*64
06/12/2015	17:11:03.553	$GPGGA,171104,2425.8649,N,08118.1611,W,1,10,1.5,19,M,,M,,*6A
06/12/2015	17:11:04.538	$GPGGA,171105,2425.8637,N,08118.1602,W,1,10,1.5,19,M,,M,,*60
06/12/2015	17:11:05.540	$GPGGA,171106,2425.8626,N,08118.1594,W,1,10,1.5,19,M,,M,,*6F
06/12/2015	17:11:06.513	$GPGGA,171107,2425.8615,N,08118.1585,W,1,10,1.5,19,M,,M,,*6E
06/12/2015	17:11:07.533	$GPGGA,171108,2425.8602,N,08118.1574,W,1,10,1.5,19,M,,M,,*69
06/12/2015	17:11:08.503	$GPGGA,171109,2425.8593,N,08118.1565,W,1,10,1.5,19,M,,M,,*63
06/12/2015	17:11:09.513	$GPGGA,171110,2425.8582,N,08118.1556,W,1,10,1.5,19,M,,M,,*6B
06/12/2015	17:11:10.613	$GPGGA,171111,2425.8569,N,08118.1545,W,1,10,1.5,19,M,,M,,*6D
06/12/2015	17:11:11.639	$GPGGA,171112,2425.8557,N,08118.1536,W,1,9,1.7,19,M,,M,,*5D
06/12/2015	17:11:12.503	$GPGGA,171113,2425.8547,N,08118.1527,W,1,9,1.5,19,M,,M,,*5F
06/12/2015	17:11:13.593	$GPGGA,171114,2425.8536,N,08118.1516,W,1,10,1.5,19,M,,M,,*64
06/12/2015	17:11:14.512	$GPGGA,171115,2425.8524,N,08118.1506,W,1,10,1.5,19,M,,M,,*67
06/12/2015	17:11:15.537	$GPGGA,171116,2425.8513,N,08118.1496,W,1,10,1.5,19,M,,M,,*68
06/12/2015	17:11:16.492	$GPGGA,171117,2425.8503,N,08118.1486,W,1,10,1.5,19,M,,M,,*69
06/12/2015	17:11:17.482	$GPGGA,171118,2425.8492,N,08118.1477,W,1,10,1.5,19,M,,M,,*61
06/12/2015	17:11:18.492	$GPGGA,171119,2425.8479,N,08118.1468,W,1,10,1.5,19,M,,M,,*6B
06/12/2015	17:11:19.592	$GPGGA,171120,2425.8468,N,08118.1455,W,1,10,1.5,19,M,,M,,*6F
06/12/2015	17:11:20.573	$GPGGA,171121,2425.8458,N,08118.1447,W,1,10,1.5,19,M,,M,,*6E
06/12/2015	17:11:21.573	$GPGGA,171122,2425.8445,N,08118.1437,W,1,10,1.5,19,M,,M,,*66
06/12/2015	17:11:22.573	$GPGGA,171123,2425.8434,N,08118.1425,W,1,10,1.5,19,M,,M,,*62
06/12/2015	17:11:23.603	$GPGGA,171124,2425.8423,N,08118.1416,W,1,9,1.6,19,M,,M,,*58
06/12/2015	17:11:24.849	$GPGGA,171125,2425.8411,N,08118.1406,W,1,9,1.5,18,M,,M,,*5B
06/12/2015	17:11:25.583	$GPGGA,171126,2425.8400,N,08118.1394,W,1,10,1.5,18,M,,M,,*6C
06/12/2015	17:11:26.573	$GPGGA,171127,2425.8389,N,08118.1385,W,1,10,1.5,18,M,,M,,*6B
06/12/2015	17:11:27.573	$GPGGA,171128,2425.8377,N,08118.1376,W,1,10,1.5,18,M,,M,,*69
06/12/2015	17:11:28.573	$GPGGA,171129,2425.8365,N,08118.1366,W,1,10,1.5,18,M,,M,,*6A
06/12/2015	17:11:29.573	$GPGGA,171130,2425.8353,N,08118.1355,W,1,9,1.7,18,M,,M,,*5D
06/12/2015	17:11:30.553	$GPGGA,171131,2425.8344,N,08118.1344,W,1,9,1.5,18,M,,M,,*58
06/12/2015	17:11:31.583	$GPGGA,171132,2425.8333,N,08118.1334,W,1,10,1.5,18,M,,M,,*64
06/12/2015	17:11:32.562	$GPGGA,171133,2425.8319,N,08118.1325,W,1,10,1.5,18,M,,M,,*6D
06/12/2015	17:11:33.572	$GPGGA,171134,2425.8307,N,08118.1314,W,1,10,1.5,18,M,,M,,*67
06/12/2015	17:11:34.552	$GPGGA,171135,2425.8297,N,08118.1303,W,1,10,1.5,18,M,,M,,*68
06/12/2015	17:11:35.562	$GPGGA,171136,2425.8286,N,08118.1294,W,1,10,1.5,18,M,,M,,*64
06/12/2015	17:11:36.542	$GPGGA,171137,2425.8275,N,08118.1283,W,1,10,1.7,18,M,,M,,*6D
06/12/2015	17:11:37.562	$GPGGA,171138,2425.8262,N,08118.1271,W,1,10,1.5,18,M,,M,,*6B
06/12/2015	17:11:38.539	$GPGGA,171139,2425.8250,N,08118.1264,W,1,10,1.5,18,M,,M,,*6F
06/12/2015	17:11:39.583	$GPGGA,171140,2425.8239,N,08118.1257,W,1,10,1.5,18,M,,M,,*6E
06/12/2015	17:11:40.533	$GPGGA,171141,2425.8226,N,08118.1246,W,1,10,1.7,18,M,,M,,*63
06/12/2015	17:11:41.543	$GPGGA,171142,2425.8214,N,08118.1236,W,1,10,1.5,18,M,,M,,*64
06/12/2015	17:11:42.536	$GPGGA,171143,2425.8203,N,08118.1228,W,1,10,1.5,18,M,,M,,*6C
06/12/2015	17:11:43.563	$GPGGA,171144,2425.8192,N,08118.1218,W,1,10,1.5,18,M,,M,,*63
06/12/2015	17:11:44.542	$GPGGA,171145,2425.8181,N,08118.1207,W,1,10,1.6,18,M,,M,,*6D
