Software Version Number: 1	Data File Format Number: 1	Build Version Number: 1	Error Count Since VI Started: 3	Manufacturer: Raytheon	 Model Number: RayMarine 120	 S/N: 	 Cal Date: 	 Wind Direction Offset: 0.00	 Slope (M)1: 0.00	 Offset (B)1: 0.00	 Slope (M)2: 0.00	 Offset (B)2: 0.00	 Slope (M)3: 0.00	 Offset (B)3: 0.00	 Slope (M)4: 0.00	 Offset (B)4: 0.00	 Slope (M)5: 0.00	 Offset (B)5: 0.00	 Slope (M)6: 0.00	 Offset (B)6: 0.00
Computer Date	Computer Time	GGA String
06/22/2015	19:00:00.558	$GPGGA,190001,2419.2248,N,08159.5715,W,1,9,1.8,13,M,,M,,*5A
06/22/2015	19:00:01.548	$GPGGA,190002,2419.2263,N,08159.5723,W,1,9,1.8,13,M,,M,,*55
06/22/2015	19:00:02.548	$GPGGA,190003,2419.2278,N,08159.5730,W,1,9,2.2,13,M,,M,,*55
06/22/2015	19:00:03.578	$GPGGA,190004,2419.2298,N,08159.5738,W,1,10,1.6,13,M,,M,,*6B
06/22/2015	19:00:04.548	$GPGGA,190005,2419.2316,N,08159.5746,W,1,10,1.8,13,M,,M,,*6A
06/22/2015	19:00:05.539	$GPGGA,190006,2419.2335,N,08159.5755,W,1,9,1.8,13,M,,M,,*52
06/22/2015	19:00:06.547	$GPGGA,190007,2419.2354,N,08159.5762,W,1,9,1.8,13,M,,M,,*50
06/22/2015	19:00:07.567	$GPGGA,190008,2419.2372,N,08159.5770,W,1,9,1.8,13,M,,M,,*58
06/22/2015	19:00:08.537	$GPGGA,190009,2419.2390,N,08159.5780,W,1,9,1.8,13,M,,M,,*5A
06/22/2015	19:00:09.577	$GPGGA,190010,2419.2410,N,08159.5788,W,1,9,1.8,13,M,,M,,*55
06/22/2015	19:00:10.528	$GPGGA,190011,2419.2429,N,08159.5795,W,1,9,1.8,13,M,,M,,*52
06/22/2015	19:00:11.530	$GPGGA,190012,2419.2448,N,08159.5802,W,1,9,1.8,13,M,,M,,*57
06/22/2015	19:00:12.520	$GPGGA,190013,2419.2466,N,08159.5811,W,1,9,1.8,13,M,,M,,*58
06/22/2015	19:00:13.507	$GPGGA,190014,2419.2484,N,08159.5820,W,1,9,1.8,13,M,,M,,*51
06/22/2015	19:00:14.507	$GPGGA,190015,2419.2502,N,08159.5827,W,1,9,1.8,13,M,,M,,*58
06/22/2015	19:00:15.547	$GPGGA,190016,2419.2522,N,08159.5835,W,1,9,1.8,13,M,,M,,*5A
06/22/2015	19:00:16.829	$GPGGA,190017,2419.2540,N,08159.5843,W,1,9,1.8,13,M,,M,,*5E
06/22/2015	19:00:17.520	$GPGGA,190018,2419.2558,N,08159.5849,W,1,9,1.8,13,M,,M,,*52
06/22/2015	19:00:18.497	$GPGGA,190019,2419.2576,N,08159.5856,W,1,9,1.6,13,M,,M,,*5F
06/22/2015	19:00:19.534	$GPGGA,190020,2419.2594,N,08159.5865,W,1,10,1.6,13,M,,M,,*61
06/22/2015	19:00:20.497	$GPGGA,190021,2419.2614,N,08159.5874,W,1,10,1.8,13,M,,M,,*65
06/22/2015	19:00:21.517	$GPGGA,190022,2419.2632,N,08159.5881,W,1,10,1.6,13,M,,M,,*66
06/22/2015	19:00:22.497	$GPGGA,190023,2419.2652,N,08159.5887,W,1,10,1.6,13,M,,M,,*67
06/22/2015	19:00:23.529	$GPGGA,190024,2419.2670,N,08159.5896,W,1,10,1.6,13,M,,M,,*60
06/22/2015	19:00:24.496	$GPGGA,190025,2419.2688,N,08159.5903,W,1,10,1.8,13,M,,M,,*65
06/22/2015	19:00:25.506	$GPGGA,190026,2419.2706,N,08159.5910,W,1,10,1.6,13,M,,M,,*6D
06/22/2015	19:00:26.486	$GPGGA,190027,2419.2724,N,08159.5917,W,1,10,1.8,13,M,,M,,*65
06/22/2015	19:00:27.517	$GPGGA,190028,2419.2742,N,08159.5925,W,1,9,1.8,13,M,,M,,*53
06/22/2015	19:00:28.577	$GPGGA,190029,2419.2761,N,08159.5932,W,1,9,1.8,13,M,,M,,*55
06/22/2015	19:00:29.607	$GPGGA,190030,2419.2779,N,08159.5939,W,1,9,1.8,13,M,,M,,*5F
06/22/2015	19:00:30.497	$GPGGA,190031,2419.2797,N,08159.5947,W,1,9,1.8,13,M,,M,,*57
06/22/2015	19:00:31.587	$GPGGA,190032,2419.2813,N,08159.5954,W,1,9,1.8,13,M,,M,,*55
06/22/2015	19:00:32.487	$GPGGA,190033,2419.2831,N,08159.5961,W,1,9,1.8,13,M,,M,,*52
06/22/2015	19:00:33.623	$GPGGA,190034,2419.2849,N,08159.5968,W,1,9,1.8,13,M,,M,,*53
06/22/2015	19:00:34.577	$GPGGA,190035,2419.2869,N,08159.5975,W,1,9,1.8,13,M,,M,,*5C
06/22/2015	19:00:35.637	$GPGGA,190036,2419.2887,N,08159.5983,W,1,9,1.8,13,M,,M,,*56
06/22/2015	19:00:36.577	$GPGGA,190037,2419.2906,N,08159.5990,W,1,9,1.8,13,M,,M,,*5D
06/22/2015	19:00:37.587	$GPGGA,190038,2419.2924,N,08159.5997,W,1,9,1.8,13,M,,M,,*55
06/22/2015	19:00:38.557	$GPGGA,190039,2419.2942,N,08159.6004,W,1,9,1.8,13,M,,M,,*54
06/22/2015	19:00:39.587	$GPGGA,190040,2419.2960,N,08159.6012,W,1,9,1.8,13,M,,M,,*5D
06/22/2015	19:00:40.556	$GPGGA,190041,2419.2978,N,08159.6019,W,1,9,1.8,13,M,,M,,*5E
06/22/2015	19:00:41.566	$GPGGA,190042,2419.2996,N,08159.6027,W,1,9,1.8,13,M,,M,,*50
06/22/2015	19:00:42.556	$GPGGA,190043,2419.3014,N,08159.6034,W,1,9,1.6,13,M,,M,,*5F
06/22/2015	19:00:43.586	$GPGGA,190044,2419.3032,N,08159.6041,W,1,9,1.8,13,M,,M,,*50
06/22/2015	19:00:44.556	$GPGGA,190045,2419.3049,N,08159.6048,W,1,9,1.8,13,M,,M,,*54
06/22/2015	19:00:45.537	$GPGGA,190046,2419.3066,N,08159.6055,W,1,9,1.8,13,M,,M,,*56
06/22/2015	19:00:47.053	$GPGGA,190047,2419.3083,N,08159.6063,W,1,9,1.8,13,M,,M,,*59
06/22/2015	19:00:47.557	$GPGGA,190048,2419.3102,N,08159.6070,W,1,9,1.8,13,M,,M,,*5C
06/22/2015	19:00:48.547	$GPGGA,190049,2419.3120,N,08159.6077,W,1,9,1.8,13,M,,M,,*5A
06/22/2015	19:00:49.557	$GPGGA,190050,2419.3138,N,08159.6085,W,1,9,1.8,13,M,,M,,*56
06/22/2015	19:00:50.536	$GPGGA,190051,2419.3155,N,08159.6094,W,1,9,1.8,13,M,,M,,*5C
06/22/2015	19:00:51.577	$GPGGA,190052,2419.3173,N,08159.6099,W,1,10,1.6,13,M,,M,,*60
06/22/2015	19:00:52.537	$GPGGA,190053,2419.3191,N,08159.6107,W,1,10,1.6,13,M,,M,,*6B
06/22/2015	19:00:53.532	$GPGGA,190054,2419.3208,N,08159.6114,W,1,9,1.8,13,M,,M,,*5B
06/22/2015	19:00:54.535	$GPGGA,190055,2419.3224,N,08159.6121,W,1,9,1.8,13,M,,M,,*52
06/22/2015	19:00:55.577	$GPGGA,190056,2419.3242,N,08159.6128,W,1,9,1.8,13,M,,M,,*58
06/22/2015	19:00:56.536	$GPGGA,190057,2419.3260,N,08159.6136,W,1,9,1.6,13,M,,M,,*58
06/22/2015	19:00:57.547	$GPGGA,190058,2419.3279,N,08159.6143,W,1,9,1.8,13,M,,M,,*53
06/22/2015	19:00:58.517	$GPGGA,190059,2419.3296,N,08159.6152,W,1,9,1.7,13,M,,M,,*5C
06/22/2015	19:00:59.546	$GPGGA,190100,2419.3314,N,08159.6160,W,1,9,1.7,13,M,,M,,*5B
06/22/2015	19:01:00.516	$GPGGA,190101,2419.3332,N,08159.6167,W,1,9,1.7,13,M,,M,,*59
06/22/2015	19:01:01.829	$GPGGA,190102,2419.3350,N,08159.6174,W,1,9,1.7,13,M,,M,,*5C
06/22/2015	19:01:02.531	$GPGGA,190103,2419.3367,N,08159.6182,W,1,9,1.7,13,M,,M,,*50
06/22/2015	19:01:03.530	$GPGGA,190104,2419.3385,N,08159.6190,W,1,9,1.7,13,M,,M,,*58
06/22/2015	19:01:04.520	$GPGGA,190105,2419.3402,N,08159.6197,W,1,9,1.7,13,M,,M,,*56
06/22/2015	19:01:05.533	$GPGGA,190106,2419.3420,N,08159.6204,W,1,9,1.7,13,M,,M,,*5C
06/22/2015	19:01:06.520	$GPGGA,190107,2419.3438,N,08159.6212,W,1,9,1.7,13,M,,M,,*53
06/22/2015	19:01:07.542	$GPGGA,190108,2419.3456,N,08159.6221,W,1,9,1.7,13,M,,M,,*54
06/22/2015	19:01:08.497	$GPGGA,190109,2419.3473,N,08159.6228,W,1,9,1.7,13,M,,M,,*5B
06/22/2015	19:01:09.507	$GPGGA,190110,2419.3492,N,08159.6236,W,1,9,1.7,13,M,,M,,*53
06/22/2015	19:01:10.487	$GPGGA,190111,2419.3510,N,08159.6241,W,1,9,1.7,12,M,,M,,*58
06/22/2015	19:01:11.518	$GPGGA,190112,2419.3526,N,08159.6250,W,1,9,1.7,12,M,,M,,*5E
06/22/2015	19:01:12.607	$GPGGA,190113,2419.3544,N,08159.6257,W,1,9,1.7,12,M,,M,,*5C
06/22/2015	19:01:13.507	$GPGGA,190114,2419.3560,N,08159.6264,W,1,9,1.7,12,M,,M,,*5D
06/22/2015	19:01:14.507	$GPGGA,190115,2419.3578,N,08159.6272,W,1,9,2.0,12,M,,M,,*56
06/22/2015	19:01:15.646	$GPGGA,190116,2419.3597,N,08159.6280,W,1,8,1.7,12,M,,M,,*5C
06/22/2015	19:01:16.506	$GPGGA,190117,2419.3618,N,08159.6290,W,1,8,1.7,12,M,,M,,*58
06/22/2015	19:01:17.946	$GPGGA,190118,2419.3636,N,08159.6297,W,1,9,1.7,12,M,,M,,*5D
06/22/2015	19:01:18.586	$GPGGA,190119,2419.3656,N,08159.6305,W,1,9,1.6,12,M,,M,,*51
06/22/2015	19:01:19.497	$GPGGA,190120,2419.3672,N,08159.6313,W,1,10,1.6,12,M,,M,,*62
06/22/2015	19:01:20.577	$GPGGA,190121,2419.3691,N,08159.6322,W,1,10,1.6,12,M,,M,,*6C
06/22/2015	19:01:21.617	$GPGGA,190122,2419.3708,N,08159.6330,W,1,10,1.6,12,M,,M,,*6D
06/22/2015	19:01:22.577	$GPGGA,190123,2419.3727,N,08159.6337,W,1,10,1.7,13,M,,M,,*66
06/22/2015	19:01:23.647	$GPGGA,190124,2419.3745,N,08159.6347,W,1,9,1.7,13,M,,M,,*5A
06/22/2015	19:01:24.568	$GPGGA,190125,2419.3763,N,08159.6355,W,1,9,1.7,13,M,,M,,*5C
06/22/2015	19:01:25.567	$GPGGA,190126,2419.3781,N,08159.6362,W,1,9,1.6,13,M,,M,,*56
06/22/2015	19:01:26.567	$GPGGA,190127,2419.3798,N,08159.6369,W,1,9,2.2,13,M,,M,,*53
06/22/2015	19:01:27.597	$GPGGA,190128,2419.3816,N,08159.6378,W,1,8,1.7,13,M,,M,,*52
06/22/2015	19:01:28.567	$GPGGA,190129,2419.3835,N,08159.6387,W,1,8,1.7,13,M,,M,,*52
06/22/2015	19:01:29.577	$GPGGA,190130,2419.3853,N,08159.6395,W,1,9,1.7,13,M,,M,,*58
06/22/2015	19:01:30.557	$GPGGA,190131,2419.3871,N,08159.6402,W,1,9,1.6,13,M,,M,,*51
06/22/2015	19:01:31.587	$GPGGA,190132,2419.3889,N,08159.6412,W,1,10,1.9,13,M,,M,,*63
06/22/2015	19:01:33.007	$GPGGA,190133,2419.3907,N,08159.6420,W,1,10,1.7,13,M,,M,,*6A
06/22/2015	19:01:33.566	$GPGGA,190134,2419.3924,N,08159.6427,W,1,9,1.7,13,M,,M,,*53
06/22/2015	19:01:34.556	$GPGGA,190135,2419.3940,N,08159.6436,W,1,9,1.7,13,M,,M,,*50
06/22/2015	19:01:35.596	$GPGGA,190136,2419.3958,N,08159.6445,W,1,9,1.7,13,M,,M,,*5E
06/22/2015	19:01:36.536	$GPGGA,190137,2419.3976,N,08159.6453,W,1,9,1.6,13,M,,M,,*55
06/22/2015	19:01:37.566	$GPGGA,190138,2419.3994,N,08159.6461,W,1,10,1.7,13,M,,M,,*6E
06/22/2015	19:01:38.547	$GPGGA,190139,2419.4014,N,08159.6468,W,1,10,1.7,13,M,,M,,*60
06/22/2015	19:01:39.577	$GPGGA,190140,2419.4032,N,08159.6478,W,1,9,1.7,13,M,,M,,*53
06/22/2015	19:01:40.537	$GPGGA,190141,2419.4048,N,08159.6485,W,1,9,1.6,14,M,,M,,*5B
06/22/2015	19:01:41.577	$GPGGA,190142,2419.4066,N,08159.6492,W,1,10,1.7,14,M,,M,,*6B
06/22/2015	19:01:42.537	$GPGGA,190143,2419.4083,N,08159.6499,W,1,10,1.6,14,M,,M,,*6B
06/22/2015	19:01:43.567	$GPGGA,190144,2419.4101,N,08159.6507,W,1,10,1.7,14,M,,M,,*60
06/22/2015	19:01:44.530	$GPGGA,190145,2419.4120,N,08159.6514,W,1,10,1.7,14,M,,M,,*60
06/22/2015	19:01:45.567	$GPGGA,190146,2419.4138,N,08159.6522,W,1,9,1.7,14,M,,M,,*57
06/22/2015	19:01:46.527	$GPGGA,190147,2419.4156,N,08159.6529,W,1,9,1.6,14,M,,M,,*54
06/22/2015	19:01:47.567	$GPGGA,190148,2419.4173,N,08159.6537,W,1,10,1.6,14,M,,M,,*6B
06/22/2015	19:01:48.527	$GPGGA,190149,2419.4192,N,08159.6546,W,1,10,1.6,14,M,,M,,*63
06/22/2015	19:01:49.527	$GPGGA,190150,2419.4210,N,08159.6553,W,1,10,1.7,15,M,,M,,*66
06/22/2015	19:01:50.527	$GPGGA,190151,2419.4228,N,08159.6561,W,1,10,1.7,15,M,,M,,*6D
06/22/2015	19:01:51.546	$GPGGA,190152,2419.4246,N,08159.6568,W,1,9,1.7,15,M,,M,,*57
06/22/2015	19:01:52.506	$GPGGA,190153,2419.4264,N,08159.6575,W,1,9,1.7,15,M,,M,,*5A
06/22/2015	19:01:53.527	$GPGGA,190154,2419.4282,N,08159.6582,W,1,9,1.6,15,M,,M,,*5C
06/22/2015	19:01:54.521	$GPGGA,190155,2419.4299,N,08159.6590,W,1,9,1.7,15,M,,M,,*55
06/22/2015	19:01:55.577	$GPGGA,190156,2419.4316,N,08159.6598,W,1,9,1.7,15,M,,M,,*58
06/22/2015	19:01:56.507	$GPGGA,190157,2419.4334,N,08159.6605,W,1,9,1.7,15,M,,M,,*5E
06/22/2015	19:01:57.807	$GPGGA,190158,2419.4352,N,08159.6612,W,1,9,1.7,15,M,,M,,*57
06/22/2015	19:01:58.497	$GPGGA,190159,2419.4370,N,08159.6620,W,1,9,1.7,15,M,,M,,*57
06/22/2015	19:01:59.557	$GPGGA,190200,2419.4388,N,08159.6627,W,1,9,1.7,15,M,,M,,*58
06/22/2015	19:02:00.521	$GPGGA,190201,2419.4406,N,08159.6636,W,1,9,1.7,15,M,,M,,*58
06/22/2015	19:02:01.587	$GPGGA,190202,2419.4424,N,08159.6642,W,1,9,1.7,15,M,,M,,*58
06/22/2015	19:02:02.530	$GPGGA,190203,2419.4442,N,08159.6649,W,1,9,1.7,15,M,,M,,*52
06/22/2015	19:02:03.529	$GPGGA,190204,2419.4460,N,08159.6658,W,1,9,1.7,15,M,,M,,*55
06/22/2015	19:02:04.497	$GPGGA,190205,2419.4478,N,08159.6665,W,1,9,1.7,15,M,,M,,*53
06/22/2015	19:02:05.622	$GPGGA,190206,2419.4496,N,08159.6673,W,1,9,1.6,15,M,,M,,*56
06/22/2015	19:02:06.577	$GPGGA,190207,2419.4514,N,08159.6680,W,1,9,1.7,15,M,,M,,*51
06/22/2015	19:02:07.587	$GPGGA,190208,2419.4532,N,08159.6687,W,1,9,1.7,15,M,,M,,*5D
06/22/2015	19:02:08.586	$GPGGA,190209,2419.4550,N,08159.6694,W,1,9,1.7,15,M,,M,,*5A
06/22/2015	19:02:09.566	$GPGGA,190210,2419.4568,N,08159.6702,W,1,9,1.7,15,M,,M,,*57
06/22/2015	19:02:10.566	$GPGGA,190211,2419.4586,N,08159.6710,W,1,9,1.7,15,M,,M,,*55
06/22/2015	19:02:11.621	$GPGGA,190212,2419.4604,N,08159.6716,W,1,9,1.7,16,M,,M,,*5A
06/22/2015	19:02:12.576	$GPGGA,190213,2419.4621,N,08159.6724,W,1,9,1.6,16,M,,M,,*5C
06/22/2015	19:02:13.567	$GPGGA,190214,2419.4639,N,08159.6732,W,1,10,1.7,16,M,,M,,*6C
06/22/2015	19:02:14.567	$GPGGA,190215,2419.4655,N,08159.6739,W,1,10,1.7,16,M,,M,,*6C
06/22/2015	19:02:15.567	$GPGGA,190216,2419.4673,N,08159.6746,W,1,10,1.6,16,M,,M,,*62
06/22/2015	19:02:16.557	$GPGGA,190217,2419.4691,N,08159.6754,W,1,10,1.7,16,M,,M,,*6D
06/22/2015	19:02:17.567	$GPGGA,190218,2419.4709,N,08159.6763,W,1,9,1.7,16,M,,M,,*5E
06/22/2015	19:02:18.557	$GPGGA,190219,2419.4727,N,08159.6770,W,1,9,1.7,16,M,,M,,*51
06/22/2015	19:02:19.567	$GPGGA,190220,2419.4745,N,08159.6777,W,1,10,1.7,16,M,,M,,*60
06/22/2015	19:02:20.557	$GPGGA,190221,2419.4762,N,08159.6785,W,1,10,1.7,16,M,,M,,*69
06/22/2015	19:02:21.567	$GPGGA,190222,2419.4780,N,08159.6792,W,1,9,1.7,16,M,,M,,*58
06/22/2015	19:02:22.547	$GPGGA,190223,2419.4798,N,08159.6800,W,1,9,1.7,16,M,,M,,*54
06/22/2015	19:02:23.577	$GPGGA,190224,2419.4816,N,08159.6807,W,1,9,1.7,16,M,,M,,*5D
06/22/2015	19:02:24.547	$GPGGA,190225,2419.4832,N,08159.6814,W,1,9,1.7,16,M,,M,,*58
06/22/2015	19:02:25.566	$GPGGA,190226,2419.4852,N,08159.6822,W,1,10,1.6,16,M,,M,,*61
06/22/2015	19:02:26.546	$GPGGA,190227,2419.4870,N,08159.6829,W,1,10,1.6,16,M,,M,,*6B
06/22/2015	19:02:27.576	$GPGGA,190228,2419.4888,N,08159.6836,W,1,9,1.7,16,M,,M,,*54
06/22/2015	19:02:28.536	$GPGGA,190229,2419.4906,N,08159.6846,W,1,9,1.6,16,M,,M,,*54
06/22/2015	19:02:29.530	$GPGGA,190230,2419.4924,N,08159.6853,W,1,9,1.7,16,M,,M,,*59
06/22/2015	19:02:30.547	$GPGGA,190231,2419.4943,N,08159.6860,W,1,9,1.7,16,M,,M,,*59
06/22/2015	19:02:31.577	$GPGGA,190232,2419.4961,N,08159.6868,W,1,10,1.6,16,M,,M,,*6B
06/22/2015	19:02:32.531	$GPGGA,190233,2419.4977,N,08159.6876,W,1,10,1.7,16,M,,M,,*63
06/22/2015	19:02:33.536	$GPGGA,190234,2419.4995,N,08159.6883,W,1,9,1.7,16,M,,M,,*5A
06/22/2015	19:02:34.530	$GPGGA,190235,2419.5013,N,08159.6889,W,1,9,1.7,16,M,,M,,*57
06/22/2015	19:02:35.567	$GPGGA,190236,2419.5031,N,08159.6897,W,1,9,1.7,16,M,,M,,*5B
06/22/2015	19:02:36.522	$GPGGA,190237,2419.5051,N,08159.6907,W,1,9,1.7,16,M,,M,,*54
06/22/2015	19:02:37.517	$GPGGA,190238,2419.5070,N,08159.6913,W,1,9,1.7,16,M,,M,,*5D
06/22/2015	19:02:38.519	$GPGGA,190239,2419.5088,N,08159.6922,W,1,9,1.7,16,M,,M,,*59
06/22/2015	19:02:39.547	$GPGGA,190240,2419.5106,N,08159.6929,W,1,9,1.7,15,M,,M,,*58
06/22/2015	19:02:40.627	$GPGGA,190241,2419.5121,N,08159.6936,W,1,9,1.7,15,M,,M,,*52
06/22/2015	19:02:41.627	$GPGGA,190242,2419.5139,N,08159.6941,W,1,10,1.6,15,M,,M,,*61
06/22/2015	19:02:42.531	$GPGGA,190243,2419.5157,N,08159.6951,W,1,10,1.6,15,M,,M,,*69
06/22/2015	19:02:43.636	$GPGGA,190244,2419.5175,N,08159.6958,W,1,9,1.7,15,M,,M,,*5E
06/22/2015	19:02:44.518	$GPGGA,190245,2419.5193,N,08159.6965,W,1,9,1.7,15,M,,M,,*59
06/22/2015	19:02:45.626	$GPGGA,190246,2419.5212,N,08159.6973,W,1,9,1.7,15,M,,M,,*57
06/22/2015	19:02:46.496	$GPGGA,190247,2419.5232,N,08159.6981,W,1,9,1.7,15,M,,M,,*59
06/22/2015	19:02:47.530	$GPGGA,190248,2419.5251,N,08159.6990,W,1,9,1.7,15,M,,M,,*53
06/22/2015	19:02:48.587	$GPGGA,190249,2419.5269,N,08159.6998,W,1,9,1.6,15,M,,M,,*50
06/22/2015	19:02:49.487	$GPGGA,190250,2419.5287,N,08159.7005,W,1,10,1.6,15,M,,M,,*6C
06/22/2015	19:02:50.487	$GPGGA,190251,2419.5305,N,08159.7012,W,1,10,1.6,15,M,,M,,*60
06/22/2015	19:02:51.507	$GPGGA,190252,2419.5323,N,08159.7020,W,1,10,1.6,15,M,,M,,*66
06/22/2015	19:02:52.607	$GPGGA,190253,2419.5341,N,08159.7027,W,1,10,1.6,15,M,,M,,*64
06/22/2015	19:02:53.607	$GPGGA,190254,2419.5359,N,08159.7035,W,1,9,1.7,15,M,,M,,*50
06/22/2015	19:02:54.577	$GPGGA,190255,2419.5378,N,08159.7043,W,1,9,1.7,15,M,,M,,*53
06/22/2015	19:02:55.587	$GPGGA,190256,2419.5396,N,08159.7052,W,1,9,1.7,15,M,,M,,*50
06/22/2015	19:02:56.577	$GPGGA,190257,2419.5414,N,08159.7059,W,1,9,1.7,15,M,,M,,*57
06/22/2015	19:02:57.577	$GPGGA,190258,2419.5432,N,08159.7066,W,1,9,1.7,14,M,,M,,*51
06/22/2015	19:02:58.577	$GPGGA,190259,2419.5449,N,08159.7074,W,1,9,1.6,14,M,,M,,*5E
06/22/2015	19:02:59.631	$GPGGA,190300,2419.5468,N,08159.7081,W,1,9,1.7,14,M,,M,,*5B
06/22/2015	19:03:00.577	$GPGGA,190301,2419.5486,N,08159.7089,W,1,9,1.7,14,M,,M,,*52
06/22/2015	19:03:01.576	$GPGGA,190302,2419.5504,N,08159.7097,W,1,9,1.7,14,M,,M,,*55
06/22/2015	19:03:02.566	$GPGGA,190303,2419.5522,N,08159.7106,W,1,9,1.7,14,M,,M,,*59
06/22/2015	19:03:03.597	$GPGGA,190304,2419.5540,N,08159.7113,W,1,9,1.7,14,M,,M,,*5E
06/22/2015	19:03:04.566	$GPGGA,190305,2419.5558,N,08159.7121,W,1,9,1.7,14,M,,M,,*57
06/22/2015	19:03:05.587	$GPGGA,190306,2419.5576,N,08159.7128,W,1,10,1.6,14,M,,M,,*68
06/22/2015	19:03:06.557	$GPGGA,190307,2419.5593,N,08159.7135,W,1,10,1.6,14,M,,M,,*6E
06/22/2015	19:03:07.577	$GPGGA,190308,2419.5611,N,08159.7143,W,1,9,1.7,14,M,,M,,*50
06/22/2015	19:03:08.557	$GPGGA,190309,2419.5630,N,08159.7150,W,1,9,1.7,14,M,,M,,*50
06/22/2015	19:03:09.567	$GPGGA,190310,2419.5648,N,08159.7158,W,1,9,1.7,14,M,,M,,*5F
06/22/2015	19:03:10.557	$GPGGA,190311,2419.5666,N,08159.7167,W,1,9,1.7,14,M,,M,,*5E
06/22/2015	19:03:11.577	$GPGGA,190312,2419.5684,N,08159.7173,W,1,9,1.7,14,M,,M,,*54
06/22/2015	19:03:12.567	$GPGGA,190313,2419.5701,N,08159.7182,W,1,9,1.7,14,M,,M,,*57
06/22/2015	19:03:13.537	$GPGGA,190314,2419.5719,N,08159.7189,W,1,9,1.7,14,M,,M,,*52
06/22/2015	19:03:14.538	$GPGGA,190315,2419.5735,N,08159.7197,W,1,9,1.6,14,M,,M,,*53
06/22/2015	19:03:15.577	$GPGGA,190316,2419.5753,N,08159.7204,W,1,10,1.6,14,M,,M,,*61
06/22/2015	19:03:16.547	$GPGGA,190317,2419.5773,N,08159.7211,W,1,10,1.7,14,M,,M,,*67
06/22/2015	19:03:17.567	$GPGGA,190318,2419.5790,N,08159.7220,W,1,9,1.7,14,M,,M,,*5F
06/22/2015	19:03:18.536	$GPGGA,190319,2419.5808,N,08159.7229,W,1,9,1.7,14,M,,M,,*59
06/22/2015	19:03:19.546	$GPGGA,190320,2419.5826,N,08159.7236,W,1,9,1.7,14,M,,M,,*51
06/22/2015	19:03:20.532	$GPGGA,190321,2419.5844,N,08159.7243,W,1,9,1.6,14,M,,M,,*57
06/22/2015	19:03:21.556	$GPGGA,190322,2419.5862,N,08159.7251,W,1,9,1.7,13,M,,M,,*55
06/22/2015	19:03:22.517	$GPGGA,190323,2419.5880,N,08159.7259,W,1,9,1.6,13,M,,M,,*51
06/22/2015	19:03:23.527	$GPGGA,190324,2419.5898,N,08159.7267,W,1,9,1.7,13,M,,M,,*53
06/22/2015	19:03:24.547	$GPGGA,190325,2419.5916,N,08159.7276,W,1,9,1.7,13,M,,M,,*55
06/22/2015	19:03:25.547	$GPGGA,190326,2419.5934,N,08159.7283,W,1,9,1.7,13,M,,M,,*5C
06/22/2015	19:03:26.534	$GPGGA,190327,2419.5952,N,08159.7291,W,1,9,1.7,13,M,,M,,*5E
06/22/2015	19:03:27.547	$GPGGA,190328,2419.5972,N,08159.7299,W,1,9,1.7,13,M,,M,,*5B
06/22/2015	19:03:28.507	$GPGGA,190329,2419.5990,N,08159.7308,W,1,9,1.7,13,M,,M,,*5F
06/22/2015	19:03:29.517	$GPGGA,190330,2419.6006,N,08159.7314,W,1,10,1.6,13,M,,M,,*66
06/22/2015	19:03:30.627	$GPGGA,190331,2419.6024,N,08159.7323,W,1,10,1.6,13,M,,M,,*63
06/22/2015	19:03:31.628	$GPGGA,190332,2419.6042,N,08159.7330,W,1,9,1.7,13,M,,M,,*5B
06/22/2015	19:03:32.517	$GPGGA,190333,2419.6060,N,08159.7337,W,1,9,1.7,13,M,,M,,*5D
06/22/2015	19:03:33.497	$GPGGA,190334,2419.6078,N,08159.7345,W,1,9,1.7,13,M,,M,,*56
06/22/2015	19:03:34.597	$GPGGA,190335,2419.6096,N,08159.7353,W,1,9,1.7,13,M,,M,,*50
06/22/2015	19:03:35.546	$GPGGA,190336,2419.6115,N,08159.7361,W,1,9,1.7,13,M,,M,,*58
06/22/2015	19:03:36.516	$GPGGA,190337,2419.6133,N,08159.7370,W,1,9,1.7,13,M,,M,,*5D
06/22/2015	19:03:37.596	$GPGGA,190338,2419.6153,N,08159.7377,W,1,9,1.7,13,M,,M,,*53
06/22/2015	19:03:38.506	$GPGGA,190339,2419.6171,N,08159.7384,W,1,9,1.7,13,M,,M,,*5E
06/22/2015	19:03:39.606	$GPGGA,190340,2419.6189,N,08159.7392,W,1,9,1.7,13,M,,M,,*50
06/22/2015	19:03:40.507	$GPGGA,190341,2419.6207,N,08159.7399,W,1,9,1.7,13,M,,M,,*5F
06/22/2015	19:03:41.497	$GPGGA,190342,2419.6225,N,08159.7406,W,1,9,1.7,13,M,,M,,*5D
06/22/2015	19:03:42.507	$GPGGA,190343,2419.6244,N,08159.7414,W,1,9,1.7,13,M,,M,,*58
06/22/2015	19:03:43.628	$GPGGA,190344,2419.6262,N,08159.7421,W,1,9,1.7,13,M,,M,,*5D
06/22/2015	19:03:44.578	$GPGGA,190345,2419.6281,N,08159.7429,W,1,9,1.7,13,M,,M,,*59
06/22/2015	19:03:45.577	$GPGGA,190346,2419.6295,N,08159.7436,W,1,9,1.7,13,M,,M,,*51
06/22/2015	19:03:46.577	$GPGGA,190347,2419.6315,N,08159.7443,W,1,9,1.6,13,M,,M,,*5A
06/22/2015	19:03:48.607	$GPGGA,190349,2419.6352,N,08159.7458,W,1,9,1.7,13,M,,M,,*5C
06/22/2015	19:03:49.577	$GPGGA,190350,2419.6370,N,08159.7467,W,1,9,1.7,13,M,,M,,*58
06/22/2015	19:03:50.577	$GPGGA,190351,2419.6389,N,08159.7473,W,1,9,1.7,13,M,,M,,*5A
06/22/2015	19:03:51.577	$GPGGA,190352,2419.6407,N,08159.7480,W,1,9,1.7,13,M,,M,,*54
06/22/2015	19:03:52.567	$GPGGA,190353,2419.6425,N,08159.7489,W,1,9,1.6,13,M,,M,,*5D
06/22/2015	19:03:53.556	$GPGGA,190354,2419.6445,N,08159.7496,W,1,10,1.6,13,M,,M,,*6A
06/22/2015	19:03:54.556	$GPGGA,190355,2419.6464,N,08159.7504,W,1,10,1.7,13,M,,M,,*63
06/22/2015	19:03:55.606	$GPGGA,190356,2419.6482,N,08159.7511,W,1,9,1.7,12,M,,M,,*55
06/22/2015	19:03:56.556	$GPGGA,190357,2419.6498,N,08159.7519,W,1,9,1.6,12,M,,M,,*56
06/22/2015	19:03:57.556	$GPGGA,190358,2419.6518,N,08159.7527,W,1,10,1.6,12,M,,M,,*65
06/22/2015	19:03:58.547	$GPGGA,190359,2419.6536,N,08159.7533,W,1,10,1.7,12,M,,M,,*6C
06/22/2015	19:03:59.597	$GPGGA,190400,2419.6552,N,08159.7540,W,1,10,1.6,12,M,,M,,*60
06/22/2015	19:04:00.557	$GPGGA,190401,2419.6570,N,08159.7548,W,1,10,1.6,12,M,,M,,*69
06/22/2015	19:04:01.567	$GPGGA,190402,2419.6588,N,08159.7555,W,1,10,1.6,12,M,,M,,*61
06/22/2015	19:04:02.547	$GPGGA,190403,2419.6606,N,08159.7563,W,1,10,1.7,12,M,,M,,*61
06/22/2015	19:04:03.568	$GPGGA,190404,2419.6624,N,08159.7570,W,1,9,1.7,12,M,,M,,*5C
06/22/2015	19:04:04.527	$GPGGA,190405,2419.6644,N,08159.7579,W,1,9,1.7,12,M,,M,,*52
06/22/2015	19:04:05.567	$GPGGA,190406,2419.6662,N,08159.7587,W,1,9,1.7,12,M,,M,,*54
06/22/2015	19:04:06.537	$GPGGA,190407,2419.6680,N,08159.7595,W,1,9,1.7,12,M,,M,,*5A
06/22/2015	19:04:07.557	$GPGGA,190408,2419.6699,N,08159.7602,W,1,9,1.7,12,M,,M,,*50
06/22/2015	19:04:08.537	$GPGGA,190409,2419.6716,N,08159.7610,W,1,9,1.7,12,M,,M,,*54
06/22/2015	19:04:09.557	$GPGGA,190410,2419.6734,N,08159.7619,W,1,9,1.7,12,M,,M,,*55
06/22/2015	19:04:10.526	$GPGGA,190411,2419.6751,N,08159.7626,W,1,9,1.7,12,M,,M,,*5B
06/22/2015	19:04:11.566	$GPGGA,190412,2419.6771,N,08159.7634,W,1,9,1.7,12,M,,M,,*59
06/22/2015	19:04:12.526	$GPGGA,190413,2419.6789,N,08159.7641,W,1,9,1.7,12,M,,M,,*5D
06/22/2015	19:04:13.526	$GPGGA,190414,2419.6805,N,08159.7650,W,1,9,1.7,12,M,,M,,*51
06/22/2015	19:04:14.536	$GPGGA,190415,2419.6823,N,08159.7659,W,1,9,1.7,12,M,,M,,*5D
06/22/2015	19:04:15.567	$GPGGA,190416,2419.6841,N,08159.7666,W,1,9,1.7,12,M,,M,,*56
06/22/2015	19:04:16.507	$GPGGA,190417,2419.6861,N,08159.7673,W,1,9,1.7,12,M,,M,,*51
06/22/2015	19:04:18.557	$GPGGA,190419,2419.6895,N,08159.7689,W,1,9,1.7,12,M,,M,,*51
06/22/2015	19:04:19.547	$GPGGA,190420,2419.6913,N,08159.7697,W,1,9,1.7,12,M,,M,,*5B
06/22/2015	19:04:20.507	$GPGGA,190421,2419.6928,N,08159.7702,W,1,9,1.6,12,M,,M,,*5E
06/22/2015	19:04:21.497	$GPGGA,190422,2419.6945,N,08159.7710,W,1,10,1.6,12,M,,M,,*6D
06/22/2015	19:04:22.517	$GPGGA,190423,2419.6964,N,08159.7718,W,1,10,1.6,12,M,,M,,*67
06/22/2015	19:04:23.697	$GPGGA,190424,2419.6982,N,08159.7728,W,1,9,1.7,12,M,,M,,*52
06/22/2015	19:04:24.507	$GPGGA,190425,2419.7000,N,08159.7735,W,1,9,1.7,12,M,,M,,*5D
06/22/2015	19:04:25.497	$GPGGA,190426,2419.7018,N,08159.7742,W,1,9,1.7,12,M,,M,,*57
06/22/2015	19:04:26.587	$GPGGA,190427,2419.7038,N,08159.7750,W,1,9,1.7,12,M,,M,,*57
06/22/2015	19:04:27.696	$GPGGA,190428,2419.7054,N,08159.7758,W,1,9,1.7,12,M,,M,,*5A
06/22/2015	19:04:28.616	$GPGGA,190429,2419.7074,N,08159.7767,W,1,9,1.7,12,M,,M,,*55
06/22/2015	19:04:29.486	$GPGGA,190430,2419.7092,N,08159.7775,W,1,9,1.7,12,M,,M,,*56
06/22/2015	19:04:30.586	$GPGGA,190431,2419.7111,N,08159.7782,W,1,9,1.7,12,M,,M,,*55
06/22/2015	19:04:32.196	$GPGGA,190432,2419.7129,N,08159.7792,W,1,9,1.7,12,M,,M,,*5C
06/22/2015	19:04:32.556	$GPGGA,190433,2419.7147,N,08159.7798,W,1,9,1.7,12,M,,M,,*5F
06/22/2015	19:04:33.677	$GPGGA,190434,2419.7165,N,08159.7807,W,1,9,1.7,12,M,,M,,*51
06/22/2015	19:04:34.577	$GPGGA,190435,2419.7180,N,08159.7812,W,1,9,1.7,12,M,,M,,*5F
06/22/2015	19:04:35.697	$GPGGA,190436,2419.7198,N,08159.7821,W,1,10,1.6,12,M,,M,,*6C
06/22/2015	19:04:36.567	$GPGGA,190437,2419.7217,N,08159.7829,W,1,10,1.7,12,M,,M,,*60
06/22/2015	19:04:37.667	$GPGGA,190438,2419.7235,N,08159.7836,W,1,9,1.6,12,M,,M,,*58
06/22/2015	19:04:38.597	$GPGGA,190439,2419.7255,N,08159.7844,W,1,9,1.6,12,M,,M,,*5A
06/22/2015	19:04:39.677	$GPGGA,190440,2419.7274,N,08159.7852,W,1,9,1.7,12,M,,M,,*51
06/22/2015	19:04:40.587	$GPGGA,190441,2419.7292,N,08159.7861,W,1,9,1.7,12,M,,M,,*58
06/22/2015	19:04:41.657	$GPGGA,190442,2419.7310,N,08159.7868,W,1,9,1.7,12,M,,M,,*59
06/22/2015	19:04:42.587	$GPGGA,190443,2419.7328,N,08159.7876,W,1,9,1.7,12,M,,M,,*5C
06/22/2015	19:04:43.667	$GPGGA,190444,2419.7345,N,08159.7883,W,1,9,1.7,12,M,,M,,*5A
06/22/2015	19:04:44.577	$GPGGA,190445,2419.7364,N,08159.7890,W,1,9,1.7,12,M,,M,,*5A
06/22/2015	19:04:45.666	$GPGGA,190446,2419.7383,N,08159.7898,W,1,9,1.6,12,M,,M,,*59
06/22/2015	19:04:46.546	$GPGGA,190447,2419.7401,N,08159.7908,W,1,9,1.6,12,M,,M,,*5D
06/22/2015	19:04:47.676	$GPGGA,190448,2419.7419,N,08159.7915,W,1,10,1.6,12,M,,M,,*6F
06/22/2015	19:04:48.546	$GPGGA,190449,2419.7437,N,08159.7923,W,1,10,1.6,12,M,,M,,*67
06/22/2015	19:04:49.646	$GPGGA,190450,2419.7455,N,08159.7930,W,1,9,1.7,12,M,,M,,*50
06/22/2015	19:04:50.567	$GPGGA,190451,2419.7472,N,08159.7938,W,1,9,1.7,12,M,,M,,*5C
06/22/2015	19:04:51.547	$GPGGA,190452,2419.7488,N,08159.7945,W,1,9,1.7,12,M,,M,,*50
06/22/2015	19:04:52.532	$GPGGA,190453,2419.7508,N,08159.7952,W,1,9,1.6,12,M,,M,,*5F
06/22/2015	19:04:53.627	$GPGGA,190454,2419.7526,N,08159.7960,W,1,9,1.7,12,M,,M,,*54
06/22/2015	19:04:54.568	$GPGGA,190455,2419.7545,N,08159.7969,W,1,9,1.7,12,M,,M,,*59
06/22/2015	19:04:55.537	$GPGGA,190456,2419.7563,N,08159.7977,W,1,9,1.7,12,M,,M,,*51
06/22/2015	19:04:56.557	$GPGGA,190457,2419.7581,N,08159.7984,W,1,9,1.7,12,M,,M,,*50
06/22/2015	19:04:57.597	$GPGGA,190458,2419.7599,N,08159.7992,W,1,9,1.7,12,M,,M,,*51
06/22/2015	19:04:58.557	$GPGGA,190459,2419.7616,N,08159.7999,W,1,9,1.7,12,M,,M,,*5F
06/22/2015	19:04:59.647	$GPGGA,190500,2419.7634,N,08159.8007,W,1,9,1.7,12,M,,M,,*53
06/22/2015	19:05:00.557	$GPGGA,190501,2419.7652,N,08159.8016,W,1,9,1.7,12,M,,M,,*52
06/22/2015	19:05:01.517	$GPGGA,190502,2419.7671,N,08159.8024,W,1,9,1.7,12,M,,M,,*51
06/22/2015	19:05:02.556	$GPGGA,190503,2419.7686,N,08159.8031,W,1,9,1.6,12,M,,M,,*5D
06/22/2015	19:05:03.666	$GPGGA,190504,2419.7706,N,08159.8038,W,1,10,1.6,12,M,,M,,*62
06/22/2015	19:05:04.566	$GPGGA,190505,2419.7722,N,08159.8045,W,1,10,1.6,12,M,,M,,*6F
06/22/2015	19:05:05.646	$GPGGA,190506,2419.7740,N,08159.8051,W,1,10,1.6,12,M,,M,,*6D
06/22/2015	19:05:06.556	$GPGGA,190507,2419.7758,N,08159.8060,W,1,10,1.7,12,M,,M,,*66
06/22/2015	19:05:07.656	$GPGGA,190508,2419.7776,N,08159.8067,W,1,9,1.7,12,M,,M,,*5A
06/22/2015	19:05:08.537	$GPGGA,190509,2419.7794,N,08159.8074,W,1,9,1.7,12,M,,M,,*55
06/22/2015	19:05:09.587	$GPGGA,190510,2419.7813,N,08159.8082,W,1,9,1.7,12,M,,M,,*54
06/22/2015	19:05:10.537	$GPGGA,190511,2419.7831,N,08159.8090,W,1,9,1.7,12,M,,M,,*56
06/22/2015	19:05:11.587	$GPGGA,190512,2419.7849,N,08159.8097,W,1,9,1.7,12,M,,M,,*5D
06/22/2015	19:05:12.597	$GPGGA,190513,2419.7867,N,08159.8105,W,1,9,1.5,12,M,,M,,*58
06/22/2015	19:05:13.587	$GPGGA,190514,2419.7885,N,08159.8114,W,1,10,1.5,12,M,,M,,*6B
06/22/2015	19:05:14.487	$GPGGA,190515,2419.7905,N,08159.8121,W,1,10,1.5,12,M,,M,,*65
06/22/2015	19:05:15.637	$GPGGA,190516,2419.7923,N,08159.8129,W,1,9,1.7,12,M,,M,,*50
06/22/2015	19:05:16.530	$GPGGA,190517,2419.7941,N,08159.8136,W,1,9,1.7,12,M,,M,,*5B
06/22/2015	19:05:17.577	$GPGGA,190518,2419.7959,N,08159.8144,W,1,9,1.7,12,M,,M,,*58
06/22/2015	19:05:18.587	$GPGGA,190519,2419.7977,N,08159.8152,W,1,9,1.7,12,M,,M,,*52
06/22/2015	19:05:19.657	$GPGGA,190520,2419.7995,N,08159.8159,W,1,9,1.7,12,M,,M,,*5F
06/22/2015	19:05:20.586	$GPGGA,190521,2419.8014,N,08159.8168,W,1,9,1.7,12,M,,M,,*53
06/22/2015	19:05:21.586	$GPGGA,190522,2419.8032,N,08159.8176,W,1,9,1.7,12,M,,M,,*5B
06/22/2015	19:05:22.586	$GPGGA,190523,2419.8050,N,08159.8181,W,1,9,1.5,13,M,,M,,*55
06/22/2015	19:05:23.606	$GPGGA,190524,2419.8066,N,08159.8190,W,1,10,1.5,13,M,,M,,*6F
06/22/2015	19:05:24.576	$GPGGA,190525,2419.8084,N,08159.8197,W,1,10,1.7,13,M,,M,,*67
06/22/2015	19:05:25.632	$GPGGA,190526,2419.8104,N,08159.8204,W,1,9,1.7,13,M,,M,,*5C
06/22/2015	19:05:26.577	$GPGGA,190527,2419.8120,N,08159.8213,W,1,9,1.7,13,M,,M,,*5D
06/22/2015	19:05:27.657	$GPGGA,190528,2419.8140,N,08159.8220,W,1,9,1.7,13,M,,M,,*54
06/22/2015	19:05:28.567	$GPGGA,190529,2419.8156,N,08159.8226,W,1,9,1.5,13,M,,M,,*56
06/22/2015	19:05:29.629	$GPGGA,190530,2419.8173,N,08159.8233,W,1,10,1.5,13,M,,M,,*65
06/22/2015	19:05:30.567	$GPGGA,190531,2419.8192,N,08159.8241,W,1,10,1.5,13,M,,M,,*6E
06/22/2015	19:05:31.657	$GPGGA,190532,2419.8210,N,08159.8248,W,1,10,1.5,13,M,,M,,*6D
06/22/2015	19:05:32.557	$GPGGA,190533,2419.8228,N,08159.8256,W,1,10,1.5,13,M,,M,,*68
06/22/2015	19:05:33.587	$GPGGA,190534,2419.8246,N,08159.8264,W,1,10,1.7,13,M,,M,,*64
06/22/2015	19:05:34.557	$GPGGA,190535,2419.8264,N,08159.8273,W,1,10,1.7,13,M,,M,,*63
06/22/2015	19:05:35.587	$GPGGA,190536,2419.8284,N,08159.8280,W,1,9,1.7,13,M,,M,,*5A
06/22/2015	19:05:36.547	$GPGGA,190537,2419.8300,N,08159.8288,W,1,9,1.7,13,M,,M,,*5E
06/22/2015	19:05:37.576	$GPGGA,190538,2419.8318,N,08159.8296,W,1,9,1.7,13,M,,M,,*57
06/22/2015	19:05:38.556	$GPGGA,190539,2419.8337,N,08159.8302,W,1,9,1.7,13,M,,M,,*57
06/22/2015	19:05:39.596	$GPGGA,190540,2419.8357,N,08159.8311,W,1,9,1.7,13,M,,M,,*5D
06/22/2015	19:05:40.546	$GPGGA,190541,2419.8375,N,08159.8320,W,1,9,1.7,13,M,,M,,*5E
06/22/2015	19:05:41.576	$GPGGA,190542,2419.8393,N,08159.8327,W,1,9,1.7,13,M,,M,,*52
06/22/2015	19:05:42.556	$GPGGA,190543,2419.8411,N,08159.8335,W,1,9,1.7,13,M,,M,,*5D
06/22/2015	19:05:43.577	$GPGGA,190544,2419.8411,N,08159.8335,W,1,9,1.7,13,M,,M,,*5A
06/22/2015	19:05:44.547	$GPGGA,190545,2419.8447,N,08159.8350,W,1,9,1.7,13,M,,M,,*5B
06/22/2015	19:05:45.567	$GPGGA,190546,2419.8465,N,08159.8358,W,1,9,1.7,13,M,,M,,*50
06/22/2015	19:05:46.530	$GPGGA,190547,2419.8483,N,08159.8367,W,1,9,1.7,13,M,,M,,*55
06/22/2015	19:05:47.547	$GPGGA,190548,2419.8483,N,08159.8367,W,1,9,1.7,13,M,,M,,*5A
06/22/2015	19:05:48.537	$GPGGA,190549,2419.8519,N,08159.8382,W,1,9,1.7,13,M,,M,,*52
06/22/2015	19:05:49.567	$GPGGA,190550,2419.8519,N,08159.8382,W,1,9,1.7,13,M,,M,,*5A
06/22/2015	19:05:50.547	$GPGGA,190551,2419.8555,N,08159.8396,W,1,9,1.7,13,M,,M,,*56
06/22/2015	19:05:51.547	$GPGGA,190552,2419.8573,N,08159.8404,W,1,9,1.7,13,M,,M,,*5D
06/22/2015	19:05:52.977	$GPGGA,190553,2419.8573,N,08159.8404,W,1,9,1.7,13,M,,M,,*5C
06/22/2015	19:05:53.577	$GPGGA,190554,2419.8609,N,08159.8421,W,1,9,1.7,13,M,,M,,*52
06/22/2015	19:05:54.537	$GPGGA,190555,2419.8609,N,08159.8421,W,1,9,1.7,13,M,,M,,*53
06/22/2015	19:05:55.576	$GPGGA,190556,2419.8644,N,08159.8436,W,1,9,1.7,13,M,,M,,*5F
06/22/2015	19:05:56.633	$GPGGA,190557,2419.8662,N,08159.8443,W,1,9,1.7,13,M,,M,,*58
06/22/2015	19:05:57.637	$GPGGA,190558,2419.8680,N,08159.8450,W,1,9,1.7,13,M,,M,,*59
06/22/2015	19:05:58.506	$GPGGA,190559,2419.8698,N,08159.8458,W,1,9,1.7,13,M,,M,,*59
06/22/2015	19:05:59.529	$GPGGA,190600,2419.8698,N,08159.8458,W,1,9,1.7,13,M,,M,,*56
06/22/2015	19:06:00.622	$GPGGA,190601,2419.8734,N,08159.8475,W,1,9,1.7,13,M,,M,,*5F
06/22/2015	19:06:01.597	$GPGGA,190602,2419.8752,N,08159.8483,W,1,9,1.7,13,M,,M,,*55
06/22/2015	19:06:02.487	$GPGGA,190603,2419.8770,N,08159.8490,W,1,9,1.7,13,M,,M,,*56
06/22/2015	19:06:03.531	$GPGGA,190604,2419.8770,N,08159.8490,W,1,9,1.7,13,M,,M,,*51
06/22/2015	19:06:04.507	$GPGGA,190605,2419.8806,N,08159.8505,W,1,9,1.7,13,M,,M,,*53
06/22/2015	19:06:05.587	$GPGGA,190606,2419.8824,N,08159.8512,W,1,9,1.7,13,M,,M,,*56
06/22/2015	19:06:06.497	$GPGGA,190607,2419.8842,N,08159.8522,W,1,9,1.7,13,M,,M,,*54
06/22/2015	19:06:07.607	$GPGGA,190608,2419.8859,N,08159.8530,W,1,9,1.7,13,M,,M,,*52
06/22/2015	19:06:08.497	$GPGGA,190609,2419.8859,N,08159.8530,W,1,9,1.7,13,M,,M,,*53
06/22/2015	19:06:09.607	$GPGGA,190610,2419.8896,N,08159.8544,W,1,9,1.7,13,M,,M,,*5B
06/22/2015	19:06:10.587	$GPGGA,190611,2419.8914,N,08159.8552,W,1,9,1.7,13,M,,M,,*56
06/22/2015	19:06:11.597	$GPGGA,190612,2419.8932,N,08159.8559,W,1,9,1.7,13,M,,M,,*5A
06/22/2015	19:06:12.566	$GPGGA,190613,2419.8949,N,08159.8566,W,1,9,1.5,13,M,,M,,*59
06/22/2015	19:06:13.566	$GPGGA,190614,2419.8965,N,08159.8573,W,1,10,1.5,13,M,,M,,*6C
06/22/2015	19:06:14.566	$GPGGA,190615,2419.8983,N,08159.8581,W,1,10,1.7,13,M,,M,,*6A
06/22/2015	19:06:15.586	$GPGGA,190616,2419.9001,N,08159.8588,W,1,9,1.7,13,M,,M,,*5A
06/22/2015	19:06:16.566	$GPGGA,190617,2419.9018,N,08159.8595,W,1,9,1.7,13,M,,M,,*5F
06/22/2015	19:06:17.566	$GPGGA,190618,2419.9036,N,08159.8602,W,1,10,1.5,13,M,,M,,*6B
06/22/2015	19:06:18.556	$GPGGA,190619,2419.9052,N,08159.8609,W,1,10,1.5,13,M,,M,,*63
06/22/2015	19:06:19.576	$GPGGA,190620,2419.9076,N,08159.8616,W,1,9,2.1,13,M,,M,,*5E
06/22/2015	19:06:20.556	$GPGGA,190621,2419.9094,N,08159.8624,W,1,9,1.5,13,M,,M,,*55
06/22/2015	19:06:21.576	$GPGGA,190622,2419.9112,N,08159.8631,W,1,10,1.5,13,M,,M,,*65
06/22/2015	19:06:22.536	$GPGGA,190623,2419.9128,N,08159.8638,W,1,10,1.5,14,M,,M,,*63
06/22/2015	19:06:23.576	$GPGGA,190624,2419.9146,N,08159.8645,W,1,10,1.5,14,M,,M,,*66
06/22/2015	19:06:24.536	$GPGGA,190625,2419.9166,N,08159.8652,W,1,10,2.1,14,M,,M,,*64
06/22/2015	19:06:25.536	$GPGGA,190626,2419.9185,N,08159.8658,W,1,10,1.5,14,M,,M,,*67
06/22/2015	19:06:26.536	$GPGGA,190627,2419.9203,N,08159.8667,W,1,10,1.5,14,M,,M,,*67
06/22/2015	19:06:27.576	$GPGGA,190628,2419.9221,N,08159.8674,W,1,10,1.5,14,M,,M,,*6A
06/22/2015	19:06:28.547	$GPGGA,190629,2419.9240,N,08159.8681,W,1,10,1.5,14,M,,M,,*66
06/22/2015	19:06:29.527	$GPGGA,190630,2419.9258,N,08159.8688,W,1,10,1.5,14,M,,M,,*6E
06/22/2015	19:06:30.536	$GPGGA,190631,2419.9276,N,08159.8696,W,1,10,1.5,14,M,,M,,*6C
06/22/2015	19:06:31.576	$GPGGA,190632,2419.9293,N,08159.8703,W,1,10,1.5,15,M,,M,,*68
06/22/2015	19:06:32.536	$GPGGA,190633,2419.9310,N,08159.8708,W,1,10,2.1,15,M,,M,,*6F
06/22/2015	19:06:33.656	$GPGGA,190634,2419.9330,N,08159.8715,W,1,9,2.1,15,M,,M,,*5E
06/22/2015	19:06:34.526	$GPGGA,190635,2419.9352,N,08159.8725,W,1,9,1.5,15,M,,M,,*5F
06/22/2015	19:06:35.546	$GPGGA,190636,2419.9373,N,08159.8733,W,1,10,1.5,15,M,,M,,*60
06/22/2015	19:06:36.526	$GPGGA,190637,2419.9390,N,08159.8739,W,1,10,1.5,15,M,,M,,*66
06/22/2015	19:06:37.626	$GPGGA,190638,2419.9411,N,08159.8746,W,1,9,2.1,15,M,,M,,*50
06/22/2015	19:06:38.526	$GPGGA,190639,2419.9431,N,08159.8754,W,1,9,1.5,15,M,,M,,*57
06/22/2015	19:06:39.526	$GPGGA,190640,2419.9446,N,08159.8761,W,1,10,1.5,16,M,,M,,*64
06/22/2015	19:06:40.516	$GPGGA,190641,2419.9463,N,08159.8768,W,1,10,2.1,16,M,,M,,*6C
06/22/2015	19:06:41.496	$GPGGA,190642,2419.9481,N,08159.8775,W,1,9,2.1,16,M,,M,,*57
06/22/2015	19:06:42.516	$GPGGA,190643,2419.9498,N,08159.8782,W,1,9,1.5,16,M,,M,,*51
06/22/2015	19:06:43.626	$GPGGA,190644,2419.9517,N,08159.8788,W,1,10,1.5,16,M,,M,,*62
06/22/2015	19:06:44.509	$GPGGA,190645,2419.9536,N,08159.8797,W,1,10,1.5,16,M,,M,,*6E
06/22/2015	19:06:45.506	$GPGGA,190646,2419.9554,N,08159.8804,W,1,10,1.5,16,M,,M,,*6C
06/22/2015	19:06:46.497	$GPGGA,190647,2419.9572,N,08159.8811,W,1,10,1.5,16,M,,M,,*6D
06/22/2015	19:06:47.607	$GPGGA,190648,2419.9590,N,08159.8819,W,1,10,1.5,16,M,,M,,*66
06/22/2015	19:06:48.518	$GPGGA,190649,2419.9608,N,08159.8826,W,1,10,1.5,16,M,,M,,*69
06/22/2015	19:06:49.516	$GPGGA,190650,2419.9628,N,08159.8834,W,1,10,1.5,16,M,,M,,*60
06/22/2015	19:06:50.576	$GPGGA,190651,2419.9647,N,08159.8842,W,1,10,1.7,16,M,,M,,*6B
06/22/2015	19:06:51.516	$GPGGA,190652,2419.9665,N,08159.8849,W,1,9,1.7,16,M,,M,,*5B
06/22/2015	19:06:52.586	$GPGGA,190653,2419.9682,N,08159.8856,W,1,9,1.7,16,M,,M,,*5D
06/22/2015	19:06:53.936	$GPGGA,190654,2419.9699,N,08159.8863,W,1,10,1.5,16,M,,M,,*6C
06/22/2015	19:06:54.586	$GPGGA,190655,2419.9716,N,08159.8869,W,1,10,1.5,16,M,,M,,*61
06/22/2015	19:06:55.616	$GPGGA,190656,2419.9734,N,08159.8877,W,1,10,1.5,16,M,,M,,*6D
06/22/2015	19:06:56.586	$GPGGA,190657,2419.9753,N,08159.8885,W,1,10,1.5,17,M,,M,,*61
06/22/2015	19:06:57.566	$GPGGA,190658,2419.9771,N,08159.8894,W,1,9,1.7,17,M,,M,,*54
06/22/2015	19:06:58.576	$GPGGA,190659,2419.9789,N,08159.8902,W,1,9,1.7,17,M,,M,,*5C
06/22/2015	19:06:59.636	$GPGGA,190700,2419.9809,N,08159.8909,W,1,9,1.7,16,M,,M,,*5C
06/22/2015	19:07:00.566	$GPGGA,190701,2419.9827,N,08159.8917,W,1,9,1.7,16,M,,M,,*5E
06/22/2015	19:07:01.566	$GPGGA,190702,2419.9845,N,08159.8925,W,1,9,1.7,16,M,,M,,*58
06/22/2015	19:07:02.576	$GPGGA,190703,2419.9864,N,08159.8932,W,1,9,1.7,16,M,,M,,*5C
06/22/2015	19:07:03.577	$GPGGA,190704,2419.9882,N,08159.8941,W,1,9,1.7,16,M,,M,,*57
06/22/2015	19:07:04.567	$GPGGA,190705,2419.9900,N,08159.8949,W,1,9,1.7,16,M,,M,,*55
06/22/2015	19:07:05.546	$GPGGA,190706,2419.9918,N,08159.8956,W,1,9,1.7,16,M,,M,,*51
06/22/2015	19:07:06.586	$GPGGA,190707,2419.9937,N,08159.8964,W,1,9,1.7,16,M,,M,,*5C
06/22/2015	19:07:07.587	$GPGGA,190708,2419.9955,N,08159.8972,W,1,9,1.7,16,M,,M,,*50
06/22/2015	19:07:08.556	$GPGGA,190709,2419.9973,N,08159.8981,W,1,9,1.7,16,M,,M,,*59
06/22/2015	19:07:09.536	$GPGGA,190710,2419.9991,N,08159.8988,W,1,9,1.7,16,M,,M,,*54
06/22/2015	19:07:10.536	$GPGGA,190711,2420.0009,N,08159.8996,W,1,9,1.7,16,M,,M,,*51
06/22/2015	19:07:11.576	$GPGGA,190712,2420.0029,N,08159.9003,W,1,9,1.7,16,M,,M,,*54
06/22/2015	19:07:12.556	$GPGGA,190713,2420.0045,N,08159.9011,W,1,9,1.7,16,M,,M,,*5C
06/22/2015	19:07:13.846	$GPGGA,190714,2420.0063,N,08159.9019,W,1,10,1.5,16,M,,M,,*6D
06/22/2015	19:07:14.556	$GPGGA,190715,2420.0081,N,08159.9026,W,1,10,1.5,16,M,,M,,*6C
06/22/2015	19:07:15.576	$GPGGA,190716,2420.0099,N,08159.9035,W,1,9,1.7,16,M,,M,,*5E
06/22/2015	19:07:16.524	$GPGGA,190717,2420.0117,N,08159.9042,W,1,9,1.5,16,M,,M,,*5A
06/22/2015	19:07:17.566	$GPGGA,190718,2420.0135,N,08159.9050,W,1,10,1.5,16,M,,M,,*6E
06/22/2015	19:07:18.536	$GPGGA,190719,2420.0152,N,08159.9055,W,1,10,1.7,16,M,,M,,*69
06/22/2015	19:07:19.566	$GPGGA,190720,2420.0171,N,08159.9064,W,1,10,1.5,16,M,,M,,*62
06/22/2015	19:07:21.587	$GPGGA,190722,2420.0208,N,08159.9079,W,1,9,1.7,16,M,,M,,*5B
06/22/2015	19:07:22.526	$GPGGA,190723,2420.0226,N,08159.9089,W,1,9,1.7,16,M,,M,,*59
06/22/2015	19:07:23.566	$GPGGA,190724,2420.0244,N,08159.9095,W,1,9,1.7,16,M,,M,,*57
06/22/2015	19:07:24.526	$GPGGA,190725,2420.0262,N,08159.9104,W,1,9,1.7,16,M,,M,,*5B
06/22/2015	19:07:25.546	$GPGGA,190726,2420.0280,N,08159.9111,W,1,9,1.7,16,M,,M,,*50
06/22/2015	19:07:26.517	$GPGGA,190727,2420.0298,N,08159.9118,W,1,9,1.7,16,M,,M,,*51
06/22/2015	19:07:27.546	$GPGGA,190728,2420.0316,N,08159.9126,W,1,10,1.5,16,M,,M,,*6E
06/22/2015	19:07:28.526	$GPGGA,190729,2420.0334,N,08159.9133,W,1,10,1.5,15,M,,M,,*68
06/22/2015	19:07:29.516	$GPGGA,190730,2420.0352,N,08159.9140,W,1,10,1.5,15,M,,M,,*64
06/22/2015	19:07:30.496	$GPGGA,190731,2420.0370,N,08159.9147,W,1,10,1.5,15,M,,M,,*62
06/22/2015	19:07:31.526	$GPGGA,190732,2420.0388,N,08159.9155,W,1,10,1.5,15,M,,M,,*65
06/22/2015	19:07:32.620	$GPGGA,190733,2420.0406,N,08159.9162,W,1,10,1.5,15,M,,M,,*61
06/22/2015	19:07:33.607	$GPGGA,190734,2420.0423,N,08159.9169,W,1,10,1.5,15,M,,M,,*6A
06/22/2015	19:07:34.517	$GPGGA,190735,2420.0439,N,08159.9176,W,1,10,2.1,15,M,,M,,*69
06/22/2015	19:07:35.617	$GPGGA,190736,2420.0456,N,08159.9183,W,1,9,2.1,15,M,,M,,*51
06/22/2015	19:07:36.586	$GPGGA,190737,2420.0474,N,08159.9191,W,1,9,2.1,15,M,,M,,*53
06/22/2015	19:07:37.619	$GPGGA,190738,2420.0495,N,08159.9198,W,1,9,2.1,15,M,,M,,*5A
06/22/2015	19:07:38.507	$GPGGA,190739,2420.0515,N,08159.9205,W,1,9,1.5,15,M,,M,,*52
06/22/2015	19:07:39.597	$GPGGA,190740,2420.0533,N,08159.9213,W,1,10,1.5,15,M,,M,,*67
06/22/2015	19:07:40.596	$GPGGA,190741,2420.0551,N,08159.9220,W,1,10,1.7,15,M,,M,,*60
06/22/2015	19:07:41.596	$GPGGA,190742,2420.0571,N,08159.9227,W,1,10,1.5,15,M,,M,,*64
06/22/2015	19:07:42.487	$GPGGA,190743,2420.0590,N,08159.9234,W,1,10,1.5,15,M,,M,,*68
06/22/2015	19:07:43.618	$GPGGA,190744,2420.0605,N,08159.9241,W,1,10,1.5,15,M,,M,,*62
06/22/2015	19:07:47.236	$GPGGA,190747,2420.0667,N,08159.9260,W,1,9,2.3,15,M,,M,,*5B
06/22/2015	19:07:47.606	$GPGGA,190748,2420.0685,N,08159.9267,W,1,9,1.7,15,M,,M,,*58
06/22/2015	19:07:48.567	$GPGGA,190749,2420.0705,N,08159.9274,W,1,9,2.3,15,M,,M,,*55
06/22/2015	19:07:49.576	$GPGGA,190750,2420.0724,N,08159.9279,W,1,10,1.5,15,M,,M,,*6E
06/22/2015	19:07:50.586	$GPGGA,190751,2420.0743,N,08159.9285,W,1,10,1.5,15,M,,M,,*6D
06/22/2015	19:07:51.596	$GPGGA,190752,2420.0760,N,08159.9292,W,1,10,1.5,15,M,,M,,*69
06/22/2015	19:07:52.556	$GPGGA,190753,2420.0779,N,08159.9297,W,1,10,1.5,15,M,,M,,*65
06/22/2015	19:07:53.586	$GPGGA,190754,2420.0797,N,08159.9301,W,1,10,1.5,16,M,,M,,*6F
06/22/2015	19:07:54.566	$GPGGA,190755,2420.0818,N,08159.9307,W,1,10,1.5,16,M,,M,,*60
06/22/2015	19:07:55.587	$GPGGA,190756,2420.0836,N,08159.9314,W,1,10,1.5,16,M,,M,,*6D
06/22/2015	19:07:56.557	$GPGGA,190757,2420.0857,N,08159.9319,W,1,10,1.5,16,M,,M,,*66
06/22/2015	19:07:57.566	$GPGGA,190758,2420.0878,N,08159.9324,W,1,10,1.5,16,M,,M,,*6A
06/22/2015	19:07:58.546	$GPGGA,190759,2420.0897,N,08159.9329,W,1,10,1.5,16,M,,M,,*67
06/22/2015	19:07:59.596	$GPGGA,190800,2420.0915,N,08159.9336,W,1,10,1.5,16,M,,M,,*61
06/22/2015	19:08:00.546	$GPGGA,190801,2420.0934,N,08159.9342,W,1,10,1.5,16,M,,M,,*60
06/22/2015	19:08:01.536	$GPGGA,190802,2420.0955,N,08159.9347,W,1,10,1.5,16,M,,M,,*61
06/22/2015	19:08:02.546	$GPGGA,190803,2420.0974,N,08159.9353,W,1,10,1.5,17,M,,M,,*67
06/22/2015	19:08:03.586	$GPGGA,190804,2420.0995,N,08159.9358,W,1,10,1.5,17,M,,M,,*64
06/22/2015	19:08:04.526	$GPGGA,190805,2420.1013,N,08159.9364,W,1,10,1.5,17,M,,M,,*6C
06/22/2015	19:08:05.546	$GPGGA,190806,2420.1032,N,08159.9369,W,1,10,1.5,17,M,,M,,*61
06/22/2015	19:08:06.536	$GPGGA,190807,2420.1053,N,08159.9375,W,1,10,1.5,17,M,,M,,*6A
06/22/2015	19:08:07.566	$GPGGA,190808,2420.1071,N,08159.9379,W,1,10,1.5,17,M,,M,,*69
06/22/2015	19:08:08.536	$GPGGA,190809,2420.1092,N,08159.9384,W,1,10,1.5,17,M,,M,,*67
06/22/2015	19:08:09.516	$GPGGA,190810,2420.1111,N,08159.9390,W,1,9,1.7,17,M,,M,,*5A
06/22/2015	19:08:10.536	$GPGGA,190811,2420.1129,N,08159.9394,W,1,9,1.7,17,M,,M,,*54
06/22/2015	19:08:11.536	$GPGGA,190812,2420.1147,N,08159.9397,W,1,10,1.5,18,M,,M,,*69
06/22/2015	19:08:12.536	$GPGGA,190813,2420.1165,N,08159.9400,W,1,10,1.5,18,M,,M,,*61
06/22/2015	19:08:13.537	$GPGGA,190814,2420.1185,N,08159.9407,W,1,10,1.5,18,M,,M,,*6F
06/22/2015	19:08:14.513	$GPGGA,190815,2420.1204,N,08159.9411,W,1,10,1.7,18,M,,M,,*61
06/22/2015	19:08:15.536	$GPGGA,190816,2420.1223,N,08159.9416,W,1,9,1.7,18,M,,M,,*58
06/22/2015	19:08:16.513	$GPGGA,190817,2420.1243,N,08159.9422,W,1,9,1.7,18,M,,M,,*58
06/22/2015	19:08:17.509	$GPGGA,190818,2420.1262,N,08159.9426,W,1,9,1.7,18,M,,M,,*50
06/22/2015	19:08:18.518	$GPGGA,190819,2420.1281,N,08159.9429,W,1,9,1.5,18,M,,M,,*51
06/22/2015	19:08:19.636	$GPGGA,190820,2420.1298,N,08159.9434,W,1,10,1.5,18,M,,M,,*67
06/22/2015	19:08:20.520	$GPGGA,190821,2420.1316,N,08159.9438,W,1,10,1.5,18,M,,M,,*6D
06/22/2015	19:08:21.517	$GPGGA,190822,2420.1334,N,08159.9441,W,1,10,1.5,18,M,,M,,*60
06/22/2015	19:08:22.518	$GPGGA,190823,2420.1352,N,08159.9444,W,1,10,1.5,18,M,,M,,*64
06/22/2015	19:08:23.636	$GPGGA,190824,2420.1367,N,08159.9448,W,1,10,1.5,18,M,,M,,*69
06/22/2015	19:08:24.509	$GPGGA,190825,2420.1367,N,08159.9448,W,1,10,2.1,18,M,,M,,*6F
06/22/2015	19:08:25.526	$GPGGA,190826,2420.1395,N,08159.9454,W,1,9,2.1,18,M,,M,,*54
06/22/2015	19:08:26.512	$GPGGA,190827,2420.1413,N,08159.9458,W,1,9,2.1,18,M,,M,,*50
06/22/2015	19:08:28.815	$GPGGA,190828,2420.1424,N,08159.9459,W,1,10,1.5,18,M,,M,,*65
06/22/2015	19:08:28.836	$GPGGA,190829,2420.1436,N,08159.9462,W,1,10,1.5,18,M,,M,,*6F
06/22/2015	19:08:29.576	$GPGGA,190830,2420.1451,N,08159.9465,W,1,9,2.1,18,M,,M,,*5E
06/22/2015	19:08:30.487	$GPGGA,190831,2420.1469,N,08159.9467,W,1,9,2.1,18,M,,M,,*56
06/22/2015	19:08:31.597	$GPGGA,190832,2420.1483,N,08159.9470,W,1,9,1.7,18,M,,M,,*52
06/22/2015	19:08:32.486	$GPGGA,190833,2420.1496,N,08159.9473,W,1,9,1.7,17,M,,M,,*5B
06/22/2015	19:08:33.576	$GPGGA,190834,2420.1511,N,08159.9476,W,1,8,2.3,17,M,,M,,*51
06/22/2015	19:08:36.886	$GPGGA,190837,2420.1551,N,08159.9481,W,1,9,1.7,17,M,,M,,*58
06/22/2015	19:08:37.556	$GPGGA,190838,2420.1562,N,08159.9484,W,1,9,2.1,17,M,,M,,*57
06/22/2015	19:08:38.556	$GPGGA,190839,2420.1573,N,08159.9487,W,1,9,1.7,17,M,,M,,*50
06/22/2015	19:08:39.586	$GPGGA,190840,2420.1584,N,08159.9488,W,1,8,2.3,17,M,,M,,*5F
06/22/2015	19:08:40.566	$GPGGA,190841,2420.1599,N,08159.9491,W,1,8,1.7,17,M,,M,,*5D
06/22/2015	19:08:41.576	$GPGGA,190842,2420.1612,N,08159.9491,W,1,9,1.7,17,M,,M,,*5F
06/22/2015	19:08:42.556	$GPGGA,190843,2420.1623,N,08159.9492,W,1,9,1.7,17,M,,M,,*5F
06/22/2015	19:08:43.576	$GPGGA,190844,2420.1635,N,08159.9494,W,1,10,1.5,17,M,,M,,*63
06/22/2015	19:08:44.567	$GPGGA,190845,2420.1648,N,08159.9495,W,1,10,1.5,17,M,,M,,*69
06/22/2015	19:08:45.566	$GPGGA,190846,2420.1660,N,08159.9496,W,1,10,1.5,17,M,,M,,*63
06/22/2015	19:08:46.546	$GPGGA,190847,2420.1674,N,08159.9498,W,1,10,1.5,17,M,,M,,*69
06/22/2015	19:08:47.586	$GPGGA,190848,2420.1685,N,08159.9499,W,1,9,1.7,17,M,,M,,*53
06/22/2015	19:08:48.547	$GPGGA,190849,2420.1696,N,08159.9501,W,1,9,1.5,17,M,,M,,*52
06/22/2015	19:08:49.567	$GPGGA,190850,2420.1707,N,08159.9502,W,1,10,1.5,17,M,,M,,*68
06/22/2015	19:08:50.809	$GPGGA,190851,2420.1720,N,08159.9503,W,1,10,1.5,17,M,,M,,*6D
06/22/2015	19:08:51.556	$GPGGA,190852,2420.1731,N,08159.9503,W,1,10,1.5,17,M,,M,,*6E
06/22/2015	19:08:52.546	$GPGGA,190853,2420.1736,N,08159.9505,W,1,10,1.5,17,M,,M,,*6E
06/22/2015	19:08:53.526	$GPGGA,190854,2420.1749,N,08159.9508,W,1,9,2.1,17,M,,M,,*53
06/22/2015	19:08:54.536	$GPGGA,190855,2420.1760,N,08159.9507,W,1,9,1.5,17,M,,M,,*51
06/22/2015	19:08:55.576	$GPGGA,190856,2420.1767,N,08159.9508,W,1,10,1.5,17,M,,M,,*62
06/22/2015	19:08:56.536	$GPGGA,190857,2420.1779,N,08159.9509,W,1,10,2.1,17,M,,M,,*6A
06/22/2015	19:08:57.556	$GPGGA,190858,2420.1796,N,08159.9512,W,1,10,1.5,17,M,,M,,*69
06/22/2015	19:08:58.518	$GPGGA,190859,2420.1804,N,08159.9510,W,1,10,1.7,17,M,,M,,*6C
06/22/2015	19:08:59.566	$GPGGA,190900,2420.1814,N,08159.9509,W,1,10,1.5,18,M,,M,,*65
06/22/2015	19:09:00.526	$GPGGA,190901,2420.1825,N,08159.9510,W,1,10,1.5,18,M,,M,,*6E
06/22/2015	19:09:01.646	$GPGGA,190902,2420.1834,N,08159.9512,W,1,10,1.5,18,M,,M,,*6F
06/22/2015	19:09:02.536	$GPGGA,190903,2420.1847,N,08159.9512,W,1,10,1.5,18,M,,M,,*6A
06/22/2015	19:09:04.658	$GPGGA,190905,2420.1870,N,08159.9516,W,1,9,1.7,19,M,,M,,*57
06/22/2015	19:09:05.647	$GPGGA,190906,2420.1880,N,08159.9517,W,1,9,1.7,19,M,,M,,*5A
06/22/2015	19:09:06.509	$GPGGA,190907,2420.1890,N,08159.9519,W,1,9,1.7,19,M,,M,,*54
06/22/2015	19:09:07.536	$GPGGA,190908,2420.1901,N,08159.9520,W,1,9,1.7,19,M,,M,,*58
06/22/2015	19:09:08.596	$GPGGA,190909,2420.1911,N,08159.9521,W,1,9,1.7,19,M,,M,,*59
06/22/2015	19:09:09.626	$GPGGA,190910,2420.1922,N,08159.9523,W,1,9,1.7,19,M,,M,,*53
06/22/2015	19:09:10.516	$GPGGA,190911,2420.1931,N,08159.9524,W,1,9,1.7,19,M,,M,,*57
06/22/2015	19:09:11.666	$GPGGA,190912,2420.1940,N,08159.9525,W,1,10,1.5,20,M,,M,,*63
06/22/2015	19:09:12.510	$GPGGA,190913,2420.1949,N,08159.9527,W,1,10,1.5,20,M,,M,,*69
06/22/2015	19:09:13.616	$GPGGA,190914,2420.1960,N,08159.9527,W,1,9,1.7,20,M,,M,,*5F
06/22/2015	19:09:14.606	$GPGGA,190915,2420.1969,N,08159.9528,W,1,9,1.7,20,M,,M,,*58
06/22/2015	19:09:15.636	$GPGGA,190916,2420.1978,N,08159.9530,W,1,9,1.7,20,M,,M,,*52
06/22/2015	19:09:16.496	$GPGGA,190917,2420.1987,N,08159.9529,W,1,9,1.7,20,M,,M,,*5B
06/22/2015	19:09:17.607	$GPGGA,190918,2420.1996,N,08159.9530,W,1,10,1.7,20,M,,M,,*64
06/22/2015	19:09:18.586	$GPGGA,190919,2420.2006,N,08159.9531,W,1,10,1.7,20,M,,M,,*67
06/22/2015	19:09:19.636	$GPGGA,190920,2420.2014,N,08159.9531,W,1,9,1.7,20,M,,M,,*56
06/22/2015	19:09:20.576	$GPGGA,190921,2420.2024,N,08159.9534,W,1,9,1.7,20,M,,M,,*51
06/22/2015	19:09:21.566	$GPGGA,190922,2420.2028,N,08159.9535,W,1,9,2.1,20,M,,M,,*5A
06/22/2015	19:09:22.576	$GPGGA,190923,2420.2036,N,08159.9534,W,1,9,1.7,20,M,,M,,*50
06/22/2015	19:09:23.637	$GPGGA,190924,2420.2043,N,08159.9534,W,1,9,1.7,20,M,,M,,*55
06/22/2015	19:09:24.567	$GPGGA,190925,2420.2047,N,08159.9535,W,1,9,2.3,20,M,,M,,*56
06/22/2015	19:09:25.586	$GPGGA,190926,2420.2054,N,08159.9535,W,1,8,2.1,20,M,,M,,*54
06/22/2015	19:09:26.567	$GPGGA,190927,2420.2068,N,08159.9535,W,1,8,1.5,20,M,,M,,*5D
06/22/2015	19:09:27.646	$GPGGA,190928,2420.2076,N,08159.9535,W,1,10,1.5,20,M,,M,,*64
06/22/2015	19:09:28.566	$GPGGA,190929,2420.2083,N,08159.9538,W,1,10,1.5,20,M,,M,,*62
06/22/2015	19:09:29.586	$GPGGA,190930,2420.2089,N,08159.9537,W,1,10,2.1,20,M,,M,,*68
06/22/2015	19:09:30.566	$GPGGA,190931,2420.2097,N,08159.9538,W,1,10,2.1,20,M,,M,,*69
06/22/2015	19:09:31.586	$GPGGA,190932,2420.2105,N,08159.9538,W,1,9,1.5,20,M,,M,,*5F
06/22/2015	19:09:32.556	$GPGGA,190933,2420.2115,N,08159.9541,W,1,9,1.5,20,M,,M,,*51
06/22/2015	19:09:33.586	$GPGGA,190934,2420.2126,N,08159.9540,W,1,10,1.5,20,M,,M,,*6F
06/22/2015	19:09:34.556	$GPGGA,190935,2420.2137,N,08159.9541,W,1,10,1.5,20,M,,M,,*6F
06/22/2015	19:09:35.566	$GPGGA,190936,2420.2146,N,08159.9545,W,1,10,1.5,19,M,,M,,*64
06/22/2015	19:09:36.546	$GPGGA,190937,2420.2155,N,08159.9545,W,1,10,1.9,20,M,,M,,*61
06/22/2015	19:09:37.556	$GPGGA,190938,2420.2165,N,08159.9546,W,1,9,1.5,20,M,,M,,*5A
06/22/2015	19:09:38.546	$GPGGA,190939,2420.2175,N,08159.9548,W,1,9,1.5,20,M,,M,,*54
06/22/2015	19:09:39.616	$GPGGA,190940,2420.2183,N,08159.9552,W,1,10,1.5,20,M,,M,,*60
06/22/2015	19:09:40.537	$GPGGA,190941,2420.2191,N,08159.9553,W,1,10,1.5,20,M,,M,,*63
06/22/2015	19:09:41.537	$GPGGA,190942,2420.2201,N,08159.9555,W,1,10,1.5,20,M,,M,,*6C
06/22/2015	19:09:42.536	$GPGGA,190943,2420.2209,N,08159.9556,W,1,10,1.5,20,M,,M,,*66
06/22/2015	19:09:43.576	$GPGGA,190944,2420.2217,N,08159.9557,W,1,10,1.9,20,M,,M,,*63
06/22/2015	19:09:44.556	$GPGGA,190945,2420.2224,N,08159.9560,W,1,10,1.5,20,M,,M,,*6A
06/22/2015	19:09:45.556	$GPGGA,190946,2420.2233,N,08159.9563,W,1,10,1.5,20,M,,M,,*6C
06/22/2015	19:09:46.522	$GPGGA,190947,2420.2240,N,08159.9563,W,1,10,1.5,20,M,,M,,*69
06/22/2015	19:09:47.556	$GPGGA,190948,2420.2248,N,08159.9564,W,1,10,1.5,21,M,,M,,*68
06/22/2015	19:09:48.536	$GPGGA,190949,2420.2256,N,08159.9566,W,1,10,1.5,21,M,,M,,*64
06/22/2015	19:09:49.546	$GPGGA,190950,2420.2264,N,08159.9567,W,1,10,1.5,21,M,,M,,*6C
06/22/2015	19:09:50.536	$GPGGA,190951,2420.2273,N,08159.9568,W,1,10,1.5,21,M,,M,,*64
06/22/2015	19:09:51.566	$GPGGA,190952,2420.2281,N,08159.9570,W,1,10,1.5,21,M,,M,,*63
06/22/2015	19:09:52.536	$GPGGA,190953,2420.2288,N,08159.9570,W,1,10,1.5,21,M,,M,,*6B
06/22/2015	19:09:53.509	$GPGGA,190954,2420.2296,N,08159.9572,W,1,10,1.5,21,M,,M,,*61
06/22/2015	19:09:54.608	$GPGGA,190955,2420.2303,N,08159.9574,W,1,10,1.5,21,M,,M,,*6B
06/22/2015	19:09:55.566	$GPGGA,190956,2420.2311,N,08159.9573,W,1,10,1.5,21,M,,M,,*6C
06/22/2015	19:09:56.606	$GPGGA,190957,2420.2320,N,08159.9575,W,1,10,1.5,21,M,,M,,*69
06/22/2015	19:09:57.496	$GPGGA,190958,2420.2327,N,08159.9577,W,1,10,1.5,22,M,,M,,*60
06/22/2015	19:09:58.519	$GPGGA,190959,2420.2335,N,08159.9576,W,1,10,1.5,22,M,,M,,*63
06/22/2015	19:09:59.667	$GPGGA,191000,2420.2343,N,08159.9577,W,1,10,1.5,22,M,,M,,*67
06/22/2015	19:10:00.596	$GPGGA,191001,2420.2352,N,08159.9578,W,1,10,1.5,22,M,,M,,*69
06/22/2015	19:10:01.521	$GPGGA,191002,2420.2360,N,08159.9579,W,1,10,1.5,22,M,,M,,*6A
06/22/2015	19:10:02.521	$GPGGA,191003,2420.2368,N,08159.9581,W,1,10,1.5,22,M,,M,,*64
06/22/2015	19:10:03.606	$GPGGA,191004,2420.2375,N,08159.9580,W,1,10,1.5,22,M,,M,,*6E
06/22/2015	19:10:04.596	$GPGGA,191005,2420.2385,N,08159.9581,W,1,10,1.5,22,M,,M,,*61
06/22/2015	19:10:05.596	$GPGGA,191006,2420.2393,N,08159.9584,W,1,10,1.5,22,M,,M,,*60
06/22/2015	19:10:06.576	$GPGGA,191007,2420.2401,N,08159.9585,W,1,10,1.5,22,M,,M,,*6C
06/22/2015	19:10:07.622	$GPGGA,191008,2420.2410,N,08159.9584,W,1,10,1.5,22,M,,M,,*62
06/22/2015	19:10:08.586	$GPGGA,191009,2420.2418,N,08159.9585,W,1,10,1.5,22,M,,M,,*6A
06/22/2015	19:10:09.576	$GPGGA,191010,2420.2426,N,08159.9588,W,1,10,1.5,22,M,,M,,*62
06/22/2015	19:10:10.576	$GPGGA,191011,2420.2433,N,08159.9587,W,1,10,1.5,22,M,,M,,*68
06/22/2015	19:10:11.611	$GPGGA,191012,2420.2443,N,08159.9589,W,1,10,1.5,22,M,,M,,*62
06/22/2015	19:10:12.576	$GPGGA,191013,2420.2451,N,08159.9590,W,1,10,1.5,22,M,,M,,*68
06/22/2015	19:10:13.566	$GPGGA,191014,2420.2459,N,08159.9592,W,1,10,1.5,22,M,,M,,*65
06/22/2015	19:10:14.566	$GPGGA,191015,2420.2468,N,08159.9591,W,1,10,1.5,22,M,,M,,*65
06/22/2015	19:10:15.621	$GPGGA,191016,2420.2473,N,08159.9592,W,1,10,1.5,22,M,,M,,*6F
06/22/2015	19:10:16.587	$GPGGA,191017,2420.2483,N,08159.9593,W,1,10,2.1,22,M,,M,,*67
06/22/2015	19:10:17.586	$GPGGA,191018,2420.2493,N,08159.9595,W,1,10,1.5,22,M,,M,,*68
06/22/2015	19:10:18.556	$GPGGA,191019,2420.2502,N,08159.9595,W,1,10,1.5,22,M,,M,,*60
06/22/2015	19:10:19.586	$GPGGA,191020,2420.2511,N,08159.9597,W,1,10,1.5,22,M,,M,,*6A
06/22/2015	19:10:20.566	$GPGGA,191021,2420.2511,N,08159.9597,W,1,10,1.5,22,M,,M,,*6B
06/22/2015	19:10:21.836	$GPGGA,191022,2420.2524,N,08159.9599,W,1,9,2.1,22,M,,M,,*5F
06/22/2015	19:10:22.566	$GPGGA,191023,2420.2533,N,08159.9598,W,1,9,1.5,21,M,,M,,*5D
06/22/2015	19:10:23.586	$GPGGA,191024,2420.2540,N,08159.9599,W,1,9,1.7,21,M,,M,,*5D
06/22/2015	19:10:24.546	$GPGGA,191025,2420.2547,N,08159.9598,W,1,9,1.5,21,M,,M,,*58
06/22/2015	19:10:25.566	$GPGGA,191026,2420.2555,N,08159.9600,W,1,9,1.9,21,M,,M,,*56
06/22/2015	19:10:26.546	$GPGGA,191027,2420.2563,N,08159.9600,W,1,9,1.5,21,M,,M,,*5E
06/22/2015	19:10:27.586	$GPGGA,191028,2420.2574,N,08159.9603,W,1,9,1.7,22,M,,M,,*55
06/22/2015	19:10:28.536	$GPGGA,191029,2420.2581,N,08159.9604,W,1,9,1.5,22,M,,M,,*5B
06/22/2015	19:10:29.536	$GPGGA,191030,2420.2588,N,08159.9606,W,1,9,1.7,22,M,,M,,*5A
06/22/2015	19:10:30.546	$GPGGA,191031,2420.2598,N,08159.9605,W,1,9,2.3,22,M,,M,,*5E
06/22/2015	19:10:31.576	$GPGGA,191032,2420.2603,N,08159.9606,W,1,10,1.5,22,M,,M,,*62
06/22/2015	19:10:32.546	$GPGGA,191033,2420.2610,N,08159.9606,W,1,10,2.1,22,M,,M,,*66
06/22/2015	19:10:33.557	$GPGGA,191034,2420.2616,N,08159.9607,W,1,9,2.1,22,M,,M,,*5E
06/22/2015	19:10:34.537	$GPGGA,191035,2420.2625,N,08159.9608,W,1,9,2.1,22,M,,M,,*50
06/22/2015	19:10:35.546	$GPGGA,191036,2420.2635,N,08159.9608,W,1,10,1.5,22,M,,M,,*6D
06/22/2015	19:10:36.518	$GPGGA,191037,2420.2646,N,08159.9610,W,1,10,1.5,22,M,,M,,*61
06/22/2015	19:10:37.536	$GPGGA,191038,2420.2654,N,08159.9610,W,1,10,1.5,22,M,,M,,*6D
06/22/2015	19:10:38.636	$GPGGA,191039,2420.2664,N,08159.9611,W,1,10,1.7,22,M,,M,,*6C
06/22/2015	19:10:39.636	$GPGGA,191040,2420.2674,N,08159.9611,W,1,9,1.6,22,M,,M,,*5A
06/22/2015	19:10:40.509	$GPGGA,191041,2420.2682,N,08159.9611,W,1,9,1.5,22,M,,M,,*51
06/22/2015	19:10:41.519	$GPGGA,191042,2420.2689,N,08159.9613,W,1,10,1.5,22,M,,M,,*63
06/22/2015	19:10:42.526	$GPGGA,191043,2420.2697,N,08159.9612,W,1,10,2.1,22,M,,M,,*6B
06/22/2015	19:10:43.556	$GPGGA,191044,2420.2708,N,08159.9613,W,1,10,1.5,22,M,,M,,*6D
06/22/2015	19:10:44.508	$GPGGA,191045,2420.2717,N,08159.9611,W,1,10,1.5,22,M,,M,,*60
06/22/2015	19:10:45.619	$GPGGA,191046,2420.2725,N,08159.9613,W,1,10,1.5,22,M,,M,,*60
06/22/2015	19:10:46.620	$GPGGA,191047,2420.2733,N,08159.9613,W,1,10,1.5,22,M,,M,,*66
06/22/2015	19:10:47.646	$GPGGA,191048,2420.2742,N,08159.9613,W,1,10,1.5,22,M,,M,,*6F
06/22/2015	19:10:48.616	$GPGGA,191049,2420.2751,N,08159.9612,W,1,10,1.5,22,M,,M,,*6D
06/22/2015	19:10:49.518	$GPGGA,191050,2420.2760,N,08159.9613,W,1,10,1.5,22,M,,M,,*66
06/22/2015	19:10:50.587	$GPGGA,191051,2420.2769,N,08159.9612,W,1,10,1.5,22,M,,M,,*6F
06/22/2015	19:10:51.523	$GPGGA,191052,2420.2775,N,08159.9613,W,1,10,1.5,22,M,,M,,*60
06/22/2015	19:10:52.946	$GPGGA,191053,2420.2784,N,08159.9613,W,1,10,2.1,22,M,,M,,*68
06/22/2015	19:10:53.586	$GPGGA,191054,2420.2794,N,08159.9613,W,1,10,1.5,22,M,,M,,*69
06/22/2015	19:10:54.607	$GPGGA,191055,2420.2800,N,08159.9612,W,1,10,1.5,22,M,,M,,*6B
06/22/2015	19:10:55.587	$GPGGA,191056,2420.2805,N,08159.9613,W,1,8,2.3,22,M,,M,,*50
06/22/2015	19:10:56.576	$GPGGA,191057,2420.2816,N,08159.9613,W,1,8,2.3,22,M,,M,,*53
06/22/2015	19:10:57.586	$GPGGA,191058,2420.2823,N,08159.9612,W,1,10,1.5,22,M,,M,,*67
06/22/2015	19:10:58.576	$GPGGA,191059,2420.2829,N,08159.9613,W,1,10,2.1,22,M,,M,,*6A
06/22/2015	19:10:59.636	$GPGGA,191100,2420.2836,N,08159.9612,W,1,8,2.3,22,M,,M,,*53
06/22/2015	19:11:00.566	$GPGGA,191101,2420.2842,N,08159.9611,W,1,8,2.1,22,M,,M,,*50
06/22/2015	19:11:01.566	$GPGGA,191102,2420.2851,N,08159.9613,W,1,9,2.1,22,M,,M,,*52
06/22/2015	19:11:02.556	$GPGGA,191103,2420.2858,N,08159.9612,W,1,9,2.1,22,M,,M,,*5B
06/22/2015	19:11:03.596	$GPGGA,191104,2420.2866,N,08159.9613,W,1,8,2.3,22,M,,M,,*53
06/22/2015	19:11:04.566	$GPGGA,191105,2420.2872,N,08159.9611,W,1,8,1.7,22,M,,M,,*52
06/22/2015	19:11:05.596	$GPGGA,191106,2420.2880,N,08159.9613,W,1,10,1.5,21,M,,M,,*66
06/22/2015	19:11:06.566	$GPGGA,191107,2420.2889,N,08159.9612,W,1,10,1.7,21,M,,M,,*6D
06/22/2015	19:11:07.566	$GPGGA,191108,2420.2899,N,08159.9613,W,1,9,1.7,21,M,,M,,*5A
06/22/2015	19:11:08.557	$GPGGA,191109,2420.2907,N,08159.9614,W,1,9,1.7,21,M,,M,,*5A
06/22/2015	19:11:09.577	$GPGGA,191110,2420.2917,N,08159.9614,W,1,9,1.7,21,M,,M,,*53
06/22/2015	19:11:10.556	$GPGGA,191111,2420.2925,N,08159.9615,W,1,9,1.7,21,M,,M,,*52
06/22/2015	19:11:11.586	$GPGGA,191112,2420.2935,N,08159.9617,W,1,9,1.7,21,M,,M,,*52
06/22/2015	19:11:12.546	$GPGGA,191113,2420.2943,N,08159.9617,W,1,9,1.7,21,M,,M,,*52
06/22/2015	19:11:13.546	$GPGGA,191114,2420.2953,N,08159.9618,W,1,9,1.7,21,M,,M,,*5B
06/22/2015	19:11:14.556	$GPGGA,191115,2420.2961,N,08159.9618,W,1,9,1.5,21,M,,M,,*59
06/22/2015	19:11:15.586	$GPGGA,191116,2420.2970,N,08159.9620,W,1,9,1.7,21,M,,M,,*53
06/22/2015	19:11:16.526	$GPGGA,191117,2420.2979,N,08159.9622,W,1,9,1.7,21,M,,M,,*59
06/22/2015	19:11:17.556	$GPGGA,191118,2420.2988,N,08159.9621,W,1,10,1.5,21,M,,M,,*61
06/22/2015	19:11:18.536	$GPGGA,191119,2420.2996,N,08159.9621,W,1,10,1.5,21,M,,M,,*6F
06/22/2015	19:11:19.566	$GPGGA,191120,2420.3003,N,08159.9622,W,1,10,1.5,21,M,,M,,*62
06/22/2015	19:11:20.536	$GPGGA,191121,2420.3010,N,08159.9624,W,1,10,1.5,21,M,,M,,*67
06/22/2015	19:11:21.526	$GPGGA,191122,2420.3018,N,08159.9622,W,1,10,1.5,21,M,,M,,*6A
06/22/2015	19:11:22.536	$GPGGA,191123,2420.3026,N,08159.9624,W,1,10,1.5,21,M,,M,,*60
06/22/2015	19:11:23.546	$GPGGA,191124,2420.3033,N,08159.9625,W,1,10,1.5,21,M,,M,,*62
06/22/2015	19:11:24.526	$GPGGA,191125,2420.3040,N,08159.9626,W,1,10,1.5,21,M,,M,,*64
06/22/2015	19:11:25.657	$GPGGA,191126,2420.3047,N,08159.9626,W,1,10,1.5,21,M,,M,,*60
06/22/2015	19:11:26.537	$GPGGA,191127,2420.3055,N,08159.9628,W,1,10,1.5,21,M,,M,,*6C
06/22/2015	19:11:27.618	$GPGGA,191128,2420.3064,N,08159.9629,W,1,10,1.5,21,M,,M,,*60
06/22/2015	19:11:28.526	$GPGGA,191129,2420.3072,N,08159.9629,W,1,10,1.5,21,M,,M,,*66
06/22/2015	19:11:29.614	$GPGGA,191130,2420.3080,N,08159.9631,W,1,10,1.5,21,M,,M,,*6A
06/22/2015	19:11:30.516	$GPGGA,191131,2420.3087,N,08159.9632,W,1,10,1.5,21,M,,M,,*6F
06/22/2015	19:11:31.636	$GPGGA,191132,2420.3096,N,08159.9633,W,1,10,1.5,21,M,,M,,*6D
06/22/2015	19:11:32.516	$GPGGA,191133,2420.3105,N,08159.9635,W,1,10,1.7,21,M,,M,,*63
06/22/2015	19:11:33.517	$GPGGA,191134,2420.3112,N,08159.9636,W,1,10,1.5,21,M,,M,,*63
06/22/2015	19:11:34.596	$GPGGA,191135,2420.3120,N,08159.9636,W,1,10,1.5,21,M,,M,,*63
06/22/2015	19:11:35.506	$GPGGA,191136,2420.3127,N,08159.9639,W,1,10,1.5,21,M,,M,,*68
06/22/2015	19:11:36.496	$GPGGA,191137,2420.3136,N,08159.9640,W,1,10,1.5,21,M,,M,,*67
06/22/2015	19:11:37.516	$GPGGA,191138,2420.3144,N,08159.9640,W,1,10,1.5,21,M,,M,,*6D
06/22/2015	19:11:38.596	$GPGGA,191139,2420.3151,N,08159.9639,W,1,10,1.5,21,M,,M,,*66
06/22/2015	19:11:39.616	$GPGGA,191140,2420.3159,N,08159.9640,W,1,10,1.5,21,M,,M,,*6E
06/22/2015	19:11:40.496	$GPGGA,191141,2420.3166,N,08159.9642,W,1,10,1.5,21,M,,M,,*61
06/22/2015	19:11:41.486	$GPGGA,191142,2420.3174,N,08159.9643,W,1,10,1.5,21,M,,M,,*60
06/22/2015	19:11:42.586	$GPGGA,191143,2420.3181,N,08159.9644,W,1,10,1.5,21,M,,M,,*6C
06/22/2015	19:11:43.627	$GPGGA,191144,2420.3188,N,08159.9644,W,1,10,1.5,21,M,,M,,*62
06/22/2015	19:11:44.577	$GPGGA,191145,2420.3196,N,08159.9646,W,1,10,1.5,21,M,,M,,*6E
06/22/2015	19:11:45.586	$GPGGA,191146,2420.3203,N,08159.9647,W,1,10,1.5,21,M,,M,,*63
06/22/2015	19:11:46.586	$GPGGA,191147,2420.3212,N,08159.9649,W,1,10,1.5,21,M,,M,,*6C
06/22/2015	19:11:47.607	$GPGGA,191148,2420.3219,N,08159.9648,W,1,10,1.5,21,M,,M,,*69
06/22/2015	19:11:48.586	$GPGGA,191149,2420.3227,N,08159.9650,W,1,10,1.5,21,M,,M,,*6C
06/22/2015	19:11:49.566	$GPGGA,191150,2420.3235,N,08159.9651,W,1,10,1.5,21,M,,M,,*66
06/22/2015	19:11:50.576	$GPGGA,191151,2420.3243,N,08159.9653,W,1,10,1.5,21,M,,M,,*64
06/22/2015	19:11:51.586	$GPGGA,191152,2420.3252,N,08159.9652,W,1,9,1.7,21,M,,M,,*5C
06/22/2015	19:11:52.556	$GPGGA,191153,2420.3259,N,08159.9653,W,1,9,1.5,21,M,,M,,*55
