Software Version Number: 1	Data File Format Number: 1	Build Version Number: 1	Error Count Since VI Started: 1	Manufacturer: Raytheon	 Model Number: RayMarine 120	 S/N: 	 Cal Date: 	 Wind Direction Offset: 0.00	 Slope (M)1: 0.00	 Offset (B)1: 0.00	 Slope (M)2: 0.00	 Offset (B)2: 0.00	 Slope (M)3: 0.00	 Offset (B)3: 0.00	 Slope (M)4: 0.00	 Offset (B)4: 0.00	 Slope (M)5: 0.00	 Offset (B)5: 0.00	 Slope (M)6: 0.00	 Offset (B)6: 0.00
Computer Date	Computer Time	GGA String
06/11/2015	12:00:00.520	$GPGGA,120001,2422.4199,N,08135.4444,W,1,9,2.3,13,M,,M,,*54
06/11/2015	12:00:01.495	$GPGGA,120002,2422.4206,N,08135.4420,W,1,8,2.1,13,M,,M,,*53
06/11/2015	12:00:02.505	$GPGGA,120003,2422.4211,N,08135.4398,W,1,8,2.1,13,M,,M,,*50
06/11/2015	12:00:03.555	$GPGGA,120004,2422.4217,N,08135.4375,W,1,9,2.1,13,M,,M,,*53
06/11/2015	12:00:04.585	$GPGGA,120005,2422.4225,N,08135.4353,W,1,9,2.1,13,M,,M,,*57
06/11/2015	12:00:05.517	$GPGGA,120006,2422.4232,N,08135.4332,W,1,9,2.1,13,M,,M,,*55
06/11/2015	12:00:06.585	$GPGGA,120007,2422.4240,N,08135.4308,W,1,9,2.1,13,M,,M,,*58
06/11/2015	12:00:07.526	$GPGGA,120008,2422.4247,N,08135.4286,W,1,9,2.1,13,M,,M,,*57
06/11/2015	12:00:08.585	$GPGGA,120009,2422.4258,N,08135.4266,W,1,9,2.1,13,M,,M,,*56
06/11/2015	12:00:09.595	$GPGGA,120010,2422.4267,N,08135.4244,W,1,9,2.1,14,M,,M,,*55
06/11/2015	12:00:10.505	$GPGGA,120011,2422.4276,N,08135.4223,W,1,9,2.1,14,M,,M,,*55
06/11/2015	12:00:12.605	$GPGGA,120013,2422.4299,N,08135.4183,W,1,9,2.1,14,M,,M,,*5F
06/11/2015	12:00:13.586	$GPGGA,120014,2422.4311,N,08135.4163,W,1,9,2.1,14,M,,M,,*57
06/11/2015	12:00:14.566	$GPGGA,120015,2422.4323,N,08135.4143,W,1,9,2.1,14,M,,M,,*55
06/11/2015	12:00:15.606	$GPGGA,120016,2422.4334,N,08135.4124,W,1,9,2.1,14,M,,M,,*51
06/11/2015	12:00:16.576	$GPGGA,120017,2422.4348,N,08135.4104,W,1,9,2.1,14,M,,M,,*59
06/11/2015	12:00:17.566	$GPGGA,120018,2422.4361,N,08135.4085,W,1,9,2.1,14,M,,M,,*55
06/11/2015	12:00:18.566	$GPGGA,120019,2422.4376,N,08135.4067,W,1,9,2.1,14,M,,M,,*5E
06/11/2015	12:00:19.595	$GPGGA,120020,2422.4390,N,08135.4049,W,1,9,2.1,14,M,,M,,*50
06/11/2015	12:00:20.555	$GPGGA,120021,2422.4404,N,08135.4031,W,1,9,2.1,14,M,,M,,*54
06/11/2015	12:00:21.575	$GPGGA,120022,2422.4420,N,08135.4014,W,1,9,2.1,14,M,,M,,*56
06/11/2015	12:00:22.555	$GPGGA,120023,2422.4435,N,08135.3997,W,1,9,2.1,14,M,,M,,*56
06/11/2015	12:00:23.595	$GPGGA,120024,2422.4451,N,08135.3981,W,1,9,2.1,14,M,,M,,*54
06/11/2015	12:00:24.555	$GPGGA,120025,2422.4467,N,08135.3963,W,1,9,2.2,14,M,,M,,*5F
06/11/2015	12:00:25.545	$GPGGA,120026,2422.4482,N,08135.3946,W,1,9,2.1,14,M,,M,,*53
06/11/2015	12:00:26.595	$GPGGA,120027,2422.4499,N,08135.3931,W,1,9,2.1,14,M,,M,,*58
06/11/2015	12:00:27.575	$GPGGA,120028,2422.4517,N,08135.3917,W,1,9,2.1,14,M,,M,,*54
06/11/2015	12:00:28.545	$GPGGA,120029,2422.4532,N,08135.3901,W,1,9,2.1,14,M,,M,,*55
06/11/2015	12:00:29.535	$GPGGA,120030,2422.4549,N,08135.3885,W,1,9,2.1,14,M,,M,,*5C
06/11/2015	12:00:30.546	$GPGGA,120031,2422.4567,N,08135.3872,W,1,9,2.1,14,M,,M,,*59
06/11/2015	12:00:31.546	$GPGGA,120032,2422.4585,N,08135.3858,W,1,9,2.1,13,M,,M,,*59
06/11/2015	12:00:32.546	$GPGGA,120033,2422.4603,N,08135.3844,W,1,9,2.1,13,M,,M,,*58
06/11/2015	12:00:33.556	$GPGGA,120034,2422.4619,N,08135.3829,W,1,9,2.1,13,M,,M,,*5F
06/11/2015	12:00:34.536	$GPGGA,120035,2422.4637,N,08135.3816,W,1,9,2.1,13,M,,M,,*5E
06/11/2015	12:00:35.536	$GPGGA,120036,2422.4655,N,08135.3803,W,1,9,2.1,13,M,,M,,*5D
06/11/2015	12:00:36.515	$GPGGA,120037,2422.4673,N,08135.3788,W,1,9,2.1,13,M,,M,,*54
06/11/2015	12:00:37.525	$GPGGA,120038,2422.4691,N,08135.3773,W,1,9,2.1,13,M,,M,,*53
06/11/2015	12:00:38.515	$GPGGA,120039,2422.4709,N,08135.3759,W,1,9,2.1,13,M,,M,,*5A
06/11/2015	12:00:39.575	$GPGGA,120040,2422.4727,N,08135.3745,W,1,9,2.1,13,M,,M,,*55
06/11/2015	12:00:40.529	$GPGGA,120041,2422.4747,N,08135.3731,W,1,9,2.1,13,M,,M,,*51
06/11/2015	12:00:41.524	$GPGGA,120042,2422.4763,N,08135.3716,W,1,9,2.1,13,M,,M,,*51
06/11/2015	12:00:42.535	$GPGGA,120043,2422.4782,N,08135.3702,W,1,9,2.1,13,M,,M,,*5A
06/11/2015	12:00:43.518	$GPGGA,120044,2422.4800,N,08135.3688,W,1,9,2.1,13,M,,M,,*5B
06/11/2015	12:00:44.505	$GPGGA,120045,2422.4818,N,08135.3674,W,1,9,2.1,13,M,,M,,*50
06/11/2015	12:00:45.535	$GPGGA,120046,2422.4836,N,08135.3660,W,1,9,2.1,13,M,,M,,*5A
06/11/2015	12:00:46.522	$GPGGA,120047,2422.4856,N,08135.3646,W,1,9,2.1,13,M,,M,,*59
06/11/2015	12:00:47.639	$GPGGA,120048,2422.4874,N,08135.3632,W,1,9,2.1,13,M,,M,,*55
06/11/2015	12:00:48.522	$GPGGA,120049,2422.4893,N,08135.3617,W,1,9,2.1,13,M,,M,,*5A
06/11/2015	12:00:49.496	$GPGGA,120050,2422.4911,N,08135.3603,W,1,9,2.1,13,M,,M,,*5C
06/11/2015	12:00:50.586	$GPGGA,120051,2422.4930,N,08135.3588,W,1,9,2.1,13,M,,M,,*5E
06/11/2015	12:00:51.496	$GPGGA,120052,2422.4948,N,08135.3574,W,1,9,2.1,13,M,,M,,*51
06/11/2015	12:00:52.586	$GPGGA,120053,2422.4968,N,08135.3559,W,1,9,2.1,13,M,,M,,*5D
06/11/2015	12:00:53.586	$GPGGA,120054,2422.4986,N,08135.3545,W,1,9,2.1,13,M,,M,,*57
06/11/2015	12:00:54.485	$GPGGA,120055,2422.5005,N,08135.3531,W,1,9,2.1,13,M,,M,,*56
06/11/2015	12:00:55.595	$GPGGA,120056,2422.5023,N,08135.3517,W,1,9,2.1,13,M,,M,,*55
06/11/2015	12:00:56.495	$GPGGA,120057,2422.5042,N,08135.3501,W,1,9,2.1,13,M,,M,,*54
06/11/2015	12:00:57.585	$GPGGA,120058,2422.5060,N,08135.3487,W,1,9,2.1,13,M,,M,,*54
06/11/2015	12:00:58.485	$GPGGA,120059,2422.5078,N,08135.3473,W,1,9,2.1,13,M,,M,,*57
06/11/2015	12:00:59.495	$GPGGA,120100,2422.5098,N,08135.3459,W,1,9,2.1,13,M,,M,,*5C
06/11/2015	12:01:00.565	$GPGGA,120101,2422.5117,N,08135.3443,W,1,9,2.3,13,M,,M,,*52
06/11/2015	12:01:01.585	$GPGGA,120102,2422.5135,N,08135.3429,W,1,9,2.1,13,M,,M,,*5F
06/11/2015	12:01:02.575	$GPGGA,120103,2422.5154,N,08135.3414,W,1,9,2.1,13,M,,M,,*57
06/11/2015	12:01:03.605	$GPGGA,120104,2422.5172,N,08135.3400,W,1,9,2.1,13,M,,M,,*51
06/11/2015	12:01:04.565	$GPGGA,120105,2422.5190,N,08135.3385,W,1,9,2.1,13,M,,M,,*56
06/11/2015	12:01:05.587	$GPGGA,120106,2422.5208,N,08135.3370,W,1,9,2.1,13,M,,M,,*5D
06/11/2015	12:01:06.556	$GPGGA,120107,2422.5228,N,08135.3356,W,1,9,2.1,13,M,,M,,*5A
06/11/2015	12:01:07.596	$GPGGA,120108,2422.5247,N,08135.3341,W,1,9,2.1,13,M,,M,,*5A
06/11/2015	12:01:08.566	$GPGGA,120109,2422.5265,N,08135.3326,W,1,9,2.1,13,M,,M,,*5A
06/11/2015	12:01:09.576	$GPGGA,120110,2422.5283,N,08135.3310,W,1,9,2.1,13,M,,M,,*5F
06/11/2015	12:01:10.546	$GPGGA,120111,2422.5302,N,08135.3296,W,1,9,2.1,13,M,,M,,*59
06/11/2015	12:01:11.585	$GPGGA,120112,2422.5320,N,08135.3281,W,1,9,2.1,13,M,,M,,*5C
06/11/2015	12:01:12.545	$GPGGA,120113,2422.5338,N,08135.3266,W,1,9,2.1,13,M,,M,,*5D
06/11/2015	12:01:13.565	$GPGGA,120114,2422.5356,N,08135.3251,W,1,9,2.1,13,M,,M,,*56
06/11/2015	12:01:14.545	$GPGGA,120115,2422.5374,N,08135.3236,W,1,9,2.1,13,M,,M,,*56
06/11/2015	12:01:15.575	$GPGGA,120116,2422.5392,N,08135.3222,W,1,9,2.1,13,M,,M,,*58
06/11/2015	12:01:16.555	$GPGGA,120117,2422.5410,N,08135.3206,W,1,9,2.1,13,M,,M,,*52
06/11/2015	12:01:17.525	$GPGGA,120118,2422.5428,N,08135.3190,W,1,8,2.2,13,M,,M,,*58
06/11/2015	12:01:18.535	$GPGGA,120119,2422.5448,N,08135.3176,W,1,8,2.1,13,M,,M,,*54
06/11/2015	12:01:19.545	$GPGGA,120120,2422.5466,N,08135.3160,W,1,9,2.1,13,M,,M,,*54
06/11/2015	12:01:21.555	$GPGGA,120122,2422.5503,N,08135.3129,W,1,9,2.1,13,M,,M,,*59
06/11/2015	12:01:22.526	$GPGGA,120123,2422.5521,N,08135.3114,W,1,9,2.1,13,M,,M,,*56
06/11/2015	12:01:23.566	$GPGGA,120124,2422.5540,N,08135.3099,W,1,9,2.1,13,M,,M,,*52
06/11/2015	12:01:24.519	$GPGGA,120125,2422.5557,N,08135.3083,W,1,9,2.1,13,M,,M,,*5E
06/11/2015	12:01:25.516	$GPGGA,120126,2422.5573,N,08135.3068,W,1,9,2.1,13,M,,M,,*5E
06/11/2015	12:01:26.526	$GPGGA,120127,2422.5593,N,08135.3054,W,1,9,2.1,13,M,,M,,*5E
06/11/2015	12:01:27.556	$GPGGA,120128,2422.5612,N,08135.3039,W,1,9,2.1,13,M,,M,,*50
06/11/2015	12:01:28.518	$GPGGA,120129,2422.5629,N,08135.3024,W,1,9,2.1,13,M,,M,,*55
06/11/2015	12:01:29.525	$GPGGA,120130,2422.5648,N,08135.3009,W,1,9,2.1,13,M,,M,,*55
06/11/2015	12:01:30.505	$GPGGA,120131,2422.5667,N,08135.2995,W,1,9,2.1,13,M,,M,,*54
06/11/2015	12:01:31.537	$GPGGA,120132,2422.5685,N,08135.2980,W,1,9,2.1,13,M,,M,,*5F
06/11/2015	12:01:32.495	$GPGGA,120133,2422.5703,N,08135.2966,W,1,9,2.1,13,M,,M,,*59
06/11/2015	12:01:33.625	$GPGGA,120134,2422.5721,N,08135.2951,W,1,9,2.1,13,M,,M,,*5A
06/11/2015	12:01:34.995	$GPGGA,120135,2422.5739,N,08135.2936,W,1,9,2.1,13,M,,M,,*53
06/11/2015	12:01:35.527	$GPGGA,120136,2422.5757,N,08135.2923,W,1,9,2.1,13,M,,M,,*5C
06/11/2015	12:01:36.495	$GPGGA,120137,2422.5777,N,08135.2908,W,1,9,2.1,13,M,,M,,*56
06/11/2015	12:01:37.495	$GPGGA,120138,2422.5793,N,08135.2892,W,1,9,2.1,13,M,,M,,*51
06/11/2015	12:01:38.495	$GPGGA,120139,2422.5813,N,08135.2877,W,1,9,2.1,13,M,,M,,*5C
06/11/2015	12:01:39.525	$GPGGA,120140,2422.5832,N,08135.2863,W,1,9,2.1,13,M,,M,,*54
06/11/2015	12:01:40.486	$GPGGA,120141,2422.5850,N,08135.2849,W,1,9,2.1,13,M,,M,,*59
06/11/2015	12:01:41.496	$GPGGA,120142,2422.5868,N,08135.2833,W,1,9,2.1,13,M,,M,,*5C
06/11/2015	12:01:42.576	$GPGGA,120143,2422.5886,N,08135.2818,W,1,9,2.1,13,M,,M,,*54
06/11/2015	12:01:43.506	$GPGGA,120144,2422.5904,N,08135.2804,W,1,9,2.1,13,M,,M,,*55
06/11/2015	12:01:44.576	$GPGGA,120145,2422.5922,N,08135.2790,W,1,9,2.1,13,M,,M,,*52
06/11/2015	12:01:45.576	$GPGGA,120146,2422.5940,N,08135.2775,W,1,9,2.1,13,M,,M,,*5E
06/11/2015	12:01:46.585	$GPGGA,120147,2422.5959,N,08135.2760,W,1,9,2.1,13,M,,M,,*53
06/11/2015	12:01:47.621	$GPGGA,120148,2422.5977,N,08135.2745,W,1,9,2.1,13,M,,M,,*57
06/11/2015	12:01:49.072	$GPGGA,120149,2422.5995,N,08135.2730,W,1,9,2.1,13,M,,M,,*58
06/11/2015	12:01:49.585	$GPGGA,120150,2422.6013,N,08135.2716,W,1,9,2.1,13,M,,M,,*50
06/11/2015	12:01:50.575	$GPGGA,120151,2422.6031,N,08135.2701,W,1,9,2.2,13,M,,M,,*54
06/11/2015	12:01:51.605	$GPGGA,120152,2422.6048,N,08135.2684,W,1,9,2.1,13,M,,M,,*56
06/11/2015	12:01:52.565	$GPGGA,120153,2422.6064,N,08135.2668,W,1,9,2.1,13,M,,M,,*5B
06/11/2015	12:01:53.585	$GPGGA,120154,2422.6082,N,08135.2653,W,1,9,2.1,13,M,,M,,*5C
06/11/2015	12:01:54.565	$GPGGA,120155,2422.6100,N,08135.2637,W,1,9,2.1,13,M,,M,,*54
06/11/2015	12:01:55.585	$GPGGA,120156,2422.6117,N,08135.2620,W,1,9,2.1,13,M,,M,,*57
06/11/2015	12:01:56.555	$GPGGA,120157,2422.6133,N,08135.2603,W,1,9,2.1,13,M,,M,,*51
06/11/2015	12:01:57.575	$GPGGA,120158,2422.6151,N,08135.2587,W,1,9,2.1,13,M,,M,,*55
06/11/2015	12:01:58.554	$GPGGA,120159,2422.6168,N,08135.2571,W,1,9,2.1,13,M,,M,,*57
06/11/2015	12:01:59.574	$GPGGA,120200,2422.6185,N,08135.2553,W,1,9,2.1,13,M,,M,,*5B
06/11/2015	12:02:00.524	$GPGGA,120201,2422.6201,N,08135.2535,W,1,9,2.1,13,M,,M,,*55
06/11/2015	12:02:01.554	$GPGGA,120202,2422.6218,N,08135.2518,W,1,9,2.1,13,M,,M,,*51
06/11/2015	12:02:02.534	$GPGGA,120203,2422.6234,N,08135.2501,W,1,9,2.1,13,M,,M,,*56
06/11/2015	12:02:03.544	$GPGGA,120204,2422.6250,N,08135.2482,W,1,9,2.1,13,M,,M,,*59
06/11/2015	12:02:04.533	$GPGGA,120205,2422.6266,N,08135.2464,W,1,9,2.1,13,M,,M,,*55
06/11/2015	12:02:05.523	$GPGGA,120206,2422.6281,N,08135.2447,W,1,9,2.1,13,M,,M,,*5E
06/11/2015	12:02:06.533	$GPGGA,120207,2422.6298,N,08135.2428,W,1,9,2.1,13,M,,M,,*5E
06/11/2015	12:02:07.533	$GPGGA,120208,2422.6313,N,08135.2409,W,1,9,2.1,13,M,,M,,*50
06/11/2015	12:02:08.514	$GPGGA,120209,2422.6328,N,08135.2391,W,1,9,2.1,13,M,,M,,*5F
06/11/2015	12:02:09.533	$GPGGA,120210,2422.6346,N,08135.2373,W,1,9,2.1,13,M,,M,,*53
06/11/2015	12:02:10.523	$GPGGA,120211,2422.6360,N,08135.2354,W,1,9,2.1,13,M,,M,,*53
06/11/2015	12:02:11.533	$GPGGA,120212,2422.6375,N,08135.2336,W,1,9,2.1,13,M,,M,,*50
06/11/2015	12:02:12.513	$GPGGA,120213,2422.6392,N,08135.2317,W,1,9,2.1,13,M,,M,,*5B
06/11/2015	12:02:13.513	$GPGGA,120214,2422.6407,N,08135.2299,W,1,9,2.1,13,M,,M,,*50
06/11/2015	12:02:14.673	$GPGGA,120215,2422.6422,N,08135.2279,W,1,9,2.1,13,M,,M,,*58
06/11/2015	12:02:15.517	$GPGGA,120216,2422.6438,N,08135.2261,W,1,9,2.1,13,M,,M,,*59
06/11/2015	12:02:16.494	$GPGGA,120217,2422.6453,N,08135.2242,W,1,9,2.1,13,M,,M,,*54
06/11/2015	12:02:17.515	$GPGGA,120218,2422.6468,N,08135.2223,W,1,9,2.1,12,M,,M,,*55
06/11/2015	12:02:18.521	$GPGGA,120219,2422.6483,N,08135.2204,W,1,9,2.1,12,M,,M,,*54
06/11/2015	12:02:19.506	$GPGGA,120220,2422.6497,N,08135.2185,W,1,9,2.1,12,M,,M,,*51
06/11/2015	12:02:20.494	$GPGGA,120221,2422.6514,N,08135.2166,W,1,9,2.1,12,M,,M,,*57
06/11/2015	12:02:21.633	$GPGGA,120222,2422.6530,N,08135.2147,W,1,9,2.1,12,M,,M,,*51
06/11/2015	12:02:22.493	$GPGGA,120223,2422.6544,N,08135.2127,W,1,9,2.1,12,M,,M,,*55
06/11/2015	12:02:24.018	$GPGGA,120224,2422.6559,N,08135.2108,W,1,9,2.1,12,M,,M,,*53
06/11/2015	12:02:24.483	$GPGGA,120225,2422.6576,N,08135.2090,W,1,9,2.1,12,M,,M,,*5F
06/11/2015	12:02:25.506	$GPGGA,120226,2422.6591,N,08135.2071,W,1,9,2.1,12,M,,M,,*5A
06/11/2015	12:02:26.493	$GPGGA,120227,2422.6605,N,08135.2051,W,1,9,2.1,12,M,,M,,*57
06/11/2015	12:02:27.507	$GPGGA,120228,2422.6620,N,08135.2031,W,1,9,2.1,12,M,,M,,*59
06/11/2015	12:02:28.473	$GPGGA,120229,2422.6635,N,08135.2014,W,1,9,2.1,12,M,,M,,*5B
06/11/2015	12:02:29.613	$GPGGA,120230,2422.6651,N,08135.1996,W,1,9,2.1,12,M,,M,,*51
06/11/2015	12:02:30.494	$GPGGA,120231,2422.6666,N,08135.1975,W,1,9,2.1,12,M,,M,,*59
06/11/2015	12:02:31.643	$GPGGA,120232,2422.6682,N,08135.1957,W,1,9,2.1,12,M,,M,,*50
06/11/2015	12:02:32.643	$GPGGA,120233,2422.6698,N,08135.1940,W,1,9,2.1,12,M,,M,,*5C
06/11/2015	12:02:33.584	$GPGGA,120234,2422.6713,N,08135.1920,W,1,9,2.1,12,M,,M,,*5F
06/11/2015	12:02:34.634	$GPGGA,120235,2422.6728,N,08135.1902,W,1,9,2.1,12,M,,M,,*56
06/11/2015	12:02:35.654	$GPGGA,120236,2422.6743,N,08135.1883,W,1,9,2.1,12,M,,M,,*50
06/11/2015	12:02:36.644	$GPGGA,120237,2422.6760,N,08135.1865,W,1,9,2.1,12,M,,M,,*58
06/11/2015	12:02:37.594	$GPGGA,120238,2422.6776,N,08135.1848,W,1,9,2.1,12,M,,M,,*5F
06/11/2015	12:02:38.624	$GPGGA,120239,2422.6793,N,08135.1829,W,1,9,2.1,12,M,,M,,*52
06/11/2015	12:02:39.653	$GPGGA,120240,2422.6808,N,08135.1810,W,1,9,2.1,12,M,,M,,*5B
06/11/2015	12:02:40.623	$GPGGA,120241,2422.6825,N,08135.1792,W,1,9,2.1,12,M,,M,,*50
06/11/2015	12:02:41.593	$GPGGA,120242,2422.6841,N,08135.1775,W,1,9,2.1,12,M,,M,,*58
06/11/2015	12:02:42.608	$GPGGA,120243,2422.6859,N,08135.1756,W,1,9,2.1,12,M,,M,,*51
06/11/2015	12:02:43.643	$GPGGA,120244,2422.6875,N,08135.1738,W,1,9,2.1,12,M,,M,,*50
06/11/2015	12:02:44.618	$GPGGA,120245,2422.6891,N,08135.1721,W,1,9,2.1,12,M,,M,,*53
06/11/2015	12:02:45.583	$GPGGA,120246,2422.6909,N,08135.1705,W,1,9,2.1,12,M,,M,,*56
06/11/2015	12:02:46.603	$GPGGA,120247,2422.6926,N,08135.1687,W,1,9,2.1,12,M,,M,,*51
06/11/2015	12:02:47.633	$GPGGA,120248,2422.6942,N,08135.1668,W,1,9,2.1,12,M,,M,,*5D
06/11/2015	12:02:48.621	$GPGGA,120249,2422.6960,N,08135.1651,W,1,9,2.1,12,M,,M,,*56
06/11/2015	12:02:49.524	$GPGGA,120250,2422.6975,N,08135.1635,W,1,9,2.1,12,M,,M,,*58
06/11/2015	12:02:50.594	$GPGGA,120251,2422.6993,N,08135.1617,W,1,9,2.1,12,M,,M,,*51
06/11/2015	12:02:51.584	$GPGGA,120252,2422.7010,N,08135.1599,W,1,9,2.1,12,M,,M,,*54
06/11/2015	12:02:52.584	$GPGGA,120253,2422.7027,N,08135.1582,W,1,9,2.1,12,M,,M,,*5B
06/11/2015	12:02:53.574	$GPGGA,120254,2422.7045,N,08135.1565,W,1,9,2.1,12,M,,M,,*51
06/11/2015	12:02:54.584	$GPGGA,120255,2422.7061,N,08135.1548,W,1,9,2.1,12,M,,M,,*59
06/11/2015	12:02:55.574	$GPGGA,120256,2422.7078,N,08135.1531,W,1,9,2.1,12,M,,M,,*5C
06/11/2015	12:02:56.573	$GPGGA,120257,2422.7094,N,08135.1514,W,1,9,2.1,12,M,,M,,*58
06/11/2015	12:02:57.563	$GPGGA,120258,2422.7112,N,08135.1497,W,1,9,2.1,12,M,,M,,*52
06/11/2015	12:02:58.563	$GPGGA,120259,2422.7129,N,08135.1479,W,1,9,2.1,12,M,,M,,*5B
06/11/2015	12:02:59.573	$GPGGA,120300,2422.7147,N,08135.1463,W,1,9,2.1,12,M,,M,,*55
06/11/2015	12:03:00.573	$GPGGA,120301,2422.7162,N,08135.1445,W,1,9,2.1,12,M,,M,,*57
06/11/2015	12:03:01.553	$GPGGA,120302,2422.7180,N,08135.1427,W,1,8,2.1,12,M,,M,,*5D
06/11/2015	12:03:02.573	$GPGGA,120303,2422.7198,N,08135.1409,W,1,8,2.1,12,M,,M,,*59
06/11/2015	12:03:03.593	$GPGGA,120304,2422.7215,N,08135.1391,W,1,9,2.1,12,M,,M,,*5F
06/11/2015	12:03:04.493	$GPGGA,120305,2422.7231,N,08135.1374,W,1,9,2.1,12,M,,M,,*53
06/11/2015	12:03:05.523	$GPGGA,120306,2422.7249,N,08135.1358,W,1,9,2.1,12,M,,M,,*51
06/11/2015	12:03:06.493	$GPGGA,120307,2422.7267,N,08135.1340,W,1,9,2.1,12,M,,M,,*55
06/11/2015	12:03:07.573	$GPGGA,120308,2422.7284,N,08135.1323,W,1,9,2.1,12,M,,M,,*52
06/11/2015	12:03:08.544	$GPGGA,120309,2422.7300,N,08135.1306,W,1,9,2.1,12,M,,M,,*59
06/11/2015	12:03:09.534	$GPGGA,120310,2422.7318,N,08135.1289,W,1,9,2.1,12,M,,M,,*5E
06/11/2015	12:03:10.606	$GPGGA,120311,2422.7335,N,08135.1272,W,1,9,2.1,12,M,,M,,*54
06/11/2015	12:03:11.609	$GPGGA,120312,2422.7350,N,08135.1254,W,1,9,2.1,12,M,,M,,*50
06/11/2015	12:03:12.584	$GPGGA,120313,2422.7368,N,08135.1237,W,1,9,2.1,12,M,,M,,*5F
06/11/2015	12:03:13.484	$GPGGA,120314,2422.7386,N,08135.1219,W,1,9,2.1,12,M,,M,,*54
06/11/2015	12:03:14.553	$GPGGA,120315,2422.7401,N,08135.1201,W,1,9,2.1,12,M,,M,,*54
06/11/2015	12:03:15.612	$GPGGA,120316,2422.7419,N,08135.1184,W,1,9,2.1,12,M,,M,,*50
06/11/2015	12:03:16.543	$GPGGA,120317,2422.7436,N,08135.1167,W,1,9,2.1,12,M,,M,,*51
06/11/2015	12:03:17.603	$GPGGA,120318,2422.7453,N,08135.1148,W,1,9,2.1,12,M,,M,,*50
06/11/2015	12:03:18.583	$GPGGA,120319,2422.7469,N,08135.1130,W,1,9,2.1,12,M,,M,,*57
06/11/2015	12:03:19.543	$GPGGA,120320,2422.7486,N,08135.1113,W,1,9,2.1,12,M,,M,,*5D
06/11/2015	12:03:20.563	$GPGGA,120321,2422.7502,N,08135.1095,W,1,9,2.1,12,M,,M,,*5E
06/11/2015	12:03:21.564	$GPGGA,120322,2422.7520,N,08135.1077,W,1,9,2.1,12,M,,M,,*51
06/11/2015	12:03:23.043	$GPGGA,120323,2422.7536,N,08135.1060,W,1,9,2.1,12,M,,M,,*51
06/11/2015	12:03:23.574	$GPGGA,120324,2422.7552,N,08135.1043,W,1,9,2.1,12,M,,M,,*55
06/11/2015	12:03:24.563	$GPGGA,120325,2422.7569,N,08135.1025,W,1,9,2.1,12,M,,M,,*5C
06/11/2015	12:03:25.584	$GPGGA,120326,2422.7585,N,08135.1009,W,1,9,2.1,12,M,,M,,*53
06/11/2015	12:03:26.554	$GPGGA,120327,2422.7602,N,08135.0991,W,1,9,2.1,12,M,,M,,*57
06/11/2015	12:03:27.584	$GPGGA,120328,2422.7617,N,08135.0973,W,1,9,2.1,12,M,,M,,*50
06/11/2015	12:03:28.554	$GPGGA,120329,2422.7635,N,08135.0956,W,1,9,2.1,12,M,,M,,*56
06/11/2015	12:03:29.564	$GPGGA,120330,2422.7650,N,08135.0938,W,1,9,2.1,12,M,,M,,*55
06/11/2015	12:03:30.554	$GPGGA,120331,2422.7667,N,08135.0921,W,1,9,2.1,12,M,,M,,*58
06/11/2015	12:03:31.583	$GPGGA,120332,2422.7682,N,08135.0903,W,1,9,2.1,12,M,,M,,*50
06/11/2015	12:03:32.543	$GPGGA,120333,2422.7699,N,08135.0885,W,1,9,2.1,12,M,,M,,*54
06/11/2015	12:03:33.563	$GPGGA,120334,2422.7715,N,08135.0867,W,1,9,2.1,12,M,,M,,*5A
06/11/2015	12:03:34.573	$GPGGA,120335,2422.7730,N,08135.0850,W,1,9,2.1,12,M,,M,,*58
06/11/2015	12:03:35.573	$GPGGA,120336,2422.7747,N,08135.0832,W,1,9,2.1,12,M,,M,,*5F
06/11/2015	12:03:36.543	$GPGGA,120337,2422.7762,N,08135.0813,W,1,9,2.1,12,M,,M,,*5A
06/11/2015	12:03:37.573	$GPGGA,120338,2422.7779,N,08135.0795,W,1,9,2.1,12,M,,M,,*5E
06/11/2015	12:03:38.543	$GPGGA,120339,2422.7795,N,08135.0778,W,1,9,2.2,12,M,,M,,*5D
06/11/2015	12:03:39.563	$GPGGA,120340,2422.7811,N,08135.0758,W,1,8,2.1,12,M,,M,,*50
06/11/2015	12:03:40.543	$GPGGA,120341,2422.7826,N,08135.0738,W,1,8,2.1,12,M,,M,,*53
06/11/2015	12:03:41.533	$GPGGA,120342,2422.7841,N,08135.0721,W,1,9,2.1,12,M,,M,,*58
06/11/2015	12:03:42.543	$GPGGA,120343,2422.7858,N,08135.0702,W,1,9,2.1,12,M,,M,,*50
06/11/2015	12:03:43.574	$GPGGA,120344,2422.7873,N,08135.0682,W,1,9,2.1,12,M,,M,,*57
06/11/2015	12:03:44.564	$GPGGA,120345,2422.7873,N,08135.0682,W,1,9,2.1,12,M,,M,,*56
06/11/2015	12:03:45.554	$GPGGA,120346,2422.7903,N,08135.0645,W,1,9,2.1,12,M,,M,,*58
06/11/2015	12:03:46.554	$GPGGA,120347,2422.7903,N,08135.0645,W,1,9,2.1,12,M,,M,,*59
06/11/2015	12:03:47.554	$GPGGA,120348,2422.7935,N,08135.0609,W,1,9,2.1,12,M,,M,,*5B
06/11/2015	12:03:48.534	$GPGGA,120349,2422.7952,N,08135.0590,W,1,9,2.1,12,M,,M,,*58
06/11/2015	12:03:49.543	$GPGGA,120350,2422.7967,N,08135.0571,W,1,9,2.1,12,M,,M,,*59
06/11/2015	12:03:50.523	$GPGGA,120351,2422.7982,N,08135.0554,W,1,9,2.1,12,M,,M,,*54
06/11/2015	12:03:51.563	$GPGGA,120352,2422.7999,N,08135.0536,W,1,9,2.1,11,M,,M,,*5A
06/11/2015	12:03:52.623	$GPGGA,120353,2422.8015,N,08135.0516,W,1,9,2.1,11,M,,M,,*5B
06/11/2015	12:03:53.623	$GPGGA,120354,2422.8029,N,08135.0498,W,1,9,2.1,11,M,,M,,*54
06/11/2015	12:03:54.523	$GPGGA,120355,2422.8029,N,08135.0498,W,1,9,2.1,11,M,,M,,*55
06/11/2015	12:03:55.543	$GPGGA,120356,2422.8046,N,08135.0480,W,1,9,2.1,11,M,,M,,*56
06/11/2015	12:03:56.616	$GPGGA,120357,2422.8078,N,08135.0443,W,1,9,2.1,11,M,,M,,*55
06/11/2015	12:03:57.583	$GPGGA,120358,2422.8094,N,08135.0426,W,1,9,2.1,11,M,,M,,*5B
06/11/2015	12:03:58.605	$GPGGA,120359,2422.8109,N,08135.0407,W,1,9,2.1,11,M,,M,,*5C
06/11/2015	12:03:59.653	$GPGGA,120400,2422.8126,N,08135.0389,W,1,9,2.1,11,M,,M,,*5B
06/11/2015	12:04:00.506	$GPGGA,120401,2422.8126,N,08135.0389,W,1,9,2.1,11,M,,M,,*5A
06/11/2015	12:04:01.584	$GPGGA,120402,2422.8159,N,08135.0353,W,1,9,2.1,11,M,,M,,*56
06/11/2015	12:04:02.506	$GPGGA,120403,2422.8159,N,08135.0353,W,1,9,2.1,11,M,,M,,*57
06/11/2015	12:04:03.584	$GPGGA,120404,2422.8192,N,08135.0316,W,1,9,2.1,11,M,,M,,*56
06/11/2015	12:04:04.574	$GPGGA,120405,2422.8209,N,08135.0299,W,1,9,2.1,11,M,,M,,*50
06/11/2015	12:04:05.474	$GPGGA,120406,2422.8224,N,08135.0281,W,1,9,2.1,11,M,,M,,*55
06/11/2015	12:04:06.573	$GPGGA,120407,2422.8241,N,08135.0263,W,1,9,2.1,11,M,,M,,*5B
06/11/2015	12:04:07.605	$GPGGA,120408,2422.8257,N,08135.0246,W,1,9,2.1,11,M,,M,,*54
06/11/2015	12:04:08.563	$GPGGA,120409,2422.8275,N,08135.0229,W,1,9,2.1,11,M,,M,,*5C
06/11/2015	12:04:09.583	$GPGGA,120410,2422.8292,N,08135.0211,W,1,9,2.1,11,M,,M,,*56
06/11/2015	12:04:10.563	$GPGGA,120411,2422.8307,N,08135.0194,W,1,9,2.1,11,M,,M,,*54
06/11/2015	12:04:11.604	$GPGGA,120412,2422.8325,N,08135.0177,W,1,9,2.1,11,M,,M,,*5A
06/11/2015	12:04:12.573	$GPGGA,120413,2422.8342,N,08135.0160,W,1,9,2.1,11,M,,M,,*5C
06/11/2015	12:04:13.583	$GPGGA,120414,2422.8358,N,08135.0142,W,1,9,2.1,11,M,,M,,*50
06/11/2015	12:04:14.553	$GPGGA,120415,2422.8376,N,08135.0125,W,1,9,2.1,11,M,,M,,*5C
06/11/2015	12:04:15.583	$GPGGA,120416,2422.8393,N,08135.0109,W,1,9,2.1,11,M,,M,,*5A
06/11/2015	12:04:16.563	$GPGGA,120417,2422.8409,N,08135.0090,W,1,9,2.1,11,M,,M,,*5E
06/11/2015	12:04:17.563	$GPGGA,120418,2422.8426,N,08135.0074,W,1,9,2.1,11,M,,M,,*56
06/11/2015	12:04:18.554	$GPGGA,120419,2422.8444,N,08135.0058,W,1,9,2.1,11,M,,M,,*5D
06/11/2015	12:04:19.574	$GPGGA,120420,2422.8461,N,08135.0040,W,1,9,2.1,11,M,,M,,*59
06/11/2015	12:04:20.544	$GPGGA,120421,2422.8476,N,08135.0023,W,1,9,2.1,11,M,,M,,*5B
06/11/2015	12:04:21.564	$GPGGA,120422,2422.8494,N,08135.0006,W,1,9,2.1,11,M,,M,,*53
06/11/2015	12:04:22.584	$GPGGA,120423,2422.8512,N,08134.9990,W,1,9,2.1,11,M,,M,,*53
06/11/2015	12:04:23.544	$GPGGA,120424,2422.8528,N,08134.9972,W,1,9,2.1,11,M,,M,,*51
06/11/2015	12:04:24.533	$GPGGA,120425,2422.8545,N,08134.9954,W,1,9,2.1,11,M,,M,,*5F
06/11/2015	12:04:25.523	$GPGGA,120426,2422.8561,N,08134.9937,W,1,9,2.1,11,M,,M,,*5F
06/11/2015	12:04:26.543	$GPGGA,120427,2422.8578,N,08134.9921,W,1,9,2.1,11,M,,M,,*51
06/11/2015	12:04:27.543	$GPGGA,120428,2422.8596,N,08134.9904,W,1,9,2.1,11,M,,M,,*59
06/11/2015	12:04:28.533	$GPGGA,120429,2422.8613,N,08134.9886,W,1,9,2.1,11,M,,M,,*5D
06/11/2015	12:04:29.513	$GPGGA,120430,2422.8629,N,08134.9868,W,1,9,2.1,11,M,,M,,*5C
06/11/2015	12:04:30.533	$GPGGA,120431,2422.8646,N,08134.9851,W,1,9,2.1,11,M,,M,,*5E
06/11/2015	12:04:31.563	$GPGGA,120432,2422.8662,N,08134.9834,W,1,9,2.1,11,M,,M,,*58
06/11/2015	12:04:32.533	$GPGGA,120433,2422.8679,N,08134.9816,W,1,9,2.1,11,M,,M,,*53
06/11/2015	12:04:33.514	$GPGGA,120434,2422.8694,N,08134.9798,W,1,9,2.1,11,M,,M,,*5E
06/11/2015	12:04:34.505	$GPGGA,120435,2422.8712,N,08134.9781,W,1,9,2.1,11,M,,M,,*58
06/11/2015	12:04:35.554	$GPGGA,120436,2422.8729,N,08134.9763,W,1,9,2.1,11,M,,M,,*5F
06/11/2015	12:04:36.624	$GPGGA,120437,2422.8745,N,08134.9745,W,1,9,2.1,11,M,,M,,*50
06/11/2015	12:04:37.524	$GPGGA,120438,2422.8762,N,08134.9728,W,1,9,2.1,11,M,,M,,*51
06/11/2015	12:04:38.494	$GPGGA,120439,2422.8777,N,08134.9710,W,1,9,2.1,11,M,,M,,*5F
06/11/2015	12:04:39.534	$GPGGA,120440,2422.8794,N,08134.9691,W,1,9,2.1,11,M,,M,,*54
06/11/2015	12:04:40.614	$GPGGA,120441,2422.8810,N,08134.9673,W,1,9,2.1,11,M,,M,,*5A
06/11/2015	12:04:42.623	$GPGGA,120443,2422.8842,N,08134.9636,W,1,9,2.1,11,M,,M,,*5E
06/11/2015	12:04:43.516	$GPGGA,120444,2422.8859,N,08134.9618,W,1,9,2.1,11,M,,M,,*5F
06/11/2015	12:04:44.493	$GPGGA,120445,2422.8875,N,08134.9600,W,1,9,2.1,11,M,,M,,*59
06/11/2015	12:04:45.513	$GPGGA,120446,2422.8892,N,08134.9580,W,1,9,2.1,11,M,,M,,*58
06/11/2015	12:04:46.504	$GPGGA,120447,2422.8907,N,08134.9561,W,1,9,2.1,11,M,,M,,*5B
06/11/2015	12:04:48.543	$GPGGA,120449,2422.8940,N,08134.9524,W,1,9,2.1,11,M,,M,,*57
06/11/2015	12:04:49.593	$GPGGA,120450,2422.8957,N,08134.9505,W,1,9,2.1,11,M,,M,,*5A
06/11/2015	12:04:50.573	$GPGGA,120451,2422.8972,N,08134.9487,W,1,9,2.1,11,M,,M,,*57
06/11/2015	12:04:51.623	$GPGGA,120452,2422.8989,N,08134.9469,W,1,9,2.1,11,M,,M,,*50
06/11/2015	12:04:52.573	$GPGGA,120453,2422.9005,N,08134.9450,W,1,9,2.1,11,M,,M,,*57
06/11/2015	12:04:53.474	$GPGGA,120454,2422.9019,N,08134.9431,W,1,9,2.1,11,M,,M,,*5A
06/11/2015	12:04:54.594	$GPGGA,120455,2422.9036,N,08134.9412,W,1,9,2.1,11,M,,M,,*57
06/11/2015	12:04:55.594	$GPGGA,120456,2422.9052,N,08134.9395,W,1,9,2.1,11,M,,M,,*5E
06/11/2015	12:04:56.564	$GPGGA,120457,2422.9068,N,08134.9376,W,1,9,2.1,11,M,,M,,*5B
06/11/2015	12:04:57.564	$GPGGA,120458,2422.9084,N,08134.9357,W,1,9,2.1,11,M,,M,,*55
06/11/2015	12:04:58.573	$GPGGA,120459,2422.9101,N,08134.9340,W,1,9,2.1,11,M,,M,,*5E
06/11/2015	12:04:59.604	$GPGGA,120500,2422.9117,N,08134.9321,W,1,9,2.1,11,M,,M,,*53
06/11/2015	12:05:00.553	$GPGGA,120501,2422.9131,N,08134.9302,W,1,9,2.1,11,M,,M,,*57
06/11/2015	12:05:01.573	$GPGGA,120502,2422.9148,N,08134.9285,W,1,9,2.1,11,M,,M,,*54
06/11/2015	12:05:02.553	$GPGGA,120503,2422.9164,N,08134.9267,W,1,9,2.1,11,M,,M,,*57
06/11/2015	12:05:03.593	$GPGGA,120504,2422.9180,N,08134.9249,W,1,9,2.1,11,M,,M,,*56
06/11/2015	12:05:04.553	$GPGGA,120505,2422.9196,N,08134.9231,W,1,9,2.1,11,M,,M,,*5F
06/11/2015	12:05:05.563	$GPGGA,120506,2422.9213,N,08134.9213,W,1,9,2.1,11,M,,M,,*52
06/11/2015	12:05:06.543	$GPGGA,120507,2422.9228,N,08134.9195,W,1,9,2.1,11,M,,M,,*56
06/11/2015	12:05:07.543	$GPGGA,120508,2422.9245,N,08134.9177,W,1,9,2.1,11,M,,M,,*5E
06/11/2015	12:05:08.533	$GPGGA,120509,2422.9261,N,08134.9159,W,1,9,2.1,11,M,,M,,*55
06/11/2015	12:05:09.563	$GPGGA,120510,2422.9276,N,08134.9141,W,1,9,2.1,11,M,,M,,*52
06/11/2015	12:05:10.544	$GPGGA,120511,2422.9293,N,08134.9123,W,1,9,2.0,12,M,,M,,*5E
06/11/2015	12:05:11.564	$GPGGA,120512,2422.9310,N,08134.9106,W,1,9,2.0,12,M,,M,,*50
06/11/2015	12:05:12.524	$GPGGA,120513,2422.9326,N,08134.9088,W,1,9,2.0,12,M,,M,,*53
06/11/2015	12:05:13.554	$GPGGA,120514,2422.9341,N,08134.9070,W,1,9,2.0,12,M,,M,,*52
06/11/2015	12:05:14.524	$GPGGA,120515,2422.9358,N,08134.9053,W,1,9,2.1,12,M,,M,,*5B
06/11/2015	12:05:15.534	$GPGGA,120516,2422.9373,N,08134.9036,W,1,9,2.0,12,M,,M,,*53
06/11/2015	12:05:16.533	$GPGGA,120517,2422.9391,N,08134.9018,W,1,9,2.0,12,M,,M,,*52
06/11/2015	12:05:17.554	$GPGGA,120518,2422.9406,N,08134.9000,W,1,9,2.0,12,M,,M,,*5D
06/11/2015	12:05:18.523	$GPGGA,120519,2422.9423,N,08134.8982,W,1,9,2.0,12,M,,M,,*59
06/11/2015	12:05:19.525	$GPGGA,120520,2422.9440,N,08134.8965,W,1,9,2.0,12,M,,M,,*5F
06/11/2015	12:05:20.523	$GPGGA,120521,2422.9456,N,08134.8948,W,1,9,2.0,12,M,,M,,*56
06/11/2015	12:05:21.521	$GPGGA,120522,2422.9473,N,08134.8930,W,1,9,2.0,12,M,,M,,*5D
06/11/2015	12:05:22.519	$GPGGA,120523,2422.9489,N,08134.8912,W,1,9,2.0,12,M,,M,,*59
06/11/2015	12:05:23.533	$GPGGA,120524,2422.9506,N,08134.8895,W,1,9,2.0,12,M,,M,,*56
06/11/2015	12:05:24.522	$GPGGA,120525,2422.9523,N,08134.8878,W,1,9,2.0,12,M,,M,,*53
06/11/2015	12:05:25.531	$GPGGA,120526,2422.9539,N,08134.8858,W,1,8,2.2,12,M,,M,,*5A
06/11/2015	12:05:26.521	$GPGGA,120527,2422.9556,N,08134.8840,W,1,8,2.0,12,M,,M,,*59
06/11/2015	12:05:27.503	$GPGGA,120528,2422.9572,N,08134.8823,W,1,9,2.0,12,M,,M,,*54
06/11/2015	12:05:28.784	$GPGGA,120529,2422.9590,N,08134.8805,W,1,9,2.0,12,M,,M,,*5D
06/11/2015	12:05:29.519	$GPGGA,120530,2422.9605,N,08134.8786,W,1,9,2.0,12,M,,M,,*5E
06/11/2015	12:05:30.512	$GPGGA,120531,2422.9622,N,08134.8769,W,1,9,2.0,12,M,,M,,*5B
06/11/2015	12:05:31.616	$GPGGA,120532,2422.9640,N,08134.8753,W,1,9,2.0,12,M,,M,,*55
06/11/2015	12:05:32.494	$GPGGA,120533,2422.9657,N,08134.8734,W,1,9,2.0,12,M,,M,,*53
06/11/2015	12:05:33.515	$GPGGA,120534,2422.9673,N,08134.8716,W,1,9,2.0,12,M,,M,,*52
06/11/2015	12:05:34.493	$GPGGA,120535,2422.9690,N,08134.8699,W,1,9,2.0,12,M,,M,,*58
06/11/2015	12:05:35.518	$GPGGA,120536,2422.9708,N,08134.8682,W,1,9,2.0,12,M,,M,,*51
06/11/2015	12:05:36.483	$GPGGA,120537,2422.9724,N,08134.8664,W,1,9,2.0,12,M,,M,,*56
06/11/2015	12:05:37.573	$GPGGA,120538,2422.9740,N,08134.8645,W,1,9,2.0,12,M,,M,,*58
06/11/2015	12:05:38.573	$GPGGA,120539,2422.9758,N,08134.8629,W,1,9,2.0,12,M,,M,,*5A
06/11/2015	12:05:39.608	$GPGGA,120540,2422.9774,N,08134.8611,W,1,9,2.0,12,M,,M,,*51
06/11/2015	12:05:40.563	$GPGGA,120541,2422.9789,N,08134.8592,W,1,9,2.0,12,M,,M,,*5A
06/11/2015	12:05:41.593	$GPGGA,120542,2422.9807,N,08134.8575,W,1,9,2.0,12,M,,M,,*59
06/11/2015	12:05:42.563	$GPGGA,120543,2422.9825,N,08134.8558,W,1,9,2.0,12,M,,M,,*57
06/11/2015	12:05:43.593	$GPGGA,120544,2422.9841,N,08134.8539,W,1,9,2.0,11,M,,M,,*56
06/11/2015	12:05:44.553	$GPGGA,120545,2422.9857,N,08134.8522,W,1,9,2.0,11,M,,M,,*5A
06/11/2015	12:05:45.584	$GPGGA,120546,2422.9874,N,08134.8505,W,1,9,2.0,11,M,,M,,*5D
06/11/2015	12:05:46.564	$GPGGA,120547,2422.9890,N,08134.8488,W,1,9,2.0,11,M,,M,,*52
06/11/2015	12:05:47.594	$GPGGA,120548,2422.9907,N,08134.8470,W,1,9,2.0,11,M,,M,,*55
06/11/2015	12:05:48.554	$GPGGA,120549,2422.9922,N,08134.8453,W,1,9,2.0,11,M,,M,,*52
06/11/2015	12:05:49.554	$GPGGA,120550,2422.9940,N,08134.8435,W,1,9,2.0,11,M,,M,,*5E
06/11/2015	12:05:50.554	$GPGGA,120551,2422.9957,N,08134.8416,W,1,9,2.0,11,M,,M,,*58
06/11/2015	12:05:51.583	$GPGGA,120552,2422.9973,N,08134.8399,W,1,9,2.0,11,M,,M,,*5D
06/11/2015	12:05:52.553	$GPGGA,120553,2422.9990,N,08134.8382,W,1,9,2.2,11,M,,M,,*59
06/11/2015	12:05:53.563	$GPGGA,120554,2423.0005,N,08134.8364,W,1,9,2.0,11,M,,M,,*59
06/11/2015	12:05:54.543	$GPGGA,120555,2423.0022,N,08134.8345,W,1,9,2.0,11,M,,M,,*5E
06/11/2015	12:05:55.563	$GPGGA,120556,2423.0038,N,08134.8328,W,1,8,2.1,11,M,,M,,*5D
06/11/2015	12:05:56.543	$GPGGA,120557,2423.0055,N,08134.8312,W,1,8,2.0,11,M,,M,,*5F
06/11/2015	12:05:57.563	$GPGGA,120558,2423.0071,N,08134.8294,W,1,9,2.0,11,M,,M,,*58
06/11/2015	12:05:58.543	$GPGGA,120559,2423.0087,N,08134.8274,W,1,9,2.0,11,M,,M,,*5E
06/11/2015	12:05:59.543	$GPGGA,120600,2423.0103,N,08134.8257,W,1,9,2.0,11,M,,M,,*5D
06/11/2015	12:06:00.533	$GPGGA,120601,2423.0120,N,08134.8239,W,1,9,2.0,11,M,,M,,*55
06/11/2015	12:06:01.523	$GPGGA,120602,2423.0135,N,08134.8220,W,1,9,2.0,11,M,,M,,*5A
06/11/2015	12:06:02.533	$GPGGA,120603,2423.0152,N,08134.8202,W,1,9,2.0,11,M,,M,,*5A
06/11/2015	12:06:03.574	$GPGGA,120604,2423.0168,N,08134.8185,W,1,9,2.0,11,M,,M,,*58
06/11/2015	12:06:04.534	$GPGGA,120605,2423.0183,N,08134.8167,W,1,9,2.0,11,M,,M,,*50
06/11/2015	12:06:05.514	$GPGGA,120606,2423.0201,N,08134.8149,W,1,9,2.0,11,M,,M,,*56
06/11/2015	12:06:06.524	$GPGGA,120607,2423.0218,N,08134.8131,W,1,9,2.0,11,M,,M,,*50
06/11/2015	12:06:07.564	$GPGGA,120608,2423.0233,N,08134.8112,W,1,9,2.0,11,M,,M,,*57
06/11/2015	12:06:08.518	$GPGGA,120609,2423.0248,N,08134.8094,W,1,9,2.0,11,M,,M,,*55
06/11/2015	12:06:09.503	$GPGGA,120610,2423.0266,N,08134.8077,W,1,9,2.0,11,M,,M,,*5C
06/11/2015	12:06:10.623	$GPGGA,120611,2423.0283,N,08134.8058,W,1,9,2.0,11,M,,M,,*5B
06/11/2015	12:06:11.543	$GPGGA,120612,2423.0298,N,08134.8040,W,1,9,2.0,11,M,,M,,*5B
06/11/2015	12:06:12.623	$GPGGA,120613,2423.0315,N,08134.8022,W,1,9,2.0,11,M,,M,,*5A
06/11/2015	12:06:13.517	$GPGGA,120614,2423.0331,N,08134.8004,W,1,9,2.0,11,M,,M,,*5F
06/11/2015	12:06:14.493	$GPGGA,120615,2423.0347,N,08134.7985,W,1,9,2.0,11,M,,M,,*50
06/11/2015	12:06:15.633	$GPGGA,120616,2423.0363,N,08134.7967,W,1,9,2.0,11,M,,M,,*59
06/11/2015	12:06:16.616	$GPGGA,120617,2423.0380,N,08134.7949,W,1,9,2.0,11,M,,M,,*59
06/11/2015	12:06:17.493	$GPGGA,120618,2423.0396,N,08134.7930,W,1,9,2.0,11,M,,M,,*5F
06/11/2015	12:06:18.506	$GPGGA,120619,2423.0413,N,08134.7912,W,1,9,2.0,11,M,,M,,*54
06/11/2015	12:06:19.516	$GPGGA,120620,2423.0428,N,08134.7894,W,1,9,2.0,11,M,,M,,*59
06/11/2015	12:06:20.494	$GPGGA,120621,2423.0445,N,08134.7875,W,1,9,2.0,12,M,,M,,*5F
06/11/2015	12:06:21.584	$GPGGA,120622,2423.0463,N,08134.7857,W,1,9,2.0,12,M,,M,,*58
06/11/2015	12:06:22.494	$GPGGA,120623,2423.0479,N,08134.7840,W,1,9,2.0,12,M,,M,,*54
06/11/2015	12:06:23.614	$GPGGA,120624,2423.0495,N,08134.7821,W,1,9,2.0,12,M,,M,,*56
06/11/2015	12:06:24.484	$GPGGA,120625,2423.0511,N,08134.7803,W,1,9,2.0,12,M,,M,,*5A
06/11/2015	12:06:25.484	$GPGGA,120626,2423.0526,N,08134.7785,W,1,9,2.0,12,M,,M,,*5C
06/11/2015	12:06:26.483	$GPGGA,120627,2423.0544,N,08134.7768,W,1,9,2.0,12,M,,M,,*5A
06/11/2015	12:06:27.615	$GPGGA,120628,2423.0561,N,08134.7749,W,1,9,2.0,12,M,,M,,*51
06/11/2015	12:06:28.574	$GPGGA,120629,2423.0576,N,08134.7730,W,1,9,2.0,12,M,,M,,*58
06/11/2015	12:06:29.584	$GPGGA,120630,2423.0593,N,08134.7714,W,1,9,2.0,12,M,,M,,*5D
06/11/2015	12:06:30.583	$GPGGA,120631,2423.0609,N,08134.7697,W,1,9,2.0,12,M,,M,,*56
06/11/2015	12:06:31.610	$GPGGA,120632,2423.0626,N,08134.7678,W,1,9,2.0,12,M,,M,,*59
06/11/2015	12:06:32.563	$GPGGA,120633,2423.0641,N,08134.7660,W,1,9,2.0,12,M,,M,,*50
06/11/2015	12:06:33.563	$GPGGA,120634,2423.0658,N,08134.7643,W,1,8,2.1,12,M,,M,,*5E
06/11/2015	12:06:34.563	$GPGGA,120635,2423.0674,N,08134.7624,W,1,8,2.0,12,M,,M,,*51
06/11/2015	12:06:35.606	$GPGGA,120636,2423.0692,N,08134.7605,W,1,9,2.0,12,M,,M,,*58
06/11/2015	12:06:36.553	$GPGGA,120637,2423.0708,N,08134.7587,W,1,9,2.0,12,M,,M,,*52
06/11/2015	12:06:37.573	$GPGGA,120638,2423.0724,N,08134.7569,W,1,8,2.1,12,M,,M,,*53
06/11/2015	12:06:38.544	$GPGGA,120639,2423.0741,N,08134.7550,W,1,8,2.0,12,M,,M,,*5A
06/11/2015	12:06:39.574	$GPGGA,120640,2423.0757,N,08134.7532,W,1,9,2.0,12,M,,M,,*56
06/11/2015	12:06:40.554	$GPGGA,120641,2423.0773,N,08134.7513,W,1,9,2.0,13,M,,M,,*53
06/11/2015	12:06:41.564	$GPGGA,120642,2423.0789,N,08134.7496,W,1,9,2.0,13,M,,M,,*59
06/11/2015	12:06:42.544	$GPGGA,120643,2423.0806,N,08134.7478,W,1,9,2.0,13,M,,M,,*50
06/11/2015	12:06:43.573	$GPGGA,120644,2423.0822,N,08134.7461,W,1,9,2.0,13,M,,M,,*59
06/11/2015	12:06:44.533	$GPGGA,120645,2423.0839,N,08134.7443,W,1,9,2.0,13,M,,M,,*52
06/11/2015	12:06:45.563	$GPGGA,120646,2423.0855,N,08134.7425,W,1,9,2.0,13,M,,M,,*5B
06/11/2015	12:06:46.543	$GPGGA,120647,2423.0872,N,08134.7407,W,1,9,2.0,13,M,,M,,*5F
06/11/2015	12:06:47.573	$GPGGA,120648,2423.0889,N,08134.7390,W,1,9,2.0,13,M,,M,,*5D
06/11/2015	12:06:48.523	$GPGGA,120649,2423.0905,N,08134.7372,W,1,9,2.1,13,M,,M,,*54
06/11/2015	12:06:49.573	$GPGGA,120650,2423.0923,N,08134.7355,W,1,9,2.0,13,M,,M,,*5C
06/11/2015	12:06:50.533	$GPGGA,120651,2423.0938,N,08134.7336,W,1,9,2.0,13,M,,M,,*52
06/11/2015	12:06:51.563	$GPGGA,120652,2423.0956,N,08134.7319,W,1,9,2.0,13,M,,M,,*54
06/11/2015	12:06:52.523	$GPGGA,120653,2423.0972,N,08134.7302,W,1,9,2.1,13,M,,M,,*58
06/11/2015	12:06:53.523	$GPGGA,120654,2423.0988,N,08134.7285,W,1,9,2.0,13,M,,M,,*55
06/11/2015	12:06:54.515	$GPGGA,120655,2423.1005,N,08134.7266,W,1,9,2.0,13,M,,M,,*54
06/11/2015	12:06:55.544	$GPGGA,120656,2423.1021,N,08134.7249,W,1,8,2.2,13,M,,M,,*5F
06/11/2015	12:06:56.524	$GPGGA,120657,2423.1038,N,08134.7230,W,1,8,2.2,13,M,,M,,*58
06/11/2015	12:06:57.519	$GPGGA,120658,2423.1053,N,08134.7212,W,1,9,2.0,13,M,,M,,*59
06/11/2015	12:06:58.524	$GPGGA,120659,2423.1071,N,08134.7194,W,1,9,2.0,13,M,,M,,*55
06/11/2015	12:06:59.518	$GPGGA,120700,2423.1086,N,08134.7177,W,1,9,2.0,14,M,,M,,*5A
06/11/2015	12:07:00.520	$GPGGA,120701,2423.1103,N,08134.7159,W,1,9,2.0,14,M,,M,,*5B
06/11/2015	12:07:01.523	$GPGGA,120702,2423.1118,N,08134.7142,W,1,9,2.0,14,M,,M,,*58
06/11/2015	12:07:02.507	$GPGGA,120703,2423.1136,N,08134.7124,W,1,9,2.0,14,M,,M,,*55
06/11/2015	12:07:03.533	$GPGGA,120704,2423.1151,N,08134.7106,W,1,9,2.0,14,M,,M,,*53
06/11/2015	12:07:04.515	$GPGGA,120705,2423.1168,N,08134.7088,W,1,9,2.0,14,M,,M,,*5F
06/11/2015	12:07:05.513	$GPGGA,120706,2423.1186,N,08134.7071,W,1,9,2.0,14,M,,M,,*5A
06/11/2015	12:07:06.493	$GPGGA,120707,2423.1201,N,08134.7052,W,1,9,2.0,14,M,,M,,*56
06/11/2015	12:07:07.653	$GPGGA,120708,2423.1218,N,08134.7033,W,1,9,2.1,14,M,,M,,*57
06/11/2015	12:07:08.593	$GPGGA,120709,2423.1234,N,08134.7016,W,1,9,2.0,14,M,,M,,*5E
06/11/2015	12:07:09.606	$GPGGA,120710,2423.1252,N,08134.6999,W,1,9,2.0,14,M,,M,,*59
06/11/2015	12:07:10.493	$GPGGA,120711,2423.1268,N,08134.6979,W,1,9,2.0,14,M,,M,,*5F
06/11/2015	12:07:11.623	$GPGGA,120712,2423.1283,N,08134.6960,W,1,9,2.1,14,M,,M,,*50
06/11/2015	12:07:12.573	$GPGGA,120713,2423.1299,N,08134.6944,W,1,9,2.0,14,M,,M,,*5D
06/11/2015	12:07:13.604	$GPGGA,120714,2423.1317,N,08134.6926,W,1,9,2.0,14,M,,M,,*59
06/11/2015	12:07:14.574	$GPGGA,120715,2423.1333,N,08134.6906,W,1,9,2.0,14,M,,M,,*5C
06/11/2015	12:07:15.594	$GPGGA,120716,2423.1348,N,08134.6887,W,1,9,2.0,14,M,,M,,*5B
06/11/2015	12:07:16.564	$GPGGA,120717,2423.1366,N,08134.6870,W,1,9,2.2,14,M,,M,,*5C
06/11/2015	12:07:17.584	$GPGGA,120718,2423.1382,N,08134.6851,W,1,8,2.0,14,M,,M,,*59
06/11/2015	12:07:18.573	$GPGGA,120719,2423.1398,N,08134.6833,W,1,8,2.0,14,M,,M,,*57
06/11/2015	12:07:19.615	$GPGGA,120720,2423.1413,N,08134.6813,W,1,9,2.0,14,M,,M,,*5A
06/11/2015	12:07:20.563	$GPGGA,120721,2423.1429,N,08134.6795,W,1,9,2.0,14,M,,M,,*53
06/11/2015	12:07:21.584	$GPGGA,120722,2423.1447,N,08134.6777,W,1,9,2.0,14,M,,M,,*54
06/11/2015	12:07:22.563	$GPGGA,120723,2423.1464,N,08134.6759,W,1,9,2.0,14,M,,M,,*58
06/11/2015	12:07:23.593	$GPGGA,120724,2423.1479,N,08134.6740,W,1,9,2.0,14,M,,M,,*5B
06/11/2015	12:07:24.583	$GPGGA,120725,2423.1497,N,08134.6722,W,1,9,2.0,13,M,,M,,*59
06/11/2015	12:07:25.573	$GPGGA,120726,2423.1514,N,08134.6704,W,1,9,2.0,13,M,,M,,*54
06/11/2015	12:07:26.553	$GPGGA,120727,2423.1529,N,08134.6685,W,1,9,2.0,13,M,,M,,*53
06/11/2015	12:07:27.613	$GPGGA,120728,2423.1544,N,08134.6667,W,1,9,2.0,13,M,,M,,*5B
06/11/2015	12:07:28.553	$GPGGA,120729,2423.1563,N,08134.6651,W,1,9,2.0,13,M,,M,,*5A
06/11/2015	12:07:29.563	$GPGGA,120730,2423.1579,N,08134.6632,W,1,9,2.0,13,M,,M,,*5C
06/11/2015	12:07:30.544	$GPGGA,120731,2423.1595,N,08134.6613,W,1,9,2.0,13,M,,M,,*5C
06/11/2015	12:07:31.624	$GPGGA,120732,2423.1612,N,08134.6597,W,1,9,2.0,13,M,,M,,*5C
06/11/2015	12:07:32.544	$GPGGA,120733,2423.1628,N,08134.6580,W,1,9,2.0,13,M,,M,,*52
06/11/2015	12:07:33.554	$GPGGA,120734,2423.1646,N,08134.6561,W,1,9,2.0,13,M,,M,,*52
06/11/2015	12:07:34.534	$GPGGA,120735,2423.1662,N,08134.6543,W,1,9,2.1,13,M,,M,,*54
06/11/2015	12:07:35.574	$GPGGA,120736,2423.1678,N,08134.6526,W,1,8,2.0,13,M,,M,,*5F
06/11/2015	12:07:36.533	$GPGGA,120737,2423.1696,N,08134.6509,W,1,8,2.1,13,M,,M,,*52
06/11/2015	12:07:37.534	$GPGGA,120738,2423.1713,N,08134.6491,W,1,8,2.0,13,M,,M,,*50
06/11/2015	12:07:38.543	$GPGGA,120739,2423.1713,N,08134.6491,W,1,8,2.0,13,M,,M,,*51
06/11/2015	12:07:39.573	$GPGGA,120740,2423.1746,N,08134.6454,W,1,9,2.0,13,M,,M,,*57
06/11/2015	12:07:40.523	$GPGGA,120741,2423.1761,N,08134.6436,W,1,9,2.0,13,M,,M,,*57
06/11/2015	12:07:41.523	$GPGGA,120742,2423.1779,N,08134.6418,W,1,9,2.0,13,M,,M,,*51
06/11/2015	12:07:42.513	$GPGGA,120743,2423.1796,N,08134.6399,W,1,9,2.0,13,M,,M,,*5F
06/11/2015	12:07:43.563	$GPGGA,120744,2423.1812,N,08134.6382,W,1,9,2.0,13,M,,M,,*51
06/11/2015	12:07:44.533	$GPGGA,120745,2423.1830,N,08134.6364,W,1,9,2.0,13,M,,M,,*58
06/11/2015	12:07:45.543	$GPGGA,120746,2423.1846,N,08134.6346,W,1,9,2.0,13,M,,M,,*5A
06/11/2015	12:07:46.533	$GPGGA,120747,2423.1862,N,08134.6328,W,1,9,2.0,13,M,,M,,*55
06/11/2015	12:07:47.554	$GPGGA,120748,2423.1880,N,08134.6311,W,1,9,2.1,13,M,,M,,*5D
06/11/2015	12:07:48.514	$GPGGA,120749,2423.1895,N,08134.6293,W,1,9,2.0,13,M,,M,,*52
06/11/2015	12:07:49.514	$GPGGA,120750,2423.1913,N,08134.6276,W,1,9,2.0,13,M,,M,,*5E
06/11/2015	12:07:50.614	$GPGGA,120751,2423.1930,N,08134.6258,W,1,9,2.0,13,M,,M,,*52
06/11/2015	12:07:51.564	$GPGGA,120752,2423.1945,N,08134.6240,W,1,9,2.1,13,M,,M,,*5B
06/11/2015	12:07:52.594	$GPGGA,120753,2423.1962,N,08134.6224,W,1,9,2.1,13,M,,M,,*5D
06/11/2015	12:07:53.503	$GPGGA,120754,2423.1980,N,08134.6209,W,1,9,2.0,13,M,,M,,*58
06/11/2015	12:07:54.605	$GPGGA,120755,2423.1996,N,08134.6191,W,1,9,2.0,13,M,,M,,*5C
06/11/2015	12:07:55.603	$GPGGA,120756,2423.2011,N,08134.6175,W,1,9,2.0,12,M,,M,,*51
06/11/2015	12:07:56.517	$GPGGA,120757,2423.2029,N,08134.6158,W,1,9,2.0,12,M,,M,,*54
06/11/2015	12:07:57.583	$GPGGA,120758,2423.2045,N,08134.6140,W,1,9,2.0,12,M,,M,,*58
06/11/2015	12:07:58.583	$GPGGA,120759,2423.2061,N,08134.6123,W,1,9,2.0,12,M,,M,,*5A
06/11/2015	12:07:59.597	$GPGGA,120800,2423.2079,N,08134.6106,W,1,9,2.0,12,M,,M,,*57
06/11/2015	12:08:00.583	$GPGGA,120801,2423.2094,N,08134.6089,W,1,9,2.0,12,M,,M,,*53
06/11/2015	12:08:01.573	$GPGGA,120802,2423.2111,N,08134.6070,W,1,9,2.0,12,M,,M,,*5A
06/11/2015	12:08:02.563	$GPGGA,120803,2423.2128,N,08134.6054,W,1,9,2.0,12,M,,M,,*57
06/11/2015	12:08:03.614	$GPGGA,120804,2423.2144,N,08134.6037,W,1,9,2.0,12,M,,M,,*5F
06/11/2015	12:08:04.553	$GPGGA,120805,2423.2161,N,08134.6017,W,1,9,2.0,12,M,,M,,*5B
06/11/2015	12:08:05.564	$GPGGA,120806,2423.2177,N,08134.6000,W,1,9,2.0,12,M,,M,,*59
06/11/2015	12:08:06.563	$GPGGA,120807,2423.2194,N,08134.5983,W,1,9,2.0,12,M,,M,,*54
06/11/2015	12:08:07.615	$GPGGA,120808,2423.2211,N,08134.5965,W,1,9,2.0,12,M,,M,,*5D
06/11/2015	12:08:08.543	$GPGGA,120809,2423.2227,N,08134.5946,W,1,9,2.0,12,M,,M,,*58
06/11/2015	12:08:09.573	$GPGGA,120810,2423.2244,N,08134.5929,W,1,9,2.0,12,M,,M,,*5C
06/11/2015	12:08:10.543	$GPGGA,120811,2423.2260,N,08134.5911,W,1,9,2.0,12,M,,M,,*50
06/11/2015	12:08:11.572	$GPGGA,120812,2423.2276,N,08134.5893,W,1,9,2.0,12,M,,M,,*5F
06/11/2015	12:08:12.542	$GPGGA,120813,2423.2292,N,08134.5875,W,1,9,2.0,12,M,,M,,*5C
06/11/2015	12:08:13.532	$GPGGA,120814,2423.2309,N,08134.5857,W,1,9,2.0,12,M,,M,,*58
06/11/2015	12:08:14.542	$GPGGA,120815,2423.2325,N,08134.5839,W,1,9,2.0,12,M,,M,,*5F
06/11/2015	12:08:15.583	$GPGGA,120816,2423.2343,N,08134.5821,W,1,9,2.0,12,M,,M,,*55
06/11/2015	12:08:16.533	$GPGGA,120817,2423.2359,N,08134.5803,W,1,9,2.0,12,M,,M,,*5F
06/11/2015	12:08:17.553	$GPGGA,120818,2423.2375,N,08134.5785,W,1,9,2.0,12,M,,M,,*5F
06/11/2015	12:08:18.523	$GPGGA,120819,2423.2392,N,08134.5767,W,1,9,2.0,12,M,,M,,*5B
06/11/2015	12:08:19.573	$GPGGA,120820,2423.2408,N,08134.5748,W,1,9,2.0,12,M,,M,,*58
06/11/2015	12:08:20.533	$GPGGA,120821,2423.2425,N,08134.5730,W,1,9,2.0,12,M,,M,,*59
06/11/2015	12:08:21.533	$GPGGA,120822,2423.2441,N,08134.5713,W,1,9,2.0,12,M,,M,,*59
06/11/2015	12:08:22.533	$GPGGA,120823,2423.2458,N,08134.5695,W,1,9,2.0,12,M,,M,,*5F
06/11/2015	12:08:23.563	$GPGGA,120824,2423.2475,N,08134.5676,W,1,9,2.0,12,M,,M,,*5A
06/11/2015	12:08:24.523	$GPGGA,120825,2423.2491,N,08134.5659,W,1,9,2.0,12,M,,M,,*5C
06/11/2015	12:08:25.533	$GPGGA,120826,2423.2509,N,08134.5641,W,1,9,2.0,12,M,,M,,*56
06/11/2015	12:08:26.523	$GPGGA,120827,2423.2524,N,08134.5622,W,1,9,2.0,12,M,,M,,*5D
06/11/2015	12:08:27.513	$GPGGA,120828,2423.2541,N,08134.5604,W,1,9,2.0,12,M,,M,,*55
06/11/2015	12:08:28.522	$GPGGA,120829,2423.2559,N,08134.5587,W,1,9,2.0,12,M,,M,,*55
06/11/2015	12:08:29.507	$GPGGA,120830,2423.2574,N,08134.5568,W,1,9,2.0,12,M,,M,,*53
06/11/2015	12:08:30.522	$GPGGA,120831,2423.2589,N,08134.5550,W,1,9,2.0,12,M,,M,,*5B
06/11/2015	12:08:31.512	$GPGGA,120832,2423.2607,N,08134.5532,W,1,9,2.0,12,M,,M,,*59
06/11/2015	12:08:32.493	$GPGGA,120833,2423.2625,N,08134.5514,W,1,9,2.0,12,M,,M,,*5C
06/11/2015	12:08:33.494	$GPGGA,120834,2423.2641,N,08134.5496,W,1,9,2.0,12,M,,M,,*52
06/11/2015	12:08:34.607	$GPGGA,120835,2423.2657,N,08134.5478,W,1,9,2.0,12,M,,M,,*54
06/11/2015	12:08:35.633	$GPGGA,120836,2423.2674,N,08134.5460,W,1,9,2.0,12,M,,M,,*5F
06/11/2015	12:08:36.505	$GPGGA,120837,2423.2690,N,08134.5442,W,1,9,2.0,12,M,,M,,*54
06/11/2015	12:08:37.613	$GPGGA,120838,2423.2707,N,08134.5424,W,1,9,2.0,12,M,,M,,*54
06/11/2015	12:08:38.505	$GPGGA,120839,2423.2724,N,08134.5406,W,1,9,2.0,12,M,,M,,*54
06/11/2015	12:08:39.523	$GPGGA,120840,2423.2740,N,08134.5387,W,1,9,2.0,12,M,,M,,*56
06/11/2015	12:08:40.583	$GPGGA,120841,2423.2757,N,08134.5370,W,1,9,2.0,12,M,,M,,*59
06/11/2015	12:08:41.613	$GPGGA,120842,2423.2773,N,08134.5352,W,1,9,2.0,12,M,,M,,*5C
06/11/2015	12:08:42.493	$GPGGA,120843,2423.2791,N,08134.5334,W,1,9,2.0,12,M,,M,,*51
06/11/2015	12:08:43.583	$GPGGA,120844,2423.2807,N,08134.5316,W,1,9,2.0,12,M,,M,,*56
06/11/2015	12:08:44.493	$GPGGA,120845,2423.2823,N,08134.5298,W,1,9,2.0,12,M,,M,,*56
06/11/2015	12:08:45.563	$GPGGA,120846,2423.2841,N,08134.5280,W,1,9,2.0,12,M,,M,,*58
06/11/2015	12:08:46.562	$GPGGA,120847,2423.2856,N,08134.5262,W,1,9,2.0,12,M,,M,,*53
06/11/2015	12:08:47.582	$GPGGA,120848,2423.2874,N,08134.5245,W,1,9,2.0,12,M,,M,,*59
06/11/2015	12:08:48.573	$GPGGA,120849,2423.2891,N,08134.5227,W,1,9,2.0,12,M,,M,,*57
06/11/2015	12:08:49.572	$GPGGA,120850,2423.2907,N,08134.5209,W,1,9,2.0,12,M,,M,,*5D
06/11/2015	12:08:50.863	$GPGGA,120851,2423.2924,N,08134.5192,W,1,9,2.0,12,M,,M,,*5C
06/11/2015	12:08:51.583	$GPGGA,120852,2423.2943,N,08134.5174,W,1,9,2.0,12,M,,M,,*56
06/11/2015	12:08:52.553	$GPGGA,120853,2423.2959,N,08134.5155,W,1,9,2.0,12,M,,M,,*5F
06/11/2015	12:08:53.553	$GPGGA,120854,2423.2975,N,08134.5139,W,1,8,2.3,12,M,,M,,*5E
06/11/2015	12:08:54.553	$GPGGA,120855,2423.2993,N,08134.5122,W,1,8,2.0,12,M,,M,,*5E
06/11/2015	12:08:55.593	$GPGGA,120856,2423.3011,N,08134.5104,W,1,9,2.0,12,M,,M,,*5A
06/11/2015	12:08:56.553	$GPGGA,120857,2423.3026,N,08134.5085,W,1,9,2.0,12,M,,M,,*57
06/11/2015	12:08:57.573	$GPGGA,120858,2423.3044,N,08134.5069,W,1,9,2.0,12,M,,M,,*5E
06/11/2015	12:08:58.543	$GPGGA,120859,2423.3062,N,08134.5052,W,1,9,2.0,12,M,,M,,*53
06/11/2015	12:08:59.597	$GPGGA,120900,2423.3079,N,08134.5033,W,1,9,2.0,13,M,,M,,*52
06/11/2015	12:09:00.553	$GPGGA,120901,2423.3094,N,08134.5016,W,1,9,2.0,13,M,,M,,*57
06/11/2015	12:09:01.543	$GPGGA,120902,2423.3112,N,08134.5000,W,1,9,2.0,13,M,,M,,*5C
06/11/2015	12:09:02.843	$GPGGA,120903,2423.3130,N,08134.4982,W,1,9,2.0,13,M,,M,,*5F
06/11/2015	12:09:03.572	$GPGGA,120904,2423.3145,N,08134.4964,W,1,9,2.0,13,M,,M,,*52
06/11/2015	12:09:04.532	$GPGGA,120905,2423.3163,N,08134.4948,W,1,9,2.0,13,M,,M,,*59
06/11/2015	12:09:05.552	$GPGGA,120906,2423.3180,N,08134.4930,W,1,9,2.0,13,M,,M,,*58
06/11/2015	12:09:06.982	$GPGGA,120907,2423.3195,N,08134.4912,W,1,9,2.0,13,M,,M,,*5D
06/11/2015	12:09:07.543	$GPGGA,120908,2423.3212,N,08134.4895,W,1,9,2.0,14,M,,M,,*57
06/11/2015	12:09:08.523	$GPGGA,120909,2423.3228,N,08134.4878,W,1,9,2.0,14,M,,M,,*5C
06/11/2015	12:09:09.563	$GPGGA,120910,2423.3246,N,08134.4861,W,1,9,2.0,14,M,,M,,*54
06/11/2015	12:09:10.523	$GPGGA,120911,2423.3261,N,08134.4844,W,1,9,2.0,14,M,,M,,*57
06/11/2015	12:09:11.563	$GPGGA,120912,2423.3278,N,08134.4826,W,1,9,2.0,14,M,,M,,*58
06/11/2015	12:09:12.508	$GPGGA,120913,2423.3295,N,08134.4808,W,1,9,2.0,14,M,,M,,*56
06/11/2015	12:09:13.513	$GPGGA,120914,2423.3311,N,08134.4792,W,1,9,2.0,14,M,,M,,*50
06/11/2015	12:09:14.523	$GPGGA,120915,2423.3326,N,08134.4775,W,1,9,2.0,14,M,,M,,*5C
06/11/2015	12:09:15.543	$GPGGA,120916,2423.3344,N,08134.4756,W,1,9,2.0,15,M,,M,,*5B
06/11/2015	12:09:16.505	$GPGGA,120917,2423.3361,N,08134.4740,W,1,9,2.0,15,M,,M,,*5A
06/11/2015	12:09:17.533	$GPGGA,120918,2423.3376,N,08134.4723,W,1,9,2.0,15,M,,M,,*56
06/11/2015	12:09:18.497	$GPGGA,120919,2423.3393,N,08134.4704,W,1,9,2.0,15,M,,M,,*59
06/11/2015	12:09:19.523	$GPGGA,120920,2423.3409,N,08134.4686,W,1,9,2.0,15,M,,M,,*5C
06/11/2015	12:09:20.500	$GPGGA,120921,2423.3426,N,08134.4670,W,1,9,2.0,15,M,,M,,*59
06/11/2015	12:09:21.532	$GPGGA,120922,2423.3443,N,08134.4652,W,1,9,2.0,15,M,,M,,*59
06/11/2015	12:09:22.496	$GPGGA,120923,2423.3459,N,08134.4633,W,1,9,2.0,15,M,,M,,*54
06/11/2015	12:09:23.512	$GPGGA,120924,2423.3474,N,08134.4616,W,1,9,2.0,15,M,,M,,*5B
06/11/2015	12:09:24.482	$GPGGA,120925,2423.3492,N,08134.4599,W,1,9,2.0,15,M,,M,,*56
06/11/2015	12:09:25.506	$GPGGA,120926,2423.3508,N,08134.4581,W,1,9,2.0,15,M,,M,,*5E
06/11/2015	12:09:26.913	$GPGGA,120927,2423.3524,N,08134.4564,W,1,9,2.0,15,M,,M,,*5A
06/11/2015	12:09:27.513	$GPGGA,120928,2423.3541,N,08134.4546,W,1,9,2.0,15,M,,M,,*56
06/11/2015	12:09:28.495	$GPGGA,120929,2423.3556,N,08134.4527,W,1,9,2.0,15,M,,M,,*56
06/11/2015	12:09:29.613	$GPGGA,120930,2423.3573,N,08134.4510,W,1,9,2.0,15,M,,M,,*5D
06/11/2015	12:09:30.600	$GPGGA,120931,2423.3591,N,08134.4493,W,1,9,2.0,15,M,,M,,*5A
06/11/2015	12:09:31.623	$GPGGA,120932,2423.3606,N,08134.4476,W,1,9,2.0,15,M,,M,,*5F
06/11/2015	12:09:32.573	$GPGGA,120933,2423.3622,N,08134.4457,W,1,9,2.0,15,M,,M,,*5B
06/11/2015	12:09:33.583	$GPGGA,120934,2423.3639,N,08134.4439,W,1,9,2.0,15,M,,M,,*5E
06/11/2015	12:09:34.573	$GPGGA,120935,2423.3656,N,08134.4423,W,1,9,2.0,15,M,,M,,*5D
06/11/2015	12:09:35.600	$GPGGA,120936,2423.3672,N,08134.4405,W,1,9,2.0,15,M,,M,,*5C
06/11/2015	12:09:36.573	$GPGGA,120937,2423.3689,N,08134.4386,W,1,9,2.0,16,M,,M,,*56
06/11/2015	12:09:37.603	$GPGGA,120938,2423.3704,N,08134.4369,W,1,9,2.0,16,M,,M,,*5C
06/11/2015	12:09:38.572	$GPGGA,120939,2423.3721,N,08134.4353,W,1,9,2.0,16,M,,M,,*53
06/11/2015	12:09:39.607	$GPGGA,120940,2423.3737,N,08134.4333,W,1,9,2.0,16,M,,M,,*5C
06/11/2015	12:09:40.562	$GPGGA,120941,2423.3752,N,08134.4317,W,1,9,2.0,16,M,,M,,*58
06/11/2015	12:09:41.562	$GPGGA,120942,2423.3770,N,08134.4300,W,1,9,2.0,16,M,,M,,*5D
06/11/2015	12:09:42.562	$GPGGA,120943,2423.3787,N,08134.4282,W,1,9,2.0,16,M,,M,,*5F
06/11/2015	12:09:43.599	$GPGGA,120944,2423.3802,N,08134.4264,W,1,9,2.0,16,M,,M,,*52
06/11/2015	12:09:44.553	$GPGGA,120945,2423.3819,N,08134.4247,W,1,9,2.0,16,M,,M,,*58
06/11/2015	12:09:46.573	$GPGGA,120947,2423.3852,N,08134.4211,W,1,9,2.0,16,M,,M,,*56
06/11/2015	12:09:47.573	$GPGGA,120948,2423.3867,N,08134.4193,W,1,9,2.0,16,M,,M,,*56
06/11/2015	12:09:48.543	$GPGGA,120949,2423.3885,N,08134.4176,W,1,9,2.0,16,M,,M,,*50
06/11/2015	12:09:49.563	$GPGGA,120950,2423.3902,N,08134.4158,W,1,9,2.0,16,M,,M,,*5A
06/11/2015	12:09:50.543	$GPGGA,120951,2423.3917,N,08134.4140,W,1,9,2.0,16,M,,M,,*56
06/11/2015	12:09:51.553	$GPGGA,120952,2423.3933,N,08134.4123,W,1,9,2.0,16,M,,M,,*56
06/11/2015	12:09:52.533	$GPGGA,120953,2423.3951,N,08134.4105,W,1,9,2.0,16,M,,M,,*57
06/11/2015	12:09:53.553	$GPGGA,120954,2423.3967,N,08134.4087,W,1,9,2.0,16,M,,M,,*5E
06/11/2015	12:09:54.543	$GPGGA,120955,2423.3983,N,08134.4069,W,1,9,2.0,16,M,,M,,*55
06/11/2015	12:09:55.553	$GPGGA,120956,2423.4000,N,08134.4050,W,1,9,2.0,16,M,,M,,*59
06/11/2015	12:09:56.522	$GPGGA,120957,2423.4016,N,08134.4032,W,1,9,2.0,16,M,,M,,*5B
06/11/2015	12:09:57.512	$GPGGA,120958,2423.4034,N,08134.4015,W,1,9,2.0,16,M,,M,,*51
06/11/2015	12:09:58.532	$GPGGA,120959,2423.4050,N,08134.3997,W,1,9,2.0,16,M,,M,,*56
06/11/2015	12:09:59.532	$GPGGA,121000,2423.4065,N,08134.3978,W,1,9,2.0,16,M,,M,,*55
06/11/2015	12:10:00.508	$GPGGA,121001,2423.4081,N,08134.3960,W,1,9,2.0,16,M,,M,,*57
06/11/2015	12:10:01.513	$GPGGA,121002,2423.4099,N,08134.3942,W,1,9,2.0,16,M,,M,,*5D
06/11/2015	12:10:02.513	$GPGGA,121003,2423.4115,N,08134.3924,W,1,9,2.0,16,M,,M,,*59
06/11/2015	12:10:03.700	$GPGGA,121004,2423.4131,N,08134.3906,W,1,9,2.0,16,M,,M,,*58
06/11/2015	12:10:04.533	$GPGGA,121005,2423.4148,N,08134.3888,W,1,9,2.0,16,M,,M,,*50
06/11/2015	12:10:05.504	$GPGGA,121006,2423.4164,N,08134.3870,W,1,9,2.0,16,M,,M,,*5A
06/11/2015	12:10:06.523	$GPGGA,121007,2423.4180,N,08134.3852,W,1,9,2.0,16,M,,M,,*51
06/11/2015	12:10:07.604	$GPGGA,121008,2423.4196,N,08134.3836,W,1,9,2.0,16,M,,M,,*5B
06/11/2015	12:10:08.593	$GPGGA,121009,2423.4213,N,08134.3818,W,1,9,2.0,16,M,,M,,*58
06/11/2015	12:10:09.683	$GPGGA,121010,2423.4228,N,08134.3799,W,1,9,2.0,16,M,,M,,*5E
06/11/2015	12:10:11.553	$GPGGA,121012,2423.4261,N,08134.3766,W,1,9,2.0,16,M,,M,,*51
06/11/2015	12:10:12.498	$GPGGA,121013,2423.4278,N,08134.3748,W,1,9,2.0,16,M,,M,,*54
06/11/2015	12:10:13.582	$GPGGA,121014,2423.4293,N,08134.3729,W,1,9,2.0,16,M,,M,,*51
06/11/2015	12:10:14.482	$GPGGA,121015,2423.4310,N,08134.3713,W,1,9,2.0,15,M,,M,,*50
06/11/2015	12:10:15.493	$GPGGA,121016,2423.4328,N,08134.3696,W,1,9,2.0,15,M,,M,,*54
06/11/2015	12:10:16.472	$GPGGA,121017,2423.4343,N,08134.3677,W,1,9,2.0,15,M,,M,,*57
06/11/2015	12:10:17.482	$GPGGA,121018,2423.4359,N,08134.3657,W,1,9,2.0,15,M,,M,,*51
06/11/2015	12:10:18.499	$GPGGA,121019,2423.4376,N,08134.3639,W,1,9,2.0,15,M,,M,,*55
06/11/2015	12:10:21.166	$GPGGA,121021,2423.4409,N,08134.3602,W,1,9,2.0,15,M,,M,,*59
06/11/2015	12:10:21.663	$GPGGA,121022,2423.4426,N,08134.3584,W,1,9,2.0,15,M,,M,,*5A
06/11/2015	12:10:22.574	$GPGGA,121023,2423.4442,N,08134.3566,W,1,9,2.0,15,M,,M,,*55
06/11/2015	12:10:23.683	$GPGGA,121024,2423.4460,N,08134.3548,W,1,9,2.0,15,M,,M,,*5E
06/11/2015	12:10:24.563	$GPGGA,121025,2423.4477,N,08134.3530,W,1,9,2.0,15,M,,M,,*56
06/11/2015	12:10:25.673	$GPGGA,121026,2423.4492,N,08134.3512,W,1,9,2.0,15,M,,M,,*5E
06/11/2015	12:10:26.594	$GPGGA,121027,2423.4510,N,08134.3494,W,1,9,2.0,15,M,,M,,*5B
06/11/2015	12:10:27.673	$GPGGA,121028,2423.4525,N,08134.3476,W,1,9,2.0,15,M,,M,,*5E
06/11/2015	12:10:28.583	$GPGGA,121029,2423.4543,N,08134.3458,W,1,9,2.0,15,M,,M,,*53
06/11/2015	12:10:29.663	$GPGGA,121030,2423.4560,N,08134.3440,W,1,9,2.0,15,M,,M,,*53
06/11/2015	12:10:30.553	$GPGGA,121031,2423.4576,N,08134.3422,W,1,9,2.0,15,M,,M,,*51
06/11/2015	12:10:31.652	$GPGGA,121032,2423.4594,N,08134.3404,W,1,9,2.0,15,M,,M,,*5A
06/11/2015	12:10:32.594	$GPGGA,121033,2423.4611,N,08134.3387,W,1,9,2.0,15,M,,M,,*59
06/11/2015	12:10:33.642	$GPGGA,121034,2423.4628,N,08134.3370,W,1,9,2.0,15,M,,M,,*5C
06/11/2015	12:10:34.572	$GPGGA,121035,2423.4644,N,08134.3352,W,1,9,2.0,15,M,,M,,*57
06/11/2015	12:10:35.673	$GPGGA,121036,2423.4659,N,08134.3335,W,1,9,2.0,15,M,,M,,*59
06/11/2015	12:10:36.533	$GPGGA,121037,2423.4677,N,08134.3319,W,1,9,2.0,15,M,,M,,*5A
06/11/2015	12:10:38.043	$GPGGA,121038,2423.4694,N,08134.3301,W,1,8,2.0,15,M,,M,,*50
06/11/2015	12:10:38.573	$GPGGA,121039,2423.4711,N,08134.3283,W,1,8,2.0,15,M,,M,,*56
06/11/2015	12:10:39.653	$GPGGA,121040,2423.4727,N,08134.3265,W,1,9,2.0,15,M,,M,,*54
06/11/2015	12:10:40.553	$GPGGA,121041,2423.4744,N,08134.3248,W,1,9,2.0,15,M,,M,,*5F
06/11/2015	12:10:41.523	$GPGGA,121042,2423.4760,N,08134.3230,W,1,9,2.0,15,M,,M,,*55
06/11/2015	12:10:42.553	$GPGGA,121043,2423.4777,N,08134.3213,W,1,9,2.0,15,M,,M,,*53
06/11/2015	12:10:43.533	$GPGGA,121044,2423.4792,N,08134.3195,W,1,9,2.0,15,M,,M,,*52
06/11/2015	12:10:44.523	$GPGGA,121045,2423.4809,N,08134.3177,W,1,9,2.0,15,M,,M,,*52
06/11/2015	12:10:45.514	$GPGGA,121046,2423.4825,N,08134.3159,W,1,9,2.0,15,M,,M,,*53
06/11/2015	12:10:46.563	$GPGGA,121047,2423.4842,N,08134.3141,W,1,9,2.0,15,M,,M,,*5A
06/11/2015	12:10:47.523	$GPGGA,121048,2423.4859,N,08134.3124,W,1,9,2.0,15,M,,M,,*5C
06/11/2015	12:10:48.505	$GPGGA,121049,2423.4875,N,08134.3105,W,1,9,2.0,15,M,,M,,*50
06/11/2015	12:10:49.582	$GPGGA,121050,2423.4890,N,08134.3088,W,1,9,2.0,15,M,,M,,*57
06/11/2015	12:10:50.505	$GPGGA,121051,2423.4908,N,08134.3071,W,1,9,2.0,15,M,,M,,*50
06/11/2015	12:10:51.608	$GPGGA,121052,2423.4924,N,08134.3053,W,1,9,2.0,15,M,,M,,*5D
06/11/2015	12:10:52.505	$GPGGA,121053,2423.4940,N,08134.3034,W,1,9,2.0,15,M,,M,,*5F
06/11/2015	12:10:53.583	$GPGGA,121054,2423.4955,N,08134.3017,W,1,9,2.0,15,M,,M,,*5D
06/11/2015	12:10:54.505	$GPGGA,121055,2423.4973,N,08134.2999,W,1,9,2.0,15,M,,M,,*56
06/11/2015	12:10:55.583	$GPGGA,121056,2423.4988,N,08134.2980,W,1,9,2.0,15,M,,M,,*59
06/11/2015	12:10:56.623	$GPGGA,121057,2423.5005,N,08134.2963,W,1,9,2.0,15,M,,M,,*58
06/11/2015	12:10:57.623	$GPGGA,121058,2423.5022,N,08134.2946,W,1,9,2.0,15,M,,M,,*55
06/11/2015	12:10:58.523	$GPGGA,121059,2423.5038,N,08134.2927,W,1,9,2.0,15,M,,M,,*58
06/11/2015	12:10:59.610	$GPGGA,121100,2423.5053,N,08134.2909,W,1,9,2.0,15,M,,M,,*54
06/11/2015	12:11:00.523	$GPGGA,121101,2423.5070,N,08134.2892,W,1,9,2.0,15,M,,M,,*57
06/11/2015	12:11:01.600	$GPGGA,121102,2423.5087,N,08134.2874,W,1,9,2.0,15,M,,M,,*54
06/11/2015	12:11:02.583	$GPGGA,121103,2423.5102,N,08134.2856,W,1,9,2.0,15,M,,M,,*59
06/11/2015	12:11:03.633	$GPGGA,121104,2423.5118,N,08134.2838,W,1,9,2.0,15,M,,M,,*5D
06/11/2015	12:11:04.583	$GPGGA,121105,2423.5135,N,08134.2821,W,1,9,2.0,15,M,,M,,*5B
06/11/2015	12:11:05.633	$GPGGA,121106,2423.5152,N,08134.2804,W,1,9,2.0,15,M,,M,,*5E
06/11/2015	12:11:06.582	$GPGGA,121107,2423.5168,N,08134.2784,W,1,9,2.0,15,M,,M,,*51
06/11/2015	12:11:07.606	$GPGGA,121108,2423.5183,N,08134.2768,W,1,9,2.0,15,M,,M,,*59
06/11/2015	12:11:08.582	$GPGGA,121109,2423.5201,N,08134.2752,W,1,9,2.0,15,M,,M,,*58
06/11/2015	12:11:09.622	$GPGGA,121110,2423.5218,N,08134.2734,W,1,9,2.0,15,M,,M,,*58
06/11/2015	12:11:10.563	$GPGGA,121111,2423.5233,N,08134.2716,W,1,9,2.0,15,M,,M,,*50
06/11/2015	12:11:11.608	$GPGGA,121112,2423.5251,N,08134.2699,W,1,9,2.0,15,M,,M,,*51
06/11/2015	12:11:12.563	$GPGGA,121113,2423.5266,N,08134.2683,W,1,9,2.0,15,M,,M,,*5F
06/11/2015	12:11:13.583	$GPGGA,121114,2423.5283,N,08134.2666,W,1,9,2.0,15,M,,M,,*58
06/11/2015	12:11:14.563	$GPGGA,121115,2423.5300,N,08134.2648,W,1,9,2.0,15,M,,M,,*5F
06/11/2015	12:11:16.612	$GPGGA,121117,2423.5333,N,08134.2614,W,1,9,2.0,15,M,,M,,*54
06/11/2015	12:11:17.623	$GPGGA,121118,2423.5349,N,08134.2596,W,1,9,2.0,15,M,,M,,*5F
06/11/2015	12:11:18.553	$GPGGA,121119,2423.5363,N,08134.2578,W,1,9,2.0,15,M,,M,,*56
06/11/2015	12:11:19.599	$GPGGA,121120,2423.5381,N,08134.2562,W,1,9,2.0,15,M,,M,,*5B
06/11/2015	12:11:20.543	$GPGGA,121121,2423.5398,N,08134.2545,W,1,9,2.0,15,M,,M,,*57
06/11/2015	12:11:21.583	$GPGGA,121122,2423.5414,N,08134.2527,W,1,9,2.0,15,M,,M,,*53
06/11/2015	12:11:22.543	$GPGGA,121123,2423.5430,N,08134.2510,W,1,9,2.0,15,M,,M,,*50
06/11/2015	12:11:23.582	$GPGGA,121124,2423.5430,N,08134.2510,W,1,9,2.0,15,M,,M,,*57
06/11/2015	12:11:24.562	$GPGGA,121125,2423.5464,N,08134.2476,W,1,9,2.0,15,M,,M,,*56
06/11/2015	12:11:25.612	$GPGGA,121126,2423.5464,N,08134.2476,W,1,9,2.0,15,M,,M,,*55
06/11/2015	12:11:26.542	$GPGGA,121127,2423.5496,N,08134.2440,W,1,9,2.0,15,M,,M,,*5C
06/11/2015	12:11:27.592	$GPGGA,121128,2423.5511,N,08134.2423,W,1,9,2.0,15,M,,M,,*58
06/11/2015	12:11:28.533	$GPGGA,121129,2423.5529,N,08134.2407,W,1,9,2.0,15,M,,M,,*54
06/11/2015	12:11:29.583	$GPGGA,121130,2423.5546,N,08134.2388,W,1,9,2.0,15,M,,M,,*55
06/11/2015	12:11:30.543	$GPGGA,121131,2423.5561,N,08134.2370,W,1,9,2.0,15,M,,M,,*56
06/11/2015	12:11:31.603	$GPGGA,121132,2423.5578,N,08134.2354,W,1,9,2.0,15,M,,M,,*5B
06/11/2015	12:11:32.553	$GPGGA,121133,2423.5594,N,08134.2337,W,1,9,2.0,15,M,,M,,*5D
06/11/2015	12:11:33.613	$GPGGA,121134,2423.5609,N,08134.2319,W,1,9,2.0,15,M,,M,,*51
06/11/2015	12:11:34.523	$GPGGA,121135,2423.5626,N,08134.2301,W,1,9,2.0,15,M,,M,,*54
06/11/2015	12:11:35.583	$GPGGA,121136,2423.5643,N,08134.2285,W,1,9,2.0,15,M,,M,,*59
06/11/2015	12:11:36.543	$GPGGA,121137,2423.5659,N,08134.2267,W,1,9,2.0,15,M,,M,,*5F
06/11/2015	12:11:37.533	$GPGGA,121138,2423.5676,N,08134.2248,W,1,9,2.0,15,M,,M,,*50
06/11/2015	12:11:38.523	$GPGGA,121139,2423.5692,N,08134.2231,W,1,9,2.0,15,M,,M,,*55
06/11/2015	12:11:39.573	$GPGGA,121140,2423.5708,N,08134.2215,W,1,9,2.0,15,M,,M,,*5F
06/11/2015	12:11:40.504	$GPGGA,121141,2423.5724,N,08134.2197,W,1,9,2.0,15,M,,M,,*59
06/11/2015	12:11:41.532	$GPGGA,121142,2423.5724,N,08134.2197,W,1,9,2.0,15,M,,M,,*5A
06/11/2015	12:11:42.505	$GPGGA,121143,2423.5756,N,08134.2163,W,1,9,2.0,15,M,,M,,*55
06/11/2015	12:11:43.522	$GPGGA,121144,2423.5773,N,08134.2145,W,1,9,2.0,15,M,,M,,*51
06/11/2015	12:11:44.502	$GPGGA,121145,2423.5789,N,08134.2128,W,1,9,2.0,15,M,,M,,*5E
06/11/2015	12:11:45.523	$GPGGA,121146,2423.5789,N,08134.2128,W,1,9,2.0,15,M,,M,,*5D
06/11/2015	12:11:46.503	$GPGGA,121147,2423.5821,N,08134.2094,W,1,9,2.0,15,M,,M,,*57
06/11/2015	12:11:47.633	$GPGGA,121148,2423.5836,N,08134.2076,W,1,9,2.0,15,M,,M,,*52
06/11/2015	12:11:48.506	$GPGGA,121149,2423.5853,N,08134.2059,W,1,9,2.0,15,M,,M,,*5D
06/11/2015	12:11:49.595	$GPGGA,121150,2423.5869,N,08134.2041,W,1,9,2.0,15,M,,M,,*55
06/11/2015	12:11:50.483	$GPGGA,121151,2423.5885,N,08134.2023,W,1,9,2.0,15,M,,M,,*52
06/11/2015	12:11:51.505	$GPGGA,121152,2423.5885,N,08134.2023,W,1,9,2.0,15,M,,M,,*51
06/11/2015	12:11:52.573	$GPGGA,121153,2423.5916,N,08134.1988,W,1,9,2.0,15,M,,M,,*50
06/11/2015	12:11:53.623	$GPGGA,121154,2423.5934,N,08134.1971,W,1,9,2.0,15,M,,M,,*51
06/11/2015	12:11:54.583	$GPGGA,121155,2423.5949,N,08134.1954,W,1,9,2.0,15,M,,M,,*5D
06/11/2015	12:11:55.613	$GPGGA,121156,2423.5966,N,08134.1936,W,1,9,2.0,15,M,,M,,*57
