Software Version Number: 1	Data File Format Number: 1	Build Version Number: 1	Error Count Since VI Started: 1	Manufacturer: Raytheon	 Model Number: RayMarine 120	 S/N: 	 Cal Date: 	 Wind Direction Offset: 0.00	 Slope (M)1: 0.00	 Offset (B)1: 0.00	 Slope (M)2: 0.00	 Offset (B)2: 0.00	 Slope (M)3: 0.00	 Offset (B)3: 0.00	 Slope (M)4: 0.00	 Offset (B)4: 0.00	 Slope (M)5: 0.00	 Offset (B)5: 0.00	 Slope (M)6: 0.00	 Offset (B)6: 0.00
Computer Date	Computer Time	GGA String
06/13/2015	20:00:00.609	$GPGGA,200001,2431.0008,N,08056.3490,W,1,11,1.3,23,M,,M,,*69
06/13/2015	20:00:01.629	$GPGGA,200002,2431.0016,N,08056.3475,W,1,11,1.3,23,M,,M,,*6E
06/13/2015	20:00:02.509	$GPGGA,200003,2431.0026,N,08056.3462,W,1,11,1.4,23,M,,M,,*6D
06/13/2015	20:00:03.519	$GPGGA,200004,2431.0034,N,08056.3450,W,1,10,1.5,23,M,,M,,*68
06/13/2015	20:00:04.591	$GPGGA,200005,2431.0044,N,08056.3438,W,1,10,1.3,23,M,,M,,*66
06/13/2015	20:00:05.619	$GPGGA,200006,2431.0052,N,08056.3425,W,1,11,1.3,23,M,,M,,*6F
06/13/2015	20:00:06.601	$GPGGA,200007,2431.0060,N,08056.3411,W,1,11,1.3,23,M,,M,,*68
06/13/2015	20:00:07.639	$GPGGA,200008,2431.0070,N,08056.3398,W,1,11,1.3,23,M,,M,,*60
06/13/2015	20:00:08.598	$GPGGA,200009,2431.0080,N,08056.3386,W,1,11,1.3,23,M,,M,,*61
06/13/2015	20:00:09.604	$GPGGA,200010,2431.0089,N,08056.3373,W,1,11,1.3,23,M,,M,,*6A
06/13/2015	20:00:10.595	$GPGGA,200011,2431.0098,N,08056.3359,W,1,11,1.3,23,M,,M,,*63
06/13/2015	20:00:11.602	$GPGGA,200012,2431.0107,N,08056.3346,W,1,10,1.4,23,M,,M,,*6F
06/13/2015	20:00:13.010	$GPGGA,200013,2431.0117,N,08056.3334,W,1,10,1.3,23,M,,M,,*6D
06/13/2015	20:00:13.601	$GPGGA,200014,2431.0128,N,08056.3321,W,1,11,1.3,23,M,,M,,*63
06/13/2015	20:00:14.570	$GPGGA,200015,2431.0138,N,08056.3308,W,1,11,1.3,23,M,,M,,*68
06/13/2015	20:00:15.603	$GPGGA,200016,2431.0146,N,08056.3294,W,1,11,1.3,23,M,,M,,*66
06/13/2015	20:00:16.579	$GPGGA,200017,2431.0154,N,08056.3279,W,1,11,1.3,23,M,,M,,*67
06/13/2015	20:00:17.559	$GPGGA,200018,2431.0165,N,08056.3267,W,1,11,1.3,23,M,,M,,*65
06/13/2015	20:00:18.579	$GPGGA,200019,2431.0175,N,08056.3256,W,1,11,1.3,23,M,,M,,*67
06/13/2015	20:00:19.599	$GPGGA,200020,2431.0185,N,08056.3241,W,1,11,1.3,23,M,,M,,*64
06/13/2015	20:00:20.579	$GPGGA,200021,2431.0193,N,08056.3226,W,1,11,1.3,23,M,,M,,*63
06/13/2015	20:00:21.569	$GPGGA,200022,2431.0204,N,08056.3217,W,1,11,1.3,23,M,,M,,*6F
06/13/2015	20:00:22.579	$GPGGA,200023,2431.0212,N,08056.3206,W,1,11,1.3,23,M,,M,,*69
06/13/2015	20:00:23.599	$GPGGA,200024,2431.0222,N,08056.3190,W,1,11,1.3,23,M,,M,,*61
06/13/2015	20:00:24.559	$GPGGA,200025,2431.0229,N,08056.3177,W,1,11,1.3,23,M,,M,,*62
06/13/2015	20:00:25.599	$GPGGA,200026,2431.0240,N,08056.3168,W,1,10,1.5,23,M,,M,,*67
06/13/2015	20:00:26.540	$GPGGA,200027,2431.0251,N,08056.3154,W,1,10,1.3,23,M,,M,,*6F
06/13/2015	20:00:27.600	$GPGGA,200028,2431.0260,N,08056.3141,W,1,11,1.3,23,M,,M,,*67
06/13/2015	20:00:28.550	$GPGGA,200029,2431.0269,N,08056.3129,W,1,11,1.3,23,M,,M,,*61
06/13/2015	20:00:29.570	$GPGGA,200030,2431.0279,N,08056.3116,W,1,10,1.4,23,M,,M,,*62
06/13/2015	20:00:30.540	$GPGGA,200031,2431.0289,N,08056.3104,W,1,10,1.4,23,M,,M,,*6F
06/13/2015	20:00:31.560	$GPGGA,200032,2431.0298,N,08056.3092,W,1,11,1.3,23,M,,M,,*64
06/13/2015	20:00:32.530	$GPGGA,200033,2431.0308,N,08056.3079,W,1,11,1.3,22,M,,M,,*69
06/13/2015	20:00:33.539	$GPGGA,200034,2431.0316,N,08056.3065,W,1,11,1.3,22,M,,M,,*6C
06/13/2015	20:00:34.549	$GPGGA,200035,2431.0327,N,08056.3053,W,1,11,1.3,22,M,,M,,*6A
06/13/2015	20:00:35.579	$GPGGA,200036,2431.0338,N,08056.3041,W,1,10,1.4,22,M,,M,,*62
06/13/2015	20:00:36.539	$GPGGA,200037,2431.0349,N,08056.3028,W,1,10,1.4,22,M,,M,,*6A
06/13/2015	20:00:37.559	$GPGGA,200038,2431.0359,N,08056.3014,W,1,11,1.3,22,M,,M,,*6D
06/13/2015	20:00:38.539	$GPGGA,200039,2431.0370,N,08056.3001,W,1,11,1.5,22,M,,M,,*65
06/13/2015	20:00:39.569	$GPGGA,200040,2431.0380,N,08056.2987,W,1,10,1.4,22,M,,M,,*62
06/13/2015	20:00:40.529	$GPGGA,200041,2431.0388,N,08056.2974,W,1,10,1.3,22,M,,M,,*60
06/13/2015	20:00:41.679	$GPGGA,200042,2431.0398,N,08056.2960,W,1,11,1.3,22,M,,M,,*66
06/13/2015	20:00:42.619	$GPGGA,200043,2431.0409,N,08056.2950,W,1,11,1.3,22,M,,M,,*6B
06/13/2015	20:00:43.679	$GPGGA,200044,2431.0420,N,08056.2937,W,1,11,1.4,23,M,,M,,*60
06/13/2015	20:00:44.510	$GPGGA,200045,2431.0428,N,08056.2923,W,1,11,1.4,23,M,,M,,*6C
06/13/2015	20:00:45.510	$GPGGA,200046,2431.0434,N,08056.2913,W,1,10,1.4,23,M,,M,,*60
06/13/2015	20:00:46.610	$GPGGA,200047,2431.0446,N,08056.2903,W,1,10,1.3,23,M,,M,,*62
06/13/2015	20:00:47.680	$GPGGA,200048,2431.0456,N,08056.2891,W,1,11,1.3,23,M,,M,,*67
06/13/2015	20:00:48.670	$GPGGA,200049,2431.0461,N,08056.2879,W,1,11,1.3,23,M,,M,,*64
06/13/2015	20:00:49.620	$GPGGA,200050,2431.0470,N,08056.2866,W,1,11,1.3,23,M,,M,,*62
06/13/2015	20:00:50.679	$GPGGA,200051,2431.0482,N,08056.2854,W,1,11,1.3,23,M,,M,,*6F
06/13/2015	20:00:51.690	$GPGGA,200052,2431.0489,N,08056.2844,W,1,10,1.3,23,M,,M,,*67
06/13/2015	20:00:52.589	$GPGGA,200053,2431.0496,N,08056.2833,W,1,10,1.3,23,M,,M,,*68
06/13/2015	20:00:53.619	$GPGGA,200054,2431.0506,N,08056.2821,W,1,11,1.3,23,M,,M,,*65
06/13/2015	20:00:54.659	$GPGGA,200055,2431.0514,N,08056.2808,W,1,11,1.3,23,M,,M,,*6C
06/13/2015	20:00:55.602	$GPGGA,200056,2431.0522,N,08056.2797,W,1,11,1.3,23,M,,M,,*63
06/13/2015	20:00:56.659	$GPGGA,200057,2431.0531,N,08056.2785,W,1,11,1.3,23,M,,M,,*63
06/13/2015	20:00:57.579	$GPGGA,200058,2431.0540,N,08056.2772,W,1,11,1.3,23,M,,M,,*62
06/13/2015	20:00:58.629	$GPGGA,200059,2431.0549,N,08056.2758,W,1,11,1.3,23,M,,M,,*62
06/13/2015	20:00:59.669	$GPGGA,200100,2431.0558,N,08056.2744,W,1,11,1.3,23,M,,M,,*62
06/13/2015	20:01:00.569	$GPGGA,200101,2431.0568,N,08056.2731,W,1,11,1.5,24,M,,M,,*63
06/13/2015	20:01:01.620	$GPGGA,200102,2431.0576,N,08056.2718,W,1,10,1.5,24,M,,M,,*65
06/13/2015	20:01:02.570	$GPGGA,200103,2431.0584,N,08056.2705,W,1,10,1.3,24,M,,M,,*63
06/13/2015	20:01:03.650	$GPGGA,200104,2431.0594,N,08056.2691,W,1,11,1.3,24,M,,M,,*68
06/13/2015	20:01:04.640	$GPGGA,200105,2431.0602,N,08056.2677,W,1,11,1.3,24,M,,M,,*6D
06/13/2015	20:01:05.620	$GPGGA,200106,2431.0611,N,08056.2664,W,1,10,1.3,24,M,,M,,*6F
06/13/2015	20:01:06.620	$GPGGA,200107,2431.0620,N,08056.2652,W,1,10,1.3,24,M,,M,,*69
06/13/2015	20:01:07.610	$GPGGA,200108,2431.0629,N,08056.2637,W,1,11,1.3,24,M,,M,,*6D
06/13/2015	20:01:08.609	$GPGGA,200109,2431.0638,N,08056.2622,W,1,11,1.4,24,M,,M,,*6F
06/13/2015	20:01:09.599	$GPGGA,200110,2431.0652,N,08056.2610,W,1,10,1.4,24,M,,M,,*6B
06/13/2015	20:01:10.629	$GPGGA,200111,2431.0662,N,08056.2596,W,1,10,1.3,24,M,,M,,*63
06/13/2015	20:01:11.609	$GPGGA,200112,2431.0670,N,08056.2581,W,1,11,1.3,24,M,,M,,*64
06/13/2015	20:01:12.619	$GPGGA,200113,2431.0681,N,08056.2565,W,1,11,1.3,24,M,,M,,*61
06/13/2015	20:01:13.601	$GPGGA,200114,2431.0691,N,08056.2551,W,1,11,1.3,24,M,,M,,*60
06/13/2015	20:01:14.599	$GPGGA,200115,2431.0702,N,08056.2538,W,1,11,1.3,24,M,,M,,*65
06/13/2015	20:01:15.559	$GPGGA,200116,2431.0713,N,08056.2523,W,1,11,1.3,24,M,,M,,*6C
06/13/2015	20:01:16.599	$GPGGA,200117,2431.0721,N,08056.2507,W,1,11,1.3,24,M,,M,,*6A
06/13/2015	20:01:17.601	$GPGGA,200118,2431.0731,N,08056.2495,W,1,10,1.3,24,M,,M,,*6F
06/13/2015	20:01:18.600	$GPGGA,200119,2431.0742,N,08056.2482,W,1,10,1.3,24,M,,M,,*6C
06/13/2015	20:01:19.540	$GPGGA,200120,2431.0753,N,08056.2466,W,1,11,1.3,24,M,,M,,*6D
06/13/2015	20:01:20.603	$GPGGA,200121,2431.0761,N,08056.2452,W,1,11,1.3,24,M,,M,,*6A
06/13/2015	20:01:21.570	$GPGGA,200122,2431.0774,N,08056.2439,W,1,11,1.3,24,M,,M,,*60
06/13/2015	20:01:22.530	$GPGGA,200123,2431.0782,N,08056.2425,W,1,11,1.3,24,M,,M,,*65
06/13/2015	20:01:23.620	$GPGGA,200124,2431.0792,N,08056.2411,W,1,11,1.3,24,M,,M,,*64
06/13/2015	20:01:24.600	$GPGGA,200125,2431.0804,N,08056.2397,W,1,11,1.3,24,M,,M,,*6C
06/13/2015	20:01:25.619	$GPGGA,200126,2431.0813,N,08056.2384,W,1,11,1.3,24,M,,M,,*6B
06/13/2015	20:01:26.579	$GPGGA,200127,2431.0820,N,08056.2370,W,1,11,1.4,24,M,,M,,*66
06/13/2015	20:01:27.589	$GPGGA,200128,2431.0831,N,08056.2355,W,1,10,1.4,24,M,,M,,*6F
06/13/2015	20:01:28.619	$GPGGA,200129,2431.0840,N,08056.2342,W,1,10,1.3,24,M,,M,,*69
06/13/2015	20:01:29.639	$GPGGA,200130,2431.0850,N,08056.2329,W,1,11,1.3,24,M,,M,,*6C
06/13/2015	20:01:30.582	$GPGGA,200131,2431.0861,N,08056.2314,W,1,11,1.3,24,M,,M,,*61
06/13/2015	20:01:31.582	$GPGGA,200132,2431.0869,N,08056.2300,W,1,11,1.3,24,M,,M,,*6F
06/13/2015	20:01:32.579	$GPGGA,200133,2431.0878,N,08056.2286,W,1,11,1.4,24,M,,M,,*66
06/13/2015	20:01:33.599	$GPGGA,200134,2431.0889,N,08056.2274,W,1,10,1.3,24,M,,M,,*64
06/13/2015	20:01:34.559	$GPGGA,200135,2431.0900,N,08056.2262,W,1,10,1.4,24,M,,M,,*65
06/13/2015	20:01:35.604	$GPGGA,200136,2431.0909,N,08056.2247,W,1,10,1.3,24,M,,M,,*6F
06/13/2015	20:01:36.600	$GPGGA,200137,2431.0919,N,08056.2232,W,1,10,1.4,24,M,,M,,*6A
06/13/2015	20:01:37.630	$GPGGA,200138,2431.0930,N,08056.2220,W,1,10,1.3,24,M,,M,,*6A
06/13/2015	20:01:38.591	$GPGGA,200139,2431.0941,N,08056.2206,W,1,10,1.3,24,M,,M,,*69
06/13/2015	20:01:39.640	$GPGGA,200140,2431.0952,N,08056.2192,W,1,11,1.3,24,M,,M,,*6A
06/13/2015	20:01:40.591	$GPGGA,200141,2431.0963,N,08056.2178,W,1,11,1.3,24,M,,M,,*6D
06/13/2015	20:01:41.603	$GPGGA,200142,2431.0972,N,08056.2165,W,1,11,1.3,24,M,,M,,*62
06/13/2015	20:01:42.560	$GPGGA,200143,2431.0983,N,08056.2150,W,1,11,1.4,24,M,,M,,*6C
06/13/2015	20:01:43.629	$GPGGA,200144,2431.0994,N,08056.2136,W,1,10,1.4,24,M,,M,,*6C
06/13/2015	20:01:44.579	$GPGGA,200145,2431.1006,N,08056.2123,W,1,10,1.3,24,M,,M,,*6D
06/13/2015	20:01:45.604	$GPGGA,200146,2431.1017,N,08056.2110,W,1,11,1.3,24,M,,M,,*6F
06/13/2015	20:01:46.602	$GPGGA,200147,2431.1027,N,08056.2094,W,1,11,1.3,24,M,,M,,*60
06/13/2015	20:01:47.619	$GPGGA,200148,2431.1037,N,08056.2081,W,1,11,1.4,24,M,,M,,*6D
06/13/2015	20:01:48.592	$GPGGA,200149,2431.1049,N,08056.2072,W,1,11,1.4,24,M,,M,,*69
06/13/2015	20:01:49.606	$GPGGA,200150,2431.1060,N,08056.2059,W,1,11,1.3,24,M,,M,,*64
06/13/2015	20:01:50.579	$GPGGA,200151,2431.1067,N,08056.2044,W,1,11,1.3,24,M,,M,,*6E
06/13/2015	20:01:51.639	$GPGGA,200152,2431.1077,N,08056.2032,W,1,11,1.3,24,M,,M,,*6D
06/13/2015	20:01:52.579	$GPGGA,200153,2431.1089,N,08056.2019,W,1,11,1.3,24,M,,M,,*64
06/13/2015	20:01:53.579	$GPGGA,200154,2431.1099,N,08056.2006,W,1,11,1.3,24,M,,M,,*6C
06/13/2015	20:01:54.580	$GPGGA,200155,2431.1107,N,08056.1992,W,1,11,1.4,24,M,,M,,*6B
06/13/2015	20:01:55.602	$GPGGA,200156,2431.1117,N,08056.1977,W,1,10,1.3,24,M,,M,,*64
06/13/2015	20:01:56.560	$GPGGA,200157,2431.1117,N,08056.1977,W,1,10,1.3,24,M,,M,,*65
06/13/2015	20:01:57.560	$GPGGA,200158,2431.1136,N,08056.1952,W,1,11,1.3,24,M,,M,,*6F
06/13/2015	20:01:58.560	$GPGGA,200159,2431.1136,N,08056.1952,W,1,11,1.3,23,M,,M,,*69
06/13/2015	20:01:59.640	$GPGGA,200200,2431.1154,N,08056.1922,W,1,11,1.3,23,M,,M,,*65
06/13/2015	20:02:00.600	$GPGGA,200201,2431.1154,N,08056.1922,W,1,11,1.3,23,M,,M,,*64
06/13/2015	20:02:01.579	$GPGGA,200202,2431.1175,N,08056.1895,W,1,11,1.3,23,M,,M,,*69
06/13/2015	20:02:02.579	$GPGGA,200203,2431.1183,N,08056.1880,W,1,11,1.3,23,M,,M,,*65
06/13/2015	20:02:03.580	$GPGGA,200204,2431.1193,N,08056.1865,W,1,11,1.3,23,M,,M,,*68
06/13/2015	20:02:04.549	$GPGGA,200205,2431.1204,N,08056.1852,W,1,11,1.3,23,M,,M,,*60
06/13/2015	20:02:05.549	$GPGGA,200206,2431.1212,N,08056.1837,W,1,11,1.3,23,M,,M,,*67
06/13/2015	20:02:06.619	$GPGGA,200207,2431.1221,N,08056.1822,W,1,11,1.3,23,M,,M,,*62
06/13/2015	20:02:07.539	$GPGGA,200208,2431.1232,N,08056.1808,W,1,11,1.3,23,M,,M,,*67
06/13/2015	20:02:08.559	$GPGGA,200209,2431.1243,N,08056.1794,W,1,11,1.3,23,M,,M,,*6A
06/13/2015	20:02:09.519	$GPGGA,200210,2431.1252,N,08056.1778,W,1,11,1.3,23,M,,M,,*60
06/13/2015	20:02:10.639	$GPGGA,200211,2431.1259,N,08056.1762,W,1,11,1.3,23,M,,M,,*61
06/13/2015	20:02:11.559	$GPGGA,200212,2431.1270,N,08056.1749,W,1,11,1.3,23,M,,M,,*60
06/13/2015	20:02:12.529	$GPGGA,200213,2431.1270,N,08056.1749,W,1,11,1.3,23,M,,M,,*61
06/13/2015	20:02:13.529	$GPGGA,200214,2431.1292,N,08056.1718,W,1,11,1.3,23,M,,M,,*6E
06/13/2015	20:02:14.519	$GPGGA,200215,2431.1292,N,08056.1718,W,1,11,1.3,23,M,,M,,*6F
06/13/2015	20:02:15.659	$GPGGA,200216,2431.1313,N,08056.1690,W,1,11,1.3,23,M,,M,,*65
06/13/2015	20:02:16.549	$GPGGA,200217,2431.1313,N,08056.1690,W,1,11,1.3,23,M,,M,,*64
06/13/2015	20:02:17.539	$GPGGA,200218,2431.1331,N,08056.1660,W,1,11,1.3,23,M,,M,,*64
06/13/2015	20:02:18.598	$GPGGA,200219,2431.1344,N,08056.1646,W,1,11,1.3,23,M,,M,,*63
06/13/2015	20:02:19.618	$GPGGA,200220,2431.1353,N,08056.1630,W,1,11,1.3,23,M,,M,,*6E
06/13/2015	20:02:20.598	$GPGGA,200221,2431.1360,N,08056.1615,W,1,11,1.3,23,M,,M,,*68
06/13/2015	20:02:21.618	$GPGGA,200222,2431.1371,N,08056.1602,W,1,11,1.3,23,M,,M,,*6D
06/13/2015	20:02:22.590	$GPGGA,200223,2431.1382,N,08056.1587,W,1,11,1.3,22,M,,M,,*6F
06/13/2015	20:02:23.519	$GPGGA,200224,2431.1389,N,08056.1570,W,1,11,1.3,22,M,,M,,*6B
06/13/2015	20:02:24.589	$GPGGA,200225,2431.1400,N,08056.1558,W,1,11,1.4,22,M,,M,,*61
06/13/2015	20:02:25.629	$GPGGA,200226,2431.1411,N,08056.1545,W,1,11,1.3,22,M,,M,,*69
06/13/2015	20:02:26.579	$GPGGA,200227,2431.1418,N,08056.1528,W,1,11,1.3,22,M,,M,,*6A
06/13/2015	20:02:27.609	$GPGGA,200228,2431.1428,N,08056.1514,W,1,11,1.3,22,M,,M,,*69
06/13/2015	20:02:28.590	$GPGGA,200229,2431.1439,N,08056.1502,W,1,11,1.3,22,M,,M,,*6F
06/13/2015	20:02:29.579	$GPGGA,200230,2431.1447,N,08056.1488,W,1,11,1.3,22,M,,M,,*6D
06/13/2015	20:02:30.583	$GPGGA,200231,2431.1457,N,08056.1474,W,1,11,1.3,22,M,,M,,*6E
06/13/2015	20:02:31.596	$GPGGA,200232,2431.1467,N,08056.1459,W,1,11,1.3,22,M,,M,,*61
06/13/2015	20:02:32.559	$GPGGA,200233,2431.1478,N,08056.1447,W,1,11,1.3,22,M,,M,,*61
06/13/2015	20:02:33.583	$GPGGA,200234,2431.1487,N,08056.1435,W,1,11,1.3,22,M,,M,,*63
06/13/2015	20:02:34.559	$GPGGA,200235,2431.1497,N,08056.1418,W,1,11,1.3,22,M,,M,,*6C
06/13/2015	20:02:35.608	$GPGGA,200236,2431.1505,N,08056.1406,W,1,10,1.4,22,M,,M,,*6C
06/13/2015	20:02:36.568	$GPGGA,200237,2431.1516,N,08056.1395,W,1,10,1.4,22,M,,M,,*62
06/13/2015	20:02:37.594	$GPGGA,200238,2431.1527,N,08056.1381,W,1,11,1.3,22,M,,M,,*6C
06/13/2015	20:02:38.591	$GPGGA,200239,2431.1536,N,08056.1367,W,1,11,1.3,22,M,,M,,*65
06/13/2015	20:02:39.599	$GPGGA,200240,2431.1544,N,08056.1354,W,1,11,1.3,22,M,,M,,*6E
06/13/2015	20:02:40.559	$GPGGA,200241,2431.1555,N,08056.1341,W,1,11,1.3,21,M,,M,,*68
06/13/2015	20:02:41.549	$GPGGA,200242,2431.1563,N,08056.1328,W,1,11,1.3,21,M,,M,,*61
06/13/2015	20:02:42.549	$GPGGA,200243,2431.1573,N,08056.1314,W,1,11,1.4,21,M,,M,,*69
06/13/2015	20:02:43.589	$GPGGA,200244,2431.1584,N,08056.1301,W,1,10,1.4,21,M,,M,,*63
06/13/2015	20:02:44.539	$GPGGA,200245,2431.1595,N,08056.1289,W,1,10,1.3,21,M,,M,,*64
06/13/2015	20:02:45.559	$GPGGA,200246,2431.1602,N,08056.1274,W,1,11,1.3,21,M,,M,,*69
06/13/2015	20:02:46.549	$GPGGA,200247,2431.1613,N,08056.1262,W,1,11,1.3,21,M,,M,,*6F
06/13/2015	20:02:47.559	$GPGGA,200248,2431.1624,N,08056.1252,W,1,11,1.3,21,M,,M,,*67
06/13/2015	20:02:48.529	$GPGGA,200249,2431.1634,N,08056.1237,W,1,11,1.3,22,M,,M,,*67
06/13/2015	20:02:49.539	$GPGGA,200250,2431.1642,N,08056.1223,W,1,11,1.3,22,M,,M,,*6B
06/13/2015	20:02:50.529	$GPGGA,200251,2431.1652,N,08056.1211,W,1,11,1.3,22,M,,M,,*6A
06/13/2015	20:02:51.559	$GPGGA,200252,2431.1664,N,08056.1199,W,1,11,1.3,22,M,,M,,*6F
06/13/2015	20:02:52.539	$GPGGA,200253,2431.1673,N,08056.1185,W,1,11,1.3,22,M,,M,,*65
06/13/2015	20:02:53.538	$GPGGA,200254,2431.1682,N,08056.1171,W,1,11,1.3,22,M,,M,,*67
06/13/2015	20:02:54.518	$GPGGA,200255,2431.1692,N,08056.1158,W,1,11,1.3,22,M,,M,,*6C
06/13/2015	20:02:55.558	$GPGGA,200256,2431.1703,N,08056.1148,W,1,10,1.4,22,M,,M,,*61
06/13/2015	20:02:56.628	$GPGGA,200257,2431.1713,N,08056.1135,W,1,10,1.3,22,M,,M,,*6C
06/13/2015	20:02:57.619	$GPGGA,200258,2431.1721,N,08056.1120,W,1,11,1.3,22,M,,M,,*67
06/13/2015	20:02:58.609	$GPGGA,200259,2431.1731,N,08056.1107,W,1,11,1.3,22,M,,M,,*62
06/13/2015	20:02:59.569	$GPGGA,200300,2431.1740,N,08056.1096,W,1,11,1.3,22,M,,M,,*60
06/13/2015	20:03:00.499	$GPGGA,200301,2431.1750,N,08056.1083,W,1,11,1.3,22,M,,M,,*64
06/13/2015	20:03:01.519	$GPGGA,200302,2431.1761,N,08056.1069,W,1,10,1.4,22,M,,M,,*67
06/13/2015	20:03:02.599	$GPGGA,200303,2431.1771,N,08056.1056,W,1,10,1.3,22,M,,M,,*6C
06/13/2015	20:03:03.509	$GPGGA,200304,2431.1779,N,08056.1043,W,1,11,1.3,22,M,,M,,*66
06/13/2015	20:03:04.595	$GPGGA,200305,2431.1790,N,08056.1030,W,1,11,1.3,22,M,,M,,*64
06/13/2015	20:03:05.499	$GPGGA,200306,2431.1799,N,08056.1017,W,1,11,1.3,22,M,,M,,*6B
06/13/2015	20:03:06.599	$GPGGA,200307,2431.1808,N,08056.1003,W,1,11,1.3,22,M,,M,,*68
06/13/2015	20:03:07.609	$GPGGA,200308,2431.1819,N,08056.0988,W,1,11,1.3,22,M,,M,,*6C
06/13/2015	20:03:09.059	$GPGGA,200309,2431.1829,N,08056.0976,W,1,11,1.3,22,M,,M,,*6F
06/13/2015	20:03:09.619	$GPGGA,200310,2431.1839,N,08056.0964,W,1,11,1.3,22,M,,M,,*65
06/13/2015	20:03:10.591	$GPGGA,200311,2431.1848,N,08056.0949,W,1,11,1.3,22,M,,M,,*6D
06/13/2015	20:03:11.498	$GPGGA,200312,2431.1857,N,08056.0934,W,1,10,1.4,22,M,,M,,*6C
06/13/2015	20:03:12.581	$GPGGA,200313,2431.1869,N,08056.0924,W,1,10,1.4,22,M,,M,,*61
06/13/2015	20:03:13.618	$GPGGA,200314,2431.1877,N,08056.0908,W,1,10,1.4,22,M,,M,,*67
06/13/2015	20:03:14.494	$GPGGA,200315,2431.1886,N,08056.0894,W,1,10,1.4,22,M,,M,,*6C
06/13/2015	20:03:15.584	$GPGGA,200316,2431.1898,N,08056.0885,W,1,9,1.6,22,M,,M,,*5A
06/13/2015	20:03:16.582	$GPGGA,200317,2431.1909,N,08056.0872,W,1,9,1.3,22,M,,M,,*5F
06/13/2015	20:03:17.599	$GPGGA,200318,2431.1917,N,08056.0857,W,1,11,1.3,22,M,,M,,*61
06/13/2015	20:03:18.559	$GPGGA,200319,2431.1924,N,08056.0846,W,1,11,1.3,22,M,,M,,*60
06/13/2015	20:03:19.599	$GPGGA,200320,2431.1935,N,08056.0835,W,1,11,1.3,22,M,,M,,*6E
06/13/2015	20:03:20.569	$GPGGA,200321,2431.1946,N,08056.0822,W,1,11,1.3,22,M,,M,,*6D
06/13/2015	20:03:21.599	$GPGGA,200322,2431.1952,N,08056.0808,W,1,11,1.3,22,M,,M,,*63
06/13/2015	20:03:22.569	$GPGGA,200323,2431.1956,N,08056.0800,W,1,11,1.5,22,M,,M,,*68
06/13/2015	20:03:23.599	$GPGGA,200324,2431.1967,N,08056.0791,W,1,11,1.3,22,M,,M,,*6C
06/13/2015	20:03:24.559	$GPGGA,200325,2431.1977,N,08056.0777,W,1,11,1.3,22,M,,M,,*64
06/13/2015	20:03:25.549	$GPGGA,200326,2431.1982,N,08056.0764,W,1,11,1.3,22,M,,M,,*6F
06/13/2015	20:03:26.559	$GPGGA,200327,2431.1992,N,08056.0754,W,1,11,1.3,22,M,,M,,*6C
06/13/2015	20:03:27.589	$GPGGA,200328,2431.2003,N,08056.0743,W,1,11,1.3,22,M,,M,,*67
06/13/2015	20:03:28.558	$GPGGA,200329,2431.2010,N,08056.0730,W,1,11,1.4,22,M,,M,,*67
06/13/2015	20:03:29.548	$GPGGA,200330,2431.2018,N,08056.0717,W,1,11,1.3,22,M,,M,,*65
06/13/2015	20:03:30.548	$GPGGA,200331,2431.2029,N,08056.0706,W,1,11,1.3,22,M,,M,,*66
06/13/2015	20:03:31.548	$GPGGA,200332,2431.2038,N,08056.0694,W,1,11,1.3,22,M,,M,,*6F
06/13/2015	20:03:32.549	$GPGGA,200333,2431.2046,N,08056.0681,W,1,11,1.3,22,M,,M,,*63
06/13/2015	20:03:33.539	$GPGGA,200334,2431.2057,N,08056.0669,W,1,11,1.3,22,M,,M,,*62
06/13/2015	20:03:34.549	$GPGGA,200335,2431.2067,N,08056.0657,W,1,11,1.3,22,M,,M,,*6D
06/13/2015	20:03:35.539	$GPGGA,200336,2431.2075,N,08056.0642,W,1,11,1.3,22,M,,M,,*69
06/13/2015	20:03:36.649	$GPGGA,200337,2431.2083,N,08056.0630,W,1,11,1.3,22,M,,M,,*64
06/13/2015	20:03:37.549	$GPGGA,200338,2431.2094,N,08056.0619,W,1,11,1.3,22,M,,M,,*66
06/13/2015	20:03:38.519	$GPGGA,200339,2431.2104,N,08056.0605,W,1,11,1.3,22,M,,M,,*62
06/13/2015	20:03:39.529	$GPGGA,200340,2431.2112,N,08056.0591,W,1,10,1.4,23,M,,M,,*62
06/13/2015	20:03:40.619	$GPGGA,200341,2431.2122,N,08056.0580,W,1,10,1.3,23,M,,M,,*67
06/13/2015	20:03:41.519	$GPGGA,200342,2431.2133,N,08056.0567,W,1,11,1.3,23,M,,M,,*6C
06/13/2015	20:03:42.519	$GPGGA,200343,2431.2141,N,08056.0553,W,1,11,1.3,23,M,,M,,*6F
06/13/2015	20:03:43.549	$GPGGA,200344,2431.2148,N,08056.0540,W,1,10,1.4,23,M,,M,,*65
06/13/2015	20:03:44.529	$GPGGA,200345,2431.2161,N,08056.0527,W,1,10,1.5,23,M,,M,,*6F
06/13/2015	20:03:45.508	$GPGGA,200346,2431.2170,N,08056.0512,W,1,11,1.3,23,M,,M,,*6D
06/13/2015	20:03:46.518	$GPGGA,200347,2431.2177,N,08056.0498,W,1,11,1.3,23,M,,M,,*68
06/13/2015	20:03:47.628	$GPGGA,200348,2431.2187,N,08056.0487,W,1,10,1.4,23,M,,M,,*60
06/13/2015	20:03:48.618	$GPGGA,200349,2431.2198,N,08056.0473,W,1,10,1.3,23,M,,M,,*63
06/13/2015	20:03:49.499	$GPGGA,200350,2431.2206,N,08056.0459,W,1,11,1.3,23,M,,M,,*66
06/13/2015	20:03:50.509	$GPGGA,200351,2431.2215,N,08056.0446,W,1,11,1.3,23,M,,M,,*6B
06/13/2015	20:03:51.639	$GPGGA,200352,2431.2224,N,08056.0432,W,1,11,1.3,23,M,,M,,*69
06/13/2015	20:03:52.595	$GPGGA,200353,2431.2234,N,08056.0419,W,1,11,1.3,23,M,,M,,*60
06/13/2015	20:03:53.609	$GPGGA,200354,2431.2242,N,08056.0406,W,1,11,1.3,23,M,,M,,*68
06/13/2015	20:03:54.591	$GPGGA,200355,2431.2253,N,08056.0393,W,1,11,1.3,23,M,,M,,*62
06/13/2015	20:03:55.599	$GPGGA,200356,2431.2262,N,08056.0380,W,1,11,1.3,23,M,,M,,*61
06/13/2015	20:03:56.489	$GPGGA,200357,2431.2270,N,08056.0367,W,1,11,1.4,23,M,,M,,*6D
06/13/2015	20:03:57.594	$GPGGA,200358,2431.2280,N,08056.0354,W,1,11,1.3,23,M,,M,,*6A
06/13/2015	20:03:58.594	$GPGGA,200359,2431.2291,N,08056.0341,W,1,11,1.3,23,M,,M,,*6F
06/13/2015	20:03:59.669	$GPGGA,200400,2431.2299,N,08056.0326,W,1,11,1.3,23,M,,M,,*6D
06/13/2015	20:04:00.589	$GPGGA,200401,2431.2307,N,08056.0312,W,1,11,1.3,23,M,,M,,*6D
06/13/2015	20:04:01.569	$GPGGA,200402,2431.2318,N,08056.0299,W,1,11,1.3,23,M,,M,,*62
06/13/2015	20:04:02.589	$GPGGA,200403,2431.2328,N,08056.0284,W,1,11,1.3,23,M,,M,,*6C
06/13/2015	20:04:03.592	$GPGGA,200404,2431.2336,N,08056.0271,W,1,11,1.3,23,M,,M,,*6E
06/13/2015	20:04:04.568	$GPGGA,200405,2431.2346,N,08056.0258,W,1,11,1.4,23,M,,M,,*64
06/13/2015	20:04:05.598	$GPGGA,200406,2431.2357,N,08056.0243,W,1,11,1.3,23,M,,M,,*6A
06/13/2015	20:04:06.568	$GPGGA,200407,2431.2367,N,08056.0230,W,1,11,1.3,23,M,,M,,*6C
06/13/2015	20:04:07.599	$GPGGA,200408,2431.2374,N,08056.0215,W,1,11,1.3,23,M,,M,,*66
06/13/2015	20:04:08.569	$GPGGA,200409,2431.2385,N,08056.0201,W,1,11,1.3,23,M,,M,,*6C
06/13/2015	20:04:09.559	$GPGGA,200410,2431.2396,N,08056.0189,W,1,10,1.4,23,M,,M,,*63
06/13/2015	20:04:10.559	$GPGGA,200411,2431.2407,N,08056.0176,W,1,10,1.3,23,M,,M,,*6A
06/13/2015	20:04:11.560	$GPGGA,200412,2431.2417,N,08056.0160,W,1,11,1.3,23,M,,M,,*6E
06/13/2015	20:04:12.559	$GPGGA,200413,2431.2425,N,08056.0147,W,1,11,1.3,23,M,,M,,*6B
06/13/2015	20:04:13.549	$GPGGA,200414,2431.2436,N,08056.0135,W,1,11,1.3,23,M,,M,,*6B
06/13/2015	20:04:14.559	$GPGGA,200415,2431.2447,N,08056.0120,W,1,11,1.3,23,M,,M,,*68
06/13/2015	20:04:15.549	$GPGGA,200416,2431.2455,N,08056.0106,W,1,11,1.3,23,M,,M,,*6C
06/13/2015	20:04:16.539	$GPGGA,200417,2431.2465,N,08056.0091,W,1,11,1.3,23,M,,M,,*61
06/13/2015	20:04:17.529	$GPGGA,200418,2431.2476,N,08056.0078,W,1,11,1.3,23,M,,M,,*6B
06/13/2015	20:04:18.549	$GPGGA,200419,2431.2484,N,08056.0065,W,1,11,1.3,23,M,,M,,*6B
06/13/2015	20:04:19.559	$GPGGA,200420,2431.2494,N,08056.0049,W,1,11,1.3,23,M,,M,,*6E
06/13/2015	20:04:20.548	$GPGGA,200421,2431.2505,N,08056.0036,W,1,11,1.3,23,M,,M,,*6E
06/13/2015	20:04:21.528	$GPGGA,200422,2431.2516,N,08056.0023,W,1,11,1.3,23,M,,M,,*6B
06/13/2015	20:04:22.548	$GPGGA,200423,2431.2523,N,08056.0006,W,1,11,1.3,22,M,,M,,*6A
06/13/2015	20:04:23.578	$GPGGA,200424,2431.2534,N,08055.9994,W,1,11,1.3,22,M,,M,,*63
06/13/2015	20:04:24.539	$GPGGA,200425,2431.2549,N,08055.9984,W,1,11,1.3,22,M,,M,,*69
06/13/2015	20:04:25.519	$GPGGA,200426,2431.2556,N,08055.9968,W,1,11,1.3,22,M,,M,,*66
06/13/2015	20:04:26.609	$GPGGA,200427,2431.2565,N,08055.9953,W,1,11,1.3,22,M,,M,,*6F
06/13/2015	20:04:27.639	$GPGGA,200428,2431.2577,N,08055.9942,W,1,11,1.3,22,M,,M,,*63
06/13/2015	20:04:28.519	$GPGGA,200429,2431.2589,N,08055.9931,W,1,11,1.3,22,M,,M,,*67
06/13/2015	20:04:29.509	$GPGGA,200430,2431.2598,N,08055.9917,W,1,11,1.3,22,M,,M,,*6B
06/13/2015	20:04:30.619	$GPGGA,200431,2431.2607,N,08055.9901,W,1,11,1.3,22,M,,M,,*68
06/13/2015	20:04:31.519	$GPGGA,200432,2431.2617,N,08055.9889,W,1,11,1.3,22,M,,M,,*6B
06/13/2015	20:04:32.499	$GPGGA,200433,2431.2628,N,08055.9878,W,1,11,1.3,22,M,,M,,*68
06/13/2015	20:04:33.499	$GPGGA,200434,2431.2639,N,08055.9865,W,1,11,1.3,22,M,,M,,*63
06/13/2015	20:04:34.499	$GPGGA,200435,2431.2646,N,08055.9849,W,1,11,1.4,22,M,,M,,*63
06/13/2015	20:04:35.519	$GPGGA,200436,2431.2657,N,08055.9836,W,1,10,1.4,22,M,,M,,*69
06/13/2015	20:04:36.595	$GPGGA,200437,2431.2671,N,08055.9824,W,1,10,1.3,22,M,,M,,*68
06/13/2015	20:04:37.489	$GPGGA,200438,2431.2682,N,08055.9812,W,1,11,1.3,22,M,,M,,*6F
06/13/2015	20:04:38.598	$GPGGA,200439,2431.2689,N,08055.9800,W,1,11,1.3,22,M,,M,,*66
06/13/2015	20:04:39.618	$GPGGA,200440,2431.2699,N,08055.9785,W,1,11,1.3,22,M,,M,,*6B
06/13/2015	20:04:40.608	$GPGGA,200441,2431.2711,N,08055.9774,W,1,11,1.3,22,M,,M,,*65
06/13/2015	20:04:41.498	$GPGGA,200442,2431.2721,N,08055.9764,W,1,11,1.3,22,M,,M,,*64
06/13/2015	20:04:42.595	$GPGGA,200443,2431.2729,N,08055.9750,W,1,11,1.5,22,M,,M,,*6C
06/13/2015	20:04:43.619	$GPGGA,200444,2431.2739,N,08055.9738,W,1,11,1.3,22,M,,M,,*62
06/13/2015	20:04:44.599	$GPGGA,200445,2431.2748,N,08055.9726,W,1,11,1.3,22,M,,M,,*6A
06/13/2015	20:04:45.569	$GPGGA,200446,2431.2760,N,08055.9713,W,1,11,1.3,22,M,,M,,*65
06/13/2015	20:04:46.581	$GPGGA,200447,2431.2769,N,08055.9703,W,1,11,1.3,22,M,,M,,*6C
06/13/2015	20:04:47.619	$GPGGA,200448,2431.2779,N,08055.9691,W,1,11,1.3,22,M,,M,,*68
06/13/2015	20:04:48.579	$GPGGA,200449,2431.2789,N,08055.9675,W,1,11,1.3,22,M,,M,,*6C
06/13/2015	20:04:49.609	$GPGGA,200450,2431.2798,N,08055.9664,W,1,11,1.3,22,M,,M,,*64
06/13/2015	20:04:50.591	$GPGGA,200451,2431.2808,N,08055.9654,W,1,11,1.3,22,M,,M,,*60
06/13/2015	20:04:51.629	$GPGGA,200452,2431.2818,N,08055.9640,W,1,11,1.3,22,M,,M,,*67
06/13/2015	20:04:52.569	$GPGGA,200453,2431.2824,N,08055.9627,W,1,11,1.3,22,M,,M,,*68
06/13/2015	20:04:53.589	$GPGGA,200454,2431.2834,N,08055.9614,W,1,11,1.3,22,M,,M,,*6E
06/13/2015	20:04:54.559	$GPGGA,200455,2431.2847,N,08055.9602,W,1,11,1.3,22,M,,M,,*6C
06/13/2015	20:04:55.608	$GPGGA,200456,2431.2855,N,08055.9591,W,1,11,1.3,22,M,,M,,*65
06/13/2015	20:04:56.559	$GPGGA,200457,2431.2863,N,08055.9577,W,1,11,1.3,22,M,,M,,*69
06/13/2015	20:04:57.588	$GPGGA,200458,2431.2873,N,08055.9563,W,1,11,1.3,22,M,,M,,*62
06/13/2015	20:04:58.548	$GPGGA,200459,2431.2883,N,08055.9553,W,1,11,1.3,21,M,,M,,*6C
06/13/2015	20:04:59.599	$GPGGA,200500,2431.2891,N,08055.9541,W,1,11,1.3,21,M,,M,,*61
06/13/2015	20:05:00.549	$GPGGA,200501,2431.2901,N,08055.9527,W,1,11,1.3,21,M,,M,,*68
06/13/2015	20:05:01.559	$GPGGA,200502,2431.2910,N,08055.9515,W,1,11,1.3,21,M,,M,,*6A
06/13/2015	20:05:02.549	$GPGGA,200503,2431.2920,N,08055.9502,W,1,11,1.3,21,M,,M,,*6E
06/13/2015	20:05:03.550	$GPGGA,200504,2431.2928,N,08055.9489,W,1,11,1.3,21,M,,M,,*63
06/13/2015	20:05:04.539	$GPGGA,200505,2431.2938,N,08055.9477,W,1,11,1.3,21,M,,M,,*62
06/13/2015	20:05:05.579	$GPGGA,200506,2431.2946,N,08055.9465,W,1,10,1.5,21,M,,M,,*6C
06/13/2015	20:05:06.649	$GPGGA,200507,2431.2956,N,08055.9451,W,1,10,1.3,21,M,,M,,*6D
06/13/2015	20:05:07.539	$GPGGA,200508,2431.2963,N,08055.9438,W,1,11,1.3,21,M,,M,,*6A
06/13/2015	20:05:08.539	$GPGGA,200509,2431.2971,N,08055.9427,W,1,11,1.3,21,M,,M,,*66
06/13/2015	20:05:09.559	$GPGGA,200510,2431.2982,N,08055.9415,W,1,11,1.3,21,M,,M,,*63
06/13/2015	20:05:10.519	$GPGGA,200511,2431.2990,N,08055.9401,W,1,11,1.3,21,M,,M,,*64
06/13/2015	20:05:11.539	$GPGGA,200512,2431.2997,N,08055.9390,W,1,11,1.3,21,M,,M,,*6F
06/13/2015	20:05:12.538	$GPGGA,200513,2431.3008,N,08055.9378,W,1,11,1.3,21,M,,M,,*66
06/13/2015	20:05:13.638	$GPGGA,200514,2431.3017,N,08055.9363,W,1,11,1.3,21,M,,M,,*65
06/13/2015	20:05:14.518	$GPGGA,200515,2431.3025,N,08055.9350,W,1,11,1.3,21,M,,M,,*65
06/13/2015	20:05:15.581	$GPGGA,200516,2431.3036,N,08055.9339,W,1,11,1.3,21,M,,M,,*6B
06/13/2015	20:05:16.529	$GPGGA,200517,2431.3046,N,08055.9326,W,1,11,1.3,21,M,,M,,*63
06/13/2015	20:05:17.639	$GPGGA,200518,2431.3053,N,08055.9311,W,1,11,1.3,21,M,,M,,*6C
06/13/2015	20:05:18.519	$GPGGA,200519,2431.3062,N,08055.9298,W,1,11,1.3,21,M,,M,,*6F
06/13/2015	20:05:19.639	$GPGGA,200520,2431.3073,N,08055.9286,W,1,11,1.3,21,M,,M,,*6A
06/13/2015	20:05:20.519	$GPGGA,200521,2431.3083,N,08055.9272,W,1,11,1.3,21,M,,M,,*6F
06/13/2015	20:05:21.639	$GPGGA,200522,2431.3090,N,08055.9257,W,1,11,1.3,21,M,,M,,*69
06/13/2015	20:05:22.599	$GPGGA,200523,2431.3098,N,08055.9245,W,1,11,1.3,21,M,,M,,*63
06/13/2015	20:05:23.502	$GPGGA,200524,2431.3111,N,08055.9231,W,1,11,1.3,21,M,,M,,*67
06/13/2015	20:05:24.599	$GPGGA,200525,2431.3118,N,08055.9220,W,1,11,1.3,21,M,,M,,*6F
06/13/2015	20:05:25.488	$GPGGA,200526,2431.3125,N,08055.9208,W,1,11,1.3,21,M,,M,,*68
06/13/2015	20:05:26.599	$GPGGA,200527,2431.3136,N,08055.9195,W,1,11,1.3,21,M,,M,,*6C
06/13/2015	20:05:27.649	$GPGGA,200528,2431.3145,N,08055.9184,W,1,11,1.3,21,M,,M,,*67
06/13/2015	20:05:28.509	$GPGGA,200529,2431.3154,N,08055.9171,W,1,11,1.3,21,M,,M,,*6C
06/13/2015	20:05:29.599	$GPGGA,200530,2431.3162,N,08055.9158,W,1,10,1.3,21,M,,M,,*6B
06/13/2015	20:05:30.490	$GPGGA,200531,2431.3170,N,08055.9145,W,1,10,1.3,21,M,,M,,*65
06/13/2015	20:05:31.648	$GPGGA,200532,2431.3178,N,08055.9132,W,1,10,1.4,21,M,,M,,*69
06/13/2015	20:05:32.586	$GPGGA,200533,2431.3188,N,08055.9117,W,1,10,1.3,21,M,,M,,*67
06/13/2015	20:05:33.599	$GPGGA,200534,2431.3199,N,08055.9104,W,1,11,1.3,21,M,,M,,*63
06/13/2015	20:05:34.591	$GPGGA,200535,2431.3209,N,08055.9092,W,1,11,1.3,21,M,,M,,*66
06/13/2015	20:05:35.639	$GPGGA,200536,2431.3217,N,08055.9078,W,1,11,1.3,21,M,,M,,*6E
06/13/2015	20:05:36.569	$GPGGA,200537,2431.3225,N,08055.9064,W,1,11,1.3,21,M,,M,,*63
06/13/2015	20:05:37.569	$GPGGA,200538,2431.3239,N,08055.9053,W,1,11,1.3,21,M,,M,,*65
06/13/2015	20:05:38.569	$GPGGA,200539,2431.3249,N,08055.9040,W,1,11,1.3,21,M,,M,,*61
06/13/2015	20:05:39.599	$GPGGA,200540,2431.3257,N,08055.9025,W,1,11,1.3,21,M,,M,,*63
06/13/2015	20:05:40.569	$GPGGA,200541,2431.3268,N,08055.9012,W,1,11,1.3,21,M,,M,,*6A
06/13/2015	20:05:41.580	$GPGGA,200542,2431.3277,N,08055.9000,W,1,11,1.4,21,M,,M,,*63
06/13/2015	20:05:42.559	$GPGGA,200543,2431.3289,N,08055.8987,W,1,11,1.3,21,M,,M,,*63
06/13/2015	20:05:43.629	$GPGGA,200544,2431.3300,N,08055.8972,W,1,11,1.3,22,M,,M,,*6D
06/13/2015	20:05:44.569	$GPGGA,200545,2431.3307,N,08055.8959,W,1,11,1.3,22,M,,M,,*62
06/13/2015	20:05:45.599	$GPGGA,200546,2431.3315,N,08055.8946,W,1,11,1.4,22,M,,M,,*6B
06/13/2015	20:05:46.559	$GPGGA,200547,2431.3328,N,08055.8934,W,1,11,1.3,22,M,,M,,*66
06/13/2015	20:05:47.558	$GPGGA,200548,2431.3337,N,08055.8920,W,1,11,1.3,22,M,,M,,*62
06/13/2015	20:05:48.548	$GPGGA,200549,2431.3346,N,08055.8905,W,1,11,1.3,22,M,,M,,*62
06/13/2015	20:05:49.538	$GPGGA,200550,2431.3355,N,08055.8892,W,1,11,1.3,22,M,,M,,*67
06/13/2015	20:05:50.548	$GPGGA,200551,2431.3365,N,08055.8879,W,1,11,1.3,22,M,,M,,*60
06/13/2015	20:05:51.559	$GPGGA,200552,2431.3375,N,08055.8863,W,1,11,1.3,22,M,,M,,*69
06/13/2015	20:05:52.539	$GPGGA,200553,2431.3383,N,08055.8849,W,1,11,1.4,22,M,,M,,*6E
06/13/2015	20:05:53.540	$GPGGA,200554,2431.3396,N,08055.8837,W,1,10,1.3,22,M,,M,,*62
06/13/2015	20:05:54.559	$GPGGA,200555,2431.3407,N,08055.8823,W,1,10,1.3,22,M,,M,,*69
06/13/2015	20:05:55.639	$GPGGA,200556,2431.3414,N,08055.8807,W,1,11,1.4,22,M,,M,,*68
06/13/2015	20:05:56.529	$GPGGA,200557,2431.3423,N,08055.8793,W,1,11,1.3,22,M,,M,,*68
06/13/2015	20:05:57.549	$GPGGA,200558,2431.3436,N,08055.8781,W,1,11,1.3,22,M,,M,,*60
06/13/2015	20:05:58.539	$GPGGA,200559,2431.3447,N,08055.8767,W,1,11,1.3,22,M,,M,,*6F
06/13/2015	20:05:59.708	$GPGGA,200600,2431.3456,N,08055.8750,W,1,11,1.3,22,M,,M,,*64
06/13/2015	20:06:00.619	$GPGGA,200601,2431.3465,N,08055.8737,W,1,11,1.3,22,M,,M,,*64
06/13/2015	20:06:01.539	$GPGGA,200602,2431.3476,N,08055.8726,W,1,11,1.3,22,M,,M,,*65
06/13/2015	20:06:02.539	$GPGGA,200603,2431.3487,N,08055.8711,W,1,11,1.3,22,M,,M,,*6E
06/13/2015	20:06:03.629	$GPGGA,200604,2431.3495,N,08055.8696,W,1,11,1.3,22,M,,M,,*64
06/13/2015	20:06:04.529	$GPGGA,200605,2431.3503,N,08055.8683,W,1,11,1.3,22,M,,M,,*6F
06/13/2015	20:06:05.628	$GPGGA,200606,2431.3514,N,08055.8670,W,1,11,1.3,22,M,,M,,*66
06/13/2015	20:06:06.528	$GPGGA,200607,2431.3524,N,08055.8656,W,1,11,1.3,22,M,,M,,*60
06/13/2015	20:06:07.608	$GPGGA,200608,2431.3534,N,08055.8643,W,1,11,1.3,22,M,,M,,*6A
06/13/2015	20:06:08.608	$GPGGA,200609,2431.3544,N,08055.8629,W,1,11,1.3,22,M,,M,,*60
06/13/2015	20:06:09.609	$GPGGA,200610,2431.3555,N,08055.8616,W,1,11,1.3,22,M,,M,,*64
06/13/2015	20:06:10.609	$GPGGA,200611,2431.3564,N,08055.8602,W,1,11,1.3,22,M,,M,,*62
06/13/2015	20:06:11.629	$GPGGA,200612,2431.3573,N,08055.8588,W,1,11,1.3,22,M,,M,,*66
06/13/2015	20:06:12.599	$GPGGA,200613,2431.3585,N,08055.8576,W,1,11,1.3,22,M,,M,,*6F
06/13/2015	20:06:13.609	$GPGGA,200614,2431.3593,N,08055.8561,W,1,11,1.3,22,M,,M,,*69
06/13/2015	20:06:14.599	$GPGGA,200615,2431.3604,N,08055.8546,W,1,11,1.3,22,M,,M,,*60
06/13/2015	20:06:15.619	$GPGGA,200616,2431.3615,N,08055.8536,W,1,11,1.3,22,M,,M,,*64
06/13/2015	20:06:16.583	$GPGGA,200617,2431.3625,N,08055.8522,W,1,11,1.3,21,M,,M,,*60
06/13/2015	20:06:17.629	$GPGGA,200618,2431.3635,N,08055.8507,W,1,11,1.3,21,M,,M,,*69
06/13/2015	20:06:18.582	$GPGGA,200619,2431.3646,N,08055.8495,W,1,11,1.4,21,M,,M,,*61
06/13/2015	20:06:19.609	$GPGGA,200620,2431.3657,N,08055.8483,W,1,10,1.4,21,M,,M,,*6D
06/13/2015	20:06:20.569	$GPGGA,200621,2431.3667,N,08055.8468,W,1,10,1.3,21,M,,M,,*6D
06/13/2015	20:06:21.589	$GPGGA,200622,2431.3676,N,08055.8456,W,1,11,1.3,21,M,,M,,*62
06/13/2015	20:06:22.568	$GPGGA,200623,2431.3687,N,08055.8442,W,1,11,1.3,21,M,,M,,*68
06/13/2015	20:06:23.598	$GPGGA,200624,2431.3698,N,08055.8430,W,1,11,1.3,21,M,,M,,*64
06/13/2015	20:06:24.568	$GPGGA,200625,2431.3709,N,08055.8418,W,1,11,1.3,21,M,,M,,*66
06/13/2015	20:06:25.581	$GPGGA,200626,2431.3716,N,08055.8404,W,1,10,1.4,21,M,,M,,*60
06/13/2015	20:06:26.560	$GPGGA,200627,2431.3725,N,08055.8389,W,1,10,1.4,21,M,,M,,*63
06/13/2015	20:06:27.599	$GPGGA,200628,2431.3737,N,08055.8376,W,1,11,1.3,21,M,,M,,*69
06/13/2015	20:06:28.559	$GPGGA,200629,2431.3747,N,08055.8361,W,1,11,1.3,22,M,,M,,*6A
06/13/2015	20:06:29.581	$GPGGA,200630,2431.3756,N,08055.8349,W,1,11,1.3,22,M,,M,,*68
06/13/2015	20:06:30.559	$GPGGA,200631,2431.3769,N,08055.8336,W,1,11,1.4,22,M,,M,,*6A
06/13/2015	20:06:32.579	$GPGGA,200633,2431.3788,N,08055.8308,W,1,11,1.4,22,M,,M,,*6A
06/13/2015	20:06:33.580	$GPGGA,200634,2431.3799,N,08055.8295,W,1,11,1.3,22,M,,M,,*6F
06/13/2015	20:06:34.559	$GPGGA,200635,2431.3810,N,08055.8281,W,1,11,1.3,22,M,,M,,*65
06/13/2015	20:06:35.593	$GPGGA,200636,2431.3821,N,08055.8268,W,1,11,1.3,22,M,,M,,*63
06/13/2015	20:06:36.539	$GPGGA,200637,2431.3831,N,08055.8254,W,1,11,1.3,22,M,,M,,*6C
06/13/2015	20:06:37.559	$GPGGA,200638,2431.3842,N,08055.8240,W,1,11,1.3,22,M,,M,,*62
06/13/2015	20:06:38.529	$GPGGA,200639,2431.3853,N,08055.8226,W,1,11,1.3,22,M,,M,,*63
06/13/2015	20:06:39.583	$GPGGA,200640,2431.3863,N,08055.8213,W,1,11,1.3,22,M,,M,,*68
06/13/2015	20:06:40.528	$GPGGA,200641,2431.3873,N,08055.8200,W,1,11,1.4,22,M,,M,,*6D
06/13/2015	20:06:41.538	$GPGGA,200642,2431.3882,N,08055.8186,W,1,11,1.3,23,M,,M,,*6B
06/13/2015	20:06:42.538	$GPGGA,200643,2431.3893,N,08055.8171,W,1,11,1.3,23,M,,M,,*62
06/13/2015	20:06:43.548	$GPGGA,200644,2431.3904,N,08055.8159,W,1,10,1.4,23,M,,M,,*66
06/13/2015	20:06:44.669	$GPGGA,200645,2431.3914,N,08055.8147,W,1,10,1.3,23,M,,M,,*6E
06/13/2015	20:06:45.549	$GPGGA,200646,2431.3925,N,08055.8132,W,1,11,1.3,23,M,,M,,*6C
06/13/2015	20:06:46.519	$GPGGA,200647,2431.3933,N,08055.8116,W,1,11,1.3,23,M,,M,,*6C
06/13/2015	20:06:47.649	$GPGGA,200648,2431.3943,N,08055.8104,W,1,11,1.3,23,M,,M,,*67
06/13/2015	20:06:48.509	$GPGGA,200649,2431.3954,N,08055.8092,W,1,11,1.3,23,M,,M,,*6E
06/13/2015	20:06:49.499	$GPGGA,200650,2431.3965,N,08055.8077,W,1,11,1.3,23,M,,M,,*6F
06/13/2015	20:06:50.529	$GPGGA,200651,2431.3976,N,08055.8063,W,1,11,1.3,23,M,,M,,*69
06/13/2015	20:06:51.519	$GPGGA,200652,2431.3986,N,08055.8050,W,1,11,1.3,23,M,,M,,*65
06/13/2015	20:06:52.609	$GPGGA,200653,2431.3996,N,08055.8035,W,1,11,1.3,23,M,,M,,*66
06/13/2015	20:06:53.609	$GPGGA,200654,2431.4007,N,08055.8021,W,1,11,1.3,23,M,,M,,*62
06/13/2015	20:06:54.629	$GPGGA,200655,2431.4016,N,08055.8008,W,1,11,1.3,23,M,,M,,*68
06/13/2015	20:06:55.669	$GPGGA,200656,2431.4026,N,08055.7993,W,1,11,1.3,23,M,,M,,*6C
06/13/2015	20:06:56.593	$GPGGA,200657,2431.4036,N,08055.7979,W,1,11,1.3,23,M,,M,,*68
06/13/2015	20:06:57.598	$GPGGA,200658,2431.4047,N,08055.7965,W,1,11,1.3,23,M,,M,,*6C
06/13/2015	20:06:58.498	$GPGGA,200659,2431.4055,N,08055.7950,W,1,11,1.3,23,M,,M,,*68
06/13/2015	20:06:59.618	$GPGGA,200700,2431.4065,N,08055.7935,W,1,10,1.4,23,M,,M,,*63
06/13/2015	20:07:00.608	$GPGGA,200701,2431.4074,N,08055.7921,W,1,10,1.4,23,M,,M,,*67
06/13/2015	20:07:01.619	$GPGGA,200702,2431.4084,N,08055.7906,W,1,10,1.4,23,M,,M,,*6E
06/13/2015	20:07:02.579	$GPGGA,200703,2431.4094,N,08055.7890,W,1,10,1.4,23,M,,M,,*60
06/13/2015	20:07:03.619	$GPGGA,200704,2431.4104,N,08055.7876,W,1,10,1.4,23,M,,M,,*67
06/13/2015	20:07:04.599	$GPGGA,200705,2431.4113,N,08055.7861,W,1,10,1.4,23,M,,M,,*66
06/13/2015	20:07:05.599	$GPGGA,200706,2431.4123,N,08055.7845,W,1,10,1.4,23,M,,M,,*60
06/13/2015	20:07:06.595	$GPGGA,200707,2431.4134,N,08055.7831,W,1,10,1.4,23,M,,M,,*64
06/13/2015	20:07:07.599	$GPGGA,200708,2431.4144,N,08055.7817,W,1,11,1.3,23,M,,M,,*6E
06/13/2015	20:07:08.569	$GPGGA,200709,2431.4152,N,08055.7801,W,1,11,1.3,23,M,,M,,*6F
06/13/2015	20:07:09.584	$GPGGA,200710,2431.4163,N,08055.7786,W,1,11,1.3,23,M,,M,,*65
06/13/2015	20:07:10.559	$GPGGA,200711,2431.4174,N,08055.7773,W,1,11,1.4,23,M,,M,,*6F
06/13/2015	20:07:11.609	$GPGGA,200712,2431.4185,N,08055.7759,W,1,11,1.3,23,M,,M,,*6D
06/13/2015	20:07:12.569	$GPGGA,200713,2431.4195,N,08055.7744,W,1,11,1.3,23,M,,M,,*61
06/13/2015	20:07:13.592	$GPGGA,200714,2431.4204,N,08055.7728,W,1,10,1.3,23,M,,M,,*66
06/13/2015	20:07:14.559	$GPGGA,200715,2431.4216,N,08055.7712,W,1,10,1.3,23,M,,M,,*6D
06/13/2015	20:07:15.638	$GPGGA,200716,2431.4227,N,08055.7698,W,1,11,1.3,23,M,,M,,*6E
06/13/2015	20:07:16.558	$GPGGA,200717,2431.4236,N,08055.7685,W,1,11,1.5,24,M,,M,,*62
06/13/2015	20:07:17.538	$GPGGA,200718,2431.4247,N,08055.7669,W,1,11,1.3,24,M,,M,,*6F
06/13/2015	20:07:18.548	$GPGGA,200719,2431.4256,N,08055.7655,W,1,11,1.3,24,M,,M,,*61
06/13/2015	20:07:19.591	$GPGGA,200720,2431.4265,N,08055.7642,W,1,10,1.4,24,M,,M,,*6B
06/13/2015	20:07:20.539	$GPGGA,200721,2431.4276,N,08055.7628,W,1,10,1.3,24,M,,M,,*63
06/13/2015	20:07:21.560	$GPGGA,200722,2431.4285,N,08055.7614,W,1,11,1.3,24,M,,M,,*62
06/13/2015	20:07:22.539	$GPGGA,200723,2431.4294,N,08055.7599,W,1,11,1.4,24,M,,M,,*62
06/13/2015	20:07:23.549	$GPGGA,200724,2431.4307,N,08055.7586,W,1,10,1.4,24,M,,M,,*61
06/13/2015	20:07:24.539	$GPGGA,200725,2431.4318,N,08055.7575,W,1,10,1.3,24,M,,M,,*65
06/13/2015	20:07:25.549	$GPGGA,200726,2431.4328,N,08055.7560,W,1,11,1.3,24,M,,M,,*60
06/13/2015	20:07:26.539	$GPGGA,200727,2431.4337,N,08055.7546,W,1,11,1.5,24,M,,M,,*6D
06/13/2015	20:07:27.569	$GPGGA,200728,2431.4348,N,08055.7534,W,1,11,1.3,24,M,,M,,*69
06/13/2015	20:07:28.639	$GPGGA,200729,2431.4359,N,08055.7521,W,1,11,1.3,24,M,,M,,*6C
06/13/2015	20:07:29.639	$GPGGA,200730,2431.4370,N,08055.7507,W,1,11,1.3,24,M,,M,,*6B
06/13/2015	20:07:30.529	$GPGGA,200731,2431.4380,N,08055.7493,W,1,11,1.3,23,M,,M,,*6E
06/13/2015	20:07:31.639	$GPGGA,200732,2431.4391,N,08055.7480,W,1,11,1.3,23,M,,M,,*6F
06/13/2015	20:07:32.528	$GPGGA,200733,2431.4404,N,08055.7468,W,1,11,1.3,23,M,,M,,*63
06/13/2015	20:07:33.638	$GPGGA,200734,2431.4413,N,08055.7452,W,1,11,1.3,23,M,,M,,*6B
06/13/2015	20:07:34.538	$GPGGA,200735,2431.4423,N,08055.7440,W,1,11,1.3,23,M,,M,,*6A
06/13/2015	20:07:35.658	$GPGGA,200736,2431.4434,N,08055.7429,W,1,11,1.3,23,M,,M,,*60
06/13/2015	20:07:36.629	$GPGGA,200737,2431.4445,N,08055.7415,W,1,11,1.3,23,M,,M,,*68
06/13/2015	20:07:37.609	$GPGGA,200738,2431.4455,N,08055.7403,W,1,11,1.3,23,M,,M,,*61
06/13/2015	20:07:38.992	$GPGGA,200739,2431.4463,N,08055.7390,W,1,11,1.3,23,M,,M,,*68
06/13/2015	20:07:39.650	$GPGGA,200740,2431.4474,N,08055.7377,W,1,11,1.3,23,M,,M,,*69
06/13/2015	20:07:40.519	$GPGGA,200741,2431.4485,N,08055.7366,W,1,11,1.3,23,M,,M,,*66
06/13/2015	20:07:41.629	$GPGGA,200742,2431.4495,N,08055.7353,W,1,11,1.3,23,M,,M,,*62
06/13/2015	20:07:42.609	$GPGGA,200743,2431.4503,N,08055.7339,W,1,11,1.3,23,M,,M,,*61
06/13/2015	20:07:43.619	$GPGGA,200744,2431.4514,N,08055.7326,W,1,11,1.3,23,M,,M,,*6E
06/13/2015	20:07:44.599	$GPGGA,200745,2431.4525,N,08055.7314,W,1,11,1.3,23,M,,M,,*6C
06/13/2015	20:07:45.609	$GPGGA,200746,2431.4536,N,08055.7302,W,1,11,1.3,23,M,,M,,*6A
06/13/2015	20:07:46.591	$GPGGA,200747,2431.4545,N,08055.7289,W,1,11,1.3,23,M,,M,,*6D
06/13/2015	20:07:47.639	$GPGGA,200748,2431.4554,N,08055.7275,W,1,11,1.3,23,M,,M,,*61
06/13/2015	20:07:48.589	$GPGGA,200749,2431.4564,N,08055.7261,W,1,11,1.3,23,M,,M,,*66
06/13/2015	20:07:49.609	$GPGGA,200750,2431.4575,N,08055.7249,W,1,11,1.3,23,M,,M,,*64
06/13/2015	20:07:50.582	$GPGGA,200751,2431.4586,N,08055.7237,W,1,11,1.3,23,M,,M,,*60
06/13/2015	20:07:51.618	$GPGGA,200752,2431.4594,N,08055.7222,W,1,11,1.3,23,M,,M,,*64
06/13/2015	20:07:52.582	$GPGGA,200753,2431.4604,N,08055.7208,W,1,11,1.3,23,M,,M,,*67
06/13/2015	20:07:53.593	$GPGGA,200754,2431.4615,N,08055.7194,W,1,10,1.4,23,M,,M,,*60
06/13/2015	20:07:54.579	$GPGGA,200755,2431.4625,N,08055.7179,W,1,10,1.3,23,M,,M,,*66
06/13/2015	20:07:55.629	$GPGGA,200756,2431.4635,N,08055.7165,W,1,11,1.3,23,M,,M,,*68
06/13/2015	20:07:56.569	$GPGGA,200757,2431.4644,N,08055.7150,W,1,11,1.3,23,M,,M,,*69
06/13/2015	20:07:57.589	$GPGGA,200758,2431.4654,N,08055.7134,W,1,11,1.3,23,M,,M,,*65
06/13/2015	20:07:58.569	$GPGGA,200759,2431.4662,N,08055.7121,W,1,11,1.3,23,M,,M,,*65
06/13/2015	20:07:59.599	$GPGGA,200800,2431.4673,N,08055.7108,W,1,11,1.3,23,M,,M,,*6D
06/13/2015	20:08:00.569	$GPGGA,200801,2431.4686,N,08055.7095,W,1,11,1.3,23,M,,M,,*63
06/13/2015	20:08:01.569	$GPGGA,200802,2431.4695,N,08055.7081,W,1,11,1.3,22,M,,M,,*66
06/13/2015	20:08:02.559	$GPGGA,200803,2431.4704,N,08055.7067,W,1,11,1.3,22,M,,M,,*66
06/13/2015	20:08:03.569	$GPGGA,200804,2431.4713,N,08055.7053,W,1,11,1.3,22,M,,M,,*60
06/13/2015	20:08:04.549	$GPGGA,200805,2431.4724,N,08055.7041,W,1,11,1.3,22,M,,M,,*66
06/13/2015	20:08:05.539	$GPGGA,200806,2431.4734,N,08055.7027,W,1,11,1.3,22,M,,M,,*64
06/13/2015	20:08:06.529	$GPGGA,200807,2431.4745,N,08055.7012,W,1,11,1.3,22,M,,M,,*65
06/13/2015	20:08:07.558	$GPGGA,200808,2431.4753,N,08055.6998,W,1,11,1.3,22,M,,M,,*67
06/13/2015	20:08:08.538	$GPGGA,200809,2431.4763,N,08055.6984,W,1,11,1.4,22,M,,M,,*6F
06/13/2015	20:08:09.518	$GPGGA,200810,2431.4773,N,08055.6972,W,1,11,1.3,22,M,,M,,*68
06/13/2015	20:08:11.592	$GPGGA,200812,2431.4792,N,08055.6941,W,1,11,1.3,22,M,,M,,*65
06/13/2015	20:08:12.538	$GPGGA,200813,2431.4799,N,08055.6930,W,1,11,1.3,22,M,,M,,*69
06/13/2015	20:08:13.528	$GPGGA,200814,2431.4810,N,08055.6916,W,1,11,1.3,22,M,,M,,*64
06/13/2015	20:08:14.529	$GPGGA,200815,2431.4821,N,08055.6903,W,1,11,1.4,22,M,,M,,*64
06/13/2015	20:08:15.718	$GPGGA,200816,2431.4831,N,08055.6891,W,1,11,1.3,21,M,,M,,*68
06/13/2015	20:08:16.528	$GPGGA,200817,2431.4838,N,08055.6876,W,1,11,1.3,21,M,,M,,*69
06/13/2015	20:08:17.528	$GPGGA,200818,2431.4846,N,08055.6861,W,1,11,1.3,21,M,,M,,*69
06/13/2015	20:08:18.518	$GPGGA,200819,2431.4859,N,08055.6851,W,1,11,1.3,21,M,,M,,*65
06/13/2015	20:08:19.708	$GPGGA,200820,2431.4870,N,08055.6839,W,1,11,1.3,21,M,,M,,*6A
06/13/2015	20:08:20.528	$GPGGA,200821,2431.4878,N,08055.6822,W,1,11,1.3,21,M,,M,,*69
06/13/2015	20:08:21.699	$GPGGA,200822,2431.4886,N,08055.6810,W,1,11,1.3,21,M,,M,,*6A
06/13/2015	20:08:22.639	$GPGGA,200823,2431.4897,N,08055.6799,W,1,11,1.3,21,M,,M,,*65
06/13/2015	20:08:23.699	$GPGGA,200824,2431.4907,N,08055.6785,W,1,11,1.3,21,M,,M,,*67
06/13/2015	20:08:24.519	$GPGGA,200825,2431.4915,N,08055.6772,W,1,11,1.3,21,M,,M,,*6D
06/13/2015	20:08:25.687	$GPGGA,200826,2431.4926,N,08055.6758,W,1,11,1.4,21,M,,M,,*61
06/13/2015	20:08:26.508	$GPGGA,200827,2431.4935,N,08055.6743,W,1,11,1.4,21,M,,M,,*68
06/13/2015	20:08:27.687	$GPGGA,200828,2431.4944,N,08055.6730,W,1,10,1.4,21,M,,M,,*64
06/13/2015	20:08:28.608	$GPGGA,200829,2431.4954,N,08055.6718,W,1,10,1.3,21,M,,M,,*69
06/13/2015	20:08:29.691	$GPGGA,200830,2431.4965,N,08055.6705,W,1,11,1.3,21,M,,M,,*6E
06/13/2015	20:08:30.618	$GPGGA,200831,2431.4973,N,08055.6689,W,1,11,1.3,21,M,,M,,*6D
06/13/2015	20:08:31.588	$GPGGA,200832,2431.4982,N,08055.6676,W,1,11,1.3,21,M,,M,,*60
06/13/2015	20:08:32.618	$GPGGA,200833,2431.4993,N,08055.6666,W,1,11,1.3,21,M,,M,,*60
06/13/2015	20:08:33.692	$GPGGA,200834,2431.5002,N,08055.6653,W,1,11,1.3,21,M,,M,,*61
06/13/2015	20:08:34.569	$GPGGA,200835,2431.5011,N,08055.6637,W,1,11,1.3,21,M,,M,,*60
06/13/2015	20:08:35.698	$GPGGA,200836,2431.5020,N,08055.6624,W,1,11,1.3,21,M,,M,,*63
06/13/2015	20:08:36.570	$GPGGA,200837,2431.5030,N,08055.6611,W,1,11,1.3,21,M,,M,,*65
06/13/2015	20:08:37.674	$GPGGA,200838,2431.5038,N,08055.6600,W,1,11,1.3,21,M,,M,,*62
06/13/2015	20:08:38.570	$GPGGA,200839,2431.5048,N,08055.6585,W,1,11,1.3,21,M,,M,,*6A
06/13/2015	20:08:39.687	$GPGGA,200840,2431.5058,N,08055.6571,W,1,10,1.4,21,M,,M,,*68
06/13/2015	20:08:40.559	$GPGGA,200841,2431.5067,N,08055.6559,W,1,10,1.3,21,M,,M,,*68
06/13/2015	20:08:41.639	$GPGGA,200842,2431.5078,N,08055.6546,W,1,11,1.3,21,M,,M,,*6A
06/13/2015	20:08:42.588	$GPGGA,200843,2431.5087,N,08055.6532,W,1,11,1.3,21,M,,M,,*68
06/13/2015	20:08:43.659	$GPGGA,200844,2431.5096,N,08055.6519,W,1,10,1.3,21,M,,M,,*67
06/13/2015	20:08:44.588	$GPGGA,200845,2431.5107,N,08055.6506,W,1,10,1.3,21,M,,M,,*61
06/13/2015	20:08:45.690	$GPGGA,200846,2431.5118,N,08055.6495,W,1,11,1.3,21,M,,M,,*66
06/13/2015	20:08:46.538	$GPGGA,200847,2431.5128,N,08055.6482,W,1,11,1.3,21,M,,M,,*62
06/13/2015	20:08:47.673	$GPGGA,200848,2431.5136,N,08055.6466,W,1,11,1.3,21,M,,M,,*68
06/13/2015	20:08:48.570	$GPGGA,200849,2431.5149,N,08055.6454,W,1,11,1.3,21,M,,M,,*60
06/13/2015	20:08:49.648	$GPGGA,200850,2431.5157,N,08055.6442,W,1,11,1.3,21,M,,M,,*60
06/13/2015	20:08:50.538	$GPGGA,200851,2431.5168,N,08055.6429,W,1,11,1.3,21,M,,M,,*60
06/13/2015	20:08:51.618	$GPGGA,200852,2431.5179,N,08055.6415,W,1,11,1.3,21,M,,M,,*6C
06/13/2015	20:08:52.586	$GPGGA,200853,2431.5186,N,08055.6402,W,1,11,1.3,21,M,,M,,*6B
06/13/2015	20:08:53.638	$GPGGA,200854,2431.5197,N,08055.6392,W,1,11,1.3,21,M,,M,,*62
06/13/2015	20:08:54.528	$GPGGA,200855,2431.5210,N,08055.6378,W,1,11,1.3,21,M,,M,,*6B
06/13/2015	20:08:55.658	$GPGGA,200856,2431.5217,N,08055.6364,W,1,11,1.3,21,M,,M,,*62
06/13/2015	20:08:56.558	$GPGGA,200857,2431.5225,N,08055.6351,W,1,11,1.3,21,M,,M,,*64
06/13/2015	20:08:57.609	$GPGGA,200858,2431.5237,N,08055.6339,W,1,10,1.4,21,M,,M,,*60
06/13/2015	20:08:58.559	$GPGGA,200859,2431.5250,N,08055.6326,W,1,10,1.3,21,M,,M,,*69
06/13/2015	20:08:59.629	$GPGGA,200900,2431.5260,N,08055.6312,W,1,11,1.3,21,M,,M,,*61
06/13/2015	20:09:00.586	$GPGGA,200901,2431.5268,N,08055.6298,W,1,11,1.3,21,M,,M,,*6B
06/13/2015	20:09:01.586	$GPGGA,200902,2431.5276,N,08055.6286,W,1,11,1.5,21,M,,M,,*6E
06/13/2015	20:09:02.628	$GPGGA,200903,2431.5287,N,08055.6273,W,1,11,1.3,21,M,,M,,*6D
06/13/2015	20:09:03.669	$GPGGA,200904,2431.5297,N,08055.6261,W,1,11,1.3,21,M,,M,,*68
06/13/2015	20:09:04.558	$GPGGA,200905,2431.5305,N,08055.6250,W,1,11,1.3,21,M,,M,,*61
06/13/2015	20:09:05.648	$GPGGA,200906,2431.5313,N,08055.6235,W,1,11,1.3,21,M,,M,,*66
06/13/2015	20:09:06.608	$GPGGA,200907,2431.5323,N,08055.6222,W,1,11,1.3,21,M,,M,,*62
06/13/2015	20:09:07.628	$GPGGA,200908,2431.5334,N,08055.6213,W,1,11,1.3,21,M,,M,,*69
06/13/2015	20:09:08.548	$GPGGA,200909,2431.5345,N,08055.6199,W,1,11,1.3,21,M,,M,,*6F
06/13/2015	20:09:09.488	$GPGGA,200910,2431.5352,N,08055.6184,W,1,11,1.3,21,M,,M,,*6D
06/13/2015	20:09:10.598	$GPGGA,200911,2431.5360,N,08055.6171,W,1,11,1.3,21,M,,M,,*67
06/13/2015	20:09:11.648	$GPGGA,200912,2431.5372,N,08055.6160,W,1,11,1.3,21,M,,M,,*67
06/13/2015	20:09:12.583	$GPGGA,200913,2431.5384,N,08055.6149,W,1,11,1.3,21,M,,M,,*64
06/13/2015	20:09:13.638	$GPGGA,200914,2431.5392,N,08055.6133,W,1,11,1.3,21,M,,M,,*69
06/13/2015	20:09:14.583	$GPGGA,200915,2431.5398,N,08055.6119,W,1,11,1.3,21,M,,M,,*6A
06/13/2015	20:09:15.649	$GPGGA,200916,2431.5410,N,08055.6110,W,1,11,1.3,21,M,,M,,*67
06/13/2015	20:09:16.596	$GPGGA,200917,2431.5420,N,08055.6098,W,1,11,1.3,21,M,,M,,*64
06/13/2015	20:09:17.598	$GPGGA,200918,2431.5427,N,08055.6081,W,1,11,1.3,21,M,,M,,*64
06/13/2015	20:09:18.570	$GPGGA,200919,2431.5435,N,08055.6069,W,1,11,1.3,21,M,,M,,*60
06/13/2015	20:09:19.608	$GPGGA,200920,2431.5446,N,08055.6058,W,1,11,1.3,21,M,,M,,*6C
06/13/2015	20:09:20.598	$GPGGA,200921,2431.5457,N,08055.6044,W,1,11,1.3,21,M,,M,,*60
06/13/2015	20:09:21.598	$GPGGA,200922,2431.5463,N,08055.6030,W,1,11,1.3,21,M,,M,,*67
06/13/2015	20:09:22.570	$GPGGA,200923,2431.5471,N,08055.6017,W,1,11,1.3,21,M,,M,,*60
06/13/2015	20:09:23.638	$GPGGA,200924,2431.5484,N,08055.6006,W,1,11,1.3,21,M,,M,,*6D
06/13/2015	20:09:24.572	$GPGGA,200925,2431.5493,N,08055.5993,W,1,11,1.3,21,M,,M,,*6C
06/13/2015	20:09:25.638	$GPGGA,200926,2431.5500,N,08055.5978,W,1,11,1.4,21,M,,M,,*66
06/13/2015	20:09:26.569	$GPGGA,200927,2431.5510,N,08055.5964,W,1,11,1.3,21,M,,M,,*6C
06/13/2015	20:09:27.638	$GPGGA,200928,2431.5519,N,08055.5952,W,1,11,1.4,21,M,,M,,*68
06/13/2015	20:09:28.558	$GPGGA,200929,2431.5529,N,08055.5938,W,1,11,1.3,21,M,,M,,*61
06/13/2015	20:09:29.598	$GPGGA,200930,2431.5537,N,08055.5923,W,1,11,1.4,21,M,,M,,*6B
06/13/2015	20:09:30.570	$GPGGA,200931,2431.5544,N,08055.5908,W,1,11,1.3,21,M,,M,,*60
06/13/2015	20:09:31.619	$GPGGA,200932,2431.5557,N,08055.5895,W,1,11,1.4,21,M,,M,,*63
06/13/2015	20:09:32.549	$GPGGA,200933,2431.5566,N,08055.5883,W,1,11,1.4,21,M,,M,,*67
06/13/2015	20:09:33.619	$GPGGA,200934,2431.5576,N,08055.5869,W,1,10,1.4,21,M,,M,,*64
06/13/2015	20:09:34.539	$GPGGA,200935,2431.5586,N,08055.5855,W,1,10,1.3,21,M,,M,,*62
06/13/2015	20:09:35.658	$GPGGA,200936,2431.5596,N,08055.5843,W,1,11,1.3,21,M,,M,,*66
06/13/2015	20:09:36.548	$GPGGA,200937,2431.5602,N,08055.5827,W,1,11,2.2,21,M,,M,,*69
06/13/2015	20:09:37.578	$GPGGA,200938,2431.5615,N,08055.5812,W,1,9,1.4,21,M,,M,,*5A
06/13/2015	20:09:38.548	$GPGGA,200939,2431.5625,N,08055.5797,W,1,9,1.4,21,M,,M,,*5A
06/13/2015	20:09:39.598	$GPGGA,200940,2431.5633,N,08055.5781,W,1,10,1.3,21,M,,M,,*6B
06/13/2015	20:09:40.558	$GPGGA,200941,2431.5644,N,08055.5767,W,1,10,1.4,21,M,,M,,*65
06/13/2015	20:09:41.598	$GPGGA,200942,2431.5656,N,08055.5755,W,1,10,1.3,21,M,,M,,*63
06/13/2015	20:09:42.528	$GPGGA,200943,2431.5665,N,08055.5738,W,1,10,1.3,21,M,,M,,*69
06/13/2015	20:09:43.648	$GPGGA,200944,2431.5672,N,08055.5721,W,1,11,1.3,21,M,,M,,*61
06/13/2015	20:09:44.518	$GPGGA,200945,2431.5683,N,08055.5707,W,1,11,1.3,21,M,,M,,*6A
06/13/2015	20:09:45.574	$GPGGA,200946,2431.5695,N,08055.5694,W,1,10,1.4,21,M,,M,,*63
06/13/2015	20:09:46.528	$GPGGA,200947,2431.5703,N,08055.5679,W,1,10,1.3,21,M,,M,,*68
06/13/2015	20:09:47.548	$GPGGA,200948,2431.5714,N,08055.5664,W,1,11,1.3,21,M,,M,,*6C
06/13/2015	20:09:48.548	$GPGGA,200949,2431.5724,N,08055.5650,W,1,11,1.3,21,M,,M,,*69
06/13/2015	20:09:49.539	$GPGGA,200950,2431.5735,N,08055.5636,W,1,11,1.3,21,M,,M,,*61
06/13/2015	20:09:50.609	$GPGGA,200951,2431.5746,N,08055.5622,W,1,11,1.3,21,M,,M,,*61
06/13/2015	20:09:51.539	$GPGGA,200952,2431.5746,N,08055.5622,W,1,11,1.3,21,M,,M,,*62
06/13/2015	20:09:52.498	$GPGGA,200953,2431.5767,N,08055.5593,W,1,11,1.3,21,M,,M,,*69
06/13/2015	20:09:53.618	$GPGGA,200954,2431.5778,N,08055.5579,W,1,11,1.3,21,M,,M,,*64
06/13/2015	20:09:54.598	$GPGGA,200955,2431.5788,N,08055.5563,W,1,11,1.4,21,M,,M,,*66
06/13/2015	20:09:55.659	$GPGGA,200956,2431.5797,N,08055.5549,W,1,11,1.3,21,M,,M,,*64
06/13/2015	20:09:56.498	$GPGGA,200957,2431.5811,N,08055.5537,W,1,11,1.3,21,M,,M,,*6D
06/13/2015	20:09:57.598	$GPGGA,200958,2431.5821,N,08055.5521,W,1,10,1.5,21,M,,M,,*61
06/13/2015	20:09:58.538	$GPGGA,200959,2431.5821,N,08055.5521,W,1,10,1.3,21,M,,M,,*66
06/13/2015	20:09:59.902	$GPGGA,201000,2431.5836,N,08055.5498,W,1,11,1.3,21,M,,M,,*66
06/13/2015	20:10:00.598	$GPGGA,201001,2431.5849,N,08055.5484,W,1,11,1.3,21,M,,M,,*62
06/13/2015	20:10:01.598	$GPGGA,201002,2431.5858,N,08055.5469,W,1,11,1.3,21,M,,M,,*62
06/13/2015	20:10:02.598	$GPGGA,201003,2431.5865,N,08055.5457,W,1,11,1.3,21,M,,M,,*60
06/13/2015	20:10:03.608	$GPGGA,201004,2431.5875,N,08055.5445,W,1,11,1.3,21,M,,M,,*65
06/13/2015	20:10:04.578	$GPGGA,201005,2431.5886,N,08055.5431,W,1,11,1.3,21,M,,M,,*6B
06/13/2015	20:10:05.618	$GPGGA,201006,2431.5894,N,08055.5419,W,1,11,1.3,21,M,,M,,*61
06/13/2015	20:10:06.568	$GPGGA,201007,2431.5902,N,08055.5406,W,1,11,1.3,21,M,,M,,*60
06/13/2015	20:10:07.629	$GPGGA,201008,2431.5914,N,08055.5393,W,1,11,1.3,21,M,,M,,*63
06/13/2015	20:10:08.579	$GPGGA,201009,2431.5923,N,08055.5382,W,1,11,1.3,21,M,,M,,*66
06/13/2015	20:10:09.559	$GPGGA,201010,2431.5933,N,08055.5368,W,1,11,1.3,21,M,,M,,*6B
06/13/2015	20:10:10.588	$GPGGA,201011,2431.5944,N,08055.5355,W,1,11,1.4,21,M,,M,,*63
06/13/2015	20:10:11.598	$GPGGA,201012,2431.5954,N,08055.5342,W,1,11,1.3,21,M,,M,,*60
06/13/2015	20:10:12.570	$GPGGA,201013,2431.5963,N,08055.5329,W,1,11,1.3,21,M,,M,,*68
06/13/2015	20:10:14.558	$GPGGA,201014,2431.5974,N,08055.5317,W,1,10,1.4,21,M,,M,,*62
06/13/2015	20:10:14.588	$GPGGA,201015,2431.5983,N,08055.5304,W,1,10,1.3,21,M,,M,,*6E
06/13/2015	20:10:15.598	$GPGGA,201016,2431.5995,N,08055.5291,W,1,10,1.4,21,M,,M,,*60
06/13/2015	20:10:16.558	$GPGGA,201017,2431.6005,N,08055.5278,W,1,10,1.3,21,M,,M,,*62
06/13/2015	20:10:17.548	$GPGGA,201018,2431.6013,N,08055.5266,W,1,11,1.3,21,M,,M,,*64
06/13/2015	20:10:18.548	$GPGGA,201019,2431.6027,N,08055.5254,W,1,11,1.3,21,M,,M,,*63
06/13/2015	20:10:19.558	$GPGGA,201020,2431.6035,N,08055.5239,W,1,11,1.3,21,M,,M,,*61
06/13/2015	20:10:20.558	$GPGGA,201021,2431.6042,N,08055.5226,W,1,11,1.4,21,M,,M,,*69
06/13/2015	20:10:22.584	$GPGGA,201023,2431.6064,N,08055.5200,W,1,11,1.3,21,M,,M,,*6C
06/13/2015	20:10:23.558	$GPGGA,201024,2431.6073,N,08055.5187,W,1,11,1.3,21,M,,M,,*61
06/13/2015	20:10:24.529	$GPGGA,201025,2431.6085,N,08055.5175,W,1,11,1.3,21,M,,M,,*64
06/13/2015	20:10:25.580	$GPGGA,201026,2431.6096,N,08055.5162,W,1,11,1.3,22,M,,M,,*60
06/13/2015	20:10:26.529	$GPGGA,201027,2431.6104,N,08055.5147,W,1,11,1.3,22,M,,M,,*6C
06/13/2015	20:10:27.558	$GPGGA,201028,2431.6113,N,08055.5133,W,1,10,1.3,22,M,,M,,*67
06/13/2015	20:10:28.518	$GPGGA,201029,2431.6124,N,08055.5122,W,1,10,1.3,22,M,,M,,*62
06/13/2015	20:10:29.558	$GPGGA,201030,2431.6136,N,08055.5109,W,1,11,1.3,22,M,,M,,*61
06/13/2015	20:10:30.518	$GPGGA,201031,2431.6143,N,08055.5093,W,1,11,1.3,22,M,,M,,*60
06/13/2015	20:10:31.638	$GPGGA,201032,2431.6151,N,08055.5080,W,1,11,1.3,22,M,,M,,*62
06/13/2015	20:10:32.518	$GPGGA,201033,2431.6160,N,08055.5067,W,1,11,1.3,22,M,,M,,*68
06/13/2015	20:10:33.518	$GPGGA,201034,2431.6172,N,08055.5055,W,1,10,1.4,22,M,,M,,*6B
06/13/2015	20:10:34.508	$GPGGA,201035,2431.6180,N,08055.5041,W,1,10,1.3,22,M,,M,,*65
06/13/2015	20:10:35.570	$GPGGA,201036,2431.6190,N,08055.5027,W,1,11,1.3,22,M,,M,,*66
06/13/2015	20:10:36.518	$GPGGA,201037,2431.6200,N,08055.5014,W,1,11,1.3,22,M,,M,,*6D
06/13/2015	20:10:37.628	$GPGGA,201038,2431.6208,N,08055.5000,W,1,11,1.3,22,M,,M,,*6F
06/13/2015	20:10:38.628	$GPGGA,201039,2431.6218,N,08055.4986,W,1,11,1.3,22,M,,M,,*69
06/13/2015	20:10:39.628	$GPGGA,201040,2431.6229,N,08055.4974,W,1,10,1.4,22,M,,M,,*6E
06/13/2015	20:10:40.508	$GPGGA,201041,2431.6237,N,08055.4960,W,1,10,1.3,22,M,,M,,*62
06/13/2015	20:10:41.609	$GPGGA,201042,2431.6247,N,08055.4945,W,1,11,1.3,22,M,,M,,*60
06/13/2015	20:10:42.589	$GPGGA,201043,2431.6256,N,08055.4932,W,1,11,1.3,22,M,,M,,*61
06/13/2015	20:10:43.619	$GPGGA,201044,2431.6268,N,08055.4919,W,1,11,1.3,22,M,,M,,*62
06/13/2015	20:10:44.509	$GPGGA,201045,2431.6279,N,08055.4907,W,1,11,1.4,22,M,,M,,*6B
06/13/2015	20:10:45.628	$GPGGA,201046,2431.6288,N,08055.4891,W,1,11,1.3,22,M,,M,,*6F
06/13/2015	20:10:46.498	$GPGGA,201047,2431.6297,N,08055.4877,W,1,11,1.4,22,M,,M,,*6F
06/13/2015	20:10:47.618	$GPGGA,201048,2431.6306,N,08055.4863,W,1,10,1.4,22,M,,M,,*6D
06/13/2015	20:10:48.588	$GPGGA,201049,2431.6316,N,08055.4849,W,1,10,1.4,22,M,,M,,*65
06/13/2015	20:10:49.587	$GPGGA,201050,2431.6327,N,08055.4837,W,1,10,1.4,22,M,,M,,*66
06/13/2015	20:10:50.578	$GPGGA,201051,2431.6337,N,08055.4821,W,1,10,1.3,22,M,,M,,*66
06/13/2015	20:10:51.598	$GPGGA,201052,2431.6345,N,08055.4807,W,1,10,1.4,22,M,,M,,*63
06/13/2015	20:10:52.590	$GPGGA,201053,2431.6353,N,08055.4795,W,1,10,1.3,22,M,,M,,*66
06/13/2015	20:10:53.582	$GPGGA,201054,2431.6364,N,08055.4780,W,1,11,1.3,22,M,,M,,*60
06/13/2015	20:10:54.581	$GPGGA,201055,2431.6377,N,08055.4767,W,1,11,1.7,22,M,,M,,*6E
06/13/2015	20:10:55.598	$GPGGA,201056,2431.6384,N,08055.4753,W,1,11,1.3,22,M,,M,,*62
06/13/2015	20:10:56.573	$GPGGA,201057,2431.6393,N,08055.4739,W,1,11,1.4,22,M,,M,,*6E
06/13/2015	20:10:57.588	$GPGGA,201058,2431.6404,N,08055.4728,W,1,11,1.3,22,M,,M,,*6F
06/13/2015	20:10:58.558	$GPGGA,201059,2431.6414,N,08055.4716,W,1,11,1.3,22,M,,M,,*62
06/13/2015	20:10:59.619	$GPGGA,201100,2431.6424,N,08055.4701,W,1,11,1.3,22,M,,M,,*6A
06/13/2015	20:11:00.559	$GPGGA,201101,2431.6433,N,08055.4689,W,1,11,1.4,22,M,,M,,*6B
06/13/2015	20:11:01.580	$GPGGA,201102,2431.6443,N,08055.4675,W,1,11,1.3,22,M,,M,,*6B
06/13/2015	20:11:02.569	$GPGGA,201103,2431.6453,N,08055.4660,W,1,11,1.3,22,M,,M,,*6F
06/13/2015	20:11:03.584	$GPGGA,201104,2431.6464,N,08055.4648,W,1,10,1.4,22,M,,M,,*60
06/13/2015	20:11:04.558	$GPGGA,201105,2431.6475,N,08055.4633,W,1,10,1.3,22,M,,M,,*6A
06/13/2015	20:11:05.538	$GPGGA,201106,2431.6483,N,08055.4618,W,1,11,1.3,22,M,,M,,*68
06/13/2015	20:11:06.558	$GPGGA,201107,2431.6494,N,08055.4604,W,1,11,1.3,23,M,,M,,*63
06/13/2015	20:11:07.588	$GPGGA,201108,2431.6505,N,08055.4591,W,1,11,1.3,23,M,,M,,*6A
06/13/2015	20:11:08.528	$GPGGA,201109,2431.6516,N,08055.4578,W,1,11,1.3,23,M,,M,,*6E
06/13/2015	20:11:09.538	$GPGGA,201110,2431.6529,N,08055.4563,W,1,11,1.3,23,M,,M,,*60
06/13/2015	20:11:10.559	$GPGGA,201111,2431.6537,N,08055.4549,W,1,11,1.3,23,M,,M,,*66
06/13/2015	20:11:11.658	$GPGGA,201112,2431.6548,N,08055.4536,W,1,11,1.3,23,M,,M,,*65
06/13/2015	20:11:12.548	$GPGGA,201113,2431.6563,N,08055.4524,W,1,11,1.3,23,M,,M,,*6E
06/13/2015	20:11:13.548	$GPGGA,201114,2431.6573,N,08055.4510,W,1,11,1.3,23,M,,M,,*6F
06/13/2015	20:11:14.528	$GPGGA,201115,2431.6584,N,08055.4496,W,1,11,1.3,23,M,,M,,*69
06/13/2015	20:11:15.538	$GPGGA,201116,2431.6595,N,08055.4482,W,1,11,1.3,23,M,,M,,*6F
06/13/2015	20:11:16.529	$GPGGA,201117,2431.6604,N,08055.4468,W,1,11,1.3,23,M,,M,,*61
06/13/2015	20:11:17.539	$GPGGA,201118,2431.6616,N,08055.4455,W,1,11,1.3,23,M,,M,,*63
06/13/2015	20:11:18.609	$GPGGA,201119,2431.6628,N,08055.4442,W,1,11,1.3,23,M,,M,,*69
06/13/2015	20:11:19.529	$GPGGA,201120,2431.6638,N,08055.4427,W,1,11,1.3,23,M,,M,,*61
06/13/2015	20:11:20.618	$GPGGA,201121,2431.6646,N,08055.4412,W,1,11,1.3,22,M,,M,,*6E
06/13/2015	20:11:21.648	$GPGGA,201122,2431.6659,N,08055.4398,W,1,11,1.3,22,M,,M,,*66
06/13/2015	20:11:22.518	$GPGGA,201123,2431.6670,N,08055.4386,W,1,11,1.3,22,M,,M,,*63
06/13/2015	20:11:23.648	$GPGGA,201124,2431.6678,N,08055.4371,W,1,11,1.3,22,M,,M,,*64
06/13/2015	20:11:24.528	$GPGGA,201125,2431.6689,N,08055.4357,W,1,11,1.3,22,M,,M,,*6F
06/13/2015	20:11:25.518	$GPGGA,201126,2431.6700,N,08055.4343,W,1,11,1.3,22,M,,M,,*69
06/13/2015	20:11:26.498	$GPGGA,201127,2431.6709,N,08055.4327,W,1,11,1.3,22,M,,M,,*63
06/13/2015	20:11:27.508	$GPGGA,201128,2431.6720,N,08055.4313,W,1,10,1.4,22,M,,M,,*66
06/13/2015	20:11:28.608	$GPGGA,201129,2431.6732,N,08055.4299,W,1,10,1.3,22,M,,M,,*60
06/13/2015	20:11:29.508	$GPGGA,201130,2431.6742,N,08055.4284,W,1,11,1.3,22,M,,M,,*62
06/13/2015	20:11:30.588	$GPGGA,201131,2431.6750,N,08055.4268,W,1,11,1.3,22,M,,M,,*62
06/13/2015	20:11:31.508	$GPGGA,201132,2431.6761,N,08055.4255,W,1,11,1.3,22,M,,M,,*6D
06/13/2015	20:11:32.598	$GPGGA,201133,2431.6772,N,08055.4240,W,1,11,1.3,22,M,,M,,*6A
06/13/2015	20:11:33.608	$GPGGA,201134,2431.6783,N,08055.4227,W,1,10,1.4,22,M,,M,,*64
06/13/2015	20:11:34.599	$GPGGA,201135,2431.6793,N,08055.4211,W,1,10,1.3,22,M,,M,,*66
06/13/2015	20:11:35.599	$GPGGA,201136,2431.6803,N,08055.4195,W,1,10,1.4,22,M,,M,,*6B
06/13/2015	20:11:36.599	$GPGGA,201137,2431.6812,N,08055.4182,W,1,10,1.4,22,M,,M,,*6C
06/13/2015	20:11:37.608	$GPGGA,201138,2431.6823,N,08055.4167,W,1,11,1.3,22,M,,M,,*6C
06/13/2015	20:11:38.583	$GPGGA,201139,2431.6836,N,08055.4153,W,1,11,1.4,22,M,,M,,*69
06/13/2015	20:11:39.618	$GPGGA,201140,2431.6843,N,08055.4138,W,1,10,1.3,22,M,,M,,*6E
06/13/2015	20:11:40.583	$GPGGA,201141,2431.6852,N,08055.4122,W,1,10,1.4,22,M,,M,,*63
06/13/2015	20:11:41.571	$GPGGA,201142,2431.6863,N,08055.4107,W,1,11,1.3,22,M,,M,,*63
06/13/2015	20:11:42.572	$GPGGA,201143,2431.6875,N,08055.4093,W,1,11,1.4,22,M,,M,,*6E
