Software Version Number: 1	Data File Format Number: 1	Build Version Number: 1	Error Count Since VI Started: 0	Manufacturer: Raytheon	 Model Number: RayMarine 120	 S/N: 	 Cal Date: 	 Wind Direction Offset: 0.00	 Slope (M)1: 0.00	 Offset (B)1: 0.00	 Slope (M)2: 0.00	 Offset (B)2: 0.00	 Slope (M)3: 0.00	 Offset (B)3: 0.00	 Slope (M)4: 0.00	 Offset (B)4: 0.00	 Slope (M)5: 0.00	 Offset (B)5: 0.00	 Slope (M)6: 0.00	 Offset (B)6: 0.00
Computer Date	Computer Time	GGA String
05/31/2014	20:00:00.426	$GPGGA,200001,2508.4977,N,07921.3956,W,1,10,1.8,14,M,,M,,*68
05/31/2014	20:00:01.410	$GPGGA,200002,2508.4979,N,07921.3933,W,1,10,1.8,14,M,,M,,*66
05/31/2014	20:00:02.393	$GPGGA,200003,2508.4980,N,07921.3910,W,1,10,1.8,14,M,,M,,*60
05/31/2014	20:00:03.407	$GPGGA,200004,2508.4980,N,07921.3884,W,1,10,1.8,14,M,,M,,*6B
05/31/2014	20:00:04.402	$GPGGA,200005,2508.4980,N,07921.3859,W,1,11,1.6,14,M,,M,,*65
05/31/2014	20:00:05.375	$GPGGA,200006,2508.4984,N,07921.3835,W,1,11,1.6,14,M,,M,,*68
05/31/2014	20:00:06.389	$GPGGA,200007,2508.4986,N,07921.3812,W,1,11,1.6,14,M,,M,,*6E
05/31/2014	20:00:07.373	$GPGGA,200008,2508.4984,N,07921.3789,W,1,11,1.8,14,M,,M,,*60
05/31/2014	20:00:08.347	$GPGGA,200009,2508.4987,N,07921.3765,W,1,10,1.8,14,M,,M,,*61
05/31/2014	20:00:09.341	$GPGGA,200010,2508.4988,N,07921.3741,W,1,10,1.6,14,M,,M,,*6E
05/31/2014	20:00:10.365	$GPGGA,200011,2508.4991,N,07921.3716,W,1,11,1.6,13,M,,M,,*63
05/31/2014	20:00:11.329	$GPGGA,200012,2508.4993,N,07921.3692,W,1,11,1.6,13,M,,M,,*6F
05/31/2014	20:00:12.303	$GPGGA,200013,2508.4994,N,07921.3667,W,1,11,1.6,13,M,,M,,*63
05/31/2014	20:00:13.317	$GPGGA,200014,2508.4995,N,07921.3643,W,1,11,1.6,13,M,,M,,*63
05/31/2014	20:00:14.292	$GPGGA,200015,2508.4998,N,07921.3618,W,1,11,1.6,13,M,,M,,*61
05/31/2014	20:00:15.306	$GPGGA,200016,2508.4998,N,07921.3594,W,1,11,1.6,13,M,,M,,*65
05/31/2014	20:00:16.280	$GPGGA,200017,2508.5001,N,07921.3569,W,1,11,1.6,13,M,,M,,*6E
05/31/2014	20:00:17.284	$GPGGA,200018,2508.5002,N,07921.3545,W,1,11,1.6,13,M,,M,,*6C
05/31/2014	20:00:18.268	$GPGGA,200019,2508.5005,N,07921.3521,W,1,11,1.6,13,M,,M,,*68
05/31/2014	20:00:19.282	$GPGGA,200020,2508.5005,N,07921.3496,W,1,11,1.6,13,M,,M,,*6F
05/31/2014	20:00:20.246	$GPGGA,200021,2508.5008,N,07921.3472,W,1,11,1.6,13,M,,M,,*69
05/31/2014	20:00:21.250	$GPGGA,200022,2508.5011,N,07921.3448,W,1,11,1.6,13,M,,M,,*6B
05/31/2014	20:00:22.273	$GPGGA,200023,2508.5012,N,07921.3423,W,1,11,1.6,13,M,,M,,*64
05/31/2014	20:00:23.337	$GPGGA,200024,2508.5013,N,07921.3399,W,1,11,1.6,13,M,,M,,*64
05/31/2014	20:00:24.341	$GPGGA,200025,2508.5015,N,07921.3375,W,1,11,1.6,13,M,,M,,*61
05/31/2014	20:00:25.302	$GPGGA,200026,2508.5018,N,07921.3350,W,1,11,1.6,13,M,,M,,*68
05/31/2014	20:00:26.319	$GPGGA,200027,2508.5019,N,07921.3326,W,1,11,1.6,13,M,,M,,*69
05/31/2014	20:00:27.569	$GPGGA,200028,2508.5020,N,07921.3302,W,1,11,1.6,13,M,,M,,*6A
05/31/2014	20:00:28.533	$GPGGA,200029,2508.5023,N,07921.3277,W,1,11,1.6,13,M,,M,,*6B
05/31/2014	20:00:29.537	$GPGGA,200030,2508.5024,N,07921.3253,W,1,11,1.6,13,M,,M,,*62
05/31/2014	20:00:30.641	$GPGGA,200031,2508.5027,N,07921.3229,W,1,11,1.6,13,M,,M,,*6D
05/31/2014	20:00:31.526	$GPGGA,200032,2508.5029,N,07921.3205,W,1,11,1.6,13,M,,M,,*6E
05/31/2014	20:00:32.520	$GPGGA,200033,2508.5030,N,07921.3180,W,1,11,1.6,13,M,,M,,*69
05/31/2014	20:00:33.494	$GPGGA,200034,2508.5031,N,07921.3156,W,1,11,1.6,13,M,,M,,*64
05/31/2014	20:00:34.617	$GPGGA,200035,2508.5034,N,07921.3132,W,1,11,1.6,13,M,,M,,*62
05/31/2014	20:00:35.601	$GPGGA,200036,2508.5036,N,07921.3108,W,1,11,1.6,13,M,,M,,*6A
05/31/2014	20:00:36.486	$GPGGA,200037,2508.5038,N,07921.3084,W,1,11,1.6,13,M,,M,,*60
05/31/2014	20:00:37.470	$GPGGA,200038,2508.5038,N,07921.3059,W,1,11,1.6,13,M,,M,,*6F
05/31/2014	20:00:38.584	$GPGGA,200039,2508.5041,N,07921.3035,W,1,11,1.6,13,M,,M,,*6A
05/31/2014	20:00:39.468	$GPGGA,200040,2508.5042,N,07921.3010,W,1,11,1.6,13,M,,M,,*60
05/31/2014	20:00:40.541	$GPGGA,200041,2508.5044,N,07921.2986,W,1,11,1.6,13,M,,M,,*60
05/31/2014	20:00:41.535	$GPGGA,200042,2508.5045,N,07921.2962,W,1,11,1.6,13,M,,M,,*68
05/31/2014	20:00:42.529	$GPGGA,200043,2508.5047,N,07921.2937,W,1,11,1.6,13,M,,M,,*6B
05/31/2014	20:00:43.533	$GPGGA,200044,2508.5048,N,07921.2913,W,1,11,1.6,13,M,,M,,*65
05/31/2014	20:00:44.527	$GPGGA,200045,2508.5049,N,07921.2890,W,1,11,1.9,13,M,,M,,*60
05/31/2014	20:00:45.502	$GPGGA,200046,2508.5052,N,07921.2867,W,1,11,1.6,13,M,,M,,*6E
05/31/2014	20:00:46.506	$GPGGA,200047,2508.5051,N,07921.2842,W,1,11,1.6,13,M,,M,,*6B
05/31/2014	20:00:47.500	$GPGGA,200048,2508.5052,N,07921.2817,W,1,11,1.6,13,M,,M,,*67
05/31/2014	20:00:48.494	$GPGGA,200049,2508.5053,N,07921.2792,W,1,11,1.6,13,M,,M,,*65
05/31/2014	20:00:49.478	$GPGGA,200050,2508.5055,N,07921.2768,W,1,11,1.6,13,M,,M,,*6E
05/31/2014	20:00:50.482	$GPGGA,200051,2508.5054,N,07921.2743,W,1,11,1.6,13,M,,M,,*67
05/31/2014	20:00:51.466	$GPGGA,200052,2508.5056,N,07921.2719,W,1,11,1.6,13,M,,M,,*69
05/31/2014	20:00:52.480	$GPGGA,200053,2508.5056,N,07921.2695,W,1,11,1.6,13,M,,M,,*6D
05/31/2014	20:00:53.434	$GPGGA,200054,2508.5056,N,07921.2671,W,1,11,1.6,13,M,,M,,*60
05/31/2014	20:00:54.458	$GPGGA,200055,2508.5058,N,07921.2649,W,1,11,1.8,13,M,,M,,*6A
05/31/2014	20:00:55.443	$GPGGA,200056,2508.5057,N,07921.2623,W,1,11,1.6,13,M,,M,,*64
05/31/2014	20:00:56.447	$GPGGA,200057,2508.5059,N,07921.2598,W,1,11,1.6,13,M,,M,,*68
05/31/2014	20:00:57.410	$GPGGA,200058,2508.5058,N,07921.2573,W,1,11,1.6,13,M,,M,,*63
05/31/2014	20:00:58.394	$GPGGA,200059,2508.5060,N,07921.2549,W,1,11,1.6,13,M,,M,,*60
05/31/2014	20:00:59.418	$GPGGA,200100,2508.5060,N,07921.2526,W,1,11,1.8,13,M,,M,,*6A
05/31/2014	20:01:00.403	$GPGGA,200101,2508.5060,N,07921.2501,W,1,10,1.6,13,M,,M,,*61
05/31/2014	20:01:01.366	$GPGGA,200102,2508.5062,N,07921.2478,W,1,10,1.8,13,M,,M,,*61
05/31/2014	20:01:02.400	$GPGGA,200103,2508.5061,N,07921.2454,W,1,10,1.6,13,M,,M,,*63
05/31/2014	20:01:03.374	$GPGGA,200104,2508.5063,N,07921.2429,W,1,10,1.6,13,M,,M,,*6C
05/31/2014	20:01:04.359	$GPGGA,200105,2508.5063,N,07921.2404,W,1,11,1.6,13,M,,M,,*63
05/31/2014	20:01:05.363	$GPGGA,200106,2508.5063,N,07921.2381,W,1,11,1.8,13,M,,M,,*64
05/31/2014	20:01:06.367	$GPGGA,200107,2508.5065,N,07921.2358,W,1,10,1.6,13,M,,M,,*68
05/31/2014	20:01:07.341	$GPGGA,200108,2508.5066,N,07921.2334,W,1,10,1.6,13,M,,M,,*6E
05/31/2014	20:01:08.335	$GPGGA,200109,2508.5065,N,07921.2311,W,1,11,1.8,13,M,,M,,*64
05/31/2014	20:01:09.319	$GPGGA,200110,2508.5067,N,07921.2286,W,1,11,1.6,13,M,,M,,*6F
05/31/2014	20:01:10.313	$GPGGA,200111,2508.5069,N,07921.2261,W,1,11,1.6,13,M,,M,,*69
05/31/2014	20:01:11.308	$GPGGA,200112,2508.5068,N,07921.2238,W,1,11,1.8,13,M,,M,,*69
05/31/2014	20:01:12.302	$GPGGA,200113,2508.5070,N,07921.2215,W,1,10,1.8,13,M,,M,,*6F
05/31/2014	20:01:13.266	$GPGGA,200114,2508.5070,N,07921.2190,W,1,10,1.6,13,M,,M,,*68
05/31/2014	20:01:14.299	$GPGGA,200115,2508.5071,N,07921.2165,W,1,11,1.6,13,M,,M,,*63
05/31/2014	20:01:15.303	$GPGGA,200116,2508.5071,N,07921.2140,W,1,11,1.6,13,M,,M,,*67
05/31/2014	20:01:16.356	$GPGGA,200117,2508.5074,N,07921.2117,W,1,11,1.8,13,M,,M,,*6F
05/31/2014	20:01:17.341	$GPGGA,200118,2508.5074,N,07921.2093,W,1,11,1.6,13,M,,M,,*63
05/31/2014	20:01:18.365	$GPGGA,200119,2508.5076,N,07921.2067,W,1,11,1.6,13,M,,M,,*6B
05/31/2014	20:01:19.339	$GPGGA,200120,2508.5077,N,07921.2043,W,1,11,1.6,13,M,,M,,*66
05/31/2014	20:01:20.343	$GPGGA,200121,2508.5078,N,07921.2018,W,1,11,1.6,13,M,,M,,*66
05/31/2014	20:01:21.299	$GPGGA,200122,2508.5078,N,07921.1994,W,1,11,1.6,13,M,,M,,*6B
05/31/2014	20:01:22.302	$GPGGA,200123,2508.5081,N,07921.1970,W,1,11,1.6,13,M,,M,,*66
05/31/2014	20:01:23.305	$GPGGA,200124,2508.5081,N,07921.1945,W,1,11,1.6,13,M,,M,,*67
05/31/2014	20:01:24.291	$GPGGA,200125,2508.5083,N,07921.1921,W,1,11,1.6,13,M,,M,,*66
05/31/2014	20:01:25.275	$GPGGA,200126,2508.5084,N,07921.1897,W,1,11,1.6,13,M,,M,,*6E
05/31/2014	20:01:26.268	$GPGGA,200127,2508.5085,N,07921.1872,W,1,11,1.6,13,M,,M,,*65
05/31/2014	20:01:27.617	$GPGGA,200128,2508.5087,N,07921.1848,W,1,11,1.6,13,M,,M,,*61
05/31/2014	20:01:28.637	$GPGGA,200129,2508.5088,N,07921.1823,W,1,11,1.6,13,M,,M,,*62
05/31/2014	20:01:29.595	$GPGGA,200130,2508.5089,N,07921.1799,W,1,11,1.6,13,M,,M,,*65
05/31/2014	20:01:30.581	$GPGGA,200131,2508.5091,N,07921.1774,W,1,11,1.6,13,M,,M,,*6E
05/31/2014	20:01:31.603	$GPGGA,200132,2508.5092,N,07921.1750,W,1,11,1.6,13,M,,M,,*68
05/31/2014	20:01:32.566	$GPGGA,200133,2508.5094,N,07921.1726,W,1,11,1.6,13,M,,M,,*6E
05/31/2014	20:01:33.570	$GPGGA,200134,2508.5095,N,07921.1701,W,1,11,1.6,13,M,,M,,*6D
05/31/2014	20:01:34.564	$GPGGA,200135,2508.5098,N,07921.1677,W,1,11,1.6,13,M,,M,,*61
05/31/2014	20:01:35.569	$GPGGA,200136,2508.5099,N,07921.1653,W,1,11,1.6,13,M,,M,,*65
05/31/2014	20:01:36.543	$GPGGA,200137,2508.5099,N,07921.1628,W,1,11,1.6,13,M,,M,,*68
05/31/2014	20:01:37.527	$GPGGA,200138,2508.5103,N,07921.1604,W,1,11,1.6,13,M,,M,,*6B
05/31/2014	20:01:38.551	$GPGGA,200139,2508.5103,N,07921.1579,W,1,11,1.6,13,M,,M,,*63
05/31/2014	20:01:39.525	$GPGGA,200140,2508.5106,N,07921.1555,W,1,11,1.6,13,M,,M,,*66
05/31/2014	20:01:40.529	$GPGGA,200141,2508.5107,N,07921.1530,W,1,11,1.6,13,M,,M,,*65
05/31/2014	20:01:41.493	$GPGGA,200142,2508.5110,N,07921.1506,W,1,11,1.6,13,M,,M,,*65
05/31/2014	20:01:42.507	$GPGGA,200143,2508.5110,N,07921.1481,W,1,11,1.6,13,M,,M,,*6A
05/31/2014	20:01:43.501	$GPGGA,200144,2508.5113,N,07921.1457,W,1,11,1.6,13,M,,M,,*65
05/31/2014	20:01:44.476	$GPGGA,200145,2508.5114,N,07921.1433,W,1,11,1.6,13,M,,M,,*61
05/31/2014	20:01:45.470	$GPGGA,200146,2508.5116,N,07921.1408,W,1,11,1.6,13,M,,M,,*68
05/31/2014	20:01:46.454	$GPGGA,200147,2508.5118,N,07921.1384,W,1,11,1.6,13,M,,M,,*64
05/31/2014	20:01:47.458	$GPGGA,200148,2508.5120,N,07921.1359,W,1,11,1.6,13,M,,M,,*60
05/31/2014	20:01:48.452	$GPGGA,200149,2508.5121,N,07921.1335,W,1,11,1.6,13,M,,M,,*6A
05/31/2014	20:01:49.425	$GPGGA,200150,2508.5124,N,07921.1310,W,1,11,1.6,13,M,,M,,*60
05/31/2014	20:01:50.449	$GPGGA,200151,2508.5125,N,07921.1286,W,1,11,1.6,13,M,,M,,*6E
05/31/2014	20:01:51.423	$GPGGA,200152,2508.5127,N,07921.1262,W,1,11,1.6,13,M,,M,,*65
05/31/2014	20:01:52.517	$GPGGA,200153,2508.5128,N,07921.1237,W,1,11,1.6,13,M,,M,,*6B
05/31/2014	20:01:53.501	$GPGGA,200154,2508.5132,N,07921.1213,W,1,11,1.6,13,M,,M,,*61
05/31/2014	20:01:54.416	$GPGGA,200155,2508.5132,N,07921.1189,W,1,11,1.6,13,M,,M,,*60
05/31/2014	20:01:55.400	$GPGGA,200156,2508.5134,N,07921.1164,W,1,11,1.6,13,M,,M,,*66
05/31/2014	20:01:56.394	$GPGGA,200157,2508.5135,N,07921.1140,W,1,11,1.6,13,M,,M,,*60
05/31/2014	20:01:57.487	$GPGGA,200158,2508.5138,N,07921.1116,W,1,11,1.6,13,M,,M,,*61
05/31/2014	20:01:58.482	$GPGGA,200159,2508.5139,N,07921.1091,W,1,11,1.6,13,M,,M,,*6F
05/31/2014	20:01:59.386	$GPGGA,200200,2508.5139,N,07921.1067,W,1,11,1.6,13,M,,M,,*69
05/31/2014	20:02:00.343	$GPGGA,200201,2508.5141,N,07921.1042,W,1,11,1.6,13,M,,M,,*60
05/31/2014	20:02:01.444	$GPGGA,200202,2508.5143,N,07921.1018,W,1,11,1.6,13,M,,M,,*6E
05/31/2014	20:02:02.428	$GPGGA,200203,2508.5146,N,07921.0995,W,1,11,1.6,13,M,,M,,*67
05/31/2014	20:02:03.333	$GPGGA,200204,2508.5145,N,07921.0971,W,1,11,1.6,13,M,,M,,*69
05/31/2014	20:02:04.327	$GPGGA,200205,2508.5146,N,07921.0946,W,1,10,1.8,13,M,,M,,*60
05/31/2014	20:02:05.400	$GPGGA,200206,2508.5148,N,07921.0921,W,1,10,1.6,13,M,,M,,*62
05/31/2014	20:02:06.299	$GPGGA,200207,2508.5149,N,07921.0898,W,1,11,1.6,13,M,,M,,*60
05/31/2014	20:02:07.408	$GPGGA,200208,2508.5150,N,07921.0873,W,1,11,1.8,13,M,,M,,*6C
05/31/2014	20:02:08.372	$GPGGA,200209,2508.5150,N,07921.0848,W,1,11,1.6,13,M,,M,,*6B
05/31/2014	20:02:09.366	$GPGGA,200210,2508.5150,N,07921.0825,W,1,11,1.6,13,M,,M,,*68
05/31/2014	20:02:10.350	$GPGGA,200211,2508.5152,N,07921.0800,W,1,11,1.6,13,M,,M,,*6C
05/31/2014	20:02:11.364	$GPGGA,200212,2508.5151,N,07921.0776,W,1,11,1.6,13,M,,M,,*62
05/31/2014	20:02:12.388	$GPGGA,200213,2508.5153,N,07921.0751,W,1,11,1.6,13,M,,M,,*64
05/31/2014	20:02:13.342	$GPGGA,200214,2508.5154,N,07921.0727,W,1,11,1.6,13,M,,M,,*65
05/31/2014	20:02:14.346	$GPGGA,200215,2508.5154,N,07921.0703,W,1,11,1.6,13,M,,M,,*62
05/31/2014	20:02:15.331	$GPGGA,200216,2508.5154,N,07921.0679,W,1,11,1.6,13,M,,M,,*6D
05/31/2014	20:02:16.335	$GPGGA,200217,2508.5156,N,07921.0655,W,1,11,1.6,13,M,,M,,*60
05/31/2014	20:02:17.309	$GPGGA,200218,2508.5155,N,07921.0631,W,1,11,1.6,13,M,,M,,*6E
05/31/2014	20:02:18.293	$GPGGA,200219,2508.5156,N,07921.0607,W,1,11,1.6,13,M,,M,,*69
05/31/2014	20:02:19.297	$GPGGA,200220,2508.5157,N,07921.0583,W,1,11,1.6,13,M,,M,,*6D
05/31/2014	20:02:20.302	$GPGGA,200221,2508.5156,N,07921.0559,W,1,11,1.6,13,M,,M,,*6A
05/31/2014	20:02:21.265	$GPGGA,200222,2508.5157,N,07921.0535,W,1,11,1.6,13,M,,M,,*62
05/31/2014	20:02:22.289	$GPGGA,200223,2508.5156,N,07921.0511,W,1,11,1.6,13,M,,M,,*64
05/31/2014	20:02:23.283	$GPGGA,200224,2508.5159,N,07921.0487,W,1,11,1.6,13,M,,M,,*62
05/31/2014	20:02:24.247	$GPGGA,200225,2508.5158,N,07921.0463,W,1,11,1.6,13,M,,M,,*68
05/31/2014	20:02:25.241	$GPGGA,200226,2508.5157,N,07921.0440,W,1,11,1.6,13,M,,M,,*65
05/31/2014	20:02:26.255	$GPGGA,200227,2508.5159,N,07921.0416,W,1,11,1.6,13,M,,M,,*69
05/31/2014	20:02:27.593	$GPGGA,200228,2508.5161,N,07921.0392,W,1,11,1.8,13,M,,M,,*68
05/31/2014	20:02:28.597	$GPGGA,200229,2508.5161,N,07921.0368,W,1,11,1.6,13,M,,M,,*62
05/31/2014	20:02:29.561	$GPGGA,200230,2508.5159,N,07921.0344,W,1,11,1.6,13,M,,M,,*6F
05/31/2014	20:02:30.555	$GPGGA,200231,2508.5161,N,07921.0320,W,1,11,1.6,13,M,,M,,*67
05/31/2014	20:02:31.569	$GPGGA,200232,2508.5161,N,07921.0295,W,1,11,1.6,13,M,,M,,*6B
05/31/2014	20:02:32.573	$GPGGA,200233,2508.5161,N,07921.0271,W,1,11,1.6,13,M,,M,,*60
05/31/2014	20:02:33.538	$GPGGA,200234,2508.5161,N,07921.0248,W,1,11,1.6,13,M,,M,,*6D
05/31/2014	20:02:34.561	$GPGGA,200235,2508.5164,N,07921.0225,W,1,10,1.8,13,M,,M,,*6D
05/31/2014	20:02:35.526	$GPGGA,200236,2508.5164,N,07921.0202,W,1,10,1.8,13,M,,M,,*6B
05/31/2014	20:02:36.520	$GPGGA,200237,2508.5164,N,07921.0176,W,1,10,1.8,13,M,,M,,*6A
05/31/2014	20:02:37.524	$GPGGA,200238,2508.5165,N,07921.0151,W,1,10,1.6,13,M,,M,,*6F
05/31/2014	20:02:38.508	$GPGGA,200239,2508.5168,N,07921.0126,W,1,11,1.6,13,M,,M,,*62
05/31/2014	20:02:39.502	$GPGGA,200240,2508.5168,N,07921.0101,W,1,11,1.6,13,M,,M,,*69
05/31/2014	20:02:40.496	$GPGGA,200241,2508.5170,N,07921.0076,W,1,11,1.6,13,M,,M,,*60
05/31/2014	20:02:41.461	$GPGGA,200242,2508.5172,N,07921.0052,W,1,11,1.6,13,M,,M,,*67
05/31/2014	20:02:42.573	$GPGGA,200243,2508.5172,N,07921.0027,W,1,11,1.6,13,M,,M,,*64
05/31/2014	20:02:43.468	$GPGGA,200244,2508.5174,N,07921.0003,W,1,11,1.6,13,M,,M,,*63
05/31/2014	20:02:44.541	$GPGGA,200245,2508.5175,N,07920.9978,W,1,11,1.6,13,M,,M,,*6E
05/31/2014	20:02:45.426	$GPGGA,200246,2508.5177,N,07920.9954,W,1,11,1.6,13,M,,M,,*61
05/31/2014	20:02:46.440	$GPGGA,200247,2508.5179,N,07920.9930,W,1,11,1.6,14,M,,M,,*6B
05/31/2014	20:02:47.524	$GPGGA,200248,2508.5179,N,07920.9905,W,1,11,1.6,14,M,,M,,*62
05/31/2014	20:02:48.402	$GPGGA,200249,2508.5182,N,07920.9881,W,1,11,1.6,14,M,,M,,*6A
05/31/2014	20:02:49.412	$GPGGA,200250,2508.5185,N,07920.9857,W,1,11,1.6,14,M,,M,,*6E
05/31/2014	20:02:50.397	$GPGGA,200251,2508.5186,N,07920.9833,W,1,11,1.6,14,M,,M,,*6E
05/31/2014	20:02:51.500	$GPGGA,200252,2508.5186,N,07920.9809,W,1,11,1.6,14,M,,M,,*64
05/31/2014	20:02:52.514	$GPGGA,200253,2508.5189,N,07920.9785,W,1,11,1.6,14,M,,M,,*61
05/31/2014	20:02:53.468	$GPGGA,200254,2508.5190,N,07920.9761,W,1,11,1.6,14,M,,M,,*64
05/31/2014	20:02:54.462	$GPGGA,200255,2508.5193,N,07920.9737,W,1,11,1.6,14,M,,M,,*65
05/31/2014	20:02:55.466	$GPGGA,200256,2508.5193,N,07920.9713,W,1,11,1.6,14,M,,M,,*60
05/31/2014	20:02:56.470	$GPGGA,200257,2508.5196,N,07920.9689,W,1,11,1.6,14,M,,M,,*66
05/31/2014	20:02:57.425	$GPGGA,200258,2508.5197,N,07920.9665,W,1,11,1.6,14,M,,M,,*6A
05/31/2014	20:02:58.419	$GPGGA,200259,2508.5199,N,07920.9641,W,1,11,1.6,14,M,,M,,*63
05/31/2014	20:02:59.452	$GPGGA,200300,2508.5201,N,07920.9618,W,1,11,1.6,14,M,,M,,*60
05/31/2014	20:03:00.427	$GPGGA,200301,2508.5203,N,07920.9594,W,1,11,1.6,14,M,,M,,*64
05/31/2014	20:03:01.410	$GPGGA,200302,2508.5204,N,07920.9570,W,1,11,1.6,14,M,,M,,*6A
05/31/2014	20:03:02.414	$GPGGA,200303,2508.5206,N,07920.9545,W,1,11,1.6,14,M,,M,,*6F
05/31/2014	20:03:03.388	$GPGGA,200304,2508.5207,N,07920.9522,W,1,11,1.6,14,M,,M,,*68
05/31/2014	20:03:04.392	$GPGGA,200305,2508.5208,N,07920.9498,W,1,11,1.6,14,M,,M,,*66
05/31/2014	20:03:05.367	$GPGGA,200306,2508.5211,N,07920.9474,W,1,11,1.6,14,M,,M,,*6F
05/31/2014	20:03:06.381	$GPGGA,200307,2508.5211,N,07920.9450,W,1,11,1.6,14,M,,M,,*68
05/31/2014	20:03:07.365	$GPGGA,200308,2508.5214,N,07920.9426,W,1,11,1.6,14,M,,M,,*63
05/31/2014	20:03:08.339	$GPGGA,200309,2508.5215,N,07920.9402,W,1,11,1.6,14,M,,M,,*65
05/31/2014	20:03:09.343	$GPGGA,200310,2508.5217,N,07920.9378,W,1,11,1.6,14,M,,M,,*65
05/31/2014	20:03:10.347	$GPGGA,200311,2508.5219,N,07920.9354,W,1,11,1.6,14,M,,M,,*64
05/31/2014	20:03:11.321	$GPGGA,200312,2508.5219,N,07920.9330,W,1,11,1.6,14,M,,M,,*65
05/31/2014	20:03:12.305	$GPGGA,200313,2508.5222,N,07920.9306,W,1,11,1.6,14,M,,M,,*69
05/31/2014	20:03:13.300	$GPGGA,200314,2508.5224,N,07920.9282,W,1,11,1.6,14,M,,M,,*65
05/31/2014	20:03:14.294	$GPGGA,200315,2508.5225,N,07920.9258,W,1,11,1.6,14,M,,M,,*62
05/31/2014	20:03:15.309	$GPGGA,200316,2508.5226,N,07920.9234,W,1,11,1.6,14,M,,M,,*68
05/31/2014	20:03:16.272	$GPGGA,200317,2508.5229,N,07920.9210,W,1,11,1.6,14,M,,M,,*60
05/31/2014	20:03:17.265	$GPGGA,200318,2508.5229,N,07920.9186,W,1,11,1.6,14,M,,M,,*63
05/31/2014	20:03:18.309	$GPGGA,200319,2508.5230,N,07920.9162,W,1,11,1.6,14,M,,M,,*60
05/31/2014	20:03:19.263	$GPGGA,200320,2508.5233,N,07920.9138,W,1,11,1.6,14,M,,M,,*66
05/31/2014	20:03:20.267	$GPGGA,200321,2508.5235,N,07920.9114,W,1,11,1.6,14,M,,M,,*6F
05/31/2014	20:03:21.241	$GPGGA,200322,2508.5236,N,07920.9090,W,1,11,1.6,14,M,,M,,*62
05/31/2014	20:03:22.245	$GPGGA,200323,2508.5237,N,07920.9066,W,1,11,1.6,14,M,,M,,*6B
05/31/2014	20:03:23.230	$GPGGA,200324,2508.5239,N,07920.9042,W,1,11,1.6,14,M,,M,,*64
05/31/2014	20:03:24.393	$GPGGA,200325,2508.5240,N,07920.9018,W,1,11,1.6,14,M,,M,,*64
05/31/2014	20:03:25.208	$GPGGA,200326,2508.5240,N,07920.8994,W,1,11,1.6,14,M,,M,,*6B
05/31/2014	20:03:26.381	$GPGGA,200327,2508.5242,N,07920.8970,W,1,11,1.6,14,M,,M,,*62
05/31/2014	20:03:27.561	$GPGGA,200328,2508.5243,N,07920.8945,W,1,11,1.6,14,M,,M,,*6A
05/31/2014	20:03:28.724	$GPGGA,200329,2508.5244,N,07920.8921,W,1,11,1.6,14,M,,M,,*6E
05/31/2014	20:03:29.529	$GPGGA,200330,2508.5244,N,07920.8897,W,1,11,1.6,14,M,,M,,*6A
05/31/2014	20:03:30.712	$GPGGA,200331,2508.5246,N,07920.8873,W,1,11,1.6,14,M,,M,,*63
05/31/2014	20:03:31.537	$GPGGA,200332,2508.5245,N,07920.8849,W,1,11,1.6,14,M,,M,,*6A
05/31/2014	20:03:32.701	$GPGGA,200333,2508.5247,N,07920.8825,W,1,11,1.6,14,M,,M,,*63
05/31/2014	20:03:33.625	$GPGGA,200334,2508.5246,N,07920.8802,W,1,11,1.6,14,M,,M,,*60
05/31/2014	20:03:34.688	$GPGGA,200335,2508.5247,N,07920.8777,W,1,10,1.6,14,M,,M,,*6C
05/31/2014	20:03:35.503	$GPGGA,200336,2508.5250,N,07920.8754,W,1,10,1.6,14,M,,M,,*68
05/31/2014	20:03:36.666	$GPGGA,200337,2508.5249,N,07920.8731,W,1,10,1.6,14,M,,M,,*62
05/31/2014	20:03:37.471	$GPGGA,200338,2508.5250,N,07920.8707,W,1,10,1.6,14,M,,M,,*60
05/31/2014	20:03:38.664	$GPGGA,200339,2508.5251,N,07920.8683,W,1,11,1.8,14,M,,M,,*62
05/31/2014	20:03:39.589	$GPGGA,200340,2508.5251,N,07920.8659,W,1,11,1.8,14,M,,M,,*6B
05/31/2014	20:03:40.632	$GPGGA,200341,2508.5251,N,07920.8635,W,1,11,1.6,14,M,,M,,*6E
05/31/2014	20:03:41.577	$GPGGA,200342,2508.5251,N,07920.8611,W,1,11,1.8,14,M,,M,,*65
05/31/2014	20:03:42.631	$GPGGA,200343,2508.5253,N,07920.8587,W,1,10,1.8,14,M,,M,,*6B
05/31/2014	20:03:43.555	$GPGGA,200344,2508.5254,N,07920.8563,W,1,10,1.6,14,M,,M,,*6F
05/31/2014	20:03:44.500	$GPGGA,200345,2508.5253,N,07920.8538,W,1,10,1.8,14,M,,M,,*69
05/31/2014	20:03:45.523	$GPGGA,200346,2508.5255,N,07920.8513,W,1,10,1.6,14,M,,M,,*6B
05/31/2014	20:03:46.587	$GPGGA,200347,2508.5255,N,07920.8490,W,1,11,1.8,14,M,,M,,*6F
05/31/2014	20:03:47.522	$GPGGA,200348,2508.5255,N,07920.8466,W,1,11,1.8,14,M,,M,,*69
05/31/2014	20:03:48.466	$GPGGA,200349,2508.5255,N,07920.8443,W,1,10,1.8,13,M,,M,,*69
05/31/2014	20:03:49.460	$GPGGA,200350,2508.5257,N,07920.8419,W,1,10,1.8,13,M,,M,,*6C
05/31/2014	20:03:50.573	$GPGGA,200351,2508.5256,N,07920.8393,W,1,10,1.6,13,M,,M,,*67
05/31/2014	20:03:51.457	$GPGGA,200352,2508.5258,N,07920.8369,W,1,10,1.6,13,M,,M,,*6F
05/31/2014	20:03:52.551	$GPGGA,200353,2508.5258,N,07920.8346,W,1,10,1.8,13,M,,M,,*6D
05/31/2014	20:03:53.435	$GPGGA,200354,2508.5257,N,07920.8320,W,1,10,1.8,13,M,,M,,*65
05/31/2014	20:03:54.549	$GPGGA,200355,2508.5258,N,07920.8294,W,1,11,1.6,13,M,,M,,*6A
05/31/2014	20:03:55.455	$GPGGA,200356,2508.5260,N,07920.8269,W,1,11,1.6,13,M,,M,,*60
05/31/2014	20:03:56.400	$GPGGA,200357,2508.5261,N,07920.8243,W,1,11,1.6,13,M,,M,,*68
05/31/2014	20:03:57.427	$GPGGA,200358,2508.5262,N,07920.8217,W,1,11,1.6,13,M,,M,,*65
05/31/2014	20:03:58.514	$GPGGA,200359,2508.5262,N,07920.8192,W,1,11,1.6,14,M,,M,,*6D
05/31/2014	20:03:59.443	$GPGGA,200400,2508.5262,N,07920.8167,W,1,11,1.6,14,M,,M,,*6C
05/31/2014	20:04:00.499	$GPGGA,200401,2508.5264,N,07920.8142,W,1,11,1.6,14,M,,M,,*6C
05/31/2014	20:04:01.406	$GPGGA,200402,2508.5265,N,07920.8117,W,1,11,1.6,14,M,,M,,*6E
05/31/2014	20:04:02.453	$GPGGA,200403,2508.5264,N,07920.8092,W,1,11,1.6,14,M,,M,,*62
05/31/2014	20:04:03.381	$GPGGA,200404,2508.5266,N,07920.8068,W,1,11,1.6,14,M,,M,,*62
05/31/2014	20:04:04.478	$GPGGA,200405,2508.5266,N,07920.8043,W,1,11,1.6,14,M,,M,,*6A
05/31/2014	20:04:05.395	$GPGGA,200406,2508.5269,N,07920.8019,W,1,11,1.6,14,M,,M,,*69
05/31/2014	20:04:06.442	$GPGGA,200407,2508.5269,N,07920.7995,W,1,11,1.6,15,M,,M,,*6B
05/31/2014	20:04:07.390	$GPGGA,200408,2508.5269,N,07920.7971,W,1,11,1.6,15,M,,M,,*6E
05/31/2014	20:04:08.427	$GPGGA,200409,2508.5272,N,07920.7948,W,1,10,1.6,15,M,,M,,*6E
05/31/2014	20:04:09.374	$GPGGA,200410,2508.5273,N,07920.7924,W,1,10,1.6,15,M,,M,,*6D
05/31/2014	20:04:10.341	$GPGGA,200411,2508.5273,N,07920.7900,W,1,11,1.6,15,M,,M,,*6B
05/31/2014	20:04:11.388	$GPGGA,200412,2508.5275,N,07920.7877,W,1,11,1.6,15,M,,M,,*6F
05/31/2014	20:04:12.465	$GPGGA,200413,2508.5276,N,07920.7854,W,1,11,1.6,15,M,,M,,*6C
05/31/2014	20:04:13.353	$GPGGA,200414,2508.5277,N,07920.7830,W,1,11,1.6,15,M,,M,,*68
05/31/2014	20:04:14.410	$GPGGA,200415,2508.5280,N,07920.7806,W,1,11,1.6,15,M,,M,,*64
05/31/2014	20:04:15.357	$GPGGA,200416,2508.5280,N,07920.7782,W,1,11,1.6,16,M,,M,,*67
05/31/2014	20:04:16.404	$GPGGA,200417,2508.5283,N,07920.7758,W,1,11,1.6,16,M,,M,,*62
05/31/2014	20:04:17.302	$GPGGA,200418,2508.5284,N,07920.7735,W,1,11,1.6,16,M,,M,,*61
05/31/2014	20:04:18.389	$GPGGA,200419,2508.5286,N,07920.7711,W,1,11,1.6,16,M,,M,,*64
05/31/2014	20:04:19.307	$GPGGA,200420,2508.5287,N,07920.7688,W,1,11,1.6,16,M,,M,,*6E
05/31/2014	20:04:20.384	$GPGGA,200421,2508.5289,N,07920.7665,W,1,11,1.6,16,M,,M,,*62
05/31/2014	20:04:21.396	$GPGGA,200422,2508.5291,N,07920.7641,W,1,11,1.6,16,M,,M,,*6E
05/31/2014	20:04:22.428	$GPGGA,200423,2508.5293,N,07920.7617,W,1,11,1.6,16,M,,M,,*6E
05/31/2014	20:04:23.380	$GPGGA,200424,2508.5294,N,07920.7593,W,1,11,1.6,16,M,,M,,*61
05/31/2014	20:04:24.413	$GPGGA,200425,2508.5297,N,07920.7569,W,1,11,1.6,16,M,,M,,*66
05/31/2014	20:04:25.362	$GPGGA,200426,2508.5298,N,07920.7545,W,1,11,1.6,16,M,,M,,*64
05/31/2014	20:04:26.386	$GPGGA,200427,2508.5300,N,07920.7522,W,1,11,1.6,16,M,,M,,*64
05/31/2014	20:04:27.629	$GPGGA,200428,2508.5302,N,07920.7498,W,1,11,1.6,16,M,,M,,*69
05/31/2014	20:04:28.646	$GPGGA,200429,2508.5304,N,07920.7475,W,1,11,1.6,16,M,,M,,*6D
05/31/2014	20:04:29.604	$GPGGA,200430,2508.5305,N,07920.7451,W,1,11,1.6,16,M,,M,,*62
05/31/2014	20:04:30.631	$GPGGA,200431,2508.5307,N,07920.7427,W,1,11,1.6,16,M,,M,,*60
05/31/2014	20:04:31.628	$GPGGA,200432,2508.5308,N,07920.7403,W,1,11,1.6,16,M,,M,,*6A
05/31/2014	20:04:32.666	$GPGGA,200433,2508.5309,N,07920.7379,W,1,11,1.6,16,M,,M,,*60
05/31/2014	20:04:33.583	$GPGGA,200434,2508.5311,N,07920.7355,W,1,11,1.6,16,M,,M,,*60
05/31/2014	20:04:34.630	$GPGGA,200435,2508.5313,N,07920.7331,W,1,11,1.6,16,M,,M,,*61
05/31/2014	20:04:35.588	$GPGGA,200436,2508.5313,N,07920.7307,W,1,11,1.6,16,M,,M,,*67
05/31/2014	20:04:36.615	$GPGGA,200437,2508.5315,N,07920.7283,W,1,11,1.6,16,M,,M,,*6D
05/31/2014	20:04:37.552	$GPGGA,200438,2508.5316,N,07920.7259,W,1,11,1.6,16,M,,M,,*66
05/31/2014	20:04:38.600	$GPGGA,200439,2508.5318,N,07920.7235,W,1,11,1.6,16,M,,M,,*63
05/31/2014	20:04:39.577	$GPGGA,200440,2508.5319,N,07920.7211,W,1,11,1.6,16,M,,M,,*6A
05/31/2014	20:04:40.594	$GPGGA,200441,2508.5320,N,07920.7187,W,1,11,1.6,16,M,,M,,*6D
05/31/2014	20:04:41.542	$GPGGA,200442,2508.5322,N,07920.7163,W,1,11,1.6,16,M,,M,,*66
05/31/2014	20:04:42.569	$GPGGA,200443,2508.5323,N,07920.7139,W,1,11,1.6,16,M,,M,,*69
05/31/2014	20:04:43.556	$GPGGA,200444,2508.5323,N,07920.7115,W,1,11,1.6,16,M,,M,,*60
05/31/2014	20:04:44.562	$GPGGA,200445,2508.5324,N,07920.7091,W,1,11,1.6,16,M,,M,,*6B
05/31/2014	20:04:45.530	$GPGGA,200446,2508.5326,N,07920.7067,W,1,11,1.6,16,M,,M,,*63
05/31/2014	20:04:46.627	$GPGGA,200447,2508.5327,N,07920.7043,W,1,11,1.6,16,M,,M,,*65
05/31/2014	20:04:47.544	$GPGGA,200448,2508.5327,N,07920.7018,W,1,11,1.6,16,M,,M,,*64
05/31/2014	20:04:48.581	$GPGGA,200449,2508.5329,N,07920.6994,W,1,11,1.7,16,M,,M,,*66
05/31/2014	20:04:49.519	$GPGGA,200450,2508.5331,N,07920.6971,W,1,11,1.7,16,M,,M,,*6C
05/31/2014	20:04:50.566	$GPGGA,200451,2508.5331,N,07920.6947,W,1,11,1.6,16,M,,M,,*69
05/31/2014	20:04:51.543	$GPGGA,200452,2508.5331,N,07920.6947,W,1,11,1.6,16,M,,M,,*6A
05/31/2014	20:04:52.541	$GPGGA,200453,2508.5331,N,07920.6899,W,1,11,1.6,16,M,,M,,*69
05/31/2014	20:04:53.478	$GPGGA,200454,2508.5333,N,07920.6875,W,1,11,1.6,16,M,,M,,*6E
05/31/2014	20:04:54.545	$GPGGA,200455,2508.5334,N,07920.6851,W,1,11,1.6,16,M,,M,,*6E
05/31/2014	20:04:55.493	$GPGGA,200456,2508.5334,N,07920.6827,W,1,11,1.6,16,M,,M,,*6C
05/31/2014	20:04:56.540	$GPGGA,200457,2508.5334,N,07920.6803,W,1,11,1.6,16,M,,M,,*6B
05/31/2014	20:04:57.467	$GPGGA,200458,2508.5336,N,07920.6778,W,1,11,1.6,16,M,,M,,*65
05/31/2014	20:04:58.465	$GPGGA,200459,2508.5338,N,07920.6754,W,1,11,1.6,15,M,,M,,*67
05/31/2014	20:04:59.592	$GPGGA,200500,2508.5338,N,07920.6730,W,1,11,1.6,15,M,,M,,*68
05/31/2014	20:05:00.489	$GPGGA,200501,2508.5338,N,07920.6730,W,1,11,1.6,15,M,,M,,*69
05/31/2014	20:05:01.436	$GPGGA,200502,2508.5340,N,07920.6681,W,1,11,1.6,15,M,,M,,*6E
05/31/2014	20:05:02.563	$GPGGA,200503,2508.5338,N,07920.6657,W,1,11,1.6,15,M,,M,,*6B
05/31/2014	20:05:03.460	$GPGGA,200504,2508.5340,N,07920.6633,W,1,11,1.6,15,M,,M,,*61
05/31/2014	20:05:04.567	$GPGGA,200505,2508.5341,N,07920.6609,W,1,11,1.6,15,M,,M,,*68
05/31/2014	20:05:05.435	$GPGGA,200506,2508.5341,N,07920.6585,W,1,11,1.6,15,M,,M,,*6C
05/31/2014	20:05:06.522	$GPGGA,200507,2508.5342,N,07920.6560,W,1,11,1.6,15,M,,M,,*65
05/31/2014	20:05:07.529	$GPGGA,200508,2508.5344,N,07920.6535,W,1,11,1.6,15,M,,M,,*6C
05/31/2014	20:05:08.546	$GPGGA,200509,2508.5344,N,07920.6535,W,1,11,1.6,15,M,,M,,*6D
05/31/2014	20:05:09.514	$GPGGA,200510,2508.5345,N,07920.6486,W,1,11,1.6,14,M,,M,,*6C
05/31/2014	20:05:10.511	$GPGGA,200511,2508.5347,N,07920.6462,W,1,11,1.6,14,M,,M,,*65
05/31/2014	20:05:11.508	$GPGGA,200512,2508.5346,N,07920.6438,W,1,11,1.6,14,M,,M,,*68
05/31/2014	20:05:12.516	$GPGGA,200513,2508.5349,N,07920.6414,W,1,11,1.6,14,M,,M,,*68
05/31/2014	20:05:13.483	$GPGGA,200514,2508.5349,N,07920.6389,W,1,11,1.6,14,M,,M,,*6C
05/31/2014	20:05:14.520	$GPGGA,200515,2508.5349,N,07920.6364,W,1,11,1.6,14,M,,M,,*6E
05/31/2014	20:05:15.478	$GPGGA,200516,2508.5352,N,07920.6340,W,1,11,1.6,14,M,,M,,*61
05/31/2014	20:05:16.465	$GPGGA,200517,2508.5352,N,07920.6315,W,1,11,1.6,14,M,,M,,*60
05/31/2014	20:05:17.462	$GPGGA,200518,2508.5354,N,07920.6291,W,1,11,1.6,14,M,,M,,*64
05/31/2014	20:05:18.482	$GPGGA,200519,2508.5355,N,07920.6267,W,1,11,1.6,14,M,,M,,*6D
05/31/2014	20:05:19.466	$GPGGA,200520,2508.5356,N,07920.6242,W,1,11,1.6,14,M,,M,,*63
05/31/2014	20:05:20.480	$GPGGA,200521,2508.5358,N,07920.6218,W,1,11,1.6,14,M,,M,,*63
05/31/2014	20:05:21.460	$GPGGA,200522,2508.5359,N,07920.6193,W,1,11,1.6,14,M,,M,,*61
05/31/2014	20:05:22.438	$GPGGA,200523,2508.5358,N,07920.6169,W,1,11,1.6,14,M,,M,,*64
05/31/2014	20:05:23.455	$GPGGA,200524,2508.5360,N,07920.6145,W,1,11,1.6,14,M,,M,,*66
05/31/2014	20:05:24.423	$GPGGA,200525,2508.5363,N,07920.6120,W,1,11,1.6,14,M,,M,,*67
05/31/2014	20:05:25.430	$GPGGA,200526,2508.5363,N,07920.6096,W,1,11,1.6,13,M,,M,,*6F
05/31/2014	20:05:26.448	$GPGGA,200527,2508.5365,N,07920.6072,W,1,11,1.6,13,M,,M,,*62
05/31/2014	20:05:27.587	$GPGGA,200528,2508.5366,N,07920.6048,W,1,11,1.6,13,M,,M,,*67
05/31/2014	20:05:28.585	$GPGGA,200529,2508.5367,N,07920.6023,W,1,11,1.6,13,M,,M,,*6A
05/31/2014	20:05:29.562	$GPGGA,200530,2508.5369,N,07920.5999,W,1,11,1.6,13,M,,M,,*67
05/31/2014	20:05:30.589	$GPGGA,200531,2508.5370,N,07920.5974,W,1,11,1.6,13,M,,M,,*6D
05/31/2014	20:05:31.577	$GPGGA,200532,2508.5372,N,07920.5950,W,1,11,1.6,13,M,,M,,*6A
05/31/2014	20:05:32.554	$GPGGA,200533,2508.5373,N,07920.5926,W,1,11,1.6,13,M,,M,,*6B
05/31/2014	20:05:33.551	$GPGGA,200534,2508.5374,N,07920.5901,W,1,11,1.6,13,M,,M,,*6E
05/31/2014	20:05:34.538	$GPGGA,200535,2508.5376,N,07920.5877,W,1,11,1.6,13,M,,M,,*6D
05/31/2014	20:05:35.546	$GPGGA,200536,2508.5378,N,07920.5852,W,1,11,1.6,13,M,,M,,*67
05/31/2014	20:05:36.562	$GPGGA,200537,2508.5380,N,07920.5827,W,1,11,1.6,13,M,,M,,*63
05/31/2014	20:05:37.529	$GPGGA,200538,2508.5381,N,07920.5803,W,1,11,1.6,13,M,,M,,*6B
05/31/2014	20:05:38.517	$GPGGA,200539,2508.5381,N,07920.5779,W,1,11,1.6,13,M,,M,,*68
05/31/2014	20:05:39.524	$GPGGA,200540,2508.5384,N,07920.5754,W,1,11,1.6,13,M,,M,,*6C
05/31/2014	20:05:40.521	$GPGGA,200541,2508.5385,N,07920.5729,W,1,11,1.6,13,M,,M,,*66
05/31/2014	20:05:41.618	$GPGGA,200542,2508.5387,N,07920.5705,W,1,11,1.7,13,M,,M,,*68
05/31/2014	20:05:42.526	$GPGGA,200543,2508.5388,N,07920.5681,W,1,11,1.6,13,M,,M,,*6A
05/31/2014	20:05:43.513	$GPGGA,200544,2508.5389,N,07920.5656,W,1,11,1.6,12,M,,M,,*67
05/31/2014	20:05:44.600	$GPGGA,200545,2508.5391,N,07920.5632,W,1,11,1.6,12,M,,M,,*6D
05/31/2014	20:05:45.488	$GPGGA,200546,2508.5392,N,07920.5607,W,1,11,1.6,12,M,,M,,*6B
05/31/2014	20:05:46.495	$GPGGA,200547,2508.5394,N,07920.5583,W,1,11,1.6,12,M,,M,,*63
05/31/2014	20:05:47.592	$GPGGA,200548,2508.5395,N,07920.5559,W,1,11,1.6,12,M,,M,,*6A
05/31/2014	20:05:48.599	$GPGGA,200549,2508.5396,N,07920.5534,W,1,11,1.6,12,M,,M,,*63
05/31/2014	20:05:49.567	$GPGGA,200550,2508.5398,N,07920.5509,W,1,11,1.6,12,M,,M,,*6B
05/31/2014	20:05:50.574	$GPGGA,200551,2508.5399,N,07920.5485,W,1,11,1.6,12,M,,M,,*6E
05/31/2014	20:05:51.472	$GPGGA,200552,2508.5399,N,07920.5460,W,1,11,1.6,12,M,,M,,*66
05/31/2014	20:05:52.589	$GPGGA,200553,2508.5401,N,07920.5436,W,1,9,1.7,12,M,,M,,*5A
05/31/2014	20:05:53.546	$GPGGA,200554,2508.5402,N,07920.5413,W,1,9,1.6,12,M,,M,,*58
05/31/2014	20:05:54.552	$GPGGA,200555,2508.5403,N,07920.5389,W,1,11,1.6,12,M,,M,,*65
05/31/2014	20:05:55.550	$GPGGA,200556,2508.5403,N,07920.5365,W,1,11,1.6,12,M,,M,,*64
05/31/2014	20:05:56.567	$GPGGA,200557,2508.5403,N,07920.5341,W,1,11,1.6,12,M,,M,,*63
05/31/2014	20:05:57.534	$GPGGA,200558,2508.5405,N,07920.5317,W,1,11,1.6,11,M,,M,,*6A
05/31/2014	20:05:58.542	$GPGGA,200559,2508.5406,N,07920.5292,W,1,11,1.6,11,M,,M,,*64
05/31/2014	20:05:59.549	$GPGGA,200600,2508.5406,N,07920.5268,W,1,11,1.6,11,M,,M,,*6E
05/31/2014	20:06:00.546	$GPGGA,200601,2508.5407,N,07920.5244,W,1,11,1.6,11,M,,M,,*60
05/31/2014	20:06:01.503	$GPGGA,200602,2508.5410,N,07920.5219,W,1,11,1.6,11,M,,M,,*6D
05/31/2014	20:06:02.511	$GPGGA,200603,2508.5410,N,07920.5195,W,1,11,1.6,11,M,,M,,*6B
05/31/2014	20:06:03.522	$GPGGA,200604,2508.5412,N,07920.5170,W,1,11,1.6,11,M,,M,,*65
05/31/2014	20:06:04.515	$GPGGA,200605,2508.5413,N,07920.5146,W,1,11,1.6,11,M,,M,,*60
05/31/2014	20:06:05.483	$GPGGA,200606,2508.5414,N,07920.5121,W,1,11,1.6,11,M,,M,,*65
05/31/2014	20:06:06.500	$GPGGA,200607,2508.5416,N,07920.5097,W,1,11,1.6,11,M,,M,,*6A
05/31/2014	20:06:07.497	$GPGGA,200608,2508.5417,N,07920.5073,W,1,11,1.6,11,M,,M,,*6E
05/31/2014	20:06:08.476	$GPGGA,200609,2508.5416,N,07920.5048,W,1,11,1.6,11,M,,M,,*66
05/31/2014	20:06:09.482	$GPGGA,200610,2508.5417,N,07920.5024,W,1,11,1.6,11,M,,M,,*65
05/31/2014	20:06:10.459	$GPGGA,200611,2508.5420,N,07920.4999,W,1,11,1.6,11,M,,M,,*6E
05/31/2014	20:06:11.485	$GPGGA,200612,2508.5419,N,07920.4975,W,1,11,1.6,11,M,,M,,*65
05/31/2014	20:06:12.453	$GPGGA,200613,2508.5421,N,07920.4950,W,1,11,1.6,11,M,,M,,*68
05/31/2014	20:06:13.460	$GPGGA,200614,2508.5421,N,07920.4925,W,1,11,1.6,11,M,,M,,*6D
05/31/2014	20:06:14.467	$GPGGA,200615,2508.5424,N,07920.4901,W,1,11,1.6,11,M,,M,,*6F
05/31/2014	20:06:15.455	$GPGGA,200616,2508.5423,N,07920.4876,W,1,11,1.6,11,M,,M,,*6A
05/31/2014	20:06:16.432	$GPGGA,200617,2508.5424,N,07920.4852,W,1,11,1.6,11,M,,M,,*6A
05/31/2014	20:06:17.439	$GPGGA,200618,2508.5424,N,07920.4827,W,1,11,1.6,11,M,,M,,*67
05/31/2014	20:06:18.427	$GPGGA,200619,2508.5425,N,07920.4802,W,1,11,1.6,11,M,,M,,*60
05/31/2014	20:06:19.444	$GPGGA,200620,2508.5427,N,07920.4778,W,1,11,1.6,11,M,,M,,*6A
05/31/2014	20:06:20.411	$GPGGA,200621,2508.5426,N,07920.4753,W,1,11,1.6,11,M,,M,,*63
05/31/2014	20:06:21.419	$GPGGA,200622,2508.5427,N,07920.4729,W,1,11,1.6,11,M,,M,,*6C
05/31/2014	20:06:22.426	$GPGGA,200623,2508.5428,N,07920.4704,W,1,11,1.6,11,M,,M,,*6D
05/31/2014	20:06:23.413	$GPGGA,200624,2508.5428,N,07920.4679,W,1,11,1.6,11,M,,M,,*61
05/31/2014	20:06:24.410	$GPGGA,200625,2508.5430,N,07920.4654,W,1,11,1.6,11,M,,M,,*66
05/31/2014	20:06:25.398	$GPGGA,200626,2508.5429,N,07920.4629,W,1,11,1.6,11,M,,M,,*67
05/31/2014	20:06:26.515	$GPGGA,200627,2508.5432,N,07920.4604,W,1,10,1.6,11,M,,M,,*62
05/31/2014	20:06:27.412	$GPGGA,200628,2508.5432,N,07920.4578,W,1,10,1.6,11,M,,M,,*65
05/31/2014	20:06:28.371	$GPGGA,200629,2508.5432,N,07920.4553,W,1,11,1.6,11,M,,M,,*6C
05/31/2014	20:06:29.386	$GPGGA,200630,2508.5434,N,07920.4528,W,1,11,1.6,11,M,,M,,*6E
05/31/2014	20:06:30.393	$GPGGA,200631,2508.5435,N,07920.4504,W,1,10,1.6,11,M,,M,,*61
05/31/2014	20:06:31.480	$GPGGA,200632,2508.5436,N,07920.4480,W,1,10,1.6,11,M,,M,,*6C
05/31/2014	20:06:32.458	$GPGGA,200633,2508.5436,N,07920.4456,W,1,11,1.6,11,M,,M,,*67
05/31/2014	20:06:33.465	$GPGGA,200634,2508.5436,N,07920.4431,W,1,11,1.6,11,M,,M,,*61
05/31/2014	20:06:34.452	$GPGGA,200635,2508.5438,N,07920.4408,W,1,10,1.6,11,M,,M,,*65
05/31/2014	20:06:35.460	$GPGGA,200636,2508.5439,N,07920.4384,W,1,10,1.6,11,M,,M,,*64
05/31/2014	20:06:36.447	$GPGGA,200637,2508.5439,N,07920.4360,W,1,11,1.6,11,M,,M,,*6E
05/31/2014	20:06:37.434	$GPGGA,200638,2508.5439,N,07920.4336,W,1,11,1.6,11,M,,M,,*62
05/31/2014	20:06:38.432	$GPGGA,200639,2508.5441,N,07920.4312,W,1,11,1.6,11,M,,M,,*6A
05/31/2014	20:06:39.339	$GPGGA,200640,2508.5442,N,07920.4288,W,1,11,1.6,11,M,,M,,*65
05/31/2014	20:06:40.446	$GPGGA,200641,2508.5443,N,07920.4263,W,1,11,1.6,11,M,,M,,*60
05/31/2014	20:06:41.413	$GPGGA,200642,2508.5445,N,07920.4239,W,1,11,1.6,11,M,,M,,*6A
05/31/2014	20:06:42.431	$GPGGA,200643,2508.5446,N,07920.4214,W,1,11,1.6,11,M,,M,,*67
05/31/2014	20:06:43.428	$GPGGA,200644,2508.5446,N,07920.4189,W,1,11,1.6,11,M,,M,,*67
05/31/2014	20:06:44.405	$GPGGA,200645,2508.5448,N,07920.4164,W,1,11,1.6,11,M,,M,,*6B
05/31/2014	20:06:45.393	$GPGGA,200646,2508.5450,N,07920.4139,W,1,11,1.6,11,M,,M,,*69
05/31/2014	20:06:46.409	$GPGGA,200647,2508.5450,N,07920.4115,W,1,11,1.6,11,M,,M,,*66
05/31/2014	20:06:47.423	$GPGGA,200648,2508.5450,N,07920.4090,W,1,11,1.6,11,M,,M,,*65
05/31/2014	20:06:48.384	$GPGGA,200649,2508.5453,N,07920.4065,W,1,11,1.6,11,M,,M,,*6D
05/31/2014	20:06:49.381	$GPGGA,200650,2508.5453,N,07920.4041,W,1,11,1.6,11,M,,M,,*63
05/31/2014	20:06:50.368	$GPGGA,200651,2508.5456,N,07920.4016,W,1,11,1.6,11,M,,M,,*65
05/31/2014	20:06:51.375	$GPGGA,200652,2508.5455,N,07920.3993,W,1,11,1.6,11,M,,M,,*66
05/31/2014	20:06:52.383	$GPGGA,200653,2508.5456,N,07920.3970,W,1,10,1.7,11,M,,M,,*69
05/31/2014	20:06:53.360	$GPGGA,200654,2508.5457,N,07920.3945,W,1,10,1.6,11,M,,M,,*68
05/31/2014	20:06:54.367	$GPGGA,200655,2508.5459,N,07920.3920,W,1,10,1.6,11,M,,M,,*64
05/31/2014	20:06:55.355	$GPGGA,200656,2508.5461,N,07920.3897,W,1,10,1.6,11,M,,M,,*61
05/31/2014	20:06:56.362	$GPGGA,200657,2508.5461,N,07920.3873,W,1,11,1.6,11,M,,M,,*6B
05/31/2014	20:06:57.339	$GPGGA,200658,2508.5463,N,07920.3848,W,1,11,1.6,11,M,,M,,*6E
05/31/2014	20:06:58.337	$GPGGA,200659,2508.5464,N,07920.3824,W,1,10,1.6,11,M,,M,,*63
05/31/2014	20:06:59.344	$GPGGA,200700,2508.5467,N,07920.3799,W,1,10,1.6,11,M,,M,,*64
05/31/2014	20:07:00.341	$GPGGA,200701,2508.5466,N,07920.3775,W,1,11,1.6,11,M,,M,,*67
05/31/2014	20:07:01.329	$GPGGA,200702,2508.5468,N,07920.3750,W,1,11,1.6,11,M,,M,,*6D
05/31/2014	20:07:02.336	$GPGGA,200703,2508.5471,N,07920.3726,W,1,11,1.6,11,M,,M,,*65
05/31/2014	20:07:03.313	$GPGGA,200704,2508.5472,N,07920.3701,W,1,11,1.6,11,M,,M,,*64
05/31/2014	20:07:04.329	$GPGGA,200705,2508.5474,N,07920.3676,W,1,11,1.6,11,M,,M,,*62
05/31/2014	20:07:05.297	$GPGGA,200706,2508.5475,N,07920.3652,W,1,11,1.6,11,M,,M,,*66
05/31/2014	20:07:06.324	$GPGGA,200707,2508.5478,N,07920.3629,W,1,11,1.6,11,M,,M,,*66
05/31/2014	20:07:07.291	$GPGGA,200708,2508.5479,N,07920.3604,W,1,11,1.6,11,M,,M,,*67
05/31/2014	20:07:08.289	$GPGGA,200709,2508.5479,N,07920.3579,W,1,10,1.6,11,M,,M,,*6E
05/31/2014	20:07:09.266	$GPGGA,200710,2508.5482,N,07920.3555,W,1,10,1.6,11,M,,M,,*6C
05/31/2014	20:07:10.383	$GPGGA,200711,2508.5482,N,07920.3531,W,1,11,1.6,10,M,,M,,*6F
05/31/2014	20:07:11.390	$GPGGA,200712,2508.5485,N,07920.3507,W,1,11,1.6,10,M,,M,,*6E
05/31/2014	20:07:12.378	$GPGGA,200713,2508.5486,N,07920.3482,W,1,11,1.6,10,M,,M,,*60
05/31/2014	20:07:13.255	$GPGGA,200714,2508.5488,N,07920.3457,W,1,11,1.6,10,M,,M,,*61
05/31/2014	20:07:14.372	$GPGGA,200715,2508.5490,N,07920.3432,W,1,11,1.6,10,M,,M,,*6A
05/31/2014	20:07:15.270	$GPGGA,200716,2508.5492,N,07920.3408,W,1,11,1.6,10,M,,M,,*62
05/31/2014	20:07:16.247	$GPGGA,200717,2508.5493,N,07920.3383,W,1,11,1.6,10,M,,M,,*66
05/31/2014	20:07:17.334	$GPGGA,200718,2508.5495,N,07920.3360,W,1,11,1.6,10,M,,M,,*62
05/31/2014	20:07:18.341	$GPGGA,200719,2508.5496,N,07920.3334,W,1,11,1.6,10,M,,M,,*61
05/31/2014	20:07:19.239	$GPGGA,200720,2508.5497,N,07920.3311,W,1,11,1.6,10,M,,M,,*6D
05/31/2014	20:07:20.346	$GPGGA,200721,2508.5497,N,07920.3287,W,1,10,1.7,10,M,,M,,*62
05/31/2014	20:07:21.312	$GPGGA,200722,2508.5500,N,07920.3263,W,1,10,1.6,10,M,,M,,*65
05/31/2014	20:07:22.230	$GPGGA,200723,2508.5500,N,07920.3238,W,1,11,1.6,10,M,,M,,*6B
05/31/2014	20:07:23.237	$GPGGA,200724,2508.5501,N,07920.3213,W,1,11,1.6,10,M,,M,,*64
05/31/2014	20:07:24.324	$GPGGA,200725,2508.5504,N,07920.3188,W,1,10,1.6,10,M,,M,,*60
05/31/2014	20:07:25.202	$GPGGA,200726,2508.5504,N,07920.3163,W,1,10,1.6,10,M,,M,,*66
05/31/2014	20:07:26.319	$GPGGA,200727,2508.5507,N,07920.3138,W,1,10,1.6,10,M,,M,,*6A
05/31/2014	20:07:19.797	$GPGGA,200728,2508.5508,N,07920.3113,W,1,10,1.6,10,M,,M,,*63
05/31/2014	20:07:20.765	$GPGGA,200729,2508.5510,N,07920.3089,W,1,11,1.6,10,M,,M,,*68
05/31/2014	20:07:21.762	$GPGGA,200730,2508.5511,N,07920.3064,W,1,11,1.6,10,M,,M,,*62
05/31/2014	20:07:22.789	$GPGGA,200731,2508.5511,N,07920.3039,W,1,11,1.6,10,M,,M,,*6B
05/31/2014	20:07:23.776	$GPGGA,200732,2508.5514,N,07920.3015,W,1,11,1.6,10,M,,M,,*63
05/31/2014	20:07:24.744	$GPGGA,200733,2508.5515,N,07920.2991,W,1,11,1.6,10,M,,M,,*67
05/31/2014	20:07:25.751	$GPGGA,200734,2508.5515,N,07920.2966,W,1,11,1.6,10,M,,M,,*68
05/31/2014	20:07:26.768	$GPGGA,200735,2508.5515,N,07920.2941,W,1,11,1.6,10,M,,M,,*6C
05/31/2014	20:07:27.786	$GPGGA,200736,2508.5517,N,07920.2917,W,1,11,1.6,10,M,,M,,*6E
05/31/2014	20:07:28.753	$GPGGA,200737,2508.5518,N,07920.2893,W,1,11,1.6,10,M,,M,,*6D
05/31/2014	20:07:29.741	$GPGGA,200738,2508.5517,N,07920.2869,W,1,11,1.6,10,M,,M,,*68
05/31/2014	20:07:30.749	$GPGGA,200739,2508.5518,N,07920.2845,W,1,11,1.6,10,M,,M,,*68
05/31/2014	20:07:31.734	$GPGGA,200740,2508.5518,N,07920.2821,W,1,11,1.6,10,M,,M,,*64
05/31/2014	20:07:32.711	$GPGGA,200741,2508.5519,N,07920.2797,W,1,10,1.6,10,M,,M,,*67
05/31/2014	20:07:33.699	$GPGGA,200742,2508.5521,N,07920.2772,W,1,10,1.6,10,M,,M,,*64
05/31/2014	20:07:34.736	$GPGGA,200743,2508.5520,N,07920.2748,W,1,11,1.6,10,M,,M,,*6C
05/31/2014	20:07:35.714	$GPGGA,200744,2508.5521,N,07920.2724,W,1,11,1.6,10,M,,M,,*60
05/31/2014	20:07:36.690	$GPGGA,200745,2508.5522,N,07920.2700,W,1,10,1.6,10,M,,M,,*65
05/31/2014	20:07:37.698	$GPGGA,200746,2508.5522,N,07920.2676,W,1,10,1.6,10,M,,M,,*66
05/31/2014	20:07:38.685	$GPGGA,200747,2508.5524,N,07920.2651,W,1,11,1.6,10,M,,M,,*65
05/31/2014	20:07:39.692	$GPGGA,200748,2508.5525,N,07920.2626,W,1,11,1.6,10,M,,M,,*6B
05/31/2014	20:07:40.700	$GPGGA,200749,2508.5526,N,07920.2601,W,1,9,1.7,10,M,,M,,*54
05/31/2014	20:07:41.677	$GPGGA,200750,2508.5526,N,07920.2577,W,1,9,1.6,10,M,,M,,*5F
05/31/2014	20:07:42.674	$GPGGA,200751,2508.5528,N,07920.2553,W,1,11,1.6,10,M,,M,,*6F
05/31/2014	20:07:43.672	$GPGGA,200752,2508.5527,N,07920.2528,W,1,11,1.6,10,M,,M,,*6F
05/31/2014	20:07:44.679	$GPGGA,200753,2508.5529,N,07920.2503,W,1,9,1.7,10,M,,M,,*51
05/31/2014	20:07:45.656	$GPGGA,200754,2508.5528,N,07920.2480,W,1,9,1.6,10,M,,M,,*5C
05/31/2014	20:07:46.644	$GPGGA,200755,2508.5529,N,07920.2456,W,1,11,1.6,10,M,,M,,*6E
05/31/2014	20:07:47.671	$GPGGA,200756,2508.5528,N,07920.2431,W,1,11,1.6,10,M,,M,,*6D
05/31/2014	20:07:48.637	$GPGGA,200757,2508.5529,N,07920.2407,W,1,10,1.6,10,M,,M,,*69
05/31/2014	20:07:49.724	$GPGGA,200758,2508.5532,N,07920.2381,W,1,10,1.6,10,M,,M,,*65
05/31/2014	20:07:50.642	$GPGGA,200759,2508.5533,N,07920.2357,W,1,11,1.6,10,M,,M,,*6F
05/31/2014	20:07:51.739	$GPGGA,200800,2508.5533,N,07920.2332,W,1,11,1.6,10,M,,M,,*6F
05/31/2014	20:07:52.606	$GPGGA,200801,2508.5533,N,07920.2308,W,1,11,1.6,10,M,,M,,*67
05/31/2014	20:07:53.703	$GPGGA,200802,2508.5535,N,07920.2284,W,1,11,1.6,10,M,,M,,*67
05/31/2014	20:07:54.721	$GPGGA,200803,2508.5536,N,07920.2259,W,1,11,1.6,10,M,,M,,*65
05/31/2014	20:07:55.738	$GPGGA,200804,2508.5536,N,07920.2235,W,1,11,1.6,10,M,,M,,*68
05/31/2014	20:07:56.715	$GPGGA,200805,2508.5536,N,07920.2210,W,1,11,1.6,10,M,,M,,*6E
05/31/2014	20:07:57.693	$GPGGA,200806,2508.5539,N,07920.2185,W,1,11,1.6,10,M,,M,,*6D
05/31/2014	20:07:58.580	$GPGGA,200807,2508.5540,N,07920.2159,W,1,11,1.6,10,M,,M,,*63
05/31/2014	20:07:59.587	$GPGGA,200808,2508.5542,N,07920.2134,W,1,11,1.6,10,M,,M,,*65
05/31/2014	20:08:00.585	$GPGGA,200809,2508.5541,N,07920.2110,W,1,10,1.6,10,M,,M,,*60
05/31/2014	20:08:01.572	$GPGGA,200810,2508.5543,N,07920.2086,W,1,10,1.6,10,M,,M,,*64
05/31/2014	20:08:02.669	$GPGGA,200811,2508.5544,N,07920.2061,W,1,11,1.6,10,M,,M,,*6A
05/31/2014	20:08:03.686	$GPGGA,200812,2508.5544,N,07920.2036,W,1,11,1.6,10,M,,M,,*6B
05/31/2014	20:08:04.684	$GPGGA,200813,2508.5546,N,07920.2012,W,1,10,1.6,10,M,,M,,*6F
05/31/2014	20:08:05.651	$GPGGA,200814,2508.5547,N,07920.1987,W,1,10,1.6,10,M,,M,,*6F
05/31/2014	20:08:06.667	$GPGGA,200815,2508.5549,N,07920.1963,W,1,11,1.6,10,M,,M,,*6B
05/31/2014	20:08:07.655	$GPGGA,200816,2508.5550,N,07920.1939,W,1,11,1.6,10,M,,M,,*6F
05/31/2014	20:08:08.662	$GPGGA,200817,2508.5551,N,07920.1913,W,1,11,1.6,10,M,,M,,*67
05/31/2014	20:08:09.663	$GPGGA,200818,2508.5554,N,07920.1888,W,1,11,1.6,10,M,,M,,*6E
05/31/2014	20:08:10.647	$GPGGA,200819,2508.5555,N,07920.1864,W,1,10,1.6,10,M,,M,,*6D
05/31/2014	20:08:11.634	$GPGGA,200820,2508.5555,N,07920.1839,W,1,10,1.6,10,M,,M,,*6F
05/31/2014	20:08:12.631	$GPGGA,200821,2508.5558,N,07920.1816,W,1,11,1.9,10,M,,M,,*60
05/31/2014	20:08:13.609	$GPGGA,200822,2508.5557,N,07920.1794,W,1,11,1.6,10,M,,M,,*66
05/31/2014	20:08:16.092	$GPGGA,200823,2508.5560,N,07920.1769,W,1,11,2.0,10,M,,M,,*64
05/31/2014	20:08:16.112	$GPGGA,200824,2508.5562,N,07920.1746,W,1,11,1.6,11,M,,M,,*68
05/31/2014	20:08:16.620	$GPGGA,200825,2508.5562,N,07920.1723,W,1,10,1.6,11,M,,M,,*6B
05/31/2014	20:08:17.598	$GPGGA,200826,2508.5564,N,07920.1699,W,1,10,1.6,11,M,,M,,*6E
05/31/2014	20:08:18.605	$GPGGA,200827,2508.5565,N,07920.1675,W,1,11,1.9,11,M,,M,,*62
05/31/2014	20:08:19.766	$GPGGA,200828,2508.5566,N,07920.1651,W,1,11,1.9,11,M,,M,,*68
05/31/2014	20:08:20.764	$GPGGA,200829,2508.5569,N,07920.1627,W,1,10,1.9,11,M,,M,,*66
05/31/2014	20:08:21.731	$GPGGA,200830,2508.5569,N,07920.1602,W,1,10,1.6,11,M,,M,,*66
05/31/2014	20:08:22.718	$GPGGA,200831,2508.5571,N,07920.1579,W,1,11,1.9,11,M,,M,,*6F
05/31/2014	20:08:23.745	$GPGGA,200832,2508.5573,N,07920.1554,W,1,11,1.6,12,M,,M,,*6D
05/31/2014	20:08:24.752	$GPGGA,200833,2508.5573,N,07920.1530,W,1,11,1.6,12,M,,M,,*6E
05/31/2014	20:08:25.719	$GPGGA,200834,2508.5575,N,07920.1505,W,1,11,1.6,12,M,,M,,*69
05/31/2014	20:08:26.726	$GPGGA,200835,2508.5576,N,07920.1480,W,1,11,1.6,12,M,,M,,*67
05/31/2014	20:08:27.734	$GPGGA,200836,2508.5580,N,07920.1455,W,1,11,1.6,12,M,,M,,*65
05/31/2014	20:08:28.731	$GPGGA,200837,2508.5580,N,07920.1430,W,1,11,1.6,12,M,,M,,*67
05/31/2014	20:08:29.708	$GPGGA,200838,2508.5580,N,07920.1406,W,1,11,1.6,12,M,,M,,*6D
05/31/2014	20:08:30.686	$GPGGA,200839,2508.5583,N,07920.1381,W,1,10,1.6,12,M,,M,,*66
05/31/2014	20:08:31.713	$GPGGA,200840,2508.5584,N,07920.1357,W,1,10,1.6,12,M,,M,,*64
05/31/2014	20:08:32.710	$GPGGA,200841,2508.5586,N,07920.1331,W,1,10,1.6,12,M,,M,,*67
05/31/2014	20:08:33.797	$GPGGA,200842,2508.5587,N,07920.1306,W,1,10,1.6,12,M,,M,,*61
05/31/2014	20:08:34.705	$GPGGA,200843,2508.5590,N,07920.1280,W,1,11,1.6,12,M,,M,,*68
05/31/2014	20:08:35.712	$GPGGA,200844,2508.5589,N,07920.1256,W,1,11,1.6,12,M,,M,,*6C
05/31/2014	20:08:36.660	$GPGGA,200845,2508.5591,N,07920.1231,W,1,11,1.6,12,M,,M,,*65
05/31/2014	20:08:37.668	$GPGGA,200846,2508.5593,N,07920.1206,W,1,11,1.6,13,M,,M,,*61
05/31/2014	20:08:38.664	$GPGGA,200847,2508.5594,N,07920.1181,W,1,10,1.6,13,M,,M,,*6A
05/31/2014	20:08:39.761	$GPGGA,200848,2508.5593,N,07920.1157,W,1,10,1.6,13,M,,M,,*69
05/31/2014	20:08:40.669	$GPGGA,200849,2508.5594,N,07920.1131,W,1,11,1.6,13,M,,M,,*6E
05/31/2014	20:08:41.645	$GPGGA,200850,2508.5596,N,07920.1105,W,1,11,1.6,13,M,,M,,*63
05/31/2014	20:08:42.742	$GPGGA,200851,2508.5597,N,07920.1081,W,1,10,1.6,13,M,,M,,*6F
05/31/2014	20:08:43.650	$GPGGA,200852,2508.5597,N,07920.1081,W,1,10,1.6,13,M,,M,,*6C
05/31/2014	20:08:44.647	$GPGGA,200853,2508.5597,N,07920.1032,W,1,11,1.6,13,M,,M,,*64
05/31/2014	20:08:45.724	$GPGGA,200854,2508.5598,N,07920.1007,W,1,11,1.6,13,M,,M,,*6A
05/31/2014	20:08:46.711	$GPGGA,200855,2508.5598,N,07920.0983,W,1,10,1.6,13,M,,M,,*6E
05/31/2014	20:08:47.719	$GPGGA,200856,2508.5598,N,07920.0959,W,1,10,1.6,13,M,,M,,*6A
05/31/2014	20:08:48.707	$GPGGA,200857,2508.5600,N,07920.0934,W,1,11,1.6,13,M,,M,,*63
05/31/2014	20:08:49.705	$GPGGA,200858,2508.5601,N,07920.0909,W,1,11,1.6,13,M,,M,,*63
05/31/2014	20:08:50.734	$GPGGA,200859,2508.5600,N,07920.0885,W,1,11,1.6,13,M,,M,,*66
05/31/2014	20:08:51.732	$GPGGA,200900,2508.5601,N,07920.0859,W,1,11,1.6,13,M,,M,,*6B
05/31/2014	20:08:52.691	$GPGGA,200901,2508.5602,N,07920.0834,W,1,10,1.6,13,M,,M,,*63
05/31/2014	20:08:53.685	$GPGGA,200902,2508.5602,N,07920.0810,W,1,10,1.6,13,M,,M,,*66
05/31/2014	20:08:54.688	$GPGGA,200903,2508.5602,N,07920.0786,W,1,11,1.6,13,M,,M,,*66
05/31/2014	20:08:55.699	$GPGGA,200904,2508.5602,N,07920.0761,W,1,11,1.6,13,M,,M,,*68
05/31/2014	20:08:56.666	$GPGGA,200905,2508.5604,N,07920.0736,W,1,11,1.6,13,M,,M,,*6D
05/31/2014	20:08:57.663	$GPGGA,200906,2508.5605,N,07920.0711,W,1,11,1.6,13,M,,M,,*6A
05/31/2014	20:08:58.671	$GPGGA,200907,2508.5605,N,07920.0687,W,1,11,1.6,13,M,,M,,*65
05/31/2014	20:08:59.679	$GPGGA,200908,2508.5605,N,07920.0663,W,1,11,1.6,13,M,,M,,*60
05/31/2014	20:09:00.678	$GPGGA,200909,2508.5605,N,07920.0637,W,1,11,1.6,13,M,,M,,*60
05/31/2014	20:09:01.656	$GPGGA,200910,2508.5608,N,07920.0612,W,1,11,1.6,13,M,,M,,*62
05/31/2014	20:09:02.645	$GPGGA,200911,2508.5609,N,07920.0587,W,1,10,1.6,13,M,,M,,*6C
05/31/2014	20:09:03.663	$GPGGA,200912,2508.5609,N,07920.0562,W,1,10,1.6,13,M,,M,,*64
05/31/2014	20:09:04.680	$GPGGA,200913,2508.5609,N,07920.0537,W,1,10,1.6,13,M,,M,,*65
05/31/2014	20:09:05.640	$GPGGA,200914,2508.5611,N,07920.0513,W,1,10,1.6,13,M,,M,,*6D
05/31/2014	20:09:06.649	$GPGGA,200915,2508.5610,N,07920.0487,W,1,11,1.6,13,M,,M,,*60
05/31/2014	20:09:07.647	$GPGGA,200916,2508.5612,N,07920.0462,W,1,11,1.6,13,M,,M,,*6A
05/31/2014	20:09:08.646	$GPGGA,200917,2508.5612,N,07920.0437,W,1,10,1.6,13,M,,M,,*6A
05/31/2014	20:09:09.654	$GPGGA,200918,2508.5615,N,07920.0412,W,1,10,1.6,13,M,,M,,*65
05/31/2014	20:09:10.623	$GPGGA,200919,2508.5616,N,07920.0387,W,1,10,1.6,13,M,,M,,*6C
05/31/2014	20:09:11.631	$GPGGA,200920,2508.5616,N,07920.0362,W,1,10,1.6,13,M,,M,,*6D
05/31/2014	20:09:12.610	$GPGGA,200921,2508.5616,N,07920.0338,W,1,10,1.6,13,M,,M,,*63
05/31/2014	20:09:13.618	$GPGGA,200922,2508.5619,N,07920.0313,W,1,10,1.6,13,M,,M,,*66
05/31/2014	20:09:14.597	$GPGGA,200923,2508.5620,N,07920.0288,W,1,10,1.6,13,M,,M,,*6E
05/31/2014	20:09:15.635	$GPGGA,200924,2508.5620,N,07920.0263,W,1,10,1.6,13,M,,M,,*6C
05/31/2014	20:09:16.623	$GPGGA,200925,2508.5620,N,07920.0240,W,1,10,1.6,13,M,,M,,*6C
05/31/2014	20:09:17.611	$GPGGA,200926,2508.5622,N,07920.0216,W,1,10,1.6,13,M,,M,,*6E
05/31/2014	20:09:18.610	$GPGGA,200927,2508.5621,N,07920.0193,W,1,11,1.6,13,M,,M,,*63
05/31/2014	20:09:19.724	$GPGGA,200928,2508.5622,N,07920.0169,W,1,11,1.6,13,M,,M,,*6A
05/31/2014	20:09:20.712	$GPGGA,200929,2508.5623,N,07920.0146,W,1,11,1.6,13,M,,M,,*67
05/31/2014	20:09:21.712	$GPGGA,200930,2508.5623,N,07920.0123,W,1,11,1.9,13,M,,M,,*63
05/31/2014	20:09:22.809	$GPGGA,200931,2508.5623,N,07920.0100,W,1,11,1.6,13,M,,M,,*6C
05/31/2014	20:09:23.708	$GPGGA,200932,2508.5625,N,07920.0075,W,1,11,1.6,13,M,,M,,*6A
05/31/2014	20:09:24.696	$GPGGA,200933,2508.5626,N,07920.0051,W,1,11,1.6,13,M,,M,,*6E
05/31/2014	20:09:25.795	$GPGGA,200934,2508.5627,N,07920.0027,W,1,11,1.6,13,M,,M,,*69
05/31/2014	20:09:26.693	$GPGGA,200935,2508.5629,N,07920.0003,W,1,11,1.6,13,M,,M,,*60
05/31/2014	20:09:27.792	$GPGGA,200936,2508.5630,N,07919.9978,W,1,11,1.6,13,M,,M,,*6D
05/31/2014	20:09:28.700	$GPGGA,200937,2508.5631,N,07919.9952,W,1,11,1.6,13,M,,M,,*65
05/31/2014	20:09:29.669	$GPGGA,200938,2508.5633,N,07919.9928,W,1,11,1.9,13,M,,M,,*6A
05/31/2014	20:09:30.667	$GPGGA,200939,2508.5634,N,07919.9903,W,1,10,1.9,13,M,,M,,*64
05/31/2014	20:09:31.686	$GPGGA,200940,2508.5634,N,07919.9878,W,1,10,1.9,13,M,,M,,*67
05/31/2014	20:09:32.784	$GPGGA,200941,2508.5637,N,07919.9854,W,1,10,1.9,13,M,,M,,*6B
05/31/2014	20:09:33.662	$GPGGA,200942,2508.5638,N,07919.9830,W,1,10,1.6,13,M,,M,,*6A
05/31/2014	20:09:34.790	$GPGGA,200943,2508.5638,N,07919.9805,W,1,10,1.9,14,M,,M,,*65
05/31/2014	20:09:35.679	$GPGGA,200944,2508.5640,N,07919.9780,W,1,10,1.9,14,M,,M,,*6F
05/31/2014	20:09:36.747	$GPGGA,200945,2508.5641,N,07919.9757,W,1,10,1.9,14,M,,M,,*65
05/31/2014	20:09:37.736	$GPGGA,200946,2508.5643,N,07919.9732,W,1,10,1.6,14,M,,M,,*68
05/31/2014	20:09:38.744	$GPGGA,200947,2508.5642,N,07919.9708,W,1,11,1.6,14,M,,M,,*60
05/31/2014	20:09:39.763	$GPGGA,200948,2508.5644,N,07919.9685,W,1,11,1.6,14,M,,M,,*6D
05/31/2014	20:09:40.751	$GPGGA,200949,2508.5647,N,07919.9661,W,1,11,1.6,14,M,,M,,*65
05/31/2014	20:09:41.730	$GPGGA,200950,2508.5648,N,07919.9636,W,1,11,1.6,14,M,,M,,*60
05/31/2014	20:09:42.748	$GPGGA,200951,2508.5648,N,07919.9611,W,1,11,1.6,14,M,,M,,*64
05/31/2014	20:09:43.737	$GPGGA,200952,2508.5648,N,07919.9587,W,1,11,1.6,14,M,,M,,*6B
05/31/2014	20:09:44.715	$GPGGA,200953,2508.5652,N,07919.9562,W,1,11,1.6,14,M,,M,,*6A
05/31/2014	20:09:45.704	$GPGGA,200954,2508.5652,N,07919.9538,W,1,11,1.6,14,M,,M,,*62
05/31/2014	20:09:46.732	$GPGGA,200955,2508.5654,N,07919.9514,W,1,10,1.6,14,M,,M,,*6A
05/31/2014	20:09:47.721	$GPGGA,200956,2508.5655,N,07919.9489,W,1,10,1.6,14,M,,M,,*6D
05/31/2014	20:09:48.729	$GPGGA,200957,2508.5654,N,07919.9465,W,1,11,1.6,15,M,,M,,*6F
05/31/2014	20:09:49.699	$GPGGA,200958,2508.5656,N,07919.9440,W,1,11,1.6,15,M,,M,,*65
05/31/2014	20:09:50.717	$GPGGA,200959,2508.5656,N,07919.9417,W,1,10,1.6,15,M,,M,,*67
05/31/2014	20:09:51.724	$GPGGA,201000,2508.5656,N,07919.9392,W,1,10,1.6,15,M,,M,,*69
05/31/2014	20:09:52.682	$GPGGA,201001,2508.5658,N,07919.9367,W,1,11,1.6,15,M,,M,,*6D
05/31/2014	20:09:53.681	$GPGGA,201002,2508.5661,N,07919.9342,W,1,11,1.6,15,M,,M,,*63
05/31/2014	20:09:54.679	$GPGGA,201003,2508.5660,N,07919.9317,W,1,10,1.6,15,M,,M,,*62
05/31/2014	20:09:55.698	$GPGGA,201004,2508.5661,N,07919.9294,W,1,10,1.6,15,M,,M,,*6E
05/31/2014	20:09:56.676	$GPGGA,201005,2508.5662,N,07919.9269,W,1,11,1.6,15,M,,M,,*6F
05/31/2014	20:09:57.675	$GPGGA,201006,2508.5663,N,07919.9244,W,1,11,1.6,15,M,,M,,*62
05/31/2014	20:09:58.663	$GPGGA,201007,2508.5663,N,07919.9220,W,1,10,1.6,15,M,,M,,*60
05/31/2014	20:09:59.682	$GPGGA,201008,2508.5663,N,07919.9197,W,1,10,1.6,15,M,,M,,*60
05/31/2014	20:10:00.680	$GPGGA,201009,2508.5665,N,07919.9172,W,1,11,1.6,15,M,,M,,*6D
05/31/2014	20:10:01.649	$GPGGA,201010,2508.5666,N,07919.9147,W,1,11,1.6,15,M,,M,,*60
05/31/2014	20:10:02.657	$GPGGA,201011,2508.5665,N,07919.9123,W,1,10,1.6,15,M,,M,,*61
05/31/2014	20:10:03.656	$GPGGA,201012,2508.5667,N,07919.9098,W,1,10,1.6,15,M,,M,,*61
05/31/2014	20:10:04.644	$GPGGA,201013,2508.5669,N,07919.9073,W,1,10,1.6,15,M,,M,,*6B
05/31/2014	20:10:05.763	$GPGGA,201014,2508.5668,N,07919.9048,W,1,10,1.6,15,M,,M,,*65
05/31/2014	20:10:06.641	$GPGGA,201015,2508.5670,N,07919.9024,W,1,11,1.6,15,M,,M,,*66
05/31/2014	20:10:07.650	$GPGGA,201016,2508.5673,N,07919.9001,W,1,11,1.6,15,M,,M,,*61
05/31/2014	20:10:08.627	$GPGGA,201017,2508.5671,N,07919.8978,W,1,10,1.9,15,M,,M,,*6A
05/31/2014	20:10:09.636	$GPGGA,201018,2508.5674,N,07919.8954,W,1,10,1.6,15,M,,M,,*61
05/31/2014	20:10:10.634	$GPGGA,201019,2508.5676,N,07919.8930,W,1,10,1.6,15,M,,M,,*60
05/31/2014	20:10:11.723	$GPGGA,201020,2508.5677,N,07919.8905,W,1,10,1.6,15,M,,M,,*6D
05/31/2014	20:10:12.751	$GPGGA,201021,2508.5677,N,07919.8880,W,1,10,1.6,15,M,,M,,*60
05/31/2014	20:10:13.620	$GPGGA,201022,2508.5680,N,07919.8856,W,1,10,1.6,15,M,,M,,*60
05/31/2014	20:10:14.598	$GPGGA,201023,2508.5681,N,07919.8831,W,1,11,1.6,16,M,,M,,*63
05/31/2014	20:10:15.737	$GPGGA,201024,2508.5684,N,07919.8805,W,1,11,1.6,16,M,,M,,*66
05/31/2014	20:10:16.735	$GPGGA,201025,2508.5683,N,07919.8782,W,1,10,1.6,16,M,,M,,*61
05/31/2014	20:10:17.604	$GPGGA,201026,2508.5687,N,07919.8757,W,1,10,1.9,16,M,,M,,*61
05/31/2014	20:10:18.712	$GPGGA,201027,2508.5688,N,07919.8734,W,1,9,1.9,16,M,,M,,*52
05/31/2014	20:10:19.783	$GPGGA,201028,2508.5691,N,07919.8709,W,1,9,1.6,16,M,,M,,*54
05/31/2014	20:10:20.781	$GPGGA,201029,2508.5692,N,07919.8684,W,1,11,1.6,16,M,,M,,*6B
05/31/2014	20:10:21.770	$GPGGA,201030,2508.5695,N,07919.8659,W,1,11,1.6,16,M,,M,,*64
05/31/2014	20:10:22.670	$GPGGA,201031,2508.5696,N,07919.8633,W,1,10,1.9,16,M,,M,,*64
05/31/2014	20:10:23.687	$GPGGA,201032,2508.5699,N,07919.8608,W,1,10,1.9,16,M,,M,,*60
05/31/2014	20:10:24.795	$GPGGA,201033,2508.5702,N,07919.8583,W,1,10,1.9,16,M,,M,,*62
05/31/2014	20:10:25.754	$GPGGA,201034,2508.5703,N,07919.8559,W,1,10,1.9,16,M,,M,,*63
05/31/2014	20:10:26.751	$GPGGA,201035,2508.5706,N,07919.8534,W,1,11,1.6,16,M,,M,,*62
05/31/2014	20:10:27.760	$GPGGA,201036,2508.5708,N,07919.8509,W,1,11,1.9,16,M,,M,,*6E
05/31/2014	20:10:28.759	$GPGGA,201037,2508.5710,N,07919.8484,W,1,10,1.9,16,M,,M,,*63
05/31/2014	20:10:29.747	$GPGGA,201038,2508.5714,N,07919.8460,W,1,10,1.9,16,M,,M,,*62
05/31/2014	20:10:30.755	$GPGGA,201039,2508.5716,N,07919.8435,W,1,11,1.6,16,M,,M,,*6F
05/31/2014	20:10:31.754	$GPGGA,201040,2508.5719,N,07919.8410,W,1,11,1.9,16,M,,M,,*66
05/31/2014	20:10:32.722	$GPGGA,201041,2508.5721,N,07919.8385,W,1,11,1.6,16,M,,M,,*68
05/31/2014	20:10:33.731	$GPGGA,201042,2508.5723,N,07919.8360,W,1,11,1.6,16,M,,M,,*62
05/31/2014	20:10:34.719	$GPGGA,201043,2508.5727,N,07919.8336,W,1,11,1.6,16,M,,M,,*64
05/31/2014	20:10:35.728	$GPGGA,201044,2508.5728,N,07919.8311,W,1,11,1.6,16,M,,M,,*69
05/31/2014	20:10:36.737	$GPGGA,201045,2508.5731,N,07919.8286,W,1,11,1.6,16,M,,M,,*6F
05/31/2014	20:10:37.705	$GPGGA,201046,2508.5734,N,07919.8260,W,1,11,1.9,17,M,,M,,*6F
05/31/2014	20:10:38.733	$GPGGA,201047,2508.5737,N,07919.8235,W,1,10,1.9,17,M,,M,,*6C
05/31/2014	20:10:39.712	$GPGGA,201048,2508.5739,N,07919.8210,W,1,10,1.9,17,M,,M,,*6A
05/31/2014	20:10:40.690	$GPGGA,201049,2508.5741,N,07919.8188,W,1,10,1.9,17,M,,M,,*66
05/31/2014	20:10:41.689	$GPGGA,201050,2508.5743,N,07919.8163,W,1,10,1.6,17,M,,M,,*66
05/31/2014	20:10:42.728	$GPGGA,201051,2508.5745,N,07919.8138,W,1,10,1.9,17,M,,M,,*60
05/31/2014	20:10:43.705	$GPGGA,201052,2508.5748,N,07919.8113,W,1,10,1.9,17,M,,M,,*67
05/31/2014	20:10:44.686	$GPGGA,201053,2508.5750,N,07919.8088,W,1,10,1.9,17,M,,M,,*6C
05/31/2014	20:10:45.698	$GPGGA,201054,2508.5753,N,07919.8062,W,1,10,1.9,17,M,,M,,*6C
05/31/2014	20:10:46.721	$GPGGA,201055,2508.5755,N,07919.8038,W,1,11,1.6,16,M,,M,,*6B
05/31/2014	20:10:47.714	$GPGGA,201056,2508.5757,N,07919.8013,W,1,11,1.6,16,M,,M,,*63
05/31/2014	20:10:48.687	$GPGGA,201057,2508.5759,N,07919.7988,W,1,10,1.9,16,M,,M,,*66
05/31/2014	20:10:49.689	$GPGGA,201058,2508.5760,N,07919.7964,W,1,10,1.9,16,M,,M,,*61
05/31/2014	20:10:50.682	$GPGGA,201059,2508.5764,N,07919.7939,W,1,10,1.9,16,M,,M,,*6C
05/31/2014	20:10:51.725	$GPGGA,201100,2508.5766,N,07919.7913,W,1,10,1.9,16,M,,M,,*6B
05/31/2014	20:10:52.717	$GPGGA,201101,2508.5768,N,07919.7887,W,1,10,1.6,16,M,,M,,*67
05/31/2014	20:10:53.700	$GPGGA,201102,2508.5771,N,07919.7862,W,1,10,1.6,16,M,,M,,*67
05/31/2014	20:10:54.823	$GPGGA,201103,2508.5773,N,07919.7839,W,1,9,1.6,16,M,,M,,*52
05/31/2014	20:10:55.876	$GPGGA,201104,2508.5774,N,07919.7815,W,1,9,1.6,16,M,,M,,*5C
05/31/2014	20:10:56.718	$GPGGA,201105,2508.5773,N,07919.7792,W,1,11,1.6,16,M,,M,,*63
05/31/2014	20:10:57.691	$GPGGA,201106,2508.5777,N,07919.7768,W,1,11,1.6,16,M,,M,,*61
05/31/2014	20:10:58.714	$GPGGA,201107,2508.5779,N,07919.7743,W,1,10,1.6,16,M,,M,,*66
05/31/2014	20:10:59.717	$GPGGA,201108,2508.5779,N,07919.7719,W,1,10,1.6,16,M,,M,,*66
05/31/2014	20:11:00.789	$GPGGA,201109,2508.5781,N,07919.7695,W,1,11,1.6,16,M,,M,,*64
05/31/2014	20:11:01.871	$GPGGA,201110,2508.5782,N,07919.7671,W,1,11,1.6,16,M,,M,,*65
05/31/2014	20:11:02.854	$GPGGA,201111,2508.5784,N,07919.7646,W,1,11,1.6,16,M,,M,,*66
05/31/2014	20:11:03.876	$GPGGA,201112,2508.5786,N,07919.7621,W,1,11,1.6,16,M,,M,,*66
05/31/2014	20:11:04.859	$GPGGA,201113,2508.5786,N,07919.7596,W,1,11,1.6,16,M,,M,,*68
05/31/2014	20:11:05.792	$GPGGA,201114,2508.5789,N,07919.7571,W,1,11,1.6,16,M,,M,,*69
05/31/2014	20:11:06.854	$GPGGA,201115,2508.5790,N,07919.7546,W,1,10,1.6,16,M,,M,,*65
05/31/2014	20:11:07.867	$GPGGA,201116,2508.5790,N,07919.7522,W,1,10,1.6,16,M,,M,,*64
05/31/2014	20:11:09.832	$GPGGA,201118,2508.5793,N,07919.7475,W,1,11,1.6,16,M,,M,,*6B
05/31/2014	20:11:10.845	$GPGGA,201119,2508.5793,N,07919.7451,W,1,11,1.6,16,M,,M,,*6C
05/31/2014	20:11:11.888	$GPGGA,201120,2508.5795,N,07919.7427,W,1,11,1.6,16,M,,M,,*61
05/31/2014	20:11:12.800	$GPGGA,201121,2508.5796,N,07919.7404,W,1,10,1.9,16,M,,M,,*6C
05/31/2014	20:11:13.864	$GPGGA,201122,2508.5797,N,07919.7379,W,1,10,1.6,16,M,,M,,*6C
05/31/2014	20:11:14.796	$GPGGA,201123,2508.5799,N,07919.7354,W,1,11,1.6,16,M,,M,,*6D
05/31/2014	20:11:15.889	$GPGGA,201124,2508.5798,N,07919.7330,W,1,11,1.6,16,M,,M,,*69
05/31/2014	20:11:16.862	$GPGGA,201125,2508.5800,N,07919.7305,W,1,10,1.6,15,M,,M,,*62
05/31/2014	20:11:17.875	$GPGGA,201126,2508.5802,N,07919.7281,W,1,10,1.6,15,M,,M,,*6E
05/31/2014	20:11:18.866	$GPGGA,201127,2508.5801,N,07919.7258,W,1,11,1.6,15,M,,M,,*69
05/31/2014	20:11:19.822	$GPGGA,201128,2508.5803,N,07919.7234,W,1,11,1.6,15,M,,M,,*6E
05/31/2014	20:11:20.784	$GPGGA,201129,2508.5804,N,07919.7210,W,1,11,1.6,15,M,,M,,*6E
05/31/2014	20:11:21.807	$GPGGA,201130,2508.5804,N,07919.7186,W,1,11,1.6,15,M,,M,,*6A
05/31/2014	20:11:22.790	$GPGGA,201131,2508.5806,N,07919.7162,W,1,11,1.6,15,M,,M,,*63
05/31/2014	20:11:23.823	$GPGGA,201132,2508.5807,N,07919.7138,W,1,11,1.6,15,M,,M,,*6E
05/31/2014	20:11:24.805	$GPGGA,201133,2508.5807,N,07919.7113,W,1,11,1.6,15,M,,M,,*66
05/31/2014	20:11:25.748	$GPGGA,201134,2508.5810,N,07919.7089,W,1,11,1.6,16,M,,M,,*66
05/31/2014	20:11:26.801	$GPGGA,201135,2508.5811,N,07919.7064,W,1,11,1.6,16,M,,M,,*65
05/31/2014	20:11:27.833	$GPGGA,201136,2508.5811,N,07919.7039,W,1,11,1.6,16,M,,M,,*6E
05/31/2014	20:11:28.806	$GPGGA,201137,2508.5813,N,07919.7014,W,1,10,1.6,16,M,,M,,*63
05/31/2014	20:11:29.749	$GPGGA,201138,2508.5815,N,07919.6990,W,1,10,1.6,16,M,,M,,*6E
05/31/2014	20:11:30.751	$GPGGA,201139,2508.5817,N,07919.6964,W,1,10,1.6,16,M,,M,,*66
05/31/2014	20:11:31.824	$GPGGA,201140,2508.5818,N,07919.6937,W,1,10,1.9,16,M,,M,,*6E
05/31/2014	20:11:32.767	$GPGGA,201141,2508.5821,N,07919.6911,W,1,9,1.6,16,M,,M,,*56
