Software Version Number: 1	Data File Format Number: 1	Build Version Number: 1	Error Count Since VI Started: 0	Manufacturer: Raytheon	 Model Number: RayMarine 120	 S/N: 	 Cal Date: 	 Wind Direction Offset: 0.00	 Slope (M)1: 0.00	 Offset (B)1: 0.00	 Slope (M)2: 0.00	 Offset (B)2: 0.00	 Slope (M)3: 0.00	 Offset (B)3: 0.00	 Slope (M)4: 0.00	 Offset (B)4: 0.00	 Slope (M)5: 0.00	 Offset (B)5: 0.00	 Slope (M)6: 0.00	 Offset (B)6: 0.00
Computer Date	Computer Time	GGA String
05/31/2014	16:00:00.173	$GPGGA,160001,2507.0382,N,07918.0498,W,1,9,1.8,11,M,,M,,*5D
05/31/2014	16:00:01.059	$GPGGA,160002,2507.0381,N,07918.0489,W,1,9,1.8,11,M,,M,,*5D
05/31/2014	16:00:02.044	$GPGGA,160003,2507.0383,N,07918.0481,W,1,9,1.8,11,M,,M,,*56
05/31/2014	16:00:03.039	$GPGGA,160004,2507.0382,N,07918.0473,W,1,9,1.8,11,M,,M,,*5D
05/31/2014	16:00:04.113	$GPGGA,160005,2507.0380,N,07918.0464,W,1,9,1.8,11,M,,M,,*58
05/31/2014	16:00:05.068	$GPGGA,160006,2507.0381,N,07918.0456,W,1,9,1.8,11,M,,M,,*5B
05/31/2014	16:00:06.092	$GPGGA,160007,2507.0381,N,07918.0447,W,1,9,1.8,11,M,,M,,*5A
05/31/2014	16:00:07.067	$GPGGA,160008,2507.0381,N,07918.0439,W,1,9,1.8,11,M,,M,,*5C
05/31/2014	16:00:08.033	$GPGGA,160009,2507.0381,N,07918.0431,W,1,9,1.8,11,M,,M,,*55
05/31/2014	16:00:09.008	$GPGGA,160010,2507.0380,N,07918.0422,W,1,9,1.8,11,M,,M,,*5E
05/31/2014	16:00:10.002	$GPGGA,160011,2507.0381,N,07918.0414,W,1,9,1.8,11,M,,M,,*5B
05/31/2014	16:00:10.987	$GPGGA,160012,2507.0381,N,07918.0405,W,1,9,1.8,11,M,,M,,*58
05/31/2014	16:00:11.973	$GPGGA,160013,2507.0380,N,07918.0398,W,1,9,1.8,11,M,,M,,*5B
05/31/2014	16:00:12.927	$GPGGA,160014,2507.0379,N,07918.0389,W,1,9,1.8,11,M,,M,,*5A
05/31/2014	16:00:13.942	$GPGGA,160015,2507.0381,N,07918.0381,W,1,9,1.8,11,M,,M,,*54
05/31/2014	16:00:14.917	$GPGGA,160016,2507.0380,N,07918.0373,W,1,9,1.8,11,M,,M,,*5B
05/31/2014	16:00:15.881	$GPGGA,160017,2507.0381,N,07918.0365,W,1,9,1.8,11,M,,M,,*5C
05/31/2014	16:00:16.876	$GPGGA,160018,2507.0380,N,07918.0357,W,1,9,1.8,11,M,,M,,*53
05/31/2014	16:00:17.900	$GPGGA,160019,2507.0381,N,07918.0349,W,1,9,1.8,11,M,,M,,*5C
05/31/2014	16:00:18.846	$GPGGA,160020,2507.0381,N,07918.0339,W,1,9,2.0,11,M,,M,,*5A
05/31/2014	16:00:19.831	$GPGGA,160021,2507.0381,N,07918.0332,W,1,8,1.8,11,M,,M,,*5A
05/31/2014	16:00:20.786	$GPGGA,160022,2507.0381,N,07918.0325,W,1,8,1.8,10,M,,M,,*5E
05/31/2014	16:00:21.800	$GPGGA,160023,2507.0380,N,07918.0317,W,1,9,1.8,10,M,,M,,*5E
05/31/2014	16:00:22.776	$GPGGA,160024,2507.0381,N,07918.0308,W,1,9,2.0,10,M,,M,,*5D
05/31/2014	16:00:23.760	$GPGGA,160025,2507.0380,N,07918.0301,W,1,8,1.8,10,M,,M,,*5E
05/31/2014	16:00:24.735	$GPGGA,160026,2507.0381,N,07918.0295,W,1,8,1.8,10,M,,M,,*50
05/31/2014	16:00:25.740	$GPGGA,160027,2507.0379,N,07918.0286,W,1,9,1.8,10,M,,M,,*55
05/31/2014	16:00:27.624	$GPGGA,160028,2507.0380,N,07918.0276,W,1,9,2.0,10,M,,M,,*58
05/31/2014	16:00:28.609	$GPGGA,160029,2507.0381,N,07918.0268,W,1,8,1.8,10,M,,M,,*5D
05/31/2014	16:00:29.576	$GPGGA,160030,2507.0380,N,07918.0260,W,1,8,1.8,10,M,,M,,*5C
05/31/2014	16:00:30.550	$GPGGA,160031,2507.0381,N,07918.0252,W,1,9,1.8,10,M,,M,,*5C
05/31/2014	16:00:31.544	$GPGGA,160032,2507.0381,N,07918.0243,W,1,9,1.8,10,M,,M,,*5F
05/31/2014	16:00:32.630	$GPGGA,160033,2507.0381,N,07918.0236,W,1,9,1.8,10,M,,M,,*5C
05/31/2014	16:00:33.493	$GPGGA,160034,2507.0381,N,07918.0228,W,1,9,1.8,10,M,,M,,*54
05/31/2014	16:00:34.517	$GPGGA,160035,2507.0381,N,07918.0220,W,1,9,1.8,10,M,,M,,*5D
05/31/2014	16:00:35.483	$GPGGA,160036,2507.0381,N,07918.0212,W,1,9,1.8,10,M,,M,,*5F
05/31/2014	16:00:36.468	$GPGGA,160037,2507.0381,N,07918.0204,W,1,9,1.8,10,M,,M,,*59
05/31/2014	16:00:37.452	$GPGGA,160038,2507.0381,N,07918.0195,W,1,9,2.0,10,M,,M,,*56
05/31/2014	16:00:38.427	$GPGGA,160039,2507.0384,N,07918.0187,W,1,8,1.8,10,M,,M,,*5B
05/31/2014	16:00:39.432	$GPGGA,160040,2507.0383,N,07918.0179,W,1,8,1.8,10,M,,M,,*53
05/31/2014	16:00:40.397	$GPGGA,160041,2507.0382,N,07918.0171,W,1,9,2.0,10,M,,M,,*51
05/31/2014	16:00:41.372	$GPGGA,160042,2507.0384,N,07918.0162,W,1,9,1.8,10,M,,M,,*5D
05/31/2014	16:00:42.466	$GPGGA,160043,2507.0385,N,07918.0155,W,1,9,1.8,10,M,,M,,*59
05/31/2014	16:00:43.372	$GPGGA,160044,2507.0385,N,07918.0147,W,1,9,1.8,10,M,,M,,*5D
05/31/2014	16:00:44.435	$GPGGA,160045,2507.0385,N,07918.0138,W,1,9,2.0,10,M,,M,,*5F
05/31/2014	16:00:45.391	$GPGGA,160046,2507.0387,N,07918.0132,W,1,9,2.0,10,M,,M,,*54
05/31/2014	16:00:46.277	$GPGGA,160047,2507.0386,N,07918.0126,W,1,9,1.8,10,M,,M,,*5A
05/31/2014	16:00:47.360	$GPGGA,160048,2507.0385,N,07918.0118,W,1,9,1.8,10,M,,M,,*5B
05/31/2014	16:00:48.356	$GPGGA,160049,2507.0385,N,07918.0111,W,1,9,1.8,10,M,,M,,*53
05/31/2014	16:00:49.330	$GPGGA,160050,2507.0387,N,07918.0104,W,1,9,1.8,10,M,,M,,*5D
05/31/2014	16:00:50.218	$GPGGA,160051,2507.0386,N,07918.0097,W,1,9,1.8,10,M,,M,,*56
05/31/2014	16:00:51.309	$GPGGA,160052,2507.0385,N,07918.0090,W,1,9,1.8,10,M,,M,,*51
05/31/2014	16:00:52.274	$GPGGA,160053,2507.0387,N,07918.0084,W,1,9,1.8,10,M,,M,,*57
05/31/2014	16:00:53.170	$GPGGA,160054,2507.0386,N,07918.0077,W,1,9,1.8,10,M,,M,,*5D
05/31/2014	16:00:54.244	$GPGGA,160055,2507.0387,N,07918.0070,W,1,9,1.8,10,M,,M,,*5A
05/31/2014	16:00:55.239	$GPGGA,160056,2507.0386,N,07918.0063,W,1,9,1.8,10,M,,M,,*5A
05/31/2014	16:00:56.214	$GPGGA,160057,2507.0388,N,07918.0057,W,1,9,1.8,10,M,,M,,*52
05/31/2014	16:00:57.189	$GPGGA,160058,2507.0388,N,07918.0051,W,1,9,1.8,10,M,,M,,*5B
05/31/2014	16:00:58.193	$GPGGA,160059,2507.0387,N,07918.0045,W,1,9,1.8,10,M,,M,,*50
05/31/2014	16:00:59.168	$GPGGA,160100,2507.0388,N,07918.0038,W,1,9,1.8,10,M,,M,,*58
05/31/2014	16:01:00.153	$GPGGA,160101,2507.0388,N,07918.0038,W,1,9,1.8,10,M,,M,,*59
05/31/2014	16:01:01.119	$GPGGA,160102,2507.0388,N,07918.0026,W,1,9,1.8,10,M,,M,,*55
05/31/2014	16:01:02.113	$GPGGA,160103,2507.0387,N,07918.0019,W,1,9,1.8,10,M,,M,,*57
05/31/2014	16:01:03.098	$GPGGA,160104,2507.0388,N,07918.0013,W,1,9,1.8,10,M,,M,,*55
05/31/2014	16:01:04.093	$GPGGA,160105,2507.0389,N,07918.0006,W,1,9,1.8,10,M,,M,,*51
05/31/2014	16:01:05.038	$GPGGA,160106,2507.0391,N,07918.0000,W,1,9,1.8,10,M,,M,,*5D
05/31/2014	16:01:06.043	$GPGGA,160107,2507.0390,N,07917.9993,W,1,9,1.8,9,M,,M,,*60
05/31/2014	16:01:07.029	$GPGGA,160108,2507.0391,N,07917.9987,W,1,9,1.8,9,M,,M,,*6B
05/31/2014	16:01:07.982	$GPGGA,160109,2507.0392,N,07917.9981,W,1,9,1.8,9,M,,M,,*6F
05/31/2014	16:01:08.987	$GPGGA,160110,2507.0392,N,07917.9975,W,1,9,1.8,9,M,,M,,*6C
05/31/2014	16:01:09.982	$GPGGA,160111,2507.0392,N,07917.9968,W,1,9,1.8,9,M,,M,,*61
05/31/2014	16:01:10.957	$GPGGA,160112,2507.0392,N,07917.9962,W,1,9,1.8,9,M,,M,,*68
05/31/2014	16:01:11.951	$GPGGA,160113,2507.0392,N,07917.9956,W,1,9,1.8,9,M,,M,,*6E
05/31/2014	16:01:12.907	$GPGGA,160114,2507.0392,N,07917.9950,W,1,9,1.8,9,M,,M,,*6F
05/31/2014	16:01:13.882	$GPGGA,160115,2507.0392,N,07917.9943,W,1,9,1.8,9,M,,M,,*6C
05/31/2014	16:01:14.888	$GPGGA,160116,2507.0392,N,07917.9937,W,1,9,1.8,9,M,,M,,*6C
05/31/2014	16:01:15.852	$GPGGA,160117,2507.0394,N,07917.9930,W,1,9,1.8,9,M,,M,,*6C
05/31/2014	16:01:16.846	$GPGGA,160118,2507.0393,N,07917.9924,W,1,9,1.8,9,M,,M,,*61
05/31/2014	16:01:17.812	$GPGGA,160119,2507.0395,N,07917.9917,W,1,9,1.8,9,M,,M,,*66
05/31/2014	16:01:18.826	$GPGGA,160120,2507.0396,N,07917.9911,W,1,9,1.8,9,M,,M,,*69
05/31/2014	16:01:19.821	$GPGGA,160121,2507.0396,N,07917.9904,W,1,9,1.8,9,M,,M,,*6C
05/31/2014	16:01:20.766	$GPGGA,160122,2507.0394,N,07917.9898,W,1,9,1.8,9,M,,M,,*69
05/31/2014	16:01:21.761	$GPGGA,160123,2507.0396,N,07917.9892,W,1,9,1.8,9,M,,M,,*60
05/31/2014	16:01:22.736	$GPGGA,160124,2507.0398,N,07917.9885,W,1,9,1.8,9,M,,M,,*6F
05/31/2014	16:01:23.733	$GPGGA,160125,2507.0396,N,07917.9878,W,1,9,1.8,9,M,,M,,*62
05/31/2014	16:01:24.716	$GPGGA,160126,2507.0396,N,07917.9871,W,1,9,1.8,9,M,,M,,*68
05/31/2014	16:01:25.670	$GPGGA,160127,2507.0399,N,07917.9865,W,1,8,2.0,9,M,,M,,*69
05/31/2014	16:01:27.703	$GPGGA,160128,2507.0398,N,07917.9860,W,1,8,1.8,9,M,,M,,*69
05/31/2014	16:01:28.570	$GPGGA,160129,2507.0396,N,07917.9855,W,1,9,1.8,9,M,,M,,*61
05/31/2014	16:01:29.633	$GPGGA,160130,2507.0396,N,07917.9849,W,1,9,1.8,9,M,,M,,*64
05/31/2014	16:01:30.559	$GPGGA,160131,2507.0399,N,07917.9843,W,1,9,1.8,9,M,,M,,*60
05/31/2014	16:01:31.633	$GPGGA,160132,2507.0398,N,07917.9837,W,1,9,1.8,8,M,,M,,*60
05/31/2014	16:01:32.618	$GPGGA,160133,2507.0396,N,07917.9832,W,1,9,1.8,8,M,,M,,*6A
05/31/2014	16:01:33.484	$GPGGA,160134,2507.0396,N,07917.9827,W,1,9,1.8,8,M,,M,,*69
05/31/2014	16:01:34.459	$GPGGA,160135,2507.0399,N,07917.9821,W,1,9,1.8,8,M,,M,,*61
05/31/2014	16:01:35.562	$GPGGA,160136,2507.0398,N,07917.9816,W,1,9,1.8,8,M,,M,,*67
05/31/2014	16:01:36.518	$GPGGA,160137,2507.0396,N,07917.9809,W,1,9,1.8,8,M,,M,,*66
05/31/2014	16:01:37.503	$GPGGA,160138,2507.0396,N,07917.9804,W,1,9,1.8,8,M,,M,,*64
05/31/2014	16:01:38.389	$GPGGA,160139,2507.0399,N,07917.9798,W,1,9,1.8,8,M,,M,,*60
05/31/2014	16:01:39.473	$GPGGA,160140,2507.0399,N,07917.9792,W,1,9,1.8,8,M,,M,,*64
05/31/2014	16:01:40.457	$GPGGA,160141,2507.0398,N,07917.9784,W,1,9,1.8,8,M,,M,,*63
05/31/2014	16:01:41.432	$GPGGA,160142,2507.0402,N,07917.9776,W,1,9,2.0,8,M,,M,,*62
05/31/2014	16:01:42.447	$GPGGA,160143,2507.0403,N,07917.9772,W,1,8,2.0,8,M,,M,,*67
05/31/2014	16:01:43.411	$GPGGA,160144,2507.0403,N,07917.9766,W,1,8,1.8,8,M,,M,,*6E
05/31/2014	16:01:44.386	$GPGGA,160145,2507.0401,N,07917.9759,W,1,9,1.8,8,M,,M,,*60
05/31/2014	16:01:45.371	$GPGGA,160146,2507.0403,N,07917.9753,W,1,9,1.8,8,M,,M,,*6B
05/31/2014	16:01:46.346	$GPGGA,160147,2507.0405,N,07917.9747,W,1,9,1.8,8,M,,M,,*69
05/31/2014	16:01:47.331	$GPGGA,160148,2507.0403,N,07917.9741,W,1,9,1.8,8,M,,M,,*66
05/31/2014	16:01:48.326	$GPGGA,160149,2507.0406,N,07917.9733,W,1,9,1.8,8,M,,M,,*67
05/31/2014	16:01:49.301	$GPGGA,160150,2507.0406,N,07917.9727,W,1,9,2.0,8,M,,M,,*61
05/31/2014	16:01:50.315	$GPGGA,160151,2507.0407,N,07917.9720,W,1,9,1.8,8,M,,M,,*6D
05/31/2014	16:01:51.271	$GPGGA,160152,2507.0407,N,07917.9714,W,1,9,1.8,9,M,,M,,*68
05/31/2014	16:01:52.256	$GPGGA,160153,2507.0409,N,07917.9708,W,1,9,1.8,9,M,,M,,*6A
05/31/2014	16:01:53.224	$GPGGA,160154,2507.0410,N,07917.9701,W,1,9,1.8,9,M,,M,,*6C
05/31/2014	16:01:54.225	$GPGGA,160155,2507.0410,N,07917.9696,W,1,9,1.8,9,M,,M,,*62
05/31/2014	16:01:55.200	$GPGGA,160156,2507.0410,N,07917.9690,W,1,9,1.8,9,M,,M,,*67
05/31/2014	16:01:56.195	$GPGGA,160157,2507.0412,N,07917.9683,W,1,9,1.8,9,M,,M,,*66
05/31/2014	16:01:57.160	$GPGGA,160158,2507.0411,N,07917.9680,W,1,9,2.0,9,M,,M,,*62
05/31/2014	16:01:58.165	$GPGGA,160159,2507.0413,N,07917.9674,W,1,9,1.8,9,M,,M,,*61
05/31/2014	16:01:59.150	$GPGGA,160200,2507.0412,N,07917.9668,W,1,9,1.8,9,M,,M,,*62
05/31/2014	16:02:00.109	$GPGGA,160201,2507.0414,N,07917.9661,W,1,9,1.8,9,M,,M,,*6C
05/31/2014	16:02:01.079	$GPGGA,160202,2507.0414,N,07917.9655,W,1,9,2.0,9,M,,M,,*63
05/31/2014	16:02:02.064	$GPGGA,160203,2507.0416,N,07917.9649,W,1,9,1.8,9,M,,M,,*66
05/31/2014	16:02:03.069	$GPGGA,160204,2507.0415,N,07917.9643,W,1,9,1.8,9,M,,M,,*68
05/31/2014	16:02:04.045	$GPGGA,160205,2507.0417,N,07917.9638,W,1,9,1.8,9,M,,M,,*67
05/31/2014	16:02:05.029	$GPGGA,160206,2507.0416,N,07917.9633,W,1,9,1.8,9,M,,M,,*6E
05/31/2014	16:02:06.024	$GPGGA,160207,2507.0417,N,07917.9627,W,1,9,1.8,9,M,,M,,*6B
05/31/2014	16:02:06.999	$GPGGA,160208,2507.0417,N,07917.9620,W,1,9,1.8,9,M,,M,,*63
05/31/2014	16:02:07.993	$GPGGA,160209,2507.0417,N,07917.9614,W,1,8,2.0,9,M,,M,,*6F
05/31/2014	16:02:08.958	$GPGGA,160210,2507.0419,N,07917.9609,W,1,8,1.8,9,M,,M,,*6E
05/31/2014	16:02:09.953	$GPGGA,160211,2507.0418,N,07917.9604,W,1,9,1.8,9,M,,M,,*62
05/31/2014	16:02:10.928	$GPGGA,160212,2507.0419,N,07917.9598,W,1,9,1.8,9,M,,M,,*66
05/31/2014	16:02:11.893	$GPGGA,160213,2507.0420,N,07917.9594,W,1,9,1.8,9,M,,M,,*61
05/31/2014	16:02:12.888	$GPGGA,160214,2507.0419,N,07917.9588,W,1,9,1.8,9,M,,M,,*61
05/31/2014	16:02:13.981	$GPGGA,160215,2507.0420,N,07917.9582,W,1,9,1.8,9,M,,M,,*60
05/31/2014	16:02:14.868	$GPGGA,160216,2507.0419,N,07917.9577,W,1,9,1.8,9,M,,M,,*63
05/31/2014	16:02:15.843	$GPGGA,160217,2507.0421,N,07917.9571,W,1,9,1.8,9,M,,M,,*6F
05/31/2014	16:02:16.818	$GPGGA,160218,2507.0421,N,07917.9565,W,1,9,1.8,9,M,,M,,*65
05/31/2014	16:02:17.812	$GPGGA,160219,2507.0421,N,07917.9559,W,1,9,1.8,9,M,,M,,*6B
05/31/2014	16:02:18.806	$GPGGA,160220,2507.0421,N,07917.9554,W,1,9,1.8,9,M,,M,,*6C
05/31/2014	16:02:19.869	$GPGGA,160221,2507.0423,N,07917.9548,W,1,9,1.8,9,M,,M,,*62
05/31/2014	16:02:20.755	$GPGGA,160222,2507.0424,N,07917.9542,W,1,9,1.8,9,M,,M,,*6C
05/31/2014	16:02:21.858	$GPGGA,160223,2507.0422,N,07917.9536,W,1,9,1.8,9,M,,M,,*68
05/31/2014	16:02:22.862	$GPGGA,160224,2507.0424,N,07917.9529,W,1,9,1.8,9,M,,M,,*67
05/31/2014	16:02:23.837	$GPGGA,160225,2507.0425,N,07917.9523,W,1,9,1.8,9,M,,M,,*6D
05/31/2014	16:02:24.832	$GPGGA,160226,2507.0425,N,07917.9517,W,1,9,1.8,9,M,,M,,*69
05/31/2014	16:02:25.816	$GPGGA,160227,2507.0424,N,07917.9510,W,1,9,1.8,9,M,,M,,*6E
05/31/2014	16:02:27.670	$GPGGA,160228,2507.0425,N,07917.9505,W,1,9,1.8,9,M,,M,,*64
05/31/2014	16:02:28.635	$GPGGA,160229,2507.0427,N,07917.9499,W,1,9,1.8,9,M,,M,,*63
05/31/2014	16:02:29.649	$GPGGA,160230,2507.0426,N,07917.9493,W,1,9,1.8,9,M,,M,,*60
05/31/2014	16:02:30.624	$GPGGA,160231,2507.0427,N,07917.9487,W,1,9,1.8,9,M,,M,,*65
05/31/2014	16:02:31.638	$GPGGA,160232,2507.0428,N,07917.9482,W,1,9,1.8,9,M,,M,,*6C
05/31/2014	16:02:32.633	$GPGGA,160233,2507.0428,N,07917.9476,W,1,9,1.8,9,M,,M,,*66
05/31/2014	16:02:33.608	$GPGGA,160234,2507.0426,N,07917.9471,W,1,9,1.8,9,M,,M,,*68
05/31/2014	16:02:34.603	$GPGGA,160235,2507.0428,N,07917.9465,W,1,9,1.8,9,M,,M,,*62
05/31/2014	16:02:35.607	$GPGGA,160236,2507.0428,N,07917.9460,W,1,9,1.8,9,M,,M,,*64
05/31/2014	16:02:36.621	$GPGGA,160237,2507.0428,N,07917.9454,W,1,9,1.8,9,M,,M,,*62
05/31/2014	16:02:37.575	$GPGGA,160238,2507.0428,N,07917.9449,W,1,9,1.8,9,M,,M,,*61
05/31/2014	16:02:38.600	$GPGGA,160239,2507.0428,N,07917.9443,W,1,9,1.8,9,M,,M,,*6A
05/31/2014	16:02:39.574	$GPGGA,160240,2507.0428,N,07917.9438,W,1,9,1.8,9,M,,M,,*68
05/31/2014	16:02:40.579	$GPGGA,160241,2507.0428,N,07917.9432,W,1,8,2.1,9,M,,M,,*68
05/31/2014	16:02:41.534	$GPGGA,160242,2507.0428,N,07917.9425,W,1,8,1.8,9,M,,M,,*67
05/31/2014	16:02:42.568	$GPGGA,160243,2507.0430,N,07917.9420,W,1,9,1.8,9,M,,M,,*6B
05/31/2014	16:02:43.553	$GPGGA,160244,2507.0431,N,07917.9413,W,1,9,1.8,9,M,,M,,*6D
05/31/2014	16:02:44.547	$GPGGA,160245,2507.0428,N,07917.9409,W,1,9,1.8,9,M,,M,,*6F
05/31/2014	16:02:45.502	$GPGGA,160246,2507.0428,N,07917.9404,W,1,9,2.3,9,M,,M,,*69
05/31/2014	16:02:46.507	$GPGGA,160247,2507.0428,N,07917.9397,W,1,9,1.8,9,M,,M,,*6D
05/31/2014	16:02:47.521	$GPGGA,160248,2507.0428,N,07917.9392,W,1,9,1.8,9,M,,M,,*67
05/31/2014	16:02:48.526	$GPGGA,160249,2507.0428,N,07917.9386,W,1,9,1.8,10,M,,M,,*5B
05/31/2014	16:02:49.630	$GPGGA,160250,2507.0428,N,07917.9380,W,1,9,1.8,10,M,,M,,*55
05/31/2014	16:02:50.475	$GPGGA,160251,2507.0428,N,07917.9375,W,1,9,1.8,10,M,,M,,*5E
05/31/2014	16:02:51.490	$GPGGA,160252,2507.0428,N,07917.9369,W,1,9,1.8,10,M,,M,,*50
05/31/2014	16:02:52.484	$GPGGA,160253,2507.0428,N,07917.9363,W,1,9,1.8,10,M,,M,,*5B
05/31/2014	16:02:53.459	$GPGGA,160254,2507.0426,N,07917.9357,W,1,9,1.8,10,M,,M,,*55
05/31/2014	16:02:54.482	$GPGGA,160255,2507.0427,N,07917.9352,W,1,9,1.8,10,M,,M,,*50
05/31/2014	16:02:55.457	$GPGGA,160256,2507.0426,N,07917.9346,W,1,9,1.8,10,M,,M,,*57
05/31/2014	16:02:56.611	$GPGGA,160257,2507.0425,N,07917.9340,W,1,9,1.8,11,M,,M,,*52
05/31/2014	16:02:57.416	$GPGGA,160258,2507.0424,N,07917.9334,W,1,9,1.8,11,M,,M,,*5F
05/31/2014	16:02:58.431	$GPGGA,160259,2507.0427,N,07917.9328,W,1,9,1.8,11,M,,M,,*50
05/31/2014	16:02:59.575	$GPGGA,160300,2507.0426,N,07917.9322,W,1,9,1.8,11,M,,M,,*56
05/31/2014	16:03:00.421	$GPGGA,160301,2507.0424,N,07917.9316,W,1,9,1.8,11,M,,M,,*52
05/31/2014	16:03:01.395	$GPGGA,160302,2507.0424,N,07917.9310,W,1,9,1.8,11,M,,M,,*57
05/31/2014	16:03:02.389	$GPGGA,160303,2507.0425,N,07917.9304,W,1,9,1.8,11,M,,M,,*52
05/31/2014	16:03:03.543	$GPGGA,160304,2507.0424,N,07917.9299,W,1,9,1.8,12,M,,M,,*52
05/31/2014	16:03:04.411	$GPGGA,160305,2507.0424,N,07917.9292,W,1,9,1.8,12,M,,M,,*58
05/31/2014	16:03:05.363	$GPGGA,160306,2507.0424,N,07917.9286,W,1,9,1.8,12,M,,M,,*5E
05/31/2014	16:03:06.537	$GPGGA,160307,2507.0424,N,07917.9281,W,1,9,1.8,12,M,,M,,*58
05/31/2014	16:03:07.372	$GPGGA,160308,2507.0424,N,07917.9275,W,1,9,1.8,12,M,,M,,*5C
05/31/2014	16:03:08.347	$GPGGA,160309,2507.0423,N,07917.9269,W,1,9,1.8,12,M,,M,,*57
05/31/2014	16:03:09.431	$GPGGA,160310,2507.0424,N,07917.9262,W,1,9,1.8,12,M,,M,,*53
05/31/2014	16:03:10.524	$GPGGA,160311,2507.0424,N,07917.9256,W,1,9,1.8,12,M,,M,,*55
05/31/2014	16:03:11.479	$GPGGA,160312,2507.0423,N,07917.9251,W,1,9,1.8,13,M,,M,,*57
05/31/2014	16:03:12.405	$GPGGA,160313,2507.0424,N,07917.9245,W,1,9,1.8,13,M,,M,,*54
05/31/2014	16:03:13.429	$GPGGA,160314,2507.0422,N,07917.9240,W,1,9,1.8,13,M,,M,,*50
05/31/2014	16:03:14.493	$GPGGA,160315,2507.0423,N,07917.9233,W,1,9,1.8,13,M,,M,,*54
05/31/2014	16:03:15.428	$GPGGA,160316,2507.0422,N,07917.9227,W,1,9,1.8,13,M,,M,,*53
05/31/2014	16:03:16.432	$GPGGA,160317,2507.0423,N,07917.9221,W,1,9,1.8,13,M,,M,,*55
05/31/2014	16:03:17.417	$GPGGA,160318,2507.0422,N,07917.9215,W,1,9,1.8,13,M,,M,,*5C
05/31/2014	16:03:18.471	$GPGGA,160319,2507.0423,N,07917.9209,W,1,9,1.8,13,M,,M,,*51
05/31/2014	16:03:19.416	$GPGGA,160320,2507.0421,N,07917.9204,W,1,9,1.8,13,M,,M,,*54
05/31/2014	16:03:20.450	$GPGGA,160321,2507.0423,N,07917.9198,W,1,9,1.8,13,M,,M,,*51
05/31/2014	16:03:21.395	$GPGGA,160322,2507.0422,N,07917.9192,W,1,9,1.8,13,M,,M,,*59
05/31/2014	16:03:22.440	$GPGGA,160323,2507.0421,N,07917.9187,W,1,9,1.8,13,M,,M,,*5F
05/31/2014	16:03:23.365	$GPGGA,160324,2507.0421,N,07917.9180,W,1,9,1.8,13,M,,M,,*5F
05/31/2014	16:03:24.309	$GPGGA,160325,2507.0421,N,07917.9174,W,1,9,1.8,13,M,,M,,*55
05/31/2014	16:03:25.344	$GPGGA,160326,2507.0421,N,07917.9168,W,1,9,1.8,14,M,,M,,*5C
05/31/2014	16:03:26.418	$GPGGA,160327,2507.0419,N,07917.9162,W,1,9,1.8,14,M,,M,,*5C
05/31/2014	16:03:27.660	$GPGGA,160328,2507.0418,N,07917.9156,W,1,9,1.8,14,M,,M,,*55
05/31/2014	16:03:28.723	$GPGGA,160329,2507.0420,N,07917.9151,W,1,9,1.8,14,M,,M,,*58
05/31/2014	16:03:29.599	$GPGGA,160330,2507.0418,N,07917.9146,W,1,9,1.8,14,M,,M,,*5D
05/31/2014	16:03:30.673	$GPGGA,160331,2507.0419,N,07917.9140,W,1,8,1.8,14,M,,M,,*5A
05/31/2014	16:03:31.648	$GPGGA,160332,2507.0418,N,07917.9134,W,1,8,1.8,14,M,,M,,*5B
05/31/2014	16:03:32.702	$GPGGA,160333,2507.0420,N,07917.9128,W,1,9,1.8,14,M,,M,,*5D
05/31/2014	16:03:33.577	$GPGGA,160334,2507.0419,N,07917.9122,W,1,9,1.8,14,M,,M,,*5A
05/31/2014	16:03:34.691	$GPGGA,160335,2507.0420,N,07917.9115,W,1,9,1.8,14,M,,M,,*55
05/31/2014	16:03:35.566	$GPGGA,160336,2507.0419,N,07917.9109,W,1,9,1.8,14,M,,M,,*51
05/31/2014	16:03:36.640	$GPGGA,160337,2507.0421,N,07917.9104,W,1,9,1.8,14,M,,M,,*56
05/31/2014	16:03:37.575	$GPGGA,160338,2507.0421,N,07917.9097,W,1,9,1.8,14,M,,M,,*52
05/31/2014	16:03:38.530	$GPGGA,160339,2507.0421,N,07917.9091,W,1,9,1.8,14,M,,M,,*55
05/31/2014	16:03:39.584	$GPGGA,160340,2507.0421,N,07917.9085,W,1,9,1.8,14,M,,M,,*5E
05/31/2014	16:03:40.609	$GPGGA,160341,2507.0421,N,07917.9079,W,1,9,1.8,14,M,,M,,*5C
05/31/2014	16:03:41.550	$GPGGA,160342,2507.0421,N,07917.9073,W,1,9,1.8,14,M,,M,,*55
05/31/2014	16:03:42.588	$GPGGA,160343,2507.0421,N,07917.9067,W,1,9,1.8,14,M,,M,,*51
05/31/2014	16:03:43.514	$GPGGA,160344,2507.0421,N,07917.9061,W,1,9,1.8,14,M,,M,,*50
05/31/2014	16:03:44.587	$GPGGA,160345,2507.0421,N,07917.9055,W,1,9,1.8,14,M,,M,,*56
05/31/2014	16:03:45.581	$GPGGA,160346,2507.0421,N,07917.9049,W,1,9,1.8,14,M,,M,,*58
05/31/2014	16:03:46.476	$GPGGA,160347,2507.0421,N,07917.9043,W,1,9,1.8,14,M,,M,,*53
05/31/2014	16:03:47.580	$GPGGA,160348,2507.0421,N,07917.9037,W,1,9,1.8,14,M,,M,,*5F
05/31/2014	16:03:48.604	$GPGGA,160349,2507.0423,N,07917.9031,W,1,9,1.8,14,M,,M,,*5A
05/31/2014	16:03:49.499	$GPGGA,160350,2507.0421,N,07917.9025,W,1,9,1.8,14,M,,M,,*55
05/31/2014	16:03:50.544	$GPGGA,160351,2507.0421,N,07917.9019,W,1,9,1.8,14,M,,M,,*5B
05/31/2014	16:03:51.489	$GPGGA,160352,2507.0424,N,07917.9012,W,1,9,1.8,14,M,,M,,*56
05/31/2014	16:03:52.523	$GPGGA,160353,2507.0422,N,07917.9006,W,1,9,1.8,14,M,,M,,*54
05/31/2014	16:03:53.518	$GPGGA,160354,2507.0421,N,07917.9000,W,1,9,1.8,14,M,,M,,*56
05/31/2014	16:03:54.532	$GPGGA,160355,2507.0424,N,07917.8994,W,1,9,1.8,14,M,,M,,*57
05/31/2014	16:03:55.467	$GPGGA,160356,2507.0424,N,07917.8989,W,1,9,1.8,14,M,,M,,*58
05/31/2014	16:03:56.591	$GPGGA,160357,2507.0422,N,07917.8983,W,1,9,1.8,14,M,,M,,*55
05/31/2014	16:03:57.496	$GPGGA,160358,2507.0423,N,07917.8977,W,1,9,1.8,14,M,,M,,*50
05/31/2014	16:03:58.491	$GPGGA,160359,2507.0424,N,07917.8972,W,1,9,1.8,14,M,,M,,*53
05/31/2014	16:03:59.515	$GPGGA,160400,2507.0424,N,07917.8966,W,1,9,1.8,14,M,,M,,*5D
05/31/2014	16:04:00.510	$GPGGA,160401,2507.0423,N,07917.8960,W,1,9,1.8,14,M,,M,,*5D
05/31/2014	16:04:01.466	$GPGGA,160402,2507.0424,N,07917.8953,W,1,9,2.1,14,M,,M,,*53
05/31/2014	16:04:02.499	$GPGGA,160403,2507.0424,N,07917.8948,W,1,8,1.8,14,M,,M,,*53
05/31/2014	16:04:03.473	$GPGGA,160404,2507.0425,N,07917.8944,W,1,8,1.8,14,M,,M,,*59
05/31/2014	16:04:04.467	$GPGGA,160405,2507.0423,N,07917.8938,W,1,9,1.8,14,M,,M,,*54
05/31/2014	16:04:05.432	$GPGGA,160406,2507.0424,N,07917.8933,W,1,9,1.8,14,M,,M,,*5B
05/31/2014	16:04:06.446	$GPGGA,160407,2507.0424,N,07917.8928,W,1,9,1.8,14,M,,M,,*50
05/31/2014	16:04:07.441	$GPGGA,160408,2507.0425,N,07917.8923,W,1,9,1.8,14,M,,M,,*55
05/31/2014	16:04:08.436	$GPGGA,160409,2507.0423,N,07917.8916,W,1,9,2.1,14,M,,M,,*5E
05/31/2014	16:04:09.420	$GPGGA,160410,2507.0424,N,07917.8910,W,1,9,1.8,14,M,,M,,*5D
05/31/2014	16:04:10.425	$GPGGA,160411,2507.0427,N,07917.8903,W,1,9,1.8,14,M,,M,,*5D
05/31/2014	16:04:11.400	$GPGGA,160412,2507.0426,N,07917.8898,W,1,9,1.8,14,M,,M,,*5C
05/31/2014	16:04:12.414	$GPGGA,160413,2507.0425,N,07917.8892,W,1,9,1.8,14,M,,M,,*54
05/31/2014	16:04:13.379	$GPGGA,160414,2507.0427,N,07917.8885,W,1,9,2.1,14,M,,M,,*5D
05/31/2014	16:04:14.403	$GPGGA,160415,2507.0428,N,07917.8880,W,1,8,1.8,14,M,,M,,*5D
05/31/2014	16:04:15.378	$GPGGA,160416,2507.0428,N,07917.8874,W,1,8,1.8,14,M,,M,,*55
05/31/2014	16:04:16.383	$GPGGA,160417,2507.0426,N,07917.8870,W,1,9,1.8,14,M,,M,,*5F
05/31/2014	16:04:17.350	$GPGGA,160418,2507.0427,N,07917.8862,W,1,9,2.1,14,M,,M,,*58
05/31/2014	16:04:18.373	$GPGGA,160419,2507.0426,N,07917.8858,W,1,8,1.8,14,M,,M,,*5A
05/31/2014	16:04:19.359	$GPGGA,160420,2507.0427,N,07917.8853,W,1,8,1.8,14,M,,M,,*5A
05/31/2014	16:04:20.360	$GPGGA,160421,2507.0425,N,07917.8849,W,1,9,1.8,14,M,,M,,*53
05/31/2014	16:04:21.315	$GPGGA,160422,2507.0425,N,07917.8844,W,1,9,1.8,14,M,,M,,*5D
05/31/2014	16:04:22.339	$GPGGA,160423,2507.0425,N,07917.8844,W,1,9,1.9,14,M,,M,,*5D
05/31/2014	16:04:23.324	$GPGGA,160424,2507.0424,N,07917.8833,W,1,9,2.1,14,M,,M,,*50
05/31/2014	16:04:24.301	$GPGGA,160425,2507.0424,N,07917.8833,W,1,9,1.9,14,M,,M,,*5A
05/31/2014	16:04:25.283	$GPGGA,160426,2507.0422,N,07917.8825,W,1,9,1.9,14,M,,M,,*58
05/31/2014	16:04:26.357	$GPGGA,160427,2507.0423,N,07917.8820,W,1,9,1.9,14,M,,M,,*5D
05/31/2014	16:04:27.729	$GPGGA,160428,2507.0421,N,07917.8816,W,1,9,1.9,14,M,,M,,*55
05/31/2014	16:04:28.644	$GPGGA,160429,2507.0421,N,07917.8811,W,1,9,1.9,14,M,,M,,*53
05/31/2014	16:04:29.601	$GPGGA,160430,2507.0421,N,07917.8806,W,1,9,1.9,14,M,,M,,*5D
05/31/2014	16:04:30.710	$GPGGA,160431,2507.0419,N,07917.8801,W,1,9,1.9,14,M,,M,,*50
05/31/2014	16:04:31.588	$GPGGA,160432,2507.0420,N,07917.8795,W,1,9,1.9,13,M,,M,,*5C
05/31/2014	16:04:32.582	$GPGGA,160433,2507.0420,N,07917.8795,W,1,9,1.9,13,M,,M,,*5D
05/31/2014	16:04:33.647	$GPGGA,160434,2507.0420,N,07917.8785,W,1,9,1.9,13,M,,M,,*5B
05/31/2014	16:04:34.671	$GPGGA,160435,2507.0418,N,07917.8780,W,1,9,1.9,13,M,,M,,*54
05/31/2014	16:04:35.646	$GPGGA,160436,2507.0419,N,07917.8775,W,1,9,1.9,13,M,,M,,*5C
05/31/2014	16:04:36.650	$GPGGA,160437,2507.0418,N,07917.8769,W,1,9,1.9,13,M,,M,,*51
05/31/2014	16:04:37.535	$GPGGA,160438,2507.0417,N,07917.8763,W,1,9,1.9,13,M,,M,,*5B
05/31/2014	16:04:38.539	$GPGGA,160439,2507.0417,N,07917.8763,W,1,9,1.9,13,M,,M,,*5A
05/31/2014	16:04:39.515	$GPGGA,160440,2507.0417,N,07917.8753,W,1,9,1.9,13,M,,M,,*57
05/31/2014	16:04:40.518	$GPGGA,160441,2507.0417,N,07917.8753,W,1,9,1.9,13,M,,M,,*56
05/31/2014	16:04:41.493	$GPGGA,160442,2507.0417,N,07917.8741,W,1,9,1.9,13,M,,M,,*56
05/31/2014	16:04:42.499	$GPGGA,160443,2507.0417,N,07917.8741,W,1,9,1.9,12,M,,M,,*56
05/31/2014	16:04:43.492	$GPGGA,160444,2507.0417,N,07917.8729,W,1,9,1.9,12,M,,M,,*5F
05/31/2014	16:04:44.616	$GPGGA,160445,2507.0416,N,07917.8723,W,1,9,1.9,12,M,,M,,*55
05/31/2014	16:04:45.551	$GPGGA,160446,2507.0417,N,07917.8717,W,1,9,1.9,12,M,,M,,*50
05/31/2014	16:04:46.555	$GPGGA,160447,2507.0420,N,07917.8711,W,1,9,1.9,12,M,,M,,*53
05/31/2014	16:04:47.550	$GPGGA,160448,2507.0418,N,07917.8703,W,1,9,1.9,12,M,,M,,*54
05/31/2014	16:04:48.545	$GPGGA,160449,2507.0417,N,07917.8698,W,1,8,2.1,12,M,,M,,*53
05/31/2014	16:04:49.539	$GPGGA,160450,2507.0419,N,07917.8693,W,1,8,1.9,12,M,,M,,*55
05/31/2014	16:04:50.544	$GPGGA,160451,2507.0420,N,07917.8687,W,1,9,1.9,12,M,,M,,*5A
05/31/2014	16:04:51.528	$GPGGA,160452,2507.0417,N,07917.8681,W,1,9,1.9,12,M,,M,,*5B
05/31/2014	16:04:52.534	$GPGGA,160453,2507.0417,N,07917.8681,W,1,9,1.9,12,M,,M,,*5A
05/31/2014	16:04:53.498	$GPGGA,160454,2507.0419,N,07917.8671,W,1,9,1.9,12,M,,M,,*5C
05/31/2014	16:04:54.513	$GPGGA,160455,2507.0417,N,07917.8667,W,1,9,1.9,12,M,,M,,*54
05/31/2014	16:04:55.497	$GPGGA,160456,2507.0416,N,07917.8662,W,1,9,2.1,12,M,,M,,*58
05/31/2014	16:04:56.500	$GPGGA,160457,2507.0415,N,07917.8657,W,1,9,1.9,12,M,,M,,*57
05/31/2014	16:04:57.465	$GPGGA,160458,2507.0416,N,07917.8651,W,1,9,1.9,12,M,,M,,*5D
05/31/2014	16:04:58.460	$GPGGA,160459,2507.0417,N,07917.8646,W,1,9,1.9,12,M,,M,,*5B
05/31/2014	16:04:59.484	$GPGGA,160500,2507.0415,N,07917.8640,W,1,9,1.9,12,M,,M,,*52
05/31/2014	16:05:00.469	$GPGGA,160501,2507.0414,N,07917.8633,W,1,9,1.9,12,M,,M,,*56
05/31/2014	16:05:01.434	$GPGGA,160502,2507.0414,N,07917.8629,W,1,9,2.1,12,M,,M,,*55
05/31/2014	16:05:02.458	$GPGGA,160503,2507.0416,N,07917.8622,W,1,9,1.9,12,M,,M,,*56
05/31/2014	16:05:03.443	$GPGGA,160504,2507.0415,N,07917.8616,W,1,9,1.9,12,M,,M,,*55
05/31/2014	16:05:04.447	$GPGGA,160505,2507.0414,N,07917.8611,W,1,9,1.9,12,M,,M,,*52
05/31/2014	16:05:05.402	$GPGGA,160506,2507.0414,N,07917.8606,W,1,9,1.9,12,M,,M,,*57
05/31/2014	16:05:06.427	$GPGGA,160507,2507.0414,N,07917.8601,W,1,9,1.9,12,M,,M,,*51
05/31/2014	16:05:07.401	$GPGGA,160508,2507.0414,N,07917.8595,W,1,9,1.9,12,M,,M,,*50
05/31/2014	16:05:08.416	$GPGGA,160509,2507.0414,N,07917.8589,W,1,9,1.9,12,M,,M,,*5C
05/31/2014	16:05:09.371	$GPGGA,160510,2507.0414,N,07917.8583,W,1,9,2.1,12,M,,M,,*55
05/31/2014	16:05:11.708	$GPGGA,160512,2507.0414,N,07917.8572,W,1,9,1.9,12,M,,M,,*52
05/31/2014	16:05:12.374	$GPGGA,160513,2507.0412,N,07917.8566,W,1,9,1.9,12,M,,M,,*50
05/31/2014	16:05:13.348	$GPGGA,160514,2507.0413,N,07917.8560,W,1,9,1.9,12,M,,M,,*50
05/31/2014	16:05:14.344	$GPGGA,160515,2507.0411,N,07917.8555,W,1,9,1.9,12,M,,M,,*55
05/31/2014	16:05:15.347	$GPGGA,160516,2507.0412,N,07917.8548,W,1,9,1.9,12,M,,M,,*59
05/31/2014	16:05:16.431	$GPGGA,160517,2507.0411,N,07917.8542,W,1,9,1.9,12,M,,M,,*51
05/31/2014	16:05:17.316	$GPGGA,160518,2507.0413,N,07917.8537,W,1,9,1.9,12,M,,M,,*5E
05/31/2014	16:05:18.420	$GPGGA,160519,2507.0411,N,07917.8531,W,1,9,1.9,12,M,,M,,*5B
05/31/2014	16:05:19.306	$GPGGA,160520,2507.0410,N,07917.8525,W,1,9,1.9,12,M,,M,,*55
05/31/2014	16:05:20.310	$GPGGA,160521,2507.0410,N,07917.8520,W,1,9,1.9,12,M,,M,,*51
05/31/2014	16:05:21.384	$GPGGA,160522,2507.0410,N,07917.8515,W,1,9,1.9,12,M,,M,,*54
05/31/2014	16:05:22.299	$GPGGA,160523,2507.0410,N,07917.8509,W,1,9,1.9,12,M,,M,,*58
05/31/2014	16:05:23.284	$GPGGA,160524,2507.0408,N,07917.8504,W,1,9,1.9,12,M,,M,,*5B
05/31/2014	16:05:24.289	$GPGGA,160525,2507.0409,N,07917.8499,W,1,9,1.9,12,M,,M,,*5E
05/31/2014	16:05:25.253	$GPGGA,160526,2507.0408,N,07917.8493,W,1,9,1.9,12,M,,M,,*56
05/31/2014	16:05:26.268	$GPGGA,160527,2507.0409,N,07917.8488,W,1,9,1.9,11,M,,M,,*5F
05/31/2014	16:05:27.590	$GPGGA,160528,2507.0408,N,07917.8482,W,1,9,1.9,11,M,,M,,*5B
05/31/2014	16:05:28.696	$GPGGA,160529,2507.0409,N,07917.8477,W,1,9,1.9,11,M,,M,,*51
05/31/2014	16:05:29.659	$GPGGA,160530,2507.0407,N,07917.8471,W,1,9,1.9,11,M,,M,,*51
05/31/2014	16:05:30.563	$GPGGA,160531,2507.0407,N,07917.8464,W,1,9,1.9,11,M,,M,,*54
05/31/2014	16:05:31.637	$GPGGA,160532,2507.0409,N,07917.8459,W,1,9,1.9,11,M,,M,,*57
05/31/2014	16:05:32.662	$GPGGA,160533,2507.0407,N,07917.8453,W,1,9,1.9,11,M,,M,,*52
05/31/2014	16:05:33.627	$GPGGA,160534,2507.0407,N,07917.8447,W,1,9,1.9,11,M,,M,,*50
05/31/2014	16:05:34.631	$GPGGA,160535,2507.0409,N,07917.8441,W,1,9,1.9,11,M,,M,,*59
05/31/2014	16:05:35.626	$GPGGA,160536,2507.0408,N,07917.8436,W,1,9,1.9,11,M,,M,,*5B
05/31/2014	16:05:36.620	$GPGGA,160537,2507.0407,N,07917.8430,W,1,9,1.9,11,M,,M,,*53
05/31/2014	16:05:37.605	$GPGGA,160538,2507.0407,N,07917.8425,W,1,9,1.9,11,M,,M,,*58
05/31/2014	16:05:38.610	$GPGGA,160539,2507.0407,N,07917.8419,W,1,9,1.9,11,M,,M,,*56
05/31/2014	16:05:39.604	$GPGGA,160540,2507.0409,N,07917.8413,W,1,9,1.9,11,M,,M,,*5C
05/31/2014	16:05:40.589	$GPGGA,160541,2507.0407,N,07917.8407,W,1,9,1.9,11,M,,M,,*56
05/31/2014	16:05:41.574	$GPGGA,160542,2507.0407,N,07917.8400,W,1,9,1.9,11,M,,M,,*52
05/31/2014	16:05:42.548	$GPGGA,160543,2507.0409,N,07917.8394,W,1,9,1.9,11,M,,M,,*57
05/31/2014	16:05:43.563	$GPGGA,160544,2507.0408,N,07917.8388,W,1,9,1.9,11,M,,M,,*5C
05/31/2014	16:05:44.567	$GPGGA,160545,2507.0409,N,07917.8381,W,1,9,1.9,11,M,,M,,*55
05/31/2014	16:05:45.532	$GPGGA,160546,2507.0410,N,07917.8374,W,1,9,2.1,11,M,,M,,*5F
05/31/2014	16:05:46.547	$GPGGA,160547,2507.0408,N,07917.8370,W,1,8,2.1,11,M,,M,,*52
05/31/2014	16:05:47.531	$GPGGA,160548,2507.0407,N,07917.8365,W,1,8,1.9,11,M,,M,,*5D
05/31/2014	16:05:48.535	$GPGGA,160549,2507.0407,N,07917.8359,W,1,9,1.9,11,M,,M,,*52
05/31/2014	16:05:49.500	$GPGGA,160550,2507.0407,N,07917.8354,W,1,9,1.9,11,M,,M,,*57
05/31/2014	16:05:50.485	$GPGGA,160551,2507.0409,N,07917.8347,W,1,9,1.9,11,M,,M,,*5A
05/31/2014	16:05:51.499	$GPGGA,160552,2507.0406,N,07917.8343,W,1,9,2.1,11,M,,M,,*59
05/31/2014	16:05:52.483	$GPGGA,160553,2507.0406,N,07917.8338,W,1,9,1.9,11,M,,M,,*5F
05/31/2014	16:05:53.468	$GPGGA,160554,2507.0405,N,07917.8333,W,1,9,1.9,11,M,,M,,*50
05/31/2014	16:05:54.463	$GPGGA,160555,2507.0406,N,07917.8327,W,1,9,1.9,11,M,,M,,*57
05/31/2014	16:05:55.477	$GPGGA,160556,2507.0405,N,07917.8320,W,1,9,1.9,11,M,,M,,*50
05/31/2014	16:05:56.443	$GPGGA,160557,2507.0406,N,07917.8314,W,1,8,2.1,11,M,,M,,*5F
05/31/2014	16:05:57.456	$GPGGA,160558,2507.0406,N,07917.8308,W,1,8,1.9,11,M,,M,,*56
05/31/2014	16:05:58.431	$GPGGA,160559,2507.0406,N,07917.8302,W,1,9,1.9,11,M,,M,,*5C
05/31/2014	16:05:59.576	$GPGGA,160600,2507.0405,N,07917.8297,W,1,9,1.9,11,M,,M,,*5D
05/31/2014	16:06:00.410	$GPGGA,160601,2507.0406,N,07917.8289,W,1,9,1.9,11,M,,M,,*50
05/31/2014	16:06:01.435	$GPGGA,160602,2507.0407,N,07917.8284,W,1,9,2.1,11,M,,M,,*54
05/31/2014	16:06:02.399	$GPGGA,160603,2507.0406,N,07917.8279,W,1,9,1.9,11,M,,M,,*5D
05/31/2014	16:06:03.523	$GPGGA,160604,2507.0406,N,07917.8273,W,1,9,1.9,11,M,,M,,*50
05/31/2014	16:06:04.518	$GPGGA,160605,2507.0405,N,07917.8267,W,1,9,1.9,11,M,,M,,*57
05/31/2014	16:06:05.393	$GPGGA,160606,2507.0406,N,07917.8263,W,1,9,1.9,11,M,,M,,*53
05/31/2014	16:06:06.466	$GPGGA,160607,2507.0405,N,07917.8258,W,1,9,1.9,11,M,,M,,*59
05/31/2014	16:06:07.391	$GPGGA,160608,2507.0404,N,07917.8252,W,1,9,1.9,11,M,,M,,*5D
05/31/2014	16:06:08.357	$GPGGA,160609,2507.0405,N,07917.8245,W,1,9,1.9,11,M,,M,,*5B
05/31/2014	16:06:09.361	$GPGGA,160610,2507.0406,N,07917.8239,W,1,9,2.1,11,M,,M,,*50
05/31/2014	16:06:10.435	$GPGGA,160611,2507.0405,N,07917.8234,W,1,9,1.9,11,M,,M,,*54
05/31/2014	16:06:11.459	$GPGGA,160612,2507.0404,N,07917.8228,W,1,9,1.9,11,M,,M,,*5B
05/31/2014	16:06:12.344	$GPGGA,160613,2507.0403,N,07917.8223,W,1,9,1.9,11,M,,M,,*56
05/31/2014	16:06:13.329	$GPGGA,160614,2507.0405,N,07917.8217,W,1,9,2.1,11,M,,M,,*5B
05/31/2014	16:06:14.324	$GPGGA,160615,2507.0403,N,07917.8212,W,1,9,1.9,11,M,,M,,*52
05/31/2014	16:06:15.318	$GPGGA,160616,2507.0401,N,07917.8206,W,1,9,1.9,11,M,,M,,*56
05/31/2014	16:06:16.402	$GPGGA,160617,2507.0403,N,07917.8200,W,1,8,2.1,11,M,,M,,*59
05/31/2014	16:06:17.397	$GPGGA,160618,2507.0403,N,07917.8195,W,1,8,1.9,11,M,,M,,*52
05/31/2014	16:06:18.382	$GPGGA,160619,2507.0403,N,07917.8189,W,1,8,2.1,11,M,,M,,*55
05/31/2014	16:06:19.396	$GPGGA,160620,2507.0403,N,07917.8181,W,1,8,1.9,11,M,,M,,*5C
05/31/2014	16:06:20.391	$GPGGA,160621,2507.0406,N,07917.8175,W,1,9,1.9,11,M,,M,,*52
05/31/2014	16:06:21.367	$GPGGA,160622,2507.0406,N,07917.8169,W,1,9,1.9,11,M,,M,,*5C
05/31/2014	16:06:22.370	$GPGGA,160623,2507.0405,N,07917.8162,W,1,9,1.9,11,M,,M,,*55
05/31/2014	16:06:23.354	$GPGGA,160624,2507.0407,N,07917.8156,W,1,9,1.9,11,M,,M,,*57
05/31/2014	16:06:24.358	$GPGGA,160625,2507.0407,N,07917.8151,W,1,9,1.9,11,M,,M,,*51
05/31/2014	16:06:25.333	$GPGGA,160626,2507.0407,N,07917.8145,W,1,9,1.9,11,M,,M,,*57
05/31/2014	16:06:26.318	$GPGGA,160627,2507.0407,N,07917.8139,W,1,9,1.9,11,M,,M,,*5D
05/31/2014	16:06:27.332	$GPGGA,160628,2507.0409,N,07917.8134,W,1,9,1.9,11,M,,M,,*51
05/31/2014	16:06:28.337	$GPGGA,160629,2507.0408,N,07917.8128,W,1,9,1.9,11,M,,M,,*5C
05/31/2014	16:06:29.301	$GPGGA,160630,2507.0409,N,07917.8123,W,1,9,1.9,11,M,,M,,*5E
05/31/2014	16:06:30.306	$GPGGA,160631,2507.0408,N,07917.8117,W,1,9,1.9,11,M,,M,,*59
05/31/2014	16:06:31.311	$GPGGA,160632,2507.0410,N,07917.8112,W,1,9,1.9,11,M,,M,,*56
05/31/2014	16:06:32.295	$GPGGA,160633,2507.0410,N,07917.8107,W,1,9,1.9,11,M,,M,,*53
05/31/2014	16:06:33.270	$GPGGA,160634,2507.0410,N,07917.8101,W,1,9,1.9,11,M,,M,,*52
05/31/2014	16:06:34.284	$GPGGA,160635,2507.0408,N,07917.8096,W,1,9,1.9,12,M,,M,,*56
05/31/2014	16:06:35.279	$GPGGA,160636,2507.0409,N,07917.8091,W,1,9,2.1,12,M,,M,,*58
05/31/2014	16:06:36.234	$GPGGA,160637,2507.0408,N,07917.8086,W,1,9,1.9,12,M,,M,,*55
05/31/2014	16:06:37.229	$GPGGA,160638,2507.0407,N,07917.8079,W,1,9,1.9,12,M,,M,,*55
05/31/2014	16:06:38.228	$GPGGA,160639,2507.0410,N,07917.8071,W,1,8,2.1,12,M,,M,,*50
05/31/2014	16:06:39.247	$GPGGA,160640,2507.0408,N,07917.8067,W,1,8,1.9,12,M,,M,,*5B
05/31/2014	16:06:40.251	$GPGGA,160641,2507.0409,N,07917.8061,W,1,9,1.9,12,M,,M,,*5C
05/31/2014	16:06:41.206	$GPGGA,160642,2507.0410,N,07917.8056,W,1,9,1.9,12,M,,M,,*53
05/31/2014	16:06:42.201	$GPGGA,160643,2507.0410,N,07917.8049,W,1,9,1.9,12,M,,M,,*5C
05/31/2014	16:06:43.215	$GPGGA,160644,2507.0407,N,07917.8047,W,1,9,2.1,12,M,,M,,*58
05/31/2014	16:06:44.190	$GPGGA,160645,2507.0409,N,07917.8041,W,1,9,1.9,12,M,,M,,*5A
05/31/2014	16:06:45.174	$GPGGA,160646,2507.0408,N,07917.8036,W,1,9,1.9,12,M,,M,,*58
05/31/2014	16:06:46.170	$GPGGA,160647,2507.0407,N,07917.8031,W,1,9,1.9,12,M,,M,,*51
05/31/2014	16:06:47.184	$GPGGA,160648,2507.0409,N,07917.8026,W,1,9,1.9,12,M,,M,,*56
05/31/2014	16:06:48.267	$GPGGA,160649,2507.0408,N,07917.8021,W,1,9,1.9,12,M,,M,,*51
05/31/2014	16:06:49.153	$GPGGA,160650,2507.0407,N,07917.8016,W,1,9,1.9,12,M,,M,,*52
05/31/2014	16:06:50.157	$GPGGA,160651,2507.0409,N,07917.8012,W,1,9,1.9,12,M,,M,,*59
05/31/2014	16:06:51.152	$GPGGA,160652,2507.0407,N,07917.8006,W,1,9,1.9,12,M,,M,,*51
05/31/2014	16:06:52.246	$GPGGA,160653,2507.0406,N,07917.8001,W,1,9,1.9,12,M,,M,,*56
05/31/2014	16:06:53.111	$GPGGA,160654,2507.0407,N,07917.7996,W,1,9,1.9,12,M,,M,,*58
05/31/2014	16:06:54.235	$GPGGA,160655,2507.0409,N,07917.7990,W,1,9,1.9,11,M,,M,,*52
05/31/2014	16:06:55.111	$GPGGA,160656,2507.0407,N,07917.7985,W,1,9,1.9,11,M,,M,,*5B
05/31/2014	16:06:56.105	$GPGGA,160657,2507.0406,N,07917.7978,W,1,9,1.9,11,M,,M,,*59
05/31/2014	16:06:57.179	$GPGGA,160658,2507.0407,N,07917.7973,W,1,9,1.9,11,M,,M,,*5C
05/31/2014	16:06:58.073	$GPGGA,160659,2507.0409,N,07917.7967,W,1,9,1.9,11,M,,M,,*56
05/31/2014	16:06:59.227	$GPGGA,160700,2507.0407,N,07917.7961,W,1,9,1.9,11,M,,M,,*53
05/31/2014	16:07:00.192	$GPGGA,160701,2507.0406,N,07917.7956,W,1,9,1.9,11,M,,M,,*57
05/31/2014	16:07:01.156	$GPGGA,160702,2507.0407,N,07917.7950,W,1,9,1.9,11,M,,M,,*53
05/31/2014	16:07:02.141	$GPGGA,160703,2507.0409,N,07917.7944,W,1,9,1.9,11,M,,M,,*59
05/31/2014	16:07:03.156	$GPGGA,160704,2507.0408,N,07917.7939,W,1,9,1.9,11,M,,M,,*55
05/31/2014	16:07:04.130	$GPGGA,160705,2507.0407,N,07917.7931,W,1,9,1.9,11,M,,M,,*53
05/31/2014	16:07:05.125	$GPGGA,160706,2507.0407,N,07917.7926,W,1,9,2.1,11,M,,M,,*5D
05/31/2014	16:07:06.120	$GPGGA,160707,2507.0409,N,07917.7921,W,1,9,1.9,11,M,,M,,*5E
05/31/2014	16:07:07.124	$GPGGA,160708,2507.0408,N,07917.7916,W,1,9,1.9,11,M,,M,,*54
05/31/2014	16:07:08.129	$GPGGA,160709,2507.0409,N,07917.7909,W,1,9,1.9,11,M,,M,,*5A
05/31/2014	16:07:09.103	$GPGGA,160710,2507.0406,N,07917.7907,W,1,9,2.1,11,M,,M,,*58
05/31/2014	16:07:10.088	$GPGGA,160711,2507.0407,N,07917.7901,W,1,9,1.9,11,M,,M,,*55
05/31/2014	16:07:11.102	$GPGGA,160712,2507.0409,N,07917.7896,W,1,9,1.9,11,M,,M,,*57
05/31/2014	16:07:12.107	$GPGGA,160713,2507.0408,N,07917.7891,W,1,9,1.9,11,M,,M,,*50
05/31/2014	16:07:13.072	$GPGGA,160714,2507.0407,N,07917.7886,W,1,9,1.9,11,M,,M,,*5E
05/31/2014	16:07:14.056	$GPGGA,160715,2507.0406,N,07917.7882,W,1,9,1.9,11,M,,M,,*5A
05/31/2014	16:07:15.070	$GPGGA,160716,2507.0409,N,07917.7877,W,1,9,1.9,11,M,,M,,*5C
05/31/2014	16:07:16.035	$GPGGA,160717,2507.0408,N,07917.7872,W,1,9,1.9,11,M,,M,,*59
05/31/2014	16:07:17.029	$GPGGA,160718,2507.0406,N,07917.7867,W,1,9,1.9,11,M,,M,,*5C
05/31/2014	16:07:18.044	$GPGGA,160719,2507.0409,N,07917.7860,W,1,9,1.9,11,M,,M,,*55
05/31/2014	16:07:19.068	$GPGGA,160720,2507.0410,N,07917.7854,W,1,9,2.1,11,M,,M,,*5B
05/31/2014	16:07:20.046	$GPGGA,160721,2507.0410,N,07917.7849,W,1,9,1.9,11,M,,M,,*5D
05/31/2014	16:07:21.024	$GPGGA,160722,2507.0410,N,07917.7842,W,1,9,1.9,11,M,,M,,*55
05/31/2014	16:07:22.002	$GPGGA,160723,2507.0410,N,07917.7836,W,1,9,1.9,11,M,,M,,*57
05/31/2014	16:07:23.020	$GPGGA,160724,2507.0410,N,07917.7831,W,1,9,2.1,11,M,,M,,*5C
05/31/2014	16:07:24.018	$GPGGA,160725,2507.0412,N,07917.7826,W,1,9,1.9,11,M,,M,,*52
05/31/2014	16:07:24.986	$GPGGA,160726,2507.0410,N,07917.7821,W,1,9,1.9,11,M,,M,,*54
05/31/2014	16:07:25.985	$GPGGA,160727,2507.0410,N,07917.7815,W,1,9,1.9,11,M,,M,,*52
05/31/2014	16:07:27.003	$GPGGA,160728,2507.0410,N,07917.7810,W,1,9,1.9,11,M,,M,,*58
05/31/2014	16:07:28.021	$GPGGA,160729,2507.0412,N,07917.7805,W,1,9,1.9,11,M,,M,,*5F
05/31/2014	16:07:28.985	$GPGGA,160730,2507.0413,N,07917.7799,W,1,9,1.9,11,M,,M,,*5C
05/31/2014	16:07:29.978	$GPGGA,160731,2507.0411,N,07917.7792,W,1,9,1.9,11,M,,M,,*54
05/31/2014	16:07:31.081	$GPGGA,160732,2507.0413,N,07917.7787,W,1,9,1.9,11,M,,M,,*51
05/31/2014	16:07:32.093	$GPGGA,160733,2507.0414,N,07917.7783,W,1,9,1.9,11,M,,M,,*53
05/31/2014	16:07:32.960	$GPGGA,160734,2507.0414,N,07917.7778,W,1,9,1.9,11,M,,M,,*50
05/31/2014	16:07:33.978	$GPGGA,160735,2507.0411,N,07917.7773,W,1,9,1.9,11,M,,M,,*5F
05/31/2014	16:07:34.966	$GPGGA,160736,2507.0414,N,07917.7769,W,1,9,1.9,11,M,,M,,*52
05/31/2014	16:07:35.968	$GPGGA,160737,2507.0414,N,07917.7764,W,1,9,1.9,11,M,,M,,*5E
05/31/2014	16:07:36.943	$GPGGA,160738,2507.0414,N,07917.7760,W,1,9,1.9,11,M,,M,,*55
05/31/2014	16:07:38.081	$GPGGA,160739,2507.0411,N,07917.7755,W,1,9,1.9,11,M,,M,,*57
05/31/2014	16:07:38.959	$GPGGA,160740,2507.0413,N,07917.7750,W,1,9,1.9,11,M,,M,,*5E
05/31/2014	16:07:39.947	$GPGGA,160741,2507.0414,N,07917.7745,W,1,9,1.9,11,M,,M,,*5C
05/31/2014	16:07:40.925	$GPGGA,160742,2507.0412,N,07917.7740,W,1,9,1.9,11,M,,M,,*5C
05/31/2014	16:07:42.070	$GPGGA,160743,2507.0411,N,07917.7736,W,1,9,1.9,11,M,,M,,*5F
05/31/2014	16:07:43.051	$GPGGA,160744,2507.0413,N,07917.7731,W,1,9,1.9,11,M,,M,,*5D
05/31/2014	16:07:44.029	$GPGGA,160745,2507.0414,N,07917.7725,W,1,9,1.9,11,M,,M,,*5E
05/31/2014	16:07:44.918	$GPGGA,160746,2507.0412,N,07917.7721,W,1,9,1.9,11,M,,M,,*5F
05/31/2014	16:07:46.015	$GPGGA,160747,2507.0413,N,07917.7714,W,1,9,2.1,11,M,,M,,*52
05/31/2014	16:07:46.925	$GPGGA,160748,2507.0414,N,07917.7707,W,1,9,2.1,11,M,,M,,*58
05/31/2014	16:07:47.992	$GPGGA,160749,2507.0416,N,07917.7702,W,1,8,1.9,11,M,,M,,*54
05/31/2014	16:07:49.011	$GPGGA,160750,2507.0414,N,07917.7698,W,1,8,1.9,11,M,,M,,*5C
05/31/2014	16:07:50.017	$GPGGA,160751,2507.0412,N,07917.7695,W,1,9,1.9,11,M,,M,,*57
05/31/2014	16:07:51.036	$GPGGA,160752,2507.0414,N,07917.7690,W,1,9,1.9,11,M,,M,,*57
05/31/2014	16:07:52.003	$GPGGA,160753,2507.0412,N,07917.7686,W,1,9,1.9,11,M,,M,,*57
05/31/2014	16:07:52.981	$GPGGA,160754,2507.0411,N,07917.7681,W,1,9,1.9,11,M,,M,,*54
05/31/2014	16:07:53.979	$GPGGA,160755,2507.0414,N,07917.7674,W,1,9,2.1,10,M,,M,,*50
05/31/2014	16:07:54.987	$GPGGA,160756,2507.0414,N,07917.7669,W,1,9,1.9,10,M,,M,,*54
05/31/2014	16:07:55.985	$GPGGA,160757,2507.0414,N,07917.7663,W,1,9,1.9,10,M,,M,,*5F
05/31/2014	16:07:56.964	$GPGGA,160758,2507.0414,N,07917.7658,W,1,9,1.9,10,M,,M,,*58
05/31/2014	16:07:57.972	$GPGGA,160759,2507.0414,N,07917.7651,W,1,9,2.1,10,M,,M,,*5B
05/31/2014	16:07:59.010	$GPGGA,160800,2507.0414,N,07917.7646,W,1,9,1.9,10,M,,M,,*55
05/31/2014	16:07:59.968	$GPGGA,160801,2507.0414,N,07917.7640,W,1,9,2.1,10,M,,M,,*59
05/31/2014	16:08:00.956	$GPGGA,160802,2507.0414,N,07917.7637,W,1,9,1.9,10,M,,M,,*51
05/31/2014	16:08:01.974	$GPGGA,160803,2507.0412,N,07917.7633,W,1,9,1.9,10,M,,M,,*52
05/31/2014	16:08:02.962	$GPGGA,160804,2507.0413,N,07917.7628,W,1,9,1.9,10,M,,M,,*5E
05/31/2014	16:08:03.940	$GPGGA,160805,2507.0412,N,07917.7623,W,1,9,1.9,10,M,,M,,*55
05/31/2014	16:08:04.948	$GPGGA,160806,2507.0413,N,07917.7616,W,1,9,2.1,10,M,,M,,*5A
05/31/2014	16:08:05.917	$GPGGA,160807,2507.0412,N,07917.7611,W,1,8,1.9,10,M,,M,,*57
05/31/2014	16:08:06.935	$GPGGA,160808,2507.0413,N,07917.7605,W,1,8,1.9,10,M,,M,,*5C
05/31/2014	16:08:07.952	$GPGGA,160809,2507.0412,N,07917.7601,W,1,9,1.9,10,M,,M,,*59
05/31/2014	16:08:08.920	$GPGGA,160810,2507.0411,N,07917.7595,W,1,9,1.9,10,M,,M,,*5C
05/31/2014	16:08:09.948	$GPGGA,160811,2507.0412,N,07917.7590,W,1,9,1.9,10,M,,M,,*5B
05/31/2014	16:08:10.916	$GPGGA,160812,2507.0411,N,07917.7585,W,1,9,1.9,10,M,,M,,*5F
05/31/2014	16:08:11.924	$GPGGA,160813,2507.0412,N,07917.7579,W,1,9,1.9,10,M,,M,,*5E
05/31/2014	16:08:12.909	$GPGGA,160814,2507.0411,N,07917.7575,W,1,9,1.9,10,M,,M,,*56
05/31/2014	16:08:13.940	$GPGGA,160815,2507.0410,N,07917.7570,W,1,9,1.9,10,M,,M,,*53
05/31/2014	16:08:14.898	$GPGGA,160816,2507.0410,N,07917.7565,W,1,9,1.9,10,M,,M,,*54
05/31/2014	16:08:15.897	$GPGGA,160817,2507.0410,N,07917.7559,W,1,9,1.9,10,M,,M,,*5A
05/31/2014	16:08:16.905	$GPGGA,160818,2507.0410,N,07917.7554,W,1,9,1.9,10,M,,M,,*58
05/31/2014	16:08:17.913	$GPGGA,160819,2507.0410,N,07917.7549,W,1,9,1.9,10,M,,M,,*55
05/31/2014	16:08:18.921	$GPGGA,160820,2507.0410,N,07917.7543,W,1,9,1.9,10,M,,M,,*55
05/31/2014	16:08:19.889	$GPGGA,160821,2507.0410,N,07917.7537,W,1,8,1.9,10,M,,M,,*56
05/31/2014	16:08:20.867	$GPGGA,160822,2507.0410,N,07917.7531,W,1,8,2.1,10,M,,M,,*58
05/31/2014	16:08:21.895	$GPGGA,160823,2507.0412,N,07917.7524,W,1,8,2.1,10,M,,M,,*5F
05/31/2014	16:08:22.876	$GPGGA,160824,2507.0411,N,07917.7516,W,1,8,2.1,10,M,,M,,*5A
05/31/2014	16:08:23.961	$GPGGA,160825,2507.0410,N,07917.7511,W,1,8,1.9,10,M,,M,,*56
05/31/2014	16:08:24.958	$GPGGA,160826,2507.0412,N,07917.7504,W,1,8,2.1,10,M,,M,,*58
05/31/2014	16:08:25.946	$GPGGA,160827,2507.0410,N,07917.7499,W,1,8,1.9,10,M,,M,,*55
05/31/2014	16:08:19.800	$GPGGA,160828,2507.0410,N,07917.7493,W,1,8,1.9,10,M,,M,,*50
05/31/2014	16:08:20.699	$GPGGA,160829,2507.0412,N,07917.7486,W,1,9,2.1,10,M,,M,,*5D
05/31/2014	16:08:21.796	$GPGGA,160830,2507.0413,N,07917.7480,W,1,9,2.1,10,M,,M,,*52
05/31/2014	16:08:22.805	$GPGGA,160831,2507.0412,N,07917.7474,W,1,9,1.9,10,M,,M,,*52
05/31/2014	16:08:23.723	$GPGGA,160832,2507.0413,N,07917.7468,W,1,9,2.1,10,M,,M,,*56
05/31/2014	16:08:24.791	$GPGGA,160833,2507.0412,N,07917.7465,W,1,8,1.9,10,M,,M,,*51
05/31/2014	16:08:25.689	$GPGGA,160834,2507.0411,N,07917.7460,W,1,8,1.9,10,M,,M,,*50
05/31/2014	16:08:26.797	$GPGGA,160835,2507.0412,N,07917.7453,W,1,9,1.9,10,M,,M,,*53
05/31/2014	16:08:27.705	$GPGGA,160836,2507.0414,N,07917.7446,W,1,9,2.1,10,M,,M,,*59
05/31/2014	16:08:28.753	$GPGGA,160837,2507.0414,N,07917.7440,W,1,8,2.1,10,M,,M,,*5F
05/31/2014	16:08:29.751	$GPGGA,160838,2507.0411,N,07917.7437,W,1,8,1.9,10,M,,M,,*5E
05/31/2014	16:08:30.789	$GPGGA,160839,2507.0413,N,07917.7433,W,1,9,1.9,10,M,,M,,*58
05/31/2014	16:08:31.758	$GPGGA,160840,2507.0412,N,07917.7429,W,1,9,1.9,10,M,,M,,*5C
05/31/2014	16:08:32.776	$GPGGA,160841,2507.0411,N,07917.7427,W,1,8,1.9,10,M,,M,,*51
05/31/2014	16:08:33.744	$GPGGA,160842,2507.0413,N,07917.7422,W,1,8,1.9,10,M,,M,,*55
05/31/2014	16:08:34.762	$GPGGA,160843,2507.0414,N,07917.7420,W,1,8,2.1,10,M,,M,,*5A
05/31/2014	16:08:35.739	$GPGGA,160844,2507.0411,N,07917.7417,W,1,8,1.9,10,M,,M,,*57
05/31/2014	16:08:36.757	$GPGGA,160845,2507.0410,N,07917.7413,W,1,9,1.9,10,M,,M,,*52
05/31/2014	16:08:37.725	$GPGGA,160846,2507.0412,N,07917.7408,W,1,9,1.9,10,M,,M,,*59
05/31/2014	16:08:38.713	$GPGGA,160847,2507.0411,N,07917.7404,W,1,9,1.9,10,M,,M,,*57
05/31/2014	16:08:39.731	$GPGGA,160848,2507.0410,N,07917.7397,W,1,9,1.9,10,M,,M,,*54
05/31/2014	16:08:40.739	$GPGGA,160849,2507.0410,N,07917.7392,W,1,8,2.1,10,M,,M,,*5A
05/31/2014	16:08:41.718	$GPGGA,160850,2507.0412,N,07917.7387,W,1,8,1.9,10,M,,M,,*5F
05/31/2014	16:08:42.696	$GPGGA,160851,2507.0411,N,07917.7382,W,1,9,1.9,10,M,,M,,*59
05/31/2014	16:08:43.715	$GPGGA,160852,2507.0410,N,07917.7377,W,1,9,1.9,10,M,,M,,*51
05/31/2014	16:08:44.702	$GPGGA,160853,2507.0413,N,07917.7370,W,1,9,1.9,10,M,,M,,*54
05/31/2014	16:08:45.690	$GPGGA,160854,2507.0412,N,07917.7366,W,1,9,2.1,10,M,,M,,*5E
05/31/2014	16:08:46.708	$GPGGA,160855,2507.0411,N,07917.7362,W,1,9,1.9,10,M,,M,,*53
05/31/2014	16:08:47.686	$GPGGA,160856,2507.0410,N,07917.7358,W,1,9,1.9,10,M,,M,,*58
05/31/2014	16:08:48.714	$GPGGA,160857,2507.0410,N,07917.7353,W,1,9,1.9,10,M,,M,,*52
05/31/2014	16:08:49.672	$GPGGA,160858,2507.0410,N,07917.7349,W,1,9,1.9,10,M,,M,,*56
05/31/2014	16:08:50.690	$GPGGA,160859,2507.0410,N,07917.7344,W,1,9,1.9,10,M,,M,,*5A
05/31/2014	16:08:51.720	$GPGGA,160900,2507.0410,N,07917.7339,W,1,9,1.9,10,M,,M,,*5D
05/31/2014	16:08:52.666	$GPGGA,160901,2507.0410,N,07917.7334,W,1,9,1.9,9,M,,M,,*69
05/31/2014	16:08:53.664	$GPGGA,160902,2507.0410,N,07917.7328,W,1,9,1.9,9,M,,M,,*67
05/31/2014	16:08:54.652	$GPGGA,160903,2507.0410,N,07917.7323,W,1,9,1.9,9,M,,M,,*6D
05/31/2014	16:08:55.680	$GPGGA,160904,2507.0410,N,07917.7318,W,1,9,1.9,9,M,,M,,*62
05/31/2014	16:08:56.650	$GPGGA,160905,2507.0410,N,07917.7312,W,1,9,1.9,9,M,,M,,*69
05/31/2014	16:08:57.636	$GPGGA,160906,2507.0410,N,07917.7307,W,1,9,1.9,9,M,,M,,*6E
05/31/2014	16:08:58.654	$GPGGA,160907,2507.0408,N,07917.7302,W,1,9,1.9,9,M,,M,,*63
05/31/2014	16:08:59.642	$GPGGA,160908,2507.0409,N,07917.7296,W,1,9,1.9,9,M,,M,,*61
05/31/2014	16:09:00.621	$GPGGA,160909,2507.0410,N,07917.7291,W,1,9,1.9,9,M,,M,,*6F
05/31/2014	16:09:01.629	$GPGGA,160910,2507.0410,N,07917.7285,W,1,9,1.9,9,M,,M,,*62
05/31/2014	16:09:02.627	$GPGGA,160911,2507.0408,N,07917.7280,W,1,9,1.9,9,M,,M,,*6F
05/31/2014	16:09:03.735	$GPGGA,160912,2507.0409,N,07917.7275,W,1,9,1.9,9,M,,M,,*67
05/31/2014	16:09:04.743	$GPGGA,160913,2507.0410,N,07917.7268,W,1,9,1.9,9,M,,M,,*62
05/31/2014	16:09:05.701	$GPGGA,160914,2507.0408,N,07917.7261,W,1,9,1.9,9,M,,M,,*65
05/31/2014	16:09:06.739	$GPGGA,160915,2507.0409,N,07917.7254,W,1,8,2.1,9,M,,M,,*69
05/31/2014	16:09:07.618	$GPGGA,160916,2507.0412,N,07917.7248,W,1,8,2.1,9,M,,M,,*6D
05/31/2014	16:09:08.605	$GPGGA,160917,2507.0411,N,07917.7240,W,1,9,1.9,9,M,,M,,*6D
05/31/2014	16:09:09.683	$GPGGA,160918,2507.0408,N,07917.7237,W,1,9,2.1,9,M,,M,,*61
05/31/2014	16:09:10.680	$GPGGA,160919,2507.0410,N,07917.7229,W,1,9,1.9,9,M,,M,,*6D
05/31/2014	16:09:11.599	$GPGGA,160920,2507.0410,N,07917.7225,W,1,9,2.1,9,M,,M,,*60
05/31/2014	16:09:12.687	$GPGGA,160921,2507.0410,N,07917.7218,W,1,9,1.9,9,M,,M,,*64
05/31/2014	16:09:13.575	$GPGGA,160922,2507.0410,N,07917.7211,W,1,9,2.1,9,M,,M,,*65
05/31/2014	16:09:14.573	$GPGGA,160923,2507.0412,N,07917.7205,W,1,8,2.1,9,M,,M,,*62
05/31/2014	16:09:15.671	$GPGGA,160924,2507.0410,N,07917.7201,W,1,8,2.1,9,M,,M,,*63
05/31/2014	16:09:16.679	$GPGGA,160925,2507.0407,N,07917.7198,W,1,9,1.9,9,M,,M,,*6D
05/31/2014	16:09:17.647	$GPGGA,160926,2507.0410,N,07917.7191,W,1,9,1.9,9,M,,M,,*61
05/31/2014	16:09:18.675	$GPGGA,160927,2507.0410,N,07917.7184,W,1,8,2.1,9,M,,M,,*6E
05/31/2014	16:09:19.769	$GPGGA,160928,2507.0410,N,07917.7177,W,1,8,2.1,9,M,,M,,*6D
05/31/2014	16:09:20.777	$GPGGA,160929,2507.0410,N,07917.7172,W,1,8,2.1,9,M,,M,,*69
05/31/2014	16:09:21.767	$GPGGA,160930,2507.0410,N,07917.7168,W,1,8,1.9,9,M,,M,,*61
05/31/2014	16:09:22.764	$GPGGA,160931,2507.0410,N,07917.7162,W,1,9,1.9,9,M,,M,,*6B
05/31/2014	16:09:23.762	$GPGGA,160932,2507.0410,N,07917.7156,W,1,9,2.1,9,M,,M,,*64
05/31/2014	16:09:24.760	$GPGGA,160933,2507.0407,N,07917.7157,W,1,9,1.9,9,M,,M,,*69
05/31/2014	16:09:25.748	$GPGGA,160934,2507.0409,N,07917.7150,W,1,9,1.9,9,M,,M,,*67
05/31/2014	16:09:26.767	$GPGGA,160935,2507.0408,N,07917.7143,W,1,9,1.9,9,M,,M,,*65
05/31/2014	16:09:27.743	$GPGGA,160936,2507.0407,N,07917.7137,W,1,9,2.1,9,M,,M,,*61
05/31/2014	16:09:28.751	$GPGGA,160937,2507.0407,N,07917.7133,W,1,9,1.9,9,M,,M,,*6F
05/31/2014	16:09:29.719	$GPGGA,160938,2507.0407,N,07917.7128,W,1,9,1.9,9,M,,M,,*6A
05/31/2014	16:09:30.708	$GPGGA,160939,2507.0406,N,07917.7124,W,1,9,1.9,9,M,,M,,*66
05/31/2014	16:09:31.736	$GPGGA,160940,2507.0406,N,07917.7118,W,1,9,1.9,9,M,,M,,*67
05/31/2014	16:09:32.744	$GPGGA,160941,2507.0406,N,07917.7113,W,1,9,1.9,9,M,,M,,*6D
05/31/2014	16:09:33.712	$GPGGA,160942,2507.0406,N,07917.7108,W,1,9,1.9,9,M,,M,,*64
05/31/2014	16:09:34.690	$GPGGA,160943,2507.0405,N,07917.7102,W,1,9,1.9,9,M,,M,,*6C
05/31/2014	16:09:35.718	$GPGGA,160944,2507.0406,N,07917.7098,W,1,9,1.9,9,M,,M,,*6A
05/31/2014	16:09:36.816	$GPGGA,160945,2507.0406,N,07917.7093,W,1,9,1.9,9,M,,M,,*60
05/31/2014	16:09:37.694	$GPGGA,160946,2507.0405,N,07917.7088,W,1,9,1.9,9,M,,M,,*6A
05/31/2014	16:09:38.702	$GPGGA,160947,2507.0406,N,07917.7081,W,1,9,1.9,9,M,,M,,*61
05/31/2014	16:09:39.690	$GPGGA,160948,2507.0406,N,07917.7077,W,1,9,2.1,8,M,,M,,*6D
05/31/2014	16:09:40.689	$GPGGA,160949,2507.0406,N,07917.7072,W,1,9,1.9,8,M,,M,,*62
05/31/2014	16:09:41.677	$GPGGA,160950,2507.0405,N,07917.7067,W,1,9,1.9,8,M,,M,,*6D
05/31/2014	16:09:42.686	$GPGGA,160951,2507.0406,N,07917.7060,W,1,9,1.9,8,M,,M,,*68
05/31/2014	16:09:43.683	$GPGGA,160952,2507.0407,N,07917.7054,W,1,9,2.1,8,M,,M,,*66
05/31/2014	16:09:44.652	$GPGGA,160953,2507.0407,N,07917.7049,W,1,9,1.9,8,M,,M,,*60
05/31/2014	16:09:45.768	$GPGGA,160954,2507.0405,N,07917.7044,W,1,9,1.9,8,M,,M,,*68
05/31/2014	16:09:46.646	$GPGGA,160955,2507.0406,N,07917.7038,W,1,9,1.9,8,M,,M,,*61
05/31/2014	16:09:47.774	$GPGGA,160956,2507.0407,N,07917.7033,W,1,9,1.9,8,M,,M,,*68
05/31/2014	16:09:48.757	$GPGGA,160957,2507.0406,N,07917.7028,W,1,9,1.9,8,M,,M,,*62
05/31/2014	16:09:49.630	$GPGGA,160958,2507.0405,N,07917.7021,W,1,9,1.9,8,M,,M,,*67
05/31/2014	16:09:50.639	$GPGGA,160959,2507.0406,N,07917.7014,W,1,8,2.1,8,M,,M,,*69
05/31/2014	16:09:51.766	$GPGGA,161000,2507.0407,N,07917.7009,W,1,8,2.1,8,M,,M,,*60
05/31/2014	16:09:52.625	$GPGGA,161001,2507.0407,N,07917.7002,W,1,9,1.9,8,M,,M,,*60
05/31/2014	16:09:53.723	$GPGGA,161002,2507.0406,N,07917.6996,W,1,9,2.1,8,M,,M,,*6C
05/31/2014	16:09:54.641	$GPGGA,161003,2507.0406,N,07917.6993,W,1,8,2.1,8,M,,M,,*69
05/31/2014	16:09:55.729	$GPGGA,161004,2507.0407,N,07917.6985,W,1,8,1.9,8,M,,M,,*63
05/31/2014	16:09:56.727	$GPGGA,161005,2507.0406,N,07917.6981,W,1,8,2.1,8,M,,M,,*6C
05/31/2014	16:09:57.615	$GPGGA,161006,2507.0404,N,07917.6977,W,1,8,1.9,8,M,,M,,*6F
05/31/2014	16:09:58.703	$GPGGA,161007,2507.0405,N,07917.6974,W,1,9,1.9,8,M,,M,,*6D
05/31/2014	16:09:59.721	$GPGGA,161008,2507.0403,N,07917.6970,W,1,9,1.9,8,M,,M,,*60
05/31/2014	16:10:00.689	$GPGGA,161009,2507.0401,N,07917.6966,W,1,9,1.9,8,M,,M,,*64
05/31/2014	16:10:01.698	$GPGGA,161010,2507.0403,N,07917.6961,W,1,9,1.9,8,M,,M,,*69
05/31/2014	16:10:02.725	$GPGGA,161011,2507.0403,N,07917.6954,W,1,9,1.9,8,M,,M,,*6E
05/31/2014	16:10:03.693	$GPGGA,161012,2507.0401,N,07917.6946,W,1,9,2.1,8,M,,M,,*67
05/31/2014	16:10:04.721	$GPGGA,161013,2507.0403,N,07917.6939,W,1,8,2.1,8,M,,M,,*6D
05/31/2014	16:10:05.679	$GPGGA,161014,2507.0403,N,07917.6935,W,1,8,2.1,8,M,,M,,*66
05/31/2014	16:10:06.677	$GPGGA,161015,2507.0403,N,07917.6928,W,1,9,1.9,8,M,,M,,*61
05/31/2014	16:10:07.685	$GPGGA,161016,2507.0401,N,07917.6923,W,1,9,2.1,8,M,,M,,*60
05/31/2014	16:10:08.653	$GPGGA,161017,2507.0403,N,07917.6915,W,1,9,1.9,8,M,,M,,*6D
05/31/2014	16:10:09.661	$GPGGA,161018,2507.0405,N,07917.6910,W,1,9,2.1,8,M,,M,,*6A
05/31/2014	16:10:10.669	$GPGGA,161019,2507.0403,N,07917.6903,W,1,9,1.9,8,M,,M,,*64
05/31/2014	16:10:11.668	$GPGGA,161020,2507.0403,N,07917.6897,W,1,9,1.9,8,M,,M,,*62
05/31/2014	16:10:12.666	$GPGGA,161021,2507.0405,N,07917.6890,W,1,9,1.9,8,M,,M,,*62
05/31/2014	16:10:13.644	$GPGGA,161022,2507.0406,N,07917.6884,W,1,9,1.9,8,M,,M,,*67
05/31/2014	16:10:14.652	$GPGGA,161023,2507.0405,N,07917.6878,W,1,8,2.1,8,M,,M,,*6C
05/31/2014	16:10:15.650	$GPGGA,161024,2507.0403,N,07917.6876,W,1,8,2.1,8,M,,M,,*63
05/31/2014	16:10:16.618	$GPGGA,161025,2507.0403,N,07917.6869,W,1,9,1.9,8,M,,M,,*66
05/31/2014	16:10:17.636	$GPGGA,161026,2507.0405,N,07917.6862,W,1,9,2.1,9,M,,M,,*62
05/31/2014	16:10:18.644	$GPGGA,161027,2507.0406,N,07917.6856,W,1,8,2.1,9,M,,M,,*66
05/31/2014	16:10:19.737	$GPGGA,161028,2507.0404,N,07917.6849,W,1,8,2.1,9,M,,M,,*65
05/31/2014	16:10:20.725	$GPGGA,161029,2507.0403,N,07917.6846,W,1,8,2.1,9,M,,M,,*6C
05/31/2014	16:10:21.723	$GPGGA,161030,2507.0406,N,07917.6839,W,1,8,1.9,9,M,,M,,*62
05/31/2014	16:10:22.741	$GPGGA,161031,2507.0404,N,07917.6834,W,1,8,2.1,9,M,,M,,*67
05/31/2014	16:10:23.719	$GPGGA,161032,2507.0403,N,07917.6830,W,1,8,1.9,9,M,,M,,*6C
05/31/2014	16:10:24.727	$GPGGA,161033,2507.0403,N,07917.6825,W,1,9,1.9,9,M,,M,,*68
05/31/2014	16:10:25.695	$GPGGA,161034,2507.0405,N,07917.6818,W,1,9,1.9,9,M,,M,,*67
05/31/2014	16:10:26.713	$GPGGA,161035,2507.0404,N,07917.6811,W,1,8,2.1,9,M,,M,,*64
05/31/2014	16:10:27.721	$GPGGA,161036,2507.0405,N,07917.6805,W,1,8,2.1,9,M,,M,,*63
05/31/2014	16:10:28.709	$GPGGA,161037,2507.0403,N,07917.6802,W,1,8,2.1,9,M,,M,,*63
05/31/2014	16:10:29.697	$GPGGA,161038,2507.0406,N,07917.6798,W,1,8,1.9,9,M,,M,,*6E
05/31/2014	16:10:30.715	$GPGGA,161039,2507.0405,N,07917.6793,W,1,8,2.1,9,M,,M,,*6C
05/31/2014	16:10:31.714	$GPGGA,161040,2507.0401,N,07917.6795,W,1,8,2.1,9,M,,M,,*60
05/31/2014	16:10:32.712	$GPGGA,161041,2507.0403,N,07917.6787,W,1,9,1.9,9,M,,M,,*6A
05/31/2014	16:10:33.680	$GPGGA,161042,2507.0403,N,07917.6784,W,1,9,2.1,9,M,,M,,*61
05/31/2014	16:10:34.668	$GPGGA,161043,2507.0401,N,07917.6780,W,1,9,1.9,9,M,,M,,*6D
05/31/2014	16:10:35.686	$GPGGA,161044,2507.0402,N,07917.6774,W,1,9,1.9,9,M,,M,,*62
05/31/2014	16:10:36.754	$GPGGA,161045,2507.0405,N,07917.6767,W,1,8,2.1,9,M,,M,,*6C
05/31/2014	16:10:37.821	$GPGGA,161046,2507.0403,N,07917.6762,W,1,8,1.9,9,M,,M,,*67
05/31/2014	16:10:38.649	$GPGGA,161047,2507.0403,N,07917.6757,W,1,9,1.9,9,M,,M,,*61
05/31/2014	16:10:39.677	$GPGGA,161048,2507.0405,N,07917.6752,W,1,9,1.9,9,M,,M,,*6D
05/31/2014	16:10:40.656	$GPGGA,161049,2507.0404,N,07917.6747,W,1,8,2.1,9,M,,M,,*63
05/31/2014	16:10:41.644	$GPGGA,161050,2507.0403,N,07917.6742,W,1,8,1.9,9,M,,M,,*62
05/31/2014	16:10:42.642	$GPGGA,161051,2507.0403,N,07917.6736,W,1,8,2.1,9,M,,M,,*6B
05/31/2014	16:10:43.750	$GPGGA,161052,2507.0406,N,07917.6730,W,1,8,1.9,9,M,,M,,*60
05/31/2014	16:10:44.808	$GPGGA,161053,2507.0405,N,07917.6725,W,1,9,1.9,9,M,,M,,*67
05/31/2014	16:10:45.796	$GPGGA,161054,2507.0403,N,07917.6719,W,1,9,1.9,9,M,,M,,*69
05/31/2014	16:10:46.755	$GPGGA,161055,2507.0403,N,07917.6713,W,1,8,2.1,9,M,,M,,*68
05/31/2014	16:10:47.802	$GPGGA,161056,2507.0406,N,07917.6709,W,1,8,2.1,9,M,,M,,*65
05/31/2014	16:10:48.740	$GPGGA,161057,2507.0403,N,07917.6705,W,1,9,1.9,10,M,,M,,*5F
05/31/2014	16:10:49.778	$GPGGA,161058,2507.0400,N,07917.6701,W,1,9,1.9,10,M,,M,,*57
05/31/2014	16:10:50.756	$GPGGA,161059,2507.0402,N,07917.6696,W,1,9,1.9,10,M,,M,,*5B
05/31/2014	16:10:51.794	$GPGGA,161100,2507.0403,N,07917.6691,W,1,9,1.9,10,M,,M,,*50
05/31/2014	16:10:52.744	$GPGGA,161101,2507.0400,N,07917.6686,W,1,9,1.9,10,M,,M,,*54
05/31/2014	16:10:53.691	$GPGGA,161102,2507.0399,N,07917.6681,W,1,9,1.9,10,M,,M,,*57
05/31/2014	16:10:54.739	$GPGGA,161103,2507.0402,N,07917.6675,W,1,9,1.9,10,M,,M,,*58
05/31/2014	16:10:55.766	$GPGGA,161104,2507.0403,N,07917.6662,W,1,9,2.1,10,M,,M,,*53
05/31/2014	16:10:56.674	$GPGGA,161105,2507.0403,N,07917.6657,W,1,9,1.9,10,M,,M,,*5F
05/31/2014	16:10:57.672	$GPGGA,161106,2507.0403,N,07917.6651,W,1,9,2.1,10,M,,M,,*51
05/31/2014	16:10:58.710	$GPGGA,161107,2507.0403,N,07917.6646,W,1,8,2.1,10,M,,M,,*57
05/31/2014	16:10:59.748	$GPGGA,161108,2507.0403,N,07917.6644,W,1,8,2.1,10,M,,M,,*5A
05/31/2014	16:11:00.706	$GPGGA,161109,2507.0401,N,07917.6638,W,1,9,1.9,10,M,,M,,*58
05/31/2014	16:11:01.724	$GPGGA,161110,2507.0399,N,07917.6634,W,1,9,2.1,10,M,,M,,*51
05/31/2014	16:11:02.693	$GPGGA,161111,2507.0401,N,07917.6629,W,1,9,1.9,10,M,,M,,*51
05/31/2014	16:11:03.731	$GPGGA,161112,2507.0402,N,07917.6623,W,1,9,2.2,10,M,,M,,*53
05/31/2014	16:11:04.699	$GPGGA,161113,2507.0397,N,07917.6621,W,1,8,2.2,10,M,,M,,*5A
05/31/2014	16:11:05.707	$GPGGA,161114,2507.0396,N,07917.6617,W,1,8,1.9,10,M,,M,,*51
05/31/2014	16:11:06.635	$GPGGA,161115,2507.0399,N,07917.6612,W,1,9,1.9,10,M,,M,,*5B
05/31/2014	16:11:07.713	$GPGGA,161116,2507.0398,N,07917.6606,W,1,9,1.9,10,M,,M,,*5C
05/31/2014	16:11:08.691	$GPGGA,161117,2507.0396,N,07917.6601,W,1,8,1.9,10,M,,M,,*55
05/31/2014	16:11:09.620	$GPGGA,161118,2507.0398,N,07917.6593,W,1,8,1.9,10,M,,M,,*5C
05/31/2014	16:11:10.677	$GPGGA,161119,2507.0399,N,07917.6589,W,1,9,1.9,10,M,,M,,*56
05/31/2014	16:11:11.715	$GPGGA,161120,2507.0397,N,07917.6584,W,1,9,1.9,10,M,,M,,*5F
05/31/2014	16:11:12.643	$GPGGA,161121,2507.0396,N,07917.6579,W,1,9,1.9,10,M,,M,,*5D
05/31/2014	16:11:13.612	$GPGGA,161122,2507.0398,N,07917.6572,W,1,9,1.9,10,M,,M,,*5B
05/31/2014	16:11:14.669	$GPGGA,161123,2507.0399,N,07917.6565,W,1,8,2.2,10,M,,M,,*54
05/31/2014	16:11:15.677	$GPGGA,161124,2507.0399,N,07917.6559,W,1,8,2.2,10,M,,M,,*5C
05/31/2014	16:11:16.675	$GPGGA,161125,2507.0399,N,07917.6553,W,1,8,2.2,10,M,,M,,*57
05/31/2014	16:11:17.693	$GPGGA,161126,2507.0397,N,07917.6551,W,1,8,1.9,10,M,,M,,*50
05/31/2014	16:11:18.631	$GPGGA,161127,2507.0398,N,07917.6544,W,1,9,1.9,10,M,,M,,*5B
05/31/2014	16:11:19.804	$GPGGA,161128,2507.0397,N,07917.6541,W,1,9,1.9,10,M,,M,,*5E
05/31/2014	16:11:20.822	$GPGGA,161129,2507.0396,N,07917.6537,W,1,9,2.1,10,M,,M,,*54
05/31/2014	16:11:21.761	$GPGGA,161130,2507.0396,N,07917.6529,W,1,9,2.2,9,M,,M,,*68
05/31/2014	16:11:22.729	$GPGGA,161131,2507.0398,N,07917.6522,W,1,8,2.2,9,M,,M,,*6D
05/31/2014	16:11:23.768	$GPGGA,161132,2507.0399,N,07917.6515,W,1,8,2.2,10,M,,M,,*53
05/31/2014	16:11:24.725	$GPGGA,161133,2507.0398,N,07917.6510,W,1,8,1.9,10,M,,M,,*5E
05/31/2014	16:11:25.753	$GPGGA,161134,2507.0399,N,07917.6503,W,1,8,2.2,10,M,,M,,*52
05/31/2014	16:11:26.751	$GPGGA,161135,2507.0401,N,07917.6496,W,1,8,2.2,10,M,,M,,*58
05/31/2014	16:11:27.740	$GPGGA,161136,2507.0400,N,07917.6489,W,1,8,2.2,10,M,,M,,*54
05/31/2014	16:11:28.697	$GPGGA,161137,2507.0402,N,07917.6483,W,1,8,2.2,10,M,,M,,*5D
05/31/2014	16:11:29.755	$GPGGA,161138,2507.0401,N,07917.6478,W,1,8,1.9,10,M,,M,,*5D
05/31/2014	16:11:30.782	$GPGGA,161139,2507.0400,N,07917.6474,W,1,9,1.9,10,M,,M,,*50
05/31/2014	16:11:31.761	$GPGGA,161140,2507.0399,N,07917.6471,W,1,9,1.9,10,M,,M,,*5C
05/31/2014	16:11:32.789	$GPGGA,161141,2507.0398,N,07917.6464,W,1,9,2.2,10,M,,M,,*50
05/31/2014	16:11:33.747	$GPGGA,161142,2507.0399,N,07917.6461,W,1,9,1.9,10,M,,M,,*5F
05/31/2014	16:11:34.775	$GPGGA,161143,2507.0398,N,07917.6456,W,1,9,1.9,10,M,,M,,*5B
05/31/2014	16:11:35.753	$GPGGA,161144,2507.0397,N,07917.6449,W,1,9,2.2,10,M,,M,,*55
05/31/2014	16:11:36.796	$GPGGA,161145,2507.0396,N,07917.6446,W,1,8,1.9,10,M,,M,,*53
05/31/2014	16:11:37.739	$GPGGA,161146,2507.0396,N,07917.6441,W,1,8,1.9,10,M,,M,,*57
05/31/2014	16:11:38.757	$GPGGA,161147,2507.0396,N,07917.6437,W,1,9,1.9,10,M,,M,,*56
05/31/2014	16:11:39.735	$GPGGA,161148,2507.0396,N,07917.6430,W,1,9,2.2,10,M,,M,,*56
05/31/2014	16:11:40.753	$GPGGA,161149,2507.0394,N,07917.6424,W,1,8,1.9,10,M,,M,,*59
05/31/2014	16:11:41.723	$GPGGA,161150,2507.0396,N,07917.6417,W,1,8,2.2,10,M,,M,,*5B
05/31/2014	16:11:42.730	$GPGGA,161151,2507.0396,N,07917.6411,W,1,8,2.2,11,M,,M,,*5D
05/31/2014	16:11:43.728	$GPGGA,161152,2507.0396,N,07917.6404,W,1,8,2.2,11,M,,M,,*5A
