Software Version Number: 1	Data File Format Number: 1	Build Version Number: 1	Error Count Since VI Started: 0	Manufacturer: Raytheon	 Model Number: RayMarine 120	 S/N: 	 Cal Date: 	 Wind Direction Offset: 0.00	 Slope (M)1: 0.00	 Offset (B)1: 0.00	 Slope (M)2: 0.00	 Offset (B)2: 0.00	 Slope (M)3: 0.00	 Offset (B)3: 0.00	 Slope (M)4: 0.00	 Offset (B)4: 0.00	 Slope (M)5: 0.00	 Offset (B)5: 0.00	 Slope (M)6: 0.00	 Offset (B)6: 0.00
Computer Date	Computer Time	GGA String
06/02/2014	14:00:00.584	$GPGGA,140001,2437.1013,N,08044.4471,W,1,7,1.7,24,M,,M,,*5C
06/02/2014	14:00:01.564	$GPGGA,140002,2437.1031,N,08044.4467,W,1,7,1.7,24,M,,M,,*58
06/02/2014	14:00:02.554	$GPGGA,140003,2437.1049,N,08044.4469,W,1,8,1.7,24,M,,M,,*57
06/02/2014	14:00:03.564	$GPGGA,140004,2437.1070,N,08044.4466,W,1,8,1.8,24,M,,M,,*5A
06/02/2014	14:00:04.584	$GPGGA,140005,2437.1089,N,08044.4459,W,1,7,1.7,24,M,,M,,*51
06/02/2014	14:00:05.554	$GPGGA,140006,2437.1107,N,08044.4455,W,1,7,1.7,24,M,,M,,*59
06/02/2014	14:00:06.574	$GPGGA,140007,2437.1125,N,08044.4458,W,1,8,1.7,24,M,,M,,*5A
06/02/2014	14:00:07.564	$GPGGA,140008,2437.1146,N,08044.4454,W,1,8,1.7,24,M,,M,,*5C
06/02/2014	14:00:08.574	$GPGGA,140009,2437.1165,N,08044.4447,W,1,8,1.8,24,M,,M,,*51
06/02/2014	14:00:09.544	$GPGGA,140010,2437.1183,N,08044.4444,W,1,8,1.7,24,M,,M,,*5D
06/02/2014	14:00:10.544	$GPGGA,140011,2437.1201,N,08044.4444,W,1,8,1.7,23,M,,M,,*52
06/02/2014	14:00:11.564	$GPGGA,140012,2437.1221,N,08044.4440,W,1,8,1.7,23,M,,M,,*57
06/02/2014	14:00:12.544	$GPGGA,140013,2437.1240,N,08044.4436,W,1,8,1.8,23,M,,M,,*5F
06/02/2014	14:00:13.554	$GPGGA,140014,2437.1256,N,08044.4432,W,1,8,2.5,23,M,,M,,*55
06/02/2014	14:00:14.544	$GPGGA,140015,2437.1277,N,08044.4429,W,1,7,1.7,23,M,,M,,*53
06/02/2014	14:00:15.653	$GPGGA,140016,2437.1298,N,08044.4425,W,1,7,1.7,23,M,,M,,*5D
06/02/2014	14:00:16.543	$GPGGA,140017,2437.1315,N,08044.4423,W,1,8,1.7,23,M,,M,,*51
06/02/2014	14:00:17.513	$GPGGA,140018,2437.1334,N,08044.4419,W,1,8,2.5,23,M,,M,,*55
06/02/2014	14:00:18.553	$GPGGA,140019,2437.1353,N,08044.4413,W,1,7,1.7,23,M,,M,,*51
06/02/2014	14:00:19.553	$GPGGA,140020,2437.1373,N,08044.4409,W,1,7,1.8,22,M,,M,,*5C
06/02/2014	14:00:20.643	$GPGGA,140021,2437.1392,N,08044.4405,W,1,7,1.8,22,M,,M,,*5E
06/02/2014	14:00:21.523	$GPGGA,140022,2437.1411,N,08044.4402,W,1,7,1.7,22,M,,M,,*59
06/02/2014	14:00:22.513	$GPGGA,140023,2437.1431,N,08044.4397,W,1,8,1.7,22,M,,M,,*5E
06/02/2014	14:00:23.543	$GPGGA,140024,2437.1449,N,08044.4391,W,1,8,1.7,22,M,,M,,*50
06/02/2014	14:00:24.533	$GPGGA,140025,2437.1468,N,08044.4387,W,1,8,1.7,22,M,,M,,*55
06/02/2014	14:00:25.593	$GPGGA,140026,2437.1487,N,08044.4384,W,1,8,1.7,22,M,,M,,*54
06/02/2014	14:00:26.633	$GPGGA,140027,2437.1508,N,08044.4378,W,1,7,2.6,22,M,,M,,*5D
06/02/2014	14:00:27.623	$GPGGA,140028,2437.1527,N,08044.4374,W,1,7,1.8,22,M,,M,,*5E
06/02/2014	14:00:28.594	$GPGGA,140029,2437.1547,N,08044.4372,W,1,8,1.7,22,M,,M,,*5F
06/02/2014	14:00:29.603	$GPGGA,140030,2437.1566,N,08044.4370,W,1,8,1.7,22,M,,M,,*56
06/02/2014	14:00:30.633	$GPGGA,140031,2437.1584,N,08044.4363,W,1,8,1.7,22,M,,M,,*59
06/02/2014	14:00:31.613	$GPGGA,140032,2437.1605,N,08044.4357,W,1,8,1.7,22,M,,M,,*57
06/02/2014	14:00:32.612	$GPGGA,140033,2437.1623,N,08044.4354,W,1,8,1.7,22,M,,M,,*51
06/02/2014	14:00:33.592	$GPGGA,140034,2437.1642,N,08044.4351,W,1,8,1.7,22,M,,M,,*54
06/02/2014	14:00:34.622	$GPGGA,140035,2437.1660,N,08044.4347,W,1,8,1.7,21,M,,M,,*51
06/02/2014	14:00:35.612	$GPGGA,140036,2437.1680,N,08044.4343,W,1,8,1.7,21,M,,M,,*58
06/02/2014	14:00:36.612	$GPGGA,140037,2437.1699,N,08044.4338,W,1,8,1.7,21,M,,M,,*5D
06/02/2014	14:00:37.582	$GPGGA,140038,2437.1720,N,08044.4334,W,1,8,1.7,21,M,,M,,*5D
06/02/2014	14:00:38.602	$GPGGA,140039,2437.1739,N,08044.4331,W,1,8,1.7,21,M,,M,,*51
06/02/2014	14:00:39.582	$GPGGA,140040,2437.1758,N,08044.4327,W,1,8,1.7,21,M,,M,,*5F
06/02/2014	14:00:40.582	$GPGGA,140041,2437.1779,N,08044.4324,W,1,8,1.7,21,M,,M,,*5E
06/02/2014	14:00:41.572	$GPGGA,140042,2437.1799,N,08044.4321,W,1,8,1.7,21,M,,M,,*56
06/02/2014	14:00:42.582	$GPGGA,140043,2437.1819,N,08044.4316,W,1,8,1.7,21,M,,M,,*54
06/02/2014	14:00:43.582	$GPGGA,140044,2437.1837,N,08044.4313,W,1,8,1.7,21,M,,M,,*5A
06/02/2014	14:00:44.592	$GPGGA,140045,2437.1859,N,08044.4312,W,1,8,1.7,21,M,,M,,*52
06/02/2014	14:00:45.562	$GPGGA,140046,2437.1879,N,08044.4307,W,1,8,1.7,20,M,,M,,*56
06/02/2014	14:00:46.593	$GPGGA,140047,2437.1898,N,08044.4302,W,1,8,1.7,20,M,,M,,*5D
06/02/2014	14:00:47.572	$GPGGA,140048,2437.1919,N,08044.4300,W,1,8,1.7,20,M,,M,,*58
06/02/2014	14:00:48.548	$GPGGA,140049,2437.1938,N,08044.4297,W,1,8,1.7,20,M,,M,,*55
06/02/2014	14:00:49.562	$GPGGA,140050,2437.1956,N,08044.4291,W,1,8,1.7,20,M,,M,,*53
06/02/2014	14:00:50.591	$GPGGA,140051,2437.1975,N,08044.4288,W,1,8,1.7,20,M,,M,,*5B
06/02/2014	14:00:51.581	$GPGGA,140052,2437.1996,N,08044.4285,W,1,8,1.7,20,M,,M,,*58
06/02/2014	14:00:52.581	$GPGGA,140053,2437.2016,N,08044.4282,W,1,8,1.7,20,M,,M,,*5C
06/02/2014	14:00:53.551	$GPGGA,140054,2437.2036,N,08044.4278,W,1,8,1.7,20,M,,M,,*5C
06/02/2014	14:00:54.541	$GPGGA,140055,2437.2056,N,08044.4273,W,1,8,1.7,20,M,,M,,*50
06/02/2014	14:00:55.561	$GPGGA,140056,2437.2075,N,08044.4271,W,1,8,1.7,20,M,,M,,*50
06/02/2014	14:00:56.571	$GPGGA,140057,2437.2094,N,08044.4268,W,1,8,1.7,20,M,,M,,*56
06/02/2014	14:00:57.531	$GPGGA,140058,2437.2115,N,08044.4263,W,1,8,1.7,20,M,,M,,*5A
06/02/2014	14:00:58.561	$GPGGA,140059,2437.2135,N,08044.4257,W,1,7,2.6,20,M,,M,,*53
06/02/2014	14:00:59.551	$GPGGA,140100,2437.2152,N,08044.4255,W,1,7,1.7,20,M,,M,,*5F
06/02/2014	14:01:00.561	$GPGGA,140101,2437.2173,N,08044.4253,W,1,8,1.7,20,M,,M,,*54
06/02/2014	14:01:01.531	$GPGGA,140102,2437.2191,N,08044.4246,W,1,8,1.7,20,M,,M,,*5F
06/02/2014	14:01:02.521	$GPGGA,140103,2437.2209,N,08044.4238,W,1,8,1.7,20,M,,M,,*55
06/02/2014	14:01:03.651	$GPGGA,140104,2437.2227,N,08044.4238,W,1,8,1.7,20,M,,M,,*5E
06/02/2014	14:01:04.531	$GPGGA,140105,2437.2248,N,08044.4235,W,1,7,2.6,20,M,,M,,*56
06/02/2014	14:01:05.512	$GPGGA,140106,2437.2267,N,08044.4227,W,1,7,1.7,20,M,,M,,*59
06/02/2014	14:01:06.511	$GPGGA,140107,2437.2285,N,08044.4225,W,1,8,1.7,20,M,,M,,*59
06/02/2014	14:01:07.540	$GPGGA,140108,2437.2305,N,08044.4224,W,1,8,1.7,20,M,,M,,*5E
06/02/2014	14:01:08.510	$GPGGA,140109,2437.2325,N,08044.4217,W,1,7,2.6,20,M,,M,,*50
06/02/2014	14:01:09.610	$GPGGA,140110,2437.2343,N,08044.4214,W,1,7,1.7,20,M,,M,,*59
06/02/2014	14:01:10.650	$GPGGA,140111,2437.2363,N,08044.4216,W,1,8,1.7,20,M,,M,,*57
06/02/2014	14:01:11.530	$GPGGA,140112,2437.2382,N,08044.4210,W,1,8,1.7,20,M,,M,,*5D
06/02/2014	14:01:12.600	$GPGGA,140113,2437.2401,N,08044.4203,W,1,7,2.6,20,M,,M,,*5F
06/02/2014	14:01:13.600	$GPGGA,140114,2437.2419,N,08044.4201,W,1,7,1.7,20,M,,M,,*51
06/02/2014	14:01:14.600	$GPGGA,140115,2437.2439,N,08044.4198,W,1,8,1.7,20,M,,M,,*5E
06/02/2014	14:01:15.610	$GPGGA,140116,2437.2458,N,08044.4191,W,1,8,1.7,20,M,,M,,*53
06/02/2014	14:01:16.610	$GPGGA,140117,2437.2477,N,08044.4188,W,1,8,1.7,20,M,,M,,*57
06/02/2014	14:01:17.610	$GPGGA,140118,2437.2495,N,08044.4186,W,1,8,1.7,20,M,,M,,*5A
06/02/2014	14:01:18.620	$GPGGA,140119,2437.2515,N,08044.4182,W,1,7,2.6,20,M,,M,,*5B
06/02/2014	14:01:19.610	$GPGGA,140120,2437.2534,N,08044.4177,W,1,7,2.6,20,M,,M,,*58
06/02/2014	14:01:20.580	$GPGGA,140121,2437.2556,N,08044.4174,W,1,8,1.7,21,M,,M,,*52
06/02/2014	14:01:21.580	$GPGGA,140122,2437.2574,N,08044.4173,W,1,8,1.7,21,M,,M,,*56
06/02/2014	14:01:22.610	$GPGGA,140123,2437.2592,N,08044.4168,W,1,7,2.6,21,M,,M,,*58
06/02/2014	14:01:23.590	$GPGGA,140124,2437.2613,N,08044.4163,W,1,7,1.7,21,M,,M,,*5C
06/02/2014	14:01:24.610	$GPGGA,140125,2437.2632,N,08044.4160,W,1,8,1.7,21,M,,M,,*52
06/02/2014	14:01:25.579	$GPGGA,140126,2437.2650,N,08044.4157,W,1,8,1.7,21,M,,M,,*51
06/02/2014	14:01:26.589	$GPGGA,140127,2437.2668,N,08044.4150,W,1,8,1.7,21,M,,M,,*5C
06/02/2014	14:01:27.590	$GPGGA,140128,2437.2689,N,08044.4143,W,1,8,1.7,21,M,,M,,*5E
06/02/2014	14:01:28.589	$GPGGA,140129,2437.2708,N,08044.4139,W,1,8,1.7,21,M,,M,,*5A
06/02/2014	14:01:29.557	$GPGGA,140130,2437.2728,N,08044.4136,W,1,8,1.7,21,M,,M,,*5F
06/02/2014	14:01:30.577	$GPGGA,140131,2437.2747,N,08044.4130,W,1,8,1.7,21,M,,M,,*51
06/02/2014	14:01:31.557	$GPGGA,140132,2437.2766,N,08044.4127,W,1,8,1.7,21,M,,M,,*57
06/02/2014	14:01:32.547	$GPGGA,140133,2437.2787,N,08044.4123,W,1,7,1.8,22,M,,M,,*5E
06/02/2014	14:01:33.557	$GPGGA,140134,2437.2807,N,08044.4118,W,1,7,1.7,22,M,,M,,*59
06/02/2014	14:01:34.567	$GPGGA,140135,2437.2826,N,08044.4115,W,1,8,1.7,22,M,,M,,*59
06/02/2014	14:01:35.557	$GPGGA,140136,2437.2845,N,08044.4112,W,1,8,1.7,22,M,,M,,*58
06/02/2014	14:01:36.537	$GPGGA,140137,2437.2865,N,08044.4108,W,1,8,1.7,22,M,,M,,*50
06/02/2014	14:01:37.537	$GPGGA,140138,2437.2885,N,08044.4104,W,1,8,1.7,22,M,,M,,*5D
06/02/2014	14:01:38.567	$GPGGA,140139,2437.2903,N,08044.4100,W,1,8,1.7,22,M,,M,,*57
06/02/2014	14:01:39.557	$GPGGA,140140,2437.2923,N,08044.4097,W,1,8,1.7,22,M,,M,,*54
06/02/2014	14:01:40.527	$GPGGA,140141,2437.2943,N,08044.4093,W,1,8,1.7,22,M,,M,,*57
06/02/2014	14:01:41.537	$GPGGA,140142,2437.2961,N,08044.4090,W,1,8,1.7,22,M,,M,,*57
06/02/2014	14:01:42.556	$GPGGA,140143,2437.2979,N,08044.4087,W,1,8,1.7,22,M,,M,,*59
06/02/2014	14:01:43.536	$GPGGA,140144,2437.3000,N,08044.4084,W,1,8,1.7,22,M,,M,,*5B
06/02/2014	14:01:44.546	$GPGGA,140145,2437.3019,N,08044.4081,W,1,7,2.6,22,M,,M,,*5A
06/02/2014	14:01:45.526	$GPGGA,140146,2437.3036,N,08044.4078,W,1,7,1.7,22,M,,M,,*50
06/02/2014	14:01:46.636	$GPGGA,140147,2437.3055,N,08044.4075,W,1,8,1.7,22,M,,M,,*56
06/02/2014	14:01:47.536	$GPGGA,140148,2437.3076,N,08044.4073,W,1,8,1.8,22,M,,M,,*51
06/02/2014	14:01:48.526	$GPGGA,140149,2437.3094,N,08044.4071,W,1,7,2.6,22,M,,M,,*5C
06/02/2014	14:01:49.506	$GPGGA,140150,2437.3112,N,08044.4065,W,1,7,1.7,22,M,,M,,*5C
06/02/2014	14:01:50.526	$GPGGA,140151,2437.3131,N,08044.4061,W,1,8,1.7,22,M,,M,,*57
06/02/2014	14:01:51.526	$GPGGA,140152,2437.3152,N,08044.4056,W,1,8,1.7,22,M,,M,,*55
06/02/2014	14:01:52.506	$GPGGA,140153,2437.3170,N,08044.4052,W,1,8,1.7,22,M,,M,,*50
06/02/2014	14:01:53.506	$GPGGA,140154,2437.3188,N,08044.4049,W,1,8,1.7,22,M,,M,,*5A
06/02/2014	14:01:54.506	$GPGGA,140155,2437.3208,N,08044.4046,W,1,8,1.7,22,M,,M,,*5F
06/02/2014	14:01:55.627	$GPGGA,140156,2437.3227,N,08044.4038,W,1,8,1.7,22,M,,M,,*58
06/02/2014	14:01:56.597	$GPGGA,140157,2437.3245,N,08044.4033,W,1,8,1.7,22,M,,M,,*56
06/02/2014	14:01:57.606	$GPGGA,140158,2437.3263,N,08044.4032,W,1,8,1.7,22,M,,M,,*5C
06/02/2014	14:01:58.596	$GPGGA,140159,2437.3284,N,08044.4026,W,1,8,1.7,22,M,,M,,*51
06/02/2014	14:01:59.628	$GPGGA,140200,2437.3302,N,08044.4019,W,1,8,1.7,22,M,,M,,*5D
06/02/2014	14:02:00.595	$GPGGA,140201,2437.3321,N,08044.4016,W,1,8,1.7,22,M,,M,,*52
06/02/2014	14:02:01.495	$GPGGA,140202,2437.3340,N,08044.4013,W,1,8,1.7,22,M,,M,,*53
06/02/2014	14:02:02.575	$GPGGA,140203,2437.3360,N,08044.4008,W,1,8,1.7,22,M,,M,,*5A
06/02/2014	14:02:03.605	$GPGGA,140204,2437.3379,N,08044.4000,W,1,8,1.7,22,M,,M,,*5D
06/02/2014	14:02:04.595	$GPGGA,140205,2437.3398,N,08044.3996,W,1,8,1.7,22,M,,M,,*52
06/02/2014	14:02:05.575	$GPGGA,140206,2437.3419,N,08044.3994,W,1,8,1.7,22,M,,M,,*5D
06/02/2014	14:02:06.575	$GPGGA,140207,2437.3438,N,08044.3987,W,1,7,1.8,22,M,,M,,*5D
06/02/2014	14:02:07.595	$GPGGA,140208,2437.3458,N,08044.3981,W,1,7,2.1,22,M,,M,,*58
06/02/2014	14:02:08.605	$GPGGA,140209,2437.3477,N,08044.3976,W,1,8,1.7,22,M,,M,,*56
06/02/2014	14:02:09.575	$GPGGA,140210,2437.3497,N,08044.3974,W,1,8,1.7,22,M,,M,,*52
06/02/2014	14:02:10.585	$GPGGA,140211,2437.3517,N,08044.3972,W,1,8,1.7,22,M,,M,,*5C
06/02/2014	14:02:11.575	$GPGGA,140212,2437.3538,N,08044.3967,W,1,8,1.7,23,M,,M,,*57
06/02/2014	14:02:12.585	$GPGGA,140213,2437.3557,N,08044.3962,W,1,8,1.7,23,M,,M,,*5A
06/02/2014	14:02:13.565	$GPGGA,140214,2437.3577,N,08044.3958,W,1,8,1.7,23,M,,M,,*56
06/02/2014	14:02:14.575	$GPGGA,140215,2437.3596,N,08044.3955,W,1,7,2.6,23,M,,M,,*58
06/02/2014	14:02:15.565	$GPGGA,140216,2437.3615,N,08044.3951,W,1,7,1.7,23,M,,M,,*55
06/02/2014	14:02:16.575	$GPGGA,140217,2437.3635,N,08044.3946,W,1,8,1.7,23,M,,M,,*5F
06/02/2014	14:02:17.554	$GPGGA,140218,2437.3654,N,08044.3943,W,1,8,1.7,23,M,,M,,*52
06/02/2014	14:02:18.544	$GPGGA,140219,2437.3675,N,08044.3942,W,1,8,1.7,23,M,,M,,*51
06/02/2014	14:02:19.574	$GPGGA,140220,2437.3693,N,08044.3935,W,1,8,1.7,23,M,,M,,*53
06/02/2014	14:02:20.574	$GPGGA,140221,2437.3711,N,08044.3931,W,1,8,1.7,23,M,,M,,*5D
06/02/2014	14:02:21.564	$GPGGA,140222,2437.3730,N,08044.3930,W,1,8,1.7,23,M,,M,,*5C
06/02/2014	14:02:22.574	$GPGGA,140223,2437.3748,N,08044.3926,W,1,8,1.7,24,M,,M,,*52
06/02/2014	14:02:23.574	$GPGGA,140224,2437.3768,N,08044.3917,W,1,8,2.6,24,M,,M,,*57
06/02/2014	14:02:24.574	$GPGGA,140225,2437.3788,N,08044.3914,W,1,7,2.6,24,M,,M,,*54
06/02/2014	14:02:25.534	$GPGGA,140226,2437.3806,N,08044.3913,W,1,7,1.7,24,M,,M,,*5B
06/02/2014	14:02:26.534	$GPGGA,140227,2437.3827,N,08044.3909,W,1,8,1.7,24,M,,M,,*5D
06/02/2014	14:02:27.534	$GPGGA,140228,2437.3846,N,08044.3902,W,1,8,1.7,24,M,,M,,*5E
06/02/2014	14:02:28.564	$GPGGA,140229,2437.3864,N,08044.3898,W,1,8,1.7,24,M,,M,,*5D
06/02/2014	14:02:29.524	$GPGGA,140230,2437.3884,N,08044.3897,W,1,8,1.7,24,M,,M,,*54
06/02/2014	14:02:30.554	$GPGGA,140231,2437.3904,N,08044.3890,W,1,7,2.6,24,M,,M,,*56
06/02/2014	14:02:31.524	$GPGGA,140232,2437.3924,N,08044.3884,W,1,7,1.7,24,M,,M,,*50
06/02/2014	14:02:32.694	$GPGGA,140233,2437.3940,N,08044.3882,W,1,8,1.7,24,M,,M,,*5A
06/02/2014	14:02:33.524	$GPGGA,140234,2437.3961,N,08044.3881,W,1,8,1.7,24,M,,M,,*5D
06/02/2014	14:02:34.525	$GPGGA,140235,2437.3979,N,08044.3877,W,1,8,1.7,24,M,,M,,*5C
06/02/2014	14:02:35.523	$GPGGA,140236,2437.3997,N,08044.3871,W,1,8,1.7,24,M,,M,,*59
06/02/2014	14:02:36.513	$GPGGA,140237,2437.4016,N,08044.3868,W,1,8,1.7,24,M,,M,,*57
06/02/2014	14:02:37.643	$GPGGA,140238,2437.4036,N,08044.3866,W,1,8,1.7,24,M,,M,,*54
06/02/2014	14:02:38.513	$GPGGA,140239,2437.4054,N,08044.3863,W,1,8,1.7,24,M,,M,,*54
06/02/2014	14:02:39.533	$GPGGA,140240,2437.4073,N,08044.3857,W,1,8,2.6,24,M,,M,,*5A
06/02/2014	14:02:41.924	$GPGGA,140242,2437.4109,N,08044.3849,W,1,7,1.7,24,M,,M,,*56
06/02/2014	14:02:42.493	$GPGGA,140243,2437.4128,N,08044.3849,W,1,8,1.7,24,M,,M,,*5B
06/02/2014	14:02:43.643	$GPGGA,140244,2437.4148,N,08044.3846,W,1,8,1.8,24,M,,M,,*5A
06/02/2014	14:02:44.513	$GPGGA,140245,2437.4167,N,08044.3840,W,1,8,1.7,24,M,,M,,*5F
06/02/2014	14:02:45.503	$GPGGA,140246,2437.4185,N,08044.3838,W,1,8,1.7,24,M,,M,,*5F
06/02/2014	14:02:46.503	$GPGGA,140247,2437.4203,N,08044.3837,W,1,7,1.8,24,M,,M,,*5C
06/02/2014	14:02:47.593	$GPGGA,140248,2437.4224,N,08044.3835,W,1,7,1.7,24,M,,M,,*5B
06/02/2014	14:02:48.683	$GPGGA,140249,2437.4243,N,08044.3830,W,1,8,1.7,23,M,,M,,*56
06/02/2014	14:02:49.493	$GPGGA,140250,2437.4263,N,08044.3827,W,1,8,1.7,23,M,,M,,*5A
06/02/2014	14:02:50.483	$GPGGA,140251,2437.4281,N,08044.3826,W,1,8,1.7,23,M,,M,,*56
06/02/2014	14:02:51.633	$GPGGA,140252,2437.4300,N,08044.3822,W,1,8,1.7,23,M,,M,,*59
06/02/2014	14:02:52.682	$GPGGA,140253,2437.4318,N,08044.3815,W,1,8,1.7,23,M,,M,,*55
06/02/2014	14:02:53.572	$GPGGA,140254,2437.4336,N,08044.3812,W,1,8,1.7,23,M,,M,,*59
06/02/2014	14:02:54.682	$GPGGA,140255,2437.4355,N,08044.3810,W,1,8,1.7,23,M,,M,,*5F
06/02/2014	14:02:55.622	$GPGGA,140256,2437.4375,N,08044.3806,W,1,8,1.7,23,M,,M,,*59
06/02/2014	14:02:56.672	$GPGGA,140257,2437.4395,N,08044.3800,W,1,7,2.6,23,M,,M,,*5D
06/02/2014	14:02:57.562	$GPGGA,140258,2437.4413,N,08044.3796,W,1,7,1.7,23,M,,M,,*59
06/02/2014	14:02:58.662	$GPGGA,140259,2437.4431,N,08044.3791,W,1,8,1.7,23,M,,M,,*50
06/02/2014	14:02:59.632	$GPGGA,140300,2437.4449,N,08044.3789,W,1,8,1.7,23,M,,M,,*5B
06/02/2014	14:03:00.672	$GPGGA,140301,2437.4469,N,08044.3785,W,1,8,1.7,23,M,,M,,*54
06/02/2014	14:03:01.552	$GPGGA,140302,2437.4488,N,08044.3778,W,1,8,1.7,23,M,,M,,*5A
06/02/2014	14:03:02.622	$GPGGA,140303,2437.4507,N,08044.3773,W,1,8,1.7,23,M,,M,,*56
06/02/2014	14:03:03.612	$GPGGA,140304,2437.4527,N,08044.3770,W,1,8,1.7,23,M,,M,,*50
06/02/2014	14:03:04.662	$GPGGA,140305,2437.4545,N,08044.3768,W,1,8,1.7,23,M,,M,,*5C
06/02/2014	14:03:05.542	$GPGGA,140306,2437.4565,N,08044.3762,W,1,8,1.7,23,M,,M,,*57
06/02/2014	14:03:06.542	$GPGGA,140307,2437.4582,N,08044.3754,W,1,8,1.7,23,M,,M,,*5A
06/02/2014	14:03:07.582	$GPGGA,140308,2437.4597,N,08044.3752,W,1,8,1.7,23,M,,M,,*57
06/02/2014	14:03:08.652	$GPGGA,140309,2437.4618,N,08044.3748,W,1,8,1.7,23,M,,M,,*59
06/02/2014	14:03:09.532	$GPGGA,140310,2437.4637,N,08044.3742,W,1,8,1.7,23,M,,M,,*56
06/02/2014	14:03:10.611	$GPGGA,140311,2437.4655,N,08044.3738,W,1,8,1.7,23,M,,M,,*5E
06/02/2014	14:03:11.571	$GPGGA,140312,2437.4672,N,08044.3734,W,1,8,1.7,23,M,,M,,*54
06/02/2014	14:03:12.641	$GPGGA,140313,2437.4691,N,08044.3729,W,1,8,1.7,23,M,,M,,*54
06/02/2014	14:03:13.531	$GPGGA,140314,2437.4709,N,08044.3725,W,1,8,1.7,23,M,,M,,*5F
06/02/2014	14:03:14.601	$GPGGA,140315,2437.4727,N,08044.3721,W,1,8,1.7,23,M,,M,,*56
06/02/2014	14:03:15.572	$GPGGA,140316,2437.4745,N,08044.3716,W,1,8,1.7,23,M,,M,,*55
06/02/2014	14:03:16.641	$GPGGA,140317,2437.4764,N,08044.3713,W,1,8,1.7,23,M,,M,,*52
06/02/2014	14:03:17.530	$GPGGA,140318,2437.4781,N,08044.3709,W,1,8,1.7,23,M,,M,,*5D
06/02/2014	14:03:18.631	$GPGGA,140319,2437.4799,N,08044.3706,W,1,8,1.7,23,M,,M,,*5A
06/02/2014	14:03:19.531	$GPGGA,140320,2437.4818,N,08044.3703,W,1,8,1.7,23,M,,M,,*53
06/02/2014	14:03:20.601	$GPGGA,140321,2437.4836,N,08044.3699,W,1,8,1.7,22,M,,M,,*5D
06/02/2014	14:03:21.511	$GPGGA,140322,2437.4856,N,08044.3694,W,1,8,1.7,22,M,,M,,*55
06/02/2014	14:03:22.511	$GPGGA,140323,2437.4874,N,08044.3690,W,1,8,1.7,22,M,,M,,*50
06/02/2014	14:03:23.641	$GPGGA,140324,2437.4892,N,08044.3689,W,1,8,1.7,22,M,,M,,*57
06/02/2014	14:03:24.621	$GPGGA,140325,2437.4911,N,08044.3686,W,1,8,2.6,22,M,,M,,*51
06/02/2014	14:03:25.501	$GPGGA,140326,2437.4930,N,08044.3679,W,1,8,2.6,22,M,,M,,*51
06/02/2014	14:03:26.502	$GPGGA,140327,2437.4948,N,08044.3675,W,1,8,1.7,22,M,,M,,*51
06/02/2014	14:03:27.560	$GPGGA,140328,2437.4966,N,08044.3674,W,1,8,1.8,22,M,,M,,*5C
06/02/2014	14:03:28.580	$GPGGA,140329,2437.4987,N,08044.3665,W,1,7,2.6,22,M,,M,,*50
06/02/2014	14:03:29.524	$GPGGA,140330,2437.5006,N,08044.3659,W,1,7,1.7,22,M,,M,,*54
06/02/2014	14:03:30.570	$GPGGA,140331,2437.5024,N,08044.3656,W,1,8,1.7,22,M,,M,,*55
06/02/2014	14:03:31.510	$GPGGA,140332,2437.5044,N,08044.3653,W,1,8,1.7,22,M,,M,,*55
06/02/2014	14:03:32.570	$GPGGA,140333,2437.5063,N,08044.3650,W,1,8,2.6,22,M,,M,,*50
06/02/2014	14:03:33.590	$GPGGA,140334,2437.5083,N,08044.3647,W,1,8,1.7,22,M,,M,,*5D
06/02/2014	14:03:34.620	$GPGGA,140335,2437.5103,N,08044.3644,W,1,8,1.7,22,M,,M,,*56
06/02/2014	14:03:35.540	$GPGGA,140336,2437.5121,N,08044.3643,W,1,8,1.7,22,M,,M,,*52
06/02/2014	14:03:36.570	$GPGGA,140337,2437.5142,N,08044.3641,W,1,8,1.7,22,M,,M,,*54
06/02/2014	14:03:37.520	$GPGGA,140338,2437.5161,N,08044.3636,W,1,8,1.7,22,M,,M,,*5A
06/02/2014	14:03:38.570	$GPGGA,140339,2437.5181,N,08044.3638,W,1,8,1.7,22,M,,M,,*5B
06/02/2014	14:03:39.580	$GPGGA,140340,2437.5200,N,08044.3636,W,1,8,2.8,22,M,,M,,*5D
06/02/2014	14:03:40.591	$GPGGA,140341,2437.5219,N,08044.3632,W,1,6,1.7,22,M,,M,,*52
06/02/2014	14:03:41.571	$GPGGA,140342,2437.5237,N,08044.3628,W,1,6,1.8,22,M,,M,,*59
06/02/2014	14:03:42.581	$GPGGA,140343,2437.5257,N,08044.3629,W,1,7,1.7,21,M,,M,,*52
06/02/2014	14:03:43.580	$GPGGA,140344,2437.5275,N,08044.3628,W,1,7,1.7,21,M,,M,,*54
06/02/2014	14:03:44.629	$GPGGA,140345,2437.5294,N,08044.3622,W,1,8,1.7,21,M,,M,,*5F
06/02/2014	14:03:45.569	$GPGGA,140346,2437.5313,N,08044.3618,W,1,8,1.7,21,M,,M,,*5B
06/02/2014	14:03:46.569	$GPGGA,140347,2437.5331,N,08044.3617,W,1,8,2.6,21,M,,M,,*57
06/02/2014	14:03:47.579	$GPGGA,140348,2437.5331,N,08044.3617,W,1,8,2.6,21,M,,M,,*58
06/02/2014	14:03:48.589	$GPGGA,140349,2437.5370,N,08044.3608,W,1,8,1.7,21,M,,M,,*50
06/02/2014	14:03:49.559	$GPGGA,140350,2437.5391,N,08044.3603,W,1,8,1.7,21,M,,M,,*5C
06/02/2014	14:03:50.629	$GPGGA,140351,2437.5409,N,08044.3602,W,1,8,1.7,21,M,,M,,*5A
06/02/2014	14:03:51.569	$GPGGA,140352,2437.5428,N,08044.3598,W,1,8,1.7,21,M,,M,,*5A
06/02/2014	14:03:52.589	$GPGGA,140353,2437.5448,N,08044.3593,W,1,8,1.7,21,M,,M,,*56
06/02/2014	14:03:53.549	$GPGGA,140354,2437.5466,N,08044.3590,W,1,8,1.7,21,M,,M,,*5E
06/02/2014	14:03:54.579	$GPGGA,140355,2437.5486,N,08044.3587,W,1,8,1.7,21,M,,M,,*57
06/02/2014	14:03:55.549	$GPGGA,140356,2437.5506,N,08044.3580,W,1,8,1.7,21,M,,M,,*5A
06/02/2014	14:03:56.569	$GPGGA,140357,2437.5524,N,08044.3577,W,1,8,1.7,21,M,,M,,*53
06/02/2014	14:03:57.539	$GPGGA,140358,2437.5544,N,08044.3576,W,1,8,1.7,21,M,,M,,*5B
06/02/2014	14:03:58.569	$GPGGA,140359,2437.5562,N,08044.3570,W,1,8,1.7,20,M,,M,,*59
06/02/2014	14:03:59.559	$GPGGA,140400,2437.5582,N,08044.3563,W,1,8,1.7,20,M,,M,,*5E
06/02/2014	14:04:00.569	$GPGGA,140401,2437.5602,N,08044.3561,W,1,8,1.7,20,M,,M,,*56
06/02/2014	14:04:01.529	$GPGGA,140402,2437.5622,N,08044.3558,W,1,8,1.7,20,M,,M,,*5D
06/02/2014	14:04:02.548	$GPGGA,140403,2437.5641,N,08044.3552,W,1,8,1.7,20,M,,M,,*53
06/02/2014	14:04:03.548	$GPGGA,140404,2437.5659,N,08044.3548,W,1,8,1.7,20,M,,M,,*56
06/02/2014	14:04:04.548	$GPGGA,140405,2437.5659,N,08044.3548,W,1,8,1.7,20,M,,M,,*57
06/02/2014	14:04:05.528	$GPGGA,140406,2437.5699,N,08044.3539,W,1,8,1.7,20,M,,M,,*5E
06/02/2014	14:04:06.588	$GPGGA,140407,2437.5716,N,08044.3536,W,1,8,1.7,20,M,,M,,*56
06/02/2014	14:04:07.538	$GPGGA,140408,2437.5735,N,08044.3532,W,1,8,1.7,20,M,,M,,*5C
06/02/2014	14:04:08.538	$GPGGA,140409,2437.5755,N,08044.3527,W,1,8,1.7,20,M,,M,,*5F
06/02/2014	14:04:09.518	$GPGGA,140410,2437.5773,N,08044.3523,W,1,8,1.7,20,M,,M,,*57
06/02/2014	14:04:10.528	$GPGGA,140411,2437.5789,N,08044.3521,W,1,8,1.7,20,M,,M,,*51
06/02/2014	14:04:11.518	$GPGGA,140412,2437.5810,N,08044.3517,W,1,8,1.7,20,M,,M,,*58
06/02/2014	14:04:12.523	$GPGGA,140413,2437.5810,N,08044.3517,W,1,8,1.7,20,M,,M,,*59
06/02/2014	14:04:13.518	$GPGGA,140414,2437.5847,N,08044.3506,W,1,8,1.7,20,M,,M,,*5C
06/02/2014	14:04:14.518	$GPGGA,140415,2437.5847,N,08044.3506,W,1,8,1.7,20,M,,M,,*5D
06/02/2014	14:04:15.518	$GPGGA,140416,2437.5883,N,08044.3503,W,1,8,1.7,20,M,,M,,*53
06/02/2014	14:04:16.528	$GPGGA,140417,2437.5883,N,08044.3503,W,1,8,1.7,20,M,,M,,*52
06/02/2014	14:04:17.508	$GPGGA,140418,2437.5902,N,08044.3496,W,1,8,1.7,20,M,,M,,*58
06/02/2014	14:04:18.628	$GPGGA,140419,2437.5938,N,08044.3488,W,1,8,1.7,20,M,,M,,*5F
06/02/2014	14:04:19.617	$GPGGA,140420,2437.5959,N,08044.3484,W,1,8,1.7,20,M,,M,,*5E
06/02/2014	14:04:20.617	$GPGGA,140421,2437.5959,N,08044.3484,W,1,8,1.7,20,M,,M,,*5F
06/02/2014	14:04:21.497	$GPGGA,140422,2437.5995,N,08044.3479,W,1,8,2.6,20,M,,M,,*5C
06/02/2014	14:04:22.587	$GPGGA,140423,2437.6014,N,08044.3475,W,1,8,1.7,20,M,,M,,*50
06/02/2014	14:04:23.597	$GPGGA,140424,2437.6035,N,08044.3471,W,1,8,1.7,20,M,,M,,*50
06/02/2014	14:04:24.597	$GPGGA,140425,2437.6053,N,08044.3469,W,1,8,1.7,20,M,,M,,*58
06/02/2014	14:04:25.487	$GPGGA,140426,2437.6073,N,08044.3467,W,1,8,1.7,20,M,,M,,*57
06/02/2014	14:04:26.487	$GPGGA,140427,2437.6073,N,08044.3467,W,1,8,1.7,20,M,,M,,*56
06/02/2014	14:04:27.577	$GPGGA,140428,2437.6109,N,08044.3456,W,1,8,1.7,20,M,,M,,*57
06/02/2014	14:04:28.617	$GPGGA,140429,2437.6128,N,08044.3453,W,1,8,1.7,20,M,,M,,*50
06/02/2014	14:04:29.567	$GPGGA,140430,2437.6147,N,08044.3454,W,1,8,1.7,20,M,,M,,*56
06/02/2014	14:04:30.597	$GPGGA,140431,2437.6167,N,08044.3447,W,1,8,1.7,20,M,,M,,*57
06/02/2014	14:04:31.577	$GPGGA,140432,2437.6186,N,08044.3440,W,1,8,1.7,20,M,,M,,*5C
06/02/2014	14:04:32.607	$GPGGA,140433,2437.6204,N,08044.3440,W,1,8,1.7,20,M,,M,,*54
06/02/2014	14:04:33.577	$GPGGA,140434,2437.6223,N,08044.3440,W,1,8,1.7,20,M,,M,,*56
06/02/2014	14:04:34.557	$GPGGA,140435,2437.6241,N,08044.3430,W,1,7,2.7,20,M,,M,,*58
06/02/2014	14:04:35.578	$GPGGA,140436,2437.6261,N,08044.3422,W,1,7,1.7,20,M,,M,,*59
06/02/2014	14:04:36.567	$GPGGA,140437,2437.6279,N,08044.3423,W,1,8,1.7,20,M,,M,,*5F
06/02/2014	14:04:37.556	$GPGGA,140438,2437.6298,N,08044.3425,W,1,8,1.7,20,M,,M,,*59
06/02/2014	14:04:38.586	$GPGGA,140439,2437.6317,N,08044.3416,W,1,7,2.7,20,M,,M,,*52
06/02/2014	14:04:39.566	$GPGGA,140440,2437.6337,N,08044.3407,W,1,7,1.7,20,M,,M,,*5D
06/02/2014	14:04:40.566	$GPGGA,140441,2437.6355,N,08044.3406,W,1,8,1.7,20,M,,M,,*56
06/02/2014	14:04:41.557	$GPGGA,140442,2437.6373,N,08044.3408,W,1,8,1.7,20,M,,M,,*5F
06/02/2014	14:04:42.536	$GPGGA,140443,2437.6392,N,08044.3399,W,1,7,2.7,20,M,,M,,*52
06/02/2014	14:04:43.556	$GPGGA,140444,2437.6410,N,08044.3391,W,1,7,1.7,20,M,,M,,*53
06/02/2014	14:04:44.566	$GPGGA,140445,2437.6425,N,08044.3390,W,1,8,1.7,20,M,,M,,*5A
06/02/2014	14:04:45.536	$GPGGA,140446,2437.6443,N,08044.3389,W,1,8,2.7,20,M,,M,,*52
06/02/2014	14:04:46.536	$GPGGA,140447,2437.6462,N,08044.3383,W,1,8,1.7,20,M,,M,,*59
06/02/2014	14:04:47.556	$GPGGA,140448,2437.6479,N,08044.3376,W,1,8,1.7,20,M,,M,,*56
06/02/2014	14:04:48.526	$GPGGA,140449,2437.6497,N,08044.3373,W,1,8,1.7,20,M,,M,,*52
06/02/2014	14:04:49.536	$GPGGA,140450,2437.6516,N,08044.3370,W,1,8,1.7,20,M,,M,,*51
06/02/2014	14:04:50.566	$GPGGA,140451,2437.6534,N,08044.3365,W,1,8,1.7,20,M,,M,,*54
06/02/2014	14:04:51.546	$GPGGA,140452,2437.6552,N,08044.3360,W,1,8,1.7,20,M,,M,,*52
06/02/2014	14:04:52.556	$GPGGA,140453,2437.6572,N,08044.3356,W,1,8,1.7,20,M,,M,,*54
06/02/2014	14:04:53.526	$GPGGA,140454,2437.6590,N,08044.3352,W,1,8,1.7,20,M,,M,,*5B
06/02/2014	14:04:54.525	$GPGGA,140455,2437.6609,N,08044.3348,W,1,8,1.7,20,M,,M,,*52
06/02/2014	14:04:55.525	$GPGGA,140456,2437.6628,N,08044.3343,W,1,8,1.7,20,M,,M,,*59
06/02/2014	14:04:56.535	$GPGGA,140457,2437.6646,N,08044.3340,W,1,8,1.7,20,M,,M,,*53
06/02/2014	14:04:57.515	$GPGGA,140458,2437.6667,N,08044.3340,W,1,8,1.7,20,M,,M,,*5F
06/02/2014	14:04:58.525	$GPGGA,140459,2437.6689,N,08044.3333,W,1,7,1.8,20,M,,M,,*5A
06/02/2014	14:04:59.515	$GPGGA,140500,2437.6707,N,08044.3326,W,1,7,1.7,20,M,,M,,*5B
06/02/2014	14:05:00.516	$GPGGA,140501,2437.6727,N,08044.3324,W,1,7,2.7,20,M,,M,,*59
06/02/2014	14:05:01.595	$GPGGA,140502,2437.6747,N,08044.3322,W,1,7,1.7,20,M,,M,,*59
06/02/2014	14:05:02.506	$GPGGA,140503,2437.6765,N,08044.3317,W,1,7,2.7,20,M,,M,,*5D
06/02/2014	14:05:03.605	$GPGGA,140504,2437.6785,N,08044.3310,W,1,7,2.7,20,M,,M,,*53
06/02/2014	14:05:04.495	$GPGGA,140505,2437.6805,N,08044.3305,W,1,8,1.7,20,M,,M,,*5D
06/02/2014	14:05:05.615	$GPGGA,140506,2437.6825,N,08044.3300,W,1,8,2.7,20,M,,M,,*5A
06/02/2014	14:05:06.615	$GPGGA,140507,2437.6844,N,08044.3297,W,1,8,1.7,20,M,,M,,*50
06/02/2014	14:05:07.515	$GPGGA,140508,2437.6863,N,08044.3293,W,1,8,1.7,20,M,,M,,*5E
06/02/2014	14:05:08.585	$GPGGA,140509,2437.6883,N,08044.3285,W,1,8,1.7,20,M,,M,,*56
06/02/2014	14:05:09.585	$GPGGA,140510,2437.6901,N,08044.3281,W,1,8,1.7,20,M,,M,,*51
06/02/2014	14:05:10.585	$GPGGA,140511,2437.6920,N,08044.3278,W,1,8,1.7,20,M,,M,,*55
06/02/2014	14:05:11.496	$GPGGA,140512,2437.6940,N,08044.3273,W,1,8,1.7,20,M,,M,,*5B
06/02/2014	14:05:12.494	$GPGGA,140513,2437.6959,N,08044.3270,W,1,8,1.7,20,M,,M,,*51
06/02/2014	14:05:13.574	$GPGGA,140514,2437.6978,N,08044.3268,W,1,8,1.7,20,M,,M,,*5C
06/02/2014	14:05:14.574	$GPGGA,140515,2437.7000,N,08044.3262,W,1,8,1.7,20,M,,M,,*50
06/02/2014	14:05:15.584	$GPGGA,140516,2437.7018,N,08044.3256,W,1,8,1.7,20,M,,M,,*5D
06/02/2014	14:05:16.604	$GPGGA,140517,2437.7036,N,08044.3259,W,1,8,1.7,20,M,,M,,*5F
06/02/2014	14:05:17.574	$GPGGA,140518,2437.7054,N,08044.3259,W,1,8,1.7,20,M,,M,,*54
06/02/2014	14:05:18.594	$GPGGA,140519,2437.7075,N,08044.3250,W,1,8,1.7,20,M,,M,,*5F
06/02/2014	14:05:19.584	$GPGGA,140520,2437.7093,N,08044.3247,W,1,8,1.7,20,M,,M,,*5B
06/02/2014	14:05:20.574	$GPGGA,140521,2437.7108,N,08044.3251,W,1,8,1.7,20,M,,M,,*5E
06/02/2014	14:05:21.564	$GPGGA,140522,2437.7129,N,08044.3248,W,1,8,2.7,20,M,,M,,*55
06/02/2014	14:05:22.574	$GPGGA,140523,2437.7148,N,08044.3239,W,1,7,2.7,20,M,,M,,*5A
06/02/2014	14:05:23.574	$GPGGA,140524,2437.7162,N,08044.3242,W,1,7,1.8,20,M,,M,,*55
06/02/2014	14:05:24.584	$GPGGA,140525,2437.7180,N,08044.3242,W,1,7,2.7,20,M,,M,,*54
06/02/2014	14:05:25.544	$GPGGA,140526,2437.7198,N,08044.3236,W,1,7,1.7,20,M,,M,,*5E
06/02/2014	14:05:26.554	$GPGGA,140527,2437.7216,N,08044.3231,W,1,8,1.7,20,M,,M,,*52
06/02/2014	14:05:27.564	$GPGGA,140528,2437.7234,N,08044.3230,W,1,8,1.7,20,M,,M,,*5C
06/02/2014	14:05:28.564	$GPGGA,140529,2437.7253,N,08044.3228,W,1,8,1.7,20,M,,M,,*55
06/02/2014	14:05:29.543	$GPGGA,140530,2437.7271,N,08044.3225,W,1,8,2.7,20,M,,M,,*53
06/02/2014	14:05:30.553	$GPGGA,140531,2437.7292,N,08044.3223,W,1,6,3.3,20,M,,M,,*52
06/02/2014	14:05:31.553	$GPGGA,140532,2437.7311,N,08044.3217,W,1,6,1.7,20,M,,M,,*5A
06/02/2014	14:05:32.543	$GPGGA,140533,2437.7331,N,08044.3212,W,1,8,1.7,20,M,,M,,*52
06/02/2014	14:05:33.533	$GPGGA,140534,2437.7350,N,08044.3211,W,1,8,1.7,20,M,,M,,*51
06/02/2014	14:05:34.553	$GPGGA,140535,2437.7370,N,08044.3208,W,1,7,2.7,20,M,,M,,*56
06/02/2014	14:05:35.543	$GPGGA,140536,2437.7390,N,08044.3200,W,1,7,1.7,20,M,,M,,*50
06/02/2014	14:05:36.553	$GPGGA,140537,2437.7408,N,08044.3194,W,1,8,1.7,20,M,,M,,*56
06/02/2014	14:05:37.533	$GPGGA,140538,2437.7426,N,08044.3191,W,1,8,1.7,20,M,,M,,*50
06/02/2014	14:05:38.553	$GPGGA,140539,2437.7446,N,08044.3187,W,1,8,1.7,20,M,,M,,*50
06/02/2014	14:05:39.543	$GPGGA,140540,2437.7466,N,08044.3182,W,1,8,1.8,20,M,,M,,*56
06/02/2014	14:05:40.533	$GPGGA,140541,2437.7486,N,08044.3180,W,1,8,1.7,20,M,,M,,*54
06/02/2014	14:05:41.523	$GPGGA,140542,2437.7505,N,08044.3176,W,1,8,1.7,20,M,,M,,*54
06/02/2014	14:05:42.533	$GPGGA,140543,2437.7524,N,08044.3171,W,1,8,1.7,20,M,,M,,*51
06/02/2014	14:05:43.533	$GPGGA,140544,2437.7542,N,08044.3168,W,1,8,1.7,20,M,,M,,*5E
06/02/2014	14:05:44.523	$GPGGA,140545,2437.7560,N,08044.3167,W,1,8,1.7,20,M,,M,,*50
06/02/2014	14:05:45.523	$GPGGA,140546,2437.7578,N,08044.3164,W,1,8,1.7,20,M,,M,,*59
06/02/2014	14:05:46.633	$GPGGA,140547,2437.7596,N,08044.3161,W,1,7,1.8,20,M,,M,,*5D
06/02/2014	14:05:47.524	$GPGGA,140548,2437.7616,N,08044.3157,W,1,7,1.7,20,M,,M,,*53
06/02/2014	14:05:48.602	$GPGGA,140549,2437.7634,N,08044.3155,W,1,8,1.7,20,M,,M,,*5F
06/02/2014	14:05:49.492	$GPGGA,140550,2437.7653,N,08044.3155,W,1,8,1.7,20,M,,M,,*56
06/02/2014	14:05:50.513	$GPGGA,140551,2437.7672,N,08044.3151,W,1,8,1.7,20,M,,M,,*50
06/02/2014	14:05:51.522	$GPGGA,140552,2437.7690,N,08044.3145,W,1,8,1.7,20,M,,M,,*5A
06/02/2014	14:05:52.512	$GPGGA,140553,2437.7710,N,08044.3143,W,1,8,1.7,20,M,,M,,*54
06/02/2014	14:05:53.582	$GPGGA,140554,2437.7729,N,08044.3144,W,1,8,1.7,20,M,,M,,*5E
06/02/2014	14:05:54.513	$GPGGA,140555,2437.7748,N,08044.3137,W,1,8,1.7,20,M,,M,,*5C
06/02/2014	14:05:55.622	$GPGGA,140556,2437.7769,N,08044.3130,W,1,8,1.7,20,M,,M,,*5B
06/02/2014	14:05:56.582	$GPGGA,140557,2437.7787,N,08044.3130,W,1,8,1.7,20,M,,M,,*5A
06/02/2014	14:05:57.492	$GPGGA,140558,2437.7807,N,08044.3129,W,1,8,1.7,20,M,,M,,*5A
06/02/2014	14:05:58.572	$GPGGA,140559,2437.7826,N,08044.3122,W,1,8,1.7,20,M,,M,,*53
06/02/2014	14:05:59.592	$GPGGA,140600,2437.7842,N,08044.3116,W,1,8,1.7,20,M,,M,,*59
06/02/2014	14:06:00.582	$GPGGA,140601,2437.7860,N,08044.3114,W,1,6,2.9,20,M,,M,,*59
06/02/2014	14:06:01.472	$GPGGA,140602,2437.7878,N,08044.3113,W,1,6,1.7,20,M,,M,,*59
06/02/2014	14:06:02.592	$GPGGA,140603,2437.7898,N,08044.3109,W,1,8,1.7,20,M,,M,,*53
06/02/2014	14:06:03.582	$GPGGA,140604,2437.7916,N,08044.3105,W,1,8,1.7,20,M,,M,,*5F
06/02/2014	14:06:04.561	$GPGGA,140605,2437.7935,N,08044.3103,W,1,8,1.7,20,M,,M,,*59
06/02/2014	14:06:05.561	$GPGGA,140606,2437.7953,N,08044.3099,W,1,8,1.7,20,M,,M,,*58
06/02/2014	14:06:06.591	$GPGGA,140607,2437.7971,N,08044.3093,W,1,8,1.7,20,M,,M,,*53
06/02/2014	14:06:07.571	$GPGGA,140608,2437.7990,N,08044.3090,W,1,8,1.7,20,M,,M,,*50
06/02/2014	14:06:08.581	$GPGGA,140609,2437.8010,N,08044.3089,W,1,8,1.7,20,M,,M,,*57
06/02/2014	14:06:09.561	$GPGGA,140610,2437.8029,N,08044.3082,W,1,8,1.7,20,M,,M,,*5E
06/02/2014	14:06:10.571	$GPGGA,140611,2437.8046,N,08044.3077,W,1,8,1.7,20,M,,M,,*5C
06/02/2014	14:06:11.571	$GPGGA,140612,2437.8065,N,08044.3073,W,1,8,1.7,21,M,,M,,*5B
06/02/2014	14:06:12.541	$GPGGA,140613,2437.8083,N,08044.3070,W,1,8,1.7,21,M,,M,,*51
06/02/2014	14:06:13.551	$GPGGA,140614,2437.8102,N,08044.3067,W,1,8,1.7,21,M,,M,,*58
06/02/2014	14:06:14.581	$GPGGA,140615,2437.8122,N,08044.3063,W,1,8,1.7,21,M,,M,,*5F
06/02/2014	14:06:15.561	$GPGGA,140616,2437.8140,N,08044.3057,W,1,8,1.7,21,M,,M,,*5F
06/02/2014	14:06:16.541	$GPGGA,140617,2437.8158,N,08044.3054,W,1,8,1.7,21,M,,M,,*54
06/02/2014	14:06:17.541	$GPGGA,140618,2437.8177,N,08044.3052,W,1,8,1.7,21,M,,M,,*50
06/02/2014	14:06:18.571	$GPGGA,140619,2437.8195,N,08044.3047,W,1,8,1.7,21,M,,M,,*59
06/02/2014	14:06:19.551	$GPGGA,140620,2437.8214,N,08044.3044,W,1,8,1.7,21,M,,M,,*5A
06/02/2014	14:06:20.571	$GPGGA,140621,2437.8232,N,08044.3041,W,1,8,1.7,21,M,,M,,*5A
06/02/2014	14:06:21.531	$GPGGA,140622,2437.8252,N,08044.3035,W,1,8,1.7,21,M,,M,,*5C
06/02/2014	14:06:22.550	$GPGGA,140623,2437.8271,N,08044.3029,W,1,8,1.7,21,M,,M,,*51
06/02/2014	14:06:23.530	$GPGGA,140624,2437.8289,N,08044.3029,W,1,8,2.7,21,M,,M,,*52
06/02/2014	14:06:24.530	$GPGGA,140625,2437.8307,N,08044.3024,W,1,8,1.7,21,M,,M,,*5A
06/02/2014	14:06:25.530	$GPGGA,140626,2437.8326,N,08044.3017,W,1,8,1.7,21,M,,M,,*5A
06/02/2014	14:06:26.550	$GPGGA,140627,2437.8344,N,08044.3012,W,1,8,1.7,21,M,,M,,*5A
06/02/2014	14:06:27.530	$GPGGA,140628,2437.8365,N,08044.3010,W,1,8,1.7,21,M,,M,,*54
06/02/2014	14:06:28.518	$GPGGA,140629,2437.8383,N,08044.3006,W,1,8,1.7,21,M,,M,,*5A
06/02/2014	14:06:29.520	$GPGGA,140630,2437.8401,N,08044.2999,W,1,8,1.7,21,M,,M,,*51
06/02/2014	14:06:30.530	$GPGGA,140631,2437.8420,N,08044.2996,W,1,8,1.7,21,M,,M,,*5C
06/02/2014	14:06:31.520	$GPGGA,140632,2437.8440,N,08044.2994,W,1,8,1.7,21,M,,M,,*5B
06/02/2014	14:06:32.630	$GPGGA,140633,2437.8458,N,08044.2991,W,1,8,1.7,21,M,,M,,*56
06/02/2014	14:06:33.510	$GPGGA,140634,2437.8477,N,08044.2986,W,1,8,1.7,21,M,,M,,*5A
06/02/2014	14:06:34.510	$GPGGA,140635,2437.8497,N,08044.2980,W,1,8,1.7,21,M,,M,,*53
06/02/2014	14:06:35.520	$GPGGA,140636,2437.8514,N,08044.2978,W,1,8,1.7,21,M,,M,,*5D
06/02/2014	14:06:36.530	$GPGGA,140637,2437.8532,N,08044.2978,W,1,8,1.7,21,M,,M,,*58
06/02/2014	14:06:37.500	$GPGGA,140638,2437.8552,N,08044.2975,W,1,8,2.7,21,M,,M,,*5F
06/02/2014	14:06:38.500	$GPGGA,140639,2437.8571,N,08044.2968,W,1,7,2.7,21,M,,M,,*5C
06/02/2014	14:06:39.599	$GPGGA,140640,2437.8589,N,08044.2963,W,1,7,1.7,22,M,,M,,*5E
06/02/2014	14:06:40.499	$GPGGA,140641,2437.8606,N,08044.2963,W,1,8,1.7,22,M,,M,,*54
06/02/2014	14:06:41.499	$GPGGA,140642,2437.8625,N,08044.2962,W,1,8,1.7,22,M,,M,,*57
06/02/2014	14:06:42.499	$GPGGA,140643,2437.8643,N,08044.2955,W,1,8,1.7,22,M,,M,,*52
06/02/2014	14:06:43.509	$GPGGA,140644,2437.8661,N,08044.2950,W,1,8,1.7,22,M,,M,,*50
06/02/2014	14:06:44.599	$GPGGA,140645,2437.8679,N,08044.2949,W,1,8,1.7,22,M,,M,,*50
06/02/2014	14:06:45.489	$GPGGA,140646,2437.8698,N,08044.2948,W,1,8,1.7,22,M,,M,,*5D
06/02/2014	14:06:46.489	$GPGGA,140647,2437.8716,N,08044.2943,W,1,8,1.7,22,M,,M,,*50
06/02/2014	14:06:47.489	$GPGGA,140648,2437.8734,N,08044.2938,W,1,8,1.7,22,M,,M,,*53
06/02/2014	14:06:48.569	$GPGGA,140649,2437.8752,N,08044.2939,W,1,8,1.7,22,M,,M,,*53
06/02/2014	14:06:49.579	$GPGGA,140650,2437.8770,N,08044.2937,W,1,8,1.7,22,M,,M,,*55
06/02/2014	14:06:50.599	$GPGGA,140651,2437.8788,N,08044.2929,W,1,8,1.7,22,M,,M,,*5C
06/02/2014	14:06:51.579	$GPGGA,140652,2437.8806,N,08044.2930,W,1,8,1.7,22,M,,M,,*5E
06/02/2014	14:06:52.589	$GPGGA,140653,2437.8824,N,08044.2930,W,1,7,1.8,22,M,,M,,*5F
06/02/2014	14:06:53.569	$GPGGA,140654,2437.8844,N,08044.2923,W,1,7,2.7,22,M,,M,,*50
06/02/2014	14:06:54.569	$GPGGA,140655,2437.8860,N,08044.2918,W,1,8,1.7,22,M,,M,,*53
06/02/2014	14:06:55.569	$GPGGA,140656,2437.8878,N,08044.2919,W,1,8,1.7,22,M,,M,,*58
06/02/2014	14:06:56.559	$GPGGA,140657,2437.8896,N,08044.2917,W,1,8,1.7,22,M,,M,,*57
06/02/2014	14:06:57.558	$GPGGA,140658,2437.8914,N,08044.2909,W,1,8,1.7,22,M,,M,,*5C
06/02/2014	14:06:58.548	$GPGGA,140659,2437.8932,N,08044.2904,W,1,8,1.7,22,M,,M,,*54
06/02/2014	14:06:59.578	$GPGGA,140700,2437.8950,N,08044.2905,W,1,8,1.7,22,M,,M,,*5C
06/02/2014	14:07:00.569	$GPGGA,140701,2437.8969,N,08044.2903,W,1,8,1.7,22,M,,M,,*51
06/02/2014	14:07:01.538	$GPGGA,140702,2437.8989,N,08044.2898,W,1,8,2.7,22,M,,M,,*5C
06/02/2014	14:07:02.538	$GPGGA,140703,2437.9007,N,08044.2893,W,1,8,1.7,22,M,,M,,*5B
06/02/2014	14:07:03.548	$GPGGA,140704,2437.9025,N,08044.2892,W,1,8,1.7,22,M,,M,,*5D
06/02/2014	14:07:04.558	$GPGGA,140705,2437.9044,N,08044.2889,W,1,8,1.7,22,M,,M,,*51
06/02/2014	14:07:05.548	$GPGGA,140706,2437.9063,N,08044.2882,W,1,8,1.7,22,M,,M,,*5C
06/02/2014	14:07:06.558	$GPGGA,140707,2437.9081,N,08044.2880,W,1,8,1.7,22,M,,M,,*53
06/02/2014	14:07:07.559	$GPGGA,140708,2437.9099,N,08044.2880,W,1,8,1.7,22,M,,M,,*55
06/02/2014	14:07:08.558	$GPGGA,140709,2437.9120,N,08044.2875,W,1,8,1.7,22,M,,M,,*5D
06/02/2014	14:07:09.528	$GPGGA,140710,2437.9138,N,08044.2870,W,1,8,1.7,22,M,,M,,*59
06/02/2014	14:07:10.559	$GPGGA,140711,2437.9156,N,08044.2870,W,1,8,1.7,21,M,,M,,*53
06/02/2014	14:07:11.538	$GPGGA,140712,2437.9175,N,08044.2869,W,1,8,1.7,21,M,,M,,*59
06/02/2014	14:07:12.518	$GPGGA,140713,2437.9193,N,08044.2863,W,1,8,1.7,21,M,,M,,*5A
06/02/2014	14:07:13.528	$GPGGA,140714,2437.9213,N,08044.2857,W,1,8,1.7,21,M,,M,,*51
06/02/2014	14:07:14.557	$GPGGA,140715,2437.9229,N,08044.2856,W,1,8,1.7,21,M,,M,,*58
06/02/2014	14:07:15.537	$GPGGA,140716,2437.9247,N,08044.2855,W,1,8,1.7,21,M,,M,,*50
06/02/2014	14:07:16.547	$GPGGA,140717,2437.9267,N,08044.2849,W,1,8,1.7,21,M,,M,,*5E
06/02/2014	14:07:17.507	$GPGGA,140718,2437.9283,N,08044.2842,W,1,8,1.7,21,M,,M,,*50
06/02/2014	14:07:18.507	$GPGGA,140719,2437.9301,N,08044.2840,W,1,8,1.7,21,M,,M,,*58
06/02/2014	14:07:19.527	$GPGGA,140720,2437.9321,N,08044.2838,W,1,8,1.7,21,M,,M,,*5F
06/02/2014	14:07:20.637	$GPGGA,140721,2437.9339,N,08044.2830,W,1,7,1.7,20,M,,M,,*51
06/02/2014	14:07:21.507	$GPGGA,140722,2437.9355,N,08044.2825,W,1,7,1.7,20,M,,M,,*5C
06/02/2014	14:07:22.517	$GPGGA,140723,2437.9373,N,08044.2823,W,1,8,1.7,20,M,,M,,*50
06/02/2014	14:07:23.627	$GPGGA,140724,2437.9391,N,08044.2821,W,1,8,1.7,20,M,,M,,*59
06/02/2014	14:07:24.627	$GPGGA,140725,2437.9409,N,08044.2818,W,1,8,1.8,20,M,,M,,*5B
06/02/2014	14:07:25.487	$GPGGA,140726,2437.9427,N,08044.2818,W,1,8,1.8,20,M,,M,,*54
06/02/2014	14:07:26.497	$GPGGA,140727,2437.9446,N,08044.2814,W,1,8,1.7,20,M,,M,,*51
06/02/2014	14:07:27.627	$GPGGA,140728,2437.9464,N,08044.2808,W,1,8,1.7,20,M,,M,,*53
06/02/2014	14:07:28.597	$GPGGA,140729,2437.9481,N,08044.2806,W,1,8,1.7,20,M,,M,,*57
06/02/2014	14:07:29.477	$GPGGA,140730,2437.9499,N,08044.2804,W,1,8,1.7,20,M,,M,,*54
06/02/2014	14:07:30.477	$GPGGA,140731,2437.9517,N,08044.2797,W,1,8,1.7,20,M,,M,,*57
06/02/2014	14:07:31.497	$GPGGA,140732,2437.9534,N,08044.2792,W,1,8,1.7,20,M,,M,,*50
06/02/2014	14:07:32.487	$GPGGA,140733,2437.9553,N,08044.2789,W,1,8,1.7,20,M,,M,,*5A
06/02/2014	14:07:33.566	$GPGGA,140734,2437.9570,N,08044.2786,W,1,8,1.7,19,M,,M,,*59
06/02/2014	14:07:34.586	$GPGGA,140735,2437.9586,N,08044.2783,W,1,8,1.7,19,M,,M,,*54
06/02/2014	14:07:35.586	$GPGGA,140736,2437.9604,N,08044.2777,W,1,8,1.7,19,M,,M,,*55
06/02/2014	14:07:36.586	$GPGGA,140737,2437.9622,N,08044.2773,W,1,8,1.7,19,M,,M,,*54
06/02/2014	14:07:37.566	$GPGGA,140738,2437.9640,N,08044.2774,W,1,8,1.7,19,M,,M,,*58
06/02/2014	14:07:38.597	$GPGGA,140739,2437.9659,N,08044.2768,W,1,8,1.7,19,M,,M,,*5C
06/02/2014	14:07:39.576	$GPGGA,140740,2437.9677,N,08044.2763,W,1,8,1.7,19,M,,M,,*55
06/02/2014	14:07:40.576	$GPGGA,140741,2437.9694,N,08044.2761,W,1,8,1.7,19,M,,M,,*5B
06/02/2014	14:07:41.566	$GPGGA,140742,2437.9711,N,08044.2758,W,1,8,1.7,19,M,,M,,*5E
06/02/2014	14:07:42.556	$GPGGA,140743,2437.9730,N,08044.2754,W,1,8,1.7,19,M,,M,,*50
06/02/2014	14:07:43.576	$GPGGA,140744,2437.9749,N,08044.2749,W,1,8,1.7,19,M,,M,,*55
06/02/2014	14:07:44.577	$GPGGA,140745,2437.9767,N,08044.2747,W,1,8,1.7,19,M,,M,,*56
06/02/2014	14:07:45.556	$GPGGA,140746,2437.9785,N,08044.2744,W,1,8,2.1,19,M,,M,,*5F
06/02/2014	14:07:46.566	$GPGGA,140747,2437.9805,N,08044.2742,W,1,7,1.7,19,M,,M,,*55
06/02/2014	14:07:47.566	$GPGGA,140748,2437.9823,N,08044.2740,W,1,7,1.7,19,M,,M,,*5C
06/02/2014	14:07:48.576	$GPGGA,140749,2437.9839,N,08044.2737,W,1,8,1.7,19,M,,M,,*59
06/02/2014	14:07:49.555	$GPGGA,140750,2437.9857,N,08044.2734,W,1,8,1.7,20,M,,M,,*50
06/02/2014	14:07:50.565	$GPGGA,140751,2437.9878,N,08044.2731,W,1,8,1.7,20,M,,M,,*59
06/02/2014	14:07:51.555	$GPGGA,140752,2437.9896,N,08044.2728,W,1,8,1.7,20,M,,M,,*52
06/02/2014	14:07:52.555	$GPGGA,140753,2437.9917,N,08044.2727,W,1,8,1.7,20,M,,M,,*54
06/02/2014	14:07:53.545	$GPGGA,140754,2437.9935,N,08044.2722,W,1,8,1.7,20,M,,M,,*56
06/02/2014	14:07:54.555	$GPGGA,140755,2437.9953,N,08044.2718,W,1,8,1.7,20,M,,M,,*5E
06/02/2014	14:07:55.535	$GPGGA,140756,2437.9971,N,08044.2720,W,1,8,2.7,20,M,,M,,*55
06/02/2014	14:07:56.555	$GPGGA,140757,2437.9990,N,08044.2717,W,1,7,2.7,20,M,,M,,*50
06/02/2014	14:07:57.535	$GPGGA,140758,2438.0009,N,08044.2712,W,1,7,1.7,20,M,,M,,*56
06/02/2014	14:07:58.555	$GPGGA,140759,2438.0029,N,08044.2706,W,1,8,1.7,20,M,,M,,*5F
06/02/2014	14:07:59.545	$GPGGA,140800,2438.0048,N,08044.2705,W,1,8,1.7,20,M,,M,,*58
06/02/2014	14:08:00.525	$GPGGA,140801,2438.0066,N,08044.2704,W,1,8,2.7,21,M,,M,,*56
06/02/2014	14:08:01.525	$GPGGA,140802,2438.0085,N,08044.2696,W,1,8,1.7,21,M,,M,,*51
06/02/2014	14:08:02.545	$GPGGA,140803,2438.0102,N,08044.2690,W,1,8,1.7,21,M,,M,,*58
06/02/2014	14:08:03.545	$GPGGA,140804,2438.0121,N,08044.2687,W,1,8,1.7,21,M,,M,,*58
06/02/2014	14:08:04.545	$GPGGA,140805,2438.0139,N,08044.2683,W,1,8,1.7,21,M,,M,,*54
06/02/2014	14:08:05.635	$GPGGA,140806,2438.0157,N,08044.2677,W,1,8,1.7,21,M,,M,,*54
06/02/2014	14:08:06.535	$GPGGA,140807,2438.0177,N,08044.2673,W,1,8,2.7,21,M,,M,,*50
06/02/2014	14:08:07.514	$GPGGA,140808,2438.0195,N,08044.2671,W,1,8,1.7,21,M,,M,,*52
06/02/2014	14:08:08.594	$GPGGA,140809,2438.0212,N,08044.2665,W,1,8,1.7,21,M,,M,,*5A
06/02/2014	14:08:09.494	$GPGGA,140810,2438.0233,N,08044.2661,W,1,8,1.7,21,M,,M,,*55
06/02/2014	14:08:10.614	$GPGGA,140811,2438.0251,N,08044.2658,W,1,8,2.7,21,M,,M,,*59
06/02/2014	14:08:11.624	$GPGGA,140812,2438.0271,N,08044.2654,W,1,8,1.7,21,M,,M,,*57
06/02/2014	14:08:12.594	$GPGGA,140813,2438.0290,N,08044.2648,W,1,8,1.7,22,M,,M,,*57
06/02/2014	14:08:13.514	$GPGGA,140814,2438.0309,N,08044.2643,W,1,8,1.7,22,M,,M,,*5A
06/02/2014	14:08:14.524	$GPGGA,140815,2438.0327,N,08044.2642,W,1,8,1.7,22,M,,M,,*56
06/02/2014	14:08:15.524	$GPGGA,140816,2438.0348,N,08044.2639,W,1,8,1.7,22,M,,M,,*50
06/02/2014	14:08:16.514	$GPGGA,140817,2438.0367,N,08044.2630,W,1,8,2.7,22,M,,M,,*56
06/02/2014	14:08:17.505	$GPGGA,140818,2438.0385,N,08044.2625,W,1,8,1.7,22,M,,M,,*52
06/02/2014	14:08:18.484	$GPGGA,140819,2438.0405,N,08044.2626,W,1,8,1.7,22,M,,M,,*5F
06/02/2014	14:08:19.614	$GPGGA,140820,2438.0423,N,08044.2623,W,1,8,1.7,22,M,,M,,*54
06/02/2014	14:08:20.634	$GPGGA,140821,2438.0443,N,08044.2615,W,1,8,1.7,22,M,,M,,*56
06/02/2014	14:08:21.575	$GPGGA,140822,2438.0461,N,08044.2612,W,1,8,1.7,22,M,,M,,*52
06/02/2014	14:08:22.584	$GPGGA,140823,2438.0479,N,08044.2612,W,1,8,1.7,22,M,,M,,*5A
06/02/2014	14:08:23.505	$GPGGA,140824,2438.0499,N,08044.2610,W,1,8,2.7,23,M,,M,,*53
06/02/2014	14:08:24.563	$GPGGA,140825,2438.0518,N,08044.2605,W,1,7,2.7,23,M,,M,,*51
06/02/2014	14:08:25.573	$GPGGA,140826,2438.0536,N,08044.2602,W,1,7,1.7,23,M,,M,,*5A
06/02/2014	14:08:26.573	$GPGGA,140827,2438.0555,N,08044.2601,W,1,8,1.7,23,M,,M,,*52
06/02/2014	14:08:27.563	$GPGGA,140828,2438.0575,N,08044.2599,W,1,8,1.7,23,M,,M,,*5D
06/02/2014	14:08:28.573	$GPGGA,140829,2438.0594,N,08044.2598,W,1,8,1.7,23,M,,M,,*52
06/02/2014	14:08:29.563	$GPGGA,140830,2438.0613,N,08044.2595,W,1,8,1.7,23,M,,M,,*5B
06/02/2014	14:08:30.553	$GPGGA,140831,2438.0633,N,08044.2591,W,1,8,1.7,23,M,,M,,*5C
06/02/2014	14:08:31.573	$GPGGA,140832,2438.0652,N,08044.2588,W,1,8,1.7,23,M,,M,,*50
06/02/2014	14:08:32.543	$GPGGA,140833,2438.0669,N,08044.2590,W,1,8,1.7,23,M,,M,,*50
06/02/2014	14:08:33.553	$GPGGA,140834,2438.0688,N,08044.2587,W,1,8,2.7,23,M,,M,,*5D
06/02/2014	14:08:34.573	$GPGGA,140835,2438.0706,N,08044.2579,W,1,7,2.7,23,M,,M,,*55
06/02/2014	14:08:35.563	$GPGGA,140836,2438.0724,N,08044.2576,W,1,7,1.7,23,M,,M,,*5A
06/02/2014	14:08:36.563	$GPGGA,140837,2438.0742,N,08044.2576,W,1,8,1.7,23,M,,M,,*54
06/02/2014	14:08:37.543	$GPGGA,140838,2438.0760,N,08044.2571,W,1,8,1.7,23,M,,M,,*5C
06/02/2014	14:08:38.563	$GPGGA,140839,2438.0779,N,08044.2565,W,1,8,1.7,23,M,,M,,*50
06/02/2014	14:08:39.543	$GPGGA,140840,2438.0797,N,08044.2563,W,1,8,1.7,23,M,,M,,*58
06/02/2014	14:08:40.543	$GPGGA,140841,2438.0817,N,08044.2563,W,1,8,1.7,23,M,,M,,*5E
06/02/2014	14:08:41.523	$GPGGA,140842,2438.0836,N,08044.2560,W,1,8,1.7,23,M,,M,,*5D
06/02/2014	14:08:42.522	$GPGGA,140843,2438.0854,N,08044.2555,W,1,8,1.7,23,M,,M,,*5E
06/02/2014	14:08:43.542	$GPGGA,140844,2438.0873,N,08044.2551,W,1,8,1.7,23,M,,M,,*58
06/02/2014	14:08:44.562	$GPGGA,140845,2438.0891,N,08044.2550,W,1,8,1.7,23,M,,M,,*54
06/02/2014	14:08:45.532	$GPGGA,140846,2438.0911,N,08044.2551,W,1,8,1.7,23,M,,M,,*5F
06/02/2014	14:08:46.562	$GPGGA,140847,2438.0930,N,08044.2546,W,1,8,1.7,23,M,,M,,*5B
06/02/2014	14:08:47.542	$GPGGA,140848,2438.0948,N,08044.2541,W,1,8,1.7,23,M,,M,,*5C
06/02/2014	14:08:48.542	$GPGGA,140849,2438.0967,N,08044.2539,W,1,8,1.7,23,M,,M,,*5F
06/02/2014	14:08:49.512	$GPGGA,140850,2438.0987,N,08044.2538,W,1,8,1.7,23,M,,M,,*58
06/02/2014	14:08:50.552	$GPGGA,140851,2438.1006,N,08044.2536,W,1,7,1.8,23,M,,M,,*56
06/02/2014	14:08:51.532	$GPGGA,140852,2438.1024,N,08044.2532,W,1,7,1.7,23,M,,M,,*5E
06/02/2014	14:08:52.522	$GPGGA,140853,2438.1044,N,08044.2526,W,1,8,1.7,23,M,,M,,*53
06/02/2014	14:08:53.522	$GPGGA,140854,2438.1061,N,08044.2523,W,1,8,1.7,23,M,,M,,*56
06/02/2014	14:08:54.532	$GPGGA,140855,2438.1081,N,08044.2522,W,1,8,1.7,23,M,,M,,*58
06/02/2014	14:08:55.522	$GPGGA,140856,2438.1100,N,08044.2518,W,1,8,1.7,23,M,,M,,*5A
06/02/2014	14:08:56.492	$GPGGA,140857,2438.1118,N,08044.2514,W,1,8,1.7,23,M,,M,,*5E
06/02/2014	14:08:57.612	$GPGGA,140858,2438.1139,N,08044.2508,W,1,8,1.7,23,M,,M,,*5F
06/02/2014	14:08:58.503	$GPGGA,140859,2438.1158,N,08044.2507,W,1,7,1.8,23,M,,M,,*56
06/02/2014	14:08:59.631	$GPGGA,140900,2438.1176,N,08044.2505,W,1,7,1.7,23,M,,M,,*5A
06/02/2014	14:09:00.611	$GPGGA,140901,2438.1198,N,08044.2498,W,1,8,1.7,23,M,,M,,*51
06/02/2014	14:09:01.491	$GPGGA,140902,2438.1218,N,08044.2492,W,1,8,1.7,23,M,,M,,*53
06/02/2014	14:09:02.501	$GPGGA,140903,2438.1237,N,08044.2491,W,1,8,1.7,23,M,,M,,*5C
06/02/2014	14:09:03.501	$GPGGA,140904,2438.1255,N,08044.2489,W,1,8,1.7,23,M,,M,,*56
06/02/2014	14:09:04.511	$GPGGA,140905,2438.1276,N,08044.2483,W,1,8,1.7,23,M,,M,,*5C
06/02/2014	14:09:05.611	$GPGGA,140906,2438.1295,N,08044.2478,W,1,8,1.7,23,M,,M,,*56
06/02/2014	14:09:06.571	$GPGGA,140907,2438.1313,N,08044.2476,W,1,8,1.7,22,M,,M,,*57
06/02/2014	14:09:07.581	$GPGGA,140908,2438.1334,N,08044.2474,W,1,8,1.7,22,M,,M,,*5F
06/02/2014	14:09:08.571	$GPGGA,140909,2438.1353,N,08044.2467,W,1,8,1.7,22,M,,M,,*5D
06/02/2014	14:09:09.511	$GPGGA,140910,2438.1373,N,08044.2461,W,1,8,1.7,22,M,,M,,*51
06/02/2014	14:09:10.591	$GPGGA,140911,2438.1392,N,08044.2460,W,1,8,1.7,22,M,,M,,*5E
06/02/2014	14:09:11.572	$GPGGA,140912,2438.1411,N,08044.2455,W,1,8,1.7,22,M,,M,,*57
06/02/2014	14:09:12.593	$GPGGA,140913,2438.1429,N,08044.2448,W,1,7,2.8,22,M,,M,,*52
06/02/2014	14:09:13.571	$GPGGA,140914,2438.1449,N,08044.2443,W,1,7,1.7,22,M,,M,,*54
06/02/2014	14:09:14.561	$GPGGA,140915,2438.1469,N,08044.2440,W,1,8,1.7,22,M,,M,,*5B
06/02/2014	14:09:15.581	$GPGGA,140916,2438.1489,N,08044.2435,W,1,8,1.7,22,M,,M,,*54
06/02/2014	14:09:16.592	$GPGGA,140917,2438.1508,N,08044.2431,W,1,8,1.7,22,M,,M,,*59
06/02/2014	14:09:17.550	$GPGGA,140918,2438.1526,N,08044.2428,W,1,8,1.7,22,M,,M,,*52
06/02/2014	14:09:18.570	$GPGGA,140919,2438.1548,N,08044.2424,W,1,8,1.7,22,M,,M,,*57
06/02/2014	14:09:19.580	$GPGGA,140920,2438.1566,N,08044.2418,W,1,8,1.7,22,M,,M,,*5E
06/02/2014	14:09:20.560	$GPGGA,140921,2438.1584,N,08044.2414,W,1,8,1.7,22,M,,M,,*5F
06/02/2014	14:09:21.560	$GPGGA,140922,2438.1605,N,08044.2412,W,1,8,1.7,22,M,,M,,*50
06/02/2014	14:09:22.570	$GPGGA,140923,2438.1624,N,08044.2408,W,1,8,1.7,22,M,,M,,*59
06/02/2014	14:09:23.550	$GPGGA,140924,2438.1644,N,08044.2403,W,1,8,2.8,22,M,,M,,*5F
06/02/2014	14:09:24.600	$GPGGA,140925,2438.1664,N,08044.2398,W,1,8,1.7,22,M,,M,,*55
06/02/2014	14:09:25.530	$GPGGA,140926,2438.1684,N,08044.2397,W,1,8,1.7,22,M,,M,,*57
06/02/2014	14:09:26.570	$GPGGA,140927,2438.1702,N,08044.2394,W,1,8,1.7,22,M,,M,,*5A
06/02/2014	14:09:27.550	$GPGGA,140928,2438.1722,N,08044.2388,W,1,8,1.7,22,M,,M,,*5A
06/02/2014	14:09:28.530	$GPGGA,140929,2438.1743,N,08044.2384,W,1,8,1.7,21,M,,M,,*53
06/02/2014	14:09:29.530	$GPGGA,140930,2438.1761,N,08044.2383,W,1,8,1.7,21,M,,M,,*5C
06/02/2014	14:09:30.530	$GPGGA,140931,2438.1781,N,08044.2378,W,1,8,1.7,21,M,,M,,*57
06/02/2014	14:09:31.550	$GPGGA,140932,2438.1800,N,08044.2371,W,1,8,2.8,21,M,,M,,*57
06/02/2014	14:09:32.560	$GPGGA,140933,2438.1819,N,08044.2368,W,1,8,1.7,21,M,,M,,*5A
06/02/2014	14:09:33.510	$GPGGA,140934,2438.1839,N,08044.2365,W,1,8,1.7,21,M,,M,,*52
06/02/2014	14:09:34.509	$GPGGA,140935,2438.1858,N,08044.2363,W,1,7,2.0,21,M,,M,,*59
06/02/2014	14:09:35.539	$GPGGA,140936,2438.1879,N,08044.2359,W,1,7,2.8,21,M,,M,,*58
06/02/2014	14:09:36.509	$GPGGA,140937,2438.1898,N,08044.2355,W,1,8,1.7,21,M,,M,,*59
06/02/2014	14:09:37.519	$GPGGA,140938,2438.1916,N,08044.2354,W,1,8,1.7,21,M,,M,,*50
06/02/2014	14:09:38.529	$GPGGA,140939,2438.1935,N,08044.2352,W,1,8,1.7,21,M,,M,,*56
06/02/2014	14:09:39.529	$GPGGA,140940,2438.1953,N,08044.2345,W,1,8,1.7,21,M,,M,,*5E
06/02/2014	14:09:40.629	$GPGGA,140941,2438.1973,N,08044.2342,W,1,7,1.8,21,M,,M,,*5A
06/02/2014	14:09:41.519	$GPGGA,140942,2438.1992,N,08044.2342,W,1,7,1.7,21,M,,M,,*59
06/02/2014	14:09:42.509	$GPGGA,140943,2438.2013,N,08044.2339,W,1,8,1.7,21,M,,M,,*58
06/02/2014	14:09:43.629	$GPGGA,140944,2438.2035,N,08044.2335,W,1,8,1.7,22,M,,M,,*54
06/02/2014	14:09:44.649	$GPGGA,140945,2438.2053,N,08044.2331,W,1,8,1.7,22,M,,M,,*51
06/02/2014	14:09:45.499	$GPGGA,140946,2438.2072,N,08044.2328,W,1,8,1.7,22,M,,M,,*59
06/02/2014	14:09:46.509	$GPGGA,140947,2438.2092,N,08044.2330,W,1,8,1.7,22,M,,M,,*5F
06/02/2014	14:09:47.519	$GPGGA,140948,2438.2112,N,08044.2329,W,1,8,1.7,22,M,,M,,*51
06/02/2014	14:09:48.489	$GPGGA,140949,2438.2132,N,08044.2323,W,1,8,1.7,22,M,,M,,*58
06/02/2014	14:09:49.579	$GPGGA,140950,2438.2148,N,08044.2320,W,1,8,1.7,22,M,,M,,*5E
06/02/2014	14:09:50.480	$GPGGA,140951,2438.2166,N,08044.2320,W,1,7,2.8,22,M,,M,,*50
06/02/2014	14:09:51.589	$GPGGA,140952,2438.2184,N,08044.2315,W,1,7,1.7,22,M,,M,,*55
06/02/2014	14:09:52.498	$GPGGA,140953,2438.2202,N,08044.2310,W,1,7,2.8,23,M,,M,,*51
06/02/2014	14:09:53.468	$GPGGA,140954,2438.2220,N,08044.2310,W,1,7,1.7,23,M,,M,,*5A
06/02/2014	14:09:54.618	$GPGGA,140955,2438.2238,N,08044.2305,W,1,8,1.7,23,M,,M,,*59
06/02/2014	14:09:55.588	$GPGGA,140956,2438.2256,N,08044.2298,W,1,8,1.7,23,M,,M,,*57
06/02/2014	14:09:56.598	$GPGGA,140957,2438.2273,N,08044.2294,W,1,8,1.7,23,M,,M,,*5D
06/02/2014	14:09:57.568	$GPGGA,140958,2438.2291,N,08044.2292,W,1,8,1.7,23,M,,M,,*58
06/02/2014	14:09:58.598	$GPGGA,140959,2438.2309,N,08044.2287,W,1,8,1.7,24,M,,M,,*5A
06/02/2014	14:09:59.588	$GPGGA,141000,2438.2327,N,08044.2282,W,1,8,1.7,24,M,,M,,*57
06/02/2014	14:10:00.608	$GPGGA,141001,2438.2345,N,08044.2279,W,1,8,1.7,24,M,,M,,*56
06/02/2014	14:10:01.558	$GPGGA,141002,2438.2361,N,08044.2275,W,1,8,1.7,24,M,,M,,*5F
06/02/2014	14:10:02.568	$GPGGA,141003,2438.2381,N,08044.2272,W,1,8,1.7,24,M,,M,,*57
06/02/2014	14:10:03.568	$GPGGA,141004,2438.2400,N,08044.2272,W,1,8,1.7,24,M,,M,,*5E
06/02/2014	14:10:04.578	$GPGGA,141005,2438.2418,N,08044.2268,W,1,8,1.7,25,M,,M,,*5C
06/02/2014	14:10:05.568	$GPGGA,141006,2438.2437,N,08044.2261,W,1,8,1.7,25,M,,M,,*5B
06/02/2014	14:10:06.548	$GPGGA,141007,2438.2457,N,08044.2259,W,1,8,1.7,25,M,,M,,*57
06/02/2014	14:10:07.558	$GPGGA,141008,2438.2473,N,08044.2262,W,1,8,1.7,25,M,,M,,*56
06/02/2014	14:10:08.568	$GPGGA,141009,2438.2491,N,08044.2258,W,1,8,1.7,25,M,,M,,*52
06/02/2014	14:10:09.547	$GPGGA,141010,2438.2509,N,08044.2250,W,1,8,1.7,25,M,,M,,*52
06/02/2014	14:10:10.577	$GPGGA,141011,2438.2527,N,08044.2245,W,1,8,1.7,25,M,,M,,*5B
06/02/2014	14:10:11.557	$GPGGA,141012,2438.2545,N,08044.2247,W,1,8,1.7,26,M,,M,,*5D
06/02/2014	14:10:12.557	$GPGGA,141013,2438.2563,N,08044.2245,W,1,8,1.7,26,M,,M,,*5A
06/02/2014	14:10:13.537	$GPGGA,141014,2438.2581,N,08044.2238,W,1,8,1.7,26,M,,M,,*5B
06/02/2014	14:10:14.567	$GPGGA,141015,2438.2599,N,08044.2231,W,1,8,1.7,26,M,,M,,*5A
06/02/2014	14:10:15.567	$GPGGA,141016,2438.2617,N,08044.2226,W,1,8,1.7,26,M,,M,,*5A
06/02/2014	14:10:16.557	$GPGGA,141017,2438.2635,N,08044.2224,W,1,8,1.7,26,M,,M,,*59
06/02/2014	14:10:17.527	$GPGGA,141018,2438.2653,N,08044.2223,W,1,8,1.7,26,M,,M,,*51
06/02/2014	14:10:18.547	$GPGGA,141019,2438.2671,N,08044.2217,W,1,8,1.7,26,M,,M,,*57
06/02/2014	14:10:19.537	$GPGGA,141020,2438.2690,N,08044.2210,W,1,8,1.7,26,M,,M,,*55
06/02/2014	14:10:20.557	$GPGGA,141021,2438.2706,N,08044.2206,W,1,8,1.7,26,M,,M,,*5D
06/02/2014	14:10:21.517	$GPGGA,141022,2438.2722,N,08044.2207,W,1,8,1.7,26,M,,M,,*59
06/02/2014	14:10:22.527	$GPGGA,141023,2438.2743,N,08044.2201,W,1,7,1.8,26,M,,M,,*59
06/02/2014	14:10:23.517	$GPGGA,141024,2438.2758,N,08044.2194,W,1,7,1.7,26,M,,M,,*54
06/02/2014	14:10:24.517	$GPGGA,141025,2438.2773,N,08044.2190,W,1,8,1.7,26,M,,M,,*57
06/02/2014	14:10:25.527	$GPGGA,141026,2438.2791,N,08044.2186,W,1,8,1.7,26,M,,M,,*5F
06/02/2014	14:10:26.666	$GPGGA,141027,2438.2809,N,08044.2182,W,1,8,1.7,26,M,,M,,*54
06/02/2014	14:10:27.516	$GPGGA,141028,2438.2827,N,08044.2176,W,1,8,1.7,26,M,,M,,*5C
06/02/2014	14:10:28.676	$GPGGA,141029,2438.2844,N,08044.2173,W,1,8,1.7,26,M,,M,,*5D
06/02/2014	14:10:29.516	$GPGGA,141030,2438.2862,N,08044.2172,W,1,8,1.7,26,M,,M,,*50
06/02/2014	14:10:30.507	$GPGGA,141031,2438.2878,N,08044.2167,W,1,7,2.8,26,M,,M,,*5D
06/02/2014	14:10:31.676	$GPGGA,141032,2438.2896,N,08044.2161,W,1,7,1.7,26,M,,M,,*54
06/02/2014	14:10:32.508	$GPGGA,141033,2438.2914,N,08044.2159,W,1,8,1.7,26,M,,M,,*5A
06/02/2014	14:10:33.486	$GPGGA,141034,2438.2931,N,08044.2156,W,1,8,1.7,26,M,,M,,*55
06/02/2014	14:10:34.496	$GPGGA,141035,2438.2949,N,08044.2151,W,1,8,1.7,26,M,,M,,*5C
06/02/2014	14:10:35.506	$GPGGA,141036,2438.2968,N,08044.2147,W,1,8,1.7,26,M,,M,,*5B
06/02/2014	14:10:36.506	$GPGGA,141037,2438.2986,N,08044.2144,W,1,8,1.7,26,M,,M,,*59
06/02/2014	14:10:37.586	$GPGGA,141038,2438.3004,N,08044.2144,W,1,8,2.8,26,M,,M,,*58
06/02/2014	14:10:38.656	$GPGGA,141039,2438.3024,N,08044.2142,W,1,8,1.7,25,M,,M,,*52
06/02/2014	14:10:39.602	$GPGGA,141040,2438.3042,N,08044.2139,W,1,8,1.7,25,M,,M,,*50
06/02/2014	14:10:40.496	$GPGGA,141041,2438.3060,N,08044.2137,W,1,8,1.7,25,M,,M,,*5F
06/02/2014	14:10:41.476	$GPGGA,141042,2438.3079,N,08044.2133,W,1,8,1.7,25,M,,M,,*50
06/02/2014	14:10:42.476	$GPGGA,141043,2438.3098,N,08044.2130,W,1,8,1.7,25,M,,M,,*5D
06/02/2014	14:10:43.656	$GPGGA,141044,2438.3118,N,08044.2131,W,1,8,1.7,25,M,,M,,*52
06/02/2014	14:10:44.565	$GPGGA,141045,2438.3137,N,08044.2128,W,1,8,1.7,25,M,,M,,*56
06/02/2014	14:10:45.475	$GPGGA,141046,2438.3156,N,08044.2121,W,1,8,1.7,25,M,,M,,*5B
06/02/2014	14:10:46.595	$GPGGA,141047,2438.3174,N,08044.2120,W,1,8,1.7,25,M,,M,,*5B
06/02/2014	14:10:47.645	$GPGGA,141048,2438.3192,N,08044.2121,W,1,8,1.7,25,M,,M,,*5D
06/02/2014	14:10:48.605	$GPGGA,141049,2438.3212,N,08044.2116,W,1,8,1.7,24,M,,M,,*52
06/02/2014	14:10:49.625	$GPGGA,141050,2438.3231,N,08044.2113,W,1,8,1.7,24,M,,M,,*5E
06/02/2014	14:10:50.655	$GPGGA,141051,2438.3250,N,08044.2113,W,1,8,1.7,24,M,,M,,*58
06/02/2014	14:10:51.635	$GPGGA,141052,2438.3273,N,08044.2110,W,1,8,1.7,24,M,,M,,*59
06/02/2014	14:10:52.546	$GPGGA,141053,2438.3292,N,08044.2106,W,1,8,1.7,24,M,,M,,*50
06/02/2014	14:10:53.615	$GPGGA,141054,2438.3311,N,08044.2105,W,1,8,1.6,24,M,,M,,*5F
06/02/2014	14:10:54.585	$GPGGA,141055,2438.3331,N,08044.2103,W,1,9,1.7,24,M,,M,,*5A
06/02/2014	14:10:55.645	$GPGGA,141056,2438.3346,N,08044.2102,W,1,9,1.6,24,M,,M,,*59
06/02/2014	14:10:56.535	$GPGGA,141057,2438.3362,N,08044.2100,W,1,9,1.6,24,M,,M,,*5C
06/02/2014	14:10:57.585	$GPGGA,141058,2438.3383,N,08044.2098,W,1,9,1.6,23,M,,M,,*5B
06/02/2014	14:10:58.597	$GPGGA,141059,2438.3402,N,08044.2095,W,1,9,1.6,23,M,,M,,*59
06/02/2014	14:10:59.615	$GPGGA,141100,2438.3422,N,08044.2092,W,1,9,1.6,23,M,,M,,*51
06/02/2014	14:11:00.625	$GPGGA,141101,2438.3441,N,08044.2091,W,1,9,1.6,23,M,,M,,*56
06/02/2014	14:11:01.605	$GPGGA,141102,2438.3459,N,08044.2089,W,1,9,1.6,23,M,,M,,*55
06/02/2014	14:11:02.604	$GPGGA,141103,2438.3479,N,08044.2085,W,1,9,1.6,23,M,,M,,*5A
06/02/2014	14:11:03.614	$GPGGA,141104,2438.3498,N,08044.2082,W,1,9,1.6,23,M,,M,,*55
06/02/2014	14:11:04.574	$GPGGA,141105,2438.3517,N,08044.2082,W,1,9,1.6,23,M,,M,,*52
06/02/2014	14:11:05.524	$GPGGA,141106,2438.3537,N,08044.2077,W,1,9,1.8,23,M,,M,,*57
06/02/2014	14:11:06.584	$GPGGA,141107,2438.3557,N,08044.2074,W,1,9,1.6,23,M,,M,,*5D
06/02/2014	14:11:07.598	$GPGGA,141108,2438.3577,N,08044.2072,W,1,9,1.6,23,M,,M,,*56
06/02/2014	14:11:08.624	$GPGGA,141109,2438.3596,N,08044.2069,W,1,9,1.6,23,M,,M,,*52
06/02/2014	14:11:09.564	$GPGGA,141110,2438.3614,N,08044.2067,W,1,9,1.6,23,M,,M,,*5D
06/02/2014	14:11:10.544	$GPGGA,141111,2438.3633,N,08044.2064,W,1,9,1.6,22,M,,M,,*5B
06/02/2014	14:11:11.584	$GPGGA,141112,2438.3654,N,08044.2059,W,1,9,1.7,22,M,,M,,*56
06/02/2014	14:11:12.534	$GPGGA,141113,2438.3671,N,08044.2055,W,1,8,1.6,22,M,,M,,*5C
06/02/2014	14:11:13.604	$GPGGA,141114,2438.3690,N,08044.2052,W,1,8,1.6,22,M,,M,,*53
06/02/2014	14:11:14.534	$GPGGA,141115,2438.3711,N,08044.2050,W,1,9,1.7,22,M,,M,,*58
06/02/2014	14:11:15.574	$GPGGA,141116,2438.3727,N,08044.2046,W,1,9,1.6,22,M,,M,,*58
06/02/2014	14:11:16.494	$GPGGA,141117,2438.3745,N,08044.2042,W,1,9,1.6,22,M,,M,,*59
06/02/2014	14:11:17.595	$GPGGA,141118,2438.3766,N,08044.2037,W,1,9,1.6,22,M,,M,,*55
06/02/2014	14:11:18.495	$GPGGA,141119,2438.3784,N,08044.2035,W,1,9,1.6,22,M,,M,,*5A
06/02/2014	14:11:19.574	$GPGGA,141120,2438.3802,N,08044.2033,W,1,9,1.6,22,M,,M,,*57
06/02/2014	14:11:20.633	$GPGGA,141121,2438.3821,N,08044.2027,W,1,9,1.6,22,M,,M,,*52
06/02/2014	14:11:21.484	$GPGGA,141122,2438.3841,N,08044.2023,W,1,9,1.6,22,M,,M,,*53
06/02/2014	14:11:22.553	$GPGGA,141123,2438.3860,N,08044.2021,W,1,9,1.6,22,M,,M,,*53
06/02/2014	14:11:23.613	$GPGGA,141124,2438.3880,N,08044.2017,W,1,9,1.6,22,M,,M,,*5F
06/02/2014	14:11:24.513	$GPGGA,141125,2438.3900,N,08044.2014,W,1,9,1.6,22,M,,M,,*54
06/02/2014	14:11:25.593	$GPGGA,141126,2438.3918,N,08044.2010,W,1,9,1.6,22,M,,M,,*5A
06/02/2014	14:11:26.613	$GPGGA,141127,2438.3938,N,08044.2005,W,1,9,1.6,22,M,,M,,*5D
06/02/2014	14:11:27.613	$GPGGA,141128,2438.3957,N,08044.2000,W,1,9,1.6,22,M,,M,,*5E
06/02/2014	14:11:28.583	$GPGGA,141129,2438.3976,N,08044.1998,W,1,9,1.6,22,M,,M,,*57
06/02/2014	14:11:29.533	$GPGGA,141130,2438.3996,N,08044.1994,W,1,9,1.6,22,M,,M,,*5D
06/02/2014	14:11:30.583	$GPGGA,141131,2438.4015,N,08044.1990,W,1,9,1.6,22,M,,M,,*5D
06/02/2014	14:11:31.583	$GPGGA,141132,2438.4034,N,08044.1985,W,1,9,1.6,22,M,,M,,*59
06/02/2014	14:11:32.573	$GPGGA,141133,2438.4054,N,08044.1982,W,1,9,1.6,22,M,,M,,*59
06/02/2014	14:11:33.573	$GPGGA,141134,2438.4073,N,08044.1979,W,1,9,1.6,22,M,,M,,*5F
06/02/2014	14:11:34.563	$GPGGA,141135,2438.4091,N,08044.1974,W,1,9,1.6,22,M,,M,,*5F
06/02/2014	14:11:35.603	$GPGGA,141136,2438.4110,N,08044.1970,W,1,9,1.6,22,M,,M,,*50
06/02/2014	14:11:36.573	$GPGGA,141137,2438.4130,N,08044.1966,W,1,9,1.6,22,M,,M,,*54
06/02/2014	14:11:37.562	$GPGGA,141138,2438.4151,N,08044.1962,W,1,9,1.6,22,M,,M,,*58
06/02/2014	14:11:38.552	$GPGGA,141139,2438.4151,N,08044.1962,W,1,9,1.6,22,M,,M,,*59
06/02/2014	14:11:39.572	$GPGGA,141140,2438.4188,N,08044.1958,W,1,9,1.6,22,M,,M,,*5A
06/02/2014	14:11:40.642	$GPGGA,141141,2438.4207,N,08044.1955,W,1,9,1.6,22,M,,M,,*52
06/02/2014	14:11:41.563	$GPGGA,141142,2438.4227,N,08044.1947,W,1,9,1.6,22,M,,M,,*50
06/02/2014	14:11:42.572	$GPGGA,141143,2438.4245,N,08044.1944,W,1,9,1.6,22,M,,M,,*56
06/02/2014	14:11:43.592	$GPGGA,141144,2438.4261,N,08044.1947,W,1,9,1.6,22,M,,M,,*54
06/02/2014	14:11:44.562	$GPGGA,141145,2438.4283,N,08044.1943,W,1,9,1.8,22,M,,M,,*53
06/02/2014	14:11:45.542	$GPGGA,141146,2438.4303,N,08044.1933,W,1,9,1.6,22,M,,M,,*50
06/02/2014	14:11:46.552	$GPGGA,141147,2438.4319,N,08044.1932,W,1,9,1.6,22,M,,M,,*5B
06/02/2014	14:11:47.562	$GPGGA,141148,2438.4337,N,08044.1933,W,1,9,1.7,22,M,,M,,*58
06/02/2014	14:11:48.602	$GPGGA,141149,2438.4355,N,08044.1927,W,1,8,1.6,22,M,,M,,*58
