Software Version Number: 1	Data File Format Number: 1	Build Version Number: 1	Error Count Since VI Started: 0	Manufacturer: Raytheon	 Model Number: RayMarine 120	 S/N: 	 Cal Date: 	 Wind Direction Offset: 0.00	 Slope (M)1: 0.00	 Offset (B)1: 0.00	 Slope (M)2: 0.00	 Offset (B)2: 0.00	 Slope (M)3: 0.00	 Offset (B)3: 0.00	 Slope (M)4: 0.00	 Offset (B)4: 0.00	 Slope (M)5: 0.00	 Offset (B)5: 0.00	 Slope (M)6: 0.00	 Offset (B)6: 0.00
Computer Date	Computer Time	GGA String
05/31/2014	19:00:00.583	$GPGGA,190001,2507.9124,N,07918.6004,W,1,10,1.6,18,M,,M,,*6D
05/31/2014	19:00:01.566	$GPGGA,190002,2507.9127,N,07918.6017,W,1,10,1.6,18,M,,M,,*6F
05/31/2014	19:00:02.597	$GPGGA,190003,2507.9128,N,07918.6031,W,1,10,1.6,18,M,,M,,*65
05/31/2014	19:00:03.589	$GPGGA,190004,2507.9130,N,07918.6045,W,1,10,1.6,18,M,,M,,*68
05/31/2014	19:00:04.592	$GPGGA,190005,2507.9133,N,07918.6059,W,1,10,1.6,18,M,,M,,*67
05/31/2014	19:00:05.563	$GPGGA,190006,2507.9135,N,07918.6073,W,1,10,1.6,18,M,,M,,*6A
05/31/2014	19:00:06.595	$GPGGA,190007,2507.9137,N,07918.6087,W,1,10,1.6,17,M,,M,,*6D
05/31/2014	19:00:07.597	$GPGGA,190008,2507.9138,N,07918.6102,W,1,10,1.6,17,M,,M,,*61
05/31/2014	19:00:08.580	$GPGGA,190009,2507.9139,N,07918.6116,W,1,10,1.6,17,M,,M,,*64
05/31/2014	19:00:09.682	$GPGGA,190010,2507.9142,N,07918.6131,W,1,10,1.6,17,M,,M,,*65
05/31/2014	19:00:10.664	$GPGGA,190011,2507.9145,N,07918.6145,W,1,10,1.6,17,M,,M,,*60
05/31/2014	19:00:11.586	$GPGGA,190012,2507.9146,N,07918.6160,W,1,10,1.7,17,M,,M,,*66
05/31/2014	19:00:12.578	$GPGGA,190013,2507.9148,N,07918.6174,W,1,10,1.6,17,M,,M,,*6D
05/31/2014	19:00:13.671	$GPGGA,190014,2507.9151,N,07918.6189,W,1,10,1.6,17,M,,M,,*60
05/31/2014	19:00:14.703	$GPGGA,190015,2507.9153,N,07918.6203,W,1,10,1.6,17,M,,M,,*62
05/31/2014	19:00:15.685	$GPGGA,190016,2507.9153,N,07918.6217,W,1,10,1.6,17,M,,M,,*64
05/31/2014	19:00:16.677	$GPGGA,190017,2507.9156,N,07918.6232,W,1,10,1.6,17,M,,M,,*67
05/31/2014	19:00:17.670	$GPGGA,190018,2507.9159,N,07918.6246,W,1,10,1.6,17,M,,M,,*64
05/31/2014	19:00:20.176	$GPGGA,190020,2507.9162,N,07918.6275,W,1,10,1.6,17,M,,M,,*67
05/31/2014	19:00:20.695	$GPGGA,190021,2507.9164,N,07918.6288,W,1,10,1.6,17,M,,M,,*62
05/31/2014	19:00:21.667	$GPGGA,190022,2507.9167,N,07918.6304,W,1,10,1.6,17,M,,M,,*67
05/31/2014	19:00:22.690	$GPGGA,190023,2507.9170,N,07918.6318,W,1,10,1.6,17,M,,M,,*6D
05/31/2014	19:00:23.682	$GPGGA,190024,2507.9171,N,07918.6333,W,1,10,1.6,17,M,,M,,*62
05/31/2014	19:00:24.664	$GPGGA,190025,2507.9173,N,07918.6349,W,1,8,2.0,17,M,,M,,*50
05/31/2014	19:00:25.666	$GPGGA,190026,2507.9175,N,07918.6363,W,1,8,1.7,17,M,,M,,*59
05/31/2014	19:00:26.658	$GPGGA,190027,2507.9178,N,07918.6376,W,1,10,1.6,17,M,,M,,*69
05/31/2014	19:00:27.549	$GPGGA,190028,2507.9178,N,07918.6389,W,1,10,1.6,17,M,,M,,*66
05/31/2014	19:00:28.561	$GPGGA,190029,2507.9181,N,07918.6403,W,1,10,1.6,17,M,,M,,*64
05/31/2014	19:00:29.533	$GPGGA,190030,2507.9182,N,07918.6417,W,1,10,1.6,17,M,,M,,*6A
05/31/2014	19:00:30.555	$GPGGA,190031,2507.9185,N,07918.6431,W,1,9,1.7,17,M,,M,,*51
05/31/2014	19:00:31.537	$GPGGA,190032,2507.9188,N,07918.6445,W,1,9,1.7,16,M,,M,,*5D
05/31/2014	19:00:32.570	$GPGGA,190033,2507.9187,N,07918.6460,W,1,10,1.6,16,M,,M,,*6D
05/31/2014	19:00:33.532	$GPGGA,190034,2507.9189,N,07918.6472,W,1,10,1.6,16,M,,M,,*67
05/31/2014	19:00:34.534	$GPGGA,190035,2507.9192,N,07918.6486,W,1,10,1.6,16,M,,M,,*67
05/31/2014	19:00:35.546	$GPGGA,190036,2507.9193,N,07918.6500,W,1,10,1.6,16,M,,M,,*6A
05/31/2014	19:00:36.528	$GPGGA,190037,2507.9195,N,07918.6514,W,1,10,1.6,16,M,,M,,*68
05/31/2014	19:00:37.530	$GPGGA,190038,2507.9196,N,07918.6528,W,1,10,1.6,16,M,,M,,*6B
05/31/2014	19:00:38.552	$GPGGA,190039,2507.9198,N,07918.6542,W,1,10,1.6,16,M,,M,,*68
05/31/2014	19:00:39.544	$GPGGA,190040,2507.9199,N,07918.6554,W,1,10,1.6,16,M,,M,,*60
05/31/2014	19:00:40.536	$GPGGA,190041,2507.9200,N,07918.6568,W,1,10,1.6,16,M,,M,,*6D
05/31/2014	19:00:41.548	$GPGGA,190042,2507.9203,N,07918.6582,W,1,10,1.6,16,M,,M,,*69
05/31/2014	19:00:42.561	$GPGGA,190043,2507.9203,N,07918.6597,W,1,10,1.6,16,M,,M,,*6C
05/31/2014	19:00:43.553	$GPGGA,190044,2507.9206,N,07918.6609,W,1,10,1.6,16,M,,M,,*6A
05/31/2014	19:00:44.645	$GPGGA,190045,2507.9207,N,07918.6623,W,1,10,1.6,16,M,,M,,*62
05/31/2014	19:00:45.537	$GPGGA,190046,2507.9209,N,07918.6637,W,1,10,1.7,16,M,,M,,*6B
05/31/2014	19:00:46.549	$GPGGA,190047,2507.9211,N,07918.6651,W,1,10,1.6,16,M,,M,,*62
05/31/2014	19:00:49.155	$GPGGA,190049,2507.9213,N,07918.6678,W,1,10,1.6,16,M,,M,,*65
05/31/2014	19:00:49.626	$GPGGA,190050,2507.9216,N,07918.6691,W,1,10,1.7,16,M,,M,,*6E
05/31/2014	19:00:50.528	$GPGGA,190051,2507.9218,N,07918.6705,W,1,9,1.7,16,M,,M,,*55
05/31/2014	19:00:51.650	$GPGGA,190052,2507.9220,N,07918.6720,W,1,9,1.6,17,M,,M,,*5A
05/31/2014	19:00:52.633	$GPGGA,190053,2507.9219,N,07918.6734,W,1,10,1.6,17,M,,M,,*6C
05/31/2014	19:00:53.545	$GPGGA,190054,2507.9222,N,07918.6748,W,1,10,1.7,17,M,,M,,*69
05/31/2014	19:00:54.648	$GPGGA,190055,2507.9227,N,07918.6760,W,1,10,1.6,17,M,,M,,*66
05/31/2014	19:00:55.678	$GPGGA,190056,2507.9226,N,07918.6775,W,1,10,1.6,17,M,,M,,*60
05/31/2014	19:00:56.660	$GPGGA,190057,2507.9228,N,07918.6788,W,1,9,1.7,17,M,,M,,*54
05/31/2014	19:00:57.633	$GPGGA,190058,2507.9231,N,07918.6803,W,1,9,1.6,17,M,,M,,*5E
05/31/2014	19:00:58.635	$GPGGA,190059,2507.9232,N,07918.6815,W,1,10,1.6,17,M,,M,,*63
05/31/2014	19:00:59.657	$GPGGA,190100,2507.9234,N,07918.6829,W,1,10,1.6,17,M,,M,,*67
05/31/2014	19:01:00.659	$GPGGA,190101,2507.9235,N,07918.6843,W,1,10,1.6,17,M,,M,,*6B
05/31/2014	19:01:01.642	$GPGGA,190102,2507.9236,N,07918.6857,W,1,10,1.6,17,M,,M,,*6E
05/31/2014	19:01:02.654	$GPGGA,190103,2507.9239,N,07918.6871,W,1,10,1.6,17,M,,M,,*64
05/31/2014	19:01:03.646	$GPGGA,190104,2507.9242,N,07918.6884,W,1,10,1.6,18,M,,M,,*6A
05/31/2014	19:01:04.648	$GPGGA,190105,2507.9243,N,07918.6898,W,1,10,1.6,18,M,,M,,*67
05/31/2014	19:01:05.640	$GPGGA,190106,2507.9245,N,07918.6912,W,1,10,1.6,18,M,,M,,*61
05/31/2014	19:01:06.652	$GPGGA,190107,2507.9247,N,07918.6926,W,1,10,1.6,18,M,,M,,*65
05/31/2014	19:01:07.645	$GPGGA,190108,2507.9250,N,07918.6940,W,1,10,1.6,18,M,,M,,*6C
05/31/2014	19:01:08.657	$GPGGA,190109,2507.9250,N,07918.6954,W,1,10,1.6,18,M,,M,,*68
05/31/2014	19:01:09.639	$GPGGA,190110,2507.9254,N,07918.6969,W,1,10,1.6,18,M,,M,,*6A
05/31/2014	19:01:10.651	$GPGGA,190111,2507.9257,N,07918.6983,W,1,10,1.6,18,M,,M,,*6C
05/31/2014	19:01:11.643	$GPGGA,190112,2507.9258,N,07918.6996,W,1,10,1.6,18,M,,M,,*64
05/31/2014	19:01:12.656	$GPGGA,190113,2507.9261,N,07918.7012,W,1,10,1.6,18,M,,M,,*6B
05/31/2014	19:01:13.637	$GPGGA,190114,2507.9263,N,07918.7027,W,1,10,1.6,18,M,,M,,*68
05/31/2014	19:01:14.659	$GPGGA,190115,2507.9265,N,07918.7041,W,1,10,1.6,18,M,,M,,*6F
05/31/2014	19:01:15.651	$GPGGA,190116,2507.9268,N,07918.7056,W,1,10,1.6,18,M,,M,,*67
05/31/2014	19:01:16.633	$GPGGA,190117,2507.9269,N,07918.7070,W,1,10,1.6,18,M,,M,,*63
05/31/2014	19:01:17.646	$GPGGA,190118,2507.9272,N,07918.7084,W,1,10,1.6,19,M,,M,,*6C
05/31/2014	19:01:18.638	$GPGGA,190119,2507.9275,N,07918.7099,W,1,10,1.6,19,M,,M,,*66
05/31/2014	19:01:19.640	$GPGGA,190120,2507.9276,N,07918.7113,W,1,10,1.6,19,M,,M,,*6C
05/31/2014	19:01:20.632	$GPGGA,190121,2507.9279,N,07918.7128,W,1,10,1.6,19,M,,M,,*6A
05/31/2014	19:01:21.635	$GPGGA,190122,2507.9281,N,07918.7142,W,1,10,1.6,19,M,,M,,*62
05/31/2014	19:01:22.657	$GPGGA,190123,2507.9283,N,07918.7155,W,1,10,1.6,19,M,,M,,*67
05/31/2014	19:01:23.639	$GPGGA,190124,2507.9286,N,07918.7171,W,1,10,1.6,19,M,,M,,*63
05/31/2014	19:01:24.631	$GPGGA,190125,2507.9286,N,07918.7184,W,1,10,1.6,19,M,,M,,*68
05/31/2014	19:01:25.644	$GPGGA,190126,2507.9289,N,07918.7200,W,1,10,1.6,19,M,,M,,*6B
05/31/2014	19:01:26.625	$GPGGA,190127,2507.9292,N,07918.7215,W,1,10,1.6,19,M,,M,,*64
05/31/2014	19:01:27.537	$GPGGA,190128,2507.9294,N,07918.7229,W,1,10,1.6,19,M,,M,,*62
05/31/2014	19:01:28.499	$GPGGA,190129,2507.9296,N,07918.7243,W,1,10,1.6,19,M,,M,,*6D
05/31/2014	19:01:29.511	$GPGGA,190130,2507.9297,N,07918.7256,W,1,10,1.6,19,M,,M,,*60
05/31/2014	19:01:30.602	$GPGGA,190131,2507.9299,N,07918.7272,W,1,10,1.6,19,M,,M,,*69
05/31/2014	19:01:31.514	$GPGGA,190132,2507.9301,N,07918.7284,W,1,10,1.6,19,M,,M,,*63
05/31/2014	19:01:32.526	$GPGGA,190133,2507.9305,N,07918.7298,W,1,10,1.6,19,M,,M,,*6B
05/31/2014	19:01:33.499	$GPGGA,190134,2507.9305,N,07918.7313,W,1,10,1.6,19,M,,M,,*6E
05/31/2014	19:01:34.622	$GPGGA,190135,2507.9308,N,07918.7327,W,1,10,1.6,19,M,,M,,*65
05/31/2014	19:01:35.503	$GPGGA,190136,2507.9311,N,07918.7342,W,1,10,1.6,19,M,,M,,*6D
05/31/2014	19:01:36.495	$GPGGA,190137,2507.9312,N,07918.7356,W,1,10,1.6,19,M,,M,,*6A
05/31/2014	19:01:37.507	$GPGGA,190138,2507.9314,N,07918.7371,W,1,10,1.6,19,M,,M,,*66
05/31/2014	19:01:38.610	$GPGGA,190139,2507.9315,N,07918.7385,W,1,10,1.6,18,M,,M,,*6C
05/31/2014	19:01:39.652	$GPGGA,190140,2507.9318,N,07918.7399,W,1,10,1.6,18,M,,M,,*62
05/31/2014	19:01:40.614	$GPGGA,190141,2507.9319,N,07918.7414,W,1,10,1.6,18,M,,M,,*60
05/31/2014	19:01:41.596	$GPGGA,190142,2507.9323,N,07918.7428,W,1,10,1.6,18,M,,M,,*65
05/31/2014	19:01:42.599	$GPGGA,190143,2507.9325,N,07918.7442,W,1,10,1.6,18,M,,M,,*6E
05/31/2014	19:01:43.621	$GPGGA,190144,2507.9326,N,07918.7457,W,1,10,1.6,18,M,,M,,*6E
05/31/2014	19:01:44.635	$GPGGA,190145,2507.9328,N,07918.7471,W,1,10,1.6,18,M,,M,,*65
05/31/2014	19:01:45.606	$GPGGA,190146,2507.9330,N,07918.7486,W,1,10,1.6,18,M,,M,,*67
05/31/2014	19:01:46.617	$GPGGA,190147,2507.9332,N,07918.7500,W,1,10,1.6,18,M,,M,,*6B
05/31/2014	19:01:47.611	$GPGGA,190148,2507.9333,N,07918.7514,W,1,10,1.6,18,M,,M,,*60
05/31/2014	19:01:48.601	$GPGGA,190149,2507.9336,N,07918.7529,W,1,10,1.6,18,M,,M,,*6A
05/31/2014	19:01:49.613	$GPGGA,190150,2507.9339,N,07918.7543,W,1,10,1.6,18,M,,M,,*61
05/31/2014	19:01:50.616	$GPGGA,190151,2507.9340,N,07918.7558,W,1,10,1.6,18,M,,M,,*64
05/31/2014	19:01:51.617	$GPGGA,190152,2507.9341,N,07918.7572,W,1,10,1.6,18,M,,M,,*6E
05/31/2014	19:01:52.600	$GPGGA,190153,2507.9343,N,07918.7587,W,1,10,1.6,18,M,,M,,*67
05/31/2014	19:01:53.602	$GPGGA,190154,2507.9346,N,07918.7601,W,1,10,1.6,18,M,,M,,*68
05/31/2014	19:01:54.594	$GPGGA,190155,2507.9348,N,07918.7616,W,1,10,1.6,18,M,,M,,*61
05/31/2014	19:01:55.636	$GPGGA,190156,2507.9348,N,07918.7630,W,1,10,1.6,18,M,,M,,*66
05/31/2014	19:01:56.618	$GPGGA,190157,2507.9351,N,07918.7644,W,1,10,1.6,18,M,,M,,*6C
05/31/2014	19:01:57.611	$GPGGA,190158,2507.9354,N,07918.7657,W,1,10,1.6,18,M,,M,,*64
05/31/2014	19:01:58.593	$GPGGA,190159,2507.9355,N,07918.7671,W,1,10,1.6,18,M,,M,,*60
05/31/2014	19:01:59.625	$GPGGA,190200,2507.9355,N,07918.7685,W,1,10,1.6,18,M,,M,,*64
05/31/2014	19:02:00.627	$GPGGA,190201,2507.9359,N,07918.7699,W,1,10,1.6,17,M,,M,,*6B
05/31/2014	19:02:01.609	$GPGGA,190202,2507.9361,N,07918.7714,W,1,10,1.6,17,M,,M,,*67
05/31/2014	19:02:02.612	$GPGGA,190203,2507.9362,N,07918.7728,W,1,10,1.6,17,M,,M,,*6A
05/31/2014	19:02:03.614	$GPGGA,190204,2507.9365,N,07918.7742,W,1,10,1.6,17,M,,M,,*66
05/31/2014	19:02:04.626	$GPGGA,190205,2507.9366,N,07918.7757,W,1,10,1.6,17,M,,M,,*60
05/31/2014	19:02:05.617	$GPGGA,190206,2507.9368,N,07918.7771,W,1,10,1.6,17,M,,M,,*69
05/31/2014	19:02:06.629	$GPGGA,190207,2507.9370,N,07918.7785,W,1,10,1.6,17,M,,M,,*6A
05/31/2014	19:02:08.974	$GPGGA,190209,2507.9373,N,07918.7812,W,1,10,1.6,17,M,,M,,*66
05/31/2014	19:02:09.606	$GPGGA,190210,2507.9373,N,07918.7826,W,1,10,1.6,17,M,,M,,*69
05/31/2014	19:02:10.648	$GPGGA,190211,2507.9377,N,07918.7840,W,1,10,1.6,17,M,,M,,*6C
05/31/2014	19:02:11.630	$GPGGA,190212,2507.9380,N,07918.7854,W,1,10,1.6,17,M,,M,,*62
05/31/2014	19:02:12.592	$GPGGA,190213,2507.9380,N,07918.7869,W,1,10,1.6,17,M,,M,,*6D
05/31/2014	19:02:13.645	$GPGGA,190214,2507.9381,N,07918.7883,W,1,10,1.6,17,M,,M,,*6F
05/31/2014	19:02:14.597	$GPGGA,190215,2507.9386,N,07918.7897,W,1,10,1.6,17,M,,M,,*6C
05/31/2014	19:02:15.721	$GPGGA,190216,2507.9387,N,07918.7912,W,1,10,1.6,17,M,,M,,*62
05/31/2014	19:02:16.721	$GPGGA,190217,2507.9388,N,07918.7926,W,1,10,1.6,17,M,,M,,*6B
05/31/2014	19:02:17.613	$GPGGA,190218,2507.9391,N,07918.7939,W,1,10,1.6,17,M,,M,,*62
05/31/2014	19:02:18.707	$GPGGA,190219,2507.9393,N,07918.7953,W,1,10,1.6,17,M,,M,,*6D
05/31/2014	19:02:19.728	$GPGGA,190220,2507.9395,N,07918.7967,W,1,10,1.6,16,M,,M,,*67
05/31/2014	19:02:20.690	$GPGGA,190221,2507.9397,N,07918.7982,W,1,10,1.6,16,M,,M,,*6F
05/31/2014	19:02:21.602	$GPGGA,190222,2507.9398,N,07918.7996,W,1,10,1.6,16,M,,M,,*66
05/31/2014	19:02:22.604	$GPGGA,190223,2507.9402,N,07918.8010,W,1,10,1.6,16,M,,M,,*6B
05/31/2014	19:02:23.726	$GPGGA,190224,2507.9404,N,07918.8024,W,1,10,1.6,16,M,,M,,*6D
05/31/2014	19:02:24.698	$GPGGA,190225,2507.9406,N,07918.8038,W,1,10,1.6,16,M,,M,,*63
05/31/2014	19:02:25.700	$GPGGA,190226,2507.9408,N,07918.8053,W,1,10,1.6,16,M,,M,,*63
05/31/2014	19:02:26.692	$GPGGA,190227,2507.9409,N,07918.8067,W,1,10,1.6,16,M,,M,,*64
05/31/2014	19:02:27.585	$GPGGA,190228,2507.9413,N,07918.8082,W,1,10,1.6,16,M,,M,,*6B
05/31/2014	19:02:28.596	$GPGGA,190229,2507.9413,N,07918.8096,W,1,10,1.6,16,M,,M,,*6F
05/31/2014	19:02:29.558	$GPGGA,190230,2507.9416,N,07918.8110,W,1,10,1.6,16,M,,M,,*6D
05/31/2014	19:02:30.580	$GPGGA,190231,2507.9419,N,07918.8123,W,1,10,1.6,16,M,,M,,*63
05/31/2014	19:02:31.582	$GPGGA,190232,2507.9420,N,07918.8137,W,1,10,1.6,16,M,,M,,*6F
05/31/2014	19:02:32.585	$GPGGA,190233,2507.9424,N,07918.8152,W,1,10,1.4,16,M,,M,,*6B
05/31/2014	19:02:33.557	$GPGGA,190234,2507.9427,N,07918.8168,W,1,10,1.4,16,M,,M,,*66
05/31/2014	19:02:34.589	$GPGGA,190235,2507.9431,N,07918.8181,W,1,11,1.4,16,M,,M,,*66
05/31/2014	19:02:35.581	$GPGGA,190236,2507.9433,N,07918.8197,W,1,11,1.4,16,M,,M,,*60
05/31/2014	19:02:36.563	$GPGGA,190237,2507.9435,N,07918.8212,W,1,11,1.4,16,M,,M,,*69
05/31/2014	19:02:37.566	$GPGGA,190238,2507.9438,N,07918.8226,W,1,11,1.4,16,M,,M,,*6C
05/31/2014	19:02:38.598	$GPGGA,190239,2507.9441,N,07918.8240,W,1,11,1.4,16,M,,M,,*63
05/31/2014	19:02:39.580	$GPGGA,190240,2507.9442,N,07918.8255,W,1,11,1.4,16,M,,M,,*6A
05/31/2014	19:02:40.591	$GPGGA,190241,2507.9445,N,07918.8269,W,1,11,1.4,16,M,,M,,*63
05/31/2014	19:02:41.563	$GPGGA,190242,2507.9446,N,07918.8282,W,1,11,1.4,16,M,,M,,*66
05/31/2014	19:02:42.596	$GPGGA,190243,2507.9449,N,07918.8298,W,1,11,1.4,16,M,,M,,*63
05/31/2014	19:02:43.578	$GPGGA,190244,2507.9449,N,07918.8311,W,1,11,1.4,16,M,,M,,*64
05/31/2014	19:02:44.560	$GPGGA,190245,2507.9451,N,07918.8325,W,1,10,1.6,17,M,,M,,*69
05/31/2014	19:02:45.572	$GPGGA,190246,2507.9455,N,07918.8342,W,1,10,1.6,17,M,,M,,*6F
05/31/2014	19:02:46.564	$GPGGA,190247,2507.9456,N,07918.8356,W,1,11,1.4,17,M,,M,,*6B
05/31/2014	19:02:47.587	$GPGGA,190248,2507.9458,N,07918.8371,W,1,11,1.6,17,M,,M,,*6D
05/31/2014	19:02:48.599	$GPGGA,190249,2507.9457,N,07918.8383,W,1,10,1.6,17,M,,M,,*6F
05/31/2014	19:02:49.571	$GPGGA,190250,2507.9462,N,07918.8399,W,1,10,1.6,17,M,,M,,*6A
05/31/2014	19:02:50.593	$GPGGA,190251,2507.9464,N,07918.8412,W,1,11,1.4,17,M,,M,,*6A
05/31/2014	19:02:51.585	$GPGGA,190252,2507.9466,N,07918.8428,W,1,11,1.6,17,M,,M,,*60
05/31/2014	19:02:52.598	$GPGGA,190253,2507.9467,N,07918.8441,W,1,11,1.4,17,M,,M,,*6D
05/31/2014	19:02:53.570	$GPGGA,190254,2507.9470,N,07918.8455,W,1,11,1.4,17,M,,M,,*69
05/31/2014	19:02:54.592	$GPGGA,190255,2507.9471,N,07918.8470,W,1,11,1.4,17,M,,M,,*6E
05/31/2014	19:02:55.564	$GPGGA,190256,2507.9474,N,07918.8484,W,1,11,1.4,17,M,,M,,*63
05/31/2014	19:02:56.586	$GPGGA,190257,2507.9475,N,07918.8498,W,1,11,1.4,17,M,,M,,*6E
05/31/2014	19:02:57.558	$GPGGA,190258,2507.9478,N,07918.8513,W,1,11,1.4,17,M,,M,,*6E
05/31/2014	19:02:58.690	$GPGGA,190259,2507.9482,N,07918.8527,W,1,11,1.4,17,M,,M,,*6D
05/31/2014	19:02:59.702	$GPGGA,190300,2507.9485,N,07918.8542,W,1,11,1.4,17,M,,M,,*64
05/31/2014	19:03:00.594	$GPGGA,190301,2507.9488,N,07918.8558,W,1,11,1.4,18,M,,M,,*6C
05/31/2014	19:03:01.556	$GPGGA,190302,2507.9489,N,07918.8571,W,1,11,1.4,18,M,,M,,*65
05/31/2014	19:03:02.669	$GPGGA,190303,2507.9492,N,07918.8585,W,1,11,1.4,18,M,,M,,*65
05/31/2014	19:03:03.581	$GPGGA,190304,2507.9496,N,07918.8600,W,1,11,1.4,18,M,,M,,*68
05/31/2014	19:03:04.573	$GPGGA,190305,2507.9496,N,07918.8614,W,1,11,1.4,18,M,,M,,*6C
05/31/2014	19:03:05.565	$GPGGA,190306,2507.9499,N,07918.8629,W,1,11,1.4,18,M,,M,,*6E
05/31/2014	19:03:06.667	$GPGGA,190307,2507.9503,N,07918.8643,W,1,10,1.4,18,M,,M,,*60
05/31/2014	19:03:07.579	$GPGGA,190308,2507.9505,N,07918.8658,W,1,10,1.4,18,M,,M,,*63
05/31/2014	19:03:08.662	$GPGGA,190309,2507.9506,N,07918.8672,W,1,11,1.4,19,M,,M,,*69
05/31/2014	19:03:09.664	$GPGGA,190310,2507.9509,N,07918.8685,W,1,11,1.4,19,M,,M,,*66
05/31/2014	19:03:10.686	$GPGGA,190311,2507.9510,N,07918.8699,W,1,11,1.4,19,M,,M,,*62
05/31/2014	19:03:11.678	$GPGGA,190312,2507.9511,N,07918.8714,W,1,11,1.6,19,M,,M,,*66
05/31/2014	19:03:12.691	$GPGGA,190313,2507.9514,N,07918.8728,W,1,11,1.4,19,M,,M,,*6F
05/31/2014	19:03:13.663	$GPGGA,190314,2507.9516,N,07918.8743,W,1,11,1.4,19,M,,M,,*67
05/31/2014	19:03:14.676	$GPGGA,190315,2507.9517,N,07918.8757,W,1,11,1.4,19,M,,M,,*62
05/31/2014	19:03:15.676	$GPGGA,190316,2507.9516,N,07918.8768,W,1,11,1.4,19,M,,M,,*6C
05/31/2014	19:03:16.669	$GPGGA,190317,2507.9518,N,07918.8783,W,1,11,1.4,19,M,,M,,*66
05/31/2014	19:03:17.671	$GPGGA,190318,2507.9521,N,07918.8797,W,1,11,1.4,19,M,,M,,*66
05/31/2014	19:03:18.683	$GPGGA,190319,2507.9523,N,07918.8811,W,1,11,1.4,19,M,,M,,*64
05/31/2014	19:03:19.675	$GPGGA,190320,2507.9525,N,07918.8826,W,1,11,1.4,19,M,,M,,*6C
05/31/2014	19:03:20.677	$GPGGA,190321,2507.9529,N,07918.8841,W,1,10,1.4,19,M,,M,,*61
05/31/2014	19:03:21.660	$GPGGA,190322,2507.9531,N,07918.8856,W,1,10,1.4,19,M,,M,,*6D
05/31/2014	19:03:22.652	$GPGGA,190323,2507.9532,N,07918.8871,W,1,11,1.4,19,M,,M,,*6B
05/31/2014	19:03:23.674	$GPGGA,190324,2507.9535,N,07918.8887,W,1,11,1.4,19,M,,M,,*62
05/31/2014	19:03:24.686	$GPGGA,190325,2507.9536,N,07918.8900,W,1,11,1.4,19,M,,M,,*6E
05/31/2014	19:03:25.658	$GPGGA,190326,2507.9539,N,07918.8916,W,1,11,1.4,19,M,,M,,*65
05/31/2014	19:03:26.660	$GPGGA,190327,2507.9542,N,07918.8930,W,1,11,1.4,19,M,,M,,*6C
05/31/2014	19:03:27.541	$GPGGA,190328,2507.9543,N,07918.8943,W,1,11,1.4,19,M,,M,,*66
05/31/2014	19:03:28.533	$GPGGA,190329,2507.9546,N,07918.8959,W,1,11,1.4,19,M,,M,,*69
05/31/2014	19:03:29.535	$GPGGA,190330,2507.9549,N,07918.8972,W,1,11,1.4,19,M,,M,,*67
05/31/2014	19:03:31.990	$GPGGA,190331,2507.9550,N,07918.8986,W,1,11,1.4,19,M,,M,,*65
05/31/2014	19:03:32.026	$GPGGA,190332,2507.9552,N,07918.9000,W,1,11,1.4,20,M,,M,,*68
05/31/2014	19:03:32.531	$GPGGA,190333,2507.9554,N,07918.9014,W,1,11,1.4,20,M,,M,,*6A
05/31/2014	19:03:33.523	$GPGGA,190334,2507.9558,N,07918.9028,W,1,11,1.4,20,M,,M,,*6E
05/31/2014	19:03:35.577	$GPGGA,190336,2507.9561,N,07918.9057,W,1,11,1.4,20,M,,M,,*6E
05/31/2014	19:03:36.640	$GPGGA,190337,2507.9564,N,07918.9072,W,1,11,1.4,20,M,,M,,*6D
05/31/2014	19:03:37.531	$GPGGA,190338,2507.9567,N,07918.9086,W,1,11,1.4,20,M,,M,,*6A
05/31/2014	19:03:38.534	$GPGGA,190339,2507.9568,N,07918.9100,W,1,11,1.4,20,M,,M,,*6B
05/31/2014	19:03:39.666	$GPGGA,190340,2507.9568,N,07918.9113,W,1,11,1.4,20,M,,M,,*67
05/31/2014	19:03:40.648	$GPGGA,190341,2507.9572,N,07918.9127,W,1,11,1.4,20,M,,M,,*6A
05/31/2014	19:03:41.530	$GPGGA,190342,2507.9574,N,07918.9140,W,1,11,1.4,20,M,,M,,*6E
05/31/2014	19:03:42.552	$GPGGA,190343,2507.9576,N,07918.9155,W,1,10,1.6,20,M,,M,,*6A
05/31/2014	19:03:43.545	$GPGGA,190344,2507.9576,N,07918.9169,W,1,10,1.4,20,M,,M,,*60
05/31/2014	19:03:44.547	$GPGGA,190345,2507.9579,N,07918.9183,W,1,11,1.4,20,M,,M,,*6B
05/31/2014	19:03:45.539	$GPGGA,190346,2507.9581,N,07918.9196,W,1,11,1.4,20,M,,M,,*6B
05/31/2014	19:03:46.531	$GPGGA,190347,2507.9582,N,07918.9209,W,1,10,1.6,20,M,,M,,*6F
05/31/2014	19:03:47.664	$GPGGA,190348,2507.9587,N,07918.9225,W,1,10,1.6,20,M,,M,,*6B
05/31/2014	19:03:48.626	$GPGGA,190349,2507.9590,N,07918.9239,W,1,11,1.4,20,M,,M,,*62
05/31/2014	19:03:49.518	$GPGGA,190350,2507.9590,N,07918.9253,W,1,11,1.4,20,M,,M,,*66
05/31/2014	19:03:50.619	$GPGGA,190351,2507.9590,N,07918.9267,W,1,10,1.6,20,M,,M,,*63
05/31/2014	19:03:51.556	$GPGGA,190352,2507.9592,N,07918.9281,W,1,10,1.6,20,M,,M,,*6A
05/31/2014	19:03:52.674	$GPGGA,190353,2507.9594,N,07918.9296,W,1,11,1.4,20,M,,M,,*68
05/31/2014	19:03:53.616	$GPGGA,190354,2507.9596,N,07918.9308,W,1,11,1.4,20,M,,M,,*6B
05/31/2014	19:03:54.648	$GPGGA,190355,2507.9599,N,07918.9324,W,1,10,1.6,20,M,,M,,*68
05/31/2014	19:03:55.640	$GPGGA,190356,2507.9601,N,07918.9337,W,1,10,1.4,20,M,,M,,*69
05/31/2014	19:03:56.652	$GPGGA,190357,2507.9601,N,07918.9351,W,1,11,1.4,20,M,,M,,*69
05/31/2014	19:03:57.625	$GPGGA,190358,2507.9604,N,07918.9366,W,1,11,1.6,20,M,,M,,*65
05/31/2014	19:03:58.637	$GPGGA,190359,2507.9608,N,07918.9380,W,1,11,1.4,20,M,,M,,*62
05/31/2014	19:03:59.659	$GPGGA,190400,2507.9610,N,07918.9394,W,1,11,1.4,20,M,,M,,*65
05/31/2014	19:04:00.641	$GPGGA,190401,2507.9611,N,07918.9409,W,1,11,1.4,20,M,,M,,*66
05/31/2014	19:04:01.623	$GPGGA,190402,2507.9612,N,07918.9423,W,1,11,1.4,20,M,,M,,*6E
05/31/2014	19:04:02.646	$GPGGA,190403,2507.9614,N,07918.9436,W,1,11,1.4,20,M,,M,,*6D
05/31/2014	19:04:03.638	$GPGGA,190404,2507.9613,N,07918.9449,W,1,11,1.6,20,M,,M,,*67
05/31/2014	19:04:04.640	$GPGGA,190405,2507.9615,N,07918.9463,W,1,10,1.6,20,M,,M,,*69
05/31/2014	19:04:05.632	$GPGGA,190406,2507.9619,N,07918.9477,W,1,10,1.4,20,M,,M,,*61
05/31/2014	19:04:06.625	$GPGGA,190407,2507.9621,N,07918.9491,W,1,11,1.4,20,M,,M,,*62
05/31/2014	19:04:07.637	$GPGGA,190408,2507.9622,N,07918.9505,W,1,11,1.4,20,M,,M,,*62
05/31/2014	19:04:08.618	$GPGGA,190409,2507.9623,N,07918.9520,W,1,11,1.4,20,M,,M,,*65
05/31/2014	19:04:09.631	$GPGGA,190410,2507.9626,N,07918.9534,W,1,11,1.4,20,M,,M,,*6D
05/31/2014	19:04:10.622	$GPGGA,190411,2507.9630,N,07918.9548,W,1,10,1.6,20,M,,M,,*63
05/31/2014	19:04:11.634	$GPGGA,190412,2507.9632,N,07918.9563,W,1,10,1.4,20,M,,M,,*69
05/31/2014	19:04:12.627	$GPGGA,190413,2507.9633,N,07918.9578,W,1,11,1.4,20,M,,M,,*62
05/31/2014	19:04:13.629	$GPGGA,190414,2507.9637,N,07918.9592,W,1,11,1.4,20,M,,M,,*65
05/31/2014	19:04:14.661	$GPGGA,190415,2507.9640,N,07918.9606,W,1,11,1.4,20,M,,M,,*6A
05/31/2014	19:04:15.633	$GPGGA,190416,2507.9641,N,07918.9621,W,1,11,1.4,20,M,,M,,*6D
05/31/2014	19:04:16.645	$GPGGA,190417,2507.9643,N,07918.9635,W,1,11,1.4,20,M,,M,,*6B
05/31/2014	19:04:17.617	$GPGGA,190418,2507.9646,N,07918.9650,W,1,11,1.4,20,M,,M,,*62
05/31/2014	19:04:18.620	$GPGGA,190419,2507.9650,N,07918.9664,W,1,11,1.4,20,M,,M,,*63
05/31/2014	19:04:19.652	$GPGGA,190420,2507.9651,N,07918.9678,W,1,11,1.4,20,M,,M,,*65
05/31/2014	19:04:20.654	$GPGGA,190421,2507.9651,N,07918.9693,W,1,11,1.4,20,M,,M,,*61
05/31/2014	19:04:21.626	$GPGGA,190422,2507.9655,N,07918.9707,W,1,11,1.4,20,M,,M,,*6A
05/31/2014	19:04:22.638	$GPGGA,190423,2507.9659,N,07918.9720,W,1,11,1.4,20,M,,M,,*62
05/31/2014	19:04:23.651	$GPGGA,190424,2507.9659,N,07918.9736,W,1,11,1.4,20,M,,M,,*62
05/31/2014	19:04:24.633	$GPGGA,190425,2507.9662,N,07918.9749,W,1,11,1.4,20,M,,M,,*63
05/31/2014	19:04:25.764	$GPGGA,190426,2507.9666,N,07918.9763,W,1,11,1.4,20,M,,M,,*6C
05/31/2014	19:04:26.616	$GPGGA,190427,2507.9668,N,07918.9777,W,1,11,1.4,20,M,,M,,*66
05/31/2014	19:04:27.648	$GPGGA,190428,2507.9669,N,07918.9791,W,1,11,1.4,20,M,,M,,*60
05/31/2014	19:04:28.510	$GPGGA,190429,2507.9672,N,07918.9806,W,1,11,1.4,20,M,,M,,*6A
05/31/2014	19:04:29.592	$GPGGA,190430,2507.9676,N,07918.9820,W,1,11,1.4,20,M,,M,,*62
05/31/2014	19:04:30.504	$GPGGA,190431,2507.9677,N,07918.9834,W,1,11,1.4,20,M,,M,,*67
05/31/2014	19:04:31.647	$GPGGA,190432,2507.9680,N,07918.9848,W,1,11,1.4,20,M,,M,,*67
05/31/2014	19:04:32.508	$GPGGA,190433,2507.9682,N,07918.9863,W,1,11,1.4,20,M,,M,,*6D
05/31/2014	19:04:33.601	$GPGGA,190434,2507.9684,N,07918.9878,W,1,11,1.4,20,M,,M,,*66
05/31/2014	19:04:34.503	$GPGGA,190435,2507.9688,N,07918.9892,W,1,11,1.4,20,M,,M,,*6F
05/31/2014	19:04:35.605	$GPGGA,190436,2507.9690,N,07918.9906,W,1,11,1.4,20,M,,M,,*69
05/31/2014	19:04:36.688	$GPGGA,190437,2507.9691,N,07918.9921,W,1,11,1.4,20,M,,M,,*6C
05/31/2014	19:04:37.499	$GPGGA,190438,2507.9695,N,07918.9935,W,1,11,1.4,20,M,,M,,*62
05/31/2014	19:04:38.692	$GPGGA,190439,2507.9695,N,07918.9949,W,1,11,1.4,20,M,,M,,*68
05/31/2014	19:04:39.654	$GPGGA,190440,2507.9698,N,07918.9964,W,1,11,1.4,20,M,,M,,*64
05/31/2014	19:04:40.706	$GPGGA,190441,2507.9699,N,07918.9978,W,1,11,1.4,20,M,,M,,*69
05/31/2014	19:04:41.618	$GPGGA,190442,2507.9702,N,07918.9993,W,1,11,1.4,20,M,,M,,*6C
05/31/2014	19:04:42.650	$GPGGA,190443,2507.9704,N,07919.0007,W,1,11,1.4,20,M,,M,,*67
05/31/2014	19:04:43.602	$GPGGA,190444,2507.9706,N,07919.0020,W,1,11,1.4,20,M,,M,,*67
05/31/2014	19:04:44.654	$GPGGA,190445,2507.9708,N,07919.0034,W,1,11,1.4,20,M,,M,,*6D
05/31/2014	19:04:45.616	$GPGGA,190446,2507.9709,N,07919.0050,W,1,11,1.4,20,M,,M,,*6D
05/31/2014	19:04:46.679	$GPGGA,190447,2507.9712,N,07919.0063,W,1,11,1.4,20,M,,M,,*66
05/31/2014	19:04:47.642	$GPGGA,190448,2507.9715,N,07919.0077,W,1,11,1.4,20,M,,M,,*6B
05/31/2014	19:04:48.653	$GPGGA,190449,2507.9716,N,07919.0092,W,1,11,1.4,20,M,,M,,*62
05/31/2014	19:04:49.635	$GPGGA,190450,2507.9719,N,07919.0106,W,1,11,1.4,20,M,,M,,*69
05/31/2014	19:04:50.657	$GPGGA,190451,2507.9720,N,07919.0120,W,1,11,1.4,20,M,,M,,*66
05/31/2014	19:04:51.629	$GPGGA,190452,2507.9723,N,07919.0135,W,1,11,1.4,20,M,,M,,*62
05/31/2014	19:04:52.662	$GPGGA,190453,2507.9724,N,07919.0149,W,1,11,1.4,20,M,,M,,*6F
05/31/2014	19:04:53.624	$GPGGA,190454,2507.9727,N,07919.0163,W,1,11,1.4,20,M,,M,,*63
05/31/2014	19:04:54.696	$GPGGA,190455,2507.9727,N,07919.0178,W,1,11,1.4,20,M,,M,,*68
05/31/2014	19:04:55.628	$GPGGA,190456,2507.9731,N,07919.0192,W,1,11,1.4,20,M,,M,,*68
05/31/2014	19:04:56.681	$GPGGA,190457,2507.9734,N,07919.0207,W,1,11,1.4,20,M,,M,,*63
05/31/2014	19:04:57.613	$GPGGA,190458,2507.9734,N,07919.0221,W,1,11,1.4,20,M,,M,,*68
05/31/2014	19:04:58.585	$GPGGA,190459,2507.9735,N,07919.0236,W,1,11,1.4,20,M,,M,,*6E
05/31/2014	19:04:59.647	$GPGGA,190500,2507.9738,N,07919.0250,W,1,11,1.4,20,M,,M,,*6E
05/31/2014	19:05:00.598	$GPGGA,190501,2507.9742,N,07919.0265,W,1,11,1.4,20,M,,M,,*64
05/31/2014	19:05:03.124	$GPGGA,190503,2507.9745,N,07919.0293,W,1,11,1.4,20,M,,M,,*68
05/31/2014	19:05:03.646	$GPGGA,190504,2507.9748,N,07919.0308,W,1,11,1.4,20,M,,M,,*61
05/31/2014	19:05:04.687	$GPGGA,190505,2507.9749,N,07919.0322,W,1,11,1.4,19,M,,M,,*63
05/31/2014	19:05:05.619	$GPGGA,190506,2507.9751,N,07919.0336,W,1,11,1.4,19,M,,M,,*6C
05/31/2014	19:05:06.671	$GPGGA,190507,2507.9753,N,07919.0351,W,1,11,1.4,19,M,,M,,*6E
05/31/2014	19:05:07.634	$GPGGA,190508,2507.9755,N,07919.0365,W,1,11,1.4,19,M,,M,,*60
05/31/2014	19:05:08.716	$GPGGA,190509,2507.9756,N,07919.0379,W,1,11,1.4,19,M,,M,,*6F
05/31/2014	19:05:09.628	$GPGGA,190510,2507.9759,N,07919.0394,W,1,11,1.4,19,M,,M,,*6B
05/31/2014	19:05:10.710	$GPGGA,190511,2507.9760,N,07919.0408,W,1,11,1.4,19,M,,M,,*62
05/31/2014	19:05:11.642	$GPGGA,190512,2507.9762,N,07919.0423,W,1,11,1.4,19,M,,M,,*6A
05/31/2014	19:05:12.685	$GPGGA,190513,2507.9763,N,07919.0437,W,1,11,1.4,19,M,,M,,*6F
05/31/2014	19:05:13.587	$GPGGA,190514,2507.9766,N,07919.0452,W,1,11,1.4,19,M,,M,,*6E
05/31/2014	19:05:14.729	$GPGGA,190515,2507.9767,N,07919.0466,W,1,10,1.4,19,M,,M,,*68
05/31/2014	19:05:15.721	$GPGGA,190516,2507.9770,N,07919.0480,W,1,10,1.4,19,M,,M,,*65
05/31/2014	19:05:16.724	$GPGGA,190517,2507.9771,N,07919.0495,W,1,11,1.4,19,M,,M,,*60
05/31/2014	19:05:17.614	$GPGGA,190518,2507.9773,N,07919.0510,W,1,11,1.4,19,M,,M,,*61
05/31/2014	19:05:18.688	$GPGGA,190519,2507.9774,N,07919.0524,W,1,10,1.4,19,M,,M,,*61
05/31/2014	19:05:19.639	$GPGGA,190520,2507.9778,N,07919.0538,W,1,10,1.4,19,M,,M,,*6A
05/31/2014	19:05:20.731	$GPGGA,190521,2507.9778,N,07919.0551,W,1,11,1.4,19,M,,M,,*65
05/31/2014	19:05:21.683	$GPGGA,190522,2507.9781,N,07919.0567,W,1,11,1.4,19,M,,M,,*65
05/31/2014	19:05:22.736	$GPGGA,190523,2507.9784,N,07919.0582,W,1,11,1.4,19,M,,M,,*6A
05/31/2014	19:05:23.698	$GPGGA,190524,2507.9785,N,07919.0596,W,1,11,1.4,19,M,,M,,*69
05/31/2014	19:05:24.750	$GPGGA,190525,2507.9787,N,07919.0610,W,1,10,1.4,19,M,,M,,*66
05/31/2014	19:05:25.682	$GPGGA,190526,2507.9788,N,07919.0623,W,1,10,1.4,19,M,,M,,*6A
05/31/2014	19:05:26.724	$GPGGA,190527,2507.9789,N,07919.0637,W,1,11,1.4,19,M,,M,,*6E
05/31/2014	19:05:27.566	$GPGGA,190528,2507.9792,N,07919.0651,W,1,11,1.4,19,M,,M,,*6B
05/31/2014	19:05:28.600	$GPGGA,190529,2507.9794,N,07919.0665,W,1,11,1.4,19,M,,M,,*6B
05/31/2014	19:05:29.560	$GPGGA,190530,2507.9796,N,07919.0679,W,1,11,1.4,19,M,,M,,*6C
05/31/2014	19:05:30.592	$GPGGA,190531,2507.9798,N,07919.0693,W,1,11,1.4,19,M,,M,,*67
05/31/2014	19:05:31.574	$GPGGA,190532,2507.9799,N,07919.0706,W,1,11,1.4,19,M,,M,,*68
05/31/2014	19:05:32.607	$GPGGA,190533,2507.9802,N,07919.0719,W,1,11,1.4,19,M,,M,,*6A
05/31/2014	19:05:33.549	$GPGGA,190534,2507.9803,N,07919.0733,W,1,11,1.4,19,M,,M,,*64
05/31/2014	19:05:34.571	$GPGGA,190535,2507.9803,N,07919.0733,W,1,11,1.4,19,M,,M,,*65
05/31/2014	19:05:35.572	$GPGGA,190536,2507.9807,N,07919.0762,W,1,11,1.4,19,M,,M,,*66
05/31/2014	19:05:36.584	$GPGGA,190537,2507.9809,N,07919.0775,W,1,11,1.4,19,M,,M,,*6F
05/31/2014	19:05:37.557	$GPGGA,190538,2507.9811,N,07919.0789,W,1,11,1.4,19,M,,M,,*6A
05/31/2014	19:05:38.589	$GPGGA,190539,2507.9814,N,07919.0805,W,1,11,1.4,19,M,,M,,*65
05/31/2014	19:05:39.581	$GPGGA,190540,2507.9814,N,07919.0818,W,1,11,1.4,19,M,,M,,*67
05/31/2014	19:05:40.573	$GPGGA,190541,2507.9814,N,07919.0818,W,1,11,1.4,19,M,,M,,*66
05/31/2014	19:05:41.565	$GPGGA,190542,2507.9821,N,07919.0845,W,1,11,1.4,19,M,,M,,*6B
05/31/2014	19:05:42.608	$GPGGA,190543,2507.9821,N,07919.0860,W,1,11,1.4,19,M,,M,,*6D
05/31/2014	19:05:43.580	$GPGGA,190544,2507.9824,N,07919.0874,W,1,11,1.4,19,M,,M,,*6A
05/31/2014	19:05:44.642	$GPGGA,190545,2507.9828,N,07919.0887,W,1,11,1.4,19,M,,M,,*6B
05/31/2014	19:05:45.544	$GPGGA,190546,2507.9828,N,07919.0901,W,1,11,1.4,19,M,,M,,*67
05/31/2014	19:05:46.576	$GPGGA,190547,2507.9828,N,07919.0901,W,1,11,1.4,19,M,,M,,*66
05/31/2014	19:05:47.579	$GPGGA,190548,2507.9835,N,07919.0930,W,1,11,1.4,19,M,,M,,*67
05/31/2014	19:05:48.571	$GPGGA,190549,2507.9835,N,07919.0930,W,1,11,1.4,19,M,,M,,*66
05/31/2014	19:05:50.996	$GPGGA,190551,2507.9839,N,07919.0973,W,1,11,1.4,19,M,,M,,*64
05/31/2014	19:05:51.577	$GPGGA,190552,2507.9843,N,07919.0986,W,1,11,1.4,19,M,,M,,*60
05/31/2014	19:05:52.578	$GPGGA,190553,2507.9843,N,07919.0986,W,1,11,1.4,19,M,,M,,*61
05/31/2014	19:05:53.561	$GPGGA,190554,2507.9846,N,07919.1015,W,1,11,1.4,19,M,,M,,*61
05/31/2014	19:05:54.703	$GPGGA,190555,2507.9846,N,07919.1015,W,1,11,1.4,19,M,,M,,*60
05/31/2014	19:05:55.595	$GPGGA,190556,2507.9853,N,07919.1044,W,1,11,1.4,19,M,,M,,*63
05/31/2014	19:05:56.577	$GPGGA,190557,2507.9854,N,07919.1059,W,1,11,1.4,19,M,,M,,*69
05/31/2014	19:05:57.650	$GPGGA,190558,2507.9857,N,07919.1073,W,1,11,1.4,19,M,,M,,*6D
05/31/2014	19:05:58.692	$GPGGA,190559,2507.9860,N,07919.1087,W,1,11,1.4,19,M,,M,,*63
05/31/2014	19:05:59.584	$GPGGA,190600,2507.9863,N,07919.1102,W,1,11,1.4,19,M,,M,,*63
05/31/2014	19:06:00.686	$GPGGA,190601,2507.9865,N,07919.1116,W,1,11,1.4,19,M,,M,,*61
05/31/2014	19:06:01.568	$GPGGA,190602,2507.9865,N,07919.1129,W,1,11,1.4,19,M,,M,,*6E
05/31/2014	19:06:02.701	$GPGGA,190603,2507.9868,N,07919.1143,W,1,11,1.4,19,M,,M,,*6E
05/31/2014	19:06:03.673	$GPGGA,190604,2507.9872,N,07919.1158,W,1,11,1.4,19,M,,M,,*68
05/31/2014	19:06:04.695	$GPGGA,190605,2507.9872,N,07919.1158,W,1,11,1.4,19,M,,M,,*69
05/31/2014	19:06:05.647	$GPGGA,190606,2507.9875,N,07919.1186,W,1,11,1.4,19,M,,M,,*6E
05/31/2014	19:06:06.690	$GPGGA,190607,2507.9878,N,07919.1201,W,1,11,1.4,18,M,,M,,*6F
05/31/2014	19:06:07.662	$GPGGA,190608,2507.9882,N,07919.1215,W,1,11,1.4,18,M,,M,,*60
05/31/2014	19:06:08.704	$GPGGA,190609,2507.9883,N,07919.1229,W,1,11,1.4,18,M,,M,,*6F
05/31/2014	19:06:09.646	$GPGGA,190610,2507.9883,N,07919.1244,W,1,11,1.4,18,M,,M,,*6C
05/31/2014	19:06:10.677	$GPGGA,190611,2507.9886,N,07919.1259,W,1,11,1.4,18,M,,M,,*64
05/31/2014	19:06:11.669	$GPGGA,190612,2507.9890,N,07919.1273,W,1,11,1.4,18,M,,M,,*68
05/31/2014	19:06:12.698	$GPGGA,190613,2507.9892,N,07919.1287,W,1,11,1.4,18,M,,M,,*60
05/31/2014	19:06:13.654	$GPGGA,190614,2507.9893,N,07919.1302,W,1,11,1.4,18,M,,M,,*6A
05/31/2014	19:06:14.676	$GPGGA,190615,2507.9896,N,07919.1316,W,1,11,1.4,18,M,,M,,*6B
05/31/2014	19:06:15.668	$GPGGA,190616,2507.9899,N,07919.1331,W,1,11,1.4,18,M,,M,,*62
05/31/2014	19:06:16.650	$GPGGA,190617,2507.9901,N,07919.1345,W,1,11,1.4,18,M,,M,,*60
05/31/2014	19:06:17.654	$GPGGA,190618,2507.9903,N,07919.1359,W,1,11,1.4,18,M,,M,,*60
05/31/2014	19:06:18.675	$GPGGA,190619,2507.9904,N,07919.1374,W,1,11,1.4,18,M,,M,,*69
05/31/2014	19:06:19.657	$GPGGA,190620,2507.9908,N,07919.1388,W,1,11,1.4,18,M,,M,,*6C
05/31/2014	19:06:20.669	$GPGGA,190621,2507.9910,N,07919.1402,W,1,11,1.4,18,M,,M,,*61
05/31/2014	19:06:21.651	$GPGGA,190622,2507.9911,N,07919.1416,W,1,11,1.4,18,M,,M,,*66
05/31/2014	19:06:22.654	$GPGGA,190623,2507.9915,N,07919.1431,W,1,11,1.4,18,M,,M,,*66
05/31/2014	19:06:23.677	$GPGGA,190624,2507.9918,N,07919.1446,W,1,11,1.4,18,M,,M,,*6C
05/31/2014	19:06:24.648	$GPGGA,190625,2507.9917,N,07919.1460,W,1,11,1.4,18,M,,M,,*66
05/31/2014	19:06:25.660	$GPGGA,190626,2507.9921,N,07919.1474,W,1,11,1.4,18,M,,M,,*65
05/31/2014	19:06:26.682	$GPGGA,190627,2507.9925,N,07919.1488,W,1,11,1.4,18,M,,M,,*63
05/31/2014	19:06:27.543	$GPGGA,190628,2507.9926,N,07919.1503,W,1,11,1.4,18,M,,M,,*6D
05/31/2014	19:06:28.545	$GPGGA,190629,2507.9926,N,07919.1517,W,1,11,1.4,18,M,,M,,*69
05/31/2014	19:06:29.527	$GPGGA,190630,2507.9929,N,07919.1530,W,1,11,1.4,18,M,,M,,*6B
05/31/2014	19:06:30.539	$GPGGA,190631,2507.9930,N,07919.1544,W,1,10,1.7,18,M,,M,,*63
05/31/2014	19:06:31.541	$GPGGA,190632,2507.9930,N,07919.1559,W,1,10,1.7,18,M,,M,,*6C
05/31/2014	19:06:32.513	$GPGGA,190633,2507.9933,N,07919.1575,W,1,11,1.4,18,M,,M,,*62
05/31/2014	19:06:33.526	$GPGGA,190634,2507.9936,N,07919.1587,W,1,11,1.4,18,M,,M,,*6D
05/31/2014	19:06:34.528	$GPGGA,190635,2507.9937,N,07919.1601,W,1,10,1.7,18,M,,M,,*62
05/31/2014	19:06:35.550	$GPGGA,190636,2507.9939,N,07919.1616,W,1,10,1.4,18,M,,M,,*6A
05/31/2014	19:06:36.532	$GPGGA,190637,2507.9943,N,07919.1630,W,1,11,1.4,18,M,,M,,*63
05/31/2014	19:06:37.514	$GPGGA,190638,2507.9944,N,07919.1644,W,1,11,1.4,18,M,,M,,*68
05/31/2014	19:06:38.527	$GPGGA,190639,2507.9944,N,07919.1659,W,1,10,1.7,18,M,,M,,*67
05/31/2014	19:06:39.549	$GPGGA,190640,2507.9947,N,07919.1673,W,1,10,1.4,18,M,,M,,*61
05/31/2014	19:06:40.641	$GPGGA,190641,2507.9948,N,07919.1688,W,1,11,1.4,18,M,,M,,*6A
05/31/2014	19:06:41.533	$GPGGA,190642,2507.9951,N,07919.1702,W,1,11,1.4,18,M,,M,,*62
05/31/2014	19:06:42.545	$GPGGA,190643,2507.9951,N,07919.1716,W,1,10,1.7,17,M,,M,,*6B
05/31/2014	19:06:43.529	$GPGGA,190644,2507.9951,N,07919.1730,W,1,10,1.7,17,M,,M,,*68
05/31/2014	19:06:44.531	$GPGGA,190645,2507.9955,N,07919.1745,W,1,11,1.4,17,M,,M,,*6D
05/31/2014	19:06:45.511	$GPGGA,190646,2507.9959,N,07919.1759,W,1,11,1.4,17,M,,M,,*6F
05/31/2014	19:06:46.513	$GPGGA,190647,2507.9962,N,07919.1774,W,1,11,1.4,17,M,,M,,*69
05/31/2014	19:06:47.636	$GPGGA,190648,2507.9964,N,07919.1788,W,1,11,1.4,17,M,,M,,*63
05/31/2014	19:06:48.528	$GPGGA,190649,2507.9966,N,07919.1803,W,1,11,1.4,17,M,,M,,*6C
05/31/2014	19:06:49.610	$GPGGA,190650,2507.9971,N,07919.1818,W,1,11,1.4,17,M,,M,,*68
05/31/2014	19:06:50.652	$GPGGA,190651,2507.9973,N,07919.1832,W,1,11,1.4,17,M,,M,,*63
05/31/2014	19:06:51.634	$GPGGA,190652,2507.9975,N,07919.1847,W,1,11,1.4,18,M,,M,,*6B
05/31/2014	19:06:52.637	$GPGGA,190653,2507.9977,N,07919.1861,W,1,11,1.4,18,M,,M,,*6C
05/31/2014	19:06:53.619	$GPGGA,190654,2507.9980,N,07919.1876,W,1,11,1.4,18,M,,M,,*65
05/31/2014	19:06:54.631	$GPGGA,190655,2507.9983,N,07919.1889,W,1,11,1.4,18,M,,M,,*67
05/31/2014	19:06:55.633	$GPGGA,190656,2507.9984,N,07919.1905,W,1,11,1.4,18,M,,M,,*66
05/31/2014	19:06:56.635	$GPGGA,190657,2507.9987,N,07919.1919,W,1,11,1.4,18,M,,M,,*69
05/31/2014	19:06:57.628	$GPGGA,190658,2507.9990,N,07919.1933,W,1,11,1.4,18,M,,M,,*68
05/31/2014	19:06:58.640	$GPGGA,190659,2507.9993,N,07919.1947,W,1,11,1.4,18,M,,M,,*69
05/31/2014	19:06:59.642	$GPGGA,190700,2507.9995,N,07919.1962,W,1,11,1.4,18,M,,M,,*65
05/31/2014	19:07:00.634	$GPGGA,190701,2507.9995,N,07919.1977,W,1,11,1.4,18,M,,M,,*60
05/31/2014	19:07:01.616	$GPGGA,190702,2507.9998,N,07919.1991,W,1,11,1.4,18,M,,M,,*66
05/31/2014	19:07:02.648	$GPGGA,190703,2508.0002,N,07919.2005,W,1,11,1.4,18,M,,M,,*6C
05/31/2014	19:07:03.640	$GPGGA,190704,2508.0004,N,07919.2019,W,1,11,1.4,19,M,,M,,*61
05/31/2014	19:07:04.642	$GPGGA,190705,2508.0005,N,07919.2034,W,1,11,1.4,19,M,,M,,*6E
05/31/2014	19:07:05.624	$GPGGA,190706,2508.0009,N,07919.2048,W,1,11,1.4,19,M,,M,,*6A
05/31/2014	19:07:06.617	$GPGGA,190707,2508.0011,N,07919.2061,W,1,11,1.4,19,M,,M,,*69
05/31/2014	19:07:07.629	$GPGGA,190708,2508.0013,N,07919.2075,W,1,11,1.4,19,M,,M,,*61
05/31/2014	19:07:08.641	$GPGGA,190709,2508.0015,N,07919.2089,W,1,11,1.4,19,M,,M,,*65
05/31/2014	19:07:09.613	$GPGGA,190710,2508.0018,N,07919.2103,W,1,11,1.4,19,M,,M,,*63
05/31/2014	19:07:10.615	$GPGGA,190711,2508.0020,N,07919.2117,W,1,11,1.4,19,M,,M,,*6C
05/31/2014	19:07:11.637	$GPGGA,190712,2508.0023,N,07919.2132,W,1,11,1.4,19,M,,M,,*6B
05/31/2014	19:07:12.609	$GPGGA,190713,2508.0024,N,07919.2146,W,1,11,1.4,19,M,,M,,*6E
05/31/2014	19:07:13.622	$GPGGA,190714,2508.0027,N,07919.2160,W,1,11,1.4,19,M,,M,,*6E
05/31/2014	19:07:14.674	$GPGGA,190715,2508.0031,N,07919.2175,W,1,11,1.4,19,M,,M,,*6C
05/31/2014	19:07:15.636	$GPGGA,190716,2508.0034,N,07919.2189,W,1,11,1.4,19,M,,M,,*69
05/31/2014	19:07:16.628	$GPGGA,190717,2508.0033,N,07919.2204,W,1,11,1.4,19,M,,M,,*69
05/31/2014	19:07:17.620	$GPGGA,190718,2508.0036,N,07919.2219,W,1,11,1.4,19,M,,M,,*6F
05/31/2014	19:07:18.613	$GPGGA,190719,2508.0040,N,07919.2233,W,1,11,1.4,19,M,,M,,*67
05/31/2014	19:07:19.745	$GPGGA,190720,2508.0042,N,07919.2247,W,1,11,1.4,19,M,,M,,*6C
05/31/2014	19:07:20.726	$GPGGA,190721,2508.0042,N,07919.2262,W,1,11,1.4,19,M,,M,,*6A
05/31/2014	19:07:21.608	$GPGGA,190722,2508.0047,N,07919.2276,W,1,11,1.4,19,M,,M,,*69
05/31/2014	19:07:22.630	$GPGGA,190723,2508.0049,N,07919.2290,W,1,11,1.4,19,M,,M,,*6E
05/31/2014	19:07:23.743	$GPGGA,190724,2508.0051,N,07919.2305,W,1,11,1.4,19,M,,M,,*6D
05/31/2014	19:07:24.615	$GPGGA,190725,2508.0052,N,07919.2319,W,1,11,1.4,19,M,,M,,*62
05/31/2014	19:07:25.727	$GPGGA,190726,2508.0056,N,07919.2334,W,1,11,1.4,19,M,,M,,*6A
05/31/2014	19:07:26.709	$GPGGA,190727,2508.0058,N,07919.2348,W,1,11,1.4,19,M,,M,,*6E
05/31/2014	19:07:27.499	$GPGGA,190728,2508.0060,N,07919.2361,W,1,11,1.4,19,M,,M,,*61
05/31/2014	19:07:28.513	$GPGGA,190729,2508.0062,N,07919.2375,W,1,11,1.4,19,M,,M,,*67
05/31/2014	19:07:29.505	$GPGGA,190730,2508.0063,N,07919.2391,W,1,11,1.4,19,M,,M,,*64
05/31/2014	19:07:30.587	$GPGGA,190731,2508.0067,N,07919.2404,W,1,11,1.4,19,M,,M,,*6A
05/31/2014	19:07:31.509	$GPGGA,190732,2508.0070,N,07919.2420,W,1,11,1.4,19,M,,M,,*69
05/31/2014	19:07:32.582	$GPGGA,190733,2508.0070,N,07919.2433,W,1,11,1.4,19,M,,M,,*6A
05/31/2014	19:07:33.594	$GPGGA,190734,2508.0071,N,07919.2449,W,1,11,1.4,19,M,,M,,*61
05/31/2014	19:07:34.616	$GPGGA,190735,2508.0077,N,07919.2462,W,1,11,1.4,19,M,,M,,*6F
05/31/2014	19:07:35.598	$GPGGA,190736,2508.0078,N,07919.2476,W,1,11,1.4,19,M,,M,,*66
05/31/2014	19:07:36.581	$GPGGA,190737,2508.0078,N,07919.2491,W,1,11,1.4,19,M,,M,,*6E
05/31/2014	19:07:37.592	$GPGGA,190738,2508.0081,N,07919.2507,W,1,11,1.4,19,M,,M,,*69
05/31/2014	19:07:38.594	$GPGGA,190739,2508.0084,N,07919.2519,W,1,10,1.5,19,M,,M,,*62
05/31/2014	19:07:39.596	$GPGGA,190740,2508.0085,N,07919.2533,W,1,10,1.4,19,M,,M,,*64
05/31/2014	19:07:40.588	$GPGGA,190741,2508.0085,N,07919.2547,W,1,11,1.4,19,M,,M,,*67
05/31/2014	19:07:41.590	$GPGGA,190742,2508.0089,N,07919.2561,W,1,11,1.4,19,M,,M,,*6C
05/31/2014	19:07:42.593	$GPGGA,190743,2508.0091,N,07919.2576,W,1,10,1.5,19,M,,M,,*62
05/31/2014	19:07:43.605	$GPGGA,190744,2508.0092,N,07919.2590,W,1,10,1.4,19,M,,M,,*6F
05/31/2014	19:07:44.597	$GPGGA,190745,2508.0094,N,07919.2603,W,1,11,1.4,19,M,,M,,*60
05/31/2014	19:07:45.589	$GPGGA,190746,2508.0096,N,07919.2617,W,1,11,1.4,19,M,,M,,*64
05/31/2014	19:07:46.601	$GPGGA,190747,2508.0099,N,07919.2631,W,1,10,1.5,19,M,,M,,*6E
05/31/2014	19:07:47.604	$GPGGA,190748,2508.0100,N,07919.2645,W,1,10,1.4,19,M,,M,,*62
05/31/2014	19:07:48.606	$GPGGA,190749,2508.0103,N,07919.2660,W,1,11,1.4,19,M,,M,,*66
05/31/2014	19:07:49.588	$GPGGA,190750,2508.0105,N,07919.2675,W,1,11,1.4,19,M,,M,,*6C
05/31/2014	19:07:50.610	$GPGGA,190751,2508.0106,N,07919.2689,W,1,11,1.4,19,M,,M,,*6D
05/31/2014	19:07:51.592	$GPGGA,190752,2508.0109,N,07919.2704,W,1,11,1.4,19,M,,M,,*65
05/31/2014	19:07:52.585	$GPGGA,190753,2508.0110,N,07919.2718,W,1,11,1.4,19,M,,M,,*61
05/31/2014	19:07:53.587	$GPGGA,190754,2508.0113,N,07919.2732,W,1,11,1.4,19,M,,M,,*6D
05/31/2014	19:07:54.599	$GPGGA,190755,2508.0112,N,07919.2746,W,1,11,1.4,19,M,,M,,*6E
05/31/2014	19:07:55.590	$GPGGA,190756,2508.0114,N,07919.2761,W,1,11,1.4,19,M,,M,,*6E
05/31/2014	19:07:56.622	$GPGGA,190757,2508.0117,N,07919.2775,W,1,11,1.4,19,M,,M,,*69
05/31/2014	19:07:57.596	$GPGGA,190758,2508.0120,N,07919.2789,W,1,11,1.4,19,M,,M,,*61
05/31/2014	19:07:58.577	$GPGGA,190759,2508.0119,N,07919.2804,W,1,10,1.5,19,M,,M,,*60
05/31/2014	19:07:59.619	$GPGGA,190800,2508.0121,N,07919.2818,W,1,10,1.4,19,M,,M,,*64
05/31/2014	19:08:00.591	$GPGGA,190801,2508.0125,N,07919.2832,W,1,11,1.4,19,M,,M,,*68
05/31/2014	19:08:01.583	$GPGGA,190802,2508.0127,N,07919.2847,W,1,11,1.4,19,M,,M,,*6B
05/31/2014	19:08:02.616	$GPGGA,190803,2508.0126,N,07919.2861,W,1,11,1.4,19,M,,M,,*6F
05/31/2014	19:08:03.608	$GPGGA,190804,2508.0128,N,07919.2874,W,1,11,1.4,19,M,,M,,*62
05/31/2014	19:08:04.620	$GPGGA,190805,2508.0131,N,07919.2890,W,1,11,1.4,19,M,,M,,*61
05/31/2014	19:08:05.602	$GPGGA,190806,2508.0132,N,07919.2904,W,1,11,1.4,19,M,,M,,*6D
05/31/2014	19:08:06.574	$GPGGA,190807,2508.0134,N,07919.2917,W,1,11,1.4,19,M,,M,,*68
05/31/2014	19:08:07.606	$GPGGA,190808,2508.0135,N,07919.2933,W,1,11,1.4,19,M,,M,,*60
05/31/2014	19:08:08.599	$GPGGA,190809,2508.0136,N,07919.2948,W,1,11,1.4,19,M,,M,,*6E
05/31/2014	19:08:09.701	$GPGGA,190810,2508.0138,N,07919.2962,W,1,11,1.4,19,M,,M,,*60
05/31/2014	19:08:10.703	$GPGGA,190811,2508.0141,N,07919.2974,W,1,11,1.4,19,M,,M,,*68
05/31/2014	19:08:11.595	$GPGGA,190812,2508.0143,N,07919.2989,W,1,11,1.7,19,M,,M,,*68
05/31/2014	19:08:12.606	$GPGGA,190813,2508.0143,N,07919.3003,W,1,11,1.4,19,M,,M,,*60
05/31/2014	19:08:13.589	$GPGGA,190814,2508.0146,N,07919.3018,W,1,11,1.4,19,M,,M,,*68
05/31/2014	19:08:14.702	$GPGGA,190815,2508.0149,N,07919.3032,W,1,10,1.4,19,M,,M,,*6F
05/31/2014	19:08:15.693	$GPGGA,190816,2508.0148,N,07919.3047,W,1,10,1.4,19,M,,M,,*6F
05/31/2014	19:08:16.686	$GPGGA,190817,2508.0150,N,07919.3063,W,1,11,1.4,19,M,,M,,*60
05/31/2014	19:08:17.587	$GPGGA,190818,2508.0153,N,07919.3076,W,1,11,1.4,19,M,,M,,*68
05/31/2014	19:08:18.690	$GPGGA,190819,2508.0154,N,07919.3090,W,1,11,1.4,19,M,,M,,*66
05/31/2014	19:08:19.692	$GPGGA,190820,2508.0157,N,07919.3104,W,1,11,1.4,19,M,,M,,*63
05/31/2014	19:08:20.684	$GPGGA,190821,2508.0159,N,07919.3118,W,1,11,1.4,19,M,,M,,*61
05/31/2014	19:08:21.686	$GPGGA,190822,2508.0160,N,07919.3132,W,1,11,1.4,19,M,,M,,*60
05/31/2014	19:08:22.699	$GPGGA,190823,2508.0163,N,07919.3147,W,1,11,1.4,19,M,,M,,*60
05/31/2014	19:08:23.701	$GPGGA,190824,2508.0164,N,07919.3161,W,1,11,1.4,19,M,,M,,*64
05/31/2014	19:08:24.703	$GPGGA,190825,2508.0167,N,07919.3176,W,1,11,1.4,20,M,,M,,*6A
05/31/2014	19:08:25.675	$GPGGA,190826,2508.0168,N,07919.3190,W,1,11,1.4,20,M,,M,,*6E
05/31/2014	19:08:26.677	$GPGGA,190827,2508.0171,N,07919.3204,W,1,11,1.4,20,M,,M,,*69
05/31/2014	19:08:27.558	$GPGGA,190828,2508.0172,N,07919.3219,W,1,11,1.4,20,M,,M,,*69
05/31/2014	19:08:28.581	$GPGGA,190829,2508.0175,N,07919.3233,W,1,11,1.4,20,M,,M,,*67
05/31/2014	19:08:29.552	$GPGGA,190830,2508.0177,N,07919.3248,W,1,11,1.4,20,M,,M,,*61
05/31/2014	19:08:30.573	$GPGGA,190831,2508.0179,N,07919.3262,W,1,11,1.4,20,M,,M,,*66
05/31/2014	19:08:31.565	$GPGGA,190832,2508.0181,N,07919.3277,W,1,11,1.4,20,M,,M,,*66
05/31/2014	19:08:32.548	$GPGGA,190833,2508.0182,N,07919.3291,W,1,11,1.4,20,M,,M,,*6C
05/31/2014	19:08:33.540	$GPGGA,190834,2508.0185,N,07919.3306,W,1,11,1.4,20,M,,M,,*63
05/31/2014	19:08:34.582	$GPGGA,190835,2508.0186,N,07919.3320,W,1,11,1.4,20,M,,M,,*65
05/31/2014	19:08:35.554	$GPGGA,190836,2508.0190,N,07919.3335,W,1,11,1.4,20,M,,M,,*65
05/31/2014	19:08:36.576	$GPGGA,190837,2508.0190,N,07919.3349,W,1,11,1.4,20,M,,M,,*6F
05/31/2014	19:08:37.549	$GPGGA,190838,2508.0193,N,07919.3364,W,1,11,1.4,20,M,,M,,*6C
05/31/2014	19:08:38.561	$GPGGA,190839,2508.0195,N,07919.3378,W,1,11,1.4,20,M,,M,,*66
05/31/2014	19:08:39.563	$GPGGA,190840,2508.0199,N,07919.3392,W,1,11,1.4,20,M,,M,,*60
05/31/2014	19:08:40.565	$GPGGA,190841,2508.0200,N,07919.3407,W,1,11,1.4,20,M,,M,,*69
05/31/2014	19:08:41.557	$GPGGA,190842,2508.0201,N,07919.3422,W,1,11,1.4,20,M,,M,,*6C
05/31/2014	19:08:42.539	$GPGGA,190843,2508.0204,N,07919.3437,W,1,11,1.4,20,M,,M,,*6C
05/31/2014	19:08:43.583	$GPGGA,190844,2508.0207,N,07919.3451,W,1,11,1.4,20,M,,M,,*68
05/31/2014	19:08:44.584	$GPGGA,190845,2508.0208,N,07919.3465,W,1,11,1.4,20,M,,M,,*61
05/31/2014	19:08:45.546	$GPGGA,190846,2508.0208,N,07919.3480,W,1,11,1.4,20,M,,M,,*69
05/31/2014	19:08:46.669	$GPGGA,190847,2508.0211,N,07919.3494,W,1,11,1.4,20,M,,M,,*65
05/31/2014	19:08:47.680	$GPGGA,190848,2508.0215,N,07919.3508,W,1,11,1.4,20,M,,M,,*6A
05/31/2014	19:08:48.562	$GPGGA,190849,2508.0215,N,07919.3522,W,1,11,1.4,20,M,,M,,*63
05/31/2014	19:08:49.534	$GPGGA,190850,2508.0217,N,07919.3537,W,1,11,1.4,20,M,,M,,*6D
05/31/2014	19:08:50.536	$GPGGA,190851,2508.0221,N,07919.3552,W,1,11,1.4,20,M,,M,,*6A
05/31/2014	19:08:51.568	$GPGGA,190852,2508.0222,N,07919.3566,W,1,11,1.4,20,M,,M,,*6D
05/31/2014	19:08:52.560	$GPGGA,190853,2508.0225,N,07919.3580,W,1,11,1.4,20,M,,M,,*63
05/31/2014	19:08:53.553	$GPGGA,190854,2508.0226,N,07919.3595,W,1,11,1.4,20,M,,M,,*63
05/31/2014	19:08:54.555	$GPGGA,190855,2508.0229,N,07919.3609,W,1,11,1.4,20,M,,M,,*6B
05/31/2014	19:08:55.567	$GPGGA,190856,2508.0232,N,07919.3624,W,1,11,1.4,20,M,,M,,*6D
05/31/2014	19:08:56.680	$GPGGA,190857,2508.0233,N,07919.3638,W,1,11,1.4,20,M,,M,,*60
05/31/2014	19:08:57.561	$GPGGA,190858,2508.0235,N,07919.3652,W,1,11,1.4,20,M,,M,,*65
05/31/2014	19:08:58.664	$GPGGA,190859,2508.0237,N,07919.3667,W,1,11,1.4,20,M,,M,,*60
05/31/2014	19:08:59.606	$GPGGA,190900,2508.0240,N,07919.3681,W,1,11,1.4,20,M,,M,,*65
05/31/2014	19:09:00.538	$GPGGA,190901,2508.0240,N,07919.3696,W,1,11,1.4,20,M,,M,,*62
05/31/2014	19:09:01.650	$GPGGA,190902,2508.0243,N,07919.3710,W,1,11,1.5,20,M,,M,,*6C
05/31/2014	19:09:02.673	$GPGGA,190903,2508.0244,N,07919.3725,W,1,10,1.4,20,M,,M,,*6C
05/31/2014	19:09:03.565	$GPGGA,190904,2508.0247,N,07919.3739,W,1,10,1.4,20,M,,M,,*65
05/31/2014	19:09:04.667	$GPGGA,190905,2508.0248,N,07919.3753,W,1,11,1.4,20,M,,M,,*66
05/31/2014	19:09:05.648	$GPGGA,190906,2508.0250,N,07919.3766,W,1,11,1.4,20,M,,M,,*6A
05/31/2014	19:09:06.680	$GPGGA,190907,2508.0251,N,07919.3782,W,1,11,1.4,20,M,,M,,*60
05/31/2014	19:09:07.663	$GPGGA,190908,2508.0255,N,07919.3795,W,1,11,1.4,20,M,,M,,*6D
05/31/2014	19:09:08.665	$GPGGA,190909,2508.0255,N,07919.3809,W,1,11,1.4,20,M,,M,,*66
05/31/2014	19:09:09.647	$GPGGA,190910,2508.0258,N,07919.3824,W,1,11,1.4,20,M,,M,,*6C
05/31/2014	19:09:10.679	$GPGGA,190911,2508.0260,N,07919.3838,W,1,11,1.4,20,M,,M,,*6B
05/31/2014	19:09:11.661	$GPGGA,190912,2508.0262,N,07919.3853,W,1,11,1.4,20,M,,M,,*67
05/31/2014	19:09:12.644	$GPGGA,190913,2508.0262,N,07919.3869,W,1,11,1.4,20,M,,M,,*6F
05/31/2014	19:09:13.656	$GPGGA,190914,2508.0265,N,07919.3884,W,1,11,1.4,20,M,,M,,*6C
05/31/2014	19:09:14.678	$GPGGA,190915,2508.0266,N,07919.3898,W,1,11,1.4,20,M,,M,,*63
05/31/2014	19:09:15.660	$GPGGA,190916,2508.0268,N,07919.3913,W,1,11,1.4,20,M,,M,,*6C
05/31/2014	19:09:16.642	$GPGGA,190917,2508.0269,N,07919.3927,W,1,11,1.4,20,M,,M,,*6B
05/31/2014	19:09:17.645	$GPGGA,190918,2508.0271,N,07919.3941,W,1,11,1.4,20,M,,M,,*6D
05/31/2014	19:09:18.687	$GPGGA,190919,2508.0273,N,07919.3956,W,1,11,1.4,20,M,,M,,*68
05/31/2014	19:09:19.659	$GPGGA,190920,2508.0273,N,07919.3970,W,1,11,1.4,20,M,,M,,*66
05/31/2014	19:09:20.651	$GPGGA,190921,2508.0276,N,07919.3985,W,1,11,1.4,20,M,,M,,*68
05/31/2014	19:09:21.653	$GPGGA,190922,2508.0276,N,07919.3999,W,1,11,1.4,20,M,,M,,*66
05/31/2014	19:09:22.645	$GPGGA,190923,2508.0280,N,07919.4014,W,1,11,1.4,20,M,,M,,*65
05/31/2014	19:09:23.667	$GPGGA,190924,2508.0282,N,07919.4028,W,1,11,1.4,20,M,,M,,*6F
05/31/2014	19:09:24.659	$GPGGA,190925,2508.0283,N,07919.4043,W,1,11,1.4,20,M,,M,,*62
05/31/2014	19:09:25.661	$GPGGA,190926,2508.0284,N,07919.4058,W,1,11,1.4,20,M,,M,,*6C
05/31/2014	19:09:26.673	$GPGGA,190927,2508.0286,N,07919.4073,W,1,11,1.4,20,M,,M,,*66
05/31/2014	19:09:27.535	$GPGGA,190928,2508.0287,N,07919.4089,W,1,11,1.4,20,M,,M,,*6D
05/31/2014	19:09:28.527	$GPGGA,190929,2508.0290,N,07919.4102,W,1,11,1.4,20,M,,M,,*68
05/31/2014	19:09:29.539	$GPGGA,190930,2508.0291,N,07919.4118,W,1,11,1.4,20,M,,M,,*6A
05/31/2014	19:09:30.541	$GPGGA,190931,2508.0291,N,07919.4133,W,1,11,1.4,19,M,,M,,*68
05/31/2014	19:09:31.523	$GPGGA,190932,2508.0294,N,07919.4147,W,1,11,1.4,19,M,,M,,*6D
05/31/2014	19:09:32.546	$GPGGA,190933,2508.0295,N,07919.4162,W,1,11,1.7,19,M,,M,,*69
05/31/2014	19:09:33.518	$GPGGA,190934,2508.0295,N,07919.4176,W,1,11,1.4,19,M,,M,,*68
05/31/2014	19:09:34.510	$GPGGA,190935,2508.0297,N,07919.4189,W,1,11,1.4,19,M,,M,,*6B
05/31/2014	19:09:35.552	$GPGGA,190936,2508.0300,N,07919.4203,W,1,11,1.4,19,M,,M,,*66
05/31/2014	19:09:36.614	$GPGGA,190937,2508.0302,N,07919.4219,W,1,11,1.4,19,M,,M,,*6E
05/31/2014	19:09:37.607	$GPGGA,190938,2508.0302,N,07919.4234,W,1,11,1.4,19,M,,M,,*6E
05/31/2014	19:09:38.639	$GPGGA,190939,2508.0304,N,07919.4249,W,1,11,1.4,19,M,,M,,*63
05/31/2014	19:09:39.641	$GPGGA,190940,2508.0309,N,07919.4263,W,1,11,1.4,19,M,,M,,*68
05/31/2014	19:09:40.512	$GPGGA,190941,2508.0309,N,07919.4277,W,1,11,1.4,19,M,,M,,*6C
05/31/2014	19:09:41.614	$GPGGA,190942,2508.0311,N,07919.4293,W,1,11,1.4,19,M,,M,,*6C
05/31/2014	19:09:42.516	$GPGGA,190943,2508.0313,N,07919.4307,W,1,11,1.4,19,M,,M,,*63
05/31/2014	19:09:43.549	$GPGGA,190944,2508.0316,N,07919.4321,W,1,11,1.4,19,M,,M,,*65
05/31/2014	19:09:44.631	$GPGGA,190945,2508.0318,N,07919.4336,W,1,11,1.4,19,M,,M,,*6C
05/31/2014	19:09:45.613	$GPGGA,190946,2508.0320,N,07919.4350,W,1,11,1.4,19,M,,M,,*64
05/31/2014	19:09:46.615	$GPGGA,190947,2508.0322,N,07919.4365,W,1,11,1.4,19,M,,M,,*61
05/31/2014	19:09:47.628	$GPGGA,190948,2508.0323,N,07919.4380,W,1,11,1.4,19,M,,M,,*64
05/31/2014	19:09:48.620	$GPGGA,190949,2508.0327,N,07919.4394,W,1,11,1.4,19,M,,M,,*64
05/31/2014	19:09:49.602	$GPGGA,190950,2508.0329,N,07919.4409,W,1,11,1.4,19,M,,M,,*61
05/31/2014	19:09:50.614	$GPGGA,190951,2508.0331,N,07919.4423,W,1,11,1.4,19,M,,M,,*61
05/31/2014	19:09:51.626	$GPGGA,190952,2508.0333,N,07919.4438,W,1,11,1.4,19,M,,M,,*6A
05/31/2014	19:09:52.629	$GPGGA,190953,2508.0336,N,07919.4454,W,1,11,1.4,19,M,,M,,*64
05/31/2014	19:09:53.611	$GPGGA,190954,2508.0338,N,07919.4469,W,1,11,1.4,19,M,,M,,*63
05/31/2014	19:09:54.633	$GPGGA,190955,2508.0341,N,07919.4483,W,1,10,1.4,19,M,,M,,*69
05/31/2014	19:09:55.635	$GPGGA,190956,2508.0342,N,07919.4498,W,1,10,1.4,19,M,,M,,*63
05/31/2014	19:09:56.617	$GPGGA,190957,2508.0345,N,07919.4512,W,1,10,1.4,19,M,,M,,*66
05/31/2014	19:09:57.619	$GPGGA,190958,2508.0348,N,07919.4527,W,1,10,1.4,19,M,,M,,*62
05/31/2014	19:09:58.621	$GPGGA,190959,2508.0349,N,07919.4539,W,1,11,1.4,19,M,,M,,*6C
05/31/2014	19:09:59.634	$GPGGA,191000,2508.0351,N,07919.4555,W,1,11,1.4,19,M,,M,,*6B
05/31/2014	19:10:00.645	$GPGGA,191001,2508.0352,N,07919.4568,W,1,11,1.4,19,M,,M,,*67
05/31/2014	19:10:01.607	$GPGGA,191002,2508.0356,N,07919.4584,W,1,11,1.4,19,M,,M,,*62
05/31/2014	19:10:02.640	$GPGGA,191003,2508.0359,N,07919.4599,W,1,10,1.4,19,M,,M,,*61
05/31/2014	19:10:03.622	$GPGGA,191004,2508.0359,N,07919.4613,W,1,10,1.4,19,M,,M,,*67
05/31/2014	19:10:04.624	$GPGGA,191005,2508.0362,N,07919.4628,W,1,11,1.4,19,M,,M,,*67
05/31/2014	19:10:05.616	$GPGGA,191006,2508.0363,N,07919.4642,W,1,11,1.4,19,M,,M,,*69
05/31/2014	19:10:06.608	$GPGGA,191007,2508.0367,N,07919.4657,W,1,11,1.4,19,M,,M,,*68
05/31/2014	19:10:07.631	$GPGGA,191008,2508.0369,N,07919.4671,W,1,11,1.4,19,M,,M,,*6D
05/31/2014	19:10:08.623	$GPGGA,191009,2508.0370,N,07919.4684,W,1,11,1.4,19,M,,M,,*6E
05/31/2014	19:10:09.605	$GPGGA,191010,2508.0372,N,07919.4698,W,1,11,1.4,19,M,,M,,*69
05/31/2014	19:10:10.637	$GPGGA,191011,2508.0374,N,07919.4712,W,1,11,1.4,19,M,,M,,*6D
05/31/2014	19:10:11.629	$GPGGA,191012,2508.0376,N,07919.4725,W,1,11,1.4,19,M,,M,,*68
05/31/2014	19:10:12.611	$GPGGA,191013,2508.0378,N,07919.4740,W,1,11,1.4,19,M,,M,,*64
05/31/2014	19:10:13.604	$GPGGA,191014,2508.0378,N,07919.4754,W,1,11,1.4,19,M,,M,,*66
05/31/2014	19:10:14.626	$GPGGA,191015,2508.0381,N,07919.4769,W,1,10,1.4,19,M,,M,,*6E
05/31/2014	19:10:15.627	$GPGGA,191016,2508.0384,N,07919.4781,W,1,10,1.4,19,M,,M,,*6E
05/31/2014	19:10:16.601	$GPGGA,191017,2508.0385,N,07919.4795,W,1,10,1.5,19,M,,M,,*6A
05/31/2014	19:10:17.621	$GPGGA,191018,2508.0387,N,07919.4810,W,1,10,1.4,19,M,,M,,*64
05/31/2014	19:10:18.704	$GPGGA,191019,2508.0389,N,07919.4824,W,1,11,1.4,19,M,,M,,*6D
05/31/2014	19:10:19.626	$GPGGA,191020,2508.0392,N,07919.4837,W,1,11,1.4,19,M,,M,,*6F
05/31/2014	19:10:20.628	$GPGGA,191021,2508.0395,N,07919.4852,W,1,11,1.4,19,M,,M,,*6A
05/31/2014	19:10:21.610	$GPGGA,191022,2508.0396,N,07919.4866,W,1,11,1.4,19,M,,M,,*6D
05/31/2014	19:10:22.733	$GPGGA,191023,2508.0398,N,07919.4881,W,1,11,1.4,19,M,,M,,*6B
05/31/2014	19:10:23.625	$GPGGA,191024,2508.0401,N,07919.4895,W,1,11,1.4,19,M,,M,,*6E
05/31/2014	19:10:24.737	$GPGGA,191025,2508.0403,N,07919.4907,W,1,11,1.4,19,M,,M,,*67
05/31/2014	19:10:25.629	$GPGGA,191026,2508.0403,N,07919.4922,W,1,11,1.4,19,M,,M,,*63
05/31/2014	19:10:26.741	$GPGGA,191027,2508.0406,N,07919.4939,W,1,11,1.4,19,M,,M,,*6D
05/31/2014	19:10:27.482	$GPGGA,191028,2508.0410,N,07919.4953,W,1,11,1.4,19,M,,M,,*69
05/31/2014	19:10:28.476	$GPGGA,191029,2508.0413,N,07919.4968,W,1,11,1.4,19,M,,M,,*63
05/31/2014	19:10:29.577	$GPGGA,191030,2508.0414,N,07919.4982,W,1,11,1.4,19,M,,M,,*68
05/31/2014	19:10:30.479	$GPGGA,191031,2508.0414,N,07919.4996,W,1,10,1.4,19,M,,M,,*6D
05/31/2014	19:10:31.591	$GPGGA,191032,2508.0416,N,07919.5009,W,1,10,1.4,20,M,,M,,*68
05/31/2014	19:10:32.603	$GPGGA,191033,2508.0417,N,07919.5022,W,1,11,1.4,20,M,,M,,*60
05/31/2014	19:10:33.575	$GPGGA,191034,2508.0420,N,07919.5038,W,1,11,1.4,20,M,,M,,*68
05/31/2014	19:10:34.608	$GPGGA,191035,2508.0421,N,07919.5051,W,1,10,1.4,20,M,,M,,*66
05/31/2014	19:10:35.589	$GPGGA,191036,2508.0423,N,07919.5066,W,1,10,1.4,20,M,,M,,*63
05/31/2014	19:10:36.581	$GPGGA,191037,2508.0425,N,07919.5081,W,1,11,1.4,20,M,,M,,*6C
05/31/2014	19:10:37.574	$GPGGA,191038,2508.0427,N,07919.5095,W,1,11,1.4,20,M,,M,,*64
05/31/2014	19:10:38.576	$GPGGA,191039,2508.0428,N,07919.5112,W,1,11,1.4,20,M,,M,,*64
05/31/2014	19:10:39.588	$GPGGA,191040,2508.0431,N,07919.5126,W,1,11,1.4,20,M,,M,,*65
05/31/2014	19:10:40.590	$GPGGA,191041,2508.0434,N,07919.5141,W,1,11,1.4,20,M,,M,,*60
05/31/2014	19:10:41.572	$GPGGA,191042,2508.0435,N,07919.5156,W,1,11,1.4,20,M,,M,,*64
05/31/2014	19:10:42.585	$GPGGA,191043,2508.0436,N,07919.5171,W,1,11,1.4,20,M,,M,,*63
05/31/2014	19:10:43.597	$GPGGA,191044,2508.0439,N,07919.5185,W,1,11,1.4,20,M,,M,,*60
05/31/2014	19:10:44.569	$GPGGA,191045,2508.0442,N,07919.5199,W,1,11,1.4,20,M,,M,,*60
05/31/2014	19:10:45.581	$GPGGA,191046,2508.0443,N,07919.5214,W,1,11,1.4,20,M,,M,,*64
05/31/2014	19:10:46.593	$GPGGA,191047,2508.0443,N,07919.5228,W,1,11,1.4,20,M,,M,,*6A
05/31/2014	19:10:47.596	$GPGGA,191048,2508.0446,N,07919.5243,W,1,11,1.4,20,M,,M,,*6D
05/31/2014	19:10:48.578	$GPGGA,191049,2508.0449,N,07919.5258,W,1,11,1.4,20,M,,M,,*69
05/31/2014	19:10:49.571	$GPGGA,191050,2508.0450,N,07919.5274,W,1,11,1.4,20,M,,M,,*67
05/31/2014	19:10:50.601	$GPGGA,191051,2508.0452,N,07919.5287,W,1,11,1.4,20,M,,M,,*68
05/31/2014	19:10:51.593	$GPGGA,191052,2508.0454,N,07919.5303,W,1,11,1.4,20,M,,M,,*60
05/31/2014	19:10:52.596	$GPGGA,191053,2508.0457,N,07919.5318,W,1,10,1.4,20,M,,M,,*69
05/31/2014	19:10:53.578	$GPGGA,191054,2508.0457,N,07919.5332,W,1,10,1.4,20,M,,M,,*66
05/31/2014	19:10:54.570	$GPGGA,191055,2508.0460,N,07919.5347,W,1,11,1.4,19,M,,M,,*6A
05/31/2014	19:10:55.602	$GPGGA,191056,2508.0463,N,07919.5361,W,1,11,1.4,19,M,,M,,*6E
05/31/2014	19:10:57.597	$GPGGA,191058,2508.0464,N,07919.5390,W,1,10,1.4,19,M,,M,,*68
05/31/2014	19:10:58.569	$GPGGA,191059,2508.0467,N,07919.5404,W,1,11,1.4,19,M,,M,,*61
05/31/2014	19:10:59.611	$GPGGA,191100,2508.0468,N,07919.5417,W,1,11,1.4,19,M,,M,,*61
05/31/2014	19:11:00.573	$GPGGA,191101,2508.0470,N,07919.5433,W,1,11,1.4,19,M,,M,,*6F
05/31/2014	19:11:01.585	$GPGGA,191102,2508.0471,N,07919.5448,W,1,11,1.4,19,M,,M,,*61
05/31/2014	19:11:02.567	$GPGGA,191103,2508.0474,N,07919.5462,W,1,11,1.4,19,M,,M,,*6D
05/31/2014	19:11:03.700	$GPGGA,191104,2508.0475,N,07919.5477,W,1,11,1.4,19,M,,M,,*6F
05/31/2014	19:11:04.702	$GPGGA,191105,2508.0477,N,07919.5491,W,1,11,1.4,19,M,,M,,*64
05/31/2014	19:11:05.674	$GPGGA,191106,2508.0479,N,07919.5506,W,1,11,1.4,19,M,,M,,*66
05/31/2014	19:11:06.666	$GPGGA,191107,2508.0481,N,07919.5520,W,1,11,1.4,19,M,,M,,*64
05/31/2014	19:11:07.597	$GPGGA,191108,2508.0482,N,07919.5535,W,1,11,1.4,19,M,,M,,*6C
05/31/2014	19:11:08.700	$GPGGA,191109,2508.0485,N,07919.5549,W,1,11,1.4,19,M,,M,,*61
05/31/2014	19:11:09.574	$GPGGA,191110,2508.0486,N,07919.5564,W,1,11,1.4,19,M,,M,,*65
05/31/2014	19:11:10.564	$GPGGA,191111,2508.0488,N,07919.5579,W,1,11,1.4,19,M,,M,,*66
05/31/2014	19:11:11.696	$GPGGA,191112,2508.0490,N,07919.5593,W,1,11,1.4,19,M,,M,,*68
05/31/2014	19:11:12.709	$GPGGA,191113,2508.0492,N,07919.5607,W,1,11,1.4,19,M,,M,,*65
05/31/2014	19:11:13.690	$GPGGA,191114,2508.0493,N,07919.5622,W,1,11,1.4,19,M,,M,,*64
05/31/2014	19:11:14.703	$GPGGA,191115,2508.0493,N,07919.5637,W,1,11,1.4,19,M,,M,,*61
05/31/2014	19:11:15.685	$GPGGA,191116,2508.0497,N,07919.5651,W,1,11,1.4,19,M,,M,,*66
05/31/2014	19:11:16.707	$GPGGA,191117,2508.0499,N,07919.5665,W,1,11,1.4,19,M,,M,,*6E
05/31/2014	19:11:17.670	$GPGGA,191118,2508.0500,N,07919.5679,W,1,11,1.4,19,M,,M,,*6D
05/31/2014	19:11:18.672	$GPGGA,191119,2508.0500,N,07919.5694,W,1,11,1.4,19,M,,M,,*6F
05/31/2014	19:11:19.684	$GPGGA,191120,2508.0504,N,07919.5708,W,1,11,1.4,19,M,,M,,*65
05/31/2014	19:11:20.696	$GPGGA,191121,2508.0506,N,07919.5723,W,1,11,1.4,19,M,,M,,*6F
05/31/2014	19:11:21.678	$GPGGA,191122,2508.0507,N,07919.5737,W,1,11,1.4,19,M,,M,,*68
05/31/2014	19:11:22.671	$GPGGA,191123,2508.0508,N,07919.5751,W,1,11,1.4,19,M,,M,,*66
05/31/2014	19:11:23.673	$GPGGA,191124,2508.0511,N,07919.5766,W,1,11,1.4,19,M,,M,,*6D
05/31/2014	19:11:24.696	$GPGGA,191125,2508.0511,N,07919.5781,W,1,11,1.4,19,M,,M,,*65
05/31/2014	19:11:25.666	$GPGGA,191126,2508.0515,N,07919.5795,W,1,11,1.4,19,M,,M,,*67
05/31/2014	19:11:26.688	$GPGGA,191127,2508.0517,N,07919.5810,W,1,11,1.4,19,M,,M,,*66
05/31/2014	19:11:27.560	$GPGGA,191128,2508.0518,N,07919.5824,W,1,11,1.4,19,M,,M,,*61
05/31/2014	19:11:28.532	$GPGGA,191129,2508.0519,N,07919.5838,W,1,11,1.4,19,M,,M,,*6C
05/31/2014	19:11:29.544	$GPGGA,191130,2508.0522,N,07919.5853,W,1,11,1.4,19,M,,M,,*61
05/31/2014	19:11:30.556	$GPGGA,191131,2508.0524,N,07919.5868,W,1,11,1.4,19,M,,M,,*6E
05/31/2014	19:11:31.558	$GPGGA,191132,2508.0525,N,07919.5883,W,1,11,1.5,19,M,,M,,*68
05/31/2014	19:11:32.561	$GPGGA,191133,2508.0526,N,07919.5899,W,1,11,1.4,19,M,,M,,*60
05/31/2014	19:11:33.543	$GPGGA,191134,2508.0529,N,07919.5912,W,1,11,1.4,19,M,,M,,*6A
05/31/2014	19:11:34.565	$GPGGA,191135,2508.0532,N,07919.5928,W,1,11,1.4,19,M,,M,,*68
05/31/2014	19:11:35.557	$GPGGA,191136,2508.0533,N,07919.5941,W,1,11,1.4,19,M,,M,,*65
05/31/2014	19:11:36.569	$GPGGA,191137,2508.0536,N,07919.5955,W,1,11,1.4,19,M,,M,,*64
05/31/2014	19:11:37.531	$GPGGA,191138,2508.0537,N,07919.5970,W,1,11,1.5,19,M,,M,,*6C
05/31/2014	19:11:38.564	$GPGGA,191139,2508.0540,N,07919.5984,W,1,11,1.4,19,M,,M,,*67
05/31/2014	19:11:39.566	$GPGGA,191140,2508.0542,N,07919.5998,W,1,11,1.4,19,M,,M,,*66
05/31/2014	19:11:40.568	$GPGGA,191141,2508.0544,N,07919.6013,W,1,11,1.4,19,M,,M,,*68
05/31/2014	19:11:41.540	$GPGGA,191142,2508.0546,N,07919.6027,W,1,11,1.4,18,M,,M,,*6F
05/31/2014	19:11:42.531	$GPGGA,191143,2508.0550,N,07919.6042,W,1,11,1.4,18,M,,M,,*6A
05/31/2014	19:11:43.564	$GPGGA,191144,2508.0551,N,07919.6058,W,1,11,1.4,18,M,,M,,*67
05/31/2014	19:11:44.536	$GPGGA,191145,2508.0553,N,07919.6073,W,1,11,1.4,18,M,,M,,*6D
05/31/2014	19:11:45.578	$GPGGA,191146,2508.0557,N,07919.6087,W,1,11,1.5,18,M,,M,,*60
05/31/2014	19:11:46.540	$GPGGA,191147,2508.0558,N,07919.6100,W,1,11,1.4,18,M,,M,,*61
