Software Version Number: 1	Data File Format Number: 1	Build Version Number: 1	Error Count Since VI Started: 0	Manufacturer: Raytheon	 Model Number: RayMarine 120	 S/N: 	 Cal Date: 	 Wind Direction Offset: 0.00	 Slope (M)1: 0.00	 Offset (B)1: 0.00	 Slope (M)2: 0.00	 Offset (B)2: 0.00	 Slope (M)3: 0.00	 Offset (B)3: 0.00	 Slope (M)4: 0.00	 Offset (B)4: 0.00	 Slope (M)5: 0.00	 Offset (B)5: 0.00	 Slope (M)6: 0.00	 Offset (B)6: 0.00
Computer Date	Computer Time	GGA String
05/28/2014	15:00:00.677	$GPGGA,150001,2535.5139,N,07957.9839,W,1,9,1.5,20,M,,M,,*52
05/28/2014	15:00:01.650	$GPGGA,150002,2535.5146,N,07957.9819,W,1,9,1.5,19,M,,M,,*51
05/28/2014	15:00:02.662	$GPGGA,150003,2535.5154,N,07957.9801,W,1,9,1.5,19,M,,M,,*5A
05/28/2014	15:00:03.575	$GPGGA,150004,2535.5161,N,07957.9782,W,1,9,1.5,19,M,,M,,*5F
05/28/2014	15:00:04.658	$GPGGA,150005,2535.5170,N,07957.9763,W,1,8,1.7,19,M,,M,,*52
05/28/2014	15:00:05.641	$GPGGA,150006,2535.5175,N,07957.9745,W,1,8,1.5,19,M,,M,,*52
05/28/2014	15:00:06.665	$GPGGA,150007,2535.5182,N,07957.9726,W,1,9,1.5,19,M,,M,,*5F
05/28/2014	15:00:07.665	$GPGGA,150008,2535.5192,N,07957.9708,W,1,9,1.7,19,M,,M,,*5F
05/28/2014	15:00:08.668	$GPGGA,150009,2535.5199,N,07957.9690,W,1,9,1.5,19,M,,M,,*57
05/28/2014	15:00:09.652	$GPGGA,150010,2535.5204,N,07957.9671,W,1,9,1.5,19,M,,M,,*57
05/28/2014	15:00:10.659	$GPGGA,150011,2535.5212,N,07957.9652,W,1,9,1.5,19,M,,M,,*50
05/28/2014	15:00:11.666	$GPGGA,150012,2535.5221,N,07957.9634,W,1,9,1.7,19,M,,M,,*51
05/28/2014	15:00:12.688	$GPGGA,150013,2535.5226,N,07957.9615,W,1,9,1.5,19,M,,M,,*56
05/28/2014	15:00:13.651	$GPGGA,150014,2535.5235,N,07957.9597,W,1,9,1.5,19,M,,M,,*5A
05/28/2014	15:00:14.644	$GPGGA,150015,2535.5243,N,07957.9579,W,1,9,1.5,19,M,,M,,*5A
05/28/2014	15:00:15.676	$GPGGA,150016,2535.5250,N,07957.9560,W,1,9,1.5,19,M,,M,,*53
05/28/2014	15:00:16.669	$GPGGA,150017,2535.5257,N,07957.9542,W,1,9,1.5,19,M,,M,,*55
05/28/2014	15:00:17.660	$GPGGA,150018,2535.5266,N,07957.9523,W,1,9,1.5,19,M,,M,,*5F
05/28/2014	15:00:18.663	$GPGGA,150019,2535.5273,N,07957.9503,W,1,8,1.6,19,M,,M,,*5A
05/28/2014	15:00:19.666	$GPGGA,150020,2535.5279,N,07957.9484,W,1,8,1.5,19,M,,M,,*57
05/28/2014	15:00:20.668	$GPGGA,150021,2535.5287,N,07957.9465,W,1,8,1.6,19,M,,M,,*5B
05/28/2014	15:00:21.652	$GPGGA,150022,2535.5295,N,07957.9446,W,1,8,1.6,19,M,,M,,*5A
05/28/2014	15:00:22.673	$GPGGA,150023,2535.5302,N,07957.9428,W,1,9,1.5,19,M,,M,,*5E
05/28/2014	15:00:23.667	$GPGGA,150024,2535.5308,N,07957.9409,W,1,9,1.6,19,M,,M,,*53
05/28/2014	15:00:24.693	$GPGGA,150025,2535.5318,N,07957.9392,W,1,8,1.6,19,M,,M,,*57
05/28/2014	15:00:25.651	$GPGGA,150026,2535.5327,N,07957.9373,W,1,8,1.5,19,M,,M,,*54
05/28/2014	15:00:26.684	$GPGGA,150027,2535.5331,N,07957.9353,W,1,9,1.5,19,M,,M,,*51
05/28/2014	15:00:27.666	$GPGGA,150028,2535.5338,N,07957.9335,W,1,9,1.5,19,M,,M,,*57
05/28/2014	15:00:28.649	$GPGGA,150029,2535.5348,N,07957.9317,W,1,9,1.5,19,M,,M,,*51
05/28/2014	15:00:29.671	$GPGGA,150030,2535.5354,N,07957.9299,W,1,9,1.5,19,M,,M,,*53
05/28/2014	15:00:30.674	$GPGGA,150031,2535.5359,N,07957.9281,W,1,9,1.5,18,M,,M,,*57
05/28/2014	15:00:31.677	$GPGGA,150032,2535.5367,N,07957.9262,W,1,9,1.5,18,M,,M,,*54
05/28/2014	15:00:32.669	$GPGGA,150033,2535.5376,N,07957.9244,W,1,9,1.5,18,M,,M,,*51
05/28/2014	15:00:33.671	$GPGGA,150034,2535.5381,N,07957.9226,W,1,9,1.5,18,M,,M,,*5A
05/28/2014	15:00:34.673	$GPGGA,150035,2535.5388,N,07957.9207,W,1,9,1.5,18,M,,M,,*51
05/28/2014	15:00:35.786	$GPGGA,150036,2535.5396,N,07957.9190,W,1,9,1.5,18,M,,M,,*50
05/28/2014	15:00:36.789	$GPGGA,150037,2535.5403,N,07957.9171,W,1,9,1.5,18,M,,M,,*55
05/28/2014	15:00:37.671	$GPGGA,150038,2535.5410,N,07957.9152,W,1,9,1.6,18,M,,M,,*5A
05/28/2014	15:00:38.600	$GPGGA,150039,2535.5417,N,07957.9134,W,1,9,1.5,18,M,,M,,*5F
05/28/2014	15:00:39.532	$GPGGA,150040,2535.5424,N,07957.9116,W,1,9,1.5,18,M,,M,,*51
05/28/2014	15:00:40.565	$GPGGA,150041,2535.5431,N,07957.9096,W,1,8,1.6,18,M,,M,,*5F
05/28/2014	15:00:41.608	$GPGGA,150042,2535.5438,N,07957.9078,W,1,8,1.7,18,M,,M,,*54
05/28/2014	15:00:42.610	$GPGGA,150043,2535.5443,N,07957.9061,W,1,9,1.5,18,M,,M,,*52
05/28/2014	15:00:43.514	$GPGGA,150044,2535.5450,N,07957.9042,W,1,9,1.5,18,M,,M,,*56
05/28/2014	15:00:44.616	$GPGGA,150045,2535.5457,N,07957.9024,W,1,8,1.6,19,M,,M,,*53
05/28/2014	15:00:45.618	$GPGGA,150046,2535.5464,N,07957.9006,W,1,8,1.5,19,M,,M,,*53
05/28/2014	15:00:46.511	$GPGGA,150047,2535.5471,N,07957.8987,W,1,9,1.5,19,M,,M,,*56
05/28/2014	15:00:47.643	$GPGGA,150048,2535.5478,N,07957.8968,W,1,9,1.5,19,M,,M,,*51
05/28/2014	15:00:50.010	$GPGGA,150049,2535.5485,N,07957.8950,W,1,9,1.5,19,M,,M,,*59
05/28/2014	15:00:50.038	$GPGGA,150050,2535.5493,N,07957.8931,W,1,9,1.5,19,M,,M,,*51
05/28/2014	15:00:50.641	$GPGGA,150051,2535.5500,N,07957.8912,W,1,9,1.5,19,M,,M,,*5A
05/28/2014	15:00:51.633	$GPGGA,150052,2535.5504,N,07957.8893,W,1,9,1.5,19,M,,M,,*55
05/28/2014	15:00:52.618	$GPGGA,150053,2535.5513,N,07957.8874,W,1,9,1.5,19,M,,M,,*5B
05/28/2014	15:00:53.614	$GPGGA,150054,2535.5519,N,07957.8856,W,1,9,1.6,19,M,,M,,*55
05/28/2014	15:00:54.618	$GPGGA,150055,2535.5526,N,07957.8838,W,1,9,1.5,19,M,,M,,*53
05/28/2014	15:00:55.533	$GPGGA,150056,2535.5532,N,07957.8819,W,1,9,1.5,19,M,,M,,*56
05/28/2014	15:00:56.616	$GPGGA,150057,2535.5539,N,07957.8800,W,1,8,1.6,19,M,,M,,*56
05/28/2014	15:00:57.621	$GPGGA,150058,2535.5546,N,07957.8781,W,1,8,1.5,19,M,,M,,*54
05/28/2014	15:00:58.631	$GPGGA,150059,2535.5553,N,07957.8763,W,1,9,1.5,19,M,,M,,*5C
05/28/2014	15:00:59.634	$GPGGA,150100,2535.5558,N,07957.8745,W,1,9,1.6,19,M,,M,,*5D
05/28/2014	15:01:00.636	$GPGGA,150101,2535.5565,N,07957.8727,W,1,9,1.5,19,M,,M,,*55
05/28/2014	15:01:01.609	$GPGGA,150102,2535.5573,N,07957.8710,W,1,9,1.5,19,M,,M,,*55
05/28/2014	15:01:02.612	$GPGGA,150103,2535.5580,N,07957.8692,W,1,8,1.6,19,M,,M,,*51
05/28/2014	15:01:03.634	$GPGGA,150104,2535.5587,N,07957.8673,W,1,8,1.6,19,M,,M,,*5E
05/28/2014	15:01:04.637	$GPGGA,150105,2535.5596,N,07957.8653,W,1,8,1.6,20,M,,M,,*57
05/28/2014	15:01:05.620	$GPGGA,150106,2535.5602,N,07957.8635,W,1,8,1.5,20,M,,M,,*59
05/28/2014	15:01:06.622	$GPGGA,150107,2535.5609,N,07957.8616,W,1,8,1.6,20,M,,M,,*51
05/28/2014	15:01:07.634	$GPGGA,150108,2535.5616,N,07957.8597,W,1,8,1.5,20,M,,M,,*59
05/28/2014	15:01:08.636	$GPGGA,150109,2535.5623,N,07957.8579,W,1,9,1.5,20,M,,M,,*5F
05/28/2014	15:01:09.608	$GPGGA,150110,2535.5631,N,07957.8560,W,1,9,1.6,20,M,,M,,*5F
05/28/2014	15:01:10.661	$GPGGA,150111,2535.5638,N,07957.8542,W,1,9,1.5,20,M,,M,,*54
05/28/2014	15:01:11.644	$GPGGA,150112,2535.5645,N,07957.8525,W,1,9,1.5,20,M,,M,,*5C
05/28/2014	15:01:12.616	$GPGGA,150113,2535.5652,N,07957.8506,W,1,9,1.5,20,M,,M,,*5A
05/28/2014	15:01:13.630	$GPGGA,150114,2535.5659,N,07957.8488,W,1,9,1.5,20,M,,M,,*51
05/28/2014	15:01:14.631	$GPGGA,150115,2535.5667,N,07957.8470,W,1,9,1.5,20,M,,M,,*5A
05/28/2014	15:01:15.645	$GPGGA,150116,2535.5674,N,07957.8451,W,1,9,1.5,20,M,,M,,*58
05/28/2014	15:01:16.637	$GPGGA,150117,2535.5681,N,07957.8433,W,1,9,1.5,20,M,,M,,*57
05/28/2014	15:01:17.639	$GPGGA,150118,2535.5688,N,07957.8415,W,1,9,1.5,20,M,,M,,*55
05/28/2014	15:01:18.632	$GPGGA,150119,2535.5698,N,07957.8396,W,1,9,1.5,20,M,,M,,*59
05/28/2014	15:01:19.644	$GPGGA,150120,2535.5703,N,07957.8378,W,1,9,1.5,20,M,,M,,*50
05/28/2014	15:01:20.647	$GPGGA,150121,2535.5710,N,07957.8358,W,1,9,1.5,20,M,,M,,*51
05/28/2014	15:01:21.640	$GPGGA,150122,2535.5719,N,07957.8341,W,1,9,1.6,20,M,,M,,*50
05/28/2014	15:01:22.622	$GPGGA,150123,2535.5727,N,07957.8322,W,1,9,1.5,20,M,,M,,*5A
05/28/2014	15:01:23.645	$GPGGA,150124,2535.5732,N,07957.8303,W,1,9,1.5,20,M,,M,,*5A
05/28/2014	15:01:24.647	$GPGGA,150125,2535.5741,N,07957.8284,W,1,8,1.6,20,M,,M,,*53
05/28/2014	15:01:25.640	$GPGGA,150126,2535.5750,N,07957.8265,W,1,8,1.5,20,M,,M,,*5C
05/28/2014	15:01:26.622	$GPGGA,150127,2535.5757,N,07957.8246,W,1,9,1.5,20,M,,M,,*5A
05/28/2014	15:01:27.765	$GPGGA,150128,2535.5764,N,07957.8227,W,1,9,1.5,20,M,,M,,*52
05/28/2014	15:01:28.737	$GPGGA,150129,2535.5771,N,07957.8209,W,1,8,1.6,20,M,,M,,*59
05/28/2014	15:01:29.619	$GPGGA,150130,2535.5779,N,07957.8191,W,1,8,1.5,20,M,,M,,*58
05/28/2014	15:01:30.632	$GPGGA,150131,2535.5786,N,07957.8172,W,1,9,1.5,20,M,,M,,*55
05/28/2014	15:01:31.775	$GPGGA,150132,2535.5793,N,07957.8153,W,1,9,1.5,20,M,,M,,*51
05/28/2014	15:01:32.738	$GPGGA,150133,2535.5803,N,07957.8135,W,1,9,1.5,19,M,,M,,*5C
05/28/2014	15:01:33.740	$GPGGA,150134,2535.5810,N,07957.8116,W,1,9,1.5,19,M,,M,,*58
05/28/2014	15:01:34.734	$GPGGA,150135,2535.5815,N,07957.8098,W,1,9,1.5,19,M,,M,,*5B
05/28/2014	15:01:35.645	$GPGGA,150136,2535.5826,N,07957.8079,W,1,9,1.5,19,M,,M,,*57
05/28/2014	15:01:36.758	$GPGGA,150137,2535.5833,N,07957.8061,W,1,9,1.5,19,M,,M,,*5B
05/28/2014	15:01:37.640	$GPGGA,150138,2535.5840,N,07957.8042,W,1,9,1.5,19,M,,M,,*51
05/28/2014	15:01:38.598	$GPGGA,150139,2535.5847,N,07957.8024,W,1,8,1.6,19,M,,M,,*55
05/28/2014	15:01:39.602	$GPGGA,150140,2535.5855,N,07957.8005,W,1,8,1.6,19,M,,M,,*5B
05/28/2014	15:01:40.603	$GPGGA,150141,2535.5862,N,07957.7989,W,1,9,1.5,19,M,,M,,*5E
05/28/2014	15:01:41.596	$GPGGA,150142,2535.5871,N,07957.7970,W,1,9,1.5,19,M,,M,,*59
05/28/2014	15:01:42.628	$GPGGA,150143,2535.5878,N,07957.7952,W,1,8,1.6,19,M,,M,,*53
05/28/2014	15:01:43.590	$GPGGA,150144,2535.5885,N,07957.7936,W,1,8,1.5,19,M,,M,,*57
05/28/2014	15:01:44.573	$GPGGA,150145,2535.5893,N,07957.7917,W,1,9,1.5,19,M,,M,,*53
05/28/2014	15:01:45.575	$GPGGA,150146,2535.5900,N,07957.7898,W,1,9,1.6,19,M,,M,,*5E
05/28/2014	15:01:46.588	$GPGGA,150147,2535.5907,N,07957.7881,W,1,9,1.5,19,M,,M,,*53
05/28/2014	15:01:47.609	$GPGGA,150148,2535.5914,N,07957.7863,W,1,9,1.5,19,M,,M,,*52
05/28/2014	15:01:48.603	$GPGGA,150149,2535.5923,N,07957.7845,W,1,9,1.5,19,M,,M,,*53
05/28/2014	15:01:49.586	$GPGGA,150150,2535.5930,N,07957.7827,W,1,9,1.6,19,M,,M,,*5E
05/28/2014	15:01:50.589	$GPGGA,150151,2535.5936,N,07957.7810,W,1,9,1.5,19,M,,M,,*5E
05/28/2014	15:01:51.601	$GPGGA,150152,2535.5943,N,07957.7792,W,1,9,1.5,19,M,,M,,*5A
05/28/2014	15:01:52.583	$GPGGA,150153,2535.5951,N,07957.7773,W,1,8,1.6,19,M,,M,,*55
05/28/2014	15:01:53.586	$GPGGA,150154,2535.5958,N,07957.7756,W,1,8,1.5,18,M,,M,,*5E
05/28/2014	15:01:54.599	$GPGGA,150155,2535.5965,N,07957.7739,W,1,9,1.5,18,M,,M,,*59
05/28/2014	15:01:55.601	$GPGGA,150156,2535.5972,N,07957.7721,W,1,9,1.6,18,M,,M,,*56
05/28/2014	15:01:56.594	$GPGGA,150157,2535.5979,N,07957.7705,W,1,9,1.5,18,M,,M,,*59
05/28/2014	15:01:57.596	$GPGGA,150158,2535.5988,N,07957.7688,W,1,9,1.5,18,M,,M,,*5C
05/28/2014	15:01:58.619	$GPGGA,150159,2535.5995,N,07957.7669,W,1,8,1.6,18,M,,M,,*5C
05/28/2014	15:01:59.613	$GPGGA,150200,2535.6001,N,07957.7653,W,1,8,1.5,18,M,,M,,*5E
05/28/2014	15:02:00.584	$GPGGA,150201,2535.6008,N,07957.7636,W,1,9,1.5,18,M,,M,,*54
05/28/2014	15:02:01.586	$GPGGA,150202,2535.6016,N,07957.7618,W,1,9,1.5,18,M,,M,,*54
05/28/2014	15:02:02.628	$GPGGA,150203,2535.6024,N,07957.7601,W,1,9,1.5,18,M,,M,,*5C
05/28/2014	15:02:03.602	$GPGGA,150204,2535.6028,N,07957.7583,W,1,9,1.5,18,M,,M,,*5E
05/28/2014	15:02:04.637	$GPGGA,150205,2535.6035,N,07957.7566,W,1,9,1.5,18,M,,M,,*58
05/28/2014	15:02:05.596	$GPGGA,150206,2535.6044,N,07957.7549,W,1,9,1.5,18,M,,M,,*50
05/28/2014	15:02:06.589	$GPGGA,150207,2535.6049,N,07957.7531,W,1,9,1.5,18,M,,M,,*53
05/28/2014	15:02:07.602	$GPGGA,150208,2535.6057,N,07957.7513,W,1,9,1.7,18,M,,M,,*51
05/28/2014	15:02:08.594	$GPGGA,150209,2535.6063,N,07957.7496,W,1,8,1.6,18,M,,M,,*5B
05/28/2014	15:02:09.687	$GPGGA,150210,2535.6068,N,07957.7479,W,1,8,1.5,18,M,,M,,*5A
05/28/2014	15:02:10.630	$GPGGA,150211,2535.6075,N,07957.7462,W,1,9,1.5,18,M,,M,,*5C
05/28/2014	15:02:11.602	$GPGGA,150212,2535.6082,N,07957.7445,W,1,9,1.7,18,M,,M,,*50
05/28/2014	15:02:12.714	$GPGGA,150213,2535.6088,N,07957.7428,W,1,9,1.5,18,M,,M,,*52
05/28/2014	15:02:13.597	$GPGGA,150214,2535.6095,N,07957.7410,W,1,9,1.5,18,M,,M,,*52
05/28/2014	15:02:15.725	$GPGGA,150216,2535.6111,N,07957.7373,W,1,8,1.5,19,M,,M,,*5F
05/28/2014	15:02:16.705	$GPGGA,150217,2535.6117,N,07957.7356,W,1,9,1.5,19,M,,M,,*5E
05/28/2014	15:02:17.597	$GPGGA,150218,2535.6125,N,07957.7339,W,1,9,1.5,19,M,,M,,*59
05/28/2014	15:02:18.689	$GPGGA,150219,2535.6133,N,07957.7322,W,1,8,1.5,19,M,,M,,*54
05/28/2014	15:02:19.742	$GPGGA,150220,2535.6139,N,07957.7304,W,1,8,1.5,19,M,,M,,*50
05/28/2014	15:02:20.594	$GPGGA,150221,2535.6146,N,07957.7287,W,1,9,1.5,19,M,,M,,*52
05/28/2014	15:02:21.687	$GPGGA,150222,2535.6154,N,07957.7269,W,1,9,1.5,19,M,,M,,*52
05/28/2014	15:02:22.590	$GPGGA,150223,2535.6161,N,07957.7251,W,1,9,1.5,19,M,,M,,*5E
05/28/2014	15:02:23.702	$GPGGA,150224,2535.6168,N,07957.7234,W,1,9,1.5,19,M,,M,,*53
05/28/2014	15:02:24.715	$GPGGA,150225,2535.6175,N,07957.7216,W,1,9,1.5,19,M,,M,,*5E
05/28/2014	15:02:25.697	$GPGGA,150226,2535.6182,N,07957.7197,W,1,9,1.6,19,M,,M,,*5C
05/28/2014	15:02:26.720	$GPGGA,150227,2535.6189,N,07957.7180,W,1,8,1.5,19,M,,M,,*52
05/28/2014	15:02:27.712	$GPGGA,150228,2535.6196,N,07957.7160,W,1,8,1.5,19,M,,M,,*5D
05/28/2014	15:02:28.715	$GPGGA,150229,2535.6204,N,07957.7143,W,1,9,1.5,19,M,,M,,*54
05/28/2014	15:02:29.708	$GPGGA,150230,2535.6211,N,07957.7125,W,1,9,1.5,19,M,,M,,*58
05/28/2014	15:02:30.720	$GPGGA,150231,2535.6218,N,07957.7106,W,1,9,1.5,20,M,,M,,*5B
05/28/2014	15:02:31.716	$GPGGA,150232,2535.6225,N,07957.7088,W,1,9,1.5,20,M,,M,,*51
05/28/2014	15:02:32.715	$GPGGA,150233,2535.6232,N,07957.7070,W,1,9,1.5,20,M,,M,,*51
05/28/2014	15:02:33.699	$GPGGA,150234,2535.6238,N,07957.7052,W,1,9,1.5,20,M,,M,,*5C
05/28/2014	15:02:34.731	$GPGGA,150235,2535.6247,N,07957.7033,W,1,9,1.5,20,M,,M,,*52
05/28/2014	15:02:35.733	$GPGGA,150236,2535.6254,N,07957.7015,W,1,9,1.5,20,M,,M,,*57
05/28/2014	15:02:36.735	$GPGGA,150237,2535.6261,N,07957.6996,W,1,9,1.6,20,M,,M,,*50
05/28/2014	15:02:37.697	$GPGGA,150238,2535.6269,N,07957.6978,W,1,9,1.5,20,M,,M,,*54
05/28/2014	15:02:38.576	$GPGGA,150239,2535.6276,N,07957.6959,W,1,9,1.5,20,M,,M,,*58
05/28/2014	15:02:39.569	$GPGGA,150240,2535.6283,N,07957.6941,W,1,9,1.5,20,M,,M,,*55
05/28/2014	15:02:40.591	$GPGGA,150241,2535.6290,N,07957.6922,W,1,9,1.5,20,M,,M,,*53
05/28/2014	15:02:41.554	$GPGGA,150242,2535.6295,N,07957.6904,W,1,9,1.6,20,M,,M,,*52
05/28/2014	15:02:42.546	$GPGGA,150243,2535.6303,N,07957.6884,W,1,8,1.5,20,M,,M,,*56
05/28/2014	15:02:43.571	$GPGGA,150244,2535.6310,N,07957.6866,W,1,8,1.5,20,M,,M,,*5F
05/28/2014	15:02:44.551	$GPGGA,150245,2535.6317,N,07957.6847,W,1,9,1.5,20,M,,M,,*5B
05/28/2014	15:02:45.564	$GPGGA,150246,2535.6324,N,07957.6830,W,1,9,1.5,20,M,,M,,*58
05/28/2014	15:02:46.588	$GPGGA,150247,2535.6333,N,07957.6812,W,1,9,1.5,20,M,,M,,*5F
05/28/2014	15:02:47.569	$GPGGA,150248,2535.6339,N,07957.6792,W,1,9,1.5,20,M,,M,,*5D
05/28/2014	15:02:48.582	$GPGGA,150249,2535.6346,N,07957.6774,W,1,9,1.6,20,M,,M,,*5F
05/28/2014	15:02:49.544	$GPGGA,150250,2535.6353,N,07957.6755,W,1,9,1.6,20,M,,M,,*50
05/28/2014	15:02:50.547	$GPGGA,150251,2535.6362,N,07957.6737,W,1,8,1.5,20,M,,M,,*55
05/28/2014	15:02:51.571	$GPGGA,150252,2535.6368,N,07957.6719,W,1,8,1.6,20,M,,M,,*53
05/28/2014	15:02:52.582	$GPGGA,150253,2535.6375,N,07957.6701,W,1,8,1.5,20,M,,M,,*54
05/28/2014	15:02:53.554	$GPGGA,150254,2535.6384,N,07957.6682,W,1,8,1.5,20,M,,M,,*57
05/28/2014	15:02:54.687	$GPGGA,150255,2535.6391,N,07957.6666,W,1,9,1.5,20,M,,M,,*59
05/28/2014	15:02:55.589	$GPGGA,150256,2535.6398,N,07957.6650,W,1,9,1.5,20,M,,M,,*56
05/28/2014	15:02:56.652	$GPGGA,150257,2535.6404,N,07957.6632,W,1,9,1.5,20,M,,M,,*51
05/28/2014	15:02:57.564	$GPGGA,150258,2535.6411,N,07957.6614,W,1,9,1.5,20,M,,M,,*5E
05/28/2014	15:02:58.597	$GPGGA,150259,2535.6420,N,07957.6597,W,1,9,1.6,20,M,,M,,*56
05/28/2014	15:02:59.691	$GPGGA,150300,2535.6429,N,07957.6578,W,1,9,1.6,20,M,,M,,*53
05/28/2014	15:03:00.682	$GPGGA,150301,2535.6436,N,07957.6557,W,1,8,1.5,20,M,,M,,*53
05/28/2014	15:03:01.565	$GPGGA,150302,2535.6443,N,07957.6540,W,1,8,1.5,20,M,,M,,*54
05/28/2014	15:03:02.658	$GPGGA,150303,2535.6451,N,07957.6521,W,1,9,1.6,20,M,,M,,*53
05/28/2014	15:03:03.590	$GPGGA,150304,2535.6458,N,07957.6500,W,1,9,1.5,20,M,,M,,*5D
05/28/2014	15:03:04.653	$GPGGA,150305,2535.6467,N,07957.6482,W,1,9,1.5,20,M,,M,,*5B
05/28/2014	15:03:05.655	$GPGGA,150306,2535.6475,N,07957.6465,W,1,9,1.5,20,M,,M,,*52
05/28/2014	15:03:06.669	$GPGGA,150307,2535.6482,N,07957.6446,W,1,9,1.5,20,M,,M,,*5A
05/28/2014	15:03:07.680	$GPGGA,150308,2535.6490,N,07957.6429,W,1,9,1.5,20,M,,M,,*5F
05/28/2014	15:03:08.673	$GPGGA,150309,2535.6497,N,07957.6411,W,1,9,1.5,20,M,,M,,*52
05/28/2014	15:03:09.659	$GPGGA,150310,2535.6505,N,07957.6393,W,1,9,1.5,20,M,,M,,*5D
05/28/2014	15:03:10.667	$GPGGA,150311,2535.6514,N,07957.6375,W,1,9,1.6,20,M,,M,,*57
05/28/2014	15:03:11.680	$GPGGA,150312,2535.6521,N,07957.6360,W,1,9,1.6,20,M,,M,,*56
05/28/2014	15:03:12.692	$GPGGA,150313,2535.6527,N,07957.6341,W,1,9,1.5,20,M,,M,,*51
05/28/2014	15:03:13.655	$GPGGA,150314,2535.6536,N,07957.6323,W,1,9,1.5,20,M,,M,,*52
05/28/2014	15:03:14.662	$GPGGA,150315,2535.6544,N,07957.6303,W,1,8,1.6,20,M,,M,,*56
05/28/2014	15:03:15.610	$GPGGA,150316,2535.6552,N,07957.6284,W,1,8,1.6,20,M,,M,,*5C
05/28/2014	15:03:16.663	$GPGGA,150317,2535.6559,N,07957.6267,W,1,8,1.5,20,M,,M,,*58
05/28/2014	15:03:17.665	$GPGGA,150318,2535.6568,N,07957.6248,W,1,8,1.5,20,M,,M,,*58
05/28/2014	15:03:18.688	$GPGGA,150319,2535.6574,N,07957.6230,W,1,9,1.5,20,M,,M,,*5A
05/28/2014	15:03:19.674	$GPGGA,150320,2535.6581,N,07957.6211,W,1,9,1.5,20,M,,M,,*59
05/28/2014	15:03:20.673	$GPGGA,150321,2535.6590,N,07957.6192,W,1,9,1.6,20,M,,M,,*53
05/28/2014	15:03:21.680	$GPGGA,150322,2535.6598,N,07957.6174,W,1,9,1.6,20,M,,M,,*50
05/28/2014	15:03:22.679	$GPGGA,150323,2535.6605,N,07957.6156,W,1,9,1.5,20,M,,M,,*55
05/28/2014	15:03:23.692	$GPGGA,150324,2535.6612,N,07957.6139,W,1,9,1.5,20,M,,M,,*5D
05/28/2014	15:03:24.684	$GPGGA,150325,2535.6617,N,07957.6120,W,1,9,1.5,20,M,,M,,*51
05/28/2014	15:03:25.666	$GPGGA,150326,2535.6627,N,07957.6102,W,1,9,1.5,20,M,,M,,*51
05/28/2014	15:03:26.693	$GPGGA,150327,2535.6635,N,07957.6085,W,1,8,1.6,20,M,,M,,*5F
05/28/2014	15:03:27.681	$GPGGA,150328,2535.6639,N,07957.6067,W,1,8,1.5,20,M,,M,,*53
05/28/2014	15:03:28.663	$GPGGA,150329,2535.6646,N,07957.6049,W,1,9,1.5,20,M,,M,,*57
05/28/2014	15:03:29.665	$GPGGA,150330,2535.6655,N,07957.6031,W,1,9,1.5,20,M,,M,,*52
05/28/2014	15:03:30.688	$GPGGA,150331,2535.6662,N,07957.6014,W,1,9,1.5,20,M,,M,,*50
05/28/2014	15:03:31.691	$GPGGA,150332,2535.6669,N,07957.5996,W,1,9,1.5,20,M,,M,,*58
05/28/2014	15:03:32.674	$GPGGA,150333,2535.6675,N,07957.5978,W,1,9,1.5,20,M,,M,,*54
05/28/2014	15:03:33.676	$GPGGA,150334,2535.6684,N,07957.5960,W,1,9,1.5,20,M,,M,,*54
05/28/2014	15:03:34.699	$GPGGA,150335,2535.6689,N,07957.5941,W,1,9,1.5,20,M,,M,,*5B
05/28/2014	15:03:35.691	$GPGGA,150336,2535.6696,N,07957.5923,W,1,9,1.7,20,M,,M,,*50
05/28/2014	15:03:36.694	$GPGGA,150337,2535.6703,N,07957.5905,W,1,9,1.5,20,M,,M,,*5A
05/28/2014	15:03:37.676	$GPGGA,150338,2535.6711,N,07957.5886,W,1,9,1.5,20,M,,M,,*5C
05/28/2014	15:03:38.554	$GPGGA,150339,2535.6718,N,07957.5869,W,1,9,1.5,20,M,,M,,*55
05/28/2014	15:03:39.546	$GPGGA,150340,2535.6725,N,07957.5850,W,1,9,1.5,20,M,,M,,*5F
05/28/2014	15:03:40.629	$GPGGA,150341,2535.6732,N,07957.5832,W,1,9,1.5,20,M,,M,,*5C
05/28/2014	15:03:41.612	$GPGGA,150342,2535.6740,N,07957.5815,W,1,9,1.5,20,M,,M,,*5F
05/28/2014	15:03:42.524	$GPGGA,150343,2535.6746,N,07957.5797,W,1,9,1.5,20,M,,M,,*5D
05/28/2014	15:03:43.527	$GPGGA,150344,2535.6753,N,07957.5779,W,1,9,1.5,20,M,,M,,*5E
05/28/2014	15:03:44.539	$GPGGA,150345,2535.6761,N,07957.5762,W,1,9,1.5,20,M,,M,,*54
05/28/2014	15:03:45.512	$GPGGA,150346,2535.6767,N,07957.5744,W,1,9,1.5,20,M,,M,,*55
05/28/2014	15:03:46.614	$GPGGA,150347,2535.6772,N,07957.5726,W,1,9,1.5,20,M,,M,,*54
05/28/2014	15:03:47.526	$GPGGA,150348,2535.6779,N,07957.5708,W,1,9,1.5,20,M,,M,,*5C
05/28/2014	15:03:48.529	$GPGGA,150349,2535.6787,N,07957.5691,W,1,9,1.5,20,M,,M,,*5D
05/28/2014	15:03:49.612	$GPGGA,150350,2535.6794,N,07957.5673,W,1,9,1.5,20,M,,M,,*5B
05/28/2014	15:03:50.624	$GPGGA,150351,2535.6801,N,07957.5654,W,1,9,1.5,20,M,,M,,*5C
05/28/2014	15:03:51.537	$GPGGA,150352,2535.6808,N,07957.5637,W,1,9,1.5,20,M,,M,,*53
05/28/2014	15:03:52.619	$GPGGA,150353,2535.6815,N,07957.5619,W,1,9,1.5,20,M,,M,,*52
05/28/2014	15:03:53.622	$GPGGA,150354,2535.6823,N,07957.5601,W,1,9,1.5,20,M,,M,,*59
05/28/2014	15:03:54.625	$GPGGA,150355,2535.6829,N,07957.5582,W,1,9,1.5,20,M,,M,,*5A
05/28/2014	15:03:55.547	$GPGGA,150356,2535.6836,N,07957.5564,W,1,9,1.5,20,M,,M,,*5F
05/28/2014	15:03:56.530	$GPGGA,150357,2535.6844,N,07957.5545,W,1,8,1.6,20,M,,M,,*5A
05/28/2014	15:03:57.622	$GPGGA,150358,2535.6850,N,07957.5526,W,1,8,1.6,20,M,,M,,*55
05/28/2014	15:03:58.655	$GPGGA,150359,2535.6857,N,07957.5509,W,1,9,1.5,20,M,,M,,*5C
05/28/2014	15:03:59.658	$GPGGA,150400,2535.6866,N,07957.5491,W,1,9,1.6,20,M,,M,,*56
05/28/2014	15:04:00.621	$GPGGA,150401,2535.6873,N,07957.5473,W,1,9,1.5,20,M,,M,,*5C
05/28/2014	15:04:01.633	$GPGGA,150402,2535.6880,N,07957.5454,W,1,9,1.5,20,M,,M,,*56
05/28/2014	15:04:02.625	$GPGGA,150403,2535.6887,N,07957.5435,W,1,8,1.6,20,M,,M,,*55
05/28/2014	15:04:03.637	$GPGGA,150404,2535.6895,N,07957.5418,W,1,8,1.5,20,M,,M,,*5D
05/28/2014	15:04:04.650	$GPGGA,150405,2535.6904,N,07957.5402,W,1,8,1.6,20,M,,M,,*5D
05/28/2014	15:04:05.632	$GPGGA,150406,2535.6911,N,07957.5383,W,1,8,1.5,20,M,,M,,*57
05/28/2014	15:04:06.645	$GPGGA,150407,2535.6917,N,07957.5365,W,1,9,1.5,20,M,,M,,*59
05/28/2014	15:04:07.637	$GPGGA,150408,2535.6927,N,07957.5348,W,1,9,1.5,20,M,,M,,*5A
05/28/2014	15:04:08.654	$GPGGA,150409,2535.6935,N,07957.5330,W,1,9,1.5,20,M,,M,,*57
05/28/2014	15:04:09.643	$GPGGA,150410,2535.6941,N,07957.5311,W,1,9,1.5,20,M,,M,,*5F
05/28/2014	15:04:10.625	$GPGGA,150411,2535.6949,N,07957.5293,W,1,9,1.5,20,M,,M,,*5D
05/28/2014	15:04:11.651	$GPGGA,150412,2535.6956,N,07957.5275,W,1,9,1.5,20,M,,M,,*58
05/28/2014	15:04:12.650	$GPGGA,150413,2535.6962,N,07957.5257,W,1,9,1.5,20,M,,M,,*5E
05/28/2014	15:04:13.633	$GPGGA,150414,2535.6970,N,07957.5238,W,1,9,1.6,20,M,,M,,*50
05/28/2014	15:04:14.625	$GPGGA,150415,2535.6977,N,07957.5220,W,1,9,1.5,20,M,,M,,*5C
05/28/2014	15:04:15.648	$GPGGA,150416,2535.6984,N,07957.5201,W,1,9,1.5,20,M,,M,,*50
05/28/2014	15:04:16.652	$GPGGA,150417,2535.6991,N,07957.5181,W,1,8,1.6,20,M,,M,,*5C
05/28/2014	15:04:17.633	$GPGGA,150418,2535.7000,N,07957.5164,W,1,8,1.5,20,M,,M,,*5B
05/28/2014	15:04:18.626	$GPGGA,150419,2535.7007,N,07957.5145,W,1,9,1.5,20,M,,M,,*5F
05/28/2014	15:04:19.638	$GPGGA,150420,2535.7013,N,07957.5126,W,1,9,1.6,20,M,,M,,*56
05/28/2014	15:04:20.661	$GPGGA,150421,2535.7021,N,07957.5108,W,1,9,1.5,20,M,,M,,*59
05/28/2014	15:04:21.633	$GPGGA,150422,2535.7029,N,07957.5091,W,1,9,1.5,20,M,,M,,*53
05/28/2014	15:04:22.655	$GPGGA,150423,2535.7036,N,07957.5073,W,1,9,1.5,20,M,,M,,*50
05/28/2014	15:04:23.638	$GPGGA,150424,2535.7043,N,07957.5054,W,1,9,1.5,20,M,,M,,*50
05/28/2014	15:04:24.640	$GPGGA,150425,2535.7050,N,07957.5036,W,1,8,1.6,20,M,,M,,*55
05/28/2014	15:04:25.633	$GPGGA,150426,2535.7057,N,07957.5019,W,1,8,1.5,20,M,,M,,*5F
05/28/2014	15:04:26.746	$GPGGA,150427,2535.7065,N,07957.5001,W,1,9,1.5,20,M,,M,,*57
05/28/2014	15:04:27.659	$GPGGA,150428,2535.7072,N,07957.4983,W,1,9,1.5,20,M,,M,,*5C
05/28/2014	15:04:28.631	$GPGGA,150429,2535.7079,N,07957.4964,W,1,9,1.5,20,M,,M,,*5F
05/28/2014	15:04:29.754	$GPGGA,150430,2535.7087,N,07957.4945,W,1,9,1.5,20,M,,M,,*55
05/28/2014	15:04:30.656	$GPGGA,150431,2535.7094,N,07957.4927,W,1,9,1.5,20,M,,M,,*52
05/28/2014	15:04:31.660	$GPGGA,150432,2535.7101,N,07957.4908,W,1,9,1.5,20,M,,M,,*51
05/28/2014	15:04:32.661	$GPGGA,150433,2535.7110,N,07957.4890,W,1,9,1.5,20,M,,M,,*50
05/28/2014	15:04:33.644	$GPGGA,150434,2535.7115,N,07957.4871,W,1,9,1.5,20,M,,M,,*5D
05/28/2014	15:04:34.666	$GPGGA,150435,2535.7122,N,07957.4853,W,1,9,1.5,20,M,,M,,*58
05/28/2014	15:04:35.749	$GPGGA,150436,2535.7132,N,07957.4834,W,1,9,1.5,20,M,,M,,*5B
05/28/2014	15:04:36.653	$GPGGA,150437,2535.7140,N,07957.4815,W,1,9,1.5,20,M,,M,,*5C
05/28/2014	15:04:37.744	$GPGGA,150438,2535.7144,N,07957.4797,W,1,9,1.5,20,M,,M,,*52
05/28/2014	15:04:38.582	$GPGGA,150439,2535.7151,N,07957.4778,W,1,9,1.5,20,M,,M,,*56
05/28/2014	15:04:39.504	$GPGGA,150440,2535.7161,N,07957.4760,W,1,9,1.6,20,M,,M,,*51
05/28/2014	15:04:40.497	$GPGGA,150441,2535.7168,N,07957.4741,W,1,9,1.5,20,M,,M,,*59
05/28/2014	15:04:41.582	$GPGGA,150442,2535.7173,N,07957.4721,W,1,9,1.6,20,M,,M,,*55
05/28/2014	15:04:42.592	$GPGGA,150443,2535.7180,N,07957.4703,W,1,9,1.5,20,M,,M,,*5B
05/28/2014	15:04:43.605	$GPGGA,150444,2535.7190,N,07957.4684,W,1,9,1.5,20,M,,M,,*53
05/28/2014	15:04:44.588	$GPGGA,150445,2535.7197,N,07957.4665,W,1,9,1.5,19,M,,M,,*50
05/28/2014	15:04:45.590	$GPGGA,150446,2535.7204,N,07957.4647,W,1,9,1.7,19,M,,M,,*58
05/28/2014	15:04:46.606	$GPGGA,150447,2535.7212,N,07957.4628,W,1,9,1.5,19,M,,M,,*55
05/28/2014	15:04:47.605	$GPGGA,150448,2535.7217,N,07957.4609,W,1,9,1.5,19,M,,M,,*5C
05/28/2014	15:04:48.608	$GPGGA,150449,2535.7223,N,07957.4591,W,1,9,1.5,19,M,,M,,*58
05/28/2014	15:04:49.594	$GPGGA,150450,2535.7230,N,07957.4575,W,1,9,1.6,19,M,,M,,*5B
05/28/2014	15:04:50.614	$GPGGA,150451,2535.7237,N,07957.4557,W,1,8,1.6,19,M,,M,,*5C
05/28/2014	15:04:51.608	$GPGGA,150452,2535.7242,N,07957.4539,W,1,8,1.5,19,M,,M,,*56
05/28/2014	15:04:52.611	$GPGGA,150453,2535.7249,N,07957.4522,W,1,9,1.5,19,M,,M,,*57
05/28/2014	15:04:53.604	$GPGGA,150454,2535.7256,N,07957.4504,W,1,9,1.5,19,M,,M,,*5A
05/28/2014	15:04:54.604	$GPGGA,150455,2535.7264,N,07957.4485,W,1,9,1.5,19,M,,M,,*52
05/28/2014	15:04:55.606	$GPGGA,150456,2535.7271,N,07957.4466,W,1,9,1.7,19,M,,M,,*5A
05/28/2014	15:04:56.620	$GPGGA,150457,2535.7278,N,07957.4447,W,1,9,1.5,19,M,,M,,*53
05/28/2014	15:04:57.590	$GPGGA,150458,2535.7285,N,07957.4429,W,1,9,1.5,19,M,,M,,*56
05/28/2014	15:04:58.604	$GPGGA,150459,2535.7294,N,07957.4411,W,1,9,1.5,19,M,,M,,*5C
05/28/2014	15:04:59.618	$GPGGA,150500,2535.7300,N,07957.4392,W,1,9,1.5,19,M,,M,,*51
05/28/2014	15:05:00.628	$GPGGA,150501,2535.7306,N,07957.4375,W,1,8,1.7,19,M,,M,,*5C
05/28/2014	15:05:01.601	$GPGGA,150502,2535.7314,N,07957.4356,W,1,8,1.5,19,M,,M,,*5F
05/28/2014	15:05:02.594	$GPGGA,150503,2535.7324,N,07957.4337,W,1,9,1.5,19,M,,M,,*5B
05/28/2014	15:05:03.616	$GPGGA,150504,2535.7331,N,07957.4318,W,1,9,1.5,19,M,,M,,*55
05/28/2014	15:05:04.598	$GPGGA,150505,2535.7339,N,07957.4299,W,1,9,1.5,19,M,,M,,*54
05/28/2014	15:05:05.601	$GPGGA,150506,2535.7347,N,07957.4281,W,1,9,1.5,19,M,,M,,*57
05/28/2014	15:05:06.604	$GPGGA,150507,2535.7356,N,07957.4261,W,1,8,1.6,19,M,,M,,*5A
05/28/2014	15:05:07.616	$GPGGA,150508,2535.7363,N,07957.4243,W,1,8,1.5,19,M,,M,,*50
05/28/2014	15:05:08.599	$GPGGA,150509,2535.7370,N,07957.4225,W,1,9,1.5,19,M,,M,,*52
05/28/2014	15:05:09.611	$GPGGA,150510,2535.7378,N,07957.4206,W,1,9,1.5,19,M,,M,,*53
05/28/2014	15:05:10.634	$GPGGA,150511,2535.7386,N,07957.4189,W,1,8,1.6,19,M,,M,,*55
05/28/2014	15:05:11.607	$GPGGA,150512,2535.7392,N,07957.4169,W,1,8,1.5,19,M,,M,,*5E
05/28/2014	15:05:12.629	$GPGGA,150513,2535.7401,N,07957.4150,W,1,9,1.5,19,M,,M,,*59
05/28/2014	15:05:13.611	$GPGGA,150514,2535.7410,N,07957.4133,W,1,9,1.5,19,M,,M,,*5B
05/28/2014	15:05:14.623	$GPGGA,150515,2535.7417,N,07957.4114,W,1,8,1.6,19,M,,M,,*5A
05/28/2014	15:05:15.617	$GPGGA,150516,2535.7422,N,07957.4097,W,1,8,1.5,19,M,,M,,*56
05/28/2014	15:05:16.619	$GPGGA,150517,2535.7432,N,07957.4080,W,1,9,1.5,19,M,,M,,*51
05/28/2014	15:05:17.601	$GPGGA,150518,2535.7440,N,07957.4062,W,1,9,1.6,19,M,,M,,*54
05/28/2014	15:05:18.704	$GPGGA,150519,2535.7446,N,07957.4045,W,1,9,1.5,19,M,,M,,*55
05/28/2014	15:05:19.717	$GPGGA,150520,2535.7453,N,07957.4029,W,1,9,1.5,19,M,,M,,*51
05/28/2014	15:05:20.609	$GPGGA,150521,2535.7462,N,07957.4011,W,1,9,1.5,19,M,,M,,*59
05/28/2014	15:05:21.702	$GPGGA,150522,2535.7471,N,07957.3994,W,1,9,1.5,19,M,,M,,*5B
05/28/2014	15:05:22.796	$GPGGA,150523,2535.7477,N,07957.3976,W,1,9,1.5,19,M,,M,,*50
05/28/2014	15:05:23.637	$GPGGA,150524,2535.7484,N,07957.3958,W,1,9,1.5,19,M,,M,,*57
05/28/2014	15:05:24.609	$GPGGA,150525,2535.7493,N,07957.3940,W,1,9,1.5,19,M,,M,,*59
05/28/2014	15:05:25.732	$GPGGA,150526,2535.7500,N,07957.3922,W,1,9,1.5,19,M,,M,,*55
05/28/2014	15:05:26.805	$GPGGA,150527,2535.7506,N,07957.3904,W,1,9,1.5,19,M,,M,,*56
05/28/2014	15:05:27.768	$GPGGA,150528,2535.7513,N,07957.3886,W,1,9,1.5,19,M,,M,,*56
05/28/2014	15:05:28.620	$GPGGA,150529,2535.7522,N,07957.3869,W,1,9,1.5,19,M,,M,,*54
05/28/2014	15:05:29.733	$GPGGA,150530,2535.7530,N,07957.3850,W,1,9,1.5,19,M,,M,,*55
05/28/2014	15:05:30.804	$GPGGA,150531,2535.7537,N,07957.3831,W,1,9,1.5,19,M,,M,,*54
05/28/2014	15:05:31.747	$GPGGA,150532,2535.7544,N,07957.3814,W,1,9,1.5,19,M,,M,,*54
05/28/2014	15:05:32.810	$GPGGA,150533,2535.7552,N,07957.3795,W,1,9,1.5,19,M,,M,,*54
05/28/2014	15:05:33.742	$GPGGA,150534,2535.7560,N,07957.3777,W,1,9,1.5,19,M,,M,,*5E
05/28/2014	15:05:34.815	$GPGGA,150535,2535.7566,N,07957.3759,W,1,9,1.5,19,M,,M,,*55
05/28/2014	15:05:35.767	$GPGGA,150536,2535.7573,N,07957.3740,W,1,9,1.5,19,M,,M,,*5A
05/28/2014	15:05:36.770	$GPGGA,150537,2535.7581,N,07957.3722,W,1,9,1.5,19,M,,M,,*52
05/28/2014	15:05:37.732	$GPGGA,150538,2535.7589,N,07957.3702,W,1,9,1.5,19,M,,M,,*57
05/28/2014	15:05:38.621	$GPGGA,150539,2535.7595,N,07957.3683,W,1,8,1.6,19,M,,M,,*51
05/28/2014	15:05:39.624	$GPGGA,150540,2535.7603,N,07957.3664,W,1,8,1.5,19,M,,M,,*59
05/28/2014	15:05:40.676	$GPGGA,150541,2535.7610,N,07957.3644,W,1,9,1.5,19,M,,M,,*59
05/28/2014	15:05:41.559	$GPGGA,150542,2535.7617,N,07957.3625,W,1,9,1.5,19,M,,M,,*5A
05/28/2014	15:05:42.662	$GPGGA,150543,2535.7625,N,07957.3607,W,1,9,1.5,19,M,,M,,*5A
05/28/2014	15:05:43.564	$GPGGA,150544,2535.7632,N,07957.3589,W,1,9,1.5,19,M,,M,,*5E
05/28/2014	15:05:44.556	$GPGGA,150545,2535.7639,N,07957.3569,W,1,9,1.5,19,M,,M,,*5A
05/28/2014	15:05:45.579	$GPGGA,150546,2535.7646,N,07957.3552,W,1,9,1.5,19,M,,M,,*59
05/28/2014	15:05:46.695	$GPGGA,150547,2535.7654,N,07957.3532,W,1,9,1.5,19,M,,M,,*5D
05/28/2014	15:05:47.604	$GPGGA,150548,2535.7661,N,07957.3513,W,1,9,1.5,19,M,,M,,*57
05/28/2014	15:05:48.686	$GPGGA,150549,2535.7667,N,07957.3495,W,1,9,1.5,19,M,,M,,*5F
05/28/2014	15:05:49.599	$GPGGA,150550,2535.7674,N,07957.3476,W,1,9,1.5,19,M,,M,,*58
05/28/2014	15:05:50.631	$GPGGA,150551,2535.7683,N,07957.3458,W,1,9,1.5,19,M,,M,,*5D
05/28/2014	15:05:51.604	$GPGGA,150552,2535.7690,N,07957.3440,W,1,9,1.5,19,M,,M,,*55
05/28/2014	15:05:52.566	$GPGGA,150553,2535.7695,N,07957.3421,W,1,9,1.5,19,M,,M,,*56
05/28/2014	15:05:53.569	$GPGGA,150554,2535.7703,N,07957.3404,W,1,9,1.5,19,M,,M,,*58
05/28/2014	15:05:54.682	$GPGGA,150555,2535.7711,N,07957.3385,W,1,9,1.5,19,M,,M,,*54
05/28/2014	15:05:55.614	$GPGGA,150556,2535.7717,N,07957.3366,W,1,9,1.5,19,M,,M,,*5C
05/28/2014	15:05:56.667	$GPGGA,150557,2535.7725,N,07957.3348,W,1,9,1.6,19,M,,M,,*53
05/28/2014	15:05:57.559	$GPGGA,150558,2535.7732,N,07957.3331,W,1,9,1.6,19,M,,M,,*54
05/28/2014	15:05:58.652	$GPGGA,150559,2535.7740,N,07957.3312,W,1,8,1.5,19,M,,M,,*53
05/28/2014	15:05:59.717	$GPGGA,150600,2535.7748,N,07957.3296,W,1,8,1.5,19,M,,M,,*59
05/28/2014	15:06:00.657	$GPGGA,150601,2535.7757,N,07957.3278,W,1,9,1.5,18,M,,M,,*56
05/28/2014	15:06:01.611	$GPGGA,150602,2535.7762,N,07957.3258,W,1,9,1.5,18,M,,M,,*51
05/28/2014	15:06:02.642	$GPGGA,150603,2535.7769,N,07957.3241,W,1,9,1.5,18,M,,M,,*53
05/28/2014	15:06:03.705	$GPGGA,150604,2535.7779,N,07957.3222,W,1,9,1.6,18,M,,M,,*53
05/28/2014	15:06:04.567	$GPGGA,150605,2535.7786,N,07957.3205,W,1,8,1.6,18,M,,M,,*56
05/28/2014	15:06:05.669	$GPGGA,150606,2535.7793,N,07957.3187,W,1,8,1.5,18,M,,M,,*5B
05/28/2014	15:06:06.652	$GPGGA,150607,2535.7801,N,07957.3169,W,1,9,1.5,18,M,,M,,*5F
05/28/2014	15:06:07.625	$GPGGA,150608,2535.7809,N,07957.3151,W,1,9,1.5,18,M,,M,,*53
05/28/2014	15:06:08.717	$GPGGA,150609,2535.7816,N,07957.3132,W,1,8,1.5,18,M,,M,,*58
05/28/2014	15:06:09.601	$GPGGA,150610,2535.7823,N,07957.3113,W,1,8,1.6,18,M,,M,,*56
05/28/2014	15:06:10.702	$GPGGA,150611,2535.7831,N,07957.3099,W,1,8,1.6,18,M,,M,,*57
05/28/2014	15:06:11.617	$GPGGA,150612,2535.7838,N,07957.3081,W,1,8,1.5,18,M,,M,,*57
05/28/2014	15:06:12.707	$GPGGA,150613,2535.7845,N,07957.3062,W,1,9,1.6,18,M,,M,,*53
05/28/2014	15:06:13.610	$GPGGA,150614,2535.7852,N,07957.3043,W,1,9,1.5,18,M,,M,,*52
05/28/2014	15:06:14.723	$GPGGA,150615,2535.7860,N,07957.3024,W,1,9,1.5,18,M,,M,,*53
05/28/2014	15:06:15.685	$GPGGA,150616,2535.7869,N,07957.3005,W,1,9,1.5,18,M,,M,,*5A
05/28/2014	15:06:16.708	$GPGGA,150617,2535.7874,N,07957.2987,W,1,9,1.5,18,M,,M,,*55
05/28/2014	15:06:17.680	$GPGGA,150618,2535.7881,N,07957.2969,W,1,9,1.5,18,M,,M,,*50
05/28/2014	15:06:18.684	$GPGGA,150619,2535.7889,N,07957.2950,W,1,9,1.6,18,M,,M,,*50
05/28/2014	15:06:19.686	$GPGGA,150620,2535.7898,N,07957.2930,W,1,9,1.5,18,M,,M,,*5F
05/28/2014	15:06:20.708	$GPGGA,150621,2535.7905,N,07957.2912,W,1,9,1.5,18,M,,M,,*5B
05/28/2014	15:06:21.681	$GPGGA,150622,2535.7910,N,07957.2893,W,1,9,1.5,18,M,,M,,*54
05/28/2014	15:06:22.693	$GPGGA,150623,2535.7920,N,07957.2874,W,1,9,1.5,18,M,,M,,*5F
05/28/2014	15:06:23.695	$GPGGA,150624,2535.7928,N,07957.2855,W,1,9,1.5,18,M,,M,,*53
05/28/2014	15:06:24.719	$GPGGA,150625,2535.7935,N,07957.2837,W,1,9,1.5,18,M,,M,,*5A
05/28/2014	15:06:25.707	$GPGGA,150626,2535.7943,N,07957.2819,W,1,9,1.5,18,M,,M,,*54
05/28/2014	15:06:26.743	$GPGGA,150627,2535.7950,N,07957.2801,W,1,9,1.5,17,M,,M,,*51
05/28/2014	15:06:27.685	$GPGGA,150628,2535.7957,N,07957.2783,W,1,9,1.5,17,M,,M,,*5C
05/28/2014	15:06:28.718	$GPGGA,150629,2535.7964,N,07957.2764,W,1,9,1.5,17,M,,M,,*54
05/28/2014	15:06:29.692	$GPGGA,150630,2535.7972,N,07957.2747,W,1,9,1.5,17,M,,M,,*5A
05/28/2014	15:06:30.753	$GPGGA,150631,2535.7979,N,07957.2729,W,1,9,1.5,17,M,,M,,*58
05/28/2014	15:06:31.696	$GPGGA,150632,2535.7986,N,07957.2711,W,1,9,1.5,17,M,,M,,*50
05/28/2014	15:06:32.718	$GPGGA,150633,2535.7995,N,07957.2695,W,1,9,1.5,17,M,,M,,*5E
05/28/2014	15:06:33.692	$GPGGA,150634,2535.8003,N,07957.2676,W,1,9,1.5,17,M,,M,,*5D
05/28/2014	15:06:34.723	$GPGGA,150635,2535.8008,N,07957.2658,W,1,9,1.5,17,M,,M,,*5B
05/28/2014	15:06:35.706	$GPGGA,150636,2535.8015,N,07957.2641,W,1,9,1.5,17,M,,M,,*5C
05/28/2014	15:06:36.690	$GPGGA,150637,2535.8015,N,07957.2641,W,1,9,1.5,17,M,,M,,*5D
05/28/2014	15:06:37.681	$GPGGA,150638,2535.8031,N,07957.2604,W,1,9,1.5,17,M,,M,,*55
05/28/2014	15:06:38.529	$GPGGA,150639,2535.8031,N,07957.2604,W,1,9,1.5,17,M,,M,,*54
05/28/2014	15:06:39.551	$GPGGA,150640,2535.8037,N,07957.2586,W,1,9,1.5,17,M,,M,,*55
05/28/2014	15:06:40.593	$GPGGA,150641,2535.8051,N,07957.2550,W,1,9,1.5,17,M,,M,,*5F
05/28/2014	15:06:41.546	$GPGGA,150642,2535.8058,N,07957.2531,W,1,9,1.5,17,M,,M,,*52
05/28/2014	15:06:42.568	$GPGGA,150643,2535.8058,N,07957.2531,W,1,9,1.5,17,M,,M,,*53
05/28/2014	15:06:43.541	$GPGGA,150644,2535.8073,N,07957.2495,W,1,9,1.5,17,M,,M,,*52
05/28/2014	15:06:44.655	$GPGGA,150645,2535.8080,N,07957.2476,W,1,9,1.5,17,M,,M,,*52
05/28/2014	15:06:45.537	$GPGGA,150646,2535.8087,N,07957.2458,W,1,9,1.5,17,M,,M,,*5A
05/28/2014	15:06:46.639	$GPGGA,150647,2535.8094,N,07957.2441,W,1,9,1.5,17,M,,M,,*51
05/28/2014	15:06:47.662	$GPGGA,150648,2535.8102,N,07957.2421,W,1,9,1.5,17,M,,M,,*56
05/28/2014	15:06:48.654	$GPGGA,150649,2535.8109,N,07957.2404,W,1,9,1.5,17,M,,M,,*5B
05/28/2014	15:06:49.536	$GPGGA,150650,2535.8113,N,07957.2385,W,1,9,1.5,17,M,,M,,*56
05/28/2014	15:06:50.649	$GPGGA,150651,2535.8123,N,07957.2366,W,1,9,1.5,17,M,,M,,*59
05/28/2014	15:06:51.542	$GPGGA,150652,2535.8130,N,07957.2348,W,1,9,1.5,17,M,,M,,*54
05/28/2014	15:06:52.655	$GPGGA,150653,2535.8136,N,07957.2329,W,1,9,1.5,17,M,,M,,*54
05/28/2014	15:06:53.547	$GPGGA,150654,2535.8145,N,07957.2311,W,1,9,1.5,17,M,,M,,*5C
05/28/2014	15:06:54.559	$GPGGA,150655,2535.8145,N,07957.2311,W,1,9,1.5,17,M,,M,,*5D
05/28/2014	15:06:55.542	$GPGGA,150656,2535.8159,N,07957.2273,W,1,9,1.6,17,M,,M,,*55
05/28/2014	15:06:56.685	$GPGGA,150657,2535.8166,N,07957.2255,W,1,8,1.6,17,M,,M,,*5D
05/28/2014	15:06:57.537	$GPGGA,150658,2535.8174,N,07957.2236,W,1,8,1.5,17,M,,M,,*57
05/28/2014	15:06:58.649	$GPGGA,150659,2535.8181,N,07957.2216,W,1,9,1.5,17,M,,M,,*5F
05/28/2014	15:06:59.551	$GPGGA,150700,2535.8181,N,07957.2216,W,1,9,1.5,17,M,,M,,*52
05/28/2014	15:07:00.654	$GPGGA,150701,2535.8195,N,07957.2178,W,1,9,1.5,17,M,,M,,*5D
05/28/2014	15:07:01.637	$GPGGA,150702,2535.8203,N,07957.2160,W,1,9,1.5,17,M,,M,,*5B
05/28/2014	15:07:02.639	$GPGGA,150703,2535.8210,N,07957.2141,W,1,9,1.5,17,M,,M,,*5B
05/28/2014	15:07:03.652	$GPGGA,150704,2535.8217,N,07957.2122,W,1,9,1.5,17,M,,M,,*5E
05/28/2014	15:07:04.635	$GPGGA,150705,2535.8224,N,07957.2105,W,1,9,1.5,17,M,,M,,*5A
05/28/2014	15:07:05.649	$GPGGA,150706,2535.8232,N,07957.2086,W,1,9,1.5,17,M,,M,,*54
05/28/2014	15:07:06.640	$GPGGA,150707,2535.8239,N,07957.2068,W,1,9,1.5,17,M,,M,,*5E
05/28/2014	15:07:07.652	$GPGGA,150708,2535.8246,N,07957.2050,W,1,9,1.5,17,M,,M,,*52
05/28/2014	15:07:08.675	$GPGGA,150709,2535.8253,N,07957.2030,W,1,9,1.5,17,M,,M,,*51
05/28/2014	15:07:09.648	$GPGGA,150710,2535.8260,N,07957.2014,W,1,9,2.0,17,M,,M,,*59
05/28/2014	15:07:10.660	$GPGGA,150711,2535.8268,N,07957.1996,W,1,9,1.5,17,M,,M,,*56
05/28/2014	15:07:11.653	$GPGGA,150712,2535.8275,N,07957.1976,W,1,9,1.5,17,M,,M,,*57
05/28/2014	15:07:12.658	$GPGGA,150713,2535.8282,N,07957.1958,W,1,9,1.5,17,M,,M,,*52
05/28/2014	15:07:13.638	$GPGGA,150714,2535.8289,N,07957.1940,W,1,9,1.5,17,M,,M,,*57
05/28/2014	15:07:14.640	$GPGGA,150715,2535.8297,N,07957.1919,W,1,8,1.6,17,M,,M,,*57
05/28/2014	15:07:15.662	$GPGGA,150716,2535.8304,N,07957.1901,W,1,8,1.5,17,M,,M,,*55
05/28/2014	15:07:16.636	$GPGGA,150717,2535.8311,N,07957.1883,W,1,9,1.5,17,M,,M,,*5A
05/28/2014	15:07:17.637	$GPGGA,150718,2535.8320,N,07957.1863,W,1,9,1.5,17,M,,M,,*59
05/28/2014	15:07:18.680	$GPGGA,150719,2535.8328,N,07957.1845,W,1,9,1.5,17,M,,M,,*54
05/28/2014	15:07:19.652	$GPGGA,150720,2535.8336,N,07957.1827,W,1,9,1.5,17,M,,M,,*55
05/28/2014	15:07:20.655	$GPGGA,150721,2535.8344,N,07957.1808,W,1,9,1.5,17,M,,M,,*5C
05/28/2014	15:07:21.638	$GPGGA,150722,2535.8351,N,07957.1790,W,1,9,1.5,17,M,,M,,*55
05/28/2014	15:07:22.690	$GPGGA,150723,2535.8358,N,07957.1771,W,1,9,1.5,17,M,,M,,*52
05/28/2014	15:07:23.663	$GPGGA,150724,2535.8365,N,07957.1753,W,1,9,1.5,17,M,,M,,*5B
05/28/2014	15:07:24.666	$GPGGA,150725,2535.8373,N,07957.1735,W,1,9,1.5,17,M,,M,,*5D
05/28/2014	15:07:25.648	$GPGGA,150726,2535.8380,N,07957.1717,W,1,9,1.5,17,M,,M,,*52
05/28/2014	15:07:26.681	$GPGGA,150727,2535.8387,N,07957.1698,W,1,9,1.5,17,M,,M,,*52
05/28/2014	15:07:27.663	$GPGGA,150728,2535.8396,N,07957.1680,W,1,9,1.5,17,M,,M,,*54
05/28/2014	15:07:28.666	$GPGGA,150729,2535.8404,N,07957.1662,W,1,9,1.5,17,M,,M,,*55
05/28/2014	15:07:29.769	$GPGGA,150730,2535.8412,N,07957.1642,W,1,9,1.5,17,M,,M,,*58
05/28/2014	15:07:30.651	$GPGGA,150731,2535.8418,N,07957.1624,W,1,9,1.5,18,M,,M,,*5C
05/28/2014	15:07:31.674	$GPGGA,150732,2535.8426,N,07957.1606,W,1,9,1.5,18,M,,M,,*52
05/28/2014	15:07:32.646	$GPGGA,150733,2535.8434,N,07957.1587,W,1,9,1.5,18,M,,M,,*5A
05/28/2014	15:07:33.768	$GPGGA,150734,2535.8441,N,07957.1568,W,1,9,1.5,18,M,,M,,*5E
05/28/2014	15:07:34.771	$GPGGA,150735,2535.8448,N,07957.1551,W,1,9,1.5,18,M,,M,,*5C
05/28/2014	15:07:35.783	$GPGGA,150736,2535.8455,N,07957.1531,W,1,9,1.5,18,M,,M,,*55
05/28/2014	15:07:36.766	$GPGGA,150737,2535.8462,N,07957.1514,W,1,8,1.6,18,M,,M,,*55
05/28/2014	15:07:37.668	$GPGGA,150738,2535.8470,N,07957.1496,W,1,8,1.5,18,M,,M,,*51
05/28/2014	15:07:38.637	$GPGGA,150739,2535.8477,N,07957.1478,W,1,9,1.5,18,M,,M,,*56
05/28/2014	15:07:39.519	$GPGGA,150740,2535.8484,N,07957.1460,W,1,9,1.5,18,M,,M,,*5D
05/28/2014	15:07:40.522	$GPGGA,150741,2535.8492,N,07957.1441,W,1,9,1.5,18,M,,M,,*58
05/28/2014	15:07:41.605	$GPGGA,150742,2535.8501,N,07957.1424,W,1,9,1.5,18,M,,M,,*53
05/28/2014	15:07:42.507	$GPGGA,150743,2535.8508,N,07957.1404,W,1,9,1.5,18,M,,M,,*59
05/28/2014	15:07:43.620	$GPGGA,150744,2535.8513,N,07957.1386,W,1,9,1.5,18,M,,M,,*59
05/28/2014	15:07:44.613	$GPGGA,150745,2535.8521,N,07957.1369,W,1,9,1.5,18,M,,M,,*58
05/28/2014	15:07:45.595	$GPGGA,150746,2535.8530,N,07957.1350,W,1,9,1.5,18,M,,M,,*51
05/28/2014	15:07:46.638	$GPGGA,150747,2535.8535,N,07957.1332,W,1,9,1.5,19,M,,M,,*50
05/28/2014	15:07:47.620	$GPGGA,150748,2535.8542,N,07957.1316,W,1,9,1.5,19,M,,M,,*59
05/28/2014	15:07:48.613	$GPGGA,150749,2535.8550,N,07957.1297,W,1,9,1.5,19,M,,M,,*53
05/28/2014	15:07:49.606	$GPGGA,150750,2535.8560,N,07957.1279,W,1,9,1.5,19,M,,M,,*58
05/28/2014	15:07:50.627	$GPGGA,150751,2535.8567,N,07957.1262,W,1,9,1.5,19,M,,M,,*54
05/28/2014	15:07:51.620	$GPGGA,150752,2535.8573,N,07957.1243,W,1,9,1.5,19,M,,M,,*51
05/28/2014	15:07:52.622	$GPGGA,150753,2535.8581,N,07957.1226,W,1,9,1.5,19,M,,M,,*5E
05/28/2014	15:07:53.605	$GPGGA,150754,2535.8588,N,07957.1208,W,1,9,1.5,19,M,,M,,*5C
05/28/2014	15:07:54.628	$GPGGA,150755,2535.8595,N,07957.1189,W,1,9,1.5,19,M,,M,,*5B
05/28/2014	15:07:55.620	$GPGGA,150756,2535.8602,N,07957.1172,W,1,9,1.5,19,M,,M,,*51
05/28/2014	15:07:56.634	$GPGGA,150757,2535.8610,N,07957.1154,W,1,9,1.5,19,M,,M,,*57
05/28/2014	15:07:57.616	$GPGGA,150758,2535.8618,N,07957.1135,W,1,9,1.5,19,M,,M,,*57
05/28/2014	15:07:58.638	$GPGGA,150759,2535.8624,N,07957.1117,W,1,9,1.5,19,M,,M,,*59
05/28/2014	15:07:59.642	$GPGGA,150800,2535.8632,N,07957.1099,W,1,9,1.5,19,M,,M,,*5A
05/28/2014	15:08:00.633	$GPGGA,150801,2535.8639,N,07957.1080,W,1,9,1.5,19,M,,M,,*58
05/28/2014	15:08:01.606	$GPGGA,150802,2535.8644,N,07957.1062,W,1,9,1.5,19,M,,M,,*5D
05/28/2014	15:08:02.598	$GPGGA,150803,2535.8653,N,07957.1043,W,1,9,1.5,19,M,,M,,*59
05/28/2014	15:08:03.631	$GPGGA,150804,2535.8660,N,07957.1025,W,1,9,1.5,19,M,,M,,*5E
05/28/2014	15:08:04.604	$GPGGA,150805,2535.8665,N,07957.1007,W,1,9,1.5,19,M,,M,,*5A
05/28/2014	15:08:05.617	$GPGGA,150806,2535.8674,N,07957.0988,W,1,9,1.5,19,M,,M,,*56
05/28/2014	15:08:06.609	$GPGGA,150807,2535.8680,N,07957.0968,W,1,9,1.5,19,M,,M,,*52
05/28/2014	15:08:07.611	$GPGGA,150808,2535.8687,N,07957.0950,W,1,9,1.5,19,M,,M,,*51
05/28/2014	15:08:08.643	$GPGGA,150809,2535.8694,N,07957.0932,W,1,9,1.5,19,M,,M,,*56
05/28/2014	15:08:09.615	$GPGGA,150810,2535.8703,N,07957.0913,W,1,9,1.5,19,M,,M,,*52
05/28/2014	15:08:10.619	$GPGGA,150811,2535.8709,N,07957.0895,W,1,9,1.5,19,M,,M,,*56
05/28/2014	15:08:11.641	$GPGGA,150812,2535.8716,N,07957.0877,W,1,9,1.5,19,M,,M,,*57
05/28/2014	15:08:12.613	$GPGGA,150813,2535.8723,N,07957.0857,W,1,9,1.5,19,M,,M,,*52
05/28/2014	15:08:13.627	$GPGGA,150814,2535.8730,N,07957.0839,W,1,9,1.5,19,M,,M,,*5F
05/28/2014	15:08:14.659	$GPGGA,150815,2535.8737,N,07957.0820,W,1,9,1.5,19,M,,M,,*51
05/28/2014	15:08:15.631	$GPGGA,150816,2535.8744,N,07957.0801,W,1,9,1.5,19,M,,M,,*55
05/28/2014	15:08:16.625	$GPGGA,150817,2535.8752,N,07957.0783,W,1,9,1.5,19,M,,M,,*56
05/28/2014	15:08:17.706	$GPGGA,150818,2535.8759,N,07957.0765,W,1,9,1.5,19,M,,M,,*5A
05/28/2014	15:08:18.629	$GPGGA,150819,2535.8766,N,07957.0746,W,1,9,1.5,19,M,,M,,*56
05/28/2014	15:08:19.752	$GPGGA,150820,2535.8773,N,07957.0727,W,1,9,1.5,19,M,,M,,*5F
05/28/2014	15:08:20.624	$GPGGA,150821,2535.8781,N,07957.0709,W,1,9,1.5,19,M,,M,,*5F
05/28/2014	15:08:21.717	$GPGGA,150822,2535.8787,N,07957.0690,W,1,9,1.5,19,M,,M,,*5B
05/28/2014	15:08:22.619	$GPGGA,150823,2535.8794,N,07957.0671,W,1,9,1.5,19,M,,M,,*57
05/28/2014	15:08:23.622	$GPGGA,150824,2535.8802,N,07957.0652,W,1,9,1.5,19,M,,M,,*51
05/28/2014	15:08:24.735	$GPGGA,150825,2535.8809,N,07957.0633,W,1,9,1.5,19,M,,M,,*5C
05/28/2014	15:08:25.626	$GPGGA,150826,2535.8816,N,07957.0614,W,1,9,1.5,19,M,,M,,*54
05/28/2014	15:08:26.720	$GPGGA,150827,2535.8824,N,07957.0597,W,1,9,1.5,19,M,,M,,*5C
05/28/2014	15:08:27.631	$GPGGA,150828,2535.8831,N,07957.0577,W,1,9,1.5,18,M,,M,,*58
05/28/2014	15:08:28.734	$GPGGA,150829,2535.8839,N,07957.0559,W,1,9,1.5,18,M,,M,,*5D
05/28/2014	15:08:29.616	$GPGGA,150830,2535.8846,N,07957.0541,W,1,9,1.5,18,M,,M,,*54
05/28/2014	15:08:30.619	$GPGGA,150831,2535.8855,N,07957.0523,W,1,9,1.5,18,M,,M,,*53
05/28/2014	15:08:31.632	$GPGGA,150832,2535.8862,N,07957.0504,W,1,9,1.5,18,M,,M,,*51
05/28/2014	15:08:32.724	$GPGGA,150833,2535.8868,N,07957.0485,W,1,9,1.5,18,M,,M,,*52
05/28/2014	15:08:33.727	$GPGGA,150834,2535.8875,N,07957.0466,W,1,9,1.5,18,M,,M,,*54
05/28/2014	15:08:34.720	$GPGGA,150835,2535.8882,N,07957.0448,W,1,9,1.5,18,M,,M,,*51
05/28/2014	15:08:35.732	$GPGGA,150836,2535.8892,N,07957.0431,W,1,9,1.5,18,M,,M,,*5D
05/28/2014	15:08:36.735	$GPGGA,150837,2535.8900,N,07957.0411,W,1,9,1.5,18,M,,M,,*54
05/28/2014	15:08:37.727	$GPGGA,150838,2535.8904,N,07957.0393,W,1,9,1.5,18,M,,M,,*52
05/28/2014	15:08:38.566	$GPGGA,150839,2535.8914,N,07957.0375,W,1,9,1.5,18,M,,M,,*5A
05/28/2014	15:08:39.580	$GPGGA,150840,2535.8922,N,07957.0356,W,1,9,1.5,18,M,,M,,*50
05/28/2014	15:08:40.592	$GPGGA,150841,2535.8929,N,07957.0337,W,1,9,1.5,18,M,,M,,*5D
05/28/2014	15:08:41.577	$GPGGA,150842,2535.8935,N,07957.0319,W,1,9,1.5,18,M,,M,,*5F
05/28/2014	15:08:42.566	$GPGGA,150843,2535.8945,N,07957.0301,W,1,9,1.5,18,M,,M,,*50
05/28/2014	15:08:43.588	$GPGGA,150844,2535.8953,N,07957.0282,W,1,9,1.5,18,M,,M,,*5A
05/28/2014	15:08:44.583	$GPGGA,150845,2535.8958,N,07957.0263,W,1,9,1.5,18,M,,M,,*5F
05/28/2014	15:08:45.583	$GPGGA,150846,2535.8965,N,07957.0244,W,1,9,1.5,18,M,,M,,*57
05/28/2014	15:08:46.603	$GPGGA,150847,2535.8974,N,07957.0226,W,1,9,1.5,18,M,,M,,*52
05/28/2014	15:08:47.589	$GPGGA,150848,2535.8979,N,07957.0207,W,1,9,1.5,18,M,,M,,*53
05/28/2014	15:08:48.591	$GPGGA,150849,2535.8986,N,07957.0189,W,1,9,1.5,18,M,,M,,*57
05/28/2014	15:08:49.584	$GPGGA,150850,2535.8994,N,07957.0171,W,1,9,1.5,18,M,,M,,*5B
05/28/2014	15:08:50.585	$GPGGA,150851,2535.9001,N,07957.0152,W,1,9,1.5,18,M,,M,,*5F
05/28/2014	15:08:51.592	$GPGGA,150852,2535.9010,N,07957.0134,W,1,9,1.5,18,M,,M,,*5C
05/28/2014	15:08:52.571	$GPGGA,150853,2535.9016,N,07957.0115,W,1,9,1.5,18,M,,M,,*58
05/28/2014	15:08:53.583	$GPGGA,150854,2535.9023,N,07957.0097,W,1,9,1.6,18,M,,M,,*51
05/28/2014	15:08:54.585	$GPGGA,150855,2535.9030,N,07957.0080,W,1,9,1.5,18,M,,M,,*57
05/28/2014	15:08:55.588	$GPGGA,150856,2535.9037,N,07957.0061,W,1,9,1.5,18,M,,M,,*5C
05/28/2014	15:08:56.610	$GPGGA,150857,2535.9044,N,07957.0043,W,1,9,1.5,18,M,,M,,*59
05/28/2014	15:08:57.573	$GPGGA,150858,2535.9052,N,07957.0025,W,1,9,1.5,18,M,,M,,*51
05/28/2014	15:08:58.608	$GPGGA,150859,2535.9059,N,07957.0006,W,1,9,1.5,18,M,,M,,*5A
05/28/2014	15:08:59.708	$GPGGA,150900,2535.9066,N,07956.9988,W,1,9,1.5,18,M,,M,,*5C
05/28/2014	15:09:00.579	$GPGGA,150901,2535.9073,N,07956.9970,W,1,9,1.5,18,M,,M,,*5E
05/28/2014	15:09:01.582	$GPGGA,150902,2535.9081,N,07956.9951,W,1,9,1.5,18,M,,M,,*53
05/28/2014	15:09:02.694	$GPGGA,150903,2535.9088,N,07956.9933,W,1,9,1.5,18,M,,M,,*5F
05/28/2014	15:09:03.687	$GPGGA,150904,2535.9097,N,07956.9914,W,1,9,1.5,18,M,,M,,*53
05/28/2014	15:09:04.599	$GPGGA,150905,2535.9104,N,07956.9896,W,1,9,1.5,18,M,,M,,*52
05/28/2014	15:09:05.692	$GPGGA,150906,2535.9112,N,07956.9879,W,1,9,1.5,18,M,,M,,*57
05/28/2014	15:09:06.584	$GPGGA,150907,2535.9120,N,07956.9860,W,1,9,1.5,18,M,,M,,*5F
05/28/2014	15:09:07.708	$GPGGA,150908,2535.9127,N,07956.9841,W,1,9,1.6,18,M,,M,,*57
05/28/2014	15:09:08.589	$GPGGA,150909,2535.9134,N,07956.9823,W,1,9,1.5,18,M,,M,,*53
05/28/2014	15:09:09.593	$GPGGA,150910,2535.9142,N,07956.9805,W,1,9,1.5,18,M,,M,,*5E
05/28/2014	15:09:10.574	$GPGGA,150911,2535.9151,N,07956.9787,W,1,9,1.5,18,M,,M,,*58
05/28/2014	15:09:11.587	$GPGGA,150912,2535.9156,N,07956.9769,W,1,9,1.5,18,M,,M,,*5C
05/28/2014	15:09:12.569	$GPGGA,150913,2535.9164,N,07956.9752,W,1,9,1.5,18,M,,M,,*54
05/28/2014	15:09:13.592	$GPGGA,150914,2535.9174,N,07956.9731,W,1,9,1.9,18,M,,M,,*5B
05/28/2014	15:09:14.714	$GPGGA,150915,2535.9180,N,07956.9710,W,1,9,1.5,18,M,,M,,*5E
05/28/2014	15:09:15.707	$GPGGA,150916,2535.9185,N,07956.9691,W,1,9,1.5,18,M,,M,,*50
05/28/2014	15:09:16.589	$GPGGA,150917,2535.9195,N,07956.9674,W,1,9,1.5,18,M,,M,,*5B
05/28/2014	15:09:17.682	$GPGGA,150918,2535.9204,N,07956.9655,W,1,9,1.5,18,M,,M,,*5C
05/28/2014	15:09:18.683	$GPGGA,150919,2535.9210,N,07956.9636,W,1,9,1.5,18,M,,M,,*5D
05/28/2014	15:09:19.686	$GPGGA,150920,2535.9216,N,07956.9618,W,1,9,1.5,18,M,,M,,*5D
05/28/2014	15:09:20.728	$GPGGA,150921,2535.9225,N,07956.9600,W,1,9,1.5,18,M,,M,,*55
05/28/2014	15:09:21.691	$GPGGA,150922,2535.9235,N,07956.9582,W,1,9,1.5,19,M,,M,,*5F
05/28/2014	15:09:22.583	$GPGGA,150923,2535.9239,N,07956.9563,W,1,9,1.5,19,M,,M,,*5D
05/28/2014	15:09:23.706	$GPGGA,150924,2535.9246,N,07956.9546,W,1,9,1.5,19,M,,M,,*55
05/28/2014	15:09:24.688	$GPGGA,150925,2535.9254,N,07956.9527,W,1,9,1.5,19,M,,M,,*50
05/28/2014	15:09:25.691	$GPGGA,150926,2535.9261,N,07956.9510,W,1,9,1.5,19,M,,M,,*51
05/28/2014	15:09:26.703	$GPGGA,150927,2535.9268,N,07956.9492,W,1,9,1.5,19,M,,M,,*52
05/28/2014	15:09:27.706	$GPGGA,150928,2535.9276,N,07956.9473,W,1,9,1.5,19,M,,M,,*5D
05/28/2014	15:09:28.708	$GPGGA,150929,2535.9283,N,07956.9455,W,1,9,1.5,19,M,,M,,*52
05/28/2014	15:09:29.694	$GPGGA,150930,2535.9292,N,07956.9439,W,1,9,1.5,19,M,,M,,*50
05/28/2014	15:09:30.683	$GPGGA,150931,2535.9299,N,07956.9421,W,1,8,1.9,19,M,,M,,*5E
05/28/2014	15:09:31.706	$GPGGA,150932,2535.9305,N,07956.9404,W,1,8,1.5,19,M,,M,,*52
05/28/2014	15:09:32.708	$GPGGA,150933,2535.9312,N,07956.9386,W,1,9,1.5,19,M,,M,,*59
05/28/2014	15:09:33.693	$GPGGA,150934,2535.9319,N,07956.9367,W,1,9,1.5,19,M,,M,,*5A
05/28/2014	15:09:34.713	$GPGGA,150935,2535.9328,N,07956.9349,W,1,9,1.5,19,M,,M,,*55
05/28/2014	15:09:35.699	$GPGGA,150936,2535.9334,N,07956.9331,W,1,9,1.5,19,M,,M,,*54
05/28/2014	15:09:36.708	$GPGGA,150937,2535.9341,N,07956.9311,W,1,9,1.5,19,M,,M,,*55
05/28/2014	15:09:37.680	$GPGGA,150938,2535.9350,N,07956.9294,W,1,9,1.5,19,M,,M,,*56
05/28/2014	15:09:38.553	$GPGGA,150939,2535.9357,N,07956.9274,W,1,9,1.5,19,M,,M,,*5E
05/28/2014	15:09:39.545	$GPGGA,150940,2535.9362,N,07956.9257,W,1,9,1.5,19,M,,M,,*57
05/28/2014	15:09:40.572	$GPGGA,150941,2535.9372,N,07956.9237,W,1,8,1.9,19,M,,M,,*5C
05/28/2014	15:09:41.550	$GPGGA,150942,2535.9380,N,07956.9217,W,1,8,1.5,19,M,,M,,*5C
05/28/2014	15:09:42.576	$GPGGA,150943,2535.9386,N,07956.9199,W,1,9,1.5,19,M,,M,,*5F
05/28/2014	15:09:43.555	$GPGGA,150944,2535.9394,N,07956.9180,W,1,9,1.5,19,M,,M,,*53
05/28/2014	15:09:44.538	$GPGGA,150945,2535.9402,N,07956.9163,W,1,9,1.5,19,M,,M,,*57
05/28/2014	15:09:45.551	$GPGGA,150946,2535.9409,N,07956.9145,W,1,9,1.9,19,M,,M,,*57
05/28/2014	15:09:46.584	$GPGGA,150947,2535.9415,N,07956.9126,W,1,9,1.5,19,M,,M,,*52
05/28/2014	15:09:47.545	$GPGGA,150948,2535.9424,N,07956.9109,W,1,9,1.5,19,M,,M,,*52
05/28/2014	15:09:48.678	$GPGGA,150949,2535.9431,N,07956.9090,W,1,9,1.5,19,M,,M,,*56
05/28/2014	15:09:49.550	$GPGGA,150950,2535.9437,N,07956.9071,W,1,9,1.5,19,M,,M,,*57
05/28/2014	15:09:50.543	$GPGGA,150951,2535.9444,N,07956.9052,W,1,9,1.5,19,M,,M,,*53
05/28/2014	15:09:51.575	$GPGGA,150952,2535.9453,N,07956.9033,W,1,9,1.5,19,M,,M,,*51
05/28/2014	15:09:52.538	$GPGGA,150953,2535.9460,N,07956.9015,W,1,9,1.5,19,M,,M,,*54
05/28/2014	15:09:53.549	$GPGGA,150954,2535.9466,N,07956.8996,W,1,9,1.5,19,M,,M,,*56
05/28/2014	15:09:54.542	$GPGGA,150955,2535.9474,N,07956.8978,W,1,9,1.5,19,M,,M,,*54
05/28/2014	15:09:55.564	$GPGGA,150956,2535.9482,N,07956.8960,W,1,9,1.5,19,M,,M,,*57
05/28/2014	15:09:56.657	$GPGGA,150957,2535.9488,N,07956.8941,W,1,9,1.5,19,M,,M,,*5F
05/28/2014	15:09:57.660	$GPGGA,150958,2535.9495,N,07956.8923,W,1,9,1.5,19,M,,M,,*58
05/28/2014	15:09:58.553	$GPGGA,150959,2535.9503,N,07956.8904,W,1,9,1.5,19,M,,M,,*52
05/28/2014	15:09:59.675	$GPGGA,151000,2535.9511,N,07956.8884,W,1,9,1.5,19,M,,M,,*5C
05/28/2014	15:10:00.657	$GPGGA,151001,2535.9518,N,07956.8866,W,1,9,1.5,19,M,,M,,*58
05/28/2014	15:10:01.559	$GPGGA,151002,2535.9525,N,07956.8848,W,1,9,1.5,19,M,,M,,*59
05/28/2014	15:10:02.653	$GPGGA,151003,2535.9534,N,07956.8829,W,1,9,1.5,19,M,,M,,*5F
05/28/2014	15:10:03.554	$GPGGA,151004,2535.9542,N,07956.8810,W,1,9,1.5,19,M,,M,,*53
05/28/2014	15:10:04.657	$GPGGA,151005,2535.9547,N,07956.8793,W,1,9,1.5,19,M,,M,,*53
05/28/2014	15:10:05.649	$GPGGA,151006,2535.9554,N,07956.8775,W,1,9,1.5,19,M,,M,,*5A
05/28/2014	15:10:06.672	$GPGGA,151007,2535.9563,N,07956.8756,W,1,9,1.5,19,M,,M,,*5E
05/28/2014	15:10:07.685	$GPGGA,151008,2535.9570,N,07956.8739,W,1,9,1.5,19,M,,M,,*5A
05/28/2014	15:10:08.647	$GPGGA,151009,2535.9576,N,07956.8720,W,1,9,1.5,19,M,,M,,*55
05/28/2014	15:10:09.649	$GPGGA,151010,2535.9583,N,07956.8701,W,1,9,1.5,19,M,,M,,*54
05/28/2014	15:10:10.651	$GPGGA,151011,2535.9592,N,07956.8684,W,1,9,1.5,19,M,,M,,*59
05/28/2014	15:10:11.673	$GPGGA,151012,2535.9600,N,07956.8665,W,1,9,1.5,19,M,,M,,*5D
05/28/2014	15:10:12.666	$GPGGA,151013,2535.9605,N,07956.8646,W,1,9,1.5,20,M,,M,,*52
05/28/2014	15:10:13.671	$GPGGA,151014,2535.9612,N,07956.8629,W,1,9,1.9,20,M,,M,,*56
05/28/2014	15:10:14.672	$GPGGA,151015,2535.9621,N,07956.8612,W,1,8,1.5,20,M,,M,,*52
05/28/2014	15:10:15.673	$GPGGA,151016,2535.9628,N,07956.8594,W,1,8,1.5,20,M,,M,,*55
05/28/2014	15:10:16.676	$GPGGA,151017,2535.9633,N,07956.8576,W,1,9,1.5,19,M,,M,,*59
05/28/2014	15:10:17.661	$GPGGA,151018,2535.9641,N,07956.8558,W,1,9,1.5,19,M,,M,,*5F
05/28/2014	15:10:18.656	$GPGGA,151019,2535.9650,N,07956.8542,W,1,9,1.9,19,M,,M,,*59
05/28/2014	15:10:19.667	$GPGGA,151020,2535.9657,N,07956.8522,W,1,9,1.5,19,M,,M,,*5E
05/28/2014	15:10:20.676	$GPGGA,151021,2535.9664,N,07956.8503,W,1,9,1.5,19,M,,M,,*5C
05/28/2014	15:10:21.662	$GPGGA,151022,2535.9672,N,07956.8485,W,1,9,1.5,19,M,,M,,*57
05/28/2014	15:10:22.684	$GPGGA,151023,2535.9679,N,07956.8464,W,1,9,1.5,19,M,,M,,*52
05/28/2014	15:10:23.686	$GPGGA,151024,2535.9686,N,07956.8446,W,1,9,1.5,20,M,,M,,*5F
05/28/2014	15:10:24.670	$GPGGA,151025,2535.9694,N,07956.8427,W,1,9,1.5,20,M,,M,,*5A
05/28/2014	15:10:25.658	$GPGGA,151026,2535.9699,N,07956.8408,W,1,9,1.5,20,M,,M,,*59
05/28/2014	15:10:26.651	$GPGGA,151027,2535.9706,N,07956.8390,W,1,8,1.5,20,M,,M,,*58
05/28/2014	15:10:27.693	$GPGGA,151028,2535.9713,N,07956.8371,W,1,8,1.5,20,M,,M,,*5C
05/28/2014	15:10:28.665	$GPGGA,151029,2535.9722,N,07956.8352,W,1,9,1.5,20,M,,M,,*5F
05/28/2014	15:10:29.680	$GPGGA,151030,2535.9727,N,07956.8333,W,1,9,1.5,20,M,,M,,*55
05/28/2014	15:10:30.651	$GPGGA,151031,2535.9734,N,07956.8316,W,1,9,1.5,20,M,,M,,*51
05/28/2014	15:10:31.672	$GPGGA,151032,2535.9742,N,07956.8297,W,1,9,1.5,20,M,,M,,*5B
05/28/2014	15:10:32.786	$GPGGA,151033,2535.9749,N,07956.8279,W,1,9,1.5,20,M,,M,,*51
05/28/2014	15:10:33.668	$GPGGA,151034,2535.9756,N,07956.8261,W,1,9,1.5,20,M,,M,,*51
05/28/2014	15:10:34.660	$GPGGA,151035,2535.9763,N,07956.8242,W,1,9,1.5,20,M,,M,,*57
05/28/2014	15:10:35.682	$GPGGA,151036,2535.9773,N,07956.8223,W,1,9,1.5,20,M,,M,,*52
05/28/2014	15:10:36.705	$GPGGA,151037,2535.9778,N,07956.8205,W,1,9,1.5,20,M,,M,,*5C
05/28/2014	15:10:37.657	$GPGGA,151038,2535.9785,N,07956.8186,W,1,9,1.5,20,M,,M,,*59
05/28/2014	15:10:38.632	$GPGGA,151039,2535.9794,N,07956.8169,W,1,9,1.5,20,M,,M,,*59
05/28/2014	15:10:39.554	$GPGGA,151040,2535.9802,N,07956.8151,W,1,9,1.5,20,M,,M,,*5C
05/28/2014	15:10:40.637	$GPGGA,151041,2535.9807,N,07956.8132,W,1,9,1.5,20,M,,M,,*5D
05/28/2014	15:10:41.529	$GPGGA,151042,2535.9814,N,07956.8115,W,1,9,1.5,20,M,,M,,*59
05/28/2014	15:10:42.543	$GPGGA,151043,2535.9823,N,07956.8098,W,1,9,1.9,20,M,,M,,*54
05/28/2014	15:10:43.614	$GPGGA,151044,2535.9831,N,07956.8081,W,1,9,1.9,20,M,,M,,*58
05/28/2014	15:10:44.537	$GPGGA,151045,2535.9836,N,07956.8063,W,1,9,1.5,20,M,,M,,*5E
05/28/2014	15:10:45.608	$GPGGA,151046,2535.9845,N,07956.8046,W,1,9,1.5,20,M,,M,,*5E
05/28/2014	15:10:46.554	$GPGGA,151047,2535.9850,N,07956.8028,W,1,9,1.5,20,M,,M,,*53
05/28/2014	15:10:47.735	$GPGGA,151048,2535.9857,N,07956.8010,W,1,9,1.5,20,M,,M,,*50
05/28/2014	15:10:48.818	$GPGGA,151049,2535.9865,N,07956.7992,W,1,9,1.5,20,M,,M,,*5C
05/28/2014	15:10:49.752	$GPGGA,151050,2535.9872,N,07956.7973,W,1,9,1.5,20,M,,M,,*5D
05/28/2014	15:10:50.922	$GPGGA,151051,2535.9878,N,07956.7955,W,1,8,1.5,20,M,,M,,*53
05/28/2014	15:10:52.005	$GPGGA,151052,2535.9886,N,07956.7936,W,1,8,1.5,20,M,,M,,*54
05/28/2014	15:10:53.079	$GPGGA,151053,2535.9892,N,07956.7917,W,1,9,1.5,19,M,,M,,*58
05/28/2014	15:10:54.136	$GPGGA,151054,2535.9897,N,07956.7898,W,1,9,1.5,19,M,,M,,*5C
05/28/2014	15:10:55.117	$GPGGA,151055,2535.9904,N,07956.7879,W,1,9,1.5,19,M,,M,,*59
05/28/2014	15:10:56.298	$GPGGA,151056,2535.9911,N,07956.7860,W,1,9,1.5,19,M,,M,,*56
05/28/2014	15:10:57.339	$GPGGA,151057,2535.9919,N,07956.7841,W,1,9,1.5,19,M,,M,,*5C
05/28/2014	15:10:58.423	$GPGGA,151058,2535.9925,N,07956.7823,W,1,9,1.5,19,M,,M,,*58
05/28/2014	15:10:59.485	$GPGGA,151059,2535.9930,N,07956.7803,W,1,9,1.5,19,M,,M,,*5F
05/28/2014	15:11:00.590	$GPGGA,151100,2535.9939,N,07956.7784,W,1,9,1.5,19,M,,M,,*5B
05/28/2014	15:11:01.632	$GPGGA,151101,2535.9947,N,07956.7766,W,1,9,1.5,19,M,,M,,*5F
05/28/2014	15:11:02.704	$GPGGA,151102,2535.9953,N,07956.7748,W,1,9,1.5,19,M,,M,,*55
05/28/2014	15:11:03.812	$GPGGA,151103,2535.9958,N,07956.7729,W,1,9,1.5,19,M,,M,,*58
05/28/2014	15:11:04.849	$GPGGA,151104,2535.9966,N,07956.7712,W,1,9,1.5,19,M,,M,,*5A
05/28/2014	15:11:05.933	$GPGGA,151105,2535.9975,N,07956.7693,W,1,9,1.5,19,M,,M,,*51
05/28/2014	15:11:06.996	$GPGGA,151106,2535.9980,N,07956.7674,W,1,9,1.5,19,M,,M,,*51
05/28/2014	15:11:08.074	$GPGGA,151107,2535.9987,N,07956.7656,W,1,9,1.5,19,M,,M,,*57
05/28/2014	15:11:09.142	$GPGGA,151108,2535.9994,N,07956.7637,W,1,9,1.5,19,M,,M,,*5D
05/28/2014	15:11:10.226	$GPGGA,151109,2536.0002,N,07956.7618,W,1,9,1.5,19,M,,M,,*5D
05/28/2014	15:11:11.278	$GPGGA,151110,2536.0009,N,07956.7599,W,1,9,1.5,19,M,,M,,*54
05/28/2014	15:11:12.364	$GPGGA,151111,2536.0015,N,07956.7580,W,1,9,1.5,19,M,,M,,*50
05/28/2014	15:11:13.434	$GPGGA,151112,2536.0022,N,07956.7561,W,1,9,1.5,19,M,,M,,*58
05/28/2014	15:11:14.508	$GPGGA,151113,2536.0030,N,07956.7542,W,1,9,1.5,19,M,,M,,*5B
05/28/2014	15:11:15.559	$GPGGA,151114,2536.0037,N,07956.7523,W,1,9,1.5,19,M,,M,,*5C
05/28/2014	15:11:16.612	$GPGGA,151115,2536.0044,N,07956.7505,W,1,9,1.5,19,M,,M,,*5D
05/28/2014	15:11:17.716	$GPGGA,151116,2536.0049,N,07956.7486,W,1,9,1.5,19,M,,M,,*59
05/28/2014	15:11:18.757	$GPGGA,151117,2536.0058,N,07956.7467,W,1,9,1.5,19,M,,M,,*57
05/28/2014	15:11:19.842	$GPGGA,151118,2536.0066,N,07956.7449,W,1,9,1.5,19,M,,M,,*59
05/28/2014	15:11:21.021	$GPGGA,151119,2536.0073,N,07956.7430,W,1,9,1.5,19,M,,M,,*52
05/28/2014	15:11:21.976	$GPGGA,151120,2536.0078,N,07956.7411,W,1,9,1.5,19,M,,M,,*50
05/28/2014	15:11:23.048	$GPGGA,151121,2536.0085,N,07956.7393,W,1,9,1.5,19,M,,M,,*5E
05/28/2014	15:11:24.110	$GPGGA,151122,2536.0094,N,07956.7374,W,1,9,1.5,19,M,,M,,*54
05/28/2014	15:11:25.184	$GPGGA,151123,2536.0102,N,07956.7355,W,1,9,1.5,19,M,,M,,*58
05/28/2014	15:11:26.267	$GPGGA,151124,2536.0107,N,07956.7337,W,1,9,1.5,19,M,,M,,*5E
05/28/2014	15:11:27.351	$GPGGA,151125,2536.0114,N,07956.7318,W,1,8,1.5,19,M,,M,,*51
05/28/2014	15:11:28.392	$GPGGA,151126,2536.0124,N,07956.7299,W,1,8,1.5,19,M,,M,,*59
05/28/2014	15:11:29.476	$GPGGA,151127,2536.0131,N,07956.7281,W,1,9,1.5,19,M,,M,,*54
05/28/2014	15:11:30.678	$GPGGA,151128,2536.0138,N,07956.7262,W,1,9,1.5,19,M,,M,,*5F
05/28/2014	15:11:31.730	$GPGGA,151129,2536.0145,N,07956.7243,W,1,9,1.5,20,M,,M,,*5D
05/28/2014	15:11:32.674	$GPGGA,151130,2536.0153,N,07956.7224,W,1,9,1.5,20,M,,M,,*53
05/28/2014	15:11:33.747	$GPGGA,151131,2536.0160,N,07956.7206,W,1,9,1.5,20,M,,M,,*52
05/28/2014	15:11:34.831	$GPGGA,151132,2536.0168,N,07956.7188,W,1,9,1.5,20,M,,M,,*5C
05/28/2014	15:11:35.904	$GPGGA,151133,2536.0175,N,07956.7168,W,1,9,1.5,20,M,,M,,*5F
05/28/2014	15:11:37.063	$GPGGA,151134,2536.0182,N,07956.7150,W,1,9,1.5,20,M,,M,,*5B
05/28/2014	15:11:38.029	$GPGGA,151135,2536.0190,N,07956.7132,W,1,9,1.5,20,M,,M,,*5D
05/28/2014	15:11:39.220	$GPGGA,151136,2536.0199,N,07956.7113,W,1,9,1.5,20,M,,M,,*54
05/28/2014	15:11:40.196	$GPGGA,151137,2536.0206,N,07956.7093,W,1,9,1.5,20,M,,M,,*59
05/28/2014	15:11:41.355	$GPGGA,151138,2536.0212,N,07956.7076,W,1,9,1.5,20,M,,M,,*58
05/28/2014	15:11:38.623	$GPGGA,151139,2536.0222,N,07956.7057,W,1,9,1.5,20,M,,M,,*59
05/28/2014	15:11:39.708	$GPGGA,151140,2536.0229,N,07956.7038,W,1,9,1.5,20,M,,M,,*55
05/28/2014	15:11:40.630	$GPGGA,151141,2536.0236,N,07956.7020,W,1,9,1.5,20,M,,M,,*53
05/28/2014	15:11:41.810	$GPGGA,151142,2536.0244,N,07956.7003,W,1,9,1.5,20,M,,M,,*54
05/28/2014	15:11:42.873	$GPGGA,151143,2536.0253,N,07956.6983,W,1,9,1.5,20,M,,M,,*53
05/28/2014	15:11:43.967	$GPGGA,151144,2536.0260,N,07956.6965,W,1,9,1.5,20,M,,M,,*5C
05/28/2014	15:11:45.040	$GPGGA,151145,2536.0268,N,07956.6947,W,1,9,1.5,20,M,,M,,*55
05/28/2014	15:11:46.103	$GPGGA,151146,2536.0275,N,07956.6929,W,1,9,1.5,20,M,,M,,*52
05/28/2014	15:11:47.187	$GPGGA,151147,2536.0283,N,07956.6911,W,1,9,1.5,20,M,,M,,*51
05/28/2014	15:11:48.240	$GPGGA,151148,2536.0291,N,07956.6893,W,1,9,1.5,20,M,,M,,*56
05/28/2014	15:11:49.322	$GPGGA,151149,2536.0298,N,07956.6875,W,1,9,1.5,20,M,,M,,*56
