Software Version Number: 1	Data File Format Number: 1	Build Version Number: 1	Error Count Since VI Started: 0	Manufacturer: Raytheon	 Model Number: RayMarine 120	 S/N: 	 Cal Date: 	 Wind Direction Offset: 0.00	 Slope (M)1: 0.00	 Offset (B)1: 0.00	 Slope (M)2: 0.00	 Offset (B)2: 0.00	 Slope (M)3: 0.00	 Offset (B)3: 0.00	 Slope (M)4: 0.00	 Offset (B)4: 0.00	 Slope (M)5: 0.00	 Offset (B)5: 0.00	 Slope (M)6: 0.00	 Offset (B)6: 0.00
Computer Date	Computer Time	GGA String
06/02/2014	18:00:00.594	$GPGGA,180009,2442.0435,N,08033.1163,W,1,10,1.3,23,M,,M,,*6D
06/02/2014	18:00:01.534	$GPGGA,180010,2442.0449,N,08033.1167,W,1,10,1.3,23,M,,M,,*6A
06/02/2014	18:00:02.574	$GPGGA,180011,2442.0449,N,08033.1167,W,1,10,1.4,23,M,,M,,*6C
06/02/2014	18:00:03.554	$GPGGA,180012,2442.0464,N,08033.1171,W,1,10,1.3,23,M,,M,,*60
06/02/2014	18:00:04.634	$GPGGA,180013,2442.0493,N,08033.1174,W,1,11,1.3,23,M,,M,,*6D
06/02/2014	18:00:05.544	$GPGGA,180014,2442.0493,N,08033.1174,W,1,11,1.3,23,M,,M,,*6A
06/02/2014	18:00:06.594	$GPGGA,180015,2442.0521,N,08033.1182,W,1,11,1.3,23,M,,M,,*6A
06/02/2014	18:00:07.534	$GPGGA,180016,2442.0521,N,08033.1182,W,1,11,1.3,23,M,,M,,*69
06/02/2014	18:00:08.604	$GPGGA,180017,2442.0536,N,08033.1183,W,1,10,1.6,23,M,,M,,*6B
06/02/2014	18:00:09.524	$GPGGA,180018,2442.0565,N,08033.1192,W,1,10,1.3,23,M,,M,,*67
06/02/2014	18:00:10.574	$GPGGA,180019,2442.0580,N,08033.1194,W,1,11,1.3,23,M,,M,,*6A
06/02/2014	18:00:11.534	$GPGGA,180020,2442.0596,N,08033.1196,W,1,11,1.3,23,M,,M,,*65
06/02/2014	18:00:12.585	$GPGGA,180021,2442.0609,N,08033.1199,W,1,11,1.4,23,M,,M,,*69
06/02/2014	18:00:13.513	$GPGGA,180022,2442.0623,N,08033.1200,W,1,11,1.4,23,M,,M,,*61
06/02/2014	18:00:14.534	$GPGGA,180023,2442.0638,N,08033.1204,W,1,11,1.3,22,M,,M,,*68
06/02/2014	18:00:15.523	$GPGGA,180024,2442.0654,N,08033.1207,W,1,11,1.3,22,M,,M,,*66
06/02/2014	18:00:16.523	$GPGGA,180025,2442.0654,N,08033.1207,W,1,11,1.3,22,M,,M,,*67
06/02/2014	18:00:17.603	$GPGGA,180026,2442.0681,N,08033.1211,W,1,11,1.3,22,M,,M,,*6B
06/02/2014	18:00:18.523	$GPGGA,180027,2442.0681,N,08033.1211,W,1,11,1.3,22,M,,M,,*6A
06/02/2014	18:00:19.513	$GPGGA,180028,2442.0710,N,08033.1217,W,1,11,1.3,22,M,,M,,*6A
06/02/2014	18:00:20.563	$GPGGA,180029,2442.0710,N,08033.1217,W,1,11,1.3,22,M,,M,,*6B
06/02/2014	18:00:21.593	$GPGGA,180030,2442.0739,N,08033.1223,W,1,11,1.3,22,M,,M,,*6F
06/02/2014	18:00:22.603	$GPGGA,180031,2442.0753,N,08033.1225,W,1,11,1.3,22,M,,M,,*64
06/02/2014	18:00:23.603	$GPGGA,180032,2442.0767,N,08033.1228,W,1,11,1.3,22,M,,M,,*6D
06/02/2014	18:00:24.623	$GPGGA,180033,2442.0781,N,08033.1230,W,1,11,1.3,22,M,,M,,*6D
06/02/2014	18:00:25.583	$GPGGA,180034,2442.0796,N,08033.1232,W,1,11,1.3,22,M,,M,,*6E
06/02/2014	18:00:26.613	$GPGGA,180035,2442.0813,N,08033.1236,W,1,10,1.6,22,M,,M,,*6D
06/02/2014	18:00:27.603	$GPGGA,180036,2442.0826,N,08033.1239,W,1,10,1.3,22,M,,M,,*62
06/02/2014	18:00:28.603	$GPGGA,180037,2442.0840,N,08033.1240,W,1,11,1.3,22,M,,M,,*6C
06/02/2014	18:00:29.583	$GPGGA,180038,2442.0854,N,08033.1241,W,1,11,1.3,22,M,,M,,*67
06/02/2014	18:00:30.602	$GPGGA,180039,2442.0868,N,08033.1243,W,1,11,1.3,22,M,,M,,*6B
06/02/2014	18:00:31.592	$GPGGA,180040,2442.0882,N,08033.1244,W,1,11,1.3,22,M,,M,,*66
06/02/2014	18:00:32.592	$GPGGA,180041,2442.0898,N,08033.1246,W,1,9,1.7,22,M,,M,,*53
06/02/2014	18:00:33.573	$GPGGA,180042,2442.0914,N,08033.1247,W,1,9,1.3,22,M,,M,,*50
06/02/2014	18:00:34.593	$GPGGA,180043,2442.0929,N,08033.1250,W,1,11,1.3,22,M,,M,,*60
06/02/2014	18:00:35.572	$GPGGA,180044,2442.0943,N,08033.1253,W,1,11,1.3,22,M,,M,,*68
06/02/2014	18:00:36.592	$GPGGA,180045,2442.0956,N,08033.1254,W,1,11,1.3,22,M,,M,,*6A
06/02/2014	18:00:37.552	$GPGGA,180046,2442.0970,N,08033.1254,W,1,11,1.3,22,M,,M,,*6D
06/02/2014	18:00:38.582	$GPGGA,180047,2442.0984,N,08033.1255,W,1,10,1.6,22,M,,M,,*62
06/02/2014	18:00:39.562	$GPGGA,180048,2442.1001,N,08033.1257,W,1,10,1.5,22,M,,M,,*69
06/02/2014	18:00:40.584	$GPGGA,180049,2442.1016,N,08033.1258,W,1,10,1.4,22,M,,M,,*60
06/02/2014	18:00:41.552	$GPGGA,180050,2442.1031,N,08033.1261,W,1,10,1.3,22,M,,M,,*60
06/02/2014	18:00:42.572	$GPGGA,180051,2442.1046,N,08033.1262,W,1,11,1.3,22,M,,M,,*63
06/02/2014	18:00:43.562	$GPGGA,180052,2442.1059,N,08033.1264,W,1,11,1.3,22,M,,M,,*68
06/02/2014	18:00:44.552	$GPGGA,180053,2442.1074,N,08033.1264,W,1,10,1.4,22,M,,M,,*60
06/02/2014	18:00:45.552	$GPGGA,180054,2442.1089,N,08033.1266,W,1,10,1.3,22,M,,M,,*60
06/02/2014	18:00:46.562	$GPGGA,180055,2442.1103,N,08033.1269,W,1,11,1.3,22,M,,M,,*6C
06/02/2014	18:00:47.552	$GPGGA,180056,2442.1118,N,08033.1272,W,1,11,1.6,22,M,,M,,*6A
06/02/2014	18:00:48.531	$GPGGA,180057,2442.1129,N,08033.1270,W,1,11,1.3,22,M,,M,,*6E
06/02/2014	18:00:49.531	$GPGGA,180058,2442.1143,N,08033.1270,W,1,11,1.4,22,M,,M,,*6A
06/02/2014	18:00:50.572	$GPGGA,180059,2442.1154,N,08033.1273,W,1,11,1.3,22,M,,M,,*69
06/02/2014	18:00:51.561	$GPGGA,180100,2442.1169,N,08033.1275,W,1,11,1.3,22,M,,M,,*6C
06/02/2014	18:00:52.571	$GPGGA,180101,2442.1183,N,08033.1276,W,1,11,1.3,22,M,,M,,*6A
06/02/2014	18:00:53.541	$GPGGA,180102,2442.1198,N,08033.1276,W,1,11,1.4,22,M,,M,,*64
06/02/2014	18:00:54.521	$GPGGA,180103,2442.1216,N,08033.1279,W,1,9,1.5,22,M,,M,,*57
06/02/2014	18:00:55.541	$GPGGA,180104,2442.1230,N,08033.1282,W,1,9,1.3,22,M,,M,,*56
06/02/2014	18:00:56.631	$GPGGA,180105,2442.1247,N,08033.1283,W,1,11,1.3,22,M,,M,,*6F
06/02/2014	18:00:57.531	$GPGGA,180106,2442.1262,N,08033.1283,W,1,11,1.3,22,M,,M,,*6B
06/02/2014	18:00:58.541	$GPGGA,180107,2442.1276,N,08033.1286,W,1,10,1.4,22,M,,M,,*6C
06/02/2014	18:00:59.531	$GPGGA,180108,2442.1290,N,08033.1290,W,1,10,1.4,22,M,,M,,*6C
06/02/2014	18:01:00.531	$GPGGA,180109,2442.1306,N,08033.1288,W,1,10,1.6,22,M,,M,,*68
06/02/2014	18:01:01.511	$GPGGA,180110,2442.1320,N,08033.1290,W,1,10,1.4,22,M,,M,,*6F
06/02/2014	18:01:02.501	$GPGGA,180111,2442.1333,N,08033.1294,W,1,11,1.3,22,M,,M,,*6E
06/02/2014	18:01:03.641	$GPGGA,180112,2442.1348,N,08033.1297,W,1,11,1.3,22,M,,M,,*62
06/02/2014	18:01:04.611	$GPGGA,180113,2442.1364,N,08033.1295,W,1,11,1.3,22,M,,M,,*6F
06/02/2014	18:01:05.500	$GPGGA,180114,2442.1380,N,08033.1297,W,1,11,1.3,22,M,,M,,*60
06/02/2014	18:01:06.520	$GPGGA,180115,2442.1393,N,08033.1301,W,1,11,1.3,22,M,,M,,*6D
06/02/2014	18:01:07.510	$GPGGA,180116,2442.1409,N,08033.1302,W,1,11,1.3,22,M,,M,,*69
06/02/2014	18:01:08.594	$GPGGA,180117,2442.1424,N,08033.1304,W,1,11,1.3,22,M,,M,,*61
06/02/2014	18:01:09.500	$GPGGA,180118,2442.1440,N,08033.1303,W,1,11,1.3,22,M,,M,,*6B
06/02/2014	18:01:10.591	$GPGGA,180119,2442.1453,N,08033.1305,W,1,11,1.3,22,M,,M,,*6E
06/02/2014	18:01:11.510	$GPGGA,180120,2442.1465,N,08033.1309,W,1,11,1.4,22,M,,M,,*6A
06/02/2014	18:01:12.490	$GPGGA,180121,2442.1479,N,08033.1308,W,1,11,1.3,22,M,,M,,*60
06/02/2014	18:01:13.590	$GPGGA,180122,2442.1494,N,08033.1311,W,1,11,1.3,22,M,,M,,*68
06/02/2014	18:01:14.580	$GPGGA,180123,2442.1510,N,08033.1313,W,1,9,1.7,22,M,,M,,*5B
06/02/2014	18:01:15.590	$GPGGA,180124,2442.1525,N,08033.1315,W,1,9,1.6,22,M,,M,,*5D
06/02/2014	18:01:16.590	$GPGGA,180125,2442.1541,N,08033.1319,W,1,11,1.3,22,M,,M,,*6E
06/02/2014	18:01:17.580	$GPGGA,180126,2442.1555,N,08033.1320,W,1,11,1.3,21,M,,M,,*61
06/02/2014	18:01:18.591	$GPGGA,180127,2442.1570,N,08033.1322,W,1,10,1.4,21,M,,M,,*63
06/02/2014	18:01:19.590	$GPGGA,180128,2442.1584,N,08033.1326,W,1,10,1.4,21,M,,M,,*63
06/02/2014	18:01:20.560	$GPGGA,180129,2442.1599,N,08033.1329,W,1,11,1.3,21,M,,M,,*67
06/02/2014	18:01:21.570	$GPGGA,180130,2442.1617,N,08033.1329,W,1,11,1.6,21,M,,M,,*6F
06/02/2014	18:01:22.560	$GPGGA,180131,2442.1631,N,08033.1329,W,1,11,1.3,21,M,,M,,*6F
06/02/2014	18:01:23.579	$GPGGA,180132,2442.1644,N,08033.1335,W,1,11,1.4,21,M,,M,,*64
06/02/2014	18:01:24.579	$GPGGA,180133,2442.1657,N,08033.1340,W,1,11,1.3,21,M,,M,,*62
06/02/2014	18:01:25.559	$GPGGA,180134,2442.1674,N,08033.1339,W,1,11,1.3,21,M,,M,,*6A
06/02/2014	18:01:26.569	$GPGGA,180135,2442.1689,N,08033.1340,W,1,11,1.3,21,M,,M,,*67
06/02/2014	18:01:27.569	$GPGGA,180136,2442.1703,N,08033.1344,W,1,11,1.3,21,M,,M,,*63
06/02/2014	18:01:28.569	$GPGGA,180137,2442.1717,N,08033.1347,W,1,11,1.3,21,M,,M,,*64
06/02/2014	18:01:29.549	$GPGGA,180138,2442.1732,N,08033.1346,W,1,11,1.4,21,M,,M,,*6A
06/02/2014	18:01:30.549	$GPGGA,180139,2442.1747,N,08033.1348,W,1,11,1.3,21,M,,M,,*60
06/02/2014	18:01:31.559	$GPGGA,180140,2442.1763,N,08033.1352,W,1,11,1.3,21,M,,M,,*63
06/02/2014	18:01:32.569	$GPGGA,180141,2442.1779,N,08033.1355,W,1,11,1.3,21,M,,M,,*6E
06/02/2014	18:01:33.559	$GPGGA,180142,2442.1794,N,08033.1356,W,1,11,1.4,21,M,,M,,*6A
06/02/2014	18:01:34.569	$GPGGA,180143,2442.1808,N,08033.1360,W,1,11,1.3,21,M,,M,,*63
06/02/2014	18:01:35.549	$GPGGA,180144,2442.1823,N,08033.1362,W,1,11,1.3,21,M,,M,,*6F
06/02/2014	18:01:36.539	$GPGGA,180145,2442.1840,N,08033.1365,W,1,11,1.3,21,M,,M,,*6C
06/02/2014	18:01:37.529	$GPGGA,180146,2442.1854,N,08033.1369,W,1,11,1.3,21,M,,M,,*66
06/02/2014	18:01:38.539	$GPGGA,180147,2442.1869,N,08033.1373,W,1,11,1.3,21,M,,M,,*62
06/02/2014	18:01:39.549	$GPGGA,180148,2442.1883,N,08033.1370,W,1,11,1.6,21,M,,M,,*6F
06/02/2014	18:01:40.539	$GPGGA,180149,2442.1895,N,08033.1373,W,1,11,1.3,21,M,,M,,*6F
06/02/2014	18:01:41.538	$GPGGA,180150,2442.1909,N,08033.1377,W,1,11,1.3,21,M,,M,,*67
06/02/2014	18:01:42.538	$GPGGA,180151,2442.1924,N,08033.1378,W,1,11,1.3,21,M,,M,,*66
06/02/2014	18:01:43.548	$GPGGA,180152,2442.1941,N,08033.1381,W,1,11,1.6,21,M,,M,,*65
06/02/2014	18:01:44.518	$GPGGA,180153,2442.1956,N,08033.1387,W,1,11,1.3,21,M,,M,,*61
06/02/2014	18:01:45.638	$GPGGA,180154,2442.1971,N,08033.1391,W,1,11,1.3,22,M,,M,,*67
06/02/2014	18:01:46.518	$GPGGA,180155,2442.1987,N,08033.1394,W,1,11,1.3,22,M,,M,,*6A
06/02/2014	18:01:47.638	$GPGGA,180156,2442.2002,N,08033.1395,W,1,11,1.3,22,M,,M,,*6F
06/02/2014	18:01:48.528	$GPGGA,180157,2442.2014,N,08033.1398,W,1,11,1.3,22,M,,M,,*64
06/02/2014	18:01:49.498	$GPGGA,180158,2442.2029,N,08033.1402,W,1,11,1.3,22,M,,M,,*61
06/02/2014	18:01:50.528	$GPGGA,180159,2442.2043,N,08033.1405,W,1,10,1.4,22,M,,M,,*6D
06/02/2014	18:01:51.518	$GPGGA,180200,2442.2057,N,08033.1409,W,1,10,1.3,22,M,,M,,*6C
06/02/2014	18:01:52.518	$GPGGA,180201,2442.2072,N,08033.1412,W,1,11,1.3,22,M,,M,,*61
06/02/2014	18:01:53.499	$GPGGA,180202,2442.2085,N,08033.1414,W,1,11,1.4,22,M,,M,,*6B
06/02/2014	18:01:54.598	$GPGGA,180203,2442.2099,N,08033.1418,W,1,11,1.3,22,M,,M,,*6C
06/02/2014	18:01:55.508	$GPGGA,180204,2442.2112,N,08033.1421,W,1,11,1.3,22,M,,M,,*63
06/02/2014	18:01:56.508	$GPGGA,180205,2442.2126,N,08033.1417,W,1,10,1.6,21,M,,M,,*67
06/02/2014	18:01:57.488	$GPGGA,180206,2442.2141,N,08033.1420,W,1,10,1.3,21,M,,M,,*64
06/02/2014	18:01:58.497	$GPGGA,180207,2442.2155,N,08033.1425,W,1,10,1.6,21,M,,M,,*60
06/02/2014	18:01:59.597	$GPGGA,180208,2442.2169,N,08033.1428,W,1,10,1.4,21,M,,M,,*6F
06/02/2014	18:02:00.577	$GPGGA,180209,2442.2186,N,08033.1431,W,1,11,1.3,21,M,,M,,*61
06/02/2014	18:02:01.577	$GPGGA,180210,2442.2199,N,08033.1430,W,1,11,1.3,21,M,,M,,*66
06/02/2014	18:02:02.577	$GPGGA,180211,2442.2213,N,08033.1432,W,1,9,1.7,21,M,,M,,*59
06/02/2014	18:02:03.597	$GPGGA,180212,2442.2227,N,08033.1436,W,1,9,1.3,21,M,,M,,*5D
06/02/2014	18:02:04.587	$GPGGA,180213,2442.2242,N,08033.1438,W,1,10,1.6,21,M,,M,,*6C
06/02/2014	18:02:05.579	$GPGGA,180214,2442.2258,N,08033.1437,W,1,10,1.6,21,M,,M,,*6F
06/02/2014	18:02:06.587	$GPGGA,180215,2442.2271,N,08033.1439,W,1,10,1.4,21,M,,M,,*69
06/02/2014	18:02:07.578	$GPGGA,180216,2442.2285,N,08033.1443,W,1,10,1.4,21,M,,M,,*6C
06/02/2014	18:02:08.567	$GPGGA,180217,2442.2300,N,08033.1445,W,1,10,1.6,21,M,,M,,*65
06/02/2014	18:02:09.558	$GPGGA,180218,2442.2317,N,08033.1445,W,1,10,1.6,21,M,,M,,*6C
06/02/2014	18:02:10.587	$GPGGA,180219,2442.2332,N,08033.1447,W,1,10,1.4,21,M,,M,,*6A
06/02/2014	18:02:11.589	$GPGGA,180220,2442.2346,N,08033.1449,W,1,10,1.4,21,M,,M,,*6D
06/02/2014	18:02:12.567	$GPGGA,180221,2442.2361,N,08033.1452,W,1,10,1.4,21,M,,M,,*63
06/02/2014	18:02:13.557	$GPGGA,180222,2442.2376,N,08033.1456,W,1,10,1.4,21,M,,M,,*62
06/02/2014	18:02:14.557	$GPGGA,180223,2442.2393,N,08033.1455,W,1,10,1.4,21,M,,M,,*6B
06/02/2014	18:02:15.556	$GPGGA,180224,2442.2408,N,08033.1456,W,1,10,1.4,21,M,,M,,*6A
06/02/2014	18:02:16.566	$GPGGA,180225,2442.2422,N,08033.1460,W,1,10,1.4,21,M,,M,,*66
06/02/2014	18:02:17.546	$GPGGA,180226,2442.2437,N,08033.1461,W,1,10,1.3,21,M,,M,,*67
06/02/2014	18:02:18.536	$GPGGA,180227,2442.2453,N,08033.1463,W,1,11,1.3,21,M,,M,,*67
06/02/2014	18:02:19.566	$GPGGA,180228,2442.2469,N,08033.1463,W,1,11,1.4,21,M,,M,,*66
06/02/2014	18:02:20.546	$GPGGA,180229,2442.2484,N,08033.1465,W,1,11,1.3,21,M,,M,,*65
06/02/2014	18:02:21.546	$GPGGA,180230,2442.2501,N,08033.1467,W,1,11,1.4,21,M,,M,,*64
06/02/2014	18:02:22.536	$GPGGA,180231,2442.2516,N,08033.1468,W,1,11,1.3,21,M,,M,,*6B
06/02/2014	18:02:23.556	$GPGGA,180232,2442.2530,N,08033.1471,W,1,11,1.3,21,M,,M,,*64
06/02/2014	18:02:24.526	$GPGGA,180233,2442.2545,N,08033.1472,W,1,11,1.3,21,M,,M,,*64
06/02/2014	18:02:25.546	$GPGGA,180234,2442.2560,N,08033.1471,W,1,11,1.4,21,M,,M,,*60
06/02/2014	18:02:26.566	$GPGGA,180235,2442.2576,N,08033.1474,W,1,10,1.4,21,M,,M,,*62
06/02/2014	18:02:27.536	$GPGGA,180236,2442.2591,N,08033.1477,W,1,10,1.4,21,M,,M,,*6B
06/02/2014	18:02:28.516	$GPGGA,180237,2442.2606,N,08033.1478,W,1,11,1.3,21,M,,M,,*6E
06/02/2014	18:02:29.516	$GPGGA,180238,2442.2621,N,08033.1478,W,1,11,1.3,21,M,,M,,*64
06/02/2014	18:02:30.516	$GPGGA,180239,2442.2635,N,08033.1478,W,1,9,1.7,21,M,,M,,*5D
06/02/2014	18:02:31.546	$GPGGA,180240,2442.2650,N,08033.1481,W,1,9,1.4,21,M,,M,,*55
06/02/2014	18:02:32.546	$GPGGA,180241,2442.2664,N,08033.1482,W,1,10,1.4,21,M,,M,,*68
06/02/2014	18:02:33.515	$GPGGA,180242,2442.2679,N,08033.1485,W,1,10,1.7,21,M,,M,,*63
06/02/2014	18:02:34.615	$GPGGA,180243,2442.2693,N,08033.1485,W,1,10,1.4,21,M,,M,,*65
06/02/2014	18:02:35.525	$GPGGA,180244,2442.2710,N,08033.1485,W,1,10,1.3,21,M,,M,,*6F
06/02/2014	18:02:36.635	$GPGGA,180245,2442.2724,N,08033.1488,W,1,11,1.3,21,M,,M,,*65
06/02/2014	18:02:37.515	$GPGGA,180246,2442.2739,N,08033.1489,W,1,11,1.3,21,M,,M,,*6B
06/02/2014	18:02:38.495	$GPGGA,180247,2442.2755,N,08033.1492,W,1,11,1.3,21,M,,M,,*6A
06/02/2014	18:02:39.635	$GPGGA,180248,2442.2771,N,08033.1495,W,1,11,1.3,21,M,,M,,*64
06/02/2014	18:02:40.605	$GPGGA,180249,2442.2787,N,08033.1496,W,1,11,1.3,21,M,,M,,*6F
06/02/2014	18:02:41.595	$GPGGA,180250,2442.2805,N,08033.1500,W,1,11,1.3,21,M,,M,,*6C
06/02/2014	18:02:42.495	$GPGGA,180251,2442.2820,N,08033.1503,W,1,11,1.3,21,M,,M,,*69
06/02/2014	18:02:43.635	$GPGGA,180252,2442.2836,N,08033.1506,W,1,11,1.3,22,M,,M,,*6B
06/02/2014	18:02:44.495	$GPGGA,180253,2442.2852,N,08033.1507,W,1,11,1.3,22,M,,M,,*69
06/02/2014	18:02:45.585	$GPGGA,180254,2442.2867,N,08033.1512,W,1,11,1.3,22,M,,M,,*6C
06/02/2014	18:02:46.625	$GPGGA,180255,2442.2884,N,08033.1517,W,1,10,1.6,22,M,,M,,*61
06/02/2014	18:02:47.495	$GPGGA,180256,2442.2902,N,08033.1518,W,1,10,1.6,22,M,,M,,*62
06/02/2014	18:02:48.595	$GPGGA,180257,2442.2917,N,08033.1521,W,1,11,1.3,22,M,,M,,*69
06/02/2014	18:02:49.587	$GPGGA,180258,2442.2932,N,08033.1526,W,1,11,1.3,22,M,,M,,*66
06/02/2014	18:02:50.614	$GPGGA,180259,2442.2948,N,08033.1528,W,1,11,1.3,22,M,,M,,*64
06/02/2014	18:02:51.594	$GPGGA,180300,2442.2964,N,08033.1530,W,1,11,1.6,22,M,,M,,*6B
06/02/2014	18:02:52.594	$GPGGA,180301,2442.2979,N,08033.1532,W,1,11,1.3,22,M,,M,,*61
06/02/2014	18:02:53.574	$GPGGA,180302,2442.2996,N,08033.1535,W,1,11,1.3,22,M,,M,,*64
06/02/2014	18:02:54.584	$GPGGA,180303,2442.3013,N,08033.1539,W,1,11,1.3,22,M,,M,,*6C
06/02/2014	18:02:55.584	$GPGGA,180304,2442.3029,N,08033.1543,W,1,11,1.3,22,M,,M,,*6F
06/02/2014	18:02:56.554	$GPGGA,180305,2442.3044,N,08033.1546,W,1,11,1.3,22,M,,M,,*60
06/02/2014	18:02:57.554	$GPGGA,180306,2442.3060,N,08033.1548,W,1,11,1.3,22,M,,M,,*6B
06/02/2014	18:02:58.584	$GPGGA,180307,2442.3075,N,08033.1551,W,1,11,1.3,22,M,,M,,*66
06/02/2014	18:02:59.574	$GPGGA,180308,2442.3089,N,08033.1555,W,1,11,1.3,22,M,,M,,*6E
06/02/2014	18:03:00.554	$GPGGA,180309,2442.3105,N,08033.1558,W,1,11,1.3,22,M,,M,,*67
06/02/2014	18:03:01.554	$GPGGA,180310,2442.3120,N,08033.1561,W,1,11,1.3,22,M,,M,,*62
06/02/2014	18:03:02.574	$GPGGA,180311,2442.3137,N,08033.1564,W,1,11,1.3,22,M,,M,,*60
06/02/2014	18:03:03.564	$GPGGA,180312,2442.3152,N,08033.1568,W,1,11,1.3,22,M,,M,,*6C
06/02/2014	18:03:04.564	$GPGGA,180313,2442.3167,N,08033.1572,W,1,11,1.3,22,M,,M,,*60
06/02/2014	18:03:05.554	$GPGGA,180314,2442.3184,N,08033.1575,W,1,11,1.3,22,M,,M,,*6D
06/02/2014	18:03:06.574	$GPGGA,180315,2442.3199,N,08033.1577,W,1,11,1.3,22,M,,M,,*62
06/02/2014	18:03:07.554	$GPGGA,180316,2442.3214,N,08033.1580,W,1,11,1.3,22,M,,M,,*6F
06/02/2014	18:03:08.553	$GPGGA,180317,2442.3228,N,08033.1582,W,1,10,1.6,22,M,,M,,*67
06/02/2014	18:03:09.543	$GPGGA,180318,2442.3243,N,08033.1586,W,1,10,1.3,22,M,,M,,*64
06/02/2014	18:03:10.563	$GPGGA,180319,2442.3257,N,08033.1589,W,1,11,1.3,22,M,,M,,*6E
06/02/2014	18:03:11.553	$GPGGA,180320,2442.3275,N,08033.1593,W,1,11,1.6,22,M,,M,,*6A
06/02/2014	18:03:12.543	$GPGGA,180321,2442.3289,N,08033.1594,W,1,11,1.3,22,M,,M,,*6A
06/02/2014	18:03:13.523	$GPGGA,180322,2442.3303,N,08033.1595,W,1,11,1.3,22,M,,M,,*6B
06/02/2014	18:03:14.553	$GPGGA,180323,2442.3317,N,08033.1597,W,1,11,1.3,22,M,,M,,*6D
06/02/2014	18:03:15.543	$GPGGA,180324,2442.3332,N,08033.1600,W,1,11,1.3,22,M,,M,,*60
06/02/2014	18:03:16.533	$GPGGA,180325,2442.3346,N,08033.1602,W,1,10,1.4,22,M,,M,,*66
06/02/2014	18:03:17.523	$GPGGA,180326,2442.3362,N,08033.1605,W,1,10,1.3,22,M,,M,,*63
06/02/2014	18:03:18.643	$GPGGA,180327,2442.3379,N,08033.1608,W,1,11,1.3,22,M,,M,,*64
06/02/2014	18:03:19.533	$GPGGA,180328,2442.3393,N,08033.1611,W,1,11,1.3,22,M,,M,,*67
06/02/2014	18:03:20.523	$GPGGA,180329,2442.3409,N,08033.1615,W,1,11,1.3,23,M,,M,,*67
06/02/2014	18:03:21.633	$GPGGA,180330,2442.3425,N,08033.1616,W,1,11,1.3,23,M,,M,,*62
06/02/2014	18:03:22.533	$GPGGA,180331,2442.3440,N,08033.1619,W,1,11,1.3,23,M,,M,,*6F
06/02/2014	18:03:23.523	$GPGGA,180332,2442.3455,N,08033.1623,W,1,11,1.3,23,M,,M,,*61
06/02/2014	18:03:24.513	$GPGGA,180333,2442.3472,N,08033.1627,W,1,11,1.3,23,M,,M,,*61
06/02/2014	18:03:25.502	$GPGGA,180334,2442.3488,N,08033.1631,W,1,11,1.6,23,M,,M,,*61
06/02/2014	18:03:26.622	$GPGGA,180335,2442.3503,N,08033.1633,W,1,11,1.3,23,M,,M,,*65
06/02/2014	18:03:27.512	$GPGGA,180336,2442.3517,N,08033.1637,W,1,11,1.3,23,M,,M,,*67
06/02/2014	18:03:28.602	$GPGGA,180337,2442.3531,N,08033.1638,W,1,11,1.6,23,M,,M,,*68
06/02/2014	18:03:29.492	$GPGGA,180338,2442.3546,N,08033.1641,W,1,11,1.6,23,M,,M,,*69
06/02/2014	18:03:30.622	$GPGGA,180339,2442.3561,N,08033.1644,W,1,10,1.3,23,M,,M,,*6C
06/02/2014	18:03:31.492	$GPGGA,180340,2442.3577,N,08033.1645,W,1,10,1.3,23,M,,M,,*64
06/02/2014	18:03:32.502	$GPGGA,180341,2442.3592,N,08033.1649,W,1,11,1.3,23,M,,M,,*63
06/02/2014	18:03:33.592	$GPGGA,180342,2442.3607,N,08033.1652,W,1,11,1.3,24,M,,M,,*62
06/02/2014	18:03:34.482	$GPGGA,180343,2442.3621,N,08033.1655,W,1,11,1.3,24,M,,M,,*60
06/02/2014	18:03:35.622	$GPGGA,180344,2442.3636,N,08033.1656,W,1,11,1.3,24,M,,M,,*62
06/02/2014	18:03:36.602	$GPGGA,180345,2442.3651,N,08033.1658,W,1,11,1.3,24,M,,M,,*6C
06/02/2014	18:03:37.582	$GPGGA,180346,2442.3665,N,08033.1663,W,1,11,1.4,24,M,,M,,*67
06/02/2014	18:03:38.592	$GPGGA,180347,2442.3680,N,08033.1665,W,1,10,1.7,24,M,,M,,*69
06/02/2014	18:03:39.592	$GPGGA,180348,2442.3694,N,08033.1665,W,1,10,1.3,24,M,,M,,*67
06/02/2014	18:03:40.642	$GPGGA,180349,2442.3708,N,08033.1669,W,1,11,1.3,24,M,,M,,*6F
06/02/2014	18:03:41.573	$GPGGA,180350,2442.3722,N,08033.1673,W,1,11,1.3,24,M,,M,,*64
06/02/2014	18:03:42.591	$GPGGA,180351,2442.3736,N,08033.1672,W,1,11,1.4,24,M,,M,,*66
06/02/2014	18:03:43.581	$GPGGA,180352,2442.3752,N,08033.1673,W,1,11,1.3,23,M,,M,,*66
06/02/2014	18:03:44.586	$GPGGA,180353,2442.3766,N,08033.1676,W,1,11,1.4,23,M,,M,,*62
06/02/2014	18:03:45.561	$GPGGA,180354,2442.3781,N,08033.1678,W,1,11,1.7,23,M,,M,,*61
06/02/2014	18:03:46.551	$GPGGA,180355,2442.3797,N,08033.1681,W,1,9,1.6,23,M,,M,,*59
06/02/2014	18:03:47.571	$GPGGA,180356,2442.3810,N,08033.1683,W,1,9,1.4,23,M,,M,,*5A
06/02/2014	18:03:48.551	$GPGGA,180357,2442.3827,N,08033.1682,W,1,10,1.4,23,M,,M,,*66
06/02/2014	18:03:49.562	$GPGGA,180358,2442.3842,N,08033.1684,W,1,10,1.4,23,M,,M,,*6C
06/02/2014	18:03:50.581	$GPGGA,180359,2442.3856,N,08033.1687,W,1,10,1.4,23,M,,M,,*6B
06/02/2014	18:03:51.591	$GPGGA,180400,2442.3871,N,08033.1691,W,1,10,1.6,23,M,,M,,*60
06/02/2014	18:03:52.571	$GPGGA,180401,2442.3886,N,08033.1691,W,1,10,1.4,23,M,,M,,*6B
06/02/2014	18:03:53.551	$GPGGA,180402,2442.3903,N,08033.1690,W,1,10,1.4,23,M,,M,,*65
06/02/2014	18:03:54.531	$GPGGA,180403,2442.3917,N,08033.1694,W,1,10,1.4,23,M,,M,,*65
06/02/2014	18:03:55.571	$GPGGA,180404,2442.3931,N,08033.1698,W,1,10,1.3,23,M,,M,,*6D
06/02/2014	18:03:56.571	$GPGGA,180405,2442.3947,N,08033.1697,W,1,11,1.4,23,M,,M,,*64
06/02/2014	18:03:57.543	$GPGGA,180406,2442.3961,N,08033.1696,W,1,11,1.5,23,M,,M,,*63
06/02/2014	18:03:58.531	$GPGGA,180407,2442.3975,N,08033.1701,W,1,9,1.4,22,M,,M,,*51
06/02/2014	18:03:59.551	$GPGGA,180408,2442.3989,N,08033.1705,W,1,9,1.3,22,M,,M,,*5E
06/02/2014	18:04:00.530	$GPGGA,180409,2442.4004,N,08033.1706,W,1,11,1.5,22,M,,M,,*68
06/02/2014	18:04:01.520	$GPGGA,180410,2442.4019,N,08033.1705,W,1,11,1.5,22,M,,M,,*6F
06/02/2014	18:04:02.550	$GPGGA,180411,2442.4032,N,08033.1709,W,1,9,1.4,22,M,,M,,*53
06/02/2014	18:04:03.540	$GPGGA,180412,2442.4045,N,08033.1714,W,1,9,1.7,22,M,,M,,*5F
06/02/2014	18:04:04.520	$GPGGA,180413,2442.4058,N,08033.1711,W,1,9,1.4,22,M,,M,,*54
06/02/2014	18:04:05.530	$GPGGA,180414,2442.4073,N,08033.1712,W,1,9,1.4,22,M,,M,,*59
06/02/2014	18:04:06.540	$GPGGA,180415,2442.4088,N,08033.1714,W,1,10,1.5,22,M,,M,,*63
06/02/2014	18:04:07.530	$GPGGA,180416,2442.4104,N,08033.1717,W,1,10,1.4,22,M,,M,,*67
06/02/2014	18:04:08.520	$GPGGA,180417,2442.4120,N,08033.1719,W,1,10,1.4,22,M,,M,,*6E
06/02/2014	18:04:09.630	$GPGGA,180418,2442.4135,N,08033.1718,W,1,10,1.4,22,M,,M,,*64
06/02/2014	18:04:10.600	$GPGGA,180419,2442.4151,N,08033.1720,W,1,10,1.4,22,M,,M,,*6C
06/02/2014	18:04:11.530	$GPGGA,180420,2442.4163,N,08033.1721,W,1,10,1.3,22,M,,M,,*61
06/02/2014	18:04:12.620	$GPGGA,180421,2442.4178,N,08033.1721,W,1,11,1.4,22,M,,M,,*6C
06/02/2014	18:04:13.511	$GPGGA,180422,2442.4195,N,08033.1721,W,1,11,1.3,22,M,,M,,*6B
06/02/2014	18:04:14.530	$GPGGA,180423,2442.4210,N,08033.1723,W,1,11,1.7,22,M,,M,,*62
06/02/2014	18:04:15.630	$GPGGA,180424,2442.4225,N,08033.1727,W,1,11,1.7,22,M,,M,,*67
06/02/2014	18:04:16.520	$GPGGA,180425,2442.4242,N,08033.1726,W,1,11,1.4,22,M,,M,,*65
06/02/2014	18:04:17.589	$GPGGA,180426,2442.4258,N,08033.1724,W,1,11,1.4,22,M,,M,,*6F
06/02/2014	18:04:18.499	$GPGGA,180427,2442.4274,N,08033.1727,W,1,10,1.4,22,M,,M,,*62
06/02/2014	18:04:19.599	$GPGGA,180428,2442.4289,N,08033.1730,W,1,10,1.4,22,M,,M,,*69
06/02/2014	18:04:20.629	$GPGGA,180429,2442.4305,N,08033.1728,W,1,11,1.3,22,M,,M,,*62
06/02/2014	18:04:21.579	$GPGGA,180430,2442.4321,N,08033.1728,W,1,11,1.6,22,M,,M,,*69
06/02/2014	18:04:22.579	$GPGGA,180431,2442.4336,N,08033.1730,W,1,10,1.4,21,M,,M,,*67
06/02/2014	18:04:23.599	$GPGGA,180432,2442.4352,N,08033.1731,W,1,10,1.4,21,M,,M,,*67
06/02/2014	18:04:24.609	$GPGGA,180433,2442.4368,N,08033.1731,W,1,10,1.4,21,M,,M,,*6F
06/02/2014	18:04:25.571	$GPGGA,180434,2442.4383,N,08033.1731,W,1,10,1.4,21,M,,M,,*6D
06/02/2014	18:04:26.589	$GPGGA,180435,2442.4399,N,08033.1732,W,1,11,1.3,21,M,,M,,*62
06/02/2014	18:04:27.589	$GPGGA,180436,2442.4415,N,08033.1732,W,1,11,1.3,21,M,,M,,*62
06/02/2014	18:04:28.589	$GPGGA,180437,2442.4431,N,08033.1732,W,1,10,1.4,21,M,,M,,*63
06/02/2014	18:04:29.569	$GPGGA,180438,2442.4445,N,08033.1734,W,1,10,1.7,21,M,,M,,*6A
06/02/2014	18:04:30.589	$GPGGA,180439,2442.4460,N,08033.1736,W,1,9,2.1,21,M,,M,,*53
06/02/2014	18:04:31.569	$GPGGA,180440,2442.4478,N,08033.1736,W,1,9,1.4,21,M,,M,,*52
06/02/2014	18:04:32.579	$GPGGA,180441,2442.4493,N,08033.1741,W,1,10,1.4,21,M,,M,,*6E
06/02/2014	18:04:33.559	$GPGGA,180442,2442.4507,N,08033.1745,W,1,10,1.3,21,M,,M,,*62
06/02/2014	18:04:34.560	$GPGGA,180443,2442.4521,N,08033.1746,W,1,11,1.4,21,M,,M,,*62
06/02/2014	18:04:35.578	$GPGGA,180444,2442.4536,N,08033.1748,W,1,11,1.4,21,M,,M,,*6D
06/02/2014	18:04:36.583	$GPGGA,180445,2442.4552,N,08033.1750,W,1,11,1.3,21,M,,M,,*60
06/02/2014	18:04:37.558	$GPGGA,180446,2442.4567,N,08033.1752,W,1,11,1.3,22,M,,M,,*64
06/02/2014	18:04:38.558	$GPGGA,180447,2442.4583,N,08033.1756,W,1,9,1.6,22,M,,M,,*57
06/02/2014	18:04:39.558	$GPGGA,180448,2442.4597,N,08033.1759,W,1,9,1.6,22,M,,M,,*52
06/02/2014	18:04:40.558	$GPGGA,180449,2442.4615,N,08033.1760,W,1,10,1.6,22,M,,M,,*68
06/02/2014	18:04:41.549	$GPGGA,180450,2442.4629,N,08033.1760,W,1,10,1.3,22,M,,M,,*6A
06/02/2014	18:04:42.568	$GPGGA,180451,2442.4641,N,08033.1764,W,1,10,1.4,22,M,,M,,*66
06/02/2014	18:04:43.558	$GPGGA,180452,2442.4655,N,08033.1766,W,1,10,1.4,22,M,,M,,*62
06/02/2014	18:04:44.528	$GPGGA,180453,2442.4670,N,08033.1764,W,1,10,1.3,22,M,,M,,*61
06/02/2014	18:04:45.528	$GPGGA,180454,2442.4686,N,08033.1767,W,1,10,1.4,22,M,,M,,*6B
06/02/2014	18:04:46.528	$GPGGA,180455,2442.4699,N,08033.1770,W,1,11,1.3,22,M,,M,,*64
06/02/2014	18:04:47.548	$GPGGA,180456,2442.4715,N,08033.1771,W,1,11,1.3,22,M,,M,,*63
06/02/2014	18:04:48.558	$GPGGA,180457,2442.4730,N,08033.1771,W,1,11,1.3,22,M,,M,,*65
06/02/2014	18:04:49.528	$GPGGA,180458,2442.4742,N,08033.1774,W,1,11,1.3,23,M,,M,,*6B
06/02/2014	18:04:50.518	$GPGGA,180459,2442.4756,N,08033.1777,W,1,10,1.4,23,M,,M,,*6A
06/02/2014	18:04:51.539	$GPGGA,180500,2442.4771,N,08033.1778,W,1,10,1.3,23,M,,M,,*6A
06/02/2014	18:04:52.527	$GPGGA,180501,2442.4785,N,08033.1781,W,1,10,1.4,23,M,,M,,*61
06/02/2014	18:04:53.527	$GPGGA,180502,2442.4799,N,08033.1783,W,1,10,1.3,23,M,,M,,*6A
06/02/2014	18:04:54.627	$GPGGA,180503,2442.4813,N,08033.1785,W,1,11,1.3,23,M,,M,,*61
06/02/2014	18:04:55.537	$GPGGA,180504,2442.4828,N,08033.1785,W,1,11,1.3,23,M,,M,,*6E
06/02/2014	18:04:56.517	$GPGGA,180505,2442.4842,N,08033.1785,W,1,10,1.4,23,M,,M,,*65
06/02/2014	18:04:57.507	$GPGGA,180506,2442.4856,N,08033.1790,W,1,10,1.4,23,M,,M,,*67
06/02/2014	18:04:58.527	$GPGGA,180507,2442.4872,N,08033.1793,W,1,9,1.7,23,M,,M,,*58
06/02/2014	18:04:59.518	$GPGGA,180508,2442.4889,N,08033.1796,W,1,9,1.4,23,M,,M,,*55
06/02/2014	18:05:00.507	$GPGGA,180509,2442.4904,N,08033.1799,W,1,10,1.4,23,M,,M,,*67
06/02/2014	18:05:01.497	$GPGGA,180510,2442.4915,N,08033.1803,W,1,10,1.4,23,M,,M,,*63
06/02/2014	18:05:02.507	$GPGGA,180511,2442.4932,N,08033.1802,W,1,10,1.4,23,M,,M,,*66
06/02/2014	18:05:03.517	$GPGGA,180512,2442.4947,N,08033.1803,W,1,10,1.7,23,M,,M,,*65
06/02/2014	18:05:04.507	$GPGGA,180513,2442.4961,N,08033.1806,W,1,10,1.4,23,M,,M,,*66
06/02/2014	18:05:05.487	$GPGGA,180514,2442.4975,N,08033.1810,W,1,10,1.4,23,M,,M,,*63
06/02/2014	18:05:06.587	$GPGGA,180515,2442.4991,N,08033.1811,W,1,10,1.4,23,M,,M,,*69
06/02/2014	18:05:07.497	$GPGGA,180516,2442.5005,N,08033.1811,W,1,10,1.4,23,M,,M,,*6F
06/02/2014	18:05:08.497	$GPGGA,180517,2442.5018,N,08033.1814,W,1,10,1.4,23,M,,M,,*67
06/02/2014	18:05:09.580	$GPGGA,180518,2442.5031,N,08033.1817,W,1,10,1.4,23,M,,M,,*60
06/02/2014	18:05:10.496	$GPGGA,180519,2442.5048,N,08033.1814,W,1,10,1.4,23,M,,M,,*6C
06/02/2014	18:05:11.596	$GPGGA,180520,2442.5062,N,08033.1817,W,1,10,1.7,23,M,,M,,*6E
06/02/2014	18:05:12.576	$GPGGA,180521,2442.5076,N,08033.1821,W,1,10,1.4,23,M,,M,,*6C
06/02/2014	18:05:13.486	$GPGGA,180522,2442.5092,N,08033.1822,W,1,10,1.7,23,M,,M,,*65
06/02/2014	18:05:14.576	$GPGGA,180523,2442.5107,N,08033.1822,W,1,9,1.7,22,M,,M,,*50
06/02/2014	18:05:15.586	$GPGGA,180524,2442.5121,N,08033.1825,W,1,9,1.4,22,M,,M,,*57
06/02/2014	18:05:16.576	$GPGGA,180525,2442.5135,N,08033.1828,W,1,9,1.5,22,M,,M,,*5F
06/02/2014	18:05:17.576	$GPGGA,180526,2442.5150,N,08033.1828,W,1,9,1.7,22,M,,M,,*5D
06/02/2014	18:05:18.576	$GPGGA,180527,2442.5164,N,08033.1828,W,1,9,1.7,22,M,,M,,*5B
06/02/2014	18:05:19.576	$GPGGA,180528,2442.5182,N,08033.1831,W,1,9,1.4,22,M,,M,,*57
06/02/2014	18:05:20.576	$GPGGA,180529,2442.5197,N,08033.1833,W,1,10,1.4,22,M,,M,,*68
06/02/2014	18:05:21.567	$GPGGA,180530,2442.5212,N,08033.1835,W,1,10,1.4,22,M,,M,,*68
06/02/2014	18:05:22.587	$GPGGA,180531,2442.5229,N,08033.1835,W,1,10,1.4,22,M,,M,,*61
06/02/2014	18:05:23.577	$GPGGA,180532,2442.5243,N,08033.1835,W,1,10,1.4,22,M,,M,,*6E
06/02/2014	18:05:24.577	$GPGGA,180533,2442.5257,N,08033.1839,W,1,10,1.4,22,M,,M,,*66
06/02/2014	18:05:25.568	$GPGGA,180534,2442.5272,N,08033.1839,W,1,10,1.4,22,M,,M,,*66
06/02/2014	18:05:26.577	$GPGGA,180535,2442.5287,N,08033.1838,W,1,10,1.4,22,M,,M,,*6C
06/02/2014	18:05:27.566	$GPGGA,180536,2442.5302,N,08033.1839,W,1,10,1.4,22,M,,M,,*62
06/02/2014	18:05:28.567	$GPGGA,180537,2442.5316,N,08033.1842,W,1,10,1.4,22,M,,M,,*6A
06/02/2014	18:05:29.556	$GPGGA,180538,2442.5331,N,08033.1843,W,1,10,1.4,22,M,,M,,*61
06/02/2014	18:05:30.546	$GPGGA,180539,2442.5345,N,08033.1842,W,1,10,1.4,22,M,,M,,*62
06/02/2014	18:05:31.566	$GPGGA,180540,2442.5360,N,08033.1842,W,1,10,1.4,22,M,,M,,*6B
06/02/2014	18:05:32.566	$GPGGA,180541,2442.5378,N,08033.1844,W,1,10,1.4,22,M,,M,,*65
06/02/2014	18:05:33.536	$GPGGA,180542,2442.5392,N,08033.1846,W,1,10,1.4,22,M,,M,,*60
06/02/2014	18:05:34.536	$GPGGA,180543,2442.5407,N,08033.1850,W,1,10,1.4,22,M,,M,,*6D
06/02/2014	18:05:35.556	$GPGGA,180544,2442.5424,N,08033.1848,W,1,10,1.4,22,M,,M,,*62
06/02/2014	18:05:36.556	$GPGGA,180545,2442.5439,N,08033.1848,W,1,10,1.4,22,M,,M,,*6F
06/02/2014	18:05:37.536	$GPGGA,180546,2442.5453,N,08033.1851,W,1,10,1.4,22,M,,M,,*68
06/02/2014	18:05:38.546	$GPGGA,180547,2442.5468,N,08033.1853,W,1,10,1.4,22,M,,M,,*63
06/02/2014	18:05:39.546	$GPGGA,180548,2442.5484,N,08033.1852,W,1,10,1.7,22,M,,M,,*6C
06/02/2014	18:05:40.526	$GPGGA,180549,2442.5499,N,08033.1853,W,1,10,1.4,22,M,,M,,*63
06/02/2014	18:05:41.536	$GPGGA,180550,2442.5514,N,08033.1854,W,1,10,1.4,22,M,,M,,*68
06/02/2014	18:05:42.516	$GPGGA,180551,2442.5528,N,08033.1857,W,1,10,1.4,22,M,,M,,*65
06/02/2014	18:05:43.546	$GPGGA,180552,2442.5543,N,08033.1856,W,1,10,1.4,22,M,,M,,*6A
06/02/2014	18:05:44.546	$GPGGA,180553,2442.5558,N,08033.1857,W,1,10,1.4,22,M,,M,,*60
06/02/2014	18:05:45.515	$GPGGA,180554,2442.5573,N,08033.1860,W,1,10,1.4,22,M,,M,,*6A
06/02/2014	18:05:46.535	$GPGGA,180555,2442.5587,N,08033.1861,W,1,10,1.4,22,M,,M,,*61
06/02/2014	18:05:48.845	$GPGGA,180557,2442.5619,N,08033.1864,W,1,10,1.4,22,M,,M,,*62
06/02/2014	18:05:49.505	$GPGGA,180558,2442.5634,N,08033.1865,W,1,10,1.4,22,M,,M,,*63
06/02/2014	18:05:50.505	$GPGGA,180559,2442.5649,N,08033.1866,W,1,10,1.4,22,M,,M,,*6B
06/02/2014	18:05:51.515	$GPGGA,180600,2442.5663,N,08033.1869,W,1,10,1.4,22,M,,M,,*63
06/02/2014	18:05:52.515	$GPGGA,180601,2442.5680,N,08033.1871,W,1,10,1.4,22,M,,M,,*66
06/02/2014	18:05:53.595	$GPGGA,180602,2442.5695,N,08033.1871,W,1,10,1.4,22,M,,M,,*61
06/02/2014	18:05:54.635	$GPGGA,180603,2442.5710,N,08033.1873,W,1,10,1.4,22,M,,M,,*6E
06/02/2014	18:05:55.515	$GPGGA,180604,2442.5724,N,08033.1878,W,1,10,1.4,22,M,,M,,*65
06/02/2014	18:05:56.505	$GPGGA,180605,2442.5742,N,08033.1880,W,1,9,1.7,22,M,,M,,*58
06/02/2014	18:05:57.505	$GPGGA,180606,2442.5757,N,08033.1878,W,1,9,1.4,22,M,,M,,*5B
06/02/2014	18:05:58.605	$GPGGA,180607,2442.5771,N,08033.1880,W,1,9,1.7,22,M,,M,,*5A
06/02/2014	18:05:59.505	$GPGGA,180608,2442.5786,N,08033.1882,W,1,9,1.4,22,M,,M,,*5C
06/02/2014	18:06:00.586	$GPGGA,180609,2442.5800,N,08033.1881,W,1,10,1.4,22,M,,M,,*67
06/02/2014	18:06:01.485	$GPGGA,180610,2442.5815,N,08033.1880,W,1,10,1.4,21,M,,M,,*69
06/02/2014	18:06:02.575	$GPGGA,180611,2442.5828,N,08033.1882,W,1,10,1.4,21,M,,M,,*64
06/02/2014	18:06:03.594	$GPGGA,180612,2442.5844,N,08033.1882,W,1,10,1.4,21,M,,M,,*6D
06/02/2014	18:06:04.584	$GPGGA,180613,2442.5861,N,08033.1881,W,1,10,1.4,21,M,,M,,*68
06/02/2014	18:06:05.584	$GPGGA,180614,2442.5873,N,08033.1882,W,1,10,1.4,21,M,,M,,*6F
06/02/2014	18:06:06.574	$GPGGA,180615,2442.5889,N,08033.1884,W,1,10,1.4,21,M,,M,,*6D
06/02/2014	18:06:07.584	$GPGGA,180616,2442.5904,N,08033.1883,W,1,10,1.4,21,M,,M,,*6D
06/02/2014	18:06:08.574	$GPGGA,180617,2442.5918,N,08033.1883,W,1,10,1.4,21,M,,M,,*61
06/02/2014	18:06:09.574	$GPGGA,180618,2442.5934,N,08033.1884,W,1,10,1.4,21,M,,M,,*67
06/02/2014	18:06:10.554	$GPGGA,180619,2442.5949,N,08033.1884,W,1,10,1.4,21,M,,M,,*6C
06/02/2014	18:06:11.574	$GPGGA,180620,2442.5965,N,08033.1886,W,1,10,1.4,21,M,,M,,*6A
06/02/2014	18:06:12.584	$GPGGA,180621,2442.5980,N,08033.1887,W,1,10,1.4,21,M,,M,,*61
06/02/2014	18:06:13.554	$GPGGA,180622,2442.5995,N,08033.1889,W,1,10,1.4,21,M,,M,,*68
06/02/2014	18:06:14.574	$GPGGA,180623,2442.6010,N,08033.1887,W,1,10,1.4,21,M,,M,,*60
06/02/2014	18:06:15.574	$GPGGA,180624,2442.6024,N,08033.1887,W,1,10,1.4,21,M,,M,,*60
06/02/2014	18:06:16.544	$GPGGA,180625,2442.6039,N,08033.1889,W,1,10,1.4,21,M,,M,,*63
06/02/2014	18:06:17.544	$GPGGA,180626,2442.6057,N,08033.1891,W,1,10,1.4,21,M,,M,,*61
06/02/2014	18:06:18.544	$GPGGA,180627,2442.6073,N,08033.1893,W,1,9,1.7,21,M,,M,,*5F
06/02/2014	18:06:19.554	$GPGGA,180628,2442.6088,N,08033.1894,W,1,9,1.4,21,M,,M,,*50
06/02/2014	18:06:20.574	$GPGGA,180629,2442.6103,N,08033.1897,W,1,10,1.4,21,M,,M,,*68
06/02/2014	18:06:21.533	$GPGGA,180630,2442.6118,N,08033.1898,W,1,10,1.7,21,M,,M,,*66
06/02/2014	18:06:22.533	$GPGGA,180631,2442.6135,N,08033.1897,W,1,9,1.7,21,M,,M,,*5F
06/02/2014	18:06:23.553	$GPGGA,180632,2442.6151,N,08033.1901,W,1,9,1.4,21,M,,M,,*53
06/02/2014	18:06:24.543	$GPGGA,180633,2442.6165,N,08033.1904,W,1,9,1.7,21,M,,M,,*53
06/02/2014	18:06:25.533	$GPGGA,180634,2442.6182,N,08033.1905,W,1,9,1.4,21,M,,M,,*5F
06/02/2014	18:06:26.563	$GPGGA,180635,2442.6197,N,08033.1905,W,1,10,1.4,21,M,,M,,*62
06/02/2014	18:06:27.543	$GPGGA,180636,2442.6211,N,08033.1909,W,1,10,1.4,21,M,,M,,*60
06/02/2014	18:06:28.513	$GPGGA,180637,2442.6227,N,08033.1912,W,1,9,1.7,21,M,,M,,*55
06/02/2014	18:06:29.513	$GPGGA,180638,2442.6244,N,08033.1911,W,1,9,1.4,21,M,,M,,*5F
06/02/2014	18:06:30.553	$GPGGA,180639,2442.6259,N,08033.1913,W,1,10,1.4,21,M,,M,,*68
06/02/2014	18:06:31.523	$GPGGA,180640,2442.6274,N,08033.1916,W,1,10,1.7,21,M,,M,,*6F
06/02/2014	18:06:32.674	$GPGGA,180641,2442.6291,N,08033.1918,W,1,10,1.4,21,M,,M,,*68
06/02/2014	18:06:33.513	$GPGGA,180642,2442.6306,N,08033.1918,W,1,10,1.4,21,M,,M,,*64
06/02/2014	18:06:34.664	$GPGGA,180643,2442.6321,N,08033.1919,W,1,9,1.4,21,M,,M,,*59
06/02/2014	18:06:35.703	$GPGGA,180644,2442.6338,N,08033.1919,W,1,10,1.4,20,M,,M,,*6F
06/02/2014	18:06:36.524	$GPGGA,180645,2442.6353,N,08033.1919,W,1,10,1.4,20,M,,M,,*63
06/02/2014	18:06:37.502	$GPGGA,180646,2442.6368,N,08033.1920,W,1,10,1.4,20,M,,M,,*62
06/02/2014	18:06:38.662	$GPGGA,180647,2442.6384,N,08033.1922,W,1,10,1.4,20,M,,M,,*63
06/02/2014	18:06:39.532	$GPGGA,180648,2442.6400,N,08033.1922,W,1,10,1.4,20,M,,M,,*67
06/02/2014	18:06:40.652	$GPGGA,180649,2442.6417,N,08033.1922,W,1,10,1.4,20,M,,M,,*60
06/02/2014	18:06:41.512	$GPGGA,180650,2442.6432,N,08033.1925,W,1,10,1.4,20,M,,M,,*68
06/02/2014	18:06:42.612	$GPGGA,180651,2442.6449,N,08033.1926,W,1,10,1.7,20,M,,M,,*65
06/02/2014	18:06:43.602	$GPGGA,180652,2442.6465,N,08033.1925,W,1,10,1.7,20,M,,M,,*6B
06/02/2014	18:06:44.632	$GPGGA,180653,2442.6482,N,08033.1926,W,1,10,1.4,20,M,,M,,*63
06/02/2014	18:06:45.502	$GPGGA,180654,2442.6497,N,08033.1929,W,1,10,1.4,20,M,,M,,*6F
06/02/2014	18:06:46.612	$GPGGA,180655,2442.6512,N,08033.1930,W,1,10,1.4,20,M,,M,,*6A
06/02/2014	18:06:47.502	$GPGGA,180656,2442.6527,N,08033.1930,W,1,10,1.4,20,M,,M,,*6F
06/02/2014	18:06:48.492	$GPGGA,180657,2442.6544,N,08033.1928,W,1,10,1.4,20,M,,M,,*62
06/02/2014	18:06:49.572	$GPGGA,180658,2442.6562,N,08033.1926,W,1,10,1.5,20,M,,M,,*66
06/02/2014	18:06:50.642	$GPGGA,180659,2442.6577,N,08033.1926,W,1,10,1.4,20,M,,M,,*62
06/02/2014	18:06:51.672	$GPGGA,180700,2442.6594,N,08033.1927,W,1,10,1.4,20,M,,M,,*63
06/02/2014	18:06:52.622	$GPGGA,180701,2442.6610,N,08033.1925,W,1,10,1.4,20,M,,M,,*6F
06/02/2014	18:06:53.642	$GPGGA,180702,2442.6627,N,08033.1922,W,1,10,1.4,20,M,,M,,*6F
06/02/2014	18:06:54.574	$GPGGA,180703,2442.6642,N,08033.1921,W,1,9,1.7,20,M,,M,,*55
06/02/2014	18:06:55.571	$GPGGA,180704,2442.6656,N,08033.1922,W,1,9,1.4,20,M,,M,,*57
06/02/2014	18:06:56.601	$GPGGA,180705,2442.6671,N,08033.1923,W,1,10,1.4,20,M,,M,,*6A
06/02/2014	18:06:57.631	$GPGGA,180706,2442.6689,N,08033.1922,W,1,10,1.4,20,M,,M,,*6F
06/02/2014	18:06:58.601	$GPGGA,180707,2442.6704,N,08033.1925,W,1,9,1.8,20,M,,M,,*59
06/02/2014	18:06:59.641	$GPGGA,180708,2442.6717,N,08033.1929,W,1,9,1.4,20,M,,M,,*54
06/02/2014	18:07:00.641	$GPGGA,180709,2442.6731,N,08033.1933,W,1,10,1.7,20,M,,M,,*61
06/02/2014	18:07:01.622	$GPGGA,180710,2442.6747,N,08033.1931,W,1,10,1.7,20,M,,M,,*6A
06/02/2014	18:07:02.541	$GPGGA,180711,2442.6761,N,08033.1931,W,1,9,1.7,21,M,,M,,*56
06/02/2014	18:07:03.631	$GPGGA,180712,2442.6776,N,08033.1933,W,1,9,1.7,21,M,,M,,*51
06/02/2014	18:07:04.541	$GPGGA,180713,2442.6790,N,08033.1933,W,1,10,1.4,21,M,,M,,*63
06/02/2014	18:07:05.541	$GPGGA,180714,2442.6805,N,08033.1933,W,1,10,1.4,21,M,,M,,*67
06/02/2014	18:07:06.591	$GPGGA,180715,2442.6819,N,08033.1934,W,1,10,1.4,21,M,,M,,*6C
06/02/2014	18:07:07.621	$GPGGA,180716,2442.6834,N,08033.1936,W,1,10,1.4,21,M,,M,,*62
06/02/2014	18:07:08.611	$GPGGA,180717,2442.6850,N,08033.1936,W,1,9,1.4,22,M,,M,,*5A
06/02/2014	18:07:09.591	$GPGGA,180718,2442.6866,N,08033.1936,W,1,9,1.4,22,M,,M,,*50
06/02/2014	18:07:10.581	$GPGGA,180719,2442.6880,N,08033.1938,W,1,10,1.4,22,M,,M,,*6F
06/02/2014	18:07:11.601	$GPGGA,180720,2442.6895,N,08033.1940,W,1,10,1.4,22,M,,M,,*6E
06/02/2014	18:07:12.530	$GPGGA,180721,2442.6912,N,08033.1939,W,1,10,1.4,22,M,,M,,*6F
06/02/2014	18:07:13.590	$GPGGA,180722,2442.6926,N,08033.1941,W,1,10,1.4,22,M,,M,,*64
06/02/2014	18:07:14.570	$GPGGA,180723,2442.6940,N,08033.1944,W,1,10,1.4,22,M,,M,,*60
06/02/2014	18:07:15.590	$GPGGA,180724,2442.6955,N,08033.1943,W,1,10,1.4,22,M,,M,,*64
06/02/2014	18:07:16.581	$GPGGA,180725,2442.6970,N,08033.1944,W,1,10,1.4,22,M,,M,,*65
06/02/2014	18:07:17.521	$GPGGA,180726,2442.6985,N,08033.1945,W,1,10,1.4,22,M,,M,,*6D
06/02/2014	18:07:18.540	$GPGGA,180727,2442.7000,N,08033.1947,W,1,10,1.4,23,M,,M,,*6A
06/02/2014	18:07:19.590	$GPGGA,180728,2442.7014,N,08033.1949,W,1,10,1.4,23,M,,M,,*6E
06/02/2014	18:07:20.550	$GPGGA,180729,2442.7029,N,08033.1951,W,1,10,1.4,23,M,,M,,*68
06/02/2014	18:07:21.510	$GPGGA,180730,2442.7046,N,08033.1950,W,1,10,1.4,23,M,,M,,*68
06/02/2014	18:07:22.500	$GPGGA,180731,2442.7061,N,08033.1951,W,1,10,1.4,23,M,,M,,*6D
06/02/2014	18:07:23.570	$GPGGA,180732,2442.7076,N,08033.1951,W,1,10,1.4,23,M,,M,,*68
06/02/2014	18:07:24.610	$GPGGA,180733,2442.7090,N,08033.1952,W,1,10,1.4,23,M,,M,,*62
06/02/2014	18:07:25.560	$GPGGA,180734,2442.7107,N,08033.1952,W,1,10,1.4,23,M,,M,,*6A
06/02/2014	18:07:26.540	$GPGGA,180735,2442.7122,N,08033.1952,W,1,10,1.5,23,M,,M,,*6D
06/02/2014	18:07:27.580	$GPGGA,180736,2442.7137,N,08033.1954,W,1,10,1.4,23,M,,M,,*6D
06/02/2014	18:07:28.590	$GPGGA,180737,2442.7154,N,08033.1952,W,1,10,1.4,23,M,,M,,*6F
06/02/2014	18:07:29.550	$GPGGA,180738,2442.7170,N,08033.1950,W,1,10,1.4,23,M,,M,,*64
06/02/2014	18:07:30.540	$GPGGA,180739,2442.7187,N,08033.1951,W,1,10,1.4,23,M,,M,,*6C
06/02/2014	18:07:31.569	$GPGGA,180740,2442.7202,N,08033.1954,W,1,10,1.4,23,M,,M,,*69
06/02/2014	18:07:32.549	$GPGGA,180741,2442.7216,N,08033.1953,W,1,10,1.5,23,M,,M,,*6B
06/02/2014	18:07:33.589	$GPGGA,180742,2442.7234,N,08033.1951,W,1,10,1.4,23,M,,M,,*6B
06/02/2014	18:07:34.549	$GPGGA,180743,2442.7249,N,08033.1950,W,1,10,1.7,23,M,,M,,*62
06/02/2014	18:07:35.599	$GPGGA,180744,2442.7263,N,08033.1951,W,1,10,1.4,23,M,,M,,*6F
06/02/2014	18:07:36.579	$GPGGA,180745,2442.7281,N,08033.1951,W,1,10,1.4,23,M,,M,,*62
06/02/2014	18:07:37.579	$GPGGA,180746,2442.7296,N,08033.1950,W,1,10,1.4,23,M,,M,,*66
06/02/2014	18:07:38.609	$GPGGA,180747,2442.7313,N,08033.1951,W,1,10,1.4,23,M,,M,,*6A
06/02/2014	18:07:39.589	$GPGGA,180748,2442.7328,N,08033.1954,W,1,10,1.4,23,M,,M,,*68
06/02/2014	18:07:40.579	$GPGGA,180749,2442.7343,N,08033.1955,W,1,10,1.4,23,M,,M,,*65
06/02/2014	18:07:41.599	$GPGGA,180750,2442.7359,N,08033.1953,W,1,10,1.4,23,M,,M,,*60
06/02/2014	18:07:42.589	$GPGGA,180751,2442.7375,N,08033.1954,W,1,10,1.4,23,M,,M,,*68
06/02/2014	18:07:43.589	$GPGGA,180752,2442.7389,N,08033.1958,W,1,10,1.4,23,M,,M,,*64
06/02/2014	18:07:44.582	$GPGGA,180753,2442.7404,N,08033.1959,W,1,10,1.4,24,M,,M,,*61
06/02/2014	18:07:45.559	$GPGGA,180754,2442.7419,N,08033.1958,W,1,10,1.4,24,M,,M,,*6B
06/02/2014	18:07:46.609	$GPGGA,180755,2442.7435,N,08033.1959,W,1,10,1.4,24,M,,M,,*65
06/02/2014	18:07:47.578	$GPGGA,180756,2442.7448,N,08033.1962,W,1,10,1.4,23,M,,M,,*63
06/02/2014	18:07:48.588	$GPGGA,180757,2442.7464,N,08033.1963,W,1,10,1.4,23,M,,M,,*6D
06/02/2014	18:07:49.548	$GPGGA,180758,2442.7480,N,08033.1963,W,1,10,1.4,23,M,,M,,*68
06/02/2014	18:07:50.578	$GPGGA,180759,2442.7495,N,08033.1965,W,1,10,1.4,23,M,,M,,*6B
06/02/2014	18:07:51.598	$GPGGA,180800,2442.7509,N,08033.1967,W,1,10,1.4,23,M,,M,,*6E
06/02/2014	18:07:52.568	$GPGGA,180801,2442.7526,N,08033.1967,W,1,10,1.7,23,M,,M,,*61
06/02/2014	18:07:53.568	$GPGGA,180802,2442.7540,N,08033.1969,W,1,10,1.4,23,M,,M,,*6F
06/02/2014	18:07:54.558	$GPGGA,180803,2442.7556,N,08033.1969,W,1,10,1.4,23,M,,M,,*69
06/02/2014	18:07:55.578	$GPGGA,180804,2442.7571,N,08033.1969,W,1,10,1.4,23,M,,M,,*6B
06/02/2014	18:07:56.568	$GPGGA,180805,2442.7587,N,08033.1972,W,1,10,1.4,23,M,,M,,*69
06/02/2014	18:07:57.548	$GPGGA,180806,2442.7603,N,08033.1973,W,1,10,1.4,23,M,,M,,*64
06/02/2014	18:07:58.558	$GPGGA,180807,2442.7618,N,08033.1972,W,1,10,1.7,23,M,,M,,*6D
06/02/2014	18:07:59.578	$GPGGA,180808,2442.7618,N,08033.1972,W,1,10,1.7,23,M,,M,,*62
06/02/2014	18:08:00.528	$GPGGA,180809,2442.7648,N,08033.1977,W,1,10,1.4,23,M,,M,,*60
06/02/2014	18:08:01.568	$GPGGA,180810,2442.7664,N,08033.1977,W,1,10,1.4,23,M,,M,,*66
06/02/2014	18:08:02.568	$GPGGA,180811,2442.7681,N,08033.1978,W,1,10,1.4,23,M,,M,,*63
06/02/2014	18:08:03.558	$GPGGA,180812,2442.7695,N,08033.1980,W,1,10,1.4,23,M,,M,,*62
06/02/2014	18:08:04.558	$GPGGA,180813,2442.7710,N,08033.1983,W,1,10,1.4,23,M,,M,,*6C
06/02/2014	18:08:05.527	$GPGGA,180814,2442.7710,N,08033.1983,W,1,10,1.4,23,M,,M,,*6B
06/02/2014	18:08:06.558	$GPGGA,180815,2442.7740,N,08033.1984,W,1,10,1.4,23,M,,M,,*68
06/02/2014	18:08:07.547	$GPGGA,180816,2442.7740,N,08033.1984,W,1,10,1.4,23,M,,M,,*6B
06/02/2014	18:08:08.527	$GPGGA,180817,2442.7769,N,08033.1987,W,1,10,1.4,23,M,,M,,*62
06/02/2014	18:08:09.517	$GPGGA,180818,2442.7784,N,08033.1988,W,1,10,1.7,23,M,,M,,*62
06/02/2014	18:08:10.597	$GPGGA,180819,2442.7801,N,08033.1991,W,1,10,1.4,23,M,,M,,*6A
06/02/2014	18:08:11.517	$GPGGA,180820,2442.7801,N,08033.1991,W,1,10,1.4,23,M,,M,,*60
06/02/2014	18:08:12.637	$GPGGA,180821,2442.7831,N,08033.1995,W,1,10,1.4,22,M,,M,,*67
06/02/2014	18:08:13.507	$GPGGA,180822,2442.7831,N,08033.1995,W,1,10,1.4,22,M,,M,,*64
06/02/2014	18:08:14.507	$GPGGA,180823,2442.7860,N,08033.1998,W,1,10,1.4,22,M,,M,,*6C
06/02/2014	18:08:15.627	$GPGGA,180824,2442.7874,N,08033.1998,W,1,10,1.4,22,M,,M,,*6E
06/02/2014	18:08:16.627	$GPGGA,180825,2442.7889,N,08033.1998,W,1,10,1.4,22,M,,M,,*6D
06/02/2014	18:08:17.507	$GPGGA,180826,2442.7889,N,08033.1998,W,1,10,1.4,22,M,,M,,*6E
06/02/2014	18:08:18.587	$GPGGA,180827,2442.7921,N,08033.2005,W,1,9,1.7,22,M,,M,,*59
06/02/2014	18:08:19.517	$GPGGA,180828,2442.7938,N,08033.2004,W,1,9,1.7,22,M,,M,,*5F
06/02/2014	18:08:20.497	$GPGGA,180829,2442.7950,N,08033.2005,W,1,9,1.7,22,M,,M,,*51
06/02/2014	18:08:21.497	$GPGGA,180830,2442.7950,N,08033.2005,W,1,9,1.4,22,M,,M,,*5A
06/02/2014	18:08:22.626	$GPGGA,180831,2442.7979,N,08033.2007,W,1,10,1.4,22,M,,M,,*6A
06/02/2014	18:08:23.596	$GPGGA,180832,2442.7996,N,08033.2008,W,1,10,1.4,22,M,,M,,*67
06/02/2014	18:08:24.585	$GPGGA,180833,2442.8010,N,08033.2012,W,1,10,1.4,22,M,,M,,*65
06/02/2014	18:08:25.586	$GPGGA,180834,2442.8025,N,08033.2013,W,1,10,1.4,22,M,,M,,*65
06/02/2014	18:08:26.596	$GPGGA,180835,2442.8040,N,08033.2013,W,1,10,1.4,22,M,,M,,*67
06/02/2014	18:08:27.586	$GPGGA,180836,2442.8057,N,08033.2014,W,1,10,1.4,22,M,,M,,*65
06/02/2014	18:08:28.596	$GPGGA,180837,2442.8073,N,08033.2016,W,1,10,1.4,22,M,,M,,*60
06/02/2014	18:08:29.566	$GPGGA,180838,2442.8087,N,08033.2017,W,1,10,1.4,21,M,,M,,*66
06/02/2014	18:08:30.586	$GPGGA,180839,2442.8102,N,08033.2017,W,1,10,1.4,21,M,,M,,*6B
06/02/2014	18:08:31.579	$GPGGA,180840,2442.8119,N,08033.2019,W,1,10,1.4,21,M,,M,,*61
06/02/2014	18:08:32.576	$GPGGA,180841,2442.8134,N,08033.2021,W,1,10,1.4,21,M,,M,,*64
06/02/2014	18:08:33.556	$GPGGA,180842,2442.8151,N,08033.2023,W,1,10,1.4,21,M,,M,,*66
06/02/2014	18:08:34.566	$GPGGA,180843,2442.8167,N,08033.2022,W,1,10,1.4,21,M,,M,,*63
06/02/2014	18:08:35.576	$GPGGA,180844,2442.8181,N,08033.2025,W,1,10,1.4,21,M,,M,,*6B
06/02/2014	18:08:36.577	$GPGGA,180845,2442.8198,N,08033.2024,W,1,10,1.4,21,M,,M,,*63
06/02/2014	18:08:37.556	$GPGGA,180846,2442.8214,N,08033.2024,W,1,10,1.7,21,M,,M,,*64
06/02/2014	18:08:38.576	$GPGGA,180847,2442.8232,N,08033.2028,W,1,8,2.0,21,M,,M,,*50
06/02/2014	18:08:39.557	$GPGGA,180848,2442.8250,N,08033.2031,W,1,8,1.4,21,M,,M,,*54
06/02/2014	18:08:40.555	$GPGGA,180849,2442.8267,N,08033.2030,W,1,10,1.4,21,M,,M,,*69
06/02/2014	18:08:41.556	$GPGGA,180850,2442.8282,N,08033.2029,W,1,10,1.4,21,M,,M,,*62
06/02/2014	18:08:42.576	$GPGGA,180851,2442.8297,N,08033.2030,W,1,10,1.4,21,M,,M,,*6F
06/02/2014	18:08:43.545	$GPGGA,180852,2442.8314,N,08033.2031,W,1,10,1.4,21,M,,M,,*67
06/02/2014	18:08:44.565	$GPGGA,180853,2442.8329,N,08033.2031,W,1,10,1.4,21,M,,M,,*68
06/02/2014	18:08:45.525	$GPGGA,180854,2442.8347,N,08033.2029,W,1,10,1.4,21,M,,M,,*6E
06/02/2014	18:08:46.525	$GPGGA,180855,2442.8362,N,08033.2032,W,1,10,1.4,21,M,,M,,*62
06/02/2014	18:08:47.545	$GPGGA,180856,2442.8379,N,08033.2034,W,1,10,1.4,21,M,,M,,*6D
06/02/2014	18:08:48.545	$GPGGA,180857,2442.8396,N,08033.2032,W,1,9,1.7,21,M,,M,,*50
06/02/2014	18:08:49.515	$GPGGA,180858,2442.8411,N,08033.2032,W,1,9,1.4,21,M,,M,,*54
06/02/2014	18:08:50.525	$GPGGA,180859,2442.8427,N,08033.2035,W,1,10,1.4,21,M,,M,,*6F
06/02/2014	18:08:51.565	$GPGGA,180900,2442.8443,N,08033.2035,W,1,10,1.4,21,M,,M,,*60
06/02/2014	18:08:52.515	$GPGGA,180901,2442.8459,N,08033.2034,W,1,10,1.4,21,M,,M,,*6B
06/02/2014	18:08:53.516	$GPGGA,180902,2442.8477,N,08033.2037,W,1,10,1.4,21,M,,M,,*67
06/02/2014	18:08:54.505	$GPGGA,180903,2442.8492,N,08033.2038,W,1,10,1.4,21,M,,M,,*62
06/02/2014	18:08:55.535	$GPGGA,180904,2442.8509,N,08033.2039,W,1,10,1.4,21,M,,M,,*67
06/02/2014	18:08:56.525	$GPGGA,180905,2442.8524,N,08033.2039,W,1,9,1.7,21,M,,M,,*52
06/02/2014	18:08:57.504	$GPGGA,180906,2442.8539,N,08033.2041,W,1,9,1.4,21,M,,M,,*51
06/02/2014	18:09:00.114	$GPGGA,180908,2442.8571,N,08033.2042,W,1,8,1.4,21,M,,M,,*51
06/02/2014	18:09:00.514	$GPGGA,180909,2442.8586,N,08033.2043,W,1,10,1.4,21,M,,M,,*60
06/02/2014	18:09:01.514	$GPGGA,180910,2442.8600,N,08033.2045,W,1,10,1.7,21,M,,M,,*60
06/02/2014	18:09:02.604	$GPGGA,180911,2442.8617,N,08033.2043,W,1,10,1.4,21,M,,M,,*62
06/02/2014	18:09:03.514	$GPGGA,180912,2442.8632,N,08033.2045,W,1,10,1.4,21,M,,M,,*60
06/02/2014	18:09:04.514	$GPGGA,180913,2442.8646,N,08033.2046,W,1,10,1.4,21,M,,M,,*61
06/02/2014	18:09:05.594	$GPGGA,180914,2442.8661,N,08033.2045,W,1,10,1.4,21,M,,M,,*60
06/02/2014	18:09:06.504	$GPGGA,180915,2442.8678,N,08033.2046,W,1,10,1.4,21,M,,M,,*6A
06/02/2014	18:09:07.615	$GPGGA,180916,2442.8693,N,08033.2048,W,1,10,1.4,21,M,,M,,*62
06/02/2014	18:09:08.504	$GPGGA,180917,2442.8708,N,08033.2049,W,1,10,1.4,21,M,,M,,*61
06/02/2014	18:09:09.494	$GPGGA,180918,2442.8725,N,08033.2052,W,1,10,1.4,21,M,,M,,*6B
06/02/2014	18:09:10.494	$GPGGA,180919,2442.8740,N,08033.2053,W,1,10,1.4,21,M,,M,,*68
06/02/2014	18:09:11.594	$GPGGA,180920,2442.8755,N,08033.2055,W,1,10,1.4,21,M,,M,,*60
06/02/2014	18:09:12.582	$GPGGA,180921,2442.8770,N,08033.2054,W,1,10,1.4,21,M,,M,,*67
06/02/2014	18:09:13.584	$GPGGA,180922,2442.8787,N,08033.2057,W,1,10,1.4,21,M,,M,,*6F
06/02/2014	18:09:14.594	$GPGGA,180923,2442.8802,N,08033.2059,W,1,10,1.4,21,M,,M,,*62
06/02/2014	18:09:15.583	$GPGGA,180924,2442.8819,N,08033.2061,W,1,10,1.4,21,M,,M,,*64
06/02/2014	18:09:16.593	$GPGGA,180925,2442.8835,N,08033.2063,W,1,10,1.4,21,M,,M,,*69
06/02/2014	18:09:17.563	$GPGGA,180926,2442.8850,N,08033.2064,W,1,10,1.4,21,M,,M,,*6E
06/02/2014	18:09:18.583	$GPGGA,180927,2442.8864,N,08033.2067,W,1,10,1.4,21,M,,M,,*6B
06/02/2014	18:09:19.573	$GPGGA,180928,2442.8880,N,08033.2068,W,1,10,1.7,21,M,,M,,*62
06/02/2014	18:09:20.583	$GPGGA,180929,2442.8896,N,08033.2067,W,1,9,1.7,21,M,,M,,*53
06/02/2014	18:09:21.553	$GPGGA,180930,2442.8911,N,08033.2068,W,1,9,1.4,21,M,,M,,*59
06/02/2014	18:09:22.586	$GPGGA,180931,2442.8925,N,08033.2070,W,1,10,1.4,21,M,,M,,*6E
06/02/2014	18:09:23.563	$GPGGA,180932,2442.8940,N,08033.2074,W,1,10,1.4,21,M,,M,,*6A
06/02/2014	18:09:24.573	$GPGGA,180933,2442.8957,N,08033.2072,W,1,10,1.4,21,M,,M,,*6B
06/02/2014	18:09:25.543	$GPGGA,180934,2442.8972,N,08033.2074,W,1,10,1.4,21,M,,M,,*6D
06/02/2014	18:09:26.563	$GPGGA,180935,2442.8987,N,08033.2077,W,1,10,1.4,20,M,,M,,*64
06/02/2014	18:09:27.553	$GPGGA,180936,2442.9001,N,08033.2081,W,1,10,1.4,20,M,,M,,*68
06/02/2014	18:09:28.563	$GPGGA,180937,2442.9019,N,08033.2081,W,1,10,1.4,20,M,,M,,*60
06/02/2014	18:09:29.533	$GPGGA,180938,2442.9037,N,08033.2080,W,1,10,1.5,20,M,,M,,*63
06/02/2014	18:09:30.543	$GPGGA,180939,2442.9054,N,08033.2082,W,1,10,1.4,20,M,,M,,*64
06/02/2014	18:09:31.554	$GPGGA,180940,2442.9068,N,08033.2086,W,1,10,1.4,20,M,,M,,*61
06/02/2014	18:09:32.563	$GPGGA,180941,2442.9084,N,08033.2085,W,1,10,1.4,20,M,,M,,*61
06/02/2014	18:09:33.522	$GPGGA,180942,2442.9102,N,08033.2083,W,1,10,1.4,20,M,,M,,*6B
06/02/2014	18:09:34.562	$GPGGA,180943,2442.9116,N,08033.2085,W,1,10,1.4,20,M,,M,,*69
06/02/2014	18:09:35.532	$GPGGA,180944,2442.9131,N,08033.2088,W,1,10,1.4,20,M,,M,,*66
06/02/2014	18:09:36.552	$GPGGA,180945,2442.9149,N,08033.2088,W,1,10,1.4,20,M,,M,,*68
06/02/2014	18:09:37.522	$GPGGA,180946,2442.9163,N,08033.2088,W,1,10,1.4,20,M,,M,,*63
06/02/2014	18:09:38.542	$GPGGA,180947,2442.9178,N,08033.2090,W,1,10,1.4,20,M,,M,,*61
06/02/2014	18:09:39.532	$GPGGA,180948,2442.9195,N,08033.2090,W,1,10,1.4,20,M,,M,,*6D
06/02/2014	18:09:40.542	$GPGGA,180949,2442.9209,N,08033.2090,W,1,10,1.4,20,M,,M,,*6A
06/02/2014	18:09:41.512	$GPGGA,180950,2442.9221,N,08033.2090,W,1,10,1.7,20,M,,M,,*6B
06/02/2014	18:09:42.512	$GPGGA,180951,2442.9238,N,08033.2090,W,1,10,1.4,20,M,,M,,*61
06/02/2014	18:09:43.532	$GPGGA,180952,2442.9251,N,08033.2092,W,1,10,2.0,20,M,,M,,*68
06/02/2014	18:09:44.542	$GPGGA,180953,2442.9265,N,08033.2093,W,1,9,1.5,20,M,,M,,*51
06/02/2014	18:09:45.602	$GPGGA,180954,2442.9283,N,08033.2093,W,1,9,1.4,20,M,,M,,*5F
06/02/2014	18:09:46.622	$GPGGA,180955,2442.9299,N,08033.2092,W,1,10,1.4,20,M,,M,,*6C
06/02/2014	18:09:47.512	$GPGGA,180956,2442.9312,N,08033.2093,W,1,10,2.0,20,M,,M,,*6B
06/02/2014	18:09:48.492	$GPGGA,180957,2442.9330,N,08033.2099,W,1,10,1.4,20,M,,M,,*67
06/02/2014	18:09:49.492	$GPGGA,180958,2442.9348,N,08033.2098,W,1,10,1.4,20,M,,M,,*66
06/02/2014	18:09:50.501	$GPGGA,180959,2442.9362,N,08033.2097,W,1,10,1.4,20,M,,M,,*60
06/02/2014	18:09:51.521	$GPGGA,181000,2442.9379,N,08033.2100,W,1,10,1.4,20,M,,M,,*61
06/02/2014	18:09:52.491	$GPGGA,181001,2442.9394,N,08033.2103,W,1,10,1.4,20,M,,M,,*60
06/02/2014	18:09:53.581	$GPGGA,181002,2442.9409,N,08033.2103,W,1,10,1.4,20,M,,M,,*60
06/02/2014	18:09:54.581	$GPGGA,181003,2442.9424,N,08033.2104,W,1,10,1.4,20,M,,M,,*69
06/02/2014	18:09:55.601	$GPGGA,181004,2442.9441,N,08033.2106,W,1,10,1.4,20,M,,M,,*6F
06/02/2014	18:09:56.581	$GPGGA,181005,2442.9453,N,08033.2107,W,1,10,1.4,20,M,,M,,*6C
06/02/2014	18:09:57.581	$GPGGA,181006,2442.9467,N,08033.2108,W,1,10,1.4,20,M,,M,,*67
06/02/2014	18:09:58.481	$GPGGA,181007,2442.9485,N,08033.2107,W,1,9,1.7,20,M,,M,,*5E
06/02/2014	18:09:59.581	$GPGGA,181008,2442.9500,N,08033.2110,W,1,9,1.4,20,M,,M,,*58
06/02/2014	18:10:00.581	$GPGGA,181009,2442.9516,N,08033.2114,W,1,10,1.4,20,M,,M,,*62
06/02/2014	18:10:01.575	$GPGGA,181010,2442.9532,N,08033.2115,W,1,10,1.4,20,M,,M,,*6D
06/02/2014	18:10:02.601	$GPGGA,181011,2442.9547,N,08033.2117,W,1,10,1.4,20,M,,M,,*6C
06/02/2014	18:10:03.581	$GPGGA,181012,2442.9561,N,08033.2118,W,1,10,1.4,20,M,,M,,*64
06/02/2014	18:10:04.571	$GPGGA,181013,2442.9574,N,08033.2117,W,1,9,1.7,19,M,,M,,*5F
06/02/2014	18:10:05.572	$GPGGA,181014,2442.9589,N,08033.2118,W,1,9,1.4,19,M,,M,,*56
06/02/2014	18:10:06.581	$GPGGA,181015,2442.9604,N,08033.2121,W,1,10,1.4,20,M,,M,,*69
06/02/2014	18:10:07.580	$GPGGA,181016,2442.9619,N,08033.2121,W,1,10,1.4,20,M,,M,,*66
06/02/2014	18:10:08.561	$GPGGA,181017,2442.9636,N,08033.2122,W,1,10,1.4,20,M,,M,,*69
06/02/2014	18:10:09.560	$GPGGA,181018,2442.9650,N,08033.2124,W,1,10,1.4,20,M,,M,,*60
06/02/2014	18:10:10.550	$GPGGA,181019,2442.9662,N,08033.2126,W,1,10,1.4,20,M,,M,,*62
06/02/2014	18:10:11.570	$GPGGA,181020,2442.9677,N,08033.2128,W,1,10,1.4,20,M,,M,,*62
06/02/2014	18:10:12.540	$GPGGA,181021,2442.9695,N,08033.2126,W,1,10,1.4,20,M,,M,,*61
06/02/2014	18:10:13.540	$GPGGA,181022,2442.9711,N,08033.2128,W,1,10,1.4,20,M,,M,,*61
06/02/2014	18:10:14.580	$GPGGA,181023,2442.9726,N,08033.2129,W,1,10,1.4,20,M,,M,,*65
06/02/2014	18:10:15.560	$GPGGA,181024,2442.9741,N,08033.2131,W,1,10,1.4,20,M,,M,,*6A
06/02/2014	18:10:16.570	$GPGGA,181025,2442.9756,N,08033.2129,W,1,10,1.4,20,M,,M,,*64
06/02/2014	18:10:17.540	$GPGGA,181026,2442.9770,N,08033.2128,W,1,10,1.4,20,M,,M,,*62
06/02/2014	18:10:18.530	$GPGGA,181027,2442.9785,N,08033.2129,W,1,10,1.4,20,M,,M,,*68
06/02/2014	18:10:19.550	$GPGGA,181028,2442.9800,N,08033.2128,W,1,10,1.4,20,M,,M,,*64
06/02/2014	18:10:20.580	$GPGGA,181029,2442.9817,N,08033.2127,W,1,10,1.4,20,M,,M,,*6C
06/02/2014	18:10:21.520	$GPGGA,181030,2442.9832,N,08033.2131,W,1,10,1.4,20,M,,M,,*64
06/02/2014	18:10:22.550	$GPGGA,181031,2442.9847,N,08033.2132,W,1,10,1.4,20,M,,M,,*64
06/02/2014	18:10:23.550	$GPGGA,181032,2442.9863,N,08033.2128,W,1,10,1.7,20,M,,M,,*69
06/02/2014	18:10:24.560	$GPGGA,181033,2442.9878,N,08033.2128,W,1,10,1.4,20,M,,M,,*61
06/02/2014	18:10:25.519	$GPGGA,181034,2442.9893,N,08033.2132,W,1,10,1.5,20,M,,M,,*69
06/02/2014	18:10:26.549	$GPGGA,181035,2442.9911,N,08033.2133,W,1,10,1.4,20,M,,M,,*63
06/02/2014	18:10:27.529	$GPGGA,181036,2442.9930,N,08033.2133,W,1,10,1.4,20,M,,M,,*63
06/02/2014	18:10:28.549	$GPGGA,181037,2442.9946,N,08033.2135,W,1,10,1.4,20,M,,M,,*65
06/02/2014	18:10:29.509	$GPGGA,181038,2442.9961,N,08033.2139,W,1,10,1.4,20,M,,M,,*63
06/02/2014	18:10:30.509	$GPGGA,181039,2442.9977,N,08033.2140,W,1,10,1.4,20,M,,M,,*6B
06/02/2014	18:10:31.519	$GPGGA,181040,2442.9991,N,08033.2140,W,1,10,1.5,19,M,,M,,*66
06/02/2014	18:10:32.499	$GPGGA,181041,2443.0006,N,08033.2144,W,1,10,1.4,19,M,,M,,*6D
06/02/2014	18:10:33.509	$GPGGA,181042,2443.0023,N,08033.2146,W,1,10,1.4,19,M,,M,,*6B
06/02/2014	18:10:34.499	$GPGGA,181043,2443.0040,N,08033.2144,W,1,10,1.4,19,M,,M,,*6D
06/02/2014	18:10:35.519	$GPGGA,181044,2443.0056,N,08033.2144,W,1,10,1.4,19,M,,M,,*6D
06/02/2014	18:10:36.589	$GPGGA,181045,2443.0069,N,08033.2147,W,1,10,1.4,19,M,,M,,*63
06/02/2014	18:10:37.499	$GPGGA,181046,2443.0084,N,08033.2149,W,1,10,1.4,19,M,,M,,*6D
06/02/2014	18:10:38.619	$GPGGA,181047,2443.0096,N,08033.2145,W,1,9,1.7,19,M,,M,,*58
06/02/2014	18:10:39.619	$GPGGA,181048,2443.0110,N,08033.2146,W,1,9,1.4,19,M,,M,,*58
06/02/2014	18:10:40.509	$GPGGA,181049,2443.0125,N,08033.2146,W,1,10,1.4,19,M,,M,,*67
06/02/2014	18:10:41.499	$GPGGA,181050,2443.0141,N,08033.2150,W,1,10,1.4,20,M,,M,,*60
06/02/2014	18:10:42.498	$GPGGA,181051,2443.0156,N,08033.2151,W,1,9,1.7,20,M,,M,,*5D
06/02/2014	18:10:43.618	$GPGGA,181052,2443.0172,N,08033.2153,W,1,9,1.4,20,M,,M,,*59
06/02/2014	18:10:44.598	$GPGGA,181053,2443.0186,N,08033.2152,W,1,9,1.7,20,M,,M,,*51
06/02/2014	18:10:45.578	$GPGGA,181054,2443.0200,N,08033.2151,W,1,9,1.7,20,M,,M,,*58
06/02/2014	18:10:46.478	$GPGGA,181055,2443.0215,N,08033.2157,W,1,10,1.4,20,M,,M,,*60
06/02/2014	18:10:47.588	$GPGGA,181056,2443.0232,N,08033.2160,W,1,10,1.7,20,M,,M,,*61
06/02/2014	18:10:48.578	$GPGGA,181057,2443.0250,N,08033.2161,W,1,10,1.4,20,M,,M,,*66
06/02/2014	18:10:49.568	$GPGGA,181058,2443.0266,N,08033.2164,W,1,10,1.4,20,M,,M,,*69
06/02/2014	18:10:50.568	$GPGGA,181059,2443.0280,N,08033.2167,W,1,10,1.4,20,M,,M,,*63
06/02/2014	18:10:51.588	$GPGGA,181100,2443.0295,N,08033.2168,W,1,10,1.4,20,M,,M,,*65
06/02/2014	18:10:52.578	$GPGGA,181101,2443.0311,N,08033.2167,W,1,10,1.4,20,M,,M,,*66
06/02/2014	18:10:53.568	$GPGGA,181102,2443.0324,N,08033.2171,W,1,10,1.4,20,M,,M,,*64
06/02/2014	18:10:54.578	$GPGGA,181103,2443.0340,N,08033.2172,W,1,10,1.4,20,M,,M,,*64
06/02/2014	18:10:55.568	$GPGGA,181104,2443.0356,N,08033.2171,W,1,10,1.4,20,M,,M,,*67
06/02/2014	18:10:56.548	$GPGGA,181105,2443.0372,N,08033.2171,W,1,9,1.7,20,M,,M,,*5B
06/02/2014	18:10:57.559	$GPGGA,181106,2443.0385,N,08033.2175,W,1,9,1.4,20,M,,M,,*57
06/02/2014	18:10:58.558	$GPGGA,181107,2443.0399,N,08033.2180,W,1,10,1.4,20,M,,M,,*69
06/02/2014	18:10:59.568	$GPGGA,181108,2443.0416,N,08033.2182,W,1,10,1.7,20,M,,M,,*67
06/02/2014	18:11:00.574	$GPGGA,181109,2443.0431,N,08033.2177,W,1,9,1.7,20,M,,M,,*51
06/02/2014	18:11:01.537	$GPGGA,181110,2443.0443,N,08033.2180,W,1,9,1.4,20,M,,M,,*57
06/02/2014	18:11:02.557	$GPGGA,181111,2443.0457,N,08033.2186,W,1,10,1.4,20,M,,M,,*6D
06/02/2014	18:11:03.557	$GPGGA,181112,2443.0471,N,08033.2187,W,1,10,1.4,20,M,,M,,*6B
06/02/2014	18:11:04.537	$GPGGA,181113,2443.0488,N,08033.2184,W,1,9,1.7,20,M,,M,,*54
06/02/2014	18:11:05.537	$GPGGA,181114,2443.0503,N,08033.2186,W,1,9,1.5,20,M,,M,,*51
06/02/2014	18:11:06.567	$GPGGA,181115,2443.0517,N,08033.2187,W,1,10,1.4,20,M,,M,,*6D
06/02/2014	18:11:07.547	$GPGGA,181116,2443.0532,N,08033.2187,W,1,10,1.4,20,M,,M,,*69
06/02/2014	18:11:08.567	$GPGGA,181117,2443.0547,N,08033.2187,W,1,10,1.4,20,M,,M,,*6A
06/02/2014	18:11:09.527	$GPGGA,181118,2443.0562,N,08033.2189,W,1,10,1.4,20,M,,M,,*6C
06/02/2014	18:11:10.537	$GPGGA,181119,2443.0576,N,08033.2190,W,1,10,1.4,20,M,,M,,*60
06/02/2014	18:11:11.547	$GPGGA,181120,2443.0593,N,08033.2191,W,1,10,1.4,20,M,,M,,*60
06/02/2014	18:11:12.527	$GPGGA,181121,2443.0608,N,08033.2193,W,1,10,1.4,20,M,,M,,*62
06/02/2014	18:11:13.537	$GPGGA,181122,2443.0620,N,08033.2193,W,1,10,1.4,20,M,,M,,*6B
06/02/2014	18:11:14.557	$GPGGA,181123,2443.0636,N,08033.2193,W,1,10,1.4,20,M,,M,,*6D
06/02/2014	18:11:15.527	$GPGGA,181124,2443.0651,N,08033.2194,W,1,10,1.4,20,M,,M,,*6C
06/02/2014	18:11:16.547	$GPGGA,181125,2443.0666,N,08033.2194,W,1,10,1.4,20,M,,M,,*69
06/02/2014	18:11:17.506	$GPGGA,181126,2443.0681,N,08033.2193,W,1,10,1.4,20,M,,M,,*64
06/02/2014	18:11:18.606	$GPGGA,181127,2443.0695,N,08033.2196,W,1,10,1.4,20,M,,M,,*65
06/02/2014	18:11:19.516	$GPGGA,181128,2443.0710,N,08033.2195,W,1,10,1.4,20,M,,M,,*65
06/02/2014	18:11:20.496	$GPGGA,181129,2443.0724,N,08033.2194,W,1,9,1.7,20,M,,M,,*59
06/02/2014	18:11:21.506	$GPGGA,181130,2443.0739,N,08033.2194,W,1,9,1.4,20,M,,M,,*5E
06/02/2014	18:11:22.626	$GPGGA,181131,2443.0755,N,08033.2194,W,1,10,1.4,20,M,,M,,*6D
06/02/2014	18:11:23.626	$GPGGA,181132,2443.0771,N,08033.2193,W,1,10,1.4,20,M,,M,,*6F
06/02/2014	18:11:24.516	$GPGGA,181133,2443.0786,N,08033.2193,W,1,10,1.4,20,M,,M,,*66
06/02/2014	18:11:25.486	$GPGGA,181134,2443.0800,N,08033.2197,W,1,10,1.4,20,M,,M,,*64
06/02/2014	18:11:26.486	$GPGGA,181135,2443.0815,N,08033.2197,W,1,10,1.4,20,M,,M,,*61
06/02/2014	18:11:27.617	$GPGGA,181136,2443.0832,N,08033.2193,W,1,10,1.4,20,M,,M,,*63
06/02/2014	18:11:28.636	$GPGGA,181137,2443.0844,N,08033.2192,W,1,10,1.4,20,M,,M,,*62
06/02/2014	18:11:29.506	$GPGGA,181138,2443.0858,N,08033.2200,W,1,10,1.4,20,M,,M,,*68
06/02/2014	18:11:30.596	$GPGGA,181139,2443.0873,N,08033.2200,W,1,9,1.4,20,M,,M,,*58
06/02/2014	18:11:31.596	$GPGGA,181140,2443.0891,N,08033.2196,W,1,9,1.4,20,M,,M,,*56
06/02/2014	18:11:32.616	$GPGGA,181141,2443.0905,N,08033.2197,W,1,10,1.4,20,M,,M,,*62
06/02/2014	18:11:33.486	$GPGGA,181142,2443.0918,N,08033.2201,W,1,10,1.4,20,M,,M,,*61
06/02/2014	18:11:34.615	$GPGGA,181143,2443.0933,N,08033.2201,W,1,10,1.4,20,M,,M,,*69
06/02/2014	18:11:35.585	$GPGGA,181144,2443.0948,N,08033.2199,W,1,10,1.4,20,M,,M,,*60
06/02/2014	18:11:36.595	$GPGGA,181145,2443.0963,N,08033.2200,W,1,10,1.4,20,M,,M,,*6B
06/02/2014	18:11:37.566	$GPGGA,181146,2443.0977,N,08033.2202,W,1,10,1.4,20,M,,M,,*6F
06/02/2014	18:11:38.595	$GPGGA,181147,2443.0992,N,08033.2202,W,1,10,1.4,20,M,,M,,*65
06/02/2014	18:11:39.575	$GPGGA,181148,2443.1008,N,08033.2202,W,1,10,1.4,20,M,,M,,*61
06/02/2014	18:11:40.585	$GPGGA,181149,2443.1023,N,08033.2204,W,1,10,1.4,20,M,,M,,*6F
06/02/2014	18:11:41.565	$GPGGA,181150,2443.1038,N,08033.2204,W,1,10,1.4,20,M,,M,,*6D
06/02/2014	18:11:42.575	$GPGGA,181151,2443.1053,N,08033.2204,W,1,10,1.4,20,M,,M,,*61
