Software Version Number: 1	Data File Format Number: 1	Build Version Number: 1	Error Count Since VI Started: 0	Manufacturer: Raytheon	 Model Number: RayMarine 120	 S/N: 	 Cal Date: 	 Wind Direction Offset: 0.00	 Slope (M)1: 0.00	 Offset (B)1: 0.00	 Slope (M)2: 0.00	 Offset (B)2: 0.00	 Slope (M)3: 0.00	 Offset (B)3: 0.00	 Slope (M)4: 0.00	 Offset (B)4: 0.00	 Slope (M)5: 0.00	 Offset (B)5: 0.00	 Slope (M)6: 0.00	 Offset (B)6: 0.00
Computer Date	Computer Time	GGA String
05/30/2014	19:41:19.847	$GPGGA,194128,2516.8788,N,07934.8266,W,1,11,1.5,19,M,,M,,*67
05/30/2014	19:41:20.887	$GPGGA,194129,2516.8788,N,07934.8266,W,1,11,1.5,19,M,,M,,*66
05/30/2014	19:41:21.837	$GPGGA,194130,2516.8795,N,07934.8284,W,1,11,1.5,19,M,,M,,*6E
05/30/2014	19:41:22.978	$GPGGA,194131,2516.8799,N,07934.8295,W,1,11,1.5,19,M,,M,,*63
05/30/2014	19:41:23.893	$GPGGA,194132,2516.8803,N,07934.8303,W,1,11,1.5,19,M,,M,,*62
05/30/2014	19:41:24.848	$GPGGA,194133,2516.8809,N,07934.8313,W,1,11,1.5,19,M,,M,,*68
05/30/2014	19:41:25.850	$GPGGA,194134,2516.8812,N,07934.8322,W,1,11,1.5,19,M,,M,,*67
05/30/2014	19:41:26.858	$GPGGA,194135,2516.8816,N,07934.8331,W,1,11,1.5,19,M,,M,,*60
05/30/2014	19:41:27.828	$GPGGA,194136,2516.8820,N,07934.8340,W,1,11,1.5,19,M,,M,,*60
05/30/2014	19:41:28.838	$GPGGA,194137,2516.8824,N,07934.8349,W,1,11,1.5,19,M,,M,,*6C
05/30/2014	19:41:29.809	$GPGGA,194138,2516.8828,N,07934.8358,W,1,11,1.5,19,M,,M,,*6F
05/30/2014	19:41:30.808	$GPGGA,194139,2516.8831,N,07934.8367,W,1,11,1.5,19,M,,M,,*6A
05/30/2014	19:41:31.828	$GPGGA,194140,2516.8835,N,07934.8378,W,1,11,1.5,19,M,,M,,*6E
05/30/2014	19:41:32.856	$GPGGA,194141,2516.8839,N,07934.8386,W,1,11,1.5,19,M,,M,,*62
05/30/2014	19:41:33.808	$GPGGA,194142,2516.8842,N,07934.8396,W,1,11,1.5,19,M,,M,,*6C
05/30/2014	19:41:35.067	$GPGGA,194143,2516.8848,N,07934.8404,W,1,11,1.5,19,M,,M,,*6B
05/30/2014	19:41:35.827	$GPGGA,194144,2516.8852,N,07934.8414,W,1,11,1.5,19,M,,M,,*66
05/30/2014	19:41:36.917	$GPGGA,194145,2516.8855,N,07934.8422,W,1,11,1.5,19,M,,M,,*65
05/30/2014	19:41:37.797	$GPGGA,194146,2516.8859,N,07934.8432,W,1,11,1.5,19,M,,M,,*6B
05/30/2014	19:41:38.917	$GPGGA,194147,2516.8864,N,07934.8441,W,1,11,1.5,19,M,,M,,*60
05/30/2014	19:41:39.808	$GPGGA,194148,2516.8867,N,07934.8450,W,1,11,1.5,19,M,,M,,*6C
05/30/2014	19:41:40.808	$GPGGA,194149,2516.8871,N,07934.8459,W,1,11,1.5,18,M,,M,,*62
05/30/2014	19:41:41.802	$GPGGA,194150,2516.8875,N,07934.8468,W,1,11,1.5,18,M,,M,,*6C
05/30/2014	19:41:42.808	$GPGGA,194151,2516.8880,N,07934.8479,W,1,11,1.5,18,M,,M,,*67
05/30/2014	19:41:43.808	$GPGGA,194152,2516.8884,N,07934.8487,W,1,11,1.5,18,M,,M,,*61
05/30/2014	19:41:44.798	$GPGGA,194153,2516.8888,N,07934.8497,W,1,11,1.5,18,M,,M,,*6D
05/30/2014	19:41:45.911	$GPGGA,194154,2516.8891,N,07934.8505,W,1,11,1.5,18,M,,M,,*68
05/30/2014	19:41:46.789	$GPGGA,194155,2516.8896,N,07934.8515,W,1,11,1.5,18,M,,M,,*6F
05/30/2014	19:41:47.908	$GPGGA,194156,2516.8900,N,07934.8524,W,1,11,1.5,18,M,,M,,*60
05/30/2014	19:41:49.128	$GPGGA,194157,2516.8904,N,07934.8533,W,1,11,1.5,18,M,,M,,*63
05/30/2014	19:41:49.879	$GPGGA,194158,2516.8907,N,07934.8541,W,1,11,1.5,18,M,,M,,*6A
05/30/2014	19:41:50.898	$GPGGA,194159,2516.8913,N,07934.8551,W,1,11,1.5,18,M,,M,,*6F
05/30/2014	19:41:51.798	$GPGGA,194200,2516.8917,N,07934.8559,W,1,11,1.5,18,M,,M,,*6C
05/30/2014	19:41:52.767	$GPGGA,194201,2516.8920,N,07934.8569,W,1,11,1.5,18,M,,M,,*6A
05/30/2014	19:41:53.857	$GPGGA,194202,2516.8925,N,07934.8578,W,1,11,1.5,18,M,,M,,*6C
05/30/2014	19:41:54.877	$GPGGA,194203,2516.8929,N,07934.8587,W,1,11,1.5,18,M,,M,,*61
05/30/2014	19:41:55.777	$GPGGA,194204,2516.8932,N,07934.8598,W,1,11,1.5,18,M,,M,,*62
05/30/2014	19:41:56.867	$GPGGA,194205,2516.8938,N,07934.8606,W,1,11,1.5,18,M,,M,,*6D
05/30/2014	19:41:57.868	$GPGGA,194206,2516.8942,N,07934.8616,W,1,11,1.5,18,M,,M,,*62
05/30/2014	19:41:58.858	$GPGGA,194207,2516.8945,N,07934.8624,W,1,11,1.5,18,M,,M,,*65
05/30/2014	19:41:59.878	$GPGGA,194208,2516.8950,N,07934.8634,W,1,11,1.5,18,M,,M,,*6F
05/30/2014	19:42:00.878	$GPGGA,194209,2516.8956,N,07934.8643,W,1,10,1.7,18,M,,M,,*6B
05/30/2014	19:42:01.848	$GPGGA,194210,2516.8960,N,07934.8653,W,1,10,1.5,18,M,,M,,*65
05/30/2014	19:42:02.858	$GPGGA,194211,2516.8965,N,07934.8663,W,1,11,1.5,18,M,,M,,*63
05/30/2014	19:42:03.858	$GPGGA,194212,2516.8971,N,07934.8672,W,1,11,1.5,18,M,,M,,*65
05/30/2014	19:42:04.858	$GPGGA,194213,2516.8975,N,07934.8682,W,1,11,1.5,18,M,,M,,*6F
05/30/2014	19:42:05.848	$GPGGA,194214,2516.8979,N,07934.8692,W,1,11,1.5,18,M,,M,,*65
05/30/2014	19:42:06.868	$GPGGA,194215,2516.8983,N,07934.8700,W,1,11,1.5,18,M,,M,,*6B
05/30/2014	19:42:07.858	$GPGGA,194216,2516.8990,N,07934.8710,W,1,11,1.5,18,M,,M,,*6B
05/30/2014	19:42:08.828	$GPGGA,194217,2516.8993,N,07934.8719,W,1,11,1.5,18,M,,M,,*60
05/30/2014	19:42:09.827	$GPGGA,194218,2516.8997,N,07934.8728,W,1,11,1.5,18,M,,M,,*69
05/30/2014	19:42:10.827	$GPGGA,194219,2516.9001,N,07934.8737,W,1,11,1.5,18,M,,M,,*61
05/30/2014	19:42:11.847	$GPGGA,194220,2516.9007,N,07934.8746,W,1,11,1.5,19,M,,M,,*6A
05/30/2014	19:42:12.857	$GPGGA,194221,2516.9010,N,07934.8755,W,1,11,1.5,19,M,,M,,*6F
05/30/2014	19:42:13.827	$GPGGA,194222,2516.9014,N,07934.8764,W,1,11,1.5,19,M,,M,,*6A
05/30/2014	19:42:14.828	$GPGGA,194223,2516.9019,N,07934.8775,W,1,11,1.5,19,M,,M,,*66
05/30/2014	19:42:15.838	$GPGGA,194224,2516.9023,N,07934.8783,W,1,11,1.5,19,M,,M,,*61
05/30/2014	19:42:16.818	$GPGGA,194225,2516.9026,N,07934.8791,W,1,11,1.5,19,M,,M,,*66
05/30/2014	19:42:17.818	$GPGGA,194226,2516.9030,N,07934.8801,W,1,11,1.5,19,M,,M,,*64
05/30/2014	19:42:18.819	$GPGGA,194227,2516.9034,N,07934.8811,W,1,11,1.5,19,M,,M,,*60
05/30/2014	19:42:19.818	$GPGGA,194228,2516.9037,N,07934.8819,W,1,11,1.5,19,M,,M,,*64
05/30/2014	19:42:20.848	$GPGGA,194229,2516.9041,N,07934.8827,W,1,11,1.5,19,M,,M,,*69
05/30/2014	19:42:21.818	$GPGGA,194230,2516.9047,N,07934.8837,W,1,11,1.5,19,M,,M,,*66
05/30/2014	19:42:22.818	$GPGGA,194231,2516.9051,N,07934.8845,W,1,11,1.5,19,M,,M,,*65
05/30/2014	19:42:23.818	$GPGGA,194232,2516.9055,N,07934.8855,W,1,11,1.5,19,M,,M,,*63
05/30/2014	19:42:24.828	$GPGGA,194233,2516.9059,N,07934.8863,W,1,11,1.5,19,M,,M,,*6B
05/30/2014	19:42:25.808	$GPGGA,194234,2516.9062,N,07934.8873,W,1,11,1.5,19,M,,M,,*65
05/30/2014	19:42:26.788	$GPGGA,194235,2516.9065,N,07934.8880,W,1,10,1.6,19,M,,M,,*6D
05/30/2014	19:42:27.927	$GPGGA,194236,2516.9069,N,07934.8888,W,1,10,1.5,19,M,,M,,*69
05/30/2014	19:42:28.807	$GPGGA,194237,2516.9072,N,07934.8896,W,1,11,1.5,19,M,,M,,*6C
05/30/2014	19:42:29.797	$GPGGA,194238,2516.9074,N,07934.8905,W,1,11,1.5,19,M,,M,,*6E
05/30/2014	19:42:30.787	$GPGGA,194239,2516.9079,N,07934.8913,W,1,11,1.5,19,M,,M,,*65
05/30/2014	19:42:31.807	$GPGGA,194240,2516.9083,N,07934.8923,W,1,11,1.5,19,M,,M,,*6D
05/30/2014	19:42:32.798	$GPGGA,194241,2516.9086,N,07934.8931,W,1,11,1.5,20,M,,M,,*60
05/30/2014	19:42:33.868	$GPGGA,194242,2516.9088,N,07934.8939,W,1,11,1.5,20,M,,M,,*65
05/30/2014	19:42:34.788	$GPGGA,194243,2516.9092,N,07934.8949,W,1,11,1.5,20,M,,M,,*68
05/30/2014	19:42:35.808	$GPGGA,194244,2516.9098,N,07934.8957,W,1,11,1.5,20,M,,M,,*6A
05/30/2014	19:42:36.898	$GPGGA,194245,2516.9101,N,07934.8965,W,1,11,1.5,20,M,,M,,*6B
05/30/2014	19:42:37.768	$GPGGA,194246,2516.9104,N,07934.8974,W,1,11,1.5,20,M,,M,,*6D
05/30/2014	19:42:38.868	$GPGGA,194247,2516.9109,N,07934.8983,W,1,11,1.5,20,M,,M,,*69
05/30/2014	19:42:39.768	$GPGGA,194248,2516.9113,N,07934.8993,W,1,11,1.5,20,M,,M,,*6C
05/30/2014	19:42:40.778	$GPGGA,194249,2516.9116,N,07934.9001,W,1,11,1.5,20,M,,M,,*6B
05/30/2014	19:42:41.868	$GPGGA,194250,2516.9119,N,07934.9011,W,1,11,1.5,20,M,,M,,*6D
05/30/2014	19:42:42.858	$GPGGA,194251,2516.9124,N,07934.9019,W,1,11,1.5,20,M,,M,,*6A
05/30/2014	19:42:43.781	$GPGGA,194252,2516.9128,N,07934.9028,W,1,11,1.5,20,M,,M,,*67
05/30/2014	19:42:44.867	$GPGGA,194253,2516.9131,N,07934.9039,W,1,11,1.5,20,M,,M,,*6E
05/30/2014	19:42:45.857	$GPGGA,194254,2516.9134,N,07934.9047,W,1,11,1.5,20,M,,M,,*65
05/30/2014	19:42:46.867	$GPGGA,194255,2516.9138,N,07934.9057,W,1,11,1.5,20,M,,M,,*69
05/30/2014	19:42:47.867	$GPGGA,194256,2516.9142,N,07934.9065,W,1,11,1.5,20,M,,M,,*66
05/30/2014	19:42:48.867	$GPGGA,194257,2516.9146,N,07934.9075,W,1,11,1.5,20,M,,M,,*62
05/30/2014	19:42:49.848	$GPGGA,194258,2516.9149,N,07934.9082,W,1,11,1.5,20,M,,M,,*6A
05/30/2014	19:42:50.858	$GPGGA,194259,2516.9152,N,07934.9091,W,1,11,1.5,20,M,,M,,*63
05/30/2014	19:42:51.868	$GPGGA,194300,2516.9156,N,07934.9100,W,1,11,1.5,20,M,,M,,*63
05/30/2014	19:42:52.858	$GPGGA,194301,2516.9160,N,07934.9111,W,1,11,1.5,20,M,,M,,*67
05/30/2014	19:42:53.828	$GPGGA,194302,2516.9163,N,07934.9119,W,1,11,1.5,20,M,,M,,*6F
05/30/2014	19:42:54.858	$GPGGA,194303,2516.9166,N,07934.9129,W,1,11,1.5,20,M,,M,,*68
05/30/2014	19:42:55.848	$GPGGA,194304,2516.9170,N,07934.9137,W,1,11,1.5,20,M,,M,,*67
05/30/2014	19:42:56.848	$GPGGA,194305,2516.9174,N,07934.9145,W,1,11,1.5,20,M,,M,,*67
05/30/2014	19:42:57.828	$GPGGA,194306,2516.9177,N,07934.9155,W,1,11,1.5,20,M,,M,,*66
05/30/2014	19:42:58.858	$GPGGA,194307,2516.9180,N,07934.9163,W,1,11,1.5,20,M,,M,,*6A
05/30/2014	19:42:59.838	$GPGGA,194308,2516.9185,N,07934.9173,W,1,11,1.5,20,M,,M,,*61
05/30/2014	19:43:00.848	$GPGGA,194309,2516.9189,N,07934.9181,W,1,11,1.5,20,M,,M,,*61
05/30/2014	19:43:01.828	$GPGGA,194310,2516.9191,N,07934.9191,W,1,11,1.5,20,M,,M,,*61
05/30/2014	19:43:02.837	$GPGGA,194311,2516.9195,N,07934.9201,W,1,10,1.7,20,M,,M,,*6D
05/30/2014	19:43:03.837	$GPGGA,194312,2516.9199,N,07934.9209,W,1,10,1.7,20,M,,M,,*6A
05/30/2014	19:43:04.857	$GPGGA,194313,2516.9203,N,07934.9220,W,1,11,1.5,20,M,,M,,*63
05/30/2014	19:43:05.817	$GPGGA,194314,2516.9204,N,07934.9228,W,1,11,1.5,20,M,,M,,*6B
05/30/2014	19:43:06.837	$GPGGA,194315,2516.9207,N,07934.9238,W,1,11,1.5,20,M,,M,,*68
05/30/2014	19:43:07.828	$GPGGA,194316,2516.9213,N,07934.9246,W,1,11,1.5,20,M,,M,,*67
05/30/2014	19:43:08.848	$GPGGA,194317,2516.9216,N,07934.9256,W,1,11,1.5,20,M,,M,,*62
05/30/2014	19:43:09.808	$GPGGA,194318,2516.9218,N,07934.9263,W,1,11,1.5,19,M,,M,,*6F
05/30/2014	19:43:10.808	$GPGGA,194319,2516.9221,N,07934.9272,W,1,11,1.5,19,M,,M,,*64
05/30/2014	19:43:11.818	$GPGGA,194320,2516.9225,N,07934.9281,W,1,11,1.5,19,M,,M,,*66
05/30/2014	19:43:12.798	$GPGGA,194321,2516.9228,N,07934.9288,W,1,11,1.5,19,M,,M,,*63
05/30/2014	19:43:13.798	$GPGGA,194322,2516.9231,N,07934.9297,W,1,11,1.5,19,M,,M,,*66
05/30/2014	19:43:14.908	$GPGGA,194323,2516.9235,N,07934.9306,W,1,11,1.5,19,M,,M,,*6A
05/30/2014	19:43:15.928	$GPGGA,194324,2516.9238,N,07934.9314,W,1,11,1.5,19,M,,M,,*63
05/30/2014	19:43:16.828	$GPGGA,194325,2516.9240,N,07934.9322,W,1,11,1.5,19,M,,M,,*68
05/30/2014	19:43:17.788	$GPGGA,194326,2516.9243,N,07934.9332,W,1,11,1.5,19,M,,M,,*69
05/30/2014	19:43:18.778	$GPGGA,194327,2516.9247,N,07934.9340,W,1,11,1.5,19,M,,M,,*69
05/30/2014	19:43:19.897	$GPGGA,194328,2516.9250,N,07934.9348,W,1,11,1.5,19,M,,M,,*68
05/30/2014	19:43:20.807	$GPGGA,194329,2516.9254,N,07934.9357,W,1,11,1.5,19,M,,M,,*63
05/30/2014	19:43:21.867	$GPGGA,194330,2516.9257,N,07934.9364,W,1,11,1.5,19,M,,M,,*68
05/30/2014	19:43:22.767	$GPGGA,194331,2516.9260,N,07934.9372,W,1,11,1.5,19,M,,M,,*6A
05/30/2014	19:43:23.887	$GPGGA,194332,2516.9263,N,07934.9382,W,1,11,1.5,19,M,,M,,*65
05/30/2014	19:43:24.878	$GPGGA,194333,2516.9265,N,07934.9389,W,1,11,1.5,19,M,,M,,*69
05/30/2014	19:43:25.768	$GPGGA,194334,2516.9268,N,07934.9398,W,1,11,1.5,19,M,,M,,*63
05/30/2014	19:43:26.878	$GPGGA,194335,2516.9272,N,07934.9408,W,1,11,1.5,19,M,,M,,*67
05/30/2014	19:43:27.868	$GPGGA,194336,2516.9275,N,07934.9415,W,1,11,1.5,19,M,,M,,*6F
05/30/2014	19:43:28.768	$GPGGA,194337,2516.9276,N,07934.9425,W,1,11,1.5,19,M,,M,,*6E
05/30/2014	19:43:29.858	$GPGGA,194338,2516.9282,N,07934.9433,W,1,11,1.5,19,M,,M,,*6D
05/30/2014	19:43:30.879	$GPGGA,194339,2516.9285,N,07934.9441,W,1,11,1.5,19,M,,M,,*6E
05/30/2014	19:43:31.878	$GPGGA,194340,2516.9286,N,07934.9451,W,1,11,1.5,19,M,,M,,*62
05/30/2014	19:43:32.868	$GPGGA,194341,2516.9290,N,07934.9458,W,1,11,1.5,19,M,,M,,*6D
05/30/2014	19:43:33.858	$GPGGA,194342,2516.9294,N,07934.9467,W,1,11,1.5,19,M,,M,,*66
05/30/2014	19:43:34.858	$GPGGA,194343,2516.9297,N,07934.9476,W,1,11,1.5,19,M,,M,,*64
05/30/2014	19:43:35.868	$GPGGA,194344,2516.9300,N,07934.9484,W,1,11,1.5,19,M,,M,,*61
05/30/2014	19:43:36.837	$GPGGA,194345,2516.9303,N,07934.9494,W,1,11,1.5,19,M,,M,,*62
05/30/2014	19:43:37.837	$GPGGA,194346,2516.9308,N,07934.9502,W,1,11,1.5,19,M,,M,,*64
05/30/2014	19:43:38.867	$GPGGA,194347,2516.9310,N,07934.9510,W,1,11,1.5,19,M,,M,,*6F
05/30/2014	19:43:39.847	$GPGGA,194348,2516.9312,N,07934.9520,W,1,11,1.5,19,M,,M,,*61
05/30/2014	19:43:40.867	$GPGGA,194349,2516.9316,N,07934.9528,W,1,11,1.5,19,M,,M,,*6C
05/30/2014	19:43:41.837	$GPGGA,194350,2516.9321,N,07934.9538,W,1,11,1.5,19,M,,M,,*61
05/30/2014	19:43:42.828	$GPGGA,194351,2516.9323,N,07934.9545,W,1,11,1.5,19,M,,M,,*68
05/30/2014	19:43:43.838	$GPGGA,194352,2516.9326,N,07934.9553,W,1,11,1.5,19,M,,M,,*69
05/30/2014	19:43:44.818	$GPGGA,194353,2516.9330,N,07934.9563,W,1,11,1.5,19,M,,M,,*6C
05/30/2014	19:43:45.828	$GPGGA,194354,2516.9333,N,07934.9570,W,1,11,1.5,19,M,,M,,*6A
05/30/2014	19:43:46.818	$GPGGA,194355,2516.9336,N,07934.9579,W,1,11,1.5,19,M,,M,,*67
05/30/2014	19:43:47.838	$GPGGA,194356,2516.9339,N,07934.9588,W,1,11,1.5,19,M,,M,,*65
05/30/2014	19:43:48.818	$GPGGA,194357,2516.9343,N,07934.9596,W,1,11,1.5,19,M,,M,,*66
05/30/2014	19:43:49.818	$GPGGA,194358,2516.9344,N,07934.9606,W,1,11,1.5,19,M,,M,,*64
05/30/2014	19:43:50.838	$GPGGA,194359,2516.9348,N,07934.9613,W,1,11,1.5,19,M,,M,,*6D
05/30/2014	19:43:51.868	$GPGGA,194400,2516.9352,N,07934.9622,W,1,11,1.5,19,M,,M,,*6F
05/30/2014	19:43:52.848	$GPGGA,194401,2516.9355,N,07934.9632,W,1,11,1.5,19,M,,M,,*68
05/30/2014	19:43:53.808	$GPGGA,194402,2516.9358,N,07934.9639,W,1,11,1.5,19,M,,M,,*6D
05/30/2014	19:43:54.927	$GPGGA,194403,2516.9362,N,07934.9649,W,1,11,1.5,19,M,,M,,*62
05/30/2014	19:43:55.817	$GPGGA,194404,2516.9366,N,07934.9657,W,1,11,1.5,19,M,,M,,*6E
05/30/2014	19:43:56.847	$GPGGA,194405,2516.9369,N,07934.9667,W,1,11,1.5,19,M,,M,,*63
05/30/2014	19:43:57.917	$GPGGA,194406,2516.9372,N,07934.9675,W,1,11,1.5,19,M,,M,,*69
05/30/2014	19:43:58.787	$GPGGA,194407,2516.9376,N,07934.9684,W,1,11,1.5,19,M,,M,,*62
05/30/2014	19:44:01.108	$GPGGA,194409,2516.9381,N,07934.9702,W,1,11,1.5,19,M,,M,,*6B
05/30/2014	19:44:01.818	$GPGGA,194410,2516.9386,N,07934.9711,W,1,11,1.5,19,M,,M,,*66
05/30/2014	19:44:02.838	$GPGGA,194411,2516.9388,N,07934.9720,W,1,11,1.5,19,M,,M,,*6B
05/30/2014	19:44:03.798	$GPGGA,194412,2516.9393,N,07934.9730,W,1,11,1.5,19,M,,M,,*63
05/30/2014	19:44:04.888	$GPGGA,194413,2516.9395,N,07934.9740,W,1,11,1.5,19,M,,M,,*63
05/30/2014	19:44:05.778	$GPGGA,194414,2516.9398,N,07934.9749,W,1,11,1.5,19,M,,M,,*60
05/30/2014	19:44:06.788	$GPGGA,194415,2516.9402,N,07934.9759,W,1,11,1.5,19,M,,M,,*64
05/30/2014	19:44:07.788	$GPGGA,194416,2516.9406,N,07934.9769,W,1,11,1.5,19,M,,M,,*60
05/30/2014	19:44:08.779	$GPGGA,194417,2516.9408,N,07934.9779,W,1,11,1.5,19,M,,M,,*6E
05/30/2014	19:44:09.778	$GPGGA,194418,2516.9411,N,07934.9788,W,1,11,1.5,19,M,,M,,*67
05/30/2014	19:44:10.898	$GPGGA,194419,2516.9415,N,07934.9799,W,1,11,1.5,18,M,,M,,*63
05/30/2014	19:44:11.887	$GPGGA,194420,2516.9419,N,07934.9809,W,1,11,1.5,18,M,,M,,*63
05/30/2014	19:44:12.877	$GPGGA,194421,2516.9420,N,07934.9819,W,1,11,1.5,18,M,,M,,*69
05/30/2014	19:44:13.867	$GPGGA,194422,2516.9423,N,07934.9830,W,1,11,1.5,18,M,,M,,*62
05/30/2014	19:44:14.881	$GPGGA,194423,2516.9427,N,07934.9841,W,1,11,1.5,18,M,,M,,*61
05/30/2014	19:44:15.867	$GPGGA,194424,2516.9431,N,07934.9852,W,1,11,1.5,18,M,,M,,*63
05/30/2014	19:44:16.878	$GPGGA,194425,2516.9433,N,07934.9861,W,1,11,1.5,18,M,,M,,*60
05/30/2014	19:44:17.858	$GPGGA,194426,2516.9435,N,07934.9871,W,1,11,1.5,18,M,,M,,*64
05/30/2014	19:44:18.878	$GPGGA,194427,2516.9438,N,07934.9882,W,1,11,1.5,18,M,,M,,*64
05/30/2014	19:44:19.878	$GPGGA,194428,2516.9442,N,07934.9893,W,1,11,1.5,18,M,,M,,*66
05/30/2014	19:44:20.868	$GPGGA,194429,2516.9444,N,07934.9904,W,1,11,1.5,18,M,,M,,*6E
05/30/2014	19:44:21.858	$GPGGA,194430,2516.9446,N,07934.9914,W,1,11,1.5,18,M,,M,,*65
05/30/2014	19:44:22.868	$GPGGA,194431,2516.9449,N,07934.9925,W,1,11,1.5,18,M,,M,,*69
05/30/2014	19:44:23.858	$GPGGA,194432,2516.9453,N,07934.9938,W,1,11,1.5,18,M,,M,,*6D
05/30/2014	19:44:24.868	$GPGGA,194433,2516.9455,N,07934.9949,W,1,11,1.5,18,M,,M,,*6C
05/30/2014	19:44:25.848	$GPGGA,194434,2516.9458,N,07934.9960,W,1,11,1.5,18,M,,M,,*6D
05/30/2014	19:44:26.838	$GPGGA,194435,2516.9462,N,07934.9971,W,1,11,1.5,18,M,,M,,*65
05/30/2014	19:44:27.848	$GPGGA,194436,2516.9464,N,07934.9982,W,1,11,1.5,17,M,,M,,*63
05/30/2014	19:44:28.858	$GPGGA,194437,2516.9466,N,07934.9993,W,1,11,1.5,17,M,,M,,*60
05/30/2014	19:44:29.837	$GPGGA,194438,2516.9469,N,07935.0004,W,1,11,1.5,17,M,,M,,*6F
05/30/2014	19:44:30.867	$GPGGA,194439,2516.9471,N,07935.0016,W,1,11,1.5,17,M,,M,,*64
05/30/2014	19:44:31.847	$GPGGA,194440,2516.9474,N,07935.0029,W,1,11,1.5,17,M,,M,,*63
05/30/2014	19:44:32.847	$GPGGA,194441,2516.9477,N,07935.0040,W,1,11,1.5,17,M,,M,,*6E
05/30/2014	19:44:33.827	$GPGGA,194442,2516.9480,N,07935.0051,W,1,11,1.5,17,M,,M,,*65
05/30/2014	19:44:34.848	$GPGGA,194443,2516.9482,N,07935.0063,W,1,11,1.5,17,M,,M,,*67
05/30/2014	19:44:35.868	$GPGGA,194444,2516.9482,N,07935.0076,W,1,11,1.5,17,M,,M,,*64
05/30/2014	19:44:36.868	$GPGGA,194445,2516.9487,N,07935.0088,W,1,11,1.5,17,M,,M,,*61
05/30/2014	19:44:37.828	$GPGGA,194446,2516.9489,N,07935.0101,W,1,11,1.5,17,M,,M,,*6C
05/30/2014	19:44:38.818	$GPGGA,194447,2516.9491,N,07935.0112,W,1,11,1.5,17,M,,M,,*66
05/30/2014	19:44:39.828	$GPGGA,194448,2516.9492,N,07935.0124,W,1,11,1.5,17,M,,M,,*6F
05/30/2014	19:44:40.918	$GPGGA,194449,2516.9496,N,07935.0137,W,1,11,1.5,17,M,,M,,*68
05/30/2014	19:44:41.818	$GPGGA,194450,2516.9498,N,07935.0149,W,1,11,1.5,17,M,,M,,*67
05/30/2014	19:44:42.828	$GPGGA,194451,2516.9500,N,07935.0162,W,1,11,1.5,16,M,,M,,*6E
05/30/2014	19:44:43.818	$GPGGA,194452,2516.9503,N,07935.0173,W,1,11,1.5,16,M,,M,,*6E
05/30/2014	19:44:44.828	$GPGGA,194453,2516.9506,N,07935.0185,W,1,11,1.5,16,M,,M,,*63
05/30/2014	19:44:45.908	$GPGGA,194454,2516.9507,N,07935.0197,W,1,11,1.5,16,M,,M,,*66
05/30/2014	19:44:46.907	$GPGGA,194455,2516.9510,N,07935.0210,W,1,11,1.5,16,M,,M,,*6D
05/30/2014	19:44:47.827	$GPGGA,194456,2516.9513,N,07935.0224,W,1,11,1.5,16,M,,M,,*6A
05/30/2014	19:44:48.817	$GPGGA,194457,2516.9516,N,07935.0235,W,1,11,1.5,16,M,,M,,*6E
05/30/2014	19:44:49.887	$GPGGA,194458,2516.9518,N,07935.0249,W,1,11,1.5,16,M,,M,,*64
05/30/2014	19:44:50.817	$GPGGA,194459,2516.9520,N,07935.0260,W,1,11,1.5,16,M,,M,,*65
05/30/2014	19:44:51.928	$GPGGA,194500,2516.9524,N,07935.0275,W,1,11,1.5,16,M,,M,,*68
05/30/2014	19:44:52.880	$GPGGA,194501,2516.9525,N,07935.0286,W,1,11,1.5,16,M,,M,,*64
05/30/2014	19:44:53.788	$GPGGA,194502,2516.9528,N,07935.0300,W,1,11,1.5,16,M,,M,,*65
05/30/2014	19:44:54.868	$GPGGA,194503,2516.9531,N,07935.0314,W,1,11,1.5,16,M,,M,,*69
05/30/2014	19:44:55.888	$GPGGA,194504,2516.9534,N,07935.0326,W,1,11,1.5,16,M,,M,,*6A
05/30/2014	19:44:56.908	$GPGGA,194505,2516.9536,N,07935.0340,W,1,11,1.5,16,M,,M,,*69
05/30/2014	19:44:57.879	$GPGGA,194506,2516.9539,N,07935.0354,W,1,11,1.5,16,M,,M,,*60
05/30/2014	19:44:58.908	$GPGGA,194507,2516.9540,N,07935.0366,W,1,11,1.5,16,M,,M,,*6E
05/30/2014	19:44:59.888	$GPGGA,194508,2516.9543,N,07935.0380,W,1,11,1.5,16,M,,M,,*6A
05/30/2014	19:45:00.888	$GPGGA,194509,2516.9547,N,07935.0394,W,1,11,1.5,16,M,,M,,*6A
05/30/2014	19:45:01.879	$GPGGA,194510,2516.9550,N,07935.0408,W,1,11,1.5,16,M,,M,,*66
05/30/2014	19:45:02.888	$GPGGA,194511,2516.9553,N,07935.0421,W,1,11,1.5,16,M,,M,,*6F
05/30/2014	19:45:03.878	$GPGGA,194512,2516.9554,N,07935.0435,W,1,11,1.5,16,M,,M,,*6E
05/30/2014	19:45:04.878	$GPGGA,194513,2516.9558,N,07935.0448,W,1,11,1.5,16,M,,M,,*69
05/30/2014	19:45:05.847	$GPGGA,194514,2516.9561,N,07935.0463,W,1,11,1.5,16,M,,M,,*6D
05/30/2014	19:45:06.877	$GPGGA,194515,2516.9564,N,07935.0477,W,1,11,1.5,16,M,,M,,*6C
05/30/2014	19:45:07.857	$GPGGA,194516,2516.9565,N,07935.0491,W,1,11,1.5,16,M,,M,,*66
05/30/2014	19:45:08.857	$GPGGA,194517,2516.9570,N,07935.0504,W,1,11,1.5,16,M,,M,,*6E
05/30/2014	19:45:09.848	$GPGGA,194518,2516.9574,N,07935.0520,W,1,11,1.5,16,M,,M,,*63
05/30/2014	19:45:10.848	$GPGGA,194519,2516.9576,N,07935.0532,W,1,11,1.5,16,M,,M,,*63
05/30/2014	19:45:13.248	$GPGGA,194521,2516.9583,N,07935.0561,W,1,11,1.5,16,M,,M,,*64
05/30/2014	19:45:13.838	$GPGGA,194522,2516.9586,N,07935.0575,W,1,11,1.5,16,M,,M,,*67
05/30/2014	19:45:14.848	$GPGGA,194523,2516.9590,N,07935.0589,W,1,11,1.5,16,M,,M,,*62
05/30/2014	19:45:15.848	$GPGGA,194524,2516.9594,N,07935.0603,W,1,11,1.5,16,M,,M,,*60
05/30/2014	19:45:16.838	$GPGGA,194525,2516.9597,N,07935.0618,W,1,11,1.5,16,M,,M,,*68
05/30/2014	19:45:17.838	$GPGGA,194526,2516.9601,N,07935.0632,W,1,11,1.5,16,M,,M,,*6F
05/30/2014	19:45:18.818	$GPGGA,194527,2516.9604,N,07935.0645,W,1,11,1.5,16,M,,M,,*6B
05/30/2014	19:45:19.838	$GPGGA,194528,2516.9608,N,07935.0661,W,1,11,1.5,16,M,,M,,*6E
05/30/2014	19:45:20.828	$GPGGA,194529,2516.9612,N,07935.0675,W,1,11,1.5,16,M,,M,,*61
05/30/2014	19:45:21.817	$GPGGA,194530,2516.9615,N,07935.0690,W,1,11,1.5,16,M,,M,,*65
05/30/2014	19:45:22.837	$GPGGA,194531,2516.9621,N,07935.0704,W,1,11,1.5,16,M,,M,,*6F
05/30/2014	19:45:23.837	$GPGGA,194532,2516.9623,N,07935.0717,W,1,11,1.5,16,M,,M,,*6C
05/30/2014	19:45:24.827	$GPGGA,194533,2516.9628,N,07935.0733,W,1,11,1.5,16,M,,M,,*60
05/30/2014	19:45:25.817	$GPGGA,194534,2516.9633,N,07935.0746,W,1,11,1.5,16,M,,M,,*6F
05/30/2014	19:45:26.808	$GPGGA,194535,2516.9637,N,07935.0762,W,1,11,1.5,16,M,,M,,*6C
05/30/2014	19:45:27.828	$GPGGA,194536,2516.9641,N,07935.0777,W,1,11,1.5,16,M,,M,,*6A
05/30/2014	19:45:28.918	$GPGGA,194537,2516.9644,N,07935.0791,W,1,11,1.5,16,M,,M,,*66
05/30/2014	19:45:29.798	$GPGGA,194538,2516.9651,N,07935.0806,W,1,11,1.5,16,M,,M,,*6C
05/30/2014	19:45:30.818	$GPGGA,194539,2516.9655,N,07935.0820,W,1,11,1.5,16,M,,M,,*6D
05/30/2014	19:45:31.818	$GPGGA,194540,2516.9659,N,07935.0835,W,1,11,1.5,16,M,,M,,*6B
05/30/2014	19:45:32.808	$GPGGA,194541,2516.9662,N,07935.0849,W,1,11,1.5,16,M,,M,,*69
05/30/2014	19:45:33.888	$GPGGA,194542,2516.9669,N,07935.0864,W,1,11,1.5,16,M,,M,,*6E
05/30/2014	19:45:34.808	$GPGGA,194543,2516.9673,N,07935.0878,W,1,11,1.5,16,M,,M,,*69
05/30/2014	19:45:35.898	$GPGGA,194544,2516.9677,N,07935.0892,W,1,11,1.5,16,M,,M,,*6E
05/30/2014	19:45:36.888	$GPGGA,194545,2516.9680,N,07935.0907,W,1,11,1.5,16,M,,M,,*6A
05/30/2014	19:45:37.788	$GPGGA,194546,2516.9686,N,07935.0922,W,1,11,1.5,16,M,,M,,*68
05/30/2014	19:45:38.898	$GPGGA,194547,2516.9690,N,07935.0937,W,1,11,1.5,16,M,,M,,*6A
05/30/2014	19:45:39.907	$GPGGA,194548,2516.9694,N,07935.0951,W,1,11,1.5,16,M,,M,,*61
05/30/2014	19:45:40.887	$GPGGA,194549,2516.9698,N,07935.0966,W,1,11,1.5,16,M,,M,,*68
05/30/2014	19:45:41.787	$GPGGA,194550,2516.9702,N,07935.0980,W,1,11,1.5,16,M,,M,,*6A
05/30/2014	19:45:42.907	$GPGGA,194551,2516.9706,N,07935.0995,W,1,11,1.5,16,M,,M,,*6B
05/30/2014	19:45:43.887	$GPGGA,194552,2516.9712,N,07935.1011,W,1,11,1.5,16,M,,M,,*69
05/30/2014	19:45:44.878	$GPGGA,194553,2516.9716,N,07935.1026,W,1,11,1.5,16,M,,M,,*68
05/30/2014	19:45:45.868	$GPGGA,194554,2516.9719,N,07935.1040,W,1,11,1.5,16,M,,M,,*60
05/30/2014	19:45:46.878	$GPGGA,194555,2516.9724,N,07935.1055,W,1,11,1.5,16,M,,M,,*6B
05/30/2014	19:45:47.878	$GPGGA,194556,2516.9727,N,07935.1069,W,1,11,1.5,16,M,,M,,*64
05/30/2014	19:45:48.888	$GPGGA,194557,2516.9731,N,07935.1084,W,1,11,1.5,16,M,,M,,*61
05/30/2014	19:45:49.868	$GPGGA,194558,2516.9735,N,07935.1099,W,1,11,1.5,16,M,,M,,*66
05/30/2014	19:45:50.888	$GPGGA,194559,2516.9740,N,07935.1114,W,1,11,1.5,16,M,,M,,*61
05/30/2014	19:45:51.878	$GPGGA,194600,2516.9744,N,07935.1129,W,1,11,1.5,16,M,,M,,*64
05/30/2014	19:45:52.858	$GPGGA,194601,2516.9748,N,07935.1145,W,1,11,1.5,16,M,,M,,*63
05/30/2014	19:45:53.858	$GPGGA,194602,2516.9751,N,07935.1158,W,1,11,1.5,16,M,,M,,*64
05/30/2014	19:45:54.868	$GPGGA,194603,2516.9755,N,07935.1174,W,1,11,1.5,16,M,,M,,*6F
05/30/2014	19:45:55.858	$GPGGA,194604,2516.9759,N,07935.1189,W,1,11,1.5,16,M,,M,,*66
05/30/2014	19:45:56.867	$GPGGA,194605,2516.9762,N,07935.1203,W,1,11,1.5,16,M,,M,,*6E
05/30/2014	19:45:57.847	$GPGGA,194606,2516.9766,N,07935.1218,W,1,11,1.5,16,M,,M,,*63
05/30/2014	19:45:58.847	$GPGGA,194607,2516.9770,N,07935.1233,W,1,11,1.5,16,M,,M,,*6C
05/30/2014	19:45:59.857	$GPGGA,194608,2516.9773,N,07935.1248,W,1,11,1.5,16,M,,M,,*6C
05/30/2014	19:46:00.867	$GPGGA,194609,2516.9776,N,07935.1264,W,1,11,1.5,16,M,,M,,*66
05/30/2014	19:46:01.828	$GPGGA,194610,2516.9780,N,07935.1279,W,1,11,1.5,16,M,,M,,*6B
05/30/2014	19:46:02.858	$GPGGA,194611,2516.9784,N,07935.1294,W,1,11,1.5,16,M,,M,,*6D
05/30/2014	19:46:03.848	$GPGGA,194612,2516.9787,N,07935.1308,W,1,11,1.5,16,M,,M,,*69
05/30/2014	19:46:04.818	$GPGGA,194613,2516.9789,N,07935.1323,W,1,11,1.5,16,M,,M,,*6F
05/30/2014	19:46:05.838	$GPGGA,194614,2516.9794,N,07935.1340,W,1,11,1.5,16,M,,M,,*61
05/30/2014	19:46:06.848	$GPGGA,194615,2516.9796,N,07935.1355,W,1,11,1.5,16,M,,M,,*66
05/30/2014	19:46:07.838	$GPGGA,194616,2516.9799,N,07935.1369,W,1,11,1.5,16,M,,M,,*65
05/30/2014	19:46:08.818	$GPGGA,194617,2516.9803,N,07935.1384,W,1,11,1.5,16,M,,M,,*6B
05/30/2014	19:46:09.818	$GPGGA,194618,2516.9806,N,07935.1399,W,1,11,1.5,16,M,,M,,*6D
05/30/2014	19:46:10.838	$GPGGA,194619,2516.9809,N,07935.1416,W,1,11,1.5,16,M,,M,,*63
05/30/2014	19:46:11.838	$GPGGA,194620,2516.9811,N,07935.1431,W,1,11,1.5,16,M,,M,,*65
05/30/2014	19:46:12.807	$GPGGA,194621,2516.9814,N,07935.1445,W,1,11,1.5,16,M,,M,,*62
05/30/2014	19:46:13.797	$GPGGA,194622,2516.9818,N,07935.1460,W,1,11,1.5,16,M,,M,,*6A
05/30/2014	19:46:14.796	$GPGGA,194623,2516.9821,N,07935.1475,W,1,11,1.5,16,M,,M,,*65
05/30/2014	19:46:15.816	$GPGGA,194624,2516.9825,N,07935.1490,W,1,11,1.5,16,M,,M,,*6D
05/30/2014	19:46:16.786	$GPGGA,194625,2516.9827,N,07935.1506,W,1,11,1.5,16,M,,M,,*60
05/30/2014	19:46:17.796	$GPGGA,194626,2516.9829,N,07935.1521,W,1,11,1.5,16,M,,M,,*68
05/30/2014	19:46:18.796	$GPGGA,194627,2516.9834,N,07935.1535,W,1,11,1.5,16,M,,M,,*60
05/30/2014	19:46:19.806	$GPGGA,194628,2516.9838,N,07935.1550,W,1,11,1.5,16,M,,M,,*60
05/30/2014	19:46:20.886	$GPGGA,194629,2516.9839,N,07935.1565,W,1,11,1.5,16,M,,M,,*66
05/30/2014	19:46:21.786	$GPGGA,194630,2516.9843,N,07935.1580,W,1,11,1.5,16,M,,M,,*68
05/30/2014	19:46:22.776	$GPGGA,194631,2516.9846,N,07935.1595,W,1,11,1.5,16,M,,M,,*68
05/30/2014	19:46:23.796	$GPGGA,194632,2516.9850,N,07935.1611,W,1,11,1.5,16,M,,M,,*63
05/30/2014	19:46:24.916	$GPGGA,194633,2516.9850,N,07935.1626,W,1,11,1.5,16,M,,M,,*66
05/30/2014	19:46:25.776	$GPGGA,194634,2516.9854,N,07935.1640,W,1,11,1.5,16,M,,M,,*65
05/30/2014	19:46:26.776	$GPGGA,194635,2516.9857,N,07935.1656,W,1,11,1.5,16,M,,M,,*60
05/30/2014	19:46:27.776	$GPGGA,194636,2516.9861,N,07935.1671,W,1,11,1.5,16,M,,M,,*63
05/30/2014	19:46:28.866	$GPGGA,194637,2516.9863,N,07935.1685,W,1,11,1.5,16,M,,M,,*6B
05/30/2014	19:46:29.867	$GPGGA,194638,2516.9865,N,07935.1701,W,1,11,1.5,16,M,,M,,*6F
05/30/2014	19:46:30.867	$GPGGA,194639,2516.9870,N,07935.1716,W,1,11,1.5,16,M,,M,,*6C
05/30/2014	19:46:31.876	$GPGGA,194640,2516.9872,N,07935.1731,W,1,11,1.5,16,M,,M,,*65
05/30/2014	19:46:32.856	$GPGGA,194641,2516.9875,N,07935.1746,W,1,11,1.5,16,M,,M,,*63
05/30/2014	19:46:33.866	$GPGGA,194642,2516.9879,N,07935.1761,W,1,11,1.5,16,M,,M,,*69
05/30/2014	19:46:34.856	$GPGGA,194643,2516.9883,N,07935.1777,W,1,11,1.5,16,M,,M,,*6A
05/30/2014	19:46:35.867	$GPGGA,194644,2516.9886,N,07935.1792,W,1,11,1.5,16,M,,M,,*63
05/30/2014	19:46:36.866	$GPGGA,194645,2516.9889,N,07935.1806,W,1,11,1.5,16,M,,M,,*6F
05/30/2014	19:46:37.846	$GPGGA,194646,2516.9893,N,07935.1821,W,1,11,1.5,16,M,,M,,*62
05/30/2014	19:46:38.866	$GPGGA,194647,2516.9897,N,07935.1836,W,1,11,1.5,16,M,,M,,*61
05/30/2014	19:46:39.866	$GPGGA,194648,2516.9901,N,07935.1851,W,1,11,1.5,16,M,,M,,*61
05/30/2014	19:46:40.856	$GPGGA,194649,2516.9904,N,07935.1866,W,1,11,1.5,16,M,,M,,*61
05/30/2014	19:46:41.846	$GPGGA,194650,2516.9908,N,07935.1880,W,1,11,1.5,16,M,,M,,*6D
05/30/2014	19:46:42.857	$GPGGA,194651,2516.9914,N,07935.1897,W,1,11,1.5,16,M,,M,,*67
05/30/2014	19:46:43.846	$GPGGA,194652,2516.9917,N,07935.1911,W,1,11,1.5,16,M,,M,,*68
05/30/2014	19:46:44.856	$GPGGA,194653,2516.9922,N,07935.1925,W,1,11,1.5,16,M,,M,,*68
05/30/2014	19:46:45.826	$GPGGA,194654,2516.9926,N,07935.1940,W,1,11,1.5,16,M,,M,,*68
05/30/2014	19:46:46.826	$GPGGA,194655,2516.9930,N,07935.1954,W,1,11,1.5,16,M,,M,,*6B
05/30/2014	19:46:47.847	$GPGGA,194656,2516.9935,N,07935.1969,W,1,11,1.5,16,M,,M,,*63
05/30/2014	19:46:48.847	$GPGGA,194657,2516.9940,N,07935.1984,W,1,11,1.5,16,M,,M,,*63
05/30/2014	19:46:49.826	$GPGGA,194658,2516.9946,N,07935.1998,W,1,11,1.5,16,M,,M,,*67
05/30/2014	19:46:50.816	$GPGGA,194659,2516.9950,N,07935.2012,W,1,11,1.5,16,M,,M,,*69
05/30/2014	19:46:51.846	$GPGGA,194700,2516.9954,N,07935.2027,W,1,11,1.5,16,M,,M,,*66
05/30/2014	19:46:52.816	$GPGGA,194701,2516.9958,N,07935.2041,W,1,11,1.5,16,M,,M,,*6B
05/30/2014	19:46:53.806	$GPGGA,194702,2516.9965,N,07935.2056,W,1,11,1.5,16,M,,M,,*60
05/30/2014	19:46:54.846	$GPGGA,194703,2516.9969,N,07935.2070,W,1,11,1.5,16,M,,M,,*69
05/30/2014	19:46:55.836	$GPGGA,194704,2516.9975,N,07935.2084,W,1,11,1.5,16,M,,M,,*68
05/30/2014	19:46:56.806	$GPGGA,194705,2516.9980,N,07935.2099,W,1,11,1.5,16,M,,M,,*6F
05/30/2014	19:46:57.816	$GPGGA,194706,2516.9986,N,07935.2113,W,1,11,1.5,16,M,,M,,*69
05/30/2014	19:46:58.796	$GPGGA,194707,2516.9991,N,07935.2128,W,1,11,1.5,16,M,,M,,*66
05/30/2014	19:46:59.816	$GPGGA,194708,2516.9995,N,07935.2142,W,1,11,1.5,16,M,,M,,*61
05/30/2014	19:47:00.936	$GPGGA,194709,2517.0002,N,07935.2157,W,1,11,1.5,16,M,,M,,*6B
05/30/2014	19:47:01.806	$GPGGA,194710,2517.0008,N,07935.2171,W,1,11,1.5,16,M,,M,,*6D
05/30/2014	19:47:02.796	$GPGGA,194711,2517.0013,N,07935.2186,W,1,11,1.5,16,M,,M,,*6E
05/30/2014	19:47:03.976	$GPGGA,194712,2517.0018,N,07935.2200,W,1,11,1.5,16,M,,M,,*6B
05/30/2014	19:47:04.797	$GPGGA,194713,2517.0024,N,07935.2215,W,1,11,1.5,16,M,,M,,*61
05/30/2014	19:47:05.797	$GPGGA,194714,2517.0031,N,07935.2229,W,1,11,1.8,16,M,,M,,*60
05/30/2014	19:47:06.796	$GPGGA,194715,2517.0037,N,07935.2243,W,1,11,1.5,16,M,,M,,*66
05/30/2014	19:47:07.806	$GPGGA,194716,2517.0042,N,07935.2255,W,1,11,1.5,16,M,,M,,*60
05/30/2014	19:47:08.796	$GPGGA,194717,2517.0049,N,07935.2269,W,1,11,1.5,16,M,,M,,*65
05/30/2014	19:47:09.876	$GPGGA,194718,2517.0055,N,07935.2284,W,1,11,1.5,16,M,,M,,*64
05/30/2014	19:47:10.866	$GPGGA,194719,2517.0062,N,07935.2298,W,1,11,1.5,16,M,,M,,*6C
05/30/2014	19:47:11.876	$GPGGA,194720,2517.0067,N,07935.2313,W,1,11,1.5,16,M,,M,,*61
05/30/2014	19:47:12.786	$GPGGA,194721,2517.0074,N,07935.2327,W,1,11,1.5,16,M,,M,,*65
05/30/2014	19:47:13.776	$GPGGA,194722,2517.0081,N,07935.2342,W,1,11,1.5,16,M,,M,,*6F
05/30/2014	19:47:14.936	$GPGGA,194723,2517.0088,N,07935.2357,W,1,11,1.5,16,M,,M,,*63
05/30/2014	19:47:15.946	$GPGGA,194724,2517.0094,N,07935.2371,W,1,11,1.5,16,M,,M,,*6D
05/30/2014	19:47:16.776	$GPGGA,194725,2517.0100,N,07935.2386,W,1,11,1.5,16,M,,M,,*68
05/30/2014	19:47:17.936	$GPGGA,194726,2517.0107,N,07935.2402,W,1,11,1.5,16,M,,M,,*67
05/30/2014	19:47:18.896	$GPGGA,194727,2517.0114,N,07935.2415,W,1,11,1.5,16,M,,M,,*62
05/30/2014	19:47:19.776	$GPGGA,194728,2517.0121,N,07935.2429,W,1,11,1.5,16,M,,M,,*64
05/30/2014	19:47:20.916	$GPGGA,194729,2517.0125,N,07935.2444,W,1,11,1.5,16,M,,M,,*6A
05/30/2014	19:47:21.846	$GPGGA,194730,2517.0134,N,07935.2460,W,1,11,1.5,16,M,,M,,*64
05/30/2014	19:47:22.847	$GPGGA,194731,2517.0141,N,07935.2473,W,1,11,1.5,16,M,,M,,*65
05/30/2014	19:47:23.928	$GPGGA,194732,2517.0146,N,07935.2489,W,1,11,1.5,16,M,,M,,*64
05/30/2014	19:47:24.886	$GPGGA,194733,2517.0153,N,07935.2504,W,1,11,1.5,16,M,,M,,*65
05/30/2014	19:47:25.836	$GPGGA,194734,2517.0161,N,07935.2518,W,1,11,1.5,16,M,,M,,*6E
05/30/2014	19:47:26.836	$GPGGA,194735,2517.0167,N,07935.2532,W,1,11,1.5,16,M,,M,,*61
05/30/2014	19:47:27.846	$GPGGA,194736,2517.0172,N,07935.2547,W,1,11,1.5,16,M,,M,,*64
05/30/2014	19:47:28.876	$GPGGA,194737,2517.0181,N,07935.2561,W,1,11,1.5,16,M,,M,,*6D
05/30/2014	19:47:29.906	$GPGGA,194738,2517.0188,N,07935.2576,W,1,11,1.5,16,M,,M,,*6D
05/30/2014	19:47:30.826	$GPGGA,194739,2517.0193,N,07935.2590,W,1,11,1.5,16,M,,M,,*6E
05/30/2014	19:47:31.896	$GPGGA,194740,2517.0201,N,07935.2605,W,1,11,1.5,16,M,,M,,*67
05/30/2014	19:47:32.867	$GPGGA,194741,2517.0208,N,07935.2619,W,1,11,1.5,16,M,,M,,*62
05/30/2014	19:47:33.876	$GPGGA,194742,2517.0215,N,07935.2634,W,1,11,1.5,16,M,,M,,*62
05/30/2014	19:47:34.826	$GPGGA,194743,2517.0221,N,07935.2648,W,1,11,1.5,16,M,,M,,*6F
05/30/2014	19:47:35.886	$GPGGA,194744,2517.0226,N,07935.2663,W,1,11,1.5,16,M,,M,,*66
05/30/2014	19:47:36.867	$GPGGA,194745,2517.0235,N,07935.2677,W,1,11,1.5,16,M,,M,,*60
05/30/2014	19:47:37.876	$GPGGA,194746,2517.0242,N,07935.2691,W,1,11,1.5,16,M,,M,,*6B
05/30/2014	19:47:38.867	$GPGGA,194747,2517.0247,N,07935.2706,W,1,11,1.5,16,M,,M,,*60
05/30/2014	19:47:39.817	$GPGGA,194748,2517.0254,N,07935.2721,W,1,11,1.5,16,M,,M,,*68
05/30/2014	19:47:40.877	$GPGGA,194749,2517.0261,N,07935.2738,W,1,11,1.8,16,M,,M,,*6A
05/30/2014	19:47:41.806	$GPGGA,194750,2517.0268,N,07935.2753,W,1,11,1.8,16,M,,M,,*66
05/30/2014	19:47:42.806	$GPGGA,194751,2517.0273,N,07935.2767,W,1,11,1.5,16,M,,M,,*67
05/30/2014	19:47:43.886	$GPGGA,194752,2517.0280,N,07935.2780,W,1,11,1.5,15,M,,M,,*62
05/30/2014	19:47:44.809	$GPGGA,194753,2517.0287,N,07935.2796,W,1,11,1.5,15,M,,M,,*63
05/30/2014	19:47:45.876	$GPGGA,194754,2517.0293,N,07935.2811,W,1,11,1.8,15,M,,M,,*6C
05/30/2014	19:47:46.856	$GPGGA,194755,2517.0300,N,07935.2826,W,1,10,1.8,15,M,,M,,*63
05/30/2014	19:47:47.866	$GPGGA,194756,2517.0305,N,07935.2841,W,1,10,1.8,15,M,,M,,*64
05/30/2014	19:47:48.846	$GPGGA,194757,2517.0312,N,07935.2858,W,1,10,1.8,15,M,,M,,*6B
05/30/2014	19:47:49.856	$GPGGA,194758,2517.0319,N,07935.2872,W,1,10,1.8,15,M,,M,,*67
05/30/2014	19:47:50.916	$GPGGA,194759,2517.0326,N,07935.2887,W,1,10,1.5,15,M,,M,,*6D
05/30/2014	19:47:51.886	$GPGGA,194800,2517.0331,N,07935.2901,W,1,10,1.5,15,M,,M,,*67
05/30/2014	19:47:52.836	$GPGGA,194801,2517.0338,N,07935.2915,W,1,11,1.8,15,M,,M,,*66
05/30/2014	19:47:53.846	$GPGGA,194802,2517.0344,N,07935.2931,W,1,11,1.8,15,M,,M,,*68
05/30/2014	19:47:54.807	$GPGGA,194803,2517.0349,N,07935.2946,W,1,10,1.8,15,M,,M,,*65
05/30/2014	19:47:55.846	$GPGGA,194804,2517.0356,N,07935.2962,W,1,10,1.8,15,M,,M,,*6A
05/30/2014	19:47:56.776	$GPGGA,194805,2517.0363,N,07935.2977,W,1,10,1.8,15,M,,M,,*69
05/30/2014	19:47:57.827	$GPGGA,194806,2517.0369,N,07935.2991,W,1,10,1.8,14,M,,M,,*69
05/30/2014	19:47:58.817	$GPGGA,194807,2517.0376,N,07935.3006,W,1,10,1.8,14,M,,M,,*60
05/30/2014	19:47:59.846	$GPGGA,194808,2517.0381,N,07935.3021,W,1,10,1.8,14,M,,M,,*62
05/30/2014	19:48:00.896	$GPGGA,194809,2517.0388,N,07935.3036,W,1,10,1.8,14,M,,M,,*6C
05/30/2014	19:48:01.836	$GPGGA,194810,2517.0395,N,07935.3049,W,1,10,1.5,14,M,,M,,*6D
05/30/2014	19:48:02.866	$GPGGA,194811,2517.0401,N,07935.3063,W,1,11,1.5,14,M,,M,,*6F
05/30/2014	19:48:03.886	$GPGGA,194812,2517.0406,N,07935.3075,W,1,11,1.5,14,M,,M,,*6C
05/30/2014	19:48:04.866	$GPGGA,194813,2517.0413,N,07935.3089,W,1,11,1.5,14,M,,M,,*6A
05/30/2014	19:48:05.866	$GPGGA,194814,2517.0420,N,07935.3101,W,1,11,1.5,14,M,,M,,*6C
05/30/2014	19:48:06.846	$GPGGA,194815,2517.0425,N,07935.3114,W,1,11,1.5,14,M,,M,,*6C
05/30/2014	19:48:07.866	$GPGGA,194816,2517.0432,N,07935.3129,W,1,11,1.5,14,M,,M,,*67
05/30/2014	19:48:08.856	$GPGGA,194817,2517.0439,N,07935.3141,W,1,11,1.5,14,M,,M,,*63
05/30/2014	19:48:09.846	$GPGGA,194818,2517.0445,N,07935.3155,W,1,11,1.5,14,M,,M,,*62
05/30/2014	19:48:10.846	$GPGGA,194819,2517.0450,N,07935.3169,W,1,11,1.5,14,M,,M,,*68
05/30/2014	19:48:11.876	$GPGGA,194820,2517.0457,N,07935.3183,W,1,11,1.5,14,M,,M,,*61
05/30/2014	19:48:12.876	$GPGGA,194821,2517.0464,N,07935.3197,W,1,11,1.5,14,M,,M,,*65
05/30/2014	19:48:13.876	$GPGGA,194822,2517.0471,N,07935.3212,W,1,11,1.5,15,M,,M,,*6D
05/30/2014	19:48:14.887	$GPGGA,194823,2517.0478,N,07935.3226,W,1,11,1.5,15,M,,M,,*62
05/30/2014	19:48:15.847	$GPGGA,194824,2517.0485,N,07935.3241,W,1,11,1.5,15,M,,M,,*66
05/30/2014	19:48:16.856	$GPGGA,194825,2517.0490,N,07935.3256,W,1,11,1.5,15,M,,M,,*65
05/30/2014	19:48:17.846	$GPGGA,194826,2517.0497,N,07935.3270,W,1,11,1.5,15,M,,M,,*65
05/30/2014	19:48:18.826	$GPGGA,194827,2517.0504,N,07935.3285,W,1,11,1.5,15,M,,M,,*65
05/30/2014	19:48:19.856	$GPGGA,194828,2517.0511,N,07935.3299,W,1,11,1.5,15,M,,M,,*63
05/30/2014	19:48:20.846	$GPGGA,194829,2517.0518,N,07935.3314,W,1,11,1.5,15,M,,M,,*6F
05/30/2014	19:48:21.867	$GPGGA,194830,2517.0524,N,07935.3329,W,1,11,1.5,15,M,,M,,*66
05/30/2014	19:48:22.846	$GPGGA,194831,2517.0531,N,07935.3345,W,1,11,1.5,15,M,,M,,*69
05/30/2014	19:48:23.836	$GPGGA,194832,2517.0531,N,07935.3345,W,1,11,1.5,15,M,,M,,*6A
05/30/2014	19:48:24.836	$GPGGA,194833,2517.0544,N,07935.3372,W,1,11,1.5,15,M,,M,,*6D
05/30/2014	19:48:25.856	$GPGGA,194834,2517.0551,N,07935.3386,W,1,11,1.5,15,M,,M,,*65
05/30/2014	19:48:26.846	$GPGGA,194835,2517.0558,N,07935.3401,W,1,11,1.5,16,M,,M,,*66
05/30/2014	19:48:27.856	$GPGGA,194836,2517.0565,N,07935.3417,W,1,11,1.5,16,M,,M,,*6C
05/30/2014	19:48:28.826	$GPGGA,194837,2517.0571,N,07935.3430,W,1,11,1.5,16,M,,M,,*6D
05/30/2014	19:48:29.806	$GPGGA,194838,2517.0571,N,07935.3430,W,1,11,1.5,16,M,,M,,*62
05/30/2014	19:48:30.826	$GPGGA,194839,2517.0579,N,07935.3446,W,1,11,1.5,16,M,,M,,*6A
05/30/2014	19:48:31.826	$GPGGA,194840,2517.0586,N,07935.3459,W,1,11,1.5,16,M,,M,,*6A
05/30/2014	19:48:32.847	$GPGGA,194841,2517.0591,N,07935.3475,W,1,11,1.5,16,M,,M,,*63
05/30/2014	19:48:33.807	$GPGGA,194842,2517.0598,N,07935.3488,W,1,11,1.5,16,M,,M,,*6B
05/30/2014	19:48:34.828	$GPGGA,194843,2517.0613,N,07935.3519,W,1,11,1.5,16,M,,M,,*63
05/30/2014	19:48:35.816	$GPGGA,194844,2517.0613,N,07935.3519,W,1,11,1.5,16,M,,M,,*64
05/30/2014	19:48:36.856	$GPGGA,194845,2517.0620,N,07935.3533,W,1,11,1.5,16,M,,M,,*6D
05/30/2014	19:48:37.846	$GPGGA,194846,2517.0636,N,07935.3562,W,1,11,1.5,16,M,,M,,*6D
05/30/2014	19:48:38.786	$GPGGA,194847,2517.0643,N,07935.3577,W,1,11,1.5,16,M,,M,,*6A
05/30/2014	19:48:39.806	$GPGGA,194848,2517.0643,N,07935.3577,W,1,11,1.5,16,M,,M,,*65
05/30/2014	19:48:40.776	$GPGGA,194849,2517.0656,N,07935.3606,W,1,11,1.5,16,M,,M,,*65
05/30/2014	19:48:41.876	$GPGGA,194850,2517.0663,N,07935.3620,W,1,11,1.5,16,M,,M,,*6F
05/30/2014	19:48:42.776	$GPGGA,194851,2517.0672,N,07935.3635,W,1,11,1.5,16,M,,M,,*6A
05/30/2014	19:48:43.886	$GPGGA,194852,2517.0678,N,07935.3649,W,1,11,1.5,16,M,,M,,*68
05/30/2014	19:48:44.787	$GPGGA,194853,2517.0685,N,07935.3664,W,1,11,1.5,16,M,,M,,*64
05/30/2014	19:48:45.886	$GPGGA,194854,2517.0692,N,07935.3679,W,1,11,1.5,16,M,,M,,*69
05/30/2014	19:48:46.776	$GPGGA,194855,2517.0699,N,07935.3693,W,1,11,1.5,16,M,,M,,*67
05/30/2014	19:48:47.886	$GPGGA,194856,2517.0706,N,07935.3708,W,1,11,1.5,16,M,,M,,*60
05/30/2014	19:48:48.876	$GPGGA,194857,2517.0713,N,07935.3723,W,1,11,1.5,16,M,,M,,*6C
05/30/2014	19:48:49.878	$GPGGA,194858,2517.0713,N,07935.3723,W,1,11,1.5,16,M,,M,,*63
05/30/2014	19:48:50.867	$GPGGA,194859,2517.0725,N,07935.3753,W,1,11,1.5,16,M,,M,,*60
05/30/2014	19:48:51.906	$GPGGA,194900,2517.0734,N,07935.3768,W,1,11,1.5,16,M,,M,,*65
05/30/2014	19:48:52.886	$GPGGA,194901,2517.0741,N,07935.3782,W,1,11,1.5,16,M,,M,,*62
05/30/2014	19:48:53.866	$GPGGA,194902,2517.0746,N,07935.3797,W,1,11,1.5,16,M,,M,,*62
05/30/2014	19:48:54.856	$GPGGA,194903,2517.0755,N,07935.3811,W,1,11,1.5,16,M,,M,,*60
05/30/2014	19:48:55.867	$GPGGA,194904,2517.0763,N,07935.3826,W,1,11,1.5,16,M,,M,,*66
05/30/2014	19:48:56.856	$GPGGA,194905,2517.0768,N,07935.3840,W,1,11,1.5,16,M,,M,,*6C
05/30/2014	19:48:57.856	$GPGGA,194906,2517.0775,N,07935.3855,W,1,11,1.5,16,M,,M,,*67
05/30/2014	19:48:58.846	$GPGGA,194907,2517.0782,N,07935.3870,W,1,11,1.5,16,M,,M,,*69
05/30/2014	19:48:59.896	$GPGGA,194908,2517.0789,N,07935.3884,W,1,11,1.5,16,M,,M,,*66
05/30/2014	19:49:00.856	$GPGGA,194909,2517.0796,N,07935.3899,W,1,11,1.5,16,M,,M,,*65
05/30/2014	19:49:01.836	$GPGGA,194910,2517.0803,N,07935.3914,W,1,11,1.5,16,M,,M,,*6A
05/30/2014	19:49:02.856	$GPGGA,194911,2517.0810,N,07935.3928,W,1,11,1.5,16,M,,M,,*66
05/30/2014	19:49:03.856	$GPGGA,194912,2517.0815,N,07935.3942,W,1,11,1.5,16,M,,M,,*6C
05/30/2014	19:49:04.828	$GPGGA,194913,2517.0822,N,07935.3957,W,1,11,1.5,16,M,,M,,*6D
05/30/2014	19:49:05.846	$GPGGA,194914,2517.0829,N,07935.3972,W,1,11,1.5,16,M,,M,,*66
05/30/2014	19:49:06.826	$GPGGA,194915,2517.0836,N,07935.3986,W,1,11,1.5,16,M,,M,,*62
05/30/2014	19:49:07.867	$GPGGA,194916,2517.0843,N,07935.4001,W,1,11,1.5,16,M,,M,,*62
05/30/2014	19:49:08.827	$GPGGA,194917,2517.0849,N,07935.4017,W,1,11,1.5,16,M,,M,,*6E
05/30/2014	19:49:09.826	$GPGGA,194918,2517.0855,N,07935.4028,W,1,11,1.8,16,M,,M,,*6D
05/30/2014	19:49:10.816	$GPGGA,194919,2517.0862,N,07935.4043,W,1,11,1.5,16,M,,M,,*68
05/30/2014	19:49:11.837	$GPGGA,194920,2517.0869,N,07935.4057,W,1,11,1.5,16,M,,M,,*6C
05/30/2014	19:49:12.816	$GPGGA,194921,2517.0875,N,07935.4072,W,1,11,1.5,16,M,,M,,*67
05/30/2014	19:49:13.816	$GPGGA,194922,2517.0883,N,07935.4089,W,1,11,1.5,16,M,,M,,*69
05/30/2014	19:49:14.836	$GPGGA,194923,2517.0890,N,07935.4104,W,1,10,1.8,16,M,,M,,*62
05/30/2014	19:49:15.826	$GPGGA,194924,2517.0894,N,07935.4119,W,1,10,1.8,16,M,,M,,*6D
05/30/2014	19:49:16.836	$GPGGA,194925,2517.0901,N,07935.4136,W,1,11,1.5,16,M,,M,,*60
05/30/2014	19:49:17.816	$GPGGA,194926,2517.0909,N,07935.4151,W,1,11,1.8,16,M,,M,,*67
05/30/2014	19:49:18.806	$GPGGA,194927,2517.0915,N,07935.4165,W,1,10,1.8,16,M,,M,,*6D
05/30/2014	19:49:19.816	$GPGGA,194928,2517.0920,N,07935.4180,W,1,10,1.5,15,M,,M,,*61
05/30/2014	19:49:20.826	$GPGGA,194929,2517.0927,N,07935.4195,W,1,11,1.5,15,M,,M,,*62
05/30/2014	19:49:21.806	$GPGGA,194930,2517.0934,N,07935.4210,W,1,11,1.5,15,M,,M,,*66
05/30/2014	19:49:22.836	$GPGGA,194931,2517.0941,N,07935.4225,W,1,11,1.5,15,M,,M,,*63
05/30/2014	19:49:23.796	$GPGGA,194932,2517.0947,N,07935.4238,W,1,11,1.8,15,M,,M,,*67
05/30/2014	19:49:24.797	$GPGGA,194933,2517.0952,N,07935.4250,W,1,11,1.5,15,M,,M,,*61
05/30/2014	19:49:25.787	$GPGGA,194934,2517.0959,N,07935.4264,W,1,11,1.5,15,M,,M,,*6A
05/30/2014	19:49:26.916	$GPGGA,194935,2517.0966,N,07935.4279,W,1,11,1.5,15,M,,M,,*6B
05/30/2014	19:49:27.916	$GPGGA,194936,2517.0972,N,07935.4292,W,1,11,1.5,15,M,,M,,*68
05/30/2014	19:49:28.796	$GPGGA,194937,2517.0979,N,07935.4307,W,1,11,1.5,15,M,,M,,*6F
05/30/2014	19:49:29.876	$GPGGA,194938,2517.0985,N,07935.4324,W,1,11,1.5,15,M,,M,,*62
05/30/2014	19:49:30.767	$GPGGA,194939,2517.0992,N,07935.4339,W,1,10,1.8,15,M,,M,,*65
05/30/2014	19:49:31.796	$GPGGA,194940,2517.0998,N,07935.4353,W,1,10,1.8,15,M,,M,,*6D
05/30/2014	19:49:32.876	$GPGGA,194941,2517.1005,N,07935.4368,W,1,11,1.5,15,M,,M,,*64
05/30/2014	19:49:33.766	$GPGGA,194942,2517.1010,N,07935.4384,W,1,11,1.5,15,M,,M,,*61
05/30/2014	19:49:34.896	$GPGGA,194943,2517.1017,N,07935.4400,W,1,10,1.8,15,M,,M,,*60
05/30/2014	19:49:35.886	$GPGGA,194944,2517.1024,N,07935.4413,W,1,10,1.8,15,M,,M,,*65
05/30/2014	19:49:36.876	$GPGGA,194945,2517.1031,N,07935.4427,W,1,11,1.5,15,M,,M,,*6B
05/30/2014	19:49:37.776	$GPGGA,194946,2517.1038,N,07935.4443,W,1,11,1.5,15,M,,M,,*63
05/30/2014	19:49:38.876	$GPGGA,194947,2517.1042,N,07935.4458,W,1,10,1.8,15,M,,M,,*69
05/30/2014	19:49:39.876	$GPGGA,194948,2517.1049,N,07935.4472,W,1,10,1.5,15,M,,M,,*68
05/30/2014	19:49:40.856	$GPGGA,194949,2517.1057,N,07935.4483,W,1,11,1.5,15,M,,M,,*69
05/30/2014	19:49:41.856	$GPGGA,194950,2517.1064,N,07935.4498,W,1,11,1.5,15,M,,M,,*6B
05/30/2014	19:49:42.847	$GPGGA,194951,2517.1068,N,07935.4512,W,1,11,1.5,15,M,,M,,*65
05/30/2014	19:49:43.867	$GPGGA,194952,2517.1077,N,07935.4527,W,1,11,1.5,15,M,,M,,*6E
05/30/2014	19:49:44.871	$GPGGA,194953,2517.1082,N,07935.4541,W,1,11,1.5,15,M,,M,,*65
05/30/2014	19:49:45.846	$GPGGA,194954,2517.1089,N,07935.4555,W,1,11,1.5,15,M,,M,,*6C
05/30/2014	19:49:46.856	$GPGGA,194955,2517.1096,N,07935.4568,W,1,11,1.5,15,M,,M,,*6D
05/30/2014	19:49:47.846	$GPGGA,194956,2517.1102,N,07935.4582,W,1,11,1.5,15,M,,M,,*66
05/30/2014	19:49:48.856	$GPGGA,194957,2517.1109,N,07935.4596,W,1,11,1.5,15,M,,M,,*69
05/30/2014	19:49:49.846	$GPGGA,194958,2517.1115,N,07935.4610,W,1,11,1.5,15,M,,M,,*66
05/30/2014	19:49:50.826	$GPGGA,194959,2517.1122,N,07935.4624,W,1,11,1.5,15,M,,M,,*64
05/30/2014	19:49:51.856	$GPGGA,195000,2517.1129,N,07935.4639,W,1,11,1.5,15,M,,M,,*67
05/30/2014	19:49:52.826	$GPGGA,195001,2517.1136,N,07935.4653,W,1,11,1.5,15,M,,M,,*64
05/30/2014	19:49:53.826	$GPGGA,195002,2517.1143,N,07935.4668,W,1,11,1.5,15,M,,M,,*6D
05/30/2014	19:49:54.856	$GPGGA,195003,2517.1149,N,07935.4682,W,1,11,1.5,15,M,,M,,*62
05/30/2014	19:49:55.836	$GPGGA,195004,2517.1156,N,07935.4697,W,1,11,1.5,15,M,,M,,*6F
05/30/2014	19:49:56.816	$GPGGA,195005,2517.1164,N,07935.4711,W,1,11,1.5,15,M,,M,,*60
05/30/2014	19:49:57.826	$GPGGA,195006,2517.1169,N,07935.4726,W,1,11,1.5,15,M,,M,,*6A
05/30/2014	19:49:58.856	$GPGGA,195007,2517.1176,N,07935.4740,W,1,11,1.5,15,M,,M,,*65
05/30/2014	19:49:59.837	$GPGGA,195008,2517.1183,N,07935.4754,W,1,11,1.5,15,M,,M,,*65
05/30/2014	19:50:00.857	$GPGGA,195009,2517.1190,N,07935.4769,W,1,11,1.5,15,M,,M,,*68
05/30/2014	19:50:01.826	$GPGGA,195010,2517.1198,N,07935.4783,W,1,11,1.5,15,M,,M,,*6C
05/30/2014	19:50:02.836	$GPGGA,195011,2517.1205,N,07935.4798,W,1,11,1.5,15,M,,M,,*60
05/30/2014	19:50:03.826	$GPGGA,195012,2517.1212,N,07935.4812,W,1,11,1.5,15,M,,M,,*68
05/30/2014	19:50:04.806	$GPGGA,195013,2517.1219,N,07935.4827,W,1,11,1.5,15,M,,M,,*64
05/30/2014	19:50:05.816	$GPGGA,195014,2517.1227,N,07935.4841,W,1,11,1.5,15,M,,M,,*6E
05/30/2014	19:50:06.806	$GPGGA,195015,2517.1234,N,07935.4856,W,1,11,1.5,15,M,,M,,*6B
05/30/2014	19:50:07.816	$GPGGA,195016,2517.1241,N,07935.4870,W,1,11,1.5,15,M,,M,,*6E
05/30/2014	19:50:08.816	$GPGGA,195017,2517.1248,N,07935.4885,W,1,11,1.5,15,M,,M,,*6C
05/30/2014	19:50:09.916	$GPGGA,195018,2517.1256,N,07935.4899,W,1,11,1.5,15,M,,M,,*61
05/30/2014	19:50:10.916	$GPGGA,195019,2517.1263,N,07935.4914,W,1,11,1.5,15,M,,M,,*62
05/30/2014	19:50:11.796	$GPGGA,195020,2517.1270,N,07935.4928,W,1,11,1.5,15,M,,M,,*65
05/30/2014	19:50:12.916	$GPGGA,195021,2517.1279,N,07935.4943,W,1,11,1.5,15,M,,M,,*60
05/30/2014	19:50:13.886	$GPGGA,195022,2517.1288,N,07935.4957,W,1,11,1.5,15,M,,M,,*68
05/30/2014	19:50:14.776	$GPGGA,195023,2517.1294,N,07935.4972,W,1,11,1.5,15,M,,M,,*63
05/30/2014	19:50:15.886	$GPGGA,195024,2517.1302,N,07935.4987,W,1,11,1.5,15,M,,M,,*60
05/30/2014	19:50:16.887	$GPGGA,195025,2517.1310,N,07935.5001,W,1,11,1.5,15,M,,M,,*64
05/30/2014	19:50:17.777	$GPGGA,195026,2517.1317,N,07935.5015,W,1,11,1.5,15,M,,M,,*65
05/30/2014	19:50:18.877	$GPGGA,195027,2517.1324,N,07935.5030,W,1,11,1.5,15,M,,M,,*63
05/30/2014	19:50:19.786	$GPGGA,195028,2517.1333,N,07935.5045,W,1,11,1.5,15,M,,M,,*68
05/30/2014	19:50:20.876	$GPGGA,195029,2517.1341,N,07935.5061,W,1,11,1.5,15,M,,M,,*6A
05/30/2014	19:50:21.776	$GPGGA,195030,2517.1348,N,07935.5074,W,1,11,1.5,15,M,,M,,*6F
05/30/2014	19:50:22.886	$GPGGA,195031,2517.1356,N,07935.5090,W,1,11,1.5,15,M,,M,,*6B
05/30/2014	19:50:23.876	$GPGGA,195032,2517.1364,N,07935.5103,W,1,11,1.5,15,M,,M,,*62
05/30/2014	19:50:24.866	$GPGGA,195033,2517.1371,N,07935.5119,W,1,11,1.5,15,M,,M,,*6C
05/30/2014	19:50:25.866	$GPGGA,195034,2517.1378,N,07935.5133,W,1,11,1.5,15,M,,M,,*6A
05/30/2014	19:50:26.886	$GPGGA,195035,2517.1385,N,07935.5146,W,1,11,1.5,15,M,,M,,*6B
05/30/2014	19:50:27.876	$GPGGA,195036,2517.1393,N,07935.5162,W,1,11,1.5,15,M,,M,,*69
05/30/2014	19:50:28.876	$GPGGA,195037,2517.1400,N,07935.5175,W,1,11,1.5,15,M,,M,,*63
05/30/2014	19:50:29.856	$GPGGA,195038,2517.1407,N,07935.5191,W,1,11,1.5,15,M,,M,,*61
05/30/2014	19:50:30.846	$GPGGA,195039,2517.1415,N,07935.5206,W,1,11,1.5,15,M,,M,,*6E
05/30/2014	19:50:31.866	$GPGGA,195040,2517.1424,N,07935.5220,W,1,11,1.5,15,M,,M,,*66
05/30/2014	19:50:32.870	$GPGGA,195041,2517.1429,N,07935.5235,W,1,11,1.5,15,M,,M,,*6E
05/30/2014	19:50:33.836	$GPGGA,195042,2517.1438,N,07935.5250,W,1,11,1.5,15,M,,M,,*6E
05/30/2014	19:50:34.857	$GPGGA,195043,2517.1446,N,07935.5265,W,1,11,1.5,15,M,,M,,*60
05/30/2014	19:50:35.847	$GPGGA,195044,2517.1451,N,07935.5280,W,1,11,1.5,15,M,,M,,*6A
05/30/2014	19:50:36.857	$GPGGA,195045,2517.1458,N,07935.5296,W,1,11,1.5,15,M,,M,,*65
05/30/2014	19:50:37.836	$GPGGA,195046,2517.1467,N,07935.5309,W,1,11,1.5,15,M,,M,,*6D
05/30/2014	19:50:38.846	$GPGGA,195047,2517.1474,N,07935.5325,W,1,11,1.5,15,M,,M,,*60
05/30/2014	19:50:39.836	$GPGGA,195048,2517.1479,N,07935.5340,W,1,11,1.5,15,M,,M,,*61
05/30/2014	19:50:40.846	$GPGGA,195049,2517.1487,N,07935.5354,W,1,11,1.5,15,M,,M,,*64
05/30/2014	19:50:41.816	$GPGGA,195050,2517.1494,N,07935.5369,W,1,11,1.5,15,M,,M,,*60
05/30/2014	19:50:42.817	$GPGGA,195051,2517.1501,N,07935.5384,W,1,11,1.5,15,M,,M,,*6F
05/30/2014	19:50:43.826	$GPGGA,195052,2517.1508,N,07935.5399,W,1,11,1.5,15,M,,M,,*69
05/30/2014	19:50:44.826	$GPGGA,195053,2517.1515,N,07935.5415,W,1,11,1.5,15,M,,M,,*67
05/30/2014	19:50:45.826	$GPGGA,195054,2517.1522,N,07935.5430,W,1,11,1.5,15,M,,M,,*63
05/30/2014	19:50:46.816	$GPGGA,195055,2517.1527,N,07935.5444,W,1,11,1.5,15,M,,M,,*64
05/30/2014	19:50:47.836	$GPGGA,195056,2517.1534,N,07935.5460,W,1,11,1.5,15,M,,M,,*63
05/30/2014	19:50:48.836	$GPGGA,195057,2517.1541,N,07935.5474,W,1,10,1.8,15,M,,M,,*69
05/30/2014	19:50:49.816	$GPGGA,195058,2517.1548,N,07935.5491,W,1,10,1.5,15,M,,M,,*69
05/30/2014	19:50:50.806	$GPGGA,195059,2517.1555,N,07935.5506,W,1,10,1.8,15,M,,M,,*66
05/30/2014	19:50:51.937	$GPGGA,195100,2517.1562,N,07935.5520,W,1,10,1.8,15,M,,M,,*6B
05/30/2014	19:50:52.797	$GPGGA,195101,2517.1570,N,07935.5535,W,1,11,1.5,15,M,,M,,*61
05/30/2014	19:50:53.807	$GPGGA,195102,2517.1576,N,07935.5551,W,1,11,1.8,15,M,,M,,*6B
05/30/2014	19:50:54.806	$GPGGA,195103,2517.1581,N,07935.5564,W,1,10,1.8,15,M,,M,,*65
05/30/2014	19:50:55.816	$GPGGA,195104,2517.1588,N,07935.5578,W,1,10,1.5,15,M,,M,,*6B
05/30/2014	19:50:56.906	$GPGGA,195105,2517.1595,N,07935.5593,W,1,11,1.5,15,M,,M,,*62
05/30/2014	19:50:57.806	$GPGGA,195106,2517.1602,N,07935.5610,W,1,11,1.5,15,M,,M,,*64
05/30/2014	19:50:58.896	$GPGGA,195107,2517.1606,N,07935.5623,W,1,10,1.8,15,M,,M,,*6D
05/30/2014	19:50:59.816	$GPGGA,195108,2517.1615,N,07935.5639,W,1,10,1.5,15,M,,M,,*66
05/30/2014	19:51:00.806	$GPGGA,195109,2517.1623,N,07935.5655,W,1,10,1.8,15,M,,M,,*65
05/30/2014	19:51:01.776	$GPGGA,195110,2517.1628,N,07935.5672,W,1,10,1.8,15,M,,M,,*63
05/30/2014	19:51:02.796	$GPGGA,195111,2517.1634,N,07935.5687,W,1,10,1.8,15,M,,M,,*65
05/30/2014	19:51:03.896	$GPGGA,195112,2517.1642,N,07935.5701,W,1,10,1.8,15,M,,M,,*68
05/30/2014	19:51:04.776	$GPGGA,195113,2517.1649,N,07935.5713,W,1,11,1.5,15,M,,M,,*6D
05/30/2014	19:51:05.866	$GPGGA,195114,2517.1655,N,07935.5727,W,1,11,1.5,15,M,,M,,*60
05/30/2014	19:51:06.886	$GPGGA,195115,2517.1660,N,07935.5744,W,1,11,1.5,15,M,,M,,*62
05/30/2014	19:51:07.876	$GPGGA,195116,2517.1667,N,07935.5758,W,1,11,1.8,14,M,,M,,*67
05/30/2014	19:51:08.866	$GPGGA,195117,2517.1675,N,07935.5773,W,1,11,1.5,14,M,,M,,*61
05/30/2014	19:51:09.767	$GPGGA,195118,2517.1682,N,07935.5788,W,1,11,1.5,14,M,,M,,*62
05/30/2014	19:51:10.887	$GPGGA,195119,2517.1688,N,07935.5802,W,1,11,1.5,14,M,,M,,*64
05/30/2014	19:51:11.876	$GPGGA,195120,2517.1695,N,07935.5817,W,1,11,1.5,14,M,,M,,*66
05/30/2014	19:51:12.896	$GPGGA,195121,2517.1702,N,07935.5831,W,1,11,1.5,14,M,,M,,*6C
05/30/2014	19:51:13.856	$GPGGA,195122,2517.1709,N,07935.5846,W,1,11,1.5,14,M,,M,,*64
05/30/2014	19:51:14.876	$GPGGA,195123,2517.1714,N,07935.5860,W,1,11,1.5,14,M,,M,,*6D
05/30/2014	19:51:15.866	$GPGGA,195124,2517.1721,N,07935.5874,W,1,11,1.5,14,M,,M,,*69
05/30/2014	19:51:16.856	$GPGGA,195125,2517.1729,N,07935.5889,W,1,11,1.5,14,M,,M,,*62
05/30/2014	19:51:17.856	$GPGGA,195126,2517.1736,N,07935.5903,W,1,11,1.5,14,M,,M,,*6C
05/30/2014	19:51:18.866	$GPGGA,195127,2517.1742,N,07935.5917,W,1,11,1.5,14,M,,M,,*6B
05/30/2014	19:51:19.846	$GPGGA,195128,2517.1749,N,07935.5930,W,1,11,1.5,14,M,,M,,*6A
05/30/2014	19:51:20.866	$GPGGA,195129,2517.1756,N,07935.5946,W,1,11,1.6,14,M,,M,,*67
05/30/2014	19:51:21.846	$GPGGA,195130,2517.1763,N,07935.5959,W,1,11,1.6,14,M,,M,,*67
05/30/2014	19:51:22.827	$GPGGA,195131,2517.1769,N,07935.5973,W,1,11,1.6,14,M,,M,,*64
05/30/2014	19:51:23.856	$GPGGA,195132,2517.1776,N,07935.5988,W,1,11,1.6,14,M,,M,,*6D
05/30/2014	19:51:24.868	$GPGGA,195133,2517.1783,N,07935.6002,W,1,11,1.6,14,M,,M,,*6E
05/30/2014	19:51:25.846	$GPGGA,195134,2517.1790,N,07935.6016,W,1,11,1.6,14,M,,M,,*6E
05/30/2014	19:51:26.817	$GPGGA,195135,2517.1797,N,07935.6031,W,1,11,1.5,14,M,,M,,*6E
05/30/2014	19:51:27.847	$GPGGA,195136,2517.1804,N,07935.6045,W,1,11,1.5,14,M,,M,,*6B
05/30/2014	19:51:28.847	$GPGGA,195137,2517.1811,N,07935.6059,W,1,11,1.5,14,M,,M,,*63
05/30/2014	19:51:29.836	$GPGGA,195138,2517.1818,N,07935.6074,W,1,11,1.5,15,M,,M,,*6B
05/30/2014	19:51:30.816	$GPGGA,195139,2517.1825,N,07935.6089,W,1,11,1.5,15,M,,M,,*66
05/30/2014	19:51:31.846	$GPGGA,195140,2517.1832,N,07935.6105,W,1,11,1.5,15,M,,M,,*6B
05/30/2014	19:51:32.806	$GPGGA,195141,2517.1840,N,07935.6120,W,1,11,1.6,15,M,,M,,*6B
05/30/2014	19:51:33.826	$GPGGA,195142,2517.1847,N,07935.6134,W,1,11,1.6,15,M,,M,,*6A
05/30/2014	19:51:34.926	$GPGGA,195143,2517.1854,N,07935.6149,W,1,11,1.6,15,M,,M,,*63
05/30/2014	19:51:35.836	$GPGGA,195144,2517.1862,N,07935.6163,W,1,11,1.6,15,M,,M,,*69
05/30/2014	19:51:36.816	$GPGGA,195145,2517.1869,N,07935.6178,W,1,11,1.6,15,M,,M,,*69
05/30/2014	19:51:37.796	$GPGGA,195146,2517.1875,N,07935.6192,W,1,11,1.6,15,M,,M,,*63
05/30/2014	19:51:38.806	$GPGGA,195147,2517.1883,N,07935.6207,W,1,11,1.6,15,M,,M,,*64
05/30/2014	19:51:39.936	$GPGGA,195148,2517.1891,N,07935.6221,W,1,11,1.6,15,M,,M,,*6C
05/30/2014	19:51:40.806	$GPGGA,195149,2517.1897,N,07935.6236,W,1,11,1.6,15,M,,M,,*6D
05/30/2014	19:51:41.886	$GPGGA,195150,2517.1904,N,07935.6251,W,1,11,1.6,15,M,,M,,*6F
05/30/2014	19:51:42.806	$GPGGA,195151,2517.1912,N,07935.6265,W,1,11,1.6,15,M,,M,,*6E
05/30/2014	19:51:43.806	$GPGGA,195152,2517.1920,N,07935.6280,W,1,11,1.6,15,M,,M,,*67
05/30/2014	19:51:44.787	$GPGGA,195153,2517.1926,N,07935.6295,W,1,11,1.6,15,M,,M,,*64
05/30/2014	19:51:45.897	$GPGGA,195154,2517.1933,N,07935.6311,W,1,11,1.6,15,M,,M,,*6A
05/30/2014	19:51:46.778	$GPGGA,195155,2517.1941,N,07935.6326,W,1,11,1.6,15,M,,M,,*6A
05/30/2014	19:51:47.806	$GPGGA,195156,2517.1948,N,07935.6340,W,1,11,1.6,15,M,,M,,*60
05/30/2014	19:51:48.886	$GPGGA,195157,2517.1955,N,07935.6355,W,1,11,1.6,15,M,,M,,*69
05/30/2014	19:51:49.777	$GPGGA,195158,2517.1963,N,07935.6369,W,1,11,1.6,15,M,,M,,*6C
05/30/2014	19:51:50.916	$GPGGA,195159,2517.1971,N,07935.6384,W,1,11,1.6,15,M,,M,,*6D
05/30/2014	19:51:51.826	$GPGGA,195200,2517.1978,N,07935.6398,W,1,11,1.6,15,M,,M,,*66
05/30/2014	19:51:52.886	$GPGGA,195201,2517.1985,N,07935.6413,W,1,11,1.6,15,M,,M,,*61
05/30/2014	19:51:53.876	$GPGGA,195202,2517.1992,N,07935.6428,W,1,11,1.6,16,M,,M,,*6F
05/30/2014	19:51:54.886	$GPGGA,195203,2517.2000,N,07935.6442,W,1,11,1.6,16,M,,M,,*63
05/30/2014	19:51:55.886	$GPGGA,195204,2517.2007,N,07935.6456,W,1,11,1.6,16,M,,M,,*66
05/30/2014	19:51:56.866	$GPGGA,195205,2517.2014,N,07935.6472,W,1,11,1.6,16,M,,M,,*63
05/30/2014	19:51:57.866	$GPGGA,195206,2517.2021,N,07935.6488,W,1,11,1.6,16,M,,M,,*63
05/30/2014	19:51:58.886	$GPGGA,195207,2517.2029,N,07935.6501,W,1,11,1.6,16,M,,M,,*6A
05/30/2014	19:51:59.876	$GPGGA,195208,2517.2036,N,07935.6515,W,1,11,1.6,16,M,,M,,*6E
05/30/2014	19:52:00.876	$GPGGA,195209,2517.2045,N,07935.6530,W,1,11,1.6,16,M,,M,,*6C
05/30/2014	19:52:01.857	$GPGGA,195210,2517.2050,N,07935.6546,W,1,11,1.6,16,M,,M,,*61
05/30/2014	19:52:02.867	$GPGGA,195211,2517.2057,N,07935.6561,W,1,11,1.6,16,M,,M,,*62
05/30/2014	19:52:03.886	$GPGGA,195212,2517.2065,N,07935.6575,W,1,11,1.6,16,M,,M,,*65
05/30/2014	19:52:04.876	$GPGGA,195213,2517.2072,N,07935.6590,W,1,11,1.6,16,M,,M,,*69
05/30/2014	19:52:05.846	$GPGGA,195214,2517.2079,N,07935.6604,W,1,11,1.6,16,M,,M,,*6B
05/30/2014	19:52:06.836	$GPGGA,195215,2517.2086,N,07935.6619,W,1,11,1.6,16,M,,M,,*66
05/30/2014	19:52:07.856	$GPGGA,195216,2517.2094,N,07935.6633,W,1,11,1.6,16,M,,M,,*6E
05/30/2014	19:52:08.836	$GPGGA,195217,2517.2101,N,07935.6648,W,1,11,1.6,16,M,,M,,*6E
05/30/2014	19:52:09.846	$GPGGA,195218,2517.2108,N,07935.6663,W,1,11,1.6,16,M,,M,,*61
05/30/2014	19:52:10.877	$GPGGA,195219,2517.2115,N,07935.6677,W,1,11,1.6,16,M,,M,,*69
05/30/2014	19:52:11.846	$GPGGA,195220,2517.2122,N,07935.6692,W,1,11,1.6,16,M,,M,,*6C
05/30/2014	19:52:12.846	$GPGGA,195221,2517.2130,N,07935.6707,W,1,11,1.6,16,M,,M,,*63
05/30/2014	19:52:13.826	$GPGGA,195222,2517.2137,N,07935.6723,W,1,11,1.6,16,M,,M,,*61
05/30/2014	19:52:14.846	$GPGGA,195223,2517.2143,N,07935.6738,W,1,11,1.6,16,M,,M,,*69
05/30/2014	19:52:15.826	$GPGGA,195224,2517.2151,N,07935.6752,W,1,11,1.6,16,M,,M,,*61
05/30/2014	19:52:16.826	$GPGGA,195225,2517.2158,N,07935.6767,W,1,11,1.6,16,M,,M,,*6F
05/30/2014	19:52:17.816	$GPGGA,195226,2517.2164,N,07935.6781,W,1,11,1.6,16,M,,M,,*6B
05/30/2014	19:52:18.816	$GPGGA,195227,2517.2172,N,07935.6796,W,1,11,1.6,16,M,,M,,*6B
05/30/2014	19:52:19.816	$GPGGA,195228,2517.2179,N,07935.6811,W,1,11,1.6,16,M,,M,,*6F
05/30/2014	19:52:20.836	$GPGGA,195229,2517.2184,N,07935.6826,W,1,11,1.8,16,M,,M,,*66
05/30/2014	19:52:21.815	$GPGGA,195230,2517.2191,N,07935.6842,W,1,11,1.8,16,M,,M,,*68
05/30/2014	19:52:22.915	$GPGGA,195231,2517.2198,N,07935.6853,W,1,10,1.6,16,M,,M,,*6F
05/30/2014	19:52:23.825	$GPGGA,195232,2517.2206,N,07935.6866,W,1,10,1.6,16,M,,M,,*6E
05/30/2014	19:52:24.805	$GPGGA,195233,2517.2213,N,07935.6880,W,1,11,1.6,16,M,,M,,*62
05/30/2014	19:52:25.805	$GPGGA,195234,2517.2220,N,07935.6894,W,1,11,1.6,16,M,,M,,*60
05/30/2014	19:52:26.915	$GPGGA,195235,2517.2226,N,07935.6908,W,1,11,1.6,16,M,,M,,*63
05/30/2014	19:52:27.845	$GPGGA,195236,2517.2233,N,07935.6922,W,1,11,1.6,16,M,,M,,*6C
05/30/2014	19:52:28.795	$GPGGA,195237,2517.2241,N,07935.6934,W,1,11,1.6,16,M,,M,,*6F
05/30/2014	19:52:29.806	$GPGGA,195238,2517.2247,N,07935.6949,W,1,11,1.6,16,M,,M,,*6C
05/30/2014	19:52:30.806	$GPGGA,195239,2517.2253,N,07935.6966,W,1,11,1.8,16,M,,M,,*6B
05/30/2014	19:52:31.896	$GPGGA,195240,2517.2260,N,07935.6981,W,1,11,1.8,16,M,,M,,*6C
05/30/2014	19:52:32.796	$GPGGA,195241,2517.2267,N,07935.6998,W,1,11,1.8,16,M,,M,,*62
05/30/2014	19:52:33.796	$GPGGA,195242,2517.2274,N,07935.7013,W,1,11,1.6,16,M,,M,,*66
05/30/2014	19:52:34.886	$GPGGA,195243,2517.2281,N,07935.7028,W,1,11,1.6,16,M,,M,,*65
05/30/2014	19:52:35.886	$GPGGA,195244,2517.2288,N,07935.7042,W,1,11,1.6,16,M,,M,,*67
05/30/2014	19:52:36.776	$GPGGA,195245,2517.2295,N,07935.7057,W,1,11,1.6,17,M,,M,,*6F
05/30/2014	19:52:37.856	$GPGGA,195246,2517.2302,N,07935.7074,W,1,11,1.6,17,M,,M,,*62
05/30/2014	19:52:38.776	$GPGGA,195247,2517.2309,N,07935.7089,W,1,10,1.8,17,M,,M,,*65
05/30/2014	19:52:39.895	$GPGGA,195248,2517.2316,N,07935.7104,W,1,10,1.8,17,M,,M,,*60
05/30/2014	19:52:40.885	$GPGGA,195249,2517.2323,N,07935.7121,W,1,10,1.8,16,M,,M,,*61
05/30/2014	19:52:41.865	$GPGGA,195250,2517.2329,N,07935.7135,W,1,10,1.8,16,M,,M,,*66
05/30/2014	19:52:42.766	$GPGGA,195251,2517.2336,N,07935.7151,W,1,10,1.8,16,M,,M,,*6B
05/30/2014	19:52:43.865	$GPGGA,195252,2517.2343,N,07935.7168,W,1,10,1.8,16,M,,M,,*60
05/30/2014	19:52:44.775	$GPGGA,195253,2517.2350,N,07935.7182,W,1,10,1.8,16,M,,M,,*67
05/30/2014	19:52:45.845	$GPGGA,195254,2517.2357,N,07935.7197,W,1,10,1.8,16,M,,M,,*63
05/30/2014	19:52:46.835	$GPGGA,195255,2517.2364,N,07935.7211,W,1,11,1.6,16,M,,M,,*60
05/30/2014	19:52:47.856	$GPGGA,195256,2517.2370,N,07935.7225,W,1,11,1.6,16,M,,M,,*61
05/30/2014	19:52:48.866	$GPGGA,195257,2517.2378,N,07935.7240,W,1,11,1.6,16,M,,M,,*6B
05/30/2014	19:52:49.846	$GPGGA,195258,2517.2383,N,07935.7252,W,1,11,1.6,16,M,,M,,*63
05/30/2014	19:52:50.846	$GPGGA,195259,2517.2390,N,07935.7266,W,1,11,1.6,16,M,,M,,*67
05/30/2014	19:52:51.866	$GPGGA,195300,2517.2397,N,07935.7280,W,1,11,1.6,16,M,,M,,*65
05/30/2014	19:52:52.857	$GPGGA,195301,2517.2404,N,07935.7294,W,1,11,1.6,16,M,,M,,*6C
05/30/2014	19:52:53.826	$GPGGA,195302,2517.2411,N,07935.7308,W,1,11,1.6,16,M,,M,,*6F
05/30/2014	19:52:54.846	$GPGGA,195303,2517.2419,N,07935.7321,W,1,11,1.6,16,M,,M,,*6D
05/30/2014	19:52:55.846	$GPGGA,195304,2517.2426,N,07935.7335,W,1,11,1.6,16,M,,M,,*63
05/30/2014	19:52:56.845	$GPGGA,195305,2517.2433,N,07935.7349,W,1,11,1.6,16,M,,M,,*6D
05/30/2014	19:52:57.815	$GPGGA,195306,2517.2440,N,07935.7364,W,1,11,1.6,16,M,,M,,*65
05/30/2014	19:52:58.815	$GPGGA,195307,2517.2447,N,07935.7378,W,1,11,1.6,16,M,,M,,*6E
05/30/2014	19:52:59.845	$GPGGA,195308,2517.2454,N,07935.7392,W,1,11,1.6,17,M,,M,,*66
05/30/2014	19:53:00.845	$GPGGA,195309,2517.2462,N,07935.7407,W,1,11,1.6,17,M,,M,,*69
