Software Version Number: 1	Data File Format Number: 1	Build Version Number: 1	Error Count Since VI Started: 0	Manufacturer: Raytheon	 Model Number: RayMarine 120	 S/N: 	 Cal Date: 	 Wind Direction Offset: 0.00	 Slope (M)1: 0.00	 Offset (B)1: 0.00	 Slope (M)2: 0.00	 Offset (B)2: 0.00	 Slope (M)3: 0.00	 Offset (B)3: 0.00	 Slope (M)4: 0.00	 Offset (B)4: 0.00	 Slope (M)5: 0.00	 Offset (B)5: 0.00	 Slope (M)6: 0.00	 Offset (B)6: 0.00
Computer Date	Computer Time	GGA String
06/03/2014	19:00:00.601	$GPGGA,190008,2543.8862,N,08009.7277,W,1,12,1.3,17,M,,M,,*67
06/03/2014	19:00:01.620	$GPGGA,190009,2543.8860,N,08009.7277,W,1,12,1.3,17,M,,M,,*64
06/03/2014	19:00:02.639	$GPGGA,190010,2543.8862,N,08009.7277,W,1,12,1.3,17,M,,M,,*6E
06/03/2014	19:00:03.669	$GPGGA,190011,2543.8860,N,08009.7277,W,1,12,1.3,17,M,,M,,*6D
06/03/2014	19:00:04.708	$GPGGA,190012,2543.8860,N,08009.7276,W,1,12,1.3,17,M,,M,,*6F
06/03/2014	19:00:05.748	$GPGGA,190013,2543.8860,N,08009.7276,W,1,12,1.3,17,M,,M,,*6E
06/03/2014	19:00:06.736	$GPGGA,190014,2543.8862,N,08009.7276,W,1,12,1.3,17,M,,M,,*6B
06/03/2014	19:00:07.786	$GPGGA,190015,2543.8861,N,08009.7276,W,1,12,1.3,17,M,,M,,*69
06/03/2014	19:00:08.815	$GPGGA,190016,2543.8860,N,08009.7275,W,1,12,1.3,17,M,,M,,*68
06/03/2014	19:00:09.855	$GPGGA,190017,2543.8860,N,08009.7276,W,1,12,1.3,17,M,,M,,*6A
06/03/2014	19:00:10.850	$GPGGA,190018,2543.8860,N,08009.7274,W,1,12,1.3,17,M,,M,,*67
06/03/2014	19:00:11.872	$GPGGA,190019,2543.8860,N,08009.7274,W,1,12,1.3,17,M,,M,,*66
06/03/2014	19:00:12.922	$GPGGA,190020,2543.8859,N,08009.7273,W,1,12,1.3,17,M,,M,,*61
06/03/2014	19:00:13.962	$GPGGA,190021,2543.8860,N,08009.7274,W,1,12,1.3,17,M,,M,,*6D
06/03/2014	19:00:14.950	$GPGGA,190022,2543.8859,N,08009.7274,W,1,12,1.3,17,M,,M,,*64
06/03/2014	19:00:15.979	$GPGGA,190023,2543.8860,N,08009.7273,W,1,12,1.3,16,M,,M,,*69
06/03/2014	19:00:17.045	$GPGGA,190024,2543.8859,N,08009.7273,W,1,12,1.3,16,M,,M,,*64
06/03/2014	19:00:18.085	$GPGGA,190025,2543.8858,N,08009.7273,W,1,12,1.3,16,M,,M,,*64
06/03/2014	19:00:19.076	$GPGGA,190026,2543.8859,N,08009.7272,W,1,12,1.3,16,M,,M,,*67
06/03/2014	19:00:20.095	$GPGGA,190027,2543.8858,N,08009.7272,W,1,12,1.3,16,M,,M,,*67
06/03/2014	19:00:21.124	$GPGGA,190028,2543.8859,N,08009.7271,W,1,12,1.3,16,M,,M,,*6A
06/03/2014	19:00:22.205	$GPGGA,190029,2543.8858,N,08009.7272,W,1,12,1.3,16,M,,M,,*69
06/03/2014	19:00:23.173	$GPGGA,190030,2543.8859,N,08009.7270,W,1,12,1.3,16,M,,M,,*62
06/03/2014	19:00:22.446	$GPGGA,190031,2543.8858,N,08009.7270,W,1,12,1.3,16,M,,M,,*62
06/03/2014	19:00:23.499	$GPGGA,190032,2543.8859,N,08009.7269,W,1,12,1.3,16,M,,M,,*68
06/03/2014	19:00:24.536	$GPGGA,190033,2543.8857,N,08009.7269,W,1,12,1.3,16,M,,M,,*67
06/03/2014	19:00:25.545	$GPGGA,190034,2543.8857,N,08009.7269,W,1,12,1.3,16,M,,M,,*60
06/03/2014	19:00:26.574	$GPGGA,190035,2543.8857,N,08009.7269,W,1,12,1.3,16,M,,M,,*61
06/03/2014	19:00:27.593	$GPGGA,190036,2543.8857,N,08009.7269,W,1,12,1.3,16,M,,M,,*62
06/03/2014	19:00:28.735	$GPGGA,190037,2543.8857,N,08009.7270,W,1,12,1.3,15,M,,M,,*68
06/03/2014	19:00:29.651	$GPGGA,190038,2543.8857,N,08009.7270,W,1,12,1.3,15,M,,M,,*67
06/03/2014	19:00:30.680	$GPGGA,190039,2543.8857,N,08009.7270,W,1,12,1.3,15,M,,M,,*66
06/03/2014	19:00:31.710	$GPGGA,190040,2543.8857,N,08009.7269,W,1,12,1.3,15,M,,M,,*60
06/03/2014	19:00:32.832	$GPGGA,190041,2543.8857,N,08009.7270,W,1,12,1.3,15,M,,M,,*69
06/03/2014	19:00:33.757	$GPGGA,190042,2543.8857,N,08009.7270,W,1,12,1.3,15,M,,M,,*6A
06/03/2014	19:00:34.797	$GPGGA,190043,2543.8857,N,08009.7270,W,1,12,1.3,15,M,,M,,*6B
06/03/2014	19:00:35.805	$GPGGA,190044,2543.8857,N,08009.7270,W,1,12,1.3,15,M,,M,,*6C
06/03/2014	19:00:36.958	$GPGGA,190045,2543.8857,N,08009.7272,W,1,12,1.3,15,M,,M,,*6F
06/03/2014	19:00:37.864	$GPGGA,190046,2543.8857,N,08009.7271,W,1,12,1.3,15,M,,M,,*6F
06/03/2014	19:00:38.893	$GPGGA,190047,2543.8857,N,08009.7272,W,1,12,1.3,15,M,,M,,*6D
06/03/2014	19:00:40.036	$GPGGA,190048,2543.8859,N,08009.7271,W,1,12,1.3,15,M,,M,,*6F
06/03/2014	19:00:41.034	$GPGGA,190049,2543.8858,N,08009.7272,W,1,12,1.3,15,M,,M,,*6C
06/03/2014	19:00:42.352	$GPGGA,190050,2543.8859,N,08009.7272,W,1,12,1.3,15,M,,M,,*65
06/03/2014	19:00:43.090	$GPGGA,190051,2543.8858,N,08009.7272,W,1,12,1.3,15,M,,M,,*65
06/03/2014	19:00:44.122	$GPGGA,190052,2543.8859,N,08009.7273,W,1,12,1.3,15,M,,M,,*66
06/03/2014	19:00:45.151	$GPGGA,190053,2543.8858,N,08009.7273,W,1,12,1.3,15,M,,M,,*66
06/03/2014	19:00:46.164	$GPGGA,190054,2543.8859,N,08009.7273,W,1,12,1.3,15,M,,M,,*60
06/03/2014	19:00:47.200	$GPGGA,190055,2543.8858,N,08009.7273,W,1,12,1.3,15,M,,M,,*60
06/03/2014	19:00:48.239	$GPGGA,190056,2543.8859,N,08009.7274,W,1,12,1.3,15,M,,M,,*65
06/03/2014	19:00:49.279	$GPGGA,190057,2543.8858,N,08009.7274,W,1,12,1.3,15,M,,M,,*65
06/03/2014	19:00:50.277	$GPGGA,190058,2543.8859,N,08009.7274,W,1,12,1.3,15,M,,M,,*6B
06/03/2014	19:00:51.306	$GPGGA,190059,2543.8858,N,08009.7274,W,1,12,1.3,15,M,,M,,*6B
06/03/2014	19:00:52.366	$GPGGA,190100,2543.8859,N,08009.7274,W,1,12,1.3,15,M,,M,,*67
06/03/2014	19:00:53.385	$GPGGA,190101,2543.8858,N,08009.7274,W,1,12,1.3,15,M,,M,,*67
06/03/2014	19:00:54.383	$GPGGA,190102,2543.8859,N,08009.7274,W,1,12,1.3,15,M,,M,,*65
06/03/2014	19:00:55.443	$GPGGA,190103,2543.8858,N,08009.7273,W,1,12,1.3,15,M,,M,,*62
06/03/2014	19:00:56.462	$GPGGA,190104,2543.8859,N,08009.7273,W,1,12,1.3,15,M,,M,,*64
06/03/2014	19:00:57.492	$GPGGA,190105,2543.8860,N,08009.7273,W,1,12,1.3,15,M,,M,,*6F
06/03/2014	19:00:58.494	$GPGGA,190106,2543.8859,N,08009.7273,W,1,12,1.3,15,M,,M,,*66
06/03/2014	19:00:59.521	$GPGGA,190107,2543.8860,N,08009.7273,W,1,12,1.3,15,M,,M,,*6D
06/03/2014	19:01:00.569	$GPGGA,190108,2543.8859,N,08009.7273,W,1,12,1.3,15,M,,M,,*68
06/03/2014	19:01:01.599	$GPGGA,190109,2543.8860,N,08009.7273,W,1,12,1.3,15,M,,M,,*63
06/03/2014	19:01:02.648	$GPGGA,190110,2543.8860,N,08009.7273,W,1,12,1.3,15,M,,M,,*6B
06/03/2014	19:01:03.667	$GPGGA,190111,2543.8859,N,08009.7272,W,1,12,1.3,15,M,,M,,*61
06/03/2014	19:01:04.673	$GPGGA,190112,2543.8860,N,08009.7272,W,1,12,1.3,15,M,,M,,*68
06/03/2014	19:01:05.685	$GPGGA,190113,2543.8858,N,08009.7271,W,1,11,1.6,15,M,,M,,*67
06/03/2014	19:01:06.732	$GPGGA,190114,2543.8857,N,08009.7270,W,1,11,1.3,15,M,,M,,*6B
06/03/2014	19:01:07.774	$GPGGA,190115,2543.8857,N,08009.7270,W,1,12,1.3,15,M,,M,,*69
06/03/2014	19:01:08.773	$GPGGA,190116,2543.8855,N,08009.7270,W,1,12,1.6,15,M,,M,,*6D
06/03/2014	19:01:09.823	$GPGGA,190117,2543.8856,N,08009.7269,W,1,12,1.3,15,M,,M,,*62
06/03/2014	19:01:10.820	$GPGGA,190118,2543.8854,N,08009.7269,W,1,12,1.6,15,M,,M,,*6A
06/03/2014	19:01:11.860	$GPGGA,190119,2543.8853,N,08009.7268,W,1,12,1.3,15,M,,M,,*68
06/03/2014	19:01:12.905	$GPGGA,190120,2543.8853,N,08009.7269,W,1,12,1.3,14,M,,M,,*62
06/03/2014	19:01:13.898	$GPGGA,190121,2543.8855,N,08009.7269,W,1,12,1.3,14,M,,M,,*65
06/03/2014	19:01:14.948	$GPGGA,190122,2543.8854,N,08009.7268,W,1,12,1.3,14,M,,M,,*66
06/03/2014	19:01:15.967	$GPGGA,190123,2543.8855,N,08009.7269,W,1,12,1.3,14,M,,M,,*67
06/03/2014	19:01:17.119	$GPGGA,190124,2543.8854,N,08009.7269,W,1,12,1.3,14,M,,M,,*61
06/03/2014	19:01:18.005	$GPGGA,190125,2543.8855,N,08009.7268,W,1,12,1.3,14,M,,M,,*60
06/03/2014	19:01:19.157	$GPGGA,190126,2543.8854,N,08009.7269,W,1,12,1.3,14,M,,M,,*63
06/03/2014	19:01:20.239	$GPGGA,190127,2543.8855,N,08009.7268,W,1,12,1.3,14,M,,M,,*62
06/03/2014	19:01:21.113	$GPGGA,190128,2543.8853,N,08009.7269,W,1,12,1.3,14,M,,M,,*6A
06/03/2014	19:01:22.235	$GPGGA,190129,2543.8853,N,08009.7268,W,1,12,1.3,14,M,,M,,*6A
06/03/2014	19:01:23.326	$GPGGA,190130,2543.8853,N,08009.7269,W,1,12,1.3,14,M,,M,,*63
06/03/2014	19:01:22.537	$GPGGA,190131,2543.8855,N,08009.7268,W,1,12,1.3,14,M,,M,,*65
06/03/2014	19:01:23.453	$GPGGA,190132,2543.8854,N,08009.7269,W,1,12,1.3,14,M,,M,,*66
06/03/2014	19:01:24.482	$GPGGA,190133,2543.8856,N,08009.7269,W,1,12,1.3,14,M,,M,,*65
06/03/2014	19:01:25.593	$GPGGA,190134,2543.8855,N,08009.7269,W,1,12,1.3,14,M,,M,,*61
06/03/2014	19:01:26.642	$GPGGA,190135,2543.8857,N,08009.7270,W,1,12,1.3,14,M,,M,,*6A
06/03/2014	19:01:27.579	$GPGGA,190136,2543.8857,N,08009.7270,W,1,12,1.3,14,M,,M,,*69
06/03/2014	19:01:28.732	$GPGGA,190137,2543.8857,N,08009.7270,W,1,12,1.3,14,M,,M,,*68
06/03/2014	19:01:29.720	$GPGGA,190138,2543.8857,N,08009.7272,W,1,12,1.3,14,M,,M,,*65
06/03/2014	19:01:30.760	$GPGGA,190139,2543.8859,N,08009.7271,W,1,12,1.3,14,M,,M,,*69
06/03/2014	19:01:31.779	$GPGGA,190140,2543.8858,N,08009.7272,W,1,12,1.3,14,M,,M,,*65
06/03/2014	19:01:32.818	$GPGGA,190141,2543.8857,N,08009.7271,W,1,12,1.3,14,M,,M,,*68
06/03/2014	19:01:33.817	$GPGGA,190142,2543.8857,N,08009.7272,W,1,12,1.3,14,M,,M,,*68
06/03/2014	19:01:34.856	$GPGGA,190143,2543.8857,N,08009.7270,W,1,12,1.3,14,M,,M,,*6B
06/03/2014	19:01:35.886	$GPGGA,190144,2543.8857,N,08009.7272,W,1,12,1.3,14,M,,M,,*6E
06/03/2014	19:01:36.935	$GPGGA,190145,2543.8857,N,08009.7270,W,1,12,1.3,14,M,,M,,*6D
06/03/2014	19:01:37.934	$GPGGA,190146,2543.8859,N,08009.7270,W,1,12,1.3,14,M,,M,,*60
06/03/2014	19:01:38.994	$GPGGA,190147,2543.8858,N,08009.7270,W,1,12,1.3,14,M,,M,,*60
06/03/2014	19:01:39.993	$GPGGA,190148,2543.8857,N,08009.7270,W,1,12,1.3,14,M,,M,,*60
06/03/2014	19:01:41.032	$GPGGA,190149,2543.8859,N,08009.7270,W,1,12,1.3,14,M,,M,,*6F
06/03/2014	19:01:42.055	$GPGGA,190150,2543.8858,N,08009.7270,W,1,12,1.3,14,M,,M,,*66
06/03/2014	19:01:43.091	$GPGGA,190151,2543.8859,N,08009.7270,W,1,12,1.3,14,M,,M,,*66
06/03/2014	19:01:44.112	$GPGGA,190152,2543.8858,N,08009.7270,W,1,12,1.3,14,M,,M,,*64
06/03/2014	19:01:45.148	$GPGGA,190153,2543.8859,N,08009.7270,W,1,12,1.3,14,M,,M,,*64
06/03/2014	19:01:46.148	$GPGGA,190154,2543.8858,N,08009.7269,W,1,12,1.3,14,M,,M,,*6A
06/03/2014	19:01:47.207	$GPGGA,190155,2543.8859,N,08009.7269,W,1,12,1.3,14,M,,M,,*6A
06/03/2014	19:01:48.209	$GPGGA,190156,2543.8858,N,08009.7269,W,1,12,1.3,14,M,,M,,*68
06/03/2014	19:01:49.245	$GPGGA,190157,2543.8859,N,08009.7269,W,1,12,1.3,14,M,,M,,*68
06/03/2014	19:01:50.243	$GPGGA,190158,2543.8860,N,08009.7269,W,1,12,1.3,14,M,,M,,*6D
06/03/2014	19:01:51.303	$GPGGA,190159,2543.8859,N,08009.7270,W,1,12,1.3,14,M,,M,,*6E
06/03/2014	19:01:52.343	$GPGGA,190200,2543.8860,N,08009.7270,W,1,12,1.3,14,M,,M,,*6B
06/03/2014	19:01:53.372	$GPGGA,190201,2543.8860,N,08009.7270,W,1,12,1.3,14,M,,M,,*6A
06/03/2014	19:01:54.371	$GPGGA,190202,2543.8860,N,08009.7270,W,1,12,1.3,14,M,,M,,*69
06/03/2014	19:01:55.400	$GPGGA,190203,2543.8860,N,08009.7272,W,1,12,1.3,14,M,,M,,*6A
06/03/2014	19:01:56.429	$GPGGA,190204,2543.8860,N,08009.7271,W,1,12,1.3,14,M,,M,,*6E
06/03/2014	19:01:57.461	$GPGGA,190205,2543.8860,N,08009.7272,W,1,12,1.3,14,M,,M,,*6C
06/03/2014	19:01:58.467	$GPGGA,190206,2543.8862,N,08009.7271,W,1,12,1.3,14,M,,M,,*6E
06/03/2014	19:01:59.558	$GPGGA,190207,2543.8861,N,08009.7272,W,1,12,1.3,14,M,,M,,*6F
06/03/2014	19:02:00.548	$GPGGA,190208,2543.8862,N,08009.7271,W,1,12,1.3,14,M,,M,,*60
06/03/2014	19:02:01.565	$GPGGA,190209,2543.8861,N,08009.7272,W,1,12,1.3,14,M,,M,,*61
06/03/2014	19:02:02.594	$GPGGA,190210,2543.8862,N,08009.7271,W,1,12,1.3,14,M,,M,,*69
06/03/2014	19:02:03.726	$GPGGA,190211,2543.8861,N,08009.7272,W,1,12,1.3,14,M,,M,,*68
06/03/2014	19:02:04.665	$GPGGA,190212,2543.8863,N,08009.7271,W,1,12,1.3,14,M,,M,,*6A
06/03/2014	19:02:05.774	$GPGGA,190213,2543.8862,N,08009.7272,W,1,12,1.3,14,M,,M,,*69
06/03/2014	19:02:06.701	$GPGGA,190214,2543.8863,N,08009.7271,W,1,12,1.3,14,M,,M,,*6C
06/03/2014	19:02:07.720	$GPGGA,190215,2543.8862,N,08009.7272,W,1,12,1.3,14,M,,M,,*6F
06/03/2014	19:02:08.862	$GPGGA,190216,2543.8861,N,08009.7271,W,1,12,1.3,14,M,,M,,*6C
06/03/2014	19:02:09.799	$GPGGA,190217,2543.8862,N,08009.7272,W,1,12,1.3,15,M,,M,,*6C
06/03/2014	19:02:10.900	$GPGGA,190218,2543.8861,N,08009.7271,W,1,12,1.3,15,M,,M,,*63
06/03/2014	19:02:11.827	$GPGGA,190219,2543.8862,N,08009.7272,W,1,12,1.3,14,M,,M,,*63
06/03/2014	19:02:12.959	$GPGGA,190220,2543.8861,N,08009.7270,W,1,12,1.3,14,M,,M,,*68
06/03/2014	19:02:13.978	$GPGGA,190221,2543.8862,N,08009.7270,W,1,12,1.3,14,M,,M,,*6A
06/03/2014	19:02:14.925	$GPGGA,190222,2543.8860,N,08009.7272,W,1,12,1.3,14,M,,M,,*69
06/03/2014	19:02:16.026	$GPGGA,190223,2543.8860,N,08009.7271,W,1,12,1.4,14,M,,M,,*6C
06/03/2014	19:02:17.076	$GPGGA,190224,2543.8859,N,08009.7272,W,1,12,1.3,14,M,,M,,*65
06/03/2014	19:02:18.095	$GPGGA,190225,2543.8860,N,08009.7271,W,1,12,1.3,14,M,,M,,*6D
06/03/2014	19:02:19.104	$GPGGA,190226,2543.8859,N,08009.7270,W,1,12,1.3,14,M,,M,,*65
06/03/2014	19:02:20.184	$GPGGA,190227,2543.8860,N,08009.7270,W,1,12,1.3,14,M,,M,,*6E
06/03/2014	19:02:21.182	$GPGGA,190228,2543.8859,N,08009.7270,W,1,12,1.3,14,M,,M,,*6B
06/03/2014	19:02:22.222	$GPGGA,190229,2543.8860,N,08009.7270,W,1,12,1.3,14,M,,M,,*60
06/03/2014	19:02:23.210	$GPGGA,190230,2543.8859,N,08009.7270,W,1,12,1.3,14,M,,M,,*62
06/03/2014	19:02:22.493	$GPGGA,190231,2543.8860,N,08009.7270,W,1,12,1.3,14,M,,M,,*69
06/03/2014	19:02:23.533	$GPGGA,190232,2543.8859,N,08009.7270,W,1,12,1.3,14,M,,M,,*60
06/03/2014	19:02:24.562	$GPGGA,190233,2543.8860,N,08009.7270,W,1,12,1.3,14,M,,M,,*6B
06/03/2014	19:02:25.561	$GPGGA,190234,2543.8859,N,08009.7270,W,1,12,1.3,14,M,,M,,*66
06/03/2014	19:02:26.621	$GPGGA,190235,2543.8860,N,08009.7270,W,1,12,1.3,14,M,,M,,*6D
06/03/2014	19:02:27.640	$GPGGA,190236,2543.8859,N,08009.7270,W,1,12,1.3,14,M,,M,,*64
06/03/2014	19:02:28.679	$GPGGA,190237,2543.8860,N,08009.7270,W,1,12,1.3,14,M,,M,,*6F
06/03/2014	19:02:29.680	$GPGGA,190238,2543.8860,N,08009.7270,W,1,12,1.3,14,M,,M,,*60
06/03/2014	19:02:30.728	$GPGGA,190239,2543.8860,N,08009.7270,W,1,12,1.3,14,M,,M,,*61
06/03/2014	19:02:31.736	$GPGGA,190240,2543.8860,N,08009.7272,W,1,12,1.3,14,M,,M,,*6D
06/03/2014	19:02:32.786	$GPGGA,190241,2543.8859,N,08009.7271,W,1,12,1.3,14,M,,M,,*65
06/03/2014	19:02:33.796	$GPGGA,190242,2543.8860,N,08009.7270,W,1,12,1.6,14,M,,M,,*68
06/03/2014	19:02:34.824	$GPGGA,190243,2543.8859,N,08009.7270,W,1,11,1.6,14,M,,M,,*60
06/03/2014	19:02:35.857	$GPGGA,190244,2543.8858,N,08009.7270,W,1,11,1.6,14,M,,M,,*66
06/03/2014	19:02:36.903	$GPGGA,190245,2543.8859,N,08009.7270,W,1,11,1.6,14,M,,M,,*66
06/03/2014	19:02:37.901	$GPGGA,190246,2543.8858,N,08009.7269,W,1,11,1.6,14,M,,M,,*6C
06/03/2014	19:02:38.920	$GPGGA,190247,2543.8859,N,08009.7269,W,1,11,1.6,14,M,,M,,*6C
06/03/2014	19:02:39.971	$GPGGA,190248,2543.8857,N,08009.7269,W,1,11,1.6,14,M,,M,,*6D
06/03/2014	19:02:40.979	$GPGGA,190249,2543.8859,N,08009.7269,W,1,11,1.6,14,M,,M,,*62
06/03/2014	19:02:42.025	$GPGGA,190250,2543.8858,N,08009.7269,W,1,11,1.6,14,M,,M,,*6B
06/03/2014	19:02:43.038	$GPGGA,190251,2543.8859,N,08009.7268,W,1,11,1.6,14,M,,M,,*6A
06/03/2014	19:02:44.078	$GPGGA,190252,2543.8858,N,08009.7269,W,1,11,1.6,14,M,,M,,*69
06/03/2014	19:02:45.096	$GPGGA,190253,2543.8859,N,08009.7268,W,1,11,1.6,14,M,,M,,*68
06/03/2014	19:02:46.104	$GPGGA,190254,2543.8858,N,08009.7269,W,1,11,1.6,14,M,,M,,*6F
06/03/2014	19:02:47.169	$GPGGA,190255,2543.8859,N,08009.7268,W,1,11,1.6,14,M,,M,,*6E
06/03/2014	19:02:48.297	$GPGGA,190256,2543.8860,N,08009.7269,W,1,11,1.6,14,M,,M,,*66
06/03/2014	19:02:49.213	$GPGGA,190257,2543.8859,N,08009.7268,W,1,11,1.6,14,M,,M,,*6C
06/03/2014	19:02:50.222	$GPGGA,190258,2543.8860,N,08009.7267,W,1,11,1.6,14,M,,M,,*66
06/03/2014	19:02:51.272	$GPGGA,190259,2543.8859,N,08009.7269,W,1,11,1.6,14,M,,M,,*63
06/03/2014	19:02:52.312	$GPGGA,190300,2543.8860,N,08009.7268,W,1,11,1.6,14,M,,M,,*65
06/03/2014	19:02:53.320	$GPGGA,190301,2543.8860,N,08009.7267,W,1,11,1.6,14,M,,M,,*6B
06/03/2014	19:02:54.328	$GPGGA,190302,2543.8859,N,08009.7269,W,1,11,1.6,14,M,,M,,*6C
06/03/2014	19:02:55.491	$GPGGA,190303,2543.8860,N,08009.7267,W,1,11,1.6,14,M,,M,,*69
06/03/2014	19:02:56.499	$GPGGA,190304,2543.8859,N,08009.7267,W,1,11,1.6,13,M,,M,,*63
06/03/2014	19:02:57.518	$GPGGA,190305,2543.8860,N,08009.7267,W,1,11,1.6,13,M,,M,,*68
06/03/2014	19:02:58.455	$GPGGA,190306,2543.8864,N,08009.7270,W,1,11,1.6,13,M,,M,,*69
06/03/2014	19:02:59.464	$GPGGA,190307,2543.8864,N,08009.7270,W,1,12,1.3,13,M,,M,,*6E
06/03/2014	19:03:00.606	$GPGGA,190308,2543.8864,N,08009.7270,W,1,12,1.6,14,M,,M,,*63
06/03/2014	19:03:01.522	$GPGGA,190309,2543.8864,N,08009.7270,W,1,11,1.6,14,M,,M,,*61
06/03/2014	19:03:02.655	$GPGGA,190310,2543.8862,N,08009.7270,W,1,11,1.6,14,M,,M,,*6F
06/03/2014	19:03:03.715	$GPGGA,190311,2543.8863,N,08009.7270,W,1,11,1.6,14,M,,M,,*6F
06/03/2014	19:03:04.723	$GPGGA,190312,2543.8862,N,08009.7270,W,1,11,1.6,14,M,,M,,*6D
06/03/2014	19:03:05.732	$GPGGA,190313,2543.8863,N,08009.7270,W,1,11,1.6,14,M,,M,,*6D
06/03/2014	19:03:06.761	$GPGGA,190314,2543.8862,N,08009.7269,W,1,11,1.6,14,M,,M,,*63
06/03/2014	19:03:07.791	$GPGGA,190315,2543.8861,N,08009.7269,W,1,11,1.6,14,M,,M,,*61
06/03/2014	19:03:08.830	$GPGGA,190316,2543.8860,N,08009.7269,W,1,11,1.6,14,M,,M,,*63
06/03/2014	19:03:09.849	$GPGGA,190317,2543.8860,N,08009.7268,W,1,11,1.6,14,M,,M,,*63
06/03/2014	19:03:10.868	$GPGGA,190318,2543.8864,N,08009.7270,W,1,11,1.6,14,M,,M,,*61
06/03/2014	19:03:11.928	$GPGGA,190319,2543.8862,N,08009.7269,W,1,12,1.3,14,M,,M,,*68
06/03/2014	19:03:12.936	$GPGGA,190320,2543.8861,N,08009.7269,W,1,12,1.6,14,M,,M,,*64
06/03/2014	19:03:13.961	$GPGGA,190321,2543.8864,N,08009.7270,W,1,11,1.6,14,M,,M,,*6B
06/03/2014	19:03:14.953	$GPGGA,190322,2543.8862,N,08009.7269,W,1,11,1.3,14,M,,M,,*63
06/03/2014	19:03:15.966	$GPGGA,190323,2543.8861,N,08009.7269,W,1,11,1.6,14,M,,M,,*64
06/03/2014	19:03:16.978	$GPGGA,190324,2543.8860,N,08009.7268,W,1,11,1.6,14,M,,M,,*63
06/03/2014	19:03:17.990	$GPGGA,190325,2543.8859,N,08009.7267,W,1,11,1.6,14,M,,M,,*67
06/03/2014	19:03:18.984	$GPGGA,190326,2543.8860,N,08009.7267,W,1,11,1.6,14,M,,M,,*6E
06/03/2014	19:03:20.035	$GPGGA,190327,2543.8858,N,08009.7267,W,1,11,1.6,14,M,,M,,*64
06/03/2014	19:03:21.016	$GPGGA,190328,2543.8859,N,08009.7266,W,1,11,1.6,14,M,,M,,*6B
06/03/2014	19:03:22.049	$GPGGA,190329,2543.8863,N,08009.7269,W,1,12,1.3,14,M,,M,,*6A
06/03/2014	19:03:23.026	$GPGGA,190330,2543.8866,N,08009.7272,W,1,12,1.3,14,M,,M,,*6D
06/03/2014	19:03:22.487	$GPGGA,190331,2543.8868,N,08009.7273,W,1,12,1.3,14,M,,M,,*63
06/03/2014	19:03:23.489	$GPGGA,190332,2543.8870,N,08009.7274,W,1,12,1.3,14,M,,M,,*6E
06/03/2014	19:03:24.471	$GPGGA,190333,2543.8873,N,08009.7276,W,1,12,1.3,14,M,,M,,*6E
06/03/2014	19:03:25.493	$GPGGA,190334,2543.8875,N,08009.7277,W,1,12,1.3,14,M,,M,,*6E
06/03/2014	19:03:26.526	$GPGGA,190335,2543.8877,N,08009.7279,W,1,12,1.3,14,M,,M,,*63
06/03/2014	19:03:27.520	$GPGGA,190336,2543.8878,N,08009.7280,W,1,12,1.3,15,M,,M,,*68
06/03/2014	19:03:28.529	$GPGGA,190337,2543.8881,N,08009.7281,W,1,12,1.3,15,M,,M,,*6E
06/03/2014	19:03:29.531	$GPGGA,190338,2543.8882,N,08009.7283,W,1,12,1.3,15,M,,M,,*60
06/03/2014	19:03:30.543	$GPGGA,190339,2543.8882,N,08009.7282,W,1,12,1.3,16,M,,M,,*63
06/03/2014	19:03:31.555	$GPGGA,190340,2543.8884,N,08009.7283,W,1,12,1.3,16,M,,M,,*6A
06/03/2014	19:03:32.598	$GPGGA,190341,2543.8885,N,08009.7284,W,1,12,1.3,16,M,,M,,*6D
06/03/2014	19:03:33.570	$GPGGA,190342,2543.8885,N,08009.7284,W,1,12,1.3,17,M,,M,,*6F
06/03/2014	19:03:34.592	$GPGGA,190343,2543.8886,N,08009.7285,W,1,12,1.3,17,M,,M,,*6C
06/03/2014	19:03:35.604	$GPGGA,190344,2543.8888,N,08009.7285,W,1,12,1.3,17,M,,M,,*65
06/03/2014	19:03:36.623	$GPGGA,190345,2543.8887,N,08009.7287,W,1,12,1.3,17,M,,M,,*69
06/03/2014	19:03:37.608	$GPGGA,190346,2543.8888,N,08009.7285,W,1,12,1.3,18,M,,M,,*68
06/03/2014	19:03:38.611	$GPGGA,190347,2543.8886,N,08009.7285,W,1,12,1.3,18,M,,M,,*67
06/03/2014	19:03:39.754	$GPGGA,190348,2543.8888,N,08009.7285,W,1,12,1.3,18,M,,M,,*66
06/03/2014	19:03:40.786	$GPGGA,190349,2543.8887,N,08009.7285,W,1,12,1.3,18,M,,M,,*68
06/03/2014	19:03:41.738	$GPGGA,190350,2543.8888,N,08009.7284,W,1,12,1.3,19,M,,M,,*6F
06/03/2014	19:03:42.781	$GPGGA,190351,2543.8886,N,08009.7284,W,1,12,1.3,19,M,,M,,*60
06/03/2014	19:03:43.682	$GPGGA,190352,2543.8886,N,08009.7284,W,1,12,1.3,19,M,,M,,*63
06/03/2014	19:03:44.785	$GPGGA,190353,2543.8886,N,08009.7283,W,1,12,1.3,19,M,,M,,*65
06/03/2014	19:03:45.695	$GPGGA,190354,2543.8886,N,08009.7283,W,1,12,1.3,19,M,,M,,*62
06/03/2014	19:03:46.798	$GPGGA,190355,2543.8885,N,08009.7283,W,1,12,1.3,20,M,,M,,*6A
06/03/2014	19:03:47.821	$GPGGA,190356,2543.8884,N,08009.7282,W,1,12,1.3,20,M,,M,,*69
06/03/2014	19:03:48.853	$GPGGA,190357,2543.8885,N,08009.7283,W,1,12,1.3,20,M,,M,,*68
06/03/2014	19:03:49.825	$GPGGA,190358,2543.8884,N,08009.7282,W,1,12,1.3,20,M,,M,,*67
06/03/2014	19:03:50.827	$GPGGA,190359,2543.8885,N,08009.7283,W,1,12,1.3,20,M,,M,,*66
06/03/2014	19:03:51.869	$GPGGA,190400,2543.8884,N,08009.7282,W,1,12,1.3,20,M,,M,,*6D
06/03/2014	19:03:52.871	$GPGGA,190401,2543.8885,N,08009.7283,W,1,12,1.3,20,M,,M,,*6C
06/03/2014	19:03:53.873	$GPGGA,190402,2543.8884,N,08009.7282,W,1,12,1.3,20,M,,M,,*6F
06/03/2014	19:03:54.906	$GPGGA,190403,2543.8883,N,08009.7283,W,1,12,1.3,20,M,,M,,*68
06/03/2014	19:03:55.908	$GPGGA,190404,2543.8884,N,08009.7282,W,1,12,1.3,20,M,,M,,*69
06/03/2014	19:03:56.900	$GPGGA,190405,2543.8882,N,08009.7281,W,1,12,1.3,20,M,,M,,*6D
06/03/2014	19:03:57.902	$GPGGA,190406,2543.8882,N,08009.7281,W,1,12,1.3,20,M,,M,,*6E
06/03/2014	19:03:58.945	$GPGGA,190407,2543.8882,N,08009.7281,W,1,12,1.3,20,M,,M,,*6F
06/03/2014	19:03:59.937	$GPGGA,190408,2543.8882,N,08009.7280,W,1,12,1.3,20,M,,M,,*61
06/03/2014	19:04:00.959	$GPGGA,190409,2543.8880,N,08009.7280,W,1,12,1.3,21,M,,M,,*63
06/03/2014	19:04:01.951	$GPGGA,190410,2543.8881,N,08009.7281,W,1,12,1.3,21,M,,M,,*6B
06/03/2014	19:04:02.982	$GPGGA,190411,2543.8880,N,08009.7281,W,1,12,1.3,21,M,,M,,*6B
06/03/2014	19:04:03.994	$GPGGA,190412,2543.8879,N,08009.7281,W,1,12,1.3,21,M,,M,,*6E
06/03/2014	19:04:04.997	$GPGGA,190413,2543.8880,N,08009.7281,W,1,12,1.3,21,M,,M,,*69
06/03/2014	19:04:05.983	$GPGGA,190414,2543.8879,N,08009.7281,W,1,12,1.3,21,M,,M,,*68
06/03/2014	19:04:06.994	$GPGGA,190415,2543.8880,N,08009.7281,W,1,12,1.3,21,M,,M,,*6F
06/03/2014	19:04:08.023	$GPGGA,190416,2543.8879,N,08009.7281,W,1,12,1.3,21,M,,M,,*6A
06/03/2014	19:04:09.021	$GPGGA,190417,2543.8880,N,08009.7280,W,1,12,1.3,21,M,,M,,*6C
06/03/2014	19:04:10.038	$GPGGA,190418,2543.8879,N,08009.7280,W,1,12,1.3,21,M,,M,,*65
06/03/2014	19:04:11.029	$GPGGA,190419,2543.8878,N,08009.7280,W,1,12,1.3,21,M,,M,,*65
06/03/2014	19:04:12.069	$GPGGA,190420,2543.8878,N,08009.7280,W,1,12,1.3,21,M,,M,,*6F
06/03/2014	19:04:13.092	$GPGGA,190421,2543.8877,N,08009.7280,W,1,12,1.3,21,M,,M,,*61
06/03/2014	19:04:14.081	$GPGGA,190422,2543.8876,N,08009.7279,W,1,12,1.3,20,M,,M,,*64
06/03/2014	19:04:15.095	$GPGGA,190423,2543.8877,N,08009.7280,W,1,12,1.3,20,M,,M,,*62
06/03/2014	19:04:16.124	$GPGGA,190424,2543.8876,N,08009.7280,W,1,12,1.3,20,M,,M,,*64
06/03/2014	19:04:17.133	$GPGGA,190425,2543.8875,N,08009.7279,W,1,12,1.3,20,M,,M,,*60
06/03/2014	19:04:18.115	$GPGGA,190426,2543.8875,N,08009.7280,W,1,12,1.3,20,M,,M,,*65
06/03/2014	19:04:19.160	$GPGGA,190427,2543.8875,N,08009.7279,W,1,12,1.3,20,M,,M,,*62
06/03/2014	19:04:20.165	$GPGGA,190428,2543.8875,N,08009.7280,W,1,12,1.3,20,M,,M,,*6B
06/03/2014	19:04:21.140	$GPGGA,190429,2543.8875,N,08009.7279,W,1,12,1.3,20,M,,M,,*6C
06/03/2014	19:04:22.162	$GPGGA,190430,2543.8873,N,08009.7280,W,1,12,1.3,20,M,,M,,*64
06/03/2014	19:04:22.444	$GPGGA,190431,2543.8874,N,08009.7279,W,1,12,1.3,20,M,,M,,*64
06/03/2014	19:04:23.547	$GPGGA,190432,2543.8873,N,08009.7280,W,1,12,1.3,20,M,,M,,*66
06/03/2014	19:04:24.630	$GPGGA,190433,2543.8872,N,08009.7279,W,1,12,1.3,20,M,,M,,*60
06/03/2014	19:04:25.470	$GPGGA,190434,2543.8873,N,08009.7280,W,1,12,1.3,20,M,,M,,*60
06/03/2014	19:04:26.563	$GPGGA,190435,2543.8872,N,08009.7278,W,1,12,1.3,20,M,,M,,*67
06/03/2014	19:04:27.484	$GPGGA,190436,2543.8873,N,08009.7279,W,1,12,1.3,19,M,,M,,*6E
06/03/2014	19:04:28.689	$GPGGA,190437,2543.8871,N,08009.7277,W,1,12,1.6,19,M,,M,,*66
06/03/2014	19:04:29.499	$GPGGA,190438,2543.8868,N,08009.7276,W,1,12,1.6,19,M,,M,,*60
06/03/2014	19:04:30.713	$GPGGA,190439,2543.8867,N,08009.7275,W,1,11,1.6,19,M,,M,,*6E
06/03/2014	19:04:31.655	$GPGGA,190440,2543.8865,N,08009.7274,W,1,11,1.6,19,M,,M,,*63
06/03/2014	19:04:32.535	$GPGGA,190441,2543.8864,N,08009.7273,W,1,11,1.6,19,M,,M,,*64
06/03/2014	19:04:33.679	$GPGGA,190442,2543.8864,N,08009.7273,W,1,11,1.6,18,M,,M,,*66
06/03/2014	19:04:34.732	$GPGGA,190443,2543.8862,N,08009.7272,W,1,11,1.6,18,M,,M,,*60
06/03/2014	19:04:35.582	$GPGGA,190444,2543.8861,N,08009.7272,W,1,11,1.6,18,M,,M,,*64
06/03/2014	19:04:36.777	$GPGGA,190445,2543.8859,N,08009.7272,W,1,11,1.6,18,M,,M,,*6E
06/03/2014	19:04:37.707	$GPGGA,190446,2543.8860,N,08009.7272,W,1,11,1.6,18,M,,M,,*67
06/03/2014	19:04:38.800	$GPGGA,190447,2543.8858,N,08009.7271,W,1,11,1.6,17,M,,M,,*61
06/03/2014	19:04:39.761	$GPGGA,190448,2543.8857,N,08009.7272,W,1,11,1.6,17,M,,M,,*62
06/03/2014	19:04:40.814	$GPGGA,190449,2543.8857,N,08009.7271,W,1,11,1.6,17,M,,M,,*60
06/03/2014	19:04:41.735	$GPGGA,190450,2543.8857,N,08009.7272,W,1,11,1.6,17,M,,M,,*6B
06/03/2014	19:04:42.838	$GPGGA,190451,2543.8857,N,08009.7271,W,1,11,1.6,17,M,,M,,*69
06/03/2014	19:04:43.810	$GPGGA,190452,2543.8855,N,08009.7272,W,1,11,1.6,16,M,,M,,*6A
06/03/2014	19:04:44.863	$GPGGA,190453,2543.8854,N,08009.7270,W,1,11,1.6,16,M,,M,,*68
06/03/2014	19:04:45.754	$GPGGA,190454,2543.8855,N,08009.7270,W,1,11,1.6,16,M,,M,,*6E
06/03/2014	19:04:46.867	$GPGGA,190455,2543.8854,N,08009.7270,W,1,11,1.6,16,M,,M,,*6E
06/03/2014	19:04:47.839	$GPGGA,190456,2543.8853,N,08009.7270,W,1,11,1.6,15,M,,M,,*69
06/03/2014	19:04:48.912	$GPGGA,190457,2543.8853,N,08009.7270,W,1,11,1.6,15,M,,M,,*68
06/03/2014	19:04:49.792	$GPGGA,190458,2543.8853,N,08009.7270,W,1,11,1.6,15,M,,M,,*67
06/03/2014	19:04:50.916	$GPGGA,190459,2543.8853,N,08009.7270,W,1,11,1.6,15,M,,M,,*66
06/03/2014	19:04:51.888	$GPGGA,190500,2543.8853,N,08009.7270,W,1,11,1.6,15,M,,M,,*6B
06/03/2014	19:04:52.950	$GPGGA,190501,2543.8851,N,08009.7270,W,1,11,1.6,14,M,,M,,*69
06/03/2014	19:04:53.882	$GPGGA,190502,2543.8852,N,08009.7270,W,1,11,1.6,14,M,,M,,*69
06/03/2014	19:04:54.844	$GPGGA,190503,2543.8851,N,08009.7270,W,1,11,1.6,14,M,,M,,*6B
06/03/2014	19:04:55.905	$GPGGA,190504,2543.8852,N,08009.7272,W,1,11,1.6,14,M,,M,,*6D
06/03/2014	19:04:56.958	$GPGGA,190505,2543.8851,N,08009.7271,W,1,11,1.6,14,M,,M,,*6C
06/03/2014	19:04:57.909	$GPGGA,190506,2543.8850,N,08009.7272,W,1,11,1.6,14,M,,M,,*6D
06/03/2014	19:04:58.992	$GPGGA,190507,2543.8850,N,08009.7271,W,1,11,1.6,13,M,,M,,*68
06/03/2014	19:04:59.944	$GPGGA,190508,2543.8850,N,08009.7272,W,1,11,1.6,13,M,,M,,*64
06/03/2014	19:05:00.905	$GPGGA,190509,2543.8850,N,08009.7271,W,1,11,1.6,13,M,,M,,*66
06/03/2014	19:05:01.907	$GPGGA,190510,2543.8850,N,08009.7272,W,1,11,1.6,13,M,,M,,*6D
06/03/2014	19:05:03.031	$GPGGA,190511,2543.8849,N,08009.7271,W,1,11,1.6,13,M,,M,,*67
06/03/2014	19:05:03.942	$GPGGA,190512,2543.8849,N,08009.7272,W,1,11,1.6,13,M,,M,,*67
06/03/2014	19:05:05.025	$GPGGA,190513,2543.8849,N,08009.7271,W,1,11,1.6,13,M,,M,,*65
06/03/2014	19:05:05.986	$GPGGA,190514,2543.8849,N,08009.7270,W,1,11,1.6,13,M,,M,,*63
06/03/2014	19:05:06.968	$GPGGA,190515,2543.8853,N,08009.7272,W,1,11,1.6,13,M,,M,,*6B
06/03/2014	19:05:08.021	$GPGGA,190516,2543.8853,N,08009.7272,W,1,11,1.3,13,M,,M,,*6D
06/03/2014	19:05:09.104	$GPGGA,190517,2543.8851,N,08009.7272,W,1,11,1.6,12,M,,M,,*6A
06/03/2014	19:05:09.995	$GPGGA,190518,2543.8852,N,08009.7271,W,1,11,1.6,12,M,,M,,*65
06/03/2014	19:05:11.149	$GPGGA,190519,2543.8851,N,08009.7272,W,1,11,1.6,12,M,,M,,*64
06/03/2014	19:05:12.081	$GPGGA,190520,2543.8852,N,08009.7271,W,1,11,1.6,12,M,,M,,*6E
06/03/2014	19:05:13.192	$GPGGA,190521,2543.8850,N,08009.7272,W,1,11,1.6,12,M,,M,,*6E
06/03/2014	19:05:14.032	$GPGGA,190522,2543.8850,N,08009.7271,W,1,11,1.6,12,M,,M,,*6E
06/03/2014	19:05:15.136	$GPGGA,190523,2543.8850,N,08009.7270,W,1,11,1.6,12,M,,M,,*6E
06/03/2014	19:05:16.119	$GPGGA,190524,2543.8850,N,08009.7270,W,1,11,1.6,12,M,,M,,*69
06/03/2014	19:05:17.212	$GPGGA,190525,2543.8850,N,08009.7270,W,1,11,1.3,12,M,,M,,*6D
06/03/2014	19:05:18.182	$GPGGA,190526,2543.8849,N,08009.7269,W,1,11,1.3,12,M,,M,,*6E
06/03/2014	19:05:19.255	$GPGGA,190527,2543.8849,N,08009.7269,W,1,12,1.3,12,M,,M,,*6C
06/03/2014	19:05:20.207	$GPGGA,190528,2543.8848,N,08009.7269,W,1,12,1.3,12,M,,M,,*62
06/03/2014	19:05:21.199	$GPGGA,190529,2543.8849,N,08009.7268,W,1,12,1.3,12,M,,M,,*63
06/03/2014	19:05:22.211	$GPGGA,190530,2543.8848,N,08009.7269,W,1,12,1.3,12,M,,M,,*6B
06/03/2014	19:05:22.554	$GPGGA,190531,2543.8849,N,08009.7267,W,1,12,1.3,12,M,,M,,*65
06/03/2014	19:05:23.526	$GPGGA,190532,2543.8849,N,08009.7269,W,1,12,1.3,12,M,,M,,*68
06/03/2014	19:05:24.593	$GPGGA,190533,2543.8849,N,08009.7268,W,1,12,1.3,12,M,,M,,*68
06/03/2014	19:05:25.540	$GPGGA,190534,2543.8849,N,08009.7269,W,1,12,1.3,12,M,,M,,*6E
06/03/2014	19:05:26.572	$GPGGA,190535,2543.8849,N,08009.7268,W,1,12,1.3,12,M,,M,,*6E
06/03/2014	19:05:27.564	$GPGGA,190536,2543.8849,N,08009.7269,W,1,12,1.3,12,M,,M,,*6C
06/03/2014	19:05:28.607	$GPGGA,190537,2543.8849,N,08009.7269,W,1,12,1.3,12,M,,M,,*6D
06/03/2014	19:05:29.558	$GPGGA,190538,2543.8849,N,08009.7269,W,1,12,1.3,11,M,,M,,*61
06/03/2014	19:05:30.630	$GPGGA,190539,2543.8849,N,08009.7269,W,1,12,1.3,11,M,,M,,*60
06/03/2014	19:05:31.622	$GPGGA,190540,2543.8849,N,08009.7269,W,1,12,1.3,11,M,,M,,*6E
06/03/2014	19:05:32.634	$GPGGA,190541,2543.8849,N,08009.7269,W,1,12,1.3,11,M,,M,,*6F
06/03/2014	19:05:33.616	$GPGGA,190542,2543.8849,N,08009.7269,W,1,12,1.3,11,M,,M,,*6C
06/03/2014	19:05:34.689	$GPGGA,190543,2543.8848,N,08009.7270,W,1,12,1.4,11,M,,M,,*63
06/03/2014	19:05:35.641	$GPGGA,190544,2543.8849,N,08009.7270,W,1,12,1.4,11,M,,M,,*65
06/03/2014	19:05:36.673	$GPGGA,190545,2543.8848,N,08009.7272,W,1,11,1.4,11,M,,M,,*64
06/03/2014	19:05:37.655	$GPGGA,190546,2543.8849,N,08009.7272,W,1,11,1.4,11,M,,M,,*66
06/03/2014	19:05:38.708	$GPGGA,190547,2543.8848,N,08009.7272,W,1,11,1.4,11,M,,M,,*66
06/03/2014	19:05:39.679	$GPGGA,190548,2543.8849,N,08009.7273,W,1,11,1.4,11,M,,M,,*69
06/03/2014	19:05:40.712	$GPGGA,190549,2543.8848,N,08009.7273,W,1,11,1.4,11,M,,M,,*69
06/03/2014	19:05:41.684	$GPGGA,190550,2543.8849,N,08009.7273,W,1,11,1.4,11,M,,M,,*60
06/03/2014	19:05:42.746	$GPGGA,190551,2543.8849,N,08009.7273,W,1,11,1.4,11,M,,M,,*61
06/03/2014	19:05:43.748	$GPGGA,190552,2543.8849,N,08009.7274,W,1,11,1.4,11,M,,M,,*65
06/03/2014	19:05:44.761	$GPGGA,190553,2543.8848,N,08009.7276,W,1,11,1.4,11,M,,M,,*67
06/03/2014	19:05:45.722	$GPGGA,190554,2543.8849,N,08009.7275,W,1,11,1.4,11,M,,M,,*62
06/03/2014	19:05:46.785	$GPGGA,190555,2543.8848,N,08009.7276,W,1,11,1.4,11,M,,M,,*61
06/03/2014	19:05:47.806	$GPGGA,190556,2543.8849,N,08009.7276,W,1,11,1.4,11,M,,M,,*63
06/03/2014	19:05:48.768	$GPGGA,190557,2543.8849,N,08009.7276,W,1,11,1.4,11,M,,M,,*62
06/03/2014	19:05:49.788	$GPGGA,190558,2543.8849,N,08009.7277,W,1,11,1.4,11,M,,M,,*6C
06/03/2014	19:05:50.853	$GPGGA,190559,2543.8849,N,08009.7277,W,1,11,1.4,11,M,,M,,*6D
06/03/2014	19:05:51.806	$GPGGA,190600,2543.8849,N,08009.7277,W,1,11,1.4,11,M,,M,,*62
06/03/2014	19:05:52.908	$GPGGA,190601,2543.8849,N,08009.7277,W,1,11,1.4,11,M,,M,,*63
06/03/2014	19:05:53.829	$GPGGA,190602,2543.8850,N,08009.7277,W,1,11,1.4,11,M,,M,,*68
06/03/2014	19:05:54.851	$GPGGA,190603,2543.8850,N,08009.7277,W,1,11,1.4,11,M,,M,,*69
06/03/2014	19:05:55.843	$GPGGA,190604,2543.8850,N,08009.7278,W,1,11,1.4,11,M,,M,,*61
06/03/2014	19:05:56.896	$GPGGA,190605,2543.8852,N,08009.7279,W,1,11,1.4,11,M,,M,,*63
06/03/2014	19:05:57.857	$GPGGA,190606,2543.8851,N,08009.7278,W,1,11,1.4,11,M,,M,,*62
06/03/2014	19:05:58.880	$GPGGA,190607,2543.8851,N,08009.7278,W,1,11,1.4,11,M,,M,,*63
06/03/2014	19:05:59.902	$GPGGA,190608,2543.8851,N,08009.7279,W,1,11,1.4,11,M,,M,,*6D
06/03/2014	19:06:00.985	$GPGGA,190609,2543.8852,N,08009.7280,W,1,11,1.4,11,M,,M,,*69
06/03/2014	19:06:02.007	$GPGGA,190610,2543.8851,N,08009.7279,W,1,11,1.4,11,M,,M,,*64
06/03/2014	19:06:03.090	$GPGGA,190611,2543.8851,N,08009.7279,W,1,11,1.4,11,M,,M,,*65
06/03/2014	19:06:04.056	$GPGGA,190612,2543.8851,N,08009.7279,W,1,11,1.4,11,M,,M,,*66
06/03/2014	19:06:04.943	$GPGGA,190613,2543.8853,N,08009.7280,W,1,11,1.4,11,M,,M,,*63
06/03/2014	19:06:05.944	$GPGGA,190614,2543.8853,N,08009.7279,W,1,11,1.4,11,M,,M,,*62
06/03/2014	19:06:07.047	$GPGGA,190615,2543.8853,N,08009.7280,W,1,11,1.4,11,M,,M,,*65
06/03/2014	19:06:08.120	$GPGGA,190616,2543.8851,N,08009.7279,W,1,11,1.4,11,M,,M,,*62
06/03/2014	19:06:09.062	$GPGGA,190617,2543.8851,N,08009.7279,W,1,11,1.4,11,M,,M,,*63
06/03/2014	19:06:09.972	$GPGGA,190618,2543.8851,N,08009.7279,W,1,11,1.4,11,M,,M,,*6C
06/03/2014	19:06:11.076	$GPGGA,190619,2543.8852,N,08009.7280,W,1,11,1.4,11,M,,M,,*68
06/03/2014	19:06:12.108	$GPGGA,190620,2543.8851,N,08009.7278,W,1,11,1.4,11,M,,M,,*66
06/03/2014	19:06:13.131	$GPGGA,190621,2543.8851,N,08009.7278,W,1,11,1.4,11,M,,M,,*67
06/03/2014	19:06:14.123	$GPGGA,190622,2543.8851,N,08009.7278,W,1,11,1.4,11,M,,M,,*64
06/03/2014	19:06:15.155	$GPGGA,190623,2543.8852,N,08009.7279,W,1,11,1.4,11,M,,M,,*67
06/03/2014	19:06:16.137	$GPGGA,190624,2543.8851,N,08009.7278,W,1,11,1.4,11,M,,M,,*62
06/03/2014	19:06:17.159	$GPGGA,190625,2543.8852,N,08009.7279,W,1,11,1.4,11,M,,M,,*61
06/03/2014	19:06:18.151	$GPGGA,190626,2543.8851,N,08009.7278,W,1,11,1.4,11,M,,M,,*60
06/03/2014	19:06:19.194	$GPGGA,190627,2543.8852,N,08009.7279,W,1,11,1.4,11,M,,M,,*63
06/03/2014	19:06:20.175	$GPGGA,190628,2543.8851,N,08009.7278,W,1,11,1.4,11,M,,M,,*6E
06/03/2014	19:06:21.218	$GPGGA,190629,2543.8852,N,08009.7279,W,1,11,1.4,11,M,,M,,*6D
06/03/2014	19:06:22.180	$GPGGA,190630,2543.8851,N,08009.7278,W,1,11,1.4,11,M,,M,,*67
06/03/2014	19:06:23.787	$GPGGA,190632,2543.8853,N,08009.7278,W,1,11,1.4,11,M,,M,,*67
06/03/2014	19:06:24.495	$GPGGA,190633,2543.8853,N,08009.7279,W,1,11,1.4,11,M,,M,,*67
06/03/2014	19:06:25.518	$GPGGA,190634,2543.8853,N,08009.7278,W,1,11,1.4,11,M,,M,,*61
06/03/2014	19:06:26.530	$GPGGA,190635,2543.8853,N,08009.7279,W,1,11,1.4,11,M,,M,,*61
06/03/2014	19:06:27.542	$GPGGA,190636,2543.8851,N,08009.7278,W,1,11,1.4,11,M,,M,,*61
06/03/2014	19:06:28.554	$GPGGA,190637,2543.8852,N,08009.7279,W,1,11,1.4,11,M,,M,,*62
06/03/2014	19:06:29.536	$GPGGA,190638,2543.8851,N,08009.7277,W,1,11,1.4,11,M,,M,,*60
06/03/2014	19:06:30.579	$GPGGA,190639,2543.8852,N,08009.7277,W,1,11,1.4,11,M,,M,,*62
06/03/2014	19:06:31.571	$GPGGA,190640,2543.8851,N,08009.7277,W,1,11,1.4,11,M,,M,,*6F
06/03/2014	19:06:32.575	$GPGGA,190641,2543.8852,N,08009.7279,W,1,11,1.4,11,M,,M,,*63
06/03/2014	19:06:33.595	$GPGGA,190642,2543.8851,N,08009.7277,W,1,11,1.4,11,M,,M,,*6D
06/03/2014	19:06:34.627	$GPGGA,190643,2543.8852,N,08009.7277,W,1,11,1.4,11,M,,M,,*6F
06/03/2014	19:06:35.613	$GPGGA,190644,2543.8851,N,08009.7277,W,1,11,1.4,11,M,,M,,*6B
06/03/2014	19:06:36.632	$GPGGA,190645,2543.8852,N,08009.7277,W,1,11,1.4,11,M,,M,,*69
06/03/2014	19:06:37.613	$GPGGA,190646,2543.8853,N,08009.7277,W,1,11,1.4,11,M,,M,,*6B
06/03/2014	19:06:38.636	$GPGGA,190647,2543.8853,N,08009.7277,W,1,11,1.4,11,M,,M,,*6A
06/03/2014	19:06:39.648	$GPGGA,190648,2543.8853,N,08009.7277,W,1,11,1.4,11,M,,M,,*65
06/03/2014	19:06:40.659	$GPGGA,190649,2543.8853,N,08009.7277,W,1,11,1.4,11,M,,M,,*64
06/03/2014	19:06:41.661	$GPGGA,190650,2543.8853,N,08009.7277,W,1,11,1.4,11,M,,M,,*6C
06/03/2014	19:06:42.696	$GPGGA,190651,2543.8853,N,08009.7277,W,1,11,1.4,11,M,,M,,*6D
06/03/2014	19:06:43.716	$GPGGA,190652,2543.8853,N,08009.7279,W,1,11,1.4,11,M,,M,,*60
06/03/2014	19:06:44.829	$GPGGA,190653,2543.8853,N,08009.7278,W,1,11,1.4,11,M,,M,,*60
06/03/2014	19:06:45.700	$GPGGA,190654,2543.8853,N,08009.7279,W,1,11,1.4,11,M,,M,,*66
06/03/2014	19:06:46.722	$GPGGA,190655,2543.8855,N,08009.7278,W,1,11,1.4,11,M,,M,,*60
06/03/2014	19:06:47.856	$GPGGA,190656,2543.8853,N,08009.7279,W,1,11,1.4,11,M,,M,,*64
06/03/2014	19:06:48.838	$GPGGA,190657,2543.8853,N,08009.7278,W,1,11,1.4,11,M,,M,,*64
06/03/2014	19:06:49.759	$GPGGA,190658,2543.8853,N,08009.7279,W,1,11,1.4,11,M,,M,,*6A
06/03/2014	19:06:50.882	$GPGGA,190659,2543.8853,N,08009.7278,W,1,11,1.4,11,M,,M,,*6A
06/03/2014	19:06:51.793	$GPGGA,190700,2543.8853,N,08009.7279,W,1,11,1.4,11,M,,M,,*66
06/03/2014	19:06:52.795	$GPGGA,190701,2543.8853,N,08009.7278,W,1,11,1.4,11,M,,M,,*66
06/03/2014	19:06:53.879	$GPGGA,190702,2543.8853,N,08009.7279,W,1,11,1.4,11,M,,M,,*64
06/03/2014	19:06:54.921	$GPGGA,190703,2543.8853,N,08009.7278,W,1,11,1.4,11,M,,M,,*64
06/03/2014	19:06:55.822	$GPGGA,190704,2543.8855,N,08009.7279,W,1,11,1.4,11,M,,M,,*64
06/03/2014	19:06:56.915	$GPGGA,190705,2543.8854,N,08009.7278,W,1,11,1.4,11,M,,M,,*65
06/03/2014	19:06:57.926	$GPGGA,190706,2543.8855,N,08009.7279,W,1,11,1.4,11,M,,M,,*66
06/03/2014	19:06:58.959	$GPGGA,190707,2543.8854,N,08009.7278,W,1,11,1.4,11,M,,M,,*67
06/03/2014	19:06:59.961	$GPGGA,190708,2543.8856,N,08009.7279,W,1,11,1.4,11,M,,M,,*6B
06/03/2014	19:07:00.973	$GPGGA,190709,2543.8855,N,08009.7278,W,1,11,1.4,11,M,,M,,*68
06/03/2014	19:07:01.955	$GPGGA,190710,2543.8856,N,08009.7279,W,1,11,1.4,11,M,,M,,*62
06/03/2014	19:07:02.967	$GPGGA,190711,2543.8855,N,08009.7278,W,1,11,1.4,11,M,,M,,*61
06/03/2014	19:07:03.999	$GPGGA,190712,2543.8856,N,08009.7279,W,1,11,1.4,11,M,,M,,*60
06/03/2014	19:07:05.012	$GPGGA,190713,2543.8857,N,08009.7280,W,1,11,1.4,11,M,,M,,*66
06/03/2014	19:07:05.994	$GPGGA,190714,2543.8857,N,08009.7278,W,1,11,1.4,11,M,,M,,*66
06/03/2014	19:07:07.036	$GPGGA,190715,2543.8857,N,08009.7280,W,1,10,1.7,11,M,,M,,*62
06/03/2014	19:07:08.038	$GPGGA,190716,2543.8860,N,08009.7279,W,1,10,1.4,11,M,,M,,*60
06/03/2014	19:07:09.071	$GPGGA,190717,2543.8860,N,08009.7280,W,1,11,1.4,11,M,,M,,*66
06/03/2014	19:07:10.041	$GPGGA,190718,2543.8863,N,08009.7280,W,1,11,1.4,12,M,,M,,*69
06/03/2014	19:07:11.067	$GPGGA,190719,2543.8864,N,08009.7280,W,1,11,1.4,12,M,,M,,*6F
06/03/2014	19:07:12.081	$GPGGA,190720,2543.8864,N,08009.7280,W,1,11,1.4,12,M,,M,,*65
06/03/2014	19:07:13.099	$GPGGA,190721,2543.8862,N,08009.7280,W,1,11,1.4,12,M,,M,,*62
06/03/2014	19:07:14.089	$GPGGA,190722,2543.8863,N,08009.7279,W,1,11,1.4,12,M,,M,,*66
06/03/2014	19:07:15.126	$GPGGA,190723,2543.8862,N,08009.7280,W,1,11,1.4,12,M,,M,,*60
06/03/2014	19:07:16.123	$GPGGA,190724,2543.8861,N,08009.7279,W,1,11,1.4,12,M,,M,,*62
06/03/2014	19:07:17.112	$GPGGA,190725,2543.8862,N,08009.7280,W,1,11,1.4,12,M,,M,,*66
06/03/2014	19:07:18.146	$GPGGA,190726,2543.8861,N,08009.7279,W,1,11,1.4,12,M,,M,,*60
06/03/2014	19:07:19.171	$GPGGA,190727,2543.8860,N,08009.7278,W,1,11,1.4,12,M,,M,,*61
06/03/2014	19:07:20.158	$GPGGA,190728,2543.8860,N,08009.7279,W,1,11,1.4,13,M,,M,,*6E
06/03/2014	19:07:21.145	$GPGGA,190729,2543.8860,N,08009.7278,W,1,11,1.4,13,M,,M,,*6E
06/03/2014	19:07:22.171	$GPGGA,190730,2543.8859,N,08009.7279,W,1,11,1.4,13,M,,M,,*6D
06/03/2014	19:07:22.449	$GPGGA,190731,2543.8860,N,08009.7278,W,1,11,1.4,13,M,,M,,*67
06/03/2014	19:07:23.461	$GPGGA,190732,2543.8859,N,08009.7279,W,1,11,1.4,13,M,,M,,*6F
06/03/2014	19:07:24.463	$GPGGA,190733,2543.8860,N,08009.7278,W,1,11,1.4,13,M,,M,,*65
06/03/2014	19:07:25.465	$GPGGA,190734,2543.8859,N,08009.7279,W,1,11,1.4,13,M,,M,,*69
06/03/2014	19:07:26.518	$GPGGA,190735,2543.8860,N,08009.7278,W,1,11,1.4,13,M,,M,,*63
06/03/2014	19:07:27.513	$GPGGA,190736,2543.8859,N,08009.7279,W,1,11,1.4,13,M,,M,,*6B
06/03/2014	19:07:28.532	$GPGGA,190737,2543.8860,N,08009.7277,W,1,11,1.4,13,M,,M,,*6E
06/03/2014	19:07:29.504	$GPGGA,190738,2543.8859,N,08009.7277,W,1,11,1.4,13,M,,M,,*6B
06/03/2014	19:07:30.526	$GPGGA,190739,2543.8860,N,08009.7277,W,1,11,1.4,13,M,,M,,*60
06/03/2014	19:07:31.548	$GPGGA,190740,2543.8859,N,08009.7277,W,1,11,1.4,13,M,,M,,*64
06/03/2014	19:07:32.651	$GPGGA,190741,2543.8858,N,08009.7277,W,1,11,1.4,13,M,,M,,*64
06/03/2014	19:07:33.653	$GPGGA,190742,2543.8859,N,08009.7277,W,1,11,1.4,13,M,,M,,*66
06/03/2014	19:07:34.655	$GPGGA,190743,2543.8858,N,08009.7277,W,1,11,1.4,13,M,,M,,*66
06/03/2014	19:07:35.586	$GPGGA,190744,2543.8859,N,08009.7277,W,1,11,1.4,13,M,,M,,*60
06/03/2014	19:07:36.679	$GPGGA,190745,2543.8860,N,08009.7277,W,1,11,1.4,13,M,,M,,*6B
06/03/2014	19:07:37.610	$GPGGA,190746,2543.8859,N,08009.7277,W,1,11,1.4,13,M,,M,,*62
06/03/2014	19:07:38.745	$GPGGA,190747,2543.8860,N,08009.7279,W,1,11,1.4,13,M,,M,,*67
06/03/2014	19:07:39.716	$GPGGA,190748,2543.8859,N,08009.7278,W,1,11,1.4,13,M,,M,,*63
06/03/2014	19:07:40.718	$GPGGA,190749,2543.8860,N,08009.7279,W,1,11,1.4,13,M,,M,,*69
06/03/2014	19:07:41.720	$GPGGA,190750,2543.8860,N,08009.7278,W,1,11,1.4,13,M,,M,,*60
06/03/2014	19:07:42.752	$GPGGA,190751,2543.8860,N,08009.7279,W,1,11,1.4,13,M,,M,,*60
06/03/2014	19:07:43.765	$GPGGA,190752,2543.8860,N,08009.7278,W,1,11,1.4,13,M,,M,,*62
06/03/2014	19:07:44.777	$GPGGA,190753,2543.8860,N,08009.7277,W,1,11,1.4,13,M,,M,,*6C
06/03/2014	19:07:45.769	$GPGGA,190754,2543.8860,N,08009.7277,W,1,11,1.4,13,M,,M,,*6B
06/03/2014	19:07:46.811	$GPGGA,190755,2543.8862,N,08009.7277,W,1,11,1.4,13,M,,M,,*68
06/03/2014	19:07:47.803	$GPGGA,190756,2543.8861,N,08009.7277,W,1,11,1.4,14,M,,M,,*6F
06/03/2014	19:07:48.826	$GPGGA,190757,2543.8862,N,08009.7277,W,1,11,1.4,14,M,,M,,*6D
06/03/2014	19:07:49.807	$GPGGA,190758,2543.8861,N,08009.7277,W,1,11,1.4,14,M,,M,,*61
06/03/2014	19:07:50.829	$GPGGA,190759,2543.8862,N,08009.7277,W,1,11,1.4,14,M,,M,,*63
06/03/2014	19:07:51.861	$GPGGA,190800,2543.8861,N,08009.7277,W,1,11,1.4,14,M,,M,,*63
06/03/2014	19:07:52.863	$GPGGA,190801,2543.8862,N,08009.7276,W,1,11,1.4,14,M,,M,,*60
06/03/2014	19:07:53.855	$GPGGA,190802,2543.8861,N,08009.7276,W,1,11,1.4,14,M,,M,,*60
06/03/2014	19:07:54.857	$GPGGA,190803,2543.8862,N,08009.7276,W,1,11,1.4,14,M,,M,,*62
06/03/2014	19:07:55.890	$GPGGA,190804,2543.8863,N,08009.7276,W,1,11,1.4,14,M,,M,,*64
06/03/2014	19:07:56.902	$GPGGA,190805,2543.8862,N,08009.7277,W,1,11,1.4,14,M,,M,,*65
06/03/2014	19:07:57.894	$GPGGA,190806,2543.8863,N,08009.7277,W,1,11,1.4,14,M,,M,,*67
06/03/2014	19:07:58.936	$GPGGA,190807,2543.8862,N,08009.7277,W,1,11,1.4,14,M,,M,,*67
06/03/2014	19:07:59.928	$GPGGA,190808,2543.8863,N,08009.7277,W,1,11,1.4,14,M,,M,,*69
06/03/2014	19:08:00.951	$GPGGA,190809,2543.8862,N,08009.7276,W,1,11,1.4,14,M,,M,,*68
06/03/2014	19:08:01.933	$GPGGA,190810,2543.8863,N,08009.7276,W,1,11,1.4,14,M,,M,,*61
06/03/2014	19:08:02.938	$GPGGA,190811,2543.8862,N,08009.7276,W,1,11,1.4,14,M,,M,,*61
06/03/2014	19:08:03.977	$GPGGA,190812,2543.8863,N,08009.7276,W,1,11,1.4,14,M,,M,,*63
06/03/2014	19:08:05.000	$GPGGA,190813,2543.8862,N,08009.7276,W,1,11,1.4,15,M,,M,,*62
06/03/2014	19:08:05.973	$GPGGA,190814,2543.8861,N,08009.7276,W,1,11,1.4,15,M,,M,,*66
06/03/2014	19:08:07.014	$GPGGA,190815,2543.8862,N,08009.7276,W,1,11,1.4,15,M,,M,,*64
06/03/2014	19:08:08.005	$GPGGA,190816,2543.8861,N,08009.7276,W,1,11,1.4,15,M,,M,,*64
06/03/2014	19:08:09.047	$GPGGA,190817,2543.8862,N,08009.7277,W,1,11,1.4,15,M,,M,,*67
06/03/2014	19:08:10.030	$GPGGA,190818,2543.8861,N,08009.7277,W,1,11,1.4,15,M,,M,,*6B
06/03/2014	19:08:11.021	$GPGGA,190819,2543.8863,N,08009.7275,W,1,11,1.4,15,M,,M,,*6A
06/03/2014	19:08:12.074	$GPGGA,190820,2543.8862,N,08009.7276,W,1,11,1.4,15,M,,M,,*62
06/03/2014	19:08:13.058	$GPGGA,190821,2543.8863,N,08009.7274,W,1,12,1.4,15,M,,M,,*63
06/03/2014	19:08:14.165	$GPGGA,190822,2543.8862,N,08009.7274,W,1,12,1.4,15,M,,M,,*61
06/03/2014	19:08:15.053	$GPGGA,190823,2543.8863,N,08009.7274,W,1,12,1.4,15,M,,M,,*61
06/03/2014	19:08:16.059	$GPGGA,190824,2543.8862,N,08009.7273,W,1,12,1.4,15,M,,M,,*60
06/03/2014	19:08:17.065	$GPGGA,190825,2543.8863,N,08009.7273,W,1,12,1.4,15,M,,M,,*60
06/03/2014	19:08:18.051	$GPGGA,190826,2543.8862,N,08009.7272,W,1,12,1.4,15,M,,M,,*63
06/03/2014	19:08:19.157	$GPGGA,190827,2543.8863,N,08009.7271,W,1,12,1.4,15,M,,M,,*60
06/03/2014	19:08:20.083	$GPGGA,190828,2543.8862,N,08009.7270,W,1,12,1.4,15,M,,M,,*6F
06/03/2014	19:08:21.079	$GPGGA,190829,2543.8861,N,08009.7269,W,1,12,1.4,15,M,,M,,*65
06/03/2014	19:08:22.165	$GPGGA,190830,2543.8863,N,08009.7268,W,1,12,1.4,15,M,,M,,*6E
06/03/2014	19:08:22.537	$GPGGA,190831,2543.8862,N,08009.7269,W,1,12,1.4,15,M,,M,,*6F
06/03/2014	19:08:23.456	$GPGGA,190832,2543.8863,N,08009.7268,W,1,12,1.4,15,M,,M,,*6C
06/03/2014	19:08:24.438	$GPGGA,190833,2543.8862,N,08009.7267,W,1,12,1.4,15,M,,M,,*63
06/03/2014	19:08:25.523	$GPGGA,190834,2543.8863,N,08009.7267,W,1,12,1.4,15,M,,M,,*65
06/03/2014	19:08:26.539	$GPGGA,190835,2543.8862,N,08009.7267,W,1,12,1.4,15,M,,M,,*65
06/03/2014	19:08:27.465	$GPGGA,190836,2543.8863,N,08009.7267,W,1,12,1.4,15,M,,M,,*67
06/03/2014	19:08:28.541	$GPGGA,190837,2543.8861,N,08009.7267,W,1,12,1.4,15,M,,M,,*64
06/03/2014	19:08:29.447	$GPGGA,190838,2543.8862,N,08009.7267,W,1,12,1.4,15,M,,M,,*68
06/03/2014	19:08:30.563	$GPGGA,190839,2543.8861,N,08009.7266,W,1,12,1.4,15,M,,M,,*6B
06/03/2014	19:08:31.559	$GPGGA,190840,2543.8862,N,08009.7266,W,1,12,1.4,15,M,,M,,*66
06/03/2014	19:08:32.545	$GPGGA,190841,2543.8861,N,08009.7266,W,1,12,1.4,15,M,,M,,*64
06/03/2014	19:08:33.551	$GPGGA,190842,2543.8862,N,08009.7266,W,1,12,1.4,15,M,,M,,*64
06/03/2014	19:08:34.577	$GPGGA,190843,2543.8861,N,08009.7267,W,1,12,1.4,15,M,,M,,*67
06/03/2014	19:08:35.573	$GPGGA,190844,2543.8862,N,08009.7267,W,1,12,1.4,15,M,,M,,*63
06/03/2014	19:08:36.559	$GPGGA,190845,2543.8860,N,08009.7267,W,1,12,1.4,15,M,,M,,*60
06/03/2014	19:08:37.565	$GPGGA,190846,2543.8860,N,08009.7267,W,1,12,1.4,15,M,,M,,*63
06/03/2014	19:08:38.591	$GPGGA,190847,2543.8860,N,08009.7267,W,1,12,1.4,15,M,,M,,*62
06/03/2014	19:08:39.597	$GPGGA,190848,2543.8860,N,08009.7267,W,1,12,1.4,15,M,,M,,*6D
06/03/2014	19:08:40.603	$GPGGA,190849,2543.8860,N,08009.7267,W,1,12,1.4,15,M,,M,,*6C
06/03/2014	19:08:41.589	$GPGGA,190850,2543.8860,N,08009.7267,W,1,12,1.4,15,M,,M,,*64
06/03/2014	19:08:42.604	$GPGGA,190851,2543.8860,N,08009.7267,W,1,12,1.4,15,M,,M,,*65
06/03/2014	19:08:43.600	$GPGGA,190852,2543.8859,N,08009.7269,W,1,12,1.4,15,M,,M,,*62
06/03/2014	19:08:44.587	$GPGGA,190853,2543.8860,N,08009.7268,W,1,12,1.4,15,M,,M,,*68
06/03/2014	19:08:45.602	$GPGGA,190854,2543.8859,N,08009.7269,W,1,12,1.4,15,M,,M,,*64
06/03/2014	19:08:46.628	$GPGGA,190855,2543.8860,N,08009.7269,W,1,12,1.4,15,M,,M,,*6F
06/03/2014	19:08:47.624	$GPGGA,190856,2543.8859,N,08009.7269,W,1,12,1.4,15,M,,M,,*66
06/03/2014	19:08:48.614	$GPGGA,190857,2543.8860,N,08009.7269,W,1,12,1.4,15,M,,M,,*6D
06/03/2014	19:08:49.608	$GPGGA,190858,2543.8859,N,08009.7269,W,1,12,1.4,15,M,,M,,*68
06/03/2014	19:08:50.632	$GPGGA,190859,2543.8860,N,08009.7269,W,1,12,1.4,15,M,,M,,*63
06/03/2014	19:08:51.638	$GPGGA,190900,2543.8859,N,08009.7270,W,1,12,1.4,15,M,,M,,*6C
06/03/2014	19:08:52.654	$GPGGA,190901,2543.8860,N,08009.7270,W,1,12,1.4,15,M,,M,,*67
06/03/2014	19:08:53.634	$GPGGA,190902,2543.8859,N,08009.7270,W,1,12,1.4,15,M,,M,,*6E
06/03/2014	19:08:54.639	$GPGGA,190903,2543.8860,N,08009.7272,W,1,12,1.4,15,M,,M,,*67
06/03/2014	19:08:55.652	$GPGGA,190904,2543.8859,N,08009.7271,W,1,12,1.4,15,M,,M,,*69
06/03/2014	19:08:56.678	$GPGGA,190905,2543.8860,N,08009.7272,W,1,12,1.4,15,M,,M,,*61
06/03/2014	19:08:57.644	$GPGGA,190906,2543.8859,N,08009.7271,W,1,12,1.4,15,M,,M,,*6B
06/03/2014	19:08:58.650	$GPGGA,190907,2543.8860,N,08009.7272,W,1,12,1.4,15,M,,M,,*63
06/03/2014	19:08:59.676	$GPGGA,190908,2543.8860,N,08009.7271,W,1,12,1.4,15,M,,M,,*6F
06/03/2014	19:09:00.782	$GPGGA,190909,2543.8860,N,08009.7272,W,1,12,1.4,15,M,,M,,*6D
06/03/2014	19:09:01.758	$GPGGA,190910,2543.8860,N,08009.7271,W,1,12,1.4,14,M,,M,,*67
06/03/2014	19:09:02.686	$GPGGA,190911,2543.8860,N,08009.7272,W,1,12,1.4,14,M,,M,,*65
06/03/2014	19:09:03.701	$GPGGA,190912,2543.8860,N,08009.7271,W,1,12,1.4,14,M,,M,,*65
06/03/2014	19:09:04.665	$GPGGA,190913,2543.8862,N,08009.7272,W,1,12,1.4,14,M,,M,,*65
06/03/2014	19:09:05.681	$GPGGA,190914,2543.8860,N,08009.7271,W,1,12,1.4,14,M,,M,,*63
06/03/2014	19:09:06.798	$GPGGA,190915,2543.8860,N,08009.7272,W,1,12,1.4,14,M,,M,,*61
06/03/2014	19:09:07.706	$GPGGA,190916,2543.8860,N,08009.7271,W,1,12,1.4,14,M,,M,,*61
06/03/2014	19:09:08.719	$GPGGA,190917,2543.8860,N,08009.7272,W,1,12,1.4,14,M,,M,,*63
06/03/2014	19:09:09.685	$GPGGA,190918,2543.8860,N,08009.7271,W,1,12,1.4,14,M,,M,,*6F
06/03/2014	19:09:10.801	$GPGGA,190919,2543.8860,N,08009.7272,W,1,12,1.4,14,M,,M,,*6D
06/03/2014	19:09:11.818	$GPGGA,190920,2543.8859,N,08009.7270,W,1,12,1.4,14,M,,M,,*6F
06/03/2014	19:09:12.703	$GPGGA,190921,2543.8860,N,08009.7270,W,1,12,1.4,14,M,,M,,*64
06/03/2014	19:09:13.799	$GPGGA,190922,2543.8859,N,08009.7270,W,1,12,1.4,14,M,,M,,*6D
06/03/2014	19:09:14.846	$GPGGA,190923,2543.8860,N,08009.7270,W,1,12,1.4,14,M,,M,,*66
06/03/2014	19:09:15.831	$GPGGA,190924,2543.8858,N,08009.7272,W,1,12,1.4,14,M,,M,,*68
06/03/2014	19:09:16.827	$GPGGA,190925,2543.8859,N,08009.7271,W,1,12,1.4,14,M,,M,,*6B
06/03/2014	19:09:17.832	$GPGGA,190926,2543.8858,N,08009.7270,W,1,12,1.4,14,M,,M,,*68
06/03/2014	19:09:18.859	$GPGGA,190927,2543.8857,N,08009.7270,W,1,12,1.4,14,M,,M,,*66
06/03/2014	19:09:19.844	$GPGGA,190928,2543.8857,N,08009.7270,W,1,12,1.4,14,M,,M,,*69
06/03/2014	19:09:22.249	$GPGGA,190930,2543.8857,N,08009.7270,W,1,12,1.4,13,M,,M,,*67
06/03/2014	19:09:22.503	$GPGGA,190931,2543.8857,N,08009.7270,W,1,12,1.4,13,M,,M,,*66
06/03/2014	19:09:23.499	$GPGGA,190932,2543.8857,N,08009.7270,W,1,12,1.4,13,M,,M,,*65
06/03/2014	19:09:24.485	$GPGGA,190933,2543.8857,N,08009.7270,W,1,12,1.4,13,M,,M,,*64
06/03/2014	19:09:25.491	$GPGGA,190934,2543.8857,N,08009.7270,W,1,12,1.4,13,M,,M,,*63
06/03/2014	19:09:26.517	$GPGGA,190935,2543.8857,N,08009.7270,W,1,12,1.4,13,M,,M,,*62
06/03/2014	19:09:27.513	$GPGGA,190936,2543.8857,N,08009.7270,W,1,12,1.4,13,M,,M,,*61
06/03/2014	19:09:28.549	$GPGGA,190937,2543.8857,N,08009.7270,W,1,12,1.4,13,M,,M,,*60
06/03/2014	19:09:29.515	$GPGGA,190938,2543.8857,N,08009.7270,W,1,12,1.4,13,M,,M,,*6F
06/03/2014	19:09:30.541	$GPGGA,190939,2543.8857,N,08009.7270,W,1,12,1.4,13,M,,M,,*6E
06/03/2014	19:09:31.537	$GPGGA,190940,2543.8857,N,08009.7270,W,1,12,1.4,13,M,,M,,*60
06/03/2014	19:09:32.553	$GPGGA,190941,2543.8857,N,08009.7270,W,1,12,1.4,13,M,,M,,*61
06/03/2014	19:09:33.529	$GPGGA,190942,2543.8857,N,08009.7270,W,1,12,1.4,13,M,,M,,*62
06/03/2014	19:09:34.525	$GPGGA,190943,2543.8857,N,08009.7270,W,1,12,1.4,13,M,,M,,*63
06/03/2014	19:09:35.550	$GPGGA,190944,2543.8857,N,08009.7270,W,1,12,1.4,13,M,,M,,*64
06/03/2014	19:09:36.546	$GPGGA,190945,2543.8857,N,08009.7270,W,1,12,1.4,13,M,,M,,*65
06/03/2014	19:09:37.542	$GPGGA,190946,2543.8857,N,08009.7270,W,1,12,1.4,12,M,,M,,*67
06/03/2014	19:09:38.588	$GPGGA,190947,2543.8857,N,08009.7270,W,1,12,1.4,12,M,,M,,*66
06/03/2014	19:09:39.574	$GPGGA,190948,2543.8857,N,08009.7270,W,1,12,1.4,12,M,,M,,*69
06/03/2014	19:09:40.560	$GPGGA,190949,2543.8857,N,08009.7270,W,1,12,1.4,12,M,,M,,*68
06/03/2014	19:09:41.546	$GPGGA,190950,2543.8857,N,08009.7270,W,1,12,1.4,12,M,,M,,*60
06/03/2014	19:09:42.592	$GPGGA,190951,2543.8857,N,08009.7270,W,1,12,1.4,12,M,,M,,*61
06/03/2014	19:09:43.588	$GPGGA,190952,2543.8857,N,08009.7270,W,1,12,1.4,12,M,,M,,*62
06/03/2014	19:09:44.675	$GPGGA,190953,2543.8857,N,08009.7270,W,1,12,1.4,12,M,,M,,*63
06/03/2014	19:09:45.586	$GPGGA,190954,2543.8857,N,08009.7270,W,1,12,1.4,12,M,,M,,*64
06/03/2014	19:09:46.596	$GPGGA,190955,2543.8857,N,08009.7270,W,1,12,1.4,12,M,,M,,*65
06/03/2014	19:09:47.704	$GPGGA,190956,2543.8857,N,08009.7270,W,1,12,1.4,12,M,,M,,*66
06/03/2014	19:09:48.638	$GPGGA,190957,2543.8857,N,08009.7270,W,1,12,1.4,12,M,,M,,*67
06/03/2014	19:09:49.604	$GPGGA,190958,2543.8857,N,08009.7270,W,1,12,1.4,12,M,,M,,*68
06/03/2014	19:09:50.680	$GPGGA,190959,2543.8857,N,08009.7270,W,1,12,1.4,12,M,,M,,*69
06/03/2014	19:09:51.636	$GPGGA,191000,2543.8859,N,08009.7270,W,1,12,1.4,12,M,,M,,*63
06/03/2014	19:09:52.691	$GPGGA,191001,2543.8858,N,08009.7270,W,1,12,1.4,12,M,,M,,*63
06/03/2014	19:09:53.634	$GPGGA,191002,2543.8859,N,08009.7270,W,1,12,1.4,12,M,,M,,*61
06/03/2014	19:09:54.623	$GPGGA,191003,2543.8860,N,08009.7270,W,1,12,1.4,12,M,,M,,*6A
06/03/2014	19:09:55.720	$GPGGA,191004,2543.8859,N,08009.7270,W,1,12,1.4,12,M,,M,,*67
06/03/2014	19:09:56.715	$GPGGA,191005,2543.8860,N,08009.7270,W,1,12,1.4,12,M,,M,,*6C
06/03/2014	19:09:57.721	$GPGGA,191006,2543.8860,N,08009.7272,W,1,12,1.4,12,M,,M,,*6D
06/03/2014	19:09:58.748	$GPGGA,191007,2543.8860,N,08009.7271,W,1,12,1.4,12,M,,M,,*6F
06/03/2014	19:09:59.744	$GPGGA,191008,2543.8860,N,08009.7272,W,1,12,1.4,12,M,,M,,*63
06/03/2014	19:10:00.719	$GPGGA,191009,2543.8860,N,08009.7271,W,1,12,1.4,12,M,,M,,*61
06/03/2014	19:10:01.735	$GPGGA,191010,2543.8862,N,08009.7272,W,1,12,1.4,13,M,,M,,*69
06/03/2014	19:10:02.731	$GPGGA,191011,2543.8861,N,08009.7271,W,1,12,1.4,13,M,,M,,*68
06/03/2014	19:10:03.757	$GPGGA,191012,2543.8862,N,08009.7272,W,1,12,1.4,13,M,,M,,*6B
06/03/2014	19:10:04.733	$GPGGA,191013,2543.8861,N,08009.7271,W,1,12,1.4,13,M,,M,,*6A
06/03/2014	19:10:05.749	$GPGGA,191014,2543.8862,N,08009.7272,W,1,12,1.4,13,M,,M,,*6D
06/03/2014	19:10:06.745	$GPGGA,191015,2543.8861,N,08009.7271,W,1,12,1.4,13,M,,M,,*6C
06/03/2014	19:10:07.761	$GPGGA,191016,2543.8862,N,08009.7270,W,1,12,1.4,13,M,,M,,*6D
06/03/2014	19:10:08.787	$GPGGA,191017,2543.8861,N,08009.7270,W,1,12,1.4,13,M,,M,,*6F
06/03/2014	19:10:09.763	$GPGGA,191018,2543.8862,N,08009.7270,W,1,12,1.4,13,M,,M,,*63
06/03/2014	19:10:10.758	$GPGGA,191019,2543.8861,N,08009.7270,W,1,12,1.4,13,M,,M,,*61
06/03/2014	19:10:11.784	$GPGGA,191020,2543.8860,N,08009.7272,W,1,12,1.4,13,M,,M,,*68
06/03/2014	19:10:12.790	$GPGGA,191021,2543.8862,N,08009.7271,W,1,12,1.4,13,M,,M,,*68
06/03/2014	19:10:13.776	$GPGGA,191022,2543.8860,N,08009.7272,W,1,12,1.4,13,M,,M,,*6A
06/03/2014	19:10:14.802	$GPGGA,191023,2543.8860,N,08009.7271,W,1,12,1.4,13,M,,M,,*68
06/03/2014	19:10:15.788	$GPGGA,191024,2543.8860,N,08009.7272,W,1,12,1.4,13,M,,M,,*6C
06/03/2014	19:10:16.784	$GPGGA,191025,2543.8860,N,08009.7271,W,1,12,1.4,13,M,,M,,*6E
06/03/2014	19:10:17.782	$GPGGA,191026,2543.8860,N,08009.7272,W,1,12,1.4,13,M,,M,,*6E
06/03/2014	19:10:18.826	$GPGGA,191027,2543.8859,N,08009.7271,W,1,12,1.4,13,M,,M,,*66
06/03/2014	19:10:19.812	$GPGGA,191028,2543.8860,N,08009.7272,W,1,12,1.4,13,M,,M,,*60
06/03/2014	19:10:20.838	$GPGGA,191029,2543.8859,N,08009.7270,W,1,12,1.4,13,M,,M,,*69
06/03/2014	19:10:21.800	$GPGGA,191030,2543.8860,N,08009.7270,W,1,12,1.4,13,M,,M,,*6B
06/03/2014	19:10:22.482	$GPGGA,191031,2543.8859,N,08009.7272,W,1,12,1.4,13,M,,M,,*62
06/03/2014	19:10:23.488	$GPGGA,191032,2543.8858,N,08009.7271,W,1,12,1.4,13,M,,M,,*63
06/03/2014	19:10:24.474	$GPGGA,191033,2543.8859,N,08009.7270,W,1,12,1.4,13,M,,M,,*62
06/03/2014	19:10:25.470	$GPGGA,191034,2543.8860,N,08009.7270,W,1,12,1.4,13,M,,M,,*6F
06/03/2014	19:10:26.467	$GPGGA,191035,2543.8858,N,08009.7270,W,1,12,1.4,13,M,,M,,*65
06/03/2014	19:10:27.501	$GPGGA,191036,2543.8859,N,08009.7270,W,1,12,1.4,13,M,,M,,*67
06/03/2014	19:10:28.517	$GPGGA,191037,2543.8858,N,08009.7270,W,1,12,1.4,13,M,,M,,*67
06/03/2014	19:10:29.473	$GPGGA,191038,2543.8859,N,08009.7270,W,1,12,1.4,13,M,,M,,*69
06/03/2014	19:10:30.493	$GPGGA,191039,2543.8858,N,08009.7270,W,1,12,1.4,13,M,,M,,*69
06/03/2014	19:10:31.495	$GPGGA,191040,2543.8860,N,08009.7270,W,1,12,1.4,13,M,,M,,*6C
06/03/2014	19:10:32.514	$GPGGA,191041,2543.8859,N,08009.7270,W,1,12,1.4,13,M,,M,,*67
06/03/2014	19:10:33.507	$GPGGA,191042,2543.8858,N,08009.7270,W,1,12,1.4,13,M,,M,,*65
06/03/2014	19:10:34.634	$GPGGA,191043,2543.8860,N,08009.7270,W,1,12,1.4,13,M,,M,,*6F
06/03/2014	19:10:35.630	$GPGGA,191044,2543.8859,N,08009.7270,W,1,12,1.4,13,M,,M,,*62
06/03/2014	19:10:36.525	$GPGGA,191045,2543.8860,N,08009.7270,W,1,12,1.4,13,M,,M,,*69
06/03/2014	19:10:37.511	$GPGGA,191046,2543.8859,N,08009.7270,W,1,12,1.4,13,M,,M,,*60
06/03/2014	19:10:38.537	$GPGGA,191047,2543.8860,N,08009.7272,W,1,12,1.4,13,M,,M,,*69
06/03/2014	19:10:39.523	$GPGGA,191048,2543.8858,N,08009.7271,W,1,12,1.4,13,M,,M,,*6E
06/03/2014	19:10:40.609	$GPGGA,191049,2543.8860,N,08009.7272,W,1,12,1.4,13,M,,M,,*67
06/03/2014	19:10:41.515	$GPGGA,191050,2543.8859,N,08009.7271,W,1,12,1.4,13,M,,M,,*66
06/03/2014	19:10:42.531	$GPGGA,191051,2543.8858,N,08009.7272,W,1,12,1.4,13,M,,M,,*65
06/03/2014	19:10:43.683	$GPGGA,191052,2543.8860,N,08009.7271,W,1,12,1.4,13,M,,M,,*6E
06/03/2014	19:10:44.664	$GPGGA,191053,2543.8859,N,08009.7272,W,1,12,1.4,13,M,,M,,*66
06/03/2014	19:10:45.648	$GPGGA,191054,2543.8858,N,08009.7271,W,1,12,1.4,13,M,,M,,*63
06/03/2014	19:10:46.644	$GPGGA,191055,2543.8860,N,08009.7272,W,1,12,1.4,13,M,,M,,*6A
06/03/2014	19:10:47.660	$GPGGA,191056,2543.8859,N,08009.7271,W,1,12,1.4,13,M,,M,,*60
06/03/2014	19:10:48.708	$GPGGA,191057,2543.8858,N,08009.7272,W,1,12,1.4,13,M,,M,,*63
06/03/2014	19:10:49.662	$GPGGA,191058,2543.8860,N,08009.7271,W,1,12,1.4,13,M,,M,,*64
06/03/2014	19:10:50.668	$GPGGA,191059,2543.8859,N,08009.7272,W,1,12,1.4,13,M,,M,,*6C
06/03/2014	19:10:51.684	$GPGGA,191100,2543.8858,N,08009.7271,W,1,12,1.4,13,M,,M,,*63
06/03/2014	19:10:52.670	$GPGGA,191101,2543.8859,N,08009.7272,W,1,12,1.4,13,M,,M,,*60
06/03/2014	19:10:53.676	$GPGGA,191102,2543.8858,N,08009.7271,W,1,12,1.4,13,M,,M,,*61
06/03/2014	19:10:54.692	$GPGGA,191103,2543.8859,N,08009.7272,W,1,12,1.4,13,M,,M,,*62
06/03/2014	19:10:55.688	$GPGGA,191104,2543.8857,N,08009.7271,W,1,12,1.4,13,M,,M,,*68
06/03/2014	19:10:56.694	$GPGGA,191105,2543.8857,N,08009.7270,W,1,12,1.4,13,M,,M,,*68
06/03/2014	19:10:57.680	$GPGGA,191106,2543.8857,N,08009.7270,W,1,12,1.4,13,M,,M,,*6B
06/03/2014	19:10:58.696	$GPGGA,191107,2543.8857,N,08009.7272,W,1,12,1.4,13,M,,M,,*68
06/03/2014	19:10:59.712	$GPGGA,191108,2543.8857,N,08009.7271,W,1,12,1.4,13,M,,M,,*64
06/03/2014	19:11:00.698	$GPGGA,191109,2543.8857,N,08009.7272,W,1,12,1.4,13,M,,M,,*66
06/03/2014	19:11:01.704	$GPGGA,191110,2543.8857,N,08009.7272,W,1,12,1.4,13,M,,M,,*6E
06/03/2014	19:11:02.729	$GPGGA,191111,2543.8857,N,08009.7272,W,1,12,1.4,13,M,,M,,*6F
06/03/2014	19:11:03.725	$GPGGA,191112,2543.8857,N,08009.7273,W,1,12,1.4,13,M,,M,,*6D
06/03/2014	19:11:04.731	$GPGGA,191113,2543.8857,N,08009.7273,W,1,12,1.4,13,M,,M,,*6C
06/03/2014	19:11:05.727	$GPGGA,191114,2543.8857,N,08009.7273,W,1,12,1.4,13,M,,M,,*6B
06/03/2014	19:11:06.723	$GPGGA,191115,2543.8857,N,08009.7274,W,1,12,1.4,13,M,,M,,*6D
06/03/2014	19:11:07.739	$GPGGA,191116,2543.8857,N,08009.7274,W,1,12,1.4,13,M,,M,,*6E
06/03/2014	19:11:08.755	$GPGGA,191117,2543.8857,N,08009.7274,W,1,12,1.4,13,M,,M,,*6F
06/03/2014	19:11:09.741	$GPGGA,191118,2543.8857,N,08009.7274,W,1,12,1.4,13,M,,M,,*60
06/03/2014	19:11:10.777	$GPGGA,191119,2543.8857,N,08009.7274,W,1,12,1.4,13,M,,M,,*61
06/03/2014	19:11:11.743	$GPGGA,191120,2543.8857,N,08009.7276,W,1,12,1.4,13,M,,M,,*69
06/03/2014	19:11:12.740	$GPGGA,191121,2543.8857,N,08009.7274,W,1,12,1.4,13,M,,M,,*6A
06/03/2014	19:11:13.745	$GPGGA,191122,2543.8857,N,08009.7274,W,1,12,1.4,13,M,,M,,*69
06/03/2014	19:11:14.781	$GPGGA,191123,2543.8857,N,08009.7276,W,1,12,1.4,13,M,,M,,*6A
06/03/2014	19:11:15.787	$GPGGA,191124,2543.8857,N,08009.7274,W,1,12,1.4,13,M,,M,,*6F
06/03/2014	19:11:16.773	$GPGGA,191125,2543.8857,N,08009.7276,W,1,12,1.4,13,M,,M,,*6C
06/03/2014	19:11:17.759	$GPGGA,191126,2543.8857,N,08009.7275,W,1,12,1.4,13,M,,M,,*6C
06/03/2014	19:11:18.887	$GPGGA,191127,2543.8857,N,08009.7274,W,1,11,1.4,13,M,,M,,*6F
06/03/2014	19:11:19.786	$GPGGA,191128,2543.8859,N,08009.7274,W,1,11,1.4,13,M,,M,,*6E
06/03/2014	19:11:20.786	$GPGGA,191129,2543.8857,N,08009.7274,W,1,12,1.4,13,M,,M,,*62
06/03/2014	19:11:21.772	$GPGGA,191130,2543.8859,N,08009.7276,W,1,12,1.4,13,M,,M,,*66
06/03/2014	19:11:22.430	$GPGGA,191131,2543.8858,N,08009.7274,W,1,12,1.4,13,M,,M,,*64
06/03/2014	19:11:23.557	$GPGGA,191132,2543.8859,N,08009.7274,W,1,12,1.4,13,M,,M,,*66
06/03/2014	19:11:24.432	$GPGGA,191133,2543.8860,N,08009.7276,W,1,12,1.4,13,M,,M,,*6F
06/03/2014	19:11:25.538	$GPGGA,191134,2543.8858,N,08009.7275,W,1,12,1.4,13,M,,M,,*60
06/03/2014	19:11:26.434	$GPGGA,191135,2543.8859,N,08009.7276,W,1,12,1.4,13,M,,M,,*63
06/03/2014	19:11:27.450	$GPGGA,191136,2543.8858,N,08009.7275,W,1,12,1.4,13,M,,M,,*62
06/03/2014	19:11:28.584	$GPGGA,191137,2543.8859,N,08009.7274,W,1,12,1.4,13,M,,M,,*63
06/03/2014	19:11:29.542	$GPGGA,191138,2543.8858,N,08009.7274,W,1,12,1.4,13,M,,M,,*6D
06/03/2014	19:11:30.468	$GPGGA,191139,2543.8857,N,08009.7274,W,1,12,1.4,13,M,,M,,*63
06/03/2014	19:11:31.464	$GPGGA,191140,2543.8857,N,08009.7274,W,1,12,1.6,13,M,,M,,*6F
06/03/2014	19:11:32.470	$GPGGA,191141,2543.8857,N,08009.7274,W,1,11,1.6,13,M,,M,,*6D
06/03/2014	19:11:33.556	$GPGGA,191142,2543.8857,N,08009.7274,W,1,11,1.6,13,M,,M,,*6E
06/03/2014	19:11:34.582	$GPGGA,191143,2543.8857,N,08009.7273,W,1,11,1.6,13,M,,M,,*68
06/03/2014	19:11:35.588	$GPGGA,191144,2543.8857,N,08009.7274,W,1,11,1.6,13,M,,M,,*68
06/03/2014	19:11:36.574	$GPGGA,191145,2543.8855,N,08009.7274,W,1,11,1.6,13,M,,M,,*6B
06/03/2014	19:11:37.589	$GPGGA,191146,2543.8856,N,08009.7274,W,1,11,1.6,13,M,,M,,*6B
06/03/2014	19:11:38.575	$GPGGA,191147,2543.8855,N,08009.7273,W,1,11,1.6,13,M,,M,,*6E
06/03/2014	19:11:39.611	$GPGGA,191148,2543.8854,N,08009.7273,W,1,11,1.6,13,M,,M,,*60
06/03/2014	19:11:40.597	$GPGGA,191149,2543.8855,N,08009.7273,W,1,11,1.6,13,M,,M,,*60
