Software Version Number: 1	Data File Format Number: 1	Build Version Number: 1	Error Count Since VI Started: 0	Manufacturer: Raytheon	 Model Number: RayMarine 120	 S/N: 	 Cal Date: 	 Wind Direction Offset: 0.00	 Slope (M)1: 0.00	 Offset (B)1: 0.00	 Slope (M)2: 0.00	 Offset (B)2: 0.00	 Slope (M)3: 0.00	 Offset (B)3: 0.00	 Slope (M)4: 0.00	 Offset (B)4: 0.00	 Slope (M)5: 0.00	 Offset (B)5: 0.00	 Slope (M)6: 0.00	 Offset (B)6: 0.00
Computer Date	Computer Time	GGA String
05/29/2014	17:00:00.650	$GPGGA,170008,2544.0811,N,07922.1333,W,1,9,1.9,13,M,,M,,*5E
05/29/2014	17:00:01.613	$GPGGA,170009,2544.0815,N,07922.1349,W,1,9,1.9,13,M,,M,,*56
05/29/2014	17:00:02.626	$GPGGA,170010,2544.0822,N,07922.1366,W,1,9,1.9,13,M,,M,,*57
05/29/2014	17:00:03.639	$GPGGA,170011,2544.0828,N,07922.1383,W,1,9,1.9,13,M,,M,,*57
05/29/2014	17:00:04.642	$GPGGA,170012,2544.0833,N,07922.1399,W,1,9,1.9,13,M,,M,,*55
05/29/2014	17:00:05.655	$GPGGA,170013,2544.0839,N,07922.1416,W,1,8,1.9,13,M,,M,,*5F
05/29/2014	17:00:06.638	$GPGGA,170014,2544.0846,N,07922.1431,W,1,8,1.9,13,M,,M,,*55
05/29/2014	17:00:07.662	$GPGGA,170015,2544.0851,N,07922.1447,W,1,9,1.9,13,M,,M,,*52
05/29/2014	17:00:08.654	$GPGGA,170016,2544.0855,N,07922.1464,W,1,9,1.9,13,M,,M,,*54
05/29/2014	17:00:09.647	$GPGGA,170017,2544.0862,N,07922.1481,W,1,9,1.9,13,M,,M,,*5A
05/29/2014	17:00:10.630	$GPGGA,170018,2544.0869,N,07922.1497,W,1,9,1.9,13,M,,M,,*59
05/29/2014	17:00:11.643	$GPGGA,170019,2544.0873,N,07922.1514,W,1,9,1.9,13,M,,M,,*59
05/29/2014	17:00:12.636	$GPGGA,170020,2544.0879,N,07922.1530,W,1,9,1.9,13,M,,M,,*5F
05/29/2014	17:00:13.658	$GPGGA,170021,2544.0887,N,07922.1546,W,1,9,1.9,13,M,,M,,*5E
05/29/2014	17:00:14.641	$GPGGA,170022,2544.0893,N,07922.1562,W,1,9,1.9,13,M,,M,,*5E
05/29/2014	17:00:15.664	$GPGGA,170023,2544.0896,N,07922.1579,W,1,9,1.9,13,M,,M,,*50
05/29/2014	17:00:16.647	$GPGGA,170024,2544.0901,N,07922.1595,W,1,9,1.9,13,M,,M,,*5A
05/29/2014	17:00:17.660	$GPGGA,170025,2544.0909,N,07922.1611,W,1,9,1.9,13,M,,M,,*5C
05/29/2014	17:00:18.643	$GPGGA,170026,2544.0915,N,07922.1629,W,1,9,2.1,13,M,,M,,*52
05/29/2014	17:00:19.636	$GPGGA,170027,2544.0919,N,07922.1645,W,1,9,1.9,13,M,,M,,*5E
05/29/2014	17:00:20.659	$GPGGA,170028,2544.0926,N,07922.1662,W,1,9,1.9,13,M,,M,,*58
05/29/2014	17:00:21.672	$GPGGA,170029,2544.0932,N,07922.1678,W,1,9,1.9,13,M,,M,,*57
05/29/2014	17:00:22.655	$GPGGA,170030,2544.0937,N,07922.1694,W,1,9,1.9,13,M,,M,,*58
05/29/2014	17:00:23.668	$GPGGA,170031,2544.0941,N,07922.1712,W,1,9,1.9,13,M,,M,,*57
05/29/2014	17:00:24.661	$GPGGA,170032,2544.0948,N,07922.1727,W,1,9,1.9,13,M,,M,,*5B
05/29/2014	17:00:25.664	$GPGGA,170033,2544.0954,N,07922.1745,W,1,9,1.9,13,M,,M,,*53
05/29/2014	17:00:26.637	$GPGGA,170034,2544.0959,N,07922.1761,W,1,9,1.9,13,M,,M,,*5F
05/29/2014	17:00:27.660	$GPGGA,170035,2544.0965,N,07922.1777,W,1,9,1.9,13,M,,M,,*56
05/29/2014	17:00:28.683	$GPGGA,170036,2544.0970,N,07922.1795,W,1,9,1.9,13,M,,M,,*5D
05/29/2014	17:00:29.656	$GPGGA,170037,2544.0974,N,07922.1811,W,1,9,1.9,13,M,,M,,*5B
05/29/2014	17:00:30.638	$GPGGA,170038,2544.0981,N,07922.1828,W,1,9,1.9,13,M,,M,,*54
05/29/2014	17:00:31.671	$GPGGA,170039,2544.0987,N,07922.1843,W,1,9,1.9,13,M,,M,,*5E
05/29/2014	17:00:32.674	$GPGGA,170040,2544.0991,N,07922.1861,W,1,9,1.9,13,M,,M,,*57
05/29/2014	17:00:33.619	$GPGGA,170041,2544.0995,N,07922.1878,W,1,9,1.9,13,M,,M,,*5A
05/29/2014	17:00:34.482	$GPGGA,170042,2544.1003,N,07922.1893,W,1,9,1.9,13,M,,M,,*5B
05/29/2014	17:00:35.464	$GPGGA,170043,2544.1008,N,07922.1911,W,1,9,1.9,13,M,,M,,*5A
05/29/2014	17:00:36.658	$GPGGA,170044,2544.1012,N,07922.1927,W,1,9,1.9,13,M,,M,,*53
05/29/2014	17:00:37.632	$GPGGA,170045,2544.1017,N,07922.1944,W,1,9,1.9,13,M,,M,,*52
05/29/2014	17:00:38.574	$GPGGA,170046,2544.1024,N,07922.1959,W,1,9,1.9,13,M,,M,,*5D
05/29/2014	17:00:39.487	$GPGGA,170047,2544.1028,N,07922.1976,W,1,9,1.9,13,M,,M,,*5D
05/29/2014	17:00:40.660	$GPGGA,170048,2544.1032,N,07922.1994,W,1,9,1.9,13,M,,M,,*55
05/29/2014	17:00:41.633	$GPGGA,170049,2544.1039,N,07922.2009,W,1,9,1.9,13,M,,M,,*51
05/29/2014	17:00:42.646	$GPGGA,170050,2544.1046,N,07922.2025,W,1,9,1.9,13,M,,M,,*5F
05/29/2014	17:00:43.619	$GPGGA,170051,2544.1049,N,07922.2042,W,1,9,1.9,13,M,,M,,*50
05/29/2014	17:00:44.662	$GPGGA,170052,2544.1055,N,07922.2059,W,1,9,1.9,13,M,,M,,*54
05/29/2014	17:00:45.615	$GPGGA,170053,2544.1060,N,07922.2075,W,1,9,1.9,13,M,,M,,*5D
05/29/2014	17:00:46.648	$GPGGA,170054,2544.1067,N,07922.2092,W,1,9,1.9,13,M,,M,,*54
05/29/2014	17:00:47.582	$GPGGA,170055,2544.1071,N,07922.2108,W,1,9,1.9,13,M,,M,,*50
05/29/2014	17:00:48.663	$GPGGA,170056,2544.1075,N,07922.2125,W,1,9,1.9,13,M,,M,,*58
05/29/2014	17:00:49.626	$GPGGA,170057,2544.1082,N,07922.2142,W,1,9,1.9,13,M,,M,,*50
05/29/2014	17:00:50.579	$GPGGA,170058,2544.1088,N,07922.2158,W,1,9,1.9,13,M,,M,,*5E
05/29/2014	17:00:51.622	$GPGGA,170059,2544.1093,N,07922.2175,W,1,9,1.9,13,M,,M,,*5A
05/29/2014	17:00:52.685	$GPGGA,170100,2544.1097,N,07922.2191,W,1,9,1.9,13,M,,M,,*59
05/29/2014	17:00:53.628	$GPGGA,170101,2544.1104,N,07922.2208,W,1,9,1.9,13,M,,M,,*50
05/29/2014	17:00:55.897	$GPGGA,170103,2544.1115,N,07922.2241,W,1,9,1.9,14,M,,M,,*58
05/29/2014	17:00:56.667	$GPGGA,170104,2544.1120,N,07922.2258,W,1,9,1.9,14,M,,M,,*51
05/29/2014	17:00:57.631	$GPGGA,170105,2544.1125,N,07922.2274,W,1,9,1.9,14,M,,M,,*5B
05/29/2014	17:00:58.643	$GPGGA,170106,2544.1132,N,07922.2291,W,1,9,1.9,14,M,,M,,*55
05/29/2014	17:00:59.637	$GPGGA,170107,2544.1138,N,07922.2308,W,1,9,1.9,14,M,,M,,*5F
05/29/2014	17:01:00.599	$GPGGA,170108,2544.1143,N,07922.2323,W,1,9,1.9,14,M,,M,,*55
05/29/2014	17:01:01.632	$GPGGA,170109,2544.1147,N,07922.2341,W,1,9,1.9,14,M,,M,,*54
05/29/2014	17:01:02.655	$GPGGA,170110,2544.1154,N,07922.2359,W,1,9,1.9,14,M,,M,,*57
05/29/2014	17:01:03.648	$GPGGA,170111,2544.1160,N,07922.2374,W,1,9,1.9,14,M,,M,,*5E
05/29/2014	17:01:04.671	$GPGGA,170112,2544.1165,N,07922.2391,W,1,9,1.9,14,M,,M,,*53
05/29/2014	17:01:05.653	$GPGGA,170113,2544.1171,N,07922.2407,W,1,9,1.9,14,M,,M,,*5F
05/29/2014	17:01:06.656	$GPGGA,170114,2544.1176,N,07922.2424,W,1,9,1.9,14,M,,M,,*5E
05/29/2014	17:01:07.679	$GPGGA,170115,2544.1182,N,07922.2440,W,1,9,1.9,14,M,,M,,*56
05/29/2014	17:01:08.612	$GPGGA,170116,2544.1187,N,07922.2457,W,1,9,1.9,14,M,,M,,*56
05/29/2014	17:01:09.635	$GPGGA,170117,2544.1193,N,07922.2473,W,1,8,1.9,14,M,,M,,*55
05/29/2014	17:01:10.598	$GPGGA,170118,2544.1198,N,07922.2490,W,1,8,1.9,14,M,,M,,*5C
05/29/2014	17:01:11.651	$GPGGA,170119,2544.1203,N,07922.2508,W,1,9,1.9,14,M,,M,,*5D
05/29/2014	17:01:12.684	$GPGGA,170120,2544.1208,N,07922.2525,W,1,9,1.9,14,M,,M,,*53
05/29/2014	17:01:13.717	$GPGGA,170121,2544.1214,N,07922.2541,W,1,9,1.9,14,M,,M,,*5D
05/29/2014	17:01:14.670	$GPGGA,170122,2544.1219,N,07922.2558,W,1,9,1.9,14,M,,M,,*5B
05/29/2014	17:01:15.733	$GPGGA,170123,2544.1225,N,07922.2576,W,1,9,1.9,14,M,,M,,*59
05/29/2014	17:01:16.686	$GPGGA,170124,2544.1230,N,07922.2592,W,1,9,1.9,14,M,,M,,*50
05/29/2014	17:01:17.679	$GPGGA,170125,2544.1234,N,07922.2609,W,1,9,1.9,14,M,,M,,*54
05/29/2014	17:01:18.673	$GPGGA,170126,2544.1240,N,07922.2626,W,1,9,1.9,14,M,,M,,*59
05/29/2014	17:01:19.665	$GPGGA,170127,2544.1247,N,07922.2642,W,1,9,1.9,14,M,,M,,*5D
05/29/2014	17:01:20.678	$GPGGA,170128,2544.1252,N,07922.2659,W,1,9,1.9,14,M,,M,,*5C
05/29/2014	17:01:21.741	$GPGGA,170129,2544.1255,N,07922.2677,W,1,9,1.9,14,M,,M,,*56
05/29/2014	17:01:22.674	$GPGGA,170130,2544.1263,N,07922.2693,W,1,9,1.9,14,M,,M,,*51
05/29/2014	17:01:23.646	$GPGGA,170131,2544.1269,N,07922.2710,W,1,9,1.9,14,M,,M,,*50
05/29/2014	17:01:24.729	$GPGGA,170132,2544.1272,N,07922.2728,W,1,9,1.9,14,M,,M,,*52
05/29/2014	17:01:25.652	$GPGGA,170133,2544.1277,N,07922.2743,W,1,9,1.9,14,M,,M,,*5B
05/29/2014	17:01:26.675	$GPGGA,170134,2544.1284,N,07922.2760,W,1,9,1.9,14,M,,M,,*51
05/29/2014	17:01:27.748	$GPGGA,170135,2544.1290,N,07922.2776,W,1,9,1.9,14,M,,M,,*52
05/29/2014	17:01:28.751	$GPGGA,170136,2544.1292,N,07922.2793,W,1,9,1.9,14,M,,M,,*58
05/29/2014	17:01:29.724	$GPGGA,170137,2544.1299,N,07922.2811,W,1,8,1.9,13,M,,M,,*51
05/29/2014	17:01:30.727	$GPGGA,170138,2544.1305,N,07922.2826,W,1,8,1.9,13,M,,M,,*5E
05/29/2014	17:01:31.710	$GPGGA,170139,2544.1310,N,07922.2843,W,1,9,1.9,13,M,,M,,*59
05/29/2014	17:01:32.733	$GPGGA,170140,2544.1315,N,07922.2858,W,1,9,1.9,13,M,,M,,*58
05/29/2014	17:01:33.538	$GPGGA,170141,2544.1320,N,07922.2874,W,1,9,1.9,13,M,,M,,*51
05/29/2014	17:01:34.541	$GPGGA,170142,2544.1328,N,07922.2890,W,1,9,1.9,13,M,,M,,*50
05/29/2014	17:01:35.544	$GPGGA,170143,2544.1333,N,07922.2906,W,1,9,1.9,13,M,,M,,*55
05/29/2014	17:01:36.577	$GPGGA,170144,2544.1338,N,07922.2923,W,1,9,1.9,13,M,,M,,*5E
05/29/2014	17:01:37.570	$GPGGA,170145,2544.1342,N,07922.2941,W,1,9,1.9,13,M,,M,,*56
05/29/2014	17:01:38.543	$GPGGA,170146,2544.1349,N,07922.2956,W,1,9,1.9,13,M,,M,,*58
05/29/2014	17:01:39.556	$GPGGA,170147,2544.1355,N,07922.2973,W,1,9,1.9,13,M,,M,,*53
05/29/2014	17:01:40.568	$GPGGA,170148,2544.1360,N,07922.2989,W,1,9,1.9,13,M,,M,,*5F
05/29/2014	17:01:41.561	$GPGGA,170149,2544.1367,N,07922.3006,W,1,9,1.9,13,M,,M,,*56
05/29/2014	17:01:42.565	$GPGGA,170150,2544.1371,N,07922.3022,W,1,9,1.9,13,M,,M,,*5F
05/29/2014	17:01:43.567	$GPGGA,170151,2544.1378,N,07922.3038,W,1,9,1.9,13,M,,M,,*5C
05/29/2014	17:01:44.580	$GPGGA,170152,2544.1382,N,07922.3056,W,1,9,1.9,13,M,,M,,*52
05/29/2014	17:01:45.584	$GPGGA,170153,2544.1388,N,07922.3072,W,1,9,1.9,13,M,,M,,*5F
05/29/2014	17:01:46.597	$GPGGA,170154,2544.1395,N,07922.3089,W,1,9,1.9,13,M,,M,,*50
05/29/2014	17:01:47.589	$GPGGA,170155,2544.1400,N,07922.3104,W,1,9,1.9,13,M,,M,,*5E
05/29/2014	17:01:48.582	$GPGGA,170156,2544.1404,N,07922.3122,W,1,9,1.9,13,M,,M,,*5D
05/29/2014	17:01:49.605	$GPGGA,170157,2544.1411,N,07922.3139,W,1,9,1.9,13,M,,M,,*52
05/29/2014	17:01:50.568	$GPGGA,170158,2544.1418,N,07922.3155,W,1,9,1.9,13,M,,M,,*5E
05/29/2014	17:01:51.591	$GPGGA,170159,2544.1422,N,07922.3172,W,1,9,1.9,13,M,,M,,*53
05/29/2014	17:01:52.595	$GPGGA,170200,2544.1422,N,07922.3172,W,1,9,1.9,13,M,,M,,*5C
05/29/2014	17:01:53.587	$GPGGA,170201,2544.1433,N,07922.3205,W,1,9,1.9,13,M,,M,,*5E
05/29/2014	17:01:54.590	$GPGGA,170202,2544.1442,N,07922.3222,W,1,9,1.9,13,M,,M,,*5E
05/29/2014	17:01:55.583	$GPGGA,170203,2544.1446,N,07922.3238,W,1,9,1.9,13,M,,M,,*50
05/29/2014	17:01:56.616	$GPGGA,170204,2544.1451,N,07922.3255,W,1,9,1.9,13,M,,M,,*5A
05/29/2014	17:01:57.569	$GPGGA,170205,2544.1458,N,07922.3270,W,1,9,1.9,13,M,,M,,*55
05/29/2014	17:01:58.660	$GPGGA,170206,2544.1462,N,07922.3288,W,1,9,1.9,13,M,,M,,*58
05/29/2014	17:01:59.673	$GPGGA,170207,2544.1469,N,07922.3303,W,1,9,1.9,13,M,,M,,*50
05/29/2014	17:02:00.595	$GPGGA,170208,2544.1469,N,07922.3303,W,1,9,1.9,13,M,,M,,*5F
05/29/2014	17:02:01.688	$GPGGA,170209,2544.1479,N,07922.3338,W,1,9,1.9,13,M,,M,,*57
05/29/2014	17:02:02.571	$GPGGA,170210,2544.1486,N,07922.3353,W,1,9,1.9,13,M,,M,,*52
05/29/2014	17:02:03.573	$GPGGA,170211,2544.1494,N,07922.3370,W,1,9,1.9,13,M,,M,,*51
05/29/2014	17:02:04.626	$GPGGA,170212,2544.1500,N,07922.3386,W,1,9,1.9,13,M,,M,,*57
05/29/2014	17:02:05.569	$GPGGA,170213,2544.1503,N,07922.3403,W,1,9,1.9,13,M,,M,,*5F
05/29/2014	17:02:06.662	$GPGGA,170214,2544.1508,N,07922.3419,W,1,9,1.9,13,M,,M,,*58
05/29/2014	17:02:07.584	$GPGGA,170215,2544.1516,N,07922.3436,W,1,9,1.9,13,M,,M,,*5B
05/29/2014	17:02:08.587	$GPGGA,170216,2544.1516,N,07922.3436,W,1,9,1.9,13,M,,M,,*58
05/29/2014	17:02:09.700	$GPGGA,170217,2544.1523,N,07922.3468,W,1,9,1.9,13,M,,M,,*54
05/29/2014	17:02:10.582	$GPGGA,170218,2544.1523,N,07922.3468,W,1,9,2.0,13,M,,M,,*51
05/29/2014	17:02:11.575	$GPGGA,170219,2544.1537,N,07922.3499,W,1,9,1.9,13,M,,M,,*51
05/29/2014	17:02:12.679	$GPGGA,170220,2544.1541,N,07922.3515,W,1,9,1.9,13,M,,M,,*5F
05/29/2014	17:02:13.711	$GPGGA,170221,2544.1547,N,07922.3531,W,1,9,1.9,13,M,,M,,*5E
05/29/2014	17:02:14.663	$GPGGA,170222,2544.1551,N,07922.3548,W,1,9,1.9,13,M,,M,,*54
05/29/2014	17:02:15.665	$GPGGA,170223,2544.1557,N,07922.3564,W,1,9,1.9,13,M,,M,,*5D
05/29/2014	17:02:16.708	$GPGGA,170224,2544.1563,N,07922.3580,W,1,9,1.9,13,M,,M,,*57
05/29/2014	17:02:17.680	$GPGGA,170225,2544.1568,N,07922.3596,W,1,9,1.9,13,M,,M,,*5A
05/29/2014	17:02:18.673	$GPGGA,170226,2544.1573,N,07922.3613,W,1,9,1.9,13,M,,M,,*5D
05/29/2014	17:02:19.666	$GPGGA,170227,2544.1577,N,07922.3629,W,1,9,1.9,13,M,,M,,*51
05/29/2014	17:02:20.690	$GPGGA,170228,2544.1584,N,07922.3645,W,1,9,1.9,13,M,,M,,*58
05/29/2014	17:02:21.691	$GPGGA,170229,2544.1590,N,07922.3661,W,1,9,1.9,13,M,,M,,*5A
05/29/2014	17:02:22.684	$GPGGA,170230,2544.1595,N,07922.3678,W,1,9,1.9,13,M,,M,,*5F
05/29/2014	17:02:23.687	$GPGGA,170231,2544.1599,N,07922.3694,W,1,9,1.9,13,M,,M,,*50
05/29/2014	17:02:24.689	$GPGGA,170232,2544.1605,N,07922.3711,W,1,9,1.9,12,M,,M,,*58
05/29/2014	17:02:25.682	$GPGGA,170233,2544.1610,N,07922.3728,W,1,9,1.9,12,M,,M,,*57
05/29/2014	17:02:26.685	$GPGGA,170234,2544.1616,N,07922.3744,W,1,9,1.9,12,M,,M,,*5C
05/29/2014	17:02:27.697	$GPGGA,170235,2544.1620,N,07922.3761,W,1,9,1.9,12,M,,M,,*5F
05/29/2014	17:02:28.690	$GPGGA,170236,2544.1626,N,07922.3777,W,1,9,1.9,12,M,,M,,*5D
05/29/2014	17:02:29.703	$GPGGA,170237,2544.1631,N,07922.3793,W,1,9,1.9,12,M,,M,,*50
05/29/2014	17:02:30.685	$GPGGA,170238,2544.1637,N,07922.3811,W,1,9,1.9,12,M,,M,,*5C
05/29/2014	17:02:31.708	$GPGGA,170239,2544.1642,N,07922.3827,W,1,9,1.9,12,M,,M,,*5A
05/29/2014	17:02:32.691	$GPGGA,170240,2544.1648,N,07922.3844,W,1,9,1.9,12,M,,M,,*5B
05/29/2014	17:02:33.545	$GPGGA,170241,2544.1653,N,07922.3860,W,1,9,1.9,12,M,,M,,*56
05/29/2014	17:02:34.518	$GPGGA,170242,2544.1657,N,07922.3877,W,1,9,1.9,12,M,,M,,*57
05/29/2014	17:02:35.530	$GPGGA,170243,2544.1664,N,07922.3894,W,1,9,1.9,12,M,,M,,*5B
05/29/2014	17:02:36.533	$GPGGA,170244,2544.1670,N,07922.3910,W,1,9,1.9,12,M,,M,,*54
05/29/2014	17:02:37.505	$GPGGA,170245,2544.1675,N,07922.3927,W,1,9,1.9,12,M,,M,,*54
05/29/2014	17:02:38.518	$GPGGA,170246,2544.1681,N,07922.3943,W,1,9,1.9,12,M,,M,,*5E
05/29/2014	17:02:39.521	$GPGGA,170247,2544.1686,N,07922.3960,W,1,9,1.9,12,M,,M,,*59
05/29/2014	17:02:40.533	$GPGGA,170248,2544.1693,N,07922.3977,W,1,9,1.9,12,M,,M,,*54
05/29/2014	17:02:41.506	$GPGGA,170249,2544.1699,N,07922.3993,W,1,9,1.9,12,M,,M,,*55
05/29/2014	17:02:42.529	$GPGGA,170250,2544.1703,N,07922.4010,W,1,9,1.9,12,M,,M,,*5A
05/29/2014	17:02:43.521	$GPGGA,170251,2544.1710,N,07922.4026,W,1,9,1.9,12,M,,M,,*5C
05/29/2014	17:02:44.534	$GPGGA,170252,2544.1717,N,07922.4043,W,1,9,1.9,12,M,,M,,*5B
05/29/2014	17:02:45.547	$GPGGA,170253,2544.1721,N,07922.4061,W,1,9,1.9,12,M,,M,,*5F
05/29/2014	17:02:46.519	$GPGGA,170254,2544.1727,N,07922.4077,W,1,9,2.0,12,M,,M,,*53
05/29/2014	17:02:47.532	$GPGGA,170255,2544.1734,N,07922.4094,W,1,9,1.9,12,M,,M,,*57
05/29/2014	17:02:48.545	$GPGGA,170256,2544.1740,N,07922.4111,W,1,9,1.9,12,M,,M,,*5B
05/29/2014	17:02:49.608	$GPGGA,170257,2544.1746,N,07922.4127,W,1,9,1.9,12,M,,M,,*59
05/29/2014	17:02:50.539	$GPGGA,170258,2544.1750,N,07922.4144,W,1,9,1.9,12,M,,M,,*54
05/29/2014	17:02:51.522	$GPGGA,170259,2544.1756,N,07922.4160,W,1,9,1.9,12,M,,M,,*55
05/29/2014	17:02:52.555	$GPGGA,170300,2544.1764,N,07922.4177,W,1,9,1.9,12,M,,M,,*5F
05/29/2014	17:02:53.537	$GPGGA,170301,2544.1769,N,07922.4194,W,1,9,1.9,12,M,,M,,*5E
05/29/2014	17:02:54.620	$GPGGA,170302,2544.1774,N,07922.4210,W,1,9,1.9,12,M,,M,,*5E
05/29/2014	17:02:55.623	$GPGGA,170303,2544.1781,N,07922.4227,W,1,9,1.9,12,M,,M,,*51
05/29/2014	17:02:56.545	$GPGGA,170304,2544.1789,N,07922.4243,W,1,9,1.9,12,M,,M,,*5C
05/29/2014	17:02:57.528	$GPGGA,170305,2544.1794,N,07922.4260,W,1,9,1.9,12,M,,M,,*50
05/29/2014	17:02:58.611	$GPGGA,170306,2544.1799,N,07922.4277,W,1,9,1.9,12,M,,M,,*58
05/29/2014	17:02:59.654	$GPGGA,170307,2544.1805,N,07922.4295,W,1,9,1.9,12,M,,M,,*5F
05/29/2014	17:03:00.646	$GPGGA,170308,2544.1812,N,07922.4311,W,1,9,1.9,12,M,,M,,*5B
05/29/2014	17:03:01.619	$GPGGA,170309,2544.1818,N,07922.4328,W,1,9,1.9,12,M,,M,,*5A
05/29/2014	17:03:02.632	$GPGGA,170310,2544.1822,N,07922.4344,W,1,9,1.9,12,M,,M,,*51
05/29/2014	17:03:03.637	$GPGGA,170311,2544.1828,N,07922.4362,W,1,9,1.9,12,M,,M,,*5E
05/29/2014	17:03:04.647	$GPGGA,170312,2544.1833,N,07922.4379,W,1,9,1.9,12,M,,M,,*5D
05/29/2014	17:03:05.643	$GPGGA,170313,2544.1840,N,07922.4395,W,1,9,1.9,12,M,,M,,*5A
05/29/2014	17:03:06.623	$GPGGA,170314,2544.1844,N,07922.4412,W,1,9,1.9,12,M,,M,,*51
05/29/2014	17:03:07.624	$GPGGA,170315,2544.1850,N,07922.4430,W,1,9,1.9,12,M,,M,,*55
05/29/2014	17:03:08.637	$GPGGA,170316,2544.1857,N,07922.4445,W,1,9,2.0,12,M,,M,,*59
05/29/2014	17:03:09.651	$GPGGA,170317,2544.1862,N,07922.4462,W,1,9,1.9,12,M,,M,,*51
05/29/2014	17:03:10.632	$GPGGA,170318,2544.1868,N,07922.4480,W,1,9,1.9,12,M,,M,,*58
05/29/2014	17:03:11.645	$GPGGA,170319,2544.1873,N,07922.4496,W,1,9,1.9,12,M,,M,,*54
05/29/2014	17:03:12.648	$GPGGA,170320,2544.1879,N,07922.4512,W,1,9,1.9,12,M,,M,,*59
05/29/2014	17:03:13.621	$GPGGA,170321,2544.1884,N,07922.4530,W,1,9,1.9,12,M,,M,,*5A
05/29/2014	17:03:14.633	$GPGGA,170322,2544.1888,N,07922.4546,W,1,9,1.9,12,M,,M,,*54
05/29/2014	17:03:15.626	$GPGGA,170323,2544.1894,N,07922.4563,W,1,9,1.9,12,M,,M,,*5F
05/29/2014	17:03:16.649	$GPGGA,170324,2544.1898,N,07922.4581,W,1,9,1.9,12,M,,M,,*58
05/29/2014	17:03:17.672	$GPGGA,170325,2544.1904,N,07922.4597,W,1,8,2.0,13,M,,M,,*50
05/29/2014	17:03:18.634	$GPGGA,170326,2544.1909,N,07922.4614,W,1,8,1.9,13,M,,M,,*5C
05/29/2014	17:03:19.627	$GPGGA,170327,2544.1916,N,07922.4632,W,1,9,1.9,13,M,,M,,*56
05/29/2014	17:03:20.649	$GPGGA,170328,2544.1920,N,07922.4646,W,1,9,1.9,13,M,,M,,*5F
05/29/2014	17:03:21.662	$GPGGA,170329,2544.1927,N,07922.4664,W,1,9,1.9,13,M,,M,,*59
05/29/2014	17:03:22.645	$GPGGA,170330,2544.1931,N,07922.4680,W,1,9,1.9,13,M,,M,,*5C
05/29/2014	17:03:23.667	$GPGGA,170331,2544.1937,N,07922.4697,W,1,9,1.9,13,M,,M,,*5D
05/29/2014	17:03:24.650	$GPGGA,170332,2544.1942,N,07922.4714,W,1,9,1.9,13,M,,M,,*56
05/29/2014	17:03:25.632	$GPGGA,170333,2544.1948,N,07922.4730,W,1,9,1.9,13,M,,M,,*5B
05/29/2014	17:03:26.644	$GPGGA,170334,2544.1953,N,07922.4747,W,1,9,1.9,13,M,,M,,*56
05/29/2014	17:03:27.627	$GPGGA,170335,2544.1958,N,07922.4762,W,1,9,1.9,13,M,,M,,*5B
05/29/2014	17:03:28.770	$GPGGA,170336,2544.1964,N,07922.4779,W,1,9,1.9,13,M,,M,,*5D
05/29/2014	17:03:29.673	$GPGGA,170337,2544.1970,N,07922.4795,W,1,9,1.9,13,M,,M,,*5B
05/29/2014	17:03:30.645	$GPGGA,170338,2544.1974,N,07922.4812,W,1,9,1.9,13,M,,M,,*50
05/29/2014	17:03:31.638	$GPGGA,170339,2544.1981,N,07922.4828,W,1,9,1.9,13,M,,M,,*52
05/29/2014	17:03:32.661	$GPGGA,170340,2544.1985,N,07922.4845,W,1,9,1.9,13,M,,M,,*53
05/29/2014	17:03:33.493	$GPGGA,170341,2544.1992,N,07922.4861,W,1,9,1.9,13,M,,M,,*52
05/29/2014	17:03:34.476	$GPGGA,170342,2544.1998,N,07922.4877,W,1,9,1.9,13,M,,M,,*5C
05/29/2014	17:03:35.479	$GPGGA,170343,2544.2003,N,07922.4893,W,1,9,1.9,13,M,,M,,*5F
05/29/2014	17:03:36.612	$GPGGA,170344,2544.2009,N,07922.4910,W,1,9,1.9,13,M,,M,,*58
05/29/2014	17:03:37.484	$GPGGA,170345,2544.2014,N,07922.4928,W,1,9,1.9,13,M,,M,,*5E
05/29/2014	17:03:38.577	$GPGGA,170346,2544.2020,N,07922.4944,W,1,9,1.9,13,M,,M,,*50
05/29/2014	17:03:39.500	$GPGGA,170347,2544.2025,N,07922.4960,W,1,9,1.9,13,M,,M,,*52
05/29/2014	17:03:40.613	$GPGGA,170348,2544.2031,N,07922.4978,W,1,9,1.9,13,M,,M,,*51
05/29/2014	17:03:41.585	$GPGGA,170349,2544.2036,N,07922.4994,W,1,9,1.9,13,M,,M,,*55
05/29/2014	17:03:42.488	$GPGGA,170350,2544.2040,N,07922.5011,W,1,9,1.9,13,M,,M,,*59
05/29/2014	17:03:43.489	$GPGGA,170351,2544.2047,N,07922.5029,W,1,9,1.9,13,M,,M,,*54
05/29/2014	17:03:44.502	$GPGGA,170352,2544.2054,N,07922.5045,W,1,9,1.9,13,M,,M,,*5F
05/29/2014	17:03:45.595	$GPGGA,170353,2544.2057,N,07922.5062,W,1,9,1.9,13,M,,M,,*58
05/29/2014	17:03:46.491	$GPGGA,170354,2544.2063,N,07922.5079,W,1,9,1.9,13,M,,M,,*52
05/29/2014	17:03:47.580	$GPGGA,170355,2544.2070,N,07922.5095,W,1,9,1.9,13,M,,M,,*53
05/29/2014	17:03:48.603	$GPGGA,170356,2544.2075,N,07922.5113,W,1,9,1.9,13,M,,M,,*5A
05/29/2014	17:03:49.596	$GPGGA,170357,2544.2079,N,07922.5130,W,1,9,1.9,13,M,,M,,*56
05/29/2014	17:03:50.588	$GPGGA,170358,2544.2086,N,07922.5146,W,1,9,1.9,13,M,,M,,*58
05/29/2014	17:03:51.621	$GPGGA,170359,2544.2093,N,07922.5163,W,1,9,1.9,13,M,,M,,*5A
05/29/2014	17:03:52.614	$GPGGA,170400,2544.2097,N,07922.5181,W,1,9,1.9,13,M,,M,,*59
05/29/2014	17:03:53.587	$GPGGA,170401,2544.2104,N,07922.5197,W,1,9,1.9,13,M,,M,,*54
05/29/2014	17:03:54.599	$GPGGA,170402,2544.2111,N,07922.5213,W,1,9,1.9,13,M,,M,,*5C
05/29/2014	17:03:55.612	$GPGGA,170403,2544.2115,N,07922.5231,W,1,9,1.9,13,M,,M,,*59
05/29/2014	17:03:56.605	$GPGGA,170404,2544.2121,N,07922.5247,W,1,9,1.9,13,M,,M,,*58
05/29/2014	17:03:57.618	$GPGGA,170405,2544.2128,N,07922.5264,W,1,9,1.9,13,M,,M,,*51
05/29/2014	17:03:58.590	$GPGGA,170406,2544.2135,N,07922.5280,W,1,9,1.9,13,M,,M,,*54
05/29/2014	17:03:59.623	$GPGGA,170407,2544.2139,N,07922.5297,W,1,9,1.9,13,M,,M,,*5F
05/29/2014	17:04:00.604	$GPGGA,170408,2544.2144,N,07922.5314,W,1,9,2.0,13,M,,M,,*5A
05/29/2014	17:04:01.617	$GPGGA,170409,2544.2151,N,07922.5329,W,1,9,1.9,13,M,,M,,*5B
05/29/2014	17:04:02.590	$GPGGA,170410,2544.2159,N,07922.5347,W,1,9,1.9,13,M,,M,,*53
05/29/2014	17:04:03.623	$GPGGA,170411,2544.2162,N,07922.5363,W,1,9,1.9,13,M,,M,,*5C
05/29/2014	17:04:04.605	$GPGGA,170412,2544.2168,N,07922.5379,W,1,9,1.9,13,M,,M,,*5E
05/29/2014	17:04:05.588	$GPGGA,170413,2544.2176,N,07922.5395,W,1,9,1.9,13,M,,M,,*52
05/29/2014	17:04:06.590	$GPGGA,170414,2544.2182,N,07922.5412,W,1,9,1.9,13,M,,M,,*56
05/29/2014	17:04:07.603	$GPGGA,170415,2544.2186,N,07922.5428,W,1,9,1.9,13,M,,M,,*5A
05/29/2014	17:04:08.616	$GPGGA,170416,2544.2191,N,07922.5444,W,1,9,1.9,13,M,,M,,*55
05/29/2014	17:04:09.630	$GPGGA,170417,2544.2198,N,07922.5460,W,1,9,1.9,13,M,,M,,*5B
05/29/2014	17:04:10.601	$GPGGA,170418,2544.2205,N,07922.5477,W,1,9,1.9,13,M,,M,,*55
05/29/2014	17:04:11.605	$GPGGA,170419,2544.2209,N,07922.5493,W,1,9,1.9,13,M,,M,,*52
05/29/2014	17:04:12.627	$GPGGA,170420,2544.2216,N,07922.5509,W,1,9,1.9,13,M,,M,,*54
05/29/2014	17:04:13.619	$GPGGA,170421,2544.2220,N,07922.5525,W,1,9,1.9,13,M,,M,,*5E
05/29/2014	17:04:14.612	$GPGGA,170422,2544.2227,N,07922.5542,W,1,9,1.9,13,M,,M,,*5B
05/29/2014	17:04:15.605	$GPGGA,170423,2544.2233,N,07922.5557,W,1,9,1.9,13,M,,M,,*5B
05/29/2014	17:04:16.617	$GPGGA,170424,2544.2238,N,07922.5574,W,1,9,1.9,13,M,,M,,*56
05/29/2014	17:04:17.619	$GPGGA,170425,2544.2245,N,07922.5590,W,1,9,1.9,13,M,,M,,*57
05/29/2014	17:04:18.612	$GPGGA,170426,2544.2249,N,07922.5605,W,1,9,1.9,13,M,,M,,*57
05/29/2014	17:04:19.705	$GPGGA,170427,2544.2255,N,07922.5622,W,1,9,1.9,13,M,,M,,*5E
05/29/2014	17:04:20.607	$GPGGA,170428,2544.2260,N,07922.5639,W,1,9,1.9,13,M,,M,,*5D
05/29/2014	17:04:21.600	$GPGGA,170429,2544.2266,N,07922.5654,W,1,9,1.9,13,M,,M,,*51
05/29/2014	17:04:22.693	$GPGGA,170430,2544.2271,N,07922.5672,W,1,9,1.9,13,M,,M,,*5B
05/29/2014	17:04:23.625	$GPGGA,170431,2544.2276,N,07922.5688,W,1,9,1.9,13,M,,M,,*58
05/29/2014	17:04:24.628	$GPGGA,170432,2544.2282,N,07922.5704,W,1,9,1.9,13,M,,M,,*55
05/29/2014	17:04:25.621	$GPGGA,170433,2544.2287,N,07922.5720,W,1,9,1.9,13,M,,M,,*57
05/29/2014	17:04:26.704	$GPGGA,170434,2544.2291,N,07922.5737,W,1,9,1.9,12,M,,M,,*50
05/29/2014	17:04:27.597	$GPGGA,170435,2544.2299,N,07922.5753,W,1,8,2.0,12,M,,M,,*50
05/29/2014	17:04:28.629	$GPGGA,170436,2544.2305,N,07922.5770,W,1,8,1.9,12,M,,M,,*5C
05/29/2014	17:04:29.702	$GPGGA,170437,2544.2307,N,07922.5785,W,1,9,1.9,12,M,,M,,*54
05/29/2014	17:04:30.704	$GPGGA,170438,2544.2314,N,07922.5802,W,1,9,1.9,12,M,,M,,*59
05/29/2014	17:04:31.617	$GPGGA,170439,2544.2321,N,07922.5817,W,1,9,1.9,12,M,,M,,*5A
05/29/2014	17:04:32.720	$GPGGA,170440,2544.2325,N,07922.5834,W,1,9,1.9,12,M,,M,,*51
05/29/2014	17:04:33.552	$GPGGA,170441,2544.2329,N,07922.5850,W,1,9,1.9,12,M,,M,,*5E
05/29/2014	17:04:34.554	$GPGGA,170442,2544.2336,N,07922.5867,W,1,9,1.9,12,M,,M,,*57
05/29/2014	17:04:35.566	$GPGGA,170443,2544.2343,N,07922.5882,W,1,9,1.9,12,M,,M,,*5F
05/29/2014	17:04:36.569	$GPGGA,170444,2544.2347,N,07922.5899,W,1,9,1.9,12,M,,M,,*56
05/29/2014	17:04:37.541	$GPGGA,170445,2544.2353,N,07922.5915,W,1,9,1.9,12,M,,M,,*57
05/29/2014	17:04:38.545	$GPGGA,170446,2544.2359,N,07922.5932,W,1,9,1.9,12,M,,M,,*5B
05/29/2014	17:04:39.568	$GPGGA,170447,2544.2365,N,07922.5948,W,1,9,1.9,12,M,,M,,*58
05/29/2014	17:04:40.569	$GPGGA,170448,2544.2370,N,07922.5965,W,1,9,1.9,12,M,,M,,*5C
05/29/2014	17:04:41.575	$GPGGA,170449,2544.2375,N,07922.5982,W,1,9,1.9,12,M,,M,,*51
05/29/2014	17:04:42.546	$GPGGA,170450,2544.2381,N,07922.5998,W,1,9,1.9,12,M,,M,,*59
05/29/2014	17:04:43.568	$GPGGA,170451,2544.2386,N,07922.6015,W,1,9,1.9,12,M,,M,,*50
05/29/2014	17:04:44.570	$GPGGA,170452,2544.2393,N,07922.6031,W,1,9,1.9,12,M,,M,,*51
05/29/2014	17:04:45.573	$GPGGA,170453,2544.2397,N,07922.6048,W,1,9,2.0,12,M,,M,,*50
05/29/2014	17:04:46.546	$GPGGA,170454,2544.2403,N,07922.6064,W,1,9,2.0,12,M,,M,,*53
05/29/2014	17:04:47.588	$GPGGA,170455,2544.2410,N,07922.6080,W,1,9,2.0,12,M,,M,,*5A
05/29/2014	17:04:48.572	$GPGGA,170456,2544.2415,N,07922.6096,W,1,9,2.0,12,M,,M,,*5B
05/29/2014	17:04:49.584	$GPGGA,170457,2544.2419,N,07922.6113,W,1,9,2.0,12,M,,M,,*5A
05/29/2014	17:04:50.547	$GPGGA,170458,2544.2426,N,07922.6131,W,1,9,2.0,12,M,,M,,*59
05/29/2014	17:04:51.549	$GPGGA,170459,2544.2432,N,07922.6146,W,1,9,2.0,12,M,,M,,*5D
05/29/2014	17:04:52.591	$GPGGA,170500,2544.2437,N,07922.6163,W,1,9,2.0,12,M,,M,,*52
05/29/2014	17:04:53.604	$GPGGA,170501,2544.2444,N,07922.6179,W,1,9,2.0,12,M,,M,,*5C
05/29/2014	17:04:54.556	$GPGGA,170502,2544.2450,N,07922.6196,W,1,9,2.0,12,M,,M,,*5B
05/29/2014	17:04:55.589	$GPGGA,170503,2544.2455,N,07922.6214,W,1,9,2.0,11,M,,M,,*55
05/29/2014	17:04:56.582	$GPGGA,170504,2544.2462,N,07922.6229,W,1,9,2.0,11,M,,M,,*58
05/29/2014	17:04:57.554	$GPGGA,170505,2544.2466,N,07922.6246,W,1,9,2.0,11,M,,M,,*54
05/29/2014	17:04:58.567	$GPGGA,170506,2544.2472,N,07922.6262,W,1,9,2.0,11,M,,M,,*54
05/29/2014	17:04:59.600	$GPGGA,170507,2544.2479,N,07922.6279,W,1,9,2.0,11,M,,M,,*54
05/29/2014	17:05:00.562	$GPGGA,170508,2544.2484,N,07922.6295,W,1,9,2.0,11,M,,M,,*5B
05/29/2014	17:05:01.575	$GPGGA,170509,2544.2491,N,07922.6311,W,1,9,2.0,11,M,,M,,*53
05/29/2014	17:05:02.558	$GPGGA,170510,2544.2497,N,07922.6329,W,1,9,2.0,11,M,,M,,*56
05/29/2014	17:05:03.570	$GPGGA,170511,2544.2502,N,07922.6345,W,1,9,2.0,11,M,,M,,*50
05/29/2014	17:05:04.583	$GPGGA,170512,2544.2506,N,07922.6362,W,1,9,2.0,11,M,,M,,*52
05/29/2014	17:05:05.696	$GPGGA,170513,2544.2515,N,07922.6378,W,1,9,2.0,11,M,,M,,*5A
05/29/2014	17:05:06.558	$GPGGA,170514,2544.2520,N,07922.6395,W,1,9,2.0,11,M,,M,,*58
05/29/2014	17:05:07.571	$GPGGA,170515,2544.2524,N,07922.6412,W,1,9,2.0,11,M,,M,,*55
05/29/2014	17:05:08.594	$GPGGA,170516,2544.2531,N,07922.6427,W,1,9,2.0,11,M,,M,,*54
05/29/2014	17:05:09.678	$GPGGA,170517,2544.2538,N,07922.6445,W,1,9,2.0,11,M,,M,,*58
05/29/2014	17:05:10.558	$GPGGA,170518,2544.2542,N,07922.6461,W,1,9,2.0,11,M,,M,,*5C
05/29/2014	17:05:11.671	$GPGGA,170519,2544.2548,N,07922.6478,W,1,9,2.0,11,M,,M,,*5F
05/29/2014	17:05:12.704	$GPGGA,170520,2544.2555,N,07922.6495,W,1,9,2.0,11,M,,M,,*5A
05/29/2014	17:05:13.566	$GPGGA,170521,2544.2560,N,07922.6511,W,1,9,2.0,11,M,,M,,*50
05/29/2014	17:05:14.669	$GPGGA,170522,2544.2565,N,07922.6528,W,1,9,2.0,11,M,,M,,*5C
05/29/2014	17:05:15.692	$GPGGA,170523,2544.2570,N,07922.6544,W,1,9,2.0,11,M,,M,,*53
05/29/2014	17:05:16.675	$GPGGA,170524,2544.2577,N,07922.6561,W,1,9,2.0,11,M,,M,,*54
05/29/2014	17:05:17.687	$GPGGA,170525,2544.2581,N,07922.6576,W,1,9,2.0,11,M,,M,,*5A
05/29/2014	17:05:18.681	$GPGGA,170526,2544.2588,N,07922.6593,W,1,9,2.0,11,M,,M,,*5B
05/29/2014	17:05:19.693	$GPGGA,170527,2544.2592,N,07922.6609,W,1,9,2.0,11,M,,M,,*51
05/29/2014	17:05:20.726	$GPGGA,170528,2544.2599,N,07922.6626,W,1,9,2.0,11,M,,M,,*58
05/29/2014	17:05:21.708	$GPGGA,170529,2544.2603,N,07922.6642,W,1,9,2.0,11,M,,M,,*5B
05/29/2014	17:05:22.681	$GPGGA,170530,2544.2610,N,07922.6658,W,1,9,2.0,11,M,,M,,*5A
05/29/2014	17:05:23.694	$GPGGA,170531,2544.2614,N,07922.6676,W,1,9,2.0,11,M,,M,,*53
05/29/2014	17:05:24.687	$GPGGA,170532,2544.2620,N,07922.6692,W,1,9,2.0,11,M,,M,,*5D
05/29/2014	17:05:25.669	$GPGGA,170533,2544.2625,N,07922.6709,W,1,9,2.0,11,M,,M,,*5A
05/29/2014	17:05:26.682	$GPGGA,170534,2544.2632,N,07922.6725,W,1,9,2.0,11,M,,M,,*55
05/29/2014	17:05:27.693	$GPGGA,170535,2544.2636,N,07922.6741,W,1,9,2.0,11,M,,M,,*52
05/29/2014	17:05:28.687	$GPGGA,170536,2544.2642,N,07922.6759,W,1,9,2.0,11,M,,M,,*5B
05/29/2014	17:05:29.699	$GPGGA,170537,2544.2648,N,07922.6774,W,1,9,2.0,11,M,,M,,*5F
05/29/2014	17:05:30.681	$GPGGA,170538,2544.2654,N,07922.6792,W,1,9,2.0,11,M,,M,,*55
05/29/2014	17:05:31.694	$GPGGA,170539,2544.2659,N,07922.6808,W,1,9,2.0,11,M,,M,,*55
05/29/2014	17:05:32.687	$GPGGA,170540,2544.2664,N,07922.6825,W,1,9,2.0,11,M,,M,,*5A
05/29/2014	17:05:33.550	$GPGGA,170541,2544.2670,N,07922.6842,W,1,9,2.0,11,M,,M,,*5F
05/29/2014	17:05:34.512	$GPGGA,170542,2544.2677,N,07922.6858,W,1,9,2.0,11,M,,M,,*50
05/29/2014	17:05:35.536	$GPGGA,170543,2544.2681,N,07922.6875,W,1,9,2.0,11,M,,M,,*57
05/29/2014	17:05:36.538	$GPGGA,170544,2544.2686,N,07922.6891,W,1,9,2.0,11,M,,M,,*5D
05/29/2014	17:05:37.510	$GPGGA,170545,2544.2692,N,07922.6908,W,1,9,2.0,11,M,,M,,*58
05/29/2014	17:05:38.533	$GPGGA,170546,2544.2699,N,07922.6925,W,1,9,2.0,11,M,,M,,*5F
05/29/2014	17:05:39.546	$GPGGA,170547,2544.2703,N,07922.6941,W,1,9,2.0,11,M,,M,,*5E
05/29/2014	17:05:40.538	$GPGGA,170548,2544.2708,N,07922.6958,W,1,9,2.0,11,M,,M,,*52
05/29/2014	17:05:41.551	$GPGGA,170549,2544.2715,N,07922.6974,W,1,9,2.0,11,M,,M,,*51
05/29/2014	17:05:42.534	$GPGGA,170550,2544.2719,N,07922.6991,W,1,9,2.0,11,M,,M,,*5E
05/29/2014	17:05:43.537	$GPGGA,170551,2544.2725,N,07922.7008,W,1,9,2.0,11,M,,M,,*58
05/29/2014	17:05:44.539	$GPGGA,170552,2544.2730,N,07922.7024,W,1,9,2.0,11,M,,M,,*51
05/29/2014	17:05:45.531	$GPGGA,170553,2544.2737,N,07922.7041,W,1,9,2.0,11,M,,M,,*54
05/29/2014	17:05:46.544	$GPGGA,170554,2544.2742,N,07922.7057,W,1,9,2.0,11,M,,M,,*56
05/29/2014	17:05:47.556	$GPGGA,170555,2544.2746,N,07922.7074,W,1,9,2.0,11,M,,M,,*52
05/29/2014	17:05:48.559	$GPGGA,170556,2544.2753,N,07922.7092,W,1,9,2.0,11,M,,M,,*5D
05/29/2014	17:05:49.532	$GPGGA,170557,2544.2758,N,07922.7107,W,1,9,2.0,11,M,,M,,*5A
05/29/2014	17:05:50.544	$GPGGA,170558,2544.2764,N,07922.7124,W,1,9,2.0,11,M,,M,,*5B
05/29/2014	17:05:51.557	$GPGGA,170559,2544.2768,N,07922.7142,W,1,9,2.0,11,M,,M,,*56
05/29/2014	17:05:52.660	$GPGGA,170600,2544.2775,N,07922.7157,W,1,9,2.0,11,M,,M,,*51
05/29/2014	17:05:53.663	$GPGGA,170601,2544.2780,N,07922.7175,W,1,9,2.0,11,M,,M,,*5A
05/29/2014	17:05:54.626	$GPGGA,170602,2544.2786,N,07922.7191,W,1,9,2.0,11,M,,M,,*55
05/29/2014	17:05:55.558	$GPGGA,170603,2544.2790,N,07922.7207,W,1,9,2.0,11,M,,M,,*5F
05/29/2014	17:05:56.631	$GPGGA,170604,2544.2795,N,07922.7225,W,1,9,2.0,11,M,,M,,*5D
05/29/2014	17:05:57.643	$GPGGA,170605,2544.2802,N,07922.7240,W,1,9,2.0,11,M,,M,,*5E
05/29/2014	17:05:58.636	$GPGGA,170606,2544.2807,N,07922.7258,W,1,9,2.0,11,M,,M,,*51
05/29/2014	17:05:59.669	$GPGGA,170607,2544.2812,N,07922.7274,W,1,9,2.0,11,M,,M,,*5A
05/29/2014	17:06:00.651	$GPGGA,170608,2544.2819,N,07922.7291,W,1,9,2.0,11,M,,M,,*55
05/29/2014	17:06:01.664	$GPGGA,170609,2544.2823,N,07922.7308,W,1,9,2.0,11,M,,M,,*5C
05/29/2014	17:06:02.626	$GPGGA,170610,2544.2829,N,07922.7326,W,1,9,2.0,11,M,,M,,*52
05/29/2014	17:06:03.659	$GPGGA,170611,2544.2834,N,07922.7341,W,1,9,2.0,11,M,,M,,*5E
05/29/2014	17:06:04.641	$GPGGA,170612,2544.2841,N,07922.7357,W,1,9,2.0,11,M,,M,,*58
05/29/2014	17:06:05.664	$GPGGA,170613,2544.2845,N,07922.7375,W,1,9,2.0,11,M,,M,,*5D
05/29/2014	17:06:06.647	$GPGGA,170614,2544.2851,N,07922.7392,W,1,9,2.0,11,M,,M,,*56
05/29/2014	17:06:07.669	$GPGGA,170615,2544.2858,N,07922.7410,W,1,9,2.0,11,M,,M,,*53
05/29/2014	17:06:08.652	$GPGGA,170616,2544.2863,N,07922.7425,W,1,9,2.0,11,M,,M,,*5E
05/29/2014	17:06:09.655	$GPGGA,170617,2544.2867,N,07922.7442,W,1,9,2.0,11,M,,M,,*5A
05/29/2014	17:06:10.627	$GPGGA,170618,2544.2873,N,07922.7460,W,1,9,2.0,11,M,,M,,*50
05/29/2014	17:06:11.650	$GPGGA,170619,2544.2881,N,07922.7475,W,1,9,2.0,11,M,,M,,*58
05/29/2014	17:06:12.654	$GPGGA,170620,2544.2885,N,07922.7493,W,1,9,2.0,11,M,,M,,*5E
05/29/2014	17:06:13.666	$GPGGA,170621,2544.2889,N,07922.7509,W,1,9,2.0,11,M,,M,,*51
05/29/2014	17:06:14.638	$GPGGA,170622,2544.2896,N,07922.7526,W,1,9,2.0,11,M,,M,,*51
05/29/2014	17:06:15.661	$GPGGA,170623,2544.2903,N,07922.7543,W,1,9,2.0,11,M,,M,,*5E
05/29/2014	17:06:16.644	$GPGGA,170624,2544.2909,N,07922.7559,W,1,9,2.0,11,M,,M,,*58
05/29/2014	17:06:17.656	$GPGGA,170625,2544.2913,N,07922.7576,W,1,9,2.0,11,M,,M,,*5F
05/29/2014	17:06:18.629	$GPGGA,170626,2544.2920,N,07922.7592,W,1,9,2.0,11,M,,M,,*56
05/29/2014	17:06:19.652	$GPGGA,170627,2544.2925,N,07922.7608,W,1,9,2.0,11,M,,M,,*52
05/29/2014	17:06:20.653	$GPGGA,170628,2544.2931,N,07922.7626,W,1,9,2.0,11,M,,M,,*54
05/29/2014	17:06:21.666	$GPGGA,170629,2544.2936,N,07922.7642,W,1,9,2.0,11,M,,M,,*50
05/29/2014	17:06:22.650	$GPGGA,170630,2544.2942,N,07922.7659,W,1,9,2.0,11,M,,M,,*51
05/29/2014	17:06:23.641	$GPGGA,170631,2544.2948,N,07922.7674,W,1,9,2.0,11,M,,M,,*55
05/29/2014	17:06:24.664	$GPGGA,170632,2544.2954,N,07922.7691,W,1,9,2.0,11,M,,M,,*50
05/29/2014	17:06:25.637	$GPGGA,170633,2544.2960,N,07922.7707,W,1,9,2.0,11,M,,M,,*58
05/29/2014	17:06:26.639	$GPGGA,170634,2544.2964,N,07922.7724,W,1,9,2.0,11,M,,M,,*5A
05/29/2014	17:06:27.632	$GPGGA,170635,2544.2970,N,07922.7742,W,1,9,2.0,11,M,,M,,*5E
05/29/2014	17:06:28.656	$GPGGA,170636,2544.2977,N,07922.7757,W,1,9,2.0,11,M,,M,,*5E
05/29/2014	17:06:29.638	$GPGGA,170637,2544.2982,N,07922.7775,W,1,9,2.0,11,M,,M,,*55
05/29/2014	17:06:30.640	$GPGGA,170638,2544.2986,N,07922.7790,W,1,9,2.0,11,M,,M,,*55
05/29/2014	17:06:31.643	$GPGGA,170639,2544.2993,N,07922.7807,W,1,9,2.0,11,M,,M,,*51
05/29/2014	17:06:32.666	$GPGGA,170640,2544.3000,N,07922.7823,W,1,9,2.0,11,M,,M,,*5B
05/29/2014	17:06:33.508	$GPGGA,170641,2544.3004,N,07922.7840,W,1,9,2.0,11,M,,M,,*5B
05/29/2014	17:06:34.480	$GPGGA,170642,2544.3008,N,07922.7858,W,1,9,2.0,11,M,,M,,*5D
05/29/2014	17:06:35.503	$GPGGA,170643,2544.3015,N,07922.7873,W,1,9,2.0,11,M,,M,,*59
05/29/2014	17:06:36.516	$GPGGA,170644,2544.3021,N,07922.7890,W,1,9,2.0,11,M,,M,,*54
05/29/2014	17:06:37.507	$GPGGA,170645,2544.3026,N,07922.7906,W,1,9,2.0,11,M,,M,,*5C
05/29/2014	17:06:38.490	$GPGGA,170646,2544.3031,N,07922.7923,W,1,9,2.0,11,M,,M,,*5E
05/29/2014	17:06:39.513	$GPGGA,170647,2544.3037,N,07922.7939,W,1,9,2.0,11,M,,M,,*52
05/29/2014	17:06:40.505	$GPGGA,170648,2544.3043,N,07922.7956,W,1,9,2.0,11,M,,M,,*57
05/29/2014	17:06:41.598	$GPGGA,170649,2544.3047,N,07922.7973,W,1,9,2.0,11,M,,M,,*55
05/29/2014	17:06:42.591	$GPGGA,170650,2544.3055,N,07922.7991,W,1,9,2.0,11,M,,M,,*52
05/29/2014	17:06:43.594	$GPGGA,170651,2544.3061,N,07922.8006,W,1,9,2.0,11,M,,M,,*5C
05/29/2014	17:06:44.496	$GPGGA,170652,2544.3065,N,07922.8024,W,1,9,2.0,11,M,,M,,*5B
05/29/2014	17:06:45.489	$GPGGA,170653,2544.3069,N,07922.8040,W,1,9,2.0,11,M,,M,,*54
05/29/2014	17:06:46.592	$GPGGA,170654,2544.3076,N,07922.8056,W,1,9,2.0,11,M,,M,,*5A
05/29/2014	17:06:47.604	$GPGGA,170655,2544.3083,N,07922.8074,W,1,9,2.0,10,M,,M,,*50
05/29/2014	17:06:48.507	$GPGGA,170656,2544.3086,N,07922.8090,W,1,9,2.0,10,M,,M,,*5C
05/29/2014	17:06:49.600	$GPGGA,170657,2544.3091,N,07922.8107,W,1,9,2.0,10,M,,M,,*54
05/29/2014	17:06:50.602	$GPGGA,170658,2544.3098,N,07922.8125,W,1,9,2.0,10,M,,M,,*52
05/29/2014	17:06:51.585	$GPGGA,170659,2544.3104,N,07922.8141,W,1,9,2.0,10,M,,M,,*55
05/29/2014	17:06:52.618	$GPGGA,170700,2544.3109,N,07922.8158,W,1,9,2.0,10,M,,M,,*5D
05/29/2014	17:06:53.621	$GPGGA,170701,2544.3113,N,07922.8175,W,1,9,2.0,10,M,,M,,*58
05/29/2014	17:06:54.593	$GPGGA,170702,2544.3120,N,07922.8191,W,1,9,2.0,10,M,,M,,*51
05/29/2014	17:06:55.605	$GPGGA,170703,2544.3126,N,07922.8208,W,1,9,2.0,10,M,,M,,*55
05/29/2014	17:06:56.608	$GPGGA,170704,2544.3131,N,07922.8223,W,1,9,2.0,10,M,,M,,*5D
05/29/2014	17:06:57.600	$GPGGA,170705,2544.3137,N,07922.8241,W,1,9,2.0,10,M,,M,,*5E
05/29/2014	17:06:58.603	$GPGGA,170706,2544.3143,N,07922.8256,W,1,9,2.0,10,M,,M,,*58
05/29/2014	17:06:59.617	$GPGGA,170707,2544.3148,N,07922.8273,W,1,9,2.0,10,M,,M,,*55
05/29/2014	17:07:00.608	$GPGGA,170708,2544.3154,N,07922.8291,W,1,9,2.0,10,M,,M,,*5B
05/29/2014	17:07:01.623	$GPGGA,170709,2544.3159,N,07922.8306,W,1,9,2.0,10,M,,M,,*58
05/29/2014	17:07:02.595	$GPGGA,170710,2544.3166,N,07922.8322,W,1,9,2.0,10,M,,M,,*5A
05/29/2014	17:07:03.627	$GPGGA,170711,2544.3170,N,07922.8339,W,1,9,2.0,10,M,,M,,*56
05/29/2014	17:07:04.620	$GPGGA,170712,2544.3174,N,07922.8356,W,1,9,2.0,10,M,,M,,*58
05/29/2014	17:07:05.593	$GPGGA,170713,2544.3183,N,07922.8371,W,1,9,2.0,10,M,,M,,*54
05/29/2014	17:07:06.606	$GPGGA,170714,2544.3188,N,07922.8389,W,1,9,2.0,10,M,,M,,*5F
05/29/2014	17:07:07.597	$GPGGA,170715,2544.3192,N,07922.8405,W,1,9,2.0,10,M,,M,,*56
05/29/2014	17:07:08.621	$GPGGA,170716,2544.3199,N,07922.8421,W,1,9,2.0,10,M,,M,,*58
05/29/2014	17:07:09.623	$GPGGA,170717,2544.3205,N,07922.8436,W,1,9,2.0,10,M,,M,,*59
05/29/2014	17:07:10.615	$GPGGA,170718,2544.3210,N,07922.8452,W,1,9,2.0,10,M,,M,,*50
05/29/2014	17:07:11.608	$GPGGA,170719,2544.3216,N,07922.8468,W,1,9,2.0,10,M,,M,,*5E
05/29/2014	17:07:12.620	$GPGGA,170720,2544.3221,N,07922.8484,W,1,9,2.0,10,M,,M,,*52
05/29/2014	17:07:13.602	$GPGGA,170721,2544.3228,N,07922.8501,W,1,9,2.0,10,M,,M,,*56
05/29/2014	17:07:14.615	$GPGGA,170722,2544.3232,N,07922.8517,W,1,9,2.0,10,M,,M,,*59
05/29/2014	17:07:15.628	$GPGGA,170723,2544.3239,N,07922.8533,W,1,9,2.0,10,M,,M,,*55
05/29/2014	17:07:16.621	$GPGGA,170724,2544.3245,N,07922.8548,W,1,9,2.0,10,M,,M,,*55
05/29/2014	17:07:17.633	$GPGGA,170725,2544.3250,N,07922.8564,W,1,9,2.0,10,M,,M,,*5E
05/29/2014	17:07:18.607	$GPGGA,170726,2544.3256,N,07922.8581,W,1,9,2.0,10,M,,M,,*50
05/29/2014	17:07:19.630	$GPGGA,170727,2544.3263,N,07922.8596,W,1,9,2.0,10,M,,M,,*51
05/29/2014	17:07:20.611	$GPGGA,170728,2544.3268,N,07922.8613,W,1,9,2.0,10,M,,M,,*5B
05/29/2014	17:07:21.634	$GPGGA,170729,2544.3273,N,07922.8629,W,1,9,2.0,10,M,,M,,*59
05/29/2014	17:07:22.607	$GPGGA,170730,2544.3279,N,07922.8646,W,1,9,2.0,10,M,,M,,*52
05/29/2014	17:07:23.599	$GPGGA,170731,2544.3286,N,07922.8661,W,1,9,2.0,10,M,,M,,*56
05/29/2014	17:07:24.632	$GPGGA,170732,2544.3292,N,07922.8678,W,1,9,2.0,10,M,,M,,*58
05/29/2014	17:07:25.735	$GPGGA,170733,2544.3296,N,07922.8694,W,1,9,2.0,10,M,,M,,*5F
05/29/2014	17:07:26.708	$GPGGA,170734,2544.3303,N,07922.8710,W,1,9,2.0,10,M,,M,,*58
05/29/2014	17:07:27.710	$GPGGA,170735,2544.3310,N,07922.8728,W,1,9,2.0,10,M,,M,,*50
05/29/2014	17:07:28.623	$GPGGA,170736,2544.3315,N,07922.8743,W,1,9,2.0,10,M,,M,,*5B
05/29/2014	17:07:29.707	$GPGGA,170737,2544.3320,N,07922.8761,W,1,9,2.0,10,M,,M,,*5C
05/29/2014	17:07:30.609	$GPGGA,170738,2544.3326,N,07922.8776,W,1,9,2.0,10,M,,M,,*53
05/29/2014	17:07:31.630	$GPGGA,170739,2544.3332,N,07922.8793,W,1,9,2.0,10,M,,M,,*5C
05/29/2014	17:07:32.633	$GPGGA,170740,2544.3337,N,07922.8808,W,1,9,2.0,10,M,,M,,*5A
05/29/2014	17:07:33.586	$GPGGA,170741,2544.3343,N,07922.8826,W,1,9,2.0,10,M,,M,,*54
05/29/2014	17:07:34.558	$GPGGA,170742,2544.3349,N,07922.8841,W,1,9,2.0,10,M,,M,,*5C
05/29/2014	17:07:35.591	$GPGGA,170743,2544.3354,N,07922.8858,W,1,9,2.0,10,M,,M,,*59
05/29/2014	17:07:36.574	$GPGGA,170744,2544.3360,N,07922.8874,W,1,9,2.0,10,M,,M,,*57
05/29/2014	17:07:37.586	$GPGGA,170745,2544.3365,N,07922.8891,W,1,9,2.0,10,M,,M,,*58
05/29/2014	17:07:38.559	$GPGGA,170746,2544.3372,N,07922.8907,W,1,9,2.0,10,M,,M,,*53
05/29/2014	17:07:39.572	$GPGGA,170747,2544.3376,N,07922.8924,W,1,9,2.0,10,M,,M,,*57
05/29/2014	17:07:40.575	$GPGGA,170748,2544.3383,N,07922.8941,W,1,9,2.0,10,M,,M,,*51
05/29/2014	17:07:41.577	$GPGGA,170749,2544.3390,N,07922.8956,W,1,9,2.0,10,M,,M,,*54
05/29/2014	17:07:42.561	$GPGGA,170750,2544.3394,N,07922.8974,W,1,9,2.0,10,M,,M,,*58
05/29/2014	17:07:43.584	$GPGGA,170751,2544.3400,N,07922.8990,W,1,9,2.0,10,M,,M,,*59
05/29/2014	17:07:44.565	$GPGGA,170752,2544.3407,N,07922.9007,W,1,9,2.0,10,M,,M,,*5B
05/29/2014	17:07:45.578	$GPGGA,170753,2544.3412,N,07922.9024,W,1,9,2.0,10,M,,M,,*5F
05/29/2014	17:07:46.561	$GPGGA,170754,2544.3416,N,07922.9040,W,1,9,2.0,10,M,,M,,*5E
05/29/2014	17:07:47.562	$GPGGA,170755,2544.3423,N,07922.9057,W,1,9,2.0,10,M,,M,,*5F
05/29/2014	17:07:48.575	$GPGGA,170756,2544.3430,N,07922.9072,W,1,9,2.0,10,M,,M,,*59
05/29/2014	17:07:49.558	$GPGGA,170757,2544.3434,N,07922.9090,W,1,9,2.0,10,M,,M,,*50
05/29/2014	17:07:50.561	$GPGGA,170758,2544.3440,N,07922.9107,W,1,9,2.0,10,M,,M,,*53
05/29/2014	17:07:51.583	$GPGGA,170759,2544.3447,N,07922.9122,W,1,9,2.0,10,M,,M,,*52
05/29/2014	17:07:52.586	$GPGGA,170800,2544.3452,N,07922.9140,W,1,9,2.0,10,M,,M,,*51
05/29/2014	17:07:53.601	$GPGGA,170801,2544.3458,N,07922.9156,W,1,9,2.0,10,M,,M,,*5D
05/29/2014	17:07:54.571	$GPGGA,170802,2544.3463,N,07922.9173,W,1,9,2.0,10,M,,M,,*51
05/29/2014	17:07:55.604	$GPGGA,170803,2544.3469,N,07922.9189,W,1,9,2.0,10,M,,M,,*5F
05/29/2014	17:07:56.587	$GPGGA,170804,2544.3474,N,07922.9206,W,1,9,2.0,10,M,,M,,*50
05/29/2014	17:07:57.569	$GPGGA,170805,2544.3480,N,07922.9223,W,1,9,2.0,10,M,,M,,*5D
05/29/2014	17:07:58.574	$GPGGA,170806,2544.3487,N,07922.9239,W,1,9,2.0,10,M,,M,,*52
05/29/2014	17:07:59.585	$GPGGA,170807,2544.3491,N,07922.9256,W,1,9,2.0,10,M,,M,,*5D
05/29/2014	17:08:00.577	$GPGGA,170808,2544.3495,N,07922.9274,W,1,9,2.0,10,M,,M,,*56
05/29/2014	17:08:01.570	$GPGGA,170809,2544.3503,N,07922.9289,W,1,9,2.0,10,M,,M,,*5B
05/29/2014	17:08:02.583	$GPGGA,170810,2544.3509,N,07922.9306,W,1,9,2.0,10,M,,M,,*5F
05/29/2014	17:08:03.565	$GPGGA,170811,2544.3512,N,07922.9324,W,1,9,2.0,10,M,,M,,*54
05/29/2014	17:08:04.588	$GPGGA,170812,2544.3517,N,07922.9339,W,1,9,2.0,10,M,,M,,*5E
05/29/2014	17:08:05.581	$GPGGA,170813,2544.3524,N,07922.9357,W,1,9,2.0,10,M,,M,,*57
05/29/2014	17:08:06.562	$GPGGA,170814,2544.3530,N,07922.9373,W,1,9,2.0,10,M,,M,,*53
05/29/2014	17:08:07.565	$GPGGA,170815,2544.3532,N,07922.9389,W,1,9,2.0,10,M,,M,,*55
05/29/2014	17:08:08.598	$GPGGA,170816,2544.3539,N,07922.9407,W,1,9,2.0,10,M,,M,,*5C
05/29/2014	17:08:09.591	$GPGGA,170817,2544.3546,N,07922.9422,W,1,9,2.0,10,M,,M,,*52
05/29/2014	17:08:10.663	$GPGGA,170818,2544.3549,N,07922.9440,W,1,9,2.0,10,M,,M,,*56
05/29/2014	17:08:11.566	$GPGGA,170819,2544.3553,N,07922.9456,W,1,9,2.0,10,M,,M,,*5B
05/29/2014	17:08:12.719	$GPGGA,170820,2544.3560,N,07922.9473,W,1,9,2.0,10,M,,M,,*56
05/29/2014	17:08:13.762	$GPGGA,170821,2544.3567,N,07922.9488,W,1,9,2.0,10,M,,M,,*54
05/29/2014	17:08:14.574	$GPGGA,170822,2544.3571,N,07922.9505,W,1,9,2.0,10,M,,M,,*54
05/29/2014	17:08:15.677	$GPGGA,170823,2544.3575,N,07922.9521,W,1,9,2.0,10,M,,M,,*57
05/29/2014	17:08:16.579	$GPGGA,170824,2544.3582,N,07922.9538,W,1,9,2.0,10,M,,M,,*50
05/29/2014	17:08:17.582	$GPGGA,170825,2544.3588,N,07922.9555,W,1,9,2.0,10,M,,M,,*50
05/29/2014	17:08:18.705	$GPGGA,170826,2544.3593,N,07922.9570,W,1,9,2.0,10,M,,M,,*5E
05/29/2014	17:08:19.788	$GPGGA,170827,2544.3599,N,07922.9588,W,1,9,2.0,10,M,,M,,*52
05/29/2014	17:08:20.731	$GPGGA,170828,2544.3604,N,07922.9603,W,1,9,2.0,10,M,,M,,*5A
05/29/2014	17:08:21.783	$GPGGA,170829,2544.3611,N,07922.9620,W,1,9,2.0,10,M,,M,,*5E
05/29/2014	17:08:22.705	$GPGGA,170830,2544.3615,N,07922.9636,W,1,9,2.0,10,M,,M,,*55
05/29/2014	17:08:23.778	$GPGGA,170831,2544.3621,N,07922.9653,W,1,9,2.0,10,M,,M,,*50
05/29/2014	17:08:24.720	$GPGGA,170832,2544.3629,N,07922.9669,W,1,9,2.0,10,M,,M,,*52
05/29/2014	17:08:25.774	$GPGGA,170833,2544.3635,N,07922.9686,W,1,9,2.0,10,M,,M,,*5F
05/29/2014	17:08:26.716	$GPGGA,170834,2544.3639,N,07922.9704,W,1,9,2.0,10,M,,M,,*5F
05/29/2014	17:08:27.748	$GPGGA,170835,2544.3644,N,07922.9719,W,1,9,2.0,10,M,,M,,*58
05/29/2014	17:08:28.721	$GPGGA,170836,2544.3653,N,07922.9736,W,1,9,2.0,10,M,,M,,*50
05/29/2014	17:08:29.784	$GPGGA,170837,2544.3658,N,07922.9752,W,1,9,2.0,10,M,,M,,*58
05/29/2014	17:08:30.706	$GPGGA,170838,2544.3662,N,07922.9769,W,1,9,2.0,10,M,,M,,*56
05/29/2014	17:08:31.780	$GPGGA,170839,2544.3669,N,07922.9785,W,1,9,2.0,10,M,,M,,*5E
05/29/2014	17:08:32.722	$GPGGA,170840,2544.3675,N,07922.9802,W,1,9,2.0,10,M,,M,,*5D
05/29/2014	17:08:33.524	$GPGGA,170841,2544.3682,N,07922.9819,W,1,9,2.0,10,M,,M,,*5E
05/29/2014	17:08:34.547	$GPGGA,170842,2544.3687,N,07922.9834,W,1,9,2.0,10,M,,M,,*57
05/29/2014	17:08:35.530	$GPGGA,170843,2544.3691,N,07922.9852,W,1,9,2.0,10,M,,M,,*51
05/29/2014	17:08:36.563	$GPGGA,170844,2544.3698,N,07922.9867,W,1,9,2.0,10,M,,M,,*59
05/29/2014	17:08:37.636	$GPGGA,170845,2544.3707,N,07922.9884,W,1,9,2.0,10,M,,M,,*52
05/29/2014	17:08:38.518	$GPGGA,170846,2544.3712,N,07922.9900,W,1,9,2.0,10,M,,M,,*58
05/29/2014	17:08:39.521	$GPGGA,170847,2544.3718,N,07922.9917,W,1,9,2.0,10,M,,M,,*55
05/29/2014	17:08:40.572	$GPGGA,170848,2544.3725,N,07922.9933,W,1,9,2.0,10,M,,M,,*52
05/29/2014	17:08:41.645	$GPGGA,170849,2544.3730,N,07922.9950,W,1,9,2.0,10,M,,M,,*52
05/29/2014	17:08:42.518	$GPGGA,170850,2544.3737,N,07922.9967,W,1,9,2.0,10,M,,M,,*59
05/29/2014	17:08:43.611	$GPGGA,170851,2544.3744,N,07922.9983,W,1,9,2.0,10,M,,M,,*56
05/29/2014	17:08:44.573	$GPGGA,170852,2544.3750,N,07923.0000,W,1,9,2.0,10,M,,M,,*5A
05/29/2014	17:08:45.626	$GPGGA,170853,2544.3755,N,07923.0016,W,1,9,2.0,10,M,,M,,*59
05/29/2014	17:08:46.528	$GPGGA,170854,2544.3763,N,07923.0033,W,1,9,2.0,10,M,,M,,*5C
05/29/2014	17:08:47.631	$GPGGA,170855,2544.3770,N,07923.0050,W,1,9,2.0,10,M,,M,,*5A
05/29/2014	17:08:48.544	$GPGGA,170856,2544.3773,N,07923.0066,W,1,9,2.0,10,M,,M,,*5F
05/29/2014	17:08:49.607	$GPGGA,170857,2544.3780,N,07923.0083,W,1,9,2.0,10,M,,M,,*59
05/29/2014	17:08:50.560	$GPGGA,170858,2544.3788,N,07923.0098,W,1,9,2.0,10,M,,M,,*54
05/29/2014	17:08:51.652	$GPGGA,170859,2544.3792,N,07923.0116,W,1,9,2.0,10,M,,M,,*59
05/29/2014	17:08:52.585	$GPGGA,170900,2544.3797,N,07923.0133,W,1,9,2.0,10,M,,M,,*56
05/29/2014	17:08:53.628	$GPGGA,170901,2544.3803,N,07923.0148,W,1,9,2.0,10,M,,M,,*59
05/29/2014	17:08:54.530	$GPGGA,170902,2544.3812,N,07923.0164,W,1,9,2.0,10,M,,M,,*54
05/29/2014	17:08:55.673	$GPGGA,170903,2544.3817,N,07923.0181,W,1,9,2.0,10,M,,M,,*5B
05/29/2014	17:08:56.576	$GPGGA,170904,2544.3820,N,07923.0199,W,1,9,2.0,10,M,,M,,*51
05/29/2014	17:08:57.657	$GPGGA,170905,2544.3826,N,07923.0214,W,1,9,2.0,10,M,,M,,*50
05/29/2014	17:08:58.640	$GPGGA,170906,2544.3835,N,07923.0229,W,1,9,2.0,10,M,,M,,*5F
05/29/2014	17:08:59.643	$GPGGA,170907,2544.3841,N,07923.0246,W,1,9,2.0,10,M,,M,,*54
05/29/2014	17:09:00.595	$GPGGA,170908,2544.3845,N,07923.0260,W,1,9,2.0,10,M,,M,,*5B
05/29/2014	17:09:01.628	$GPGGA,170909,2544.3853,N,07923.0275,W,1,9,2.0,10,M,,M,,*59
05/29/2014	17:09:02.581	$GPGGA,170910,2544.3860,N,07923.0292,W,1,9,2.0,10,M,,M,,*58
05/29/2014	17:09:03.653	$GPGGA,170911,2544.3864,N,07923.0308,W,1,9,2.0,10,M,,M,,*5F
05/29/2014	17:09:04.606	$GPGGA,170912,2544.3871,N,07923.0325,W,1,9,2.0,10,M,,M,,*57
05/29/2014	17:09:05.658	$GPGGA,170913,2544.3877,N,07923.0340,W,1,9,2.0,10,M,,M,,*53
05/29/2014	17:09:07.654	$GPGGA,170915,2544.3889,N,07923.0372,W,1,9,2.0,10,M,,M,,*55
05/29/2014	17:09:08.657	$GPGGA,170916,2544.3895,N,07923.0390,W,1,9,2.0,10,M,,M,,*57
05/29/2014	17:09:09.719	$GPGGA,170917,2544.3900,N,07923.0405,W,1,9,2.0,10,M,,M,,*50
05/29/2014	17:09:10.641	$GPGGA,170918,2544.3904,N,07923.0423,W,1,9,2.0,10,M,,M,,*5F
05/29/2014	17:09:11.664	$GPGGA,170919,2544.3911,N,07923.0438,W,1,9,2.0,10,M,,M,,*50
05/29/2014	17:09:12.657	$GPGGA,170920,2544.3917,N,07923.0455,W,1,9,2.0,10,M,,M,,*57
05/29/2014	17:09:13.709	$GPGGA,170921,2544.3922,N,07923.0471,W,1,9,2.0,10,M,,M,,*56
05/29/2014	17:09:14.642	$GPGGA,170922,2544.3927,N,07923.0488,W,1,9,2.0,10,M,,M,,*56
05/29/2014	17:09:15.657	$GPGGA,170923,2544.3932,N,07923.0504,W,1,9,2.0,10,M,,M,,*56
05/29/2014	17:09:16.656	$GPGGA,170924,2544.3939,N,07923.0521,W,1,9,2.0,10,M,,M,,*5D
05/29/2014	17:09:17.739	$GPGGA,170925,2544.3943,N,07923.0538,W,1,8,2.0,10,M,,M,,*58
05/29/2014	17:09:18.651	$GPGGA,170926,2544.3947,N,07923.0554,W,1,8,2.0,10,M,,M,,*55
05/29/2014	17:09:19.674	$GPGGA,170927,2544.3954,N,07923.0571,W,1,9,2.0,10,M,,M,,*50
05/29/2014	17:09:20.657	$GPGGA,170928,2544.3960,N,07923.0587,W,1,9,2.0,10,M,,M,,*51
05/29/2014	17:09:21.679	$GPGGA,170929,2544.3965,N,07923.0604,W,1,9,2.0,10,M,,M,,*5D
05/29/2014	17:09:22.653	$GPGGA,170930,2544.3969,N,07923.0621,W,1,9,2.0,11,M,,M,,*5F
05/29/2014	17:09:23.694	$GPGGA,170931,2544.3975,N,07923.0637,W,1,9,2.0,11,M,,M,,*54
05/29/2014	17:09:24.677	$GPGGA,170932,2544.3982,N,07923.0654,W,1,9,2.0,11,M,,M,,*5A
05/29/2014	17:09:25.689	$GPGGA,170933,2544.3987,N,07923.0669,W,1,9,2.0,11,M,,M,,*50
05/29/2014	17:09:26.642	$GPGGA,170934,2544.3990,N,07923.0686,W,1,9,2.0,11,M,,M,,*50
05/29/2014	17:09:27.685	$GPGGA,170935,2544.3990,N,07923.0686,W,1,9,2.0,11,M,,M,,*51
05/29/2014	17:09:28.667	$GPGGA,170936,2544.4005,N,07923.0719,W,1,9,2.0,11,M,,M,,*57
05/29/2014	17:09:29.700	$GPGGA,170937,2544.4011,N,07923.0734,W,1,9,2.0,11,M,,M,,*5C
05/29/2014	17:09:30.663	$GPGGA,170938,2544.4014,N,07923.0751,W,1,9,2.0,11,M,,M,,*55
05/29/2014	17:09:31.705	$GPGGA,170939,2544.4019,N,07923.0767,W,1,9,2.0,11,M,,M,,*5C
05/29/2014	17:09:32.678	$GPGGA,170940,2544.4026,N,07923.0782,W,1,9,2.0,11,M,,M,,*55
05/29/2014	17:09:33.542	$GPGGA,170941,2544.4032,N,07923.0799,W,1,9,2.0,11,M,,M,,*5B
05/29/2014	17:09:34.494	$GPGGA,170942,2544.4037,N,07923.0816,W,1,9,2.0,11,M,,M,,*55
05/29/2014	17:09:35.587	$GPGGA,170943,2544.4037,N,07923.0816,W,1,9,2.0,11,M,,M,,*54
05/29/2014	17:09:36.509	$GPGGA,170944,2544.4048,N,07923.0846,W,1,9,2.0,11,M,,M,,*5E
05/29/2014	17:09:37.523	$GPGGA,170945,2544.4048,N,07923.0846,W,1,9,2.0,11,M,,M,,*5F
05/29/2014	17:09:38.494	$GPGGA,170946,2544.4059,N,07923.0879,W,1,9,2.0,11,M,,M,,*50
05/29/2014	17:09:39.507	$GPGGA,170947,2544.4063,N,07923.0896,W,1,9,2.0,11,M,,M,,*59
05/29/2014	17:09:40.600	$GPGGA,170948,2544.4070,N,07923.0911,W,1,9,2.0,11,M,,M,,*5A
05/29/2014	17:09:41.532	$GPGGA,170949,2544.4070,N,07923.0911,W,1,9,2.0,11,M,,M,,*5B
05/29/2014	17:09:42.515	$GPGGA,170950,2544.4081,N,07923.0943,W,1,9,2.0,11,M,,M,,*5A
05/29/2014	17:09:43.507	$GPGGA,170951,2544.4081,N,07923.0943,W,1,9,2.0,11,M,,M,,*5B
05/29/2014	17:09:44.520	$GPGGA,170952,2544.4094,N,07923.0976,W,1,9,2.0,11,M,,M,,*5A
05/29/2014	17:09:45.593	$GPGGA,170953,2544.4099,N,07923.0993,W,1,9,2.0,11,M,,M,,*5D
05/29/2014	17:09:46.495	$GPGGA,170954,2544.4106,N,07923.1008,W,1,9,2.0,11,M,,M,,*57
05/29/2014	17:09:47.498	$GPGGA,170955,2544.4106,N,07923.1008,W,1,9,2.0,11,M,,M,,*56
05/29/2014	17:09:48.510	$GPGGA,170956,2544.4117,N,07923.1041,W,1,9,2.0,11,M,,M,,*58
05/29/2014	17:09:49.603	$GPGGA,170957,2544.4123,N,07923.1058,W,1,9,2.0,11,M,,M,,*56
05/29/2014	17:09:50.504	$GPGGA,170958,2544.4131,N,07923.1073,W,1,9,2.0,11,M,,M,,*53
05/29/2014	17:09:51.507	$GPGGA,170959,2544.4131,N,07923.1073,W,1,9,2.0,11,M,,M,,*52
05/29/2014	17:09:52.640	$GPGGA,171000,2544.4142,N,07923.1106,W,1,9,2.0,11,M,,M,,*51
05/29/2014	17:09:53.633	$GPGGA,171001,2544.4149,N,07923.1123,W,1,9,2.0,11,M,,M,,*5C
05/29/2014	17:09:54.595	$GPGGA,171002,2544.4156,N,07923.1138,W,1,9,2.0,11,M,,M,,*5B
05/29/2014	17:09:55.639	$GPGGA,171003,2544.4160,N,07923.1156,W,1,9,2.0,11,M,,M,,*57
05/29/2014	17:09:56.620	$GPGGA,171004,2544.4166,N,07923.1171,W,1,9,2.0,11,M,,M,,*53
05/29/2014	17:09:57.607	$GPGGA,171005,2544.4173,N,07923.1188,W,1,9,2.0,11,M,,M,,*50
05/29/2014	17:09:58.606	$GPGGA,171006,2544.4180,N,07923.1203,W,1,9,2.0,11,M,,M,,*5F
05/29/2014	17:09:59.628	$GPGGA,171007,2544.4185,N,07923.1221,W,1,9,2.0,11,M,,M,,*5B
05/29/2014	17:10:00.611	$GPGGA,171008,2544.4191,N,07923.1236,W,1,9,2.0,11,M,,M,,*57
05/29/2014	17:10:01.623	$GPGGA,171009,2544.4198,N,07923.1253,W,1,9,2.0,11,M,,M,,*5C
05/29/2014	17:10:02.606	$GPGGA,171010,2544.4204,N,07923.1268,W,1,9,2.0,11,M,,M,,*5A
05/29/2014	17:10:03.628	$GPGGA,171011,2544.4209,N,07923.1286,W,1,9,2.0,10,M,,M,,*57
05/29/2014	17:10:04.624	$GPGGA,171012,2544.4214,N,07923.1301,W,1,9,2.0,10,M,,M,,*56
05/29/2014	17:10:05.624	$GPGGA,171013,2544.4221,N,07923.1318,W,1,9,2.0,10,M,,M,,*59
05/29/2014	17:10:06.617	$GPGGA,171014,2544.4228,N,07923.1334,W,1,9,2.0,10,M,,M,,*59
05/29/2014	17:10:07.628	$GPGGA,171015,2544.4232,N,07923.1351,W,1,9,2.0,10,M,,M,,*50
05/29/2014	17:10:08.620	$GPGGA,171016,2544.4238,N,07923.1367,W,1,9,2.0,10,M,,M,,*5C
05/29/2014	17:10:09.623	$GPGGA,171017,2544.4245,N,07923.1384,W,1,9,2.0,10,M,,M,,*5A
05/29/2014	17:10:10.606	$GPGGA,171018,2544.4250,N,07923.1400,W,1,9,2.0,10,M,,M,,*5A
05/29/2014	17:10:11.618	$GPGGA,171019,2544.4256,N,07923.1417,W,1,9,2.0,10,M,,M,,*5B
05/29/2014	17:10:12.631	$GPGGA,171020,2544.4261,N,07923.1434,W,1,9,2.0,10,M,,M,,*54
05/29/2014	17:10:13.645	$GPGGA,171021,2544.4268,N,07923.1452,W,1,9,2.0,10,M,,M,,*5C
05/29/2014	17:10:14.607	$GPGGA,171022,2544.4274,N,07923.1467,W,1,9,2.0,10,M,,M,,*54
05/29/2014	17:10:15.649	$GPGGA,171023,2544.4278,N,07923.1485,W,1,9,2.0,10,M,,M,,*55
05/29/2014	17:10:16.621	$GPGGA,171024,2544.4283,N,07923.1501,W,1,9,2.0,10,M,,M,,*5B
05/29/2014	17:10:17.624	$GPGGA,171025,2544.4290,N,07923.1518,W,1,9,2.0,10,M,,M,,*50
05/29/2014	17:10:18.606	$GPGGA,171026,2544.4294,N,07923.1535,W,1,9,2.0,10,M,,M,,*58
05/29/2014	17:10:19.630	$GPGGA,171027,2544.4300,N,07923.1553,W,1,9,2.0,10,M,,M,,*55
05/29/2014	17:10:20.632	$GPGGA,171028,2544.4307,N,07923.1568,W,1,9,2.0,10,M,,M,,*55
05/29/2014	17:10:21.615	$GPGGA,171029,2544.4312,N,07923.1584,W,1,9,2.0,10,M,,M,,*52
05/29/2014	17:10:22.728	$GPGGA,171030,2544.4316,N,07923.1602,W,1,9,2.0,10,M,,M,,*53
05/29/2014	17:10:23.629	$GPGGA,171031,2544.4322,N,07923.1619,W,1,9,2.0,10,M,,M,,*5F
05/29/2014	17:10:24.632	$GPGGA,171032,2544.4329,N,07923.1636,W,1,9,2.0,10,M,,M,,*5A
05/29/2014	17:10:25.634	$GPGGA,171033,2544.4334,N,07923.1652,W,1,9,2.0,10,M,,M,,*55
05/29/2014	17:10:26.606	$GPGGA,171034,2544.4339,N,07923.1669,W,1,9,2.0,10,M,,M,,*57
05/29/2014	17:10:27.649	$GPGGA,171035,2544.4344,N,07923.1685,W,1,8,2.0,10,M,,M,,*5F
05/29/2014	17:10:28.621	$GPGGA,171036,2544.4352,N,07923.1702,W,1,8,2.0,10,M,,M,,*55
05/29/2014	17:10:29.644	$GPGGA,171037,2544.4358,N,07923.1717,W,1,9,2.0,10,M,,M,,*5B
05/29/2014	17:10:30.626	$GPGGA,171038,2544.4363,N,07923.1734,W,1,9,2.0,10,M,,M,,*5D
05/29/2014	17:10:31.609	$GPGGA,171039,2544.4370,N,07923.1749,W,1,9,2.0,10,M,,M,,*54
05/29/2014	17:10:32.752	$GPGGA,171040,2544.4375,N,07923.1766,W,1,9,2.0,10,M,,M,,*52
05/29/2014	17:10:33.582	$GPGGA,171041,2544.4381,N,07923.1782,W,1,9,2.0,10,M,,M,,*52
05/29/2014	17:10:34.474	$GPGGA,171042,2544.4387,N,07923.1799,W,1,9,2.0,10,M,,M,,*5D
05/29/2014	17:10:35.567	$GPGGA,171043,2544.4391,N,07923.1815,W,1,9,2.0,10,M,,M,,*50
05/29/2014	17:10:36.569	$GPGGA,171044,2544.4398,N,07923.1832,W,1,9,2.0,10,M,,M,,*5B
05/29/2014	17:10:37.591	$GPGGA,171045,2544.4404,N,07923.1848,W,1,9,2.0,10,M,,M,,*55
05/29/2014	17:10:38.563	$GPGGA,171046,2544.4409,N,07923.1865,W,1,9,2.0,10,M,,M,,*54
05/29/2014	17:10:39.586	$GPGGA,171047,2544.4415,N,07923.1882,W,1,9,2.0,10,M,,M,,*51
05/29/2014	17:10:40.579	$GPGGA,171048,2544.4422,N,07923.1898,W,1,9,2.0,10,M,,M,,*51
05/29/2014	17:10:41.561	$GPGGA,171049,2544.4427,N,07923.1915,W,1,9,2.0,10,M,,M,,*51
05/29/2014	17:10:42.573	$GPGGA,171050,2544.4431,N,07923.1931,W,1,9,2.0,10,M,,M,,*58
05/29/2014	17:10:43.565	$GPGGA,171051,2544.4438,N,07923.1948,W,1,9,2.0,10,M,,M,,*5E
05/29/2014	17:10:44.588	$GPGGA,171052,2544.4445,N,07923.1965,W,1,9,2.0,10,M,,M,,*58
05/29/2014	17:10:45.591	$GPGGA,171053,2544.4449,N,07923.1981,W,1,9,2.0,10,M,,M,,*5F
05/29/2014	17:10:46.563	$GPGGA,171054,2544.4455,N,07923.1998,W,1,9,2.0,10,M,,M,,*5D
05/29/2014	17:10:47.586	$GPGGA,171055,2544.4462,N,07923.2014,W,1,9,2.0,10,M,,M,,*56
05/29/2014	17:10:48.588	$GPGGA,171056,2544.4467,N,07923.2030,W,1,9,2.0,10,M,,M,,*56
05/29/2014	17:10:49.591	$GPGGA,171057,2544.4471,N,07923.2048,W,1,9,2.0,10,M,,M,,*5F
05/29/2014	17:10:50.564	$GPGGA,171058,2544.4478,N,07923.2063,W,1,9,2.0,10,M,,M,,*50
05/29/2014	17:10:51.587	$GPGGA,171059,2544.4485,N,07923.2079,W,1,9,2.0,10,M,,M,,*58
05/29/2014	17:10:52.599	$GPGGA,171100,2544.4489,N,07923.2096,W,1,9,2.0,10,M,,M,,*58
05/29/2014	17:10:53.561	$GPGGA,171101,2544.4496,N,07923.2113,W,1,9,2.0,10,M,,M,,*5B
05/29/2014	17:10:54.575	$GPGGA,171102,2544.4503,N,07923.2131,W,1,9,2.0,10,M,,M,,*55
05/29/2014	17:10:55.577	$GPGGA,171103,2544.4507,N,07923.2147,W,1,9,2.0,10,M,,M,,*51
05/29/2014	17:10:56.599	$GPGGA,171104,2544.4514,N,07923.2164,W,1,9,2.0,10,M,,M,,*55
05/29/2014	17:10:58.985	$GPGGA,171106,2544.4525,N,07923.2198,W,1,9,2.0,10,M,,M,,*56
05/29/2014	17:10:59.609	$GPGGA,171107,2544.4532,N,07923.2215,W,1,9,2.0,10,M,,M,,*57
05/29/2014	17:11:00.589	$GPGGA,171108,2544.4539,N,07923.2232,W,1,9,2.0,10,M,,M,,*56
05/29/2014	17:11:01.571	$GPGGA,171109,2544.4543,N,07923.2247,W,1,9,2.0,10,M,,M,,*58
05/29/2014	17:11:02.584	$GPGGA,171110,2544.4549,N,07923.2265,W,1,9,2.0,10,M,,M,,*5A
05/29/2014	17:11:03.586	$GPGGA,171111,2544.4557,N,07923.2281,W,1,9,2.0,10,M,,M,,*5E
05/29/2014	17:11:04.599	$GPGGA,171112,2544.4563,N,07923.2298,W,1,9,2.0,10,M,,M,,*52
05/29/2014	17:11:05.612	$GPGGA,171113,2544.4568,N,07923.2314,W,1,9,2.0,10,M,,M,,*5D
05/29/2014	17:11:06.584	$GPGGA,171114,2544.4572,N,07923.2331,W,1,9,2.0,10,M,,M,,*56
05/29/2014	17:11:07.607	$GPGGA,171115,2544.4581,N,07923.2348,W,1,9,2.0,10,M,,M,,*55
05/29/2014	17:11:08.579	$GPGGA,171116,2544.4587,N,07923.2364,W,1,9,2.0,10,M,,M,,*5E
05/29/2014	17:11:09.582	$GPGGA,171117,2544.4592,N,07923.2381,W,1,9,2.0,10,M,,M,,*50
05/29/2014	17:11:10.584	$GPGGA,171118,2544.4599,N,07923.2397,W,1,9,2.0,10,M,,M,,*53
05/29/2014	17:11:11.587	$GPGGA,171119,2544.4604,N,07923.2413,W,1,9,2.0,10,M,,M,,*5E
05/29/2014	17:11:12.710	$GPGGA,171120,2544.4611,N,07923.2431,W,1,9,2.0,10,M,,M,,*50
05/29/2014	17:11:13.592	$GPGGA,171121,2544.4617,N,07923.2447,W,1,9,2.0,10,M,,M,,*56
05/29/2014	17:11:14.575	$GPGGA,171122,2544.4622,N,07923.2464,W,1,9,2.0,10,M,,M,,*52
05/29/2014	17:11:15.577	$GPGGA,171123,2544.4628,N,07923.2480,W,1,9,2.0,10,M,,M,,*53
05/29/2014	17:11:16.590	$GPGGA,171124,2544.4635,N,07923.2497,W,1,9,2.0,10,M,,M,,*5E
05/29/2014	17:11:17.692	$GPGGA,171125,2544.4641,N,07923.2514,W,1,9,2.0,10,M,,M,,*56
05/29/2014	17:11:18.705	$GPGGA,171126,2544.4647,N,07923.2530,W,1,9,2.0,10,M,,M,,*55
05/29/2014	17:11:19.587	$GPGGA,171127,2544.4652,N,07923.2547,W,1,9,2.0,10,M,,M,,*50
05/29/2014	17:11:20.690	$GPGGA,171128,2544.4659,N,07923.2563,W,1,9,2.0,10,M,,M,,*52
05/29/2014	17:11:21.592	$GPGGA,171129,2544.4665,N,07923.2579,W,1,9,2.0,10,M,,M,,*57
05/29/2014	17:11:22.585	$GPGGA,171130,2544.4670,N,07923.2597,W,1,9,2.0,10,M,,M,,*5B
05/29/2014	17:11:23.697	$GPGGA,171131,2544.4676,N,07923.2612,W,1,9,2.0,10,M,,M,,*52
05/29/2014	17:11:24.600	$GPGGA,171132,2544.4683,N,07923.2630,W,1,9,2.0,10,M,,M,,*5B
05/29/2014	17:11:25.674	$GPGGA,171133,2544.4688,N,07923.2646,W,1,9,2.0,10,M,,M,,*50
05/29/2014	17:11:26.675	$GPGGA,171134,2544.4694,N,07923.2663,W,1,9,2.0,10,M,,M,,*5D
05/29/2014	17:11:27.708	$GPGGA,171135,2544.4698,N,07923.2680,W,1,9,2.0,10,M,,M,,*5D
05/29/2014	17:11:28.700	$GPGGA,171136,2544.4706,N,07923.2696,W,1,9,2.0,10,M,,M,,*5F
05/29/2014	17:11:29.683	$GPGGA,171137,2544.4712,N,07923.2713,W,1,9,2.0,10,M,,M,,*57
05/29/2014	17:11:30.686	$GPGGA,171138,2544.4716,N,07923.2729,W,1,9,2.0,10,M,,M,,*55
05/29/2014	17:11:31.689	$GPGGA,171139,2544.4720,N,07923.2746,W,1,9,2.0,10,M,,M,,*58
05/29/2014	17:11:32.701	$GPGGA,171140,2544.4727,N,07923.2762,W,1,9,2.0,10,M,,M,,*57
05/29/2014	17:11:33.548	$GPGGA,171141,2544.4733,N,07923.2779,W,1,9,2.0,10,M,,M,,*59
05/29/2014	17:11:34.540	$GPGGA,171142,2544.4738,N,07923.2796,W,1,9,2.0,10,M,,M,,*50
05/29/2014	17:11:35.553	$GPGGA,171143,2544.4744,N,07923.2812,W,1,9,2.0,10,M,,M,,*59
05/29/2014	17:11:36.555	$GPGGA,171144,2544.4749,N,07923.2829,W,1,9,2.0,10,M,,M,,*5B
05/29/2014	17:11:37.528	$GPGGA,171145,2544.4755,N,07923.2845,W,1,9,2.0,10,M,,M,,*5D
05/29/2014	17:11:38.540	$GPGGA,171146,2544.4762,N,07923.2862,W,1,9,2.0,10,M,,M,,*5F
05/29/2014	17:11:39.564	$GPGGA,171147,2544.4767,N,07923.2879,W,1,9,2.0,10,M,,M,,*51
05/29/2014	17:11:40.556	$GPGGA,171148,2544.4771,N,07923.2897,W,1,9,2.0,10,M,,M,,*59
05/29/2014	17:11:41.538	$GPGGA,171149,2544.4778,N,07923.2912,W,1,9,2.0,10,M,,M,,*5D
05/29/2014	17:11:42.541	$GPGGA,171150,2544.4784,N,07923.2928,W,1,9,2.0,10,M,,M,,*5F
05/29/2014	17:11:43.563	$GPGGA,171151,2544.4789,N,07923.2945,W,1,9,2.0,10,M,,M,,*58
05/29/2014	17:11:44.556	$GPGGA,171152,2544.4795,N,07923.2962,W,1,9,2.0,10,M,,M,,*53
05/29/2014	17:11:45.539	$GPGGA,171153,2544.4800,N,07923.2978,W,1,9,2.0,10,M,,M,,*5A
05/29/2014	17:11:46.551	$GPGGA,171154,2544.4806,N,07923.2995,W,1,9,2.0,10,M,,M,,*58
05/29/2014	17:11:47.534	$GPGGA,171155,2544.4811,N,07923.3011,W,1,9,2.0,10,M,,M,,*5B
05/29/2014	17:11:48.556	$GPGGA,171156,2544.4818,N,07923.3027,W,1,9,2.0,10,M,,M,,*54
05/29/2014	17:11:49.569	$GPGGA,171157,2544.4824,N,07923.3045,W,1,9,2.0,10,M,,M,,*5E
05/29/2014	17:11:50.543	$GPGGA,171158,2544.4828,N,07923.3060,W,1,9,2.0,10,M,,M,,*5A
